passes_logs/2026/01/23/R4.6S_Anadyr/R4.6S_Anadyr__20260123_173528_NOAA_20_JPSS-1_rec.log

#Pass ID: 20260123_173528_NOAA 20 (JPSS-1)
#Satellite: NOAA 20 (JPSS-1)
#Configuration: NOAA 20
#almurnet v.1.7.20251203
#Start time: 2026-01-23 17:35:31

#Version: 2.2.20231116
#Station: R4.6S_Anadyr
#Location: 177.4865 lon 64.73178 lat
#TLE: 1 43013U 17073A   26022.44900781  .00000193  00000+0  11233-3 0  9999
#TLE: 2 43013  98.7645 323.3100 0001197  28.8413 331.2829 14.19538802423792

#Time	Az	El	Level	Level2	SNR	BER	BlckErr	Temp	State	Recorded	gain1	gain2
2026-01-23 17:35:31.24	32.90	0.17	-50.8	-64.6	3.3	1.54e+00	0	39	0	0	60	61428
2026-01-23 17:35:35.27	32.65	0.38	-50.8	-66.1	3.6	1.51e+00	0	40	104	0	60	73102
2026-01-23 17:35:39.31	32.40	0.60	-50.9	-66.1	3.6	1.51e+00	0	40	104	0	60	72719
2026-01-23 17:35:43.36	32.14	0.81	-50.7	-65.9	3.6	1.51e+00	0	40	104	0	60	71350
2026-01-23 17:35:47.40	31.88	1.03	-50.4	-65.6	3.6	1.51e+00	0	40	104	0	60	68923
2026-01-23 17:35:51.44	31.61	1.25	-50.0	-65.2	3.6	1.51e+00	0	40	104	0	60	66136
2026-01-23 17:35:55.47	31.34	1.47	-49.3	-64.4	3.6	1.51e+00	0	40	104	0	60	60055
2026-01-23 17:35:59.51	31.07	1.69	-49.3	-64.4	3.6	1.51e+00	0	40	104	0	60	60212
2026-01-23 17:36:03.55	30.79	1.91	-49.3	-64.5	3.6	1.51e+00	0	40	104	0	60	60560
2026-01-23 17:36:07.59	30.51	2.13	-49.3	-64.3	3.6	1.51e+00	0	40	104	0	60	59102
2026-01-23 17:36:11.63	30.23	2.35	-49.3	-64.4	3.6	1.51e+00	0	40	104	0	60	59680
2026-01-23 17:36:15.67	29.94	2.58	-49.3	-64.4	3.6	1.51e+00	0	40	104	0	60	60317
2026-01-23 17:36:19.70	29.64	2.80	-49.3	-63.8	3.6	1.51e+00	0	40	104	0	60	55977
2026-01-23 17:36:23.74	29.34	3.03	-49.2	-63.0	3.6	1.51e+00	0	40	104	0	60	51261
2026-01-23 17:36:27.79	29.03	3.25	-49.4	-64.5	3.5	1.51e+00	0	41	104	1048576	60	60830
2026-01-23 17:36:31.82	28.72	3.48	-49.3	-64.4	3.6	1.51e+00	0	40	104	1048576	60	60046
2026-01-23 17:36:35.84	28.41	3.71	-49.2	-64.4	3.6	1.51e+00	0	40	104	1048576	60	59703
2026-01-23 17:36:39.88	28.09	3.94	-49.2	-64.4	3.6	1.51e+00	0	40	104	1048576	60	59648
2026-01-23 17:36:43.92	27.76	4.17	-49.3	-64.3	3.5	1.51e+00	0	41	104	1048576	60	59280
2026-01-23 17:36:47.96	27.43	4.40	-49.3	-64.3	3.6	1.51e+00	0	41	104	1048576	60	59516
2026-01-23 17:36:52.00	27.10	4.64	-49.3	-64.4	3.6	1.51e+00	0	41	104	1048576	60	59652
2026-01-23 17:36:56.04	26.75	4.87	-49.2	-64.2	3.6	1.51e+00	0	41	104	1048576	60	58720
2026-01-23 17:37:00.08	26.41	5.11	-49.3	-64.4	3.5	1.51e+00	0	41	104	1048576	60	59896
2026-01-23 17:37:04.12	26.05	5.34	-49.3	-64.3	3.6	1.51e+00	0	41	104	1048576	60	59597
2026-01-23 17:37:08.16	25.69	5.58	-49.3	-64.3	3.6	1.51e+00	0	41	104	1048576	60	59560
2026-01-23 17:37:12.20	25.32	5.82	-49.2	-64.2	3.6	1.51e+00	0	41	104	1048576	60	58752
2026-01-23 17:37:16.24	24.95	6.06	-49.3	-64.4	3.6	1.51e+00	0	41	104	1048576	60	59996
2026-01-23 17:37:20.28	24.57	6.30	-49.3	-64.4	3.6	1.51e+00	0	41	104	1048576	60	60214
2026-01-23 17:37:24.32	24.19	6.54	-49.3	-64.4	3.6	1.51e+00	0	41	104	1048576	60	60040
2026-01-23 17:37:28.36	23.79	6.79	-49.3	-64.4	3.6	1.51e+00	0	41	104	1048576	60	60123
2026-01-23 17:37:32.40	23.40	7.03	-49.3	-64.4	3.6	1.51e+00	0	41	104	1048576	60	60241
2026-01-23 17:37:36.44	22.99	7.28	-49.3	-64.4	3.6	1.51e+00	0	41	104	1048576	60	60081
2026-01-23 17:37:40.48	22.58	7.52	-49.2	-64.4	3.6	1.51e+00	0	41	104	1048576	60	60234
2026-01-23 17:37:44.52	22.15	7.77	-49.2	-64.5	3.6	1.51e+00	0	41	104	1048576	60	60360
2026-01-23 17:37:48.55	21.73	8.02	-49.3	-64.5	3.6	1.51e+00	0	41	104	1048576	60	60421
2026-01-23 17:37:52.59	21.29	8.27	-49.3	-64.5	3.6	1.51e+00	0	41	104	1048576	60	60344
2026-01-23 17:37:56.63	20.85	8.51	-49.3	-64.4	3.6	1.51e+00	0	41	104	1048576	60	60293
2026-01-23 17:38:00.67	20.40	8.76	-49.3	-64.5	3.6	1.51e+00	0	41	104	1048576	60	60375
2026-01-23 17:38:04.71	19.94	9.02	-49.3	-64.4	3.6	1.51e+00	0	41	104	1048576	60	60180
2026-01-23 17:38:08.75	19.47	9.27	-49.3	-64.5	3.6	1.51e+00	0	41	104	1048576	60	60435
2026-01-23 17:38:12.79	18.99	9.52	-49.3	-64.4	3.6	1.51e+00	0	41	104	1048576	60	59986
2026-01-23 17:38:16.83	18.51	9.77	-49.3	-64.4	3.6	1.51e+00	0	41	104	1048576	60	60254
2026-01-23 17:38:20.87	18.02	10.03	-49.2	-64.4	3.6	1.51e+00	0	41	104	1048576	60	60185
2026-01-23 17:38:24.91	17.51	10.28	-49.2	-64.5	3.6	1.51e+00	0	41	104	1048576	60	60429
2026-01-23 17:38:28.95	17.00	10.53	-49.3	-64.4	3.6	1.51e+00	0	41	104	1048576	60	60141
2026-01-23 17:38:32.99	16.48	10.79	-49.3	-64.5	3.6	1.51e+00	0	41	104	1048576	60	60439
2026-01-23 17:38:37.03	15.95	11.04	-49.2	-64.4	3.6	1.51e+00	0	41	104	1048576	60	60004
2026-01-23 17:38:41.07	15.41	11.30	-49.3	-64.4	3.5	1.51e+00	0	41	104	1048576	60	60243
2026-01-23 17:38:45.10	14.87	11.55	-49.2	-64.4	3.6	1.51e+00	0	41	104	1048576	60	60251
2026-01-23 17:38:49.14	14.31	11.81	-49.3	-64.4	3.6	1.51e+00	0	41	104	1048576	60	60125
2026-01-23 17:38:53.18	13.74	12.06	-49.3	-64.4	3.6	1.51e+00	0	41	104	1048576	60	60130
2026-01-23 17:38:57.22	13.16	12.32	-49.2	-64.4	3.6	1.51e+00	0	41	104	1048576	60	60110
2026-01-23 17:39:01.26	12.57	12.57	-49.2	-64.4	3.6	1.51e+00	0	41	104	1048576	60	60182
2026-01-23 17:39:05.30	11.97	12.83	-49.3	-64.4	3.6	1.51e+00	0	41	104	1048576	60	60272
2026-01-23 17:39:09.34	11.36	13.08	-49.3	-64.4	3.6	1.51e+00	0	41	104	1048576	60	59992
2026-01-23 17:39:13.38	10.74	13.33	-49.3	-64.5	3.6	1.51e+00	0	41	104	1048576	60	60541
2026-01-23 17:39:17.42	10.11	13.59	-49.3	-64.4	3.6	1.51e+00	0	41	104	1048576	60	60161
2026-01-23 17:39:21.46	9.46	13.84	-49.2	-64.5	3.6	1.51e+00	0	41	104	1048576	60	60336
2026-01-23 17:39:25.50	8.81	14.09	-49.2	-64.4	3.6	1.51e+00	0	41	104	1048576	60	60243
2026-01-23 17:39:29.54	8.14	14.34	-49.2	-64.4	3.6	1.51e+00	0	41	104	1048576	60	60198
2026-01-23 17:39:33.58	7.46	14.58	-49.2	-64.5	3.6	1.51e+00	0	41	104	1048576	60	60415
2026-01-23 17:39:37.62	6.78	14.83	-49.3	-64.5	3.6	1.51e+00	0	41	104	1048576	60	60341
2026-01-23 17:39:41.66	6.08	15.07	-49.2	-64.4	3.6	1.51e+00	0	41	104	1048576	60	60180
2026-01-23 17:39:45.70	5.36	15.32	-49.2	-64.5	3.6	1.51e+00	0	41	104	1048576	60	60394
2026-01-23 17:39:49.74	4.64	15.55	-49.2	-64.5	3.6	1.51e+00	0	41	104	1048576	60	60408
2026-01-23 17:39:53.78	3.90	15.79	-49.2	-64.4	3.6	1.51e+00	0	41	104	1048576	60	60179
2026-01-23 17:39:57.82	3.16	16.03	-49.2	-64.4	3.6	1.51e+00	0	41	104	1048576	60	60186
2026-01-23 17:40:01.86	2.40	16.26	-49.2	-64.4	3.6	1.51e+00	0	41	104	1048576	60	60286
2026-01-23 17:40:05.90	1.63	16.49	-49.2	-64.4	3.6	1.51e+00	0	41	104	1048576	60	60228
2026-01-23 17:40:09.94	0.84	16.71	-49.2	-64.4	3.6	1.51e+00	0	41	104	1048576	60	59976
2026-01-23 17:40:13.96	0.05	16.93	-49.3	-64.5	3.6	1.51e+00	0	41	104	1048576	60	60403
2026-01-23 17:40:18.00	359.24	17.15	-49.2	-64.5	3.6	1.51e+00	0	41	104	1048576	60	60388
2026-01-23 17:40:22.04	358.43	17.37	-49.2	-64.4	3.6	1.51e+00	0	41	104	1048576	60	60242
2026-01-23 17:40:26.08	357.59	17.58	-49.2	-64.4	3.6	1.51e+00	0	41	104	1048576	60	60262
2026-01-23 17:40:30.12	356.75	17.78	-49.2	-64.5	3.6	1.51e+00	0	41	104	1048576	60	60364
2026-01-23 17:40:34.16	355.90	17.98	-49.2	-64.4	3.6	1.51e+00	0	41	104	1048576	60	60192
2026-01-23 17:40:38.20	355.03	18.18	-49.2	-64.4	3.6	1.51e+00	0	41	104	1048576	60	60242
2026-01-23 17:40:42.24	354.16	18.37	-49.3	-64.4	3.6	1.51e+00	0	41	104	1048576	60	60195
2026-01-23 17:40:46.27	353.27	18.55	-49.2	-64.4	3.6	1.51e+00	0	41	104	1048576	60	60174
2026-01-23 17:40:50.31	352.37	18.73	-49.3	-64.4	3.6	1.51e+00	0	41	104	1048576	60	60282
2026-01-23 17:40:54.35	351.46	18.91	-49.2	-64.4	3.6	1.51e+00	0	41	104	1048576	60	60093
2026-01-23 17:40:58.39	350.54	19.07	-49.2	-64.5	3.6	1.51e+00	0	41	104	1048576	60	60352
2026-01-23 17:41:02.42	349.62	19.23	-49.2	-64.4	3.6	1.51e+00	0	41	104	1048576	60	60124
2026-01-23 17:41:06.46	348.68	19.38	-49.2	-64.4	3.5	1.51e+00	0	42	104	1048576	60	60207
2026-01-23 17:41:10.51	347.73	19.53	-49.2	-64.5	3.6	1.51e+00	0	41	104	1048576	60	60426
2026-01-23 17:41:14.54	346.77	19.67	-49.2	-64.4	3.6	1.51e+00	0	41	104	1048576	60	60268
2026-01-23 17:41:18.59	345.81	19.80	-49.2	-64.4	3.6	1.51e+00	0	41	104	1048576	60	59883
2026-01-23 17:41:22.63	344.83	19.92	-49.2	-64.5	3.6	1.51e+00	0	41	104	1048576	60	60373
2026-01-23 17:41:26.66	343.85	20.03	-49.2	-64.4	3.6	1.51e+00	0	41	104	1048576	60	60217
2026-01-23 17:41:30.70	342.86	20.14	-49.2	-64.5	3.6	1.51e+00	0	41	104	1048576	60	60525
2026-01-23 17:41:34.74	341.87	20.23	-49.2	-64.4	3.6	1.51e+00	0	41	104	1048576	60	59993
2026-01-23 17:41:38.78	340.87	20.32	-49.2	-64.4	3.6	1.51e+00	0	41	104	1048576	60	60317
2026-01-23 17:41:42.83	339.86	20.40	-49.2	-64.5	3.6	1.51e+00	0	41	104	1048576	60	60642
2026-01-23 17:41:46.87	338.85	20.47	-49.2	-64.4	3.6	1.51e+00	0	42	104	1048576	60	60061
2026-01-23 17:41:50.91	337.83	20.53	-49.2	-64.4	3.6	1.51e+00	0	41	104	1048576	60	60168
2026-01-23 17:41:54.95	336.81	20.58	-49.2	-64.5	3.6	1.51e+00	0	42	104	1048576	60	60361
2026-01-23 17:41:58.99	335.79	20.62	-49.2	-64.5	3.6	1.51e+00	0	42	104	1048576	60	60478
2026-01-23 17:42:03.03	334.76	20.66	-49.2	-64.5	3.6	1.51e+00	0	41	104	1048576	60	60369
2026-01-23 17:42:07.07	333.74	20.68	-49.2	-64.5	3.6	1.51e+00	0	41	104	1048576	60	60425
2026-01-23 17:42:11.10	332.71	20.69	-49.2	-64.4	3.6	1.51e+00	0	42	104	1048576	60	59913
2026-01-23 17:42:15.14	331.68	20.69	-49.2	-64.4	3.6	1.51e+00	0	42	104	1048576	60	60272
2026-01-23 17:42:19.18	330.65	20.69	-49.2	-64.5	3.6	1.51e+00	0	41	104	1048576	60	60418
2026-01-23 17:42:23.22	329.62	20.67	-49.2	-64.4	3.6	1.51e+00	0	42	104	1048576	60	59999
2026-01-23 17:42:27.26	328.60	20.64	-49.2	-64.4	3.6	1.51e+00	0	42	104	1048576	60	60093
2026-01-23 17:42:31.30	327.57	20.61	-49.2	-64.5	3.6	1.51e+00	0	42	104	1048576	60	60415
2026-01-23 17:42:35.34	326.55	20.56	-49.2	-64.4	3.6	1.51e+00	0	42	104	1048576	60	60131
2026-01-23 17:42:39.38	325.53	20.50	-49.2	-64.5	3.6	1.51e+00	0	42	104	1048576	60	60342
2026-01-23 17:42:43.42	324.52	20.44	-49.2	-64.4	3.6	1.51e+00	0	42	104	1048576	60	60083
2026-01-23 17:42:47.46	323.51	20.37	-49.2	-64.4	3.6	1.51e+00	0	42	104	1048576	60	60261
2026-01-23 17:42:51.50	322.50	20.28	-49.2	-64.4	3.6	1.51e+00	0	42	104	1048576	60	60114
2026-01-23 17:42:55.54	321.50	20.19	-49.2	-64.4	3.6	1.51e+00	0	42	104	1048576	60	60254
2026-01-23 17:42:59.57	320.51	20.09	-49.2	-64.5	3.6	1.51e+00	0	42	104	1048576	60	60396
2026-01-23 17:43:03.61	319.53	19.98	-49.2	-64.4	3.6	1.51e+00	0	42	104	1048576	60	60276
2026-01-23 17:43:07.65	318.55	19.86	-49.2	-64.5	3.6	1.51e+00	0	42	104	1048576	60	60399
2026-01-23 17:43:11.68	317.58	19.74	-49.2	-64.4	3.6	1.51e+00	0	42	104	1048576	60	60205
2026-01-23 17:43:15.72	316.61	19.60	-49.2	-64.4	3.6	1.51e+00	0	42	104	1048576	60	60326
2026-01-23 17:43:19.76	315.66	19.46	-49.2	-64.4	3.6	1.51e+00	0	42	104	1048576	60	60075
2026-01-23 17:43:23.80	314.72	19.31	-49.2	-64.4	3.6	1.51e+00	0	42	104	1048576	60	60251
2026-01-23 17:43:27.84	313.78	19.16	-49.2	-64.4	3.6	1.51e+00	0	42	104	1048576	60	60283
2026-01-23 17:43:31.88	312.85	19.00	-49.2	-64.5	3.6	1.51e+00	0	42	104	1048576	60	60519
2026-01-23 17:43:35.92	311.94	18.83	-49.2	-64.4	3.6	1.51e+00	0	42	104	1048576	60	59959
2026-01-23 17:43:39.96	311.03	18.65	-49.2	-64.4	3.6	1.51e+00	0	42	104	1048576	60	60282
2026-01-23 17:43:44.00	310.14	18.47	-49.2	-64.5	3.6	1.51e+00	0	42	104	1048576	60	60469
2026-01-23 17:43:48.04	309.25	18.28	-49.2	-64.4	3.6	1.51e+00	0	42	104	1048576	60	60166
2026-01-23 17:43:52.08	308.38	18.09	-49.2	-64.5	3.6	1.51e+00	0	42	104	1048576	60	60458
2026-01-23 17:43:56.11	307.52	17.89	-49.2	-64.4	3.6	1.51e+00	0	42	104	1048576	60	60180
2026-01-23 17:44:00.15	306.67	17.69	-49.2	-64.4	3.6	1.51e+00	0	42	104	1048576	60	60174
2026-01-23 17:44:04.19	305.83	17.48	-49.2	-64.4	3.6	1.51e+00	0	42	104	1048576	60	60265
2026-01-23 17:44:08.23	305.01	17.27	-49.2	-64.5	3.6	1.51e+00	0	42	104	1048576	60	60370
2026-01-23 17:44:12.28	304.19	17.05	-49.2	-64.5	3.6	1.51e+00	0	42	104	1048576	60	60339
2026-01-23 17:44:16.31	303.39	16.83	-49.2	-64.4	3.6	1.51e+00	0	42	104	1048576	60	60190
2026-01-23 17:44:20.36	302.59	16.61	-49.2	-64.4	3.6	1.51e+00	0	42	104	1048576	60	60132
2026-01-23 17:44:24.40	301.81	16.38	-49.3	-64.4	3.6	1.51e+00	0	42	104	1048576	60	60237
2026-01-23 17:44:28.44	301.05	16.15	-49.3	-64.4	3.6	1.51e+00	0	42	104	1048576	60	60300
2026-01-23 17:44:32.48	300.29	15.91	-49.2	-64.4	3.6	1.51e+00	0	42	104	1048576	60	59944
2026-01-23 17:44:36.52	299.55	15.68	-49.2	-64.4	3.6	1.51e+00	0	42	104	1048576	60	60109
2026-01-23 17:44:40.55	298.82	15.44	-49.2	-64.5	3.6	1.51e+00	0	42	104	1048576	60	60415
2026-01-23 17:44:44.59	298.10	15.20	-49.2	-64.5	3.6	1.51e+00	0	42	104	1048576	60	60705
2026-01-23 17:44:48.63	297.39	14.95	-49.2	-64.5	3.6	1.51e+00	0	42	104	1048576	60	60336
2026-01-23 17:44:52.67	296.69	14.71	-49.2	-64.4	3.6	1.51e+00	0	42	104	1048576	60	60051
2026-01-23 17:44:56.71	296.01	14.46	-49.2	-64.4	3.6	1.51e+00	0	42	104	1048576	60	60289
2026-01-23 17:45:00.75	295.33	14.21	-49.2	-64.4	3.6	1.51e+00	0	42	104	1048576	60	60232
2026-01-23 17:45:04.79	294.67	13.96	-49.2	-64.4	3.6	1.51e+00	0	42	104	1048576	60	60032
2026-01-23 17:45:08.83	294.02	13.71	-49.3	-64.4	3.6	1.51e+00	0	42	104	1048576	60	60232
2026-01-23 17:45:12.87	293.38	13.46	-49.2	-64.4	3.6	1.51e+00	0	42	104	1048576	60	60234
2026-01-23 17:45:16.91	292.75	13.21	-49.2	-64.5	3.6	1.51e+00	0	42	104	1048576	60	60509
2026-01-23 17:45:20.95	292.13	12.95	-49.2	-64.4	3.6	1.51e+00	0	42	104	1048576	60	59999
2026-01-23 17:45:24.99	291.53	12.70	-49.2	-64.4	3.6	1.51e+00	0	42	104	1048576	60	60110
2026-01-23 17:45:29.03	290.93	12.44	-49.2	-64.4	3.6	1.51e+00	0	42	104	1048576	60	60205
2026-01-23 17:45:33.07	290.34	12.19	-49.2	-64.4	3.6	1.51e+00	0	42	104	1048576	60	60332
2026-01-23 17:45:37.10	289.77	11.93	-49.3	-64.4	3.6	1.51e+00	0	42	104	1048576	60	60052
2026-01-23 17:45:41.14	289.20	11.68	-49.2	-64.5	3.6	1.51e+00	0	42	104	1048576	60	60423
2026-01-23 17:45:45.18	288.65	11.42	-49.2	-64.4	3.6	1.51e+00	0	42	104	1048576	60	60103
2026-01-23 17:45:49.23	288.10	11.17	-49.2	-64.5	3.6	1.51e+00	0	42	104	1048576	60	60397
2026-01-23 17:45:53.27	287.56	10.91	-49.2	-64.4	3.6	1.51e+00	0	42	104	1048576	60	60274
2026-01-23 17:45:57.31	287.03	10.66	-49.2	-64.4	3.6	1.51e+00	0	42	104	1048576	60	59997
2026-01-23 17:46:01.35	286.52	10.40	-49.2	-64.5	3.6	1.51e+00	0	42	104	1048576	60	60542
2026-01-23 17:46:05.38	286.01	10.15	-49.2	-64.4	3.6	1.51e+00	0	42	104	1048576	60	60171
2026-01-23 17:46:09.42	285.51	9.89	-49.2	-64.5	3.6	1.51e+00	0	42	104	1048576	60	60528
2026-01-23 17:46:13.46	285.02	9.64	-49.2	-64.4	3.6	1.51e+00	0	42	104	1048576	60	60098
2026-01-23 17:46:17.50	284.53	9.39	-49.2	-64.4	3.6	1.51e+00	0	42	104	1048576	60	60160
2026-01-23 17:46:21.54	284.06	9.13	-49.2	-64.4	3.5	1.51e+00	0	41	104	1048576	60	60142
2026-01-23 17:46:25.58	283.59	8.88	-49.2	-64.4	3.6	1.51e+00	0	42	104	1048576	60	60134
2026-01-23 17:46:29.62	283.14	8.63	-49.2	-64.4	3.6	1.51e+00	0	41	104	1048576	60	60252
2026-01-23 17:46:33.66	282.69	8.38	-49.2	-64.4	3.6	1.51e+00	0	42	104	1048576	60	60258
2026-01-23 17:46:37.69	282.25	8.13	-49.2	-64.4	3.6	1.51e+00	0	42	104	1048576	60	60244
2026-01-23 17:46:41.73	281.81	7.88	-49.2	-64.4	3.6	1.51e+00	0	42	104	1048576	60	60260
2026-01-23 17:46:45.77	281.38	7.64	-49.2	-64.5	3.6	1.51e+00	0	41	104	1048576	60	60347
2026-01-23 17:46:49.81	280.97	7.39	-49.2	-64.5	3.6	1.51e+00	0	41	104	1048576	60	60356
2026-01-23 17:46:53.85	280.55	7.14	-49.2	-64.4	3.6	1.51e+00	0	41	104	1048576	60	60096
2026-01-23 17:46:57.89	280.15	6.90	-49.2	-64.4	3.6	1.51e+00	0	41	104	1048576	60	60151
2026-01-23 17:47:01.93	279.75	6.66	-49.2	-64.4	3.6	1.51e+00	0	41	104	1048576	60	60074
2026-01-23 17:47:05.97	279.36	6.41	-49.2	-64.4	3.6	1.51e+00	0	41	104	1048576	60	60269
2026-01-23 17:47:10.01	278.97	6.17	-49.2	-64.4	3.6	1.51e+00	0	41	104	1048576	60	60277
2026-01-23 17:47:14.05	278.60	5.93	-49.2	-64.4	3.6	1.51e+00	0	41	104	1048576	60	60170
2026-01-23 17:47:18.09	278.22	5.69	-49.2	-64.5	3.6	1.51e+00	0	41	104	1048576	60	60342
2026-01-23 17:47:22.12	277.86	5.45	-49.2	-64.4	3.6	1.51e+00	0	41	104	1048576	60	60069
2026-01-23 17:47:26.16	277.50	5.21	-49.2	-64.4	3.6	1.51e+00	0	41	104	1048576	60	59897
2026-01-23 17:47:30.20	277.15	4.98	-49.2	-64.4	3.6	1.51e+00	0	41	104	1048576	60	59865
2026-01-23 17:47:34.24	276.80	4.74	-49.2	-64.4	3.6	1.51e+00	0	41	104	1048576	60	59771
2026-01-23 17:47:38.28	276.46	4.51	-49.2	-64.4	3.6	1.51e+00	0	41	104	1048576	60	60002
2026-01-23 17:47:42.32	276.12	4.27	-49.2	-64.4	3.6	1.51e+00	0	41	104	1048576	60	60076
2026-01-23 17:47:46.36	275.79	4.04	-49.2	-64.4	3.6	1.51e+00	0	41	104	1048576	60	60270
2026-01-23 17:47:50.40	275.46	3.81	-49.2	-64.5	3.6	1.51e+00	0	41	104	1048576	60	60400
2026-01-23 17:47:54.44	275.14	3.58	-49.2	-64.4	3.6	1.51e+00	0	41	104	1048576	60	59922
2026-01-23 17:47:58.47	274.83	3.35	-49.2	-64.4	3.6	1.51e+00	0	41	104	1048576	60	60111
2026-01-23 17:48:02.52	274.52	3.12	-49.2	-64.4	3.6	1.51e+00	0	41	104	1048576	60	59888
2026-01-23 17:48:06.56	274.21	2.90	-49.2	-64.4	3.6	1.51e+00	0	41	104	1048576	60	60053
2026-01-23 17:48:10.60	273.91	2.67	-49.2	-64.4	3.6	1.51e+00	0	41	104	1048576	60	60113
2026-01-23 17:48:14.63	273.62	2.45	-49.2	-64.4	3.6	1.51e+00	0	41	104	1048576	60	59899
2026-01-23 17:48:18.67	273.33	2.22	-49.2	-64.4	3.6	1.51e+00	0	41	104	1048576	60	60143
2026-01-23 17:48:22.71	273.04	2.00	-49.2	-64.4	3.6	1.51e+00	0	41	104	1048576	60	60253
2026-01-23 17:48:26.75	272.76	1.78	-49.2	-64.4	3.6	1.51e+00	0	41	104	1048576	60	60217
2026-01-23 17:48:30.79	272.48	1.56	-49.2	-64.4	3.6	1.51e+00	0	41	104	1048576	60	60163
2026-01-23 17:48:34.83	272.21	1.34	-49.2	-64.4	3.6	1.51e+00	0	41	104	1048576	60	59761
2026-01-23 17:48:38.87	271.94	1.12	-49.2	-64.4	3.6	1.51e+00	0	41	104	1048576	60	60209
2026-01-23 17:48:42.91	271.68	0.90	-49.2	-64.4	3.5	1.51e+00	0	41	104	1048576	60	60282
2026-01-23 17:48:46.95	271.41	0.69	-49.2	-64.4	3.6	1.51e+00	0	41	104	1048576	60	60026
2026-01-23 17:48:51.00	271.16	0.47	-49.2	-64.4	3.6	1.51e+00	0	41	104	1048576	60	60040
2026-01-23 17:48:55.04	270.90	0.26	-49.2	-64.4	3.6	1.51e+00	0	41	104	1048576	60	60045
2026-01-23 17:48:59.07	270.65	0.05	-49.2	-64.4	3.6	1.51e+00	0	41	104	1048576	60	59949

#Closed at: 2026-01-23 17:49:00
#Recorded file [1 MB]: D:/lorett/data/35029_260124_053531.dat