passes_logs/2026/01/23/R4.6S_Anadyr/R4.6S_Anadyr__20260123_021940_AQUA_rec.log

#Pass ID: 20260123_021940_AQUA
#Satellite: AQUA
#Configuration: AQUA
#almurnet v.1.7.20251203
#Start time: 2026-01-23 02:19:41

#Version: 2.2.20231116
#Station: R4.6S_Anadyr
#Location: 177.4865 lon 64.73178 lat
#TLE: 1 27424U 02022A   26022.49486490  .00002153  00000+0  44069-3 0  9997
#TLE: 2 27424  98.4099 349.0485 0001970  69.5876  43.4746 14.61847233261984

#Time	Az	El	Level	Level2	SNR	BER	BlckErr	Temp	State	Recorded	gain1	gain2
2026-01-23 02:19:41.38	165.90	0.04	-51.5	-66.5	3.5	1.51e+00	0	39	0	0	60	75986
2026-01-23 02:19:45.41	165.96	0.29	-52.0	-70.0	3.5	3.02e+01	0	40	104	0	60	121362
2026-01-23 02:19:49.46	166.02	0.54	-52.1	-70.0	3.5	3.02e+01	0	40	104	0	60	121713
2026-01-23 02:19:53.49	166.09	0.80	-52.0	-69.9	3.5	3.02e+01	0	40	104	0	60	120548
2026-01-23 02:19:57.53	166.15	1.05	-51.7	-69.7	3.5	3.02e+01	0	40	104	0	60	116900
2026-01-23 02:20:01.57	166.22	1.31	-50.3	-68.3	3.5	3.02e+01	0	40	104	0	60	99893
2026-01-23 02:20:05.61	166.28	1.57	-50.7	-68.6	3.5	3.02e+01	0	40	104	0	60	103200
2026-01-23 02:20:09.65	166.35	1.84	-50.7	-67.8	3.5	3.02e+01	0	40	104	0	60	94015
2026-01-23 02:20:13.69	166.42	2.11	-50.7	-68.0	3.5	3.02e+01	0	40	104	0	60	96275
2026-01-23 02:20:17.74	166.49	2.38	-50.7	-68.4	3.5	3.02e+01	0	40	104	0	60	100927
2026-01-23 02:20:21.78	166.56	2.65	-50.6	-66.3	3.6	3.02e+01	0	40	104	0	60	79944
2026-01-23 02:20:25.81	166.63	2.92	-50.6	-65.2	4.0	3.02e+01	0	40	104	0	60	69852
2026-01-23 02:20:29.85	166.71	3.20	-50.4	-62.4	6.1	3.02e+01	92	40	104	0	60	50877
2026-01-23 02:20:33.89	166.78	3.49	-47.0	-50.3	17.8	3.02e+01	92	40	0	6815744	60	12585
2026-01-23 02:20:37.93	166.86	3.77	-45.9	-48.6	19.5	3.02e+01	88	40	0	14155776	60	10306
2026-01-23 02:20:41.98	166.94	4.06	-50.6	-63.8	3.8	3.02e+01	0	40	104	18874368	60	59929
2026-01-23 02:20:46.01	167.02	4.35	-44.8	-47.0	21.3	3.02e+01	90	40	0	22020096	60	8590
2026-01-23 02:20:50.05	167.10	4.65	-42.3	-44.0	24.2	3.02e+01	90	40	0	29884416	60	6065
2026-01-23 02:20:54.08	167.18	4.95	-41.6	-43.1	25.3	3.02e+01	92	40	0	37224448	58	6168
2026-01-23 02:20:58.12	167.26	5.25	-40.7	-42.1	25.9	3.02e+01	90	40	0	45088768	56	6146
2026-01-23 02:21:02.16	167.35	5.56	-40.2	-41.6	26.6	3.02e+01	90	40	0	52428800	56	5830
2026-01-23 02:21:06.19	167.43	5.87	-39.9	-41.3	26.7	3.02e+01	92	40	0	60293120	54	6297
2026-01-23 02:21:10.23	167.52	6.18	-40.2	-41.5	26.6	3.02e+01	90	41	0	67633152	54	6491
2026-01-23 02:21:14.27	167.61	6.50	-39.7	-41.1	27.0	3.02e+01	92	41	0	74973184	54	6141
2026-01-23 02:21:18.31	167.70	6.83	-39.8	-41.1	27.1	3.02e+01	91	40	0	82837504	54	6180
2026-01-23 02:21:22.35	167.80	7.15	-39.2	-40.5	27.6	3.02e+01	92	40	0	90177536	54	5745
2026-01-23 02:21:26.39	167.89	7.49	-39.1	-40.4	27.6	3.02e+01	91	41	0	98041856	52	6372
2026-01-23 02:21:30.43	167.99	7.83	-39.0	-40.3	27.9	3.02e+01	89	41	0	105381888	52	6291
2026-01-23 02:21:34.46	168.09	8.17	-39.0	-40.2	28.0	3.02e+01	92	41	0	113246208	52	6266
2026-01-23 02:21:38.50	168.20	8.52	-39.0	-40.3	27.9	3.02e+01	92	41	0	120586240	52	6306
2026-01-23 02:21:42.54	168.30	8.87	-39.1	-40.4	27.9	3.02e+01	92	41	0	128450560	52	6362
2026-01-23 02:21:46.58	168.41	9.23	-39.1	-40.4	27.9	3.02e+01	91	41	0	135790592	52	6361
2026-01-23 02:21:50.62	168.52	9.60	-38.8	-40.1	28.2	3.02e+01	90	41	0	143130624	52	6185
2026-01-23 02:21:54.66	168.63	9.97	-38.7	-40.0	28.3	3.02e+01	92	41	0	150994944	52	6073
2026-01-23 02:21:58.70	168.75	10.34	-38.6	-39.9	28.3	3.02e+01	92	41	0	158334976	52	6013
2026-01-23 02:22:02.74	168.87	10.73	-38.5	-39.7	28.6	3.02e+01	92	41	0	166199296	52	5913
2026-01-23 02:22:06.78	168.99	11.12	-38.3	-39.5	28.7	3.02e+01	92	41	0	173539328	52	5778
2026-01-23 02:22:10.82	169.11	11.52	-38.3	-39.5	28.8	3.02e+01	90	41	0	181403648	52	5776
2026-01-23 02:22:14.85	169.24	11.92	-38.3	-39.5	28.8	3.02e+01	88	41	0	188743680	52	5761
2026-01-23 02:22:18.89	169.37	12.33	-38.2	-39.4	28.9	3.02e+01	91	41	0	196083712	52	5682
2026-01-23 02:22:22.93	169.51	12.75	-38.2	-39.4	28.9	3.02e+01	90	41	0	203948032	52	5692
2026-01-23 02:22:26.97	169.64	13.18	-38.1	-39.3	29.0	3.02e+01	92	41	0	211288064	52	5623
2026-01-23 02:22:31.00	169.79	13.62	-38.0	-39.3	29.0	3.02e+01	90	41	0	219152384	52	5599
2026-01-23 02:22:35.04	169.93	14.06	-37.9	-39.1	29.1	3.02e+01	92	41	0	226492416	50	6196
2026-01-23 02:22:39.08	170.08	14.52	-37.9	-39.2	29.1	3.02e+01	92	41	0	234356736	50	6207
2026-01-23 02:22:43.12	170.24	14.98	-38.0	-39.2	29.1	3.02e+01	92	41	0	241696768	50	6247
2026-01-23 02:22:47.15	170.40	15.45	-38.3	-48.5	3.6	3.02e+01	0	41	104	243793920	50	18224
2026-01-23 02:22:51.20	170.57	15.94	-48.9	-61.6	3.6	3.02e+01	0	41	104	243793920	60	46083
2026-01-23 02:22:55.23	170.74	16.43	-38.2	-48.3	4.1	3.02e+01	0	41	104	243793920	52	15900
2026-01-23 02:22:59.27	170.91	16.94	-51.6	-69.0	3.5	3.02e+01	0	41	104	243793920	60	108329
2026-01-23 02:23:03.31	171.10	17.46	-39.2	-49.4	3.5	3.02e+01	0	41	104	243793920	54	16011
2026-01-23 02:23:07.35	171.29	17.99	-39.4	-49.7	3.3	3.02e+01	0	41	104	243793920	56	14821
2026-01-23 02:23:11.39	171.48	18.53	-39.1	-49.4	3.5	3.02e+01	0	41	104	243793920	54	15956
2026-01-23 02:23:15.43	171.68	19.08	-43.2	-53.7	3.5	3.02e+01	0	41	104	243793920	60	18690
2026-01-23 02:23:19.47	171.89	19.65	-42.6	-53.0	3.5	3.02e+01	0	41	104	243793920	60	17249
2026-01-23 02:23:23.51	172.11	20.24	-38.6	-48.8	3.5	3.02e+01	0	41	104	243793920	52	16832
2026-01-23 02:23:27.55	172.34	20.83	-45.2	-56.2	3.5	3.02e+01	0	41	104	243793920	58	27775
2026-01-23 02:23:31.58	172.57	21.45	-40.5	-50.8	3.5	3.02e+01	0	41	104	243793920	56	16766
2026-01-23 02:23:35.62	172.82	22.08	-51.5	-68.6	3.5	3.02e+01	0	41	104	243793920	60	103934
2026-01-23 02:23:39.66	173.07	22.72	-39.0	-49.2	3.5	3.02e+01	0	41	104	243793920	52	17558
2026-01-23 02:23:43.69	173.34	23.39	-50.5	-65.0	3.4	3.02e+01	0	41	104	243793920	60	68595
2026-01-23 02:23:47.73	173.62	24.07	-39.5	-49.7	3.5	3.02e+01	0	41	104	243793920	54	16587
2026-01-23 02:23:51.77	173.91	24.77	-44.9	-55.7	3.5	3.02e+01	0	41	104	243793920	60	23550
2026-01-23 02:23:55.80	174.21	25.49	-42.3	-52.7	3.6	3.02e+01	0	41	104	243793920	60	16563
2026-01-23 02:23:59.84	174.52	26.23	-41.7	-52.1	3.5	3.02e+01	0	41	104	243793920	56	19549
2026-01-23 02:24:03.88	174.86	27.00	-50.8	-65.7	3.5	3.02e+01	0	41	104	243793920	60	74555
2026-01-23 02:24:07.92	175.20	27.79	-38.5	-48.8	3.6	3.02e+01	0	41	104	243793920	52	16727
2026-01-23 02:24:11.96	175.57	28.60	-45.0	-55.7	3.5	3.02e+01	0	41	104	243793920	60	23363
2026-01-23 02:24:16.00	175.96	29.44	-38.2	-48.4	3.5	3.02e+01	0	41	104	243793920	52	16079
2026-01-23 02:24:20.04	176.36	30.30	-51.1	-68.5	3.5	3.02e+01	0	41	104	243793920	60	102731
2026-01-23 02:24:24.07	176.79	31.19	-45.6	-56.6	3.5	3.02e+01	0	41	104	243793920	60	25928
2026-01-23 02:24:28.11	177.24	32.11	-51.8	-68.8	3.5	3.02e+01	0	41	104	243793920	60	106087
2026-01-23 02:24:32.15	177.72	33.05	-41.3	-51.6	3.5	3.02e+01	0	41	104	243793920	58	16485
2026-01-23 02:24:36.18	178.23	34.03	-40.6	-50.9	3.5	3.02e+01	0	41	104	243793920	54	19143
2026-01-23 02:24:40.22	178.77	35.04	-49.3	-61.9	3.5	3.02e+01	0	41	104	243793920	60	47851
2026-01-23 02:24:44.26	179.34	36.08	-39.9	-50.2	3.5	3.02e+01	0	41	104	243793920	54	17597
2026-01-23 02:24:48.29	179.95	37.15	-47.7	-59.4	3.6	3.02e+01	0	41	104	243793920	60	35727
2026-01-23 02:24:52.33	180.61	38.26	-42.3	-52.6	3.6	3.02e+01	0	41	104	243793920	60	16427
2026-01-23 02:24:56.37	181.31	39.41	-49.6	-62.5	3.5	3.02e+01	0	41	104	243793920	60	51041
2026-01-23 02:25:00.41	182.06	40.59	-40.8	-51.1	3.6	3.02e+01	0	42	104	243793920	56	17294
2026-01-23 02:25:04.45	182.88	41.81	-39.0	-49.2	3.5	3.02e+01	0	42	104	243793920	54	15619
2026-01-23 02:25:08.49	183.75	43.07	-40.5	-50.8	3.5	3.02e+01	0	41	104	243793920	56	16836
2026-01-23 02:25:12.53	184.70	44.36	-39.0	-49.2	3.6	3.02e+01	0	41	104	243793920	54	15643
2026-01-23 02:25:16.57	185.73	45.69	-45.8	-56.8	3.5	3.02e+01	0	42	104	243793920	60	26649
2026-01-23 02:25:20.61	186.85	47.05	-43.9	-54.5	3.5	3.02e+01	0	42	104	243793920	60	20545
2026-01-23 02:25:24.65	188.07	48.46	-40.0	-50.3	3.5	3.02e+01	0	41	104	243793920	54	17776
2026-01-23 02:25:28.69	189.41	49.89	-39.1	-49.3	3.6	3.02e+01	0	41	104	243793920	54	15786
2026-01-23 02:25:32.72	190.89	51.35	-51.1	-66.0	3.5	3.02e+01	0	41	104	243793920	60	76717
2026-01-23 02:25:36.76	192.51	52.84	-38.8	-49.0	3.5	3.02e+01	0	41	104	243793920	52	17216
2026-01-23 02:25:40.79	194.31	54.35	-51.9	-69.5	3.5	3.02e+01	0	42	104	243793920	60	114279
2026-01-23 02:25:44.83	196.32	55.88	-41.7	-52.3	3.5	3.02e+01	0	42	104	243793920	58	17693
2026-01-23 02:25:48.87	198.55	57.42	-49.8	-62.9	3.5	3.02e+01	0	42	104	243793920	60	53980
2026-01-23 02:25:52.91	201.06	58.95	-44.4	-54.9	3.5	3.02e+01	0	42	104	243793920	60	21463
2026-01-23 02:25:56.95	203.87	60.47	-44.3	-54.9	3.5	3.02e+01	0	42	104	243793920	60	21482
2026-01-23 02:26:00.98	207.02	61.95	-49.5	-62.4	3.5	3.02e+01	0	42	104	243793920	60	50581
2026-01-23 02:26:05.01	210.58	63.39	-42.2	-52.5	3.5	3.02e+01	0	42	104	243793920	60	16257
2026-01-23 02:26:09.05	214.59	64.75	-51.8	-68.7	3.5	3.02e+01	0	42	104	243793920	60	105080
2026-01-23 02:26:13.09	219.09	66.01	-45.3	-56.2	3.6	3.02e+01	0	42	104	243793920	60	24848
2026-01-23 02:26:17.13	224.12	67.15	-51.9	-69.0	3.5	3.02e+01	0	42	104	243793920	60	108333
2026-01-23 02:26:21.17	229.68	68.12	-45.0	-55.7	3.5	3.02e+01	0	42	104	243793920	60	23369
2026-01-23 02:26:25.21	235.74	68.89	-46.9	-58.5	3.5	3.02e+01	0	42	104	243793920	60	32345
2026-01-23 02:26:29.25	242.22	69.43	-45.6	-56.9	3.5	3.02e+01	0	42	104	243793920	60	26917
2026-01-23 02:26:33.29	248.99	69.73	-50.9	-65.1	3.5	3.02e+01	0	42	104	243793920	60	69434
2026-01-23 02:26:37.33	255.87	69.75	-47.3	-58.7	3.5	3.02e+01	0	42	104	243793920	60	33201
2026-01-23 02:26:41.37	262.67	69.51	-43.4	-54.2	3.5	3.02e+01	0	42	104	243793920	60	19744
2026-01-23 02:26:45.41	269.21	69.01	-49.5	-62.3	3.5	3.02e+01	0	42	104	243793920	60	50159
2026-01-23 02:26:49.44	275.33	68.27	-43.5	-54.0	3.6	3.02e+01	0	42	104	243793920	60	19262
2026-01-23 02:26:53.48	280.98	67.34	-52.0	-69.5	3.5	3.02e+01	0	42	104	243793920	60	115008
2026-01-23 02:26:57.52	286.10	66.24	-41.4	-51.7	3.5	3.02e+01	0	42	104	243793920	58	16581
2026-01-23 02:27:01.56	290.69	65.00	-48.6	-60.4	3.5	3.02e+01	0	42	104	243793920	60	40152
2026-01-23 02:27:05.60	294.79	63.65	-44.5	-55.1	3.5	3.02e+01	0	42	104	243793920	60	21829
2026-01-23 02:27:09.64	298.42	62.23	-50.1	-63.4	3.5	3.02e+01	0	42	104	243793920	60	56686
2026-01-23 02:27:13.68	301.65	60.75	-42.0	-52.2	3.5	3.02e+01	0	42	104	243793920	60	15759
2026-01-23 02:27:17.71	304.51	59.25	-43.6	-54.3	3.5	3.02e+01	0	42	104	243793920	58	22458
2026-01-23 02:27:21.75	307.07	57.72	-40.5	-50.7	3.5	3.02e+01	0	42	104	243793920	54	18617
2026-01-23 02:27:25.79	309.35	56.19	-38.4	-48.4	3.5	3.02e+01	0	42	104	243793920	52	16018
2026-01-23 02:27:29.84	311.39	54.66	-51.7	-67.5	3.5	3.02e+01	0	42	104	243793920	60	91379
2026-01-23 02:27:33.87	313.22	53.15	-42.4	-53.0	3.5	3.02e+01	0	42	104	243793920	60	17280
2026-01-23 02:27:37.91	314.88	51.66	-51.6	-67.6	3.5	3.02e+01	0	42	104	243793920	60	92318
2026-01-23 02:27:41.95	316.38	50.20	-41.5	-52.1	3.5	3.02e+01	0	42	104	243793920	56	19410
2026-01-23 02:27:45.99	317.74	48.76	-42.5	-52.8	3.5	3.02e+01	0	42	104	243793920	56	21160
2026-01-23 02:27:50.03	318.99	47.36	-40.0	-50.2	3.5	3.02e+01	0	42	104	243793920	56	15632
2026-01-23 02:27:54.07	320.12	45.99	-42.5	-52.8	3.5	3.02e+01	0	42	104	243793920	58	18797
2026-01-23 02:27:58.10	321.16	44.66	-40.9	-51.2	3.6	3.02e+01	0	42	104	243793920	54	19791
2026-01-23 02:28:02.14	322.13	43.37	-39.0	-49.2	3.5	3.02e+01	0	42	104	243793920	52	17617
2026-01-23 02:28:06.18	323.01	42.11	-51.1	-66.9	3.5	3.02e+01	0	42	104	243793920	60	85283
2026-01-23 02:28:10.22	323.84	40.89	-40.2	-50.6	3.5	3.02e+01	0	42	104	243793920	56	16338
2026-01-23 02:28:14.25	324.60	39.71	-51.9	-68.9	3.5	3.02e+01	0	42	104	243793920	60	107283
2026-01-23 02:28:18.29	325.31	38.56	-40.7	-50.9	3.5	3.02e+01	0	42	104	243793920	56	16942
2026-01-23 02:28:22.32	325.97	37.45	-43.5	-54.0	3.6	3.02e+01	0	42	104	243793920	60	19353
2026-01-23 02:28:26.36	326.59	36.37	-39.6	-49.8	3.5	3.02e+01	0	42	104	243793920	54	16740
2026-01-23 02:28:30.40	327.18	35.33	-38.5	-48.6	3.5	3.02e+01	0	42	104	243793920	52	16505
2026-01-23 02:28:34.44	327.72	34.32	-41.5	-51.9	3.5	3.02e+01	0	42	104	243793920	60	15089
2026-01-23 02:28:38.47	328.24	33.34	-38.4	-48.5	3.5	3.02e+01	0	42	104	243793920	50	18255
2026-01-23 02:28:42.51	328.72	32.39	-39.1	-49.2	3.5	3.02e+01	0	42	104	243793920	58	12452
2026-01-23 02:28:46.55	329.18	31.47	-37.7	-47.8	3.5	3.02e+01	0	42	104	243793920	50	16883
2026-01-23 02:28:50.59	329.61	30.58	-51.5	-67.8	3.5	3.02e+01	0	42	104	243793920	60	94719
2026-01-23 02:28:54.63	330.02	29.71	-39.5	-49.7	3.6	3.02e+01	0	42	104	243793920	54	16672
2026-01-23 02:28:58.67	330.41	28.87	-38.7	-40.0	28.7	3.02e+01	59	42	0	248512512	52	6069
2026-01-23 02:29:02.71	330.78	28.06	-37.2	-38.3	30.1	3.02e+01	47	41	0	256376832	50	5647
2026-01-23 02:29:06.75	331.14	27.27	-37.4	-38.6	29.9	3.02e+01	59	42	0	263716864	50	5835
2026-01-23 02:29:10.78	331.47	26.50	-37.7	-38.9	29.5	3.02e+01	47	42	0	271581184	50	6034
2026-01-23 02:29:14.82	331.79	25.76	-37.9	-39.1	29.4	3.02e+01	58	41	0	278921216	50	6167
2026-01-23 02:29:18.86	332.10	25.03	-38.0	-39.2	29.3	3.02e+01	58	41	0	286785536	50	6244
2026-01-23 02:29:22.90	332.39	24.33	-38.0	-39.2	29.3	3.02e+01	57	41	0	294125568	50	6267
2026-01-23 02:29:26.94	332.67	23.65	-38.4	-39.6	29.0	3.02e+01	61	41	0	301465600	50	6518
2026-01-23 02:29:30.97	332.94	22.98	-38.1	-39.4	29.2	3.02e+01	62	41	0	309329920	50	6353
2026-01-23 02:29:35.01	333.20	22.33	-38.2	-39.4	29.0	3.02e+01	60	41	0	316669952	50	6423
2026-01-23 02:29:39.05	333.45	21.70	-38.2	-39.4	29.2	3.02e+01	57	41	0	324534272	50	6415
2026-01-23 02:29:43.09	333.69	21.09	-37.8	-39.0	29.4	3.02e+01	58	41	0	331874304	50	6106
2026-01-23 02:29:47.13	333.92	20.49	-37.9	-39.1	29.3	3.02e+01	60	41	0	339738624	50	6170
2026-01-23 02:29:51.16	334.14	19.91	-37.7	-38.9	29.5	3.02e+01	59	41	0	347078656	50	6052
2026-01-23 02:29:55.20	334.35	19.34	-37.7	-38.9	29.6	3.02e+01	60	41	0	354942976	50	6043
2026-01-23 02:29:59.24	334.56	18.78	-37.6	-38.8	29.5	3.02e+01	52	41	0	362283008	50	5945
2026-01-23 02:30:03.28	334.76	18.24	-37.7	-38.9	29.5	3.02e+01	61	41	0	369623040	50	6027
2026-01-23 02:30:07.32	334.95	17.71	-37.6	-38.8	29.6	3.02e+01	60	41	0	377487360	50	5946
2026-01-23 02:30:11.36	335.13	17.19	-37.8	-39.0	29.4	3.02e+01	57	41	0	384827392	50	6128
2026-01-23 02:30:15.40	335.31	16.68	-37.8	-39.0	29.3	3.02e+01	60	41	0	392691712	50	6119
2026-01-23 02:30:19.44	335.49	16.19	-37.7	-38.9	29.4	3.02e+01	57	41	0	400031744	50	6043
2026-01-23 02:30:23.47	335.66	15.70	-37.7	-38.9	29.5	3.02e+01	58	41	0	407896064	50	6056
2026-01-23 02:30:27.50	335.82	15.23	-37.8	-39.0	29.4	3.02e+01	44	41	0	415236096	50	6076
2026-01-23 02:30:31.54	335.98	14.77	-37.9	-39.1	29.2	3.02e+01	59	41	0	423100416	50	6155
2026-01-23 02:30:35.59	336.13	14.31	-37.8	-39.0	29.3	3.02e+01	56	41	0	430440448	50	6087
2026-01-23 02:30:39.62	336.28	13.87	-37.7	-38.9	29.3	3.02e+01	59	41	0	437780480	50	6039
2026-01-23 02:30:43.67	336.43	13.43	-37.8	-39.0	29.2	3.02e+01	55	41	0	445644800	50	6133
2026-01-23 02:30:47.70	336.57	13.00	-37.7	-39.0	29.2	3.02e+01	59	41	0	452984832	50	6069
2026-01-23 02:30:51.74	336.71	12.58	-37.8	-39.0	29.2	3.02e+01	52	41	0	460849152	50	6090
2026-01-23 02:30:55.79	336.84	12.16	-38.0	-39.3	29.0	3.02e+01	61	41	0	468189184	50	6280
2026-01-23 02:30:59.83	336.98	11.76	-38.1	-39.3	28.9	3.02e+01	38	41	0	476053504	50	6329
2026-01-23 02:31:03.86	337.10	11.36	-38.2	-39.4	28.8	3.02e+01	56	41	0	483393536	50	6414
2026-01-23 02:31:07.90	337.23	10.97	-38.2	-39.4	28.7	3.02e+01	46	41	0	491257856	50	6383
2026-01-23 02:31:11.94	337.35	10.59	-38.2	-39.4	28.7	3.02e+01	61	41	0	498597888	50	6413
2026-01-23 02:31:15.98	337.47	10.21	-38.1	-39.3	28.8	3.02e+01	50	41	0	505937920	50	6342
2026-01-23 02:31:20.02	337.58	9.84	-38.5	-39.7	28.5	3.02e+01	60	41	0	513802240	50	6649
2026-01-23 02:31:24.06	337.70	9.47	-38.4	-39.6	28.4	3.02e+01	46	41	0	521142272	50	6571
2026-01-23 02:31:28.09	337.81	9.11	-38.8	-40.0	28.1	3.02e+01	58	41	0	529006592	50	6874
2026-01-23 02:31:32.13	337.92	8.76	-39.0	-40.3	27.8	3.02e+01	44	41	0	536346624	52	6335
2026-01-23 02:31:36.17	338.02	8.41	-39.0	-40.3	27.9	3.02e+01	61	41	0	544210944	52	6322
2026-01-23 02:31:40.21	338.13	8.07	-39.1	-40.4	27.6	3.02e+01	59	41	0	551550976	52	6409
2026-01-23 02:31:44.25	338.23	7.73	-39.0	-40.3	27.8	3.02e+01	59	41	0	559415296	52	6339
2026-01-23 02:31:48.28	338.33	7.40	-39.0	-40.3	27.7	3.02e+01	59	41	0	566755328	52	6350
2026-01-23 02:31:52.32	338.43	7.07	-39.1	-40.4	27.7	3.02e+01	60	41	0	574095360	52	6402
2026-01-23 02:31:56.36	338.52	6.74	-39.6	-40.9	27.3	3.02e+01	61	41	0	581959680	52	6794
2026-01-23 02:32:00.40	338.62	6.42	-39.2	-40.6	27.4	3.02e+01	52	41	0	589299712	52	6509
2026-01-23 02:32:04.44	338.71	6.11	-39.4	-40.7	27.2	3.02e+01	60	41	0	597164032	52	6631
2026-01-23 02:32:08.48	338.80	5.80	-39.6	-41.0	26.8	3.02e+01	60	41	0	604504064	52	6838
2026-01-23 02:32:12.52	338.89	5.49	-40.2	-41.7	26.0	3.02e+01	57	41	0	612368384	54	6581
2026-01-23 02:32:16.55	338.97	5.19	-40.9	-42.5	24.2	3.02e+01	58	41	0	619708416	56	6477
2026-01-23 02:32:20.59	339.06	4.89	-43.3	-45.6	20.6	3.02e+01	60	41	0	627048448	60	7327
2026-01-23 02:32:24.63	339.14	4.59	-44.8	-48.3	17.3	3.02e+01	56	41	0	634912768	60	10033
2026-01-23 02:32:28.67	339.23	4.30	-46.5	-53.2	11.6	3.02e+01	57	41	0	642252800	60	17626
2026-01-23 02:32:32.70	339.31	4.01	-47.0	-57.5	5.9	3.02e+01	92	41	0	650117120	60	29024
2026-01-23 02:32:36.74	339.39	3.73	-47.2	-61.5	4.3	3.02e+01	0	41	104	650117120	60	45794
2026-01-23 02:32:40.78	339.47	3.45	-47.4	-65.2	3.5	3.02e+01	0	41	104	650117120	60	69645
2026-01-23 02:32:44.81	339.54	3.17	-47.3	-65.0	3.5	3.02e+01	0	41	104	650117120	60	68291
2026-01-23 02:32:48.85	339.62	2.89	-50.0	-67.8	3.5	3.02e+01	0	41	104	650117120	60	95004
2026-01-23 02:32:52.88	339.69	2.62	-51.6	-69.6	3.5	3.02e+01	0	41	104	650117120	60	115557
2026-01-23 02:32:56.92	339.77	2.35	-52.0	-69.8	3.5	3.02e+01	0	41	104	650117120	60	119265
2026-01-23 02:33:00.96	339.84	2.08	-52.0	-69.9	3.5	3.02e+01	0	41	104	650117120	60	120470
2026-01-23 02:33:05.00	339.91	1.82	-52.0	-69.8	3.5	3.02e+01	0	41	104	650117120	60	119433
2026-01-23 02:33:09.04	339.98	1.55	-51.9	-69.8	3.5	3.02e+01	0	41	104	650117120	60	119231
2026-01-23 02:33:13.08	340.05	1.30	-52.1	-69.9	3.5	3.02e+01	0	41	104	650117120	60	120709
2026-01-23 02:33:17.12	340.12	1.04	-52.1	-69.9	3.5	3.02e+01	0	41	104	650117120	60	119798
2026-01-23 02:33:21.16	340.19	0.78	-52.1	-69.9	3.5	3.02e+01	0	41	104	650117120	60	120191
2026-01-23 02:33:25.19	340.26	0.53	-52.1	-69.9	3.5	3.02e+01	0	41	104	650117120	60	119782
2026-01-23 02:33:29.23	340.32	0.28	-52.1	-69.9	3.5	3.02e+01	0	41	104	650117120	60	120034
2026-01-23 02:33:33.27	340.39	0.04	-52.1	-69.9	3.5	3.02e+01	0	41	104	650117120	60	120358

#Closed at: 2026-01-23 02:33:36
#Recorded file [650 MB]: D:/lorett/data/35029_260123_141941.dat