passes_logs/2026/01/23/R4.6S_Anadyr/R4.6S_Anadyr__20260123_132443_NOAA_21_JPSS-2_rec.log

#Pass ID: 20260123_132443_NOAA 21 (JPSS-2)
#Satellite: NOAA 21 (JPSS-2)
#Configuration: NOAA-21
#almurnet v.1.7.20251203
#Start time: 2026-01-23 13:24:44

#Version: 2.2.20231116
#Station: R4.6S_Anadyr
#Location: 177.4865 lon 64.73178 lat
#TLE: 1 54234U 22150A   26022.41365820  .00000211  00000+0  12084-3 0  9990
#TLE: 2 54234  98.7507 323.2240 0000658 234.5287 125.5828 14.19537645165864

#Time	Az	El	Level	Level2	SNR	BER	BlckErr	Temp	State	Recorded	gain1	gain2
2026-01-23 13:24:44.86	18.80	0.06	-50.6	-65.6	3.6	1.51e+00	0	38	0	0	60	68729
2026-01-23 13:24:48.89	18.98	0.28	-50.9	-63.7	3.5	1.52e+00	0	39	104	0	60	53879
2026-01-23 13:24:52.93	19.16	0.51	-50.9	-63.8	3.5	1.51e+00	0	40	104	0	60	54427
2026-01-23 13:24:56.97	19.34	0.74	-50.9	-63.7	3.5	1.52e+00	0	40	104	0	60	54009
2026-01-23 13:25:01.01	19.52	0.98	-50.7	-63.5	3.5	1.52e+00	0	40	104	0	60	52490
2026-01-23 13:25:05.05	19.70	1.21	-50.3	-63.1	3.5	1.51e+00	0	40	104	0	60	49930
2026-01-23 13:25:09.08	19.89	1.44	-49.5	-62.3	3.5	1.51e+00	0	40	104	0	60	45873
2026-01-23 13:25:13.12	20.08	1.68	-49.4	-62.1	3.5	1.52e+00	0	40	104	0	60	44444
2026-01-23 13:25:17.16	20.28	1.92	-49.4	-62.2	3.5	1.52e+00	0	40	104	0	60	45251
2026-01-23 13:25:21.20	20.47	2.16	-49.4	-62.2	3.5	1.52e+00	0	40	104	0	60	45181
2026-01-23 13:25:25.25	20.67	2.40	-49.2	-60.4	3.5	1.51e+00	0	40	104	0	60	36938
2026-01-23 13:25:29.28	20.87	2.65	-49.0	-58.3	3.7	1.51e+00	0	40	104	0	60	28911
2026-01-23 13:25:33.32	21.08	2.89	-44.2	-46.3	15.4	0.00e+00	122	40	0	9437184	60	7232
2026-01-23 13:25:37.36	21.29	3.14	-42.1	-43.6	18.0	0.00e+00	121	40	0	22020096	56	6706
2026-01-23 13:25:41.40	21.50	3.39	-45.6	-48.3	12.9	1.83e-05	123	40	0	34603008	60	9097
2026-01-23 13:25:45.44	21.71	3.65	-41.8	-43.3	18.1	0.00e+00	123	40	0	47185920	56	6431
2026-01-23 13:25:49.48	21.93	3.90	-44.1	-46.1	15.9	5.30e-06	122	41	0	49283072	60	7085
2026-01-23 13:25:53.52	22.15	4.16	-41.7	-43.1	18.5	0.00e+00	122	41	0	61865984	56	6288
2026-01-23 13:25:57.56	22.38	4.42	-43.3	-45.1	17.5	0.00e+00	123	41	0	74448896	58	7067
2026-01-23 13:26:01.60	22.61	4.68	-41.6	-43.0	18.9	0.00e+00	123	40	0	87031808	56	6221
2026-01-23 13:26:05.64	22.84	4.94	-40.1	-41.3	20.2	0.00e+00	122	41	0	99614720	54	5784
2026-01-23 13:26:09.68	23.08	5.20	-39.9	-41.1	20.4	0.00e+00	122	41	0	113246208	54	5638
2026-01-23 13:26:13.73	23.32	5.47	-40.5	-41.7	20.0	0.00e+00	123	41	0	125829120	52	6801
2026-01-23 13:26:17.77	23.56	5.74	-39.4	-40.5	21.1	0.00e+00	123	41	0	138412032	52	5877
2026-01-23 13:26:21.80	23.81	6.01	-39.5	-40.6	21.1	0.00e+00	120	41	0	150994944	52	5993
2026-01-23 13:26:25.84	24.06	6.29	-39.3	-40.4	21.2	0.00e+00	122	41	0	163577856	52	5809
2026-01-23 13:26:29.88	24.32	6.57	-39.3	-40.4	21.2	0.00e+00	123	41	0	176160768	52	5853
2026-01-23 13:26:33.92	24.58	6.85	-39.7	-40.8	20.9	0.00e+00	122	41	0	188743680	52	6076
2026-01-23 13:26:37.95	24.85	7.13	-39.1	-40.1	21.5	0.00e+00	123	41	0	201326592	52	5659
2026-01-23 13:26:41.99	25.12	7.41	-38.9	-40.0	21.7	0.00e+00	123	41	0	213909504	52	5540
2026-01-23 13:26:46.03	25.40	7.70	-39.0	-40.0	21.6	0.00e+00	123	41	0	226492416	50	6272
2026-01-23 13:26:50.07	25.68	7.99	-38.8	-39.9	21.8	0.00e+00	122	41	0	239075328	50	6138
2026-01-23 13:26:54.11	25.97	8.28	-38.7	-39.7	22.0	0.00e+00	120	41	0	251658240	50	6024
2026-01-23 13:26:58.15	26.26	8.58	-38.8	-39.9	21.9	0.00e+00	123	41	0	264241152	50	6137
2026-01-23 13:27:02.19	26.56	8.88	-38.8	-39.8	21.9	0.00e+00	123	41	0	276824064	50	6127
2026-01-23 13:27:06.23	26.86	9.18	-38.7	-39.7	22.1	0.00e+00	120	41	0	289406976	50	6047
2026-01-23 13:27:10.28	27.17	9.49	-38.5	-39.5	22.2	0.00e+00	123	41	0	301989888	50	5885
2026-01-23 13:27:14.32	27.49	9.80	-38.2	-39.2	22.5	0.00e+00	122	41	0	314572800	50	5724
2026-01-23 13:27:18.36	27.81	10.11	-38.1	-39.1	22.7	0.00e+00	122	41	0	327155712	50	5649
2026-01-23 13:27:22.40	28.14	10.42	-38.3	-39.3	22.5	0.00e+00	122	41	0	339738624	50	5752
2026-01-23 13:27:26.45	28.48	10.74	-38.2	-39.2	22.6	0.00e+00	123	41	0	352321536	50	5667
2026-01-23 13:27:30.48	28.82	11.06	-38.0	-39.0	22.8	0.00e+00	120	41	0	364904448	50	5554
2026-01-23 13:27:34.53	29.17	11.39	-37.8	-38.8	22.9	0.00e+00	122	41	0	377487360	48	6084
2026-01-23 13:27:38.57	29.53	11.72	-38.1	-39.1	22.7	0.00e+00	121	41	0	390070272	48	6328
2026-01-23 13:27:42.61	29.90	12.05	-37.7	-38.7	23.1	0.00e+00	124	41	0	402653184	48	5996
2026-01-23 13:27:46.65	30.27	12.38	-37.6	-38.6	23.1	0.00e+00	123	41	0	415236096	48	5943
2026-01-23 13:27:50.69	30.65	12.72	-37.7	-38.6	23.1	0.00e+00	122	41	0	428867584	48	5979
2026-01-23 13:27:54.73	31.04	13.06	-37.4	-38.3	23.3	0.00e+00	123	41	0	441450496	48	5774
2026-01-23 13:27:58.77	31.44	13.41	-37.3	-38.3	23.4	0.00e+00	123	41	0	454033408	48	5741
2026-01-23 13:28:02.81	31.85	13.76	-37.6	-38.5	23.2	0.00e+00	123	41	0	466616320	48	5923
2026-01-23 13:28:06.84	32.27	14.11	-37.3	-38.3	23.5	0.00e+00	123	41	0	479199232	48	5729
2026-01-23 13:28:10.88	32.69	14.47	-37.4	-38.3	23.4	0.00e+00	123	41	0	491782144	48	5762
2026-01-23 13:28:14.92	33.13	14.83	-37.4	-38.3	23.5	0.00e+00	123	41	0	504365056	48	5786
2026-01-23 13:28:18.96	33.58	15.20	-37.4	-38.3	23.4	0.00e+00	122	41	0	516947968	48	5776
2026-01-23 13:28:23.01	34.03	15.57	-37.5	-38.4	23.4	0.00e+00	123	41	0	529530880	48	5836
2026-01-23 13:28:27.05	34.50	15.94	-37.5	-38.5	23.5	0.00e+00	122	41	0	542113792	48	5862
2026-01-23 13:28:31.09	34.98	16.32	-37.5	-38.4	23.4	0.00e+00	123	41	0	554696704	48	5841
2026-01-23 13:28:35.13	35.48	16.70	-37.5	-38.5	23.4	0.00e+00	122	41	0	567279616	48	5874
2026-01-23 13:28:39.17	35.98	17.08	-37.5	-38.5	23.4	0.00e+00	122	41	0	579862528	48	5867
2026-01-23 13:28:43.21	36.50	17.47	-37.4	-38.4	23.5	0.00e+00	123	41	0	592445440	48	5819
2026-01-23 13:28:47.25	37.03	17.87	-37.3	-38.2	23.6	0.00e+00	120	41	0	605028352	48	5695
2026-01-23 13:28:51.29	37.57	18.26	-37.3	-38.2	23.7	0.00e+00	123	41	0	617611264	48	5687
2026-01-23 13:28:55.33	38.13	18.67	-37.0	-38.0	23.8	0.00e+00	120	41	0	630194176	48	5535
2026-01-23 13:28:59.37	38.70	19.07	-37.0	-38.0	23.8	0.00e+00	122	41	0	642777088	48	5541
2026-01-23 13:29:03.41	39.29	19.48	-37.0	-37.9	23.9	0.00e+00	120	41	0	655360000	48	5480
2026-01-23 13:29:07.44	39.89	19.89	-37.0	-38.0	23.9	0.00e+00	122	41	0	667942912	48	5541
2026-01-23 13:29:11.48	40.51	20.31	-36.8	-37.7	24.0	0.00e+00	123	41	0	680525824	46	6055
2026-01-23 13:29:15.52	41.14	20.73	-36.5	-37.4	24.3	0.00e+00	123	41	0	693108736	46	5793
2026-01-23 13:29:19.56	41.79	21.15	-36.3	-37.2	24.3	0.00e+00	121	41	0	705691648	46	5698
2026-01-23 13:29:23.59	42.46	21.58	-36.5	-37.4	24.3	0.00e+00	123	41	0	718274560	46	5818
2026-01-23 13:29:27.64	43.15	22.01	-36.5	-37.4	24.3	0.00e+00	123	41	0	730857472	46	5815
2026-01-23 13:29:31.68	43.86	22.45	-36.0	-36.9	24.7	0.00e+00	120	41	0	744488960	46	5505
2026-01-23 13:29:35.72	44.58	22.89	-35.7	-36.5	24.9	0.00e+00	123	41	0	756023296	44	5922
2026-01-23 13:29:39.76	45.33	23.33	-35.7	-36.5	24.9	0.00e+00	122	42	0	769654784	44	5906
2026-01-23 13:29:43.80	46.10	23.77	-35.6	-36.4	25.0	0.00e+00	123	41	0	782237696	44	5837
2026-01-23 13:29:47.84	46.89	24.21	-35.7	-36.6	25.0	0.00e+00	123	41	0	794820608	44	5934
2026-01-23 13:29:51.88	47.70	24.66	-35.7	-36.6	24.9	0.00e+00	123	41	0	807403520	44	5956
2026-01-23 13:29:55.93	48.53	25.11	-36.0	-36.9	24.7	0.00e+00	120	41	0	819986432	44	6147
2026-01-23 13:29:59.97	49.39	25.56	-36.5	-37.5	24.3	0.00e+00	122	41	0	832569344	44	6574
2026-01-23 13:30:04.00	50.27	26.01	-36.4	-37.3	24.4	0.00e+00	122	41	0	845152256	44	6473
2026-01-23 13:30:08.04	51.18	26.46	-36.5	-37.4	24.2	0.00e+00	122	41	0	857735168	44	6565
2026-01-23 13:30:12.08	52.11	26.92	-36.7	-37.6	24.1	0.00e+00	122	41	0	870318080	44	6692
2026-01-23 13:30:16.12	53.07	27.37	-36.7	-37.6	24.1	0.00e+00	123	41	0	882900992	46	5953
2026-01-23 13:30:20.16	54.05	27.82	-37.1	-38.0	23.9	0.00e+00	120	41	0	895483904	46	6224
2026-01-23 13:30:24.20	55.07	28.26	-37.1	-38.0	23.8	0.00e+00	123	41	0	908066816	46	6266
2026-01-23 13:30:28.24	56.11	28.71	-37.0	-37.9	24.0	0.00e+00	122	41	0	920649728	46	6201
2026-01-23 13:30:32.28	57.18	29.15	-36.9	-37.8	24.1	0.00e+00	122	41	0	933232640	46	6078
2026-01-23 13:30:36.32	58.27	29.59	-37.0	-37.9	24.0	0.00e+00	123	42	0	945815552	46	6167
2026-01-23 13:30:40.36	59.40	30.02	-36.7	-37.6	24.3	0.00e+00	123	42	0	958398464	46	5943
2026-01-23 13:30:44.40	60.56	30.45	-36.2	-37.1	24.6	0.00e+00	120	41	0	970981376	46	5605
2026-01-23 13:30:48.44	61.75	30.87	-36.7	-37.6	24.3	0.00e+00	120	42	0	983564288	46	5981
2026-01-23 13:30:52.48	62.97	31.29	-36.7	-37.6	24.2	0.00e+00	120	41	0	996147200	46	5968
2026-01-23 13:30:56.52	64.22	31.69	-36.6	-37.5	24.4	0.00e+00	123	41	0	1008730112	46	5868
2026-01-23 13:31:00.56	65.50	32.09	-36.9	-37.8	24.1	0.00e+00	123	42	0	1021313024	46	6128
2026-01-23 13:31:04.60	66.81	32.47	-37.4	-38.3	23.8	0.00e+00	123	42	0	1033895936	46	6454
2026-01-23 13:31:08.64	68.16	32.84	-37.3	-38.2	23.8	0.00e+00	122	41	0	1046478848	46	6408
2026-01-23 13:31:12.68	69.53	33.20	-37.8	-38.8	23.3	0.00e+00	123	42	0	1060110336	48	6100
2026-01-23 13:31:16.72	70.93	33.55	-37.4	-38.4	23.6	0.00e+00	123	42	0	1071644672	48	5798
2026-01-23 13:31:20.76	72.36	33.88	-37.8	-38.7	23.3	0.00e+00	123	42	0	1085276160	48	6052
2026-01-23 13:31:24.80	73.82	34.19	-37.2	-38.1	23.8	0.00e+00	122	42	0	1097859072	48	5611
2026-01-23 13:31:28.84	75.31	34.49	-37.5	-38.4	23.6	0.00e+00	123	42	0	1110441984	48	5819
2026-01-23 13:31:32.88	76.83	34.77	-37.6	-38.5	23.3	0.00e+00	123	42	0	1123024896	48	5897
2026-01-23 13:31:36.92	78.36	35.03	-37.5	-38.5	23.5	0.00e+00	122	42	0	1135607808	48	5873
2026-01-23 13:31:40.96	79.93	35.26	-37.7	-38.7	23.5	0.00e+00	122	42	0	1148190720	48	6006
2026-01-23 13:31:45.00	81.51	35.48	-37.6	-38.5	23.6	0.00e+00	120	42	0	1160773632	48	5908
2026-01-23 13:31:49.04	83.11	35.67	-37.7	-38.7	23.4	0.00e+00	123	42	0	1173356544	48	5999
2026-01-23 13:31:53.08	84.73	35.84	-38.3	-39.3	22.9	0.00e+00	123	42	0	1185939456	48	6435
2026-01-23 13:31:57.11	86.37	35.98	-38.3	-39.3	22.9	0.00e+00	123	42	0	1198522368	48	6460
2026-01-23 13:32:01.15	88.01	36.10	-37.8	-38.7	23.5	0.00e+00	123	42	0	1211105280	48	6060
2026-01-23 13:32:05.19	89.67	36.19	-38.0	-38.9	23.3	0.00e+00	123	41	0	1223688192	48	6196
2026-01-23 13:32:09.23	91.34	36.25	-37.8	-38.8	23.4	0.00e+00	123	41	0	1236271104	48	6070
2026-01-23 13:32:13.27	93.02	36.29	-37.6	-38.5	23.6	0.00e+00	120	42	0	1248854016	48	5914
2026-01-23 13:32:17.31	94.69	36.31	-37.6	-38.6	23.6	0.00e+00	123	42	0	1261436928	48	5933
2026-01-23 13:32:21.35	96.37	36.29	-37.9	-38.9	23.3	0.00e+00	122	41	0	1274019840	48	6160
2026-01-23 13:32:25.39	98.04	36.25	-38.0	-39.0	23.2	0.00e+00	120	42	0	1286602752	48	6220
2026-01-23 13:32:29.43	99.71	36.18	-38.2	-39.2	23.1	0.00e+00	122	42	0	1299185664	48	6364
2026-01-23 13:32:33.47	101.37	36.09	-38.1	-39.1	23.1	0.00e+00	120	42	0	1311768576	48	6285
2026-01-23 13:32:37.50	103.02	35.96	-38.3	-39.2	23.0	0.00e+00	123	42	0	1324351488	48	6420
2026-01-23 13:32:41.54	104.65	35.82	-38.4	-39.4	22.9	0.00e+00	120	42	0	1336934400	48	6520
2026-01-23 13:32:45.57	106.27	35.65	-38.1	-39.0	23.2	0.00e+00	123	42	0	1349517312	48	6268
2026-01-23 13:32:49.61	107.88	35.45	-38.4	-39.4	22.8	0.00e+00	122	42	0	1362100224	48	6563
2026-01-23 13:32:53.65	109.46	35.24	-38.3	-39.3	23.0	0.00e+00	123	42	0	1374683136	48	6460
2026-01-23 13:32:57.69	111.02	35.00	-38.2	-39.2	23.0	0.00e+00	120	42	0	1387266048	48	6401
2026-01-23 13:33:01.72	112.56	34.74	-37.6	-38.6	23.5	0.00e+00	123	42	0	1400897536	48	5929
2026-01-23 13:33:05.77	114.07	34.45	-37.4	-38.3	23.8	0.00e+00	122	42	0	1412431872	48	5729
2026-01-23 13:33:09.80	115.56	34.16	-37.6	-38.6	23.5	0.00e+00	122	42	0	1426063360	48	5959
2026-01-23 13:33:13.84	117.02	33.84	-38.3	-39.3	22.9	0.00e+00	123	42	0	1438646272	48	6434
2026-01-23 13:33:17.88	118.45	33.50	-38.4	-39.4	22.8	0.00e+00	122	42	0	1451229184	48	6529
2026-01-23 13:33:21.92	119.85	33.16	-38.0	-39.0	23.2	0.00e+00	122	42	0	1463812096	48	6224
2026-01-23 13:33:25.96	121.23	32.79	-37.2	-38.2	23.7	0.00e+00	122	42	0	1476395008	48	5662
2026-01-23 13:33:30.00	122.57	32.42	-36.8	-37.7	24.0	0.00e+00	122	42	0	1488977920	48	5389
2026-01-23 13:33:34.04	123.88	32.03	-37.1	-38.0	23.8	0.00e+00	122	42	0	1501560832	46	6265
2026-01-23 13:33:38.07	125.16	31.63	-36.9	-37.9	23.8	0.00e+00	122	42	0	1514143744	46	6136
2026-01-23 13:33:42.11	126.41	31.22	-36.7	-37.6	24.3	0.00e+00	120	42	0	1526726656	46	5943
2026-01-23 13:33:46.15	127.63	30.80	-37.0	-37.9	24.1	0.00e+00	120	42	0	1539309568	46	6158
2026-01-23 13:33:50.19	128.82	30.38	-36.7	-37.6	24.3	0.00e+00	120	42	0	1551892480	46	5987
2026-01-23 13:33:54.23	129.98	29.95	-36.2	-37.1	24.4	0.00e+00	123	42	0	1564475392	46	5628
2026-01-23 13:33:58.27	131.11	29.51	-36.3	-37.1	24.5	0.00e+00	123	42	0	1577058304	46	5657
2026-01-23 13:34:02.31	132.21	29.07	-36.3	-37.2	24.5	0.00e+00	123	42	0	1589641216	46	5691
2026-01-23 13:34:06.35	133.28	28.63	-36.9	-37.8	24.0	0.00e+00	123	42	0	1602224128	46	6121
2026-01-23 13:34:10.38	134.32	28.18	-36.6	-37.5	24.3	0.00e+00	123	42	0	1614807040	46	5895
2026-01-23 13:34:14.42	135.33	27.73	-36.2	-37.1	24.7	0.00e+00	120	42	0	1627389952	46	5595
2026-01-23 13:34:18.46	136.31	27.27	-36.1	-37.0	24.7	0.00e+00	123	42	0	1639972864	46	5531
2026-01-23 13:34:22.49	137.27	26.82	-36.2	-37.1	24.5	0.00e+00	123	42	0	1652555776	46	5625
2026-01-23 13:34:26.53	138.20	26.37	-36.4	-37.3	24.4	0.00e+00	122	42	0	1665138688	46	5779
2026-01-23 13:34:30.57	139.11	25.91	-36.0	-36.9	24.7	0.00e+00	123	42	0	1677721600	46	5514
2026-01-23 13:34:34.61	139.99	25.46	-35.8	-36.6	25.0	0.00e+00	123	42	0	1690304512	46	5321
2026-01-23 13:34:38.65	140.85	25.01	-35.8	-36.7	24.9	0.00e+00	122	42	0	1702887424	44	6022
2026-01-23 13:34:42.69	141.68	24.55	-35.8	-36.7	24.8	0.00e+00	123	42	0	1715470336	44	6007
2026-01-23 13:34:46.72	142.49	24.10	-35.8	-36.7	24.7	0.00e+00	123	42	0	1728053248	44	6054
2026-01-23 13:34:50.76	143.28	23.66	-35.9	-36.7	24.8	0.00e+00	123	42	0	1740636160	44	6050
2026-01-23 13:34:54.80	144.05	23.21	-36.2	-37.1	24.5	0.00e+00	123	42	0	1753219072	44	6296
2026-01-23 13:34:58.84	144.79	22.77	-36.4	-37.3	24.4	0.00e+00	122	42	0	1766850560	44	6477
2026-01-23 13:35:02.88	145.52	22.33	-36.5	-37.4	24.2	0.00e+00	123	42	0	1779433472	44	6557
2026-01-23 13:35:06.92	146.22	21.89	-36.4	-37.3	24.2	0.00e+00	122	42	0	1792016384	44	6481
2026-01-23 13:35:10.96	146.91	21.46	-36.8	-37.7	24.1	0.00e+00	123	42	0	1804599296	46	6018
2026-01-23 13:35:15.00	147.58	21.03	-36.8	-37.7	24.1	0.00e+00	123	42	0	1817182208	46	6006
2026-01-23 13:35:19.04	148.23	20.60	-36.6	-37.5	24.2	0.00e+00	123	42	0	1829765120	46	5917
2026-01-23 13:35:23.07	148.86	20.18	-36.8	-37.7	24.1	0.00e+00	123	42	0	1842348032	46	6043
2026-01-23 13:35:27.11	149.48	19.76	-36.2	-37.1	24.5	0.00e+00	122	42	0	1854930944	46	5649
2026-01-23 13:35:31.15	150.08	19.34	-36.2	-37.1	24.5	0.00e+00	123	42	0	1867513856	46	5626
2026-01-23 13:35:35.19	150.67	18.93	-36.2	-37.1	24.5	0.00e+00	120	42	0	1880096768	46	5627
2026-01-23 13:35:39.23	151.24	18.52	-36.3	-37.2	24.4	0.00e+00	122	42	0	1892679680	46	5698
2026-01-23 13:35:43.26	151.79	18.12	-36.6	-37.5	24.2	0.00e+00	120	42	0	1905262592	46	5866
2026-01-23 13:35:47.30	152.33	17.72	-36.5	-37.4	24.2	0.00e+00	123	42	0	1917845504	46	5822
2026-01-23 13:35:51.34	152.86	17.32	-36.7	-37.7	24.0	0.00e+00	123	42	0	1930428416	46	5999
2026-01-23 13:35:55.38	153.38	16.93	-37.5	-38.5	23.2	0.00e+00	122	42	0	1943011328	46	6640
2026-01-23 13:35:59.42	153.88	16.54	-38.9	-40.1	21.5	0.00e+00	123	42	0	1955594240	50	6313
2026-01-23 13:36:03.46	154.37	16.16	-40.5	-41.8	19.8	0.00e+00	122	42	0	1968177152	52	6841
2026-01-23 13:36:07.49	154.85	15.78	-41.5	-42.9	18.6	0.00e+00	122	42	0	1980760064	54	6939
2026-01-23 13:36:11.53	155.31	15.41	-41.4	-42.7	18.9	0.00e+00	120	42	0	1993342976	56	6052
2026-01-23 13:36:15.57	155.77	15.04	-40.4	-41.6	20.2	0.00e+00	122	41	0	2005925888	54	5941
2026-01-23 13:36:19.61	156.22	14.67	-38.8	-39.8	22.0	0.00e+00	122	42	0	2018508800	52	5465
2026-01-23 13:36:23.65	156.65	14.31	-37.8	-38.8	23.0	0.00e+00	120	41	0	2031091712	50	5422
2026-01-23 13:36:27.69	157.08	13.95	-37.4	-38.3	23.5	0.00e+00	120	41	0	2043674624	48	5766
2026-01-23 13:36:31.42	157.46	13.62	-37.4	-38.3	23.4	0.00e+00	123	41	0	2056257536	48	5772
2026-01-23 13:36:35.46	157.87	13.27	-37.6	-38.5	23.2	0.00e+00	122	41	0	2068840448	48	5909
2026-01-23 13:36:39.50	158.26	12.92	-37.7	-38.6	23.0	0.00e+00	122	41	0	2081423360	48	5969
2026-01-23 13:36:43.53	158.65	12.57	-37.7	-38.6	23.1	0.00e+00	122	41	0	2094006272	48	5981
2026-01-23 13:36:47.57	159.03	12.23	-37.6	-38.5	23.2	0.00e+00	122	41	0	2107637760	48	5897
2026-01-23 13:36:51.61	159.40	11.90	-37.9	-38.8	23.0	0.00e+00	122	41	0	2119172096	48	6120
2026-01-23 13:36:55.65	159.77	11.56	-37.6	-38.6	23.2	0.00e+00	122	41	0	2132803584	48	5927
2026-01-23 13:36:59.69	160.12	11.23	-37.7	-38.7	23.1	0.00e+00	124	41	0	2145386496	48	5995
2026-01-23 13:37:03.73	160.47	10.91	-38.0	-39.0	22.8	0.00e+00	123	41	0	2157969408	48	6253
2026-01-23 13:37:07.76	160.81	10.58	-38.4	-39.4	22.4	0.00e+00	122	41	0	2170552320	48	6560
2026-01-23 13:37:11.80	161.14	10.26	-38.6	-39.7	22.2	0.00e+00	123	41	0	2183135232	48	6745
2026-01-23 13:37:15.84	161.47	9.95	-38.9	-40.0	21.9	0.00e+00	123	41	0	2195718144	50	6249
2026-01-23 13:37:19.88	161.79	9.63	-38.7	-39.8	22.0	0.00e+00	122	41	0	2208301056	50	6097
2026-01-23 13:37:23.92	162.11	9.32	-38.8	-39.9	21.9	0.00e+00	123	41	0	2220883968	50	6141
2026-01-23 13:37:27.97	162.42	9.02	-38.5	-39.5	22.2	0.00e+00	122	41	0	2233466880	50	5918
2026-01-23 13:37:32.01	162.72	8.71	-38.6	-39.6	22.1	0.00e+00	122	41	0	2246049792	50	5973
2026-01-23 13:37:36.04	163.01	8.41	-38.7	-39.8	22.1	0.00e+00	122	41	0	2258632704	50	6069
2026-01-23 13:37:40.09	163.30	8.11	-38.9	-40.0	21.8	0.00e+00	123	41	0	2271215616	50	6206
2026-01-23 13:37:44.12	163.59	7.82	-39.1	-40.2	21.6	0.00e+00	122	41	0	2283798528	50	6354
2026-01-23 13:37:48.16	163.87	7.53	-38.9	-39.9	21.7	0.00e+00	122	41	0	2296381440	50	6205
2026-01-23 13:37:52.20	164.14	7.24	-39.1	-40.1	21.7	0.00e+00	122	41	0	2308964352	50	6345
2026-01-23 13:37:56.24	164.41	6.95	-39.2	-40.3	21.5	0.00e+00	122	41	0	2321547264	50	6456
2026-01-23 13:38:00.28	164.68	6.67	-39.3	-40.4	21.4	0.00e+00	120	41	0	2334130176	50	6516
2026-01-23 13:38:04.32	164.93	6.39	-39.3	-40.4	21.2	0.00e+00	122	41	0	2346713088	50	6573
2026-01-23 13:38:08.36	165.19	6.11	-39.8	-41.0	20.8	0.00e+00	123	41	0	2359296000	52	6221
2026-01-23 13:38:12.40	165.44	5.83	-40.0	-41.1	20.5	0.00e+00	123	41	0	2371878912	52	6345
2026-01-23 13:38:16.44	165.69	5.56	-39.9	-41.1	20.5	0.00e+00	120	41	0	2384461824	52	6292
2026-01-23 13:38:20.48	165.93	5.29	-40.0	-41.1	20.5	0.00e+00	123	41	0	2397044736	52	6340
2026-01-23 13:38:24.52	166.16	5.02	-40.2	-41.4	20.3	0.00e+00	123	41	0	2409627648	52	6535
2026-01-23 13:38:28.56	166.40	4.75	-40.1	-41.2	20.4	0.00e+00	123	41	0	2422210560	52	6415
2026-01-23 13:38:32.60	166.63	4.49	-40.3	-41.5	20.0	0.00e+00	122	41	0	2434793472	52	6636
2026-01-23 13:38:36.64	166.85	4.22	-40.5	-41.7	19.9	0.00e+00	123	41	0	2448424960	52	6769
2026-01-23 13:38:40.68	167.07	3.96	-40.4	-41.6	19.9	0.00e+00	120	41	0	2461007872	54	5983
2026-01-23 13:38:44.72	167.29	3.71	-40.5	-41.7	19.6	0.00e+00	123	41	0	2473590784	54	6039
2026-01-23 13:38:48.76	167.51	3.45	-40.8	-42.1	19.5	0.00e+00	123	41	0	2486173696	54	6307
2026-01-23 13:38:52.80	167.72	3.20	-40.6	-41.9	19.5	0.00e+00	123	41	0	2498756608	54	6159
2026-01-23 13:38:56.84	167.93	2.94	-50.0	-62.9	3.5	1.52e+00	0	41	104	2507145216	60	49161
2026-01-23 13:39:00.88	168.13	2.70	-49.7	-62.5	3.5	1.52e+00	0	41	104	2507145216	60	47008
2026-01-23 13:39:04.92	168.33	2.45	-50.9	-63.8	3.5	1.52e+00	0	41	104	2507145216	60	54101
2026-01-23 13:39:08.96	168.53	2.20	-51.0	-63.9	3.5	1.52e+00	0	41	104	2507145216	60	54892
2026-01-23 13:39:13.00	168.73	1.96	-51.0	-63.8	3.5	1.52e+00	0	41	104	2507145216	60	54507
2026-01-23 13:39:17.03	168.92	1.72	-51.0	-63.8	3.5	1.52e+00	0	41	104	2507145216	60	54481
2026-01-23 13:39:21.07	169.11	1.48	-51.0	-63.8	3.5	1.52e+00	0	41	104	2507145216	60	54599
2026-01-23 13:39:25.11	169.29	1.24	-51.0	-63.8	3.5	1.52e+00	0	41	104	2507145216	60	54501
2026-01-23 13:39:29.15	169.48	1.00	-51.0	-63.9	3.5	1.52e+00	0	41	104	2507145216	60	54964
2026-01-23 13:39:33.19	169.66	0.77	-51.0	-63.8	3.5	1.52e+00	0	41	104	2507145216	60	54555
2026-01-23 13:39:37.23	169.84	0.53	-51.0	-63.8	3.5	1.52e+00	0	41	104	2507145216	60	54498
2026-01-23 13:39:41.27	170.01	0.30	-51.0	-63.9	3.5	1.52e+00	0	41	104	2507145216	60	54865
2026-01-23 13:39:45.31	170.19	0.07	-51.0	-63.8	3.5	1.52e+00	0	41	104	2507145216	60	54458

#Closed at: 2026-01-23 13:39:49
#Recorded file [2507 MB]: D:/lorett/data/35029_260124_012444.dat