passes_logs/2026/01/23/R4.6S_Anadyr/R4.6S_Anadyr__20260123_214142_NOAA_21_JPSS-2_rec.log

#Pass ID: 20260123_214142_NOAA 21 (JPSS-2)
#Satellite: NOAA 21 (JPSS-2)
#Configuration: NOAA-21
#almurnet v.1.7.20251203
#Start time: 2026-01-23 21:41:45

#Version: 2.2.20231116
#Station: R4.6S_Anadyr
#Location: 177.4865 lon 64.73178 lat
#TLE: 1 54234U 22150A   26022.90705406  .00000208  00000+0  11937-3 0  9994
#TLE: 2 54234  98.7507 323.7115 0000669 231.3756 128.7360 14.19537879165931

#Time	Az	El	Level	Level2	SNR	BER	BlckErr	Temp	State	Recorded	gain1	gain2
2026-01-23 21:41:45.54	96.07	0.14	-50.9	-65.8	3.6	1.51e+00	0	38	0	0	60	70683
2026-01-23 21:41:49.58	95.84	0.36	-51.0	-63.9	3.5	1.52e+00	0	40	104	0	60	54960
2026-01-23 21:41:53.62	95.61	0.58	-51.0	-63.9	3.5	1.51e+00	0	40	104	0	60	55024
2026-01-23 21:41:57.67	95.37	0.80	-51.0	-63.9	3.5	1.52e+00	0	40	104	0	60	54884
2026-01-23 21:42:01.71	95.13	1.02	-51.0	-63.9	3.5	1.52e+00	0	40	104	0	60	55006
2026-01-23 21:42:05.75	94.88	1.25	-51.0	-63.9	3.5	1.52e+00	0	40	104	0	60	54714
2026-01-23 21:42:09.78	94.63	1.47	-51.0	-63.9	3.5	1.52e+00	0	40	104	0	60	54797
2026-01-23 21:42:13.82	94.38	1.70	-51.0	-63.9	3.5	1.52e+00	0	40	104	0	60	55209
2026-01-23 21:42:17.86	94.12	1.92	-51.0	-63.8	3.5	1.52e+00	0	40	104	0	60	54674
2026-01-23 21:42:21.90	93.86	2.15	-51.0	-63.9	3.5	1.52e+00	0	40	104	0	60	54912
2026-01-23 21:42:25.93	93.59	2.38	-51.0	-63.9	3.5	1.51e+00	0	40	104	0	60	54999
2026-01-23 21:42:29.97	93.32	2.61	-51.0	-63.9	3.5	1.52e+00	0	40	104	0	60	54899
2026-01-23 21:42:34.01	93.04	2.84	-51.0	-63.9	3.5	1.51e+00	0	41	104	0	60	54895
2026-01-23 21:42:38.05	92.76	3.08	-51.0	-63.9	3.5	1.52e+00	0	41	104	0	60	54760
2026-01-23 21:42:42.10	92.48	3.31	-51.0	-63.9	3.5	1.52e+00	0	41	104	0	60	54684
2026-01-23 21:42:46.13	92.19	3.55	-51.0	-63.9	3.5	1.52e+00	0	41	104	0	60	54739
2026-01-23 21:42:50.18	91.89	3.79	-51.0	-63.9	3.5	1.52e+00	0	41	104	0	60	54818
2026-01-23 21:42:54.22	91.60	4.03	-51.0	-63.9	3.5	1.52e+00	0	41	104	0	60	54998
2026-01-23 21:42:58.25	91.29	4.27	-51.0	-63.9	3.5	1.52e+00	0	41	104	0	60	55214
2026-01-23 21:43:02.29	90.98	4.51	-51.0	-63.9	3.5	1.52e+00	0	41	104	0	60	55134
2026-01-23 21:43:06.33	90.67	4.75	-51.0	-63.9	3.5	1.52e+00	0	41	104	0	60	55013
2026-01-23 21:43:10.37	90.35	4.99	-51.0	-63.9	3.5	1.52e+00	0	41	104	0	60	55109
2026-01-23 21:43:14.41	90.02	5.24	-51.0	-63.9	3.5	1.52e+00	0	41	104	0	60	55066
2026-01-23 21:43:18.45	89.69	5.49	-51.0	-63.9	3.5	1.52e+00	0	41	104	0	60	55239
2026-01-23 21:43:22.49	89.35	5.74	-51.0	-63.9	3.5	1.52e+00	0	41	104	0	60	55168
2026-01-23 21:43:26.53	89.01	5.99	-51.0	-63.9	3.5	1.52e+00	0	41	104	0	60	54969
2026-01-23 21:43:30.57	88.66	6.24	-51.0	-63.9	3.5	1.52e+00	0	41	104	0	60	54999
2026-01-23 21:43:34.61	88.30	6.49	-51.0	-63.9	3.5	1.52e+00	0	41	104	0	60	55191
2026-01-23 21:43:38.65	87.94	6.74	-51.0	-63.9	3.5	1.52e+00	0	41	104	0	60	55186
2026-01-23 21:43:42.69	87.57	7.00	-51.0	-63.9	3.5	1.51e+00	0	41	104	0	60	54862
2026-01-23 21:43:46.73	87.19	7.26	-51.0	-63.9	3.5	1.52e+00	0	41	104	0	60	55122
2026-01-23 21:43:50.77	86.81	7.51	-51.0	-63.9	3.5	1.51e+00	0	41	104	0	60	55078
2026-01-23 21:43:54.81	86.42	7.77	-51.0	-63.9	3.5	1.52e+00	0	41	104	0	60	54967
2026-01-23 21:43:58.85	86.02	8.03	-51.0	-63.9	3.5	1.52e+00	0	41	104	0	60	55117
2026-01-23 21:44:02.89	85.62	8.30	-51.0	-64.0	3.5	1.52e+00	0	41	104	0	60	55350
2026-01-23 21:44:06.93	85.20	8.56	-51.0	-63.9	3.5	1.51e+00	0	41	104	0	60	55264
2026-01-23 21:44:10.96	84.79	8.82	-51.0	-64.0	3.5	1.52e+00	0	41	104	0	60	55397
2026-01-23 21:44:15.00	84.36	9.09	-51.0	-63.9	3.5	1.52e+00	0	41	104	0	60	55022
2026-01-23 21:44:19.04	83.92	9.36	-51.0	-63.9	3.5	1.52e+00	0	41	104	0	60	55304
2026-01-23 21:44:23.08	83.48	9.63	-51.0	-63.9	3.5	1.51e+00	0	41	104	0	60	55263
2026-01-23 21:44:27.12	83.03	9.90	-51.0	-64.0	3.5	1.52e+00	0	41	104	0	60	55489
2026-01-23 21:44:31.16	82.56	10.17	-51.1	-64.0	3.5	1.51e+00	0	41	104	0	60	55457
2026-01-23 21:44:35.20	82.09	10.44	-51.0	-64.0	3.5	1.51e+00	0	41	104	0	60	55445
2026-01-23 21:44:39.24	81.61	10.71	-51.0	-64.0	3.5	1.52e+00	0	41	104	0	60	55374
2026-01-23 21:44:43.27	81.13	10.99	-51.1	-64.0	3.5	1.52e+00	0	41	104	0	60	55700
2026-01-23 21:44:47.32	80.63	11.26	-51.1	-64.0	3.5	1.51e+00	0	41	104	0	60	55483
2026-01-23 21:44:51.36	80.12	11.54	-51.1	-64.0	3.5	1.52e+00	0	42	104	0	60	55486
2026-01-23 21:44:55.39	79.61	11.82	-51.1	-64.0	3.5	1.52e+00	0	42	104	0	60	55580
2026-01-23 21:44:59.43	79.08	12.09	-51.1	-64.0	3.5	1.52e+00	0	41	104	0	60	55447
2026-01-23 21:45:03.46	78.54	12.37	-51.0	-63.9	3.5	1.51e+00	0	42	104	0	60	55222
2026-01-23 21:45:07.50	77.99	12.65	-51.1	-63.9	3.5	1.52e+00	0	42	104	0	60	55146
2026-01-23 21:45:11.54	77.43	12.93	-51.1	-64.0	3.5	1.52e+00	0	41	104	0	60	55706
2026-01-23 21:45:15.58	76.87	13.21	-51.1	-64.0	3.5	1.51e+00	0	42	104	0	60	55503
2026-01-23 21:45:19.62	76.28	13.49	-51.1	-63.9	3.5	1.52e+00	0	42	104	0	60	55087
2026-01-23 21:45:23.66	75.69	13.77	-51.0	-64.0	3.5	1.51e+00	0	42	104	0	60	55513
2026-01-23 21:45:27.71	75.09	14.05	-51.0	-64.0	3.5	1.52e+00	0	42	104	0	60	55681
2026-01-23 21:45:31.75	74.47	14.34	-51.0	-63.9	3.5	1.52e+00	0	42	104	0	60	55057
2026-01-23 21:45:35.79	73.85	14.62	-51.0	-64.0	3.5	1.52e+00	0	42	104	0	60	55371
2026-01-23 21:45:39.83	73.21	14.90	-51.0	-64.0	3.5	1.52e+00	0	42	104	0	60	55605
2026-01-23 21:45:43.87	72.55	15.18	-51.0	-63.9	3.5	1.52e+00	0	42	104	0	60	55192
2026-01-23 21:45:47.91	71.89	15.46	-51.0	-63.9	3.5	1.52e+00	0	42	104	0	60	55199
2026-01-23 21:45:51.95	71.21	15.73	-51.0	-63.9	3.5	1.52e+00	0	42	104	0	60	55051
2026-01-23 21:45:55.99	70.52	16.01	-51.0	-64.0	3.5	1.52e+00	0	42	104	0	60	55322
2026-01-23 21:46:00.03	69.82	16.29	-51.0	-63.9	3.5	1.52e+00	0	42	104	0	60	55306
2026-01-23 21:46:04.07	69.11	16.56	-51.0	-63.9	3.5	1.52e+00	0	42	104	0	60	55071
2026-01-23 21:46:08.11	68.38	16.84	-51.0	-63.9	3.5	1.52e+00	0	42	104	0	60	55231
2026-01-23 21:46:12.15	67.63	17.11	-51.0	-63.9	3.5	1.52e+00	0	42	104	0	60	54953
2026-01-23 21:46:16.19	66.88	17.38	-51.0	-63.9	3.5	1.52e+00	0	42	104	0	60	54894
2026-01-23 21:46:20.23	66.11	17.65	-51.0	-63.9	3.5	1.52e+00	0	42	104	0	60	55171
2026-01-23 21:46:24.27	65.32	17.91	-51.0	-63.9	3.5	1.52e+00	0	42	104	0	60	55110
2026-01-23 21:46:28.31	64.53	18.17	-51.0	-63.9	3.5	1.52e+00	0	42	104	0	60	54847
2026-01-23 21:46:32.35	63.72	18.43	-51.0	-63.9	3.5	1.52e+00	0	42	104	0	60	55182
2026-01-23 21:46:36.38	62.89	18.69	-51.0	-63.9	3.5	1.52e+00	0	42	104	0	60	55130
2026-01-23 21:46:40.42	62.05	18.94	-51.0	-63.9	3.5	1.52e+00	0	42	104	0	60	55008
2026-01-23 21:46:44.46	61.20	19.18	-51.0	-63.9	3.5	1.52e+00	0	42	104	0	60	55174
2026-01-23 21:46:48.50	60.33	19.43	-51.0	-63.9	3.5	1.52e+00	0	42	104	0	60	55061
2026-01-23 21:46:52.54	59.45	19.67	-51.0	-63.9	3.5	1.52e+00	0	42	104	0	60	55077
2026-01-23 21:46:56.58	58.56	19.90	-51.0	-63.9	3.5	1.52e+00	0	42	104	0	60	54876
2026-01-23 21:47:00.62	57.65	20.13	-51.0	-63.9	3.5	1.52e+00	0	42	104	0	60	55179
2026-01-23 21:47:04.66	56.73	20.35	-51.0	-63.9	3.5	1.52e+00	0	42	104	0	60	54679
2026-01-23 21:47:08.70	55.79	20.57	-51.0	-63.9	3.5	1.51e+00	0	42	104	0	60	55196
2026-01-23 21:47:12.74	54.84	20.78	-51.0	-63.9	3.5	1.52e+00	0	42	104	0	60	55034
2026-01-23 21:47:16.78	53.88	20.98	-51.0	-63.9	3.5	1.52e+00	0	42	104	0	60	54983
2026-01-23 21:47:20.82	52.91	21.18	-51.0	-63.9	3.5	1.52e+00	0	42	104	0	60	55133
2026-01-23 21:47:24.86	51.92	21.37	-51.0	-64.0	3.5	1.51e+00	0	42	104	0	60	55554
2026-01-23 21:47:28.89	50.92	21.55	-51.0	-63.9	3.5	1.51e+00	0	42	104	0	60	55120
2026-01-23 21:47:32.93	49.91	21.72	-51.0	-63.9	3.5	1.52e+00	0	42	104	0	60	55083
2026-01-23 21:47:36.97	48.89	21.88	-51.0	-63.9	3.5	1.52e+00	0	42	104	0	60	55286
2026-01-23 21:47:41.01	47.86	22.04	-51.1	-64.0	3.5	1.52e+00	0	42	104	0	60	55393
2026-01-23 21:47:45.06	46.82	22.19	-51.1	-64.0	3.5	1.52e+00	0	42	104	0	60	55467
2026-01-23 21:47:49.10	45.77	22.32	-51.1	-63.9	3.5	1.52e+00	0	42	104	0	60	55297
2026-01-23 21:47:53.13	44.71	22.45	-51.1	-64.0	3.5	1.52e+00	0	42	104	0	60	55338
2026-01-23 21:47:57.17	43.64	22.57	-51.1	-64.0	3.5	1.51e+00	0	42	104	0	60	55327
2026-01-23 21:48:01.21	42.56	22.67	-51.1	-64.0	3.5	1.52e+00	0	42	104	0	60	55472
2026-01-23 21:48:05.25	41.48	22.77	-51.1	-64.0	3.5	1.52e+00	0	42	104	0	60	55686
2026-01-23 21:48:09.29	40.39	22.86	-51.1	-64.0	3.5	1.52e+00	0	42	104	0	60	55466
2026-01-23 21:48:13.33	39.30	22.93	-51.1	-64.0	3.5	1.52e+00	0	42	104	0	60	55407
2026-01-23 21:48:17.37	38.20	22.99	-51.1	-64.0	3.4	1.52e+00	0	42	104	0	60	55581
2026-01-23 21:48:21.41	37.09	23.05	-51.1	-64.0	3.5	1.52e+00	0	42	104	0	60	55517
2026-01-23 21:48:25.45	35.98	23.09	-51.1	-64.0	3.5	1.52e+00	0	42	104	0	60	55533
2026-01-23 21:48:29.48	34.88	23.12	-51.1	-64.0	3.5	1.52e+00	0	42	104	0	60	55645
2026-01-23 21:48:33.52	33.76	23.13	-51.1	-64.0	3.5	1.52e+00	0	42	104	0	60	55690
2026-01-23 21:48:37.56	32.65	23.14	-51.1	-64.0	3.5	1.52e+00	0	42	104	0	60	55440
2026-01-23 21:48:41.60	31.54	23.14	-51.1	-64.0	3.5	1.52e+00	0	42	104	0	60	55358
2026-01-23 21:48:45.64	30.43	23.12	-51.1	-64.0	3.5	1.52e+00	0	42	104	0	60	55397
2026-01-23 21:48:49.68	29.32	23.09	-51.1	-64.0	3.5	1.52e+00	0	42	104	0	60	55472
2026-01-23 21:48:53.72	28.21	23.05	-51.1	-64.0	3.5	1.52e+00	0	42	104	0	60	55490
2026-01-23 21:48:57.76	27.11	23.00	-51.1	-64.0	3.5	1.52e+00	0	42	104	0	60	55689
2026-01-23 21:49:01.80	26.01	22.94	-51.1	-64.0	3.5	1.52e+00	0	42	104	0	60	55920
2026-01-23 21:49:05.84	24.91	22.86	-51.1	-64.0	3.5	1.52e+00	0	42	104	0	60	55694
2026-01-23 21:49:09.88	23.82	22.78	-51.1	-64.0	3.5	1.52e+00	0	42	104	0	60	55742
2026-01-23 21:49:13.92	22.74	22.68	-51.1	-64.0	3.5	1.52e+00	0	42	104	0	60	55559
2026-01-23 21:49:17.96	21.66	22.57	-51.1	-64.0	3.5	1.52e+00	0	42	104	0	60	55766
2026-01-23 21:49:22.00	20.60	22.46	-51.1	-64.0	3.5	1.52e+00	0	42	104	0	60	55764
2026-01-23 21:49:26.03	19.54	22.33	-51.1	-64.0	3.5	1.52e+00	0	42	104	0	60	55323
2026-01-23 21:49:30.08	18.49	22.19	-51.1	-64.0	3.5	1.52e+00	0	42	104	0	60	55633
2026-01-23 21:49:34.11	17.45	22.05	-51.1	-63.9	3.5	1.52e+00	0	42	104	0	60	55195
2026-01-23 21:49:38.15	16.42	21.89	-51.1	-64.0	3.5	1.52e+00	0	42	104	0	60	55647
2026-01-23 21:49:42.19	15.40	21.73	-51.1	-64.0	3.5	1.52e+00	0	42	104	0	60	55367
2026-01-23 21:49:46.22	14.39	21.56	-51.1	-64.0	3.5	1.52e+00	0	42	104	0	60	55485
2026-01-23 21:49:50.26	13.39	21.38	-51.1	-64.0	3.5	1.52e+00	0	42	104	0	60	55823
2026-01-23 21:49:54.30	12.41	21.19	-51.1	-64.0	3.5	1.52e+00	0	42	104	0	60	55691
2026-01-23 21:49:58.34	11.44	21.00	-51.1	-64.0	3.5	1.52e+00	0	42	104	0	60	55826
2026-01-23 21:50:02.38	10.48	20.79	-51.1	-64.0	3.5	1.52e+00	0	42	104	0	60	55537
2026-01-23 21:50:06.43	9.53	20.58	-51.1	-64.0	3.5	1.52e+00	0	42	104	0	60	55592
2026-01-23 21:50:10.47	8.59	20.37	-51.1	-64.0	3.5	1.52e+00	0	42	104	0	60	55682
2026-01-23 21:50:14.51	7.67	20.15	-51.1	-63.9	3.5	1.52e+00	0	42	104	0	60	55243
2026-01-23 21:50:18.54	6.76	19.92	-51.1	-64.0	3.5	1.52e+00	0	42	104	0	60	55465
2026-01-23 21:50:22.58	5.87	19.69	-51.1	-64.0	3.5	1.52e+00	0	42	104	0	60	55566
2026-01-23 21:50:26.62	4.99	19.45	-51.1	-64.0	3.5	1.52e+00	0	42	104	0	60	55396
2026-01-23 21:50:30.65	4.13	19.21	-51.1	-64.0	3.5	1.52e+00	0	42	104	0	60	55382
2026-01-23 21:50:34.69	3.28	18.96	-51.1	-63.9	3.5	1.52e+00	0	42	104	0	60	55026
2026-01-23 21:50:38.73	2.44	18.71	-51.1	-63.9	3.5	1.52e+00	0	42	104	0	60	55297
2026-01-23 21:50:42.77	1.61	18.45	-51.1	-64.0	3.5	1.52e+00	0	42	104	0	60	55408
2026-01-23 21:50:46.80	0.81	18.20	-51.1	-64.0	3.5	1.52e+00	0	42	104	0	60	55375
2026-01-23 21:50:50.85	0.01	17.93	-51.1	-64.0	3.5	1.52e+00	0	42	104	0	60	55334
2026-01-23 21:50:54.88	359.23	17.67	-51.1	-64.0	3.5	1.52e+00	0	42	104	0	60	55346
2026-01-23 21:50:58.92	358.46	17.41	-51.1	-64.0	3.5	1.52e+00	0	42	104	0	60	55368
2026-01-23 21:51:02.96	357.70	17.14	-51.0	-63.9	3.5	1.52e+00	0	42	104	0	60	54843
2026-01-23 21:51:07.01	356.96	16.86	-51.0	-63.9	3.5	1.52e+00	0	42	104	0	60	55256
2026-01-23 21:51:11.05	356.23	16.59	-51.0	-64.0	3.5	1.52e+00	0	42	104	0	60	55360
2026-01-23 21:51:15.09	355.52	16.32	-51.1	-64.0	3.5	1.52e+00	0	42	104	0	60	55325
2026-01-23 21:51:19.13	354.82	16.04	-51.0	-63.9	3.5	1.52e+00	0	42	104	0	60	55296
2026-01-23 21:51:23.17	354.13	15.77	-51.1	-63.9	3.5	1.52e+00	0	42	104	0	60	55066
2026-01-23 21:51:27.21	353.45	15.49	-51.1	-64.0	3.5	1.52e+00	0	42	104	0	60	55583
2026-01-23 21:51:31.25	352.79	15.21	-51.1	-63.9	3.5	1.52e+00	0	42	104	0	60	55166
2026-01-23 21:51:35.29	352.14	14.93	-51.0	-63.9	3.5	1.52e+00	0	42	104	0	60	55163
2026-01-23 21:51:39.33	351.50	14.65	-51.0	-63.9	3.5	1.52e+00	0	42	104	0	60	55152
2026-01-23 21:51:43.37	350.88	14.37	-51.0	-64.0	3.5	1.52e+00	0	42	104	0	60	55388
2026-01-23 21:51:47.41	350.26	14.09	-51.0	-63.9	3.5	1.51e+00	0	42	104	0	60	55123
2026-01-23 21:51:51.45	349.66	13.81	-51.0	-64.0	3.5	1.52e+00	0	42	104	0	60	55442
2026-01-23 21:51:55.48	349.07	13.53	-51.1	-63.9	3.5	1.51e+00	0	42	104	0	60	55127
2026-01-23 21:51:59.52	348.49	13.25	-51.0	-64.0	3.5	1.52e+00	0	42	104	0	60	55321
2026-01-23 21:52:03.56	347.93	12.97	-51.1	-64.0	3.5	1.52e+00	0	42	104	0	60	55388
2026-01-23 21:52:07.60	347.37	12.69	-51.0	-63.9	3.5	1.51e+00	0	42	104	0	60	55054
2026-01-23 21:52:11.64	346.82	12.41	-51.0	-63.9	3.5	1.52e+00	0	43	104	0	60	54957
2026-01-23 21:52:15.68	346.29	12.13	-51.0	-63.9	3.5	1.52e+00	0	42	104	0	60	55059
2026-01-23 21:52:19.72	345.76	11.86	-51.0	-64.0	3.5	1.52e+00	0	42	104	0	60	55343
2026-01-23 21:52:23.76	345.25	11.58	-51.0	-63.9	3.5	1.52e+00	0	42	104	0	60	55282
2026-01-23 21:52:27.80	344.74	11.30	-51.0	-64.0	3.5	1.52e+00	0	42	104	0	60	55400
2026-01-23 21:52:31.84	344.24	11.03	-51.0	-64.0	3.5	1.52e+00	0	43	104	0	60	55356
2026-01-23 21:52:35.88	343.76	10.76	-51.1	-63.9	3.5	1.52e+00	0	42	104	0	60	55279
2026-01-23 21:52:39.92	343.28	10.48	-51.0	-64.0	3.5	1.52e+00	0	42	104	0	60	55328
2026-01-23 21:52:43.96	342.81	10.21	-51.0	-64.0	3.5	1.52e+00	0	43	104	0	60	55362
2026-01-23 21:52:48.00	342.35	9.94	-51.0	-64.0	3.5	1.52e+00	0	43	104	0	60	55364
2026-01-23 21:52:52.04	341.90	9.67	-51.0	-63.9	3.5	1.52e+00	0	43	104	0	60	55148
2026-01-23 21:52:56.08	341.46	9.40	-51.1	-63.9	3.5	1.52e+00	0	42	104	0	60	55241
2026-01-23 21:53:00.11	341.03	9.14	-51.0	-64.0	3.5	1.52e+00	0	42	104	0	60	55411
2026-01-23 21:53:04.15	340.60	8.87	-51.0	-64.0	3.5	1.52e+00	0	42	104	0	60	55344
2026-01-23 21:53:08.19	340.18	8.61	-51.0	-63.9	3.5	1.51e+00	0	42	104	0	60	55201
2026-01-23 21:53:12.23	339.77	8.34	-51.0	-64.0	3.5	1.52e+00	0	42	104	0	60	55419
2026-01-23 21:53:16.27	339.37	8.08	-51.0	-63.9	3.5	1.52e+00	0	42	104	0	60	55250
2026-01-23 21:53:20.31	338.97	7.82	-51.0	-64.0	3.5	1.52e+00	0	42	104	0	60	55370
2026-01-23 21:53:24.35	338.58	7.56	-51.0	-64.0	3.5	1.52e+00	0	42	104	0	60	55331
2026-01-23 21:53:28.39	338.20	7.30	-51.0	-63.9	3.5	1.51e+00	0	42	104	0	60	55190
2026-01-23 21:53:32.43	337.83	7.05	-51.0	-63.9	3.5	1.52e+00	0	42	104	0	60	55109
2026-01-23 21:53:36.47	337.46	6.79	-51.0	-64.0	3.5	1.52e+00	0	42	104	0	60	55345
2026-01-23 21:53:40.51	337.10	6.54	-51.0	-63.9	3.5	1.52e+00	0	42	104	0	60	55087
2026-01-23 21:53:44.55	336.75	6.29	-51.0	-64.0	3.5	1.52e+00	0	42	104	0	60	55342
2026-01-23 21:53:48.59	336.40	6.04	-51.0	-64.0	3.5	1.52e+00	0	42	104	0	60	55437
2026-01-23 21:53:52.63	336.06	5.79	-51.0	-64.0	3.5	1.52e+00	0	42	104	0	60	55445
2026-01-23 21:53:56.67	335.72	5.54	-51.0	-64.0	3.5	1.52e+00	0	42	104	0	60	55432
2026-01-23 21:54:00.71	335.39	5.29	-51.0	-64.0	3.5	1.52e+00	0	42	104	0	60	55417
2026-01-23 21:54:04.74	335.07	5.05	-51.0	-64.0	3.5	1.52e+00	0	42	104	0	60	55350
2026-01-23 21:54:08.78	334.75	4.80	-51.0	-64.0	3.5	1.52e+00	0	42	104	0	60	55369
2026-01-23 21:54:12.82	334.44	4.56	-51.0	-63.9	3.5	1.52e+00	0	42	104	0	60	54977
2026-01-23 21:54:16.86	334.13	4.32	-51.0	-63.9	3.5	1.52e+00	0	42	104	0	60	55240
2026-01-23 21:54:20.90	333.83	4.08	-51.0	-64.0	3.5	1.52e+00	0	42	104	0	60	55328
2026-01-23 21:54:24.94	333.53	3.84	-51.0	-64.0	3.5	1.52e+00	0	42	104	0	60	55472
2026-01-23 21:54:28.98	333.24	3.60	-51.0	-63.9	3.5	1.52e+00	0	42	104	0	60	55234
2026-01-23 21:54:33.01	332.95	3.37	-51.0	-64.0	3.5	1.51e+00	0	42	104	0	60	55445
2026-01-23 21:54:37.05	332.67	3.13	-51.0	-63.9	3.5	1.52e+00	0	42	104	0	60	55204
2026-01-23 21:54:41.09	332.39	2.90	-51.1	-64.0	3.5	1.51e+00	0	42	104	0	60	55369
2026-01-23 21:54:45.13	332.12	2.67	-51.1	-64.0	3.5	1.52e+00	0	42	104	0	60	55488
2026-01-23 21:54:49.17	331.85	2.44	-51.1	-64.0	3.5	1.52e+00	0	42	104	0	60	55328
2026-01-23 21:54:53.21	331.58	2.21	-51.0	-64.0	3.5	1.52e+00	0	42	104	0	60	55361
2026-01-23 21:54:57.25	331.32	1.98	-51.1	-64.0	3.5	1.52e+00	0	42	104	0	60	55612
2026-01-23 21:55:01.28	331.07	1.75	-51.1	-64.0	3.5	1.52e+00	0	42	104	0	60	55438
2026-01-23 21:55:05.32	330.82	1.53	-51.1	-64.0	3.5	1.52e+00	0	42	104	0	60	55386
2026-01-23 21:55:09.36	330.57	1.30	-51.1	-64.0	3.5	1.52e+00	0	42	104	0	60	55481
2026-01-23 21:55:13.40	330.33	1.08	-51.1	-64.0	3.5	1.51e+00	0	42	104	0	60	55359
2026-01-23 21:55:17.44	330.09	0.86	-51.1	-63.9	3.5	1.52e+00	0	42	104	0	60	55284
2026-01-23 21:55:21.47	329.85	0.64	-51.1	-63.9	3.5	1.52e+00	0	42	104	0	60	55299
2026-01-23 21:55:25.50	329.62	0.42	-51.1	-64.0	3.5	1.52e+00	0	42	104	0	60	55403
2026-01-23 21:55:29.54	329.39	0.20	-51.1	-64.0	3.5	1.52e+00	0	42	104	0	60	55340
2026-01-23 21:55:33.58	329.16	-0.02	-51.1	-64.0	3.5	1.52e+00	0	42	104	0	60	55552

#Closed at: 2026-01-23 21:55:36
#Recorded file [0 MB]: D:/lorett/data/35029_260124_094145.dat