passes_logs/2026/01/23/R4.6S_Anadyr/R4.6S_Anadyr__20260123_042848_FENGYUN_3D_rec.log

#Pass ID: 20260123_042848_FENGYUN 3D
#Satellite: FENGYUN 3D
#Configuration: FENGYUN 3D
#almurnet v.1.7.20251203
#Start time: 2026-01-23 04:28:51

#Version: 2.2.20231116
#Station: R4.6S_Anadyr
#Location: 177.4865 lon 64.73178 lat
#TLE: 1 43010U 17072A   26022.47411728  .00000617  00000+0  31375-3 0  9996
#TLE: 2 43010  98.9952 354.4060 0002481  95.7964 264.3494 14.19699924424319

#Time	Az	El	Level	Level2	SNR	BER	BlckErr	Temp	State	Recorded	gain1	gain2
2026-01-23 04:28:51.04	213.88	0.15	-51.0	-61.8	3.3	8.39e-01	0	40	0	0	60	44544
2026-01-23 04:28:55.07	214.17	0.36	-51.1	-63.3	3.6	8.46e-01	0	40	104	0	60	52752
2026-01-23 04:28:59.11	214.45	0.57	-51.1	-63.3	3.6	8.45e-01	0	40	104	0	60	52836
2026-01-23 04:29:03.15	214.75	0.77	-51.1	-63.3	3.6	8.45e-01	0	40	104	0	60	52580
2026-01-23 04:29:07.19	215.04	0.98	-50.9	-63.1	3.6	8.46e-01	0	40	104	0	60	51622
2026-01-23 04:29:11.22	215.34	1.19	-50.4	-62.5	3.6	8.46e-01	0	40	104	0	60	48356
2026-01-23 04:29:15.26	215.64	1.40	-49.7	-61.7	3.6	8.45e-01	0	40	104	0	60	44003
2026-01-23 04:29:19.30	215.95	1.61	-49.7	-61.8	3.6	8.46e-01	0	41	104	0	60	44467
2026-01-23 04:29:23.34	216.26	1.83	-49.7	-61.8	3.6	8.46e-01	0	41	104	0	60	44577
2026-01-23 04:29:27.38	216.58	2.04	-49.7	-61.8	3.6	8.46e-01	0	41	104	0	60	44270
2026-01-23 04:29:31.42	216.89	2.25	-49.6	-61.2	3.6	8.46e-01	0	41	104	0	60	41663
2026-01-23 04:29:35.46	217.22	2.47	-49.5	-60.4	3.6	8.46e-01	0	41	104	0	60	37922
2026-01-23 04:29:39.50	217.55	2.68	-49.6	-60.8	3.6	8.45e-01	0	41	104	0	60	39526
2026-01-23 04:29:43.54	217.88	2.90	-46.4	-49.1	11.8	5.36e-03	0	41	0	11534336	60	10267
2026-01-23 04:29:47.58	218.22	3.12	-47.6	-52.0	4.9	8.32e-01	0	41	104	29360128	60	14420
2026-01-23 04:29:51.62	218.56	3.34	-39.6	-40.5	20.3	0.00e+00	0	41	0	40894464	54	5438
2026-01-23 04:29:55.66	218.91	3.56	-38.8	-39.7	21.1	0.00e+00	0	41	0	63963136	50	6190
2026-01-23 04:29:59.70	219.26	3.78	-38.8	-39.7	21.2	0.00e+00	0	41	0	85983232	50	6212
2026-01-23 04:30:03.73	219.62	4.00	-38.2	-39.1	21.7	0.00e+00	0	41	0	109051904	50	5771
2026-01-23 04:30:07.77	219.98	4.22	-38.8	-39.6	21.4	0.00e+00	0	41	0	132120576	50	6153
2026-01-23 04:30:11.81	220.35	4.44	-38.5	-39.3	21.6	0.00e+00	0	41	0	154140672	50	5943
2026-01-23 04:30:15.85	220.73	4.67	-39.0	-39.9	21.0	0.00e+00	0	41	0	177209344	50	6364
2026-01-23 04:30:19.89	221.11	4.89	-39.5	-40.4	20.5	0.00e+00	0	41	0	199229440	52	6022
2026-01-23 04:30:23.93	221.49	5.12	-39.2	-40.1	20.7	0.00e+00	0	41	0	222298112	50	6496
2026-01-23 04:30:27.97	221.88	5.34	-38.9	-39.8	21.2	0.00e+00	0	41	0	245366784	50	6284
2026-01-23 04:30:32.01	222.28	5.57	-38.8	-39.6	21.2	0.00e+00	0	41	0	268435456	50	6152
2026-01-23 04:30:36.05	222.68	5.80	-38.8	-39.6	21.0	0.00e+00	0	41	0	290455552	50	6169
2026-01-23 04:30:40.09	223.09	6.03	-38.5	-39.4	21.3	0.00e+00	0	41	0	313524224	50	5977
2026-01-23 04:30:44.13	223.51	6.26	-39.0	-39.9	20.8	0.00e+00	0	41	0	336592896	50	6362
2026-01-23 04:30:48.17	223.93	6.49	-39.0	-40.0	20.7	0.00e+00	0	41	0	358612992	50	6396
2026-01-23 04:30:52.21	224.36	6.72	-39.1	-40.0	20.7	0.00e+00	0	41	0	381681664	50	6420
2026-01-23 04:30:56.24	224.79	6.95	-39.0	-39.8	21.2	0.00e+00	0	41	0	403701760	50	6280
2026-01-23 04:31:00.28	225.23	7.19	-39.3	-40.1	20.9	0.00e+00	0	41	0	426770432	50	6534
2026-01-23 04:31:04.33	225.68	7.42	-39.2	-40.1	20.7	0.00e+00	0	41	0	449839104	50	6481
2026-01-23 04:31:08.37	226.13	7.66	-39.5	-40.4	20.4	0.00e+00	0	41	0	472907776	50	6714
2026-01-23 04:31:12.41	226.60	7.89	-39.3	-40.2	20.9	0.00e+00	0	41	0	494927872	50	6553
2026-01-23 04:31:16.45	227.07	8.13	-39.3	-40.1	21.1	0.00e+00	0	41	0	517996544	50	6507
2026-01-23 04:31:20.49	227.54	8.36	-39.3	-40.2	21.0	0.00e+00	0	41	0	541065216	50	6565
2026-01-23 04:31:24.53	228.03	8.60	-39.2	-40.0	21.2	0.00e+00	0	41	0	563085312	50	6464
2026-01-23 04:31:28.57	228.52	8.84	-39.4	-40.3	20.9	0.00e+00	0	41	0	586153984	50	6692
2026-01-23 04:31:32.61	229.02	9.07	-39.5	-40.4	21.0	0.00e+00	0	41	0	609222656	50	6697
2026-01-23 04:31:36.65	229.53	9.31	-39.2	-40.0	21.3	0.00e+00	0	41	0	631242752	50	6441
2026-01-23 04:31:40.69	230.04	9.55	-39.1	-40.0	21.4	0.00e+00	0	41	0	654311424	50	6409
2026-01-23 04:31:44.73	230.56	9.79	-39.5	-40.4	21.1	0.00e+00	0	41	0	677380096	50	6693
2026-01-23 04:31:48.77	231.10	10.03	-39.8	-40.7	20.7	0.00e+00	0	41	0	699400192	50	6987
2026-01-23 04:31:52.81	231.64	10.27	-39.7	-40.5	20.8	0.00e+00	0	41	0	722468864	52	6103
2026-01-23 04:31:56.85	232.19	10.51	-39.3	-40.2	21.3	0.00e+00	0	41	0	745537536	52	5834
2026-01-23 04:32:00.89	232.74	10.74	-39.1	-40.0	21.5	0.00e+00	0	41	0	767557632	52	5717
2026-01-23 04:32:04.93	233.31	10.98	-38.9	-39.8	21.7	0.00e+00	0	41	0	790626304	52	5592
2026-01-23 04:32:08.97	233.89	11.22	-38.6	-39.4	22.0	0.00e+00	0	41	0	813694976	50	5991
2026-01-23 04:32:13.01	234.47	11.46	-38.3	-39.1	22.3	0.00e+00	0	41	0	835715072	50	5764
2026-01-23 04:32:17.05	235.07	11.70	-37.9	-38.7	22.7	0.00e+00	0	41	0	858783744	48	6217
2026-01-23 04:32:21.09	235.67	11.94	-37.7	-38.4	22.9	0.00e+00	0	41	0	881852416	48	6032
2026-01-23 04:32:25.13	236.28	12.17	-37.6	-38.3	23.0	0.00e+00	0	41	0	903872512	48	5953
2026-01-23 04:32:29.17	236.90	12.41	-37.5	-38.3	22.9	0.00e+00	0	41	0	926941184	48	5914
2026-01-23 04:32:33.21	237.54	12.65	-37.2	-38.0	23.3	0.00e+00	0	41	0	950009856	48	5706
2026-01-23 04:32:37.25	238.18	12.88	-37.0	-37.7	23.5	0.00e+00	0	41	0	972029952	48	5555
2026-01-23 04:32:41.29	238.83	13.11	-36.8	-37.6	23.8	0.00e+00	0	41	0	995098624	46	6120
2026-01-23 04:32:45.33	239.49	13.35	-36.2	-37.0	24.4	0.00e+00	0	41	0	1018167296	46	5700
2026-01-23 04:32:49.37	240.16	13.58	-35.7	-36.3	24.9	0.00e+00	0	41	0	1040187392	44	5950
2026-01-23 04:32:53.40	240.85	13.81	-35.8	-36.5	24.7	0.00e+00	0	41	0	1063256064	44	6085
2026-01-23 04:32:57.44	241.54	14.03	-35.4	-36.1	25.3	0.00e+00	0	41	0	1086324736	44	5774
2026-01-23 04:33:01.48	242.24	14.26	-35.3	-36.0	25.3	0.00e+00	0	41	0	1108344832	44	5720
2026-01-23 04:33:05.52	242.95	14.48	-34.8	-35.4	25.8	0.00e+00	0	41	0	1131413504	44	5372
2026-01-23 04:33:09.55	243.68	14.71	-34.9	-35.6	25.7	0.00e+00	0	41	0	1154482176	42	6146
2026-01-23 04:33:13.59	244.41	14.93	-34.8	-35.5	25.8	0.00e+00	0	41	0	1176502272	42	6064
2026-01-23 04:33:17.63	245.15	15.14	-34.6	-35.3	26.0	0.00e+00	0	41	0	1199570944	42	5930
2026-01-23 04:33:21.67	245.91	15.36	-34.8	-35.5	25.8	0.00e+00	0	41	0	1222639616	42	6039
2026-01-23 04:33:25.71	246.68	15.57	-34.7	-35.4	25.8	0.00e+00	0	41	0	1244659712	42	5982
2026-01-23 04:33:29.75	247.45	15.78	-34.5	-35.2	26.0	0.00e+00	0	41	0	1267728384	42	5839
2026-01-23 04:33:33.79	248.24	15.98	-34.8	-35.5	25.9	0.00e+00	0	41	0	1290797056	42	6047
2026-01-23 04:33:37.83	249.04	16.19	-34.6	-35.3	26.0	0.00e+00	0	41	0	1312817152	42	5903
2026-01-23 04:33:41.88	249.85	16.39	-34.4	-35.1	26.2	0.00e+00	0	41	0	1335885824	42	5782
2026-01-23 04:33:45.92	250.66	16.58	-34.5	-35.1	26.1	0.00e+00	0	41	0	1358954496	42	5827
2026-01-23 04:33:49.96	251.49	16.77	-34.4	-35.1	26.2	0.00e+00	0	41	0	1382023168	42	5784
2026-01-23 04:33:53.99	252.33	16.96	-34.3	-35.0	26.2	0.00e+00	0	41	0	1404043264	42	5717
2026-01-23 04:33:58.03	253.18	17.14	-34.4	-35.1	26.2	0.00e+00	0	41	0	1427111936	42	5768
2026-01-23 04:34:02.07	254.04	17.32	-34.3	-35.0	26.2	0.00e+00	0	41	0	1449132032	42	5707
2026-01-23 04:34:06.11	254.90	17.49	-34.2	-34.8	26.3	0.00e+00	0	41	0	1472200704	42	5583
2026-01-23 04:34:10.14	255.78	17.66	-34.3	-35.0	26.3	0.00e+00	0	41	0	1495269376	42	5716
2026-01-23 04:34:14.18	256.67	17.82	-34.2	-34.8	26.3	0.00e+00	0	41	0	1517289472	42	5625
2026-01-23 04:34:18.22	257.56	17.97	-34.2	-34.9	26.3	0.00e+00	0	41	0	1540358144	42	5684
2026-01-23 04:34:22.26	258.47	18.12	-34.0	-34.6	26.5	0.00e+00	0	41	0	1563426816	42	5491
2026-01-23 04:34:26.29	259.38	18.27	-33.9	-34.6	26.5	0.00e+00	0	41	0	1585446912	42	5471
2026-01-23 04:34:30.33	260.30	18.40	-33.9	-34.5	26.6	0.00e+00	0	41	0	1608515584	42	5431
2026-01-23 04:34:34.37	261.23	18.54	-34.0	-34.6	26.6	0.00e+00	0	41	0	1631584256	42	5461
2026-01-23 04:34:38.40	262.16	18.66	-33.8	-34.5	26.7	0.00e+00	0	41	0	1653604352	42	5405
2026-01-23 04:34:42.44	263.11	18.78	-33.8	-34.5	26.7	0.00e+00	0	41	0	1676673024	40	6049
2026-01-23 04:34:46.48	264.06	18.89	-33.7	-34.4	26.8	0.00e+00	0	41	0	1699741696	40	5994
2026-01-23 04:34:50.51	265.01	18.99	-34.3	-35.0	26.5	0.00e+00	0	41	0	1721761792	40	6391
2026-01-23 04:34:54.56	265.98	19.09	-33.7	-34.4	26.7	0.00e+00	0	41	0	1744830464	40	5997
2026-01-23 04:34:58.59	266.94	19.17	-33.6	-34.3	26.8	0.00e+00	0	41	0	1767899136	40	5911
2026-01-23 04:35:02.63	267.92	19.26	-33.7	-34.3	26.7	0.00e+00	0	41	0	1789919232	40	5964
2026-01-23 04:35:06.67	268.90	19.33	-33.8	-34.5	26.7	0.00e+00	0	41	0	1812987904	40	6034
2026-01-23 04:35:10.71	269.88	19.39	-33.6	-34.2	26.8	0.00e+00	0	41	0	1836056576	40	5880
2026-01-23 04:35:14.76	270.87	19.45	-33.9	-34.6	26.6	0.00e+00	0	41	0	1858076672	40	6125
2026-01-23 04:35:18.80	271.86	19.50	-33.8	-34.5	26.7	0.00e+00	0	41	0	1881145344	40	6036
2026-01-23 04:35:22.84	272.85	19.54	-33.5	-34.2	26.9	0.00e+00	0	41	0	1904214016	40	5850
2026-01-23 04:35:26.88	273.85	19.57	-33.6	-34.3	26.9	0.00e+00	0	41	0	1926234112	40	5900
2026-01-23 04:35:30.91	274.84	19.59	-33.7	-34.4	26.8	0.00e+00	0	41	0	1949302784	40	5966
2026-01-23 04:35:34.95	275.84	19.61	-33.5	-34.1	26.9	0.00e+00	0	41	0	1972371456	40	5827
2026-01-23 04:35:38.99	276.84	19.61	-33.6	-34.2	26.8	0.00e+00	0	41	0	1994391552	40	5851
2026-01-23 04:35:43.03	277.84	19.61	-33.7	-34.4	26.7	0.00e+00	0	41	0	2017460224	40	5992
2026-01-23 04:35:47.07	278.83	19.60	-33.6	-34.2	26.8	0.00e+00	0	41	0	2040528896	40	5872
2026-01-23 04:35:51.11	279.83	19.58	-33.7	-34.4	26.7	0.00e+00	0	41	0	2062548992	40	5982
2026-01-23 04:35:55.15	280.83	19.55	-33.7	-34.4	26.7	0.00e+00	0	41	0	2085617664	40	5971
2026-01-23 04:35:59.19	281.82	19.51	-33.8	-34.5	26.7	0.00e+00	0	41	0	2108686336	40	6078
2026-01-23 04:36:03.23	282.81	19.47	-33.6	-34.3	26.7	0.00e+00	0	41	0	2130706432	40	5937
2026-01-23 04:36:07.27	283.80	19.42	-33.5	-34.1	27.0	0.00e+00	0	41	0	2153775104	40	5817
2026-01-23 04:36:11.30	284.78	19.35	-33.5	-34.1	27.0	0.00e+00	0	41	0	2176843776	40	5828
2026-01-23 04:36:15.34	285.76	19.28	-33.9	-34.5	26.6	0.00e+00	0	41	0	2198863872	40	6089
2026-01-23 04:36:19.38	286.73	19.21	-33.9	-34.5	26.5	0.00e+00	0	41	0	2221932544	40	6059
2026-01-23 04:36:23.41	287.70	19.12	-34.2	-34.9	26.3	0.00e+00	0	41	0	2245001216	40	6333
2026-01-23 04:36:27.45	288.66	19.03	-34.2	-34.8	26.4	0.00e+00	0	41	0	2267021312	40	6305
2026-01-23 04:36:31.48	289.62	18.93	-34.0	-34.7	26.4	0.00e+00	0	41	0	2290089984	40	6183
2026-01-23 04:36:35.52	290.57	18.82	-34.1	-34.7	26.4	0.00e+00	0	41	0	2313158656	40	6204
2026-01-23 04:36:39.56	291.51	18.71	-33.9	-34.5	26.6	0.00e+00	0	41	0	2335178752	40	6084
2026-01-23 04:36:43.60	292.45	18.59	-34.2	-35.0	26.2	0.00e+00	0	41	0	2358247424	40	6391
2026-01-23 04:36:47.64	293.38	18.46	-34.1	-34.8	26.3	0.00e+00	0	41	0	2381316096	40	6317
2026-01-23 04:36:51.68	294.30	18.32	-33.9	-34.5	26.5	0.00e+00	0	41	0	2403336192	40	6067
2026-01-23 04:36:55.72	295.22	18.18	-34.1	-34.8	26.4	0.00e+00	0	41	0	2426404864	40	6297
2026-01-23 04:36:59.76	296.12	18.04	-34.3	-35.0	26.2	0.00e+00	0	41	0	2449473536	40	6437
2026-01-23 04:37:03.80	297.02	17.88	-34.1	-34.8	26.4	0.00e+00	0	41	0	2471493632	40	6295
2026-01-23 04:37:07.84	297.91	17.73	-34.4	-35.2	26.1	0.00e+00	0	41	0	2494562304	40	6546
2026-01-23 04:37:11.87	298.78	17.56	-34.4	-35.0	26.2	0.00e+00	0	41	0	2517630976	40	6458
2026-01-23 04:37:15.91	299.65	17.39	-34.6	-35.3	26.1	0.00e+00	0	41	0	2539651072	40	6677
2026-01-23 04:37:19.96	300.51	17.22	-34.5	-35.1	26.2	0.00e+00	0	41	0	2562719744	42	5819
2026-01-23 04:37:24.00	301.36	17.04	-34.5	-35.2	26.1	0.00e+00	0	41	0	2585788416	42	5852
2026-01-23 04:37:28.04	302.20	16.86	-34.6	-35.2	26.1	0.00e+00	0	41	0	2608857088	42	5892
2026-01-23 04:37:32.07	303.03	16.67	-34.6	-35.4	26.1	0.00e+00	0	41	0	2630877184	42	5984
2026-01-23 04:37:36.10	303.85	16.48	-34.6	-35.3	26.1	0.00e+00	0	41	0	2653945856	42	5940
2026-01-23 04:37:40.14	304.66	16.28	-34.6	-35.4	26.1	0.00e+00	0	41	0	2675965952	42	5966
2026-01-23 04:37:44.18	305.45	16.08	-34.9	-35.6	25.9	0.00e+00	0	41	0	2699034624	42	6119
2026-01-23 04:37:48.21	306.24	15.88	-34.9	-35.6	25.9	0.00e+00	0	41	0	2722103296	42	6135
2026-01-23 04:37:52.25	307.02	15.67	-35.1	-35.9	25.6	0.00e+00	0	41	0	2744123392	42	6331
2026-01-23 04:37:56.29	307.79	15.46	-35.2	-35.9	25.7	0.00e+00	0	41	0	2767192064	42	6345
2026-01-23 04:38:00.33	308.54	15.25	-35.2	-35.8	25.5	0.00e+00	0	41	0	2790260736	42	6293
2026-01-23 04:38:04.37	309.29	15.04	-35.0	-35.6	25.7	0.00e+00	0	41	0	2812280832	42	6143
2026-01-23 04:38:08.41	310.02	14.82	-35.0	-35.6	25.7	0.00e+00	0	41	0	2835349504	42	6135
2026-01-23 04:38:12.45	310.75	14.60	-35.4	-36.1	25.2	0.00e+00	0	41	0	2858418176	42	6496
2026-01-23 04:38:16.49	311.46	14.38	-35.5	-36.3	25.2	0.00e+00	0	41	0	2880438272	42	6630
2026-01-23 04:38:20.53	312.17	14.15	-35.7	-36.3	25.1	0.00e+00	0	41	0	2903506944	42	6622
2026-01-23 04:38:24.58	312.87	13.93	-35.7	-36.3	25.0	0.00e+00	0	41	0	2926575616	44	5952
2026-01-23 04:38:28.61	313.55	13.70	-35.6	-36.3	25.0	0.00e+00	0	41	0	2948595712	44	5957
2026-01-23 04:38:32.65	314.22	13.47	-35.6	-36.3	25.0	0.00e+00	0	41	0	2971664384	44	5908
2026-01-23 04:38:36.68	314.88	13.24	-35.5	-36.2	25.0	0.00e+00	0	41	0	2994733056	44	5874
2026-01-23 04:38:40.73	315.54	13.01	-35.5	-36.2	25.0	0.00e+00	0	41	0	3016753152	44	5883
2026-01-23 04:38:44.77	316.18	12.78	-35.7	-36.3	24.9	0.00e+00	0	41	0	3039821824	44	5900
2026-01-23 04:38:48.81	316.82	12.54	-35.5	-36.2	25.1	0.00e+00	0	41	0	3062890496	44	5845
2026-01-23 04:38:52.85	317.44	12.31	-36.2	-36.9	24.5	0.00e+00	0	41	0	3084910592	44	6387
2026-01-23 04:38:56.88	318.05	12.08	-35.9	-36.7	24.7	0.00e+00	0	41	0	3107979264	44	6206
2026-01-23 04:39:00.92	318.66	11.84	-35.9	-36.6	24.7	0.00e+00	0	41	0	3131047936	44	6141
2026-01-23 04:39:04.96	319.26	11.61	-36.2	-36.9	24.5	0.00e+00	0	41	0	3153068032	44	6377
2026-01-23 04:39:09.00	319.84	11.37	-36.0	-36.7	24.7	0.00e+00	0	41	0	3176136704	44	6184
2026-01-23 04:39:13.03	320.42	11.13	-36.2	-36.9	24.5	0.00e+00	0	41	0	3199205376	44	6372
2026-01-23 04:39:17.07	320.99	10.90	-36.2	-36.8	24.5	0.00e+00	0	41	0	3221225472	44	6306
2026-01-23 04:39:21.11	321.55	10.66	-36.1	-36.8	24.6	0.00e+00	0	41	0	3244294144	44	6284
2026-01-23 04:39:25.15	322.10	10.42	-36.1	-36.9	24.5	0.00e+00	0	41	0	3267362816	44	6339
2026-01-23 04:39:29.19	322.64	10.19	-36.4	-37.2	24.2	0.00e+00	0	41	0	3289382912	44	6554
2026-01-23 04:39:33.23	323.18	9.95	-36.7	-37.3	23.9	0.00e+00	0	41	0	3312451584	44	6651
2026-01-23 04:39:37.28	323.71	9.71	-37.0	-37.7	23.6	0.00e+00	0	41	0	3335520256	46	6182
2026-01-23 04:39:41.32	324.22	9.48	-37.1	-37.9	23.6	0.00e+00	0	41	0	3357540352	46	6336
2026-01-23 04:39:45.36	324.73	9.24	-36.8	-37.4	23.8	0.00e+00	0	41	0	3380609024	46	5999
2026-01-23 04:39:49.40	325.24	9.00	-37.1	-37.9	23.5	0.00e+00	0	41	0	3403677696	46	6322
2026-01-23 04:39:53.43	325.73	8.77	-37.0	-37.7	23.6	0.00e+00	0	41	0	3425697792	46	6210
2026-01-23 04:39:57.47	326.22	8.53	-37.0	-37.8	23.5	0.00e+00	0	41	0	3448766464	46	6264
2026-01-23 04:40:01.51	326.69	8.30	-37.6	-38.3	23.0	0.00e+00	0	41	0	3471835136	46	6659
2026-01-23 04:40:05.56	327.17	8.06	-37.2	-38.0	23.4	0.00e+00	0	41	0	3493855232	46	6410
2026-01-23 04:40:09.60	327.63	7.83	-37.3	-37.9	23.3	0.00e+00	0	41	0	3516923904	46	6380
2026-01-23 04:40:13.64	328.09	7.60	-37.4	-38.1	23.0	0.00e+00	0	41	0	3539992576	46	6496
2026-01-23 04:40:17.68	328.54	7.37	-37.4	-38.1	23.1	0.00e+00	0	41	0	3562012672	46	6484
2026-01-23 04:40:21.72	328.99	7.14	-37.7	-38.5	22.6	0.00e+00	0	41	0	3585081344	48	6036
2026-01-23 04:40:25.75	329.42	6.91	-37.0	-37.8	23.3	0.00e+00	0	41	0	3608150016	48	5625
2026-01-23 04:40:29.79	329.85	6.68	-37.4	-38.1	23.0	0.00e+00	0	41	0	3631218688	48	5771
2026-01-23 04:40:33.83	330.28	6.45	-38.1	-38.8	22.4	0.00e+00	0	41	0	3653238784	48	6315
2026-01-23 04:40:37.87	330.70	6.22	-37.7	-38.6	22.7	0.00e+00	0	41	0	3676307456	48	6123
2026-01-23 04:40:41.91	331.11	5.99	-38.1	-38.9	22.2	0.00e+00	0	41	0	3698327552	48	6375
2026-01-23 04:40:45.94	331.51	5.76	-37.7	-38.4	22.6	0.00e+00	0	41	0	3721396224	48	6016
2026-01-23 04:40:49.98	331.91	5.54	-37.8	-38.7	22.4	0.00e+00	0	41	0	3744464896	48	6225
2026-01-23 04:40:54.02	332.31	5.31	-38.1	-38.9	21.8	0.00e+00	0	41	0	3766484992	48	6352
2026-01-23 04:40:58.06	332.70	5.09	-39.6	-40.6	19.3	0.00e+00	0	41	0	3789553664	50	6908
2026-01-23 04:41:02.11	333.08	4.87	-42.3	-44.1	14.6	0.00e+00	0	41	0	3812622336	56	7311
2026-01-23 04:41:06.14	333.46	4.64	-44.8	-48.9	8.1	3.92e-02	0	41	0	3835691008	60	10036
2026-01-23 04:41:10.18	333.83	4.42	-45.7	-53.2	3.8	8.30e-01	0	42	0	3848273920	60	16513
2026-01-23 04:41:14.22	334.19	4.20	-45.8	-56.5	3.6	8.45e-01	0	41	104	3848273920	60	24241
2026-01-23 04:41:18.26	334.56	3.98	-45.9	-57.9	3.6	8.45e-01	0	42	104	3848273920	60	28237
2026-01-23 04:41:22.30	334.91	3.76	-46.1	-58.1	3.6	8.47e-01	0	42	104	3848273920	60	29169
2026-01-23 04:41:26.34	335.26	3.54	-46.1	-58.1	3.6	8.46e-01	0	42	104	3848273920	60	29089
2026-01-23 04:41:30.38	335.61	3.33	-46.0	-58.1	3.6	8.45e-01	0	42	104	3848273920	60	29165
2026-01-23 04:41:34.41	335.95	3.11	-46.0	-58.1	3.6	8.46e-01	0	42	104	3848273920	60	29150
2026-01-23 04:41:38.45	336.29	2.90	-50.2	-62.3	3.6	8.44e-01	0	42	104	3848273920	60	47374
2026-01-23 04:41:42.49	336.62	2.68	-51.0	-63.1	3.6	8.45e-01	0	42	104	3848273920	60	51569
2026-01-23 04:41:46.53	336.95	2.47	-51.2	-63.3	3.5	8.46e-01	0	42	104	3848273920	60	53028
2026-01-23 04:41:50.58	337.27	2.26	-51.2	-63.4	3.6	8.47e-01	0	42	104	3848273920	60	53191
2026-01-23 04:41:54.61	337.59	2.04	-51.0	-63.2	3.6	8.46e-01	0	42	104	3848273920	60	52312
2026-01-23 04:41:58.66	337.91	1.83	-51.0	-63.2	3.6	8.45e-01	0	42	104	3848273920	60	52428
2026-01-23 04:42:02.70	338.22	1.62	-51.1	-63.2	3.6	8.46e-01	0	42	104	3848273920	60	52516
2026-01-23 04:42:06.74	338.53	1.41	-51.1	-63.2	3.6	8.46e-01	0	42	104	3848273920	60	52290
2026-01-23 04:42:10.78	338.83	1.21	-51.1	-63.2	3.6	8.45e-01	0	42	104	3848273920	60	52314
2026-01-23 04:42:14.82	339.13	1.00	-51.1	-63.2	3.6	8.46e-01	0	42	104	3848273920	60	52241
2026-01-23 04:42:18.86	339.42	0.79	-51.1	-63.2	3.6	8.46e-01	0	42	104	3848273920	60	52357
2026-01-23 04:42:22.90	339.71	0.59	-51.1	-63.2	3.6	8.45e-01	0	42	104	3848273920	60	52310
2026-01-23 04:42:26.94	340.00	0.38	-51.1	-63.2	3.6	8.46e-01	0	42	104	3848273920	60	52040
2026-01-23 04:42:30.98	340.29	0.18	-51.1	-63.2	3.6	8.46e-01	0	42	104	3848273920	60	52378
2026-01-23 04:42:35.02	340.57	-0.02	-51.1	-63.2	3.6	8.45e-01	0	42	104	3848273920	60	52458

#Closed at: 2026-01-23 04:42:37
#Recorded file [3848 MB]: D:/lorett/data/35029_260123_162851.dat