passes_logs/2026/01/23/R4.6S_Anadyr/R4.6S_Anadyr__20260123_030246_NOAA_21_JPSS-2_rec.log

#Pass ID: 20260123_030246_NOAA 21 (JPSS-2)
#Satellite: NOAA 21 (JPSS-2)
#Configuration: NOAA-21
#almurnet v.1.7.20251203
#Start time: 2026-01-23 03:02:49

#Version: 2.2.20231116
#Station: R4.6S_Anadyr
#Location: 177.4865 lon 64.73178 lat
#TLE: 1 54234U 22150A   26022.41365820  .00000211  00000+0  12084-3 0  9990
#TLE: 2 54234  98.7507 323.2240 0000658 234.5287 125.5828 14.19537645165864

#Time	Az	El	Level	Level2	SNR	BER	BlckErr	Temp	State	Recorded	gain1	gain2
2026-01-23 03:02:49.54	232.02	0.16	-51.0	-62.4	3.3	1.54e+00	0	41	0	0	60	46503
2026-01-23 03:02:52.57	232.29	0.29	-51.0	-63.9	3.5	1.52e+00	0	41	104	0	60	55135
2026-01-23 03:02:55.60	232.55	0.43	-51.0	-63.9	3.5	1.52e+00	0	41	104	0	60	55086
2026-01-23 03:02:58.63	232.82	0.56	-50.8	-63.9	3.5	1.52e+00	0	41	104	0	60	55259
2026-01-23 03:03:01.66	233.09	0.70	-51.1	-64.0	3.5	1.52e+00	0	41	104	0	60	55333
2026-01-23 03:03:04.69	233.36	0.84	-51.1	-63.9	3.5	1.52e+00	0	41	104	0	60	55180
2026-01-23 03:03:07.72	233.63	0.97	-50.9	-63.7	3.5	1.51e+00	0	41	104	0	60	53787
2026-01-23 03:03:10.75	233.91	1.11	-49.9	-62.7	3.5	1.52e+00	0	41	104	0	60	48160
2026-01-23 03:03:13.78	234.19	1.25	-48.7	-61.6	3.5	1.52e+00	0	41	104	0	60	42094
2026-01-23 03:03:16.81	234.47	1.38	-48.7	-61.6	3.5	1.51e+00	0	41	104	0	60	42079
2026-01-23 03:03:19.84	234.76	1.52	-48.7	-61.5	3.5	1.52e+00	0	41	104	0	60	41942
2026-01-23 03:03:22.87	235.04	1.66	-48.7	-61.5	3.5	1.52e+00	0	41	104	0	60	41932
2026-01-23 03:03:25.90	235.33	1.79	-48.7	-61.6	3.5	1.52e+00	0	41	104	0	60	42021
2026-01-23 03:03:28.93	235.62	1.93	-48.7	-61.6	3.5	1.51e+00	0	42	104	0	60	42025
2026-01-23 03:03:31.96	235.92	2.07	-48.7	-61.5	3.5	1.52e+00	0	42	104	0	60	41945
2026-01-23 03:03:35.00	236.22	2.21	-48.7	-61.5	3.5	1.52e+00	0	42	104	0	60	41896
2026-01-23 03:03:38.03	236.52	2.34	-48.7	-61.5	3.5	1.52e+00	0	42	104	0	60	41776
2026-01-23 03:03:41.05	236.82	2.48	-48.7	-61.6	3.5	1.52e+00	0	42	104	0	60	42065
2026-01-23 03:03:44.08	237.12	2.62	-48.7	-61.5	3.5	1.52e+00	0	42	104	0	60	41728
2026-01-23 03:03:47.11	237.43	2.76	-48.7	-61.6	3.5	1.51e+00	0	42	104	0	60	42066
2026-01-23 03:03:50.14	237.74	2.89	-48.7	-61.5	3.5	1.52e+00	0	42	104	0	60	41688
2026-01-23 03:03:53.17	238.05	3.03	-48.7	-61.4	3.5	1.52e+00	0	42	104	0	60	41238
2026-01-23 03:03:56.20	238.37	3.17	-48.8	-60.9	3.5	1.52e+00	0	42	104	0	60	38757
2026-01-23 03:03:59.22	238.69	3.31	-48.8	-60.2	3.5	1.51e+00	0	42	104	0	60	35986
2026-01-23 03:04:02.25	239.01	3.44	-48.8	-59.8	3.6	1.51e+00	0	42	104	0	60	34199
2026-01-23 03:04:05.28	239.33	3.58	-48.7	-61.5	3.5	1.52e+00	0	42	104	0	60	41885
2026-01-23 03:04:08.31	239.66	3.72	-48.6	-58.1	4.2	1.48e+00	0	42	104	0	60	28321
2026-01-23 03:04:11.34	239.99	3.86	-48.5	-56.9	5.0	7.96e-01	123	42	104	0	60	24501
2026-01-23 03:04:14.36	240.32	3.99	-48.9	-61.6	3.5	1.52e+00	0	42	104	0	60	42236
2026-01-23 03:04:17.39	240.66	4.13	-48.3	-56.1	3.9	4.09e-01	0	42	104	0	60	22277
2026-01-23 03:04:20.41	241.00	4.27	-48.0	-53.5	7.0	1.95e-01	123	42	0	3145728	60	16610
2026-01-23 03:04:23.45	241.34	4.40	-47.8	-52.8	7.6	9.62e-02	122	42	0	12582912	60	15319
2026-01-23 03:04:26.47	241.69	4.54	-47.5	-52.0	8.8	4.29e-02	123	42	0	22020096	60	14036
2026-01-23 03:04:29.50	242.04	4.68	-46.9	-50.6	10.4	4.05e-03	118	42	0	31457280	60	11873
2026-01-23 03:04:32.53	242.39	4.81	-46.6	-50.1	11.3	7.98e-04	122	42	0	40894464	60	11173
2026-01-23 03:04:35.56	242.74	4.95	-45.9	-48.7	12.8	6.33e-05	123	42	0	50331648	60	9597
2026-01-23 03:04:38.58	243.10	5.08	-45.9	-48.7	12.9	6.56e-05	123	42	0	59768832	60	9541
2026-01-23 03:04:41.61	243.46	5.22	-45.2	-47.6	14.2	2.20e-06	123	42	0	69206016	60	8410
2026-01-23 03:04:44.64	243.82	5.36	-44.0	-46.0	15.9	0.00e+00	123	42	0	78643200	60	6975
2026-01-23 03:04:47.67	244.19	5.49	-43.4	-45.1	16.7	0.00e+00	123	42	0	88080384	60	6315
2026-01-23 03:04:50.70	244.56	5.63	-42.4	-43.9	17.9	0.00e+00	123	42	0	97517568	58	6187
2026-01-23 03:04:53.73	244.94	5.76	-42.3	-43.8	18.1	0.00e+00	123	42	0	106954752	58	6082
2026-01-23 03:04:56.75	245.31	5.89	-42.0	-43.4	18.6	0.00e+00	122	42	0	116391936	56	6521
2026-01-23 03:04:59.78	245.70	6.03	-41.7	-43.1	18.7	0.00e+00	120	42	0	125829120	56	6328
2026-01-23 03:05:02.80	246.08	6.16	-41.8	-43.1	18.8	0.00e+00	122	42	0	135266304	56	6349
2026-01-23 03:05:05.83	246.47	6.29	-41.4	-42.7	19.4	0.00e+00	123	42	0	144703488	56	6024
2026-01-23 03:05:08.87	246.86	6.43	-40.7	-41.9	20.1	0.00e+00	120	42	0	154140672	54	6198
2026-01-23 03:05:11.90	247.25	6.56	-40.1	-41.3	20.6	0.00e+00	123	42	0	163577856	54	5767
2026-01-23 03:05:14.93	247.65	6.69	-40.3	-41.5	20.5	0.00e+00	122	42	0	173015040	54	5877
2026-01-23 03:05:17.96	248.05	6.82	-40.1	-41.2	20.7	0.00e+00	121	42	0	182452224	54	5722
2026-01-23 03:05:20.99	248.46	6.95	-39.9	-41.0	20.9	0.00e+00	122	42	0	191889408	54	5545
2026-01-23 03:05:24.02	248.87	7.08	-39.9	-41.1	21.0	0.00e+00	122	42	0	202375168	54	5611
2026-01-23 03:05:27.04	249.28	7.21	-39.4	-40.5	21.4	0.00e+00	122	42	0	210763776	52	5885
2026-01-23 03:05:30.07	249.69	7.34	-39.2	-40.3	21.7	0.00e+00	123	42	0	221249536	52	5729
2026-01-23 03:05:33.10	250.11	7.47	-39.3	-40.3	21.6	0.00e+00	123	42	0	229638144	52	5781
2026-01-23 03:05:36.13	250.54	7.60	-39.2	-40.3	21.7	0.00e+00	123	42	0	240123904	52	5734
2026-01-23 03:05:39.16	250.96	7.73	-39.3	-40.3	21.6	0.00e+00	122	42	0	249561088	52	5774
2026-01-23 03:05:42.19	251.39	7.85	-39.1	-40.2	21.9	0.00e+00	123	42	0	258998272	52	5668
2026-01-23 03:05:45.22	251.83	7.98	-38.8	-39.8	22.2	0.00e+00	123	42	0	268435456	50	6080
2026-01-23 03:05:48.25	252.26	8.10	-38.9	-40.0	21.9	0.00e+00	123	42	0	277872640	50	6227
2026-01-23 03:05:51.28	252.70	8.23	-39.0	-40.1	21.9	0.00e+00	122	42	0	287309824	50	6281
2026-01-23 03:05:54.31	253.15	8.35	-38.7	-39.7	22.2	0.00e+00	122	42	0	296747008	50	6057
2026-01-23 03:05:57.34	253.60	8.47	-38.6	-39.6	22.3	0.00e+00	123	42	0	306184192	50	5948
2026-01-23 03:06:00.36	254.05	8.59	-38.9	-40.0	21.9	0.00e+00	123	42	0	315621376	50	6232
2026-01-23 03:06:03.40	254.50	8.71	-38.5	-39.6	22.3	0.00e+00	123	42	0	325058560	50	5939
2026-01-23 03:06:06.42	254.96	8.83	-38.4	-39.4	22.5	0.00e+00	123	42	0	334495744	50	5842
2026-01-23 03:06:09.45	255.42	8.95	-38.5	-39.5	22.5	0.00e+00	123	42	0	343932928	50	5909
2026-01-23 03:06:12.48	255.89	9.07	-38.7	-39.8	22.3	0.00e+00	123	42	0	353370112	50	6069
2026-01-23 03:06:15.51	256.36	9.19	-39.0	-40.0	22.0	0.00e+00	123	42	0	362807296	50	6240
2026-01-23 03:06:18.54	256.83	9.30	-39.4	-40.5	21.9	0.00e+00	123	42	0	372244480	50	6589
2026-01-23 03:06:21.57	257.31	9.41	-38.9	-40.0	22.1	0.00e+00	123	42	0	381681664	50	6220
2026-01-23 03:06:24.61	257.79	9.53	-38.6	-39.6	22.4	0.00e+00	123	42	0	391118848	50	5970
2026-01-23 03:06:27.64	258.27	9.64	-38.6	-39.6	22.5	0.00e+00	122	42	0	400556032	50	5962
2026-01-23 03:06:30.67	258.76	9.75	-38.6	-39.6	22.5	0.00e+00	120	42	0	409993216	50	5939
2026-01-23 03:06:33.70	259.25	9.86	-38.3	-39.3	22.6	0.00e+00	122	42	0	419430400	50	5788
2026-01-23 03:06:36.73	259.75	9.97	-38.0	-39.0	22.9	0.00e+00	123	42	0	428867584	50	5556
2026-01-23 03:06:39.76	260.24	10.07	-38.4	-39.3	22.6	0.00e+00	120	42	0	438304768	50	5788
2026-01-23 03:06:42.79	260.74	10.18	-38.6	-39.6	22.5	0.00e+00	123	42	0	447741952	50	5928
2026-01-23 03:06:45.82	261.25	10.28	-38.6	-39.7	22.4	0.00e+00	123	42	0	457179136	50	5995
2026-01-23 03:06:48.85	261.76	10.38	-38.6	-39.6	22.4	0.00e+00	122	42	0	466616320	50	5987
2026-01-23 03:06:51.88	262.27	10.48	-38.3	-39.3	22.7	0.00e+00	123	42	0	476053504	50	5775
2026-01-23 03:06:54.91	262.78	10.58	-38.3	-39.3	22.6	0.00e+00	123	42	0	485490688	50	5765
2026-01-23 03:06:57.94	263.30	10.68	-38.4	-39.4	22.6	0.00e+00	123	42	0	494927872	50	5826
2026-01-23 03:07:00.97	263.82	10.77	-38.5	-39.5	22.5	0.00e+00	122	42	0	504365056	50	5896
2026-01-23 03:07:04.00	264.35	10.86	-38.3	-39.3	22.7	0.00e+00	122	42	0	513802240	50	5789
2026-01-23 03:07:07.03	264.88	10.95	-38.4	-39.4	22.5	0.00e+00	120	42	0	523239424	50	5840
2026-01-23 03:07:10.06	265.41	11.04	-38.5	-39.5	22.5	0.00e+00	120	42	0	532676608	50	5892
2026-01-23 03:07:13.09	265.94	11.13	-38.6	-39.6	22.5	0.00e+00	123	42	0	543162368	50	5983
2026-01-23 03:07:16.11	266.48	11.22	-38.5	-39.5	22.6	0.00e+00	123	42	0	552599552	50	5876
2026-01-23 03:07:19.14	267.02	11.30	-38.3	-39.3	22.7	0.00e+00	123	42	0	562036736	50	5728
2026-01-23 03:07:22.17	267.56	11.38	-38.6	-39.6	22.5	0.00e+00	123	42	0	571473920	50	5972
2026-01-23 03:07:25.20	268.11	11.46	-38.5	-39.5	22.7	0.00e+00	123	42	0	580911104	50	5860
2026-01-23 03:07:28.23	268.65	11.54	-38.3	-39.3	22.7	0.00e+00	120	42	0	590348288	50	5734
2026-01-23 03:07:31.26	269.21	11.62	-38.2	-39.2	22.7	0.00e+00	122	42	0	599785472	50	5713
2026-01-23 03:07:34.29	269.76	11.69	-38.5	-39.5	22.4	0.00e+00	123	42	0	609222656	50	5899
2026-01-23 03:07:37.32	270.32	11.76	-38.3	-39.3	22.6	0.00e+00	122	42	0	618659840	50	5783
2026-01-23 03:07:40.35	270.88	11.83	-38.2	-39.1	22.9	0.00e+00	122	42	0	628097024	50	5658
2026-01-23 03:07:43.39	271.44	11.90	-38.0	-38.9	23.0	0.00e+00	122	42	0	637534208	50	5526
2026-01-23 03:07:46.42	272.00	11.96	-38.3	-39.3	22.7	0.00e+00	123	42	0	646971392	50	5790
2026-01-23 03:07:49.45	272.57	12.02	-38.2	-39.2	22.9	0.00e+00	123	42	0	656408576	50	5685
2026-01-23 03:07:52.48	273.14	12.08	-38.1	-39.1	22.9	0.00e+00	122	42	0	665845760	50	5646
2026-01-23 03:07:55.51	273.71	12.14	-38.0	-39.0	22.8	0.00e+00	122	42	0	675282944	50	5582
2026-01-23 03:07:58.55	274.29	12.19	-38.4	-39.4	22.6	0.00e+00	123	42	0	684720128	50	5803
2026-01-23 03:08:01.58	274.86	12.25	-38.3	-39.3	22.7	0.00e+00	122	42	0	694157312	50	5762
2026-01-23 03:08:04.61	275.44	12.30	-38.1	-39.1	22.9	0.00e+00	123	42	0	703594496	50	5632
2026-01-23 03:08:07.63	276.02	12.34	-38.1	-39.1	22.8	0.00e+00	123	42	0	713031680	50	5619
2026-01-23 03:08:10.66	276.60	12.39	-38.3	-39.3	22.6	0.00e+00	122	42	0	722468864	50	5767
2026-01-23 03:08:13.69	277.18	12.43	-38.2	-39.2	22.8	0.00e+00	122	42	0	731906048	50	5706
2026-01-23 03:08:16.72	277.76	12.47	-37.9	-38.8	23.1	0.00e+00	122	42	0	741343232	50	5459
2026-01-23 03:08:19.76	278.35	12.51	-37.8	-38.8	23.0	0.00e+00	121	42	0	750780416	48	6110
2026-01-23 03:08:22.79	278.94	12.54	-38.1	-39.1	22.8	0.00e+00	120	42	0	760217600	48	6303
2026-01-23 03:08:25.82	279.52	12.57	-38.1	-39.1	22.8	0.00e+00	123	42	0	769654784	48	6341
2026-01-23 03:08:28.85	280.11	12.60	-38.1	-39.1	22.9	0.00e+00	123	42	0	779091968	48	6337
2026-01-23 03:08:31.88	280.70	12.63	-38.0	-39.0	23.0	0.00e+00	120	42	0	788529152	48	6234
2026-01-23 03:08:34.91	281.29	12.65	-38.2	-39.1	22.9	0.00e+00	122	42	0	797966336	48	6336
2026-01-23 03:08:37.94	281.88	12.67	-38.2	-39.2	22.9	0.00e+00	123	42	0	807403520	48	6406
2026-01-23 03:08:40.97	282.48	12.69	-38.0	-38.9	23.1	0.00e+00	123	42	0	816840704	48	6184
2026-01-23 03:08:44.00	283.07	12.70	-37.7	-38.6	23.3	0.00e+00	123	42	0	826277888	48	5979
2026-01-23 03:08:47.03	283.66	12.72	-37.8	-38.7	23.2	0.00e+00	123	42	0	836763648	48	6039
2026-01-23 03:08:50.05	284.26	12.73	-37.8	-38.8	23.2	0.00e+00	122	42	0	845152256	48	6096
2026-01-23 03:08:53.08	284.85	12.73	-37.9	-38.9	23.1	0.00e+00	123	42	0	855638016	48	6136
2026-01-23 03:08:56.11	285.44	12.74	-37.9	-38.8	23.2	0.00e+00	123	42	0	865075200	48	6128
2026-01-23 03:08:59.14	286.04	12.74	-38.1	-39.0	22.9	0.00e+00	122	42	0	874512384	48	6276
2026-01-23 03:09:02.17	286.63	12.74	-37.8	-38.8	23.1	0.00e+00	123	42	0	883949568	48	6090
2026-01-23 03:09:05.20	287.23	12.73	-37.8	-38.7	23.2	0.00e+00	122	42	0	893386752	48	6043
2026-01-23 03:09:08.23	287.82	12.73	-37.8	-38.8	23.1	0.00e+00	121	42	0	902823936	48	6096
2026-01-23 03:09:11.26	288.41	12.72	-38.1	-39.1	22.8	0.00e+00	123	42	0	912261120	48	6301
2026-01-23 03:09:14.29	289.01	12.70	-38.0	-39.0	23.0	0.00e+00	122	42	0	921698304	48	6248
2026-01-23 03:09:17.32	289.60	12.69	-37.9	-38.8	23.0	0.00e+00	123	42	0	931135488	48	6127
2026-01-23 03:09:20.35	290.19	12.67	-37.8	-38.7	23.2	0.00e+00	123	42	0	940572672	48	6057
2026-01-23 03:09:23.38	290.78	12.65	-37.9	-38.9	23.2	0.00e+00	123	42	0	950009856	48	6155
2026-01-23 03:09:26.41	291.37	12.63	-38.2	-39.2	22.9	0.00e+00	122	42	0	959447040	48	6376
2026-01-23 03:09:29.44	291.96	12.60	-38.2	-39.2	22.9	0.00e+00	122	42	0	968884224	48	6366
2026-01-23 03:09:32.47	292.55	12.57	-38.2	-39.1	22.8	0.00e+00	122	42	0	978321408	48	6345
2026-01-23 03:09:35.50	293.14	12.54	-38.2	-39.2	22.9	0.00e+00	123	42	0	987758592	48	6377
2026-01-23 03:09:38.53	293.72	12.50	-38.0	-39.0	23.0	0.00e+00	123	42	0	997195776	48	6237
2026-01-23 03:09:41.56	294.31	12.47	-38.0	-38.9	23.1	0.00e+00	123	42	0	1006632960	48	6189
2026-01-23 03:09:44.59	294.89	12.43	-38.0	-39.0	23.0	0.00e+00	123	42	0	1016070144	48	6258
2026-01-23 03:09:47.62	295.47	12.39	-38.3	-39.2	22.9	0.00e+00	123	42	0	1025507328	48	6417
2026-01-23 03:09:50.65	296.05	12.34	-37.9	-38.9	23.1	0.00e+00	122	42	0	1034944512	48	6165
2026-01-23 03:09:53.68	296.63	12.29	-38.1	-39.1	23.0	0.00e+00	123	42	0	1044381696	48	6285
2026-01-23 03:09:56.71	297.20	12.24	-38.3	-39.2	22.9	0.00e+00	120	42	0	1053818880	48	6419
2026-01-23 03:09:59.74	297.78	12.19	-38.2	-39.2	22.9	0.00e+00	122	42	0	1063256064	48	6377
2026-01-23 03:10:02.77	298.35	12.14	-38.2	-39.1	22.9	0.00e+00	122	42	0	1072693248	48	6344
2026-01-23 03:10:05.79	298.92	12.08	-38.2	-39.2	22.8	0.00e+00	122	42	0	1082130432	48	6360
2026-01-23 03:10:08.82	299.48	12.02	-38.2	-39.2	22.7	0.00e+00	120	42	0	1091567616	48	6398
2026-01-23 03:10:11.85	300.05	11.96	-38.0	-39.0	23.0	0.00e+00	123	42	0	1101004800	48	6232
2026-01-23 03:10:14.88	300.61	11.89	-37.9	-38.8	23.1	0.00e+00	121	42	0	1110441984	48	6124
2026-01-23 03:10:17.91	301.17	11.83	-37.9	-38.9	23.1	0.00e+00	122	42	0	1119879168	48	6145
2026-01-23 03:10:20.94	301.73	11.76	-38.0	-38.9	23.1	0.00e+00	121	42	0	1129316352	48	6204
2026-01-23 03:10:23.97	302.28	11.69	-38.5	-39.5	22.5	0.00e+00	120	42	0	1138753536	48	6636
2026-01-23 03:10:27.00	302.84	11.61	-38.2	-39.2	22.8	0.00e+00	122	42	0	1148190720	48	6375
2026-01-23 03:10:30.03	303.39	11.54	-37.9	-38.9	23.1	0.00e+00	120	42	0	1157627904	48	6180
2026-01-23 03:10:33.06	303.93	11.46	-38.0	-39.0	23.1	0.00e+00	123	42	0	1168113664	48	6211
2026-01-23 03:10:36.09	304.48	11.38	-38.1	-39.1	23.0	0.00e+00	123	42	0	1177550848	48	6300
2026-01-23 03:10:39.12	305.02	11.30	-38.2	-39.2	22.9	0.00e+00	122	42	0	1186988032	48	6390
2026-01-23 03:10:42.14	305.56	11.22	-38.3	-39.3	22.8	0.00e+00	123	42	0	1196425216	48	6475
2026-01-23 03:10:45.17	306.09	11.13	-38.2	-39.2	22.9	0.00e+00	122	42	0	1205862400	48	6417
2026-01-23 03:10:48.20	306.62	11.04	-38.1	-39.1	23.0	0.00e+00	122	42	0	1215299584	48	6317
2026-01-23 03:10:51.23	307.15	10.96	-38.2	-39.1	22.9	0.00e+00	120	42	0	1224736768	48	6336
2026-01-23 03:10:54.26	307.68	10.86	-38.4	-39.3	22.8	0.00e+00	123	42	0	1234173952	48	6491
2026-01-23 03:10:57.29	308.20	10.77	-37.9	-38.9	23.1	0.00e+00	122	42	0	1243611136	48	6155
2026-01-23 03:11:00.33	308.72	10.68	-38.2	-39.1	22.9	0.00e+00	123	42	0	1253048320	48	6323
2026-01-23 03:11:03.36	309.24	10.58	-38.4	-39.4	22.7	0.00e+00	123	42	0	1262485504	48	6524
2026-01-23 03:11:06.39	309.75	10.48	-38.3	-39.3	22.7	0.00e+00	122	42	0	1271922688	48	6492
2026-01-23 03:11:09.42	310.26	10.38	-38.4	-39.4	22.7	0.00e+00	122	42	0	1281359872	48	6512
2026-01-23 03:11:12.45	310.77	10.28	-39.0	-40.0	22.1	0.00e+00	122	42	0	1290797056	50	6258
2026-01-23 03:11:15.48	311.27	10.18	-38.3	-39.3	22.7	0.00e+00	123	42	0	1300234240	50	5732
2026-01-23 03:11:18.51	311.77	10.08	-38.5	-39.5	22.4	0.00e+00	123	42	0	1309671424	50	5911
2026-01-23 03:11:21.54	312.26	9.97	-38.3	-39.3	22.6	0.00e+00	123	42	0	1319108608	50	5787
2026-01-23 03:11:24.57	312.75	9.87	-38.4	-39.4	22.5	0.00e+00	123	42	0	1328545792	50	5846
2026-01-23 03:11:27.60	313.24	9.76	-38.7	-39.7	22.4	0.00e+00	120	42	0	1337982976	50	6031
2026-01-23 03:11:30.63	313.73	9.65	-38.4	-39.4	22.6	0.00e+00	122	42	0	1347420160	50	5849
2026-01-23 03:11:33.67	314.21	9.54	-38.2	-39.2	22.7	0.00e+00	122	42	0	1356857344	50	5690
2026-01-23 03:11:36.70	314.69	9.43	-38.8	-39.9	22.2	0.00e+00	122	42	0	1366294528	50	6143
2026-01-23 03:11:39.72	315.16	9.31	-38.9	-40.0	22.1	0.00e+00	122	42	0	1375731712	50	6217
2026-01-23 03:11:42.75	315.63	9.20	-39.4	-40.4	21.7	0.00e+00	122	42	0	1385168896	52	5853
2026-01-23 03:11:45.78	316.10	9.08	-39.0	-40.0	22.0	0.00e+00	123	42	0	1394606080	52	5593
2026-01-23 03:11:48.81	316.57	8.97	-39.1	-40.1	21.9	0.00e+00	123	42	0	1404043264	52	5635
2026-01-23 03:11:51.83	317.02	8.85	-39.2	-40.2	21.8	0.00e+00	120	42	0	1413480448	52	5718
2026-01-23 03:11:54.86	317.48	8.73	-39.2	-40.2	21.9	0.00e+00	121	42	0	1422917632	52	5703
2026-01-23 03:11:57.89	317.93	8.61	-38.7	-39.7	22.2	0.00e+00	122	42	0	1432354816	50	6022
2026-01-23 03:12:00.92	318.38	8.49	-39.0	-40.0	21.9	0.00e+00	120	42	0	1441792000	50	6249
2026-01-23 03:12:03.95	318.83	8.37	-39.2	-40.3	21.6	0.00e+00	120	42	0	1451229184	50	6466
2026-01-23 03:12:06.98	319.27	8.25	-39.7	-40.8	21.1	0.00e+00	123	42	0	1460666368	52	6066
2026-01-23 03:12:10.01	319.71	8.13	-39.6	-40.7	21.3	0.00e+00	123	42	0	1470103552	52	6009
2026-01-23 03:12:13.03	320.14	8.00	-39.6	-40.7	21.3	0.00e+00	122	42	0	1479540736	52	6019
2026-01-23 03:12:16.07	320.58	7.88	-39.2	-40.2	21.8	0.00e+00	122	42	0	1490026496	52	5697
2026-01-23 03:12:19.10	321.01	7.75	-39.3	-40.3	21.7	0.00e+00	122	42	0	1498415104	52	5778
2026-01-23 03:12:22.13	321.43	7.63	-39.4	-40.5	21.5	0.00e+00	123	42	0	1508900864	52	5859
2026-01-23 03:12:25.16	321.85	7.50	-39.3	-40.4	21.6	0.00e+00	122	42	0	1518338048	52	5810
2026-01-23 03:12:28.19	322.27	7.37	-39.5	-40.6	21.4	0.00e+00	122	42	0	1527775232	52	5934
2026-01-23 03:12:31.22	322.68	7.24	-39.4	-40.5	21.5	0.00e+00	123	42	0	1537212416	52	5865
2026-01-23 03:12:34.25	323.09	7.12	-39.3	-40.4	21.6	0.00e+00	123	42	0	1546649600	52	5829
2026-01-23 03:12:37.29	323.50	6.99	-39.2	-40.3	21.7	0.00e+00	123	42	0	1556086784	52	5751
2026-01-23 03:12:40.31	323.90	6.86	-39.2	-40.3	21.7	0.00e+00	120	42	0	1565523968	52	5752
2026-01-23 03:12:43.34	324.30	6.73	-39.4	-40.5	21.4	0.00e+00	120	42	0	1574961152	52	5915
2026-01-23 03:12:46.37	324.70	6.60	-39.6	-40.7	21.3	0.00e+00	122	42	0	1584398336	52	6050
2026-01-23 03:12:49.39	325.09	6.47	-39.7	-40.8	21.2	0.00e+00	122	42	0	1593835520	52	6106
2026-01-23 03:12:52.42	325.48	6.33	-39.7	-40.9	21.1	0.00e+00	122	42	0	1603272704	52	6138
2026-01-23 03:12:55.45	325.87	6.20	-39.8	-40.9	20.9	0.00e+00	123	42	0	1612709888	52	6140
2026-01-23 03:12:58.48	326.25	6.07	-40.1	-41.2	20.8	0.00e+00	123	42	0	1622147072	52	6405
2026-01-23 03:13:01.51	326.63	5.94	-40.0	-41.2	21.0	0.00e+00	123	42	0	1631584256	52	6355
2026-01-23 03:13:04.54	327.01	5.80	-40.3	-41.5	20.6	0.00e+00	123	42	0	1641021440	52	6599
2026-01-23 03:13:07.56	327.38	5.67	-40.2	-41.4	20.6	0.00e+00	123	42	0	1650458624	52	6556
2026-01-23 03:13:10.59	327.75	5.54	-40.8	-42.1	19.9	0.00e+00	122	42	0	1659895808	54	6279
2026-01-23 03:13:13.63	328.12	5.40	-40.4	-41.7	20.1	0.00e+00	121	42	0	1669332992	54	6004
2026-01-23 03:13:16.66	328.48	5.27	-40.4	-41.6	20.3	0.00e+00	123	42	0	1678770176	54	5963
2026-01-23 03:13:19.69	328.84	5.13	-40.7	-41.9	20.0	0.00e+00	122	42	0	1688207360	54	6182
2026-01-23 03:13:22.72	329.20	5.00	-40.3	-41.5	20.3	0.00e+00	123	42	0	1697644544	54	5915
2026-01-23 03:13:25.75	329.55	4.87	-40.2	-41.4	20.4	0.00e+00	122	42	0	1707081728	54	5801
2026-01-23 03:13:28.78	329.90	4.73	-40.0	-41.2	20.3	0.00e+00	123	42	0	1716518912	54	5689
2026-01-23 03:13:31.81	330.25	4.60	-39.9	-41.0	20.5	0.00e+00	122	42	0	1725956096	52	6261
2026-01-23 03:13:34.84	330.60	4.46	-40.1	-41.3	20.3	0.00e+00	122	42	0	1735393280	52	6465
2026-01-23 03:13:37.86	330.94	4.32	-39.8	-41.0	20.5	0.00e+00	122	42	0	1744830464	52	6220
2026-01-23 03:13:40.90	331.28	4.19	-41.1	-42.4	19.1	0.00e+00	122	42	0	1754267648	54	6568
2026-01-23 03:13:43.93	331.61	4.05	-41.5	-43.0	17.5	0.00e+00	122	42	0	1763704832	54	6992
2026-01-23 03:13:46.96	331.95	3.92	-43.4	-45.7	13.9	0.00e+00	122	42	0	1773142016	58	7627
2026-01-23 03:13:49.98	332.27	3.78	-44.8	-49.0	9.5	1.19e-02	122	42	0	1782579200	60	9869
2026-01-23 03:13:53.02	332.60	3.65	-45.8	-54.7	4.6	7.17e-01	120	42	104	1789919232	60	19036
2026-01-23 03:13:56.05	332.93	3.51	-45.9	-57.6	3.6	1.51e+00	0	42	104	1789919232	60	26594
2026-01-23 03:13:59.07	333.25	3.37	-46.0	-58.8	3.5	1.52e+00	0	42	104	1789919232	60	30622
2026-01-23 03:14:02.10	333.57	3.24	-46.0	-58.7	3.5	1.52e+00	0	42	104	1789919232	60	30207
2026-01-23 03:14:05.13	333.88	3.10	-46.0	-58.8	3.5	1.52e+00	0	42	104	1789919232	60	30454
2026-01-23 03:14:08.15	334.19	2.97	-47.1	-59.8	3.5	1.52e+00	0	42	104	1789919232	60	34470
2026-01-23 03:14:11.18	334.50	2.83	-50.6	-63.5	3.5	1.52e+00	0	42	104	1789919232	60	52405
2026-01-23 03:14:14.21	334.81	2.69	-50.9	-63.8	3.5	1.51e+00	0	42	104	1789919232	60	54498
2026-01-23 03:14:17.24	335.12	2.56	-51.1	-64.0	3.5	1.52e+00	0	42	104	1789919232	60	55461
2026-01-23 03:14:20.27	335.42	2.42	-51.1	-64.0	3.5	1.52e+00	0	42	104	1789919232	60	55309
2026-01-23 03:14:23.30	335.72	2.29	-51.0	-63.9	3.5	1.52e+00	0	42	104	1789919232	60	55253
2026-01-23 03:14:26.33	336.01	2.15	-50.9	-63.8	3.5	1.52e+00	0	42	104	1789919232	60	54652
2026-01-23 03:14:29.37	336.31	2.01	-51.0	-63.8	3.5	1.52e+00	0	42	104	1789919232	60	54618
2026-01-23 03:14:32.39	336.60	1.88	-51.0	-63.9	3.5	1.51e+00	0	42	104	1789919232	60	54860
2026-01-23 03:14:35.43	336.89	1.74	-51.0	-63.9	3.5	1.52e+00	0	42	104	1789919232	60	54790
2026-01-23 03:14:38.46	337.18	1.61	-51.0	-63.8	3.5	1.52e+00	0	42	104	1789919232	60	54592
2026-01-23 03:14:41.49	337.46	1.47	-51.0	-63.8	3.5	1.51e+00	0	42	104	1789919232	60	54654
2026-01-23 03:14:44.52	337.74	1.34	-51.0	-63.9	3.5	1.52e+00	0	42	104	1789919232	60	54779
2026-01-23 03:14:47.55	338.02	1.20	-51.0	-63.9	3.5	1.52e+00	0	42	104	1789919232	60	54693
2026-01-23 03:14:50.57	338.30	1.07	-51.0	-63.9	3.5	1.52e+00	0	42	104	1789919232	60	54931
2026-01-23 03:14:53.60	338.57	0.93	-51.0	-63.8	3.5	1.52e+00	0	42	104	1789919232	60	54546
2026-01-23 03:14:56.63	338.85	0.80	-51.0	-63.9	3.5	1.52e+00	0	42	104	1789919232	60	54842
2026-01-23 03:14:59.66	339.12	0.66	-51.0	-63.8	3.5	1.52e+00	0	42	104	1789919232	60	54573
2026-01-23 03:15:02.69	339.38	0.53	-51.0	-63.8	3.5	1.52e+00	0	42	104	1789919232	60	54569
2026-01-23 03:15:05.72	339.65	0.39	-51.0	-63.9	3.5	1.52e+00	0	42	104	1789919232	60	54757
2026-01-23 03:15:08.75	339.91	0.26	-51.0	-63.8	3.5	1.52e+00	0	42	104	1789919232	60	54538
2026-01-23 03:15:11.77	340.17	0.12	-51.0	-63.8	3.5	1.52e+00	0	42	104	1789919232	60	54575
2026-01-23 03:15:14.80	340.43	-0.01	-51.0	-63.8	3.5	1.52e+00	0	42	104	1789919232	60	54581

#Closed at: 2026-01-23 03:15:17
#Recorded file [1789 MB]: D:/lorett/data/35029_260123_150249.dat