passes_logs/2026/01/23/R4.6S_Anadyr/R4.6S_Anadyr__20260123_191436_NOAA_20_JPSS-1_rec.log

#Pass ID: 20260123_191436_NOAA 20 (JPSS-1)
#Satellite: NOAA 20 (JPSS-1)
#Configuration: NOAA 20
#almurnet v.1.7.20251203
#Start time: 2026-01-23 19:14:36

#Version: 2.2.20231116
#Station: R4.6S_Anadyr
#Location: 177.4865 lon 64.73178 lat
#TLE: 1 43013U 17073A   26022.44900781  .00000193  00000+0  11233-3 0  9999
#TLE: 2 43013  98.7645 323.3100 0001197  28.8413 331.2829 14.19538802423792

#Time	Az	El	Level	Level2	SNR	BER	BlckErr	Temp	State	Recorded	gain1	gain2
2026-01-23 19:14:36.95	50.46	0.04	-51.0	-68.7	3.5	3.03e+01	0	38	0	0	60	105288
2026-01-23 19:14:39.97	50.24	0.18	-50.5	-65.8	3.6	1.51e+00	0	39	104	0	60	70607
2026-01-23 19:14:43.00	50.01	0.33	-50.5	-65.9	3.6	1.51e+00	0	39	104	0	60	70912
2026-01-23 19:14:46.03	49.77	0.48	-50.5	-65.8	3.6	1.51e+00	0	39	104	0	60	70679
2026-01-23 19:14:49.06	49.54	0.63	-50.5	-65.8	3.6	1.51e+00	0	40	104	0	60	70640
2026-01-23 19:14:52.09	49.30	0.77	-50.5	-65.8	3.6	1.51e+00	0	39	104	0	60	70412
2026-01-23 19:14:55.12	49.06	0.92	-50.5	-65.8	3.6	1.51e+00	0	40	104	0	60	70836
2026-01-23 19:14:58.16	48.82	1.07	-50.5	-65.8	3.6	1.51e+00	0	40	104	0	60	70658
2026-01-23 19:15:01.18	48.57	1.22	-50.5	-65.8	3.6	1.51e+00	0	40	104	0	60	70468
2026-01-23 19:15:04.21	48.32	1.37	-50.5	-65.8	3.6	1.51e+00	0	40	104	0	60	70652
2026-01-23 19:15:07.25	48.07	1.52	-50.5	-65.9	3.6	1.51e+00	0	40	104	0	60	70953
2026-01-23 19:15:10.28	47.82	1.67	-50.5	-65.8	3.6	1.51e+00	0	40	104	0	60	70856
2026-01-23 19:15:13.31	47.56	1.82	-50.5	-65.9	3.6	1.51e+00	0	40	104	0	60	71258
2026-01-23 19:15:16.34	47.30	1.97	-50.5	-65.8	3.6	1.51e+00	0	40	104	0	60	70770
2026-01-23 19:15:19.37	47.04	2.12	-50.5	-65.9	3.6	1.51e+00	0	40	104	0	60	70975
2026-01-23 19:15:22.40	46.78	2.27	-50.5	-65.9	3.6	1.51e+00	0	40	104	0	60	70957
2026-01-23 19:15:25.43	46.51	2.42	-50.5	-65.9	3.6	1.51e+00	0	40	104	0	60	71300
2026-01-23 19:15:28.46	46.24	2.57	-50.5	-65.9	3.6	1.51e+00	0	40	104	0	60	71165
2026-01-23 19:15:31.49	45.97	2.72	-50.5	-65.9	3.6	1.51e+00	0	40	104	0	60	71004
2026-01-23 19:15:34.52	45.69	2.87	-50.5	-65.9	3.6	1.51e+00	0	40	104	0	60	71301
2026-01-23 19:15:37.55	45.42	3.03	-50.6	-65.9	3.6	1.51e+00	0	40	104	0	60	71174
2026-01-23 19:15:40.58	45.13	3.18	-50.6	-65.9	3.6	1.51e+00	0	40	104	0	60	71477
2026-01-23 19:15:43.61	44.85	3.33	-50.6	-65.9	3.6	1.51e+00	0	40	104	0	60	70952
2026-01-23 19:15:46.64	44.56	3.48	-50.6	-65.9	3.6	1.51e+00	0	40	104	0	60	71463
2026-01-23 19:15:49.66	44.27	3.63	-50.6	-65.8	3.6	1.51e+00	0	40	104	0	60	70884
2026-01-23 19:15:52.69	43.98	3.79	-50.6	-65.9	3.6	1.51e+00	0	40	104	0	60	71198
2026-01-23 19:15:55.72	43.68	3.94	-50.6	-65.9	3.6	1.51e+00	0	40	104	0	60	71202
2026-01-23 19:15:58.75	43.38	4.09	-50.6	-65.9	3.6	1.51e+00	0	40	104	0	60	71066
2026-01-23 19:16:01.78	43.08	4.25	-50.6	-65.9	3.6	1.51e+00	0	40	104	0	60	71122
2026-01-23 19:16:04.81	42.77	4.40	-50.6	-65.9	3.6	1.51e+00	0	40	104	0	60	71341
2026-01-23 19:16:07.85	42.46	4.55	-50.6	-65.9	3.6	1.51e+00	0	40	104	0	60	71471
2026-01-23 19:16:10.88	42.15	4.71	-50.6	-65.9	3.6	1.51e+00	0	40	104	0	60	71256
2026-01-23 19:16:13.90	41.83	4.86	-50.6	-65.9	3.6	1.51e+00	0	40	104	0	60	71613
2026-01-23 19:16:16.93	41.51	5.01	-50.6	-65.9	3.6	1.51e+00	0	40	104	0	60	71336
2026-01-23 19:16:19.96	41.19	5.17	-50.6	-65.9	3.6	1.51e+00	0	40	104	0	60	71503
2026-01-23 19:16:22.99	40.86	5.32	-50.6	-65.9	3.6	1.51e+00	0	40	104	0	60	71556
2026-01-23 19:16:26.02	40.53	5.47	-50.6	-65.9	3.6	1.51e+00	0	40	104	0	60	71251
2026-01-23 19:16:29.05	40.19	5.63	-50.6	-65.9	3.5	1.51e+00	0	41	104	0	60	71508
2026-01-23 19:16:32.08	39.86	5.78	-50.6	-66.0	3.6	1.51e+00	0	40	104	0	60	71736
2026-01-23 19:16:35.11	39.51	5.93	-50.6	-65.9	3.6	1.51e+00	0	41	104	0	60	71314
2026-01-23 19:16:38.14	39.17	6.09	-50.7	-65.9	3.6	1.51e+00	0	40	104	0	60	71356
2026-01-23 19:16:41.17	38.82	6.24	-50.7	-65.9	3.6	1.51e+00	0	41	104	0	60	71558
2026-01-23 19:16:44.20	38.47	6.39	-50.7	-65.9	3.6	1.51e+00	0	41	104	0	60	71689
2026-01-23 19:16:47.23	38.11	6.54	-50.7	-66.0	3.6	1.51e+00	0	41	104	0	60	72030
2026-01-23 19:16:50.26	37.75	6.70	-50.7	-66.0	3.6	1.51e+00	0	41	104	0	60	72057
2026-01-23 19:16:53.29	37.38	6.85	-50.7	-66.1	3.6	1.51e+00	0	41	104	0	60	72634
2026-01-23 19:16:56.32	37.02	7.00	-50.7	-66.0	3.6	1.51e+00	0	40	104	0	60	72319
2026-01-23 19:16:59.36	36.64	7.15	-50.7	-66.0	3.6	1.51e+00	0	41	104	0	60	72270
2026-01-23 19:17:02.39	36.27	7.31	-50.7	-66.0	3.6	1.51e+00	0	41	104	0	60	71931
2026-01-23 19:17:05.42	35.88	7.46	-50.7	-66.0	3.6	1.51e+00	0	41	104	0	60	72362
2026-01-23 19:17:08.45	35.50	7.61	-50.7	-66.0	3.6	1.51e+00	0	41	104	0	60	72277
2026-01-23 19:17:11.48	35.11	7.76	-50.7	-66.0	3.6	1.51e+00	0	41	104	0	60	72076
2026-01-23 19:17:14.50	34.72	7.91	-50.7	-66.0	3.6	1.51e+00	0	41	104	0	60	72219
2026-01-23 19:17:17.54	34.32	8.06	-50.7	-66.0	3.6	1.51e+00	0	41	104	0	60	72150
2026-01-23 19:17:20.57	33.92	8.21	-50.7	-66.0	3.6	1.51e+00	0	41	104	0	60	72004
2026-01-23 19:17:23.60	33.52	8.36	-50.7	-66.0	3.6	1.51e+00	0	41	104	0	60	72086
2026-01-23 19:17:26.63	33.11	8.51	-50.7	-66.0	3.6	1.51e+00	0	41	104	0	60	72173
2026-01-23 19:17:29.66	32.69	8.66	-50.7	-66.0	3.6	1.51e+00	0	41	104	0	60	72131
2026-01-23 19:17:32.69	32.27	8.80	-50.7	-66.0	3.6	1.51e+00	0	41	104	0	60	72198
2026-01-23 19:17:35.72	31.85	8.95	-50.7	-66.0	3.6	1.51e+00	0	41	104	0	60	72160
2026-01-23 19:17:38.75	31.42	9.10	-50.7	-66.0	3.6	1.51e+00	0	41	104	0	60	72340
2026-01-23 19:17:41.78	30.99	9.24	-50.7	-66.0	3.6	1.51e+00	0	41	104	0	60	72275
2026-01-23 19:17:44.81	30.56	9.39	-50.7	-66.0	3.6	1.51e+00	0	41	104	0	60	72059
2026-01-23 19:17:47.84	30.12	9.53	-50.7	-66.0	3.6	1.51e+00	0	41	104	0	60	72323
2026-01-23 19:17:50.87	29.67	9.67	-50.7	-66.0	3.6	1.51e+00	0	41	104	0	60	72135
2026-01-23 19:17:53.90	29.22	9.82	-50.7	-66.0	3.6	1.51e+00	0	41	104	0	60	71929
2026-01-23 19:17:56.92	28.77	9.96	-50.7	-66.0	3.6	1.51e+00	0	41	104	0	60	72269
2026-01-23 19:17:59.95	28.31	10.10	-50.7	-66.0	3.6	1.51e+00	0	41	104	0	60	72187
2026-01-23 19:18:02.99	27.85	10.24	-50.7	-66.0	3.6	1.51e+00	0	41	104	0	60	72073
2026-01-23 19:18:06.02	27.38	10.38	-50.7	-66.0	3.6	1.51e+00	0	41	104	0	60	72296
2026-01-23 19:18:09.05	26.91	10.51	-50.7	-66.0	3.6	1.51e+00	0	41	104	0	60	72177
2026-01-23 19:18:12.08	26.43	10.65	-50.7	-66.0	3.6	1.51e+00	0	41	104	0	60	72391
2026-01-23 19:18:15.11	25.95	10.79	-50.7	-66.0	3.6	1.51e+00	0	41	104	0	60	72256
2026-01-23 19:18:18.14	25.47	10.92	-50.7	-66.0	3.6	1.51e+00	0	41	104	0	60	72443
2026-01-23 19:18:21.17	24.98	11.05	-50.7	-66.0	3.6	1.51e+00	0	41	104	0	60	72400
2026-01-23 19:18:24.20	24.49	11.18	-50.7	-66.0	3.6	1.51e+00	0	41	104	0	60	72363
2026-01-23 19:18:27.23	23.99	11.31	-50.7	-66.0	3.6	1.51e+00	0	41	104	0	60	72419
2026-01-23 19:18:30.26	23.48	11.44	-50.7	-66.0	3.6	1.51e+00	0	41	104	0	60	72204
2026-01-23 19:18:33.29	22.98	11.57	-50.7	-66.0	3.6	1.51e+00	0	41	104	0	60	72210
2026-01-23 19:18:36.32	22.46	11.69	-50.7	-66.0	3.6	1.51e+00	0	41	104	0	60	72147
2026-01-23 19:18:39.35	21.95	11.82	-50.8	-66.0	3.6	1.51e+00	0	41	104	0	60	72427
2026-01-23 19:18:42.38	21.43	11.94	-50.8	-66.0	3.6	1.51e+00	0	41	104	0	60	72216
2026-01-23 19:18:45.41	20.90	12.06	-50.7	-66.0	3.6	1.51e+00	0	41	104	0	60	72384
2026-01-23 19:18:48.44	20.37	12.18	-50.8	-66.0	3.6	1.51e+00	0	41	104	0	60	72467
2026-01-23 19:18:51.47	19.84	12.29	-50.8	-66.0	3.6	1.51e+00	0	41	104	0	60	72408
2026-01-23 19:18:54.49	19.30	12.41	-50.8	-66.0	3.6	1.51e+00	0	41	104	0	60	72382
2026-01-23 19:18:57.53	18.76	12.52	-50.8	-66.0	3.6	1.51e+00	0	41	104	0	60	72452
2026-01-23 19:19:00.56	18.21	12.63	-50.8	-66.1	3.6	1.51e+00	0	41	104	0	60	72549
2026-01-23 19:19:03.59	17.66	12.74	-50.8	-66.0	3.6	1.51e+00	0	41	104	0	60	72462
2026-01-23 19:19:06.62	17.11	12.85	-50.8	-66.0	3.6	1.51e+00	0	41	104	0	60	72256
2026-01-23 19:19:09.65	16.55	12.95	-50.8	-66.0	3.6	1.51e+00	0	41	104	0	60	72516
2026-01-23 19:19:12.68	15.99	13.05	-50.8	-66.0	3.6	1.51e+00	0	41	104	0	60	72531
2026-01-23 19:19:15.71	15.42	13.15	-50.8	-66.1	3.6	1.51e+00	0	41	104	0	60	73034
2026-01-23 19:19:18.74	14.85	13.25	-50.8	-66.1	3.6	1.51e+00	0	41	104	0	60	72564
2026-01-23 19:19:21.77	14.28	13.34	-50.8	-66.1	3.6	1.51e+00	0	41	104	0	60	72964
2026-01-23 19:19:24.80	13.70	13.43	-50.8	-66.1	3.6	1.51e+00	0	41	104	0	60	72984
2026-01-23 19:19:27.83	13.12	13.52	-50.8	-66.0	3.6	1.51e+00	0	41	104	0	60	72332
2026-01-23 19:19:30.86	12.53	13.61	-50.8	-66.1	3.6	1.51e+00	0	41	104	0	60	72979
2026-01-23 19:19:33.89	11.94	13.69	-50.8	-66.1	3.6	1.51e+00	0	41	104	0	60	72841
2026-01-23 19:19:36.92	11.35	13.78	-50.8	-66.1	3.6	1.51e+00	0	41	104	0	60	73030
2026-01-23 19:19:39.95	10.76	13.85	-50.8	-66.1	3.6	1.51e+00	0	41	104	0	60	73289
2026-01-23 19:19:42.98	10.16	13.93	-50.8	-66.1	3.6	1.51e+00	0	41	104	0	60	72940
2026-01-23 19:19:46.01	9.56	14.00	-50.8	-66.1	3.6	1.51e+00	0	41	104	0	60	72919
2026-01-23 19:19:49.04	8.96	14.07	-50.8	-66.1	3.6	1.51e+00	0	41	104	0	60	73018
2026-01-23 19:19:52.07	8.35	14.14	-50.8	-66.1	3.6	1.51e+00	0	41	104	0	60	72641
2026-01-23 19:19:55.10	7.74	14.20	-50.8	-66.1	3.6	1.51e+00	0	41	104	0	60	72923
2026-01-23 19:19:58.13	7.13	14.26	-50.8	-66.1	3.6	1.51e+00	0	41	104	0	60	73051
2026-01-23 19:20:01.16	6.51	14.32	-50.8	-66.2	3.6	1.51e+00	0	41	104	0	60	73426
2026-01-23 19:20:04.19	5.90	14.38	-50.8	-66.2	3.6	1.51e+00	0	41	104	0	60	73470
2026-01-23 19:20:07.23	5.27	14.43	-50.9	-66.2	3.6	1.51e+00	0	41	104	0	60	73631
2026-01-23 19:20:10.26	4.65	14.48	-50.8	-66.2	3.6	1.51e+00	0	41	104	0	60	73462
2026-01-23 19:20:13.29	4.03	14.52	-50.8	-66.1	3.6	1.51e+00	0	41	104	0	60	72915
2026-01-23 19:20:16.32	3.40	14.56	-50.8	-66.1	3.6	1.51e+00	0	41	104	0	60	73148
2026-01-23 19:20:19.35	2.78	14.60	-50.8	-66.1	3.6	1.51e+00	0	41	104	0	60	73128
2026-01-23 19:20:22.38	2.15	14.64	-50.8	-66.1	3.6	1.51e+00	0	41	104	0	60	73299
2026-01-23 19:20:25.40	1.52	14.67	-50.8	-66.1	3.6	1.51e+00	0	41	104	0	60	72887
2026-01-23 19:20:28.43	0.89	14.69	-50.8	-66.1	3.6	1.51e+00	0	41	104	0	60	72760
2026-01-23 19:20:31.46	0.26	14.72	-50.9	-66.1	3.6	1.51e+00	0	41	104	0	60	72971
2026-01-23 19:20:34.49	359.63	14.74	-50.9	-66.1	3.6	1.51e+00	0	41	104	0	60	73072
2026-01-23 19:20:37.52	358.99	14.76	-50.9	-66.2	3.6	1.51e+00	0	41	104	0	60	73386
2026-01-23 19:20:40.55	358.36	14.77	-50.9	-66.1	3.6	1.51e+00	0	41	104	0	60	73134
2026-01-23 19:20:43.58	357.72	14.78	-50.9	-66.1	3.6	1.51e+00	0	41	104	0	60	73102
2026-01-23 19:20:46.61	357.09	14.79	-50.9	-66.1	3.6	1.51e+00	0	41	104	0	60	73060
2026-01-23 19:20:49.64	356.45	14.79	-50.9	-66.1	3.6	1.51e+00	0	41	104	0	60	72772
2026-01-23 19:20:52.67	355.82	14.79	-50.9	-66.1	3.6	1.51e+00	0	41	104	0	60	73326
2026-01-23 19:20:55.70	355.18	14.79	-50.9	-66.1	3.6	1.51e+00	0	41	104	0	60	73133
2026-01-23 19:20:58.73	354.55	14.78	-50.9	-66.1	3.6	1.51e+00	0	41	104	0	60	73276
2026-01-23 19:21:01.77	353.91	14.77	-50.9	-66.1	3.6	1.51e+00	0	41	104	0	60	72994
2026-01-23 19:21:04.80	353.27	14.75	-50.9	-66.1	3.6	1.51e+00	0	41	104	0	60	73169
2026-01-23 19:21:07.83	352.64	14.74	-50.9	-66.1	3.6	1.51e+00	0	41	104	0	60	73239
2026-01-23 19:21:10.86	352.01	14.71	-50.9	-66.1	3.6	1.51e+00	0	41	104	0	60	72844
2026-01-23 19:21:13.89	351.38	14.69	-50.9	-66.1	3.6	1.51e+00	0	41	104	0	60	73159
2026-01-23 19:21:16.92	350.74	14.66	-50.9	-66.1	3.6	1.51e+00	0	41	104	0	60	72883
2026-01-23 19:21:19.95	350.12	14.63	-50.9	-66.1	3.6	1.51e+00	0	41	104	0	60	73204
2026-01-23 19:21:22.98	349.49	14.59	-50.9	-66.1	3.6	1.51e+00	0	41	104	0	60	73079
2026-01-23 19:21:26.01	348.86	14.56	-50.8	-66.1	3.6	1.51e+00	0	41	104	0	60	72881
2026-01-23 19:21:29.04	348.24	14.51	-50.8	-66.1	3.6	1.51e+00	0	41	104	0	60	72976
2026-01-23 19:21:32.07	347.61	14.47	-50.8	-66.1	3.6	1.51e+00	0	41	104	0	60	72860
2026-01-23 19:21:35.10	346.99	14.42	-50.8	-66.1	3.6	1.51e+00	0	41	104	0	60	72847
2026-01-23 19:21:38.13	346.37	14.37	-50.8	-66.1	3.6	1.51e+00	0	41	104	0	60	72939
2026-01-23 19:21:41.16	345.76	14.31	-50.8	-66.1	3.6	1.51e+00	0	41	104	0	60	72893
2026-01-23 19:21:44.19	345.14	14.25	-50.8	-66.1	3.6	1.51e+00	0	41	104	0	60	73154
2026-01-23 19:21:47.22	344.53	14.19	-50.8	-66.1	3.6	1.51e+00	0	41	104	0	60	73331
2026-01-23 19:21:50.25	343.92	14.13	-50.8	-66.1	3.6	1.51e+00	0	41	104	0	60	73087
2026-01-23 19:21:53.28	343.32	14.06	-50.8	-66.1	3.6	1.51e+00	0	41	104	0	60	73023
2026-01-23 19:21:56.31	342.71	13.99	-50.8	-66.1	3.6	1.51e+00	0	41	104	0	60	72895
2026-01-23 19:21:59.34	342.11	13.92	-50.8	-66.1	3.6	1.51e+00	0	41	104	0	60	73126
2026-01-23 19:22:02.37	341.51	13.84	-50.8	-66.1	3.6	1.51e+00	0	41	104	0	60	73217
2026-01-23 19:22:05.40	340.92	13.76	-50.8	-66.1	3.6	1.51e+00	0	41	104	0	60	73240
2026-01-23 19:22:08.43	340.33	13.68	-50.8	-66.1	3.6	1.51e+00	0	41	104	0	60	72653
2026-01-23 19:22:11.46	339.74	13.60	-50.8	-66.1	3.6	1.51e+00	0	41	104	0	60	73365
2026-01-23 19:22:14.49	339.16	13.51	-50.8	-66.1	3.6	1.51e+00	0	41	104	0	60	73043
2026-01-23 19:22:17.52	338.58	13.42	-50.8	-66.1	3.6	1.51e+00	0	41	104	0	60	73294
2026-01-23 19:22:20.55	338.00	13.33	-50.8	-66.1	3.6	1.51e+00	0	41	104	0	60	72977
2026-01-23 19:22:23.57	337.43	13.23	-50.8	-66.1	3.6	1.51e+00	0	41	104	0	60	73198
2026-01-23 19:22:26.60	336.86	13.13	-50.8	-66.1	3.6	1.51e+00	0	41	104	0	60	72907
2026-01-23 19:22:29.63	336.29	13.03	-50.8	-66.1	3.6	1.51e+00	0	41	104	0	60	72791
2026-01-23 19:22:32.66	335.73	12.93	-50.8	-66.1	3.6	1.51e+00	0	41	104	0	60	72783
2026-01-23 19:22:35.69	335.17	12.83	-50.8	-66.1	3.6	1.51e+00	0	41	104	0	60	72770
2026-01-23 19:22:38.72	334.62	12.72	-50.8	-66.1	3.6	1.51e+00	0	41	104	0	60	72992
2026-01-23 19:22:41.75	334.07	12.61	-50.8	-66.1	3.6	1.51e+00	0	41	104	0	60	72966
2026-01-23 19:22:44.78	333.52	12.50	-50.8	-66.1	3.6	1.51e+00	0	41	104	0	60	72621
2026-01-23 19:22:47.81	332.98	12.39	-50.8	-66.1	3.6	1.51e+00	0	41	104	0	60	72883
2026-01-23 19:22:50.83	332.45	12.27	-50.8	-66.1	3.6	1.51e+00	0	41	104	0	60	72884
2026-01-23 19:22:53.86	331.91	12.16	-50.8	-66.1	3.6	1.51e+00	0	41	104	0	60	72851
2026-01-23 19:22:56.90	331.38	12.04	-50.8	-66.1	3.6	1.51e+00	0	41	104	0	60	72834
2026-01-23 19:22:59.93	330.86	11.92	-50.8	-66.1	3.6	1.51e+00	0	41	104	0	60	72840
2026-01-23 19:23:02.96	330.34	11.80	-50.8	-66.1	3.6	1.51e+00	0	41	104	0	60	72870
2026-01-23 19:23:05.99	329.82	11.67	-50.8	-66.1	3.6	1.51e+00	0	41	104	0	60	73148
2026-01-23 19:23:09.02	329.31	11.55	-50.8	-66.1	3.6	1.51e+00	0	41	104	0	60	72545
2026-01-23 19:23:12.04	328.81	11.42	-50.8	-66.1	3.6	1.51e+00	0	41	104	0	60	72895
2026-01-23 19:23:15.07	328.31	11.29	-50.8	-66.1	3.5	1.51e+00	0	41	104	0	60	72913
2026-01-23 19:23:18.10	327.81	11.16	-50.8	-66.1	3.6	1.51e+00	0	41	104	0	60	72829
2026-01-23 19:23:21.13	327.31	11.03	-50.8	-66.1	3.6	1.51e+00	0	41	104	0	60	72955
2026-01-23 19:23:24.16	326.83	10.90	-50.8	-66.1	3.6	1.51e+00	0	42	104	0	60	73155
2026-01-23 19:23:27.19	326.34	10.76	-50.8	-66.1	3.6	1.51e+00	0	41	104	0	60	72981
2026-01-23 19:23:30.22	325.86	10.63	-50.8	-66.1	3.6	1.51e+00	0	41	104	0	60	73190
2026-01-23 19:23:33.25	325.39	10.49	-50.8	-66.1	3.6	1.51e+00	0	42	104	0	60	72917
2026-01-23 19:23:36.28	324.92	10.35	-50.8	-66.1	3.6	1.51e+00	0	41	104	0	60	73001
2026-01-23 19:23:39.31	324.45	10.22	-50.8	-66.1	3.5	1.51e+00	0	41	104	0	60	73018
2026-01-23 19:23:42.34	323.99	10.08	-50.8	-66.1	3.6	1.51e+00	0	41	104	0	60	72732
2026-01-23 19:23:45.37	323.53	9.94	-50.8	-66.1	3.6	1.51e+00	0	41	104	0	60	73121
2026-01-23 19:23:48.40	323.08	9.79	-50.8	-66.1	3.6	1.51e+00	0	41	104	0	60	72673
2026-01-23 19:23:51.43	322.63	9.65	-50.8	-66.1	3.6	1.51e+00	0	41	104	0	60	72559
2026-01-23 19:23:54.46	322.19	9.51	-50.8	-66.1	3.6	1.51e+00	0	41	104	0	60	73016
2026-01-23 19:23:57.48	321.75	9.36	-50.8	-66.1	3.6	1.51e+00	0	41	104	0	60	72705
2026-01-23 19:24:00.51	321.31	9.22	-50.8	-66.1	3.6	1.51e+00	0	41	104	0	60	73265
2026-01-23 19:24:03.54	320.88	9.07	-50.8	-66.1	3.6	1.51e+00	0	41	104	0	60	73102
2026-01-23 19:24:06.57	320.46	8.93	-50.8	-66.1	3.6	1.51e+00	0	42	104	0	60	72778
2026-01-23 19:24:09.60	320.03	8.78	-50.8	-66.1	3.6	1.51e+00	0	41	104	0	60	72981
2026-01-23 19:24:12.63	319.62	8.63	-50.8	-66.1	3.6	1.51e+00	0	41	104	0	60	73011
2026-01-23 19:24:15.66	319.20	8.48	-50.8	-66.1	3.6	1.51e+00	0	42	104	0	60	72794
2026-01-23 19:24:18.69	318.79	8.34	-50.8	-66.1	3.6	1.51e+00	0	42	104	0	60	72644
2026-01-23 19:24:21.72	318.39	8.19	-50.8	-66.1	3.6	1.51e+00	0	41	104	0	60	73186
2026-01-23 19:24:24.75	317.99	8.04	-50.8	-66.1	3.6	1.51e+00	0	42	104	0	60	73027
2026-01-23 19:24:27.78	317.59	7.89	-50.8	-66.1	3.6	1.51e+00	0	42	104	0	60	72879
2026-01-23 19:24:30.81	317.20	7.74	-50.8	-66.1	3.6	1.51e+00	0	42	104	0	60	73010
2026-01-23 19:24:33.84	316.81	7.59	-50.8	-66.1	3.6	1.51e+00	0	42	104	0	60	72868
2026-01-23 19:24:36.87	316.43	7.43	-50.8	-66.1	3.6	1.51e+00	0	42	104	0	60	73024
2026-01-23 19:24:39.90	316.05	7.28	-50.8	-66.1	3.6	1.51e+00	0	41	104	0	60	72798
2026-01-23 19:24:42.93	315.67	7.13	-50.8	-66.1	3.6	1.51e+00	0	42	104	0	60	73089
2026-01-23 19:24:45.96	315.30	6.98	-50.8	-66.0	3.6	1.51e+00	0	42	104	0	60	72503
2026-01-23 19:24:48.99	314.93	6.83	-50.8	-66.1	3.6	1.51e+00	0	41	104	0	60	72930
2026-01-23 19:24:52.02	314.57	6.67	-50.8	-66.1	3.6	1.51e+00	0	42	104	0	60	73142
2026-01-23 19:24:55.05	314.21	6.52	-50.8	-66.1	3.6	1.51e+00	0	42	104	0	60	72971
2026-01-23 19:24:58.08	313.85	6.37	-50.8	-66.1	3.6	1.51e+00	0	42	104	0	60	73027
2026-01-23 19:25:01.11	313.50	6.22	-50.8	-66.1	3.6	1.51e+00	0	42	104	0	60	72969
2026-01-23 19:25:04.14	313.15	6.06	-50.8	-66.1	3.6	1.51e+00	0	42	104	0	60	72997
2026-01-23 19:25:07.17	312.81	5.91	-50.8	-66.1	3.6	1.51e+00	0	42	104	0	60	72834
2026-01-23 19:25:10.20	312.46	5.76	-50.8	-66.1	3.6	1.51e+00	0	42	104	0	60	73095
2026-01-23 19:25:13.23	312.13	5.60	-50.8	-66.1	3.6	1.51e+00	0	42	104	0	60	72988
2026-01-23 19:25:16.26	311.79	5.45	-50.8	-66.1	3.6	1.51e+00	0	42	104	0	60	72996
2026-01-23 19:25:19.29	311.46	5.30	-50.8	-66.1	3.6	1.51e+00	0	42	104	0	60	72905
2026-01-23 19:25:22.32	311.14	5.14	-50.8	-66.1	3.6	1.51e+00	0	42	104	0	60	73085
2026-01-23 19:25:25.35	310.81	4.99	-50.8	-66.1	3.6	1.51e+00	0	42	104	0	60	73167
2026-01-23 19:25:28.38	310.49	4.84	-50.8	-66.1	3.6	1.51e+00	0	42	104	0	60	73027
2026-01-23 19:25:31.41	310.18	4.68	-50.8	-66.1	3.6	1.51e+00	0	42	104	0	60	73034
2026-01-23 19:25:34.43	309.86	4.53	-50.8	-66.2	3.6	1.51e+00	0	42	104	0	60	73467
2026-01-23 19:25:37.46	309.55	4.38	-50.8	-66.1	3.6	1.51e+00	0	42	104	0	60	72851
2026-01-23 19:25:40.49	309.25	4.22	-50.8	-66.1	3.6	1.51e+00	0	42	104	0	60	72926
2026-01-23 19:25:43.52	308.94	4.07	-50.8	-66.1	3.6	1.51e+00	0	42	104	0	60	72981
2026-01-23 19:25:46.55	308.64	3.92	-50.8	-66.1	3.6	1.51e+00	0	42	104	0	60	72992
2026-01-23 19:25:49.57	308.35	3.77	-50.8	-66.1	3.6	1.51e+00	0	42	104	0	60	73036
2026-01-23 19:25:52.60	308.06	3.61	-50.8	-66.1	3.6	1.51e+00	0	42	104	0	60	73002
2026-01-23 19:25:55.63	307.77	3.46	-50.8	-66.1	3.6	1.51e+00	0	42	104	0	60	73174
2026-01-23 19:25:58.66	307.48	3.31	-50.8	-66.1	3.6	1.51e+00	0	41	104	0	60	72969
2026-01-23 19:26:01.66	307.20	3.16	-50.8	-66.1	3.6	1.51e+00	0	42	104	0	60	72992
2026-01-23 19:26:04.69	306.92	3.01	-50.8	-66.1	3.6	1.51e+00	0	42	104	0	60	73223
2026-01-23 19:26:07.72	306.64	2.85	-50.8	-66.1	3.6	1.51e+00	0	42	104	0	60	72916
2026-01-23 19:26:10.75	306.36	2.70	-50.8	-66.1	3.6	1.51e+00	0	42	104	0	60	72879
2026-01-23 19:26:13.78	306.09	2.55	-50.8	-66.1	3.6	1.51e+00	0	42	104	0	60	72966
2026-01-23 19:26:16.81	305.82	2.40	-50.8	-66.1	3.6	1.51e+00	0	42	104	0	60	72745
2026-01-23 19:26:19.84	305.55	2.25	-50.8	-66.1	3.6	1.51e+00	0	42	104	0	60	72706
2026-01-23 19:26:22.87	305.29	2.10	-50.8	-66.1	3.6	1.51e+00	0	42	104	0	60	72779
2026-01-23 19:26:25.90	305.03	1.95	-50.8	-66.1	3.6	1.51e+00	0	42	104	0	60	73163
2026-01-23 19:26:28.93	304.77	1.80	-50.8	-66.1	3.6	1.51e+00	0	42	104	0	60	73313
2026-01-23 19:26:31.95	304.52	1.65	-50.8	-66.1	3.6	1.51e+00	0	42	104	0	60	72806
2026-01-23 19:26:34.99	304.26	1.50	-50.8	-66.1	3.6	1.51e+00	0	42	104	0	60	73067
2026-01-23 19:26:38.02	304.01	1.35	-50.8	-66.1	3.5	1.51e+00	0	42	104	0	60	73140
2026-01-23 19:26:41.05	303.76	1.20	-50.8	-66.1	3.5	1.51e+00	0	42	104	0	60	73188
2026-01-23 19:26:44.07	303.52	1.05	-50.8	-66.1	3.6	1.51e+00	0	42	104	0	60	72788
2026-01-23 19:26:47.11	303.28	0.90	-50.8	-66.1	3.6	1.51e+00	0	42	104	0	60	73054
2026-01-23 19:26:50.14	303.04	0.75	-50.8	-66.1	3.6	1.51e+00	0	42	104	0	60	72811
2026-01-23 19:26:53.17	302.80	0.61	-50.8	-66.1	3.6	1.51e+00	0	42	104	0	60	73164
2026-01-23 19:26:56.20	302.56	0.46	-50.8	-66.1	3.6	1.51e+00	0	42	104	0	60	72805
2026-01-23 19:26:59.22	302.33	0.31	-50.8	-66.1	3.6	1.51e+00	0	42	104	0	60	73316
2026-01-23 19:27:02.25	302.10	0.16	-50.8	-66.1	3.6	1.51e+00	0	42	104	0	60	73237
2026-01-23 19:27:05.28	301.87	0.02	-50.8	-66.1	3.6	1.51e+00	0	42	104	0	60	73255

#Closed at: 2026-01-23 19:27:07
#Recorded file [0 MB]: D:/lorett/data/35029_260124_071436.dat