passes_logs/2026/01/23/R4.6S_Anadyr/R4.6S_Anadyr__20260123_033342_SUOMI_NPP_rec.log

#Pass ID: 20260123_033342_SUOMI NPP
#Satellite: SUOMI NPP
#Configuration: NPP
#almurnet v.1.7.20251203
#Start time: 2026-01-23 03:33:44

#Version: 2.2.20231116
#Station: R4.6S_Anadyr
#Location: 177.4865 lon 64.73178 lat
#TLE: 1 37849U 11061A   26022.50498765  .00000208  00000+0  11976-3 0  9992
#TLE: 2 37849  98.7820 324.4892 0002275  50.8149 309.3229 14.19528284737775

#Time	Az	El	Level	Level2	SNR	BER	BlckErr	Temp	State	Recorded	gain1	gain2
2026-01-23 03:33:44.53	245.44	0.07	-51.0	-63.6	3.4	1.51e+00	0	38	0	0	60	52924
2026-01-23 03:33:47.56	245.74	0.19	-50.9	-66.1	3.6	1.51e+00	0	39	104	0	60	73096
2026-01-23 03:33:50.59	246.04	0.31	-51.0	-66.1	3.6	1.51e+00	0	40	104	0	60	73212
2026-01-23 03:33:53.62	246.34	0.43	-51.0	-66.2	3.6	1.51e+00	0	40	104	0	60	74103
2026-01-23 03:33:56.65	246.64	0.55	-51.1	-66.3	3.6	1.51e+00	0	40	104	0	60	74941
2026-01-23 03:33:59.68	246.95	0.67	-51.2	-66.4	3.6	1.51e+00	0	40	104	0	60	75506
2026-01-23 03:34:02.71	247.25	0.79	-51.1	-66.3	3.6	1.51e+00	0	40	104	0	60	74452
2026-01-23 03:34:05.74	247.56	0.90	-50.9	-66.1	3.6	1.51e+00	0	40	104	0	60	73242
2026-01-23 03:34:08.77	247.88	1.02	-50.4	-65.6	3.6	1.51e+00	0	40	104	0	60	68913
2026-01-23 03:34:11.80	248.19	1.14	-49.5	-64.7	3.6	1.51e+00	0	40	104	0	60	62136
2026-01-23 03:34:14.83	248.51	1.26	-49.5	-64.7	3.6	1.51e+00	0	40	104	0	60	62056
2026-01-23 03:34:17.86	248.83	1.37	-49.5	-64.7	3.6	1.51e+00	0	40	104	0	60	61920
2026-01-23 03:34:20.89	249.15	1.49	-49.5	-64.7	3.6	1.51e+00	0	40	104	0	60	61853
2026-01-23 03:34:23.92	249.47	1.61	-49.5	-64.6	3.6	1.51e+00	0	40	104	0	60	61691
2026-01-23 03:34:26.95	249.80	1.73	-49.5	-64.7	3.6	1.51e+00	0	40	104	0	60	61745
2026-01-23 03:34:29.98	250.13	1.84	-49.5	-64.6	3.6	1.51e+00	0	40	104	0	60	61698
2026-01-23 03:34:33.01	250.46	1.96	-49.5	-64.6	3.6	1.51e+00	0	40	104	0	60	61505
2026-01-23 03:34:36.04	250.79	2.07	-49.5	-64.7	3.6	1.51e+00	0	40	104	0	60	61751
2026-01-23 03:34:39.07	251.13	2.19	-49.5	-64.6	3.6	1.51e+00	0	40	104	0	60	61572
2026-01-23 03:34:42.10	251.47	2.30	-49.5	-64.7	3.5	1.51e+00	0	40	104	0	60	61791
2026-01-23 03:34:45.13	251.81	2.42	-49.5	-64.4	3.6	1.51e+00	0	40	104	0	60	59890
2026-01-23 03:34:48.16	252.16	2.53	-49.5	-64.7	3.6	1.51e+00	0	40	104	0	60	61780
2026-01-23 03:34:51.19	252.50	2.65	-49.5	-64.5	3.6	1.51e+00	0	40	104	0	60	60565
2026-01-23 03:34:54.22	252.85	2.76	-49.4	-63.8	3.6	1.51e+00	0	41	104	0	60	56004
2026-01-23 03:34:57.25	253.21	2.88	-49.4	-64.7	3.6	1.51e+00	0	41	104	0	60	61772
2026-01-23 03:35:00.28	253.56	2.99	-48.9	-56.6	6.1	4.08e-01	92	41	0	1048576	60	24435
2026-01-23 03:35:03.31	253.92	3.10	-49.3	-61.0	4.1	1.51e+00	0	41	104	3145728	60	40327
2026-01-23 03:35:06.34	254.28	3.21	-43.1	-44.7	17.9	1.46e+00	0	41	104	3145728	60	6175
2026-01-23 03:35:09.37	254.64	3.32	-43.7	-45.4	18.2	0.00e+00	91	41	0	7340032	60	6733
2026-01-23 03:35:12.40	255.00	3.44	-43.6	-45.3	18.5	0.00e+00	92	41	0	12582912	60	6642
2026-01-23 03:35:15.43	255.37	3.55	-43.1	-44.7	19.1	0.00e+00	0	41	0	18874368	60	6197
2026-01-23 03:35:18.46	255.74	3.66	-42.9	-44.4	19.4	0.00e+00	92	41	0	24117248	58	6701
2026-01-23 03:35:21.49	256.12	3.77	-43.4	-45.1	18.9	0.00e+00	90	41	0	29360128	58	7265
2026-01-23 03:35:24.51	256.49	3.87	-42.6	-44.1	19.7	0.00e+00	14	41	0	35651584	58	6474
2026-01-23 03:35:27.53	256.87	3.98	-43.2	-44.8	19.1	0.00e+00	0	41	0	40894464	58	7032
2026-01-23 03:35:30.56	257.25	4.09	-42.9	-44.3	19.5	0.00e+00	91	41	0	47185920	58	6668
2026-01-23 03:35:33.59	257.63	4.20	-42.7	-44.1	19.7	0.00e+00	92	41	0	52428800	58	6499
2026-01-23 03:35:36.62	258.02	4.30	-42.7	-44.1	19.7	0.00e+00	0	41	0	58720256	58	6497
2026-01-23 03:35:39.66	258.41	4.41	-42.7	-44.1	19.6	0.00e+00	91	41	0	63963136	58	6517
2026-01-23 03:35:42.67	258.80	4.52	-42.8	-44.3	19.6	0.00e+00	91	41	0	69206016	58	6646
2026-01-23 03:35:45.70	259.19	4.62	-42.7	-44.1	19.8	0.00e+00	0	41	0	75497472	58	6494
2026-01-23 03:35:48.73	259.59	4.72	-42.7	-44.1	19.7	0.00e+00	92	41	0	80740352	58	6502
2026-01-23 03:35:51.76	259.99	4.83	-42.7	-44.0	19.9	0.00e+00	90	41	0	87031808	58	6452
2026-01-23 03:35:54.78	260.39	4.93	-43.0	-44.5	19.4	0.00e+00	33	41	0	92274688	58	6822
2026-01-23 03:35:57.81	260.80	5.03	-42.9	-44.3	19.6	0.00e+00	0	41	0	97517568	58	6646
2026-01-23 03:36:00.84	261.21	5.13	-43.1	-44.6	19.4	0.00e+00	92	41	0	103809024	58	6863
2026-01-23 03:36:03.87	261.62	5.23	-43.1	-44.6	19.4	0.00e+00	92	41	0	109051904	58	6896
2026-01-23 03:36:06.90	262.03	5.33	-42.9	-44.3	19.7	0.00e+00	0	41	0	115343360	58	6663
2026-01-23 03:36:09.92	262.45	5.43	-43.0	-44.5	19.5	0.00e+00	92	41	0	120586240	58	6776
2026-01-23 03:36:12.95	262.86	5.53	-43.0	-44.5	19.5	0.00e+00	92	41	0	126877696	58	6787
2026-01-23 03:36:15.98	263.29	5.62	-42.7	-44.1	19.8	0.00e+00	0	41	0	132120576	58	6517
2026-01-23 03:36:19.01	263.71	5.72	-42.8	-44.2	19.8	0.00e+00	0	41	0	137363456	58	6546
2026-01-23 03:36:22.03	264.14	5.81	-42.6	-43.9	20.1	0.00e+00	90	41	0	143654912	58	6374
2026-01-23 03:36:25.06	264.57	5.91	-42.9	-44.4	19.7	0.00e+00	92	41	0	148897792	58	6700
2026-01-23 03:36:28.09	265.00	6.00	-42.9	-44.3	19.8	0.00e+00	0	41	0	155189248	60	5954
2026-01-23 03:36:31.11	265.43	6.09	-43.0	-44.4	19.7	0.00e+00	90	41	0	160432128	58	6695
2026-01-23 03:36:34.14	265.87	6.18	-43.2	-44.7	19.4	0.00e+00	92	41	0	165675008	58	6957
2026-01-23 03:36:37.17	266.31	6.27	-43.4	-44.9	19.4	0.00e+00	0	41	0	171966464	58	7113
2026-01-23 03:36:40.20	266.75	6.36	-43.3	-44.7	19.4	0.00e+00	92	41	0	177209344	58	6994
2026-01-23 03:36:43.23	267.20	6.45	-43.1	-44.6	19.6	0.00e+00	92	41	0	183500800	58	6865
2026-01-23 03:36:46.26	267.64	6.53	-42.7	-44.1	20.0	0.00e+00	0	41	0	188743680	58	6513
2026-01-23 03:36:49.29	268.09	6.62	-43.0	-44.5	19.6	0.00e+00	0	41	0	195035136	58	6789
2026-01-23 03:36:52.32	268.55	6.70	-43.1	-44.5	19.6	0.00e+00	92	41	0	200278016	58	6846
2026-01-23 03:36:55.35	269.00	6.78	-43.3	-44.8	19.4	0.00e+00	92	41	0	205520896	58	7036
2026-01-23 03:36:58.38	269.46	6.87	-43.5	-45.0	19.3	0.00e+00	0	41	0	211812352	58	7195
2026-01-23 03:37:01.40	269.92	6.94	-43.4	-44.9	19.3	0.00e+00	92	41	0	217055232	58	7150
2026-01-23 03:37:04.43	270.38	7.02	-43.3	-44.7	19.6	0.00e+00	92	41	0	223346688	58	6998
2026-01-23 03:37:07.46	270.85	7.10	-42.8	-44.2	19.9	0.00e+00	0	41	0	228589568	58	6557
2026-01-23 03:37:10.49	271.31	7.18	-43.2	-44.7	19.4	0.00e+00	0	41	0	233832448	58	6978
2026-01-23 03:37:13.52	271.78	7.25	-43.6	-45.2	19.1	0.00e+00	48	41	0	240123904	60	6559
2026-01-23 03:37:16.54	272.25	7.32	-43.8	-45.4	19.0	0.00e+00	41	41	0	245366784	60	6738
2026-01-23 03:37:19.58	272.73	7.40	-43.8	-45.4	18.9	0.00e+00	0	41	0	251658240	60	6737
2026-01-23 03:37:22.61	273.21	7.47	-43.4	-44.9	19.4	0.00e+00	92	41	0	256901120	60	6343
2026-01-23 03:37:25.63	273.68	7.53	-43.6	-45.1	19.4	0.00e+00	92	41	0	263192576	60	6481
2026-01-23 03:37:28.66	274.16	7.60	-43.2	-44.6	19.7	0.00e+00	0	41	0	268435456	60	6113
2026-01-23 03:37:31.69	274.65	7.67	-43.1	-44.5	19.8	0.00e+00	92	41	0	273678336	60	6092
2026-01-23 03:37:34.72	275.13	7.73	-44.4	-46.1	18.3	0.00e+00	45	41	0	279969792	60	7330
2026-01-23 03:37:37.75	275.62	7.79	-44.6	-46.4	18.1	0.00e+00	0	41	0	285212672	60	7563
2026-01-23 03:37:40.78	276.11	7.85	-44.7	-46.5	17.9	0.00e+00	0	41	0	291504128	60	7648
2026-01-23 03:37:43.81	276.60	7.91	-43.7	-45.2	19.2	0.00e+00	90	41	0	296747008	60	6585
2026-01-23 03:37:46.84	277.09	7.97	-43.0	-44.4	20.0	0.00e+00	92	41	0	301989888	60	6001
2026-01-23 03:37:49.87	277.58	8.03	-43.4	-44.9	19.5	0.00e+00	0	41	0	308281344	60	6337
2026-01-23 03:37:52.90	278.08	8.08	-43.2	-44.6	19.8	0.00e+00	92	41	0	313524224	60	6169
2026-01-23 03:37:55.93	278.58	8.13	-42.9	-44.3	20.0	0.00e+00	92	41	0	319815680	60	5923
2026-01-23 03:37:58.96	279.08	8.18	-43.5	-45.0	19.2	0.00e+00	0	41	0	325058560	60	6452
2026-01-23 03:38:01.98	279.58	8.23	-44.1	-45.7	18.7	0.00e+00	92	41	0	331350016	60	7007
2026-01-23 03:38:05.01	280.08	8.28	-43.3	-44.7	19.7	0.00e+00	92	41	0	336592896	60	6191
2026-01-23 03:38:08.04	280.58	8.32	-42.6	-43.9	20.4	0.00e+00	0	41	0	341835776	58	6323
2026-01-23 03:38:11.07	281.09	8.37	-43.0	-44.4	19.9	0.00e+00	0	41	0	348127232	58	6749
2026-01-23 03:38:14.10	281.60	8.41	-42.8	-44.1	20.2	0.00e+00	92	41	0	353370112	58	6514
2026-01-23 03:38:17.13	282.10	8.45	-42.4	-43.7	20.6	0.00e+00	42	41	0	359661568	58	6203
2026-01-23 03:38:20.16	282.61	8.49	-42.3	-43.5	20.7	0.00e+00	0	41	0	364904448	58	6067
2026-01-23 03:38:23.19	283.12	8.52	-43.0	-44.4	20.0	0.00e+00	92	41	0	370147328	58	6699
2026-01-23 03:38:26.22	283.64	8.56	-42.2	-43.5	20.8	0.00e+00	92	41	0	376438784	58	6040
2026-01-23 03:38:29.25	284.15	8.59	-42.7	-44.0	20.2	0.00e+00	0	41	0	381681664	58	6403
2026-01-23 03:38:32.27	284.66	8.62	-43.7	-45.2	19.1	0.00e+00	92	41	0	387973120	58	7411
2026-01-23 03:38:35.30	285.18	8.65	-44.0	-45.6	19.0	0.00e+00	91	41	0	393216000	60	6868
2026-01-23 03:38:38.33	285.69	8.67	-43.7	-45.2	19.3	0.00e+00	0	41	0	399507456	60	6603
2026-01-23 03:38:41.36	286.21	8.70	-43.8	-45.3	19.2	0.00e+00	0	41	0	404750336	60	6642
2026-01-23 03:38:44.38	286.73	8.72	-43.7	-45.3	19.3	0.00e+00	92	41	0	409993216	60	6616
2026-01-23 03:38:47.41	287.24	8.74	-43.9	-45.5	19.0	0.00e+00	92	41	0	416284672	60	6815
2026-01-23 03:38:50.44	287.76	8.76	-44.2	-45.8	18.7	0.00e+00	0	41	0	421527552	60	7058
2026-01-23 03:38:53.46	288.28	8.77	-44.5	-46.2	18.2	0.00e+00	92	41	0	427819008	60	7381
2026-01-23 03:38:56.50	288.80	8.79	-44.2	-45.9	18.7	0.00e+00	92	41	0	433061888	60	7113
2026-01-23 03:38:59.53	289.32	8.80	-43.6	-45.1	19.3	0.00e+00	0	41	0	438304768	60	6485
2026-01-23 03:39:02.55	289.84	8.81	-43.8	-45.3	19.1	0.00e+00	0	41	0	444596224	60	6682
2026-01-23 03:39:05.58	290.36	8.82	-44.0	-45.5	18.8	0.00e+00	80	41	0	449839104	60	6837
2026-01-23 03:39:08.61	290.89	8.82	-43.8	-45.3	19.2	0.00e+00	41	41	0	456130560	60	6679
2026-01-23 03:39:11.65	291.41	8.83	-43.3	-44.7	19.7	0.00e+00	0	41	0	461373440	60	6237
2026-01-23 03:39:14.67	291.93	8.83	-43.7	-45.2	19.3	0.00e+00	92	41	0	466616320	60	6614
2026-01-23 03:39:17.70	292.45	8.83	-43.8	-45.3	19.2	0.00e+00	90	41	0	472907776	60	6635
2026-01-23 03:39:20.73	292.97	8.83	-43.3	-44.7	19.8	0.00e+00	0	41	0	478150656	60	6215
2026-01-23 03:39:23.76	293.49	8.82	-43.0	-44.4	20.2	0.00e+00	92	41	0	484442112	60	5988
2026-01-23 03:39:26.79	294.01	8.82	-42.8	-44.1	20.3	0.00e+00	46	41	0	489684992	60	5790
2026-01-23 03:39:29.82	294.54	8.81	-42.2	-43.4	20.8	0.00e+00	0	41	0	495976448	58	5993
2026-01-23 03:39:32.85	295.06	8.80	-42.1	-43.3	20.8	0.00e+00	0	41	0	501219328	58	5934
2026-01-23 03:39:35.87	295.57	8.79	-42.3	-43.6	20.7	0.00e+00	91	41	0	506462208	58	6119
2026-01-23 03:39:38.90	296.09	8.77	-42.5	-43.8	20.4	0.00e+00	0	41	0	512753664	58	6297
2026-01-23 03:39:41.93	296.61	8.75	-42.3	-43.5	20.8	0.00e+00	0	41	0	517996544	58	6049
2026-01-23 03:39:44.96	297.13	8.74	-42.2	-43.5	20.7	0.00e+00	92	41	0	524288000	58	6049
2026-01-23 03:39:47.99	297.65	8.72	-42.6	-43.9	20.4	0.00e+00	90	41	0	529530880	58	6344
2026-01-23 03:39:51.02	298.17	8.69	-42.3	-43.6	20.7	0.00e+00	0	41	0	534773760	58	6111
2026-01-23 03:39:54.05	298.68	8.67	-41.9	-43.0	21.1	0.00e+00	32	41	0	541065216	58	5755
2026-01-23 03:39:57.08	299.20	8.64	-42.2	-43.5	20.8	0.00e+00	67	41	0	546308096	58	6045
2026-01-23 03:40:00.10	299.71	8.61	-42.3	-43.5	20.8	0.00e+00	33	41	0	552599552	58	6075
2026-01-23 03:40:03.13	300.22	8.58	-41.7	-42.9	21.3	0.00e+00	42	41	0	557842432	56	6348
2026-01-23 03:40:06.16	300.74	8.55	-41.1	-42.1	21.9	0.00e+00	91	41	0	564133888	56	5819
2026-01-23 03:40:09.20	301.25	8.52	-41.3	-42.3	21.8	0.00e+00	88	41	0	569376768	56	5945
2026-01-23 03:40:12.22	301.76	8.48	-41.6	-42.8	21.4	0.00e+00	0	41	0	574619648	56	6257
2026-01-23 03:40:15.25	302.27	8.44	-41.8	-42.9	21.2	0.00e+00	92	41	0	580911104	56	6384
2026-01-23 03:40:18.28	302.77	8.41	-42.1	-43.3	20.9	0.00e+00	75	41	0	586153984	56	6671
2026-01-23 03:40:21.31	303.28	8.36	-42.0	-43.2	21.1	0.00e+00	0	41	0	592445440	56	6552
2026-01-23 03:40:24.35	303.78	8.32	-41.9	-43.1	21.1	0.00e+00	0	41	0	597688320	56	6512
2026-01-23 03:40:27.38	304.29	8.28	-41.8	-42.9	21.3	0.00e+00	38	41	0	602931200	56	6365
2026-01-23 03:40:30.40	304.79	8.23	-41.3	-42.3	21.7	0.00e+00	0	41	0	609222656	56	5962
2026-01-23 03:40:33.43	305.29	8.18	-42.0	-43.1	21.1	0.00e+00	0	41	0	614465536	56	6519
2026-01-23 03:40:36.46	305.78	8.13	-41.8	-43.0	21.1	0.00e+00	90	41	0	620756992	56	6419
2026-01-23 03:40:39.49	306.28	8.08	-42.2	-43.5	20.8	0.00e+00	92	41	0	625999872	56	6778
2026-01-23 03:40:42.52	306.78	8.02	-42.4	-43.7	20.5	0.00e+00	0	41	0	632291328	56	6960
2026-01-23 03:40:45.55	307.27	7.97	-42.6	-43.9	20.3	0.00e+00	92	41	0	637534208	56	7096
2026-01-23 03:40:48.57	307.76	7.91	-42.1	-43.4	20.7	0.00e+00	92	41	0	642777088	58	5988
2026-01-23 03:40:51.60	308.25	7.85	-41.5	-42.6	21.5	0.00e+00	0	41	0	649068544	56	6141
2026-01-23 03:40:54.63	308.73	7.79	-40.9	-41.9	22.0	0.00e+00	0	41	0	654311424	56	5673
2026-01-23 03:40:57.66	309.22	7.73	-40.6	-41.7	22.2	0.00e+00	90	41	0	660602880	54	6181
2026-01-23 03:41:00.69	309.70	7.67	-40.8	-41.9	21.9	0.00e+00	42	41	0	665845760	54	6343
2026-01-23 03:41:03.71	310.18	7.60	-40.7	-41.8	22.1	0.00e+00	0	41	0	671088640	54	6262
2026-01-23 03:41:06.74	310.66	7.53	-40.7	-41.8	22.0	0.00e+00	92	41	0	677380096	54	6267
2026-01-23 03:41:09.77	311.14	7.47	-40.7	-41.8	21.9	0.00e+00	46	41	0	682622976	54	6282
2026-01-23 03:41:12.79	311.61	7.40	-41.1	-42.2	21.7	0.00e+00	0	41	0	688914432	54	6603
2026-01-23 03:41:15.82	312.08	7.32	-41.3	-42.4	21.6	0.00e+00	54	41	0	694157312	54	6755
2026-01-23 03:41:18.85	312.55	7.25	-41.5	-42.7	21.3	0.00e+00	68	41	0	700448768	54	6941
2026-01-23 03:41:21.87	313.02	7.18	-41.2	-42.3	21.6	0.00e+00	0	41	0	705691648	54	6623
2026-01-23 03:41:24.90	313.48	7.10	-40.6	-41.6	22.1	0.00e+00	0	41	0	710934528	54	6144
2026-01-23 03:41:27.93	313.95	7.03	-40.5	-41.6	22.1	0.00e+00	70	41	0	717225984	54	6104
2026-01-23 03:41:30.96	314.41	6.95	-41.2	-42.4	21.4	0.00e+00	43	41	0	722468864	54	6712
2026-01-23 03:41:33.99	314.86	6.87	-41.3	-42.5	21.2	0.00e+00	0	41	0	728760320	54	6798
2026-01-23 03:41:37.02	315.32	6.79	-41.7	-42.9	21.0	0.00e+00	27	41	0	734003200	54	7165
2026-01-23 03:41:40.05	315.77	6.71	-41.6	-42.8	21.1	0.00e+00	91	41	0	739246080	56	6249
2026-01-23 03:41:43.08	316.22	6.62	-41.7	-42.9	21.1	0.00e+00	0	41	0	745537536	56	6325
2026-01-23 03:41:46.11	316.67	6.54	-42.2	-43.4	20.5	0.00e+00	0	41	0	750780416	56	6762
2026-01-23 03:41:49.14	317.12	6.45	-42.8	-44.2	19.9	0.00e+00	92	41	0	757071872	58	6566
2026-01-23 03:41:52.16	317.56	6.37	-43.2	-44.6	19.5	0.00e+00	0	41	0	762314752	58	6921
2026-01-23 03:41:55.19	318.00	6.28	-43.2	-44.7	19.3	0.00e+00	0	41	0	768606208	58	6951
2026-01-23 03:41:58.22	318.44	6.19	-43.4	-44.9	19.1	0.00e+00	90	41	0	773849088	58	7148
2026-01-23 03:42:01.25	318.87	6.10	-43.6	-45.2	18.8	0.00e+00	42	41	0	779091968	58	7385
2026-01-23 03:42:04.27	319.31	6.01	-43.1	-44.6	19.3	0.00e+00	0	41	0	785383424	58	6905
2026-01-23 03:42:07.30	319.74	5.92	-42.7	-44.1	20.0	0.00e+00	90	41	0	790626304	58	6466
2026-01-23 03:42:10.33	320.16	5.83	-42.9	-44.3	19.8	0.00e+00	82	41	0	796917760	58	6682
2026-01-23 03:42:13.36	320.59	5.73	-43.6	-45.2	18.9	0.00e+00	0	41	0	802160640	58	7359
2026-01-23 03:42:16.38	321.01	5.64	-44.1	-45.8	18.4	0.00e+00	0	41	0	807403520	60	7088
2026-01-23 03:42:19.41	321.43	5.54	-44.1	-45.9	18.3	0.00e+00	92	41	0	813694976	60	7126
2026-01-23 03:42:22.44	321.85	5.44	-44.8	-46.7	17.4	0.00e+00	0	41	0	818937856	60	7855
2026-01-23 03:42:25.47	322.26	5.35	-45.1	-47.3	16.8	0.00e+00	0	42	0	825229312	60	8376
2026-01-23 03:42:28.50	322.67	5.25	-45.6	-48.0	16.2	0.00e+00	92	41	0	830472192	60	9045
2026-01-23 03:42:31.53	323.08	5.15	-45.0	-47.1	16.8	0.00e+00	90	42	0	836763648	60	8198
2026-01-23 03:42:34.56	323.49	5.05	-44.1	-45.9	18.1	0.00e+00	0	42	0	842006528	60	7131
2026-01-23 03:42:37.59	323.89	4.95	-44.6	-46.5	17.6	0.00e+00	75	42	0	847249408	60	7641
2026-01-23 03:42:40.61	324.29	4.85	-44.8	-46.8	17.3	0.00e+00	78	42	0	853540864	60	7920
2026-01-23 03:42:43.64	324.69	4.75	-44.9	-47.0	16.9	0.00e+00	0	42	0	858783744	60	8075
2026-01-23 03:42:46.67	325.09	4.64	-45.3	-47.7	16.4	0.00e+00	0	41	0	865075200	60	8721
2026-01-23 03:42:49.70	325.48	4.54	-44.6	-46.6	17.5	0.00e+00	0	41	0	870318080	60	7720
2026-01-23 03:42:52.72	325.87	4.43	-43.9	-45.7	18.2	0.00e+00	0	41	0	875560960	60	6978
2026-01-23 03:42:55.75	326.25	4.33	-44.3	-46.2	17.8	0.00e+00	0	42	0	881852416	60	7364
2026-01-23 03:42:58.78	326.64	4.22	-44.1	-45.9	18.0	0.00e+00	0	42	0	887095296	60	7130
2026-01-23 03:43:01.81	327.02	4.12	-44.1	-46.0	17.9	0.00e+00	38	42	0	893386752	60	7173
2026-01-23 03:43:04.83	327.40	4.01	-44.9	-47.1	16.8	0.00e+00	0	41	0	898629632	60	8179
2026-01-23 03:43:07.86	327.78	3.90	-44.8	-46.9	17.0	0.00e+00	0	42	0	903872512	60	7993
2026-01-23 03:43:10.89	328.15	3.80	-44.0	-45.8	17.8	0.00e+00	45	42	0	910163968	60	7082
2026-01-23 03:43:13.91	328.52	3.69	-44.6	-46.7	17.2	0.00e+00	0	42	0	915406848	60	7817
2026-01-23 03:43:16.94	328.89	3.58	-43.9	-45.7	18.0	0.00e+00	0	42	0	921698304	60	6964
2026-01-23 03:43:19.97	329.26	3.47	-43.6	-45.4	18.0	0.00e+00	77	42	0	926941184	60	6722
2026-01-23 03:43:23.00	329.62	3.36	-44.2	-46.2	17.1	0.00e+00	0	42	0	933232640	60	7405
2026-01-23 03:43:26.03	329.98	3.25	-44.6	-47.1	15.7	0.00e+00	0	42	0	938475520	60	8177
2026-01-23 03:43:29.06	330.34	3.14	-45.2	-48.2	14.6	0.00e+00	0	42	0	943718400	60	9296
2026-01-23 03:43:32.09	330.70	3.03	-45.7	-50.1	11.4	1.52e-04	92	42	0	950009856	60	11555
2026-01-23 03:43:35.12	331.05	2.91	-50.5	-65.7	3.6	1.51e+00	0	42	104	950009856	60	69314
2026-01-23 03:43:38.15	331.40	2.80	-50.9	-66.2	3.6	1.51e+00	0	42	104	950009856	60	73429
2026-01-23 03:43:41.18	331.75	2.69	-51.0	-66.2	3.6	1.51e+00	0	42	104	950009856	60	73972
2026-01-23 03:43:44.21	332.09	2.58	-51.1	-66.3	3.6	1.51e+00	0	42	104	950009856	60	74680
2026-01-23 03:43:47.24	332.44	2.46	-51.1	-66.3	3.6	1.51e+00	0	42	104	950009856	60	74369
2026-01-23 03:43:50.27	332.78	2.35	-51.0	-66.2	3.6	1.51e+00	0	42	104	950009856	60	73518
2026-01-23 03:43:53.30	333.12	2.24	-50.9	-66.2	3.6	1.51e+00	0	42	104	950009856	60	73923
2026-01-23 03:43:56.33	333.45	2.12	-51.0	-66.2	3.6	1.51e+00	0	42	104	950009856	60	74013
2026-01-23 03:43:59.36	333.79	2.01	-51.0	-66.2	3.6	1.51e+00	0	42	104	950009856	60	73760
2026-01-23 03:44:02.39	334.12	1.89	-51.0	-66.2	3.6	1.51e+00	0	42	104	950009856	60	73465
2026-01-23 03:44:05.42	334.44	1.78	-51.0	-66.2	3.6	1.51e+00	0	42	104	950009856	60	73828
2026-01-23 03:44:08.45	334.77	1.66	-51.0	-66.2	3.6	1.51e+00	0	42	104	950009856	60	73501
2026-01-23 03:44:11.48	335.09	1.55	-51.0	-66.1	3.6	1.51e+00	0	42	104	950009856	60	73293
2026-01-23 03:44:14.50	335.41	1.43	-51.0	-66.2	3.6	1.51e+00	0	42	104	950009856	60	73604
2026-01-23 03:44:17.53	335.73	1.31	-51.0	-66.2	3.6	1.51e+00	0	42	104	950009856	60	73448
2026-01-23 03:44:20.56	336.05	1.20	-51.0	-66.2	3.6	1.51e+00	0	42	104	950009856	60	73593
2026-01-23 03:44:23.60	336.36	1.08	-51.0	-66.1	3.6	1.51e+00	0	42	104	950009856	60	73364
2026-01-23 03:44:26.63	336.68	0.97	-51.0	-66.1	3.6	1.51e+00	0	42	104	950009856	60	73342
2026-01-23 03:44:29.66	336.99	0.85	-51.0	-66.2	3.6	1.51e+00	0	42	104	950009856	60	73719
2026-01-23 03:44:32.69	337.29	0.73	-51.0	-66.1	3.6	1.51e+00	0	42	104	950009856	60	73338
2026-01-23 03:44:35.72	337.60	0.61	-50.9	-66.2	3.6	1.51e+00	0	42	104	950009856	60	73575
2026-01-23 03:44:38.75	337.90	0.50	-51.0	-66.2	3.6	1.51e+00	0	42	104	950009856	60	73824
2026-01-23 03:44:41.78	338.20	0.38	-50.9	-66.1	3.6	1.51e+00	0	42	104	950009856	60	73260
2026-01-23 03:44:44.81	338.50	0.26	-50.9	-66.2	3.6	1.51e+00	0	42	104	950009856	60	73530
2026-01-23 03:44:47.84	338.79	0.14	-50.9	-66.2	3.6	1.51e+00	0	42	104	950009856	60	73480
2026-01-23 03:44:50.87	339.09	0.03	-50.9	-66.1	3.6	1.51e+00	0	42	104	950009856	60	73245

#Closed at: 2026-01-23 03:44:51
#Recorded file [950 MB]: D:/lorett/data/35029_260123_153344.dat