passes_logs/2026/01/23/R4.6S_Anadyr/R4.6S_Anadyr__20260123_234955_SUOMI_NPP_rec.log

#Pass ID: 20260123_234955_SUOMI NPP
#Satellite: SUOMI NPP
#Configuration: NPP
#almurnet v.1.7.20251203
#Start time: 2026-01-23 23:49:57

#Version: 2.2.20231116
#Station: R4.6S_Anadyr
#Location: 177.4865 lon 64.73178 lat
#TLE: 1 37849U 11061A   26023.63275593  .00000212  00000+0  12133-3 0  9990
#TLE: 2 37849  98.7820 325.6074 0002234  48.9695 311.1673 14.19528901737937

#Time	Az	El	Level	Level2	SNR	BER	BlckErr	Temp	State	Recorded	gain1	gain2
2026-01-23 23:49:57.99	144.80	0.16	-51.2	-63.7	3.4	1.52e+00	0	39	0	0	60	53963
2026-01-23 23:50:02.03	144.76	0.40	-51.1	-66.2	3.6	1.51e+00	0	40	104	0	60	74137
2026-01-23 23:50:06.07	144.72	0.65	-51.0	-66.2	3.6	1.51e+00	0	40	104	0	60	73715
2026-01-23 23:50:10.11	144.68	0.89	-51.0	-66.2	3.6	1.51e+00	0	40	104	0	60	74047
2026-01-23 23:50:14.15	144.64	1.15	-50.8	-66.0	3.6	1.51e+00	0	40	104	0	60	71781
2026-01-23 23:50:18.19	144.59	1.40	-50.3	-65.5	3.6	1.51e+00	0	41	104	0	60	68424
2026-01-23 23:50:22.23	144.55	1.65	-49.3	-64.5	3.5	1.51e+00	0	41	104	0	60	60645
2026-01-23 23:50:26.27	144.51	1.91	-48.9	-64.1	3.6	1.51e+00	0	41	104	0	60	57987
2026-01-23 23:50:30.31	144.46	2.17	-48.9	-64.1	3.6	1.51e+00	0	41	104	0	60	57814
2026-01-23 23:50:34.35	144.41	2.43	-48.9	-64.1	3.6	1.51e+00	0	41	104	0	60	58231
2026-01-23 23:50:38.39	144.37	2.69	-48.9	-64.1	3.6	1.51e+00	0	41	104	0	60	57864
2026-01-23 23:50:42.43	144.32	2.96	-48.9	-64.2	3.6	1.51e+00	0	41	104	0	60	58296
2026-01-23 23:50:46.47	144.27	3.23	-48.9	-63.5	3.6	1.51e+00	0	41	104	0	60	54169
2026-01-23 23:50:50.51	144.22	3.50	-48.4	-56.3	5.6	6.92e-01	92	41	0	2097152	60	23710
2026-01-23 23:50:54.55	144.17	3.78	-47.3	-52.4	10.5	6.58e-03	0	41	0	8388608	60	15004
2026-01-23 23:50:58.59	144.11	4.05	-47.1	-52.0	5.4	1.49e+00	0	41	104	12582912	60	14421
2026-01-23 23:51:02.63	144.06	4.33	-44.0	-46.1	17.2	0.00e+00	88	41	0	15728640	60	7289
2026-01-23 23:51:06.66	144.00	4.61	-44.1	-46.3	17.0	0.00e+00	92	41	0	23068672	60	7466
2026-01-23 23:51:10.70	143.95	4.90	-43.8	-45.9	17.4	0.00e+00	0	41	0	31457280	60	7096
2026-01-23 23:51:14.74	143.89	5.19	-43.4	-45.2	18.2	0.00e+00	92	41	0	38797312	60	6544
2026-01-23 23:51:18.77	143.83	5.48	-43.0	-44.7	18.6	0.00e+00	90	41	0	46137344	60	6175
2026-01-23 23:51:22.81	143.77	5.78	-42.9	-44.5	18.6	0.00e+00	0	41	0	53477376	60	6068
2026-01-23 23:51:26.85	143.70	6.08	-43.0	-44.8	18.5	0.00e+00	0	41	0	60817408	60	6277
2026-01-23 23:51:30.89	143.64	6.38	-43.2	-45.0	18.4	0.00e+00	90	41	0	69206016	60	6434
2026-01-23 23:51:34.93	143.57	6.68	-42.4	-44.0	19.2	0.00e+00	92	41	0	76546048	58	6419
2026-01-23 23:51:38.96	143.51	6.99	-42.0	-43.4	20.0	0.00e+00	0	41	0	83886080	58	6033
2026-01-23 23:51:43.00	143.44	7.30	-42.0	-43.3	20.1	0.00e+00	0	41	0	91226112	58	5950
2026-01-23 23:51:47.04	143.37	7.62	-42.0	-43.4	20.1	0.00e+00	92	41	0	99614720	58	5973
2026-01-23 23:51:51.08	143.29	7.94	-42.4	-43.9	19.8	0.00e+00	92	41	0	106954752	58	6323
2026-01-23 23:51:55.12	143.22	8.27	-41.6	-42.9	20.6	0.00e+00	0	41	0	114294784	56	6339
2026-01-23 23:51:59.15	143.14	8.60	-41.5	-42.6	20.9	0.00e+00	89	41	0	121634816	56	6173
2026-01-23 23:52:03.19	143.06	8.93	-41.6	-42.8	20.7	0.00e+00	92	41	0	128974848	56	6296
2026-01-23 23:52:07.23	142.98	9.27	-41.8	-43.1	20.5	0.00e+00	0	41	0	137363456	56	6524
2026-01-23 23:52:11.26	142.90	9.61	-41.6	-42.9	20.8	0.00e+00	0	41	0	144703488	56	6341
2026-01-23 23:52:15.30	142.81	9.95	-41.2	-42.4	21.1	0.00e+00	90	41	0	152043520	56	5994
2026-01-23 23:52:19.34	142.72	10.31	-41.0	-42.1	21.4	0.00e+00	92	41	0	159383552	56	5824
2026-01-23 23:52:23.37	142.63	10.66	-41.2	-42.3	21.1	0.00e+00	0	41	0	167772160	56	5940
2026-01-23 23:52:27.41	142.54	11.02	-41.1	-42.3	21.2	0.00e+00	0	41	0	175112192	56	5902
2026-01-23 23:52:31.45	142.45	11.39	-40.7	-41.8	21.6	7.00e-07	92	41	0	182452224	54	6282
2026-01-23 23:52:35.49	142.35	11.77	-41.0	-42.2	21.1	0.00e+00	92	41	0	189792256	54	6614
2026-01-23 23:52:39.52	142.25	12.14	-40.7	-41.8	21.6	0.00e+00	0	41	0	197132288	54	6279
2026-01-23 23:52:43.56	142.14	12.53	-40.7	-41.8	21.6	0.00e+00	88	41	0	205520896	54	6249
2026-01-23 23:52:47.60	142.04	12.92	-40.2	-41.2	22.3	0.00e+00	92	41	0	212860928	54	5844
2026-01-23 23:52:51.64	141.92	13.32	-39.8	-40.7	22.8	0.00e+00	90	41	0	220200960	54	5562
2026-01-23 23:52:55.68	141.81	13.72	-40.0	-41.0	22.2	0.00e+00	0	41	0	227540992	52	6402
2026-01-23 23:52:59.71	141.69	14.13	-40.2	-41.2	22.6	0.00e+00	92	41	0	235929600	52	6592
2026-01-23 23:53:03.75	141.57	14.54	-39.8	-40.8	22.9	0.00e+00	92	41	0	243269632	52	6283
2026-01-23 23:53:07.79	141.45	14.97	-39.4	-40.3	23.3	0.00e+00	64	41	0	250609664	52	5952
2026-01-23 23:53:11.83	141.32	15.40	-39.5	-40.4	23.4	0.00e+00	0	41	0	257949696	52	5989
2026-01-23 23:53:15.87	141.19	15.84	-39.3	-40.3	23.4	0.00e+00	92	41	0	265289728	52	5907
2026-01-23 23:53:19.90	141.05	16.28	-39.2	-40.1	23.6	0.00e+00	87	41	0	273678336	52	5769
2026-01-23 23:53:23.94	140.91	16.74	-39.1	-40.0	23.7	0.00e+00	0	41	0	281018368	52	5739
2026-01-23 23:53:27.98	140.76	17.20	-39.1	-40.0	23.7	0.00e+00	0	41	0	288358400	52	5732
2026-01-23 23:53:32.02	140.61	17.67	-38.9	-39.7	23.8	0.00e+00	65	41	0	295698432	52	5562
2026-01-23 23:53:36.06	140.45	18.16	-38.9	-39.8	23.9	0.00e+00	92	41	0	304087040	52	5577
2026-01-23 23:53:40.10	140.29	18.65	-39.3	-40.2	23.6	0.00e+00	0	41	0	311427072	52	5835
2026-01-23 23:53:44.13	140.12	19.14	-39.1	-40.0	23.8	0.00e+00	90	41	0	318767104	52	5711
2026-01-23 23:53:48.17	139.95	19.65	-39.2	-40.1	23.7	0.00e+00	92	41	0	326107136	52	5817
2026-01-23 23:53:52.21	139.77	20.17	-39.2	-40.1	23.6	0.00e+00	70	41	0	333447168	52	5776
2026-01-23 23:53:56.25	139.58	20.71	-39.3	-40.2	23.6	0.00e+00	0	41	0	341835776	52	5895
2026-01-23 23:54:00.29	139.38	21.25	-39.4	-40.3	23.4	0.00e+00	91	41	0	349175808	52	5945
2026-01-23 23:54:04.32	139.18	21.80	-39.7	-40.6	23.2	0.00e+00	90	41	0	356515840	52	6164
2026-01-23 23:54:08.36	138.97	22.37	-39.9	-40.9	23.2	0.00e+00	0	41	0	363855872	52	6325
2026-01-23 23:54:12.40	138.76	22.94	-39.5	-40.4	23.6	0.00e+00	0	41	0	371195904	52	5972
2026-01-23 23:54:16.43	138.53	23.53	-39.0	-39.8	24.1	0.00e+00	85	41	0	379584512	52	5598
2026-01-23 23:54:20.47	138.29	24.14	-39.5	-40.4	23.5	0.00e+00	92	41	0	386924544	52	6001
2026-01-23 23:54:24.51	138.05	24.76	-40.2	-41.2	22.9	0.00e+00	0	41	0	394264576	52	6609
2026-01-23 23:54:28.55	137.79	25.39	-40.8	-41.8	22.4	0.00e+00	87	41	0	401604608	54	6300
2026-01-23 23:54:32.58	137.52	26.03	-40.8	-41.9	22.4	0.00e+00	83	41	0	409993216	54	6335
2026-01-23 23:54:36.62	137.24	26.69	-40.3	-41.3	22.9	0.00e+00	76	41	0	417333248	54	5930
2026-01-23 23:54:40.66	136.95	27.37	-40.8	-41.7	22.6	0.00e+00	0	41	0	424673280	54	6236
2026-01-23 23:54:44.69	136.65	28.06	-40.9	-41.9	22.3	0.00e+00	92	41	0	432013312	54	6341
2026-01-23 23:54:48.73	136.33	28.77	-41.6	-42.7	22.0	0.00e+00	92	41	0	439353344	54	6939
2026-01-23 23:54:52.77	135.99	29.50	-41.6	-42.7	21.9	0.00e+00	1	41	0	447741952	54	6941
2026-01-23 23:54:56.81	135.64	30.25	-41.9	-43.0	21.5	0.00e+00	0	41	0	455081984	56	6436
2026-01-23 23:55:00.85	135.28	31.01	-41.8	-42.9	22.0	0.00e+00	92	41	0	462422016	56	6346
2026-01-23 23:55:04.89	134.89	31.79	-43.1	-44.5	20.3	0.00e+00	92	41	0	469762048	58	6801
2026-01-23 23:55:08.93	134.48	32.60	-44.0	-45.4	19.5	0.00e+00	0	41	0	478150656	60	6769
2026-01-23 23:55:12.97	134.05	33.42	-44.6	-46.3	18.8	0.00e+00	57	41	0	485490688	60	7461
2026-01-23 23:55:17.00	133.60	34.26	-45.7	-47.7	16.9	0.00e+00	91	41	0	492830720	60	8798
2026-01-23 23:55:21.04	133.13	35.13	-45.7	-47.9	17.2	0.00e+00	91	41	0	500170752	60	8983
2026-01-23 23:55:25.07	132.63	36.01	-47.1	-50.2	14.7	0.00e+00	0	41	0	507510784	60	11718
2026-01-23 23:55:29.11	132.09	36.92	-44.7	-46.5	18.7	0.00e+00	92	41	0	515899392	60	7635
2026-01-23 23:55:33.15	131.53	37.85	-42.9	-44.2	20.4	0.00e+00	91	41	0	523239424	58	6592
2026-01-23 23:55:37.19	130.93	38.81	-43.1	-44.4	20.6	0.00e+00	0	41	0	530579456	58	6742
2026-01-23 23:55:41.23	130.30	39.78	-42.9	-44.2	21.1	0.00e+00	0	41	0	537919488	58	6613
2026-01-23 23:55:45.27	129.62	40.79	-43.3	-44.7	20.1	0.00e+00	92	41	0	546308096	58	6998
2026-01-23 23:55:49.31	128.90	41.81	-42.7	-43.9	21.0	0.00e+00	91	41	0	553648128	58	6368
2026-01-23 23:55:53.35	128.13	42.86	-41.1	-42.1	22.5	0.00e+00	0	41	0	560988160	56	5802
2026-01-23 23:55:57.38	127.31	43.93	-41.2	-42.2	22.4	0.00e+00	0	41	0	568328192	54	6602
2026-01-23 23:56:01.42	126.43	45.02	-40.7	-41.7	22.8	0.00e+00	85	41	0	575668224	54	6179
2026-01-23 23:56:05.46	125.49	46.14	-41.0	-41.9	22.6	0.00e+00	90	41	0	584056832	54	6376
2026-01-23 23:56:09.50	124.47	47.28	-40.5	-41.4	23.1	0.00e+00	0	41	0	591396864	54	6019
2026-01-23 23:56:13.53	123.38	48.44	-41.2	-42.3	22.3	0.00e+00	88	41	0	598736896	54	6647
2026-01-23 23:56:17.57	122.20	49.62	-40.2	-41.1	23.2	0.00e+00	92	41	0	606076928	54	5789
2026-01-23 23:56:21.60	120.92	50.81	-38.8	-39.7	24.2	0.00e+00	0	41	0	613416960	50	6190
2026-01-23 23:56:25.64	119.54	52.02	-39.1	-40.0	24.2	0.00e+00	0	42	0	621805568	52	5709
2026-01-23 23:56:29.68	118.03	53.24	-41.3	-42.4	22.1	0.00e+00	92	41	0	629145600	54	6738
2026-01-23 23:56:33.71	116.40	54.47	-41.7	-42.8	22.0	0.00e+00	92	41	0	636485632	56	6298
2026-01-23 23:56:37.75	114.62	55.70	-41.1	-42.1	22.6	0.00e+00	0	41	0	643825664	56	5801
2026-01-23 23:56:41.79	112.67	56.93	-40.7	-41.6	22.9	0.00e+00	0	41	0	652214272	56	5485
2026-01-23 23:56:45.83	110.53	58.15	-41.3	-42.3	22.3	0.00e+00	83	41	0	659554304	54	6689
2026-01-23 23:56:49.87	108.20	59.36	-41.0	-42.0	22.7	0.00e+00	92	41	0	666894336	56	5704
2026-01-23 23:56:53.90	105.64	60.54	-39.9	-40.8	23.6	0.00e+00	0	41	0	674234368	54	5606
2026-01-23 23:56:57.94	102.83	61.68	-38.7	-39.5	24.5	0.00e+00	92	41	0	681574400	50	6058
2026-01-23 23:57:01.98	99.76	62.78	-40.1	-41.0	23.2	0.00e+00	92	41	0	689963008	52	6427
2026-01-23 23:57:06.02	96.39	63.82	-39.5	-40.4	23.8	0.00e+00	0	41	0	697303040	52	6009
2026-01-23 23:57:10.05	92.74	64.78	-38.7	-39.5	24.6	0.00e+00	0	41	0	704643072	50	6054
2026-01-23 23:57:14.09	88.76	65.66	-40.8	-41.8	22.6	0.00e+00	92	41	0	711983104	54	6309
2026-01-23 23:57:18.13	84.47	66.42	-41.8	-42.9	21.9	0.00e+00	92	41	0	720371712	56	6388
2026-01-23 23:57:22.17	79.90	67.07	-43.3	-44.9	20.4	0.00e+00	0	41	0	727711744	58	7106
2026-01-23 23:57:26.20	75.07	67.57	-41.6	-42.7	22.1	0.00e+00	0	41	0	735051776	54	6975
2026-01-23 23:57:30.24	70.03	67.93	-41.3	-42.4	22.6	0.00e+00	91	42	0	742391808	54	6700
2026-01-23 23:57:34.28	64.85	68.12	-41.3	-42.4	22.2	0.00e+00	92	41	0	749731840	56	5992
2026-01-23 23:57:38.32	59.61	68.15	-41.3	-42.3	22.3	0.00e+00	0	41	0	758120448	54	6624
2026-01-23 23:57:42.36	54.41	68.00	-41.7	-42.9	21.8	0.00e+00	6	42	0	765460480	56	6325
2026-01-23 23:57:46.39	49.33	67.70	-44.9	-46.7	18.6	0.00e+00	92	41	0	772800512	60	7832
2026-01-23 23:57:50.43	44.43	67.23	-43.1	-44.4	20.8	0.00e+00	0	41	0	780140544	60	6013
2026-01-23 23:57:54.47	39.77	66.63	-40.9	-41.9	22.7	0.00e+00	0	42	0	788529152	54	6331
2026-01-23 23:57:58.51	35.40	65.90	-40.0	-40.9	23.5	0.00e+00	88	42	0	795869184	54	5680
2026-01-23 23:58:02.55	31.34	65.05	-39.5	-40.4	23.9	0.00e+00	89	42	0	803209216	52	5989
2026-01-23 23:58:06.58	27.59	64.12	-39.9	-40.8	23.5	0.00e+00	0	42	0	810549248	52	6286
2026-01-23 23:58:10.62	24.14	63.10	-41.7	-42.8	22.0	0.00e+00	0	42	0	817889280	54	7070
2026-01-23 23:58:14.66	20.99	62.02	-42.8	-44.1	20.9	0.00e+00	44	42	0	826277888	58	6507
2026-01-23 23:58:18.70	18.11	60.89	-43.0	-44.5	20.4	0.00e+00	91	42	0	833617920	58	6800
2026-01-23 23:58:22.73	15.48	59.73	-41.7	-42.8	22.0	0.00e+00	0	42	0	840957952	56	6259
2026-01-23 23:58:26.77	13.09	58.53	-40.4	-41.3	23.6	0.00e+00	0	42	0	848297984	54	5915
2026-01-23 23:58:30.81	10.90	57.32	-40.1	-41.1	23.4	0.00e+00	92	42	0	856686592	52	6469
2026-01-23 23:58:34.85	8.90	56.09	-40.9	-41.9	22.7	0.00e+00	89	41	0	864026624	54	6353
2026-01-23 23:58:38.89	7.07	54.86	-39.5	-40.3	24.0	0.00e+00	0	42	0	871366656	52	5951
2026-01-23 23:58:42.92	5.39	53.64	-39.9	-40.8	23.4	0.00e+00	0	42	0	878706688	52	6287
2026-01-23 23:58:46.96	3.85	52.42	-42.5	-43.8	21.3	0.00e+00	92	42	0	886046720	58	6292
2026-01-23 23:58:51.00	2.44	51.21	-40.5	-41.5	23.1	0.00e+00	0	41	0	894435328	52	6789
2026-01-23 23:58:55.04	1.13	50.01	-43.4	-44.9	20.0	0.00e+00	0	42	0	901775360	58	7143
2026-01-23 23:58:59.08	359.92	48.83	-44.5	-46.2	19.2	0.00e+00	92	42	0	909115392	60	7361
2026-01-23 23:59:03.11	358.81	47.67	-40.0	-40.9	23.5	0.00e+00	92	42	0	916455424	54	5666
2026-01-23 23:59:07.15	357.77	46.53	-39.6	-40.5	22.4	0.00e+00	29	41	0	924844032	50	6807
2026-01-23 23:59:11.18	356.81	45.41	-40.5	-41.4	23.0	0.00e+00	0	42	0	932184064	52	6756
2026-01-23 23:59:15.22	355.91	44.31	-42.7	-44.0	20.9	0.00e+00	92	42	0	939524096	58	6431
2026-01-23 23:59:19.26	355.08	43.24	-43.0	-44.2	20.8	0.00e+00	90	42	0	946864128	58	6615
2026-01-23 23:59:23.29	354.30	42.19	-42.6	-43.8	20.8	0.00e+00	0	42	0	954204160	58	6265
2026-01-23 23:59:27.33	353.56	41.16	-45.4	-47.4	18.1	0.00e+00	65	42	0	962592768	60	8448
2026-01-23 23:59:31.37	352.88	40.15	-42.5	-43.7	21.3	0.00e+00	79	42	0	969932800	58	6180
2026-01-23 23:59:35.41	352.23	39.17	-43.7	-45.1	20.0	0.00e+00	0	42	0	977272832	58	7281
2026-01-23 23:59:39.45	351.62	38.21	-43.0	-44.3	20.7	0.00e+00	0	42	0	984612864	58	6657
2026-01-23 23:59:43.48	351.05	37.28	-42.6	-43.8	21.3	0.00e+00	76	42	0	993001472	58	6280
2026-01-23 23:59:47.52	350.51	36.37	-41.8	-42.9	21.8	0.00e+00	83	42	0	1000341504	56	6383
2026-01-23 23:59:51.55	350.00	35.48	-40.4	-41.4	23.0	0.00e+00	0	42	0	1007681536	54	5982
2026-01-23 23:59:55.59	349.52	34.61	-43.2	-44.5	20.3	0.00e+00	0	42	0	1015021568	58	6838
2026-01-23 23:59:59.63	349.07	33.76	-43.8	-45.3	19.8	0.00e+00	90	42	0	1022361600	60	6652
2026-01-24 00:00:03.67	348.63	32.94	-43.3	-44.7	20.3	0.00e+00	74	42	0	1030750208	60	6196
2026-01-24 00:00:07.70	348.22	32.13	-42.1	-43.2	21.5	0.00e+00	0	42	0	1038090240	58	5879
2026-01-24 00:00:11.74	347.83	31.35	-43.1	-44.5	20.5	0.00e+00	0	42	0	1045430272	58	6774
2026-01-24 00:00:15.77	347.46	30.58	-44.5	-46.2	18.8	0.00e+00	81	42	0	1052770304	60	7344
2026-01-24 00:00:19.81	347.11	29.83	-45.5	-47.5	17.7	0.00e+00	0	42	0	1061158912	60	8590
2026-01-24 00:00:23.85	346.77	29.10	-45.0	-46.8	18.3	0.00e+00	0	42	0	1068498944	60	7943
2026-01-24 00:00:27.89	346.45	28.39	-44.6	-46.3	18.8	0.00e+00	0	42	0	1075838976	60	7491
2026-01-24 00:00:31.93	346.14	27.69	-43.1	-44.4	20.7	0.00e+00	89	42	0	1083179008	58	6743
2026-01-24 00:00:35.97	345.84	27.01	-40.5	-41.4	23.0	0.00e+00	0	42	0	1090519040	54	5991
2026-01-24 00:00:40.01	345.56	26.35	-40.1	-41.1	23.1	0.00e+00	0	42	0	1098907648	54	5764
2026-01-24 00:00:44.04	345.29	25.70	-42.1	-43.3	21.3	0.00e+00	71	42	0	1106247680	56	6628
2026-01-24 00:00:48.08	345.04	25.07	-45.0	-46.9	18.1	0.00e+00	0	42	0	1113587712	60	7963
2026-01-24 00:00:52.12	344.79	24.45	-45.6	-47.7	17.5	0.00e+00	0	42	0	1120927744	60	8741
2026-01-24 00:00:56.16	344.55	23.84	-43.4	-44.8	20.1	0.00e+00	0	42	0	1129316352	60	6282
2026-01-24 00:01:00.19	344.32	23.25	-42.8	-44.1	20.6	0.00e+00	75	42	0	1136656384	58	6500
2026-01-24 00:01:04.23	344.11	22.67	-41.9	-43.0	21.6	0.00e+00	0	42	0	1143996416	58	5748
2026-01-24 00:01:08.27	343.90	22.10	-41.1	-42.2	22.3	0.00e+00	0	42	0	1151336448	56	5840
2026-01-24 00:01:12.30	343.69	21.55	-40.3	-41.2	22.9	0.00e+00	17	42	0	1158676480	54	5889
2026-01-24 00:01:16.34	343.50	21.00	-40.3	-41.3	22.9	0.00e+00	9	42	0	1167065088	54	5906
2026-01-24 00:01:20.38	343.31	20.47	-40.8	-41.8	22.4	0.00e+00	0	42	0	1174405120	54	6279
2026-01-24 00:01:24.42	343.13	19.95	-41.8	-42.9	21.5	0.00e+00	0	42	0	1181745152	56	6342
2026-01-24 00:01:28.45	342.96	19.43	-42.1	-43.2	21.4	0.00e+00	0	42	0	1189085184	56	6608
2026-01-24 00:01:32.49	342.79	18.93	-42.0	-43.2	21.4	0.00e+00	0	42	0	1196425216	56	6572
2026-01-24 00:01:36.53	342.63	18.44	-42.7	-43.9	20.7	0.00e+00	0	42	0	1204813824	58	6376
2026-01-24 00:01:40.56	342.47	17.96	-42.5	-43.7	20.8	0.00e+00	0	42	0	1212153856	58	6241
2026-01-24 00:01:44.60	342.32	17.49	-42.0	-43.2	21.0	0.00e+00	77	42	0	1219493888	58	5829
2026-01-24 00:01:48.64	342.17	17.02	-41.8	-42.9	21.5	0.00e+00	0	42	0	1226833920	56	6355
2026-01-24 00:01:52.68	342.03	16.56	-41.7	-42.8	21.5	0.00e+00	0	42	0	1235222528	56	6296
2026-01-24 00:01:56.72	341.90	16.12	-42.2	-43.4	20.7	0.00e+00	0	42	0	1242562560	56	6750
2026-01-24 00:02:00.76	341.77	15.68	-42.8	-44.2	20.3	0.00e+00	69	42	0	1249902592	58	6576
2026-01-24 00:02:04.79	341.64	15.24	-43.0	-44.5	20.0	0.00e+00	0	42	0	1257242624	58	6784
2026-01-24 00:02:08.83	341.51	14.82	-43.1	-44.7	19.8	0.00e+00	0	42	0	1264582656	58	6968
2026-01-24 00:02:12.87	341.39	14.40	-42.8	-44.3	20.2	0.00e+00	0	42	0	1272971264	58	6664
2026-01-24 00:02:16.90	341.28	13.99	-42.1	-43.5	20.8	0.00e+00	0	42	0	1280311296	58	6081
2026-01-24 00:02:20.94	341.17	13.59	-42.0	-43.3	21.0	0.00e+00	0	42	0	1287651328	58	5945
2026-01-24 00:02:24.98	341.06	13.19	-41.7	-43.0	21.2	0.00e+00	0	42	0	1294991360	56	6419
2026-01-24 00:02:29.01	340.95	12.80	-41.8	-43.0	21.1	0.00e+00	36	42	0	1303379968	56	6452
2026-01-24 00:02:33.05	340.85	12.41	-42.2	-43.5	20.8	0.00e+00	0	42	0	1310720000	56	6832
2026-01-24 00:02:37.09	340.75	12.03	-42.4	-43.8	20.6	0.00e+00	0	42	0	1318060032	56	7067
2026-01-24 00:02:41.13	340.65	11.66	-42.7	-44.2	20.2	0.00e+00	32	42	0	1325400064	58	6555
2026-01-24 00:02:45.16	340.56	11.29	-42.8	-44.4	19.9	0.00e+00	92	42	0	1332740096	58	6711
2026-01-24 00:02:49.20	340.47	10.93	-43.1	-44.7	19.7	0.00e+00	0	42	0	1341128704	58	6982
2026-01-24 00:02:53.23	340.38	10.57	-43.3	-45.0	19.4	0.00e+00	0	42	0	1348468736	58	7179
2026-01-24 00:02:57.27	340.30	10.22	-43.4	-45.1	19.0	0.00e+00	41	42	0	1355808768	58	7336
2026-01-24 00:03:01.31	340.21	9.87	-43.5	-45.2	18.9	0.00e+00	0	42	0	1363148800	58	7420
2026-01-24 00:03:05.35	340.13	9.53	-43.7	-45.6	18.9	0.00e+00	0	42	0	1370488832	60	6857
2026-01-24 00:03:09.39	340.05	9.19	-43.6	-45.4	18.9	0.00e+00	0	42	0	1378877440	60	6705
2026-01-24 00:03:13.43	339.98	8.86	-43.3	-45.0	19.3	0.00e+00	0	42	0	1386217472	60	6424
2026-01-24 00:03:17.46	339.90	8.53	-43.7	-45.5	18.7	0.00e+00	0	42	0	1393557504	60	6821
2026-01-24 00:03:21.50	339.83	8.20	-43.3	-44.9	19.3	0.00e+00	0	42	0	1400897536	60	6381
2026-01-24 00:03:25.53	339.76	7.88	-43.5	-45.1	19.2	0.00e+00	0	42	0	1409286144	60	6511
2026-01-24 00:03:29.57	339.69	7.56	-43.3	-44.9	19.3	0.00e+00	87	42	0	1416626176	60	6347
2026-01-24 00:03:33.61	339.62	7.25	-43.2	-44.7	19.4	0.00e+00	0	42	0	1423966208	60	6206
2026-01-24 00:03:37.65	339.56	6.94	-43.6	-45.3	18.9	0.00e+00	0	42	0	1431306240	60	6620
2026-01-24 00:03:41.68	339.50	6.63	-43.0	-44.5	19.6	0.00e+00	0	42	0	1438646272	60	6051
2026-01-24 00:03:45.72	339.44	6.33	-43.1	-44.7	19.5	0.00e+00	87	42	0	1447034880	60	6178
2026-01-24 00:03:49.76	339.38	6.03	-42.6	-44.0	19.7	0.00e+00	0	42	0	1454374912	58	6428
2026-01-24 00:03:53.79	339.32	5.74	-43.1	-44.6	18.9	0.00e+00	0	42	0	1461714944	58	6919
2026-01-24 00:03:57.83	339.26	5.45	-43.7	-45.5	17.9	0.00e+00	81	42	0	1469054976	58	7648
2026-01-24 00:04:01.86	339.20	5.16	-44.4	-46.7	16.2	0.00e+00	0	42	0	1477443584	60	7854
2026-01-24 00:04:05.90	339.15	4.87	-45.2	-48.7	13.4	9.10e-06	0	42	0	1484783616	60	9843
2026-01-24 00:04:09.94	339.10	4.59	-46.1	-51.5	9.5	6.15e-03	0	42	0	1492123648	60	13585
2026-01-24 00:04:13.98	339.05	4.31	-46.2	-54.2	5.7	2.31e-01	76	42	0	1499463680	60	18526
2026-01-24 00:04:18.02	339.00	4.03	-46.2	-58.4	3.7	1.46e+00	0	42	104	1505755136	60	30235
2026-01-24 00:04:22.05	338.95	3.75	-46.1	-60.4	3.6	1.51e+00	0	42	104	1505755136	60	37964
2026-01-24 00:04:26.09	338.90	3.48	-46.2	-61.4	3.6	1.51e+00	0	42	104	1505755136	60	42465
2026-01-24 00:04:30.13	338.85	3.21	-46.3	-61.4	3.6	1.51e+00	0	42	104	1505755136	60	42659
2026-01-24 00:04:34.17	338.81	2.95	-46.1	-61.3	3.6	1.51e+00	0	42	104	1505755136	60	41761
2026-01-24 00:04:38.21	338.77	2.68	-50.7	-65.9	3.6	1.51e+00	0	42	104	1505755136	60	71056
2026-01-24 00:04:42.25	338.72	2.42	-51.0	-66.2	3.6	1.51e+00	0	42	104	1505755136	60	73902
2026-01-24 00:04:46.29	338.68	2.16	-51.1	-66.4	3.6	1.51e+00	0	42	104	1505755136	60	75228
2026-01-24 00:04:50.33	338.64	1.90	-51.0	-66.2	3.6	1.51e+00	0	42	104	1505755136	60	73881
2026-01-24 00:04:54.37	338.60	1.65	-51.0	-66.2	3.6	1.51e+00	0	42	104	1505755136	60	73712
2026-01-24 00:04:58.41	338.56	1.40	-51.1	-66.3	3.6	1.51e+00	0	42	104	1505755136	60	74318
2026-01-24 00:05:02.45	338.52	1.15	-51.1	-66.3	3.6	1.51e+00	0	42	104	1505755136	60	74854
2026-01-24 00:05:06.49	338.49	0.90	-51.1	-66.3	3.6	1.51e+00	0	42	104	1505755136	60	74759
2026-01-24 00:05:10.53	338.45	0.65	-51.1	-66.2	3.6	1.51e+00	0	42	104	1505755136	60	74148
2026-01-24 00:05:14.57	338.42	0.41	-51.1	-66.3	3.6	1.51e+00	0	42	104	1505755136	60	75056
2026-01-24 00:05:18.61	338.38	0.16	-51.1	-66.3	3.6	1.51e+00	0	41	104	1505755136	60	74787

#Closed at: 2026-01-24 00:05:21
#Recorded file [1505 MB]: D:/lorett/data/35029_260124_114957.dat