passes_logs/2026/01/23/R4.6S_Anadyr/R4.6S_Anadyr__20260123_114425_NOAA_21_JPSS-2_rec.log

#Pass ID: 20260123_114425_NOAA 21 (JPSS-2)
#Satellite: NOAA 21 (JPSS-2)
#Configuration: NOAA-21
#almurnet v.1.7.20251203
#Start time: 2026-01-23 11:44:28

#Version: 2.2.20231116
#Station: R4.6S_Anadyr
#Location: 177.4865 lon 64.73178 lat
#TLE: 1 54234U 22150A   26022.41365820  .00000211  00000+0  12084-3 0  9990
#TLE: 2 54234  98.7507 323.2240 0000658 234.5287 125.5828 14.19537645165864

#Time	Az	El	Level	Level2	SNR	BER	BlckErr	Temp	State	Recorded	gain1	gain2
2026-01-23 11:44:28.43	20.35	0.14	-51.0	-52.6	5.7	0.00e+00	0	38	0	0	60	52130
2026-01-23 11:44:31.45	20.63	0.27	-50.4	-63.2	3.5	1.52e+00	0	40	104	0	60	50982
2026-01-23 11:44:34.48	20.91	0.39	-50.4	-63.2	3.5	1.51e+00	0	40	104	0	60	50793
2026-01-23 11:44:37.51	21.19	0.52	-50.3	-63.1	3.5	1.52e+00	0	40	104	0	60	50388
2026-01-23 11:44:40.54	21.48	0.65	-50.2	-63.0	3.5	1.52e+00	0	40	104	0	60	49802
2026-01-23 11:44:43.57	21.76	0.77	-49.9	-62.9	3.6	1.52e+00	0	40	104	0	60	48799
2026-01-23 11:44:46.60	22.05	0.90	-49.7	-62.6	3.5	1.52e+00	0	40	104	0	60	47102
2026-01-23 11:44:49.63	22.35	1.03	-48.9	-61.7	3.5	1.52e+00	0	40	104	0	60	42653
2026-01-23 11:44:52.66	22.64	1.15	-48.9	-61.7	3.5	1.52e+00	0	40	104	0	60	42451
2026-01-23 11:44:55.69	22.94	1.28	-48.9	-61.7	3.5	1.52e+00	0	40	104	0	60	42726
2026-01-23 11:44:58.71	23.23	1.41	-48.9	-61.6	3.5	1.52e+00	0	40	104	0	60	42392
2026-01-23 11:45:01.75	23.54	1.53	-48.9	-61.7	3.5	1.52e+00	0	40	104	0	60	42637
2026-01-23 11:45:04.78	23.84	1.66	-48.9	-61.6	3.5	1.52e+00	0	41	104	0	60	42414
2026-01-23 11:45:07.81	24.14	1.79	-48.9	-61.7	3.5	1.52e+00	0	40	104	0	60	42513
2026-01-23 11:45:10.84	24.45	1.91	-48.9	-61.8	3.5	1.52e+00	0	41	104	0	60	42937
2026-01-23 11:45:13.87	24.76	2.04	-48.9	-61.7	3.5	1.52e+00	0	40	104	0	60	42615
2026-01-23 11:45:16.90	25.08	2.16	-48.9	-61.5	3.5	1.51e+00	0	41	104	0	60	41631
2026-01-23 11:45:19.93	25.39	2.29	-48.9	-61.6	3.5	1.52e+00	0	41	104	0	60	42207
2026-01-23 11:45:22.96	25.71	2.42	-48.9	-61.6	3.5	1.51e+00	0	41	104	0	60	42305
2026-01-23 11:45:25.99	26.03	2.54	-48.8	-60.5	3.5	1.51e+00	0	40	104	0	60	37187
2026-01-23 11:45:29.02	26.36	2.67	-47.1	-51.4	9.0	3.83e-02	0	41	0	2097152	60	13068
2026-01-23 11:45:32.04	26.68	2.79	-40.6	-42.0	19.1	0.00e+00	0	41	0	11534336	56	5534
2026-01-23 11:45:35.07	27.01	2.92	-41.6	-43.1	17.8	0.00e+00	0	41	0	20971520	54	7081
2026-01-23 11:45:38.10	27.34	3.04	-47.3	-52.0	8.5	4.44e-02	0	41	0	30408704	60	13926
2026-01-23 11:45:41.13	27.68	3.17	-48.9	-60.4	4.0	1.50e+00	0	41	104	32505856	60	36911
2026-01-23 11:45:44.16	28.02	3.29	-43.0	-45.2	16.1	2.37e-01	0	41	104	34603008	60	6398
2026-01-23 11:45:47.19	28.36	3.42	-41.2	-42.7	18.5	0.00e+00	0	41	0	42991616	56	6010
2026-01-23 11:45:50.22	28.70	3.54	-40.6	-42.0	19.0	0.00e+00	0	41	0	52428800	56	5537
2026-01-23 11:45:53.25	29.04	3.67	-40.7	-42.0	19.1	0.00e+00	0	41	0	61865984	54	6276
2026-01-23 11:45:56.28	29.39	3.79	-39.7	-40.9	20.1	0.00e+00	0	41	0	71303168	52	6175
2026-01-23 11:45:59.31	29.74	3.91	-39.8	-41.0	20.0	0.00e+00	0	41	0	80740352	52	6245
2026-01-23 11:46:02.34	30.10	4.04	-40.1	-41.4	19.7	0.00e+00	0	41	0	90177536	52	6530
2026-01-23 11:46:05.36	30.45	4.16	-39.4	-40.6	20.4	0.00e+00	0	41	0	99614720	52	5936
2026-01-23 11:46:08.38	30.81	4.28	-39.6	-40.8	20.2	0.00e+00	0	41	0	109051904	52	6090
2026-01-23 11:46:11.41	31.17	4.40	-39.9	-41.2	19.9	0.00e+00	0	41	0	118489088	52	6368
2026-01-23 11:46:14.44	31.54	4.53	-39.9	-41.2	19.9	0.00e+00	0	41	0	127926272	52	6364
2026-01-23 11:46:17.47	31.91	4.65	-39.7	-40.9	20.2	0.00e+00	0	41	0	137363456	52	6197
2026-01-23 11:46:20.50	32.28	4.77	-39.4	-40.6	20.5	0.00e+00	0	41	0	146800640	52	5929
2026-01-23 11:46:23.53	32.65	4.89	-39.7	-40.9	20.2	0.00e+00	0	41	0	156237824	52	6179
2026-01-23 11:46:26.56	33.03	5.01	-39.3	-40.5	20.6	0.00e+00	0	41	0	165675008	52	5875
2026-01-23 11:46:29.60	33.41	5.13	-39.7	-40.9	20.3	0.00e+00	0	41	0	175112192	52	6136
2026-01-23 11:46:32.62	33.80	5.25	-39.2	-40.3	20.9	0.00e+00	0	41	0	184549376	52	5753
2026-01-23 11:46:35.65	34.18	5.37	-39.6	-40.8	20.5	0.00e+00	0	41	0	193986560	52	6089
2026-01-23 11:46:38.68	34.57	5.49	-39.3	-40.4	20.8	0.00e+00	0	41	0	203423744	52	5844
2026-01-23 11:46:41.70	34.96	5.60	-39.4	-40.5	20.6	0.00e+00	0	41	0	212860928	52	5924
2026-01-23 11:46:44.73	35.36	5.72	-39.1	-40.2	20.8	0.00e+00	0	41	0	222298112	52	5714
2026-01-23 11:46:47.76	35.76	5.84	-39.0	-40.1	21.1	0.00e+00	0	41	0	231735296	52	5651
2026-01-23 11:46:50.79	36.16	5.95	-39.3	-40.5	20.8	0.00e+00	0	41	0	241172480	52	5865
2026-01-23 11:46:53.82	36.56	6.07	-39.3	-40.4	20.9	0.00e+00	0	41	0	250609664	52	5844
2026-01-23 11:46:56.85	36.97	6.18	-39.1	-40.3	21.0	0.00e+00	0	41	0	260046848	52	5729
2026-01-23 11:46:59.87	37.38	6.30	-39.2	-40.4	21.1	0.00e+00	0	41	0	269484032	52	5799
2026-01-23 11:47:02.90	37.79	6.41	-38.9	-40.0	21.3	0.00e+00	0	41	0	278921216	52	5541
2026-01-23 11:47:05.93	38.21	6.52	-38.9	-40.0	21.2	0.00e+00	0	41	0	288358400	50	6269
2026-01-23 11:47:08.96	38.63	6.63	-38.7	-39.8	21.5	0.00e+00	0	41	0	297795584	50	6084
2026-01-23 11:47:11.99	39.05	6.74	-38.7	-39.8	21.5	0.00e+00	0	41	0	308281344	50	6113
2026-01-23 11:47:15.02	39.48	6.85	-38.8	-39.9	21.4	0.00e+00	0	41	0	316669952	50	6161
2026-01-23 11:47:18.05	39.91	6.96	-38.8	-39.9	21.4	0.00e+00	0	41	0	327155712	50	6178
2026-01-23 11:47:21.08	40.34	7.07	-38.6	-39.6	21.8	0.00e+00	0	41	0	335544320	50	5972
2026-01-23 11:47:24.11	40.78	7.18	-38.5	-39.5	21.8	0.00e+00	0	41	0	346030080	50	5909
2026-01-23 11:47:27.14	41.22	7.28	-38.5	-39.5	21.8	0.00e+00	0	41	0	355467264	50	5901
2026-01-23 11:47:30.16	41.66	7.39	-38.5	-39.6	21.8	0.00e+00	0	41	0	364904448	50	5952
2026-01-23 11:47:33.19	42.10	7.49	-38.7	-39.7	21.7	0.00e+00	0	41	0	374341632	50	6046
2026-01-23 11:47:36.22	42.55	7.60	-38.6	-39.7	21.7	0.00e+00	0	41	0	383778816	50	6042
2026-01-23 11:47:39.25	43.00	7.70	-38.7	-39.8	21.7	0.00e+00	0	41	0	393216000	50	6070
2026-01-23 11:47:42.28	43.45	7.80	-38.9	-40.0	21.6	0.00e+00	0	41	0	402653184	50	6218
2026-01-23 11:47:45.31	43.91	7.90	-38.5	-39.6	21.9	0.00e+00	0	41	0	412090368	50	5945
2026-01-23 11:47:48.34	44.37	8.00	-38.4	-39.4	22.0	0.00e+00	0	41	0	421527552	50	5842
2026-01-23 11:47:51.37	44.83	8.10	-38.6	-39.6	21.8	0.00e+00	0	41	0	430964736	50	5991
2026-01-23 11:47:54.39	45.30	8.19	-38.6	-39.7	21.7	0.00e+00	0	41	0	440401920	50	6034
2026-01-23 11:47:57.42	45.77	8.29	-38.4	-39.5	22.0	0.00e+00	0	41	0	449839104	50	5865
2026-01-23 11:48:00.45	46.24	8.38	-38.7	-39.8	21.8	0.00e+00	0	41	0	459276288	50	6077
2026-01-23 11:48:03.48	46.71	8.47	-38.5	-39.5	21.9	0.00e+00	0	41	0	468713472	50	5893
2026-01-23 11:48:06.51	47.19	8.56	-38.8	-39.9	21.6	0.00e+00	0	41	0	478150656	50	6140
2026-01-23 11:48:09.54	47.67	8.65	-38.8	-39.9	21.6	0.00e+00	0	41	0	487587840	50	6147
2026-01-23 11:48:12.57	48.16	8.74	-38.5	-39.5	22.0	0.00e+00	0	41	0	497025024	50	5880
2026-01-23 11:48:15.60	48.64	8.83	-38.4	-39.5	22.0	0.00e+00	0	41	0	506462208	50	5869
2026-01-23 11:48:18.64	49.13	8.92	-38.1	-39.1	22.3	0.00e+00	0	41	0	515899392	50	5657
2026-01-23 11:48:21.67	49.63	9.00	-38.3	-39.4	22.1	0.00e+00	0	41	0	525336576	50	5795
2026-01-23 11:48:24.70	50.12	9.08	-38.3	-39.3	22.1	0.00e+00	0	41	0	534773760	50	5789
2026-01-23 11:48:27.73	50.62	9.16	-38.1	-39.1	22.3	0.00e+00	0	41	0	544210944	50	5618
2026-01-23 11:48:30.76	51.12	9.24	-38.2	-39.2	22.2	0.00e+00	0	41	0	553648128	50	5689
2026-01-23 11:48:33.79	51.62	9.32	-38.2	-39.2	22.2	0.00e+00	0	41	0	563085312	50	5700
2026-01-23 11:48:36.81	52.13	9.39	-38.3	-39.3	22.1	0.00e+00	0	41	0	572522496	50	5783
2026-01-23 11:48:39.84	52.63	9.47	-38.4	-39.4	22.0	0.00e+00	0	42	0	581959680	50	5844
2026-01-23 11:48:42.87	53.14	9.54	-38.1	-39.2	22.3	0.00e+00	0	42	0	591396864	50	5661
2026-01-23 11:48:45.90	53.66	9.61	-38.3	-39.4	22.1	0.00e+00	0	41	0	600834048	50	5815
2026-01-23 11:48:48.93	54.17	9.68	-38.5	-39.5	21.9	0.00e+00	0	41	0	610271232	50	5911
2026-01-23 11:48:51.97	54.69	9.75	-38.3	-39.3	22.2	0.00e+00	0	41	0	619708416	50	5761
2026-01-23 11:48:55.00	55.21	9.81	-37.9	-39.0	22.4	0.00e+00	0	42	0	629145600	50	5535
2026-01-23 11:48:58.03	55.73	9.88	-38.2	-39.2	22.2	0.00e+00	0	41	0	638582784	50	5688
2026-01-23 11:49:01.06	56.26	9.94	-38.3	-39.3	22.2	0.00e+00	0	42	0	649068544	50	5768
2026-01-23 11:49:04.09	56.78	10.00	-38.3	-39.4	22.2	0.00e+00	0	42	0	658505728	50	5806
2026-01-23 11:49:07.12	57.31	10.05	-38.4	-39.4	22.1	0.00e+00	0	42	0	667942912	50	5833
2026-01-23 11:49:10.15	57.84	10.11	-38.1	-39.2	22.1	0.00e+00	0	42	0	677380096	50	5661
2026-01-23 11:49:13.18	58.38	10.16	-38.1	-39.2	22.3	0.00e+00	0	42	0	686817280	50	5673
2026-01-23 11:49:16.21	58.91	10.21	-38.2	-39.2	22.3	0.00e+00	0	42	0	696254464	50	5716
2026-01-23 11:49:19.24	59.45	10.26	-37.8	-38.8	22.6	0.00e+00	0	41	0	705691648	50	5450
2026-01-23 11:49:22.26	59.98	10.31	-37.8	-38.8	22.6	0.00e+00	0	42	0	715128832	50	5417
2026-01-23 11:49:25.29	60.52	10.36	-38.2	-39.2	22.2	0.00e+00	0	41	0	724566016	50	5699
2026-01-23 11:49:28.32	61.06	10.40	-38.2	-39.2	22.3	0.00e+00	0	42	0	734003200	50	5709
2026-01-23 11:49:31.35	61.61	10.44	-37.9	-38.9	22.5	0.00e+00	0	42	0	743440384	50	5500
2026-01-23 11:49:34.38	62.15	10.48	-37.9	-38.9	22.5	0.00e+00	0	42	0	752877568	50	5491
2026-01-23 11:49:37.41	62.70	10.51	-38.2	-39.2	22.3	0.00e+00	0	42	0	762314752	50	5717
2026-01-23 11:49:40.43	63.24	10.55	-38.1	-39.1	22.4	0.00e+00	0	41	0	771751936	50	5647
2026-01-23 11:49:43.46	63.79	10.58	-37.7	-38.7	22.7	0.00e+00	0	42	0	781189120	48	6046
2026-01-23 11:49:46.49	64.34	10.61	-37.7	-38.7	22.6	0.00e+00	0	41	0	790626304	48	6053
2026-01-23 11:49:49.52	64.89	10.64	-38.0	-39.0	22.5	0.00e+00	0	41	0	800063488	48	6229
2026-01-23 11:49:52.55	65.44	10.66	-37.9	-38.9	22.4	0.00e+00	0	41	0	809500672	48	6196
2026-01-23 11:49:55.58	65.99	10.68	-37.9	-38.9	22.4	0.00e+00	0	42	0	818937856	48	6137
2026-01-23 11:49:58.61	66.55	10.70	-37.7	-38.7	22.6	0.00e+00	0	41	0	828375040	48	5995
2026-01-23 11:50:01.64	67.10	10.72	-38.0	-39.0	22.2	0.00e+00	0	41	0	837812224	48	6272
2026-01-23 11:50:04.67	67.65	10.74	-37.7	-38.7	22.6	0.00e+00	0	41	0	847249408	48	6049
2026-01-23 11:50:07.70	68.21	10.75	-37.7	-38.6	22.6	0.00e+00	0	41	0	856686592	48	5992
2026-01-23 11:50:10.74	68.77	10.76	-37.8	-38.9	22.4	0.00e+00	0	41	0	866123776	48	6136
2026-01-23 11:50:13.76	69.32	10.77	-37.8	-38.8	22.4	0.00e+00	0	41	0	875560960	48	6115
2026-01-23 11:50:16.79	69.88	10.78	-38.2	-39.2	22.1	0.00e+00	0	41	0	884998144	48	6419
2026-01-23 11:50:19.82	70.43	10.78	-38.1	-39.1	22.5	0.00e+00	0	41	0	894435328	48	6307
2026-01-23 11:50:22.85	70.99	10.78	-37.8	-38.8	22.5	0.00e+00	0	41	0	903872512	48	6095
2026-01-23 11:50:25.88	71.55	10.78	-37.7	-38.7	22.6	0.00e+00	0	41	0	913309696	48	6047
2026-01-23 11:50:28.91	72.10	10.78	-37.6	-38.6	22.7	0.00e+00	0	41	0	922746880	48	5988
2026-01-23 11:50:31.94	72.66	10.77	-37.6	-38.6	22.7	0.00e+00	0	41	0	932184064	48	5981
2026-01-23 11:50:34.97	73.21	10.76	-37.7	-38.8	22.6	0.00e+00	0	41	0	941621248	48	6066
2026-01-23 11:50:38.00	73.77	10.75	-37.7	-38.7	22.6	0.00e+00	0	41	0	951058432	48	6043
2026-01-23 11:50:41.04	74.33	10.74	-37.7	-38.8	22.6	0.00e+00	0	41	0	960495616	48	6069
2026-01-23 11:50:44.07	74.88	10.72	-37.6	-38.6	22.8	0.00e+00	0	41	0	969932800	48	5981
2026-01-23 11:50:47.09	75.43	10.70	-37.7	-38.7	22.7	0.00e+00	0	41	0	980418560	48	6003
2026-01-23 11:50:50.12	75.99	10.68	-37.8	-38.8	22.7	0.00e+00	0	41	0	989855744	48	6110
2026-01-23 11:50:53.15	76.54	10.66	-37.6	-38.6	22.8	0.00e+00	0	41	0	999292928	48	5983
2026-01-23 11:50:56.18	77.09	10.64	-37.8	-38.8	22.6	0.00e+00	0	41	0	1008730112	48	6115
2026-01-23 11:50:59.21	77.64	10.61	-37.6	-38.6	22.8	0.00e+00	0	41	0	1018167296	48	5946
2026-01-23 11:51:02.24	78.19	10.58	-37.7	-38.7	22.7	0.00e+00	0	41	0	1027604480	48	6018
2026-01-23 11:51:05.27	78.74	10.55	-37.6	-38.6	22.8	0.00e+00	0	41	0	1037041664	48	5978
2026-01-23 11:51:08.30	79.29	10.52	-37.9	-38.9	22.5	0.00e+00	0	41	0	1046478848	48	6183
2026-01-23 11:51:11.34	79.84	10.48	-37.8	-38.8	22.6	0.00e+00	0	41	0	1055916032	48	6133
2026-01-23 11:51:14.37	80.38	10.44	-37.9	-38.9	22.4	0.00e+00	0	41	0	1065353216	48	6186
2026-01-23 11:51:17.40	80.93	10.40	-38.4	-39.5	21.9	0.00e+00	0	41	0	1074790400	48	6578
2026-01-23 11:51:20.43	81.47	10.36	-38.2	-39.3	22.0	0.00e+00	0	41	0	1084227584	48	6427
2026-01-23 11:51:23.46	82.01	10.31	-38.0	-39.0	22.3	0.00e+00	0	41	0	1093664768	48	6261
2026-01-23 11:51:26.49	82.55	10.27	-37.8	-38.8	22.5	0.00e+00	0	41	0	1103101952	48	6106
2026-01-23 11:51:29.52	83.09	10.22	-38.0	-39.0	22.3	0.00e+00	0	41	0	1112539136	48	6259
2026-01-23 11:51:32.55	83.62	10.16	-38.0	-39.0	22.3	0.00e+00	0	41	0	1121976320	48	6254
2026-01-23 11:51:35.58	84.16	10.11	-37.8	-38.8	22.4	0.00e+00	0	41	0	1131413504	48	6126
2026-01-23 11:51:38.60	84.69	10.06	-37.8	-38.8	22.4	0.00e+00	0	41	0	1140850688	48	6076
2026-01-23 11:51:41.63	85.22	10.00	-37.9	-38.9	22.5	0.00e+00	0	41	0	1150287872	48	6160
2026-01-23 11:51:44.67	85.75	9.94	-37.8	-38.9	22.5	0.00e+00	0	41	0	1159725056	48	6135
2026-01-23 11:51:47.69	86.27	9.88	-37.9	-39.0	22.4	0.00e+00	0	41	0	1169162240	48	6211
2026-01-23 11:51:50.72	86.80	9.81	-37.9	-38.9	22.5	0.00e+00	0	41	0	1178599424	48	6155
2026-01-23 11:51:53.75	87.32	9.75	-37.7	-38.7	22.7	0.00e+00	0	41	0	1188036608	48	6012
2026-01-23 11:51:56.78	87.84	9.68	-37.7	-38.7	22.7	0.00e+00	0	41	0	1197473792	48	6029
2026-01-23 11:51:59.81	88.36	9.61	-38.0	-39.0	22.5	0.00e+00	0	41	0	1206910976	48	6215
2026-01-23 11:52:02.84	88.87	9.54	-37.6	-38.6	22.7	0.00e+00	0	41	0	1216348160	48	5951
2026-01-23 11:52:05.86	89.38	9.47	-37.8	-38.9	22.5	0.00e+00	0	41	0	1225785344	48	6152
2026-01-23 11:52:08.89	89.89	9.39	-37.9	-39.0	22.4	0.00e+00	0	41	0	1235222528	48	6207
2026-01-23 11:52:11.92	90.40	9.32	-37.9	-38.9	22.4	0.00e+00	0	41	0	1244659712	48	6200
2026-01-23 11:52:14.95	90.90	9.24	-37.9	-38.9	22.4	0.00e+00	0	41	0	1254096896	48	6163
2026-01-23 11:52:17.99	91.41	9.16	-38.0	-39.0	22.2	0.00e+00	0	41	0	1263534080	48	6256
2026-01-23 11:52:21.01	91.90	9.08	-37.9	-38.9	22.4	0.00e+00	0	41	0	1272971264	48	6169
2026-01-23 11:52:24.04	92.40	9.00	-37.9	-39.0	22.4	0.00e+00	0	41	0	1282408448	48	6229
2026-01-23 11:52:27.08	92.90	8.91	-38.1	-39.2	22.1	0.00e+00	0	41	0	1291845632	48	6364
2026-01-23 11:52:30.11	93.39	8.83	-37.9	-38.9	22.3	0.00e+00	0	41	0	1302331392	48	6202
2026-01-23 11:52:33.14	93.88	8.74	-38.3	-39.4	22.0	0.00e+00	0	41	0	1310720000	48	6521
2026-01-23 11:52:36.17	94.36	8.65	-37.8	-38.8	22.3	0.00e+00	0	41	0	1321205760	48	6111
2026-01-23 11:52:39.20	94.85	8.56	-38.0	-39.0	22.3	0.00e+00	0	41	0	1330642944	48	6259
2026-01-23 11:52:42.23	95.33	8.47	-38.2	-39.3	22.0	0.00e+00	0	41	0	1340080128	48	6439
2026-01-23 11:52:45.26	95.80	8.37	-38.2	-39.2	22.2	0.00e+00	0	41	0	1349517312	48	6380
2026-01-23 11:52:48.29	96.28	8.28	-38.4	-39.4	21.9	0.00e+00	0	41	0	1358954496	48	6558
2026-01-23 11:52:51.32	96.75	8.18	-38.2	-39.3	22.0	0.00e+00	0	41	0	1368391680	48	6429
2026-01-23 11:52:54.35	97.22	8.09	-38.3	-39.3	22.1	0.00e+00	0	41	0	1377828864	48	6469
2026-01-23 11:52:57.38	97.68	7.99	-38.6	-39.7	21.7	0.00e+00	0	41	0	1387266048	48	6776
2026-01-23 11:53:00.41	98.14	7.89	-38.5	-39.6	21.6	0.00e+00	0	41	0	1396703232	50	5974
2026-01-23 11:53:03.44	98.60	7.79	-38.7	-39.8	21.5	0.00e+00	0	41	0	1406140416	50	6093
2026-01-23 11:53:06.47	99.06	7.69	-38.6	-39.7	21.6	0.00e+00	0	41	0	1415577600	50	6042
2026-01-23 11:53:09.49	99.51	7.58	-38.4	-39.5	21.8	0.00e+00	0	41	0	1425014784	50	5880
2026-01-23 11:53:12.52	99.96	7.48	-38.4	-39.5	21.8	0.00e+00	0	41	0	1434451968	50	5895
2026-01-23 11:53:15.55	100.41	7.37	-38.6	-39.6	21.7	0.00e+00	0	41	0	1443889152	50	5974
2026-01-23 11:53:18.58	100.85	7.27	-38.8	-39.9	21.5	0.00e+00	0	41	0	1453326336	50	6139
2026-01-23 11:53:21.61	101.29	7.16	-38.9	-40.0	21.4	0.00e+00	0	41	0	1462763520	50	6253
2026-01-23 11:53:24.64	101.73	7.05	-38.9	-40.0	21.3	0.00e+00	0	41	0	1472200704	50	6238
2026-01-23 11:53:27.68	102.17	6.94	-38.8	-40.0	21.2	0.00e+00	0	41	0	1481637888	50	6209
2026-01-23 11:53:30.71	102.60	6.83	-38.8	-40.0	21.3	0.00e+00	0	41	0	1491075072	50	6207
2026-01-23 11:53:33.74	103.02	6.72	-39.0	-40.1	21.3	0.00e+00	0	41	0	1500512256	50	6289
2026-01-23 11:53:36.76	103.45	6.61	-38.8	-39.9	21.2	0.00e+00	0	41	0	1509949440	50	6171
2026-01-23 11:53:39.79	103.87	6.50	-39.0	-40.2	21.0	0.00e+00	0	41	0	1519386624	50	6356
2026-01-23 11:53:42.83	104.29	6.38	-38.9	-40.0	21.2	0.00e+00	0	41	0	1528823808	50	6208
2026-01-23 11:53:45.86	104.71	6.27	-38.9	-40.0	21.2	0.00e+00	0	41	0	1538260992	50	6238
2026-01-23 11:53:48.88	105.12	6.16	-38.8	-40.0	21.4	0.00e+00	0	41	0	1547698176	50	6231
2026-01-23 11:53:51.91	105.53	6.04	-38.9	-40.0	21.1	0.00e+00	0	41	0	1557135360	50	6259
2026-01-23 11:53:54.94	105.93	5.92	-38.9	-40.0	21.1	0.00e+00	0	41	0	1566572544	50	6251
2026-01-23 11:53:57.97	106.34	5.81	-38.9	-40.1	20.9	0.00e+00	0	41	0	1576009728	50	6330
2026-01-23 11:54:01.00	106.74	5.69	-39.2	-40.4	20.8	0.00e+00	0	41	0	1585446912	50	6526
2026-01-23 11:54:04.03	107.13	5.57	-38.9	-40.0	21.1	0.00e+00	0	41	0	1594884096	50	6251
2026-01-23 11:54:07.07	107.53	5.45	-39.2	-40.4	20.8	0.00e+00	0	41	0	1604321280	50	6511
2026-01-23 11:54:10.10	107.92	5.33	-39.3	-40.4	20.7	0.00e+00	0	41	0	1614807040	50	6551
2026-01-23 11:54:13.12	108.31	5.21	-39.4	-40.6	20.5	0.00e+00	0	41	0	1623195648	50	6650
2026-01-23 11:54:16.15	108.69	5.09	-39.2	-40.3	20.8	0.00e+00	0	41	0	1633681408	50	6489
2026-01-23 11:54:19.18	109.07	4.97	-39.5	-40.7	20.4	0.00e+00	0	41	0	1643118592	50	6788
2026-01-23 11:54:22.21	109.45	4.85	-39.4	-40.6	20.5	0.00e+00	0	41	0	1652555776	50	6705
2026-01-23 11:54:25.24	109.83	4.73	-39.8	-41.1	20.0	0.00e+00	0	41	0	1661992960	52	6303
2026-01-23 11:54:28.27	110.20	4.61	-39.9	-41.1	19.9	0.00e+00	0	41	0	1671430144	52	6348
2026-01-23 11:54:31.29	110.57	4.48	-39.7	-41.0	20.1	0.00e+00	0	41	0	1680867328	52	6216
2026-01-23 11:54:34.32	110.93	4.36	-40.1	-41.3	19.7	0.00e+00	0	41	0	1690304512	52	6498
2026-01-23 11:54:37.35	111.30	4.24	-39.3	-40.5	20.3	0.00e+00	0	41	0	1699741696	52	5904
2026-01-23 11:54:40.38	111.66	4.11	-38.9	-40.1	20.7	0.00e+00	0	41	0	1709178880	52	5619
2026-01-23 11:54:43.41	112.02	3.99	-39.6	-40.9	19.8	0.00e+00	0	41	0	1718616064	52	6155
2026-01-23 11:54:46.43	112.37	3.86	-40.2	-41.5	19.3	0.00e+00	0	41	0	1728053248	52	6635
2026-01-23 11:54:49.46	112.72	3.74	-39.9	-41.2	19.5	0.00e+00	0	41	0	1737490432	52	6385
2026-01-23 11:54:52.49	113.07	3.61	-40.3	-41.7	19.1	0.00e+00	0	41	0	1746927616	52	6758
2026-01-23 11:54:55.52	113.42	3.49	-40.0	-41.3	19.4	0.00e+00	0	41	0	1756364800	52	6478
2026-01-23 11:54:58.55	113.76	3.36	-40.4	-41.8	19.1	0.00e+00	0	41	0	1765801984	52	6826
2026-01-23 11:55:01.58	114.10	3.24	-40.6	-42.1	18.8	0.00e+00	0	41	0	1775239168	54	6299
2026-01-23 11:55:04.61	114.44	3.11	-40.6	-42.1	18.3	0.00e+00	0	41	0	1784676352	54	6298
2026-01-23 11:55:07.64	114.78	2.98	-48.6	-61.9	3.5	1.00e+00	0	41	104	1793064960	60	43669
2026-01-23 11:55:10.67	115.11	2.86	-50.0	-62.9	3.5	1.52e+00	0	41	104	1793064960	60	49008
2026-01-23 11:55:13.70	115.44	2.73	-50.2	-63.2	3.5	1.52e+00	0	41	104	1793064960	60	50730
2026-01-23 11:55:16.73	115.77	2.60	-50.4	-63.3	3.5	1.52e+00	0	41	104	1793064960	60	51359
2026-01-23 11:55:19.76	116.09	2.48	-50.5	-63.3	3.5	1.52e+00	0	41	104	1793064960	60	51554
2026-01-23 11:55:22.79	116.41	2.35	-50.5	-63.3	3.5	1.52e+00	0	41	104	1793064960	60	51505
2026-01-23 11:55:25.81	116.73	2.22	-50.4	-63.4	3.5	1.52e+00	0	41	104	1793064960	60	51688
2026-01-23 11:55:28.84	117.05	2.10	-50.6	-63.4	3.5	1.52e+00	0	41	104	1793064960	60	52092
2026-01-23 11:55:31.87	117.36	1.97	-50.5	-63.3	3.5	1.52e+00	0	41	104	1793064960	60	51604
2026-01-23 11:55:34.90	117.67	1.84	-50.5	-63.4	3.5	1.52e+00	0	41	104	1793064960	60	51722
2026-01-23 11:55:37.93	117.98	1.71	-50.5	-63.3	3.5	1.52e+00	0	41	104	1793064960	60	51465
2026-01-23 11:55:40.95	118.29	1.58	-50.4	-63.4	3.5	1.52e+00	0	41	104	1793064960	60	51723
2026-01-23 11:55:43.98	118.59	1.46	-50.4	-63.3	3.5	1.52e+00	0	41	104	1793064960	60	51400
2026-01-23 11:55:47.01	118.89	1.33	-50.4	-63.4	3.5	1.51e+00	0	41	104	1793064960	60	51663
2026-01-23 11:55:50.04	119.19	1.20	-50.4	-63.4	3.5	1.52e+00	0	41	104	1793064960	60	51695
2026-01-23 11:55:53.08	119.49	1.07	-50.4	-63.4	3.5	1.52e+00	0	41	104	1793064960	60	51736
2026-01-23 11:55:56.11	119.78	0.94	-50.4	-63.3	3.5	1.52e+00	0	41	104	1793064960	60	51525
2026-01-23 11:55:59.14	120.08	0.82	-50.4	-63.3	3.5	1.52e+00	0	41	104	1793064960	60	51540
2026-01-23 11:56:02.17	120.36	0.69	-50.4	-63.3	3.5	1.52e+00	0	41	104	1793064960	60	51530
2026-01-23 11:56:05.20	120.65	0.56	-50.4	-63.4	3.5	1.52e+00	0	41	104	1793064960	60	51737
2026-01-23 11:56:08.23	120.94	0.43	-50.4	-63.4	3.5	1.52e+00	0	41	104	1793064960	60	51670
2026-01-23 11:56:11.26	121.22	0.30	-50.4	-63.3	3.5	1.52e+00	0	41	104	1793064960	60	51531
2026-01-23 11:56:14.29	121.50	0.17	-50.4	-63.4	3.5	1.52e+00	0	41	104	1793064960	60	51636
2026-01-23 11:56:17.32	121.78	0.05	-50.4	-63.3	3.5	1.52e+00	0	41	104	1793064960	60	51538

#Closed at: 2026-01-23 11:56:19
#Recorded file [1793 MB]: D:/lorett/data/35029_260123_234428.dat