passes_logs/2026/01/23/R4.6S_Anadyr/R4.6S_Anadyr__20260123_163226_FENGYUN_3D_rec.log

#Pass ID: 20260123_163226_FENGYUN 3D
#Satellite: FENGYUN 3D
#Configuration: FENGYUN 3D
#almurnet v.1.7.20251203
#Start time: 2026-01-23 16:32:30

#Version: 2.2.20231116
#Station: R4.6S_Anadyr
#Location: 177.4865 lon 64.73178 lat
#TLE: 1 43010U 17072A   26022.47411728  .00000617  00000+0  31375-3 0  9996
#TLE: 2 43010  98.9952 354.4060 0002481  95.7964 264.3494 14.19699924424319

#Time	Az	El	Level	Level2	SNR	BER	BlckErr	Temp	State	Recorded	gain1	gain2
2026-01-23 16:32:30.04	20.55	0.20	-50.8	-61.6	3.3	8.41e-01	0	39	0	0	60	43314
2026-01-23 16:32:34.08	20.61	0.44	-50.9	-63.1	3.6	8.46e-01	0	40	104	0	60	51607
2026-01-23 16:32:38.11	20.66	0.68	-50.9	-63.1	3.6	8.45e-01	0	40	104	0	60	51365
2026-01-23 16:32:42.15	20.71	0.93	-50.7	-62.9	3.6	8.45e-01	0	40	104	0	60	50215
2026-01-23 16:32:46.19	20.77	1.17	-50.3	-62.4	3.6	8.45e-01	0	40	104	0	60	47570
2026-01-23 16:32:50.23	20.83	1.42	-49.7	-61.7	3.6	8.45e-01	0	40	104	0	60	44099
2026-01-23 16:32:54.27	20.88	1.68	-49.5	-61.5	3.6	8.44e-01	0	40	104	0	60	42717
2026-01-23 16:32:58.31	20.94	1.93	-49.5	-61.6	3.6	8.45e-01	0	40	104	0	60	43312
2026-01-23 16:33:02.35	21.00	2.19	-49.4	-61.2	3.6	8.45e-01	0	40	104	0	60	41633
2026-01-23 16:33:06.39	21.06	2.45	-49.2	-58.6	3.7	8.40e-01	0	40	104	0	60	30854
2026-01-23 16:33:10.43	21.11	2.71	-49.2	-58.6	3.9	8.42e-01	0	40	104	0	60	30790
2026-01-23 16:33:14.47	21.17	2.97	-47.0	-50.2	10.0	1.25e-02	0	40	0	11534336	60	11736
2026-01-23 16:33:18.51	21.23	3.24	-44.0	-45.8	14.9	1.10e-06	0	40	0	34603008	60	7021
2026-01-23 16:33:22.56	21.30	3.51	-45.0	-47.1	13.5	1.14e-05	0	40	0	57671680	60	8175
2026-01-23 16:33:26.59	21.36	3.78	-39.9	-41.0	19.5	0.00e+00	0	40	0	79691776	50	7185
2026-01-23 16:33:30.64	21.42	4.06	-42.1	-43.4	6.1	8.40e-01	0	40	104	90177536	60	5364
2026-01-23 16:33:34.67	21.48	4.33	-38.7	-39.6	21.2	0.00e+00	0	40	0	106954752	50	6150
2026-01-23 16:33:38.71	21.55	4.61	-38.2	-39.0	21.8	0.00e+00	0	40	0	130023424	50	5718
2026-01-23 16:33:42.75	21.62	4.90	-38.1	-38.9	21.7	0.00e+00	0	40	0	152043520	50	5654
2026-01-23 16:33:46.79	21.68	5.18	-37.3	-38.1	22.7	0.00e+00	0	40	0	175112192	48	5777
2026-01-23 16:33:50.83	21.75	5.47	-37.2	-38.0	22.8	0.00e+00	0	41	0	198180864	48	5726
2026-01-23 16:33:54.87	21.82	5.77	-37.2	-38.0	22.9	0.00e+00	0	41	0	220200960	48	5697
2026-01-23 16:33:58.91	21.89	6.06	-37.2	-38.0	22.9	0.00e+00	0	40	0	243269632	48	5704
2026-01-23 16:34:02.95	21.96	6.36	-36.9	-37.7	23.2	0.00e+00	0	41	0	266338304	46	6179
2026-01-23 16:34:06.99	22.03	6.66	-36.7	-37.5	23.4	2.20e-06	0	41	0	288358400	46	6036
2026-01-23 16:34:11.03	22.10	6.97	-36.9	-37.6	23.3	0.00e+00	0	41	0	311427072	46	6156
2026-01-23 16:34:15.07	22.18	7.28	-36.6	-37.3	23.6	0.00e+00	0	41	0	334495744	46	5926
2026-01-23 16:34:19.11	22.25	7.59	-36.6	-37.4	23.6	0.00e+00	0	41	0	356515840	46	5973
2026-01-23 16:34:23.14	22.33	7.91	-36.9	-37.7	23.5	0.00e+00	0	41	0	379584512	46	6182
2026-01-23 16:34:27.18	22.41	8.23	-36.8	-37.5	23.6	0.00e+00	0	41	0	402653184	46	6098
2026-01-23 16:34:31.22	22.48	8.56	-36.2	-36.9	24.1	0.00e+00	0	41	0	424673280	46	5641
2026-01-23 16:34:35.26	22.56	8.89	-36.0	-36.7	24.3	0.00e+00	0	41	0	447741952	46	5505
2026-01-23 16:34:39.31	22.65	9.22	-35.8	-36.5	24.4	0.00e+00	0	41	0	470810624	46	5430
2026-01-23 16:34:43.34	22.73	9.56	-35.9	-36.6	24.4	0.00e+00	0	41	0	492830720	46	5487
2026-01-23 16:34:47.38	22.81	9.90	-35.9	-36.6	24.4	0.00e+00	0	41	0	515899392	44	6111
2026-01-23 16:34:51.42	22.90	10.25	-35.7	-36.4	24.6	0.00e+00	0	41	0	538968064	44	5975
2026-01-23 16:34:55.46	22.99	10.61	-35.6	-36.3	24.7	0.00e+00	0	41	0	560988160	44	5944
2026-01-23 16:34:59.50	23.08	10.97	-35.6	-36.3	24.7	0.00e+00	0	41	0	584056832	44	5909
2026-01-23 16:35:03.53	23.17	11.33	-35.7	-36.5	24.5	0.00e+00	0	41	0	607125504	44	6039
2026-01-23 16:35:07.57	23.26	11.70	-36.0	-36.7	24.3	0.00e+00	0	41	0	629145600	44	6198
2026-01-23 16:35:11.61	23.36	12.07	-35.8	-36.6	24.6	0.00e+00	0	41	0	652214272	44	6104
2026-01-23 16:35:15.65	23.46	12.45	-35.8	-36.5	24.6	0.00e+00	0	41	0	675282944	44	6067
2026-01-23 16:35:19.69	23.56	12.84	-35.7	-36.4	24.6	0.00e+00	0	41	0	697303040	44	6012
2026-01-23 16:35:23.73	23.66	13.23	-35.7	-36.4	24.7	0.00e+00	0	41	0	720371712	44	5973
2026-01-23 16:35:27.77	23.76	13.63	-35.2	-35.9	25.1	0.00e+00	0	41	0	743440384	44	5683
2026-01-23 16:35:31.80	23.87	14.04	-35.1	-35.8	25.3	0.00e+00	0	41	0	765460480	44	5598
2026-01-23 16:35:35.84	23.98	14.45	-35.0	-35.7	25.5	0.00e+00	0	41	0	788529152	44	5527
2026-01-23 16:35:39.88	24.09	14.87	-34.8	-35.4	25.6	0.00e+00	0	41	0	811597824	42	6029
2026-01-23 16:35:43.92	24.20	15.30	-34.5	-35.2	25.9	0.00e+00	0	41	0	833617920	42	5859
2026-01-23 16:35:47.95	24.32	15.73	-34.3	-34.9	26.1	0.00e+00	0	41	0	856686592	42	5675
2026-01-23 16:35:51.99	24.44	16.17	-34.1	-34.7	26.3	0.00e+00	0	41	0	879755264	42	5544
2026-01-23 16:35:56.03	24.56	16.62	-34.0	-34.7	26.3	0.00e+00	0	41	0	901775360	42	5537
2026-01-23 16:36:00.07	24.69	17.08	-33.8	-34.5	26.5	0.00e+00	0	41	0	924844032	42	5403
2026-01-23 16:36:04.11	24.82	17.55	-33.8	-34.4	26.7	0.00e+00	0	41	0	947912704	42	5356
2026-01-23 16:36:08.15	24.95	18.03	-33.6	-34.2	26.7	0.00e+00	0	41	0	969932800	40	5892
2026-01-23 16:36:12.19	25.09	18.52	-33.6	-34.2	26.7	0.00e+00	0	41	0	993001472	40	5892
2026-01-23 16:36:16.23	25.23	19.01	-33.9	-34.5	26.6	0.00e+00	0	41	0	1016070144	40	6075
2026-01-23 16:36:20.27	25.38	19.52	-33.7	-34.4	26.7	0.00e+00	0	41	0	1038090240	40	5971
2026-01-23 16:36:24.31	25.53	20.03	-33.4	-34.0	27.0	0.00e+00	0	41	0	1061158912	40	5721
2026-01-23 16:36:28.35	25.68	20.56	-33.0	-33.6	27.3	0.00e+00	0	41	0	1084227584	40	5460
2026-01-23 16:36:32.37	25.84	21.10	-33.0	-33.7	27.3	0.00e+00	0	41	0	1106247680	40	5522
2026-01-23 16:36:36.41	26.00	21.65	-32.8	-33.5	27.5	0.00e+00	0	41	0	1129316352	40	5387
2026-01-23 16:36:40.45	26.17	22.21	-33.0	-33.6	27.3	0.00e+00	0	41	0	1152385024	40	5460
2026-01-23 16:36:44.49	26.35	22.78	-33.1	-33.7	27.3	0.00e+00	0	41	0	1174405120	40	5538
2026-01-23 16:36:48.53	26.53	23.37	-32.9	-33.5	27.4	0.00e+00	0	41	0	1197473792	40	5420
2026-01-23 16:36:52.57	26.71	23.97	-32.7	-33.3	27.7	0.00e+00	0	41	0	1220542464	38	5934
2026-01-23 16:36:56.60	26.91	24.58	-32.6	-33.2	27.7	0.00e+00	0	41	0	1242562560	38	5895
2026-01-23 16:37:00.64	27.11	25.21	-32.6	-33.3	27.7	0.00e+00	0	41	0	1265631232	38	5915
2026-01-23 16:37:04.68	27.32	25.86	-32.5	-33.1	27.8	0.00e+00	0	41	0	1288699904	38	5806
2026-01-23 16:37:08.72	27.53	26.52	-32.3	-32.9	28.0	0.00e+00	0	41	0	1310720000	38	5654
2026-01-23 16:37:12.75	27.76	27.19	-32.4	-33.1	27.9	0.00e+00	0	41	0	1333788672	38	5772
2026-01-23 16:37:16.79	27.99	27.89	-32.6	-33.2	27.8	0.00e+00	0	41	0	1356857344	38	5860
2026-01-23 16:37:20.84	28.24	28.60	-32.2	-32.8	28.0	0.00e+00	0	41	0	1378877440	38	5581
2026-01-23 16:37:24.87	28.49	29.33	-32.1	-32.7	28.1	0.00e+00	0	41	0	1401946112	38	5536
2026-01-23 16:37:28.91	28.76	30.07	-32.5	-33.1	27.7	0.00e+00	0	41	0	1425014784	38	5778
2026-01-23 16:37:32.95	29.03	30.84	-32.1	-32.7	28.2	0.00e+00	0	41	0	1447034880	38	5542
2026-01-23 16:37:36.99	29.32	31.63	-32.1	-32.7	28.1	0.00e+00	0	41	0	1470103552	38	5564
2026-01-23 16:37:41.03	29.63	32.43	-32.2	-32.8	28.1	0.00e+00	0	41	0	1493172224	38	5627
2026-01-23 16:37:45.07	29.95	33.26	-32.0	-32.6	28.2	0.00e+00	0	41	0	1515192320	38	5448
2026-01-23 16:37:49.10	30.28	34.11	-32.2	-32.8	28.1	0.00e+00	0	41	0	1538260992	38	5619
2026-01-23 16:37:53.14	30.63	34.99	-32.0	-32.6	28.2	0.00e+00	0	41	0	1561329664	38	5467
2026-01-23 16:37:57.18	31.00	35.89	-31.9	-32.5	28.3	0.00e+00	0	41	0	1583349760	38	5405
2026-01-23 16:38:01.22	31.39	36.81	-31.6	-32.2	28.4	0.00e+00	0	41	0	1606418432	36	5888
2026-01-23 16:38:05.25	31.81	37.76	-31.5	-32.2	28.6	0.00e+00	0	41	0	1629487104	36	5844
2026-01-23 16:38:09.29	32.24	38.73	-31.5	-32.2	28.6	0.00e+00	0	41	0	1651507200	36	5835
2026-01-23 16:38:13.32	32.71	39.73	-31.8	-32.4	28.4	0.00e+00	0	41	0	1674575872	36	6007
2026-01-23 16:38:17.36	33.20	40.76	-31.6	-32.3	28.5	0.00e+00	0	41	0	1697644544	36	5899
2026-01-23 16:38:21.40	33.72	41.82	-31.9	-32.5	28.2	0.00e+00	0	41	0	1719664640	36	6059
2026-01-23 16:38:25.43	34.28	42.91	-32.3	-33.0	28.0	0.00e+00	0	41	0	1742733312	36	6419
2026-01-23 16:38:29.47	34.88	44.02	-32.3	-32.9	28.1	0.00e+00	0	41	0	1764753408	36	6346
2026-01-23 16:38:33.52	35.52	45.17	-32.2	-32.8	28.1	0.00e+00	0	41	0	1787822080	36	6287
2026-01-23 16:38:37.55	36.20	46.34	-32.5	-33.1	27.9	0.00e+00	0	41	0	1810890752	36	6535
2026-01-23 16:38:41.59	36.95	47.55	-32.4	-33.1	27.9	0.00e+00	0	41	0	1833959424	36	6465
2026-01-23 16:38:45.63	37.74	48.78	-32.7	-33.3	27.8	0.00e+00	0	41	0	1855979520	36	6658
2026-01-23 16:38:49.67	38.61	50.04	-32.6	-33.3	27.8	0.00e+00	0	41	0	1879048192	38	5899
2026-01-23 16:38:53.71	39.55	51.34	-32.7	-33.3	27.8	0.00e+00	0	41	0	1902116864	38	5915
2026-01-23 16:38:57.75	40.57	52.66	-33.1	-33.7	27.5	0.00e+00	0	41	0	1924136960	38	6224
2026-01-23 16:39:01.79	41.69	54.01	-32.8	-33.4	27.6	0.00e+00	0	41	0	1947205632	38	6033
2026-01-23 16:39:05.83	42.92	55.38	-33.7	-34.4	26.9	0.00e+00	0	41	0	1969225728	38	6730
2026-01-23 16:39:09.87	44.28	56.77	-32.8	-33.5	27.6	0.00e+00	0	41	0	1992294400	40	5380
2026-01-23 16:39:13.91	45.78	58.18	-33.2	-33.9	27.3	0.00e+00	0	41	0	2015363072	40	5661
2026-01-23 16:39:17.95	47.44	59.61	-32.5	-33.1	27.8	0.00e+00	0	41	0	2038431744	38	5813
2026-01-23 16:39:21.99	49.30	61.04	-32.3	-33.0	28.0	0.00e+00	0	41	0	2060451840	38	5700
2026-01-23 16:39:26.02	51.37	62.48	-31.9	-32.5	28.3	0.00e+00	0	41	0	2083520512	36	6035
2026-01-23 16:39:30.06	53.72	63.91	-31.7	-32.3	28.5	0.00e+00	0	41	0	2106589184	36	5909
2026-01-23 16:39:34.10	56.36	65.33	-31.6	-32.2	28.6	0.00e+00	0	41	0	2128609280	36	5883
2026-01-23 16:39:38.14	59.36	66.72	-31.3	-31.9	28.8	0.00e+00	0	41	0	2151677952	36	5687
2026-01-23 16:39:42.18	62.77	68.07	-31.4	-32.0	28.7	0.00e+00	0	41	0	2173698048	36	5714
2026-01-23 16:39:46.22	66.66	69.36	-31.2	-31.9	28.8	0.00e+00	0	41	0	2196766720	36	5652
2026-01-23 16:39:50.26	71.08	70.56	-31.1	-31.6	28.9	0.00e+00	0	41	0	2219835392	36	5499
2026-01-23 16:39:54.30	76.09	71.66	-30.6	-31.3	29.1	0.00e+00	0	41	0	2242904064	34	5899
2026-01-23 16:39:58.34	81.74	72.61	-30.7	-31.4	29.1	0.00e+00	0	41	0	2264924160	34	5973
2026-01-23 16:40:02.38	88.01	73.40	-30.7	-31.4	29.1	0.00e+00	0	41	0	2287992832	34	5979
2026-01-23 16:40:06.42	94.84	73.98	-30.5	-31.1	29.4	0.00e+00	0	41	0	2311061504	34	5800
2026-01-23 16:40:10.46	102.11	74.33	-30.4	-30.9	29.4	0.00e+00	0	41	0	2333081600	34	5688
2026-01-23 16:40:14.50	109.59	74.44	-30.6	-31.2	29.1	0.00e+00	0	41	0	2356150272	34	5885
2026-01-23 16:40:18.53	117.04	74.29	-30.1	-30.7	29.3	0.00e+00	0	41	0	2378170368	34	5504
2026-01-23 16:40:22.56	124.23	73.89	-30.7	-31.2	29.2	0.00e+00	0	41	0	2401239040	34	5880
2026-01-23 16:40:26.61	130.99	73.27	-30.4	-31.0	29.3	0.00e+00	0	41	0	2424307712	34	5716
2026-01-23 16:40:30.65	137.15	72.45	-30.8	-31.3	29.0	0.00e+00	0	41	0	2447376384	34	5917
2026-01-23 16:40:34.69	142.68	71.46	-31.1	-31.7	28.8	0.00e+00	0	41	0	2469396480	34	6226
2026-01-23 16:40:38.73	147.59	70.34	-31.4	-32.0	28.6	0.00e+00	0	41	0	2492465152	34	6403
2026-01-23 16:40:42.77	151.91	69.12	-31.0	-31.6	28.8	0.00e+00	0	41	0	2515533824	34	6163
2026-01-23 16:40:46.81	155.70	67.82	-31.4	-32.0	28.5	0.00e+00	0	41	0	2537553920	34	6410
2026-01-23 16:40:50.85	159.04	66.46	-31.1	-31.6	28.8	0.00e+00	0	41	0	2560622592	34	6146
2026-01-23 16:40:54.89	161.97	65.06	-31.2	-31.8	28.7	0.00e+00	0	41	0	2582642688	34	6261
2026-01-23 16:40:58.93	164.56	63.63	-31.4	-31.9	28.6	0.00e+00	0	41	0	2605711360	34	6357
2026-01-23 16:41:02.97	166.85	62.19	-31.7	-32.4	28.3	0.00e+00	0	41	0	2628780032	34	6701
2026-01-23 16:41:07.01	168.89	60.75	-31.9	-32.5	28.2	0.00e+00	0	41	0	2651848704	36	6053
2026-01-23 16:41:11.05	170.71	59.31	-32.1	-32.7	28.1	0.00e+00	0	40	0	2673868800	36	6183
2026-01-23 16:41:15.09	172.34	57.89	-32.6	-33.1	27.6	0.00e+00	0	41	0	2696937472	36	6523
2026-01-23 16:41:19.12	173.81	56.48	-33.1	-33.8	27.2	0.00e+00	0	41	0	2720006144	38	6294
2026-01-23 16:41:23.17	175.14	55.08	-32.8	-33.4	27.5	0.00e+00	0	40	0	2742026240	38	5996
2026-01-23 16:41:27.20	176.35	53.71	-32.6	-33.2	27.6	0.00e+00	0	41	0	2765094912	38	5836
2026-01-23 16:41:31.25	177.45	52.36	-32.5	-33.2	27.7	0.00e+00	0	41	0	2788163584	38	5857
2026-01-23 16:41:35.29	178.46	51.04	-33.2	-33.8	27.1	0.00e+00	0	40	0	2810183680	38	6294
2026-01-23 16:41:39.33	179.38	49.75	-32.0	-32.5	28.1	0.00e+00	0	41	0	2833252352	38	5417
2026-01-23 16:41:43.37	180.23	48.49	-32.0	-32.7	28.2	0.00e+00	0	40	0	2856321024	38	5504
2026-01-23 16:41:47.41	181.02	47.26	-32.0	-32.7	28.2	0.00e+00	0	40	0	2878341120	36	6183
2026-01-23 16:41:51.45	181.75	46.05	-32.0	-32.7	28.1	0.00e+00	0	40	0	2901409792	36	6198
2026-01-23 16:41:55.50	182.43	44.88	-31.9	-32.5	28.2	0.00e+00	0	41	0	2924478464	36	6041
2026-01-23 16:41:59.54	183.06	43.73	-31.6	-32.3	28.4	0.00e+00	0	40	0	2946498560	36	5904
2026-01-23 16:42:03.58	183.65	42.62	-31.8	-32.4	28.3	0.00e+00	0	41	0	2969567232	36	5990
2026-01-23 16:42:07.62	184.20	41.54	-31.7	-32.4	28.3	0.00e+00	0	40	0	2992635904	36	6021
2026-01-23 16:42:11.66	184.72	40.48	-31.2	-31.7	28.7	0.00e+00	0	41	0	3014656000	36	5534
2026-01-23 16:42:15.69	185.20	39.45	-30.8	-31.3	29.0	0.00e+00	0	40	0	3037724672	36	5309
2026-01-23 16:42:19.73	185.66	38.45	-31.3	-31.9	28.6	0.00e+00	0	40	0	3060793344	36	5664
2026-01-23 16:42:23.77	186.09	37.48	-31.3	-31.8	28.6	0.00e+00	0	41	0	3082813440	36	5625
2026-01-23 16:42:27.82	186.50	36.53	-31.4	-32.1	28.5	0.00e+00	0	40	0	3105882112	36	5767
2026-01-23 16:42:31.85	186.89	35.61	-31.6	-32.3	28.3	0.00e+00	0	41	0	3128950784	36	5918
2026-01-23 16:42:35.89	187.25	34.72	-31.5	-32.2	28.3	0.00e+00	0	41	0	3152019456	36	5877
2026-01-23 16:42:39.93	187.60	33.84	-31.5	-32.1	28.4	0.00e+00	0	41	0	3174039552	36	5773
2026-01-23 16:42:43.97	187.93	32.99	-31.6	-32.1	28.4	0.00e+00	0	41	0	3197108224	36	5793
2026-01-23 16:42:48.01	188.24	32.16	-31.4	-32.1	28.3	0.00e+00	0	40	0	3219128320	36	5796
2026-01-23 16:42:52.05	188.54	31.36	-31.6	-32.1	28.3	0.00e+00	0	40	0	3242196992	36	5811
2026-01-23 16:42:56.09	188.83	30.57	-31.6	-32.2	28.3	0.00e+00	0	41	0	3265265664	36	5855
2026-01-23 16:43:00.12	189.10	29.81	-31.9	-32.5	28.0	0.00e+00	0	41	0	3287285760	36	6056
2026-01-23 16:43:04.16	189.37	29.06	-31.9	-32.4	28.1	0.00e+00	0	41	0	3310354432	36	6008
2026-01-23 16:43:08.21	189.62	28.33	-31.8	-32.4	28.2	0.00e+00	0	41	0	3333423104	36	5993
2026-01-23 16:43:12.25	189.86	27.62	-31.8	-32.5	28.1	0.00e+00	0	41	0	3356491776	36	6085
2026-01-23 16:43:16.29	190.09	26.93	-31.9	-32.4	28.1	0.00e+00	0	40	0	3378511872	36	6022
2026-01-23 16:43:20.33	190.31	26.26	-32.1	-32.6	27.9	0.00e+00	0	41	0	3401580544	36	6156
2026-01-23 16:43:24.37	190.52	25.60	-31.9	-32.6	28.1	0.00e+00	0	41	0	3423600640	36	6122
2026-01-23 16:43:28.41	190.73	24.96	-31.9	-32.6	28.1	0.00e+00	0	41	0	3446669312	36	6117
2026-01-23 16:43:32.45	190.93	24.33	-32.1	-32.7	27.9	0.00e+00	0	41	0	3469737984	36	6185
2026-01-23 16:43:36.49	191.12	23.71	-32.3	-32.9	27.8	0.00e+00	0	40	0	3492806656	36	6333
2026-01-23 16:43:40.53	191.30	23.11	-32.5	-33.0	27.6	0.00e+00	0	41	0	3514826752	36	6463
2026-01-23 16:43:44.57	191.48	22.53	-32.6	-33.2	27.5	0.00e+00	0	41	0	3537895424	36	6567
2026-01-23 16:43:48.61	191.65	21.95	-32.7	-33.4	27.3	0.00e+00	0	41	0	3560964096	38	5999
2026-01-23 16:43:52.65	191.82	21.39	-32.9	-33.6	27.3	0.00e+00	0	41	0	3582984192	38	6154
2026-01-23 16:43:56.69	191.98	20.84	-32.8	-33.5	27.3	0.00e+00	0	41	0	3606052864	38	6076
2026-01-23 16:44:00.73	192.13	20.31	-32.9	-33.5	27.2	0.00e+00	0	41	0	3628072960	38	6058
2026-01-23 16:44:04.77	192.28	19.78	-33.0	-33.6	27.2	0.00e+00	0	41	0	3651141632	38	6105
2026-01-23 16:44:08.81	192.43	19.27	-33.1	-33.8	27.1	0.00e+00	0	41	0	3674210304	38	6266
2026-01-23 16:44:12.85	192.57	18.76	-33.2	-33.9	27.0	0.00e+00	0	41	0	3697278976	38	6376
2026-01-23 16:44:16.89	192.71	18.27	-33.4	-34.1	26.8	0.00e+00	0	41	0	3719299072	38	6483
2026-01-23 16:44:20.93	192.84	17.78	-33.6	-34.3	26.7	0.00e+00	0	41	0	3742367744	38	6641
2026-01-23 16:44:24.96	192.97	17.30	-33.7	-34.4	26.6	0.00e+00	0	41	0	3765436416	40	5979
2026-01-23 16:44:29.00	193.10	16.84	-34.0	-34.5	26.5	0.00e+00	0	41	0	3787456512	40	6090
2026-01-23 16:44:33.05	193.22	16.38	-34.3	-34.8	26.1	0.00e+00	0	41	0	3810525184	40	6312
2026-01-23 16:44:37.09	193.34	15.93	-34.4	-35.0	26.0	0.00e+00	0	41	0	3832545280	40	6439
2026-01-23 16:44:41.13	193.46	15.49	-34.5	-35.1	25.9	0.00e+00	0	41	0	3855613952	40	6472
2026-01-23 16:44:45.17	193.57	15.05	-34.7	-35.3	25.8	0.00e+00	0	41	0	3878682624	42	5898
2026-01-23 16:44:49.21	193.69	14.62	-34.7	-35.2	25.8	0.00e+00	0	41	0	3901751296	42	5896
2026-01-23 16:44:53.24	193.79	14.21	-34.9	-35.5	25.5	0.00e+00	0	41	0	3923771392	42	6100
2026-01-23 16:44:57.28	193.90	13.79	-34.8	-35.4	25.6	0.00e+00	0	41	0	3946840064	42	6017
2026-01-23 16:45:01.33	194.00	13.39	-34.9	-35.5	25.5	0.00e+00	0	41	0	3969908736	42	6065
2026-01-23 16:45:05.36	194.10	12.99	-35.1	-35.7	25.4	0.00e+00	0	41	0	3991928832	42	6196
2026-01-23 16:45:09.40	194.20	12.60	-35.3	-35.9	25.2	0.00e+00	0	41	0	4014997504	42	6335
2026-01-23 16:45:13.45	194.30	12.21	-35.3	-35.9	25.2	0.00e+00	0	41	0	4038066176	42	6346
2026-01-23 16:45:17.49	194.39	11.83	-35.4	-36.0	25.0	0.00e+00	0	41	0	4060086272	42	6444
2026-01-23 16:45:21.53	194.48	11.45	-35.5	-36.3	24.9	0.00e+00	0	41	0	4083154944	42	6624
2026-01-23 16:45:25.57	194.58	11.09	-35.5	-36.2	24.8	0.00e+00	0	41	0	4106223616	42	6581
2026-01-23 16:45:29.61	194.66	10.72	-35.7	-36.5	24.7	0.00e+00	0	41	0	4128243712	44	6067
2026-01-23 16:45:33.65	194.75	10.36	-35.6	-36.4	24.7	0.00e+00	0	41	0	4151312384	44	5993
2026-01-23 16:45:37.69	194.83	10.01	-35.6	-36.4	24.7	0.00e+00	0	41	0	4174381056	44	6008
2026-01-23 16:45:41.73	194.92	9.66	-36.0	-36.7	24.3	0.00e+00	0	41	0	4196401152	44	6210
2026-01-23 16:45:45.77	195.00	9.32	-35.9	-36.7	24.5	0.00e+00	0	41	0	4219469824	44	6204
2026-01-23 16:45:49.80	195.08	8.98	-36.0	-36.6	24.3	0.00e+00	0	41	0	4242538496	44	6160
2026-01-23 16:45:53.84	195.16	8.65	-36.2	-37.0	24.2	0.00e+00	0	41	0	4264558592	44	6410
2026-01-23 16:45:57.88	195.23	8.32	-36.1	-36.8	24.2	0.00e+00	0	41	0	4287627264	44	6267
2026-01-23 16:46:01.92	195.31	7.99	-36.2	-36.8	24.1	0.00e+00	0	41	0	4310695936	44	6298
2026-01-23 16:46:05.97	195.38	7.67	-36.2	-36.9	24.1	0.00e+00	0	41	0	4332716032	44	6320
2026-01-23 16:46:10.01	195.46	7.35	-36.4	-37.1	23.8	0.00e+00	0	41	0	4355784704	44	6511
2026-01-23 16:46:14.05	195.53	7.04	-36.6	-37.4	23.6	0.00e+00	0	41	0	4378853376	44	6731
2026-01-23 16:46:18.09	195.60	6.73	-36.5	-37.2	23.7	0.00e+00	0	41	0	4400873472	44	6545
2026-01-23 16:46:22.13	195.67	6.42	-36.8	-37.6	23.4	0.00e+00	0	41	0	4423942144	46	6136
2026-01-23 16:46:26.17	195.73	6.12	-36.8	-37.7	23.2	0.00e+00	0	41	0	4447010816	46	6181
2026-01-23 16:46:30.20	195.80	5.82	-37.0	-37.8	23.1	0.00e+00	0	41	0	4469030912	46	6300
2026-01-23 16:46:34.23	195.87	5.53	-36.8	-37.6	23.3	0.00e+00	0	41	0	4492099584	46	6147
2026-01-23 16:46:38.28	195.93	5.23	-36.8	-37.7	23.2	0.00e+00	0	41	0	4515168256	46	6175
2026-01-23 16:46:42.32	196.00	4.94	-37.5	-38.2	22.5	0.00e+00	0	41	0	4537188352	48	5874
2026-01-23 16:46:46.35	196.06	4.66	-37.8	-38.5	22.3	0.00e+00	0	41	0	4560257024	48	6090
2026-01-23 16:46:50.39	196.12	4.37	-37.4	-38.1	22.5	0.00e+00	0	41	0	4583325696	48	5810
2026-01-23 16:46:54.43	196.18	4.09	-37.9	-38.6	22.0	0.00e+00	0	41	0	4605345792	48	6132
2026-01-23 16:46:58.47	196.24	3.82	-37.5	-38.4	22.2	0.00e+00	0	41	0	4628414464	48	6003
2026-01-23 16:47:02.51	196.30	3.54	-38.1	-38.9	21.4	0.00e+00	0	41	0	4651483136	48	6324
2026-01-23 16:47:06.55	196.36	3.27	-38.0	-38.8	21.5	0.00e+00	0	41	0	4673503232	48	6290
2026-01-23 16:47:10.59	196.41	3.00	-49.3	-59.1	3.6	6.40e-02	0	41	104	4695523328	60	32413
2026-01-23 16:47:14.62	196.47	2.73	-50.5	-62.6	3.6	8.45e-01	0	41	104	4695523328	60	48983
2026-01-23 16:47:18.66	196.53	2.47	-50.7	-62.9	3.6	8.45e-01	0	41	104	4695523328	60	50197
2026-01-23 16:47:22.70	196.58	2.21	-50.7	-62.9	3.6	8.45e-01	0	41	104	4695523328	60	50581
2026-01-23 16:47:26.75	196.63	1.95	-50.6	-62.9	3.6	8.46e-01	0	41	104	4695523328	60	50690
2026-01-23 16:47:30.78	196.69	1.69	-50.8	-63.0	3.6	8.45e-01	0	41	104	4695523328	60	51047
2026-01-23 16:47:34.82	196.74	1.44	-50.9	-63.0	3.6	8.45e-01	0	41	104	4695523328	60	50782
2026-01-23 16:47:38.86	196.79	1.19	-50.8	-63.0	3.6	8.44e-01	0	41	104	4695523328	60	50785
2026-01-23 16:47:42.90	196.84	0.94	-50.8	-63.0	3.6	8.45e-01	0	41	104	4695523328	60	50800
2026-01-23 16:47:46.94	196.89	0.69	-50.8	-62.9	3.6	8.45e-01	0	41	104	4695523328	60	50756
2026-01-23 16:47:50.98	196.94	0.44	-50.8	-63.0	3.6	8.46e-01	0	41	104	4695523328	60	51049
2026-01-23 16:47:55.02	196.99	0.20	-50.8	-63.0	3.6	8.46e-01	0	41	104	4695523328	60	50777

#Closed at: 2026-01-23 16:47:58
#Recorded file [4695 MB]: D:/lorett/data/35029_260124_043230.dat