passes_logs/2026/01/23/R4.6S_Anadyr/R4.6S_Anadyr__20260123_014949_SUOMI_NPP_rec.log

#Pass ID: 20260123_014949_SUOMI NPP
#Satellite: SUOMI NPP
#Configuration: NPP
#almurnet v.1.7.20251203
#Start time: 2026-01-23 01:49:52

#Version: 2.2.20231116
#Station: R4.6S_Anadyr
#Location: 177.4865 lon 64.73178 lat
#TLE: 1 37849U 11061A   26022.50498765  .00000208  00000+0  11976-3 0  9992
#TLE: 2 37849  98.7820 324.4892 0002275  50.8149 309.3229 14.19528284737775

#Time	Az	El	Level	Level2	SNR	BER	BlckErr	Temp	State	Recorded	gain1	gain2
2026-01-23 01:49:52.67	195.75	0.17	-51.3	-65.1	3.3	1.54e+00	0	40	0	0	60	65201
2026-01-23 01:49:56.71	195.95	0.40	-51.3	-66.5	3.5	1.51e+00	0	40	104	0	60	76828
2026-01-23 01:50:00.75	196.15	0.62	-51.3	-66.5	3.5	1.51e+00	0	40	104	0	60	76834
2026-01-23 01:50:04.78	196.36	0.85	-51.2	-66.4	3.6	1.51e+00	0	40	104	0	60	75876
2026-01-23 01:50:08.82	196.57	1.08	-50.9	-66.1	3.6	1.51e+00	0	40	104	0	60	72708
2026-01-23 01:50:12.86	196.79	1.32	-50.0	-65.3	3.6	1.51e+00	0	40	104	0	60	66282
2026-01-23 01:50:16.90	197.00	1.55	-49.9	-65.1	3.6	1.51e+00	0	40	104	0	60	64915
2026-01-23 01:50:20.94	197.22	1.78	-49.9	-65.1	3.6	1.51e+00	0	40	104	0	60	65153
2026-01-23 01:50:24.98	197.45	2.02	-49.9	-65.1	3.6	1.51e+00	0	40	104	0	60	64931
2026-01-23 01:50:29.03	197.68	2.26	-49.9	-65.1	3.6	1.51e+00	0	40	104	0	60	64881
2026-01-23 01:50:33.06	197.91	2.50	-49.9	-64.9	3.6	1.51e+00	0	40	104	0	60	63873
2026-01-23 01:50:37.11	198.14	2.74	-49.9	-64.0	3.6	1.51e+00	0	40	104	0	60	57488
2026-01-23 01:50:41.14	198.38	2.99	-49.6	-59.8	4.9	1.07e+00	64	40	104	0	60	35247
2026-01-23 01:50:45.19	198.62	3.23	-47.7	-51.7	12.3	1.29e-03	0	41	0	6291456	60	13981
2026-01-23 01:50:49.22	198.87	3.48	-48.8	-54.4	8.7	6.29e-01	92	41	0	13631488	60	19068
2026-01-23 01:50:53.26	199.12	3.73	-45.7	-48.3	16.0	0.00e+00	92	41	0	14680064	60	9349
2026-01-23 01:50:57.30	199.37	3.98	-44.7	-46.7	17.3	0.00e+00	0	41	0	23068672	60	7847
2026-01-23 01:51:01.33	199.63	4.23	-44.5	-46.3	17.7	0.00e+00	0	41	0	30408704	60	7502
2026-01-23 01:51:05.37	199.89	4.49	-44.2	-46.1	17.7	0.00e+00	92	41	0	37748736	60	7270
2026-01-23 01:51:09.41	200.15	4.74	-44.2	-46.0	18.0	0.00e+00	92	41	0	45088768	60	7219
2026-01-23 01:51:13.45	200.43	5.00	-43.9	-45.7	18.0	0.00e+00	0	41	0	52428800	60	6985
2026-01-23 01:51:17.49	200.70	5.26	-44.1	-45.8	18.2	0.00e+00	49	41	0	60817408	60	7044
2026-01-23 01:51:21.52	200.98	5.52	-43.8	-45.3	19.0	0.00e+00	92	41	0	68157440	60	6686
2026-01-23 01:51:25.56	201.27	5.79	-43.6	-45.1	19.0	0.00e+00	92	41	0	75497472	60	6535
2026-01-23 01:51:29.60	201.55	6.06	-43.7	-45.3	19.1	0.00e+00	0	41	0	82837504	60	6625
2026-01-23 01:51:33.64	201.85	6.33	-43.5	-45.0	19.6	0.00e+00	92	41	0	91226112	60	6400
2026-01-23 01:51:37.67	202.15	6.60	-43.4	-44.9	19.8	0.00e+00	92	41	0	98566144	60	6321
2026-01-23 01:51:41.71	202.46	6.87	-43.2	-44.6	19.8	0.00e+00	0	41	0	105906176	60	6123
2026-01-23 01:51:45.75	202.77	7.15	-42.6	-43.9	20.4	0.00e+00	0	41	0	113246208	58	6362
2026-01-23 01:51:49.78	203.08	7.42	-42.9	-44.3	20.2	0.00e+00	92	41	0	120586240	58	6634
2026-01-23 01:51:53.82	203.41	7.70	-42.9	-44.2	20.2	0.00e+00	92	41	0	128974848	58	6566
2026-01-23 01:51:57.86	203.73	7.99	-42.8	-44.1	20.5	0.00e+00	0	41	0	136314880	58	6471
2026-01-23 01:52:01.89	204.07	8.27	-42.8	-44.1	20.4	0.00e+00	0	41	0	143654912	58	6516
2026-01-23 01:52:05.93	204.41	8.56	-42.5	-43.8	20.7	0.00e+00	92	41	0	150994944	58	6265
2026-01-23 01:52:09.97	204.76	8.85	-42.3	-43.5	21.0	0.00e+00	92	41	0	158334976	58	6063
2026-01-23 01:52:14.01	205.11	9.14	-42.0	-43.1	21.3	0.00e+00	0	41	0	166723584	58	5818
2026-01-23 01:52:18.05	205.47	9.44	-41.6	-42.7	21.7	0.00e+00	91	41	0	174063616	56	6227
2026-01-23 01:52:22.08	205.84	9.73	-41.6	-42.7	21.8	0.00e+00	92	41	0	181403648	56	6230
2026-01-23 01:52:26.12	206.22	10.04	-41.4	-42.4	22.0	0.00e+00	77	41	0	188743680	56	6012
2026-01-23 01:52:30.16	206.60	10.34	-41.1	-42.1	22.1	0.00e+00	0	41	0	197132288	56	5821
2026-01-23 01:52:34.20	206.99	10.64	-40.7	-41.7	22.5	0.00e+00	92	41	0	204472320	54	6203
2026-01-23 01:52:38.22	207.39	10.95	-41.1	-42.2	22.2	0.00e+00	92	41	0	211812352	54	6543
2026-01-23 01:52:42.26	207.79	11.26	-40.9	-42.0	22.4	0.00e+00	0	41	0	219152384	54	6396
2026-01-23 01:52:46.30	208.21	11.58	-41.3	-42.4	22.0	0.00e+00	17	41	0	226492416	54	6699
2026-01-23 01:52:50.34	208.63	11.89	-41.1	-42.2	22.2	0.00e+00	91	41	0	234881024	54	6549
2026-01-23 01:52:54.38	209.06	12.21	-40.6	-41.5	22.7	0.00e+00	92	41	0	242221056	54	6085
2026-01-23 01:52:58.42	209.51	12.53	-40.3	-41.2	23.0	0.00e+00	0	41	0	249561088	54	5866
2026-01-23 01:53:02.46	209.96	12.86	-40.5	-41.5	22.8	0.00e+00	91	41	0	256901120	54	6061
2026-01-23 01:53:06.49	210.42	13.18	-40.4	-41.3	22.9	0.00e+00	92	41	0	265289728	54	5946
2026-01-23 01:53:10.53	210.89	13.51	-40.7	-41.7	22.6	0.00e+00	90	41	0	272629760	54	6224
2026-01-23 01:53:14.57	211.37	13.85	-41.1	-42.1	22.3	0.00e+00	0	41	0	279969792	54	6529
2026-01-23 01:53:18.61	211.86	14.18	-41.2	-42.2	22.2	0.00e+00	92	41	0	287309824	54	6611
2026-01-23 01:53:22.65	212.36	14.52	-40.6	-41.5	22.8	0.00e+00	91	41	0	294649856	54	6081
2026-01-23 01:53:26.69	212.88	14.86	-40.9	-41.9	22.5	0.00e+00	0	41	0	303038464	54	6369
2026-01-23 01:53:30.73	213.40	15.21	-41.3	-42.3	22.2	0.00e+00	0	41	0	310378496	54	6679
2026-01-23 01:53:34.76	213.94	15.55	-41.2	-42.3	22.3	0.00e+00	91	41	0	317718528	54	6625
2026-01-23 01:53:38.80	214.49	15.90	-41.1	-42.1	22.5	0.00e+00	92	41	0	325058560	54	6469
2026-01-23 01:53:42.84	215.05	16.25	-41.2	-42.3	22.2	0.00e+00	0	41	0	333447168	54	6623
2026-01-23 01:53:46.88	215.63	16.61	-41.5	-42.6	22.0	0.00e+00	49	41	0	340787200	54	6881
2026-01-23 01:53:50.92	216.21	16.96	-41.7	-42.7	21.9	0.00e+00	91	41	0	348127232	56	6219
2026-01-23 01:53:54.95	216.81	17.32	-41.6	-42.6	22.1	0.00e+00	92	41	0	355467264	56	6170
2026-01-23 01:53:58.99	217.43	17.68	-41.5	-42.6	22.1	0.00e+00	0	41	0	362807296	56	6133
2026-01-23 01:54:03.02	218.06	18.05	-41.3	-42.3	22.3	0.00e+00	38	41	0	371195904	56	5944
2026-01-23 01:54:07.06	218.70	18.41	-40.9	-41.9	22.6	0.00e+00	48	41	0	378535936	56	5677
2026-01-23 01:54:11.10	219.36	18.78	-40.6	-41.6	22.8	0.00e+00	47	41	0	385875968	54	6110
2026-01-23 01:54:15.14	220.04	19.15	-40.6	-41.5	22.9	0.00e+00	0	41	0	393216000	54	6101
2026-01-23 01:54:19.18	220.73	19.52	-40.3	-41.2	23.2	0.00e+00	92	41	0	400556032	54	5883
2026-01-23 01:54:23.22	221.44	19.89	-40.5	-41.4	22.9	0.00e+00	90	41	0	408944640	54	6022
2026-01-23 01:54:27.26	222.17	20.26	-40.1	-41.0	23.3	0.00e+00	0	41	0	416284672	54	5700
2026-01-23 01:54:31.29	222.91	20.63	-40.1	-41.0	23.4	0.00e+00	17	41	0	423624704	54	5707
2026-01-23 01:54:35.33	223.67	21.01	-39.9	-40.8	23.6	0.00e+00	92	41	0	430964736	52	6267
2026-01-23 01:54:39.36	224.45	21.38	-39.4	-40.3	23.8	0.00e+00	92	41	0	439353344	52	5926
2026-01-23 01:54:43.41	225.24	21.76	-39.3	-40.1	24.1	0.00e+00	0	41	0	446693376	52	5812
2026-01-23 01:54:47.44	226.06	22.13	-38.8	-39.6	24.3	0.00e+00	45	41	0	454033408	50	6162
2026-01-23 01:54:51.48	226.89	22.51	-39.0	-39.8	24.2	0.00e+00	92	41	0	461373440	50	6299
2026-01-23 01:54:55.52	227.75	22.88	-40.1	-41.0	23.4	0.00e+00	92	41	0	468713472	52	6454
2026-01-23 01:54:59.56	228.63	23.25	-40.1	-41.0	23.4	0.00e+00	0	41	0	477102080	52	6459
2026-01-23 01:55:03.60	229.52	23.63	-39.9	-40.7	23.5	0.00e+00	92	41	0	484442112	52	6233
2026-01-23 01:55:07.64	230.44	23.99	-39.9	-40.8	23.7	0.00e+00	90	41	0	491782144	52	6253
2026-01-23 01:55:11.68	231.38	24.36	-40.0	-40.8	23.6	0.00e+00	0	41	0	499122176	52	6312
2026-01-23 01:55:15.71	232.34	24.72	-39.2	-40.1	24.2	0.00e+00	0	41	0	507510784	52	5775
2026-01-23 01:55:19.75	233.32	25.08	-39.3	-40.2	24.0	0.00e+00	91	41	0	514850816	52	5830
2026-01-23 01:55:23.79	234.32	25.44	-40.3	-41.3	23.3	0.00e+00	92	41	0	522190848	52	6627
2026-01-23 01:55:27.83	235.35	25.79	-40.2	-41.1	23.5	0.00e+00	0	41	0	529530880	54	5764
2026-01-23 01:55:31.87	236.39	26.14	-39.9	-40.7	23.5	0.00e+00	0	41	0	536870912	52	6244
2026-01-23 01:55:35.90	237.46	26.48	-39.9	-40.8	23.8	0.00e+00	66	41	0	545259520	52	6293
2026-01-23 01:55:39.94	238.55	26.81	-40.0	-40.8	23.7	0.00e+00	92	41	0	552599552	52	6305
2026-01-23 01:55:43.98	239.67	27.14	-39.8	-40.7	23.7	0.00e+00	0	41	0	559939584	52	6211
2026-01-23 01:55:48.02	240.81	27.46	-40.5	-41.4	23.2	0.00e+00	89	41	0	567279616	52	6731
2026-01-23 01:55:52.05	241.96	27.77	-40.3	-41.2	23.3	0.00e+00	51	41	0	575668224	52	6588
2026-01-23 01:55:56.09	243.14	28.07	-40.1	-41.0	23.5	0.00e+00	23	41	0	583008256	52	6441
2026-01-23 01:56:00.13	244.35	28.36	-40.4	-41.3	23.5	0.00e+00	0	41	0	590348288	52	6633
2026-01-23 01:56:04.17	245.57	28.64	-41.5	-42.5	22.4	0.00e+00	92	41	0	597688320	54	6798
2026-01-23 01:56:08.20	246.81	28.91	-40.4	-41.3	23.1	0.00e+00	92	41	0	605028352	54	5960
2026-01-23 01:56:12.24	248.08	29.17	-41.3	-42.3	22.5	0.00e+00	0	41	0	613416960	54	6655
2026-01-23 01:56:16.27	249.36	29.41	-41.5	-42.5	22.4	0.00e+00	0	41	0	620756992	54	6813
2026-01-23 01:56:20.31	250.66	29.64	-42.6	-43.7	21.5	0.00e+00	91	41	0	628097024	56	7001
2026-01-23 01:56:24.35	251.98	29.86	-43.3	-44.6	20.8	0.00e+00	92	41	0	635437056	58	6857
2026-01-23 01:56:28.38	253.32	30.06	-42.9	-44.0	21.2	0.00e+00	0	41	0	643825664	58	6464
2026-01-23 01:56:32.42	254.67	30.24	-43.1	-44.4	21.0	0.00e+00	46	41	0	651165696	58	6698
2026-01-23 01:56:36.46	256.04	30.41	-42.1	-43.1	21.9	0.00e+00	92	41	0	658505728	56	6512
2026-01-23 01:56:40.50	257.42	30.56	-42.6	-43.8	21.3	0.00e+00	92	42	0	665845760	58	6246
2026-01-23 01:56:44.53	258.81	30.70	-41.6	-42.6	22.4	0.00e+00	0	42	0	673185792	56	6107
2026-01-23 01:56:48.57	260.21	30.82	-41.2	-42.1	22.6	0.00e+00	92	42	0	681574400	54	6534
2026-01-23 01:56:52.61	261.62	30.91	-41.6	-42.6	22.5	0.00e+00	95	41	0	688914432	56	6133
2026-01-23 01:56:56.64	263.04	30.99	-40.1	-41.0	23.5	0.00e+00	0	42	0	696254464	54	5742
2026-01-23 01:57:00.67	264.46	31.06	-40.3	-41.1	23.5	0.00e+00	33	42	0	703594496	52	6537
2026-01-23 01:57:04.71	265.89	31.10	-41.9	-42.9	22.2	0.00e+00	92	42	0	710934528	56	6355
2026-01-23 01:57:08.75	267.32	31.12	-42.0	-43.1	21.8	0.00e+00	91	42	0	719323136	56	6487
2026-01-23 01:57:12.78	268.75	31.13	-41.0	-41.9	22.9	0.00e+00	0	42	0	726663168	56	5691
2026-01-23 01:57:16.82	270.19	31.11	-40.9	-41.9	23.0	0.00e+00	53	41	0	734003200	56	5638
2026-01-23 01:57:20.86	271.62	31.08	-40.7	-41.6	22.8	0.00e+00	55	42	0	741343232	54	6151
2026-01-23 01:57:24.90	273.05	31.02	-41.5	-42.5	22.4	0.00e+00	54	42	0	749731840	56	6057
2026-01-23 01:57:28.94	274.47	30.95	-42.5	-43.6	21.6	0.00e+00	0	42	0	757071872	56	6908
2026-01-23 01:57:32.97	275.88	30.86	-41.5	-42.5	22.4	0.00e+00	92	42	0	764411904	56	6077
2026-01-23 01:57:37.02	277.29	30.75	-41.1	-42.1	22.8	0.00e+00	56	42	0	771751936	56	5792
2026-01-23 01:57:41.05	278.68	30.62	-41.9	-42.9	22.2	0.00e+00	0	42	0	779091968	56	6364
2026-01-23 01:57:45.09	280.06	30.47	-42.8	-44.0	21.1	0.00e+00	0	42	0	787480576	58	6414
2026-01-23 01:57:49.13	281.43	30.31	-42.1	-43.1	22.0	0.00e+00	90	42	0	794820608	58	5815
2026-01-23 01:57:53.16	282.79	30.13	-43.6	-44.9	20.4	0.00e+00	92	42	0	802160640	58	7143
2026-01-23 01:57:57.20	284.13	29.94	-44.6	-46.1	19.4	0.00e+00	0	42	0	809500672	60	7312
2026-01-23 01:58:01.24	285.45	29.73	-43.4	-44.6	20.7	0.00e+00	0	42	0	817889280	60	6169
2026-01-23 01:58:05.28	286.76	29.51	-43.5	-44.8	20.5	0.00e+00	92	42	0	825229312	60	6292
2026-01-23 01:58:09.31	288.04	29.27	-42.5	-43.6	21.5	0.00e+00	92	42	0	832569344	58	6121
2026-01-23 01:58:13.35	289.31	29.02	-42.4	-43.4	21.7	0.00e+00	0	42	0	839909376	58	6030
2026-01-23 01:58:17.39	290.56	28.75	-41.6	-42.6	22.4	0.00e+00	46	42	0	847249408	56	6162
2026-01-23 01:58:21.43	291.79	28.48	-42.1	-43.2	21.9	0.00e+00	92	42	0	855638016	56	6545
2026-01-23 01:58:25.47	293.00	28.19	-43.8	-45.1	20.3	0.00e+00	0	42	0	862978048	60	6537
2026-01-23 01:58:29.51	294.18	27.90	-42.7	-43.8	21.4	0.00e+00	0	42	0	870318080	58	6308
2026-01-23 01:58:33.54	295.34	27.59	-44.4	-45.9	19.6	0.00e+00	92	42	0	877658112	60	7128
2026-01-23 01:58:37.58	296.49	27.28	-44.3	-45.7	19.8	0.00e+00	92	42	0	886046720	60	6978
2026-01-23 01:58:41.61	297.60	26.96	-43.8	-45.1	20.2	0.00e+00	0	42	0	893386752	60	6505
2026-01-23 01:58:45.65	298.70	26.63	-43.0	-44.2	21.1	0.00e+00	0	42	0	900726784	60	5845
2026-01-23 01:58:49.69	299.78	26.29	-43.5	-44.7	20.6	0.00e+00	27	42	0	908066816	60	6224
2026-01-23 01:58:53.73	300.83	25.95	-43.5	-44.8	20.7	0.00e+00	84	42	0	915406848	60	6285
2026-01-23 01:58:57.77	301.86	25.60	-43.0	-44.1	21.1	0.00e+00	0	42	0	923795456	60	5815
2026-01-23 01:59:01.81	302.87	25.25	-42.4	-43.5	21.6	0.00e+00	0	42	0	931135488	58	6071
2026-01-23 01:59:05.84	303.85	24.90	-42.1	-43.2	21.9	0.00e+00	92	42	0	938475520	56	6571
2026-01-23 01:59:09.88	304.82	24.54	-41.1	-42.1	22.9	0.00e+00	0	42	0	945815552	56	5767
2026-01-23 01:59:13.92	305.76	24.17	-42.3	-43.3	21.8	0.00e+00	0	42	0	954204160	56	6691
2026-01-23 01:59:17.96	306.69	23.81	-40.6	-41.5	23.1	0.00e+00	91	42	0	961544192	54	6081
2026-01-23 01:59:22.00	307.59	23.44	-42.1	-43.1	21.9	0.00e+00	60	42	0	968884224	56	6537
2026-01-23 01:59:26.04	308.47	23.07	-41.2	-42.1	22.8	0.00e+00	0	42	0	976224256	56	5817
2026-01-23 01:59:30.08	309.33	22.70	-40.5	-41.4	23.3	0.00e+00	0	42	0	983564288	54	5976
2026-01-23 01:59:34.11	310.17	22.33	-39.3	-40.1	24.3	0.00e+00	47	41	0	991952896	52	5802
2026-01-23 01:59:38.15	310.99	21.96	-42.7	-43.8	21.3	0.00e+00	92	41	0	999292928	56	7076
2026-01-23 01:59:42.19	311.79	21.58	-42.9	-44.0	21.2	0.00e+00	0	41	0	1006632960	60	5752
2026-01-23 01:59:46.22	312.57	21.21	-41.1	-42.0	22.7	0.00e+00	0	41	0	1013972992	56	5741
2026-01-23 01:59:50.26	313.34	20.84	-40.7	-41.7	23.1	0.00e+00	48	42	0	1021313024	56	5514
2026-01-23 01:59:54.30	314.09	20.47	-39.4	-40.2	23.9	0.00e+00	0	41	0	1029701632	52	5888
2026-01-23 01:59:58.33	314.81	20.10	-40.7	-41.6	23.1	0.00e+00	0	41	0	1037041664	54	6157
2026-01-23 02:00:02.37	315.53	19.73	-40.4	-41.3	23.2	0.00e+00	47	41	0	1044381696	54	5939
2026-01-23 02:00:06.41	316.22	19.36	-41.4	-42.4	22.4	0.00e+00	92	41	0	1051721728	54	6728
2026-01-23 02:00:10.45	316.91	19.00	-40.8	-41.8	22.4	0.00e+00	0	41	0	1060110336	54	6282
2026-01-23 02:00:14.48	317.57	18.63	-39.9	-40.8	23.4	0.00e+00	0	41	0	1067450368	54	5602
2026-01-23 02:00:18.52	318.22	18.27	-39.7	-40.6	23.8	0.00e+00	65	41	0	1074790400	52	6139
2026-01-23 02:00:22.56	318.85	17.91	-39.6	-40.5	23.8	0.00e+00	92	41	0	1082130432	52	6048
2026-01-23 02:00:26.59	319.47	17.55	-39.7	-40.6	23.7	0.00e+00	0	41	0	1089470464	52	6144
2026-01-23 02:00:30.63	320.08	17.19	-39.8	-40.7	23.7	0.00e+00	0	41	0	1097859072	52	6175
2026-01-23 02:00:34.67	320.67	16.84	-40.1	-41.0	23.4	0.00e+00	40	41	0	1105199104	52	6420
2026-01-23 02:00:38.70	321.25	16.49	-39.8	-40.7	23.5	0.00e+00	0	41	0	1112539136	52	6218
2026-01-23 02:00:42.74	321.82	16.14	-39.8	-40.7	23.6	0.00e+00	0	41	0	1119879168	52	6223
2026-01-23 02:00:46.78	322.37	15.79	-40.2	-41.2	23.3	0.00e+00	8	41	0	1128267776	52	6556
2026-01-23 02:00:50.82	322.91	15.44	-40.1	-41.0	23.3	0.00e+00	70	41	0	1135607808	52	6426
2026-01-23 02:00:54.85	323.44	15.10	-39.6	-40.5	23.8	0.00e+00	0	41	0	1142947840	52	6076
2026-01-23 02:00:58.89	323.96	14.76	-40.3	-41.3	23.0	0.00e+00	0	41	0	1150287872	52	6632
2026-01-23 02:01:02.92	324.47	14.43	-40.9	-41.9	22.5	0.00e+00	75	41	0	1157627904	54	6358
2026-01-23 02:01:06.96	324.96	14.09	-41.2	-42.2	22.3	0.00e+00	92	41	0	1166016512	54	6606
2026-01-23 02:01:11.00	325.45	13.76	-40.8	-41.8	22.7	0.00e+00	0	41	0	1173356544	54	6260
2026-01-23 02:01:15.04	325.92	13.43	-41.3	-42.3	22.3	0.00e+00	0	41	0	1180696576	54	6637
2026-01-23 02:01:19.08	326.39	13.10	-42.4	-43.5	21.2	0.00e+00	39	41	0	1188036608	56	6839
2026-01-23 02:01:23.12	326.84	12.78	-42.5	-43.7	21.2	0.00e+00	0	41	0	1196425216	56	6937
2026-01-23 02:01:27.15	327.29	12.46	-42.1	-43.2	21.6	0.00e+00	0	41	0	1203765248	56	6583
2026-01-23 02:01:31.19	327.73	12.14	-42.1	-43.2	21.4	0.00e+00	0	41	0	1211105280	56	6597
2026-01-23 02:01:35.23	328.15	11.83	-42.4	-43.7	21.1	0.00e+00	84	41	0	1218445312	56	6939
2026-01-23 02:01:39.27	328.57	11.51	-42.1	-43.2	21.5	0.00e+00	0	41	0	1225785344	56	6595
2026-01-23 02:01:43.30	328.98	11.21	-41.2	-42.2	22.2	0.00e+00	0	41	0	1234173952	56	5861
2026-01-23 02:01:47.34	329.39	10.90	-41.1	-42.1	22.3	0.00e+00	44	41	0	1241513984	56	5818
2026-01-23 02:01:51.38	329.78	10.59	-41.5	-42.5	21.9	0.00e+00	0	41	0	1248854016	56	6082
2026-01-23 02:01:55.42	330.17	10.29	-42.3	-43.4	21.2	0.00e+00	0	41	0	1256194048	56	6756
2026-01-23 02:01:59.45	330.55	9.99	-42.7	-44.0	20.7	0.00e+00	0	41	0	1264582656	58	6419
2026-01-23 02:02:03.48	330.92	9.70	-42.8	-44.0	20.7	0.00e+00	75	41	0	1271922688	58	6447
2026-01-23 02:02:07.53	331.29	9.40	-43.2	-44.6	20.2	0.00e+00	0	41	0	1279262720	58	6877
2026-01-23 02:02:11.56	331.64	9.11	-42.1	-43.2	21.3	0.00e+00	0	41	0	1286602752	58	5892
2026-01-23 02:02:15.61	332.00	8.82	-42.1	-43.2	21.2	0.00e+00	0	41	0	1293942784	58	5894
2026-01-23 02:02:19.64	332.34	8.53	-41.5	-42.6	21.9	0.00e+00	92	41	0	1302331392	56	6114
2026-01-23 02:02:23.68	332.68	8.25	-42.0	-43.1	21.3	0.00e+00	0	41	0	1309671424	56	6519
2026-01-23 02:02:27.72	333.01	7.97	-41.9	-43.1	21.4	0.00e+00	0	41	0	1317011456	56	6465
2026-01-23 02:02:31.76	333.34	7.69	-41.5	-42.6	21.8	0.00e+00	38	41	0	1324351488	56	6160
2026-01-23 02:02:35.80	333.66	7.41	-41.9	-43.0	21.4	0.00e+00	4	41	0	1332740096	56	6433
2026-01-23 02:02:39.84	333.98	7.14	-41.9	-43.1	21.4	0.00e+00	0	41	0	1340080128	56	6494
2026-01-23 02:02:43.87	334.29	6.86	-42.3	-43.5	20.7	0.00e+00	0	41	0	1347420160	56	6838
2026-01-23 02:02:47.91	334.59	6.59	-42.5	-43.9	20.4	0.00e+00	70	41	0	1354760192	58	6318
2026-01-23 02:02:51.95	334.89	6.33	-43.5	-45.0	19.3	0.00e+00	0	41	0	1362100224	58	7232
2026-01-23 02:02:55.99	335.19	6.06	-44.1	-45.9	18.2	0.00e+00	0	41	0	1370488832	60	7138
2026-01-23 02:03:00.02	335.47	5.80	-44.2	-46.2	17.3	0.00e+00	0	41	0	1377828864	60	7382
2026-01-23 02:03:04.06	335.76	5.53	-44.8	-47.3	15.9	0.00e+00	44	41	0	1385168896	60	8366
2026-01-23 02:03:08.10	336.04	5.27	-45.4	-49.0	13.3	1.22e-05	33	41	0	1392508928	60	10149
2026-01-23 02:03:12.13	336.31	5.02	-46.2	-51.5	9.5	5.92e-03	0	41	0	1399848960	60	13655
2026-01-23 02:03:16.17	336.58	4.76	-46.5	-53.6	6.9	1.20e-01	9	41	0	1408237568	60	17351
2026-01-23 02:03:20.21	336.85	4.51	-46.5	-54.9	5.3	4.81e-01	91	41	0	1415577600	60	20116
2026-01-23 02:03:24.25	337.11	4.25	-46.5	-56.6	3.9	1.31e+00	43	41	0	1422917632	60	24543
2026-01-23 02:03:28.28	337.37	4.01	-46.5	-59.7	3.6	1.50e+00	0	41	104	1422917632	60	34962
2026-01-23 02:03:32.32	337.62	3.76	-46.5	-60.9	3.6	1.51e+00	0	41	104	1422917632	60	40036
2026-01-23 02:03:36.36	337.87	3.51	-46.6	-61.1	3.6	1.51e+00	0	41	104	1422917632	60	41236
2026-01-23 02:03:40.40	338.12	3.27	-46.4	-61.6	3.6	1.51e+00	0	41	104	1422917632	60	43536
2026-01-23 02:03:44.43	338.36	3.02	-46.5	-61.8	3.6	1.51e+00	0	41	104	1422917632	60	44268
2026-01-23 02:03:48.47	338.60	2.78	-51.2	-66.4	3.6	1.51e+00	0	41	104	1422917632	60	75611
2026-01-23 02:03:52.51	338.84	2.54	-51.6	-66.8	3.6	1.51e+00	0	41	104	1422917632	60	79117
2026-01-23 02:03:56.55	339.07	2.31	-51.7	-67.0	3.6	1.51e+00	0	41	104	1422917632	60	80623
2026-01-23 02:04:00.59	339.30	2.07	-51.6	-66.8	3.6	1.51e+00	0	41	104	1422917632	60	79500
2026-01-23 02:04:04.62	339.52	1.84	-51.5	-66.8	3.6	1.51e+00	0	41	104	1422917632	60	79136
2026-01-23 02:04:08.66	339.75	1.60	-51.6	-66.8	3.6	1.51e+00	0	41	104	1422917632	60	78852
2026-01-23 02:04:12.70	339.97	1.37	-51.6	-66.8	3.6	1.51e+00	0	41	104	1422917632	60	79069
2026-01-23 02:04:16.74	340.18	1.14	-51.6	-66.8	3.6	1.51e+00	0	41	104	1422917632	60	79125
2026-01-23 02:04:20.78	340.39	0.91	-51.5	-66.8	3.6	1.51e+00	0	41	104	1422917632	60	78698
2026-01-23 02:04:24.82	340.60	0.69	-51.5	-66.8	3.6	1.51e+00	0	41	104	1422917632	60	78801
2026-01-23 02:04:28.86	340.81	0.46	-51.6	-66.7	3.6	1.51e+00	0	41	104	1422917632	60	78512
2026-01-23 02:04:32.90	341.02	0.24	-51.6	-66.8	3.6	1.51e+00	0	41	104	1422917632	60	78956
2026-01-23 02:04:36.94	341.22	0.02	-51.5	-66.8	3.6	1.51e+00	0	41	104	1422917632	60	78791

#Closed at: 2026-01-23 02:04:39
#Recorded file [1422 MB]: D:/lorett/data/35029_260123_134952.dat