passes_logs/2026/01/23/R4.6S_Anadyr/R4.6S_Anadyr__20260123_223644_TY-42_rec.log

#Pass ID: 20260123_223644_TY-42
#Satellite: TY-42
#Configuration: TY-42_900M
#almurnet v.1.7.20251203
#Start time: 2026-01-23 22:37:16

#Version: 2.2.20231116
#Station: R4.6S_Anadyr
#Location: 177.4865 lon 64.73178 lat
#TLE: 1 64048U 25103A   26023.66790509  .00008008  00000-0  38191-3 0 09999
#TLE: 2 64048 097.4117 098.9223 0001893 091.9782 302.8981 15.19160197 38139

#Time	Az	El	Level	Level2	SNR	BER	BlckErr	Temp	State	Recorded	gain1	gain2
2026-01-23 22:37:16.16	21.14	1.99	-51.7	-53.0	3.4	0.00e+00	0	40	0	0	60	54670
2026-01-23 22:37:19.10	21.30	2.18	-50.2	-52.6	6.1	0.00e+00	0	41	104	0	60	52421
2026-01-23 22:37:22.03	21.47	2.38	-50.2	-52.6	6.1	0.00e+00	0	41	104	0	60	52434
2026-01-23 22:37:24.97	21.64	2.58	-50.2	-52.7	6.1	0.00e+00	0	42	104	0	60	52557
2026-01-23 22:37:27.91	21.81	2.78	-50.2	-52.6	6.1	0.00e+00	0	42	104	0	60	52530
2026-01-23 22:37:30.85	21.99	2.98	-50.2	-52.6	6.1	0.00e+00	0	42	104	0	60	52333
2026-01-23 22:37:33.80	22.17	3.18	-50.2	-52.7	6.1	0.00e+00	0	42	104	0	60	52731
2026-01-23 22:37:36.74	22.35	3.39	-50.2	-52.6	6.0	0.00e+00	0	42	104	0	60	52548
2026-01-23 22:37:39.68	22.54	3.59	-50.2	-52.6	6.1	0.00e+00	0	42	104	0	60	52534
2026-01-23 22:37:42.61	22.72	3.80	-50.2	-52.6	6.1	0.00e+00	0	42	104	0	60	52372
2026-01-23 22:37:45.56	22.92	4.01	-50.5	-53.0	6.1	0.00e+00	0	42	104	0	60	54413
2026-01-23 22:37:48.51	23.11	4.23	-50.3	-52.8	6.1	0.00e+00	0	42	104	0	60	53660
2026-01-23 22:37:51.45	23.31	4.44	-50.3	-52.7	6.1	0.00e+00	0	42	104	0	60	52883
2026-01-23 22:37:54.38	23.51	4.66	-50.4	-52.8	6.1	0.00e+00	0	42	104	0	60	53326
2026-01-23 22:37:57.33	23.72	4.88	-50.4	-52.9	6.1	0.00e+00	0	42	104	0	60	53886
2026-01-23 22:38:00.27	23.92	5.10	-50.4	-52.8	6.1	0.00e+00	0	42	104	0	60	53644
2026-01-23 22:38:03.20	24.14	5.32	-50.4	-52.9	6.1	0.00e+00	0	42	104	0	60	53870
2026-01-23 22:38:06.14	24.35	5.55	-50.5	-53.0	6.1	0.00e+00	0	42	104	0	60	54906
2026-01-23 22:38:09.09	24.57	5.78	-50.7	-53.1	6.1	0.00e+00	0	42	104	0	60	55551
2026-01-23 22:38:12.01	24.80	6.00	-50.5	-53.0	6.1	0.00e+00	0	43	104	0	60	54900
2026-01-23 22:38:14.96	25.03	6.24	-50.5	-53.0	6.1	0.00e+00	0	42	104	0	60	54793
2026-01-23 22:38:17.89	25.26	6.47	-50.7	-53.1	6.1	0.00e+00	0	42	104	0	60	55478
2026-01-23 22:38:20.84	25.50	6.71	-50.8	-53.2	6.0	0.00e+00	0	43	104	0	60	55818
2026-01-23 22:38:23.77	25.74	6.95	-50.6	-53.1	6.1	0.00e+00	0	43	104	0	60	55296
2026-01-23 22:38:26.72	25.99	7.19	-50.6	-53.1	6.1	0.00e+00	0	43	104	0	60	55396
2026-01-23 22:38:29.65	26.24	7.44	-50.8	-53.3	6.1	0.00e+00	0	43	104	0	60	56361
2026-01-23 22:38:32.59	26.49	7.69	-50.8	-53.3	6.1	0.00e+00	0	43	104	0	60	56455
2026-01-23 22:38:35.52	26.75	7.94	-50.7	-53.2	6.1	0.00e+00	0	43	104	0	60	55930
2026-01-23 22:38:38.45	27.02	8.19	-50.8	-53.2	6.1	0.00e+00	0	43	104	0	60	56222
2026-01-23 22:38:41.38	27.29	8.45	-50.9	-53.3	6.1	0.00e+00	0	43	104	0	60	56830
2026-01-23 22:38:44.31	27.57	8.71	-50.8	-53.3	6.1	0.00e+00	0	43	104	0	60	56664
2026-01-23 22:38:47.25	27.86	8.97	-50.8	-53.3	6.1	0.00e+00	0	43	104	0	60	56325
2026-01-23 22:38:50.19	28.15	9.24	-50.8	-53.3	6.1	0.00e+00	0	43	104	0	60	56459
2026-01-23 22:38:53.13	28.44	9.51	-51.0	-53.4	6.1	0.00e+00	0	43	104	0	60	57253
2026-01-23 22:38:56.06	28.75	9.78	-50.8	-53.3	6.1	0.00e+00	0	43	104	0	60	56596
2026-01-23 22:38:58.99	29.06	10.06	-49.9	-52.5	6.1	0.00e+00	0	43	104	0	60	51827
2026-01-23 22:39:01.93	29.37	10.34	-50.4	-53.0	6.1	0.00e+00	0	43	104	0	60	54742
2026-01-23 22:39:04.87	29.70	10.62	-50.9	-53.4	6.1	0.00e+00	0	43	104	0	60	57007
2026-01-23 22:39:07.80	30.03	10.91	-51.0	-53.4	6.1	0.00e+00	0	43	104	0	60	57570
2026-01-23 22:39:10.75	30.37	11.20	-49.9	-52.5	6.1	0.00e+00	0	43	104	0	60	51868
2026-01-23 22:39:13.71	30.72	11.50	-50.4	-53.0	6.1	0.00e+00	0	43	104	0	60	54485
2026-01-23 22:39:16.65	31.08	11.80	-51.0	-53.5	6.1	0.00e+00	0	43	104	0	60	58196
2026-01-23 22:39:19.58	31.44	12.10	-50.8	-53.3	6.1	0.00e+00	0	43	104	0	60	56668
2026-01-23 22:39:22.53	31.82	12.41	-51.0	-53.5	6.1	0.00e+00	0	43	104	0	60	57877
2026-01-23 22:39:25.48	32.20	12.72	-51.1	-53.5	6.1	0.00e+00	0	43	104	0	60	58196
2026-01-23 22:39:28.41	32.59	13.03	-51.0	-53.4	6.1	0.00e+00	0	43	104	0	60	57524
2026-01-23 22:39:31.36	33.00	13.36	-51.2	-53.7	6.1	0.00e+00	0	43	104	0	60	59054
2026-01-23 22:39:34.30	33.41	13.68	-51.2	-53.7	6.1	0.00e+00	0	43	104	0	60	59218
2026-01-23 22:39:37.24	33.83	14.01	-33.3	-33.7	15.0	3.55e-02	0	43	0	58720256	42	16725
2026-01-23 22:39:40.19	34.27	14.34	-31.8	-32.1	13.3	2.47e-02	619	43	104	117440512	40	15556
2026-01-23 22:39:43.13	34.71	14.68	-32.2	-32.6	15.6	0.00e+00	0	43	0	218103808	40	16565
2026-01-23 22:39:46.07	35.17	15.03	-28.0	-28.4	16.8	9.96e-03	0	43	0	545259520	32	16072
2026-01-23 22:39:49.00	35.64	15.37	-26.8	-27.2	16.9	3.26e-05	0	43	0	880803840	30	15813
2026-01-23 22:39:51.94	36.12	15.73	-25.9	-26.3	17.1	0.00e+00	0	43	0	1207959552	28	16045
2026-01-23 22:39:54.89	36.62	16.09	-25.8	-26.3	17.0	0.00e+00	0	44	0	1543503872	26	17856
2026-01-23 22:39:57.83	37.13	16.45	-25.7	-26.2	17.0	0.00e+00	0	44	0	1870659584	26	17650
2026-01-23 22:40:00.77	37.66	16.82	-25.5	-25.9	16.8	0.00e+00	0	44	0	2197815296	26	17187
2026-01-23 22:40:03.71	38.19	17.19	-25.3	-25.7	17.0	0.00e+00	0	44	0	2533359616	26	16799
2026-01-23 22:40:06.65	38.75	17.57	-25.2	-25.7	17.1	0.00e+00	0	44	0	2860515328	26	16688
2026-01-23 22:40:09.59	39.32	17.95	-25.0	-25.5	17.1	0.00e+00	0	44	0	3196059648	26	16335
2026-01-23 22:40:12.53	39.91	18.34	-25.0	-25.4	17.1	0.00e+00	0	44	0	3531603968	26	16225
2026-01-23 22:40:15.48	40.51	18.74	-25.0	-25.4	17.1	0.00e+00	0	44	0	3858759680	26	16231
2026-01-23 22:40:18.43	41.14	19.14	-24.7	-25.1	17.3	0.00e+00	0	44	0	4194304000	26	15616
2026-01-23 22:40:21.37	41.78	19.54	-24.8	-25.2	17.2	0.00e+00	0	44	0	4521459712	24	17751
2026-01-23 22:40:24.31	42.44	19.95	-24.2	-24.7	17.2	0.00e+00	0	44	0	4848615424	24	16682
2026-01-23 22:40:27.24	43.12	20.36	-24.2	-24.7	17.2	0.00e+00	0	44	0	5184159744	24	16644
2026-01-23 22:40:30.18	43.82	20.78	-24.3	-24.7	17.2	0.00e+00	0	44	0	5511315456	24	16804
2026-01-23 22:40:33.12	44.55	21.21	-24.0	-24.4	17.2	0.00e+00	0	44	0	5838471168	24	16175
2026-01-23 22:40:36.05	45.29	21.64	-23.7	-24.2	17.3	0.00e+00	0	44	0	6174015488	22	17631
2026-01-23 22:40:38.99	46.06	22.07	-23.6	-24.0	17.4	0.00e+00	0	44	0	6501171200	22	17383
2026-01-23 22:40:41.92	46.85	22.51	-23.2	-23.6	17.4	0.00e+00	0	44	0	6828326912	22	16617
2026-01-23 22:40:44.86	47.67	22.95	-23.1	-23.5	17.4	0.00e+00	0	44	0	7163871232	22	16409
2026-01-23 22:40:47.80	48.52	23.40	-22.9	-23.4	17.3	0.00e+00	0	44	0	7491026944	22	16139
2026-01-23 22:40:50.74	49.39	23.85	-22.7	-23.2	17.4	0.00e+00	0	44	0	7826571264	20	17688
2026-01-23 22:40:53.68	50.29	24.30	-22.5	-22.9	17.4	0.00e+00	0	44	0	8153726976	20	17191
2026-01-23 22:40:56.62	51.22	24.76	-22.5	-23.0	17.5	0.00e+00	0	44	0	8480882688	20	17250
2026-01-23 22:40:59.56	52.18	25.21	-22.3	-22.8	17.5	0.00e+00	0	44	0	8816427008	20	16819
2026-01-23 22:41:02.50	53.17	25.67	-22.0	-22.5	17.5	0.00e+00	0	44	0	9143582720	20	16256
2026-01-23 22:41:05.45	54.20	26.14	-51.4	-53.9	6.1	0.00e+00	0	44	104	9244246016	60	60538
2026-01-23 22:41:08.39	55.25	26.60	-50.1	-52.8	6.1	0.00e+00	0	44	104	9244246016	60	53405
2026-01-23 22:41:11.33	56.34	27.06	-51.5	-54.0	6.1	0.00e+00	0	44	104	9244246016	60	61254
2026-01-23 22:41:14.28	57.47	27.52	-51.3	-53.8	6.1	0.00e+00	0	44	104	9244246016	60	60172
2026-01-23 22:41:17.21	58.63	27.98	-51.5	-54.0	6.1	0.00e+00	0	44	104	9244246016	60	61110
2026-01-23 22:41:20.15	59.82	28.43	-51.4	-53.9	6.1	0.00e+00	0	44	104	9244246016	60	60418
2026-01-23 22:41:23.09	61.06	28.89	-49.5	-52.2	6.1	0.00e+00	0	44	104	9244246016	60	50104
2026-01-23 22:41:26.03	62.33	29.33	-51.1	-53.7	6.1	0.00e+00	0	44	104	9244246016	60	59211
2026-01-23 22:41:28.97	63.64	29.77	-51.6	-54.0	6.1	0.00e+00	0	44	104	9244246016	60	61370
2026-01-23 22:41:31.91	64.98	30.20	-51.5	-54.0	6.1	0.00e+00	0	44	104	9244246016	60	61272
2026-01-23 22:41:34.86	66.37	30.63	-51.4	-53.9	6.1	0.00e+00	0	44	104	9244246016	60	60402
2026-01-23 22:41:37.79	67.80	31.04	-51.3	-53.8	6.1	0.00e+00	0	44	104	9244246016	60	60251
2026-01-23 22:41:40.74	69.26	31.44	-51.5	-53.9	6.1	0.00e+00	0	44	104	9244246016	60	60775
2026-01-23 22:41:43.68	70.77	31.83	-51.6	-54.1	6.1	0.00e+00	0	44	104	9244246016	60	61783
2026-01-23 22:41:46.61	72.30	32.20	-51.5	-54.0	6.1	0.00e+00	0	44	104	9244246016	60	61571
2026-01-23 22:41:49.55	73.88	32.56	-51.5	-54.0	6.1	0.00e+00	0	44	104	9244246016	60	61409
2026-01-23 22:41:52.49	75.50	32.90	-51.6	-54.0	6.1	0.00e+00	0	44	104	9244246016	60	61559
2026-01-23 22:41:55.43	77.15	33.21	-51.4	-53.9	6.1	0.00e+00	0	44	104	9244246016	60	60950
2026-01-23 22:41:58.37	78.83	33.51	-51.6	-54.1	6.1	0.00e+00	0	44	104	9244246016	60	62098
2026-01-23 22:42:01.31	80.55	33.78	-51.5	-54.0	6.1	0.00e+00	0	44	104	9244246016	60	61044
2026-01-23 22:42:04.25	82.29	34.03	-50.9	-53.5	6.1	0.00e+00	0	44	104	9244246016	60	57738
2026-01-23 22:42:07.20	84.07	34.25	-50.5	-53.2	6.1	0.00e+00	0	44	104	9244246016	60	55679
2026-01-23 22:42:10.13	85.86	34.45	-51.4	-53.9	6.1	0.00e+00	0	44	104	9244246016	60	60533
2026-01-23 22:42:13.08	87.68	34.61	-50.8	-53.4	6.1	0.00e+00	0	44	104	9244246016	60	57584
2026-01-23 22:42:16.02	89.52	34.75	-51.4	-54.0	6.1	0.00e+00	0	44	104	9244246016	60	61159
2026-01-23 22:42:18.98	91.38	34.86	-51.5	-54.0	6.1	0.00e+00	0	44	104	9244246016	60	61332
2026-01-23 22:42:21.92	93.24	34.93	-51.6	-54.0	6.1	0.00e+00	0	44	104	9244246016	60	61624
2026-01-23 22:42:24.86	95.11	34.97	-51.4	-53.9	6.1	0.00e+00	0	44	104	9244246016	60	60570
2026-01-23 22:42:27.80	96.98	34.99	-51.5	-54.0	6.1	0.00e+00	0	44	104	9244246016	60	61071
2026-01-23 22:42:30.74	98.85	34.96	-51.5	-54.0	6.1	0.00e+00	0	44	104	9244246016	60	61223
2026-01-23 22:42:33.69	100.72	34.91	-51.4	-53.9	6.1	0.00e+00	0	44	104	9244246016	60	60953
2026-01-23 22:42:36.63	102.58	34.82	-51.4	-53.9	6.1	0.00e+00	0	44	104	9244246016	60	60666
2026-01-23 22:42:39.55	104.42	34.71	-51.3	-53.8	6.1	0.00e+00	0	44	104	9244246016	60	60326
2026-01-23 22:42:42.49	106.25	34.56	-51.5	-53.9	6.1	0.00e+00	0	44	104	9244246016	60	60852
2026-01-23 22:42:45.43	108.06	34.39	-51.4	-53.9	6.1	0.00e+00	0	44	104	9244246016	60	60838
2026-01-23 22:42:48.37	109.85	34.18	-51.5	-54.0	6.1	0.00e+00	0	44	104	9244246016	60	61129
2026-01-23 22:42:51.30	111.61	33.95	-51.4	-53.9	6.1	0.00e+00	0	44	104	9244246016	60	60636
2026-01-23 22:42:54.24	113.35	33.69	-51.4	-53.8	6.1	0.00e+00	0	44	104	9244246016	60	60052
2026-01-23 22:42:57.19	115.07	33.41	-51.5	-53.9	6.1	0.00e+00	0	44	104	9244246016	60	61014
2026-01-23 22:43:00.13	116.74	33.11	-51.5	-53.9	6.1	0.00e+00	0	44	104	9244246016	60	60855
2026-01-23 22:43:03.07	118.39	32.78	-51.4	-53.9	6.1	0.00e+00	0	44	104	9244246016	60	60516
2026-01-23 22:43:06.01	119.99	32.44	-51.5	-53.9	6.1	0.00e+00	0	44	104	9244246016	60	60978
2026-01-23 22:43:08.95	121.56	32.07	-51.5	-53.9	6.1	0.00e+00	0	44	104	9244246016	60	61029
2026-01-23 22:43:11.89	123.10	31.69	-51.5	-54.0	6.1	0.00e+00	0	44	104	9244246016	60	61485
2026-01-23 22:43:14.83	124.59	31.30	-51.5	-54.0	6.1	0.00e+00	0	44	104	9244246016	60	61261
2026-01-23 22:43:17.76	126.04	30.89	-51.5	-53.9	6.1	0.00e+00	0	44	104	9244246016	60	61030
2026-01-23 22:43:20.70	127.46	30.47	-51.4	-53.9	6.1	0.00e+00	0	44	104	9244246016	60	60558
2026-01-23 22:43:23.65	128.84	30.04	-51.5	-54.0	6.1	0.00e+00	0	44	104	9244246016	60	61208
2026-01-23 22:43:26.58	130.18	29.61	-51.5	-53.9	6.1	0.00e+00	0	44	104	9244246016	60	61032
2026-01-23 22:43:29.53	131.48	29.16	-51.5	-54.0	6.1	0.00e+00	0	44	104	9244246016	60	61099
2026-01-23 22:43:32.47	132.74	28.71	-51.5	-53.9	6.1	0.00e+00	0	44	104	9244246016	60	60990
2026-01-23 22:43:35.41	133.97	28.26	-51.4	-54.0	6.1	0.00e+00	0	44	104	9244246016	60	61162
2026-01-23 22:43:38.36	135.16	27.80	-51.4	-53.9	6.1	0.00e+00	0	44	104	9244246016	60	60727
2026-01-23 22:43:41.29	136.31	27.33	-51.3	-53.8	6.1	0.00e+00	0	44	104	9244246016	60	60252
2026-01-23 22:43:44.24	137.43	26.87	-51.4	-53.8	6.1	0.00e+00	0	44	104	9244246016	60	60262
2026-01-23 22:43:47.17	138.51	26.41	-51.4	-53.9	6.1	0.00e+00	0	44	104	9244246016	60	60427
2026-01-23 22:43:50.10	139.55	25.94	-51.1	-53.6	6.1	0.00e+00	0	44	104	9244246016	60	58855
2026-01-23 22:43:53.05	140.57	25.48	-51.2	-53.8	6.1	0.00e+00	0	44	104	9244246016	60	59652
2026-01-23 22:43:55.99	141.56	25.02	-51.2	-53.7	6.1	0.00e+00	0	44	104	9244246016	60	59104
2026-01-23 22:43:58.92	142.51	24.56	-51.2	-53.7	6.1	0.00e+00	0	44	104	9244246016	60	59549
2026-01-23 22:44:01.86	143.43	24.10	-51.3	-53.8	6.1	0.00e+00	0	44	104	9244246016	60	59828
2026-01-23 22:44:04.80	144.32	23.64	-51.2	-53.7	6.1	0.00e+00	0	44	104	9244246016	60	59425
2026-01-23 22:44:07.73	145.19	23.19	-51.3	-53.8	6.1	0.00e+00	0	44	104	9244246016	60	59687
2026-01-23 22:44:10.66	146.02	22.75	-51.3	-53.8	6.1	0.00e+00	0	44	104	9244246016	60	59686
2026-01-23 22:44:13.61	146.84	22.30	-51.3	-53.8	6.1	0.00e+00	0	44	104	9244246016	60	60128
2026-01-23 22:44:16.55	147.63	21.86	-51.3	-53.8	6.1	0.00e+00	0	44	104	9244246016	60	59695
2026-01-23 22:44:19.49	148.39	21.43	-51.3	-53.7	6.1	0.00e+00	0	44	104	9244246016	60	59629
2026-01-23 22:44:22.42	149.13	21.00	-51.4	-53.8	6.1	0.00e+00	0	44	104	9244246016	60	60236
2026-01-23 22:44:25.36	149.85	20.57	-51.2	-53.8	6.1	0.00e+00	0	44	104	9244246016	60	59775
2026-01-23 22:44:28.30	150.55	20.15	-51.3	-53.7	6.1	0.00e+00	0	44	104	9244246016	60	59468
2026-01-23 22:44:31.24	151.22	19.74	-51.3	-53.8	6.1	0.00e+00	0	44	104	9244246016	60	59765
2026-01-23 22:44:34.19	151.88	19.32	-51.3	-53.8	6.1	0.00e+00	0	44	104	9244246016	60	59904
2026-01-23 22:44:37.13	152.52	18.92	-51.2	-53.7	6.1	0.00e+00	0	44	104	9244246016	60	59320
2026-01-23 22:44:40.07	153.14	18.52	-51.3	-53.8	6.1	0.00e+00	0	44	104	9244246016	60	59658
2026-01-23 22:44:43.00	153.73	18.12	-50.6	-53.1	6.1	0.00e+00	0	44	104	9244246016	60	55555
2026-01-23 22:44:45.94	154.32	17.73	-49.7	-52.2	6.1	0.00e+00	0	44	104	9244246016	60	49805
2026-01-23 22:44:48.88	154.88	17.35	-50.5	-53.0	6.1	0.00e+00	0	44	104	9244246016	60	54925
2026-01-23 22:44:51.81	155.43	16.97	-50.2	-52.7	6.1	0.00e+00	0	44	104	9244246016	60	52628
2026-01-23 22:44:54.76	155.97	16.60	-50.4	-52.9	6.1	0.00e+00	0	44	104	9244246016	60	53879
2026-01-23 22:44:57.71	156.49	16.23	-51.1	-53.5	6.1	0.00e+00	0	44	104	9244246016	60	58218
2026-01-23 22:45:00.64	157.00	15.87	-51.2	-53.6	6.1	0.00e+00	0	44	104	9244246016	60	58708
2026-01-23 22:45:03.58	157.49	15.51	-51.1	-53.6	6.1	0.00e+00	0	44	104	9244246016	60	58758
2026-01-23 22:45:06.51	157.97	15.15	-51.2	-53.7	6.1	0.00e+00	0	44	104	9244246016	60	59096
2026-01-23 22:45:09.45	158.43	14.81	-51.2	-53.7	6.1	0.00e+00	0	44	104	9244246016	60	59031
2026-01-23 22:45:12.40	158.89	14.46	-51.2	-53.6	6.1	0.00e+00	0	44	104	9244246016	60	58781
2026-01-23 22:45:15.34	159.33	14.12	-51.2	-53.6	6.1	0.00e+00	0	44	104	9244246016	60	58549
2026-01-23 22:45:18.29	159.76	13.79	-50.9	-53.4	6.1	0.00e+00	0	44	104	9244246016	60	57466
2026-01-23 22:45:21.24	160.19	13.46	-51.1	-53.6	6.1	0.00e+00	0	44	104	9244246016	60	58519
2026-01-23 22:45:24.19	160.60	13.13	-51.1	-53.5	6.1	0.00e+00	0	44	104	9244246016	60	58090
2026-01-23 22:45:27.12	160.99	12.81	-50.9	-53.4	6.1	0.00e+00	0	44	104	9244246016	60	57293
2026-01-23 22:45:30.05	161.38	12.50	-50.9	-53.4	6.1	0.00e+00	0	44	104	9244246016	60	57118
2026-01-23 22:45:32.99	161.76	12.18	-51.0	-53.5	6.1	0.00e+00	0	44	104	9244246016	60	57887
2026-01-23 22:45:35.93	162.13	11.88	-51.0	-53.5	6.1	0.00e+00	0	44	104	9244246016	60	57826
2026-01-23 22:45:38.86	162.49	11.57	-50.9	-53.4	6.1	0.00e+00	0	44	104	9244246016	60	57003
2026-01-23 22:45:41.80	162.85	11.27	-51.0	-53.5	6.1	0.00e+00	0	44	104	9244246016	60	57677
2026-01-23 22:45:44.76	163.19	10.98	-51.0	-53.5	6.1	0.00e+00	0	44	104	9244246016	60	57664
2026-01-23 22:45:47.71	163.53	10.68	-51.0	-53.4	6.1	0.00e+00	0	44	104	9244246016	60	57206
2026-01-23 22:45:50.65	163.86	10.40	-50.9	-53.4	6.1	0.00e+00	0	44	104	9244246016	60	57055
2026-01-23 22:45:53.59	164.18	10.11	-50.8	-53.3	6.1	0.00e+00	0	44	104	9244246016	60	56858
2026-01-23 22:45:56.53	164.50	9.83	-50.8	-53.2	6.1	0.00e+00	0	44	104	9244246016	60	56058
2026-01-23 22:45:59.47	164.80	9.55	-50.9	-53.3	6.1	0.00e+00	0	44	104	9244246016	60	56772
2026-01-23 22:46:02.40	165.10	9.28	-50.9	-53.4	6.1	0.00e+00	0	44	104	9244246016	60	57004
2026-01-23 22:46:05.35	165.40	9.01	-50.8	-53.3	6.1	0.00e+00	0	44	104	9244246016	60	56318
2026-01-23 22:46:08.28	165.69	8.75	-50.9	-53.3	6.1	0.00e+00	0	44	104	9244246016	60	56921
2026-01-23 22:46:11.22	165.97	8.48	-50.8	-53.2	6.1	0.00e+00	0	44	104	9244246016	60	56141
2026-01-23 22:46:14.15	166.24	8.22	-50.8	-53.3	6.1	0.00e+00	0	44	104	9244246016	60	56536
2026-01-23 22:46:17.08	166.51	7.97	-50.7	-53.2	6.1	0.00e+00	0	44	104	9244246016	60	55666
2026-01-23 22:46:20.02	166.78	7.71	-50.8	-53.2	6.1	0.00e+00	0	44	104	9244246016	60	56083
2026-01-23 22:46:22.96	167.04	7.46	-50.7	-53.1	6.1	0.00e+00	0	44	104	9244246016	60	55506
2026-01-23 22:46:25.91	167.29	7.21	-50.8	-53.3	6.1	0.00e+00	0	44	104	9244246016	60	56403
2026-01-23 22:46:28.84	167.54	6.96	-50.7	-53.1	6.1	0.00e+00	0	44	104	9244246016	60	55435
2026-01-23 22:46:31.77	167.78	6.72	-50.7	-53.2	6.1	0.00e+00	0	44	104	9244246016	60	56061
2026-01-23 22:46:34.71	168.02	6.48	-50.8	-53.3	6.1	0.00e+00	0	44	104	9244246016	60	56373
2026-01-23 22:46:37.64	168.26	6.24	-50.7	-53.2	6.1	0.00e+00	0	44	104	9244246016	60	55930
2026-01-23 22:46:40.59	168.49	6.01	-50.7	-53.1	6.1	0.00e+00	0	44	104	9244246016	60	55441
2026-01-23 22:46:43.52	168.71	5.78	-50.7	-53.1	6.1	0.00e+00	0	44	104	9244246016	60	55364
2026-01-23 22:46:46.45	168.93	5.55	-50.7	-53.2	6.1	0.00e+00	0	44	104	9244246016	60	55806
2026-01-23 22:46:49.40	169.15	5.32	-50.5	-53.0	6.1	0.00e+00	0	44	104	9244246016	60	54615
2026-01-23 22:46:52.35	169.37	5.09	-50.6	-53.1	6.1	0.00e+00	0	44	104	9244246016	60	55197
2026-01-23 22:46:55.30	169.58	4.87	-50.5	-52.9	6.1	0.00e+00	0	44	104	9244246016	60	54325
2026-01-23 22:46:58.23	169.78	4.65	-50.6	-53.1	6.1	0.00e+00	0	44	104	9244246016	60	55113
2026-01-23 22:47:01.18	169.98	4.43	-50.4	-52.9	6.1	0.00e+00	0	44	104	9244246016	60	53796
2026-01-23 22:47:04.11	170.18	4.21	-50.5	-53.0	6.1	0.00e+00	0	44	104	9244246016	60	54651
2026-01-23 22:47:07.07	170.38	3.99	-50.3	-52.8	6.1	0.00e+00	0	44	104	9244246016	60	53530
2026-01-23 22:47:10.01	170.57	3.78	-50.6	-53.1	6.1	0.00e+00	0	44	104	9244246016	60	55094
2026-01-23 22:47:12.94	170.76	3.57	-50.3	-52.7	6.1	0.00e+00	0	44	104	9244246016	60	53157
2026-01-23 22:47:15.88	170.94	3.36	-50.4	-52.8	6.1	0.00e+00	0	44	104	9244246016	60	53645
2026-01-23 22:47:18.81	171.12	3.15	-50.1	-52.6	6.1	0.00e+00	0	45	104	9244246016	60	52431
2026-01-23 22:47:21.75	171.30	2.95	-50.4	-52.8	6.1	0.00e+00	0	44	104	9244246016	60	53325
2026-01-23 22:47:24.71	171.48	2.74	-51.1	-53.5	6.1	0.00e+00	0	44	104	9244246016	60	57841
2026-01-23 22:47:27.64	171.65	2.54	-51.4	-53.9	6.1	0.00e+00	0	44	104	9244246016	60	60489
2026-01-23 22:47:30.58	171.82	2.34	-51.6	-54.0	6.1	0.00e+00	0	44	104	9244246016	60	61710
2026-01-23 22:47:33.53	171.99	2.14	-51.6	-54.1	6.1	0.00e+00	0	44	104	9244246016	60	61795
2026-01-23 22:47:36.47	172.16	1.95	-51.6	-54.1	6.1	0.00e+00	0	44	104	9244246016	60	61940
2026-01-23 22:47:39.41	172.32	1.75	-51.6	-54.0	6.1	0.00e+00	0	44	104	9244246016	60	61503
2026-01-23 22:47:42.35	172.48	1.56	-51.5	-54.0	6.1	0.00e+00	0	44	104	9244246016	60	61203
2026-01-23 22:47:45.29	172.64	1.37	-51.6	-54.1	6.1	0.00e+00	0	44	104	9244246016	60	61782
2026-01-23 22:47:48.23	172.79	1.18	-51.7	-54.2	6.1	0.00e+00	0	45	104	9244246016	60	62656
2026-01-23 22:47:51.15	172.94	0.99	-51.7	-54.2	6.1	0.00e+00	0	44	104	9244246016	60	62655
2026-01-23 22:47:54.08	173.09	0.80	-51.7	-54.2	6.1	0.00e+00	0	45	104	9244246016	60	62573
2026-01-23 22:47:57.02	173.24	0.62	-51.7	-54.1	6.1	0.00e+00	0	45	104	9244246016	60	62396
2026-01-23 22:47:59.96	173.39	0.43	-51.7	-54.1	6.1	0.00e+00	0	45	104	9244246016	60	62225
2026-01-23 22:48:02.89	173.53	0.25	-51.7	-54.2	6.1	0.00e+00	0	45	104	9244246016	60	62732
2026-01-23 22:48:05.83	173.67	0.07	-51.7	-54.2	6.1	0.00e+00	0	44	104	9244246016	60	62687

#Closed at: 2026-01-23 22:48:07
#Recorded file [9244 MB]: D:/lorett/data/35029_260124_103716.dat