passes_logs/2026/01/23/R4.6S_Anadyr/R4.6S_Anadyr__20260123_185647_AQUA_rec.log

#Pass ID: 20260123_185647_AQUA
#Satellite: AQUA
#Configuration: AQUA
#almurnet v.1.7.20251203
#Start time: 2026-01-23 18:56:49

#Version: 2.2.20231116
#Station: R4.6S_Anadyr
#Location: 177.4865 lon 64.73178 lat
#TLE: 1 27424U 02022A   26022.49486490  .00002153  00000+0  44069-3 0  9997
#TLE: 2 27424  98.4099 349.0485 0001970  69.5876  43.4746 14.61847233261984

#Time	Az	El	Level	Level2	SNR	BER	BlckErr	Temp	State	Recorded	gain1	gain2
2026-01-23 18:56:49.39	26.98	0.08	-50.3	-62.1	3.5	8.47e-01	0	38	0	0	60	46173
2026-01-23 18:56:52.42	26.77	0.24	-50.7	-68.5	3.5	3.03e+01	0	39	104	0	60	102479
2026-01-23 18:56:55.45	26.56	0.41	-50.7	-68.5	3.5	3.03e+01	0	39	104	0	60	102361
2026-01-23 18:56:58.48	26.35	0.57	-50.7	-68.5	3.5	3.03e+01	0	39	104	0	60	102430
2026-01-23 18:57:01.51	26.13	0.74	-50.7	-68.5	3.5	3.03e+01	0	39	104	0	60	102519
2026-01-23 18:57:04.54	25.91	0.90	-50.7	-68.5	3.5	3.03e+01	0	40	104	0	60	102210
2026-01-23 18:57:07.57	25.69	1.07	-50.6	-68.5	3.5	3.03e+01	0	40	104	0	60	101985
2026-01-23 18:57:10.60	25.46	1.24	-50.6	-68.5	3.5	3.03e+01	0	40	104	0	60	102383
2026-01-23 18:57:13.63	25.23	1.41	-50.6	-68.5	3.5	3.03e+01	0	40	104	0	60	102005
2026-01-23 18:57:16.67	25.00	1.58	-50.6	-68.5	3.5	3.03e+01	0	40	104	0	60	102547
2026-01-23 18:57:19.70	24.76	1.75	-50.6	-68.5	3.5	3.03e+01	0	40	104	0	60	102399
2026-01-23 18:57:22.73	24.53	1.92	-50.6	-68.4	3.5	3.03e+01	0	40	104	0	60	101708
2026-01-23 18:57:25.76	24.28	2.09	-50.6	-68.5	3.5	3.03e+01	0	40	104	0	60	102542
2026-01-23 18:57:28.79	24.04	2.26	-50.6	-68.5	3.5	3.03e+01	0	40	104	0	60	102377
2026-01-23 18:57:31.82	23.79	2.43	-50.6	-68.5	3.5	3.03e+01	0	40	104	0	60	102261
2026-01-23 18:57:34.85	23.54	2.60	-50.6	-68.5	3.5	3.03e+01	0	40	104	0	60	102388
2026-01-23 18:57:37.88	23.29	2.78	-50.6	-68.5	3.5	3.03e+01	0	40	104	0	60	101999
2026-01-23 18:57:40.91	23.03	2.95	-50.6	-68.5	3.5	3.03e+01	0	40	104	0	60	102177
2026-01-23 18:57:43.95	22.77	3.13	-50.6	-68.4	3.5	3.03e+01	0	40	104	0	60	101783
2026-01-23 18:57:46.98	22.50	3.30	-50.6	-68.4	3.5	3.03e+01	0	40	104	0	60	101607
2026-01-23 18:57:50.01	22.23	3.48	-50.6	-68.5	3.5	3.03e+01	0	40	104	0	60	102171
2026-01-23 18:57:53.04	21.96	3.66	-50.6	-68.5	3.5	3.03e+01	0	40	104	0	60	102241
2026-01-23 18:57:56.07	21.68	3.83	-50.6	-68.5	3.5	3.03e+01	0	40	104	0	60	101972
2026-01-23 18:57:59.10	21.40	4.01	-50.6	-68.4	3.5	3.03e+01	0	40	104	0	60	101796
2026-01-23 18:58:02.13	21.12	4.19	-50.6	-68.4	3.5	3.03e+01	0	40	104	0	60	101322
2026-01-23 18:58:05.16	20.83	4.37	-50.6	-68.4	3.5	3.03e+01	0	40	104	0	60	101582
2026-01-23 18:58:08.19	20.54	4.55	-50.6	-68.4	3.5	3.03e+01	0	40	104	0	60	101681
2026-01-23 18:58:11.22	20.24	4.73	-50.6	-68.4	3.5	3.03e+01	0	40	104	0	60	101618
2026-01-23 18:58:14.25	19.94	4.91	-50.6	-68.5	3.5	3.03e+01	0	40	104	0	60	101810
2026-01-23 18:58:17.29	19.64	5.10	-50.6	-68.4	3.5	3.03e+01	0	40	104	0	60	100801
2026-01-23 18:58:20.32	19.33	5.28	-50.6	-68.4	3.5	3.03e+01	0	40	104	0	60	101409
2026-01-23 18:58:23.35	19.01	5.47	-50.6	-68.5	3.5	3.03e+01	0	40	104	0	60	102340
2026-01-23 18:58:26.38	18.70	5.65	-50.6	-68.5	3.5	3.03e+01	0	40	104	0	60	101852
2026-01-23 18:58:29.41	18.37	5.84	-50.6	-68.5	3.5	3.03e+01	0	40	104	0	60	102026
2026-01-23 18:58:32.44	18.05	6.02	-50.6	-68.4	3.5	3.03e+01	0	40	104	0	60	101672
2026-01-23 18:58:35.47	17.71	6.21	-50.6	-68.4	3.5	3.03e+01	0	40	104	0	60	101257
2026-01-23 18:58:38.50	17.38	6.39	-50.6	-68.4	3.5	3.03e+01	0	40	104	0	60	101465
2026-01-23 18:58:41.53	17.03	6.58	-50.6	-68.4	3.5	3.03e+01	0	40	104	0	60	101003
2026-01-23 18:58:44.55	16.69	6.77	-50.6	-68.4	3.5	3.03e+01	0	41	104	0	60	100689
2026-01-23 18:58:47.58	16.34	6.96	-50.6	-68.4	3.5	3.03e+01	0	41	104	0	60	101444
2026-01-23 18:58:50.61	15.98	7.15	-50.6	-68.4	3.5	3.03e+01	0	40	104	0	60	101219
2026-01-23 18:58:53.64	15.62	7.34	-50.6	-68.4	3.5	3.03e+01	0	40	104	0	60	101642
2026-01-23 18:58:56.67	15.25	7.53	-50.6	-68.4	3.5	3.03e+01	0	40	104	0	60	101500
2026-01-23 18:58:59.70	14.88	7.72	-50.6	-68.4	3.5	3.03e+01	0	40	104	0	60	100958
2026-01-23 18:59:02.73	14.50	7.91	-50.6	-68.5	3.5	3.03e+01	0	40	104	0	60	101908
2026-01-23 18:59:05.76	14.12	8.10	-50.6	-68.3	3.5	3.03e+01	0	41	104	0	60	99860
2026-01-23 18:59:08.79	13.73	8.30	-50.6	-68.4	3.5	3.03e+01	0	40	104	0	60	100662
2026-01-23 18:59:11.82	13.33	8.49	-50.6	-68.5	3.5	3.03e+01	0	41	104	0	60	101843
2026-01-23 18:59:14.85	12.93	8.68	-50.6	-68.5	3.5	3.03e+01	0	41	104	0	60	101952
2026-01-23 18:59:17.88	12.52	8.88	-50.6	-68.4	3.5	3.03e+01	0	41	104	0	60	101466
2026-01-23 18:59:20.91	12.11	9.07	-50.6	-68.5	3.5	3.03e+01	0	41	104	0	60	101885
2026-01-23 18:59:23.94	11.69	9.26	-50.6	-68.4	3.5	3.03e+01	0	41	104	0	60	101701
2026-01-23 18:59:26.98	11.26	9.46	-50.6	-68.4	3.5	3.03e+01	0	40	104	0	60	101426
2026-01-23 18:59:30.01	10.83	9.65	-50.6	-68.4	3.5	3.03e+01	0	40	104	0	60	101610
2026-01-23 18:59:33.04	10.39	9.85	-50.6	-68.4	3.5	3.03e+01	0	41	104	0	60	101689
2026-01-23 18:59:36.07	9.94	10.05	-50.6	-68.4	3.5	3.03e+01	0	41	104	0	60	101498
2026-01-23 18:59:39.10	9.49	10.24	-50.6	-68.4	3.5	3.03e+01	0	41	104	0	60	101379
2026-01-23 18:59:42.13	9.03	10.44	-50.6	-68.5	3.5	3.03e+01	0	41	104	0	60	101838
2026-01-23 18:59:45.16	8.57	10.63	-50.6	-68.5	3.5	3.03e+01	0	41	104	0	60	102181
2026-01-23 18:59:48.19	8.10	10.83	-50.6	-68.3	3.5	3.03e+01	0	41	104	0	60	100436
2026-01-23 18:59:51.22	7.62	11.02	-50.6	-68.5	3.5	3.03e+01	0	41	104	0	60	102160
2026-01-23 18:59:54.25	7.13	11.22	-50.6	-68.5	3.5	3.03e+01	0	41	104	0	60	102417
2026-01-23 18:59:57.28	6.64	11.41	-50.6	-68.6	3.5	3.03e+01	0	41	104	0	60	103224
2026-01-23 19:00:00.31	6.14	11.61	-50.7	-68.5	3.5	3.03e+01	0	41	104	0	60	102573
2026-01-23 19:00:03.34	5.63	11.80	-50.7	-68.5	3.5	3.03e+01	0	41	104	0	60	102111
2026-01-23 19:00:06.37	5.11	11.99	-50.7	-68.5	3.5	3.03e+01	0	41	104	0	60	102529
2026-01-23 19:00:09.40	4.59	12.19	-50.7	-68.5	3.5	3.03e+01	0	41	104	0	60	102634
2026-01-23 19:00:12.43	4.06	12.38	-50.7	-68.5	3.5	3.03e+01	0	41	104	0	60	102452
2026-01-23 19:00:15.46	3.52	12.57	-50.7	-68.5	3.5	3.03e+01	0	41	104	0	60	102907
2026-01-23 19:00:18.49	2.98	12.76	-50.7	-68.6	3.5	3.03e+01	0	41	104	0	60	103167
2026-01-23 19:00:21.52	2.42	12.95	-50.7	-68.6	3.5	3.03e+01	0	41	104	0	60	103028
2026-01-23 19:00:24.55	1.86	13.14	-50.7	-68.6	3.5	3.03e+01	0	41	104	0	60	103379
2026-01-23 19:00:27.58	1.29	13.33	-50.7	-68.6	3.5	3.03e+01	0	41	104	0	60	103675
2026-01-23 19:00:30.61	0.71	13.52	-50.8	-68.6	3.5	3.03e+01	0	41	104	0	60	103122
2026-01-23 19:00:33.64	0.13	13.71	-50.8	-68.6	3.5	3.03e+01	0	41	104	0	60	103456
2026-01-23 19:00:36.67	359.54	13.89	-50.8	-68.6	3.5	3.03e+01	0	41	104	0	60	103764
2026-01-23 19:00:39.70	358.93	14.08	-50.8	-68.6	3.5	3.03e+01	0	41	104	0	60	103686
2026-01-23 19:00:42.73	358.32	14.26	-50.8	-68.6	3.5	3.03e+01	0	41	104	0	60	103946
2026-01-23 19:00:45.75	357.71	14.44	-50.8	-68.6	3.5	3.03e+01	0	41	104	0	60	103638
2026-01-23 19:00:48.78	357.08	14.62	-50.8	-68.6	3.5	3.03e+01	0	41	104	0	60	103889
2026-01-23 19:00:51.81	356.45	14.79	-50.8	-68.6	3.5	3.03e+01	0	41	104	0	60	104100
2026-01-23 19:00:54.84	355.81	14.97	-50.8	-68.6	3.5	3.03e+01	0	41	104	0	60	103852
2026-01-23 19:00:57.87	355.16	15.14	-50.8	-68.7	3.6	3.03e+01	0	41	104	0	60	104334
2026-01-23 19:01:00.91	354.50	15.31	-50.8	-68.6	3.5	3.03e+01	0	41	104	0	60	103880
2026-01-23 19:01:03.93	353.83	15.48	-50.8	-68.7	3.5	3.03e+01	0	41	104	0	60	104913
2026-01-23 19:01:06.97	353.15	15.65	-50.8	-68.7	3.5	3.03e+01	0	41	104	0	60	104938
2026-01-23 19:01:10.00	352.47	15.81	-50.8	-68.7	3.5	3.03e+01	0	41	104	0	60	104369
2026-01-23 19:01:13.03	351.78	15.97	-50.8	-68.7	3.5	3.03e+01	0	41	104	0	60	104722
2026-01-23 19:01:16.06	351.08	16.13	-50.9	-68.7	3.5	3.03e+01	0	41	104	0	60	104297
2026-01-23 19:01:19.09	350.37	16.28	-50.9	-68.7	3.5	3.03e+01	0	41	104	0	60	105374
2026-01-23 19:01:22.12	349.66	16.43	-50.9	-68.6	3.5	3.03e+01	0	41	104	0	60	103822
2026-01-23 19:01:25.16	348.94	16.58	-50.9	-68.7	3.5	3.03e+01	0	41	104	0	60	104809
2026-01-23 19:01:28.18	348.21	16.73	-50.9	-68.6	3.5	3.03e+01	0	41	104	0	60	104153
2026-01-23 19:01:31.21	347.47	16.87	-50.9	-68.7	3.5	3.03e+01	0	41	104	0	60	104885
2026-01-23 19:01:34.24	346.73	17.00	-50.9	-68.7	3.5	3.03e+01	0	41	104	0	60	104491
2026-01-23 19:01:37.28	345.97	17.14	-50.9	-68.7	3.5	3.03e+01	0	41	104	0	60	104785
2026-01-23 19:01:40.31	345.21	17.27	-50.9	-68.7	3.5	3.03e+01	0	41	104	0	60	105014
2026-01-23 19:01:43.34	344.45	17.39	-50.9	-68.8	3.5	3.03e+01	0	41	104	0	60	105525
2026-01-23 19:01:46.37	343.67	17.51	-50.9	-68.8	3.5	3.03e+01	0	41	104	0	60	105490
2026-01-23 19:01:49.40	342.89	17.63	-50.9	-68.7	3.5	3.03e+01	0	41	104	0	60	104733
2026-01-23 19:01:52.43	342.11	17.74	-50.9	-68.7	3.5	3.03e+01	0	41	104	0	60	105332
2026-01-23 19:01:55.46	341.32	17.84	-50.9	-68.7	3.5	3.03e+01	0	41	104	0	60	104592
2026-01-23 19:01:58.49	340.52	17.94	-50.9	-68.6	3.5	3.03e+01	0	41	104	0	60	103492
2026-01-23 19:02:01.51	339.72	18.04	-50.9	-68.7	3.5	3.03e+01	0	41	104	0	60	105360
2026-01-23 19:02:04.54	338.91	18.13	-50.9	-68.7	3.5	3.03e+01	0	41	104	0	60	104972
2026-01-23 19:02:07.57	338.10	18.22	-50.9	-68.8	3.5	3.03e+01	0	41	104	0	60	105500
2026-01-23 19:02:10.60	337.28	18.30	-51.0	-68.8	3.5	3.03e+01	0	41	104	0	60	105987
2026-01-23 19:02:13.63	336.46	18.37	-51.0	-68.8	3.5	3.03e+01	0	41	104	0	60	105848
2026-01-23 19:02:16.65	335.63	18.44	-51.0	-68.8	3.5	3.03e+01	0	41	104	0	60	105850
2026-01-23 19:02:19.68	334.80	18.50	-51.0	-68.8	3.5	3.03e+01	0	41	104	0	60	105864
2026-01-23 19:02:22.72	333.97	18.56	-51.0	-68.8	3.5	3.03e+01	0	41	104	0	60	105617
2026-01-23 19:02:25.75	333.13	18.61	-51.0	-68.8	3.5	3.03e+01	0	41	104	0	60	105908
2026-01-23 19:02:28.78	332.29	18.66	-51.0	-68.8	3.5	3.03e+01	0	41	104	0	60	106135
2026-01-23 19:02:31.81	331.45	18.70	-51.0	-68.8	3.5	3.03e+01	0	41	104	0	60	105991
2026-01-23 19:02:34.84	330.60	18.73	-51.0	-68.8	3.5	3.03e+01	0	41	104	0	60	106314
2026-01-23 19:02:37.87	329.75	18.76	-51.0	-68.8	3.5	3.03e+01	0	41	104	0	60	105872
2026-01-23 19:02:40.90	328.91	18.78	-51.0	-68.8	3.5	3.03e+01	0	41	104	0	60	106575
2026-01-23 19:02:43.93	328.06	18.80	-51.0	-68.8	3.5	3.03e+01	0	41	104	0	60	106040
2026-01-23 19:02:46.96	327.21	18.80	-51.0	-68.8	3.5	3.03e+01	0	41	104	0	60	105810
2026-01-23 19:02:49.99	326.35	18.81	-51.0	-68.8	3.5	3.03e+01	0	41	104	0	60	105721
2026-01-23 19:02:53.02	325.50	18.80	-51.0	-68.8	3.5	3.03e+01	0	41	104	0	60	106421
2026-01-23 19:02:56.05	324.65	18.79	-51.0	-68.9	3.5	3.03e+01	0	41	104	0	60	106893
2026-01-23 19:02:59.07	323.81	18.78	-51.0	-68.8	3.5	3.03e+01	0	41	104	0	60	106409
2026-01-23 19:03:02.10	322.96	18.75	-51.0	-68.8	3.5	3.03e+01	0	41	104	0	60	105726
2026-01-23 19:03:05.13	322.11	18.73	-51.0	-68.8	3.5	3.03e+01	0	41	104	0	60	106097
2026-01-23 19:03:08.17	321.26	18.69	-51.0	-68.8	3.5	3.03e+01	0	41	104	0	60	105864
2026-01-23 19:03:11.20	320.42	18.65	-51.0	-68.8	3.5	3.03e+01	0	41	104	0	60	106285
2026-01-23 19:03:14.22	319.58	18.60	-51.0	-68.8	3.5	3.03e+01	0	41	104	0	60	106559
2026-01-23 19:03:17.26	318.74	18.55	-51.0	-68.8	3.5	3.03e+01	0	41	104	0	60	106190
2026-01-23 19:03:20.29	317.91	18.49	-51.0	-68.8	3.5	3.03e+01	0	41	104	0	60	106412
2026-01-23 19:03:23.32	317.08	18.43	-51.0	-68.9	3.5	3.03e+01	0	41	104	0	60	106733
2026-01-23 19:03:26.35	316.25	18.36	-51.0	-68.9	3.5	3.03e+01	0	41	104	0	60	106898
2026-01-23 19:03:29.38	315.43	18.28	-51.0	-68.9	3.5	3.03e+01	0	41	104	0	60	106890
2026-01-23 19:03:32.41	314.61	18.20	-51.0	-68.9	3.5	3.03e+01	0	41	104	0	60	106806
2026-01-23 19:03:35.44	313.80	18.11	-51.0	-68.9	3.5	3.03e+01	0	41	104	0	60	106757
2026-01-23 19:03:38.47	312.99	18.02	-51.0	-68.8	3.5	3.03e+01	0	41	104	0	60	106407
2026-01-23 19:03:41.49	312.19	17.92	-51.0	-68.9	3.5	3.03e+01	0	41	104	0	60	106713
2026-01-23 19:03:44.53	311.39	17.82	-51.0	-68.9	3.5	3.03e+01	0	41	104	0	60	107304
2026-01-23 19:03:47.56	310.60	17.71	-51.1	-68.9	3.5	3.03e+01	0	41	104	0	60	106752
2026-01-23 19:03:50.59	309.81	17.60	-51.1	-68.9	3.5	3.03e+01	0	41	104	0	60	107047
2026-01-23 19:03:53.62	309.04	17.48	-51.1	-68.9	3.5	3.03e+01	0	41	104	0	60	107210
2026-01-23 19:03:56.65	308.26	17.36	-51.1	-68.9	3.5	3.03e+01	0	41	104	0	60	106786
2026-01-23 19:03:59.68	307.50	17.24	-51.1	-68.9	3.5	3.03e+01	0	41	104	0	60	107815
2026-01-23 19:04:02.71	306.74	17.11	-51.1	-68.9	3.5	3.03e+01	0	41	104	0	60	107760
2026-01-23 19:04:05.74	305.99	16.97	-51.1	-68.9	3.5	3.03e+01	0	41	104	0	60	107461
2026-01-23 19:04:08.77	305.24	16.83	-51.1	-68.9	3.5	3.03e+01	0	41	104	0	60	107596
2026-01-23 19:04:11.81	304.50	16.69	-51.1	-69.0	3.5	3.03e+01	0	41	104	0	60	107854
2026-01-23 19:04:14.84	303.77	16.55	-51.1	-69.0	3.5	3.03e+01	0	41	104	0	60	107992
2026-01-23 19:04:17.87	303.05	16.40	-51.1	-68.9	3.5	3.03e+01	0	41	104	0	60	107267
2026-01-23 19:04:20.90	302.34	16.24	-51.1	-68.9	3.5	3.03e+01	0	41	104	0	60	107380
2026-01-23 19:04:23.93	301.63	16.09	-51.1	-68.9	3.5	3.03e+01	0	41	104	0	60	107688
2026-01-23 19:04:26.96	300.93	15.93	-51.1	-69.0	3.5	3.03e+01	0	41	104	0	60	107940
2026-01-23 19:04:30.00	300.24	15.77	-51.1	-69.0	3.5	3.03e+01	0	41	104	0	60	107975
2026-01-23 19:04:33.03	299.56	15.61	-51.1	-69.0	3.5	3.03e+01	0	41	104	0	60	108285
2026-01-23 19:04:36.06	298.88	15.44	-51.1	-69.0	3.5	3.03e+01	0	41	104	0	60	108447
2026-01-23 19:04:39.08	298.22	15.27	-51.1	-68.9	3.5	3.03e+01	0	41	104	0	60	107666
2026-01-23 19:04:42.11	297.56	15.10	-51.1	-69.0	3.5	3.03e+01	0	41	104	0	60	108560
2026-01-23 19:04:45.14	296.91	14.92	-51.1	-69.0	3.5	3.03e+01	0	41	104	0	60	108171
2026-01-23 19:04:48.17	296.27	14.75	-51.1	-69.0	3.5	3.03e+01	0	41	104	0	60	107966
2026-01-23 19:04:51.20	295.63	14.57	-51.1	-68.9	3.5	3.03e+01	0	41	104	0	60	107805
2026-01-23 19:04:54.23	295.01	14.39	-51.1	-69.0	3.5	3.03e+01	0	41	104	0	60	108339
2026-01-23 19:04:57.26	294.39	14.21	-51.1	-68.9	3.5	3.03e+01	0	41	104	0	60	107391
2026-01-23 19:05:00.29	293.78	14.03	-51.1	-69.0	3.5	3.03e+01	0	41	104	0	60	108337
2026-01-23 19:05:03.32	293.18	13.84	-51.1	-69.0	3.5	3.03e+01	0	41	104	0	60	108434
2026-01-23 19:05:06.35	292.58	13.66	-51.1	-69.0	3.5	3.03e+01	0	41	104	0	60	108066
2026-01-23 19:05:09.39	292.00	13.47	-51.1	-69.0	3.5	3.03e+01	0	41	104	0	60	108392
2026-01-23 19:05:12.42	291.42	13.28	-51.1	-69.0	3.5	3.03e+01	0	41	104	0	60	108017
2026-01-23 19:05:15.44	290.85	13.09	-51.1	-69.0	3.5	3.03e+01	0	41	104	0	60	108249
2026-01-23 19:05:18.47	290.29	12.90	-51.1	-69.0	3.5	3.03e+01	0	41	104	0	60	108694
2026-01-23 19:05:21.50	289.74	12.71	-51.1	-69.0	3.5	3.03e+01	0	41	104	0	60	108490
2026-01-23 19:05:24.53	289.19	12.52	-51.1	-69.0	3.5	3.03e+01	0	41	104	0	60	108329
2026-01-23 19:05:27.56	288.65	12.33	-51.1	-68.9	3.5	3.03e+01	0	41	104	0	60	107814
2026-01-23 19:05:30.59	288.12	12.13	-51.1	-69.0	3.5	3.03e+01	0	41	104	0	60	107956
2026-01-23 19:05:33.62	287.60	11.94	-51.1	-69.0	3.5	3.03e+01	0	41	104	0	60	108393
2026-01-23 19:05:36.65	287.08	11.74	-51.1	-69.0	3.5	3.03e+01	0	41	104	0	60	108313
2026-01-23 19:05:39.68	286.57	11.55	-51.1	-68.9	3.5	3.03e+01	0	41	104	0	60	107841
2026-01-23 19:05:42.70	286.08	11.35	-51.1	-69.0	3.5	3.03e+01	0	41	104	0	60	108411
2026-01-23 19:05:45.74	285.58	11.16	-51.1	-68.9	3.5	3.03e+01	0	41	104	0	60	107801
2026-01-23 19:05:48.76	285.09	10.96	-51.1	-69.0	3.5	3.03e+01	0	41	104	0	60	108266
2026-01-23 19:05:51.79	284.62	10.77	-51.1	-69.0	3.5	3.03e+01	0	41	104	0	60	108071
2026-01-23 19:05:54.82	284.14	10.57	-51.1	-69.0	3.5	3.03e+01	0	41	104	0	60	108470
2026-01-23 19:05:57.85	283.68	10.38	-51.1	-68.9	3.5	3.03e+01	0	41	104	0	60	107416
2026-01-23 19:06:00.87	283.22	10.18	-51.1	-69.0	3.5	3.03e+01	0	41	104	0	60	108171
2026-01-23 19:06:03.90	282.77	9.99	-51.1	-69.0	3.5	3.03e+01	0	41	104	0	60	108442
2026-01-23 19:06:06.93	282.32	9.79	-51.1	-69.0	3.5	3.03e+01	0	41	104	0	60	108650
2026-01-23 19:06:09.96	281.88	9.59	-51.1	-69.0	3.5	3.03e+01	0	41	104	0	60	108262
2026-01-23 19:06:12.99	281.45	9.40	-51.1	-69.0	3.5	3.03e+01	0	41	104	0	60	107884
2026-01-23 19:06:16.02	281.02	9.20	-51.1	-69.0	3.5	3.03e+01	0	41	104	0	60	108541
2026-01-23 19:06:19.05	280.60	9.01	-51.1	-68.9	3.5	3.03e+01	0	41	104	0	60	107838
2026-01-23 19:06:22.08	280.19	8.81	-51.1	-69.0	3.5	3.03e+01	0	41	104	0	60	108279
2026-01-23 19:06:25.11	279.78	8.62	-51.1	-69.0	3.5	3.03e+01	0	41	104	0	60	108250
2026-01-23 19:06:28.14	279.38	8.43	-51.1	-69.0	3.5	3.03e+01	0	41	104	0	60	108223
2026-01-23 19:06:31.17	278.98	8.23	-51.1	-69.0	3.5	3.03e+01	0	41	104	0	60	108242
2026-01-23 19:06:34.21	278.59	8.04	-51.1	-69.0	3.5	3.03e+01	0	41	104	0	60	108587
2026-01-23 19:06:37.24	278.21	7.85	-51.1	-69.0	3.5	3.03e+01	0	41	104	0	60	108497
2026-01-23 19:06:40.27	277.83	7.66	-51.1	-69.0	3.5	3.03e+01	0	41	104	0	60	108377
2026-01-23 19:06:43.30	277.45	7.46	-51.1	-69.0	3.5	3.03e+01	0	41	104	0	60	108874
2026-01-23 19:06:46.33	277.09	7.27	-51.1	-69.0	3.5	3.03e+01	0	41	104	0	60	108901
2026-01-23 19:06:49.36	276.72	7.08	-51.2	-69.0	3.5	3.03e+01	0	41	104	0	60	108662
2026-01-23 19:06:52.38	276.37	6.89	-51.1	-69.1	3.5	3.03e+01	0	41	104	0	60	109163
2026-01-23 19:06:55.41	276.01	6.70	-51.2	-69.1	3.5	3.03e+01	0	41	104	0	60	109266
2026-01-23 19:06:58.44	275.67	6.52	-51.1	-69.0	3.5	3.03e+01	0	41	104	0	60	108496
2026-01-23 19:07:01.48	275.32	6.33	-51.1	-69.0	3.5	3.03e+01	0	41	104	0	60	109011
2026-01-23 19:07:04.51	274.99	6.14	-51.2	-69.0	3.5	3.03e+01	0	41	104	0	60	108301
2026-01-23 19:07:07.54	274.65	5.95	-51.2	-68.9	3.5	3.03e+01	0	41	104	0	60	107833
2026-01-23 19:07:10.57	274.32	5.77	-51.2	-69.0	3.5	3.03e+01	0	41	104	0	60	108266
2026-01-23 19:07:13.60	274.00	5.58	-51.2	-69.1	3.5	3.03e+01	0	41	104	0	60	109353
2026-01-23 19:07:16.63	273.68	5.40	-51.1	-69.0	3.5	3.03e+01	0	41	104	0	60	108307
2026-01-23 19:07:19.66	273.37	5.21	-51.2	-69.0	3.5	3.03e+01	0	41	104	0	60	108426
2026-01-23 19:07:22.69	273.06	5.03	-51.2	-69.0	3.5	3.03e+01	0	41	104	0	60	108792
2026-01-23 19:07:25.72	272.75	4.85	-51.2	-69.1	3.5	3.03e+01	0	41	104	0	60	109245
2026-01-23 19:07:28.75	272.45	4.66	-51.2	-69.0	3.5	3.03e+01	0	41	104	0	60	108680
2026-01-23 19:07:31.78	272.15	4.48	-51.2	-69.0	3.5	3.03e+01	0	42	104	0	60	108750
2026-01-23 19:07:34.81	271.86	4.30	-51.2	-69.0	3.5	3.03e+01	0	42	104	0	60	108620
2026-01-23 19:07:37.84	271.57	4.12	-51.2	-69.0	3.5	3.03e+01	0	41	104	0	60	109066
2026-01-23 19:07:40.87	271.29	3.94	-51.2	-69.0	3.5	3.03e+01	0	41	104	0	60	108503
2026-01-23 19:07:43.90	271.01	3.76	-51.2	-69.0	3.5	3.03e+01	0	41	104	0	60	108878
2026-01-23 19:07:46.93	270.73	3.59	-51.2	-69.0	3.5	3.03e+01	0	42	104	0	60	108952
2026-01-23 19:07:49.96	270.45	3.41	-51.2	-69.0	3.5	3.03e+01	0	41	104	0	60	108917
2026-01-23 19:07:52.99	270.18	3.23	-51.2	-69.0	3.5	3.03e+01	0	41	104	0	60	108350
2026-01-23 19:07:56.02	269.92	3.06	-51.2	-69.0	3.5	3.03e+01	0	41	104	0	60	108710
2026-01-23 19:07:59.05	269.66	2.88	-51.1	-69.0	3.5	3.03e+01	0	41	104	0	60	108354
2026-01-23 19:08:02.08	269.40	2.71	-51.2	-69.0	3.5	3.03e+01	0	41	104	0	60	108403
2026-01-23 19:08:05.11	269.14	2.53	-51.1	-69.0	3.5	3.03e+01	0	41	104	0	60	108232
2026-01-23 19:08:08.14	268.89	2.36	-51.1	-69.0	3.5	3.03e+01	0	42	104	0	60	108177
2026-01-23 19:08:11.17	268.64	2.19	-51.1	-69.0	3.5	3.03e+01	0	41	104	0	60	107876
2026-01-23 19:08:14.20	268.39	2.02	-51.1	-69.0	3.5	3.03e+01	0	42	104	0	60	108682
2026-01-23 19:08:17.23	268.15	1.85	-51.1	-69.0	3.5	3.03e+01	0	41	104	0	60	107969
2026-01-23 19:08:20.27	267.91	1.67	-51.1	-69.0	3.5	3.03e+01	0	41	104	0	60	108332
2026-01-23 19:08:23.30	267.68	1.51	-51.1	-69.0	3.5	3.03e+01	0	42	104	0	60	107963
2026-01-23 19:08:26.32	267.44	1.34	-51.1	-69.0	3.5	3.03e+01	0	41	104	0	60	108226
2026-01-23 19:08:29.35	267.21	1.17	-51.1	-68.9	3.5	3.03e+01	0	41	104	0	60	107824
2026-01-23 19:08:32.38	266.99	1.00	-51.1	-68.9	3.5	3.03e+01	0	41	104	0	60	107809
2026-01-23 19:08:35.41	266.76	0.83	-51.1	-68.9	3.5	3.03e+01	0	41	104	0	60	107223
2026-01-23 19:08:38.44	266.54	0.67	-51.1	-68.9	3.5	3.03e+01	0	42	104	0	60	107077
2026-01-23 19:08:41.47	266.32	0.50	-51.1	-68.9	3.5	3.03e+01	0	42	104	0	60	107234
2026-01-23 19:08:44.50	266.10	0.34	-51.1	-68.9	3.5	3.03e+01	0	41	104	0	60	107571
2026-01-23 19:08:47.53	265.89	0.17	-51.0	-68.9	3.5	3.03e+01	0	41	104	0	60	107159
2026-01-23 19:08:50.56	265.68	0.01	-51.0	-68.9	3.5	3.03e+01	0	41	104	0	60	107447

#Closed at: 2026-01-23 19:08:52
#Recorded file [0 MB]: D:/lorett/data/35029_260124_065649.dat