passes_logs/2026/01/23/R4.6S_Anadyr/R4.6S_Anadyr__20260123_195237_FENGYUN_3D_rec.log

#Pass ID: 20260123_195237_FENGYUN 3D
#Satellite: FENGYUN 3D
#Configuration: FENGYUN 3D
#almurnet v.1.7.20251203
#Start time: 2026-01-23 19:52:39

#Version: 2.2.20231116
#Station: R4.6S_Anadyr
#Location: 177.4865 lon 64.73178 lat
#TLE: 1 43010U 17072A   26022.96745493  .00000490  00000+0  25355-3 0  9999
#TLE: 2 43010  98.9955 354.9072 0002484  95.6139 264.5320 14.19700039424383

#Time	Az	El	Level	Level2	SNR	BER	BlckErr	Temp	State	Recorded	gain1	gain2
2026-01-23 19:52:39.14	35.16	0.11	-50.8	-65.9	3.5	1.51e+00	0	38	0	0	60	71125
2026-01-23 19:52:42.17	34.97	0.27	-50.8	-63.1	3.6	8.45e-01	0	39	104	0	60	51624
2026-01-23 19:52:45.20	34.78	0.43	-50.9	-63.1	3.6	8.45e-01	0	39	104	0	60	51641
2026-01-23 19:52:48.23	34.58	0.59	-50.9	-63.1	3.6	8.45e-01	0	40	104	0	60	51700
2026-01-23 19:52:51.26	34.38	0.75	-50.9	-63.1	3.6	8.45e-01	0	40	104	0	60	51814
2026-01-23 19:52:54.29	34.18	0.91	-50.9	-63.1	3.6	8.45e-01	0	40	104	0	60	51760
2026-01-23 19:52:57.32	33.98	1.07	-50.9	-63.1	3.6	8.45e-01	0	40	104	0	60	51877
2026-01-23 19:53:00.35	33.77	1.23	-50.9	-63.1	3.6	8.45e-01	0	40	104	0	60	51609
2026-01-23 19:53:03.38	33.57	1.39	-50.9	-63.1	3.6	8.44e-01	0	40	104	0	60	51941
2026-01-23 19:53:06.41	33.36	1.55	-50.9	-63.1	3.6	8.44e-01	0	40	104	0	60	51839
2026-01-23 19:53:09.44	33.14	1.72	-50.9	-63.1	3.6	8.46e-01	0	40	104	0	60	51434
2026-01-23 19:53:12.46	32.93	1.88	-50.9	-63.1	3.6	8.45e-01	0	40	104	0	60	51445
2026-01-23 19:53:15.49	32.71	2.04	-50.9	-63.2	3.6	8.46e-01	0	40	104	0	60	51972
2026-01-23 19:53:18.52	32.49	2.21	-50.9	-63.2	3.6	8.46e-01	0	40	104	0	60	51989
2026-01-23 19:53:21.55	32.27	2.37	-50.9	-63.1	3.6	8.45e-01	0	40	104	0	60	51634
2026-01-23 19:53:24.58	32.04	2.54	-50.9	-63.1	3.6	8.46e-01	0	40	104	0	60	51781
2026-01-23 19:53:27.60	31.82	2.71	-50.9	-63.1	3.6	8.45e-01	0	40	104	0	60	51778
2026-01-23 19:53:30.64	31.58	2.87	-50.9	-63.1	3.6	8.45e-01	0	40	104	0	60	51829
2026-01-23 19:53:33.66	31.35	3.04	-50.9	-63.1	3.6	8.46e-01	0	40	104	0	60	51934
2026-01-23 19:53:36.69	31.12	3.21	-50.9	-63.2	3.6	8.46e-01	0	40	104	0	60	52112
2026-01-23 19:53:39.72	30.88	3.38	-50.9	-63.1	3.6	8.46e-01	0	40	104	0	60	51830
2026-01-23 19:53:42.75	30.63	3.55	-50.9	-63.2	3.6	8.45e-01	0	40	104	0	60	51990
2026-01-23 19:53:45.78	30.39	3.72	-50.9	-63.1	3.6	8.47e-01	0	40	104	0	60	51840
2026-01-23 19:53:48.81	30.14	3.89	-50.9	-63.1	3.6	8.46e-01	0	40	104	0	60	51778
2026-01-23 19:53:51.84	29.89	4.06	-50.9	-63.1	3.6	8.45e-01	0	40	104	0	60	51765
2026-01-23 19:53:54.87	29.64	4.23	-50.9	-63.1	3.6	8.45e-01	0	40	104	0	60	51763
2026-01-23 19:53:57.89	29.38	4.40	-50.9	-63.2	3.6	8.45e-01	0	40	104	0	60	52055
2026-01-23 19:54:00.92	29.12	4.57	-50.9	-63.2	3.6	8.46e-01	0	40	104	0	60	52079
2026-01-23 19:54:03.95	28.85	4.75	-50.9	-63.1	3.6	8.45e-01	0	41	104	0	60	51936
2026-01-23 19:54:06.98	28.59	4.92	-50.9	-63.2	3.6	8.45e-01	0	41	104	0	60	51995
2026-01-23 19:54:10.01	28.32	5.09	-50.9	-63.2	3.6	8.45e-01	0	41	104	0	60	52124
2026-01-23 19:54:13.04	28.04	5.27	-50.9	-63.2	3.6	8.45e-01	0	41	104	0	60	52222
2026-01-23 19:54:16.07	27.77	5.44	-50.9	-63.2	3.6	8.45e-01	0	41	104	0	60	52023
2026-01-23 19:54:19.10	27.48	5.62	-50.9	-63.2	3.6	8.45e-01	0	41	104	0	60	52168
2026-01-23 19:54:22.14	27.20	5.80	-50.9	-63.2	3.6	8.46e-01	0	41	104	0	60	52190
2026-01-23 19:54:25.17	26.91	5.97	-50.9	-63.2	3.6	8.46e-01	0	41	104	0	60	52410
2026-01-23 19:54:28.20	26.62	6.15	-50.9	-63.1	3.6	8.44e-01	0	41	104	0	60	51931
2026-01-23 19:54:31.23	26.33	6.33	-50.9	-63.2	3.6	8.46e-01	0	41	104	0	60	52236
2026-01-23 19:54:34.26	26.03	6.51	-50.9	-63.2	3.6	8.45e-01	0	41	104	0	60	52397
2026-01-23 19:54:37.28	25.72	6.68	-50.9	-63.1	3.6	8.45e-01	0	41	104	0	60	51814
2026-01-23 19:54:40.31	25.42	6.86	-50.9	-63.2	3.6	8.45e-01	0	41	104	0	60	52003
2026-01-23 19:54:43.34	25.11	7.04	-50.9	-63.2	3.6	8.45e-01	0	41	104	0	60	52031
2026-01-23 19:54:46.37	24.79	7.22	-50.9	-63.2	3.6	8.45e-01	0	41	104	0	60	52027
2026-01-23 19:54:49.40	24.47	7.40	-50.9	-63.2	3.6	8.46e-01	0	41	104	0	60	52115
2026-01-23 19:54:52.43	24.15	7.59	-50.9	-63.2	3.6	8.44e-01	0	41	104	0	60	52103
2026-01-23 19:54:55.46	23.82	7.77	-50.9	-63.2	3.5	8.45e-01	0	41	104	0	60	52295
2026-01-23 19:54:58.49	23.49	7.95	-50.9	-63.2	3.6	8.45e-01	0	41	104	0	60	52214
2026-01-23 19:55:01.52	23.16	8.13	-50.9	-63.2	3.6	8.46e-01	0	41	104	0	60	52247
2026-01-23 19:55:04.55	22.82	8.31	-50.9	-63.2	3.6	8.46e-01	0	41	104	0	60	52363
2026-01-23 19:55:07.59	22.47	8.50	-50.9	-63.2	3.6	8.45e-01	0	41	104	0	60	52263
2026-01-23 19:55:10.62	22.12	8.68	-50.9	-63.2	3.6	8.45e-01	0	41	104	0	60	52066
2026-01-23 19:55:13.65	21.77	8.86	-50.9	-63.2	3.6	8.44e-01	0	41	104	0	60	52024
2026-01-23 19:55:16.67	21.41	9.05	-50.9	-63.2	3.6	8.45e-01	0	41	104	0	60	52078
2026-01-23 19:55:19.70	21.05	9.23	-50.9	-63.2	3.6	8.46e-01	0	41	104	0	60	52144
2026-01-23 19:55:22.73	20.68	9.41	-50.9	-63.2	3.6	8.46e-01	0	41	104	0	60	52340
2026-01-23 19:55:25.76	20.31	9.60	-50.9	-63.2	3.6	8.46e-01	0	41	104	0	60	52176
2026-01-23 19:55:28.79	19.93	9.78	-50.9	-63.2	3.5	8.46e-01	0	41	104	0	60	52351
2026-01-23 19:55:31.82	19.55	9.97	-50.9	-63.2	3.6	8.45e-01	0	41	104	0	60	52005
2026-01-23 19:55:34.85	19.17	10.15	-50.9	-63.2	3.6	8.45e-01	0	41	104	0	60	51964
2026-01-23 19:55:37.88	18.77	10.34	-50.9	-63.1	3.6	8.45e-01	0	41	104	0	60	51789
2026-01-23 19:55:40.91	18.38	10.52	-50.9	-63.2	3.6	8.45e-01	0	41	104	0	60	52203
2026-01-23 19:55:43.94	17.97	10.71	-50.9	-63.2	3.6	8.45e-01	0	41	104	0	60	52174
2026-01-23 19:55:46.97	17.57	10.89	-50.9	-63.2	3.6	8.46e-01	0	41	104	0	60	51952
2026-01-23 19:55:50.00	17.15	11.08	-50.9	-63.2	3.6	8.44e-01	0	41	104	0	60	51988
2026-01-23 19:55:53.03	16.74	11.26	-50.8	-63.2	3.6	8.45e-01	0	41	104	0	60	52205
2026-01-23 19:55:56.06	16.31	11.45	-50.9	-63.2	3.6	8.45e-01	0	41	104	0	60	52245
2026-01-23 19:55:59.08	15.88	11.63	-50.9	-63.1	3.5	8.46e-01	0	41	104	0	60	51845
2026-01-23 19:56:02.11	15.45	11.82	-50.8	-63.2	3.6	8.45e-01	0	41	104	0	60	52288
2026-01-23 19:56:05.14	15.01	12.00	-50.8	-63.1	3.6	8.45e-01	0	41	104	0	60	51848
2026-01-23 19:56:08.17	14.56	12.18	-50.8	-63.1	3.6	8.45e-01	0	41	104	0	60	51748
2026-01-23 19:56:11.20	14.11	12.37	-50.8	-63.2	3.6	8.45e-01	0	41	104	0	60	52016
2026-01-23 19:56:14.23	13.66	12.55	-50.8	-63.2	3.6	8.45e-01	0	41	104	0	60	51963
2026-01-23 19:56:17.26	13.19	12.73	-50.8	-63.2	3.6	8.46e-01	0	41	104	0	60	52134
2026-01-23 19:56:20.29	12.72	12.91	-50.8	-63.1	3.6	8.45e-01	0	41	104	0	60	51884
2026-01-23 19:56:23.32	12.25	13.10	-50.9	-63.2	3.6	8.45e-01	0	41	104	0	60	52151
2026-01-23 19:56:26.35	11.77	13.28	-50.9	-63.1	3.6	8.44e-01	0	41	104	0	60	51812
2026-01-23 19:56:29.38	11.28	13.46	-50.9	-63.2	3.6	8.45e-01	0	41	104	0	60	52050
2026-01-23 19:56:32.41	10.79	13.64	-50.9	-63.2	3.6	8.46e-01	0	41	104	0	60	52207
2026-01-23 19:56:35.44	10.29	13.81	-50.9	-63.2	3.6	8.47e-01	0	41	104	0	60	52093
2026-01-23 19:56:38.47	9.78	13.99	-50.9	-63.2	3.6	8.45e-01	0	41	104	0	60	51957
2026-01-23 19:56:41.50	9.27	14.17	-50.9	-63.2	3.6	8.46e-01	0	41	104	0	60	52146
2026-01-23 19:56:44.53	8.75	14.34	-50.9	-63.2	3.6	8.46e-01	0	41	104	0	60	52186
2026-01-23 19:56:47.56	8.23	14.52	-50.9	-63.2	3.6	8.46e-01	0	41	104	0	60	51991
2026-01-23 19:56:50.60	7.70	14.69	-50.9	-63.2	3.6	8.45e-01	0	41	104	0	60	51998
2026-01-23 19:56:53.63	7.16	14.86	-50.9	-63.2	3.6	8.46e-01	0	41	104	0	60	52066
2026-01-23 19:56:56.65	6.62	15.03	-50.9	-63.2	3.6	8.45e-01	0	41	104	0	60	52114
2026-01-23 19:56:59.68	6.07	15.20	-50.9	-63.2	3.6	8.47e-01	0	41	104	0	60	52314
2026-01-23 19:57:02.71	5.51	15.37	-50.9	-63.1	3.6	8.46e-01	0	41	104	0	60	51802
2026-01-23 19:57:05.74	4.95	15.54	-50.9	-63.2	3.6	8.45e-01	0	41	104	0	60	52035
2026-01-23 19:57:08.78	4.38	15.70	-50.9	-63.2	3.6	8.45e-01	0	41	104	0	60	52169
2026-01-23 19:57:11.80	3.81	15.86	-50.9	-63.2	3.6	8.45e-01	0	41	104	0	60	52093
2026-01-23 19:57:14.83	3.23	16.02	-50.9	-63.2	3.6	8.45e-01	0	41	104	0	60	52185
2026-01-23 19:57:17.87	2.64	16.18	-50.9	-63.2	3.6	8.47e-01	0	41	104	0	60	52032
2026-01-23 19:57:20.90	2.04	16.34	-50.9	-63.2	3.6	8.46e-01	0	41	104	0	60	52122
2026-01-23 19:57:23.93	1.44	16.49	-50.9	-63.2	3.6	8.45e-01	0	41	104	0	60	52094
2026-01-23 19:57:26.96	0.84	16.65	-50.9	-63.2	3.6	8.46e-01	0	41	104	0	60	51966
2026-01-23 19:57:29.99	0.23	16.80	-50.9	-63.1	3.6	8.45e-01	0	41	104	0	60	51714
2026-01-23 19:57:33.01	359.61	16.94	-50.9	-63.1	3.6	8.45e-01	0	41	104	0	60	51639
2026-01-23 19:57:36.04	358.98	17.09	-50.9	-63.1	3.6	8.45e-01	0	41	104	0	60	51688
2026-01-23 19:57:39.07	358.35	17.23	-50.9	-63.1	3.6	8.44e-01	0	41	104	0	60	51922
2026-01-23 19:57:42.10	357.72	17.37	-50.9	-63.1	3.6	8.46e-01	0	41	104	0	60	51733
2026-01-23 19:57:45.13	357.07	17.51	-50.9	-63.2	3.6	8.45e-01	0	41	104	0	60	52029
2026-01-23 19:57:48.16	356.43	17.64	-50.9	-63.2	3.6	8.45e-01	0	41	104	0	60	51987
2026-01-23 19:57:51.19	355.77	17.77	-50.9	-63.2	3.6	8.45e-01	0	41	104	0	60	52050
2026-01-23 19:57:54.22	355.11	17.90	-50.9	-63.1	3.6	8.45e-01	0	41	104	0	60	51740
2026-01-23 19:57:57.25	354.45	18.02	-50.9	-63.2	3.6	8.45e-01	0	41	104	0	60	52112
2026-01-23 19:58:00.28	353.77	18.14	-50.9	-63.2	3.6	8.45e-01	0	41	104	0	60	52157
2026-01-23 19:58:03.31	353.10	18.26	-50.9	-63.2	3.6	8.45e-01	0	42	104	0	60	52001
2026-01-23 19:58:06.34	352.42	18.37	-50.9	-63.1	3.6	8.45e-01	0	41	104	0	60	51448
2026-01-23 19:58:09.37	351.73	18.48	-50.9	-63.1	3.6	8.46e-01	0	41	104	0	60	51764
2026-01-23 19:58:12.40	351.04	18.58	-50.9	-63.1	3.6	8.45e-01	0	41	104	0	60	51907
2026-01-23 19:58:15.43	350.34	18.69	-50.9	-63.1	3.6	8.45e-01	0	41	104	0	60	51748
2026-01-23 19:58:18.46	349.64	18.78	-50.9	-63.1	3.6	8.45e-01	0	42	104	0	60	51731
2026-01-23 19:58:21.49	348.94	18.88	-50.9	-63.1	3.6	8.46e-01	0	41	104	0	60	51709
2026-01-23 19:58:24.52	348.23	18.97	-50.9	-63.2	3.6	8.45e-01	0	41	104	0	60	52000
2026-01-23 19:58:27.55	347.51	19.05	-50.9	-63.2	3.6	8.45e-01	0	41	104	0	60	52126
2026-01-23 19:58:30.58	346.79	19.13	-50.9	-63.2	3.6	8.45e-01	0	42	104	0	60	52063
2026-01-23 19:58:33.61	346.07	19.21	-50.9	-63.2	3.6	8.46e-01	0	41	104	0	60	52040
2026-01-23 19:58:36.64	345.35	19.28	-50.9	-63.2	3.6	8.45e-01	0	41	104	0	60	52022
2026-01-23 19:58:39.66	344.62	19.34	-50.9	-63.2	3.6	8.46e-01	0	41	104	0	60	51948
2026-01-23 19:58:42.69	343.89	19.41	-50.9	-63.1	3.6	8.46e-01	0	41	104	0	60	51917
2026-01-23 19:58:45.72	343.16	19.46	-50.9	-63.1	3.6	8.47e-01	0	42	104	0	60	51749
2026-01-23 19:58:48.75	342.42	19.52	-50.9	-63.2	3.6	8.45e-01	0	41	104	0	60	52087
2026-01-23 19:58:51.78	341.68	19.56	-50.9	-63.0	3.6	8.46e-01	0	41	104	0	60	51269
2026-01-23 19:58:54.81	340.94	19.61	-50.9	-63.2	3.6	8.44e-01	0	41	104	0	60	51955
2026-01-23 19:58:57.83	340.20	19.64	-50.9	-63.2	3.6	8.46e-01	0	41	104	0	60	52108
2026-01-23 19:59:00.86	339.45	19.68	-50.9	-63.2	3.6	8.44e-01	0	41	104	0	60	51963
2026-01-23 19:59:03.89	338.70	19.70	-50.9	-63.2	3.6	8.46e-01	0	41	104	0	60	52253
2026-01-23 19:59:06.92	337.95	19.73	-50.9	-63.1	3.6	8.46e-01	0	42	104	0	60	51699
2026-01-23 19:59:09.95	337.21	19.75	-50.9	-63.2	3.6	8.46e-01	0	41	104	0	60	51983
2026-01-23 19:59:12.97	336.46	19.76	-50.9	-63.2	3.6	8.46e-01	0	42	104	0	60	52014
2026-01-23 19:59:16.00	335.71	19.76	-50.9	-63.2	3.6	8.46e-01	0	41	104	0	60	51991
2026-01-23 19:59:19.03	334.96	19.77	-50.9	-63.2	3.6	8.46e-01	0	41	104	0	60	52283
2026-01-23 19:59:22.06	334.21	19.76	-50.9	-63.2	3.6	8.45e-01	0	41	104	0	60	52102
2026-01-23 19:59:25.09	333.45	19.76	-50.9	-63.1	3.6	8.45e-01	0	42	104	0	60	51793
2026-01-23 19:59:28.12	332.70	19.74	-50.9	-63.2	3.6	8.45e-01	0	41	104	0	60	52196
2026-01-23 19:59:31.15	331.96	19.72	-50.9	-63.1	3.6	8.46e-01	0	41	104	0	60	51925
2026-01-23 19:59:34.18	331.21	19.70	-50.9	-63.2	3.6	8.45e-01	0	42	104	0	60	52091
2026-01-23 19:59:37.21	330.46	19.67	-50.9	-63.1	3.6	8.45e-01	0	41	104	0	60	51826
2026-01-23 19:59:40.24	329.71	19.64	-50.9	-63.1	3.6	8.46e-01	0	41	104	0	60	51931
2026-01-23 19:59:43.27	328.97	19.60	-50.9	-63.1	3.6	8.44e-01	0	42	104	0	60	51898
2026-01-23 19:59:46.30	328.23	19.55	-50.9	-63.1	3.6	8.46e-01	0	41	104	0	60	51719
2026-01-23 19:59:49.33	327.49	19.51	-50.9	-63.1	3.6	8.45e-01	0	42	104	0	60	51861
2026-01-23 19:59:52.36	326.75	19.45	-50.9	-63.2	3.6	8.47e-01	0	42	104	0	60	52092
2026-01-23 19:59:55.39	326.02	19.39	-50.9	-63.1	3.6	8.45e-01	0	42	104	0	60	51916
2026-01-23 19:59:58.41	325.29	19.33	-50.9	-63.2	3.6	8.44e-01	0	42	104	0	60	51974
2026-01-23 20:00:01.45	324.56	19.26	-50.9	-63.2	3.6	8.45e-01	0	41	104	0	60	52110
2026-01-23 20:00:04.48	323.83	19.19	-50.9	-63.1	3.6	8.44e-01	0	42	104	0	60	51779
2026-01-23 20:00:07.50	323.11	19.11	-50.9	-63.1	3.6	8.45e-01	0	42	104	0	60	51617
2026-01-23 20:00:10.53	322.40	19.03	-50.8	-63.1	3.6	8.44e-01	0	42	104	0	60	51713
2026-01-23 20:00:13.57	321.68	18.95	-50.9	-63.2	3.6	8.45e-01	0	42	104	0	60	52087
2026-01-23 20:00:16.59	320.97	18.86	-50.9	-63.1	3.6	8.45e-01	0	42	104	0	60	51803
2026-01-23 20:00:19.63	320.26	18.76	-50.9	-63.2	3.6	8.45e-01	0	42	104	0	60	52023
2026-01-23 20:00:22.66	319.56	18.66	-50.9	-63.1	3.6	8.46e-01	0	42	104	0	60	51820
2026-01-23 20:00:25.69	318.87	18.56	-50.9	-63.2	3.6	8.45e-01	0	42	104	0	60	51964
2026-01-23 20:00:28.71	318.18	18.46	-50.9	-63.2	3.6	8.45e-01	0	42	104	0	60	52203
2026-01-23 20:00:31.74	317.49	18.35	-50.9	-63.1	3.6	8.46e-01	0	42	104	0	60	51944
2026-01-23 20:00:34.77	316.81	18.23	-50.9	-63.1	3.6	8.46e-01	0	42	104	0	60	51589
2026-01-23 20:00:37.80	316.13	18.11	-50.9	-63.2	3.6	8.45e-01	0	42	104	0	60	51974
2026-01-23 20:00:40.83	315.46	17.99	-50.9	-63.1	3.6	8.44e-01	0	42	104	0	60	51941
2026-01-23 20:00:43.86	314.80	17.87	-50.9	-63.2	3.6	8.46e-01	0	42	104	0	60	52037
2026-01-23 20:00:46.89	314.14	17.74	-50.9	-63.2	3.6	8.46e-01	0	42	104	0	60	52048
2026-01-23 20:00:49.92	313.48	17.61	-50.9	-63.2	3.6	8.44e-01	0	42	104	0	60	52148
2026-01-23 20:00:52.95	312.84	17.48	-50.9	-63.2	3.6	8.45e-01	0	42	104	0	60	52144
2026-01-23 20:00:55.98	312.19	17.34	-50.9	-63.2	3.6	8.46e-01	0	42	104	0	60	51949
2026-01-23 20:00:59.01	311.56	17.20	-50.9	-63.1	3.6	8.46e-01	0	42	104	0	60	51919
2026-01-23 20:01:02.04	310.93	17.06	-50.9	-63.1	3.6	8.46e-01	0	42	104	0	60	51907
2026-01-23 20:01:05.07	310.30	16.91	-50.9	-63.2	3.6	8.44e-01	0	42	104	0	60	52043
2026-01-23 20:01:08.10	309.68	16.76	-50.9	-63.2	3.6	8.45e-01	0	42	104	0	60	52326
2026-01-23 20:01:11.13	309.07	16.61	-50.9	-63.2	3.6	8.46e-01	0	42	104	0	60	52114
2026-01-23 20:01:14.16	308.47	16.46	-50.9	-63.2	3.6	8.46e-01	0	42	104	0	60	51972
2026-01-23 20:01:17.19	307.87	16.30	-50.9	-63.2	3.6	8.46e-01	0	42	104	0	60	51998
2026-01-23 20:01:20.22	307.27	16.15	-50.9	-63.2	3.6	8.45e-01	0	42	104	0	60	52214
2026-01-23 20:01:23.25	306.68	15.99	-50.9	-63.2	3.6	8.45e-01	0	42	104	0	60	52038
2026-01-23 20:01:26.27	306.11	15.83	-50.8	-63.2	3.6	8.45e-01	0	42	104	0	60	51970
2026-01-23 20:01:29.31	305.53	15.66	-50.8	-63.2	3.6	8.46e-01	0	42	104	0	60	52046
2026-01-23 20:01:32.33	304.96	15.50	-50.9	-63.1	3.6	8.45e-01	0	42	104	0	60	51828
2026-01-23 20:01:35.36	304.40	15.33	-50.8	-63.1	3.6	8.46e-01	0	42	104	0	60	51907
2026-01-23 20:01:38.39	303.84	15.16	-50.9	-63.2	3.6	8.45e-01	0	42	104	0	60	51956
2026-01-23 20:01:41.42	303.30	14.99	-50.8	-63.2	3.6	8.45e-01	0	42	104	0	60	52137
2026-01-23 20:01:44.44	302.75	14.82	-50.8	-63.1	3.6	8.46e-01	0	42	104	0	60	51935
2026-01-23 20:01:47.48	302.22	14.65	-50.7	-63.0	3.6	8.45e-01	0	42	104	0	60	51166
2026-01-23 20:01:50.51	301.69	14.48	-50.8	-63.1	3.6	8.44e-01	0	42	104	0	60	51689
2026-01-23 20:01:53.54	301.16	14.30	-50.8	-63.1	3.6	8.46e-01	0	42	104	0	60	51648
2026-01-23 20:01:56.56	300.64	14.13	-50.8	-63.2	3.6	8.46e-01	0	42	104	0	60	51996
2026-01-23 20:01:59.60	300.13	13.95	-50.9	-63.1	3.6	8.46e-01	0	42	104	0	60	51866
2026-01-23 20:02:02.63	299.63	13.77	-50.8	-63.1	3.6	8.45e-01	0	42	104	0	60	51848
2026-01-23 20:02:05.66	299.13	13.59	-50.8	-63.1	3.6	8.46e-01	0	42	104	0	60	51414
2026-01-23 20:02:08.69	298.63	13.41	-50.8	-63.1	3.6	8.46e-01	0	42	104	0	60	51765
2026-01-23 20:02:11.71	298.15	13.23	-50.9	-63.1	3.6	8.46e-01	0	41	104	0	60	51777
2026-01-23 20:02:14.74	297.67	13.05	-50.8	-63.1	3.6	8.46e-01	0	42	104	0	60	51778
2026-01-23 20:02:17.77	297.19	12.87	-50.9	-63.2	3.6	8.45e-01	0	42	104	0	60	52142
2026-01-23 20:02:20.80	296.72	12.69	-50.8	-63.1	3.6	8.46e-01	0	41	104	0	60	51921
2026-01-23 20:02:23.83	296.26	12.50	-50.9	-63.2	3.6	8.45e-01	0	41	104	0	60	51949
2026-01-23 20:02:26.86	295.80	12.32	-50.9	-63.1	3.6	8.45e-01	0	41	104	0	60	51575
2026-01-23 20:02:29.89	295.35	12.14	-50.9	-63.2	3.6	8.45e-01	0	41	104	0	60	52168
2026-01-23 20:02:32.92	294.90	11.95	-50.9	-63.2	3.6	8.44e-01	0	41	104	0	60	51953
2026-01-23 20:02:35.95	294.46	11.77	-50.9	-63.2	3.6	8.46e-01	0	41	104	0	60	52129
2026-01-23 20:02:38.98	294.03	11.58	-50.9	-63.1	3.6	8.46e-01	0	41	104	0	60	51780
2026-01-23 20:02:42.01	293.60	11.40	-50.9	-63.1	3.6	8.45e-01	0	41	104	0	60	51789
2026-01-23 20:02:45.04	293.17	11.21	-50.9	-63.1	3.6	8.44e-01	0	41	104	0	60	51816
2026-01-23 20:02:48.07	292.76	11.03	-50.9	-63.1	3.6	8.46e-01	0	41	104	0	60	51924
2026-01-23 20:02:51.11	292.34	10.84	-50.8	-63.1	3.6	8.45e-01	0	41	104	0	60	51820
2026-01-23 20:02:54.14	291.93	10.66	-50.9	-63.1	3.6	8.45e-01	0	41	104	0	60	51642
2026-01-23 20:02:57.17	291.53	10.47	-50.9	-63.1	3.6	8.46e-01	0	41	104	0	60	51930
2026-01-23 20:03:00.20	291.13	10.29	-50.9	-63.1	3.6	8.45e-01	0	41	104	0	60	51734
2026-01-23 20:03:03.23	290.74	10.10	-50.9	-63.1	3.6	8.45e-01	0	41	104	0	60	51693
2026-01-23 20:03:06.26	290.35	9.92	-50.9	-63.1	3.6	8.45e-01	0	41	104	0	60	51722
2026-01-23 20:03:09.29	289.97	9.73	-50.8	-63.1	3.6	8.45e-01	0	41	104	0	60	51855
2026-01-23 20:03:12.32	289.60	9.55	-50.8	-63.1	3.6	8.46e-01	0	41	104	0	60	51756
2026-01-23 20:03:15.34	289.22	9.36	-50.9	-63.1	3.6	8.45e-01	0	41	104	0	60	51934
2026-01-23 20:03:18.37	288.86	9.18	-50.9	-63.1	3.6	8.46e-01	0	41	104	0	60	51822
2026-01-23 20:03:21.40	288.49	8.99	-50.9	-63.1	3.6	8.45e-01	0	41	104	0	60	51695
2026-01-23 20:03:24.43	288.13	8.81	-50.8	-63.1	3.6	8.46e-01	0	41	104	0	60	51843
2026-01-23 20:03:27.46	287.78	8.63	-50.9	-63.1	3.6	8.45e-01	0	41	104	0	60	51597
2026-01-23 20:03:30.48	287.43	8.44	-50.8	-63.1	3.6	8.45e-01	0	41	104	0	60	51926
2026-01-23 20:03:33.52	287.09	8.26	-50.9	-63.1	3.6	8.46e-01	0	41	104	0	60	51767
2026-01-23 20:03:36.55	286.75	8.08	-50.8	-63.1	3.6	8.45e-01	0	41	104	0	60	51874
2026-01-23 20:03:39.58	286.41	7.89	-50.8	-63.1	3.6	8.45e-01	0	41	104	0	60	51776
2026-01-23 20:03:42.60	286.08	7.71	-50.8	-63.1	3.6	8.47e-01	0	41	104	0	60	51558
2026-01-23 20:03:45.63	285.75	7.53	-50.8	-63.1	3.6	8.44e-01	0	41	104	0	60	51756
2026-01-23 20:03:48.66	285.43	7.35	-50.8	-63.1	3.6	8.45e-01	0	41	104	0	60	51681
2026-01-23 20:03:51.69	285.11	7.17	-50.8	-63.1	3.6	8.45e-01	0	41	104	0	60	51707
2026-01-23 20:03:54.72	284.79	6.99	-50.8	-63.1	3.6	8.46e-01	0	41	104	0	60	51512
2026-01-23 20:03:57.75	284.48	6.81	-50.8	-63.1	3.6	8.45e-01	0	41	104	0	60	51670
2026-01-23 20:04:00.78	284.18	6.63	-50.8	-63.1	3.6	8.45e-01	0	41	104	0	60	51612
2026-01-23 20:04:03.81	283.87	6.45	-50.8	-63.1	3.6	8.44e-01	0	41	104	0	60	51659
2026-01-23 20:04:06.83	283.57	6.27	-50.8	-63.1	3.6	8.46e-01	0	41	104	0	60	51390
2026-01-23 20:04:09.86	283.28	6.10	-50.9	-63.1	3.6	8.46e-01	0	41	104	0	60	51698
2026-01-23 20:04:12.89	282.99	5.92	-50.8	-63.1	3.6	8.45e-01	0	41	104	0	60	51875
2026-01-23 20:04:15.92	282.70	5.74	-50.8	-63.1	3.6	8.45e-01	0	41	104	0	60	51543
2026-01-23 20:04:18.95	282.41	5.56	-50.8	-63.1	3.6	8.46e-01	0	41	104	0	60	51518
2026-01-23 20:04:21.97	282.13	5.39	-50.9	-63.1	3.6	8.44e-01	0	41	104	0	60	51671
2026-01-23 20:04:25.00	281.85	5.21	-50.8	-63.1	3.6	8.45e-01	0	41	104	0	60	51748
2026-01-23 20:04:28.03	281.58	5.04	-50.8	-63.1	3.6	8.45e-01	0	41	104	0	60	51648
2026-01-23 20:04:31.06	281.31	4.86	-50.9	-63.1	3.6	8.46e-01	0	41	104	0	60	51498
2026-01-23 20:04:34.09	281.04	4.69	-50.9	-63.1	3.6	8.46e-01	0	41	104	0	60	51424
2026-01-23 20:04:37.12	280.78	4.52	-50.9	-63.1	3.6	8.45e-01	0	41	104	0	60	51416
2026-01-23 20:04:40.14	280.51	4.35	-50.9	-63.1	3.6	8.44e-01	0	41	104	0	60	51795
2026-01-23 20:04:43.18	280.26	4.17	-50.8	-63.1	3.6	8.45e-01	0	41	104	0	60	51466
2026-01-23 20:04:46.21	280.00	4.00	-50.9	-63.1	3.6	8.46e-01	0	41	104	0	60	51528
2026-01-23 20:04:49.23	279.75	3.83	-50.9	-63.1	3.6	8.46e-01	0	41	104	0	60	51604
2026-01-23 20:04:52.26	279.50	3.66	-50.8	-63.1	3.6	8.46e-01	0	41	104	0	60	51691
2026-01-23 20:04:55.29	279.25	3.49	-50.9	-63.1	3.6	8.46e-01	0	41	104	0	60	51530
2026-01-23 20:04:58.32	279.01	3.32	-50.9	-63.1	3.6	8.45e-01	0	41	104	0	60	51696
2026-01-23 20:05:01.35	278.77	3.15	-50.9	-63.1	3.6	8.45e-01	0	41	104	0	60	51790
2026-01-23 20:05:04.37	278.53	2.98	-50.9	-63.1	3.6	8.44e-01	0	41	104	0	60	51535
2026-01-23 20:05:07.40	278.30	2.82	-50.9	-63.1	3.6	8.45e-01	0	41	104	0	60	51816
2026-01-23 20:05:10.43	278.07	2.65	-50.9	-63.1	3.6	8.45e-01	0	41	104	0	60	51559
2026-01-23 20:05:13.46	277.84	2.48	-50.9	-63.1	3.6	8.46e-01	0	41	104	0	60	51637
2026-01-23 20:05:16.49	277.61	2.32	-50.9	-63.1	3.6	8.45e-01	0	41	104	0	60	51564
2026-01-23 20:05:19.52	277.39	2.15	-50.9	-63.1	3.6	8.45e-01	0	41	104	0	60	51375
2026-01-23 20:05:22.55	277.17	1.99	-50.9	-63.1	3.6	8.45e-01	0	41	104	0	60	51503
2026-01-23 20:05:25.58	276.95	1.82	-50.9	-63.1	3.6	8.46e-01	0	41	104	0	60	51393
2026-01-23 20:05:28.61	276.73	1.66	-50.9	-63.1	3.6	8.45e-01	0	41	104	0	60	51494
2026-01-23 20:05:31.63	276.52	1.50	-50.9	-63.0	3.6	8.45e-01	0	41	104	0	60	51341
2026-01-23 20:05:34.67	276.31	1.33	-50.9	-63.1	3.6	8.47e-01	0	41	104	0	60	51497
2026-01-23 20:05:37.70	276.10	1.17	-50.9	-63.1	3.6	8.46e-01	0	41	104	0	60	51707
2026-01-23 20:05:40.72	275.89	1.01	-50.9	-63.1	3.6	8.45e-01	0	41	104	0	60	51772
2026-01-23 20:05:43.75	275.69	0.85	-50.9	-63.1	3.6	8.45e-01	0	41	104	0	60	51683
2026-01-23 20:05:46.78	275.49	0.69	-50.9	-63.1	3.6	8.45e-01	0	41	104	0	60	51698
2026-01-23 20:05:49.81	275.29	0.53	-50.9	-63.1	3.6	8.44e-01	0	41	104	0	60	51657
2026-01-23 20:05:52.84	275.09	0.37	-50.9	-63.1	3.6	8.45e-01	0	41	104	0	60	51672
2026-01-23 20:05:55.87	274.90	0.21	-50.9	-63.1	3.6	8.46e-01	0	41	104	0	60	51754
2026-01-23 20:05:58.90	274.70	0.05	-50.9	-63.1	3.6	8.45e-01	0	41	104	0	60	51735

#Closed at: 2026-01-23 20:06:00
#Recorded file [0 MB]: D:/lorett/data/35029_260124_075239.dat