passes_logs/2026/01/23/R4.6S_Anadyr/R4.6S_Anadyr__20260123_035841_AQUA_rec.log

#Pass ID: 20260123_035841_AQUA
#Satellite: AQUA
#Configuration: AQUA
#almurnet v.1.7.20251203
#Start time: 2026-01-23 03:58:42

#Version: 2.2.20231116
#Station: R4.6S_Anadyr
#Location: 177.4865 lon 64.73178 lat
#TLE: 1 27424U 02022A   26022.49486490  .00002153  00000+0  44069-3 0  9997
#TLE: 2 27424  98.4099 349.0485 0001970  69.5876  43.4746 14.61847233261984

#Time	Az	El	Level	Level2	SNR	BER	BlckErr	Temp	State	Recorded	gain1	gain2
2026-01-23 03:58:42.79	211.45	0.08	-50.9	-65.9	3.5	1.51e+00	0	39	0	0	60	71163
2026-01-23 03:58:45.82	211.68	0.24	-51.3	-69.4	3.5	3.02e+01	0	40	104	0	60	112948
2026-01-23 03:58:48.85	211.91	0.40	-51.4	-69.4	3.5	3.02e+01	0	40	104	0	60	113286
2026-01-23 03:58:51.87	212.14	0.57	-51.6	-69.4	3.5	3.02e+01	0	40	104	0	60	114100
2026-01-23 03:58:54.90	212.37	0.73	-51.6	-69.4	3.5	3.02e+01	0	40	104	0	60	113935
2026-01-23 03:58:57.94	212.61	0.89	-51.5	-69.3	3.5	3.02e+01	0	40	104	0	60	112831
2026-01-23 03:59:00.96	212.85	1.06	-51.4	-69.3	3.5	3.02e+01	0	40	104	0	60	112110
2026-01-23 03:59:03.99	213.09	1.22	-50.9	-69.1	3.5	3.02e+01	0	40	104	0	60	109575
2026-01-23 03:59:07.02	213.34	1.39	-50.5	-68.4	3.5	3.02e+01	0	41	104	0	60	100999
2026-01-23 03:59:10.05	213.59	1.55	-50.1	-67.9	3.5	3.02e+01	0	41	104	0	60	96088
2026-01-23 03:59:13.09	213.84	1.72	-50.1	-67.9	3.5	3.02e+01	0	41	104	0	60	95366
2026-01-23 03:59:16.12	214.09	1.89	-50.1	-68.0	3.5	3.02e+01	0	41	104	0	60	96789
2026-01-23 03:59:19.15	214.35	2.06	-50.1	-67.9	3.5	3.02e+01	0	41	104	0	60	95650
2026-01-23 03:59:22.18	214.61	2.22	-50.1	-68.0	3.5	3.02e+01	0	41	104	0	60	97206
2026-01-23 03:59:25.21	214.87	2.39	-50.1	-68.0	3.5	3.02e+01	0	41	104	0	60	96585
2026-01-23 03:59:28.24	215.14	2.56	-50.1	-67.5	3.5	3.02e+01	0	41	104	0	60	90910
2026-01-23 03:59:31.27	215.41	2.73	-50.1	-67.1	3.5	3.02e+01	0	41	104	0	60	87479
2026-01-23 03:59:34.30	215.68	2.91	-49.9	-64.1	4.3	3.02e+01	0	41	104	0	60	61533
2026-01-23 03:59:37.33	215.96	3.08	-49.5	-58.6	8.3	3.02e+01	90	41	0	1048576	60	32880
2026-01-23 03:59:40.36	216.24	3.25	-47.3	-51.3	16.2	3.02e+01	89	41	0	6291456	60	14208
2026-01-23 03:59:43.39	216.53	3.42	-47.6	-51.7	16.3	3.02e+01	86	41	0	12058624	60	14721
2026-01-23 03:59:46.42	216.81	3.60	-40.7	-42.2	25.4	3.02e+01	90	41	0	15728640	56	6272
2026-01-23 03:59:49.45	217.10	3.77	-41.3	-42.9	24.7	3.02e+01	92	41	0	21495808	58	6053
2026-01-23 03:59:52.48	217.40	3.95	-41.3	-42.9	24.8	3.02e+01	90	41	0	27262976	56	6742
2026-01-23 03:59:55.51	217.70	4.13	-40.9	-42.4	25.4	3.02e+01	92	41	0	33030144	56	6404
2026-01-23 03:59:58.54	218.00	4.30	-41.4	-42.9	24.8	3.02e+01	91	41	0	38273024	58	6057
2026-01-23 04:00:01.57	218.30	4.48	-41.6	-43.2	24.6	3.02e+01	88	41	0	44040192	56	7003
2026-01-23 04:00:04.60	218.61	4.66	-40.8	-42.4	25.3	3.02e+01	92	41	0	49807360	56	6357
2026-01-23 04:00:07.62	218.93	4.84	-41.1	-42.6	25.2	3.02e+01	92	41	0	55574528	56	6513
2026-01-23 04:00:10.65	219.24	5.02	-41.3	-42.9	24.9	3.02e+01	90	41	0	61341696	56	6773
2026-01-23 04:00:13.68	219.57	5.20	-40.9	-42.4	25.4	3.02e+01	92	41	0	66584576	56	6411
2026-01-23 04:00:16.71	219.89	5.38	-40.8	-42.3	25.5	3.02e+01	92	41	0	72351744	56	6340
2026-01-23 04:00:19.74	220.22	5.56	-40.6	-42.1	25.6	3.02e+01	92	41	0	78118912	56	6176
2026-01-23 04:00:22.77	220.56	5.74	-40.9	-42.4	25.5	3.02e+01	92	41	0	83886080	56	6405
2026-01-23 04:00:25.80	220.90	5.93	-40.1	-41.6	26.0	3.02e+01	92	41	0	89653248	56	5819
2026-01-23 04:00:28.82	221.24	6.11	-40.9	-42.5	25.4	3.02e+01	91	41	0	95420416	56	6460
2026-01-23 04:00:31.85	221.59	6.29	-40.9	-42.5	25.3	3.02e+01	92	41	0	101187584	56	6449
2026-01-23 04:00:34.88	221.94	6.48	-40.9	-42.5	25.6	3.02e+01	90	41	0	106430464	56	6454
2026-01-23 04:00:37.91	222.30	6.66	-40.7	-42.3	25.3	3.02e+01	92	41	0	112197632	56	6332
2026-01-23 04:00:40.94	222.66	6.85	-41.0	-42.7	25.1	3.02e+01	92	41	0	117964800	56	6610
2026-01-23 04:00:43.97	223.03	7.04	-40.6	-42.5	25.5	3.02e+01	90	41	0	123731968	56	6431
2026-01-23 04:00:47.00	223.40	7.22	-40.4	-42.2	25.8	3.02e+01	92	41	0	129499136	56	6213
2026-01-23 04:00:50.02	223.78	7.41	-40.8	-42.5	25.4	3.02e+01	91	41	0	134742016	56	6464
2026-01-23 04:00:53.05	224.16	7.60	-40.7	-42.4	25.5	3.02e+01	92	41	0	140509184	56	6351
2026-01-23 04:00:56.08	224.55	7.79	-40.7	-42.5	25.5	3.02e+01	90	41	0	146276352	56	6450
2026-01-23 04:00:59.11	224.94	7.98	-40.8	-42.7	25.2	3.02e+01	92	41	0	152043520	56	6641
2026-01-23 04:01:02.14	225.34	8.17	-41.4	-43.4	24.6	3.02e+01	92	41	0	157810688	56	7189
2026-01-23 04:01:05.17	225.74	8.36	-41.2	-42.9	25.2	3.02e+01	92	41	0	163577856	56	6733
2026-01-23 04:01:08.20	226.15	8.55	-41.1	-42.8	25.2	3.02e+01	90	41	0	168820736	56	6653
2026-01-23 04:01:11.23	226.57	8.74	-41.4	-42.9	25.2	3.02e+01	92	41	0	174587904	56	6788
2026-01-23 04:01:14.26	226.99	8.93	-41.3	-42.9	25.1	3.02e+01	92	41	0	180355072	56	6755
2026-01-23 04:01:17.29	227.42	9.12	-41.1	-42.7	25.2	3.02e+01	92	41	0	186122240	56	6645
2026-01-23 04:01:20.32	227.85	9.32	-41.5	-43.1	24.9	3.02e+01	92	41	0	191889408	56	6924
2026-01-23 04:01:23.35	228.29	9.51	-41.3	-42.8	25.2	3.02e+01	92	41	0	197656576	56	6725
2026-01-23 04:01:26.37	228.73	9.70	-41.6	-43.1	25.0	3.02e+01	91	41	0	202899456	56	6930
2026-01-23 04:01:29.40	229.18	9.90	-41.4	-42.9	25.1	3.02e+01	92	41	0	208666624	56	6783
2026-01-23 04:01:32.43	229.64	10.09	-41.6	-43.2	25.0	3.02e+01	91	41	0	214433792	56	6988
2026-01-23 04:01:35.46	230.10	10.28	-41.4	-42.9	25.1	3.02e+01	90	41	0	220200960	56	6769
2026-01-23 04:01:38.49	230.57	10.48	-41.1	-42.6	25.4	3.02e+01	92	41	0	225968128	56	6567
2026-01-23 04:01:41.52	231.05	10.67	-41.3	-42.9	25.2	3.02e+01	92	41	0	231735296	56	6771
2026-01-23 04:01:44.55	231.53	10.86	-41.4	-43.0	25.1	3.02e+01	88	41	0	236978176	56	6806
2026-01-23 04:01:47.58	232.02	11.06	-41.1	-42.7	25.2	3.02e+01	92	40	0	242745344	56	6611
2026-01-23 04:01:50.61	232.52	11.25	-41.4	-43.0	25.1	3.02e+01	92	41	0	248512512	56	6842
2026-01-23 04:01:53.64	233.03	11.44	-41.5	-43.0	25.1	3.02e+01	92	41	0	254279680	56	6871
2026-01-23 04:01:56.67	233.54	11.64	-41.0	-42.5	25.6	3.02e+01	92	41	0	260046848	56	6439
2026-01-23 04:01:59.69	234.05	11.83	-40.7	-42.2	25.9	3.02e+01	91	41	0	265814016	56	6217
2026-01-23 04:02:02.72	234.58	12.02	-40.7	-42.2	25.9	3.02e+01	91	41	0	271056896	56	6246
2026-01-23 04:02:05.75	235.11	12.22	-40.2	-41.6	26.4	3.02e+01	91	41	0	276824064	56	5834
2026-01-23 04:02:08.78	235.65	12.41	-40.3	-41.7	26.3	3.02e+01	92	41	0	282591232	56	5904
2026-01-23 04:02:11.81	236.20	12.60	-39.8	-41.2	26.7	3.02e+01	91	41	0	288358400	54	6210
2026-01-23 04:02:14.84	236.75	12.79	-39.8	-41.2	26.7	3.02e+01	92	40	0	294125568	54	6219
2026-01-23 04:02:17.87	237.31	12.98	-39.5	-40.8	27.1	3.02e+01	90	41	0	299892736	54	5951
2026-01-23 04:02:20.90	237.88	13.17	-39.3	-40.6	27.2	3.02e+01	92	41	0	305135616	54	5840
2026-01-23 04:02:23.92	238.46	13.36	-39.1	-40.4	27.5	3.02e+01	92	41	0	310902784	54	5674
2026-01-23 04:02:26.95	239.04	13.54	-39.0	-40.2	27.6	3.02e+01	92	41	0	316669952	52	6275
2026-01-23 04:02:29.98	239.63	13.73	-38.7	-40.0	27.9	3.02e+01	92	41	0	322437120	52	6106
2026-01-23 04:02:33.01	240.23	13.92	-38.6	-39.8	28.1	3.02e+01	92	41	0	328204288	52	5992
2026-01-23 04:02:36.04	240.84	14.10	-38.5	-39.8	28.2	3.02e+01	91	41	0	333971456	52	5954
2026-01-23 04:02:39.06	241.46	14.28	-38.5	-39.8	28.2	3.02e+01	89	41	0	339214336	52	5952
2026-01-23 04:02:42.09	242.08	14.46	-38.1	-39.4	28.5	3.02e+01	88	41	0	344981504	52	5661
2026-01-23 04:02:45.12	242.71	14.64	-37.9	-39.2	28.8	3.02e+01	92	41	0	350748672	50	6214
2026-01-23 04:02:48.15	243.35	14.82	-37.9	-39.1	28.9	3.02e+01	90	41	0	356515840	50	6175
2026-01-23 04:02:51.18	244.00	15.00	-37.8	-39.0	28.9	3.02e+01	92	41	0	362283008	50	6107
2026-01-23 04:02:54.21	244.65	15.17	-37.7	-39.0	29.0	3.02e+01	90	41	0	368050176	50	6067
2026-01-23 04:02:57.24	245.32	15.34	-37.8	-39.0	28.8	3.02e+01	92	41	0	373293056	50	6103
2026-01-23 04:03:00.27	245.99	15.51	-37.8	-39.0	29.0	3.02e+01	92	41	0	379060224	50	6111
2026-01-23 04:03:03.30	246.67	15.68	-37.7	-39.0	28.9	3.02e+01	92	41	0	384827392	50	6070
2026-01-23 04:03:06.32	247.35	15.85	-37.8	-39.0	28.9	3.02e+01	92	41	0	390594560	50	6095
2026-01-23 04:03:09.35	248.05	16.01	-37.9	-39.1	28.8	3.02e+01	90	41	0	396361728	50	6170
2026-01-23 04:03:12.38	248.75	16.17	-37.7	-38.9	29.0	3.02e+01	92	41	0	402128896	50	6028
2026-01-23 04:03:15.41	249.46	16.33	-37.8	-39.0	28.9	3.02e+01	92	41	0	407371776	50	6123
2026-01-23 04:03:18.44	250.18	16.48	-37.7	-38.9	29.0	3.02e+01	92	41	0	413138944	50	6062
2026-01-23 04:03:21.47	250.90	16.63	-37.7	-38.9	29.1	3.02e+01	92	41	0	418906112	50	6007
2026-01-23 04:03:24.50	251.64	16.78	-37.9	-39.2	28.8	3.02e+01	92	41	0	424673280	50	6210
2026-01-23 04:03:27.53	252.38	16.93	-37.5	-38.7	29.2	3.02e+01	92	41	0	430440448	50	5915
2026-01-23 04:03:30.55	253.12	17.07	-37.8	-39.1	28.9	3.02e+01	91	41	0	436207616	50	6135
2026-01-23 04:03:33.58	253.88	17.21	-37.8	-39.0	29.0	3.02e+01	92	41	0	441450496	50	6099
2026-01-23 04:03:36.61	254.64	17.34	-37.6	-38.8	29.1	3.02e+01	92	41	0	447217664	50	5968
2026-01-23 04:03:39.64	255.41	17.47	-37.7	-38.9	29.1	3.02e+01	92	41	0	452984832	50	6024
2026-01-23 04:03:42.66	256.18	17.60	-37.7	-38.9	29.0	3.02e+01	92	41	0	458752000	50	6062
2026-01-23 04:03:45.69	256.96	17.72	-37.8	-39.1	28.9	3.02e+01	92	41	0	464519168	50	6148
2026-01-23 04:03:48.72	257.75	17.84	-37.8	-39.0	29.0	3.02e+01	92	41	0	470286336	50	6102
2026-01-23 04:03:51.75	258.55	17.95	-38.0	-39.2	28.8	3.02e+01	92	41	0	475529216	50	6225
2026-01-23 04:03:54.78	259.35	18.06	-37.8	-39.0	29.0	3.02e+01	92	41	0	481296384	50	6092
2026-01-23 04:03:57.81	260.16	18.16	-37.7	-39.0	29.0	3.02e+01	90	41	0	487063552	50	6076
2026-01-23 04:04:00.84	260.97	18.26	-37.7	-38.9	29.1	3.02e+01	91	41	0	492830720	50	6058
2026-01-23 04:04:03.87	261.79	18.35	-37.8	-39.0	28.9	3.02e+01	92	41	0	498597888	50	6080
2026-01-23 04:04:06.90	262.61	18.44	-37.6	-38.8	29.0	3.02e+01	91	41	0	503840768	50	5980
2026-01-23 04:04:09.92	263.43	18.53	-37.8	-39.0	28.9	3.02e+01	92	41	0	509607936	50	6116
2026-01-23 04:04:12.95	264.27	18.60	-37.9	-39.1	28.9	3.02e+01	92	41	0	515375104	50	6194
2026-01-23 04:04:15.98	265.10	18.68	-38.7	-40.0	28.7	3.02e+01	91	41	0	521142272	50	6835
2026-01-23 04:04:19.01	265.94	18.74	-37.8	-39.0	29.1	3.02e+01	91	41	0	526909440	50	6132
2026-01-23 04:04:22.04	266.79	18.81	-37.8	-39.1	29.0	3.02e+01	90	41	0	532676608	50	6137
2026-01-23 04:04:25.07	267.63	18.86	-37.8	-39.0	29.1	3.02e+01	92	41	0	538443776	50	6080
2026-01-23 04:04:28.10	268.48	18.91	-37.8	-39.0	29.1	3.02e+01	92	41	0	543686656	50	6126
2026-01-23 04:04:31.13	269.33	18.96	-37.9	-39.1	29.0	3.02e+01	92	41	0	549453824	50	6144
2026-01-23 04:04:34.16	270.19	19.00	-37.8	-39.0	29.0	3.02e+01	91	41	0	555220992	50	6133
2026-01-23 04:04:37.19	271.05	19.03	-37.8	-39.0	29.1	3.02e+01	91	41	0	560988160	50	6111
2026-01-23 04:04:40.22	271.91	19.05	-37.7	-38.9	29.2	3.02e+01	87	41	0	566755328	50	6013
2026-01-23 04:04:43.25	272.77	19.07	-37.8	-39.1	29.0	3.02e+01	90	41	0	571998208	50	6143
2026-01-23 04:04:46.28	273.63	19.09	-37.7	-38.9	29.2	3.02e+01	92	41	0	577765376	50	6003
2026-01-23 04:04:49.30	274.48	19.10	-38.1	-39.3	28.8	3.02e+01	92	41	0	583532544	50	6330
2026-01-23 04:04:52.33	275.35	19.10	-37.8	-39.0	29.2	3.02e+01	92	41	0	589299712	50	6070
2026-01-23 04:04:55.36	276.21	19.10	-37.6	-38.8	29.2	3.02e+01	92	41	0	595066880	50	5961
2026-01-23 04:04:58.39	277.07	19.09	-37.8	-39.0	29.0	3.02e+01	92	41	0	600834048	50	6127
2026-01-23 04:05:01.42	277.93	19.07	-37.9	-39.1	29.0	3.02e+01	92	41	0	606601216	50	6149
2026-01-23 04:05:04.44	278.79	19.05	-37.8	-39.0	29.1	3.02e+01	92	41	0	611844096	50	6090
2026-01-23 04:05:07.47	279.64	19.02	-37.9	-39.2	28.9	3.02e+01	90	41	0	617611264	50	6209
2026-01-23 04:05:10.50	280.50	18.99	-37.8	-39.0	29.2	3.02e+01	92	41	0	623378432	50	6080
2026-01-23 04:05:13.53	281.35	18.95	-37.8	-39.0	29.2	3.02e+01	90	41	0	629145600	50	6077
2026-01-23 04:05:16.56	282.20	18.90	-37.7	-39.0	29.1	3.02e+01	92	41	0	634912768	50	6069
2026-01-23 04:05:19.59	283.05	18.85	-37.5	-38.8	29.3	3.02e+01	91	41	0	640155648	50	5927
2026-01-23 04:05:22.61	283.89	18.79	-37.8	-39.0	29.2	3.02e+01	92	41	0	645922816	50	6101
2026-01-23 04:05:25.64	284.74	18.73	-37.6	-38.8	29.3	3.02e+01	92	41	0	651689984	50	5962
2026-01-23 04:05:28.67	285.57	18.66	-37.6	-38.8	29.3	3.02e+01	92	41	0	657457152	50	5929
2026-01-23 04:05:31.70	286.41	18.59	-37.7	-38.9	29.1	3.02e+01	92	41	0	663224320	50	6040
2026-01-23 04:05:34.73	287.23	18.51	-37.8	-39.0	29.0	3.02e+01	91	41	0	668991488	50	6123
2026-01-23 04:05:37.75	288.06	18.42	-37.8	-39.0	29.2	3.02e+01	91	41	0	674758656	50	6107
2026-01-23 04:05:40.78	288.88	18.33	-37.6	-38.8	29.3	3.02e+01	92	41	0	680001536	50	5959
2026-01-23 04:05:43.81	289.69	18.24	-37.6	-38.8	29.2	3.02e+01	90	41	0	685768704	50	5992
2026-01-23 04:05:46.84	290.50	18.14	-37.6	-38.9	29.2	3.02e+01	90	41	0	691535872	50	5995
2026-01-23 04:05:49.87	291.30	18.03	-37.7	-38.9	29.2	3.02e+01	92	41	0	697303040	50	6026
2026-01-23 04:05:52.89	292.10	17.92	-37.9	-39.1	29.2	3.02e+01	91	41	0	703070208	50	6188
2026-01-23 04:05:55.92	292.89	17.81	-37.7	-38.9	29.3	3.02e+01	92	41	0	708313088	50	6011
2026-01-23 04:05:58.95	293.67	17.69	-37.6	-38.8	29.3	3.02e+01	92	41	0	714080256	50	5970
2026-01-23 04:06:01.98	294.45	17.57	-37.4	-38.6	29.5	3.02e+01	92	41	0	719847424	50	5833
2026-01-23 04:06:05.01	295.22	17.44	-37.5	-38.7	29.4	3.02e+01	91	41	0	725614592	50	5881
2026-01-23 04:06:08.04	295.99	17.31	-37.5	-38.7	29.3	3.02e+01	92	41	0	731381760	50	5925
2026-01-23 04:06:11.06	296.74	17.18	-37.4	-38.6	29.5	3.02e+01	92	41	0	737148928	50	5807
2026-01-23 04:06:14.09	297.49	17.04	-37.5	-38.6	29.5	3.02e+01	90	41	0	742391808	50	5858
2026-01-23 04:06:17.12	298.23	16.90	-37.5	-38.6	29.4	3.02e+01	92	41	0	748158976	50	5855
2026-01-23 04:06:20.15	298.97	16.76	-37.4	-38.5	29.5	3.02e+01	90	41	0	753926144	50	5788
2026-01-23 04:06:23.18	299.70	16.61	-37.3	-38.5	29.6	3.02e+01	92	41	0	759693312	50	5742
2026-01-23 04:06:26.20	300.42	16.46	-37.6	-38.8	29.3	3.02e+01	92	41	0	765460480	50	5971
2026-01-23 04:06:29.23	301.13	16.30	-37.4	-38.7	29.4	3.02e+01	92	41	0	771227648	50	5859
2026-01-23 04:06:32.26	301.84	16.14	-37.7	-38.9	29.2	3.02e+01	92	41	0	776470528	50	6033
2026-01-23 04:06:35.29	302.53	15.99	-37.4	-38.7	29.5	3.02e+01	92	41	0	782237696	50	5865
2026-01-23 04:06:38.32	303.22	15.82	-37.7	-39.0	29.2	3.02e+01	92	41	0	788004864	50	6072
2026-01-23 04:06:41.35	303.91	15.66	-37.2	-38.4	29.6	3.02e+01	91	41	0	793772032	50	5694
2026-01-23 04:06:44.38	304.58	15.49	-37.5	-38.8	29.4	3.02e+01	92	41	0	799539200	50	5934
2026-01-23 04:06:47.41	305.25	15.32	-37.3	-38.5	29.5	3.02e+01	61	41	0	805306368	50	5759
2026-01-23 04:06:50.43	305.90	15.15	-37.6	-38.8	29.3	3.02e+01	60	41	0	810549248	50	5979
2026-01-23 04:06:53.46	306.55	14.98	-37.6	-38.8	29.4	3.02e+01	59	41	0	816316416	50	5940
2026-01-23 04:06:56.49	307.20	14.80	-37.5	-38.7	29.4	3.02e+01	60	41	0	822083584	50	5883
2026-01-23 04:06:59.51	307.83	14.62	-37.6	-38.8	29.4	3.02e+01	53	41	0	827850752	50	5980
2026-01-23 04:07:02.54	308.46	14.45	-37.5	-38.7	29.2	3.02e+01	47	41	0	833617920	50	5879
2026-01-23 04:07:05.57	309.08	14.27	-37.4	-38.6	29.4	3.02e+01	57	41	0	839385088	50	5849
2026-01-23 04:07:08.60	309.69	14.08	-37.5	-38.8	29.3	3.02e+01	57	41	0	844627968	50	5927
2026-01-23 04:07:11.63	310.29	13.90	-37.6	-38.8	29.3	3.02e+01	60	41	0	850395136	50	5966
2026-01-23 04:07:14.66	310.89	13.72	-37.8	-39.0	29.1	3.02e+01	59	41	0	856162304	50	6106
2026-01-23 04:07:17.68	311.47	13.53	-37.5	-38.7	29.3	3.02e+01	61	41	0	861929472	50	5897
2026-01-23 04:07:20.71	312.05	13.35	-37.8	-39.0	29.1	3.02e+01	59	41	0	867696640	50	6092
2026-01-23 04:07:23.74	312.63	13.16	-37.6	-38.8	29.3	3.02e+01	46	41	0	872939520	50	5966
2026-01-23 04:07:26.77	313.19	12.97	-38.0	-39.3	28.9	3.02e+01	46	41	0	878706688	50	6278
2026-01-23 04:07:29.80	313.75	12.78	-37.6	-38.8	29.2	3.02e+01	59	41	0	884473856	50	5947
2026-01-23 04:07:32.83	314.30	12.59	-37.8	-39.0	29.1	3.02e+01	60	41	0	890241024	50	6093
2026-01-23 04:07:35.86	314.84	12.40	-37.7	-38.9	29.2	3.02e+01	60	41	0	896008192	50	6027
2026-01-23 04:07:38.89	315.38	12.21	-37.8	-39.0	29.0	3.02e+01	58	41	0	901775360	50	6096
2026-01-23 04:07:41.91	315.90	12.02	-37.9	-39.1	28.9	3.02e+01	60	41	0	907542528	50	6173
2026-01-23 04:07:44.94	316.42	11.83	-37.9	-39.2	29.0	3.02e+01	58	41	0	912785408	50	6208
2026-01-23 04:07:47.97	316.94	11.64	-38.0	-39.2	28.9	3.02e+01	45	41	0	918552576	50	6275
2026-01-23 04:07:51.00	317.45	11.45	-37.9	-39.1	28.8	3.02e+01	59	41	0	924319744	50	6183
2026-01-23 04:07:54.03	317.95	11.26	-38.0	-39.3	28.8	3.02e+01	60	41	0	930086912	50	6291
2026-01-23 04:07:57.06	318.44	11.06	-38.3	-39.5	28.6	3.02e+01	60	41	0	935854080	50	6491
2026-01-23 04:08:00.08	318.92	10.87	-38.1	-39.3	28.7	3.02e+01	60	41	0	941096960	50	6345
2026-01-23 04:08:03.11	319.40	10.68	-38.1	-39.4	28.7	3.02e+01	57	41	0	946864128	50	6352
2026-01-23 04:08:06.14	319.88	10.49	-38.1	-39.3	28.6	3.02e+01	45	41	0	952631296	50	6348
2026-01-23 04:08:09.17	320.34	10.30	-38.1	-39.3	28.7	3.02e+01	44	41	0	958398464	50	6343
2026-01-23 04:08:12.20	320.81	10.11	-38.3	-39.6	28.5	3.02e+01	59	41	0	964165632	50	6507
2026-01-23 04:08:15.22	321.26	9.91	-38.3	-39.6	28.3	3.02e+01	58	41	0	969932800	50	6535
2026-01-23 04:08:18.25	321.71	9.72	-38.7	-40.0	28.2	3.02e+01	60	41	0	975699968	50	6806
2026-01-23 04:08:21.28	322.15	9.53	-38.5	-39.7	28.2	3.02e+01	62	41	0	980942848	50	6622
2026-01-23 04:08:24.31	322.59	9.34	-38.3	-39.6	28.5	3.02e+01	59	41	0	986710016	50	6500
2026-01-23 04:08:27.34	323.02	9.15	-38.2	-39.4	28.4	3.02e+01	62	41	0	992477184	50	6402
2026-01-23 04:08:30.37	323.44	8.96	-38.4	-39.6	28.3	3.02e+01	45	41	0	998244352	50	6556
2026-01-23 04:08:33.40	323.86	8.77	-38.9	-40.2	27.8	3.02e+01	45	41	0	1004011520	50	6976
2026-01-23 04:08:36.43	324.27	8.58	-38.8	-40.1	27.9	3.02e+01	60	41	0	1009254400	52	6187
2026-01-23 04:08:39.46	324.68	8.39	-38.7	-40.0	28.0	3.02e+01	59	41	0	1015021568	52	6112
2026-01-23 04:08:42.48	325.08	8.20	-38.9	-40.2	27.8	3.02e+01	58	41	0	1020788736	52	6259
2026-01-23 04:08:45.51	325.48	8.01	-39.0	-40.3	27.7	3.02e+01	58	41	0	1026555904	52	6298
2026-01-23 04:08:48.54	325.87	7.83	-38.7	-40.0	27.9	3.02e+01	59	41	0	1032323072	52	6075
2026-01-23 04:08:51.57	326.25	7.64	-38.9	-40.2	27.8	3.02e+01	51	41	0	1038090240	52	6221
2026-01-23 04:08:54.60	326.63	7.45	-39.5	-40.8	27.1	3.02e+01	49	41	0	1043333120	52	6722
2026-01-23 04:08:57.63	327.01	7.27	-39.1	-40.4	27.5	3.02e+01	58	41	0	1049100288	52	6411
2026-01-23 04:09:00.66	327.38	7.08	-39.3	-40.6	27.2	3.02e+01	60	41	0	1054867456	52	6562
2026-01-23 04:09:03.69	327.75	6.90	-40.0	-41.4	26.8	3.02e+01	57	41	0	1060634624	54	6367
2026-01-23 04:09:06.72	328.11	6.71	-39.3	-40.6	27.2	3.02e+01	59	41	0	1066401792	52	6550
2026-01-23 04:09:09.75	328.46	6.53	-39.2	-40.6	27.2	3.02e+01	59	41	0	1072168960	52	6517
2026-01-23 04:09:12.78	328.82	6.34	-39.5	-40.9	27.1	3.02e+01	61	41	0	1077411840	52	6727
2026-01-23 04:09:15.80	329.16	6.16	-39.9	-41.3	26.5	3.02e+01	50	41	0	1083179008	54	6343
2026-01-23 04:09:18.83	329.50	5.98	-39.6	-40.9	27.0	3.02e+01	60	41	0	1088946176	54	6036
2026-01-23 04:09:21.86	329.84	5.80	-40.0	-41.4	26.4	3.02e+01	60	41	0	1094713344	54	6397
2026-01-23 04:09:24.89	330.18	5.62	-40.1	-41.5	26.3	3.02e+01	61	41	0	1100480512	54	6474
2026-01-23 04:09:27.92	330.51	5.44	-40.1	-41.6	26.2	3.02e+01	61	41	0	1106247680	54	6504
2026-01-23 04:09:30.94	330.83	5.26	-40.1	-41.6	26.2	3.02e+01	61	41	0	1111490560	54	6500
2026-01-23 04:09:33.97	331.15	5.08	-40.0	-41.4	26.3	3.02e+01	60	41	0	1117257728	54	6366
2026-01-23 04:09:36.99	331.47	4.90	-40.4	-41.9	25.8	3.02e+01	51	41	0	1123024896	54	6730
2026-01-23 04:09:40.02	331.78	4.73	-41.4	-43.0	24.5	3.02e+01	45	41	0	1128792064	56	6868
2026-01-23 04:09:43.05	332.09	4.55	-41.6	-43.4	23.7	3.02e+01	60	41	0	1134559232	58	6364
2026-01-23 04:09:46.08	332.39	4.37	-43.6	-46.1	20.2	3.02e+01	54	41	0	1140326400	60	7724
2026-01-23 04:09:49.11	332.70	4.20	-45.3	-49.8	15.0	3.02e+01	61	41	0	1145569280	60	11831
2026-01-23 04:09:52.14	332.99	4.02	-46.4	-55.1	8.4	3.02e+01	59	41	0	1151336448	60	21873
2026-01-23 04:09:55.16	333.29	3.85	-46.6	-60.0	3.7	3.02e+01	0	41	104	1155006464	60	38510
2026-01-23 04:09:58.19	333.58	3.68	-46.7	-62.8	3.6	3.02e+01	0	41	104	1155006464	60	53381
2026-01-23 04:10:01.22	333.87	3.50	-46.7	-64.5	3.5	3.02e+01	0	41	104	1155006464	60	64971
2026-01-23 04:10:04.24	334.15	3.33	-46.7	-64.6	3.5	3.02e+01	0	41	104	1155006464	60	65062
2026-01-23 04:10:07.27	334.43	3.16	-46.8	-64.7	3.5	3.02e+01	0	41	104	1155006464	60	65908
2026-01-23 04:10:10.30	334.70	2.99	-46.6	-64.5	3.5	3.02e+01	0	41	104	1155006464	60	64515
2026-01-23 04:10:13.34	334.98	2.82	-51.0	-68.9	3.5	3.02e+01	0	41	104	1155006464	60	107183
2026-01-23 04:10:16.37	335.25	2.65	-51.5	-69.4	3.5	3.02e+01	0	41	104	1155006464	60	113140
2026-01-23 04:10:19.40	335.52	2.48	-51.6	-69.5	3.5	3.02e+01	0	41	104	1155006464	60	115174
2026-01-23 04:10:22.43	335.78	2.32	-51.6	-69.6	3.5	3.02e+01	0	41	104	1155006464	60	116807
2026-01-23 04:10:25.46	336.04	2.15	-51.7	-69.6	3.5	3.02e+01	0	42	104	1155006464	60	115797
2026-01-23 04:10:28.49	336.30	1.98	-51.7	-69.5	3.5	3.02e+01	0	42	104	1155006464	60	115159
2026-01-23 04:10:31.52	336.55	1.82	-51.7	-69.5	3.5	3.02e+01	0	41	104	1155006464	60	115114
2026-01-23 04:10:34.55	336.81	1.65	-51.6	-69.6	3.5	3.02e+01	0	42	104	1155006464	60	115947
2026-01-23 04:10:37.58	337.06	1.49	-51.7	-69.5	3.4	3.02e+01	0	41	104	1155006464	60	114802
2026-01-23 04:10:40.61	337.30	1.32	-51.7	-69.5	3.5	3.02e+01	0	42	104	1155006464	60	114934
2026-01-23 04:10:43.64	337.54	1.16	-51.7	-69.5	3.5	3.02e+01	0	41	104	1155006464	60	114852
2026-01-23 04:10:46.67	337.79	1.00	-51.6	-69.5	3.5	3.02e+01	0	42	104	1155006464	60	114521
2026-01-23 04:10:49.70	338.02	0.83	-51.6	-69.4	3.5	3.02e+01	0	42	104	1155006464	60	114130
2026-01-23 04:10:52.73	338.26	0.67	-51.6	-69.4	3.5	3.02e+01	0	41	104	1155006464	60	114012
2026-01-23 04:10:55.76	338.49	0.51	-51.6	-69.5	3.5	3.02e+01	0	42	104	1155006464	60	114242
2026-01-23 04:10:58.79	338.72	0.35	-51.6	-69.5	3.5	3.02e+01	0	41	104	1155006464	60	114412
2026-01-23 04:11:01.82	338.95	0.19	-51.6	-69.5	3.5	3.02e+01	0	42	104	1155006464	60	114469
2026-01-23 04:11:04.85	339.18	0.03	-51.6	-69.4	3.5	3.02e+01	0	42	104	1155006464	60	113985
2026-01-23 04:11:07.88	339.40	-0.12	-51.6	-69.4	3.5	3.02e+01	0	42	104	1155006464	60	114091

#Closed at: 2026-01-23 04:11:08
#Recorded file [1155 MB]: D:/lorett/data/35029_260123_155842.dat