passes_logs/2025/01/24/LEX_Murmansk/LEX_Murmansk__20250124_152921_NOAA_19_rec.log

#Pass ID: 20250124_152921_NOAA 19
#Satellite: NOAA 19
#Configuration: NOAA 19
#Start time: 2025-01-24 15:29:16.132423

#LorettStation: 1.0.0 05.05.2024
#Station: LEX_Murmansk
#Location: 33.156738 lon 68.926811 lat
#TLE: 1 33591U 09005A   25024.13697735  .00000399  00000+0  23694-3 0  9996
#TLE: 2 33591  99.0181  87.9693 0014137  32.7659 327.4387 14.13267470822833

#Time	Az	El	Level	SNR
2025-01-24 15:29:28.419155	87.0	16.1	-90.2	4.3
2025-01-24 15:29:29.576467	86.9	16.2	-90.3	3.8
2025-01-24 15:29:30.723654	86.8	16.3	-90.4	8.1
2025-01-24 15:29:31.881604	86.6	16.4	-90.2	9.8
2025-01-24 15:29:33.031799	86.5	16.5	-90.2	8.2
2025-01-24 15:29:34.186341	86.3	16.7	-89.9	6.5
2025-01-24 15:29:35.337869	86.2	16.8	-90.3	3.6
2025-01-24 15:29:36.494863	86.0	16.9	-90.1	7.2
2025-01-24 15:29:37.647866	85.9	17.0	-90.3	7.7
2025-01-24 15:29:38.800135	85.7	17.1	-90.1	8.7
2025-01-24 15:29:39.957406	85.6	17.2	-90.7	8.0
2025-01-24 15:29:41.111579	85.4	17.3	-90.7	7.7
2025-01-24 15:29:42.263878	85.3	17.4	-90.2	4.3
2025-01-24 15:29:43.418956	85.1	17.5	-90.1	2.2
2025-01-24 15:29:44.574271	85.0	17.6	-90.4	2.9
2025-01-24 15:29:45.725200	84.8	17.8	-90.4	2.8
2025-01-24 15:29:46.877545	84.7	17.9	-90.5	2.8
2025-01-24 15:29:48.027885	84.5	18.0	-90.7	3.9
2025-01-24 15:29:49.180317	84.4	18.1	-89.7	5.6
2025-01-24 15:29:50.331769	84.2	18.2	-89.9	7.9
2025-01-24 15:29:51.485732	84.0	18.3	-90.4	7.2
2025-01-24 15:29:52.639311	83.9	18.4	-90.6	8.3
2025-01-24 15:29:53.798193	83.7	18.5	-90.7	5.8
2025-01-24 15:29:54.953805	83.6	18.6	-90.5	7.0
2025-01-24 15:29:56.106697	83.4	18.8	-90.3	9.3
2025-01-24 15:29:57.261681	83.2	18.9	-89.9	9.8
2025-01-24 15:29:58.410484	83.1	19.0	-90.3	7.8
2025-01-24 15:29:59.556450	82.9	19.1	-90.6	8.3
2025-01-24 15:30:00.705857	82.7	19.2	-90.6	4.5
2025-01-24 15:30:01.852718	82.5	19.3	-90.4	2.2
2025-01-24 15:30:03.010155	82.4	19.4	-90.5	2.3
2025-01-24 15:30:04.167036	82.2	19.6	-90.2	5.0
2025-01-24 15:30:05.324963	82.0	19.7	-90.3	4.8
2025-01-24 15:30:06.469526	81.9	19.8	-90.2	5.7
2025-01-24 15:30:07.622795	81.7	19.9	-90.6	12.1
2025-01-24 15:30:08.771125	81.5	20.0	-90.4	9.2
2025-01-24 15:30:09.927457	81.3	20.1	-90.6	9.0
2025-01-24 15:30:11.077881	81.1	20.3	-90.3	9.2
2025-01-24 15:30:12.232296	80.9	20.4	-90.4	4.2
2025-01-24 15:30:13.386482	80.8	20.5	-89.9	5.6
2025-01-24 15:30:14.541304	80.6	20.6	-90.6	4.3
2025-01-24 15:30:15.691351	80.4	20.7	-90.6	8.8
2025-01-24 15:30:16.840999	80.2	20.8	-90.8	10.6
2025-01-24 15:30:17.998556	80.0	21.0	-90.4	6.2
2025-01-24 15:30:19.146958	79.8	21.1	-90.5	5.1
2025-01-24 15:30:20.298508	79.6	21.2	-90.2	3.7
2025-01-24 15:30:21.442988	79.4	21.3	-90.5	1.9
2025-01-24 15:30:22.568845	79.2	21.4	-90.4	1.6
2025-01-24 15:30:23.689685	79.0	21.5	-90.6	2.7
2025-01-24 15:30:24.810611	78.9	21.7	-90.5	2.8
2025-01-24 15:30:25.932029	78.7	21.8	-91.0	6.2
2025-01-24 15:30:27.052568	78.5	21.9	-91.1	9.6
2025-01-24 15:30:28.173096	78.3	22.0	-90.7	7.6
2025-01-24 15:30:29.294277	78.1	22.1	-90.7	10.9
2025-01-24 15:30:30.414687	77.9	22.2	-91.1	3.6
2025-01-24 15:30:31.539667	77.7	22.3	-90.6	3.6
2025-01-24 15:30:32.674487	77.4	22.5	-90.5	5.0
2025-01-24 15:30:33.826758	77.2	22.6	-90.5	7.4
2025-01-24 15:30:34.982053	77.0	22.7	-90.4	8.9
2025-01-24 15:30:36.135311	76.8	22.8	-90.6	7.4
2025-01-24 15:30:37.282940	76.6	22.9	-90.2	9.0
2025-01-24 15:30:38.433017	76.4	23.1	-90.3	4.2
2025-01-24 15:30:39.591500	76.2	23.2	-90.6	7.0
2025-01-24 15:30:40.750500	75.9	23.3	-90.5	3.2
2025-01-24 15:30:41.907330	75.7	23.4	-90.5	5.1
2025-01-24 15:30:43.051274	75.5	23.6	-90.6	6.7
2025-01-24 15:30:44.208430	75.3	23.7	-90.5	9.5
2025-01-24 15:30:45.363901	75.0	23.8	-90.4	5.7
2025-01-24 15:30:46.516197	74.8	23.9	-90.4	8.3
2025-01-24 15:30:47.672930	74.6	24.0	-90.4	6.5
2025-01-24 15:30:48.833897	74.3	24.2	-90.5	4.0
2025-01-24 15:30:49.992794	74.1	24.3	-90.7	1.8
2025-01-24 15:30:51.150965	73.8	24.4	-90.5	3.7
2025-01-24 15:30:52.303472	73.6	24.5	-90.6	0.2
2025-01-24 15:30:53.453753	73.4	24.6	-90.5	1.2
2025-01-24 15:30:54.620467	73.1	24.8	-90.8	4.0
2025-01-24 15:30:55.772658	72.9	24.9	-91.4	5.3
2025-01-24 15:30:56.931059	72.6	25.0	-91.3	6.1
2025-01-24 15:30:58.084100	72.4	25.1	-91.2	3.5
2025-01-24 15:30:59.234981	72.1	25.2	-90.8	3.6
2025-01-24 15:31:00.377010	71.9	25.4	-91.2	3.4
2025-01-24 15:31:01.529314	71.6	25.5	-91.4	3.4
2025-01-24 15:31:02.678327	71.4	25.6	-91.1	2.9
2025-01-24 15:31:03.831393	71.1	25.7	-91.3	3.0
2025-01-24 15:31:04.978121	70.8	25.8	-91.3	4.6
2025-01-24 15:31:06.131863	70.6	26.0	-91.1	8.2
2025-01-24 15:31:07.281487	70.3	26.1	-91.3	5.1
2025-01-24 15:31:08.431359	70.0	26.2	-91.1	4.8
2025-01-24 15:31:09.589579	69.8	26.3	-91.2	2.3
2025-01-24 15:31:10.743716	69.5	26.4	-91.3	2.4
2025-01-24 15:31:11.891265	69.2	26.6	-91.5	2.6
2025-01-24 15:31:13.045630	69.0	26.7	-91.5	4.2
2025-01-24 15:31:14.202803	68.7	26.8	-91.4	2.3
2025-01-24 15:31:15.352847	68.4	26.9	-91.2	0.4
2025-01-24 15:31:16.509811	68.1	27.0	-91.1	1.8
2025-01-24 15:31:17.662393	67.8	27.2	-91.5	1.3
2025-01-24 15:31:18.827280	67.5	27.3	-91.4	3.6
2025-01-24 15:31:19.970217	67.3	27.4	-91.6	3.2
2025-01-24 15:31:21.123209	67.0	27.5	-91.1	2.5
2025-01-24 15:31:22.279724	66.7	27.6	-91.1	4.1
2025-01-24 15:31:23.433970	66.4	27.7	-91.6	0.6
2025-01-24 15:31:24.591651	66.1	27.9	-91.3	2.2
2025-01-24 15:31:25.746707	65.8	28.0	-91.0	2.6
2025-01-24 15:31:26.892348	65.5	28.1	-91.3	1.5
2025-01-24 15:31:28.048712	65.2	28.2	-91.7	1.2
2025-01-24 15:31:29.202550	64.9	28.3	-91.2	2.5
2025-01-24 15:31:30.351007	64.6	28.4	-90.9	1.8
2025-01-24 15:31:31.513017	64.3	28.6	-91.6	3.8
2025-01-24 15:31:32.670400	63.9	28.7	-91.4	2.8
2025-01-24 15:31:33.830318	63.6	28.8	-91.5	3.3
2025-01-24 15:31:34.983552	63.3	28.9	-91.4	4.3
2025-01-24 15:31:36.139438	63.0	29.0	-91.1	5.2
2025-01-24 15:31:37.293626	62.7	29.1	-91.0	3.6
2025-01-24 15:31:38.452372	62.4	29.2	-91.2	3.1
2025-01-24 15:31:39.609261	62.0	29.3	-91.3	3.1
2025-01-24 15:31:40.758435	61.7	29.4	-91.3	3.9
2025-01-24 15:31:41.913922	61.4	29.6	-91.3	2.9
2025-01-24 15:31:43.068215	61.0	29.7	-91.3	5.9
2025-01-24 15:31:44.220513	60.7	29.8	-91.3	7.4
2025-01-24 15:31:45.371365	60.4	29.9	-90.8	8.7
2025-01-24 15:31:46.521700	60.0	30.0	-91.1	13.8
2025-01-24 15:31:47.669849	59.7	30.1	-91.1	13.4
2025-01-24 15:31:48.828963	59.3	30.2	-91.4	12.9
2025-01-24 15:31:49.976282	59.0	30.3	-91.4	9.7
2025-01-24 15:31:51.126222	58.7	30.4	-91.0	8.2
2025-01-24 15:31:52.281545	58.3	30.5	-90.9	5.4
2025-01-24 15:31:53.436320	58.0	30.6	-91.0	7.9
2025-01-24 15:31:54.588690	57.6	30.7	-91.4	8.2
2025-01-24 15:31:55.743503	57.2	30.8	-91.2	7.8
2025-01-24 15:31:56.899344	56.9	30.9	-90.8	11.1
2025-01-24 15:31:58.056359	56.5	31.0	-91.3	11.5
2025-01-24 15:31:59.209782	56.2	31.1	-90.7	14.2
2025-01-24 15:32:00.373244	55.8	31.2	-90.8	9.9
2025-01-24 15:32:01.525995	55.4	31.3	-91.4	10.4
2025-01-24 15:32:02.682769	55.1	31.4	-90.9	7.4
2025-01-24 15:32:03.839648	54.7	31.5	-91.0	7.1
2025-01-24 15:32:04.997444	54.3	31.6	-91.0	6.1
2025-01-24 15:32:06.144621	53.9	31.6	-91.0	4.8
2025-01-24 15:32:07.302796	53.6	31.7	-91.1	2.9
2025-01-24 15:32:08.456587	53.2	31.8	-91.2	5.2
2025-01-24 15:32:09.611861	52.8	31.9	-91.1	5.6
2025-01-24 15:32:10.761424	52.4	32.0	-91.2	4.0
2025-01-24 15:32:11.916654	52.0	32.1	-90.9	6.4
2025-01-24 15:32:13.069494	51.6	32.2	-91.1	10.2
2025-01-24 15:32:14.229009	51.2	32.2	-90.7	10.1
2025-01-24 15:32:15.383719	50.9	32.3	-90.8	9.8
2025-01-24 15:32:16.535839	50.5	32.4	-91.1	11.3
2025-01-24 15:32:17.689623	50.1	32.5	-90.8	11.2
2025-01-24 15:32:18.845728	49.7	32.6	-91.5	12.1
2025-01-24 15:32:19.993535	49.3	32.6	-91.0	13.0
2025-01-24 15:32:21.148555	48.9	32.7	-91.3	12.3
2025-01-24 15:32:22.276806	48.5	32.8	-90.8	10.7
2025-01-24 15:32:23.397470	48.1	32.8	-90.9	7.8
2025-01-24 15:32:24.519152	47.7	32.9	-91.1	7.1
2025-01-24 15:32:25.639160	47.3	33.0	-91.4	7.7
2025-01-24 15:32:26.760309	46.9	33.0	-90.8	3.8
2025-01-24 15:32:27.880743	46.5	33.1	-91.1	5.1
2025-01-24 15:32:29.000702	46.1	33.2	-91.3	8.5
2025-01-24 15:32:30.121204	45.7	33.2	-90.8	9.9
2025-01-24 15:32:31.241317	45.3	33.3	-90.9	9.8
2025-01-24 15:32:32.377844	44.9	33.3	-91.3	10.5
2025-01-24 15:32:33.525778	44.5	33.4	-91.2	17.4
2025-01-24 15:32:34.674484	44.0	33.4	-91.3	13.2
2025-01-24 15:32:35.824496	43.6	33.5	-91.3	14.4
2025-01-24 15:32:36.968156	43.2	33.6	-91.6	15.0
2025-01-24 15:32:38.117641	42.8	33.6	-90.8	12.6
2025-01-24 15:32:39.273008	42.4	33.6	-90.9	11.9
2025-01-24 15:32:40.431256	41.9	33.7	-91.2	11.4
2025-01-24 15:32:41.581008	41.5	33.7	-91.5	11.9
2025-01-24 15:32:42.736292	41.1	33.8	-91.4	6.7
2025-01-24 15:32:43.889836	40.6	33.8	-91.3	6.9
2025-01-24 15:32:45.039906	40.2	33.9	-91.6	6.4
2025-01-24 15:32:46.187993	39.8	33.9	-91.1	1.6
2025-01-24 15:32:47.354980	39.3	33.9	-90.7	3.3
2025-01-24 15:32:48.509127	38.9	34.0	-91.1	4.4
2025-01-24 15:32:49.667428	38.5	34.0	-91.1	4.7
2025-01-24 15:32:50.815715	38.0	34.0	-90.9	3.5
2025-01-24 15:32:51.970334	37.6	34.1	-91.0	6.6
2025-01-24 15:32:53.116547	37.2	34.1	-91.2	7.3
2025-01-24 15:32:54.274046	36.7	34.1	-90.8	4.1
2025-01-24 15:32:55.440473	36.3	34.1	-90.9	7.8
2025-01-24 15:32:56.600099	35.9	34.2	-91.5	10.7
2025-01-24 15:32:57.750648	35.4	34.2	-91.1	7.3
2025-01-24 15:32:58.901517	35.0	34.2	-91.2	8.6
2025-01-24 15:33:00.060228	34.5	34.2	-91.0	9.5
2025-01-24 15:33:01.208876	34.1	34.2	-91.1	10.0
2025-01-24 15:33:02.362003	33.7	34.2	-91.3	12.1
2025-01-24 15:33:03.511866	33.2	34.2	-91.0	16.7
2025-01-24 15:33:04.667057	32.8	34.3	-91.0	14.4
2025-01-24 15:33:05.822553	32.3	34.3	-91.4	14.0
2025-01-24 15:33:06.981427	31.9	34.3	-91.2	13.5
2025-01-24 15:33:08.140345	31.4	34.3	-90.9	12.0
2025-01-24 15:33:09.293521	31.0	34.3	-91.3	10.4
2025-01-24 15:33:10.444614	30.6	34.3	-91.4	12.8
2025-01-24 15:33:11.597719	30.1	34.3	-91.5	11.5
2025-01-24 15:33:12.751121	29.7	34.3	-91.3	8.0
2025-01-24 15:33:13.914624	29.2	34.2	-91.7	8.8
2025-01-24 15:33:15.073168	28.8	34.2	-91.4	8.8
2025-01-24 15:33:16.225043	28.3	34.2	-91.0	6.2
2025-01-24 15:33:17.380936	27.9	34.2	-91.1	6.3
2025-01-24 15:33:18.546422	27.5	34.2	-91.4	6.0
2025-01-24 15:33:19.699297	27.0	34.2	-91.5	5.6
2025-01-24 15:33:20.852869	26.6	34.2	-91.6	4.2
2025-01-24 15:33:22.006831	26.1	34.1	-91.0	4.9
2025-01-24 15:33:23.160307	25.7	34.1	-91.0	5.9
2025-01-24 15:33:24.313079	25.3	34.1	-91.0	3.2
2025-01-24 15:33:25.464785	24.8	34.1	-91.5	6.0
2025-01-24 15:33:26.620515	24.4	34.0	-91.2	5.7
2025-01-24 15:33:27.779995	24.0	34.0	-91.1	2.3
2025-01-24 15:33:28.942358	23.5	34.0	-91.1	5.0
2025-01-24 15:33:30.096435	23.1	33.9	-91.3	5.8
2025-01-24 15:33:31.259985	22.7	33.9	-91.3	2.9
2025-01-24 15:33:32.406745	22.2	33.9	-90.7	4.5
2025-01-24 15:33:33.559529	21.8	33.8	-91.1	6.8
2025-01-24 15:33:34.709258	21.4	33.8	-91.4	4.7
2025-01-24 15:33:35.864944	20.9	33.7	-91.4	3.8
2025-01-24 15:33:37.021228	20.5	33.7	-91.3	5.4
2025-01-24 15:33:38.186832	20.1	33.6	-91.3	5.0
2025-01-24 15:33:39.337707	19.7	33.6	-91.2	3.1
2025-01-24 15:33:40.491291	19.2	33.5	-91.1	6.1
2025-01-24 15:33:41.645790	18.8	33.5	-91.1	6.1
2025-01-24 15:33:42.796687	18.4	33.4	-91.3	5.8
2025-01-24 15:33:43.954050	18.0	33.4	-91.4	8.0
2025-01-24 15:33:45.109415	17.6	33.3	-91.0	8.7
2025-01-24 15:33:46.268515	17.1	33.3	-90.7	4.4
2025-01-24 15:33:47.427929	16.7	33.2	-91.3	7.3
2025-01-24 15:33:48.578388	16.3	33.1	-90.6	7.8
2025-01-24 15:33:49.732613	15.9	33.1	-90.7	4.5
2025-01-24 15:33:50.880537	15.5	33.0	-90.3	4.4
2025-01-24 15:33:52.038937	15.1	32.9	-90.2	6.4
2025-01-24 15:33:53.196012	14.7	32.9	-90.4	4.2
2025-01-24 15:33:54.353770	14.3	32.8	-90.4	5.2
2025-01-24 15:33:55.507945	13.9	32.7	-91.4	5.8
2025-01-24 15:33:56.666143	13.5	32.7	-91.3	7.1
2025-01-24 15:33:57.817864	13.1	32.6	-91.2	5.3
2025-01-24 15:33:58.972741	12.7	32.5	-91.3	6.8
2025-01-24 15:34:00.128185	12.3	32.4	-91.0	10.9
2025-01-24 15:34:01.279601	11.9	32.4	-91.2	5.8
2025-01-24 15:34:02.429714	11.5	32.3	-91.2	9.1
2025-01-24 15:34:03.578651	11.1	32.2	-91.5	11.5
2025-01-24 15:34:04.731893	10.7	32.1	-91.1	6.3
2025-01-24 15:34:05.886159	10.3	32.0	-91.3	7.8
2025-01-24 15:34:07.042520	9.9	31.9	-91.3	8.5
2025-01-24 15:34:08.201997	9.6	31.9	-90.8	5.3
2025-01-24 15:34:09.360719	9.2	31.8	-91.0	6.4
2025-01-24 15:34:10.508827	8.8	31.7	-91.3	6.6
2025-01-24 15:34:11.672763	8.4	31.6	-90.9	4.4
2025-01-24 15:34:12.831995	8.1	31.5	-91.1	1.8
2025-01-24 15:34:13.983067	7.7	31.4	-91.2	4.5
2025-01-24 15:34:15.131704	7.3	31.3	-91.2	4.2
2025-01-24 15:34:16.280953	7.0	31.2	-90.8	2.1
2025-01-24 15:34:17.431413	6.6	31.1	-91.4	2.9
2025-01-24 15:34:18.577490	6.2	31.0	-91.4	4.8
2025-01-24 15:34:19.729211	5.9	30.9	-91.4	3.1
2025-01-24 15:34:20.879722	5.5	30.8	-91.6	2.6
2025-01-24 15:34:22.031149	5.2	30.8	-91.1	1.3
2025-01-24 15:34:23.188268	4.8	30.7	-90.9	2.9
2025-01-24 15:34:24.340542	4.5	30.6	-91.1	2.3
2025-01-24 15:34:25.501267	4.1	30.5	-91.1	4.6
2025-01-24 15:34:26.653805	3.8	30.3	-91.5	2.2
2025-01-24 15:34:27.809493	3.4	30.2	-91.5	3.2
2025-01-24 15:34:28.960611	3.1	30.1	-90.7	2.6
2025-01-24 15:34:30.117913	2.7	30.0	-90.1	2.9
2025-01-24 15:34:31.266782	2.4	29.9	-90.1	1.6
2025-01-24 15:34:32.415764	2.1	29.8	-90.2	1.8
2025-01-24 15:34:33.565547	1.7	29.7	-90.5	6.4
2025-01-24 15:34:34.727037	1.4	29.6	-90.3	5.1
2025-01-24 15:34:35.873626	1.1	29.5	-91.2	5.9
2025-01-24 15:34:37.024458	0.7	29.4	-91.1	5.0
2025-01-24 15:34:38.175255	0.4	29.3	-91.0	3.4
2025-01-24 15:34:39.328185	0.1	29.2	-91.1	4.3
2025-01-24 15:34:40.480564	359.8	29.1	-91.4	5.9
2025-01-24 15:34:41.631388	359.4	29.0	-91.4	6.4
2025-01-24 15:34:42.793400	359.1	28.8	-91.6	4.2
2025-01-24 15:34:43.944827	358.8	28.7	-91.4	8.5
2025-01-24 15:34:45.102373	358.5	28.6	-90.9	7.0
2025-01-24 15:34:46.262935	358.2	28.5	-90.9	9.2
2025-01-24 15:34:47.421362	357.9	28.4	-91.1	8.1
2025-01-24 15:34:48.580894	357.6	28.3	-91.4	9.5
2025-01-24 15:34:49.738937	357.3	28.2	-91.6	7.5
2025-01-24 15:34:50.888244	357.0	28.1	-91.2	6.4
2025-01-24 15:34:52.039697	356.7	27.9	-91.1	11.0
2025-01-24 15:34:53.193288	356.4	27.8	-91.4	8.8
2025-01-24 15:34:54.353555	356.1	27.7	-91.2	6.8
2025-01-24 15:34:55.508753	355.8	27.6	-91.4	7.6
2025-01-24 15:34:56.665738	355.5	27.5	-91.5	6.4
2025-01-24 15:34:57.816695	355.2	27.4	-91.3	6.4
2025-01-24 15:34:58.975498	354.9	27.2	-91.1	7.0
2025-01-24 15:35:00.125343	354.6	27.1	-90.7	8.0
2025-01-24 15:35:01.279125	354.4	27.0	-90.5	3.3
2025-01-24 15:35:02.433998	354.1	26.9	-90.4	5.0
2025-01-24 15:35:03.591014	353.8	26.8	-91.0	6.0
2025-01-24 15:35:04.739457	353.5	26.7	-91.1	3.3
2025-01-24 15:35:05.897584	353.3	26.5	-91.6	6.4
2025-01-24 15:35:07.046921	353.0	26.4	-91.4	7.9
2025-01-24 15:35:08.200118	352.7	26.3	-91.1	4.0
2025-01-24 15:35:09.350309	352.5	26.2	-90.9	5.6
2025-01-24 15:35:10.500623	352.2	26.1	-91.1	7.6
2025-01-24 15:35:11.655897	351.9	25.9	-91.0	6.4
2025-01-24 15:35:12.814199	351.7	25.8	-91.3	8.1
2025-01-24 15:35:13.972581	351.4	25.7	-91.2	9.8
2025-01-24 15:35:15.130036	351.1	25.6	-90.9	12.9
2025-01-24 15:35:16.283491	350.9	25.5	-91.2	9.7
2025-01-24 15:35:17.439214	350.6	25.3	-91.1	12.4
2025-01-24 15:35:18.597924	350.4	25.2	-91.0	11.2
2025-01-24 15:35:19.758838	350.1	25.1	-91.1	12.3
2025-01-24 15:35:20.910807	349.9	25.0	-90.7	12.1
2025-01-24 15:35:22.070129	349.6	24.9	-90.8	8.5
2025-01-24 15:35:23.220405	349.4	24.7	-90.8	8.7
2025-01-24 15:35:24.364504	349.2	24.6	-90.7	7.9
2025-01-24 15:35:25.528252	348.9	24.5	-90.9	5.0
2025-01-24 15:35:26.677380	348.7	24.4	-90.4	6.7
2025-01-24 15:35:27.832051	348.4	24.3	-90.8	3.0
2025-01-24 15:35:28.987456	348.2	24.1	-90.8	4.3
2025-01-24 15:35:30.138351	348.0	24.0	-90.8	6.8
2025-01-24 15:35:31.293634	347.7	23.9	-91.1	2.2
2025-01-24 15:35:32.450078	347.5	23.8	-90.9	6.1
2025-01-24 15:35:33.606554	347.3	23.7	-91.2	5.0
2025-01-24 15:35:34.762722	347.1	23.5	-91.2	4.3
2025-01-24 15:35:35.924672	346.8	23.4	-91.4	4.1
2025-01-24 15:35:37.070508	346.6	23.3	-91.1	4.5
2025-01-24 15:35:38.221869	346.4	23.2	-91.3	5.9
2025-01-24 15:35:39.373313	346.2	23.1	-91.3	7.3
2025-01-24 15:35:40.524707	346.0	22.9	-91.5	9.8
2025-01-24 15:35:41.676157	345.7	22.8	-91.7	9.9
2025-01-24 15:35:42.832860	345.5	22.7	-90.9	9.5
2025-01-24 15:35:43.992409	345.3	22.6	-91.4	6.5
2025-01-24 15:35:45.147814	345.1	22.5	-91.1	9.5
2025-01-24 15:35:46.301068	344.9	22.3	-91.0	5.8
2025-01-24 15:35:47.454177	344.7	22.2	-91.7	6.2
2025-01-24 15:35:48.609822	344.5	22.1	-91.6	8.2
2025-01-24 15:35:49.769583	344.3	22.0	-91.1	5.3
2025-01-24 15:35:50.923847	344.1	21.9	-91.4	6.6
2025-01-24 15:35:52.081776	343.9	21.7	-91.6	7.6
2025-01-24 15:35:53.233393	343.7	21.6	-91.3	3.2
2025-01-24 15:35:54.387549	343.5	21.5	-91.0	7.1
2025-01-24 15:35:55.542843	343.3	21.4	-91.5	4.8
2025-01-24 15:35:56.705979	343.1	21.3	-91.6	5.4
2025-01-24 15:35:57.864024	342.9	21.2	-91.7	3.8
2025-01-24 15:35:59.022944	342.7	21.0	-91.5	8.3
2025-01-24 15:36:00.179757	342.5	20.9	-91.4	5.0
2025-01-24 15:36:01.329840	342.3	20.8	-91.5	5.5
2025-01-24 15:36:02.485567	342.1	20.7	-91.4	4.9
2025-01-24 15:36:03.630326	342.0	20.6	-91.6	4.5
2025-01-24 15:36:04.787395	341.8	20.5	-91.7	3.2
2025-01-24 15:36:05.937787	341.6	20.3	-91.6	2.9
2025-01-24 15:36:07.096911	341.4	20.2	-90.9	1.9
2025-01-24 15:36:08.253079	341.2	20.1	-91.4	3.0
2025-01-24 15:36:09.405823	341.1	20.0	-91.4	0.7
2025-01-24 15:36:10.558606	340.9	19.9	-90.5	2.6
2025-01-24 15:36:11.707050	340.7	19.8	-90.7	0.6
2025-01-24 15:36:12.859826	340.5	19.6	-91.2	1.7
2025-01-24 15:36:14.017013	340.4	19.5	-90.3	0.1
2025-01-24 15:36:15.166063	340.2	19.4	-90.3	2.0
2025-01-24 15:36:16.323395	340.0	19.3	-91.1	3.0
2025-01-24 15:36:17.480545	339.8	19.2	-89.7	2.4
2025-01-24 15:36:18.632219	339.7	19.1	-91.2	1.0
2025-01-24 15:36:19.781798	339.5	19.0	-91.3	2.5
2025-01-24 15:36:20.936302	339.3	18.8	-91.6	2.7
2025-01-24 15:36:22.091397	339.2	18.7	-91.3	3.0
2025-01-24 15:36:23.242515	339.0	18.6	-91.2	4.4
2025-01-24 15:36:24.398755	338.9	18.5	-91.6	3.4
2025-01-24 15:36:25.555196	338.7	18.4	-91.5	5.8
2025-01-24 15:36:26.706931	338.5	18.3	-91.7	1.8
2025-01-24 15:36:27.859690	338.4	18.2	-91.2	4.1
2025-01-24 15:36:29.015174	338.2	18.1	-91.5	3.0
2025-01-24 15:36:30.168707	338.1	18.0	-90.7	2.6
2025-01-24 15:36:31.327656	337.9	17.8	-91.4	3.1
2025-01-24 15:36:32.478271	337.8	17.7	-91.2	3.7
2025-01-24 15:36:33.625058	337.6	17.6	-91.7	3.0
2025-01-24 15:36:34.777286	337.4	17.5	-91.6	1.0
2025-01-24 15:36:35.933797	337.3	17.4	-91.4	2.5
2025-01-24 15:36:37.088321	337.1	17.3	-91.5	2.9
2025-01-24 15:36:38.234602	337.0	17.2	-91.1	0.2
2025-01-24 15:36:39.390157	336.9	17.1	-91.3	2.3
2025-01-24 15:36:40.761927	336.7	17.0	-91.3	3.2
2025-01-24 15:36:41.913617	336.5	16.8	-91.6	3.7
2025-01-24 15:36:43.071851	336.4	16.7	-91.1	2.7
2025-01-24 15:36:44.224935	336.2	16.6	-91.0	3.6
2025-01-24 15:36:45.374561	336.1	16.5	-91.0	2.4
2025-01-24 15:36:46.537303	336.0	16.4	-91.5	2.7
2025-01-24 15:36:47.692890	335.8	16.3	-91.5	2.3
2025-01-24 15:36:48.962385	335.7	16.2	-91.6	4.2
2025-01-24 15:36:50.121446	335.5	16.1	-91.3	2.5
2025-01-24 15:36:51.276980	335.4	16.0	-91.3	2.0
2025-01-24 15:36:52.425629	335.3	15.9	-91.1	2.5
2025-01-24 15:36:53.579769	335.1	15.8	-91.2	3.4
2025-01-24 15:36:54.735953	335.0	15.7	-90.9	3.7
2025-01-24 15:36:55.896402	334.9	15.6	-91.1	4.3
2025-01-24 15:36:57.054253	334.7	15.5	-91.2	3.5
2025-01-24 15:36:58.209366	334.6	15.4	-91.1	6.1
2025-01-24 15:36:59.374123	334.5	15.2	-91.0	3.8
2025-01-24 15:37:00.532349	334.3	15.1	-91.3	5.1
2025-01-24 15:37:01.681481	334.2	15.0	-91.2	1.0
2025-01-24 15:37:02.839803	334.1	14.9	-91.4	2.3
2025-01-24 15:37:03.991195	334.0	14.8	-91.2	3.6
2025-01-24 15:37:05.154893	333.8	14.7	-91.2	2.2
2025-01-24 15:37:06.300395	333.7	14.6	-91.3	3.0
#Closed at: 2025-01-24 15:29:21.219292