passes_logs/2025/01/24/LEX_Murmansk/LEX_Murmansk__20250124_121049_NOAA_19_rec.log

#Pass ID: 20250124_121049_NOAA 19
#Satellite: NOAA 19
#Configuration: NOAA 19
#Start time: 2025-01-24 12:10:44.237871

#LorettStation: 1.0.0 05.05.2024
#Station: LEX_Murmansk
#Location: 33.156738 lon 68.926811 lat
#TLE: 1 33591U 09005A   25023.14581638  .00000359  00000+0  21554-3 0  9999
#TLE: 2 33591  99.0183  86.9707 0014184  35.5055 324.7058 14.13266334822690

#Time	Az	El	Level	SNR
2025-01-24 12:10:58.801472	28.4	16.2	-89.4	1.9
2025-01-24 12:10:59.960842	28.2	16.2	-89.8	3.5
2025-01-24 12:11:01.111664	28.0	16.3	-89.4	1.8
2025-01-24 12:11:02.272863	27.9	16.4	-89.4	2.7
2025-01-24 12:11:03.436880	27.7	16.5	-89.7	6.1
2025-01-24 12:11:04.599982	27.5	16.6	-89.8	2.4
2025-01-24 12:11:05.759546	27.3	16.7	-89.9	2.6
2025-01-24 12:11:06.925273	27.1	16.8	-90.0	2.5
2025-01-24 12:11:08.084854	27.0	16.9	-89.7	3.7
2025-01-24 12:11:09.247367	26.8	17.0	-89.7	3.4
2025-01-24 12:11:10.403215	26.6	17.1	-89.7	3.7
2025-01-24 12:11:11.563104	26.4	17.2	-90.0	3.0
2025-01-24 12:11:12.722413	26.2	17.3	-89.9	4.9
2025-01-24 12:11:13.875908	26.0	17.4	-89.8	6.5
2025-01-24 12:11:15.034796	25.8	17.5	-89.8	4.4
2025-01-24 12:11:16.201898	25.7	17.6	-88.6	2.6
2025-01-24 12:11:17.349919	25.5	17.6	-88.8	1.2
2025-01-24 12:11:18.499644	25.3	17.7	-88.8	4.1
2025-01-24 12:11:19.661390	25.1	17.8	-89.2	3.3
2025-01-24 12:11:20.822297	24.9	17.9	-89.3	4.1
2025-01-24 12:11:21.983242	24.7	18.0	-88.9	3.5
2025-01-24 12:11:23.151903	24.5	18.1	-88.7	2.9
2025-01-24 12:11:24.309669	24.3	18.2	-89.0	4.4
2025-01-24 12:11:25.474273	24.1	18.3	-88.9	2.6
2025-01-24 12:11:26.641576	23.9	18.4	-89.8	3.9
2025-01-24 12:11:27.796506	23.7	18.5	-90.2	3.7
2025-01-24 12:11:28.951177	23.5	18.6	-90.2	4.6
2025-01-24 12:11:30.115413	23.3	18.7	-90.0	6.1
2025-01-24 12:11:31.272408	23.1	18.8	-89.8	7.7
2025-01-24 12:11:32.457084	22.9	18.9	-90.1	8.9
2025-01-24 12:11:33.609001	22.6	18.9	-89.9	7.8
2025-01-24 12:11:34.773145	22.4	19.0	-90.3	7.6
2025-01-24 12:11:35.934662	22.2	19.1	-90.4	6.9
2025-01-24 12:11:37.093730	22.0	19.2	-90.1	6.1
2025-01-24 12:11:38.260644	21.8	19.3	-90.0	1.2
2025-01-24 12:11:39.428704	21.6	19.4	-90.0	2.0
2025-01-24 12:11:40.589614	21.4	19.5	-89.6	4.0
2025-01-24 12:11:41.749220	21.1	19.6	-90.0	1.2
2025-01-24 12:11:42.905917	20.9	19.7	-89.9	3.3
2025-01-24 12:11:44.065970	20.7	19.8	-90.0	7.1
2025-01-24 12:11:45.230339	20.5	19.9	-90.1	6.4
2025-01-24 12:11:46.396080	20.3	20.0	-89.9	6.8
2025-01-24 12:11:47.554409	20.0	20.1	-90.0	9.2
2025-01-24 12:11:48.718760	19.8	20.2	-90.1	4.5
2025-01-24 12:11:49.878138	19.6	20.2	-90.3	2.3
2025-01-24 12:11:51.041271	19.3	20.3	-90.3	3.9
2025-01-24 12:11:52.204708	19.1	20.4	-90.1	4.0
2025-01-24 12:11:53.372471	18.9	20.5	-89.6	4.3
2025-01-24 12:11:54.540209	18.6	20.6	-89.9	7.8
2025-01-24 12:11:55.709330	18.4	20.7	-89.9	8.6
2025-01-24 12:11:56.870705	18.2	20.8	-89.8	9.3
2025-01-24 12:11:58.030590	17.9	20.9	-90.0	5.8
2025-01-24 12:11:59.192025	17.7	21.0	-89.5	4.9
2025-01-24 12:12:00.346165	17.5	21.1	-89.4	3.9
2025-01-24 12:12:01.511516	17.2	21.2	-90.0	4.3
2025-01-24 12:12:02.671357	17.0	21.2	-90.2	2.9
2025-01-24 12:12:03.833321	16.7	21.3	-89.9	2.1
2025-01-24 12:12:04.997180	16.5	21.4	-89.9	4.2
2025-01-24 12:12:06.153961	16.2	21.5	-90.0	3.2
2025-01-24 12:12:07.314163	16.0	21.6	-90.1	4.1
2025-01-24 12:12:08.474142	15.7	21.7	-90.3	5.3
2025-01-24 12:12:09.632230	15.5	21.8	-90.1	8.4
2025-01-24 12:12:10.799595	15.2	21.9	-90.2	5.5
2025-01-24 12:12:11.955941	15.0	21.9	-90.0	5.3
2025-01-24 12:12:13.116210	14.7	22.0	-89.9	7.2
2025-01-24 12:12:14.276777	14.5	22.1	-89.9	4.9
2025-01-24 12:12:15.439325	14.2	22.2	-90.0	5.2
2025-01-24 12:12:16.602587	13.9	22.3	-89.9	3.8
2025-01-24 12:12:17.767764	13.7	22.4	-90.0	5.5
2025-01-24 12:12:18.925585	13.4	22.5	-90.1	7.7
2025-01-24 12:12:20.094774	13.2	22.5	-89.7	10.6
2025-01-24 12:12:21.245388	12.9	22.6	-90.0	10.6
2025-01-24 12:12:22.410388	12.6	22.7	-90.0	8.2
2025-01-24 12:12:23.566054	12.4	22.8	-89.9	8.3
2025-01-24 12:12:24.747684	12.1	22.9	-90.5	6.3
2025-01-24 12:12:25.905018	11.8	23.0	-89.4	2.2
2025-01-24 12:12:27.071492	11.5	23.1	-89.3	4.2
2025-01-24 12:12:28.228223	11.3	23.1	-89.2	2.7
2025-01-24 12:12:29.395215	11.0	23.2	-89.6	1.8
2025-01-24 12:12:30.550121	10.7	23.3	-89.4	3.8
2025-01-24 12:12:31.710022	10.4	23.4	-89.3	4.5
2025-01-24 12:12:32.872515	10.1	23.5	-89.7	8.5
2025-01-24 12:12:34.030748	9.9	23.5	-89.6	8.2
2025-01-24 12:12:35.194515	9.6	23.6	-89.7	9.9
2025-01-24 12:12:36.353171	9.3	23.7	-90.0	7.7
2025-01-24 12:12:37.508033	9.0	23.8	-90.1	10.2
2025-01-24 12:12:38.671400	8.7	23.8	-90.0	6.2
2025-01-24 12:12:39.828983	8.4	23.9	-90.2	4.2
2025-01-24 12:12:40.987252	8.1	24.0	-90.1	6.1
2025-01-24 12:12:42.147227	7.8	24.1	-90.2	6.6
2025-01-24 12:12:43.309934	7.6	24.1	-89.9	5.0
2025-01-24 12:12:44.471789	7.3	24.2	-89.9	4.5
2025-01-24 12:12:45.629176	7.0	24.3	-90.1	5.1
2025-01-24 12:12:46.791170	6.7	24.4	-90.3	3.8
2025-01-24 12:12:47.951958	6.4	24.4	-90.4	7.8
2025-01-24 12:12:49.109287	6.1	24.5	-90.0	9.3
2025-01-24 12:12:50.273378	5.8	24.6	-90.0	6.2
2025-01-24 12:12:51.432612	5.5	24.7	-90.1	9.5
2025-01-24 12:12:52.590820	5.2	24.7	-90.5	6.7
2025-01-24 12:12:53.755992	4.9	24.8	-90.2	4.0
2025-01-24 12:12:54.914906	4.5	24.9	-90.0	5.2
2025-01-24 12:12:56.075447	4.2	24.9	-89.9	4.9
2025-01-24 12:12:57.238438	3.9	25.0	-90.2	2.7
2025-01-24 12:12:58.396976	3.6	25.1	-90.2	3.4
2025-01-24 12:12:59.561569	3.3	25.1	-90.2	3.5
2025-01-24 12:13:00.734733	3.0	25.2	-89.8	4.6
2025-01-24 12:13:01.894381	2.7	25.3	-89.9	4.8
2025-01-24 12:13:03.059628	2.4	25.3	-90.1	7.7
2025-01-24 12:13:04.221752	2.0	25.4	-90.4	8.1
2025-01-24 12:13:05.380464	1.7	25.4	-90.0	4.7
2025-01-24 12:13:06.540934	1.4	25.5	-90.1	12.6
2025-01-24 12:13:07.698309	1.1	25.6	-90.2	6.9
2025-01-24 12:13:08.856780	0.8	25.6	-90.6	11.7
2025-01-24 12:13:10.017903	0.4	25.7	-89.7	8.7
2025-01-24 12:13:11.177442	0.1	25.7	-89.8	7.9
2025-01-24 12:13:12.343541	359.8	25.8	-90.0	3.1
2025-01-24 12:13:13.510040	359.5	25.8	-90.4	5.4
2025-01-24 12:13:14.671939	359.1	25.9	-90.2	4.0
2025-01-24 12:13:15.840790	358.8	26.0	-90.1	4.0
2025-01-24 12:13:17.006504	358.5	26.0	-89.9	7.6
2025-01-24 12:13:18.165664	358.1	26.1	-90.0	7.0
2025-01-24 12:13:19.329271	357.8	26.1	-90.1	5.2
2025-01-24 12:13:20.485537	357.5	26.2	-89.8	9.4
2025-01-24 12:13:21.648072	357.1	26.2	-89.7	7.3
2025-01-24 12:13:22.806722	356.8	26.3	-90.0	9.0
2025-01-24 12:13:23.970080	356.5	26.3	-89.9	10.5
2025-01-24 12:13:25.134412	356.1	26.3	-89.9	10.0
2025-01-24 12:13:26.295062	355.8	26.4	-89.7	8.8
2025-01-24 12:13:27.457033	355.4	26.4	-89.7	7.8
2025-01-24 12:13:28.619752	355.1	26.5	-89.9	7.8
2025-01-24 12:13:29.782237	354.8	26.5	-89.7	6.0
2025-01-24 12:13:30.938459	354.4	26.6	-89.7	4.2
2025-01-24 12:13:32.098653	354.1	26.6	-89.9	4.6
2025-01-24 12:13:33.258221	353.7	26.6	-89.6	3.4
2025-01-24 12:13:34.421623	353.4	26.7	-89.9	1.5
2025-01-24 12:13:35.586707	353.0	26.7	-89.8	3.3
2025-01-24 12:13:36.753367	352.7	26.7	-89.8	0.8
2025-01-24 12:13:37.917237	352.3	26.8	-90.2	4.1
2025-01-24 12:13:39.081041	352.0	26.8	-90.3	3.7
2025-01-24 12:13:40.243211	351.7	26.8	-90.4	2.2
2025-01-24 12:13:41.403294	351.3	26.9	-90.6	4.4
2025-01-24 12:13:42.560733	351.0	26.9	-90.4	2.8
2025-01-24 12:13:43.719764	350.6	26.9	-89.8	5.1
2025-01-24 12:13:44.880426	350.3	26.9	-90.0	5.2
2025-01-24 12:13:46.042891	349.9	27.0	-90.2	5.9
2025-01-24 12:13:47.203750	349.6	27.0	-89.7	6.0
2025-01-24 12:13:48.370874	349.2	27.0	-89.1	7.0
2025-01-24 12:13:49.538681	348.8	27.0	-89.7	7.7
2025-01-24 12:13:50.705526	348.5	27.1	-90.6	6.9
2025-01-24 12:13:51.859698	348.1	27.1	-90.3	6.2
2025-01-24 12:13:53.010903	347.8	27.1	-90.2	7.9
2025-01-24 12:13:54.131643	347.4	27.1	-90.1	5.7
2025-01-24 12:13:55.280325	347.1	27.1	-90.1	6.8
2025-01-24 12:13:56.444194	346.7	27.1	-90.4	4.9
2025-01-24 12:13:57.598115	346.4	27.2	-90.3	6.2
2025-01-24 12:13:58.759146	346.0	27.2	-90.3	4.9
2025-01-24 12:13:59.919618	345.7	27.2	-90.5	6.4
2025-01-24 12:14:01.078213	345.3	27.2	-90.2	8.3
2025-01-24 12:14:02.240278	345.0	27.2	-90.1	4.7
2025-01-24 12:14:03.401549	344.6	27.2	-90.1	7.2
2025-01-24 12:14:04.560874	344.2	27.2	-90.4	7.9
2025-01-24 12:14:05.730126	343.9	27.2	-90.1	2.7
2025-01-24 12:14:06.886490	343.5	27.2	-90.3	5.5
2025-01-24 12:14:08.045538	343.2	27.2	-89.9	7.6
2025-01-24 12:14:09.203869	342.8	27.2	-89.9	3.7
2025-01-24 12:14:10.364428	342.5	27.2	-90.1	5.8
2025-01-24 12:14:11.520193	342.1	27.2	-89.8	7.0
2025-01-24 12:14:12.682748	341.7	27.2	-89.9	6.2
2025-01-24 12:14:13.842621	341.4	27.2	-89.7	5.9
2025-01-24 12:14:15.007416	341.0	27.2	-89.8	7.2
2025-01-24 12:14:16.168598	340.7	27.2	-89.3	6.4
2025-01-24 12:14:17.331905	340.3	27.2	-89.3	2.4
2025-01-24 12:14:18.492872	340.0	27.2	-89.1	5.0
2025-01-24 12:14:19.652734	339.6	27.2	-89.3	6.1
2025-01-24 12:14:20.813987	339.2	27.2	-89.7	5.3
2025-01-24 12:14:21.969665	338.9	27.2	-89.8	7.4
2025-01-24 12:14:23.126790	338.5	27.1	-89.4	5.5
2025-01-24 12:14:24.284759	338.2	27.1	-89.9	6.0
2025-01-24 12:14:25.446166	337.8	27.1	-89.9	9.5
2025-01-24 12:14:26.610724	337.5	27.1	-90.1	12.2
2025-01-24 12:14:27.768175	337.1	27.1	-90.1	9.5
2025-01-24 12:14:28.926300	336.8	27.1	-90.1	10.0
2025-01-24 12:14:30.090209	336.4	27.0	-89.9	9.9
2025-01-24 12:14:31.241755	336.1	27.0	-89.8	3.9
2025-01-24 12:14:32.404181	335.7	27.0	-89.9	8.2
2025-01-24 12:14:33.561231	335.4	27.0	-89.5	5.0
2025-01-24 12:14:34.724151	335.0	26.9	-89.9	4.4
2025-01-24 12:14:35.885683	334.7	26.9	-90.0	7.1
2025-01-24 12:14:37.052084	334.3	26.9	-89.7	3.8
2025-01-24 12:14:38.211093	334.0	26.9	-90.3	3.2
2025-01-24 12:14:39.379898	333.6	26.8	-89.9	4.8
2025-01-24 12:14:40.539027	333.3	26.8	-90.0	6.3
2025-01-24 12:14:41.702890	332.9	26.8	-90.2	5.9
2025-01-24 12:14:42.859244	332.6	26.7	-90.2	4.3
2025-01-24 12:14:44.023753	332.2	26.7	-90.1	6.8
2025-01-24 12:14:45.187074	331.9	26.7	-90.0	6.6
2025-01-24 12:14:46.326887	331.5	26.6	-89.9	4.6
2025-01-24 12:14:47.465707	331.2	26.6	-90.0	5.0
2025-01-24 12:14:48.624069	330.9	26.5	-89.9	7.9
2025-01-24 12:14:49.783178	330.5	26.5	-90.0	5.2
2025-01-24 12:14:50.939125	330.2	26.5	-90.0	8.4
2025-01-24 12:14:52.094755	329.8	26.4	-89.9	7.1
2025-01-24 12:14:53.257449	329.5	26.4	-89.9	4.3
2025-01-24 12:14:54.412306	329.2	26.3	-89.6	4.4
2025-01-24 12:14:55.563937	328.8	26.3	-90.1	7.1
2025-01-24 12:14:56.719081	328.5	26.2	-90.1	7.4
2025-01-24 12:14:57.885281	328.2	26.2	-90.3	6.4
2025-01-24 12:14:59.045533	327.8	26.1	-89.7	8.2
2025-01-24 12:15:00.204830	327.5	26.1	-89.6	6.4
2025-01-24 12:15:01.361822	327.2	26.0	-89.8	4.1
2025-01-24 12:15:02.522401	326.8	26.0	-90.1	5.1
2025-01-24 12:15:03.683837	326.5	25.9	-90.2	4.4
2025-01-24 12:15:04.848542	326.2	25.9	-90.2	2.8
2025-01-24 12:15:06.005054	325.9	25.8	-90.1	2.2
2025-01-24 12:15:07.161008	325.5	25.8	-90.0	4.9
2025-01-24 12:15:08.319684	325.2	25.7	-90.0	3.6
2025-01-24 12:15:09.488367	324.9	25.7	-90.1	3.3
2025-01-24 12:15:10.652557	324.6	25.6	-90.0	9.5
2025-01-24 12:15:11.809323	324.2	25.6	-90.2	2.4
2025-01-24 12:15:12.969183	323.9	25.5	-90.1	4.9
2025-01-24 12:15:14.125438	323.6	25.4	-89.8	1.8
2025-01-24 12:15:15.284706	323.3	25.4	-90.0	2.7
2025-01-24 12:15:16.445232	323.0	25.3	-90.0	5.9
2025-01-24 12:15:17.613077	322.6	25.2	-89.9	4.5
2025-01-24 12:15:18.776513	322.3	25.2	-90.2	3.8
2025-01-24 12:15:19.941675	322.0	25.1	-90.3	4.4
2025-01-24 12:15:21.097908	321.7	25.1	-90.1	4.5
2025-01-24 12:15:22.252753	321.4	25.0	-90.0	5.7
2025-01-24 12:15:23.417699	321.1	24.9	-90.1	7.5
2025-01-24 12:15:24.581686	320.8	24.9	-90.2	8.3
2025-01-24 12:15:25.743932	320.5	24.8	-90.3	6.9
2025-01-24 12:15:26.909026	320.2	24.7	-90.5	4.2
2025-01-24 12:15:28.073486	319.9	24.6	-90.3	4.4
2025-01-24 12:15:29.236654	319.6	24.6	-90.1	8.3
2025-01-24 12:15:30.400637	319.3	24.5	-90.5	6.8
2025-01-24 12:15:31.557836	319.0	24.4	-89.9	5.2
2025-01-24 12:15:32.721226	318.7	24.4	-89.9	9.0
2025-01-24 12:15:33.883428	318.4	24.3	-90.2	6.1
2025-01-24 12:15:35.050413	318.1	24.2	-90.2	11.3
2025-01-24 12:15:36.209066	317.8	24.1	-89.3	5.2
2025-01-24 12:15:37.365802	317.5	24.1	-89.5	10.1
2025-01-24 12:15:38.521168	317.2	24.0	-89.3	6.5
2025-01-24 12:15:39.694646	316.9	23.9	-89.2	4.7
2025-01-24 12:15:40.860876	316.6	23.8	-89.2	2.8
2025-01-24 12:15:42.025733	316.3	23.8	-89.1	8.5
2025-01-24 12:15:43.195135	316.0	23.7	-89.0	7.7
2025-01-24 12:15:44.360821	315.8	23.6	-89.4	5.4
2025-01-24 12:15:45.520224	315.5	23.5	-89.7	5.3
2025-01-24 12:15:46.687906	315.2	23.4	-89.2	7.7
2025-01-24 12:15:47.853515	314.9	23.4	-89.3	5.0
2025-01-24 12:15:49.015383	314.6	23.3	-90.1	4.9
2025-01-24 12:15:50.180452	314.3	23.2	-89.9	3.3
2025-01-24 12:15:51.334608	314.1	23.1	-90.0	3.7
2025-01-24 12:15:52.490308	313.8	23.0	-90.0	4.3
2025-01-24 12:15:53.649199	313.5	23.0	-90.2	4.0
2025-01-24 12:15:54.809035	313.3	22.9	-90.0	3.1
2025-01-24 12:15:55.973039	313.0	22.8	-90.0	2.4
2025-01-24 12:15:57.138095	312.7	22.7	-89.8	3.7
2025-01-24 12:15:58.295966	312.5	22.6	-89.8	2.8
2025-01-24 12:15:59.457544	312.2	22.5	-89.9	3.7
2025-01-24 12:16:00.605601	311.9	22.5	-90.2	3.1
2025-01-24 12:16:01.758908	311.7	22.4	-90.1	2.5
2025-01-24 12:16:02.917994	311.4	22.3	-90.3	3.9
2025-01-24 12:16:04.078546	311.1	22.2	-90.1	2.7
2025-01-24 12:16:05.242236	310.9	22.1	-89.9	2.5
2025-01-24 12:16:06.397162	310.6	22.0	-90.2	3.7
2025-01-24 12:16:07.562358	310.4	21.9	-89.8	3.4
2025-01-24 12:16:08.719156	310.1	21.9	-90.1	2.5
2025-01-24 12:16:09.886484	309.9	21.8	-89.9	2.7
2025-01-24 12:16:11.050553	309.6	21.7	-90.3	4.0
2025-01-24 12:16:12.214435	309.4	21.6	-90.4	2.3
2025-01-24 12:16:13.378223	309.1	21.5	-90.1	4.2
2025-01-24 12:16:14.540313	308.9	21.4	-90.3	4.2
2025-01-24 12:16:15.707611	308.6	21.3	-90.2	6.3
2025-01-24 12:16:16.866085	308.4	21.2	-90.5	9.3
2025-01-24 12:16:18.027718	308.1	21.1	-90.7	2.9
2025-01-24 12:16:19.185633	307.9	21.1	-90.6	4.2
2025-01-24 12:16:20.345780	307.7	21.0	-90.4	1.7
2025-01-24 12:16:21.502028	307.4	20.9	-90.3	2.8
2025-01-24 12:16:22.657555	307.2	20.8	-90.7	3.5
2025-01-24 12:16:23.818079	307.0	20.7	-90.6	4.4
2025-01-24 12:16:24.986169	306.7	20.6	-90.7	1.5
2025-01-24 12:16:26.146963	306.5	20.5	-90.2	2.1
2025-01-24 12:16:27.309622	306.3	20.4	-90.2	3.5
2025-01-24 12:16:28.465763	306.0	20.3	-90.1	1.2
2025-01-24 12:16:29.622435	305.8	20.2	-90.6	4.1
2025-01-24 12:16:30.788589	305.6	20.2	-90.0	2.3
2025-01-24 12:16:31.945977	305.3	20.1	-90.3	1.9
2025-01-24 12:16:33.106609	305.1	20.0	-90.1	1.6
2025-01-24 12:16:34.269950	304.9	19.9	-90.0	1.7
2025-01-24 12:16:35.427957	304.7	19.8	-90.3	1.8
2025-01-24 12:16:36.591879	304.5	19.7	-90.2	3.3
2025-01-24 12:16:37.751473	304.2	19.6	-90.1	2.7
2025-01-24 12:16:38.911965	304.0	19.5	-90.2	3.5
2025-01-24 12:16:40.074790	303.8	19.4	-90.1	2.8
2025-01-24 12:16:41.237778	303.6	19.3	-90.5	3.6
2025-01-24 12:16:42.396910	303.4	19.2	-90.4	5.2
2025-01-24 12:16:43.559687	303.2	19.1	-89.9	2.6
2025-01-24 12:16:44.730251	302.9	19.0	-89.9	4.5
2025-01-24 12:16:45.895790	302.7	19.0	-89.3	2.3
2025-01-24 12:16:47.057518	302.5	18.9	-89.3	2.9
2025-01-24 12:16:48.215696	302.3	18.8	-89.1	1.4
2025-01-24 12:16:49.378895	302.1	18.7	-89.3	4.3
2025-01-24 12:16:50.538813	301.9	18.6	-89.9	4.4
2025-01-24 12:16:51.703240	301.7	18.5	-90.0	3.4
2025-01-24 12:16:52.864184	301.5	18.4	-90.1	2.5
2025-01-24 12:16:54.021764	301.3	18.3	-89.9	4.2
2025-01-24 12:16:55.178652	301.1	18.2	-89.9	2.4
2025-01-24 12:16:56.337584	300.9	18.1	-90.3	2.0
2025-01-24 12:16:57.498695	300.7	18.0	-90.3	2.3
2025-01-24 12:16:58.661272	300.5	17.9	-90.5	3.1
2025-01-24 12:16:59.821479	300.3	17.8	-89.9	2.6
2025-01-24 12:17:00.976151	300.1	17.7	-90.4	1.1
2025-01-24 12:17:02.133632	299.9	17.7	-90.0	3.2
2025-01-24 12:17:03.292106	299.7	17.6	-90.0	0.3
2025-01-24 12:17:04.454928	299.6	17.5	-89.7	3.7
2025-01-24 12:17:05.618882	299.4	17.4	-89.9	2.6
2025-01-24 12:17:06.778455	299.2	17.3	-89.8	4.3
2025-01-24 12:17:07.934738	299.0	17.2	-89.9	2.0
2025-01-24 12:17:09.090870	298.8	17.1	-89.4	4.5
2025-01-24 12:17:10.254909	298.6	17.0	-89.6	5.3
2025-01-24 12:17:11.425539	298.4	16.9	-89.7	4.5
2025-01-24 12:17:12.587366	298.3	16.8	-89.7	8.3
2025-01-24 12:17:13.752394	298.1	16.7	-90.2	5.4
2025-01-24 12:17:14.920237	297.9	16.6	-90.1	3.8
2025-01-24 12:17:16.080222	297.7	16.5	-89.1	3.0
2025-01-24 12:17:17.238725	297.5	16.4	-89.2	2.4
2025-01-24 12:17:18.400329	297.4	16.4	-88.7	4.5
2025-01-24 12:17:19.564617	297.2	16.3	-89.1	4.0
2025-01-24 12:17:20.724103	297.0	16.2	-88.9	3.8
2025-01-24 12:17:21.888439	296.8	16.1	-89.4	2.6
2025-01-24 12:17:23.044226	296.7	16.0	-89.6	1.2
2025-01-24 12:17:24.199894	296.5	15.9	-90.2	3.8
2025-01-24 12:17:25.363720	296.3	15.8	-89.8	1.8
2025-01-24 12:17:26.525034	296.2	15.7	-90.0	4.1
2025-01-24 12:17:27.687383	296.0	15.6	-90.0	5.1
2025-01-24 12:17:28.846687	295.8	15.5	-90.4	8.0
2025-01-24 12:17:30.021207	295.7	15.4	-90.0	3.5
2025-01-24 12:17:31.185217	295.5	15.3	-90.0	3.0
2025-01-24 12:17:32.335168	295.3	15.2	-89.8	10.9
2025-01-24 12:17:33.493590	295.2	15.2	-89.7	8.0
2025-01-24 12:17:34.658451	295.0	15.1	-89.7	1.6
2025-01-24 12:17:35.816973	294.8	15.0	-89.7	4.2
2025-01-24 12:17:36.976466	294.7	14.9	-89.7	5.6
2025-01-24 12:17:38.138470	294.5	14.8	-89.6	7.4
2025-01-24 12:17:39.296821	294.4	14.7	-89.6	4.5
2025-01-24 12:17:40.456688	294.2	14.6	-89.7	1.2
#Closed at: 2025-01-24 12:10:49.327352