passes_logs/2025/01/24/LEX_Murmansk/LEX_Murmansk__20250124_173216_NOAA_18_rec.log

#Pass ID: 20250124_173216_NOAA 18
#Satellite: NOAA 18
#Configuration: NOAA 18
#Start time: 2025-01-24 17:32:11.347754

#LorettStation: 1.0.0 05.05.2024
#Station: LEX_Murmansk
#Location: 33.156738 lon 68.926811 lat
#TLE: 1 28654U 05018A   25024.15265828  .00000479  00000+0  27770-3 0  9994
#TLE: 2 28654  98.8553 105.1156 0014763 153.8328 206.3593 14.13495781 14472

#Time	Az	El	Level	SNR
2025-01-24 17:32:23.463147	111.9	16.2	-90.1	8.3
2025-01-24 17:32:24.625591	111.8	16.3	-90.5	10.6
2025-01-24 17:32:25.775857	111.7	16.5	-90.3	9.6
2025-01-24 17:32:26.931748	111.6	16.6	-90.6	8.6
2025-01-24 17:32:28.089078	111.5	16.7	-90.1	7.1
2025-01-24 17:32:29.245256	111.4	16.8	-90.4	7.9
2025-01-24 17:32:30.390821	111.4	16.9	-90.6	5.6
2025-01-24 17:32:31.550558	111.3	17.1	-91.0	4.9
2025-01-24 17:32:32.697447	111.2	17.2	-90.4	8.8
2025-01-24 17:32:33.846923	111.1	17.3	-90.3	5.4
2025-01-24 17:32:34.996981	111.0	17.4	-90.7	10.1
2025-01-24 17:32:36.152863	110.9	17.6	-90.6	9.2
2025-01-24 17:32:37.304815	110.8	17.7	-90.1	9.8
2025-01-24 17:32:38.466825	110.7	17.8	-89.9	9.1
2025-01-24 17:32:39.621182	110.6	17.9	-90.5	9.8
2025-01-24 17:32:40.775960	110.5	18.1	-90.6	11.5
2025-01-24 17:32:41.942708	110.4	18.2	-90.5	13.2
2025-01-24 17:32:43.099611	110.2	18.3	-89.9	9.8
2025-01-24 17:32:44.256236	110.1	18.4	-89.9	10.2
2025-01-24 17:32:45.411136	110.0	18.6	-90.0	6.2
2025-01-24 17:32:46.569939	109.9	18.7	-90.5	5.5
2025-01-24 17:32:47.725128	109.8	18.8	-91.1	11.0
2025-01-24 17:32:48.876437	109.7	19.0	-91.0	5.4
2025-01-24 17:32:50.024784	109.6	19.1	-90.9	8.4
2025-01-24 17:32:51.177488	109.5	19.2	-90.3	10.0
2025-01-24 17:32:52.328600	109.4	19.4	-90.6	11.4
2025-01-24 17:32:53.477734	109.3	19.5	-90.7	10.6
2025-01-24 17:32:54.633995	109.1	19.6	-91.1	11.0
2025-01-24 17:32:55.793468	109.0	19.8	-90.9	10.7
2025-01-24 17:32:56.948696	108.9	19.9	-91.0	6.6
2025-01-24 17:32:58.107182	108.8	20.0	-90.8	9.8
2025-01-24 17:32:59.254188	108.7	20.2	-90.6	8.9
2025-01-24 17:33:00.395663	108.6	20.3	-90.2	7.2
2025-01-24 17:33:01.546828	108.4	20.4	-90.8	6.0
2025-01-24 17:33:02.695113	108.3	20.6	-90.8	6.1
2025-01-24 17:33:03.852307	108.2	20.7	-90.3	7.7
2025-01-24 17:33:04.996249	108.1	20.8	-90.7	4.5
2025-01-24 17:33:06.148285	107.9	21.0	-90.4	7.3
2025-01-24 17:33:07.313611	107.8	21.1	-90.5	7.7
2025-01-24 17:33:08.459779	107.7	21.3	-90.7	8.1
2025-01-24 17:33:09.614191	107.6	21.4	-89.2	9.3
2025-01-24 17:33:10.757602	107.4	21.5	-89.5	9.6
2025-01-24 17:33:11.916304	107.3	21.7	-89.7	6.3
2025-01-24 17:33:13.067436	107.2	21.8	-89.4	7.9
2025-01-24 17:33:14.228192	107.0	22.0	-89.1	10.8
2025-01-24 17:33:15.384885	106.9	22.1	-89.5	10.2
2025-01-24 17:33:16.543314	106.8	22.3	-89.4	7.8
2025-01-24 17:33:17.695529	106.6	22.4	-89.6	5.8
2025-01-24 17:33:18.853276	106.5	22.5	-89.7	5.5
2025-01-24 17:33:19.999791	106.4	22.7	-90.8	4.8
2025-01-24 17:33:21.158562	106.2	22.8	-90.6	4.7
2025-01-24 17:33:22.315300	106.1	23.0	-89.5	4.3
2025-01-24 17:33:23.474240	105.9	23.1	-89.8	5.7
2025-01-24 17:33:24.628077	105.8	23.3	-89.5	7.2
2025-01-24 17:33:25.788028	105.6	23.4	-89.9	5.6
2025-01-24 17:33:26.949533	105.5	23.6	-90.0	2.9
2025-01-24 17:33:28.106005	105.3	23.7	-89.4	4.3
2025-01-24 17:33:29.260692	105.2	23.9	-89.2	5.3
2025-01-24 17:33:30.412099	105.0	24.0	-89.6	7.8
2025-01-24 17:33:31.565060	104.9	24.2	-89.8	7.5
2025-01-24 17:33:32.720810	104.7	24.4	-89.6	8.9
2025-01-24 17:33:33.870912	104.6	24.5	-89.2	10.4
2025-01-24 17:33:35.026165	104.4	24.7	-89.4	10.4
2025-01-24 17:33:36.174866	104.2	24.8	-90.7	9.5
2025-01-24 17:33:37.328638	104.1	25.0	-90.8	8.6
2025-01-24 17:33:38.483467	103.9	25.1	-90.3	2.7
2025-01-24 17:33:39.631920	103.7	25.3	-90.9	7.3
2025-01-24 17:33:40.783290	103.6	25.4	-90.7	7.6
2025-01-24 17:33:41.943241	103.4	25.6	-91.2	7.8
2025-01-24 17:33:43.092519	103.2	25.8	-90.8	8.7
2025-01-24 17:33:44.249078	103.1	25.9	-90.9	7.3
2025-01-24 17:33:45.402992	102.9	26.1	-90.7	11.0
2025-01-24 17:33:46.555323	102.7	26.2	-91.0	10.7
2025-01-24 17:33:47.703028	102.5	26.4	-90.8	7.0
2025-01-24 17:33:48.856405	102.4	26.6	-90.8	9.6
2025-01-24 17:33:50.005660	102.2	26.7	-90.8	10.2
2025-01-24 17:33:51.162665	102.0	26.9	-90.6	13.1
2025-01-24 17:33:52.319144	101.8	27.1	-90.6	10.2
2025-01-24 17:33:53.473535	101.6	27.2	-90.8	12.4
2025-01-24 17:33:54.638675	101.4	27.4	-90.7	10.7
2025-01-24 17:33:55.794966	101.2	27.6	-90.9	11.8
2025-01-24 17:33:56.946217	101.0	27.7	-90.6	6.8
2025-01-24 17:33:58.103220	100.8	27.9	-89.1	8.7
2025-01-24 17:33:59.270282	100.6	28.1	-89.1	10.5
2025-01-24 17:34:00.417729	100.4	28.2	-88.8	4.0
2025-01-24 17:34:01.566888	100.2	28.4	-89.3	7.9
2025-01-24 17:34:02.717219	100.0	28.6	-89.2	7.6
2025-01-24 17:34:03.867924	99.8	28.7	-89.5	9.2
2025-01-24 17:34:05.016683	99.6	28.9	-89.0	5.5
2025-01-24 17:34:06.173181	99.4	29.1	-88.9	4.9
2025-01-24 17:34:07.320616	99.2	29.3	-88.9	6.9
2025-01-24 17:34:08.480711	99.0	29.4	-90.0	8.2
2025-01-24 17:34:09.630877	98.8	29.6	-90.5	12.7
2025-01-24 17:34:10.784285	98.6	29.8	-90.6	15.8
2025-01-24 17:34:11.935994	98.3	30.0	-90.3	15.3
2025-01-24 17:34:13.095309	98.1	30.1	-90.1	13.6
2025-01-24 17:34:14.245111	97.9	30.3	-90.3	15.8
2025-01-24 17:34:15.398349	97.6	30.5	-90.7	10.0
2025-01-24 17:34:16.557836	97.4	30.7	-90.5	8.4
2025-01-24 17:34:17.712373	97.2	30.8	-90.7	15.6
2025-01-24 17:34:18.865575	96.9	31.0	-90.7	11.1
2025-01-24 17:34:20.011755	96.7	31.2	-90.3	11.9
2025-01-24 17:34:21.163963	96.5	31.4	-90.6	17.6
2025-01-24 17:34:22.319322	96.2	31.6	-90.6	16.6
2025-01-24 17:34:23.465964	96.0	31.7	-90.9	18.0
2025-01-24 17:34:24.617083	95.7	31.9	-90.7	14.5
2025-01-24 17:34:25.769424	95.5	32.1	-90.4	12.2
2025-01-24 17:34:26.925879	95.2	32.3	-90.1	10.4
2025-01-24 17:34:28.078118	94.9	32.5	-90.7	8.6
2025-01-24 17:34:29.231075	94.7	32.6	-90.6	13.6
2025-01-24 17:34:30.382488	94.4	32.8	-91.1	12.8
2025-01-24 17:34:31.532018	94.1	33.0	-91.3	14.1
2025-01-24 17:34:32.686571	93.9	33.2	-91.3	15.6
2025-01-24 17:34:33.849102	93.6	33.4	-91.3	15.3
2025-01-24 17:34:35.009578	93.3	33.6	-91.1	11.5
2025-01-24 17:34:36.166739	93.0	33.8	-90.9	13.0
2025-01-24 17:34:37.321640	92.7	33.9	-90.9	14.8
2025-01-24 17:34:38.470121	92.5	34.1	-90.3	7.0
2025-01-24 17:34:39.628409	92.2	34.3	-91.3	12.6
2025-01-24 17:34:40.786797	91.9	34.5	-91.2	14.6
2025-01-24 17:34:41.933598	91.6	34.7	-90.9	11.6
2025-01-24 17:34:43.095178	91.3	34.9	-90.7	13.8
2025-01-24 17:34:44.252186	91.0	35.1	-90.5	16.0
2025-01-24 17:34:45.409830	90.7	35.2	-90.9	16.5
2025-01-24 17:34:46.561605	90.3	35.4	-90.5	15.0
2025-01-24 17:34:47.716527	90.0	35.6	-90.7	18.0
2025-01-24 17:34:48.869289	89.7	35.8	-91.0	15.2
2025-01-24 17:34:50.018593	89.4	36.0	-91.0	13.1
2025-01-24 17:34:51.171053	89.1	36.2	-90.5	18.1
2025-01-24 17:34:52.317363	88.7	36.4	-90.6	15.1
2025-01-24 17:34:53.477667	88.4	36.6	-90.0	14.4
2025-01-24 17:34:54.625735	88.1	36.7	-89.4	12.4
2025-01-24 17:34:55.777190	87.7	36.9	-89.6	10.7
2025-01-24 17:34:56.925206	87.4	37.1	-89.7	9.4
2025-01-24 17:34:58.080892	87.0	37.3	-89.2	7.7
2025-01-24 17:34:59.235306	86.7	37.5	-88.9	8.4
2025-01-24 17:35:00.390897	86.3	37.7	-88.9	6.1
2025-01-24 17:35:01.541983	85.9	37.9	-89.6	6.1
2025-01-24 17:35:02.690384	85.6	38.0	-89.5	10.2
2025-01-24 17:35:03.842334	85.2	38.2	-89.1	11.7
2025-01-24 17:35:04.995243	84.8	38.4	-89.6	10.7
2025-01-24 17:35:06.138267	84.4	38.6	-89.4	13.4
2025-01-24 17:35:07.273370	84.1	38.8	-89.3	16.3
2025-01-24 17:35:08.395469	83.7	39.0	-89.0	14.0
2025-01-24 17:35:09.515920	83.3	39.1	-90.8	13.9
2025-01-24 17:35:10.636553	82.9	39.3	-90.9	16.7
2025-01-24 17:35:11.758285	82.5	39.5	-90.5	15.8
2025-01-24 17:35:12.879067	82.1	39.7	-90.8	12.5
2025-01-24 17:35:13.999989	81.7	39.8	-91.0	10.5
2025-01-24 17:35:15.119802	81.3	40.0	-90.8	14.5
2025-01-24 17:35:16.244990	80.9	40.2	-90.5	13.3
2025-01-24 17:35:17.369992	80.5	40.4	-90.7	13.1
2025-01-24 17:35:18.530855	80.1	40.5	-90.6	12.7
2025-01-24 17:35:19.687955	79.6	40.7	-91.2	15.3
2025-01-24 17:35:20.825220	79.2	40.9	-90.7	13.2
2025-01-24 17:35:21.971074	78.8	41.1	-90.9	12.3
2025-01-24 17:35:23.124404	78.3	41.2	-90.7	12.9
2025-01-24 17:35:24.274045	77.9	41.4	-90.6	13.7
2025-01-24 17:35:25.428258	77.4	41.6	-90.6	7.4
2025-01-24 17:35:26.580109	77.0	41.7	-90.9	6.6
2025-01-24 17:35:27.732896	76.5	41.9	-91.0	13.9
2025-01-24 17:35:28.882858	76.0	42.1	-90.8	8.0
2025-01-24 17:35:30.040094	75.5	42.2	-90.8	12.3
2025-01-24 17:35:31.191305	75.1	42.4	-90.5	14.4
2025-01-24 17:35:32.345343	74.6	42.6	-90.4	15.3
2025-01-24 17:35:33.493899	74.1	42.7	-91.1	16.3
2025-01-24 17:35:34.650287	73.6	42.9	-91.0	16.5
2025-01-24 17:35:35.803736	73.1	43.0	-90.8	16.5
2025-01-24 17:35:36.957082	72.6	43.2	-90.7	14.7
2025-01-24 17:35:38.103988	72.1	43.3	-90.2	13.4
2025-01-24 17:35:39.257464	71.6	43.5	-90.5	12.0
2025-01-24 17:35:40.412660	71.0	43.6	-90.7	10.5
2025-01-24 17:35:41.568041	70.5	43.8	-90.9	10.6
2025-01-24 17:35:42.723242	70.0	43.9	-91.2	14.3
2025-01-24 17:35:43.869804	69.4	44.1	-90.6	11.2
2025-01-24 17:35:45.019213	68.9	44.2	-90.8	13.8
2025-01-24 17:35:46.171320	68.4	44.3	-90.1	15.2
2025-01-24 17:35:47.324955	67.8	44.5	-90.7	18.1
2025-01-24 17:35:48.476548	67.3	44.6	-90.8	17.1
2025-01-24 17:35:49.630086	66.7	44.7	-91.1	15.2
2025-01-24 17:35:50.788212	66.1	44.9	-90.9	16.3
2025-01-24 17:35:51.928662	65.6	45.0	-91.0	14.6
2025-01-24 17:35:53.081620	65.0	45.1	-90.6	12.5
2025-01-24 17:35:54.233096	64.4	45.2	-90.3	12.9
2025-01-24 17:35:55.382620	63.8	45.3	-90.7	10.0
2025-01-24 17:35:56.534078	63.3	45.5	-91.2	10.3
2025-01-24 17:35:57.688353	62.7	45.6	-90.7	14.8
2025-01-24 17:35:58.839706	62.1	45.7	-91.2	15.0
2025-01-24 17:35:59.987324	61.5	45.8	-90.9	10.3
2025-01-24 17:36:01.140006	60.9	45.9	-90.1	13.3
2025-01-24 17:36:02.299170	60.3	46.0	-90.0	13.3
2025-01-24 17:36:03.460290	59.7	46.1	-90.5	6.7
2025-01-24 17:36:04.606272	59.1	46.2	-90.5	13.6
2025-01-24 17:36:05.760402	58.4	46.2	-91.0	14.1
2025-01-24 17:36:06.913050	57.8	46.3	-91.0	11.8
2025-01-24 17:36:08.064229	57.2	46.4	-91.1	14.6
2025-01-24 17:36:09.217477	56.6	46.5	-90.4	13.6
2025-01-24 17:36:10.370576	56.0	46.6	-90.7	11.4
2025-01-24 17:36:11.522558	55.3	46.6	-91.2	12.0
2025-01-24 17:36:12.675378	54.7	46.7	-91.4	11.6
2025-01-24 17:36:13.825699	54.1	46.7	-91.4	12.0
2025-01-24 17:36:14.981284	53.4	46.8	-91.3	13.4
2025-01-24 17:36:16.128031	52.8	46.9	-90.9	12.6
2025-01-24 17:36:17.277204	52.1	46.9	-90.7	12.8
2025-01-24 17:36:18.428180	51.5	47.0	-91.0	10.0
2025-01-24 17:36:19.576323	50.9	47.0	-91.4	11.6
2025-01-24 17:36:20.726938	50.2	47.0	-91.2	10.4
2025-01-24 17:36:21.887937	49.6	47.1	-91.3	10.9
2025-01-24 17:36:23.041448	48.9	47.1	-90.8	8.9
2025-01-24 17:36:24.190954	48.3	47.1	-90.7	14.3
2025-01-24 17:36:25.339180	47.6	47.1	-90.9	13.9
2025-01-24 17:36:26.502812	46.9	47.2	-91.1	9.8
2025-01-24 17:36:27.655759	46.3	47.2	-91.4	14.7
2025-01-24 17:36:28.815563	45.6	47.2	-91.1	12.5
2025-01-24 17:36:29.970606	45.0	47.2	-91.2	8.6
2025-01-24 17:36:31.115842	44.3	47.2	-90.8	11.3
2025-01-24 17:36:32.257257	43.7	47.2	-91.0	11.2
2025-01-24 17:36:33.404593	43.0	47.2	-91.0	9.1
2025-01-24 17:36:34.561270	42.4	47.2	-91.3	8.8
2025-01-24 17:36:35.712979	41.7	47.2	-91.1	15.2
2025-01-24 17:36:36.866199	41.1	47.1	-91.0	16.0
2025-01-24 17:36:38.015130	40.4	47.1	-91.3	16.3
2025-01-24 17:36:39.166511	39.8	47.1	-90.7	14.8
2025-01-24 17:36:40.314105	39.1	47.1	-90.9	12.4
2025-01-24 17:36:41.464581	38.5	47.0	-91.1	13.4
2025-01-24 17:36:42.614159	37.8	47.0	-91.1	14.8
2025-01-24 17:36:43.763778	37.2	46.9	-91.5	16.8
2025-01-24 17:36:44.917444	36.5	46.9	-91.2	19.4
2025-01-24 17:36:46.069087	35.9	46.8	-90.4	18.7
2025-01-24 17:36:47.218807	35.3	46.8	-90.7	18.7
2025-01-24 17:36:48.365179	34.6	46.7	-91.0	17.4
2025-01-24 17:36:49.517937	34.0	46.7	-90.8	17.1
2025-01-24 17:36:50.667638	33.4	46.6	-91.0	17.1
2025-01-24 17:36:51.826339	32.7	46.5	-90.9	17.1
2025-01-24 17:36:52.978217	32.1	46.4	-91.1	14.5
2025-01-24 17:36:54.124778	31.5	46.4	-90.9	15.1
2025-01-24 17:36:55.272182	30.9	46.3	-90.5	14.1
2025-01-24 17:36:56.419633	30.2	46.2	-90.6	14.8
2025-01-24 17:36:57.565853	29.6	46.1	-91.0	15.5
2025-01-24 17:36:58.717287	29.0	46.0	-91.0	18.6
2025-01-24 17:36:59.864749	28.4	45.9	-90.9	17.5
2025-01-24 17:37:01.008662	27.8	45.8	-91.3	17.1
2025-01-24 17:37:02.161191	27.2	45.7	-91.0	17.0
2025-01-24 17:37:03.310367	26.6	45.6	-90.5	15.7
2025-01-24 17:37:04.462830	26.0	45.5	-90.8	11.3
2025-01-24 17:37:05.613571	25.5	45.4	-91.0	16.1
2025-01-24 17:37:06.766080	24.9	45.3	-91.1	18.9
2025-01-24 17:37:07.920587	24.3	45.2	-91.0	14.9
2025-01-24 17:37:09.076317	23.7	45.1	-91.0	16.3
2025-01-24 17:37:10.229565	23.1	44.9	-90.3	20.0
2025-01-24 17:37:11.377304	22.6	44.8	-90.5	17.3
2025-01-24 17:37:12.534795	22.0	44.7	-90.8	17.4
2025-01-24 17:37:13.694420	21.5	44.5	-90.3	19.9
2025-01-24 17:37:14.844556	20.9	44.4	-91.2	19.0
2025-01-24 17:37:16.000512	20.4	44.3	-91.1	18.5
2025-01-24 17:37:17.154635	19.8	44.1	-91.2	20.6
2025-01-24 17:37:18.314394	19.3	44.0	-90.9	21.4
2025-01-24 17:37:19.466885	18.7	43.9	-91.2	20.1
2025-01-24 17:37:20.624090	18.2	43.7	-91.4	20.7
2025-01-24 17:37:21.775516	17.7	43.6	-91.0	21.1
2025-01-24 17:37:22.930406	17.2	43.4	-91.2	19.6
2025-01-24 17:37:24.079539	16.7	43.3	-90.7	18.6
2025-01-24 17:37:25.231237	16.2	43.1	-90.9	19.6
2025-01-24 17:37:26.378331	15.7	43.0	-89.3	15.2
2025-01-24 17:37:27.524968	15.2	42.8	-89.4	15.7
2025-01-24 17:37:28.671343	14.7	42.6	-89.8	18.3
2025-01-24 17:37:29.828889	14.2	42.5	-89.8	18.5
2025-01-24 17:37:30.977684	13.7	42.3	-89.7	16.7
2025-01-24 17:37:32.134302	13.2	42.2	-87.6	14.4
2025-01-24 17:37:33.285157	12.7	42.0	-90.9	18.3
2025-01-24 17:37:34.437916	12.3	41.8	-91.0	19.2
2025-01-24 17:37:35.585701	11.8	41.7	-91.0	19.1
2025-01-24 17:37:36.714918	11.4	41.5	-91.0	19.0
2025-01-24 17:37:37.836632	10.9	41.3	-91.0	18.4
2025-01-24 17:37:38.956593	10.5	41.2	-90.8	17.5
2025-01-24 17:37:40.079065	10.0	41.0	-90.8	18.0
2025-01-24 17:37:41.199234	9.6	40.8	-91.1	18.4
2025-01-24 17:37:42.320768	9.2	40.6	-90.9	18.5
2025-01-24 17:37:43.441582	8.8	40.5	-90.9	15.5
2025-01-24 17:37:44.562422	8.3	40.3	-91.2	15.9
2025-01-24 17:37:45.686796	7.9	40.1	-91.2	18.1
2025-01-24 17:37:46.815887	7.5	40.0	-91.3	18.5
2025-01-24 17:37:47.971714	7.1	39.8	-91.3	14.7
2025-01-24 17:37:49.116997	6.7	39.6	-90.9	15.1
2025-01-24 17:37:50.271470	6.3	39.4	-90.5	15.1
2025-01-24 17:37:51.418344	5.9	39.2	-90.6	9.3
2025-01-24 17:37:52.567960	5.5	39.1	-90.8	10.7
2025-01-24 17:37:53.719026	5.1	38.9	-91.0	17.0
2025-01-24 17:37:54.871213	4.7	38.7	-91.4	10.9
2025-01-24 17:37:56.042413	4.3	38.5	-91.3	10.0
2025-01-24 17:37:57.187676	4.0	38.3	-90.7	14.2
2025-01-24 17:37:58.342604	3.6	38.1	-90.7	12.0
2025-01-24 17:37:59.490923	3.2	37.9	-90.8	9.1
2025-01-24 17:38:00.639899	2.9	37.8	-91.0	16.6
2025-01-24 17:38:01.785661	2.5	37.6	-91.2	18.2
2025-01-24 17:38:02.934447	2.1	37.4	-90.9	10.1
2025-01-24 17:38:04.086069	1.8	37.2	-90.7	12.1
2025-01-24 17:38:05.250272	1.4	37.0	-90.8	15.5
2025-01-24 17:38:06.414135	1.1	36.8	-90.9	11.4
2025-01-24 17:38:07.560773	0.8	36.6	-91.3	13.1
2025-01-24 17:38:08.714243	0.4	36.5	-91.4	14.4
2025-01-24 17:38:09.871976	0.1	36.3	-91.3	12.7
2025-01-24 17:38:11.022970	359.7	36.1	-91.1	15.8
2025-01-24 17:38:12.175056	359.4	35.9	-90.6	16.5
2025-01-24 17:38:13.333264	359.1	35.7	-90.7	16.8
2025-01-24 17:38:14.486772	358.8	35.5	-90.7	15.5
2025-01-24 17:38:15.641049	358.5	35.3	-90.8	13.8
2025-01-24 17:38:16.785126	358.2	35.1	-91.0	15.5
2025-01-24 17:38:17.939836	357.9	35.0	-91.1	14.2
2025-01-24 17:38:19.097772	357.5	34.8	-90.7	15.5
2025-01-24 17:38:20.252457	357.2	34.6	-90.9	17.0
2025-01-24 17:38:21.400723	356.9	34.4	-90.6	11.4
2025-01-24 17:38:22.549346	356.7	34.2	-90.8	11.2
2025-01-24 17:38:23.698231	356.4	34.0	-91.0	15.1
2025-01-24 17:38:24.851032	356.1	33.8	-91.3	12.2
2025-01-24 17:38:26.010716	355.8	33.7	-90.9	10.2
2025-01-24 17:38:27.167974	355.5	33.5	-90.8	8.3
2025-01-24 17:38:28.323961	355.2	33.3	-90.8	8.1
2025-01-24 17:38:29.475289	355.0	33.1	-91.0	7.2
2025-01-24 17:38:30.634113	354.7	32.9	-91.1	5.4
2025-01-24 17:38:31.786903	354.4	32.7	-91.4	8.5
2025-01-24 17:38:32.939518	354.2	32.5	-91.5	8.0
2025-01-24 17:38:34.084398	353.9	32.4	-90.4	11.3
2025-01-24 17:38:35.240044	353.6	32.2	-90.7	6.9
2025-01-24 17:38:36.387726	353.4	32.0	-90.8	7.7
2025-01-24 17:38:37.537607	353.1	31.8	-91.0	10.2
2025-01-24 17:38:38.693046	352.9	31.6	-91.2	8.8
2025-01-24 17:38:39.844522	352.6	31.5	-91.7	8.2
2025-01-24 17:38:40.995404	352.4	31.3	-91.0	7.7
2025-01-24 17:38:42.142075	352.1	31.1	-90.9	12.3
2025-01-24 17:38:43.295230	351.9	30.9	-91.0	12.8
2025-01-24 17:38:44.445166	351.7	30.7	-91.1	9.0
2025-01-24 17:38:45.600348	351.4	30.6	-91.2	9.8
2025-01-24 17:38:46.762345	351.2	30.4	-91.4	13.1
2025-01-24 17:38:47.908670	351.0	30.2	-91.0	7.9
2025-01-24 17:38:49.060646	350.8	30.0	-91.2	8.1
2025-01-24 17:38:50.214701	350.5	29.9	-91.1	13.5
2025-01-24 17:38:51.366527	350.3	29.7	-91.1	7.4
2025-01-24 17:38:52.522467	350.1	29.5	-91.0	8.7
2025-01-24 17:38:53.677575	349.9	29.3	-91.0	10.6
2025-01-24 17:38:54.833836	349.7	29.2	-91.1	10.1
2025-01-24 17:38:55.987928	349.4	29.0	-91.0	11.4
2025-01-24 17:38:57.147401	349.2	28.8	-90.7	11.4
2025-01-24 17:38:58.297091	349.0	28.6	-90.8	9.6
2025-01-24 17:38:59.451092	348.8	28.5	-90.3	10.2
2025-01-24 17:39:00.596540	348.6	28.3	-90.6	12.0
2025-01-24 17:39:01.748043	348.4	28.1	-90.6	11.0
2025-01-24 17:39:02.907385	348.2	28.0	-91.1	9.3
2025-01-24 17:39:04.063604	348.0	27.8	-90.9	9.2
2025-01-24 17:39:05.207823	347.8	27.6	-90.8	7.3
2025-01-24 17:39:06.355059	347.6	27.5	-91.0	7.5
2025-01-24 17:39:07.475471	347.5	27.3	-90.8	7.4
2025-01-24 17:39:08.595099	347.3	27.1	-91.0	9.5
2025-01-24 17:39:09.717086	347.1	27.0	-91.4	9.3
2025-01-24 17:39:10.837943	346.9	26.8	-91.4	10.3
2025-01-24 17:39:11.959125	346.7	26.7	-91.1	10.2
2025-01-24 17:39:13.079291	346.6	26.5	-90.8	9.9
2025-01-24 17:39:14.199867	346.4	26.3	-90.9	14.0
2025-01-24 17:39:15.324026	346.2	26.2	-90.8	14.3
2025-01-24 17:39:16.444360	346.0	26.0	-91.2	12.8
2025-01-24 17:39:17.599745	345.9	25.9	-90.9	13.9
2025-01-24 17:39:18.748262	345.7	25.7	-91.0	12.9
2025-01-24 17:39:19.897468	345.5	25.5	-91.1	11.0
2025-01-24 17:39:21.046929	345.4	25.4	-91.1	10.6
2025-01-24 17:39:22.190007	345.2	25.2	-90.6	9.3
2025-01-24 17:39:23.345912	345.0	25.1	-90.5	12.7
2025-01-24 17:39:24.493679	344.9	24.9	-90.9	7.0
2025-01-24 17:39:25.641998	344.7	24.8	-90.7	12.6
2025-01-24 17:39:26.794314	344.5	24.6	-90.1	14.8
2025-01-24 17:39:27.951381	344.4	24.4	-90.4	7.1
2025-01-24 17:39:29.108742	344.2	24.3	-90.4	12.7
2025-01-24 17:39:30.261149	344.1	24.1	-90.3	10.6
2025-01-24 17:39:31.411035	343.9	24.0	-90.6	9.1
2025-01-24 17:39:32.563135	343.8	23.8	-90.8	12.8
2025-01-24 17:39:33.723169	343.6	23.7	-91.2	17.2
2025-01-24 17:39:34.876438	343.5	23.5	-91.2	13.7
2025-01-24 17:39:36.025315	343.3	23.4	-91.2	15.0
2025-01-24 17:39:37.174067	343.2	23.2	-90.5	12.9
2025-01-24 17:39:38.322709	343.0	23.1	-90.4	10.7
2025-01-24 17:39:39.472695	342.9	22.9	-91.0	11.4
2025-01-24 17:39:40.636822	342.7	22.8	-90.5	17.9
2025-01-24 17:39:41.789473	342.6	22.6	-90.6	13.0
2025-01-24 17:39:42.940537	342.5	22.5	-90.2	6.9
2025-01-24 17:39:44.094266	342.3	22.3	-90.5	6.8
2025-01-24 17:39:45.250143	342.2	22.2	-90.5	13.6
2025-01-24 17:39:46.400581	342.0	22.1	-90.8	11.6
2025-01-24 17:39:47.553123	341.9	21.9	-90.9	11.5
2025-01-24 17:39:48.705630	341.8	21.8	-90.9	13.5
2025-01-24 17:39:49.866076	341.6	21.6	-91.1	16.1
2025-01-24 17:39:51.026051	341.5	21.5	-90.6	11.3
2025-01-24 17:39:52.178525	341.4	21.3	-90.5	12.1
2025-01-24 17:39:53.332396	341.3	21.2	-90.6	10.2
2025-01-24 17:39:54.494914	341.1	21.1	-90.1	8.1
2025-01-24 17:39:55.649451	341.0	20.9	-90.6	10.8
2025-01-24 17:39:56.799115	340.9	20.8	-90.8	12.1
2025-01-24 17:39:57.958338	340.8	20.6	-90.9	6.9
2025-01-24 17:39:59.115735	340.6	20.5	-90.5	6.1
2025-01-24 17:40:00.271343	340.5	20.4	-90.8	8.7
2025-01-24 17:40:01.420785	340.4	20.2	-91.1	5.9
2025-01-24 17:40:02.564870	340.3	20.1	-90.8	6.2
2025-01-24 17:40:03.716343	340.2	20.0	-91.4	5.8
2025-01-24 17:40:04.865204	340.0	19.8	-91.3	5.1
2025-01-24 17:40:06.014313	339.9	19.7	-91.3	4.9
2025-01-24 17:40:07.161608	339.8	19.6	-91.0	3.1
2025-01-24 17:40:08.286261	339.7	19.4	-90.9	2.0
2025-01-24 17:40:09.407699	339.6	19.3	-90.8	2.1
2025-01-24 17:40:10.528454	339.5	19.2	-89.6	4.9
2025-01-24 17:40:11.649317	339.4	19.0	-89.6	5.0
2025-01-24 17:40:12.769522	339.3	18.9	-89.7	3.9
2025-01-24 17:40:13.890210	339.2	18.8	-90.0	3.9
2025-01-24 17:40:15.011406	339.1	18.7	-90.2	4.6
2025-01-24 17:40:16.135033	338.9	18.5	-89.5	3.7
2025-01-24 17:40:17.258432	338.8	18.4	-89.9	5.5
2025-01-24 17:40:18.395617	338.7	18.3	-89.6	4.8
2025-01-24 17:40:19.549878	338.6	18.2	-89.8	6.9
2025-01-24 17:40:20.695193	338.5	18.0	-89.4	10.8
2025-01-24 17:40:21.842241	338.4	17.9	-89.5	6.2
2025-01-24 17:40:22.994867	338.3	17.8	-89.6	5.7
2025-01-24 17:40:24.152121	338.2	17.7	-89.4	6.1
2025-01-24 17:40:25.310190	338.1	17.5	-89.4	5.3
2025-01-24 17:40:26.455110	338.0	17.4	-90.2	5.1
2025-01-24 17:40:27.608391	337.9	17.3	-90.6	5.5
2025-01-24 17:40:28.758502	337.8	17.2	-91.2	3.5
2025-01-24 17:40:29.909678	337.7	17.0	-91.4	4.1
2025-01-24 17:40:31.061590	337.6	16.9	-91.3	3.0
2025-01-24 17:40:32.211483	337.5	16.8	-90.7	3.3
2025-01-24 17:40:33.358143	337.5	16.7	-90.8	3.9
2025-01-24 17:40:34.521440	337.4	16.6	-90.8	3.7
2025-01-24 17:40:35.672919	337.3	16.4	-91.0	5.1
2025-01-24 17:40:36.835578	337.2	16.3	-91.0	5.0
2025-01-24 17:40:37.988051	337.1	16.2	-91.1	3.8
2025-01-24 17:40:39.146309	337.0	16.1	-91.0	3.3
2025-01-24 17:40:40.308653	336.9	16.0	-91.1	2.4
2025-01-24 17:40:41.462939	336.8	15.8	-91.3	5.4
2025-01-24 17:40:42.615342	336.7	15.7	-91.4	2.7
2025-01-24 17:40:43.776349	336.6	15.6	-91.5	4.5
2025-01-24 17:40:44.928140	336.5	15.5	-89.9	3.8
2025-01-24 17:40:46.078758	336.5	15.4	-90.0	4.2
2025-01-24 17:40:47.206994	336.4	15.3	-89.7	4.2
2025-01-24 17:40:48.345329	336.3	15.1	-89.7	5.8
2025-01-24 17:40:49.492390	336.2	15.0	-89.7	3.9
2025-01-24 17:40:50.634220	336.1	14.9	-89.6	5.2
2025-01-24 17:40:51.785383	336.0	14.8	-89.8	5.7
2025-01-24 17:40:52.935108	336.0	14.7	-91.6	5.9
2025-01-24 17:40:54.083313	335.9	14.6	-90.9	3.7
2025-01-24 17:40:55.266334	335.8	14.5	-91.0	5.7
#Closed at: 2025-01-24 17:32:16.255701