passes_logs/2025/01/24/LEX_Murmansk/LEX_Murmansk__20250124_070851_NOAA_19_rec.log

#Pass ID: 20250124_070851_NOAA 19
#Satellite: NOAA 19
#Configuration: NOAA 19
#Start time: 2025-01-24 07:08:46.212541

#LorettStation: 1.0.0 05.05.2024
#Station: LEX_Murmansk
#Location: 33.156738 lon 68.926811 lat
#TLE: 1 33591U 09005A   25023.14581638  .00000359  00000+0  21554-3 0  9999
#TLE: 2 33591  99.0183  86.9707 0014184  35.5055 324.7058 14.13266334822690

#Time	Az	El	Level	SNR
2025-01-24 07:08:58.530639	36.5	16.1	-90.6	2.7
2025-01-24 07:08:59.695795	36.6	16.2	-90.7	1.5
2025-01-24 07:09:00.857028	36.8	16.3	-90.5	2.5
2025-01-24 07:09:02.018544	37.0	16.4	-90.6	2.4
2025-01-24 07:09:03.186103	37.1	16.5	-90.7	3.4
2025-01-24 07:09:04.343160	37.3	16.6	-90.5	4.5
2025-01-24 07:09:05.513436	37.4	16.7	-90.5	1.1
2025-01-24 07:09:06.674924	37.6	16.8	-90.5	1.4
2025-01-24 07:09:07.837574	37.7	16.9	-90.9	2.9
2025-01-24 07:09:08.997978	37.9	17.0	-91.0	5.7
2025-01-24 07:09:10.162576	38.1	17.1	-90.4	3.1
2025-01-24 07:09:11.326549	38.2	17.2	-90.8	3.5
2025-01-24 07:09:12.482545	38.4	17.3	-90.8	4.9
2025-01-24 07:09:13.644464	38.6	17.4	-90.7	2.4
2025-01-24 07:09:14.808510	38.7	17.5	-90.8	2.5
2025-01-24 07:09:15.967494	38.9	17.6	-90.8	3.3
2025-01-24 07:09:17.137095	39.1	17.7	-90.4	2.1
2025-01-24 07:09:18.303130	39.2	17.8	-90.2	2.8
2025-01-24 07:09:19.458519	39.4	17.9	-87.4	2.8
2025-01-24 07:09:20.625275	39.6	18.0	-87.1	4.4
2025-01-24 07:09:21.786036	39.7	18.1	-87.1	2.1
2025-01-24 07:09:22.954363	39.9	18.3	-87.5	9.5
2025-01-24 07:09:24.116687	40.1	18.4	-87.9	3.7
2025-01-24 07:09:25.283554	40.3	18.5	-87.5	3.0
2025-01-24 07:09:26.444845	40.4	18.6	-87.4	3.7
2025-01-24 07:09:27.599270	40.6	18.7	-87.2	3.5
2025-01-24 07:09:28.765854	40.8	18.8	-87.6	3.3
2025-01-24 07:09:29.924322	41.0	18.9	-87.9	4.9
2025-01-24 07:09:31.083368	41.2	19.0	-87.2	3.2
2025-01-24 07:09:32.245283	41.3	19.1	-87.3	3.3
2025-01-24 07:09:33.410703	41.5	19.2	-87.5	4.1
2025-01-24 07:09:34.564563	41.7	19.3	-88.2	5.4
2025-01-24 07:09:35.740938	41.9	19.4	-87.2	3.6
2025-01-24 07:09:36.903000	42.1	19.5	-86.8	4.8
2025-01-24 07:09:38.070340	42.3	19.6	-86.8	3.2
2025-01-24 07:09:39.231298	42.5	19.8	-87.4	2.9
2025-01-24 07:09:40.390188	42.7	19.9	-87.3	2.7
2025-01-24 07:09:41.554126	42.9	20.0	-86.5	1.7
2025-01-24 07:09:42.712202	43.1	20.1	-86.6	3.0
2025-01-24 07:09:43.875842	43.3	20.2	-87.0	4.2
2025-01-24 07:09:45.036450	43.4	20.3	-86.6	5.4
2025-01-24 07:09:46.202499	43.6	20.4	-86.8	6.5
2025-01-24 07:09:47.362889	43.8	20.5	-86.2	6.9
2025-01-24 07:09:48.531009	44.1	20.6	-87.3	6.0
2025-01-24 07:09:49.693837	44.3	20.7	-88.0	6.0
2025-01-24 07:09:50.854728	44.5	20.9	-86.9	3.0
2025-01-24 07:09:52.021009	44.7	21.0	-87.7	5.2
2025-01-24 07:09:53.185199	44.9	21.1	-87.5	6.1
2025-01-24 07:09:54.341003	45.1	21.2	-87.4	8.5
2025-01-24 07:09:55.506508	45.3	21.3	-87.6	8.0
2025-01-24 07:09:56.660788	45.5	21.4	-87.6	5.3
2025-01-24 07:09:57.818901	45.7	21.5	-87.5	5.8
2025-01-24 07:09:58.988612	45.9	21.6	-87.8	5.3
2025-01-24 07:10:00.143784	46.1	21.7	-87.6	4.0
2025-01-24 07:10:01.301934	46.4	21.8	-87.9	2.8
2025-01-24 07:10:02.459480	46.6	22.0	-88.1	2.2
2025-01-24 07:10:03.624462	46.8	22.1	-88.0	4.4
2025-01-24 07:10:04.784044	47.0	22.2	-88.0	3.1
2025-01-24 07:10:05.945602	47.2	22.3	-88.3	8.5
2025-01-24 07:10:07.103247	47.5	22.4	-88.4	11.4
2025-01-24 07:10:08.265498	47.7	22.5	-88.3	13.0
2025-01-24 07:10:09.429535	47.9	22.6	-87.9	8.7
2025-01-24 07:10:10.587345	48.2	22.7	-87.8	6.7
2025-01-24 07:10:11.750456	48.4	22.9	-88.3	6.7
2025-01-24 07:10:12.908370	48.6	23.0	-88.2	7.2
2025-01-24 07:10:14.073730	48.9	23.1	-88.2	6.1
2025-01-24 07:10:15.236324	49.1	23.2	-87.7	8.9
2025-01-24 07:10:16.404053	49.3	23.3	-87.5	8.5
2025-01-24 07:10:17.554017	49.6	23.4	-87.8	7.0
2025-01-24 07:10:18.713761	49.8	23.5	-88.0	7.2
2025-01-24 07:10:19.872467	50.1	23.6	-88.4	5.2
2025-01-24 07:10:21.035602	50.3	23.7	-88.1	3.8
2025-01-24 07:10:22.198288	50.5	23.9	-87.9	4.2
2025-01-24 07:10:23.363219	50.8	24.0	-87.9	3.9
2025-01-24 07:10:24.529802	51.0	24.1	-88.3	4.0
2025-01-24 07:10:25.693511	51.3	24.2	-88.1	7.5
2025-01-24 07:10:26.853713	51.5	24.3	-88.5	7.6
2025-01-24 07:10:28.009815	51.8	24.4	-88.3	7.7
2025-01-24 07:10:29.173191	52.1	24.5	-87.9	7.6
2025-01-24 07:10:30.335130	52.3	24.6	-88.0	6.6
2025-01-24 07:10:31.496294	52.6	24.7	-87.9	7.7
2025-01-24 07:10:32.656953	52.8	24.8	-88.1	6.5
2025-01-24 07:10:33.824078	53.1	25.0	-88.2	5.8
2025-01-24 07:10:34.983493	53.4	25.1	-88.0	5.1
2025-01-24 07:10:36.142101	53.6	25.2	-87.2	3.7
2025-01-24 07:10:37.303266	53.9	25.3	-87.0	3.5
2025-01-24 07:10:38.469957	54.2	25.4	-86.7	8.5
2025-01-24 07:10:39.631895	54.5	25.5	-86.9	4.4
2025-01-24 07:10:40.792305	54.7	25.6	-86.7	3.6
2025-01-24 07:10:41.950999	55.0	25.7	-86.9	7.0
2025-01-24 07:10:43.112399	55.3	25.8	-87.0	4.2
2025-01-24 07:10:44.271780	55.6	25.9	-87.0	0.1
2025-01-24 07:10:45.431195	55.8	26.0	-87.8	4.1
2025-01-24 07:10:46.593482	56.1	26.2	-88.0	3.7
2025-01-24 07:10:47.754068	56.4	26.3	-87.8	3.6
2025-01-24 07:10:48.919879	56.7	26.4	-87.1	4.9
2025-01-24 07:10:50.081863	57.0	26.5	-87.2	3.3
2025-01-24 07:10:51.248140	57.3	26.6	-86.4	4.2
2025-01-24 07:10:52.405937	57.6	26.7	-86.6	5.3
2025-01-24 07:10:53.571567	57.9	26.8	-86.8	4.6
2025-01-24 07:10:54.731858	58.2	26.9	-86.9	4.2
2025-01-24 07:10:55.897223	58.5	27.0	-86.9	3.1
2025-01-24 07:10:57.055655	58.8	27.1	-88.1	3.8
2025-01-24 07:10:58.216318	59.1	27.2	-88.1	4.4
2025-01-24 07:10:59.383557	59.4	27.3	-88.3	4.3
2025-01-24 07:11:00.540897	59.7	27.4	-88.0	4.9
2025-01-24 07:11:01.706644	60.0	27.5	-87.8	4.1
2025-01-24 07:11:02.868766	60.3	27.6	-88.0	4.3
2025-01-24 07:11:04.034041	60.6	27.7	-87.6	4.4
2025-01-24 07:11:05.192344	60.9	27.8	-87.9	4.0
2025-01-24 07:11:06.343921	61.2	27.9	-87.3	4.9
2025-01-24 07:11:07.501678	61.6	28.0	-87.2	4.2
2025-01-24 07:11:08.685378	61.9	28.1	-87.4	2.8
2025-01-24 07:11:09.850858	62.2	28.2	-88.1	3.6
2025-01-24 07:11:11.006561	62.5	28.3	-87.9	4.1
2025-01-24 07:11:12.176076	62.9	28.4	-88.0	3.2
2025-01-24 07:11:13.339667	63.2	28.5	-88.0	8.5
2025-01-24 07:11:14.502921	63.5	28.6	-88.0	2.0
2025-01-24 07:11:15.667661	63.8	28.7	-87.8	4.0
2025-01-24 07:11:16.832908	64.2	28.8	-87.5	2.6
2025-01-24 07:11:17.994745	64.5	28.9	-87.7	4.4
2025-01-24 07:11:19.171585	64.9	29.0	-87.5	5.2
2025-01-24 07:11:20.327236	65.2	29.1	-87.4	7.6
2025-01-24 07:11:21.480755	65.5	29.2	-87.8	7.2
2025-01-24 07:11:22.648274	65.9	29.3	-87.2	6.0
2025-01-24 07:11:23.814096	66.2	29.3	-86.9	5.4
2025-01-24 07:11:24.979695	66.6	29.4	-86.9	5.7
2025-01-24 07:11:26.143023	66.9	29.5	-87.4	5.2
2025-01-24 07:11:27.302028	67.3	29.6	-87.9	3.6
2025-01-24 07:11:28.467589	67.6	29.7	-87.9	4.2
2025-01-24 07:11:29.629251	68.0	29.8	-87.7	4.8
2025-01-24 07:11:30.794381	68.3	29.9	-87.5	2.0
2025-01-24 07:11:31.954916	68.7	30.0	-88.0	5.2
2025-01-24 07:11:33.122608	69.1	30.0	-87.4	6.9
2025-01-24 07:11:34.282418	69.4	30.1	-87.1	7.7
2025-01-24 07:11:35.443016	69.8	30.2	-87.8	11.1
2025-01-24 07:11:36.605345	70.1	30.3	-88.3	9.0
2025-01-24 07:11:37.766745	70.5	30.4	-88.1	10.7
2025-01-24 07:11:38.934746	70.9	30.4	-88.6	8.0
2025-01-24 07:11:40.094282	71.3	30.5	-88.3	8.1
2025-01-24 07:11:41.257155	71.6	30.6	-88.2	7.3
2025-01-24 07:11:42.429671	72.0	30.7	-87.5	5.7
2025-01-24 07:11:43.590827	72.4	30.7	-87.8	3.4
2025-01-24 07:11:44.755406	72.8	30.8	-87.6	4.5
2025-01-24 07:11:45.927751	73.1	30.9	-88.1	5.9
2025-01-24 07:11:47.092739	73.5	30.9	-88.0	4.1
2025-01-24 07:11:48.253611	73.9	31.0	-88.4	4.7
2025-01-24 07:11:49.382445	74.3	31.1	-87.8	4.8
2025-01-24 07:11:50.507854	74.6	31.1	-88.2	6.1
2025-01-24 07:11:51.668548	75.0	31.2	-88.2	11.1
2025-01-24 07:11:52.835011	75.4	31.3	-88.2	9.6
2025-01-24 07:11:53.999045	75.8	31.3	-88.0	10.5
2025-01-24 07:11:55.164899	76.2	31.4	-88.0	11.4
2025-01-24 07:11:56.326553	76.6	31.4	-87.8	12.1
2025-01-24 07:11:57.487259	77.0	31.5	-87.8	12.0
2025-01-24 07:11:58.649563	77.4	31.6	-87.7	10.6
2025-01-24 07:11:59.810996	77.8	31.6	-87.9	13.8
2025-01-24 07:12:00.977650	78.2	31.7	-87.7	9.8
2025-01-24 07:12:02.136115	78.6	31.7	-86.3	10.1
2025-01-24 07:12:03.300918	79.0	31.8	-86.6	10.2
2025-01-24 07:12:04.463174	79.4	31.8	-87.2	8.8
2025-01-24 07:12:05.622417	79.8	31.9	-87.2	8.1
2025-01-24 07:12:06.784220	80.2	31.9	-87.0	10.8
2025-01-24 07:12:07.946248	80.6	32.0	-87.5	9.0
2025-01-24 07:12:09.107313	81.0	32.0	-87.9	7.4
2025-01-24 07:12:10.262621	81.4	32.1	-88.1	10.3
2025-01-24 07:12:11.425071	81.8	32.1	-88.1	8.7
2025-01-24 07:12:12.585262	82.2	32.1	-87.8	10.8
2025-01-24 07:12:13.752777	82.6	32.2	-87.7	13.6
2025-01-24 07:12:14.917524	83.0	32.2	-87.4	10.3
2025-01-24 07:12:16.084017	83.5	32.2	-87.3	12.3
2025-01-24 07:12:17.248031	83.9	32.3	-86.9	9.2
2025-01-24 07:12:18.406285	84.3	32.3	-87.3	12.1
2025-01-24 07:12:19.568116	84.7	32.3	-88.0	9.1
2025-01-24 07:12:20.737399	85.1	32.4	-88.2	7.2
2025-01-24 07:12:21.890957	85.5	32.4	-88.0	8.7
2025-01-24 07:12:23.058842	85.9	32.4	-88.1	9.6
2025-01-24 07:12:24.229741	86.4	32.4	-87.8	9.1
2025-01-24 07:12:25.395111	86.8	32.5	-87.8	6.8
2025-01-24 07:12:26.556323	87.2	32.5	-87.6	7.2
2025-01-24 07:12:27.704987	87.6	32.5	-87.9	9.2
2025-01-24 07:12:28.869338	88.0	32.5	-87.9	9.4
2025-01-24 07:12:30.028601	88.5	32.5	-87.9	6.8
2025-01-24 07:12:31.192090	88.9	32.5	-87.5	7.5
2025-01-24 07:12:32.356086	89.3	32.6	-86.9	4.4
2025-01-24 07:12:33.521439	89.7	32.6	-88.0	5.3
2025-01-24 07:12:34.676284	90.1	32.6	-86.9	9.1
2025-01-24 07:12:35.837379	90.6	32.6	-87.1	6.4
2025-01-24 07:12:36.996425	91.0	32.6	-87.7	3.8
2025-01-24 07:12:38.156451	91.4	32.6	-87.4	6.1
2025-01-24 07:12:39.319310	91.8	32.6	-86.9	8.7
2025-01-24 07:12:40.484020	92.2	32.6	-87.3	6.4
2025-01-24 07:12:41.647897	92.7	32.6	-86.7	9.6
2025-01-24 07:12:42.812196	93.1	32.6	-86.9	8.2
2025-01-24 07:12:43.981283	93.5	32.6	-87.4	5.8
2025-01-24 07:12:45.143576	93.9	32.6	-88.5	7.9
2025-01-24 07:12:46.319795	94.4	32.6	-88.3	8.2
2025-01-24 07:12:47.483808	94.8	32.6	-88.8	6.6
2025-01-24 07:12:48.644511	95.2	32.5	-88.8	7.5
2025-01-24 07:12:49.801350	95.6	32.5	-88.5	7.8
2025-01-24 07:12:50.967808	96.0	32.5	-88.3	9.0
2025-01-24 07:12:52.134807	96.5	32.5	-88.5	7.5
2025-01-24 07:12:53.300794	96.9	32.5	-88.2	11.2
2025-01-24 07:12:54.462503	97.3	32.5	-88.3	8.7
2025-01-24 07:12:55.623824	97.7	32.4	-87.9	10.8
2025-01-24 07:12:56.785649	98.1	32.4	-87.5	8.0
2025-01-24 07:12:57.938773	98.5	32.4	-87.8	10.5
2025-01-24 07:12:59.102216	99.0	32.4	-87.3	11.2
2025-01-24 07:13:00.261968	99.4	32.3	-87.9	13.0
2025-01-24 07:13:01.397344	99.8	32.3	-87.9	12.9
2025-01-24 07:13:02.548887	100.2	32.3	-88.1	7.6
2025-01-24 07:13:03.706900	100.6	32.2	-88.0	11.4
2025-01-24 07:13:04.867345	101.0	32.2	-87.8	10.9
2025-01-24 07:13:06.035908	101.4	32.2	-87.6	8.5
2025-01-24 07:13:07.200130	101.8	32.1	-87.6	13.5
2025-01-24 07:13:08.364383	102.2	32.1	-87.0	11.7
2025-01-24 07:13:09.527753	102.6	32.0	-87.3	10.8
2025-01-24 07:13:10.693272	103.1	32.0	-87.2	13.9
2025-01-24 07:13:11.858914	103.5	32.0	-87.8	9.5
2025-01-24 07:13:13.020544	103.9	31.9	-87.8	10.9
2025-01-24 07:13:14.184235	104.3	31.9	-87.4	8.6
2025-01-24 07:13:15.350234	104.7	31.8	-87.8	9.2
2025-01-24 07:13:16.511356	105.1	31.8	-87.5	6.0
2025-01-24 07:13:17.678263	105.5	31.7	-87.2	6.8
2025-01-24 07:13:18.838687	105.9	31.7	-87.8	9.0
2025-01-24 07:13:20.003425	106.3	31.6	-87.0	5.5
2025-01-24 07:13:21.167951	106.7	31.6	-87.3	10.1
2025-01-24 07:13:22.331965	107.1	31.5	-87.1	11.1
2025-01-24 07:13:23.493823	107.5	31.4	-87.4	7.6
2025-01-24 07:13:24.653362	107.9	31.4	-86.9	8.6
2025-01-24 07:13:25.814927	108.2	31.3	-87.0	10.6
2025-01-24 07:13:26.980813	108.6	31.3	-86.4	6.3
2025-01-24 07:13:28.139927	109.0	31.2	-87.8	7.4
2025-01-24 07:13:29.302031	109.4	31.1	-87.4	7.8
2025-01-24 07:13:30.473044	109.8	31.1	-87.5	4.0
2025-01-24 07:13:31.632530	110.2	31.0	-87.4	4.6
2025-01-24 07:13:32.799897	110.6	30.9	-87.3	7.2
2025-01-24 07:13:33.963288	110.9	30.9	-86.3	5.3
2025-01-24 07:13:35.122584	111.3	30.8	-87.3	4.2
2025-01-24 07:13:36.291043	111.7	30.7	-87.4	5.8
2025-01-24 07:13:37.451932	112.1	30.6	-88.1	6.1
2025-01-24 07:13:38.611672	112.4	30.6	-88.1	5.5
2025-01-24 07:13:39.778330	112.8	30.5	-87.9	4.5
2025-01-24 07:13:40.942751	113.2	30.4	-87.6	2.4
2025-01-24 07:13:42.102076	113.6	30.3	-87.2	5.1
2025-01-24 07:13:43.271585	113.9	30.3	-87.6	7.3
2025-01-24 07:13:44.435084	114.3	30.2	-87.9	9.9
2025-01-24 07:13:45.602155	114.7	30.1	-87.5	6.8
2025-01-24 07:13:46.755696	115.0	30.0	-88.3	8.6
2025-01-24 07:13:47.921969	115.4	29.9	-88.1	7.1
2025-01-24 07:13:49.084382	115.7	29.9	-87.4	6.8
2025-01-24 07:13:50.243493	116.1	29.8	-87.3	6.6
2025-01-24 07:13:51.407642	116.4	29.7	-87.1	5.9
2025-01-24 07:13:52.568026	116.8	29.6	-87.2	3.8
2025-01-24 07:13:53.736191	117.2	29.5	-86.9	4.7
2025-01-24 07:13:54.897559	117.5	29.4	-86.3	3.8
2025-01-24 07:13:56.080199	117.9	29.3	-86.5	6.7
2025-01-24 07:13:57.246827	118.2	29.2	-87.0	5.0
2025-01-24 07:13:58.398473	118.5	29.1	-86.4	4.0
2025-01-24 07:13:59.567103	118.9	29.1	-87.0	4.4
2025-01-24 07:14:00.721006	119.2	29.0	-87.4	3.9
2025-01-24 07:14:01.889533	119.6	28.9	-88.4	4.0
2025-01-24 07:14:03.053377	119.9	28.8	-88.3	3.8
2025-01-24 07:14:04.213953	120.2	28.7	-87.4	5.5
2025-01-24 07:14:05.378646	120.6	28.6	-88.1	5.7
2025-01-24 07:14:06.543646	120.9	28.5	-87.9	4.2
2025-01-24 07:14:07.709448	121.2	28.4	-87.9	3.8
2025-01-24 07:14:08.864801	121.5	28.3	-87.5	6.4
2025-01-24 07:14:10.029330	121.9	28.2	-87.8	5.6
2025-01-24 07:14:11.193123	122.2	28.1	-87.4	3.1
2025-01-24 07:14:12.362037	122.5	28.0	-87.0	0.9
2025-01-24 07:14:13.526632	122.8	27.9	-87.1	3.4
2025-01-24 07:14:14.687720	123.1	27.8	-88.0	1.4
2025-01-24 07:14:15.849635	123.5	27.7	-87.1	2.0
2025-01-24 07:14:17.009278	123.8	27.6	-87.3	3.4
2025-01-24 07:14:18.166225	124.1	27.5	-86.6	3.2
2025-01-24 07:14:19.331725	124.4	27.4	-86.5	3.0
2025-01-24 07:14:20.495341	124.7	27.3	-86.3	4.6
2025-01-24 07:14:21.652098	125.0	27.2	-87.7	2.3
2025-01-24 07:14:22.812047	125.3	27.1	-88.3	3.9
2025-01-24 07:14:23.976460	125.6	27.0	-87.9	10.7
2025-01-24 07:14:25.140404	125.9	26.9	-87.6	6.0
2025-01-24 07:14:26.302885	126.2	26.8	-86.7	6.0
2025-01-24 07:14:27.465760	126.5	26.7	-86.2	4.4
2025-01-24 07:14:28.628101	126.8	26.6	-86.6	5.2
2025-01-24 07:14:29.791078	127.1	26.5	-87.7	8.1
2025-01-24 07:14:30.949121	127.4	26.3	-87.5	6.3
2025-01-24 07:14:32.120877	127.7	26.2	-87.0	5.5
2025-01-24 07:14:33.281675	127.9	26.1	-86.8	9.7
2025-01-24 07:14:34.439713	128.2	26.0	-86.8	5.5
2025-01-24 07:14:35.599900	128.5	25.9	-87.4	5.2
2025-01-24 07:14:36.764899	128.8	25.8	-87.6	8.6
2025-01-24 07:14:37.930199	129.1	25.7	-87.3	6.3
2025-01-24 07:14:39.083840	129.3	25.6	-87.5	6.9
2025-01-24 07:14:40.249276	129.6	25.5	-87.9	10.2
2025-01-24 07:14:41.402337	129.9	25.4	-88.0	7.9
2025-01-24 07:14:42.560355	130.1	25.3	-88.5	6.0
2025-01-24 07:14:43.725420	130.4	25.2	-87.4	9.1
2025-01-24 07:14:44.888811	130.7	25.0	-87.1	6.6
2025-01-24 07:14:46.045920	130.9	24.9	-87.2	7.5
2025-01-24 07:14:47.210330	131.2	24.8	-87.0	2.6
2025-01-24 07:14:48.369931	131.5	24.7	-87.3	10.1
2025-01-24 07:14:49.536025	131.7	24.6	-86.4	7.1
2025-01-24 07:14:50.699054	132.0	24.5	-86.5	8.4
2025-01-24 07:14:51.859161	132.2	24.4	-87.4	7.7
2025-01-24 07:14:53.022334	132.5	24.3	-87.2	6.0
2025-01-24 07:14:54.184116	132.8	24.2	-85.7	7.5
2025-01-24 07:14:55.347806	133.0	24.1	-86.9	8.8
2025-01-24 07:14:56.505416	133.3	23.9	-86.8	5.3
2025-01-24 07:14:57.667275	133.5	23.8	-87.4	6.6
2025-01-24 07:14:58.822030	133.7	23.7	-87.3	4.9
2025-01-24 07:14:59.998019	134.0	23.6	-87.2	6.4
2025-01-24 07:15:01.150970	134.2	23.5	-87.7	7.5
2025-01-24 07:15:02.311819	134.5	23.4	-87.3	5.6
2025-01-24 07:15:03.477383	134.7	23.3	-86.8	4.3
2025-01-24 07:15:04.638718	135.0	23.2	-85.8	6.8
2025-01-24 07:15:05.801800	135.2	23.0	-86.2	6.4
2025-01-24 07:15:06.961412	135.4	22.9	-86.3	6.1
2025-01-24 07:15:08.125859	135.7	22.8	-86.3	7.0
2025-01-24 07:15:09.285512	135.9	22.7	-86.2	5.3
2025-01-24 07:15:10.454009	136.1	22.6	-86.2	5.9
2025-01-24 07:15:11.615996	136.3	22.5	-86.3	8.3
2025-01-24 07:15:12.782224	136.6	22.4	-87.2	6.9
2025-01-24 07:15:13.943585	136.8	22.3	-88.3	8.2
2025-01-24 07:15:15.108292	137.0	22.2	-87.2	7.3
2025-01-24 07:15:16.275218	137.2	22.0	-86.3	8.4
2025-01-24 07:15:17.437290	137.5	21.9	-86.8	4.4
2025-01-24 07:15:18.596642	137.7	21.8	-87.2	5.5
2025-01-24 07:15:19.760475	137.9	21.7	-87.3	8.5
2025-01-24 07:15:20.918780	138.1	21.6	-87.4	4.8
2025-01-24 07:15:22.083056	138.3	21.5	-87.8	5.8
2025-01-24 07:15:23.239643	138.5	21.4	-88.1	6.7
2025-01-24 07:15:24.403570	138.8	21.3	-88.1	5.9
2025-01-24 07:15:25.570543	139.0	21.2	-87.5	6.5
2025-01-24 07:15:26.730273	139.2	21.0	-86.4	7.2
2025-01-24 07:15:27.893853	139.4	20.9	-87.5	4.4
2025-01-24 07:15:29.049171	139.6	20.8	-88.1	4.9
2025-01-24 07:15:30.211602	139.8	20.7	-87.8	5.3
2025-01-24 07:15:31.582703	140.0	20.6	-88.1	7.6
2025-01-24 07:15:32.743953	140.2	20.5	-88.0	8.1
2025-01-24 07:15:33.911704	140.4	20.4	-87.9	5.7
2025-01-24 07:15:35.073271	140.6	20.3	-87.0	8.0
2025-01-24 07:15:36.235769	140.8	20.1	-87.0	4.5
2025-01-24 07:15:37.400750	141.0	20.0	-87.5	5.8
2025-01-24 07:15:38.561663	141.2	19.9	-87.4	5.0
2025-01-24 07:15:39.726318	141.4	19.8	-87.3	6.1
2025-01-24 07:15:40.889087	141.6	19.7	-87.5	3.7
2025-01-24 07:15:42.051765	141.8	19.6	-87.2	5.9
2025-01-24 07:15:43.210632	142.0	19.5	-87.2	6.6
2025-01-24 07:15:44.377183	142.2	19.4	-86.1	4.6
2025-01-24 07:15:45.538517	142.3	19.3	-86.5	0.3
2025-01-24 07:15:46.707318	142.5	19.2	-86.3	4.4
2025-01-24 07:15:47.866051	142.7	19.1	-86.4	3.3
2025-01-24 07:15:49.027070	142.9	19.0	-87.3	2.8
2025-01-24 07:15:50.193535	143.1	18.8	-87.6	5.8
2025-01-24 07:15:51.349221	143.3	18.7	-86.8	3.6
2025-01-24 07:15:52.513376	143.4	18.6	-86.1	4.2
2025-01-24 07:15:53.680054	143.6	18.5	-87.1	2.1
2025-01-24 07:15:54.842484	143.8	18.4	-87.6	4.9
2025-01-24 07:15:56.005617	144.0	18.3	-88.1	5.5
2025-01-24 07:15:57.168038	144.1	18.2	-88.1	4.7
2025-01-24 07:15:58.331862	144.3	18.1	-88.1	4.5
2025-01-24 07:15:59.495841	144.5	18.0	-88.1	4.4
2025-01-24 07:16:00.659426	144.7	17.9	-88.1	3.3
2025-01-24 07:16:01.818062	144.8	17.8	-88.0	4.6
2025-01-24 07:16:02.980601	145.0	17.7	-88.1	3.3
2025-01-24 07:16:04.148930	145.2	17.6	-87.8	2.9
2025-01-24 07:16:05.307559	145.3	17.5	-87.9	4.7
2025-01-24 07:16:06.472560	145.5	17.4	-87.8	4.2
2025-01-24 07:16:07.639123	145.7	17.3	-87.9	2.9
2025-01-24 07:16:08.797923	145.8	17.1	-87.1	4.6
2025-01-24 07:16:09.965503	146.0	17.0	-87.2	3.0
2025-01-24 07:16:11.132896	146.1	16.9	-87.0	2.8
2025-01-24 07:16:12.289711	146.3	16.8	-87.5	3.0
2025-01-24 07:16:13.456108	146.5	16.7	-86.2	2.4
2025-01-24 07:16:14.619544	146.6	16.6	-86.1	3.6
2025-01-24 07:16:15.786151	146.8	16.5	-85.9	3.1
2025-01-24 07:16:16.949504	146.9	16.4	-86.3	4.4
2025-01-24 07:16:18.117293	147.1	16.3	-86.8	3.7
2025-01-24 07:16:19.274397	147.2	16.2	-87.6	3.1
2025-01-24 07:16:20.439347	147.4	16.1	-87.6	1.7
2025-01-24 07:16:21.609888	147.5	16.0	-88.3	0.8
2025-01-24 07:16:22.767384	147.7	15.9	-87.7	4.1
2025-01-24 07:16:23.930155	147.8	15.8	-86.9	6.4
2025-01-24 07:16:25.091463	148.0	15.7	-87.3	8.6
2025-01-24 07:16:26.257310	148.1	15.6	-87.7	7.4
2025-01-24 07:16:27.415736	148.3	15.5	-87.7	3.0
2025-01-24 07:16:28.579032	148.4	15.4	-87.9	4.0
2025-01-24 07:16:29.733939	148.6	15.3	-87.8	4.5
2025-01-24 07:16:30.903839	148.7	15.2	-87.2	4.4
2025-01-24 07:16:32.067148	148.9	15.1	-86.8	4.0
2025-01-24 07:16:33.236285	149.0	15.0	-86.8	3.8
2025-01-24 07:16:34.413928	149.2	14.9	-86.8	5.0
2025-01-24 07:16:35.574881	149.3	14.8	-87.2	3.2
2025-01-24 07:16:36.742067	149.4	14.7	-86.8	3.4
2025-01-24 07:16:37.906049	149.6	14.6	-87.6	3.9
#Closed at: 2025-01-24 07:08:51.312147