passes_logs/2025/01/24/LEX_Murmansk/LEX_Murmansk__20250124_205454_NOAA_18_rec.log

#Pass ID: 20250124_205454_NOAA 18
#Satellite: NOAA 18
#Configuration: NOAA 18
#Start time: 2025-01-24 20:54:49.258010

#LorettStation: 1.0.0 05.05.2024
#Station: LEX_Murmansk
#Location: 33.156738 lon 68.926811 lat
#TLE: 1 28654U 05018A   25024.15265828  .00000479  00000+0  27770-3 0  9994
#TLE: 2 28654  98.8553 105.1156 0014763 153.8328 206.3593 14.13495781 14472

#Time	Az	El	Level	SNR
2025-01-24 20:55:01.511835	220.6	16.0	-91.8	7.2
2025-01-24 20:55:02.680694	220.8	16.1	-92.1	9.0
2025-01-24 20:55:03.841150	221.0	16.2	-91.8	8.6
2025-01-24 20:55:05.006242	221.1	16.3	-92.0	9.1
2025-01-24 20:55:06.166509	221.3	16.4	-91.9	8.5
2025-01-24 20:55:07.326717	221.5	16.5	-91.7	9.6
2025-01-24 20:55:08.487217	221.7	16.6	-91.8	10.6
2025-01-24 20:55:09.652151	221.8	16.7	-91.6	9.3
2025-01-24 20:55:10.814148	222.0	16.8	-92.1	9.9
2025-01-24 20:55:11.971339	222.2	16.8	-91.5	9.7
2025-01-24 20:55:13.093832	222.4	16.9	-91.9	9.6
2025-01-24 20:55:14.242968	222.5	17.0	-92.1	7.3
2025-01-24 20:55:15.388603	222.7	17.1	-92.0	9.2
2025-01-24 20:55:16.539827	222.9	17.2	-91.5	11.7
2025-01-24 20:55:17.699753	223.1	17.3	-92.6	7.3
2025-01-24 20:55:18.850627	223.3	17.4	-92.1	9.3
2025-01-24 20:55:20.007612	223.4	17.5	-91.7	12.1
2025-01-24 20:55:21.168800	223.6	17.6	-91.8	11.8
2025-01-24 20:55:22.323750	223.8	17.7	-91.9	11.8
2025-01-24 20:55:23.483068	224.0	17.8	-91.9	12.1
2025-01-24 20:55:24.658048	224.2	17.9	-91.9	12.4
2025-01-24 20:55:25.815339	224.4	18.0	-91.9	11.5
2025-01-24 20:55:26.988193	224.6	18.1	-92.3	12.8
2025-01-24 20:55:28.150587	224.8	18.2	-92.0	11.0
2025-01-24 20:55:29.312217	224.9	18.3	-91.8	12.0
2025-01-24 20:55:30.472273	225.1	18.4	-92.2	12.5
2025-01-24 20:55:31.619551	225.3	18.5	-92.1	14.2
2025-01-24 20:55:32.744540	225.5	18.6	-92.2	11.3
2025-01-24 20:55:33.895446	225.7	18.7	-92.1	13.1
2025-01-24 20:55:35.039258	225.9	18.8	-92.2	12.5
2025-01-24 20:55:36.185123	226.1	18.9	-92.3	6.8
2025-01-24 20:55:37.336582	226.3	19.0	-92.1	6.6
2025-01-24 20:55:38.498418	226.5	19.1	-92.2	13.2
2025-01-24 20:55:39.652973	226.7	19.2	-92.5	8.0
2025-01-24 20:55:40.798415	226.9	19.2	-92.4	10.4
2025-01-24 20:55:41.926878	227.1	19.3	-92.4	12.6
2025-01-24 20:55:43.082034	227.3	19.4	-92.8	12.8
2025-01-24 20:55:44.218885	227.5	19.5	-92.9	12.3
2025-01-24 20:55:45.380242	227.7	19.6	-92.3	12.6
2025-01-24 20:55:46.533727	228.0	19.7	-92.3	13.7
2025-01-24 20:55:47.659118	228.2	19.8	-92.7	9.3
2025-01-24 20:55:48.804085	228.4	19.9	-92.2	10.3
2025-01-24 20:55:49.944473	228.6	20.0	-92.8	13.5
2025-01-24 20:55:51.068837	228.8	20.1	-92.6	13.8
2025-01-24 20:55:52.215202	229.0	20.2	-92.8	13.3
2025-01-24 20:55:53.361410	229.2	20.3	-92.4	12.2
2025-01-24 20:55:54.514616	229.4	20.4	-92.3	11.8
2025-01-24 20:55:55.666807	229.7	20.5	-92.8	9.1
2025-01-24 20:55:56.810810	229.9	20.6	-93.0	6.3
2025-01-24 20:55:57.949462	230.1	20.7	-92.8	13.6
2025-01-24 20:55:59.096753	230.3	20.8	-92.8	12.5
2025-01-24 20:56:00.235636	230.5	20.9	-92.5	7.1
2025-01-24 20:56:01.393778	230.8	21.0	-92.0	9.9
2025-01-24 20:56:02.542788	231.0	21.1	-92.5	11.8
2025-01-24 20:56:03.704958	231.2	21.2	-92.5	12.6
2025-01-24 20:56:04.873009	231.5	21.3	-92.5	11.3
2025-01-24 20:56:06.026429	231.7	21.4	-92.8	14.3
2025-01-24 20:56:07.178460	231.9	21.5	-92.4	12.3
2025-01-24 20:56:08.339448	232.2	21.6	-91.7	10.6
2025-01-24 20:56:09.466806	232.4	21.6	-92.1	14.5
2025-01-24 20:56:10.606930	232.6	21.7	-92.2	11.3
2025-01-24 20:56:11.758528	232.9	21.8	-92.7	12.7
2025-01-24 20:56:12.902164	233.1	21.9	-92.9	15.1
2025-01-24 20:56:14.075591	233.4	22.0	-92.4	13.1
2025-01-24 20:56:15.226797	233.6	22.1	-92.0	13.6
2025-01-24 20:56:16.389463	233.8	22.2	-92.3	11.8
2025-01-24 20:56:17.549857	234.1	22.3	-91.9	14.5
2025-01-24 20:56:18.712947	234.3	22.4	-92.3	8.5
2025-01-24 20:56:19.865544	234.6	22.5	-92.1	10.1
2025-01-24 20:56:21.009557	234.8	22.6	-92.5	13.7
2025-01-24 20:56:22.132742	235.1	22.7	-93.1	8.4
2025-01-24 20:56:23.279454	235.3	22.8	-92.3	6.4
2025-01-24 20:56:24.438768	235.6	22.9	-92.3	9.9
2025-01-24 20:56:25.591122	235.9	23.0	-92.5	8.9
2025-01-24 20:56:26.739253	236.1	23.1	-92.1	8.3
2025-01-24 20:56:27.896107	236.4	23.2	-92.4	8.7
2025-01-24 20:56:29.056732	236.6	23.2	-92.6	7.4
2025-01-24 20:56:30.219306	236.9	23.3	-92.5	9.3
2025-01-24 20:56:31.379606	237.2	23.4	-92.0	9.5
2025-01-24 20:56:32.547627	237.4	23.5	-92.3	5.7
2025-01-24 20:56:33.711943	237.7	23.6	-92.1	6.1
2025-01-24 20:56:34.878620	238.0	23.7	-92.7	7.6
2025-01-24 20:56:36.042659	238.3	23.8	-92.8	5.8
2025-01-24 20:56:37.205163	238.5	23.9	-92.7	5.0
2025-01-24 20:56:38.355759	238.8	24.0	-92.6	4.9
2025-01-24 20:56:39.481784	239.1	24.1	-92.7	6.7
2025-01-24 20:56:40.634454	239.3	24.2	-92.4	7.4
2025-01-24 20:56:41.781531	239.6	24.2	-92.3	4.1
2025-01-24 20:56:42.936580	239.9	24.3	-92.5	3.9
2025-01-24 20:56:44.093233	240.2	24.4	-92.6	4.8
2025-01-24 20:56:45.256530	240.5	24.5	-92.6	3.4
2025-01-24 20:56:46.419341	240.8	24.6	-92.6	10.3
2025-01-24 20:56:47.573747	241.0	24.7	-92.5	8.4
2025-01-24 20:56:48.731900	241.3	24.8	-92.5	5.3
2025-01-24 20:56:49.892517	241.6	24.8	-92.7	10.2
2025-01-24 20:56:51.045931	241.9	24.9	-92.9	7.8
2025-01-24 20:56:52.204105	242.2	25.0	-92.7	10.5
2025-01-24 20:56:53.349274	242.5	25.1	-92.7	11.6
2025-01-24 20:56:54.482132	242.8	25.2	-92.6	14.2
2025-01-24 20:56:55.633582	243.1	25.3	-92.8	15.4
2025-01-24 20:56:56.784521	243.4	25.3	-92.7	14.4
2025-01-24 20:56:57.927240	243.7	25.4	-92.8	13.9
2025-01-24 20:56:59.077901	244.0	25.5	-92.9	15.0
2025-01-24 20:57:00.225851	244.3	25.6	-92.5	10.1
2025-01-24 20:57:01.387231	244.6	25.7	-92.3	12.6
2025-01-24 20:57:02.548047	244.9	25.7	-92.2	12.7
2025-01-24 20:57:03.711050	245.2	25.8	-92.6	11.8
2025-01-24 20:57:04.874355	245.5	25.9	-92.4	13.8
2025-01-24 20:57:06.036481	245.8	26.0	-92.8	12.1
2025-01-24 20:57:07.197459	246.1	26.1	-92.3	15.2
2025-01-24 20:57:08.353115	246.5	26.1	-91.8	14.8
2025-01-24 20:57:09.496580	246.8	26.2	-92.1	15.7
2025-01-24 20:57:10.618658	247.1	26.3	-92.4	13.1
2025-01-24 20:57:11.752924	247.4	26.4	-92.8	13.7
2025-01-24 20:57:12.903843	247.7	26.4	-92.9	16.3
2025-01-24 20:57:14.053706	248.0	26.5	-92.3	16.5
2025-01-24 20:57:15.215804	248.3	26.6	-92.3	8.3
2025-01-24 20:57:16.356422	248.7	26.6	-92.0	9.9
2025-01-24 20:57:17.481106	249.0	26.7	-91.8	18.0
2025-01-24 20:57:18.635025	249.3	26.8	-92.0	10.9
2025-01-24 20:57:19.784461	249.6	26.9	-92.4	11.4
2025-01-24 20:57:20.945150	250.0	26.9	-92.4	19.0
2025-01-24 20:57:22.094385	250.3	27.0	-92.3	18.5
2025-01-24 20:57:23.253077	250.6	27.1	-92.5	16.5
2025-01-24 20:57:24.412342	251.0	27.1	-92.1	17.9
2025-01-24 20:57:25.579125	251.3	27.2	-92.3	19.0
2025-01-24 20:57:26.742821	251.6	27.3	-92.5	18.3
2025-01-24 20:57:27.892805	252.0	27.3	-92.7	17.9
2025-01-24 20:57:29.043281	252.3	27.4	-92.2	20.3
2025-01-24 20:57:30.164037	252.6	27.4	-92.5	16.7
2025-01-24 20:57:31.297849	253.0	27.5	-92.6	13.3
2025-01-24 20:57:32.449149	253.3	27.6	-92.1	16.7
2025-01-24 20:57:33.589956	253.6	27.6	-92.1	19.3
2025-01-24 20:57:34.719487	254.0	27.7	-92.5	12.8
2025-01-24 20:57:35.873328	254.3	27.7	-92.7	16.1
2025-01-24 20:57:37.023956	254.7	27.8	-92.7	17.3
2025-01-24 20:57:38.184725	255.0	27.8	-92.4	13.1
2025-01-24 20:57:39.347506	255.4	27.9	-92.3	15.2
2025-01-24 20:57:40.498274	255.7	27.9	-92.4	18.8
2025-01-24 20:57:41.658344	256.1	28.0	-92.6	16.3
2025-01-24 20:57:42.819892	256.4	28.0	-92.6	17.4
2025-01-24 20:57:43.980268	256.8	28.1	-92.8	16.6
2025-01-24 20:57:45.104944	257.1	28.1	-92.5	14.8
2025-01-24 20:57:46.254422	257.5	28.2	-92.5	12.9
2025-01-24 20:57:47.401395	257.8	28.2	-92.5	12.5
2025-01-24 20:57:48.552954	258.2	28.3	-92.0	15.9
2025-01-24 20:57:49.706686	258.6	28.3	-93.0	10.1
2025-01-24 20:57:50.870380	258.9	28.4	-92.8	10.8
2025-01-24 20:57:52.032510	259.3	28.4	-93.1	14.1
2025-01-24 20:57:53.188012	259.6	28.4	-92.7	8.1
2025-01-24 20:57:54.350397	260.0	28.5	-92.2	8.7
2025-01-24 20:57:55.512918	260.4	28.5	-92.2	15.1
2025-01-24 20:57:56.673565	260.7	28.6	-92.3	7.3
2025-01-24 20:57:57.840972	261.1	28.6	-92.5	8.1
2025-01-24 20:57:58.998332	261.5	28.6	-92.6	12.7
2025-01-24 20:58:00.155250	261.8	28.7	-92.3	10.2
2025-01-24 20:58:01.311662	262.2	28.7	-92.3	8.5
2025-01-24 20:58:02.471568	262.6	28.7	-92.3	9.5
2025-01-24 20:58:03.633232	262.9	28.7	-91.7	9.2
2025-01-24 20:58:04.796320	263.3	28.8	-92.3	8.0
2025-01-24 20:58:05.960732	263.7	28.8	-92.5	8.3
2025-01-24 20:58:07.121450	264.1	28.8	-92.6	10.5
2025-01-24 20:58:08.288343	264.4	28.9	-92.0	9.8
2025-01-24 20:58:09.446913	264.8	28.9	-92.2	6.4
2025-01-24 20:58:10.606502	265.2	28.9	-92.2	5.6
2025-01-24 20:58:11.768415	265.5	28.9	-92.5	9.8
2025-01-24 20:58:12.934897	265.9	28.9	-92.5	10.0
2025-01-24 20:58:14.098652	266.3	29.0	-92.2	10.2
2025-01-24 20:58:15.254258	266.7	29.0	-92.2	7.5
2025-01-24 20:58:16.412298	267.0	29.0	-92.4	14.2
2025-01-24 20:58:17.568542	267.4	29.0	-92.1	16.7
2025-01-24 20:58:18.705371	267.8	29.0	-91.9	6.1
2025-01-24 20:58:19.825722	268.2	29.0	-92.5	7.3
2025-01-24 20:58:20.946948	268.5	29.0	-92.7	7.5
2025-01-24 20:58:22.068696	268.9	29.0	-92.5	21.5
2025-01-24 20:58:23.188512	269.2	29.1	-92.9	6.6
2025-01-24 20:58:24.310299	269.6	29.1	-92.3	8.8
2025-01-24 20:58:25.431124	270.0	29.1	-92.3	15.9
2025-01-24 20:58:26.551538	270.3	29.1	-92.5	7.1
2025-01-24 20:58:27.673782	270.7	29.1	-92.6	4.9
2025-01-24 20:58:28.795952	271.1	29.1	-92.7	5.0
2025-01-24 20:58:29.922655	271.4	29.1	-92.7	11.7
2025-01-24 20:58:31.068010	271.8	29.1	-92.4	9.8
2025-01-24 20:58:32.206447	272.2	29.1	-92.3	19.7
2025-01-24 20:58:33.357253	272.6	29.1	-92.2	7.8
2025-01-24 20:58:34.512418	272.9	29.1	-92.4	11.4
2025-01-24 20:58:35.667293	273.3	29.1	-92.6	10.8
2025-01-24 20:58:36.831206	273.7	29.0	-92.7	6.2
2025-01-24 20:58:37.991721	274.1	29.0	-92.9	4.9
2025-01-24 20:58:39.157116	274.4	29.0	-92.8	4.7
2025-01-24 20:58:40.319390	274.8	29.0	-92.4	14.0
2025-01-24 20:58:41.484843	275.2	29.0	-92.5	7.0
2025-01-24 20:58:42.644001	275.6	29.0	-92.6	5.9
2025-01-24 20:58:43.802348	275.9	29.0	-93.0	5.8
2025-01-24 20:58:44.946795	276.3	29.0	-93.3	6.8
2025-01-24 20:58:46.086885	276.7	28.9	-93.1	9.2
2025-01-24 20:58:47.237316	277.0	28.9	-92.6	7.2
2025-01-24 20:58:48.390499	277.4	28.9	-92.8	9.3
2025-01-24 20:58:49.520236	277.8	28.9	-92.6	8.3
2025-01-24 20:58:50.669841	278.2	28.8	-92.7	6.1
2025-01-24 20:58:51.825057	278.5	28.8	-93.2	9.3
2025-01-24 20:58:52.971713	278.9	28.8	-93.0	8.0
2025-01-24 20:58:54.129782	279.3	28.8	-93.5	7.8
2025-01-24 20:58:55.285116	279.6	28.7	-93.0	7.5
2025-01-24 20:58:56.437635	280.0	28.7	-92.6	10.1
2025-01-24 20:58:57.594398	280.4	28.7	-92.3	6.6
2025-01-24 20:58:58.719899	280.7	28.7	-92.1	10.2
2025-01-24 20:58:59.872849	281.1	28.6	-92.5	11.6
2025-01-24 20:59:01.009589	281.4	28.6	-92.4	8.1
2025-01-24 20:59:02.163993	281.8	28.5	-92.6	6.2
2025-01-24 20:59:03.320704	282.2	28.5	-92.9	6.9
2025-01-24 20:59:04.468416	282.5	28.5	-92.8	10.1
2025-01-24 20:59:05.600178	282.9	28.4	-92.2	11.6
2025-01-24 20:59:06.740283	283.2	28.4	-92.8	5.9
2025-01-24 20:59:07.890542	283.6	28.4	-92.7	13.5
2025-01-24 20:59:09.042923	284.0	28.3	-92.7	17.3
2025-01-24 20:59:10.193066	284.3	28.3	-93.0	8.9
2025-01-24 20:59:11.344663	284.7	28.2	-93.3	5.4
2025-01-24 20:59:12.486988	285.0	28.2	-92.6	17.8
2025-01-24 20:59:13.624835	285.4	28.1	-92.1	7.7
2025-01-24 20:59:14.780642	285.7	28.1	-92.4	6.3
2025-01-24 20:59:15.907638	286.1	28.0	-92.1	9.3
2025-01-24 20:59:17.065346	286.4	28.0	-92.5	8.0
2025-01-24 20:59:18.216543	286.8	27.9	-92.3	11.1
2025-01-24 20:59:19.376465	287.1	27.9	-92.0	9.3
2025-01-24 20:59:20.525454	287.5	27.8	-92.2	8.6
2025-01-24 20:59:21.671535	287.8	27.8	-91.9	7.3
2025-01-24 20:59:22.830744	288.2	27.7	-92.1	3.8
2025-01-24 20:59:23.992367	288.5	27.7	-92.3	10.9
2025-01-24 20:59:25.151355	288.9	27.6	-92.6	7.1
2025-01-24 20:59:26.313720	289.2	27.5	-92.7	5.5
2025-01-24 20:59:27.483274	289.6	27.5	-92.5	8.9
2025-01-24 20:59:28.649924	289.9	27.4	-92.3	7.6
2025-01-24 20:59:29.807277	290.2	27.4	-92.4	6.1
2025-01-24 20:59:30.970802	290.6	27.3	-92.5	11.3
2025-01-24 20:59:32.128645	290.9	27.2	-92.3	8.1
2025-01-24 20:59:33.294717	291.3	27.2	-92.6	6.9
2025-01-24 20:59:34.455373	291.6	27.1	-92.3	15.8
2025-01-24 20:59:35.623540	291.9	27.0	-92.1	6.5
2025-01-24 20:59:36.783178	292.3	27.0	-92.3	11.0
2025-01-24 20:59:37.946174	292.6	26.9	-92.5	13.7
2025-01-24 20:59:39.107160	292.9	26.8	-92.6	10.1
2025-01-24 20:59:40.259563	293.3	26.8	-92.2	4.9
2025-01-24 20:59:41.424017	293.6	26.7	-91.9	9.5
2025-01-24 20:59:42.583818	293.9	26.6	-91.9	9.5
2025-01-24 20:59:43.748647	294.2	26.6	-92.1	5.1
2025-01-24 20:59:44.907108	294.6	26.5	-92.2	14.8
2025-01-24 20:59:46.065586	294.9	26.4	-92.2	8.1
2025-01-24 20:59:47.208655	295.2	26.3	-92.5	5.1
2025-01-24 20:59:48.337375	295.5	26.3	-92.2	5.8
2025-01-24 20:59:49.493329	295.8	26.2	-91.6	14.0
2025-01-24 20:59:50.642700	296.1	26.1	-92.1	8.9
2025-01-24 20:59:51.797369	296.4	26.0	-93.0	4.6
2025-01-24 20:59:52.953430	296.8	26.0	-92.3	8.7
2025-01-24 20:59:54.107047	297.1	25.9	-92.9	9.9
2025-01-24 20:59:55.270359	297.4	25.8	-92.9	11.7
2025-01-24 20:59:56.429125	297.7	25.7	-92.2	16.4
2025-01-24 20:59:57.580477	298.0	25.7	-92.3	11.9
2025-01-24 20:59:58.738614	298.3	25.6	-92.2	11.0
2025-01-24 20:59:59.903915	298.6	25.5	-92.5	14.6
2025-01-24 21:00:01.051403	298.9	25.4	-92.1	7.4
2025-01-24 21:00:02.196566	299.2	25.3	-92.2	10.5
2025-01-24 21:00:03.323407	299.5	25.2	-92.0	9.5
2025-01-24 21:00:04.471093	299.8	25.2	-91.8	15.2
2025-01-24 21:00:05.631131	300.1	25.1	-91.9	14.3
2025-01-24 21:00:06.780936	300.4	25.0	-92.0	9.8
2025-01-24 21:00:07.945249	300.7	24.9	-92.4	14.7
2025-01-24 21:00:09.077695	300.9	24.8	-92.4	15.0
2025-01-24 21:00:10.205673	301.2	24.7	-92.0	6.3
2025-01-24 21:00:11.353815	301.5	24.7	-91.5	9.7
2025-01-24 21:00:12.509163	301.8	24.6	-92.1	10.8
2025-01-24 21:00:13.674628	302.1	24.5	-91.9	15.8
2025-01-24 21:00:14.828186	302.4	24.4	-92.3	14.0
2025-01-24 21:00:15.990382	302.7	24.3	-92.3	15.5
2025-01-24 21:00:17.143676	302.9	24.2	-92.4	4.0
2025-01-24 21:00:18.314772	303.2	24.1	-92.0	15.3
2025-01-24 21:00:19.474476	303.5	24.0	-92.1	12.1
2025-01-24 21:00:20.637781	303.8	24.0	-92.0	14.4
2025-01-24 21:00:21.775527	304.0	23.9	-92.8	12.1
2025-01-24 21:00:22.923801	304.3	23.8	-92.7	11.5
2025-01-24 21:00:24.082344	304.6	23.7	-92.9	12.1
2025-01-24 21:00:25.220642	304.9	23.6	-92.6	8.1
2025-01-24 21:00:26.373725	305.1	23.5	-92.6	14.7
2025-01-24 21:00:27.531644	305.4	23.4	-92.4	10.3
2025-01-24 21:00:28.697476	305.7	23.3	-92.5	7.3
2025-01-24 21:00:29.865374	305.9	23.2	-91.7	2.7
2025-01-24 21:00:31.027522	306.2	23.1	-91.9	11.4
2025-01-24 21:00:32.187803	306.4	23.0	-92.7	8.9
2025-01-24 21:00:33.333788	306.7	23.0	-92.5	6.9
2025-01-24 21:00:34.459356	307.0	22.9	-92.3	9.1
2025-01-24 21:00:35.618774	307.2	22.8	-91.8	6.7
2025-01-24 21:00:36.763549	307.5	22.7	-92.1	5.4
2025-01-24 21:00:37.926459	307.7	22.6	-92.1	10.1
2025-01-24 21:00:39.089832	308.0	22.5	-92.8	9.1
2025-01-24 21:00:40.237060	308.2	22.4	-93.2	6.1
2025-01-24 21:00:41.370632	308.5	22.3	-92.7	8.7
2025-01-24 21:00:42.517513	308.7	22.2	-92.2	6.2
2025-01-24 21:00:43.672811	309.0	22.1	-92.6	5.6
2025-01-24 21:00:44.814942	309.2	22.0	-92.7	8.6
2025-01-24 21:00:45.949801	309.4	21.9	-92.8	14.4
2025-01-24 21:00:47.101078	309.7	21.8	-92.7	8.1
2025-01-24 21:00:48.247144	309.9	21.7	-93.0	5.0
2025-01-24 21:00:49.399172	310.1	21.6	-92.6	10.2
2025-01-24 21:00:50.539537	310.4	21.5	-92.4	4.8
2025-01-24 21:00:51.698479	310.6	21.4	-92.6	10.3
2025-01-24 21:00:52.853379	310.9	21.4	-92.8	7.0
2025-01-24 21:00:54.020643	311.1	21.3	-92.7	5.9
2025-01-24 21:00:55.182153	311.3	21.2	-92.3	6.1
2025-01-24 21:00:56.346824	311.6	21.1	-92.1	6.2
2025-01-24 21:00:57.509602	311.8	21.0	-92.1	5.5
2025-01-24 21:00:58.667983	312.0	20.9	-92.4	3.6
2025-01-24 21:00:59.828591	312.2	20.8	-92.6	3.0
2025-01-24 21:01:00.970198	312.5	20.7	-92.7	8.8
2025-01-24 21:01:02.096790	312.7	20.6	-90.8	5.1
2025-01-24 21:01:03.259500	312.9	20.5	-92.6	4.3
2025-01-24 21:01:04.403721	313.1	20.4	-92.0	4.0
2025-01-24 21:01:05.559318	313.3	20.3	-92.3	5.4
2025-01-24 21:01:06.718022	313.6	20.2	-92.6	5.1
2025-01-24 21:01:07.847067	313.8	20.1	-92.5	3.0
2025-01-24 21:01:08.990983	314.0	20.0	-93.0	4.5
2025-01-24 21:01:10.136496	314.2	19.9	-92.4	6.4
2025-01-24 21:01:11.285077	314.4	19.8	-92.5	5.6
2025-01-24 21:01:12.445628	314.6	19.7	-92.5	4.7
2025-01-24 21:01:13.605224	314.8	19.6	-92.4	4.6
2025-01-24 21:01:14.769328	315.0	19.5	-92.6	4.4
2025-01-24 21:01:15.929108	315.2	19.4	-92.7	6.5
2025-01-24 21:01:17.093716	315.5	19.3	-92.6	6.0
2025-01-24 21:01:18.257495	315.7	19.2	-92.1	6.5
2025-01-24 21:01:19.418756	315.9	19.1	-92.1	1.8
2025-01-24 21:01:20.576787	316.1	19.0	-91.9	5.0
2025-01-24 21:01:21.740360	316.3	18.9	-92.6	4.3
2025-01-24 21:01:22.904912	316.5	18.8	-92.9	5.4
2025-01-24 21:01:24.065716	316.7	18.7	-92.8	6.0
2025-01-24 21:01:25.226706	316.9	18.6	-92.8	5.6
2025-01-24 21:01:26.389833	317.1	18.5	-92.2	3.5
2025-01-24 21:01:27.552287	317.3	18.4	-92.2	5.8
2025-01-24 21:01:28.716061	317.5	18.3	-92.3	5.5
2025-01-24 21:01:29.875729	317.7	18.3	-92.5	5.6
2025-01-24 21:01:31.037916	317.8	18.2	-92.3	6.1
2025-01-24 21:01:32.205581	318.0	18.1	-92.3	7.8
2025-01-24 21:01:33.368563	318.2	18.0	-92.2	4.7
2025-01-24 21:01:34.532256	318.4	17.9	-92.2	7.3
2025-01-24 21:01:35.694855	318.6	17.8	-92.5	8.0
2025-01-24 21:01:36.852112	318.8	17.7	-92.4	7.2
2025-01-24 21:01:37.998541	319.0	17.6	-92.5	3.5
2025-01-24 21:01:39.122325	319.2	17.5	-92.3	5.4
2025-01-24 21:01:40.274652	319.3	17.4	-92.3	7.2
2025-01-24 21:01:41.415810	319.5	17.3	-92.0	8.7
2025-01-24 21:01:42.579642	319.7	17.2	-92.0	5.3
2025-01-24 21:01:43.742608	319.9	17.1	-92.5	7.4
2025-01-24 21:01:44.898517	320.1	17.0	-92.5	11.3
2025-01-24 21:01:46.053971	320.2	16.9	-92.8	9.7
2025-01-24 21:01:47.218341	320.4	16.8	-92.9	7.5
2025-01-24 21:01:48.373073	320.6	16.7	-92.2	4.8
2025-01-24 21:01:49.548826	320.8	16.6	-92.1	7.3
2025-01-24 21:01:50.707180	320.9	16.5	-92.3	5.5
2025-01-24 21:01:51.864786	321.1	16.4	-92.6	7.2
2025-01-24 21:01:53.027599	321.3	16.3	-92.7	8.3
2025-01-24 21:01:54.192106	321.5	16.2	-92.6	6.5
2025-01-24 21:01:55.360067	321.6	16.1	-92.2	8.9
2025-01-24 21:01:56.515571	321.8	16.1	-92.2	9.3
2025-01-24 21:01:57.678833	322.0	16.0	-92.4	6.9
2025-01-24 21:01:58.831342	322.1	15.9	-92.4	5.0
2025-01-24 21:01:59.987528	322.3	15.8	-92.1	4.8
2025-01-24 21:02:01.131762	322.5	15.7	-92.9	4.6
2025-01-24 21:02:02.254143	322.6	15.6	-92.8	7.3
2025-01-24 21:02:03.408156	322.8	15.5	-92.3	5.1
2025-01-24 21:02:04.533890	322.9	15.4	-92.2	8.0
2025-01-24 21:02:05.672755	323.1	15.3	-92.2	7.9
2025-01-24 21:02:06.825638	323.2	15.2	-92.4	7.1
2025-01-24 21:02:07.975802	323.4	15.1	-92.3	14.0
2025-01-24 21:02:09.129404	323.6	15.0	-92.6	4.8
2025-01-24 21:02:10.260000	323.7	14.9	-92.8	4.7
2025-01-24 21:02:11.392469	323.9	14.9	-91.8	8.6
2025-01-24 21:02:12.528193	324.0	14.8	-92.0	7.2
2025-01-24 21:02:13.666533	324.2	14.7	-92.0	4.0
2025-01-24 21:02:14.803260	324.3	14.6	-92.3	5.0
#Closed at: 2025-01-24 20:54:54.330427