passes_logs/2025/01/24/LEX_Murmansk/LEX_Murmansk__20250124_135028_NOAA_19_rec.log

#Pass ID: 20250124_135028_NOAA 19
#Satellite: NOAA 19
#Configuration: NOAA 19
#Start time: 2025-01-24 13:50:23.207720

#LorettStation: 1.0.0 05.05.2024
#Station: LEX_Murmansk
#Location: 33.156738 lon 68.926811 lat
#TLE: 1 33591U 09005A   25024.13697735  .00000399  00000+0  23694-3 0  9996
#TLE: 2 33591  99.0181  87.9693 0014137  32.7659 327.4387 14.13267470822833

#Time	Az	El	Level	SNR
2025-01-24 13:50:37.452054	48.8	16.1	-90.7	3.2
2025-01-24 13:50:38.613715	48.6	16.1	-90.6	3.4
2025-01-24 13:50:39.779357	48.4	16.2	-91.1	2.4
2025-01-24 13:50:40.941971	48.2	16.3	-90.9	5.4
2025-01-24 13:50:42.104199	48.1	16.4	-90.2	5.2
2025-01-24 13:50:43.259493	47.9	16.5	-89.7	1.7
2025-01-24 13:50:44.427832	47.7	16.6	-89.9	1.4
2025-01-24 13:50:45.588456	47.5	16.7	-90.4	4.5
2025-01-24 13:50:46.751770	47.3	16.7	-90.5	2.7
2025-01-24 13:50:47.906698	47.1	16.8	-90.6	3.2
2025-01-24 13:50:49.063820	46.9	16.9	-90.6	2.6
2025-01-24 13:50:50.222185	46.7	17.0	-90.7	2.3
2025-01-24 13:50:51.397964	46.5	17.1	-90.6	3.6
2025-01-24 13:50:52.560740	46.3	17.2	-90.6	2.3
2025-01-24 13:50:53.725146	46.1	17.3	-90.5	3.5
2025-01-24 13:50:54.886487	45.9	17.3	-90.6	3.0
2025-01-24 13:50:56.058423	45.7	17.4	-90.5	1.8
2025-01-24 13:50:57.214976	45.5	17.5	-90.2	3.6
2025-01-24 13:50:58.373577	45.3	17.6	-90.6	3.0
2025-01-24 13:50:59.537033	45.1	17.7	-90.7	3.9
2025-01-24 13:51:00.699609	44.9	17.8	-90.7	6.2
2025-01-24 13:51:01.864536	44.6	17.8	-90.8	5.1
2025-01-24 13:51:03.024770	44.4	17.9	-90.5	2.9
2025-01-24 13:51:04.180579	44.2	18.0	-90.3	0.8
2025-01-24 13:51:05.341957	44.0	18.1	-90.7	1.6
2025-01-24 13:51:06.504819	43.8	18.2	-90.9	2.4
2025-01-24 13:51:07.669641	43.6	18.3	-90.8	1.5
2025-01-24 13:51:08.827650	43.4	18.4	-90.8	2.5
2025-01-24 13:51:09.987815	43.1	18.4	-90.8	4.4
2025-01-24 13:51:11.148251	42.9	18.5	-90.6	3.1
2025-01-24 13:51:12.306618	42.7	18.6	-90.5	5.1
2025-01-24 13:51:13.472278	42.5	18.7	-91.0	4.4
2025-01-24 13:51:14.635344	42.3	18.8	-90.9	3.8
2025-01-24 13:51:15.795083	42.0	18.9	-91.2	2.8
2025-01-24 13:51:16.956312	41.8	18.9	-91.4	4.5
2025-01-24 13:51:18.118421	41.6	19.0	-91.2	1.6
2025-01-24 13:51:19.283771	41.4	19.1	-90.9	1.5
2025-01-24 13:51:20.447471	41.1	19.2	-91.0	4.2
2025-01-24 13:51:21.605868	40.9	19.3	-91.2	7.1
2025-01-24 13:51:22.753354	40.7	19.3	-91.2	6.2
2025-01-24 13:51:23.919256	40.4	19.4	-91.2	7.4
2025-01-24 13:51:25.076402	40.2	19.5	-90.5	8.3
2025-01-24 13:51:26.239720	40.0	19.6	-91.0	6.9
2025-01-24 13:51:27.397845	39.7	19.7	-90.1	7.4
2025-01-24 13:51:28.554847	39.5	19.8	-90.4	9.2
2025-01-24 13:51:29.720107	39.3	19.8	-90.3	5.4
2025-01-24 13:51:30.884037	39.0	19.9	-90.5	5.1
2025-01-24 13:51:32.049843	38.8	20.0	-89.9	5.4
2025-01-24 13:51:33.213402	38.5	20.1	-90.0	4.9
2025-01-24 13:51:34.374072	38.3	20.1	-90.6	6.4
2025-01-24 13:51:35.535529	38.0	20.2	-90.6	9.2
2025-01-24 13:51:36.691176	37.8	20.3	-90.7	7.6
2025-01-24 13:51:37.857668	37.5	20.4	-90.6	8.9
2025-01-24 13:51:39.028464	37.3	20.5	-90.7	6.3
2025-01-24 13:51:40.194473	37.0	20.5	-90.7	3.0
2025-01-24 13:51:41.357638	36.8	20.6	-90.6	3.1
2025-01-24 13:51:42.522278	36.5	20.7	-90.8	2.8
2025-01-24 13:51:43.684215	36.3	20.8	-90.7	2.1
2025-01-24 13:51:44.845476	36.0	20.8	-90.6	0.7
2025-01-24 13:51:46.003390	35.8	20.9	-90.8	4.8
2025-01-24 13:51:47.169281	35.5	21.0	-90.6	3.5
2025-01-24 13:51:48.330469	35.3	21.1	-90.6	3.2
2025-01-24 13:51:49.485941	35.0	21.1	-90.7	9.0
2025-01-24 13:51:50.653035	34.7	21.2	-90.8	7.0
2025-01-24 13:51:51.812627	34.5	21.3	-90.8	11.8
2025-01-24 13:51:52.974283	34.2	21.4	-90.9	7.1
2025-01-24 13:51:54.137237	33.9	21.4	-90.6	6.1
2025-01-24 13:51:55.302824	33.7	21.5	-90.7	4.9
2025-01-24 13:51:56.459447	33.4	21.6	-90.8	5.9
2025-01-24 13:51:57.629722	33.1	21.7	-91.0	8.4
2025-01-24 13:51:58.790199	32.9	21.7	-91.0	6.6
2025-01-24 13:51:59.961502	32.6	21.8	-91.0	8.9
2025-01-24 13:52:01.119538	32.3	21.9	-90.3	10.6
2025-01-24 13:52:02.293642	32.0	21.9	-91.1	10.0
2025-01-24 13:52:03.454788	31.8	22.0	-91.2	11.2
2025-01-24 13:52:04.604868	31.5	22.1	-90.9	11.9
2025-01-24 13:52:05.760391	31.2	22.1	-91.1	11.0
2025-01-24 13:52:06.917877	30.9	22.2	-90.7	7.4
2025-01-24 13:52:08.076651	30.7	22.3	-90.4	5.6
2025-01-24 13:52:09.236036	30.4	22.3	-90.4	3.6
2025-01-24 13:52:10.396713	30.1	22.4	-90.4	4.5
2025-01-24 13:52:11.560034	29.8	22.5	-91.1	4.3
2025-01-24 13:52:12.731140	29.5	22.5	-91.0	4.1
2025-01-24 13:52:13.889671	29.2	22.6	-90.8	3.9
2025-01-24 13:52:15.051960	28.9	22.7	-90.6	6.6
2025-01-24 13:52:16.213173	28.7	22.7	-91.0	4.9
2025-01-24 13:52:17.378479	28.4	22.8	-90.6	3.9
2025-01-24 13:52:18.542494	28.1	22.8	-90.5	8.3
2025-01-24 13:52:19.701703	27.8	22.9	-90.7	11.4
2025-01-24 13:52:20.866247	27.5	23.0	-90.8	11.1
2025-01-24 13:52:22.027496	27.2	23.0	-90.7	11.6
2025-01-24 13:52:23.193749	26.9	23.1	-90.4	9.6
2025-01-24 13:52:24.354757	26.6	23.1	-90.3	7.2
2025-01-24 13:52:25.521707	26.3	23.2	-90.8	9.0
2025-01-24 13:52:26.686684	26.0	23.2	-90.7	7.6
2025-01-24 13:52:27.843774	25.7	23.3	-90.8	4.5
2025-01-24 13:52:29.014710	25.4	23.4	-90.6	5.3
2025-01-24 13:52:30.158692	25.1	23.4	-90.6	5.6
2025-01-24 13:52:31.312015	24.8	23.5	-91.0	4.5
2025-01-24 13:52:32.476690	24.5	23.5	-91.2	9.3
2025-01-24 13:52:33.636336	24.2	23.6	-90.9	8.3
2025-01-24 13:52:34.795385	23.9	23.6	-91.0	10.0
2025-01-24 13:52:35.951301	23.6	23.7	-91.1	11.4
2025-01-24 13:52:37.116091	23.3	23.7	-90.9	9.1
2025-01-24 13:52:38.276024	23.0	23.8	-91.0	8.0
2025-01-24 13:52:39.434754	22.7	23.8	-91.0	7.3
2025-01-24 13:52:40.595146	22.4	23.9	-91.0	7.2
2025-01-24 13:52:41.752002	22.0	23.9	-91.0	7.2
2025-01-24 13:52:42.913005	21.7	24.0	-91.0	5.6
2025-01-24 13:52:44.078876	21.4	24.0	-91.0	7.0
2025-01-24 13:52:45.245411	21.1	24.0	-90.6	4.3
2025-01-24 13:52:46.396775	20.8	24.1	-91.0	3.7
2025-01-24 13:52:47.557160	20.5	24.1	-90.7	5.1
2025-01-24 13:52:48.722118	20.2	24.2	-90.6	1.7
2025-01-24 13:52:49.880374	19.8	24.2	-90.8	2.7
2025-01-24 13:52:51.036276	19.5	24.2	-90.8	2.5
2025-01-24 13:52:52.199180	19.2	24.3	-90.6	3.0
2025-01-24 13:52:53.358862	18.9	24.3	-90.7	4.1
2025-01-24 13:52:54.525041	18.6	24.4	-90.9	4.8
2025-01-24 13:52:55.684370	18.3	24.4	-91.1	6.6
2025-01-24 13:52:56.846477	17.9	24.4	-90.8	8.9
2025-01-24 13:52:58.015335	17.6	24.5	-91.2	10.0
2025-01-24 13:52:59.172869	17.3	24.5	-90.5	10.7
2025-01-24 13:53:00.325983	17.0	24.5	-90.9	9.5
2025-01-24 13:53:01.485186	16.6	24.6	-91.0	7.2
2025-01-24 13:53:02.651028	16.3	24.6	-91.1	9.3
2025-01-24 13:53:03.812057	16.0	24.6	-91.1	8.2
2025-01-24 13:53:04.973967	15.7	24.6	-91.0	6.2
2025-01-24 13:53:06.129512	15.3	24.7	-91.1	8.7
2025-01-24 13:53:07.291394	15.0	24.7	-90.9	5.1
2025-01-24 13:53:08.451421	14.7	24.7	-90.9	4.8
2025-01-24 13:53:09.618277	14.4	24.7	-90.8	7.5
2025-01-24 13:53:10.782869	14.0	24.8	-90.8	4.7
2025-01-24 13:53:11.948772	13.7	24.8	-90.9	4.9
2025-01-24 13:53:13.103978	13.4	24.8	-90.7	4.7
2025-01-24 13:53:14.267834	13.0	24.8	-90.6	3.3
2025-01-24 13:53:15.427381	12.7	24.8	-91.0	5.8
2025-01-24 13:53:16.584232	12.4	24.9	-90.9	6.5
2025-01-24 13:53:17.746881	12.0	24.9	-90.7	5.3
2025-01-24 13:53:18.908883	11.7	24.9	-90.9	5.1
2025-01-24 13:53:20.063022	11.4	24.9	-90.9	7.2
2025-01-24 13:53:21.222834	11.0	24.9	-90.7	6.8
2025-01-24 13:53:22.385304	10.7	24.9	-90.7	4.9
2025-01-24 13:53:23.540137	10.4	24.9	-90.7	8.1
2025-01-24 13:53:24.706096	10.1	24.9	-90.8	4.1
2025-01-24 13:53:25.868365	9.7	25.0	-91.3	4.9
2025-01-24 13:53:27.028114	9.4	25.0	-91.2	7.2
2025-01-24 13:53:28.191699	9.1	25.0	-90.9	7.0
2025-01-24 13:53:29.350732	8.7	25.0	-90.5	5.7
2025-01-24 13:53:30.516954	8.4	25.0	-91.2	8.2
2025-01-24 13:53:31.672926	8.1	25.0	-91.1	5.2
2025-01-24 13:53:32.838961	7.7	25.0	-91.3	5.7
2025-01-24 13:53:34.005290	7.4	25.0	-90.8	4.5
2025-01-24 13:53:35.171093	7.0	25.0	-90.6	4.9
2025-01-24 13:53:36.328742	6.7	25.0	-90.9	2.9
2025-01-24 13:53:37.488923	6.4	25.0	-90.7	3.7
2025-01-24 13:53:38.655758	6.0	25.0	-91.0	6.4
2025-01-24 13:53:39.822453	5.7	25.0	-91.0	3.9
2025-01-24 13:53:40.991179	5.4	25.0	-91.1	6.1
2025-01-24 13:53:42.158241	5.0	25.0	-90.6	4.9
2025-01-24 13:53:43.321024	4.7	25.0	-90.6	2.3
2025-01-24 13:53:44.482477	4.4	25.0	-90.8	5.4
2025-01-24 13:53:45.642277	4.0	24.9	-90.6	5.7
2025-01-24 13:53:46.798094	3.7	24.9	-90.9	2.3
2025-01-24 13:53:47.967077	3.4	24.9	-90.9	4.1
2025-01-24 13:53:49.132509	3.0	24.9	-90.7	6.4
2025-01-24 13:53:50.295441	2.7	24.9	-90.8	4.4
2025-01-24 13:53:51.458100	2.4	24.9	-90.9	4.1
2025-01-24 13:53:52.614701	2.1	24.9	-90.8	6.9
2025-01-24 13:53:53.781215	1.7	24.9	-91.2	5.0
2025-01-24 13:53:54.945403	1.4	24.8	-90.8	5.7
2025-01-24 13:53:56.110433	1.1	24.8	-90.7	5.6
2025-01-24 13:53:57.273341	0.7	24.8	-90.7	3.4
2025-01-24 13:53:58.440771	0.4	24.8	-90.5	4.1
2025-01-24 13:53:59.604924	0.1	24.8	-91.2	7.9
2025-01-24 13:54:00.767138	359.7	24.7	-91.3	7.4
2025-01-24 13:54:01.934146	359.4	24.7	-91.2	10.1
2025-01-24 13:54:03.096983	359.1	24.7	-91.0	9.8
2025-01-24 13:54:04.258980	358.8	24.7	-90.8	9.3
2025-01-24 13:54:05.419342	358.4	24.6	-91.1	11.3
2025-01-24 13:54:06.578398	358.1	24.6	-91.1	11.0
2025-01-24 13:54:07.741177	357.8	24.6	-90.9	10.5
2025-01-24 13:54:08.907924	357.5	24.5	-90.9	12.7
2025-01-24 13:54:10.070352	357.1	24.5	-90.9	10.5
2025-01-24 13:54:11.235604	356.8	24.5	-90.8	7.3
2025-01-24 13:54:12.397834	356.5	24.5	-91.2	15.5
2025-01-24 13:54:13.551427	356.2	24.4	-91.0	12.8
2025-01-24 13:54:14.714815	355.8	24.4	-91.3	14.0
2025-01-24 13:54:15.877522	355.5	24.4	-91.1	12.9
2025-01-24 13:54:17.039500	355.2	24.3	-91.4	11.2
2025-01-24 13:54:18.203657	354.9	24.3	-90.9	12.0
2025-01-24 13:54:19.367935	354.6	24.2	-90.8	10.8
2025-01-24 13:54:20.522699	354.2	24.2	-91.2	14.5
2025-01-24 13:54:21.687185	353.9	24.2	-90.9	14.3
2025-01-24 13:54:22.849062	353.6	24.1	-90.9	14.5
2025-01-24 13:54:24.014857	353.3	24.1	-90.9	17.1
2025-01-24 13:54:25.172229	353.0	24.0	-90.9	11.8
2025-01-24 13:54:26.333841	352.7	24.0	-90.9	12.9
2025-01-24 13:54:27.495833	352.4	23.9	-89.7	10.8
2025-01-24 13:54:28.651941	352.0	23.9	-90.1	7.2
2025-01-24 13:54:29.817041	351.7	23.9	-90.1	11.6
2025-01-24 13:54:30.971293	351.4	23.8	-90.3	9.1
2025-01-24 13:54:32.136524	351.1	23.8	-90.2	11.2
2025-01-24 13:54:33.298118	350.8	23.7	-89.9	7.6
2025-01-24 13:54:34.460524	350.5	23.7	-91.0	9.2
2025-01-24 13:54:35.630997	350.2	23.6	-90.8	9.5
2025-01-24 13:54:36.787663	349.9	23.6	-91.2	12.4
2025-01-24 13:54:37.953382	349.6	23.5	-90.9	12.7
2025-01-24 13:54:39.126080	349.3	23.5	-90.7	12.0
2025-01-24 13:54:40.288490	349.0	23.4	-90.5	12.2
2025-01-24 13:54:41.454165	348.7	23.4	-91.0	11.1
2025-01-24 13:54:42.618113	348.4	23.3	-91.2	9.7
2025-01-24 13:54:43.782168	348.1	23.2	-91.3	9.5
2025-01-24 13:54:44.944554	347.8	23.2	-91.5	10.7
2025-01-24 13:54:46.101625	347.5	23.1	-90.9	12.1
2025-01-24 13:54:47.262874	347.2	23.1	-90.9	10.0
2025-01-24 13:54:48.425484	346.9	23.0	-90.8	7.3
2025-01-24 13:54:49.591181	346.6	23.0	-90.7	4.8
2025-01-24 13:54:50.749811	346.3	22.9	-91.1	7.0
2025-01-24 13:54:51.910855	346.0	22.8	-91.0	9.1
2025-01-24 13:54:53.073125	345.7	22.8	-91.1	7.3
2025-01-24 13:54:54.229603	345.4	22.7	-90.8	9.6
2025-01-24 13:54:55.389708	345.2	22.7	-90.8	5.9
2025-01-24 13:54:56.545523	344.9	22.6	-91.2	8.6
2025-01-24 13:54:57.707898	344.6	22.5	-91.2	5.8
2025-01-24 13:54:58.868024	344.3	22.5	-91.2	7.3
2025-01-24 13:55:00.041403	344.0	22.4	-91.2	7.8
2025-01-24 13:55:01.190708	343.7	22.3	-90.8	7.1
2025-01-24 13:55:02.358896	343.5	22.3	-90.9	4.4
2025-01-24 13:55:03.514509	343.2	22.2	-91.1	8.3
2025-01-24 13:55:04.676141	342.9	22.1	-91.1	2.7
2025-01-24 13:55:05.831790	342.6	22.1	-91.1	4.9
2025-01-24 13:55:06.995434	342.4	22.0	-91.2	6.8
2025-01-24 13:55:08.159918	342.1	21.9	-91.2	4.6
2025-01-24 13:55:09.326933	341.8	21.9	-91.3	4.6
2025-01-24 13:55:10.497664	341.5	21.8	-91.0	5.6
2025-01-24 13:55:11.662338	341.3	21.7	-91.2	4.3
2025-01-24 13:55:12.822803	341.0	21.7	-91.3	4.9
2025-01-24 13:55:13.982950	340.7	21.6	-91.1	5.3
2025-01-24 13:55:15.141781	340.5	21.5	-90.4	5.6
2025-01-24 13:55:16.408278	340.2	21.4	-91.0	5.2
2025-01-24 13:55:17.570313	339.9	21.4	-91.0	2.7
2025-01-24 13:55:18.732883	339.6	21.3	-90.9	0.5
2025-01-24 13:55:19.890195	339.4	21.2	-91.0	3.6
2025-01-24 13:55:21.056351	339.1	21.1	-90.7	2.4
2025-01-24 13:55:22.216923	338.9	21.1	-90.5	1.7
2025-01-24 13:55:23.374508	338.6	21.0	-90.8	3.2
2025-01-24 13:55:24.533837	338.3	20.9	-91.1	3.3
2025-01-24 13:55:25.697523	338.1	20.8	-91.3	2.0
2025-01-24 13:55:26.858748	337.8	20.8	-90.9	4.1
2025-01-24 13:55:28.020806	337.6	20.7	-91.1	6.7
2025-01-24 13:55:29.182118	337.3	20.6	-91.1	4.8
2025-01-24 13:55:30.344912	337.1	20.5	-91.0	5.1
2025-01-24 13:55:31.508913	336.8	20.5	-91.3	3.2
2025-01-24 13:55:32.672392	336.6	20.4	-91.3	5.3
2025-01-24 13:55:33.832347	336.3	20.3	-91.0	3.7
2025-01-24 13:55:34.993366	336.1	20.2	-91.1	2.1
2025-01-24 13:55:36.154475	335.8	20.1	-90.6	3.2
2025-01-24 13:55:37.322097	335.6	20.1	-90.8	2.2
2025-01-24 13:55:38.491256	335.4	20.0	-90.9	3.0
2025-01-24 13:55:39.652405	335.1	19.9	-91.2	1.3
2025-01-24 13:55:40.829304	334.9	19.8	-91.0	1.8
2025-01-24 13:55:41.992662	334.6	19.7	-91.1	3.1
2025-01-24 13:55:43.151302	334.4	19.7	-90.9	1.3
2025-01-24 13:55:44.316444	334.2	19.6	-90.9	0.9
2025-01-24 13:55:45.473333	333.9	19.5	-91.0	1.2
2025-01-24 13:55:46.622433	333.7	19.4	-91.0	2.7
2025-01-24 13:55:47.762100	333.5	19.3	-90.9	1.5
2025-01-24 13:55:48.884109	333.3	19.3	-91.4	5.0
2025-01-24 13:55:50.005424	333.0	19.2	-91.4	2.5
2025-01-24 13:55:51.127100	332.8	19.1	-90.9	2.9
2025-01-24 13:55:52.247587	332.6	19.0	-91.2	0.1
2025-01-24 13:55:53.369450	332.4	19.0	-90.8	1.6
2025-01-24 13:55:54.489355	332.2	18.9	-91.5	3.5
2025-01-24 13:55:55.609855	331.9	18.8	-91.3	2.7
2025-01-24 13:55:56.733432	331.7	18.7	-91.4	3.7
2025-01-24 13:55:57.862964	331.5	18.6	-91.1	1.6
2025-01-24 13:55:59.031096	331.3	18.6	-91.3	1.6
2025-01-24 13:56:00.185443	331.1	18.5	-91.0	1.9
2025-01-24 13:56:01.344693	330.9	18.4	-91.3	0.5
2025-01-24 13:56:02.494742	330.6	18.3	-91.0	3.4
2025-01-24 13:56:03.664494	330.4	18.2	-91.1	1.1
2025-01-24 13:56:04.827827	330.2	18.1	-91.2	3.5
2025-01-24 13:56:05.983622	330.0	18.1	-91.2	7.0
2025-01-24 13:56:07.145539	329.8	18.0	-91.0	5.8
2025-01-24 13:56:08.298847	329.6	17.9	-91.0	2.7
2025-01-24 13:56:09.462877	329.4	17.8	-90.8	3.6
2025-01-24 13:56:10.622291	329.2	17.7	-91.1	3.5
2025-01-24 13:56:11.790073	329.0	17.6	-90.9	2.6
2025-01-24 13:56:12.951934	328.8	17.5	-91.5	2.8
2025-01-24 13:56:14.119443	328.5	17.5	-91.1	3.4
2025-01-24 13:56:15.276492	328.3	17.4	-91.4	3.7
2025-01-24 13:56:16.436433	328.1	17.3	-91.4	2.4
2025-01-24 13:56:17.592278	327.9	17.2	-91.5	2.9
2025-01-24 13:56:18.770704	327.7	17.1	-90.9	3.1
2025-01-24 13:56:19.930379	327.5	17.0	-91.1	2.3
2025-01-24 13:56:21.093424	327.3	17.0	-91.1	1.8
2025-01-24 13:56:22.253867	327.1	16.9	-90.9	1.9
2025-01-24 13:56:23.415217	327.0	16.8	-90.9	2.8
2025-01-24 13:56:24.577812	326.8	16.7	-91.2	2.5
2025-01-24 13:56:25.740023	326.6	16.6	-90.9	3.1
2025-01-24 13:56:26.899062	326.4	16.5	-90.8	3.8
2025-01-24 13:56:28.060624	326.2	16.4	-91.1	4.6
2025-01-24 13:56:29.228004	326.0	16.4	-91.3	3.3
2025-01-24 13:56:30.387359	325.8	16.3	-91.2	1.5
2025-01-24 13:56:31.547104	325.6	16.2	-91.5	6.2
2025-01-24 13:56:32.705922	325.4	16.1	-91.3	4.5
2025-01-24 13:56:33.864983	325.2	16.0	-91.5	4.6
2025-01-24 13:56:35.025776	325.1	15.9	-91.5	3.5
2025-01-24 13:56:36.198180	324.9	15.8	-91.2	3.7
2025-01-24 13:56:37.365141	324.7	15.8	-90.9	4.0
2025-01-24 13:56:38.522537	324.5	15.7	-91.4	4.9
2025-01-24 13:56:39.696019	324.3	15.6	-91.2	3.2
2025-01-24 13:56:40.854652	324.2	15.5	-91.0	5.2
2025-01-24 13:56:42.026244	324.0	15.4	-91.2	1.3
2025-01-24 13:56:43.192224	323.8	15.3	-90.6	1.7
2025-01-24 13:56:44.359556	323.6	15.2	-90.1	3.4
2025-01-24 13:56:45.516747	323.4	15.2	-90.9	3.1
2025-01-24 13:56:46.680499	323.3	15.1	-91.1	2.8
2025-01-24 13:56:47.845016	323.1	15.0	-90.9	2.6
2025-01-24 13:56:49.005908	322.9	14.9	-90.7	3.2
2025-01-24 13:56:50.171932	322.8	14.8	-91.0	1.8
2025-01-24 13:56:51.335901	322.6	14.7	-90.5	2.6
2025-01-24 13:56:52.495710	322.4	14.6	-91.4	4.6
#Closed at: 2025-01-24 13:50:28.225209