passes_logs/2025/01/24/LEX_Murmansk/LEX_Murmansk__20250124_091234_NOAA_18_rec.log

#Pass ID: 20250124_091234_NOAA 18
#Satellite: NOAA 18
#Configuration: NOAA 18
#Start time: 2025-01-24 09:12:29.454187

#LorettStation: 1.0.0 05.05.2024
#Station: LEX_Murmansk
#Location: 33.156738 lon 68.926811 lat
#TLE: 1 28654U 05018A   25023.16165176  .00000420  00000+0  24625-3 0  9991
#TLE: 2 28654  98.8554 104.1346 0014722 156.5601 203.6245 14.13494494 14331

#Time	Az	El	Level	SNR
2025-01-24 09:12:41.578741	29.2	16.3	-89.7	4.2
2025-01-24 09:12:43.910588	29.3	16.5	-89.5	5.0
2025-01-24 09:12:46.224024	29.5	16.7	-90.0	9.2
2025-01-24 09:12:48.546841	29.6	17.0	-89.8	8.8
2025-01-24 09:12:50.878541	29.8	17.3	-89.8	5.2
2025-01-24 09:12:53.213565	29.9	17.5	-89.5	4.9
2025-01-24 09:12:55.540349	30.1	17.8	-89.7	6.8
2025-01-24 09:12:57.866366	30.2	18.0	-90.3	5.4
2025-01-24 09:13:00.191061	30.4	18.3	-89.5	6.0
2025-01-24 09:13:02.509686	30.6	18.6	-89.5	7.7
2025-01-24 09:13:04.836066	30.7	18.8	-89.8	7.3
2025-01-24 09:13:07.155613	30.9	19.1	-89.3	5.3
2025-01-24 09:13:09.482454	31.1	19.4	-89.5	4.4
2025-01-24 09:13:11.828639	31.3	19.7	-89.7	11.1
2025-01-24 09:13:14.152935	31.5	19.9	-89.1	10.2
2025-01-24 09:13:16.481822	31.6	20.2	-89.9	8.2
2025-01-24 09:13:18.807812	31.8	20.5	-89.9	8.0
2025-01-24 09:13:21.130672	32.0	20.8	-89.6	9.0
2025-01-24 09:13:23.447827	32.2	21.1	-89.4	3.8
2025-01-24 09:13:25.769159	32.4	21.4	-89.7	11.1
2025-01-24 09:13:28.093130	32.6	21.7	-89.3	9.2
2025-01-24 09:13:30.420245	32.8	22.0	-89.4	12.4
2025-01-24 09:13:32.747588	33.1	22.3	-89.9	11.6
2025-01-24 09:13:35.076791	33.3	22.6	-89.8	10.2
2025-01-24 09:13:37.405368	33.5	22.9	-89.6	9.4
2025-01-24 09:13:39.726269	33.7	23.2	-90.0	9.6
2025-01-24 09:13:42.051640	33.9	23.6	-90.4	4.6
2025-01-24 09:13:44.379429	34.2	23.9	-90.3	8.9
2025-01-24 09:13:46.701892	34.4	24.2	-90.2	9.2
2025-01-24 09:13:49.025670	34.7	24.5	-90.3	6.4
2025-01-24 09:13:51.351522	34.9	24.9	-89.9	6.6
2025-01-24 09:13:53.675096	35.1	25.2	-90.4	8.6
2025-01-24 09:13:55.998919	35.4	25.5	-89.9	6.5
2025-01-24 09:13:58.325214	35.7	25.9	-89.4	7.2
2025-01-24 09:14:00.637361	35.9	26.2	-89.9	4.9
2025-01-24 09:14:02.939738	36.2	26.6	-90.1	8.5
2025-01-24 09:14:05.265625	36.5	26.9	-89.8	8.1
2025-01-24 09:14:07.594436	36.8	27.3	-89.8	6.4
2025-01-24 09:14:09.910709	37.1	27.7	-90.2	5.8
2025-01-24 09:14:12.240805	37.4	28.0	-89.9	6.1
2025-01-24 09:14:14.565690	37.7	28.4	-90.3	5.9
2025-01-24 09:14:16.875821	38.0	28.8	-90.0	8.6
2025-01-24 09:14:19.202285	38.3	29.2	-89.9	9.2
2025-01-24 09:14:21.526413	38.6	29.5	-90.2	8.5
2025-01-24 09:14:23.848133	39.0	29.9	-90.0	11.3
2025-01-24 09:14:26.177990	39.3	30.3	-89.6	11.3
2025-01-24 09:14:28.499115	39.7	30.7	-89.5	13.1
2025-01-24 09:14:30.833600	40.0	31.1	-89.9	11.1
2025-01-24 09:14:33.160893	40.4	31.5	-89.7	11.1
2025-01-24 09:14:35.478550	40.8	31.9	-89.3	7.9
2025-01-24 09:14:37.791577	41.1	32.4	-90.2	14.3
2025-01-24 09:14:40.126245	41.5	32.8	-89.7	14.4
2025-01-24 09:14:42.455236	41.9	33.2	-89.8	15.3
2025-01-24 09:14:44.779491	42.4	33.6	-88.8	15.7
2025-01-24 09:14:47.095241	42.8	34.1	-88.6	15.2
2025-01-24 09:14:49.424507	43.2	34.5	-88.9	13.2
2025-01-24 09:14:51.754158	43.7	34.9	-89.9	12.6
2025-01-24 09:14:54.075472	44.1	35.4	-89.5	6.5
2025-01-24 09:14:56.413571	44.6	35.8	-89.9	9.6
2025-01-24 09:14:58.731845	45.1	36.3	-90.5	15.2
2025-01-24 09:15:01.058316	45.6	36.8	-90.1	16.5
2025-01-24 09:15:03.381734	46.1	37.2	-90.0	11.4
2025-01-24 09:15:05.703990	46.7	37.7	-89.2	13.2
2025-01-24 09:15:08.019451	47.2	38.2	-89.7	17.2
2025-01-24 09:15:10.360225	47.8	38.6	-90.2	14.2
2025-01-24 09:15:12.689832	48.4	39.1	-90.0	14.5
2025-01-24 09:15:15.013177	48.9	39.6	-90.0	9.1
2025-01-24 09:15:17.334776	49.6	40.1	-90.1	14.5
2025-01-24 09:15:19.653585	50.2	40.6	-90.5	14.6
2025-01-24 09:15:21.975939	50.8	41.1	-90.2	18.2
2025-01-24 09:15:24.295070	51.5	41.6	-89.8	17.8
2025-01-24 09:15:26.613074	52.2	42.0	-90.1	13.1
2025-01-24 09:15:28.936411	52.9	42.5	-90.5	14.2
2025-01-24 09:15:31.265895	53.6	43.0	-90.4	10.7
2025-01-24 09:15:33.590822	54.4	43.5	-90.6	12.1
2025-01-24 09:15:35.915111	55.2	44.0	-90.0	8.9
2025-01-24 09:15:38.235639	56.0	44.6	-90.1	14.0
2025-01-24 09:15:40.551150	56.8	45.1	-89.7	7.5
2025-01-24 09:15:42.879842	57.7	45.6	-90.0	17.9
2025-01-24 09:15:45.209940	58.6	46.1	-90.1	15.5
2025-01-24 09:15:47.531945	59.5	46.6	-90.3	12.2
2025-01-24 09:15:49.859307	60.4	47.1	-90.4	4.2
2025-01-24 09:15:52.185596	61.4	47.6	-89.9	8.6
2025-01-24 09:15:54.515057	62.4	48.0	-90.2	6.7
2025-01-24 09:15:56.841341	63.4	48.5	-90.0	6.1
2025-01-24 09:15:59.224183	64.5	49.0	-89.9	5.7
2025-01-24 09:16:01.545834	65.6	49.5	-90.2	5.1
2025-01-24 09:16:03.864582	66.8	50.0	-90.6	5.8
2025-01-24 09:16:06.183896	67.9	50.4	-90.2	7.8
2025-01-24 09:16:08.510589	69.1	50.9	-90.4	10.1
2025-01-24 09:16:10.828762	70.4	51.3	-90.7	11.9
2025-01-24 09:16:13.155094	71.7	51.8	-90.2	13.1
2025-01-24 09:16:15.480657	73.0	52.2	-90.7	7.7
2025-01-24 09:16:17.807104	74.3	52.6	-90.5	14.2
2025-01-24 09:16:20.125035	75.7	53.0	-90.3	12.4
2025-01-24 09:16:22.451208	77.2	53.4	-90.4	11.9
2025-01-24 09:16:24.787250	78.6	53.8	-90.4	13.5
2025-01-24 09:16:27.111555	80.2	54.1	-90.2	13.2
2025-01-24 09:16:29.436856	81.7	54.5	-90.5	9.7
2025-01-24 09:16:31.758135	83.3	54.8	-90.2	13.4
2025-01-24 09:16:34.084606	84.9	55.1	-90.0	7.4
2025-01-24 09:16:36.408888	86.5	55.4	-90.2	6.9
2025-01-24 09:16:38.736304	88.2	55.6	-90.3	15.0
2025-01-24 09:16:41.057374	89.9	55.9	-90.2	7.9
2025-01-24 09:16:43.385653	91.7	56.1	-89.6	10.5
2025-01-24 09:16:45.706765	93.4	56.2	-90.5	15.4
2025-01-24 09:16:48.026015	95.2	56.4	-90.4	9.9
2025-01-24 09:16:50.343673	97.0	56.5	-90.2	10.4
2025-01-24 09:16:52.671427	98.8	56.6	-90.5	18.6
2025-01-24 09:16:54.995232	100.6	56.7	-90.3	14.2
2025-01-24 09:16:57.322327	102.5	56.8	-90.4	8.8
2025-01-24 09:16:59.638463	104.3	56.8	-90.3	23.8
2025-01-24 09:17:01.947556	106.1	56.8	-90.4	12.9
2025-01-24 09:17:04.278667	108.0	56.7	-90.1	17.9
2025-01-24 09:17:06.600069	109.8	56.7	-89.9	12.1
2025-01-24 09:17:08.926247	111.6	56.6	-89.9	11.3
2025-01-24 09:17:11.252951	113.4	56.5	-90.0	15.9
2025-01-24 09:17:13.574318	115.2	56.3	-90.1	10.1
2025-01-24 09:17:15.915597	117.0	56.2	-90.6	9.7
2025-01-24 09:17:18.237297	118.8	56.0	-90.2	7.6
2025-01-24 09:17:20.564395	120.5	55.7	-90.0	7.6
2025-01-24 09:17:22.888902	122.2	55.5	-90.2	10.6
2025-01-24 09:17:25.217579	123.9	55.2	-89.9	16.5
2025-01-24 09:17:27.539082	125.5	54.9	-90.3	7.7
2025-01-24 09:17:29.856313	127.1	54.6	-90.4	12.1
2025-01-24 09:17:32.181025	128.6	54.3	-89.8	16.7
2025-01-24 09:17:34.512146	130.2	54.0	-90.2	9.6
2025-01-24 09:17:36.838281	131.7	53.6	-90.4	17.4
2025-01-24 09:17:39.168099	133.1	53.2	-90.2	14.8
2025-01-24 09:17:41.491328	134.5	52.8	-90.6	10.4
2025-01-24 09:17:43.818064	135.9	52.4	-90.5	12.4
2025-01-24 09:17:46.146355	137.3	52.0	-89.0	12.9
2025-01-24 09:17:48.472078	138.6	51.5	-88.9	8.5
2025-01-24 09:17:50.788437	139.8	51.1	-89.3	11.3
2025-01-24 09:17:53.112621	141.1	50.6	-89.9	7.0
2025-01-24 09:17:55.442718	142.3	50.2	-89.6	4.7
2025-01-24 09:17:57.769460	143.4	49.7	-90.0	3.9
2025-01-24 09:18:00.086662	144.5	49.2	-89.7	5.0
2025-01-24 09:18:02.408741	145.6	48.8	-89.8	6.0
2025-01-24 09:18:04.725150	146.7	48.3	-90.6	5.8
2025-01-24 09:18:07.048236	147.7	47.8	-90.1	6.0
2025-01-24 09:18:09.362740	148.7	47.3	-90.0	13.0
2025-01-24 09:18:11.689785	149.7	46.8	-90.0	6.3
2025-01-24 09:18:14.014973	150.6	46.3	-89.8	11.7
2025-01-24 09:18:16.333648	151.5	45.8	-90.5	14.8
2025-01-24 09:18:18.651867	152.4	45.3	-90.3	10.5
2025-01-24 09:18:20.978004	153.2	44.8	-90.4	16.2
2025-01-24 09:18:23.303911	154.0	44.3	-89.8	13.0
2025-01-24 09:18:25.622715	154.8	43.8	-90.3	12.3
2025-01-24 09:18:27.925130	155.6	43.3	-89.8	12.7
2025-01-24 09:18:30.244892	156.3	42.7	-90.4	15.9
2025-01-24 09:18:32.573465	157.1	42.2	-90.2	8.6
2025-01-24 09:18:34.909465	157.8	41.7	-90.3	9.3
2025-01-24 09:18:37.236237	158.4	41.2	-90.4	7.8
2025-01-24 09:18:39.559083	159.1	40.8	-89.9	8.9
2025-01-24 09:18:41.861256	159.7	40.3	-90.3	10.6
2025-01-24 09:18:44.185608	160.4	39.8	-89.9	9.3
2025-01-24 09:18:46.516375	161.0	39.3	-90.5	12.0
2025-01-24 09:18:48.844341	161.6	38.8	-90.4	12.5
2025-01-24 09:18:51.167166	162.1	38.3	-90.1	10.1
2025-01-24 09:18:53.479557	162.7	37.8	-90.3	7.1
2025-01-24 09:18:55.742426	163.2	37.4	-90.2	10.6
2025-01-24 09:18:58.059343	163.7	36.9	-90.3	5.6
2025-01-24 09:19:00.370770	164.2	36.5	-89.8	6.6
2025-01-24 09:19:02.690896	164.7	36.0	-90.4	11.2
2025-01-24 09:19:05.018631	165.2	35.5	-90.1	10.3
2025-01-24 09:19:07.336050	165.7	35.1	-90.3	7.6
2025-01-24 09:19:09.652578	166.2	34.6	-90.1	10.1
2025-01-24 09:19:11.981205	166.6	34.2	-90.6	11.8
2025-01-24 09:19:14.309561	167.0	33.8	-90.1	12.6
2025-01-24 09:19:16.637100	167.5	33.3	-90.4	10.4
2025-01-24 09:19:18.960675	167.9	32.9	-90.3	8.5
2025-01-24 09:19:21.286821	168.3	32.5	-89.8	13.3
2025-01-24 09:19:23.610102	168.7	32.0	-90.3	10.7
2025-01-24 09:19:25.931876	169.1	31.6	-90.7	13.1
2025-01-24 09:19:28.263828	169.4	31.2	-90.1	9.7
2025-01-24 09:19:30.591815	169.8	30.8	-90.1	10.2
2025-01-24 09:19:32.913788	170.1	30.4	-90.4	7.1
2025-01-24 09:19:35.245247	170.5	30.0	-90.1	5.4
2025-01-24 09:19:37.568322	170.8	29.6	-90.1	6.2
2025-01-24 09:19:39.887800	171.2	29.2	-90.1	5.6
2025-01-24 09:19:42.208264	171.5	28.8	-90.2	11.2
2025-01-24 09:19:44.534499	171.8	28.5	-90.1	12.1
2025-01-24 09:19:46.862874	172.1	28.1	-90.1	12.9
2025-01-24 09:19:49.183394	172.4	27.7	-90.0	12.6
2025-01-24 09:19:51.499284	172.7	27.3	-90.0	8.9
2025-01-24 09:19:53.821610	173.0	27.0	-90.0	9.4
2025-01-24 09:19:56.147229	173.3	26.6	-90.2	8.8
2025-01-24 09:19:58.474165	173.6	26.3	-89.9	6.7
2025-01-24 09:20:00.789209	173.8	25.9	-90.2	9.2
2025-01-24 09:20:03.114357	174.1	25.6	-90.1	9.1
2025-01-24 09:20:05.435360	174.4	25.2	-90.1	6.1
2025-01-24 09:20:07.754595	174.6	24.9	-90.2	9.1
2025-01-24 09:20:10.077844	174.9	24.5	-90.0	6.4
2025-01-24 09:20:12.397178	175.1	24.2	-90.0	7.2
2025-01-24 09:20:14.727614	175.3	23.9	-90.4	10.0
2025-01-24 09:20:17.055396	175.6	23.5	-90.3	10.0
2025-01-24 09:20:19.378788	175.8	23.2	-90.2	9.0
2025-01-24 09:20:21.708915	176.0	22.9	-90.1	10.4
2025-01-24 09:20:24.050729	176.3	22.6	-89.5	8.3
2025-01-24 09:20:26.372989	176.5	22.3	-89.5	9.1
2025-01-24 09:20:28.700547	176.7	22.0	-89.7	13.8
2025-01-24 09:20:31.017499	176.9	21.7	-90.1	11.6
2025-01-24 09:20:33.342918	177.1	21.4	-89.5	9.2
2025-01-24 09:20:35.671724	177.3	21.1	-89.7	7.9
2025-01-24 09:20:37.998968	177.5	20.8	-90.1	6.5
2025-01-24 09:20:40.320555	177.7	20.5	-89.7	6.8
2025-01-24 09:20:42.646607	177.9	20.2	-89.9	7.4
2025-01-24 09:20:44.977243	178.1	19.9	-88.9	10.0
2025-01-24 09:20:47.300317	178.3	19.6	-88.9	9.7
2025-01-24 09:20:49.632253	178.4	19.3	-89.2	9.0
2025-01-24 09:20:51.956179	178.6	19.0	-90.2	6.1
2025-01-24 09:20:54.290803	178.8	18.8	-89.8	6.8
2025-01-24 09:20:56.615346	179.0	18.5	-90.2	6.3
2025-01-24 09:20:58.942818	179.1	18.2	-90.4	5.0
2025-01-24 09:21:01.259526	179.3	18.0	-90.3	4.1
2025-01-24 09:21:03.587946	179.5	17.7	-90.7	6.4
2025-01-24 09:21:05.916398	179.6	17.4	-90.8	5.1
2025-01-24 09:21:08.236115	179.8	17.2	-90.0	2.9
2025-01-24 09:21:10.564600	179.9	16.9	-90.5	4.2
2025-01-24 09:21:12.872665	180.1	16.7	-90.1	3.1
2025-01-24 09:21:15.204776	180.2	16.4	-89.7	6.5
2025-01-24 09:21:17.530389	180.4	16.2	-90.6	4.3
2025-01-24 09:21:19.849825	180.5	15.9	-89.9	5.3
2025-01-24 09:21:22.173038	180.7	15.7	-90.4	6.4
2025-01-24 09:21:24.500879	180.8	15.4	-90.5	6.6
2025-01-24 09:21:26.832742	181.0	15.2	-90.5	7.3
2025-01-24 09:21:29.159379	181.1	14.9	-90.6	6.6
2025-01-24 09:21:31.482228	181.2	14.7	-90.7	7.9
2025-01-24 09:21:33.804357	181.4	14.5	-90.1	5.3
#Closed at: 2025-01-24 09:12:34.380702