passes_logs/2025/01/24/LEX_Murmansk/LEX_Murmansk__20250124_170847_NOAA_19_rec.log

#Pass ID: 20250124_170847_NOAA 19
#Satellite: NOAA 19
#Configuration: NOAA 19
#Start time: 2025-01-24 17:08:42.051998

#LorettStation: 1.0.0 05.05.2024
#Station: LEX_Murmansk
#Location: 33.156738 lon 68.926811 lat
#TLE: 1 33591U 09005A   25024.13697735  .00000399  00000+0  23694-3 0  9996
#TLE: 2 33591  99.0181  87.9693 0014137  32.7659 327.4387 14.13267470822833

#Time	Az	El	Level	SNR
2025-01-24 17:08:54.339435	134.4	16.3	-89.8	4.1
2025-01-24 17:08:56.651878	134.3	16.6	-90.0	3.5
2025-01-24 17:08:58.954737	134.3	16.8	-89.7	3.1
2025-01-24 17:09:01.255284	134.2	17.1	-89.8	5.8
2025-01-24 17:09:03.563071	134.1	17.4	-90.2	8.0
2025-01-24 17:09:05.857967	134.0	17.6	-90.3	5.6
2025-01-24 17:09:08.160957	133.9	17.9	-89.9	7.5
2025-01-24 17:09:10.457104	133.8	18.2	-89.7	5.6
2025-01-24 17:09:12.753432	133.7	18.5	-90.5	2.8
2025-01-24 17:09:15.052778	133.6	18.7	-90.3	4.4
2025-01-24 17:09:17.367517	133.5	19.0	-89.8	8.1
2025-01-24 17:09:19.666034	133.4	19.3	-89.8	8.3
2025-01-24 17:09:21.965659	133.3	19.6	-90.1	7.7
2025-01-24 17:09:24.280498	133.2	19.9	-90.2	11.0
2025-01-24 17:09:26.584123	133.1	20.2	-90.0	6.7
2025-01-24 17:09:28.889778	133.0	20.5	-89.8	4.8
2025-01-24 17:09:31.188002	132.9	20.8	-89.9	6.0
2025-01-24 17:09:33.489240	132.8	21.1	-90.3	15.2
2025-01-24 17:09:35.792758	132.7	21.4	-89.9	10.3
2025-01-24 17:09:38.101039	132.6	21.7	-89.9	12.2
2025-01-24 17:09:40.348136	132.5	22.0	-89.6	14.9
2025-01-24 17:09:42.592941	132.4	22.3	-90.1	9.7
2025-01-24 17:09:44.833379	132.2	22.6	-89.7	1.5
2025-01-24 17:09:47.075882	132.1	23.0	-89.7	5.4
2025-01-24 17:09:49.341533	132.0	23.3	-89.5	11.5
2025-01-24 17:09:51.643704	131.9	23.6	-89.9	11.6
2025-01-24 17:09:53.940252	131.7	24.0	-90.3	8.5
2025-01-24 17:09:56.242885	131.6	24.3	-89.5	11.5
2025-01-24 17:09:58.543855	131.5	24.7	-89.3	6.6
2025-01-24 17:10:00.840587	131.3	25.0	-89.3	2.3
2025-01-24 17:10:03.141469	131.2	25.4	-89.3	4.5
2025-01-24 17:10:05.450212	131.0	25.7	-89.8	9.2
2025-01-24 17:10:07.745934	130.9	26.1	-89.9	8.0
2025-01-24 17:10:10.052899	130.7	26.5	-90.0	8.2
2025-01-24 17:10:12.352452	130.6	26.8	-90.3	5.2
2025-01-24 17:10:14.651403	130.4	27.2	-90.4	2.6
2025-01-24 17:10:16.948027	130.2	27.6	-90.3	2.1
2025-01-24 17:10:19.241764	130.1	28.0	-90.0	3.1
2025-01-24 17:10:21.546562	129.9	28.4	-89.9	3.5
2025-01-24 17:10:23.848765	129.7	28.8	-90.0	2.2
2025-01-24 17:10:26.148488	129.5	29.2	-90.3	3.0
2025-01-24 17:10:28.454889	129.3	29.6	-90.3	3.4
2025-01-24 17:10:30.768190	129.1	30.0	-89.7	2.7
2025-01-24 17:10:33.077929	128.9	30.5	-89.8	2.8
2025-01-24 17:10:35.380877	128.7	30.9	-89.5	3.1
2025-01-24 17:10:37.675861	128.5	31.3	-89.7	3.2
2025-01-24 17:10:39.981931	128.3	31.8	-90.2	10.8
2025-01-24 17:10:42.281781	128.0	32.2	-88.9	8.8
2025-01-24 17:10:44.570771	127.8	32.7	-89.3	8.4
2025-01-24 17:10:46.866724	127.6	33.1	-89.4	9.6
2025-01-24 17:10:49.177164	127.3	33.6	-88.8	8.7
2025-01-24 17:10:51.474078	127.1	34.1	-89.0	5.1
2025-01-24 17:10:53.781171	126.8	34.6	-89.0	0.9
2025-01-24 17:10:56.074389	126.5	35.0	-88.9	6.6
2025-01-24 17:10:58.377963	126.3	35.5	-89.7	11.2
2025-01-24 17:11:00.679304	126.0	36.0	-89.9	8.8
2025-01-24 17:11:02.985448	125.7	36.5	-89.0	8.1
2025-01-24 17:11:05.279903	125.4	37.1	-89.3	10.3
2025-01-24 17:11:07.582009	125.1	37.6	-89.4	10.7
2025-01-24 17:11:09.884726	124.7	38.1	-89.6	5.2
2025-01-24 17:11:12.190079	124.4	38.6	-90.3	3.4
2025-01-24 17:11:14.493649	124.0	39.2	-90.3	7.2
2025-01-24 17:11:16.796464	123.7	39.7	-89.2	12.0
2025-01-24 17:11:19.099582	123.3	40.3	-89.4	13.1
2025-01-24 17:11:21.391391	122.9	40.9	-89.0	8.4
2025-01-24 17:11:23.702244	122.5	41.4	-89.9	7.7
2025-01-24 17:11:26.003531	122.1	42.0	-90.3	13.2
2025-01-24 17:11:28.325565	121.7	42.6	-90.4	9.6
2025-01-24 17:11:30.598837	121.2	43.2	-90.2	4.6
2025-01-24 17:11:32.904332	120.8	43.8	-90.5	4.0
2025-01-24 17:11:35.204001	120.3	44.4	-89.6	6.6
2025-01-24 17:11:37.512155	119.8	45.0	-90.1	6.7
2025-01-24 17:11:39.821728	119.2	45.7	-90.6	4.1
2025-01-24 17:11:42.137019	118.7	46.3	-90.3	3.9
2025-01-24 17:11:44.428643	118.1	46.9	-90.0	6.8
2025-01-24 17:11:46.733300	117.5	47.6	-90.4	10.2
2025-01-24 17:11:49.031143	116.9	48.2	-90.0	9.0
2025-01-24 17:11:51.339335	116.3	48.9	-89.7	2.7
2025-01-24 17:11:53.646342	115.6	49.5	-89.8	3.8
2025-01-24 17:11:55.950999	114.9	50.2	-90.2	3.4
2025-01-24 17:11:58.235151	114.2	50.9	-89.6	6.7
2025-01-24 17:12:00.531708	113.4	51.5	-90.6	5.9
2025-01-24 17:12:02.825432	112.6	52.2	-90.3	4.6
2025-01-24 17:12:05.131724	111.8	52.9	-90.0	8.4
2025-01-24 17:12:07.427909	110.9	53.6	-90.2	1.5
2025-01-24 17:12:09.724010	110.0	54.3	-90.5	5.1
2025-01-24 17:12:12.019655	109.0	55.0	-90.4	12.0
2025-01-24 17:12:14.316600	108.0	55.6	-90.3	4.0
2025-01-24 17:12:16.621819	106.9	56.3	-90.4	8.6
2025-01-24 17:12:18.924055	105.8	57.0	-90.3	4.3
2025-01-24 17:12:21.217095	104.6	57.7	-90.4	4.8
2025-01-24 17:12:23.511412	103.4	58.4	-90.3	8.9
2025-01-24 17:12:25.806076	102.1	59.0	-90.4	14.2
2025-01-24 17:12:28.107798	100.7	59.7	-89.9	16.9
2025-01-24 17:12:30.404907	99.2	60.4	-90.5	9.6
2025-01-24 17:12:32.709239	97.7	61.0	-90.4	5.6
2025-01-24 17:12:35.007029	96.1	61.6	-90.5	10.8
2025-01-24 17:12:37.314144	94.4	62.3	-90.2	6.4
2025-01-24 17:12:39.619348	92.6	62.9	-90.0	11.7
2025-01-24 17:12:41.920288	90.8	63.4	-90.3	10.5
2025-01-24 17:12:44.220078	88.8	64.0	-90.0	12.0
2025-01-24 17:12:46.519525	86.8	64.5	-90.6	7.3
2025-01-24 17:12:48.843626	84.6	65.1	-90.2	7.7
2025-01-24 17:12:51.145013	82.3	65.5	-90.2	5.0
2025-01-24 17:12:53.445715	80.0	66.0	-90.1	6.0
2025-01-24 17:12:55.739891	77.6	66.4	-90.1	4.2
2025-01-24 17:12:58.040904	75.0	66.7	-89.6	7.6
2025-01-24 17:13:00.335803	72.4	67.1	-89.8	7.9
2025-01-24 17:13:02.631045	69.7	67.4	-89.6	12.0
2025-01-24 17:13:04.931726	67.0	67.6	-90.1	8.9
2025-01-24 17:13:07.220621	64.2	67.8	-89.7	13.0
2025-01-24 17:13:09.520426	61.3	67.9	-90.3	7.5
2025-01-24 17:13:11.817583	58.4	68.0	-90.0	9.9
2025-01-24 17:13:14.125342	55.5	68.1	-90.0	11.5
2025-01-24 17:13:16.424758	52.6	68.0	-90.7	8.5
2025-01-24 17:13:18.720011	49.7	68.0	-90.7	5.0
2025-01-24 17:13:21.016944	46.9	67.8	-90.4	9.7
2025-01-24 17:13:23.317688	44.0	67.7	-90.6	4.6
2025-01-24 17:13:25.612164	41.3	67.5	-90.6	6.7
2025-01-24 17:13:27.906259	38.5	67.2	-90.6	7.7
2025-01-24 17:13:30.198152	35.9	66.9	-90.4	5.1
2025-01-24 17:13:32.439264	33.4	66.5	-90.2	6.6
2025-01-24 17:13:34.680380	31.0	66.2	-89.6	7.2
2025-01-24 17:13:36.922108	28.7	65.7	-89.2	8.1
2025-01-24 17:13:39.166185	26.5	65.3	-89.1	6.6
2025-01-24 17:13:41.446615	24.3	64.8	-90.0	7.5
2025-01-24 17:13:43.750984	22.2	64.3	-90.5	3.4
2025-01-24 17:13:46.045822	20.2	63.7	-89.7	8.1
2025-01-24 17:13:48.353113	18.3	63.2	-90.2	6.0
2025-01-24 17:13:50.667676	16.4	62.6	-90.0	7.6
2025-01-24 17:13:52.973455	14.7	62.0	-90.2	9.9
2025-01-24 17:13:55.276787	13.1	61.3	-90.0	7.4
2025-01-24 17:13:57.587058	11.5	60.7	-90.4	8.5
2025-01-24 17:13:59.889767	10.0	60.1	-90.4	8.3
2025-01-24 17:14:02.192028	8.6	59.4	-90.3	5.4
2025-01-24 17:14:04.497562	7.3	58.7	-89.9	9.9
2025-01-24 17:14:06.808195	6.0	58.1	-90.6	5.5
2025-01-24 17:14:09.104663	4.8	57.4	-89.8	6.1
2025-01-24 17:14:11.403605	3.6	56.7	-89.9	7.1
2025-01-24 17:14:13.709756	2.5	56.0	-90.2	5.8
2025-01-24 17:14:16.005807	1.5	55.3	-90.4	5.5
2025-01-24 17:14:18.301937	0.5	54.6	-89.9	7.1
2025-01-24 17:14:20.599714	359.5	54.0	-90.4	12.2
2025-01-24 17:14:22.914381	358.6	53.3	-90.0	12.9
2025-01-24 17:14:25.219769	357.8	52.6	-90.2	12.8
2025-01-24 17:14:27.518826	357.0	51.9	-90.5	13.3
2025-01-24 17:14:29.813800	356.2	51.2	-90.5	14.1
2025-01-24 17:14:32.106797	355.4	50.6	-90.1	7.8
2025-01-24 17:14:34.413196	354.7	49.9	-90.3	9.5
2025-01-24 17:14:36.717674	354.0	49.2	-90.2	8.8
2025-01-24 17:14:39.020964	353.4	48.6	-90.5	8.2
2025-01-24 17:14:41.325582	352.7	47.9	-90.3	5.2
2025-01-24 17:14:43.629074	352.1	47.3	-90.3	9.9
2025-01-24 17:14:45.928323	351.6	46.7	-90.2	8.4
2025-01-24 17:14:48.229093	351.0	46.0	-90.0	8.9
2025-01-24 17:14:50.527755	350.5	45.4	-90.7	15.5
2025-01-24 17:14:52.828097	350.0	44.8	-90.6	18.3
2025-01-24 17:14:55.138452	349.5	44.2	-89.8	17.8
2025-01-24 17:14:57.429392	349.0	43.6	-90.2	17.1
2025-01-24 17:14:59.725420	348.5	43.0	-90.1	11.7
2025-01-24 17:15:02.019811	348.1	42.4	-90.0	10.0
2025-01-24 17:15:04.322985	347.7	41.8	-89.9	4.9
2025-01-24 17:15:06.621930	347.3	41.2	-90.5	9.6
2025-01-24 17:15:08.924283	346.9	40.7	-89.9	6.1
2025-01-24 17:15:11.229720	346.5	40.1	-90.3	7.8
2025-01-24 17:15:13.531839	346.1	39.6	-90.5	14.2
2025-01-24 17:15:15.830119	345.8	39.0	-90.1	14.9
2025-01-24 17:15:18.139185	345.4	38.5	-90.3	12.9
2025-01-24 17:15:20.435544	345.1	38.0	-90.3	10.9
2025-01-24 17:15:22.742032	344.8	37.4	-90.3	4.0
2025-01-24 17:15:25.038230	344.5	36.9	-90.3	6.8
2025-01-24 17:15:27.339064	344.2	36.4	-90.4	4.9
2025-01-24 17:15:29.648271	343.9	35.9	-89.6	5.9
2025-01-24 17:15:31.944099	343.6	35.4	-90.1	8.7
2025-01-24 17:15:34.247431	343.3	34.9	-89.6	12.2
2025-01-24 17:15:36.540913	343.1	34.4	-90.4	8.0
2025-01-24 17:15:38.837049	342.8	34.0	-90.2	6.5
2025-01-24 17:15:41.140162	342.6	33.5	-90.6	8.3
2025-01-24 17:15:43.448386	342.3	33.0	-90.6	4.5
2025-01-24 17:15:45.748539	342.1	32.6	-90.3	4.3
2025-01-24 17:15:48.070856	341.9	32.1	-90.7	8.2
2025-01-24 17:15:50.380542	341.6	31.7	-90.9	6.1
2025-01-24 17:15:52.681350	341.4	31.2	-90.8	8.5
2025-01-24 17:15:54.988595	341.2	30.8	-90.9	10.4
2025-01-24 17:15:57.280887	341.0	30.4	-90.8	6.1
2025-01-24 17:15:59.583460	340.8	30.0	-90.8	7.2
2025-01-24 17:16:01.892453	340.6	29.6	-91.0	6.3
2025-01-24 17:16:04.198267	340.4	29.1	-90.5	7.1
2025-01-24 17:16:06.504955	340.2	28.7	-90.4	10.5
2025-01-24 17:16:08.802329	340.1	28.3	-90.4	8.5
2025-01-24 17:16:11.112613	339.9	28.0	-90.5	3.7
2025-01-24 17:16:13.416743	339.7	27.6	-90.5	2.0
2025-01-24 17:16:15.723578	339.5	27.2	-90.8	3.7
2025-01-24 17:16:18.039131	339.4	26.8	-90.9	3.8
2025-01-24 17:16:20.353397	339.2	26.4	-90.7	7.1
2025-01-24 17:16:22.657010	339.1	26.1	-90.2	6.6
2025-01-24 17:16:24.955851	338.9	25.7	-90.5	7.4
2025-01-24 17:16:27.251605	338.8	25.3	-90.3	2.0
2025-01-24 17:16:29.555290	338.6	25.0	-90.5	4.4
2025-01-24 17:16:31.860019	338.5	24.6	-90.7	3.4
2025-01-24 17:16:34.167557	338.4	24.3	-89.2	3.4
2025-01-24 17:16:36.476179	338.2	24.0	-90.0	5.5
2025-01-24 17:16:38.786960	338.1	23.6	-90.2	6.6
2025-01-24 17:16:41.087586	338.0	23.3	-90.7	4.1
2025-01-24 17:16:43.403062	337.8	23.0	-90.2	4.0
2025-01-24 17:16:45.718061	337.7	22.6	-90.7	1.9
2025-01-24 17:16:48.016825	337.6	22.3	-90.6	5.3
2025-01-24 17:16:50.312191	337.5	22.0	-90.4	9.3
2025-01-24 17:16:52.606167	337.4	21.7	-90.3	7.5
2025-01-24 17:16:54.909379	337.3	21.4	-90.9	8.0
2025-01-24 17:16:57.212613	337.1	21.1	-90.5	3.9
2025-01-24 17:16:59.513323	337.0	20.8	-90.8	6.2
2025-01-24 17:17:01.803958	336.9	20.5	-90.4	3.6
2025-01-24 17:17:04.103190	336.8	20.2	-90.6	6.6
2025-01-24 17:17:06.398735	336.7	19.9	-90.4	5.3
2025-01-24 17:17:08.697101	336.6	19.6	-89.3	3.7
2025-01-24 17:17:10.992366	336.5	19.3	-89.4	3.0
2025-01-24 17:17:13.289996	336.4	19.0	-89.3	1.2
2025-01-24 17:17:15.591475	336.4	18.8	-89.9	3.7
2025-01-24 17:17:17.889920	336.3	18.5	-89.6	4.6
2025-01-24 17:17:20.188286	336.2	18.2	-90.5	4.6
2025-01-24 17:17:22.494955	336.1	17.9	-90.9	0.6
2025-01-24 17:17:24.793929	336.0	17.7	-90.5	2.1
2025-01-24 17:17:27.098434	335.9	17.4	-90.6	3.0
2025-01-24 17:17:29.401303	335.8	17.1	-90.3	0.4
2025-01-24 17:17:31.712178	335.8	16.9	-90.7	2.9
2025-01-24 17:17:34.010667	335.7	16.6	-90.5	1.5
2025-01-24 17:17:36.300993	335.6	16.4	-90.5	2.6
2025-01-24 17:17:38.593694	335.5	16.1	-90.8	2.1
2025-01-24 17:17:40.893563	335.4	15.9	-90.3	2.2
2025-01-24 17:17:43.199212	335.4	15.6	-90.3	3.2
2025-01-24 17:17:45.500858	335.3	15.4	-90.8	6.6
2025-01-24 17:17:47.810326	335.2	15.1	-90.6	5.9
2025-01-24 17:17:50.109312	335.2	14.9	-90.4	4.8
2025-01-24 17:17:52.403983	335.1	14.7	-90.4	3.8
#Closed at: 2025-01-24 17:08:47.140700