passes_logs/2025/01/24/LEX_Murmansk/LEX_Murmansk__20250124_105322_NOAA_18_rec.log

#Pass ID: 20250124_105322_NOAA 18
#Satellite: NOAA 18
#Configuration: NOAA 18
#Start time: 2025-01-24 10:53:17.599788

#LorettStation: 1.0.0 05.05.2024
#Station: LEX_Murmansk
#Location: 33.156738 lon 68.926811 lat
#TLE: 1 28654U 05018A   25023.16165176  .00000420  00000+0  24625-3 0  9991
#TLE: 2 28654  98.8554 104.1346 0014722 156.5601 203.6245 14.13494494 14331

#Time	Az	El	Level	SNR
2025-01-24 10:53:29.908314	23.4	16.3	-89.8	4.1
2025-01-24 10:53:32.229668	23.3	16.5	-89.9	3.7
2025-01-24 10:53:34.554041	23.2	16.8	-89.8	4.4
2025-01-24 10:53:36.881929	23.0	17.1	-89.6	5.2
2025-01-24 10:53:39.210896	22.9	17.3	-89.5	5.3
2025-01-24 10:53:41.531696	22.8	17.6	-90.0	6.7
2025-01-24 10:53:43.877978	22.7	17.8	-89.9	5.3
2025-01-24 10:53:46.203204	22.5	18.1	-89.7	8.9
2025-01-24 10:53:48.535293	22.4	18.4	-90.4	4.6
2025-01-24 10:53:50.866688	22.3	18.7	-90.0	6.4
2025-01-24 10:53:53.193074	22.1	18.9	-89.7	6.4
2025-01-24 10:53:55.532210	22.0	19.2	-90.2	10.8
2025-01-24 10:53:57.859790	21.9	19.5	-90.3	7.2
2025-01-24 10:54:00.181119	21.7	19.8	-89.8	7.1
2025-01-24 10:54:02.506056	21.6	20.1	-88.2	6.4
2025-01-24 10:54:04.825527	21.4	20.4	-88.9	6.9
2025-01-24 10:54:07.157057	21.3	20.7	-88.7	7.3
2025-01-24 10:54:09.475915	21.1	21.0	-89.1	7.0
2025-01-24 10:54:11.790740	20.9	21.2	-89.7	9.9
2025-01-24 10:54:14.113307	20.8	21.6	-90.0	9.7
2025-01-24 10:54:16.463566	20.6	21.9	-90.0	7.8
2025-01-24 10:54:18.790049	20.4	22.2	-90.2	8.9
2025-01-24 10:54:21.117732	20.3	22.5	-89.6	7.7
2025-01-24 10:54:23.443341	20.1	22.8	-90.0	5.9
2025-01-24 10:54:25.784264	19.9	23.1	-90.3	7.4
2025-01-24 10:54:28.118795	19.7	23.5	-89.8	12.3
2025-01-24 10:54:30.436862	19.5	23.8	-90.1	8.1
2025-01-24 10:54:32.758786	19.3	24.1	-89.9	11.7
2025-01-24 10:54:35.088830	19.1	24.5	-88.3	7.9
2025-01-24 10:54:37.418945	18.9	24.8	-90.0	6.3
2025-01-24 10:54:39.747088	18.7	25.1	-89.2	8.7
2025-01-24 10:54:42.065524	18.5	25.5	-89.8	7.0
2025-01-24 10:54:44.381551	18.3	25.8	-89.8	12.1
2025-01-24 10:54:46.693016	18.1	26.2	-90.1	8.6
2025-01-24 10:54:49.019466	17.8	26.6	-90.0	7.4
2025-01-24 10:54:51.347642	17.6	26.9	-89.5	10.2
2025-01-24 10:54:53.650368	17.4	27.3	-90.0	10.2
2025-01-24 10:54:55.972246	17.1	27.7	-89.8	6.0
2025-01-24 10:54:58.289823	16.9	28.0	-89.6	6.6
2025-01-24 10:55:00.612613	16.6	28.4	-89.8	5.7
2025-01-24 10:55:02.932678	16.4	28.8	-89.6	8.1
2025-01-24 10:55:05.259141	16.1	29.2	-89.4	7.7
2025-01-24 10:55:07.585944	15.8	29.6	-90.5	8.9
2025-01-24 10:55:09.913436	15.5	30.0	-90.4	8.7
2025-01-24 10:55:12.230664	15.2	30.4	-90.2	8.6
2025-01-24 10:55:14.561233	14.9	30.8	-90.6	6.5
2025-01-24 10:55:16.889441	14.6	31.2	-90.1	6.6
2025-01-24 10:55:19.207190	14.3	31.7	-90.0	12.6
2025-01-24 10:55:21.539526	14.0	32.1	-90.0	8.3
2025-01-24 10:55:23.864959	13.7	32.5	-90.6	7.6
2025-01-24 10:55:26.192361	13.3	33.0	-90.1	13.5
2025-01-24 10:55:28.519306	13.0	33.4	-90.0	12.9
2025-01-24 10:55:30.844463	12.6	33.9	-90.0	10.2
2025-01-24 10:55:33.166820	12.2	34.3	-89.1	9.4
2025-01-24 10:55:35.493010	11.8	34.8	-90.5	8.6
2025-01-24 10:55:37.812512	11.4	35.2	-90.3	12.7
2025-01-24 10:55:40.150586	11.0	35.7	-90.1	14.8
2025-01-24 10:55:42.473810	10.6	36.2	-89.6	12.4
2025-01-24 10:55:44.810201	10.2	36.7	-90.6	13.0
2025-01-24 10:55:47.137309	9.7	37.1	-89.7	12.4
2025-01-24 10:55:49.473758	9.3	37.6	-90.0	11.0
2025-01-24 10:55:51.802608	8.8	38.1	-90.2	11.7
2025-01-24 10:55:54.130864	8.3	38.6	-90.2	14.8
2025-01-24 10:55:56.461793	7.8	39.1	-89.7	10.6
2025-01-24 10:55:58.783691	7.3	39.6	-90.1	16.4
2025-01-24 10:56:01.100407	6.8	40.2	-89.8	13.9
2025-01-24 10:56:03.428188	6.2	40.7	-90.2	13.7
2025-01-24 10:56:05.750583	5.6	41.2	-90.5	18.3
2025-01-24 10:56:08.078477	5.0	41.7	-90.3	15.7
2025-01-24 10:56:10.409263	4.4	42.3	-90.0	12.1
2025-01-24 10:56:12.731445	3.8	42.8	-90.3	16.0
2025-01-24 10:56:15.069016	3.1	43.3	-90.1	10.2
2025-01-24 10:56:17.393368	2.5	43.9	-90.3	13.3
2025-01-24 10:56:19.729938	1.8	44.4	-90.1	18.7
2025-01-24 10:56:22.060410	1.0	45.0	-89.8	13.1
2025-01-24 10:56:24.389743	0.3	45.5	-90.2	12.2
2025-01-24 10:56:26.715408	359.5	46.1	-90.2	17.7
2025-01-24 10:56:29.041910	358.7	46.6	-89.9	15.6
2025-01-24 10:56:31.366994	357.9	47.2	-90.1	11.9
2025-01-24 10:56:33.688003	357.0	47.7	-90.4	11.8
2025-01-24 10:56:36.018806	356.1	48.3	-90.7	7.8
2025-01-24 10:56:38.351419	355.2	48.8	-90.4	8.6
2025-01-24 10:56:40.669182	354.2	49.4	-90.4	13.9
2025-01-24 10:56:42.991379	353.2	49.9	-90.5	9.0
2025-01-24 10:56:45.317015	352.2	50.5	-90.1	13.3
2025-01-24 10:56:47.639577	351.1	51.0	-90.1	12.6
2025-01-24 10:56:49.965014	350.0	51.6	-90.2	13.9
2025-01-24 10:56:52.292670	348.8	52.1	-89.5	18.6
2025-01-24 10:56:54.615319	347.6	52.6	-90.1	14.5
2025-01-24 10:56:56.943717	346.4	53.1	-89.7	9.1
2025-01-24 10:56:59.224754	345.1	53.6	-89.8	8.6
2025-01-24 10:57:01.528916	343.8	54.1	-88.3	6.8
2025-01-24 10:57:03.858056	342.4	54.6	-88.8	10.5
2025-01-24 10:57:06.185543	341.0	55.1	-88.7	13.4
2025-01-24 10:57:08.509102	339.5	55.5	-89.9	7.5
2025-01-24 10:57:10.834045	338.0	56.0	-90.2	14.0
2025-01-24 10:57:13.157500	336.4	56.4	-89.5	18.1
2025-01-24 10:57:15.487811	334.8	56.8	-89.9	18.8
2025-01-24 10:57:17.820501	333.2	57.2	-89.8	15.0
2025-01-24 10:57:20.142436	331.4	57.6	-90.0	9.8
2025-01-24 10:57:22.474224	329.7	57.9	-90.1	12.0
2025-01-24 10:57:24.794739	327.9	58.2	-90.0	19.5
2025-01-24 10:57:27.127193	326.0	58.5	-89.9	17.3
2025-01-24 10:57:29.447920	324.1	58.8	-90.0	15.6
2025-01-24 10:57:31.774524	322.2	59.0	-90.2	16.2
2025-01-24 10:57:34.097607	320.3	59.3	-89.3	17.1
2025-01-24 10:57:36.428497	318.3	59.4	-89.8	18.9
2025-01-24 10:57:38.751218	316.3	59.6	-90.2	19.3
2025-01-24 10:57:41.068060	314.3	59.7	-89.9	13.9
2025-01-24 10:57:43.386397	312.2	59.8	-89.7	11.4
2025-01-24 10:57:45.721010	310.1	59.8	-90.2	16.1
2025-01-24 10:57:48.052355	308.1	59.8	-90.0	11.0
2025-01-24 10:57:50.374908	306.0	59.8	-90.2	11.4
2025-01-24 10:57:52.700346	304.0	59.8	-90.1	15.3
2025-01-24 10:57:55.021725	301.9	59.7	-90.4	9.8
2025-01-24 10:57:57.347671	299.9	59.6	-89.9	11.4
2025-01-24 10:57:59.680042	297.9	59.4	-90.2	13.7
2025-01-24 10:58:02.007061	295.9	59.2	-90.1	9.4
2025-01-24 10:58:04.332420	293.9	59.0	-89.8	12.5
2025-01-24 10:58:06.660302	292.0	58.8	-90.6	10.6
2025-01-24 10:58:08.992143	290.1	58.5	-90.5	12.7
2025-01-24 10:58:11.325908	288.3	58.2	-90.0	13.7
2025-01-24 10:58:13.647284	286.5	57.9	-90.3	16.2
2025-01-24 10:58:15.973673	284.7	57.5	-90.2	11.6
2025-01-24 10:58:18.304167	283.0	57.2	-89.9	12.4
2025-01-24 10:58:20.632704	281.3	56.8	-90.2	14.7
2025-01-24 10:58:22.959529	279.7	56.4	-90.0	12.2
2025-01-24 10:58:25.288168	278.2	55.9	-90.3	16.4
2025-01-24 10:58:27.612844	276.6	55.5	-90.7	14.0
2025-01-24 10:58:29.936711	275.2	55.0	-90.2	12.1
2025-01-24 10:58:32.272998	273.7	54.6	-90.3	15.5
2025-01-24 10:58:34.600833	272.4	54.1	-90.4	17.9
2025-01-24 10:58:36.918096	271.0	53.6	-90.7	15.2
2025-01-24 10:58:39.241236	269.7	53.1	-90.1	20.6
2025-01-24 10:58:41.573855	268.5	52.5	-90.2	12.3
2025-01-24 10:58:43.898336	267.3	52.0	-90.3	15.8
2025-01-24 10:58:46.215149	266.2	51.5	-89.8	21.0
2025-01-24 10:58:48.536393	265.0	50.9	-89.9	13.7
2025-01-24 10:58:50.858042	264.0	50.4	-89.8	14.2
2025-01-24 10:58:53.186100	262.9	49.8	-90.0	20.7
2025-01-24 10:58:55.522359	261.9	49.3	-89.9	15.3
2025-01-24 10:58:57.840555	261.0	48.7	-90.2	20.4
2025-01-24 10:59:00.169652	260.1	48.2	-89.9	19.9
2025-01-24 10:59:02.484876	259.2	47.6	-90.1	19.7
2025-01-24 10:59:04.803184	258.3	47.1	-89.9	21.9
2025-01-24 10:59:07.126558	257.5	46.5	-90.1	23.5
2025-01-24 10:59:09.454638	256.7	46.0	-90.3	23.5
2025-01-24 10:59:11.786987	255.9	45.4	-90.1	22.3
2025-01-24 10:59:14.112439	255.1	44.8	-89.9	20.6
2025-01-24 10:59:16.430254	254.4	44.3	-89.9	15.9
2025-01-24 10:59:18.759654	253.7	43.7	-90.3	19.4
2025-01-24 10:59:21.085780	253.0	43.2	-90.0	14.0
2025-01-24 10:59:23.410196	252.4	42.7	-89.9	11.8
2025-01-24 10:59:25.733719	251.8	42.1	-90.0	20.5
2025-01-24 10:59:28.065499	251.1	41.6	-90.0	14.2
2025-01-24 10:59:30.406130	250.5	41.1	-90.2	16.6
2025-01-24 10:59:32.723874	250.0	40.5	-90.0	18.2
2025-01-24 10:59:35.037609	249.4	40.0	-90.1	17.1
2025-01-24 10:59:37.370453	248.9	39.5	-90.1	16.5
2025-01-24 10:59:39.693418	248.4	39.0	-90.2	15.7
2025-01-24 10:59:41.995263	247.9	38.5	-90.3	8.6
2025-01-24 10:59:44.320392	247.4	38.0	-90.2	11.8
2025-01-24 10:59:46.650780	246.9	37.5	-90.6	13.1
2025-01-24 10:59:48.974221	246.5	37.0	-90.2	9.1
2025-01-24 10:59:51.295927	246.0	36.5	-90.0	13.0
2025-01-24 10:59:53.622495	245.6	36.0	-89.9	7.4
2025-01-24 10:59:55.945137	245.2	35.5	-90.4	5.6
2025-01-24 10:59:58.263500	244.8	35.1	-90.1	6.7
2025-01-24 11:00:00.567486	244.4	34.6	-90.5	5.7
2025-01-24 11:00:02.891690	244.0	34.2	-89.8	6.5
2025-01-24 11:00:05.206837	243.6	33.7	-88.9	6.6
2025-01-24 11:00:07.528095	243.2	33.3	-89.7	7.5
2025-01-24 11:00:09.850092	242.9	32.8	-90.3	9.7
2025-01-24 11:00:12.176525	242.6	32.4	-90.3	9.4
2025-01-24 11:00:14.497434	242.2	31.9	-90.7	14.2
2025-01-24 11:00:16.822687	241.9	31.5	-90.1	14.1
2025-01-24 11:00:19.144688	241.6	31.1	-90.1	11.0
2025-01-24 11:00:21.480732	241.3	30.7	-90.9	7.9
2025-01-24 11:00:23.809027	241.0	30.2	-90.6	10.0
2025-01-24 11:00:26.131079	240.7	29.8	-90.4	9.1
2025-01-24 11:00:28.448441	240.4	29.4	-90.9	9.7
2025-01-24 11:00:30.772060	240.1	29.0	-90.5	10.4
2025-01-24 11:00:33.102829	239.8	28.6	-90.4	12.1
2025-01-24 11:00:35.428790	239.6	28.3	-90.6	11.5
2025-01-24 11:00:37.762308	239.3	27.9	-90.4	13.4
2025-01-24 11:00:40.092505	239.1	27.5	-90.3	8.4
2025-01-24 11:00:42.419759	238.8	27.1	-90.2	9.9
2025-01-24 11:00:44.745082	238.6	26.7	-90.5	11.6
2025-01-24 11:00:47.067574	238.3	26.4	-90.1	11.9
2025-01-24 11:00:49.411838	238.1	26.0	-90.1	8.6
2025-01-24 11:00:51.737082	237.9	25.6	-90.4	7.7
2025-01-24 11:00:54.071776	237.7	25.3	-89.7	7.2
2025-01-24 11:00:56.386887	237.5	24.9	-90.4	6.5
2025-01-24 11:00:58.716638	237.3	24.6	-90.1	4.8
2025-01-24 11:01:01.040639	237.1	24.3	-90.4	5.7
2025-01-24 11:01:03.362225	236.9	23.9	-90.2	6.1
2025-01-24 11:01:05.683656	236.7	23.6	-90.4	8.8
2025-01-24 11:01:08.009621	236.5	23.3	-90.6	5.0
2025-01-24 11:01:10.340926	236.3	22.9	-90.0	6.2
2025-01-24 11:01:12.657292	236.1	22.6	-90.2	6.0
2025-01-24 11:01:14.965765	235.9	22.3	-90.7	11.3
2025-01-24 11:01:17.295178	235.7	22.0	-90.3	14.1
2025-01-24 11:01:19.621901	235.6	21.7	-90.2	13.0
2025-01-24 11:01:21.933998	235.4	21.4	-90.4	8.5
2025-01-24 11:01:24.261417	235.2	21.0	-89.8	9.7
2025-01-24 11:01:26.586784	235.1	20.7	-90.5	7.1
2025-01-24 11:01:28.920979	234.9	20.4	-90.9	9.7
2025-01-24 11:01:31.252042	234.8	20.1	-90.0	8.6
2025-01-24 11:01:33.584822	234.6	19.9	-90.8	8.1
2025-01-24 11:01:35.910850	234.5	19.6	-91.0	5.9
2025-01-24 11:01:38.240359	234.3	19.3	-89.9	4.5
2025-01-24 11:01:40.567937	234.2	19.0	-89.7	3.2
2025-01-24 11:01:42.895357	234.0	18.7	-89.7	5.5
2025-01-24 11:01:45.227133	233.9	18.4	-89.6	6.9
2025-01-24 11:01:47.552651	233.8	18.2	-89.0	6.3
2025-01-24 11:01:49.876369	233.6	17.9	-89.2	7.3
2025-01-24 11:01:52.206003	233.5	17.6	-89.4	7.3
2025-01-24 11:01:54.526148	233.4	17.4	-89.5	7.0
2025-01-24 11:01:56.854100	233.2	17.1	-90.0	7.9
2025-01-24 11:01:59.175354	233.1	16.8	-89.7	6.5
2025-01-24 11:02:01.496540	233.0	16.6	-89.7	4.7
2025-01-24 11:02:03.822189	232.9	16.3	-89.4	6.6
2025-01-24 11:02:06.145346	232.8	16.1	-89.8	3.9
2025-01-24 11:02:08.463470	232.7	15.8	-90.0	5.1
2025-01-24 11:02:10.774598	232.5	15.6	-90.4	5.3
2025-01-24 11:02:13.102146	232.4	15.3	-90.0	6.6
2025-01-24 11:02:15.424941	232.3	15.1	-90.7	6.0
2025-01-24 11:02:17.753901	232.2	14.8	-90.7	6.7
2025-01-24 11:02:20.077133	232.1	14.6	-90.4	5.2
#Closed at: 2025-01-24 10:53:22.696325