passes_logs/2025/01/24/LEX_Murmansk/LEX_Murmansk__20250124_073229_NOAA_18_rec.log

#Pass ID: 20250124_073229_NOAA 18
#Satellite: NOAA 18
#Configuration: NOAA 18
#Start time: 2025-01-24 07:32:24.873219

#LorettStation: 1.0.0 05.05.2024
#Station: LEX_Murmansk
#Location: 33.156738 lon 68.926811 lat
#TLE: 1 28654U 05018A   25023.16165176  .00000420  00000+0  24625-3 0  9991
#TLE: 2 28654  98.8554 104.1346 0014722 156.5601 203.6245 14.13494494 14331

#Time	Az	El	Level	SNR
2025-01-24 07:32:37.099482	45.9	15.7	-87.9	5.7
2025-01-24 07:32:38.263573	46.1	15.8	-88.0	6.2
2025-01-24 07:32:39.413896	46.3	15.9	-86.6	7.6
2025-01-24 07:32:40.569213	46.5	15.9	-87.8	5.0
2025-01-24 07:32:41.726732	46.7	16.0	-87.8	7.7
2025-01-24 07:32:42.877494	46.9	16.1	-86.8	5.8
2025-01-24 07:32:44.039293	47.1	16.1	-87.2	6.1
2025-01-24 07:32:45.189596	47.3	16.2	-87.7	6.3
2025-01-24 07:32:46.338290	47.5	16.3	-87.5	4.7
2025-01-24 07:32:47.495958	47.8	16.3	-87.5	5.9
2025-01-24 07:32:48.654121	48.0	16.4	-87.9	7.5
2025-01-24 07:32:49.810760	48.2	16.5	-87.0	4.9
2025-01-24 07:32:50.971256	48.4	16.5	-87.3	5.9
2025-01-24 07:32:52.121263	48.6	16.6	-86.6	4.1
2025-01-24 07:32:53.270785	48.8	16.7	-87.3	4.7
2025-01-24 07:32:54.414743	49.1	16.7	-85.5	5.2
2025-01-24 07:32:55.580767	49.3	16.8	-87.0	5.5
2025-01-24 07:32:56.739428	49.5	16.9	-88.3	7.0
2025-01-24 07:32:57.891636	49.7	16.9	-87.6	6.1
2025-01-24 07:32:59.043680	49.9	17.0	-88.1	4.6
2025-01-24 07:33:00.188935	50.2	17.0	-88.7	7.3
2025-01-24 07:33:01.341864	50.4	17.1	-88.1	6.0
2025-01-24 07:33:02.491680	50.6	17.2	-87.6	6.2
2025-01-24 07:33:03.638836	50.9	17.2	-88.7	4.4
2025-01-24 07:33:04.791450	51.1	17.3	-88.2	10.0
2025-01-24 07:33:05.951421	51.3	17.4	-88.5	8.2
2025-01-24 07:33:07.102043	51.5	17.4	-88.3	9.8
2025-01-24 07:33:08.260753	51.8	17.5	-88.7	11.0
2025-01-24 07:33:09.412147	52.0	17.5	-87.3	8.3
2025-01-24 07:33:10.564836	52.2	17.6	-88.3	7.6
2025-01-24 07:33:11.720517	52.5	17.7	-87.1	8.4
2025-01-24 07:33:12.867298	52.7	17.7	-87.9	9.1
2025-01-24 07:33:14.026222	52.9	17.8	-87.8	10.5
2025-01-24 07:33:15.173833	53.2	17.9	-88.5	13.6
2025-01-24 07:33:16.330084	53.4	17.9	-87.8	11.3
2025-01-24 07:33:17.480618	53.7	18.0	-87.0	8.0
2025-01-24 07:33:18.632012	53.9	18.0	-87.7	9.2
2025-01-24 07:33:19.786480	54.1	18.1	-88.5	7.2
2025-01-24 07:33:20.941471	54.4	18.1	-88.2	7.5
2025-01-24 07:33:22.093917	54.6	18.2	-87.1	6.8
2025-01-24 07:33:23.249403	54.9	18.3	-87.8	8.4
2025-01-24 07:33:24.405868	55.1	18.3	-87.2	7.1
2025-01-24 07:33:25.570236	55.4	18.4	-87.4	5.4
2025-01-24 07:33:26.726767	55.6	18.4	-87.8	12.6
2025-01-24 07:33:27.885131	55.8	18.5	-88.3	10.1
2025-01-24 07:33:29.035646	56.1	18.5	-87.5	5.4
2025-01-24 07:33:30.189966	56.3	18.6	-87.9	10.0
2025-01-24 07:33:31.344633	56.6	18.7	-87.4	12.0
2025-01-24 07:33:32.505105	56.8	18.7	-88.5	12.2
2025-01-24 07:33:33.646597	57.1	18.8	-86.8	10.3
2025-01-24 07:33:34.803836	57.3	18.8	-88.6	14.5
2025-01-24 07:33:35.952003	57.6	18.9	-87.9	9.8
2025-01-24 07:33:37.106985	57.9	18.9	-87.3	12.1
2025-01-24 07:33:38.268600	58.1	19.0	-87.7	11.3
2025-01-24 07:33:39.420062	58.4	19.0	-87.3	6.7
2025-01-24 07:33:40.575736	58.6	19.1	-88.5	6.2
2025-01-24 07:33:41.729973	58.9	19.1	-89.1	11.8
2025-01-24 07:33:42.877884	59.1	19.2	-87.1	11.6
2025-01-24 07:33:44.028844	59.4	19.2	-88.3	7.2
2025-01-24 07:33:45.184176	59.7	19.3	-88.3	7.3
2025-01-24 07:33:46.338258	59.9	19.3	-86.9	12.1
2025-01-24 07:33:47.498855	60.2	19.4	-88.7	12.8
2025-01-24 07:33:48.649499	60.4	19.4	-88.9	11.2
2025-01-24 07:33:49.807401	60.7	19.5	-88.5	9.4
2025-01-24 07:33:50.966716	61.0	19.5	-89.2	6.9
2025-01-24 07:33:52.120541	61.2	19.6	-87.3	8.8
2025-01-24 07:33:53.267781	61.5	19.6	-87.6	13.1
2025-01-24 07:33:54.425184	61.8	19.7	-87.7	7.5
2025-01-24 07:33:55.579111	62.0	19.7	-86.8	7.6
2025-01-24 07:33:56.734652	62.3	19.8	-87.9	9.9
2025-01-24 07:33:57.883269	62.6	19.8	-87.9	6.2
2025-01-24 07:33:59.039145	62.8	19.8	-88.3	6.5
2025-01-24 07:34:00.189605	63.1	19.9	-88.4	9.1
2025-01-24 07:34:01.336253	63.4	19.9	-88.3	13.1
2025-01-24 07:34:02.497654	63.6	20.0	-88.3	12.1
2025-01-24 07:34:03.653985	63.9	20.0	-86.9	12.5
2025-01-24 07:34:04.802647	64.2	20.1	-88.7	13.6
2025-01-24 07:34:05.953263	64.5	20.1	-87.8	15.9
2025-01-24 07:34:07.111396	64.7	20.1	-87.8	11.6
2025-01-24 07:34:08.258073	65.0	20.2	-87.7	12.6
2025-01-24 07:34:09.408607	65.3	20.2	-88.7	10.2
2025-01-24 07:34:10.572832	65.6	20.2	-88.2	7.5
2025-01-24 07:34:11.728016	65.8	20.3	-88.0	16.2
2025-01-24 07:34:12.882624	66.1	20.3	-87.7	8.9
2025-01-24 07:34:14.035625	66.4	20.4	-88.0	8.1
2025-01-24 07:34:15.200547	66.7	20.4	-87.4	9.6
2025-01-24 07:34:16.355885	67.0	20.4	-86.6	8.8
2025-01-24 07:34:17.512613	67.2	20.5	-87.8	10.1
2025-01-24 07:34:18.662150	67.5	20.5	-87.7	15.3
2025-01-24 07:34:19.819683	67.8	20.5	-88.3	14.9
2025-01-24 07:34:20.965958	68.1	20.6	-87.8	13.2
2025-01-24 07:34:22.121789	68.4	20.6	-87.3	11.9
2025-01-24 07:34:23.269225	68.7	20.6	-86.6	10.2
2025-01-24 07:34:24.429540	68.9	20.7	-87.6	16.9
2025-01-24 07:34:25.581335	69.2	20.7	-86.5	10.5
2025-01-24 07:34:26.746236	69.5	20.7	-87.7	15.8
2025-01-24 07:34:27.907869	69.8	20.7	-87.8	8.3
2025-01-24 07:34:29.065478	70.1	20.8	-87.7	10.6
2025-01-24 07:34:30.216414	70.4	20.8	-88.3	15.0
2025-01-24 07:34:31.364623	70.7	20.8	-87.9	9.3
2025-01-24 07:34:32.512658	70.9	20.9	-88.3	8.3
2025-01-24 07:34:33.660723	71.2	20.9	-87.2	6.5
2025-01-24 07:34:34.813330	71.5	20.9	-88.2	13.8
2025-01-24 07:34:35.972403	71.8	20.9	-87.8	7.5
2025-01-24 07:34:37.126697	72.1	20.9	-87.5	10.8
2025-01-24 07:34:38.283465	72.4	21.0	-88.2	8.9
2025-01-24 07:34:39.439911	72.7	21.0	-88.3	7.1
2025-01-24 07:34:40.592344	73.0	21.0	-88.3	10.8
2025-01-24 07:34:41.752583	73.3	21.0	-88.0	11.2
2025-01-24 07:34:42.908209	73.6	21.0	-86.5	8.5
2025-01-24 07:34:44.063295	73.8	21.1	-88.0	8.1
2025-01-24 07:34:45.207454	74.1	21.1	-87.4	8.5
2025-01-24 07:34:46.365115	74.4	21.1	-87.4	12.1
2025-01-24 07:34:47.520020	74.7	21.1	-88.4	16.1
2025-01-24 07:34:48.677179	75.0	21.1	-87.6	11.2
2025-01-24 07:34:49.828158	75.3	21.1	-87.6	10.3
2025-01-24 07:34:50.984036	75.6	21.2	-87.8	8.3
2025-01-24 07:34:52.140480	75.9	21.2	-87.3	11.7
2025-01-24 07:34:53.294545	76.2	21.2	-88.2	13.8
2025-01-24 07:34:54.444799	76.5	21.2	-88.0	9.6
2025-01-24 07:34:55.598177	76.8	21.2	-87.2	9.7
2025-01-24 07:34:56.755410	77.1	21.2	-88.1	14.0
2025-01-24 07:34:57.907711	77.4	21.2	-88.0	9.1
2025-01-24 07:34:59.062059	77.7	21.2	-87.9	7.8
2025-01-24 07:35:00.216463	78.0	21.2	-88.0	6.7
2025-01-24 07:35:01.367633	78.3	21.3	-87.9	7.8
2025-01-24 07:35:02.517235	78.5	21.3	-87.9	8.7
2025-01-24 07:35:03.665398	78.8	21.3	-87.0	5.7
2025-01-24 07:35:04.821039	79.1	21.3	-88.6	8.4
2025-01-24 07:35:05.971899	79.4	21.3	-88.5	7.2
2025-01-24 07:35:07.121588	79.7	21.3	-86.9	8.0
2025-01-24 07:35:08.277259	80.0	21.3	-88.3	11.9
2025-01-24 07:35:09.437168	80.3	21.3	-88.5	9.9
2025-01-24 07:35:10.591617	80.6	21.3	-87.4	5.3
2025-01-24 07:35:11.748654	80.9	21.3	-88.7	7.4
2025-01-24 07:35:12.893957	81.2	21.3	-88.0	6.3
2025-01-24 07:35:14.051435	81.5	21.3	-88.2	8.0
2025-01-24 07:35:15.210545	81.8	21.3	-88.8	14.3
2025-01-24 07:35:16.362473	82.1	21.3	-87.6	10.8
2025-01-24 07:35:17.517155	82.4	21.3	-89.0	12.9
2025-01-24 07:35:18.668783	82.7	21.3	-88.8	14.6
2025-01-24 07:35:19.830597	83.0	21.3	-87.0	3.6
2025-01-24 07:35:20.987463	83.3	21.3	-88.5	6.3
2025-01-24 07:35:22.147060	83.6	21.3	-89.0	9.3
2025-01-24 07:35:23.310922	83.9	21.3	-88.8	7.5
2025-01-24 07:35:24.469144	84.2	21.2	-88.4	13.7
2025-01-24 07:35:25.626494	84.5	21.2	-87.2	10.2
2025-01-24 07:35:26.777882	84.8	21.2	-88.6	9.9
2025-01-24 07:35:27.927230	85.1	21.2	-88.1	9.0
2025-01-24 07:35:29.090145	85.4	21.2	-88.6	12.3
2025-01-24 07:35:30.235873	85.7	21.2	-88.2	6.9
2025-01-24 07:35:31.389990	85.9	21.2	-88.6	8.6
2025-01-24 07:35:32.545310	86.2	21.2	-88.5	6.9
2025-01-24 07:35:33.699140	86.5	21.2	-88.3	14.2
2025-01-24 07:35:34.854815	86.8	21.1	-89.0	8.9
2025-01-24 07:35:36.015150	87.1	21.1	-88.5	10.7
2025-01-24 07:35:37.173073	87.4	21.1	-87.6	10.8
2025-01-24 07:35:38.322762	87.7	21.1	-88.8	7.6
2025-01-24 07:35:39.481542	88.0	21.1	-88.4	3.4
2025-01-24 07:35:40.631535	88.3	21.1	-88.5	12.2
2025-01-24 07:35:41.786430	88.6	21.0	-88.4	9.5
2025-01-24 07:35:42.942209	88.9	21.0	-88.0	7.2
2025-01-24 07:35:44.099887	89.2	21.0	-88.0	8.2
2025-01-24 07:35:45.256202	89.5	21.0	-88.1	10.4
2025-01-24 07:35:46.410113	89.8	20.9	-87.7	7.5
2025-01-24 07:35:47.563219	90.0	20.9	-88.8	5.5
2025-01-24 07:35:48.717690	90.3	20.9	-88.8	7.2
2025-01-24 07:35:49.875619	90.6	20.9	-86.6	7.4
2025-01-24 07:35:51.030208	90.9	20.9	-88.1	5.8
2025-01-24 07:35:52.185499	91.2	20.8	-88.2	12.7
2025-01-24 07:35:53.340955	91.5	20.8	-88.0	9.6
2025-01-24 07:35:54.496065	91.8	20.8	-88.3	3.2
2025-01-24 07:35:55.653416	92.1	20.7	-87.7	6.4
2025-01-24 07:35:56.811120	92.4	20.7	-88.7	8.2
2025-01-24 07:35:57.967527	92.6	20.7	-87.1	6.1
2025-01-24 07:35:59.126677	92.9	20.7	-86.7	6.9
2025-01-24 07:36:00.281657	93.2	20.6	-87.6	7.1
2025-01-24 07:36:01.433478	93.5	20.6	-87.0	4.1
2025-01-24 07:36:02.586585	93.8	20.6	-88.0	4.7
2025-01-24 07:36:03.744357	94.1	20.5	-88.3	3.6
2025-01-24 07:36:04.904933	94.4	20.5	-88.2	5.5
2025-01-24 07:36:06.052900	94.6	20.5	-87.8	4.8
2025-01-24 07:36:07.211228	94.9	20.4	-87.8	6.8
2025-01-24 07:36:08.361331	95.2	20.4	-88.8	5.0
2025-01-24 07:36:09.515265	95.5	20.4	-89.4	5.9
2025-01-24 07:36:10.668046	95.8	20.3	-88.2	6.8
2025-01-24 07:36:11.822860	96.0	20.3	-89.2	6.2
2025-01-24 07:36:12.972151	96.3	20.3	-90.0	5.0
2025-01-24 07:36:14.122025	96.6	20.2	-87.5	5.8
2025-01-24 07:36:15.273857	96.9	20.2	-88.5	5.4
2025-01-24 07:36:16.427045	97.1	20.1	-88.7	4.9
2025-01-24 07:36:17.577385	97.4	20.1	-89.0	4.6
2025-01-24 07:36:18.737328	97.7	20.1	-89.1	6.7
2025-01-24 07:36:19.891616	98.0	20.0	-88.9	5.7
2025-01-24 07:36:21.058160	98.2	20.0	-88.7	5.5
2025-01-24 07:36:22.204731	98.5	19.9	-88.1	7.3
2025-01-24 07:36:23.353112	98.8	19.9	-88.4	7.5
2025-01-24 07:36:24.498742	99.1	19.8	-89.1	5.5
2025-01-24 07:36:25.654416	99.3	19.8	-88.2	5.1
2025-01-24 07:36:26.809615	99.6	19.8	-89.4	8.5
2025-01-24 07:36:27.963979	99.9	19.7	-89.0	6.4
2025-01-24 07:36:29.120647	100.1	19.7	-88.2	5.2
2025-01-24 07:36:30.278949	100.4	19.6	-88.7	7.6
2025-01-24 07:36:31.432338	100.7	19.6	-88.8	4.7
2025-01-24 07:36:32.586290	100.9	19.5	-88.5	5.2
2025-01-24 07:36:33.735000	101.2	19.5	-88.8	7.0
2025-01-24 07:36:34.887496	101.5	19.4	-88.7	8.5
2025-01-24 07:36:36.037824	101.7	19.4	-89.7	5.3
2025-01-24 07:36:37.192129	102.0	19.3	-89.4	11.6
2025-01-24 07:36:38.339015	102.3	19.3	-89.5	8.1
2025-01-24 07:36:39.488348	102.5	19.2	-89.0	7.9
2025-01-24 07:36:40.643855	102.8	19.2	-89.1	9.4
2025-01-24 07:36:41.797444	103.0	19.1	-88.6	9.2
2025-01-24 07:36:42.955837	103.3	19.1	-89.0	6.7
2025-01-24 07:36:44.111319	103.5	19.0	-88.7	8.1
2025-01-24 07:36:45.267779	103.8	19.0	-88.8	8.8
2025-01-24 07:36:46.418794	104.1	18.9	-88.6	7.2
2025-01-24 07:36:47.573012	104.3	18.9	-88.8	6.1
2025-01-24 07:36:48.725779	104.6	18.8	-88.7	7.7
2025-01-24 07:36:49.891263	104.8	18.8	-88.0	8.2
2025-01-24 07:36:51.046510	105.1	18.7	-89.8	6.6
2025-01-24 07:36:52.208096	105.3	18.7	-89.5	10.3
2025-01-24 07:36:53.366239	105.6	18.6	-89.7	7.2
2025-01-24 07:36:54.521434	105.8	18.5	-90.0	7.3
2025-01-24 07:36:55.671393	106.1	18.5	-89.9	8.5
2025-01-24 07:36:56.824427	106.3	18.4	-89.6	7.8
2025-01-24 07:36:57.971891	106.6	18.4	-89.7	7.5
2025-01-24 07:36:59.125800	106.8	18.3	-89.7	12.6
2025-01-24 07:37:00.271935	107.1	18.3	-89.7	12.2
2025-01-24 07:37:01.424754	107.3	18.2	-90.0	7.9
2025-01-24 07:37:02.586048	107.6	18.1	-90.2	11.0
2025-01-24 07:37:03.737526	107.8	18.1	-89.8	14.6
2025-01-24 07:37:04.885345	108.0	18.0	-89.9	11.5
2025-01-24 07:37:06.031787	108.3	18.0	-89.9	12.0
2025-01-24 07:37:07.200526	108.5	17.9	-89.7	11.4
2025-01-24 07:37:08.358311	108.8	17.8	-89.8	14.1
2025-01-24 07:37:09.512758	109.0	17.8	-90.0	12.1
2025-01-24 07:37:10.660038	109.2	17.7	-90.2	13.0
2025-01-24 07:37:11.814730	109.5	17.7	-89.6	11.5
2025-01-24 07:37:12.968111	109.7	17.6	-89.9	9.6
2025-01-24 07:37:14.112509	109.9	17.5	-90.2	11.3
2025-01-24 07:37:15.259163	110.2	17.5	-89.8	11.5
2025-01-24 07:37:16.411587	110.4	17.4	-89.9	12.8
2025-01-24 07:37:17.568816	110.6	17.3	-89.9	9.0
2025-01-24 07:37:18.719545	110.9	17.3	-90.0	8.2
2025-01-24 07:37:19.871144	111.1	17.2	-90.1	7.1
2025-01-24 07:37:21.006966	111.3	17.2	-89.5	8.1
2025-01-24 07:37:22.155604	111.6	17.1	-89.8	7.1
2025-01-24 07:37:23.311705	111.8	17.0	-89.9	9.0
2025-01-24 07:37:24.457544	112.0	17.0	-90.1	6.2
2025-01-24 07:37:25.615929	112.2	16.9	-90.2	8.8
2025-01-24 07:37:26.774532	112.5	16.8	-90.4	7.4
2025-01-24 07:37:27.928338	112.7	16.8	-90.2	6.3
2025-01-24 07:37:29.078383	112.9	16.7	-89.7	6.8
2025-01-24 07:37:30.227803	113.1	16.6	-90.3	5.6
2025-01-24 07:37:31.376449	113.3	16.6	-90.0	7.5
2025-01-24 07:37:32.543295	113.6	16.5	-90.1	4.4
2025-01-24 07:37:33.700621	113.8	16.4	-90.0	9.9
2025-01-24 07:37:34.860203	114.0	16.4	-90.0	6.6
2025-01-24 07:37:36.023598	114.2	16.3	-90.2	4.6
2025-01-24 07:37:37.187533	114.4	16.2	-89.9	8.2
2025-01-24 07:37:38.340744	114.7	16.2	-89.8	7.6
2025-01-24 07:37:39.500829	114.9	16.1	-89.9	7.1
2025-01-24 07:37:40.653601	115.1	16.0	-89.9	8.8
2025-01-24 07:37:41.800066	115.3	16.0	-89.4	7.6
2025-01-24 07:37:42.960302	115.5	15.9	-89.3	5.7
2025-01-24 07:37:44.112186	115.7	15.8	-89.8	6.0
2025-01-24 07:37:45.268244	115.9	15.8	-90.0	7.0
2025-01-24 07:37:46.416142	116.1	15.7	-90.0	6.0
2025-01-24 07:37:47.574568	116.3	15.6	-89.8	9.3
2025-01-24 07:37:48.727974	116.6	15.6	-90.1	8.6
2025-01-24 07:37:49.899207	116.8	15.5	-90.1	8.4
2025-01-24 07:37:51.056240	117.0	15.4	-89.2	8.2
2025-01-24 07:37:52.203578	117.2	15.3	-89.0	9.0
2025-01-24 07:37:53.361954	117.4	15.3	-89.3	6.2
2025-01-24 07:37:54.507691	117.6	15.2	-88.6	9.3
2025-01-24 07:37:55.664471	117.8	15.1	-88.8	6.4
2025-01-24 07:37:56.819518	118.0	15.1	-88.8	7.2
2025-01-24 07:37:57.969751	118.2	15.0	-89.3	5.6
2025-01-24 07:37:59.120953	118.4	14.9	-89.8	5.1
2025-01-24 07:38:00.267057	118.6	14.9	-89.6	7.6
2025-01-24 07:38:01.416169	118.8	14.8	-89.7	7.1
2025-01-24 07:38:02.564873	119.0	14.7	-90.2	5.8
2025-01-24 07:38:03.735315	119.2	14.7	-90.1	6.0
#Closed at: 2025-01-24 07:32:29.923266