passes_logs/2025/01/24/LEX_Murmansk/LEX_Murmansk__20250124_184953_NOAA_19_rec.log

#Pass ID: 20250124_184953_NOAA 19
#Satellite: NOAA 19
#Configuration: NOAA 19
#Start time: 2025-01-24 18:49:48.764078

#LorettStation: 1.0.0 05.05.2024
#Station: LEX_Murmansk
#Location: 33.156738 lon 68.926811 lat
#TLE: 1 33591U 09005A   25024.13697735  .00000399  00000+0  23694-3 0  9996
#TLE: 2 33591  99.0181  87.9693 0014137  32.7659 327.4387 14.13267470822833

#Time	Az	El	Level	SNR
2025-01-24 18:50:00.906082	187.9	16.2	-90.2	4.1
2025-01-24 18:50:03.228471	188.1	16.5	-89.9	2.0
2025-01-24 18:50:05.558959	188.3	16.7	-89.9	3.5
2025-01-24 18:50:07.879961	188.5	17.0	-90.3	2.3
2025-01-24 18:50:10.203623	188.7	17.2	-90.3	3.6
2025-01-24 18:50:12.529175	188.9	17.5	-90.5	4.0
2025-01-24 18:50:14.858408	189.1	17.7	-90.5	2.9
2025-01-24 18:50:17.178344	189.3	18.0	-90.5	3.9
2025-01-24 18:50:19.491258	189.5	18.2	-89.8	3.2
2025-01-24 18:50:21.824599	189.7	18.5	-90.8	2.4
2025-01-24 18:50:24.156075	189.9	18.7	-90.6	4.7
2025-01-24 18:50:26.483364	190.2	19.0	-90.4	6.8
2025-01-24 18:50:28.807874	190.4	19.3	-90.4	5.8
2025-01-24 18:50:31.144252	190.6	19.6	-90.6	10.4
2025-01-24 18:50:33.461765	190.9	19.8	-90.7	10.4
2025-01-24 18:50:35.790991	191.1	20.1	-90.6	5.6
2025-01-24 18:50:38.122108	191.4	20.4	-90.7	3.2
2025-01-24 18:50:40.445537	191.6	20.7	-90.8	4.7
2025-01-24 18:50:42.766416	191.9	20.9	-90.9	6.2
2025-01-24 18:50:45.082636	192.1	21.2	-91.0	4.2
2025-01-24 18:50:47.409049	192.4	21.5	-90.8	5.5
2025-01-24 18:50:49.732294	192.7	21.8	-90.7	9.5
2025-01-24 18:50:52.059171	192.9	22.1	-90.2	8.8
2025-01-24 18:50:54.379937	193.2	22.4	-90.7	2.7
2025-01-24 18:50:56.635942	193.5	22.7	-90.4	2.4
2025-01-24 18:50:58.878746	193.8	23.0	-90.9	6.3
2025-01-24 18:51:01.120848	194.0	23.3	-90.6	8.6
2025-01-24 18:51:03.362343	194.3	23.5	-90.3	5.2
2025-01-24 18:51:05.649526	194.6	23.9	-90.6	9.1
2025-01-24 18:51:07.966644	194.9	24.2	-89.9	10.5
2025-01-24 18:51:10.281696	195.3	24.5	-89.5	4.6
2025-01-24 18:51:12.612477	195.6	24.8	-89.4	1.4
2025-01-24 18:51:14.942553	195.9	25.1	-90.3	3.9
2025-01-24 18:51:17.261867	196.2	25.4	-90.1	7.2
2025-01-24 18:51:19.539004	196.6	25.8	-90.6	6.1
2025-01-24 18:51:21.854162	196.9	26.1	-90.4	5.3
2025-01-24 18:51:24.163528	197.3	26.4	-90.2	4.8
2025-01-24 18:51:26.484028	197.6	26.7	-90.4	9.6
2025-01-24 18:51:28.801116	198.0	27.1	-90.7	3.7
2025-01-24 18:51:31.129368	198.4	27.4	-90.5	3.8
2025-01-24 18:51:33.436588	198.8	27.8	-90.5	3.1
2025-01-24 18:51:35.751679	199.2	28.1	-90.8	4.3
2025-01-24 18:51:38.028420	199.6	28.4	-90.9	6.0
2025-01-24 18:51:40.317591	200.0	28.8	-90.5	2.9
2025-01-24 18:51:42.572104	200.4	29.1	-90.8	3.8
2025-01-24 18:51:44.875183	200.8	29.5	-90.7	5.2
2025-01-24 18:51:47.168220	201.2	29.8	-91.0	2.9
2025-01-24 18:51:49.479327	201.7	30.2	-90.8	1.5
2025-01-24 18:51:51.803819	202.1	30.6	-91.0	2.6
2025-01-24 18:51:54.127497	202.6	30.9	-90.7	3.6
2025-01-24 18:51:56.463327	203.1	31.3	-91.1	3.7
2025-01-24 18:51:58.793258	203.6	31.7	-91.0	3.1
2025-01-24 18:52:01.109339	204.1	32.1	-90.8	1.9
2025-01-24 18:52:03.419278	204.6	32.4	-91.0	3.2
2025-01-24 18:52:05.747026	205.1	32.8	-90.4	5.8
2025-01-24 18:52:08.072170	205.6	33.2	-90.9	3.5
2025-01-24 18:52:10.392859	206.2	33.6	-90.6	2.2
2025-01-24 18:52:12.719998	206.8	34.0	-90.9	2.3
2025-01-24 18:52:15.036901	207.3	34.4	-90.9	4.0
2025-01-24 18:52:17.355554	207.9	34.7	-90.7	9.2
2025-01-24 18:52:19.678332	208.5	35.1	-91.3	5.6
2025-01-24 18:52:21.997293	209.1	35.5	-91.3	4.1
2025-01-24 18:52:24.307299	209.8	35.9	-90.7	5.0
2025-01-24 18:52:26.608462	210.4	36.3	-90.7	8.3
2025-01-24 18:52:28.849927	211.0	36.7	-90.7	5.2
2025-01-24 18:52:31.095696	211.7	37.1	-90.2	3.3
2025-01-24 18:52:33.337850	212.3	37.5	-90.2	2.4
2025-01-24 18:52:35.579178	213.0	37.8	-90.8	3.9
2025-01-24 18:52:37.854436	213.7	38.2	-90.8	8.5
2025-01-24 18:52:40.156595	214.5	38.6	-90.7	9.8
2025-01-24 18:52:42.464418	215.2	39.0	-90.4	6.9
2025-01-24 18:52:44.781156	216.0	39.4	-90.5	4.1
2025-01-24 18:52:47.106313	216.8	39.8	-90.2	5.3
2025-01-24 18:52:49.383973	217.6	40.2	-90.2	2.8
2025-01-24 18:52:51.683245	218.4	40.5	-90.4	4.4
2025-01-24 18:52:53.990825	219.3	40.9	-90.1	3.4
2025-01-24 18:52:56.300109	220.1	41.3	-90.2	2.5
2025-01-24 18:52:58.613819	221.0	41.7	-90.1	3.2
2025-01-24 18:53:00.925049	221.9	42.1	-90.7	3.8
2025-01-24 18:53:03.259359	222.8	42.4	-90.3	4.7
2025-01-24 18:53:05.576377	223.8	42.8	-90.2	9.0
2025-01-24 18:53:07.892717	224.8	43.2	-90.2	7.7
2025-01-24 18:53:10.215053	225.8	43.5	-89.7	2.9
2025-01-24 18:53:12.534444	226.8	43.8	-90.0	5.9
2025-01-24 18:53:14.861946	227.8	44.2	-89.8	3.1
2025-01-24 18:53:17.195325	228.9	44.5	-89.9	4.8
2025-01-24 18:53:19.511963	230.0	44.8	-90.0	4.5
2025-01-24 18:53:21.830425	231.1	45.2	-90.5	1.5
2025-01-24 18:53:24.148184	232.2	45.5	-90.5	3.9
2025-01-24 18:53:26.478207	233.4	45.8	-90.4	0.7
2025-01-24 18:53:28.814295	234.5	46.1	-90.7	1.5
2025-01-24 18:53:31.131807	235.7	46.3	-90.7	3.3
2025-01-24 18:53:33.453507	236.9	46.6	-90.1	5.7
2025-01-24 18:53:35.785673	238.2	46.8	-90.2	8.6
2025-01-24 18:53:38.111607	239.4	47.1	-90.0	12.6
2025-01-24 18:53:40.426195	240.7	47.3	-90.4	11.6
2025-01-24 18:53:42.746167	242.0	47.5	-90.3	10.3
2025-01-24 18:53:45.074923	243.3	47.7	-90.5	7.5
2025-01-24 18:53:47.399761	244.6	47.9	-90.5	7.2
2025-01-24 18:53:49.650935	245.9	48.0	-90.4	8.1
2025-01-24 18:53:51.894380	247.2	48.2	-90.5	8.6
2025-01-24 18:53:54.134789	248.5	48.3	-90.0	13.9
2025-01-24 18:53:56.375340	249.8	48.4	-89.8	12.8
2025-01-24 18:53:58.639456	251.1	48.5	-90.9	18.4
2025-01-24 18:54:00.948703	252.5	48.6	-90.5	18.2
2025-01-24 18:54:03.271214	253.9	48.7	-90.4	18.6
2025-01-24 18:54:05.550002	255.3	48.7	-90.4	18.5
2025-01-24 18:54:07.848904	256.6	48.8	-90.5	15.6
2025-01-24 18:54:10.148029	258.0	48.8	-90.2	14.7
2025-01-24 18:54:12.471380	259.4	48.8	-90.9	13.1
2025-01-24 18:54:14.802316	260.8	48.7	-90.7	7.9
2025-01-24 18:54:17.129674	262.2	48.7	-90.1	13.9
2025-01-24 18:54:19.444200	263.6	48.6	-90.5	8.9
2025-01-24 18:54:21.769704	265.0	48.6	-90.2	5.2
2025-01-24 18:54:24.091975	266.4	48.5	-90.6	10.4
2025-01-24 18:54:26.415806	267.7	48.4	-90.3	6.5
2025-01-24 18:54:28.734668	269.1	48.2	-90.0	8.0
2025-01-24 18:54:31.053680	270.4	48.1	-90.0	9.6
2025-01-24 18:54:33.372996	271.8	47.9	-90.1	4.9
2025-01-24 18:54:35.696700	273.1	47.8	-89.9	6.6
2025-01-24 18:54:38.015428	274.4	47.6	-90.2	7.0
2025-01-24 18:54:40.351782	275.7	47.4	-90.2	5.5
2025-01-24 18:54:42.672779	276.9	47.1	-90.3	8.3
2025-01-24 18:54:44.997221	278.2	46.9	-90.6	7.2
2025-01-24 18:54:47.320263	279.4	46.7	-90.3	7.1
2025-01-24 18:54:49.641946	280.6	46.4	-91.0	12.8
2025-01-24 18:54:51.962273	281.8	46.1	-90.6	9.3
2025-01-24 18:54:54.295565	283.0	45.8	-90.6	7.7
2025-01-24 18:54:56.617502	284.2	45.6	-90.4	9.6
2025-01-24 18:54:58.936349	285.3	45.3	-90.5	8.4
2025-01-24 18:55:01.252567	286.4	44.9	-90.4	8.1
2025-01-24 18:55:03.575991	287.5	44.6	-90.5	11.1
2025-01-24 18:55:05.904182	288.5	44.3	-90.8	6.2
2025-01-24 18:55:08.227593	289.6	44.0	-90.3	5.2
2025-01-24 18:55:10.564509	290.6	43.6	-90.4	9.7
2025-01-24 18:55:12.891707	291.6	43.3	-90.6	5.3
2025-01-24 18:55:15.206356	292.6	42.9	-90.4	3.2
2025-01-24 18:55:17.530831	293.5	42.5	-90.1	9.7
2025-01-24 18:55:19.850042	294.5	42.2	-90.4	7.0
2025-01-24 18:55:22.173041	295.4	41.8	-90.0	8.5
2025-01-24 18:55:24.446560	296.3	41.4	-90.2	8.7
2025-01-24 18:55:26.689077	297.1	41.1	-90.2	8.8
2025-01-24 18:55:28.930735	297.9	40.7	-90.3	11.0
2025-01-24 18:55:31.171197	298.7	40.3	-90.0	10.3
2025-01-24 18:55:33.417153	299.5	40.0	-90.4	13.5
2025-01-24 18:55:35.739909	300.3	39.6	-91.3	15.2
2025-01-24 18:55:38.054859	301.1	39.2	-91.2	14.0
2025-01-24 18:55:40.371550	301.9	38.8	-91.0	10.6
2025-01-24 18:55:42.697076	302.6	38.4	-90.6	10.5
2025-01-24 18:55:45.020003	303.3	38.0	-91.3	9.4
2025-01-24 18:55:47.348054	304.1	37.6	-90.7	4.6
2025-01-24 18:55:49.665930	304.7	37.2	-90.9	6.5
2025-01-24 18:55:51.942720	305.4	36.9	-91.0	5.7
2025-01-24 18:55:54.237346	306.1	36.5	-90.7	2.9
2025-01-24 18:55:56.546599	306.7	36.1	-91.0	4.8
2025-01-24 18:55:58.858419	307.3	35.7	-91.2	4.6
2025-01-24 18:56:01.167912	307.9	35.3	-90.6	5.3
2025-01-24 18:56:03.494724	308.5	34.9	-91.3	7.9
2025-01-24 18:56:05.821483	309.1	34.5	-90.9	10.9
2025-01-24 18:56:08.138150	309.7	34.1	-91.1	11.6
2025-01-24 18:56:10.461115	310.3	33.8	-90.9	11.7
2025-01-24 18:56:12.777843	310.8	33.4	-90.9	6.3
2025-01-24 18:56:15.105399	311.4	33.0	-90.9	5.5
2025-01-24 18:56:17.441125	311.9	32.6	-91.0	7.2
2025-01-24 18:56:19.765476	312.4	32.2	-91.0	6.3
2025-01-24 18:56:22.094443	312.9	31.9	-91.0	9.2
2025-01-24 18:56:24.410251	313.4	31.5	-91.1	10.1
2025-01-24 18:56:26.738277	313.9	31.1	-91.0	12.8
2025-01-24 18:56:29.064699	314.3	30.8	-90.9	13.4
2025-01-24 18:56:31.376924	314.8	30.4	-90.4	9.6
2025-01-24 18:56:33.697024	315.2	30.0	-90.9	5.6
2025-01-24 18:56:36.020082	315.7	29.7	-91.1	4.9
2025-01-24 18:56:38.318488	316.1	29.3	-90.2	3.1
2025-01-24 18:56:40.561862	316.5	29.0	-90.7	5.2
2025-01-24 18:56:42.804113	316.9	28.7	-90.6	5.9
2025-01-24 18:56:45.047285	317.3	28.3	-90.3	6.8
2025-01-24 18:56:47.289965	317.7	28.0	-90.3	8.7
2025-01-24 18:56:49.586921	318.1	27.7	-90.8	7.8
2025-01-24 18:56:51.901184	318.4	27.3	-91.2	7.5
2025-01-24 18:56:54.212749	318.8	27.0	-90.7	4.1
2025-01-24 18:56:56.539163	319.2	26.6	-91.2	2.8
2025-01-24 18:56:58.856815	319.5	26.3	-90.9	5.5
2025-01-24 18:57:01.179267	319.9	26.0	-90.5	6.9
2025-01-24 18:57:03.494852	320.2	25.7	-90.9	7.5
2025-01-24 18:57:05.824533	320.6	25.3	-90.5	10.6
2025-01-24 18:57:08.140101	320.9	25.0	-90.7	8.0
2025-01-24 18:57:10.419442	321.2	24.7	-91.1	3.2
2025-01-24 18:57:12.723278	321.5	24.4	-90.3	3.2
2025-01-24 18:57:15.029961	321.8	24.1	-90.9	4.2
2025-01-24 18:57:17.343986	322.1	23.8	-90.6	1.5
2025-01-24 18:57:19.669780	322.4	23.5	-90.7	5.4
2025-01-24 18:57:21.984691	322.7	23.2	-90.7	3.4
2025-01-24 18:57:24.306025	323.0	22.9	-90.8	6.7
2025-01-24 18:57:26.583332	323.3	22.6	-90.9	0.6
2025-01-24 18:57:28.895524	323.6	22.3	-90.8	2.3
2025-01-24 18:57:31.192893	323.9	22.0	-90.8	3.8
2025-01-24 18:57:33.499664	324.1	21.7	-90.9	4.2
2025-01-24 18:57:35.820815	324.4	21.5	-91.1	3.0
2025-01-24 18:57:38.139971	324.7	21.2	-91.0	2.9
2025-01-24 18:57:40.449166	324.9	20.9	-91.4	5.5
2025-01-24 18:57:42.737498	325.2	20.6	-91.0	2.0
2025-01-24 18:57:45.040330	325.4	20.3	-90.9	2.9
2025-01-24 18:57:47.341941	325.6	20.1	-90.2	1.4
2025-01-24 18:57:49.669474	325.9	19.8	-90.9	1.2
2025-01-24 18:57:51.984057	326.1	19.5	-90.7	2.0
2025-01-24 18:57:54.260616	326.3	19.3	-90.7	1.7
2025-01-24 18:57:56.562251	326.6	19.0	-90.9	4.2
2025-01-24 18:57:58.868476	326.8	18.8	-90.9	4.9
2025-01-24 18:58:01.175968	327.0	18.5	-90.6	2.4
2025-01-24 18:58:03.608080	327.2	18.2	-90.5	3.2
2025-01-24 18:58:05.932666	327.5	18.0	-90.8	2.4
2025-01-24 18:58:08.260881	327.7	17.7	-90.9	2.3
2025-01-24 18:58:10.573559	327.9	17.5	-91.3	3.6
2025-01-24 18:58:12.851262	328.1	17.2	-90.8	1.6
2025-01-24 18:58:15.141414	328.3	17.0	-91.1	2.0
2025-01-24 18:58:17.445853	328.5	16.7	-90.8	2.8
2025-01-24 18:58:19.756137	328.7	16.5	-91.1	3.8
2025-01-24 18:58:22.074670	328.8	16.3	-91.2	1.6
2025-01-24 18:58:24.397573	329.0	16.0	-90.4	1.3
2025-01-24 18:58:26.723216	329.2	15.8	-91.1	4.2
2025-01-24 18:58:29.049230	329.4	15.6	-91.1	2.3
2025-01-24 18:58:31.366818	329.6	15.3	-91.1	3.9
2025-01-24 18:58:33.687580	329.8	15.1	-91.3	3.5
2025-01-24 18:58:36.005138	329.9	14.9	-91.6	2.4
2025-01-24 18:58:38.333107	330.1	14.7	-91.4	4.8
2025-01-24 18:58:40.632959	330.3	14.4	-91.4	4.8
#Closed at: 2025-01-24 18:49:53.702926