passes_logs/2025/01/24/LEX_Murmansk/LEX_Murmansk__20250124_141414_NOAA_18_rec.log

#Pass ID: 20250124_141414_NOAA 18
#Satellite: NOAA 18
#Configuration: NOAA 18
#Start time: 2025-01-24 14:14:09.726526

#LorettStation: 1.0.0 05.05.2024
#Station: LEX_Murmansk
#Location: 33.156738 lon 68.926811 lat
#TLE: 1 28654U 05018A   25024.15265828  .00000479  00000+0  27770-3 0  9994
#TLE: 2 28654  98.8553 105.1156 0014763 153.8328 206.3593 14.13495781 14472

#Time	Az	El	Level	SNR
2025-01-24 14:14:21.870998	36.9	15.9	-89.8	8.4
2025-01-24 14:14:23.022066	36.7	16.0	-89.9	3.5
2025-01-24 14:14:24.173379	36.5	16.0	-90.9	4.8
2025-01-24 14:14:25.331204	36.3	16.1	-91.0	2.7
2025-01-24 14:14:26.484864	36.1	16.2	-91.4	5.4
2025-01-24 14:14:27.631357	35.9	16.3	-91.1	4.4
2025-01-24 14:14:28.784568	35.7	16.4	-91.6	6.7
2025-01-24 14:14:29.939807	35.5	16.4	-91.8	4.7
2025-01-24 14:14:31.092141	35.3	16.5	-91.4	5.8
2025-01-24 14:14:32.245235	35.1	16.6	-90.9	3.3
2025-01-24 14:14:33.398162	35.0	16.7	-90.8	4.7
2025-01-24 14:14:34.548892	34.8	16.8	-90.9	4.2
2025-01-24 14:14:35.699572	34.6	16.9	-91.1	2.9
2025-01-24 14:14:36.858321	34.4	16.9	-91.4	4.3
2025-01-24 14:14:38.012485	34.2	17.0	-91.4	6.0
2025-01-24 14:14:39.172379	34.0	17.1	-91.3	7.7
2025-01-24 14:14:40.325349	33.8	17.2	-90.8	4.1
2025-01-24 14:14:41.472553	33.5	17.3	-91.1	8.4
2025-01-24 14:14:42.625626	33.3	17.3	-90.9	5.2
2025-01-24 14:14:43.780903	33.1	17.4	-91.2	5.3
2025-01-24 14:14:44.935458	32.9	17.5	-90.9	4.8
2025-01-24 14:14:46.081892	32.7	17.6	-91.1	10.5
2025-01-24 14:14:47.215419	32.5	17.7	-91.2	6.4
2025-01-24 14:14:48.356766	32.3	17.7	-90.9	6.2
2025-01-24 14:14:49.513635	32.1	17.8	-91.2	3.7
2025-01-24 14:14:50.651418	31.9	17.9	-91.6	7.0
2025-01-24 14:14:51.804330	31.7	18.0	-91.5	7.5
2025-01-24 14:14:52.965946	31.5	18.1	-91.5	3.0
2025-01-24 14:14:54.126789	31.2	18.1	-91.0	3.6
2025-01-24 14:14:55.278432	31.0	18.2	-90.8	8.3
2025-01-24 14:14:56.431704	30.8	18.3	-91.6	4.5
2025-01-24 14:14:57.580926	30.6	18.4	-91.3	6.0
2025-01-24 14:14:58.730567	30.4	18.5	-91.6	7.3
2025-01-24 14:14:59.882730	30.1	18.5	-91.6	4.5
2025-01-24 14:15:01.035379	29.9	18.6	-91.0	5.0
2025-01-24 14:15:02.184314	29.7	18.7	-91.2	6.3
2025-01-24 14:15:03.338158	29.5	18.8	-91.2	11.3
2025-01-24 14:15:04.490589	29.2	18.8	-91.6	8.4
2025-01-24 14:15:05.642607	29.0	18.9	-91.2	8.2
2025-01-24 14:15:06.796685	28.8	19.0	-91.4	12.0
2025-01-24 14:15:07.946231	28.6	19.1	-91.4	12.6
2025-01-24 14:15:09.099350	28.3	19.2	-91.2	10.2
2025-01-24 14:15:10.249340	28.1	19.2	-91.0	10.0
2025-01-24 14:15:11.400821	27.9	19.3	-91.3	7.8
2025-01-24 14:15:12.556100	27.6	19.4	-91.3	5.4
2025-01-24 14:15:13.703216	27.4	19.5	-91.6	10.2
2025-01-24 14:15:14.860890	27.2	19.5	-91.3	7.1
2025-01-24 14:15:16.013365	26.9	19.6	-91.4	9.8
2025-01-24 14:15:17.163971	26.7	19.7	-90.9	13.8
2025-01-24 14:15:18.316129	26.4	19.8	-91.2	10.5
2025-01-24 14:15:19.473364	26.2	19.8	-91.7	10.5
2025-01-24 14:15:20.631254	25.9	19.9	-91.6	7.0
2025-01-24 14:15:21.786049	25.7	20.0	-91.4	7.5
2025-01-24 14:15:22.933924	25.5	20.1	-91.3	6.2
2025-01-24 14:15:24.081965	25.2	20.1	-91.5	6.0
2025-01-24 14:15:25.236516	25.0	20.2	-91.4	6.3
2025-01-24 14:15:26.388664	24.7	20.3	-91.8	4.9
2025-01-24 14:15:27.549704	24.5	20.3	-91.5	6.4
2025-01-24 14:15:28.708133	24.2	20.4	-91.0	12.7
2025-01-24 14:15:29.865820	24.0	20.5	-91.7	9.6
2025-01-24 14:15:31.019698	23.7	20.6	-91.4	9.7
2025-01-24 14:15:32.171382	23.5	20.6	-90.8	6.9
2025-01-24 14:15:33.324699	23.2	20.7	-91.1	6.1
2025-01-24 14:15:34.479720	22.9	20.8	-91.3	12.9
2025-01-24 14:15:35.636370	22.7	20.8	-91.5	13.2
2025-01-24 14:15:36.791603	22.4	20.9	-91.6	10.4
2025-01-24 14:15:37.945940	22.2	21.0	-91.3	7.2
2025-01-24 14:15:39.099559	21.9	21.0	-91.0	9.6
2025-01-24 14:15:40.250978	21.6	21.1	-91.1	8.0
2025-01-24 14:15:41.411201	21.4	21.2	-91.6	4.9
2025-01-24 14:15:42.569713	21.1	21.2	-91.3	6.1
2025-01-24 14:15:43.733426	20.8	21.3	-91.2	7.9
2025-01-24 14:15:44.881077	20.6	21.4	-91.7	11.0
2025-01-24 14:15:46.037912	20.3	21.4	-91.6	9.7
2025-01-24 14:15:47.193694	20.0	21.5	-91.3	6.0
2025-01-24 14:15:48.344321	19.8	21.6	-91.3	8.5
2025-01-24 14:15:49.492792	19.5	21.6	-91.6	5.8
2025-01-24 14:15:50.642915	19.2	21.7	-91.6	10.1
2025-01-24 14:15:51.791584	18.9	21.8	-91.7	15.6
2025-01-24 14:15:52.940222	18.7	21.8	-91.7	5.5
2025-01-24 14:15:54.089186	18.4	21.9	-91.1	5.3
2025-01-24 14:15:55.242556	18.1	21.9	-91.1	7.5
2025-01-24 14:15:56.398935	17.8	22.0	-91.5	6.3
2025-01-24 14:15:57.548853	17.5	22.1	-91.4	4.7
2025-01-24 14:15:58.703863	17.3	22.1	-91.8	8.5
2025-01-24 14:15:59.872157	17.0	22.2	-91.6	14.4
2025-01-24 14:16:01.016629	16.7	22.2	-91.8	13.2
2025-01-24 14:16:02.162387	16.4	22.3	-91.1	11.4
2025-01-24 14:16:04.028379	16.0	22.4	-91.7	6.3
2025-01-24 14:16:05.179786	15.7	22.4	-91.0	9.0
2025-01-24 14:16:06.328705	15.4	22.5	-91.4	7.8
2025-01-24 14:16:07.482567	15.1	22.5	-91.3	6.6
2025-01-24 14:16:08.637937	14.8	22.6	-91.7	8.4
2025-01-24 14:16:09.798474	14.5	22.6	-91.8	8.8
2025-01-24 14:16:10.952538	14.2	22.7	-91.5	8.4
2025-01-24 14:16:12.100739	13.9	22.8	-91.1	11.7
2025-01-24 14:16:13.257411	13.6	22.8	-90.8	9.3
2025-01-24 14:16:14.407092	13.3	22.9	-90.8	7.4
2025-01-24 14:16:15.558097	13.0	22.9	-90.8	6.3
2025-01-24 14:16:16.717007	12.7	22.9	-90.4	9.2
2025-01-24 14:16:17.873524	12.4	23.0	-91.1	13.2
2025-01-24 14:16:19.025411	12.1	23.0	-91.2	10.2
2025-01-24 14:16:20.182348	11.8	23.1	-91.1	12.8
2025-01-24 14:16:21.339488	11.5	23.1	-91.1	10.0
2025-01-24 14:16:22.487980	11.2	23.2	-91.5	9.0
2025-01-24 14:16:23.649974	10.9	23.2	-91.8	10.6
2025-01-24 14:16:24.798323	10.6	23.3	-91.3	14.1
2025-01-24 14:16:25.956229	10.3	23.3	-91.4	9.4
2025-01-24 14:16:27.107625	10.0	23.3	-90.9	5.9
2025-01-24 14:16:28.254755	9.7	23.4	-91.1	17.5
2025-01-24 14:16:29.415125	9.4	23.4	-91.6	9.7
2025-01-24 14:16:30.568380	9.1	23.5	-91.3	8.4
2025-01-24 14:16:31.718230	8.8	23.5	-90.8	10.6
2025-01-24 14:16:32.865473	8.5	23.5	-90.9	11.2
2025-01-24 14:16:34.018169	8.2	23.6	-91.3	10.6
2025-01-24 14:16:35.167375	7.9	23.6	-90.7	15.0
2025-01-24 14:16:36.321167	7.6	23.6	-90.5	11.7
2025-01-24 14:16:37.476108	7.3	23.7	-91.1	13.8
2025-01-24 14:16:38.628125	6.9	23.7	-91.1	15.0
2025-01-24 14:16:39.784740	6.6	23.7	-91.1	16.0
2025-01-24 14:16:40.934495	6.3	23.8	-91.3	11.0
2025-01-24 14:16:42.084695	6.0	23.8	-91.2	7.3
2025-01-24 14:16:43.241575	5.7	23.8	-90.6	16.0
2025-01-24 14:16:44.389845	5.4	23.9	-91.0	6.2
2025-01-24 14:16:45.538169	5.1	23.9	-90.9	9.0
2025-01-24 14:16:46.692691	4.7	23.9	-91.9	16.7
2025-01-24 14:16:47.845499	4.4	23.9	-91.4	9.5
2025-01-24 14:16:49.008016	4.1	24.0	-91.5	6.9
2025-01-24 14:16:50.164320	3.8	24.0	-91.3	16.7
2025-01-24 14:16:51.325852	3.5	24.0	-91.6	14.3
2025-01-24 14:16:52.482378	3.1	24.0	-91.4	11.7
2025-01-24 14:16:53.633815	2.8	24.1	-91.5	15.3
2025-01-24 14:16:54.789110	2.5	24.1	-91.5	15.3
2025-01-24 14:16:55.945578	2.2	24.1	-91.6	10.5
2025-01-24 14:16:57.102728	1.9	24.1	-91.1	12.7
2025-01-24 14:16:58.255380	1.5	24.1	-91.3	9.5
2025-01-24 14:16:59.417885	1.2	24.1	-91.7	12.5
2025-01-24 14:17:00.575720	0.9	24.2	-91.8	14.9
2025-01-24 14:17:01.729118	0.6	24.2	-91.5	14.7
2025-01-24 14:17:02.874760	0.3	24.2	-91.6	15.2
2025-01-24 14:17:04.031106	359.9	24.2	-91.1	10.6
2025-01-24 14:17:05.180933	359.6	24.2	-91.1	12.9
2025-01-24 14:17:06.341508	359.3	24.2	-90.8	11.6
2025-01-24 14:17:07.497524	359.0	24.2	-91.2	13.8
2025-01-24 14:17:08.646431	358.6	24.2	-91.5	15.2
2025-01-24 14:17:09.796700	358.3	24.2	-91.4	15.0
2025-01-24 14:17:10.945823	358.0	24.2	-91.0	8.9
2025-01-24 14:17:12.100953	357.7	24.2	-91.2	8.1
2025-01-24 14:17:13.260655	357.4	24.3	-91.2	16.7
2025-01-24 14:17:14.418145	357.0	24.3	-91.4	9.2
2025-01-24 14:17:15.573003	356.7	24.3	-91.3	9.1
2025-01-24 14:17:16.727437	356.4	24.3	-91.7	15.5
2025-01-24 14:17:17.885200	356.1	24.3	-91.3	7.6
2025-01-24 14:17:19.039311	355.7	24.3	-91.3	9.8
2025-01-24 14:17:20.194638	355.4	24.3	-91.3	9.5
2025-01-24 14:17:21.347197	355.1	24.3	-91.1	9.9
2025-01-24 14:17:22.503024	354.8	24.2	-91.6	7.5
2025-01-24 14:17:23.658998	354.4	24.2	-91.6	13.8
2025-01-24 14:17:24.808999	354.1	24.2	-91.6	18.9
2025-01-24 14:17:25.964972	353.8	24.2	-91.2	8.5
2025-01-24 14:17:27.117387	353.5	24.2	-91.1	14.3
2025-01-24 14:17:28.271307	353.1	24.2	-91.1	12.9
2025-01-24 14:17:29.427873	352.8	24.2	-91.0	9.3
2025-01-24 14:17:30.587258	352.5	24.2	-91.6	13.8
2025-01-24 14:17:31.735197	352.2	24.2	-91.4	11.6
2025-01-24 14:17:32.889011	351.9	24.2	-91.2	10.2
2025-01-24 14:17:34.040881	351.5	24.2	-91.0	11.1
2025-01-24 14:17:35.195104	351.2	24.1	-91.2	14.7
2025-01-24 14:17:36.355814	350.9	24.1	-90.8	9.1
2025-01-24 14:17:37.515153	350.6	24.1	-91.6	10.5
2025-01-24 14:17:38.673420	350.2	24.1	-91.4	13.7
2025-01-24 14:17:39.826848	349.9	24.1	-91.8	14.0
2025-01-24 14:17:40.983850	349.6	24.0	-91.3	13.4
2025-01-24 14:17:42.137449	349.3	24.0	-91.5	11.0
2025-01-24 14:17:43.295911	349.0	24.0	-91.4	8.9
2025-01-24 14:17:44.448246	348.6	24.0	-91.2	15.1
2025-01-24 14:17:45.600446	348.3	24.0	-91.4	17.9
2025-01-24 14:17:46.761219	348.0	23.9	-91.4	16.1
2025-01-24 14:17:47.918761	347.7	23.9	-91.5	15.8
2025-01-24 14:17:49.075223	347.4	23.9	-91.1	14.9
2025-01-24 14:17:50.224089	347.1	23.9	-91.2	13.4
2025-01-24 14:17:51.374787	346.7	23.8	-91.3	10.0
2025-01-24 14:17:52.523426	346.4	23.8	-91.3	12.4
2025-01-24 14:17:53.680830	346.1	23.8	-91.3	10.8
2025-01-24 14:17:54.853068	345.8	23.7	-91.5	12.3
2025-01-24 14:17:56.006526	345.5	23.7	-91.5	13.9
2025-01-24 14:17:57.167417	345.2	23.7	-90.9	12.0
2025-01-24 14:17:58.319903	344.9	23.6	-91.1	12.4
2025-01-24 14:17:59.480439	344.5	23.6	-91.1	12.0
2025-01-24 14:18:00.630216	344.2	23.6	-91.3	9.6
2025-01-24 14:18:01.780325	343.9	23.5	-91.6	13.0
2025-01-24 14:18:02.932183	343.6	23.5	-91.6	7.9
2025-01-24 14:18:04.076630	343.3	23.5	-91.0	9.3
2025-01-24 14:18:05.225348	343.0	23.4	-90.9	11.0
2025-01-24 14:18:06.382823	342.7	23.4	-91.2	9.8
2025-01-24 14:18:07.536612	342.4	23.3	-91.6	8.9
2025-01-24 14:18:08.687302	342.1	23.3	-91.4	8.0
2025-01-24 14:18:09.843164	341.8	23.3	-91.6	11.8
2025-01-24 14:18:10.997981	341.5	23.2	-91.3	8.8
2025-01-24 14:18:12.158809	341.2	23.2	-91.1	11.1
2025-01-24 14:18:13.312025	340.9	23.1	-91.0	11.8
2025-01-24 14:18:14.470653	340.6	23.1	-91.4	14.2
2025-01-24 14:18:15.611607	340.3	23.0	-91.6	9.3
2025-01-24 14:18:16.772700	340.0	23.0	-91.6	11.3
2025-01-24 14:18:17.929890	339.7	22.9	-91.3	11.6
2025-01-24 14:18:19.088288	339.4	22.9	-91.3	9.9
2025-01-24 14:18:20.238936	339.1	22.8	-91.5	10.7
2025-01-24 14:18:21.392019	338.8	22.8	-89.8	8.4
2025-01-24 14:18:22.546752	338.5	22.7	-91.8	9.1
2025-01-24 14:18:23.711283	338.2	22.7	-91.9	14.5
2025-01-24 14:18:24.867456	337.9	22.6	-91.4	9.2
2025-01-24 14:18:26.015232	337.6	22.6	-91.8	11.6
2025-01-24 14:18:27.166883	337.3	22.5	-91.4	12.5
2025-01-24 14:18:28.313845	337.0	22.5	-91.3	12.0
2025-01-24 14:18:29.471104	336.7	22.4	-91.6	11.2
2025-01-24 14:18:30.628794	336.4	22.4	-91.7	12.8
2025-01-24 14:18:31.783588	336.2	22.3	-91.1	14.0
2025-01-24 14:18:32.931843	335.9	22.3	-91.6	11.6
2025-01-24 14:18:34.088471	335.6	22.2	-91.1	12.4
2025-01-24 14:18:35.232457	335.3	22.1	-91.4	11.0
2025-01-24 14:18:36.369269	335.0	22.1	-91.4	9.7
2025-01-24 14:18:37.516854	334.8	22.0	-92.0	7.7
2025-01-24 14:18:38.668474	334.5	22.0	-91.6	13.4
2025-01-24 14:18:39.822134	334.2	21.9	-91.8	12.1
2025-01-24 14:18:40.974710	333.9	21.8	-91.6	6.5
2025-01-24 14:18:42.130744	333.6	21.8	-91.2	8.8
2025-01-24 14:18:43.290229	333.4	21.7	-91.0	11.6
2025-01-24 14:18:44.450425	333.1	21.7	-91.6	12.1
2025-01-24 14:18:45.605049	332.8	21.6	-91.8	8.0
2025-01-24 14:18:46.756116	332.5	21.5	-91.9	11.6
2025-01-24 14:18:47.915549	332.3	21.5	-91.8	7.3
2025-01-24 14:18:49.065395	332.0	21.4	-91.5	11.8
2025-01-24 14:18:50.224680	331.7	21.3	-91.7	9.8
2025-01-24 14:18:51.373792	331.5	21.3	-91.3	8.0
2025-01-24 14:18:52.523600	331.2	21.2	-91.6	11.1
2025-01-24 14:18:53.676506	330.9	21.1	-92.0	13.3
2025-01-24 14:18:54.834806	330.7	21.1	-91.9	12.5
2025-01-24 14:18:55.991507	330.4	21.0	-91.8	11.4
2025-01-24 14:18:57.146992	330.1	20.9	-91.3	11.7
2025-01-24 14:18:58.303662	329.9	20.9	-91.3	10.5
2025-01-24 14:18:59.462072	329.6	20.8	-91.8	6.7
2025-01-24 14:19:00.606586	329.4	20.7	-91.8	10.5
2025-01-24 14:19:01.759945	329.1	20.7	-91.7	4.9
2025-01-24 14:19:02.911635	328.8	20.6	-91.8	4.7
2025-01-24 14:19:04.063117	328.6	20.5	-91.4	5.1
2025-01-24 14:19:05.221129	328.3	20.4	-91.3	6.6
2025-01-24 14:19:06.376886	328.1	20.4	-91.6	4.0
2025-01-24 14:19:07.522426	327.8	20.3	-91.6	4.7
2025-01-24 14:19:08.674440	327.6	20.2	-91.6	5.2
2025-01-24 14:19:09.826324	327.3	20.1	-91.8	5.8
2025-01-24 14:19:10.983868	327.1	20.1	-91.6	4.7
2025-01-24 14:19:12.144172	326.8	20.0	-91.5	5.1
2025-01-24 14:19:13.297509	326.6	19.9	-91.3	4.0
2025-01-24 14:19:14.456777	326.3	19.9	-91.5	4.4
2025-01-24 14:19:15.618471	326.1	19.8	-91.7	4.5
2025-01-24 14:19:16.766264	325.9	19.7	-91.4	3.4
2025-01-24 14:19:17.911989	325.6	19.6	-91.3	3.5
2025-01-24 14:19:19.069469	325.4	19.6	-91.3	3.2
2025-01-24 14:19:20.224724	325.1	19.5	-91.2	4.2
2025-01-24 14:19:21.386005	324.9	19.4	-91.5	4.8
2025-01-24 14:19:22.542509	324.7	19.3	-91.5	6.8
2025-01-24 14:19:23.698188	324.4	19.2	-91.3	7.0
2025-01-24 14:19:24.851650	324.2	19.2	-91.9	6.4
2025-01-24 14:19:26.009867	324.0	19.1	-91.6	7.6
2025-01-24 14:19:27.170674	323.7	19.0	-91.2	6.1
2025-01-24 14:19:28.323687	323.5	18.9	-91.4	7.1
2025-01-24 14:19:29.477504	323.3	18.9	-91.7	8.7
2025-01-24 14:19:30.633820	323.0	18.8	-91.4	8.6
2025-01-24 14:19:31.783799	322.8	18.7	-91.4	9.4
2025-01-24 14:19:32.932848	322.6	18.6	-91.4	8.0
2025-01-24 14:19:34.085643	322.4	18.5	-91.3	5.2
2025-01-24 14:19:35.233420	322.1	18.5	-90.9	8.5
2025-01-24 14:19:36.387378	321.9	18.4	-90.9	8.1
2025-01-24 14:19:37.535073	321.7	18.3	-91.7	8.1
2025-01-24 14:19:38.683942	321.5	18.2	-91.5	7.1
2025-01-24 14:19:39.832953	321.3	18.1	-91.8	4.4
2025-01-24 14:19:40.991389	321.0	18.1	-91.7	4.7
2025-01-24 14:19:42.143265	320.8	18.0	-91.3	4.3
2025-01-24 14:19:43.297288	320.6	17.9	-91.1	2.6
2025-01-24 14:19:44.445726	320.4	17.8	-91.4	3.9
2025-01-24 14:19:45.594412	320.2	17.7	-91.3	3.8
2025-01-24 14:19:46.740525	320.0	17.7	-91.6	4.9
2025-01-24 14:19:47.899542	319.8	17.6	-91.5	3.6
2025-01-24 14:19:49.053005	319.6	17.5	-91.6	4.4
2025-01-24 14:19:50.207470	319.3	17.4	-91.3	8.9
2025-01-24 14:19:51.361447	319.1	17.3	-91.3	4.3
2025-01-24 14:19:52.514227	318.9	17.3	-91.6	5.9
2025-01-24 14:19:53.660394	318.7	17.2	-91.6	7.7
2025-01-24 14:19:54.821365	318.5	17.1	-91.3	6.6
2025-01-24 14:19:55.974621	318.3	17.0	-91.6	7.2
2025-01-24 14:19:57.128492	318.1	16.9	-91.0	7.0
2025-01-24 14:19:58.280292	317.9	16.9	-91.4	9.3
2025-01-24 14:19:59.433445	317.7	16.8	-91.7	6.2
2025-01-24 14:20:00.578974	317.5	16.7	-91.4	6.3
2025-01-24 14:20:01.732388	317.3	16.6	-91.8	5.3
2025-01-24 14:20:02.882540	317.1	16.5	-92.0	6.4
2025-01-24 14:20:04.037399	316.9	16.4	-91.7	7.3
2025-01-24 14:20:05.191852	316.7	16.4	-91.4	6.9
2025-01-24 14:20:06.344765	316.5	16.3	-91.5	7.5
2025-01-24 14:20:07.495570	316.4	16.2	-91.7	5.4
2025-01-24 14:20:08.639320	316.2	16.1	-92.1	8.8
2025-01-24 14:20:09.796391	316.0	16.0	-92.1	9.5
2025-01-24 14:20:10.965731	315.8	15.9	-91.7	7.0
2025-01-24 14:20:12.124846	315.6	15.9	-91.4	8.3
2025-01-24 14:20:13.276297	315.4	15.8	-91.7	7.1
2025-01-24 14:20:14.430302	315.2	15.7	-92.0	3.4
2025-01-24 14:20:15.576817	315.0	15.6	-91.6	6.4
2025-01-24 14:20:16.738293	314.9	15.5	-91.4	4.7
2025-01-24 14:20:17.887392	314.7	15.4	-91.9	5.5
2025-01-24 14:20:19.053591	314.5	15.4	-91.3	5.4
2025-01-24 14:20:20.198150	314.3	15.3	-91.4	3.7
2025-01-24 14:20:21.346746	314.1	15.2	-91.6	8.2
2025-01-24 14:20:22.503437	313.9	15.1	-92.0	4.7
2025-01-24 14:20:23.654383	313.8	15.0	-91.2	6.2
2025-01-24 14:20:24.809254	313.6	15.0	-91.6	8.8
2025-01-24 14:20:25.959814	313.4	14.9	-91.5	9.2
2025-01-24 14:20:27.110676	313.2	14.8	-91.3	5.9
2025-01-24 14:20:28.260580	313.1	14.7	-91.3	9.3
2025-01-24 14:20:29.409969	312.9	14.6	-91.7	6.6
#Closed at: 2025-01-24 14:14:14.672741