passes_logs/2025/01/24/LEX_Murmansk/LEX_Murmansk__20250124_123407_NOAA_18_rec.log

#Pass ID: 20250124_123407_NOAA 18
#Satellite: NOAA 18
#Configuration: NOAA 18
#Start time: 2025-01-24 12:34:02.800747

#LorettStation: 1.0.0 05.05.2024
#Station: LEX_Murmansk
#Location: 33.156738 lon 68.926811 lat
#TLE: 1 28654U 05018A   25023.16165176  .00000420  00000+0  24625-3 0  9991
#TLE: 2 28654  98.8554 104.1346 0014722 156.5601 203.6245 14.13494494 14331

#Time	Az	El	Level	SNR
2025-01-24 12:34:15.005301	24.4	16.1	-89.1	6.7
2025-01-24 12:34:16.166190	24.2	16.2	-89.6	4.1
2025-01-24 12:34:17.325068	24.1	16.3	-89.7	6.2
2025-01-24 12:34:18.492802	23.9	16.4	-89.9	5.5
2025-01-24 12:34:19.653396	23.7	16.5	-90.0	6.2
2025-01-24 12:34:20.823285	23.6	16.6	-90.1	4.3
2025-01-24 12:34:21.986395	23.4	16.7	-90.1	6.6
2025-01-24 12:34:23.147360	23.3	16.8	-89.8	5.0
2025-01-24 12:34:24.312244	23.1	16.9	-89.6	6.1
2025-01-24 12:34:25.477061	23.0	17.0	-89.9	4.9
2025-01-24 12:34:26.639800	22.8	17.1	-89.6	5.9
2025-01-24 12:34:27.822956	22.6	17.2	-90.0	6.6
2025-01-24 12:34:29.001970	22.5	17.3	-90.0	4.6
2025-01-24 12:34:30.165557	22.3	17.4	-89.9	5.1
2025-01-24 12:34:31.324913	22.1	17.5	-90.0	7.0
2025-01-24 12:34:32.489362	22.0	17.6	-90.1	4.5
2025-01-24 12:34:33.652393	21.8	17.7	-90.4	6.8
2025-01-24 12:34:34.815665	21.6	17.8	-90.2	3.1
2025-01-24 12:34:35.981104	21.5	17.9	-90.2	6.2
2025-01-24 12:34:37.144681	21.3	18.0	-89.9	7.2
2025-01-24 12:34:38.303072	21.1	18.1	-89.4	7.1
2025-01-24 12:34:39.468545	21.0	18.3	-89.7	5.7
2025-01-24 12:34:40.638178	20.8	18.4	-89.9	8.2
2025-01-24 12:34:41.797132	20.6	18.5	-90.2	9.8
2025-01-24 12:34:42.958497	20.4	18.6	-90.1	10.6
2025-01-24 12:34:44.117322	20.2	18.7	-89.8	9.3
2025-01-24 12:34:45.279001	20.1	18.8	-90.0	10.5
2025-01-24 12:34:46.446731	19.9	18.9	-90.0	7.8
2025-01-24 12:34:47.600271	19.7	19.0	-90.3	8.3
2025-01-24 12:34:48.762405	19.5	19.1	-89.8	11.3
2025-01-24 12:34:49.930827	19.3	19.2	-89.5	8.6
2025-01-24 12:34:51.092798	19.2	19.3	-89.8	10.2
2025-01-24 12:34:52.252343	19.0	19.4	-90.0	9.8
2025-01-24 12:34:53.417074	18.8	19.5	-89.8	8.8
2025-01-24 12:34:54.581122	18.6	19.6	-90.0	7.2
2025-01-24 12:34:55.747958	18.4	19.8	-90.4	10.6
2025-01-24 12:34:56.904917	18.2	19.9	-90.0	6.2
2025-01-24 12:34:58.073049	18.0	20.0	-89.8	5.1
2025-01-24 12:34:59.237868	17.8	20.1	-89.7	10.3
2025-01-24 12:35:00.392833	17.6	20.2	-89.8	7.2
2025-01-24 12:35:01.550351	17.4	20.3	-90.1	7.5
2025-01-24 12:35:02.710777	17.2	20.4	-90.0	6.6
2025-01-24 12:35:03.868554	17.0	20.5	-90.2	9.7
2025-01-24 12:35:05.031323	16.8	20.6	-90.2	9.7
2025-01-24 12:35:06.194413	16.6	20.7	-89.6	12.0
2025-01-24 12:35:07.351146	16.4	20.8	-89.5	8.4
2025-01-24 12:35:08.526110	16.2	21.0	-89.9	7.3
2025-01-24 12:35:09.681371	16.0	21.1	-90.1	8.5
2025-01-24 12:35:10.855514	15.8	21.2	-90.4	7.0
2025-01-24 12:35:12.024689	15.6	21.3	-90.4	8.1
2025-01-24 12:35:13.191608	15.3	21.4	-90.0	6.2
2025-01-24 12:35:14.349756	15.1	21.5	-90.0	7.8
2025-01-24 12:35:15.514854	14.9	21.6	-89.9	6.6
2025-01-24 12:35:16.675536	14.7	21.7	-89.9	9.1
2025-01-24 12:35:17.838909	14.5	21.8	-89.8	8.3
2025-01-24 12:35:19.007041	14.3	21.9	-89.6	5.6
2025-01-24 12:35:20.172561	14.0	22.1	-89.6	7.5
2025-01-24 12:35:21.347816	13.8	22.2	-89.7	6.5
2025-01-24 12:35:22.509151	13.6	22.3	-90.2	4.9
2025-01-24 12:35:23.667610	13.3	22.4	-89.8	9.8
2025-01-24 12:35:24.832923	13.1	22.5	-89.5	12.5
2025-01-24 12:35:25.997188	12.9	22.6	-89.8	11.2
2025-01-24 12:35:27.155040	12.7	22.7	-89.7	15.4
2025-01-24 12:35:28.315198	12.4	22.8	-89.1	12.1
2025-01-24 12:35:29.477905	12.2	22.9	-89.4	7.8
2025-01-24 12:35:30.644074	11.9	23.0	-89.7	12.9
2025-01-24 12:35:31.807742	11.7	23.1	-89.7	14.0
2025-01-24 12:35:32.976794	11.5	23.3	-89.7	12.1
2025-01-24 12:35:34.134896	11.2	23.4	-89.4	12.3
2025-01-24 12:35:35.296087	11.0	23.5	-89.5	10.0
2025-01-24 12:35:36.458931	10.7	23.6	-89.7	9.3
2025-01-24 12:35:37.620402	10.5	23.7	-89.9	9.0
2025-01-24 12:35:38.786172	10.2	23.8	-90.7	9.0
2025-01-24 12:35:39.948122	10.0	23.9	-90.0	6.8
2025-01-24 12:35:41.114993	9.7	24.0	-90.0	8.3
2025-01-24 12:35:42.280254	9.5	24.1	-90.0	9.8
2025-01-24 12:35:43.445994	9.2	24.2	-90.3	7.3
2025-01-24 12:35:44.601275	9.0	24.3	-90.1	8.1
2025-01-24 12:35:45.775903	8.7	24.5	-90.1	12.0
2025-01-24 12:35:46.930832	8.4	24.6	-90.0	9.7
2025-01-24 12:35:48.104848	8.2	24.7	-90.1	10.7
2025-01-24 12:35:49.268455	7.9	24.8	-90.2	12.4
2025-01-24 12:35:50.439553	7.6	24.9	-90.4	8.1
2025-01-24 12:35:51.602158	7.4	25.0	-90.2	9.0
2025-01-24 12:35:52.767035	7.1	25.1	-90.1	10.5
2025-01-24 12:35:53.925520	6.8	25.2	-90.3	7.2
2025-01-24 12:35:55.091109	6.5	25.3	-90.2	7.7
2025-01-24 12:35:56.256068	6.3	25.4	-90.1	8.4
2025-01-24 12:35:57.419809	6.0	25.5	-90.5	9.1
2025-01-24 12:35:58.585490	5.7	25.6	-90.6	9.4
2025-01-24 12:35:59.751607	5.4	25.7	-90.5	11.5
2025-01-24 12:36:00.910134	5.1	25.8	-90.6	6.4
2025-01-24 12:36:02.072662	4.9	25.9	-90.2	7.4
2025-01-24 12:36:03.236557	4.6	26.0	-90.2	10.2
2025-01-24 12:36:04.404878	4.3	26.1	-90.1	7.3
2025-01-24 12:36:05.563150	4.0	26.2	-90.2	6.6
2025-01-24 12:36:06.727797	3.7	26.3	-90.5	11.9
2025-01-24 12:36:07.888238	3.4	26.4	-90.9	10.8
2025-01-24 12:36:09.049666	3.1	26.5	-90.4	9.9
2025-01-24 12:36:10.218875	2.8	26.6	-90.3	10.3
2025-01-24 12:36:11.377603	2.5	26.7	-90.3	8.5
2025-01-24 12:36:12.542575	2.2	26.8	-90.4	11.4
2025-01-24 12:36:13.704957	1.9	26.9	-90.0	8.5
2025-01-24 12:36:14.865201	1.6	27.0	-90.3	9.0
2025-01-24 12:36:16.025195	1.3	27.1	-90.4	10.8
2025-01-24 12:36:17.187904	1.0	27.2	-89.9	11.7
2025-01-24 12:36:18.352849	0.6	27.3	-89.5	11.4
2025-01-24 12:36:19.524168	0.3	27.4	-90.1	8.3
2025-01-24 12:36:20.690530	0.0	27.5	-90.3	10.6
2025-01-24 12:36:21.851044	359.7	27.6	-90.1	11.9
2025-01-24 12:36:23.022098	359.4	27.7	-89.8	7.9
2025-01-24 12:36:24.186258	359.0	27.8	-89.9	11.6
2025-01-24 12:36:25.346156	358.7	27.9	-89.5	9.2
2025-01-24 12:36:26.510287	358.4	28.0	-90.0	6.9
2025-01-24 12:36:27.661400	358.1	28.1	-89.9	10.0
2025-01-24 12:36:28.820646	357.7	28.2	-89.8	8.0
2025-01-24 12:36:29.982351	357.4	28.3	-90.0	6.8
2025-01-24 12:36:31.141423	357.1	28.3	-89.7	7.3
2025-01-24 12:36:32.303268	356.7	28.4	-90.1	8.8
2025-01-24 12:36:33.468018	356.4	28.5	-90.6	6.9
2025-01-24 12:36:34.627544	356.1	28.6	-90.5	9.3
2025-01-24 12:36:35.792372	355.7	28.7	-90.3	9.7
2025-01-24 12:36:36.948029	355.4	28.8	-90.1	7.8
2025-01-24 12:36:38.108712	355.0	28.9	-90.2	7.4
2025-01-24 12:36:39.269391	354.7	28.9	-90.1	9.4
2025-01-24 12:36:40.432428	354.3	29.0	-90.3	12.3
2025-01-24 12:36:41.598060	354.0	29.1	-90.2	10.8
2025-01-24 12:36:42.765222	353.6	29.2	-90.2	11.0
2025-01-24 12:36:43.932830	353.3	29.3	-90.3	8.7
2025-01-24 12:36:45.096820	352.9	29.3	-90.0	9.9
2025-01-24 12:36:46.261085	352.6	29.4	-90.0	7.9
2025-01-24 12:36:47.420244	352.2	29.5	-90.0	7.3
2025-01-24 12:36:48.586079	351.8	29.6	-90.0	7.7
2025-01-24 12:36:49.749740	351.5	29.6	-90.1	10.0
2025-01-24 12:36:50.914544	351.1	29.7	-89.9	10.4
2025-01-24 12:36:52.077463	350.7	29.8	-89.6	8.4
2025-01-24 12:36:53.239650	350.4	29.8	-89.5	8.8
2025-01-24 12:36:54.407267	350.0	29.9	-89.6	10.2
2025-01-24 12:36:55.573144	349.6	30.0	-89.9	11.1
2025-01-24 12:36:56.736106	349.3	30.1	-90.5	7.1
2025-01-24 12:36:57.895774	348.9	30.1	-90.3	9.2
2025-01-24 12:36:59.058693	348.5	30.2	-90.0	9.1
2025-01-24 12:37:00.216879	348.1	30.2	-89.8	11.8
2025-01-24 12:37:01.386105	347.8	30.3	-90.1	7.1
2025-01-24 12:37:02.546986	347.4	30.4	-90.2	5.9
2025-01-24 12:37:03.715706	347.0	30.4	-89.9	12.0
2025-01-24 12:37:04.880208	346.6	30.5	-89.8	9.2
2025-01-24 12:37:06.043067	346.2	30.5	-89.9	7.3
2025-01-24 12:37:07.202911	345.8	30.6	-89.6	10.8
2025-01-24 12:37:08.367012	345.5	30.6	-89.9	10.1
2025-01-24 12:37:09.534238	345.1	30.7	-90.3	5.6
2025-01-24 12:37:10.699839	344.7	30.7	-90.5	11.0
2025-01-24 12:37:11.882627	344.3	30.8	-89.9	7.0
2025-01-24 12:37:13.047639	343.9	30.8	-90.2	7.3
2025-01-24 12:37:14.206329	343.5	30.9	-90.8	10.4
2025-01-24 12:37:15.374270	343.1	30.9	-90.2	11.7
2025-01-24 12:37:16.537515	342.7	31.0	-89.8	6.2
2025-01-24 12:37:17.699160	342.3	31.0	-90.0	10.4
2025-01-24 12:37:18.861110	341.9	31.1	-90.2	7.7
2025-01-24 12:37:20.024050	341.5	31.1	-90.6	5.6
2025-01-24 12:37:21.186854	341.1	31.1	-90.0	6.3
2025-01-24 12:37:22.345741	340.7	31.2	-90.1	7.7
2025-01-24 12:37:23.510986	340.3	31.2	-90.4	8.9
2025-01-24 12:37:24.671529	339.9	31.2	-90.5	10.5
2025-01-24 12:37:25.836901	339.5	31.3	-90.7	16.9
2025-01-24 12:37:26.993645	339.1	31.3	-90.6	6.3
2025-01-24 12:37:28.144816	338.7	31.3	-90.0	8.5
2025-01-24 12:37:29.300148	338.3	31.4	-90.4	15.1
2025-01-24 12:37:30.468630	337.9	31.4	-90.6	9.6
2025-01-24 12:37:31.634155	337.5	31.4	-90.7	10.4
2025-01-24 12:37:32.801698	337.1	31.4	-90.7	16.1
2025-01-24 12:37:33.960818	336.7	31.4	-90.5	8.5
2025-01-24 12:37:35.125919	336.3	31.5	-90.2	8.1
2025-01-24 12:37:36.291866	335.9	31.5	-90.2	7.8
2025-01-24 12:37:37.451529	335.5	31.5	-90.2	5.1
2025-01-24 12:37:38.620979	335.1	31.5	-90.5	11.5
2025-01-24 12:37:39.782099	334.6	31.5	-90.3	12.3
2025-01-24 12:37:40.950911	334.2	31.5	-90.4	11.5
2025-01-24 12:37:42.115751	333.8	31.5	-90.1	13.6
2025-01-24 12:37:43.283056	333.4	31.5	-90.0	9.0
2025-01-24 12:37:44.448278	333.0	31.6	-90.0	15.0
2025-01-24 12:37:45.608755	332.6	31.6	-90.0	15.7
2025-01-24 12:37:46.776798	332.2	31.6	-90.4	14.6
2025-01-24 12:37:47.939059	331.8	31.6	-90.4	14.8
2025-01-24 12:37:49.102499	331.4	31.6	-90.1	10.1
2025-01-24 12:37:50.268286	331.0	31.6	-90.3	10.0
2025-01-24 12:37:51.430319	330.5	31.5	-90.6	11.6
2025-01-24 12:37:52.596228	330.1	31.5	-90.1	15.5
2025-01-24 12:37:53.755936	329.7	31.5	-90.1	14.1
2025-01-24 12:37:54.921487	329.3	31.5	-90.1	10.5
2025-01-24 12:37:56.081084	328.9	31.5	-89.8	11.6
2025-01-24 12:37:57.245447	328.5	31.5	-89.6	13.9
2025-01-24 12:37:58.402019	328.1	31.5	-89.9	14.0
2025-01-24 12:37:59.561394	327.7	31.5	-90.3	10.9
2025-01-24 12:38:00.719772	327.3	31.4	-89.9	15.2
2025-01-24 12:38:01.886750	326.9	31.4	-90.3	9.7
2025-01-24 12:38:03.052675	326.5	31.4	-90.0	9.3
2025-01-24 12:38:04.216306	326.1	31.4	-89.9	14.4
2025-01-24 12:38:05.376284	325.6	31.4	-89.8	7.4
2025-01-24 12:38:06.539972	325.2	31.3	-90.1	9.5
2025-01-24 12:38:07.704601	324.8	31.3	-89.7	13.9
2025-01-24 12:38:08.868007	324.4	31.3	-90.0	8.0
2025-01-24 12:38:10.033883	324.0	31.2	-90.3	6.3
2025-01-24 12:38:11.191135	323.6	31.2	-89.7	11.7
2025-01-24 12:38:12.355933	323.2	31.2	-90.0	7.1
2025-01-24 12:38:13.520587	322.8	31.1	-90.2	8.6
2025-01-24 12:38:14.682840	322.4	31.1	-90.4	14.9
2025-01-24 12:38:15.843771	322.0	31.1	-90.7	17.0
2025-01-24 12:38:17.002729	321.6	31.0	-90.8	10.3
2025-01-24 12:38:18.160076	321.2	31.0	-90.2	15.2
2025-01-24 12:38:19.328310	320.8	30.9	-90.2	16.4
2025-01-24 12:38:20.492941	320.4	30.9	-90.2	10.6
2025-01-24 12:38:21.659099	320.1	30.9	-90.1	12.9
2025-01-24 12:38:22.828894	319.7	30.8	-90.4	15.3
2025-01-24 12:38:23.993664	319.3	30.8	-90.4	9.9
2025-01-24 12:38:25.159724	318.9	30.7	-90.1	13.0
2025-01-24 12:38:26.322025	318.5	30.7	-89.9	13.6
2025-01-24 12:38:27.484736	318.1	30.6	-90.3	5.4
2025-01-24 12:38:28.653337	317.7	30.5	-90.2	7.8
2025-01-24 12:38:29.814152	317.3	30.5	-90.3	6.8
2025-01-24 12:38:30.972707	316.9	30.4	-90.2	9.9
2025-01-24 12:38:32.131662	316.6	30.4	-90.3	13.7
2025-01-24 12:38:33.300227	316.2	30.3	-90.3	13.0
2025-01-24 12:38:34.462125	315.8	30.3	-90.6	10.2
2025-01-24 12:38:35.626368	315.4	30.2	-90.6	12.1
2025-01-24 12:38:36.787091	315.0	30.1	-90.5	12.1
2025-01-24 12:38:37.947049	314.7	30.1	-90.7	8.7
2025-01-24 12:38:39.115160	314.3	30.0	-90.3	9.1
2025-01-24 12:38:40.275477	313.9	29.9	-90.2	9.9
2025-01-24 12:38:41.439748	313.6	29.9	-90.1	3.7
2025-01-24 12:38:42.612150	313.2	29.8	-90.3	10.8
2025-01-24 12:38:43.774007	312.8	29.7	-90.4	17.5
2025-01-24 12:38:44.934668	312.5	29.6	-90.1	8.1
2025-01-24 12:38:46.102703	312.1	29.6	-90.2	10.4
2025-01-24 12:38:47.270000	311.7	29.5	-89.6	7.6
2025-01-24 12:38:48.425211	311.4	29.4	-89.8	8.8
2025-01-24 12:38:49.594262	311.0	29.3	-89.9	9.1
2025-01-24 12:38:50.755703	310.6	29.3	-89.8	12.2
2025-01-24 12:38:51.917947	310.3	29.2	-90.0	9.7
2025-01-24 12:38:53.078735	309.9	29.1	-89.5	7.8
2025-01-24 12:38:54.242400	309.6	29.0	-89.5	7.5
2025-01-24 12:38:55.400729	309.2	28.9	-89.9	9.8
2025-01-24 12:38:56.563462	308.9	28.9	-90.2	10.9
2025-01-24 12:38:57.720800	308.5	28.8	-89.9	14.3
2025-01-24 12:38:58.882851	308.2	28.7	-90.0	11.1
2025-01-24 12:39:00.051272	307.9	28.6	-89.9	8.6
2025-01-24 12:39:01.211176	307.5	28.5	-89.8	7.4
2025-01-24 12:39:02.372730	307.2	28.4	-89.9	11.0
2025-01-24 12:39:03.531135	306.8	28.3	-89.9	9.2
2025-01-24 12:39:04.696893	306.5	28.3	-89.3	17.4
2025-01-24 12:39:05.856761	306.2	28.2	-89.9	11.0
2025-01-24 12:39:07.018177	305.8	28.1	-89.9	12.3
2025-01-24 12:39:08.177924	305.5	28.0	-89.6	14.5
2025-01-24 12:39:09.341573	305.2	27.9	-89.9	12.5
2025-01-24 12:39:10.502619	304.9	27.8	-90.1	7.6
2025-01-24 12:39:11.670140	304.5	27.7	-89.2	17.8
2025-01-24 12:39:12.831378	304.2	27.6	-89.6	10.9
2025-01-24 12:39:13.995093	303.9	27.5	-89.8	13.2
2025-01-24 12:39:15.161741	303.6	27.4	-89.8	11.5
2025-01-24 12:39:16.317470	303.3	27.3	-89.9	8.8
2025-01-24 12:39:17.485730	302.9	27.2	-89.7	13.5
2025-01-24 12:39:18.646330	302.6	27.1	-89.7	10.6
2025-01-24 12:39:19.812423	302.3	27.0	-90.1	14.3
2025-01-24 12:39:20.971750	302.0	26.9	-90.4	8.6
2025-01-24 12:39:22.129219	301.7	26.8	-90.0	6.7
2025-01-24 12:39:23.289723	301.4	26.7	-90.0	11.2
2025-01-24 12:39:24.454700	301.1	26.6	-90.2	10.0
2025-01-24 12:39:25.615059	300.8	26.5	-90.4	9.4
2025-01-24 12:39:26.780413	300.5	26.4	-90.4	6.6
2025-01-24 12:39:27.935158	300.2	26.3	-90.3	13.4
2025-01-24 12:39:29.097989	299.9	26.2	-90.2	12.6
2025-01-24 12:39:30.260828	299.6	26.1	-89.9	9.7
2025-01-24 12:39:31.422450	299.3	26.0	-90.3	7.4
2025-01-24 12:39:32.589990	299.0	25.9	-89.9	12.1
2025-01-24 12:39:33.751110	298.7	25.8	-90.0	14.2
2025-01-24 12:39:34.910533	298.5	25.7	-90.1	7.6
2025-01-24 12:39:36.074422	298.2	25.6	-89.9	9.4
2025-01-24 12:39:37.234482	297.9	25.5	-90.0	12.1
2025-01-24 12:39:38.394899	297.6	25.4	-90.1	7.1
2025-01-24 12:39:39.558092	297.3	25.3	-90.1	9.8
2025-01-24 12:39:40.724693	297.0	25.2	-90.2	10.8
2025-01-24 12:39:41.901383	296.8	25.1	-90.0	6.9
2025-01-24 12:39:43.068111	296.5	25.0	-89.9	7.7
2025-01-24 12:39:44.230983	296.2	24.9	-90.0	7.8
2025-01-24 12:39:45.406722	296.0	24.8	-90.3	3.9
2025-01-24 12:39:46.565080	295.7	24.7	-90.5	4.6
2025-01-24 12:39:47.730932	295.4	24.5	-90.4	5.6
2025-01-24 12:39:48.890749	295.2	24.4	-90.4	4.7
2025-01-24 12:39:50.055972	294.9	24.3	-90.2	5.4
2025-01-24 12:39:51.213358	294.6	24.2	-90.1	4.1
2025-01-24 12:39:52.376107	294.4	24.1	-90.3	4.0
2025-01-24 12:39:53.545306	294.1	24.0	-90.2	7.5
2025-01-24 12:39:54.710508	293.9	23.9	-90.1	9.7
2025-01-24 12:39:55.882045	293.6	23.8	-89.8	8.1
2025-01-24 12:39:57.049092	293.4	23.7	-89.8	11.8
2025-01-24 12:39:58.203625	293.1	23.6	-89.7	11.5
2025-01-24 12:39:59.367737	292.9	23.5	-89.5	9.0
2025-01-24 12:40:00.527409	292.6	23.3	-89.4	11.0
2025-01-24 12:40:01.696210	292.4	23.2	-89.7	9.1
2025-01-24 12:40:02.857314	292.1	23.1	-89.9	7.7
2025-01-24 12:40:04.026115	291.9	23.0	-89.8	9.3
2025-01-24 12:40:05.192695	291.6	22.9	-89.8	14.8
2025-01-24 12:40:06.352348	291.4	22.8	-90.0	10.0
2025-01-24 12:40:07.515371	291.2	22.7	-90.2	10.2
2025-01-24 12:40:08.672270	290.9	22.6	-90.5	11.8
2025-01-24 12:40:09.835779	290.7	22.5	-90.2	14.7
2025-01-24 12:40:10.997694	290.5	22.4	-90.4	10.5
2025-01-24 12:40:12.164182	290.2	22.2	-89.9	8.8
2025-01-24 12:40:13.324977	290.0	22.1	-90.0	9.8
2025-01-24 12:40:14.490012	289.8	22.0	-90.0	7.5
2025-01-24 12:40:15.654277	289.6	21.9	-89.8	7.7
2025-01-24 12:40:16.812614	289.3	21.8	-90.1	13.0
2025-01-24 12:40:17.967785	289.1	21.7	-89.5	9.1
2025-01-24 12:40:19.134666	288.9	21.6	-89.8	7.9
2025-01-24 12:40:20.303831	288.7	21.5	-90.1	10.1
2025-01-24 12:40:21.466035	288.5	21.4	-90.2	6.2
2025-01-24 12:40:22.633489	288.3	21.2	-90.2	13.2
2025-01-24 12:40:23.792704	288.0	21.1	-90.1	12.2
2025-01-24 12:40:24.956219	287.8	21.0	-90.3	11.4
2025-01-24 12:40:26.119490	287.6	20.9	-90.0	6.8
2025-01-24 12:40:27.287019	287.4	20.8	-90.0	8.4
2025-01-24 12:40:28.445392	287.2	20.7	-90.1	6.6
2025-01-24 12:40:29.608634	287.0	20.6	-90.2	7.6
2025-01-24 12:40:30.773090	286.8	20.5	-90.2	11.3
2025-01-24 12:40:31.931764	286.6	20.4	-90.2	7.4
2025-01-24 12:40:33.098623	286.4	20.3	-90.1	7.1
2025-01-24 12:40:34.261964	286.2	20.1	-90.1	7.3
2025-01-24 12:40:35.427467	286.0	20.0	-90.2	5.2
2025-01-24 12:40:36.598051	285.8	19.9	-89.9	5.0
2025-01-24 12:40:37.761679	285.6	19.8	-89.8	13.4
2025-01-24 12:40:38.918745	285.4	19.7	-89.9	8.2
2025-01-24 12:40:40.093205	285.2	19.6	-89.8	5.4
2025-01-24 12:40:41.256062	285.0	19.5	-89.7	5.6
2025-01-24 12:40:42.427220	284.8	19.4	-89.8	8.2
2025-01-24 12:40:43.592445	284.6	19.3	-89.9	7.5
2025-01-24 12:40:44.757330	284.4	19.2	-89.6	6.4
2025-01-24 12:40:45.924256	284.3	19.1	-90.3	5.8
2025-01-24 12:40:47.084986	284.1	18.9	-90.2	10.6
2025-01-24 12:40:48.241467	283.9	18.8	-90.3	9.1
2025-01-24 12:40:49.407396	283.7	18.7	-90.4	4.8
2025-01-24 12:40:50.572878	283.5	18.6	-90.1	11.3
2025-01-24 12:40:51.733341	283.3	18.5	-90.1	11.5
2025-01-24 12:40:52.899068	283.2	18.4	-90.5	5.7
2025-01-24 12:40:54.068184	283.0	18.3	-90.3	6.9
2025-01-24 12:40:55.247510	282.8	18.2	-89.8	3.3
2025-01-24 12:40:56.405052	282.6	18.1	-90.0	5.3
2025-01-24 12:40:57.565806	282.5	18.0	-90.0	5.7
2025-01-24 12:40:58.722027	282.3	17.9	-89.7	6.0
2025-01-24 12:40:59.892326	282.1	17.8	-89.5	5.3
2025-01-24 12:41:01.049298	282.0	17.7	-89.1	6.9
2025-01-24 12:41:02.217493	281.8	17.6	-89.6	6.8
2025-01-24 12:41:03.381537	281.6	17.5	-89.6	5.3
2025-01-24 12:41:04.548245	281.4	17.3	-90.0	7.3
2025-01-24 12:41:05.709986	281.3	17.2	-90.3	8.8
2025-01-24 12:41:06.874320	281.1	17.1	-89.9	7.6
2025-01-24 12:41:08.038618	281.0	17.0	-89.9	6.8
2025-01-24 12:41:09.192271	280.8	16.9	-89.8	6.2
2025-01-24 12:41:10.357884	280.6	16.8	-89.4	7.6
2025-01-24 12:41:11.519948	280.5	16.7	-90.1	5.7
2025-01-24 12:41:12.687445	280.3	16.6	-89.9	6.8
2025-01-24 12:41:13.848263	280.2	16.5	-89.9	8.1
2025-01-24 12:41:15.014734	280.0	16.4	-90.1	5.2
2025-01-24 12:41:16.175281	279.8	16.3	-90.0	8.4
2025-01-24 12:41:17.342819	279.7	16.2	-89.9	5.3
2025-01-24 12:41:18.502597	279.5	16.1	-90.0	4.9
2025-01-24 12:41:19.654934	279.4	16.0	-89.9	7.2
2025-01-24 12:41:20.812299	279.2	15.9	-90.1	7.7
2025-01-24 12:41:21.973657	279.1	15.8	-90.2	6.5
2025-01-24 12:41:23.138693	278.9	15.7	-90.1	9.3
2025-01-24 12:41:24.296465	278.8	15.6	-90.1	9.5
2025-01-24 12:41:25.463568	278.6	15.5	-90.2	8.0
2025-01-24 12:41:26.620973	278.5	15.4	-90.0	8.4
2025-01-24 12:41:27.783247	278.4	15.3	-90.2	9.5
2025-01-24 12:41:28.945110	278.2	15.2	-90.1	9.8
2025-01-24 12:41:30.111456	278.1	15.1	-89.9	5.8
2025-01-24 12:41:31.271823	277.9	15.0	-90.0	9.8
2025-01-24 12:41:32.441491	277.8	14.9	-90.0	6.4
2025-01-24 12:41:33.606818	277.7	14.8	-89.9	8.2
2025-01-24 12:41:34.775055	277.5	14.7	-89.8	10.8
2025-01-24 12:41:35.941947	277.4	14.6	-90.1	6.4
#Closed at: 2025-01-24 12:34:07.791860