passes_logs/2025/01/24/LEX_Murmansk/LEX_Murmansk__20250124_155318_NOAA_18_rec.log

#Pass ID: 20250124_155318_NOAA 18
#Satellite: NOAA 18
#Configuration: NOAA 18
#Start time: 2025-01-24 15:53:13.335543

#LorettStation: 1.0.0 05.05.2024
#Station: LEX_Murmansk
#Location: 33.156738 lon 68.926811 lat
#TLE: 1 28654U 05018A   25024.15265828  .00000479  00000+0  27770-3 0  9994
#TLE: 2 28654  98.8553 105.1156 0014763 153.8328 206.3593 14.13495781 14472

#Time	Az	El	Level	SNR
2025-01-24 15:53:25.564839	67.8	16.0	-91.8	9.7
2025-01-24 15:53:26.726754	67.6	16.1	-91.5	14.9
2025-01-24 15:53:27.888461	67.5	16.2	-91.6	10.5
2025-01-24 15:53:29.049640	67.3	16.3	-91.5	9.2
2025-01-24 15:53:30.214577	67.1	16.4	-91.3	11.7
2025-01-24 15:53:31.378593	66.9	16.5	-89.3	9.7
2025-01-24 15:53:32.540674	66.8	16.5	-90.3	7.5
2025-01-24 15:53:33.705771	66.6	16.6	-90.2	9.9
2025-01-24 15:53:34.864157	66.4	16.7	-90.3	9.1
2025-01-24 15:53:36.020965	66.2	16.8	-89.7	5.6
2025-01-24 15:53:37.182444	66.1	16.9	-89.5	4.6
2025-01-24 15:53:38.346816	65.9	17.0	-89.3	8.7
2025-01-24 15:53:39.508985	65.7	17.1	-89.7	10.0
2025-01-24 15:53:40.684909	65.5	17.2	-90.1	10.4
2025-01-24 15:53:41.853113	65.3	17.3	-90.3	14.4
2025-01-24 15:53:43.015186	65.1	17.4	-89.9	11.7
2025-01-24 15:53:44.179821	65.0	17.5	-89.7	17.8
2025-01-24 15:53:45.334458	64.8	17.6	-89.6	12.1
2025-01-24 15:53:46.499065	64.6	17.7	-90.0	9.3
2025-01-24 15:53:47.661444	64.4	17.8	-90.3	15.1
2025-01-24 15:53:48.825868	64.2	17.9	-90.5	12.2
2025-01-24 15:53:49.991057	64.0	18.0	-90.3	15.5
2025-01-24 15:53:51.154865	63.8	18.1	-89.8	13.1
2025-01-24 15:53:52.318528	63.6	18.2	-89.8	10.7
2025-01-24 15:53:53.481795	63.4	18.3	-91.3	6.6
2025-01-24 15:53:54.649187	63.2	18.4	-91.8	12.8
2025-01-24 15:53:55.806680	63.0	18.5	-91.4	12.7
2025-01-24 15:53:56.967574	62.8	18.6	-91.2	6.5
2025-01-24 15:53:58.129759	62.6	18.6	-91.2	10.7
2025-01-24 15:53:59.292984	62.4	18.7	-91.4	11.8
2025-01-24 15:54:00.445614	62.2	18.8	-91.2	10.6
2025-01-24 15:54:01.606754	62.0	18.9	-91.4	16.5
2025-01-24 15:54:02.770766	61.8	19.0	-91.6	16.6
2025-01-24 15:54:03.935866	61.6	19.1	-91.7	13.7
2025-01-24 15:54:05.100372	61.4	19.2	-91.5	8.2
2025-01-24 15:54:06.336134	61.2	19.3	-91.3	10.3
2025-01-24 15:54:07.500507	61.0	19.4	-91.4	8.0
2025-01-24 15:54:08.661699	60.8	19.5	-91.5	9.0
2025-01-24 15:54:09.827447	60.6	19.6	-91.6	15.5
2025-01-24 15:54:10.989815	60.3	19.7	-91.6	13.1
2025-01-24 15:54:12.148929	60.1	19.8	-91.1	10.3
2025-01-24 15:54:13.309616	59.9	19.9	-91.1	8.0
2025-01-24 15:54:14.478249	59.7	20.0	-92.0	10.9
2025-01-24 15:54:15.639148	59.5	20.1	-90.9	10.2
2025-01-24 15:54:16.805786	59.2	20.2	-91.4	17.7
2025-01-24 15:54:17.969710	59.0	20.3	-91.8	7.4
2025-01-24 15:54:19.134871	58.8	20.4	-91.1	12.1
2025-01-24 15:54:20.299185	58.6	20.5	-91.2	11.1
2025-01-24 15:54:21.460452	58.3	20.6	-91.3	8.6
2025-01-24 15:54:22.626606	58.1	20.7	-91.2	11.7
2025-01-24 15:54:23.779461	57.9	20.7	-91.6	15.9
2025-01-24 15:54:24.943544	57.7	20.8	-91.6	16.3
2025-01-24 15:54:26.097188	57.4	20.9	-90.8	14.9
2025-01-24 15:54:27.257826	57.2	21.0	-91.0	13.3
2025-01-24 15:54:28.416745	57.0	21.1	-91.4	10.8
2025-01-24 15:54:29.577585	56.7	21.2	-91.2	8.3
2025-01-24 15:54:30.737647	56.5	21.3	-91.5	16.1
2025-01-24 15:54:31.895554	56.2	21.4	-91.5	11.7
2025-01-24 15:54:33.060191	56.0	21.5	-91.5	14.3
2025-01-24 15:54:34.221628	55.8	21.6	-91.5	15.2
2025-01-24 15:54:35.387964	55.5	21.7	-91.5	13.2
2025-01-24 15:54:36.547485	55.3	21.8	-91.9	15.0
2025-01-24 15:54:37.714521	55.0	21.9	-92.0	15.6
2025-01-24 15:54:38.873729	54.8	22.0	-91.6	10.8
2025-01-24 15:54:40.035397	54.5	22.0	-92.1	7.2
2025-01-24 15:54:41.200236	54.3	22.1	-91.4	13.8
2025-01-24 15:54:42.364310	54.0	22.2	-91.5	8.6
2025-01-24 15:54:43.525917	53.8	22.3	-91.6	7.2
2025-01-24 15:54:44.691114	53.5	22.4	-91.8	13.9
2025-01-24 15:54:45.849000	53.3	22.5	-91.7	12.1
2025-01-24 15:54:47.015881	53.0	22.6	-92.1	11.5
2025-01-24 15:54:48.180468	52.7	22.7	-91.4	16.3
2025-01-24 15:54:49.342166	52.5	22.8	-91.6	15.1
2025-01-24 15:54:50.507109	52.2	22.9	-91.7	11.0
2025-01-24 15:54:51.669823	51.9	22.9	-91.7	14.6
2025-01-24 15:54:52.834811	51.7	23.0	-91.7	13.7
2025-01-24 15:54:53.993891	51.4	23.1	-91.9	8.4
2025-01-24 15:54:55.162854	51.1	23.2	-91.7	13.5
2025-01-24 15:54:56.322140	50.9	23.3	-91.6	13.0
2025-01-24 15:54:57.483045	50.6	23.4	-91.6	14.9
2025-01-24 15:54:58.649648	50.3	23.5	-92.0	14.0
2025-01-24 15:54:59.809493	50.0	23.5	-91.6	12.0
2025-01-24 15:55:00.966184	49.8	23.6	-91.9	15.2
2025-01-24 15:55:02.126601	49.5	23.7	-90.1	10.2
2025-01-24 15:55:03.292252	49.2	23.8	-90.1	13.1
2025-01-24 15:55:04.450500	48.9	23.9	-90.5	9.6
2025-01-24 15:55:05.610696	48.6	24.0	-90.9	7.5
2025-01-24 15:55:06.773629	48.4	24.0	-90.4	14.2
2025-01-24 15:55:07.933870	48.1	24.1	-90.7	7.0
2025-01-24 15:55:09.095732	47.8	24.2	-91.8	8.0
2025-01-24 15:55:10.260930	47.5	24.3	-91.3	11.7
2025-01-24 15:55:11.422005	47.2	24.4	-91.8	9.1
2025-01-24 15:55:12.585550	46.9	24.5	-91.8	9.7
2025-01-24 15:55:13.752509	46.6	24.5	-91.4	10.3
2025-01-24 15:55:14.912448	46.3	24.6	-91.6	13.1
2025-01-24 15:55:16.077227	46.0	24.7	-91.6	10.6
2025-01-24 15:55:17.240796	45.7	24.8	-91.7	13.0
2025-01-24 15:55:18.404607	45.4	24.8	-91.6	11.4
2025-01-24 15:55:19.560194	45.1	24.9	-91.9	10.5
2025-01-24 15:55:20.720870	44.8	25.0	-91.9	16.4
2025-01-24 15:55:21.883637	44.5	25.1	-92.0	11.0
2025-01-24 15:55:23.048469	44.2	25.1	-91.4	8.7
2025-01-24 15:55:24.211137	43.9	25.2	-91.5	10.1
2025-01-24 15:55:25.382501	43.6	25.3	-91.5	6.7
2025-01-24 15:55:26.544856	43.3	25.4	-92.0	8.3
2025-01-24 15:55:27.709451	43.0	25.4	-91.9	11.4
2025-01-24 15:55:28.873121	42.7	25.5	-90.8	12.5
2025-01-24 15:55:30.036698	42.3	25.6	-91.5	11.4
2025-01-24 15:55:31.197256	42.0	25.6	-91.8	13.2
2025-01-24 15:55:32.360005	41.7	25.7	-91.6	8.7
2025-01-24 15:55:33.526298	41.4	25.8	-91.6	5.6
2025-01-24 15:55:34.676422	41.1	25.8	-91.8	10.5
2025-01-24 15:55:35.835449	40.8	25.9	-92.1	10.8
2025-01-24 15:55:36.991558	40.4	26.0	-91.8	6.4
2025-01-24 15:55:38.112540	40.1	26.0	-91.7	8.4
2025-01-24 15:55:39.237532	39.8	26.1	-91.4	13.7
2025-01-24 15:55:40.402838	39.5	26.2	-91.7	7.3
2025-01-24 15:55:41.565463	39.2	26.2	-91.6	10.4
2025-01-24 15:55:42.721361	38.8	26.3	-91.2	15.5
2025-01-24 15:55:43.879615	38.5	26.3	-91.9	13.8
2025-01-24 15:55:45.046983	38.2	26.4	-92.0	13.1
2025-01-24 15:55:46.206714	37.8	26.5	-91.3	12.4
2025-01-24 15:55:47.365641	37.5	26.5	-91.2	10.4
2025-01-24 15:55:48.533207	37.2	26.6	-91.8	8.6
2025-01-24 15:55:49.693715	36.8	26.6	-92.0	10.8
2025-01-24 15:55:50.852804	36.5	26.7	-92.4	11.8
2025-01-24 15:55:52.013696	36.2	26.7	-92.2	9.4
2025-01-24 15:55:53.175619	35.8	26.8	-91.5	12.2
2025-01-24 15:55:54.342485	35.5	26.8	-91.5	11.5
2025-01-24 15:55:55.503985	35.1	26.9	-91.9	8.7
2025-01-24 15:55:56.664003	34.8	26.9	-91.8	11.5
2025-01-24 15:55:57.820863	34.5	27.0	-92.1	9.3
2025-01-24 15:55:58.980761	34.1	27.0	-91.9	5.7
2025-01-24 15:56:00.143415	33.8	27.1	-91.6	9.8
2025-01-24 15:56:01.302858	33.4	27.1	-91.6	6.4
2025-01-24 15:56:02.464509	33.1	27.2	-92.0	8.0
2025-01-24 15:56:03.633270	32.7	27.2	-91.6	9.9
2025-01-24 15:56:04.795162	32.4	27.2	-91.8	12.1
2025-01-24 15:56:05.957551	32.0	27.3	-91.8	10.8
2025-01-24 15:56:07.123261	31.7	27.3	-91.7	11.2
2025-01-24 15:56:08.295358	31.3	27.4	-91.8	12.5
2025-01-24 15:56:09.457141	31.0	27.4	-91.8	13.3
2025-01-24 15:56:10.616539	30.6	27.4	-91.8	11.7
2025-01-24 15:56:11.786419	30.3	27.5	-91.5	12.3
2025-01-24 15:56:12.945755	29.9	27.5	-91.7	6.8
2025-01-24 15:56:14.110142	29.5	27.5	-90.0	7.5
2025-01-24 15:56:15.283460	29.2	27.6	-90.4	10.1
2025-01-24 15:56:16.446619	28.8	27.6	-90.5	5.7
2025-01-24 15:56:17.604833	28.5	27.6	-89.8	6.4
2025-01-24 15:56:18.765550	28.1	27.6	-90.7	13.6
2025-01-24 15:56:19.927272	27.8	27.7	-89.9	7.2
2025-01-24 15:56:21.094982	27.4	27.7	-89.7	7.7
2025-01-24 15:56:22.255399	27.0	27.7	-90.0	8.4
2025-01-24 15:56:23.415319	26.7	27.7	-90.0	4.9
2025-01-24 15:56:24.574293	26.3	27.8	-90.2	4.5
2025-01-24 15:56:25.739605	26.0	27.8	-92.0	11.6
2025-01-24 15:56:26.899354	25.6	27.8	-91.8	10.0
2025-01-24 15:56:28.063498	25.2	27.8	-91.6	13.1
2025-01-24 15:56:29.228370	24.9	27.8	-91.8	11.1
2025-01-24 15:56:30.384485	24.5	27.8	-91.9	9.9
2025-01-24 15:56:31.541948	24.1	27.9	-92.0	6.4
2025-01-24 15:56:32.705974	23.8	27.9	-92.1	7.7
2025-01-24 15:56:33.870273	23.4	27.9	-92.3	11.4
2025-01-24 15:56:35.030570	23.0	27.9	-91.6	12.1
2025-01-24 15:56:36.194881	22.7	27.9	-91.6	12.6
2025-01-24 15:56:37.359648	22.3	27.9	-91.5	12.7
2025-01-24 15:56:38.522696	22.0	27.9	-91.9	13.5
2025-01-24 15:56:39.682192	21.6	27.9	-91.7	14.6
2025-01-24 15:56:40.844692	21.2	27.9	-91.8	8.1
2025-01-24 15:56:42.009424	20.9	27.9	-91.5	5.9
2025-01-24 15:56:43.165189	20.5	27.9	-91.6	7.4
2025-01-24 15:56:44.326104	20.1	27.9	-91.9	11.0
2025-01-24 15:56:45.486994	19.8	27.9	-91.9	7.9
2025-01-24 15:56:46.645745	19.4	27.9	-90.0	10.1
2025-01-24 15:56:47.810309	19.0	27.9	-90.4	9.9
2025-01-24 15:56:48.979774	18.7	27.9	-90.2	8.3
2025-01-24 15:56:50.138646	18.3	27.9	-89.9	8.0
2025-01-24 15:56:51.298490	17.9	27.9	-89.9	9.8
2025-01-24 15:56:52.457801	17.6	27.9	-90.2	6.9
2025-01-24 15:56:53.627393	17.2	27.9	-91.8	8.6
2025-01-24 15:56:54.790351	16.8	27.8	-91.7	10.0
2025-01-24 15:56:55.957059	16.5	27.8	-91.9	8.8
2025-01-24 15:56:57.114747	16.1	27.8	-91.4	8.4
2025-01-24 15:56:58.277502	15.8	27.8	-91.4	10.7
2025-01-24 15:56:59.447051	15.4	27.8	-91.9	7.1
2025-01-24 15:57:00.600820	15.0	27.8	-92.1	6.5
2025-01-24 15:57:01.768291	14.7	27.7	-90.5	10.3
2025-01-24 15:57:02.932000	14.3	27.7	-90.9	7.4
2025-01-24 15:57:04.093121	13.9	27.7	-90.6	9.1
2025-01-24 15:57:05.252487	13.6	27.7	-90.3	9.1
2025-01-24 15:57:06.413470	13.2	27.7	-90.8	7.7
2025-01-24 15:57:07.585733	12.9	27.6	-90.7	6.7
2025-01-24 15:57:08.744750	12.5	27.6	-89.9	8.1
2025-01-24 15:57:09.906140	12.2	27.6	-90.1	8.0
2025-01-24 15:57:11.068308	11.8	27.5	-89.8	9.7
2025-01-24 15:57:12.229052	11.4	27.5	-89.9	11.1
2025-01-24 15:57:13.393166	11.1	27.5	-90.1	7.2
2025-01-24 15:57:14.557371	10.7	27.4	-90.2	10.6
2025-01-24 15:57:15.711342	10.4	27.4	-90.3	11.3
2025-01-24 15:57:16.870557	10.0	27.4	-92.1	8.0
2025-01-24 15:57:18.035293	9.7	27.3	-92.0	9.5
2025-01-24 15:57:19.206728	9.3	27.3	-91.3	11.8
2025-01-24 15:57:20.372246	9.0	27.3	-91.3	13.7
2025-01-24 15:57:21.537570	8.6	27.2	-91.8	10.2
2025-01-24 15:57:22.699918	8.3	27.2	-92.1	10.6
2025-01-24 15:57:23.861872	7.9	27.1	-92.2	9.5
2025-01-24 15:57:25.030308	7.6	27.1	-91.9	10.2
2025-01-24 15:57:26.195200	7.2	27.0	-91.5	3.5
2025-01-24 15:57:27.358358	6.9	27.0	-91.5	8.5
2025-01-24 15:57:28.525777	6.5	26.9	-91.7	10.1
2025-01-24 15:57:29.690268	6.2	26.9	-91.9	11.5
2025-01-24 15:57:30.851845	5.8	26.8	-91.7	13.4
2025-01-24 15:57:32.008194	5.5	26.8	-91.7	13.9
2025-01-24 15:57:33.175571	5.2	26.7	-91.4	12.0
2025-01-24 15:57:34.339015	4.8	26.7	-91.7	10.7
2025-01-24 15:57:35.496711	4.5	26.6	-91.8	13.2
2025-01-24 15:57:36.652413	4.2	26.6	-91.9	12.3
2025-01-24 15:57:37.818561	3.8	26.5	-91.9	14.0
2025-01-24 15:57:38.979313	3.5	26.5	-92.3	11.9
2025-01-24 15:57:40.144114	3.1	26.4	-91.8	11.0
2025-01-24 15:57:41.307960	2.8	26.4	-91.7	13.5
2025-01-24 15:57:42.468883	2.5	26.3	-91.8	14.5
2025-01-24 15:57:43.632881	2.2	26.2	-91.9	12.4
2025-01-24 15:57:44.792751	1.8	26.2	-91.9	12.8
2025-01-24 15:57:45.957267	1.5	26.1	-91.9	13.0
2025-01-24 15:57:47.117661	1.2	26.0	-91.6	13.3
2025-01-24 15:57:48.286508	0.9	26.0	-91.6	14.8
2025-01-24 15:57:49.448525	0.5	25.9	-92.2	16.0
2025-01-24 15:57:50.607922	0.2	25.9	-92.2	17.3
2025-01-24 15:57:51.772401	359.9	25.8	-91.8	17.2
2025-01-24 15:57:52.935907	359.6	25.7	-91.8	13.8
2025-01-24 15:57:54.096030	359.3	25.7	-91.3	13.6
2025-01-24 15:57:55.253855	358.9	25.6	-91.0	13.6
2025-01-24 15:57:56.414308	358.6	25.5	-91.8	13.9
2025-01-24 15:57:57.574648	358.3	25.4	-91.7	14.0
2025-01-24 15:57:58.739568	358.0	25.4	-91.8	15.4
2025-01-24 15:57:59.904243	357.7	25.3	-92.0	12.5
2025-01-24 15:58:01.057259	357.4	25.2	-91.6	14.9
2025-01-24 15:58:02.218613	357.1	25.2	-91.2	15.6
2025-01-24 15:58:03.382337	356.8	25.1	-91.3	15.4
2025-01-24 15:58:04.542722	356.5	25.0	-91.7	13.4
2025-01-24 15:58:05.699307	356.2	24.9	-91.5	16.3
2025-01-24 15:58:06.856758	355.9	24.9	-91.5	16.5
2025-01-24 15:58:08.019407	355.6	24.8	-91.6	12.9
2025-01-24 15:58:09.181890	355.3	24.7	-91.3	15.2
2025-01-24 15:58:10.346833	355.0	24.6	-91.5	15.2
2025-01-24 15:58:11.514809	354.7	24.5	-92.1	9.4
2025-01-24 15:58:12.671181	354.4	24.5	-92.1	15.2
2025-01-24 15:58:13.843780	354.1	24.4	-91.6	12.8
2025-01-24 15:58:15.001060	353.8	24.3	-91.8	9.8
2025-01-24 15:58:16.165155	353.5	24.2	-91.3	17.2
2025-01-24 15:58:17.326866	353.2	24.1	-91.4	17.0
2025-01-24 15:58:18.493883	352.9	24.1	-91.5	7.2
2025-01-24 15:58:19.658087	352.6	24.0	-91.5	14.7
2025-01-24 15:58:20.813813	352.3	23.9	-92.0	11.8
2025-01-24 15:58:21.978923	352.1	23.8	-92.0	8.0
2025-01-24 15:58:23.143240	351.8	23.7	-91.4	13.3
2025-01-24 15:58:24.304758	351.5	23.6	-91.4	14.2
2025-01-24 15:58:25.464520	351.2	23.6	-92.0	7.5
2025-01-24 15:58:26.623681	350.9	23.5	-91.9	8.2
2025-01-24 15:58:27.788383	350.7	23.4	-91.9	13.8
2025-01-24 15:58:28.953050	350.4	23.3	-91.9	9.1
2025-01-24 15:58:30.117296	350.1	23.2	-91.4	9.7
2025-01-24 15:58:31.280259	349.9	23.1	-91.3	15.4
2025-01-24 15:58:32.440433	349.6	23.0	-91.4	9.3
2025-01-24 15:58:33.603006	349.3	23.0	-91.7	8.7
2025-01-24 15:58:34.764333	349.1	22.9	-91.5	11.5
2025-01-24 15:58:35.922933	348.8	22.8	-91.3	8.6
2025-01-24 15:58:37.082618	348.5	22.7	-91.2	10.2
2025-01-24 15:58:38.246037	348.3	22.6	-91.5	10.7
2025-01-24 15:58:39.416828	348.0	22.5	-91.8	11.2
2025-01-24 15:58:40.574124	347.7	22.4	-92.0	11.0
2025-01-24 15:58:41.737775	347.5	22.3	-91.8	8.0
2025-01-24 15:58:42.897491	347.2	22.2	-92.0	10.5
2025-01-24 15:58:44.059436	347.0	22.1	-91.6	9.4
2025-01-24 15:58:45.223079	346.7	22.1	-91.0	11.4
2025-01-24 15:58:46.386063	346.5	22.0	-91.5	8.8
2025-01-24 15:58:47.544582	346.2	21.9	-91.5	10.8
2025-01-24 15:58:48.709391	346.0	21.8	-91.3	13.0
2025-01-24 15:58:49.875412	345.7	21.7	-91.4	11.2
2025-01-24 15:58:51.035983	345.5	21.6	-91.6	11.1
2025-01-24 15:58:52.203894	345.2	21.5	-91.1	14.1
2025-01-24 15:58:53.364660	345.0	21.4	-91.1	12.6
2025-01-24 15:58:54.533083	344.8	21.3	-91.4	7.7
2025-01-24 15:58:55.696755	344.5	21.2	-91.3	11.9
2025-01-24 15:58:56.856884	344.3	21.1	-91.4	6.9
2025-01-24 15:58:58.012969	344.0	21.0	-91.6	7.8
2025-01-24 15:58:59.173125	343.8	20.9	-91.4	9.8
2025-01-24 15:59:00.334378	343.6	20.8	-91.1	10.9
2025-01-24 15:59:01.498160	343.3	20.8	-91.3	6.5
2025-01-24 15:59:02.663178	343.1	20.7	-91.4	7.3
2025-01-24 15:59:03.830635	342.9	20.6	-91.8	7.9
2025-01-24 15:59:04.987323	342.7	20.5	-91.6	5.1
2025-01-24 15:59:06.152115	342.4	20.4	-91.4	5.9
2025-01-24 15:59:07.313234	342.2	20.3	-91.0	6.9
2025-01-24 15:59:08.474142	342.0	20.2	-91.2	6.1
2025-01-24 15:59:09.637636	341.8	20.1	-91.6	5.5
2025-01-24 15:59:10.801845	341.5	20.0	-91.6	6.2
2025-01-24 15:59:11.965518	341.3	19.9	-91.5	6.5
2025-01-24 15:59:13.126537	341.1	19.8	-91.0	5.5
2025-01-24 15:59:14.287994	340.9	19.7	-91.1	3.9
2025-01-24 15:59:15.455530	340.7	19.6	-91.9	7.1
2025-01-24 15:59:16.613426	340.5	19.5	-91.3	5.3
2025-01-24 15:59:17.767023	340.2	19.4	-91.4	6.7
2025-01-24 15:59:18.928864	340.0	19.3	-91.0	5.3
2025-01-24 15:59:20.084361	339.8	19.2	-90.6	3.1
2025-01-24 15:59:21.244960	339.6	19.1	-90.2	4.7
2025-01-24 15:59:22.413661	339.4	19.0	-89.4	3.7
2025-01-24 15:59:23.577224	339.2	18.9	-90.1	5.7
2025-01-24 15:59:24.741496	339.0	18.8	-90.8	5.5
2025-01-24 15:59:25.903986	338.8	18.7	-90.4	4.2
2025-01-24 15:59:27.064573	338.6	18.7	-92.0	4.0
2025-01-24 15:59:28.221225	338.4	18.6	-91.8	7.1
2025-01-24 15:59:29.379170	338.2	18.5	-91.8	4.8
2025-01-24 15:59:30.542783	338.0	18.4	-91.7	7.5
2025-01-24 15:59:31.700219	337.8	18.3	-91.9	8.5
2025-01-24 15:59:32.863667	337.6	18.2	-91.7	8.6
2025-01-24 15:59:34.021546	337.4	18.1	-92.0	9.8
2025-01-24 15:59:35.189402	337.2	18.0	-91.5	8.8
2025-01-24 15:59:36.349881	337.0	17.9	-91.0	6.3
2025-01-24 15:59:37.505766	336.8	17.8	-92.0	5.9
2025-01-24 15:59:38.671041	336.6	17.7	-91.2	7.5
2025-01-24 15:59:39.838739	336.5	17.6	-91.6	5.1
2025-01-24 15:59:41.004543	336.3	17.5	-92.0	4.6
2025-01-24 15:59:42.164629	336.1	17.4	-91.6	3.1
2025-01-24 15:59:43.322396	335.9	17.3	-91.4	4.4
2025-01-24 15:59:44.486310	335.7	17.2	-91.6	5.5
2025-01-24 15:59:45.647922	335.5	17.1	-91.9	5.2
2025-01-24 15:59:46.804057	335.3	17.0	-90.4	5.9
2025-01-24 15:59:47.967754	335.2	16.9	-90.5	3.2
2025-01-24 15:59:49.126943	335.0	16.8	-90.0	3.9
2025-01-24 15:59:50.289517	334.8	16.7	-89.8	4.7
2025-01-24 15:59:51.448344	334.6	16.6	-90.2	4.6
2025-01-24 15:59:52.613146	334.5	16.5	-89.6	3.7
2025-01-24 15:59:53.770714	334.3	16.5	-91.9	5.1
2025-01-24 15:59:54.945066	334.1	16.4	-91.4	2.4
2025-01-24 15:59:56.104980	333.9	16.3	-91.1	4.4
2025-01-24 15:59:57.264319	333.8	16.2	-91.4	3.9
2025-01-24 15:59:58.422604	333.6	16.1	-91.2	6.0
2025-01-24 15:59:59.585851	333.4	16.0	-91.4	9.3
2025-01-24 16:00:00.742543	333.3	15.9	-90.3	7.1
2025-01-24 16:00:01.895627	333.1	15.8	-90.1	5.0
2025-01-24 16:00:03.056448	332.9	15.7	-90.1	6.6
2025-01-24 16:00:04.214451	332.8	15.6	-89.6	7.1
2025-01-24 16:00:05.373317	332.6	15.5	-90.1	5.5
2025-01-24 16:00:06.536287	332.4	15.4	-90.3	4.5
2025-01-24 16:00:07.694945	332.3	15.3	-89.8	5.7
2025-01-24 16:00:08.850355	332.1	15.2	-90.1	7.5
2025-01-24 16:00:10.015134	332.0	15.1	-89.8	4.6
2025-01-24 16:00:11.180199	331.8	15.0	-91.1	5.7
2025-01-24 16:00:12.342312	331.6	15.0	-91.1	5.4
2025-01-24 16:00:13.498394	331.5	14.9	-91.0	2.1
2025-01-24 16:00:14.657583	331.3	14.8	-91.5	4.3
2025-01-24 16:00:15.818462	331.2	14.7	-91.8	7.3
2025-01-24 16:00:16.977857	331.0	14.6	-91.4	6.8
#Closed at: 2025-01-24 15:53:18.360452