passes_logs/2025/01/24/LEX_Murmansk/LEX_Murmansk__20250124_103015_NOAA_19_rec.log

#Pass ID: 20250124_103015_NOAA 19
#Satellite: NOAA 19
#Configuration: NOAA 19
#Start time: 2025-01-24 10:30:10.913481

#LorettStation: 1.0.0 05.05.2024
#Station: LEX_Murmansk
#Location: 33.156738 lon 68.926811 lat
#TLE: 1 33591U 09005A   25023.14581638  .00000359  00000+0  21554-3 0  9999
#TLE: 2 33591  99.0183  86.9707 0014184  35.5055 324.7058 14.13266334822690

#Time	Az	El	Level	SNR
2025-01-24 10:30:23.049014	23.5	16.2	-90.0	2.5
2025-01-24 10:30:24.198342	23.4	16.3	-89.9	2.8
2025-01-24 10:30:25.347220	23.3	16.4	-89.7	2.9
2025-01-24 10:30:26.492409	23.2	16.6	-89.9	4.0
2025-01-24 10:30:27.640112	23.1	16.7	-89.9	3.1
2025-01-24 10:30:28.787584	23.0	16.8	-89.2	6.5
2025-01-24 10:30:29.935975	22.9	16.9	-89.9	6.0
2025-01-24 10:30:31.082891	22.8	17.0	-89.8	4.5
2025-01-24 10:30:32.228634	22.7	17.1	-89.5	1.5
2025-01-24 10:30:33.376924	22.6	17.3	-89.6	2.9
2025-01-24 10:30:34.517665	22.5	17.4	-90.0	2.8
2025-01-24 10:30:35.665036	22.4	17.5	-90.0	2.8
2025-01-24 10:30:36.812586	22.3	17.6	-89.6	4.9
2025-01-24 10:30:37.959377	22.1	17.7	-90.1	4.5
2025-01-24 10:30:39.105063	22.0	17.9	-89.9	4.8
2025-01-24 10:30:40.251167	21.9	18.0	-89.8	5.4
2025-01-24 10:30:41.403536	21.8	18.1	-90.0	3.3
2025-01-24 10:30:42.545187	21.7	18.2	-90.3	7.3
2025-01-24 10:30:43.691683	21.6	18.4	-89.8	5.2
2025-01-24 10:30:44.841279	21.4	18.5	-90.3	6.1
2025-01-24 10:30:45.984408	21.3	18.6	-90.1	7.0
2025-01-24 10:30:47.123898	21.2	18.7	-90.2	6.4
2025-01-24 10:30:48.267866	21.1	18.9	-90.4	4.9
2025-01-24 10:30:49.415023	21.0	19.0	-90.1	3.3
2025-01-24 10:30:50.559415	20.8	19.1	-90.3	2.5
2025-01-24 10:30:51.706480	20.7	19.2	-90.6	2.6
2025-01-24 10:30:52.853377	20.6	19.4	-90.1	2.8
2025-01-24 10:30:54.004351	20.5	19.5	-90.2	5.3
2025-01-24 10:30:55.152163	20.3	19.6	-90.5	4.5
2025-01-24 10:30:56.293206	20.2	19.8	-89.9	7.7
2025-01-24 10:30:57.436784	20.1	19.9	-90.3	6.2
2025-01-24 10:30:58.593079	19.9	20.0	-90.5	4.9
2025-01-24 10:30:59.745035	19.8	20.2	-90.0	3.2
2025-01-24 10:31:00.886196	19.7	20.3	-90.4	5.1
2025-01-24 10:31:02.030012	19.6	20.4	-90.6	5.1
2025-01-24 10:31:03.176595	19.4	20.6	-89.5	3.2
2025-01-24 10:31:04.322502	19.3	20.7	-89.4	4.7
2025-01-24 10:31:05.471306	19.1	20.8	-89.7	3.1
2025-01-24 10:31:06.617406	19.0	21.0	-89.3	2.7
2025-01-24 10:31:07.769225	18.9	21.1	-89.4	2.9
2025-01-24 10:31:08.919098	18.7	21.2	-89.8	2.6
2025-01-24 10:31:10.073902	18.6	21.4	-89.4	3.7
2025-01-24 10:31:11.220600	18.4	21.5	-90.1	3.6
2025-01-24 10:31:12.366685	18.3	21.6	-90.0	7.3
2025-01-24 10:31:13.510581	18.1	21.8	-90.0	9.1
2025-01-24 10:31:14.651756	18.0	21.9	-89.9	8.6
2025-01-24 10:31:15.801365	17.8	22.0	-90.1	6.4
2025-01-24 10:31:16.948504	17.7	22.2	-90.1	4.9
2025-01-24 10:31:18.093130	17.5	22.3	-89.6	6.4
2025-01-24 10:31:19.238405	17.4	22.5	-89.6	5.9
2025-01-24 10:31:20.379573	17.2	22.6	-89.5	8.8
2025-01-24 10:31:21.529846	17.1	22.7	-89.7	7.4
2025-01-24 10:31:22.677476	16.9	22.9	-89.8	4.1
2025-01-24 10:31:23.822215	16.8	23.0	-89.9	5.5
2025-01-24 10:31:24.969392	16.6	23.2	-90.0	4.2
2025-01-24 10:31:26.114686	16.4	23.3	-89.8	2.8
2025-01-24 10:31:27.257295	16.3	23.5	-90.2	2.4
2025-01-24 10:31:28.407316	16.1	23.6	-89.8	3.5
2025-01-24 10:31:29.554684	15.9	23.8	-90.0	7.9
2025-01-24 10:31:30.706245	15.8	23.9	-90.3	7.6
2025-01-24 10:31:31.856945	15.6	24.0	-90.1	4.5
2025-01-24 10:31:33.000490	15.4	24.2	-90.0	5.7
2025-01-24 10:31:34.150028	15.3	24.3	-90.3	6.5
2025-01-24 10:31:35.301227	15.1	24.5	-89.8	6.0
2025-01-24 10:31:36.449991	14.9	24.6	-90.3	6.8
2025-01-24 10:31:37.593875	14.7	24.8	-90.1	8.1
2025-01-24 10:31:38.744460	14.5	24.9	-90.3	6.3
2025-01-24 10:31:39.897931	14.4	25.1	-90.3	7.6
2025-01-24 10:31:41.045856	14.2	25.2	-90.3	3.7
2025-01-24 10:31:42.198245	14.0	25.4	-90.3	4.1
2025-01-24 10:31:43.346434	13.8	25.5	-90.4	3.7
2025-01-24 10:31:44.492861	13.6	25.7	-90.1	4.8
2025-01-24 10:31:45.642939	13.4	25.8	-90.0	2.7
2025-01-24 10:31:46.790058	13.2	26.0	-90.0	3.4
2025-01-24 10:31:47.939003	13.0	26.1	-90.5	4.7
2025-01-24 10:31:49.086589	12.8	26.3	-89.9	2.1
2025-01-24 10:31:50.236981	12.6	26.5	-89.9	4.3
2025-01-24 10:31:51.379971	12.4	26.6	-90.1	3.4
2025-01-24 10:31:52.526053	12.2	26.8	-90.0	5.9
2025-01-24 10:31:53.673855	12.0	26.9	-89.9	2.3
2025-01-24 10:31:54.820882	11.8	27.1	-90.0	3.2
2025-01-24 10:31:55.968263	11.6	27.2	-89.9	4.6
2025-01-24 10:31:57.109945	11.4	27.4	-89.8	3.7
2025-01-24 10:31:58.256462	11.2	27.5	-90.0	6.3
2025-01-24 10:31:59.403973	11.0	27.7	-90.3	6.1
2025-01-24 10:32:00.547551	10.8	27.9	-90.3	4.3
2025-01-24 10:32:01.690832	10.5	28.0	-89.9	3.0
2025-01-24 10:32:02.835987	10.3	28.2	-90.2	0.3
2025-01-24 10:32:03.990584	10.1	28.3	-90.4	1.7
2025-01-24 10:32:05.133719	9.9	28.5	-90.2	4.4
2025-01-24 10:32:06.279385	9.6	28.7	-89.9	2.3
2025-01-24 10:32:07.427484	9.4	28.8	-90.4	2.5
2025-01-24 10:32:08.576027	9.2	29.0	-90.4	1.7
2025-01-24 10:32:09.725188	8.9	29.1	-90.3	4.3
2025-01-24 10:32:10.873284	8.7	29.3	-90.0	3.6
2025-01-24 10:32:12.016108	8.5	29.5	-90.3	5.4
2025-01-24 10:32:13.165419	8.2	29.6	-90.2	5.6
2025-01-24 10:32:14.315754	8.0	29.8	-89.8	3.6
2025-01-24 10:32:15.460687	7.7	30.0	-90.6	2.1
2025-01-24 10:32:16.604843	7.5	30.1	-90.0	8.1
2025-01-24 10:32:17.748463	7.2	30.3	-90.2	7.7
2025-01-24 10:32:18.900446	7.0	30.5	-90.1	6.7
2025-01-24 10:32:20.045245	6.7	30.6	-89.9	5.1
2025-01-24 10:32:21.194684	6.5	30.8	-90.1	5.7
2025-01-24 10:32:22.339888	6.2	30.9	-90.1	2.4
2025-01-24 10:32:23.486280	5.9	31.1	-89.8	4.3
2025-01-24 10:32:24.634759	5.7	31.3	-90.0	2.6
2025-01-24 10:32:25.779456	5.4	31.4	-90.2	1.4
2025-01-24 10:32:26.926203	5.1	31.6	-90.2	3.6
2025-01-24 10:32:28.074996	4.8	31.8	-90.1	4.1
2025-01-24 10:32:29.217124	4.6	31.9	-90.1	5.1
2025-01-24 10:32:30.367482	4.3	32.1	-90.0	6.5
2025-01-24 10:32:31.510202	4.0	32.3	-90.2	6.5
2025-01-24 10:32:32.660724	3.7	32.4	-90.3	6.6
2025-01-24 10:32:33.814964	3.4	32.6	-90.5	5.4
2025-01-24 10:32:34.959607	3.1	32.8	-90.3	7.6
2025-01-24 10:32:36.105859	2.8	32.9	-89.6	4.7
2025-01-24 10:32:37.250230	2.5	33.1	-90.1	3.7
2025-01-24 10:32:38.398653	2.2	33.3	-90.6	6.2
2025-01-24 10:32:39.547665	1.9	33.4	-90.2	7.7
2025-01-24 10:32:40.694795	1.6	33.6	-90.4	7.8
2025-01-24 10:32:41.839297	1.3	33.8	-90.7	11.4
2025-01-24 10:32:42.996368	1.0	33.9	-90.7	4.4
2025-01-24 10:32:44.147230	0.6	34.1	-90.2	5.4
2025-01-24 10:32:45.295304	0.3	34.3	-90.5	2.3
2025-01-24 10:32:46.446653	360.0	34.4	-90.6	4.7
2025-01-24 10:32:47.591137	359.6	34.6	-90.7	3.7
2025-01-24 10:32:48.748020	359.3	34.8	-90.2	2.9
2025-01-24 10:32:49.898243	359.0	34.9	-90.6	3.2
2025-01-24 10:32:51.048071	358.6	35.1	-90.5	7.7
2025-01-24 10:32:52.195024	358.3	35.3	-90.3	7.4
2025-01-24 10:32:53.339122	357.9	35.4	-90.6	8.1
2025-01-24 10:32:54.491724	357.6	35.6	-90.5	10.0
2025-01-24 10:32:55.638667	357.2	35.8	-90.5	9.8
2025-01-24 10:32:56.784017	356.9	35.9	-90.2	6.0
2025-01-24 10:32:57.932701	356.5	36.1	-90.9	8.6
2025-01-24 10:32:59.077098	356.1	36.2	-90.3	9.4
2025-01-24 10:33:00.224016	355.8	36.4	-90.4	7.2
2025-01-24 10:33:01.369221	355.4	36.6	-90.4	4.4
2025-01-24 10:33:02.515032	355.0	36.7	-90.5	8.9
2025-01-24 10:33:03.666892	354.6	36.9	-90.7	3.5
2025-01-24 10:33:04.814500	354.3	37.0	-90.3	8.5
2025-01-24 10:33:05.969381	353.9	37.2	-90.7	7.7
2025-01-24 10:33:07.115662	353.5	37.4	-90.7	9.1
2025-01-24 10:33:08.259504	353.1	37.5	-90.4	8.7
2025-01-24 10:33:09.403490	352.7	37.7	-90.7	6.1
2025-01-24 10:33:10.544795	352.3	37.8	-90.6	5.8
2025-01-24 10:33:11.701613	351.9	38.0	-90.6	2.0
2025-01-24 10:33:12.848784	351.5	38.1	-90.7	2.1
2025-01-24 10:33:13.998163	351.1	38.3	-90.8	5.9
2025-01-24 10:33:15.139496	350.6	38.4	-90.2	5.3
2025-01-24 10:33:16.285705	350.2	38.6	-90.4	2.5
2025-01-24 10:33:17.434716	349.8	38.7	-90.7	6.7
2025-01-24 10:33:18.581185	349.4	38.9	-90.4	8.9
2025-01-24 10:33:19.728631	348.9	39.0	-90.4	10.5
2025-01-24 10:33:20.880245	348.5	39.2	-90.9	12.6
2025-01-24 10:33:22.025204	348.0	39.3	-90.5	14.6
2025-01-24 10:33:23.176231	347.6	39.5	-90.6	12.3
2025-01-24 10:33:24.323127	347.1	39.6	-90.6	10.3
2025-01-24 10:33:25.474294	346.7	39.7	-90.4	13.5
2025-01-24 10:33:26.620387	346.2	39.9	-90.4	12.7
2025-01-24 10:33:27.762142	345.8	40.0	-90.8	6.5
2025-01-24 10:33:28.910258	345.3	40.1	-90.6	9.1
2025-01-24 10:33:30.061666	344.8	40.3	-90.4	9.8
2025-01-24 10:33:31.205268	344.4	40.4	-90.1	9.2
2025-01-24 10:33:32.356931	343.9	40.5	-90.1	11.3
2025-01-24 10:33:33.511857	343.4	40.7	-90.5	15.8
2025-01-24 10:33:34.654618	342.9	40.8	-90.4	17.1
2025-01-24 10:33:35.801331	342.4	40.9	-90.3	15.6
2025-01-24 10:33:36.951250	341.9	41.0	-90.3	15.2
2025-01-24 10:33:38.094234	341.4	41.2	-89.9	14.3
2025-01-24 10:33:39.236097	340.9	41.3	-90.5	12.7
2025-01-24 10:33:40.381708	340.4	41.4	-90.4	11.9
2025-01-24 10:33:41.529745	339.9	41.5	-90.6	10.5
2025-01-24 10:33:42.675174	339.4	41.6	-90.4	7.7
2025-01-24 10:33:43.821545	338.9	41.7	-90.5	4.7
2025-01-24 10:33:44.967636	338.4	41.8	-90.4	7.9
2025-01-24 10:33:46.117043	337.9	41.9	-90.3	7.7
2025-01-24 10:33:47.258551	337.4	42.0	-90.1	4.4
2025-01-24 10:33:48.404352	336.8	42.1	-90.2	3.9
2025-01-24 10:33:49.550026	336.3	42.2	-90.7	8.6
2025-01-24 10:33:50.703413	335.8	42.3	-90.6	8.6
2025-01-24 10:33:51.851039	335.2	42.4	-90.3	9.4
2025-01-24 10:33:53.000207	334.7	42.5	-89.9	14.5
2025-01-24 10:33:54.150110	334.1	42.6	-89.9	13.3
2025-01-24 10:33:55.293566	333.6	42.7	-90.0	15.1
2025-01-24 10:33:56.450315	333.0	42.8	-90.2	18.6
2025-01-24 10:33:57.595267	332.5	42.8	-90.4	17.1
2025-01-24 10:33:58.742866	331.9	42.9	-90.4	17.0
2025-01-24 10:33:59.894285	331.4	43.0	-90.6	15.2
2025-01-24 10:34:01.036727	330.8	43.1	-90.4	13.8
2025-01-24 10:34:02.186079	330.3	43.1	-90.0	9.3
2025-01-24 10:34:03.340239	329.7	43.2	-89.9	9.8
2025-01-24 10:34:04.488238	329.1	43.2	-89.8	13.1
2025-01-24 10:34:05.635102	328.6	43.3	-90.0	12.6
2025-01-24 10:34:06.780063	328.0	43.4	-90.5	8.4
2025-01-24 10:34:07.931678	327.4	43.4	-90.2	8.1
2025-01-24 10:34:09.073095	326.9	43.5	-90.6	11.2
2025-01-24 10:34:10.220577	326.3	43.5	-90.4	7.2
2025-01-24 10:34:11.367924	325.7	43.5	-90.0	12.1
2025-01-24 10:34:12.520595	325.1	43.6	-90.3	12.0
2025-01-24 10:34:13.668970	324.5	43.6	-90.1	8.7
2025-01-24 10:34:14.816035	324.0	43.6	-90.1	9.0
2025-01-24 10:34:15.963814	323.4	43.7	-89.8	12.3
2025-01-24 10:34:17.110179	322.8	43.7	-90.4	15.1
2025-01-24 10:34:18.257731	322.2	43.7	-90.6	14.3
2025-01-24 10:34:19.405665	321.6	43.7	-90.5	17.1
2025-01-24 10:34:20.551412	321.0	43.7	-90.2	16.0
2025-01-24 10:34:21.700627	320.5	43.8	-90.0	15.8
2025-01-24 10:34:22.849076	319.9	43.8	-90.4	16.4
2025-01-24 10:34:24.001895	319.3	43.8	-90.1	13.7
2025-01-24 10:34:25.151682	318.7	43.8	-90.3	14.9
2025-01-24 10:34:26.298042	318.1	43.8	-90.2	13.2
2025-01-24 10:34:27.442083	317.5	43.8	-90.2	13.8
2025-01-24 10:34:28.592077	316.9	43.8	-90.7	9.6
2025-01-24 10:34:29.740208	316.4	43.7	-90.8	12.1
2025-01-24 10:34:30.883483	315.8	43.7	-90.3	11.3
2025-01-24 10:34:32.029118	315.2	43.7	-90.3	11.1
2025-01-24 10:34:33.181723	314.6	43.7	-90.4	9.2
2025-01-24 10:34:34.328864	314.0	43.7	-90.5	9.2
2025-01-24 10:34:35.477794	313.4	43.6	-90.4	12.3
2025-01-24 10:34:36.623578	312.9	43.6	-90.8	9.0
2025-01-24 10:34:37.771192	312.3	43.6	-90.4	6.2
2025-01-24 10:34:38.926750	311.7	43.5	-90.0	7.3
2025-01-24 10:34:40.072944	311.1	43.5	-89.9	7.3
2025-01-24 10:34:41.220966	310.6	43.4	-90.2	4.9
2025-01-24 10:34:42.368292	310.0	43.4	-90.3	7.0
2025-01-24 10:34:43.514856	309.4	43.3	-90.1	8.1
2025-01-24 10:34:44.659125	308.8	43.3	-90.5	4.6
2025-01-24 10:34:45.803628	308.3	43.2	-90.4	6.3
2025-01-24 10:34:46.958282	307.7	43.2	-90.1	7.4
2025-01-24 10:34:48.100518	307.1	43.1	-90.0	5.4
2025-01-24 10:34:49.246238	306.6	43.0	-90.4	1.7
2025-01-24 10:34:50.393751	306.0	43.0	-89.9	4.6
2025-01-24 10:34:51.540236	305.5	42.9	-90.1	7.5
2025-01-24 10:34:52.693813	304.9	42.8	-90.6	6.3
2025-01-24 10:34:53.847837	304.4	42.7	-90.4	4.7
2025-01-24 10:34:54.995387	303.8	42.7	-90.4	5.9
2025-01-24 10:34:56.141592	303.3	42.6	-90.2	5.6
2025-01-24 10:34:57.286637	302.7	42.5	-89.9	3.4
2025-01-24 10:34:58.434002	302.2	42.4	-90.2	5.9
2025-01-24 10:34:59.580326	301.7	42.3	-90.0	6.5
2025-01-24 10:35:00.726242	301.1	42.2	-90.0	4.9
2025-01-24 10:35:01.870478	300.6	42.1	-90.1	3.0
2025-01-24 10:35:03.016026	300.1	42.0	-90.1	5.3
2025-01-24 10:35:04.164686	299.5	41.9	-90.2	4.3
2025-01-24 10:35:05.311488	299.0	41.8	-89.6	3.4
2025-01-24 10:35:06.460895	298.5	41.7	-89.8	3.8
2025-01-24 10:35:07.609505	298.0	41.6	-90.2	9.1
2025-01-24 10:35:08.751841	297.5	41.5	-88.9	2.7
2025-01-24 10:35:09.896340	297.0	41.4	-89.7	4.1
2025-01-24 10:35:11.038045	296.5	41.3	-90.4	8.2
2025-01-24 10:35:12.181334	296.0	41.1	-89.7	3.0
2025-01-24 10:35:13.327646	295.5	41.0	-89.8	3.6
2025-01-24 10:35:14.473055	295.0	40.9	-90.0	7.4
2025-01-24 10:35:15.621846	294.5	40.8	-89.8	8.8
2025-01-24 10:35:16.768062	294.0	40.7	-88.9	2.7
2025-01-24 10:35:17.913924	293.6	40.5	-89.8	5.9
2025-01-24 10:35:19.059869	293.1	40.4	-89.5	6.8
2025-01-24 10:35:20.208024	292.6	40.3	-90.0	4.9
2025-01-24 10:35:21.356965	292.1	40.1	-90.3	10.0
2025-01-24 10:35:22.501683	291.7	40.0	-90.0	8.8
2025-01-24 10:35:23.653499	291.2	39.9	-90.3	6.8
2025-01-24 10:35:24.800877	290.7	39.7	-90.1	6.9
2025-01-24 10:35:25.953839	290.3	39.6	-89.8	8.7
2025-01-24 10:35:27.103860	289.8	39.4	-90.2	9.8
2025-01-24 10:35:28.249199	289.4	39.3	-90.3	7.1
2025-01-24 10:35:29.395658	289.0	39.2	-90.3	8.4
2025-01-24 10:35:30.538233	288.5	39.0	-90.2	10.7
2025-01-24 10:35:31.684810	288.1	38.9	-90.5	8.1
2025-01-24 10:35:32.830407	287.7	38.7	-90.7	8.6
2025-01-24 10:35:33.981384	287.2	38.6	-90.3	10.3
2025-01-24 10:35:35.127760	286.8	38.4	-90.2	9.7
2025-01-24 10:35:36.276090	286.4	38.3	-90.0	13.2
2025-01-24 10:35:37.422374	286.0	38.1	-89.7	10.4
2025-01-24 10:35:38.574990	285.6	38.0	-89.9	10.5
2025-01-24 10:35:39.723689	285.2	37.8	-90.5	11.2
2025-01-24 10:35:40.870414	284.8	37.7	-90.4	10.9
2025-01-24 10:35:42.018688	284.4	37.5	-90.1	8.9
2025-01-24 10:35:43.168153	284.0	37.4	-90.0	11.2
2025-01-24 10:35:44.311650	283.6	37.2	-90.3	10.5
2025-01-24 10:35:45.454870	283.2	37.0	-90.3	12.3
2025-01-24 10:35:46.604330	282.8	36.9	-90.3	11.6
2025-01-24 10:35:47.750132	282.4	36.7	-90.6	10.7
2025-01-24 10:35:48.899612	282.0	36.6	-90.7	9.6
2025-01-24 10:35:50.048835	281.7	36.4	-90.3	6.0
2025-01-24 10:35:51.198344	281.3	36.2	-90.4	10.8
2025-01-24 10:35:52.345662	280.9	36.1	-90.4	10.9
2025-01-24 10:35:53.493883	280.6	35.9	-90.3	7.5
2025-01-24 10:35:54.644824	280.2	35.7	-90.6	7.1
2025-01-24 10:35:55.790962	279.9	35.6	-90.6	8.1
2025-01-24 10:35:56.937311	279.5	35.4	-90.7	4.5
2025-01-24 10:35:58.079753	279.2	35.3	-90.6	4.9
2025-01-24 10:35:59.227231	278.8	35.1	-90.6	8.6
2025-01-24 10:36:00.372635	278.5	34.9	-90.3	5.3
2025-01-24 10:36:01.516725	278.1	34.8	-90.5	4.0
2025-01-24 10:36:02.667636	277.8	34.6	-90.5	8.6
2025-01-24 10:36:03.817153	277.5	34.4	-90.2	10.1
2025-01-24 10:36:04.962826	277.2	34.3	-90.3	5.0
2025-01-24 10:36:06.113493	276.8	34.1	-90.6	2.8
2025-01-24 10:36:07.260249	276.5	33.9	-90.1	6.1
2025-01-24 10:36:08.412465	276.2	33.8	-90.3	6.0
2025-01-24 10:36:09.559133	275.9	33.6	-90.5	5.9
2025-01-24 10:36:10.706548	275.6	33.4	-90.8	10.2
2025-01-24 10:36:11.855935	275.3	33.3	-90.6	7.4
2025-01-24 10:36:13.001984	275.0	33.1	-90.2	6.8
2025-01-24 10:36:14.143392	274.7	32.9	-90.4	10.0
2025-01-24 10:36:15.289929	274.4	32.8	-90.7	8.2
2025-01-24 10:36:16.452019	274.1	32.6	-90.4	7.2
2025-01-24 10:36:17.597495	273.8	32.4	-90.5	7.6
2025-01-24 10:36:18.746130	273.5	32.3	-90.3	9.9
2025-01-24 10:36:19.892917	273.2	32.1	-90.1	4.8
2025-01-24 10:36:21.037234	272.9	31.9	-90.3	5.6
2025-01-24 10:36:22.184411	272.6	31.8	-90.6	2.4
2025-01-24 10:36:23.330803	272.4	31.6	-90.0	6.8
2025-01-24 10:36:24.479002	272.1	31.4	-90.2	3.2
2025-01-24 10:36:25.627620	271.8	31.3	-90.3	2.9
2025-01-24 10:36:26.773072	271.5	31.1	-90.4	5.3
2025-01-24 10:36:27.922430	271.3	30.9	-90.7	3.1
2025-01-24 10:36:29.072326	271.0	30.8	-90.3	1.8
2025-01-24 10:36:30.213490	270.8	30.6	-90.4	2.3
2025-01-24 10:36:31.358559	270.5	30.5	-90.1	2.7
2025-01-24 10:36:32.504191	270.2	30.3	-90.6	1.7
2025-01-24 10:36:33.648356	270.0	30.1	-90.6	2.2
2025-01-24 10:36:34.795582	269.7	30.0	-90.7	5.4
2025-01-24 10:36:35.941438	269.5	29.8	-90.6	5.1
2025-01-24 10:36:37.087149	269.3	29.6	-90.4	7.2
2025-01-24 10:36:38.234233	269.0	29.5	-90.4	6.8
2025-01-24 10:36:39.384567	268.8	29.3	-90.4	7.6
2025-01-24 10:36:40.529212	268.5	29.2	-90.7	8.1
2025-01-24 10:36:41.676163	268.3	29.0	-90.8	6.7
2025-01-24 10:36:42.824406	268.1	28.8	-90.7	8.5
2025-01-24 10:36:43.970751	267.8	28.7	-90.4	7.8
2025-01-24 10:36:45.121200	267.6	28.5	-90.3	7.0
2025-01-24 10:36:46.267394	267.4	28.3	-90.4	9.1
2025-01-24 10:36:47.415408	267.2	28.2	-90.9	4.7
2025-01-24 10:36:48.559357	266.9	28.0	-90.4	4.9
2025-01-24 10:36:49.701432	266.7	27.9	-90.7	7.9
2025-01-24 10:36:50.853174	266.5	27.7	-90.6	8.0
2025-01-24 10:36:52.008160	266.3	27.6	-90.7	4.9
2025-01-24 10:36:53.154225	266.1	27.4	-90.3	8.9
2025-01-24 10:36:54.297453	265.9	27.2	-90.8	8.2
2025-01-24 10:36:55.443299	265.7	27.1	-90.5	6.6
2025-01-24 10:36:56.589993	265.4	26.9	-90.4	8.5
2025-01-24 10:36:57.733539	265.2	26.8	-90.4	11.8
2025-01-24 10:36:58.880323	265.0	26.6	-90.4	11.6
2025-01-24 10:37:00.025151	264.8	26.5	-90.6	11.2
2025-01-24 10:37:01.167027	264.6	26.3	-90.8	11.5
2025-01-24 10:37:02.311438	264.4	26.2	-90.3	10.2
2025-01-24 10:37:03.461557	264.2	26.0	-90.4	12.9
2025-01-24 10:37:04.608520	264.1	25.9	-90.3	11.4
2025-01-24 10:37:05.755782	263.9	25.7	-90.5	11.3
2025-01-24 10:37:06.902374	263.7	25.5	-90.7	5.6
2025-01-24 10:37:08.047939	263.5	25.4	-91.0	10.0
2025-01-24 10:37:09.188402	263.3	25.2	-90.7	10.2
2025-01-24 10:37:10.334749	263.1	25.1	-90.6	9.5
2025-01-24 10:37:11.479413	262.9	24.9	-90.8	10.3
2025-01-24 10:37:12.623752	262.8	24.8	-90.6	10.8
2025-01-24 10:37:13.772922	262.6	24.7	-90.1	11.0
2025-01-24 10:37:14.922509	262.4	24.5	-90.0	7.8
2025-01-24 10:37:16.069684	262.2	24.4	-89.9	10.8
2025-01-24 10:37:17.219597	262.1	24.2	-89.9	12.9
2025-01-24 10:37:18.366973	261.9	24.1	-89.5	10.8
2025-01-24 10:37:19.509210	261.7	23.9	-90.0	11.2
2025-01-24 10:37:20.654991	261.5	23.8	-90.1	12.6
2025-01-24 10:37:21.798068	261.4	23.6	-89.9	11.6
2025-01-24 10:37:22.947379	261.2	23.5	-89.5	7.9
2025-01-24 10:37:24.087772	261.1	23.3	-89.8	9.3
2025-01-24 10:37:25.223105	260.9	23.2	-89.9	12.0
2025-01-24 10:37:26.360486	260.7	23.1	-89.8	9.1
2025-01-24 10:37:27.509713	260.6	22.9	-90.2	5.3
2025-01-24 10:37:28.660730	260.4	22.8	-90.2	12.2
2025-01-24 10:37:29.808958	260.3	22.6	-90.4	10.9
2025-01-24 10:37:30.956325	260.1	22.5	-90.5	8.7
2025-01-24 10:37:32.105055	259.9	22.4	-90.3	6.0
2025-01-24 10:37:33.253495	259.8	22.2	-90.1	11.4
2025-01-24 10:37:34.402578	259.6	22.1	-89.9	10.6
2025-01-24 10:37:35.546958	259.5	21.9	-89.9	8.6
2025-01-24 10:37:36.691784	259.3	21.8	-90.0	7.4
2025-01-24 10:37:37.841630	259.2	21.7	-90.2	6.3
2025-01-24 10:37:38.990431	259.1	21.5	-90.2	4.8
2025-01-24 10:37:40.141471	258.9	21.4	-90.2	6.7
2025-01-24 10:37:41.286188	258.8	21.3	-90.3	8.3
2025-01-24 10:37:42.433087	258.6	21.1	-90.1	5.1
2025-01-24 10:37:43.580327	258.5	21.0	-90.4	3.1
2025-01-24 10:37:44.728302	258.3	20.8	-90.4	6.0
2025-01-24 10:37:45.875835	258.2	20.7	-90.6	7.3
2025-01-24 10:37:47.022234	258.1	20.6	-90.6	3.9
2025-01-24 10:37:48.168728	257.9	20.4	-90.7	4.3
2025-01-24 10:37:49.319384	257.8	20.3	-90.6	6.9
2025-01-24 10:37:50.462851	257.7	20.2	-90.8	7.1
2025-01-24 10:37:51.611905	257.5	20.1	-90.8	4.5
2025-01-24 10:37:52.760996	257.4	19.9	-90.5	4.8
2025-01-24 10:37:53.919202	257.3	19.8	-90.9	3.9
2025-01-24 10:37:55.062009	257.1	19.7	-90.4	5.7
2025-01-24 10:37:56.208332	257.0	19.5	-90.4	3.7
2025-01-24 10:37:57.357634	256.9	19.4	-90.6	3.4
2025-01-24 10:37:58.498943	256.8	19.3	-90.2	1.9
2025-01-24 10:37:59.644229	256.6	19.1	-90.4	4.1
2025-01-24 10:38:00.790743	256.5	19.0	-90.3	5.8
2025-01-24 10:38:01.935577	256.4	18.9	-90.2	1.5
2025-01-24 10:38:03.087970	256.3	18.8	-90.4	3.3
2025-01-24 10:38:04.230704	256.2	18.6	-90.4	4.9
2025-01-24 10:38:05.376881	256.0	18.5	-90.1	1.9
2025-01-24 10:38:06.530875	255.9	18.4	-90.6	4.6
2025-01-24 10:38:07.678592	255.8	18.3	-90.5	8.5
2025-01-24 10:38:08.822544	255.7	18.1	-90.5	5.9
2025-01-24 10:38:09.970253	255.6	18.0	-90.1	6.9
2025-01-24 10:38:11.121313	255.5	17.9	-90.3	6.9
2025-01-24 10:38:12.266215	255.3	17.8	-90.4	4.1
2025-01-24 10:38:13.417695	255.2	17.7	-90.1	5.7
2025-01-24 10:38:14.567851	255.1	17.5	-90.3	4.0
2025-01-24 10:38:15.717514	255.0	17.4	-90.3	5.3
2025-01-24 10:38:16.863870	254.9	17.3	-90.5	5.9
2025-01-24 10:38:18.008284	254.8	17.2	-90.1	1.0
2025-01-24 10:38:19.161815	254.7	17.1	-90.1	4.4
2025-01-24 10:38:20.303378	254.6	16.9	-90.2	5.9
2025-01-24 10:38:21.451966	254.5	16.8	-89.9	2.9
2025-01-24 10:38:22.601650	254.4	16.7	-90.0	6.8
2025-01-24 10:38:23.748987	254.3	16.6	-90.5	6.0
2025-01-24 10:38:24.897697	254.2	16.5	-90.1	8.6
2025-01-24 10:38:26.044916	254.0	16.3	-90.1	6.4
2025-01-24 10:38:27.191629	253.9	16.2	-90.4	7.8
2025-01-24 10:38:28.341046	253.8	16.1	-90.1	7.3
2025-01-24 10:38:29.486055	253.7	16.0	-90.2	3.6
2025-01-24 10:38:30.632495	253.6	15.9	-90.6	6.3
2025-01-24 10:38:31.780965	253.5	15.8	-90.1	8.1
2025-01-24 10:38:32.925090	253.4	15.7	-90.3	5.7
2025-01-24 10:38:34.075608	253.4	15.5	-90.1	4.4
2025-01-24 10:38:35.220238	253.3	15.4	-90.2	10.1
2025-01-24 10:38:36.367791	253.2	15.3	-89.9	10.8
2025-01-24 10:38:37.513069	253.1	15.2	-90.2	6.5
2025-01-24 10:38:38.662308	253.0	15.1	-90.3	9.4
2025-01-24 10:38:39.804930	252.9	15.0	-90.2	11.3
2025-01-24 10:38:40.948682	252.8	14.9	-90.3	8.3
2025-01-24 10:38:42.093100	252.7	14.8	-90.1	5.7
2025-01-24 10:38:43.237217	252.6	14.7	-90.2	6.3
2025-01-24 10:38:44.376647	252.5	14.5	-90.2	3.8
#Closed at: 2025-01-24 10:30:15.858356