passes_logs/2026/01/16/T1/T1__20260116_221452_FENGYUN_3G_rec.log

#Pass ID: 20260116_221452_FENGYUN 3G
#Satellite: FENGYUN 3G
#Configuration: FENGYUN 3G
#almurnet v.1.7.20251203
#Start time: 2026-01-16 22:14:52

#Version: 2.0.20230620
#Station: T1
#Location: 37.570604 lon 55.790049 lat
#TLE: 1 56232U 23055A   26016.27117466  .00021245  00000+0  33355-3 0  9997
#TLE: 2 56232  49.9942  49.3739 0004180  33.4292 326.6938 15.53552571156398

#Time	Az	El	Level	Level2	SNR	BER	BlckErr	Temp	State	Recorded	gain1	gain2
2026-01-16 22:14:52.27	241.84	5.02	-50.0	-69.0	3.8	8.47e-01	0	36	0	0	72	30633
2026-01-16 22:14:54.25	241.67	5.17	-50.0	-69.0	3.8	8.47e-01	0	36	104	0	72	30551
2026-01-16 22:14:56.24	241.50	5.32	-50.0	-69.0	3.8	8.47e-01	0	36	104	0	72	30483
2026-01-16 22:14:58.23	241.32	5.47	-50.0	-68.9	3.8	8.47e-01	0	36	104	0	72	30152
2026-01-16 22:15:00.21	241.14	5.63	-50.0	-68.7	3.8	8.46e-01	0	36	104	0	72	29673
2026-01-16 22:15:02.20	240.96	5.78	-50.0	-68.6	3.8	8.46e-01	0	36	104	0	72	29318
2026-01-16 22:15:04.18	240.78	5.94	-50.0	-68.6	3.8	8.46e-01	0	37	104	0	71	30989
2026-01-16 22:15:06.17	240.59	6.10	-50.0	-68.7	3.8	8.47e-01	0	37	104	0	71	31224
2026-01-16 22:15:08.15	240.40	6.25	-50.0	-68.7	3.8	8.47e-01	0	37	104	0	71	31416
2026-01-16 22:15:10.14	240.21	6.41	-50.0	-68.7	3.8	8.48e-01	0	37	104	0	71	31261
2026-01-16 22:15:12.13	240.02	6.58	-50.0	-68.4	3.8	8.48e-01	0	37	104	0	71	30300
2026-01-16 22:15:14.11	239.82	6.74	-50.0	-68.7	3.8	8.46e-01	0	37	104	0	71	31347
2026-01-16 22:15:16.10	239.62	6.90	-50.0	-68.9	3.8	8.46e-01	0	37	104	0	71	32152
2026-01-16 22:15:18.08	239.41	7.07	-50.0	-68.8	3.8	8.47e-01	0	37	104	0	71	31508
2026-01-16 22:15:20.07	239.20	7.23	-50.0	-68.8	3.8	8.46e-01	0	37	104	0	71	31474
2026-01-16 22:15:22.06	238.99	7.40	-50.0	-68.8	3.8	8.48e-01	0	37	104	0	71	31737
2026-01-16 22:15:24.04	238.78	7.57	-50.0	-68.0	3.8	8.47e-01	0	37	104	0	71	28885
2026-01-16 22:15:26.03	238.56	7.74	-50.0	-66.9	3.8	8.47e-01	0	37	104	0	71	25555
2026-01-16 22:15:28.02	238.33	7.91	-50.0	-67.5	3.8	8.46e-01	0	37	104	0	71	27219
2026-01-16 22:15:30.00	238.11	8.09	-50.0	-68.6	3.8	8.46e-01	0	37	104	0	71	31002
2026-01-16 22:15:31.99	237.88	8.26	-50.0	-67.0	3.8	8.47e-01	0	37	104	0	71	25759
2026-01-16 22:15:33.98	237.64	8.44	-50.0	-66.0	4.1	8.46e-01	0	37	0	0	71	22865
2026-01-16 22:15:35.96	237.41	8.62	-49.8	-63.5	4.9	8.30e-01	0	37	0	0	71	17146
2026-01-16 22:15:37.95	237.17	8.80	-49.0	-56.9	10.9	3.07e-01	0	37	0	0	70	8495
2026-01-16 22:15:39.93	236.92	8.98	-47.7	-53.3	14.4	4.69e-03	0	38	0	0	67	6663
2026-01-16 22:15:41.92	236.67	9.16	-47.6	-52.9	14.9	0.00e+00	0	38	0	0	66	6754
2026-01-16 22:15:43.91	236.41	9.35	-49.4	-59.8	8.6	0.00e+00	0	38	0	0	69	12563
2026-01-16 22:15:45.90	236.15	9.54	-43.7	-46.6	21.3	3.78e-02	0	38	0	0	59	4881
2026-01-16 22:15:47.89	235.89	9.72	-43.3	-46.1	21.7	0.00e+00	0	37	0	0	58	4874
2026-01-16 22:15:49.88	235.62	9.91	-42.8	-45.4	22.6	0.00e+00	0	38	0	0	57	4761
2026-01-16 22:15:51.87	235.35	10.11	-41.8	-44.2	23.3	0.00e+00	0	38	0	0	55	4676
2026-01-16 22:15:53.86	235.07	10.30	-41.9	-44.2	23.2	0.00e+00	0	38	0	0	55	4703
2026-01-16 22:15:55.85	234.78	10.49	-41.9	-44.3	23.2	0.00e+00	0	38	0	0	55	4738
2026-01-16 22:15:57.86	234.49	10.69	-42.0	-44.4	23.1	0.00e+00	0	38	0	0	55	4800
2026-01-16 22:15:59.85	234.20	10.89	-41.3	-43.6	23.9	0.00e+00	0	38	0	0	54	4626
2026-01-16 22:16:01.84	233.90	11.09	-40.8	-43.1	24.3	0.00e+00	0	38	0	0	53	4600
2026-01-16 22:16:03.83	233.59	11.30	-40.5	-42.7	24.6	0.00e+00	0	38	0	0	53	4415
2026-01-16 22:16:05.81	233.28	11.50	-40.4	-42.6	24.8	0.00e+00	0	38	0	0	52	4599
2026-01-16 22:16:07.82	232.96	11.71	-40.4	-42.6	24.7	0.00e+00	0	38	0	0	52	4642
2026-01-16 22:16:09.81	232.64	11.92	-40.5	-42.7	24.7	0.00e+00	0	38	0	0	52	4679
2026-01-16 22:16:11.80	232.31	12.13	-40.5	-42.7	24.6	0.00e+00	0	38	0	0	52	4703
2026-01-16 22:16:13.79	231.97	12.34	-40.5	-42.7	24.7	0.00e+00	0	38	0	0	52	4655
2026-01-16 22:16:15.77	231.63	12.55	-40.4	-42.6	24.8	0.00e+00	0	38	0	0	52	4619
2026-01-16 22:16:17.76	231.28	12.77	-40.4	-42.6	24.8	0.00e+00	0	38	0	0	52	4614
2026-01-16 22:16:19.75	230.93	12.99	-40.0	-42.1	25.2	0.00e+00	0	38	0	0	52	4374
2026-01-16 22:16:21.74	230.56	13.21	-40.1	-42.2	25.1	0.00e+00	0	38	0	0	52	4413
2026-01-16 22:16:23.73	230.19	13.43	-40.1	-42.2	24.9	0.00e+00	0	38	0	0	52	4437
2026-01-16 22:16:25.80	229.80	13.66	-40.2	-42.3	25.1	0.00e+00	0	38	0	0	51	4721
2026-01-16 22:16:27.84	229.40	13.90	-39.9	-42.0	25.3	0.00e+00	0	38	0	0	51	4591
2026-01-16 22:16:29.83	229.01	14.13	-39.9	-42.0	25.4	0.00e+00	0	38	0	0	51	4546
2026-01-16 22:16:31.82	228.61	14.36	-39.8	-41.9	25.5	0.00e+00	0	38	0	0	51	4500
2026-01-16 22:16:33.81	228.20	14.59	-39.6	-41.6	25.7	0.00e+00	0	38	0	0	51	4381
2026-01-16 22:16:35.79	227.78	14.82	-39.5	-41.6	25.8	0.00e+00	0	38	0	0	50	4599
2026-01-16 22:16:37.80	227.35	15.06	-39.6	-41.7	25.6	0.00e+00	0	38	0	0	50	4670
2026-01-16 22:16:39.85	226.90	15.31	-39.7	-41.8	25.6	0.00e+00	0	38	0	0	50	4706
2026-01-16 22:16:41.92	226.44	15.56	-39.3	-41.4	25.9	0.00e+00	0	38	0	0	50	4499
2026-01-16 22:16:43.91	225.99	15.80	-39.1	-41.1	26.1	0.00e+00	0	38	0	0	50	4360
2026-01-16 22:16:45.90	225.52	16.05	-38.8	-40.8	26.4	0.00e+00	0	38	0	0	49	4464
2026-01-16 22:16:47.89	225.05	16.29	-38.8	-40.8	26.3	0.00e+00	0	38	0	0	49	4471
2026-01-16 22:16:49.88	224.57	16.54	-39.2	-41.2	26.1	0.00e+00	0	38	0	0	49	4663
2026-01-16 22:16:51.87	224.07	16.79	-39.2	-41.3	26.0	0.00e+00	0	38	0	0	49	4711
2026-01-16 22:16:53.86	223.57	17.05	-38.9	-40.9	26.2	0.00e+00	0	38	0	0	49	4540
2026-01-16 22:16:55.85	223.05	17.30	-38.6	-40.6	26.5	0.00e+00	0	38	0	0	49	4360
2026-01-16 22:16:57.84	222.53	17.56	-38.6	-40.5	26.5	0.00e+00	0	38	0	0	48	4586
2026-01-16 22:16:59.84	221.99	17.81	-38.7	-40.6	26.3	0.00e+00	0	38	0	0	48	4645
2026-01-16 22:17:01.83	221.44	18.07	-38.8	-40.8	26.3	0.00e+00	0	38	0	0	48	4725
2026-01-16 22:17:03.82	220.88	18.34	-38.8	-40.8	26.4	0.00e+00	0	38	0	0	48	4735
2026-01-16 22:17:05.81	220.31	18.60	-38.6	-40.6	26.5	0.00e+00	0	38	0	0	48	4613
2026-01-16 22:17:07.81	219.72	18.86	-38.2	-40.2	26.8	0.00e+00	0	38	0	0	48	4398
2026-01-16 22:17:09.85	219.11	19.13	-38.2	-40.1	26.8	0.00e+00	0	38	0	0	48	4387
2026-01-16 22:17:11.92	218.47	19.41	-38.5	-40.4	26.7	0.00e+00	0	38	0	0	48	4531
2026-01-16 22:17:13.97	217.83	19.69	-38.4	-40.4	26.7	0.00e+00	0	38	0	0	48	4524
2026-01-16 22:17:15.96	217.19	19.96	-38.4	-40.4	26.7	0.00e+00	0	38	0	0	48	4527
2026-01-16 22:17:17.95	216.54	20.22	-38.2	-40.1	26.9	0.00e+00	0	38	0	0	48	4377
2026-01-16 22:17:19.98	215.86	20.50	-37.7	-39.6	27.2	0.00e+00	0	38	0	0	47	4388
2026-01-16 22:17:21.97	215.18	20.77	-37.5	-39.4	27.1	0.00e+00	0	38	0	0	46	4527
2026-01-16 22:17:23.96	214.48	21.04	-37.8	-39.8	27.1	0.00e+00	0	38	0	0	46	4714
2026-01-16 22:17:25.97	213.77	21.31	-38.4	-40.3	26.7	0.00e+00	0	38	0	0	47	4748
2026-01-16 22:17:27.96	213.04	21.58	-38.3	-40.3	26.7	0.00e+00	0	38	0	0	47	4708
2026-01-16 22:17:29.97	212.30	21.86	-37.7	-39.6	27.2	0.00e+00	0	38	0	0	47	4384
2026-01-16 22:17:31.97	211.54	22.13	-37.6	-39.5	27.3	0.00e+00	0	38	0	0	47	4328
2026-01-16 22:17:33.96	210.76	22.40	-37.4	-39.3	27.5	0.00e+00	0	38	0	0	46	4447
2026-01-16 22:17:35.96	209.97	22.66	-37.3	-39.2	27.5	0.00e+00	0	38	0	0	46	4425
2026-01-16 22:17:37.99	209.15	22.94	-37.5	-39.4	27.4	0.00e+00	0	38	0	0	46	4534
2026-01-16 22:17:39.98	208.33	23.20	-37.6	-39.5	27.2	0.00e+00	0	38	0	0	46	4579
2026-01-16 22:17:42.00	207.49	23.47	-37.3	-39.2	27.5	0.00e+00	0	38	0	0	46	4430
2026-01-16 22:17:44.01	206.62	23.73	-37.4	-39.3	27.4	0.00e+00	0	38	0	0	46	4457
2026-01-16 22:17:46.19	205.67	24.01	-37.6	-39.5	27.3	0.00e+00	0	38	0	0	46	4573
2026-01-16 22:17:48.16	204.79	24.26	-37.2	-39.1	27.6	0.00e+00	0	38	0	0	46	4375
2026-01-16 22:17:50.15	203.89	24.51	-37.1	-39.0	27.7	0.00e+00	0	38	0	0	46	4324
2026-01-16 22:17:52.14	202.96	24.76	-37.2	-39.1	27.6	0.00e+00	0	38	0	0	46	4381
2026-01-16 22:17:54.13	202.03	25.00	-37.5	-39.4	27.4	0.00e+00	0	38	0	0	46	4519
2026-01-16 22:17:56.12	201.07	25.24	-37.1	-39.0	27.6	0.00e+00	0	38	0	0	46	4302
2026-01-16 22:17:58.11	200.10	25.47	-37.0	-38.9	27.7	0.00e+00	0	38	0	0	46	4276
2026-01-16 22:18:00.10	199.11	25.70	-37.0	-38.9	27.7	0.00e+00	0	38	0	0	45	4513
2026-01-16 22:18:02.17	198.07	25.93	-37.0	-38.9	27.8	0.00e+00	0	38	0	0	45	4499
2026-01-16 22:18:04.22	197.01	26.15	-36.8	-38.6	27.9	0.00e+00	0	38	0	0	45	4389
2026-01-16 22:18:06.21	195.98	26.36	-36.8	-38.7	27.8	0.00e+00	0	38	0	0	45	4428
2026-01-16 22:18:08.20	194.93	26.56	-37.0	-38.9	27.6	0.00e+00	0	38	0	0	45	4540
2026-01-16 22:18:10.20	193.85	26.75	-36.6	-38.4	28.1	0.00e+00	0	38	0	0	45	4287
2026-01-16 22:18:12.19	192.77	26.94	-36.3	-38.2	28.2	0.00e+00	0	38	0	0	44	4411
2026-01-16 22:18:14.18	191.67	27.11	-36.7	-38.5	28.0	0.00e+00	0	38	0	0	44	4595
2026-01-16 22:18:16.17	190.56	27.28	-36.5	-38.3	28.1	0.00e+00	0	38	0	0	44	4486
2026-01-16 22:18:18.16	189.44	27.44	-36.1	-38.0	28.3	0.00e+00	0	38	0	0	44	4306
2026-01-16 22:18:20.15	188.31	27.59	-36.2	-38.1	28.2	0.00e+00	0	38	0	0	44	4355
2026-01-16 22:18:22.14	187.16	27.72	-36.1	-37.9	28.4	0.00e+00	0	38	0	0	44	4287
2026-01-16 22:18:24.12	186.01	27.85	-36.0	-37.8	28.4	0.00e+00	0	38	0	0	43	4468
2026-01-16 22:18:26.11	184.84	27.97	-36.4	-38.3	28.1	0.00e+00	0	38	0	0	43	4737
2026-01-16 22:18:28.10	183.67	28.07	-36.7	-38.6	28.0	0.00e+00	0	38	0	0	44	4607
2026-01-16 22:18:30.15	182.45	28.17	-36.7	-38.6	28.0	0.00e+00	0	38	0	0	44	4608
2026-01-16 22:18:32.14	181.26	28.25	-36.9	-38.8	27.8	0.00e+00	0	38	0	0	44	4729
2026-01-16 22:18:34.13	180.06	28.32	-37.0	-38.9	27.8	0.00e+00	0	38	0	0	44	4779
2026-01-16 22:18:36.12	178.85	28.37	-36.9	-38.8	27.8	0.00e+00	0	38	0	0	44	4730
2026-01-16 22:18:38.17	177.61	28.42	-36.7	-38.6	27.9	0.00e+00	0	38	0	0	44	4624
2026-01-16 22:18:40.33	176.30	28.45	-36.9	-38.8	27.8	0.00e+00	0	38	0	0	44	4731
2026-01-16 22:18:42.45	175.00	28.47	-36.8	-38.7	27.8	0.00e+00	0	38	0	0	44	4684
2026-01-16 22:18:44.46	173.78	28.47	-36.8	-38.6	27.9	0.00e+00	0	38	0	0	44	4639
2026-01-16 22:18:46.46	172.56	28.46	-36.7	-38.5	28.0	0.00e+00	0	38	0	0	44	4594
2026-01-16 22:18:48.47	171.33	28.44	-36.7	-38.5	27.9	0.00e+00	0	38	0	0	44	4585
2026-01-16 22:18:50.48	170.11	28.40	-36.6	-38.5	28.0	0.00e+00	0	38	0	0	44	4574
2026-01-16 22:18:52.56	168.85	28.35	-36.6	-38.5	28.0	0.00e+00	0	38	0	0	44	4558
2026-01-16 22:18:54.79	167.51	28.28	-36.7	-38.6	27.9	0.00e+00	0	38	0	0	44	4628
2026-01-16 22:18:56.81	166.29	28.21	-36.8	-38.7	27.9	0.00e+00	0	38	0	0	44	4668
2026-01-16 22:18:58.80	165.11	28.12	-36.2	-38.1	28.2	0.00e+00	0	38	0	0	44	4342
2026-01-16 22:19:00.78	163.93	28.02	-36.6	-38.5	28.0	0.00e+00	0	38	0	0	44	4583
2026-01-16 22:19:02.77	162.76	27.91	-36.6	-38.5	28.0	0.00e+00	0	38	0	0	44	4564
2026-01-16 22:19:04.76	161.60	27.79	-36.2	-38.0	28.3	0.00e+00	0	38	0	0	44	4340
2026-01-16 22:19:06.75	160.45	27.66	-35.9	-37.7	28.4	0.00e+00	0	38	0	0	43	4422
2026-01-16 22:19:08.82	159.26	27.51	-36.3	-38.2	28.1	0.00e+00	0	38	0	0	43	4656
2026-01-16 22:19:10.84	158.12	27.36	-36.1	-38.0	28.2	0.00e+00	0	38	0	0	43	4557
2026-01-16 22:19:12.88	156.98	27.19	-36.1	-37.9	28.2	0.00e+00	0	38	0	0	43	4543
2026-01-16 22:19:14.93	155.84	27.01	-36.2	-38.0	28.1	0.00e+00	0	38	0	0	43	4595
2026-01-16 22:19:16.95	154.74	26.83	-36.0	-37.9	28.2	0.00e+00	0	38	0	0	43	4500
2026-01-16 22:19:18.94	153.67	26.64	-35.6	-37.4	28.5	0.00e+00	0	38	0	0	43	4270
2026-01-16 22:19:20.93	152.61	26.44	-36.4	-38.3	28.0	0.00e+00	0	38	0	0	43	4726
2026-01-16 22:19:22.93	151.56	26.24	-37.4	-39.3	27.4	0.00e+00	0	38	0	0	45	4757
2026-01-16 22:19:24.91	150.54	26.03	-37.0	-38.9	27.6	0.00e+00	0	38	0	0	45	4541
2026-01-16 22:19:26.91	149.53	25.81	-36.7	-38.6	27.8	0.00e+00	0	38	0	0	45	4391
2026-01-16 22:19:28.99	148.49	25.57	-37.1	-39.0	27.7	0.00e+00	0	38	0	0	45	4562
2026-01-16 22:19:31.06	147.47	25.33	-37.3	-39.3	27.4	0.00e+00	0	38	0	0	45	4727
2026-01-16 22:19:33.11	146.48	25.09	-37.3	-39.2	27.5	0.00e+00	0	38	0	0	45	4689
2026-01-16 22:19:35.10	145.54	24.85	-37.2	-39.2	27.5	0.00e+00	0	38	0	0	45	4657
2026-01-16 22:19:37.09	144.61	24.60	-37.4	-39.4	27.3	0.00e+00	0	38	0	0	45	4783
2026-01-16 22:19:39.08	143.70	24.36	-37.3	-39.3	27.4	0.00e+00	0	38	0	0	45	4718
2026-01-16 22:19:41.02	142.83	24.11	-37.3	-39.2	27.5	0.00e+00	0	38	0	0	45	4679
2026-01-16 22:19:43.01	141.96	23.85	-37.0	-38.9	27.7	0.00e+00	0	38	0	0	45	4504
2026-01-16 22:19:45.00	141.10	23.60	-36.7	-38.6	27.8	0.00e+00	0	38	0	0	45	4380
2026-01-16 22:19:46.99	140.26	23.34	-37.1	-39.0	27.5	0.00e+00	0	38	0	0	45	4598
2026-01-16 22:19:48.98	139.43	23.07	-37.7	-39.7	27.1	0.00e+00	0	38	0	0	46	4664
2026-01-16 22:19:50.97	138.62	22.81	-37.4	-39.4	27.3	0.00e+00	0	38	0	0	46	4500
2026-01-16 22:19:52.96	137.82	22.54	-37.3	-39.2	27.4	0.00e+00	0	39	0	0	46	4418
2026-01-16 22:19:54.95	137.05	22.27	-37.6	-39.5	27.2	0.00e+00	0	38	0	0	46	4566
2026-01-16 22:19:56.94	136.28	22.01	-37.6	-39.6	27.2	0.00e+00	0	38	0	0	46	4621
2026-01-16 22:19:58.93	135.54	21.74	-37.7	-39.7	27.1	0.00e+00	0	38	0	0	46	4655
2026-01-16 22:20:00.92	134.81	21.47	-38.0	-40.0	26.9	0.00e+00	0	38	0	0	46	4848
2026-01-16 22:20:02.92	134.09	21.20	-37.7	-39.7	27.1	0.00e+00	0	38	0	0	46	4671
2026-01-16 22:20:04.94	133.37	20.92	-37.8	-39.8	27.0	0.00e+00	0	38	0	0	46	4710
2026-01-16 22:20:06.93	132.69	20.65	-38.2	-40.2	26.8	0.00e+00	0	38	0	0	47	4674
2026-01-16 22:20:08.92	132.02	20.38	-38.3	-40.3	26.6	0.00e+00	0	38	0	0	47	4744
2026-01-16 22:20:10.90	131.36	20.12	-38.2	-40.2	26.7	0.00e+00	0	39	0	0	47	4658
2026-01-16 22:20:12.89	130.72	19.85	-38.2	-40.2	26.7	0.00e+00	0	38	0	0	47	4654
2026-01-16 22:20:14.88	130.09	19.58	-38.2	-40.2	26.7	0.00e+00	0	38	0	0	47	4689
2026-01-16 22:20:16.87	129.47	19.31	-38.3	-40.2	26.6	0.00e+00	0	38	0	0	47	4698
2026-01-16 22:20:18.92	128.85	19.04	-38.4	-40.4	26.5	0.00e+00	0	39	0	0	47	4808
2026-01-16 22:20:20.96	128.24	18.77	-38.7	-40.7	26.4	0.00e+00	0	38	0	0	48	4677
2026-01-16 22:20:22.97	127.66	18.51	-38.4	-40.3	26.6	0.00e+00	0	38	0	0	48	4472
2026-01-16 22:20:24.96	127.09	18.24	-38.4	-40.4	26.6	0.00e+00	0	38	0	0	48	4507
2026-01-16 22:20:26.95	126.53	17.98	-38.6	-40.6	26.4	0.00e+00	0	38	0	0	48	4601
2026-01-16 22:20:28.94	125.99	17.73	-38.7	-40.7	26.4	0.00e+00	0	38	0	0	48	4667
2026-01-16 22:20:30.93	125.46	17.47	-38.9	-40.9	26.2	0.00e+00	0	38	0	0	48	4767
2026-01-16 22:20:32.92	124.94	17.21	-39.1	-41.2	26.0	0.00e+00	0	38	0	0	49	4676
2026-01-16 22:20:34.91	124.43	16.96	-38.9	-40.9	26.2	0.00e+00	0	38	0	0	49	4523
2026-01-16 22:20:36.95	123.92	16.70	-38.7	-40.8	26.3	0.00e+00	0	38	0	0	49	4444
2026-01-16 22:20:38.97	123.42	16.45	-39.1	-41.1	26.0	0.00e+00	0	38	0	0	49	4613
2026-01-16 22:20:40.95	122.95	16.20	-39.4	-41.5	25.7	0.00e+00	0	38	0	0	49	4830
2026-01-16 22:20:42.94	122.48	15.96	-39.4	-41.5	25.7	0.00e+00	0	38	0	0	49	4823
2026-01-16 22:20:44.93	122.02	15.72	-39.2	-41.2	25.8	0.00e+00	0	38	0	0	49	4702
2026-01-16 22:20:46.92	121.57	15.47	-39.2	-41.3	25.8	0.00e+00	0	38	0	0	49	4711
2026-01-16 22:20:48.91	121.13	15.23	-39.4	-41.5	25.6	0.00e+00	0	38	0	0	49	4854
2026-01-16 22:20:50.94	120.69	14.99	-39.8	-41.9	25.4	0.00e+00	0	38	0	0	50	4772
2026-01-16 22:20:52.97	120.26	14.75	-40.1	-42.2	25.1	0.00e+00	0	38	0	0	50	4975
2026-01-16 22:20:54.97	119.85	14.52	-40.1	-42.3	25.1	0.00e+00	0	39	0	0	51	4710
2026-01-16 22:20:56.96	119.44	14.29	-40.1	-42.2	25.1	0.00e+00	0	38	0	0	51	4665
2026-01-16 22:20:58.96	119.04	14.06	-40.0	-42.1	25.1	0.00e+00	0	38	0	0	51	4650
2026-01-16 22:21:00.94	118.65	13.83	-40.3	-42.4	24.9	0.00e+00	0	38	0	0	51	4780
2026-01-16 22:21:02.93	118.27	13.60	-40.5	-42.7	24.7	0.00e+00	0	38	0	0	51	4964
2026-01-16 22:21:04.92	117.90	13.38	-40.6	-42.7	24.7	0.00e+00	0	38	0	0	51	4972
2026-01-16 22:21:06.91	117.53	13.16	-40.5	-42.7	24.7	0.00e+00	0	38	0	0	51	4947
2026-01-16 22:21:08.90	117.17	12.94	-40.6	-42.8	24.6	0.00e+00	0	39	0	0	51	4984
2026-01-16 22:21:10.91	116.82	12.72	-40.8	-43.0	24.3	0.00e+00	0	38	0	0	52	4860
2026-01-16 22:21:12.82	116.48	12.51	-40.9	-43.2	24.2	0.00e+00	0	38	0	0	52	4931
2026-01-16 22:21:14.80	116.15	12.30	-40.9	-43.1	24.3	0.00e+00	0	38	0	0	52	4892
2026-01-16 22:21:16.79	115.81	12.09	-40.9	-43.2	24.1	0.00e+00	0	38	0	0	52	4940
2026-01-16 22:21:18.78	115.49	11.88	-40.9	-43.1	24.2	0.00e+00	0	38	0	0	52	4917
2026-01-16 22:21:20.77	115.16	11.67	-41.0	-43.2	24.0	0.00e+00	0	38	0	0	52	4983
2026-01-16 22:21:22.82	114.84	11.46	-41.1	-43.4	23.9	0.00e+00	0	38	0	0	52	5063
2026-01-16 22:21:24.86	114.52	11.25	-41.2	-43.5	23.8	0.00e+00	0	39	0	0	53	4817
2026-01-16 22:21:26.84	114.22	11.05	-41.2	-43.5	23.8	0.00e+00	0	38	0	0	53	4863
2026-01-16 22:21:28.83	113.92	10.85	-41.5	-43.8	23.5	0.00e+00	0	38	0	0	53	5034
2026-01-16 22:21:30.82	113.63	10.66	-41.9	-44.3	23.0	0.00e+00	0	39	0	0	54	5036
2026-01-16 22:21:32.82	113.34	10.46	-41.7	-44.1	23.2	0.00e+00	0	38	0	0	54	4909
2026-01-16 22:21:34.80	113.06	10.26	-41.7	-44.1	23.2	0.00e+00	0	38	0	0	54	4922
2026-01-16 22:21:36.79	112.79	10.07	-41.5	-43.8	23.5	0.00e+00	0	39	0	0	54	4723
2026-01-16 22:21:38.78	112.52	9.88	-41.5	-43.8	23.5	0.00e+00	0	38	0	0	54	4728
2026-01-16 22:21:40.84	112.24	9.69	-41.7	-44.1	23.1	0.00e+00	0	38	0	0	54	4921
2026-01-16 22:21:42.83	111.98	9.50	-42.2	-44.7	22.6	0.00e+00	0	38	0	0	55	4937
2026-01-16 22:21:44.82	111.72	9.31	-42.3	-44.8	22.5	0.00e+00	0	39	0	0	55	5039
2026-01-16 22:21:46.81	111.47	9.13	-42.6	-45.2	22.2	0.00e+00	0	38	0	0	55	5260
2026-01-16 22:21:48.80	111.22	8.95	-48.0	-54.0	15.6	0.00e+00	0	38	0	0	66	7640
2026-01-16 22:21:50.78	110.98	8.77	-50.5	-69.3	3.8	8.31e-01	0	39	104	0	71	33443
2026-01-16 22:21:52.77	110.73	8.59	-50.7	-69.5	3.8	8.48e-01	0	39	104	0	71	34331
2026-01-16 22:21:54.75	110.50	8.41	-50.7	-69.5	3.8	8.47e-01	0	38	104	0	72	32356
2026-01-16 22:21:56.74	110.27	8.23	-50.4	-69.6	3.8	8.48e-01	0	39	104	0	72	32675
2026-01-16 22:21:58.73	110.04	8.06	-50.5	-69.7	3.8	8.47e-01	0	38	104	0	72	32999
2026-01-16 22:22:00.71	109.82	7.89	-50.6	-69.7	3.8	8.46e-01	0	39	104	0	72	33014
2026-01-16 22:22:02.70	109.59	7.71	-50.7	-69.7	3.8	8.46e-01	0	39	104	0	72	33055
2026-01-16 22:22:04.69	109.38	7.54	-50.6	-69.7	3.8	8.48e-01	0	38	104	0	72	33158
2026-01-16 22:22:06.67	109.16	7.38	-50.4	-69.7	3.8	8.47e-01	0	39	104	0	72	33231
2026-01-16 22:22:08.66	108.95	7.21	-50.5	-69.7	3.8	8.46e-01	0	38	104	0	72	33286
2026-01-16 22:22:10.65	108.75	7.04	-50.5	-69.7	3.8	8.47e-01	0	39	104	0	72	33025
2026-01-16 22:22:12.64	108.54	6.88	-50.5	-69.7	3.8	8.47e-01	0	39	104	0	72	33076
2026-01-16 22:22:14.62	108.34	6.71	-50.5	-69.7	3.8	8.47e-01	0	39	104	0	72	33046
2026-01-16 22:22:16.61	108.15	6.55	-50.5	-69.7	3.8	8.47e-01	0	39	104	0	72	32946
2026-01-16 22:22:18.60	107.95	6.39	-50.5	-69.7	3.8	8.47e-01	0	39	104	0	72	32939
2026-01-16 22:22:20.59	107.76	6.23	-50.5	-69.6	3.8	8.46e-01	0	39	104	0	72	32873
2026-01-16 22:22:22.57	107.58	6.07	-50.5	-69.6	3.8	8.46e-01	0	38	104	0	72	32924
2026-01-16 22:22:24.56	107.39	5.92	-50.5	-69.6	3.8	8.46e-01	0	39	104	0	72	32858
2026-01-16 22:22:26.54	107.21	5.76	-50.5	-69.7	3.8	8.47e-01	0	39	104	0	72	32956
2026-01-16 22:22:28.53	107.03	5.61	-50.5	-69.6	3.8	8.47e-01	0	39	104	0	72	32876
2026-01-16 22:22:30.52	106.85	5.45	-50.5	-69.6	3.8	8.47e-01	0	39	104	0	72	32906
2026-01-16 22:22:32.50	106.68	5.30	-50.5	-69.6	3.8	8.48e-01	0	39	104	0	72	32811
2026-01-16 22:22:34.49	106.51	5.15	-50.5	-69.7	3.8	8.48e-01	0	39	104	0	72	32934
2026-01-16 22:22:36.48	106.34	5.00	-50.5	-69.6	3.8	8.47e-01	0	39	104	0	72	32892

#Closed at: 2026-01-16 22:22:38
#Recorded file [0 MB]: D:/Data/31040_260117_011452.dat