passes_logs/2026/01/16/T1/T1__20260116_073030_SUOMI_NPP_rec.log

#Pass ID: 20260116_073030_SUOMI NPP
#Satellite: SUOMI NPP
#Configuration: NPP
#almurnet v.1.7.20251203
#Start time: 2026-01-16 07:30:30

#Version: 2.0.20230620
#Station: T1
#Location: 37.570604 lon 55.790049 lat
#TLE: 1 37849U 11061A   26015.94982489  .00000054  00000+0  46705-4 0  9991
#TLE: 2 37849  98.7812 317.9902 0002438  62.0366 298.1057 14.19525452736847

#Time	Az	El	Level	Level2	SNR	BER	BlckErr	Temp	State	Recorded	gain1	gain2
2026-01-16 07:30:30.85	78.69	5.04	-46.9	-64.6	3.8	1.49e+00	0	41	0	0	64	29074
2026-01-16 07:30:32.85	78.46	5.13	-47.8	-64.6	3.8	1.49e+00	0	41	104	0	66	26064
2026-01-16 07:30:34.84	78.22	5.22	-47.9	-64.5	3.8	1.49e+00	0	41	104	0	66	25715
2026-01-16 07:30:36.84	77.98	5.31	-48.8	-64.7	3.8	1.49e+00	0	42	104	0	68	23487
2026-01-16 07:30:38.84	77.74	5.40	-47.6	-64.6	3.8	1.49e+00	0	42	104	0	67	24590
2026-01-16 07:30:40.84	77.50	5.49	-48.0	-64.6	3.8	1.49e+00	0	42	104	0	67	24612
2026-01-16 07:30:42.83	77.26	5.58	-48.0	-64.7	3.8	1.49e+00	0	41	104	0	66	26266
2026-01-16 07:30:44.83	77.01	5.67	-48.0	-64.7	3.8	1.49e+00	0	42	104	0	66	26203
2026-01-16 07:30:46.83	76.77	5.76	-48.0	-64.7	3.8	1.49e+00	0	42	104	0	66	26197
2026-01-16 07:30:48.83	76.52	5.85	-48.0	-64.6	3.8	1.49e+00	0	42	104	0	66	26105
2026-01-16 07:30:50.83	76.27	5.94	-48.1	-64.7	3.8	1.49e+00	0	42	104	0	67	24875
2026-01-16 07:30:52.83	76.02	6.03	-48.0	-64.6	3.8	1.49e+00	0	42	104	0	67	24656
2026-01-16 07:30:54.83	75.77	6.12	-47.9	-64.6	3.8	1.49e+00	0	42	104	0	67	24654
2026-01-16 07:30:56.82	75.52	6.20	-47.9	-64.7	3.8	1.49e+00	0	42	104	0	67	24730
2026-01-16 07:30:58.82	75.26	6.29	-47.7	-64.6	3.8	1.49e+00	0	42	104	0	67	24599
2026-01-16 07:31:00.83	75.00	6.38	-48.0	-64.6	3.8	1.49e+00	0	42	104	0	66	26076
2026-01-16 07:31:02.82	74.74	6.47	-48.1	-64.6	3.8	1.49e+00	0	42	104	0	67	24637
2026-01-16 07:31:04.82	74.48	6.56	-48.1	-64.6	3.8	1.49e+00	0	42	104	0	67	24545
2026-01-16 07:31:06.82	74.22	6.64	-47.7	-64.6	3.8	1.49e+00	0	42	104	0	67	24678
2026-01-16 07:31:08.82	73.96	6.73	-47.7	-64.6	3.8	1.49e+00	0	43	104	0	67	24561
2026-01-16 07:31:10.81	73.69	6.82	-48.1	-64.6	3.8	1.49e+00	0	43	104	0	67	24624
2026-01-16 07:31:12.81	73.43	6.90	-47.9	-64.7	3.8	1.49e+00	0	43	104	0	66	26226
2026-01-16 07:31:14.81	73.16	6.99	-48.0	-64.7	3.8	1.49e+00	0	43	104	0	67	24705
2026-01-16 07:31:16.80	72.89	7.08	-47.9	-64.6	3.8	1.49e+00	0	43	104	0	67	24582
2026-01-16 07:31:18.81	72.62	7.16	-47.9	-64.6	3.8	1.49e+00	0	43	104	0	67	24447
2026-01-16 07:31:20.81	72.34	7.25	-47.8	-64.6	3.8	1.49e+00	0	43	104	0	67	24651
2026-01-16 07:31:22.80	72.07	7.33	-48.0	-64.6	3.8	1.49e+00	0	43	104	0	67	24691
2026-01-16 07:31:24.80	71.79	7.42	-47.9	-64.7	3.8	1.49e+00	0	43	104	0	67	24710
2026-01-16 07:31:26.79	71.52	7.50	-47.9	-64.6	3.8	1.49e+00	0	43	104	0	67	24471
2026-01-16 07:31:28.80	71.24	7.59	-48.0	-64.8	3.8	1.49e+00	0	43	104	0	67	25209
2026-01-16 07:31:30.79	70.96	7.67	-47.9	-64.7	3.8	1.49e+00	0	43	104	0	67	24716
2026-01-16 07:31:32.79	70.67	7.75	-48.3	-64.7	3.8	1.49e+00	0	43	104	0	67	24795
2026-01-16 07:31:34.79	70.39	7.84	-48.0	-64.7	3.8	1.49e+00	0	43	104	0	68	23403
2026-01-16 07:31:36.79	70.10	7.92	-48.2	-64.6	3.8	1.49e+00	0	43	104	0	67	24606
2026-01-16 07:31:38.78	69.81	8.00	-48.2	-64.6	3.8	1.49e+00	0	43	104	0	67	24594
2026-01-16 07:31:40.78	69.53	8.08	-48.2	-64.7	3.8	1.49e+00	0	43	104	0	67	24718
2026-01-16 07:31:42.78	69.23	8.16	-48.2	-64.6	3.8	1.49e+00	0	43	104	0	67	24591
2026-01-16 07:31:44.77	68.94	8.24	-48.5	-64.6	3.8	1.49e+00	0	43	104	0	67	24509
2026-01-16 07:31:46.77	68.65	8.32	-48.2	-64.6	3.8	1.49e+00	0	43	104	0	67	24692
2026-01-16 07:31:48.77	68.35	8.40	-48.3	-64.6	3.8	1.49e+00	0	43	104	0	67	24690
2026-01-16 07:31:50.77	68.05	8.48	-48.3	-64.6	3.8	1.49e+00	0	43	104	0	67	24691
2026-01-16 07:31:52.76	67.76	8.56	-48.3	-64.6	3.8	1.49e+00	0	43	104	0	67	24637
2026-01-16 07:31:54.76	67.46	8.64	-48.2	-64.6	3.8	1.49e+00	0	43	104	0	67	24609
2026-01-16 07:31:56.76	67.15	8.72	-48.2	-64.7	3.8	1.49e+00	0	43	104	0	67	24765
2026-01-16 07:31:58.76	66.85	8.79	-48.3	-64.7	3.8	1.49e+00	0	43	104	0	67	24768
2026-01-16 07:32:00.75	66.54	8.87	-48.3	-64.6	3.8	1.49e+00	0	43	104	0	67	24599
2026-01-16 07:32:02.75	66.24	8.95	-48.3	-64.6	3.8	1.49e+00	0	43	104	0	67	24526
2026-01-16 07:32:04.74	65.93	9.02	-48.3	-64.6	3.8	1.49e+00	0	43	104	0	67	24599
2026-01-16 07:32:06.74	65.62	9.10	-48.2	-64.6	3.8	1.49e+00	0	43	104	0	67	24626
2026-01-16 07:32:08.74	65.30	9.17	-48.2	-64.6	3.8	1.49e+00	0	43	104	0	67	24623
2026-01-16 07:32:10.74	64.99	9.25	-48.2	-64.6	3.8	1.49e+00	0	43	104	0	67	24570
2026-01-16 07:32:12.74	64.67	9.32	-48.3	-64.6	3.8	1.49e+00	0	43	104	0	67	24591
2026-01-16 07:32:14.74	64.36	9.39	-48.2	-64.7	3.8	1.49e+00	0	43	104	0	67	24709
2026-01-16 07:32:16.74	64.04	9.46	-48.2	-64.6	3.8	1.49e+00	0	43	104	0	67	24575
2026-01-16 07:32:18.73	63.72	9.54	-48.3	-64.6	3.8	1.49e+00	0	44	104	0	67	24623
2026-01-16 07:32:20.73	63.40	9.61	-48.2	-64.6	3.8	1.49e+00	0	43	104	0	67	24611
2026-01-16 07:32:22.73	63.07	9.68	-48.2	-64.6	3.8	1.49e+00	0	44	104	0	67	24596
2026-01-16 07:32:24.74	62.75	9.75	-48.3	-64.6	3.8	1.49e+00	0	44	104	0	67	24637
2026-01-16 07:32:26.73	62.42	9.82	-48.3	-64.6	3.8	1.49e+00	0	43	104	0	67	24674
2026-01-16 07:32:28.73	62.09	9.88	-48.3	-64.6	3.8	1.49e+00	0	43	104	0	67	24675
2026-01-16 07:32:30.73	61.76	9.95	-48.2	-64.6	3.8	1.49e+00	0	44	104	0	67	24565
2026-01-16 07:32:32.72	61.43	10.02	-48.2	-64.6	3.8	1.49e+00	0	44	104	0	67	24638
2026-01-16 07:32:34.72	61.10	10.08	-48.2	-64.7	3.8	1.49e+00	0	43	104	0	67	24734
2026-01-16 07:32:36.71	60.77	10.15	-48.2	-64.6	3.8	1.49e+00	0	44	104	0	67	24638
2026-01-16 07:32:38.71	60.43	10.21	-48.2	-64.6	3.8	1.49e+00	0	43	104	0	67	24671
2026-01-16 07:32:40.70	60.10	10.28	-48.3	-64.6	3.8	1.49e+00	0	44	104	0	67	24589
2026-01-16 07:32:42.70	59.76	10.34	-48.3	-64.7	3.8	1.49e+00	0	44	104	0	67	24740
2026-01-16 07:32:44.69	59.42	10.40	-48.3	-64.7	3.8	1.49e+00	0	44	104	0	67	24735
2026-01-16 07:32:46.69	59.08	10.46	-48.3	-64.7	3.8	1.49e+00	0	43	104	0	67	24739
2026-01-16 07:32:48.68	58.74	10.52	-48.2	-64.7	3.8	1.49e+00	0	44	104	0	67	24743
2026-01-16 07:32:50.68	58.39	10.58	-48.2	-64.6	3.8	1.49e+00	0	44	104	0	67	24614
2026-01-16 07:32:52.69	58.04	10.64	-48.2	-64.6	3.8	1.49e+00	0	43	104	0	67	24684
2026-01-16 07:32:54.68	57.70	10.70	-48.2	-64.6	3.8	1.49e+00	0	44	104	0	67	24639
2026-01-16 07:32:56.68	57.35	10.75	-48.2	-64.6	3.8	1.49e+00	0	44	104	0	67	24641
2026-01-16 07:32:58.68	57.00	10.81	-48.2	-64.6	3.8	1.49e+00	0	44	104	0	67	24686
2026-01-16 07:33:00.68	56.65	10.87	-48.2	-64.6	3.8	1.49e+00	0	44	104	0	67	24659
2026-01-16 07:33:02.66	56.30	10.92	-48.2	-64.7	3.8	1.49e+00	0	44	104	0	67	24729
2026-01-16 07:33:04.65	55.95	10.97	-48.2	-64.6	3.8	1.49e+00	0	44	104	0	67	24592
2026-01-16 07:33:06.65	55.59	11.02	-48.2	-64.7	3.8	1.49e+00	0	44	104	0	67	24698
2026-01-16 07:33:08.65	55.23	11.08	-48.2	-64.6	3.8	1.49e+00	0	43	104	0	67	24691
2026-01-16 07:33:10.64	54.88	11.13	-49.5	-64.9	3.8	1.49e+00	0	44	104	0	69	22708
2026-01-16 07:33:12.63	54.52	11.18	-49.9	-65.3	3.8	1.49e+00	0	44	104	0	70	22408
2026-01-16 07:33:14.63	54.16	11.22	-49.9	-65.4	3.8	1.49e+00	0	44	104	0	70	22545
2026-01-16 07:33:16.63	53.80	11.27	-50.2	-65.4	3.8	1.49e+00	0	43	104	0	71	21444
2026-01-16 07:33:18.62	53.44	11.32	-50.3	-65.5	3.8	1.49e+00	0	44	104	0	71	21634
2026-01-16 07:33:20.62	53.07	11.36	-50.3	-65.5	3.8	1.49e+00	0	44	104	0	71	21690
2026-01-16 07:33:22.62	52.71	11.41	-50.3	-65.6	3.8	1.49e+00	0	44	104	0	71	21820
2026-01-16 07:33:24.61	52.35	11.45	-50.4	-65.6	3.8	1.49e+00	0	44	104	0	71	21812
2026-01-16 07:33:26.61	51.98	11.49	-50.3	-65.6	3.8	1.49e+00	0	43	104	0	71	21783
2026-01-16 07:33:28.60	51.61	11.53	-50.3	-65.5	3.8	1.49e+00	0	43	104	0	71	21746
2026-01-16 07:33:30.59	51.25	11.57	-50.4	-65.6	3.8	1.49e+00	0	44	104	0	71	21770
2026-01-16 07:33:32.59	50.88	11.61	-50.5	-65.6	3.8	1.49e+00	0	44	104	0	71	21806
2026-01-16 07:33:34.59	50.50	11.65	-50.2	-65.6	3.8	1.49e+00	0	43	104	0	71	21827
2026-01-16 07:33:36.58	50.13	11.69	-50.3	-65.6	3.8	1.49e+00	0	44	104	0	71	21860
2026-01-16 07:33:38.58	49.76	11.72	-50.0	-65.5	3.8	1.49e+00	0	44	104	0	71	21723
2026-01-16 07:33:40.58	49.39	11.76	-50.0	-65.5	3.8	1.49e+00	0	44	104	0	71	21618
2026-01-16 07:33:42.57	49.01	11.79	-50.0	-65.5	3.8	1.49e+00	0	44	104	0	71	21599
2026-01-16 07:33:44.56	48.64	11.82	-50.2	-65.5	3.8	1.49e+00	0	44	104	0	71	21685
2026-01-16 07:33:46.56	48.26	11.85	-50.3	-65.6	3.8	1.49e+00	0	44	104	0	71	21856
2026-01-16 07:33:48.55	47.89	11.88	-50.4	-65.6	3.8	1.49e+00	0	44	104	0	71	21825
2026-01-16 07:33:50.55	47.51	11.91	-50.5	-65.6	3.8	1.49e+00	0	44	104	0	71	21976
2026-01-16 07:33:52.55	47.13	11.94	-50.4	-65.6	3.8	1.49e+00	0	44	104	0	71	21845
2026-01-16 07:33:54.55	46.75	11.97	-50.2	-65.6	3.8	1.49e+00	0	44	104	0	71	21808
2026-01-16 07:33:56.54	46.38	11.99	-50.2	-65.5	3.8	1.49e+00	0	44	104	0	71	21755
2026-01-16 07:33:58.54	45.99	12.02	-50.1	-65.4	3.8	1.49e+00	0	44	104	0	71	21492
2026-01-16 07:34:00.53	45.62	12.04	-49.9	-65.4	3.8	1.49e+00	0	44	104	0	71	21328
2026-01-16 07:34:02.52	45.24	12.06	-50.1	-65.3	3.8	1.49e+00	0	44	104	0	70	22519
2026-01-16 07:34:04.52	44.85	12.08	-49.5	-65.3	3.8	1.49e+00	0	44	104	0	70	22397
2026-01-16 07:34:06.52	44.47	12.10	-48.8	-65.2	3.8	1.49e+00	0	44	104	0	69	23528
2026-01-16 07:34:08.51	44.09	12.12	-48.5	-65.1	3.8	1.49e+00	0	44	104	0	68	24611
2026-01-16 07:34:10.51	43.71	12.13	-47.3	-64.8	3.8	1.49e+00	0	44	104	0	66	26700
2026-01-16 07:34:12.51	43.32	12.15	-47.2	-64.8	3.8	1.49e+00	0	44	104	0	66	26609
2026-01-16 07:34:14.51	42.94	12.16	-47.2	-64.9	3.8	1.49e+00	0	44	104	0	66	26855
2026-01-16 07:34:16.50	42.55	12.18	-47.2	-64.8	3.8	1.49e+00	0	44	104	0	66	26740
2026-01-16 07:34:18.50	42.17	12.19	-47.2	-64.9	3.8	1.49e+00	0	44	104	0	66	26769
2026-01-16 07:34:20.51	41.78	12.20	-47.2	-64.8	3.8	1.49e+00	0	44	104	0	66	26731
2026-01-16 07:34:22.50	41.40	12.21	-47.2	-64.8	3.8	1.49e+00	0	44	104	0	66	26755
2026-01-16 07:34:24.50	41.01	12.22	-47.2	-64.9	3.8	1.49e+00	0	44	104	0	66	26782
2026-01-16 07:34:26.50	40.63	12.22	-47.2	-64.8	3.8	1.49e+00	0	44	104	0	66	26734
2026-01-16 07:34:28.50	40.24	12.23	-47.2	-64.9	3.8	1.49e+00	0	44	104	0	66	26851
2026-01-16 07:34:30.50	39.85	12.23	-47.2	-64.9	3.8	1.49e+00	0	44	104	0	66	26788
2026-01-16 07:34:32.50	39.47	12.23	-47.2	-64.9	3.8	1.49e+00	0	44	104	0	66	26861
2026-01-16 07:34:34.50	39.08	12.24	-47.2	-64.9	3.8	1.49e+00	0	44	104	0	66	26854
2026-01-16 07:34:36.50	38.69	12.24	-47.2	-64.9	3.8	1.49e+00	0	44	104	0	66	26774
2026-01-16 07:34:38.49	38.31	12.23	-47.2	-64.9	3.8	1.49e+00	0	44	104	0	66	26789
2026-01-16 07:34:40.49	37.92	12.23	-47.2	-64.8	3.8	1.49e+00	0	44	104	0	66	26760
2026-01-16 07:34:42.49	37.54	12.23	-47.2	-64.9	3.8	1.49e+00	0	44	104	0	66	26827
2026-01-16 07:34:44.49	37.15	12.22	-47.2	-64.8	3.8	1.49e+00	0	44	104	0	66	26709
2026-01-16 07:34:46.49	36.76	12.22	-47.2	-64.9	3.8	1.49e+00	0	44	104	0	66	26808
2026-01-16 07:34:48.48	36.38	12.21	-47.2	-64.9	3.8	1.49e+00	0	44	104	0	66	26862
2026-01-16 07:34:50.48	35.99	12.20	-47.1	-64.8	3.8	1.49e+00	0	44	104	0	66	26733
2026-01-16 07:34:52.48	35.61	12.19	-47.2	-64.9	3.8	1.49e+00	0	44	104	0	66	26833
2026-01-16 07:34:54.48	35.22	12.18	-47.2	-64.9	3.8	1.49e+00	0	44	104	0	66	26789
2026-01-16 07:34:56.48	34.84	12.17	-46.9	-64.8	3.8	1.49e+00	0	44	104	0	65	28340
2026-01-16 07:34:58.48	34.46	12.16	-47.1	-64.8	3.8	1.49e+00	0	44	104	0	65	28341
2026-01-16 07:35:00.48	34.07	12.14	-47.2	-64.8	3.8	1.49e+00	0	44	104	0	65	28327
2026-01-16 07:35:02.48	33.69	12.12	-46.8	-64.8	3.8	1.49e+00	0	44	104	0	65	28242
2026-01-16 07:35:04.48	33.30	12.11	-47.0	-64.8	3.8	1.49e+00	0	44	104	0	65	28321
2026-01-16 07:35:06.48	32.92	12.09	-46.9	-64.8	3.8	1.49e+00	0	44	104	0	65	28296
2026-01-16 07:35:08.47	32.54	12.07	-47.0	-64.8	3.8	1.49e+00	0	44	104	0	65	28320
2026-01-16 07:35:10.48	32.16	12.05	-47.0	-64.9	3.8	1.49e+00	0	44	104	0	65	28359
2026-01-16 07:35:12.48	31.78	12.03	-46.9	-64.8	3.8	1.49e+00	0	44	104	0	65	28324
2026-01-16 07:35:14.48	31.40	12.00	-47.0	-64.8	3.8	1.49e+00	0	44	104	0	65	28292
2026-01-16 07:35:16.47	31.02	11.98	-46.9	-64.8	3.8	1.49e+00	0	44	104	0	65	28295
2026-01-16 07:35:18.47	30.64	11.95	-47.2	-64.8	3.8	1.49e+00	0	44	104	0	65	28208
2026-01-16 07:35:20.47	30.26	11.92	-47.2	-64.8	3.8	1.49e+00	0	44	104	0	65	28298
2026-01-16 07:35:22.47	29.88	11.90	-47.0	-64.8	3.8	1.49e+00	0	44	104	0	65	28204
2026-01-16 07:35:24.46	29.51	11.87	-47.3	-64.8	3.8	1.49e+00	0	44	104	0	65	28269
2026-01-16 07:35:26.46	29.13	11.84	-47.3	-64.8	3.8	1.49e+00	0	44	104	0	65	28134
2026-01-16 07:35:28.46	28.76	11.80	-47.5	-64.8	3.8	1.49e+00	0	44	104	0	66	26699
2026-01-16 07:35:30.46	28.38	11.77	-47.2	-64.8	3.8	1.49e+00	0	44	104	0	65	28285
2026-01-16 07:35:32.45	28.01	11.74	-46.7	-64.8	3.8	1.49e+00	0	44	104	0	65	28288
2026-01-16 07:35:34.45	27.64	11.70	-47.1	-64.8	3.8	1.49e+00	0	44	104	0	65	28333
2026-01-16 07:35:36.44	27.27	11.67	-47.0	-64.9	3.8	1.49e+00	0	44	104	0	65	28451
2026-01-16 07:35:38.44	26.90	11.63	-47.1	-64.8	3.8	1.49e+00	0	44	104	0	65	28254
2026-01-16 07:35:40.44	26.53	11.59	-47.4	-64.8	3.8	1.49e+00	0	44	104	0	65	28285
2026-01-16 07:35:42.43	26.16	11.55	-47.9	-64.8	3.8	1.49e+00	0	44	104	0	66	26729
2026-01-16 07:35:44.43	25.79	11.51	-47.6	-64.8	3.8	1.49e+00	0	44	104	0	66	26675
2026-01-16 07:35:46.42	25.43	11.47	-47.4	-64.9	3.8	1.49e+00	0	44	104	0	66	26790
2026-01-16 07:35:48.42	25.06	11.43	-47.5	-64.9	3.8	1.49e+00	0	44	104	0	66	26801
2026-01-16 07:35:50.41	24.70	11.38	-47.4	-64.9	3.8	1.49e+00	0	44	104	0	66	26819
2026-01-16 07:35:52.41	24.34	11.34	-47.4	-65.0	3.8	1.49e+00	0	44	104	0	66	27148
2026-01-16 07:35:54.42	23.97	11.29	-47.9	-64.8	3.8	1.49e+00	0	44	104	0	67	25268
2026-01-16 07:35:56.41	23.61	11.25	-47.3	-64.9	3.8	1.49e+00	0	44	104	0	66	26814
2026-01-16 07:35:58.41	23.25	11.20	-47.1	-64.8	3.8	1.49e+00	0	44	104	0	65	28250
2026-01-16 07:36:00.41	22.89	11.15	-47.4	-64.8	3.8	1.49e+00	0	44	104	0	66	26644
2026-01-16 07:36:02.41	22.54	11.10	-47.2	-64.8	3.8	1.49e+00	0	44	104	0	65	28103
2026-01-16 07:36:04.41	22.18	11.05	-47.2	-64.8	3.8	1.49e+00	0	44	104	0	65	28206
2026-01-16 07:36:06.41	21.83	11.00	-47.4	-64.8	3.8	1.49e+00	0	44	104	0	66	26640
2026-01-16 07:36:08.41	21.47	10.94	-47.3	-64.8	3.8	1.49e+00	0	44	104	0	66	26708
2026-01-16 07:36:10.41	21.12	10.89	-47.4	-64.8	3.8	1.49e+00	0	44	104	0	66	26692
2026-01-16 07:36:12.41	20.77	10.83	-47.4	-64.8	3.8	1.49e+00	0	44	104	0	66	26663
2026-01-16 07:36:14.41	20.42	10.78	-47.4	-64.8	3.8	1.49e+00	0	44	104	0	66	26738
2026-01-16 07:36:16.40	20.07	10.72	-47.3	-64.8	3.8	1.49e+00	0	44	104	0	66	26716
2026-01-16 07:36:18.40	19.73	10.67	-47.3	-64.8	3.8	1.49e+00	0	44	104	0	66	26738
2026-01-16 07:36:20.40	19.38	10.61	-47.2	-64.8	3.8	1.49e+00	0	44	104	0	66	26712
2026-01-16 07:36:22.40	19.04	10.55	-47.3	-64.8	3.8	1.49e+00	0	44	104	0	66	26725
2026-01-16 07:36:24.39	18.70	10.49	-47.4	-64.8	3.8	1.49e+00	0	44	104	0	66	26564
2026-01-16 07:36:26.38	18.36	10.43	-47.4	-64.8	3.8	1.49e+00	0	44	104	0	66	26549
2026-01-16 07:36:28.38	18.02	10.37	-47.4	-64.7	3.8	1.49e+00	0	44	104	0	66	26426
2026-01-16 07:36:30.38	17.68	10.30	-47.4	-64.8	3.8	1.49e+00	0	44	104	0	66	26516
2026-01-16 07:36:32.38	17.34	10.24	-47.4	-64.9	3.8	1.49e+00	0	44	104	0	66	26767
2026-01-16 07:36:34.38	17.01	10.18	-47.4	-64.8	3.8	1.49e+00	0	44	104	0	66	26680
2026-01-16 07:36:36.38	16.67	10.11	-47.4	-64.8	3.8	1.49e+00	0	44	104	0	66	26608
2026-01-16 07:36:38.37	16.34	10.05	-47.4	-64.8	3.8	1.49e+00	0	44	104	0	66	26735
2026-01-16 07:36:40.37	16.01	9.98	-47.4	-64.8	3.8	1.49e+00	0	44	104	0	66	26717
2026-01-16 07:36:42.36	15.68	9.91	-47.4	-64.8	3.8	1.49e+00	0	44	104	0	66	26664
2026-01-16 07:36:44.37	15.35	9.85	-47.4	-64.9	3.8	1.49e+00	0	44	104	0	66	26778
2026-01-16 07:36:46.37	15.03	9.78	-47.4	-64.8	3.8	1.49e+00	0	44	104	0	66	26633
2026-01-16 07:36:48.36	14.71	9.71	-47.4	-64.7	3.8	1.49e+00	0	44	104	0	66	26178
2026-01-16 07:36:50.36	14.38	9.64	-47.4	-64.7	3.8	1.49e+00	0	44	104	0	66	26376
2026-01-16 07:36:52.36	14.06	9.57	-47.4	-64.8	3.8	1.49e+00	0	44	104	0	66	26685
2026-01-16 07:36:54.35	13.74	9.50	-47.4	-64.8	3.8	1.49e+00	0	44	104	0	66	26740
2026-01-16 07:36:56.35	13.42	9.43	-47.3	-64.6	3.8	1.49e+00	0	44	104	0	66	25997
2026-01-16 07:36:58.34	13.11	9.35	-47.3	-64.1	3.8	1.49e+00	0	44	104	0	66	24640
2026-01-16 07:37:00.34	12.79	9.28	-47.3	-63.9	3.8	1.49e+00	0	44	104	0	66	23974
2026-01-16 07:37:02.33	12.48	9.21	-47.3	-64.0	3.8	1.49e+00	0	44	104	0	66	24352
2026-01-16 07:37:04.34	12.17	9.13	-47.3	-64.3	3.8	1.49e+00	0	44	104	0	66	25196
2026-01-16 07:37:06.32	11.86	9.06	-47.3	-64.6	3.8	1.49e+00	0	44	104	0	66	25977
2026-01-16 07:37:08.32	11.55	8.98	-47.3	-64.7	3.8	1.49e+00	0	44	104	0	66	26329
2026-01-16 07:37:10.32	11.25	8.91	-47.3	-64.8	3.8	1.49e+00	0	44	104	0	66	26535
2026-01-16 07:37:12.32	10.94	8.83	-47.3	-64.8	3.8	1.49e+00	0	44	104	0	66	26611
2026-01-16 07:37:14.32	10.64	8.75	-47.3	-64.1	3.8	1.49e+00	0	44	104	0	66	24534
2026-01-16 07:37:16.31	10.34	8.68	-47.3	-63.0	3.8	1.49e+00	0	44	104	0	66	21533
2026-01-16 07:37:18.30	10.04	8.60	-47.3	-62.5	3.8	1.49e+00	0	44	104	0	66	20306
2026-01-16 07:37:20.31	9.74	8.52	-47.3	-63.0	3.8	1.49e+00	0	44	104	0	66	21728
2026-01-16 07:37:22.31	9.44	8.44	-47.4	-64.2	3.8	1.49e+00	0	44	104	0	66	24751
2026-01-16 07:37:24.30	9.15	8.36	-47.3	-64.8	3.8	1.49e+00	0	44	104	0	66	26501
2026-01-16 07:37:26.30	8.85	8.28	-47.3	-64.8	3.8	1.49e+00	0	44	104	0	66	26744
2026-01-16 07:37:28.30	8.56	8.20	-47.3	-64.8	3.8	1.49e+00	0	44	104	0	66	26463
2026-01-16 07:37:30.29	8.27	8.12	-47.4	-64.7	3.8	1.49e+00	0	44	104	0	66	26294
2026-01-16 07:37:32.30	7.98	8.04	-47.4	-64.8	3.8	1.49e+00	0	44	104	0	66	26537
2026-01-16 07:37:34.30	7.70	7.96	-47.4	-64.9	3.8	1.49e+00	0	44	104	0	66	26963
2026-01-16 07:37:36.30	7.41	7.88	-47.4	-64.8	3.8	1.49e+00	0	44	104	0	66	26646
2026-01-16 07:37:38.29	7.13	7.79	-47.4	-64.8	3.8	1.49e+00	0	44	104	0	66	26580
2026-01-16 07:37:40.29	6.85	7.71	-49.1	-65.2	3.8	1.49e+00	0	44	104	0	68	24813
2026-01-16 07:37:42.28	6.57	7.63	-50.2	-65.8	3.8	1.49e+00	0	44	104	0	70	23755
2026-01-16 07:37:44.27	6.29	7.54	-49.7	-65.5	3.8	1.49e+00	0	44	104	0	70	22806
2026-01-16 07:37:46.27	6.01	7.46	-50.1	-65.6	3.8	1.49e+00	0	44	104	0	70	23076
2026-01-16 07:37:48.27	5.74	7.38	-50.1	-65.6	3.8	1.49e+00	0	44	104	0	71	21913
2026-01-16 07:37:50.27	5.46	7.29	-50.3	-65.6	3.8	1.49e+00	0	44	104	0	71	21975
2026-01-16 07:37:52.26	5.19	7.21	-50.3	-65.7	3.8	1.49e+00	0	44	104	0	71	22126
2026-01-16 07:37:54.25	4.92	7.12	-50.3	-65.7	3.8	1.49e+00	0	44	104	0	71	22146
2026-01-16 07:37:56.25	4.65	7.04	-50.4	-65.7	3.8	1.49e+00	0	44	104	0	71	22147
2026-01-16 07:37:58.25	4.38	6.95	-50.5	-65.7	3.8	1.49e+00	0	44	104	0	71	22097
2026-01-16 07:38:00.25	4.12	6.86	-50.5	-65.7	3.8	1.49e+00	0	44	104	0	71	22102
2026-01-16 07:38:02.25	3.85	6.78	-50.5	-65.7	3.8	1.49e+00	0	44	104	0	71	22159
2026-01-16 07:38:04.24	3.59	6.69	-50.4	-65.7	3.8	1.49e+00	0	44	104	0	71	22156
2026-01-16 07:38:06.24	3.33	6.60	-50.0	-65.7	3.8	1.49e+00	0	44	104	0	71	22042
2026-01-16 07:38:08.24	3.07	6.52	-50.0	-65.6	3.8	1.49e+00	0	44	104	0	71	22004
2026-01-16 07:38:10.24	2.82	6.43	-50.0	-65.7	3.8	1.49e+00	0	44	104	0	71	22021
2026-01-16 07:38:12.23	2.56	6.34	-50.0	-65.6	3.8	1.49e+00	0	44	104	0	71	21893
2026-01-16 07:38:14.23	2.31	6.25	-50.0	-65.6	3.8	1.49e+00	0	44	104	0	71	21970
2026-01-16 07:38:16.23	2.05	6.17	-50.0	-65.6	3.8	1.49e+00	0	44	104	0	71	21990
2026-01-16 07:38:18.22	1.80	6.08	-50.0	-65.6	3.8	1.49e+00	0	44	104	0	71	21961
2026-01-16 07:38:20.22	1.55	5.99	-50.0	-65.6	3.8	1.49e+00	0	44	104	0	71	21992
2026-01-16 07:38:22.22	1.30	5.90	-50.0	-65.6	3.8	1.49e+00	0	44	104	0	71	21977
2026-01-16 07:38:24.22	1.06	5.81	-50.0	-65.6	3.8	1.49e+00	0	44	104	0	71	21987
2026-01-16 07:38:26.21	0.81	5.72	-50.0	-65.6	3.8	1.49e+00	0	44	104	0	71	21937
2026-01-16 07:38:28.21	0.57	5.63	-50.0	-65.6	3.8	1.49e+00	0	44	104	0	71	21882
2026-01-16 07:38:30.20	0.33	5.54	-50.0	-65.6	3.8	1.49e+00	0	44	104	0	71	21868
2026-01-16 07:38:32.20	0.09	5.45	-50.0	-65.6	3.8	1.49e+00	0	44	104	0	71	21895
2026-01-16 07:38:34.20	359.85	5.36	-49.9	-65.6	3.8	1.49e+00	0	44	104	0	71	21998
2026-01-16 07:38:36.19	359.61	5.27	-49.9	-65.6	3.8	1.49e+00	0	44	104	0	71	21865
2026-01-16 07:38:38.19	359.38	5.18	-49.9	-65.6	3.8	1.49e+00	0	44	104	0	71	21947
2026-01-16 07:38:40.19	359.14	5.09	-49.9	-65.6	3.8	1.49e+00	0	44	104	0	71	21954
2026-01-16 07:38:42.18	358.91	5.00	-50.0	-65.6	3.8	1.49e+00	0	44	104	0	71	21833

#Closed at: 2026-01-16 07:38:43
#Recorded file [0 MB]: D:/Data/31040_260116_103030.dat