passes_logs/2026/01/16/T1/T1__20260116_030233_AQUA_rec.log

#Pass ID: 20260116_030233_AQUA
#Satellite: AQUA
#Configuration: AQUA
#almurnet v.1.7.20251203
#Start time: 2026-01-16 03:02:33

#Version: 2.0.20230620
#Station: T1
#Location: 37.570604 lon 55.790049 lat
#TLE: 1 27424U 02022A   26015.51279194  .00000651  00000+0  14022-3 0  9990
#TLE: 2 27424  98.4082 341.9487 0002034  77.6776  33.2672 14.61821775260965

#Time	Az	El	Level	Level2	SNR	BER	BlckErr	Temp	State	Recorded	gain1	gain2
2026-01-16 03:02:33.79	1.81	5.00	-50.6	-71.7	3.8	7.46e-01	0	36	0	0	71	44105
2026-01-16 03:02:36.77	1.51	5.18	-43.1	-67.6	3.2	7.76e-01	0	36	104	0	56	65535
2026-01-16 03:02:39.75	1.21	5.36	-43.1	-67.6	3.2	7.79e-01	0	37	104	0	56	65535
2026-01-16 03:02:42.73	0.90	5.54	-43.1	-67.6	3.2	7.78e-01	0	36	104	0	56	65535
2026-01-16 03:02:45.71	0.58	5.72	-43.2	-67.6	3.2	7.78e-01	0	37	104	0	56	65535
2026-01-16 03:02:48.69	0.27	5.91	-43.2	-68.1	3.2	7.75e-01	0	37	104	0	57	65535
2026-01-16 03:02:51.67	359.94	6.09	-43.2	-68.1	3.2	7.78e-01	0	37	104	0	57	65535
2026-01-16 03:02:54.65	359.62	6.27	-43.2	-68.1	3.2	7.75e-01	0	37	104	0	57	65535
2026-01-16 03:02:57.63	359.28	6.46	-43.2	-68.1	3.2	7.79e-01	0	37	104	0	57	65535
2026-01-16 03:03:00.62	358.95	6.64	-43.2	-68.1	3.2	7.78e-01	0	37	104	0	57	65535
2026-01-16 03:03:03.60	358.61	6.83	-43.2	-68.1	3.2	7.76e-01	0	37	104	0	57	65535
2026-01-16 03:03:06.58	358.26	7.01	-43.2	-68.1	3.2	7.77e-01	0	38	104	0	57	65535
2026-01-16 03:03:09.56	357.91	7.20	-43.3	-68.1	3.2	7.77e-01	0	37	104	0	57	65535
2026-01-16 03:03:12.54	357.55	7.39	-43.3	-68.1	3.2	7.76e-01	0	38	104	0	57	65535
2026-01-16 03:03:15.52	357.19	7.58	-43.3	-68.1	3.3	7.72e-01	0	38	104	0	57	65535
2026-01-16 03:03:18.50	356.82	7.77	-43.3	-68.1	3.3	7.69e-01	0	38	104	0	57	65535
2026-01-16 03:03:21.48	356.45	7.95	-43.3	-68.1	3.3	7.69e-01	0	38	104	0	57	65535
2026-01-16 03:03:24.46	356.07	8.14	-43.3	-68.1	3.3	7.71e-01	0	38	104	0	57	65535
2026-01-16 03:03:27.44	355.69	8.33	-43.3	-68.1	3.3	7.71e-01	0	38	104	0	57	65535
2026-01-16 03:03:30.42	355.30	8.52	-43.1	-66.6	3.8	7.46e-01	0	38	104	0	57	54771
2026-01-16 03:03:33.40	354.90	8.71	-43.0	-63.8	3.8	7.44e-01	0	38	104	0	57	39713
2026-01-16 03:03:36.38	354.50	8.91	-42.6	-61.3	3.8	7.47e-01	0	38	104	0	57	29999
2026-01-16 03:03:39.39	354.09	9.10	-42.6	-64.2	3.8	7.48e-01	0	38	104	0	56	44411
2026-01-16 03:03:42.46	353.67	9.30	-43.9	-64.3	3.8	7.41e-01	0	38	104	0	59	37436
2026-01-16 03:03:45.54	353.23	9.49	-46.1	-63.9	3.8	7.48e-01	0	38	104	0	63	28520
2026-01-16 03:03:48.38	352.83	9.68	-46.9	-62.8	3.8	7.45e-01	0	38	104	0	64	23626
2026-01-16 03:03:51.50	352.38	9.88	-46.0	-61.1	4.0	7.40e-01	0	38	104	0	64	19558
2026-01-16 03:03:54.34	351.96	10.06	-44.1	-58.5	3.8	7.46e-01	0	38	104	0	58	20429
2026-01-16 03:03:57.51	351.49	10.27	-44.8	-57.9	3.8	7.42e-01	0	38	104	0	60	16901
2026-01-16 03:04:00.47	351.04	10.46	-43.1	-59.1	3.8	7.42e-01	0	38	104	0	58	21903
2026-01-16 03:04:03.59	350.56	10.66	-42.8	-58.3	3.7	7.49e-01	0	38	104	0	57	21239
2026-01-16 03:04:06.44	350.12	10.85	-42.1	-48.4	21.7	6.02e-01	0	38	0	2097152	56	7151
2026-01-16 03:04:09.57	349.62	11.05	-42.1	-48.3	21.7	6.02e-01	0	38	0	7864320	55	7469
2026-01-16 03:04:12.41	349.17	11.23	-42.3	-48.1	21.9	6.02e-01	0	38	0	13107200	55	7303
2026-01-16 03:04:15.60	348.65	11.44	-42.5	-47.8	22.2	6.02e-01	0	38	0	18874368	55	7049
2026-01-16 03:04:18.44	348.18	11.62	-42.8	-47.8	22.3	6.03e-01	0	39	0	24117248	56	6659
2026-01-16 03:04:21.57	347.66	11.82	-42.9	-47.8	22.2	5.98e-01	0	39	0	30408704	56	6703
2026-01-16 03:04:24.41	347.17	12.00	-42.8	-47.8	22.3	6.01e-01	0	38	0	35651584	56	6649
2026-01-16 03:04:27.54	346.63	12.21	-43.4	-47.9	22.3	6.02e-01	0	38	0	41418752	57	6366
2026-01-16 03:04:30.38	346.14	12.39	-44.5	-48.0	22.2	6.00e-01	0	38	0	46661632	59	5749
2026-01-16 03:04:33.62	345.56	12.59	-44.6	-47.6	22.5	6.05e-01	0	38	0	52953088	60	5187
2026-01-16 03:04:36.46	345.05	12.77	-44.5	-47.6	22.6	6.02e-01	0	39	0	58195968	60	5166
2026-01-16 03:04:39.59	344.48	12.97	-44.6	-47.7	22.3	6.02e-01	0	39	0	63963136	60	5254
2026-01-16 03:04:42.43	343.95	13.15	-44.4	-47.5	22.6	6.02e-01	0	38	0	69206016	60	5137
2026-01-16 03:04:45.56	343.37	13.35	-43.4	-47.5	22.7	6.02e-01	0	39	0	75497472	58	5753
2026-01-16 03:04:48.40	342.83	13.52	-42.6	-47.5	22.7	6.01e-01	0	38	0	80740352	57	6068
2026-01-16 03:04:51.63	342.20	13.72	-43.1	-47.7	22.5	6.01e-01	0	39	0	86507520	57	6248
2026-01-16 03:04:54.48	341.64	13.90	-43.6	-47.6	22.6	6.01e-01	0	39	0	91750400	57	6145
2026-01-16 03:04:57.60	341.03	14.09	-43.9	-47.5	22.8	6.01e-01	0	39	0	98041856	58	5725
2026-01-16 03:05:00.44	340.46	14.26	-44.1	-47.6	22.6	6.01e-01	0	39	0	103284736	58	5814
2026-01-16 03:05:03.71	339.79	14.46	-44.2	-47.5	22.7	6.02e-01	0	39	0	109051904	59	5455
2026-01-16 03:05:06.98	339.11	14.65	-44.4	-47.6	22.6	6.02e-01	0	39	0	115343360	59	5516
2026-01-16 03:05:09.82	338.52	14.82	-43.9	-47.6	22.7	6.02e-01	0	38	0	120586240	59	5472
2026-01-16 03:05:12.94	337.86	15.00	-44.3	-47.6	22.7	6.01e-01	0	39	0	126877696	59	5466
2026-01-16 03:05:15.79	337.25	15.17	-44.3	-47.5	22.8	6.02e-01	0	39	0	132120576	59	5423
2026-01-16 03:05:18.96	336.56	15.35	-44.0	-47.4	22.8	6.04e-01	0	39	0	137887744	59	5398
2026-01-16 03:05:21.80	335.93	15.51	-44.5	-47.6	22.7	6.04e-01	0	39	0	143130624	59	5507
2026-01-16 03:05:24.93	335.23	15.68	-44.2	-47.7	22.6	6.03e-01	0	39	0	148897792	59	5548
2026-01-16 03:05:27.77	334.59	15.83	-43.8	-47.6	22.7	6.02e-01	0	39	0	154664960	59	5488
2026-01-16 03:05:30.92	333.87	16.00	-44.6	-47.4	22.7	6.03e-01	0	39	0	160432128	60	5090
2026-01-16 03:05:33.76	333.22	16.15	-44.2	-47.4	22.8	6.02e-01	0	39	0	165675008	60	5047
2026-01-16 03:05:37.06	332.45	16.32	-43.7	-47.6	22.6	6.00e-01	0	39	0	171966464	59	5512
2026-01-16 03:05:39.90	331.78	16.47	-44.4	-47.6	22.7	6.01e-01	0	39	0	177209344	59	5487
2026-01-16 03:05:43.17	331.00	16.63	-44.4	-47.7	22.6	6.03e-01	0	39	0	183500800	59	5564
2026-01-16 03:05:45.88	330.34	16.76	-44.2	-47.5	22.8	6.03e-01	0	39	0	188219392	59	5434
2026-01-16 03:05:49.15	329.55	16.91	-44.5	-47.4	22.7	6.02e-01	0	39	0	194510848	60	5091
2026-01-16 03:05:52.12	328.82	17.05	-44.4	-47.3	22.8	6.01e-01	0	39	0	200278016	60	5030
2026-01-16 03:05:55.17	328.06	17.18	-44.1	-47.5	22.7	6.01e-01	0	38	0	205520896	60	5112
2026-01-16 03:05:58.45	327.23	17.33	-44.1	-47.5	22.7	6.03e-01	0	39	0	211812352	60	5108
2026-01-16 03:06:01.17	326.55	17.44	-44.1	-47.8	22.5	6.00e-01	0	39	0	217055232	59	5631
2026-01-16 03:06:04.55	325.68	17.57	-44.0	-47.7	22.5	6.03e-01	0	39	0	223346688	59	5591
2026-01-16 03:06:07.33	324.96	17.68	-44.7	-47.7	22.6	6.00e-01	0	39	0	228589568	59	5557
2026-01-16 03:06:10.75	324.07	17.81	-44.8	-47.6	22.5	6.01e-01	0	39	0	234881024	60	5214
2026-01-16 03:06:13.50	323.35	17.91	-44.6	-47.5	22.7	6.02e-01	0	39	0	240123904	60	5116
2026-01-16 03:06:16.81	322.48	18.02	-44.6	-47.6	22.6	6.03e-01	0	39	0	246415360	60	5169
2026-01-16 03:06:19.52	321.76	18.11	-44.7	-47.5	22.6	6.04e-01	0	39	0	251658240	60	5139
2026-01-16 03:06:22.78	320.89	18.21	-44.7	-47.7	22.5	6.02e-01	0	39	0	257425408	60	5231
2026-01-16 03:06:25.56	320.14	18.29	-44.6	-47.5	22.7	6.03e-01	0	39	0	262668288	60	5155
2026-01-16 03:06:28.74	319.27	18.37	-44.5	-47.9	22.3	6.02e-01	0	39	0	268435456	60	5386
2026-01-16 03:06:32.01	318.38	18.46	-44.2	-47.7	22.5	6.04e-01	0	39	0	274726912	60	5235
2026-01-16 03:06:34.85	317.60	18.52	-44.6	-47.9	22.3	6.04e-01	0	39	0	279969792	60	5377
2026-01-16 03:06:37.97	316.74	18.59	-44.6	-47.6	22.6	6.03e-01	0	39	0	286261248	60	5170
2026-01-16 03:06:40.82	315.96	18.64	-44.9	-47.9	22.4	6.03e-01	0	39	0	291504128	60	5375
2026-01-16 03:06:44.01	315.07	18.70	-44.6	-47.7	22.5	6.02e-01	0	39	0	297271296	60	5235
2026-01-16 03:06:46.85	314.28	18.74	-44.8	-48.0	22.2	6.00e-01	0	39	0	302514176	60	5433
2026-01-16 03:06:49.97	313.41	18.79	-45.0	-48.1	22.1	6.04e-01	0	39	0	308281344	60	5523
2026-01-16 03:06:52.81	312.61	18.82	-44.8	-47.9	22.3	6.03e-01	0	39	0	314048512	60	5347
2026-01-16 03:06:55.94	311.73	18.85	-45.2	-48.5	21.8	6.02e-01	0	39	0	319815680	61	5434
2026-01-16 03:06:58.80	310.92	18.87	-44.2	-47.3	22.9	6.03e-01	0	39	0	325058560	60	4984
2026-01-16 03:07:01.99	310.02	18.89	-44.7	-47.8	22.0	6.02e-01	0	39	0	330825728	60	5331
2026-01-16 03:07:04.83	309.22	18.90	-45.1	-48.4	21.9	6.03e-01	0	39	0	336592896	61	5391
2026-01-16 03:07:08.10	308.30	18.90	-45.0	-48.1	22.2	5.99e-01	0	39	0	342360064	61	5202
2026-01-16 03:07:10.83	307.53	18.90	-45.2	-48.4	21.8	6.01e-01	0	39	0	347602944	61	5383
2026-01-16 03:07:14.13	306.60	18.89	-44.8	-47.8	22.5	6.02e-01	0	39	0	353894400	61	4987
2026-01-16 03:07:17.22	305.73	18.87	-45.0	-48.0	22.2	6.04e-01	0	39	0	359661568	61	5138
2026-01-16 03:07:20.44	304.82	18.85	-44.8	-47.9	22.4	6.04e-01	0	39	0	365428736	61	5043
2026-01-16 03:07:23.32	304.01	18.82	-44.9	-47.8	22.5	6.05e-01	0	39	0	371195904	61	4992
2026-01-16 03:07:26.45	303.13	18.79	-44.6	-47.4	22.8	6.01e-01	0	39	0	376963072	61	4773
2026-01-16 03:07:29.29	302.33	18.75	-45.3	-48.4	21.9	6.01e-01	0	39	0	382205952	61	5344
2026-01-16 03:07:32.42	301.46	18.70	-45.4	-48.6	21.6	6.03e-01	0	39	0	387973120	61	5509
2026-01-16 03:07:35.26	300.67	18.65	-44.7	-47.7	22.4	6.02e-01	0	39	0	393216000	61	4977
2026-01-16 03:07:38.47	299.78	18.59	-45.1	-48.2	22.2	6.00e-01	0	39	0	399507456	61	5221
2026-01-16 03:07:41.32	298.99	18.53	-45.1	-48.1	22.1	6.02e-01	0	39	0	404750336	62	4916
2026-01-16 03:07:44.44	298.14	18.46	-45.6	-48.9	21.2	6.04e-01	0	39	0	410517504	62	5358
2026-01-16 03:07:47.29	297.36	18.39	-44.9	-48.1	22.1	6.03e-01	0	39	0	415760384	61	5189
2026-01-16 03:07:50.41	296.51	18.30	-44.8	-47.8	22.4	6.00e-01	0	39	0	422051840	61	5013
2026-01-16 03:07:53.37	295.71	18.22	-44.7	-47.5	22.7	5.99e-01	0	39	0	427294720	61	4859
2026-01-16 03:07:56.58	294.85	18.12	-45.5	-48.8	21.5	6.03e-01	0	39	0	433586176	61	5599
2026-01-16 03:07:59.42	294.09	18.03	-45.6	-48.7	21.7	6.02e-01	0	39	0	438829056	61	5551
2026-01-16 03:08:02.54	293.26	17.92	-45.6	-48.8	21.5	6.04e-01	0	39	0	444596224	61	5595
2026-01-16 03:08:05.39	292.51	17.82	-45.2	-48.3	21.9	6.02e-01	0	39	0	449839104	61	5321
2026-01-16 03:08:08.52	291.69	17.71	-45.0	-48.1	22.2	6.00e-01	0	39	0	455606272	61	5190
2026-01-16 03:08:11.36	290.96	17.60	-45.2	-48.1	22.1	6.01e-01	0	39	0	461373440	61	5190
2026-01-16 03:08:14.49	290.15	17.47	-45.3	-48.3	22.0	6.04e-01	0	39	0	467140608	61	5296
2026-01-16 03:08:17.33	289.43	17.36	-44.9	-47.9	22.4	6.04e-01	0	39	0	472383488	61	5065
2026-01-16 03:08:20.46	288.64	17.22	-44.9	-48.1	22.2	6.02e-01	0	39	0	478150656	61	5160
2026-01-16 03:08:23.30	287.93	17.10	-45.0	-48.1	22.1	6.03e-01	0	39	0	483393536	61	5179
2026-01-16 03:08:26.50	287.14	16.95	-45.0	-47.9	22.2	6.02e-01	0	39	0	489684992	61	5090
2026-01-16 03:08:29.34	286.44	16.82	-45.5	-48.5	21.7	6.02e-01	0	39	0	494927872	61	5449
2026-01-16 03:08:32.47	285.68	16.67	-45.5	-48.6	21.6	6.04e-01	0	39	0	500695040	61	5487
2026-01-16 03:08:35.32	284.99	16.53	-45.4	-48.7	21.6	6.03e-01	0	39	0	505937920	61	5557
2026-01-16 03:08:38.44	284.25	16.37	-45.2	-48.4	21.9	6.00e-01	0	39	0	511705088	61	5386
2026-01-16 03:08:41.28	283.58	16.22	-44.7	-47.5	22.8	6.00e-01	0	39	0	517472256	61	4822
2026-01-16 03:08:44.49	282.83	16.06	-45.0	-47.8	22.4	6.03e-01	0	39	0	523239424	61	4998
2026-01-16 03:08:47.80	282.07	15.88	-44.9	-47.9	22.3	6.02e-01	0	39	0	529530880	61	5048
2026-01-16 03:08:50.65	281.42	15.73	-45.2	-48.2	22.0	6.00e-01	0	39	0	534773760	61	5278
2026-01-16 03:08:53.77	280.72	15.55	-45.2	-48.1	22.1	5.98e-01	0	39	0	540540928	61	5215
2026-01-16 03:08:56.64	280.09	15.39	-44.9	-47.8	22.4	6.02e-01	0	39	0	545783808	61	5003
2026-01-16 03:09:00.15	279.32	15.19	-45.1	-48.2	22.1	6.03e-01	0	39	0	552599552	61	5232
2026-01-16 03:09:02.88	278.73	15.04	-45.4	-48.5	21.8	6.01e-01	0	39	0	557842432	61	5424
2026-01-16 03:09:06.26	278.00	14.84	-44.8	-47.9	22.3	6.03e-01	0	39	0	564133888	61	5067
2026-01-16 03:09:08.99	277.43	14.68	-44.9	-48.0	22.2	6.01e-01	0	39	0	569376768	61	5145
2026-01-16 03:09:12.27	276.75	14.48	-45.0	-47.9	22.3	6.04e-01	0	39	0	575143936	61	5080
2026-01-16 03:09:14.98	276.19	14.32	-45.1	-48.1	22.1	6.07e-01	0	39	0	580386816	61	5182
2026-01-16 03:09:18.26	275.52	14.12	-45.0	-48.0	22.2	6.00e-01	0	39	0	586678272	61	5127
2026-01-16 03:09:21.22	274.93	13.94	-45.1	-48.2	22.0	6.03e-01	0	39	0	591921152	61	5227
2026-01-16 03:09:24.21	274.34	13.75	-44.9	-48.0	22.2	6.01e-01	0	39	0	597688320	61	5118
2026-01-16 03:09:27.19	273.76	13.57	-45.2	-48.4	21.9	6.02e-01	0	39	0	603455488	61	5348
2026-01-16 03:09:30.15	273.19	13.38	-45.1	-48.2	22.0	6.03e-01	0	39	0	608698368	61	5270
2026-01-16 03:09:33.14	272.63	13.20	-45.0	-48.1	22.1	6.03e-01	0	39	0	614465536	61	5188
2026-01-16 03:09:36.44	272.01	12.99	-45.3	-48.4	21.9	6.03e-01	0	39	0	620756992	61	5354
2026-01-16 03:09:39.36	271.47	12.80	-45.2	-48.2	22.0	6.02e-01	0	39	0	625999872	61	5225
2026-01-16 03:09:43.39	270.74	12.55	-45.2	-48.3	21.8	6.05e-01	0	39	0	633864192	61	5304
2026-01-16 03:09:46.23	270.24	12.36	-45.3	-48.3	21.8	6.03e-01	0	39	0	639107072	61	5325
2026-01-16 03:09:50.21	269.54	12.11	-45.1	-48.2	21.9	6.03e-01	0	39	0	646447104	61	5270
2026-01-16 03:09:53.05	269.05	11.92	-45.1	-48.3	21.8	6.03e-01	0	39	0	651689984	61	5335
2026-01-16 03:09:57.14	268.35	11.66	-45.1	-48.4	21.7	6.01e-01	0	39	0	659554304	61	5371
2026-01-16 03:09:59.98	267.88	11.48	-45.2	-48.6	21.5	6.00e-01	0	39	0	664797184	61	5512
2026-01-16 03:10:03.94	267.23	11.22	-45.3	-48.5	21.6	6.04e-01	0	39	0	672137216	61	5444
2026-01-16 03:10:06.92	266.75	11.03	-45.4	-48.6	21.5	6.01e-01	0	39	0	677904384	61	5473
2026-01-16 03:10:10.31	266.21	10.81	-45.4	-48.7	21.3	6.01e-01	0	39	0	684195840	61	5571
2026-01-16 03:10:13.03	265.78	10.63	-45.2	-48.6	21.4	6.01e-01	0	39	0	689438720	61	5496
2026-01-16 03:10:16.31	265.27	10.42	-45.5	-48.9	21.2	6.02e-01	0	39	0	695205888	62	5372
2026-01-16 03:10:19.03	264.86	10.24	-45.5	-48.8	21.3	6.02e-01	0	39	0	700448768	62	5285
2026-01-16 03:10:22.29	264.37	10.03	-45.6	-48.7	21.2	6.02e-01	0	39	0	706740224	62	5278
2026-01-16 03:10:25.02	263.97	9.85	-45.3	-48.7	21.3	6.03e-01	0	39	0	711983104	62	5258
2026-01-16 03:10:28.61	263.44	9.62	-45.2	-49.0	20.9	6.01e-01	0	39	0	718274560	62	5456
2026-01-16 03:10:31.75	262.99	9.42	-45.2	-48.9	21.0	6.03e-01	0	39	0	724566016	62	5394
2026-01-16 03:10:34.88	262.55	9.21	-45.6	-49.3	20.7	6.01e-01	0	39	0	730333184	62	5605
2026-01-16 03:10:37.72	262.16	9.03	-45.6	-49.1	20.9	6.02e-01	0	39	0	735576064	62	5503
2026-01-16 03:10:40.84	261.73	8.83	-51.2	-71.5	3.8	7.45e-01	0	39	104	737673216	73	38376
2026-01-16 03:10:43.68	261.34	8.65	-51.4	-71.8	3.8	7.47e-01	0	39	104	737673216	73	39621
2026-01-16 03:10:46.80	260.93	8.45	-51.7	-71.9	3.8	7.43e-01	0	39	104	737673216	74	37993
2026-01-16 03:10:49.64	260.56	8.26	-51.6	-72.0	3.8	7.45e-01	0	39	104	737673216	74	38260
2026-01-16 03:10:52.76	260.15	8.06	-51.5	-72.0	3.8	7.48e-01	0	39	104	737673216	74	38356
2026-01-16 03:10:55.60	259.79	7.88	-51.6	-72.0	3.8	7.46e-01	0	39	104	737673216	74	38415
2026-01-16 03:10:58.72	259.40	7.68	-51.2	-72.0	3.8	7.49e-01	0	39	104	737673216	73	40580
2026-01-16 03:11:01.56	259.05	7.50	-50.5	-71.9	3.8	7.44e-01	0	39	104	737673216	73	40137
2026-01-16 03:11:04.68	258.66	7.31	-50.5	-71.9	3.8	7.47e-01	0	39	104	737673216	73	40201
2026-01-16 03:11:07.52	258.32	7.13	-50.5	-71.9	3.8	7.45e-01	0	39	104	737673216	73	40141
2026-01-16 03:11:10.64	257.95	6.93	-50.5	-71.9	3.8	7.45e-01	0	39	104	737673216	73	40151
2026-01-16 03:11:13.48	257.62	6.75	-50.5	-71.9	3.8	7.44e-01	0	39	104	737673216	73	40121
2026-01-16 03:11:16.61	257.26	6.56	-50.5	-71.8	3.8	7.45e-01	0	39	104	737673216	73	39997
2026-01-16 03:11:19.44	256.94	6.38	-50.5	-71.9	3.8	7.49e-01	0	39	104	737673216	73	40054
2026-01-16 03:11:22.57	256.59	6.19	-50.5	-71.8	3.8	7.45e-01	0	39	104	737673216	73	39983
2026-01-16 03:11:25.41	256.27	6.01	-50.5	-71.8	3.8	7.44e-01	0	39	104	737673216	73	39920
2026-01-16 03:11:28.53	255.93	5.82	-50.5	-71.8	3.8	7.46e-01	0	39	104	737673216	72	42375
2026-01-16 03:11:31.36	255.63	5.65	-50.5	-71.8	3.8	7.44e-01	0	39	104	737673216	72	42361
2026-01-16 03:11:34.49	255.29	5.45	-50.5	-71.8	3.8	7.49e-01	0	39	104	737673216	72	42330
2026-01-16 03:11:37.32	255.00	5.28	-50.5	-71.8	3.8	7.45e-01	0	39	104	737673216	72	42362
2026-01-16 03:11:40.45	254.68	5.09	-50.5	-71.8	3.8	7.45e-01	0	39	104	737673216	72	42283

#Closed at: 2026-01-16 03:11:43
#Recorded file [737 MB]: D:/Data/31040_260116_060233.dat