passes_logs/2026/01/16/T1/T1__20260116_151127_FENGYUN_3E_rec.log

#Pass ID: 20260116_151127_FENGYUN 3E
#Satellite: FENGYUN 3E
#Configuration: FENGYUN 3E
#almurnet v.1.7.20251203
#Start time: 2026-01-16 15:11:29

#Version: 2.0.20230620
#Station: T1
#Location: 37.570604 lon 55.790049 lat
#TLE: 1 49008U 21062A   26015.99225297  .00000062  00000+0  49720-4 0  9994
#TLE: 2 49008  98.7486  21.1092 0002100 136.3389 223.7953 14.19885247234982

#Time	Az	El	Level	Level2	SNR	BER	BlckErr	Temp	State	Recorded	gain1	gain2
2026-01-16 15:11:29.22	191.80	5.13	-49.8	-61.4	3.8	8.46e-01	0	37	0	0	70	13298
2026-01-16 15:11:32.20	191.97	5.34	-49.8	-61.3	3.8	8.47e-01	0	37	104	0	69	13911
2026-01-16 15:11:35.19	192.14	5.54	-49.8	-60.9	3.8	8.46e-01	0	37	104	0	69	13381
2026-01-16 15:11:38.17	192.31	5.74	-49.7	-60.5	3.8	8.46e-01	0	37	104	0	69	12710
2026-01-16 15:11:41.16	192.49	5.95	-49.7	-60.6	3.8	8.46e-01	0	37	104	0	69	12829
2026-01-16 15:11:44.15	192.67	6.15	-49.7	-60.6	3.8	8.46e-01	0	37	104	0	69	12907
2026-01-16 15:11:47.14	192.85	6.36	-49.7	-60.2	3.8	8.45e-01	0	38	104	0	69	12244
2026-01-16 15:11:50.13	193.03	6.57	-49.7	-60.3	3.8	8.46e-01	0	38	104	0	69	12442
2026-01-16 15:11:53.12	193.22	6.78	-49.7	-60.7	3.8	8.48e-01	0	38	104	0	69	13066
2026-01-16 15:11:56.10	193.41	7.00	-49.8	-61.1	3.8	8.47e-01	0	38	104	0	69	13677
2026-01-16 15:11:59.09	193.60	7.21	-49.5	-59.4	3.8	8.45e-01	0	38	104	0	69	11197
2026-01-16 15:12:02.07	193.79	7.42	-49.4	-58.6	3.9	8.42e-01	0	38	104	0	69	10266
2026-01-16 15:12:05.06	193.99	7.64	-49.8	-61.0	3.8	8.48e-01	0	38	104	0	69	13421
2026-01-16 15:12:08.05	194.19	7.86	-46.6	-50.2	9.8	2.31e-02	0	38	0	9437184	63	5503
2026-01-16 15:12:11.03	194.39	8.08	-42.1	-44.0	15.9	0.00e+00	0	38	0	31457280	55	4248
2026-01-16 15:12:14.02	194.60	8.30	-40.0	-41.7	18.0	0.00e+00	0	38	0	52428800	50	4347
2026-01-16 15:12:17.00	194.81	8.53	-40.3	-41.9	17.8	0.00e+00	0	38	0	73400320	50	4483
2026-01-16 15:12:19.99	195.02	8.75	-42.2	-44.2	15.7	0.00e+00	0	38	0	95420416	53	4871
2026-01-16 15:12:22.98	195.23	8.98	-45.6	-48.5	11.6	3.13e-04	0	38	0	117440512	60	5387
2026-01-16 15:12:25.98	195.45	9.21	-48.9	-56.0	4.8	3.85e-01	0	39	0	137363456	67	8545
2026-01-16 15:12:28.98	195.67	9.44	-48.5	-54.7	5.6	8.71e-02	0	39	0	157286400	66	7793
2026-01-16 15:12:31.98	195.90	9.67	-39.4	-40.9	18.7	0.00e+00	0	39	0	178257920	49	4235
2026-01-16 15:12:34.98	196.13	9.91	-39.1	-40.6	19.0	0.00e+00	0	39	0	200278016	48	4303
2026-01-16 15:12:37.98	196.36	10.15	-39.3	-40.8	18.9	0.00e+00	0	39	0	222298112	48	4437
2026-01-16 15:12:40.99	196.60	10.39	-39.0	-40.5	19.1	0.00e+00	0	39	0	243269632	48	4281
2026-01-16 15:12:43.99	196.84	10.63	-38.9	-40.4	19.2	0.00e+00	0	39	0	265289728	48	4238
2026-01-16 15:12:46.99	197.08	10.87	-38.9	-40.4	19.2	0.00e+00	0	39	0	287309824	48	4236
2026-01-16 15:12:50.00	197.33	11.12	-38.7	-40.2	19.4	0.00e+00	0	39	0	308281344	48	4130
2026-01-16 15:12:53.00	197.58	11.36	-38.5	-40.0	19.3	0.00e+00	0	39	0	330301440	47	4281
2026-01-16 15:12:56.00	197.84	11.61	-38.6	-40.1	19.2	0.00e+00	0	39	0	352321536	47	4315
2026-01-16 15:12:59.00	198.10	11.86	-38.6	-40.2	19.2	0.00e+00	0	39	0	373293056	47	4344
2026-01-16 15:13:02.01	198.36	12.12	-38.5	-40.0	19.4	0.00e+00	0	39	0	395313152	47	4258
2026-01-16 15:13:05.01	198.63	12.37	-38.4	-39.9	19.5	0.00e+00	0	39	0	417333248	47	4204
2026-01-16 15:13:08.02	198.91	12.63	-38.4	-39.9	19.5	0.00e+00	0	39	0	438304768	47	4201
2026-01-16 15:13:11.02	199.19	12.89	-38.4	-39.9	19.4	0.00e+00	0	39	0	460324864	47	4204
2026-01-16 15:13:14.03	199.47	13.15	-38.2	-39.6	19.7	0.00e+00	0	39	0	482344960	47	4088
2026-01-16 15:13:17.03	199.76	13.42	-38.4	-39.8	19.5	0.00e+00	0	39	0	504365056	46	4416
2026-01-16 15:13:20.03	200.05	13.68	-38.5	-39.9	19.5	0.00e+00	0	39	0	525336576	46	4472
2026-01-16 15:13:23.04	200.35	13.95	-38.2	-39.6	19.7	0.00e+00	0	39	0	547356672	46	4334
2026-01-16 15:13:26.04	200.65	14.22	-38.2	-39.6	19.7	0.00e+00	0	40	0	568328192	46	4337
2026-01-16 15:13:29.05	200.96	14.50	-38.2	-39.5	19.8	0.00e+00	0	39	0	590348288	46	4291
2026-01-16 15:13:32.05	201.28	14.77	-38.1	-39.4	19.9	0.00e+00	0	39	0	612368384	46	4237
2026-01-16 15:13:35.06	201.60	15.05	-37.9	-39.3	20.0	0.00e+00	0	39	0	633339904	46	4167
2026-01-16 15:13:38.06	201.92	15.33	-37.7	-39.1	20.3	0.00e+00	0	40	0	655360000	46	4055
2026-01-16 15:13:41.07	202.26	15.61	-37.6	-38.9	20.4	0.00e+00	0	39	0	677380096	46	3992
2026-01-16 15:13:44.08	202.60	15.90	-37.6	-38.8	20.4	0.00e+00	0	39	0	699400192	45	4193
2026-01-16 15:13:47.08	202.94	16.19	-37.5	-38.8	20.5	0.00e+00	0	40	0	720371712	45	4170
2026-01-16 15:13:50.08	203.29	16.48	-37.3	-38.7	20.6	0.00e+00	0	39	0	742391808	45	4099
2026-01-16 15:13:53.08	203.65	16.77	-37.4	-38.8	20.6	0.00e+00	0	39	0	764411904	45	4149
2026-01-16 15:13:56.08	204.01	17.07	-37.3	-38.6	20.7	0.00e+00	0	40	0	785383424	45	4079
2026-01-16 15:13:59.09	204.38	17.36	-37.3	-38.7	20.7	0.00e+00	0	40	0	807403520	45	4105
2026-01-16 15:14:02.09	204.76	17.66	-37.2	-38.5	20.8	0.00e+00	0	39	0	829423616	44	4265
2026-01-16 15:14:05.10	205.15	17.97	-37.1	-38.4	20.8	0.00e+00	0	40	0	850395136	44	4233
2026-01-16 15:14:08.10	205.54	18.27	-37.0	-38.3	20.9	0.00e+00	0	40	0	872415232	44	4184
2026-01-16 15:14:11.10	205.94	18.58	-37.2	-38.5	20.8	0.00e+00	0	40	0	894435328	44	4289
2026-01-16 15:14:14.11	206.35	18.89	-37.1	-38.5	20.8	0.00e+00	0	40	0	915406848	44	4264
2026-01-16 15:14:17.11	206.77	19.20	-37.0	-38.3	20.9	0.00e+00	0	40	0	937426944	44	4192
2026-01-16 15:14:20.12	207.20	19.52	-37.2	-38.6	20.6	0.00e+00	0	40	0	959447040	44	4329
2026-01-16 15:14:23.11	207.63	19.83	-37.1	-38.4	20.8	0.00e+00	0	40	0	980418560	44	4226
2026-01-16 15:14:26.11	208.08	20.15	-36.3	-37.6	21.4	0.00e+00	0	40	0	1002438656	43	4072
2026-01-16 15:14:29.11	208.53	20.47	-36.2	-37.5	21.4	0.00e+00	0	40	0	1024458752	43	4042
2026-01-16 15:14:32.11	208.99	20.80	-36.3	-37.6	21.3	0.00e+00	0	40	0	1045430272	43	4091
2026-01-16 15:14:35.11	209.46	21.13	-36.4	-37.7	21.2	0.00e+00	0	40	0	1067450368	43	4118
2026-01-16 15:14:38.11	209.94	21.45	-36.2	-37.5	21.4	0.00e+00	0	40	0	1089470464	43	4035
2026-01-16 15:14:41.12	210.43	21.79	-36.3	-37.6	21.3	0.00e+00	0	40	0	1111490560	43	4083
2026-01-16 15:14:44.12	210.94	22.12	-36.4	-37.7	21.2	0.00e+00	0	40	0	1132462080	43	4129
2026-01-16 15:14:47.12	211.45	22.46	-36.3	-37.7	21.3	0.00e+00	0	40	0	1154482176	43	4099
2026-01-16 15:14:50.13	211.97	22.79	-36.1	-37.4	21.5	0.00e+00	0	40	0	1175453696	42	4213
2026-01-16 15:14:53.12	212.51	23.13	-35.9	-37.2	21.7	0.00e+00	0	40	0	1197473792	42	4139
2026-01-16 15:14:56.13	213.05	23.48	-36.1	-37.4	21.5	0.00e+00	0	40	0	1219493888	42	4234
2026-01-16 15:14:59.12	213.61	23.82	-36.3	-37.6	21.4	0.00e+00	0	40	0	1240465408	42	4310
2026-01-16 15:15:02.12	214.18	24.16	-36.2	-37.5	21.5	0.00e+00	0	40	0	1262485504	42	4264
2026-01-16 15:15:05.13	214.76	24.51	-35.9	-37.2	21.7	0.00e+00	0	40	0	1284505600	42	4112
2026-01-16 15:15:08.13	215.36	24.86	-35.8	-37.1	21.8	0.00e+00	0	40	0	1305477120	42	4078
2026-01-16 15:15:11.13	215.96	25.21	-35.6	-36.9	21.9	0.00e+00	0	40	0	1327497216	41	4210
2026-01-16 15:15:14.13	216.59	25.56	-35.5	-36.8	22.0	0.00e+00	0	40	0	1349517312	41	4163
2026-01-16 15:15:17.14	217.22	25.91	-35.7	-37.0	21.9	0.00e+00	0	40	0	1370488832	41	4276
2026-01-16 15:15:20.14	217.87	26.27	-35.5	-36.7	22.2	0.00e+00	0	40	0	1392508928	41	4121
2026-01-16 15:15:23.14	218.53	26.62	-35.6	-36.9	22.0	0.00e+00	0	40	0	1414529024	41	4204
2026-01-16 15:15:26.15	219.21	26.98	-35.6	-36.9	21.9	0.00e+00	0	40	0	1435500544	41	4222
2026-01-16 15:15:29.14	219.90	27.33	-35.6	-36.9	21.9	0.00e+00	0	40	0	1457520640	41	4225
2026-01-16 15:15:32.15	220.61	27.69	-35.5	-36.8	22.0	0.00e+00	0	40	0	1479540736	41	4155
2026-01-16 15:15:35.16	221.34	28.04	-35.4	-36.6	22.1	0.00e+00	0	40	0	1500512256	41	4097
2026-01-16 15:15:38.15	222.08	28.40	-35.5	-36.7	22.0	0.00e+00	0	40	0	1522532352	41	4134
2026-01-16 15:15:41.16	222.83	28.75	-35.6	-36.9	21.9	0.00e+00	0	40	0	1544552448	41	4198
2026-01-16 15:15:44.16	223.61	29.10	-35.5	-36.8	22.1	0.00e+00	0	40	0	1565523968	41	4160
2026-01-16 15:15:47.17	224.40	29.46	-35.4	-36.6	22.2	0.00e+00	0	40	0	1587544064	41	4081
2026-01-16 15:15:50.17	225.20	29.81	-35.5	-36.7	22.2	0.00e+00	0	40	0	1609564160	41	4132
2026-01-16 15:15:53.17	226.03	30.15	-35.6	-36.9	22.0	0.00e+00	0	40	0	1630535680	41	4216
2026-01-16 15:15:56.17	226.87	30.50	-35.6	-36.9	22.0	0.00e+00	0	40	0	1652555776	41	4195
2026-01-16 15:15:59.17	227.72	30.84	-35.6	-37.0	21.9	0.00e+00	0	40	0	1674575872	41	4260
2026-01-16 15:16:02.18	228.60	31.18	-35.8	-37.2	21.7	0.00e+00	0	40	0	1695547392	41	4347
2026-01-16 15:16:05.18	229.50	31.52	-35.7	-37.0	21.8	0.00e+00	0	40	0	1717567488	41	4256
2026-01-16 15:16:08.18	230.41	31.85	-35.5	-36.8	21.9	0.00e+00	0	40	0	1739587584	41	4191
2026-01-16 15:16:11.19	231.34	32.18	-35.4	-36.7	22.0	0.00e+00	0	40	0	1760559104	41	4125
2026-01-16 15:16:14.19	232.29	32.50	-35.4	-36.7	22.1	0.00e+00	0	40	0	1782579200	41	4114
2026-01-16 15:16:17.19	233.26	32.82	-35.2	-36.5	22.3	0.00e+00	0	40	0	1804599296	41	4017
2026-01-16 15:16:20.20	234.25	33.13	-35.4	-36.7	22.1	0.00e+00	0	40	0	1825570816	41	4115
2026-01-16 15:16:23.20	235.26	33.44	-35.2	-36.5	22.2	0.00e+00	0	40	0	1847590912	41	4032
2026-01-16 15:16:26.20	236.28	33.74	-35.4	-36.7	22.1	0.00e+00	0	40	0	1869611008	41	4107
2026-01-16 15:16:29.21	237.33	34.03	-35.4	-36.7	22.1	0.00e+00	0	40	0	1890582528	41	4117
2026-01-16 15:16:32.21	238.39	34.32	-35.4	-36.6	22.2	0.00e+00	0	40	0	1912602624	41	4097
2026-01-16 15:16:35.21	239.47	34.59	-35.7	-36.9	21.9	0.00e+00	0	40	0	1934622720	41	4242
2026-01-16 15:16:38.22	240.57	34.86	-35.3	-36.5	22.3	0.00e+00	0	40	0	1955594240	41	4038
2026-01-16 15:16:41.22	241.68	35.11	-35.3	-36.6	22.3	0.00e+00	0	40	0	1977614336	41	4052
2026-01-16 15:16:44.22	242.81	35.36	-35.4	-36.6	22.3	0.00e+00	0	40	0	1999634432	41	4090
2026-01-16 15:16:47.22	243.96	35.60	-35.6	-36.9	22.0	0.00e+00	0	40	0	2021654528	41	4203
2026-01-16 15:16:50.22	245.12	35.82	-35.2	-36.4	22.4	0.00e+00	0	40	0	2042626048	40	4216
2026-01-16 15:16:53.23	246.31	36.04	-35.4	-36.6	22.2	0.00e+00	0	40	0	2064646144	40	4325
2026-01-16 15:16:56.23	247.50	36.24	-35.3	-36.5	22.4	0.00e+00	0	40	0	2086666240	40	4276
2026-01-16 15:16:59.24	248.71	36.43	-35.1	-36.3	22.6	0.00e+00	0	40	0	2107637760	40	4157
2026-01-16 15:17:02.24	249.93	36.60	-35.1	-36.3	22.6	0.00e+00	0	40	0	2129657856	40	4186
2026-01-16 15:17:05.25	251.17	36.76	-35.4	-36.7	22.2	0.00e+00	0	40	0	2151677952	40	4383
2026-01-16 15:17:08.25	252.42	36.91	-35.7	-37.0	21.9	0.00e+00	0	40	0	2172649472	40	4537
2026-01-16 15:17:11.26	253.68	37.04	-35.4	-36.6	22.3	0.00e+00	0	40	0	2194669568	40	4316
2026-01-16 15:17:14.26	254.94	37.16	-35.5	-36.8	22.2	0.00e+00	0	40	0	2215641088	40	4400
2026-01-16 15:17:17.26	256.22	37.26	-35.3	-36.5	22.5	0.00e+00	0	40	0	2237661184	40	4255
2026-01-16 15:17:20.27	257.50	37.35	-35.2	-36.4	22.5	0.00e+00	0	40	0	2259681280	40	4225
2026-01-16 15:17:23.27	258.79	37.42	-35.7	-36.5	23.0	0.00e+00	0	40	0	2281701376	40	4284
2026-01-16 15:17:26.28	260.09	37.48	-35.5	-36.4	23.1	0.00e+00	0	40	0	2302672896	40	4198
2026-01-16 15:17:29.28	261.38	37.52	-35.3	-36.1	23.4	0.00e+00	0	40	0	2324692992	40	4083
2026-01-16 15:17:32.28	262.68	37.54	-35.4	-36.3	23.3	0.00e+00	0	40	0	2346713088	40	4152
2026-01-16 15:17:35.27	263.97	37.55	-35.4	-36.2	23.3	0.00e+00	0	40	0	2367684608	40	4137
2026-01-16 15:17:38.27	265.27	37.54	-35.6	-36.4	23.2	0.00e+00	0	40	0	2389704704	41	4001
2026-01-16 15:17:41.27	266.57	37.52	-35.5	-36.3	23.2	0.00e+00	0	40	0	2411724800	41	3953
2026-01-16 15:17:44.28	267.87	37.48	-35.6	-36.5	23.1	0.00e+00	0	40	0	2432696320	41	4006
2026-01-16 15:17:47.29	269.17	37.42	-35.4	-36.2	23.4	0.00e+00	0	40	0	2454716416	41	3883
2026-01-16 15:17:50.29	270.45	37.34	-35.7	-36.5	23.0	0.00e+00	0	40	0	2476736512	41	4044
2026-01-16 15:17:53.29	271.73	37.26	-35.5	-36.2	23.3	0.00e+00	0	40	0	2497708032	41	3912
2026-01-16 15:17:56.30	273.01	37.15	-35.6	-36.4	23.2	0.00e+00	0	40	0	2519728128	41	3974
2026-01-16 15:17:59.30	274.27	37.03	-35.9	-36.7	22.9	0.00e+00	0	40	0	2541748224	41	4129
2026-01-16 15:18:02.30	275.52	36.90	-35.6	-36.4	23.2	0.00e+00	0	40	0	2562719744	41	3985
2026-01-16 15:18:05.31	276.77	36.75	-35.7	-36.5	23.1	0.00e+00	0	40	0	2584739840	41	4047
2026-01-16 15:18:08.31	278.00	36.59	-36.0	-36.8	22.8	0.00e+00	0	40	0	2606759936	41	4185
2026-01-16 15:18:11.32	279.22	36.41	-36.1	-36.9	22.7	0.00e+00	0	40	0	2628780032	41	4235
2026-01-16 15:18:14.32	280.43	36.22	-35.8	-36.6	23.0	0.00e+00	0	40	0	2649751552	41	4069
2026-01-16 15:18:17.32	281.62	36.02	-35.9	-36.7	22.9	0.00e+00	0	40	0	2671771648	41	4138
2026-01-16 15:18:20.32	282.79	35.81	-36.0	-36.8	22.9	0.00e+00	0	40	0	2693791744	41	4166
2026-01-16 15:18:23.32	283.95	35.58	-35.9	-36.7	22.9	0.00e+00	0	40	0	2714763264	41	4144
2026-01-16 15:18:26.32	285.10	35.35	-36.1	-36.9	22.8	0.00e+00	0	40	0	2736783360	41	4206
2026-01-16 15:18:29.33	286.23	35.10	-35.9	-36.7	23.0	0.00e+00	0	41	0	2757754880	41	4131
2026-01-16 15:18:32.33	287.34	34.84	-35.9	-36.7	22.9	0.00e+00	0	40	0	2779774976	41	4118
2026-01-16 15:18:35.33	288.43	34.58	-35.7	-36.5	23.1	0.00e+00	0	40	0	2801795072	41	4043
2026-01-16 15:18:38.33	289.50	34.30	-35.6	-36.4	23.2	0.00e+00	0	40	0	2822766592	41	3988
2026-01-16 15:18:41.34	290.56	34.02	-35.8	-36.6	23.0	0.00e+00	0	40	0	2844786688	41	4088
2026-01-16 15:18:44.34	291.60	33.73	-36.0	-36.8	22.8	0.00e+00	0	40	0	2866806784	41	4166
2026-01-16 15:18:47.35	292.63	33.43	-36.1	-36.9	22.7	0.00e+00	0	40	0	2887778304	41	4232
2026-01-16 15:18:50.36	293.63	33.12	-35.9	-36.8	22.8	0.00e+00	0	40	0	2909798400	41	4151
2026-01-16 15:18:53.36	294.61	32.81	-36.1	-37.0	22.7	0.00e+00	0	40	0	2931818496	41	4250
2026-01-16 15:18:56.37	295.58	32.49	-36.1	-37.0	22.7	0.00e+00	0	40	0	2953838592	41	4262
2026-01-16 15:18:59.37	296.52	32.17	-36.0	-36.8	22.9	0.00e+00	0	40	0	2974810112	41	4175
2026-01-16 15:19:02.37	297.45	31.85	-35.9	-36.7	22.9	0.00e+00	0	40	0	2996830208	41	4130
2026-01-16 15:19:05.38	298.36	31.51	-35.8	-36.6	23.0	0.00e+00	0	40	0	3018850304	41	4065
2026-01-16 15:19:08.39	299.26	31.18	-36.0	-36.8	22.9	0.00e+00	0	40	0	3039821824	41	4166
2026-01-16 15:19:11.39	300.13	30.84	-36.4	-37.2	22.4	0.00e+00	0	40	0	3061841920	42	4137
2026-01-16 15:19:14.39	300.98	30.50	-36.4	-37.3	22.4	0.00e+00	0	40	0	3083862016	42	4174
2026-01-16 15:19:17.39	301.82	30.16	-36.0	-36.8	22.8	0.00e+00	0	40	0	3104833536	42	3945
2026-01-16 15:19:20.40	302.64	29.81	-35.7	-36.5	23.1	0.00e+00	0	41	0	3126853632	42	3813
2026-01-16 15:19:23.40	303.44	29.46	-35.9	-36.8	22.9	0.00e+00	0	40	0	3148873728	42	3918
2026-01-16 15:19:26.41	304.23	29.11	-36.4	-37.3	22.4	0.00e+00	0	41	0	3170893824	42	4147
2026-01-16 15:19:29.41	305.00	28.76	-36.5	-37.4	22.3	0.00e+00	0	40	0	3191865344	42	4230
2026-01-16 15:19:32.41	305.75	28.41	-36.2	-37.0	22.6	0.00e+00	0	41	0	3213885440	42	4041
2026-01-16 15:19:35.41	306.49	28.06	-35.9	-36.7	22.9	0.00e+00	0	40	0	3235905536	42	3912
2026-01-16 15:19:38.41	307.21	27.70	-36.2	-37.0	22.7	0.00e+00	0	40	0	3256877056	42	4026
2026-01-16 15:19:41.42	307.91	27.35	-36.4	-37.2	22.4	0.00e+00	0	41	0	3278897152	42	4141
2026-01-16 15:19:44.42	308.60	27.00	-36.4	-37.2	22.4	0.00e+00	0	41	0	3299868672	42	4134
2026-01-16 15:19:47.43	309.28	26.65	-36.3	-37.2	22.5	0.00e+00	0	41	0	3321888768	42	4106
2026-01-16 15:19:50.44	309.94	26.29	-36.1	-36.9	22.7	0.00e+00	0	41	0	3343908864	42	3983
2026-01-16 15:19:53.45	310.59	25.94	-36.0	-36.9	22.8	0.00e+00	0	41	0	3364880384	42	3968
2026-01-16 15:19:56.45	311.22	25.59	-36.2	-37.0	22.6	0.00e+00	0	41	0	3386900480	42	4045
2026-01-16 15:19:59.45	311.84	25.24	-36.4	-37.3	22.3	0.00e+00	0	41	0	3408920576	42	4178
2026-01-16 15:20:02.45	312.45	24.90	-36.4	-37.3	22.3	0.00e+00	0	40	0	3429892096	42	4176
2026-01-16 15:20:05.46	313.04	24.55	-36.4	-37.2	22.4	0.00e+00	0	41	0	3451912192	42	4143
2026-01-16 15:20:08.47	313.62	24.20	-36.4	-37.3	22.3	0.00e+00	0	41	0	3473932288	42	4155
2026-01-16 15:20:11.47	314.19	23.86	-36.6	-37.4	22.3	0.00e+00	0	41	0	3495952384	42	4224
2026-01-16 15:20:14.47	314.75	23.52	-36.6	-37.5	22.2	0.00e+00	0	41	0	3516923904	42	4247
2026-01-16 15:20:17.48	315.29	23.18	-36.6	-37.4	22.3	0.00e+00	0	41	0	3538944000	42	4220
2026-01-16 15:20:20.48	315.82	22.84	-36.3	-37.2	22.5	0.00e+00	0	41	0	3560964096	42	4101
2026-01-16 15:20:23.49	316.35	22.51	-36.4	-37.2	22.4	0.00e+00	0	41	0	3581935616	42	4140
2026-01-16 15:20:26.49	316.86	22.17	-36.7	-37.6	22.1	0.00e+00	0	41	0	3603955712	42	4305
2026-01-16 15:20:29.50	317.36	21.84	-37.0	-37.9	21.8	0.00e+00	0	41	0	3625975808	43	4237
2026-01-16 15:20:32.51	317.85	21.51	-37.5	-38.4	21.5	0.00e+00	0	41	0	3647995904	44	4208
2026-01-16 15:20:35.51	318.33	21.18	-37.4	-38.3	21.7	0.00e+00	0	40	0	3668967424	44	4161
2026-01-16 15:20:38.52	318.80	20.86	-37.3	-38.2	21.7	0.00e+00	0	41	0	3690987520	44	4127
2026-01-16 15:20:41.52	319.26	20.54	-37.2	-38.2	21.7	0.00e+00	0	41	0	3713007616	44	4109
2026-01-16 15:20:44.52	319.72	20.22	-37.3	-38.2	21.6	0.00e+00	0	40	0	3733979136	44	4140
2026-01-16 15:20:47.53	320.16	19.90	-37.4	-38.4	21.5	0.00e+00	0	41	0	3755999232	44	4194
2026-01-16 15:20:50.53	320.59	19.58	-37.5	-38.5	21.4	0.00e+00	0	41	0	3778019328	44	4256
2026-01-16 15:20:53.54	321.02	19.27	-37.7	-38.6	21.3	0.00e+00	0	41	0	3798990848	44	4310
2026-01-16 15:20:56.54	321.44	18.96	-37.8	-38.7	21.2	0.00e+00	0	41	0	3821010944	45	4135
2026-01-16 15:20:59.54	321.84	18.65	-37.7	-38.6	21.3	0.00e+00	0	41	0	3841982464	45	4089
2026-01-16 15:21:02.55	322.25	18.35	-37.7	-38.6	21.3	0.00e+00	0	41	0	3864002560	45	4058
2026-01-16 15:21:05.55	322.64	18.05	-37.6	-38.5	21.4	0.00e+00	0	41	0	3886022656	45	4037
2026-01-16 15:21:08.56	323.03	17.75	-37.6	-38.5	21.4	0.00e+00	0	41	0	3908042752	45	4020
2026-01-16 15:21:11.56	323.40	17.45	-37.6	-38.6	21.3	0.00e+00	0	41	0	3929014272	45	4054
2026-01-16 15:21:14.56	323.78	17.15	-37.8	-38.7	21.2	0.00e+00	0	40	0	3951034368	45	4110
2026-01-16 15:21:17.56	324.14	16.86	-37.8	-38.7	21.1	0.00e+00	0	40	0	3973054464	45	4130
2026-01-16 15:21:20.57	324.50	16.57	-38.0	-38.9	20.9	0.00e+00	0	41	0	3994025984	45	4226
2026-01-16 15:21:23.58	324.85	16.28	-38.1	-39.1	20.7	0.00e+00	0	41	0	4016046080	45	4306
2026-01-16 15:21:26.58	325.20	16.00	-38.1	-39.1	20.8	0.00e+00	0	41	0	4038066176	45	4308
2026-01-16 15:21:29.59	325.53	15.71	-38.0	-39.1	20.8	0.00e+00	0	41	0	4059037696	45	4299
2026-01-16 15:21:32.60	325.87	15.43	-38.2	-39.2	20.7	0.00e+00	0	41	0	4081057792	45	4355
2026-01-16 15:21:35.60	326.19	15.15	-38.4	-39.4	20.5	0.00e+00	0	41	0	4103077888	46	4212
2026-01-16 15:21:38.61	326.52	14.88	-38.6	-39.6	20.3	0.00e+00	0	41	0	4125097984	46	4328
2026-01-16 15:21:41.62	326.83	14.60	-38.6	-39.7	20.2	0.00e+00	0	41	0	4146069504	46	4346
2026-01-16 15:21:44.62	327.14	14.33	-38.6	-39.6	20.2	0.00e+00	0	41	0	4168089600	46	4325
2026-01-16 15:21:47.62	327.45	14.06	-38.7	-39.7	20.2	0.00e+00	0	41	0	4190109696	46	4377
2026-01-16 15:21:50.62	327.74	13.80	-38.8	-39.8	20.1	0.00e+00	0	41	0	4211081216	47	4177
2026-01-16 15:21:53.63	328.04	13.53	-38.9	-39.8	20.0	0.00e+00	0	41	0	4233101312	47	4190
2026-01-16 15:21:56.63	328.33	13.27	-38.8	-39.8	20.0	0.00e+00	0	41	0	4255121408	47	4178
2026-01-16 15:21:59.64	328.61	13.01	-38.9	-39.9	20.0	0.00e+00	0	41	0	4276092928	47	4198
2026-01-16 15:22:02.64	328.89	12.75	-39.0	-40.0	19.8	0.00e+00	0	41	0	4298113024	47	4291
2026-01-16 15:22:05.64	329.17	12.49	-39.1	-40.1	19.8	0.00e+00	0	41	0	4320133120	47	4304
2026-01-16 15:22:08.65	329.44	12.24	-39.2	-40.2	19.6	0.00e+00	0	41	0	4342153216	47	4358
2026-01-16 15:22:11.66	329.71	11.99	-39.5	-40.5	19.7	0.00e+00	0	41	0	4363124736	48	4253
2026-01-16 15:22:14.66	329.97	11.74	-39.5	-40.5	19.6	0.00e+00	0	41	0	4385144832	48	4288
2026-01-16 15:22:17.67	330.23	11.49	-39.6	-40.6	19.5	0.00e+00	0	41	0	4406116352	49	4070
2026-01-16 15:22:20.67	330.48	11.25	-39.7	-40.7	19.4	0.00e+00	0	41	0	4428136448	49	4116
2026-01-16 15:22:23.68	330.73	11.00	-39.7	-40.7	19.4	0.00e+00	0	41	0	4450156544	49	4135
2026-01-16 15:22:26.68	330.97	10.76	-39.8	-40.9	19.2	0.00e+00	0	41	0	4471128064	49	4211
2026-01-16 15:22:29.68	331.22	10.52	-40.0	-41.1	19.1	0.00e+00	0	41	0	4493148160	49	4309
2026-01-16 15:22:32.69	331.45	10.28	-39.7	-40.8	19.3	0.00e+00	0	41	0	4515168256	49	4162
2026-01-16 15:22:35.70	331.69	10.05	-39.8	-40.9	19.2	0.00e+00	0	41	0	4536139776	49	4204
2026-01-16 15:22:38.70	331.92	9.81	-40.0	-41.1	19.1	0.00e+00	0	41	0	4558159872	49	4297
2026-01-16 15:22:41.70	332.15	9.58	-39.8	-40.9	19.2	0.00e+00	0	41	0	4580179968	50	3983
2026-01-16 15:22:44.70	332.37	9.35	-40.0	-41.1	19.0	0.00e+00	0	41	0	4602200064	50	4068
2026-01-16 15:22:47.71	332.59	9.12	-40.4	-41.5	18.6	0.00e+00	0	41	0	4623171584	50	4279
2026-01-16 15:22:50.71	332.81	8.89	-50.6	-61.5	3.8	8.46e-01	0	41	104	4638900224	70	13537
2026-01-16 15:22:53.70	333.03	8.67	-50.3	-62.0	3.8	8.48e-01	0	41	104	4638900224	71	13416
2026-01-16 15:22:56.69	333.24	8.45	-50.8	-62.2	3.8	8.47e-01	0	41	104	4638900224	71	13737
2026-01-16 15:22:59.68	333.44	8.23	-51.4	-62.2	3.8	8.46e-01	0	41	104	4638900224	72	13004
2026-01-16 15:23:02.67	333.65	8.01	-51.4	-62.3	3.8	8.47e-01	0	41	104	4638900224	72	13150
2026-01-16 15:23:05.66	333.85	7.79	-51.4	-62.3	3.8	8.47e-01	0	41	104	4638900224	72	13187
2026-01-16 15:23:08.65	334.05	7.58	-51.5	-62.2	3.8	8.46e-01	0	41	104	4638900224	72	13077
2026-01-16 15:23:11.64	334.25	7.36	-51.5	-62.3	3.8	8.47e-01	0	41	104	4638900224	72	13118
2026-01-16 15:23:14.62	334.44	7.15	-51.1	-62.2	3.8	8.46e-01	0	41	104	4638900224	72	13076
2026-01-16 15:23:17.61	334.63	6.94	-51.1	-62.2	3.8	8.46e-01	0	41	104	4638900224	72	13018
2026-01-16 15:23:20.60	334.82	6.73	-51.1	-62.2	3.8	8.46e-01	0	41	104	4638900224	72	12981
2026-01-16 15:23:23.59	335.01	6.52	-51.1	-62.2	3.8	8.46e-01	0	41	104	4638900224	72	13029
2026-01-16 15:23:26.58	335.19	6.31	-51.1	-62.1	3.8	8.47e-01	0	41	104	4638900224	72	12927
2026-01-16 15:23:29.57	335.37	6.11	-51.1	-62.2	3.8	8.48e-01	0	41	104	4638900224	72	13014
2026-01-16 15:23:32.56	335.55	5.90	-51.1	-62.2	3.8	8.48e-01	0	41	104	4638900224	72	12987
2026-01-16 15:23:35.55	335.73	5.70	-51.1	-62.1	3.8	8.46e-01	0	41	104	4638900224	72	12943
2026-01-16 15:23:38.54	335.90	5.50	-51.1	-62.1	3.8	8.47e-01	0	41	104	4638900224	72	12950
2026-01-16 15:23:41.52	336.07	5.30	-51.1	-62.2	3.8	8.46e-01	0	41	104	4638900224	72	13003
2026-01-16 15:23:44.51	336.24	5.10	-51.1	-62.1	3.8	8.45e-01	0	41	104	4638900224	72	12949

#Closed at: 2026-01-16 15:23:47
#Recorded file [4638 MB]: D:/Data/31040_260116_181129.dat