passes_logs/2026/01/16/T1/T1__20260116_123614_AQUA_rec.log

#Pass ID: 20260116_123614_AQUA
#Satellite: AQUA
#Configuration: AQUA
#almurnet v.1.7.20251203
#Start time: 2026-01-16 12:36:15

#Version: 2.0.20230620
#Station: T1
#Location: 37.570604 lon 55.790049 lat
#TLE: 1 27424U 02022A   26015.92015591  .00000664  00000+0  14289-3 0  9993
#TLE: 2 27424  98.4082 342.3630 0002020  77.1389  16.3168 14.61822470261023

#Time	Az	El	Level	Level2	SNR	BER	BlckErr	Temp	State	Recorded	gain1	gain2
2026-01-16 12:36:15.30	192.82	5.04	-50.4	-71.4	3.8	7.48e-01	0	41	0	0	72	40470
2026-01-16 12:36:18.27	193.01	5.25	-50.4	-71.7	3.8	7.43e-01	0	41	104	0	71	44065
2026-01-16 12:36:21.25	193.21	5.46	-50.4	-71.7	3.8	7.47e-01	0	41	104	0	71	44234
2026-01-16 12:36:24.23	193.41	5.67	-50.4	-71.5	3.8	7.49e-01	0	41	104	0	71	43100
2026-01-16 12:36:27.21	193.61	5.89	-50.4	-70.2	3.8	7.44e-01	0	41	104	0	71	37227
2026-01-16 12:36:30.19	193.82	6.10	-50.4	-70.1	3.8	7.41e-01	0	42	104	0	71	36530
2026-01-16 12:36:33.17	194.03	6.32	-50.4	-70.8	3.8	7.44e-01	0	42	104	0	71	40034
2026-01-16 12:36:36.15	194.25	6.54	-50.4	-70.5	3.8	7.48e-01	0	42	104	0	71	38521
2026-01-16 12:36:39.13	194.46	6.76	-50.4	-70.3	3.9	7.44e-01	0	42	104	0	71	37571
2026-01-16 12:36:42.11	194.69	6.98	-50.4	-71.3	3.8	7.43e-01	0	42	104	0	71	42213
2026-01-16 12:36:45.09	194.91	7.21	-50.3	-68.9	4.0	7.37e-01	0	42	104	0	71	31900
2026-01-16 12:36:48.07	195.14	7.43	-50.2	-65.1	5.7	6.94e-01	0	42	0	524288	71	20764
2026-01-16 12:36:51.05	195.37	7.66	-50.4	-71.5	3.8	7.44e-01	0	42	104	1572864	71	43237
2026-01-16 12:36:54.03	195.61	7.89	-49.3	-57.3	13.2	6.12e-01	0	42	0	4194304	70	8882
2026-01-16 12:36:57.01	195.85	8.13	-46.3	-50.3	20.1	6.09e-01	0	42	0	9961472	64	5620
2026-01-16 12:36:59.99	196.09	8.36	-45.4	-48.7	21.7	6.06e-01	0	42	0	15728640	62	5276
2026-01-16 12:37:02.97	196.34	8.60	-46.3	-50.2	20.3	6.08e-01	0	42	0	20971520	63	5885
2026-01-16 12:37:05.95	196.59	8.84	-48.5	-54.8	15.8	6.07e-01	0	43	0	26738688	67	7934
2026-01-16 12:37:08.93	196.85	9.08	-49.5	-58.3	12.3	6.12e-01	0	43	0	32505856	69	10563
2026-01-16 12:37:11.92	197.11	9.32	-46.5	-50.7	19.8	6.09e-01	0	43	0	37748736	65	5530
2026-01-16 12:37:14.90	197.37	9.57	-49.4	-58.3	12.3	6.11e-01	0	43	0	43515904	70	9959
2026-01-16 12:37:17.89	197.65	9.81	-48.8	-56.2	14.6	6.09e-01	0	43	0	49283072	69	8342
2026-01-16 12:37:20.87	197.92	10.06	-48.6	-55.6	15.1	6.08e-01	0	43	0	54525952	68	8248
2026-01-16 12:37:23.86	198.20	10.32	-48.3	-54.3	16.6	6.07e-01	0	43	0	60293120	68	7059
2026-01-16 12:37:26.84	198.49	10.57	-47.0	-51.6	19.0	6.09e-01	0	43	0	66060288	65	6168
2026-01-16 12:37:29.83	198.78	10.83	-46.5	-50.7	19.8	6.07e-01	0	43	0	71303168	64	5869
2026-01-16 12:37:32.81	199.07	11.09	-45.9	-49.5	21.0	6.07e-01	0	43	0	77070336	63	5457
2026-01-16 12:37:35.79	199.38	11.35	-45.7	-49.2	21.6	6.09e-01	0	43	0	82837504	63	5221
2026-01-16 12:37:38.78	199.68	11.61	-45.0	-48.1	22.5	6.09e-01	0	43	0	88080384	61	5181
2026-01-16 12:37:41.76	200.00	11.88	-44.7	-47.5	23.0	6.07e-01	0	43	0	93847552	61	4856
2026-01-16 12:37:44.75	200.32	12.15	-44.4	-47.1	23.4	6.05e-01	0	43	0	99614720	60	4894
2026-01-16 12:37:47.73	200.64	12.42	-44.4	-47.1	23.4	6.06e-01	0	43	0	104857600	60	4900
2026-01-16 12:37:50.72	200.97	12.70	-44.3	-47.0	23.5	6.07e-01	0	43	0	110624768	60	4831
2026-01-16 12:37:53.70	201.31	12.97	-44.1	-46.9	23.7	6.08e-01	0	43	0	116391936	60	4776
2026-01-16 12:37:56.68	201.66	13.25	-44.1	-46.9	23.6	6.07e-01	0	43	0	121634816	60	4792
2026-01-16 12:37:59.67	202.01	13.54	-44.1	-46.8	23.7	6.08e-01	0	43	0	127401984	60	4748
2026-01-16 12:38:02.65	202.37	13.82	-44.2	-47.0	23.6	6.07e-01	0	43	0	133169152	59	5135
2026-01-16 12:38:05.63	202.73	14.11	-44.0	-46.7	23.9	6.05e-01	0	43	0	138412032	59	4968
2026-01-16 12:38:08.61	203.11	14.40	-44.1	-46.8	23.8	6.05e-01	0	43	0	144179200	59	5028
2026-01-16 12:38:11.60	203.49	14.69	-44.1	-46.8	23.9	6.07e-01	0	43	0	149946368	59	4993
2026-01-16 12:38:14.58	203.88	14.99	-44.1	-46.7	23.9	6.05e-01	0	43	0	155189248	59	4954
2026-01-16 12:38:17.56	204.27	15.29	-44.2	-46.8	23.9	6.07e-01	0	43	0	160956416	59	5008
2026-01-16 12:38:20.55	204.68	15.59	-44.0	-46.5	24.1	6.08e-01	0	43	0	166723584	59	4860
2026-01-16 12:38:23.53	205.09	15.90	-44.1	-46.6	24.0	6.06e-01	0	43	0	171966464	59	4906
2026-01-16 12:38:26.51	205.52	16.20	-44.2	-46.7	24.0	6.05e-01	0	43	0	177733632	59	4933
2026-01-16 12:38:29.50	205.95	16.51	-44.0	-46.5	24.1	6.05e-01	0	43	0	183500800	59	4855
2026-01-16 12:38:32.48	206.39	16.83	-44.1	-46.6	24.0	6.06e-01	0	43	0	188743680	59	4911
2026-01-16 12:38:35.47	206.84	17.15	-44.1	-46.7	24.0	6.05e-01	0	43	0	194510848	59	4966
2026-01-16 12:38:38.45	207.30	17.46	-44.1	-46.6	24.1	6.06e-01	0	43	0	200278016	59	4889
2026-01-16 12:38:41.43	207.77	17.79	-44.1	-46.7	24.0	6.07e-01	0	43	0	205520896	59	4927
2026-01-16 12:38:44.42	208.26	18.11	-44.1	-46.5	24.2	6.05e-01	0	43	0	211288064	59	4864
2026-01-16 12:38:47.40	208.75	18.44	-44.2	-46.7	24.0	6.07e-01	0	43	0	217055232	59	4976
2026-01-16 12:38:50.38	209.25	18.77	-44.1	-46.6	24.1	6.08e-01	0	43	0	222298112	59	4881
2026-01-16 12:38:53.37	209.77	19.11	-44.1	-46.6	24.1	6.07e-01	0	43	0	228065280	59	4875
2026-01-16 12:38:56.35	210.30	19.44	-44.1	-46.6	24.1	6.08e-01	0	43	0	233832448	59	4874
2026-01-16 12:38:59.34	210.84	19.78	-44.2	-46.8	24.0	6.07e-01	0	43	0	239075328	59	4984
2026-01-16 12:39:02.33	211.39	20.13	-44.1	-46.7	24.0	6.06e-01	0	43	0	244842496	59	4944
2026-01-16 12:39:05.31	211.95	20.47	-44.1	-46.6	24.1	6.08e-01	0	43	0	250609664	59	4919
2026-01-16 12:39:08.29	212.53	20.82	-44.0	-46.5	24.2	6.06e-01	0	43	0	255852544	59	4848
2026-01-16 12:39:11.28	213.12	21.17	-44.2	-46.8	24.0	6.07e-01	0	43	0	261619712	59	4991
2026-01-16 12:39:14.26	213.73	21.52	-44.2	-46.7	24.0	6.07e-01	0	43	0	267386880	59	4963
2026-01-16 12:39:17.24	214.35	21.87	-44.1	-46.6	24.1	6.09e-01	0	43	0	272629760	59	4909
2026-01-16 12:39:20.23	214.98	22.23	-44.2	-46.8	24.0	6.09e-01	0	43	0	278396928	59	4998
2026-01-16 12:39:23.21	215.63	22.59	-44.2	-46.7	24.0	6.07e-01	0	43	0	284164096	59	4966
2026-01-16 12:39:26.20	216.30	22.95	-44.3	-46.8	23.9	6.04e-01	0	43	0	289406976	59	5021
2026-01-16 12:39:29.18	216.98	23.31	-44.4	-47.0	23.8	6.06e-01	0	43	0	295174144	59	5123
2026-01-16 12:39:32.17	217.68	23.67	-44.2	-46.7	24.1	6.08e-01	0	43	0	300941312	59	4969
2026-01-16 12:39:35.15	218.39	24.04	-44.5	-47.0	23.7	6.04e-01	0	43	0	306708480	60	4849
2026-01-16 12:39:38.14	219.13	24.40	-44.3	-46.8	23.9	6.06e-01	0	43	0	311951360	60	4739
2026-01-16 12:39:41.12	219.87	24.77	-44.1	-46.6	24.1	6.04e-01	0	43	0	317718528	60	4620
2026-01-16 12:39:44.11	220.64	25.14	-44.3	-46.8	23.9	6.07e-01	0	43	0	323485696	60	4740
2026-01-16 12:39:47.09	221.43	25.50	-44.2	-46.7	24.0	6.07e-01	0	44	0	328728576	60	4663
2026-01-16 12:39:50.08	222.23	25.87	-44.2	-46.7	24.0	6.04e-01	0	43	0	334495744	60	4673
2026-01-16 12:39:53.06	223.06	26.23	-44.1	-46.6	24.1	6.09e-01	0	44	0	340262912	60	4636
2026-01-16 12:39:56.05	223.90	26.60	-44.4	-46.8	23.9	6.05e-01	0	43	0	345505792	60	4759
2026-01-16 12:39:59.03	224.76	26.96	-44.3	-46.8	24.0	6.05e-01	0	43	0	351272960	60	4724
2026-01-16 12:40:02.02	225.65	27.33	-44.2	-46.7	24.0	6.06e-01	0	43	0	357040128	60	4686
2026-01-16 12:40:05.00	226.55	27.69	-44.2	-46.6	24.1	6.06e-01	0	43	0	362283008	60	4635
2026-01-16 12:40:07.99	227.48	28.05	-44.1	-46.5	24.2	6.07e-01	0	44	0	368050176	60	4596
2026-01-16 12:40:10.97	228.42	28.40	-44.0	-46.5	24.2	6.06e-01	0	43	0	373817344	60	4558
2026-01-16 12:40:13.96	229.39	28.75	-44.3	-46.8	23.9	6.06e-01	0	43	0	379060224	60	4735
2026-01-16 12:40:16.94	230.38	29.10	-44.3	-46.8	23.9	6.05e-01	0	44	0	384827392	60	4730
2026-01-16 12:40:19.92	231.39	29.44	-44.2	-46.8	24.0	6.06e-01	0	43	0	390594560	60	4732
2026-01-16 12:40:22.91	232.43	29.78	-44.2	-46.7	24.0	6.05e-01	0	44	0	395837440	60	4681
2026-01-16 12:40:25.89	233.48	30.12	-44.4	-46.9	24.0	6.06e-01	0	44	0	401604608	59	5065
2026-01-16 12:40:28.88	234.56	30.44	-44.2	-46.7	24.1	6.08e-01	0	44	0	407371776	59	4966
2026-01-16 12:40:31.86	235.66	30.76	-44.3	-46.8	24.1	6.07e-01	0	43	0	412614656	59	4997
2026-01-16 12:40:34.84	236.78	31.07	-44.2	-46.7	24.1	6.07e-01	0	43	0	418381824	59	4970
2026-01-16 12:40:37.83	237.93	31.37	-44.2	-46.6	24.2	6.06e-01	0	43	0	424148992	59	4919
2026-01-16 12:40:40.82	239.09	31.67	-44.4	-46.9	24.0	6.07e-01	0	43	0	429391872	59	5081
2026-01-16 12:40:43.80	240.28	31.95	-44.2	-46.7	24.2	6.08e-01	0	43	0	435159040	59	4930
2026-01-16 12:40:46.78	241.48	32.22	-44.2	-46.7	24.2	6.08e-01	0	44	0	440926208	59	4958
2026-01-16 12:40:49.77	242.71	32.49	-44.1	-46.5	24.3	6.08e-01	0	44	0	446169088	59	4843
2026-01-16 12:40:52.75	243.96	32.74	-44.0	-46.5	24.3	6.08e-01	0	43	0	451936256	59	4817
2026-01-16 12:40:55.73	245.22	32.97	-43.8	-46.2	24.6	6.06e-01	0	44	0	457703424	59	4681
2026-01-16 12:40:58.71	246.50	33.20	-43.7	-46.0	24.7	6.07e-01	0	43	0	462946304	59	4576
2026-01-16 12:41:01.69	247.80	33.41	-44.0	-46.4	24.4	6.06e-01	0	43	0	468713472	59	4811
2026-01-16 12:41:04.68	249.12	33.60	-43.9	-46.3	24.5	6.06e-01	0	43	0	474480640	59	4712
2026-01-16 12:41:07.67	250.46	33.78	-43.8	-46.2	24.5	6.07e-01	0	43	0	479723520	59	4692
2026-01-16 12:41:10.65	251.80	33.95	-43.9	-46.3	24.4	6.05e-01	0	43	0	485490688	59	4759
2026-01-16 12:41:13.64	253.17	34.10	-43.8	-46.2	24.5	6.06e-01	0	43	0	491257856	59	4698
2026-01-16 12:41:16.62	254.54	34.23	-43.8	-46.2	24.6	6.06e-01	0	43	0	496500736	59	4678
2026-01-16 12:41:19.61	255.92	34.34	-43.8	-46.3	24.5	6.07e-01	0	43	0	502267904	59	4718
2026-01-16 12:41:22.59	257.31	34.44	-43.7	-46.1	24.7	6.08e-01	0	43	0	508035072	59	4627
2026-01-16 12:41:25.57	258.71	34.52	-43.7	-46.2	24.6	6.06e-01	0	43	0	513277952	59	4681
2026-01-16 12:41:28.55	260.11	34.58	-43.6	-46.1	24.7	6.08e-01	0	43	0	519045120	59	4600
2026-01-16 12:41:31.54	261.53	34.62	-43.6	-45.9	24.8	6.06e-01	0	44	0	524812288	59	4541
2026-01-16 12:41:34.52	262.94	34.64	-43.5	-46.0	24.8	6.06e-01	0	44	0	530055168	58	4815
2026-01-16 12:41:37.51	264.35	34.64	-43.5	-45.9	24.8	6.07e-01	0	43	0	535822336	58	4767
2026-01-16 12:41:40.49	265.76	34.63	-43.5	-45.8	24.9	6.06e-01	0	43	0	541589504	58	4734
2026-01-16 12:41:43.47	267.17	34.60	-43.5	-45.9	24.9	6.07e-01	0	43	0	546832384	58	4776
2026-01-16 12:41:46.46	268.58	34.54	-43.5	-45.8	24.9	6.07e-01	0	44	0	552599552	58	4738
2026-01-16 12:41:49.44	269.98	34.47	-43.5	-45.9	24.9	6.06e-01	0	44	0	558366720	58	4760
2026-01-16 12:41:52.43	271.38	34.38	-43.5	-45.9	24.9	6.07e-01	0	44	0	563609600	58	4781
2026-01-16 12:41:55.41	272.76	34.28	-43.4	-45.7	25.0	6.06e-01	0	43	0	569376768	58	4684
2026-01-16 12:41:58.40	274.14	34.15	-43.4	-45.7	25.0	6.05e-01	0	44	0	575143936	58	4668
2026-01-16 12:42:01.39	275.50	34.01	-43.3	-45.6	25.1	6.04e-01	0	43	0	580386816	58	4638
2026-01-16 12:42:04.37	276.85	33.85	-43.2	-45.5	25.1	6.07e-01	0	44	0	586153984	58	4592
2026-01-16 12:42:07.35	278.19	33.68	-43.2	-45.5	25.2	6.06e-01	0	43	0	591921152	58	4550
2026-01-16 12:42:10.33	279.51	33.49	-43.0	-45.3	25.4	6.08e-01	0	43	0	597164032	58	4473
2026-01-16 12:42:13.32	280.81	33.29	-43.1	-45.3	25.4	6.06e-01	0	43	0	602931200	58	4492
2026-01-16 12:42:16.30	282.10	33.07	-43.0	-45.2	25.4	6.06e-01	0	43	0	608698368	58	4441
2026-01-16 12:42:19.28	283.37	32.84	-43.1	-45.3	25.3	6.07e-01	0	44	0	613941248	57	4748
2026-01-16 12:42:22.26	284.62	32.60	-43.1	-45.3	25.3	6.07e-01	0	44	0	619708416	57	4747
2026-01-16 12:42:25.25	285.85	32.34	-43.0	-45.3	25.4	6.06e-01	0	43	0	625475584	57	4714
2026-01-16 12:42:28.23	287.06	32.07	-42.9	-45.1	25.6	6.07e-01	0	43	0	630718464	57	4614
2026-01-16 12:42:31.22	288.25	31.79	-43.0	-45.3	25.4	6.07e-01	0	44	0	636485632	57	4710
2026-01-16 12:42:34.21	289.43	31.50	-42.9	-45.1	25.5	6.09e-01	0	43	0	642252800	57	4634
2026-01-16 12:42:37.19	290.57	31.21	-43.0	-45.3	25.3	6.07e-01	0	43	0	647495680	57	4744
2026-01-16 12:42:40.17	291.70	30.90	-42.9	-45.2	25.4	6.07e-01	0	43	0	653262848	57	4664
2026-01-16 12:42:43.16	292.80	30.59	-42.8	-45.1	25.5	6.07e-01	0	43	0	659030016	57	4618
2026-01-16 12:42:46.14	293.89	30.27	-43.1	-45.5	25.2	6.06e-01	0	43	0	664797184	57	4829
2026-01-16 12:42:49.13	294.95	29.94	-42.9	-45.3	25.4	6.06e-01	0	44	0	670040064	57	4721
2026-01-16 12:42:52.11	295.99	29.61	-43.0	-45.2	25.4	6.05e-01	0	43	0	675807232	57	4703
2026-01-16 12:42:55.10	297.00	29.27	-43.0	-45.2	25.4	6.05e-01	0	43	0	681574400	57	4699
2026-01-16 12:42:58.08	298.00	28.92	-43.2	-45.5	25.1	6.06e-01	0	43	0	686817280	57	4852
2026-01-16 12:43:01.05	298.97	28.58	-43.1	-45.5	25.2	6.06e-01	0	43	0	692584448	57	4839
2026-01-16 12:43:04.03	299.92	28.22	-43.1	-45.6	25.1	6.06e-01	0	43	0	698351616	57	4881
2026-01-16 12:43:07.02	300.85	27.87	-43.3	-45.7	25.0	6.06e-01	0	43	0	703594496	57	4932
2026-01-16 12:43:10.00	301.76	27.51	-43.3	-45.8	24.9	6.08e-01	0	43	0	709361664	57	4990
2026-01-16 12:43:12.98	302.64	27.15	-43.3	-45.6	25.1	6.07e-01	0	43	0	715128832	57	4908
2026-01-16 12:43:15.96	303.51	26.79	-43.4	-45.8	24.9	6.05e-01	0	44	0	720371712	57	4997
2026-01-16 12:43:18.94	304.36	26.43	-43.5	-45.9	24.8	6.08e-01	0	44	0	726138880	57	5045
2026-01-16 12:43:21.93	305.19	26.07	-43.6	-45.9	24.7	6.08e-01	0	44	0	731906048	57	5097
2026-01-16 12:43:24.91	306.00	25.70	-43.6	-45.9	24.8	6.09e-01	0	43	0	737148928	57	5095
2026-01-16 12:43:27.89	306.79	25.34	-43.7	-46.0	24.7	6.05e-01	0	44	0	742916096	57	5154
2026-01-16 12:43:30.87	307.56	24.98	-43.6	-45.9	24.8	6.07e-01	0	44	0	748683264	58	4797
2026-01-16 12:43:33.86	308.32	24.61	-43.5	-45.9	24.8	6.06e-01	0	43	0	753926144	58	4806
2026-01-16 12:43:36.84	309.05	24.25	-43.6	-46.1	24.6	6.05e-01	0	43	0	759693312	58	4888
2026-01-16 12:43:39.82	309.77	23.89	-43.8	-46.2	24.5	6.06e-01	0	44	0	765460480	58	4965
2026-01-16 12:43:42.81	310.47	23.53	-43.6	-46.0	24.7	6.09e-01	0	44	0	770703360	58	4834
2026-01-16 12:43:45.79	311.16	23.17	-43.6	-46.1	24.6	6.06e-01	0	43	0	776470528	58	4872
2026-01-16 12:43:48.77	311.83	22.81	-43.3	-45.9	24.8	6.07e-01	0	44	0	782237696	58	4794
2026-01-16 12:43:51.76	312.48	22.45	-43.3	-46.0	24.7	6.08e-01	0	43	0	787480576	58	4826
2026-01-16 12:43:54.74	313.12	22.10	-43.4	-45.9	24.8	6.06e-01	0	43	0	793247744	58	4763
2026-01-16 12:43:57.72	313.75	21.75	-43.5	-45.9	24.7	6.05e-01	0	44	0	799014912	58	4813
2026-01-16 12:44:00.71	314.36	21.40	-43.6	-46.0	24.6	6.07e-01	0	44	0	804257792	58	4862
2026-01-16 12:44:03.69	314.95	21.05	-43.4	-46.0	24.6	6.06e-01	0	43	0	810024960	58	4837
2026-01-16 12:44:06.67	315.53	20.70	-43.5	-46.0	24.6	6.06e-01	0	43	0	815792128	58	4852
2026-01-16 12:44:09.65	316.10	20.36	-43.4	-45.9	24.7	6.06e-01	0	44	0	821035008	58	4797
2026-01-16 12:44:12.64	316.66	20.02	-43.3	-45.7	24.8	6.06e-01	0	43	0	826802176	58	4698
2026-01-16 12:44:15.62	317.20	19.68	-43.2	-45.7	24.9	6.07e-01	0	43	0	832569344	58	4658
2026-01-16 12:44:18.60	317.73	19.35	-43.3	-45.9	24.7	6.07e-01	0	44	0	837812224	58	4781
2026-01-16 12:44:21.58	318.25	19.02	-43.1	-45.9	24.7	6.06e-01	0	44	0	843579392	58	4779
2026-01-16 12:44:24.56	318.76	18.69	-43.2	-45.8	24.8	6.04e-01	0	43	0	849346560	58	4730
2026-01-16 12:44:27.55	319.26	18.36	-43.2	-45.7	24.9	6.06e-01	0	44	0	854589440	58	4680
2026-01-16 12:44:30.53	319.74	18.03	-43.4	-45.8	24.8	6.06e-01	0	44	0	860356608	58	4739
2026-01-16 12:44:33.52	320.22	17.71	-43.2	-45.7	24.9	6.07e-01	0	44	0	866123776	58	4662
2026-01-16 12:44:36.50	320.69	17.39	-43.3	-45.8	24.8	6.07e-01	0	44	0	871366656	58	4729
2026-01-16 12:44:39.49	321.14	17.08	-43.2	-45.6	24.9	6.07e-01	0	44	0	877133824	58	4629
2026-01-16 12:44:42.47	321.59	16.77	-43.1	-45.6	25.0	6.08e-01	0	44	0	882900992	58	4605
2026-01-16 12:44:45.45	322.02	16.46	-43.1	-45.8	24.8	6.07e-01	0	44	0	888143872	58	4724
2026-01-16 12:44:48.44	322.45	16.15	-43.3	-45.9	24.7	6.07e-01	0	44	0	893911040	58	4762
2026-01-16 12:44:51.42	322.87	15.84	-43.5	-46.0	24.6	6.05e-01	0	44	0	899678208	58	4827
2026-01-16 12:44:54.40	323.28	15.54	-43.4	-45.9	24.7	6.07e-01	0	43	0	904921088	58	4770
2026-01-16 12:44:57.38	323.68	15.25	-43.5	-45.9	24.6	6.07e-01	0	44	0	910688256	58	4794
2026-01-16 12:45:00.36	324.07	14.95	-43.5	-46.0	24.6	6.05e-01	0	44	0	916455424	58	4839
2026-01-16 12:45:03.34	324.46	14.66	-43.3	-46.0	24.6	6.06e-01	0	43	0	921698304	58	4843
2026-01-16 12:45:06.33	324.83	14.37	-43.2	-46.1	24.5	6.07e-01	0	44	0	927465472	58	4875
2026-01-16 12:45:09.31	325.20	14.08	-43.2	-46.0	24.5	6.06e-01	0	44	0	933232640	58	4865
2026-01-16 12:45:12.30	325.57	13.80	-43.4	-46.2	24.3	6.06e-01	0	44	0	938475520	58	4932
2026-01-16 12:45:15.28	325.92	13.51	-43.2	-46.0	24.5	6.05e-01	0	43	0	944242688	58	4821
2026-01-16 12:45:18.26	326.27	13.24	-43.3	-46.1	24.4	6.07e-01	0	44	0	950009856	58	4918
2026-01-16 12:45:21.25	326.61	12.96	-43.2	-46.1	24.4	6.07e-01	0	44	0	955252736	58	4873
2026-01-16 12:45:24.23	326.95	12.69	-43.3	-46.1	24.4	6.06e-01	0	43	0	961019904	58	4882
2026-01-16 12:45:27.21	327.28	12.41	-43.5	-46.2	24.3	6.08e-01	0	44	0	966787072	58	4961
2026-01-16 12:45:30.20	327.60	12.15	-43.9	-46.4	24.1	6.05e-01	0	43	0	972029952	58	5093
2026-01-16 12:45:33.18	327.92	11.88	-44.0	-46.6	24.0	6.02e-01	0	44	0	977797120	58	5170
2026-01-16 12:45:36.17	328.23	11.62	-44.0	-46.6	23.9	6.05e-01	0	43	0	983564288	58	5214
2026-01-16 12:45:39.15	328.53	11.35	-44.1	-46.7	23.8	6.03e-01	0	43	0	988807168	59	4964
2026-01-16 12:45:42.13	328.83	11.10	-44.2	-46.9	23.6	6.03e-01	0	44	0	994574336	59	5053
2026-01-16 12:45:45.12	329.13	10.84	-44.3	-46.9	23.6	6.04e-01	0	44	0	1000341504	59	5070
2026-01-16 12:45:48.10	329.42	10.59	-44.2	-46.9	23.6	6.02e-01	0	44	0	1005584384	59	5067
2026-01-16 12:45:51.09	329.70	10.33	-44.2	-46.9	23.6	6.03e-01	0	44	0	1011351552	59	5055
2026-01-16 12:45:54.07	329.98	10.08	-44.3	-47.0	23.5	6.02e-01	0	43	0	1017118720	59	5114
2026-01-16 12:45:57.06	330.26	9.84	-44.3	-47.0	23.5	6.04e-01	0	43	0	1022361600	59	5106
2026-01-16 12:46:00.04	330.53	9.59	-44.4	-47.1	23.3	6.05e-01	0	43	0	1028128768	59	5194
2026-01-16 12:46:03.02	330.79	9.35	-44.4	-47.1	23.4	6.05e-01	0	44	0	1033895936	59	5170
2026-01-16 12:46:06.01	331.05	9.11	-44.4	-47.2	23.3	6.04e-01	0	44	0	1039138816	59	5247
2026-01-16 12:46:08.99	331.31	8.87	-51.1	-71.3	3.8	7.43e-01	0	43	104	1043333120	73	37431
2026-01-16 12:46:11.97	331.56	8.64	-50.9	-72.2	3.8	7.45e-01	0	44	104	1043333120	72	44293
2026-01-16 12:46:14.95	331.81	8.40	-51.6	-72.4	3.8	7.46e-01	0	44	104	1043333120	74	40434
2026-01-16 12:46:17.93	332.05	8.17	-51.0	-72.5	3.8	7.46e-01	0	43	104	1043333120	74	40825
2026-01-16 12:46:20.91	332.29	7.94	-52.5	-72.6	3.8	7.50e-01	0	44	104	1043333120	75	38709
2026-01-16 12:46:23.89	332.52	7.71	-52.7	-72.6	3.8	7.46e-01	0	43	104	1043333120	76	36868
2026-01-16 12:46:26.87	332.76	7.49	-52.5	-72.6	3.8	7.44e-01	0	44	104	1043333120	76	36770
2026-01-16 12:46:29.85	332.99	7.26	-52.2	-72.6	3.8	7.51e-01	0	44	104	1043333120	75	38709
2026-01-16 12:46:32.83	333.21	7.04	-51.6	-72.5	3.8	7.49e-01	0	44	104	1043333120	75	38424
2026-01-16 12:46:35.81	333.43	6.82	-51.6	-72.5	3.8	7.46e-01	0	44	104	1043333120	75	38413
2026-01-16 12:46:38.79	333.65	6.60	-51.6	-72.5	3.8	7.48e-01	0	44	104	1043333120	75	38422
2026-01-16 12:46:41.77	333.86	6.38	-51.6	-72.5	3.8	7.46e-01	0	44	104	1043333120	75	38460
2026-01-16 12:46:44.75	334.08	6.17	-51.5	-72.5	3.8	7.45e-01	0	44	104	1043333120	75	38483
2026-01-16 12:46:47.73	334.28	5.95	-51.6	-72.5	3.8	7.45e-01	0	44	104	1043333120	75	38420
2026-01-16 12:46:50.71	334.49	5.74	-51.6	-72.5	3.8	7.46e-01	0	44	104	1043333120	75	38344
2026-01-16 12:46:53.68	334.69	5.53	-51.5	-72.5	3.8	7.45e-01	0	44	104	1043333120	75	38380
2026-01-16 12:46:56.66	334.89	5.32	-51.5	-72.5	3.8	7.49e-01	0	44	104	1043333120	75	38327
2026-01-16 12:46:59.64	335.09	5.12	-51.5	-72.5	3.8	7.47e-01	0	44	104	1043333120	75	38395

#Closed at: 2026-01-16 12:47:02
#Recorded file [1043 MB]: D:/Data/31040_260116_153615.dat