passes_logs/2026/01/16/T1/T1__20260116_203924_FENGYUN_3G_rec.log

#Pass ID: 20260116_203924_FENGYUN 3G
#Satellite: FENGYUN 3G
#Configuration: FENGYUN 3G
#almurnet v.1.7.20251203
#Start time: 2026-01-16 20:39:26

#Version: 2.0.20230620
#Station: T1
#Location: 37.570604 lon 55.790049 lat
#TLE: 1 56232U 23055A   26015.94957575  .00019432  00000+0  30595-3 0  9991
#TLE: 2 56232  49.9941  51.0332 0004204  31.6225 328.4995 15.53536505156346

#Time	Az	El	Level	Level2	SNR	BER	BlckErr	Temp	State	Recorded	gain1	gain2
2026-01-16 20:39:26.15	207.65	5.14	-49.9	-69.3	3.8	8.38e-01	0	41	0	0	71	33371
2026-01-16 20:39:28.13	207.37	5.27	-49.9	-69.2	3.8	8.47e-01	0	41	104	0	71	33264
2026-01-16 20:39:30.12	207.08	5.40	-49.9	-69.3	3.8	8.48e-01	0	41	104	0	71	33390
2026-01-16 20:39:32.10	206.80	5.53	-49.9	-69.3	3.8	8.46e-01	0	41	104	0	71	33369
2026-01-16 20:39:34.09	206.50	5.66	-49.9	-69.2	3.8	8.47e-01	0	41	104	0	71	33308
2026-01-16 20:39:36.07	206.21	5.79	-49.9	-69.2	3.8	8.47e-01	0	41	104	0	71	33149
2026-01-16 20:39:38.06	205.91	5.92	-49.9	-69.2	3.8	8.47e-01	0	41	104	0	71	33240
2026-01-16 20:39:40.05	205.60	6.06	-49.9	-69.2	3.8	8.47e-01	0	41	104	0	71	33074
2026-01-16 20:39:42.03	205.29	6.19	-49.9	-69.1	3.8	8.46e-01	0	41	104	0	71	32759
2026-01-16 20:39:44.02	204.98	6.32	-49.9	-69.1	3.8	8.46e-01	0	41	104	0	71	32573
2026-01-16 20:39:46.01	204.66	6.46	-49.9	-69.1	3.8	8.47e-01	0	41	104	0	71	32787
2026-01-16 20:39:47.99	204.35	6.59	-49.9	-69.2	3.8	8.48e-01	0	41	104	0	71	33185
2026-01-16 20:39:49.98	204.02	6.73	-49.9	-69.3	3.8	8.48e-01	0	41	104	0	71	33498
2026-01-16 20:39:51.96	203.69	6.86	-49.9	-69.3	3.8	8.47e-01	0	42	104	0	71	33441
2026-01-16 20:39:53.95	203.36	7.00	-49.9	-69.2	3.8	8.47e-01	0	42	104	0	71	33140
2026-01-16 20:39:55.94	203.02	7.13	-49.9	-69.0	3.8	8.46e-01	0	41	104	0	71	32305
2026-01-16 20:39:57.92	202.68	7.27	-49.9	-68.9	3.8	8.48e-01	0	42	104	0	71	31984
2026-01-16 20:39:59.91	202.33	7.41	-49.9	-68.9	3.8	8.47e-01	0	42	104	0	71	32014
2026-01-16 20:40:01.90	201.98	7.55	-49.9	-68.7	3.8	8.47e-01	0	42	104	0	71	31192
2026-01-16 20:40:03.88	201.63	7.68	-49.9	-68.6	3.8	8.47e-01	0	42	104	0	71	31083
2026-01-16 20:40:05.87	201.27	7.82	-49.9	-69.1	3.8	8.46e-01	0	42	104	0	71	32678
2026-01-16 20:40:07.86	200.90	7.96	-49.9	-68.9	3.8	8.46e-01	0	42	104	0	71	32122
2026-01-16 20:40:09.84	200.53	8.10	-49.9	-69.1	3.8	8.47e-01	0	42	104	0	71	32602
2026-01-16 20:40:11.83	200.15	8.24	-49.8	-67.8	3.8	8.46e-01	0	42	104	0	71	28032
2026-01-16 20:40:13.82	199.77	8.38	-49.8	-67.5	3.9	8.45e-01	0	42	104	0	71	27324
2026-01-16 20:40:15.81	199.39	8.52	-49.8	-68.8	3.8	8.47e-01	0	42	104	0	71	31804
2026-01-16 20:40:17.79	199.00	8.66	-49.8	-67.2	3.9	8.46e-01	0	42	104	0	71	26398
2026-01-16 20:40:19.78	198.60	8.80	-49.7	-64.0	4.7	8.47e-01	0	42	0	0	71	18194
2026-01-16 20:40:21.77	198.20	8.94	-48.7	-56.3	11.6	1.90e-01	0	42	0	0	69	8442
2026-01-16 20:40:23.76	197.80	9.08	-49.2	-58.8	9.5	8.49e-04	0	42	0	0	68	11885
2026-01-16 20:40:25.74	197.39	9.22	-49.2	-58.4	10.3	6.21e-04	0	42	0	0	68	11404
2026-01-16 20:40:27.75	196.97	9.36	-44.0	-46.9	21.0	4.00e-02	0	42	0	0	59	5079
2026-01-16 20:40:29.77	196.54	9.50	-44.2	-47.2	21.0	0.00e+00	0	42	0	0	59	5268
2026-01-16 20:40:31.84	196.09	9.65	-44.3	-47.4	20.6	0.00e+00	0	42	0	0	59	5367
2026-01-16 20:40:33.86	195.65	9.79	-43.7	-46.6	21.4	0.00e+00	0	42	0	0	59	4901
2026-01-16 20:40:35.85	195.21	9.93	-42.9	-45.5	22.4	0.00e+00	0	42	0	0	57	4866
2026-01-16 20:40:37.84	194.76	10.07	-42.6	-45.2	22.5	0.00e+00	0	42	0	0	57	4674
2026-01-16 20:40:39.83	194.31	10.21	-41.6	-44.0	23.6	0.00e+00	0	42	0	0	55	4575
2026-01-16 20:40:41.82	193.85	10.36	-41.3	-43.7	23.9	0.00e+00	0	42	0	0	54	4656
2026-01-16 20:40:43.82	193.39	10.50	-41.5	-43.9	23.8	0.00e+00	0	42	0	0	54	4772
2026-01-16 20:40:45.80	192.92	10.64	-41.8	-44.2	23.4	0.00e+00	0	42	0	0	54	4975
2026-01-16 20:40:47.89	192.42	10.78	-42.0	-44.4	23.3	0.00e+00	0	43	0	0	54	5058
2026-01-16 20:40:49.88	191.94	10.92	-41.7	-44.1	23.6	0.00e+00	0	42	0	0	54	4879
2026-01-16 20:40:51.87	191.45	11.06	-41.4	-43.8	23.9	0.00e+00	0	43	0	0	54	4714
2026-01-16 20:40:54.09	190.90	11.22	-41.3	-43.6	24.0	0.00e+00	0	42	0	0	54	4631
2026-01-16 20:40:56.08	190.40	11.35	-41.2	-43.5	24.1	0.00e+00	0	42	0	0	54	4561
2026-01-16 20:40:58.09	189.88	11.49	-41.4	-43.7	24.1	0.00e+00	0	42	0	0	54	4672
2026-01-16 20:41:00.09	189.37	11.63	-41.4	-43.7	24.0	0.00e+00	0	42	0	0	54	4702
2026-01-16 20:41:02.11	188.84	11.77	-41.6	-43.9	23.8	0.00e+00	0	43	0	0	54	4803
2026-01-16 20:41:04.10	188.31	11.90	-41.6	-44.0	23.7	0.00e+00	0	43	0	0	54	4815
2026-01-16 20:41:06.12	187.77	12.04	-41.2	-43.5	24.1	0.00e+00	0	43	0	0	54	4592
2026-01-16 20:41:08.22	187.20	12.18	-40.9	-43.1	24.4	0.00e+00	0	43	0	0	53	4650
2026-01-16 20:41:10.21	186.66	12.31	-40.9	-43.1	24.4	0.00e+00	0	43	0	0	53	4646
2026-01-16 20:41:12.20	186.10	12.45	-41.0	-43.2	24.4	0.00e+00	0	43	0	0	53	4697
2026-01-16 20:41:14.54	185.44	12.60	-41.4	-43.7	24.1	0.00e+00	0	43	0	0	53	4943
2026-01-16 20:41:16.54	184.87	12.73	-41.7	-44.1	23.8	0.00e+00	0	43	0	0	54	4877
2026-01-16 20:41:18.55	184.29	12.86	-41.7	-44.1	23.7	0.00e+00	0	43	0	0	54	4900
2026-01-16 20:41:20.54	183.71	12.99	-41.4	-43.8	24.0	0.00e+00	0	43	0	0	54	4714
2026-01-16 20:41:22.53	183.13	13.11	-41.1	-43.3	24.4	0.00e+00	0	43	0	0	54	4479
2026-01-16 20:41:24.55	182.52	13.24	-40.6	-42.8	24.8	0.00e+00	0	43	0	0	53	4458
2026-01-16 20:41:26.54	181.92	13.36	-40.4	-42.5	25.0	0.00e+00	0	43	0	0	52	4583
2026-01-16 20:41:28.64	181.28	13.49	-40.6	-42.8	24.9	0.00e+00	0	43	0	0	52	4709
2026-01-16 20:41:30.93	180.58	13.63	-40.9	-43.1	24.5	0.00e+00	0	43	0	0	52	4900
2026-01-16 20:41:32.95	179.95	13.75	-40.7	-42.9	24.6	0.00e+00	0	43	0	0	52	4809
2026-01-16 20:41:34.94	179.32	13.86	-40.6	-42.8	24.8	0.00e+00	0	43	0	0	52	4747
2026-01-16 20:41:36.93	178.69	13.97	-40.6	-42.8	24.8	0.00e+00	0	43	0	0	52	4751
2026-01-16 20:41:38.95	178.04	14.09	-40.6	-42.7	24.8	0.00e+00	0	43	0	0	52	4703
2026-01-16 20:41:40.95	177.39	14.20	-40.8	-43.0	24.7	0.00e+00	0	43	0	0	52	4844
2026-01-16 20:41:43.04	176.71	14.31	-41.0	-43.3	24.4	0.00e+00	0	43	0	0	52	5008
2026-01-16 20:41:45.03	176.05	14.41	-40.7	-42.9	24.7	0.00e+00	0	43	0	0	52	4769
2026-01-16 20:41:47.02	175.38	14.52	-40.8	-43.0	24.5	0.00e+00	0	43	0	0	52	4839
2026-01-16 20:41:49.03	174.71	14.62	-40.8	-42.9	24.7	0.00e+00	0	43	0	0	52	4813
2026-01-16 20:41:51.03	174.03	14.71	-40.3	-42.5	25.1	0.00e+00	0	43	0	0	52	4572
2026-01-16 20:41:53.02	173.35	14.81	-40.6	-42.7	24.8	0.00e+00	0	43	0	0	52	4702
2026-01-16 20:41:55.01	172.66	14.90	-40.4	-42.5	25.1	0.00e+00	0	43	0	0	52	4569
2026-01-16 20:41:57.00	171.97	14.99	-40.2	-42.4	25.2	0.00e+00	0	43	0	0	52	4509
2026-01-16 20:41:59.01	171.27	15.07	-40.3	-42.4	25.1	0.00e+00	0	43	0	0	52	4534
2026-01-16 20:42:01.00	170.57	15.16	-40.0	-42.1	25.3	0.00e+00	0	43	0	0	52	4388
2026-01-16 20:42:02.99	169.86	15.23	-40.0	-42.1	25.4	0.00e+00	0	43	0	0	51	4616
2026-01-16 20:42:04.98	169.15	15.31	-39.9	-42.0	25.4	0.00e+00	0	43	0	0	51	4591
2026-01-16 20:42:07.25	168.33	15.39	-40.4	-42.5	24.6	0.00e+00	0	43	0	0	51	4865
2026-01-16 20:42:09.24	167.61	15.46	-40.4	-42.5	25.0	0.00e+00	0	43	0	0	51	4867
2026-01-16 20:42:11.23	166.89	15.53	-40.6	-42.7	24.9	0.00e+00	0	43	0	0	51	4957
2026-01-16 20:42:13.24	166.15	15.59	-40.5	-42.6	25.0	0.00e+00	0	43	0	0	51	4923
2026-01-16 20:42:15.23	165.42	15.65	-40.1	-42.2	25.3	0.00e+00	0	42	0	0	51	4696
2026-01-16 20:42:17.22	164.69	15.70	-40.1	-42.2	25.3	0.00e+00	0	43	0	0	51	4685
2026-01-16 20:42:19.21	163.95	15.75	-40.0	-42.0	25.5	0.00e+00	0	43	0	0	51	4591
2026-01-16 20:42:21.48	163.10	15.81	-40.1	-42.1	25.4	0.00e+00	0	43	0	0	51	4641
2026-01-16 20:42:23.69	162.27	15.85	-40.3	-42.4	25.2	0.00e+00	0	43	0	0	51	4796
2026-01-16 20:42:25.67	161.53	15.89	-40.5	-42.7	25.0	0.00e+00	0	43	0	0	51	4943
2026-01-16 20:42:27.75	160.75	15.93	-40.6	-42.8	24.8	0.00e+00	0	43	0	0	52	4728
2026-01-16 20:42:29.74	159.99	15.96	-40.4	-42.6	25.0	0.00e+00	0	43	0	0	51	4885
2026-01-16 20:42:31.76	159.23	15.98	-40.4	-42.5	25.0	0.00e+00	0	43	0	0	51	4855
2026-01-16 20:42:33.76	158.47	16.01	-39.8	-41.8	25.6	0.00e+00	0	43	0	0	51	4487
2026-01-16 20:42:35.75	157.71	16.02	-39.5	-41.5	25.9	0.00e+00	0	43	0	0	50	4592
2026-01-16 20:42:37.75	156.95	16.04	-39.4	-41.4	26.0	0.00e+00	0	43	0	0	50	4517
2026-01-16 20:42:39.74	156.20	16.05	-39.6	-41.7	25.7	0.00e+00	0	43	0	0	50	4652
2026-01-16 20:42:41.73	155.44	16.05	-39.8	-41.9	25.5	0.00e+00	0	43	0	0	50	4797
2026-01-16 20:42:43.72	154.68	16.05	-39.8	-41.9	25.6	0.00e+00	0	43	0	0	50	4764
2026-01-16 20:42:45.71	153.92	16.05	-39.7	-41.8	25.6	0.00e+00	0	43	0	0	50	4723
2026-01-16 20:42:47.70	153.16	16.04	-39.6	-41.7	25.7	0.00e+00	0	43	0	0	50	4652
2026-01-16 20:42:49.69	152.41	16.03	-39.8	-41.9	25.5	0.00e+00	0	43	0	0	50	4761
2026-01-16 20:42:51.62	151.67	16.02	-39.7	-41.7	25.6	0.00e+00	0	43	0	0	50	4699
2026-01-16 20:42:53.73	150.87	16.00	-39.8	-41.9	25.5	0.00e+00	0	43	0	0	50	4792
2026-01-16 20:42:55.78	150.09	15.97	-39.7	-41.7	25.6	0.00e+00	0	43	0	0	50	4702
2026-01-16 20:42:57.83	149.32	15.94	-39.6	-41.6	25.8	0.00e+00	0	43	0	0	50	4645
2026-01-16 20:42:59.97	148.51	15.91	-39.8	-41.8	25.6	0.00e+00	0	43	0	0	50	4758
2026-01-16 20:43:01.97	147.76	15.87	-40.0	-42.1	25.4	0.00e+00	0	43	0	0	50	4890
2026-01-16 20:43:03.98	147.01	15.83	-40.5	-42.6	24.9	0.00e+00	0	43	0	0	51	4908
2026-01-16 20:43:05.97	146.27	15.79	-40.3	-42.4	25.1	0.00e+00	0	43	0	0	51	4811
2026-01-16 20:43:07.96	145.53	15.74	-40.0	-42.1	25.4	0.00e+00	0	43	0	0	51	4628
2026-01-16 20:43:09.95	144.79	15.69	-39.9	-42.0	25.3	0.00e+00	0	43	0	0	51	4576
2026-01-16 20:43:11.95	144.05	15.63	-40.0	-42.1	25.3	0.00e+00	0	43	0	0	51	4629
2026-01-16 20:43:14.19	143.23	15.57	-40.3	-42.4	25.1	0.00e+00	0	43	0	0	51	4790
2026-01-16 20:43:16.18	142.51	15.50	-40.3	-42.4	25.1	0.00e+00	0	43	0	0	51	4811
2026-01-16 20:43:18.17	141.78	15.44	-39.8	-41.9	25.5	0.00e+00	0	43	0	0	51	4510
2026-01-16 20:43:20.16	141.07	15.37	-39.8	-41.9	25.5	0.00e+00	0	43	0	0	51	4510
2026-01-16 20:43:22.23	140.33	15.29	-40.4	-42.5	25.0	0.00e+00	0	43	0	0	51	4864
2026-01-16 20:43:24.25	139.61	15.21	-40.3	-42.4	25.0	0.00e+00	0	43	0	0	52	4539
2026-01-16 20:43:26.24	138.91	15.13	-39.9	-42.0	25.4	0.00e+00	0	43	0	0	51	4575
2026-01-16 20:43:28.23	138.21	15.05	-39.8	-41.8	25.6	0.00e+00	0	43	0	0	51	4469
2026-01-16 20:43:30.22	137.51	14.96	-40.1	-42.2	25.3	0.00e+00	0	43	0	0	51	4665
2026-01-16 20:43:32.21	136.83	14.87	-40.5	-42.6	24.9	0.00e+00	0	43	0	0	51	4892
2026-01-16 20:43:34.20	136.14	14.78	-40.4	-42.5	25.0	0.00e+00	0	43	0	0	51	4841
2026-01-16 20:43:36.41	135.39	14.68	-40.0	-42.1	25.2	0.00e+00	0	43	0	0	51	4640
2026-01-16 20:43:38.40	134.72	14.58	-39.9	-41.9	25.4	0.00e+00	0	43	0	0	51	4542
2026-01-16 20:43:40.39	134.06	14.48	-40.0	-42.1	25.3	0.00e+00	0	43	0	0	51	4630
2026-01-16 20:43:42.38	133.40	14.38	-40.2	-42.4	25.1	0.00e+00	0	43	0	0	51	4760
2026-01-16 20:43:44.37	132.74	14.27	-40.2	-42.3	25.1	0.00e+00	0	43	0	0	51	4732
2026-01-16 20:43:46.36	132.10	14.17	-40.0	-42.0	25.3	0.00e+00	0	43	0	0	51	4598
2026-01-16 20:43:48.35	131.46	14.06	-39.8	-41.8	25.5	0.00e+00	0	43	0	0	51	4473
2026-01-16 20:43:50.28	130.84	13.95	-39.8	-41.9	25.4	0.00e+00	0	43	0	0	51	4527
2026-01-16 20:43:52.30	130.20	13.83	-39.9	-42.0	25.3	0.00e+00	0	43	0	0	51	4564
2026-01-16 20:43:54.29	129.58	13.72	-40.5	-42.6	24.9	0.00e+00	0	43	0	0	51	4915
2026-01-16 20:43:56.30	128.96	13.60	-40.8	-43.0	24.5	0.00e+00	0	43	0	0	52	4846
2026-01-16 20:43:58.29	128.35	13.48	-40.4	-42.6	24.8	0.00e+00	0	43	0	0	52	4629
2026-01-16 20:44:00.33	127.73	13.36	-40.5	-42.7	24.7	0.00e+00	0	43	0	0	52	4656
2026-01-16 20:44:02.56	127.06	13.22	-40.5	-42.7	24.7	0.00e+00	0	43	0	0	52	4673
2026-01-16 20:44:04.55	126.47	13.10	-40.8	-43.0	24.5	0.00e+00	0	43	0	0	52	4816
2026-01-16 20:44:06.53	125.89	12.97	-41.1	-43.3	24.2	0.00e+00	0	43	0	0	52	5006
2026-01-16 20:44:08.52	125.31	12.84	-40.7	-42.9	24.6	0.00e+00	0	43	0	0	52	4778
2026-01-16 20:44:10.51	124.74	12.72	-40.4	-42.6	24.8	0.00e+00	0	43	0	0	52	4612
2026-01-16 20:44:12.50	124.18	12.59	-40.3	-42.5	24.8	0.00e+00	0	43	0	0	52	4568
2026-01-16 20:44:14.56	123.60	12.45	-40.6	-42.8	24.7	0.00e+00	0	43	0	0	52	4722
2026-01-16 20:44:16.57	123.05	12.32	-41.0	-43.2	24.3	0.00e+00	0	43	0	0	52	4943
2026-01-16 20:44:18.56	122.50	12.19	-41.2	-43.5	24.0	0.00e+00	0	43	0	0	53	4830
2026-01-16 20:44:20.54	121.97	12.05	-41.4	-43.7	23.9	0.00e+00	0	43	0	0	53	4929
2026-01-16 20:44:22.53	121.44	11.92	-41.2	-43.4	24.0	0.00e+00	0	43	0	0	53	4804
2026-01-16 20:44:24.52	120.92	11.78	-40.7	-42.9	24.5	0.00e+00	0	43	0	0	53	4523
2026-01-16 20:44:26.51	120.40	11.65	-40.7	-42.9	24.4	0.00e+00	0	43	0	0	53	4524
2026-01-16 20:44:28.60	119.86	11.51	-41.1	-43.4	23.9	0.00e+00	0	43	0	0	53	4805
2026-01-16 20:44:30.58	119.36	11.37	-41.1	-43.4	24.1	0.00e+00	0	43	0	0	53	4765
2026-01-16 20:44:32.58	118.86	11.23	-41.2	-43.4	24.0	0.00e+00	0	43	0	0	53	4803
2026-01-16 20:44:34.57	118.36	11.09	-41.2	-43.5	24.0	0.00e+00	0	43	0	0	53	4844
2026-01-16 20:44:36.56	117.88	10.96	-41.6	-43.9	23.6	0.00e+00	0	43	0	0	53	5092
2026-01-16 20:44:38.54	117.40	10.82	-41.8	-44.2	23.3	0.00e+00	0	43	0	0	54	4976
2026-01-16 20:44:40.53	116.93	10.68	-41.9	-44.3	23.2	0.00e+00	0	43	0	0	54	5009
2026-01-16 20:44:42.52	116.46	10.54	-41.8	-44.1	23.4	0.00e+00	0	43	0	0	54	4909
2026-01-16 20:44:44.51	116.00	10.40	-41.6	-44.0	23.6	0.00e+00	0	43	0	0	54	4821
2026-01-16 20:44:46.50	115.54	10.26	-41.7	-44.1	23.5	0.00e+00	0	43	0	0	54	4876
2026-01-16 20:44:48.57	115.07	10.11	-41.7	-44.0	23.5	0.00e+00	0	43	0	0	54	4846
2026-01-16 20:44:50.56	114.63	9.97	-41.8	-44.2	23.3	0.00e+00	0	43	0	0	54	4946
2026-01-16 20:44:52.56	114.19	9.83	-42.1	-44.5	23.1	0.00e+00	0	43	0	0	54	5120
2026-01-16 20:44:54.55	113.75	9.69	-42.1	-44.5	23.0	0.00e+00	0	43	0	0	55	4844
2026-01-16 20:44:56.54	113.33	9.55	-42.3	-44.7	22.8	0.00e+00	0	43	0	0	55	4980
2026-01-16 20:44:58.52	112.91	9.41	-42.2	-44.6	22.8	0.00e+00	0	43	0	0	55	4924
2026-01-16 20:45:00.51	112.49	9.27	-42.1	-44.6	22.9	0.00e+00	0	43	0	0	55	4877
2026-01-16 20:45:02.51	112.08	9.13	-42.1	-44.6	22.8	0.00e+00	0	43	0	0	55	4897
2026-01-16 20:45:04.58	111.66	8.99	-44.3	-47.4	21.2	0.00e+00	0	43	0	0	59	5394
2026-01-16 20:45:06.62	111.25	8.85	-50.6	-69.5	3.8	3.35e-01	0	43	104	0	71	34382
2026-01-16 20:45:08.68	110.84	8.70	-50.8	-69.6	3.8	8.48e-01	0	43	104	0	72	32812
2026-01-16 20:45:10.66	110.45	8.56	-50.9	-69.7	3.8	8.47e-01	0	43	104	0	72	33246
2026-01-16 20:45:12.65	110.07	8.42	-50.8	-69.8	3.8	8.47e-01	0	43	104	0	72	33476
2026-01-16 20:45:14.63	109.69	8.28	-50.7	-69.8	3.8	8.46e-01	0	43	104	0	72	33673
2026-01-16 20:45:16.62	109.32	8.15	-50.8	-69.9	3.8	8.47e-01	0	43	104	0	72	33698
2026-01-16 20:45:18.61	108.95	8.01	-50.9	-69.9	3.8	8.46e-01	0	43	104	0	72	33934
2026-01-16 20:45:20.60	108.58	7.87	-50.8	-69.9	3.8	8.48e-01	0	43	104	0	72	33840
2026-01-16 20:45:22.58	108.23	7.73	-50.6	-69.9	3.8	8.46e-01	0	43	104	0	72	33950
2026-01-16 20:45:24.62	107.86	7.59	-50.7	-70.0	3.8	8.46e-01	0	43	104	0	72	34135
2026-01-16 20:45:26.67	107.50	7.45	-50.8	-69.9	3.8	8.46e-01	0	43	104	0	72	33941
2026-01-16 20:45:28.66	107.16	7.31	-50.7	-69.9	3.8	8.46e-01	0	43	104	0	72	33940
2026-01-16 20:45:30.64	106.82	7.18	-50.7	-69.9	3.8	8.46e-01	0	43	104	0	72	33869
2026-01-16 20:45:32.63	106.48	7.04	-50.7	-69.9	3.8	8.48e-01	0	43	104	0	72	33825
2026-01-16 20:45:34.62	106.15	6.91	-50.7	-69.9	3.8	8.47e-01	0	43	104	0	72	33815
2026-01-16 20:45:36.60	105.82	6.77	-50.7	-69.9	3.8	8.46e-01	0	43	104	0	72	33948
2026-01-16 20:45:38.59	105.50	6.64	-50.7	-69.9	3.8	8.47e-01	0	43	104	0	72	33793
2026-01-16 20:45:40.58	105.18	6.50	-50.7	-69.9	3.8	8.47e-01	0	43	104	0	72	33842
2026-01-16 20:45:42.56	104.87	6.37	-50.7	-69.9	3.8	8.47e-01	0	43	104	0	72	33835
2026-01-16 20:45:44.55	104.56	6.24	-50.7	-69.9	3.8	8.46e-01	0	43	104	0	72	33715
2026-01-16 20:45:46.54	104.25	6.10	-50.7	-69.9	3.8	8.47e-01	0	43	104	0	72	33801
2026-01-16 20:45:48.52	103.95	5.97	-50.7	-69.9	3.8	8.47e-01	0	43	104	0	72	33826
2026-01-16 20:45:50.51	103.65	5.84	-50.7	-69.9	3.8	8.46e-01	0	43	104	0	72	33730
2026-01-16 20:45:52.50	103.36	5.71	-50.7	-69.8	3.8	8.45e-01	0	43	104	0	72	33654
2026-01-16 20:45:54.48	103.07	5.58	-50.7	-69.8	3.8	8.47e-01	0	43	104	0	72	33650
2026-01-16 20:45:56.47	102.78	5.45	-50.7	-69.8	3.8	8.47e-01	0	43	104	0	72	33661
2026-01-16 20:45:58.45	102.49	5.32	-50.7	-69.8	3.8	8.47e-01	0	43	104	0	72	33681
2026-01-16 20:46:00.44	102.21	5.19	-50.7	-69.8	3.8	8.47e-01	0	43	104	0	72	33631
2026-01-16 20:46:02.42	101.94	5.06	-50.7	-69.8	3.8	8.47e-01	0	43	104	0	72	33655

#Closed at: 2026-01-16 20:46:04
#Recorded file [0 MB]: D:/Data/31040_260116_233926.dat