passes_logs/2026/01/16/T1/T1__20260116_015532_FENGYUN_3D_rec.log

#Pass ID: 20260116_015532_FENGYUN 3D
#Satellite: FENGYUN 3D
#Configuration: FENGYUN 3D
#almurnet v.1.7.20251203
#Start time: 2026-01-16 01:55:32

#Version: 2.0.20230620
#Station: T1
#Location: 37.570604 lon 55.790049 lat
#TLE: 1 43010U 17072A   26015.49690188 -.00000192  00000+0 -69217-4 0  9996
#TLE: 2 43010  98.9932 347.3205 0002350 106.2275 253.9159 14.19694721423329

#Time	Az	El	Level	Level2	SNR	BER	BlckErr	Temp	State	Recorded	gain1	gain2
2026-01-16 01:55:32.97	15.78	5.06	-47.2	-60.8	3.8	8.47e-01	0	41	0	0	66	16783
2026-01-16 01:55:36.94	15.77	5.34	-47.2	-61.1	3.8	8.47e-01	0	41	104	0	65	18328
2026-01-16 01:55:40.91	15.75	5.63	-47.2	-60.6	3.8	8.46e-01	0	41	104	0	65	17366
2026-01-16 01:55:44.88	15.73	5.92	-47.2	-60.5	3.8	8.47e-01	0	41	104	0	65	17151
2026-01-16 01:55:48.85	15.71	6.21	-47.2	-60.0	3.8	8.47e-01	0	42	104	0	65	16226
2026-01-16 01:55:52.83	15.69	6.51	-47.1	-59.8	3.8	8.47e-01	0	42	104	0	65	15931
2026-01-16 01:55:56.80	15.67	6.81	-47.2	-61.2	3.8	8.47e-01	0	42	104	0	65	18589
2026-01-16 01:56:00.77	15.65	7.12	-47.1	-59.4	3.9	8.46e-01	0	42	104	0	65	15102
2026-01-16 01:56:04.74	15.63	7.43	-46.3	-53.9	6.3	3.36e-01	0	42	0	4194304	64	8485
2026-01-16 01:56:08.71	15.60	7.74	-45.4	-50.8	9.4	2.59e-02	0	42	0	26214400	62	6688
2026-01-16 01:56:12.69	15.58	8.05	-44.6	-49.0	11.3	1.97e-03	0	42	0	48234496	61	5776
2026-01-16 01:56:16.66	15.55	8.37	-44.1	-48.2	12.1	3.83e-04	0	42	0	71303168	60	5557
2026-01-16 01:56:20.64	15.53	8.70	-44.5	-49.0	11.3	1.19e-03	0	43	0	93323264	60	6095
2026-01-16 01:56:24.61	15.50	9.03	-46.0	-52.6	7.6	7.85e-02	0	43	0	115343360	62	8197
2026-01-16 01:56:28.93	15.47	9.39	-41.3	-43.9	16.4	0.00e+00	0	43	0	127926272	54	4794
2026-01-16 01:56:32.96	15.44	9.73	-41.0	-43.5	16.8	0.00e+00	0	43	0	149946368	54	4547
2026-01-16 01:56:36.94	15.41	10.07	-40.6	-42.9	17.4	0.00e+00	0	43	0	171966464	53	4506
2026-01-16 01:56:40.95	15.38	10.42	-40.4	-42.6	17.6	0.00e+00	0	43	0	195035136	52	4649
2026-01-16 01:56:45.21	15.35	10.80	-40.3	-42.6	17.7	0.00e+00	0	43	0	219152384	52	4600
2026-01-16 01:56:49.21	15.31	11.16	-40.3	-42.5	17.8	0.00e+00	0	43	0	241172480	52	4569
2026-01-16 01:56:53.22	15.28	11.53	-40.2	-42.4	18.0	0.00e+00	0	43	0	264241152	52	4512
2026-01-16 01:56:57.23	15.24	11.90	-40.1	-42.3	18.0	0.00e+00	0	43	0	286261248	52	4486
2026-01-16 01:57:01.22	15.20	12.28	-40.1	-42.3	18.0	0.00e+00	0	43	0	309329920	52	4486
2026-01-16 01:57:05.54	15.16	12.69	-40.0	-42.2	18.2	0.00e+00	0	43	0	333447168	51	4698
2026-01-16 01:57:09.53	15.12	13.08	-40.0	-42.2	18.3	0.00e+00	0	43	0	355467264	51	4661
2026-01-16 01:57:13.55	15.08	13.48	-39.8	-42.0	18.4	0.00e+00	0	43	0	378535936	51	4595
2026-01-16 01:57:17.53	15.03	13.88	-39.6	-41.9	18.6	0.00e+00	0	43	0	400556032	51	4505
2026-01-16 01:57:21.51	14.99	14.28	-39.5	-41.7	18.7	0.00e+00	0	43	0	422576128	51	4441
2026-01-16 01:57:25.49	14.94	14.70	-39.5	-41.6	18.9	0.00e+00	0	43	0	445644800	50	4649
2026-01-16 01:57:29.52	14.89	15.12	-39.2	-41.3	19.2	0.00e+00	0	43	0	467664896	50	4474
2026-01-16 01:57:33.53	14.84	15.56	-39.1	-41.1	19.4	0.00e+00	0	43	0	490733568	50	4364
2026-01-16 01:57:37.63	14.78	16.01	-39.0	-41.0	19.5	0.00e+00	0	43	0	513802240	50	4320
2026-01-16 01:57:41.73	14.73	16.46	-38.8	-40.7	19.8	0.00e+00	0	43	0	536870912	49	4434
2026-01-16 01:57:45.73	14.67	16.92	-38.7	-40.6	19.9	0.00e+00	0	43	0	559939584	49	4365
2026-01-16 01:57:49.66	14.61	17.37	-38.7	-40.6	20.0	0.00e+00	0	43	0	581959680	49	4350
2026-01-16 01:57:53.63	14.55	17.84	-38.5	-40.3	20.2	0.00e+00	0	43	0	603979776	49	4237
2026-01-16 01:57:57.85	14.48	18.35	-38.5	-40.3	20.2	0.00e+00	0	43	0	627048448	48	4486
2026-01-16 01:58:01.83	14.41	18.84	-38.4	-40.2	20.3	0.00e+00	0	43	0	650117120	48	4426
2026-01-16 01:58:05.84	14.34	19.35	-38.4	-40.2	20.3	0.00e+00	0	43	0	672137216	48	4433
2026-01-16 01:58:09.94	14.27	19.87	-38.2	-40.0	20.6	0.00e+00	0	43	0	695205888	48	4297
2026-01-16 01:58:13.96	14.19	20.40	-38.2	-39.9	20.6	0.00e+00	0	43	0	718274560	48	4284
2026-01-16 01:58:17.93	14.11	20.93	-38.0	-39.8	20.8	0.00e+00	0	44	0	740294656	48	4197
2026-01-16 01:58:21.91	14.03	21.47	-37.9	-39.7	20.5	0.00e+00	0	44	0	763363328	47	4421
2026-01-16 01:58:25.89	13.95	22.03	-37.7	-39.4	20.9	0.00e+00	0	44	0	785383424	47	4291
2026-01-16 01:58:29.88	13.86	22.59	-37.6	-39.4	20.9	0.00e+00	0	43	0	807403520	47	4243
2026-01-16 01:58:33.86	13.76	23.18	-37.5	-39.2	21.1	0.00e+00	0	43	0	830472192	46	4421
2026-01-16 01:58:37.87	13.66	23.77	-37.3	-39.1	21.2	0.00e+00	0	44	0	852492288	46	4359
2026-01-16 01:58:41.84	13.56	24.38	-37.3	-39.0	21.3	0.00e+00	0	44	0	875560960	46	4335
2026-01-16 01:58:45.82	13.46	25.00	-37.2	-38.9	21.4	0.00e+00	0	44	0	897581056	46	4270
2026-01-16 01:58:49.80	13.34	25.64	-37.3	-39.0	21.3	0.00e+00	0	44	0	919601152	46	4327
2026-01-16 01:58:53.84	13.23	26.30	-37.2	-39.0	21.3	0.00e+00	0	44	0	942669824	46	4307
2026-01-16 01:58:57.82	13.10	26.97	-37.2	-38.9	21.4	0.00e+00	0	44	0	964689920	46	4281
2026-01-16 01:59:01.88	12.97	27.67	-37.1	-38.9	21.5	0.00e+00	0	44	0	987758592	46	4245
2026-01-16 01:59:05.86	12.84	28.37	-37.2	-39.0	21.4	0.00e+00	0	44	0	1009778688	46	4309
2026-01-16 01:59:09.93	12.69	29.11	-37.3	-39.0	21.3	0.00e+00	0	44	0	1032847360	46	4330
2026-01-16 01:59:13.94	12.54	29.86	-37.2	-39.0	21.4	0.00e+00	0	43	0	1055916032	46	4301
2026-01-16 01:59:17.92	12.38	30.62	-37.0	-38.8	21.6	0.00e+00	0	44	0	1077936128	46	4217
2026-01-16 01:59:21.90	12.22	31.40	-36.8	-38.5	21.8	0.00e+00	0	44	0	1099956224	45	4332
2026-01-16 01:59:25.87	12.04	32.20	-36.7	-38.4	22.0	0.00e+00	0	44	0	1123024896	45	4248
2026-01-16 01:59:29.85	11.86	33.02	-36.7	-38.4	22.0	0.00e+00	0	43	0	1145044992	45	4250
2026-01-16 01:59:33.83	11.66	33.87	-36.7	-38.4	21.9	0.00e+00	0	44	0	1167065088	45	4280
2026-01-16 01:59:37.82	11.46	34.74	-36.6	-38.2	22.1	0.00e+00	0	44	0	1190133760	45	4192
2026-01-16 01:59:42.16	11.22	35.72	-36.4	-38.1	22.2	0.00e+00	0	44	0	1214251008	44	4379
2026-01-16 01:59:46.25	10.98	36.67	-36.4	-38.1	22.2	0.00e+00	0	44	0	1237319680	44	4362
2026-01-16 01:59:50.26	10.73	37.63	-36.6	-38.3	22.1	0.00e+00	0	44	0	1259339776	44	4442
2026-01-16 01:59:54.27	10.46	38.61	-36.8	-38.5	21.9	0.00e+00	0	44	0	1282408448	44	4552
2026-01-16 01:59:58.26	10.18	39.62	-36.8	-38.5	21.9	0.00e+00	0	44	0	1304428544	44	4555
2026-01-16 02:00:02.50	9.86	40.72	-37.3	-39.1	21.4	0.00e+00	0	44	0	1328545792	45	4599
2026-01-16 02:00:06.75	9.51	41.86	-37.1	-38.9	21.5	0.00e+00	0	44	0	1352663040	45	4530
2026-01-16 02:00:10.73	9.16	42.96	-37.1	-38.9	21.5	0.00e+00	0	43	0	1374683136	45	4510
2026-01-16 02:00:14.79	8.78	44.12	-36.9	-38.6	21.8	0.00e+00	0	44	0	1397751808	45	4361
2026-01-16 02:00:18.75	8.37	45.27	-37.0	-38.8	21.7	0.00e+00	0	44	0	1419771904	45	4447
2026-01-16 02:00:22.91	7.92	46.53	-37.3	-39.0	21.5	0.00e+00	0	44	0	1443889152	45	4567
2026-01-16 02:00:26.89	7.44	47.76	-36.6	-38.3	22.1	0.00e+00	0	44	0	1465909248	45	4221
2026-01-16 02:00:30.87	6.92	49.03	-37.0	-38.8	21.7	0.00e+00	0	44	0	1488977920	45	4456
2026-01-16 02:00:35.03	6.33	50.39	-37.5	-39.3	21.2	0.00e+00	0	44	0	1512046592	45	4717
2026-01-16 02:00:39.09	5.70	51.75	-38.4	-40.3	20.0	0.00e+00	0	44	0	1535115264	47	4709
2026-01-16 02:00:43.09	5.02	53.13	-38.3	-40.2	20.1	0.00e+00	0	44	0	1557135360	47	4683
2026-01-16 02:00:47.00	4.29	54.51	-38.4	-40.3	20.0	0.00e+00	0	43	0	1579155456	47	4719
2026-01-16 02:00:50.99	3.46	55.96	-37.9	-39.7	20.5	0.00e+00	0	44	0	1601175552	47	4440
2026-01-16 02:00:54.95	2.54	57.42	-37.8	-39.6	20.5	0.00e+00	0	44	0	1624244224	47	4382
2026-01-16 02:00:58.92	1.51	58.92	-37.3	-39.1	21.1	0.00e+00	0	44	0	1646264320	46	4351
2026-01-16 02:01:02.90	0.36	60.46	-37.0	-38.7	21.4	0.00e+00	0	43	0	1668284416	45	4441
2026-01-16 02:01:06.96	359.02	62.04	-37.2	-39.0	21.2	0.00e+00	0	44	0	1691353088	45	4552
2026-01-16 02:01:10.97	357.52	63.64	-36.8	-38.6	21.4	0.00e+00	0	44	0	1714421760	45	4386
2026-01-16 02:01:14.95	355.81	65.23	-36.6	-38.4	21.6	0.00e+00	0	44	0	1736441856	45	4272
2026-01-16 02:01:18.94	353.82	66.84	-36.0	-37.8	22.3	0.00e+00	0	44	0	1758461952	44	4214
2026-01-16 02:01:22.99	351.47	68.48	-35.7	-37.4	22.3	0.00e+00	0	44	0	1781530624	43	4290
2026-01-16 02:01:26.97	348.74	70.08	-35.6	-37.4	22.4	0.00e+00	0	44	0	1803550720	42	4502
2026-01-16 02:01:30.95	345.51	71.65	-35.6	-37.4	22.5	0.00e+00	0	44	0	1826619392	42	4498
2026-01-16 02:01:34.98	341.58	73.20	-35.7	-37.4	22.3	0.00e+00	0	44	0	1848639488	42	4519
2026-01-16 02:01:38.96	336.90	74.66	-35.5	-37.2	22.5	0.00e+00	0	44	0	1871708160	42	4431
2026-01-16 02:01:42.94	331.22	76.02	-34.9	-36.6	23.0	0.00e+00	0	44	0	1893728256	41	4353
2026-01-16 02:01:46.92	324.36	77.22	-34.6	-36.3	23.2	0.00e+00	0	44	0	1915748352	40	4451
2026-01-16 02:01:50.91	316.14	78.22	-34.0	-35.7	23.7	0.00e+00	0	44	0	1938817024	40	4180
2026-01-16 02:01:54.98	306.38	78.96	-33.8	-35.5	23.9	0.00e+00	0	44	0	1961885696	39	4315
2026-01-16 02:01:58.96	295.80	79.34	-34.0	-35.6	23.8	0.00e+00	0	43	0	1983905792	39	4380
2026-01-16 02:02:02.94	284.82	79.35	-33.8	-35.5	23.9	0.00e+00	0	44	0	2005925888	39	4298
2026-01-16 02:02:06.97	274.08	78.97	-34.2	-35.9	23.6	0.00e+00	0	44	0	2028994560	39	4511
2026-01-16 02:02:11.02	264.34	78.24	-34.1	-35.7	23.8	0.00e+00	0	44	0	2052063232	39	4431
2026-01-16 02:02:15.01	256.08	77.25	-34.2	-35.8	23.7	0.00e+00	0	44	0	2074083328	39	4490
2026-01-16 02:02:18.98	249.20	76.05	-34.5	-36.1	23.4	0.00e+00	0	43	0	2096103424	39	4645
2026-01-16 02:02:23.01	243.43	74.67	-34.7	-36.4	23.3	0.00e+00	0	43	0	2119172096	40	4511
2026-01-16 02:02:27.11	238.60	73.17	-34.9	-36.6	23.1	0.00e+00	0	43	0	2142240768	40	4603
2026-01-16 02:02:31.09	234.73	71.63	-35.5	-37.2	22.5	0.00e+00	0	44	0	2164260864	41	4675
2026-01-16 02:02:35.01	231.54	70.08	-35.9	-37.6	22.3	0.00e+00	0	44	0	2186280960	43	4354
2026-01-16 02:02:38.98	228.82	68.48	-35.5	-37.2	22.6	0.00e+00	0	43	0	2209349632	42	4397
2026-01-16 02:02:42.96	226.50	66.87	-35.6	-37.3	22.5	0.00e+00	0	43	0	2231369728	42	4487
2026-01-16 02:02:46.94	224.51	65.26	-36.1	-37.8	22.1	0.00e+00	0	43	0	2253389824	43	4487
2026-01-16 02:02:50.91	222.79	63.66	-36.0	-37.7	22.2	0.00e+00	0	44	0	2276458496	43	4421
2026-01-16 02:02:54.90	221.28	62.07	-35.8	-37.5	22.4	0.00e+00	0	44	0	2298478592	43	4310
2026-01-16 02:02:58.96	219.94	60.48	-37.0	-38.8	21.4	0.00e+00	0	44	0	2321547264	44	4712
2026-01-16 02:03:02.94	218.78	58.94	-37.3	-39.1	21.1	0.00e+00	0	44	0	2343567360	45	4636
2026-01-16 02:03:06.92	217.74	57.43	-37.2	-39.0	21.2	0.00e+00	0	44	0	2365587456	45	4560
2026-01-16 02:03:10.90	216.82	55.96	-38.4	-40.3	19.9	0.00e+00	0	44	0	2388656128	47	4749
2026-01-16 02:03:14.94	215.97	54.49	-38.2	-40.1	20.2	0.00e+00	0	44	0	2411724800	47	4599
2026-01-16 02:03:18.95	215.22	53.07	-37.5	-39.3	21.0	0.00e+00	0	43	0	2433744896	46	4450
2026-01-16 02:03:22.93	214.54	51.69	-37.1	-38.9	21.3	0.00e+00	0	43	0	2455764992	46	4256
2026-01-16 02:03:26.99	213.90	50.32	-37.2	-39.0	21.2	0.00e+00	0	43	0	2478833664	45	4546
2026-01-16 02:03:31.10	213.32	48.97	-36.8	-38.5	21.6	0.00e+00	0	44	0	2501902336	45	4338
2026-01-16 02:03:35.02	212.81	47.72	-36.9	-38.7	21.4	0.00e+00	0	43	0	2523922432	45	4401
2026-01-16 02:03:39.01	212.33	46.48	-36.7	-38.4	21.6	0.00e+00	0	44	0	2546991104	45	4283
2026-01-16 02:03:42.99	211.89	45.27	-37.0	-38.8	21.2	0.00e+00	0	44	0	2569011200	45	4481
2026-01-16 02:03:47.01	211.48	44.09	-36.5	-38.3	21.7	0.00e+00	0	43	0	2591031296	45	4219
2026-01-16 02:03:51.10	211.09	42.92	-36.8	-38.6	21.4	0.00e+00	0	44	0	2614099968	45	4372
2026-01-16 02:03:55.08	210.74	41.82	-36.7	-38.5	21.5	0.00e+00	0	43	0	2637168640	45	4296
2026-01-16 02:03:59.00	210.41	40.76	-36.3	-38.1	21.8	0.00e+00	0	43	0	2659188736	44	4345
2026-01-16 02:04:02.98	210.11	39.71	-35.7	-37.5	22.2	0.00e+00	0	43	0	2681208832	43	4303
2026-01-16 02:04:06.97	209.82	38.70	-35.9	-37.7	22.0	0.00e+00	0	43	0	2704277504	43	4399
2026-01-16 02:04:10.95	209.55	37.71	-35.9	-37.7	22.0	0.00e+00	0	43	0	2726297600	43	4395
2026-01-16 02:04:14.92	209.30	36.75	-36.0	-37.7	21.9	0.00e+00	0	43	0	2748317696	43	4437
2026-01-16 02:04:18.94	209.06	35.81	-35.9	-37.7	22.0	0.00e+00	0	43	0	2771386368	43	4407
2026-01-16 02:04:22.96	208.83	34.90	-36.0	-37.8	21.9	0.00e+00	0	43	0	2793406464	43	4478
2026-01-16 02:04:26.94	208.62	34.02	-36.1	-37.9	21.8	0.00e+00	0	43	0	2816475136	43	4506
2026-01-16 02:04:30.92	208.42	33.16	-36.1	-37.8	21.8	0.00e+00	0	43	0	2838495232	43	4492
2026-01-16 02:04:35.01	208.22	32.30	-36.5	-38.3	21.4	0.00e+00	0	43	0	2861563904	43	4715
2026-01-16 02:04:38.99	208.04	31.49	-36.8	-38.7	21.2	0.00e+00	0	43	0	2883584000	44	4654
2026-01-16 02:04:43.04	207.87	30.69	-36.9	-38.7	21.2	0.00e+00	0	43	0	2906652672	44	4673
2026-01-16 02:04:47.10	207.70	29.91	-36.9	-38.7	21.2	0.00e+00	0	43	0	2929721344	44	4701
2026-01-16 02:04:51.02	207.55	29.17	-36.8	-38.6	21.3	0.00e+00	0	43	0	2951741440	44	4607
2026-01-16 02:04:55.00	207.41	28.44	-36.7	-38.4	21.5	0.00e+00	0	43	0	2973761536	44	4539
2026-01-16 02:04:58.97	207.27	27.73	-36.6	-38.4	21.5	0.00e+00	0	43	0	2996830208	44	4522
2026-01-16 02:05:02.98	207.13	27.03	-36.8	-38.6	21.3	0.00e+00	0	43	0	3018850304	44	4650
2026-01-16 02:05:06.96	207.01	26.36	-36.8	-38.7	21.3	0.00e+00	0	43	0	3040870400	44	4652
2026-01-16 02:05:10.94	206.89	25.70	-36.8	-38.6	21.3	0.00e+00	0	43	0	3063939072	44	4615
2026-01-16 02:05:14.97	206.77	25.05	-36.8	-38.6	21.3	0.00e+00	0	43	0	3085959168	44	4618
2026-01-16 02:05:18.93	206.66	24.42	-37.0	-38.8	21.1	0.00e+00	0	43	0	3109027840	44	4715
2026-01-16 02:05:22.91	206.55	23.81	-37.2	-39.0	20.9	0.00e+00	0	43	0	3131047936	45	4564
2026-01-16 02:05:26.89	206.45	23.21	-37.4	-39.3	20.6	0.00e+00	0	43	0	3153068032	45	4727
2026-01-16 02:05:30.86	206.36	22.62	-37.7	-39.5	20.4	0.00e+00	0	43	0	3176136704	45	4861
2026-01-16 02:05:34.84	206.26	22.05	-37.7	-39.5	20.4	0.00e+00	0	43	0	3198156800	46	4594
2026-01-16 02:05:38.81	206.17	21.49	-37.7	-39.6	20.4	0.00e+00	0	43	0	3220176896	46	4602
2026-01-16 02:05:42.79	206.09	20.94	-37.6	-39.5	20.5	0.00e+00	0	43	0	3243245568	46	4556
2026-01-16 02:05:46.78	206.00	20.40	-37.7	-39.5	20.5	0.00e+00	0	43	0	3265265664	46	4568
2026-01-16 02:05:50.85	205.92	19.86	-37.9	-39.7	20.3	0.00e+00	0	43	0	3288334336	46	4685
2026-01-16 02:05:54.89	205.84	19.34	-37.8	-39.6	20.3	0.00e+00	0	43	0	3311403008	46	4651
2026-01-16 02:05:58.98	205.77	18.82	-37.9	-39.8	20.2	0.00e+00	0	43	0	3334471680	46	4715
2026-01-16 02:06:03.07	205.70	18.32	-38.0	-39.9	20.1	0.00e+00	0	43	0	3357540352	46	4760
2026-01-16 02:06:07.61	205.62	17.77	-38.1	-39.9	20.0	0.00e+00	0	43	0	3382706176	46	4809
2026-01-16 02:06:12.16	205.54	17.23	-38.1	-40.0	20.0	0.00e+00	0	43	0	3407872000	46	4818
2026-01-16 02:06:16.69	205.47	16.70	-38.3	-40.1	19.9	0.00e+00	0	43	0	3434086400	47	4640
2026-01-16 02:06:21.30	205.40	16.17	-38.5	-40.4	19.5	0.00e+00	0	43	0	3459252224	47	4795
2026-01-16 02:06:25.97	205.34	15.66	-38.8	-40.7	19.5	0.00e+00	0	43	0	3485466624	48	4675
2026-01-16 02:06:29.95	205.28	15.22	-38.9	-40.9	19.4	0.00e+00	0	43	0	3508535296	48	4770
2026-01-16 02:06:33.93	205.23	14.79	-39.1	-41.0	19.2	0.00e+00	0	43	0	3530555392	48	4863
2026-01-16 02:06:37.91	205.18	14.37	-39.2	-41.1	19.1	0.00e+00	0	43	0	3552575488	49	4650
2026-01-16 02:06:41.89	205.13	13.96	-39.3	-41.3	18.9	0.00e+00	0	43	0	3575644160	49	4738
2026-01-16 02:06:45.87	205.08	13.56	-39.4	-41.4	18.7	0.00e+00	0	43	0	3597664256	49	4809
2026-01-16 02:06:49.85	205.03	13.16	-39.5	-41.5	18.7	0.00e+00	0	43	0	3619684352	49	4836
2026-01-16 02:06:53.83	204.99	12.77	-39.6	-41.6	18.6	0.00e+00	0	43	0	3642753024	49	4872
2026-01-16 02:06:57.88	204.94	12.37	-39.7	-41.7	18.5	0.00e+00	0	43	0	3665821696	50	4677
2026-01-16 02:07:01.94	204.90	11.98	-39.8	-41.8	18.4	0.00e+00	0	43	0	3687841792	50	4717
2026-01-16 02:07:05.95	204.86	11.61	-39.9	-41.9	18.3	0.00e+00	0	43	0	3710910464	50	4792
2026-01-16 02:07:09.93	204.82	11.24	-39.9	-42.0	18.2	0.00e+00	0	43	0	3732930560	50	4823
2026-01-16 02:07:13.91	204.78	10.88	-40.0	-42.0	18.1	0.00e+00	0	43	0	3754950656	50	4864
2026-01-16 02:07:17.89	204.74	10.52	-40.0	-42.1	18.0	0.00e+00	0	43	0	3778019328	50	4905
2026-01-16 02:07:21.85	204.71	10.17	-40.2	-42.2	17.9	0.00e+00	0	43	0	3800039424	51	4702
2026-01-16 02:07:25.83	204.67	9.82	-40.2	-42.4	17.7	0.00e+00	0	43	0	3822059520	51	4768
2026-01-16 02:07:29.81	204.64	9.48	-40.4	-42.5	17.6	0.00e+00	0	43	0	3845128192	51	4862
2026-01-16 02:07:33.97	204.60	9.12	-40.5	-42.7	17.4	0.00e+00	0	43	0	3868196864	51	4943
2026-01-16 02:07:37.94	204.57	8.79	-49.7	-61.9	3.8	8.46e-01	0	43	104	3879731200	70	15123
2026-01-16 02:07:41.92	204.54	8.46	-50.1	-62.3	3.8	8.46e-01	0	43	104	3879731200	70	15769
2026-01-16 02:07:45.89	204.51	8.14	-50.1	-62.3	3.8	8.48e-01	0	43	104	3879731200	71	14978
2026-01-16 02:07:49.86	204.48	7.82	-50.2	-62.3	3.8	8.47e-01	0	43	104	3879731200	71	15022
2026-01-16 02:07:53.83	204.45	7.50	-50.3	-62.3	3.8	8.46e-01	0	43	104	3879731200	71	15037
2026-01-16 02:07:57.81	204.42	7.19	-49.7	-62.3	3.8	8.47e-01	0	43	104	3879731200	71	14939
2026-01-16 02:08:01.78	204.40	6.88	-49.7	-62.3	3.8	8.48e-01	0	43	104	3879731200	71	14903
2026-01-16 02:08:05.76	204.37	6.58	-49.7	-62.2	3.8	8.47e-01	0	43	104	3879731200	71	14868
2026-01-16 02:08:09.73	204.35	6.27	-49.7	-62.3	3.8	8.46e-01	0	43	104	3879731200	71	14913
2026-01-16 02:08:13.70	204.32	5.98	-49.7	-62.2	3.8	8.48e-01	0	43	104	3879731200	71	14794
2026-01-16 02:08:17.67	204.30	5.68	-49.7	-62.2	3.8	8.47e-01	0	43	104	3879731200	71	14821
2026-01-16 02:08:21.65	204.28	5.39	-49.7	-62.2	3.8	8.48e-01	0	43	104	3879731200	71	14879
2026-01-16 02:08:25.62	204.25	5.10	-49.7	-62.2	3.8	8.47e-01	0	43	104	3879731200	71	14831

#Closed at: 2026-01-16 02:08:28
#Recorded file [3879 MB]: D:/Data/31040_260116_045532.dat