passes_logs/2026/01/16/T1/T1__20260116_090725_SUOMI_NPP_rec.log

#Pass ID: 20260116_090725_SUOMI NPP
#Satellite: SUOMI NPP
#Configuration: NPP
#almurnet v.1.7.20251203
#Start time: 2026-01-16 09:07:26

#Version: 2.0.20230620
#Station: T1
#Location: 37.570604 lon 55.790049 lat
#TLE: 1 37849U 11061A   26015.94982489  .00000054  00000+0  46705-4 0  9991
#TLE: 2 37849  98.7812 317.9902 0002438  62.0366 298.1057 14.19525452736847

#Time	Az	El	Level	Level2	SNR	BER	BlckErr	Temp	State	Recorded	gain1	gain2
2026-01-16 09:07:26.74	132.66	5.09	-47.6	-84.6	3.8	1.50e+00	0	36	0	0	90	65535
2026-01-16 09:07:29.73	132.53	5.29	-48.1	-85.1	3.2	1.55e+00	0	36	104	0	91	65535
2026-01-16 09:07:32.73	132.39	5.50	-48.1	-85.1	3.0	1.56e+00	0	36	104	0	91	65535
2026-01-16 09:07:35.72	132.25	5.71	-48.1	-85.1	3.0	1.55e+00	0	36	104	0	91	65535
2026-01-16 09:07:38.71	132.10	5.92	-48.1	-85.1	3.0	1.56e+00	0	36	104	0	91	65535
2026-01-16 09:07:41.71	131.96	6.13	-48.1	-85.1	2.8	1.56e+00	0	37	104	0	91	65535
2026-01-16 09:07:44.70	131.81	6.35	-48.1	-85.1	3.0	1.55e+00	0	37	104	0	91	65535
2026-01-16 09:07:47.70	131.66	6.56	-48.1	-85.1	2.7	1.55e+00	0	37	104	0	91	65535
2026-01-16 09:07:50.70	131.51	6.78	-48.2	-85.1	3.0	1.56e+00	0	37	104	0	91	65535
2026-01-16 09:07:53.69	131.35	7.00	-48.1	-85.1	3.1	1.56e+00	0	37	104	0	91	65535
2026-01-16 09:07:56.68	131.20	7.22	-48.1	-85.1	2.9	1.55e+00	0	37	104	0	91	65535
2026-01-16 09:07:59.67	131.04	7.44	-48.1	-85.1	2.9	1.55e+00	0	37	104	0	91	65535
2026-01-16 09:08:02.67	130.88	7.67	-48.1	-85.1	2.9	1.55e+00	0	37	104	0	91	65535
2026-01-16 09:08:05.66	130.71	7.89	-48.2	-85.1	3.0	1.56e+00	0	37	104	0	91	65535
2026-01-16 09:08:08.65	130.54	8.12	-48.2	-85.1	2.9	1.56e+00	0	37	104	0	91	65535
2026-01-16 09:08:11.65	130.37	8.35	-48.2	-85.1	3.0	1.55e+00	0	37	104	0	91	65535
2026-01-16 09:08:14.64	130.20	8.58	-75.1	-85.1	3.2	1.55e+00	0	37	104	0	91	65535
2026-01-16 09:08:17.64	130.02	8.82	-48.1	-85.1	3.0	1.55e+00	0	38	104	0	91	65535
2026-01-16 09:08:20.63	129.84	9.05	-48.1	-85.1	3.0	1.56e+00	0	38	104	0	91	65535
2026-01-16 09:08:23.62	129.66	9.29	-48.1	-85.1	2.9	1.56e+00	0	37	104	0	91	65535
2026-01-16 09:08:26.61	129.48	9.53	-48.2	-85.1	3.1	1.55e+00	0	37	104	0	91	65535
2026-01-16 09:08:29.60	129.29	9.77	-48.2	-85.1	3.2	1.56e+00	0	37	104	0	91	65535
2026-01-16 09:08:32.60	129.10	10.01	-75.1	-85.1	2.9	1.55e+00	0	38	104	0	91	65535
2026-01-16 09:08:35.59	128.90	10.26	-48.1	-85.1	2.9	1.56e+00	0	38	104	0	91	65535
2026-01-16 09:08:38.58	128.71	10.50	-48.1	-85.1	3.1	1.56e+00	0	38	104	0	91	65535
2026-01-16 09:08:41.57	128.50	10.75	-48.1	-85.1	3.0	1.55e+00	0	38	104	0	91	65535
2026-01-16 09:08:44.56	128.30	11.01	-48.2	-85.1	3.0	1.56e+00	0	38	104	0	91	65535
2026-01-16 09:08:47.55	128.09	11.26	-48.2	-85.1	2.9	1.57e+00	0	38	104	0	91	65535
2026-01-16 09:08:50.54	127.88	11.52	-48.2	-85.1	2.9	1.55e+00	0	38	104	0	91	65535
2026-01-16 09:08:53.54	127.66	11.78	-48.1	-85.1	3.0	1.56e+00	0	38	104	0	91	65535
2026-01-16 09:08:56.52	127.44	12.04	-48.1	-85.1	3.2	1.55e+00	0	38	104	0	91	65535
2026-01-16 09:08:59.52	127.21	12.30	-48.1	-85.1	3.0	1.55e+00	0	38	104	0	91	65535
2026-01-16 09:09:02.52	126.98	12.57	-48.1	-85.1	3.1	1.56e+00	0	38	104	0	91	65535
2026-01-16 09:09:05.50	126.75	12.83	-48.2	-85.1	3.0	1.56e+00	0	38	104	0	91	65535
2026-01-16 09:09:08.49	126.51	13.10	-48.1	-85.1	2.6	1.55e+00	0	38	104	0	91	65535
2026-01-16 09:09:11.48	126.27	13.38	-48.1	-85.1	2.8	1.55e+00	0	38	104	0	91	65535
2026-01-16 09:09:14.48	126.02	13.65	-48.1	-85.1	3.0	1.56e+00	0	38	104	0	91	65535
2026-01-16 09:09:17.47	125.77	13.93	-48.1	-85.1	2.9	1.56e+00	0	38	104	0	91	65535
2026-01-16 09:09:20.46	125.52	14.21	-48.1	-85.1	3.0	1.56e+00	0	38	104	0	91	65535
2026-01-16 09:09:23.46	125.25	14.50	-48.2	-85.1	3.1	1.55e+00	0	38	104	0	91	65535
2026-01-16 09:09:26.45	124.99	14.78	-48.2	-85.1	3.0	1.55e+00	0	38	104	0	91	65535
2026-01-16 09:09:29.45	124.71	15.07	-48.2	-85.1	2.7	1.55e+00	0	38	104	0	91	65535
2026-01-16 09:09:32.44	124.44	15.37	-75.1	-85.1	3.0	1.56e+00	0	38	104	0	91	65535
2026-01-16 09:09:35.44	124.15	15.66	-48.1	-85.1	3.2	1.56e+00	0	38	104	0	91	65535
2026-01-16 09:09:38.43	123.86	15.96	-48.1	-85.1	2.8	1.56e+00	0	38	104	0	91	65535
2026-01-16 09:09:41.42	123.57	16.26	-48.1	-85.1	3.1	1.56e+00	0	38	104	0	91	65535
2026-01-16 09:09:44.42	123.27	16.56	-48.2	-85.1	3.0	1.56e+00	0	38	104	0	91	65535
2026-01-16 09:09:47.41	122.96	16.87	-48.2	-85.1	2.8	1.55e+00	0	38	104	0	91	65535
2026-01-16 09:09:50.41	122.64	17.18	-75.1	-85.1	3.0	1.56e+00	0	38	104	0	91	65535
2026-01-16 09:09:53.40	122.32	17.49	-75.1	-85.1	3.0	1.56e+00	0	39	104	0	91	65535
2026-01-16 09:09:56.40	121.99	17.81	-75.1	-85.1	2.6	1.56e+00	0	39	104	0	91	65535
2026-01-16 09:09:59.39	121.66	18.13	-48.1	-85.1	3.0	1.56e+00	0	39	104	0	91	65535
2026-01-16 09:10:02.38	121.32	18.45	-48.1	-85.1	3.0	1.55e+00	0	39	104	0	91	65535
2026-01-16 09:10:05.37	120.97	18.78	-48.2	-85.1	2.8	1.56e+00	0	39	104	0	91	65535
2026-01-16 09:10:08.37	120.61	19.11	-48.2	-85.1	2.9	1.57e+00	0	39	104	0	91	65535
2026-01-16 09:10:11.35	120.25	19.44	-75.1	-85.1	3.2	1.55e+00	0	39	104	0	91	65535
2026-01-16 09:10:14.34	119.87	19.77	-48.1	-85.1	3.0	1.56e+00	0	39	104	0	91	65535
2026-01-16 09:10:17.33	119.49	20.11	-48.1	-85.1	2.9	1.56e+00	0	39	104	0	91	65535
2026-01-16 09:10:20.33	119.10	20.45	-48.1	-85.1	3.0	1.56e+00	0	39	104	0	91	65535
2026-01-16 09:10:23.32	118.70	20.80	-48.2	-85.1	3.0	1.56e+00	0	38	104	0	91	65535
2026-01-16 09:10:26.31	118.29	21.14	-48.2	-85.1	3.0	1.56e+00	0	39	104	0	91	65535
2026-01-16 09:10:29.31	117.87	21.49	-48.2	-85.1	3.1	1.56e+00	0	39	104	0	91	65535
2026-01-16 09:10:32.30	117.44	21.85	-75.1	-85.1	3.0	1.56e+00	0	39	104	0	91	65535
2026-01-16 09:10:35.29	117.01	22.21	-75.1	-85.1	3.0	1.57e+00	0	39	104	0	91	65535
2026-01-16 09:10:38.29	116.56	22.57	-48.2	-85.1	2.8	1.56e+00	0	39	104	0	91	65535
2026-01-16 09:10:41.29	116.10	22.93	-48.2	-85.1	2.9	1.57e+00	0	39	104	0	91	65535
2026-01-16 09:10:44.28	115.63	23.30	-48.2	-85.1	2.8	1.56e+00	0	39	104	0	91	65535
2026-01-16 09:10:47.28	115.14	23.67	-48.2	-85.1	3.2	1.56e+00	0	39	104	0	91	65535
2026-01-16 09:10:50.27	114.65	24.04	-75.1	-85.1	3.1	1.56e+00	0	39	104	0	91	65535
2026-01-16 09:10:53.26	114.14	24.42	-75.1	-85.1	3.0	1.56e+00	0	39	104	0	91	65535
2026-01-16 09:10:56.26	113.62	24.80	-74.6	-84.6	3.0	1.56e+00	0	39	104	0	90	65535
2026-01-16 09:10:59.24	113.10	25.18	-48.2	-85.1	3.1	1.56e+00	0	39	104	0	91	65535
2026-01-16 09:11:02.23	112.55	25.56	-48.2	-85.1	3.0	1.56e+00	0	39	104	0	91	65535
2026-01-16 09:11:05.23	111.99	25.95	-48.2	-85.1	2.9	1.55e+00	0	39	104	0	91	65535
2026-01-16 09:11:08.22	111.42	26.34	-48.2	-85.1	2.9	1.57e+00	0	39	104	0	91	65535
2026-01-16 09:11:11.21	110.84	26.74	-75.1	-85.1	3.1	1.56e+00	0	39	104	0	91	65535
2026-01-16 09:11:14.19	110.24	27.13	-75.1	-85.1	3.0	1.57e+00	0	39	104	0	91	65535
2026-01-16 09:11:17.18	109.62	27.53	-48.2	-85.1	3.0	1.56e+00	0	39	104	0	91	65535
2026-01-16 09:11:20.17	108.99	27.92	-48.2	-85.1	2.9	1.56e+00	0	39	104	0	91	65535
2026-01-16 09:11:23.17	108.34	28.33	-48.2	-85.1	3.0	1.57e+00	0	39	104	0	91	65535
2026-01-16 09:11:26.17	107.68	28.73	-48.2	-85.1	3.3	1.56e+00	0	39	104	0	91	65535
2026-01-16 09:11:29.16	107.00	29.13	-75.1	-85.1	2.9	1.57e+00	0	39	104	0	91	65535
2026-01-16 09:11:32.15	106.30	29.54	-75.1	-85.1	3.1	1.56e+00	0	39	104	0	91	65535
2026-01-16 09:11:35.15	105.58	29.94	-74.6	-84.6	3.0	1.57e+00	0	39	104	0	90	65535
2026-01-16 09:11:38.14	104.85	30.35	-48.2	-85.1	2.9	1.56e+00	0	39	104	0	91	65535
2026-01-16 09:11:41.13	104.09	30.76	-48.2	-85.1	2.9	1.56e+00	0	39	104	0	91	65535
2026-01-16 09:11:44.13	103.32	31.16	-48.2	-85.1	2.9	1.56e+00	0	39	104	0	91	65535
2026-01-16 09:11:47.12	102.53	31.57	-48.2	-85.1	3.0	1.56e+00	0	39	104	0	91	65535
2026-01-16 09:11:50.11	101.71	31.97	-75.1	-85.1	2.7	1.56e+00	0	39	104	0	91	65535
2026-01-16 09:11:53.11	100.88	32.38	-75.1	-85.1	3.1	1.56e+00	0	39	104	0	91	65535
2026-01-16 09:11:56.10	100.02	32.78	-74.6	-84.6	2.9	1.57e+00	0	39	104	0	90	65535
2026-01-16 09:11:59.09	99.15	33.18	-48.2	-85.1	2.9	1.56e+00	0	39	104	0	91	65535
2026-01-16 09:12:02.08	98.25	33.58	-48.2	-85.1	3.0	1.56e+00	0	39	104	0	91	65535
2026-01-16 09:12:05.07	97.33	33.97	-48.2	-85.1	2.9	1.56e+00	0	39	104	0	91	65535
2026-01-16 09:12:08.06	96.39	34.36	-75.1	-85.1	2.8	1.56e+00	0	39	104	0	91	65535
2026-01-16 09:12:11.06	95.42	34.75	-75.1	-85.1	2.9	1.57e+00	0	39	104	0	91	65535
2026-01-16 09:12:14.04	94.43	35.13	-75.1	-85.1	3.0	1.56e+00	0	39	104	0	91	65535
2026-01-16 09:12:17.04	93.42	35.51	-48.2	-85.1	2.9	1.56e+00	0	39	104	0	91	65535
2026-01-16 09:12:20.04	92.38	35.88	-48.2	-85.1	2.9	1.56e+00	0	39	104	0	91	65535
2026-01-16 09:12:23.03	91.32	36.25	-48.2	-85.1	3.1	1.57e+00	0	39	104	0	91	65535
2026-01-16 09:12:26.02	90.24	36.60	-48.2	-85.1	3.1	1.56e+00	0	39	104	0	91	65535
2026-01-16 09:12:29.00	89.14	36.95	-75.1	-85.1	3.0	1.56e+00	0	39	104	0	91	65535
2026-01-16 09:12:32.00	88.00	37.29	-75.1	-85.1	2.9	1.56e+00	0	39	104	0	91	65535
2026-01-16 09:12:34.99	86.85	37.62	-48.2	-85.1	2.9	1.57e+00	0	39	104	0	91	65535
2026-01-16 09:12:37.98	85.67	37.94	-48.2	-85.1	2.8	1.56e+00	0	39	104	0	91	65535
2026-01-16 09:12:40.97	84.47	38.25	-48.2	-85.1	2.9	1.56e+00	0	39	104	0	91	65535
2026-01-16 09:12:43.96	83.25	38.54	-48.2	-85.1	3.0	1.57e+00	0	39	104	0	91	65535
2026-01-16 09:12:46.96	82.00	38.83	-48.2	-85.1	3.0	1.57e+00	0	39	104	0	91	65535
2026-01-16 09:12:49.95	80.74	39.10	-75.1	-85.1	3.0	1.56e+00	0	39	104	0	91	65535
2026-01-16 09:12:52.94	79.45	39.35	-48.2	-85.1	3.0	1.56e+00	0	39	104	0	91	65535
2026-01-16 09:12:55.92	78.15	39.59	-48.2	-85.1	2.9	1.57e+00	0	39	104	0	91	65535
2026-01-16 09:12:58.92	76.82	39.82	-48.2	-85.1	3.1	1.56e+00	0	39	104	0	91	65535
2026-01-16 09:13:01.91	75.48	40.03	-48.2	-85.1	2.9	1.56e+00	0	39	104	0	91	65535
2026-01-16 09:13:04.90	74.12	40.22	-48.2	-85.1	3.0	1.56e+00	0	39	104	0	91	65535
2026-01-16 09:13:07.89	72.75	40.40	-48.2	-85.1	2.9	1.56e+00	0	39	104	0	91	65535
2026-01-16 09:13:10.88	71.36	40.55	-48.2	-85.1	2.5	1.56e+00	0	39	104	0	91	65535
2026-01-16 09:13:13.88	69.95	40.69	-48.2	-85.1	2.9	1.56e+00	0	39	104	0	91	65535
2026-01-16 09:13:16.87	68.54	40.81	-48.2	-85.1	3.0	1.56e+00	0	39	104	0	91	65535
2026-01-16 09:13:19.87	67.11	40.91	-48.2	-85.1	2.8	1.56e+00	0	39	104	0	91	65535
2026-01-16 09:13:22.86	65.68	40.99	-48.2	-85.1	2.9	1.56e+00	0	39	104	0	91	65535
2026-01-16 09:13:25.86	64.24	41.05	-48.2	-85.1	3.2	1.56e+00	0	39	104	0	91	65535
2026-01-16 09:13:28.85	62.80	41.09	-75.1	-85.1	3.0	1.56e+00	0	39	104	0	91	65535
2026-01-16 09:13:31.85	61.36	41.11	-75.1	-85.1	3.1	1.56e+00	0	39	104	0	91	65535
2026-01-16 09:13:34.84	59.91	41.10	-48.2	-85.1	3.0	1.56e+00	0	39	104	0	91	65535
2026-01-16 09:13:37.83	58.47	41.08	-48.2	-85.1	3.0	1.56e+00	0	39	104	0	91	65535
2026-01-16 09:13:40.83	57.03	41.04	-48.2	-85.1	2.5	1.56e+00	0	39	104	0	91	65535
2026-01-16 09:13:43.82	55.59	40.97	-48.2	-85.1	3.1	1.57e+00	0	39	104	0	91	65535
2026-01-16 09:13:46.81	54.17	40.89	-48.2	-85.1	3.1	1.56e+00	0	39	104	0	91	65535
2026-01-16 09:13:49.80	52.75	40.79	-75.1	-85.1	3.0	1.56e+00	0	39	104	0	91	65535
2026-01-16 09:13:52.79	51.34	40.66	-48.2	-85.1	2.9	1.56e+00	0	39	104	0	91	65535
2026-01-16 09:13:55.78	49.94	40.52	-48.2	-85.1	3.0	1.56e+00	0	39	104	0	91	65535
2026-01-16 09:13:58.78	48.55	40.36	-48.2	-85.1	3.0	1.56e+00	0	39	104	0	91	65535
2026-01-16 09:14:01.77	47.18	40.18	-48.2	-85.1	3.1	1.56e+00	0	39	104	0	91	65535
2026-01-16 09:14:04.75	45.84	39.99	-48.2	-85.1	3.1	1.56e+00	0	39	104	0	91	65535
2026-01-16 09:14:07.75	44.49	39.77	-75.1	-85.1	3.1	1.56e+00	0	39	104	0	91	65535
2026-01-16 09:14:10.74	43.18	39.54	-74.6	-84.6	3.0	1.56e+00	0	39	104	0	90	65535
2026-01-16 09:14:13.74	41.87	39.30	-48.2	-85.1	3.2	1.56e+00	0	39	104	0	91	65535
2026-01-16 09:14:16.73	40.60	39.04	-48.2	-85.1	3.0	1.56e+00	0	39	104	0	91	65535
2026-01-16 09:14:19.72	39.34	38.77	-48.2	-85.1	2.9	1.57e+00	0	39	104	0	91	65535
2026-01-16 09:14:22.71	38.10	38.48	-48.2	-85.1	3.2	1.56e+00	0	39	104	0	91	65535
2026-01-16 09:14:25.71	36.88	38.18	-75.1	-85.1	3.1	1.56e+00	0	39	104	0	91	65535
2026-01-16 09:14:28.70	35.69	37.87	-75.1	-85.1	2.9	1.56e+00	0	39	104	0	91	65535
2026-01-16 09:14:31.69	34.52	37.55	-48.2	-85.1	3.0	1.56e+00	0	39	104	0	91	65535
2026-01-16 09:14:34.69	33.38	37.22	-48.2	-85.1	3.0	1.56e+00	0	39	104	0	91	65535
2026-01-16 09:14:37.69	32.25	36.88	-48.2	-85.1	3.1	1.56e+00	0	39	104	0	91	65535
2026-01-16 09:14:40.68	31.15	36.53	-48.2	-85.1	3.0	1.56e+00	0	39	104	0	91	65535
2026-01-16 09:14:43.67	30.08	36.17	-75.1	-85.1	3.0	1.56e+00	0	39	104	0	91	65535
2026-01-16 09:14:46.67	29.03	35.81	-75.1	-85.1	3.0	1.57e+00	0	39	104	0	91	65535
2026-01-16 09:14:49.66	28.00	35.44	-75.1	-85.1	3.1	1.56e+00	0	39	104	0	91	65535
2026-01-16 09:14:52.65	27.00	35.06	-74.6	-84.6	3.0	1.57e+00	0	39	104	0	90	65535
2026-01-16 09:14:55.65	26.02	34.68	-74.6	-84.6	3.0	1.56e+00	0	40	104	0	90	65535
2026-01-16 09:14:58.64	25.06	34.29	-48.2	-85.1	3.0	1.56e+00	0	39	104	0	91	65535
2026-01-16 09:15:01.63	24.13	33.90	-48.2	-85.1	2.8	1.56e+00	0	39	104	0	91	65535
2026-01-16 09:15:04.62	23.21	33.51	-75.1	-85.1	3.0	1.56e+00	0	39	104	0	91	65535
2026-01-16 09:15:07.62	22.32	33.11	-75.1	-85.1	2.9	1.56e+00	0	39	104	0	91	65535
2026-01-16 09:15:10.61	21.46	32.71	-74.6	-84.6	3.0	1.56e+00	0	39	104	0	90	65535
2026-01-16 09:15:13.61	20.61	32.31	-74.6	-84.6	3.1	1.56e+00	0	39	104	0	90	65535
2026-01-16 09:15:16.60	19.78	31.91	-74.6	-84.6	2.9	1.56e+00	0	39	104	0	90	65535
2026-01-16 09:15:19.59	18.98	31.50	-74.6	-84.6	3.1	1.56e+00	0	39	104	0	90	65535
2026-01-16 09:15:22.59	18.19	31.10	-75.1	-85.1	2.8	1.56e+00	0	39	104	0	91	65535
2026-01-16 09:15:25.58	17.43	30.69	-75.1	-85.1	3.0	1.57e+00	0	39	104	0	91	65535
2026-01-16 09:15:28.58	16.68	30.29	-75.1	-85.1	2.9	1.56e+00	0	39	104	0	91	65535
2026-01-16 09:15:31.57	15.95	29.89	-74.6	-84.6	3.0	1.56e+00	0	39	104	0	90	65535
2026-01-16 09:15:34.57	15.24	29.48	-74.6	-84.6	2.9	1.56e+00	0	39	104	0	90	65535
2026-01-16 09:15:37.57	14.55	29.08	-74.6	-84.6	2.9	1.56e+00	0	39	104	0	90	65535
2026-01-16 09:15:40.56	13.87	28.68	-74.6	-84.6	3.0	1.57e+00	0	39	104	0	90	65535
2026-01-16 09:15:43.55	13.22	28.28	-68.6	-84.6	2.7	1.56e+00	0	39	104	0	90	65535
2026-01-16 09:15:46.55	12.57	27.88	-74.6	-84.6	2.9	1.56e+00	0	39	104	0	90	65535
2026-01-16 09:15:49.55	11.95	27.48	-68.6	-84.6	3.4	1.56e+00	0	39	104	0	90	65535
2026-01-16 09:15:52.54	11.34	27.08	-74.6	-84.6	3.0	1.56e+00	0	39	104	0	90	65535
2026-01-16 09:15:55.53	10.75	26.69	-74.6	-84.6	2.6	1.56e+00	0	40	104	0	90	65535
2026-01-16 09:15:58.52	10.17	26.30	-74.6	-84.6	2.8	1.56e+00	0	39	104	0	90	65535
2026-01-16 09:16:01.52	9.60	25.91	-74.6	-84.6	3.1	1.57e+00	0	39	104	0	90	65535
2026-01-16 09:16:04.52	9.05	25.53	-74.6	-84.6	3.1	1.57e+00	0	39	104	0	90	65535
2026-01-16 09:16:07.52	8.51	25.14	-74.6	-84.6	2.9	1.57e+00	0	39	104	0	90	65535
2026-01-16 09:16:10.52	7.98	24.76	-68.6	-84.6	2.7	1.56e+00	0	39	104	0	90	65535
2026-01-16 09:16:13.52	7.47	24.39	-68.6	-84.6	2.9	1.56e+00	0	39	104	0	90	65535
2026-01-16 09:16:16.52	6.97	24.01	-47.7	-84.6	3.1	1.56e+00	0	39	104	0	90	65535
2026-01-16 09:16:19.52	6.48	23.64	-47.7	-84.6	3.0	1.56e+00	0	40	104	0	90	65535
2026-01-16 09:16:22.52	6.00	23.27	-48.2	-85.1	3.1	1.56e+00	0	39	104	0	91	65535
2026-01-16 09:16:25.52	5.54	22.91	-48.2	-85.1	3.0	1.56e+00	0	39	104	0	91	65535
2026-01-16 09:16:28.51	5.08	22.54	-48.2	-85.1	2.9	1.57e+00	0	39	104	0	91	65535
2026-01-16 09:16:31.51	4.64	22.19	-48.2	-85.1	2.7	1.56e+00	0	40	104	0	91	65535
2026-01-16 09:16:34.50	4.21	21.83	-48.2	-85.1	3.0	1.56e+00	0	40	104	0	91	65535
2026-01-16 09:16:37.50	3.78	21.48	-48.2	-85.1	3.0	1.56e+00	0	39	104	0	91	65535
2026-01-16 09:16:40.49	3.37	21.13	-47.7	-84.6	2.9	1.57e+00	0	40	104	0	90	65535
2026-01-16 09:16:43.49	2.97	20.78	-48.2	-85.1	2.9	1.56e+00	0	39	104	0	91	65535
2026-01-16 09:16:46.48	2.57	20.44	-48.2	-85.1	2.7	1.57e+00	0	40	104	0	91	65535
2026-01-16 09:16:49.47	2.19	20.10	-48.2	-85.1	2.9	1.56e+00	0	40	104	0	91	65535
2026-01-16 09:16:52.47	1.81	19.77	-48.2	-85.1	2.9	1.56e+00	0	39	104	0	91	65535
2026-01-16 09:16:55.47	1.44	19.43	-48.2	-85.1	2.9	1.56e+00	0	40	104	0	91	65535
2026-01-16 09:16:58.46	1.08	19.10	-48.2	-85.1	3.1	1.56e+00	0	40	104	0	91	65535
2026-01-16 09:17:01.46	0.73	18.78	-48.2	-85.1	3.0	1.57e+00	0	39	104	0	91	65535
2026-01-16 09:17:04.45	0.38	18.45	-75.1	-85.1	3.1	1.56e+00	0	40	104	0	91	65535
2026-01-16 09:17:07.45	0.04	18.13	-75.1	-85.1	2.8	1.56e+00	0	40	104	0	91	65535
2026-01-16 09:17:10.44	359.71	17.82	-48.2	-85.1	3.2	1.56e+00	0	40	104	0	91	65535
2026-01-16 09:17:13.43	359.39	17.50	-46.2	-62.9	3.6	1.54e+00	0	39	104	0	64	23960
2026-01-16 09:17:16.42	359.07	17.19	-46.1	-63.0	3.8	1.49e+00	0	39	104	0	64	24160
2026-01-16 09:17:19.42	358.76	16.88	-46.1	-63.0	3.8	1.49e+00	0	39	104	0	64	24215
2026-01-16 09:17:22.42	358.46	16.58	-46.1	-63.0	3.8	1.49e+00	0	39	104	0	64	24185
2026-01-16 09:17:25.41	358.16	16.28	-46.1	-63.0	3.8	1.49e+00	0	40	104	0	64	24189
2026-01-16 09:17:28.41	357.87	15.98	-46.1	-63.0	3.8	1.49e+00	0	39	104	0	64	24156
2026-01-16 09:17:31.41	357.58	15.68	-46.0	-63.0	3.8	1.49e+00	0	40	104	0	64	24215
2026-01-16 09:17:34.38	357.31	15.39	-46.1	-63.0	3.8	1.49e+00	0	39	104	0	64	24150
2026-01-16 09:17:37.37	357.03	15.10	-46.1	-63.0	3.8	1.49e+00	0	40	104	0	64	24171
2026-01-16 09:17:40.37	356.76	14.81	-49.7	-65.0	3.8	1.49e+00	0	40	104	0	69	23025
2026-01-16 09:17:43.35	356.50	14.53	-49.8	-65.1	3.8	1.49e+00	0	40	104	0	70	21978
2026-01-16 09:17:46.35	356.24	14.24	-50.1	-65.5	3.8	1.49e+00	0	39	104	0	70	22809
2026-01-16 09:17:49.34	355.99	13.97	-50.3	-65.6	3.8	1.49e+00	0	40	104	0	71	21946
2026-01-16 09:17:52.34	355.74	13.69	-50.5	-65.7	3.8	1.49e+00	0	40	104	0	71	22231
2026-01-16 09:17:55.32	355.50	13.41	-50.4	-65.8	3.8	1.49e+00	0	39	104	0	71	22296
2026-01-16 09:17:58.31	355.26	13.14	-50.4	-65.8	3.8	1.49e+00	0	40	104	0	71	22433
2026-01-16 09:18:01.30	355.03	12.87	-50.5	-65.8	3.8	1.49e+00	0	40	104	0	71	22374
2026-01-16 09:18:04.30	354.80	12.61	-50.3	-65.8	3.8	1.49e+00	0	39	104	0	71	22285
2026-01-16 09:18:07.29	354.58	12.34	-50.2	-65.7	3.8	1.49e+00	0	40	104	0	71	22195
2026-01-16 09:18:10.28	354.36	12.08	-50.2	-65.7	3.8	1.49e+00	0	40	104	0	71	22107
2026-01-16 09:18:13.28	354.14	11.82	-50.2	-65.7	3.8	1.49e+00	0	40	104	0	71	22252
2026-01-16 09:18:16.27	353.93	11.56	-50.2	-65.7	3.8	1.49e+00	0	40	104	0	71	22231
2026-01-16 09:18:19.26	353.72	11.31	-50.2	-65.7	3.8	1.49e+00	0	40	104	0	71	22129
2026-01-16 09:18:22.25	353.51	11.06	-50.2	-65.7	3.8	1.49e+00	0	40	104	0	71	22162
2026-01-16 09:18:25.24	353.31	10.81	-50.2	-65.7	3.8	1.49e+00	0	40	104	0	71	22139
2026-01-16 09:18:28.23	353.11	10.56	-50.2	-65.7	3.8	1.49e+00	0	40	104	0	71	22247
2026-01-16 09:18:31.23	352.92	10.31	-50.2	-65.7	3.8	1.49e+00	0	40	104	0	71	22109
2026-01-16 09:18:34.23	352.73	10.07	-50.2	-65.7	3.8	1.49e+00	0	40	104	0	71	22162
2026-01-16 09:18:37.23	352.54	9.82	-50.2	-65.7	3.8	1.49e+00	0	40	104	0	71	22197
2026-01-16 09:18:40.23	352.35	9.58	-50.2	-65.7	3.8	1.49e+00	0	40	104	0	71	22092
2026-01-16 09:18:43.22	352.17	9.35	-50.2	-65.7	3.8	1.49e+00	0	40	104	0	71	22097
2026-01-16 09:18:46.21	351.99	9.11	-50.2	-65.7	3.8	1.49e+00	0	40	104	0	71	22061
2026-01-16 09:18:49.21	351.82	8.88	-50.2	-65.7	3.8	1.49e+00	0	40	104	0	71	22119
2026-01-16 09:18:52.20	351.65	8.64	-50.2	-65.7	3.8	1.49e+00	0	40	104	0	71	22155
2026-01-16 09:18:55.20	351.48	8.41	-50.2	-65.7	3.8	1.49e+00	0	40	104	0	71	22033
2026-01-16 09:18:58.20	351.31	8.18	-50.2	-65.7	3.8	1.49e+00	0	40	104	0	71	22128
2026-01-16 09:19:01.19	351.15	7.96	-50.2	-65.7	3.8	1.49e+00	0	40	104	0	71	22136
2026-01-16 09:19:04.18	350.99	7.73	-50.2	-65.7	3.8	1.49e+00	0	40	104	0	71	22185
2026-01-16 09:19:07.17	350.83	7.51	-50.2	-65.7	3.8	1.49e+00	0	40	104	0	71	22127
2026-01-16 09:19:10.16	350.67	7.29	-50.2	-65.7	3.8	1.49e+00	0	40	104	0	71	22056
2026-01-16 09:19:13.15	350.52	7.07	-50.2	-65.7	3.8	1.49e+00	0	40	104	0	71	22108
2026-01-16 09:19:16.14	350.37	6.85	-50.2	-65.7	3.8	1.49e+00	0	40	104	0	71	22043
2026-01-16 09:19:19.14	350.22	6.63	-50.2	-65.7	3.8	1.49e+00	0	40	104	0	71	22147
2026-01-16 09:19:22.13	350.08	6.42	-50.2	-65.7	3.8	1.49e+00	0	40	104	0	71	22156
2026-01-16 09:19:25.12	349.93	6.21	-50.2	-65.7	3.8	1.49e+00	0	40	104	0	71	22127
2026-01-16 09:19:28.11	349.79	6.00	-50.2	-65.7	3.8	1.49e+00	0	40	104	0	71	22065
2026-01-16 09:19:31.10	349.65	5.79	-50.2	-65.7	3.8	1.49e+00	0	40	104	0	71	22199
2026-01-16 09:19:34.10	349.51	5.58	-50.2	-65.7	3.8	1.49e+00	0	40	104	0	71	22074
2026-01-16 09:19:37.09	349.38	5.37	-50.2	-65.7	3.8	1.49e+00	0	40	104	0	71	22074
2026-01-16 09:19:40.09	349.25	5.16	-50.2	-65.7	3.8	1.49e+00	0	40	104	0	71	22210
2026-01-16 09:19:43.08	349.12	4.96	-50.2	-65.7	3.8	1.49e+00	0	40	104	0	71	22118

#Closed at: 2026-01-16 09:19:44
#Recorded file [0 MB]: D:/Data/31040_260116_120726.dat