passes_logs/2026/01/16/T1/T1__20260116_092742_NOAA_20_JPSS-1_rec.log

#Pass ID: 20260116_092742_NOAA 20 (JPSS-1)
#Satellite: NOAA 20 (JPSS-1)
#Configuration: NOAA 20
#almurnet v.1.7.20251203
#Start time: 2026-01-16 09:27:44

#Version: 2.0.20230620
#Station: T1
#Location: 37.570604 lon 55.790049 lat
#TLE: 1 43013U 17073A   26015.89389188  .00000026  00000+0  33113-4 0  9999
#TLE: 2 43013  98.7636 316.8238 0001460  37.8997 322.2282 14.19536128422860

#Time	Az	El	Level	Level2	SNR	BER	BlckErr	Temp	State	Recorded	gain1	gain2
2026-01-16 09:27:44.06	145.62	5.10	-50.2	-65.8	3.8	1.49e+00	0	38	0	0	71	22301
2026-01-16 09:27:47.05	145.55	5.31	-50.2	-65.7	3.8	1.49e+00	0	38	104	0	72	20899
2026-01-16 09:27:50.03	145.47	5.53	-50.2	-65.7	3.8	1.49e+00	0	38	104	0	72	20936
2026-01-16 09:27:53.03	145.40	5.75	-50.2	-65.7	3.8	1.49e+00	0	38	104	0	72	20963
2026-01-16 09:27:56.02	145.32	5.97	-50.2	-65.7	3.8	1.49e+00	0	38	104	0	72	20922
2026-01-16 09:27:59.01	145.25	6.19	-50.2	-65.7	3.8	1.49e+00	0	39	104	0	72	20973
2026-01-16 09:28:02.00	145.17	6.41	-50.2	-65.7	3.8	1.49e+00	0	39	104	0	72	20985
2026-01-16 09:28:04.99	145.09	6.63	-50.2	-65.7	3.8	1.49e+00	0	39	104	0	72	20917
2026-01-16 09:28:07.99	145.01	6.86	-50.2	-65.7	3.8	1.49e+00	0	39	104	0	72	21003
2026-01-16 09:28:10.98	144.93	7.09	-50.2	-65.7	3.8	1.49e+00	0	39	104	0	72	20931
2026-01-16 09:28:13.98	144.84	7.32	-50.2	-65.7	3.8	1.49e+00	0	39	104	0	72	20976
2026-01-16 09:28:16.96	144.76	7.55	-50.2	-65.8	3.8	1.49e+00	0	39	104	0	72	21045
2026-01-16 09:28:19.95	144.67	7.79	-50.2	-65.7	3.8	1.49e+00	0	39	104	0	72	20996
2026-01-16 09:28:22.95	144.58	8.02	-50.2	-65.7	3.8	1.49e+00	0	39	104	0	72	20978
2026-01-16 09:28:25.93	144.49	8.26	-50.2	-65.7	3.8	1.49e+00	0	39	104	0	72	21011
2026-01-16 09:28:28.93	144.40	8.50	-50.2	-65.7	3.8	1.49e+00	0	40	104	0	72	20979
2026-01-16 09:28:31.93	144.31	8.75	-50.2	-65.7	3.8	1.49e+00	0	39	104	0	72	21011
2026-01-16 09:28:34.92	144.22	8.99	-50.2	-65.7	3.8	1.49e+00	0	39	104	0	72	20990
2026-01-16 09:28:37.92	144.12	9.24	-50.2	-65.7	3.8	1.49e+00	0	40	104	0	72	20987
2026-01-16 09:28:40.91	144.02	9.49	-50.2	-65.7	3.8	1.49e+00	0	40	104	0	72	20976
2026-01-16 09:28:43.91	143.92	9.75	-50.2	-65.7	3.8	1.49e+00	0	40	104	0	72	20951
2026-01-16 09:28:46.90	143.82	10.00	-50.2	-65.8	3.8	1.49e+00	0	40	104	0	72	21087
2026-01-16 09:28:49.89	143.72	10.26	-50.2	-65.8	3.8	1.49e+00	0	40	104	0	72	21030
2026-01-16 09:28:52.88	143.61	10.52	-50.2	-65.8	3.8	1.49e+00	0	40	104	0	72	21033
2026-01-16 09:28:55.88	143.50	10.78	-50.2	-65.7	3.8	1.49e+00	0	40	104	0	72	20985
2026-01-16 09:28:58.87	143.39	11.05	-50.2	-65.8	3.8	1.49e+00	0	40	104	0	72	21029
2026-01-16 09:29:01.86	143.28	11.32	-50.2	-65.8	3.8	1.49e+00	0	40	104	0	72	21086
2026-01-16 09:29:04.85	143.17	11.59	-50.2	-65.8	3.8	1.49e+00	0	40	104	0	72	21025
2026-01-16 09:29:07.85	143.05	11.87	-50.2	-65.7	3.8	1.49e+00	0	40	104	0	72	20993
2026-01-16 09:29:10.84	142.93	12.14	-50.2	-65.8	3.8	1.49e+00	0	40	104	0	72	21050
2026-01-16 09:29:13.84	142.81	12.43	-50.2	-65.8	3.8	1.49e+00	0	40	104	0	72	21024
2026-01-16 09:29:16.83	142.69	12.71	-50.2	-65.8	3.8	1.49e+00	0	40	104	0	72	21135
2026-01-16 09:29:19.81	142.56	13.00	-50.2	-65.8	3.8	1.49e+00	0	40	104	0	72	21133
2026-01-16 09:29:22.81	142.43	13.29	-50.2	-65.8	3.8	1.49e+00	0	40	104	0	72	21031
2026-01-16 09:29:25.80	142.30	13.58	-50.2	-65.8	3.8	1.49e+00	0	40	104	0	72	21042
2026-01-16 09:29:28.79	142.17	13.88	-50.2	-65.8	3.8	1.49e+00	0	40	104	0	72	21066
2026-01-16 09:29:31.79	142.03	14.18	-50.3	-65.8	3.8	1.49e+00	0	40	104	0	72	21089
2026-01-16 09:29:34.79	141.89	14.49	-50.2	-65.8	3.8	1.49e+00	0	40	104	0	72	21073
2026-01-16 09:29:37.78	141.75	14.79	-50.2	-65.8	3.8	1.49e+00	0	40	104	0	72	21107
2026-01-16 09:29:40.77	141.60	15.10	-50.2	-65.7	3.8	1.49e+00	0	40	104	0	72	20981
2026-01-16 09:29:43.76	141.45	15.42	-50.2	-65.8	3.8	1.49e+00	0	40	104	0	72	21077
2026-01-16 09:29:46.76	141.30	15.74	-50.2	-65.8	3.8	1.49e+00	0	40	104	0	72	21120
2026-01-16 09:29:49.76	141.14	16.07	-50.2	-65.8	3.8	1.49e+00	0	40	104	0	72	21162
2026-01-16 09:29:52.75	140.98	16.39	-50.2	-65.8	3.8	1.49e+00	0	40	104	0	72	21074
2026-01-16 09:29:55.73	140.82	16.72	-50.2	-65.8	3.8	1.49e+00	0	40	104	0	72	21144
2026-01-16 09:29:58.73	140.65	17.06	-50.2	-65.8	3.8	1.49e+00	0	40	104	0	72	21111
2026-01-16 09:30:01.72	140.48	17.40	-50.2	-65.8	3.8	1.49e+00	0	40	104	0	72	21136
2026-01-16 09:30:04.71	140.30	17.75	-50.2	-65.8	3.8	1.49e+00	0	40	104	0	72	21148
2026-01-16 09:30:07.70	140.12	18.10	-50.2	-65.7	3.8	1.49e+00	0	40	104	0	72	20994
2026-01-16 09:30:10.69	139.94	18.45	-50.3	-65.8	3.8	1.49e+00	0	40	104	0	72	21136
2026-01-16 09:30:13.68	139.75	18.81	-50.2	-65.8	3.8	1.49e+00	0	40	104	0	72	21051
2026-01-16 09:30:16.67	139.55	19.17	-50.2	-65.8	3.8	1.49e+00	0	40	104	0	72	21095
2026-01-16 09:30:19.66	139.35	19.54	-50.3	-65.8	3.8	1.49e+00	0	40	104	0	72	21124
2026-01-16 09:30:22.66	139.15	19.92	-50.2	-65.8	3.8	1.49e+00	0	40	104	0	72	21180
2026-01-16 09:30:25.65	138.94	20.30	-50.2	-65.7	3.8	1.49e+00	0	39	104	0	72	21004
2026-01-16 09:30:28.65	138.73	20.69	-50.2	-65.8	3.8	1.49e+00	0	39	104	0	72	21048
2026-01-16 09:30:31.64	138.51	21.08	-50.2	-65.8	3.8	1.49e+00	0	39	104	0	72	21146
2026-01-16 09:30:34.63	138.28	21.47	-50.2	-65.8	3.8	1.49e+00	0	39	104	0	72	21055
2026-01-16 09:30:37.62	138.05	21.87	-50.2	-65.8	3.8	1.49e+00	0	40	104	0	72	21143
2026-01-16 09:30:40.62	137.81	22.28	-50.2	-65.8	3.8	1.49e+00	0	39	104	0	72	21145
2026-01-16 09:30:43.61	137.56	22.70	-50.2	-65.7	3.8	1.49e+00	0	39	104	0	72	21003
2026-01-16 09:30:46.60	137.31	23.12	-50.2	-65.8	3.8	1.49e+00	0	40	104	0	72	21047
2026-01-16 09:30:49.59	137.05	23.55	-50.2	-65.8	3.8	1.49e+00	0	39	104	0	72	21059
2026-01-16 09:30:52.58	136.79	23.98	-50.3	-65.8	3.8	1.49e+00	0	39	104	0	72	21022
2026-01-16 09:30:55.57	136.51	24.42	-50.2	-65.8	3.8	1.49e+00	0	39	104	0	72	21099
2026-01-16 09:30:58.57	136.23	24.87	-50.2	-65.8	3.8	1.49e+00	0	39	104	0	72	21192
2026-01-16 09:31:01.56	135.94	25.32	-50.2	-65.8	3.8	1.49e+00	0	39	104	0	72	21101
2026-01-16 09:31:04.55	135.64	25.78	-50.2	-65.8	3.8	1.49e+00	0	39	104	0	72	21135
2026-01-16 09:31:07.54	135.33	26.25	-50.2	-65.8	3.8	1.49e+00	0	39	104	0	72	21094
2026-01-16 09:31:10.53	135.01	26.72	-50.2	-65.8	3.8	1.49e+00	0	40	104	0	72	21091
2026-01-16 09:31:13.53	134.69	27.21	-50.2	-65.8	3.8	1.49e+00	0	40	104	0	72	21060
2026-01-16 09:31:16.52	134.35	27.70	-50.2	-65.8	3.8	1.49e+00	0	40	104	0	72	21107
2026-01-16 09:31:19.52	134.00	28.20	-50.2	-65.8	3.8	1.49e+00	0	40	104	0	72	21097
2026-01-16 09:31:22.51	133.64	28.70	-50.2	-65.8	3.8	1.49e+00	0	40	104	0	72	21074
2026-01-16 09:31:25.50	133.26	29.22	-50.2	-65.8	3.8	1.49e+00	0	40	104	0	72	21073
2026-01-16 09:31:28.49	132.88	29.74	-50.2	-65.8	3.8	1.49e+00	0	40	104	0	72	21099
2026-01-16 09:31:31.48	132.48	30.27	-50.3	-65.8	3.8	1.49e+00	0	40	104	0	72	21096
2026-01-16 09:31:34.48	132.07	30.81	-50.2	-65.8	3.8	1.49e+00	0	40	104	0	72	21159
2026-01-16 09:31:37.47	131.65	31.35	-50.2	-65.8	3.8	1.49e+00	0	40	104	0	72	21148
2026-01-16 09:31:40.46	131.20	31.91	-50.2	-65.8	3.8	1.49e+00	0	39	104	0	72	21107
2026-01-16 09:31:43.45	130.75	32.47	-50.2	-65.8	3.8	1.49e+00	0	40	104	0	72	21100
2026-01-16 09:31:46.44	130.28	33.04	-50.2	-65.7	3.8	1.49e+00	0	40	104	0	72	20989
2026-01-16 09:31:49.43	129.79	33.62	-50.2	-65.8	3.8	1.49e+00	0	40	104	0	72	21089
2026-01-16 09:31:52.43	129.28	34.22	-50.3	-65.8	3.8	1.49e+00	0	40	104	0	72	21060
2026-01-16 09:31:55.41	128.75	34.81	-50.2	-65.8	3.8	1.49e+00	0	40	104	0	72	21153
2026-01-16 09:31:58.41	128.20	35.42	-50.2	-65.8	3.8	1.49e+00	0	40	104	0	72	21034
2026-01-16 09:32:01.40	127.64	36.03	-50.2	-65.8	3.8	1.49e+00	0	40	104	0	72	21042
2026-01-16 09:32:04.39	127.05	36.66	-50.2	-65.8	3.8	1.49e+00	0	40	104	0	72	21029
2026-01-16 09:32:07.39	126.43	37.29	-50.2	-65.8	3.8	1.49e+00	0	40	104	0	72	21059
2026-01-16 09:32:10.38	125.79	37.93	-50.2	-65.8	3.8	1.49e+00	0	40	104	0	72	21140
2026-01-16 09:32:13.36	125.13	38.58	-50.2	-65.8	3.8	1.49e+00	0	40	104	0	72	21099
2026-01-16 09:32:16.36	124.43	39.24	-50.3	-65.8	3.8	1.49e+00	0	40	104	0	72	21131
2026-01-16 09:32:19.35	123.71	39.90	-50.3	-65.8	3.8	1.49e+00	0	40	104	0	72	21096
2026-01-16 09:32:22.34	122.96	40.57	-50.3	-65.8	3.8	1.49e+00	0	40	104	0	72	21108
2026-01-16 09:32:25.33	122.18	41.25	-50.3	-65.8	3.8	1.49e+00	0	40	104	0	72	21122
2026-01-16 09:32:28.33	121.36	41.94	-50.3	-65.8	3.8	1.49e+00	0	40	104	0	72	21069
2026-01-16 09:32:31.32	120.50	42.63	-50.3	-65.8	3.8	1.49e+00	0	40	104	0	72	21167
2026-01-16 09:32:34.32	119.61	43.32	-50.3	-65.8	3.8	1.49e+00	0	40	104	0	72	21200
2026-01-16 09:32:37.30	118.68	44.02	-50.2	-65.8	3.8	1.49e+00	0	40	104	0	72	21156
2026-01-16 09:32:40.29	117.71	44.73	-50.2	-65.8	3.8	1.49e+00	0	40	104	0	72	21161
2026-01-16 09:32:43.29	116.69	45.43	-50.3	-65.8	3.8	1.49e+00	0	40	104	0	72	21106
2026-01-16 09:32:46.29	115.62	46.15	-50.3	-65.8	3.8	1.49e+00	0	40	104	0	72	21032
2026-01-16 09:32:49.28	114.50	46.85	-50.1	-65.8	3.8	1.49e+00	0	40	104	0	72	21078
2026-01-16 09:32:52.27	113.34	47.56	-50.0	-65.7	3.8	1.49e+00	0	40	104	0	72	20948
2026-01-16 09:32:55.26	112.12	48.27	-50.0	-65.7	3.8	1.49e+00	0	40	104	0	71	22247
2026-01-16 09:32:58.26	110.84	48.98	-49.5	-65.7	3.8	1.49e+00	0	40	104	0	71	22142
2026-01-16 09:33:01.25	109.50	49.67	-50.3	-65.9	3.8	1.49e+00	0	40	104	0	71	22548
2026-01-16 09:33:04.24	108.10	50.36	-50.3	-65.8	3.8	1.49e+00	0	40	104	0	71	22460
2026-01-16 09:33:07.23	106.63	51.05	-50.3	-65.8	3.8	1.49e+00	0	40	104	0	71	22434
2026-01-16 09:33:10.23	105.09	51.72	-50.3	-65.8	3.8	1.49e+00	0	40	104	0	71	22479
2026-01-16 09:33:13.22	103.49	52.38	-50.3	-65.8	3.8	1.49e+00	0	40	104	0	71	22408
2026-01-16 09:33:16.22	101.80	53.02	-50.3	-65.8	3.8	1.49e+00	0	40	104	0	71	22519
2026-01-16 09:33:19.21	100.05	53.65	-50.3	-65.9	3.8	1.49e+00	0	40	104	0	71	22538
2026-01-16 09:33:22.20	98.23	54.25	-50.3	-65.8	3.8	1.49e+00	0	40	104	0	71	22455
2026-01-16 09:33:25.20	96.31	54.83	-50.3	-65.8	3.8	1.49e+00	0	40	104	0	71	22468
2026-01-16 09:33:28.18	94.34	55.38	-50.3	-65.8	3.8	1.49e+00	0	41	104	0	71	22440
2026-01-16 09:33:31.18	92.27	55.91	-50.3	-65.8	3.8	1.49e+00	0	40	104	0	71	22485
2026-01-16 09:33:34.17	90.14	56.40	-50.3	-65.8	3.8	1.49e+00	0	40	104	0	71	22419
2026-01-16 09:33:37.17	87.92	56.85	-50.3	-65.8	3.8	1.49e+00	0	40	104	0	71	22449
2026-01-16 09:33:40.16	85.64	57.26	-50.3	-65.8	3.8	1.49e+00	0	40	104	0	71	22516
2026-01-16 09:33:43.14	83.30	57.64	-50.3	-65.9	3.8	1.49e+00	0	40	104	0	71	22545
2026-01-16 09:33:46.14	80.89	57.96	-50.3	-65.9	3.8	1.49e+00	0	40	104	0	71	22535
2026-01-16 09:33:49.13	78.42	58.24	-50.3	-65.9	3.8	1.49e+00	0	40	104	0	71	22545
2026-01-16 09:33:52.11	75.92	58.47	-50.3	-65.9	3.8	1.49e+00	0	40	104	0	71	22541
2026-01-16 09:33:55.10	73.37	58.65	-50.3	-65.8	3.8	1.49e+00	0	41	104	0	71	22450
2026-01-16 09:33:58.10	70.78	58.78	-50.3	-65.8	3.8	1.49e+00	0	40	104	0	71	22432
2026-01-16 09:34:01.09	68.18	58.85	-50.3	-65.9	3.8	1.49e+00	0	40	104	0	71	22551
2026-01-16 09:34:04.09	65.57	58.87	-50.3	-65.9	3.8	1.49e+00	0	40	104	0	71	22707
2026-01-16 09:34:07.08	62.96	58.83	-50.3	-65.9	3.8	1.49e+00	0	40	104	0	71	22575
2026-01-16 09:34:10.07	60.37	58.74	-50.3	-65.8	3.8	1.49e+00	0	41	104	0	71	22492
2026-01-16 09:34:13.07	57.79	58.59	-50.3	-65.8	3.8	1.49e+00	0	40	104	0	71	22513
2026-01-16 09:34:16.06	55.26	58.39	-50.3	-65.8	3.8	1.49e+00	0	41	104	0	71	22454
2026-01-16 09:34:19.06	52.76	58.14	-50.3	-65.8	3.8	1.49e+00	0	40	104	0	71	22479
2026-01-16 09:34:22.05	50.32	57.85	-50.3	-65.9	3.8	1.49e+00	0	40	104	0	71	22566
2026-01-16 09:34:25.04	47.94	57.50	-50.3	-65.8	3.8	1.49e+00	0	40	104	0	71	22493
2026-01-16 09:34:28.04	45.61	57.11	-50.3	-65.8	3.8	1.49e+00	0	40	104	0	71	22478
2026-01-16 09:34:31.03	43.36	56.68	-50.3	-65.8	3.8	1.49e+00	0	41	104	0	71	22499
2026-01-16 09:34:34.02	41.18	56.22	-50.3	-65.8	3.8	1.49e+00	0	41	104	0	71	22513
2026-01-16 09:34:37.02	39.07	55.72	-50.3	-65.9	3.8	1.49e+00	0	41	104	0	71	22657
2026-01-16 09:34:40.01	37.04	55.18	-50.3	-65.9	3.8	1.49e+00	0	40	104	0	71	22554
2026-01-16 09:34:43.00	35.10	54.62	-50.3	-65.9	3.8	1.49e+00	0	40	104	0	71	22592
2026-01-16 09:34:45.99	33.22	54.03	-50.3	-65.9	3.8	1.49e+00	0	40	104	0	71	22523
2026-01-16 09:34:48.99	31.42	53.42	-50.3	-65.9	3.8	1.49e+00	0	41	104	0	71	22606
2026-01-16 09:34:51.99	29.70	52.79	-50.3	-65.9	3.8	1.49e+00	0	41	104	0	71	22534
2026-01-16 09:34:54.98	28.05	52.14	-50.6	-66.0	3.8	1.49e+00	0	40	104	0	72	21530
2026-01-16 09:34:57.97	26.48	51.48	-50.8	-66.0	3.8	1.49e+00	0	40	104	0	72	21602
2026-01-16 09:35:00.97	24.97	50.81	-50.8	-65.9	3.8	1.49e+00	0	41	104	0	72	21491
2026-01-16 09:35:03.95	23.54	50.13	-50.6	-65.9	3.8	1.49e+00	0	41	104	0	72	21451
2026-01-16 09:35:06.94	22.16	49.43	-50.6	-65.2	3.8	1.49e+00	0	40	104	0	72	19735
2026-01-16 09:35:09.93	20.85	48.74	-47.1	-51.2	13.4	7.62e-04	0	41	0	2097152	66	5540
2026-01-16 09:35:12.92	19.60	48.03	-46.4	-50.0	14.6	7.00e-07	0	40	0	8388608	64	5460
2026-01-16 09:35:15.91	18.40	47.33	-46.3	-49.9	14.6	0.00e+00	0	41	0	13631488	64	5377
2026-01-16 09:35:18.90	17.26	46.62	-45.8	-48.9	15.7	0.00e+00	0	41	0	18874368	63	5076
2026-01-16 09:35:21.89	16.17	45.92	-45.5	-48.5	16.1	0.00e+00	0	41	0	25165824	63	4868
2026-01-16 09:35:24.88	15.12	45.21	-45.2	-48.2	16.4	0.00e+00	0	41	0	30408704	62	4956
2026-01-16 09:35:27.88	14.12	44.51	-45.2	-48.3	16.3	0.00e+00	0	40	0	35651584	61	5281
2026-01-16 09:35:30.88	13.16	43.81	-44.7	-47.5	17.1	0.00e+00	0	41	0	41943040	61	4867
2026-01-16 09:35:33.87	12.25	43.11	-45.0	-47.9	16.7	0.00e+00	0	41	0	47185920	61	5071
2026-01-16 09:35:36.87	11.37	42.42	-45.4	-48.6	16.0	0.00e+00	0	40	0	52428800	61	5473
2026-01-16 09:35:39.87	10.53	41.73	-45.5	-48.7	15.9	0.00e+00	0	41	0	58720256	61	5548
2026-01-16 09:35:42.86	9.73	41.05	-46.0	-49.3	15.3	0.00e+00	0	40	0	63963136	62	5639
2026-01-16 09:35:45.86	8.96	40.38	-46.6	-50.4	14.1	0.00e+00	0	41	0	69206016	64	5689
2026-01-16 09:35:48.85	8.22	39.71	-46.0	-49.4	15.1	0.00e+00	0	41	0	75497472	64	5044
2026-01-16 09:35:51.84	7.51	39.05	-46.2	-49.7	14.9	0.00e+00	0	41	0	80740352	63	5585
2026-01-16 09:35:54.84	6.83	38.40	-46.8	-50.8	13.6	4.50e-06	0	41	0	85983232	64	5935
2026-01-16 09:35:57.83	6.18	37.76	-47.0	-51.1	13.4	1.22e-05	0	41	0	92274688	64	6144
2026-01-16 09:36:00.82	5.55	37.12	-47.0	-51.1	13.4	1.67e-05	0	41	0	97517568	64	6144
2026-01-16 09:36:03.81	4.95	36.50	-46.6	-50.5	14.0	4.50e-06	0	41	0	102760448	64	5779
2026-01-16 09:36:06.81	4.37	35.88	-46.0	-49.7	14.8	0.00e+00	0	41	0	109051904	63	5587
2026-01-16 09:36:09.79	3.81	35.27	-45.8	-49.3	15.3	0.00e+00	0	41	0	114294784	63	5296
2026-01-16 09:36:12.78	3.28	34.67	-46.0	-49.4	15.1	0.00e+00	0	41	0	120586240	63	5394
2026-01-16 09:36:15.77	2.76	34.08	-45.7	-48.9	15.6	7.00e-07	0	41	0	125829120	63	5087
2026-01-16 09:36:18.77	2.26	33.49	-45.5	-48.7	15.9	0.00e+00	0	41	0	131072000	63	4943
2026-01-16 09:36:21.76	1.78	32.92	-45.7	-48.9	15.7	0.00e+00	0	41	0	137363456	63	5073
2026-01-16 09:36:24.75	1.31	32.35	-45.4	-48.7	15.9	0.00e+00	0	41	0	142606336	62	5237
2026-01-16 09:36:27.75	0.86	31.79	-45.4	-48.6	16.0	0.00e+00	0	41	0	147849216	62	5162
2026-01-16 09:36:30.74	0.43	31.24	-46.0	-49.3	15.3	0.00e+00	0	41	0	154140672	62	5631
2026-01-16 09:36:33.73	0.01	30.70	-46.3	-49.9	14.7	1.50e-06	0	40	0	159383552	63	5706
2026-01-16 09:36:36.72	359.61	30.17	-46.0	-49.3	15.2	0.00e+00	0	41	0	164626432	63	5310
2026-01-16 09:36:39.71	359.22	29.65	-45.7	-49.0	15.5	0.00e+00	0	41	0	170917888	63	5143
2026-01-16 09:36:42.72	358.84	29.13	-45.5	-48.8	15.7	0.00e+00	0	41	0	176160768	62	5283
2026-01-16 09:36:45.71	358.47	28.62	-45.8	-49.1	15.5	0.00e+00	0	41	0	181403648	62	5480
2026-01-16 09:36:48.70	358.12	28.12	-45.8	-49.0	15.5	0.00e+00	0	41	0	187695104	62	5417
2026-01-16 09:36:51.69	357.78	27.62	-45.7	-49.0	15.6	0.00e+00	0	41	0	192937984	62	5420
2026-01-16 09:36:54.69	357.44	27.14	-45.7	-48.9	15.7	0.00e+00	0	41	0	198180864	62	5358
2026-01-16 09:36:57.67	357.12	26.66	-45.7	-48.9	15.6	0.00e+00	0	41	0	204472320	62	5396
2026-01-16 09:37:00.66	356.81	26.19	-45.6	-48.9	15.6	0.00e+00	0	41	0	209715200	62	5355
2026-01-16 09:37:03.66	356.51	25.73	-45.3	-48.4	16.1	0.00e+00	0	41	0	214958080	62	5057
2026-01-16 09:37:06.65	356.21	25.27	-45.2	-48.3	16.2	0.00e+00	0	41	0	221249536	62	5005
2026-01-16 09:37:09.64	355.93	24.82	-45.3	-48.4	16.1	0.00e+00	0	41	0	226492416	62	5066
2026-01-16 09:37:12.63	355.65	24.38	-45.4	-48.6	15.9	0.00e+00	0	41	0	232783872	62	5195
2026-01-16 09:37:15.62	355.38	23.94	-45.2	-48.5	16.0	0.00e+00	0	41	0	238026752	62	5156
2026-01-16 09:37:18.62	355.12	23.51	-45.2	-48.5	16.0	0.00e+00	0	41	0	243269632	62	5128
2026-01-16 09:37:21.61	354.86	23.09	-45.1	-48.1	16.4	0.00e+00	0	41	0	249561088	62	4909
2026-01-16 09:37:24.60	354.62	22.67	-45.0	-48.1	16.5	0.00e+00	0	41	0	254803968	62	4871
2026-01-16 09:37:27.60	354.38	22.26	-45.0	-48.0	16.4	0.00e+00	0	41	0	260046848	61	5156
2026-01-16 09:37:30.59	354.14	21.86	-44.8	-47.8	16.7	0.00e+00	0	41	0	266338304	61	5036
2026-01-16 09:37:33.59	353.91	21.46	-44.7	-47.6	16.9	0.00e+00	0	41	0	271581184	61	4883
2026-01-16 09:37:36.58	353.69	21.06	-44.4	-47.2	17.2	0.00e+00	0	41	0	276824064	60	4966
2026-01-16 09:37:39.57	353.48	20.68	-44.4	-47.1	17.4	0.00e+00	0	41	0	283115520	60	4886
2026-01-16 09:37:42.57	353.27	20.29	-44.4	-47.1	17.4	0.00e+00	0	41	0	288358400	60	4896
2026-01-16 09:37:45.57	353.06	19.92	-44.5	-47.4	17.1	0.00e+00	0	41	0	294649856	60	5065
2026-01-16 09:37:48.56	352.86	19.55	-44.6	-47.5	16.9	0.00e+00	0	41	0	299892736	60	5140
2026-01-16 09:37:51.55	352.67	19.18	-44.4	-47.4	17.1	0.00e+00	0	41	0	305135616	60	5058
2026-01-16 09:37:54.54	352.48	18.82	-44.5	-47.5	16.9	0.00e+00	0	41	0	311427072	60	5138
2026-01-16 09:37:57.54	352.29	18.46	-44.4	-47.4	17.0	0.00e+00	0	41	0	316669952	60	5084
2026-01-16 09:38:00.53	352.11	18.11	-44.4	-47.5	17.0	0.00e+00	0	41	0	321912832	60	5133
2026-01-16 09:38:03.52	351.94	17.76	-44.3	-47.4	17.0	0.00e+00	0	41	0	328204288	60	5073
2026-01-16 09:38:06.52	351.76	17.42	-44.4	-47.3	17.1	0.00e+00	0	41	0	333447168	60	5008
2026-01-16 09:38:09.51	351.60	17.08	-44.4	-47.2	17.2	0.00e+00	0	41	0	338690048	60	4960
2026-01-16 09:38:12.50	351.43	16.75	-44.5	-47.4	17.1	0.00e+00	0	41	0	344981504	60	5055
2026-01-16 09:38:15.50	351.27	16.42	-44.6	-47.6	16.8	0.00e+00	0	41	0	350224384	60	5218
2026-01-16 09:38:18.49	351.12	16.09	-44.7	-47.9	16.5	0.00e+00	0	41	0	355467264	60	5400
2026-01-16 09:38:21.49	350.96	15.77	-44.9	-48.2	16.2	0.00e+00	0	41	0	361758720	60	5533
2026-01-16 09:38:24.48	350.81	15.45	-45.0	-48.3	16.2	0.00e+00	0	41	0	367001600	60	5595
2026-01-16 09:38:27.48	350.67	15.14	-45.1	-48.4	16.0	0.00e+00	0	41	0	372244480	60	5678
2026-01-16 09:38:30.47	350.52	14.83	-45.0	-48.4	16.0	0.00e+00	0	41	0	378535936	60	5686
2026-01-16 09:38:33.47	350.38	14.52	-44.8	-48.2	16.2	0.00e+00	0	41	0	383778816	60	5580
2026-01-16 09:38:36.46	350.25	14.22	-45.0	-48.3	16.0	0.00e+00	0	41	0	389021696	60	5651
2026-01-16 09:38:39.46	350.11	13.92	-45.0	-48.3	16.1	0.00e+00	0	41	0	395313152	60	5617
2026-01-16 09:38:42.46	349.98	13.63	-45.0	-48.3	16.1	0.00e+00	0	41	0	400556032	60	5611
2026-01-16 09:38:45.45	349.86	13.34	-45.1	-48.2	16.2	7.00e-07	0	41	0	406847488	61	5253
2026-01-16 09:38:48.45	349.73	13.05	-45.0	-48.4	16.0	0.00e+00	0	41	0	412090368	61	5367
2026-01-16 09:38:51.44	349.61	12.76	-44.6	-48.6	15.8	0.00e+00	0	41	0	417333248	61	5487
2026-01-16 09:38:54.44	349.49	12.48	-44.6	-48.8	15.6	0.00e+00	0	41	0	423624704	61	5618
2026-01-16 09:38:57.43	349.37	12.20	-44.8	-48.9	15.4	0.00e+00	0	41	0	428867584	61	5677
2026-01-16 09:39:00.42	349.26	11.92	-44.9	-49.1	15.2	0.00e+00	0	41	0	434110464	61	5820
2026-01-16 09:39:03.42	349.14	11.65	-45.0	-49.3	15.0	7.00e-07	0	41	0	440401920	61	5950
2026-01-16 09:39:06.42	349.03	11.38	-44.9	-49.5	14.8	0.00e+00	0	41	0	445644800	61	6082
2026-01-16 09:39:09.41	348.92	11.11	-44.9	-49.4	14.8	0.00e+00	0	41	0	450887680	61	6059
2026-01-16 09:39:12.41	348.82	10.85	-44.8	-49.4	14.8	0.00e+00	0	41	0	457179136	61	6038
2026-01-16 09:39:15.40	348.71	10.59	-44.8	-49.3	14.9	0.00e+00	0	41	0	462422016	61	5986
2026-01-16 09:39:18.39	348.61	10.33	-44.4	-49.2	15.0	0.00e+00	0	41	0	467664896	60	6234
2026-01-16 09:39:21.38	348.51	10.07	-44.3	-49.3	14.9	0.00e+00	0	41	0	473956352	60	6327
2026-01-16 09:39:24.37	348.41	9.82	-44.3	-49.3	15.0	0.00e+00	0	41	0	479199232	60	6278
2026-01-16 09:39:27.38	348.32	9.57	-44.5	-49.1	15.1	0.00e+00	0	41	0	485490688	60	6148
2026-01-16 09:39:30.38	348.22	9.32	-44.9	-49.3	14.8	0.00e+00	0	41	0	490733568	60	6346
2026-01-16 09:39:33.37	348.13	9.07	-44.7	-49.2	14.9	0.00e+00	0	41	0	495976448	60	6241
2026-01-16 09:39:36.37	348.04	8.82	-49.4	-65.7	3.8	1.49e+00	0	41	104	499122176	69	24747
2026-01-16 09:39:39.37	347.95	8.58	-49.9	-65.9	3.8	1.49e+00	0	41	104	499122176	70	24095
2026-01-16 09:39:42.36	347.86	8.34	-50.3	-66.0	3.8	1.49e+00	0	41	104	499122176	72	21572
2026-01-16 09:39:45.35	347.78	8.10	-50.4	-66.0	3.8	1.49e+00	0	41	104	499122176	72	21688
2026-01-16 09:39:48.34	347.69	7.87	-50.8	-66.1	3.8	1.49e+00	0	41	104	499122176	72	21763
2026-01-16 09:39:51.34	347.61	7.64	-50.6	-66.1	3.8	1.49e+00	0	41	104	499122176	72	21843
2026-01-16 09:39:54.33	347.53	7.40	-50.9	-66.1	3.8	1.49e+00	0	41	104	499122176	72	21946
2026-01-16 09:39:57.33	347.45	7.17	-50.9	-66.1	3.8	1.49e+00	0	41	104	499122176	72	21837
2026-01-16 09:40:00.32	347.37	6.95	-50.8	-66.1	3.8	1.49e+00	0	41	104	499122176	72	21819
2026-01-16 09:40:03.32	347.29	6.72	-50.5	-66.1	3.8	1.49e+00	0	41	104	499122176	72	21806
2026-01-16 09:40:06.31	347.22	6.50	-50.5	-66.1	3.8	1.49e+00	0	41	104	499122176	72	21759
2026-01-16 09:40:09.31	347.15	6.28	-50.5	-66.0	3.8	1.49e+00	0	41	104	499122176	72	21735
2026-01-16 09:40:12.31	347.07	6.06	-50.5	-66.1	3.8	1.49e+00	0	41	104	499122176	72	21779
2026-01-16 09:40:15.30	347.00	5.84	-50.5	-66.1	3.8	1.49e+00	0	41	104	499122176	72	21758
2026-01-16 09:40:18.29	346.93	5.62	-50.5	-66.0	3.8	1.49e+00	0	41	104	499122176	72	21686
2026-01-16 09:40:21.27	346.86	5.41	-50.5	-66.0	3.8	1.49e+00	0	41	104	499122176	72	21718
2026-01-16 09:40:24.27	346.79	5.20	-50.5	-66.0	3.8	1.49e+00	0	41	104	499122176	72	21640
2026-01-16 09:40:27.27	346.73	4.98	-50.5	-66.0	3.8	1.49e+00	0	41	104	499122176	72	21665

#Closed at: 2026-01-16 09:40:28
#Recorded file [499 MB]: D:/Data/31040_260116_122744.dat