passes_logs/2026/01/16/T1/T1__20260116_224039_KHAYYAM_rec.log

#Pass ID: 20260116_224039_KHAYYAM
#Satellite: KHAYYAM
#Configuration: KHAYYAM_480M
#almurnet v.1.7.20251203
#Start time: 2026-01-16 22:40:39

#Version: 2.0.20230620
#Station: T1
#Location: 37.570604 lon 55.790049 lat
#TLE: 1 53370U 22096A   26016.26944296  .00002688  00000+0  11195-3 0  9997
#TLE: 2 53370  97.3563 283.2565 0001591 106.1097 254.0316 15.24586395191431

#Time	Az	El	Level	Level2	SNR	BER	BlckErr	Temp	State	Recorded	gain1	gain2
2026-01-16 22:40:39.79	355.51	4.87	-50.2	-55.8	3.4	0.00e+00	0	45	0	0	72	26821
2026-01-16 22:40:41.77	355.26	5.00	-46.6	-53.2	3.9	0.00e+00	0	45	104	0	63	33198
2026-01-16 22:40:43.76	355.01	5.12	-46.6	-53.2	3.9	0.00e+00	0	45	104	0	63	33200
2026-01-16 22:40:45.74	354.76	5.25	-46.6	-53.2	3.9	0.00e+00	0	45	104	0	63	33213
2026-01-16 22:40:47.73	354.50	5.38	-46.6	-53.1	3.9	0.00e+00	0	46	104	0	63	33012
2026-01-16 22:40:49.72	354.24	5.51	-46.5	-53.2	3.9	0.00e+00	0	46	104	0	63	33339
2026-01-16 22:40:51.70	353.98	5.65	-46.6	-53.2	3.9	0.00e+00	0	46	104	0	63	33235
2026-01-16 22:40:53.69	353.71	5.78	-46.6	-53.2	3.9	0.00e+00	0	46	104	0	63	33313
2026-01-16 22:40:55.67	353.44	5.91	-46.5	-53.1	3.9	0.00e+00	0	46	104	0	63	32945
2026-01-16 22:40:57.66	353.17	6.04	-46.5	-53.2	3.9	0.00e+00	0	46	104	0	63	33136
2026-01-16 22:40:59.65	352.89	6.17	-46.5	-53.1	3.9	0.00e+00	0	46	104	0	63	32966
2026-01-16 22:41:01.64	352.61	6.31	-46.5	-53.1	3.9	0.00e+00	0	46	104	0	63	32963
2026-01-16 22:41:03.62	352.33	6.44	-46.6	-53.2	3.9	0.00e+00	0	46	104	0	63	33307
2026-01-16 22:41:05.61	352.04	6.57	-46.6	-53.2	3.9	0.00e+00	0	46	104	0	63	33171
2026-01-16 22:41:07.59	351.75	6.71	-46.6	-53.2	3.9	0.00e+00	0	47	104	0	63	33418
2026-01-16 22:41:09.58	351.46	6.84	-46.5	-53.2	3.9	0.00e+00	0	47	104	0	63	33201
2026-01-16 22:41:11.57	351.16	6.97	-46.5	-53.1	3.9	0.00e+00	0	47	104	0	63	33029
2026-01-16 22:41:13.56	350.86	7.11	-46.6	-53.2	3.9	0.00e+00	0	47	104	0	63	33142
2026-01-16 22:41:15.54	350.56	7.24	-46.6	-53.1	3.9	0.00e+00	0	47	104	0	63	33021
2026-01-16 22:41:17.53	350.25	7.38	-46.6	-53.2	3.9	0.00e+00	0	47	104	0	63	33291
2026-01-16 22:41:19.52	349.94	7.52	-46.5	-53.2	3.9	0.00e+00	0	47	104	0	63	33199
2026-01-16 22:41:21.50	349.63	7.65	-46.5	-53.2	3.9	0.00e+00	0	47	104	0	63	33135
2026-01-16 22:41:23.49	349.31	7.79	-46.5	-53.2	3.9	0.00e+00	0	47	104	0	63	33092
2026-01-16 22:41:25.48	348.98	7.93	-46.5	-53.2	3.9	0.00e+00	0	47	104	0	63	33137
2026-01-16 22:41:27.47	348.66	8.06	-46.5	-53.2	3.9	0.00e+00	0	47	104	0	63	33262
2026-01-16 22:41:29.45	348.33	8.20	-46.5	-53.2	3.9	0.00e+00	0	47	104	0	63	33171
2026-01-16 22:41:31.44	347.99	8.34	-46.5	-53.2	3.9	0.00e+00	0	47	104	0	63	33226
2026-01-16 22:41:33.43	347.65	8.48	-46.5	-53.1	3.9	0.00e+00	0	47	104	0	63	33024
2026-01-16 22:41:35.41	347.31	8.61	-46.5	-53.2	3.9	0.00e+00	0	47	104	0	63	33173
2026-01-16 22:41:37.40	346.96	8.75	-46.5	-53.2	3.9	0.00e+00	0	48	104	0	63	33089
2026-01-16 22:41:39.39	346.61	8.89	-46.5	-53.1	3.9	0.00e+00	0	47	104	0	63	33047
2026-01-16 22:41:41.37	346.26	9.03	-46.5	-53.1	3.9	0.00e+00	0	48	104	0	63	33040
2026-01-16 22:41:43.36	345.90	9.17	-46.3	-53.0	3.9	0.00e+00	0	48	104	0	64	30589
2026-01-16 22:41:45.35	345.53	9.31	-47.3	-53.8	3.8	0.00e+00	0	48	104	0	66	29985
2026-01-16 22:41:47.34	345.16	9.45	-47.0	-53.6	3.8	0.00e+00	0	48	104	0	64	32923
2026-01-16 22:41:49.35	344.79	9.59	-47.4	-54.2	3.8	0.00e+00	0	48	104	0	65	33456
2026-01-16 22:41:51.34	344.41	9.73	-46.9	-53.8	3.9	0.00e+00	0	48	104	0	65	31899
2026-01-16 22:41:53.33	344.02	9.87	-48.8	-55.2	3.7	0.00e+00	0	48	104	0	68	31249
2026-01-16 22:41:55.32	343.64	10.01	-46.7	-53.4	3.9	0.00e+00	0	48	104	0	65	30454
2026-01-16 22:41:57.31	343.24	10.14	-47.6	-54.2	3.8	0.00e+00	0	48	104	0	66	31545
2026-01-16 22:41:59.30	342.85	10.28	-48.9	-55.5	3.7	0.00e+00	0	48	104	0	68	32409
2026-01-16 22:42:01.29	342.45	10.42	-49.6	-55.6	3.7	0.00e+00	0	48	104	0	69	31119
2026-01-16 22:42:03.28	342.04	10.56	-50.5	-56.3	3.7	0.00e+00	0	48	104	0	72	28163
2026-01-16 22:42:05.34	341.61	10.71	-50.5	-56.3	3.7	0.00e+00	0	48	104	0	71	29888
2026-01-16 22:42:07.35	341.19	10.85	-51.6	-57.3	3.7	0.00e+00	0	48	104	0	73	29829
2026-01-16 22:42:09.58	340.72	11.00	-51.4	-56.9	3.7	0.00e+00	0	48	104	0	73	28744
2026-01-16 22:42:11.57	340.29	11.14	-49.7	-55.6	3.7	0.00e+00	0	48	104	0	71	27792
2026-01-16 22:42:13.57	339.86	11.28	-50.4	-56.2	3.7	0.00e+00	0	48	104	0	71	29547
2026-01-16 22:42:15.57	339.42	11.42	-51.8	-57.0	3.7	0.00e+00	0	48	104	0	74	27302
2026-01-16 22:42:17.57	338.97	11.56	-50.0	-55.8	3.7	0.00e+00	0	48	104	0	72	26811
2026-01-16 22:42:19.55	338.53	11.69	-50.3	-56.1	3.7	0.00e+00	0	48	104	0	71	29318
2026-01-16 22:42:21.55	338.07	11.83	-50.2	-56.0	3.7	0.00e+00	0	48	104	0	70	30697
2026-01-16 22:42:23.54	337.61	11.97	-50.5	-56.3	3.7	0.00e+00	0	48	104	0	71	29873
2026-01-16 22:42:25.68	337.11	12.11	-50.4	-56.1	3.7	0.00e+00	0	48	104	0	71	29210
2026-01-16 22:42:27.96	336.58	12.27	-52.2	-57.1	3.7	0.00e+00	0	48	104	0	75	26251
2026-01-16 22:42:29.95	336.10	12.40	-52.8	-57.5	3.7	0.00e+00	0	48	104	0	76	25938
2026-01-16 22:42:31.94	335.62	12.53	-52.0	-57.1	3.7	0.00e+00	0	48	104	0	76	24749
2026-01-16 22:42:33.92	335.14	12.67	-52.1	-57.2	3.7	0.00e+00	0	48	104	0	76	24975
2026-01-16 22:42:36.04	334.61	12.81	-51.8	-57.0	3.7	0.00e+00	0	48	104	0	75	25787
2026-01-16 22:42:38.03	334.12	12.94	-52.6	-57.4	3.7	0.00e+00	0	48	104	0	75	27160
2026-01-16 22:42:40.02	333.61	13.07	-52.7	-57.5	3.7	0.00e+00	0	48	104	0	76	25937
2026-01-16 22:42:42.22	333.05	13.21	-51.8	-56.9	3.7	0.00e+00	0	48	104	0	75	25652
2026-01-16 22:42:44.21	332.54	13.34	-52.0	-57.0	3.7	0.00e+00	0	48	104	0	75	25748
2026-01-16 22:42:46.22	332.01	13.47	-52.5	-57.3	3.7	0.00e+00	0	48	104	0	75	26639
2026-01-16 22:42:48.22	331.48	13.59	-52.4	-57.3	3.7	0.00e+00	0	48	104	0	75	26686
2026-01-16 22:42:50.21	330.95	13.72	-52.6	-57.4	3.7	0.00e+00	0	48	104	0	75	27088
2026-01-16 22:42:52.20	330.42	13.84	-52.7	-57.4	3.7	0.00e+00	0	48	104	0	76	25416
2026-01-16 22:42:54.22	329.87	13.97	-52.6	-57.2	3.7	0.00e+00	0	49	104	0	76	25029
2026-01-16 22:42:56.23	329.31	14.09	-52.7	-57.1	3.7	0.00e+00	0	48	104	0	76	24609
2026-01-16 22:42:58.48	328.69	14.22	-52.7	-57.1	3.7	0.00e+00	0	48	104	0	76	24569
2026-01-16 22:43:00.47	328.13	14.34	-52.4	-57.0	3.7	0.00e+00	0	48	104	0	76	24356
2026-01-16 22:43:02.46	327.56	14.46	-50.7	-56.2	3.7	0.00e+00	0	48	104	0	73	26375
2026-01-16 22:43:04.47	326.99	14.57	-51.3	-56.5	3.7	0.00e+00	0	48	104	0	73	27504
2026-01-16 22:43:06.56	326.39	14.69	-51.6	-56.8	3.7	0.00e+00	0	48	104	0	73	28441
2026-01-16 22:43:08.55	325.81	14.80	-50.4	-56.0	3.7	0.00e+00	0	48	104	0	72	27479
2026-01-16 22:43:10.64	325.19	14.91	-51.2	-56.6	3.7	0.00e+00	0	48	104	0	73	27566
2026-01-16 22:43:12.64	324.60	15.02	-52.9	-57.5	3.7	0.00e+00	0	48	104	0	76	25876
2026-01-16 22:43:14.58	324.01	15.12	-53.3	-57.9	3.7	0.00e+00	0	48	104	0	77	25434
2026-01-16 22:43:16.57	323.41	15.22	-52.8	-57.5	3.7	0.00e+00	0	48	104	0	77	24407
2026-01-16 22:43:18.56	322.81	15.32	-52.1	-56.9	3.7	0.00e+00	0	48	104	0	76	24224
2026-01-16 22:43:20.55	322.20	15.42	-51.7	-57.0	3.7	0.00e+00	0	48	104	0	75	25759
2026-01-16 22:43:22.53	321.58	15.52	-52.5	-57.3	3.7	0.00e+00	0	48	104	0	75	26850
2026-01-16 22:43:24.52	320.96	15.61	-52.4	-57.3	3.7	0.00e+00	0	48	104	0	76	25102
2026-01-16 22:43:26.61	320.31	15.70	-52.7	-57.3	3.7	0.00e+00	0	48	104	0	76	25349
2026-01-16 22:43:28.82	319.61	15.80	-52.6	-57.3	3.7	0.00e+00	0	48	104	0	76	25349
2026-01-16 22:43:30.85	318.96	15.89	-52.4	-57.3	3.7	0.00e+00	0	48	104	0	76	25297
2026-01-16 22:43:32.84	318.32	15.97	-52.3	-57.3	3.7	0.00e+00	0	49	104	0	76	25140
2026-01-16 22:43:35.14	317.58	16.06	-51.5	-56.9	3.7	0.00e+00	0	48	104	0	74	27026
2026-01-16 22:43:37.13	316.93	16.14	-52.2	-57.2	3.7	0.00e+00	0	49	104	0	75	26390
2026-01-16 22:43:39.14	316.27	16.21	-52.8	-57.6	3.7	0.00e+00	0	49	104	0	76	26054
2026-01-16 22:43:41.13	315.62	16.28	-52.7	-57.3	3.7	0.00e+00	0	48	104	0	76	25374
2026-01-16 22:43:43.12	314.96	16.35	-52.5	-57.3	3.7	0.00e+00	0	49	104	0	76	25147
2026-01-16 22:43:45.11	314.30	16.41	-52.5	-57.3	3.7	0.00e+00	0	49	104	0	76	25282
2026-01-16 22:43:47.14	313.62	16.48	-52.6	-57.5	3.7	0.00e+00	0	48	104	0	76	25750
2026-01-16 22:43:49.13	312.95	16.53	-52.5	-57.3	3.7	0.00e+00	0	49	104	0	76	25266
2026-01-16 22:43:51.27	312.22	16.59	-52.7	-57.2	3.7	0.00e+00	0	49	104	0	76	24969
2026-01-16 22:43:53.25	311.55	16.64	-52.6	-57.1	3.7	0.00e+00	0	49	104	0	76	24607
2026-01-16 22:43:55.24	310.88	16.69	-52.4	-56.8	3.7	0.00e+00	0	49	104	0	76	23889
2026-01-16 22:43:57.25	310.19	16.73	-52.4	-57.1	3.7	0.00e+00	0	49	104	0	76	24617
2026-01-16 22:43:59.24	309.51	16.77	-52.7	-57.3	3.7	0.00e+00	0	48	104	0	76	25382
2026-01-16 22:44:01.26	308.81	16.81	-53.4	-57.7	3.7	0.00e+00	0	49	104	0	77	25079
2026-01-16 22:44:03.25	308.12	16.84	-53.3	-57.7	3.7	0.00e+00	0	49	104	0	77	24926
2026-01-16 22:44:05.24	307.44	16.87	-53.0	-57.3	3.7	0.00e+00	0	48	104	0	77	23954
2026-01-16 22:44:07.23	306.75	16.90	-53.2	-57.7	3.7	0.00e+00	0	49	104	0	77	24915
2026-01-16 22:44:09.22	306.05	16.92	-53.0	-57.4	3.7	0.00e+00	0	49	104	0	77	24237
2026-01-16 22:44:11.24	305.35	16.94	-53.0	-57.5	3.7	0.00e+00	0	49	104	0	77	24357
2026-01-16 22:44:13.31	304.63	16.95	-53.2	-57.4	3.7	0.00e+00	0	49	104	0	77	23998
2026-01-16 22:44:15.30	303.94	16.96	-53.2	-57.3	3.7	0.00e+00	0	48	104	0	77	23786
2026-01-16 22:44:17.41	303.20	16.97	-53.2	-57.4	3.7	0.00e+00	0	48	104	0	77	24162
2026-01-16 22:44:19.47	302.48	16.98	-53.2	-57.5	3.7	0.00e+00	0	49	104	0	77	24291
2026-01-16 22:44:21.47	301.78	16.97	-52.8	-57.0	3.7	0.00e+00	0	49	104	0	77	23115
2026-01-16 22:44:23.46	301.09	16.97	-52.6	-56.7	3.7	0.00e+00	0	48	104	0	77	22183
2026-01-16 22:44:25.45	300.39	16.96	-53.2	-57.3	3.7	0.00e+00	0	48	104	0	77	23837
2026-01-16 22:44:27.44	299.70	16.95	-53.1	-57.1	3.7	0.00e+00	0	48	104	0	77	23248
2026-01-16 22:44:29.43	299.00	16.93	-52.6	-56.7	3.7	0.00e+00	0	48	104	0	77	22301
2026-01-16 22:44:31.42	298.31	16.91	-52.5	-56.3	3.7	0.00e+00	0	49	104	0	76	22473
2026-01-16 22:44:33.41	297.62	16.89	-52.8	-57.1	3.7	0.00e+00	0	49	104	0	76	24657
2026-01-16 22:44:35.40	296.93	16.86	-52.9	-57.3	3.7	0.00e+00	0	49	104	0	76	25378
2026-01-16 22:44:37.42	296.23	16.83	-52.9	-57.2	3.7	0.00e+00	0	49	104	0	76	25091
2026-01-16 22:44:39.41	295.54	16.80	-53.2	-57.3	3.7	0.00e+00	0	49	104	0	77	23854
2026-01-16 22:44:41.40	294.86	16.76	-53.3	-57.4	3.7	0.00e+00	0	49	104	0	77	24121
2026-01-16 22:44:43.59	294.11	16.72	-53.5	-57.7	3.7	0.00e+00	0	49	104	0	77	25016
2026-01-16 22:44:45.58	293.43	16.67	-53.4	-57.7	3.7	0.00e+00	0	49	104	0	77	24870
2026-01-16 22:44:47.59	292.74	16.62	-53.4	-57.7	3.7	0.00e+00	0	49	104	0	77	24906
2026-01-16 22:44:49.58	292.06	16.57	-52.9	-56.9	3.7	0.00e+00	0	49	104	0	77	22792
2026-01-16 22:44:51.60	291.38	16.51	-53.3	-57.4	3.7	0.00e+00	0	49	104	0	77	24215
2026-01-16 22:44:53.59	290.71	16.46	-53.2	-57.5	3.7	0.00e+00	0	49	104	0	77	24442
2026-01-16 22:44:55.53	290.06	16.40	-52.8	-56.9	3.7	0.00e+00	0	49	104	0	77	22668
2026-01-16 22:44:57.52	289.40	16.33	-52.7	-56.8	3.7	0.00e+00	0	49	104	0	77	22622
2026-01-16 22:44:59.51	288.74	16.26	-53.3	-57.8	3.7	0.00e+00	0	49	104	0	77	25200
2026-01-16 22:45:01.50	288.08	16.19	-53.3	-57.8	3.7	0.00e+00	0	49	104	0	77	25207
2026-01-16 22:45:03.49	287.43	16.12	-53.2	-57.7	3.7	0.00e+00	0	49	104	0	77	24831
2026-01-16 22:45:05.48	286.78	16.04	-53.3	-57.8	3.7	0.00e+00	0	49	104	0	77	25216
2026-01-16 22:45:07.47	286.14	15.96	-53.4	-57.8	3.7	0.00e+00	0	49	104	0	77	25188
2026-01-16 22:45:09.54	285.47	15.87	-53.3	-57.8	3.7	0.00e+00	0	49	104	0	77	25257
2026-01-16 22:45:11.55	284.83	15.79	-53.2	-57.6	3.7	0.00e+00	0	49	104	0	77	24787
2026-01-16 22:45:13.53	284.20	15.70	-53.4	-57.8	3.7	0.00e+00	0	49	104	0	77	25351
2026-01-16 22:45:15.52	283.57	15.61	-53.4	-57.9	3.7	0.00e+00	0	49	104	0	77	25587
2026-01-16 22:45:17.51	282.95	15.52	-53.1	-57.5	3.7	0.00e+00	0	49	104	0	77	24481
2026-01-16 22:45:19.50	282.33	15.42	-53.4	-57.7	3.7	0.00e+00	0	49	104	0	77	24904
2026-01-16 22:45:21.49	281.72	15.32	-53.3	-57.7	3.7	0.00e+00	0	49	104	0	77	24815
2026-01-16 22:45:23.50	281.10	15.22	-53.1	-57.5	3.7	0.00e+00	0	49	104	0	77	24374
2026-01-16 22:45:25.49	280.50	15.12	-53.1	-57.6	3.7	0.00e+00	0	49	104	0	77	24727
2026-01-16 22:45:27.48	279.90	15.01	-53.3	-57.8	3.7	0.00e+00	0	49	104	0	77	25239
2026-01-16 22:45:29.47	279.30	14.91	-53.4	-57.8	3.7	0.00e+00	0	49	104	0	77	25158
2026-01-16 22:45:31.46	278.72	14.80	-52.9	-57.5	3.7	0.00e+00	0	49	104	0	77	24283
2026-01-16 22:45:33.45	278.13	14.69	-52.9	-57.7	3.7	0.00e+00	0	49	104	0	77	24919
2026-01-16 22:45:35.44	277.55	14.57	-53.1	-57.5	3.7	0.00e+00	0	49	104	0	77	24353
2026-01-16 22:45:37.43	276.98	14.46	-53.1	-57.5	3.7	0.00e+00	0	49	104	0	77	24371
2026-01-16 22:45:39.42	276.41	14.34	-53.1	-57.5	3.7	0.00e+00	0	49	104	0	77	24372
2026-01-16 22:45:41.53	275.82	14.22	-53.2	-57.6	3.7	0.00e+00	0	49	104	0	77	24583
2026-01-16 22:45:43.51	275.26	14.10	-53.0	-57.6	3.7	0.00e+00	0	49	104	0	77	24664
2026-01-16 22:45:45.50	274.71	13.98	-53.1	-57.6	3.7	0.00e+00	0	49	104	0	77	24790
2026-01-16 22:45:47.49	274.17	13.86	-53.3	-57.7	3.7	0.00e+00	0	49	104	0	77	25074
2026-01-16 22:45:49.48	273.62	13.73	-53.1	-57.7	3.7	0.00e+00	0	49	104	0	77	24962
2026-01-16 22:45:51.47	273.09	13.61	-53.1	-57.6	3.7	0.00e+00	0	49	104	0	77	24527
2026-01-16 22:45:53.46	272.56	13.48	-53.0	-57.3	3.7	0.00e+00	0	49	104	0	77	23958
2026-01-16 22:45:55.45	272.04	13.35	-53.0	-57.3	3.7	0.00e+00	0	49	104	0	77	23803
2026-01-16 22:45:57.48	271.51	13.22	-52.9	-57.5	3.7	0.00e+00	0	49	104	0	77	24298
2026-01-16 22:45:59.48	270.99	13.09	-53.1	-57.7	3.7	0.00e+00	0	49	104	0	77	24851
2026-01-16 22:46:01.46	270.49	12.96	-53.1	-57.6	3.7	0.00e+00	0	49	104	0	77	24639
2026-01-16 22:46:03.45	269.98	12.83	-52.9	-57.5	3.7	0.00e+00	0	49	104	0	77	24467
2026-01-16 22:46:05.44	269.49	12.70	-52.8	-57.5	3.7	0.00e+00	0	49	104	0	77	24315
2026-01-16 22:46:07.44	268.99	12.56	-52.5	-57.0	3.7	0.00e+00	0	49	104	0	76	24469
2026-01-16 22:46:09.43	268.51	12.43	-52.6	-57.0	3.7	0.00e+00	0	49	104	0	76	24467
2026-01-16 22:46:11.42	268.03	12.29	-52.8	-57.1	3.7	0.00e+00	0	49	104	0	76	24606
2026-01-16 22:46:13.41	267.55	12.16	-53.0	-57.2	3.7	0.00e+00	0	49	104	0	76	25085
2026-01-16 22:46:15.40	267.08	12.02	-52.9	-57.5	3.7	0.00e+00	0	49	104	0	76	25781
2026-01-16 22:46:17.45	266.60	11.88	-52.9	-57.5	3.7	0.00e+00	0	49	104	0	76	25800
2026-01-16 22:46:19.45	266.14	11.74	-53.0	-57.5	3.7	0.00e+00	0	49	104	0	76	25970
2026-01-16 22:46:21.44	265.69	11.61	-53.2	-57.7	3.7	0.00e+00	0	49	104	0	77	24922
2026-01-16 22:46:23.43	265.24	11.47	-53.2	-57.8	3.7	0.00e+00	0	49	104	0	77	25183
2026-01-16 22:46:25.70	264.73	11.31	-53.1	-57.8	3.7	0.00e+00	0	49	104	0	77	25122
2026-01-16 22:46:27.69	264.30	11.17	-52.7	-57.7	3.7	0.00e+00	0	49	104	0	76	26438
2026-01-16 22:46:29.68	263.86	11.03	-51.9	-57.5	3.7	0.00e+00	0	49	104	0	75	27234
2026-01-16 22:46:31.63	263.44	10.90	-52.2	-57.4	3.6	0.00e+00	0	49	104	0	75	27097
2026-01-16 22:46:33.62	263.02	10.76	-52.8	-57.6	3.7	0.00e+00	0	49	104	0	76	26044
2026-01-16 22:46:35.61	262.60	10.62	-53.0	-57.7	3.7	0.00e+00	0	49	104	0	76	26412
2026-01-16 22:46:37.82	262.15	10.46	-53.0	-57.5	3.7	0.00e+00	0	49	104	0	76	25956
2026-01-16 22:46:39.84	261.73	10.32	-52.9	-57.5	3.7	0.00e+00	0	49	104	0	76	25774
2026-01-16 22:46:41.83	261.33	10.18	-52.7	-57.3	3.7	0.00e+00	0	49	104	0	76	25125
2026-01-16 22:46:43.82	260.93	10.04	-52.6	-57.3	3.7	0.00e+00	0	49	104	0	76	25170
2026-01-16 22:46:45.80	260.54	9.90	-52.4	-57.1	3.7	0.00e+00	0	49	104	0	76	24574
2026-01-16 22:46:47.79	260.15	9.76	-52.5	-57.2	3.7	0.00e+00	0	49	104	0	76	24830
2026-01-16 22:46:49.78	259.77	9.62	-52.9	-57.4	3.7	0.00e+00	0	49	104	0	76	25611
2026-01-16 22:46:51.79	259.39	9.48	-53.0	-57.5	3.7	0.00e+00	0	49	104	0	76	25778
2026-01-16 22:46:53.95	258.98	9.32	-53.0	-57.5	3.7	0.00e+00	0	49	104	0	76	25815
2026-01-16 22:46:55.99	258.60	9.18	-53.0	-57.5	3.7	0.00e+00	0	49	104	0	76	25721
2026-01-16 22:46:57.99	258.23	9.04	-52.6	-57.4	3.7	0.00e+00	0	49	104	0	76	25458
2026-01-16 22:46:59.98	257.87	8.90	-53.1	-57.8	3.7	0.00e+00	0	49	104	0	76	26605
2026-01-16 22:47:01.97	257.52	8.76	-53.4	-57.9	3.7	0.00e+00	0	49	104	0	77	25483
2026-01-16 22:47:04.00	257.16	8.62	-53.7	-58.1	3.7	0.00e+00	0	49	104	0	78	24587
2026-01-16 22:47:06.05	256.80	8.48	-53.8	-58.3	3.7	0.00e+00	0	49	104	0	78	25146
2026-01-16 22:47:08.11	256.44	8.33	-53.8	-58.2	3.7	0.00e+00	0	49	104	0	78	24913
2026-01-16 22:47:10.29	256.07	8.18	-54.0	-58.4	3.7	0.00e+00	0	49	104	0	78	25678
2026-01-16 22:47:12.34	255.73	8.04	-53.8	-58.2	3.7	0.00e+00	0	49	104	0	78	24998
2026-01-16 22:47:14.36	255.39	7.90	-53.8	-58.3	3.7	0.00e+00	0	49	104	0	78	25377
2026-01-16 22:47:16.35	255.07	7.76	-53.4	-57.4	3.6	0.00e+00	0	49	104	0	78	22759
2026-01-16 22:47:18.33	254.75	7.62	-53.2	-57.3	3.7	0.00e+00	0	49	104	0	78	22555
2026-01-16 22:47:20.34	254.42	7.48	-53.1	-57.7	3.7	0.00e+00	0	49	104	0	78	23620
2026-01-16 22:47:22.32	254.11	7.35	-52.9	-57.3	3.7	0.00e+00	0	49	104	0	77	23925
2026-01-16 22:47:24.34	253.79	7.21	-52.9	-57.3	3.7	0.00e+00	0	49	104	0	77	23823
2026-01-16 22:47:26.33	253.49	7.07	-52.9	-57.3	3.7	0.00e+00	0	49	104	0	77	23815
2026-01-16 22:47:28.32	253.18	6.94	-52.9	-57.3	3.7	0.00e+00	0	49	104	0	77	23839
2026-01-16 22:47:30.30	252.88	6.80	-52.9	-57.3	3.7	0.00e+00	0	49	104	0	77	23926
2026-01-16 22:47:32.29	252.59	6.67	-52.9	-57.3	3.7	0.00e+00	0	49	104	0	77	23863
2026-01-16 22:47:34.27	252.29	6.53	-52.9	-57.3	3.7	0.00e+00	0	49	104	0	77	23782
2026-01-16 22:47:36.33	251.99	6.39	-52.9	-57.3	3.7	0.00e+00	0	49	104	0	77	23828
2026-01-16 22:47:38.32	251.71	6.26	-52.8	-57.3	3.7	0.00e+00	0	49	104	0	77	23814
2026-01-16 22:47:40.31	251.43	6.12	-52.8	-57.3	3.7	0.00e+00	0	49	104	0	77	23742
2026-01-16 22:47:42.30	251.15	5.99	-52.8	-57.3	3.7	0.00e+00	0	49	104	0	77	23755
2026-01-16 22:47:44.28	250.87	5.86	-52.8	-57.3	3.7	0.00e+00	0	49	104	0	77	23759
2026-01-16 22:47:46.27	250.60	5.73	-52.8	-57.3	3.7	0.00e+00	0	49	104	0	77	23744
2026-01-16 22:47:48.26	250.33	5.59	-52.8	-57.3	3.7	0.00e+00	0	49	104	0	77	23728
2026-01-16 22:47:50.24	250.06	5.46	-52.8	-57.3	3.7	0.00e+00	0	49	104	0	77	23760
2026-01-16 22:47:52.23	249.80	5.33	-52.8	-57.3	3.7	0.00e+00	0	49	104	0	77	23786
2026-01-16 22:47:54.21	249.54	5.20	-52.8	-57.2	3.7	0.00e+00	0	49	104	0	77	23670

#Closed at: 2026-01-16 22:47:56
#Recorded file [0 MB]: D:/Data/31040_260117_014039.dat