passes_logs/2026/01/16/T1/T1__20260116_225735_SUOMI_NPP_rec.log

#Pass ID: 20260116_225735_SUOMI NPP
#Satellite: SUOMI NPP
#Configuration: NPP
#almurnet v.1.7.20251203
#Start time: 2026-01-16 22:57:36

#Version: 2.0.20230620
#Station: T1
#Location: 37.570604 lon 55.790049 lat
#TLE: 1 37849U 11061A   26016.23176763  .00000061  00000+0  49926-4 0  9990
#TLE: 2 37849  98.7812 318.2698 0002434  61.5135 298.6286 14.19525545736883

#Time	Az	El	Level	Level2	SNR	BER	BlckErr	Temp	State	Recorded	gain1	gain2
2026-01-16 22:57:36.09	22.44	5.01	-49.3	-65.3	3.8	1.49e+00	0	39	0	0	70	22269
2026-01-16 22:57:39.07	22.59	5.21	-49.3	-65.2	3.8	1.49e+00	0	40	104	0	69	23321
2026-01-16 22:57:42.05	22.73	5.41	-49.3	-65.1	3.8	1.49e+00	0	40	104	0	69	23108
2026-01-16 22:57:45.03	22.88	5.62	-49.3	-65.1	3.8	1.49e+00	0	40	104	0	69	23164
2026-01-16 22:57:48.01	23.03	5.82	-49.3	-65.2	3.8	1.49e+00	0	40	104	0	69	23322
2026-01-16 22:57:50.98	23.18	6.03	-49.3	-65.2	3.8	1.49e+00	0	40	104	0	69	23392
2026-01-16 22:57:53.96	23.34	6.24	-49.3	-65.2	3.8	1.49e+00	0	40	104	0	69	23406
2026-01-16 22:57:56.94	23.49	6.45	-49.3	-65.1	3.8	1.49e+00	0	40	104	0	69	23195
2026-01-16 22:57:59.92	23.65	6.66	-49.3	-65.1	3.8	1.49e+00	0	40	104	0	69	23263
2026-01-16 22:58:02.90	23.81	6.88	-49.3	-65.2	3.8	1.49e+00	0	40	104	0	69	23382
2026-01-16 22:58:05.88	23.98	7.09	-49.3	-65.1	3.8	1.49e+00	0	40	104	0	69	23197
2026-01-16 22:58:08.86	24.14	7.31	-49.3	-64.8	3.8	1.49e+00	0	40	104	0	69	22282
2026-01-16 22:58:11.84	24.31	7.53	-49.3	-64.5	3.8	1.49e+00	0	41	104	0	69	21684
2026-01-16 22:58:14.82	24.48	7.75	-49.2	-64.2	3.8	1.49e+00	0	41	104	0	69	21003
2026-01-16 22:58:17.80	24.65	7.97	-49.3	-64.3	3.8	1.49e+00	0	41	104	0	69	21088
2026-01-16 22:58:20.78	24.82	8.19	-49.3	-64.1	3.8	1.49e+00	0	41	104	0	69	20678
2026-01-16 22:58:23.76	25.00	8.42	-49.2	-63.1	3.8	1.48e+00	0	41	104	0	69	18346
2026-01-16 22:58:26.74	25.18	8.65	-48.9	-59.8	4.9	9.43e-01	0	41	0	2097152	69	12584
2026-01-16 22:58:29.72	25.36	8.88	-48.2	-55.6	8.2	1.08e-01	0	41	0	7340032	68	8244
2026-01-16 22:58:32.70	25.55	9.11	-46.5	-51.2	12.6	2.28e-03	0	41	0	12582912	65	5915
2026-01-16 22:58:35.68	25.73	9.34	-47.4	-53.0	11.0	3.20e-05	0	41	0	18874368	65	7261
2026-01-16 22:58:39.11	25.95	9.61	-44.5	-47.8	16.1	0.00e+00	0	41	0	25165824	61	5018
2026-01-16 22:58:41.81	26.13	9.83	-44.5	-47.7	16.2	0.00e+00	0	41	0	30408704	60	5242
2026-01-16 22:58:45.10	26.34	10.09	-44.3	-47.3	16.6	0.00e+00	0	41	0	35651584	60	5008
2026-01-16 22:58:47.96	26.53	10.32	-44.2	-47.1	16.8	0.00e+00	0	41	0	41943040	60	4878
2026-01-16 22:58:51.08	26.75	10.58	-44.1	-46.9	17.0	0.00e+00	0	41	0	47185920	59	5060
2026-01-16 22:58:54.33	26.97	10.85	-44.1	-46.9	17.0	0.00e+00	0	41	0	53477376	59	5077
2026-01-16 22:58:57.40	27.19	11.10	-44.0	-46.7	17.2	0.00e+00	0	41	0	58720256	59	4973
2026-01-16 22:59:00.24	27.39	11.34	-44.0	-46.7	17.2	0.00e+00	0	41	0	63963136	59	4972
2026-01-16 22:59:03.36	27.62	11.60	-43.9	-46.6	17.3	0.00e+00	0	41	0	70254592	59	4919
2026-01-16 22:59:06.21	27.83	11.85	-43.9	-46.6	17.3	0.00e+00	0	42	0	75497472	59	4912
2026-01-16 22:59:09.34	28.06	12.12	-44.0	-46.8	17.2	0.00e+00	0	41	0	81788928	59	5001
2026-01-16 22:59:12.18	28.28	12.37	-44.0	-46.8	17.1	0.00e+00	0	41	0	87031808	59	5030
2026-01-16 22:59:15.31	28.52	12.64	-44.1	-47.0	17.0	0.00e+00	0	41	0	92274688	59	5122
2026-01-16 22:59:18.16	28.74	12.89	-43.9	-46.7	17.2	0.00e+00	0	41	0	98566144	59	4981
2026-01-16 22:59:21.32	29.00	13.18	-43.8	-46.6	17.4	0.00e+00	0	42	0	103809024	59	4883
2026-01-16 22:59:24.22	29.23	13.44	-43.7	-46.4	17.5	0.00e+00	0	41	0	109051904	59	4807
2026-01-16 22:59:27.47	29.50	13.74	-43.9	-46.6	17.4	0.00e+00	0	42	0	115343360	59	4876
2026-01-16 22:59:30.38	29.75	14.01	-43.7	-46.3	17.7	0.00e+00	0	42	0	120586240	59	4718
2026-01-16 22:59:33.57	30.02	14.30	-43.8	-46.4	17.6	0.00e+00	0	42	0	126877696	59	4803
2026-01-16 22:59:36.41	30.27	14.57	-43.7	-46.3	17.6	0.00e+00	0	41	0	132120576	59	4730
2026-01-16 22:59:39.54	30.55	14.87	-43.7	-46.3	17.7	0.00e+00	0	42	0	138412032	59	4731
2026-01-16 22:59:42.38	30.81	15.14	-43.6	-46.1	17.8	0.00e+00	0	41	0	143654912	59	4643
2026-01-16 22:59:45.51	31.10	15.44	-43.7	-46.3	17.8	0.00e+00	0	42	0	148897792	59	4722
2026-01-16 22:59:48.40	31.37	15.73	-43.8	-46.4	17.6	0.00e+00	0	42	0	155189248	59	4800
2026-01-16 22:59:51.53	31.67	16.04	-43.9	-46.6	17.5	0.00e+00	0	42	0	160432128	59	4896
2026-01-16 22:59:54.40	31.96	16.32	-43.5	-46.1	17.9	0.00e+00	0	42	0	165675008	58	4873
2026-01-16 22:59:57.68	32.28	16.66	-43.7	-46.2	17.8	0.00e+00	0	42	0	171966464	58	4957
2026-01-16 23:00:00.41	32.56	16.93	-43.9	-46.5	17.5	0.00e+00	0	42	0	177209344	58	5152
2026-01-16 23:00:03.70	32.90	17.27	-44.0	-46.6	17.4	0.00e+00	0	42	0	183500800	59	4922
2026-01-16 23:00:06.68	33.22	17.58	-44.3	-47.0	17.1	0.00e+00	0	42	0	188743680	59	5137
2026-01-16 23:00:10.17	33.60	17.95	-44.1	-46.9	17.3	0.00e+00	0	42	0	196083712	59	5054
2026-01-16 23:00:13.17	33.93	18.27	-44.1	-46.9	17.2	0.00e+00	0	42	0	201326592	59	5067
2026-01-16 23:00:16.19	34.27	18.59	-44.2	-46.9	17.2	0.00e+00	0	42	0	206569472	59	5074
2026-01-16 23:00:19.17	34.62	18.92	-44.3	-47.0	17.1	0.00e+00	0	42	0	212860928	59	5116
2026-01-16 23:00:22.16	34.97	19.25	-44.4	-47.1	17.1	0.00e+00	0	42	0	218103808	59	5182
2026-01-16 23:00:25.26	35.34	19.59	-44.3	-47.0	17.2	0.00e+00	0	42	0	224395264	60	4845
2026-01-16 23:00:28.53	35.74	19.96	-44.2	-46.9	17.3	0.00e+00	0	42	0	229638144	60	4784
2026-01-16 23:00:31.24	36.08	20.27	-44.3	-47.0	17.1	0.00e+00	0	42	0	234881024	60	4836
2026-01-16 23:00:34.54	36.51	20.64	-44.3	-46.9	17.2	0.00e+00	0	42	0	241172480	60	4810
2026-01-16 23:00:37.26	36.86	20.96	-44.4	-47.2	17.0	0.00e+00	0	42	0	246415360	60	4942
2026-01-16 23:00:40.52	37.30	21.34	-44.6	-47.4	16.8	0.00e+00	0	42	0	252706816	60	5070
2026-01-16 23:00:43.29	37.68	21.67	-44.6	-47.5	16.8	0.00e+00	0	42	0	257949696	60	5108
2026-01-16 23:00:46.59	38.14	22.06	-44.5	-47.2	17.0	0.00e+00	0	42	0	264241152	60	4981
2026-01-16 23:00:49.32	38.54	22.39	-44.2	-46.9	17.4	0.00e+00	0	42	0	269484032	60	4768
2026-01-16 23:00:52.59	39.02	22.79	-43.7	-46.2	18.0	0.00e+00	0	42	0	274726912	59	4667
2026-01-16 23:00:55.62	39.47	23.16	-43.2	-45.6	18.4	0.00e+00	0	42	0	281018368	58	4631
2026-01-16 23:00:58.97	39.99	23.57	-43.0	-45.3	18.7	0.00e+00	0	42	0	287309824	57	4758
2026-01-16 23:01:01.71	40.42	23.92	-43.5	-45.9	18.2	0.00e+00	0	42	0	292552704	57	5069
2026-01-16 23:01:04.99	40.95	24.33	-44.0	-46.6	17.5	0.00e+00	0	42	0	298844160	58	5205
2026-01-16 23:01:07.78	41.41	24.69	-44.0	-46.5	17.7	0.00e+00	0	42	0	304087040	59	4850
2026-01-16 23:01:11.17	41.99	25.12	-43.7	-46.1	18.0	0.00e+00	0	42	0	310378496	59	4628
2026-01-16 23:01:13.93	42.46	25.48	-43.7	-46.2	18.0	0.00e+00	0	42	0	314572800	59	4653
2026-01-16 23:01:17.26	43.06	25.92	-44.3	-46.9	17.3	0.00e+00	0	42	0	320864256	59	5089
2026-01-16 23:01:19.98	43.55	26.28	-44.7	-47.5	16.8	0.00e+00	0	42	0	326107136	60	5145
2026-01-16 23:01:23.24	44.16	26.71	-44.7	-47.5	16.8	0.00e+00	0	42	0	332398592	60	5148
2026-01-16 23:01:26.10	44.71	27.10	-44.3	-47.0	17.3	0.00e+00	0	42	0	337641472	60	4863
2026-01-16 23:01:29.56	45.39	27.57	-45.0	-47.9	16.5	0.00e+00	0	42	0	343932928	60	5361
2026-01-16 23:01:32.26	45.94	27.93	-45.2	-48.2	16.1	0.00e+00	0	42	0	349175808	61	5248
2026-01-16 23:01:35.56	46.62	28.39	-45.2	-48.1	16.3	0.00e+00	0	42	0	355467264	61	5207
2026-01-16 23:01:38.28	47.20	28.76	-44.6	-47.4	16.9	0.00e+00	0	42	0	360710144	60	5057
2026-01-16 23:01:41.58	47.92	29.22	-44.7	-47.4	16.9	0.00e+00	0	42	0	367001600	60	5095
2026-01-16 23:01:44.30	48.52	29.60	-45.0	-47.9	16.5	0.00e+00	0	42	0	372244480	60	5352
2026-01-16 23:01:47.63	49.29	30.07	-44.3	-46.9	17.4	0.00e+00	0	42	0	378535936	60	4812
2026-01-16 23:01:50.46	49.95	30.46	-44.4	-47.0	17.2	0.00e+00	0	42	0	383778816	60	4866
2026-01-16 23:01:53.85	50.77	30.94	-44.8	-47.7	16.7	0.00e+00	0	42	0	390070272	60	5247
2026-01-16 23:01:56.57	51.45	31.33	-44.7	-47.6	16.8	0.00e+00	0	42	0	395313152	60	5165
2026-01-16 23:01:59.86	52.28	31.80	-44.6	-47.4	17.0	0.00e+00	0	42	0	401604608	60	5063
2026-01-16 23:02:02.56	52.99	32.18	-45.1	-48.1	16.3	0.00e+00	0	42	0	405798912	61	5179
2026-01-16 23:02:05.86	53.88	32.65	-46.2	-49.5	14.9	0.00e+00	0	42	0	412090368	62	5781
2026-01-16 23:02:08.83	54.69	33.07	-47.2	-51.5	12.8	6.80e-06	0	42	0	418381824	65	6104
2026-01-16 23:02:12.11	55.62	33.54	-46.4	-50.0	14.3	1.50e-06	0	42	0	424673280	64	5447
2026-01-16 23:02:14.87	56.42	33.93	-45.8	-49.1	15.4	0.00e+00	0	42	0	428867584	63	5186
2026-01-16 23:02:18.14	57.40	34.39	-46.2	-49.6	14.9	7.00e-07	0	42	0	435159040	63	5512
2026-01-16 23:02:20.88	58.24	34.78	-45.9	-49.2	15.1	0.00e+00	0	42	0	440401920	63	5234
2026-01-16 23:02:24.24	59.29	35.25	-46.6	-50.4	14.0	7.00e-07	0	42	0	446693376	64	5668
2026-01-16 23:02:27.00	60.18	35.63	-47.1	-51.2	13.3	2.21e-05	0	42	0	451936256	64	6219
2026-01-16 23:02:30.27	61.26	36.08	-46.9	-50.8	13.6	3.00e-06	0	42	0	458227712	65	5642
2026-01-16 23:02:33.00	62.18	36.45	-46.5	-50.0	14.3	0.00e+00	0	42	0	463470592	64	5463
2026-01-16 23:02:36.29	63.33	36.89	-47.4	-51.8	12.5	2.59e-05	0	42	0	469762048	65	6336
2026-01-16 23:02:39.12	64.33	37.26	-47.4	-51.7	12.6	1.64e-04	0	42	0	475004928	66	5867
2026-01-16 23:02:42.24	65.47	37.67	-46.1	-49.5	14.9	0.00e+00	0	42	0	480247808	64	5129
2026-01-16 23:02:45.09	66.53	38.03	-47.0	-50.9	13.5	9.90e-06	0	42	0	485490688	64	6030
2026-01-16 23:02:48.28	67.75	38.43	-46.3	-49.7	14.7	7.00e-07	0	42	0	491782144	64	5265
2026-01-16 23:02:51.18	68.88	38.79	-44.9	-47.7	16.7	0.00e+00	0	42	0	497025024	61	4931
2026-01-16 23:02:54.48	70.20	39.18	-47.0	-51.1	13.4	7.60e-06	0	42	0	503316480	64	6145
2026-01-16 23:02:57.20	71.31	39.49	-46.3	-49.8	14.6	2.20e-06	0	42	0	508559360	64	5317
2026-01-16 23:03:00.47	72.67	39.86	-44.9	-47.7	16.8	0.00e+00	0	42	0	514850816	61	4948
2026-01-16 23:03:03.18	73.82	40.15	-45.9	-49.1	15.5	0.00e+00	0	42	0	520093696	62	5502
2026-01-16 23:03:06.45	75.24	40.49	-45.9	-49.2	15.3	0.00e+00	0	42	0	526385152	62	5531
2026-01-16 23:03:09.18	76.45	40.75	-44.4	-47.1	17.3	0.00e+00	0	42	0	531628032	60	4899
2026-01-16 23:03:12.56	77.97	41.07	-46.7	-50.5	13.9	0.00e+00	0	42	0	537919488	64	5754
2026-01-16 23:03:15.33	79.23	41.31	-46.6	-50.3	14.0	2.20e-06	0	42	0	543162368	64	5655
2026-01-16 23:03:18.60	80.75	41.58	-46.3	-49.8	14.6	7.00e-07	0	42	0	548405248	64	5326
2026-01-16 23:03:21.69	82.21	41.82	-46.6	-50.6	13.9	3.00e-06	0	42	0	554696704	64	5791
2026-01-16 23:03:24.53	83.57	42.02	-46.1	-49.8	14.6	0.00e+00	0	42	0	559939584	64	5337
2026-01-16 23:03:27.66	85.08	42.22	-47.0	-51.3	13.1	2.28e-05	0	42	0	566231040	64	6328
2026-01-16 23:03:30.61	86.53	42.39	-46.1	-49.7	14.8	0.00e+00	0	42	0	571473920	63	5540
2026-01-16 23:03:34.02	88.22	42.56	-46.0	-49.6	14.9	0.00e+00	0	42	0	577765376	63	5468
2026-01-16 23:03:36.93	89.67	42.69	-45.4	-48.6	15.9	0.00e+00	0	42	0	583008256	61	5485
2026-01-16 23:03:40.28	91.36	42.81	-45.7	-48.8	15.7	0.00e+00	0	42	0	589299712	63	5018
2026-01-16 23:03:43.09	92.78	42.89	-45.8	-49.0	15.4	0.00e+00	0	42	0	594542592	62	5461
2026-01-16 23:03:46.43	94.48	42.96	-45.9	-49.2	15.3	0.00e+00	0	42	0	600834048	63	5242
2026-01-16 23:03:49.17	95.88	43.00	-44.9	-47.8	16.6	0.00e+00	0	42	0	606076928	61	4994
2026-01-16 23:03:52.61	97.64	43.02	-43.8	-46.2	18.1	0.00e+00	0	42	0	612368384	58	4953
2026-01-16 23:03:55.69	99.22	43.01	-45.9	-49.3	15.2	0.00e+00	0	42	0	618659840	62	5613
2026-01-16 23:03:58.81	100.81	42.98	-45.9	-49.2	15.4	0.00e+00	0	42	0	623902720	62	5542
2026-01-16 23:04:01.65	102.26	42.93	-46.0	-49.2	15.3	0.00e+00	0	42	0	629145600	63	5245
2026-01-16 23:04:04.78	103.85	42.85	-46.4	-50.0	14.5	0.00e+00	0	42	0	635437056	63	5748
2026-01-16 23:04:07.62	105.29	42.76	-44.7	-47.4	17.0	0.00e+00	0	42	0	640679936	61	4769
2026-01-16 23:04:11.28	107.13	42.61	-47.2	-51.3	13.1	2.13e-05	0	42	0	648019968	65	5988
2026-01-16 23:04:14.00	108.48	42.48	-47.3	-51.6	12.8	8.62e-05	0	42	0	653262848	65	6188
2026-01-16 23:04:17.29	110.10	42.30	-46.9	-50.8	13.6	7.00e-07	0	42	0	658505728	64	5957
2026-01-16 23:04:20.02	111.43	42.14	-47.8	-52.4	12.1	4.53e-04	0	42	0	663748608	66	6360
2026-01-16 23:04:23.65	113.18	41.89	-46.0	-49.3	15.3	0.00e+00	0	42	0	671088640	63	5286
2026-01-16 23:04:26.57	114.57	41.67	-45.3	-48.3	16.2	0.00e+00	0	42	0	676331520	62	5010
2026-01-16 23:04:29.84	116.10	41.41	-46.2	-49.8	14.7	4.50e-06	0	42	0	682622976	64	5290
2026-01-16 23:04:32.55	117.35	41.18	-43.9	-46.4	17.8	0.00e+00	0	42	0	687865856	59	4805
2026-01-16 23:04:35.82	118.83	40.88	-43.7	-46.1	18.1	0.00e+00	0	42	0	694157312	59	4635
2026-01-16 23:04:38.57	120.06	40.61	-44.6	-47.3	17.1	0.00e+00	0	42	0	698351616	59	5289
2026-01-16 23:04:42.17	121.64	40.25	-43.6	-46.0	18.2	0.00e+00	0	42	0	705691648	59	4579
2026-01-16 23:04:45.01	122.85	39.94	-43.5	-46.0	18.2	0.00e+00	0	42	0	710934528	58	4832
2026-01-16 23:04:48.30	124.24	39.58	-43.1	-45.4	18.7	0.00e+00	0	42	0	717225984	57	4796
2026-01-16 23:04:51.30	125.47	39.23	-43.9	-46.5	17.9	0.00e+00	0	42	0	722468864	58	5102
2026-01-16 23:04:54.29	126.67	38.88	-42.6	-44.9	19.3	0.00e+00	0	42	0	728760320	57	4509
2026-01-16 23:04:57.28	127.85	38.52	-42.8	-45.1	19.2	0.00e+00	0	42	0	734003200	56	4879
2026-01-16 23:05:00.22	128.98	38.15	-42.4	-44.6	19.5	0.00e+00	0	42	0	739246080	56	4625
2026-01-16 23:05:03.55	130.23	37.72	-41.7	-43.8	20.0	0.00e+00	0	42	0	745537536	55	4490
2026-01-16 23:05:06.25	131.23	37.37	-41.9	-44.0	19.9	0.00e+00	0	42	0	750780416	54	4853
2026-01-16 23:05:09.53	132.40	36.94	-40.8	-42.8	20.9	0.00e+00	0	42	0	757071872	53	4489
2026-01-16 23:05:12.23	133.35	36.58	-41.0	-43.0	20.7	0.00e+00	0	42	0	762314752	53	4577
2026-01-16 23:05:15.64	134.51	36.11	-41.6	-43.7	20.2	0.00e+00	0	42	0	768606208	53	4935
2026-01-16 23:05:18.35	135.42	35.74	-43.0	-45.3	18.9	0.00e+00	0	42	0	773849088	56	5034
2026-01-16 23:05:21.75	136.52	35.27	-42.1	-44.2	19.8	0.00e+00	0	42	0	780140544	56	4427
2026-01-16 23:05:24.46	137.38	34.89	-43.1	-45.4	18.8	0.00e+00	0	42	0	785383424	57	4798
2026-01-16 23:05:27.73	138.39	34.42	-42.6	-44.8	19.3	0.00e+00	0	42	0	790626304	56	4730
2026-01-16 23:05:30.53	139.23	34.03	-43.4	-45.8	18.5	0.00e+00	0	42	0	795869184	57	4987
2026-01-16 23:05:33.60	140.13	33.59	-44.5	-47.3	17.1	0.00e+00	0	42	0	802160640	61	4735
2026-01-16 23:05:36.85	141.06	33.13	-42.7	-45.0	19.2	0.00e+00	0	42	0	808452096	57	4546
2026-01-16 23:05:39.71	141.85	32.72	-45.6	-48.8	15.7	0.00e+00	0	42	0	813694976	61	5619
2026-01-16 23:05:42.83	142.70	32.27	-42.7	-44.9	19.2	0.00e+00	0	42	0	818937856	57	4516
2026-01-16 23:05:45.74	143.46	31.85	-43.9	-46.4	17.9	0.00e+00	0	42	0	825229312	58	5091
2026-01-16 23:05:48.87	144.27	31.41	-45.5	-48.7	15.7	0.00e+00	0	43	0	830472192	62	5242
2026-01-16 23:05:51.78	145.00	30.99	-43.2	-45.6	18.7	0.00e+00	0	42	0	835715072	58	4602
2026-01-16 23:05:55.26	145.84	30.50	-44.4	-47.1	17.2	0.00e+00	0	42	0	843055104	59	5184
2026-01-16 23:05:57.96	146.48	30.11	-44.6	-47.3	17.0	0.00e+00	0	42	0	847249408	61	4733
2026-01-16 23:06:01.23	147.24	29.65	-43.8	-46.3	17.9	0.00e+00	0	42	0	853540864	59	4725
2026-01-16 23:06:04.10	147.89	29.25	-44.6	-47.4	17.0	0.00e+00	0	42	0	858783744	60	5082
2026-01-16 23:06:07.74	148.68	28.74	-43.0	-45.4	18.7	0.00e+00	0	43	0	866123776	58	4524
2026-01-16 23:06:10.44	149.26	28.36	-41.8	-43.9	19.9	0.00e+00	0	42	0	871366656	55	4540
2026-01-16 23:06:13.73	149.94	27.91	-44.2	-47.0	17.3	0.00e+00	0	42	0	877658112	59	5112
2026-01-16 23:06:16.44	150.49	27.54	-44.8	-47.9	16.5	0.00e+00	0	42	0	881852416	60	5349
2026-01-16 23:06:19.75	151.15	27.09	-44.1	-46.9	17.4	0.00e+00	0	42	0	888143872	60	4784
2026-01-16 23:06:22.58	151.69	26.70	-44.4	-47.3	17.0	0.00e+00	0	42	0	893386752	60	5005
2026-01-16 23:06:25.72	152.28	26.28	-44.6	-47.5	16.7	0.00e+00	0	42	0	899678208	60	5152
2026-01-16 23:06:29.13	152.91	25.83	-42.6	-44.9	19.2	0.00e+00	0	42	0	905969664	57	4507
2026-01-16 23:06:32.05	153.43	25.44	-41.8	-43.9	19.9	0.00e+00	0	42	0	911212544	55	4544
2026-01-16 23:06:35.46	154.02	25.00	-43.8	-46.4	17.8	0.00e+00	0	42	0	917504000	58	5070
2026-01-16 23:06:38.16	154.48	24.65	-45.2	-48.3	16.1	0.00e+00	0	42	0	922746880	61	5280
2026-01-16 23:06:41.54	155.04	24.21	-45.2	-48.3	16.1	0.00e+00	0	42	0	929038336	61	5280
2026-01-16 23:06:44.27	155.48	23.86	-44.5	-47.3	17.0	0.00e+00	0	42	0	934281216	61	4737
2026-01-16 23:06:47.71	156.02	23.43	-43.8	-46.3	17.9	0.00e+00	0	42	0	940572672	59	4730
2026-01-16 23:06:50.43	156.44	23.09	-44.1	-46.7	17.5	0.00e+00	0	42	0	945815552	59	4933
2026-01-16 23:06:53.70	156.93	22.69	-45.9	-49.3	15.2	0.00e+00	0	43	0	952107008	62	5603
2026-01-16 23:06:56.46	157.34	22.35	-46.6	-50.5	13.9	1.50e-06	0	42	0	957349888	63	6104
2026-01-16 23:06:59.73	157.81	21.95	-45.4	-48.6	15.7	0.00e+00	0	42	0	963641344	62	5200
2026-01-16 23:07:02.48	158.19	21.62	-44.4	-47.1	17.2	0.00e+00	0	42	0	968884224	60	4905
2026-01-16 23:07:05.78	158.64	21.23	-44.0	-46.6	17.6	0.00e+00	0	42	0	975175680	59	4876
2026-01-16 23:07:08.53	159.01	20.91	-43.9	-46.5	17.6	0.00e+00	0	42	0	980418560	59	4844
2026-01-16 23:07:11.80	159.44	20.53	-43.2	-45.6	18.4	0.00e+00	0	43	0	985661440	58	4637
2026-01-16 23:07:14.51	159.79	20.21	-43.1	-45.5	18.5	0.00e+00	0	42	0	990904320	57	4840
2026-01-16 23:07:17.78	160.20	19.84	-43.6	-46.0	18.1	0.00e+00	0	42	0	997195776	58	4840
2026-01-16 23:07:20.49	160.53	19.53	-44.4	-47.1	17.1	0.00e+00	0	42	0	1002438656	59	5181
2026-01-16 23:07:23.78	160.93	19.17	-44.7	-47.6	16.6	0.00e+00	0	43	0	1008730112	60	5195
2026-01-16 23:07:26.49	161.25	18.87	-44.8	-47.8	16.4	0.00e+00	0	43	0	1013972992	60	5316
2026-01-16 23:07:30.00	161.66	18.48	-44.6	-47.5	16.7	0.00e+00	0	42	0	1020264448	60	5107
2026-01-16 23:07:32.96	161.99	18.16	-43.9	-46.5	17.5	0.00e+00	0	42	0	1025507328	59	4853
2026-01-16 23:07:36.23	162.35	17.81	-44.1	-46.7	17.4	0.00e+00	0	42	0	1031798784	59	4952
2026-01-16 23:07:38.95	162.64	17.52	-44.4	-47.2	16.9	0.00e+00	0	42	0	1037041664	59	5228
2026-01-16 23:07:42.23	162.99	17.18	-44.9	-48.0	16.2	0.00e+00	0	43	0	1043333120	60	5437
2026-01-16 23:07:44.98	163.28	16.89	-45.9	-49.4	14.8	0.00e+00	0	42	0	1048576000	62	5703
2026-01-16 23:07:48.25	163.61	16.56	-45.8	-49.4	14.9	0.00e+00	0	42	0	1054867456	62	5660
2026-01-16 23:07:51.20	163.91	16.26	-45.8	-49.3	14.9	0.00e+00	0	42	0	1060110336	62	5619
2026-01-16 23:07:54.18	164.20	15.96	-45.3	-48.4	15.7	0.00e+00	0	42	0	1065353216	62	5093
2026-01-16 23:07:57.17	164.48	15.66	-44.6	-47.5	16.6	0.00e+00	0	42	0	1071644672	61	4846
2026-01-16 23:08:00.18	164.77	15.36	-44.3	-47.1	17.0	0.00e+00	0	43	0	1076887552	60	4891
2026-01-16 23:08:03.14	165.04	15.07	-44.1	-46.8	17.3	0.00e+00	0	43	0	1082130432	60	4723
2026-01-16 23:08:06.26	165.32	14.77	-44.1	-46.8	17.2	0.00e+00	0	42	0	1088421888	59	5018
2026-01-16 23:08:09.10	165.58	14.50	-44.3	-47.1	17.0	0.00e+00	0	43	0	1093664768	59	5176
2026-01-16 23:08:12.23	165.85	14.20	-44.4	-47.2	16.8	0.00e+00	0	43	0	1098907648	59	5255
2026-01-16 23:08:15.07	166.09	13.93	-44.4	-47.3	16.7	0.00e+00	0	43	0	1105199104	59	5331
2026-01-16 23:08:18.20	166.36	13.64	-44.1	-46.9	17.2	0.00e+00	0	42	0	1110441984	59	5067
2026-01-16 23:08:21.04	166.59	13.38	-44.2	-47.0	17.0	0.00e+00	0	43	0	1115684864	59	5120
2026-01-16 23:08:24.20	166.85	13.09	-43.7	-46.3	17.6	0.00e+00	0	43	0	1121976320	59	4735
2026-01-16 23:08:27.33	167.10	12.81	-43.6	-46.2	17.7	0.00e+00	0	42	0	1127219200	58	4977
2026-01-16 23:08:30.17	167.32	12.56	-44.0	-46.7	17.3	0.00e+00	0	43	0	1133510656	58	5223
2026-01-16 23:08:33.30	167.57	12.28	-44.2	-47.0	17.0	0.00e+00	0	43	0	1138753536	59	5106
2026-01-16 23:08:36.16	167.78	12.03	-44.8	-47.8	16.3	0.00e+00	0	42	0	1143996416	60	5282
2026-01-16 23:08:39.66	168.04	11.72	-45.3	-48.7	15.4	0.00e+00	0	42	0	1151336448	61	5553
2026-01-16 23:08:42.37	168.24	11.49	-45.6	-49.2	14.9	0.00e+00	0	43	0	1155530752	61	5897
2026-01-16 23:08:45.75	168.48	11.20	-45.6	-49.4	14.7	7.00e-07	0	43	0	1161822208	62	5676
2026-01-16 23:08:48.50	168.68	10.97	-45.5	-49.6	14.5	0.00e+00	0	42	0	1167065088	62	5798
2026-01-16 23:08:51.79	168.91	10.69	-45.2	-49.5	14.5	7.00e-07	0	42	0	1173356544	62	5786
2026-01-16 23:08:54.49	169.09	10.47	-44.8	-48.9	15.1	0.00e+00	0	43	0	1178599424	61	5675
2026-01-16 23:08:57.74	169.31	10.20	-44.6	-48.6	15.4	0.00e+00	0	43	0	1184890880	61	5505
2026-01-16 23:09:00.58	169.50	9.97	-44.5	-48.3	15.6	0.00e+00	0	43	0	1190133760	60	5633
2026-01-16 23:09:03.71	169.70	9.71	-44.2	-47.9	16.0	0.00e+00	0	43	0	1196425216	60	5351
2026-01-16 23:09:06.55	169.89	9.49	-44.1	-47.8	16.1	0.00e+00	0	42	0	1201668096	60	5338
2026-01-16 23:09:09.68	170.08	9.24	-43.8	-47.2	16.7	0.00e+00	0	43	0	1206910976	59	5219
2026-01-16 23:09:12.85	170.28	8.99	-47.7	-55.8	9.1	2.11e-03	0	43	0	1213202432	65	9972
2026-01-16 23:09:15.68	170.45	8.77	-50.3	-65.6	3.8	1.49e+00	0	43	104	1213202432	71	22003
2026-01-16 23:09:18.81	170.64	8.52	-50.6	-65.9	3.8	1.49e+00	0	43	104	1213202432	71	22673
2026-01-16 23:09:21.64	170.81	8.31	-50.6	-65.9	3.8	1.49e+00	0	42	104	1213202432	72	21464
2026-01-16 23:09:24.77	170.99	8.07	-50.8	-66.0	3.8	1.49e+00	0	43	104	1213202432	72	21567
2026-01-16 23:09:27.60	171.16	7.85	-50.8	-66.0	3.8	1.49e+00	0	43	104	1213202432	72	21591
2026-01-16 23:09:30.72	171.34	7.62	-50.8	-66.0	3.8	1.49e+00	0	43	104	1213202432	72	21669
2026-01-16 23:09:33.56	171.49	7.41	-50.8	-66.0	3.8	1.49e+00	0	43	104	1213202432	72	21643
2026-01-16 23:09:36.68	171.67	7.18	-50.8	-66.0	3.8	1.49e+00	0	43	104	1213202432	72	21677
2026-01-16 23:09:39.52	171.82	6.97	-50.6	-66.0	3.8	1.49e+00	0	42	104	1213202432	72	21708
2026-01-16 23:09:42.65	171.99	6.74	-50.4	-66.0	3.8	1.49e+00	0	43	104	1213202432	72	21568
2026