passes_logs/2026/01/16/T1/T1__20260116_110841_NOAA_20_JPSS-1_rec.log

#Pass ID: 20260116_110841_NOAA 20 (JPSS-1)
#Satellite: NOAA 20 (JPSS-1)
#Configuration: NOAA 20
#almurnet v.1.7.20251203
#Start time: 2026-01-16 11:08:42

#Version: 2.0.20230620
#Station: T1
#Location: 37.570604 lon 55.790049 lat
#TLE: 1 43013U 17073A   26015.89389188  .00000026  00000+0  33113-4 0  9999
#TLE: 2 43013  98.7636 316.8238 0001460  37.8997 322.2282 14.19536128422860

#Time	Az	El	Level	Level2	SNR	BER	BlckErr	Temp	State	Recorded	gain1	gain2
2026-01-16 11:08:42.95	199.63	5.07	-49.4	-65.2	3.8	1.49e+00	0	41	0	0	70	22226
2026-01-16 11:08:45.93	199.84	5.26	-49.4	-65.3	3.8	1.49e+00	0	41	104	0	70	22277
2026-01-16 11:08:48.91	200.05	5.46	-49.3	-65.2	3.8	1.49e+00	0	41	104	0	70	22206
2026-01-16 11:08:51.89	200.26	5.65	-49.4	-65.2	3.8	1.49e+00	0	41	104	0	70	22157
2026-01-16 11:08:54.87	200.47	5.85	-49.4	-65.2	3.8	1.49e+00	0	41	104	0	70	22073
2026-01-16 11:08:57.85	200.69	6.04	-49.4	-65.0	3.8	1.49e+00	0	41	104	0	70	21527
2026-01-16 11:09:00.83	200.91	6.24	-49.4	-64.9	3.8	1.49e+00	0	41	104	0	70	21442
2026-01-16 11:09:03.81	201.14	6.44	-49.4	-65.0	3.8	1.49e+00	0	41	104	0	70	21638
2026-01-16 11:09:06.79	201.36	6.64	-49.4	-65.0	3.8	1.49e+00	0	42	104	0	70	21544
2026-01-16 11:09:09.76	201.59	6.84	-49.3	-64.9	3.8	1.49e+00	0	42	104	0	70	21432
2026-01-16 11:09:12.74	201.82	7.04	-49.4	-65.0	3.8	1.49e+00	0	42	104	0	70	21754
2026-01-16 11:09:15.72	202.06	7.25	-49.4	-65.1	3.8	1.49e+00	0	42	104	0	70	21822
2026-01-16 11:09:18.70	202.30	7.45	-49.3	-63.9	3.8	1.49e+00	0	42	104	0	70	19166
2026-01-16 11:09:21.68	202.54	7.66	-49.3	-64.0	3.8	1.49e+00	0	42	104	0	70	19233
2026-01-16 11:09:24.66	202.79	7.86	-49.3	-63.8	3.8	1.49e+00	0	42	104	0	70	18740
2026-01-16 11:09:27.64	203.04	8.07	-48.1	-55.0	8.8	5.73e-02	0	42	0	3145728	68	7682
2026-01-16 11:09:30.62	203.29	8.28	-46.1	-50.3	13.6	1.52e-05	0	42	0	9437184	64	5629
2026-01-16 11:09:33.60	203.54	8.49	-45.3	-48.9	15.1	0.00e+00	0	42	0	14680064	62	5372
2026-01-16 11:09:36.58	203.80	8.71	-46.3	-50.6	13.3	2.20e-06	0	42	0	19922944	63	6181
2026-01-16 11:09:39.56	204.07	8.92	-47.7	-54.1	9.7	5.03e-03	0	42	0	26214400	66	7763
2026-01-16 11:09:42.54	204.33	9.14	-47.3	-52.9	10.7	4.50e-02	0	42	0	31457280	66	6752
2026-01-16 11:09:45.53	204.60	9.35	-46.5	-50.8	13.0	1.59e-01	0	42	0	36700160	65	5654
2026-01-16 11:09:48.51	204.88	9.57	-45.8	-49.5	14.7	0.00e+00	0	42	0	42991616	63	5452
2026-01-16 11:09:51.50	205.16	9.79	-44.8	-47.9	16.3	0.00e+00	0	42	0	48234496	61	5081
2026-01-16 11:09:54.48	205.44	10.01	-44.5	-47.6	16.7	0.00e+00	0	42	0	53477376	60	5169
2026-01-16 11:09:57.47	205.73	10.23	-44.3	-47.2	17.0	0.00e+00	0	42	0	59768832	60	4930
2026-01-16 11:10:00.45	206.02	10.46	-44.1	-46.9	17.2	0.00e+00	0	42	0	65011712	60	4768
2026-01-16 11:10:03.43	206.31	10.68	-44.1	-47.0	17.2	0.00e+00	0	42	0	70254592	60	4826
2026-01-16 11:10:06.42	206.61	10.91	-44.0	-46.7	17.5	0.00e+00	0	42	0	76546048	59	4949
2026-01-16 11:10:09.41	206.92	11.14	-43.9	-46.5	17.6	0.00e+00	0	43	0	81788928	59	4868
2026-01-16 11:10:12.39	207.23	11.37	-44.0	-46.7	17.5	0.00e+00	0	43	0	87031808	59	4927
2026-01-16 11:10:15.38	207.54	11.60	-44.0	-46.7	17.4	0.00e+00	0	43	0	93323264	59	4938
2026-01-16 11:10:18.36	207.86	11.83	-43.9	-46.5	17.6	0.00e+00	0	42	0	98566144	59	4850
2026-01-16 11:10:21.34	208.19	12.06	-43.9	-46.5	17.7	0.00e+00	0	43	0	103809024	59	4825
2026-01-16 11:10:24.33	208.51	12.30	-43.8	-46.4	17.8	0.00e+00	0	42	0	110100480	59	4780
2026-01-16 11:10:27.31	208.85	12.54	-43.8	-46.3	18.0	0.00e+00	0	43	0	115343360	59	4723
2026-01-16 11:10:30.29	209.19	12.77	-43.7	-46.2	18.1	0.00e+00	0	43	0	120586240	59	4679
2026-01-16 11:10:33.28	209.53	13.01	-43.6	-46.1	18.1	0.00e+00	0	43	0	126877696	59	4644
2026-01-16 11:10:36.27	209.88	13.25	-43.7	-46.2	18.1	0.00e+00	0	43	0	132120576	59	4682
2026-01-16 11:10:39.25	210.24	13.50	-43.7	-46.1	18.2	0.00e+00	0	43	0	137363456	59	4636
2026-01-16 11:10:42.23	210.60	13.74	-43.9	-46.4	17.9	0.00e+00	0	43	0	143654912	59	4790
2026-01-16 11:10:45.22	210.97	13.99	-43.9	-46.4	17.9	0.00e+00	0	43	0	148897792	59	4793
2026-01-16 11:10:48.20	211.34	14.23	-44.0	-46.6	17.8	0.00e+00	0	43	0	154140672	59	4887
2026-01-16 11:10:51.19	211.72	14.48	-44.1	-46.7	17.7	0.00e+00	0	43	0	160432128	59	4940
2026-01-16 11:10:54.17	212.10	14.73	-44.2	-46.8	17.6	0.00e+00	0	43	0	165675008	59	5005
2026-01-16 11:10:57.15	212.49	14.98	-44.1	-46.7	17.7	0.00e+00	0	43	0	170917888	59	4967
2026-01-16 11:11:00.14	212.89	15.23	-44.0	-46.6	17.7	0.00e+00	0	43	0	177209344	59	4917
2026-01-16 11:11:03.12	213.30	15.48	-44.0	-46.6	17.8	0.00e+00	0	43	0	182452224	59	4900
2026-01-16 11:11:06.10	213.71	15.74	-44.1	-46.7	17.7	0.00e+00	0	43	0	187695104	59	4978
2026-01-16 11:11:09.09	214.13	15.99	-44.2	-46.8	17.6	0.00e+00	0	43	0	193986560	59	5034
2026-01-16 11:11:12.07	214.55	16.25	-44.3	-46.9	17.5	0.00e+00	0	43	0	199229440	59	5078
2026-01-16 11:11:15.06	214.98	16.51	-44.2	-46.9	17.5	0.00e+00	0	43	0	204472320	59	5079
2026-01-16 11:11:18.04	215.42	16.77	-44.2	-46.8	17.6	0.00e+00	0	43	0	210763776	59	5027
2026-01-16 11:11:21.02	215.87	17.03	-44.3	-46.9	17.5	0.00e+00	0	42	0	216006656	59	5072
2026-01-16 11:11:24.01	216.32	17.29	-44.0	-46.6	17.8	0.00e+00	0	43	0	221249536	59	4903
2026-01-16 11:11:26.99	216.79	17.55	-43.8	-46.4	18.1	0.00e+00	0	43	0	227540992	59	4763
2026-01-16 11:11:29.97	217.25	17.82	-43.8	-46.3	18.1	0.00e+00	0	43	0	232783872	59	4732
2026-01-16 11:11:32.96	217.73	18.08	-43.8	-46.4	18.1	0.00e+00	0	43	0	238026752	59	4765
2026-01-16 11:11:35.94	218.22	18.35	-43.9	-46.5	18.0	0.00e+00	0	43	0	244318208	59	4832
2026-01-16 11:11:38.93	218.72	18.62	-43.9	-46.4	18.1	0.00e+00	0	43	0	249561088	59	4798
2026-01-16 11:11:41.91	219.22	18.88	-43.9	-46.4	18.1	0.00e+00	0	43	0	254803968	59	4787
2026-01-16 11:11:44.89	219.73	19.15	-43.8	-46.3	18.1	0.00e+00	0	43	0	261095424	59	4751
2026-01-16 11:11:47.88	220.25	19.42	-43.7	-46.1	18.3	0.00e+00	0	43	0	266338304	59	4642
2026-01-16 11:11:50.86	220.78	19.69	-43.4	-45.8	18.7	0.00e+00	0	43	0	271581184	58	4731
2026-01-16 11:11:53.85	221.32	19.96	-43.3	-45.6	18.8	0.00e+00	0	43	0	277872640	58	4637
2026-01-16 11:11:56.83	221.87	20.23	-43.3	-45.7	18.8	0.00e+00	0	43	0	283115520	58	4669
2026-01-16 11:11:59.81	222.42	20.50	-43.2	-45.5	18.9	0.00e+00	0	43	0	288358400	58	4593
2026-01-16 11:12:02.79	222.99	20.77	-43.3	-45.6	18.8	0.00e+00	0	43	0	294649856	58	4635
2026-01-16 11:12:05.78	223.57	21.04	-43.1	-45.4	19.0	0.00e+00	0	43	0	299892736	58	4537
2026-01-16 11:12:08.76	224.16	21.31	-43.1	-45.4	19.1	0.00e+00	0	43	0	305135616	58	4501
2026-01-16 11:12:11.75	224.75	21.58	-43.0	-45.3	19.2	0.00e+00	0	43	0	311427072	58	4456
2026-01-16 11:12:14.73	225.36	21.85	-42.9	-45.1	19.3	0.00e+00	0	43	0	316669952	57	4635
2026-01-16 11:12:17.71	225.98	22.12	-43.0	-45.2	19.2	0.00e+00	0	43	0	322961408	57	4701
2026-01-16 11:12:20.70	226.61	22.39	-42.8	-45.1	19.4	0.00e+00	0	43	0	328204288	57	4609
2026-01-16 11:12:23.69	227.25	22.66	-42.8	-45.0	19.4	0.00e+00	0	43	0	333447168	57	4575
2026-01-16 11:12:26.67	227.90	22.93	-42.6	-44.8	19.6	0.00e+00	0	43	0	339738624	57	4480
2026-01-16 11:12:29.66	228.56	23.19	-42.6	-44.8	19.6	0.00e+00	0	43	0	344981504	56	4744
2026-01-16 11:12:32.64	229.23	23.46	-42.9	-45.2	19.2	0.00e+00	0	43	0	350224384	56	4964
2026-01-16 11:12:35.62	229.91	23.72	-42.8	-45.1	19.3	0.00e+00	0	43	0	356515840	56	4900
2026-01-16 11:12:38.61	230.61	23.99	-42.9	-45.1	19.3	0.00e+00	0	43	0	361758720	56	4926
2026-01-16 11:12:41.60	231.32	24.25	-42.7	-44.9	19.5	0.00e+00	0	43	0	367001600	56	4804
2026-01-16 11:12:44.58	232.03	24.51	-43.0	-45.3	19.2	0.00e+00	0	43	0	373293056	56	4987
2026-01-16 11:12:47.56	232.76	24.76	-43.1	-45.4	19.1	0.00e+00	0	43	0	378535936	56	5050
2026-01-16 11:12:50.55	233.50	25.02	-43.3	-45.7	18.8	0.00e+00	0	43	0	383778816	57	4945
2026-01-16 11:12:53.54	234.26	25.27	-43.6	-46.1	18.4	0.00e+00	0	43	0	390070272	57	5185
2026-01-16 11:12:56.52	235.02	25.52	-43.6	-46.0	18.5	0.00e+00	0	43	0	395313152	58	4865
2026-01-16 11:12:59.51	235.80	25.76	-43.9	-46.4	18.2	0.00e+00	0	43	0	400556032	58	5045
2026-01-16 11:13:02.49	236.58	26.01	-43.9	-46.3	18.2	0.00e+00	0	43	0	406847488	58	5037
2026-01-16 11:13:05.48	237.38	26.25	-43.8	-46.3	18.3	0.00e+00	0	43	0	412090368	58	4984
2026-01-16 11:13:08.46	238.19	26.48	-44.1	-46.7	17.9	0.00e+00	0	43	0	417333248	58	5231
2026-01-16 11:13:11.44	239.02	26.71	-44.7	-47.4	17.2	0.00e+00	0	43	0	423624704	60	5089
2026-01-16 11:13:14.43	239.85	26.94	-44.9	-47.8	16.8	0.00e+00	0	43	0	428867584	60	5293
2026-01-16 11:13:17.41	240.70	27.16	-44.9	-47.8	16.8	0.00e+00	0	43	0	434110464	60	5324
2026-01-16 11:13:20.40	241.56	27.38	-45.1	-47.9	16.8	0.00e+00	0	43	0	440401920	60	5377
2026-01-16 11:13:23.39	242.43	27.59	-45.3	-48.2	16.4	0.00e+00	0	43	0	445644800	61	5279
2026-01-16 11:13:26.37	243.30	27.79	-45.5	-48.5	16.2	0.00e+00	0	43	0	450887680	61	5422
2026-01-16 11:13:29.36	244.20	28.00	-45.2	-48.1	16.6	0.00e+00	0	43	0	457179136	61	5163
2026-01-16 11:13:32.34	245.10	28.19	-45.0	-47.8	16.9	0.00e+00	0	43	0	462422016	61	5008
2026-01-16 11:13:35.33	246.01	28.38	-45.2	-48.1	16.6	0.00e+00	0	43	0	467664896	61	5181
2026-01-16 11:13:38.31	246.93	28.56	-44.9	-47.7	17.0	0.00e+00	0	43	0	473956352	61	4930
2026-01-16 11:13:41.30	247.87	28.73	-45.0	-47.9	16.8	0.00e+00	0	43	0	479199232	61	5043
2026-01-16 11:13:44.28	248.81	28.90	-45.2	-48.1	16.5	0.00e+00	0	43	0	484442112	61	5206
2026-01-16 11:13:47.27	249.76	29.06	-45.8	-48.9	15.8	0.00e+00	0	43	0	490733568	62	5390
2026-01-16 11:13:50.25	250.72	29.21	-46.0	-49.4	15.3	0.00e+00	0	43	0	495976448	62	5716
2026-01-16 11:13:53.24	251.70	29.36	-46.3	-49.8	14.8	0.00e+00	0	43	0	501219328	63	5645
2026-01-16 11:13:56.22	252.67	29.49	-46.9	-50.8	13.8	3.00e-06	0	43	0	507510784	64	5943
2026-01-16 11:13:59.21	253.66	29.62	-46.6	-50.6	14.0	4.50e-06	0	43	0	512753664	64	5808
2026-01-16 11:14:02.19	254.65	29.74	-46.2	-49.9	14.6	7.00e-07	0	43	0	517996544	64	5395
2026-01-16 11:14:05.19	255.66	29.85	-46.4	-50.0	14.6	7.00e-07	0	43	0	524288000	64	5426
2026-01-16 11:14:08.17	256.66	29.95	-46.3	-49.8	14.7	0.00e+00	0	43	0	529530880	64	5337
2026-01-16 11:14:11.15	257.67	30.05	-46.7	-50.3	14.3	0.00e+00	0	43	0	534773760	64	5631
2026-01-16 11:14:14.14	258.69	30.13	-46.2	-49.6	15.0	1.50e-06	0	43	0	541065216	64	5203
2026-01-16 11:14:17.12	259.72	30.20	-45.8	-49.0	15.8	0.00e+00	0	43	0	546308096	63	5105
2026-01-16 11:14:20.10	260.74	30.26	-45.6	-48.7	16.0	0.00e+00	0	43	0	551550976	63	4951
2026-01-16 11:14:23.09	261.77	30.32	-45.9	-49.2	15.5	0.00e+00	0	43	0	557842432	63	5219
2026-01-16 11:14:26.07	262.80	30.36	-45.4	-48.4	16.3	0.00e+00	0	43	0	563085312	62	5089
2026-01-16 11:14:29.05	263.84	30.40	-45.6	-48.8	16.0	0.00e+00	0	43	0	568328192	62	5284
2026-01-16 11:14:32.03	264.87	30.42	-45.8	-48.9	15.7	0.00e+00	0	43	0	574619648	62	5394
2026-01-16 11:14:35.02	265.92	30.43	-45.8	-49.0	15.7	0.00e+00	0	43	0	579862528	62	5420
2026-01-16 11:14:38.01	266.96	30.44	-45.8	-49.0	15.8	0.00e+00	0	43	0	585105408	62	5419
2026-01-16 11:14:40.99	267.99	30.43	-45.3	-48.3	16.5	0.00e+00	0	43	0	591396864	62	4996
2026-01-16 11:14:43.98	269.03	30.41	-44.4	-47.0	17.6	0.00e+00	0	43	0	596639744	60	4846
2026-01-16 11:14:46.96	270.07	30.38	-44.6	-47.3	17.4	0.00e+00	0	43	0	601882624	60	5027
2026-01-16 11:14:49.95	271.10	30.35	-45.0	-47.8	16.9	0.00e+00	0	43	0	608174080	60	5330
2026-01-16 11:14:52.93	272.13	30.30	-45.2	-48.1	16.6	0.00e+00	0	43	0	613416960	61	5205
2026-01-16 11:14:55.91	273.16	30.24	-45.2	-48.2	16.5	0.00e+00	0	43	0	618659840	61	5223
2026-01-16 11:14:58.89	274.18	30.18	-45.7	-49.0	15.9	0.00e+00	0	43	0	624951296	62	5418
2026-01-16 11:15:01.88	275.21	30.10	-46.4	-49.9	14.9	0.00e+00	0	43	0	630194176	63	5664
2026-01-16 11:15:04.86	276.22	30.01	-45.9	-49.0	15.7	7.00e-07	0	43	0	635437056	63	5139
2026-01-16 11:15:07.84	277.23	29.92	-45.7	-48.8	15.9	0.00e+00	0	43	0	641728512	63	5026
2026-01-16 11:15:10.83	278.23	29.81	-46.4	-49.9	14.8	0.00e+00	0	43	0	646971392	63	5686
2026-01-16 11:15:13.81	279.22	29.70	-46.2	-49.5	15.1	0.00e+00	0	43	0	652214272	63	5462
2026-01-16 11:15:16.80	280.22	29.58	-46.2	-49.4	15.3	0.00e+00	0	43	0	658505728	63	5392
2026-01-16 11:15:19.78	281.19	29.45	-45.7	-48.8	16.0	0.00e+00	0	43	0	663748608	63	4987
2026-01-16 11:15:22.77	282.17	29.31	-45.7	-48.8	16.0	0.00e+00	0	43	0	668991488	62	5292
2026-01-16 11:15:25.75	283.13	29.16	-46.5	-49.9	14.9	0.00e+00	0	43	0	675282944	63	5673
2026-01-16 11:15:28.74	284.09	29.01	-45.7	-48.8	16.0	0.00e+00	0	43	0	680525824	63	5003
2026-01-16 11:15:31.72	285.03	28.85	-45.1	-48.0	16.8	0.00e+00	0	43	0	685768704	62	4831
2026-01-16 11:15:34.71	285.97	28.68	-44.9	-47.7	16.9	0.00e+00	0	43	0	692060160	61	4975
2026-01-16 11:15:37.69	286.90	28.50	-44.8	-47.6	17.1	0.00e+00	0	43	0	697303040	61	4902
2026-01-16 11:15:40.67	287.81	28.32	-45.0	-47.9	16.8	0.00e+00	0	43	0	702545920	61	5043
2026-01-16 11:15:43.66	288.72	28.13	-44.7	-47.4	17.2	0.00e+00	0	43	0	708837376	61	4809
2026-01-16 11:15:46.64	289.61	27.93	-44.1	-46.6	18.0	0.00e+00	0	43	0	714080256	60	4635
2026-01-16 11:15:49.63	290.50	27.73	-43.9	-46.4	18.2	0.00e+00	0	43	0	719323136	59	4779
2026-01-16 11:15:52.61	291.37	27.53	-44.8	-47.6	17.1	0.00e+00	0	43	0	725614592	60	5185
2026-01-16 11:15:55.60	292.23	27.31	-45.2	-48.1	16.6	0.00e+00	0	43	0	730857472	61	5193
2026-01-16 11:15:58.58	293.08	27.10	-45.5	-48.5	16.2	0.00e+00	0	43	0	736100352	61	5448
2026-01-16 11:16:01.56	293.92	26.87	-45.2	-48.2	16.5	0.00e+00	0	43	0	742391808	61	5262
2026-01-16 11:16:04.55	294.75	26.65	-44.6	-47.3	17.3	0.00e+00	0	43	0	747634688	61	4749
2026-01-16 11:16:07.53	295.57	26.42	-44.8	-47.6	17.1	0.00e+00	0	43	0	752877568	61	4893
2026-01-16 11:16:10.52	296.37	26.18	-45.1	-48.0	16.7	0.00e+00	0	43	0	759169024	61	5111
2026-01-16 11:16:13.50	297.16	25.94	-45.3	-48.2	16.5	0.00e+00	0	43	0	764411904	61	5243
2026-01-16 11:16:16.49	297.94	25.70	-44.8	-47.6	17.1	0.00e+00	0	43	0	769654784	61	4889
2026-01-16 11:16:19.47	298.71	25.46	-44.2	-46.9	17.8	0.00e+00	0	43	0	775946240	60	4760
2026-01-16 11:16:22.45	299.47	25.21	-44.2	-46.9	17.8	0.00e+00	0	43	0	781189120	60	4769
2026-01-16 11:16:25.44	300.21	24.96	-43.7	-46.1	18.5	0.00e+00	0	43	0	786432000	59	4615
2026-01-16 11:16:28.42	300.95	24.71	-44.1	-46.8	17.9	0.00e+00	0	43	0	792723456	59	4985
2026-01-16 11:16:31.41	301.67	24.45	-44.2	-46.8	17.8	0.00e+00	0	43	0	797966336	59	4987
2026-01-16 11:16:34.39	302.38	24.19	-43.8	-46.3	18.3	0.00e+00	0	43	0	803209216	59	4726
2026-01-16 11:16:37.37	303.08	23.93	-44.3	-46.9	17.7	0.00e+00	0	43	0	809500672	59	5074
2026-01-16 11:16:40.36	303.77	23.67	-43.9	-46.4	18.2	0.00e+00	0	43	0	814743552	59	4763
2026-01-16 11:16:43.34	304.44	23.41	-44.3	-46.8	17.8	0.00e+00	0	43	0	819986432	59	5041
2026-01-16 11:16:46.33	305.11	23.15	-44.7	-47.4	17.2	0.00e+00	0	43	0	826277888	60	5085
2026-01-16 11:16:49.31	305.76	22.88	-44.2	-46.8	17.8	0.00e+00	0	43	0	831520768	60	4756
2026-01-16 11:16:52.30	306.41	22.61	-45.1	-48.0	16.6	0.00e+00	0	43	0	836763648	60	5461
2026-01-16 11:16:55.28	307.04	22.35	-45.2	-48.2	16.5	0.00e+00	0	43	0	843055104	61	5228
2026-01-16 11:16:58.27	307.66	22.08	-44.3	-47.0	17.6	0.00e+00	0	43	0	848297984	60	4837
2026-01-16 11:17:01.25	308.28	21.81	-45.1	-48.0	16.7	0.00e+00	0	43	0	854589440	60	5428
2026-01-16 11:17:04.24	308.88	21.54	-44.8	-47.6	17.0	0.00e+00	0	43	0	859832320	60	5202
2026-01-16 11:17:07.22	309.47	21.28	-43.9	-46.3	18.2	0.00e+00	0	43	0	865075200	59	4748
2026-01-16 11:17:10.20	310.05	21.01	-44.7	-47.4	17.2	0.00e+00	0	43	0	871366656	59	5386
2026-01-16 11:17:13.19	310.62	20.74	-44.9	-47.9	16.7	0.00e+00	0	43	0	876609536	60	5384
2026-01-16 11:17:16.17	311.18	20.47	-44.3	-47.0	17.6	0.00e+00	0	43	0	881852416	60	4834
2026-01-16 11:17:19.16	311.74	20.20	-44.7	-47.5	17.1	0.00e+00	0	43	0	888143872	60	5144
2026-01-16 11:17:22.14	312.28	19.94	-44.8	-47.7	16.9	0.00e+00	0	43	0	893386752	60	5244
2026-01-16 11:17:25.12	312.81	19.67	-44.0	-46.6	17.9	0.00e+00	0	43	0	898629632	60	4648
2026-01-16 11:17:28.11	313.34	19.40	-44.1	-46.7	17.8	0.00e+00	0	43	0	904921088	59	4938
2026-01-16 11:17:31.09	313.86	19.14	-44.3	-47.0	17.5	0.00e+00	0	43	0	910163968	59	5117
2026-01-16 11:17:34.06	314.36	18.87	-44.1	-46.7	17.8	0.00e+00	0	43	0	915406848	59	4961
2026-01-16 11:17:37.04	314.86	18.61	-43.8	-46.4	18.1	0.00e+00	0	43	0	921698304	59	4769
2026-01-16 11:17:40.03	315.35	18.34	-44.3	-47.0	17.5	0.00e+00	0	43	0	926941184	59	5119
2026-01-16 11:17:43.01	315.83	18.08	-44.3	-47.0	17.5	0.00e+00	0	43	0	932184064	59	5110
2026-01-16 11:17:45.99	316.31	17.82	-44.1	-46.7	17.8	0.00e+00	0	43	0	938475520	59	4940
2026-01-16 11:17:48.98	316.78	17.56	-43.7	-46.2	18.2	0.00e+00	0	43	0	943718400	59	4701
2026-01-16 11:17:51.96	317.23	17.30	-43.6	-46.1	18.3	0.00e+00	0	43	0	948961280	59	4638
2026-01-16 11:17:54.95	317.69	17.04	-43.4	-46.0	18.5	0.00e+00	0	43	0	955252736	58	4824
2026-01-16 11:17:57.93	318.13	16.78	-43.5	-45.9	18.5	0.00e+00	0	43	0	960495616	58	4800
2026-01-16 11:18:00.92	318.57	16.52	-43.6	-46.0	18.4	0.00e+00	0	43	0	965738496	58	4857
2026-01-16 11:18:03.90	318.99	16.27	-43.7	-46.2	18.3	0.00e+00	0	43	0	972029952	58	4949
2026-01-16 11:18:06.89	319.42	16.01	-43.8	-46.3	18.1	0.00e+00	0	43	0	977272832	58	5029
2026-01-16 11:18:09.87	319.83	15.76	-43.9	-46.5	17.9	0.00e+00	0	43	0	982515712	58	5127
2026-01-16 11:18:12.86	320.24	15.51	-44.1	-46.7	17.8	0.00e+00	0	43	0	988807168	58	5243
2026-01-16 11:18:15.84	320.64	15.26	-43.9	-46.6	17.9	0.00e+00	0	43	0	994050048	58	5176
2026-01-16 11:18:18.82	321.04	15.01	-43.9	-46.5	17.9	0.00e+00	0	43	0	999292928	58	5155
2026-01-16 11:18:21.81	321.43	14.76	-43.9	-46.7	17.8	0.00e+00	0	43	0	1005584384	58	5247
2026-01-16 11:18:24.79	321.81	14.51	-44.0	-46.7	17.7	0.00e+00	0	43	0	1010827264	58	5238
2026-01-16 11:18:27.77	322.19	14.27	-44.0	-46.6	17.8	0.00e+00	0	43	0	1016070144	58	5205
2026-01-16 11:18:30.76	322.56	14.03	-44.2	-46.9	17.5	0.00e+00	0	43	0	1022361600	59	5065
2026-01-16 11:18:33.74	322.92	13.78	-44.6	-47.3	17.1	0.00e+00	0	43	0	1027604480	59	5299
2026-01-16 11:18:36.73	323.28	13.54	-44.9	-47.9	16.6	0.00e+00	0	43	0	1032847360	60	5351
2026-01-16 11:18:39.72	323.64	13.30	-45.1	-48.2	16.3	0.00e+00	0	43	0	1039138816	60	5572
2026-01-16 11:18:42.71	323.99	13.06	-44.9	-48.2	16.2	0.00e+00	0	43	0	1044381696	60	5570
2026-01-16 11:18:45.69	324.33	12.83	-44.7	-48.1	16.4	0.00e+00	0	43	0	1049624576	60	5467
2026-01-16 11:18:48.67	324.67	12.59	-44.6	-48.0	16.4	0.00e+00	0	43	0	1055916032	60	5443
2026-01-16 11:18:51.66	325.00	12.36	-44.8	-48.2	16.2	0.00e+00	0	43	0	1061158912	60	5579
2026-01-16 11:18:54.64	325.33	12.12	-44.9	-48.4	16.1	0.00e+00	0	43	0	1066401792	60	5661
2026-01-16 11:18:57.63	325.65	11.89	-44.9	-48.4	16.1	0.00e+00	0	43	0	1072693248	60	5668
2026-01-16 11:19:00.61	325.97	11.66	-44.8	-48.4	16.0	0.00e+00	0	43	0	1077936128	60	5686
2026-01-16 11:19:03.59	326.28	11.44	-44.7	-48.1	16.3	0.00e+00	0	43	0	1083179008	60	5513
2026-01-16 11:19:06.58	326.59	11.21	-44.8	-48.3	16.1	0.00e+00	0	43	0	1089470464	60	5611
2026-01-16 11:19:09.56	326.90	10.98	-45.1	-48.4	16.0	0.00e+00	0	43	0	1094713344	60	5720
2026-01-16 11:19:12.55	327.20	10.76	-45.3	-48.6	15.8	0.00e+00	0	43	0	1099956224	61	5483
2026-01-16 11:19:15.53	327.49	10.54	-45.3	-48.6	15.8	0.00e+00	0	43	0	1106247680	61	5477
2026-01-16 11:19:18.52	327.78	10.31	-45.1	-48.4	15.9	0.00e+00	0	43	0	1111490560	61	5393
2026-01-16 11:19:21.50	328.07	10.09	-45.0	-48.2	16.2	0.00e+00	0	43	0	1116733440	61	5222
2026-01-16 11:19:24.48	328.35	9.88	-44.8	-47.8	16.5	0.00e+00	0	43	0	1123024896	61	5038
2026-01-16 11:19:27.46	328.63	9.66	-44.8	-47.7	16.6	0.00e+00	0	43	0	1128267776	61	4975
2026-01-16 11:19:30.45	328.91	9.44	-44.7	-47.6	16.7	0.00e+00	0	43	0	1133510656	61	4905
2026-01-16 11:19:33.43	329.18	9.23	-44.7	-47.7	16.5	0.00e+00	0	43	0	1139802112	61	4983
2026-01-16 11:19:36.42	329.45	9.01	-45.1	-48.4	15.9	0.00e+00	0	43	0	1145044992	61	5382
2026-01-16 11:19:39.40	329.71	8.80	-50.6	-66.0	3.8	1.49e+00	0	43	104	1146093568	71	22795
2026-01-16 11:19:42.38	329.97	8.59	-50.3	-66.2	3.8	1.49e+00	0	43	104	1146093568	71	23375
2026-01-16 11:19:45.36	330.22	8.38	-50.9	-66.2	3.8	1.49e+00	0	43	104	1146093568	72	22219
2026-01-16 11:19:48.33	330.48	8.18	-50.8	-66.3	3.8	1.49e+00	0	43	104	1146093568	72	22277
2026-01-16 11:19:51.31	330.73	7.97	-51.1	-66.3	3.8	1.49e+00	0	43	104	1146093568	72	22345
2026-01-16 11:19:54.30	330.97	7.76	-51.1	-66.3	3.8	1.49e+00	0	43	104	1146093568	72	22373
2026-01-16 11:19:57.28	331.22	7.56	-50.9	-66.2	3.8	1.49e+00	0	43	104	1146093568	72	22262
2026-01-16 11:20:00.26	331.46	7.36	-50.6	-66.2	3.8	1.49e+00	0	43	104	1146093568	72	22137
2026-01-16 11:20:03.24	331.69	7.15	-50.6	-66.2	3.8	1.49e+00	0	43	104	1146093568	72	22065
2026-01-16 11:20:06.21	331.93	6.96	-50.6	-66.2	3.8	1.49e+00	0	43	104	1146093568	72	22141
2026-01-16 11:20:09.19	332.16	6.76	-50.7	-66.2	3.8	1.49e+00	0	43	104	1146093568	72	22182
2026-01-16 11:20:12.17	332.38	6.56	-50.6	-66.2	3.8	1.49e+00	0	43	104	1146093568	72	22227
2026-01-16 11:20:15.15	332.61	6.36	-50.6	-66.2	3.8	1.49e+00	0	43	104	1146093568	72	22083
2026-01-16 11:20:18.13	332.83	6.16	-50.6	-66.2	3.8	1.49e+00	0	43	104	1146093568	72	22202
2026-01-16 11:20:21.11	333.05	5.97	-50.6	-66.2	3.8	1.49e+00	0	43	104	1146093568	72	22109
2026-01-16 11:20:24.09	333.27	5.78	-50.6	-66.2	3.8	1.49e+00	0	43	104	1146093568	72	22122
2026-01-16 11:20:27.07	333.48	5.58	-50.7	-66.2	3.8	1.49e+00	0	43	104	1146093568	72	22142
2026-01-16 11:20:30.05	333.69	5.39	-50.7	-66.2	3.8	1.49e+00	0	43	104	1146093568	72	22140
2026-01-16 11:20:33.03	333.90	5.20	-50.7	-66.2	3.8	1.49e+00	0	43	104	1146093568	72	22132
2026-01-16 11:20:36.01	334.11	5.01	-50.7	-66.2	3.8	1.49e+00	0	43	104	1146093568	72	22062

#Closed at: 2026-01-16 11:20:37
#Recorded file [1146 MB]: D:/Data/31040_260116_140842.dat