passes_logs/2026/01/16/T1/T1__20260116_104731_SUOMI_NPP_rec.log

#Pass ID: 20260116_104731_SUOMI NPP
#Satellite: SUOMI NPP
#Configuration: NPP
#almurnet v.1.7.20251203
#Start time: 2026-01-16 10:47:31

#Version: 2.0.20230620
#Station: T1
#Location: 37.570604 lon 55.790049 lat
#TLE: 1 37849U 11061A   26015.94982489  .00000054  00000+0  46705-4 0  9991
#TLE: 2 37849  98.7812 317.9902 0002438  62.0366 298.1057 14.19525452736847

#Time	Az	El	Level	Level2	SNR	BER	BlckErr	Temp	State	Recorded	gain1	gain2
2026-01-16 10:47:31.24	185.38	5.00	-49.8	-65.6	3.8	1.49e+00	0	40	0	0	70	23153
2026-01-16 10:47:35.20	185.56	5.28	-49.6	-65.3	3.8	1.49e+00	0	40	104	0	70	22431
2026-01-16 10:47:39.17	185.74	5.55	-49.6	-65.2	3.8	1.49e+00	0	41	104	0	70	22157
2026-01-16 10:47:43.14	185.93	5.83	-49.6	-65.3	3.8	1.49e+00	0	41	104	0	70	22368
2026-01-16 10:47:47.12	186.12	6.12	-49.5	-65.3	3.8	1.49e+00	0	41	104	0	70	22424
2026-01-16 10:47:51.09	186.32	6.40	-49.6	-65.3	3.8	1.49e+00	0	41	104	0	70	22341
2026-01-16 10:47:55.07	186.52	6.69	-49.5	-65.3	3.8	1.49e+00	0	41	104	0	70	22318
2026-01-16 10:47:59.04	186.72	6.98	-49.5	-64.0	3.8	1.49e+00	0	41	104	0	70	19187
2026-01-16 10:48:03.01	186.93	7.27	-49.5	-64.6	3.8	1.49e+00	0	41	104	0	70	20616
2026-01-16 10:48:06.98	187.14	7.57	-49.2	-60.1	4.8	1.38e+00	0	42	0	0	70	12303
2026-01-16 10:48:10.96	187.35	7.87	-46.5	-50.9	13.0	5.60e-04	0	42	0	7340032	65	5709
2026-01-16 10:48:14.93	187.57	8.17	-45.0	-48.4	15.6	0.00e+00	0	42	0	14680064	62	5067
2026-01-16 10:48:18.90	187.79	8.48	-45.7	-49.4	14.6	0.00e+00	0	42	0	23068672	61	6045
2026-01-16 10:48:22.87	188.02	8.79	-47.6	-53.5	10.4	3.13e-03	0	42	0	30408704	65	7631
2026-01-16 10:48:26.85	188.26	9.10	-48.9	-58.2	6.1	3.15e-01	0	42	0	37748736	68	11074
2026-01-16 10:48:30.83	188.49	9.42	-46.4	-50.8	13.2	1.36e-02	0	42	0	44040192	64	5954
2026-01-16 10:48:34.81	188.74	9.74	-45.9	-49.7	14.4	1.50e-06	0	42	0	51380224	63	5547
2026-01-16 10:48:38.79	188.98	10.07	-45.8	-49.5	14.6	0.00e+00	0	42	0	58720256	63	5447
2026-01-16 10:48:42.77	189.24	10.40	-45.4	-48.9	15.2	0.00e+00	0	42	0	67108864	62	5367
2026-01-16 10:48:46.75	189.50	10.73	-45.1	-48.4	15.7	0.00e+00	0	42	0	74448896	61	5359
2026-01-16 10:48:50.72	189.76	11.07	-44.5	-47.6	16.5	0.00e+00	0	42	0	81788928	61	4885
2026-01-16 10:48:54.70	190.03	11.41	-44.4	-47.5	16.6	0.00e+00	0	42	0	89128960	60	5123
2026-01-16 10:48:58.68	190.31	11.76	-44.0	-46.9	17.2	0.00e+00	0	42	0	96468992	59	5070
2026-01-16 10:49:02.65	190.59	12.11	-43.8	-46.6	17.5	0.00e+00	0	42	0	103809024	59	4882
2026-01-16 10:49:06.63	190.88	12.46	-43.7	-46.4	17.6	0.00e+00	0	42	0	111149056	59	4783
2026-01-16 10:49:10.61	191.18	12.82	-43.7	-46.3	17.7	0.00e+00	0	42	0	118489088	58	5019
2026-01-16 10:49:14.59	191.48	13.18	-43.5	-46.1	17.9	0.00e+00	0	42	0	125829120	58	4884
2026-01-16 10:49:18.56	191.79	13.55	-43.4	-46.0	18.1	0.00e+00	0	42	0	134217728	58	4829
2026-01-16 10:49:22.54	192.11	13.93	-43.4	-46.0	18.0	0.00e+00	0	42	0	141557760	58	4827
2026-01-16 10:49:26.52	192.43	14.30	-43.3	-45.9	18.2	0.00e+00	0	42	0	148897792	58	4765
2026-01-16 10:49:30.50	192.77	14.69	-43.1	-45.6	18.4	0.00e+00	0	42	0	156237824	58	4619
2026-01-16 10:49:34.47	193.11	15.08	-43.1	-45.6	18.5	0.00e+00	0	43	0	163577856	58	4628
2026-01-16 10:49:38.45	193.46	15.47	-43.1	-45.6	18.4	0.00e+00	0	43	0	170917888	57	4883
2026-01-16 10:49:42.43	193.82	15.87	-42.9	-45.3	18.6	0.00e+00	0	43	0	178257920	57	4736
2026-01-16 10:49:46.41	194.19	16.28	-42.8	-45.2	18.7	0.00e+00	0	43	0	185597952	57	4680
2026-01-16 10:49:50.38	194.57	16.69	-42.6	-45.0	19.0	0.00e+00	0	43	0	192937984	57	4563
2026-01-16 10:49:54.36	194.96	17.11	-42.8	-45.3	18.8	0.00e+00	0	42	0	201326592	57	4711
2026-01-16 10:49:58.34	195.36	17.53	-43.0	-45.5	18.6	0.00e+00	0	43	0	208666624	57	4816
2026-01-16 10:50:02.32	195.77	17.96	-43.0	-45.5	18.6	0.00e+00	0	43	0	216006656	57	4820
2026-01-16 10:50:06.30	196.19	18.39	-43.2	-45.7	18.5	0.00e+00	0	43	0	223346688	57	4940
2026-01-16 10:50:10.28	196.63	18.84	-43.4	-45.9	18.3	0.00e+00	0	43	0	230686720	57	5051
2026-01-16 10:50:14.25	197.07	19.28	-43.5	-46.0	18.2	0.00e+00	0	43	0	238026752	58	4816
2026-01-16 10:50:18.23	197.53	19.74	-43.3	-45.7	18.4	0.00e+00	0	43	0	245366784	58	4701
2026-01-16 10:50:22.22	198.01	20.20	-43.5	-45.9	18.2	0.00e+00	0	43	0	252706816	58	4814
2026-01-16 10:50:26.20	198.50	20.67	-43.7	-46.2	18.1	0.00e+00	0	43	0	260046848	58	4939
2026-01-16 10:50:30.18	199.00	21.14	-44.0	-46.6	17.6	0.00e+00	0	43	0	268435456	58	5182
2026-01-16 10:50:34.15	199.52	21.62	-43.9	-46.5	17.8	0.00e+00	0	43	0	275775488	59	4825
2026-01-16 10:50:38.13	200.05	22.11	-43.7	-46.2	18.0	0.00e+00	0	43	0	283115520	58	4959
2026-01-16 10:50:42.11	200.60	22.61	-43.6	-46.0	18.2	0.00e+00	0	43	0	290455552	58	4842
2026-01-16 10:50:46.09	201.17	23.11	-43.7	-46.2	18.0	0.00e+00	0	43	0	297795584	58	4955
2026-01-16 10:50:50.07	201.75	23.62	-43.9	-46.4	17.9	0.00e+00	0	43	0	305135616	58	5094
2026-01-16 10:50:54.05	202.36	24.14	-43.7	-46.2	18.1	0.00e+00	0	43	0	312475648	58	4933
2026-01-16 10:50:58.03	202.98	24.66	-43.8	-46.3	17.9	0.00e+00	0	43	0	319815680	58	5005
2026-01-16 10:51:02.02	203.63	25.19	-44.1	-46.7	17.6	0.00e+00	0	43	0	328204288	58	5279
2026-01-16 10:51:06.00	204.30	25.73	-44.7	-47.4	16.9	0.00e+00	0	43	0	335544320	60	5099
2026-01-16 10:51:09.97	204.99	26.27	-44.2	-46.8	17.6	0.00e+00	0	43	0	342884352	60	4725
2026-01-16 10:51:13.95	205.70	26.82	-44.2	-46.8	17.5	0.00e+00	0	43	0	350224384	59	5008
2026-01-16 10:51:17.93	206.44	27.38	-44.4	-47.0	17.3	0.00e+00	0	43	0	357564416	59	5136
2026-01-16 10:51:21.91	207.20	27.95	-43.9	-46.3	18.0	0.00e+00	0	43	0	364904448	59	4736
2026-01-16 10:51:25.89	207.99	28.52	-44.1	-46.6	17.7	0.00e+00	0	43	0	372244480	59	4907
2026-01-16 10:51:29.87	208.81	29.09	-44.7	-47.5	16.9	0.00e+00	0	43	0	379584512	60	5158
2026-01-16 10:51:33.85	209.66	29.67	-45.2	-48.2	16.3	0.00e+00	0	43	0	386924544	61	5233
2026-01-16 10:51:37.83	210.54	30.26	-45.7	-48.8	15.6	0.00e+00	0	43	0	395313152	62	5327
2026-01-16 10:51:41.81	211.45	30.85	-45.1	-48.0	16.5	0.00e+00	0	43	0	402653184	62	4852
2026-01-16 10:51:45.79	212.39	31.45	-44.6	-47.3	17.1	0.00e+00	0	43	0	409993216	61	4757
2026-01-16 10:51:49.77	213.37	32.05	-44.7	-47.5	17.0	0.00e+00	0	43	0	417333248	60	5154
2026-01-16 10:51:53.74	214.39	32.65	-45.5	-48.6	16.0	0.00e+00	0	43	0	424673280	62	5183
2026-01-16 10:51:57.72	215.44	33.25	-44.8	-47.6	16.9	0.00e+00	0	43	0	432013312	61	4871
2026-01-16 10:52:01.70	216.53	33.85	-44.2	-46.8	17.7	0.00e+00	0	43	0	439353344	60	4730
2026-01-16 10:52:05.68	217.66	34.46	-45.3	-48.3	16.3	0.00e+00	0	43	0	446693376	61	5302
2026-01-16 10:52:09.66	218.84	35.06	-44.6	-47.3	17.1	0.00e+00	0	43	0	454033408	61	4741
2026-01-16 10:52:13.64	220.05	35.66	-44.2	-46.8	17.6	0.00e+00	0	43	0	462422016	59	5007
2026-01-16 10:52:17.62	221.32	36.26	-44.6	-47.3	17.3	0.00e+00	0	43	0	469762048	61	4711
2026-01-16 10:52:21.60	222.62	36.86	-44.1	-46.7	17.7	0.00e+00	0	43	0	477102080	59	4947
2026-01-16 10:52:25.58	223.98	37.44	-44.5	-47.3	17.3	0.00e+00	0	43	0	484442112	60	4985
2026-01-16 10:52:29.56	225.39	38.02	-44.7	-47.5	17.0	0.00e+00	0	43	0	491782144	60	5108
2026-01-16 10:52:33.54	226.84	38.59	-44.7	-47.4	17.1	0.00e+00	0	43	0	499122176	60	5064
2026-01-16 10:52:37.52	228.34	39.15	-45.6	-48.7	15.9	0.00e+00	0	43	0	506462208	62	5229
2026-01-16 10:52:41.49	229.90	39.69	-44.9	-47.6	17.0	0.00e+00	0	43	0	513802240	61	4915
2026-01-16 10:52:45.48	231.51	40.22	-44.1	-46.7	17.8	0.00e+00	0	43	0	521142272	60	4663
2026-01-16 10:52:49.46	233.17	40.73	-44.4	-47.1	17.3	0.00e+00	0	43	0	529530880	59	5177
2026-01-16 10:52:53.44	234.88	41.22	-44.5	-47.2	17.3	0.00e+00	0	43	0	536870912	60	4947
2026-01-16 10:52:57.42	236.64	41.68	-44.3	-46.9	17.6	0.00e+00	0	43	0	544210944	59	5064
2026-01-16 10:53:01.39	238.44	42.13	-44.2	-46.7	17.7	0.00e+00	0	43	0	551550976	59	4970
2026-01-16 10:53:05.37	240.30	42.54	-44.0	-46.5	17.9	0.00e+00	0	43	0	558891008	58	5152
2026-01-16 10:53:09.35	242.20	42.93	-44.0	-46.5	17.9	0.00e+00	0	43	0	566231040	59	4832
2026-01-16 10:53:13.33	244.15	43.28	-43.9	-46.4	18.1	0.00e+00	0	43	0	573571072	59	4760
2026-01-16 10:53:17.32	246.14	43.60	-44.5	-47.1	17.3	0.00e+00	0	43	0	580911104	59	5166
2026-01-16 10:53:21.30	248.17	43.88	-44.4	-47.1	17.4	0.00e+00	0	43	0	589299712	60	4880
2026-01-16 10:53:25.27	250.22	44.13	-43.5	-45.8	18.5	0.00e+00	0	43	0	596639744	58	4754
2026-01-16 10:53:29.25	252.31	44.33	-43.7	-46.1	18.3	0.00e+00	0	43	0	603979776	58	4922
2026-01-16 10:53:33.24	254.43	44.50	-43.9	-46.4	17.9	0.00e+00	0	43	0	611319808	59	4783
2026-01-16 10:53:37.22	256.56	44.62	-43.7	-46.1	18.3	0.00e+00	0	43	0	618659840	59	4615
2026-01-16 10:53:41.20	258.70	44.70	-42.9	-45.1	19.2	0.00e+00	0	43	0	625999872	56	4906
2026-01-16 10:53:45.18	260.85	44.74	-43.0	-45.2	19.1	0.00e+00	0	43	0	633339904	58	4438
2026-01-16 10:53:49.16	263.01	44.73	-42.6	-44.8	19.5	0.00e+00	0	43	0	640679936	56	4707
2026-01-16 10:53:53.14	265.16	44.68	-43.9	-46.5	17.9	0.00e+00	0	43	0	649068544	58	5102
2026-01-16 10:53:57.12	267.29	44.58	-43.3	-45.6	18.7	0.00e+00	0	43	0	656408576	57	4920
2026-01-16 10:54:01.10	269.42	44.45	-42.6	-44.8	19.4	0.00e+00	0	43	0	663748608	57	4451
2026-01-16 10:54:05.07	271.51	44.27	-43.2	-45.4	18.9	0.00e+00	0	43	0	671088640	58	4521
2026-01-16 10:54:09.05	273.59	44.05	-45.6	-48.6	16.0	0.00e+00	0	43	0	678428672	62	5184
2026-01-16 10:54:13.04	275.64	43.79	-46.6	-50.3	14.2	7.00e-07	0	43	0	685768704	64	5650
2026-01-16 10:54:17.01	277.64	43.49	-46.2	-49.5	15.2	0.00e+00	0	43	0	693108736	63	5417
2026-01-16 10:54:20.99	279.61	43.16	-45.8	-48.9	15.7	0.00e+00	0	43	0	700448768	62	5365
2026-01-16 10:54:24.98	281.55	42.80	-47.2	-51.3	13.4	5.18e-05	0	43	0	707788800	66	5621
2026-01-16 10:54:28.96	283.43	42.40	-46.0	-49.1	15.5	0.00e+00	0	43	0	716177408	63	5184
2026-01-16 10:54:32.94	285.27	41.98	-44.7	-47.3	17.2	0.00e+00	0	43	0	723517440	61	4751
2026-01-16 10:54:36.91	287.05	41.53	-43.8	-46.2	18.1	0.00e+00	0	43	0	730857472	59	4678
2026-01-16 10:54:40.89	288.79	41.06	-45.2	-48.1	16.4	0.00e+00	0	43	0	738197504	61	5210
2026-01-16 10:54:44.87	290.48	40.57	-44.2	-46.8	17.6	0.00e+00	0	43	0	745537536	59	5006
2026-01-16 10:54:48.85	292.12	40.05	-43.4	-45.8	18.6	0.00e+00	0	43	0	752877568	58	4724
2026-01-16 10:54:52.83	293.70	39.52	-44.5	-47.2	17.3	0.00e+00	0	43	0	760217600	59	5267
2026-01-16 10:54:56.81	295.24	38.98	-42.7	-44.9	19.3	0.00e+00	0	43	0	767557632	57	4521
2026-01-16 10:55:00.79	296.72	38.42	-43.2	-45.6	18.7	0.00e+00	0	43	0	775946240	57	4902
2026-01-16 10:55:04.77	298.15	37.85	-41.6	-43.7	20.3	0.00e+00	0	43	0	783286272	55	4407
2026-01-16 10:55:08.75	299.54	37.27	-41.9	-44.0	20.0	0.00e+00	0	43	0	790626304	55	4567
2026-01-16 10:55:12.73	300.87	36.68	-41.2	-43.3	20.6	0.00e+00	0	43	0	797966336	54	4452
2026-01-16 10:55:16.71	302.16	36.09	-41.8	-43.9	20.1	0.00e+00	0	43	0	805306368	54	4783
2026-01-16 10:55:20.69	303.40	35.50	-42.5	-44.8	19.3	0.00e+00	0	43	0	812646400	55	5028
2026-01-16 10:55:24.67	304.60	34.90	-42.4	-44.6	19.6	0.00e+00	0	43	0	819986432	56	4625
2026-01-16 10:55:28.65	305.76	34.30	-44.4	-47.1	17.5	0.00e+00	0	43	0	827326464	59	5169
2026-01-16 10:55:32.63	306.88	33.70	-43.2	-45.6	18.8	0.00e+00	0	43	0	834666496	58	4606
2026-01-16 10:55:36.61	307.95	33.10	-45.9	-49.3	15.4	0.00e+00	0	43	0	843055104	62	5608
2026-01-16 10:55:40.59	308.99	32.50	-43.3	-45.6	18.7	0.00e+00	0	43	0	850395136	58	4626
2026-01-16 10:55:44.56	309.99	31.90	-46.4	-50.1	14.5	7.00e-07	0	43	0	857735168	63	5802
2026-01-16 10:55:48.54	310.95	31.31	-43.5	-45.9	18.4	0.00e+00	0	43	0	865075200	59	4507
2026-01-16 10:55:52.52	311.88	30.72	-45.2	-48.1	16.5	0.00e+00	0	43	0	872415232	60	5518
2026-01-16 10:55:56.50	312.78	30.13	-43.3	-45.6	18.7	0.00e+00	0	43	0	879755264	58	4646
2026-01-16 10:56:00.48	313.65	29.55	-44.8	-47.5	17.0	0.00e+00	0	43	0	887095296	60	5155
2026-01-16 10:56:04.46	314.48	28.98	-44.9	-47.9	16.5	0.00e+00	0	43	0	894435328	61	5088
2026-01-16 10:56:08.44	315.29	28.41	-42.7	-45.1	19.1	0.00e+00	0	43	0	901775360	57	4635
2026-01-16 10:56:12.42	316.07	27.84	-44.9	-48.0	16.5	0.00e+00	0	43	0	910163968	60	5454
2026-01-16 10:56:16.40	316.82	27.28	-43.6	-46.1	18.2	0.00e+00	0	43	0	917504000	59	4605
2026-01-16 10:56:20.38	317.55	26.73	-43.9	-46.4	17.9	0.00e+00	0	43	0	924844032	58	5097
2026-01-16 10:56:24.36	318.26	26.19	-43.9	-46.6	17.8	0.00e+00	0	43	0	932184064	59	4905
2026-01-16 10:56:28.34	318.94	25.65	-43.0	-45.4	18.9	0.00e+00	0	43	0	939524096	58	4497
2026-01-16 10:56:32.32	319.60	25.12	-42.5	-44.8	19.4	0.00e+00	0	43	0	946864128	57	4476
2026-01-16 10:56:36.30	320.24	24.59	-43.3	-45.8	18.5	0.00e+00	0	43	0	954204160	57	5027
2026-01-16 10:56:40.28	320.86	24.07	-43.7	-46.5	17.9	0.00e+00	0	43	0	961544192	58	5102
2026-01-16 10:56:44.26	321.45	23.56	-43.4	-46.0	18.3	0.00e+00	0	43	0	968884224	58	4841
2026-01-16 10:56:48.24	322.03	23.06	-43.1	-45.5	18.7	0.00e+00	0	43	0	977272832	57	4862
2026-01-16 10:56:52.22	322.60	22.56	-44.0	-46.7	17.7	0.00e+00	0	43	0	984612864	58	5252
2026-01-16 10:56:56.21	323.14	22.07	-44.4	-47.2	17.3	0.00e+00	0	43	0	991952896	60	4940
2026-01-16 10:57:00.19	323.67	21.59	-44.2	-47.0	17.4	0.00e+00	0	43	0	999292928	59	5107
2026-01-16 10:57:04.17	324.19	21.11	-44.1	-46.9	17.5	0.00e+00	0	43	0	1006632960	59	5054
2026-01-16 10:57:08.15	324.68	20.64	-44.6	-47.6	16.8	0.00e+00	0	43	0	1013972992	59	5500
2026-01-16 10:57:12.13	325.17	20.18	-43.9	-46.6	17.7	0.00e+00	0	43	0	1021313024	59	4908
2026-01-16 10:57:16.11	325.64	19.72	-43.6	-46.0	18.3	0.00e+00	0	43	0	1028653056	58	4848
2026-01-16 10:57:20.09	326.10	19.27	-43.1	-45.5	18.7	0.00e+00	0	43	0	1037041664	58	4570
2026-01-16 10:57:24.07	326.54	18.83	-44.1	-46.9	17.5	0.00e+00	0	43	0	1044381696	58	5364
2026-01-16 10:57:28.05	326.97	18.39	-44.3	-47.2	17.1	0.00e+00	0	43	0	1051721728	59	5278
2026-01-16 10:57:32.03	327.39	17.96	-44.0	-46.8	17.5	0.00e+00	0	43	0	1059061760	59	5035
2026-01-16 10:57:36.01	327.80	17.54	-43.6	-46.3	18.0	0.00e+00	0	43	0	1066401792	59	4725
2026-01-16 10:57:39.99	328.20	17.12	-43.5	-46.2	18.1	0.00e+00	0	43	0	1073741824	58	4929
2026-01-16 10:57:43.97	328.59	16.70	-44.4	-47.3	17.1	0.00e+00	0	43	0	1081081856	59	5283
2026-01-16 10:57:47.95	328.97	16.30	-45.2	-48.2	16.2	0.00e+00	0	43	0	1088421888	60	5572
2026-01-16 10:57:51.93	329.34	15.90	-45.2	-48.3	16.1	0.00e+00	0	43	0	1096810496	61	5291
2026-01-16 10:57:55.91	329.70	15.50	-45.0	-48.0	16.4	0.00e+00	0	43	0	1104150528	61	5118
2026-01-16 10:57:59.89	330.05	15.11	-45.1	-48.1	16.2	0.00e+00	0	43	0	1111490560	61	5213
2026-01-16 10:58:03.87	330.39	14.72	-45.1	-48.3	16.1	0.00e+00	0	43	0	1118830592	61	5313
2026-01-16 10:58:07.85	330.72	14.34	-45.1	-48.2	16.1	0.00e+00	0	43	0	1126170624	61	5277
2026-01-16 10:58:11.83	331.05	13.97	-44.9	-47.9	16.4	0.00e+00	0	43	0	1133510656	61	5100
2026-01-16 10:58:15.81	331.37	13.60	-44.6	-47.5	16.9	0.00e+00	0	43	0	1140850688	60	5113
2026-01-16 10:58:19.79	331.68	13.23	-44.0	-46.6	17.7	0.00e+00	0	43	0	1148190720	60	4627
2026-01-16 10:58:23.78	331.98	12.87	-43.9	-46.5	17.7	0.00e+00	0	43	0	1155530752	59	4830
2026-01-16 10:58:27.76	332.28	12.52	-43.8	-46.4	17.8	0.00e+00	0	43	0	1163919360	59	4776
2026-01-16 10:58:31.74	332.57	12.17	-43.9	-46.6	17.6	0.00e+00	0	43	0	1171259392	59	4894
2026-01-16 10:58:35.71	332.85	11.82	-44.1	-46.8	17.3	0.00e+00	0	43	0	1178599424	59	5035
2026-01-16 10:58:39.69	333.13	11.48	-44.7	-47.6	16.6	0.00e+00	0	43	0	1185939456	60	5186
2026-01-16 10:58:43.67	333.40	11.14	-44.9	-48.0	16.3	0.00e+00	0	43	0	1193279488	60	5436
2026-01-16 10:58:47.65	333.67	10.80	-45.3	-48.7	15.6	0.00e+00	0	43	0	1200619520	61	5535
2026-01-16 10:58:51.63	333.93	10.47	-45.3	-48.7	15.6	0.00e+00	0	43	0	1207959552	61	5539
2026-01-16 10:58:55.62	334.18	10.15	-45.6	-49.1	15.2	0.00e+00	0	43	0	1215299584	61	5795
2026-01-16 10:58:59.60	334.43	9.83	-45.6	-49.2	15.0	0.00e+00	0	43	0	1223688192	62	5568
2026-01-16 10:59:03.58	334.68	9.51	-45.3	-48.7	15.5	0.00e+00	0	43	0	1231028224	62	5271
2026-01-16 10:59:07.56	334.92	9.19	-45.1	-48.5	15.8	0.00e+00	0	43	0	1238368256	62	5119
2026-01-16 10:59:11.53	335.15	8.88	-50.1	-65.7	3.8	1.49e+00	0	43	104	1244659712	70	23318
2026-01-16 10:59:15.51	335.38	8.57	-49.4	-66.1	3.8	1.49e+00	0	43	104	1244659712	70	24424
2026-01-16 10:59:19.48	335.61	8.27	-49.9	-66.2	3.8	1.49e+00	0	43	104	1244659712	71	23483
2026-01-16 10:59:23.45	335.83	7.97	-51.0	-66.2	3.8	1.49e+00	0	43	104	1244659712	72	22234
2026-01-16 10:59:27.42	336.04	7.67	-51.0	-66.3	3.8	1.49e+00	0	43	104	1244659712	72	22307
2026-01-16 10:59:31.39	336.26	7.38	-51.0	-66.2	3.8	1.49e+00	0	43	104	1244659712	72	22206
2026-01-16 10:59:35.37	336.47	7.09	-50.6	-66.2	3.8	1.49e+00	0	43	104	1244659712	72	22049
2026-01-16 10:59:39.34	336.67	6.80	-50.6	-66.2	3.8	1.49e+00	0	43	104	1244659712	72	22014
2026-01-16 10:59:43.31	336.87	6.51	-50.6	-66.2	3.8	1.49e+00	0	43	104	1244659712	72	22035
2026-01-16 10:59:47.28	337.07	6.23	-50.6	-66.1	3.8	1.49e+00	0	43	104	1244659712	72	21999
2026-01-16 10:59:51.25	337.27	5.95	-50.6	-66.2	3.8	1.49e+00	0	43	104	1244659712	72	22017
2026-01-16 10:59:55.22	337.46	5.67	-50.6	-66.2	3.8	1.49e+00	0	43	104	1244659712	72	22014
2026-01-16 10:59:59.19	337.65	5.40	-50.6	-66.2	3.8	1.49e+00	0	43	104	1244659712	72	22053
2026-01-16 11:00:03.16	337.83	5.13	-50.6	-66.2	3.8	1.49e+00	0	43	104	1244659712	72	22047

#Closed at: 2026-01-16 11:00:06
#Recorded file [1244 MB]: D:/Data/31040_260116_134731.dat