passes_logs/2026/01/16/T1/T1__20260116_213851_NOAA_20_JPSS-1_rec.log

#Pass ID: 20260116_213851_NOAA 20 (JPSS-1)
#Satellite: NOAA 20 (JPSS-1)
#Configuration: NOAA 20
#almurnet v.1.7.20251203
#Start time: 2026-01-16 21:38:52

#Version: 2.0.20230620
#Station: T1
#Location: 37.570604 lon 55.790049 lat
#TLE: 1 43013U 17073A   26016.24631778  .00000038  00000+0  39093-4 0  9990
#TLE: 2 43013  98.7637 317.1726 0001455  37.6755 322.4523 14.19536243422915

#Time	Az	El	Level	Level2	SNR	BER	BlckErr	Temp	State	Recorded	gain1	gain2
2026-01-16 21:38:52.84	37.94	5.07	-50.0	-65.3	3.8	1.49e+00	0	38	0	0	72	20062
2026-01-16 21:38:55.81	38.28	5.21	-50.0	-65.4	3.8	1.49e+00	0	38	104	0	70	22547
2026-01-16 21:38:58.79	38.63	5.34	-50.0	-65.3	3.8	1.49e+00	0	38	104	0	70	22503
2026-01-16 21:39:01.77	38.99	5.48	-50.0	-65.4	3.8	1.49e+00	0	38	104	0	70	22537
2026-01-16 21:39:04.75	39.34	5.62	-50.0	-65.4	3.8	1.49e+00	0	38	104	0	70	22543
2026-01-16 21:39:07.72	39.70	5.75	-50.0	-65.4	3.8	1.49e+00	0	38	104	0	70	22618
2026-01-16 21:39:10.71	40.07	5.89	-50.0	-65.3	3.8	1.49e+00	0	38	104	0	70	22488
2026-01-16 21:39:13.69	40.43	6.02	-50.0	-65.4	3.8	1.49e+00	0	38	104	0	70	22561
2026-01-16 21:39:16.67	40.80	6.16	-50.0	-65.4	3.8	1.49e+00	0	38	104	0	70	22561
2026-01-16 21:39:19.65	41.18	6.29	-50.0	-65.3	3.8	1.49e+00	0	39	104	0	70	22455
2026-01-16 21:39:22.63	41.55	6.42	-50.0	-65.4	3.8	1.49e+00	0	39	104	0	70	22534
2026-01-16 21:39:25.60	41.93	6.56	-50.0	-65.3	3.8	1.49e+00	0	39	104	0	70	22394
2026-01-16 21:39:28.58	42.31	6.69	-50.0	-65.3	3.8	1.49e+00	0	39	104	0	70	22497
2026-01-16 21:39:31.56	42.70	6.82	-50.0	-65.3	3.8	1.49e+00	0	39	104	0	70	22512
2026-01-16 21:39:34.55	43.09	6.96	-50.0	-65.3	3.8	1.49e+00	0	39	104	0	70	22500
2026-01-16 21:39:37.53	43.49	7.09	-50.0	-65.3	3.8	1.49e+00	0	39	104	0	70	22396
2026-01-16 21:39:40.50	43.88	7.22	-50.0	-65.3	3.8	1.49e+00	0	39	104	0	70	22459
2026-01-16 21:39:43.48	44.28	7.35	-50.0	-65.3	3.8	1.49e+00	0	39	104	0	70	22441
2026-01-16 21:39:46.47	44.69	7.48	-50.0	-65.3	3.8	1.49e+00	0	39	104	0	70	22484
2026-01-16 21:39:49.45	45.09	7.61	-50.0	-65.3	3.8	1.49e+00	0	39	104	0	70	22354
2026-01-16 21:39:52.43	45.50	7.74	-50.0	-65.2	3.8	1.49e+00	0	39	104	0	70	22090
2026-01-16 21:39:55.41	45.92	7.87	-50.0	-65.2	3.8	1.49e+00	0	39	104	0	70	22179
2026-01-16 21:39:58.39	46.34	8.00	-50.0	-65.3	3.8	1.49e+00	0	39	104	0	70	22271
2026-01-16 21:40:01.37	46.76	8.12	-50.0	-65.3	3.8	1.49e+00	0	40	104	0	70	22453
2026-01-16 21:40:04.34	47.18	8.25	-50.0	-65.3	3.8	1.49e+00	0	39	104	0	70	22325
2026-01-16 21:40:07.32	47.61	8.38	-50.0	-65.3	3.8	1.49e+00	0	39	104	0	70	22427
2026-01-16 21:40:10.30	48.04	8.50	-50.0	-65.3	3.8	1.49e+00	0	39	104	0	70	22450
2026-01-16 21:40:13.28	48.48	8.63	-50.0	-65.3	3.8	1.49e+00	0	39	104	0	70	22343
2026-01-16 21:40:16.26	48.92	8.75	-50.0	-64.7	3.8	1.49e+00	0	39	104	0	70	21003
2026-01-16 21:40:19.24	49.36	8.87	-49.9	-63.8	3.8	1.49e+00	0	39	104	0	70	18866
2026-01-16 21:40:22.22	49.81	9.00	-49.1	-57.1	6.9	3.27e-01	0	40	0	2097152	70	8758
2026-01-16 21:40:25.23	50.26	9.12	-49.8	-61.6	3.9	9.83e-01	0	40	104	7340032	70	14593
2026-01-16 21:40:28.50	50.76	9.25	-45.8	-49.2	14.9	3.80e-06	0	40	0	12582912	63	5266
2026-01-16 21:40:31.20	51.18	9.36	-45.5	-48.8	15.4	0.00e+00	0	40	0	17825792	63	5003
2026-01-16 21:40:34.47	51.68	9.49	-45.5	-48.8	15.4	0.00e+00	0	40	0	23068672	62	5328
2026-01-16 21:40:37.38	52.14	9.60	-45.5	-48.7	15.4	0.00e+00	0	40	0	29360128	62	5279
2026-01-16 21:40:40.76	52.67	9.73	-45.5	-48.7	15.4	0.00e+00	0	40	0	35651584	62	5277
2026-01-16 21:40:43.47	53.10	9.84	-45.5	-48.8	15.4	0.00e+00	0	40	0	40894464	62	5315
2026-01-16 21:40:46.74	53.62	9.96	-45.5	-48.8	15.4	0.00e+00	0	40	0	46137344	62	5313
2026-01-16 21:40:49.48	54.06	10.07	-45.4	-48.6	15.6	0.00e+00	0	40	0	51380224	62	5208
2026-01-16 21:40:52.75	54.59	10.19	-45.2	-48.3	15.9	0.00e+00	0	40	0	57671680	62	5014
2026-01-16 21:40:55.49	55.04	10.29	-45.2	-48.2	16.0	0.00e+00	0	40	0	62914560	62	4967
2026-01-16 21:40:59.04	55.63	10.42	-45.2	-48.3	15.9	0.00e+00	0	40	0	69206016	62	5024
2026-01-16 21:41:01.94	56.11	10.52	-45.4	-48.5	15.7	0.00e+00	0	40	0	75497472	62	5143
2026-01-16 21:41:05.28	56.67	10.64	-45.5	-48.8	15.5	0.00e+00	0	40	0	81788928	62	5287
2026-01-16 21:41:07.98	57.12	10.73	-45.6	-48.8	15.5	0.00e+00	0	40	0	85983232	62	5320
2026-01-16 21:41:11.25	57.68	10.85	-45.4	-48.5	15.7	0.00e+00	0	40	0	92274688	62	5141
2026-01-16 21:41:13.98	58.14	10.94	-45.3	-48.4	15.8	0.00e+00	0	40	0	97517568	62	5080
2026-01-16 21:41:17.25	58.71	11.05	-45.3	-48.4	15.9	0.00e+00	0	40	0	103809024	62	5079
2026-01-16 21:41:19.97	59.18	11.14	-45.4	-48.5	15.7	0.00e+00	0	40	0	109051904	62	5157
2026-01-16 21:41:23.24	59.75	11.24	-45.5	-48.7	15.6	0.00e+00	0	40	0	115343360	62	5262
2026-01-16 21:41:25.94	60.22	11.33	-45.5	-48.8	15.5	0.00e+00	0	40	0	120586240	62	5299
2026-01-16 21:41:29.22	60.80	11.43	-45.3	-48.5	15.7	0.00e+00	0	40	0	125829120	62	5150
2026-01-16 21:41:31.94	61.28	11.51	-45.2	-48.3	16.0	0.00e+00	0	40	0	131072000	62	5038
2026-01-16 21:41:35.24	61.87	11.61	-45.0	-48.1	16.2	0.00e+00	0	40	0	137363456	62	4894
2026-01-16 21:41:38.22	62.41	11.70	-45.0	-48.0	16.3	0.00e+00	0	40	0	142606336	62	4867
2026-01-16 21:41:41.21	62.95	11.78	-45.0	-48.1	16.2	0.00e+00	0	40	0	148897792	62	4876
2026-01-16 21:41:44.24	63.50	11.87	-45.2	-48.3	16.1	0.00e+00	0	40	0	154140672	62	4993
2026-01-16 21:41:47.24	64.05	11.95	-44.9	-47.8	16.5	0.00e+00	0	40	0	160432128	61	4986
2026-01-16 21:41:50.23	64.60	12.03	-44.8	-47.7	16.6	0.00e+00	0	40	0	165675008	61	4934
2026-01-16 21:41:53.62	65.22	12.11	-44.6	-47.4	16.8	0.00e+00	0	40	0	171966464	60	5098
2026-01-16 21:41:56.34	65.73	12.18	-44.8	-47.7	16.6	0.00e+00	0	40	0	177209344	60	5241
2026-01-16 21:41:59.61	66.34	12.26	-45.1	-48.1	16.2	0.00e+00	0	40	0	183500800	60	5513
2026-01-16 21:42:02.34	66.85	12.32	-45.3	-48.4	15.9	0.00e+00	0	40	0	188743680	61	5361
2026-01-16 21:42:05.63	67.47	12.40	-45.2	-48.3	16.0	0.00e+00	0	40	0	193986560	61	5310
2026-01-16 21:42:08.64	68.04	12.46	-45.1	-48.1	16.2	0.00e+00	0	40	0	200278016	61	5208
2026-01-16 21:42:11.94	68.67	12.53	-45.4	-48.5	15.8	0.00e+00	0	40	0	206569472	61	5439
2026-01-16 21:42:14.66	69.19	12.59	-45.7	-49.0	15.4	0.00e+00	0	40	0	211812352	61	5730
2026-01-16 21:42:17.93	69.81	12.65	-45.7	-49.1	15.2	0.00e+00	0	40	0	217055232	62	5475
2026-01-16 21:42:20.66	70.34	12.70	-45.6	-48.9	15.5	0.00e+00	0	40	0	222298112	62	5356
2026-01-16 21:42:24.40	71.06	12.77	-45.4	-48.6	15.7	0.00e+00	0	40	0	229638144	62	5191
2026-01-16 21:42:27.24	71.61	12.81	-45.3	-48.4	16.0	0.00e+00	0	40	0	234881024	62	5060
2026-01-16 21:42:30.53	72.25	12.87	-45.4	-48.5	15.9	0.00e+00	0	40	0	241172480	62	5135
2026-01-16 21:42:33.23	72.78	12.91	-45.5	-48.6	15.7	0.00e+00	0	40	0	246415360	62	5211
2026-01-16 21:42:36.50	73.42	12.95	-45.3	-48.4	15.9	0.00e+00	0	40	0	252706816	62	5083
2026-01-16 21:42:39.47	74.00	12.99	-45.2	-48.2	16.0	0.00e+00	0	40	0	257949696	62	4944
2026-01-16 21:42:42.82	74.66	13.03	-45.1	-48.1	16.3	0.00e+00	0	40	0	264241152	62	4876
2026-01-16 21:42:45.55	75.20	13.06	-44.9	-47.8	16.5	0.00e+00	0	40	0	269484032	61	5028
2026-01-16 21:42:48.85	75.85	13.10	-44.8	-47.8	16.5	0.00e+00	0	40	0	275775488	61	4984
2026-01-16 21:42:51.57	76.39	13.12	-44.9	-47.8	16.5	0.00e+00	0	40	0	281018368	61	5018
2026-01-16 21:42:54.85	77.04	13.15	-44.8	-47.8	16.5	0.00e+00	0	40	0	287309824	61	5023
2026-01-16 21:42:57.57	77.58	13.17	-44.7	-47.5	16.8	0.00e+00	0	40	0	291504128	61	4855
2026-01-16 21:43:00.83	78.23	13.19	-44.4	-47.1	17.2	0.00e+00	0	40	0	297795584	60	4923
2026-01-16 21:43:03.55	78.78	13.21	-44.6	-47.4	16.9	0.00e+00	0	40	0	303038464	60	5065
2026-01-16 21:43:06.85	79.43	13.22	-44.4	-47.3	17.0	0.00e+00	0	40	0	309329920	60	4991
2026-01-16 21:43:09.68	80.00	13.23	-44.2	-47.0	17.3	0.00e+00	0	40	0	314572800	60	4831
2026-01-16 21:43:13.32	80.73	13.24	-43.9	-46.5	17.7	0.00e+00	0	40	0	321912832	59	4869
2026-01-16 21:43:16.02	81.27	13.25	-43.9	-46.6	17.7	0.00e+00	0	40	0	326107136	59	4879
2026-01-16 21:43:19.31	81.93	13.25	-44.0	-46.7	17.6	0.00e+00	0	40	0	332398592	59	4940
2026-01-16 21:43:22.06	82.48	13.25	-43.8	-46.4	17.9	0.00e+00	0	40	0	337641472	59	4763
2026-01-16 21:43:26.12	83.29	13.24	-43.8	-46.4	17.8	0.00e+00	0	40	0	344981504	59	4781
2026-01-16 21:43:29.02	83.87	13.24	-43.6	-46.3	18.0	0.00e+00	0	40	0	351272960	59	4715
2026-01-16 21:43:32.01	84.47	13.23	-43.5	-46.2	18.0	0.00e+00	0	40	0	356515840	59	4655
2026-01-16 21:43:34.99	85.06	13.21	-43.6	-46.2	18.1	0.00e+00	0	40	0	361758720	59	4654
2026-01-16 21:43:37.98	85.66	13.20	-43.8	-46.5	17.8	0.00e+00	0	40	0	368050176	59	4826
2026-01-16 21:43:40.97	86.26	13.18	-44.1	-46.8	17.4	0.00e+00	0	40	0	373293056	59	5018
2026-01-16 21:43:43.95	86.85	13.16	-44.0	-46.6	17.6	0.00e+00	0	40	0	378535936	59	4926
2026-01-16 21:43:46.93	87.44	13.13	-44.0	-46.6	17.6	0.00e+00	0	40	0	384827392	59	4912
2026-01-16 21:43:49.92	88.04	13.11	-44.1	-46.7	17.5	0.00e+00	0	40	0	390070272	59	4962
2026-01-16 21:43:53.04	88.66	13.08	-43.9	-46.5	17.7	0.00e+00	0	40	0	396361728	59	4853
2026-01-16 21:43:55.88	89.22	13.05	-43.8	-46.4	17.8	0.00e+00	0	40	0	401604608	59	4792
2026-01-16 21:43:59.01	89.83	13.01	-44.0	-46.7	17.6	0.00e+00	0	40	0	406847488	59	4930
2026-01-16 21:44:01.93	90.41	12.97	-44.3	-47.1	17.1	0.00e+00	0	40	0	412090368	59	5178
2026-01-16 21:44:05.07	91.03	12.93	-44.2	-46.9	17.3	0.00e+00	0	40	0	418381824	59	5078
2026-01-16 21:44:08.04	91.61	12.89	-43.9	-46.5	17.7	0.00e+00	0	40	0	423624704	59	4819
2026-01-16 21:44:11.02	92.19	12.84	-43.7	-46.2	18.0	0.00e+00	0	40	0	429916160	59	4665
2026-01-16 21:44:14.00	92.77	12.79	-43.5	-45.9	18.2	0.00e+00	0	40	0	435159040	59	4529
2026-01-16 21:44:16.99	93.35	12.74	-43.4	-45.9	18.3	0.00e+00	0	40	0	440401920	58	4771
2026-01-16 21:44:19.97	93.93	12.69	-43.8	-46.3	17.9	0.00e+00	0	40	0	446693376	58	5037
2026-01-16 21:44:22.96	94.50	12.63	-43.9	-46.4	17.8	0.00e+00	0	40	0	451936256	58	5095
2026-01-16 21:44:25.95	95.08	12.57	-44.0	-46.6	17.6	0.00e+00	0	40	0	457179136	58	5194
2026-01-16 21:44:28.93	95.65	12.51	-43.7	-46.2	18.0	0.00e+00	0	40	0	463470592	58	4971
2026-01-16 21:44:31.92	96.22	12.45	-43.8	-46.3	17.9	0.00e+00	0	40	0	468713472	58	5024
2026-01-16 21:44:34.91	96.78	12.38	-43.9	-46.5	17.7	0.00e+00	0	40	0	473956352	58	5102
2026-01-16 21:44:37.97	97.36	12.31	-43.9	-46.4	17.8	0.00e+00	0	40	0	480247808	58	5081
2026-01-16 21:44:40.96	97.92	12.24	-43.9	-46.5	17.7	0.00e+00	0	40	0	485490688	58	5147
2026-01-16 21:44:43.94	98.48	12.17	-44.0	-46.6	17.5	0.00e+00	0	40	0	491782144	58	5205
2026-01-16 21:44:46.92	99.04	12.09	-43.7	-46.3	17.9	0.00e+00	0	40	0	497025024	58	4997
2026-01-16 21:44:49.95	99.60	12.01	-43.8	-46.4	17.8	0.00e+00	0	40	0	502267904	58	5057
2026-01-16 21:44:52.97	100.16	11.93	-43.9	-46.6	17.6	0.00e+00	0	40	0	508559360	58	5165
2026-01-16 21:44:55.95	100.70	11.85	-43.7	-46.2	17.9	0.00e+00	0	40	0	513802240	58	4982
2026-01-16 21:44:58.93	101.24	11.77	-43.9	-46.5	17.7	0.00e+00	0	40	0	519045120	58	5132
2026-01-16 21:45:01.92	101.79	11.68	-44.3	-46.9	17.2	0.00e+00	0	40	0	525336576	59	5083
2026-01-16 21:45:04.90	102.32	11.60	-44.5	-47.3	16.9	0.00e+00	0	40	0	530579456	59	5292
2026-01-16 21:45:07.92	102.87	11.51	-44.7	-47.5	16.7	0.00e+00	0	40	0	535822336	60	5154
2026-01-16 21:45:10.90	103.40	11.41	-45.0	-48.0	16.2	0.00e+00	0	40	0	542113792	60	5444
2026-01-16 21:45:13.89	103.93	11.32	-45.1	-48.1	16.1	0.00e+00	0	40	0	547356672	60	5503
2026-01-16 21:45:16.87	104.45	11.23	-45.0	-48.0	16.2	0.00e+00	0	40	0	552599552	61	5149
2026-01-16 21:45:19.85	104.97	11.13	-45.0	-48.0	16.2	0.00e+00	0	40	0	558891008	61	5125
2026-01-16 21:45:23.12	105.54	11.02	-45.5	-48.7	15.5	0.00e+00	0	40	0	565182464	61	5592
2026-01-16 21:45:26.25	106.08	10.92	-45.9	-49.3	14.9	0.00e+00	0	40	0	570425344	62	5639
2026-01-16 21:45:29.15	106.58	10.82	-46.2	-49.7	14.5	7.00e-07	0	40	0	575668224	62	5917
2026-01-16 21:45:32.28	107.11	10.71	-46.6	-50.6	13.7	9.10e-06	0	40	0	581959680	63	6132
2026-01-16 21:45:35.21	107.61	10.60	-46.6	-50.7	13.4	1.52e-05	0	40	0	587202560	64	5903
2026-01-16 21:45:38.20	108.11	10.50	-46.2	-50.0	14.1	3.00e-06	0	40	0	593494016	64	5426
2026-01-16 21:45:41.19	108.61	10.39	-46.1	-49.6	14.6	0.00e+00	0	40	0	598736896	63	5500
2026-01-16 21:45:44.18	109.10	10.28	-46.2	-49.8	14.4	7.00e-07	0	40	0	603979776	63	5600
2026-01-16 21:45:47.22	109.60	10.17	-46.3	-50.0	14.2	2.20e-06	0	40	0	610271232	63	5725
2026-01-16 21:45:50.16	110.08	10.06	-46.5	-50.3	13.8	2.20e-06	0	40	0	615514112	63	5991
2026-01-16 21:45:53.14	110.56	9.94	-46.6	-50.5	13.6	7.60e-06	0	40	0	620756992	63	6111
2026-01-16 21:45:56.13	111.04	9.83	-46.4	-50.1	14.0	3.00e-06	0	40	0	627048448	63	5841
2026-01-16 21:45:59.11	111.52	9.71	-46.1	-49.7	14.4	3.00e-06	0	40	0	632291328	63	5573
2026-01-16 21:46:02.25	112.01	9.59	-46.1	-49.7	14.4	0.00e+00	0	40	0	638582784	63	5587
2026-01-16 21:46:06.01	112.60	9.44	-45.9	-49.4	14.7	0.00e+00	0	40	0	644874240	63	5384
2026-01-16 21:46:08.90	113.05	9.32	-45.7	-49.1	15.0	0.00e+00	0	40	0	651165696	63	5161
2026-01-16 21:46:12.17	113.55	9.19	-45.3	-48.6	15.4	0.00e+00	0	40	0	656408576	62	5206
2026-01-16 21:46:15.01	113.99	9.07	-45.3	-48.6	15.4	0.00e+00	0	40	0	661651456	62	5218
2026-01-16 21:46:18.13	114.46	8.95	-50.5	-65.8	3.8	1.49e+00	0	40	104	665845760	71	22408
2026-01-16 21:46:21.00	114.89	8.83	-50.6	-65.9	3.8	1.49e+00	0	40	104	665845760	72	21358
2026-01-16 21:46:24.06	115.35	8.70	-50.7	-66.0	3.8	1.49e+00	0	40	104	665845760	72	21636
2026-01-16 21:46:27.04	115.79	8.57	-50.4	-66.0	3.8	1.49e+00	0	40	104	665845760	72	21670
2026-01-16 21:46:30.02	116.23	8.45	-50.6	-66.1	3.8	1.49e+00	0	40	104	665845760	72	21926
2026-01-16 21:46:33.00	116.66	8.32	-50.4	-66.1	3.8	1.49e+00	0	40	104	665845760	72	21946
2026-01-16 21:46:35.98	117.09	8.19	-50.4	-66.1	3.8	1.49e+00	0	40	104	665845760	72	21882
2026-01-16 21:46:38.96	117.52	8.06	-50.5	-66.1	3.8	1.49e+00	0	40	104	665845760	72	21798
2026-01-16 21:46:41.94	117.94	7.94	-50.5	-66.1	3.8	1.49e+00	0	40	104	665845760	72	21780
2026-01-16 21:46:44.92	118.36	7.81	-50.5	-66.0	3.8	1.49e+00	0	40	104	665845760	72	21747
2026-01-16 21:46:47.89	118.77	7.68	-50.5	-66.0	3.8	1.49e+00	0	40	104	665845760	72	21714
2026-01-16 21:46:50.88	119.18	7.54	-50.5	-66.0	3.8	1.49e+00	0	40	104	665845760	72	21655
2026-01-16 21:46:53.86	119.59	7.41	-50.5	-66.0	3.8	1.49e+00	0	40	104	665845760	72	21702
2026-01-16 21:46:56.83	120.00	7.28	-50.5	-66.0	3.8	1.49e+00	0	40	104	665845760	72	21649
2026-01-16 21:46:59.81	120.40	7.15	-50.5	-66.0	3.8	1.49e+00	0	40	104	665845760	72	21629
2026-01-16 21:47:02.79	120.79	7.02	-50.5	-66.0	3.8	1.49e+00	0	40	104	665845760	72	21658
2026-01-16 21:47:05.78	121.19	6.88	-50.5	-66.1	3.8	1.49e+00	0	40	104	665845760	72	21762
2026-01-16 21:47:08.76	121.58	6.75	-50.5	-66.0	3.8	1.49e+00	0	40	104	665845760	72	21670
2026-01-16 21:47:11.74	121.97	6.61	-50.5	-66.0	3.8	1.49e+00	0	40	104	665845760	72	21688
2026-01-16 21:47:14.72	122.35	6.48	-50.5	-66.0	3.8	1.49e+00	0	40	104	665845760	72	21648
2026-01-16 21:47:17.69	122.73	6.34	-50.5	-66.0	3.8	1.49e+00	0	40	104	665845760	72	21643
2026-01-16 21:47:20.67	123.11	6.21	-50.5	-66.0	3.8	1.49e+00	0	40	104	665845760	72	21702
2026-01-16 21:47:23.66	123.48	6.07	-50.4	-66.0	3.8	1.49e+00	0	40	104	665845760	72	21689
2026-01-16 21:47:26.64	123.85	5.94	-50.4	-66.0	3.8	1.49e+00	0	40	104	665845760	72	21628
2026-01-16 21:47:29.62	124.22	5.80	-50.4	-66.0	3.8	1.49e+00	0	40	104	665845760	72	21624
2026-01-16 21:47:32.60	124.58	5.66	-50.5	-66.0	3.8	1.49e+00	0	40	104	665845760	72	21577
2026-01-16 21:47:35.56	124.94	5.53	-50.4	-66.0	3.8	1.49e+00	0	40	104	665845760	72	21611
2026-01-16 21:47:38.54	125.30	5.39	-50.5	-66.0	3.8	1.49e+00	0	40	104	665845760	72	21662
2026-01-16 21:47:41.52	125.65	5.25	-50.4	-66.0	3.8	1.49e+00	0	40	104	665845760	72	21658
2026-01-16 21:47:44.50	126.00	5.11	-50.4	-66.0	3.8	1.49e+00	0	40	104	665845760	72	21566
2026-01-16 21:47:47.48	126.35	4.98	-50.4	-66.0	3.8	1.49e+00	0	40	104	665845760	72	21588

#Closed at: 2026-01-16 21:47:48
#Recorded file [665 MB]: D:/Data/31040_260117_003852.dat