passes_logs/2026/01/16/T1/T1__20260116_222804_NOAA_21_JPSS-2_rec.log

#Pass ID: 20260116_222804_NOAA 21 (JPSS-2)
#Satellite: NOAA 21 (JPSS-2)
#Configuration: NOAA 21
#almurnet v.1.7.20251203
#Start time: 2026-01-16 22:28:05

#Version: 2.0.20230620
#Station: T1
#Location: 37.570604 lon 55.790049 lat
#TLE: 1 54234U 22150A   26016.21096038  .00000027  00000+0  33607-4 0  9993
#TLE: 2 54234  98.7500 317.0960 0000625 282.3388  77.7718 14.19534911164985

#Time	Az	El	Level	Level2	SNR	BER	BlckErr	Temp	State	Recorded	gain1	gain2
2026-01-16 22:28:05.40	26.28	5.03	-49.6	-63.0	3.8	1.49e+00	0	37	0	0	71	16254
2026-01-16 22:28:08.38	26.49	5.22	-49.6	-63.0	3.8	1.49e+00	0	37	104	0	69	18225
2026-01-16 22:28:11.36	26.71	5.41	-49.6	-63.0	3.8	1.49e+00	0	37	104	0	69	18214
2026-01-16 22:28:14.33	26.92	5.60	-49.6	-63.0	3.8	1.49e+00	0	37	104	0	69	18197
2026-01-16 22:28:17.31	27.14	5.79	-49.6	-62.9	3.8	1.49e+00	0	37	104	0	69	18065
2026-01-16 22:28:20.30	27.37	5.98	-49.6	-63.0	3.8	1.49e+00	0	37	104	0	69	18097
2026-01-16 22:28:23.28	27.59	6.18	-49.6	-63.0	3.8	1.49e+00	0	37	104	0	69	18174
2026-01-16 22:28:26.25	27.82	6.37	-49.6	-63.0	3.8	1.49e+00	0	37	104	0	69	18113
2026-01-16 22:28:29.23	28.05	6.56	-49.5	-63.0	3.8	1.49e+00	0	37	104	0	69	18123
2026-01-16 22:28:32.21	28.29	6.76	-49.6	-62.9	3.8	1.49e+00	0	37	104	0	69	18021
2026-01-16 22:28:35.19	28.53	6.96	-49.6	-62.9	3.8	1.49e+00	0	38	104	0	69	18073
2026-01-16 22:28:38.17	28.77	7.16	-49.6	-62.8	3.8	1.49e+00	0	38	104	0	69	17756
2026-01-16 22:28:41.15	29.01	7.36	-49.6	-62.7	3.8	1.49e+00	0	38	104	0	69	17638
2026-01-16 22:28:44.13	29.26	7.56	-49.5	-62.9	3.8	1.49e+00	0	38	104	0	69	17990
2026-01-16 22:28:47.11	29.51	7.76	-49.5	-63.0	3.8	1.49e+00	0	38	104	0	69	18184
2026-01-16 22:28:50.09	29.76	7.96	-49.6	-62.9	3.8	1.49e+00	0	38	104	0	69	17905
2026-01-16 22:28:53.07	30.02	8.17	-49.5	-62.7	3.8	1.49e+00	0	38	104	0	69	17549
2026-01-16 22:28:56.05	30.28	8.37	-49.5	-62.2	3.8	1.49e+00	0	38	104	0	69	16673
2026-01-16 22:28:59.02	30.54	8.58	-49.4	-61.3	3.8	1.49e+00	0	38	104	0	69	15024
2026-01-16 22:29:02.01	30.81	8.79	-48.8	-56.7	5.4	6.12e-01	0	38	0	0	69	8822
2026-01-16 22:29:04.99	31.08	8.99	-46.7	-51.0	10.5	5.84e-03	0	38	0	0	65	5750
2026-01-16 22:29:07.97	31.35	9.20	-48.9	-57.2	5.1	1.14e-01	0	38	0	0	68	9851
2026-01-16 22:29:10.95	31.63	9.42	-42.0	-44.1	17.5	0.00e+00	0	39	0	0	56	4373
2026-01-16 22:29:13.93	31.92	9.63	-41.7	-43.7	17.7	0.00e+00	0	39	0	0	55	4419
2026-01-16 22:29:16.97	32.21	9.85	-41.7	-43.8	17.7	0.00e+00	0	39	0	0	55	4445
2026-01-16 22:29:19.97	32.50	10.06	-41.3	-43.3	18.1	0.00e+00	0	39	0	0	54	4492
2026-01-16 22:29:22.95	32.79	10.28	-41.4	-43.4	18.1	0.00e+00	0	39	0	0	54	4498
2026-01-16 22:29:25.94	33.09	10.50	-41.4	-43.3	18.1	0.00e+00	0	38	0	0	54	4489
2026-01-16 22:29:28.92	33.40	10.72	-41.2	-43.2	18.3	0.00e+00	0	39	0	0	54	4400
2026-01-16 22:29:31.91	33.71	10.94	-41.3	-43.2	18.2	0.00e+00	0	39	0	0	54	4433
2026-01-16 22:29:34.96	34.03	11.17	-41.2	-43.1	18.3	0.00e+00	0	39	0	0	54	4350
2026-01-16 22:29:37.88	34.34	11.39	-41.0	-42.9	18.5	0.00e+00	0	39	0	0	54	4270
2026-01-16 22:29:41.01	34.67	11.62	-41.0	-42.9	18.5	0.00e+00	0	39	0	0	53	4497
2026-01-16 22:29:43.85	34.98	11.84	-40.8	-42.7	18.7	0.00e+00	0	39	0	0	53	4397
2026-01-16 22:29:46.98	35.33	12.07	-40.7	-42.5	18.9	0.00e+00	0	39	0	0	53	4315
2026-01-16 22:29:49.86	35.66	12.29	-40.7	-42.5	18.9	0.00e+00	0	39	0	0	53	4328
2026-01-16 22:29:52.98	36.01	12.53	-40.8	-42.7	18.7	0.00e+00	0	39	0	0	53	4409
2026-01-16 22:29:55.83	36.35	12.76	-40.8	-42.7	18.6	0.00e+00	0	39	0	0	53	4433
2026-01-16 22:29:58.95	36.71	13.00	-40.8	-42.7	18.7	0.00e+00	0	39	0	0	53	4411
2026-01-16 22:30:01.79	37.05	13.22	-40.6	-42.5	18.8	0.00e+00	0	39	0	0	53	4315
2026-01-16 22:30:04.92	37.43	13.47	-40.8	-42.7	18.7	0.00e+00	0	39	0	0	53	4412
2026-01-16 22:30:07.76	37.78	13.69	-40.8	-42.7	18.7	0.00e+00	0	39	0	0	53	4407
2026-01-16 22:30:10.89	38.18	13.94	-40.8	-42.7	18.7	0.00e+00	0	39	0	0	53	4412
2026-01-16 22:30:13.73	38.54	14.17	-41.1	-43.0	18.5	0.00e+00	0	39	0	0	53	4551
2026-01-16 22:30:16.86	38.94	14.42	-41.0	-42.8	18.7	0.00e+00	0	39	0	0	53	4489
2026-01-16 22:30:19.70	39.32	14.65	-40.8	-42.7	18.8	0.00e+00	0	39	0	0	53	4401
2026-01-16 22:30:22.83	39.73	14.90	-41.0	-42.8	18.7	0.00e+00	0	39	0	0	53	4476
2026-01-16 22:30:25.67	40.12	15.13	-40.9	-42.7	18.8	0.00e+00	0	39	0	0	53	4438
2026-01-16 22:30:28.79	40.55	15.39	-41.1	-42.9	18.6	0.00e+00	0	39	0	0	53	4522
2026-01-16 22:30:31.63	40.95	15.62	-41.1	-42.9	18.5	0.00e+00	0	39	0	0	53	4540
2026-01-16 22:30:34.96	41.42	15.90	-41.0	-42.8	18.7	0.00e+00	0	39	0	0	53	4458
2026-01-16 22:30:37.67	41.81	16.12	-41.1	-42.9	18.6	0.00e+00	0	39	0	0	53	4522
2026-01-16 22:30:41.29	42.34	16.43	-41.2	-43.0	18.5	0.00e+00	0	39	0	0	53	4590
2026-01-16 22:30:44.13	42.77	16.66	-41.4	-43.3	18.3	0.00e+00	0	39	0	0	53	4707
2026-01-16 22:30:48.11	43.38	17.00	-41.2	-43.1	18.4	0.00e+00	0	39	0	0	53	4605
2026-01-16 22:30:50.98	43.82	17.24	-41.3	-43.2	18.3	0.00e+00	0	39	0	0	53	4697
2026-01-16 22:30:54.11	44.32	17.51	-41.4	-43.3	18.3	0.00e+00	0	39	0	0	53	4749
2026-01-16 22:30:56.95	44.77	17.75	-41.4	-43.3	18.3	0.00e+00	0	39	0	0	53	4744
2026-01-16 22:31:00.11	45.29	18.02	-41.3	-43.2	18.4	0.00e+00	0	39	0	0	53	4678
2026-01-16 22:31:02.95	45.76	18.26	-41.1	-42.9	18.6	0.00e+00	0	39	0	0	53	4527
2026-01-16 22:31:06.08	46.29	18.53	-41.0	-42.9	18.7	0.00e+00	0	39	0	0	53	4500
2026-01-16 22:31:09.00	46.79	18.78	-41.0	-42.8	18.8	0.00e+00	0	39	0	0	53	4473
2026-01-16 22:31:11.98	47.31	19.03	-40.8	-42.6	18.9	0.00e+00	0	40	0	0	53	4347
2026-01-16 22:31:14.97	47.84	19.29	-40.4	-42.2	19.2	0.00e+00	0	39	0	0	52	4412
2026-01-16 22:31:17.95	48.37	19.55	-40.3	-42.1	19.3	0.00e+00	0	40	0	0	52	4363
2026-01-16 22:31:20.93	48.92	19.80	-40.5	-42.3	19.1	0.00e+00	0	40	0	0	52	4481
2026-01-16 22:31:23.92	49.47	20.06	-40.4	-42.2	19.3	0.00e+00	0	39	0	0	52	4414
2026-01-16 22:31:26.91	50.04	20.32	-40.4	-42.1	19.4	0.00e+00	0	39	0	0	52	4378
2026-01-16 22:31:29.89	50.61	20.58	-40.3	-42.0	19.4	0.00e+00	0	39	0	0	52	4327
2026-01-16 22:31:32.93	51.21	20.84	-40.0	-41.7	19.7	0.00e+00	0	39	0	0	52	4174
2026-01-16 22:31:35.92	51.80	21.10	-39.7	-41.4	20.1	0.00e+00	0	40	0	0	51	4285
2026-01-16 22:31:38.90	52.40	21.35	-39.6	-41.2	20.2	0.00e+00	0	40	0	0	51	4182
2026-01-16 22:31:41.89	53.01	21.61	-39.4	-41.0	20.3	0.00e+00	0	39	0	0	50	4337
2026-01-16 22:31:44.87	53.64	21.86	-39.4	-41.0	20.4	0.00e+00	0	39	0	0	50	4330
2026-01-16 22:31:47.86	54.27	22.12	-39.5	-41.2	20.3	0.00e+00	0	40	0	0	50	4422
2026-01-16 22:31:51.00	54.95	22.38	-39.3	-41.0	20.5	0.00e+00	0	40	0	0	50	4303
2026-01-16 22:31:53.85	55.57	22.63	-39.3	-41.0	20.5	0.00e+00	0	39	0	0	50	4312
2026-01-16 22:31:56.97	56.26	22.89	-39.3	-41.0	20.5	0.00e+00	0	39	0	0	50	4294
2026-01-16 22:31:59.81	56.91	23.12	-39.5	-41.2	20.3	0.00e+00	0	40	0	0	50	4427
2026-01-16 22:32:02.99	57.64	23.39	-39.6	-41.3	20.3	0.00e+00	0	40	0	0	50	4449
2026-01-16 22:32:05.83	58.30	23.62	-39.7	-41.4	20.2	0.00e+00	0	39	0	0	50	4509
2026-01-16 22:32:08.96	59.04	23.88	-39.6	-41.3	20.2	0.00e+00	0	39	0	0	50	4455
2026-01-16 22:32:11.81	59.72	24.11	-39.7	-41.4	20.1	0.00e+00	0	39	0	0	50	4541
2026-01-16 22:32:14.93	60.49	24.36	-39.9	-41.6	19.8	0.00e+00	0	39	0	0	50	4630
2026-01-16 22:32:17.78	61.19	24.58	-39.8	-41.5	20.0	0.00e+00	0	40	0	0	50	4581
2026-01-16 22:32:21.02	62.01	24.84	-40.2	-41.9	19.6	0.00e+00	0	39	0	0	51	4544
2026-01-16 22:32:23.93	62.75	25.06	-40.5	-42.3	19.3	0.00e+00	0	40	0	0	51	4723
2026-01-16 22:32:27.05	63.56	25.30	-40.3	-42.0	19.6	0.00e+00	0	40	0	0	51	4564
2026-01-16 22:32:29.90	64.31	25.51	-40.1	-41.8	19.8	0.00e+00	0	40	0	0	51	4455
2026-01-16 22:32:33.02	65.14	25.74	-40.0	-41.7	19.8	0.00e+00	0	39	0	0	51	4415
2026-01-16 22:32:35.86	65.90	25.95	-40.1	-41.8	19.8	0.00e+00	0	40	0	0	51	4456
2026-01-16 22:32:38.99	66.76	26.17	-39.9	-41.5	20.0	0.00e+00	0	40	0	0	51	4336
2026-01-16 22:32:41.83	67.55	26.36	-39.9	-41.6	19.9	0.00e+00	0	39	0	0	51	4382
2026-01-16 22:32:44.95	68.42	26.57	-40.0	-41.7	19.9	0.00e+00	0	40	0	0	51	4402
2026-01-16 22:32:47.79	69.23	26.76	-39.8	-41.5	20.1	0.00e+00	0	40	0	0	51	4315
2026-01-16 22:32:50.92	70.13	26.96	-40.0	-41.7	19.9	0.00e+00	0	40	0	0	51	4394
2026-01-16 22:32:53.76	70.95	27.14	-39.9	-41.6	20.0	0.00e+00	0	40	0	0	51	4372
2026-01-16 22:32:57.09	71.93	27.34	-39.9	-41.6	20.0	0.00e+00	0	40	0	0	51	4350
2026-01-16 22:33:00.00	72.80	27.51	-40.0	-41.7	19.8	0.00e+00	0	40	0	0	51	4428
2026-01-16 22:33:03.30	73.79	27.70	-40.0	-41.7	19.9	0.00e+00	0	40	0	0	51	4409
2026-01-16 22:33:06.00	74.62	27.84	-40.2	-42.0	19.7	0.00e+00	0	40	0	0	51	4546
2026-01-16 22:33:09.27	75.62	28.01	-40.2	-41.9	19.7	0.00e+00	0	40	0	0	51	4539
2026-01-16 22:33:12.11	76.50	28.15	-40.2	-41.9	19.7	0.00e+00	0	40	0	0	51	4511
2026-01-16 22:33:15.46	77.55	28.31	-40.2	-42.0	19.7	0.00e+00	0	40	0	0	51	4553
2026-01-16 22:33:18.31	78.45	28.43	-40.2	-41.9	19.7	0.00e+00	0	40	0	0	51	4526
2026-01-16 22:33:21.44	79.45	28.56	-40.2	-42.0	19.8	0.00e+00	0	40	0	0	51	4553
2026-01-16 22:33:24.28	80.36	28.67	-40.2	-42.0	19.7	0.00e+00	0	40	0	0	51	4558
2026-01-16 22:33:27.41	81.37	28.79	-40.5	-42.2	19.5	0.00e+00	0	40	0	0	51	4703
2026-01-16 22:33:30.25	82.29	28.88	-40.4	-42.1	19.5	0.00e+00	0	40	0	0	51	4650
2026-01-16 22:33:33.49	83.35	28.98	-40.3	-42.1	19.5	0.00e+00	0	40	0	0	51	4636
2026-01-16 22:33:36.33	84.28	29.06	-40.1	-41.8	19.9	0.00e+00	0	40	0	0	51	4491
2026-01-16 22:33:39.67	85.39	29.14	-40.2	-41.9	19.7	0.00e+00	0	40	0	0	51	4537
2026-01-16 22:33:42.48	86.32	29.20	-40.4	-42.2	19.5	0.00e+00	0	40	0	0	51	4660
2026-01-16 22:33:45.63	87.37	29.26	-40.2	-42.0	19.6	0.00e+00	0	40	0	0	51	4547
2026-01-16 22:33:49.03	88.50	29.31	-40.1	-41.9	19.7	0.00e+00	0	40	0	0	51	4502
2026-01-16 22:33:51.92	89.47	29.34	-40.1	-41.8	19.7	0.00e+00	0	40	0	0	51	4477
2026-01-16 22:33:55.20	90.57	29.37	-39.9	-41.6	20.0	0.00e+00	0	40	0	0	51	4345
2026-01-16 22:33:57.92	91.49	29.38	-40.3	-42.0	19.6	0.00e+00	0	40	0	0	51	4565
2026-01-16 22:34:01.19	92.59	29.39	-40.4	-42.2	19.5	0.00e+00	0	40	0	0	51	4679
2026-01-16 22:34:04.19	93.60	29.39	-40.3	-42.0	19.7	0.00e+00	0	40	0	0	51	4567
2026-01-16 22:34:07.60	94.74	29.37	-40.5	-42.3	19.4	0.00e+00	0	40	0	0	51	4735
2026-01-16 22:34:10.54	95.73	29.35	-40.4	-42.2	19.5	0.00e+00	0	40	0	0	51	4676
2026-01-16 22:34:13.83	96.83	29.31	-40.4	-42.2	19.5	0.00e+00	0	40	0	0	51	4686
2026-01-16 22:34:16.54	97.74	29.27	-40.5	-42.3	19.5	0.00e+00	0	40	0	0	51	4722
2026-01-16 22:34:19.86	98.85	29.21	-40.4	-42.2	19.6	0.00e+00	0	40	0	0	51	4652
2026-01-16 22:34:22.55	99.74	29.16	-40.2	-41.9	19.8	0.00e+00	0	40	0	0	51	4516
2026-01-16 22:34:25.84	100.83	29.08	-40.4	-42.1	19.6	0.00e+00	0	40	0	0	51	4622
2026-01-16 22:34:28.55	101.73	29.01	-40.2	-41.9	19.8	0.00e+00	0	40	0	0	51	4510
2026-01-16 22:34:31.84	102.81	28.91	-40.3	-42.0	19.6	0.00e+00	0	40	0	0	51	4597
2026-01-16 22:34:34.55	103.69	28.83	-40.0	-41.7	19.9	0.00e+00	0	40	0	0	51	4406
2026-01-16 22:34:37.84	104.76	28.71	-40.1	-41.8	19.7	0.00e+00	0	40	0	0	51	4489
2026-01-16 22:34:40.69	105.68	28.60	-40.3	-42.0	19.5	0.00e+00	0	40	0	0	51	4589
2026-01-16 22:34:43.85	106.69	28.47	-40.3	-42.1	19.4	0.00e+00	0	40	0	0	51	4601
2026-01-16 22:34:46.84	107.63	28.34	-40.2	-42.0	19.6	0.00e+00	0	40	0	0	51	4561
2026-01-16 22:34:49.82	108.57	28.20	-40.2	-41.9	19.7	0.00e+00	0	40	0	0	51	4515
2026-01-16 22:34:52.84	109.51	28.06	-40.1	-41.9	19.7	0.00e+00	0	40	0	0	51	4503
2026-01-16 22:34:55.85	110.44	27.90	-40.2	-41.9	19.7	0.00e+00	0	40	0	0	51	4538
2026-01-16 22:34:58.83	111.36	27.75	-40.3	-42.1	19.6	0.00e+00	0	40	0	0	51	4602
2026-01-16 22:35:01.82	112.26	27.58	-40.1	-41.8	19.8	0.00e+00	0	40	0	0	51	4486
2026-01-16 22:35:04.81	113.16	27.41	-39.9	-41.6	20.1	0.00e+00	0	40	0	0	51	4352
2026-01-16 22:35:07.79	114.05	27.23	-40.2	-41.9	19.8	0.00e+00	0	40	0	0	51	4514
2026-01-16 22:35:10.79	114.93	27.04	-40.0	-41.7	19.9	0.00e+00	0	40	0	0	51	4435
2026-01-16 22:35:13.74	115.78	26.86	-39.9	-41.6	19.9	0.00e+00	0	40	0	0	51	4374
2026-01-16 22:35:16.87	116.68	26.65	-40.0	-41.7	19.9	0.00e+00	0	40	0	0	51	4427
2026-01-16 22:35:19.72	117.49	26.46	-40.1	-41.7	19.8	0.00e+00	0	40	0	0	51	4441
2026-01-16 22:35:22.84	118.36	26.24	-40.1	-41.8	19.6	0.00e+00	0	40	0	0	51	4491
2026-01-16 22:35:25.68	119.14	26.04	-40.0	-41.7	19.9	0.00e+00	0	40	0	0	51	4401
2026-01-16 22:35:28.89	120.02	25.81	-40.0	-41.7	19.9	0.00e+00	0	40	0	0	51	4413
2026-01-16 22:35:31.73	120.78	25.60	-40.0	-41.7	19.9	0.00e+00	0	40	0	0	51	4417
2026-01-16 22:35:34.86	121.61	25.37	-40.0	-41.7	19.9	0.00e+00	0	40	0	0	51	4414
2026-01-16 22:35:37.70	122.36	25.15	-39.7	-41.3	20.2	0.00e+00	0	40	0	0	51	4224
2026-01-16 22:35:40.83	123.16	24.91	-39.5	-41.2	20.3	0.00e+00	0	40	0	0	50	4409
2026-01-16 22:35:43.67	123.89	24.69	-39.9	-41.6	20.0	0.00e+00	0	40	0	0	50	4611
2026-01-16 22:35:46.93	124.70	24.43	-39.8	-41.5	20.1	0.00e+00	0	40	0	0	50	4554
2026-01-16 22:35:49.77	125.40	24.20	-40.0	-41.8	19.8	0.00e+00	0	40	0	0	50	4707
2026-01-16 22:35:53.10	126.21	23.93	-40.0	-41.7	19.8	0.00e+00	0	40	0	0	50	4678
2026-01-16 22:35:55.81	126.86	23.71	-40.0	-41.8	19.8	0.00e+00	0	40	0	0	50	4717
2026-01-16 22:35:59.08	127.63	23.44	-39.9	-41.7	20.0	0.00e+00	0	40	0	0	50	4658
2026-01-16 22:36:01.90	128.29	23.21	-39.8	-41.6	20.0	0.00e+00	0	40	0	0	50	4611
2026-01-16 22:36:05.03	129.00	22.94	-39.8	-41.5	20.1	0.00e+00	0	40	0	0	50	4555
2026-01-16 22:36:07.87	129.64	22.70	-39.8	-41.5	20.0	0.00e+00	0	40	0	0	50	4566
2026-01-16 22:36:11.14	130.36	22.42	-39.7	-41.3	20.2	0.00e+00	0	40	0	0	50	4469
2026-01-16 22:36:13.98	130.98	22.18	-39.9	-41.6	19.9	0.00e+00	0	40	0	0	50	4644
2026-01-16 22:36:17.04	131.63	21.92	-40.0	-41.7	19.8	0.00e+00	0	40	0	0	50	4705
2026-01-16 22:36:20.03	132.26	21.66	-40.1	-41.9	19.5	0.00e+00	0	40	0	0	50	4783
2026-01-16 22:36:23.01	132.88	21.40	-39.9	-41.7	19.8	0.00e+00	0	40	0	0	50	4652
2026-01-16 22:36:26.00	133.49	21.15	-40.0	-41.7	19.7	0.00e+00	0	40	0	0	50	4670
2026-01-16 22:36:29.03	134.10	20.88	-39.9	-41.7	19.8	0.00e+00	0	40	0	0	50	4656
2026-01-16 22:36:32.01	134.69	20.62	-40.2	-41.9	19.6	0.00e+00	0	40	0	0	51	4521
2026-01-16 22:36:34.99	135.27	20.37	-40.1	-41.8	19.7	0.00e+00	0	40	0	0	51	4484
2026-01-16 22:36:37.98	135.84	20.10	-40.2	-41.9	19.6	0.00e+00	0	40	0	0	51	4526
2026-01-16 22:36:40.96	136.40	19.85	-40.2	-41.9	19.6	0.00e+00	0	40	0	0	51	4521
2026-01-16 22:36:43.97	136.95	19.58	-40.3	-42.1	19.5	0.00e+00	0	40	0	0	51	4603
2026-01-16 22:36:46.96	137.50	19.32	-40.5	-42.3	19.2	0.00e+00	0	40	0	0	52	4475
2026-01-16 22:36:49.95	138.03	19.06	-40.4	-42.2	19.2	0.00e+00	0	40	0	0	52	4426
2026-01-16 22:36:52.93	138.56	18.81	-40.2	-42.0	19.4	0.00e+00	0	40	0	0	52	4315
2026-01-16 22:36:55.91	139.07	18.55	-40.3	-42.0	19.3	0.00e+00	0	40	0	0	52	4333
2026-01-16 22:36:58.90	139.58	18.29	-40.2	-41.9	19.5	0.00e+00	0	40	0	0	52	4268
2026-01-16 22:37:01.85	140.07	18.03	-40.2	-41.9	19.5	0.00e+00	0	40	0	0	52	4273
2026-01-16 22:37:04.98	140.59	17.76	-40.1	-41.8	19.6	0.00e+00	0	40	0	0	52	4226
2026-01-16 22:37:07.82	141.05	17.52	-40.0	-41.7	19.7	0.00e+00	0	40	0	0	52	4185
2026-01-16 22:37:10.95	141.55	17.25	-40.2	-41.9	19.4	0.00e+00	0	40	0	0	52	4291
2026-01-16 22:37:13.79	141.99	17.01	-40.3	-42.1	19.3	0.00e+00	0	41	0	0	52	4343
2026-01-16 22:37:17.11	142.50	16.73	-40.3	-42.1	19.4	0.00e+00	0	40	0	0	52	4355
2026-01-16 22:37:19.84	142.92	16.50	-40.1	-41.8	19.6	0.00e+00	0	40	0	0	52	4232
2026-01-16 22:37:23.12	143.41	16.22	-40.1	-41.9	19.5	0.00e+00	0	40	0	0	52	4282
2026-01-16 22:37:25.89	143.81	15.99	-40.4	-42.2	19.2	0.00e+00	0	40	0	0	52	4413
2026-01-16 22:37:29.16	144.28	15.71	-40.7	-42.5	18.9	0.00e+00	0	40	0	0	52	4577
2026-01-16 22:37:32.14	144.71	15.47	-40.8	-42.6	18.9	0.00e+00	0	40	0	0	52	4639
2026-01-16 22:37:35.19	145.13	15.21	-40.9	-42.7	18.8	0.00e+00	0	40	0	0	52	4674
2026-01-16 22:37:38.93	145.64	14.90	-41.1	-43.0	18.6	0.00e+00	0	40	0	0	52	4816
2026-01-16 22:37:41.64	146.01	14.68	-41.1	-43.0	18.6	0.00e+00	0	41	0	0	52	4818
2026-01-16 22:37:45.02	146.46	14.41	-40.9	-42.8	18.7	0.00e+00	0	40	0	0	52	4729
2026-01-16 22:37:47.78	146.82	14.18	-41.1	-43.0	18.5	0.00e+00	0	40	0	0	52	4816
2026-01-16 22:37:51.16	147.25	13.91	-41.4	-43.3	18.1	0.00e+00	0	40	0	0	53	4745
2026-01-16 22:37:53.86	147.59	13.69	-41.5	-43.5	18.0	0.00e+00	0	40	0	0	53	4815
2026-01-16 22:37:57.15	148.00	13.43	-41.4	-43.3	18.2	0.00e+00	0	41	0	0	53	4737
2026-01-16 22:37:59.85	148.33	13.21	-41.2	-43.1	18.4	0.00e+00	0	40	0	0	53	4621
2026-01-16 22:38:03.15	148.73	12.95	-41.1	-43.0	18.4	0.00e+00	0	40	0	0	53	4586
2026-01-16 22:38:06.21	149.09	12.71	-41.4	-43.3	18.2	0.00e+00	0	41	0	0	53	4713
2026-01-16 22:38:09.34	149.45	12.47	-41.5	-43.4	18.1	0.00e+00	0	40	0	0	53	4805
2026-01-16 22:38:12.40	149.80	12.23	-41.3	-43.2	18.2	0.00e+00	0	40	0	0	53	4691
2026-01-16 22:38:15.68	150.17	11.97	-41.2	-43.1	18.3	0.00e+00	0	40	0	0	53	4624
2026-01-16 22:38:18.48	150.49	11.76	-41.2	-43.2	18.2	0.00e+00	0	40	0	0	53	4652
2026-01-16 22:38:21.65	150.83	11.52	-41.3	-43.2	18.2	0.00e+00	0	40	0	0	53	4704
2026-01-16 22:38:24.72	151.16	11.28	-41.5	-43.4	18.0	0.00e+00	0	40	0	0	53	4785
2026-01-16 22:38:27.97	151.51	11.04	-41.6	-43.6	17.8	0.00e+00	0	41	0	0	53	4911
2026-01-16 22:38:30.85	151.81	10.82	-41.7	-43.7	17.8	0.00e+00	0	40	0	0	53	4932
2026-01-16 22:38:34.11	152.15	10.58	-41.7	-43.7	17.7	0.00e+00	0	40	0	0	54	4704
2026-01-16 22:38:36.89	152.43	10.37	-41.8	-43.8	17.6	0.00e+00	0	40	0	0	54	4746
2026-01-16 22:38:40.16	152.75	10.13	-42.0	-44.1	17.4	0.00e+00	0	40	0	0	54	4875
2026-01-16 22:38:43.10	153.04	9.91	-41.8	-43.8	17.6	0.00e+00	0	41	0	0	54	4743
2026-01-16 22:38:46.74	153.40	9.65	-41.8	-43.9	17.5	0.00e+00	0	41	0	0	54	4787
2026-01-16 22:38:49.58	153.67	9.44	-41.9	-43.9	17.4	0.00e+00	0	41	0	0	54	4812
2026-01-16 22:38:53.56	154.04	9.16	-41.6	-43.5	17.8	0.00e+00	0	41	0	0	54	4598
2026-01-16 22:38:56.45	154.31	8.95	-49.8	-62.4	3.8	1.49e+00	0	41	104	0	70	16100
2026-01-16 22:39:00.15	154.65	8.69	-49.9	-63.6	3.8	1.49e+00	0	40	104	0	71	17298
2026-01-16 22:39:03.05	154.91	8.48	-50.6	-63.6	3.8	1.49e+00	0	41	104	0	71	17422
2026-01-16 22:39:06.03	155.17	8.28	-50.5	-63.7	3.8	1.49e+00	0	41	104	0	71	17618
2026-01-16 22:39:09.01	155.43	8.07	-50.7	-63.7	3.8	1.49e+00	0	41	104	0	72	16651
2026-01-16 22:39:11.99	155.68	7.86	-50.5	-63.8	3.8	1.49e+00	0	41	104	0	72	16721
2026-01-16 22:39:14.97	155.94	7.66	-50.8	-63.8	3.8	1.49e+00	0	40	104	0	72	16741
2026-01-16 22:39:17.95	156.19	7.45	-50.5	-63.8	3.8	1.49e+00	0	40	104	0	72	16723
2026-01-16 22:39:20.93	156.43	7.25	-50.3	-63.7	3.8	1.49e+00	0	41	104	0	72	16562
2026-01-16 22:39:23.91	156.68	7.05	-50.3	-63.7	3.8	1.49e+00	0	41	104	0	72	16556
2026-01-16 22:39:26.88	156.91	6.85	-50.3	-63.7	3.8	1.49e+00	0	41	104	0	72	16526
2026-01-16 22:39:29.86	157.15	6.65	-50.3	-63.7	3.8	1.49e+00	0	41	104	0	72	16569
2026-01-16 22:39:32.84	157.38	6.45	-50.3	-63.7	3.8	1.49e+00	0	41	104	0	72	16535
2026-01-16 22:39:35.82	157.62	6.25	-50.3	-63.7	3.8	1.49e+00	0	41	104	0	72	16580
2026-01-16 22:39:38.80	157.84	6.06	-50.3	-63.7	3.8	1.49e+00	0	41	104	0	72	16585
2026-01-16 22:39:41.78	158.07	5.86	-50.3	-63.7	3.8	1.49e+00	0	41	104	0	72	16536
2026-01-16 22:39:44.76	158.29	5.67	-50.3	-63.7	3.8	1.49e+00	0	41	104	0	72	16600
2026-01-16 22:39:47.74	158.51	5.48	-50.3	-63.7	3.8	1.49e+00	0	41	104	0	72	16582
2026-01-16 22:39:50.72	158.72	5.29	-50.3	-63.7	3.8	1.49e+00	0	41	104	0	72	16559
2026-01-16 22:39:53.70	158.94	5.09	-50.3	-63.7	3.8	1.49e+00	0	41	104	0	72	16557

#Closed at: 2026-01-16 22:39:56
#Recorded file [0 MB]: D:/Data/31040_260117_012805.dat