passes_logs/2026/01/16/T1/T1__20260116_052046_FENGYUN_3E_rec.log

#Pass ID: 20260116_052046_FENGYUN 3E
#Satellite: FENGYUN 3E
#Configuration: FENGYUN 3E
#almurnet v.1.7.20251203
#Start time: 2026-01-16 05:20:48

#Version: 2.0.20230620
#Station: T1
#Location: 37.570604 lon 55.790049 lat
#TLE: 1 49008U 21062A   26015.49897766  .00000206  00000+0  11779-3 0  9997
#TLE: 2 49008  98.7486  20.6219 0002049 135.8566 224.2775 14.19885576234916

#Time	Az	El	Level	Level2	SNR	BER	BlckErr	Temp	State	Recorded	gain1	gain2
2026-01-16 05:20:48.78	8.00	5.14	-48.3	-60.7	3.8	8.46e-01	0	40	0	0	66	15539
2026-01-16 05:20:51.76	7.80	5.33	-48.4	-60.5	3.8	8.47e-01	0	41	104	0	66	15156
2026-01-16 05:20:54.74	7.60	5.52	-48.4	-60.5	3.8	8.46e-01	0	41	104	0	66	15214
2026-01-16 05:20:57.72	7.39	5.71	-48.4	-60.5	3.8	8.48e-01	0	41	104	0	66	15069
2026-01-16 05:21:00.71	7.18	5.91	-48.4	-60.5	3.8	8.46e-01	0	41	104	0	66	15060
2026-01-16 05:21:03.69	6.97	6.11	-48.4	-60.6	3.8	8.46e-01	0	41	104	0	66	15291
2026-01-16 05:21:06.67	6.75	6.30	-48.4	-60.6	3.8	8.47e-01	0	41	104	0	66	15285
2026-01-16 05:21:09.65	6.53	6.50	-48.4	-60.2	3.8	8.49e-01	0	41	104	0	66	14632
2026-01-16 05:21:12.63	6.31	6.70	-48.3	-59.8	3.8	8.47e-01	0	41	104	0	66	13916
2026-01-16 05:21:15.61	6.09	6.90	-48.3	-59.2	3.8	8.47e-01	0	42	104	0	66	13071
2026-01-16 05:21:18.59	5.86	7.10	-48.2	-58.3	3.9	8.45e-01	0	42	104	0	66	11800
2026-01-16 05:21:21.57	5.63	7.31	-48.2	-58.9	3.9	8.45e-01	0	42	104	0	66	12564
2026-01-16 05:21:24.55	5.39	7.51	-48.4	-60.2	3.8	8.47e-01	0	42	104	0	66	14575
2026-01-16 05:21:27.53	5.15	7.71	-47.9	-56.3	4.4	8.31e-01	0	42	0	0	66	9306
2026-01-16 05:21:30.51	4.91	7.92	-46.8	-51.9	7.4	1.34e-01	0	42	0	10485760	64	6322
2026-01-16 05:21:33.50	4.66	8.13	-45.5	-48.9	10.6	5.98e-03	0	42	0	32505856	61	5282
2026-01-16 05:21:36.48	4.41	8.34	-44.0	-46.3	13.2	1.60e-05	0	42	0	53477376	57	4975
2026-01-16 05:21:39.46	4.16	8.55	-42.6	-44.4	15.1	0.00e+00	0	42	0	75497472	56	4227
2026-01-16 05:21:42.44	3.90	8.76	-42.3	-44.0	15.3	0.00e+00	0	42	0	97517568	54	4545
2026-01-16 05:21:45.42	3.64	8.97	-44.5	-47.0	12.4	9.49e-05	0	42	0	118489088	58	5092
2026-01-16 05:21:48.45	3.37	9.19	-44.0	-46.6	13.0	0.00e+00	0	42	0	140509184	57	5157
2026-01-16 05:21:51.35	3.11	9.40	-40.7	-42.3	17.2	0.00e+00	0	42	0	155189248	51	4401
2026-01-16 05:21:54.49	2.82	9.62	-40.6	-42.1	17.3	0.00e+00	0	42	0	177209344	51	4333
2026-01-16 05:21:57.33	2.56	9.83	-40.0	-41.4	18.1	0.00e+00	0	42	0	198180864	50	4237
2026-01-16 05:22:00.45	2.26	10.06	-40.5	-42.0	17.5	0.00e+00	0	42	0	221249536	50	4517
2026-01-16 05:22:03.29	1.99	10.27	-40.5	-42.0	17.5	0.00e+00	0	42	0	241172480	51	4269
2026-01-16 05:22:06.62	1.67	10.51	-40.7	-42.2	17.3	0.00e+00	0	42	0	265289728	51	4375
2026-01-16 05:22:09.32	1.40	10.72	-40.6	-42.0	17.6	0.00e+00	0	43	0	285212672	51	4250
2026-01-16 05:22:12.61	1.07	10.96	-40.5	-41.9	17.7	0.00e+00	0	42	0	308281344	51	4194
2026-01-16 05:22:15.64	0.76	11.19	-40.2	-41.4	18.1	0.00e+00	0	43	0	330301440	51	3992
2026-01-16 05:22:18.62	0.44	11.42	-40.2	-41.5	18.1	0.00e+00	0	42	0	352321536	51	4012
2026-01-16 05:22:21.66	0.12	11.65	-40.2	-41.4	18.2	0.00e+00	0	43	0	374341632	50	4204
2026-01-16 05:22:24.94	359.77	11.90	-40.1	-41.3	18.3	0.00e+00	0	43	0	397410304	50	4170
2026-01-16 05:22:27.67	359.47	12.11	-40.0	-41.2	18.4	0.00e+00	0	43	0	417333248	50	4106
2026-01-16 05:22:31.04	359.10	12.37	-40.1	-41.2	18.4	0.00e+00	0	43	0	441450496	50	4118
2026-01-16 05:22:33.74	358.79	12.58	-40.2	-41.3	18.3	0.00e+00	0	43	0	461373440	50	4191
2026-01-16 05:22:37.13	358.40	12.85	-40.1	-41.2	18.5	0.00e+00	0	42	0	485490688	50	4111
2026-01-16 05:22:40.20	358.04	13.09	-39.9	-41.0	18.6	0.00e+00	0	43	0	507510784	50	4039
2026-01-16 05:22:43.32	357.67	13.34	-39.8	-40.9	18.7	0.00e+00	0	43	0	530579456	50	3983
2026-01-16 05:22:46.17	357.32	13.56	-39.8	-40.9	18.8	0.00e+00	0	43	0	550502400	50	3975
2026-01-16 05:22:49.29	356.94	13.81	-39.8	-40.9	18.8	0.00e+00	0	43	0	573571072	50	3987
2026-01-16 05:22:52.13	356.58	14.04	-39.5	-40.7	19.0	0.00e+00	0	43	0	593494016	49	4104
2026-01-16 05:22:55.26	356.18	14.29	-39.5	-40.7	19.0	0.00e+00	0	43	0	616562688	49	4106
2026-01-16 05:22:58.36	355.78	14.55	-39.5	-40.7	19.0	0.00e+00	0	43	0	638582784	49	4105
2026-01-16 05:23:01.63	355.35	14.81	-39.3	-40.5	19.2	0.00e+00	0	43	0	662700032	49	4031
2026-01-16 05:23:04.33	354.99	15.03	-39.4	-40.5	19.2	0.00e+00	0	43	0	681574400	49	4051
2026-01-16 05:23:07.59	354.54	15.30	-39.5	-40.6	19.1	0.00e+00	0	43	0	705691648	49	4089
2026-01-16 05:23:10.58	354.13	15.55	-39.3	-40.4	19.3	0.00e+00	0	43	0	726663168	49	4004
2026-01-16 05:23:13.56	353.71	15.80	-39.3	-40.4	19.3	0.00e+00	0	43	0	748683264	49	3986
2026-01-16 05:23:16.54	353.28	16.04	-39.1	-40.2	19.5	0.00e+00	0	43	0	770703360	48	4144
2026-01-16 05:23:19.53	352.84	16.29	-38.8	-40.0	19.7	0.00e+00	0	43	0	791674880	48	4025
2026-01-16 05:23:22.54	352.40	16.55	-38.7	-39.8	19.9	0.00e+00	0	43	0	813694976	48	3941
2026-01-16 05:23:25.52	351.95	16.80	-38.8	-39.9	19.9	0.00e+00	0	43	0	834666496	48	3973
2026-01-16 05:23:28.51	351.49	17.05	-39.0	-40.1	19.7	0.00e+00	0	43	0	856686592	48	4064
2026-01-16 05:23:31.49	351.02	17.30	-39.1	-40.1	19.7	0.00e+00	0	43	0	878706688	48	4085
2026-01-16 05:23:34.48	350.54	17.55	-38.8	-39.9	19.9	0.00e+00	0	43	0	899678208	48	3961
2026-01-16 05:23:37.39	350.07	17.80	-38.6	-39.7	19.8	0.00e+00	0	43	0	920649728	47	4100
2026-01-16 05:23:40.51	349.56	18.07	-38.4	-39.5	20.0	0.00e+00	0	43	0	943718400	47	4021
2026-01-16 05:23:43.35	349.08	18.31	-38.4	-39.5	20.0	0.00e+00	0	43	0	963641344	47	4041
2026-01-16 05:23:46.48	348.55	18.58	-38.4	-39.5	20.0	0.00e+00	0	43	0	986710016	47	4047
2026-01-16 05:23:49.33	348.05	18.82	-38.3	-39.5	20.0	0.00e+00	0	43	0	1006632960	47	4044
2026-01-16 05:23:52.47	347.50	19.09	-38.2	-39.4	20.1	0.00e+00	0	43	0	1029701632	47	3992
2026-01-16 05:23:55.40	346.98	19.34	-38.2	-39.3	20.2	0.00e+00	0	43	0	1050673152	47	3924
2026-01-16 05:23:58.39	346.43	19.59	-38.1	-39.1	20.4	0.00e+00	0	43	0	1071644672	46	4064
2026-01-16 05:24:01.37	345.88	19.85	-38.4	-39.4	20.2	0.00e+00	0	43	0	1093664768	46	4200
2026-01-16 05:24:04.35	345.31	20.10	-38.3	-39.3	20.2	0.00e+00	0	43	0	1115684864	46	4184
2026-01-16 05:24:07.36	344.74	20.36	-38.5	-39.5	20.1	0.00e+00	0	43	0	1136656384	46	4268
2026-01-16 05:24:10.61	344.10	20.63	-38.7	-39.7	19.8	0.00e+00	0	43	0	1160773632	46	4383
2026-01-16 05:24:13.32	343.56	20.86	-38.4	-39.4	20.1	0.00e+00	0	43	0	1179648000	46	4238
2026-01-16 05:24:16.61	342.90	21.14	-38.3	-39.4	20.2	0.00e+00	0	43	0	1203765248	46	4199
2026-01-16 05:24:19.32	342.34	21.37	-38.3	-39.3	20.2	0.00e+00	0	43	0	1223688192	46	4172
2026-01-16 05:24:22.62	341.65	21.65	-38.2	-39.3	20.3	0.00e+00	0	43	0	1246756864	46	4188
2026-01-16 05:24:25.38	341.06	21.88	-38.5	-39.7	19.9	0.00e+00	0	43	0	1266679808	46	4356
2026-01-16 05:24:28.78	340.33	22.16	-38.5	-39.6	20.0	0.00e+00	0	43	0	1291845632	46	4302
2026-01-16 05:24:31.48	339.74	22.38	-38.3	-39.3	20.3	0.00e+00	0	43	0	1310720000	46	4180
2026-01-16 05:24:34.78	339.00	22.65	-38.0	-39.0	20.6	0.00e+00	0	43	0	1334837248	46	4039
2026-01-16 05:24:37.50	338.38	22.87	-37.7	-38.8	20.8	0.00e+00	0	43	0	1354760192	46	3916
2026-01-16 05:24:40.75	337.63	23.13	-37.8	-38.8	20.7	0.00e+00	0	43	0	1377828864	46	3935
2026-01-16 05:24:43.82	336.91	23.38	-37.9	-38.9	20.7	0.00e+00	0	43	0	1399848960	46	3969
2026-01-16 05:24:46.84	336.20	23.62	-37.9	-38.9	20.7	0.00e+00	0	43	0	1421869056	46	3976
2026-01-16 05:24:49.82	335.48	23.85	-37.6	-38.6	21.0	0.00e+00	0	43	0	1443889152	46	3835
2026-01-16 05:24:52.80	334.74	24.08	-37.5	-38.5	21.1	0.00e+00	0	43	0	1464860672	45	4014
2026-01-16 05:24:55.84	333.99	24.31	-37.4	-38.4	21.2	0.00e+00	0	43	0	1486880768	45	3971
2026-01-16 05:24:58.74	333.26	24.52	-37.6	-38.6	21.0	0.00e+00	0	43	0	1507852288	45	4058
2026-01-16 05:25:02.07	332.40	24.77	-37.6	-38.6	20.9	0.00e+00	0	43	0	1531969536	45	4074
2026-01-16 05:25:04.78	331.70	24.96	-37.9	-38.9	20.7	0.00e+00	0	43	0	1551892480	45	4198
2026-01-16 05:25:08.05	330.84	25.20	-37.8	-38.9	20.7	0.00e+00	0	43	0	1574961152	45	4198
2026-01-16 05:25:10.76	330.11	25.38	-37.7	-38.7	20.9	0.00e+00	0	43	0	1594884096	45	4125
2026-01-16 05:25:14.05	329.22	25.61	-37.5	-38.5	21.0	0.00e+00	0	43	0	1619001344	44	4273
2026-01-16 05:25:16.78	328.47	25.79	-37.5	-38.5	21.0	0.00e+00	0	43	0	1637875712	44	4277
2026-01-16 05:25:20.22	327.52	26.01	-37.7	-38.7	20.9	0.00e+00	0	43	0	1663041536	45	4121
2026-01-16 05:25:22.94	326.75	26.18	-37.6	-38.5	21.0	0.00e+00	0	43	0	1682964480	45	4045
2026-01-16 05:25:26.21	325.82	26.38	-37.6	-38.6	21.0	0.00e+00	0	43	0	1706033152	45	4068
2026-01-16 05:25:28.98	325.02	26.54	-37.4	-38.4	21.2	0.00e+00	0	43	0	1725956096	45	3980
2026-01-16 05:25:32.17	324.10	26.72	-37.4	-38.3	21.2	0.00e+00	0	43	0	1749024768	44	4181
2026-01-16 05:25:35.01	323.26	26.88	-37.7	-38.6	20.9	0.00e+00	0	43	0	1769996288	44	4328
2026-01-16 05:25:38.14	322.33	27.04	-37.6	-38.6	21.0	0.00e+00	0	43	0	1793064960	44	4304
2026-01-16 05:25:40.98	321.48	27.18	-37.7	-38.6	20.9	0.00e+00	0	43	0	1812987904	44	4338
2026-01-16 05:25:44.11	320.53	27.33	-37.6	-38.6	21.0	0.00e+00	0	43	0	1835008000	45	4070
2026-01-16 05:25:46.95	319.66	27.46	-37.6	-38.6	20.9	0.00e+00	0	43	0	1855979520	45	4066
2026-01-16 05:25:50.22	318.65	27.60	-37.7	-38.7	20.9	0.00e+00	0	43	0	1879048192	45	4100
2026-01-16 05:25:53.33	317.69	27.73	-37.6	-38.5	21.1	0.00e+00	0	43	0	1902116864	45	4039
2026-01-16 05:25:56.61	316.66	27.85	-37.7	-38.7	20.9	0.00e+00	0	43	0	1926234112	45	4102
2026-01-16 05:25:59.33	315.80	27.94	-37.7	-38.7	20.9	0.00e+00	0	43	0	1945108480	45	4114
2026-01-16 05:26:02.60	314.76	28.04	-37.7	-38.7	20.9	0.00e+00	0	43	0	1969225728	45	4123
2026-01-16 05:26:05.70	313.77	28.13	-37.6	-38.5	21.0	0.00e+00	0	43	0	1991245824	45	4043
2026-01-16 05:26:08.75	312.79	28.21	-37.5	-38.5	21.1	0.00e+00	0	43	0	2013265920	45	4028
2026-01-16 05:26:12.24	311.67	28.29	-37.3	-38.2	21.3	0.00e+00	0	43	0	2038431744	45	3913
2026-01-16 05:26:14.99	310.78	28.34	-37.2	-38.1	21.4	0.00e+00	0	43	0	2058354688	45	3855
2026-01-16 05:26:18.26	309.71	28.40	-37.6	-38.5	21.1	0.00e+00	0	43	0	2082471936	45	4029
2026-01-16 05:26:20.97	308.83	28.43	-37.8	-38.8	20.8	0.00e+00	0	43	0	2101346304	45	4167
2026-01-16 05:26:24.27	307.75	28.46	-37.5	-38.5	21.1	0.00e+00	0	43	0	2125463552	45	4005
2026-01-16 05:26:26.99	306.86	28.48	-37.5	-38.4	21.1	0.00e+00	0	43	0	2145386496	45	3998
2026-01-16 05:26:30.27	305.79	28.50	-37.5	-38.4	21.1	0.00e+00	0	43	0	2168455168	45	3988
2026-01-16 05:26:33.00	304.89	28.50	-37.5	-38.4	21.2	0.00e+00	0	43	0	2188378112	45	3991
2026-01-16 05:26:36.27	303.82	28.49	-37.4	-38.3	21.3	0.00e+00	0	43	0	2211446784	45	3949
2026-01-16 05:26:39.00	302.93	28.48	-37.3	-38.2	21.3	0.00e+00	0	43	0	2231369728	45	3902
2026-01-16 05:26:42.28	301.85	28.45	-37.4	-38.3	21.3	0.00e+00	0	43	0	2255486976	45	3934
2026-01-16 05:26:45.00	300.96	28.42	-37.4	-38.3	21.3	0.00e+00	0	43	0	2275409920	45	3936
2026-01-16 05:26:48.29	299.89	28.37	-37.3	-38.3	21.3	0.00e+00	0	43	0	2298478592	45	3931
2026-01-16 05:26:51.01	299.01	28.32	-37.4	-38.3	21.3	0.00e+00	0	43	0	2318401536	45	3932
2026-01-16 05:26:54.30	297.94	28.25	-37.3	-38.2	21.4	0.00e+00	0	43	0	2342518784	45	3894
2026-01-16 05:26:57.02	297.07	28.18	-37.3	-38.2	21.3	0.00e+00	0	43	0	2361393152	45	3899
2026-01-16 05:27:00.29	296.02	28.10	-37.4	-38.3	21.2	0.00e+00	0	43	0	2385510400	45	3940
2026-01-16 05:27:03.23	295.08	28.01	-37.4	-38.3	21.2	0.00e+00	0	43	0	2406481920	45	3941
2026-01-16 05:27:07.21	293.82	27.88	-37.4	-38.3	21.3	0.00e+00	0	43	0	2435842048	45	3931
2026-01-16 05:27:10.05	292.92	27.77	-37.4	-38.3	21.3	0.00e+00	0	43	0	2455764992	45	3938
2026-01-16 05:27:14.01	291.69	27.62	-37.2	-38.1	21.4	0.00e+00	0	43	0	2484076544	45	3851
2026-01-16 05:27:16.86	290.81	27.50	-37.2	-38.1	21.4	0.00e+00	0	43	0	2505048064	45	3852
2026-01-16 05:27:20.83	289.59	27.32	-37.3	-38.2	21.3	0.00e+00	0	43	0	2533359616	45	3897
2026-01-16 05:27:23.76	288.70	27.18	-37.4	-38.3	21.2	0.00e+00	0	43	0	2554331136	45	3957
2026-01-16 05:27:27.74	287.50	26.98	-37.4	-38.3	21.3	0.00e+00	0	43	0	2583691264	45	3923
2026-01-16 05:27:30.58	286.66	26.83	-37.4	-38.3	21.3	0.00e+00	0	43	0	2603614208	45	3924
2026-01-16 05:27:34.57	285.49	26.60	-37.4	-38.4	21.2	0.00e+00	0	43	0	2632974336	45	3968
2026-01-16 05:27:37.41	284.67	26.44	-37.4	-38.4	21.2	0.00e+00	0	43	0	2652897280	45	3963
2026-01-16 05:27:41.42	283.52	26.20	-37.5	-38.4	21.2	0.00e+00	0	43	0	2682257408	45	3968
2026-01-16 05:27:44.26	282.72	26.02	-37.6	-38.6	21.0	0.00e+00	0	43	0	2703228928	45	4068
2026-01-16 05:27:48.24	281.61	25.76	-37.6	-38.5	21.0	0.00e+00	0	43	0	2731540480	45	4029
2026-01-16 05:27:51.08	280.83	25.57	-37.4	-38.3	21.2	0.00e+00	0	43	0	2751463424	45	3950
2026-01-16 05:27:55.29	279.69	25.28	-37.1	-38.0	21.5	0.00e+00	0	43	0	2781872128	45	3816
2026-01-16 05:27:58.17	278.92	25.08	-37.2	-38.1	21.4	0.00e+00	0	43	0	2802843648	45	3830
2026-01-16 05:28:02.07	277.90	24.80	-37.4	-38.3	21.2	0.00e+00	0	43	0	2831155200	45	3958
2026-01-16 05:28:05.06	277.13	24.58	-37.4	-38.4	21.2	0.00e+00	0	43	0	2853175296	45	3968
2026-01-16 05:28:08.04	276.37	24.36	-37.5	-38.4	21.1	0.00e+00	0	43	0	2874146816	45	3979
2026-01-16 05:28:11.03	275.62	24.13	-37.5	-38.4	21.1	0.00e+00	0	43	0	2896166912	45	3989
2026-01-16 05:28:14.01	274.88	23.90	-37.3	-38.2	21.3	0.00e+00	0	43	0	2917138432	45	3895
2026-01-16 05:28:17.00	274.15	23.67	-37.5	-38.4	21.2	0.00e+00	0	43	0	2939158528	45	3981
2026-01-16 05:28:19.98	273.43	23.43	-37.6	-38.5	21.0	0.00e+00	0	43	0	2960130048	45	4027
2026-01-16 05:28:22.96	272.73	23.20	-37.5	-38.4	21.1	0.00e+00	0	43	0	2982150144	45	3983
2026-01-16 05:28:25.95	272.03	22.96	-37.5	-38.4	21.1	0.00e+00	0	43	0	3004170240	45	3996
2026-01-16 05:28:28.93	271.35	22.71	-37.5	-38.4	21.1	0.00e+00	0	43	0	3025141760	45	3986
2026-01-16 05:28:31.92	270.68	22.47	-37.5	-38.5	21.1	0.00e+00	0	43	0	3047161856	45	4016
2026-01-16 05:28:34.92	270.01	22.22	-37.7	-38.6	20.9	0.00e+00	0	43	0	3068133376	45	4092
2026-01-16 05:28:37.99	269.34	21.97	-37.8	-38.8	20.8	0.00e+00	0	43	0	3090153472	45	4150
2026-01-16 05:28:40.83	268.73	21.73	-37.8	-38.8	20.8	0.00e+00	0	43	0	3111124992	45	4152
2026-01-16 05:28:43.95	268.07	21.47	-37.8	-38.8	20.8	0.00e+00	0	43	0	3134193664	45	4159
2026-01-16 05:28:46.79	267.48	21.23	-37.8	-38.7	20.8	0.00e+00	0	43	0	3154116608	45	4125
2026-01-16 05:28:50.11	266.80	20.94	-38.1	-39.0	20.5	0.00e+00	0	43	0	3178233856	45	4290
2026-01-16 05:28:52.80	266.26	20.72	-37.9	-38.9	20.6	0.00e+00	0	43	0	3198156800	45	4228
2026-01-16 05:28:56.08	265.61	20.44	-38.0	-39.0	20.5	0.00e+00	0	43	0	3221225472	45	4253
2026-01-16 05:28:58.88	265.06	20.20	-46.2	-59.1	3.8	8.48e-01	0	43	104	3229614080	62	16233
2026-01-16 05:29:02.01	264.46	19.93	-45.5	-58.9	3.8	8.45e-01	0	43	104	3229614080	61	16792
2026-01-16 05:29:04.85	263.93	19.69	-45.5	-58.9	3.8	8.48e-01	0	43	104	3229614080	61	16754
2026-01-16 05:29:07.97	263.35	19.42	-45.5	-58.9	3.8	8.47e-01	0	43	104	3229614080	61	16769
2026-01-16 05:29:10.80	262.84	19.17	-45.5	-58.9	3.8	8.47e-01	0	43	104	3229614080	61	16859
2026-01-16 05:29:13.93	262.28	18.91	-45.5	-58.9	3.8	8.47e-01	0	44	104	3229614080	61	16836
2026-01-16 05:29:16.77	261.78	18.66	-45.5	-58.9	3.8	8.47e-01	0	43	104	3229614080	61	16765
2026-01-16 05:29:19.89	261.24	18.39	-45.5	-58.9	3.8	8.46e-01	0	43	104	3229614080	61	16847
2026-01-16 05:29:22.72	260.75	18.15	-45.5	-58.9	3.8	8.49e-01	0	43	104	3229614080	61	16805
2026-01-16 05:29:25.85	260.23	17.88	-45.5	-58.9	3.8	8.47e-01	0	43	104	3229614080	61	16883
2026-01-16 05:29:28.69	259.76	17.64	-45.5	-58.9	3.8	8.47e-01	0	43	104	3229614080	61	16833
2026-01-16 05:29:31.81	259.26	17.38	-45.5	-58.9	3.8	8.47e-01	0	44	104	3229614080	61	16860
2026-01-16 05:29:34.65	258.81	17.13	-45.5	-58.9	3.8	8.48e-01	0	43	104	3229614080	61	16863
2026-01-16 05:29:37.77	258.32	16.87	-45.5	-58.9	3.8	8.47e-01	0	43	104	3229614080	61	16854
2026-01-16 05:29:40.61	257.89	16.63	-45.5	-58.9	3.8	8.48e-01	0	43	104	3229614080	61	16813
2026-01-16 05:29:43.73	257.41	16.37	-45.5	-58.9	3.8	8.45e-01	0	44	104	3229614080	61	16842
2026-01-16 05:29:46.57	256.99	16.13	-45.5	-58.9	3.8	8.48e-01	0	44	104	3229614080	61	16844
2026-01-16 05:29:49.69	256.54	15.87	-45.5	-58.9	3.8	8.48e-01	0	43	104	3229614080	61	16774
2026-01-16 05:29:52.53	256.13	15.63	-45.5	-58.9	3.8	8.47e-01	0	43	104	3229614080	61	16815
2026-01-16 05:29:55.65	255.69	15.37	-45.5	-58.9	3.8	8.47e-01	0	43	104	3229614080	61	16856
2026-01-16 05:29:58.49	255.30	15.14	-45.5	-59.0	3.8	8.47e-01	0	44	104	3229614080	61	16907
2026-01-16 05:30:01.61	254.87	14.88	-45.5	-58.9	3.8	8.48e-01	0	43	104	3229614080	61	16835
2026-01-16 05:30:04.45	254.49	14.64	-45.5	-58.9	3.8	8.46e-01	0	44	104	3229614080	61	16746
2026-01-16 05:30:07.57	254.08	14.39	-45.5	-58.9	3.8	8.47e-01	0	43	104	3229614080	61	16787
2026-01-16 05:30:10.42	253.71	14.16	-45.5	-58.9	3.8	8.46e-01	0	44	104	3229614080	61	16765
2026-01-16 05:30:13.54	253.31	13.90	-45.5	-58.9	3.8	8.47e-01	0	44	104	3229614080	61	16859
2026-01-16 05:30:16.37	252.95	13.68	-45.5	-58.9	3.8	8.46e-01	0	43	104	3229614080	61	16830
2026-01-16 05:30:19.50	252.57	13.43	-45.5	-58.9	3.8	8.46e-01	0	43	104	3229614080	61	16871
2026-01-16 05:30:22.33	252.22	13.20	-45.5	-58.8	3.8	8.47e-01	0	44	104	3229614080	61	16681
2026-01-16 05:30:25.46	251.85	12.95	-45.5	-58.8	3.8	8.47e-01	0	43	104	3229614080	61	16660
2026-01-16 05:30:28.30	251.51	12.73	-45.5	-58.9	3.8	8.47e-01	0	44	104	3229614080	61	16848
2026-01-16 05:30:31.42	251.15	12.48	-45.5	-58.9	3.8	8.48e-01	0	44	104	3229614080	61	16800
2026-01-16 05:30:34.25	250.83	12.26	-45.5	-58.9	3.8	8.47e-01	0	44	104	3229614080	61	16806
2026-01-16 05:30:37.38	250.48	12.02	-45.5	-58.9	3.8	8.48e-01	0	43	104	3229614080	61	16713
2026-01-16 05:30:40.21	250.17	11.80	-45.6	-58.9	3.8	8.47e-01	0	43	104	3229614080	61	16839
2026-01-16 05:30:43.33	249.83	11.56	-45.5	-58.9	3.8	8.47e-01	0	43	104	3229614080	61	16869
2026-01-16 05:30:46.17	249.53	11.34	-45.5	-58.9	3.8	8.47e-01	0	43	104	3229614080	61	16737
2026-01-16 05:30:49.29	249.20	11.10	-45.5	-58.9	3.8	8.47e-01	0	44	104	3229614080	61	16801
2026-01-16 05:30:52.13	248.90	10.89	-45.5	-59.0	3.8	8.46e-01	0	43	104	3229614080	61	16904
2026-01-16 05:30:55.25	248.59	10.65	-45.5	-59.0	3.8	8.46e-01	0	43	104	3229614080	61	16899
2026-01-16 05:30:58.09	248.30	10.44	-45.5	-58.9	3.8	8.46e-01	0	44	104	3229614080	61	16838
2026-01-16 05:31:01.21	247.99	10.21	-45.5	-59.0	3.8	8.47e-01	0	44	104	3229614080	61	16899
2026-01-16 05:31:04.05	247.72	10.00	-45.5	-58.9	3.8	8.48e-01	0	44	104	3229614080	61	16776
2026-01-16 05:31:07.17	247.42	9.77	-45.5	-59.0	3.8	8.46e-01	0	44	104	3229614080	61	16967
2026-01-16 05:31:10.01	247.15	9.56	-45.5	-58.9	3.8	8.47e-01	0	43	104	3229614080	61	16870
2026-01-16 05:31:13.13	246.86	9.33	-45.5	-59.0	3.8	8.47e-01	0	44	104	3229614080	61	16957
2026-01-16 05:31:15.96	246.60	9.13	-45.5	-58.9	3.8	8.47e-01	0	43	104	3229614080	61	16870
2026-01-16 05:31:19.08	246.32	8.90	-45.5	-59.0	3.8	8.47e-01	0	43	104	3229614080	61	16930
2026-01-16 05:31:21.92	246.07	8.70	-45.5	-59.0	3.8	8.46e-01	0	44	104	3229614080	61	16891
2026-01-16 05:31:25.04	245.79	8.48	-45.5	-59.0	3.8	8.46e-01	0	44	104	3229614080	61	16889
2026-01-16 05:31:27.88	245.55	8.28	-45.5	-58.9	3.8	8.47e-01	0	44	104	3229614080	61	16867
2026-01-16 05:31:31.00	245.28	8.06	-45.5	-59.0	3.8	8.48e-01	0	44	104	3229614080	61	16946
2026-01-16 05:31:33.84	245.05	7.86	-45.5	-58.9	3.8	8.47e-01	0	44	104	3229614080	61	16866
2026-01-16 05:31:36.96	244.79	7.64	-45.5	-58.9	3.8	8.46e-01	0	44	104	3229614080	61	16784
2026-01-16 05:31:39.80	244.56	7.45	-45.5	-58.9	3.8	8.47e-01	0	44	104	3229614080	61	16854
2026-01-16 05:31:42.92	244.31	7.23	-45.5	-58.9	3.8	8.47e-01	0	43	104	3229614080	61	16852
2026-01-16 05:31:45.76	244.09	7.04	-45.5	-58.9	3.8	8.46e-01	0	43	104	3229614080	61	16734
2026-01-16 05:31:48.88	243.84	6.83	-45.5	-58.9	3.8	8.47e-01	0	44	104	3229614080	61	16882
