passes_logs/2026/01/16/T1/T1__20260116_231810_NOAA_20_JPSS-1_rec.log

#Pass ID: 20260116_231810_NOAA 20 (JPSS-1)
#Satellite: NOAA 20 (JPSS-1)
#Configuration: NOAA 20
#almurnet v.1.7.20251203
#Start time: 2026-01-16 23:18:11

#Version: 2.0.20230620
#Station: T1
#Location: 37.570604 lon 55.790049 lat
#TLE: 1 43013U 17073A   26016.24631778  .00000038  00000+0  39093-4 0  9990
#TLE: 2 43013  98.7637 317.1726 0001455  37.6755 322.4523 14.19536243422915

#Time	Az	El	Level	Level2	SNR	BER	BlckErr	Temp	State	Recorded	gain1	gain2
2026-01-16 23:18:11.55	19.08	5.06	-48.3	-65.3	3.8	1.49e+00	0	40	0	0	68	25105
2026-01-16 23:18:15.52	19.18	5.34	-48.2	-65.0	3.8	1.49e+00	0	40	104	0	67	25699
2026-01-16 23:18:19.50	19.29	5.62	-48.2	-64.9	3.8	1.49e+00	0	40	104	0	67	25490
2026-01-16 23:18:23.47	19.39	5.91	-48.2	-65.1	3.8	1.49e+00	0	40	104	0	67	25922
2026-01-16 23:18:27.44	19.50	6.20	-48.2	-65.2	3.8	1.49e+00	0	41	104	0	67	26282
2026-01-16 23:18:31.41	19.60	6.49	-48.2	-65.0	3.8	1.49e+00	0	41	104	0	67	25705
2026-01-16 23:18:35.38	19.71	6.79	-48.2	-64.2	3.8	1.49e+00	0	41	104	0	67	23536
2026-01-16 23:18:39.36	19.82	7.09	-48.1	-63.2	3.8	1.49e+00	0	41	104	0	67	20804
2026-01-16 23:18:43.33	19.94	7.39	-48.1	-62.2	4.1	1.47e+00	0	41	104	0	67	18640
2026-01-16 23:18:47.30	20.05	7.69	-48.1	-61.8	4.2	1.42e+00	0	41	0	0	67	17828
2026-01-16 23:18:51.28	20.17	8.01	-48.0	-61.2	4.3	1.35e+00	0	41	0	0	67	16688
2026-01-16 23:18:55.25	20.29	8.32	-47.8	-58.7	5.6	5.71e-01	0	41	0	6291456	67	12468
2026-01-16 23:18:59.22	20.41	8.64	-47.2	-55.0	8.9	3.63e-02	0	42	0	13631488	66	8593
2026-01-16 23:19:03.20	20.53	8.96	-46.4	-52.4	11.5	7.82e-04	0	42	0	22020096	64	7188
2026-01-16 23:19:07.22	20.66	9.29	-44.8	-48.7	15.4	0.00e+00	0	42	0	29360128	61	5588
2026-01-16 23:19:11.23	20.79	9.62	-44.1	-47.6	16.5	0.00e+00	0	42	0	36700160	60	5208
2026-01-16 23:19:15.21	20.92	9.96	-44.3	-47.7	16.4	0.00e+00	0	42	0	44040192	60	5231
2026-01-16 23:19:19.51	21.07	10.33	-43.8	-46.9	17.2	0.00e+00	0	42	0	52428800	59	5072
2026-01-16 23:19:23.50	21.21	10.67	-43.9	-47.0	17.1	0.00e+00	0	42	0	59768832	59	5141
2026-01-16 23:19:27.59	21.35	11.03	-43.9	-47.0	17.2	0.00e+00	0	42	0	67108864	59	5111
2026-01-16 23:19:31.63	21.50	11.39	-43.8	-46.8	17.4	0.00e+00	0	42	0	74448896	59	4988
2026-01-16 23:19:35.80	21.65	11.77	-43.8	-46.7	17.5	0.00e+00	0	42	0	82837504	59	4928
2026-01-16 23:19:39.79	21.80	12.14	-44.0	-46.8	17.4	0.00e+00	0	42	0	90177536	59	5005
2026-01-16 23:19:43.81	21.95	12.51	-43.9	-46.7	17.5	0.00e+00	0	42	0	97517568	59	4949
2026-01-16 23:19:47.80	22.11	12.89	-44.0	-46.7	17.4	0.00e+00	0	42	0	104857600	59	4973
2026-01-16 23:19:51.83	22.27	13.28	-43.8	-46.4	17.8	0.00e+00	0	42	0	113246208	59	4794
2026-01-16 23:19:55.81	22.44	13.66	-43.8	-46.3	18.0	0.00e+00	0	42	0	120586240	59	4726
2026-01-16 23:19:59.79	22.60	14.06	-43.8	-46.3	17.9	0.00e+00	0	42	0	127926272	59	4732
2026-01-16 23:20:03.77	22.78	14.46	-43.7	-46.3	18.0	0.00e+00	0	42	0	135266304	59	4736
2026-01-16 23:20:07.74	22.95	14.87	-43.7	-46.3	17.9	0.00e+00	0	42	0	142606336	59	4746
2026-01-16 23:20:11.72	23.13	15.28	-43.9	-46.6	17.7	0.00e+00	0	42	0	149946368	59	4881
2026-01-16 23:20:15.74	23.32	15.71	-43.6	-46.3	18.0	0.00e+00	0	42	0	157286400	59	4706
2026-01-16 23:20:19.68	23.51	16.13	-43.7	-46.3	18.0	0.00e+00	0	42	0	164626432	59	4738
2026-01-16 23:20:23.78	23.71	16.58	-43.7	-46.4	17.9	0.00e+00	0	42	0	173015040	59	4765
2026-01-16 23:20:27.76	23.91	17.02	-43.9	-46.6	17.7	0.00e+00	0	42	0	180355072	59	4904
2026-01-16 23:20:31.74	24.12	17.47	-44.0	-46.6	17.7	0.00e+00	0	42	0	187695104	59	4882
2026-01-16 23:20:35.71	24.33	17.93	-43.9	-46.5	17.9	0.00e+00	0	42	0	195035136	59	4843
2026-01-16 23:20:39.81	24.55	18.42	-43.8	-46.4	17.9	0.00e+00	0	42	0	202375168	59	4814
2026-01-16 23:20:43.79	24.78	18.89	-43.7	-46.4	18.0	0.00e+00	0	42	0	209715200	59	4764
2026-01-16 23:20:47.77	25.01	19.38	-43.8	-46.6	17.8	0.00e+00	0	42	0	218103808	59	4881
2026-01-16 23:20:51.75	25.25	19.87	-43.9	-46.7	17.7	0.00e+00	0	42	0	225443840	59	4937
2026-01-16 23:20:55.80	25.50	20.39	-43.8	-46.5	17.9	0.00e+00	0	42	0	232783872	59	4851
2026-01-16 23:20:59.80	25.76	20.91	-43.7	-46.4	18.0	0.00e+00	0	43	0	240123904	59	4771
2026-01-16 23:21:03.98	26.03	21.46	-43.4	-45.9	18.4	0.00e+00	0	42	0	248512512	58	4804
2026-01-16 23:21:07.97	26.30	22.00	-43.1	-45.6	18.8	0.00e+00	0	42	0	255852544	58	4609
2026-01-16 23:21:12.07	26.59	22.56	-43.0	-45.4	19.0	0.00e+00	0	42	0	263192576	58	4502
2026-01-16 23:21:16.27	26.90	23.15	-42.7	-45.0	19.3	0.00e+00	0	42	0	271581184	57	4578
2026-01-16 23:21:20.29	27.20	23.73	-42.6	-44.9	19.4	0.00e+00	0	43	0	278921216	57	4503
2026-01-16 23:21:24.39	27.52	24.33	-42.4	-44.6	19.7	0.00e+00	0	43	0	286261248	56	4614
2026-01-16 23:21:28.36	27.84	24.93	-42.5	-44.7	19.4	0.00e+00	0	43	0	293601280	56	4657
2026-01-16 23:21:32.35	28.18	25.54	-42.4	-44.5	19.8	0.00e+00	0	43	0	300941312	56	4589
2026-01-16 23:21:36.42	28.53	26.18	-42.4	-44.6	19.8	0.00e+00	0	43	0	309329920	56	4614
2026-01-16 23:21:40.40	28.90	26.82	-42.6	-44.8	19.5	0.00e+00	0	43	0	316669952	56	4758
2026-01-16 23:21:44.38	29.27	27.47	-42.8	-45.1	19.3	0.00e+00	0	42	0	324009984	56	4916
2026-01-16 23:21:48.35	29.66	28.13	-43.2	-45.6	18.8	0.00e+00	0	43	0	331350016	57	4925
2026-01-16 23:21:52.33	30.07	28.81	-43.5	-45.9	18.5	0.00e+00	0	42	0	338690048	57	5098
2026-01-16 23:21:56.31	30.49	29.51	-44.0	-46.5	18.0	0.00e+00	0	43	0	346030080	58	5152
2026-01-16 23:22:00.40	30.95	30.24	-44.6	-47.3	17.2	0.00e+00	0	43	0	353370112	59	5335
2026-01-16 23:22:04.38	31.41	30.97	-45.1	-48.0	16.6	0.00e+00	0	43	0	361758720	60	5428
2026-01-16 23:22:08.36	31.89	31.72	-45.6	-48.7	15.9	0.00e+00	0	43	0	369098752	61	5541
2026-01-16 23:22:12.34	32.40	32.48	-46.1	-49.4	15.2	0.00e+00	0	42	0	376438784	62	5703
2026-01-16 23:22:16.43	32.94	33.29	-46.0	-49.3	15.4	0.00e+00	0	42	0	383778816	63	5286
2026-01-16 23:22:20.41	33.49	34.09	-45.6	-48.7	15.9	0.00e+00	0	43	0	391118848	63	4962
2026-01-16 23:22:24.39	34.08	34.91	-45.6	-48.8	15.9	0.00e+00	0	43	0	398458880	63	4984
2026-01-16 23:22:28.37	34.69	35.74	-45.9	-49.2	15.5	0.00e+00	0	43	0	405798912	63	5250
2026-01-16 23:22:32.35	35.33	36.60	-45.7	-48.9	15.8	0.00e+00	0	42	0	414187520	63	5049
2026-01-16 23:22:36.33	36.01	37.47	-45.8	-49.0	15.7	0.00e+00	0	43	0	421527552	63	5102
2026-01-16 23:22:40.31	36.73	38.37	-45.6	-48.7	16.0	0.00e+00	0	43	0	428867584	63	4949
2026-01-16 23:22:44.29	37.48	39.28	-45.4	-48.4	16.3	0.00e+00	0	43	0	436207616	62	5077
2026-01-16 23:22:48.27	38.28	40.21	-45.3	-48.2	16.5	0.00e+00	0	42	0	443547648	62	4927
2026-01-16 23:22:52.25	39.12	41.16	-44.6	-47.3	17.4	0.00e+00	0	42	0	450887680	61	4711
2026-01-16 23:22:56.32	40.04	42.15	-44.5	-47.1	17.6	0.00e+00	0	43	0	458227712	60	4895
2026-01-16 23:23:00.37	41.01	43.16	-44.9	-47.7	17.0	0.00e+00	0	42	0	466616320	60	5236
2026-01-16 23:23:04.35	42.02	44.16	-44.6	-47.3	17.3	0.00e+00	0	42	0	473956352	60	5031
2026-01-16 23:23:08.33	43.10	45.18	-45.4	-48.4	16.3	0.00e+00	0	43	0	481296384	61	5364
2026-01-16 23:23:12.31	44.25	46.22	-45.5	-48.6	16.2	0.00e+00	0	43	0	488636416	62	5169
2026-01-16 23:23:16.34	45.49	47.28	-45.5	-48.5	16.3	0.00e+00	0	43	0	495976448	62	5103
2026-01-16 23:23:20.37	46.82	48.36	-45.6	-48.6	16.1	0.00e+00	0	43	0	503316480	62	5200
2026-01-16 23:23:24.38	48.24	49.44	-44.7	-47.3	17.4	0.00e+00	0	43	0	511705088	61	4751
2026-01-16 23:23:28.48	49.80	50.55	-44.0	-46.5	18.2	0.00e+00	0	43	0	519045120	60	4560
2026-01-16 23:23:32.76	51.55	51.71	-42.9	-45.1	19.4	0.00e+00	0	43	0	527433728	57	4614
2026-01-16 23:23:36.76	53.31	52.80	-42.7	-44.9	19.6	0.00e+00	0	42	0	534773760	57	4528
2026-01-16 23:23:40.76	55.21	53.88	-41.9	-43.9	20.3	0.00e+00	0	43	0	542113792	55	4536
2026-01-16 23:23:44.89	57.32	54.98	-42.9	-45.2	19.4	0.00e+00	0	43	0	549453824	56	4940
2026-01-16 23:23:49.13	59.67	56.10	-44.1	-46.5	18.1	0.00e+00	0	43	0	557842432	58	5150
2026-01-16 23:23:53.11	62.04	57.12	-44.2	-46.7	18.0	0.00e+00	0	43	0	565182464	59	4950
2026-01-16 23:23:57.08	64.59	58.11	-44.3	-46.8	17.9	0.00e+00	0	43	0	572522496	60	4736
2026-01-16 23:24:01.11	67.37	59.07	-43.5	-45.8	18.8	0.00e+00	0	42	0	579862528	58	4724
2026-01-16 23:24:05.21	70.41	59.99	-42.7	-44.9	19.6	0.00e+00	0	43	0	588251136	57	4533
2026-01-16 23:24:09.25	73.62	60.84	-42.8	-45.0	19.6	0.00e+00	0	43	0	595591168	57	4555
2026-01-16 23:24:13.23	76.99	61.61	-43.0	-45.2	19.3	0.00e+00	0	43	0	602931200	57	4696
2026-01-16 23:24:17.21	80.56	62.29	-42.8	-45.0	19.5	0.00e+00	0	43	0	610271232	56	4869
2026-01-16 23:24:21.19	84.33	62.88	-42.2	-44.3	20.1	0.00e+00	0	43	0	617611264	56	4477
2026-01-16 23:24:25.37	88.47	63.39	-42.4	-44.6	19.9	0.00e+00	0	42	0	625999872	56	4607
2026-01-16 23:24:29.69	92.91	63.79	-43.5	-45.9	18.7	0.00e+00	0	43	0	633339904	57	5062
2026-01-16 23:24:34.24	97.73	64.05	-43.4	-45.8	18.8	0.00e+00	0	43	0	642777088	58	4732
2026-01-16 23:24:38.87	102.71	64.15	-42.3	-44.4	20.2	0.00e+00	0	43	0	651165696	56	4521
2026-01-16 23:24:43.53	107.73	64.08	-41.6	-43.6	20.7	0.00e+00	0	43	0	659554304	55	4369
2026-01-16 23:24:47.90	112.37	63.85	-41.5	-43.5	20.8	0.00e+00	0	43	0	667942912	55	4335
2026-01-16 23:24:51.95	116.58	63.51	-42.5	-44.7	19.9	0.00e+00	0	42	0	675282944	56	4683
2026-01-16 23:24:55.98	120.62	63.05	-42.1	-44.2	20.3	0.00e+00	0	43	0	682622976	56	4417
2026-01-16 23:25:00.14	124.61	62.46	-41.3	-43.3	21.0	0.00e+00	0	43	0	691011584	54	4482
2026-01-16 23:25:04.44	128.52	61.74	-41.8	-43.9	20.5	0.00e+00	0	43	0	699400192	54	4772
2026-01-16 23:25:08.42	131.94	60.99	-42.1	-44.2	20.1	0.00e+00	0	43	0	706740224	54	4963
2026-01-16 23:25:12.40	135.14	60.17	-42.5	-44.7	19.7	0.00e+00	0	42	0	714080256	55	4927
2026-01-16 23:25:16.42	138.17	59.27	-43.8	-46.3	18.4	0.00e+00	0	43	0	721420288	58	4995
2026-01-16 23:25:20.43	140.99	58.32	-44.0	-46.5	18.2	0.00e+00	0	43	0	728760320	58	5101
2026-01-16 23:25:24.41	143.59	57.33	-42.7	-44.9	19.7	0.00e+00	0	43	0	736100352	57	4500
2026-01-16 23:25:28.43	146.03	56.31	-41.1	-43.1	21.2	0.00e+00	0	42	0	743440384	53	4607
2026-01-16 23:25:32.38	148.26	55.27	-40.7	-42.6	21.6	0.00e+00	0	43	0	751828992	52	4631
2026-01-16 23:25:36.39	150.36	54.20	-40.9	-42.9	21.4	0.00e+00	0	43	0	759169024	52	4766
2026-01-16 23:25:40.50	152.36	53.08	-41.3	-43.3	20.6	0.00e+00	0	43	0	766509056	53	4706
2026-01-16 23:25:44.60	154.21	51.97	-43.3	-45.6	19.0	0.00e+00	0	43	0	773849088	57	4893
2026-01-16 23:25:48.65	155.90	50.86	-44.5	-47.1	17.6	0.00e+00	0	42	0	782237696	59	5176
2026-01-16 23:25:52.63	157.45	49.78	-46.1	-49.4	15.3	0.00e+00	0	43	0	789577728	63	5385
2026-01-16 23:25:56.73	158.94	48.67	-47.2	-51.1	13.6	5.30e-06	0	43	0	796917760	64	6167
2026-01-16 23:26:00.91	160.35	47.55	-47.0	-50.8	13.9	7.00e-07	0	43	0	805306368	64	5938
2026-01-16 23:26:05.19	161.69	46.41	-45.9	-49.0	15.8	0.00e+00	0	43	0	812646400	62	5449
2026-01-16 23:26:09.25	162.88	45.34	-44.1	-46.6	18.0	0.00e+00	0	43	0	819986432	60	4650
2026-01-16 23:26:13.26	163.99	44.31	-42.4	-44.6	19.9	0.00e+00	0	43	0	828375040	56	4603
2026-01-16 23:26:17.24	165.01	43.29	-44.0	-46.5	18.1	0.00e+00	0	43	0	835715072	60	4588
2026-01-16 23:26:21.32	166.00	42.27	-41.4	-43.3	20.9	0.00e+00	0	43	0	843055104	54	4485
2026-01-16 23:26:25.25	166.90	41.31	-44.3	-46.9	17.7	0.00e+00	0	43	0	850395136	59	5069
2026-01-16 23:26:29.23	167.75	40.35	-42.7	-44.8	19.6	0.00e+00	0	43	0	857735168	57	4489
2026-01-16 23:26:33.14	168.55	39.42	-44.8	-47.7	17.1	0.00e+00	0	43	0	865075200	60	5229
2026-01-16 23:26:37.17	169.32	38.49	-44.1	-46.6	18.0	0.00e+00	0	43	0	872415232	59	4885
2026-01-16 23:26:41.18	170.05	37.58	-42.7	-44.9	19.6	0.00e+00	0	43	0	880803840	56	4797
2026-01-16 23:26:45.67	170.82	36.59	-44.5	-47.2	17.5	0.00e+00	0	43	0	889192448	60	4943
2026-01-16 23:26:50.21	171.55	35.61	-42.7	-44.9	19.6	0.00e+00	0	43	0	897581056	57	4526
2026-01-16 23:26:54.76	172.25	34.65	-43.1	-45.3	19.1	0.00e+00	0	43	0	905969664	57	4755
2026-01-16 23:26:59.83	172.98	33.61	-44.6	-47.3	17.4	0.00e+00	0	43	0	915406848	59	5284
2026-01-16 23:27:03.80	173.52	32.82	-44.7	-47.4	17.3	0.00e+00	0	43	0	922746880	60	5063
2026-01-16 23:27:07.79	174.04	32.04	-44.4	-47.0	17.7	0.00e+00	0	42	0	930086912	60	4831
2026-01-16 23:27:11.77	174.53	31.28	-44.3	-46.8	17.8	0.00e+00	0	43	0	937426944	60	4744
2026-01-16 23:27:15.75	175.00	30.53	-44.8	-47.6	17.1	0.00e+00	0	43	0	944766976	60	5196
2026-01-16 23:27:19.73	175.46	29.81	-44.8	-47.6	17.0	0.00e+00	0	43	0	952107008	60	5210
2026-01-16 23:27:23.71	175.89	29.10	-43.9	-46.3	18.2	0.00e+00	0	43	0	960495616	59	4744
2026-01-16 23:27:27.80	176.31	28.39	-43.5	-45.8	18.7	0.00e+00	0	43	0	967835648	58	4721
2026-01-16 23:27:31.95	176.73	27.68	-43.4	-45.8	18.7	0.00e+00	0	43	0	975175680	58	4712
2026-01-16 23:27:36.27	177.14	26.96	-43.9	-46.4	18.1	0.00e+00	0	43	0	983564288	58	5084
2026-01-16 23:27:40.55	177.54	26.27	-43.9	-46.4	18.1	0.00e+00	0	43	0	991952896	58	5059
2026-01-16 23:27:44.56	177.89	25.63	-43.3	-45.6	18.9	0.00e+00	0	43	0	999292928	58	4621
2026-01-16 23:27:48.61	178.23	25.00	-42.7	-44.9	19.5	0.00e+00	0	43	0	1006632960	57	4522
2026-01-16 23:27:52.74	178.57	24.38	-42.8	-45.1	19.3	0.00e+00	0	43	0	1013972992	57	4624
2026-01-16 23:27:56.73	178.88	23.78	-43.0	-45.3	19.1	0.00e+00	0	43	0	1022361600	57	4758
2026-01-16 23:28:00.71	179.18	23.21	-42.8	-45.1	19.3	0.00e+00	0	43	0	1029701632	57	4628
2026-01-16 23:28:04.74	179.48	22.63	-42.6	-44.9	19.5	0.00e+00	0	43	0	1037041664	57	4525
2026-01-16 23:28:08.86	179.77	22.06	-42.6	-44.8	19.6	0.00e+00	0	43	0	1044381696	57	4491
2026-01-16 23:28:13.05	180.06	21.49	-42.6	-44.8	19.5	0.00e+00	0	43	0	1052770304	57	4492
2026-01-16 23:28:17.06	180.32	20.95	-42.7	-44.9	19.4	0.00e+00	0	43	0	1060110336	57	4532
2026-01-16 23:28:21.03	180.58	20.43	-42.9	-45.2	19.2	0.00e+00	0	43	0	1067450368	57	4669
2026-01-16 23:28:25.01	180.82	19.92	-42.9	-45.2	19.2	0.00e+00	0	43	0	1074790400	57	4681
2026-01-16 23:28:29.05	181.06	19.41	-42.9	-45.2	19.2	0.00e+00	0	43	0	1082130432	57	4677
2026-01-16 23:28:33.03	181.30	18.92	-42.8	-45.1	19.2	0.00e+00	0	43	0	1090519040	57	4640
2026-01-16 23:28:37.00	181.52	18.44	-42.9	-45.2	19.2	0.00e+00	0	43	0	1097859072	57	4652
2026-01-16 23:28:40.98	181.74	17.96	-43.0	-45.3	19.1	0.00e+00	0	43	0	1105199104	57	4728
2026-01-16 23:28:44.96	181.95	17.50	-43.2	-45.6	18.8	0.00e+00	0	43	0	1112539136	57	4917
2026-01-16 23:28:49.10	182.16	17.02	-43.7	-46.2	18.2	0.00e+00	0	42	0	1119879168	57	5232
2026-01-16 23:28:53.08	182.36	16.58	-43.7	-46.3	18.1	0.00e+00	0	43	0	1127219200	58	5005
2026-01-16 23:28:57.09	182.56	16.13	-43.9	-46.6	17.9	0.00e+00	0	43	0	1135607808	58	5162
2026-01-16 23:29:01.07	182.75	15.70	-43.9	-46.5	17.9	0.00e+00	0	43	0	1142947840	58	5152
2026-01-16 23:29:05.13	182.94	15.26	-43.8	-46.5	17.8	0.00e+00	0	43	0	1150287872	58	5135
2026-01-16 23:29:09.22	183.12	14.83	-43.8	-46.5	17.9	0.00e+00	0	43	0	1157627904	58	5122
2026-01-16 23:29:13.21	183.30	14.42	-43.9	-46.5	17.8	0.00e+00	0	43	0	1164967936	58	5137
2026-01-16 23:29:17.28	183.47	14.01	-44.0	-46.7	17.6	0.00e+00	0	43	0	1173356544	58	5254
2026-01-16 23:29:21.21	183.63	13.62	-43.9	-46.6	17.7	0.00e+00	0	43	0	1180696576	58	5200
2026-01-16 23:29:25.19	183.80	13.22	-44.0	-46.8	17.5	0.00e+00	0	43	0	1188036608	58	5281
2026-01-16 23:29:29.17	183.95	12.84	-44.1	-46.9	17.4	0.00e+00	0	43	0	1195376640	58	5390
2026-01-16 23:29:33.16	184.11	12.46	-44.2	-46.9	17.4	0.00e+00	0	43	0	1202716672	59	5094
2026-01-16 23:29:37.15	184.26	12.08	-44.1	-46.8	17.4	0.00e+00	0	43	0	1210056704	59	5038
2026-01-16 23:29:41.07	184.41	11.72	-44.1	-46.8	17.4	0.00e+00	0	43	0	1217396736	59	5022
2026-01-16 23:29:45.30	184.56	11.33	-44.0	-46.7	17.6	0.00e+00	0	43	0	1225785344	59	4942
2026-01-16 23:29:49.29	184.70	10.97	-43.8	-46.5	17.7	0.00e+00	0	43	0	1233125376	59	4847
2026-01-16 23:29:53.27	184.84	10.62	-43.8	-46.5	17.7	0.00e+00	0	43	0	1240465408	59	4851
2026-01-16 23:29:57.25	184.97	10.27	-43.8	-46.5	17.7	0.00e+00	0	43	0	1247805440	59	4820
2026-01-16 23:30:01.23	185.10	9.93	-43.8	-46.5	17.6	0.00e+00	0	43	0	1255145472	59	4847
2026-01-16 23:30:05.58	185.24	9.56	-43.8	-46.6	17.6	0.00e+00	0	43	0	1263534080	59	4871
2026-01-16 23:30:09.58	185.37	9.22	-44.0	-46.8	17.3	0.00e+00	0	43	0	1270874112	59	5003
2026-01-16 23:30:13.58	185.49	8.89	-49.9	-65.1	3.8	1.02e+00	0	43	104	1277165568	70	21947
2026-01-16 23:30:17.61	185.62	8.56	-50.7	-66.0	3.8	1.49e+00	0	43	104	1277165568	72	21609
2026-01-16 23:30:21.71	185.74	8.23	-50.7	-66.1	3.8	1.49e+00	0	43	104	1277165568	72	21806
2026-01-16 23:30:25.81	185.86	7.91	-50.9	-66.1	3.8	1.49e+00	0	43	104	1277165568	72	21941
2026-01-16 23:30:29.79	185.97	7.59	-50.8	-66.1	3.8	1.49e+00	0	43	104	1277165568	72	21852
2026-01-16 23:30:33.78	186.08	7.28	-51.0	-66.1	3.8	1.49e+00	0	43	104	1277165568	72	21996
2026-01-16 23:30:37.77	186.19	6.98	-50.8	-66.1	3.8	1.49e+00	0	43	104	1277165568	72	21972
2026-01-16 23:30:41.74	186.30	6.67	-50.5	-66.1	3.8	1.49e+00	0	43	104	1277165568	72	21877
2026-01-16 23:30:45.73	186.41	6.37	-50.5	-66.1	3.8	1.49e+00	0	43	104	1277165568	72	21815
2026-01-16 23:30:49.70	186.51	6.08	-50.5	-66.1	3.8	1.49e+00	0	43	104	1277165568	72	21831
2026-01-16 23:30:53.68	186.61	5.79	-50.5	-66.1	3.8	1.49e+00	0	43	104	1277165568	72	21812
2026-01-16 23:30:57.68	186.71	5.50	-50.5	-66.1	3.8	1.49e+00	0	43	104	1277165568	72	21804
2026-01-16 23:31:01.67	186.81	5.21	-50.5	-66.1	3.8	1.49e+00	0	43	104	1277165568	72	21849
2026-01-16 23:31:05.65	186.91	4.93	-50.5	-66.0	3.8	1.49e+00	0	43	104	1277165568	72	21734

#Closed at: 2026-01-16 23:31:06
#Recorded file [1277 MB]: D:/Data/31040_260117_021811.dat