passes_logs/2026/01/16/T1/T1__20260116_081236_KHAYYAM_rec.log

#Pass ID: 20260116_081236_KHAYYAM
#Satellite: KHAYYAM
#Configuration: KHAYYAM_480M
#almurnet v.1.7.20251203
#Start time: 2026-01-16 08:12:36

#Version: 2.0.20230620
#Station: T1
#Location: 37.570604 lon 55.790049 lat
#TLE: 1 53370U 22096A   26016.00690779  .00002446  00000+0  10212-3 0  9994
#TLE: 2 53370  97.3563 282.9987 0001571 107.4069 252.7341 15.24584174191397

#Time	Az	El	Level	Level2	SNR	BER	BlckErr	Temp	State	Recorded	gain1	gain2
2026-01-16 08:12:36.50	177.37	4.96	-52.9	-57.6	3.5	0.00e+00	0	45	0	0	76	26071
2026-01-16 08:12:39.49	177.49	5.20	-51.5	-56.4	3.7	0.00e+00	0	46	104	0	73	27001
2026-01-16 08:12:42.47	177.61	5.44	-51.4	-56.3	3.7	0.00e+00	0	46	104	0	73	26739
2026-01-16 08:12:45.46	177.73	5.69	-51.5	-56.3	3.7	0.00e+00	0	46	104	0	73	26837
2026-01-16 08:12:48.45	177.85	5.94	-51.5	-56.4	3.7	0.00e+00	0	46	104	0	73	27038
2026-01-16 08:12:51.44	177.98	6.19	-51.5	-56.4	3.7	0.00e+00	0	47	104	0	73	27013
2026-01-16 08:12:54.43	178.11	6.45	-51.4	-56.3	3.7	0.00e+00	0	47	104	0	73	26725
2026-01-16 08:12:57.42	178.24	6.71	-51.5	-56.4	3.7	0.00e+00	0	47	104	0	73	27020
2026-01-16 08:13:00.40	178.37	6.97	-51.6	-56.5	3.7	0.00e+00	0	47	104	0	73	27205
2026-01-16 08:13:03.39	178.51	7.24	-51.6	-56.5	3.7	0.00e+00	0	47	104	0	73	27271
2026-01-16 08:13:06.38	178.65	7.51	-51.6	-56.5	3.7	0.00e+00	0	47	104	0	73	27279
2026-01-16 08:13:09.37	178.79	7.79	-51.6	-56.5	3.7	0.00e+00	0	48	104	0	73	27427
2026-01-16 08:13:12.36	178.94	8.06	-51.6	-56.5	3.7	0.00e+00	0	48	104	0	73	27293
2026-01-16 08:13:15.34	179.09	8.35	-51.6	-56.5	3.7	0.00e+00	0	48	104	0	73	27292
2026-01-16 08:13:18.32	179.24	8.63	-51.7	-56.5	3.7	0.00e+00	0	48	104	0	74	25963
2026-01-16 08:13:21.32	179.40	8.93	-51.6	-56.5	3.7	0.00e+00	0	48	104	0	74	25748
2026-01-16 08:13:24.30	179.56	9.22	-51.5	-56.4	3.7	0.00e+00	0	48	104	0	74	25616
2026-01-16 08:13:27.29	179.72	9.52	-50.9	-55.9	3.7	0.00e+00	0	48	104	0	73	25589
2026-01-16 08:13:30.28	179.89	9.83	-50.8	-55.9	3.7	0.00e+00	0	49	104	0	73	25513
2026-01-16 08:13:33.27	180.06	10.14	-50.8	-55.8	3.7	0.00e+00	0	49	104	0	73	25145
2026-01-16 08:13:36.26	180.24	10.45	-50.9	-55.9	3.7	0.00e+00	0	49	104	0	73	25506
2026-01-16 08:13:39.25	180.42	10.78	-51.3	-56.2	3.7	0.00e+00	0	49	104	0	73	26298
2026-01-16 08:13:42.24	180.61	11.10	-51.7	-56.5	3.7	0.00e+00	0	49	104	0	74	25732
2026-01-16 08:13:45.23	180.80	11.44	-52.5	-57.3	3.7	0.00e+00	0	49	104	0	75	26753
2026-01-16 08:13:48.22	180.99	11.77	-52.3	-57.1	3.7	0.00e+00	0	49	104	0	75	26208
2026-01-16 08:13:51.20	181.19	12.12	-52.7	-57.3	3.7	0.00e+00	0	49	104	0	76	25258
2026-01-16 08:13:54.19	181.40	12.47	-52.1	-57.1	3.7	0.00e+00	0	49	104	0	76	24601
2026-01-16 08:13:57.17	181.61	12.82	-52.1	-57.0	3.7	0.00e+00	0	49	104	0	75	25844
2026-01-16 08:14:00.16	181.83	13.19	-51.8	-56.8	3.7	0.00e+00	0	49	104	0	74	26715
2026-01-16 08:14:03.15	182.06	13.56	-52.2	-57.2	3.7	0.00e+00	0	49	104	0	75	26336
2026-01-16 08:14:06.13	182.29	13.94	-52.0	-57.0	3.7	0.00e+00	0	50	104	0	75	25798
2026-01-16 08:14:09.12	182.53	14.32	-52.1	-57.1	3.7	0.00e+00	0	49	104	0	75	26044
2026-01-16 08:14:12.10	182.77	14.72	-52.3	-57.3	3.7	0.00e+00	0	50	104	0	75	26595
2026-01-16 08:14:15.09	183.03	15.12	-52.3	-57.0	3.7	0.00e+00	0	50	104	0	75	25798
2026-01-16 08:14:18.08	183.29	15.53	-52.0	-56.7	3.7	0.00e+00	0	49	104	0	75	24876
2026-01-16 08:14:21.07	183.56	15.95	-52.0	-56.8	3.7	0.00e+00	0	50	104	0	75	25322
2026-01-16 08:14:24.06	183.84	16.38	-52.0	-56.7	3.7	0.00e+00	0	49	104	0	75	24984
2026-01-16 08:14:27.05	184.13	16.82	-52.5	-56.8	3.7	0.00e+00	0	50	104	0	75	25309
2026-01-16 08:14:30.04	184.43	17.26	-52.6	-57.0	3.7	0.00e+00	0	49	104	0	75	25908
2026-01-16 08:14:33.03	184.74	17.72	-52.5	-57.1	3.7	0.00e+00	0	50	104	0	75	26216
2026-01-16 08:14:36.02	185.06	18.19	-52.5	-56.9	3.7	0.00e+00	0	50	104	0	76	24096
2026-01-16 08:14:39.01	185.39	18.67	-51.7	-56.4	3.7	0.00e+00	0	50	104	0	75	24098
2026-01-16 08:14:42.01	185.73	19.16	-52.0	-56.8	3.7	0.00e+00	0	50	104	0	75	25114
2026-01-16 08:14:45.00	186.09	19.66	-52.1	-56.8	3.7	0.00e+00	0	50	104	0	75	25250
2026-01-16 08:14:47.98	186.45	20.18	-52.2	-57.0	3.7	0.00e+00	0	50	104	0	75	25790
2026-01-16 08:14:50.96	186.84	20.70	-51.9	-56.5	3.7	0.00e+00	0	50	104	0	75	24491
2026-01-16 08:14:53.95	187.23	21.24	-52.4	-56.9	3.7	0.00e+00	0	50	104	0	75	25432
2026-01-16 08:14:56.93	187.65	21.80	-52.6	-57.3	3.7	0.00e+00	0	50	104	0	75	26677
2026-01-16 08:14:59.92	188.08	22.36	-52.2	-56.4	3.7	0.00e+00	0	50	104	0	75	23984
2026-01-16 08:15:02.91	188.53	22.95	-52.8	-57.2	3.7	0.00e+00	0	50	104	0	76	25079
2026-01-16 08:15:05.90	189.00	23.55	-52.9	-57.6	3.7	0.00e+00	0	50	104	0	76	25986
2026-01-16 08:15:08.89	189.49	24.16	-52.9	-57.6	3.7	0.00e+00	0	50	104	0	76	26266
2026-01-16 08:15:11.88	190.00	24.79	-53.1	-57.4	3.7	0.00e+00	0	50	104	0	77	24221
2026-01-16 08:15:14.87	190.53	25.44	-53.1	-57.6	3.7	0.00e+00	0	50	104	0	77	24622
2026-01-16 08:15:17.86	191.09	26.10	-53.0	-57.0	3.7	0.00e+00	0	50	104	0	77	23027
2026-01-16 08:15:20.85	191.67	26.79	-52.4	-56.2	3.7	0.00e+00	0	50	104	0	76	22244
2026-01-16 08:15:23.84	192.28	27.49	-53.2	-57.6	3.7	0.00e+00	0	50	104	0	77	24791
2026-01-16 08:15:26.82	192.92	28.20	-53.3	-57.7	3.7	0.00e+00	0	50	104	0	77	24876
2026-01-16 08:15:29.81	193.60	28.94	-53.5	-57.8	3.7	0.00e+00	0	50	104	0	77	25269
2026-01-16 08:15:32.79	194.30	29.70	-53.4	-57.7	3.7	0.00e+00	0	50	104	0	77	25040
2026-01-16 08:15:35.78	195.05	30.48	-53.0	-56.6	3.7	0.00e+00	0	50	104	0	77	21873
2026-01-16 08:15:38.76	195.83	31.28	-50.4	-52.8	3.9	0.00e+00	0	50	104	0	72	18933
2026-01-16 08:15:41.75	196.66	32.10	-53.2	-57.4	3.7	0.00e+00	0	50	104	0	77	24114
2026-01-16 08:15:44.74	197.53	32.94	-52.1	-55.1	3.7	0.00e+00	0	50	104	0	74	21929
2026-01-16 08:15:47.73	198.46	33.80	-50.4	-52.6	3.9	0.00e+00	0	50	104	0	72	18585
2026-01-16 08:15:50.72	199.44	34.68	-53.3	-57.3	3.7	0.00e+00	0	50	104	0	77	23811
2026-01-16 08:15:53.70	200.47	35.59	-52.8	-56.4	3.7	0.00e+00	0	50	104	0	76	22638
2026-01-16 08:15:56.69	201.57	36.51	-52.3	-55.7	3.7	0.00e+00	0	50	104	0	76	20882
2026-01-16 08:15:59.68	202.73	37.45	-53.6	-57.9	3.7	0.00e+00	0	50	104	0	77	25412
2026-01-16 08:16:02.67	203.97	38.41	-53.6	-57.7	3.7	0.00e+00	0	50	104	0	77	24997
2026-01-16 08:16:05.65	205.29	39.39	-53.2	-57.2	3.7	0.00e+00	0	50	104	0	77	23518
2026-01-16 08:16:08.63	206.69	40.38	-53.1	-57.5	3.7	0.00e+00	0	50	104	0	77	24436
2026-01-16 08:16:11.63	208.19	41.38	-53.4	-57.5	3.7	0.00e+00	0	50	104	0	77	24310
2026-01-16 08:16:14.61	209.78	42.40	-52.2	-55.5	3.7	0.00e+00	0	50	104	0	76	20548
2026-01-16 08:16:17.60	211.49	43.42	-51.2	-53.9	3.8	0.00e+00	0	50	104	0	74	19150
2026-01-16 08:16:20.59	213.31	44.44	-53.7	-58.1	3.7	0.00e+00	0	50	104	0	78	24563
2026-01-16 08:16:23.58	215.25	45.46	-53.6	-57.7	3.7	0.00e+00	0	50	104	0	78	23583
2026-01-16 08:16:26.57	217.33	46.47	-53.6	-57.8	3.7	0.00e+00	0	50	104	0	78	23763
2026-01-16 08:16:29.57	219.55	47.47	-54.0	-58.4	3.7	0.00e+00	0	50	104	0	78	25595
2026-01-16 08:16:32.55	221.91	48.44	-53.8	-58.1	3.7	0.00e+00	0	50	104	0	78	24738
2026-01-16 08:16:35.55	224.44	49.39	-53.9	-58.4	3.7	0.00e+00	0	50	104	0	78	25389
2026-01-16 08:16:38.53	227.11	50.29	-53.2	-58.0	3.7	0.00e+00	0	50	104	0	78	24411
2026-01-16 08:16:41.52	229.96	51.15	-53.8	-57.9	3.7	0.00e+00	0	50	104	0	78	24197
2026-01-16 08:16:44.51	232.97	51.94	-53.4	-57.2	3.7	0.00e+00	0	50	104	0	78	22296
2026-01-16 08:16:47.50	236.14	52.67	-53.4	-57.4	3.7	0.00e+00	0	50	104	0	77	24119
2026-01-16 08:16:50.49	239.47	53.31	-53.6	-58.1	3.7	0.00e+00	0	50	104	0	78	24794
2026-01-16 08:16:53.48	242.93	53.86	-53.8	-58.3	3.7	0.00e+00	0	50	104	0	78	25103
2026-01-16 08:16:56.47	246.52	54.31	-53.7	-58.1	3.7	0.00e+00	0	50	104	0	78	24719
2026-01-16 08:16:59.46	250.21	54.66	-53.4	-57.4	3.7	0.00e+00	0	50	104	0	78	22721
2026-01-16 08:17:02.44	253.97	54.88	-53.4	-57.5	3.7	0.00e+00	0	50	104	0	78	23079
2026-01-16 08:17:05.44	257.79	54.99	-53.7	-58.2	3.7	0.00e+00	0	50	104	0	78	24945
2026-01-16 08:17:08.43	261.61	54.97	-53.0	-57.9	3.7	0.00e+00	0	50	104	0	78	24024
2026-01-16 08:17:11.40	265.38	54.83	-53.6	-58.3	3.7	0.00e+00	0	50	104	0	78	25131
2026-01-16 08:17:14.39	269.13	54.57	-53.0	-56.7	3.7	0.00e+00	0	50	104	0	76	23560
2026-01-16 08:17:17.38	272.79	54.20	-51.6	-54.4	3.8	0.00e+00	0	50	104	0	75	19156
2026-01-16 08:17:20.37	276.34	53.72	-53.8	-58.1	3.7	0.00e+00	0	50	104	0	78	24795
2026-01-16 08:17:23.36	279.77	53.14	-52.1	-55.3	3.8	0.00e+00	0	50	104	0	75	21147
2026-01-16 08:17:26.34	283.03	52.47	-21.7	-22.5	4.7	0.00e+00	0	50	104	0	15	15453
2026-01-16 08:17:29.33	286.15	51.73	-41.2	-42.2	4.5	0.00e+00	0	50	104	0	54	15685
2026-01-16 08:17:32.32	289.11	50.92	-23.7	-24.5	4.7	0.00e+00	0	50	104	0	18	16312
2026-01-16 08:17:35.29	291.88	50.06	-22.5	-23.3	4.7	0.00e+00	0	50	104	0	17	15087
2026-01-16 08:17:38.28	294.52	49.15	-42.1	-43.1	4.5	0.00e+00	0	50	104	0	56	15602
2026-01-16 08:17:41.26	296.98	48.20	-23.6	-24.4	4.7	0.00e+00	0	50	104	0	18	16145
2026-01-16 08:17:44.25	299.30	47.22	-21.7	-22.5	22.6	0.00e+00	0	50	0	75497472	15	15330
2026-01-16 08:17:47.24	301.47	46.22	-21.7	-22.5	22.6	0.00e+00	0	50	0	260046848	15	15389
2026-01-16 08:17:50.23	303.51	45.21	-21.8	-22.6	22.6	0.00e+00	0	51	0	436207616	14	16566
2026-01-16 08:17:53.21	305.41	44.20	-22.2	-23.0	22.6	0.00e+00	0	51	0	612368384	16	15461
2026-01-16 08:17:56.20	307.19	43.18	-22.1	-22.9	22.6	0.00e+00	0	51	0	796917760	15	16114
2026-01-16 08:17:59.21	308.88	42.16	-22.7	-23.6	22.4	0.00e+00	0	51	0	973078528	16	16400
2026-01-16 08:18:02.20	310.44	41.15	-22.6	-23.4	22.6	0.00e+00	0	51	0	1157627904	17	15173
2026-01-16 08:18:05.18	311.90	40.16	-22.9	-23.8	22.5	0.00e+00	0	51	0	1333788672	17	15841
2026-01-16 08:18:08.16	313.28	39.18	-23.3	-24.2	22.3	0.00e+00	0	51	0	1509949440	18	15680
2026-01-16 08:18:11.15	314.57	38.21	-23.7	-24.6	22.2	0.00e+00	0	51	0	1694498816	18	16432
2026-01-16 08:18:14.14	315.79	37.26	-23.7	-24.5	22.2	0.00e+00	0	51	0	1870659584	18	16383
2026-01-16 08:18:17.13	316.93	36.33	-24.1	-24.9	22.1	0.00e+00	0	51	0	2046820352	19	16108
2026-01-16 08:18:20.12	318.01	35.42	-24.4	-25.2	22.0	0.00e+00	0	51	0	2231369728	19	16742
2026-01-16 08:18:23.10	319.03	34.52	-24.6	-25.4	21.7	0.00e+00	0	51	0	2407530496	20	16105
2026-01-16 08:18:26.09	319.99	33.65	-24.9	-25.7	21.6	0.00e+00	0	51	0	2583691264	21	15791
2026-01-16 08:18:29.08	320.90	32.80	-25.1	-25.9	21.7	0.00e+00	0	51	0	2768240640	21	16186
2026-01-16 08:18:32.07	321.76	31.97	-25.4	-26.2	21.6	0.00e+00	0	51	0	2944401408	22	15809
2026-01-16 08:18:35.06	322.57	31.16	-25.7	-26.5	21.2	0.00e+00	0	51	0	3128950784	23	15383
2026-01-16 08:18:38.04	323.34	30.37	-26.2	-27.0	20.8	0.00e+00	0	51	0	3305111552	23	16340
2026-01-16 08:18:41.02	324.08	29.60	-26.3	-27.1	20.9	0.00e+00	0	51	0	3481272320	23	16494
2026-01-16 08:18:44.01	324.77	28.85	-26.4	-27.2	20.7	0.00e+00	0	51	0	3665821696	24	15815
2026-01-16 08:18:47.00	325.44	28.12	-26.5	-27.4	20.8	0.00e+00	0	51	0	3841982464	24	16017
2026-01-16 08:18:49.99	326.07	27.41	-27.0	-27.8	20.3	0.00e+00	0	51	0	4018143232	24	16944
2026-01-16 08:18:52.98	326.68	26.72	-27.0	-27.9	20.5	0.00e+00	0	51	0	4202692608	25	16094
2026-01-16 08:18:55.97	327.25	26.04	-27.1	-27.9	20.6	0.00e+00	0	51	0	4378853376	25	16109
2026-01-16 08:18:58.96	327.80	25.39	-27.4	-28.3	20.3	0.00e+00	0	51	0	4563402752	25	16858
2026-01-16 08:19:01.95	328.33	24.75	-27.5	-28.4	20.1	0.00e+00	0	51	0	4739563520	26	16026
2026-01-16 08:19:04.94	328.84	24.12	-27.9	-28.7	20.2	0.00e+00	0	51	0	4924112896	26	16769
2026-01-16 08:19:07.94	329.32	23.52	-28.0	-28.8	20.5	0.00e+00	0	51	0	5100273664	27	15970
2026-01-16 08:19:10.93	329.78	22.92	-28.3	-29.2	20.2	0.00e+00	0	51	0	5276434432	27	16679
2026-01-16 08:19:13.91	330.23	22.35	-28.1	-28.9	20.3	0.00e+00	0	51	0	5460983808	28	15211
2026-01-16 08:19:16.90	330.65	21.79	-28.7	-29.6	19.6	0.00e+00	0	51	0	5637144576	28	16507
2026-01-16 08:19:19.90	331.07	21.24	-28.8	-29.6	19.3	0.00e+00	0	51	0	5821693952	29	15577
2026-01-16 08:19:22.89	331.46	20.70	-29.0	-29.9	19.2	0.00e+00	0	51	0	5997854720	29	16085
2026-01-16 08:19:25.88	331.84	20.18	-29.0	-29.9	19.7	0.00e+00	0	51	0	6174015488	29	16105
2026-01-16 08:19:28.87	332.21	19.67	-29.3	-30.2	19.5	0.00e+00	0	51	0	6358564864	29	16620
2026-01-16 08:19:31.86	332.56	19.17	-29.3	-30.1	19.6	0.00e+00	0	51	0	6534725632	30	15569
2026-01-16 08:19:34.84	332.90	18.69	-29.5	-30.3	19.0	0.00e+00	0	51	0	6710886400	30	16015
2026-01-16 08:19:37.83	333.23	18.22	-29.8	-30.6	18.8	0.00e+00	0	51	0	6895435776	30	16567
2026-01-16 08:19:40.83	333.55	17.75	-29.8	-30.6	19.2	0.00e+00	0	51	0	7071596544	31	15625
2026-01-16 08:19:43.82	333.85	17.30	-30.2	-31.0	18.6	0.00e+00	0	51	0	7247757312	31	16346
2026-01-16 08:19:46.82	334.15	16.85	-30.4	-31.3	18.2	0.00e+00	0	51	0	7432306688	31	16871
2026-01-16 08:19:49.82	334.44	16.42	-30.4	-31.3	18.7	0.00e+00	0	51	0	7608467456	32	15910
2026-01-16 08:19:52.81	334.72	15.99	-30.6	-31.4	18.8	0.00e+00	0	51	0	7793016832	32	16139
2026-01-16 08:19:55.78	334.99	15.58	-30.9	-31.8	18.6	0.00e+00	0	51	0	7969177600	32	16850
2026-01-16 08:19:58.78	335.25	15.17	-30.7	-31.5	18.8	0.00e+00	0	51	0	8145338368	32	16322
2026-01-16 08:20:01.77	335.50	14.77	-30.9	-31.7	18.7	0.00e+00	0	51	0	8329887744	32	16740
2026-01-16 08:20:04.76	335.75	14.38	-31.0	-31.9	18.7	0.00e+00	0	51	0	8506048512	32	17037
2026-01-16 08:20:07.74	335.98	14.00	-31.4	-32.3	18.4	0.00e+00	0	51	0	8690597888	33	16856
2026-01-16 08:20:10.73	336.22	13.63	-31.2	-32.1	18.4	0.00e+00	0	51	0	8866758656	33	16507
2026-01-16 08:20:13.71	336.44	13.26	-31.7	-32.6	17.7	0.00e+00	0	51	0	9042919424	34	16431
2026-01-16 08:20:16.70	336.66	12.90	-31.9	-32.8	17.4	0.00e+00	0	51	0	9227468800	34	16808
2026-01-16 08:20:19.69	336.87	12.55	-32.1	-33.0	17.2	0.00e+00	0	51	0	9403629568	34	17236
2026-01-16 08:20:22.68	337.08	12.20	-32.1	-33.0	17.3	0.00e+00	0	51	0	9579790336	35	16278
2026-01-16 08:20:25.67	337.28	11.86	-32.1	-33.0	17.1	0.00e+00	0	51	0	9764339712	35	16328
2026-01-16 08:20:28.66	337.48	11.52	-32.4	-33.3	16.9	0.00e+00	0	51	0	9940500480	35	16841
2026-01-16 08:20:31.65	337.67	11.19	-32.5	-33.4	17.0	0.00e+00	0	51	0	10125049856	35	17139
2026-01-16 08:20:34.64	337.86	10.87	-34.0	-34.9	17.6	0.00e+00	0	51	0	10301210624	38	17014
2026-01-16 08:20:37.63	338.04	10.55	-33.8	-34.7	17.7	0.00e+00	0	51	0	10477371392	39	15742
2026-01-16 08:20:40.62	338.22	10.23	-34.0	-34.9	17.1	0.00e+00	0	51	0	10661920768	39	16179
2026-01-16 08:20:43.60	338.39	9.93	-34.4	-35.4	16.7	0.00e+00	0	51	0	10838081536	39	16978
2026-01-16 08:20:46.59	338.56	9.62	-34.5	-35.4	17.4	0.00e+00	0	51	0	11022630912	39	17147
2026-01-16 08:20:49.58	338.72	9.32	-52.2	-57.4	3.7	0.00e+00	0	51	104	11072962560	75	26937
2026-01-16 08:20:52.56	338.88	9.03	-51.4	-56.8	3.7	0.00e+00	0	51	104	11072962560	74	26799
2026-01-16 08:20:55.55	339.04	8.74	-51.6	-56.8	3.7	0.00e+00	0	51	104	11072962560	74	26849
2026-01-16 08:20:58.54	339.20	8.46	-44.4	-46.6	3.9	0.00e+00	0	51	104	11072962560	60	18413
2026-01-16 08:21:01.53	339.35	8.18	-53.7	-58.3	3.7	0.00e+00	0	50	104	11072962560	77	26889
2026-01-16 08:21:04.51	339.49	7.90	-53.9	-58.6	3.7	0.00e+00	0	51	104	11072962560	78	26029
2026-01-16 08:21:07.51	339.64	7.63	-53.4	-58.3	3.7	0.00e+00	0	51	104	11072962560	78	25231
2026-01-16 08:21:10.50	339.78	7.36	-54.1	-58.6	3.7	0.00e+00	0	50	104	11072962560	79	24742
2026-01-16 08:21:13.49	339.92	7.09	-53.9	-58.4	3.7	0.00e+00	0	51	104	11072962560	79	24083
2026-01-16 08:21:16.48	340.05	6.83	-53.7	-57.8	3.7	0.00e+00	0	50	104	11072962560	79	22412
2026-01-16 08:21:19.47	340.19	6.57	-52.8	-57.4	3.7	0.00e+00	0	50	104	11072962560	77	24196
2026-01-16 08:21:22.46	340.32	6.32	-52.8	-57.4	3.7	0.00e+00	0	50	104	11072962560	77	24125
2026-01-16 08:21:25.45	340.44	6.06	-52.8	-57.4	3.7	0.00e+00	0	50	104	11072962560	77	24227
2026-01-16 08:21:28.43	340.57	5.82	-52.8	-57.4	3.7	0.00e+00	0	50	104	11072962560	77	24197
2026-01-16 08:21:31.42	340.69	5.57	-52.8	-57.4	3.7	0.00e+00	0	50	104	11072962560	77	24123
2026-01-16 08:21:34.41	340.81	5.33	-52.8	-57.4	3.7	0.00e+00	0	50	104	11072962560	77	24203
2026-01-16 08:21:37.39	340.93	5.09	-52.8	-57.4	3.7	0.00e+00	0	50	104	11072962560	77	24132

#Closed at: 2026-01-16 08:21:38
#Recorded file [11072 MB]: D:/Data/31040_260116_111236.dat