passes_logs/2026/01/16/T1/T1__20260116_120044_NOAA_21_JPSS-2_rec.log

#Pass ID: 20260116_120044_NOAA 21 (JPSS-2)
#Satellite: NOAA 21 (JPSS-2)
#Configuration: NOAA 21
#almurnet v.1.7.20251203
#Start time: 2026-01-16 12:00:44

#Version: 2.0.20230620
#Station: T1
#Location: 37.570604 lon 55.790049 lat
#TLE: 1 54234U 22150A   26015.92901934  .00000025  00000+0  32700-4 0  9991
#TLE: 2 54234  98.7499 316.8175 0000634 284.8145  75.2961 14.19534841164946

#Time	Az	El	Level	Level2	SNR	BER	BlckErr	Temp	State	Recorded	gain1	gain2
2026-01-16 12:00:44.51	231.88	5.02	-50.3	-63.4	3.8	1.49e+00	0	42	0	0	71	17027
2026-01-16 12:00:47.49	232.22	5.16	-50.2	-63.4	3.8	1.49e+00	0	42	104	0	72	15994
2026-01-16 12:00:50.47	232.57	5.30	-50.2	-63.4	3.8	1.49e+00	0	42	104	0	72	15996
2026-01-16 12:00:53.45	232.92	5.45	-50.2	-63.4	3.8	1.49e+00	0	42	104	0	72	15985
2026-01-16 12:00:56.43	233.27	5.59	-50.2	-63.3	3.8	1.49e+00	0	42	104	0	72	15930
2026-01-16 12:00:59.41	233.62	5.73	-50.2	-63.3	3.8	1.49e+00	0	42	104	0	72	15880
2026-01-16 12:01:02.38	233.98	5.87	-50.2	-63.3	3.8	1.49e+00	0	42	104	0	72	15911
2026-01-16 12:01:05.36	234.34	6.01	-50.2	-63.4	3.8	1.49e+00	0	42	104	0	72	15996
2026-01-16 12:01:08.34	234.71	6.15	-50.2	-63.3	3.8	1.49e+00	0	42	104	0	72	15930
2026-01-16 12:01:11.32	235.08	6.29	-50.2	-63.4	3.8	1.49e+00	0	43	104	0	72	15970
2026-01-16 12:01:14.30	235.45	6.43	-50.2	-63.3	3.8	1.49e+00	0	43	104	0	72	15893
2026-01-16 12:01:17.29	235.82	6.57	-50.2	-63.2	3.8	1.49e+00	0	43	104	0	72	15746
2026-01-16 12:01:20.26	236.20	6.71	-50.2	-63.3	3.8	1.49e+00	0	43	104	0	72	15771
2026-01-16 12:01:23.24	236.58	6.85	-50.1	-63.3	3.8	1.49e+00	0	43	104	0	72	15848
2026-01-16 12:01:26.22	236.97	6.99	-50.1	-63.3	3.8	1.49e+00	0	43	104	0	72	15832
2026-01-16 12:01:29.20	237.36	7.12	-50.1	-63.3	3.8	1.49e+00	0	43	104	0	72	15792
2026-01-16 12:01:32.18	237.75	7.26	-50.2	-63.3	3.8	1.49e+00	0	43	104	0	72	15892
2026-01-16 12:01:35.16	238.15	7.40	-50.1	-63.3	3.8	1.49e+00	0	43	104	0	72	15837
2026-01-16 12:01:38.14	238.55	7.54	-50.1	-63.2	3.8	1.49e+00	0	43	104	0	72	15665
2026-01-16 12:01:41.12	238.95	7.67	-50.2	-63.3	3.8	1.49e+00	0	43	104	0	72	15890
2026-01-16 12:01:44.10	239.36	7.81	-50.2	-63.3	3.8	1.49e+00	0	43	104	0	72	15835
2026-01-16 12:01:47.07	239.77	7.94	-50.1	-63.2	3.8	1.49e+00	0	43	104	0	72	15729
2026-01-16 12:01:50.05	240.18	8.08	-50.1	-63.3	3.8	1.49e+00	0	43	104	0	72	15879
2026-01-16 12:01:53.03	240.60	8.21	-50.1	-63.3	3.8	1.49e+00	0	43	104	0	72	15867
2026-01-16 12:01:56.01	241.02	8.35	-50.0	-61.4	3.9	1.49e+00	0	43	104	0	71	13547
2026-01-16 12:01:58.99	241.45	8.48	-50.2	-63.1	3.8	1.49e+00	0	43	104	0	71	16343
2026-01-16 12:02:01.97	241.88	8.61	-47.5	-51.9	9.9	2.98e-02	0	43	0	0	67	5691
2026-01-16 12:02:04.95	242.31	8.75	-44.0	-46.5	15.6	0.00e+00	0	43	0	0	60	4552
2026-01-16 12:02:07.93	242.75	8.88	-44.5	-47.1	14.9	0.00e+00	0	43	0	0	59	5189
2026-01-16 12:02:10.91	243.19	9.01	-47.5	-51.9	10.0	3.81e-03	0	43	0	0	65	6372
2026-01-16 12:02:13.89	243.63	9.14	-48.9	-55.6	6.6	1.05e-01	0	43	0	0	68	8266
2026-01-16 12:02:16.88	244.08	9.27	-43.4	-45.6	16.4	0.00e+00	0	43	0	0	58	4611
2026-01-16 12:02:19.86	244.54	9.39	-42.6	-44.7	17.2	0.00e+00	0	43	0	0	57	4415
2026-01-16 12:02:22.84	244.99	9.52	-42.0	-44.0	17.8	0.00e+00	0	44	0	0	56	4338
2026-01-16 12:02:25.83	245.45	9.65	-42.1	-44.2	17.8	0.00e+00	0	44	0	0	56	4393
2026-01-16 12:02:28.81	245.92	9.77	-42.1	-44.2	17.7	0.00e+00	0	43	0	0	56	4399
2026-01-16 12:02:31.80	246.39	9.90	-42.0	-44.0	17.8	0.00e+00	0	43	0	0	56	4331
2026-01-16 12:02:34.78	246.86	10.02	-41.8	-43.8	17.9	0.00e+00	0	43	0	0	55	4464
2026-01-16 12:02:37.77	247.34	10.14	-41.9	-43.9	17.9	0.00e+00	0	43	0	0	55	4504
2026-01-16 12:02:40.75	247.82	10.26	-41.9	-43.9	17.9	0.00e+00	0	43	0	0	55	4498
2026-01-16 12:02:43.73	248.30	10.38	-41.9	-43.9	17.9	0.00e+00	0	43	0	0	55	4509
2026-01-16 12:02:46.72	248.79	10.50	-41.9	-43.9	17.9	0.00e+00	0	44	0	0	55	4525
2026-01-16 12:02:49.71	249.28	10.62	-41.8	-43.8	17.9	0.00e+00	0	44	0	0	55	4479
2026-01-16 12:02:52.69	249.77	10.73	-41.9	-43.9	17.9	0.00e+00	0	43	0	0	55	4516
2026-01-16 12:02:55.67	250.27	10.85	-41.8	-43.8	18.0	0.00e+00	0	43	0	0	55	4451
2026-01-16 12:02:58.66	250.78	10.96	-41.8	-43.7	18.1	0.00e+00	0	43	0	0	55	4429
2026-01-16 12:03:01.64	251.28	11.07	-41.6	-43.5	18.3	0.00e+00	0	43	0	0	55	4313
2026-01-16 12:03:04.63	251.79	11.18	-41.7	-43.6	18.1	0.00e+00	0	43	0	0	55	4390
2026-01-16 12:03:07.61	252.31	11.29	-41.8	-43.8	18.1	0.00e+00	0	44	0	0	55	4448
2026-01-16 12:03:10.60	252.83	11.40	-41.9	-43.8	18.0	0.00e+00	0	43	0	0	55	4467
2026-01-16 12:03:13.59	253.35	11.50	-41.9	-43.9	18.0	0.00e+00	0	44	0	0	55	4498
2026-01-16 12:03:16.57	253.87	11.61	-42.0	-43.9	17.9	0.00e+00	0	44	0	0	55	4545
2026-01-16 12:03:19.55	254.40	11.71	-41.9	-43.9	18.0	0.00e+00	0	44	0	0	55	4496
2026-01-16 12:03:22.54	254.93	11.81	-41.9	-43.8	18.0	0.00e+00	0	44	0	0	55	4482
2026-01-16 12:03:25.52	255.47	11.91	-41.8	-43.7	18.1	0.00e+00	0	44	0	0	55	4420
2026-01-16 12:03:28.51	256.01	12.00	-41.8	-43.7	18.1	0.00e+00	0	44	0	0	55	4434
2026-01-16 12:03:31.49	256.55	12.10	-41.7	-43.7	18.2	0.00e+00	0	44	0	0	55	4397
2026-01-16 12:03:34.48	257.09	12.19	-41.8	-43.8	18.0	0.00e+00	0	44	0	0	55	4443
2026-01-16 12:03:37.46	257.64	12.28	-41.9	-43.9	17.9	0.00e+00	0	44	0	0	55	4501
2026-01-16 12:03:40.44	258.19	12.37	-41.8	-43.7	18.1	0.00e+00	0	43	0	0	55	4432
2026-01-16 12:03:43.42	258.75	12.45	-41.6	-43.5	18.2	0.00e+00	0	44	0	0	55	4333
2026-01-16 12:03:46.41	259.31	12.54	-41.6	-43.6	18.2	0.00e+00	0	44	0	0	55	4360
2026-01-16 12:03:49.39	259.87	12.62	-41.7	-43.7	18.1	0.00e+00	0	43	0	0	55	4405
2026-01-16 12:03:52.38	260.43	12.70	-41.8	-43.7	18.1	0.00e+00	0	43	0	0	55	4423
2026-01-16 12:03:55.36	261.00	12.77	-41.7	-43.6	18.2	0.00e+00	0	44	0	0	55	4362
2026-01-16 12:03:58.35	261.57	12.85	-41.7	-43.6	18.1	0.00e+00	0	43	0	0	55	4388
2026-01-16 12:04:01.34	262.14	12.92	-41.7	-43.6	18.1	0.00e+00	0	43	0	0	55	4390
2026-01-16 12:04:04.32	262.72	12.99	-41.4	-43.2	18.5	0.00e+00	0	44	0	0	54	4438
2026-01-16 12:04:07.31	263.29	13.06	-41.4	-43.3	18.5	0.00e+00	0	44	0	0	54	4466
2026-01-16 12:04:10.29	263.87	13.13	-41.5	-43.4	18.4	0.00e+00	0	43	0	0	54	4540
2026-01-16 12:04:13.28	264.46	13.19	-41.7	-43.6	18.2	0.00e+00	0	44	0	0	54	4649
2026-01-16 12:04:16.26	265.04	13.25	-41.7	-43.6	18.3	0.00e+00	0	44	0	0	54	4604
2026-01-16 12:04:19.25	265.63	13.31	-41.4	-43.2	18.5	0.00e+00	0	44	0	0	54	4435
2026-01-16 12:04:22.24	266.22	13.36	-41.3	-43.1	18.6	0.00e+00	0	43	0	0	54	4381
2026-01-16 12:04:25.23	266.81	13.41	-41.5	-43.3	18.5	0.00e+00	0	44	0	0	54	4480
2026-01-16 12:04:28.21	267.41	13.46	-41.3	-43.2	18.6	0.00e+00	0	44	0	0	54	4416
2026-01-16 12:04:31.19	268.00	13.51	-41.5	-43.4	18.4	0.00e+00	0	43	0	0	54	4499
2026-01-16 12:04:34.18	268.60	13.55	-41.6	-43.5	18.3	0.00e+00	0	43	0	0	54	4562
2026-01-16 12:04:37.16	269.20	13.59	-41.6	-43.5	18.3	0.00e+00	0	44	0	0	54	4549
2026-01-16 12:04:40.15	269.80	13.63	-41.3	-43.2	18.6	0.00e+00	0	43	0	0	54	4392
2026-01-16 12:04:43.13	270.40	13.67	-41.1	-43.0	18.7	0.00e+00	0	43	0	0	54	4305
2026-01-16 12:04:46.12	271.00	13.70	-41.3	-43.2	18.6	0.00e+00	0	43	0	0	54	4405
2026-01-16 12:04:49.10	271.61	13.73	-41.5	-43.3	18.4	0.00e+00	0	44	0	0	54	4483
2026-01-16 12:04:52.09	272.21	13.76	-41.5	-43.4	18.4	0.00e+00	0	44	0	0	54	4497
2026-01-16 12:04:55.07	272.82	13.78	-41.5	-43.4	18.5	0.00e+00	0	44	0	0	54	4514
2026-01-16 12:04:58.06	273.42	13.80	-41.6	-43.4	18.3	0.00e+00	0	44	0	0	54	4544
2026-01-16 12:05:01.04	274.03	13.82	-41.7	-43.6	18.2	0.00e+00	0	43	0	0	54	4646
2026-01-16 12:05:04.03	274.64	13.84	-41.6	-43.5	18.3	0.00e+00	0	44	0	0	54	4570
2026-01-16 12:05:07.01	275.25	13.85	-41.4	-43.3	18.5	0.00e+00	0	43	0	0	54	4443
2026-01-16 12:05:10.00	275.86	13.86	-41.4	-43.2	18.6	0.00e+00	0	44	0	0	54	4424
2026-01-16 12:05:12.99	276.47	13.86	-41.3	-43.2	18.6	0.00e+00	0	44	0	0	54	4419
2026-01-16 12:05:15.98	277.08	13.87	-41.4	-43.3	18.5	0.00e+00	0	44	0	0	54	4468
2026-01-16 12:05:18.96	277.69	13.87	-41.6	-43.5	18.4	0.00e+00	0	44	0	0	54	4565
2026-01-16 12:05:21.95	278.30	13.86	-41.6	-43.5	18.4	0.00e+00	0	44	0	0	54	4551
2026-01-16 12:05:24.93	278.91	13.86	-41.5	-43.4	18.5	0.00e+00	0	44	0	0	54	4494
2026-01-16 12:05:27.91	279.52	13.85	-41.4	-43.3	18.5	0.00e+00	0	44	0	0	54	4463
2026-01-16 12:05:30.90	280.13	13.84	-41.4	-43.2	18.6	0.00e+00	0	44	0	0	54	4433
2026-01-16 12:05:33.88	280.73	13.82	-41.4	-43.3	18.5	0.00e+00	0	43	0	0	54	4450
2026-01-16 12:05:36.87	281.34	13.81	-41.4	-43.3	18.5	0.00e+00	0	44	0	0	54	4446
2026-01-16 12:05:39.85	281.95	13.78	-41.3	-43.1	18.7	0.00e+00	0	44	0	0	54	4368
2026-01-16 12:05:42.84	282.55	13.76	-41.4	-43.3	18.6	0.00e+00	0	43	0	0	54	4449
2026-01-16 12:05:45.82	283.16	13.73	-41.5	-43.3	18.5	0.00e+00	0	44	0	0	54	4474
2026-01-16 12:05:48.80	283.76	13.71	-41.6	-43.5	18.3	0.00e+00	0	43	0	0	54	4587
2026-01-16 12:05:51.79	284.36	13.67	-41.6	-43.5	18.3	0.00e+00	0	44	0	0	54	4565
2026-01-16 12:05:54.77	284.96	13.64	-41.7	-43.6	18.2	0.00e+00	0	43	0	0	54	4628
2026-01-16 12:05:57.76	285.56	13.60	-41.7	-43.6	18.3	0.00e+00	0	44	0	0	54	4616
2026-01-16 12:06:00.74	286.16	13.56	-41.7	-43.6	18.3	0.00e+00	0	44	0	0	54	4618
2026-01-16 12:06:03.72	286.76	13.52	-41.6	-43.5	18.3	0.00e+00	0	44	0	0	54	4581
2026-01-16 12:06:06.71	287.35	13.47	-41.7	-43.6	18.2	0.00e+00	0	44	0	0	54	4630
2026-01-16 12:06:09.69	287.94	13.42	-41.7	-43.6	18.2	0.00e+00	0	44	0	0	54	4629
2026-01-16 12:06:12.68	288.53	13.37	-41.6	-43.5	18.2	0.00e+00	0	44	0	0	54	4586
2026-01-16 12:06:15.66	289.12	13.32	-41.6	-43.5	18.3	0.00e+00	0	44	0	0	54	4571
2026-01-16 12:06:18.64	289.71	13.26	-41.7	-43.6	18.3	0.00e+00	0	44	0	0	54	4605
2026-01-16 12:06:21.62	290.29	13.20	-41.8	-43.7	18.2	0.00e+00	0	43	0	0	54	4666
2026-01-16 12:06:24.61	290.87	13.14	-41.8	-43.7	18.1	0.00e+00	0	44	0	0	54	4694
2026-01-16 12:06:27.60	291.45	13.07	-41.8	-43.7	18.1	0.00e+00	0	44	0	0	54	4688
2026-01-16 12:06:30.58	292.03	13.01	-41.9	-43.8	18.0	0.00e+00	0	44	0	0	54	4735
2026-01-16 12:06:33.57	292.60	12.94	-41.7	-43.6	18.2	0.00e+00	0	44	0	0	54	4635
2026-01-16 12:06:36.55	293.17	12.87	-41.7	-43.7	18.2	0.00e+00	0	44	0	0	54	4653
2026-01-16 12:06:39.54	293.74	12.79	-41.9	-43.9	18.0	0.00e+00	0	44	0	0	54	4760
2026-01-16 12:06:42.52	294.30	12.71	-42.0	-44.0	17.9	0.00e+00	0	44	0	0	54	4826
2026-01-16 12:06:45.50	294.87	12.64	-42.0	-43.9	17.9	0.00e+00	0	44	0	0	54	4801
2026-01-16 12:06:48.49	295.43	12.56	-42.0	-43.9	17.9	0.00e+00	0	43	0	0	54	4814
2026-01-16 12:06:51.47	295.98	12.47	-42.1	-44.0	17.9	0.00e+00	0	44	0	0	54	4845
2026-01-16 12:06:54.46	296.54	12.39	-42.1	-44.0	17.9	0.00e+00	0	43	0	0	54	4856
2026-01-16 12:06:57.44	297.09	12.30	-42.2	-44.2	17.6	0.00e+00	0	44	0	0	55	4677
2026-01-16 12:07:00.43	297.63	12.21	-42.2	-44.2	17.6	0.00e+00	0	43	0	0	55	4702
2026-01-16 12:07:03.41	298.18	12.12	-42.5	-44.6	17.4	0.00e+00	0	43	0	0	55	4871
2026-01-16 12:07:06.40	298.72	12.03	-42.4	-44.3	17.5	0.00e+00	0	44	0	0	55	4754
2026-01-16 12:07:09.39	299.26	11.93	-42.4	-44.4	17.5	0.00e+00	0	44	0	0	55	4794
2026-01-16 12:07:12.37	299.79	11.83	-42.3	-44.4	17.5	0.00e+00	0	44	0	0	55	4768
2026-01-16 12:07:15.35	300.32	11.74	-42.4	-44.5	17.4	0.00e+00	0	44	0	0	55	4821
2026-01-16 12:07:18.34	300.85	11.63	-42.3	-44.3	17.5	0.00e+00	0	44	0	0	55	4742
2026-01-16 12:07:21.32	301.37	11.53	-42.4	-44.4	17.4	0.00e+00	0	44	0	0	55	4809
2026-01-16 12:07:24.30	301.89	11.43	-42.5	-44.6	17.3	0.00e+00	0	44	0	0	55	4880
2026-01-16 12:07:27.28	302.40	11.32	-42.4	-44.4	17.4	0.00e+00	0	44	0	0	55	4787
2026-01-16 12:07:30.27	302.91	11.22	-42.4	-44.5	17.3	0.00e+00	0	44	0	0	55	4849
2026-01-16 12:07:33.25	303.42	11.11	-42.3	-44.3	17.4	0.00e+00	0	44	0	0	55	4747
2026-01-16 12:07:36.24	303.93	11.00	-42.3	-44.3	17.4	0.00e+00	0	44	0	0	55	4757
2026-01-16 12:07:39.22	304.43	10.89	-42.4	-44.4	17.4	0.00e+00	0	44	0	0	55	4809
2026-01-16 12:07:42.21	304.93	10.77	-42.6	-44.6	17.2	0.00e+00	0	44	0	0	55	4921
2026-01-16 12:07:45.19	305.42	10.66	-42.8	-44.9	17.1	0.00e+00	0	43	0	0	56	4768
2026-01-16 12:07:48.18	305.91	10.54	-42.8	-44.9	17.0	0.00e+00	0	44	0	0	56	4804
2026-01-16 12:07:51.16	306.39	10.43	-42.7	-44.8	17.2	0.00e+00	0	44	0	0	56	4736
2026-01-16 12:07:54.14	306.88	10.31	-42.9	-45.0	17.0	0.00e+00	0	44	0	0	56	4829
2026-01-16 12:07:57.13	307.35	10.19	-43.0	-45.1	16.9	0.00e+00	0	44	0	0	56	4904
2026-01-16 12:08:00.12	307.83	10.07	-43.2	-45.4	16.5	0.00e+00	0	44	0	0	57	4814
2026-01-16 12:08:03.10	308.30	9.95	-43.3	-45.5	16.5	0.00e+00	0	44	0	0	57	4821
2026-01-16 12:08:06.09	308.77	9.82	-43.2	-45.4	16.6	0.00e+00	0	44	0	0	57	4782
2026-01-16 12:08:09.07	309.23	9.70	-43.2	-45.4	16.5	0.00e+00	0	44	0	0	57	4813
2026-01-16 12:08:12.05	309.69	9.58	-43.1	-45.3	16.7	0.00e+00	0	44	0	0	57	4732
2026-01-16 12:08:15.04	310.15	9.45	-43.0	-45.1	16.8	0.00e+00	0	44	0	0	57	4646
2026-01-16 12:08:18.03	310.60	9.32	-43.2	-45.4	16.5	0.00e+00	0	43	0	0	57	4803
2026-01-16 12:08:21.02	311.05	9.20	-43.2	-45.4	16.5	0.00e+00	0	43	0	0	57	4800
2026-01-16 12:08:24.00	311.49	9.07	-43.2	-45.4	16.6	0.00e+00	0	44	0	0	57	4772
2026-01-16 12:08:26.98	311.93	8.94	-50.3	-63.5	3.8	1.49e+00	0	44	104	0	71	17260
2026-01-16 12:08:29.96	312.37	8.81	-50.7	-63.9	3.8	1.49e+00	0	43	104	0	72	17032
2026-01-16 12:08:32.94	312.80	8.68	-50.8	-64.0	3.8	1.49e+00	0	43	104	0	72	17264
2026-01-16 12:08:35.92	313.23	8.55	-51.1	-64.1	3.8	1.49e+00	0	44	104	0	72	17348
2026-01-16 12:08:38.90	313.65	8.42	-51.0	-64.1	3.8	1.49e+00	0	43	104	0	72	17446
2026-01-16 12:08:41.88	314.07	8.28	-51.0	-64.2	3.8	1.49e+00	0	44	104	0	72	17496
2026-01-16 12:08:44.86	314.49	8.15	-50.9	-64.1	3.8	1.49e+00	0	44	104	0	72	17442
2026-01-16 12:08:47.84	314.90	8.02	-50.7	-64.1	3.8	1.49e+00	0	44	104	0	72	17338
2026-01-16 12:08:50.82	315.31	7.88	-50.7	-64.0	3.8	1.49e+00	0	44	104	0	72	17266
2026-01-16 12:08:53.80	315.72	7.75	-50.7	-64.1	3.8	1.49e+00	0	43	104	0	72	17296
2026-01-16 12:08:56.77	316.12	7.62	-50.7	-64.0	3.8	1.49e+00	0	44	104	0	72	17223
2026-01-16 12:08:59.75	316.52	7.48	-50.7	-64.0	3.8	1.49e+00	0	44	104	0	72	17263
2026-01-16 12:09:02.73	316.91	7.34	-50.7	-64.0	3.8	1.49e+00	0	44	104	0	72	17253
2026-01-16 12:09:05.71	317.31	7.21	-50.6	-64.0	3.8	1.49e+00	0	44	104	0	72	17211
2026-01-16 12:09:08.69	317.69	7.07	-50.7	-64.0	3.8	1.49e+00	0	44	104	0	72	17177
2026-01-16 12:09:11.67	318.08	6.93	-50.6	-64.0	3.8	1.49e+00	0	44	104	0	72	17218
2026-01-16 12:09:14.65	318.46	6.80	-50.7	-64.0	3.8	1.49e+00	0	44	104	0	72	17225
2026-01-16 12:09:17.63	318.84	6.66	-50.7	-64.0	3.8	1.49e+00	0	44	104	0	72	17200
2026-01-16 12:09:20.61	319.21	6.52	-50.6	-64.0	3.8	1.49e+00	0	44	104	0	72	17149
2026-01-16 12:09:23.59	319.58	6.38	-50.6	-64.0	3.8	1.49e+00	0	44	104	0	72	17178
2026-01-16 12:09:26.56	319.95	6.25	-50.6	-64.0	3.8	1.49e+00	0	44	104	0	72	17168
2026-01-16 12:09:29.54	320.32	6.11	-50.6	-64.0	3.8	1.49e+00	0	44	104	0	72	17189
2026-01-16 12:09:32.52	320.68	5.97	-50.6	-64.0	3.8	1.49e+00	0	44	104	0	72	17123
2026-01-16 12:09:35.50	321.03	5.83	-50.6	-64.0	3.8	1.49e+00	0	44	104	0	72	17181
2026-01-16 12:09:38.48	321.39	5.69	-50.6	-64.0	3.8	1.49e+00	0	44	104	0	72	17130
2026-01-16 12:09:41.45	321.74	5.55	-50.6	-64.0	3.8	1.49e+00	0	44	104	0	72	17133
2026-01-16 12:09:44.43	322.09	5.41	-50.6	-64.0	3.8	1.49e+00	0	44	104	0	72	17145
2026-01-16 12:09:47.41	322.43	5.27	-50.6	-63.9	3.8	1.49e+00	0	44	104	0	72	17068
2026-01-16 12:09:50.39	322.77	5.13	-50.6	-64.0	3.8	1.49e+00	0	44	104	0	72	17094
2026-01-16 12:09:53.37	323.11	4.99	-50.6	-64.0	3.8	1.49e+00	0	44	104	0	72	17103

#Closed at: 2026-01-16 12:09:54
#Recorded file [0 MB]: D:/Data/31040_260116_150044.dat