passes_logs/2026/01/16/T1/T1__20260116_235106_FENGYUN_3G_rec.log

#Pass ID: 20260116_235106_FENGYUN 3G
#Satellite: FENGYUN 3G
#Configuration: FENGYUN 3G
#almurnet v.1.7.20251203
#Start time: 2026-01-16 23:51:07

#Version: 2.0.20230620
#Station: T1
#Location: 37.570604 lon 55.790049 lat
#TLE: 1 56232U 23055A   26016.27117466  .00021245  00000+0  33355-3 0  9997
#TLE: 2 56232  49.9942  49.3739 0004180  33.4292 326.6938 15.53552571156398

#Time	Az	El	Level	Level2	SNR	BER	BlckErr	Temp	State	Recorded	gain1	gain2
2026-01-16 23:51:07.32	257.75	5.09	-50.3	-69.0	3.8	8.38e-01	0	40	0	0	72	30593
2026-01-16 23:51:09.30	257.55	5.24	-50.3	-69.0	3.8	8.46e-01	0	40	104	0	72	30562
2026-01-16 23:51:11.29	257.35	5.39	-50.3	-69.1	3.8	8.46e-01	0	41	104	0	72	30913
2026-01-16 23:51:13.28	257.14	5.54	-50.3	-69.2	3.8	8.48e-01	0	41	104	0	72	31119
2026-01-16 23:51:15.26	256.94	5.69	-50.3	-69.2	3.8	8.47e-01	0	41	104	0	72	31218
2026-01-16 23:51:17.25	256.73	5.84	-50.3	-69.2	3.8	8.48e-01	0	41	104	0	72	31348
2026-01-16 23:51:19.23	256.52	5.99	-50.3	-69.2	3.8	8.46e-01	0	41	104	0	72	31212
2026-01-16 23:51:21.22	256.30	6.14	-50.3	-69.1	3.8	8.48e-01	0	41	104	0	72	30955
2026-01-16 23:51:23.21	256.08	6.29	-50.3	-69.0	3.8	8.47e-01	0	41	104	0	72	30439
2026-01-16 23:51:25.19	255.86	6.45	-50.2	-68.9	3.8	8.47e-01	0	41	104	0	72	30044
2026-01-16 23:51:27.18	255.63	6.61	-50.2	-68.7	3.8	8.46e-01	0	41	104	0	72	29433
2026-01-16 23:51:29.17	255.40	6.76	-50.2	-68.6	3.8	8.47e-01	0	41	104	0	72	29066
2026-01-16 23:51:31.15	255.17	6.92	-50.2	-68.9	3.8	8.47e-01	0	41	104	0	72	30082
2026-01-16 23:51:33.14	254.93	7.08	-50.2	-69.2	3.8	8.47e-01	0	41	104	0	72	31158
2026-01-16 23:51:35.12	254.69	7.24	-50.2	-69.2	3.8	8.47e-01	0	41	104	0	72	31286
2026-01-16 23:51:37.11	254.45	7.40	-50.2	-69.3	3.8	8.46e-01	0	41	104	0	72	31450
2026-01-16 23:51:39.10	254.20	7.57	-50.2	-69.0	3.8	8.47e-01	0	41	104	0	72	30656
2026-01-16 23:51:41.08	253.95	7.73	-50.2	-68.1	3.8	8.48e-01	0	41	104	0	72	27450
2026-01-16 23:51:43.07	253.69	7.90	-50.2	-67.7	3.8	8.47e-01	0	42	104	0	72	26200
2026-01-16 23:51:45.06	253.43	8.06	-50.2	-68.7	3.8	8.48e-01	0	42	104	0	72	29481
2026-01-16 23:51:47.04	253.17	8.23	-50.2	-68.4	3.8	8.47e-01	0	42	104	0	72	28482
2026-01-16 23:51:49.03	252.90	8.40	-50.2	-66.9	4.0	8.48e-01	0	42	104	0	72	24118
2026-01-16 23:51:51.02	252.63	8.57	-50.1	-65.1	4.4	8.43e-01	0	42	0	0	72	19412
2026-01-16 23:51:53.00	252.35	8.74	-49.4	-57.9	10.0	5.57e-01	0	42	0	0	70	9564
2026-01-16 23:51:54.99	252.07	8.91	-47.8	-53.1	14.9	1.92e-02	0	42	0	0	67	6543
2026-01-16 23:51:56.98	251.78	9.09	-46.0	-49.8	18.2	0.00e+00	0	42	0	0	64	5316
2026-01-16 23:51:58.97	251.49	9.26	-47.4	-52.2	16.0	2.17e-05	0	42	0	0	66	6250
2026-01-16 23:52:00.95	251.19	9.44	-50.1	-63.0	5.7	2.20e-06	0	42	0	0	70	17187
2026-01-16 23:52:02.94	250.89	9.62	-44.4	-47.4	20.7	8.17e-02	0	42	0	0	60	5074
2026-01-16 23:52:04.93	250.59	9.80	-43.8	-46.6	21.4	0.00e+00	0	42	0	0	59	4883
2026-01-16 23:52:06.94	250.27	9.98	-43.8	-46.5	21.6	0.00e+00	0	42	0	0	59	4850
2026-01-16 23:52:08.94	249.95	10.17	-43.5	-46.1	22.0	0.00e+00	0	42	0	0	58	4905
2026-01-16 23:52:10.93	249.63	10.35	-42.7	-45.2	22.7	0.00e+00	0	42	0	0	57	4698
2026-01-16 23:52:12.92	249.30	10.53	-42.4	-44.9	23.0	0.00e+00	0	42	0	0	56	4776
2026-01-16 23:52:14.91	248.97	10.72	-42.0	-44.3	23.5	0.00e+00	0	42	0	0	56	4473
2026-01-16 23:52:16.90	248.63	10.91	-41.3	-43.6	24.0	0.00e+00	0	42	0	0	54	4611
2026-01-16 23:52:18.89	248.28	11.10	-41.6	-43.9	23.8	0.00e+00	0	42	0	0	54	4781
2026-01-16 23:52:20.88	247.93	11.29	-41.6	-43.8	23.9	0.00e+00	0	42	0	0	54	4748
2026-01-16 23:52:22.93	247.56	11.49	-41.4	-43.6	24.0	0.00e+00	0	42	0	0	54	4651
2026-01-16 23:52:24.92	247.19	11.68	-41.3	-43.5	24.2	0.00e+00	0	42	0	0	54	4557
2026-01-16 23:52:26.91	246.82	11.88	-41.1	-43.3	24.4	0.00e+00	0	42	0	0	54	4463
2026-01-16 23:52:28.90	246.45	12.07	-40.8	-43.0	24.6	0.00e+00	0	42	0	0	53	4555
2026-01-16 23:52:30.90	246.06	12.27	-40.7	-42.8	24.8	0.00e+00	0	42	0	0	53	4489
2026-01-16 23:52:32.89	245.67	12.47	-40.7	-42.9	24.7	0.00e+00	0	42	0	0	53	4537
2026-01-16 23:52:34.92	245.26	12.68	-41.0	-43.2	24.5	0.00e+00	0	42	0	0	53	4691
2026-01-16 23:52:36.97	244.84	12.88	-41.0	-43.2	24.5	0.00e+00	0	42	0	0	53	4652
2026-01-16 23:52:39.03	244.41	13.09	-40.3	-42.5	25.1	0.00e+00	0	42	0	0	52	4552
2026-01-16 23:52:41.01	243.99	13.30	-40.0	-42.1	25.4	0.00e+00	0	42	0	0	52	4374
2026-01-16 23:52:43.01	243.56	13.50	-40.0	-42.1	25.3	0.00e+00	0	42	0	0	52	4389
2026-01-16 23:52:44.99	243.13	13.71	-40.1	-42.2	25.3	0.00e+00	0	42	0	0	52	4417
2026-01-16 23:52:46.98	242.68	13.92	-40.2	-42.3	25.2	0.00e+00	0	42	0	0	52	4452
2026-01-16 23:52:48.99	242.22	14.13	-40.5	-42.6	25.0	0.00e+00	0	42	0	0	52	4638
2026-01-16 23:52:51.04	241.75	14.35	-40.1	-42.2	25.3	0.00e+00	0	42	0	0	52	4428
2026-01-16 23:52:53.09	241.26	14.57	-40.0	-42.1	25.5	0.00e+00	0	42	0	0	51	4629
2026-01-16 23:52:55.09	240.78	14.78	-39.8	-41.9	25.5	0.00e+00	0	42	0	0	51	4514
2026-01-16 23:52:57.08	240.29	14.99	-39.9	-42.0	25.6	0.00e+00	0	42	0	0	51	4570
2026-01-16 23:52:59.07	239.80	15.21	-40.1	-42.2	25.4	0.00e+00	0	42	0	0	51	4668
2026-01-16 23:53:01.01	239.30	15.42	-39.8	-41.9	25.6	0.00e+00	0	42	0	0	51	4512
2026-01-16 23:53:03.00	238.79	15.64	-39.7	-41.7	25.8	0.00e+00	0	42	0	0	51	4419
2026-01-16 23:53:04.99	238.26	15.85	-39.4	-41.4	26.1	0.00e+00	0	42	0	0	50	4498
2026-01-16 23:53:06.98	237.72	16.07	-39.4	-41.4	26.0	0.00e+00	0	42	0	0	50	4521
2026-01-16 23:53:08.98	237.18	16.29	-39.5	-41.5	26.0	0.00e+00	0	42	0	0	50	4557
2026-01-16 23:53:10.97	236.62	16.51	-39.5	-41.6	26.0	0.00e+00	0	42	0	0	50	4605
2026-01-16 23:53:12.96	236.05	16.73	-39.5	-41.5	25.9	0.00e+00	0	42	0	0	50	4595
2026-01-16 23:53:14.95	235.48	16.95	-39.4	-41.4	26.0	0.00e+00	0	42	0	0	50	4543
2026-01-16 23:53:16.94	234.89	17.17	-39.0	-41.0	26.4	0.00e+00	0	42	0	0	50	4324
2026-01-16 23:53:18.93	234.29	17.40	-39.0	-41.0	26.4	0.00e+00	0	42	0	0	49	4570
2026-01-16 23:53:20.92	233.68	17.62	-39.4	-41.4	26.0	0.00e+00	0	42	0	0	49	4802
2026-01-16 23:53:22.91	233.06	17.84	-39.6	-41.6	25.9	0.00e+00	0	42	0	0	49	4908
2026-01-16 23:53:24.95	232.41	18.06	-39.3	-41.3	26.1	0.00e+00	0	43	0	0	49	4727
2026-01-16 23:53:26.97	231.76	18.29	-38.9	-40.8	26.5	0.00e+00	0	43	0	0	49	4482
2026-01-16 23:53:28.96	231.11	18.51	-38.5	-40.5	26.8	0.00e+00	0	42	0	0	49	4300
2026-01-16 23:53:30.95	230.44	18.73	-38.7	-40.7	26.7	0.00e+00	0	42	0	0	49	4397
2026-01-16 23:53:32.95	229.76	18.95	-38.7	-40.7	26.6	0.00e+00	0	43	0	0	49	4416
2026-01-16 23:53:34.94	229.07	19.17	-38.9	-40.8	26.5	0.00e+00	0	42	0	0	49	4480
2026-01-16 23:53:36.93	228.36	19.39	-39.0	-41.0	26.4	0.00e+00	0	43	0	0	49	4551
2026-01-16 23:53:38.92	227.65	19.60	-38.9	-40.9	26.5	0.00e+00	0	42	0	0	49	4502
2026-01-16 23:53:40.91	226.92	19.82	-38.4	-40.4	26.8	0.00e+00	0	43	0	0	48	4500
2026-01-16 23:53:42.96	226.16	20.04	-38.2	-40.1	27.0	0.00e+00	0	43	0	0	47	4625
2026-01-16 23:53:44.95	225.40	20.25	-38.2	-40.1	27.0	0.00e+00	0	42	0	0	47	4643
2026-01-16 23:53:46.94	224.64	20.46	-38.6	-40.6	26.6	0.00e+00	0	42	0	0	47	4889
2026-01-16 23:53:48.93	223.86	20.66	-38.5	-40.5	26.7	0.00e+00	0	42	0	0	47	4821
2026-01-16 23:53:50.92	223.07	20.87	-38.5	-40.4	26.7	0.00e+00	0	43	0	0	47	4800
2026-01-16 23:53:52.91	222.26	21.07	-38.4	-40.4	26.8	0.00e+00	0	42	0	0	47	4778
2026-01-16 23:53:54.89	221.45	21.27	-38.2	-40.1	26.9	0.00e+00	0	43	0	0	47	4640
2026-01-16 23:53:56.95	220.59	21.47	-38.1	-40.1	27.0	0.00e+00	0	43	0	0	47	4611
2026-01-16 23:53:58.86	219.79	21.65	-38.3	-40.2	26.9	0.00e+00	0	43	0	0	47	4684
2026-01-16 23:54:00.85	218.93	21.84	-38.3	-40.3	26.9	0.00e+00	0	42	0	0	47	4716
2026-01-16 23:54:02.84	218.07	22.02	-38.2	-40.1	27.0	0.00e+00	0	42	0	0	47	4633
2026-01-16 23:54:04.83	217.19	22.20	-38.2	-40.2	26.9	0.00e+00	0	42	0	0	47	4678
2026-01-16 23:54:06.82	216.30	22.38	-38.2	-40.1	27.0	0.00e+00	0	42	0	0	47	4634
2026-01-16 23:54:08.81	215.40	22.55	-38.2	-40.1	27.0	0.00e+00	0	43	0	0	47	4647
2026-01-16 23:54:10.86	214.46	22.72	-37.9	-39.8	27.2	0.00e+00	0	42	0	0	47	4493
2026-01-16 23:54:12.95	213.49	22.89	-37.8	-39.7	27.3	0.00e+00	0	43	0	0	47	4427
2026-01-16 23:54:14.97	212.53	23.04	-37.6	-39.5	27.4	0.00e+00	0	43	0	0	47	4338
2026-01-16 23:54:16.96	211.59	23.19	-37.8	-39.8	27.2	0.00e+00	0	43	0	0	47	4449
2026-01-16 23:54:18.95	210.63	23.33	-37.7	-39.6	27.3	0.00e+00	0	43	0	0	47	4390
2026-01-16 23:54:20.94	209.66	23.46	-37.8	-39.7	27.2	0.00e+00	0	43	0	0	47	4435
2026-01-16 23:54:22.93	208.69	23.59	-37.6	-39.5	27.4	0.00e+00	0	43	0	0	47	4300
2026-01-16 23:54:24.92	207.70	23.71	-37.4	-39.3	27.2	0.00e+00	0	42	0	0	46	4475
2026-01-16 23:54:26.93	206.69	23.83	-37.5	-39.4	27.5	0.00e+00	0	42	0	0	46	4513
2026-01-16 23:54:28.92	205.69	23.93	-37.6	-39.5	27.4	0.00e+00	0	42	0	0	46	4576
2026-01-16 23:54:31.02	204.63	24.03	-37.3	-39.2	27.7	0.00e+00	0	42	0	0	46	4415
2026-01-16 23:54:33.01	203.61	24.12	-37.5	-39.4	27.5	0.00e+00	0	43	0	0	46	4524
2026-01-16 23:54:35.00	202.58	24.20	-37.9	-39.8	27.2	0.00e+00	0	43	0	0	46	4724
2026-01-16 23:54:36.99	201.55	24.28	-37.7	-39.7	27.3	0.00e+00	0	43	0	0	46	4662
2026-01-16 23:54:38.98	200.52	24.34	-37.7	-39.6	27.3	0.00e+00	0	42	0	0	46	4611
2026-01-16 23:54:40.97	199.48	24.40	-37.9	-39.8	27.2	0.00e+00	0	42	0	0	46	4747
2026-01-16 23:54:42.96	198.43	24.44	-38.3	-40.2	26.9	0.00e+00	0	42	0	0	47	4699
2026-01-16 23:54:45.02	197.35	24.48	-38.2	-40.2	27.0	0.00e+00	0	42	0	0	47	4662
2026-01-16 23:54:47.05	196.28	24.51	-37.8	-39.8	27.2	0.00e+00	0	43	0	0	47	4448
2026-01-16 23:54:49.10	195.19	24.53	-37.6	-39.5	27.4	0.00e+00	0	43	0	0	47	4327
2026-01-16 23:54:51.09	194.14	24.54	-37.3	-39.2	27.7	0.00e+00	0	43	0	0	46	4404
2026-01-16 23:54:53.08	193.09	24.54	-37.4	-39.3	27.6	0.00e+00	0	43	0	0	46	4469
2026-01-16 23:54:55.07	192.03	24.53	-37.7	-39.7	27.3	0.00e+00	0	43	0	0	46	4663
2026-01-16 23:54:57.01	191.01	24.51	-37.9	-39.8	27.2	0.00e+00	0	43	0	0	46	4737
2026-01-16 23:54:59.00	189.96	24.48	-37.6	-39.5	27.4	0.00e+00	0	42	0	0	46	4590
2026-01-16 23:55:00.99	188.91	24.45	-37.6	-39.5	27.3	0.00e+00	0	43	0	0	46	4584
2026-01-16 23:55:02.98	187.87	24.40	-37.5	-39.4	27.0	0.00e+00	0	43	0	0	46	4519
2026-01-16 23:55:04.97	186.83	24.35	-37.3	-39.1	27.7	0.00e+00	0	43	0	0	46	4389
2026-01-16 23:55:06.96	185.79	24.28	-37.3	-39.1	27.7	0.00e+00	0	42	0	0	46	4384
2026-01-16 23:55:08.95	184.76	24.21	-37.6	-39.5	27.4	0.00e+00	0	43	0	0	46	4577
2026-01-16 23:55:10.94	183.73	24.13	-38.2	-40.1	27.0	0.00e+00	0	43	0	0	46	4910
2026-01-16 23:55:12.86	182.75	24.05	-38.2	-40.2	26.9	0.00e+00	0	43	0	0	47	4673
2026-01-16 23:55:14.92	181.70	23.95	-37.7	-39.6	27.3	0.00e+00	0	43	0	0	47	4363
2026-01-16 23:55:17.13	180.59	23.83	-37.9	-39.8	27.2	0.00e+00	0	43	0	0	47	4481
2026-01-16 23:55:19.12	179.59	23.72	-37.9	-39.8	27.2	0.00e+00	0	43	0	0	47	4466
2026-01-16 23:55:21.27	178.53	23.59	-37.6	-39.6	27.4	0.00e+00	0	43	0	0	47	4341
2026-01-16 23:55:23.28	177.54	23.46	-37.2	-39.1	27.7	0.00e+00	0	43	0	0	46	4369
2026-01-16 23:55:25.36	176.53	23.32	-37.3	-39.2	27.6	0.00e+00	0	43	0	0	46	4398
2026-01-16 23:55:27.43	175.53	23.17	-37.4	-39.3	27.5	0.00e+00	0	43	0	0	46	4480
2026-01-16 23:55:29.48	174.56	23.02	-37.4	-39.3	27.5	0.00e+00	0	43	0	0	46	4472
2026-01-16 23:55:31.55	173.58	22.86	-37.2	-39.1	27.6	0.00e+00	0	43	0	0	46	4368
2026-01-16 23:55:33.54	172.66	22.70	-37.0	-38.9	27.7	0.00e+00	0	43	0	0	46	4291
2026-01-16 23:55:35.57	171.73	22.53	-37.2	-39.1	27.7	0.00e+00	0	42	0	0	45	4637
2026-01-16 23:55:37.58	170.82	22.36	-37.3	-39.2	27.5	0.00e+00	0	43	0	0	45	4692
2026-01-16 23:55:39.58	169.93	22.19	-37.5	-39.4	27.4	0.00e+00	0	43	0	0	45	4787
2026-01-16 23:55:41.57	169.05	22.00	-37.7	-39.7	27.2	0.00e+00	0	43	0	0	46	4666
2026-01-16 23:55:43.59	168.17	21.82	-38.4	-40.4	26.8	0.00e+00	0	43	0	0	47	4767
2026-01-16 23:55:46.02	167.13	21.59	-37.6	-39.5	27.3	0.00e+00	0	43	0	0	47	4334
2026-01-16 23:55:48.01	166.30	21.39	-37.4	-39.4	27.4	0.00e+00	0	43	0	0	46	4504
2026-01-16 23:55:50.00	165.47	21.20	-38.1	-40.0	27.0	0.00e+00	0	43	0	0	46	4854
2026-01-16 23:55:51.99	164.66	21.00	-38.8	-40.8	26.5	0.00e+00	0	43	0	0	48	4706
2026-01-16 23:55:53.98	163.86	20.80	-38.3	-40.3	26.9	0.00e+00	0	43	0	0	48	4444
2026-01-16 23:55:55.97	163.07	20.59	-37.9	-39.9	27.1	0.00e+00	0	43	0	0	47	4504
2026-01-16 23:55:57.96	162.30	20.38	-38.1	-40.1	26.9	0.00e+00	0	43	0	0	47	4621
2026-01-16 23:56:00.24	161.43	20.14	-38.6	-40.5	26.6	0.00e+00	0	43	0	0	47	4870
2026-01-16 23:56:02.23	160.68	19.93	-38.7	-40.7	26.6	0.00e+00	0	43	0	0	48	4684
2026-01-16 23:56:04.22	159.95	19.72	-38.9	-40.9	26.4	0.00e+00	0	43	0	0	48	4775
2026-01-16 23:56:06.21	159.22	19.50	-38.4	-40.3	26.8	0.00e+00	0	43	0	0	48	4480
2026-01-16 23:56:08.20	158.51	19.28	-38.5	-40.4	26.7	2.20e-06	0	43	0	0	48	4526
2026-01-16 23:56:10.19	157.82	19.07	-38.8	-40.8	26.5	0.00e+00	0	43	0	0	48	4706
2026-01-16 23:56:12.18	157.13	18.85	-38.8	-40.7	26.4	0.00e+00	0	43	0	0	48	4701
2026-01-16 23:56:14.17	156.46	18.63	-38.4	-40.3	26.8	0.00e+00	0	43	0	0	48	4493
2026-01-16 23:56:16.16	155.79	18.41	-38.7	-40.6	26.5	0.00e+00	0	43	0	0	48	4649
2026-01-16 23:56:18.15	155.14	18.19	-38.9	-40.9	26.4	0.00e+00	0	43	0	0	48	4762
2026-01-16 23:56:20.25	154.47	17.95	-38.7	-40.7	26.4	0.00e+00	0	43	0	0	48	4668
2026-01-16 23:56:22.24	153.84	17.73	-38.6	-40.6	26.5	0.00e+00	0	43	0	0	48	4618
2026-01-16 23:56:24.55	153.13	17.48	-39.0	-41.0	26.3	0.00e+00	0	43	0	0	48	4823
2026-01-16 23:56:26.54	152.53	17.25	-39.0	-41.0	26.2	0.00e+00	0	43	0	0	48	4843
2026-01-16 23:56:28.55	151.93	17.03	-39.1	-41.1	26.1	0.00e+00	0	43	0	0	48	4924
2026-01-16 23:56:30.54	151.35	16.81	-38.9	-40.9	26.3	0.00e+00	0	43	0	0	49	4529
2026-01-16 23:56:32.54	150.78	16.59	-38.9	-40.9	26.3	0.00e+00	0	43	0	0	49	4533
2026-01-16 23:56:34.53	150.22	16.37	-39.1	-41.1	26.1	0.00e+00	0	43	0	0	49	4644
2026-01-16 23:56:36.54	149.66	16.15	-39.5	-41.5	25.8	0.00e+00	0	43	0	0	49	4858
2026-01-16 23:56:38.53	149.12	15.93	-39.8	-41.8	25.6	0.00e+00	0	43	0	0	50	4756
2026-01-16 23:56:40.52	148.60	15.71	-39.7	-41.7	25.7	0.00e+00	0	43	0	0	50	4702
2026-01-16 23:56:42.84	147.99	15.46	-39.9	-42.0	25.5	0.00e+00	0	43	0	0	50	4837
2026-01-16 23:56:44.83	147.48	15.24	-39.9	-41.9	25.5	0.00e+00	0	43	0	0	50	4809
2026-01-16 23:56:46.83	146.98	15.02	-39.7	-41.7	25.7	0.00e+00	0	43	0	0	50	4684
2026-01-16 23:56:48.84	146.48	14.81	-39.9	-42.0	25.5	0.00e+00	0	43	0	0	50	4826
2026-01-16 23:56:50.84	146.00	14.59	-40.1	-42.2	25.3	0.00e+00	0	43	0	0	50	4964
2026-01-16 23:56:52.83	145.53	14.38	-40.3	-42.4	25.1	0.00e+00	0	43	0	0	51	4795
2026-01-16 23:56:54.82	145.06	14.17	-40.3	-42.4	25.1	0.00e+00	0	43	0	0	51	4799
2026-01-16 23:56:56.81	144.61	13.96	-40.4	-42.5	25.0	0.00e+00	0	43	0	0	51	4831
2026-01-16 23:56:58.80	144.16	13.75	-40.5	-42.6	24.9	0.00e+00	0	43	0	0	51	4915
2026-01-16 23:57:00.79	143.72	13.54	-40.5	-42.6	24.9	0.00e+00	0	43	0	0	51	4919
2026-01-16 23:57:02.78	143.29	13.34	-40.6	-42.8	24.8	0.00e+00	0	43	0	0	51	5000
2026-01-16 23:57:04.77	142.87	13.13	-40.6	-42.8	24.7	0.00e+00	0	43	0	0	52	4724
2026-01-16 23:57:06.91	142.42	12.91	-40.6	-42.8	24.7	0.00e+00	0	43	0	0	52	4723
2026-01-16 23:57:09.12	141.97	12.69	-40.5	-42.7	24.7	0.00e+00	0	43	0	0	52	4685
2026-01-16 23:57:11.17	141.56	12.48	-40.5	-42.6	24.8	0.00e+00	0	43	0	0	52	4635
2026-01-16 23:57:13.24	141.15	12.28	-40.9	-43.1	24.3	0.00e+00	0	43	0	0	52	4921
2026-01-16 23:57:15.28	140.76	12.07	-41.2	-43.4	24.1	0.00e+00	0	43	0	0	52	5090
2026-01-16 23:57:17.27	140.38	11.88	-41.1	-43.4	24.2	0.00e+00	0	43	0	0	53	4760
2026-01-16 23:57:19.26	140.01	11.68	-41.3	-43.5	24.0	0.00e+00	0	43	0	0	53	4857
2026-01-16 23:57:21.26	139.64	11.49	-41.3	-43.5	24.0	0.00e+00	0	43	0	0	53	4846
2026-01-16 23:57:23.26	139.28	11.29	-41.6	-43.9	23.7	0.00e+00	0	43	0	0	53	5076
2026-01-16 23:57:25.27	138.92	11.10	-41.5	-43.8	23.7	0.00e+00	0	43	0	0	53	5037
2026-01-16 23:57:27.28	138.57	10.91	-41.6	-43.9	23.6	0.00e+00	0	43	0	0	53	5081
2026-01-16 23:57:29.27	138.23	10.72	-41.7	-44.0	23.4	0.00e+00	0	43	0	0	53	5118
2026-01-16 23:57:31.47	137.86	10.52	-41.8	-44.2	23.4	0.00e+00	0	43	0	0	54	4950
2026-01-16 23:57:33.80	137.48	10.30	-41.8	-44.1	23.4	0.00e+00	0	43	0	0	54	4916
2026-01-16 23:57:35.94	137.13	10.10	-41.7	-44.0	23.5	0.00e+00	0	43	0	0	54	4846
2026-01-16 23:57:38.01	136.80	9.91	-41.9	-44.3	23.2	0.00e+00	0	43	0	0	54	5027
2026-01-16 23:57:40.00	136.49	9.73	-42.1	-44.5	23.1	0.00e+00	0	43	0	0	54	5107
2026-01-16 23:57:42.02	136.18	9.55	-42.2	-44.6	22.9	0.00e+00	0	43	0	0	55	4921
2026-01-16 23:57:44.15	135.86	9.36	-42.4	-44.8	22.7	0.00e+00	0	43	0	0	55	5032
2026-01-16 23:57:46.14	135.57	9.18	-42.3	-44.7	22.8	0.00e+00	0	43	0	0	55	4968
2026-01-16 23:57:48.22	135.26	9.00	-42.2	-44.7	22.8	0.00e+00	0	43	0	0	55	4939
2026-01-16 23:57:50.21	134.98	8.83	-50.6	-69.2	3.8	1.79e-01	0	43	104	0	71	33041
2026-01-16 23:57:52.19	134.70	8.65	-50.8	-69.6	3.8	8.46e-01	0	43	104	0	72	32775
2026-01-16 23:57:54.18	134.42	8.48	-50.9	-69.7	3.8	8.48e-01	0	43	104	0	72	33085
2026-01-16 23:57:56.21	134.15	8.31	-51.0	-69.8	3.8	8.48e-01	0	43	104	0	72	33537
2026-01-16 23:57:58.26	133.87	8.14	-51.0	-69.9	3.8	8.48e-01	0	43	104	0	72	33735
2026-01-16 23:58:00.31	133.60	7.96	-51.1	-69.9	3.8	8.46e-01	0	43	104	0	72	33784
2026-01-16 23:58:02.36	133.34	7.79	-51.1	-69.9	3.8	8.47e-01	0	43	104	0	72	34040
2026-01-16 23:58:04.39	133.08	7.62	-51.0	-70.0	3.8	8.48e-01	0	43	104	0	72	34141
2026-01-16 23:58:06.63	132.80	7.44	-50.6	-70.0	3.8	8.47e-01	0	43	104	0	72	34110
2026-01-16 23:58:08.82	132.53	7.26	-50.8	-70.0	3.8	8.45e-01	0	43	104	0	72	34214
2026-01-16 23:58:10.89	132.27	7.09	-50.7	-69.9	3.8	8.47e-01	0	43	104	0	72	34015
2026-01-16 23:58:12.88	132.04	6.93	-50.8	-69.9	3.8	8.46e-01	0	43	104	0	72	33914
2026-01-16 23:58:14.86	131.80	6.78	-50.7	-69.9	3.8	8.47e-01	0	43	104	0	72	33923
2026-01-16 23:58:16.85	131.57	6.62	-50.7	-69.9	3.8	8.46e-01	0	43	104	0	72	33822
2026-01-16 23:58:18.85	131.35	6.46	-50.7	-69.9	3.8	8.47e-01	0	43	104	0	72	33959
2026-01-16 23:58:20.85	131.12	6.30	-50.7	-69.9	3.8	8.47e-01	0	43	104	0	72	33865
2026-01-16 23:58:22.84	130.90	6.15	-50.7	-69.9	3.8	8.45e-01	0	43	104	0	72	33768
2026-01-16 23:58:24.84	130.68	6.00	-50.7	-69.9	3.8	8.46e-01	0	43	104	0	72	33772
2026-01-16 23:58:26.83	130.47	5.84	-50.7	-69.9	3.8	8.47e-01	0	43	104	0	72	33764
2026-01-16 23:58:28.81	130.26	5.69	-50.7	-69.9	3.8	8.47e-01	0	43	104	0	72	33814
2026-01-16 23:58:30.81	130.05	5.54	-50.7	-69.9	3.8	8.46e-01	0	43	104	0	72	33841
2026-01-16 23:58:32.80	129.85	5.39	-50.7	-69.9	3.8	8.46e-01	0	43	104	0	72	33727
2026-01-16 23:58:34.79	129.65	5.25	-50.7	-69.9	3.8	8.48e-01	0	43	104	0	72	33832
2026-01-16 23:58:36.78	129.45	5.10	-50.7	-69.9	3.8	8.46e-01	0	43	104	0	72	33735
2026-01-16 23:58:38.78	129.25	4.95	-50.7	-69.9	3.8	8.46e-01	0	43	104	0	72	33729

#Closed at: 2026-01-16 23:58:39
#Recorded file [0 MB]: D:/Data/31040_260117_025107.dat