passes_logs/2026/01/16/T1/T1__20260116_005649_SUOMI_NPP_rec.log

#Pass ID: 20260116_005649_SUOMI NPP
#Satellite: SUOMI NPP
#Configuration: NPP
#almurnet v.1.7.20251203
#Start time: 2026-01-16 00:56:49

#Version: 2.0.20230620
#Station: T1
#Location: 37.570604 lon 55.790049 lat
#TLE: 1 37849U 11061A   26015.52691075  .00000052  00000+0  45753-4 0  9993
#TLE: 2 37849  98.7811 317.5709 0002448  62.7632 297.3794 14.19525354736784

#Time	Az	El	Level	Level2	SNR	BER	BlckErr	Temp	State	Recorded	gain1	gain2
2026-01-16 00:56:49.69	9.31	5.02	-47.6	-64.8	3.8	1.49e+00	0	40	0	0	67	25255
2026-01-16 00:56:52.67	9.14	5.21	-47.4	-64.6	3.8	1.49e+00	0	41	104	0	65	27395
2026-01-16 00:56:55.65	8.97	5.41	-47.5	-64.6	3.8	1.49e+00	0	41	104	0	65	27393
2026-01-16 00:56:58.63	8.80	5.61	-47.5	-64.6	3.8	1.49e+00	0	41	104	0	65	27396
2026-01-16 00:57:01.61	8.62	5.81	-47.5	-64.6	3.8	1.49e+00	0	41	104	0	65	27580
2026-01-16 00:57:04.59	8.44	6.01	-47.4	-64.5	3.8	1.49e+00	0	41	104	0	65	27332
2026-01-16 00:57:07.57	8.25	6.22	-47.4	-64.4	3.8	1.49e+00	0	41	104	0	65	26855
2026-01-16 00:57:10.55	8.07	6.42	-47.4	-64.2	3.8	1.49e+00	0	41	104	0	65	26361
2026-01-16 00:57:13.53	7.88	6.63	-47.4	-64.1	3.8	1.49e+00	0	42	104	0	65	25876
2026-01-16 00:57:16.51	7.68	6.84	-47.4	-63.7	3.8	1.49e+00	0	42	104	0	65	24820
2026-01-16 00:57:19.49	7.49	7.04	-47.4	-63.7	3.8	1.49e+00	0	42	104	0	65	24819
2026-01-16 00:57:22.47	7.29	7.25	-47.5	-64.4	3.8	1.49e+00	0	42	104	0	65	27070
2026-01-16 00:57:25.45	7.09	7.47	-47.4	-63.6	3.8	1.49e+00	0	42	104	0	65	24451
2026-01-16 00:57:28.43	6.89	7.68	-47.2	-60.2	4.4	1.34e+00	0	42	0	0	65	16551
2026-01-16 00:57:31.41	6.68	7.89	-46.9	-57.1	6.3	3.46e-01	0	42	0	6291456	65	11552
2026-01-16 00:57:34.39	6.47	8.11	-46.5	-54.4	8.8	4.29e-02	0	42	0	11534336	65	8508
2026-01-16 00:57:37.37	6.25	8.33	-45.9	-52.2	11.2	1.80e-03	0	42	0	16777216	63	7374
2026-01-16 00:57:40.35	6.04	8.54	-45.4	-50.8	12.6	1.52e-04	0	42	0	23068672	62	6694
2026-01-16 00:57:43.33	5.82	8.76	-45.6	-51.3	12.1	1.50e-04	0	42	0	28311552	62	7091
2026-01-16 00:57:46.31	5.59	8.99	-46.5	-54.2	9.1	1.30e-02	0	42	0	33554432	63	9334
2026-01-16 00:57:49.35	5.36	9.21	-47.0	-57.7	5.7	8.97e-01	0	42	0	39845888	65	12428
2026-01-16 00:57:52.58	5.11	9.46	-46.6	-53.1	9.6	1.43e+00	0	43	0	44040192	65	7312
2026-01-16 00:57:55.42	4.88	9.67	-45.4	-49.3	14.1	3.00e-06	0	42	0	49283072	62	5653
2026-01-16 00:57:58.54	4.63	9.91	-45.2	-49.1	14.3	7.00e-07	0	43	0	54525952	62	5521
2026-01-16 00:58:01.38	4.40	10.13	-45.2	-49.3	14.2	1.50e-06	0	43	0	59768832	62	5609
2026-01-16 00:58:04.51	4.14	10.37	-44.9	-48.9	14.5	1.50e-06	0	43	0	66060288	61	5708
2026-01-16 00:58:07.40	3.89	10.60	-44.6	-48.5	15.0	0.00e+00	0	43	0	71303168	61	5435
2026-01-16 00:58:10.47	3.63	10.84	-44.3	-48.1	15.4	0.00e+00	0	43	0	77594624	60	5466
2026-01-16 00:58:13.31	3.38	11.07	-44.2	-47.9	15.6	0.00e+00	0	43	0	82837504	60	5360
2026-01-16 00:58:16.44	3.10	11.32	-44.1	-47.8	15.7	0.00e+00	0	43	0	88080384	60	5329
2026-01-16 00:58:19.35	2.84	11.55	-44.2	-48.0	15.5	0.00e+00	0	43	0	94371840	60	5438
2026-01-16 00:58:22.47	2.55	11.80	-44.3	-48.1	15.4	0.00e+00	0	43	0	99614720	60	5517
2026-01-16 00:58:25.31	2.29	12.04	-44.3	-48.1	15.4	0.00e+00	0	43	0	104857600	60	5526
2026-01-16 00:58:28.44	1.99	12.29	-44.4	-48.1	15.4	0.00e+00	0	43	0	111149056	60	5519
2026-01-16 00:58:31.29	1.71	12.53	-44.5	-48.3	15.3	0.00e+00	0	43	0	116391936	60	5593
2026-01-16 00:58:34.41	1.41	12.79	-44.4	-48.1	15.5	0.00e+00	0	43	0	121634816	60	5504
2026-01-16 00:58:37.26	1.12	13.03	-44.5	-48.2	15.3	0.00e+00	0	43	0	127926272	60	5579
2026-01-16 00:58:40.59	0.78	13.31	-44.6	-48.4	15.2	0.00e+00	0	43	0	133169152	60	5659
2026-01-16 00:58:43.30	0.50	13.54	-44.9	-48.8	14.9	0.00e+00	0	43	0	138412032	60	5935
2026-01-16 00:58:46.59	0.15	13.82	-44.7	-48.4	15.2	0.00e+00	0	43	0	144703488	60	5714
2026-01-16 00:58:49.42	359.84	14.07	-44.5	-48.1	15.5	0.00e+00	0	43	0	149946368	60	5520
2026-01-16 00:58:52.54	359.50	14.34	-44.4	-47.9	15.7	0.00e+00	0	43	0	156237824	60	5395
2026-01-16 00:58:55.39	359.18	14.59	-44.2	-47.8	15.9	0.00e+00	0	43	0	161480704	60	5282
2026-01-16 00:58:58.61	358.82	14.87	-44.0	-47.4	16.2	0.00e+00	0	43	0	167772160	60	5042
2026-01-16 00:59:01.45	358.49	15.13	-43.9	-47.1	16.5	0.00e+00	0	43	0	173015040	59	5206
2026-01-16 00:59:04.58	358.12	15.41	-43.7	-47.0	16.6	0.00e+00	0	43	0	178257920	59	5109
2026-01-16 00:59:07.42	357.77	15.66	-43.8	-47.1	16.4	0.00e+00	0	43	0	184549376	59	5214
2026-01-16 00:59:10.54	357.39	15.95	-43.9	-47.4	16.2	0.00e+00	0	43	0	189792256	59	5383
2026-01-16 00:59:13.38	357.04	16.20	-44.0	-47.7	16.0	0.00e+00	0	43	0	195035136	59	5530
2026-01-16 00:59:16.64	356.62	16.50	-44.2	-47.9	15.7	0.00e+00	0	43	0	201326592	59	5707
2026-01-16 00:59:19.48	356.25	16.77	-44.2	-47.9	15.7	0.00e+00	0	43	0	206569472	59	5666
2026-01-16 00:59:22.61	355.84	17.06	-44.3	-47.5	16.0	0.00e+00	0	43	0	212860928	59	5461
2026-01-16 00:59:25.56	355.44	17.33	-44.3	-47.2	16.4	0.00e+00	0	43	0	218103808	59	5260
2026-01-16 00:59:28.55	355.03	17.62	-44.6	-47.6	16.0	0.00e+00	0	43	0	223346688	59	5527
2026-01-16 00:59:31.53	354.61	17.90	-44.5	-47.8	15.9	0.00e+00	0	43	0	229638144	60	5331
2026-01-16 00:59:34.52	354.18	18.18	-44.5	-48.0	15.7	0.00e+00	0	43	0	234881024	60	5458
2026-01-16 00:59:37.50	353.75	18.47	-44.6	-48.1	15.6	0.00e+00	0	43	0	240123904	60	5500
2026-01-16 00:59:40.49	353.30	18.76	-44.7	-48.2	15.5	0.00e+00	0	43	0	246415360	60	5580
2026-01-16 00:59:43.48	352.85	19.05	-44.7	-48.4	15.2	0.00e+00	0	43	0	251658240	60	5697
2026-01-16 00:59:46.46	352.39	19.34	-44.7	-48.9	14.8	0.00e+00	0	43	0	256901120	60	6021
2026-01-16 00:59:49.44	351.92	19.63	-44.4	-48.5	15.3	7.00e-07	0	43	0	263192576	60	5736
2026-01-16 00:59:52.43	351.44	19.93	-44.5	-48.3	15.5	0.00e+00	0	43	0	268435456	60	5624
2026-01-16 00:59:55.45	350.95	20.22	-44.5	-47.8	16.0	0.00e+00	0	43	0	273678336	60	5297
2026-01-16 00:59:58.44	350.45	20.52	-44.9	-48.1	15.7	0.00e+00	0	43	0	279969792	60	5502
2026-01-16 01:00:01.43	349.94	20.82	-44.8	-48.1	15.7	0.00e+00	0	43	0	285212672	60	5498
2026-01-16 01:00:04.41	349.42	21.12	-44.8	-48.1	15.6	0.00e+00	0	43	0	290455552	60	5524
2026-01-16 01:00:07.40	348.89	21.42	-44.9	-48.2	15.6	0.00e+00	0	43	0	296747008	60	5536
2026-01-16 01:00:10.38	348.35	21.72	-45.1	-48.3	15.5	0.00e+00	0	43	0	301989888	60	5613
2026-01-16 01:00:13.37	347.80	22.02	-45.1	-48.5	15.4	0.00e+00	0	43	0	307232768	61	5410
2026-01-16 01:00:16.35	347.24	22.32	-45.4	-49.2	14.7	0.00e+00	0	43	0	313524224	61	5881
2026-01-16 01:00:19.34	346.67	22.62	-45.6	-49.3	14.5	0.00e+00	0	43	0	318767104	62	5650
2026-01-16 01:00:22.32	346.08	22.93	-45.5	-49.1	14.7	0.00e+00	0	43	0	324009984	62	5520
2026-01-16 01:00:25.37	345.48	23.24	-45.2	-49.4	14.5	1.50e-06	0	43	0	330301440	62	5677
2026-01-16 01:00:28.45	344.85	23.55	-44.6	-49.3	14.6	0.00e+00	0	43	0	335544320	61	5935
2026-01-16 01:00:31.35	344.25	23.84	-44.3	-48.0	15.8	0.00e+00	0	43	0	341835776	60	5455
2026-01-16 01:00:34.54	343.57	24.17	-44.7	-47.9	15.9	0.00e+00	0	43	0	347078656	60	5368
2026-01-16 01:00:37.39	342.95	24.46	-44.7	-47.8	16.1	0.00e+00	0	43	0	352321536	60	5284
2026-01-16 01:00:40.52	342.26	24.77	-44.9	-48.6	15.3	0.00e+00	0	43	0	358612992	60	5796
2026-01-16 01:00:43.36	341.62	25.06	-44.9	-48.3	15.5	0.00e+00	0	43	0	363855872	61	5303
2026-01-16 01:00:46.49	340.91	25.38	-44.7	-47.8	16.0	0.00e+00	0	43	0	370147328	61	5007
2026-01-16 01:00:49.33	340.24	25.66	-44.9	-48.1	15.7	0.00e+00	0	43	0	375390208	61	5199
2026-01-16 01:00:52.45	339.50	25.97	-45.1	-48.5	15.3	0.00e+00	0	43	0	380633088	61	5440
2026-01-16 01:00:55.30	338.81	26.26	-44.7	-47.8	16.0	0.00e+00	0	43	0	385875968	61	5020
2026-01-16 01:00:58.42	338.04	26.56	-44.9	-48.2	15.7	0.00e+00	0	43	0	392167424	61	5219
2026-01-16 01:01:01.27	337.32	26.84	-45.7	-49.4	14.4	0.00e+00	0	43	0	397410304	61	6033
2026-01-16 01:01:04.77	336.42	27.18	-44.3	-47.2	16.7	0.00e+00	0	43	0	403701760	60	4929
2026-01-16 01:01:07.49	335.71	27.44	-43.8	-46.6	17.2	0.00e+00	0	43	0	408944640	59	4872
2026-01-16 01:01:10.78	334.83	27.76	-44.4	-47.5	16.2	0.00e+00	0	43	0	415236096	59	5429
2026-01-16 01:01:13.48	334.10	28.01	-45.0	-48.7	15.2	0.00e+00	0	43	0	420478976	60	5858
2026-01-16 01:01:16.73	333.20	28.31	-44.6	-48.1	15.7	0.00e+00	0	43	0	426770432	60	5519
2026-01-16 01:01:19.73	332.35	28.59	-45.7	-50.0	13.9	7.00e-07	0	43	0	432013312	61	6446
2026-01-16 01:01:22.86	331.46	28.87	-46.1	-50.4	13.4	2.51e-05	0	43	0	438304768	63	6013
2026-01-16 01:01:25.70	330.63	29.12	-45.3	-48.9	15.0	7.00e-07	0	43	0	443547648	62	5342
2026-01-16 01:01:28.92	329.68	29.40	-45.2	-48.8	15.1	0.00e+00	0	43	0	449839104	61	5607
2026-01-16 01:01:31.83	328.80	29.64	-46.4	-51.0	12.9	3.28e-05	0	43	0	455081984	63	6470
2026-01-16 01:01:35.03	327.82	29.91	-46.5	-51.1	12.8	2.59e-05	0	43	0	460324864	63	6502
2026-01-16 01:01:37.97	326.91	30.14	-46.7	-51.5	12.2	2.23e-04	0	43	0	466616320	64	6477
2026-01-16 01:01:41.10	325.92	30.39	-47.4	-52.8	10.8	8.61e-04	0	43	0	471859200	65	7107
2026-01-16 01:01:44.02	324.99	30.61	-46.2	-50.4	13.4	2.13e-05	0	43	0	478150656	64	5671
2026-01-16 01:01:47.01	324.01	30.83	-45.8	-49.5	14.4	0.00e+00	0	43	0	483393536	62	5744
2026-01-16 01:01:49.99	323.03	31.04	-46.2	-50.4	13.5	9.10e-06	0	43	0	488636416	63	6017
2026-01-16 01:01:52.97	322.04	31.24	-46.3	-50.3	13.4	4.50e-06	0	43	0	494927872	63	5959
2026-01-16 01:01:55.96	321.03	31.44	-46.0	-49.8	14.1	1.50e-06	0	43	0	500170752	63	5630
2026-01-16 01:01:58.95	320.01	31.63	-46.0	-50.1	13.7	1.50e-06	0	43	0	505413632	63	5846
2026-01-16 01:02:01.93	318.98	31.80	-45.8	-50.1	13.8	4.50e-06	0	43	0	511705088	63	5849
2026-01-16 01:02:04.91	317.94	31.97	-44.8	-48.2	15.5	0.00e+00	0	43	0	516947968	61	5254
2026-01-16 01:02:07.94	316.87	32.13	-45.8	-49.6	14.3	1.50e-06	0	43	0	522190848	62	5829
2026-01-16 01:02:10.96	315.80	32.28	-45.9	-49.6	14.3	7.60e-06	0	43	0	528482304	63	5515
2026-01-16 01:02:13.94	314.73	32.41	-44.5	-47.5	16.4	0.00e+00	0	43	0	533725184	60	5109
2026-01-16 01:02:16.93	313.64	32.54	-45.5	-49.0	14.9	0.00e+00	0	43	0	538968064	61	5725
2026-01-16 01:02:19.92	312.55	32.65	-45.6	-49.0	14.9	0.00e+00	0	43	0	545259520	62	5409
2026-01-16 01:02:22.91	311.45	32.75	-44.3	-47.2	16.6	0.00e+00	0	43	0	550502400	60	4956
2026-01-16 01:02:25.92	310.34	32.85	-44.3	-47.1	16.7	0.00e+00	0	43	0	555745280	60	4906
2026-01-16 01:02:28.91	309.23	32.92	-45.1	-48.1	15.6	0.00e+00	0	43	0	562036736	61	5210
2026-01-16 01:02:31.89	308.12	32.99	-45.6	-49.1	14.7	1.50e-06	0	43	0	567279616	62	5521
2026-01-16 01:02:34.87	307.00	33.05	-44.9	-48.0	16.0	0.00e+00	0	43	0	572522496	61	5115
2026-01-16 01:02:37.89	305.87	33.09	-45.6	-49.1	14.8	7.00e-07	0	43	0	578813952	62	5479
2026-01-16 01:02:40.86	304.75	33.12	-44.4	-47.3	16.5	0.00e+00	0	43	0	584056832	60	5029
2026-01-16 01:02:43.84	303.62	33.14	-44.6	-47.7	16.2	0.00e+00	0	43	0	589299712	60	5223
2026-01-16 01:02:46.82	302.50	33.14	-45.8	-49.7	14.2	1.50e-06	0	43	0	595591168	62	5867
2026-01-16 01:02:49.81	301.37	33.13	-46.6	-51.2	12.6	6.33e-05	0	43	0	600834048	64	6220
2026-01-16 01:02:52.80	300.24	33.11	-46.0	-49.9	14.1	3.80e-06	0	43	0	607125504	63	5711
2026-01-16 01:02:55.78	299.12	33.08	-45.3	-48.7	15.2	0.00e+00	0	43	0	612368384	62	5242
2026-01-16 01:02:58.79	297.99	33.03	-44.7	-47.7	16.1	0.00e+00	0	43	0	617611264	61	4943
2026-01-16 01:03:02.10	296.75	32.97	-45.7	-49.4	14.5	0.00e+00	0	43	0	623902720	62	5684
2026-01-16 01:03:04.81	295.74	32.91	-45.8	-49.3	14.6	7.00e-07	0	43	0	629145600	62	5613
2026-01-16 01:03:08.04	294.54	32.82	-45.9	-49.6	14.3	7.00e-07	0	43	0	635437056	62	5812
2026-01-16 01:03:10.88	293.49	32.73	-46.1	-50.1	13.7	8.30e-06	0	43	0	640679936	63	5853
2026-01-16 01:03:14.00	292.34	32.62	-46.1	-49.9	14.0	6.10e-06	0	43	0	645922816	63	5704
2026-01-16 01:03:16.85	291.30	32.50	-45.5	-48.8	15.1	0.00e+00	0	43	0	652214272	62	5295
2026-01-16 01:03:20.10	290.13	32.36	-45.1	-48.4	15.5	0.00e+00	0	43	0	657457152	61	5353
2026-01-16 01:03:22.95	289.10	32.23	-45.1	-48.3	15.6	0.00e+00	0	43	0	662700032	61	5315
2026-01-16 01:03:26.08	287.99	32.07	-45.3	-48.5	15.3	0.00e+00	0	43	0	668991488	61	5453
2026-01-16 01:03:28.92	286.99	31.92	-45.7	-49.2	14.7	0.00e+00	0	43	0	674234368	62	5567
2026-01-16 01:03:32.05	285.90	31.74	-45.4	-48.7	15.1	0.00e+00	0	43	0	680525824	62	5267
2026-01-16 01:03:34.89	284.92	31.57	-45.3	-48.7	15.2	0.00e+00	0	43	0	685768704	62	5224
2026-01-16 01:03:38.08	283.83	31.37	-44.7	-47.6	16.2	0.00e+00	0	43	0	691011584	61	4909
2026-01-16 01:03:40.92	282.88	31.18	-45.2	-48.4	15.4	0.00e+00	0	43	0	697303040	61	5365
2026-01-16 01:03:44.05	281.84	30.96	-45.2	-48.4	15.4	0.00e+00	0	43	0	702545920	61	5389
2026-01-16 01:03:46.89	280.90	30.76	-46.0	-49.7	14.2	0.00e+00	0	43	0	707788800	62	5867
2026-01-16 01:03:50.02	279.89	30.52	-46.0	-49.7	14.2	2.20e-06	0	43	0	714080256	63	5538
2026-01-16 01:03:52.86	278.98	30.31	-46.2	-50.1	13.7	1.50e-06	0	43	0	719323136	63	5841
2026-01-16 01:03:56.10	277.96	30.05	-46.1	-49.9	14.0	2.20e-06	0	43	0	725614592	63	5671
2026-01-16 01:03:58.94	277.08	29.82	-45.5	-48.9	15.0	0.00e+00	0	43	0	730857472	63	5048
2026-01-16 01:04:02.07	276.13	29.56	-45.8	-49.4	14.4	7.00e-07	0	43	0	736100352	62	5709
2026-01-16 01:04:04.91	275.27	29.31	-45.2	-48.3	15.6	0.00e+00	0	43	0	741343232	62	5038
2026-01-16 01:04:08.04	274.35	29.04	-43.9	-46.6	17.1	0.00e+00	0	43	0	747634688	59	4900
2026-01-16 01:04:10.88	273.52	28.79	-44.3	-47.1	16.6	0.00e+00	0	43	0	752877568	59	5202
2026-01-16 01:04:14.11	272.60	28.49	-45.0	-48.2	15.7	0.00e+00	0	43	0	759169024	60	5529
2026-01-16 01:04:16.98	271.79	28.23	-45.9	-49.5	14.3	1.50e-06	0	43	0	764411904	62	5766
2026-01-16 01:04:20.14	270.92	27.94	-44.2	-47.0	16.8	0.00e+00	0	43	0	770703360	60	4854
2026-01-16 01:04:23.12	270.11	27.65	-46.0	-50.0	13.9	1.50e-06	0	43	0	775946240	62	6114
2026-01-16 01:04:26.45	269.22	27.34	-46.4	-50.7	13.1	9.15e-05	0	43	0	782237696	64	5867
2026-01-16 01:04:29.19	268.51	27.07	-45.6	-49.1	14.8	7.00e-07	0	43	0	787480576	63	5160
2026-01-16 01:04:32.46	267.67	26.75	-45.0	-48.2	15.7	0.00e+00	0	43	0	793772032	61	5240
2026-01-16 01:04:35.19	266.98	26.48	-44.5	-47.4	16.3	0.00e+00	0	43	0	799014912	61	4801
2026-01-16 01:04:38.48	266.17	26.16	-43.7	-46.3	17.4	0.00e+00	0	43	0	804257792	59	4739
2026-01-16 01:04:41.33	265.48	25.87	-43.9	-46.6	17.1	0.00e+00	0	43	0	810549248	59	4906
2026-01-16 01:04:44.84	264.64	25.52	-44.0	-46.7	17.1	0.00e+00	0	43	0	816840704	59	4951
2026-01-16 01:04:47.68	263.98	25.23	-44.3	-47.2	16.6	0.00e+00	0	43	0	822083584	59	5266
2026-01-16 01:04:50.81	263.27	24.91	-44.2	-47.1	16.7	0.00e+00	0	43	0	828375040	59	5178
2026-01-16 01:04:53.65	262.63	24.63	-44.2	-47.0	16.7	0.00e+00	0	43	0	833617920	59	5155
2026-01-16 01:04:56.78	261.95	24.31	-44.1	-46.9	16.9	0.00e+00	0	43	0	838860800	59	5055
2026-01-16 01:04:59.76	261.30	24.00	-43.2	-45.7	17.9	0.00e+00	0	43	0	845152256	58	4691
2026-01-16 01:05:03.07	260.61	23.67	-42.3	-44.6	18.9	0.00e+00	0	43	0	850395136	56	4641
2026-01-16 01:05:05.84	260.03	23.38	-42.9	-45.4	18.3	0.00e+00	0	43	0	855638016	56	5060
2026-01-16 01:05:09.11	259.37	23.05	-43.8	-46.5	17.3	0.00e+00	0	43	0	861929472	58	5102
2026-01-16 01:05:11.90	258.82	22.77	-43.3	-45.8	17.9	0.00e+00	0	43	0	867172352	58	4730
2026-01-16 01:05:15.03	258.21	22.45	-43.5	-46.1	17.6	0.00e+00	0	43	0	873463808	58	4909
2026-01-16 01:05:17.87	257.66	22.16	-43.6	-46.3	17.4	0.00e+00	0	43	0	878706688	58	4996
2026-01-16 01:05:21.01	257.07	21.84	-43.6	-46.2	17.5	0.00e+00	0	43	0	884998144	58	4964
2026-01-16 01:05:23.96	256.53	21.54	-43.6	-46.2	17.5	0.00e+00	0	43	0	890241024	58	4969
2026-01-16 01:05:27.09	255.97	21.22	-43.2	-45.7	17.9	0.00e+00	0	43	0	895483904	58	4678
2026-01-16 01:05:29.99	255.46	20.93	-43.3	-45.9	17.8	0.00e+00	0	43	0	901775360	58	4770
2026-01-16 01:05:32.98	254.94	20.63	-43.8	-46.5	17.2	0.00e+00	0	43	0	907018240	58	5133
2026-01-16 01:05:35.96	254.44	20.34	-43.7	-46.5	17.2	0.00e+00	0	44	0	912261120	58	5101
2026-01-16 01:05:38.95	253.94	20.04	-43.3	-45.8	17.8	0.00e+00	0	43	0	918552576	58	4744
2026-01-16 01:05:41.88	253.46	19.75	-43.1	-45.5	18.1	0.00e+00	0	43	0	923795456	58	4594
2026-01-16 01:05:45.01	252.96	19.44	-43.2	-45.6	18.0	0.00e+00	0	43	0	929038336	57	4908
2026-01-16 01:05:47.85	252.51	19.16	-44.0	-46.7	17.0	0.00e+00	0	43	0	935329792	58	5235
2026-01-16 01:05:50.98	252.03	18.85	-44.5	-47.5	16.2	0.00e+00	0	43	0	940572672	59	5427
2026-01-16 01:05:53.88	251.59	18.57	-44.3	-47.1	16.5	0.00e+00	0	43	0	945815552	59	5200
2026-01-16 01:05:57.12	251.11	18.26	-43.7	-46.4	17.3	0.00e+00	0	43	0	952107008	59	4762
2026-01-16 01:05:59.96	250.70	17.99	-44.0	-46.8	16.9	0.00e+00	0	43	0	957349888	59	4984
2026-01-16 01:06:03.02	250.27	17.70	-44.5	-47.5	16.2	0.00e+00	0	43	0	963641344	59	5415
2026-01-16 01:06:06.00	249.85	17.41	-44.4	-47.4	16.3	0.00e+00	0	43	0	968884224	59	5343
2026-01-16 01:06:08.99	249.44	17.13	-43.9	-46.7	16.9	0.00e+00	0	43	0	974127104	59	4951
2026-01-16 01:06:11.98	249.04	16.85	-43.6	-46.4	17.2	0.00e+00	0	43	0	980418560	59	4765
2026-01-16 01:06:14.96	248.64	16.57	-43.8	-46.5	17.1	0.00e+00	0	43	0	985661440	59	4857
2026-01-16 01:06:17.94	248.26	16.30	-44.2	-47.0	16.6	0.00e+00	0	43	0	990904320	59	5151
2026-01-16 01:06:20.93	247.88	16.02	-44.3	-47.1	16.5	0.00e+00	0	43	0	997195776	59	5196
2026-01-16 01:06:23.91	247.51	15.75	-44.0	-46.8	16.8	0.00e+00	0	43	0	1002438656	59	5005
2026-01-16 01:06:26.90	247.14	15.48	-43.9	-46.6	16.9	0.00e+00	0	43	0	1007681536	59	4910
2026-01-16 01:06:29.96	246.77	15.20	-43.9	-46.7	16.9	0.00e+00	0	43	0	1013972992	59	4935
2026-01-16 01:06:32.83	246.43	14.95	-44.5	-47.6	16.0	0.00e+00	0	43	0	1019215872	59	5514
2026-01-16 01:06:35.96	246.07	14.67	-45.4	-49.1	14.6	0.00e+00	0	43	0	1025507328	61	5815
2026-01-16 01:06:38.80	245.75	14.42	-45.1	-48.6	15.1	0.00e+00	0	43	0	1030750208	61	5470
2026-01-16 01:06:41.94	245.40	14.14	-44.3	-47.2	16.4	0.00e+00	0	43	0	1035993088	60	4947
2026-01-16 01:06:44.85	245.08	13.89	-43.7	-46.3	17.2	0.00e+00	0	43	0	1041235968	59	4753
2026-01-16 01:06:48.03	244.73	13.61	-43.7	-46.4	17.0	0.00e+00	0	43	0	1047527424	58	5097
2026-01-16 01:06:50.87	244.43	13.37	-44.5	-47.6	15.9	0.00e+00	0	43	0	1052770304	59	5504
2026-01-16 01:06:54.18	244.09	13.09	-45.4	-48.9	14.8	0.00e+00	0	43	0	1059061760	61	5666
2026-01-16 01:06:56.90	243.81	12.86	-45.7	-49.3	14.3	1.50e-06	0	43	0	1064304640	62	5630
2026-01-16 01:07:00.18	243.48	12.58	-45.7	-49.5	14.1	1.50e-06	0	43	0	1070596096	62	5748
2026-01-16 01:07:03.02	243.20	12.35	-45.7	-49.5	14.1	7.00e-07	0	43	0	1075838976	62	5748
2026-01-16 01:07:06.15	242.90	12.09	-45.6	-49.3	14.3	7.00e-07	0	43	0	1082130432	62	5603
2026-01-16 01:07:08.99	242.63	11.85	-45.7	-49.4	14.2	7.00e-07	0	43	0	1087373312	62	5659
2026-01-16 01:07:12.12	242.33	11.60	-45.4	-49.0	14.5	7.00e-07	0	43	0	1092616192	62	5424
2026-01-16 01:07:15.45	242.03	11.33	-45.5	-49.2	14.3	0.00e+00	0	43	0	1098907648	62	5563
2026-01-16 01:07:18.20	241.78	11.11	-45.6	-49.3	14.2	1.50e-06	0	43	0	1104150528	62	5622
2026-01-16 01:07:21.58	241.48	10.84	-45.4	-49.0	14.5	1.50e-06	0	43	0	1110441984	62	5451
2026-01-16 01:07:24.36	241.23	10.62	-45.1	-48.4	15.1	0.00e+00	0	43	0	1115684864	62	5070
2026-01-16 01:07:27.75	240.94	10.35	-44.7	-47.9	15.6	0.00e+00	0	44	0	1121976320	61	5056
2026-01-16 01:07:30.47	240.71	10.14	-44.5	-47.5	15.9	0.00e+00	0	43	0	1127219200	60	5158
2026-01-16 01:07:33.75	240.44	9.89	-44.6	-47.6	15.8	0.00e+00	0	43	0	1133510656	60	5214
2026-01-16 01:07:36.50	240.21	9.67	-44.9	-48.1	15.3	0.00e+00	0	43	0	1138753536	60	5527
2026-01-16 01:07:39.77	239.95	9.42	-45.3	-49.0	14.4	7.00e-07	0	43	0	1145044992	61	5757
2026-01-16 01:07:42.61	239.73	9.21	-45.7	-49.8	13.6	4.50e-06	0	43	0	1150287872	62	5950
2026-01-16 01:07:45.74	239.48	8.97	-47.6	-53.8	9.9	3.66e-05	0	43	0	1155530752	65	7969
2026-01-16 01:07:48.58	239.26	8.76	-49.8	-65.2	3.8	1.49e+00	0	43	104	1156579328	70	22136
2026-01-16 01:07:51.70	239.03	8.53	-50.2	-65.4	3.8	1.49e+00	0	43	104	1156579328	71	21298
2026-01-16 01:07:54.54	238.82	8.32	-50.2	-65.4	3.8	1.49e+00	0	43	104	1156579328	71	21417