passes_logs/2026/01/16/T1/T1__20260116_101734_NOAA_21_JPSS-2_rec.log

#Pass ID: 20260116_101734_NOAA 21 (JPSS-2)
#Satellite: NOAA 21 (JPSS-2)
#Configuration: NOAA 21
#almurnet v.1.7.20251203
#Start time: 2026-01-16 10:17:35

#Version: 2.0.20230620
#Station: T1
#Location: 37.570604 lon 55.790049 lat
#TLE: 1 54234U 22150A   26015.92901934  .00000025  00000+0  32700-4 0  9991
#TLE: 2 54234  98.7499 316.8175 0000634 284.8145  75.2961 14.19534841164946

#Time	Az	El	Level	Level2	SNR	BER	BlckErr	Temp	State	Recorded	gain1	gain2
2026-01-16 10:17:35.42	171.80	5.06	-48.4	-63.3	3.8	1.49e+00	0	40	0	0	68	20050
2026-01-16 10:17:38.40	171.86	5.28	-47.0	-63.1	3.8	1.49e+00	0	40	104	0	64	24472
2026-01-16 10:17:41.39	171.93	5.49	-47.0	-63.0	3.8	1.49e+00	0	40	104	0	64	24197
2026-01-16 10:17:44.37	172.00	5.71	-47.0	-62.9	3.8	1.49e+00	0	40	104	0	64	23873
2026-01-16 10:17:47.36	172.07	5.93	-46.9	-62.6	3.8	1.49e+00	0	40	104	0	64	23083
2026-01-16 10:17:50.35	172.13	6.15	-46.9	-62.3	3.8	1.49e+00	0	40	104	0	64	22433
2026-01-16 10:17:53.34	172.21	6.37	-47.0	-62.5	3.8	1.49e+00	0	40	104	0	64	22929
2026-01-16 10:17:56.33	172.28	6.60	-47.0	-63.0	3.8	1.49e+00	0	41	104	0	64	24257
2026-01-16 10:17:59.32	172.35	6.82	-47.0	-62.7	3.8	1.49e+00	0	41	104	0	64	23368
2026-01-16 10:18:02.30	172.42	7.05	-46.9	-61.7	3.8	1.49e+00	0	41	104	0	64	20973
2026-01-16 10:18:05.29	172.50	7.28	-46.8	-59.9	4.1	1.48e+00	0	41	104	0	64	16899
2026-01-16 10:18:08.28	172.57	7.51	-46.5	-56.3	5.7	5.03e-01	0	41	0	0	64	11240
2026-01-16 10:18:11.27	172.65	7.75	-45.8	-52.3	9.4	2.35e-02	0	41	0	0	63	7531
2026-01-16 10:18:14.25	172.72	7.98	-44.6	-49.2	12.6	1.53e-04	0	41	0	0	61	5919
2026-01-16 10:18:17.24	172.80	8.22	-44.0	-47.9	14.0	4.50e-06	0	41	0	0	59	5662
2026-01-16 10:18:20.22	172.88	8.46	-44.4	-48.6	13.2	2.21e-05	0	41	0	0	59	6169
2026-01-16 10:18:23.21	172.96	8.71	-45.2	-50.8	11.0	1.44e-03	0	42	0	0	61	7064
2026-01-16 10:18:26.20	173.04	8.95	-46.5	-55.8	6.1	1.96e-01	0	41	0	0	63	11279
2026-01-16 10:18:29.19	173.13	9.20	-45.1	-50.7	11.3	1.55e-04	0	41	0	0	61	6971
2026-01-16 10:18:32.20	173.21	9.46	-42.7	-45.5	16.3	0.00e+00	0	41	0	0	57	4840
2026-01-16 10:18:35.20	173.30	9.71	-42.2	-44.6	17.1	0.00e+00	0	41	0	0	56	4643
2026-01-16 10:18:38.19	173.39	9.97	-41.9	-44.3	17.3	0.00e+00	0	42	0	0	55	4730
2026-01-16 10:18:41.20	173.48	10.23	-41.5	-43.8	17.8	0.00e+00	0	42	0	0	55	4475
2026-01-16 10:18:44.20	173.57	10.49	-41.4	-43.8	17.8	0.00e+00	0	42	0	0	54	4714
2026-01-16 10:18:47.20	173.66	10.76	-41.4	-43.7	17.9	0.00e+00	0	42	0	0	54	4678
2026-01-16 10:18:50.20	173.75	11.02	-41.2	-43.5	18.1	0.00e+00	0	42	0	0	54	4563
2026-01-16 10:18:53.19	173.85	11.29	-41.1	-43.3	18.3	0.00e+00	0	42	0	0	54	4467
2026-01-16 10:18:56.19	173.94	11.57	-41.2	-43.3	18.2	0.00e+00	0	42	0	0	54	4486
2026-01-16 10:18:59.20	174.04	11.85	-41.2	-43.2	18.4	0.00e+00	0	42	0	0	54	4430
2026-01-16 10:19:02.21	174.14	12.13	-41.3	-43.2	18.4	0.00e+00	0	42	0	0	54	4415
2026-01-16 10:19:05.21	174.25	12.41	-41.1	-42.9	18.6	0.00e+00	0	42	0	0	54	4290
2026-01-16 10:19:08.22	174.35	12.70	-41.1	-43.0	18.6	0.00e+00	0	42	0	0	54	4332
2026-01-16 10:19:11.22	174.45	12.99	-41.0	-42.9	18.7	0.00e+00	0	42	0	0	53	4494
2026-01-16 10:19:14.23	174.56	13.28	-41.1	-43.0	18.1	0.00e+00	0	42	0	0	53	4574
2026-01-16 10:19:17.24	174.67	13.58	-41.1	-42.9	18.7	0.00e+00	0	42	0	0	53	4543
2026-01-16 10:19:20.24	174.78	13.88	-40.9	-42.8	18.9	0.00e+00	0	42	0	0	53	4450
2026-01-16 10:19:23.24	174.90	14.18	-40.8	-42.7	18.9	0.00e+00	0	42	0	0	53	4407
2026-01-16 10:19:26.24	175.01	14.49	-41.0	-42.8	18.9	0.00e+00	0	42	0	0	53	4478
2026-01-16 10:19:29.24	175.13	14.80	-40.9	-42.7	18.9	0.00e+00	0	42	0	0	53	4437
2026-01-16 10:19:32.25	175.25	15.12	-40.9	-42.8	18.9	0.00e+00	0	42	0	0	53	4453
2026-01-16 10:19:35.25	175.38	15.44	-40.9	-42.7	19.0	0.00e+00	0	42	0	0	53	4420
2026-01-16 10:19:38.26	175.50	15.76	-40.8	-42.6	19.1	0.00e+00	0	42	0	0	53	4373
2026-01-16 10:19:41.27	175.63	16.09	-40.7	-42.5	19.2	0.00e+00	0	42	0	0	53	4320
2026-01-16 10:19:44.27	175.76	16.43	-40.6	-42.5	19.2	0.00e+00	0	42	0	0	53	4298
2026-01-16 10:19:47.28	175.89	16.76	-40.7	-42.5	19.2	0.00e+00	0	42	0	0	53	4298
2026-01-16 10:19:50.28	176.03	17.11	-40.7	-42.5	19.2	0.00e+00	0	42	0	0	53	4307
2026-01-16 10:19:53.29	176.17	17.45	-40.7	-42.5	19.2	0.00e+00	0	42	0	0	53	4332
2026-01-16 10:19:56.29	176.31	17.81	-40.7	-42.5	19.2	0.00e+00	0	42	0	0	53	4293
2026-01-16 10:19:59.29	176.46	18.16	-40.7	-42.5	19.2	0.00e+00	0	42	0	0	53	4326
2026-01-16 10:20:02.29	176.60	18.52	-40.9	-42.7	19.1	0.00e+00	0	42	0	0	53	4413
2026-01-16 10:20:05.29	176.76	18.89	-40.8	-42.7	19.1	0.00e+00	0	42	0	0	53	4398
2026-01-16 10:20:08.30	176.91	19.26	-40.8	-42.6	19.1	0.00e+00	0	42	0	0	53	4390
2026-01-16 10:20:11.30	177.07	19.64	-40.7	-42.5	19.2	0.00e+00	0	42	0	0	53	4292
2026-01-16 10:20:14.30	177.23	20.02	-40.7	-42.5	19.2	0.00e+00	0	42	0	0	53	4319
2026-01-16 10:20:17.31	177.40	20.41	-40.7	-42.5	19.2	0.00e+00	0	42	0	0	53	4306
2026-01-16 10:20:20.31	177.57	20.81	-40.6	-42.4	19.3	0.00e+00	0	42	0	0	53	4268
2026-01-16 10:20:23.31	177.75	21.21	-40.5	-42.3	19.4	0.00e+00	0	42	0	0	52	4461
2026-01-16 10:20:26.32	177.92	21.61	-40.3	-42.0	19.6	0.00e+00	0	42	0	0	52	4313
2026-01-16 10:20:29.31	178.11	22.03	-40.0	-41.7	20.0	0.00e+00	0	42	0	0	51	4403
2026-01-16 10:20:32.32	178.30	22.45	-39.7	-41.4	20.2	0.00e+00	0	42	0	0	51	4270
2026-01-16 10:20:35.33	178.49	22.87	-39.4	-41.1	20.4	0.00e+00	0	42	0	0	50	4358
2026-01-16 10:20:38.33	178.69	23.31	-39.3	-41.0	20.6	0.00e+00	0	42	0	0	50	4295
2026-01-16 10:20:41.33	178.89	23.75	-39.2	-40.8	20.7	0.00e+00	0	42	0	0	50	4228
2026-01-16 10:20:44.33	179.10	24.20	-39.3	-41.0	20.6	0.00e+00	0	42	0	0	50	4294
2026-01-16 10:20:47.33	179.32	24.65	-39.4	-41.1	20.5	0.00e+00	0	42	0	0	50	4346
2026-01-16 10:20:50.33	179.54	25.11	-39.6	-41.3	20.3	0.00e+00	0	42	0	0	50	4444
2026-01-16 10:20:53.33	179.76	25.58	-39.7	-41.4	20.2	0.00e+00	0	42	0	0	50	4500
2026-01-16 10:20:56.34	180.00	26.06	-39.8	-41.5	20.1	0.00e+00	0	42	0	0	50	4575
2026-01-16 10:20:59.34	180.24	26.55	-40.3	-42.0	19.7	0.00e+00	0	42	0	0	51	4568
2026-01-16 10:21:02.33	180.49	27.04	-40.4	-42.1	19.6	0.00e+00	0	42	0	0	51	4651
2026-01-16 10:21:05.34	180.74	27.55	-40.7	-42.5	19.2	0.00e+00	0	42	0	0	52	4559
2026-01-16 10:21:08.34	181.01	28.06	-41.2	-43.0	18.8	0.00e+00	0	42	0	0	52	4854
2026-01-16 10:21:11.34	181.28	28.58	-41.3	-43.1	18.7	0.00e+00	0	42	0	0	53	4636
2026-01-16 10:21:14.35	181.56	29.11	-41.3	-43.1	18.6	0.00e+00	0	42	0	0	53	4644
2026-01-16 10:21:17.35	181.85	29.65	-41.1	-42.9	18.8	0.00e+00	0	42	0	0	53	4506
2026-01-16 10:21:20.36	182.15	30.20	-40.7	-42.5	19.1	0.00e+00	0	42	0	0	53	4335
2026-01-16 10:21:23.37	182.46	30.77	-40.6	-42.3	19.4	0.00e+00	0	43	0	0	53	4233
2026-01-16 10:21:26.37	182.78	31.34	-40.2	-41.9	19.8	0.00e+00	0	42	0	0	52	4273
2026-01-16 10:21:29.37	183.11	31.92	-40.1	-41.8	19.9	0.00e+00	0	42	0	0	52	4221
2026-01-16 10:21:32.38	183.46	32.51	-40.3	-42.0	19.8	0.00e+00	0	42	0	0	52	4305
2026-01-16 10:21:35.37	183.81	33.11	-40.6	-42.4	19.4	0.00e+00	0	42	0	0	52	4515
2026-01-16 10:21:38.37	184.18	33.72	-40.8	-42.5	19.3	0.00e+00	0	42	0	0	52	4597
2026-01-16 10:21:41.38	184.56	34.34	-41.1	-42.9	19.0	0.00e+00	0	42	0	0	52	4786
2026-01-16 10:21:44.37	184.96	34.98	-41.5	-43.3	18.6	0.00e+00	0	42	0	0	53	4750
2026-01-16 10:21:47.38	185.37	35.62	-41.7	-43.6	18.3	0.00e+00	0	42	0	0	54	4635
2026-01-16 10:21:50.38	185.80	36.28	-41.8	-43.7	18.2	0.00e+00	0	42	0	0	54	4694
2026-01-16 10:21:53.38	186.24	36.95	-41.9	-43.8	18.0	0.00e+00	0	42	0	0	54	4756
2026-01-16 10:21:56.39	186.71	37.64	-42.0	-43.9	18.1	0.00e+00	0	42	0	0	54	4801
2026-01-16 10:21:59.39	187.19	38.33	-41.9	-43.8	18.2	0.00e+00	0	42	0	0	54	4729
2026-01-16 10:22:02.39	187.70	39.03	-41.9	-43.8	18.2	0.00e+00	0	42	0	0	54	4722
2026-01-16 10:22:05.39	188.22	39.75	-41.9	-43.8	18.1	0.00e+00	0	42	0	0	54	4706
2026-01-16 10:22:08.39	188.77	40.48	-42.1	-44.0	17.8	0.00e+00	0	42	0	0	54	4870
2026-01-16 10:22:11.39	189.35	41.22	-43.1	-45.2	17.0	0.00e+00	0	43	0	0	56	4972
2026-01-16 10:22:14.39	189.95	41.98	-43.1	-45.2	16.7	0.00e+00	0	42	0	0	57	4702
2026-01-16 10:22:17.39	190.58	42.75	-43.0	-45.0	17.0	0.00e+00	0	42	0	0	57	4586
2026-01-16 10:22:20.39	191.24	43.52	-43.7	-45.9	16.2	0.00e+00	0	42	0	0	58	4811
2026-01-16 10:22:23.40	191.94	44.32	-43.6	-45.8	16.5	0.00e+00	0	42	0	0	58	4706
2026-01-16 10:22:26.40	192.66	45.12	-43.1	-45.1	17.0	0.00e+00	0	42	0	0	58	4378
2026-01-16 10:22:29.41	193.43	45.93	-43.0	-45.0	17.1	0.00e+00	0	42	0	0	58	4329
2026-01-16 10:22:32.41	194.24	46.76	-42.8	-44.9	17.3	0.00e+00	0	42	0	0	57	4495
2026-01-16 10:22:35.42	195.09	47.59	-42.6	-44.6	17.6	0.00e+00	0	43	0	0	57	4364
2026-01-16 10:22:38.42	195.98	48.44	-42.4	-44.4	17.8	0.00e+00	0	43	0	0	56	4496
2026-01-16 10:22:41.42	196.93	49.29	-41.9	-43.8	18.1	0.00e+00	0	42	0	0	55	4483
2026-01-16 10:22:44.43	197.93	50.15	-41.8	-43.8	18.2	0.00e+00	0	42	0	0	55	4452
2026-01-16 10:22:47.43	198.98	51.02	-41.6	-43.5	18.5	0.00e+00	0	42	0	0	55	4313
2026-01-16 10:22:50.43	200.10	51.89	-41.5	-43.3	18.6	0.00e+00	0	42	0	0	54	4470
2026-01-16 10:22:53.43	201.29	52.76	-41.3	-43.1	18.9	0.00e+00	0	42	0	0	54	4366
2026-01-16 10:22:56.43	202.54	53.64	-41.6	-43.4	18.5	0.00e+00	0	42	0	0	54	4537
2026-01-16 10:22:59.43	203.88	54.52	-41.4	-43.2	18.8	0.00e+00	0	42	0	0	54	4416
2026-01-16 10:23:02.43	205.30	55.40	-41.0	-42.8	19.1	0.00e+00	0	43	0	0	53	4448
2026-01-16 10:23:05.43	206.81	56.27	-40.6	-42.3	19.5	0.00e+00	0	42	0	0	53	4231
2026-01-16 10:23:08.43	208.41	57.14	-40.1	-41.8	20.0	0.00e+00	0	43	0	0	51	4464
2026-01-16 10:23:11.43	210.12	58.00	-40.2	-41.9	19.9	0.00e+00	0	42	0	0	51	4507
2026-01-16 10:23:14.44	211.95	58.84	-40.5	-42.3	19.4	0.00e+00	0	42	0	0	51	4734
2026-01-16 10:23:17.44	213.89	59.67	-39.8	-41.4	20.3	0.00e+00	0	42	0	0	51	4279
2026-01-16 10:23:20.45	215.96	60.48	-39.0	-40.6	20.8	0.00e+00	0	42	0	0	50	4140
2026-01-16 10:23:23.46	218.16	61.27	-38.8	-40.4	21.1	0.00e+00	0	42	0	0	49	4246
2026-01-16 10:23:26.46	220.50	62.02	-39.1	-40.7	21.0	0.00e+00	0	43	0	0	49	4403
2026-01-16 10:23:29.46	222.98	62.74	-39.5	-41.1	20.6	0.00e+00	0	42	0	0	49	4642
2026-01-16 10:23:32.46	225.60	63.42	-39.2	-40.8	21.0	0.00e+00	0	42	0	0	49	4447
2026-01-16 10:23:35.47	228.39	64.05	-39.8	-41.5	20.4	0.00e+00	0	43	0	0	50	4549
2026-01-16 10:23:38.47	231.32	64.63	-39.1	-40.7	21.0	0.00e+00	0	42	0	0	50	4187
2026-01-16 10:23:41.48	234.40	65.16	-39.1	-40.7	20.8	0.00e+00	0	42	0	0	49	4411
2026-01-16 10:23:44.48	237.60	65.62	-38.5	-40.0	21.2	0.00e+00	0	42	0	0	49	4092
2026-01-16 10:23:47.48	240.94	66.01	-38.8	-40.4	21.1	0.00e+00	0	42	0	0	48	4532
2026-01-16 10:23:50.49	244.39	66.32	-38.9	-40.5	21.0	0.00e+00	0	42	0	0	48	4581
2026-01-16 10:23:53.49	247.92	66.56	-39.3	-40.9	20.8	0.00e+00	0	43	0	0	49	4536
2026-01-16 10:23:56.49	251.51	66.72	-38.8	-40.3	21.3	0.00e+00	0	42	0	0	49	4242
2026-01-16 10:23:59.49	255.15	66.79	-38.7	-40.3	21.4	0.00e+00	0	43	0	0	48	4474
2026-01-16 10:24:02.49	258.79	66.77	-38.7	-40.2	21.3	0.00e+00	0	43	0	0	48	4439
2026-01-16 10:24:05.49	262.42	66.68	-39.4	-41.0	20.7	0.00e+00	0	43	0	0	49	4598
2026-01-16 10:24:08.50	266.01	66.50	-39.1	-40.7	20.7	0.00e+00	0	42	0	0	49	4414
2026-01-16 10:24:11.50	269.51	66.23	-39.6	-41.3	20.3	0.00e+00	0	42	0	0	49	4729
2026-01-16 10:24:14.51	272.93	65.89	-39.3	-41.0	20.5	0.00e+00	0	43	0	0	50	4301
2026-01-16 10:24:17.51	276.22	65.48	-39.6	-41.3	20.5	0.00e+00	0	43	0	0	50	4456
2026-01-16 10:24:20.51	279.38	65.01	-39.3	-40.9	20.4	0.00e+00	0	42	0	0	50	4263
2026-01-16 10:24:23.51	282.41	64.47	-38.8	-40.3	21.3	0.00e+00	0	42	0	0	49	4240
2026-01-16 10:24:26.51	285.28	63.87	-39.4	-41.1	20.8	0.00e+00	0	43	0	0	49	4604
2026-01-16 10:24:29.52	288.02	63.22	-39.6	-41.3	20.4	0.00e+00	0	42	0	0	49	4707
2026-01-16 10:24:32.51	290.59	62.54	-40.3	-42.0	19.7	0.00e+00	0	43	0	0	51	4567
2026-01-16 10:24:35.51	293.02	61.81	-38.5	-40.0	21.4	0.00e+00	0	42	0	0	49	4077
2026-01-16 10:24:38.52	295.32	61.05	-40.6	-42.4	19.5	0.00e+00	0	42	0	0	52	4517
2026-01-16 10:24:41.52	297.48	60.26	-38.7	-40.3	21.1	0.00e+00	0	42	0	0	49	4212
2026-01-16 10:24:44.52	299.50	59.45	-39.9	-41.6	20.3	0.00e+00	0	42	0	0	50	4600
2026-01-16 10:24:47.52	301.40	58.61	-40.3	-42.0	19.6	0.00e+00	0	42	0	0	52	4325
2026-01-16 10:24:50.53	303.19	57.77	-39.6	-41.2	20.4	0.00e+00	0	43	0	0	50	4411
2026-01-16 10:24:53.53	304.86	56.91	-41.4	-43.2	18.8	0.00e+00	0	43	0	0	53	4690
2026-01-16 10:24:56.54	306.44	56.04	-40.4	-42.5	19.1	0.00e+00	0	42	0	0	52	4568
2026-01-16 10:24:59.54	307.92	55.17	-41.1	-43.1	18.9	0.00e+00	0	43	0	0	52	4871
2026-01-16 10:25:02.54	309.31	54.29	-41.9	-43.9	18.2	0.00e+00	0	43	0	0	55	4494
2026-01-16 10:25:05.55	310.63	53.42	-41.1	-42.9	18.8	0.00e+00	0	42	0	0	54	4248
2026-01-16 10:25:08.55	311.86	52.54	-40.9	-42.7	19.2	0.00e+00	0	43	0	0	52	4683
2026-01-16 10:25:11.54	313.02	51.67	-42.5	-44.6	17.4	0.00e+00	0	43	0	0	55	4874
2026-01-16 10:25:14.55	314.12	50.80	-42.7	-44.8	17.2	0.00e+00	0	43	0	0	56	4738
2026-01-16 10:25:17.56	315.16	49.94	-42.6	-44.6	17.6	0.00e+00	0	43	0	0	56	4602
2026-01-16 10:25:20.57	316.15	49.08	-43.1	-45.1	17.3	0.00e+00	0	43	0	0	56	4907
2026-01-16 10:25:23.57	317.07	48.24	-43.0	-45.0	17.3	0.00e+00	0	43	0	0	57	4585
2026-01-16 10:25:26.58	317.96	47.40	-41.9	-43.8	18.3	0.00e+00	0	43	0	0	55	4478
2026-01-16 10:25:29.58	318.79	46.57	-43.7	-46.0	16.4	0.00e+00	0	42	0	0	58	4820
2026-01-16 10:25:32.58	319.58	45.76	-43.3	-45.5	16.8	0.00e+00	0	43	0	0	58	4582
2026-01-16 10:25:35.58	320.34	44.95	-43.5	-45.8	16.5	0.00e+00	0	43	0	0	58	4738
2026-01-16 10:25:38.58	321.05	44.16	-43.5	-45.6	16.7	0.00e+00	0	43	0	0	58	4642
2026-01-16 10:25:41.58	321.74	43.37	-43.0	-45.0	17.2	0.00e+00	0	43	0	0	57	4585
2026-01-16 10:25:44.58	322.39	42.60	-43.7	-45.9	16.3	0.00e+00	0	43	0	0	58	4778
2026-01-16 10:25:47.58	323.01	41.84	-42.6	-44.5	17.8	0.00e+00	0	43	0	0	57	4320
2026-01-16 10:25:50.59	323.61	41.09	-42.4	-44.4	17.8	0.00e+00	0	43	0	0	56	4516
2026-01-16 10:25:53.59	324.17	40.36	-43.1	-45.2	16.7	0.00e+00	0	43	0	0	56	4978
2026-01-16 10:25:56.60	324.72	39.63	-43.7	-46.0	16.3	0.00e+00	0	43	0	0	58	4837
2026-01-16 10:25:59.60	325.24	38.92	-42.8	-44.9	17.3	0.00e+00	0	42	0	0	57	4543
2026-01-16 10:26:02.61	325.74	38.22	-42.3	-44.5	17.6	0.00e+00	0	43	0	0	56	4554
2026-01-16 10:26:05.61	326.22	37.54	-42.1	-44.0	18.2	0.00e+00	0	43	0	0	56	4337
2026-01-16 10:26:08.61	326.67	36.86	-41.8	-43.7	18.3	0.00e+00	0	43	0	0	55	4430
2026-01-16 10:26:11.61	327.12	36.20	-42.2	-44.2	17.7	0.00e+00	0	43	0	0	55	4700
2026-01-16 10:26:14.62	327.54	35.54	-41.9	-44.0	17.9	0.00e+00	0	43	0	0	55	4553
2026-01-16 10:26:17.62	327.95	34.91	-41.9	-44.0	18.0	0.00e+00	0	43	0	0	55	4567
2026-01-16 10:26:20.62	328.34	34.28	-41.5	-43.3	18.6	0.00e+00	0	43	0	0	54	4489
2026-01-16 10:26:23.62	328.72	33.66	-41.5	-43.4	18.6	0.00e+00	0	43	0	0	54	4505
2026-01-16 10:26:26.63	329.09	33.05	-40.9	-42.7	19.2	0.00e+00	0	43	0	0	53	4414
2026-01-16 10:26:29.63	329.44	32.46	-40.7	-42.5	19.4	0.00e+00	0	43	0	0	53	4294
2026-01-16 10:26:32.63	329.78	31.87	-40.4	-42.2	19.7	0.00e+00	0	43	0	0	52	4423
2026-01-16 10:26:35.63	330.11	31.30	-40.8	-42.6	19.3	0.00e+00	0	43	0	0	52	4639
2026-01-16 10:26:38.64	330.43	30.73	-40.4	-42.3	19.6	0.00e+00	0	42	0	0	52	4451
2026-01-16 10:26:41.64	330.74	30.18	-40.2	-41.9	19.8	0.00e+00	0	43	0	0	52	4286
2026-01-16 10:26:44.64	331.03	29.63	-40.0	-41.7	19.9	0.00e+00	0	43	0	0	51	4440
2026-01-16 10:26:47.64	331.32	29.10	-40.2	-41.9	19.8	0.00e+00	0	43	0	0	51	4525
2026-01-16 10:26:50.65	331.60	28.57	-40.4	-42.1	19.7	0.00e+00	0	43	0	0	51	4643
2026-01-16 10:26:53.65	331.87	28.06	-40.4	-42.2	19.7	0.00e+00	0	43	0	0	51	4670
2026-01-16 10:26:56.66	332.13	27.55	-40.0	-41.8	20.0	0.00e+00	0	42	0	0	51	4489
2026-01-16 10:26:59.66	332.39	27.05	-40.2	-42.1	19.8	0.00e+00	0	43	0	0	51	4599
2026-01-16 10:27:02.67	332.64	26.56	-40.4	-42.2	19.7	0.00e+00	0	43	0	0	51	4681
2026-01-16 10:27:05.67	332.88	26.08	-40.4	-42.2	19.6	0.00e+00	0	43	0	0	51	4662
2026-01-16 10:27:08.67	333.11	25.60	-40.4	-42.2	19.5	0.00e+00	0	43	0	0	51	4658
2026-01-16 10:27:11.69	333.34	25.13	-40.4	-42.1	19.5	0.00e+00	0	43	0	0	51	4644
2026-01-16 10:27:14.68	333.56	24.68	-40.4	-42.2	19.4	0.00e+00	0	43	0	0	51	4677
2026-01-16 10:27:17.69	333.78	24.22	-40.2	-42.0	19.6	0.00e+00	0	43	0	0	51	4571
2026-01-16 10:27:20.69	333.98	23.78	-40.2	-42.0	19.6	0.00e+00	0	43	0	0	51	4567
2026-01-16 10:27:23.69	334.19	23.34	-40.1	-41.9	19.7	0.00e+00	0	43	0	0	51	4520
2026-01-16 10:27:26.70	334.39	22.91	-40.1	-41.9	19.8	0.00e+00	0	43	0	0	51	4498
2026-01-16 10:27:29.71	334.58	22.49	-40.1	-41.8	19.9	0.00e+00	0	42	0	0	51	4493
2026-01-16 10:27:32.71	334.77	22.07	-40.0	-41.7	19.9	0.00e+00	0	43	0	0	51	4441
2026-01-16 10:27:35.72	334.95	21.66	-40.2	-42.0	19.6	0.00e+00	0	43	0	0	51	4588
2026-01-16 10:27:38.72	335.13	21.26	-40.3	-42.1	19.5	0.00e+00	0	43	0	0	51	4645
2026-01-16 10:27:41.72	335.31	20.86	-40.6	-42.6	19.2	0.00e+00	0	42	0	0	51	4882
2026-01-16 10:27:44.72	335.48	20.47	-40.5	-42.4	19.3	0.00e+00	0	43	0	0	52	4535
2026-01-16 10:27:47.72	335.65	20.09	-40.6	-42.5	19.2	0.00e+00	0	43	0	0	52	4558
2026-01-16 10:27:50.72	335.81	19.71	-40.5	-42.4	19.3	0.00e+00	0	43	0	0	52	4498
2026-01-16 10:27:53.72	335.97	19.33	-40.2	-42.1	19.5	0.00e+00	0	43	0	0	52	4385
2026-01-16 10:27:56.72	336.13	18.96	-40.3	-42.2	19.4	0.00e+00	0	43	0	0	52	4413
2026-01-16 10:27:59.72	336.28	18.60	-40.4	-42.3	19.3	0.00e+00	0	43	0	0	52	4481
2026-01-16 10:28:02.72	336.43	18.24	-40.6	-42.5	19.1	0.00e+00	0	43	0	0	52	4578
2026-01-16 10:28:05.72	336.58	17.89	-40.8	-42.7	19.0	0.00e+00	0	43	0	0	52	4681
2026-01-16 10:28:08.72	336.72	17.54	-40.9	-42.8	19.0	0.00e+00	0	43	0	0	52	4729
2026-01-16 10:28:11.73	336.86	17.20	-40.9	-42.8	19.0	0.00e+00	0	43	0	0	52	4708
2026-01-16 10:28:14.73	337.00	16.86	-40.8	-42.7	19.0	0.00e+00	0	43	0	0	52	4689
2026-01-16 10:28:17.74	337.13	16.52	-40.9	-42.7	19.0	0.00e+00	0	43	0	0	52	4705
2026-01-16 10:28:20.74	337.26	16.19	-41.0	-42.9	18.8	0.00e+00	0	43	0	0	52	4787
2026-01-16 10:28:23.75	337.39	15.87	-41.2	-43.1	18.7	0.00e+00	0	43	0	0	53	4617
2026-01-16 10:28:26.75	337.52	15.54	-41.2	-43.1	18.7	0.00e+00	0	43	0	0	53	4604
2026-01-16 10:28:29.75	337.65	15.23	-41.2	-43.2	18.6	0.00e+00	0	43	0	0	53	4665
2026-01-16 10:28:32.74	337.77	14.91	-41.1	-43.1	18.6	0.00e+00	0	43	0	0	53	4642
2026-01-16 10:28:35.73	337.89	14.61	-41.1	-43.1	18.6	0.00e+00	0	43	0	0	53	4622
2026-01-16 10:28:38.71	338.00	14.30	-41.1	-43.1	18.6	0.00e+00	0	42	0	0	53	4621
2026-01-16 10:28:41.69	338.12	14.00	-41.0	-43.0	18.7	0.00e+00	0	43	0	0	53	4551
2026-01-16 10:28:44.67	338.23	13.71	-41.1	-43.1	18.6	0.00e+00	0	43	0	0	53	4620
2026-01-16 10:28:47.66	338.34	13.41	-41.2	-43.3	18.4	0.00e+00	0	43	0	0	53	4722
2026-01-16 10:28:50.64	338.45	13.12	-41.1	-43.2	18.4	0.00e+00	0	43	0	0	53	4693
2026-01-16 10:28:53.62	338.56	12.84	-41.1	-43.2	18.4	0.00e+00	0	43	0	0	53	4697
2026-01-16 10:28:56.60	338.66	12.55	-41.2	-43.3	18.3	0.00e+00	0	42	0	0	53	4734
2026-01-16 10:28:59.59	338.77	12.27	-41.4	-43.4	18.2	0.00e+00	0	43	0	0	53	4800
2026-01-16 10:29:02.57	338.87	12.00	-41.4	-43.3	18.3	0.00e+00	0	43	0	0	53	4755
2026-01-16 10:29:05.56	338.97	11.72	-41.3	-43.3	18.3	0.00e+00	0	42	0	0	53	4740
2026-01-16 10:29:08.55	339.07	11.45	-41.3	-43.3	18.3	0.00e+00	0	43	0	0	53	4758
2026-01-16 10:29:11.53	339.17	11.18	-41.3	-43.5	18.2	0.00e+00	0	43	0	0	53	4815
2026-01-16 10:29:14.52	339.26	10.92	-41.4	-43.4	18.2	0.00e+00	0	43	0	0	53	4813
2026-01-16 10:29:17.50	339.36	10.65	-41.4	-43.4	18.2	0.00e+00	0	43	0	0	53	4802
2026-01-16 10:29:20.48	339.45	10.39	-41.4	-43.4	18.3	0.00e+00	0	43	0	0	53	4775
2026-01-16 10:29:23.46	339.54	10.14	-41.4	-43.4	18.2	0.00e+00	0	43	0	0	53	4776
2026-01-16 10:29:26.44	339.63	9.88	-41.4	-43.4	18.2	0.00e+00	0	43	0	0	53	4780
2026-01-16 10:29:29.42	339.72	9.63	-41.5	-43.5	18.1	0.00e+00	0	43	0	0	53	4855
2026-01-16 10:29:32.41	339.81	9.38	-41.5	-43.6	18.0	0.00e+00	0	43	0	0	53	4896
2026-01-16 10:29:35.39	339.89	9.14	-41.6	-43.7	17.9	0.00e+00	0	43	0	0	54	4655
2026-01-16 10:29:38.37	339.98	8.89	-48.7	-63.0	3.8	1.10e+00	0	43	104	0	69	18229
2026-01-16 10:29:41.35	340.06	8.65	-49.3	-63.7	3.8	1.49e+00	0	43	104	0	70	18641
2026-01-16 10:29:44.33	340.14	8.41	-50.4	-63.9	3.8	1.49e+00	0	43	104	0	71	17916
2026-01-16 10:29:47.31	340.23	8.17	-50.6	-63.9	3.8	1.49e+00	0	43	104	0	72	16922
2026-01-16 10:29:50.29	340.31	7.94	-50.4	-64.0	3.8	1.49e+00	0	43	104	0	72	17151
2026-01-16 10:29:53.27	340.38	7.70	-50.9	-64.0	3.8	1.49e+00	0	43	104	0	72	17125
2026-01-16 10:29:56.25	340.46	7.47	-51.0	-64.0	3.8	1.49e+00	0	43	104	0	72	17103
2026-01-16 10:29:59.23	340.54	7.25	-50.8	-64.0	3.8	1.49e+00	0	43	104	0	72	17098
2026-01-16 10:30:02.21	340.62	7.02	-50.7	-64.0	3.8	1.49e+00	0	43	104	0	72	17087
2026-01-16 10:30:05.19	340.69	6.79	-50.5	-63.9	3.8	1.49e+00	0	43	104	0	72	17006
2026-01-16 10:30:08.17	340.77	6.57	-50.5	-63.9	3.8	1.49e+00	0	43	104	0	72	16950
2026-01-16 10:30:11.15	340.84	6.35	-50.5	-63.9	3.8	1.49e+00	0	43	104	0	72	16998
2026-01-16 10:30:14.12	340.91	6.13	-50.5	-63.9	3.8	1.49e+00	0	43	104	0	72	16971
2026-01-16 10:30:17.10	340.98	5.91	-50.5	-63.9	3.8	1.49e+00	0	43	104	0	72	16982
2026-01-16 10:30:20.08	341.05	5.70	-50.5	-63.9	3.8	1.49e+00	0	43	104	0	72	16958
2026-01-16 10:30:23.06	341.12	5.48	-50.5	-63.9	3.8	1.49e+00	0	43	104	0	72	16941
2026-01-16 10:30:26.04	341.19	5.27	-50.5	-63.9	3.8	1.49e+00	0	43	104	0	72	16930
2026-01-16 10:30:29.02	341.26	5.06	-50.5	-63.9	3.8	1.49e+00	0	43	104	0	72	16914

#Closed at: 2026-01-16 10:30:31
#Recorded file [0 MB]: D:/Data/31040_260116_131735.dat