passes_logs/2026/01/16/T1/T1__20260116_210632_KHAYYAM_rec.log

#Pass ID: 20260116_210632_KHAYYAM
#Satellite: KHAYYAM
#Configuration: KHAYYAM_480M
#almurnet v.1.7.20251203
#Start time: 2026-01-16 21:06:33

#Version: 2.0.20230620
#Station: T1
#Location: 37.570604 lon 55.790049 lat
#TLE: 1 53370U 22096A   26016.26944296  .00002688  00000+0  11195-3 0  9997
#TLE: 2 53370  97.3563 283.2565 0001591 106.1097 254.0316 15.24586395191431

#Time	Az	El	Level	Level2	SNR	BER	BlckErr	Temp	State	Recorded	gain1	gain2
2026-01-16 21:06:33.66	17.00	4.98	-50.1	-54.5	3.4	0.00e+00	0	45	0	0	72	22989
2026-01-16 21:06:35.64	17.04	5.13	-50.2	-54.6	3.7	0.00e+00	0	46	104	0	71	24531
2026-01-16 21:06:37.62	17.09	5.30	-50.2	-54.5	3.7	0.00e+00	0	46	104	0	71	24461
2026-01-16 21:06:39.61	17.14	5.46	-50.2	-54.6	3.7	0.00e+00	0	46	104	0	71	24536
2026-01-16 21:06:41.60	17.20	5.62	-50.2	-54.5	3.7	0.00e+00	0	46	104	0	71	24503
2026-01-16 21:06:43.59	17.25	5.79	-50.2	-54.5	3.7	0.00e+00	0	47	104	0	71	24472
2026-01-16 21:06:45.57	17.30	5.95	-50.2	-54.5	3.7	0.00e+00	0	47	104	0	71	24480
2026-01-16 21:06:47.56	17.35	6.12	-50.2	-54.5	3.7	0.00e+00	0	47	104	0	71	24504
2026-01-16 21:06:49.55	17.41	6.29	-50.2	-54.5	3.7	0.00e+00	0	47	104	0	71	24436
2026-01-16 21:06:51.54	17.46	6.46	-50.2	-54.5	3.7	0.00e+00	0	47	104	0	71	24485
2026-01-16 21:06:53.52	17.51	6.63	-50.2	-54.5	3.7	0.00e+00	0	47	104	0	71	24441
2026-01-16 21:06:55.51	17.57	6.81	-50.2	-54.5	3.7	0.00e+00	0	47	104	0	71	24510
2026-01-16 21:06:57.50	17.63	6.98	-50.2	-54.5	3.7	0.00e+00	0	48	104	0	71	24463
2026-01-16 21:06:59.48	17.68	7.16	-50.2	-54.6	3.7	0.00e+00	0	48	104	0	71	24554
2026-01-16 21:07:01.47	17.74	7.34	-50.2	-54.6	3.7	0.00e+00	0	48	104	0	71	24558
2026-01-16 21:07:03.46	17.80	7.52	-50.2	-54.5	3.7	0.00e+00	0	48	104	0	71	24432
2026-01-16 21:07:05.45	17.86	7.70	-50.2	-54.5	3.7	0.00e+00	0	48	104	0	71	24409
2026-01-16 21:07:07.43	17.92	7.89	-50.2	-54.5	3.7	0.00e+00	0	48	104	0	71	24514
2026-01-16 21:07:09.42	17.98	8.07	-50.2	-54.5	3.7	0.00e+00	0	48	104	0	71	24520
2026-01-16 21:07:11.41	18.04	8.26	-50.2	-54.5	3.7	0.00e+00	0	49	104	0	71	24474
2026-01-16 21:07:13.39	18.10	8.45	-50.2	-54.6	3.7	0.00e+00	0	48	104	0	71	24581
2026-01-16 21:07:15.38	18.17	8.64	-50.2	-54.5	3.7	0.00e+00	0	49	104	0	71	24511
2026-01-16 21:07:17.36	18.23	8.84	-50.2	-54.6	3.7	0.00e+00	0	49	104	0	71	24574
2026-01-16 21:07:19.35	18.30	9.03	-50.2	-54.5	3.7	0.00e+00	0	49	104	0	71	24477
2026-01-16 21:07:21.34	18.36	9.23	-50.7	-55.5	3.7	0.00e+00	0	49	104	0	72	25965
2026-01-16 21:07:23.33	18.43	9.43	-51.2	-56.4	3.7	0.00e+00	0	49	104	0	73	27138
2026-01-16 21:07:25.32	18.50	9.63	-49.8	-54.0	3.7	0.00e+00	0	49	104	0	71	22890
2026-01-16 21:07:27.37	18.57	9.84	-50.0	-54.2	3.7	0.00e+00	0	49	104	0	71	23615
2026-01-16 21:07:29.59	18.65	10.07	-50.3	-54.6	3.7	0.00e+00	0	49	104	0	71	24694
2026-01-16 21:07:31.58	18.72	10.28	-51.3	-56.5	3.7	0.00e+00	0	49	104	0	73	27507
2026-01-16 21:07:33.57	18.80	10.50	-49.9	-53.7	3.7	0.00e+00	0	49	104	0	71	22216
2026-01-16 21:07:35.56	18.87	10.71	-50.0	-54.0	3.7	0.00e+00	0	49	104	0	72	21841
2026-01-16 21:07:37.56	18.95	10.93	-48.8	-52.7	3.7	0.00e+00	0	49	104	0	69	22137
2026-01-16 21:07:39.55	19.02	11.15	-49.9	-54.5	3.7	0.00e+00	0	49	104	0	70	25738
2026-01-16 21:07:41.56	19.10	11.37	-50.5	-55.0	3.7	0.00e+00	0	49	104	0	71	25864
2026-01-16 21:07:43.54	19.18	11.59	-49.9	-54.5	3.7	0.00e+00	0	50	104	0	71	24247
2026-01-16 21:07:45.55	19.26	11.82	-49.2	-53.0	3.7	0.00e+00	0	49	104	0	70	21852
2026-01-16 21:07:47.55	19.34	12.06	-49.2	-53.2	3.7	0.00e+00	0	50	104	0	70	22243
2026-01-16 21:07:49.56	19.43	12.29	-50.4	-55.8	3.7	0.00e+00	0	50	104	0	71	28333
2026-01-16 21:07:51.55	19.51	12.53	-50.6	-55.8	3.7	0.00e+00	0	50	104	0	72	26620
2026-01-16 21:07:53.56	19.60	12.77	-50.7	-55.9	3.7	0.00e+00	0	50	104	0	72	27098
2026-01-16 21:07:55.56	19.69	13.01	-50.7	-55.7	3.7	0.00e+00	0	50	104	0	72	26435
2026-01-16 21:07:57.57	19.78	13.26	-50.8	-55.9	3.7	0.00e+00	0	50	104	0	72	27092
2026-01-16 21:07:59.56	19.87	13.51	-51.0	-55.4	3.7	0.00e+00	0	50	104	0	72	25629
2026-01-16 21:08:01.57	19.97	13.77	-51.0	-55.5	3.7	0.00e+00	0	50	104	0	72	25793
2026-01-16 21:08:03.56	20.06	14.02	-51.8	-56.9	3.7	0.00e+00	0	50	104	0	74	27140
2026-01-16 21:08:05.64	20.16	14.29	-52.0	-56.9	3.7	0.00e+00	0	50	104	0	75	25616
2026-01-16 21:08:07.63	20.26	14.56	-52.2	-56.8	3.7	0.00e+00	0	50	104	0	75	25258
2026-01-16 21:08:09.84	20.37	14.85	-52.3	-56.8	3.7	0.00e+00	0	50	104	0	75	25347
2026-01-16 21:08:11.83	20.48	15.13	-52.3	-56.4	3.7	0.00e+00	0	50	104	0	75	24144
2026-01-16 21:08:13.81	20.58	15.40	-53.0	-57.5	3.7	0.00e+00	0	50	104	0	76	25855
2026-01-16 21:08:15.80	20.69	15.68	-52.3	-56.2	3.7	0.00e+00	0	50	104	0	76	22147
2026-01-16 21:08:17.79	20.80	15.96	-52.2	-56.1	3.7	0.00e+00	0	50	104	0	76	22062
2026-01-16 21:08:19.78	20.91	16.25	-52.8	-57.2	3.7	0.00e+00	0	50	104	0	76	24841
2026-01-16 21:08:21.77	21.02	16.54	-51.6	-55.9	3.7	0.00e+00	0	50	104	0	75	22634
2026-01-16 21:08:23.76	21.14	16.84	-52.0	-56.6	3.7	0.00e+00	0	50	104	0	75	24800
2026-01-16 21:08:25.75	21.26	17.14	-52.1	-56.6	3.7	0.00e+00	0	50	104	0	75	24736
2026-01-16 21:08:27.74	21.38	17.45	-52.4	-57.1	3.7	0.00e+00	0	50	104	0	75	26228
2026-01-16 21:08:29.90	21.52	17.79	-52.3	-57.0	3.7	0.00e+00	0	50	104	0	75	25831
2026-01-16 21:08:31.89	21.64	18.11	-52.8	-57.3	3.7	0.00e+00	0	51	104	0	76	25281
2026-01-16 21:08:33.88	21.77	18.43	-52.8	-57.6	3.7	0.00e+00	0	50	104	0	76	26068
2026-01-16 21:08:35.87	21.91	18.76	-52.6	-57.2	3.7	0.00e+00	0	50	104	0	76	25082
2026-01-16 21:08:37.86	22.05	19.09	-52.7	-57.5	3.7	0.00e+00	0	50	104	0	76	25877
2026-01-16 21:08:39.89	22.19	19.43	-52.8	-57.5	3.7	0.00e+00	0	50	104	0	76	25947
2026-01-16 21:08:41.88	22.33	19.78	-52.9	-57.6	3.7	0.00e+00	0	50	104	0	76	26224
2026-01-16 21:08:44.00	22.49	20.15	-52.7	-57.0	3.7	0.00e+00	0	50	104	0	77	22987
2026-01-16 21:08:46.06	22.65	20.52	-52.1	-55.9	3.7	0.00e+00	0	51	104	0	76	21583
2026-01-16 21:08:48.18	22.81	20.91	-51.5	-55.5	3.7	0.00e+00	0	50	104	0	75	21653
2026-01-16 21:08:50.17	22.97	21.28	-51.5	-55.9	3.7	0.00e+00	0	50	104	0	74	24238
2026-01-16 21:08:52.17	23.14	21.66	-51.5	-55.9	3.7	0.00e+00	0	51	104	0	74	24100
2026-01-16 21:08:54.16	23.31	22.05	-51.9	-56.4	3.7	0.00e+00	0	50	104	0	74	25591
2026-01-16 21:08:56.20	23.49	22.45	-51.7	-56.1	3.7	0.00e+00	0	51	104	0	74	24742
2026-01-16 21:08:58.18	23.66	22.85	-51.4	-55.3	3.7	0.00e+00	0	50	104	0	74	22484
2026-01-16 21:09:00.17	23.85	23.26	-51.4	-54.6	3.7	0.00e+00	0	50	104	0	74	20855
2026-01-16 21:09:02.09	24.03	23.66	-51.5	-55.9	3.7	0.00e+00	0	51	104	0	74	24048
2026-01-16 21:09:04.17	24.23	24.10	-51.7	-54.8	3.7	0.00e+00	0	51	104	0	74	21123
2026-01-16 21:09:06.16	24.43	24.54	-52.4	-55.8	3.7	0.00e+00	0	51	104	0	75	22472
2026-01-16 21:09:08.16	24.64	24.98	-53.1	-57.1	3.7	0.00e+00	0	50	104	0	76	24577
2026-01-16 21:09:10.17	24.85	25.43	-53.5	-58.0	3.7	0.00e+00	0	51	104	0	77	25890
2026-01-16 21:09:12.17	25.07	25.90	-53.2	-57.2	3.7	0.00e+00	0	50	104	0	77	23470
2026-01-16 21:09:14.23	25.31	26.38	-53.6	-58.2	3.7	0.00e+00	0	51	104	0	77	26323
2026-01-16 21:09:16.23	25.54	26.86	-53.1	-57.0	3.7	0.00e+00	0	50	104	0	77	23064
2026-01-16 21:09:18.22	25.79	27.35	-53.1	-57.0	3.7	0.00e+00	0	50	104	0	77	22917
2026-01-16 21:09:20.43	26.06	27.91	-53.7	-58.0	3.7	0.00e+00	0	50	104	0	78	24399
2026-01-16 21:09:22.45	26.33	28.43	-53.2	-57.3	3.7	0.00e+00	0	50	104	0	78	22570
2026-01-16 21:09:24.46	26.60	28.96	-53.0	-57.7	3.7	0.00e+00	0	51	104	0	78	23524
2026-01-16 21:09:26.46	26.88	29.49	-53.0	-57.8	3.7	0.00e+00	0	51	104	0	77	25287
2026-01-16 21:09:28.48	27.17	30.05	-52.9	-57.5	3.7	0.00e+00	0	51	104	0	77	24430
2026-01-16 21:09:30.47	27.47	30.61	-52.8	-57.1	3.7	0.00e+00	0	51	104	0	77	23225
2026-01-16 21:09:32.46	27.78	31.18	-53.0	-57.4	3.7	0.00e+00	0	51	104	0	77	24008
2026-01-16 21:09:34.45	28.10	31.76	-53.2	-57.9	3.7	0.00e+00	0	51	104	0	77	25504
2026-01-16 21:09:36.65	28.47	32.42	-52.6	-56.7	3.7	0.00e+00	0	51	104	0	77	22204
2026-01-16 21:09:38.68	28.83	33.05	-53.1	-57.4	3.7	0.00e+00	0	51	104	0	77	24015
2026-01-16 21:09:40.69	29.20	33.68	-53.5	-57.7	3.7	0.00e+00	0	51	104	0	77	24942
2026-01-16 21:09:42.69	29.58	34.32	-53.8	-58.0	3.7	0.00e+00	0	51	104	0	78	24455
2026-01-16 21:09:44.70	29.98	34.98	-53.6	-57.7	3.7	0.00e+00	0	51	104	0	78	23554
2026-01-16 21:09:46.70	30.40	35.65	-53.7	-58.0	3.7	0.00e+00	0	51	104	0	78	24500
2026-01-16 21:09:48.85	30.86	36.40	-53.1	-56.9	3.7	0.00e+00	0	51	104	0	78	21442
2026-01-16 21:09:50.84	31.32	37.10	-52.7	-56.4	3.7	0.00e+00	0	51	104	0	76	22774
2026-01-16 21:09:52.96	31.82	37.86	-52.6	-56.4	3.7	0.00e+00	0	51	104	0	76	22746
2026-01-16 21:09:55.28	32.40	38.72	-52.0	-55.3	3.7	0.00e+00	0	51	104	0	76	20026
2026-01-16 21:09:57.24	32.92	39.46	-51.5	-54.5	3.9	0.00e+00	0	51	104	0	75	19444
2026-01-16 21:09:59.23	33.47	40.23	-52.8	-56.9	3.7	0.00e+00	0	51	104	0	76	23985
2026-01-16 21:10:01.21	34.05	41.01	-53.6	-57.7	3.7	0.00e+00	0	51	104	0	77	24910
2026-01-16 21:10:03.21	34.66	41.82	-53.0	-56.8	3.7	0.00e+00	0	51	104	0	77	22480
2026-01-16 21:10:05.26	35.33	42.66	-53.9	-58.4	3.7	0.00e+00	0	51	104	0	78	25388
2026-01-16 21:10:07.28	36.02	43.51	-53.9	-58.1	3.7	0.00e+00	0	51	104	0	78	24656
2026-01-16 21:10:09.27	36.73	44.37	-53.9	-58.3	3.7	0.00e+00	0	51	104	0	78	25273
2026-01-16 21:10:11.26	37.49	45.24	-53.9	-58.3	3.7	0.00e+00	0	51	104	0	78	25241
2026-01-16 21:10:13.25	38.29	46.13	-53.6	-57.6	3.7	0.00e+00	0	51	104	0	78	23202
2026-01-16 21:10:15.24	39.15	47.03	-54.0	-58.2	3.7	0.00e+00	0	51	104	0	78	24955
2026-01-16 21:10:17.23	40.05	47.95	-53.8	-58.1	3.7	0.00e+00	0	51	104	0	78	24628
2026-01-16 21:10:19.28	41.04	48.91	-53.7	-58.0	3.7	0.00e+00	0	51	104	0	78	24509
2026-01-16 21:10:21.27	42.06	49.85	-53.7	-58.2	3.7	0.00e+00	0	51	104	0	78	24904
2026-01-16 21:10:23.40	43.23	50.88	-53.8	-58.1	3.7	0.00e+00	0	51	104	0	78	24741
2026-01-16 21:10:25.39	44.41	51.85	-53.7	-58.0	3.7	0.00e+00	0	51	104	0	78	24498
2026-01-16 21:10:27.41	45.68	52.85	-54.0	-58.2	3.7	0.00e+00	0	51	104	0	78	24921
2026-01-16 21:10:29.40	47.02	53.83	-54.0	-58.3	3.7	0.00e+00	0	51	104	0	78	25215
2026-01-16 21:10:31.75	48.73	55.01	-54.1	-58.6	3.7	0.00e+00	0	51	104	0	78	26163
2026-01-16 21:10:33.91	50.43	56.08	-54.1	-58.5	3.7	0.00e+00	0	51	104	0	78	25866
2026-01-16 21:10:35.90	52.12	57.08	-54.0	-58.4	3.7	0.00e+00	0	51	104	0	78	25492
2026-01-16 21:10:37.89	53.94	58.06	-54.1	-58.4	3.7	0.00e+00	0	51	104	0	78	25660
2026-01-16 21:10:39.90	55.92	59.05	-54.1	-58.5	3.7	0.00e+00	0	51	104	0	78	25679
2026-01-16 21:10:41.90	58.05	60.01	-54.0	-58.4	3.7	0.00e+00	0	51	104	0	78	25533
2026-01-16 21:10:44.11	60.59	61.05	-54.1	-58.4	3.7	0.00e+00	0	51	104	0	78	25391
2026-01-16 21:10:46.11	63.08	61.97	-54.0	-58.3	3.7	0.00e+00	0	51	104	0	78	25269
2026-01-16 21:10:48.26	65.96	62.91	-54.1	-58.4	3.7	0.00e+00	0	51	104	0	79	24052
2026-01-16 21:10:50.29	68.90	63.75	-54.1	-58.5	3.7	0.00e+00	0	51	104	0	79	24299
2026-01-16 21:10:52.28	71.99	64.52	-53.9	-58.2	3.7	0.00e+00	0	51	104	0	79	23617
2026-01-16 21:10:54.27	75.29	65.23	-53.6	-57.6	3.7	0.00e+00	0	51	104	0	79	22077
2026-01-16 21:10:56.26	78.79	65.87	-53.8	-58.0	3.7	0.00e+00	0	51	104	0	78	24253
2026-01-16 21:10:58.26	82.51	66.43	-53.0	-57.7	3.7	0.00e+00	0	51	104	0	78	23481
2026-01-16 21:11:00.27	86.44	66.90	-53.4	-58.0	3.7	0.00e+00	0	51	104	0	78	24483
2026-01-16 21:11:02.26	90.48	67.27	-53.7	-58.3	3.7	0.00e+00	0	51	104	0	78	25111
2026-01-16 21:11:04.51	95.21	67.56	-53.9	-58.4	3.7	0.00e+00	0	51	104	0	78	25593
2026-01-16 21:11:06.50	99.47	67.70	-53.4	-58.2	3.6	0.00e+00	0	51	104	0	78	24857
2026-01-16 21:11:08.49	103.78	67.72	-54.1	-58.5	3.7	0.00e+00	0	51	104	0	79	24403
2026-01-16 21:11:10.83	108.81	67.61	-54.1	-58.6	3.7	0.00e+00	0	51	104	0	79	24570
2026-01-16 21:11:13.10	113.61	67.35	-54.1	-58.5	3.7	0.00e+00	0	51	104	0	79	24363
2026-01-16 21:11:15.17	117.86	66.99	-53.7	-58.2	3.7	0.00e+00	0	51	104	0	79	23521
2026-01-16 21:11:17.22	121.91	66.53	-53.4	-57.4	3.7	0.00e+00	0	51	104	0	78	22868
2026-01-16 21:11:19.21	125.66	65.99	-54.1	-58.3	3.7	0.00e+00	0	51	104	0	78	25173
2026-01-16 21:11:21.22	129.24	65.36	-54.0	-58.1	3.7	0.00e+00	0	51	104	0	78	24806
2026-01-16 21:11:23.49	133.04	64.56	-54.0	-58.2	3.7	0.00e+00	0	51	104	0	78	24890
2026-01-16 21:11:25.83	136.67	63.65	-53.7	-58.1	3.7	0.00e+00	0	51	104	0	78	24597
2026-01-16 21:11:28.10	139.92	62.70	-53.5	-57.7	3.7	0.00e+00	0	51	104	0	78	23463
2026-01-16 21:11:30.38	142.93	61.69	-52.6	-57.4	3.7	0.00e+00	0	51	104	0	77	24033
2026-01-16 21:11:32.65	145.68	60.64	-53.6	-57.6	3.7	0.00e+00	0	51	104	0	77	24690
2026-01-16 21:11:35.04	148.33	59.49	-53.8	-57.8	3.7	0.00e+00	0	51	104	0	78	23953
2026-01-16 21:11:37.32	150.66	58.38	-53.8	-58.3	3.6	0.00e+00	0	51	104	0	78	25251
2026-01-16 21:11:39.32	152.53	57.39	-54.0	-58.2	3.7	0.00e+00	0	51	104	0	78	25052
2026-01-16 21:11:41.33	154.29	56.38	-54.1	-58.4	3.7	0.00e+00	0	51	104	0	78	25621
2026-01-16 21:11:43.34	155.92	55.38	-53.8	-58.3	3.7	0.00e+00	0	51	104	0	79	23911
2026-01-16 21:11:45.34	157.43	54.37	-53.9	-58.3	3.7	0.00e+00	0	51	104	0	79	23895
2026-01-16 21:11:47.47	158.92	53.31	-54.0	-58.4	3.7	0.00e+00	0	51	104	0	79	23992
2026-01-16 21:11:49.54	160.27	52.28	-54.0	-58.4	3.7	0.00e+00	0	51	104	0	79	23968
2026-01-16 21:11:51.53	161.48	51.30	-54.1	-58.5	3.7	0.00e+00	0	51	104	0	79	24318
2026-01-16 21:11:53.64	162.68	50.28	-53.8	-58.1	3.7	0.00e+00	0	51	104	0	79	23264
2026-01-16 21:11:55.63	163.74	49.32	-54.0	-58.4	3.7	0.00e+00	0	51	104	0	79	23993
2026-01-16 21:11:57.56	164.70	48.40	-54.0	-58.0	3.7	0.00e+00	0	51	104	0	79	23051
2026-01-16 21:11:59.55	165.64	47.47	-53.9	-58.2	3.7	0.00e+00	0	51	104	0	79	23470
2026-01-16 21:12:01.53	166.51	46.56	-54.0	-58.6	3.7	0.00e+00	0	51	104	0	79	24706
2026-01-16 21:12:03.52	167.34	45.66	-54.1	-58.5	3.7	0.00e+00	0	51	104	0	79	24265
2026-01-16 21:12:05.64	168.18	44.72	-53.9	-58.3	3.7	0.00e+00	0	51	104	0	79	23963
2026-01-16 21:12:07.83	168.99	43.77	-53.8	-58.3	3.7	0.00e+00	0	51	104	0	79	23916
2026-01-16 21:12:10.03	169.75	42.83	-54.0	-58.4	3.7	0.00e+00	0	51	104	0	79	24076
2026-01-16 21:12:12.22	170.47	41.92	-53.9	-58.3	3.7	0.00e+00	0	51	104	0	79	23893
2026-01-16 21:12:14.21	171.09	41.11	-53.6	-57.9	3.7	0.00e+00	0	51	104	0	79	22789
2026-01-16 21:12:16.20	171.67	40.32	-53.7	-58.0	3.7	0.00e+00	0	51	104	0	79	22940
2026-01-16 21:12:18.19	172.23	39.54	-53.9	-58.2	3.7	0.00e+00	0	51	104	0	79	23543
2026-01-16 21:12:20.18	172.76	38.78	-53.9	-58.2	3.7	0.00e+00	0	51	104	0	79	23623
2026-01-16 21:12:22.18	173.27	38.03	-53.6	-58.2	3.7	0.00e+00	0	51	104	0	78	25041
2026-01-16 21:12:24.12	173.75	37.32	-53.6	-58.3	3.7	0.00e+00	0	51	104	0	78	25134
2026-01-16 21:12:26.11	174.21	36.61	-53.7	-58.0	3.7	0.00e+00	0	51	104	0	78	24409
2026-01-16 21:12:28.26	174.69	35.86	-53.6	-58.0	3.7	0.00e+00	0	51	104	0	78	24343
2026-01-16 21:12:30.25	175.11	35.18	-53.7	-58.1	3.7	0.00e+00	0	51	104	0	78	24657
2026-01-16 21:12:32.24	175.51	34.52	-53.9	-58.1	3.7	0.00e+00	0	51	104	0	78	24731
2026-01-16 21:12:34.23	175.90	33.87	-54.0	-58.4	3.7	0.00e+00	0	51	104	0	78	25607
2026-01-16 21:12:36.21	176.27	33.24	-53.9	-58.4	3.7	0.00e+00	0	51	104	0	78	25395
2026-01-16 21:12:38.21	176.63	32.61	-53.7	-58.2	3.7	0.00e+00	0	51	104	0	78	24818
2026-01-16 21:12:40.20	176.97	32.00	-53.7	-58.1	3.7	0.00e+00	0	51	104	0	78	24532
2026-01-16 21:12:42.18	177.30	31.41	-53.5	-58.0	3.7	0.00e+00	0	51	104	0	78	24252
2026-01-16 21:12:44.17	177.61	30.83	-53.2	-57.7	3.7	0.00e+00	0	51	104	0	78	23497
2026-01-16 21:12:46.16	177.92	30.26	-53.5	-57.9	3.7	0.00e+00	0	51	104	0	78	24114
2026-01-16 21:12:48.15	178.22	29.71	-53.7	-58.0	3.7	0.00e+00	0	51	104	0	78	24352
2026-01-16 21:12:50.14	178.50	29.16	-53.8	-58.2	3.7	0.00e+00	0	51	104	0	78	24885
2026-01-16 21:12:52.20	178.78	28.61	-53.8	-58.2	3.7	0.00e+00	0	51	104	0	78	24857
2026-01-16 21:12:54.39	179.07	28.04	-53.4	-57.7	3.7	0.00e+00	0	51	104	0	78	23642
2026-01-16 21:12:56.57	179.35	27.48	-53.4	-57.6	3.7	0.00e+00	0	51	104	0	78	23388
2026-01-16 21:12:58.56	179.60	26.99	-53.7	-58.1	3.7	0.00e+00	0	51	104	0	78	24586
2026-01-16 21:13:00.71	179.86	26.46	-53.6	-58.0	3.7	0.00e+00	0	51	104	0	78	24394
2026-01-16 21:13:02.77	180.09	25.97	-53.6	-58.1	3.7	0.00e+00	0	51	104	0	78	24576
2026-01-16 21:13:04.81	180.32	25.49	-53.6	-58.1	3.7	0.00e+00	0	51	104	0	78	24557
2026-01-16 21:13:06.82	180.54	25.03	-53.5	-58.0	3.7	0.00e+00	0	51	104	0	78	24300
2026-01-16 21:13:08.80	180.75	24.58	-53.0	-57.3	3.7	0.00e+00	0	51	104	0	77	23786
2026-01-16 21:13:10.79	180.95	24.15	-52.8	-57.3	3.7	0.00e+00	0	51	104	0	77	23788
2026-01-16 21:13:12.83	181.15	23.71	-52.6	-56.9	3.7	0.00e+00	0	51	104	0	77	22878
2026-01-16 21:13:14.83	181.34	23.28	-53.0	-57.6	3.7	0.00e+00	0	51	104	0	77	24582
2026-01-16 21:13:16.82	181.53	22.87	-52.7	-56.9	3.7	0.00e+00	0	51	104	0	76	24233
2026-01-16 21:13:19.08	181.73	22.41	-52.8	-57.4	3.7	0.00e+00	0	51	104	0	76	25434
2026-01-16 21:13:21.24	181.92	21.98	-52.6	-57.2	3.7	0.00e+00	0	51	104	0	76	24834
2026-01-16 21:13:23.23	182.09	21.59	-52.8	-57.3	3.7	0.00e+00	0	51	104	0	76	25152
2026-01-16 21:13:25.24	182.25	21.21	-52.9	-57.4	3.7	0.00e+00	0	51	104	0	76	25507
2026-01-16 21:13:27.25	182.42	20.83	-52.9	-57.4	3.7	0.00e+00	0	51	104	0	76	25640
2026-01-16 21:13:29.25	182.57	20.46	-52.9	-57.4	3.7	0.00e+00	0	51	104	0	76	25497
2026-01-16 21:13:31.25	182.72	20.10	-52.7	-57.3	3.7	0.00e+00	0	51	104	0	76	25315
2026-01-16 21:13:33.24	182.87	19.74	-52.6	-57.4	3.7	0.00e+00	0	51	104	0	76	25437
2026-01-16 21:13:35.25	183.02	19.39	-52.8	-57.5	3.7	0.00e+00	0	51	104	0	76	25809
2026-01-16 21:13:37.24	183.16	19.05	-52.6	-57.3	3.7	0.00e+00	0	51	104	0	77	23873
2026-01-16 21:13:39.24	183.30	18.71	-52.5	-57.1	3.7	0.00e+00	0	51	104	0	77	23222
2026-01-16 21:13:41.27	183.44	18.37	-53.0	-57.4	3.7	0.00e+00	0	51	104	0	77	24035
2026-01-16 21:13:43.26	183.57	18.05	-53.0	-57.4	3.7	0.00e+00	0	51	104	0	77	24211
2026-01-16 21:13:45.25	183.69	17.73	-53.0	-57.6	3.7	0.00e+00	0	51	104	0	77	24655
2026-01-16 21:13:47.24	183.82	17.41	-52.8	-57.2	3.7	0.00e+00	0	51	104	0	77	23462
2026-01-16 21:13:49.24	183.94	17.10	-52.8	-57.1	3.7	0.00e+00	0	51	104	0	77	23332
2026-01-16 21:13:51.24	184.06	16.79	-52.8	-57.2	3.7	0.00e+00	0	51	104	0	77	23639
2026-01-16 21:13:53.23	184.18	16.49	-52.9	-57.4	3.7	0.00e+00	0	51	104	0	77	23987
2026-01-16 21:13:55.24	184.29	16.19	-52.1	-56.8	3.7	0.00e+00	0	51	104	0	76	23844
2026-01-16 21:13:57.23	184.41	15.90	-52.2	-56.9	3.7	0.00e+00	0	51	104	0	76	24016
2026-01-16 21:13:59.26	184.52	15.61	-52.1	-56.8	3.7	0.00e+00	0	51	104	0	76	23948
2026-01-16 21:14:01.26	184.63	15.33	-52.0	-56.8	3.7	0.00e+00	0	51	104	0	75	25202
2026-01-16 21:14:03.25	184.73	15.05	-52.0	-56.8	3.7	0.00e+00	0	51	104	0	75	25110
2026-01-16 21:14:05.24	184.83	14.78	-52.1	-56.9	3.7	0.00e+00	0	51	104	0	75	25492
2026-01-16 21:14:07.25	184.93	14.50	-52.0	-56.7	3.7	0.00e+00	0	51	104	0	75	25090
2026-01-16 21:14:09.29	185.04	14.23	-52.0	-56.7	3.7	0.00e+00	0	51	104	0	75	24880
2026-01-16 21:14:11.28	185.13	13.97	-52.1	-56.8	3.7	0.00e+00	0	51	104	0	75	25167
2026-01-16 21:14:13.25	185.23	13.71	-52.0	-56.5	3.7	0.00e+00	0	51	104	0	75	24394
2026-01-16 21:14:15.23	185.32	13.46	-52.0	-56.4	3.7	0.00e+00	0	51	104	0	75	24150
2026-01-16 21:14:17.22	185.41	13.21	-52.2	-56.9	3.7	0.00e+00	0	51	104	0	75	25508
2026-01-16 21:14:19.21	185.50	12.96	-51.9	-56.4	3.7	0.00e+00	0	51	104	0	75	24149
2026-01-16 21:14:21.20	185.59	12.71	-51.9	-56.3	3.7	0.00e+00	0	51	104	0	75	23852
2026-01-16 21:14:23.19	185.67	12.47	-52.0	-56.5	3.7	0.00e+00	0	51	104	0	75	24403
2026-01-16 21:14:25.18	185.76	12.23	-52.1	-56.9	3.7	0.00e+00	0	51	104	0	75	25546
2026-01-16 21:14:27.16	185.84	12.00	-51.9	-56.6	3.7	0.00e+00	0	51	104	0	75	24802
2026-01-16 21:14:29.14	185.92	11.77	-52.1	-56.9	3.7	0.00e+00	0	51	104	0	75	25506
2026-01-16 21:14:31.13	186.00	11.54	-52.0	-56.8	3.7	0.00e+00	0	51	104	0	75	25249
2026-01-16 21:14:33.12	186.08	11.31	-52.0	-56.8	3.7	0.00e+00	0	51	104	0	75	25375
2026-01-16 21:14:35.19	186.16	11.08	-52.2	-56.9	3.7	0.00e+00	0	51	104	0	75	25435
2026-01-16 21:14:37.35	186.24	10.84	-52.1	-57.0	3.7	0.00e+00	0	51	104	0	75	25816
2026-01-16 21:14:39.63	186.33	10.59	-52.1	-56.7	3.7	0.00e+00	0	51	104	0	75	25012
2026-01-16 21:14:41.90	186.41	10.34	-52.0	-56.6	3.7	0.00e+00	0	51	104	0	75	24705
2026-01-16 21:14:44.34	186.50	10.08	-52.3	-57.0	3.7	0.00e+00	0	51	104	0	75	25712
2026-01-16 21:14:46.32	186.57	9.87	-52.1	-56.8	3.7	0.00e+00	0	51	104	0	75	25179
2026-01-16 21:14:48.33	186.64	9.66	-52.3	-57.0	3.7	0.00e+00	0	51	104	0	75	25974
2026-01-16 21:14:50.68	186.72	9.42	-52.3	-57.0	3.7	0.00e+00	0	51	104	0	75	25818
2026-01-16 21:14:52.66	186.79	9.22	-52.3	-57.1	3.7	0.00e+00	0	51	104	0	75	25983
2026-01-16 21:14:54.65	186.85	9.02	-52.1	-56.9	3.7	0.00e+00	0	51	104	0	75	25414
2026-01-16 21:14:56.63	186.92	8.82	-52.1	-56.8	3.7	0.00e+00	0	51	104	0	76	23925
2026-01-16 21:14:58.62	186.98	8.62	-52.7	-57.2	3.7	0.00e+00	0	51	104	0	76	24892
2026-01-16 21:15:00.61	187.04	8.43	-53.7	-58.0	3.7	0.00e+00	0	51	104	0	78	24514
2026-01-16 21:15:02.60	187.11	8.24	-54.0	-58.2	3.7	0.00e+00	0	51	104	0	78	24993
2026-01-16 21:15:04.59	187.17	8.05	-54.2	-58.5	3.7	0.00e+00	0	51	104	0	78	25957
2026-01-16 21:15:06.57	187.23	7.86	-54.2	-58.5	3.7	0.00e+00	0	51	104	0	79	24497
2026-01-16 21:15:08.56	187.29	7.67	-54.1	-58.4	3.7	0.00e+00	0	51	104	0	79	24074
2026-01-16 21:15:10.55	187.35	7.49	-54.3	-58.6	3.7	0.00e+00	0	51	104	0	79	24554
2026-01-16 21:15:12.54	187.40	7.30	-54.3	-58.6	3.7	0.00e+00	0	51	104	0	79	24667
2026-01-16 21:15:14.52	187.46	7.12	-53.6	-58.1	3.7	0.00e+00	0	51	104	0	78	24694
2026-01-16 21:15:16.51	187.52	6.94	-54.1	-58.3	3.7	0.00e+00	0	51	104	0	79	23792
2026-01-16 21:15:18.50	187.57	6.77	-53.8	-57.8	3.7	0.00e+00	0	51	104	0	79	22589
2026-01-16 21:15:20.48	187.63	6.59	-52.9	-57.8	3.7	0.00e+00	0	51	104	0	77	25348
2026-01-16 21:15:22.47	187.68	6.42	-53.1	-57.5	3.7	0.00e+00	0	51	104	0	77	24333
2026-01-16 21:15:24.46	187.73	6.24	-53.1	-57.5	3.7	0.00e+00	0	51	104	0	77	24395
2026-01-16 21:15:26.45	187.79	6.07	-53.1	-57.5	3.7	0.00e+00	0	51	104	0	77	24322
2026-01-16 21:15:28.43	187.84	5.90	-53.1	-57.5	3.7	0.00e+00	0	51	104	0	77	24347
2026-01-16 21:15:30.42	187.89	5.73	-53.1	-57.5	3.7	0.00e+00	0	51	104	0	77	24296
2026-01-16 21:15:32.41	187.94	5.57	-53.1	-57.5	3.7	0.00e+00	0	51	104	0	77	24345
2026-01-16 21:15:34.40	187.99	5.40	-53.1	-57.5	3.7	0.00e+00	0	51	104	0	77	24337
2026-01-16 21:15:36.38	188.04	5.24	-53.1	-57.5	3.7	0.00e+00	0	51	104	0	77	24276

#Closed at: 2026-01-16 21:15:38
#Recorded file [0 MB]: D:/Data/31040_260117_000633.dat