passes_logs/2026/01/16/T1/T1__20260116_002703_NOAA_21_JPSS-2_rec.log

#Pass ID: 20260116_002703_NOAA 21 (JPSS-2)
#Satellite: NOAA 21 (JPSS-2)
#Configuration: NOAA 21
#almurnet v.1.7.20251203
#Start time: 2026-01-16 00:27:05

#Version: 2.0.20230620
#Station: T1
#Location: 37.570604 lon 55.790049 lat
#TLE: 1 54234U 22150A   26015.43562254  .00000028  00000+0  34201-4 0  9996
#TLE: 2 54234  98.7498 316.3301 0000635 288.4972  71.6135 14.19534768164873

#Time	Az	El	Level	Level2	SNR	BER	BlckErr	Temp	State	Recorded	gain1	gain2
2026-01-16 00:27:05.95	11.56	5.15	-46.6	-62.2	3.8	1.49e+00	0	40	0	0	64	22055
2026-01-16 00:27:08.92	11.45	5.36	-46.6	-62.0	3.8	1.49e+00	0	41	104	0	64	21668
2026-01-16 00:27:11.90	11.34	5.57	-46.6	-61.9	3.8	1.49e+00	0	41	104	0	64	21282
2026-01-16 00:27:14.88	11.22	5.78	-46.6	-61.7	3.8	1.49e+00	0	41	104	0	64	20881
2026-01-16 00:27:17.85	11.11	5.99	-46.6	-61.5	3.8	1.49e+00	0	41	104	0	64	20437
2026-01-16 00:27:20.84	10.99	6.21	-46.6	-61.2	3.8	1.49e+00	0	41	104	0	64	19763
2026-01-16 00:27:23.82	10.87	6.42	-46.5	-60.7	3.8	1.49e+00	0	41	104	0	64	18691
2026-01-16 00:27:26.79	10.75	6.64	-46.5	-60.8	3.8	1.49e+00	0	41	104	0	64	18945
2026-01-16 00:27:29.77	10.63	6.86	-46.6	-61.8	3.8	1.49e+00	0	41	104	0	64	21049
2026-01-16 00:27:32.75	10.50	7.08	-46.6	-61.9	3.8	1.49e+00	0	42	104	0	64	21279
2026-01-16 00:27:35.73	10.38	7.30	-46.4	-58.5	4.2	1.47e+00	0	42	104	0	64	14476
2026-01-16 00:27:38.71	10.25	7.52	-46.0	-54.9	6.1	3.27e-01	0	41	0	0	63	10141
2026-01-16 00:27:41.69	10.12	7.75	-45.4	-52.0	8.8	3.80e-02	0	42	0	0	62	7719
2026-01-16 00:27:44.67	9.98	7.98	-44.6	-49.8	11.2	2.04e-03	0	42	0	0	61	6281
2026-01-16 00:27:47.65	9.85	8.21	-43.9	-48.1	12.9	5.18e-05	0	42	0	0	59	5819
2026-01-16 00:27:50.63	9.71	8.44	-43.5	-47.3	13.7	4.50e-06	0	42	0	0	59	5303
2026-01-16 00:27:53.62	9.57	8.67	-43.9	-48.0	13.0	3.89e-05	0	42	0	0	59	5758
2026-01-16 00:27:56.60	9.42	8.91	-45.0	-50.9	10.1	4.53e-03	0	42	0	0	60	7553
2026-01-16 00:27:59.58	9.28	9.15	-46.2	-56.7	5.0	5.13e-01	0	42	0	0	63	12377
2026-01-16 00:28:02.57	9.13	9.39	-45.5	-51.7	9.5	2.72e-04	0	42	0	0	61	7869
2026-01-16 00:28:05.55	8.98	9.63	-42.7	-45.6	15.4	0.00e+00	0	42	0	0	57	4911
2026-01-16 00:28:08.54	8.82	9.87	-42.3	-45.1	16.0	0.00e+00	0	42	0	0	56	4875
2026-01-16 00:28:11.52	8.67	10.12	-42.0	-44.6	16.5	0.00e+00	0	42	0	0	56	4632
2026-01-16 00:28:14.51	8.51	10.37	-41.7	-44.2	16.7	0.00e+00	0	42	0	0	55	4697
2026-01-16 00:28:17.49	8.34	10.62	-41.5	-44.1	16.9	0.00e+00	0	42	0	0	55	4599
2026-01-16 00:28:20.47	8.18	10.87	-41.5	-44.0	16.9	0.00e+00	0	42	0	0	55	4592
2026-01-16 00:28:23.46	8.01	11.13	-41.4	-43.8	17.2	0.00e+00	0	42	0	0	54	4707
2026-01-16 00:28:26.44	7.84	11.39	-41.4	-43.8	17.1	0.00e+00	0	43	0	0	54	4725
2026-01-16 00:28:29.42	7.66	11.65	-41.2	-43.5	17.4	0.00e+00	0	42	0	0	54	4593
2026-01-16 00:28:32.40	7.48	11.91	-41.2	-43.5	17.4	0.00e+00	0	42	0	0	54	4596
2026-01-16 00:28:35.53	7.29	12.19	-41.1	-43.4	17.5	0.00e+00	0	42	0	0	54	4540
2026-01-16 00:28:38.37	7.11	12.44	-41.0	-43.3	17.5	0.00e+00	0	42	0	0	53	4756
2026-01-16 00:28:41.50	6.92	12.73	-40.9	-43.3	17.7	0.00e+00	0	43	0	0	53	4708
2026-01-16 00:28:44.35	6.73	12.99	-40.9	-43.2	17.7	0.00e+00	0	42	0	0	53	4699
2026-01-16 00:28:47.47	6.53	13.28	-41.0	-43.3	17.7	0.00e+00	0	42	0	0	53	4714
2026-01-16 00:28:50.31	6.33	13.54	-41.1	-43.4	17.6	0.00e+00	0	43	0	0	53	4779
2026-01-16 00:28:53.44	6.12	13.84	-41.1	-43.3	17.6	0.00e+00	0	43	0	0	53	4756
2026-01-16 00:28:56.29	5.92	14.11	-41.0	-43.2	17.7	0.00e+00	0	43	0	0	53	4700
2026-01-16 00:28:59.49	5.69	14.42	-40.9	-43.2	17.7	0.00e+00	0	43	0	0	53	4705
2026-01-16 00:29:02.33	5.48	14.70	-40.9	-43.2	17.8	0.00e+00	0	43	0	0	53	4680
2026-01-16 00:29:05.62	5.24	15.02	-40.9	-43.2	17.8	0.00e+00	0	43	0	0	53	4677
2026-01-16 00:29:08.32	5.03	15.29	-41.1	-43.4	17.6	0.00e+00	0	43	0	0	53	4798
2026-01-16 00:29:11.59	4.78	15.62	-41.0	-43.2	17.7	0.00e+00	0	43	0	0	53	4695
2026-01-16 00:29:14.47	4.55	15.92	-41.1	-43.4	17.6	0.00e+00	0	43	0	0	53	4803
2026-01-16 00:29:17.59	4.29	16.24	-41.2	-43.4	17.6	0.00e+00	0	43	0	0	53	4788
2026-01-16 00:29:20.82	4.03	16.57	-41.3	-43.5	17.6	0.00e+00	0	43	0	0	53	4834
2026-01-16 00:29:23.66	3.78	16.87	-41.4	-43.5	17.6	0.00e+00	0	43	0	0	53	4845
2026-01-16 00:29:26.79	3.51	17.21	-41.5	-43.7	17.4	0.00e+00	0	43	0	0	53	4938
2026-01-16 00:29:29.63	3.26	17.51	-41.5	-43.6	17.5	0.00e+00	0	43	0	0	53	4887
2026-01-16 00:29:32.91	2.96	17.87	-41.6	-43.6	17.5	0.00e+00	0	43	0	0	53	4913
2026-01-16 00:29:35.75	2.70	18.18	-41.5	-43.6	17.5	0.00e+00	0	43	0	0	53	4892
2026-01-16 00:29:39.10	2.38	18.56	-41.6	-43.6	17.5	0.00e+00	0	43	0	0	53	4926
2026-01-16 00:29:42.03	2.09	18.89	-41.5	-43.5	17.6	0.00e+00	0	43	0	0	53	4841
2026-01-16 00:29:45.44	1.75	19.28	-41.5	-43.5	17.6	0.00e+00	0	43	0	0	53	4827
2026-01-16 00:29:48.20	1.47	19.60	-41.4	-43.4	17.7	0.00e+00	0	43	0	0	53	4796
2026-01-16 00:29:51.58	1.12	19.99	-41.0	-43.0	18.1	0.00e+00	0	43	0	0	53	4560
2026-01-16 00:29:54.37	0.82	20.32	-40.8	-42.7	18.3	0.00e+00	0	43	0	0	53	4441
2026-01-16 00:29:57.77	0.44	20.73	-40.6	-42.4	18.6	0.00e+00	0	43	0	0	53	4285
2026-01-16 00:30:00.49	0.13	21.06	-40.6	-42.5	18.5	0.00e+00	0	43	0	0	53	4304
2026-01-16 00:30:03.76	359.76	21.46	-40.4	-42.3	18.7	0.00e+00	0	43	0	0	52	4473
2026-01-16 00:30:06.47	359.43	21.80	-40.4	-42.3	18.7	0.00e+00	0	43	0	0	52	4477
2026-01-16 00:30:09.74	359.04	22.21	-40.3	-42.2	18.8	0.00e+00	0	43	0	0	52	4428
2026-01-16 00:30:12.45	358.70	22.55	-40.1	-42.0	19.1	0.00e+00	0	43	0	0	52	4309
2026-01-16 00:30:15.72	358.28	22.97	-40.2	-42.0	19.1	0.00e+00	0	43	0	0	52	4329
2026-01-16 00:30:18.57	357.91	23.34	-40.3	-42.2	18.9	0.00e+00	0	43	0	0	52	4405
2026-01-16 00:30:21.86	357.46	23.77	-40.1	-42.0	19.1	0.00e+00	0	43	0	0	52	4295
2026-01-16 00:30:24.57	357.09	24.13	-40.0	-41.9	19.2	0.00e+00	0	43	0	0	52	4272
2026-01-16 00:30:27.84	356.63	24.57	-40.1	-42.1	19.0	0.00e+00	0	43	0	0	52	4374
2026-01-16 00:30:30.54	356.23	24.94	-40.3	-42.4	18.8	0.00e+00	0	43	0	0	52	4510
2026-01-16 00:30:33.81	355.75	25.38	-40.4	-42.5	18.7	0.00e+00	0	43	0	0	52	4590
2026-01-16 00:30:36.51	355.33	25.76	-40.4	-42.5	18.7	0.00e+00	0	43	0	0	52	4546
2026-01-16 00:30:39.78	354.81	26.22	-40.6	-42.6	18.6	0.00e+00	0	43	0	0	52	4620
2026-01-16 00:30:42.50	354.37	26.60	-40.8	-42.7	18.5	0.00e+00	0	43	0	0	52	4697
2026-01-16 00:30:45.78	353.83	27.07	-41.0	-43.0	18.2	0.00e+00	0	43	0	0	52	4829
2026-01-16 00:30:48.48	353.37	27.46	-41.2	-43.2	18.0	0.00e+00	0	43	0	0	53	4687
2026-01-16 00:30:51.76	352.79	27.94	-41.2	-43.2	18.1	0.00e+00	0	43	0	0	53	4656
2026-01-16 00:30:54.53	352.29	28.35	-41.2	-43.1	18.1	0.00e+00	0	43	0	0	53	4651
2026-01-16 00:30:57.80	351.68	28.83	-41.3	-43.3	17.9	0.00e+00	0	43	0	0	53	4727
2026-01-16 00:31:00.53	351.16	29.24	-41.4	-43.3	17.9	0.00e+00	0	43	0	0	53	4750
2026-01-16 00:31:03.83	350.51	29.74	-41.1	-43.1	18.2	0.00e+00	0	43	0	0	53	4613
2026-01-16 00:31:06.54	349.96	30.16	-41.0	-42.9	18.3	0.00e+00	0	43	0	0	53	4496
2026-01-16 00:31:09.81	349.27	30.66	-41.1	-43.0	18.0	0.00e+00	0	43	0	0	53	4592
2026-01-16 00:31:12.53	348.69	31.08	-41.4	-43.3	17.9	0.00e+00	0	43	0	0	53	4749
2026-01-16 00:31:15.80	347.96	31.59	-41.4	-43.4	17.9	0.00e+00	0	43	0	0	53	4783
2026-01-16 00:31:18.52	347.34	32.02	-41.3	-43.4	17.9	0.00e+00	0	43	0	0	53	4769
2026-01-16 00:31:21.80	346.57	32.54	-41.5	-43.6	17.7	0.00e+00	0	43	0	0	53	4891
2026-01-16 00:31:24.62	345.89	32.98	-41.5	-43.6	17.8	0.00e+00	0	43	0	0	53	4876
2026-01-16 00:31:27.74	345.11	33.48	-41.5	-43.5	17.8	0.00e+00	0	43	0	0	53	4858
2026-01-16 00:31:30.85	344.31	33.98	-41.7	-43.8	17.6	0.00e+00	0	43	0	0	54	4721
2026-01-16 00:31:33.70	343.56	34.44	-42.0	-44.1	17.3	0.00e+00	0	43	0	0	54	4898
2026-01-16 00:31:36.91	342.68	34.95	-41.9	-44.1	17.2	0.00e+00	0	43	0	0	54	4898
2026-01-16 00:31:39.83	341.86	35.42	-42.3	-44.6	16.8	0.00e+00	0	43	0	0	55	4889
2026-01-16 00:31:43.08	340.92	35.95	-42.9	-45.2	16.4	0.00e+00	0	43	0	0	56	4951
2026-01-16 00:31:45.94	340.06	36.41	-42.8	-45.0	16.6	0.00e+00	0	43	0	0	56	4856
2026-01-16 00:31:49.20	339.06	36.93	-42.7	-45.0	16.6	0.00e+00	0	43	0	0	56	4839
2026-01-16 00:31:51.91	338.19	37.36	-42.7	-44.8	16.7	0.00e+00	0	43	0	0	56	4753
2026-01-16 00:31:55.16	337.13	37.88	-42.5	-44.7	16.8	0.00e+00	0	43	0	0	56	4701
2026-01-16 00:31:58.00	336.17	38.33	-42.5	-44.7	16.9	0.00e+00	0	43	0	0	56	4658
2026-01-16 00:32:01.13	335.09	38.82	-42.8	-45.1	16.5	0.00e+00	0	43	0	0	56	4874
2026-01-16 00:32:04.00	334.06	39.27	-42.9	-45.1	16.4	0.00e+00	0	43	0	0	56	4905
2026-01-16 00:32:07.13	332.91	39.75	-42.8	-45.0	16.6	0.00e+00	0	43	0	0	56	4856
2026-01-16 00:32:09.95	331.84	40.17	-42.9	-45.4	16.2	0.00e+00	0	43	0	0	56	5044
2026-01-16 00:32:13.08	330.62	40.64	-43.3	-45.8	15.8	0.00e+00	0	43	0	0	57	5004
2026-01-16 00:32:16.22	329.37	41.10	-43.2	-45.6	16.0	0.00e+00	0	43	0	0	57	4895
2026-01-16 00:32:19.49	328.02	41.56	-43.1	-45.4	16.2	0.00e+00	0	43	0	0	57	4787
2026-01-16 00:32:22.40	326.79	41.97	-43.6	-45.9	15.6	0.00e+00	0	43	0	0	57	5087
2026-01-16 00:32:25.67	325.36	42.41	-43.6	-46.0	15.5	0.00e+00	0	43	0	0	58	4844
2026-01-16 00:32:28.46	324.12	42.77	-43.4	-45.7	15.8	0.00e+00	0	43	0	0	58	4689
2026-01-16 00:32:31.59	322.69	43.17	-43.4	-45.8	15.7	0.00e+00	0	43	0	0	58	4747
2026-01-16 00:32:34.43	321.36	43.51	-43.6	-46.1	15.5	0.00e+00	0	43	0	0	58	4891
2026-01-16 00:32:37.56	319.87	43.87	-43.7	-46.3	15.2	0.00e+00	0	43	0	0	58	5003
2026-01-16 00:32:40.40	318.48	44.18	-43.9	-46.6	15.0	0.00e+00	0	43	0	0	58	5164
2026-01-16 00:32:43.53	316.92	44.50	-43.8	-46.3	15.3	0.00e+00	0	43	0	0	58	4996
2026-01-16 00:32:46.37	315.48	44.78	-43.7	-46.1	15.5	0.00e+00	0	43	0	0	58	4914
2026-01-16 00:32:49.50	313.87	45.06	-43.1	-45.4	16.1	0.00e+00	0	43	0	0	58	4537
2026-01-16 00:32:52.37	312.36	45.30	-43.2	-45.7	15.8	0.00e+00	0	43	0	0	58	4672
2026-01-16 00:32:55.63	310.62	45.54	-43.7	-46.3	15.2	0.00e+00	0	43	0	0	58	5018
2026-01-16 00:32:58.54	309.05	45.73	-43.7	-46.2	15.4	0.00e+00	0	43	0	0	58	4951
2026-01-16 00:33:01.67	307.33	45.91	-43.3	-45.6	16.0	0.00e+00	0	43	0	0	58	4618
2026-01-16 00:33:04.64	305.69	46.06	-42.6	-44.8	16.7	0.00e+00	0	43	0	0	57	4452
2026-01-16 00:33:07.72	303.97	46.18	-43.3	-45.6	16.0	0.00e+00	0	43	0	0	57	4879
2026-01-16 00:33:10.85	302.22	46.28	-43.5	-46.0	15.6	0.00e+00	0	43	0	0	58	4829
2026-01-16 00:33:13.69	300.61	46.34	-43.3	-45.7	15.8	0.00e+00	0	43	0	0	58	4698
2026-01-16 00:33:16.82	298.84	46.39	-43.2	-45.5	16.1	0.00e+00	0	43	0	0	58	4564
2026-01-16 00:33:19.66	297.23	46.40	-42.9	-45.1	16.4	0.00e+00	0	43	0	0	57	4632
2026-01-16 00:33:22.93	295.37	46.38	-43.4	-45.8	15.8	0.00e+00	0	43	0	0	57	4990
2026-01-16 00:33:25.83	293.73	46.33	-43.4	-45.7	15.9	0.00e+00	0	43	0	0	57	4957
2026-01-16 00:33:29.03	291.92	46.26	-43.5	-45.9	15.7	0.00e+00	0	43	0	0	57	5042
2026-01-16 00:33:31.87	290.33	46.16	-43.7	-46.2	15.5	0.00e+00	0	43	0	0	58	4927
2026-01-16 00:33:35.00	288.58	46.03	-42.9	-45.1	16.5	0.00e+00	0	43	0	0	57	4620
2026-01-16 00:33:37.84	287.01	45.88	-43.2	-45.4	16.1	0.00e+00	0	43	0	0	57	4802
2026-01-16 00:33:40.97	285.30	45.69	-43.0	-45.2	16.3	0.00e+00	0	43	0	0	57	4703
2026-01-16 00:33:43.81	283.77	45.50	-42.5	-44.5	16.9	0.00e+00	0	43	0	0	56	4585
2026-01-16 00:33:47.22	281.95	45.24	-43.5	-45.9	15.7	0.00e+00	0	43	0	0	57	5094
2026-01-16 00:33:49.93	280.53	45.01	-44.0	-46.5	15.2	0.00e+00	0	43	0	0	58	5115
2026-01-16 00:33:53.21	278.84	44.71	-43.7	-46.2	15.5	0.00e+00	0	43	0	0	59	4654
2026-01-16 00:33:56.01	277.42	44.44	-43.5	-45.9	15.8	0.00e+00	0	43	0	0	58	4781
2026-01-16 00:33:59.14	275.87	44.11	-43.7	-46.1	15.3	0.00e+00	0	43	0	0	58	4877
2026-01-16 00:34:02.23	274.37	43.77	-42.3	-44.4	17.2	0.00e+00	0	43	0	0	56	4502
2026-01-16 00:34:05.07	273.01	43.43	-44.2	-46.7	14.9	0.00e+00	0	43	0	0	58	5242
2026-01-16 00:34:08.22	271.55	43.05	-44.1	-46.7	14.8	7.00e-07	0	43	0	0	60	4659
2026-01-16 00:34:11.35	270.12	42.65	-43.5	-45.8	15.6	0.00e+00	0	43	0	0	58	4758
2026-01-16 00:34:14.19	268.86	42.27	-44.3	-46.9	14.7	0.00e+00	0	43	0	0	60	4787
2026-01-16 00:34:17.40	267.47	41.83	-43.1	-45.3	16.3	0.00e+00	0	43	0	0	58	4476
2026-01-16 00:34:20.24	266.28	41.44	-43.9	-46.4	15.2	0.00e+00	0	43	0	0	58	5059
2026-01-16 00:34:23.37	264.99	40.99	-43.2	-45.4	16.2	0.00e+00	0	43	0	0	58	4540
2026-01-16 00:34:26.21	263.86	40.57	-42.7	-44.8	16.6	0.00e+00	0	43	0	0	56	4735
2026-01-16 00:34:29.34	262.64	40.10	-44.8	-47.8	13.8	9.90e-06	0	43	0	0	60	5303
2026-01-16 00:34:32.18	261.57	39.67	-42.2	-44.2	17.2	0.00e+00	0	43	0	0	56	4421
2026-01-16 00:34:35.43	260.37	39.17	-42.2	-44.2	17.2	0.00e+00	0	43	0	0	54	4976
2026-01-16 00:34:38.24	259.37	38.73	-44.1	-46.7	14.9	7.00e-07	0	43	0	0	59	4939
2026-01-16 00:34:41.37	258.28	38.23	-42.0	-44.0	17.4	0.00e+00	0	43	0	0	56	4340
2026-01-16 00:34:44.21	257.33	37.78	-42.1	-44.1	17.3	0.00e+00	0	43	0	0	55	4642
2026-01-16 00:34:47.33	256.31	37.28	-43.1	-45.3	16.2	0.00e+00	0	43	0	0	57	4739
2026-01-16 00:34:50.18	255.40	36.83	-42.1	-44.2	17.2	0.00e+00	0	43	0	0	56	4403
2026-01-16 00:34:53.30	254.44	36.32	-41.5	-43.4	18.0	0.00e+00	0	43	0	0	54	4497
2026-01-16 00:34:56.19	253.57	35.86	-43.4	-45.8	15.8	0.00e+00	0	43	0	0	57	4984
2026-01-16 00:34:59.56	252.60	35.31	-42.5	-44.6	16.8	0.00e+00	0	43	0	0	57	4384
2026-01-16 00:35:02.29	251.83	34.87	-42.7	-44.9	16.7	0.00e+00	0	43	0	0	56	4762
2026-01-16 00:35:05.59	250.93	34.34	-43.0	-45.3	16.3	0.00e+00	0	43	0	0	58	4447
2026-01-16 00:35:08.32	250.20	33.89	-41.8	-43.9	17.3	0.00e+00	0	43	0	0	55	4502
2026-01-16 00:35:11.60	249.36	33.37	-42.1	-44.2	17.2	0.00e+00	0	43	0	0	55	4702
2026-01-16 00:35:14.70	248.59	32.87	-42.2	-44.3	17.2	0.00e+00	0	43	0	0	55	4714
2026-01-16 00:35:17.76	247.85	32.38	-42.4	-44.6	16.8	0.00e+00	0	43	0	0	55	4882
2026-01-16 00:35:20.98	247.09	31.87	-41.1	-43.0	18.2	0.00e+00	0	43	0	0	54	4330
2026-01-16 00:35:23.82	246.45	31.43	-41.5	-43.4	17.9	0.00e+00	0	43	0	0	54	4532
2026-01-16 00:35:26.94	245.76	30.94	-42.0	-44.0	17.4	0.00e+00	0	43	0	0	54	4849
2026-01-16 00:35:29.78	245.15	30.50	-41.8	-43.8	17.5	0.00e+00	0	43	0	0	54	4724
2026-01-16 00:35:32.92	244.49	30.01	-41.3	-43.2	18.2	0.00e+00	0	43	0	0	54	4400
2026-01-16 00:35:35.87	243.90	29.56	-40.7	-42.5	18.8	0.00e+00	0	43	0	0	53	4326
2026-01-16 00:35:38.99	243.28	29.09	-40.8	-42.6	18.6	0.00e+00	0	43	0	0	53	4378
2026-01-16 00:35:41.83	242.74	28.66	-40.9	-42.7	18.5	0.00e+00	0	43	0	0	53	4439
2026-01-16 00:35:44.96	242.16	28.19	-40.9	-42.7	18.4	0.00e+00	0	43	0	0	53	4441
2026-01-16 00:35:47.80	241.64	27.77	-40.9	-42.7	18.3	0.00e+00	0	43	0	0	53	4430
2026-01-16 00:35:51.02	241.08	27.30	-41.3	-43.2	17.9	0.00e+00	0	43	0	0	53	4702
2026-01-16 00:35:53.87	240.59	26.89	-41.3	-43.2	18.0	0.00e+00	0	43	0	0	53	4690
2026-01-16 00:35:56.99	240.07	26.44	-40.7	-42.6	18.7	0.00e+00	0	43	0	0	53	4342
2026-01-16 00:35:59.84	239.61	26.04	-40.7	-42.5	18.7	0.00e+00	0	43	0	0	53	4311
2026-01-16 00:36:02.96	239.12	25.60	-40.6	-42.4	18.9	0.00e+00	0	43	0	0	53	4247
2026-01-16 00:36:05.83	238.68	25.20	-40.6	-42.4	18.9	0.00e+00	0	43	0	0	52	4502
2026-01-16 00:36:09.10	238.19	24.75	-40.5	-42.3	18.7	0.00e+00	0	43	0	0	52	4481
2026-01-16 00:36:11.85	237.79	24.38	-40.9	-42.8	18.2	0.00e+00	0	43	0	0	52	4753
2026-01-16 00:36:15.12	237.33	23.94	-41.0	-42.9	18.3	0.00e+00	0	43	0	0	52	4794
2026-01-16 00:36:17.97	236.93	23.56	-40.9	-42.8	18.4	0.00e+00	0	43	0	0	52	4713
2026-01-16 00:36:21.08	236.51	23.15	-41.0	-42.9	18.3	0.00e+00	0	43	0	0	52	4810
2026-01-16 00:36:24.07	236.12	22.76	-40.9	-42.8	18.5	0.00e+00	0	43	0	0	52	4721
2026-01-16 00:36:27.19	235.72	22.36	-40.5	-42.4	18.8	0.00e+00	0	43	0	0	52	4503
2026-01-16 00:36:31.27	235.22	21.84	-40.3	-42.1	19.0	0.00e+00	0	43	0	0	52	4369
2026-01-16 00:36:34.12	234.87	21.49	-40.6	-42.5	18.7	0.00e+00	0	43	0	0	52	4555
2026-01-16 00:36:38.18	234.40	20.99	-36.9	-42.5	16.5	1.82e-02	0	43	0	0	45	6827
2026-01-16 00:36:41.09	234.07	20.63	-39.6	-42.8	17.0	1.70e-02	0	43	0	0	50	5281
2026-01-16 00:36:44.37	233.70	20.24	-40.7	-42.7	17.8	7.26e-03	0	43	0	0	52	4667
2026-01-16 00:36:47.09	233.41	19.91	-40.4	-42.5	17.3	9.55e-03	0	43	0	0	52	4585
2026-01-16 00:36:50.38	233.06	19.53	-40.0	-42.3	17.3	1.56e-02	0	43	0	0	51	4719
2026-01-16 00:36:53.10	232.78	19.21	-40.4	-42.2	18.9	0.00e+00	0	43	0	0	51	4699
2026-01-16 00:36:56.46	232.44	18.83	-40.4	-42.2	19.0	0.00e+00	0	43	0	0	51	4673
2026-01-16 00:36:59.27	232.16	18.51	-40.6	-42.4	18.8	0.00e+00	0	43	0	0	51	4772
2026-01-16 00:37:02.55	231.84	18.14	-40.8	-42.7	18.4	0.00e+00	0	43	0	0	52	4699
2026-01-16 00:37:05.27	231.59	17.84	-41.1	-43.1	18.0	0.00e+00	0	43	0	0	52	4882
2026-01-16 00:37:09.04	231.24	17.42	-41.3	-43.3	17.8	0.00e+00	0	43	0	0	53	4758
2026-01-16 00:37:11.76	231.00	17.13	-41.2	-43.2	17.9	0.00e+00	0	43	0	0	53	4680
2026-01-16 00:37:15.03	230.71	16.78	-41.2	-43.1	17.9	0.00e+00	0	43	0	0	53	4643
2026-01-16 00:37:17.76	230.47	16.49	-41.3	-43.2	17.9	0.00e+00	0	43	0	0	53	4691
2026-01-16 00:37:21.14	230.19	16.14	-41.3	-43.3	17.8	0.00e+00	0	43	0	0	53	4739
2026-01-16 00:37:24.18	229.94	15.82	-41.5	-43.5	17.6	0.00e+00	0	43	0	0	53	4846
2026-01-16 00:37:27.47	229.67	15.48	-41.6	-43.7	17.5	0.00e+00	0	43	0	0	53	4930
2026-01-16 00:37:30.18	229.46	15.21	-41.8	-43.9	17.2	0.00e+00	0	43	0	0	54	4780
2026-01-16 00:37:33.46	229.21	14.88	-41.8	-43.9	17.2	0.00e+00	0	43	0	0	54	4804
2026-01-16 00:37:36.27	229.00	14.60	-41.8	-43.8	17.3	0.00e+00	0	43	0	0	54	4751
2026-01-16 00:37:39.67	228.74	14.27	-41.8	-43.9	17.2	0.00e+00	0	43	0	0	54	4784
2026-01-16 00:37:42.37	228.55	14.01	-41.8	-43.9	17.2	0.00e+00	0	43	0	0	54	4796
2026-01-16 00:37:45.67	228.31	13.69	-41.8	-43.9	17.1	0.00e+00	0	43	0	0	54	4813
2026-01-16 00:37:48.40	228.12	13.43	-42.1	-44.2	16.9	0.00e+00	0	43	0	0	54	4949
2026-01-16 00:37:51.69	227.90	13.12	-42.1	-44.2	16.9	0.00e+00	0	43	0	0	54	4965
2026-01-16 00:37:54.51	227.71	12.86	-42.1	-44.2	16.8	0.00e+00	0	43	0	0	54	4947
2026-01-16 00:37:57.64	227.51	12.57	-42.1	-44.2	16.8	0.00e+00	0	43	0	0	54	4963
2026-01-16 00:38:00.83	227.30	12.28	-42.2	-44.4	16.6	0.00e+00	0	43	0	0	55	4786
2026-01-16 00:38:03.68	227.12	12.03	-42.0	-44.2	16.8	0.00e+00	0	43	0	0	55	4656
2026-01-16 00:38:06.80	226.93	11.75	-42.0	-44.2	16.8	0.00e+00	0	43	0	0	55	4653
2026-01-16 00:38:09.64	226.76	11.50	-42.1	-44.3	16.7	0.00e+00	0	43	0	0	55	4720
2026-01-16 00:38:12.86	226.56	11.22	-42.2	-44.4	16.5	0.00e+00	0	43	0	0	55	4788
2026-01-16 00:38:15.76	226.39	10.96	-42.2	-44.5	16.4	0.00e+00	0	43	0	0	55	4859
2026-01-16 00:38:19.26	226.19	10.66	-42.3	-44.5	16.4	0.00e+00	0	43	0	0	55	4869
2026-01-16 00:38:21.97	226.04	10.43	-42.4	-44.7	16.2	0.00e+00	0	43	0	0	55	4938
2026-01-16 00:38:25.27	225.86	10.16	-42.6	-44.9	16.0	0.00e+00	0	43	0	0	55	5057
2026-01-16 00:38:27.99	225.71	9.93	-42.6	-44.9	15.9	0.00e+00	0	43	0	0	55	5096
2026-01-16 00:38:31.26	225.54	9.66	-42.9	-45.3	15.7	0.00e+00	0	43	0	0	56	5023
2026-01-16 00:38:33.96	225.39	9.44	-42.8	-45.2	15.5	0.00e+00	0	43	0	0	56	4976
2026-01-16 00:38:37.26	225.22	9.17	-43.0	-45.5	15.3	1.50e-06	0	43	0	0	56	5148
2026-01-16 00:38:39.99	225.09	8.95	-49.1	-62.0	3.8	5.50e-02	0	43	104	0	68	17153
2026-01-16 00:38:43.26	224.92	8.69	-49.6	-62.9	3.8	1.49e+00	0	43	104	0	70	16978
2026-01-16 00:38:45.95	224.79	8.48	-50.1	-63.0	3.8	1.49e+00	0	43	104	0	70	17252
2026-01-16 00:38:49.23	224.63	8.22	-50.1	-63.1	3.8	1.49e+00	0	43	104	0	71	16447
2026-01-16 00:38:51.94	224.51	8.01	-50.1	-63.1	3.8	1.49e+00	0	43	104	0	71	16479
2026-01-16 00:38:55.24	224.35	7.75	-50.1	-63.1	3.8	1.49e+00	0	43	104	0	71	16443
2026-01-16 00:38:58.00	224.23	7.54	-50.0	-63.1	3.8	1.49e+00	0	43	104	0	71	16471
2026-01-16 00:39:01.28	224.08	7.29	-49.7	-63.1	3.8	1.49e+00	0	43	104	0	71	16331
2026-01-16 00:39:04.03	223.96	7.09	-49.7	-63.1	3.8	1.49e+00	0	43	104	0	71	16321
2026-01-16 00:39:07.30	223.82	6.84	-49.7	-63.1	3.8	1.49e+00	0	43	104	0	71	16337
2026-01-16 00:39:09.99	223.70	6.64	-49.7	-63.1	3.8	1.49e+00	0	44	104	0	71	16320
2026-01-16 00:39:13.27	223.56	6.40	-49.7	-63.0	3.8	1.49e+00	0	43	104	0	71	16232
2026-01-16 00:39:15.97	223.45	6.21	-49.7	-63.0	3.8	1.49e+00	0	43	104	0	71	16274
2026-01-16 00:39:19.23	223.32	5.97	-49.7	-63.0	3.8	1.49e+00	0	43	104	0	71	16243
2026-01-16 00:39:21.94	223.21	5.78	-49.7	-63.0	3.8	1.49e+00	0	43	104	0	71	16232
2026-01-16 00:39:25.22	223.08	5.54	-49.7	-63.0	3.8	1.49e+00	0	43	104	0	71	16260
2026-01-16 00:39:27.92	222.97	5.35	-49.7	-63.0	3.8	1.49e+00	0	43	104	0	71	16254
2026-01-16 00:39:31.20	222.85	5.12	-49.7	-63.0	3.8	1.49e+00	0	43	104	0	71	16197

#Closed at: 2026-01-16 00:39:33
#Recorded file [0 MB]: D:/Data/31040_260116_032705.dat