passes_logs/2026/01/16/T1/T1__20260116_083819_NOAA_21_JPSS-2_rec.log

#Pass ID: 20260116_083819_NOAA 21 (JPSS-2)
#Satellite: NOAA 21 (JPSS-2)
#Configuration: NOAA 21
#almurnet v.1.7.20251203
#Start time: 2026-01-16 08:38:18

#Version: 2.0.20230620
#Station: T1
#Location: 37.570604 lon 55.790049 lat
#TLE: 1 54234U 22150A   26015.92901934  .00000025  00000+0  32700-4 0  9991
#TLE: 2 54234  98.7499 316.8175 0000634 284.8145  75.2961 14.19534841164946

#Time	Az	El	Level	Level2	SNR	BER	BlckErr	Temp	State	Recorded	gain1	gain2
2026-01-16 08:38:18.76	119.69	4.98	-49.7	-62.7	3.8	1.49e+00	0	38	0	0	71	15631
2026-01-16 08:38:21.75	119.50	5.18	-49.7	-62.6	3.8	1.49e+00	0	38	104	0	71	15580
2026-01-16 08:38:24.74	119.30	5.37	-49.7	-62.6	3.8	1.49e+00	0	38	104	0	71	15554
2026-01-16 08:38:27.73	119.10	5.57	-49.7	-62.7	3.8	1.49e+00	0	38	104	0	71	15671
2026-01-16 08:38:30.73	118.89	5.77	-49.6	-62.6	3.8	1.49e+00	0	38	104	0	70	16499
2026-01-16 08:38:33.73	118.68	5.97	-49.6	-62.7	3.8	1.49e+00	0	38	104	0	70	16537
2026-01-16 08:38:36.72	118.47	6.17	-49.7	-62.7	3.8	1.49e+00	0	38	104	0	70	16566
2026-01-16 08:38:39.71	118.26	6.37	-49.7	-62.6	3.8	1.49e+00	0	39	104	0	70	16500
2026-01-16 08:38:42.71	118.04	6.57	-49.6	-62.5	3.8	1.49e+00	0	39	104	0	70	16202
2026-01-16 08:38:45.71	117.82	6.77	-49.6	-62.5	3.8	1.49e+00	0	39	104	0	70	16186
2026-01-16 08:38:48.71	117.60	6.98	-49.6	-62.5	3.8	1.49e+00	0	39	104	0	70	16236
2026-01-16 08:38:51.71	117.37	7.19	-49.7	-62.4	3.8	1.49e+00	0	39	104	0	70	16099
2026-01-16 08:38:54.70	117.14	7.39	-49.6	-61.7	3.8	1.49e+00	0	39	104	0	70	14800
2026-01-16 08:38:57.70	116.90	7.60	-49.5	-61.2	3.8	1.49e+00	0	39	104	0	70	13950
2026-01-16 08:39:00.70	116.67	7.81	-48.7	-55.9	5.7	5.09e-01	0	39	0	0	69	8036
2026-01-16 08:39:03.70	116.43	8.02	-45.6	-49.0	12.4	5.04e-04	0	39	0	0	63	5113
2026-01-16 08:39:06.70	116.18	8.24	-43.1	-45.4	15.9	0.00e+00	0	39	0	0	58	4539
2026-01-16 08:39:09.69	115.93	8.45	-41.8	-43.8	17.2	0.00e+00	0	39	0	0	55	4491
2026-01-16 08:39:12.69	115.68	8.66	-43.7	-46.2	15.1	0.00e+00	0	40	0	0	58	4948
2026-01-16 08:39:15.69	115.43	8.88	-46.7	-50.8	10.5	1.93e-03	0	40	0	0	63	6309
2026-01-16 08:39:18.68	115.17	9.10	-47.3	-52.2	9.0	2.89e-01	0	40	0	0	66	6206
2026-01-16 08:39:21.67	114.90	9.32	-47.0	-51.6	9.4	7.93e-01	0	39	0	0	66	5819
2026-01-16 08:39:24.67	114.63	9.54	-45.1	-48.3	13.2	2.59e-05	0	40	0	0	61	5281
2026-01-16 08:39:27.66	114.36	9.76	-43.1	-45.4	16.0	0.00e+00	0	39	0	0	58	4538
2026-01-16 08:39:30.65	114.09	9.98	-42.0	-44.0	17.3	0.00e+00	0	40	0	0	56	4326
2026-01-16 08:39:33.65	113.81	10.21	-41.3	-43.3	17.9	0.00e+00	0	40	0	0	54	4463
2026-01-16 08:39:36.64	113.52	10.43	-41.3	-43.2	17.9	0.00e+00	0	40	0	0	54	4441
2026-01-16 08:39:39.64	113.23	10.66	-41.2	-43.1	18.1	0.00e+00	0	40	0	0	54	4359
2026-01-16 08:39:42.63	112.94	10.89	-41.0	-42.9	18.3	0.00e+00	0	40	0	0	53	4497
2026-01-16 08:39:45.61	112.64	11.11	-41.0	-42.9	18.2	0.00e+00	0	40	0	0	53	4531
2026-01-16 08:39:48.61	112.34	11.35	-40.7	-42.6	18.6	0.00e+00	0	40	0	0	53	4355
2026-01-16 08:39:51.60	112.03	11.58	-40.6	-42.4	18.7	0.00e+00	0	40	0	0	53	4274
2026-01-16 08:39:54.59	111.72	11.81	-40.2	-42.0	19.1	0.00e+00	0	40	0	0	52	4308
2026-01-16 08:39:57.59	111.40	12.05	-40.4	-42.2	18.9	0.00e+00	0	40	0	0	52	4416
2026-01-16 08:40:00.58	111.07	12.28	-40.4	-42.2	19.0	0.00e+00	0	40	0	0	52	4395
2026-01-16 08:40:03.57	110.75	12.52	-40.6	-42.4	18.8	0.00e+00	0	40	0	0	52	4524
2026-01-16 08:40:06.56	110.41	12.76	-40.4	-42.2	19.1	0.00e+00	0	40	0	0	52	4402
2026-01-16 08:40:09.56	110.07	13.00	-40.1	-41.8	19.4	0.00e+00	0	40	0	0	52	4230
2026-01-16 08:40:12.55	109.72	13.24	-39.9	-41.7	19.6	0.00e+00	0	40	0	0	51	4400
2026-01-16 08:40:15.55	109.37	13.49	-40.1	-41.8	19.4	0.00e+00	0	40	0	0	51	4492
2026-01-16 08:40:18.55	109.01	13.73	-40.2	-41.9	19.3	0.00e+00	0	40	0	0	51	4536
2026-01-16 08:40:21.55	108.65	13.98	-40.2	-41.9	19.4	0.00e+00	0	40	0	0	51	4525
2026-01-16 08:40:24.54	108.28	14.23	-40.1	-41.9	19.4	0.00e+00	0	40	0	0	51	4508
2026-01-16 08:40:27.52	107.91	14.47	-40.2	-42.0	19.3	0.00e+00	0	40	0	0	51	4565
2026-01-16 08:40:30.50	107.52	14.72	-40.1	-41.9	19.4	0.00e+00	0	40	0	0	51	4500
2026-01-16 08:40:33.47	107.14	14.97	-40.3	-42.1	19.2	0.00e+00	0	40	0	0	51	4617
2026-01-16 08:40:36.46	106.74	15.23	-40.3	-42.1	19.2	0.00e+00	0	40	0	0	51	4629
2026-01-16 08:40:39.44	106.34	15.48	-40.4	-42.2	19.2	0.00e+00	0	40	0	0	51	4652
2026-01-16 08:40:42.44	105.93	15.73	-40.4	-42.2	19.2	0.00e+00	0	40	0	0	51	4667
2026-01-16 08:40:45.44	105.51	15.99	-40.3	-42.1	19.2	0.00e+00	0	40	0	0	51	4611
2026-01-16 08:40:48.44	105.09	16.25	-40.4	-42.2	19.1	0.00e+00	0	40	0	0	51	4688
2026-01-16 08:40:51.44	104.65	16.51	-40.4	-42.1	19.2	0.00e+00	0	40	0	0	51	4651
2026-01-16 08:40:54.44	104.21	16.77	-40.5	-42.2	19.1	0.00e+00	0	40	0	0	51	4699
2026-01-16 08:40:57.44	103.77	17.03	-40.4	-42.2	19.2	0.00e+00	0	40	0	0	51	4666
2026-01-16 08:41:00.44	103.31	17.29	-40.3	-42.1	19.3	0.00e+00	0	40	0	0	51	4616
2026-01-16 08:41:03.43	102.85	17.55	-40.4	-42.2	19.2	0.00e+00	0	40	0	0	51	4659
2026-01-16 08:41:06.43	102.38	17.82	-40.5	-42.2	19.1	0.00e+00	0	40	0	0	51	4699
2026-01-16 08:41:09.42	101.90	18.08	-40.5	-42.2	19.2	0.00e+00	0	40	0	0	51	4705
2026-01-16 08:41:12.41	101.41	18.34	-40.4	-42.1	19.2	0.00e+00	0	40	0	0	51	4624
2026-01-16 08:41:15.40	100.91	18.61	-40.3	-42.0	19.3	0.00e+00	0	40	0	0	51	4576
2026-01-16 08:41:18.39	100.41	18.87	-40.1	-41.8	19.5	0.00e+00	0	40	0	0	51	4493
2026-01-16 08:41:21.37	99.89	19.14	-39.9	-41.6	19.7	0.00e+00	0	40	0	0	51	4390
2026-01-16 08:41:24.35	99.37	19.40	-39.8	-41.5	19.8	0.00e+00	0	40	0	0	51	4301
2026-01-16 08:41:27.34	98.84	19.67	-40.0	-41.7	19.6	0.00e+00	0	40	0	0	51	4414
2026-01-16 08:41:30.33	98.30	19.94	-40.0	-41.7	19.7	0.00e+00	0	40	0	0	51	4414
2026-01-16 08:41:33.33	97.75	20.21	-39.9	-41.6	19.8	0.00e+00	0	40	0	0	51	4348
2026-01-16 08:41:36.32	97.18	20.47	-39.7	-41.4	19.9	0.00e+00	0	40	0	0	51	4270
2026-01-16 08:41:39.31	96.61	20.74	-39.7	-41.5	19.9	0.00e+00	0	40	0	0	51	4294
2026-01-16 08:41:42.31	96.03	21.01	-39.7	-41.4	20.0	0.00e+00	0	40	0	0	51	4273
2026-01-16 08:41:45.30	95.44	21.27	-39.8	-41.5	19.9	0.00e+00	0	40	0	0	51	4320
2026-01-16 08:41:48.29	94.84	21.54	-39.7	-41.5	19.9	0.00e+00	0	40	0	0	51	4292
2026-01-16 08:41:51.27	94.23	21.80	-39.5	-41.2	20.2	0.00e+00	0	40	0	0	51	4177
2026-01-16 08:41:54.26	93.60	22.07	-39.6	-41.3	20.1	0.00e+00	0	40	0	0	51	4195
2026-01-16 08:41:57.23	92.98	22.33	-39.6	-41.3	20.1	0.00e+00	0	40	0	0	51	4217
2026-01-16 08:42:00.22	92.33	22.59	-39.4	-41.1	20.3	0.00e+00	0	40	0	0	50	4347
2026-01-16 08:42:03.21	91.68	22.85	-39.2	-40.9	20.4	0.00e+00	0	40	0	0	50	4251
2026-01-16 08:42:06.20	91.01	23.11	-39.4	-41.1	20.2	0.00e+00	0	40	0	0	50	4352
2026-01-16 08:42:09.19	90.33	23.37	-39.5	-41.2	20.1	0.00e+00	0	40	0	0	50	4424
2026-01-16 08:42:12.18	89.64	23.63	-39.5	-41.2	20.1	0.00e+00	0	40	0	0	50	4411
2026-01-16 08:42:15.18	88.94	23.88	-39.8	-41.5	19.9	0.00e+00	0	40	0	0	50	4558
2026-01-16 08:42:18.17	88.23	24.13	-39.9	-41.6	19.8	0.00e+00	0	40	0	0	50	4638
2026-01-16 08:42:21.16	87.51	24.38	-39.9	-41.6	19.7	0.00e+00	0	40	0	0	50	4646
2026-01-16 08:42:24.14	86.77	24.63	-40.1	-41.9	19.7	0.00e+00	0	40	0	0	52	4258
2026-01-16 08:42:27.14	86.02	24.87	-39.7	-41.4	20.0	0.00e+00	0	40	0	0	51	4250
2026-01-16 08:42:30.13	85.27	25.11	-39.8	-41.5	19.8	0.00e+00	0	40	0	0	51	4308
2026-01-16 08:42:33.12	84.50	25.35	-39.8	-41.6	19.8	0.00e+00	0	40	0	0	51	4347
2026-01-16 08:42:36.12	83.71	25.58	-39.8	-41.6	19.8	0.00e+00	0	40	0	0	51	4365
2026-01-16 08:42:39.11	82.92	25.81	-40.1	-41.8	19.6	0.00e+00	0	40	0	0	51	4478
2026-01-16 08:42:42.10	82.12	26.04	-40.0	-41.7	19.7	0.00e+00	0	40	0	0	51	4421
2026-01-16 08:42:45.09	81.30	26.26	-40.0	-41.8	19.6	0.00e+00	0	40	0	0	51	4460
2026-01-16 08:42:48.08	80.48	26.47	-39.9	-41.6	19.8	0.00e+00	0	40	0	0	51	4371
2026-01-16 08:42:51.07	79.64	26.69	-39.8	-41.5	19.9	0.00e+00	0	40	0	0	51	4327
2026-01-16 08:42:54.06	78.79	26.89	-40.0	-41.7	19.7	0.00e+00	0	40	0	0	51	4426
2026-01-16 08:42:57.03	77.93	27.09	-39.8	-41.5	19.9	0.00e+00	0	40	0	0	51	4317
2026-01-16 08:43:00.01	77.07	27.28	-39.6	-41.3	20.0	0.00e+00	0	40	0	0	51	4227
2026-01-16 08:43:02.97	76.19	27.47	-39.7	-41.4	20.0	0.00e+00	0	40	0	0	51	4282
2026-01-16 08:43:05.95	75.31	27.65	-39.7	-41.3	20.1	0.00e+00	0	40	0	0	51	4240
2026-01-16 08:43:08.94	74.41	27.83	-39.6	-41.3	20.2	0.00e+00	0	40	0	0	51	4199
2026-01-16 08:43:11.93	73.49	28.00	-39.5	-41.1	20.3	0.00e+00	0	40	0	0	50	4387
2026-01-16 08:43:14.91	72.58	28.16	-39.7	-41.4	19.9	0.00e+00	0	40	0	0	50	4530
2026-01-16 08:43:17.90	71.65	28.31	-40.1	-41.8	19.7	0.00e+00	0	41	0	0	50	4719
2026-01-16 08:43:20.88	70.71	28.46	-40.1	-41.9	19.7	0.00e+00	0	40	0	0	50	4767
2026-01-16 08:43:23.86	69.77	28.60	-40.1	-41.8	19.7	0.00e+00	0	40	0	0	50	4725
2026-01-16 08:43:26.85	68.81	28.73	-39.9	-41.5	20.0	0.00e+00	0	40	0	0	50	4597
2026-01-16 08:43:29.83	67.86	28.85	-39.9	-41.5	19.9	0.00e+00	0	40	0	0	50	4598
2026-01-16 08:43:32.83	66.88	28.96	-39.8	-41.4	20.0	0.00e+00	0	40	0	0	50	4534
2026-01-16 08:43:35.81	65.91	29.07	-40.1	-41.9	19.6	0.00e+00	0	40	0	0	51	4508
2026-01-16 08:43:38.80	64.93	29.16	-40.3	-42.1	19.4	0.00e+00	0	40	0	0	51	4600
2026-01-16 08:43:41.79	63.94	29.25	-40.1	-41.8	19.7	0.00e+00	0	40	0	0	51	4444
2026-01-16 08:43:44.78	62.95	29.33	-40.1	-41.8	19.7	0.00e+00	0	40	0	0	51	4470
2026-01-16 08:43:47.76	61.96	29.40	-40.0	-41.7	19.8	0.00e+00	0	40	0	0	51	4408
2026-01-16 08:43:50.74	60.96	29.45	-39.7	-41.4	20.1	0.00e+00	0	40	0	0	51	4250
2026-01-16 08:43:53.72	59.96	29.50	-39.5	-41.2	20.2	0.00e+00	0	40	0	0	51	4159
2026-01-16 08:43:56.71	58.95	29.54	-39.8	-41.5	19.8	0.00e+00	0	40	0	0	51	4326
2026-01-16 08:43:59.69	57.95	29.57	-40.1	-41.8	19.6	0.00e+00	0	40	0	0	51	4487
2026-01-16 08:44:02.68	56.94	29.59	-40.0	-41.7	19.7	0.00e+00	0	40	0	0	51	4441
2026-01-16 08:44:05.67	55.93	29.60	-39.8	-41.5	19.9	0.00e+00	0	40	0	0	51	4326
2026-01-16 08:44:08.66	54.92	29.60	-39.9	-41.7	19.8	0.00e+00	0	40	0	0	51	4393
2026-01-16 08:44:11.65	53.91	29.59	-40.2	-42.0	19.5	0.00e+00	0	40	0	0	51	4553
2026-01-16 08:44:14.64	52.90	29.57	-40.5	-42.3	19.2	0.00e+00	0	40	0	0	51	4749
2026-01-16 08:44:17.62	51.89	29.54	-40.1	-41.8	19.7	0.00e+00	0	40	0	0	51	4462
2026-01-16 08:44:20.62	50.88	29.50	-40.0	-41.7	19.8	0.00e+00	0	41	0	0	51	4410
2026-01-16 08:44:23.60	49.88	29.45	-39.9	-41.6	19.8	0.00e+00	0	40	0	0	51	4384
2026-01-16 08:44:26.59	48.88	29.39	-39.8	-41.5	20.0	0.00e+00	0	40	0	0	51	4325
2026-01-16 08:44:29.57	47.89	29.32	-40.2	-41.9	19.6	0.00e+00	0	40	0	0	51	4540
2026-01-16 08:44:32.55	46.91	29.24	-40.0	-41.7	19.8	0.00e+00	0	40	0	0	51	4423
2026-01-16 08:44:35.53	45.92	29.15	-39.8	-41.5	20.0	0.00e+00	0	40	0	0	51	4324
2026-01-16 08:44:38.52	44.95	29.05	-39.8	-41.5	20.1	0.00e+00	0	40	0	0	51	4303
2026-01-16 08:44:41.51	43.97	28.95	-39.9	-41.6	19.9	0.00e+00	0	40	0	0	51	4354
2026-01-16 08:44:44.50	43.01	28.83	-40.2	-41.9	19.6	0.00e+00	0	40	0	0	51	4545
2026-01-16 08:44:47.48	42.05	28.71	-40.3	-42.0	19.6	0.00e+00	0	40	0	0	51	4576
2026-01-16 08:44:50.46	41.10	28.58	-40.3	-42.0	19.5	0.00e+00	0	40	0	0	51	4576
2026-01-16 08:44:53.45	40.16	28.44	-40.2	-41.9	19.7	0.00e+00	0	40	0	0	51	4527
2026-01-16 08:44:56.45	39.22	28.29	-40.1	-41.9	19.6	0.00e+00	0	40	0	0	51	4507
2026-01-16 08:44:59.44	38.29	28.14	-40.2	-41.9	19.5	0.00e+00	0	40	0	0	51	4515
2026-01-16 08:45:02.43	37.38	27.97	-39.9	-41.6	19.8	0.00e+00	0	40	0	0	51	4389
2026-01-16 08:45:05.42	36.47	27.80	-40.0	-41.7	19.7	0.00e+00	0	41	0	0	51	4409
2026-01-16 08:45:08.41	35.57	27.63	-39.8	-41.5	19.8	0.00e+00	0	40	0	0	51	4327
2026-01-16 08:45:11.40	34.69	27.45	-39.7	-41.4	20.1	0.00e+00	0	40	0	0	51	4252
2026-01-16 08:45:14.39	33.81	27.26	-40.1	-41.9	19.7	0.00e+00	0	40	0	0	51	4509
2026-01-16 08:45:17.38	32.94	27.06	-40.6	-42.5	19.0	0.00e+00	0	40	0	0	52	4562
2026-01-16 08:45:20.35	32.09	26.86	-40.2	-42.0	19.4	0.00e+00	0	40	0	0	52	4327
2026-01-16 08:45:23.33	31.25	26.66	-39.7	-41.4	20.1	0.00e+00	0	40	0	0	51	4271
2026-01-16 08:45:26.32	30.42	26.45	-39.7	-41.4	19.9	0.00e+00	0	40	0	0	51	4287
2026-01-16 08:45:29.31	29.60	26.23	-39.6	-41.3	20.0	0.00e+00	0	40	0	0	51	4212
2026-01-16 08:45:32.30	28.79	26.01	-40.2	-41.9	19.4	0.00e+00	0	40	0	0	51	4527
2026-01-16 08:45:35.29	27.99	25.78	-40.1	-41.8	19.4	0.00e+00	0	40	0	0	51	4453
2026-01-16 08:45:38.27	27.20	25.56	-39.7	-41.4	19.8	0.00e+00	0	40	0	0	51	4261
2026-01-16 08:45:41.26	26.43	25.32	-39.4	-41.1	20.3	0.00e+00	0	40	0	0	50	4365
2026-01-16 08:45:44.24	25.67	25.09	-40.0	-41.7	19.8	0.00e+00	0	40	0	0	50	4681
2026-01-16 08:45:47.23	24.91	24.85	-39.8	-41.5	20.0	0.00e+00	0	40	0	0	50	4562
2026-01-16 08:45:50.22	24.17	24.60	-39.8	-41.6	19.9	0.00e+00	0	40	0	0	50	4604
2026-01-16 08:45:53.20	23.44	24.36	-39.8	-41.6	19.8	0.00e+00	0	40	0	0	50	4631
2026-01-16 08:45:56.18	22.73	24.11	-39.7	-41.4	20.1	0.00e+00	0	40	0	0	50	4506
2026-01-16 08:45:59.16	22.02	23.86	-39.5	-41.2	20.3	0.00e+00	0	40	0	0	50	4441
2026-01-16 08:46:02.15	21.33	23.61	-40.2	-41.9	19.7	0.00e+00	0	40	0	0	50	4804
2026-01-16 08:46:05.14	20.65	23.35	-40.3	-42.1	19.3	0.00e+00	0	40	0	0	51	4616
2026-01-16 08:46:08.12	19.97	23.10	-40.1	-41.8	19.6	0.00e+00	0	40	0	0	51	4473
2026-01-16 08:46:11.11	19.31	22.84	-39.7	-41.4	20.1	0.00e+00	0	40	0	0	51	4280
2026-01-16 08:46:14.09	18.66	22.58	-39.7	-41.4	20.1	0.00e+00	0	40	0	0	51	4267
2026-01-16 08:46:17.08	18.03	22.32	-39.6	-41.4	20.1	0.00e+00	0	40	0	0	51	4250
2026-01-16 08:46:20.06	17.40	22.06	-39.9	-41.6	19.9	0.00e+00	0	40	0	0	51	4387
2026-01-16 08:46:23.06	16.78	21.79	-39.9	-41.6	19.8	0.00e+00	0	40	0	0	51	4385
2026-01-16 08:46:26.04	16.17	21.53	-40.0	-41.7	19.7	0.00e+00	0	40	0	0	51	4437
2026-01-16 08:46:29.04	15.57	21.26	-39.9	-41.6	19.8	0.00e+00	0	40	0	0	51	4387
2026-01-16 08:46:32.04	14.99	21.00	-39.1	-41.7	19.3	0.00e+00	0	40	0	0	50	4671
2026-01-16 08:46:35.02	14.41	20.73	-39.7	-41.8	19.4	0.00e+00	0	40	0	0	50	4758
2026-01-16 08:46:38.01	13.84	20.47	-40.2	-42.0	19.5	0.00e+00	0	40	0	0	51	4553
2026-01-16 08:46:41.01	13.29	20.20	-40.2	-42.0	19.5	0.00e+00	0	40	0	0	51	4548
2026-01-16 08:46:44.00	12.74	19.94	-40.0	-41.8	19.6	0.00e+00	0	40	0	0	51	4471
2026-01-16 08:46:46.99	12.20	19.67	-39.8	-41.6	19.8	0.00e+00	0	40	0	0	51	4371
2026-01-16 08:46:49.98	11.67	19.41	-39.5	-41.2	20.2	0.00e+00	0	40	0	0	50	4426
2026-01-16 08:46:52.97	11.16	19.14	-39.9	-41.7	19.8	0.00e+00	0	40	0	0	50	4658
2026-01-16 08:46:55.95	10.65	18.88	-40.1	-42.0	19.5	0.00e+00	0	40	0	0	50	4819
2026-01-16 08:46:58.94	10.15	18.61	-40.0	-41.8	19.5	0.00e+00	0	40	0	0	51	4486
2026-01-16 08:47:01.92	9.66	18.35	-40.2	-42.0	19.4	0.00e+00	0	40	0	0	51	4577
2026-01-16 08:47:04.92	9.17	18.09	-40.4	-42.2	19.3	0.00e+00	0	40	0	0	51	4697
2026-01-16 08:47:07.90	8.70	17.82	-40.4	-42.4	19.1	0.00e+00	0	40	0	0	51	4776
2026-01-16 08:47:10.89	8.23	17.56	-40.5	-42.4	19.1	0.00e+00	0	40	0	0	51	4762
2026-01-16 08:47:13.87	7.78	17.30	-40.3	-42.1	19.3	0.00e+00	0	40	0	0	51	4647
2026-01-16 08:47:16.86	7.32	17.04	-40.2	-42.0	19.4	0.00e+00	0	40	0	0	51	4595
2026-01-16 08:47:19.86	6.88	16.78	-40.3	-42.2	19.3	0.00e+00	0	40	0	0	51	4693
2026-01-16 08:47:22.85	6.45	16.53	-40.6	-42.6	18.9	0.00e+00	0	40	0	0	52	4606
2026-01-16 08:47:25.84	6.02	16.27	-40.7	-42.6	18.7	0.00e+00	0	40	0	0	52	4645
2026-01-16 08:47:28.83	5.60	16.01	-40.4	-42.3	19.0	0.00e+00	0	40	0	0	52	4477
2026-01-16 08:47:31.82	5.19	15.76	-40.4	-42.3	19.1	0.00e+00	0	40	0	0	52	4472
2026-01-16 08:47:34.79	4.78	15.51	-40.3	-42.1	19.3	0.00e+00	0	40	0	0	52	4368
2026-01-16 08:47:37.78	4.39	15.26	-40.6	-42.5	19.0	0.00e+00	0	40	0	0	52	4582
2026-01-16 08:47:40.77	3.99	15.00	-40.8	-42.7	18.7	0.00e+00	0	40	0	0	52	4697
2026-01-16 08:47:43.76	3.61	14.75	-40.7	-42.6	18.8	0.00e+00	0	40	0	0	52	4603
2026-01-16 08:47:46.76	3.23	14.50	-40.4	-42.3	19.0	0.00e+00	0	40	0	0	52	4488
2026-01-16 08:47:49.76	2.86	14.26	-40.4	-42.3	19.1	0.00e+00	0	40	0	0	52	4461
2026-01-16 08:47:52.74	2.49	14.01	-40.4	-42.2	19.2	0.00e+00	0	40	0	0	52	4437
2026-01-16 08:47:55.72	2.13	13.77	-40.7	-42.5	19.0	0.00e+00	0	40	0	0	52	4574
2026-01-16 08:47:58.70	1.78	13.53	-41.0	-42.9	18.6	0.00e+00	0	40	0	0	52	4800
2026-01-16 08:48:01.69	1.43	13.28	-41.1	-43.1	18.3	0.00e+00	0	40	0	0	52	4926
2026-01-16 08:48:04.67	1.09	13.04	-41.0	-43.0	18.5	0.00e+00	0	40	0	0	52	4821
2026-01-16 08:48:07.65	0.76	12.81	-41.1	-43.0	18.4	0.00e+00	0	40	0	0	52	4862
2026-01-16 08:48:10.63	0.43	12.57	-40.9	-42.9	18.6	0.00e+00	0	40	0	0	52	4783
2026-01-16 08:48:13.61	0.10	12.33	-40.8	-42.9	18.6	0.00e+00	0	40	0	0	52	4802
2026-01-16 08:48:16.59	359.79	12.10	-41.3	-43.4	18.2	0.00e+00	0	40	0	0	53	4770
2026-01-16 08:48:19.57	359.47	11.86	-41.5	-43.6	17.9	0.00e+00	0	40	0	0	53	4911
2026-01-16 08:48:22.55	359.16	11.63	-41.8	-44.0	17.6	0.00e+00	0	40	0	0	54	4820
2026-01-16 08:48:25.53	358.86	11.40	-41.8	-44.1	17.4	0.00e+00	0	40	0	0	54	4890
2026-01-16 08:48:28.51	358.56	11.17	-41.7	-44.0	17.5	0.00e+00	0	40	0	0	54	4842
2026-01-16 08:48:31.49	358.27	10.95	-41.5	-43.7	17.7	0.00e+00	0	40	0	0	54	4675
2026-01-16 08:48:34.49	357.98	10.72	-41.5	-43.6	17.9	0.00e+00	0	40	0	0	54	4611
2026-01-16 08:48:37.47	357.69	10.49	-41.5	-43.5	17.9	0.00e+00	0	40	0	0	54	4584
2026-01-16 08:48:40.46	357.41	10.27	-41.7	-43.8	17.7	0.00e+00	0	40	0	0	54	4724
2026-01-16 08:48:43.46	357.13	10.05	-41.7	-44.0	17.5	0.00e+00	0	40	0	0	54	4852
2026-01-16 08:48:46.44	356.86	9.82	-41.8	-44.5	17.0	0.00e+00	0	40	0	0	54	5136
2026-01-16 08:48:49.42	356.60	9.60	-41.7	-44.6	16.9	0.00e+00	0	40	0	0	54	5184
2026-01-16 08:48:52.40	356.33	9.39	-41.0	-44.5	16.9	0.00e+00	0	40	0	0	54	5142
2026-01-16 08:48:55.38	356.07	9.17	-40.7	-44.3	17.1	0.00e+00	0	40	0	0	53	5289
2026-01-16 08:48:58.36	355.82	8.95	-48.3	-62.8	3.8	1.49e+00	0	40	104	0	67	19921
2026-01-16 08:49:01.34	355.57	8.74	-49.8	-63.4	3.8	1.49e+00	0	40	104	0	70	17954
2026-01-16 08:49:04.32	355.32	8.53	-50.3	-63.5	3.8	1.49e+00	0	40	104	0	71	17211
2026-01-16 08:49:07.30	355.08	8.32	-50.4	-63.6	3.8	1.49e+00	0	40	104	0	71	17407
2026-01-16 08:49:10.28	354.84	8.10	-50.2	-63.7	3.8	1.49e+00	0	40	104	0	71	17504
2026-01-16 08:49:13.26	354.60	7.90	-50.4	-63.7	3.8	1.49e+00	0	40	104	0	71	17558
2026-01-16 08:49:16.24	354.37	7.69	-50.6	-63.7	3.8	1.49e+00	0	40	104	0	71	17603
2026-01-16 08:49:19.22	354.14	7.48	-50.5	-63.6	3.8	1.49e+00	0	40	104	0	72	16500
2026-01-16 08:49:22.20	353.91	7.27	-50.6	-63.7	3.8	1.49e+00	0	40	104	0	72	16597
2026-01-16 08:49:25.18	353.69	7.07	-50.6	-63.7	3.8	1.49e+00	0	40	104	0	72	16610
2026-01-16 08:49:28.17	353.47	6.87	-50.2	-63.6	3.8	1.49e+00	0	40	104	0	72	16467
2026-01-16 08:49:31.15	353.25	6.66	-50.2	-63.7	3.8	1.49e+00	0	40	104	0	72	16563
2026