passes_logs/2026/01/16/T1/T1__20260116_034013_FENGYUN_3E_rec.log

#Pass ID: 20260116_034013_FENGYUN 3E
#Satellite: FENGYUN 3E
#Configuration: FENGYUN 3E
#almurnet v.1.7.20251203
#Start time: 2026-01-16 03:40:13

#Version: 2.0.20230620
#Station: T1
#Location: 37.570604 lon 55.790049 lat
#TLE: 1 49008U 21062A   26015.49897766  .00000206  00000+0  11779-3 0  9997
#TLE: 2 49008  98.7486  20.6219 0002049 135.8566 224.2775 14.19885576234916

#Time	Az	El	Level	Level2	SNR	BER	BlckErr	Temp	State	Recorded	gain1	gain2
2026-01-16 03:40:13.97	18.40	5.04	-48.0	-60.5	3.8	8.45e-01	0	36	0	0	65	15965
2026-01-16 03:40:17.94	18.48	5.32	-47.9	-59.9	3.8	8.46e-01	0	36	104	0	65	15035
2026-01-16 03:40:21.92	18.57	5.60	-47.8	-59.1	3.8	8.47e-01	0	36	104	0	65	13718
2026-01-16 03:40:25.89	18.65	5.89	-47.8	-58.8	3.8	8.47e-01	0	36	104	0	65	13239
2026-01-16 03:40:29.86	18.73	6.18	-47.9	-59.6	3.8	8.45e-01	0	37	104	0	65	14497
2026-01-16 03:40:33.83	18.82	6.48	-47.8	-59.5	3.8	8.46e-01	0	37	104	0	65	14280
2026-01-16 03:40:37.81	18.91	6.77	-47.7	-58.1	3.8	8.46e-01	0	37	104	0	65	12214
2026-01-16 03:40:41.78	19.00	7.07	-47.7	-58.1	3.8	8.45e-01	0	37	104	0	65	12199
2026-01-16 03:40:45.75	19.09	7.38	-47.6	-57.4	4.1	8.46e-01	0	37	104	0	65	11198
2026-01-16 03:40:49.73	19.18	7.69	-47.1	-54.1	5.5	7.09e-01	0	37	0	0	65	7706
2026-01-16 03:40:53.70	19.27	8.00	-46.7	-52.4	6.9	1.70e-01	0	38	0	26214400	63	7112
2026-01-16 03:40:57.68	19.37	8.32	-46.5	-51.8	7.4	1.27e-01	0	38	0	54525952	63	6632
2026-01-16 03:41:01.65	19.46	8.64	-46.3	-51.4	7.9	7.89e-02	0	38	0	83886080	63	6286
2026-01-16 03:41:05.62	19.56	8.96	-46.7	-52.5	6.9	1.78e-01	0	38	0	112197632	63	7126
2026-01-16 03:41:09.60	19.66	9.29	-47.3	-55.1	5.0	6.96e-02	0	37	0	140509184	63	9696
2026-01-16 03:41:13.58	19.77	9.62	-42.1	-43.8	15.5	0.00e+00	0	38	0	153092096	54	4424
2026-01-16 03:41:17.56	19.87	9.96	-40.8	-42.2	17.1	0.00e+00	0	38	0	182452224	52	4142
2026-01-16 03:41:21.54	19.98	10.30	-40.4	-41.7	17.6	0.00e+00	0	38	0	210763776	51	4144
2026-01-16 03:41:25.52	20.09	10.65	-40.3	-41.7	17.7	0.00e+00	0	38	0	239075328	51	4099
2026-01-16 03:41:29.50	20.20	11.00	-40.2	-41.5	17.9	0.00e+00	0	38	0	268435456	51	4045
2026-01-16 03:41:33.48	20.31	11.36	-40.0	-41.4	18.1	0.00e+00	0	38	0	296747008	50	4206
2026-01-16 03:41:37.46	20.43	11.72	-40.0	-41.3	18.2	0.00e+00	0	38	0	326107136	50	4182
2026-01-16 03:41:41.44	20.55	12.09	-40.0	-41.3	18.2	0.00e+00	0	38	0	354418688	50	4182
2026-01-16 03:41:45.41	20.67	12.46	-39.8	-41.2	18.3	0.00e+00	0	38	0	382730240	50	4117
2026-01-16 03:41:49.42	20.79	12.85	-39.7	-41.0	18.5	0.00e+00	0	38	0	412090368	50	4033
2026-01-16 03:41:53.40	20.92	13.23	-39.7	-41.0	18.5	0.00e+00	0	38	0	440401920	49	4258
2026-01-16 03:41:57.38	21.05	13.62	-39.4	-40.6	18.9	0.00e+00	0	39	0	469762048	49	4084
2026-01-16 03:42:01.36	21.18	14.02	-39.4	-40.6	19.0	0.00e+00	0	38	0	498073600	49	4056
2026-01-16 03:42:05.63	21.33	14.45	-39.2	-40.4	19.1	0.00e+00	0	38	0	529530880	49	3982
2026-01-16 03:42:09.62	21.46	14.87	-39.1	-40.3	19.3	0.00e+00	0	38	0	557842432	49	3916
2026-01-16 03:42:13.63	21.61	15.29	-39.1	-40.1	19.4	0.00e+00	0	39	0	587202560	48	4088
2026-01-16 03:42:17.64	21.76	15.72	-38.9	-40.0	19.5	0.00e+00	0	39	0	615514112	48	4005
2026-01-16 03:42:21.57	21.90	16.15	-38.9	-40.0	19.6	0.00e+00	0	38	0	643825664	48	4020
2026-01-16 03:42:25.55	22.06	16.59	-38.8	-39.8	19.7	0.00e+00	0	39	0	673185792	48	3955
2026-01-16 03:42:29.56	22.22	17.04	-38.7	-39.8	19.5	0.00e+00	0	38	0	701497344	47	4161
2026-01-16 03:42:33.54	22.38	17.50	-38.5	-39.5	19.8	0.00e+00	0	38	0	730857472	47	4026
2026-01-16 03:42:37.51	22.55	17.96	-38.3	-39.3	20.0	0.00e+00	0	39	0	759169024	47	3923
2026-01-16 03:42:41.49	22.72	18.43	-38.2	-39.2	20.1	0.00e+00	0	39	0	788529152	46	4113
2026-01-16 03:42:45.47	22.89	18.92	-37.9	-38.9	20.4	0.00e+00	0	39	0	816840704	46	3992
2026-01-16 03:42:49.46	23.08	19.41	-37.9	-38.9	20.5	0.00e+00	0	39	0	845152256	46	3967
2026-01-16 03:42:53.44	23.26	19.92	-37.7	-38.7	20.7	0.00e+00	0	39	0	874512384	46	3876
2026-01-16 03:42:57.42	23.46	20.43	-37.8	-38.8	20.4	0.00e+00	0	39	0	902823936	45	4177
2026-01-16 03:43:01.43	23.66	20.96	-37.9	-38.9	20.4	0.00e+00	0	39	0	932184064	45	4216
2026-01-16 03:43:05.36	23.86	21.48	-37.8	-38.8	20.4	0.00e+00	0	39	0	960495616	45	4188
2026-01-16 03:43:09.34	24.07	22.03	-38.0	-39.0	20.4	0.00e+00	0	39	0	988807168	45	4252
2026-01-16 03:43:13.32	24.29	22.59	-37.8	-38.8	20.5	0.00e+00	0	39	0	1018167296	45	4193
2026-01-16 03:43:17.29	24.52	23.16	-37.4	-38.4	20.9	0.00e+00	0	38	0	1046478848	45	3978
2026-01-16 03:43:21.27	24.75	23.74	-37.3	-38.3	20.9	0.00e+00	0	39	0	1074790400	45	3929
2026-01-16 03:43:25.31	25.00	24.34	-37.3	-38.2	21.1	0.00e+00	0	39	0	1104150528	45	3890
2026-01-16 03:43:29.31	25.25	24.95	-37.4	-38.3	21.0	0.00e+00	0	39	0	1133510656	44	4171
2026-01-16 03:43:33.42	25.52	25.60	-37.4	-38.3	21.1	0.00e+00	0	39	0	1162870784	44	4165
2026-01-16 03:43:37.40	25.80	26.23	-37.7	-38.7	20.7	0.00e+00	0	39	0	1191182336	44	4363
2026-01-16 03:43:41.45	26.08	26.90	-37.4	-38.4	21.0	0.00e+00	0	39	0	1220542464	44	4203
2026-01-16 03:43:45.43	26.38	27.57	-37.1	-38.0	21.3	0.00e+00	0	38	0	1249902592	44	4045
2026-01-16 03:43:49.41	26.68	28.25	-36.9	-37.8	21.5	0.00e+00	0	39	0	1278214144	44	3939
2026-01-16 03:43:53.39	27.00	28.95	-36.9	-37.9	21.5	0.00e+00	0	39	0	1307574272	44	3984
2026-01-16 03:43:57.36	27.33	29.67	-36.7	-37.6	21.7	0.00e+00	0	39	0	1335885824	44	3851
2026-01-16 03:44:01.45	27.69	30.42	-36.4	-37.3	21.8	0.00e+00	0	39	0	1365245952	43	3947
2026-01-16 03:44:05.49	28.06	31.19	-36.4	-37.3	21.9	0.00e+00	0	39	0	1394606080	42	4174
2026-01-16 03:44:09.47	28.44	31.96	-37.0	-37.9	21.3	0.00e+00	0	39	0	1422917632	43	4228
2026-01-16 03:44:13.45	28.84	32.75	-36.7	-37.6	21.6	0.00e+00	0	39	0	1452277760	43	4059
2026-01-16 03:44:17.43	29.25	33.57	-36.9	-37.8	21.4	0.00e+00	0	39	0	1480589312	43	4175
2026-01-16 03:44:21.40	29.69	34.40	-36.8	-37.7	21.5	0.00e+00	0	39	0	1508900864	43	4140
2026-01-16 03:44:25.39	30.15	35.25	-36.7	-37.6	21.7	0.00e+00	0	39	0	1538260992	43	4059
2026-01-16 03:44:29.37	30.64	36.13	-36.5	-37.4	21.7	0.00e+00	0	39	0	1566572544	43	3989
2026-01-16 03:44:33.34	31.15	37.03	-36.8	-37.7	21.5	0.00e+00	0	39	0	1595932672	43	4113
2026-01-16 03:44:37.35	31.69	37.95	-36.7	-37.6	21.6	0.00e+00	0	39	0	1624244224	43	4081
2026-01-16 03:44:41.39	32.27	38.91	-36.7	-37.6	21.5	0.00e+00	0	39	0	1653604352	43	4079
2026-01-16 03:44:45.39	32.88	39.89	-36.9	-37.8	21.4	0.00e+00	0	39	0	1682964480	43	4157
2026-01-16 03:44:49.37	33.52	40.88	-37.0	-38.0	21.3	0.00e+00	0	39	0	1711276032	43	4247
2026-01-16 03:44:53.46	34.22	41.92	-37.2	-38.1	21.3	0.00e+00	0	39	0	1740636160	44	4078
2026-01-16 03:44:57.45	34.95	42.97	-37.3	-38.2	21.2	0.00e+00	0	39	0	1769996288	44	4110
2026-01-16 03:45:01.46	35.73	44.04	-37.5	-38.5	21.0	0.00e+00	0	39	0	1798307840	44	4271
2026-01-16 03:45:05.47	36.57	45.14	-37.3	-38.2	21.2	0.00e+00	0	39	0	1827667968	45	3903
2026-01-16 03:45:09.48	37.46	46.27	-37.6	-38.6	20.9	0.00e+00	0	39	0	1857028096	44	4301
2026-01-16 03:45:13.48	38.42	47.41	-38.1	-39.1	20.4	0.00e+00	0	39	0	1885339648	46	4075
2026-01-16 03:45:17.50	39.45	48.58	-38.8	-39.8	19.7	0.00e+00	0	39	0	1914699776	46	4418
2026-01-16 03:45:21.51	40.57	49.77	-38.5	-39.6	20.0	0.00e+00	0	38	0	1943011328	46	4295
2026-01-16 03:45:25.55	41.78	50.99	-38.5	-39.5	20.1	0.00e+00	0	39	0	1972371456	47	4006
2026-01-16 03:45:29.56	43.09	52.22	-38.3	-39.3	20.2	0.00e+00	0	39	0	2001731584	47	3933
2026-01-16 03:45:33.57	44.51	53.47	-38.2	-39.2	20.0	0.00e+00	0	39	0	2030043136	47	3883
2026-01-16 03:45:37.56	46.05	54.72	-38.6	-39.6	20.0	0.00e+00	0	39	0	2059403264	47	4076
2026-01-16 03:45:41.57	47.74	55.98	-38.7	-39.7	19.9	0.00e+00	0	39	0	2087714816	47	4100
2026-01-16 03:45:45.66	49.62	57.28	-38.3	-39.3	20.3	0.00e+00	0	39	0	2117074944	46	4156
2026-01-16 03:45:49.80	51.72	58.58	-38.3	-39.3	20.2	0.00e+00	0	39	0	2147483648	46	4178
2026-01-16 03:45:54.03	54.08	59.91	-37.8	-38.7	20.8	0.00e+00	0	39	0	2177892352	46	3899
2026-01-16 03:45:58.22	56.68	61.20	-37.9	-38.8	20.7	0.00e+00	0	39	0	2208301056	46	3947
2026-01-16 03:46:02.20	59.40	62.40	-37.9	-38.9	20.7	0.00e+00	0	39	0	2236612608	45	4202
2026-01-16 03:46:06.48	62.63	63.65	-37.8	-38.7	20.7	0.00e+00	0	39	0	2268069888	46	3902
2026-01-16 03:46:10.55	66.03	64.78	-37.6	-38.5	20.9	0.00e+00	0	39	0	2297430016	45	4051
2026-01-16 03:46:14.56	69.72	65.82	-37.2	-38.2	21.3	0.00e+00	0	39	0	2325741568	44	4101
2026-01-16 03:46:18.68	73.88	66.80	-37.3	-38.2	21.2	0.00e+00	0	39	0	2356150272	44	4136
2026-01-16 03:46:23.29	78.98	67.77	-37.4	-38.4	21.1	0.00e+00	0	39	0	2389704704	44	4198
2026-01-16 03:46:27.32	83.82	68.48	-37.3	-38.2	21.1	0.00e+00	0	39	0	2418016256	44	4142
2026-01-16 03:46:31.41	89.05	69.05	-37.5	-38.5	20.9	0.00e+00	0	39	0	2447376384	44	4251
2026-01-16 03:46:35.47	94.52	69.45	-37.3	-38.2	21.3	0.00e+00	0	39	0	2476736512	44	4122
2026-01-16 03:46:39.45	100.05	69.67	-37.2	-38.1	21.4	0.00e+00	0	39	0	2506096640	44	4092
2026-01-16 03:46:43.43	105.66	69.71	-37.4	-38.4	21.0	0.00e+00	0	39	0	2534408192	45	3978
2026-01-16 03:46:47.40	111.23	69.57	-37.4	-38.3	21.2	0.00e+00	0	39	0	2562719744	45	3957
2026-01-16 03:46:51.38	116.68	69.26	-37.5	-38.4	21.1	0.00e+00	0	39	0	2592079872	45	3979
2026-01-16 03:46:55.36	121.91	68.78	-37.2	-38.1	21.3	0.00e+00	0	39	0	2620391424	44	4084
2026-01-16 03:46:59.35	126.87	68.15	-37.4	-38.3	21.2	0.00e+00	0	39	0	2649751552	44	4189
2026-01-16 03:47:03.66	131.86	67.32	-36.9	-37.8	21.7	0.00e+00	0	39	0	2680160256	44	3937
2026-01-16 03:47:07.64	136.10	66.43	-37.1	-38.0	21.4	0.00e+00	0	39	0	2709520384	44	4051
2026-01-16 03:47:11.63	140.00	65.44	-37.1	-38.0	21.6	0.00e+00	0	39	0	2737831936	44	4012
2026-01-16 03:47:15.64	143.57	64.37	-37.4	-38.4	21.1	0.00e+00	0	39	0	2767192064	44	4204
2026-01-16 03:47:19.87	146.98	63.17	-38.0	-38.9	20.6	0.00e+00	0	39	0	2797600768	45	4241
2026-01-16 03:47:23.85	149.89	61.99	-38.6	-39.6	19.9	0.00e+00	0	39	0	2825912320	46	4318
2026-01-16 03:47:27.83	152.52	60.78	-38.4	-39.4	20.2	0.00e+00	0	39	0	2855272448	46	4216
2026-01-16 03:47:31.81	154.92	59.54	-38.7	-39.7	19.8	0.00e+00	0	39	0	2883584000	47	4130
2026-01-16 03:47:35.84	157.12	58.27	-38.3	-39.2	20.3	0.00e+00	0	39	0	2912944128	47	3911
2026-01-16 03:47:39.82	159.10	57.01	-38.8	-39.8	19.8	0.00e+00	0	39	0	2942304256	47	4153
2026-01-16 03:47:43.80	160.91	55.74	-39.0	-40.0	19.6	0.00e+00	0	39	0	2970615808	47	4271
2026-01-16 03:47:47.85	162.59	54.46	-38.6	-39.6	20.0	0.00e+00	0	39	0	2999975936	47	4068
2026-01-16 03:47:51.97	164.15	53.17	-37.9	-38.9	20.7	0.00e+00	0	39	0	3029336064	46	3966
2026-01-16 03:47:55.95	165.54	51.93	-38.4	-39.4	20.2	0.00e+00	0	39	0	3057647616	46	4204
2026-01-16 03:48:00.04	166.85	50.67	-38.5	-39.5	20.1	0.00e+00	0	39	0	3088056320	46	4266
2026-01-16 03:48:04.02	168.03	49.47	-38.4	-39.4	20.2	0.00e+00	0	39	0	3116367872	46	4213
2026-01-16 03:48:08.00	169.12	48.29	-38.6	-39.6	19.8	0.00e+00	0	39	0	3144679424	47	4076
2026-01-16 03:48:11.98	170.13	47.13	-38.0	-38.9	20.6	0.00e+00	0	39	0	3174039552	46	3986
2026-01-16 03:48:15.95	171.07	45.99	-38.2	-39.2	20.4	0.00e+00	0	39	0	3202351104	46	4100
2026-01-16 03:48:19.93	171.95	44.87	-37.7	-38.7	20.9	0.00e+00	0	39	0	3231711232	46	3875
2026-01-16 03:48:23.91	172.77	43.78	-37.2	-38.1	21.3	0.00e+00	0	39	0	3260022784	45	3844
2026-01-16 03:48:27.98	173.55	42.69	-37.4	-38.4	21.0	0.00e+00	0	39	0	3289382912	45	3963
2026-01-16 03:48:31.89	174.26	41.67	-37.3	-38.2	21.3	0.00e+00	0	39	0	3317694464	45	3888
2026-01-16 03:48:35.87	174.93	40.65	-37.0	-37.9	21.5	0.00e+00	0	39	0	3346006016	44	3970
2026-01-16 03:48:39.85	175.57	39.66	-37.2	-38.1	21.3	0.00e+00	0	39	0	3375366144	44	4082
2026-01-16 03:48:43.86	176.17	38.68	-37.4	-38.3	21.2	0.00e+00	0	39	0	3403677696	44	4171
2026-01-16 03:48:47.92	176.75	37.71	-37.5	-38.4	20.9	0.00e+00	0	39	0	3433037824	44	4230
2026-01-16 03:48:51.90	177.28	36.79	-37.2	-38.1	21.3	0.00e+00	0	39	0	3462397952	44	4073
2026-01-16 03:48:55.88	177.79	35.89	-36.7	-37.6	21.8	0.00e+00	0	39	0	3490709504	44	3851
2026-01-16 03:48:59.86	178.27	35.01	-36.9	-37.8	21.6	0.00e+00	0	39	0	3520069632	44	3945
2026-01-16 03:49:03.97	178.74	34.13	-37.1	-38.0	21.4	0.00e+00	0	39	0	3549429760	44	4046
2026-01-16 03:49:07.98	179.18	33.29	-37.0	-37.9	21.5	0.00e+00	0	39	0	3577741312	44	3992
2026-01-16 03:49:12.11	179.60	32.45	-36.7	-37.6	21.8	0.00e+00	0	39	0	3608150016	44	3825
2026-01-16 03:49:16.24	180.01	31.63	-36.6	-37.5	21.8	0.00e+00	0	39	0	3637510144	44	3810
2026-01-16 03:49:20.27	180.39	30.85	-36.8	-37.7	21.7	0.00e+00	0	39	0	3666870272	44	3895
2026-01-16 03:49:24.26	180.75	30.09	-36.9	-37.8	21.5	0.00e+00	0	39	0	3696230400	44	3957
2026-01-16 03:49:28.27	181.09	29.35	-36.9	-37.9	21.5	0.00e+00	0	39	0	3724541952	44	3960
2026-01-16 03:49:32.35	181.43	28.62	-36.9	-37.9	21.5	0.00e+00	0	39	0	3753902080	44	3964
2026-01-16 03:49:36.81	181.78	27.84	-37.1	-38.1	21.3	0.00e+00	0	39	0	3786407936	44	4058
2026-01-16 03:49:40.80	182.08	27.15	-37.5	-38.4	21.0	0.00e+00	0	39	0	3814719488	44	4222
2026-01-16 03:49:44.77	182.36	26.49	-37.6	-38.6	20.8	0.00e+00	0	39	0	3844079616	44	4315
2026-01-16 03:49:48.80	182.64	25.83	-37.8	-38.8	20.7	0.00e+00	0	39	0	3872391168	45	4150
2026-01-16 03:49:53.06	182.93	25.15	-37.7	-38.7	20.7	0.00e+00	0	39	0	3903848448	45	4117
2026-01-16 03:49:57.26	183.20	24.50	-37.6	-38.5	20.9	0.00e+00	0	39	0	3934257152	45	4032
2026-01-16 03:50:01.28	183.44	23.89	-37.3	-38.3	21.1	0.00e+00	0	39	0	3962568704	45	3930
2026-01-16 03:50:05.24	183.68	23.30	-37.4	-38.3	21.0	0.00e+00	0	39	0	3990880256	45	3940
2026-01-16 03:50:09.22	183.91	22.72	-37.3	-38.3	21.0	0.00e+00	0	39	0	4020240384	45	3921
2026-01-16 03:50:13.27	184.13	22.15	-37.4	-38.4	21.0	0.00e+00	0	39	0	4049600512	45	3964
2026-01-16 03:50:17.31	184.35	21.58	-37.5	-38.4	20.9	0.00e+00	0	39	0	4078960640	45	4001
2026-01-16 03:50:21.38	184.56	21.03	-37.7	-38.6	20.7	0.00e+00	0	39	0	4108320768	45	4093
2026-01-16 03:50:25.56	184.77	20.47	-37.7	-38.7	20.6	0.00e+00	0	39	0	4138729472	45	4128
2026-01-16 03:50:29.54	184.96	19.95	-37.9	-38.9	20.4	0.00e+00	0	39	0	4167041024	45	4241
2026-01-16 03:50:33.55	185.15	19.44	-38.2	-39.2	20.1	0.00e+00	0	39	0	4195352576	45	4369
2026-01-16 03:50:37.55	185.33	18.94	-38.3	-39.4	19.9	0.00e+00	0	39	0	4224712704	46	4224
2026-01-16 03:50:41.55	185.51	18.45	-38.4	-39.5	19.9	0.00e+00	0	39	0	4253024256	46	4257
2026-01-16 03:50:45.81	185.69	17.93	-38.5	-39.6	19.7	0.00e+00	0	39	0	4284481536	46	4311
2026-01-16 03:50:49.81	185.86	17.46	-38.5	-39.6	19.8	0.00e+00	0	39	0	4313841664	46	4295
2026-01-16 03:50:53.83	186.02	16.99	-38.4	-39.5	19.8	0.00e+00	0	39	0	4342153216	46	4286
2026-01-16 03:50:57.83	186.18	16.54	-38.4	-39.5	19.8	0.00e+00	0	39	0	4371513344	46	4268
2026-01-16 03:51:01.83	186.33	16.09	-38.5	-39.7	19.7	0.00e+00	0	39	0	4399824896	46	4344
2026-01-16 03:51:06.32	186.50	15.60	-38.8	-39.9	19.4	0.00e+00	0	39	0	4432330752	47	4227
2026-01-16 03:51:10.30	186.64	15.17	-38.9	-40.0	19.3	0.00e+00	0	39	0	4460642304	47	4280
2026-01-16 03:51:14.30	186.78	14.75	-39.1	-40.2	19.1	0.00e+00	0	39	0	4490002432	47	4372
2026-01-16 03:51:18.31	186.92	14.33	-39.4	-40.6	19.0	0.00e+00	0	39	0	4519362560	48	4310
2026-01-16 03:51:22.32	187.05	13.92	-39.7	-40.8	18.7	0.00e+00	0	39	0	4547674112	48	4429
2026-01-16 03:51:26.32	187.18	13.52	-39.7	-40.8	18.7	0.00e+00	0	39	0	4577034240	49	4185
2026-01-16 03:51:30.33	187.31	13.12	-39.9	-41.1	18.4	0.00e+00	0	39	0	4605345792	49	4314
2026-01-16 03:51:34.31	187.44	12.73	-39.9	-41.0	18.5	0.00e+00	0	39	0	4634705920	49	4278
2026-01-16 03:51:38.29	187.56	12.35	-40.0	-41.2	18.4	0.00e+00	0	39	0	4663017472	49	4343
2026-01-16 03:51:42.28	187.67	11.97	-40.1	-41.3	18.2	0.00e+00	0	39	0	4692377600	49	4436
2026-01-16 03:51:46.26	187.79	11.60	-40.2	-41.4	18.1	0.00e+00	0	39	0	4720689152	49	4447
2026-01-16 03:51:50.24	187.90	11.24	-40.3	-41.5	18.0	0.00e+00	0	39	0	4749000704	50	4263
2026-01-16 03:51:54.22	188.01	10.88	-40.3	-41.5	17.9	0.00e+00	0	39	0	4778360832	50	4274
2026-01-16 03:51:58.32	188.12	10.51	-40.5	-41.7	17.7	0.00e+00	0	39	0	4807720960	50	4373
2026-01-16 03:52:02.31	188.23	10.16	-40.5	-41.7	17.7	0.00e+00	0	39	0	4837081088	50	4386
2026-01-16 03:52:06.29	188.33	9.82	-40.5	-41.8	17.7	0.00e+00	0	39	0	4865392640	50	4406
2026-01-16 03:52:10.30	188.43	9.47	-40.6	-41.9	17.5	0.00e+00	0	39	0	4893704192	50	4462
2026-01-16 03:52:14.56	188.54	9.12	-40.6	-41.9	17.4	0.00e+00	0	39	0	4925161472	50	4473
2026-01-16 03:52:18.55	188.64	8.78	-49.6	-61.1	3.8	8.47e-01	0	39	104	4935647232	69	13611
2026-01-16 03:52:22.54	188.73	8.46	-50.5	-61.3	3.8	8.46e-01	0	39	104	4935647232	70	13257
2026-01-16 03:52:26.58	188.83	8.13	-50.5	-61.4	3.8	8.48e-01	0	39	104	4935647232	70	13362
2026-01-16 03:52:30.68	188.92	7.80	-50.6	-61.4	3.8	8.47e-01	0	39	104	4935647232	70	13331
2026-01-16 03:52:34.76	189.01	7.48	-50.6	-61.4	3.8	8.47e-01	0	39	104	4935647232	70	13266
2026-01-16 03:52:38.82	189.10	7.16	-50.6	-61.4	3.8	8.47e-01	0	39	104	4935647232	70	13335
2026-01-16 03:52:42.79	189.19	6.86	-50.1	-61.3	3.8	8.47e-01	0	39	104	4935647232	70	13215
2026-01-16 03:52:46.76	189.27	6.56	-50.1	-61.3	3.8	8.47e-01	0	39	104	4935647232	70	13233
2026-01-16 03:52:50.73	189.36	6.26	-50.1	-61.3	3.8	8.47e-01	0	39	104	4935647232	70	13126
2026-01-16 03:52:54.71	189.44	5.96	-50.1	-61.3	3.8	8.47e-01	0	39	104	4935647232	70	13176
2026-01-16 03:52:58.70	189.52	5.67	-50.1	-61.3	3.8	8.48e-01	0	39	104	4935647232	70	13150
2026-01-16 03:53:02.69	189.60	5.38	-50.1	-61.3	3.8	8.48e-01	0	39	104	4935647232	70	13246
2026-01-16 03:53:06.68	189.67	5.09	-50.1	-61.3	3.8	8.47e-01	0	39	104	4935647232	70	13142

#Closed at: 2026-01-16 03:53:09
#Recorded file [4935 MB]: D:/Data/31040_260116_064013.dat