passes_logs/2026/01/16/T1/T1__20260116_133059_FENGYUN_3E_rec.log

#Pass ID: 20260116_133059_FENGYUN 3E
#Satellite: FENGYUN 3E
#Configuration: FENGYUN 3E
#almurnet v.1.7.20251203
#Start time: 2026-01-16 13:30:59

#Version: 2.0.20230620
#Station: T1
#Location: 37.570604 lon 55.790049 lat
#TLE: 1 49008U 21062A   26015.99225297  .00000062  00000+0  49720-4 0  9994
#TLE: 2 49008  98.7486  21.1092 0002100 136.3389 223.7953 14.19885247234982

#Time	Az	El	Level	Level2	SNR	BER	BlckErr	Temp	State	Recorded	gain1	gain2
2026-01-16 13:30:59.74	138.58	5.02	-50.5	-61.1	3.8	8.46e-01	0	41	0	0	71	12207
2026-01-16 13:31:03.71	138.43	5.30	-50.4	-61.1	3.8	8.48e-01	0	42	104	0	71	12232
2026-01-16 13:31:07.68	138.29	5.58	-50.4	-60.8	3.8	8.46e-01	0	42	104	0	71	11764
2026-01-16 13:31:11.66	138.14	5.87	-50.3	-60.3	3.8	8.47e-01	0	42	104	0	71	11135
2026-01-16 13:31:15.63	137.99	6.16	-50.2	-59.7	3.8	8.46e-01	0	42	104	0	71	10397
2026-01-16 13:31:19.60	137.83	6.45	-50.3	-60.0	3.8	8.47e-01	0	42	104	0	71	10763
2026-01-16 13:31:23.57	137.67	6.74	-50.4	-61.1	3.8	8.47e-01	0	42	104	0	71	12153
2026-01-16 13:31:27.55	137.51	7.04	-50.2	-59.3	3.8	8.46e-01	0	42	104	0	71	9831
2026-01-16 13:31:31.52	137.35	7.34	-49.5	-56.3	4.7	8.11e-01	0	42	0	0	69	7849
2026-01-16 13:31:35.49	137.18	7.64	-47.1	-50.6	9.1	3.53e-02	0	43	0	17825792	65	5141
2026-01-16 13:31:39.47	137.00	7.95	-43.2	-45.1	14.7	4.50e-06	0	42	0	46137344	57	4329
2026-01-16 13:31:43.44	136.83	8.26	-40.6	-42.2	17.3	0.00e+00	0	43	0	74448896	51	4376
2026-01-16 13:31:47.41	136.65	8.57	-41.2	-42.8	16.8	0.00e+00	0	43	0	103809024	51	4696
2026-01-16 13:31:51.39	136.46	8.89	-44.5	-46.7	13.1	1.71e-05	0	43	0	132120576	58	4920
2026-01-16 13:31:55.36	136.27	9.21	-43.4	-44.8	15.1	0.00e+00	0	43	0	161480704	55	4666
2026-01-16 13:31:59.34	136.08	9.54	-46.1	-49.0	10.9	2.53e-03	0	43	0	183500800	63	4783
2026-01-16 13:32:03.31	135.88	9.87	-42.7	-44.5	15.4	0.00e+00	0	43	0	211812352	56	4258
2026-01-16 13:32:07.29	135.67	10.20	-40.9	-42.5	17.2	0.00e+00	0	43	0	240123904	52	4244
2026-01-16 13:32:11.27	135.47	10.54	-40.3	-41.7	17.9	0.00e+00	0	43	0	269484032	51	4136
2026-01-16 13:32:15.25	135.25	10.88	-39.3	-40.7	18.9	0.00e+00	0	43	0	297795584	49	4125
2026-01-16 13:32:19.22	135.03	11.23	-39.0	-40.4	19.2	0.00e+00	0	43	0	327155712	48	4219
2026-01-16 13:32:23.20	134.81	11.58	-39.0	-40.4	19.2	0.00e+00	0	43	0	355467264	48	4236
2026-01-16 13:32:27.18	134.58	11.93	-39.1	-40.5	19.1	0.00e+00	0	43	0	383778816	48	4277
2026-01-16 13:32:31.16	134.34	12.29	-38.9	-40.3	19.4	0.00e+00	0	43	0	413138944	48	4154
2026-01-16 13:32:35.14	134.10	12.66	-38.8	-40.2	19.4	0.00e+00	0	43	0	441450496	48	4124
2026-01-16 13:32:39.12	133.85	13.03	-38.7	-40.2	19.5	0.00e+00	0	43	0	470810624	48	4099
2026-01-16 13:32:43.10	133.60	13.41	-38.4	-39.8	19.5	0.00e+00	0	44	0	499122176	47	4169
2026-01-16 13:32:47.08	133.33	13.79	-38.3	-39.7	19.6	0.00e+00	0	44	0	527433728	47	4139
2026-01-16 13:32:51.06	133.06	14.17	-38.1	-39.5	19.8	0.00e+00	0	44	0	556793856	46	4270
2026-01-16 13:32:55.04	132.79	14.57	-37.8	-39.2	20.0	0.00e+00	0	43	0	585105408	46	4140
2026-01-16 13:32:59.02	132.50	14.96	-37.8	-39.2	20.1	0.00e+00	0	44	0	614465536	46	4112
2026-01-16 13:33:03.01	132.21	15.37	-37.8	-39.2	20.0	0.00e+00	0	44	0	642777088	45	4367
2026-01-16 13:33:06.98	131.91	15.78	-37.8	-39.2	20.0	0.00e+00	0	44	0	671088640	45	4358
2026-01-16 13:33:10.96	131.60	16.19	-37.9	-39.3	19.9	0.00e+00	0	44	0	700448768	45	4436
2026-01-16 13:33:14.94	131.28	16.62	-37.7	-39.1	20.1	0.00e+00	0	44	0	728760320	45	4338
2026-01-16 13:33:18.92	130.95	17.04	-37.7	-39.1	20.1	0.00e+00	0	44	0	758120448	45	4332
2026-01-16 13:33:22.90	130.62	17.48	-37.4	-38.8	20.3	0.00e+00	0	44	0	786432000	45	4174
2026-01-16 13:33:26.88	130.27	17.92	-36.7	-38.1	21.0	0.00e+00	0	44	0	814743552	44	4063
2026-01-16 13:33:30.85	129.91	18.37	-36.6	-38.0	21.1	0.00e+00	0	44	0	844103680	44	4011
2026-01-16 13:33:34.83	129.54	18.83	-36.5	-37.8	21.1	0.00e+00	0	44	0	872415232	43	4180
2026-01-16 13:33:38.80	129.16	19.29	-36.3	-37.6	21.3	0.00e+00	0	44	0	901775360	43	4067
2026-01-16 13:33:42.78	128.77	19.76	-36.3	-37.6	21.3	0.00e+00	0	44	0	930086912	43	4086
2026-01-16 13:33:46.75	128.36	20.24	-36.3	-37.6	21.3	0.00e+00	0	44	0	958398464	43	4098
2026-01-16 13:33:50.73	127.94	20.72	-36.0	-37.3	21.6	0.00e+00	0	44	0	987758592	42	4164
2026-01-16 13:33:54.71	127.51	21.22	-35.7	-36.9	22.0	0.00e+00	0	44	0	1016070144	42	3974
2026-01-16 13:33:58.69	127.06	21.72	-35.6	-36.8	22.0	0.00e+00	0	44	0	1045430272	41	4192
2026-01-16 13:34:02.66	126.60	22.23	-35.7	-36.9	21.9	0.00e+00	0	44	0	1073741824	41	4242
2026-01-16 13:34:06.64	126.12	22.74	-36.0	-37.3	21.6	0.00e+00	0	44	0	1102053376	41	4417
2026-01-16 13:34:10.62	125.63	23.27	-36.1	-37.4	21.4	0.00e+00	0	44	0	1131413504	42	4234
2026-01-16 13:34:14.60	125.12	23.81	-36.1	-37.4	21.4	0.00e+00	0	44	0	1159725056	42	4241
2026-01-16 13:34:18.57	124.59	24.35	-36.3	-37.7	21.2	0.00e+00	0	44	0	1188036608	42	4383
2026-01-16 13:34:22.55	124.04	24.90	-36.1	-37.5	21.4	0.00e+00	0	44	0	1217396736	42	4252
2026-01-16 13:34:26.54	123.46	25.46	-36.0	-37.4	21.5	0.00e+00	0	44	0	1245708288	42	4217
2026-01-16 13:34:30.52	122.87	26.03	-36.0	-37.3	21.6	0.00e+00	0	44	0	1275068416	42	4160
2026-01-16 13:34:34.50	122.26	26.61	-35.6	-36.8	22.0	0.00e+00	0	44	0	1303379968	41	4177
2026-01-16 13:34:38.48	121.62	27.20	-35.6	-36.9	21.9	0.00e+00	0	44	0	1331691520	41	4200
2026-01-16 13:34:42.46	120.96	27.80	-35.4	-36.6	22.1	0.00e+00	0	44	0	1361051648	41	4091
2026-01-16 13:34:46.44	120.28	28.40	-35.2	-36.4	22.2	0.00e+00	0	44	0	1389363200	40	4237
2026-01-16 13:34:50.42	119.56	29.01	-35.1	-36.4	22.3	0.00e+00	0	44	0	1418723328	40	4241
2026-01-16 13:34:54.39	118.83	29.63	-35.3	-36.6	22.1	0.00e+00	0	44	0	1447034880	40	4309
2026-01-16 13:34:58.37	118.05	30.26	-35.3	-36.6	22.2	0.00e+00	0	44	0	1475346432	40	4300
2026-01-16 13:35:02.35	117.25	30.90	-35.7	-37.0	21.7	0.00e+00	0	44	0	1504706560	40	4533
2026-01-16 13:35:06.33	116.42	31.55	-35.9	-37.3	21.5	0.00e+00	0	44	0	1533018112	41	4404
2026-01-16 13:35:10.31	115.55	32.20	-35.8	-37.2	21.6	0.00e+00	0	44	0	1562378240	41	4380
2026-01-16 13:35:14.29	114.64	32.86	-35.5	-36.8	22.0	0.00e+00	0	44	0	1590689792	41	4161
2026-01-16 13:35:18.26	113.70	33.52	-35.2	-36.5	22.1	0.00e+00	0	44	0	1619001344	41	4045
2026-01-16 13:35:22.24	112.72	34.19	-35.2	-36.4	22.3	0.00e+00	0	44	0	1648361472	40	4223
2026-01-16 13:35:26.22	111.69	34.87	-35.2	-36.4	22.3	0.00e+00	0	44	0	1676673024	40	4227
2026-01-16 13:35:30.19	110.63	35.54	-35.9	-36.8	22.8	0.00e+00	0	44	0	1706033152	41	4148
2026-01-16 13:35:34.17	109.51	36.22	-36.2	-37.0	22.6	0.00e+00	0	44	0	1734344704	41	4265
2026-01-16 13:35:38.15	108.35	36.91	-36.2	-37.0	22.5	0.00e+00	0	44	0	1762656256	42	4050
2026-01-16 13:35:42.13	107.14	37.59	-36.3	-37.1	22.4	0.00e+00	0	44	0	1792016384	42	4094
2026-01-16 13:35:46.11	105.88	38.27	-36.1	-36.9	22.7	0.00e+00	0	44	0	1820327936	42	4001
2026-01-16 13:35:50.09	104.56	38.95	-35.9	-36.8	22.8	0.00e+00	0	44	0	1848639488	42	3926
2026-01-16 13:35:54.07	103.18	39.62	-36.1	-37.0	22.6	0.00e+00	0	44	0	1877999616	42	4015
2026-01-16 13:35:58.05	101.75	40.29	-36.6	-37.4	22.2	0.00e+00	0	44	0	1906311168	42	4228
2026-01-16 13:36:02.03	100.26	40.94	-36.1	-36.9	22.7	0.00e+00	0	44	0	1935671296	42	3992
2026-01-16 13:36:06.01	98.71	41.59	-36.1	-37.0	22.6	0.00e+00	0	44	0	1963982848	42	4016
2026-01-16 13:36:09.99	97.09	42.22	-35.7	-36.5	23.0	0.00e+00	0	44	0	1992294400	42	3814
2026-01-16 13:36:13.97	95.41	42.84	-35.9	-36.7	22.9	0.00e+00	0	44	0	2021654528	42	3896
2026-01-16 13:36:17.95	93.66	43.44	-36.1	-36.9	22.7	0.00e+00	0	44	0	2049966080	42	4001
2026-01-16 13:36:21.93	91.85	44.01	-35.8	-36.7	22.9	0.00e+00	0	44	0	2079326208	42	3873
2026-01-16 13:36:25.91	89.97	44.56	-36.2	-37.1	22.5	0.00e+00	0	44	0	2107637760	42	4071
2026-01-16 13:36:29.88	88.04	45.08	-36.5	-37.3	22.3	0.00e+00	0	44	0	2135949312	42	4187
2026-01-16 13:36:33.86	86.04	45.57	-36.1	-36.9	22.7	0.00e+00	0	44	0	2165309440	42	3997
2026-01-16 13:36:37.84	83.97	46.03	-36.7	-37.6	22.2	0.00e+00	0	44	0	2193620992	42	4292
2026-01-16 13:36:41.82	81.85	46.45	-36.5	-37.3	22.4	0.00e+00	0	44	0	2222981120	43	3951
2026-01-16 13:36:45.80	79.67	46.83	-36.8	-37.7	22.0	0.00e+00	0	44	0	2251292672	43	4115
2026-01-16 13:36:49.78	77.44	47.16	-36.5	-37.3	22.4	0.00e+00	0	44	0	2279604224	43	3941
2026-01-16 13:36:53.75	75.18	47.45	-36.3	-37.1	22.6	0.00e+00	0	44	0	2308964352	42	4090
2026-01-16 13:36:57.74	72.86	47.69	-36.7	-37.5	22.2	0.00e+00	0	44	0	2337275904	43	4036
2026-01-16 13:37:01.71	70.52	47.88	-36.5	-37.3	22.4	0.00e+00	0	44	0	2366636032	43	3929
2026-01-16 13:37:05.69	68.15	48.02	-36.6	-37.5	22.2	0.00e+00	0	44	0	2394947584	43	4024
2026-01-16 13:37:09.67	65.77	48.10	-36.7	-37.5	22.1	0.00e+00	0	44	0	2423259136	43	4043
2026-01-16 13:37:13.65	63.38	48.13	-36.8	-37.6	22.1	0.00e+00	0	44	0	2452619264	43	4078
2026-01-16 13:37:17.63	60.98	48.11	-36.6	-37.5	22.2	0.00e+00	0	44	0	2480930816	43	4016
2026-01-16 13:37:21.61	58.60	48.03	-36.9	-37.8	21.9	0.00e+00	0	44	0	2510290944	43	4156
2026-01-16 13:37:25.59	56.23	47.90	-36.8	-37.7	22.0	0.00e+00	0	44	0	2538602496	43	4120
2026-01-16 13:37:29.57	53.88	47.72	-36.6	-37.5	22.2	0.00e+00	0	44	0	2566914048	43	4009
2026-01-16 13:37:33.55	51.57	47.48	-36.4	-37.3	22.4	0.00e+00	0	44	0	2596274176	43	3921
2026-01-16 13:37:37.53	49.29	47.20	-36.7	-37.5	22.2	0.00e+00	0	44	0	2624585728	43	4027
2026-01-16 13:37:41.51	47.06	46.87	-35.9	-36.7	22.9	0.00e+00	0	44	0	2653945856	42	3910
2026-01-16 13:37:45.48	44.89	46.50	-36.3	-37.2	22.5	0.00e+00	0	44	0	2682257408	42	4114
2026-01-16 13:37:49.46	42.76	46.09	-36.2	-37.0	22.6	0.00e+00	0	44	0	2710568960	42	4047
2026-01-16 13:37:53.44	40.69	45.63	-36.3	-37.1	22.5	0.00e+00	0	44	0	2738880512	42	4074
2026-01-16 13:37:57.42	38.69	45.15	-36.1	-36.9	22.7	0.00e+00	0	44	0	2768240640	42	3976
2026-01-16 13:38:01.40	36.74	44.63	-36.1	-36.9	22.7	0.00e+00	0	44	0	2797600768	42	3980
2026-01-16 13:38:05.38	34.86	44.09	-36.3	-37.2	22.4	0.00e+00	0	44	0	2825912320	42	4102
2026-01-16 13:38:09.36	33.05	43.52	-35.8	-36.6	22.9	0.00e+00	0	44	0	2854223872	42	3861
2026-01-16 13:38:13.33	31.30	42.92	-36.0	-36.8	22.7	0.00e+00	0	44	0	2882535424	42	3947
2026-01-16 13:38:17.31	29.62	42.31	-35.9	-36.7	22.8	0.00e+00	0	44	0	2911895552	42	3896
2026-01-16 13:38:21.29	28.00	41.68	-36.1	-36.9	22.7	0.00e+00	0	44	0	2940207104	42	3982
2026-01-16 13:38:25.27	26.44	41.04	-35.5	-36.3	23.1	0.00e+00	0	44	0	2969567232	41	3950
2026-01-16 13:38:29.25	24.94	40.39	-35.9	-36.7	22.9	0.00e+00	0	44	0	2997878784	41	4115
2026-01-16 13:38:33.23	23.51	39.72	-35.8	-36.6	23.0	0.00e+00	0	44	0	3026190336	41	4073
2026-01-16 13:38:37.20	22.13	39.05	-35.8	-36.6	23.0	0.00e+00	0	44	0	3055550464	41	4064
2026-01-16 13:38:41.18	20.81	38.38	-36.1	-37.0	22.6	0.00e+00	0	44	0	3083862016	41	4253
2026-01-16 13:38:45.16	19.55	37.70	-35.5	-36.3	22.8	0.00e+00	0	44	0	3113222144	41	3939
2026-01-16 13:38:49.14	18.33	37.02	-35.3	-36.2	23.3	0.00e+00	0	44	0	3141533696	41	3869
2026-01-16 13:38:53.12	17.17	36.34	-35.3	-36.1	23.3	0.00e+00	0	44	0	3169845248	41	3838
2026-01-16 13:38:57.10	16.05	35.66	-35.6	-36.4	23.1	0.00e+00	0	44	0	3199205376	41	3984
2026-01-16 13:39:01.08	14.98	34.99	-35.7	-36.5	23.0	0.00e+00	0	44	0	3227516928	41	4030
2026-01-16 13:39:05.06	13.95	34.32	-35.5	-36.3	23.2	0.00e+00	0	44	0	3256877056	41	3928
2026-01-16 13:39:09.03	12.97	33.65	-35.3	-36.2	23.3	0.00e+00	0	44	0	3285188608	41	3871
2026-01-16 13:39:13.01	12.03	32.99	-35.5	-36.3	23.1	0.00e+00	0	44	0	3313500160	40	4186
2026-01-16 13:39:16.99	11.12	32.33	-35.8	-36.6	22.8	0.00e+00	0	44	0	3342860288	41	4095
2026-01-16 13:39:20.97	10.25	31.68	-35.8	-36.6	22.9	0.00e+00	0	44	0	3371171840	41	4075
2026-01-16 13:39:24.95	9.41	31.04	-35.7	-36.5	23.0	0.00e+00	0	44	0	3400531968	41	4023
2026-01-16 13:39:28.92	8.61	30.40	-35.8	-36.7	22.8	0.00e+00	0	44	0	3428843520	41	4107
2026-01-16 13:39:32.91	7.84	29.77	-35.4	-36.2	23.2	0.00e+00	0	44	0	3457155072	41	3900
2026-01-16 13:39:36.88	7.10	29.15	-35.6	-36.4	23.1	0.00e+00	0	44	0	3486515200	41	3994
2026-01-16 13:39:40.86	6.39	28.54	-35.9	-36.8	22.7	0.00e+00	0	44	0	3514826752	41	4160
2026-01-16 13:39:44.84	5.70	27.94	-35.9	-36.8	22.8	0.00e+00	0	44	0	3543138304	41	4158
2026-01-16 13:39:48.81	5.04	27.34	-36.1	-36.9	22.6	0.00e+00	0	44	0	3572498432	41	4228
2026-01-16 13:39:52.79	4.41	26.76	-36.2	-37.0	22.5	0.00e+00	0	44	0	3600809984	41	4289
2026-01-16 13:39:56.77	3.79	26.18	-36.3	-37.2	22.4	0.00e+00	0	44	0	3630170112	42	4121
2026-01-16 13:40:00.74	3.20	25.61	-36.1	-36.9	22.6	0.00e+00	0	44	0	3658481664	42	3987
2026-01-16 13:40:04.72	2.63	25.05	-36.3	-37.2	22.4	0.00e+00	0	44	0	3686793216	42	4119
2026-01-16 13:40:08.70	2.08	24.50	-36.3	-37.2	22.4	0.00e+00	0	44	0	3716153344	42	4108
2026-01-16 13:40:12.69	1.55	23.96	-36.1	-36.9	22.6	0.00e+00	0	44	0	3744464896	42	3978
2026-01-16 13:40:16.67	1.04	23.42	-36.0	-36.8	22.7	0.00e+00	0	44	0	3773825024	42	3940
2026-01-16 13:40:20.64	0.55	22.90	-36.3	-37.2	22.4	0.00e+00	0	44	0	3802136576	42	4107
2026-01-16 13:40:24.62	0.07	22.38	-36.9	-37.8	21.9	0.00e+00	0	44	0	3830448128	43	4151
2026-01-16 13:40:28.60	359.61	21.87	-37.0	-37.9	21.6	0.00e+00	0	44	0	3859808256	43	4214
2026-01-16 13:40:32.58	359.16	21.37	-36.8	-37.7	21.9	0.00e+00	0	44	0	3888119808	43	4106
2026-01-16 13:40:36.56	358.73	20.88	-36.6	-37.5	22.1	0.00e+00	0	44	0	3917479936	43	4016
2026-01-16 13:40:40.53	358.31	20.39	-36.7	-37.6	22.0	0.00e+00	0	44	0	3945791488	43	4072
2026-01-16 13:40:44.51	357.91	19.91	-37.0	-37.9	21.7	0.00e+00	0	44	0	3974103040	43	4234
2026-01-16 13:40:48.49	357.52	19.44	-37.4	-38.3	21.4	0.00e+00	0	44	0	4003463168	44	4191
2026-01-16 13:40:52.47	357.14	18.98	-37.6	-38.5	21.3	0.00e+00	0	44	0	4031774720	44	4274
2026-01-16 13:40:56.45	356.77	18.53	-37.7	-38.6	21.2	0.00e+00	0	44	0	4061134848	44	4336
2026-01-16 13:41:00.42	356.42	18.08	-37.5	-38.4	21.4	0.00e+00	0	44	0	4089446400	44	4222
2026-01-16 13:41:04.40	356.07	17.64	-37.4	-38.3	21.2	0.00e+00	0	44	0	4117757952	44	4175
2026-01-16 13:41:08.38	355.73	17.20	-37.4	-38.3	21.4	0.00e+00	0	44	0	4146069504	44	4173
2026-01-16 13:41:12.36	355.41	16.77	-37.5	-38.4	21.4	0.00e+00	0	44	0	4175429632	44	4212
2026-01-16 13:41:16.33	355.09	16.35	-37.6	-38.6	21.2	0.00e+00	0	44	0	4203741184	44	4293
2026-01-16 13:41:20.32	354.78	15.94	-37.7	-38.7	21.1	0.00e+00	0	44	0	4233101312	45	4112
2026-01-16 13:41:24.29	354.49	15.53	-37.9	-38.8	21.0	0.00e+00	0	44	0	4261412864	45	4187
2026-01-16 13:41:28.27	354.20	15.12	-38.1	-39.0	20.8	0.00e+00	0	44	0	4289724416	45	4277
2026-01-16 13:41:32.25	353.91	14.73	-38.2	-39.2	20.6	0.00e+00	0	44	0	4319084544	46	4113
2026-01-16 13:41:36.23	353.64	14.34	-38.4	-39.4	20.4	0.00e+00	0	44	0	4347396096	46	4227
2026-01-16 13:41:40.21	353.37	13.95	-38.5	-39.5	20.4	0.00e+00	0	44	0	4376756224	46	4244
2026-01-16 13:41:44.19	353.11	13.57	-38.5	-39.5	20.3	0.00e+00	0	44	0	4405067776	46	4268
2026-01-16 13:41:48.17	352.86	13.19	-38.7	-39.7	20.1	0.00e+00	0	44	0	4433379328	47	4125
2026-01-16 13:41:52.15	352.62	12.82	-38.6	-39.8	20.1	0.00e+00	0	44	0	4462739456	47	4147
2026-01-16 13:41:56.13	352.38	12.46	-39.1	-40.3	19.5	0.00e+00	0	44	0	4491051008	47	4413
2026-01-16 13:42:00.11	352.14	12.10	-39.1	-40.3	19.6	0.00e+00	0	44	0	4520411136	47	4413
2026-01-16 13:42:04.09	351.92	11.74	-39.5	-40.7	19.4	0.00e+00	0	44	0	4548722688	48	4386
2026-01-16 13:42:08.07	351.69	11.39	-39.4	-40.7	19.4	0.00e+00	0	44	0	4577034240	48	4352
2026-01-16 13:42:12.05	351.48	11.04	-39.3	-40.8	19.3	0.00e+00	0	44	0	4606394368	48	4409
2026-01-16 13:42:16.03	351.27	10.70	-39.3	-40.9	19.2	0.00e+00	0	44	0	4634705920	48	4474
2026-01-16 13:42:20.01	351.06	10.36	-39.6	-41.1	19.0	0.00e+00	0	44	0	4664066048	48	4585
2026-01-16 13:42:23.98	350.86	10.03	-39.7	-40.9	19.2	0.00e+00	0	44	0	4692377600	48	4471
2026-01-16 13:42:27.96	350.67	9.70	-40.0	-41.2	18.8	0.00e+00	0	44	0	4720689152	49	4382
2026-01-16 13:42:31.94	350.48	9.38	-40.0	-41.3	18.8	0.00e+00	0	44	0	4750049280	49	4404
2026-01-16 13:42:35.92	350.29	9.05	-40.1	-41.4	18.6	0.00e+00	0	44	0	4778360832	49	4471
2026-01-16 13:42:39.90	350.11	8.74	-50.1	-61.8	3.8	8.47e-01	0	44	104	4785700864	69	14823
2026-01-16 13:42:43.87	349.93	8.42	-51.2	-62.0	3.8	8.47e-01	0	44	104	4785700864	72	12765
2026-01-16 13:42:47.84	349.76	8.11	-51.1	-62.1	3.8	8.47e-01	0	44	104	4785700864	72	12843
2026-01-16 13:42:51.82	349.59	7.81	-51.1	-62.1	3.8	8.47e-01	0	44	104	4785700864	72	12907
2026-01-16 13:42:55.79	349.42	7.50	-51.4	-62.2	3.8	8.46e-01	0	44	104	4785700864	72	12965
2026-01-16 13:42:59.76	349.26	7.20	-51.4	-62.1	3.8	8.47e-01	0	45	104	4785700864	72	12959
2026-01-16 13:43:03.74	349.10	6.91	-51.3	-62.2	3.8	8.46e-01	0	44	104	4785700864	72	12977
2026-01-16 13:43:07.71	348.95	6.61	-51.0	-62.1	3.8	8.47e-01	0	44	104	4785700864	72	12925
2026-01-16 13:43:11.68	348.80	6.32	-51.0	-62.1	3.8	8.46e-01	0	44	104	4785700864	72	12869
2026-01-16 13:43:15.65	348.65	6.04	-51.0	-62.0	3.8	8.48e-01	0	44	104	4785700864	72	12779
2026-01-16 13:43:19.62	348.50	5.75	-51.0	-62.0	3.8	8.47e-01	0	44	104	4785700864	72	12791
2026-01-16 13:43:23.59	348.36	5.47	-51.0	-62.1	3.8	8.47e-01	0	44	104	4785700864	72	12811
2026-01-16 13:43:27.56	348.22	5.19	-51.0	-62.1	3.8	8.46e-01	0	44	104	4785700864	72	12824

#Closed at: 2026-01-16 13:43:31
#Recorded file [4785 MB]: D:/Data/31040_260116_163059.dat