passes_logs/2026/01/16/T1/T1__20260116_075001_NOAA_20_JPSS-1_rec.log

#Pass ID: 20260116_075001_NOAA 20 (JPSS-1)
#Satellite: NOAA 20 (JPSS-1)
#Configuration: NOAA 20
#almurnet v.1.7.20251203
#Start time: 2026-01-16 07:50:01

#Version: 2.0.20230620
#Station: T1
#Location: 37.570604 lon 55.790049 lat
#TLE: 1 43013U 17073A   26015.89389188  .00000026  00000+0  33113-4 0  9999
#TLE: 2 43013  98.7636 316.8238 0001460  37.8997 322.2282 14.19536128422860

#Time	Az	El	Level	Level2	SNR	BER	BlckErr	Temp	State	Recorded	gain1	gain2
2026-01-16 07:50:01.30	92.85	5.01	-49.4	-64.9	3.8	1.49e+00	0	41	0	0	70	21416
2026-01-16 07:50:04.29	92.54	5.17	-49.4	-64.9	3.8	1.49e+00	0	41	104	0	70	21445
2026-01-16 07:50:07.27	92.23	5.33	-49.3	-64.9	3.8	1.49e+00	0	41	104	0	70	21338
2026-01-16 07:50:10.26	91.92	5.48	-49.3	-64.9	3.8	1.49e+00	0	42	104	0	70	21271
2026-01-16 07:50:13.25	91.61	5.64	-49.4	-64.8	3.8	1.49e+00	0	42	104	0	70	21176
2026-01-16 07:50:16.23	91.29	5.80	-49.3	-64.8	3.8	1.49e+00	0	42	104	0	70	21233
2026-01-16 07:50:19.23	90.96	5.96	-49.3	-64.9	3.8	1.49e+00	0	42	104	0	70	21267
2026-01-16 07:50:22.22	90.64	6.12	-49.3	-64.8	3.8	1.49e+00	0	42	104	0	70	21196
2026-01-16 07:50:25.22	90.30	6.29	-49.3	-64.8	3.8	1.49e+00	0	42	104	0	70	21203
2026-01-16 07:50:28.20	89.97	6.45	-49.3	-64.8	3.8	1.49e+00	0	42	104	0	70	21234
2026-01-16 07:50:31.20	89.63	6.61	-49.3	-64.8	3.8	1.49e+00	0	42	104	0	70	21148
2026-01-16 07:50:34.18	89.29	6.77	-49.3	-64.8	3.8	1.49e+00	0	42	104	0	70	21020
2026-01-16 07:50:37.17	88.95	6.93	-49.3	-64.6	3.8	1.49e+00	0	42	104	0	70	20673
2026-01-16 07:50:40.16	88.60	7.09	-49.3	-64.7	3.8	1.49e+00	0	42	104	0	70	20891
2026-01-16 07:50:43.15	88.24	7.25	-49.3	-64.7	3.8	1.49e+00	0	43	104	0	70	20993
2026-01-16 07:50:46.14	87.88	7.41	-49.3	-64.4	3.8	1.49e+00	0	43	104	0	70	20147
2026-01-16 07:50:49.14	87.52	7.57	-49.3	-64.0	3.8	1.49e+00	0	43	104	0	70	19227
2026-01-16 07:50:52.13	87.16	7.73	-49.3	-64.3	3.8	1.49e+00	0	43	104	0	70	19976
2026-01-16 07:50:55.12	86.79	7.89	-49.3	-64.5	3.8	1.49e+00	0	43	104	0	70	20345
2026-01-16 07:50:58.11	86.41	8.05	-49.3	-63.4	3.8	1.49e+00	0	43	104	0	70	18066
2026-01-16 07:51:01.09	86.04	8.21	-49.3	-64.0	3.8	1.49e+00	0	43	104	0	70	19352
2026-01-16 07:51:04.08	85.65	8.37	-48.8	-58.9	5.2	1.21e+00	0	43	0	0	69	11309
2026-01-16 07:51:07.07	85.27	8.53	-46.3	-50.8	12.7	3.86e-04	0	43	0	5242880	64	5946
2026-01-16 07:51:10.06	84.88	8.69	-45.5	-49.2	14.4	0.00e+00	0	43	0	11534336	62	5592
2026-01-16 07:51:13.04	84.48	8.85	-47.0	-52.2	11.3	5.74e-04	0	43	0	16777216	64	6991
2026-01-16 07:51:16.03	84.08	9.00	-48.9	-59.5	4.9	3.45e-01	0	43	0	22020096	68	12895
2026-01-16 07:51:19.01	83.68	9.16	-49.2	-63.7	3.8	4.20e-01	0	43	104	27262976	69	19818
2026-01-16 07:51:22.00	83.27	9.32	-47.0	-52.3	11.2	1.31e-01	0	43	0	31457280	66	6339
2026-01-16 07:51:24.99	82.86	9.48	-46.4	-50.8	12.7	1.61e-04	0	43	0	36700160	64	5982
2026-01-16 07:51:27.99	82.44	9.64	-45.4	-48.9	14.8	7.00e-07	0	43	0	41943040	62	5389
2026-01-16 07:51:30.98	82.02	9.79	-45.3	-48.8	15.0	0.00e+00	0	43	0	48234496	62	5303
2026-01-16 07:51:33.98	81.59	9.95	-45.1	-48.5	15.2	0.00e+00	0	43	0	53477376	61	5429
2026-01-16 07:51:36.97	81.16	10.11	-45.1	-48.5	15.3	0.00e+00	0	43	0	58720256	61	5409
2026-01-16 07:51:39.95	80.72	10.26	-44.9	-48.1	15.6	0.00e+00	0	43	0	65011712	61	5207
2026-01-16 07:51:42.94	80.28	10.41	-45.0	-48.2	15.5	0.00e+00	0	43	0	70254592	61	5270
2026-01-16 07:51:45.93	79.83	10.57	-44.6	-47.7	16.1	0.00e+00	0	43	0	75497472	61	4937
2026-01-16 07:51:48.92	79.38	10.72	-44.6	-47.7	16.1	0.00e+00	0	43	0	81788928	61	4934
2026-01-16 07:51:51.91	78.93	10.87	-44.4	-47.3	16.4	0.00e+00	0	43	0	87031808	60	5027
2026-01-16 07:51:54.90	78.47	11.02	-44.1	-47.0	16.8	0.00e+00	0	43	0	92274688	60	4822
2026-01-16 07:51:57.87	78.01	11.17	-44.2	-47.0	16.8	0.00e+00	0	43	0	98566144	60	4848
2026-01-16 07:52:00.85	77.54	11.32	-43.9	-46.7	17.1	0.00e+00	0	43	0	103809024	59	4951
2026-01-16 07:52:03.84	77.07	11.47	-43.9	-46.6	17.1	0.00e+00	0	43	0	109051904	59	4914
2026-01-16 07:52:06.82	76.59	11.62	-44.0	-46.7	17.0	0.00e+00	0	43	0	115343360	59	4965
2026-01-16 07:52:09.82	76.10	11.77	-43.9	-46.6	17.2	0.00e+00	0	43	0	120586240	59	4886
2026-01-16 07:52:12.80	75.62	11.91	-43.6	-46.3	17.5	0.00e+00	0	44	0	125829120	59	4724
2026-01-16 07:52:15.79	75.12	12.05	-43.6	-46.2	17.6	0.00e+00	0	43	0	132120576	59	4674
2026-01-16 07:52:18.77	74.62	12.20	-43.5	-46.1	17.7	0.00e+00	0	43	0	137363456	58	4889
2026-01-16 07:52:21.76	74.12	12.34	-43.5	-46.1	17.7	0.00e+00	0	43	0	142606336	58	4911
2026-01-16 07:52:24.75	73.61	12.48	-43.4	-45.9	17.8	0.00e+00	0	43	0	148897792	58	4812
2026-01-16 07:52:27.74	73.10	12.62	-43.2	-45.7	18.0	0.00e+00	0	43	0	154140672	58	4688
2026-01-16 07:52:30.73	72.58	12.75	-43.2	-45.7	18.1	0.00e+00	0	43	0	159383552	58	4680
2026-01-16 07:52:33.71	72.06	12.89	-43.3	-45.8	18.0	0.00e+00	0	43	0	165675008	58	4732
2026-01-16 07:52:36.70	71.53	13.02	-43.5	-46.1	17.7	0.00e+00	0	43	0	170917888	58	4911
2026-01-16 07:52:39.69	71.00	13.16	-43.5	-46.1	17.7	0.00e+00	0	43	0	176160768	58	4871
2026-01-16 07:52:42.68	70.46	13.29	-43.7	-46.3	17.5	0.00e+00	0	43	0	182452224	58	5027
2026-01-16 07:52:45.68	69.92	13.42	-43.6	-46.2	17.6	0.00e+00	0	43	0	187695104	58	4961
2026-01-16 07:52:48.68	69.37	13.54	-43.7	-46.3	17.5	0.00e+00	0	43	0	193986560	58	5031
2026-01-16 07:52:51.65	68.82	13.67	-43.7	-46.3	17.5	0.00e+00	0	44	0	199229440	58	5014
2026-01-16 07:52:54.64	68.26	13.79	-43.4	-46.0	17.8	0.00e+00	0	43	0	204472320	58	4857
2026-01-16 07:52:57.63	67.70	13.91	-43.4	-46.0	17.8	0.00e+00	0	43	0	210763776	58	4846
2026-01-16 07:53:00.63	67.14	14.03	-43.4	-46.0	17.8	0.00e+00	0	44	0	216006656	58	4861
2026-01-16 07:53:03.62	66.57	14.15	-43.3	-45.8	18.0	0.00e+00	0	44	0	221249536	58	4752
2026-01-16 07:53:06.61	65.99	14.26	-43.2	-45.7	18.1	0.00e+00	0	44	0	227540992	58	4703
2026-01-16 07:53:09.61	65.41	14.37	-43.1	-45.7	18.2	0.00e+00	0	43	0	232783872	58	4659
2026-01-16 07:53:12.60	64.83	14.48	-43.2	-45.7	18.2	0.00e+00	0	43	0	238026752	58	4652
2026-01-16 07:53:15.59	64.24	14.59	-43.2	-45.7	18.2	0.00e+00	0	44	0	244318208	58	4657
2026-01-16 07:53:18.58	63.65	14.69	-43.0	-45.4	18.4	0.00e+00	0	43	0	249561088	57	4783
2026-01-16 07:53:21.56	63.05	14.80	-42.9	-45.3	18.5	0.00e+00	0	44	0	254803968	57	4755
2026-01-16 07:53:24.56	62.45	14.89	-43.1	-45.6	18.3	0.00e+00	0	43	0	261095424	57	4902
2026-01-16 07:53:27.55	61.85	14.99	-43.2	-45.6	18.2	0.00e+00	0	44	0	266338304	57	4914
2026-01-16 07:53:30.54	61.24	15.08	-43.1	-45.6	18.2	0.00e+00	0	44	0	271581184	57	4910
2026-01-16 07:53:33.53	60.63	15.17	-43.1	-45.5	18.3	0.00e+00	0	44	0	277872640	57	4864
2026-01-16 07:53:36.52	60.01	15.26	-43.2	-45.7	18.2	0.00e+00	0	44	0	283115520	57	4948
2026-01-16 07:53:39.51	59.39	15.35	-43.1	-45.5	18.4	0.00e+00	0	44	0	288358400	57	4823
2026-01-16 07:53:42.49	58.77	15.43	-43.3	-45.7	18.1	0.00e+00	0	44	0	294649856	57	4977
2026-01-16 07:53:45.48	58.15	15.51	-43.3	-45.8	18.1	0.00e+00	0	44	0	299892736	57	5001
2026-01-16 07:53:48.47	57.52	15.58	-43.6	-46.1	17.8	0.00e+00	0	44	0	305135616	57	5201
2026-01-16 07:53:51.46	56.89	15.65	-43.7	-46.3	17.6	0.00e+00	0	43	0	311427072	58	5027
2026-01-16 07:53:54.45	56.25	15.72	-43.8	-46.4	17.5	0.00e+00	0	44	0	316669952	58	5068
2026-01-16 07:53:57.44	55.62	15.79	-43.4	-45.9	18.0	0.00e+00	0	44	0	321912832	58	4786
2026-01-16 07:54:00.43	54.98	15.85	-43.2	-45.6	18.3	0.00e+00	0	44	0	328204288	58	4648
2026-01-16 07:54:03.42	54.33	15.91	-43.3	-45.8	18.1	0.00e+00	0	44	0	333447168	58	4717
2026-01-16 07:54:06.41	53.69	15.96	-43.2	-45.7	18.2	0.00e+00	0	44	0	339738624	58	4698
2026-01-16 07:54:09.39	53.04	16.01	-43.6	-46.2	17.8	0.00e+00	0	43	0	344981504	58	4947
2026-01-16 07:54:12.38	52.39	16.06	-43.6	-46.1	17.8	0.00e+00	0	44	0	350224384	58	4917
2026-01-16 07:54:15.37	51.74	16.10	-43.8	-46.4	17.6	0.00e+00	0	43	0	356515840	58	5053
2026-01-16 07:54:18.35	51.09	16.14	-43.8	-46.4	17.6	0.00e+00	0	44	0	361758720	58	5065
2026-01-16 07:54:21.35	50.43	16.18	-43.7	-46.3	17.6	0.00e+00	0	44	0	367001600	58	5010
2026-01-16 07:54:24.34	49.78	16.21	-43.6	-46.2	17.8	0.00e+00	0	44	0	373293056	58	4962
2026-01-16 07:54:27.33	49.12	16.24	-43.7	-46.2	17.7	0.00e+00	0	44	0	378535936	58	4978
2026-01-16 07:54:30.31	48.46	16.27	-43.6	-46.2	17.8	0.00e+00	0	44	0	383778816	58	4959
2026-01-16 07:54:33.31	47.80	16.29	-43.6	-46.1	17.8	0.00e+00	0	43	0	390070272	58	4921
2026-01-16 07:54:36.29	47.14	16.30	-43.6	-46.2	17.7	0.00e+00	0	44	0	395313152	58	4974
2026-01-16 07:54:39.29	46.48	16.32	-43.6	-46.2	17.7	0.00e+00	0	44	0	400556032	58	4970
2026-01-16 07:54:42.29	45.81	16.33	-43.8	-46.4	17.5	0.00e+00	0	44	0	406847488	58	5090
2026-01-16 07:54:45.28	45.15	16.33	-43.4	-46.0	18.0	0.00e+00	0	44	0	412090368	58	4818
2026-01-16 07:54:48.27	44.49	16.33	-43.6	-46.1	17.8	0.00e+00	0	44	0	417333248	58	4912
2026-01-16 07:54:51.26	43.82	16.33	-43.6	-46.2	17.8	0.00e+00	0	43	0	423624704	58	4928
2026-01-16 07:54:54.25	43.16	16.33	-43.6	-46.1	17.8	0.00e+00	0	44	0	428867584	58	4905
2026-01-16 07:54:57.24	42.50	16.32	-43.6	-46.2	17.8	0.00e+00	0	44	0	434110464	58	4929
2026-01-16 07:55:00.23	41.84	16.30	-43.5	-46.1	17.8	0.00e+00	0	44	0	440401920	58	4887
2026-01-16 07:55:03.22	41.18	16.29	-43.4	-45.9	18.0	0.00e+00	0	44	0	445644800	58	4796
2026-01-16 07:55:06.20	40.52	16.26	-43.4	-46.0	18.0	0.00e+00	0	43	0	450887680	58	4819
2026-01-16 07:55:09.20	39.86	16.24	-43.4	-45.9	18.0	0.00e+00	0	43	0	457179136	58	4797
2026-01-16 07:55:12.20	39.20	16.21	-43.4	-46.0	18.0	0.00e+00	0	44	0	462422016	58	4821
2026-01-16 07:55:15.19	38.55	16.18	-43.3	-45.8	18.1	0.00e+00	0	44	0	468713472	58	4730
2026-01-16 07:55:18.17	37.89	16.14	-43.0	-45.5	18.4	0.00e+00	0	44	0	473956352	57	4822
2026-01-16 07:55:21.16	37.24	16.10	-43.1	-45.6	18.3	0.00e+00	0	44	0	479199232	57	4878
2026-01-16 07:55:24.14	36.59	16.06	-43.0	-45.4	18.5	0.00e+00	0	44	0	485490688	57	4798
2026-01-16 07:55:27.13	35.94	16.01	-42.9	-45.3	18.6	0.00e+00	0	44	0	490733568	57	4747
2026-01-16 07:55:30.12	35.30	15.96	-43.0	-45.5	18.4	0.00e+00	0	44	0	495976448	57	4838
2026-01-16 07:55:33.10	34.66	15.90	-43.1	-45.6	18.2	0.00e+00	0	44	0	502267904	57	4922
2026-01-16 07:55:36.09	34.01	15.85	-43.2	-45.7	18.2	0.00e+00	0	44	0	507510784	57	4961
2026-01-16 07:55:39.09	33.37	15.78	-43.3	-45.8	18.1	0.00e+00	0	44	0	512753664	57	4996
2026-01-16 07:55:42.08	32.74	15.72	-43.2	-45.7	18.2	0.00e+00	0	43	0	519045120	57	4934
2026-01-16 07:55:45.06	32.10	15.65	-43.3	-45.8	18.0	0.00e+00	0	43	0	524288000	57	5037
2026-01-16 07:55:48.06	31.47	15.58	-43.5	-46.1	17.8	0.00e+00	0	44	0	529530880	57	5211
2026-01-16 07:55:51.05	30.84	15.50	-43.5	-46.2	17.8	0.00e+00	0	44	0	535822336	57	5220
2026-01-16 07:55:54.04	30.22	15.43	-43.6	-46.2	17.7	0.00e+00	0	44	0	541065216	58	4940
2026-01-16 07:55:57.02	29.60	15.35	-43.6	-46.2	17.7	0.00e+00	0	44	0	546308096	58	4951
2026-01-16 07:56:00.00	28.99	15.26	-43.5	-46.1	17.8	0.00e+00	0	44	0	552599552	58	4897
2026-01-16 07:56:02.99	28.37	15.17	-43.2	-45.9	18.1	0.00e+00	0	44	0	557842432	58	4762
2026-01-16 07:56:05.97	27.77	15.08	-43.2	-45.8	18.1	0.00e+00	0	44	0	563085312	58	4757
2026-01-16 07:56:08.96	27.16	14.99	-43.2	-45.9	18.0	0.00e+00	0	44	0	569376768	58	4772
2026-01-16 07:56:11.96	26.56	14.89	-43.3	-45.9	18.0	0.00e+00	0	44	0	574619648	58	4793
2026-01-16 07:56:14.95	25.96	14.80	-43.3	-45.9	18.1	0.00e+00	0	44	0	579862528	58	4774
2026-01-16 07:56:17.94	25.36	14.69	-43.3	-45.8	18.1	0.00e+00	0	44	0	586153984	58	4751
2026-01-16 07:56:20.94	24.77	14.59	-43.3	-45.9	18.0	0.00e+00	0	44	0	591396864	58	4809
2026-01-16 07:56:23.93	24.19	14.48	-43.3	-46.0	17.9	0.00e+00	0	44	0	596639744	58	4821
2026-01-16 07:56:26.92	23.61	14.37	-43.3	-46.0	18.0	0.00e+00	0	44	0	602931200	58	4821
2026-01-16 07:56:29.91	23.03	14.26	-43.3	-45.9	18.0	0.00e+00	0	44	0	608174080	58	4794
2026-01-16 07:56:32.90	22.46	14.15	-43.6	-46.2	17.8	0.00e+00	0	44	0	614465536	58	4935
2026-01-16 07:56:35.90	21.89	14.03	-43.4	-46.0	17.9	0.00e+00	0	44	0	619708416	58	4827
2026-01-16 07:56:38.89	21.32	13.91	-43.4	-46.0	17.9	0.00e+00	0	44	0	624951296	58	4834
2026-01-16 07:56:41.88	20.77	13.79	-43.7	-46.5	17.4	0.00e+00	0	44	0	631242752	58	5131
2026-01-16 07:56:44.87	20.21	13.67	-43.9	-46.9	17.0	0.00e+00	0	44	0	636485632	58	5364
2026-01-16 07:56:47.86	19.66	13.54	-43.9	-46.9	17.0	0.00e+00	0	44	0	641728512	58	5395
2026-01-16 07:56:50.85	19.12	13.42	-44.1	-47.0	17.0	0.00e+00	0	44	0	648019968	58	5408
2026-01-16 07:56:53.85	18.58	13.29	-44.3	-47.2	16.8	0.00e+00	0	44	0	653262848	59	5226
2026-01-16 07:56:56.84	18.04	13.16	-44.5	-47.4	16.5	0.00e+00	0	44	0	658505728	59	5350
2026-01-16 07:56:59.83	17.51	13.03	-44.8	-47.8	16.2	0.00e+00	0	44	0	664797184	60	5298
2026-01-16 07:57:02.82	16.99	12.89	-44.9	-48.1	15.9	0.00e+00	0	44	0	670040064	60	5474
2026-01-16 07:57:05.81	16.47	12.76	-44.7	-48.2	15.8	0.00e+00	0	44	0	675282944	60	5547
2026-01-16 07:57:08.80	15.95	12.62	-44.4	-47.8	16.1	0.00e+00	0	44	0	681574400	60	5333
2026-01-16 07:57:11.79	15.44	12.48	-44.4	-48.1	15.9	0.00e+00	0	44	0	686817280	60	5479
2026-01-16 07:57:14.77	14.94	12.34	-44.7	-48.6	15.3	0.00e+00	0	44	0	692060160	60	5837
2026-01-16 07:57:17.75	14.44	12.20	-44.8	-48.8	15.1	0.00e+00	0	44	0	698351616	60	5934
2026-01-16 07:57:20.75	13.94	12.06	-45.0	-48.7	15.3	0.00e+00	0	43	0	703594496	60	5872
2026-01-16 07:57:23.74	13.45	11.92	-45.1	-48.7	15.2	0.00e+00	0	44	0	708837376	60	5903
2026-01-16 07:57:26.73	12.96	11.77	-45.2	-48.8	15.1	0.00e+00	0	44	0	715128832	61	5633
2026-01-16 07:57:29.72	12.48	11.63	-45.3	-49.0	14.8	0.00e+00	0	44	0	720371712	61	5787
2026-01-16 07:57:32.70	12.01	11.48	-45.3	-49.0	14.9	0.00e+00	0	44	0	725614592	61	5765
2026-01-16 07:57:35.69	11.54	11.33	-44.9	-48.7	15.2	0.00e+00	0	44	0	731906048	61	5556
2026-01-16 07:57:38.68	11.07	11.18	-44.8	-48.9	15.1	0.00e+00	0	44	0	737148928	61	5665
2026-01-16 07:57:41.67	10.61	11.03	-44.7	-48.8	15.1	0.00e+00	0	44	0	742391808	61	5633
2026-01-16 07:57:44.66	10.15	10.88	-44.3	-48.4	15.6	0.00e+00	0	44	0	748683264	60	5672
2026-01-16 07:57:47.64	9.70	10.73	-43.9	-48.0	15.8	0.00e+00	0	44	0	753926144	59	5764
2026-01-16 07:57:50.63	9.25	10.58	-43.8	-48.0	15.8	0.00e+00	0	44	0	759169024	59	5777
2026-01-16 07:57:53.63	8.81	10.42	-44.2	-48.1	15.8	0.00e+00	0	44	0	765460480	59	5820
2026-01-16 07:57:56.62	8.37	10.27	-44.1	-47.9	15.9	0.00e+00	0	44	0	770703360	59	5694
2026-01-16 07:57:59.61	7.94	10.11	-44.1	-47.8	16.0	0.00e+00	0	44	0	776994816	59	5593
2026-01-16 07:58:02.60	7.51	9.96	-44.3	-47.6	16.2	0.00e+00	0	44	0	782237696	59	5511
2026-01-16 07:58:05.59	7.08	9.80	-44.0	-47.1	16.7	0.00e+00	0	44	0	787480576	59	5172
2026-01-16 07:58:08.58	6.67	9.65	-43.9	-47.0	16.8	0.00e+00	0	44	0	793772032	59	5121
2026-01-16 07:58:11.56	6.25	9.49	-43.6	-46.9	16.9	0.00e+00	0	44	0	799014912	59	5062
2026-01-16 07:58:14.55	5.84	9.33	-43.4	-46.7	17.1	0.00e+00	0	44	0	804257792	58	5236
2026-01-16 07:58:17.53	5.44	9.18	-43.4	-46.5	17.3	0.00e+00	0	44	0	810549248	58	5132
2026-01-16 07:58:20.52	5.04	9.02	-43.8	-47.1	16.8	0.00e+00	0	44	0	815792128	58	5482
2026-01-16 07:58:23.52	4.64	8.86	-49.6	-65.4	3.8	1.49e+00	0	44	104	816840704	69	23939
2026-01-16 07:58:26.51	4.25	8.70	-50.2	-65.6	3.8	1.49e+00	0	44	104	816840704	71	21914
2026-01-16 07:58:29.50	3.86	8.54	-50.2	-65.7	3.8	1.49e+00	0	44	104	816840704	71	22186
2026-01-16 07:58:32.50	3.47	8.38	-50.3	-65.8	3.8	1.49e+00	0	44	104	816840704	71	22301
2026-01-16 07:58:35.49	3.09	8.22	-50.4	-65.8	3.8	1.49e+00	0	44	104	816840704	71	22417
2026-01-16 07:58:38.48	2.72	8.06	-50.3	-65.8	3.8	1.49e+00	0	44	104	816840704	71	22462
2026-01-16 07:58:41.48	2.35	7.90	-50.6	-65.8	3.8	1.49e+00	0	44	104	816840704	71	22428
2026-01-16 07:58:44.46	1.98	7.75	-50.5	-65.8	3.8	1.49e+00	0	44	104	816840704	71	22378
2026-01-16 07:58:47.46	1.62	7.59	-50.5	-65.8	3.8	1.49e+00	0	44	104	816840704	71	22417
2026-01-16 07:58:50.45	1.26	7.43	-50.1	-65.7	3.8	1.49e+00	0	44	104	816840704	71	22236
2026-01-16 07:58:53.44	0.91	7.27	-50.1	-65.8	3.8	1.49e+00	0	44	104	816840704	71	22328
2026-01-16 07:58:56.43	0.56	7.11	-50.1	-65.7	3.8	1.49e+00	0	44	104	816840704	71	22236
2026-01-16 07:58:59.42	0.21	6.95	-50.1	-65.8	3.8	1.49e+00	0	44	104	816840704	71	22264
2026-01-16 07:59:02.40	359.87	6.79	-50.1	-65.8	3.8	1.49e+00	0	44	104	816840704	71	22341
2026-01-16 07:59:05.39	359.53	6.63	-50.1	-65.8	3.8	1.49e+00	0	44	104	816840704	71	22269
2026-01-16 07:59:08.38	359.19	6.47	-50.1	-65.8	3.8	1.49e+00	0	44	104	816840704	71	22290
2026-01-16 07:59:11.36	358.86	6.31	-50.1	-65.7	3.8	1.49e+00	0	44	104	816840704	71	22259
2026-01-16 07:59:14.36	358.54	6.15	-50.1	-65.7	3.8	1.49e+00	0	44	104	816840704	71	22207
2026-01-16 07:59:17.35	358.21	5.99	-50.1	-65.7	3.8	1.49e+00	0	44	104	816840704	71	22213
2026-01-16 07:59:20.34	357.89	5.83	-50.1	-65.7	3.8	1.49e+00	0	44	104	816840704	71	22247
2026-01-16 07:59:23.33	357.57	5.67	-50.1	-65.8	3.8	1.49e+00	0	44	104	816840704	71	22279
2026-01-16 07:59:26.32	357.26	5.51	-50.1	-65.7	3.8	1.49e+00	0	44	104	816840704	71	22159
2026-01-16 07:59:29.29	356.95	5.35	-50.1	-65.7	3.8	1.49e+00	0	44	104	816840704	71	22247
2026-01-16 07:59:32.28	356.65	5.19	-50.1	-65.8	3.8	1.49e+00	0	44	104	816840704	71	22288
2026-01-16 07:59:35.27	356.35	5.03	-50.1	-65.7	3.8	1.49e+00	0	44	104	816840704	71	22258

#Closed at: 2026-01-16 07:59:37
#Recorded file [816 MB]: D:/Data/31040_260116_105001.dat