passes_logs/2026/01/16/T1/T1__20260116_012435_AQUA_rec.log

#Pass ID: 20260116_012435_AQUA
#Satellite: AQUA
#Configuration: AQUA
#almurnet v.1.7.20251203
#Start time: 2026-01-16 01:24:36

#Version: 2.0.20230620
#Station: T1
#Location: 37.570604 lon 55.790049 lat
#TLE: 1 27424U 02022A   26015.51279194  .00000651  00000+0  14022-3 0  9990
#TLE: 2 27424  98.4082 341.9487 0002034  77.6776  33.2672 14.61821775260965

#Time	Az	El	Level	Level2	SNR	BER	BlckErr	Temp	State	Recorded	gain1	gain2
2026-01-16 01:24:36.27	15.46	5.07	-47.0	-69.0	3.8	7.45e-01	0	41	0	0	65	45938
2026-01-16 01:24:39.25	15.47	5.30	-47.0	-70.2	3.8	7.44e-01	0	41	104	0	64	55295
2026-01-16 01:24:42.23	15.47	5.52	-47.0	-68.8	3.9	7.43e-01	0	41	104	0	64	47547
2026-01-16 01:24:45.21	15.47	5.75	-47.0	-67.6	4.2	7.35e-01	0	41	104	0	64	41447
2026-01-16 01:24:48.19	15.48	5.98	-47.0	-68.1	4.1	7.39e-01	0	41	104	0	64	43906
2026-01-16 01:24:51.17	15.48	6.21	-47.0	-69.0	3.8	7.44e-01	0	42	104	0	64	48401
2026-01-16 01:24:54.15	15.48	6.45	-47.0	-67.5	4.2	7.32e-01	0	42	104	0	64	40768
2026-01-16 01:24:57.13	15.48	6.69	-47.0	-67.2	4.1	7.34e-01	0	42	104	0	64	39437
2026-01-16 01:25:00.10	15.48	6.93	-47.0	-70.0	3.8	7.46e-01	0	42	104	0	64	54229
2026-01-16 01:25:03.08	15.49	7.17	-47.0	-68.4	4.1	7.37e-01	0	42	104	0	64	45318
2026-01-16 01:25:06.06	15.49	7.41	-46.9	-61.9	7.8	6.49e-01	0	42	0	2097152	64	21374
2026-01-16 01:25:09.04	15.49	7.66	-46.6	-58.4	11.4	6.09e-01	0	42	0	7864320	64	14364
2026-01-16 01:25:12.02	15.49	7.91	-46.4	-56.8	13.1	6.06e-01	0	42	0	13631488	64	11950
2026-01-16 01:25:15.00	15.49	8.17	-46.3	-56.1	13.9	6.05e-01	0	42	0	18874368	64	10937
2026-01-16 01:25:17.98	15.49	8.42	-46.3	-55.8	14.2	6.04e-01	0	42	0	24641536	64	10552
2026-01-16 01:25:20.96	15.49	8.68	-46.4	-56.5	13.5	6.03e-01	0	42	0	30408704	64	11501
2026-01-16 01:25:23.94	15.49	8.94	-46.7	-59.1	10.8	6.14e-01	0	42	0	35651584	64	15497
2026-01-16 01:25:26.93	15.49	9.21	-46.1	-55.5	14.7	6.01e-01	0	42	0	41418752	62	11542
2026-01-16 01:25:29.91	15.49	9.48	-46.6	-55.7	12.7	6.01e-01	0	42	104	42991616	65	9879
2026-01-16 01:25:32.90	15.49	9.75	-46.7	-58.2	12.1	6.10e-01	0	42	0	48234496	65	13244
2026-01-16 01:25:35.88	15.49	10.03	-46.3	-56.2	14.2	6.05e-01	0	42	0	53477376	64	11128
2026-01-16 01:25:38.98	15.49	10.32	-46.0	-55.5	14.5	5.99e-01	0	42	0	59244544	63	10894
2026-01-16 01:25:41.82	15.48	10.59	-45.4	-52.2	17.9	6.01e-01	0	43	0	64487424	62	7877
2026-01-16 01:25:44.94	15.48	10.89	-44.9	-50.2	19.9	6.00e-01	0	43	0	70778880	61	6576
2026-01-16 01:25:47.79	15.48	11.16	-44.6	-49.4	20.7	6.03e-01	0	43	0	76021760	61	6013
2026-01-16 01:25:50.91	15.48	11.47	-44.1	-48.5	21.6	5.98e-01	0	43	0	81788928	60	5770
2026-01-16 01:25:53.76	15.48	11.76	-44.3	-48.5	21.7	6.00e-01	0	43	0	87031808	59	6110
2026-01-16 01:25:56.89	15.47	12.07	-44.1	-48.2	22.0	6.02e-01	0	43	0	92798976	59	5919
2026-01-16 01:25:59.73	15.47	12.36	-43.9	-48.3	22.0	6.01e-01	0	43	0	98566144	59	5926
2026-01-16 01:26:03.00	15.46	12.70	-43.8	-48.2	22.0	6.02e-01	0	43	0	104333312	59	5921
2026-01-16 01:26:05.71	15.46	12.99	-43.7	-48.0	22.3	6.01e-01	0	43	0	109576192	59	5751
2026-01-16 01:26:09.24	15.45	13.37	-43.6	-47.9	22.4	6.00e-01	0	43	0	116391936	59	5668
2026-01-16 01:26:11.96	15.45	13.67	-43.4	-47.8	22.5	6.00e-01	0	43	0	121110528	58	5953
2026-01-16 01:26:15.22	15.44	14.03	-43.5	-47.6	22.7	6.02e-01	0	43	0	127401984	58	5812
2026-01-16 01:26:18.00	15.44	14.34	-43.5	-47.5	22.8	6.02e-01	0	43	0	132644864	58	5734
2026-01-16 01:26:21.16	15.43	14.70	-43.4	-47.4	22.9	6.03e-01	0	43	0	138412032	58	5683
2026-01-16 01:26:24.01	15.43	15.03	-43.9	-47.5	22.9	6.01e-01	0	43	0	143654912	58	5746
2026-01-16 01:26:27.21	15.42	15.41	-44.2	-47.6	22.7	6.00e-01	0	43	0	149946368	58	5850
2026-01-16 01:26:30.34	15.41	15.78	-44.4	-47.7	22.7	6.03e-01	0	43	0	155713536	59	5547
2026-01-16 01:26:33.19	15.40	16.13	-44.5	-47.7	22.7	6.01e-01	0	43	0	160956416	59	5583
2026-01-16 01:26:36.47	15.39	16.53	-44.5	-47.8	22.6	6.02e-01	0	43	0	167247872	59	5611
2026-01-16 01:26:39.19	15.38	16.88	-44.2	-47.4	23.0	6.01e-01	0	43	0	172490752	59	5399
2026-01-16 01:26:42.71	15.37	17.33	-44.3	-47.5	23.0	6.02e-01	0	43	0	178782208	59	5407
2026-01-16 01:26:45.43	15.36	17.68	-44.1	-47.3	23.2	6.02e-01	0	43	0	184025088	59	5280
2026-01-16 01:26:48.70	15.35	18.12	-44.2	-47.3	23.2	6.02e-01	0	43	0	190316544	59	5282
2026-01-16 01:26:51.41	15.34	18.49	-44.5	-47.3	23.1	6.00e-01	0	43	0	195035136	59	5338
2026-01-16 01:26:54.70	15.32	18.94	-44.6	-47.4	22.9	6.02e-01	0	43	0	201326592	60	5100
2026-01-16 01:26:57.72	15.31	19.36	-44.4	-47.3	23.1	6.03e-01	0	43	0	207093760	60	4989
2026-01-16 01:27:00.95	15.30	19.83	-44.5	-47.4	23.0	6.02e-01	0	43	0	213385216	60	5044
2026-01-16 01:27:03.79	15.28	20.24	-44.5	-47.3	23.0	6.02e-01	0	43	0	218628096	60	5028
2026-01-16 01:27:06.92	15.26	20.71	-44.5	-47.3	23.0	6.00e-01	0	43	0	224395264	60	5039
2026-01-16 01:27:09.76	15.25	21.14	-44.6	-47.4	22.9	6.00e-01	0	43	0	229638144	60	5098
2026-01-16 01:27:13.00	15.23	21.64	-44.7	-47.6	22.8	6.02e-01	0	43	0	235929600	60	5213
2026-01-16 01:27:15.84	15.21	22.09	-44.6	-47.7	22.7	6.00e-01	0	43	0	241172480	60	5228
2026-01-16 01:27:19.09	15.19	22.62	-44.8	-47.9	22.6	6.03e-01	0	43	0	246939648	60	5350
2026-01-16 01:27:21.94	15.17	23.09	-44.4	-47.6	22.8	6.03e-01	0	43	0	252706816	60	5190
2026-01-16 01:27:25.01	15.15	23.61	-44.4	-47.7	22.7	6.03e-01	0	43	0	258473984	60	5271
2026-01-16 01:27:28.00	15.13	24.12	-44.7	-47.8	22.7	6.04e-01	0	43	0	263716864	60	5296
2026-01-16 01:27:30.99	15.10	24.65	-44.5	-47.6	22.9	6.01e-01	0	43	0	269484032	60	5162
2026-01-16 01:27:33.97	15.08	25.19	-44.3	-47.4	22.5	6.03e-01	0	43	0	275251200	60	5085
2026-01-16 01:27:36.96	15.05	25.74	-44.4	-47.5	23.0	6.01e-01	0	43	0	280494080	60	5122
2026-01-16 01:27:39.94	15.02	26.30	-44.6	-47.4	23.0	6.02e-01	0	43	0	286261248	60	5097
2026-01-16 01:27:42.93	14.99	26.87	-44.6	-47.4	23.1	6.04e-01	0	43	0	292028416	60	5055
2026-01-16 01:27:45.91	14.96	27.46	-44.3	-47.1	23.3	6.01e-01	0	43	0	297271296	60	4917
2026-01-16 01:27:48.90	14.93	28.07	-44.1	-47.0	23.5	5.99e-01	0	43	0	303038464	60	4818
2026-01-16 01:27:51.99	14.89	28.71	-44.1	-47.2	23.3	6.01e-01	0	43	0	308805632	60	4947
2026-01-16 01:27:54.98	14.86	29.34	-44.1	-47.2	23.4	6.01e-01	0	43	0	314572800	59	5247
2026-01-16 01:27:57.96	14.82	29.99	-43.9	-46.9	23.6	6.04e-01	0	43	0	319815680	59	5084
2026-01-16 01:28:00.94	14.78	30.65	-44.2	-47.0	23.5	6.00e-01	0	43	0	325582848	59	5149
2026-01-16 01:28:03.93	14.74	31.33	-44.2	-46.9	23.6	6.00e-01	0	43	0	331350016	59	5061
2026-01-16 01:28:06.92	14.69	32.03	-44.3	-47.1	23.5	6.01e-01	0	43	0	336592896	59	5166
2026-01-16 01:28:09.90	14.64	32.75	-44.5	-47.4	23.2	6.00e-01	0	43	0	342360064	59	5376
2026-01-16 01:28:12.88	14.59	33.48	-44.6	-47.3	23.1	6.03e-01	0	43	0	348127232	60	5041
2026-01-16 01:28:15.86	14.54	34.24	-44.5	-47.3	23.2	6.02e-01	0	43	0	353370112	60	5040
2026-01-16 01:28:18.85	14.48	35.01	-44.6	-47.6	22.9	6.03e-01	0	43	0	359137280	60	5183
2026-01-16 01:28:21.85	14.42	35.81	-45.4	-48.3	22.3	6.00e-01	0	43	0	364904448	61	5324
2026-01-16 01:28:24.96	14.35	36.67	-45.7	-48.8	21.8	6.02e-01	0	43	0	370671616	62	5333
2026-01-16 01:28:27.80	14.29	37.47	-45.9	-49.1	21.6	6.00e-01	0	43	0	375914496	62	5468
2026-01-16 01:28:30.93	14.21	38.37	-45.8	-49.0	21.6	6.01e-01	0	43	0	381681664	62	5448
2026-01-16 01:28:33.77	14.14	39.22	-46.1	-49.6	21.1	6.02e-01	0	43	0	386924544	63	5465
2026-01-16 01:28:36.98	14.05	40.20	-45.5	-49.0	21.6	5.99e-01	0	43	0	393216000	63	5123
2026-01-16 01:28:39.88	13.97	41.11	-45.6	-48.9	21.7	6.01e-01	0	43	0	398458880	62	5362
2026-01-16 01:28:43.17	13.86	42.18	-45.3	-48.3	22.3	6.02e-01	0	43	0	404750336	62	5011
2026-01-16 01:28:46.29	13.75	43.22	-45.1	-48.0	22.6	6.04e-01	0	43	0	410517504	62	4854
2026-01-16 01:28:49.14	13.65	44.19	-44.8	-47.6	23.0	6.03e-01	0	43	0	416284672	61	4899
2026-01-16 01:28:52.26	13.53	45.29	-44.7	-47.5	23.1	6.01e-01	0	43	0	422051840	61	4819
2026-01-16 01:28:55.23	13.40	46.37	-44.7	-47.4	23.1	6.01e-01	0	43	0	427294720	61	4806
2026-01-16 01:28:58.36	13.26	47.54	-44.8	-47.5	23.0	6.01e-01	0	43	0	433061888	61	4864
2026-01-16 01:29:01.39	13.11	48.70	-44.6	-47.4	23.1	6.02e-01	0	43	0	438829056	61	4773
2026-01-16 01:29:04.66	12.93	50.00	-44.4	-47.2	23.4	6.03e-01	0	43	0	445120512	60	4941
2026-01-16 01:29:07.49	12.76	51.15	-44.6	-47.3	23.3	6.02e-01	0	44	0	450363392	60	5011
2026-01-16 01:29:10.63	12.56	52.46	-44.2	-46.8	23.8	6.02e-01	0	43	0	456130560	59	5035
2026-01-16 01:29:13.62	12.35	53.75	-44.0	-46.5	24.1	6.00e-01	0	43	0	461897728	59	4840
2026-01-16 01:29:16.60	12.12	55.06	-44.2	-46.8	23.8	5.98e-01	0	43	0	467664896	59	5008
2026-01-16 01:29:19.99	11.82	56.60	-44.2	-46.8	23.7	6.03e-01	0	43	0	473956352	60	4744
2026-01-16 01:29:22.69	11.56	57.85	-44.7	-47.5	23.1	6.02e-01	0	43	0	478674944	60	5122
2026-01-16 01:29:25.98	11.21	59.42	-45.0	-47.8	22.7	6.01e-01	0	43	0	484966400	61	5028
2026-01-16 01:29:28.69	10.88	60.74	-45.7	-48.8	21.9	6.01e-01	0	43	0	490209280	62	5294
2026-01-16 01:29:32.25	10.39	62.52	-46.1	-49.3	21.4	6.03e-01	0	43	0	497025024	62	5621
2026-01-16 01:29:35.02	9.96	63.94	-46.7	-50.1	20.5	6.01e-01	0	43	0	501743616	64	5522
2026-01-16 01:29:38.29	9.37	65.65	-47.0	-51.3	19.4	6.02e-01	0	44	0	508035072	64	6305
2026-01-16 01:29:41.04	8.79	67.12	-48.0	-52.1	18.6	6.01e-01	0	43	0	513277952	66	6183
2026-01-16 01:29:44.31	7.99	68.89	-48.2	-52.6	18.0	6.01e-01	0	43	0	519569408	67	6195
2026-01-16 01:29:47.54	7.04	70.68	-48.2	-52.5	18.3	6.00e-01	0	43	0	525336576	67	6071
2026-01-16 01:29:50.67	5.92	72.43	-47.8	-51.9	18.9	6.03e-01	0	43	0	531103744	67	5670
2026-01-16 01:29:53.80	4.52	74.21	-47.5	-51.4	19.3	6.00e-01	0	43	0	537395200	66	5685
2026-01-16 01:29:56.64	2.94	75.83	-47.1	-50.9	19.9	6.01e-01	0	43	0	542638080	66	5356
2026-01-16 01:29:59.77	0.68	77.63	-46.9	-50.4	20.2	6.01e-01	0	43	0	548405248	65	5354
2026-01-16 01:30:02.61	357.96	79.26	-46.1	-49.2	21.5	6.01e-01	0	43	0	553648128	63	5257
2026-01-16 01:30:06.07	353.25	81.22	-45.3	-48.2	22.4	6.02e-01	0	43	0	560463872	62	4983
2026-01-16 01:30:08.79	347.75	82.71	-45.3	-48.2	22.5	6.04e-01	0	43	0	565182464	61	5221
2026-01-16 01:30:12.01	337.56	84.35	-45.3	-48.3	22.3	6.00e-01	0	43	0	571473920	61	5315
2026-01-16 01:30:14.85	322.70	85.55	-45.0	-47.9	22.7	6.02e-01	0	43	0	576716800	61	5076
2026-01-16 01:30:17.97	297.13	86.30	-44.5	-47.2	23.4	6.01e-01	0	43	0	582483968	60	4944
2026-01-16 01:30:20.81	269.93	86.17	-44.6	-47.4	23.2	5.99e-01	0	43	0	587726848	60	5076
2026-01-16 01:30:24.10	246.21	85.14	-45.3	-48.5	22.0	6.01e-01	0	43	0	594018304	61	5431
2026-01-16 01:30:26.91	233.91	83.84	-45.4	-48.5	22.2	6.00e-01	0	43	0	599261184	61	5454
2026-01-16 01:30:30.04	225.44	82.19	-45.4	-48.6	22.1	6.02e-01	0	43	0	605028352	62	5180
2026-01-16 01:30:32.89	220.42	80.61	-45.8	-48.9	21.8	5.99e-01	0	43	0	610795520	62	5352
2026-01-16 01:30:36.11	216.50	78.77	-46.2	-49.4	21.3	5.99e-01	0	43	0	616562688	63	5387
2026-01-16 01:30:38.95	214.00	77.14	-47.1	-50.7	20.0	6.00e-01	0	43	0	621805568	64	5888
2026-01-16 01:30:42.00	211.95	75.39	-48.0	-52.0	18.8	6.02e-01	0	43	0	627572736	66	6064
2026-01-16 01:30:44.98	210.39	73.68	-48.0	-52.1	18.7	6.00e-01	0	43	0	633339904	66	6169
2026-01-16 01:30:47.97	209.13	71.99	-47.4	-51.1	19.6	6.02e-01	0	43	0	638582784	66	5483
2026-01-16 01:30:50.95	208.11	70.32	-47.9	-51.8	19.0	6.00e-01	0	43	0	644349952	67	5626
2026-01-16 01:30:54.00	207.24	68.63	-48.4	-52.7	18.0	6.02e-01	0	44	0	650117120	67	6241
2026-01-16 01:30:56.99	206.52	67.01	-48.3	-52.6	18.1	6.01e-01	0	44	0	655884288	67	6167
2026-01-16 01:30:59.98	205.90	65.42	-47.4	-51.1	19.6	6.00e-01	0	43	0	661127168	66	5520
2026-01-16 01:31:02.96	205.37	63.86	-46.4	-49.8	20.9	6.02e-01	0	43	0	666894336	64	5281
2026-01-16 01:31:05.95	204.90	62.33	-46.5	-49.7	21.0	6.00e-01	0	43	0	672661504	64	5267
2026-01-16 01:31:08.98	204.49	60.81	-46.0	-49.2	21.5	6.04e-01	0	43	0	677904384	63	5262
2026-01-16 01:31:11.91	204.13	59.37	-45.6	-48.6	22.1	6.02e-01	0	44	0	683671552	63	4915
2026-01-16 01:31:14.89	203.81	57.94	-45.5	-48.4	22.3	5.99e-01	0	43	0	689438720	63	4808
2026-01-16 01:31:17.88	203.52	56.55	-44.6	-47.2	23.1	6.02e-01	0	43	0	694681600	61	4704
2026-01-16 01:31:20.84	203.26	55.20	-44.1	-46.7	23.9	6.01e-01	0	43	0	700448768	60	4655
2026-01-16 01:31:24.09	203.00	53.76	-44.0	-46.4	24.3	6.02e-01	0	43	0	706740224	59	4793
2026-01-16 01:31:27.02	202.79	52.49	-44.2	-46.8	23.8	6.04e-01	0	43	0	711983104	59	5029
2026-01-16 01:31:30.00	202.60	51.24	-44.4	-46.9	23.8	6.01e-01	0	43	0	717750272	59	5068
2026-01-16 01:31:32.99	202.42	50.02	-44.8	-47.5	23.1	6.04e-01	0	43	0	722993152	60	5149
2026-01-16 01:31:35.97	202.26	48.83	-44.6	-47.6	23.0	6.03e-01	0	43	0	728760320	60	5180
2026-01-16 01:31:38.96	202.10	47.67	-44.8	-47.9	22.8	6.04e-01	0	43	0	734527488	60	5351
2026-01-16 01:31:41.94	201.96	46.55	-44.8	-47.6	23.0	6.00e-01	0	43	0	739770368	60	5172
2026-01-16 01:31:44.93	201.83	45.45	-44.6	-47.4	23.2	6.01e-01	0	43	0	745537536	60	5050
2026-01-16 01:31:47.91	201.71	44.39	-44.6	-47.2	23.4	6.00e-01	0	43	0	751304704	60	4961
2026-01-16 01:31:50.99	201.60	43.32	-45.4	-48.4	22.3	6.01e-01	0	43	0	757071872	61	5348
2026-01-16 01:31:53.97	201.49	42.32	-45.0	-47.9	22.7	6.01e-01	0	43	0	762314752	61	5080
2026-01-16 01:31:56.96	201.40	41.34	-45.3	-48.4	22.3	6.01e-01	0	43	0	768081920	61	5351
2026-01-16 01:31:59.94	201.31	40.39	-45.8	-48.9	21.8	6.02e-01	0	43	0	773849088	62	5384
2026-01-16 01:32:02.93	201.22	39.47	-45.7	-48.8	21.9	6.02e-01	0	43	0	779091968	62	5319
2026-01-16 01:32:05.91	201.14	38.57	-45.9	-49.2	21.5	6.03e-01	0	43	0	784859136	62	5562
2026-01-16 01:32:08.96	201.06	37.67	-46.2	-49.6	21.1	6.02e-01	0	43	0	790626304	63	5486
2026-01-16 01:32:11.87	201.00	36.84	-46.0	-49.2	21.5	5.99e-01	0	43	0	795869184	63	5229
2026-01-16 01:32:15.14	200.92	35.94	-45.3	-48.2	22.4	6.00e-01	0	43	0	802160640	62	4960
2026-01-16 01:32:17.87	200.86	35.20	-44.9	-47.7	22.9	6.02e-01	0	43	0	807403520	61	4960
2026-01-16 01:32:21.13	200.80	34.34	-44.7	-47.6	23.0	6.02e-01	0	44	0	813694976	61	4891
2026-01-16 01:32:24.23	200.74	33.55	-44.5	-47.2	23.3	6.00e-01	0	43	0	819462144	60	4970
2026-01-16 01:32:27.07	200.69	32.84	-44.5	-47.2	23.3	6.03e-01	0	44	0	824705024	60	4977
2026-01-16 01:32:30.20	200.64	32.08	-44.3	-46.9	23.6	6.02e-01	0	43	0	830472192	60	4795
2026-01-16 01:32:33.04	200.60	31.41	-44.0	-46.6	23.8	6.01e-01	0	43	0	835715072	60	4648
2026-01-16 01:32:36.16	200.55	30.69	-44.1	-46.7	23.9	6.04e-01	0	43	0	841482240	59	4953
2026-01-16 01:32:39.01	200.51	30.05	-44.0	-46.5	24.1	6.02e-01	0	43	0	847249408	59	4864
2026-01-16 01:32:42.07	200.47	29.38	-44.2	-46.8	23.8	6.01e-01	0	43	0	852492288	59	5012
2026-01-16 01:32:45.20	200.43	28.71	-44.4	-47.1	23.5	6.03e-01	0	43	0	858783744	59	5170
2026-01-16 01:32:48.04	200.39	28.12	-44.6	-47.4	23.2	6.03e-01	0	43	0	864026624	59	5363
2026-01-16 01:32:51.18	200.35	27.48	-44.6	-47.5	23.1	6.00e-01	0	43	0	869793792	60	5104
2026-01-16 01:32:54.02	200.32	26.91	-44.6	-47.4	23.1	6.02e-01	0	43	0	875036672	60	5049
2026-01-16 01:32:57.14	200.29	26.30	-44.4	-47.1	23.4	6.00e-01	0	43	0	880803840	60	4887
2026-01-16 01:32:59.99	200.26	25.76	-44.6	-47.3	23.2	6.03e-01	0	43	0	886571008	60	5004
2026-01-16 01:33:03.11	200.23	25.18	-44.6	-47.4	23.1	6.00e-01	0	43	0	892338176	60	5091
2026-01-16 01:33:06.33	200.20	24.60	-44.8	-47.6	22.9	6.01e-01	0	43	0	898105344	60	5197
2026-01-16 01:33:09.35	200.18	24.06	-45.0	-47.8	22.7	6.00e-01	0	43	0	903872512	60	5329
2026-01-16 01:33:12.33	200.15	23.54	-45.1	-47.9	22.6	6.02e-01	0	43	0	909639680	60	5357
2026-01-16 01:33:15.32	200.13	23.04	-45.3	-48.1	22.3	6.03e-01	0	43	0	914882560	61	5187
2026-01-16 01:33:18.34	200.11	22.53	-45.3	-48.2	22.2	6.00e-01	0	43	0	920649728	61	5273
2026-01-16 01:33:21.35	200.08	22.04	-45.2	-48.1	22.3	6.03e-01	0	43	0	926416896	61	5202
2026-01-16 01:33:24.34	200.06	21.57	-45.0	-47.9	22.6	6.02e-01	0	43	0	932184064	61	5072
2026-01-16 01:33:27.32	200.04	21.10	-44.9	-47.8	22.6	6.01e-01	0	43	0	937426944	61	5021
2026-01-16 01:33:30.31	200.03	20.64	-44.8	-47.7	22.7	6.03e-01	0	43	0	943194112	61	4955
2026-01-16 01:33:33.29	200.01	20.20	-44.6	-47.5	23.0	6.02e-01	0	43	0	948961280	61	4820
2026-01-16 01:33:36.29	199.99	19.75	-44.6	-47.5	22.9	6.01e-01	0	43	0	954204160	61	4820
2026-01-16 01:33:39.34	199.97	19.31	-44.6	-47.5	22.9	6.00e-01	0	43	0	959971328	61	4845
2026-01-16 01:33:42.46	199.96	18.87	-44.7	-47.7	22.7	6.03e-01	0	43	0	965738496	61	4927
2026-01-16 01:33:45.30	199.94	18.48	-44.7	-47.8	22.6	6.00e-01	0	44	0	971505664	61	4994
2026-01-16 01:33:48.43	199.93	18.05	-44.8	-47.9	22.5	6.02e-01	0	44	0	977272832	61	5064
2026-01-16 01:33:51.27	199.92	17.67	-44.9	-48.0	22.3	6.04e-01	0	43	0	982515712	61	5142
2026-01-16 01:33:54.40	199.90	17.26	-45.0	-48.1	22.3	6.03e-01	0	43	0	988282880	61	5190
2026-01-16 01:33:57.32	199.89	16.88	-44.9	-48.0	22.3	6.03e-01	0	43	0	994050048	61	5131
2026-01-16 01:34:00.59	199.88	16.46	-45.0	-48.0	22.3	6.01e-01	0	43	0	999817216	61	5138
2026-01-16 01:34:03.29	199.87	16.13	-45.0	-48.0	22.3	6.03e-01	0	43	0	1005060096	61	5142
2026-01-16 01:34:06.57	199.86	15.72	-45.1	-48.1	22.2	5.99e-01	0	43	0	1011351552	61	5203
2026-01-16 01:34:09.27	199.85	15.40	-45.0	-48.0	22.3	6.00e-01	0	44	0	1016070144	61	5159
2026-01-16 01:34:12.76	199.84	14.98	-44.9	-48.0	22.4	6.05e-01	0	43	0	1022885888	61	5108
2026-01-16 01:34:15.47	199.83	14.67	-44.9	-47.9	22.4	6.03e-01	0	43	0	1027604480	61	5077
2026-01-16 01:34:18.76	199.82	14.29	-44.9	-47.9	22.4	6.02e-01	0	44	0	1033895936	61	5056
2026-01-16 01:34:21.51	199.81	13.98	-44.8	-47.8	22.5	6.01e-01	0	43	0	1039138816	61	4984
2026-01-16 01:34:24.79	199.80	13.61	-44.8	-47.7	22.5	6.03e-01	0	43	0	1045430272	61	4962
2026-01-16 01:34:27.67	199.79	13.29	-44.8	-47.7	22.5	6.02e-01	0	43	0	1050673152	61	4943
2026-01-16 01:34:31.07	199.79	12.93	-44.7	-47.7	22.5	6.02e-01	0	43	0	1056964608	61	4943
2026-01-16 01:34:33.78	199.78	12.64	-44.7	-47.7	22.5	6.02e-01	0	43	0	1062207488	61	4937
2026-01-16 01:34:37.05	199.77	12.30	-44.7	-47.7	22.5	6.02e-01	0	43	0	1068498944	61	4973
2026-01-16 01:34:39.77	199.77	12.01	-44.7	-47.7	22.5	5.99e-01	0	43	0	1073217536	61	4951
2026-01-16 01:34:43.15	199.76	11.67	-44.7	-47.8	22.4	6.03e-01	0	43	0	1079508992	61	4989
2026-01-16 01:34:46.22	199.75	11.36	-44.7	-47.8	22.3	6.01e-01	0	43	0	1085276160	61	5023
2026-01-16 01:34:49.35	199.75	11.05	-44.8	-48.0	22.1	6.00e-01	0	43	0	1091567616	61	5122
2026-01-16 01:34:52.19	199.74	10.77	-44.8	-48.0	22.1	6.01e-01	0	43	0	1096810496	61	5148
2026-01-16 01:34:55.32	199.74	10.47	-44.8	-48.1	22.0	6.03e-01	0	43	0	1102577664	61	5205
2026-01-16 01:34:58.16	199.73	10.20	-45.0	-48.3	21.8	6.01e-01	0	44	0	1107820544	61	5283
2026-01-16 01:35:01.50	199.73	9.89	-45.0	-48.3	21.7	6.01e-01	0	43	0	1114112000	61	5328
2026-01-16 01:35:04.21	199.73	9.64	-45.1	-48.4	21.7	6.01e-01	0	44	0	1119354880	61	5398
2026-01-16 01:35:07.49	199.72	9.33	-44.9	-48.4	21.7	6.01e-01	0	44	0	1125646336	61	5350
2026-01-16 01:35:10.19	199.72	9.09	-45.0	-48.5	21.5	5.99e-01	0	44	0	1130364928	61	5449
2026-01-16 01:35:13.62	199.72	8.78	-50.6	-71.3	3.8	7.46e-01	0	44	104	1134034944	71	42347
2026-01-16 01:35:16.36	199.71	8.54	-51.8	-71.9	3.8	7.43e-01	0	43	104	1134034944	74	37952
2026-01-16 01:35:19.76	199.71	8.24	-51.1	-72.0	3.8	7.47e-01	0	44	104	1134034944	73	40689
2026-01-16 01:35:22.51	199.71	8.01	-51.7	-72.0	3.8	7.45e-01	0	43	104	1134034944	74	38594
2026-01-16 01:35:25.77	199.71	7.73	-51.3	-72.1	3.8	7.48e-01	0	44	104	1134034944	74	38689
2026-01-16 01:35:28.50	199.70	7.50	-51.9	-72.1	3.8	7.47e-01	0	43	104	1134034944	75	36534
2026-01-16 01:35:31.76	199.70	7.23	-51.6	-72.0	3.8	7.43e-01	0	44	104	1134034944	75	36481
2026-01-16 01:35:34.46	199.70	7.00	-50.5	-72.0	3.8	7.44e-01	0	43	104	1134034944	72	43121
2026-01-16 01:35:37.74	199.70	6.74	-50.8	-71.9	3.8	7.45e-01	0	43	104	1134034944	72	42840
2026-01-16 01:35:40.43	199.70	6.52	-50.8	-72.0	3.8	7.47e-01	0	44	104	1134034944	72	42930
2026-01-16 01:35:43.70	199.70	6.26	-50.8	-71.9	3.8	7.47e-01	0	43	104	1134034944	72	42840
2026-01-16 01:35:46.39	199.70	6.05	-50.8	-71.9	3.8	7.45e-01	0	43	104	1134034944	72	42846
2026-01-16 01:35:49.67	199.69	5.79	-50.8	-71.9	3.8	7.44e-01	0	44	104	1134034944	72	42835
2026-01-16 01:35:52.38	199.69	5.58	-50.8	-71.9	3.8	7.46e-01	0	44	104	1134034944	72	42728
2026-01-16 01:35:55.66	199.69	5.33	-50.8	-71.9	3.8	7.43e-01	0	44	104	1134034944	72	42743
2026-01-16 01:35:58.36	199.69	5.12	-50.8	-71.9	3.8	7.46e-01	0	44	104	1134034944	72	42757

#Closed at: 2026-01-16 01:36:01
#Recorded file [1134 MB]: D:/Data/31040_260116_042436.dat