passes_logs/2026/01/16/T1/T1__20260116_114604_FENGYUN_3D_rec.log

#Pass ID: 20260116_114604_FENGYUN 3D
#Satellite: FENGYUN 3D
#Configuration: FENGYUN 3D
#almurnet v.1.7.20251203
#Start time: 2026-01-16 11:46:04

#Version: 2.0.20230620
#Station: T1
#Location: 37.570604 lon 55.790049 lat
#TLE: 1 43010U 17072A   26015.99024095 -.00000189  00000+0 -67463-4 0  9996
#TLE: 2 43010  98.9932 347.8215 0002366 106.5594 253.5841 14.19694691423396

#Time	Az	El	Level	Level2	SNR	BER	BlckErr	Temp	State	Recorded	gain1	gain2
2026-01-16 11:46:04.48	153.64	5.02	-49.8	-61.9	3.8	8.48e-01	0	41	0	0	71	14215
2026-01-16 11:46:08.45	153.60	5.31	-49.8	-62.0	3.8	8.47e-01	0	41	104	0	71	14448
2026-01-16 11:46:12.42	153.56	5.60	-49.9	-62.3	3.8	8.46e-01	0	41	104	0	71	14904
2026-01-16 11:46:16.39	153.52	5.89	-49.7	-61.2	3.8	8.47e-01	0	41	104	0	71	13212
2026-01-16 11:46:20.37	153.48	6.19	-49.6	-60.2	3.8	8.46e-01	0	41	104	0	71	11758
2026-01-16 11:46:24.34	153.44	6.49	-49.8	-61.3	3.8	8.47e-01	0	42	104	0	71	13407
2026-01-16 11:46:28.31	153.40	6.79	-49.8	-62.3	3.8	8.47e-01	0	42	104	0	71	14927
2026-01-16 11:46:32.28	153.36	7.09	-49.7	-61.0	3.8	8.46e-01	0	42	104	0	71	12874
2026-01-16 11:46:36.25	153.31	7.41	-49.0	-56.7	5.0	7.86e-01	0	42	0	0	70	8300
2026-01-16 11:46:40.23	153.27	7.72	-46.5	-50.6	10.1	1.43e-02	0	42	0	17825792	65	5514
2026-01-16 11:46:44.20	153.22	8.04	-43.7	-46.4	14.5	3.40e-06	0	42	0	40894464	59	4795
2026-01-16 11:46:48.17	153.17	8.36	-42.8	-45.3	15.6	0.00e+00	0	42	0	62914560	56	4998
2026-01-16 11:46:52.14	153.13	8.69	-43.9	-46.6	14.4	0.00e+00	0	42	0	85983232	58	5174
2026-01-16 11:46:56.11	153.07	9.02	-46.7	-50.9	9.9	5.97e-03	0	43	0	108003328	64	6004
2026-01-16 11:47:00.09	153.02	9.35	-40.9	-43.0	17.7	0.00e+00	0	43	0	130023424	53	4575
2026-01-16 11:47:04.07	152.97	9.69	-40.4	-42.5	18.2	0.00e+00	0	42	0	146800640	52	4546
2026-01-16 11:47:08.05	152.91	10.04	-39.8	-41.8	18.9	0.00e+00	0	43	0	169869312	51	4456
2026-01-16 11:47:12.03	152.86	10.39	-40.2	-42.2	18.6	0.00e+00	0	43	0	191889408	51	4675
2026-01-16 11:47:16.00	152.80	10.74	-39.8	-41.8	19.0	0.00e+00	0	43	0	213909504	51	4451
2026-01-16 11:47:19.98	152.74	11.10	-39.4	-41.4	19.4	0.00e+00	0	43	0	236978176	50	4496
2026-01-16 11:47:23.96	152.68	11.47	-39.3	-41.2	19.5	0.00e+00	0	43	0	258998272	50	4424
2026-01-16 11:47:27.94	152.62	11.84	-39.3	-41.3	19.4	8.23e-05	0	43	0	281018368	50	4466
2026-01-16 11:47:31.91	152.55	12.21	-39.2	-41.1	19.6	0.00e+00	0	43	0	304087040	50	4372
2026-01-16 11:47:35.88	152.48	12.60	-39.1	-41.0	19.7	0.00e+00	0	43	0	326107136	50	4323
2026-01-16 11:47:39.86	152.41	12.98	-38.9	-40.8	19.9	0.00e+00	0	43	0	348127232	49	4481
2026-01-16 11:47:43.84	152.34	13.38	-38.9	-40.8	19.9	0.00e+00	0	43	0	371195904	49	4452
2026-01-16 11:47:47.82	152.27	13.78	-38.8	-40.7	20.0	0.00e+00	0	43	0	393216000	49	4421
2026-01-16 11:47:51.80	152.19	14.19	-38.5	-40.4	20.3	0.00e+00	0	43	0	415236096	48	4514
2026-01-16 11:47:55.78	152.11	14.60	-38.6	-40.5	20.1	0.00e+00	0	43	0	438304768	48	4588
2026-01-16 11:47:59.76	152.03	15.03	-38.6	-40.5	20.2	0.00e+00	0	43	0	460324864	48	4576
2026-01-16 11:48:03.74	151.95	15.46	-38.2	-40.0	20.6	0.00e+00	0	43	0	482344960	48	4338
2026-01-16 11:48:07.71	151.86	15.89	-38.0	-39.8	20.8	0.00e+00	0	43	0	505413632	48	4210
2026-01-16 11:48:11.69	151.77	16.34	-37.8	-39.6	20.7	0.00e+00	0	44	0	527433728	47	4384
2026-01-16 11:48:15.68	151.68	16.79	-37.7	-39.5	20.8	0.00e+00	0	43	0	549453824	47	4314
2026-01-16 11:48:19.66	151.58	17.25	-37.5	-39.3	21.0	0.00e+00	0	43	0	572522496	47	4237
2026-01-16 11:48:23.64	151.49	17.72	-37.4	-39.2	21.1	0.00e+00	0	43	0	594542592	46	4412
2026-01-16 11:48:27.61	151.38	18.20	-37.4	-39.2	21.2	0.00e+00	0	43	0	617611264	46	4407
2026-01-16 11:48:31.59	151.28	18.69	-37.2	-39.0	21.3	0.00e+00	0	43	0	639631360	46	4326
2026-01-16 11:48:35.57	151.17	19.19	-37.3	-39.1	21.2	0.00e+00	0	43	0	661651456	46	4356
2026-01-16 11:48:39.54	151.05	19.70	-37.3	-39.1	21.2	0.00e+00	0	43	0	683671552	46	4369
2026-01-16 11:48:43.52	150.94	20.22	-37.5	-39.3	21.0	0.00e+00	0	43	0	706740224	46	4464
2026-01-16 11:48:47.50	150.81	20.75	-37.5	-39.4	20.9	0.00e+00	0	43	0	728760320	46	4508
2026-01-16 11:48:51.48	150.69	21.29	-37.4	-39.2	21.0	0.00e+00	0	43	0	751828992	46	4429
2026-01-16 11:48:55.46	150.55	21.84	-36.9	-38.7	21.5	0.00e+00	0	43	0	773849088	45	4398
2026-01-16 11:48:59.44	150.42	22.41	-36.8	-38.6	21.6	0.00e+00	0	43	0	795869184	45	4352
2026-01-16 11:49:03.42	150.27	22.99	-36.5	-38.3	21.9	0.00e+00	0	43	0	818937856	44	4450
2026-01-16 11:49:07.40	150.12	23.58	-36.6	-38.4	21.8	0.00e+00	0	43	0	840957952	44	4499
2026-01-16 11:49:11.38	149.97	24.18	-36.5	-38.2	21.9	0.00e+00	0	44	0	862978048	44	4441
2026-01-16 11:49:15.36	149.81	24.80	-36.6	-38.4	21.9	0.00e+00	0	44	0	884998144	44	4504
2026-01-16 11:49:19.33	149.64	25.43	-36.4	-38.2	22.0	0.00e+00	0	43	0	908066816	44	4398
2026-01-16 11:49:23.32	149.46	26.08	-36.2	-38.0	22.3	0.00e+00	0	43	0	930086912	44	4294
2026-01-16 11:49:27.29	149.28	26.75	-36.2	-37.9	22.2	0.00e+00	0	43	0	953155584	44	4284
2026-01-16 11:49:31.27	149.08	27.43	-36.4	-38.2	22.0	0.00e+00	0	43	0	975175680	44	4403
2026-01-16 11:49:35.26	148.88	28.13	-36.4	-38.2	22.0	0.00e+00	0	44	0	997195776	44	4411
2026-01-16 11:49:39.24	148.67	28.84	-36.3	-38.1	22.0	0.00e+00	0	43	0	1020264448	44	4383
2026-01-16 11:49:43.21	148.45	29.57	-36.4	-38.2	21.8	0.00e+00	0	43	0	1042284544	44	4441
2026-01-16 11:49:47.20	148.22	30.33	-36.1	-37.9	22.2	0.00e+00	0	43	0	1064304640	44	4256
2026-01-16 11:49:51.17	147.97	31.10	-35.8	-37.5	22.3	0.00e+00	0	43	0	1087373312	43	4336
2026-01-16 11:49:55.16	147.71	31.89	-35.7	-37.5	22.4	0.00e+00	0	43	0	1109393408	43	4307
2026-01-16 11:49:59.13	147.44	32.70	-35.4	-37.1	22.7	0.00e+00	0	43	0	1131413504	42	4360
2026-01-16 11:50:03.12	147.16	33.54	-35.4	-37.1	22.7	0.00e+00	0	44	0	1154482176	42	4380
2026-01-16 11:50:07.10	146.86	34.40	-35.6	-37.3	22.6	0.00e+00	0	43	0	1176502272	42	4483
2026-01-16 11:50:11.07	146.54	35.28	-34.9	-36.6	23.2	0.00e+00	0	44	0	1199570944	41	4378
2026-01-16 11:50:15.05	146.20	36.18	-35.1	-36.8	23.0	0.00e+00	0	44	0	1221591040	41	4460
2026-01-16 11:50:19.03	145.85	37.11	-35.6	-37.4	22.6	0.00e+00	0	43	0	1243611136	41	4769
2026-01-16 11:50:23.01	145.47	38.07	-35.6	-37.3	22.6	0.00e+00	0	43	0	1266679808	42	4475
2026-01-16 11:50:26.99	145.07	39.05	-35.6	-37.3	22.6	0.00e+00	0	43	0	1288699904	42	4468
2026-01-16 11:50:30.97	144.64	40.06	-35.3	-37.0	22.9	0.00e+00	0	44	0	1310720000	42	4333
2026-01-16 11:50:34.95	144.18	41.09	-35.9	-37.6	22.4	0.00e+00	0	44	0	1332740096	42	4643
2026-01-16 11:50:38.93	143.69	42.16	-36.3	-38.1	22.0	0.00e+00	0	44	0	1355808768	43	4599
2026-01-16 11:50:42.91	143.17	43.25	-36.0	-37.8	22.2	0.00e+00	0	44	0	1377828864	43	4466
2026-01-16 11:50:46.89	142.61	44.37	-36.0	-37.8	22.3	0.00e+00	0	43	0	1400897536	43	4474
2026-01-16 11:50:50.86	142.01	45.52	-35.9	-37.6	22.5	0.00e+00	0	44	0	1422917632	43	4342
2026-01-16 11:50:54.84	141.36	46.70	-35.9	-37.6	22.5	0.00e+00	0	43	0	1444937728	43	4382
2026-01-16 11:50:58.82	140.65	47.91	-36.1	-37.8	22.4	0.00e+00	0	44	0	1468006400	43	4473
2026-01-16 11:51:02.79	139.89	49.15	-36.5	-38.2	22.0	0.00e+00	0	44	0	1490026496	43	4695
2026-01-16 11:51:06.77	139.07	50.42	-37.0	-38.7	21.7	0.00e+00	0	43	0	1512046592	44	4681
2026-01-16 11:51:10.75	138.16	51.72	-37.2	-39.0	21.5	0.00e+00	0	44	0	1535115264	45	4551
2026-01-16 11:51:14.73	137.18	53.05	-37.3	-39.0	21.4	0.00e+00	0	43	0	1557135360	45	4593
2026-01-16 11:51:18.71	136.10	54.40	-36.8	-38.6	21.9	0.00e+00	0	43	0	1579155456	45	4343
2026-01-16 11:51:22.69	134.91	55.78	-36.8	-38.5	21.9	0.00e+00	0	44	0	1602224128	45	4335
2026-01-16 11:51:26.67	133.59	57.18	-36.7	-38.4	21.9	0.00e+00	0	43	0	1624244224	45	4281
2026-01-16 11:51:30.64	132.13	58.59	-36.4	-38.1	22.3	0.00e+00	0	44	0	1646264320	44	4366
2026-01-16 11:51:34.62	130.51	60.03	-36.4	-38.1	22.3	0.00e+00	0	44	0	1669332992	44	4383
2026-01-16 11:51:38.60	128.68	61.47	-36.4	-38.1	22.2	0.00e+00	0	43	0	1691353088	44	4365
2026-01-16 11:51:42.58	126.64	62.91	-35.4	-37.1	22.9	0.00e+00	0	44	0	1713373184	42	4382
2026-01-16 11:51:46.56	124.33	64.35	-35.7	-37.4	22.6	0.00e+00	0	43	0	1736441856	42	4530
2026-01-16 11:51:50.54	121.71	65.77	-34.9	-36.6	23.2	0.00e+00	0	43	0	1758461952	41	4375
2026-01-16 11:51:54.52	118.73	67.17	-34.7	-36.4	23.4	0.00e+00	0	43	0	1781530624	41	4277
2026-01-16 11:51:58.50	115.32	68.52	-34.6	-36.3	23.6	0.00e+00	0	43	0	1803550720	41	4200
2026-01-16 11:52:02.47	111.44	69.81	-34.8	-36.5	23.3	0.00e+00	0	44	0	1825570816	41	4307
2026-01-16 11:52:06.45	107.00	71.02	-34.9	-36.6	23.3	0.00e+00	0	43	0	1847590912	41	4355
2026-01-16 11:52:10.43	101.94	72.12	-34.6	-36.2	23.5	0.00e+00	0	43	0	1870659584	41	4181
2026-01-16 11:52:14.41	96.23	73.08	-34.9	-36.6	23.2	0.00e+00	0	44	0	1892679680	40	4627
2026-01-16 11:52:18.39	89.87	73.87	-34.7	-36.4	23.4	0.00e+00	0	44	0	1914699776	41	4279
2026-01-16 11:52:22.37	82.92	74.44	-34.5	-36.2	23.6	0.00e+00	0	43	0	1937768448	39	4658
2026-01-16 11:52:26.35	75.52	74.79	-34.6	-36.3	23.5	0.00e+00	0	44	0	1959788544	39	4732
2026-01-16 11:52:30.32	67.92	74.88	-34.6	-36.4	23.5	0.00e+00	0	44	0	1982857216	40	4499
2026-01-16 11:52:34.30	60.34	74.71	-34.7	-36.5	23.3	0.00e+00	0	44	0	2004877312	40	4548
2026-01-16 11:52:38.28	53.06	74.30	-34.4	-36.1	23.6	0.00e+00	0	43	0	2026897408	40	4379
2026-01-16 11:52:42.26	46.27	73.66	-34.0	-35.7	24.0	0.00e+00	0	43	0	2048917504	39	4409
2026-01-16 11:52:46.24	40.09	72.82	-34.7	-36.4	23.4	0.00e+00	0	43	0	2071986176	40	4521
2026-01-16 11:52:50.22	34.57	71.82	-34.3	-36.0	23.7	0.00e+00	0	43	0	2094006272	40	4302
2026-01-16 11:52:54.21	29.69	70.68	-34.7	-36.3	23.5	0.00e+00	0	43	0	2116026368	40	4481
2026-01-16 11:52:58.18	25.43	69.45	-34.6	-36.3	23.5	0.00e+00	0	44	0	2139095040	40	4475
2026-01-16 11:53:02.16	21.70	68.14	-34.9	-36.6	23.3	0.00e+00	0	44	0	2161115136	40	4635
2026-01-16 11:53:06.14	18.43	66.78	-34.9	-36.6	23.3	0.00e+00	0	44	0	2184183808	40	4623
2026-01-16 11:53:10.11	15.57	65.38	-34.9	-36.5	23.4	0.00e+00	0	44	0	2206203904	40	4592
2026-01-16 11:53:14.09	13.04	63.95	-35.2	-36.9	23.1	0.00e+00	0	43	0	2228224000	41	4541
2026-01-16 11:53:18.07	10.81	62.52	-35.2	-36.9	23.1	0.00e+00	0	44	0	2251292672	41	4524
2026-01-16 11:53:22.05	8.84	61.08	-35.4	-37.1	23.0	0.00e+00	0	44	0	2273312768	41	4607
2026-01-16 11:53:26.03	7.08	59.64	-35.7	-37.4	22.7	0.00e+00	0	43	0	2295332864	42	4531
2026-01-16 11:53:30.01	5.50	58.22	-36.3	-38.0	22.3	0.00e+00	0	44	0	2318401536	43	4571
2026-01-16 11:53:34.00	4.09	56.80	-36.6	-38.3	22.0	0.00e+00	0	43	0	2340421632	43	4742
2026-01-16 11:53:37.97	2.81	55.42	-36.9	-38.7	21.8	0.00e+00	0	43	0	2362441728	44	4661
2026-01-16 11:53:41.95	1.66	54.05	-37.2	-38.9	21.6	0.00e+00	0	44	0	2385510400	45	4535
2026-01-16 11:53:45.93	0.61	52.71	-36.9	-38.6	21.9	0.00e+00	0	44	0	2407530496	45	4376
2026-01-16 11:53:49.91	359.65	51.39	-36.3	-38.0	22.3	0.00e+00	0	44	0	2429550592	44	4338
2026-01-16 11:53:53.89	358.77	50.11	-36.0	-37.6	22.9	0.00e+00	0	44	0	2452619264	43	4391
2026-01-16 11:53:57.86	357.97	48.85	-36.0	-37.6	22.9	0.00e+00	0	43	0	2474639360	43	4385
2026-01-16 11:54:01.84	357.22	47.62	-35.8	-37.4	23.1	0.00e+00	0	44	0	2496659456	43	4275
2026-01-16 11:54:05.82	356.54	46.43	-35.6	-37.2	23.3	0.00e+00	0	43	0	2519728128	43	4176
2026-01-16 11:54:09.80	355.90	45.26	-36.0	-37.7	22.9	0.00e+00	0	44	0	2541748224	43	4414
2026-01-16 11:54:13.77	355.32	44.12	-35.9	-37.5	23.0	0.00e+00	0	44	0	2563768320	43	4334
2026-01-16 11:54:17.76	354.77	43.01	-36.0	-37.6	22.9	0.00e+00	0	43	0	2586836992	43	4390
2026-01-16 11:54:21.73	354.26	41.93	-35.7	-37.3	23.2	0.00e+00	0	43	0	2608857088	43	4242
2026-01-16 11:54:25.71	353.78	40.88	-35.2	-36.8	23.6	0.00e+00	0	44	0	2630877184	42	4213
2026-01-16 11:54:29.69	353.33	39.85	-34.9	-36.5	23.9	0.00e+00	0	44	0	2653945856	41	4299
2026-01-16 11:54:33.67	352.91	38.85	-35.1	-36.7	23.7	0.00e+00	0	44	0	2675965952	41	4424
2026-01-16 11:54:37.65	352.52	37.88	-35.1	-36.8	23.7	0.00e+00	0	44	0	2697986048	41	4444
2026-01-16 11:54:41.63	352.15	36.94	-35.2	-36.9	23.5	0.00e+00	0	43	0	2721054720	41	4505
2026-01-16 11:54:45.60	351.80	36.02	-35.2	-36.8	23.6	0.00e+00	0	44	0	2743074816	41	4469
2026-01-16 11:54:49.58	351.47	35.13	-35.4	-37.0	23.4	0.00e+00	0	44	0	2766143488	41	4592
2026-01-16 11:54:53.55	351.16	34.26	-35.5	-37.2	23.3	0.00e+00	0	44	0	2788163584	41	4667
2026-01-16 11:54:57.54	350.87	33.41	-35.6	-37.3	23.2	0.00e+00	0	44	0	2810183680	41	4711
2026-01-16 11:55:01.52	350.59	32.58	-35.7	-37.4	23.2	0.00e+00	0	43	0	2833252352	42	4498
2026-01-16 11:55:05.50	350.32	31.78	-35.8	-37.5	23.0	0.00e+00	0	44	0	2855272448	42	4562
2026-01-16 11:55:09.47	350.07	30.99	-35.9	-37.6	23.0	0.00e+00	0	44	0	2877292544	42	4636
2026-01-16 11:55:13.46	349.83	30.23	-35.8	-37.5	23.0	0.00e+00	0	44	0	2899312640	42	4571
2026-01-16 11:55:17.44	349.61	29.48	-35.6	-37.3	23.2	0.00e+00	0	44	0	2922381312	42	4447
2026-01-16 11:55:21.41	349.39	28.76	-35.7	-37.4	23.2	0.00e+00	0	43	0	2944401408	42	4497
2026-01-16 11:55:25.39	349.18	28.05	-35.9	-37.6	22.9	0.00e+00	0	44	0	2967470080	42	4621
2026-01-16 11:55:29.37	348.99	27.36	-36.0	-37.7	22.8	0.00e+00	0	44	0	2989490176	42	4696
2026-01-16 11:55:33.35	348.80	26.69	-35.9	-37.5	23.0	0.00e+00	0	44	0	3011510272	42	4592
2026-01-16 11:55:37.33	348.62	26.03	-35.9	-37.5	23.0	0.00e+00	0	44	0	3034578944	42	4585
2026-01-16 11:55:41.32	348.45	25.38	-36.0	-37.6	22.9	0.00e+00	0	44	0	3056599040	42	4649
2026-01-16 11:55:45.30	348.28	24.76	-36.0	-37.7	22.8	0.00e+00	0	44	0	3078619136	42	4677
2026-01-16 11:55:49.27	348.12	24.15	-36.2	-37.8	22.7	0.00e+00	0	44	0	3101687808	43	4490
2026-01-16 11:55:53.25	347.97	23.55	-36.2	-37.9	22.6	0.00e+00	0	44	0	3123707904	43	4542
2026-01-16 11:55:57.23	347.83	22.96	-36.4	-38.1	22.4	0.00e+00	0	44	0	3145728000	43	4632
2026-01-16 11:56:01.21	347.69	22.39	-36.4	-38.0	22.5	0.00e+00	0	43	0	3168796672	43	4592
2026-01-16 11:56:05.19	347.56	21.83	-36.4	-38.1	22.4	0.00e+00	0	44	0	3190816768	43	4643
2026-01-16 11:56:09.17	347.43	21.28	-36.6	-38.3	22.3	0.00e+00	0	44	0	3213885440	43	4718
2026-01-16 11:56:13.14	347.30	20.74	-36.9	-38.6	22.1	0.00e+00	0	44	0	3235905536	44	4635
2026-01-16 11:56:17.13	347.19	20.22	-37.1	-38.8	22.0	0.00e+00	0	43	0	3257925632	44	4726
2026-01-16 11:56:21.11	347.07	19.70	-37.1	-38.9	21.9	0.00e+00	0	44	0	3279945728	45	4506
2026-01-16 11:56:25.08	346.96	19.20	-37.3	-39.0	21.8	0.00e+00	0	44	0	3303014400	45	4567
2026-01-16 11:56:29.06	346.86	18.70	-37.4	-39.2	21.6	0.00e+00	0	44	0	3325034496	45	4663
2026-01-16 11:56:33.05	346.75	18.22	-37.5	-39.3	21.5	0.00e+00	0	44	0	3347054592	45	4728
2026-01-16 11:56:37.03	346.66	17.74	-37.6	-39.4	21.4	0.00e+00	0	44	0	3370123264	46	4534
2026-01-16 11:56:41.01	346.56	17.27	-37.6	-39.4	21.4	0.00e+00	0	43	0	3392143360	46	4538
2026-01-16 11:56:44.99	346.47	16.81	-37.8	-39.6	21.2	0.00e+00	0	43	0	3415212032	46	4643
2026-01-16 11:56:48.97	346.38	16.37	-38.0	-39.8	21.1	0.00e+00	0	44	0	3437232128	46	4706
2026-01-16 11:56:52.95	346.29	15.92	-38.1	-39.9	21.0	0.00e+00	0	44	0	3459252224	47	4494
2026-01-16 11:56:56.93	346.21	15.49	-38.2	-40.0	20.8	0.00e+00	0	43	0	3482320896	47	4586
2026-01-16 11:57:00.91	346.13	15.06	-38.2	-40.1	20.7	0.00e+00	0	44	0	3504340992	47	4633
2026-01-16 11:57:04.89	346.06	14.64	-38.5	-40.4	20.4	0.00e+00	0	44	0	3526361088	47	4794
2026-01-16 11:57:08.86	345.98	14.23	-38.5	-40.3	20.5	0.00e+00	0	44	0	3549429760	47	4749
2026-01-16 11:57:12.84	345.91	13.83	-38.7	-40.5	20.3	0.00e+00	0	43	0	3571449856	47	4857
2026-01-16 11:57:16.82	345.84	13.43	-38.9	-40.8	20.3	0.00e+00	0	44	0	3593469952	48	4716
2026-01-16 11:57:20.80	345.77	13.04	-38.8	-40.8	20.3	0.00e+00	0	43	0	3616538624	48	4709
2026-01-16 11:57:24.78	345.71	12.65	-39.0	-41.0	20.1	0.00e+00	0	44	0	3638558720	48	4830
2026-01-16 11:57:28.76	345.64	12.27	-39.1	-41.0	20.0	0.00e+00	0	44	0	3661627392	48	4850
2026-01-16 11:57:32.74	345.58	11.90	-39.2	-41.1	20.0	0.00e+00	0	44	0	3683647488	49	4617
2026-01-16 11:57:36.72	345.52	11.53	-39.1	-41.2	19.9	0.00e+00	0	44	0	3705667584	49	4654
2026-01-16 11:57:40.70	345.47	11.17	-39.3	-41.5	19.5	0.00e+00	0	44	0	3727687680	49	4846
2026-01-16 11:57:44.68	345.41	10.81	-39.1	-41.3	19.7	0.00e+00	0	44	0	3750756352	49	4752
2026-01-16 11:57:48.66	345.36	10.45	-39.2	-41.5	19.5	0.00e+00	0	44	0	3772776448	49	4837
2026-01-16 11:57:52.64	345.31	10.11	-39.4	-41.6	19.4	0.00e+00	0	44	0	3794796544	49	4890
2026-01-16 11:57:56.62	345.26	9.76	-39.5	-41.7	19.2	0.00e+00	0	44	0	3817865216	49	4980
2026-01-16 11:58:00.60	345.21	9.43	-39.5	-41.8	19.2	0.00e+00	0	44	0	3839885312	50	4743
2026-01-16 11:58:04.58	345.16	9.09	-39.6	-42.0	18.9	0.00e+00	0	44	0	3862953984	50	4865
2026-01-16 11:58:08.56	345.11	8.76	-50.0	-62.8	3.8	8.47e-01	0	44	104	3870294016	70	16714
2026-01-16 11:58:12.53	345.07	8.44	-50.5	-63.0	3.8	8.48e-01	0	44	104	3870294016	72	15233
2026-01-16 11:58:16.50	345.02	8.12	-50.7	-63.1	3.8	8.47e-01	0	44	104	3870294016	72	15405
2026-01-16 11:58:20.47	344.98	7.80	-50.8	-63.1	3.8	8.47e-01	0	44	104	3870294016	72	15522
2026-01-16 11:58:24.44	344.94	7.49	-50.9	-63.1	3.8	8.47e-01	0	44	104	3870294016	72	15522
2026-01-16 11:58:28.42	344.90	7.18	-50.9	-63.1	3.8	8.46e-01	0	44	104	3870294016	72	15511
2026-01-16 11:58:32.39	344.86	6.88	-50.8	-63.1	3.8	8.46e-01	0	44	104	3870294016	72	15518
2026-01-16 11:58:36.36	344.83	6.57	-50.6	-63.0	3.8	8.47e-01	0	44	104	3870294016	72	15392
2026-01-16 11:58:40.33	344.79	6.28	-50.6	-63.0	3.8	8.48e-01	0	44	104	3870294016	72	15380
2026-01-16 11:58:44.30	344.76	5.98	-50.6	-63.1	3.8	8.46e-01	0	44	104	3870294016	72	15430
2026-01-16 11:58:48.28	344.72	5.69	-50.6	-63.1	3.8	8.47e-01	0	44	104	3870294016	72	15501
2026-01-16 11:58:52.25	344.69	5.40	-50.6	-63.0	3.8	8.47e-01	0	44	104	3870294016	72	15388
2026-01-16 11:58:56.22	344.66	5.12	-50.6	-63.0	3.8	8.48e-01	0	44	104	3870294016	72	15334

#Closed at: 2026-01-16 11:58:59
#Recorded file [3870 MB]: D:/Data/31040_260116_144604.dat