passes_logs/2026/01/16/T1/T1__20260116_004255_FENGYUN_3G_rec.log

#Pass ID: 20260116_004255_FENGYUN 3G
#Satellite: FENGYUN 3G
#Configuration: FENGYUN 3G
#almurnet v.1.7.20251203
#Start time: 2026-01-16 00:42:56

#Version: 2.0.20230620
#Station: T1
#Location: 37.570604 lon 55.790049 lat
#TLE: 1 56232U 23055A   26015.17772624  .00018907  00000+0  29824-3 0  9995
#TLE: 2 56232  49.9942  55.0157 0004230  27.8148 332.3045 15.53505157156222

#Time	Az	El	Level	Level2	SNR	BER	BlckErr	Temp	State	Recorded	gain1	gain2
2026-01-16 00:42:56.74	258.95	5.06	-49.0	-68.4	3.8	8.48e-01	0	40	0	0	69	33973
2026-01-16 00:42:58.72	258.72	5.20	-48.9	-68.4	3.8	8.47e-01	0	41	104	0	69	33749
2026-01-16 00:43:00.68	258.50	5.34	-48.9	-68.3	3.8	8.47e-01	0	41	104	0	69	33420
2026-01-16 00:43:02.66	258.26	5.48	-48.9	-68.2	3.8	8.46e-01	0	41	104	0	69	33223
2026-01-16 00:43:04.65	258.02	5.62	-48.9	-68.2	3.8	8.46e-01	0	41	104	0	69	33196
2026-01-16 00:43:06.63	257.78	5.76	-48.9	-68.2	3.8	8.47e-01	0	41	104	0	69	33203
2026-01-16 00:43:08.62	257.54	5.91	-48.9	-68.2	3.8	8.46e-01	0	41	104	0	69	33136
2026-01-16 00:43:10.61	257.29	6.05	-48.9	-68.2	3.8	8.47e-01	0	41	104	0	69	33032
2026-01-16 00:43:12.59	257.03	6.20	-48.9	-68.1	3.8	8.46e-01	0	41	104	0	69	32896
2026-01-16 00:43:14.58	256.78	6.35	-48.9	-68.2	3.8	8.47e-01	0	41	104	0	69	33038
2026-01-16 00:43:16.57	256.52	6.50	-48.9	-68.2	3.8	8.46e-01	0	41	104	0	69	33146
2026-01-16 00:43:18.55	256.26	6.64	-48.9	-68.2	3.8	8.47e-01	0	41	104	0	69	33032
2026-01-16 00:43:20.54	255.99	6.79	-48.9	-68.0	3.8	8.47e-01	0	42	104	0	69	32382
2026-01-16 00:43:22.53	255.72	6.94	-48.9	-67.8	3.8	8.47e-01	0	41	104	0	69	31560
2026-01-16 00:43:24.51	255.44	7.10	-48.9	-67.8	3.8	8.46e-01	0	42	104	0	69	31683
2026-01-16 00:43:26.50	255.16	7.25	-48.9	-68.0	3.8	8.48e-01	0	41	104	0	69	32326
2026-01-16 00:43:28.49	254.88	7.40	-48.9	-68.0	3.8	8.46e-01	0	41	104	0	69	32352
2026-01-16 00:43:30.47	254.59	7.55	-48.9	-67.7	3.8	8.47e-01	0	42	104	0	69	31125
2026-01-16 00:43:32.46	254.30	7.71	-48.8	-67.4	3.8	8.47e-01	0	42	104	0	69	30348
2026-01-16 00:43:34.45	254.00	7.87	-48.8	-67.6	3.8	8.47e-01	0	42	104	0	69	30988
2026-01-16 00:43:36.43	253.70	8.02	-48.9	-67.8	3.8	8.46e-01	0	42	104	0	69	31637
2026-01-16 00:43:38.42	253.40	8.18	-48.8	-67.5	3.8	8.48e-01	0	42	104	0	69	30543
2026-01-16 00:43:40.41	253.09	8.34	-48.8	-67.5	3.8	8.47e-01	0	42	104	0	69	30706
2026-01-16 00:43:42.39	252.77	8.50	-48.9	-68.4	3.8	8.47e-01	0	42	104	0	69	33698
2026-01-16 00:43:44.38	252.45	8.66	-48.8	-64.3	4.3	8.46e-01	0	42	104	0	69	21260
2026-01-16 00:43:46.36	252.13	8.82	-48.0	-56.8	10.1	2.68e-01	0	42	0	0	68	9491
2026-01-16 00:43:48.35	251.80	8.98	-46.2	-51.4	15.6	2.40e-03	0	42	0	0	64	6417
2026-01-16 00:43:50.34	251.46	9.14	-49.3	-62.4	5.6	0.00e+00	0	42	0	0	69	16924
2026-01-16 00:43:52.33	251.12	9.31	-46.7	-52.2	14.7	1.30e-01	0	42	0	0	64	7003
2026-01-16 00:43:54.32	250.78	9.47	-43.1	-46.1	21.1	2.28e-05	0	42	0	0	58	4876
2026-01-16 00:43:56.31	250.43	9.64	-42.9	-45.7	21.4	0.00e+00	0	42	0	0	57	4975
2026-01-16 00:43:58.30	250.07	9.80	-42.5	-45.3	22.0	0.00e+00	0	42	0	0	56	4984
2026-01-16 00:44:00.29	249.71	9.97	-42.3	-45.0	22.2	0.00e+00	0	42	0	0	56	4847
2026-01-16 00:44:02.28	249.34	10.14	-42.3	-45.0	22.3	0.00e+00	0	42	0	0	56	4829
2026-01-16 00:44:04.27	248.97	10.31	-42.2	-44.8	22.4	0.00e+00	0	42	0	0	56	4747
2026-01-16 00:44:06.26	248.59	10.48	-42.2	-44.8	22.5	0.00e+00	0	42	0	0	56	4713
2026-01-16 00:44:08.25	248.20	10.65	-41.7	-44.2	22.8	0.00e+00	0	42	0	0	55	4703
2026-01-16 00:44:10.24	247.81	10.82	-41.7	-44.1	22.9	0.00e+00	0	42	0	0	55	4641
2026-01-16 00:44:12.23	247.41	10.99	-41.7	-44.1	22.9	0.00e+00	0	42	0	0	55	4639
2026-01-16 00:44:14.16	247.02	11.16	-41.7	-44.2	22.9	0.00e+00	0	42	0	0	55	4689
2026-01-16 00:44:16.15	246.61	11.34	-41.7	-44.2	22.9	0.00e+00	0	42	0	0	55	4671
2026-01-16 00:44:18.14	246.19	11.51	-41.6	-44.1	23.0	0.00e+00	0	42	0	0	54	4911
2026-01-16 00:44:20.13	245.77	11.69	-41.4	-43.8	23.2	0.00e+00	0	42	0	0	54	4756
2026-01-16 00:44:22.12	245.34	11.86	-41.3	-43.6	23.4	0.00e+00	0	42	0	0	54	4648
2026-01-16 00:44:24.11	244.90	12.04	-41.3	-43.7	23.4	0.00e+00	0	42	0	0	54	4670
2026-01-16 00:44:26.10	244.46	12.21	-41.6	-44.0	23.1	0.00e+00	0	42	0	0	54	4847
2026-01-16 00:44:28.09	244.01	12.39	-41.8	-44.3	22.9	0.00e+00	0	43	0	0	54	4985
2026-01-16 00:44:30.11	243.54	12.57	-41.1	-43.4	23.7	0.00e+00	0	42	0	0	54	4512
2026-01-16 00:44:32.10	243.07	12.75	-40.8	-43.1	23.9	0.00e+00	0	42	0	0	53	4640
2026-01-16 00:44:34.34	242.54	12.95	-40.7	-43.0	24.1	0.00e+00	0	42	0	0	53	4548
2026-01-16 00:44:36.68	241.97	13.16	-40.9	-43.2	23.9	0.00e+00	0	42	0	0	53	4672
2026-01-16 00:44:38.84	241.44	13.36	-41.0	-43.3	23.8	0.00e+00	0	42	0	0	53	4735
2026-01-16 00:44:40.83	240.94	13.54	-40.9	-43.2	23.8	0.00e+00	0	43	0	0	53	4699
2026-01-16 00:44:42.92	240.41	13.73	-40.8	-43.0	24.0	0.00e+00	0	42	0	0	53	4590
2026-01-16 00:44:45.02	239.86	13.92	-40.2	-42.4	24.6	0.00e+00	0	42	0	0	52	4504
2026-01-16 00:44:47.01	239.34	14.10	-40.3	-42.5	24.6	0.00e+00	0	42	0	0	52	4559
2026-01-16 00:44:48.99	238.81	14.28	-40.6	-42.8	24.3	0.00e+00	0	42	0	0	52	4733
2026-01-16 00:44:50.98	238.26	14.46	-40.7	-43.0	24.1	0.00e+00	0	42	0	0	52	4818
2026-01-16 00:44:52.97	237.71	14.64	-40.5	-42.8	24.3	0.00e+00	0	42	0	0	52	4730
2026-01-16 00:44:54.96	237.16	14.82	-40.0	-42.3	24.8	0.00e+00	0	42	0	0	52	4443
2026-01-16 00:44:56.95	236.59	15.00	-40.0	-42.2	24.9	0.00e+00	0	43	0	0	51	4652
2026-01-16 00:44:58.94	236.01	15.17	-40.0	-42.2	24.9	0.00e+00	0	42	0	0	51	4679
2026-01-16 00:45:00.92	235.43	15.35	-40.1	-42.3	24.8	0.00e+00	0	42	0	0	51	4726
2026-01-16 00:45:02.91	234.84	15.53	-40.4	-42.6	24.6	0.00e+00	0	43	0	0	51	4914
2026-01-16 00:45:04.90	234.23	15.71	-40.3	-42.5	24.6	0.00e+00	0	43	0	0	51	4852
2026-01-16 00:45:06.89	233.62	15.88	-40.2	-42.4	24.8	0.00e+00	0	43	0	0	51	4765
2026-01-16 00:45:08.88	233.00	16.06	-40.2	-42.4	24.8	0.00e+00	0	42	0	0	51	4762
2026-01-16 00:45:10.90	232.36	16.24	-40.1	-42.2	24.9	0.00e+00	0	42	0	0	51	4696
2026-01-16 00:45:12.95	231.70	16.41	-39.6	-41.7	25.3	0.00e+00	0	43	0	0	51	4439
2026-01-16 00:45:14.95	231.05	16.59	-40.0	-42.2	24.9	0.00e+00	0	43	0	0	51	4677
2026-01-16 00:45:16.95	230.39	16.76	-40.0	-42.2	24.9	0.00e+00	0	42	0	0	51	4672
2026-01-16 00:45:18.94	229.72	16.93	-40.1	-42.3	24.9	0.00e+00	0	43	0	0	51	4710
2026-01-16 00:45:20.93	229.04	17.09	-39.7	-41.8	25.3	0.00e+00	0	43	0	0	51	4475
2026-01-16 00:45:22.91	228.36	17.26	-39.7	-41.9	25.2	0.00e+00	0	43	0	0	51	4499
2026-01-16 00:45:25.01	227.62	17.43	-39.4	-41.4	25.6	0.00e+00	0	43	0	0	50	4545
2026-01-16 00:45:27.00	226.91	17.59	-39.2	-41.3	25.7	0.00e+00	0	43	0	0	50	4469
2026-01-16 00:45:29.12	226.15	17.76	-39.1	-41.1	25.9	0.00e+00	0	43	0	0	50	4382
2026-01-16 00:45:31.18	225.40	17.92	-39.4	-41.5	25.6	0.00e+00	0	43	0	0	50	4585
2026-01-16 00:45:33.19	224.66	18.08	-39.9	-42.0	25.2	0.00e+00	0	43	0	0	50	4837
2026-01-16 00:45:35.21	223.90	18.23	-39.8	-41.9	25.2	0.00e+00	0	42	0	0	50	4779
2026-01-16 00:45:37.24	223.13	18.38	-39.7	-41.9	25.3	0.00e+00	0	42	0	0	50	4766
2026-01-16 00:45:39.28	222.35	18.53	-39.8	-41.9	25.3	0.00e+00	0	43	0	0	50	4782
2026-01-16 00:45:41.29	221.57	18.67	-39.6	-41.7	25.4	0.00e+00	0	42	0	0	50	4676
2026-01-16 00:45:43.57	220.68	18.83	-39.6	-41.7	25.4	0.00e+00	0	42	0	0	50	4686
2026-01-16 00:45:45.57	219.88	18.96	-39.5	-41.6	25.5	0.00e+00	0	43	0	0	50	4614
2026-01-16 00:45:47.57	219.08	19.09	-39.4	-41.5	25.6	0.00e+00	0	43	0	0	50	4568
2026-01-16 00:45:49.56	218.27	19.22	-39.5	-41.6	25.6	0.00e+00	0	43	0	0	50	4604
2026-01-16 00:45:51.57	217.45	19.34	-39.4	-41.4	25.7	0.00e+00	0	43	0	0	50	4543
2026-01-16 00:45:53.60	216.61	19.46	-39.3	-41.4	25.7	0.00e+00	0	43	0	0	50	4521
2026-01-16 00:45:55.67	215.75	19.58	-39.2	-41.3	25.8	0.00e+00	0	42	0	0	50	4459
2026-01-16 00:45:57.96	214.78	19.70	-39.3	-41.5	25.7	0.00e+00	0	43	0	0	50	4551
2026-01-16 00:45:59.95	213.93	19.80	-39.4	-41.5	25.6	0.00e+00	0	43	0	0	50	4562
2026-01-16 00:46:01.95	213.08	19.90	-39.4	-41.4	25.7	0.00e+00	0	43	0	0	50	4539
2026-01-16 00:46:03.94	212.22	19.99	-39.4	-41.5	25.6	0.00e+00	0	43	0	0	50	4555
2026-01-16 00:46:05.93	211.35	20.08	-39.3	-41.4	25.7	0.00e+00	0	43	0	0	50	4510
2026-01-16 00:46:08.14	210.38	20.17	-39.4	-41.5	25.6	0.00e+00	0	43	0	0	50	4567
2026-01-16 00:46:10.13	209.51	20.24	-39.4	-41.5	25.6	0.00e+00	0	43	0	0	50	4585
2026-01-16 00:46:12.25	208.57	20.32	-39.5	-41.6	25.5	0.00e+00	0	43	0	0	50	4629
2026-01-16 00:46:14.24	207.68	20.38	-39.4	-41.5	25.6	0.00e+00	0	43	0	0	50	4559
2026-01-16 00:46:16.24	206.78	20.44	-39.4	-41.5	25.6	0.00e+00	0	43	0	0	50	4579
2026-01-16 00:46:18.23	205.89	20.49	-39.4	-41.5	25.6	0.00e+00	0	43	0	0	50	4586
2026-01-16 00:46:20.22	204.99	20.53	-39.6	-41.7	25.4	0.00e+00	0	43	0	0	50	4671
2026-01-16 00:46:22.21	204.09	20.57	-39.6	-41.8	25.4	0.00e+00	0	42	0	0	50	4709
2026-01-16 00:46:24.17	203.20	20.60	-39.3	-41.3	25.7	0.00e+00	0	43	0	0	50	4487
2026-01-16 00:46:26.16	202.29	20.63	-39.0	-41.0	26.0	0.00e+00	0	43	0	0	50	4319
2026-01-16 00:46:28.15	201.39	20.65	-38.5	-40.5	26.4	0.00e+00	0	43	0	0	49	4336
2026-01-16 00:46:30.17	200.46	20.66	-38.7	-40.7	26.3	0.00e+00	0	42	0	0	49	4404
2026-01-16 00:46:32.16	199.56	20.67	-38.5	-40.5	26.5	0.00e+00	0	43	0	0	49	4305
2026-01-16 00:46:34.16	198.64	20.66	-38.7	-40.7	26.3	0.00e+00	0	43	0	0	48	4675
2026-01-16 00:46:36.15	197.73	20.66	-38.8	-40.8	26.1	0.00e+00	0	43	0	0	48	4737
2026-01-16 00:46:38.14	196.82	20.65	-38.9	-40.9	26.0	0.00e+00	0	43	0	0	48	4805
2026-01-16 00:46:40.19	195.89	20.63	-39.0	-41.1	26.0	0.00e+00	0	43	0	0	48	4892
2026-01-16 00:46:42.25	194.95	20.60	-38.7	-40.7	26.3	0.00e+00	0	43	0	0	48	4671
2026-01-16 00:46:44.28	194.03	20.56	-38.6	-40.7	26.3	0.00e+00	0	43	0	0	48	4653
2026-01-16 00:46:46.28	193.12	20.53	-38.7	-40.7	26.3	0.00e+00	0	43	0	0	48	4700
2026-01-16 00:46:48.46	192.14	20.48	-39.0	-41.1	26.0	0.00e+00	0	43	0	0	48	4885
2026-01-16 00:46:50.45	191.25	20.42	-39.2	-41.3	25.6	0.00e+00	0	43	0	0	49	4734
2026-01-16 00:46:52.46	190.35	20.36	-39.2	-41.3	25.8	0.00e+00	0	43	0	0	49	4729
2026-01-16 00:46:54.47	189.45	20.30	-39.2	-41.2	25.8	0.00e+00	0	43	0	0	49	4704
2026-01-16 00:46:56.46	188.57	20.23	-39.5	-41.6	25.5	0.00e+00	0	43	0	0	49	4895
2026-01-16 00:46:58.45	187.69	20.15	-39.8	-42.0	25.2	0.00e+00	0	43	0	0	50	4849
2026-01-16 00:47:00.44	186.82	20.07	-40.0	-42.1	25.1	0.00e+00	0	43	0	0	50	4924
2026-01-16 00:47:02.43	185.96	19.99	-39.3	-41.4	25.7	0.00e+00	0	43	0	0	50	4527
2026-01-16 00:47:04.43	185.09	19.89	-39.2	-41.3	25.8	0.00e+00	0	43	0	0	50	4446
2026-01-16 00:47:06.44	184.23	19.80	-39.4	-41.5	25.6	0.00e+00	0	43	0	0	50	4581
2026-01-16 00:47:08.44	183.38	19.69	-39.3	-41.4	25.8	0.00e+00	0	43	0	0	50	4509
2026-01-16 00:47:10.44	182.54	19.59	-38.8	-40.9	26.1	0.00e+00	0	43	0	0	49	4519
2026-01-16 00:47:12.44	181.70	19.47	-39.1	-41.2	25.9	0.00e+00	0	43	0	0	49	4660
2026-01-16 00:47:14.45	180.87	19.36	-38.9	-41.0	26.1	0.00e+00	0	43	0	0	49	4549
2026-01-16 00:47:16.47	180.04	19.23	-39.1	-41.2	25.9	0.00e+00	0	43	0	0	49	4662
2026-01-16 00:47:18.48	179.22	19.11	-39.2	-41.3	25.8	0.00e+00	0	43	0	0	49	4710
2026-01-16 00:47:20.47	178.42	18.98	-39.3	-41.4	25.7	0.00e+00	0	43	0	0	49	4766
2026-01-16 00:47:22.47	177.63	18.84	-39.3	-41.4	25.7	0.00e+00	0	43	0	0	49	4795
2026-01-16 00:47:24.46	176.84	18.71	-39.4	-41.5	25.6	0.00e+00	0	43	0	0	49	4826
2026-01-16 00:47:26.46	176.06	18.57	-39.4	-41.5	25.6	0.00e+00	0	43	0	0	49	4845
2026-01-16 00:47:28.48	175.29	18.42	-39.5	-41.6	25.5	0.00e+00	0	43	0	0	49	4890
2026-01-16 00:47:30.49	174.52	18.27	-39.6	-41.8	25.4	0.00e+00	0	43	0	0	49	4996
2026-01-16 00:47:32.48	173.78	18.12	-39.1	-41.2	25.8	0.00e+00	0	43	0	0	50	4404
2026-01-16 00:47:34.46	173.04	17.97	-38.8	-40.8	26.2	0.00e+00	0	43	0	0	49	4467
2026-01-16 00:47:36.45	172.31	17.81	-38.9	-40.9	26.1	0.00e+00	0	43	0	0	49	4526
2026-01-16 00:47:38.44	171.59	17.66	-39.5	-41.6	25.5	0.00e+00	0	43	0	0	49	4886
2026-01-16 00:47:40.68	170.79	17.48	-39.7	-41.8	25.3	0.00e+00	0	43	0	0	50	4749
2026-01-16 00:47:42.67	170.09	17.31	-39.7	-41.8	25.4	0.00e+00	0	43	0	0	50	4708
2026-01-16 00:47:44.66	169.40	17.15	-39.4	-41.5	25.6	0.00e+00	0	43	0	0	50	4586
2026-01-16 00:47:46.64	168.72	16.98	-39.8	-41.9	25.2	0.00e+00	0	43	0	0	50	4804
2026-01-16 00:47:48.63	168.05	16.81	-39.9	-42.0	25.1	0.00e+00	0	43	0	0	50	4853
2026-01-16 00:47:50.62	167.39	16.64	-39.8	-42.0	25.1	0.00e+00	0	43	0	0	50	4836
2026-01-16 00:47:52.71	166.70	16.46	-39.9	-42.1	25.0	0.00e+00	0	43	0	0	50	4889
2026-01-16 00:47:54.73	166.05	16.29	-39.6	-41.8	25.3	0.00e+00	0	43	0	0	50	4723
2026-01-16 00:47:56.92	165.35	16.10	-39.7	-41.9	25.2	0.00e+00	0	43	0	0	50	4788
2026-01-16 00:47:58.97	164.71	15.92	-40.0	-42.2	24.9	0.00e+00	0	43	0	0	50	4967
2026-01-16 00:48:00.96	164.10	15.74	-40.3	-42.6	24.6	0.00e+00	0	43	0	0	51	4878
2026-01-16 00:48:02.95	163.49	15.56	-40.3	-42.5	24.4	0.00e+00	0	43	0	0	51	4837
2026-01-16 00:48:04.96	162.89	15.38	-40.2	-42.4	24.7	0.00e+00	0	43	0	0	51	4792
2026-01-16 00:48:06.95	162.30	15.20	-40.1	-42.3	24.8	0.00e+00	0	43	0	0	51	4753
2026-01-16 00:48:08.94	161.72	15.03	-40.3	-42.6	24.6	0.00e+00	0	43	0	0	51	4891
2026-01-16 00:48:10.93	161.15	14.85	-40.3	-42.6	24.6	0.00e+00	0	43	0	0	51	4877
2026-01-16 00:48:13.21	160.51	14.64	-40.6	-42.9	24.3	0.00e+00	0	43	0	0	51	5055
2026-01-16 00:48:15.20	159.96	14.46	-40.6	-42.8	24.3	0.00e+00	0	43	0	0	51	5039
2026-01-16 00:48:17.19	159.42	14.28	-40.6	-42.9	24.3	0.00e+00	0	43	0	0	51	5046
2026-01-16 00:48:19.18	158.88	14.10	-40.5	-42.8	24.4	0.00e+00	0	43	0	0	51	5005
2026-01-16 00:48:21.17	158.36	13.92	-40.8	-43.1	24.0	3.42e-03	0	43	0	0	52	4881
2026-01-16 00:48:23.16	157.84	13.74	-41.0	-43.4	23.7	5.64e-03	0	43	0	0	53	4773
2026-01-16 00:48:25.12	157.34	13.56	-40.9	-43.2	23.8	0.00e+00	0	43	0	0	53	4693
2026-01-16 00:48:27.19	156.82	13.37	-40.8	-43.1	23.9	5.21e-03	0	43	0	0	53	4634
2026-01-16 00:48:29.24	156.31	13.19	-41.0	-43.3	23.8	2.59e-03	0	43	0	0	53	4740
2026-01-16 00:48:31.29	155.81	13.00	-41.0	-43.4	23.6	0.00e+00	0	43	0	0	53	4785
2026-01-16 00:48:33.34	155.32	12.82	-41.1	-43.6	23.5	0.00e+00	0	43	0	0	53	4872
2026-01-16 00:48:35.39	154.83	12.64	-41.2	-43.6	23.4	0.00e+00	0	43	0	0	53	4922
2026-01-16 00:48:37.38	154.37	12.46	-41.3	-43.7	23.4	0.00e+00	0	43	0	0	53	4969
2026-01-16 00:48:39.37	153.92	12.28	-41.3	-43.7	23.4	0.00e+00	0	43	0	0	53	4976
2026-01-16 00:48:41.36	153.47	12.10	-41.4	-43.8	23.2	0.00e+00	0	43	0	0	53	5033
2026-01-16 00:48:43.36	153.02	11.92	-41.7	-44.1	22.9	0.00e+00	0	43	0	0	53	5218
2026-01-16 00:48:45.35	152.59	11.75	-41.8	-44.3	22.8	0.00e+00	0	43	0	0	54	5003
2026-01-16 00:48:47.34	152.16	11.57	-41.8	-44.3	22.8	0.00e+00	0	43	0	0	54	5002
2026-01-16 00:48:49.33	151.74	11.40	-41.7	-44.2	22.9	3.66e-05	0	43	0	0	54	4929
2026-01-16 00:48:51.32	151.33	11.22	-41.6	-44.1	22.9	0.00e+00	0	43	0	0	54	4882
2026-01-16 00:48:53.31	150.92	11.05	-41.5	-43.9	23.1	3.66e-05	0	43	0	0	54	4814
2026-01-16 00:48:55.30	150.52	10.88	-41.5	-44.0	23.1	0.00e+00	0	43	0	0	54	4830
2026-01-16 00:48:57.29	150.13	10.71	-41.9	-44.4	22.6	0.00e+00	0	43	0	0	54	5095
2026-01-16 00:48:59.28	149.74	10.53	-42.1	-44.6	22.4	0.00e+00	0	43	0	0	54	5216
2026-01-16 00:49:01.26	149.36	10.37	-42.2	-44.8	22.2	0.00e+00	0	43	0	0	55	5025
2026-01-16 00:49:03.26	148.98	10.19	-42.6	-45.3	21.8	0.00e+00	0	43	0	0	55	5329
2026-01-16 00:49:05.24	148.61	10.03	-42.6	-45.3	21.8	0.00e+00	0	43	0	0	55	5306
2026-01-16 00:49:07.24	148.25	9.86	-42.5	-45.1	21.9	0.00e+00	0	43	0	0	55	5214
2026-01-16 00:49:09.32	147.87	9.68	-42.4	-45.0	22.0	0.00e+00	0	43	0	0	55	5140
2026-01-16 00:49:11.34	147.51	9.52	-42.9	-45.7	21.6	0.00e+00	0	43	0	0	56	5248
2026-01-16 00:49:13.55	147.13	9.33	-43.0	-45.8	21.4	0.00e+00	0	43	0	0	56	5320
2026-01-16 00:49:15.56	146.78	9.17	-42.8	-45.5	21.7	0.00e+00	0	43	0	0	56	5145
2026-01-16 00:49:17.54	146.45	9.00	-43.3	-46.2	21.4	0.00e+00	0	43	0	0	57	5219
2026-01-16 00:49:19.53	146.12	8.84	-49.6	-68.5	3.8	2.61e-01	0	43	104	0	70	32376
2026-01-16 00:49:21.53	145.79	8.68	-50.0	-68.9	3.8	8.47e-01	0	43	104	0	70	33730
2026-01-16 00:49:23.54	145.46	8.52	-50.2	-68.9	3.8	8.47e-01	0	43	104	0	70	33941
2026-01-16 00:49:25.52	145.15	8.36	-50.2	-69.0	3.8	8.48e-01	0	43	104	0	71	32367
2026-01-16 00:49:27.51	144.84	8.20	-50.2	-69.0	3.8	8.47e-01	0	43	104	0	71	32502
2026-01-16 00:49:29.50	144.53	8.04	-50.2	-69.1	3.8	8.47e-01	0	43	104	0	71	32765
2026-01-16 00:49:31.49	144.23	7.88	-50.2	-69.2	3.8	8.48e-01	0	43	104	0	71	32938
2026-01-16 00:49:33.47	143.93	7.73	-50.4	-69.2	3.8	8.47e-01	0	43	104	0	71	32933
2026-01-16 00:49:35.46	143.64	7.57	-50.3	-69.2	3.8	8.47e-01	0	43	104	0	71	32983
2026-01-16 00:49:37.45	143.35	7.42	-50.1	-69.1	3.8	8.48e-01	0	43	104	0	71	32835
2026-01-16 00:49:39.43	143.06	7.26	-49.9	-69.1	3.8	8.48e-01	0	43	104	0	71	32627
2026-01-16 00:49:41.42	142.78	7.11	-49.9	-69.1	3.8	8.47e-01	0	43	104	0	71	32565
2026-01-16 00:49:43.41	142.50	6.96	-49.9	-69.0	3.8	8.46e-01	0	43	104	0	71	32496
2026-01-16 00:49:45.39	142.23	6.81	-49.9	-69.1	3.8	8.47e-01	0	43	104	0	71	32659
2026-01-16 00:49:47.40	141.96	6.66	-49.9	-69.0	3.8	8.48e-01	0	43	104	0	71	32533
2026-01-16 00:49:49.38	141.70	6.51	-49.9	-69.1	3.8	8.47e-01	0	43	104	0	71	32552
2026-01-16 00:49:51.37	141.44	6.36	-49.9	-69.1	3.8	8.46e-01	0	43	104	0	71	32601
2026-01-16 00:49:53.37	141.18	6.21	-49.9	-69.1	3.8	8.46e-01	0	43	104	0	71	32600
2026-01-16 00:49:55.36	140.92	6.07	-49.9	-69.1	3.8	8.46e-01	0	43	104	0	71	32601
2026-01-16 00:49:57.36	140.67	5.92	-49.9	-69.1	3.8	8.47e-01	0	43	104	0	71	32572
2026-01-16 00:49:59.39	140.42	5.77	-49.9	-69.0	3.8	8.47e-01	0	43	104	0	71	32505
2026-01-16 00:50:01.38	140.18	5.63	-49.9	-69.0	3.8	8.48e-01	0	43	104	0	71	32520
2026-01-16 00:50:03.36	139.94	5.49	-49.9	-69.0	3.8	8.46e-01	0	43	104	0	71	32505
2026-01-16 00:50:05.36	139.70	5.34	-49.9	-69.0	3.8	8.47e-01	0	43	104	0	71	32538
2026-01-16 00:50:07.35	139.47	5.20	-49.9	-69.0	3.8	8.47e-01	0	43	104	0	71	32466
2026-01-16 00:50:09.34	139.24	5.06	-49.9	-69.0	3.8	8.47e-01	0	43	104	0	71	32501

#Closed at: 2026-01-16 00:50:11
#Recorded file [0 MB]: D:/Data/31040_260116_034256.dat