passes_logs/2026/01/08/R4.6S_Anadyr_2ch/R4.6S_Anadyr_2ch__20260108_003203_TY-40_rec.log

#Pass ID: 20260108_003203_TY-40
#Satellite: TY-40
#Configuration: TY-39_900M
#almurnet v.1.7.20251203
#Start time: 2026-01-08 00:32:35

#Version: 2.2.20231116
#Station: R4.6S_Anadyr_2ch
#Location: 177.4865 lon 64.73178 lat
#TLE: 1 56846U 23081A   25350.97536409  .00002626  00000-0  11966-3 0  9993
#TLE: 2 56846  97.3941  59.4076 0002022  98.6035 261.5430 15.21533877140291

#Time	Az	El	Level	Level2	SNR	BER	BlckErr	Temp	State	Recorded	gain1	gain2
2026-01-08 00:32:35.18	15.04	2.02	-52.2	-53.9	5.7	0.00e+00	0	33	0	0	60	82335
2026-01-08 00:32:38.20	14.86	2.22	-52.2	-54.7	6.0	0.00e+00	0	35	104	0	60	90355
2026-01-08 00:32:41.24	14.68	2.42	-52.2	-54.7	6.1	0.00e+00	0	35	104	0	60	90554
2026-01-08 00:32:44.27	14.49	2.62	-52.2	-54.7	6.1	0.00e+00	0	35	104	0	60	90659
2026-01-08 00:32:47.30	14.31	2.83	-52.2	-54.7	6.1	0.00e+00	0	35	104	0	60	90485
2026-01-08 00:32:50.33	14.11	3.04	-52.2	-54.7	6.1	0.00e+00	0	35	104	0	60	90632
2026-01-08 00:32:53.37	13.92	3.25	-52.2	-54.6	6.1	0.00e+00	0	35	104	0	60	90151
2026-01-08 00:32:56.40	13.72	3.46	-52.2	-54.6	6.1	0.00e+00	0	35	104	0	60	90232
2026-01-08 00:32:59.43	13.51	3.67	-52.2	-54.6	6.1	0.00e+00	0	35	104	0	60	90242
2026-01-08 00:33:02.46	13.30	3.89	-52.2	-54.6	6.1	0.00e+00	0	35	104	0	60	90075
2026-01-08 00:33:05.50	13.09	4.11	-52.2	-54.6	6.1	0.00e+00	0	36	104	0	60	89987
2026-01-08 00:33:08.53	12.88	4.33	-52.2	-54.6	6.1	0.00e+00	0	36	104	0	60	90052
2026-01-08 00:33:11.57	12.65	4.55	-52.2	-54.7	6.0	0.00e+00	0	36	104	0	60	90527
2026-01-08 00:33:14.60	12.43	4.77	-52.2	-54.6	6.1	0.00e+00	0	36	104	0	60	90254
2026-01-08 00:33:17.63	12.20	5.00	-52.2	-54.6	6.1	0.00e+00	0	36	104	0	60	90036
2026-01-08 00:33:20.66	11.96	5.22	-52.2	-54.6	6.1	0.00e+00	0	36	104	0	60	90206
2026-01-08 00:33:23.69	11.73	5.45	-52.2	-54.6	6.1	0.00e+00	0	36	104	0	60	90166
2026-01-08 00:33:26.73	11.48	5.69	-52.2	-54.7	6.0	0.00e+00	0	36	104	0	60	90470
2026-01-08 00:33:29.76	11.23	5.92	-52.2	-54.6	6.1	0.00e+00	0	36	104	0	60	89730
2026-01-08 00:33:32.79	10.97	6.16	-52.2	-54.7	6.1	0.00e+00	0	36	104	0	60	90339
2026-01-08 00:33:35.83	10.71	6.40	-52.2	-54.7	6.1	0.00e+00	0	36	104	0	60	90376
2026-01-08 00:33:38.86	10.45	6.64	-52.2	-54.7	6.1	0.00e+00	0	36	104	0	60	90368
2026-01-08 00:33:41.89	10.17	6.89	-52.2	-54.7	6.1	0.00e+00	0	36	104	0	60	90612
2026-01-08 00:33:44.93	9.89	7.13	-52.2	-54.6	6.1	0.00e+00	0	36	104	0	60	89939
2026-01-08 00:33:47.96	9.61	7.38	-52.2	-54.6	6.1	0.00e+00	0	36	104	0	60	90164
2026-01-08 00:33:50.99	9.32	7.64	-52.2	-54.7	6.1	0.00e+00	0	36	104	0	60	90545
2026-01-08 00:33:54.03	9.02	7.89	-52.2	-54.7	6.1	0.00e+00	0	36	104	0	60	90553
2026-01-08 00:33:57.06	8.71	8.15	-52.2	-54.7	6.1	0.00e+00	0	36	104	0	60	90300
2026-01-08 00:34:00.09	8.40	8.41	-52.2	-54.7	6.1	0.00e+00	0	36	104	0	60	90329
2026-01-08 00:34:03.12	8.08	8.67	-52.2	-54.7	6.1	0.00e+00	0	37	104	0	60	90390
2026-01-08 00:34:06.16	7.75	8.94	-52.2	-54.7	6.1	0.00e+00	0	37	104	0	60	90531
2026-01-08 00:34:09.19	7.42	9.21	-52.2	-54.7	6.1	0.00e+00	0	37	104	0	60	90528
2026-01-08 00:34:12.22	7.08	9.48	-52.2	-54.7	6.1	0.00e+00	0	37	104	0	60	90909
2026-01-08 00:34:15.25	6.73	9.76	-52.2	-54.7	6.1	0.00e+00	0	37	104	0	60	90732
2026-01-08 00:34:18.29	6.37	10.04	-52.2	-54.7	6.1	0.00e+00	0	37	104	0	60	90498
2026-01-08 00:34:21.32	6.00	10.32	-52.2	-54.6	6.1	0.00e+00	0	37	104	0	60	90122
2026-01-08 00:34:24.35	5.62	10.61	-52.2	-54.7	6.1	0.00e+00	0	37	104	0	60	90475
2026-01-08 00:34:27.39	5.23	10.90	-52.2	-54.7	6.1	0.00e+00	0	37	104	0	60	90752
2026-01-08 00:34:30.42	4.84	11.19	-52.2	-54.7	6.1	0.00e+00	0	37	104	0	60	90688
2026-01-08 00:34:33.45	4.43	11.49	-52.2	-54.7	6.1	0.00e+00	0	37	104	0	60	90740
2026-01-08 00:34:36.48	4.01	11.79	-52.2	-54.7	6.1	0.00e+00	0	37	104	0	60	90448
2026-01-08 00:34:39.52	3.58	12.09	-52.2	-54.7	6.1	0.00e+00	0	37	104	0	60	90476
2026-01-08 00:34:42.55	3.14	12.40	-52.2	-54.7	6.1	0.00e+00	0	37	104	0	60	90370
2026-01-08 00:34:45.58	2.69	12.71	-52.2	-54.7	6.1	0.00e+00	0	37	104	0	60	90689
2026-01-08 00:34:48.61	2.23	13.03	-52.2	-54.7	6.1	0.00e+00	0	37	104	0	60	90585
2026-01-08 00:34:51.65	1.75	13.34	-52.2	-54.7	6.1	0.00e+00	0	37	104	0	60	90540
2026-01-08 00:34:54.68	1.26	13.67	-52.2	-54.7	6.1	0.00e+00	0	37	104	0	60	90837
2026-01-08 00:34:57.71	0.76	13.99	-52.2	-54.7	6.1	0.00e+00	0	37	104	0	60	90618
2026-01-08 00:35:00.74	0.25	14.32	-52.2	-54.7	6.1	0.00e+00	0	37	104	0	60	90583
2026-01-08 00:35:03.78	359.72	14.66	-52.2	-54.7	6.1	0.00e+00	0	37	104	0	60	90764
2026-01-08 00:35:06.81	359.17	14.99	-52.2	-54.7	6.1	0.00e+00	0	37	104	0	60	90490
2026-01-08 00:35:09.84	358.62	15.34	-52.2	-54.7	6.1	0.00e+00	0	37	104	0	60	90856
2026-01-08 00:35:12.88	358.04	15.68	-52.2	-54.7	6.1	0.00e+00	0	37	104	0	60	90373
2026-01-08 00:35:15.91	357.45	16.03	-52.2	-54.7	6.1	0.00e+00	0	37	104	0	60	90449
2026-01-08 00:35:18.94	356.84	16.38	-52.2	-54.7	6.1	0.00e+00	0	37	104	0	60	90505
2026-01-08 00:35:21.97	356.22	16.74	-52.2	-54.7	6.1	0.00e+00	0	37	104	0	60	91130
2026-01-08 00:35:25.01	355.57	17.10	-52.2	-54.7	6.1	0.00e+00	0	37	104	0	60	90691
2026-01-08 00:35:28.04	354.91	17.46	-52.2	-54.7	6.1	0.00e+00	0	37	104	0	60	90306
2026-01-08 00:35:31.07	354.23	17.83	-52.2	-54.6	6.1	0.00e+00	0	37	104	0	60	90165
2026-01-08 00:35:34.10	353.53	18.20	-52.2	-54.7	6.1	0.00e+00	0	37	104	0	60	90589
2026-01-08 00:35:37.13	352.81	18.57	-52.2	-54.7	6.1	0.00e+00	0	37	104	0	60	90801
2026-01-08 00:35:40.17	352.07	18.95	-52.2	-54.6	6.1	0.00e+00	0	37	104	0	60	90203
2026-01-08 00:35:43.20	351.30	19.32	-52.2	-54.6	6.1	0.00e+00	0	37	104	0	60	90198
2026-01-08 00:35:46.23	350.52	19.71	-52.2	-54.7	6.1	0.00e+00	0	38	104	0	60	90514
2026-01-08 00:35:49.27	349.70	20.09	-52.2	-54.7	6.1	0.00e+00	0	37	104	0	60	90776
2026-01-08 00:35:52.30	348.87	20.47	-52.2	-54.7	6.1	0.00e+00	0	37	104	0	60	90788
2026-01-08 00:35:55.33	348.02	20.86	-52.2	-54.7	6.1	0.00e+00	0	38	104	0	60	90618
2026-01-08 00:35:58.36	347.13	21.25	-52.2	-54.7	6.1	0.00e+00	0	37	104	0	60	90707
2026-01-08 00:36:01.40	346.22	21.64	-52.2	-54.7	6.1	0.00e+00	0	37	104	0	60	90503
2026-01-08 00:36:04.43	345.29	22.03	-52.2	-54.7	6.1	0.00e+00	0	37	104	0	60	90871
2026-01-08 00:36:07.46	344.33	22.42	-52.2	-54.7	6.1	0.00e+00	0	37	104	0	60	90421
2026-01-08 00:36:10.49	343.34	22.80	-52.2	-54.7	6.1	0.00e+00	0	38	104	0	60	90384
2026-01-08 00:36:13.52	342.32	23.19	-52.2	-54.6	6.1	0.00e+00	0	38	104	0	60	89846
2026-01-08 00:36:16.56	341.27	23.58	-52.2	-54.7	6.1	0.00e+00	0	38	104	0	60	90843
2026-01-08 00:36:19.59	340.19	23.96	-52.2	-54.7	6.1	0.00e+00	0	38	104	0	60	90959
2026-01-08 00:36:22.61	339.09	24.33	-52.2	-54.7	6.1	0.00e+00	0	37	104	0	60	90999
2026-01-08 00:36:25.64	337.95	24.71	-52.2	-54.7	6.1	0.00e+00	0	38	104	0	60	90848
2026-01-08 00:36:28.67	336.79	25.08	-52.2	-54.7	6.1	0.00e+00	0	38	104	0	60	90513
2026-01-08 00:36:31.71	335.59	25.44	-52.2	-54.7	6.1	0.00e+00	0	38	104	0	60	90493
2026-01-08 00:36:34.74	334.36	25.80	-52.2	-54.7	6.1	0.00e+00	0	38	104	0	60	90392
2026-01-08 00:36:37.77	333.10	26.15	-52.2	-54.7	6.1	0.00e+00	0	38	104	0	60	90908
2026-01-08 00:36:40.81	331.81	26.49	-52.2	-54.7	6.1	0.00e+00	0	38	104	0	60	90566
2026-01-08 00:36:43.84	330.49	26.82	-52.2	-54.7	6.1	0.00e+00	0	38	104	0	60	90589
2026-01-08 00:36:46.87	329.14	27.14	-52.2	-54.7	6.1	0.00e+00	0	38	104	0	60	90549
2026-01-08 00:36:49.90	327.76	27.44	-52.2	-54.7	6.1	0.00e+00	0	38	104	0	60	90380
2026-01-08 00:36:52.94	326.34	27.74	-52.2	-54.7	6.1	0.00e+00	0	38	104	0	60	90365
2026-01-08 00:36:55.97	324.91	28.01	-52.2	-54.7	6.1	0.00e+00	0	38	104	0	60	90952
2026-01-08 00:36:59.00	323.44	28.28	-52.2	-54.6	6.1	0.00e+00	0	38	104	0	60	90234
2026-01-08 00:37:02.03	321.95	28.52	-52.2	-54.7	6.1	0.00e+00	0	38	104	0	60	90860
2026-01-08 00:37:05.07	320.43	28.75	-52.2	-54.7	6.1	0.00e+00	0	38	104	0	60	90791
2026-01-08 00:37:08.10	318.89	28.96	-52.2	-54.7	6.1	0.00e+00	0	38	104	0	60	91128
2026-01-08 00:37:11.13	317.34	29.15	-52.2	-54.7	6.1	0.00e+00	0	38	104	0	60	90878
2026-01-08 00:37:14.16	315.76	29.32	-52.2	-54.7	6.1	0.00e+00	0	38	104	0	60	90516
2026-01-08 00:37:17.20	314.16	29.46	-52.2	-54.7	6.1	0.00e+00	0	38	104	0	60	90975
2026-01-08 00:37:20.23	312.55	29.59	-52.2	-54.7	6.1	0.00e+00	0	38	104	0	60	90386
2026-01-08 00:37:23.26	310.93	29.69	-52.2	-54.7	6.1	0.00e+00	0	38	104	0	60	90704
2026-01-08 00:37:26.29	309.30	29.76	-52.2	-54.7	6.1	0.00e+00	0	38	104	0	60	90991
2026-01-08 00:37:29.33	307.65	29.82	-52.2	-54.7	6.1	0.00e+00	0	38	104	0	60	90310
2026-01-08 00:37:32.36	306.01	29.84	-52.2	-54.7	6.1	0.00e+00	0	38	104	0	60	90987
2026-01-08 00:37:35.39	304.36	29.85	-52.2	-54.7	6.1	0.00e+00	0	38	104	0	60	90488
2026-01-08 00:37:38.43	302.71	29.83	-52.2	-54.7	6.1	0.00e+00	0	38	104	0	60	90463
2026-01-08 00:37:41.46	301.07	29.78	-52.2	-54.7	6.1	0.00e+00	0	38	104	0	60	90650
2026-01-08 00:37:44.49	299.44	29.71	-52.2	-54.7	6.1	0.00e+00	0	38	104	0	60	90903
2026-01-08 00:37:47.52	297.81	29.62	-52.2	-54.7	6.1	0.00e+00	0	38	104	0	60	91203
2026-01-08 00:37:50.56	296.19	29.50	-52.2	-54.7	6.1	0.00e+00	0	38	104	0	60	90441
2026-01-08 00:37:53.59	294.59	29.36	-52.2	-54.7	6.1	0.00e+00	0	38	104	0	60	90743
2026-01-08 00:37:56.62	293.00	29.20	-52.2	-54.7	6.1	0.00e+00	0	38	104	0	60	91107
2026-01-08 00:37:59.65	291.44	29.02	-52.2	-54.7	6.1	0.00e+00	0	38	104	0	60	91125
2026-01-08 00:38:02.69	289.89	28.81	-52.2	-54.7	6.1	0.00e+00	0	38	104	0	60	90766
2026-01-08 00:38:05.72	288.36	28.59	-52.2	-54.7	6.1	0.00e+00	0	38	104	0	60	91018
2026-01-08 00:38:08.75	286.86	28.35	-52.2	-54.7	6.1	0.00e+00	0	38	104	0	60	91069
2026-01-08 00:38:11.78	285.39	28.09	-52.2	-54.7	6.1	0.00e+00	0	38	104	0	60	91007
2026-01-08 00:38:14.82	283.93	27.81	-52.2	-54.7	6.1	0.00e+00	0	38	104	0	60	91141
2026-01-08 00:38:17.85	282.51	27.52	-52.2	-54.8	6.1	0.00e+00	0	38	104	0	60	91470
2026-01-08 00:38:20.88	281.12	27.22	-52.2	-54.7	6.1	0.00e+00	0	38	104	0	60	91287
2026-01-08 00:38:23.91	279.76	26.90	-52.2	-54.7	6.1	0.00e+00	0	38	104	0	60	90854
2026-01-08 00:38:26.94	278.43	26.58	-52.2	-54.7	6.1	0.00e+00	0	38	104	0	60	90943
2026-01-08 00:38:29.98	277.12	26.24	-52.2	-54.7	6.1	0.00e+00	0	38	104	0	60	90976
2026-01-08 00:38:33.01	275.85	25.89	-52.2	-54.7	6.1	0.00e+00	0	38	104	0	60	91263
2026-01-08 00:38:36.05	274.60	25.53	-52.2	-54.7	6.1	0.00e+00	0	38	104	0	60	91119
2026-01-08 00:38:39.08	273.40	25.17	-52.2	-54.7	6.1	0.00e+00	0	38	104	0	60	91048
2026-01-08 00:38:42.11	272.22	24.80	-52.2	-54.7	6.1	0.00e+00	0	38	104	0	60	90920
2026-01-08 00:38:45.14	271.07	24.43	-52.2	-54.7	6.1	0.00e+00	0	38	104	0	60	90630
2026-01-08 00:38:48.17	269.95	24.05	-52.2	-54.7	6.1	0.00e+00	0	38	104	0	60	90776
2026-01-08 00:38:51.21	268.86	23.67	-52.2	-54.7	6.1	0.00e+00	0	38	104	0	60	91005
2026-01-08 00:38:54.24	267.80	23.28	-52.2	-54.7	6.1	0.00e+00	0	38	104	0	60	90505
2026-01-08 00:38:57.27	266.77	22.89	-52.2	-54.7	6.1	0.00e+00	0	38	104	0	60	91263
2026-01-08 00:39:00.30	265.77	22.50	-52.2	-54.7	6.1	0.00e+00	0	38	104	0	60	90871
2026-01-08 00:39:03.33	264.80	22.11	-52.2	-54.7	6.1	0.00e+00	0	38	104	0	60	90865
2026-01-08 00:39:06.37	263.85	21.72	-52.2	-54.7	6.1	0.00e+00	0	38	104	0	60	90923
2026-01-08 00:39:09.40	262.93	21.33	-52.2	-54.7	6.1	0.00e+00	0	38	104	0	60	90868
2026-01-08 00:39:12.43	262.04	20.94	-52.2	-54.6	6.1	0.00e+00	0	38	104	0	60	90266
2026-01-08 00:39:15.47	261.16	20.55	-52.2	-54.7	6.1	0.00e+00	0	38	104	0	60	91019
2026-01-08 00:39:18.50	260.32	20.17	-52.2	-54.7	6.1	0.00e+00	0	38	104	0	60	90834
2026-01-08 00:39:21.53	259.50	19.78	-52.2	-54.7	6.1	0.00e+00	0	38	104	0	60	90996
2026-01-08 00:39:24.57	258.71	19.40	-52.2	-54.7	6.1	0.00e+00	0	38	104	0	60	91218
2026-01-08 00:39:27.60	257.93	19.02	-52.2	-54.7	6.1	0.00e+00	0	38	104	0	60	91074
2026-01-08 00:39:30.64	257.18	18.64	-52.2	-54.7	6.1	0.00e+00	0	38	104	0	60	91023
2026-01-08 00:39:33.67	256.45	18.26	-52.2	-54.7	6.1	0.00e+00	0	38	104	0	60	90968
2026-01-08 00:39:36.70	255.74	17.89	-52.2	-54.7	6.1	0.00e+00	0	38	104	0	60	91040
2026-01-08 00:39:39.74	255.05	17.52	-52.2	-54.7	6.1	0.00e+00	0	38	104	0	60	90775
2026-01-08 00:39:42.77	254.38	17.15	-52.2	-54.8	6.1	0.00e+00	0	38	104	0	60	91434
2026-01-08 00:39:45.80	253.73	16.79	-52.2	-54.7	6.1	0.00e+00	0	38	104	0	60	91121
2026-01-08 00:39:48.83	253.10	16.43	-52.2	-54.7	6.1	0.00e+00	0	38	104	0	60	91139
2026-01-08 00:39:51.86	252.48	16.08	-52.2	-54.7	6.1	0.00e+00	0	38	104	0	60	90912
2026-01-08 00:39:54.90	251.88	15.73	-52.3	-54.7	6.1	0.00e+00	0	38	104	0	60	91108
2026-01-08 00:39:57.93	251.30	15.38	-52.2	-54.7	6.1	0.00e+00	0	38	104	0	60	90767
2026-01-08 00:40:00.96	250.74	15.04	-52.2	-54.7	6.1	0.00e+00	0	38	104	0	60	90945
2026-01-08 00:40:04.00	250.18	14.70	-52.2	-54.7	6.1	0.00e+00	0	38	104	0	60	90904
2026-01-08 00:40:07.03	249.65	14.36	-52.3	-54.7	6.1	0.00e+00	0	38	104	0	60	90613
2026-01-08 00:40:10.06	249.13	14.03	-52.2	-54.7	6.1	0.00e+00	0	38	104	0	60	91035
2026-01-08 00:40:13.10	248.62	13.70	-52.3	-54.7	6.1	0.00e+00	0	38	104	0	60	91226
2026-01-08 00:40:16.13	248.12	13.37	-52.2	-54.7	6.1	0.00e+00	0	38	104	0	60	90978
2026-01-08 00:40:19.16	247.64	13.05	-52.3	-54.7	6.1	0.00e+00	0	38	104	0	60	91199
2026-01-08 00:40:22.19	247.17	12.74	-52.3	-54.7	6.1	0.00e+00	0	38	104	0	60	90885
2026-01-08 00:40:25.23	246.72	12.42	-52.2	-54.7	6.1	0.00e+00	0	38	104	0	60	91293
2026-01-08 00:40:28.26	246.27	12.11	-52.3	-54.7	6.1	0.00e+00	0	38	104	0	60	91121
2026-01-08 00:40:31.29	245.84	11.81	-52.3	-54.8	6.1	0.00e+00	0	38	104	0	60	91529
2026-01-08 00:40:34.33	245.41	11.51	-52.2	-54.7	6.1	0.00e+00	0	38	104	0	60	91037
2026-01-08 00:40:37.36	245.00	11.21	-52.3	-54.7	6.1	0.00e+00	0	38	104	0	60	90913
2026-01-08 00:40:40.39	244.60	10.91	-52.3	-54.7	6.1	0.00e+00	0	38	104	0	60	90948
2026-01-08 00:40:43.42	244.21	10.62	-52.3	-54.7	6.1	0.00e+00	0	38	104	0	60	91140
2026-01-08 00:40:46.45	243.83	10.33	-52.3	-54.7	6.1	0.00e+00	0	38	104	0	60	91138
2026-01-08 00:40:49.49	243.45	10.05	-52.3	-54.7	6.1	0.00e+00	0	38	104	0	60	90601
2026-01-08 00:40:52.52	243.09	9.77	-52.3	-54.7	6.1	0.00e+00	0	38	104	0	60	90818
2026-01-08 00:40:55.55	242.73	9.49	-52.3	-54.7	6.1	0.00e+00	0	38	104	0	60	91209
2026-01-08 00:40:58.59	242.38	9.21	-52.3	-54.7	6.1	0.00e+00	0	38	104	0	60	91275
2026-01-08 00:41:01.62	242.04	8.94	-52.3	-54.7	6.1	0.00e+00	0	38	104	0	60	91060
2026-01-08 00:41:04.65	241.71	8.67	-52.3	-54.7	6.1	0.00e+00	0	38	104	0	60	91022
2026-01-08 00:41:07.68	241.39	8.41	-52.3	-54.7	6.1	0.00e+00	0	38	104	0	60	90884
2026-01-08 00:41:10.72	241.07	8.14	-52.3	-54.7	6.1	0.00e+00	0	38	104	0	60	90676
2026-01-08 00:41:13.75	240.76	7.88	-52.3	-54.7	6.1	0.00e+00	0	38	104	0	60	90714
2026-01-08 00:41:16.78	240.46	7.63	-52.3	-54.7	6.1	0.00e+00	0	38	104	0	60	91118
2026-01-08 00:41:19.81	240.17	7.37	-52.3	-54.7	6.1	0.00e+00	0	38	104	0	60	90843
2026-01-08 00:41:22.85	239.88	7.12	-52.3	-54.7	6.1	0.00e+00	0	38	104	0	60	90777
2026-01-08 00:41:25.88	239.59	6.87	-52.3	-54.8	6.1	0.00e+00	0	38	104	0	60	91347
2026-01-08 00:41:28.91	239.32	6.63	-52.3	-54.7	6.1	0.00e+00	0	38	104	0	60	91002
2026-01-08 00:41:31.95	239.05	6.38	-52.3	-54.7	6.1	0.00e+00	0	38	104	0	60	91222
2026-01-08 00:41:34.98	238.78	6.14	-52.3	-54.8	6.1	0.00e+00	0	38	104	0	60	91479
2026-01-08 00:41:38.01	238.52	5.90	-52.3	-54.7	6.1	0.00e+00	0	38	104	0	60	91194
2026-01-08 00:41:41.04	238.27	5.67	-52.3	-54.7	6.1	0.00e+00	0	38	104	0	60	91188
2026-01-08 00:41:44.07	238.02	5.43	-52.3	-54.8	6.1	0.00e+00	0	38	104	0	60	91599
2026-01-08 00:41:47.10	237.78	5.20	-52.3	-54.7	6.1	0.00e+00	0	38	104	0	60	90975
2026-01-08 00:41:50.14	237.54	4.97	-52.3	-54.7	6.1	0.00e+00	0	38	104	0	60	91314
2026-01-08 00:41:53.17	237.30	4.75	-52.3	-54.7	6.1	0.00e+00	0	38	104	0	60	90743
2026-01-08 00:41:56.20	237.08	4.52	-52.3	-54.7	6.1	0.00e+00	0	38	104	0	60	91221
2026-01-08 00:41:59.24	236.85	4.30	-52.3	-54.7	6.1	0.00e+00	0	38	104	0	60	90989
2026-01-08 00:42:02.27	236.63	4.08	-52.3	-54.7	6.1	0.00e+00	0	38	104	0	60	91161
2026-01-08 00:42:05.30	236.42	3.86	-52.3	-54.8	6.1	0.00e+00	0	38	104	0	60	91570
2026-01-08 00:42:08.34	236.20	3.64	-52.3	-54.8	6.1	0.00e+00	0	38	104	0	60	91360
2026-01-08 00:42:11.37	236.00	3.43	-52.3	-54.7	6.1	0.00e+00	0	38	104	0	60	90667
2026-01-08 00:42:14.40	235.79	3.22	-52.3	-54.8	6.1	0.00e+00	0	38	104	0	60	91345
2026-01-08 00:42:17.44	235.59	3.01	-52.3	-54.7	6.1	0.00e+00	0	38	104	0	60	91227
2026-01-08 00:42:20.47	235.40	2.80	-52.3	-54.7	6.1	0.00e+00	0	38	104	0	60	91150
2026-01-08 00:42:23.50	235.21	2.59	-52.3	-54.8	6.1	0.00e+00	0	38	104	0	60	91350
2026-01-08 00:42:26.53	235.02	2.38	-52.3	-54.7	6.1	0.00e+00	0	38	104	0	60	91317
2026-01-08 00:42:29.56	234.83	2.18	-52.3	-54.8	6.1	0.00e+00	0	38	104	0	60	91441
2026-01-08 00:42:32.60	234.65	1.98	-52.3	-54.8	6.1	0.00e+00	0	38	104	0	60	91335
2026-01-08 00:42:35.63	234.47	1.78	-52.3	-54.8	6.1	0.00e+00	0	38	104	0	60	91322
2026-01-08 00:42:38.66	234.30	1.58	-52.3	-54.7	6.1	0.00e+00	0	38	104	0	60	91161
2026-01-08 00:42:41.69	234.13	1.38	-52.3	-54.8	6.1	0.00e+00	0	38	104	0	60	91767
2026-01-08 00:42:44.73	233.96	1.19	-52.3	-54.7	6.1	0.00e+00	0	38	104	0	60	91202
2026-01-08 00:42:47.76	233.79	0.99	-52.3	-54.7	6.1	0.00e+00	0	38	104	0	60	91193
2026-01-08 00:42:50.80	233.63	0.80	-52.3	-54.8	6.1	0.00e+00	0	38	104	0	60	91614
2026-01-08 00:42:53.83	233.47	0.61	-52.3	-54.7	6.1	0.00e+00	0	38	104	0	60	91049
2026-01-08 00:42:56.86	233.31	0.42	-52.3	-54.7	6.1	0.00e+00	0	38	104	0	60	91012
2026-01-08 00:42:59.90	233.15	0.23	-52.3	-54.8	6.1	0.00e+00	0	38	104	0	60	91563
2026-01-08 00:43:02.93	233.00	0.04	-52.3	-54.7	6.1	0.00e+00	0	38	104	0	60	91005

#Closed at: 2026-01-08 00:43:03
#Recorded file [0 MB]: D:/lorett/data/35034_260108_033235.dat