passes_logs/2026/01/08/R4.6S_Anadyr_2ch/R4.6S_Anadyr_2ch__20260108_005020_FENGYUN_3D_rec.log

#Pass ID: 20260108_005020_FENGYUN 3D
#Satellite: FENGYUN 3D
#Configuration: FENGYUN 3D
#almurnet v.1.7.20251203
#Start time: 2026-01-08 00:50:25

#Version: 2.2.20231116
#Station: R4.6S_Anadyr_2ch
#Location: 177.4865 lon 64.73178 lat
#TLE: 1 43010U 17072A   25350.96693137  .00000321  00000+0  17364-3 0  9993
#TLE: 2 43010  98.9888 317.3403 0001146 169.6565 190.4634 14.19686173419132

#Time	Az	El	Level	Level2	SNR	BER	BlckErr	Temp	State	Recorded	gain1	gain2
2026-01-08 00:50:25.31	121.80	0.28	-52.3	-53.9	5.7	0.00e+00	0	33	0	0	60	82433
2026-01-08 00:50:29.36	121.66	0.52	-52.0	-64.4	3.6	8.47e-01	0	34	104	0	60	80507
2026-01-08 00:50:33.40	121.52	0.76	-52.0	-64.3	3.6	8.45e-01	0	34	104	0	60	80141
2026-01-08 00:50:37.44	121.38	1.00	-52.0	-64.4	3.6	8.45e-01	0	34	104	0	60	80824
2026-01-08 00:50:41.49	121.24	1.24	-52.0	-64.4	3.6	8.45e-01	0	34	104	0	60	80914
2026-01-08 00:50:45.53	121.09	1.49	-52.0	-64.3	3.6	8.46e-01	0	34	104	0	60	79888
2026-01-08 00:50:49.57	120.94	1.73	-52.0	-64.4	3.6	8.45e-01	0	34	104	0	60	80515
2026-01-08 00:50:53.62	120.79	1.98	-52.0	-64.4	3.6	8.46e-01	0	35	104	0	60	80756
2026-01-08 00:50:57.66	120.63	2.23	-52.0	-64.4	3.6	8.44e-01	0	35	104	0	60	81057
2026-01-08 00:51:01.71	120.47	2.48	-52.0	-64.3	3.6	8.45e-01	0	35	104	0	60	80404
2026-01-08 00:51:05.75	120.31	2.74	-52.0	-64.4	3.6	8.44e-01	0	35	104	0	60	80899
2026-01-08 00:51:09.79	120.15	2.99	-52.0	-64.4	3.6	8.44e-01	0	35	104	0	60	80598
2026-01-08 00:51:13.84	119.98	3.25	-52.0	-64.3	3.6	8.45e-01	0	35	104	0	60	80271
2026-01-08 00:51:17.88	119.81	3.51	-52.0	-64.4	3.6	8.45e-01	0	35	104	0	60	80590
2026-01-08 00:51:21.92	119.63	3.78	-52.0	-64.4	3.6	8.44e-01	0	35	104	0	60	80517
2026-01-08 00:51:25.97	119.46	4.04	-52.0	-64.4	3.6	8.45e-01	0	35	104	0	60	80829
2026-01-08 00:51:30.01	119.28	4.31	-52.0	-64.4	3.6	8.45e-01	0	35	104	0	60	81322
2026-01-08 00:51:34.05	119.09	4.58	-52.0	-64.4	3.6	8.45e-01	0	35	104	0	60	80630
2026-01-08 00:51:38.10	118.90	4.85	-52.0	-64.4	3.6	8.47e-01	0	35	104	0	60	80752
2026-01-08 00:51:42.14	118.71	5.13	-52.0	-64.4	3.6	8.47e-01	0	35	104	0	60	80697
2026-01-08 00:51:46.19	118.51	5.41	-52.0	-64.4	3.5	8.45e-01	0	35	104	0	60	80988
2026-01-08 00:51:50.23	118.31	5.69	-52.0	-64.4	3.6	8.46e-01	0	35	104	0	60	80671
2026-01-08 00:51:54.27	118.11	5.97	-52.0	-64.4	3.6	8.46e-01	0	35	104	0	60	80846
2026-01-08 00:51:58.32	117.90	6.25	-52.0	-64.4	3.6	8.44e-01	0	35	104	0	60	80868
2026-01-08 00:52:02.34	117.69	6.54	-52.0	-64.4	3.6	8.45e-01	0	35	104	0	60	80960
2026-01-08 00:52:06.39	117.47	6.83	-52.0	-64.4	3.6	8.45e-01	0	35	104	0	60	80854
2026-01-08 00:52:10.43	117.25	7.13	-52.0	-64.4	3.6	8.45e-01	0	35	104	0	60	81077
2026-01-08 00:52:14.47	117.03	7.42	-52.0	-64.4	3.6	8.45e-01	0	35	104	0	60	80770
2026-01-08 00:52:18.52	116.79	7.72	-52.0	-64.4	3.6	8.44e-01	0	35	104	0	60	80931
2026-01-08 00:52:22.56	116.56	8.03	-52.0	-64.4	3.6	8.44e-01	0	35	104	0	60	80719
2026-01-08 00:52:26.61	116.32	8.33	-52.0	-64.4	3.6	8.45e-01	0	35	104	0	60	81221
2026-01-08 00:52:30.65	116.07	8.64	-52.0	-64.4	3.6	8.45e-01	0	35	104	0	60	80763
2026-01-08 00:52:34.69	115.82	8.96	-52.1	-64.4	3.6	8.46e-01	0	35	104	0	60	80603
2026-01-08 00:52:38.74	115.56	9.27	-52.0	-64.4	3.6	8.45e-01	0	35	104	0	60	81035
2026-01-08 00:52:42.78	115.29	9.59	-52.0	-64.4	3.6	8.44e-01	0	35	104	0	60	80870
2026-01-08 00:52:46.83	115.02	9.92	-52.0	-64.4	3.6	8.45e-01	0	35	104	0	60	80900
2026-01-08 00:52:50.87	114.74	10.24	-52.0	-64.4	3.6	8.45e-01	0	35	104	0	60	80705
2026-01-08 00:52:54.91	114.46	10.57	-52.0	-64.4	3.6	8.44e-01	0	36	104	0	60	80758
2026-01-08 00:52:58.96	114.17	10.91	-52.0	-64.4	3.6	8.45e-01	0	35	104	0	60	80763
2026-01-08 00:53:03.00	113.87	11.25	-52.0	-64.4	3.6	8.45e-01	0	35	104	0	60	81084
2026-01-08 00:53:07.04	113.57	11.59	-52.0	-64.3	3.5	8.45e-01	0	35	104	0	60	80374
2026-01-08 00:53:11.09	113.26	11.94	-52.0	-64.4	3.6	8.45e-01	0	35	104	0	60	80962
2026-01-08 00:53:15.13	112.94	12.29	-52.0	-64.4	3.6	8.45e-01	0	36	104	0	60	80766
2026-01-08 00:53:19.18	112.61	12.64	-52.1	-64.4	3.6	8.44e-01	0	36	104	0	60	80976
2026-01-08 00:53:23.22	112.27	13.00	-52.0	-64.4	3.6	8.45e-01	0	36	104	0	60	81178
2026-01-08 00:53:27.26	111.93	13.36	-52.0	-64.4	3.6	8.44e-01	0	35	104	0	60	80912
2026-01-08 00:53:31.31	111.57	13.73	-52.0	-64.4	3.6	8.45e-01	0	35	104	0	60	81012
2026-01-08 00:53:35.35	111.21	14.10	-52.0	-64.4	3.6	8.46e-01	0	35	104	0	60	80815
2026-01-08 00:53:39.39	110.84	14.48	-52.0	-64.4	3.6	8.45e-01	0	36	104	0	60	80897
2026-01-08 00:53:43.44	110.46	14.86	-52.0	-64.4	3.6	8.45e-01	0	36	104	0	60	80555
2026-01-08 00:53:47.48	110.06	15.25	-52.0	-64.4	3.6	8.45e-01	0	36	104	0	60	81176
2026-01-08 00:53:51.53	109.66	15.64	-52.0	-64.3	3.6	8.45e-01	0	35	104	0	60	80276
2026-01-08 00:53:55.57	109.25	16.03	-52.0	-64.4	3.6	8.44e-01	0	35	104	0	60	80844
2026-01-08 00:53:59.61	108.82	16.43	-52.0	-64.4	3.6	8.45e-01	0	36	104	0	60	80482
2026-01-08 00:54:03.66	108.38	16.84	-52.0	-64.4	3.6	8.45e-01	0	36	104	0	60	80879
2026-01-08 00:54:07.70	107.93	17.25	-52.0	-64.4	3.6	8.45e-01	0	36	104	0	60	80495
2026-01-08 00:54:11.74	107.47	17.66	-52.0	-64.4	3.6	8.46e-01	0	36	104	0	60	80883
2026-01-08 00:54:15.79	106.99	18.08	-52.0	-64.4	3.6	8.45e-01	0	36	104	0	60	80739
2026-01-08 00:54:19.83	106.50	18.51	-52.0	-64.4	3.6	8.45e-01	0	36	104	0	60	81023
2026-01-08 00:54:23.80	106.01	18.93	-52.0	-64.4	3.6	8.45e-01	0	36	104	0	60	80470
2026-01-08 00:54:27.84	105.49	19.37	-52.0	-64.4	3.6	8.45e-01	0	36	104	0	60	80618
2026-01-08 00:54:31.89	104.96	19.81	-52.0	-64.4	3.6	8.45e-01	0	36	104	0	60	80837
2026-01-08 00:54:35.93	104.41	20.25	-52.0	-64.4	3.6	8.45e-01	0	36	104	0	60	81064
2026-01-08 00:54:39.97	103.84	20.71	-52.0	-64.4	3.6	8.47e-01	0	36	104	0	60	80693
2026-01-08 00:54:44.02	103.26	21.16	-52.0	-64.4	3.6	8.45e-01	0	36	104	0	60	81033
2026-01-08 00:54:48.06	102.66	21.62	-52.0	-64.4	3.6	8.45e-01	0	36	104	0	60	80798
2026-01-08 00:54:52.11	102.04	22.09	-52.0	-64.4	3.6	8.45e-01	0	36	104	0	60	80739
2026-01-08 00:54:56.15	101.40	22.56	-52.0	-64.4	3.6	8.45e-01	0	36	104	0	60	80467
2026-01-08 00:55:00.20	100.74	23.04	-52.0	-64.4	3.6	8.44e-01	0	36	104	0	60	80645
2026-01-08 00:55:04.24	100.06	23.52	-52.0	-64.4	3.6	8.46e-01	0	36	104	0	60	80717
2026-01-08 00:55:08.29	99.35	24.00	-52.1	-64.4	3.6	8.45e-01	0	36	104	0	60	80619
2026-01-08 00:55:12.33	98.63	24.49	-52.0	-64.4	3.6	8.45e-01	0	36	104	0	60	80924
2026-01-08 00:55:16.38	97.88	24.99	-52.0	-64.4	3.6	8.45e-01	0	36	104	0	60	80797
2026-01-08 00:55:20.42	97.11	25.48	-52.0	-64.4	3.6	8.46e-01	0	36	104	0	60	81029
2026-01-08 00:55:24.46	96.31	25.98	-52.0	-64.4	3.6	8.45e-01	0	36	104	0	60	81217
2026-01-08 00:55:28.51	95.49	26.49	-52.0	-64.3	3.6	8.45e-01	0	36	104	0	60	80443
2026-01-08 00:55:32.55	94.64	26.99	-52.0	-64.4	3.6	8.46e-01	0	36	104	0	60	81339
2026-01-08 00:55:36.60	93.76	27.50	-52.0	-64.4	3.6	8.44e-01	0	36	104	0	60	80888
2026-01-08 00:55:40.64	92.86	28.01	-52.0	-64.4	3.6	8.45e-01	0	36	104	0	60	80558
2026-01-08 00:55:44.68	91.92	28.52	-52.0	-64.4	3.6	8.46e-01	0	36	104	0	60	80944
2026-01-08 00:55:48.73	90.96	29.03	-52.0	-64.4	3.5	8.46e-01	0	36	104	0	60	80770
2026-01-08 00:55:52.77	89.96	29.54	-52.0	-64.4	3.6	8.46e-01	0	36	104	0	60	80936
2026-01-08 00:55:56.82	88.93	30.06	-52.0	-64.4	3.6	8.45e-01	0	36	104	0	60	80544
2026-01-08 00:56:00.86	87.87	30.56	-52.0	-64.4	3.6	8.46e-01	0	36	104	0	60	81015
2026-01-08 00:56:04.90	86.77	31.07	-52.0	-64.4	3.6	8.45e-01	0	36	104	0	60	80720
2026-01-08 00:56:08.95	85.64	31.57	-52.0	-64.4	3.6	8.46e-01	0	36	104	0	60	80505
2026-01-08 00:56:12.99	84.47	32.07	-52.0	-64.4	3.6	8.45e-01	0	36	104	0	60	80473
2026-01-08 00:56:17.04	83.26	32.56	-52.0	-64.4	3.6	8.44e-01	0	36	104	0	60	81120
2026-01-08 00:56:21.08	82.02	33.05	-52.0	-64.4	3.6	8.46e-01	0	36	104	0	60	80762
2026-01-08 00:56:25.12	80.74	33.52	-52.0	-64.4	3.5	8.43e-01	0	36	104	0	60	80801
2026-01-08 00:56:29.17	79.43	33.99	-52.0	-64.4	3.6	8.45e-01	0	36	104	0	60	80617
2026-01-08 00:56:33.21	78.07	34.45	-52.0	-64.4	3.6	8.46e-01	0	36	104	0	60	80519
2026-01-08 00:56:37.25	76.68	34.89	-52.0	-64.4	3.6	8.46e-01	0	36	104	0	60	80735
2026-01-08 00:56:41.30	75.25	35.32	-52.0	-64.4	3.6	8.46e-01	0	36	104	0	60	80925
2026-01-08 00:56:45.34	73.78	35.74	-52.0	-64.4	3.6	8.46e-01	0	36	104	0	60	80956
2026-01-08 00:56:49.39	72.27	36.14	-52.0	-64.4	3.6	8.45e-01	0	36	104	0	60	81002
2026-01-08 00:56:53.43	70.73	36.52	-52.0	-64.4	3.6	8.45e-01	0	36	104	0	60	80465
2026-01-08 00:56:57.47	69.15	36.88	-52.0	-64.4	3.6	8.45e-01	0	36	104	0	60	80904
2026-01-08 00:57:01.52	67.54	37.22	-52.0	-64.4	3.6	8.44e-01	0	36	104	0	60	80776
2026-01-08 00:57:05.56	65.90	37.53	-52.0	-64.4	3.6	8.45e-01	0	36	104	0	60	80867
2026-01-08 00:57:09.60	64.22	37.82	-52.0	-64.4	3.6	8.46e-01	0	36	104	0	60	81119
2026-01-08 00:57:13.65	62.51	38.08	-52.0	-64.4	3.6	8.45e-01	0	36	104	0	60	80838
2026-01-08 00:57:17.69	60.79	38.32	-52.0	-64.4	3.6	8.44e-01	0	36	104	0	60	80843
2026-01-08 00:57:21.74	59.03	38.53	-52.0	-64.4	3.6	8.46e-01	0	36	104	0	60	81311
2026-01-08 00:57:25.78	57.25	38.71	-52.0	-64.4	3.6	8.45e-01	0	36	104	0	60	80495
2026-01-08 00:57:29.82	55.46	38.85	-52.0	-64.4	3.6	8.46e-01	0	36	104	0	60	81001
2026-01-08 00:57:33.87	53.65	38.97	-52.0	-64.4	3.6	8.46e-01	0	36	104	0	60	80486
2026-01-08 00:57:37.91	51.83	39.05	-52.0	-64.4	3.6	8.47e-01	0	36	104	0	60	80554
2026-01-08 00:57:41.95	50.01	39.10	-52.0	-64.4	3.6	8.45e-01	0	36	104	0	60	80641
2026-01-08 00:57:46.00	48.18	39.12	-52.0	-64.4	3.6	8.46e-01	0	36	104	0	60	80620
2026-01-08 00:57:50.04	46.35	39.10	-52.0	-64.4	3.6	8.46e-01	0	36	104	0	60	80531
2026-01-08 00:57:54.08	44.53	39.05	-52.0	-64.3	3.6	8.45e-01	0	36	104	0	60	80404
2026-01-08 00:57:58.13	42.70	38.97	-52.0	-64.3	3.6	8.45e-01	0	36	104	0	60	80312
2026-01-08 00:58:02.17	40.90	38.85	-52.0	-64.4	3.6	8.45e-01	0	36	104	0	60	80525
2026-01-08 00:58:06.21	39.11	38.71	-52.0	-64.3	3.6	8.45e-01	0	36	104	0	60	80434
2026-01-08 00:58:10.25	37.34	38.53	-52.0	-64.3	3.6	8.44e-01	0	36	104	0	60	80271
2026-01-08 00:58:14.30	35.58	38.32	-52.0	-64.4	3.6	8.45e-01	0	36	104	0	60	81285
2026-01-08 00:58:18.34	33.85	38.09	-52.0	-64.4	3.6	8.46e-01	0	36	104	0	60	80635
2026-01-08 00:58:22.38	32.15	37.82	-52.0	-64.4	3.6	8.46e-01	0	36	104	0	60	80689
2026-01-08 00:58:26.43	30.48	37.53	-52.0	-64.4	3.6	8.45e-01	0	36	104	0	60	81111
2026-01-08 00:58:30.47	28.83	37.22	-52.0	-64.4	3.6	8.44e-01	0	36	104	0	60	80744
2026-01-08 00:58:34.52	27.22	36.88	-52.0	-64.4	3.6	8.46e-01	0	36	104	0	60	80940
2026-01-08 00:58:38.56	25.65	36.52	-52.0	-64.4	3.6	8.45e-01	0	36	104	0	60	80742
2026-01-08 00:58:42.60	24.11	36.14	-52.0	-64.4	3.6	8.45e-01	0	36	104	0	60	80624
2026-01-08 00:58:46.65	22.60	35.75	-52.0	-64.4	3.6	8.46e-01	0	36	104	0	60	81008
2026-01-08 00:58:50.69	21.14	35.33	-52.0	-64.4	3.6	8.45e-01	0	36	104	0	60	80654
2026-01-08 00:58:54.74	19.71	34.90	-52.0	-64.4	3.6	8.45e-01	0	36	104	0	60	80976
2026-01-08 00:58:58.78	18.32	34.46	-52.0	-64.4	3.6	8.46e-01	0	36	104	0	60	80736
2026-01-08 00:59:02.83	16.97	34.00	-52.0	-64.4	3.6	8.46e-01	0	36	104	0	60	80579
2026-01-08 00:59:06.87	15.65	33.54	-52.0	-64.4	3.6	8.45e-01	0	36	104	0	60	80633
2026-01-08 00:59:10.92	14.38	33.06	-52.0	-64.3	3.6	8.45e-01	0	36	104	0	60	80447
2026-01-08 00:59:14.96	13.14	32.58	-52.0	-64.3	3.6	8.47e-01	0	36	104	0	60	80276
2026-01-08 00:59:19.00	11.94	32.09	-52.0	-64.4	3.6	8.45e-01	0	36	104	0	60	80743
2026-01-08 00:59:23.05	10.77	31.59	-52.0	-64.3	3.6	8.45e-01	0	36	104	0	60	80386
2026-01-08 00:59:27.09	9.64	31.09	-52.0	-64.4	3.6	8.45e-01	0	36	104	0	60	80697
2026-01-08 00:59:31.14	8.55	30.58	-52.0	-64.4	3.6	8.45e-01	0	36	104	0	60	80674
2026-01-08 00:59:35.18	7.49	30.08	-52.0	-64.4	3.6	8.45e-01	0	36	104	0	60	80745
2026-01-08 00:59:39.22	6.46	29.57	-52.0	-64.4	3.6	8.46e-01	0	36	104	0	60	80613
2026-01-08 00:59:43.27	5.47	29.06	-52.0	-64.4	3.6	8.45e-01	0	36	104	0	60	81139
2026-01-08 00:59:47.31	4.50	28.55	-52.0	-64.3	3.6	8.46e-01	0	36	104	0	60	80258
2026-01-08 00:59:51.36	3.57	28.04	-52.0	-64.4	3.6	8.45e-01	0	36	104	0	60	80751
2026-01-08 00:59:55.40	2.67	27.53	-52.0	-64.4	3.6	8.45e-01	0	36	104	0	60	80791
2026-01-08 00:59:59.45	1.79	27.02	-52.0	-64.4	3.6	8.45e-01	0	36	104	0	60	80782
2026-01-08 01:00:03.49	0.95	26.52	-52.0	-64.4	3.6	8.45e-01	0	36	104	0	60	81029
2026-01-08 01:00:07.53	0.13	26.02	-52.0	-64.4	3.6	8.47e-01	0	36	104	0	60	80676
2026-01-08 01:00:11.57	359.33	25.52	-52.0	-64.4	3.6	8.44e-01	0	36	104	0	60	80795
2026-01-08 01:00:15.62	358.56	25.02	-52.0	-64.4	3.6	8.45e-01	0	36	104	0	60	80764
2026-01-08 01:00:19.66	357.82	24.53	-52.0	-64.4	3.6	8.46e-01	0	36	104	0	60	80482
2026-01-08 01:00:23.70	357.10	24.05	-52.0	-64.3	3.5	8.46e-01	0	36	104	0	60	80292
2026-01-08 01:00:27.74	356.40	23.56	-52.0	-64.4	3.6	8.45e-01	0	36	104	0	60	80971
2026-01-08 01:00:31.79	355.72	23.08	-52.2	-64.6	3.6	8.45e-01	0	36	104	0	60	82677
2026-01-08 01:00:35.83	355.06	22.61	-52.3	-64.6	3.5	8.45e-01	0	36	104	0	60	83099
2026-01-08 01:00:39.87	354.43	22.14	-51.8	-64.4	3.6	8.45e-01	0	36	104	0	60	81174
2026-01-08 01:00:43.92	353.81	21.68	-51.6	-63.9	3.6	8.45e-01	0	36	104	0	60	76566
2026-01-08 01:00:47.96	353.21	21.22	-50.8	-63.2	3.6	8.45e-01	0	36	104	0	60	70219
2026-01-08 01:00:52.01	352.63	20.76	-50.8	-63.1	3.6	8.45e-01	0	36	104	0	60	69677
2026-01-08 01:00:56.05	352.07	20.31	-50.8	-63.0	3.6	8.44e-01	0	36	104	0	60	69114
2026-01-08 01:01:00.09	351.52	19.87	-50.8	-63.1	3.6	8.45e-01	0	36	104	0	60	69593
2026-01-08 01:01:04.14	350.99	19.43	-50.8	-63.1	3.6	8.45e-01	0	36	104	0	60	69840
2026-01-08 01:01:08.18	350.47	18.99	-50.7	-61.7	3.6	8.45e-01	0	36	104	0	60	59516
2026-01-08 01:01:12.23	349.97	18.56	-50.8	-62.7	3.6	8.46e-01	0	36	104	0	60	66852
2026-01-08 01:01:16.27	349.48	18.14	-47.7	-51.7	3.8	8.44e-01	0	36	104	0	60	18819
2026-01-08 01:01:20.32	349.01	17.72	-42.5	-44.2	4.7	8.27e-01	0	36	104	0	60	7916
2026-01-08 01:01:24.36	348.55	17.30	-42.0	-43.9	4.2	8.20e-01	0	36	104	0	60	7613
2026-01-08 01:01:28.40	348.10	16.90	-41.5	-43.0	4.7	8.22e-01	0	36	104	0	60	6894
2026-01-08 01:01:32.45	347.67	16.49	-43.7	-45.7	4.7	7.54e-01	0	36	104	0	60	9353
2026-01-08 01:01:36.49	347.24	16.09	-43.9	-45.9	4.7	8.29e-01	0	36	104	0	60	9579
2026-01-08 01:01:40.54	346.83	15.70	-42.8	-44.8	4.2	8.23e-01	0	36	104	0	60	8483
2026-01-08 01:01:44.58	346.43	15.31	-41.3	-42.8	4.8	8.20e-01	0	36	104	0	60	6723
2026-01-08 01:01:48.63	346.04	14.92	-41.0	-42.6	4.6	8.27e-01	0	36	104	0	60	6546
2026-01-08 01:01:52.67	345.66	14.54	-40.8	-42.5	4.5	8.26e-01	0	36	104	0	60	6471
2026-01-08 01:01:56.72	345.29	14.17	-40.7	-42.5	4.2	8.20e-01	0	36	104	0	60	6476
2026-01-08 01:02:00.76	344.93	13.80	-40.7	-42.3	4.5	8.23e-01	0	35	104	0	60	6339
2026-01-08 01:02:04.80	344.58	13.43	-40.6	-42.1	4.6	8.21e-01	0	36	104	0	60	6241
2026-01-08 01:02:08.85	344.24	13.07	-40.4	-42.1	4.3	8.22e-01	0	35	104	0	60	6213
2026-01-08 01:02:12.89	343.90	12.71	-40.3	-42.0	4.2	8.20e-01	0	36	104	0	60	6120
2026-01-08 01:02:16.94	343.58	12.36	-40.0	-41.6	4.5	8.24e-01	0	36	104	0	58	6554
2026-01-08 01:02:20.98	343.26	12.01	-39.9	-41.4	4.6	8.25e-01	0	36	104	0	58	6417
2026-01-08 01:02:25.03	342.95	11.66	-39.8	-41.2	4.8	8.26e-01	0	35	104	0	58	6266
2026-01-08 01:02:29.07	342.65	11.32	-39.6	-41.2	4.7	8.21e-01	0	35	104	0	58	6314
2026-01-08 01:02:33.11	342.35	10.98	-39.6	-41.0	4.8	8.20e-01	0	36	104	0	58	6123
2026-01-08 01:02:37.16	342.07	10.65	-39.4	-40.9	4.6	8.23e-01	0	35	104	0	58	6046
2026-01-08 01:02:41.20	341.79	10.32	-39.4	-40.8	4.7	8.23e-01	0	36	104	0	58	6032
2026-01-08 01:02:45.24	341.51	9.99	-39.1	-40.7	4.8	8.35e-01	0	35	104	0	58	5941
2026-01-08 01:02:49.29	341.24	9.67	-38.9	-40.3	4.8	8.18e-01	0	36	104	0	56	6325
2026-01-08 01:02:53.33	340.98	9.35	-38.8	-40.2	4.7	8.21e-01	0	36	104	0	56	6253
2026-01-08 01:02:57.37	340.73	9.03	-38.6	-39.9	4.8	8.26e-01	0	35	104	0	56	6090
2026-01-08 01:03:01.42	340.48	8.72	-38.5	-39.8	4.7	8.26e-01	0	36	104	0	56	5985
2026-01-08 01:03:05.46	340.23	8.41	-38.5	-39.8	4.2	8.19e-01	0	35	104	0	56	5972
2026-01-08 01:03:09.51	339.99	8.11	-38.6	-40.1	4.4	8.23e-01	0	35	104	0	56	6218
2026-01-08 01:03:13.55	339.76	7.80	-38.3	-39.6	4.8	7.60e-01	0	36	104	0	56	5862
2026-01-08 01:03:17.59	339.53	7.51	-38.3	-39.6	4.6	8.19e-01	0	35	104	0	56	5873
2026-01-08 01:03:21.64	339.31	7.21	-38.3	-39.6	4.2	8.20e-01	0	35	104	0	56	5839
2026-01-08 01:03:25.68	339.09	6.92	-38.0	-39.3	4.8	8.19e-01	0	35	104	0	54	6347
2026-01-08 01:03:29.73	338.87	6.62	-38.0	-39.2	4.9	8.24e-01	0	35	104	0	54	6317
2026-01-08 01:03:33.77	338.66	6.34	-38.1	-39.3	4.9	8.25e-01	0	35	104	0	54	6384
2026-01-08 01:03:37.82	338.46	6.05	-38.3	-39.8	4.2	8.16e-01	0	35	104	0	54	6723
2026-01-08 01:03:41.86	338.26	5.77	-37.9	-39.6	4.0	8.43e-01	0	35	104	0	54	6600
2026-01-08 01:03:45.90	338.06	5.49	-37.9	-39.2	4.8	7.51e-01	0	35	104	0	54	6263
2026-01-08 01:03:49.95	337.87	5.21	-37.8	-39.1	4.8	8.21e-01	0	36	104	0	54	6194
2026-01-08 01:03:53.99	337.68	4.94	-37.9	-39.4	4.2	8.21e-01	0	35	104	0	54	6454
2026-01-08 01:03:58.04	337.49	4.67	-37.9	-39.1	4.8	8.18e-01	0	36	104	0	54	6218
2026-01-08 01:04:02.08	337.31	4.40	-38.0	-39.4	4.4	8.22e-01	0	36	104	0	54	6454
2026-01-08 01:04:06.12	337.14	4.13	-38.0	-39.5	4.2	8.28e-01	0	35	104	0	54	6497
2026-01-08 01:04:10.17	336.96	3.86	-37.9	-39.4	4.2	8.20e-01	0	35	104	0	54	6427
2026-01-08 01:04:14.21	336.79	3.60	-38.0	-39.4	4.6	8.22e-01	0	36	104	0	54	6391
2026-01-08 01:04:18.26	336.62	3.34	-38.2	-39.6	4.6	8.21e-01	0	35	104	0	54	6541
2026-01-08 01:04:22.30	336.46	3.08	-38.2	-39.7	4.1	8.35e-01	0	35	104	0	54	6662
2026-01-08 01:04:26.35	336.30	2.83	-38.0	-39.5	4.2	8.22e-01	0	35	104	0	54	6481
2026-01-08 01:04:30.39	336.14	2.57	-37.8	-39.0	4.6	8.21e-01	0	36	104	0	54	6166
2026-01-08 01:04:34.44	335.98	2.32	-37.5	-38.7	4.7	8.22e-01	0	36	104	0	54	5935
2026-01-08 01:04:38.48	335.83	2.07	-37.5	-39.1	3.9	8.35e-01	0	35	104	0	54	6245
2026-01-08 01:04:42.52	335.68	1.82	-37.2	-38.5	4.6	8.44e-01	0	36	104	0	54	5776
2026-01-08 01:04:46.57	335.54	1.58	-37.0	-38.2	4.8	8.18e-01	0	35	104	0	52	6279
2026-01-08 01:04:50.61	335.39	1.33	-36.8	-38.0	4.8	7.51e-01	0	35	104	0	52	6134
2026-01-08 01:04:54.65	335.25	1.09	-36.7	-37.9	4.7	7.52e-01	0	35	104	0	52	6092
2026-01-08 01:04:58.70	335.11	0.85	-36.7	-38.2	4.8	8.37e-01	0	35	104	0	52	6286
2026-01-08 01:05:02.74	334.97	0.61	-36.6	-37.8	4.8	8.19e-01	0	36	104	0	52	6008
2026-01-08 01:05:06.78	334.84	0.37	-36.5	-37.8	4.7	8.20e-01	0	35	104	0	52	5978
2026-01-08 01:05:10.83	334.71	0.14	-36.9	-38.3	4.5	8.26e-01	0	35	104	0	52	6353

#Closed at: 2026-01-08 01:05:14
#Recorded file [0 MB]: D:/lorett/data/35034_260108_035025.dat