passes_logs/2026/01/08/R4.6S_Anadyr_2ch/R4.6S_Anadyr_2ch__20260108_012725_TY-39_rec.log

#Pass ID: 20260108_012725_TY-39
#Satellite: TY-39
#Configuration: TY-39
#almurnet v.1.7.20251203
#Start time: 2026-01-08 01:27:31

#Version: 2.2.20231116
#Station: R4.6S_Anadyr_2ch
#Location: 177.4865 lon 64.73178 lat
#TLE: 1 51832U 22019J   25350.98409328  .00002071  00000-0  10077-3 0  9999
#TLE: 2 51832  97.3692  53.3782 0009735 139.3452 220.8512 15.19459940210129

#Time	Az	El	Level	Level2	SNR	BER	BlckErr	Temp	State	Recorded	gain1	gain2
2026-01-08 01:27:31.02	17.56	0.31	-52.2	-53.8	5.7	0.00e+00	0	34	0	0	60	81733
2026-01-08 01:27:34.05	17.26	0.47	-52.1	-54.6	3.6	0.00e+00	0	35	104	0	60	90252
2026-01-08 01:27:37.08	16.95	0.63	-52.2	-54.7	3.6	0.00e+00	0	35	104	0	60	90311
2026-01-08 01:27:40.12	16.64	0.79	-52.1	-54.7	3.6	0.00e+00	0	35	104	0	60	90767
2026-01-08 01:27:43.15	16.32	0.95	-52.2	-54.6	3.6	0.00e+00	0	36	104	0	60	90170
2026-01-08 01:27:46.18	16.00	1.11	-52.1	-54.6	3.6	0.00e+00	0	36	104	0	60	89657
2026-01-08 01:27:49.22	15.68	1.27	-52.2	-54.7	3.6	0.00e+00	0	36	104	0	60	90541
2026-01-08 01:27:52.25	15.35	1.44	-52.2	-54.6	3.6	0.00e+00	0	36	104	0	60	90255
2026-01-08 01:27:55.28	15.01	1.60	-52.2	-54.6	3.6	0.00e+00	0	36	104	0	60	89739
2026-01-08 01:27:58.32	14.67	1.76	-52.2	-54.7	3.6	0.00e+00	0	36	104	0	60	90303
2026-01-08 01:28:01.35	14.33	1.93	-52.2	-54.6	3.6	0.00e+00	0	36	104	0	60	90210
2026-01-08 01:28:04.38	13.98	2.09	-52.2	-54.6	3.6	0.00e+00	0	36	104	0	60	89908
2026-01-08 01:28:07.41	13.62	2.26	-52.2	-54.6	3.6	0.00e+00	0	36	104	0	60	90088
2026-01-08 01:28:10.44	13.26	2.42	-52.2	-54.6	3.6	0.00e+00	0	36	104	0	60	90143
2026-01-08 01:28:13.48	12.89	2.59	-52.2	-54.6	3.6	0.00e+00	0	36	104	0	60	89977
2026-01-08 01:28:16.51	12.52	2.75	-52.2	-54.6	3.6	0.00e+00	0	36	104	0	60	90241
2026-01-08 01:28:19.54	12.15	2.92	-52.2	-54.6	3.6	0.00e+00	0	36	104	0	60	89815
2026-01-08 01:28:22.57	11.76	3.08	-52.2	-54.6	3.6	0.00e+00	0	36	104	0	60	89808
2026-01-08 01:28:25.61	11.37	3.25	-52.2	-54.6	3.6	0.00e+00	0	36	104	0	60	90249
2026-01-08 01:28:28.64	10.98	3.42	-52.2	-54.6	3.6	0.00e+00	0	36	104	0	60	90110
2026-01-08 01:28:31.68	10.58	3.59	-52.2	-54.7	3.6	0.00e+00	0	37	104	0	60	90591
2026-01-08 01:28:34.71	10.17	3.75	-52.2	-54.6	3.6	0.00e+00	0	36	104	0	60	90083
2026-01-08 01:28:37.74	9.76	3.92	-52.2	-54.6	3.6	0.00e+00	0	37	104	0	60	90185
2026-01-08 01:28:40.77	9.34	4.09	-52.2	-54.6	3.6	0.00e+00	0	37	104	0	60	90134
2026-01-08 01:28:43.81	8.92	4.26	-52.2	-54.6	3.6	0.00e+00	0	37	104	0	60	90084
2026-01-08 01:28:46.84	8.49	4.43	-52.2	-54.6	3.6	0.00e+00	0	37	104	0	60	90064
2026-01-08 01:28:49.87	8.05	4.59	-52.2	-54.7	3.5	0.00e+00	0	37	104	0	60	90543
2026-01-08 01:28:52.91	7.60	4.76	-52.2	-54.7	3.6	0.00e+00	0	37	104	0	60	90339
2026-01-08 01:28:55.94	7.15	4.93	-52.2	-54.6	3.6	0.00e+00	0	37	104	0	60	90230
2026-01-08 01:28:58.97	6.69	5.10	-52.2	-54.7	3.6	0.00e+00	0	37	104	0	60	90296
2026-01-08 01:29:02.00	6.23	5.27	-52.2	-54.6	3.6	0.00e+00	0	37	104	0	60	90205
2026-01-08 01:29:05.03	5.76	5.44	-52.2	-54.6	3.6	0.00e+00	0	37	104	0	60	89905
2026-01-08 01:29:08.07	5.28	5.61	-52.2	-54.7	3.6	0.00e+00	0	37	104	0	60	90384
2026-01-08 01:29:11.10	4.79	5.78	-52.2	-54.6	3.6	0.00e+00	0	37	104	0	60	89758
2026-01-08 01:29:14.13	4.30	5.94	-52.2	-54.7	3.6	0.00e+00	0	37	104	0	60	90778
2026-01-08 01:29:17.17	3.80	6.11	-52.2	-54.6	3.6	0.00e+00	0	37	104	0	60	90219
2026-01-08 01:29:20.20	3.29	6.28	-52.2	-54.6	3.6	0.00e+00	0	37	104	0	60	90064
2026-01-08 01:29:23.23	2.78	6.45	-52.2	-54.6	3.6	0.00e+00	0	37	104	0	60	90212
2026-01-08 01:29:26.26	2.25	6.61	-52.2	-54.6	3.6	0.00e+00	0	37	104	0	60	90206
2026-01-08 01:29:29.30	1.72	6.78	-52.2	-54.6	3.6	0.00e+00	0	37	104	0	60	90204
2026-01-08 01:29:32.33	1.18	6.95	-52.2	-54.6	3.6	0.00e+00	0	37	104	0	60	90003
2026-01-08 01:29:35.36	0.64	7.11	-52.2	-54.7	3.6	0.00e+00	0	37	104	0	60	90568
2026-01-08 01:29:38.40	0.08	7.28	-52.2	-54.6	3.6	0.00e+00	0	37	104	0	60	90227
2026-01-08 01:29:41.43	359.52	7.44	-52.2	-54.7	3.5	0.00e+00	0	37	104	0	60	90275
2026-01-08 01:29:44.46	358.95	7.60	-52.2	-54.6	3.6	0.00e+00	0	37	104	0	60	90192
2026-01-08 01:29:47.49	358.37	7.76	-52.2	-54.7	3.6	0.00e+00	0	37	104	0	60	90314
2026-01-08 01:29:50.52	357.78	7.92	-52.2	-54.6	3.6	0.00e+00	0	37	104	0	60	90114
2026-01-08 01:29:53.56	357.19	8.09	-52.2	-54.6	3.6	0.00e+00	0	37	104	0	60	89613
2026-01-08 01:29:56.59	356.58	8.24	-52.2	-54.7	3.6	0.00e+00	0	37	104	0	60	90429
2026-01-08 01:29:59.62	355.97	8.40	-52.2	-54.6	3.6	0.00e+00	0	37	104	0	60	90184
2026-01-08 01:30:02.66	355.35	8.56	-52.2	-54.7	3.6	0.00e+00	0	37	104	0	60	90700
2026-01-08 01:30:05.69	354.72	8.71	-52.2	-54.6	3.6	0.00e+00	0	37	104	0	60	90168
2026-01-08 01:30:08.72	354.09	8.87	-52.2	-54.6	3.6	0.00e+00	0	37	104	0	60	90066
2026-01-08 01:30:11.76	353.44	9.02	-52.2	-54.6	3.6	0.00e+00	0	37	104	0	60	89828
2026-01-08 01:30:14.79	352.79	9.17	-52.2	-54.6	3.6	0.00e+00	0	37	104	0	60	89813
2026-01-08 01:30:17.82	352.13	9.32	-52.2	-54.7	3.6	0.00e+00	0	37	104	0	60	90331
2026-01-08 01:30:20.85	351.46	9.46	-52.2	-54.6	3.6	0.00e+00	0	37	104	0	60	90083
2026-01-08 01:30:23.88	350.78	9.61	-52.2	-54.7	3.6	0.00e+00	0	37	104	0	60	91192
2026-01-08 01:30:26.92	350.09	9.75	-52.2	-54.7	3.6	0.00e+00	0	37	104	0	60	90861
2026-01-08 01:30:29.95	349.40	9.89	-52.3	-54.8	3.6	0.00e+00	0	37	104	0	60	91512
2026-01-08 01:30:32.98	348.69	10.02	-52.2	-54.7	3.6	0.00e+00	0	37	104	0	60	90658
2026-01-08 01:30:36.01	347.98	10.16	-51.6	-54.1	3.6	0.00e+00	0	37	104	0	60	84595
2026-01-08 01:30:39.05	347.26	10.29	-51.0	-53.5	3.6	0.00e+00	0	37	104	0	60	78796
2026-01-08 01:30:42.08	346.53	10.42	-51.0	-53.5	3.6	0.00e+00	0	37	104	0	60	78896
2026-01-08 01:30:45.11	345.80	10.55	-51.0	-53.4	3.6	0.00e+00	0	37	104	0	60	78380
2026-01-08 01:30:48.15	345.05	10.67	-51.0	-53.5	3.6	0.00e+00	0	37	104	0	60	78729
2026-01-08 01:30:51.18	344.30	10.79	-51.0	-53.5	3.6	0.00e+00	0	37	104	0	60	78975
2026-01-08 01:30:54.21	343.54	10.90	-51.0	-53.5	3.6	0.00e+00	0	37	104	0	60	78925
2026-01-08 01:30:57.24	342.78	11.02	-51.0	-53.5	3.6	0.00e+00	0	37	104	0	60	78775
2026-01-08 01:31:00.28	342.00	11.13	-51.0	-53.5	3.6	0.00e+00	0	37	104	0	60	78863
2026-01-08 01:31:03.31	341.22	11.23	-51.0	-53.4	3.6	0.00e+00	0	37	104	0	60	78303
2026-01-08 01:31:06.34	340.44	11.33	-50.9	-53.4	3.6	0.00e+00	0	37	104	0	60	78195
2026-01-08 01:31:09.37	339.65	11.43	-51.0	-53.5	3.6	0.00e+00	0	38	104	0	60	78722
2026-01-08 01:31:12.41	338.84	11.52	-50.9	-53.4	3.6	0.00e+00	0	37	104	0	60	78549
2026-01-08 01:31:15.44	338.04	11.61	-50.9	-53.5	3.6	0.00e+00	0	37	104	0	60	78688
2026-01-08 01:31:18.47	337.23	11.70	-50.9	-53.5	3.6	0.00e+00	0	37	104	0	60	78630
2026-01-08 01:31:21.51	336.41	11.78	-51.1	-53.5	3.6	0.00e+00	0	37	104	0	60	79502
2026-01-08 01:31:24.54	335.59	11.86	-50.8	-53.4	3.6	0.00e+00	0	37	104	0	60	78314
2026-01-08 01:31:27.57	334.76	11.93	-51.1	-53.6	3.6	0.00e+00	0	37	104	0	60	80184
2026-01-08 01:31:30.60	333.93	11.99	-51.2	-53.7	3.6	0.00e+00	0	38	104	0	60	80997
2026-01-08 01:31:33.64	333.09	12.06	-51.2	-53.7	3.6	0.00e+00	0	38	104	0	60	81117
2026-01-08 01:31:36.67	332.25	12.11	-51.2	-53.6	3.6	0.00e+00	0	37	104	0	60	80229
2026-01-08 01:31:39.70	331.40	12.16	-51.3	-53.8	3.6	0.00e+00	0	37	104	0	60	81745
2026-01-08 01:31:42.74	330.55	12.21	-51.3	-53.8	3.6	0.00e+00	0	38	104	0	60	81796
2026-01-08 01:31:45.77	329.70	12.25	-51.4	-53.8	3.6	0.00e+00	0	38	104	0	60	81876
2026-01-08 01:31:48.80	328.85	12.29	-51.4	-53.8	3.6	0.00e+00	0	37	104	0	60	82262
2026-01-08 01:31:51.83	327.99	12.32	-51.3	-53.8	3.6	0.00e+00	0	37	104	0	60	82077
2026-01-08 01:31:54.87	327.13	12.35	-51.4	-53.9	3.6	0.00e+00	0	37	104	0	60	82412
2026-01-08 01:31:57.90	326.27	12.37	-51.3	-53.9	3.6	0.00e+00	0	37	104	0	60	82347
2026-01-08 01:32:00.93	325.41	12.38	-51.2	-53.8	3.6	0.00e+00	0	37	104	0	60	81442
2026-01-08 01:32:03.97	324.54	12.39	-51.2	-53.7	3.6	0.00e+00	0	37	104	0	60	81266
2026-01-08 01:32:07.00	323.68	12.39	-51.4	-53.9	3.6	0.00e+00	0	38	104	0	60	82837
2026-01-08 01:32:10.03	322.82	12.39	-51.4	-53.9	3.6	0.00e+00	0	38	104	0	60	82932
2026-01-08 01:32:13.06	321.96	12.39	-51.4	-53.9	3.6	0.00e+00	0	38	104	0	60	83087
2026-01-08 01:32:16.10	321.09	12.37	-51.4	-53.9	3.6	0.00e+00	0	38	104	0	60	83017
2026-01-08 01:32:19.13	320.23	12.36	-51.5	-54.0	3.6	0.00e+00	0	38	104	0	60	83626
2026-01-08 01:32:22.16	319.37	12.33	-51.6	-54.1	3.6	0.00e+00	0	38	104	0	60	84833
2026-01-08 01:32:25.19	318.51	12.30	-51.5	-54.0	3.6	0.00e+00	0	38	104	0	60	83973
2026-01-08 01:32:28.23	317.66	12.27	-51.5	-54.0	3.6	0.00e+00	0	38	104	0	60	84126
2026-01-08 01:32:31.26	316.80	12.23	-51.6	-54.1	3.6	0.00e+00	0	37	104	0	60	84944
2026-01-08 01:32:34.29	315.95	12.19	-51.6	-54.1	3.5	0.00e+00	0	38	104	0	60	84577
2026-01-08 01:32:37.33	315.10	12.14	-51.6	-54.1	3.6	0.00e+00	0	38	104	0	60	85205
2026-01-08 01:32:40.36	314.26	12.08	-51.6	-54.1	3.6	0.00e+00	0	38	104	0	60	85120
2026-01-08 01:32:43.39	313.42	12.02	-51.7	-54.2	3.6	0.00e+00	0	38	104	0	60	85231
2026-01-08 01:32:46.43	312.59	11.96	-51.7	-54.2	3.6	0.00e+00	0	38	104	0	60	85478
2026-01-08 01:32:49.46	311.76	11.89	-51.7	-54.2	3.6	0.00e+00	0	38	104	0	60	85531
2026-01-08 01:32:52.49	310.93	11.81	-51.7	-54.2	3.6	0.00e+00	0	38	104	0	60	85840
2026-01-08 01:32:55.53	310.11	11.74	-51.7	-54.1	3.6	0.00e+00	0	38	104	0	60	85194
2026-01-08 01:32:58.56	309.29	11.65	-51.7	-54.1	3.6	0.00e+00	0	38	104	0	60	85178
2026-01-08 01:33:01.59	308.49	11.57	-51.8	-54.2	3.6	0.00e+00	0	38	104	0	60	86028
2026-01-08 01:33:04.63	307.68	11.47	-51.8	-54.3	3.6	0.00e+00	0	38	104	0	60	86333
2026-01-08 01:33:07.66	306.88	11.38	-51.8	-54.3	3.6	0.00e+00	0	38	104	0	60	86628
2026-01-08 01:33:10.69	306.09	11.28	-51.8	-54.3	3.6	0.00e+00	0	38	104	0	60	86854
2026-01-08 01:33:13.72	305.31	11.17	-51.9	-54.3	3.6	0.00e+00	0	38	104	0	60	86780
2026-01-08 01:33:16.75	304.53	11.07	-51.9	-54.3	3.6	0.00e+00	0	38	104	0	60	87181
2026-01-08 01:33:19.78	303.76	10.96	-51.9	-54.3	3.6	0.00e+00	0	38	104	0	60	87153
2026-01-08 01:33:22.82	303.00	10.84	-51.8	-54.3	3.6	0.00e+00	0	38	104	0	60	86736
2026-01-08 01:33:25.85	302.25	10.72	-51.8	-54.3	3.6	0.00e+00	0	38	104	0	60	86648
2026-01-08 01:33:28.88	301.50	10.60	-51.8	-54.3	3.6	0.00e+00	0	38	104	0	60	86728
2026-01-08 01:33:31.91	300.76	10.48	-51.8	-54.4	3.6	0.00e+00	0	38	104	0	60	87397
2026-01-08 01:33:34.95	300.03	10.35	-51.8	-54.3	3.6	0.00e+00	0	38	104	0	60	87168
2026-01-08 01:33:37.98	299.30	10.22	-51.9	-54.3	3.6	0.00e+00	0	38	104	0	60	87202
2026-01-08 01:33:41.01	298.59	10.08	-51.8	-54.4	3.6	0.00e+00	0	38	104	0	60	87458
2026-01-08 01:33:44.05	297.88	9.95	-51.9	-54.4	3.6	0.00e+00	0	38	104	0	60	87744
2026-01-08 01:33:47.08	297.18	9.81	-51.9	-54.4	3.6	0.00e+00	0	38	104	0	60	87507
2026-01-08 01:33:50.11	296.49	9.67	-51.9	-54.4	3.6	0.00e+00	0	38	104	0	60	87826
2026-01-08 01:33:53.14	295.80	9.53	-51.9	-54.4	3.6	0.00e+00	0	38	104	0	60	88116
2026-01-08 01:33:56.17	295.13	9.38	-51.9	-54.4	3.6	0.00e+00	0	38	104	0	60	87458
2026-01-08 01:33:59.21	294.46	9.23	-51.9	-54.4	3.6	0.00e+00	0	38	104	0	60	87793
2026-01-08 01:34:02.24	293.80	9.08	-51.9	-54.4	3.6	0.00e+00	0	38	104	0	60	87953
2026-01-08 01:34:05.27	293.15	8.93	-52.0	-54.4	3.6	0.00e+00	0	38	104	0	60	88049
2026-01-08 01:34:08.31	292.51	8.78	-52.0	-54.4	3.6	0.00e+00	0	38	104	0	60	87918
2026-01-08 01:34:11.34	291.88	8.63	-52.0	-54.4	3.6	0.00e+00	0	38	104	0	60	88162
2026-01-08 01:34:14.37	291.25	8.47	-52.0	-54.5	3.6	0.00e+00	0	38	104	0	60	88222
2026-01-08 01:34:17.41	290.64	8.31	-52.0	-54.5	3.6	0.00e+00	0	38	104	0	60	88409
2026-01-08 01:34:20.44	290.03	8.16	-52.0	-54.5	3.6	0.00e+00	0	38	104	0	60	88561
2026-01-08 01:34:23.47	289.43	8.00	-52.0	-54.5	3.6	0.00e+00	0	38	104	0	60	89057
2026-01-08 01:34:26.50	288.84	7.84	-52.0	-54.5	3.6	0.00e+00	0	38	104	0	60	88460
2026-01-08 01:34:29.54	288.25	7.67	-52.0	-54.4	3.6	0.00e+00	0	38	104	0	60	88145
2026-01-08 01:34:32.57	287.68	7.51	-52.0	-54.5	3.6	0.00e+00	0	38	104	0	60	89060
2026-01-08 01:34:35.60	287.11	7.35	-52.0	-54.5	3.6	0.00e+00	0	38	104	0	60	88479
2026-01-08 01:34:38.63	286.55	7.18	-52.0	-54.5	3.6	0.00e+00	0	38	104	0	60	89082
2026-01-08 01:34:41.67	286.00	7.02	-52.0	-54.5	3.6	0.00e+00	0	38	104	0	60	88303
2026-01-08 01:34:44.70	285.46	6.85	-52.0	-54.5	3.6	0.00e+00	0	38	104	0	60	89027
2026-01-08 01:34:47.73	284.92	6.69	-52.0	-54.5	3.6	0.00e+00	0	38	104	0	60	89113
2026-01-08 01:34:50.77	284.39	6.52	-52.0	-54.5	3.6	0.00e+00	0	38	104	0	60	88579
2026-01-08 01:34:53.80	283.87	6.35	-52.0	-54.5	3.6	0.00e+00	0	38	104	0	60	88534
2026-01-08 01:34:56.83	283.36	6.18	-52.0	-54.5	3.6	0.00e+00	0	38	104	0	60	88727
2026-01-08 01:34:59.86	282.86	6.02	-52.0	-54.5	3.6	0.00e+00	0	38	104	0	60	88948
2026-01-08 01:35:02.90	282.36	5.85	-52.0	-54.5	3.6	0.00e+00	0	38	104	0	60	88350
2026-01-08 01:35:05.93	281.87	5.68	-52.0	-54.5	3.6	0.00e+00	0	38	104	0	60	88876
2026-01-08 01:35:08.97	281.38	5.51	-52.0	-54.5	3.6	0.00e+00	0	38	104	0	60	88753
2026-01-08 01:35:12.00	280.91	5.34	-52.0	-54.5	3.6	0.00e+00	0	38	104	0	60	88802
2026-01-08 01:35:15.03	280.44	5.17	-52.1	-54.5	3.6	0.00e+00	0	38	104	0	60	88946
2026-01-08 01:35:18.06	279.98	5.00	-52.0	-54.6	3.6	0.00e+00	0	38	104	0	60	89260
2026-01-08 01:35:21.09	279.52	4.84	-52.0	-54.5	3.6	0.00e+00	0	38	104	0	60	88889
2026-01-08 01:35:24.13	279.07	4.67	-52.1	-54.6	3.6	0.00e+00	0	38	104	0	60	89482
2026-01-08 01:35:27.16	278.63	4.50	-52.1	-54.6	3.6	0.00e+00	0	38	104	0	60	89281
2026-01-08 01:35:30.19	278.19	4.33	-52.0	-54.5	3.6	0.00e+00	0	38	104	0	60	88561
2026-01-08 01:35:33.23	277.76	4.16	-52.0	-54.5	3.6	0.00e+00	0	38	104	0	60	88950
2026-01-08 01:35:36.26	277.34	3.99	-52.0	-54.5	3.6	0.00e+00	0	38	104	0	60	88655
2026-01-08 01:35:39.29	276.93	3.83	-52.0	-54.5	3.5	0.00e+00	0	38	104	0	60	88697
2026-01-08 01:35:42.33	276.51	3.66	-52.0	-54.6	3.6	0.00e+00	0	38	104	0	60	89578
2026-01-08 01:35:45.36	276.11	3.49	-52.0	-54.5	3.6	0.00e+00	0	38	104	0	60	89085
2026-01-08 01:35:48.39	275.71	3.32	-52.0	-54.5	3.6	0.00e+00	0	38	104	0	60	89239
2026-01-08 01:35:51.43	275.32	3.16	-52.0	-54.5	3.6	0.00e+00	0	38	104	0	60	88768
2026-01-08 01:35:54.46	274.93	2.99	-52.0	-54.5	3.6	0.00e+00	0	38	104	0	60	88458
2026-01-08 01:35:57.49	274.55	2.82	-52.0	-54.5	3.6	0.00e+00	0	38	104	0	60	88870
2026-01-08 01:36:00.53	274.18	2.66	-52.0	-54.5	3.6	0.00e+00	0	38	104	0	60	88931
2026-01-08 01:36:03.56	273.81	2.49	-51.9	-54.5	3.6	0.00e+00	0	38	104	0	60	88369
2026-01-08 01:36:06.59	273.44	2.33	-52.0	-54.5	3.6	0.00e+00	0	38	104	0	60	89049
2026-01-08 01:36:09.62	273.08	2.16	-52.0	-54.5	3.6	0.00e+00	0	38	104	0	60	88922
2026-01-08 01:36:12.66	272.73	2.00	-52.1	-54.5	3.6	0.00e+00	0	38	104	0	60	89172
2026-01-08 01:36:15.69	272.38	1.83	-52.1	-54.6	3.6	0.00e+00	0	38	104	0	60	89441
2026-01-08 01:36:18.72	272.04	1.67	-52.1	-54.5	3.6	0.00e+00	0	38	104	0	60	89108
2026-01-08 01:36:21.75	271.70	1.51	-52.1	-54.5	3.6	0.00e+00	0	38	104	0	60	89166
2026-01-08 01:36:24.79	271.36	1.34	-52.1	-54.6	3.6	0.00e+00	0	38	104	0	60	89538
2026-01-08 01:36:27.82	271.03	1.18	-52.1	-54.6	3.6	0.00e+00	0	38	104	0	60	89875
2026-01-08 01:36:30.85	270.71	1.02	-52.1	-54.6	3.6	0.00e+00	0	38	104	0	60	89968
2026-01-08 01:36:33.88	270.39	0.86	-52.1	-54.6	3.6	0.00e+00	0	38	104	0	60	89709
2026-01-08 01:36:36.91	270.07	0.70	-52.1	-54.6	3.6	0.00e+00	0	38	104	0	60	89544
2026-01-08 01:36:39.95	269.76	0.54	-52.1	-54.6	3.6	0.00e+00	0	38	104	0	60	89640
2026-01-08 01:36:42.98	269.46	0.38	-52.1	-54.5	3.6	0.00e+00	0	38	104	0	60	89215
2026-01-08 01:36:46.01	269.15	0.22	-52.1	-54.6	3.6	0.00e+00	0	38	104	0	60	89578
2026-01-08 01:36:49.04	268.86	0.06	-52.2	-54.6	3.6	0.00e+00	0	38	104	0	60	89905
2026-01-08 01:36:52.07	268.56	-0.10	-52.2	-54.6	3.6	0.00e+00	0	38	104	0	60	89477

#Closed at: 2026-01-08 01:36:52
#Recorded file [0 MB]: D:/lorett/data/35034_260108_042731.dat