passes_logs/2026/01/08/R4.6S_Anadyr_2ch/R4.6S_Anadyr_2ch__20260108_010027_NOAA_21_JPSS-2_rec.log

#Pass ID: 20260108_010027_NOAA 21 (JPSS-2)
#Satellite: NOAA 21 (JPSS-2)
#Configuration: NOAA-21
#almurnet v.1.7.20251203
#Start time: 2026-01-08 01:09:09

#Version: 2.2.20231116
#Station: R4.6S_Anadyr_2ch
#Location: 177.4865 lon 64.73178 lat
#TLE: 1 54234U 22150A   25350.97269056  .00000057  00000+0  47676-4 0  9992
#TLE: 2 54234  98.7466 287.2282 0002043  29.8355 330.2937 14.19525482160692

#Time	Az	El	Level	Level2	SNR	BER	BlckErr	Temp	State	Recorded	gain1	gain2
2026-01-08 01:09:09.41	295.29	45.77	-52.1	-70.3	3.5	2.96e+01	0	35	0	0	60	169437
2026-01-08 01:09:11.43	296.19	45.41	-40.1	-41.1	22.5	0.00e+00	0	36	102	1048576	58	6049
2026-01-08 01:09:13.45	297.06	45.04	-40.4	-41.4	22.2	0.00e+00	0	36	102	1048576	58	6272
2026-01-08 01:09:15.47	297.91	44.66	-40.5	-41.5	22.2	0.00e+00	0	36	102	1048576	58	6321
2026-01-08 01:09:17.49	298.75	44.28	-41.0	-42.0	22.0	0.00e+00	0	36	102	1048576	58	6718
2026-01-08 01:09:19.51	299.56	43.90	-42.0	-43.1	21.0	0.00e+00	0	36	102	1048576	60	6768
2026-01-08 01:09:21.54	300.36	43.52	-42.1	-43.3	20.8	0.00e+00	0	36	102	1048576	60	6925
2026-01-08 01:09:23.56	301.14	43.14	-41.2	-42.3	21.7	0.00e+00	0	36	102	1048576	60	6175
2026-01-08 01:09:25.58	301.89	42.75	-40.7	-41.7	22.2	0.00e+00	0	36	102	1048576	60	5745
2026-01-08 01:09:27.60	302.64	42.36	-40.6	-41.7	22.2	0.00e+00	0	36	102	1048576	60	5742
2026-01-08 01:09:29.63	303.36	41.97	-40.3	-41.4	22.5	0.00e+00	0	36	102	1048576	60	5539
2026-01-08 01:09:31.65	304.07	41.59	-39.5	-40.5	23.2	0.00e+00	0	36	102	1048576	58	5630
2026-01-08 01:09:33.67	304.76	41.20	-39.9	-40.9	22.7	0.00e+00	0	36	102	1048576	58	5924
2026-01-08 01:09:35.69	305.43	40.81	-40.6	-41.6	22.2	0.00e+00	0	36	102	1048576	58	6406
2026-01-08 01:09:37.72	306.09	40.42	-41.4	-42.5	21.6	0.00e+00	0	36	102	1048576	60	6305
2026-01-08 01:09:39.74	306.73	40.03	-41.0	-42.1	21.9	0.00e+00	0	36	102	1048576	60	6012
2026-01-08 01:09:41.76	307.36	39.64	-40.6	-41.6	22.2	0.00e+00	0	36	102	1048576	60	5700
2026-01-08 01:09:43.78	307.97	39.25	-40.4	-41.5	22.3	0.00e+00	0	36	102	1048576	60	5615
2026-01-08 01:09:45.80	308.57	38.86	-40.2	-41.2	22.7	0.00e+00	0	36	102	1048576	60	5431
2026-01-08 01:09:47.82	309.15	38.48	-39.9	-40.9	23.0	0.00e+00	0	36	102	1048576	58	5877
2026-01-08 01:09:49.85	309.73	38.09	-39.9	-40.9	22.6	0.00e+00	0	36	102	1048576	58	5924
2026-01-08 01:09:51.87	310.29	37.71	-40.2	-41.3	22.5	0.00e+00	0	36	102	1048576	58	6173
2026-01-08 01:09:53.89	310.83	37.33	-39.1	-40.1	23.5	0.00e+00	0	36	102	1048576	58	5361
2026-01-08 01:09:55.91	311.36	36.94	-39.0	-39.9	23.7	0.00e+00	0	36	102	1048576	56	5877
2026-01-08 01:09:57.93	311.88	36.57	-39.1	-40.1	23.3	0.00e+00	0	36	102	1048576	56	6005
2026-01-08 01:09:59.96	312.39	36.19	-39.6	-40.6	22.8	0.00e+00	0	36	102	1048576	56	6410
2026-01-08 01:10:01.98	312.89	35.81	-39.4	-40.4	23.3	0.00e+00	0	36	102	1048576	56	6225
2026-01-08 01:10:04.00	313.38	35.44	-39.2	-40.1	23.5	0.00e+00	0	36	102	1048576	56	6054
2026-01-08 01:10:06.02	313.85	35.07	-39.5	-40.4	23.3	0.00e+00	0	36	102	1048576	56	6249
2026-01-08 01:10:08.04	314.32	34.70	-39.8	-40.8	22.9	0.00e+00	0	36	102	1048576	56	6534
2026-01-08 01:10:10.07	314.78	34.34	-40.1	-41.1	22.8	0.00e+00	0	36	102	1048576	56	6770
2026-01-08 01:10:12.09	315.22	33.97	-39.7	-40.7	23.2	0.00e+00	0	36	102	1048576	56	6446
2026-01-08 01:10:14.11	315.66	33.61	-39.1	-40.1	23.6	0.00e+00	0	36	102	1048576	56	6010
2026-01-08 01:10:16.13	316.08	33.25	-38.7	-39.7	23.7	0.00e+00	0	36	102	1048576	56	5746
2026-01-08 01:10:18.15	316.50	32.90	-38.6	-39.6	23.9	0.00e+00	0	36	102	1048576	56	5682
2026-01-08 01:10:20.18	316.91	32.54	-38.0	-38.9	24.4	0.00e+00	0	36	102	1048576	54	5869
2026-01-08 01:10:22.20	317.31	32.19	-37.8	-38.7	24.5	0.00e+00	0	36	102	1048576	54	5756
2026-01-08 01:10:24.22	317.70	31.84	-37.7	-38.6	24.5	0.00e+00	0	36	102	1048576	54	5710
2026-01-08 01:10:26.24	318.08	31.50	-37.9	-38.8	24.4	0.00e+00	0	36	102	1048576	54	5829
2026-01-08 01:10:28.26	318.46	31.16	-37.9	-38.8	24.5	0.00e+00	0	36	102	1048576	54	5837
2026-01-08 01:10:30.29	318.83	30.81	-37.7	-38.6	24.5	0.00e+00	0	36	102	1048576	54	5675
2026-01-08 01:10:32.31	319.19	30.48	-37.4	-38.2	24.9	0.00e+00	0	36	102	1048576	54	5457
2026-01-08 01:10:34.33	319.54	30.14	-37.4	-38.3	24.9	0.00e+00	0	36	102	1048576	54	5470
2026-01-08 01:10:36.35	319.89	29.81	-37.3	-38.1	24.9	0.00e+00	0	36	102	1048576	54	5395
2026-01-08 01:10:38.37	320.23	29.48	-37.7	-38.6	24.6	0.00e+00	0	36	102	1048576	54	5714
2026-01-08 01:10:40.40	320.56	29.16	-38.2	-39.2	24.2	0.00e+00	0	36	102	1048576	54	6072
2026-01-08 01:10:42.42	320.89	28.83	-38.2	-39.1	24.2	0.00e+00	0	36	102	1048576	54	6039
2026-01-08 01:10:44.44	321.21	28.51	-38.0	-39.0	24.3	0.00e+00	0	36	102	1048576	54	5934
2026-01-08 01:10:46.46	321.52	28.19	-37.7	-38.5	24.6	0.00e+00	0	36	102	1048576	54	5652
2026-01-08 01:10:48.48	321.83	27.88	-37.3	-38.2	24.9	0.00e+00	0	36	102	1048576	54	5430
2026-01-08 01:10:50.51	322.13	27.57	-37.4	-38.2	24.8	0.00e+00	0	36	102	1048576	54	5456
2026-01-08 01:10:52.53	322.43	27.26	-37.5	-38.3	24.7	0.00e+00	0	36	102	1048576	54	5516
2026-01-08 01:10:54.55	322.72	26.95	-37.2	-38.1	25.0	0.00e+00	0	36	102	1048576	54	5356
2026-01-08 01:10:56.57	323.01	26.65	-37.2	-38.0	25.0	0.00e+00	0	36	102	1048576	52	5986
2026-01-08 01:10:58.60	323.29	26.34	-37.1	-38.0	25.0	0.00e+00	0	36	102	1048576	52	5961
2026-01-08 01:11:00.62	323.56	26.04	-37.2	-38.1	24.9	0.00e+00	0	36	102	1048576	52	6026
2026-01-08 01:11:02.64	323.83	25.75	-37.1	-38.0	25.0	0.00e+00	0	36	102	1048576	52	5957
2026-01-08 01:11:04.66	324.10	25.45	-37.4	-38.3	24.8	0.00e+00	0	36	102	1048576	52	6143
2026-01-08 01:11:06.68	324.36	25.16	-37.4	-38.3	24.8	0.00e+00	0	36	102	1048576	52	6160
2026-01-08 01:11:08.71	324.62	24.87	-37.5	-38.4	24.8	0.00e+00	0	36	102	1048576	52	6245
2026-01-08 01:11:10.73	324.87	24.59	-37.5	-38.4	24.7	0.00e+00	0	36	102	1048576	52	6251
2026-01-08 01:11:12.75	325.12	24.31	-37.5	-38.4	24.7	0.00e+00	0	36	102	1048576	52	6257
2026-01-08 01:11:14.77	325.36	24.03	-37.7	-38.6	24.6	0.00e+00	0	36	102	1048576	52	6358
2026-01-08 01:11:16.80	325.60	23.75	-37.8	-38.7	24.4	0.00e+00	0	36	102	1048576	52	6459
2026-01-08 01:11:18.82	325.83	23.47	-37.9	-38.9	24.3	0.00e+00	0	36	102	1048576	52	6588
2026-01-08 01:11:20.84	326.06	23.20	-38.0	-38.9	24.2	0.00e+00	0	36	102	1048576	52	6637
2026-01-08 01:11:22.86	326.29	22.93	-38.0	-38.9	24.2	0.00e+00	0	36	102	1048576	52	6643
2026-01-08 01:11:24.88	326.52	22.66	-37.9	-38.8	24.3	0.00e+00	0	36	102	1048576	52	6565
2026-01-08 01:11:26.91	326.74	22.39	-38.0	-38.9	24.3	0.00e+00	0	36	102	1048576	52	6645
2026-01-08 01:11:28.93	326.95	22.13	-37.7	-38.6	24.4	0.00e+00	0	36	102	1048576	52	6398
2026-01-08 01:11:30.95	327.17	21.87	-37.7	-38.6	24.4	0.00e+00	0	36	102	1048576	52	6355
2026-01-08 01:11:32.97	327.37	21.61	-37.7	-38.6	24.6	0.00e+00	0	36	102	1048576	52	6372
2026-01-08 01:11:34.99	327.58	21.35	-37.7	-38.6	24.5	0.00e+00	0	36	102	1048576	52	6382
2026-01-08 01:11:37.02	327.78	21.10	-37.7	-38.6	24.5	0.00e+00	0	36	102	1048576	52	6404
2026-01-08 01:11:39.04	327.98	20.84	-37.8	-38.7	24.4	0.00e+00	0	36	102	1048576	52	6480
2026-01-08 01:11:41.06	328.18	20.59	-37.8	-38.7	24.4	0.00e+00	0	36	102	1048576	52	6483
2026-01-08 01:11:43.08	328.37	20.35	-37.7	-38.6	24.5	0.00e+00	0	36	102	1048576	52	6412
2026-01-08 01:11:45.10	328.57	20.10	-37.9	-38.8	24.4	0.00e+00	0	36	102	1048576	52	6540
2026-01-08 01:11:47.12	328.75	19.86	-38.0	-38.9	24.3	0.00e+00	0	36	102	1048576	52	6626
2026-01-08 01:11:49.15	328.94	19.62	-38.1	-39.0	24.2	0.00e+00	0	36	102	1048576	54	5966
2026-01-08 01:11:51.17	329.12	19.38	-38.1	-39.0	24.2	0.00e+00	0	36	102	1048576	54	5956
2026-01-08 01:11:53.19	329.30	19.14	-38.0	-39.0	24.2	0.00e+00	0	36	102	1048576	54	5942
2026-01-08 01:11:55.21	329.48	18.90	-38.0	-38.9	24.2	0.00e+00	0	36	102	1048576	54	5913
2026-01-08 01:11:57.23	329.65	18.67	-37.8	-38.8	24.2	0.00e+00	0	36	102	1048576	54	5803
2026-01-08 01:11:59.26	329.82	18.44	-37.9	-38.8	24.2	0.00e+00	0	36	102	1048576	54	5822
2026-01-08 01:12:01.28	329.99	18.21	-37.9	-38.9	24.1	0.00e+00	0	36	102	1048576	54	5872
2026-01-08 01:12:03.30	330.16	17.98	-37.9	-38.8	24.1	0.00e+00	0	36	102	1048576	54	5848
2026-01-08 01:12:05.32	330.33	17.75	-38.0	-39.0	24.1	0.00e+00	0	36	102	1048576	54	5932
2026-01-08 01:12:07.34	330.49	17.53	-37.7	-38.6	24.4	0.00e+00	0	36	102	1048576	54	5672
2026-01-08 01:12:09.37	330.65	17.31	-37.7	-38.6	24.5	0.00e+00	0	36	102	1048576	54	5669
2026-01-08 01:12:11.39	330.81	17.09	-37.8	-38.7	24.3	0.00e+00	0	36	102	1048576	54	5735
2026-01-08 01:12:13.41	330.96	16.87	-37.8	-38.7	24.4	0.00e+00	0	36	102	1048576	54	5733
2026-01-08 01:12:15.43	331.12	16.65	-37.8	-38.7	24.4	0.00e+00	0	36	102	1048576	54	5728
2026-01-08 01:12:17.46	331.27	16.44	-37.8	-38.7	24.4	0.00e+00	0	36	102	1048576	54	5731
2026-01-08 01:12:19.48	331.42	16.22	-37.9	-38.8	24.3	0.00e+00	0	36	102	1048576	54	5808
2026-01-08 01:12:21.50	331.57	16.01	-37.9	-38.8	24.3	0.00e+00	0	36	102	1048576	54	5845
2026-01-08 01:12:23.52	331.71	15.80	-38.0	-38.9	24.2	0.00e+00	0	36	102	1048576	54	5901
2026-01-08 01:12:25.54	331.86	15.59	-38.1	-39.1	24.0	0.00e+00	0	36	102	1048576	54	5998
2026-01-08 01:12:27.56	332.00	15.39	-38.4	-39.3	23.9	0.00e+00	0	36	102	1048576	54	6147
2026-01-08 01:12:29.58	332.14	15.18	-38.8	-39.7	23.5	0.00e+00	0	36	102	1048576	54	6493
2026-01-08 01:12:31.60	332.28	14.98	-38.8	-39.7	23.5	0.00e+00	0	36	102	1048576	54	6474
2026-01-08 01:12:33.63	332.41	14.78	-38.8	-39.8	23.4	0.00e+00	0	36	102	1048576	54	6501
2026-01-08 01:12:35.65	332.55	14.58	-38.6	-39.5	23.6	0.00e+00	0	36	102	1048576	54	6342
2026-01-08 01:12:37.67	332.68	14.38	-38.6	-39.6	23.6	0.00e+00	0	36	102	1048576	54	6383
2026-01-08 01:12:39.69	332.81	14.18	-38.8	-39.8	23.4	0.00e+00	0	36	102	1048576	54	6511
2026-01-08 01:12:41.71	332.94	13.98	-38.8	-39.8	23.4	0.00e+00	0	36	102	1048576	54	6503
2026-01-08 01:12:43.73	333.07	13.79	-38.8	-39.8	23.4	0.00e+00	0	36	102	1048576	54	6515
2026-01-08 01:12:45.76	333.20	13.60	-38.9	-39.9	23.3	0.00e+00	0	36	102	1048576	54	6606
2026-01-08 01:12:47.78	333.33	13.41	-39.0	-40.0	23.2	0.00e+00	0	36	102	1048576	54	6685
2026-01-08 01:12:49.80	333.45	13.21	-39.0	-39.9	23.2	0.00e+00	0	36	102	1048576	54	6624
2026-01-08 01:12:51.82	333.57	13.03	-39.0	-40.0	23.2	0.00e+00	0	36	102	1048576	54	6666
2026-01-08 01:12:53.84	333.69	12.84	-39.1	-40.0	23.1	0.00e+00	0	36	102	1048576	54	6708
2026-01-08 01:12:55.86	333.81	12.65	-39.2	-40.2	23.0	0.00e+00	0	36	102	1048576	56	6089
2026-01-08 01:12:57.89	333.93	12.47	-39.4	-40.4	23.0	0.00e+00	0	36	102	1048576	56	6218
2026-01-08 01:12:59.91	334.05	12.28	-39.4	-40.4	22.9	0.00e+00	0	36	102	1048576	56	6239
2026-01-08 01:13:01.93	334.16	12.10	-39.2	-40.2	23.1	0.00e+00	0	36	102	1048576	56	6082
2026-01-08 01:13:03.95	334.28	11.92	-39.2	-40.2	23.0	0.00e+00	0	36	102	1048576	56	6092
2026-01-08 01:13:05.97	334.39	11.74	-39.3	-40.3	22.9	0.00e+00	0	36	102	1048576	56	6180
2026-01-08 01:13:07.99	334.50	11.56	-39.3	-40.3	22.9	0.00e+00	0	36	102	1048576	56	6191
2026-01-08 01:13:10.01	334.61	11.38	-39.4	-40.4	22.9	0.00e+00	0	36	102	1048576	56	6212
2026-01-08 01:13:12.03	334.72	11.21	-39.3	-40.3	22.9	0.00e+00	0	36	102	1048576	56	6173
2026-01-08 01:13:14.06	334.83	11.03	-39.4	-40.4	22.8	0.00e+00	0	36	102	1048576	56	6243
2026-01-08 01:13:16.08	334.94	10.86	-39.4	-40.4	22.8	0.00e+00	0	36	102	1048576	56	6272
2026-01-08 01:13:18.10	335.04	10.69	-39.6	-40.6	22.7	0.00e+00	0	36	102	1048576	56	6368
2026-01-08 01:13:20.12	335.15	10.52	-39.6	-40.7	22.6	0.00e+00	0	36	102	1048576	56	6437
2026-01-08 01:13:22.14	335.25	10.34	-39.7	-40.7	22.6	0.00e+00	0	36	102	1048576	56	6442
2026-01-08 01:13:24.17	335.35	10.17	-39.8	-40.8	22.5	0.00e+00	0	36	102	1048576	56	6530
2026-01-08 01:13:26.19	335.46	10.01	-39.6	-40.6	22.5	0.00e+00	0	36	102	1048576	56	6415
2026-01-08 01:13:28.21	335.56	9.84	-39.7	-40.7	22.6	0.00e+00	0	36	102	1048576	56	6465
2026-01-08 01:13:30.23	335.66	9.67	-39.6	-40.6	22.6	0.00e+00	0	36	102	1048576	56	6398
2026-01-08 01:13:32.25	335.75	9.51	-39.7	-40.7	22.6	0.00e+00	0	36	102	1048576	56	6487
2026-01-08 01:13:34.28	335.85	9.34	-39.6	-40.6	22.6	0.00e+00	0	36	102	1048576	56	6373
2026-01-08 01:13:36.30	335.95	9.18	-39.5	-40.5	22.6	0.00e+00	0	36	102	1048576	56	6326
2026-01-08 01:13:38.32	336.04	9.02	-39.6	-40.6	22.6	0.00e+00	0	36	102	1048576	56	6370
2026-01-08 01:13:40.34	336.14	8.86	-39.7	-40.7	22.4	0.00e+00	0	36	102	1048576	56	6449
2026-01-08 01:13:42.36	336.23	8.70	-39.7	-40.7	22.5	0.00e+00	0	36	102	1048576	56	6449
2026-01-08 01:13:44.39	336.32	8.54	-39.8	-40.8	22.4	0.00e+00	0	36	102	1048576	56	6523
2026-01-08 01:13:46.41	336.42	8.38	-39.9	-40.9	22.2	0.00e+00	0	36	102	1048576	56	6638
2026-01-08 01:13:48.43	336.51	8.22	-40.0	-41.0	22.2	0.00e+00	0	36	102	1048576	56	6720
2026-01-08 01:13:50.45	336.60	8.07	-40.0	-41.1	22.1	0.00e+00	0	36	102	1048576	58	6025
2026-01-08 01:13:52.47	336.69	7.91	-40.1	-41.1	22.0	0.00e+00	0	36	102	1048576	58	6041
2026-01-08 01:13:54.49	336.77	7.76	-40.2	-41.2	21.9	0.00e+00	0	36	102	1048576	58	6133
2026-01-08 01:13:56.52	336.86	7.60	-40.4	-41.5	21.7	0.00e+00	0	36	102	1048576	58	6281
2026-01-08 01:13:58.54	336.95	7.45	-40.4	-41.4	21.8	0.00e+00	0	36	102	1048576	58	6275
2026-01-08 01:14:00.56	337.03	7.30	-40.4	-41.5	21.7	0.00e+00	0	36	102	1048576	58	6306
2026-01-08 01:14:02.58	337.12	7.15	-40.5	-41.6	21.5	0.00e+00	0	36	102	1048576	58	6366
2026-01-08 01:14:04.60	337.20	7.00	-40.4	-41.5	21.5	0.00e+00	0	36	102	1048576	58	6339
2026-01-08 01:14:06.63	337.29	6.85	-40.5	-41.6	21.5	0.00e+00	0	36	102	1048576	58	6407
2026-01-08 01:14:08.65	337.37	6.70	-40.5	-41.6	21.5	0.00e+00	0	36	102	1048576	58	6367
2026-01-08 01:14:10.67	337.45	6.55	-40.6	-41.6	21.3	0.00e+00	0	36	102	1048576	58	6423
2026-01-08 01:14:12.69	337.53	6.40	-40.5	-41.6	21.3	0.00e+00	0	36	102	1048576	58	6366
2026-01-08 01:14:14.71	337.61	6.26	-40.4	-41.5	21.3	0.00e+00	0	36	102	1048576	58	6329
2026-01-08 01:14:16.73	337.69	6.11	-40.7	-41.9	21.0	0.00e+00	0	36	102	1048576	58	6577
2026-01-08 01:14:18.76	337.77	5.97	-40.8	-41.9	20.8	0.00e+00	0	36	102	1048576	58	6634
2026-01-08 01:14:20.78	337.85	5.82	-41.2	-42.4	20.4	0.00e+00	0	36	102	1048576	60	6246
2026-01-08 01:14:22.80	337.93	5.68	-41.5	-42.7	20.0	0.00e+00	0	36	102	1048576	60	6470
2026-01-08 01:14:24.82	338.01	5.54	-41.8	-43.2	19.3	0.00e+00	0	36	102	1048576	60	6831
2026-01-08 01:14:26.84	338.08	5.40	-42.4	-43.9	18.5	0.00e+00	0	36	102	1048576	60	7446
2026-01-08 01:14:28.87	338.16	5.26	-43.0	-44.6	17.5	0.00e+00	0	36	102	1048576	60	8076
2026-01-08 01:14:30.89	338.23	5.12	-43.7	-45.6	16.2	0.00e+00	0	36	102	1048576	60	9031
2026-01-08 01:14:32.91	338.31	4.98	-44.4	-46.7	14.9	0.00e+00	0	36	102	1048576	60	10230
2026-01-08 01:14:34.93	338.38	4.84	-45.2	-47.9	13.2	9.10e-06	0	36	102	1048576	60	11822
2026-01-08 01:14:36.96	338.45	4.70	-45.8	-49.3	11.1	8.90e-04	0	36	102	1048576	60	13754
2026-01-08 01:14:38.98	338.53	4.56	-46.3	-50.7	9.2	1.73e-02	0	36	102	1048576	60	16205
2026-01-08 01:14:41.00	338.60	4.43	-46.7	-52.2	6.9	1.47e-01	0	36	102	1048576	60	19239
2026-01-08 01:14:43.02	338.67	4.29	-47.0	-55.0	5.4	1.47e+00	0	36	104	1048576	60	26616
2026-01-08 01:14:45.05	338.74	4.15	-47.1	-56.6	4.3	1.24e+00	0	36	104	1048576	60	32085
2026-01-08 01:14:47.07	338.81	4.02	-47.2	-57.8	3.9	1.48e+00	0	36	104	1048576	60	36849
2026-01-08 01:14:49.09	338.88	3.88	-47.3	-60.1	3.5	1.51e+00	0	36	104	1048576	60	47706
2026-01-08 01:14:51.11	338.95	3.75	-47.5	-59.4	3.5	1.51e+00	0	36	104	1048576	60	43963
2026-01-08 01:14:53.13	339.02	3.62	-47.4	-59.6	3.5	1.52e+00	0	36	104	1048576	60	45263
2026-01-08 01:14:55.16	339.09	3.49	-47.3	-59.9	3.5	1.52e+00	0	36	104	1048576	60	46809
2026-01-08 01:14:57.18	339.16	3.35	-47.3	-60.2	3.5	1.51e+00	0	36	104	1048576	60	48577
2026-01-08 01:14:59.20	339.22	3.22	-47.4	-60.3	3.5	1.51e+00	0	36	104	1048576	60	49260
2026-01-08 01:15:01.22	339.29	3.09	-49.9	-62.9	3.5	1.52e+00	0	36	104	1048576	60	66232
2026-01-08 01:15:03.24	339.36	2.96	-51.9	-64.9	3.5	1.52e+00	0	36	104	1048576	60	83259
2026-01-08 01:15:05.27	339.42	2.83	-52.1	-65.2	3.5	1.52e+00	0	36	104	1048576	60	86141
2026-01-08 01:15:07.29	339.49	2.70	-52.2	-65.3	3.5	1.52e+00	0	36	104	1048576	60	86918
2026-01-08 01:15:09.31	339.55	2.58	-52.2	-65.2	3.5	1.51e+00	0	36	104	1048576	60	86519
2026-01-08 01:15:11.33	339.62	2.45	-52.2	-65.2	3.5	1.51e+00	0	36	104	1048576	60	86427
2026-01-08 01:15:13.35	339.68	2.32	-52.1	-65.2	3.5	1.52e+00	0	36	104	1048576	60	86064
2026-01-08 01:15:15.37	339.74	2.20	-52.1	-65.2	3.5	1.52e+00	0	36	104	1048576	60	86292
2026-01-08 01:15:17.40	339.81	2.07	-52.2	-65.3	3.5	1.52e+00	0	36	104	1048576	60	86761
2026-01-08 01:15:19.42	339.87	1.94	-52.2	-65.2	3.5	1.51e+00	0	36	104	1048576	60	86122
2026-01-08 01:15:21.44	339.93	1.82	-52.2	-65.2	3.5	1.52e+00	0	36	104	1048576	60	86201
2026-01-08 01:15:23.46	339.99	1.69	-52.2	-65.2	3.5	1.52e+00	0	36	104	1048576	60	86401
2026-01-08 01:15:25.49	340.05	1.57	-52.2	-65.2	3.5	1.52e+00	0	36	104	1048576	60	86055
2026-01-08 01:15:27.51	340.11	1.45	-52.2	-65.2	3.5	1.51e+00	0	36	104	1048576	60	86338
2026-01-08 01:15:29.53	340.17	1.32	-52.2	-65.2	3.5	1.52e+00	0	36	104	1048576	60	86022
2026-01-08 01:15:31.55	340.23	1.20	-52.1	-65.2	3.5	1.52e+00	0	36	104	1048576	60	86196
2026-01-08 01:15:33.57	340.29	1.08	-52.2	-65.2	3.5	1.52e+00	0	36	104	1048576	60	86275
2026-01-08 01:15:35.59	340.35	0.96	-52.1	-65.2	3.5	1.52e+00	0	36	104	1048576	60	86252
2026-01-08 01:15:37.62	340.41	0.84	-52.1	-65.2	3.5	1.52e+00	0	36	104	1048576	60	86582
2026-01-08 01:15:39.64	340.47	0.72	-52.1	-65.2	3.5	1.52e+00	0	36	104	1048576	60	86118
2026-01-08 01:15:41.66	340.53	0.60	-52.1	-65.2	3.5	1.52e+00	0	36	104	1048576	60	86144
2026-01-08 01:15:43.68	340.59	0.48	-52.1	-65.2	3.5	1.52e+00	0	36	104	1048576	60	85783
2026-01-08 01:15:45.70	340.64	0.36	-52.1	-65.2	3.5	1.52e+00	0	36	104	1048576	60	86119
2026-01-08 01:15:47.72	340.70	0.24	-52.1	-65.2	3.5	1.52e+00	0	36	104	1048576	60	85954
2026-01-08 01:15:49.75	340.76	0.12	-52.1	-65.2	3.5	1.52e+00	0	36	104	1048576	60	86391
2026-01-08 01:15:51.77	340.81	0.00	-52.1	-65.2	3.5	1.52e+00	0	36	104	1048576	60	85865
2026-01-08 01:15:53.79	340.87	-0.11	-52.1	-65.2	3.5	1.52e+00	0	36	104	1048576	60	85774

#Closed at: 2026-01-08 01:15:54
#Recorded file [1 MB]: D:/lorett/data/35034_260108_040909.dat