passes_logs/2026/01/08/R4.6S_Anadyr_2ch/R4.6S_Anadyr_2ch__20260108_011405_TY-41_rec.log

#Pass ID: 20260108_011405_TY-41
#Satellite: TY-41
#Configuration: TY-39_900M
#almurnet v.1.7.20251203
#Start time: 2026-01-08 01:16:27

#Version: 2.2.20231116
#Station: R4.6S_Anadyr_2ch
#Location: 177.4865 lon 64.73178 lat
#TLE: 1 61231U 24173E   25350.69767361  .00008010  00000-0  38191-3 0 09994
#TLE: 2 61231 097.4116 061.2842 0001674 094.3615 204.6766 15.19171214 68043

#Time	Az	El	Level	Level2	SNR	BER	BlckErr	Temp	State	Recorded	gain1	gain2
2026-01-08 01:16:27.85	1.95	9.55	-52.1	-64.9	3.4	1.52e+00	0	36	0	0	60	83175
2026-01-08 01:16:29.86	1.62	9.71	-52.2	-54.7	6.1	0.00e+00	0	36	104	0	60	91283
2026-01-08 01:16:31.88	1.29	9.87	-52.2	-54.7	6.1	0.00e+00	0	36	104	0	60	91299
2026-01-08 01:16:33.90	0.95	10.02	-52.3	-54.7	6.1	0.00e+00	0	36	104	0	60	90910
2026-01-08 01:16:35.93	0.60	10.18	-52.2	-54.7	6.1	0.00e+00	0	36	104	0	60	90833
2026-01-08 01:16:37.95	0.26	10.34	-52.2	-54.7	6.1	0.00e+00	0	36	104	0	60	91037
2026-01-08 01:16:39.97	359.90	10.50	-52.2	-54.7	6.1	0.00e+00	0	36	104	0	60	90747
2026-01-08 01:16:41.99	359.55	10.66	-52.3	-54.8	6.1	0.00e+00	0	36	104	0	60	91443
2026-01-08 01:16:44.01	359.19	10.82	-52.2	-54.7	6.1	0.00e+00	0	36	104	0	60	91114
2026-01-08 01:16:46.03	358.82	10.98	-52.3	-54.8	6.1	0.00e+00	0	36	104	0	60	91345
2026-01-08 01:16:48.06	358.44	11.14	-52.3	-54.7	6.1	0.00e+00	0	36	104	0	60	90349
2026-01-08 01:16:50.08	358.07	11.31	-52.2	-54.7	6.1	0.00e+00	0	36	104	0	60	91103
2026-01-08 01:16:52.10	357.69	11.47	-52.2	-54.7	6.1	0.00e+00	0	36	104	0	60	91232
2026-01-08 01:16:54.12	357.30	11.63	-52.3	-54.8	6.1	0.00e+00	0	36	104	0	60	91569
2026-01-08 01:16:56.14	356.91	11.79	-52.2	-54.7	6.1	0.00e+00	0	36	104	0	60	90585
2026-01-08 01:16:58.16	356.51	11.96	-52.3	-54.7	6.1	0.00e+00	0	36	104	0	60	91274
2026-01-08 01:17:00.18	356.10	12.12	-52.3	-54.7	6.1	0.00e+00	0	36	104	0	60	91180
2026-01-08 01:17:02.21	355.69	12.28	-52.3	-54.7	6.1	0.00e+00	0	36	104	0	60	90995
2026-01-08 01:17:04.23	355.28	12.45	-52.3	-54.7	6.1	0.00e+00	0	37	104	0	60	91079
2026-01-08 01:17:06.25	354.86	12.61	-52.3	-54.7	6.1	0.00e+00	0	37	104	0	60	91109
2026-01-08 01:17:08.27	354.43	12.77	-52.3	-54.7	6.1	0.00e+00	0	37	104	0	60	91193
2026-01-08 01:17:10.29	354.00	12.94	-52.3	-54.7	6.1	0.00e+00	0	37	104	0	60	91217
2026-01-08 01:17:12.31	353.56	13.10	-52.3	-54.7	6.1	0.00e+00	0	37	104	0	60	91253
2026-01-08 01:17:14.34	353.12	13.27	-52.3	-54.7	6.1	0.00e+00	0	37	104	0	60	91067
2026-01-08 01:17:16.36	352.67	13.43	-52.3	-54.7	6.1	0.00e+00	0	37	104	0	60	90672
2026-01-08 01:17:18.38	352.21	13.59	-52.3	-54.7	6.1	0.00e+00	0	37	104	0	60	90818
2026-01-08 01:17:20.40	351.75	13.76	-52.3	-54.7	6.1	0.00e+00	0	37	104	0	60	91291
2026-01-08 01:17:22.42	351.28	13.92	-52.2	-54.7	6.1	0.00e+00	0	37	104	0	60	91120
2026-01-08 01:17:24.44	350.81	14.08	-52.3	-54.7	6.1	0.00e+00	0	37	104	0	60	90979
2026-01-08 01:17:26.46	350.33	14.24	-52.2	-54.7	6.1	0.00e+00	0	37	104	0	60	91236
2026-01-08 01:17:28.49	349.84	14.41	-52.3	-54.7	6.1	0.00e+00	0	37	104	0	60	91139
2026-01-08 01:17:30.51	349.35	14.57	-52.2	-54.7	6.1	0.00e+00	0	37	104	0	60	90639
2026-01-08 01:17:32.53	348.85	14.73	-52.3	-54.7	6.1	0.00e+00	0	37	104	0	60	90843
2026-01-08 01:17:34.55	348.34	14.89	-52.2	-54.7	6.1	0.00e+00	0	37	104	0	60	91108
2026-01-08 01:17:36.57	347.83	15.05	-52.2	-54.7	6.1	0.00e+00	0	37	104	0	60	90670
2026-01-08 01:17:38.60	347.30	15.21	-52.3	-54.7	6.1	0.00e+00	0	37	104	0	60	90512
2026-01-08 01:17:40.62	346.78	15.37	-52.3	-54.7	6.1	0.00e+00	0	37	104	0	60	90695
2026-01-08 01:17:42.64	346.25	15.53	-52.3	-54.7	6.1	0.00e+00	0	37	104	0	60	91055
2026-01-08 01:17:44.66	345.71	15.69	-52.3	-54.8	6.1	0.00e+00	0	37	104	0	60	91554
2026-01-08 01:17:46.69	345.16	15.84	-52.2	-54.8	6.1	0.00e+00	0	37	104	0	60	91496
2026-01-08 01:17:48.71	344.60	16.00	-52.2	-54.7	6.1	0.00e+00	0	37	104	0	60	90740
2026-01-08 01:17:50.73	344.04	16.15	-52.3	-54.7	6.1	0.00e+00	0	37	104	0	60	90690
2026-01-08 01:17:52.75	343.48	16.30	-52.3	-54.8	6.1	0.00e+00	0	37	104	0	60	91441
2026-01-08 01:17:54.77	342.90	16.45	-52.3	-54.7	6.1	0.00e+00	0	37	104	0	60	91315
2026-01-08 01:17:56.80	342.32	16.61	-52.3	-54.7	6.1	0.00e+00	0	37	104	0	60	90972
2026-01-08 01:17:58.82	341.73	16.75	-52.2	-54.7	6.1	0.00e+00	0	37	104	0	60	91025
2026-01-08 01:18:00.84	341.14	16.90	-52.3	-54.7	6.1	0.00e+00	0	37	104	0	60	90758
2026-01-08 01:18:02.86	340.54	17.05	-52.3	-54.7	6.1	0.00e+00	0	37	104	0	60	90961
2026-01-08 01:18:04.88	339.93	17.19	-52.2	-54.7	6.1	0.00e+00	0	37	104	0	60	91079
2026-01-08 01:18:06.90	339.32	17.33	-52.3	-54.7	6.1	0.00e+00	0	37	104	0	60	91169
2026-01-08 01:18:08.93	338.69	17.47	-52.3	-54.7	6.1	0.00e+00	0	37	104	0	60	91283
2026-01-08 01:18:10.95	338.06	17.61	-52.3	-54.7	6.1	0.00e+00	0	37	104	0	60	91205
2026-01-08 01:18:12.97	337.43	17.74	-52.3	-54.7	6.1	0.00e+00	0	37	104	0	60	91220
2026-01-08 01:18:14.99	336.79	17.87	-52.3	-54.7	6.1	0.00e+00	0	38	104	0	60	91198
2026-01-08 01:18:17.01	336.14	18.01	-52.3	-54.8	6.1	0.00e+00	0	37	104	0	60	91355
2026-01-08 01:18:19.04	335.48	18.13	-52.3	-54.7	6.1	0.00e+00	0	37	104	0	60	91282
2026-01-08 01:18:21.06	334.82	18.26	-52.3	-54.7	6.1	0.00e+00	0	37	104	0	60	91131
2026-01-08 01:18:23.08	334.16	18.38	-52.3	-54.8	6.1	0.00e+00	0	37	104	0	60	91352
2026-01-08 01:18:25.10	333.48	18.50	-52.3	-54.7	6.1	0.00e+00	0	37	104	0	60	91227
2026-01-08 01:18:27.12	332.80	18.62	-52.3	-54.7	6.1	0.00e+00	0	37	104	0	60	91091
2026-01-08 01:18:29.14	332.12	18.73	-52.2	-54.7	6.1	0.00e+00	0	37	104	0	60	91110
2026-01-08 01:18:31.17	331.42	18.84	-52.2	-54.7	6.1	0.00e+00	0	38	104	0	60	90729
2026-01-08 01:18:33.19	330.73	18.95	-52.2	-54.7	6.1	0.00e+00	0	38	104	0	60	90717
2026-01-08 01:18:35.21	330.02	19.05	-52.2	-54.7	6.1	0.00e+00	0	37	104	0	60	91043
2026-01-08 01:18:37.23	329.32	19.15	-52.2	-54.8	6.1	0.00e+00	0	38	104	0	60	91451
2026-01-08 01:18:39.25	328.60	19.25	-52.2	-54.7	6.1	0.00e+00	0	38	104	0	60	91019
2026-01-08 01:18:41.27	327.88	19.34	-52.3	-54.7	6.1	0.00e+00	0	38	104	0	60	91299
2026-01-08 01:18:43.30	327.16	19.43	-52.3	-54.7	6.1	0.00e+00	0	37	104	0	60	90849
2026-01-08 01:18:45.31	326.43	19.52	-52.3	-54.8	6.1	0.00e+00	0	37	104	0	60	91370
2026-01-08 01:18:47.34	325.70	19.60	-52.3	-54.7	6.1	0.00e+00	0	37	104	0	60	90924
2026-01-08 01:18:49.36	324.96	19.68	-52.2	-54.7	6.1	0.00e+00	0	37	104	0	60	91029
2026-01-08 01:18:51.38	324.22	19.75	-52.3	-54.7	6.1	0.00e+00	0	37	104	0	60	91061
2026-01-08 01:18:53.40	323.47	19.82	-52.3	-54.7	6.1	0.00e+00	0	38	104	0	60	91027
2026-01-08 01:18:55.42	322.72	19.88	-52.3	-54.7	6.1	0.00e+00	0	38	104	0	60	90831
2026-01-08 01:18:57.44	321.97	19.94	-52.3	-54.7	6.1	0.00e+00	0	37	104	0	60	91100
2026-01-08 01:18:59.46	321.21	20.00	-52.2	-54.7	6.1	0.00e+00	0	38	104	0	60	91283
2026-01-08 01:19:01.48	320.45	20.05	-52.2	-54.7	6.1	0.00e+00	0	38	104	0	60	90843
2026-01-08 01:19:03.51	319.69	20.10	-52.3	-54.8	6.1	0.00e+00	0	38	104	0	60	91333
2026-01-08 01:19:05.53	318.92	20.14	-52.2	-54.7	6.1	0.00e+00	0	38	104	0	60	91018
2026-01-08 01:19:07.55	318.15	20.17	-52.2	-54.7	6.1	0.00e+00	0	37	104	0	60	91150
2026-01-08 01:19:09.57	317.39	20.21	-52.2	-54.7	6.1	0.00e+00	0	38	104	0	60	91111
2026-01-08 01:19:11.59	316.61	20.23	-52.2	-54.7	6.1	0.00e+00	0	38	104	0	60	91305
2026-01-08 01:19:13.62	315.84	20.26	-52.2	-54.7	6.1	0.00e+00	0	38	104	0	60	90957
2026-01-08 01:19:15.64	315.07	20.27	-52.2	-54.7	6.1	0.00e+00	0	38	104	0	60	91028
2026-01-08 01:19:17.66	314.29	20.29	-52.2	-54.7	6.1	0.00e+00	0	38	104	0	60	91051
2026-01-08 01:19:19.68	313.52	20.30	-52.2	-54.7	6.1	0.00e+00	0	38	104	0	60	91183
2026-01-08 01:19:21.71	312.74	20.30	-52.2	-54.7	6.1	0.00e+00	0	38	104	0	60	91108
2026-01-08 01:19:23.73	311.96	20.30	-52.2	-54.7	6.1	0.00e+00	0	38	104	0	60	90851
2026-01-08 01:19:25.75	311.19	20.29	-52.2	-54.7	6.1	0.00e+00	0	38	104	0	60	90926
2026-01-08 01:19:27.77	310.41	20.28	-52.2	-54.7	6.1	0.00e+00	0	38	104	0	60	90980
2026-01-08 01:19:29.79	309.64	20.26	-52.2	-54.7	6.1	0.00e+00	0	38	104	0	60	90836
2026-01-08 01:19:31.82	308.86	20.24	-52.2	-54.7	6.1	0.00e+00	0	38	104	0	60	90857
2026-01-08 01:19:33.84	308.09	20.21	-52.2	-54.7	6.1	0.00e+00	0	38	104	0	60	90983
2026-01-08 01:19:35.86	307.32	20.18	-52.2	-54.7	6.1	0.00e+00	0	38	104	0	60	90780
2026-01-08 01:19:37.88	306.55	20.14	-52.2	-54.7	6.1	0.00e+00	0	38	104	0	60	90756
2026-01-08 01:19:39.90	305.79	20.10	-52.2	-54.7	6.1	0.00e+00	0	38	104	0	60	91068
2026-01-08 01:19:41.92	305.02	20.06	-52.2	-54.7	6.1	0.00e+00	0	38	104	0	60	90985
2026-01-08 01:19:43.95	304.26	20.01	-52.2	-54.7	6.1	0.00e+00	0	38	104	0	60	90859
2026-01-08 01:19:45.97	303.50	19.95	-52.2	-54.7	6.1	0.00e+00	0	38	104	0	60	90861
2026-01-08 01:19:47.99	302.75	19.89	-52.2	-54.7	6.1	0.00e+00	0	38	104	0	60	91043
2026-01-08 01:19:50.01	302.00	19.83	-52.2	-54.7	6.1	0.00e+00	0	38	104	0	60	90789
2026-01-08 01:19:52.03	301.25	19.76	-52.2	-54.7	6.1	0.00e+00	0	38	104	0	60	90675
2026-01-08 01:19:54.06	300.50	19.69	-52.2	-54.7	6.1	0.00e+00	0	38	104	0	60	90569
2026-01-08 01:19:56.08	299.76	19.61	-52.2	-54.7	6.1	0.00e+00	0	38	104	0	60	91157
2026-01-08 01:19:58.10	299.03	19.53	-52.2	-54.7	6.1	0.00e+00	0	38	104	0	60	90961
2026-01-08 01:20:00.12	298.30	19.45	-52.2	-54.7	6.1	0.00e+00	0	38	104	0	60	90607
2026-01-08 01:20:02.14	297.57	19.36	-52.2	-54.7	6.1	0.00e+00	0	38	104	0	60	90807
2026-01-08 01:20:04.16	296.85	19.26	-52.2	-54.7	6.1	0.00e+00	0	38	104	0	60	90698
2026-01-08 01:20:06.19	296.13	19.17	-52.2	-54.7	6.1	0.00e+00	0	38	104	0	60	90578
2026-01-08 01:20:08.21	295.42	19.07	-52.2	-54.7	6.1	0.00e+00	0	38	104	0	60	90412
2026-01-08 01:20:10.23	294.71	18.96	-52.2	-54.7	6.1	0.00e+00	0	38	104	0	60	90666
2026-01-08 01:20:12.25	294.01	18.86	-52.2	-54.7	6.1	0.00e+00	0	38	104	0	60	91022
2026-01-08 01:20:14.27	293.32	18.75	-52.2	-54.7	6.1	0.00e+00	0	38	104	0	60	90596
2026-01-08 01:20:16.29	292.63	18.63	-52.2	-54.7	6.1	0.00e+00	0	38	104	0	60	91037
2026-01-08 01:20:18.31	291.95	18.52	-52.2	-54.7	6.1	0.00e+00	0	38	104	0	60	90780
2026-01-08 01:20:20.34	291.27	18.40	-52.2	-54.7	6.1	0.00e+00	0	38	104	0	60	90449
2026-01-08 01:20:22.36	290.60	18.27	-52.2	-54.7	6.1	0.00e+00	0	38	104	0	60	91125
2026-01-08 01:20:24.38	289.94	18.15	-52.2	-54.7	6.1	0.00e+00	0	38	104	0	60	90523
2026-01-08 01:20:26.40	289.28	18.02	-52.2	-54.7	6.1	0.00e+00	0	38	104	0	60	91096
2026-01-08 01:20:28.43	288.63	17.89	-52.2	-54.7	6.1	0.00e+00	0	38	104	0	60	90721
2026-01-08 01:20:30.45	287.98	17.76	-52.2	-54.7	6.1	0.00e+00	0	38	104	0	60	91173
2026-01-08 01:20:32.47	287.35	17.62	-52.2	-54.7	6.1	0.00e+00	0	38	104	0	60	90560
2026-01-08 01:20:34.49	286.71	17.49	-52.2	-54.7	6.1	0.00e+00	0	38	104	0	60	90461
2026-01-08 01:20:36.52	286.09	17.35	-52.2	-54.7	6.1	0.00e+00	0	38	104	0	60	90836
2026-01-08 01:20:38.54	285.47	17.20	-52.2	-54.7	6.1	0.00e+00	0	38	104	0	60	91154
2026-01-08 01:20:40.56	284.86	17.06	-52.2	-54.7	6.1	0.00e+00	0	38	104	0	60	91000
2026-01-08 01:20:42.58	284.26	16.92	-52.2	-54.7	6.1	0.00e+00	0	38	104	0	60	90696
2026-01-08 01:20:44.60	283.66	16.77	-52.2	-54.8	6.1	0.00e+00	0	38	104	0	60	91368
2026-01-08 01:20:46.63	283.06	16.62	-52.2	-54.7	6.0	0.00e+00	0	38	104	0	60	90927
2026-01-08 01:20:48.65	282.48	16.47	-52.2	-54.7	6.1	0.00e+00	0	38	104	0	60	90470
2026-01-08 01:20:50.67	281.90	16.32	-52.2	-54.7	6.1	0.00e+00	0	38	104	0	60	91110
2026-01-08 01:20:52.69	281.33	16.16	-52.2	-54.7	6.1	0.00e+00	0	38	104	0	60	90692
2026-01-08 01:20:54.71	280.77	16.01	-52.2	-54.7	6.1	0.00e+00	0	38	104	0	60	90492
2026-01-08 01:20:56.74	280.21	15.85	-52.2	-54.7	6.1	0.00e+00	0	38	104	0	60	90425
2026-01-08 01:20:58.76	279.66	15.70	-52.2	-54.6	6.1	0.00e+00	0	38	104	0	60	90273
2026-01-08 01:21:00.78	279.12	15.54	-52.2	-54.7	6.1	0.00e+00	0	38	104	0	60	90690
2026-01-08 01:21:02.80	278.58	15.38	-52.2	-54.7	6.1	0.00e+00	0	38	104	0	60	90732
2026-01-08 01:21:04.82	278.06	15.22	-52.2	-54.7	6.0	0.00e+00	0	38	104	0	60	91095
2026-01-08 01:21:06.85	277.53	15.06	-52.2	-54.7	6.1	0.00e+00	0	38	104	0	60	90604
2026-01-08 01:21:08.87	277.01	14.90	-52.2	-54.7	6.1	0.00e+00	0	38	104	0	60	90437
2026-01-08 01:21:10.89	276.50	14.74	-52.2	-54.7	6.1	0.00e+00	0	38	104	0	60	90601
2026-01-08 01:21:12.91	276.00	14.58	-52.2	-54.7	6.1	0.00e+00	0	38	104	0	60	90868
2026-01-08 01:21:14.93	275.51	14.42	-52.2	-54.7	6.1	0.00e+00	0	38	104	0	60	91241
2026-01-08 01:21:16.95	275.02	14.25	-52.2	-54.7	6.1	0.00e+00	0	38	104	0	60	90517
2026-01-08 01:21:18.98	274.53	14.09	-52.2	-54.7	6.1	0.00e+00	0	38	104	0	60	90924
2026-01-08 01:21:21.00	274.05	13.93	-52.2	-54.7	6.1	0.00e+00	0	38	104	0	60	90639
2026-01-08 01:21:23.02	273.58	13.76	-52.2	-54.7	6.1	0.00e+00	0	38	104	0	60	90666
2026-01-08 01:21:25.04	273.12	13.60	-52.2	-54.7	6.1	0.00e+00	0	38	104	0	60	90541
2026-01-08 01:21:27.06	272.66	13.43	-52.2	-54.7	6.1	0.00e+00	0	38	104	0	60	91106
2026-01-08 01:21:29.09	272.20	13.27	-52.2	-54.7	6.1	0.00e+00	0	38	104	0	60	90367
2026-01-08 01:21:31.11	271.76	13.10	-52.2	-54.7	6.1	0.00e+00	0	38	104	0	60	90700
2026-01-08 01:21:33.13	271.32	12.94	-52.2	-54.7	6.1	0.00e+00	0	38	104	0	60	91112
2026-01-08 01:21:35.15	270.88	12.78	-52.2	-54.7	6.1	0.00e+00	0	38	104	0	60	90772
2026-01-08 01:21:37.17	270.45	12.61	-52.2	-54.7	6.1	0.00e+00	0	38	104	0	60	91045
2026-01-08 01:21:39.19	270.03	12.45	-52.2	-54.7	6.1	0.00e+00	0	38	104	0	60	90734
2026-01-08 01:21:41.22	269.61	12.28	-52.2	-54.7	6.1	0.00e+00	0	38	104	0	60	90971
2026-01-08 01:21:43.24	269.20	12.12	-52.2	-54.7	6.1	0.00e+00	0	38	104	0	60	90568
2026-01-08 01:21:45.26	268.79	11.95	-52.2	-54.7	6.1	0.00e+00	0	38	104	0	60	90330
2026-01-08 01:21:47.28	268.39	11.79	-52.2	-54.7	6.1	0.00e+00	0	38	104	0	60	90849
2026-01-08 01:21:49.30	268.00	11.63	-52.2	-54.7	6.1	0.00e+00	0	38	104	0	60	90499
2026-01-08 01:21:51.32	267.61	11.46	-52.2	-54.7	6.1	0.00e+00	0	38	104	0	60	90347
2026-01-08 01:21:53.35	267.22	11.30	-52.2	-54.7	6.1	0.00e+00	0	38	104	0	60	90904
2026-01-08 01:21:55.37	266.84	11.14	-52.2	-54.7	6.1	0.00e+00	0	38	104	0	60	90851
2026-01-08 01:21:57.39	266.46	10.98	-52.2	-54.7	6.1	0.00e+00	0	38	104	0	60	90600
2026-01-08 01:21:59.41	266.10	10.82	-52.2	-54.7	6.1	0.00e+00	0	38	104	0	60	90622
2026-01-08 01:22:01.43	265.73	10.65	-52.2	-54.7	6.1	0.00e+00	0	38	104	0	60	90819
2026-01-08 01:22:03.45	265.37	10.49	-52.2	-54.7	6.1	0.00e+00	0	38	104	0	60	91039
2026-01-08 01:22:05.47	265.02	10.33	-52.2	-54.7	6.1	0.00e+00	0	38	104	0	60	91192
2026-01-08 01:22:07.50	264.66	10.17	-52.2	-54.7	6.1	0.00e+00	0	38	104	0	60	90728
2026-01-08 01:22:09.52	264.32	10.01	-52.2	-54.7	6.1	0.00e+00	0	38	104	0	60	90645
2026-01-08 01:22:11.54	263.98	9.86	-52.2	-54.7	6.1	0.00e+00	0	38	104	0	60	91017
2026-01-08 01:22:13.56	263.64	9.70	-52.2	-54.7	6.1	0.00e+00	0	38	104	0	60	90947
2026-01-08 01:22:15.58	263.31	9.54	-52.2	-54.8	6.1	0.00e+00	0	38	104	0	60	91433
2026-01-08 01:22:17.61	262.98	9.38	-52.2	-54.7	6.1	0.00e+00	0	38	104	0	60	90825
2026-01-08 01:22:19.63	262.66	9.23	-52.2	-54.7	6.1	0.00e+00	0	38	104	0	60	90902
2026-01-08 01:22:21.65	262.34	9.07	-52.2	-54.7	6.1	0.00e+00	0	38	104	0	60	90628
2026-01-08 01:22:23.67	262.03	8.91	-52.2	-54.7	6.1	0.00e+00	0	38	104	0	60	90660
2026-01-08 01:22:25.69	261.72	8.76	-52.2	-54.7	6.1	0.00e+00	0	38	104	0	60	90970
2026-01-08 01:22:27.71	261.41	8.61	-52.2	-54.7	6.1	0.00e+00	0	38	104	0	60	90469
2026-01-08 01:22:29.74	261.11	8.45	-52.2	-54.7	6.1	0.00e+00	0	38	104	0	60	90422
2026-01-08 01:22:31.76	260.81	8.30	-52.2	-54.7	6.1	0.00e+00	0	38	104	0	60	90903
2026-01-08 01:22:33.78	260.51	8.15	-52.2	-54.7	6.1	0.00e+00	0	38	104	0	60	90770
2026-01-08 01:22:35.80	260.22	7.99	-52.2	-54.7	6.1	0.00e+00	0	38	104	0	60	90741
2026-01-08 01:22:37.82	259.94	7.84	-52.2	-54.7	6.1	0.00e+00	0	38	104	0	60	90478
2026-01-08 01:22:39.84	259.65	7.69	-52.2	-54.7	6.1	0.00e+00	0	38	104	0	60	90507
2026-01-08 01:22:41.86	259.37	7.54	-52.2	-54.7	6.1	0.00e+00	0	38	104	0	60	90774
2026-01-08 01:22:43.89	259.10	7.39	-52.2	-54.7	6.1	0.00e+00	0	38	104	0	60	90285
2026-01-08 01:22:45.91	258.82	7.24	-52.2	-54.7	6.1	0.00e+00	0	38	104	0	60	90990
2026-01-08 01:22:47.93	258.56	7.09	-52.2	-54.7	6.1	0.00e+00	0	38	104	0	60	90712
2026-01-08 01:22:49.95	258.29	6.95	-52.2	-54.7	6.1	0.00e+00	0	38	104	0	60	91001
2026-01-08 01:22:51.98	258.03	6.80	-52.2	-54.6	6.1	0.00e+00	0	38	104	0	60	90196
2026-01-08 01:22:53.99	257.77	6.65	-52.2	-54.7	6.1	0.00e+00	0	38	104	0	60	90681
2026-01-08 01:22:56.02	257.51	6.51	-52.2	-54.7	6.1	0.00e+00	0	38	104	0	60	90682
2026-01-08 01:22:58.04	257.26	6.36	-52.2	-54.7	6.1	0.00e+00	0	38	104	0	60	90557
2026-01-08 01:23:00.06	257.01	6.22	-52.2	-54.7	6.1	0.00e+00	0	38	104	0	60	90980
2026-01-08 01:23:02.08	256.77	6.08	-52.2	-54.7	6.1	0.00e+00	0	38	104	0	60	90311
2026-01-08 01:23:04.11	256.52	5.93	-52.2	-54.7	6.1	0.00e+00	0	38	104	0	60	90589
2026-01-08 01:23:06.13	256.28	5.79	-52.2	-54.7	6.1	0.00e+00	0	38	104	0	60	90591
2026-01-08 01:23:08.15	256.05	5.65	-52.2	-54.7	6.1	0.00e+00	0	38	104	0	60	90716
2026-01-08 01:23:10.17	255.81	5.51	-52.2	-54.7	6.1	0.00e+00	0	38	104	0	60	91033
2026-01-08 01:23:12.20	255.58	5.37	-52.2	-54.7	6.1	0.00e+00	0	38	104	0	60	90518
2026-01-08 01:23:14.22	255.35	5.23	-52.2	-54.7	6.1	0.00e+00	0	38	104	0	60	90426
2026-01-08 01:23:16.24	255.13	5.09	-52.2	-54.7	6.1	0.00e+00	0	38	104	0	60	91286
2026-01-08 01:23:18.26	254.91	4.95	-52.2	-54.7	6.1	0.00e+00	0	38	104	0	60	90899
2026-01-08 01:23:20.28	254.69	4.81	-52.2	-54.7	6.1	0.00e+00	0	38	104	0	60	90341
2026-01-08 01:23:22.30	254.47	4.67	-52.2	-54.7	6.1	0.00e+00	0	38	104	0	60	90903
2026-01-08 01:23:24.32	254.25	4.54	-52.2	-54.7	6.1	0.00e+00	0	38	104	0	60	90332
2026-01-08 01:23:26.34	254.04	4.40	-52.2	-54.7	6.1	0.00e+00	0	38	104	0	60	90658
2026-01-08 01:23:28.37	253.83	4.26	-52.2	-54.7	6.1	0.00e+00	0	38	104	0	60	90977
2026-01-08 01:23:30.39	253.63	4.13	-52.2	-54.7	6.1	0.00e+00	0	38	104	0	60	90884
2026-01-08 01:23:32.41	253.42	3.99	-52.2	-54.7	6.1	0.00e+00	0	38	104	0	60	90767
2026-01-08 01:23:34.43	253.22	3.86	-52.2	-54.7	6.1	0.00e+00	0	38	104	0	60	90760
2026-01-08 01:23:36.46	253.02	3.73	-52.2	-54.7	6.1	0.00e+00	0	38	104	0	60	90551
2026-01-08 01:23:38.48	252.82	3.59	-52.2	-54.6	6.1	0.00e+00	0	38	104	0	60	90175
2026-01-08 01:23:40.50	252.63	3.46	-52.2	-54.7	6.1	0.00e+00	0	38	104	0	60	90397
2026-01-08 01:23:42.52	252.43	3.33	-52.2	-54.7	6.1	0.00e+00	0	38	104	0	60	90477
2026-01-08 01:23:44.54	252.24	3.20	-52.2	-54.7	6.1	0.00e+00	0	38	104	0	60	90740
2026-01-08 01:23:46.57	252.05	3.07	-52.2	-54.7	6.1	0.00e+00	0	38	104	0	60	90474
2026-01-08 01:23:48.59	251.87	2.94	-52.2	-54.7	6.1	0.00e+00	0	38	104	0	60	90463
2026-01-08 01:23:50.61	251.68	2.81	-52.2	-54.7	6.1	0.00e+00	0	38	104	0	60	90520
2026-01-08 01:23:52.63	251.50	2.68	-52.2	-54.7	6.1	0.00e+00	0	38	104	0	60	90428
2026-01-08 01:23:54.65	251.32	2.55	-52.2	-54.7	6.1	0.00e+00	0	38	104	0	60	90564
2026-01-08 01:23:56.67	251.14	2.43	-52.2	-54.7	6.1	0.00e+00	0	38	104	0	60	90756
2026-01-08 01:23:58.70	250.97	2.30	-52.2	-54.7	6.0	0.00e+00	0	38	104	0	60	90812
2026-01-08 01:24:00.72	250.79	2.17	-52.2	-54.7	6.1	0.00e+00	0	38	104	0	60	90747
2026-01-08 01:24:02.74	250.62	2.05	-52.2	-54.6	6.1	0.00e+00	0	38	104	0	60	90181
2026-01-08 01:24:04.76	250.45	1.92	-52.2	-54.7	6.1	0.00e+00	0	38	104	0	60	90305
2026-01-08 01:24:06.78	250.28	1.80	-52.2	-54.7	6.1	0.00e+00	0	38	104	0	60	90616
2026-01-08 01:24:08.81	250.12	1.67	-52.2	-54.7	6.1	0.00e+00	0	38	104	0	60	90453
2026-01-08 01:24:10.83	249.95	1.55	-52.2	-54.7	6.1	0.00e+00	0	38	104	0	60	90422
2026-01-08 01:24:12.85	249.79	1.42	-52.2	-54.7	6.1	0.00e+00	0	38	104	0	60	90741
2026-01-08 01:24:14.87	249.63	1.30	-52.2	-54.7	6.1	0.00e+00	0	38	104	0	60	90324
2026-01-08 01:24:16.90	249.47	1.18	-52.2	-54.7	6.1	0.00e+00	0	38	104	0	60	90330
2026-01-08 01:24:18.92	249.31	1.06	-52.2	-54.7	6.1	0.00e+00	0	38	104	0	60	90513
2026-01-08 01:24:20.94	249.16	0.93	-52.2	-54.7	6.1	0.00e+00	0	38	104	0	60	90731
2026-01-08 01:24:22.96	249.00	0.81	-52.2	-54.7	6.1	0.00e+00	0	38	104	0	60	90794
2026-01-08 01:24:24.98	248.85	0.69	-52.2	-54.7	6.1	0.00e+00	0	38	104	0	60	90602
2026-01-08 01:24:27.00	248.70	0.57	-52.2	-54.7	6.1	0.00e+00	0	38	104	0	60	90580
2026-01-08 01:24:29.03	248.55	0.45	-52.2	-54.6	6.1	0.00e+00	0	38	104	0	60	90068
2026-01-08 01:24:31.05	248.40	0.33	-52.2	-54.7	6.1	0.00e+00	0	38	104	0	60	90588
2026-01-08 01:24:33.07	248.26	0.22	-52.2	-54.7	6.1	0.00e+00	0	38	104	0	60	90742
2026-01-08 01:24:35.09	248.11	0.10	-52.2	-54.7	6.1	0.00e+00	0	38	104	0	60	90735
2026-01-08 01:24:37.12	247.97	-0.02	-52.2	-54.7	6.1	0.00e+00	0	38	104	0	60	90386

#Closed at: 2026-01-08 01:24:38
#Recorded file [0 MB]: D:/lorett/data/35034_260108_041627.dat