passes_logs/2026/01/08/R4.6S_Anadyr_2ch/R4.6S_Anadyr_2ch__20260108_013022_SUOMI_NPP_rec.log

#Pass ID: 20260108_013022_SUOMI NPP
#Satellite: SUOMI NPP
#Configuration: NPP
#almurnet v.1.7.20251203
#Start time: 2026-01-08 01:36:59

#Version: 2.2.20231116
#Station: R4.6S_Anadyr_2ch
#Location: 177.4865 lon 64.73178 lat
#TLE: 1 37849U 11061A   25350.92281687  .00000071  00000+0  54882-4 0  9996
#TLE: 2 37849  98.7777 288.2268 0002366 112.8570 247.2856 14.19515404732588

#Time	Az	El	Level	Level2	SNR	BER	BlckErr	Temp	State	Recorded	gain1	gain2
2026-01-08 01:36:59.47	241.10	36.14	-52.2	-53.5	3.4	0.00e+00	0	37	0	0	60	79483
2026-01-08 01:37:02.50	242.28	36.40	-42.5	-43.6	22.5	0.00e+00	0	37	102	1048576	60	7351
2026-01-08 01:37:05.53	243.46	36.66	-42.5	-43.5	22.2	0.00e+00	0	37	102	1048576	60	7322
2026-01-08 01:37:08.56	244.67	36.90	-42.5	-43.5	22.3	0.00e+00	90	37	102	1048576	60	7308
2026-01-08 01:37:11.59	245.90	37.13	-41.3	-42.2	23.3	0.00e+00	92	37	102	1048576	60	6269
2026-01-08 01:37:14.63	247.14	37.34	-42.0	-43.1	22.6	0.00e+00	0	37	102	1048576	60	6939
2026-01-08 01:37:17.66	248.40	37.55	-42.5	-43.5	22.3	0.00e+00	91	37	102	1048576	60	7282
2026-01-08 01:37:20.69	249.67	37.73	-43.6	-44.8	21.1	0.00e+00	59	37	102	1048576	60	8497
2026-01-08 01:37:23.72	250.96	37.91	-41.8	-42.7	22.9	0.00e+00	0	37	102	1048576	60	6685
2026-01-08 01:37:26.75	252.25	38.06	-41.9	-42.9	22.9	0.00e+00	0	37	102	1048576	60	6793
2026-01-08 01:37:29.79	253.57	38.21	-42.6	-43.6	22.3	0.00e+00	90	37	102	1048576	60	7409
2026-01-08 01:37:32.82	254.89	38.33	-43.1	-44.2	21.6	0.00e+00	0	37	102	1048576	60	7899
2026-01-08 01:37:35.85	256.22	38.44	-41.3	-42.3	23.3	0.00e+00	0	37	102	1048576	60	6327
2026-01-08 01:37:38.88	257.56	38.53	-42.2	-43.3	22.3	0.00e+00	92	37	102	1048576	60	7118
2026-01-08 01:37:41.91	258.90	38.61	-43.4	-44.6	21.4	0.00e+00	92	37	102	1048576	60	8300
2026-01-08 01:37:44.95	260.26	38.67	-42.6	-43.7	22.1	0.00e+00	0	37	102	1048576	60	7431
2026-01-08 01:37:47.98	261.61	38.71	-42.8	-43.9	22.0	0.00e+00	67	37	102	1048576	60	7630
2026-01-08 01:37:51.01	262.97	38.73	-44.2	-45.6	20.6	0.00e+00	48	37	102	1048576	60	9245
2026-01-08 01:37:54.04	264.33	38.74	-45.3	-46.9	19.3	0.00e+00	0	37	102	1048576	60	10759
2026-01-08 01:37:57.07	265.68	38.73	-42.0	-43.0	22.7	0.00e+00	0	37	102	1048576	60	6914
2026-01-08 01:38:00.10	267.04	38.70	-41.1	-42.1	23.4	0.00e+00	92	36	102	1048576	60	6183
2026-01-08 01:38:03.14	268.40	38.65	-41.5	-42.4	23.0	0.00e+00	92	36	102	1048576	60	6464
2026-01-08 01:38:06.17	269.74	38.58	-41.2	-42.1	23.4	0.00e+00	0	37	102	1048576	60	6219
2026-01-08 01:38:09.20	271.08	38.50	-41.2	-42.2	23.4	0.00e+00	92	36	102	1048576	60	6247
2026-01-08 01:38:12.24	272.42	38.40	-41.0	-42.0	23.6	0.00e+00	92	36	102	1048576	60	6104
2026-01-08 01:38:15.27	273.75	38.28	-41.1	-42.0	23.4	0.00e+00	0	36	102	1048576	60	6116
2026-01-08 01:38:18.30	275.06	38.15	-42.4	-43.4	22.4	0.00e+00	0	36	102	1048576	60	7212
2026-01-08 01:38:21.34	276.37	38.00	-42.1	-43.1	22.5	0.00e+00	48	36	102	1048576	60	6997
2026-01-08 01:38:24.37	277.66	37.84	-41.7	-42.7	23.0	0.00e+00	0	36	102	1048576	60	6631
2026-01-08 01:38:27.40	278.94	37.66	-44.2	-45.6	20.7	0.00e+00	0	36	102	1048576	60	9255
2026-01-08 01:38:30.43	280.20	37.47	-41.7	-42.7	22.9	0.00e+00	90	36	102	1048576	60	6637
2026-01-08 01:38:33.47	281.46	37.26	-42.0	-43.0	22.8	0.00e+00	92	36	102	1048576	60	6898
2026-01-08 01:38:36.50	282.69	37.04	-41.3	-42.2	23.3	0.00e+00	0	36	102	1048576	60	6286
2026-01-08 01:38:39.54	283.91	36.81	-43.2	-44.4	21.6	0.00e+00	83	36	102	1048576	60	8058
2026-01-08 01:38:42.57	285.11	36.56	-41.3	-42.2	23.4	0.00e+00	42	36	102	1048576	60	6289
2026-01-08 01:38:45.60	286.28	36.30	-41.6	-42.6	23.0	0.00e+00	0	36	102	1048576	60	6572
2026-01-08 01:38:48.63	287.45	36.04	-39.9	-40.7	24.4	0.00e+00	0	36	102	1048576	58	5919
2026-01-08 01:38:51.67	288.59	35.76	-40.9	-41.8	23.5	0.00e+00	67	36	102	1048576	58	6759
2026-01-08 01:38:54.70	289.71	35.47	-41.4	-42.4	23.2	0.00e+00	55	36	102	1048576	60	6420
2026-01-08 01:38:57.73	290.82	35.17	-44.5	-45.9	20.2	0.00e+00	0	36	102	1048576	60	9588
2026-01-08 01:39:00.76	291.90	34.87	-44.6	-46.0	20.1	0.00e+00	92	36	102	1048576	60	9777
2026-01-08 01:39:03.79	292.96	34.55	-45.2	-46.8	19.5	0.00e+00	90	36	102	1048576	60	10614
2026-01-08 01:39:06.83	294.01	34.23	-43.5	-44.6	21.6	0.00e+00	0	36	102	1048576	60	8290
2026-01-08 01:39:09.86	295.03	33.90	-43.8	-45.1	20.8	0.00e+00	0	36	102	1048576	60	8767
2026-01-08 01:39:12.89	296.03	33.57	-46.3	-48.2	18.1	0.00e+00	92	36	102	1048576	60	12576
2026-01-08 01:39:15.92	297.01	33.23	-42.9	-44.0	21.9	0.00e+00	0	36	102	1048576	60	7688
2026-01-08 01:39:18.96	297.97	32.89	-44.4	-45.8	20.3	0.00e+00	0	36	102	1048576	60	9483
2026-01-08 01:39:21.99	298.91	32.54	-41.8	-42.8	22.9	0.00e+00	68	36	102	1048576	60	6728
2026-01-08 01:39:25.02	299.84	32.18	-43.2	-44.4	21.8	0.00e+00	44	36	102	1048576	60	8052
2026-01-08 01:39:28.06	300.74	31.83	-42.8	-43.9	21.9	0.00e+00	0	36	102	1048576	60	7621
2026-01-08 01:39:31.09	301.62	31.47	-42.2	-43.2	22.5	0.00e+00	91	36	102	1048576	60	7040
2026-01-08 01:39:34.12	302.49	31.11	-40.5	-41.3	23.9	0.00e+00	43	36	102	1048576	60	5683
2026-01-08 01:39:37.15	303.33	30.74	-40.0	-40.8	24.2	0.00e+00	0	36	102	1048576	58	5976
2026-01-08 01:39:40.19	304.16	30.37	-43.1	-44.3	21.6	0.00e+00	0	36	102	1048576	60	7976
2026-01-08 01:39:43.22	304.96	30.01	-40.9	-41.8	23.6	0.00e+00	90	36	102	1048576	60	6010
2026-01-08 01:39:46.25	305.75	29.64	-42.5	-43.6	22.1	0.00e+00	46	36	102	1048576	60	7392
2026-01-08 01:39:49.28	306.53	29.27	-41.4	-42.3	23.3	0.00e+00	0	36	102	1048576	60	6367
2026-01-08 01:39:52.31	307.28	28.90	-40.3	-41.2	23.8	0.00e+00	90	36	102	1048576	58	6283
2026-01-08 01:39:55.35	308.02	28.52	-42.5	-43.6	22.2	0.00e+00	92	36	102	1048576	60	7353
2026-01-08 01:39:58.38	308.74	28.15	-40.8	-41.7	23.6	0.00e+00	0	36	102	1048576	60	5942
2026-01-08 01:40:01.41	309.45	27.78	-42.3	-43.4	22.4	0.00e+00	0	36	102	1048576	60	7243
2026-01-08 01:40:04.45	310.14	27.41	-39.3	-40.1	24.9	0.00e+00	40	36	102	1048576	58	5548
2026-01-08 01:40:07.48	310.81	27.04	-39.1	-39.9	25.0	0.00e+00	0	36	102	1048576	56	6082
2026-01-08 01:40:10.51	311.47	26.68	-41.7	-42.7	22.8	0.00e+00	0	36	102	1048576	60	6632
2026-01-08 01:40:13.55	312.11	26.31	-40.6	-41.5	23.7	0.00e+00	92	36	102	1048576	60	5785
2026-01-08 01:40:16.58	312.74	25.94	-39.4	-40.2	24.5	0.00e+00	92	36	102	1048576	58	5615
2026-01-08 01:40:19.61	313.36	25.58	-40.5	-41.4	23.7	0.00e+00	0	36	102	1048576	58	6424
2026-01-08 01:40:22.65	313.96	25.22	-40.0	-40.9	24.2	0.00e+00	44	36	102	1048576	58	6060
2026-01-08 01:40:25.68	314.55	24.86	-38.9	-39.6	25.0	0.00e+00	43	36	102	1048576	56	5882
2026-01-08 01:40:28.71	315.13	24.50	-39.5	-40.3	24.5	0.00e+00	0	36	102	1048576	56	6368
2026-01-08 01:40:31.75	315.69	24.14	-39.9	-40.7	24.0	0.00e+00	0	36	102	1048576	58	5958
2026-01-08 01:40:34.78	316.24	23.79	-39.1	-39.9	24.8	0.00e+00	89	36	102	1048576	58	5384
2026-01-08 01:40:37.81	316.78	23.43	-38.5	-39.2	25.2	0.00e+00	0	36	102	1048576	56	5622
2026-01-08 01:40:40.84	317.31	23.08	-39.2	-40.0	24.8	0.00e+00	0	36	102	1048576	56	6164
2026-01-08 01:40:43.87	317.82	22.74	-39.6	-40.5	24.3	0.00e+00	80	36	102	1048576	56	6479
2026-01-08 01:40:46.91	318.33	22.39	-39.4	-40.2	24.5	0.00e+00	76	36	102	1048576	56	6268
2026-01-08 01:40:49.94	318.82	22.05	-39.2	-40.0	24.5	0.00e+00	0	36	102	1048576	56	6124
2026-01-08 01:40:52.97	319.31	21.71	-39.4	-40.2	24.6	0.00e+00	0	36	102	1048576	56	6296
2026-01-08 01:40:56.01	319.78	21.37	-39.5	-40.3	24.4	0.00e+00	0	36	102	1048576	56	6363
2026-01-08 01:40:59.04	320.24	21.04	-39.4	-40.2	24.4	0.00e+00	0	36	102	1048576	56	6303
2026-01-08 01:41:02.07	320.70	20.70	-39.4	-40.3	24.5	0.00e+00	0	36	102	1048576	56	6328
2026-01-08 01:41:05.11	321.14	20.37	-39.7	-40.5	24.3	0.00e+00	0	36	102	1048576	56	6523
2026-01-08 01:41:08.14	321.58	20.05	-39.8	-40.6	24.2	0.00e+00	41	36	102	1048576	56	6569
2026-01-08 01:41:11.17	322.00	19.72	-40.1	-41.0	23.8	0.00e+00	0	36	102	1048576	58	6145
2026-01-08 01:41:14.20	322.42	19.40	-40.9	-41.8	23.2	0.00e+00	0	36	102	1048576	58	6761
2026-01-08 01:41:17.23	322.83	19.08	-41.3	-42.3	22.9	0.00e+00	76	36	102	1048576	60	6359
2026-01-08 01:41:20.27	323.23	18.77	-41.3	-42.2	23.0	0.00e+00	0	36	102	1048576	60	6314
2026-01-08 01:41:23.30	323.63	18.45	-41.6	-42.6	22.8	0.00e+00	0	36	102	1048576	60	6594
2026-01-08 01:41:26.33	324.01	18.14	-41.9	-43.0	22.3	0.00e+00	62	36	102	1048576	60	6863
2026-01-08 01:41:29.37	324.39	17.84	-42.6	-43.8	21.7	0.00e+00	9	36	102	1048576	60	7514
2026-01-08 01:41:32.40	324.76	17.53	-42.0	-43.1	22.2	0.00e+00	0	36	102	1048576	60	6941
2026-01-08 01:41:35.43	325.13	17.23	-41.0	-42.0	23.1	0.00e+00	0	36	102	1048576	60	6155
2026-01-08 01:41:38.46	325.49	16.93	-40.9	-41.8	23.3	0.00e+00	36	36	102	1048576	60	6023
2026-01-08 01:41:41.49	325.84	16.63	-41.1	-42.1	22.9	0.00e+00	0	36	102	1048576	60	6219
2026-01-08 01:41:44.53	326.18	16.34	-41.3	-42.4	22.7	0.00e+00	0	36	102	1048576	60	6399
2026-01-08 01:41:47.56	326.52	16.05	-41.2	-42.2	22.9	0.00e+00	66	36	102	1048576	60	6303
2026-01-08 01:41:50.59	326.85	15.76	-40.9	-41.9	23.1	0.00e+00	0	36	102	1048576	60	6065
2026-01-08 01:41:53.63	327.17	15.47	-40.6	-41.5	23.5	0.00e+00	0	36	102	1048576	60	5807
2026-01-08 01:41:56.66	327.49	15.19	-40.6	-41.5	23.4	0.00e+00	0	36	102	1048576	60	5824
2026-01-08 01:41:59.69	327.81	14.90	-41.0	-41.9	23.1	0.00e+00	41	36	102	1048576	60	6103
2026-01-08 01:42:02.72	328.12	14.63	-41.3	-42.3	22.9	0.00e+00	0	36	102	1048576	60	6352
2026-01-08 01:42:05.76	328.42	14.35	-41.1	-42.1	22.9	0.00e+00	0	36	102	1048576	60	6218
2026-01-08 01:42:08.79	328.72	14.07	-40.9	-41.8	23.2	0.00e+00	78	36	102	1048576	60	6028
2026-01-08 01:42:11.82	329.01	13.80	-40.9	-41.9	23.0	0.00e+00	0	36	102	1048576	60	6074
2026-01-08 01:42:14.86	329.30	13.53	-41.3	-42.3	22.8	0.00e+00	0	36	102	1048576	60	6359
2026-01-08 01:42:17.89	329.58	13.27	-42.0	-43.1	22.1	0.00e+00	18	36	102	1048576	60	6958
2026-01-08 01:42:20.92	329.85	13.00	-42.6	-43.8	21.7	0.00e+00	0	36	102	1048576	60	7538
2026-01-08 01:42:23.96	330.13	12.74	-43.1	-44.4	21.0	0.00e+00	0	36	102	1048576	60	8099
2026-01-08 01:42:26.99	330.40	12.48	-43.8	-45.2	20.4	0.00e+00	0	36	102	1048576	60	8845
2026-01-08 01:42:30.02	330.66	12.22	-43.6	-44.9	20.5	0.00e+00	49	36	102	1048576	60	8608
2026-01-08 01:42:33.05	330.92	11.96	-43.2	-44.5	20.9	0.00e+00	0	36	102	1048576	60	8160
2026-01-08 01:42:36.09	331.18	11.71	-42.4	-43.6	21.6	0.00e+00	0	36	102	1048576	60	7360
2026-01-08 01:42:39.12	331.43	11.46	-41.8	-42.8	22.3	0.00e+00	91	36	102	1048576	60	6742
2026-01-08 01:42:42.15	331.67	11.21	-41.4	-42.5	22.7	0.00e+00	0	36	102	1048576	60	6467
2026-01-08 01:42:45.19	331.92	10.96	-41.0	-42.0	22.9	0.00e+00	0	36	102	1048576	60	6150
2026-01-08 01:42:48.22	332.16	10.72	-41.0	-42.0	23.0	0.00e+00	58	36	102	1048576	60	6122
2026-01-08 01:42:51.25	332.39	10.47	-41.1	-42.0	22.8	0.00e+00	37	36	102	1048576	60	6164
2026-01-08 01:42:54.28	332.62	10.23	-41.2	-42.2	22.7	0.00e+00	0	36	102	1048576	60	6313
2026-01-08 01:42:57.31	332.85	9.99	-41.5	-42.6	22.5	0.00e+00	0	36	102	1048576	60	6558
2026-01-08 01:43:00.35	333.08	9.76	-41.6	-42.6	22.3	0.00e+00	90	36	102	1048576	60	6614
2026-01-08 01:43:03.38	333.30	9.52	-41.9	-43.0	22.0	0.00e+00	0	36	102	1048576	60	6857
2026-01-08 01:43:06.41	333.52	9.29	-42.3	-43.4	21.7	0.00e+00	0	36	102	1048576	60	7202
2026-01-08 01:43:09.45	333.73	9.06	-42.6	-43.8	21.4	0.00e+00	91	36	102	1048576	60	7517
2026-01-08 01:43:12.48	333.95	8.83	-43.1	-44.4	20.8	0.00e+00	0	36	102	1048576	60	8072
2026-01-08 01:43:15.51	334.15	8.60	-43.6	-45.0	20.2	0.00e+00	0	36	102	1048576	60	8684
2026-01-08 01:43:18.55	334.36	8.37	-43.8	-45.2	20.1	0.00e+00	0	36	102	1048576	60	8838
2026-01-08 01:43:21.58	334.56	8.15	-44.0	-45.5	19.8	0.00e+00	38	36	102	1048576	60	9169
2026-01-08 01:43:24.61	334.76	7.93	-43.9	-45.3	19.9	0.00e+00	0	36	102	1048576	60	8993
2026-01-08 01:43:27.64	334.96	7.70	-44.0	-45.4	19.9	0.00e+00	0	36	102	1048576	60	9125
2026-01-08 01:43:30.67	335.16	7.49	-43.6	-45.0	20.0	0.00e+00	90	36	102	1048576	60	8677
2026-01-08 01:43:33.71	335.35	7.27	-43.6	-45.0	20.1	0.00e+00	0	36	102	1048576	60	8640
2026-01-08 01:43:36.74	335.54	7.05	-43.4	-44.8	20.3	0.00e+00	0	36	102	1048576	60	8477
2026-01-08 01:43:39.77	335.72	6.84	-43.5	-44.9	20.2	0.00e+00	30	36	102	1048576	60	8549
2026-01-08 01:43:42.80	335.91	6.62	-43.5	-44.9	20.1	0.00e+00	0	36	102	1048576	60	8594
2026-01-08 01:43:45.84	336.09	6.41	-43.4	-44.8	20.1	0.00e+00	0	36	102	1048576	60	8511
2026-01-08 01:43:48.87	336.27	6.20	-43.8	-45.3	19.7	0.00e+00	0	36	102	1048576	60	8984
2026-01-08 01:43:51.90	336.45	5.99	-44.4	-46.0	18.7	0.00e+00	36	36	102	1048576	60	9781
2026-01-08 01:43:54.93	336.62	5.79	-44.9	-46.9	17.4	0.00e+00	0	36	102	1048576	60	10851
2026-01-08 01:43:57.96	336.79	5.58	-45.6	-48.2	15.8	0.00e+00	0	36	102	1048576	60	12578
2026-01-08 01:44:01.00	336.96	5.38	-46.3	-49.6	13.9	3.80e-06	92	36	102	1048576	60	14737
2026-01-08 01:44:04.03	337.13	5.17	-46.8	-51.1	11.8	3.27e-04	0	36	102	1048576	60	17521
2026-01-08 01:44:07.06	337.30	4.97	-47.2	-52.8	9.4	6.89e-03	0	36	102	1048576	60	21257
2026-01-08 01:44:10.09	337.46	4.77	-47.4	-54.3	7.1	1.03e-01	0	36	102	1048576	60	25196
2026-01-08 01:44:13.13	337.62	4.57	-47.5	-55.7	5.5	3.79e-01	0	36	102	1048576	60	29621
2026-01-08 01:44:16.16	337.78	4.38	-47.5	-57.3	4.2	8.22e-01	0	36	102	1048576	60	35816
2026-01-08 01:44:19.20	337.94	4.18	-47.3	-59.7	3.7	1.46e+00	0	36	104	1048576	60	47279
2026-01-08 01:44:22.23	338.10	3.98	-47.2	-61.2	3.6	1.51e+00	0	36	104	1048576	60	56298
2026-01-08 01:44:25.26	338.25	3.79	-47.1	-61.8	3.6	1.51e+00	0	36	104	1048576	60	60125
2026-01-08 01:44:28.29	338.40	3.60	-47.0	-62.2	3.6	1.51e+00	0	36	104	1048576	60	63118
2026-01-08 01:44:31.33	338.55	3.41	-47.1	-62.4	3.6	1.51e+00	0	36	104	1048576	60	64250
2026-01-08 01:44:34.36	338.70	3.22	-47.1	-62.5	3.6	1.51e+00	0	36	104	1048576	60	64724
2026-01-08 01:44:37.39	338.85	3.03	-50.6	-66.0	3.6	1.51e+00	0	36	104	1048576	60	97089
2026-01-08 01:44:40.42	339.00	2.84	-51.8	-67.2	3.6	1.51e+00	0	36	104	1048576	60	111944
2026-01-08 01:44:43.46	339.14	2.65	-52.1	-67.4	3.6	1.51e+00	0	36	104	1048576	60	114466
2026-01-08 01:44:46.49	339.28	2.47	-51.8	-67.3	3.6	1.51e+00	0	36	104	1048576	60	113594
2026-01-08 01:44:49.52	339.42	2.28	-51.9	-67.3	3.6	1.51e+00	0	36	104	1048576	60	113504
2026-01-08 01:44:52.55	339.56	2.10	-52.0	-67.4	3.5	1.51e+00	0	36	104	1048576	60	114605
2026-01-08 01:44:55.59	339.70	1.92	-52.0	-67.5	3.6	1.51e+00	0	36	104	1048576	60	115216
2026-01-08 01:44:58.62	339.84	1.74	-52.0	-67.4	3.6	1.51e+00	0	36	104	1048576	60	114629
2026-01-08 01:45:01.65	339.97	1.56	-52.0	-67.4	3.6	1.51e+00	0	36	104	1048576	60	114252
2026-01-08 01:45:04.68	340.10	1.38	-52.0	-67.4	3.6	1.51e+00	0	36	104	1048576	60	114103
2026-01-08 01:45:07.71	340.23	1.20	-52.0	-67.4	3.6	1.51e+00	0	36	104	1048576	60	113994
2026-01-08 01:45:10.75	340.36	1.02	-52.0	-67.3	3.6	1.51e+00	0	36	104	1048576	60	113370
2026-01-08 01:45:13.78	340.49	0.85	-52.0	-67.4	3.6	1.51e+00	0	36	104	1048576	60	113749
2026-01-08 01:45:16.82	340.62	0.67	-52.0	-67.4	3.6	1.51e+00	0	36	104	1048576	60	113843
2026-01-08 01:45:19.85	340.75	0.50	-52.0	-67.4	3.6	1.51e+00	0	36	104	1048576	60	114611
2026-01-08 01:45:22.88	340.87	0.32	-52.0	-67.3	3.6	1.51e+00	0	36	104	1048576	60	113494
2026-01-08 01:45:25.91	341.00	0.15	-52.0	-67.3	3.6	1.51e+00	0	36	104	1048576	60	113473

#Closed at: 2026-01-08 01:45:28
#Recorded file [1 MB]: D:/lorett/data/35034_260108_043659.dat