passes_logs/2026/01/13/XPeterburg/XPeterburg__20260113_143518_FENGYUN_3E_rec.log

#Pass ID: 20260113_143518_FENGYUN 3E
#Satellite: FENGYUN 3E
#Configuration: FENGYUN 3E
#Start time: 2026-01-13 14:35:13

#Version: 1.5.20200625
#Station: XPeterburg
#Location: 30.318091 lon 59.932769 lat
#TLE: 1 49008U 21062A   26011.97558190  .00000066  00000+0  51928-4 0  9996
#TLE: 2 49008  98.7491  17.1395 0001916 144.4283 215.7021 14.19885193234411

#Time	Az	El	Level	Level2	SNR	BER	Gain	Gain2
2026-01-13 14:35:13.89	148.73	68.19	-37.9	-40.0	3.3	8383060	93	6259
2026-01-13 14:35:14.29	148.63	68.37	-37.8	-41.1	3.5	8437694	92	7155
2026-01-13 14:35:14.70	148.53	68.56	-37.4	-39.0	3.4	8380577	92	5874
2026-01-13 14:35:15.10	148.43	68.74	-36.8	-38.3	4.1	8417209	92	5810
2026-01-13 14:35:15.50	148.33	68.92	-35.8	-35.5	4.6	8279823	90	4743
2026-01-13 14:35:15.90	148.23	69.10	-34.9	-34.4	5.6	7482238	88	4640
2026-01-13 14:35:16.30	148.12	69.28	-33.9	-33.3	6.5	2770317	86	4575
2026-01-13 14:35:16.71	148.01	69.47	-33.0	-33.1	7.7	672534	83	4953
2026-01-13 14:35:17.11	147.90	69.65	-32.0	-31.3	9.1	705757	82	4526
2026-01-13 14:35:17.51	147.79	69.83	-31.2	-30.6	10.3	149127	80	4610
2026-01-13 14:35:17.91	147.67	70.01	-30.2	-29.8	11.2	35270	78	4650
2026-01-13 14:35:18.31	147.56	70.19	-29.5	-28.7	12.1	6076	77	4497
2026-01-13 14:35:18.71	147.44	70.38	-29.0	-28.2	12.7	2666	76	4490
2026-01-13 14:35:19.12	147.31	70.57	-28.4	-27.5	13.2	606	75	4438
2026-01-13 14:35:19.52	147.19	70.75	-28.3	-27.7	13.5	148	74	4599
2026-01-13 14:35:19.92	147.06	70.93	-28.4	-28.0	13.4	171	74	4713
2026-01-13 14:35:20.32	146.93	71.12	-28.3	-27.8	13.5	137	74	4614
2026-01-13 14:35:20.72	146.80	71.30	-28.4	-27.9	13.4	205	74	4668
2026-01-13 14:35:21.13	146.66	71.49	-28.4	-28.0	13.3	183	74	4694
2026-01-13 14:35:21.53	146.52	71.67	-28.6	-28.4	13.1	251	74	4804
2026-01-13 14:35:21.93	146.38	71.86	-28.7	-28.6	12.9	217	74	4878
2026-01-13 14:35:22.33	146.24	72.04	-28.6	-28.2	13.0	400	74	4703
2026-01-13 14:35:22.74	146.09	72.23	-28.6	-27.9	12.9	1075	75	4520
2026-01-13 14:35:23.14	145.94	72.42	-28.8	-28.3	12.7	961	75	4645
2026-01-13 14:35:23.54	145.78	72.61	-28.8	-28.3	12.6	1018	75	4649
2026-01-13 14:35:23.94	145.63	72.79	-28.7	-28.1	12.8	823	75	4593
2026-01-13 14:35:24.34	145.47	72.98	-28.6	-27.9	12.9	640	75	4501
2026-01-13 14:35:24.75	145.30	73.17	-28.5	-27.6	13.2	389	75	4451
2026-01-13 14:35:25.15	145.13	73.36	-28.3	-27.8	13.5	240	74	4620
2026-01-13 14:35:25.55	144.95	73.54	-28.2	-27.5	13.6	148	74	4530
2026-01-13 14:35:25.95	144.78	73.73	-28.1	-27.2	13.8	45	74	4455
2026-01-13 14:35:26.35	144.60	73.92	-27.9	-26.9	13.9	22	74	4360
2026-01-13 14:35:26.75	144.41	74.10	-28.2	-27.4	13.6	45	74	4526
2026-01-13 14:35:27.16	144.21	74.29	-27.8	-27.2	14.1	34	73	4621
2026-01-13 14:35:27.56	144.02	74.48	-28.1	-27.8	13.8	68	73	4735
2026-01-13 14:35:27.96	143.82	74.67	-28.2	-27.9	13.7	80	73	4790
2026-01-13 14:35:28.36	143.61	74.86	-28.1	-27.8	13.8	34	73	4740
2026-01-13 14:35:28.76	143.40	75.04	-28.1	-27.9	13.8	68	73	4809
2026-01-13 14:35:29.17	143.18	75.24	-28.1	-27.8	13.8	80	73	4785
2026-01-13 14:35:29.57	142.96	75.42	-27.9	-27.3	14.0	11	73	4622
2026-01-13 14:35:29.97	142.73	75.61	-27.8	-27.1	14.1	22	73	4546
2026-01-13 14:35:30.37	142.49	75.80	-27.7	-26.9	14.3	0	73	4516
2026-01-13 14:35:30.77	142.25	75.99	-27.4	-26.4	14.6	0	73	4389
2026-01-13 14:35:31.17	142.00	76.17	-27.5	-26.5	14.6	0	73	4416
2026-01-13 14:35:31.58	141.74	76.37	-27.2	-26.5	14.9	0	72	4533
2026-01-13 14:35:31.98	141.48	76.55	-27.3	-26.8	14.9	0	72	4623
2026-01-13 14:35:32.38	141.20	76.74	-26.9	-25.9	15.4	0	72	4367
2026-01-13 14:35:32.78	140.93	76.93	-26.7	-25.9	15.4	0	71	4524
2026-01-13 14:35:33.18	140.64	77.12	-26.7	-26.1	15.4	0	71	4564
2026-01-13 14:35:33.59	140.33	77.31	-26.6	-25.7	15.6	0	71	4472
2026-01-13 14:35:33.99	140.03	77.50	-26.7	-25.9	15.5	0	71	4523
2026-01-13 14:35:34.39	139.71	77.68	-26.6	-25.8	15.6	0	71	4494
2026-01-13 14:35:34.79	139.39	77.87	-26.6	-25.8	15.5	0	71	4507
2026-01-13 14:35:35.20	139.04	78.06	-26.7	-26.1	15.4	0	71	4600
2026-01-13 14:35:35.60	138.70	78.25	-26.7	-26.0	15.4	0	71	4576
2026-01-13 14:35:36.00	138.34	78.43	-26.7	-26.0	15.3	0	71	4564
2026-01-13 14:35:36.40	137.97	78.62	-26.6	-25.9	15.3	0	71	4504
2026-01-13 14:35:36.80	137.58	78.81	-26.5	-25.6	15.4	0	71	4429
2026-01-13 14:35:37.20	137.19	78.99	-26.5	-25.6	15.4	0	71	4458
2026-01-13 14:35:37.61	136.77	79.18	-26.3	-25.7	15.7	0	70	4609
2026-01-13 14:35:38.01	136.34	79.37	-26.1	-25.3	15.9	0	70	4498
2026-01-13 14:35:38.41	135.90	79.55	-25.9	-25.0	16.0	0	70	4430
2026-01-13 14:35:38.81	135.44	79.73	-25.8	-24.8	16.2	0	70	4384
2026-01-13 14:35:39.22	134.96	79.92	-25.8	-25.2	16.2	0	69	4606
2026-01-13 14:35:39.62	134.47	80.10	-25.6	-24.9	16.4	0	69	4529
2026-01-13 14:35:40.02	133.96	80.29	-25.7	-25.1	16.4	0	69	4579
2026-01-13 14:35:40.42	133.43	80.47	-25.8	-25.3	16.3	0	69	4643
2026-01-13 14:35:40.82	132.87	80.65	-26.0	-25.7	16.1	0	69	4754
2026-01-13 14:35:41.23	132.28	80.83	-26.1	-25.9	16.0	0	69	4781
2026-01-13 14:35:41.63	131.69	81.01	-26.0	-25.6	16.2	0	69	4724
2026-01-13 14:35:42.03	131.06	81.19	-26.1	-25.8	16.1	0	69	4775
2026-01-13 14:35:42.43	130.42	81.37	-26.2	-26.0	16.1	0	69	4817
2026-01-13 14:35:42.83	129.74	81.55	-26.3	-26.2	15.9	0	69	4882
2026-01-13 14:35:43.23	129.03	81.72	-26.6	-26.5	15.6	0	70	4823
2026-01-13 14:35:43.64	128.28	81.90	-26.6	-26.5	15.6	0	70	4819
2026-01-13 14:35:44.04	127.51	82.07	-26.8	-26.8	15.5	0	70	4914
2026-01-13 14:35:44.44	126.71	82.24	-26.8	-26.7	15.5	0	70	4869
2026-01-13 14:35:44.84	125.87	82.41	-26.6	-26.4	15.7	0	70	4799
2026-01-13 14:35:45.25	124.96	82.59	-26.5	-26.2	15.7	0	70	4748
2026-01-13 14:35:45.65	124.04	82.75	-26.6	-26.3	15.7	0	70	4775
2026-01-13 14:35:46.05	123.08	82.92	-26.7	-26.5	15.6	0	70	4845
2026-01-13 14:35:46.45	122.06	83.08	-26.7	-26.6	15.6	0	70	4846
2026-01-13 14:35:46.85	121.00	83.24	-26.7	-26.7	15.5	0	70	4876
2026-01-13 14:35:47.25	119.89	83.40	-26.8	-26.7	15.5	0	70	4881
2026-01-13 14:35:47.66	118.69	83.56	-26.7	-26.7	15.5	0	70	4875
2026-01-13 14:35:48.06	117.47	83.71	-26.7	-26.6	15.5	0	70	4871
2026-01-13 14:35:48.46	116.18	83.86	-26.6	-26.5	15.7	0	70	4836
2026-01-13 14:35:48.86	114.83	84.01	-26.6	-26.3	15.7	0	70	4788
2026-01-13 14:35:49.26	113.41	84.15	-26.6	-26.4	15.7	0	70	4812
2026-01-13 14:35:49.66	111.92	84.29	-26.6	-26.3	15.8	0	70	4782
2026-01-13 14:35:50.07	110.31	84.43	-26.6	-26.5	15.7	0	70	4822
2026-01-13 14:35:50.47	108.67	84.57	-26.6	-26.4	15.7	0	70	4804
2026-01-13 14:35:50.87	106.94	84.69	-26.7	-26.5	15.7	0	70	4830
2026-01-13 14:35:51.27	105.13	84.81	-26.7	-26.5	15.7	0	70	4829
2026-01-13 14:35:51.68	103.19	84.93	-26.7	-26.6	15.7	0	70	4854
2026-01-13 14:35:52.08	101.21	85.04	-26.8	-26.7	15.7	0	70	4886
2026-01-13 14:35:52.48	99.14	85.15	-26.8	-26.7	15.7	0	70	4896
2026-01-13 14:35:52.88	96.98	85.25	-26.7	-26.6	15.8	0	70	4846
2026-01-13 14:35:53.28	94.73	85.34	-26.8	-26.9	15.7	0	70	4936
2026-01-13 14:35:53.69	92.33	85.42	-26.9	-26.9	15.7	0	70	4955
2026-01-13 14:35:54.09	89.92	85.50	-26.9	-26.4	15.6	0	71	4672
2026-01-13 14:35:54.49	87.42	85.57	-26.9	-26.5	15.6	0	71	4707
2026-01-13 14:35:54.89	84.85	85.62	-27.0	-26.6	15.5	0	71	4733
2026-01-13 14:35:55.30	82.15	85.67	-27.1	-26.9	15.4	0	71	4799
2026-01-13 14:35:55.70	79.46	85.71	-27.2	-27.0	15.3	0	71	4851
2026-01-13 14:35:56.10	76.72	85.75	-27.3	-27.4	15.2	0	71	4949
2026-01-13 14:35:56.50	73.96	85.77	-27.4	-27.5	15.2	0	71	4966
2026-01-13 14:35:56.90	71.17	85.78	-27.7	-27.7	15.0	0	72	4887
2026-01-13 14:35:57.30	68.37	85.78	-27.6	-27.4	15.1	0	72	4825
2026-01-13 14:35:57.71	65.51	85.77	-27.7	-27.5	15.0	0	72	4841
2026-01-13 14:35:58.11	62.74	85.75	-27.7	-27.6	15.0	0	72	4850
2026-01-13 14:35:58.51	60.00	85.72	-27.4	-27.1	15.2	0	72	4712
2026-01-13 14:35:58.91	57.31	85.68	-27.7	-27.5	15.0	11	72	4840
2026-01-13 14:35:59.31	54.67	85.63	-27.5	-27.2	15.0	0	72	4755
2026-01-13 14:35:59.72	52.03	85.57	-27.7	-27.6	14.9	0	72	4856
2026-01-13 14:36:00.12	49.52	85.51	-27.7	-27.5	14.9	0	72	4826
2026-01-13 14:36:00.52	47.10	85.43	-27.8	-27.8	14.7	0	72	4906
2026-01-13 14:36:00.92	44.75	85.35	-27.9	-28.0	14.7	11	72	4965
2026-01-13 14:36:01.32	42.49	85.26	-27.8	-27.8	14.7	0	72	4929
2026-01-13 14:36:01.72	40.32	85.16	-27.8	-27.7	14.8	0	72	4872
2026-01-13 14:36:02.13	38.19	85.05	-27.6	-27.4	15.0	0	72	4797
2026-01-13 14:36:02.53	36.20	84.94	-27.6	-27.3	15.0	0	72	4762
2026-01-13 14:36:02.93	34.30	84.83	-27.4	-27.0	15.0	11	72	4693
2026-01-13 14:36:03.33	32.48	84.71	-27.4	-26.9	15.1	0	72	4651
2026-01-13 14:36:03.73	30.74	84.58	-27.3	-26.7	15.1	0	72	4624
2026-01-13 14:36:04.14	29.05	84.45	-27.4	-26.9	15.0	0	72	4657
2026-01-13 14:36:04.54	27.47	84.31	-27.4	-27.0	15.0	0	72	4683
2026-01-13 14:36:04.94	25.98	84.17	-27.5	-27.3	14.9	11	72	4765
2026-01-13 14:36:05.34	24.55	84.03	-27.5	-27.2	14.9	0	72	4738
2026-01-13 14:36:05.74	23.19	83.88	-27.3	-26.7	15.1	0	72	4587
2026-01-13 14:36:06.15	21.86	83.73	-27.3	-26.8	15.1	0	72	4632
2026-01-13 14:36:06.55	20.63	83.58	-27.4	-26.9	15.0	0	72	4659
2026-01-13 14:36:06.95	19.46	83.42	-27.5	-27.3	14.9	0	72	4757
2026-01-13 14:36:07.35	18.34	83.26	-27.7	-27.5	14.8	0	72	4841
2026-01-13 14:36:07.76	17.24	83.10	-27.8	-27.8	14.6	0	72	4913
2026-01-13 14:36:08.16	16.23	82.94	-27.9	-27.9	14.5	0	72	4942
2026-01-13 14:36:08.56	15.26	82.77	-27.9	-27.5	14.4	0	73	4694
2026-01-13 14:36:08.96	14.33	82.60	-27.8	-27.2	14.5	11	73	4608
2026-01-13 14:36:09.36	13.45	82.44	-28.0	-27.6	14.3	34	73	4722
2026-01-13 14:36:09.76	12.60	82.27	-27.9	-27.4	14.4	22	73	4665
2026-01-13 14:36:10.17	11.78	82.09	-27.9	-27.5	14.4	0	73	4692
2026-01-13 14:36:10.57	11.00	81.92	-28.0	-27.7	14.4	34	73	4754
2026-01-13 14:36:10.97	10.26	81.74	-28.0	-27.7	14.3	22	73	4754
2026-01-13 14:36:11.37	9.55	81.57	-28.0	-27.8	14.2	11	73	4769
2026-01-13 14:36:11.77	8.87	81.39	-28.0	-27.6	14.2	22	73	4735
2026-01-13 14:36:12.18	8.21	81.21	-27.9	-27.5	14.2	22	73	4704
2026-01-13 14:36:12.58	7.58	81.03	-28.0	-27.7	14.0	102	73	4745
2026-01-13 14:36:12.98	6.98	80.85	-28.0	-27.6	14.1	11	73	4716
2026-01-13 14:36:13.38	6.41	80.67	-28.0	-27.6	14.1	22	73	4723
2026-01-13 14:36:13.78	5.85	80.49	-27.9	-27.4	14.2	22	73	4662
2026-01-13 14:36:14.19	5.31	80.31	-27.9	-27.4	14.2	22	73	4679
2026-01-13 14:36:14.59	4.79	80.13	-27.7	-27.1	14.4	22	73	4592
2026-01-13 14:36:14.99	4.30	79.94	-27.8	-27.2	14.2	11	73	4596
2026-01-13 14:36:15.39	3.82	79.76	-27.7	-27.0	14.3	11	73	4553
2026-01-13 14:36:15.79	3.37	79.58	-27.5	-26.7	14.4	11	73	4480
2026-01-13 14:36:16.20	2.91	79.39	-27.5	-26.7	14.4	11	73	4478
2026-01-13 14:36:16.60	2.49	79.20	-27.6	-26.9	14.3	11	73	4553
2026-01-13 14:36:17.00	2.07	79.02	-27.7	-27.2	14.2	0	73	4646
2026-01-13 14:36:17.40	1.68	78.83	-27.9	-27.5	14.1	0	73	4673
2026-01-13 14:36:17.80	1.29	78.65	-28.2	-28.0	13.9	22	73	4823
2026-01-13 14:36:18.21	0.91	78.46	-28.2	-28.1	13.9	45	73	4846
2026-01-13 14:36:18.61	0.55	78.27	-28.2	-28.0	14.0	34	73	4825
2026-01-13 14:36:19.01	0.20	78.09	-28.2	-28.1	14.0	57	73	4848
2026-01-13 14:36:19.41	359.87	77.90	-28.3	-28.3	13.9	45	73	4890
2026-01-13 14:36:19.81	359.54	77.71	-28.3	-28.3	13.9	45	73	4880
2026-01-13 14:36:20.22	359.21	77.52	-28.4	-28.5	13.8	11	73	4944
2026-01-13 14:36:20.62	358.91	77.33	-28.5	-28.2	13.7	68	74	4731
2026-01-13 14:36:21.02	358.61	77.15	-28.7	-28.4	13.5	114	74	4786
2026-01-13 14:36:21.42	358.32	76.96	-28.7	-28.6	13.4	137	74	4836
2026-01-13 14:36:21.82	358.04	76.77	-28.7	-28.6	13.4	102	74	4824
2026-01-13 14:36:22.23	357.76	76.58	-28.9	-28.8	13.2	240	74	4907
2026-01-13 14:36:22.63	357.50	76.39	-28.9	-28.9	13.1	274	74	4912
2026-01-13 14:36:23.03	357.24	76.20	-28.8	-28.1	13.1	320	75	4559
2026-01-13 14:36:23.43	356.99	76.02	-29.0	-28.6	12.8	652	75	4696
2026-01-13 14:36:23.83	356.75	75.83	-29.0	-28.5	12.8	560	75	4672
2026-01-13 14:36:24.23	356.52	75.64	-29.0	-28.5	12.8	537	75	4666
2026-01-13 14:36:24.64	356.28	75.45	-29.0	-28.6	12.7	629	75	4681
2026-01-13 14:36:25.04	356.06	75.26	-29.0	-28.6	12.7	801	75	4693
2026-01-13 14:36:25.44	355.84	75.08	-28.9	-28.3	12.8	606	75	4614
2026-01-13 14:36:25.84	355.63	74.89	-28.9	-28.3	12.8	869	75	4610
2026-01-13 14:36:26.24	355.42	74.70	-28.8	-28.2	12.8	801	75	4575
2026-01-13 14:36:26.65	355.21	74.51	-28.8	-28.2	12.9	755	75	4583
2026-01-13 14:36:27.05	355.02	74.32	-28.9	-28.4	12.8	709	75	4627
2026-01-13 14:36:27.45	354.83	74.14	-28.9	-28.2	12.8	846	75	4591
2026-01-13 14:36:27.85	354.64	73.95	-29.0	-28.5	12.7	1075	75	4662
2026-01-13 14:36:28.26	354.45	73.76	-28.9	-28.3	12.8	858	75	4624
2026-01-13 14:36:28.66	354.28	73.57	-29.1	-28.9	12.5	1110	75	4787
2026-01-13 14:36:29.06	354.10	73.39	-29.3	-29.2	12.3	1464	75	4891
2026-01-13 14:36:29.46	353.93	73.20	-29.7	-29.5	12.2	1750	76	4827
2026-01-13 14:36:29.86	353.77	73.01	-29.6	-29.3	12.3	2220	76	4773
2026-01-13 14:36:30.27	353.60	72.82	-29.7	-29.6	12.1	2792	76	4858
2026-01-13 14:36:30.67	353.45	72.64	-29.6	-29.4	12.3	2334	76	4812
2026-01-13 14:36:31.07	353.29	72.45	-29.6	-29.3	12.3	2128	76	4776
2026-01-13 14:36:31.47	353.14	72.27	-29.4	-29.0	12.4	1831	76	4697
2026-01-13 14:36:31.87	352.99	72.08	-29.3	-28.7	12.6	1510	76	4608
2026-01-13 14:36:32.28	352.84	71.89	-29.2	-28.4	12.7	1636	76	4509
2026-01-13 14:36:32.68	352.70	71.71	-29.2	-28.4	12.6	789	76	4503
2026-01-13 14:36:33.08	352.57	71.52	-29.4	-28.8	12.5	789	76	4633
2026-01-13 14:36:33.48	352.43	71.34	-29.5	-29.1	12.3	778	76	4686
2026-01-13 14:36:33.89	352.29	71.15	-29.6	-29.2	12.1	1796	76	4737
2026-01-13 14:36:34.29	352.17	70.97	-29.9	-29.9	11.8	3433	76	4917
2026-01-13 14:36:34.69	352.04	70.78	-29.9	-29.9	11.7	5893	76	4936
2026-01-13 14:36:35.09	351.91	70.60	-29.5	-28.5	12.2	10494	77	4393
2026-01-13 14:36:35.49	351.79	70.42	-33.4	-33.8	7.5	432804	83	5131
2026-01-13 14:36:35.89	351.67	70.23	-38.1	-41.7	3.6	8326995	93	7389

#Closed at: 2026-01-13 14:36:36