passes_logs/2026/01/13/XPeterburg/XPeterburg__20260113_044243_FENGYUN_3E_rec.log

#Pass ID: 20260113_044243_FENGYUN 3E
#Satellite: FENGYUN 3E
#Configuration: FENGYUN 3E
#Start time: 2026-01-13 04:42:39

#Version: 1.5.20200625
#Station: XPeterburg
#Location: 30.318091 lon 59.932769 lat
#TLE: 1 49008U 21062A   26011.97558190  .00000066  00000+0  51928-4 0  9996
#TLE: 2 49008  98.7491  17.1395 0001916 144.4283 215.7021 14.19885193234411

#Time	Az	El	Level	Level2	SNR	BER	Gain	Gain2
2026-01-13 04:42:39.85	17.73	68.48	-37.9	-40.4	3.3	8382728	93	6513
2026-01-13 04:42:40.25	17.71	68.66	-36.5	-38.5	3.8	8428504	90	6189
2026-01-13 04:42:40.65	17.70	68.85	-35.8	-35.6	4.1	8332683	90	4810
2026-01-13 04:42:41.05	17.68	69.03	-35.0	-34.4	4.9	7843837	88	4642
2026-01-13 04:42:41.45	17.67	69.21	-33.2	-32.8	6.0	7284553	85	4695
2026-01-13 04:42:41.86	17.65	69.40	-32.7	-32.2	7.3	2372314	83	4624
2026-01-13 04:42:42.26	17.63	69.59	-31.7	-31.2	8.7	653732	81	4626
2026-01-13 04:42:42.66	17.62	69.77	-30.8	-29.7	9.9	160732	80	4352
2026-01-13 04:42:43.06	17.60	69.96	-29.7	-29.0	11.1	22487	77	4556
2026-01-13 04:42:43.46	17.58	70.15	-29.0	-28.1	11.9	10643	76	4446
2026-01-13 04:42:43.87	17.56	70.34	-28.3	-27.7	12.7	2586	74	4605
2026-01-13 04:42:44.27	17.54	70.53	-27.7	-26.9	13.3	503	73	4497
2026-01-13 04:42:44.67	17.52	70.71	-27.9	-27.5	13.2	297	73	4692
2026-01-13 04:42:45.07	17.51	70.90	-28.2	-28.0	12.9	217	73	4837
2026-01-13 04:42:45.47	17.49	71.09	-28.4	-28.4	12.8	526	73	4957
2026-01-13 04:42:45.88	17.46	71.28	-28.6	-28.4	12.5	675	74	4812
2026-01-13 04:42:46.28	17.44	71.47	-28.6	-28.5	12.5	904	74	4852
2026-01-13 04:42:46.68	17.42	71.66	-28.9	-29.0	12.2	1510	74	4971
2026-01-13 04:42:47.08	17.40	71.85	-29.0	-28.7	12.2	2620	75	4756
2026-01-13 04:42:47.48	17.38	72.04	-29.3	-29.3	11.9	3078	75	4941
2026-01-13 04:42:47.89	17.35	72.23	-29.1	-29.0	12.1	4154	75	4846
2026-01-13 04:42:48.29	17.33	72.42	-29.4	-29.0	11.8	3971	76	4713
2026-01-13 04:42:48.69	17.31	72.61	-29.1	-28.5	12.0	3616	76	4579
2026-01-13 04:42:49.09	17.28	72.81	-28.9	-28.0	12.1	3353	76	4444
2026-01-13 04:42:49.49	17.26	73.00	-28.6	-27.9	12.2	2597	75	4527
2026-01-13 04:42:49.90	17.23	73.19	-28.8	-28.3	11.9	3204	75	4632
2026-01-13 04:42:50.30	17.20	73.39	-28.6	-27.9	12.2	3444	75	4544
2026-01-13 04:42:50.70	17.18	73.58	-28.5	-27.6	12.4	2655	75	4454
2026-01-13 04:42:51.10	17.15	73.77	-28.6	-27.8	12.3	1831	75	4491
2026-01-13 04:42:51.50	17.12	73.96	-28.7	-27.9	12.2	2174	75	4519
2026-01-13 04:42:51.91	17.09	74.16	-28.6	-27.8	12.3	2300	75	4493
2026-01-13 04:42:52.31	17.06	74.36	-28.7	-28.0	12.3	2231	75	4540
2026-01-13 04:42:52.71	17.03	74.55	-28.9	-28.5	12.1	2632	75	4668
2026-01-13 04:42:53.11	17.00	74.74	-28.8	-28.3	12.3	2952	75	4644
2026-01-13 04:42:53.51	16.96	74.94	-29.0	-28.6	12.0	2986	75	4691
2026-01-13 04:42:53.92	16.93	75.14	-28.8	-28.2	12.3	2185	75	4610
2026-01-13 04:42:54.32	16.89	75.33	-29.0	-28.6	12.1	2471	75	4711
2026-01-13 04:42:54.72	16.86	75.53	-29.0	-28.6	12.1	4325	75	4712
2026-01-13 04:42:55.12	16.82	75.72	-29.0	-28.7	12.0	3799	75	4733
2026-01-13 04:42:55.52	16.78	75.92	-29.0	-28.6	12.1	3295	75	4710
2026-01-13 04:42:55.93	16.74	76.12	-29.0	-28.5	12.1	3135	75	4689
2026-01-13 04:42:56.33	16.70	76.32	-29.0	-28.7	12.2	3192	75	4759
2026-01-13 04:42:56.73	16.66	76.51	-28.8	-28.2	12.5	1876	75	4617
2026-01-13 04:42:57.13	16.62	76.71	-28.8	-28.3	12.5	1373	75	4635
2026-01-13 04:42:57.53	16.57	76.91	-28.7	-28.2	12.8	698	75	4620
2026-01-13 04:42:57.93	16.53	77.11	-28.6	-28.0	12.8	686	75	4593
2026-01-13 04:42:58.34	16.48	77.31	-28.7	-28.0	12.8	961	75	4557
2026-01-13 04:42:58.74	16.43	77.51	-28.9	-28.5	12.5	984	75	4726
2026-01-13 04:42:59.14	16.38	77.71	-28.6	-28.0	12.8	961	75	4582
2026-01-13 04:42:59.54	16.33	77.90	-28.6	-27.9	12.8	926	75	4545
2026-01-13 04:42:59.95	16.27	78.11	-28.7	-28.2	12.6	755	75	4637
2026-01-13 04:43:00.35	16.22	78.31	-28.8	-28.3	12.4	1281	75	4658
2026-01-13 04:43:00.75	16.16	78.51	-28.7	-28.1	12.6	1396	75	4605
2026-01-13 04:43:01.15	16.10	78.71	-28.6	-27.9	12.7	1087	75	4536
2026-01-13 04:43:01.55	16.03	78.91	-28.3	-27.4	12.9	743	75	4406
2026-01-13 04:43:01.95	15.97	79.11	-28.1	-27.3	13.3	297	74	4504
2026-01-13 04:43:02.36	15.90	79.31	-27.9	-27.0	13.4	183	74	4444
2026-01-13 04:43:02.76	15.83	79.51	-27.6	-27.0	13.7	160	73	4559
2026-01-13 04:43:03.16	15.76	79.71	-27.4	-26.4	14.0	45	73	4409
2026-01-13 04:43:03.56	15.68	79.91	-27.4	-26.9	14.0	34	72	4674
2026-01-13 04:43:03.96	15.60	80.11	-27.2	-26.6	14.2	0	72	4594
2026-01-13 04:43:04.37	15.52	80.32	-27.2	-26.5	14.3	11	72	4547
2026-01-13 04:43:04.77	15.43	80.52	-27.3	-26.7	14.2	45	72	4610
2026-01-13 04:43:05.17	15.34	80.72	-27.5	-27.2	14.0	11	72	4756
2026-01-13 04:43:05.57	15.24	80.92	-27.4	-27.0	14.1	11	72	4680
2026-01-13 04:43:05.97	15.14	81.13	-27.6	-27.3	14.0	34	72	4762
2026-01-13 04:43:06.38	15.04	81.33	-27.7	-27.6	13.9	45	72	4865
2026-01-13 04:43:06.78	14.93	81.53	-27.5	-27.2	14.1	22	72	4739
2026-01-13 04:43:07.18	14.81	81.74	-27.6	-27.3	14.0	22	72	4773
2026-01-13 04:43:07.58	14.69	81.94	-27.5	-27.2	14.1	11	72	4748
2026-01-13 04:43:07.98	14.57	82.14	-27.3	-26.9	14.3	0	72	4653
2026-01-13 04:43:08.39	14.43	82.35	-27.3	-26.8	14.3	22	72	4637
2026-01-13 04:43:08.79	14.29	82.55	-27.3	-26.8	14.3	11	72	4626
2026-01-13 04:43:09.19	14.14	82.75	-27.2	-26.5	14.5	22	72	4546
2026-01-13 04:43:09.59	13.98	82.96	-27.2	-26.6	14.4	22	72	4596
2026-01-13 04:43:09.99	13.81	83.16	-26.9	-26.0	14.7	0	72	4416
2026-01-13 04:43:10.40	13.63	83.37	-26.9	-25.9	14.7	0	72	4411
2026-01-13 04:43:10.80	13.44	83.57	-26.9	-25.9	14.8	22	72	4391
2026-01-13 04:43:11.20	13.24	83.78	-27.0	-26.1	14.6	0	72	4445
2026-01-13 04:43:11.60	13.02	83.98	-26.9	-25.9	14.8	11	72	4407
2026-01-13 04:43:12.00	12.79	84.18	-26.9	-25.9	14.8	0	72	4400
2026-01-13 04:43:12.40	12.54	84.39	-27.0	-26.2	14.7	0	72	4477
2026-01-13 04:43:12.81	12.27	84.59	-26.9	-26.0	14.8	0	72	4419
2026-01-13 04:43:13.21	11.98	84.80	-26.7	-26.0	14.9	0	71	4558
2026-01-13 04:43:13.61	11.66	85.00	-26.3	-25.3	15.3	0	71	4389
2026-01-13 04:43:14.01	11.32	85.20	-26.4	-25.4	15.2	0	71	4405
2026-01-13 04:43:14.41	10.95	85.41	-26.4	-25.9	15.4	0	70	4666
2026-01-13 04:43:14.82	10.54	85.62	-26.3	-25.8	15.4	0	70	4631
2026-01-13 04:43:15.22	10.09	85.82	-26.3	-25.7	15.5	0	70	4619
2026-01-13 04:43:15.62	9.60	86.02	-26.5	-26.1	15.3	0	70	4728
2026-01-13 04:43:16.02	9.06	86.22	-26.5	-26.1	15.4	0	70	4722
2026-01-13 04:43:16.42	8.45	86.43	-26.6	-26.4	15.2	11	70	4810
2026-01-13 04:43:16.83	7.76	86.63	-26.7	-26.6	15.1	0	70	4861
2026-01-13 04:43:17.23	6.99	86.83	-26.9	-27.0	14.9	0	70	4989
2026-01-13 04:43:17.63	6.12	87.03	-26.9	-27.0	14.9	0	70	4984
2026-01-13 04:43:18.03	5.12	87.24	-26.9	-27.1	14.9	0	70	5014
2026-01-13 04:43:18.43	3.96	87.43	-26.9	-26.6	14.9	0	71	4733
2026-01-13 04:43:18.84	2.58	87.64	-26.8	-26.4	15.0	11	71	4656
2026-01-13 04:43:19.24	0.97	87.83	-26.9	-26.5	14.9	0	71	4700
2026-01-13 04:43:19.64	359.05	88.03	-26.8	-26.2	15.0	0	71	4576
2026-01-13 04:43:20.04	356.71	88.22	-27.0	-26.6	14.8	0	71	4693
2026-01-13 04:43:20.44	353.82	88.41	-26.9	-26.4	14.9	0	71	4633
2026-01-13 04:43:20.85	350.05	88.60	-26.9	-26.3	15.0	0	71	4625
2026-01-13 04:43:21.25	345.29	88.77	-26.9	-26.4	14.9	0	71	4647
2026-01-13 04:43:21.65	339.00	88.93	-26.9	-26.4	14.9	0	71	4634
2026-01-13 04:43:22.05	330.57	89.08	-27.0	-26.5	14.9	0	71	4667
2026-01-13 04:43:22.45	319.29	89.20	-27.1	-26.8	14.8	0	71	4769
2026-01-13 04:43:22.86	304.43	89.28	-27.1	-26.8	14.9	0	71	4750
2026-01-13 04:43:23.26	287.70	89.31	-27.1	-26.9	14.7	0	71	4821
2026-01-13 04:43:23.66	271.29	89.27	-27.0	-26.6	14.8	0	71	4730
2026-01-13 04:43:24.06	257.45	89.18	-26.9	-26.5	14.9	0	71	4710
2026-01-13 04:43:24.46	246.81	89.05	-27.1	-26.9	14.8	0	71	4805
2026-01-13 04:43:24.87	238.71	88.90	-27.0	-26.6	14.8	0	71	4732
2026-01-13 04:43:25.27	232.82	88.73	-27.1	-26.9	14.7	11	71	4813
2026-01-13 04:43:25.67	228.34	88.55	-27.0	-26.8	14.7	0	71	4790
2026-01-13 04:43:26.07	224.85	88.37	-27.1	-26.9	14.7	0	71	4808
2026-01-13 04:43:26.47	222.08	88.18	-27.0	-26.8	14.7	11	71	4769
2026-01-13 04:43:26.87	219.84	87.99	-27.1	-26.8	14.6	0	71	4793
2026-01-13 04:43:27.28	217.95	87.79	-27.2	-27.2	14.5	0	71	4883
2026-01-13 04:43:27.68	216.41	87.59	-27.4	-27.4	14.3	0	71	4975
2026-01-13 04:43:28.08	215.11	87.39	-27.7	-27.8	14.1	0	72	4925
2026-01-13 04:43:28.48	213.98	87.19	-27.8	-27.8	14.1	45	72	4951
2026-01-13 04:43:28.88	213.01	86.99	-27.9	-28.0	14.0	34	72	5014
2026-01-13 04:43:29.29	212.14	86.79	-27.8	-27.8	14.0	11	72	4922
2026-01-13 04:43:29.69	211.40	86.59	-27.7	-27.7	14.1	22	72	4904
2026-01-13 04:43:30.09	210.73	86.38	-27.7	-27.6	14.2	11	72	4860
2026-01-13 04:43:30.49	210.14	86.18	-27.7	-27.7	14.2	11	72	4902
2026-01-13 04:43:30.89	209.61	85.98	-27.5	-27.3	14.3	11	72	4767
2026-01-13 04:43:31.30	209.12	85.77	-27.3	-26.8	14.6	0	72	4638
2026-01-13 04:43:31.70	208.68	85.57	-27.3	-26.9	14.5	11	72	4661
2026-01-13 04:43:32.10	208.28	85.36	-27.5	-27.1	14.3	11	72	4728
2026-01-13 04:43:32.50	207.92	85.16	-27.6	-27.3	14.1	22	72	4786
2026-01-13 04:43:32.90	207.59	84.96	-27.8	-27.8	13.8	22	72	4915
2026-01-13 04:43:33.31	207.27	84.75	-27.9	-27.9	13.7	91	72	4958
2026-01-13 04:43:33.71	206.99	84.55	-27.9	-27.9	13.7	57	72	4933
2026-01-13 04:43:34.11	206.72	84.34	-27.6	-27.4	13.9	68	72	4790
2026-01-13 04:43:34.51	206.48	84.14	-27.5	-27.2	14.1	22	72	4736
2026-01-13 04:43:34.92	206.25	83.93	-27.5	-27.1	14.1	91	72	4714
2026-01-13 04:43:35.32	206.03	83.73	-27.7	-27.5	13.9	11	72	4814
2026-01-13 04:43:35.72	205.83	83.52	-27.8	-27.8	13.7	22	72	4906
2026-01-13 04:43:36.12	205.65	83.32	-27.9	-28.0	13.6	137	72	4960
2026-01-13 04:43:36.52	205.47	83.12	-27.9	-27.4	13.5	125	73	4655
2026-01-13 04:43:36.93	205.30	82.91	-27.8	-27.3	13.5	217	73	4639
2026-01-13 04:43:37.33	205.14	82.70	-27.8	-27.3	13.5	102	73	4625
2026-01-13 04:43:37.73	205.00	82.50	-27.7	-27.0	13.6	80	73	4554
2026-01-13 04:43:38.13	204.86	82.30	-27.7	-27.0	13.5	114	73	4558
2026-01-13 04:43:38.53	204.72	82.10	-27.7	-27.1	13.5	125	73	4581
2026-01-13 04:43:38.94	204.60	81.89	-27.8	-27.3	13.4	194	73	4624
2026-01-13 04:43:39.34	204.48	81.69	-27.8	-27.3	13.4	125	73	4638
2026-01-13 04:43:39.74	204.36	81.48	-27.8	-27.2	13.4	91	73	4610
2026-01-13 04:43:40.14	204.26	81.28	-27.7	-27.1	13.5	148	73	4580
2026-01-13 04:43:40.54	204.15	81.08	-27.6	-26.7	13.6	114	73	4434
2026-01-13 04:43:40.95	204.05	80.87	-27.7	-26.9	13.5	57	73	4508
2026-01-13 04:43:41.35	203.96	80.67	-27.6	-26.7	13.5	125	73	4459
2026-01-13 04:43:41.75	203.87	80.47	-27.7	-26.9	13.5	45	73	4498
2026-01-13 04:43:42.15	203.78	80.27	-27.6	-26.6	13.6	91	73	4432
2026-01-13 04:43:42.55	203.70	80.07	-27.5	-26.5	13.6	91	73	4401
2026-01-13 04:43:42.95	203.62	79.86	-27.4	-26.3	13.7	80	73	4331
2026-01-13 04:43:43.36	203.54	79.66	-27.4	-26.3	13.7	34	73	4347
2026-01-13 04:43:43.76	203.47	79.46	-27.4	-26.7	13.8	102	72	4585
2026-01-13 04:43:44.16	203.40	79.26	-27.3	-26.7	13.8	68	72	4581
2026-01-13 04:43:44.56	203.34	79.06	-27.4	-26.9	13.7	80	72	4636
2026-01-13 04:43:44.96	203.27	78.86	-27.6	-27.2	13.5	114	72	4704
2026-01-13 04:43:45.37	203.21	78.65	-27.7	-27.4	13.4	102	72	4771
2026-01-13 04:43:45.77	203.15	78.45	-27.8	-27.6	13.3	171	72	4813
2026-01-13 04:43:46.17	203.09	78.25	-27.9	-27.5	13.1	423	73	4667
2026-01-13 04:43:46.57	203.03	78.05	-28.2	-27.9	12.9	343	73	4788
2026-01-13 04:43:46.97	202.98	77.85	-28.3	-28.2	12.8	629	73	4875
2026-01-13 04:43:47.38	202.93	77.65	-28.4	-28.5	12.8	549	73	4964
2026-01-13 04:43:47.78	202.88	77.45	-28.4	-28.4	12.8	823	73	4939
2026-01-13 04:43:48.18	202.83	77.25	-28.4	-28.5	12.8	640	73	4970
2026-01-13 04:43:48.58	202.78	77.06	-28.4	-28.4	12.9	423	73	4940
2026-01-13 04:43:48.98	202.73	76.86	-28.3	-28.3	13.0	537	73	4913
2026-01-13 04:43:49.38	202.69	76.66	-28.4	-28.3	12.9	572	73	4908
2026-01-13 04:43:49.79	202.65	76.46	-28.6	-28.4	12.7	503	74	4819
2026-01-13 04:43:50.19	202.61	76.26	-28.6	-28.5	12.7	766	74	4842
2026-01-13 04:43:50.59	202.57	76.07	-28.6	-28.5	12.6	972	74	4839
2026-01-13 04:43:50.99	202.53	75.87	-28.7	-28.6	12.5	1132	74	4889
2026-01-13 04:43:51.39	202.49	75.67	-28.8	-28.8	12.3	1029	74	4947
2026-01-13 04:43:51.80	202.45	75.47	-28.8	-28.8	12.3	1636	74	4925
2026-01-13 04:43:52.20	202.41	75.28	-28.9	-29.0	12.1	2632	74	4980
2026-01-13 04:43:52.60	202.38	75.08	-29.0	-29.2	12.0	3124	74	5044
2026-01-13 04:43:53.00	202.35	74.89	-29.1	-28.9	11.8	4623	75	4806
2026-01-13 04:43:53.40	202.31	74.69	-29.1	-29.0	11.7	4920	75	4839
2026-01-13 04:43:53.81	202.28	74.49	-29.1	-28.9	11.8	5733	75	4819
2026-01-13 04:43:54.21	202.25	74.30	-29.1	-29.0	11.7	5916	75	4840
2026-01-13 04:43:54.61	202.22	74.10	-29.1	-29.0	11.7	6557	75	4830
2026-01-13 04:43:55.01	202.19	73.91	-29.2	-29.1	11.6	7186	75	4853
2026-01-13 04:43:55.41	202.16	73.72	-29.0	-28.7	11.8	6340	75	4759
2026-01-13 04:43:55.82	202.13	73.52	-29.1	-28.8	11.6	6511	75	4756
2026-01-13 04:43:56.22	202.11	73.33	-29.2	-29.0	11.4	9040	75	4795
2026-01-13 04:43:56.62	202.08	73.13	-29.1	-28.8	11.4	10242	75	4751
2026-01-13 04:43:57.02	202.05	72.94	-29.1	-28.8	11.4	10345	75	4748
2026-01-13 04:43:57.42	202.03	72.75	-29.1	-28.7	11.4	10826	75	4730
2026-01-13 04:43:57.83	202.00	72.55	-29.1	-28.8	11.4	11363	75	4764
2026-01-13 04:43:58.23	201.98	72.36	-29.1	-28.9	11.4	9944	75	4785
2026-01-13 04:43:58.63	201.96	72.17	-29.3	-29.2	11.2	12165	75	4888
2026-01-13 04:43:59.03	201.93	71.98	-29.4	-29.5	11.2	14053	75	4997
2026-01-13 04:43:59.43	201.91	71.79	-29.8	-29.8	11.0	16067	76	4959
2026-01-13 04:43:59.84	201.89	71.60	-29.8	-29.9	11.0	19981	76	4960
2026-01-13 04:44:00.24	201.87	71.41	-30.0	-29.7	10.8	20416	77	4764
2026-01-13 04:44:00.64	201.85	71.22	-30.0	-29.7	10.9	24295	77	4787
2026-01-13 04:44:01.04	201.83	71.03	-30.1	-29.9	10.8	26275	77	4837
2026-01-13 04:44:01.44	201.81	70.84	-30.0	-29.7	10.8	28598	77	4776
2026-01-13 04:44:01.85	201.79	70.65	-29.9	-29.6	10.9	33176	77	4725
2026-01-13 04:44:02.25	201.77	70.46	-33.9	-34.8	6.2	27534	84	5503
2026-01-13 04:44:02.65	201.75	70.27	-37.8	-42.0	3.6	8124790	92	8041

#Closed at: 2026-01-13 04:44:02