passes_logs/2026/01/13/XPeterburg/XPeterburg__20260113_192032_FENGYUN_3F_rec.log

#Pass ID: 20260113_192032_FENGYUN 3F
#Satellite: FENGYUN 3F
#Configuration: FENGYUN 3F
#Start time: 2026-01-13 19:20:27

#Version: 1.5.20200625
#Station: XPeterburg
#Location: 30.318091 lon 59.932769 lat
#TLE: 1 57490U 23111A   26011.96235235  .00000064  00000+0  50583-4 0  9992
#TLE: 2 57490  98.7038  84.7621 0001189 116.6105 243.5193 14.19902966126697

#Time	Az	El	Level	Level2	SNR	BER	Gain	Gain2
2026-01-13 19:20:27.15	189.82	67.70	-38.9	-41.3	3.3	8383861	95	6503
2026-01-13 19:20:27.55	190.06	67.86	-38.7	-42.2	3.5	8439765	94	7404
2026-01-13 19:20:27.95	190.30	68.03	-38.7	-41.4	3.3	8395145	94	6715
2026-01-13 19:20:28.35	190.54	68.19	-38.7	-42.6	3.6	8446781	94	7700
2026-01-13 19:20:28.75	190.79	68.35	-38.7	-41.3	3.3	8425529	94	6673
2026-01-13 19:20:29.16	191.05	68.51	-38.7	-42.8	3.6	8402011	94	7880
2026-01-13 19:20:29.56	191.30	68.67	-38.7	-41.3	3.3	8402435	94	6645
2026-01-13 19:20:29.96	191.56	68.84	-38.7	-42.8	3.6	8410503	94	7898
2026-01-13 19:20:30.36	191.83	69.00	-39.0	-41.4	3.3	8394985	95	6478
2026-01-13 19:20:30.76	192.09	69.16	-38.9	-42.6	3.6	8382579	95	7590
2026-01-13 19:20:31.17	192.37	69.32	-38.8	-41.4	3.3	8381938	95	6601
2026-01-13 19:20:31.57	192.65	69.48	-38.8	-41.8	3.6	8386299	96	7011
2026-01-13 19:20:31.97	192.93	69.64	-38.7	-41.2	3.4	8438964	95	6563
2026-01-13 19:20:32.37	193.22	69.80	-38.6	-40.3	3.3	8394275	95	5976
2026-01-13 19:20:32.77	193.51	69.96	-38.6	-40.8	3.4	8441974	95	6331
2026-01-13 19:20:33.17	193.81	70.12	-38.5	-40.1	3.3	8397068	95	5897
2026-01-13 19:20:33.58	194.12	70.29	-38.6	-41.2	3.5	8401405	95	6630
2026-01-13 19:20:33.98	194.42	70.45	-38.5	-39.9	3.3	8421054	95	5773
2026-01-13 19:20:34.38	194.74	70.60	-38.5	-41.3	3.6	8357837	95	6785
2026-01-13 19:20:34.78	195.05	70.76	-38.5	-39.9	3.3	8409141	95	5755
2026-01-13 19:20:35.18	195.38	70.92	-38.5	-41.2	3.6	8438381	95	6729
2026-01-13 19:20:35.59	195.72	71.08	-38.5	-39.7	3.3	8424156	95	5645
2026-01-13 19:20:35.99	196.05	71.24	-38.6	-41.3	3.6	8396987	95	6755
2026-01-13 19:20:36.39	196.39	71.40	-38.5	-39.7	3.3	8424030	95	5678
2026-01-13 19:20:36.79	196.74	71.55	-38.4	-40.8	3.6	8412220	95	6516
2026-01-13 19:20:37.19	197.09	71.71	-38.4	-39.5	3.3	8406921	95	5575
2026-01-13 19:20:37.60	197.46	71.87	-38.3	-40.7	3.6	8382923	95	6458
2026-01-13 19:20:38.00	197.83	72.03	-38.3	-39.4	3.4	8433208	95	5570
2026-01-13 19:20:38.40	198.20	72.18	-38.0	-40.6	3.6	8388519	94	6625
2026-01-13 19:20:38.80	198.58	72.34	-38.1	-39.6	3.4	8420288	94	5862
2026-01-13 19:20:39.20	198.97	72.49	-38.1	-40.7	3.6	8391014	94	6639
2026-01-13 19:20:39.60	199.37	72.64	-38.0	-39.4	3.4	8437133	94	5821
2026-01-13 19:20:40.01	199.78	72.80	-37.8	-38.6	3.4	8386344	94	5378
2026-01-13 19:20:40.41	200.19	72.95	-38.0	-39.5	3.6	8425563	94	5907
2026-01-13 19:20:40.81	200.60	73.10	-37.9	-38.8	3.4	8388679	94	5460
2026-01-13 19:20:41.21	201.03	73.26	-37.8	-39.2	3.7	8415779	94	5792
2026-01-13 19:20:41.61	201.46	73.41	-37.8	-38.3	3.5	8383380	94	5238
2026-01-13 19:20:42.02	201.92	73.56	-37.8	-39.3	3.8	8426902	94	5906
2026-01-13 19:20:42.42	202.37	73.71	-37.9	-38.4	3.5	8382797	94	5252
2026-01-13 19:20:42.82	202.83	73.86	-37.8	-39.8	3.6	8398796	94	6146
2026-01-13 19:20:43.22	203.29	74.00	-38.1	-39.0	3.4	8386070	94	5463
2026-01-13 19:20:43.63	203.78	74.15	-38.4	-41.4	3.6	8412059	94	6972
2026-01-13 19:20:44.03	204.27	74.30	-38.5	-40.5	3.3	8409244	94	6180
2026-01-13 19:20:44.43	204.76	74.44	-38.4	-41.4	3.6	8394596	94	6972
2026-01-13 19:20:44.83	205.27	74.59	-38.5	-39.7	3.4	8379890	95	5599
2026-01-13 19:20:45.23	205.78	74.73	-38.3	-40.3	3.6	8393085	95	6193
2026-01-13 19:20:45.63	206.31	74.87	-38.0	-39.0	3.5	8416374	94	5525
2026-01-13 19:20:46.04	206.86	75.01	-38.0	-40.2	3.6	8384960	94	6308
2026-01-13 19:20:46.44	207.40	75.15	-37.9	-38.8	3.6	8429809	94	5429
2026-01-13 19:20:46.84	207.96	75.29	-37.8	-38.4	3.5	8387020	93	5239
2026-01-13 19:20:47.24	208.53	75.43	-37.7	-38.7	3.7	8412975	93	5498
2026-01-13 19:20:47.64	209.11	75.56	-37.7	-38.0	3.6	8357700	93	5122
2026-01-13 19:20:48.05	209.71	75.70	-37.8	-38.9	3.7	8410388	93	5620
2026-01-13 19:20:48.45	210.31	75.83	-37.8	-38.4	3.6	8388645	93	5283
2026-01-13 19:20:48.85	210.93	75.97	-37.8	-39.1	3.8	8416442	93	5759
2026-01-13 19:20:49.25	211.55	76.10	-37.8	-38.5	3.6	8370483	93	5308
2026-01-13 19:20:49.66	212.21	76.23	-38.0	-40.2	3.7	8428024	93	6351
2026-01-13 19:20:50.06	212.86	76.35	-38.1	-39.5	3.5	8409404	93	5760
2026-01-13 19:20:50.46	213.52	76.48	-38.1	-40.8	3.6	8409152	93	6696
2026-01-13 19:20:50.86	214.19	76.60	-38.0	-39.0	3.5	8379375	93	5565
2026-01-13 19:20:51.26	214.88	76.72	-38.0	-40.6	3.6	8417518	93	6620
2026-01-13 19:20:51.67	215.60	76.85	-38.2	-39.7	3.5	8420677	93	5890
2026-01-13 19:20:52.07	216.31	76.97	-38.3	-41.4	3.6	8381996	93	7002
2026-01-13 19:20:52.47	217.04	77.08	-38.4	-40.5	3.4	8427864	93	6208
2026-01-13 19:20:52.87	217.78	77.20	-38.3	-41.3	3.6	8400386	93	6962
2026-01-13 19:20:53.27	218.54	77.31	-38.0	-39.3	3.6	8422634	93	5688
2026-01-13 19:20:53.68	219.33	77.42	-38.0	-40.5	3.7	8375438	93	6519
2026-01-13 19:20:54.08	220.11	77.53	-38.0	-39.6	3.6	8423870	93	5878
2026-01-13 19:20:54.48	220.90	77.64	-38.3	-39.9	3.5	8374111	93	5959
2026-01-13 19:20:54.88	221.71	77.74	-38.3	-40.7	3.6	8438472	93	6523
2026-01-13 19:20:55.28	222.54	77.84	-38.3	-40.1	3.4	8393749	93	6039
2026-01-13 19:20:55.68	223.38	77.94	-38.3	-40.8	3.6	8430908	93	6605
2026-01-13 19:20:56.09	224.25	78.04	-38.3	-40.3	3.5	8390384	93	6134
2026-01-13 19:20:56.49	225.12	78.13	-38.3	-41.1	3.7	8392971	93	6842
2026-01-13 19:20:56.89	226.00	78.22	-38.3	-40.1	3.5	8392696	93	6071
2026-01-13 19:20:57.29	226.89	78.31	-38.3	-41.4	3.6	8410102	93	7037
2026-01-13 19:20:57.69	227.80	78.39	-38.1	-39.3	3.6	8378665	93	5695
2026-01-13 19:20:58.10	228.74	78.48	-38.1	-40.8	3.7	8414554	93	6703
2026-01-13 19:20:58.50	229.68	78.56	-38.0	-38.9	3.7	8377098	93	5494
2026-01-13 19:20:58.90	230.63	78.64	-37.6	-37.9	3.9	8337055	93	5104
2026-01-13 19:20:59.30	231.59	78.71	-37.4	-37.3	4.1	8235202	93	4908
2026-01-13 19:20:59.70	232.56	78.78	-37.5	-37.7	4.0	8250514	93	5024
2026-01-13 19:21:00.11	233.57	78.85	-37.7	-38.1	3.9	8324707	93	5190
2026-01-13 19:21:00.51	234.57	78.91	-37.6	-38.0	3.9	8312152	93	5142
2026-01-13 19:21:00.91	235.58	78.97	-37.7	-38.2	3.9	8294780	93	5216
2026-01-13 19:21:01.31	236.60	79.03	-37.8	-39.9	3.7	8339160	93	6301
2026-01-13 19:21:01.71	237.63	79.08	-38.1	-39.4	3.6	8374328	93	5776
2026-01-13 19:21:02.11	238.67	79.14	-37.8	-38.7	3.7	8352378	93	5458
2026-01-13 19:21:02.52	239.75	79.18	-37.8	-38.4	3.8	8342651	93	5316
2026-01-13 19:21:02.92	240.81	79.23	-38.0	-40.4	3.7	8362289	93	6533
2026-01-13 19:21:03.32	241.88	79.27	-38.2	-39.9	3.5	8386997	93	5925
2026-01-13 19:21:03.72	242.95	79.30	-38.1	-40.8	3.7	8377876	93	6704
2026-01-13 19:21:04.12	244.03	79.33	-38.1	-39.6	3.6	8404895	93	5829
2026-01-13 19:21:04.53	245.15	79.36	-38.2	-41.1	3.7	8383277	93	6853
2026-01-13 19:21:04.93	246.24	79.39	-38.2	-40.0	3.6	8399654	93	6028
2026-01-13 19:21:05.33	247.34	79.41	-38.4	-41.7	3.6	8380554	93	7177
2026-01-13 19:21:05.73	248.45	79.43	-38.3	-40.5	3.6	8421421	93	6280
2026-01-13 19:21:06.13	249.55	79.44	-38.4	-40.4	3.5	8379283	93	6193
2026-01-13 19:21:06.54	250.69	79.45	-38.5	-40.8	3.5	8434673	94	6412
2026-01-13 19:21:06.94	251.80	79.45	-38.3	-39.6	3.5	8397880	94	5701
2026-01-13 19:21:07.34	252.91	79.46	-38.3	-40.3	3.7	8426158	94	6234
2026-01-13 19:21:07.74	254.03	79.45	-38.2	-39.2	3.5	8389984	94	5533
2026-01-13 19:21:08.14	255.14	79.45	-37.9	-39.4	3.9	8420402	94	5851
2026-01-13 19:21:08.55	256.27	79.44	-38.0	-38.7	3.6	8354232	94	5344
2026-01-13 19:21:08.95	257.38	79.42	-38.4	-39.6	3.5	8378482	94	5705
2026-01-13 19:21:09.35	258.48	79.40	-38.5	-41.7	3.6	8383850	94	7052
2026-01-13 19:21:09.75	259.58	79.38	-38.6	-40.8	3.4	8427028	94	6342
2026-01-13 19:21:10.15	260.67	79.36	-38.5	-41.7	3.6	8373458	94	7062
2026-01-13 19:21:10.56	261.79	79.33	-38.5	-40.4	3.5	8427120	94	6151
2026-01-13 19:21:10.96	262.87	79.29	-38.5	-40.2	3.4	8389194	94	5990
2026-01-13 19:21:11.36	263.94	79.26	-38.7	-41.5	3.5	8451953	94	6782
2026-01-13 19:21:11.76	265.01	79.22	-38.6	-40.7	3.4	8385520	94	6216
2026-01-13 19:21:12.16	266.06	79.17	-38.5	-41.3	3.5	8435874	94	6762
2026-01-13 19:21:12.57	267.14	79.12	-38.3	-39.7	3.5	8401531	94	5777
2026-01-13 19:21:12.97	268.18	79.07	-38.3	-40.6	3.7	8402320	94	6477
2026-01-13 19:21:13.37	269.21	79.02	-38.3	-39.7	3.5	8386642	94	5782
2026-01-13 19:21:13.77	270.22	78.96	-38.3	-40.9	3.6	8425792	94	6697
2026-01-13 19:21:14.17	271.23	78.90	-38.4	-39.9	3.5	8405960	94	5882
2026-01-13 19:21:14.58	272.25	78.83	-38.5	-41.6	3.6	8387844	94	7061
2026-01-13 19:21:14.98	273.23	78.76	-38.4	-40.0	3.4	8416797	94	5895
2026-01-13 19:21:15.38	274.20	78.69	-38.5	-41.6	3.6	8417633	94	7032
2026-01-13 19:21:15.78	275.16	78.62	-38.6	-40.8	3.4	8429088	94	6320
2026-01-13 19:21:16.18	276.10	78.54	-38.6	-42.1	3.6	8389995	94	7343
2026-01-13 19:21:16.58	277.03	78.46	-38.6	-40.7	3.4	8444721	94	6283
2026-01-13 19:21:16.99	277.97	78.37	-38.7	-42.4	3.6	8394527	94	7508
2026-01-13 19:21:17.39	278.88	78.29	-39.1	-41.7	3.4	8376022	95	6678
2026-01-13 19:21:17.79	279.77	78.20	-39.1	-41.3	3.3	8397811	95	6369
2026-01-13 19:21:18.19	280.64	78.11	-38.9	-41.5	3.5	8436275	95	6598
2026-01-13 19:21:18.60	281.53	78.01	-39.0	-41.0	3.3	8394275	95	6197
2026-01-13 19:21:19.00	282.38	77.91	-39.1	-42.1	3.4	8447845	95	6939
2026-01-13 19:21:19.40	283.21	77.82	-39.2	-41.7	3.3	8389560	95	6546
2026-01-13 19:21:19.80	284.03	77.71	-38.9	-41.6	3.5	8437717	95	6710
2026-01-13 19:21:20.20	284.84	77.61	-38.9	-40.5	3.3	8404747	95	5950
2026-01-13 19:21:20.60	285.63	77.50	-38.7	-41.2	3.6	8425128	95	6543
2026-01-13 19:21:21.01	286.43	77.39	-39.0	-40.7	3.3	8380828	95	5996
2026-01-13 19:21:21.41	287.19	77.28	-39.0	-42.2	3.6	8399059	95	7125
2026-01-13 19:21:21.81	287.94	77.17	-39.0	-40.8	3.3	8400821	95	6070
2026-01-13 19:21:22.21	288.68	77.05	-39.1	-42.1	3.6	8351303	96	6963
2026-01-13 19:21:22.62	289.42	76.94	-39.2	-40.9	3.3	8421501	96	6015
2026-01-13 19:21:23.02	290.13	76.82	-39.2	-42.4	3.6	8385669	96	7134
2026-01-13 19:21:23.42	290.83	76.70	-39.2	-41.0	3.3	8444423	96	6047
2026-01-13 19:21:23.82	291.51	76.57	-39.1	-42.0	3.6	8400592	96	6865
2026-01-13 19:21:24.22	292.18	76.45	-38.9	-40.1	3.4	8368652	96	5689
2026-01-13 19:21:24.62	292.84	76.32	-38.9	-41.4	3.6	8384342	96	6533
2026-01-13 19:21:25.03	293.51	76.19	-39.0	-40.7	3.4	8446941	96	6021
2026-01-13 19:21:25.43	294.14	76.07	-39.1	-40.6	3.3	8393177	96	5841
2026-01-13 19:21:25.83	294.76	75.94	-39.0	-41.1	3.4	8447628	96	6269
2026-01-13 19:21:26.23	295.37	75.80	-39.1	-40.9	3.3	8396232	96	5993
2026-01-13 19:21:26.63	295.97	75.67	-39.2	-42.0	3.5	8430770	96	6804
2026-01-13 19:21:27.04	296.57	75.53	-39.3	-41.5	3.3	8394985	96	6310
2026-01-13 19:21:27.44	297.15	75.40	-39.3	-42.8	3.6	8437362	96	7311
2026-01-13 19:21:27.84	297.71	75.26	-39.3	-41.4	3.3	8396930	96	6295
2026-01-13 19:21:28.24	298.27	75.12	-39.2	-42.7	3.6	8399105	96	7352
2026-01-13 19:21:28.64	298.81	74.98	-39.1	-41.0	3.3	8407894	96	6148
2026-01-13 19:21:29.04	299.34	74.84	-39.0	-42.2	3.6	8413261	96	7108
2026-01-13 19:21:29.45	299.88	74.70	-38.9	-40.6	3.3	8401748	96	5953
2026-01-13 19:21:29.85	300.39	74.56	-38.9	-41.8	3.6	8429992	96	6896
2026-01-13 19:21:30.25	300.89	74.41	-38.7	-40.2	3.3	8429260	95	5877
2026-01-13 19:21:30.65	301.39	74.27	-38.8	-41.9	3.6	8383872	95	7063
2026-01-13 19:21:31.05	301.87	74.12	-38.9	-40.9	3.3	8409622	95	6245
2026-01-13 19:21:31.46	302.36	73.97	-38.9	-42.5	3.6	8408248	95	7445
2026-01-13 19:21:31.86	302.82	73.83	-38.9	-41.2	3.4	8444709	95	6404
2026-01-13 19:21:32.26	303.28	73.68	-38.8	-42.2	3.6	8384971	95	7220
2026-01-13 19:21:32.66	303.72	73.53	-38.7	-40.8	3.4	8436172	95	6242
2026-01-13 19:21:33.06	304.16	73.38	-38.7	-40.3	3.3	8396656	95	5897
2026-01-13 19:21:33.47	304.61	73.23	-38.5	-40.1	3.5	8428596	95	5943
2026-01-13 19:21:33.87	305.03	73.07	-38.4	-39.3	3.4	8400753	95	5455
2026-01-13 19:21:34.27	305.45	72.92	-38.6	-40.8	3.5	8435279	95	6326
2026-01-13 19:21:34.67	305.85	72.77	-38.7	-40.2	3.3	8394721	95	5848
2026-01-13 19:21:35.07	306.25	72.62	-38.6	-41.0	3.6	8439479	95	6526
2026-01-13 19:21:35.48	306.66	72.46	-38.5	-39.6	3.3	8411956	95	5594
2026-01-13 19:21:35.88	307.04	72.31	-38.4	-40.8	3.6	8418445	95	6487
2026-01-13 19:21:36.28	307.42	72.15	-38.4	-39.2	3.4	8402629	95	5420
2026-01-13 19:21:36.68	307.79	72.00	-38.3	-40.6	3.6	8418262	95	6370
2026-01-13 19:21:37.08	308.16	71.84	-37.9	-38.7	3.5	8433689	94	5390
2026-01-13 19:21:37.49	308.52	71.68	-37.9	-40.2	3.6	8376594	94	6380
2026-01-13 19:21:37.89	308.88	71.53	-37.8	-39.1	3.6	8406681	93	5696
2026-01-13 19:21:38.29	309.22	71.37	-37.8	-40.2	3.6	8360939	93	6520
2026-01-13 19:21:38.69	309.56	71.21	-37.8	-39.1	3.6	8414806	93	5738
2026-01-13 19:21:39.09	309.89	71.05	-37.8	-40.3	3.6	8366695	93	6573
2026-01-13 19:21:39.50	310.23	70.89	-37.9	-39.3	3.6	8436698	93	5819
2026-01-13 19:21:39.90	310.55	70.74	-37.8	-40.3	3.7	8384983	93	6533
2026-01-13 19:21:40.30	310.87	70.58	-37.9	-39.4	3.6	8408809	93	5857
2026-01-13 19:21:40.70	311.18	70.42	-38.4	-40.5	3.3	8386470	94	6275

#Closed at: 2026-01-13 19:21:41