passes_logs/2026/01/06/R2M6_AANII_01/R2M6_AANII_01__20260106_150344_FENGYUN_3E_rec.log

#Pass ID: 20260106_150344_FENGYUN 3E
#Satellite: FENGYUN 3E
#Configuration: FENGYUN 3E
#almurnet v.1.7.20240730
#Start time: 2026-01-06 15:03:46

#Version: 2.2.20231116
#Station: R2M6_AANII_01
#Location: 30.233357 lon 59.946436 lat
#TLE: 1 49008U 21062A   26005.63346808  .00000216  00000+0  12264-3 0  9999
#TLE: 2 49008  98.7472  10.8714 0001569 158.0856 202.0387 14.19884439233512

#Time	Az	El	Level	Level2	SNR	BER	BlckErr	Temp	State	Recorded	gain1	gain2
2026-01-06 15:03:46.26	174.69	7.10	-26.9	-29.0	5.6	7.62e-01	0	41	0	0	13	4601
2026-01-06 15:03:49.27	174.78	7.34	-28.3	-30.8	9.7	1.30e-02	0	41	102	1048576	16	4837
2026-01-06 15:03:52.29	174.87	7.57	-26.8	-28.2	11.8	5.06e-04	0	41	102	1048576	14	4258
2026-01-06 15:03:55.30	174.97	7.80	-25.5	-26.3	13.6	1.02e-05	0	42	102	1048576	12	3938
2026-01-06 15:03:58.32	175.07	8.04	-25.3	-26.3	13.9	1.10e-06	0	42	102	1048576	11	4051
2026-01-06 15:04:01.34	175.17	8.28	-25.5	-26.8	13.7	1.02e-05	0	42	102	1048576	11	4167
2026-01-06 15:04:04.35	175.27	8.53	-25.2	-26.0	14.2	1.10e-06	0	42	102	1048576	11	3955
2026-01-06 15:04:07.37	175.37	8.77	-25.1	-25.8	14.3	1.10e-06	0	42	102	1048576	11	3899
2026-01-06 15:04:10.39	175.47	9.02	-25.2	-26.5	14.3	2.20e-06	0	42	102	1048576	10	4184
2026-01-06 15:04:13.41	175.58	9.27	-25.0	-26.0	14.5	0.00e+00	0	42	102	1048576	10	4075
2026-01-06 15:04:16.43	175.69	9.52	-25.3	-26.8	14.1	2.20e-06	0	42	102	1048576	10	4259
2026-01-06 15:04:19.45	175.79	9.77	-25.1	-26.2	14.4	1.10e-06	0	42	102	1048576	10	4123
2026-01-06 15:04:22.46	175.90	10.03	-25.1	-26.5	14.4	2.20e-06	0	42	102	1048576	10	4187
2026-01-06 15:04:25.48	176.02	10.29	-25.0	-26.2	14.5	1.10e-06	0	42	102	1048576	10	4106
2026-01-06 15:04:28.50	176.13	10.55	-25.2	-26.5	14.3	0.00e+00	0	42	102	1048576	10	4194
2026-01-06 15:04:31.52	176.25	10.82	-25.0	-26.1	14.5	0.00e+00	0	43	102	1048576	10	4100
2026-01-06 15:04:34.54	176.37	11.09	-24.7	-25.5	14.9	0.00e+00	0	43	102	1048576	10	3943
2026-01-06 15:04:37.55	176.48	11.36	-24.6	-25.3	15.0	0.00e+00	0	43	102	1048576	10	3895
2026-01-06 15:04:40.58	176.61	11.63	-24.7	-25.4	14.9	3.40e-06	0	42	102	1048576	10	3915
2026-01-06 15:04:43.60	176.73	11.91	-24.8	-25.6	14.8	0.00e+00	0	43	102	1048576	10	3970
2026-01-06 15:04:46.62	176.86	12.19	-24.8	-25.7	14.8	5.70e-06	0	43	102	1048576	10	3998
2026-01-06 15:04:49.64	176.99	12.47	-24.7	-25.5	14.9	1.14e-05	0	43	102	1048576	10	3940
2026-01-06 15:04:52.65	177.12	12.76	-24.7	-25.5	14.9	1.25e-05	0	43	102	1048576	10	3953
2026-01-06 15:04:55.67	177.25	13.05	-24.6	-25.9	14.9	0.00e+00	0	43	102	1048576	9	4151
2026-01-06 15:04:58.70	177.39	13.34	-24.2	-25.0	15.4	0.00e+00	0	43	102	1048576	9	3943
2026-01-06 15:05:01.71	177.52	13.64	-24.2	-25.0	15.4	0.00e+00	0	43	102	1048576	9	3938
2026-01-06 15:05:04.73	177.67	13.94	-24.3	-25.1	15.3	0.00e+00	0	43	102	1048576	9	3971
2026-01-06 15:05:07.75	177.81	14.24	-24.3	-25.2	15.3	0.00e+00	0	43	102	1048576	9	3983
2026-01-06 15:05:10.77	177.96	14.55	-24.3	-25.2	15.3	0.00e+00	0	43	102	1048576	9	3984
2026-01-06 15:05:13.79	178.10	14.86	-24.1	-24.8	15.5	0.00e+00	0	43	102	1048576	9	3888
2026-01-06 15:05:16.82	178.26	15.17	-23.9	-24.9	15.7	0.00e+00	0	43	102	1048576	8	4044
2026-01-06 15:05:19.84	178.41	15.49	-23.9	-24.9	15.7	0.00e+00	0	43	102	1048576	8	4027
2026-01-06 15:05:22.86	178.57	15.82	-23.8	-24.6	15.8	0.00e+00	0	43	102	1048576	8	3972
2026-01-06 15:05:25.88	178.73	16.14	-23.7	-24.4	16.0	0.00e+00	0	43	102	1048576	8	3900
2026-01-06 15:05:28.89	178.90	16.47	-23.8	-24.7	15.8	0.00e+00	0	43	102	1048576	8	3990
2026-01-06 15:05:31.92	179.07	16.81	-23.3	-24.0	16.4	0.00e+00	0	43	102	1048576	7	3902
2026-01-06 15:05:34.93	179.24	17.15	-23.4	-24.2	16.3	0.00e+00	0	43	102	1048576	7	3967
2026-01-06 15:05:37.94	179.41	17.49	-23.4	-24.2	16.3	0.00e+00	0	43	102	1048576	7	3971
2026-01-06 15:05:40.96	179.59	17.84	-23.2	-23.9	16.5	0.00e+00	0	43	102	1048576	7	3886
2026-01-06 15:05:43.99	179.78	18.20	-23.0	-23.5	16.7	0.00e+00	0	43	102	1048576	7	3810
2026-01-06 15:05:47.00	179.96	18.56	-23.2	-23.8	16.5	0.00e+00	0	43	102	1048576	7	3879
2026-01-06 15:05:50.01	180.15	18.92	-22.9	-23.7	16.9	0.00e+00	0	43	102	1048576	6	3950
2026-01-06 15:05:53.03	180.35	19.29	-22.9	-23.7	16.9	0.00e+00	0	43	102	1048576	6	3950
2026-01-06 15:05:56.06	180.55	19.66	-22.8	-23.6	16.9	0.00e+00	0	43	102	1048576	6	3948
2026-01-06 15:05:59.08	180.76	20.04	-22.9	-23.8	16.8	0.00e+00	0	43	102	1048576	6	3987
2026-01-06 15:06:02.10	180.97	20.43	-23.2	-24.4	16.5	0.00e+00	0	43	102	1048576	6	4144
2026-01-06 15:06:05.12	181.18	20.82	-23.0	-24.1	16.7	0.00e+00	0	43	102	1048576	6	4060
2026-01-06 15:06:08.14	181.41	21.22	-22.9	-23.9	16.9	0.00e+00	0	43	102	1048576	6	4002
2026-01-06 15:06:11.16	181.63	21.62	-22.8	-23.5	17.1	0.00e+00	0	43	102	1048576	6	3897
2026-01-06 15:06:14.18	181.86	22.03	-22.6	-23.1	17.3	0.00e+00	0	43	102	1048576	6	3804
2026-01-06 15:06:17.20	182.10	22.44	-22.5	-22.8	17.5	0.00e+00	0	43	102	1048576	6	3717
2026-01-06 15:06:20.22	182.35	22.87	-22.5	-22.8	17.5	0.00e+00	0	43	102	1048576	6	3725
2026-01-06 15:06:23.23	182.60	23.29	-22.5	-22.8	17.5	0.00e+00	0	44	102	1048576	6	3714
2026-01-06 15:06:26.26	182.85	23.73	-22.6	-23.4	17.4	0.00e+00	0	44	102	1048576	5	3984
2026-01-06 15:06:29.27	183.12	24.17	-22.7	-23.8	17.2	0.00e+00	0	44	102	1048576	5	4081
2026-01-06 15:06:32.29	183.39	24.62	-22.7	-23.9	17.2	0.00e+00	0	44	102	1048576	5	4110
2026-01-06 15:06:35.31	183.67	25.07	-22.5	-23.4	17.4	0.00e+00	0	43	102	1048576	5	3980
2026-01-06 15:06:38.33	183.96	25.53	-22.3	-23.0	17.6	0.00e+00	0	43	102	1048576	5	3883
2026-01-06 15:06:41.35	184.25	26.00	-22.0	-22.9	17.9	0.00e+00	0	44	102	1048576	4	3960
2026-01-06 15:06:44.37	184.56	26.48	-21.9	-22.6	18.1	0.00e+00	0	44	102	1048576	4	3888
2026-01-06 15:06:47.39	184.87	26.97	-21.6	-22.0	18.4	0.00e+00	0	43	102	1048576	4	3752
2026-01-06 15:06:50.41	185.19	27.46	-21.8	-22.5	18.1	0.00e+00	0	44	102	1048576	4	3867
2026-01-06 15:06:53.43	185.52	27.96	-21.9	-22.6	18.1	0.00e+00	0	44	102	1048576	4	3898
2026-01-06 15:06:56.45	185.86	28.47	-21.9	-22.6	18.1	0.00e+00	0	44	102	1048576	4	3894
2026-01-06 15:06:59.47	186.22	28.99	-21.9	-22.6	18.1	0.00e+00	0	44	102	1048576	4	3895
2026-01-06 15:07:02.49	186.58	29.52	-21.9	-22.6	18.2	0.00e+00	0	43	102	1048576	4	3885
2026-01-06 15:07:05.51	186.96	30.05	-21.8	-22.4	18.3	0.00e+00	0	44	102	1048576	4	3841
2026-01-06 15:07:08.53	187.35	30.60	-21.9	-22.5	18.3	0.00e+00	0	43	102	1048576	4	3868
2026-01-06 15:07:11.55	187.75	31.15	-21.9	-22.6	18.2	0.00e+00	0	43	102	1048576	4	3880
2026-01-06 15:07:14.57	188.16	31.71	-22.0	-22.7	18.2	0.00e+00	0	44	102	1048576	4	3902
2026-01-06 15:07:17.60	188.60	32.29	-21.8	-22.4	18.3	0.00e+00	0	44	102	1048576	4	3842
2026-01-06 15:07:20.61	189.04	32.87	-21.9	-22.6	18.2	0.00e+00	0	44	102	1048576	4	3903
2026-01-06 15:07:23.63	189.50	33.46	-21.7	-22.2	18.3	0.00e+00	0	44	102	1048576	4	3823
2026-01-06 15:07:26.66	189.98	34.06	-21.9	-22.6	18.2	0.00e+00	0	44	102	1048576	4	3906
2026-01-06 15:07:29.68	190.47	34.67	-22.2	-23.3	17.9	0.00e+00	0	43	102	1048576	4	4075
2026-01-06 15:07:32.70	190.99	35.29	-22.5	-23.4	17.4	0.00e+00	0	43	102	1048576	5	3997
2026-01-06 15:07:35.71	191.52	35.92	-22.3	-23.0	17.8	0.00e+00	0	44	102	1048576	5	3882
2026-01-06 15:07:38.73	192.07	36.56	-22.1	-22.9	18.0	0.00e+00	0	44	102	1048576	4	3973
2026-01-06 15:07:41.74	192.65	37.20	-22.1	-23.0	18.0	0.00e+00	0	43	102	1048576	4	3999
2026-01-06 15:07:44.76	193.24	37.86	-22.5	-22.8	18.7	0.00e+00	0	43	102	1048576	5	3701
2026-01-06 15:07:47.79	193.87	38.53	-22.8	-23.3	18.4	0.00e+00	0	44	102	1048576	5	3812
2026-01-06 15:07:50.80	194.51	39.21	-22.7	-23.1	18.5	0.00e+00	0	44	102	1048576	5	3768
2026-01-06 15:07:53.83	195.19	39.89	-23.0	-23.8	18.1	0.00e+00	0	44	102	1048576	5	3944
2026-01-06 15:07:56.85	195.90	40.59	-22.9	-23.1	18.3	0.00e+00	0	44	102	1048576	6	3665
2026-01-06 15:07:59.87	196.63	41.30	-22.8	-23.3	18.5	0.00e+00	0	44	102	1048576	5	3817
2026-01-06 15:08:02.89	197.40	42.01	-22.9	-23.5	18.4	0.00e+00	0	43	102	1048576	5	3864
2026-01-06 15:08:05.91	198.20	42.73	-23.2	-23.6	18.1	1.10e-06	0	44	102	1048576	6	3780
2026-01-06 15:08:08.92	199.03	43.46	-22.9	-23.0	18.4	0.00e+00	0	44	102	1048576	6	3643
2026-01-06 15:08:11.93	199.91	44.19	-23.4	-24.0	17.9	0.00e+00	0	44	102	1048576	6	3873
2026-01-06 15:08:14.95	200.82	44.93	-22.7	-22.7	18.6	0.00e+00	0	44	102	1048576	6	3568
2026-01-06 15:08:17.97	201.79	45.68	-23.1	-23.4	18.2	0.00e+00	0	44	102	1048576	6	3744
2026-01-06 15:08:20.99	202.79	46.43	-23.0	-23.3	18.3	0.00e+00	0	44	102	1048576	6	3707
2026-01-06 15:08:24.00	203.84	47.19	-23.1	-23.5	18.2	0.00e+00	0	44	102	1048576	6	3759
2026-01-06 15:08:27.02	204.95	47.95	-23.8	-24.5	17.4	0.00e+00	0	44	102	1048576	7	3881
2026-01-06 15:08:30.05	206.12	48.71	-24.2	-24.7	17.1	0.00e+00	0	44	102	1048576	8	3841
2026-01-06 15:08:33.05	207.33	49.47	-24.2	-24.9	17.1	1.10e-06	0	44	102	1048576	8	3863
2026-01-06 15:08:36.07	208.61	50.23	-24.3	-24.3	16.8	0.00e+00	0	44	102	1048576	9	3636
2026-01-06 15:08:39.09	209.96	50.98	-24.5	-24.8	16.8	0.00e+00	0	44	102	1048576	9	3753
2026-01-06 15:08:42.11	211.37	51.73	-24.5	-24.9	16.8	0.00e+00	0	44	102	1048576	9	3761
2026-01-06 15:08:45.12	212.85	52.48	-24.9	-25.3	16.4	0.00e+00	0	44	102	1048576	10	3753
2026-01-06 15:08:48.15	214.42	53.21	-24.6	-25.0	16.8	0.00e+00	0	44	102	1048576	9	3786
2026-01-06 15:08:51.17	216.06	53.94	-23.7	-23.8	17.7	0.00e+00	0	44	102	1048576	8	3606
2026-01-06 15:08:54.19	217.79	54.65	-24.1	-24.6	17.2	0.00e+00	0	44	102	1048576	8	3799
2026-01-06 15:08:57.21	219.60	55.34	-24.5	-25.4	16.9	0.00e+00	0	44	102	1048576	8	3982
2026-01-06 15:09:00.22	221.49	56.01	-24.0	-24.2	17.4	0.00e+00	0	43	102	1048576	8	3711
2026-01-06 15:09:03.24	223.49	56.66	-24.4	-25.2	17.0	0.00e+00	0	43	102	1048576	8	3929
2026-01-06 15:09:06.26	225.57	57.28	-24.2	-24.8	17.2	1.10e-06	0	44	102	1048576	8	3839
2026-01-06 15:09:09.28	227.75	57.87	-24.1	-24.6	17.3	1.10e-06	0	44	102	1048576	8	3796
2026-01-06 15:09:12.30	230.02	58.42	-24.4	-24.6	17.0	0.00e+00	0	44	102	1048576	9	3710
2026-01-06 15:09:15.32	232.38	58.94	-23.8	-23.9	17.7	2.20e-06	0	43	102	1048576	8	3633
2026-01-06 15:09:18.34	234.84	59.41	-24.0	-24.4	17.4	0.00e+00	0	44	102	1048576	8	3754
2026-01-06 15:09:21.36	237.38	59.84	-23.6	-23.4	17.9	0.00e+00	0	44	102	1048576	8	3528
2026-01-06 15:09:24.38	240.00	60.22	-24.1	-24.4	17.5	0.00e+00	0	44	102	1048576	8	3759
2026-01-06 15:09:27.40	242.69	60.55	-23.7	-23.6	17.7	0.00e+00	0	44	102	1048576	8	3585
2026-01-06 15:09:30.42	245.45	60.82	-23.6	-23.5	17.9	0.00e+00	0	44	102	1048576	8	3543
2026-01-06 15:09:33.44	248.26	61.04	-23.8	-23.8	17.8	0.00e+00	0	44	102	1048576	8	3617
2026-01-06 15:09:36.46	251.11	61.19	-23.9	-24.0	17.7	0.00e+00	0	44	102	1048576	8	3667
2026-01-06 15:09:39.48	253.99	61.28	-23.9	-24.1	17.6	0.00e+00	0	44	102	1048576	8	3672
2026-01-06 15:09:42.50	256.89	61.31	-23.8	-23.9	17.7	0.00e+00	0	44	102	1048576	8	3648
2026-01-06 15:09:45.53	259.79	61.28	-24.2	-24.8	17.3	0.00e+00	0	44	102	1048576	8	3835
2026-01-06 15:09:48.56	262.67	61.18	-23.9	-24.0	17.6	0.00e+00	0	44	102	1048576	8	3660
2026-01-06 15:09:51.58	265.52	61.02	-24.0	-24.4	17.5	0.00e+00	0	44	102	1048576	8	3735
2026-01-06 15:09:54.59	268.32	60.80	-23.3	-23.3	18.2	0.00e+00	0	44	102	1048576	7	3600
2026-01-06 15:09:57.61	271.07	60.53	-24.1	-24.5	17.4	0.00e+00	0	44	102	1048576	8	3780
2026-01-06 15:10:00.64	273.77	60.20	-23.9	-24.0	17.7	0.00e+00	0	44	102	1048576	8	3643
2026-01-06 15:10:03.65	276.37	59.82	-24.4	-24.7	17.0	0.00e+00	0	44	102	1048576	9	3730
2026-01-06 15:10:06.67	278.90	59.38	-24.1	-24.1	17.4	0.00e+00	0	44	102	1048576	9	3581
2026-01-06 15:10:09.70	281.36	58.91	-23.9	-24.1	17.6	0.00e+00	0	44	102	1048576	8	3683
2026-01-06 15:10:12.72	283.71	58.39	-23.9	-24.0	17.6	0.00e+00	0	44	102	1048576	8	3659
2026-01-06 15:10:15.75	285.98	57.83	-23.8	-23.9	17.7	0.00e+00	0	44	102	1048576	8	3625
2026-01-06 15:10:18.75	288.13	57.24	-24.5	-25.3	17.0	0.00e+00	0	44	102	1048576	8	3959
2026-01-06 15:10:21.77	290.21	56.62	-24.3	-24.4	17.2	0.00e+00	0	44	102	1048576	9	3643
2026-01-06 15:10:24.79	292.19	55.97	-24.3	-24.3	17.2	0.00e+00	0	44	102	1048576	9	3636
2026-01-06 15:10:27.82	294.09	55.30	-24.4	-24.7	17.0	0.00e+00	0	44	102	1048576	9	3714
2026-01-06 15:10:30.83	295.88	54.61	-24.2	-24.3	17.2	0.00e+00	0	44	102	1048576	9	3619
2026-01-06 15:10:33.86	297.61	53.90	-24.5	-24.9	16.9	0.00e+00	0	44	102	1048576	9	3759
2026-01-06 15:10:36.88	299.24	53.18	-24.4	-24.7	17.0	0.00e+00	0	44	102	1048576	9	3710
2026-01-06 15:10:39.90	300.80	52.45	-24.6	-25.0	16.8	0.00e+00	0	44	102	1048576	9	3792
2026-01-06 15:10:42.92	302.28	51.70	-24.9	-25.7	16.5	0.00e+00	0	44	102	1048576	9	3959
2026-01-06 15:10:45.94	303.68	50.95	-24.5	-24.8	17.0	0.00e+00	0	44	102	1048576	9	3731
2026-01-06 15:10:48.96	305.02	50.20	-24.1	-24.1	17.3	0.00e+00	0	44	102	1048576	9	3572
2026-01-06 15:10:51.98	306.30	49.44	-24.0	-23.7	17.5	0.00e+00	0	44	102	1048576	9	3507
2026-01-06 15:10:55.00	307.51	48.68	-24.0	-24.2	17.5	0.00e+00	0	44	102	1048576	8	3710
2026-01-06 15:10:58.01	308.66	47.93	-24.1	-24.6	17.2	0.00e+00	0	44	102	1048576	8	3790
2026-01-06 15:11:01.03	309.77	47.17	-23.6	-23.5	17.9	0.00e+00	0	44	102	1048576	8	3550
2026-01-06 15:11:04.05	310.82	46.42	-23.5	-23.8	17.9	0.00e+00	0	44	102	1048576	7	3724
2026-01-06 15:11:07.07	311.82	45.67	-23.6	-24.0	17.8	0.00e+00	0	44	102	1048576	7	3762
2026-01-06 15:11:10.09	312.78	44.93	-23.4	-23.5	18.1	0.00e+00	0	44	102	1048576	7	3662
2026-01-06 15:11:13.11	313.69	44.19	-22.7	-22.5	18.8	0.00e+00	0	44	102	1048576	6	3540
2026-01-06 15:11:16.13	314.56	43.45	-22.9	-22.9	18.6	0.00e+00	0	44	102	1048576	6	3616
2026-01-06 15:11:19.13	315.39	42.73	-23.0	-23.3	18.3	0.00e+00	0	44	102	1048576	6	3704
2026-01-06 15:11:22.15	316.19	42.02	-23.0	-23.2	18.4	0.00e+00	0	44	102	1048576	6	3685
2026-01-06 15:11:25.17	316.95	41.31	-23.1	-23.4	18.3	0.00e+00	0	44	102	1048576	6	3741
2026-01-06 15:11:28.19	317.68	40.61	-23.0	-23.3	18.4	0.00e+00	0	44	102	1048576	6	3700
2026-01-06 15:11:31.21	318.39	39.91	-22.9	-22.9	18.5	0.00e+00	0	44	102	1048576	6	3620
2026-01-06 15:11:34.21	319.06	39.24	-22.9	-23.0	18.5	0.00e+00	0	44	102	1048576	6	3634
2026-01-06 15:11:37.24	319.70	38.56	-23.3	-23.8	18.0	0.00e+00	0	44	102	1048576	6	3830
2026-01-06 15:11:40.26	320.32	37.90	-23.2	-23.6	18.1	0.00e+00	0	44	102	1048576	6	3777
2026-01-06 15:11:43.27	320.92	37.24	-22.9	-23.0	18.5	0.00e+00	0	44	102	1048576	6	3649
2026-01-06 15:11:46.30	321.50	36.60	-23.1	-23.4	18.3	0.00e+00	0	44	102	1048576	6	3723
2026-01-06 15:11:49.33	322.05	35.96	-22.7	-22.6	18.6	0.00e+00	0	44	102	1048576	6	3560
2026-01-06 15:11:52.35	322.58	35.33	-22.9	-23.0	18.5	0.00e+00	0	44	102	1048576	6	3643
2026-01-06 15:11:55.36	323.09	34.72	-22.8	-22.9	18.5	0.00e+00	0	44	102	1048576	6	3615
2026-01-06 15:11:58.38	323.59	34.11	-23.1	-23.4	18.2	0.00e+00	0	44	102	1048576	6	3737
2026-01-06 15:12:01.40	324.06	33.51	-23.0	-23.1	18.3	0.00e+00	0	44	102	1048576	6	3675
2026-01-06 15:12:04.41	324.52	32.93	-22.9	-23.1	18.4	0.00e+00	0	44	102	1048576	6	3660
2026-01-06 15:12:07.44	324.97	32.35	-22.6	-22.4	18.7	0.00e+00	0	44	102	1048576	6	3512
2026-01-06 15:12:10.44	325.39	31.78	-22.4	-22.5	18.9	0.00e+00	0	44	102	1048576	5	3627
2026-01-06 15:12:13.47	325.81	31.22	-22.6	-22.9	18.7	0.00e+00	0	44	102	1048576	5	3716
2026-01-06 15:12:16.49	326.21	30.67	-22.4	-22.6	18.8	0.00e+00	0	44	102	1048576	5	3653
2026-01-06 15:12:19.50	326.60	30.13	-22.7	-23.2	18.5	0.00e+00	0	44	102	1048576	5	3783
2026-01-06 15:12:22.51	326.97	29.60	-23.0	-23.6	18.3	0.00e+00	0	44	102	1048576	5	3894
2026-01-06 15:12:25.53	327.34	29.08	-23.0	-23.2	18.3	0.00e+00	0	44	102	1048576	6	3683
2026-01-06 15:12:28.54	327.69	28.56	-23.1	-23.3	18.2	0.00e+00	0	44	102	1048576	6	3720
2026-01-06 15:12:31.55	328.03	28.06	-22.8	-22.9	18.4	0.00e+00	0	44	102	1048576	6	3617
2026-01-06 15:12:34.56	328.36	27.56	-23.0	-23.2	18.2	0.00e+00	0	44	102	1048576	6	3690
2026-01-06 15:12:37.58	328.69	27.07	-23.0	-23.3	18.1	0.00e+00	0	44	102	1048576	6	3716
2026-01-06 15:12:40.60	329.00	26.58	-23.0	-23.2	18.2	0.00e+00	0	44	102	1048576	6	3692
2026-01-06 15:12:43.63	329.31	26.11	-22.9	-22.9	18.2	0.00e+00	0	44	102	1048576	6	3631
2026-01-06 15:12:46.65	329.60	25.64	-22.9	-22.9	18.4	0.00e+00	0	44	102	1048576	6	3627
2026-01-06 15:12:49.67	329.89	25.18	-22.8	-22.8	18.4	0.00e+00	0	44	102	1048576	6	3592
2026-01-06 15:12:52.68	330.17	24.73	-22.7	-22.7	18.4	0.00e+00	0	44	102	1048576	6	3575
2026-01-06 15:12:55.70	330.44	24.28	-22.8	-22.7	18.4	0.00e+00	0	44	102	1048576	6	3592
2026-01-06 15:12:58.72	330.71	23.84	-23.0	-23.1	18.2	0.00e+00	0	44	102	1048576	6	3679
2026-01-06 15:13:01.73	330.97	23.41	-23.1	-23.4	18.1	0.00e+00	0	44	102	1048576	6	3735
2026-01-06 15:13:04.75	331.22	22.98	-23.2	-23.8	17.8	0.00e+00	0	44	102	1048576	6	3824
2026-01-06 15:13:07.77	331.46	22.56	-23.4	-24.1	17.7	0.00e+00	0	44	102	1048576	6	3890
2026-01-06 15:13:10.79	331.70	22.15	-23.5	-24.4	17.5	0.00e+00	0	44	102	1048576	6	3971
2026-01-06 15:13:13.82	331.94	21.74	-23.6	-24.1	17.4	0.00e+00	0	44	102	1048576	7	3797
2026-01-06 15:13:16.83	332.16	21.34	-23.6	-24.0	17.4	0.00e+00	0	44	102	1048576	7	3765
2026-01-06 15:13:19.86	332.39	20.95	-23.8	-24.4	17.2	0.00e+00	0	44	102	1048576	7	3857
2026-01-06 15:13:22.87	332.60	20.56	-23.8	-24.4	17.2	0.00e+00	0	44	102	1048576	7	3865
2026-01-06 15:13:25.90	332.82	20.17	-24.0	-24.9	16.9	0.00e+00	0	44	102	1048576	7	3989
2026-01-06 15:13:28.92	333.02	19.80	-23.6	-24.0	17.4	0.00e+00	0	44	102	1048576	7	3775
2026-01-06 15:13:31.94	333.23	19.42	-23.6	-24.1	17.3	0.00e+00	0	44	102	1048576	7	3786
2026-01-06 15:13:34.96	333.42	19.05	-23.8	-24.3	17.2	0.00e+00	0	44	102	1048576	7	3844
2026-01-06 15:13:37.98	333.62	18.69	-23.9	-24.7	17.0	0.00e+00	0	44	102	1048576	7	3926
2026-01-06 15:13:41.00	333.81	18.33	-24.2	-24.7	16.7	0.00e+00	0	44	102	1048576	8	3835
2026-01-06 15:13:44.01	333.99	17.98	-24.3	-25.0	16.6	0.00e+00	0	44	102	1048576	8	3916
2026-01-06 15:13:47.03	334.17	17.64	-24.5	-25.4	16.4	0.00e+00	0	44	102	1048576	8	3999
2026-01-06 15:13:50.05	334.35	17.29	-24.5	-25.5	16.3	0.00e+00	0	44	102	1048576	8	4020
2026-01-06 15:13:53.07	334.52	16.95	-24.5	-25.4	16.3	0.00e+00	0	44	102	1048576	8	3996
2026-01-06 15:13:56.09	334.69	16.62	-24.6	-25.0	16.2	0.00e+00	0	44	102	1048576	9	3808
2026-01-06 15:13:59.12	334.86	16.29	-24.5	-24.9	16.2	0.00e+00	0	44	102	1048576	9	3787
2026-01-06 15:14:02.14	335.02	15.96	-24.5	-24.9	16.3	0.00e+00	0	44	102	1048576	9	3787
2026-01-06 15:14:05.15	335.18	15.64	-24.5	-24.9	16.3	0.00e+00	0	44	102	1048576	9	3764
2026-01-06 15:14:08.17	335.34	15.32	-24.5	-24.9	16.3	0.00e+00	0	44	102	1048576	9	3764
2026-01-06 15:14:11.17	335.49	15.01	-24.6	-25.1	16.1	0.00e+00	0	44	102	1048576	9	3825
2026-01-06 15:14:14.20	335.65	14.70	-24.7	-25.3	16.0	0.00e+00	0	44	102	1048576	9	3874
2026-01-06 15:14:17.21	335.79	14.40	-24.9	-25.8	15.7	0.00e+00	0	44	102	1048576	9	4001
2026-01-06 15:14:20.21	335.94	14.10	-24.9	-25.7	15.7	0.00e+00	0	44	102	1048576	9	3978
2026-01-06 15:14:23.24	336.08	13.80	-24.8	-25.7	15.7	0.00e+00	0	44	102	1048576	9	3974
2026-01-06 15:14:26.26	336.22	13.50	-24.9	-25.8	15.7	0.00e+00	0	44	102	1048576	9	3996
2026-01-06 15:14:29.28	336.36	13.21	-25.1	-26.3	15.4	0.00e+00	0	44	102	1048576	9	4117
2026-01-06 15:14:32.30	336.50	12.92	-25.2	-26.0	15.3	0.00e+00	0	44	102	1048576	10	3933
2026-01-06 15:14:35.32	336.63	12.63	-25.3	-26.1	15.2	0.00e+00	0	44	102	1048576	10	3972
2026-01-06 15:14:38.34	336.76	12.35	-25.4	-26.4	15.0	1.10e-06	0	44	102	1048576	10	4032
2026-01-06 15:14:41.36	336.89	12.07	-25.5	-26.7	14.8	1.10e-06	0	44	102	1048576	10	4130
2026-01-06 15:14:44.38	337.02	11.80	-25.7	-26.7	14.6	0.00e+00	0	44	102	1048576	11	4010
2026-01-06 15:14:47.40	337.14	11.52	-25.8	-26.9	14.4	0.00e+00	0	44	102	1048576	11	4059
2026-01-06 15:14:50.42	337.26	11.25	-25.9	-27.0	14.3	1.10e-06	0	44	102	1048576	11	4088
2026-01-06 15:14:53.45	337.38	10.99	-25.8	-26.7	14.5	1.10e-06	0	44	102	1048576	11	4022
2026-01-06 15:14:56.46	337.50	10.72	-25.8	-26.8	14.4	0.00e+00	0	44	102	1048576	11	4056
2026-01-06 15:14:59.48	337.62	10.46	-25.9	-27.0	14.3	1.10e-06	0	44	102	1048576	11	4098
2026-01-06 15:15:02.49	337.73	10.20	-25.8	-26.7	14.4	0.00e+00	0	44	102	1048576	11	4028
2026-01-06 15:15:05.51	337.85	9.95	-25.8	-26.9	14.3	1.10e-06	0	44	102	1048576	11	4066
2026-01-06 15:15:08.54	337.96	9.69	-25.9	-27.0	14.2	1.10e-06	0	44	102	1048576	11	4091
2026-01-06 15:15:11.56	338.07	9.44	-26.0	-27.2	14.1	2.20e-06	0	44	102	1048576	11	4145
2026-01-06 15:15:14.57	338.18	9.19	-25.9	-27.1	14.1	0.00e+00	0	44	102	1048576	11	4119
2026-01-06 15:15:17.60	338.28	8.95	-26.0	-27.3	13.9	1.10e-06	0	44	102	1048576	11	4179
2026-01-06 15:15:20.62	338.39	8.70	-26.0	-26.8	13.9	4.50e-06	0	44	102	1048576	12	3948
2026-01-06 15:15:23.64	338.49	8.46	-26.1	-26.9	13.8	8.00e-06	0	44	102	1048576	12	3984
2026-01-06 15:15:26.65	338.59	8.22	-26.0	-26.9	13.8	1.25e-05	0	44	102	1048576	12	3983
2026-01-06 15:15:29.68	338.69	7.98	-26.1	-27.2	13.6	1.25e-05	0	44	102	1048576	12	4043
2026-01-06 15:15:32.70	338.79	7.75	-26.3	-27.6	13.3	2.17e-05	0	44	102	1048576	12	4153
2026-01-06 15:15:35.72	338.89	7.51	-26.4	-27.8	13.2	3.54e-05	0	44	102	1048576	12	4208
2026-01-06 15:15:38.74	338.99	7.28	-26.4	-27.9	13.1	3.43e-05	0	44	102	1048576	12	4240
2026-01-06 15:15:41.75	339.08	7.05	-32.4	-41.6	3.8	8.39e-01	0	44	104	1048576	24	10406
2026-01-06 15:15:44.78	339.18	6.83	-33.3	-42.8	3.8	8.47e-01	0	44	104	1048576	26	10827

#Closed at: 2026-01-06 15:15:44
#Recorded file [1 MB]: D:/data/31010_260106_180348.dat