passes_logs/2026/01/06/R2M6_AANII_01/R2M6_AANII_01__20260106_230520_NOAA_20_JPSS-1_rec.log

#Pass ID: 20260106_230520_NOAA 20 (JPSS-1)
#Satellite: NOAA 20 (JPSS-1)
#Configuration: NOAA 20
#almurnet v.1.7.20240730
#Start time: 2026-01-06 23:05:21

#Version: 2.2.20231116
#Station: R2M6_AANII_01
#Location: 30.233357 lon 59.946436 lat
#TLE: 1 43013U 17073A   26006.30790171  .00000126  00000+0  80695-4 0  9991
#TLE: 2 43013  98.7629 307.3394 0001808  51.8724 308.2615 14.19533762421505

#Time	Az	El	Level	Level2	SNR	BER	BlckErr	Temp	State	Recorded	gain1	gain2
2026-01-06 23:05:21.98	26.59	7.09	-31.5	-37.6	5.1	1.22e+00	0	41	0	0	23	7232
2026-01-06 23:05:24.99	26.81	7.30	-31.7	-38.3	7.5	1.27e-01	0	41	102	1048576	23	7685
2026-01-06 23:05:28.00	27.04	7.50	-31.2	-36.3	9.6	2.04e-02	0	41	102	1048576	22	6482
2026-01-06 23:05:31.03	27.27	7.71	-30.6	-34.8	11.1	2.56e-03	0	41	102	1048576	21	5826
2026-01-06 23:05:34.04	27.51	7.93	-30.6	-34.6	11.3	1.28e-03	0	42	102	1048576	21	5738
2026-01-06 23:05:37.06	27.75	8.14	-30.8	-35.4	10.7	2.08e-03	0	42	102	1048576	21	6113
2026-01-06 23:05:40.08	27.99	8.35	-30.6	-34.9	11.2	1.08e-03	0	42	102	1048576	21	5848
2026-01-06 23:05:43.10	28.23	8.57	-30.5	-34.4	11.5	8.06e-04	0	42	102	1048576	21	5634
2026-01-06 23:05:46.12	28.48	8.79	-30.5	-34.3	11.6	6.65e-04	0	42	102	1048576	21	5586
2026-01-06 23:05:49.14	28.73	9.00	-30.7	-35.0	11.2	1.30e-03	0	42	102	1048576	21	5881
2026-01-06 23:05:52.15	28.99	9.22	-30.1	-33.7	12.5	1.52e-04	0	42	102	1048576	20	5421
2026-01-06 23:05:55.16	29.25	9.44	-30.1	-33.5	12.6	8.85e-05	0	42	102	1048576	20	5355
2026-01-06 23:05:58.17	29.51	9.67	-30.1	-33.5	12.6	1.75e-04	0	42	102	1048576	20	5335
2026-01-06 23:06:01.20	29.78	9.89	-30.1	-33.4	12.7	6.25e-05	0	42	102	1048576	20	5312
2026-01-06 23:06:04.22	30.05	10.12	-30.1	-33.6	12.6	7.32e-05	0	42	102	1048576	20	5381
2026-01-06 23:06:07.24	30.32	10.34	-30.3	-34.2	12.2	1.60e-04	0	42	102	1048576	20	5623
2026-01-06 23:06:10.25	30.60	10.57	-30.3	-34.2	12.2	2.51e-04	0	42	102	1048576	20	5644
2026-01-06 23:06:13.27	30.88	10.80	-30.2	-33.8	12.5	1.27e-04	0	42	102	1048576	20	5471
2026-01-06 23:06:16.30	31.17	11.04	-30.1	-33.4	12.8	7.55e-05	0	42	102	1048576	20	5277
2026-01-06 23:06:19.31	31.46	11.27	-30.0	-33.6	13.1	2.82e-05	0	42	102	1048576	19	5468
2026-01-06 23:06:22.33	31.76	11.51	-29.9	-33.0	13.1	3.50e-05	0	42	102	1048576	20	5154
2026-01-06 23:06:25.34	32.06	11.74	-30.0	-33.1	12.9	3.89e-05	0	42	102	1048576	20	5177
2026-01-06 23:06:28.37	32.37	11.98	-30.0	-33.3	12.9	5.18e-05	0	43	102	1048576	20	5251
2026-01-06 23:06:31.39	32.68	12.22	-30.0	-33.6	13.2	7.93e-05	0	43	102	1048576	19	5460
2026-01-06 23:06:34.41	32.99	12.46	-30.1	-33.6	12.8	7.01e-05	0	42	102	1048576	20	5346
2026-01-06 23:06:37.42	33.31	12.71	-30.2	-33.6	12.8	4.34e-05	0	43	102	1048576	20	5358
2026-01-06 23:06:40.44	33.64	12.95	-30.2	-33.8	12.7	6.86e-05	0	43	102	1048576	20	5430
2026-01-06 23:06:43.46	33.97	13.20	-30.2	-33.8	12.7	1.10e-04	0	43	102	1048576	20	5443
2026-01-06 23:06:46.49	34.30	13.45	-30.2	-33.6	12.9	3.05e-05	0	43	102	1048576	20	5346
2026-01-06 23:06:49.50	34.64	13.70	-30.1	-33.4	13.0	1.85e-04	0	43	102	1048576	20	5273
2026-01-06 23:06:52.53	34.99	13.95	-30.0	-33.1	13.3	2.94e-04	0	43	102	1048576	20	5139
2026-01-06 23:06:55.54	35.34	14.20	-30.0	-33.0	13.4	2.89e-05	0	43	102	1048576	20	5092
2026-01-06 23:06:58.57	35.70	14.46	-30.2	-33.5	13.0	2.64e-04	0	43	102	1048576	20	5311
2026-01-06 23:07:01.59	36.07	14.72	-30.2	-33.5	13.0	2.35e-04	0	43	102	1048576	20	5309
2026-01-06 23:07:04.61	36.44	14.98	-30.1	-33.4	13.1	2.07e-04	0	43	102	1048576	20	5254
2026-01-06 23:07:07.63	36.81	15.24	-30.0	-33.2	13.2	1.88e-04	0	43	102	1048576	20	5173
2026-01-06 23:07:10.65	37.20	15.50	-30.2	-33.5	13.1	1.81e-04	0	43	102	1048576	20	5265
2026-01-06 23:07:13.67	37.59	15.76	-30.1	-33.3	13.2	1.55e-04	0	43	102	1048576	20	5217
2026-01-06 23:07:16.70	37.99	16.03	-30.2	-33.5	13.2	3.73e-05	0	43	102	1048576	20	5260
2026-01-06 23:07:19.72	38.39	16.30	-30.2	-33.6	13.0	5.26e-05	0	43	102	1048576	20	5314
2026-01-06 23:07:22.74	38.80	16.57	-30.1	-33.1	13.4	1.29e-05	0	43	102	1048576	20	5131
2026-01-06 23:07:25.76	39.22	16.84	-30.0	-32.9	13.5	6.71e-05	0	43	102	1048576	20	5057
2026-01-06 23:07:28.78	39.64	17.11	-29.8	-32.4	13.9	2.51e-05	0	43	102	1048576	20	4871
2026-01-06 23:07:31.81	40.08	17.38	-30.0	-33.0	13.5	9.90e-06	0	43	102	1048576	20	5077
2026-01-06 23:07:34.83	40.52	17.66	-30.1	-33.2	13.4	7.60e-06	0	43	102	1048576	20	5138
2026-01-06 23:07:37.85	40.97	17.94	-30.0	-33.1	13.5	1.22e-05	0	43	102	1048576	20	5102
2026-01-06 23:07:40.87	41.42	18.21	-29.8	-32.3	14.0	1.50e-06	0	43	102	1048576	20	4826
2026-01-06 23:07:43.90	41.89	18.49	-29.8	-32.5	13.9	2.20e-06	0	43	102	1048576	20	4889
2026-01-06 23:07:46.92	42.36	18.78	-30.0	-32.9	13.7	2.28e-05	0	43	102	1048576	20	5013
2026-01-06 23:07:49.94	42.84	19.06	-29.4	-31.5	14.6	7.00e-07	0	43	102	1048576	20	4544
2026-01-06 23:07:52.96	43.33	19.34	-29.3	-31.6	14.9	0.00e+00	0	43	102	1048576	19	4671
2026-01-06 23:07:55.98	43.83	19.63	-29.4	-31.8	14.8	0.00e+00	0	43	102	1048576	19	4761
2026-01-06 23:07:59.00	44.34	19.91	-29.7	-32.5	14.4	0.00e+00	0	43	102	1048576	19	4976
2026-01-06 23:08:02.01	44.85	20.20	-29.6	-32.3	14.5	7.00e-07	0	43	102	1048576	19	4903
2026-01-06 23:08:05.03	45.38	20.49	-29.7	-32.5	14.4	0.00e+00	0	43	102	1048576	19	4972
2026-01-06 23:08:08.04	45.92	20.77	-29.7	-32.6	14.3	7.00e-07	0	43	102	1048576	19	5009
2026-01-06 23:08:11.06	46.46	21.06	-29.2	-31.3	15.2	0.00e+00	0	43	102	1048576	19	4574
2026-01-06 23:08:14.08	47.02	21.36	-29.1	-30.9	15.4	0.00e+00	0	43	102	1048576	19	4457
2026-01-06 23:08:17.10	47.59	21.65	-29.3	-31.4	15.1	0.00e+00	0	43	102	1048576	19	4612
2026-01-06 23:08:20.12	48.16	21.94	-29.1	-31.1	15.3	0.00e+00	0	43	102	1048576	19	4502
2026-01-06 23:08:23.13	48.75	22.23	-29.0	-31.2	15.5	0.00e+00	0	43	102	1048576	18	4644
2026-01-06 23:08:26.15	49.35	22.52	-28.9	-31.4	15.7	0.00e+00	0	43	102	1048576	17	4833
2026-01-06 23:08:29.17	49.96	22.81	-28.9	-31.5	15.7	0.00e+00	0	44	102	1048576	17	4853
2026-01-06 23:08:32.18	50.58	23.11	-29.2	-31.8	15.2	0.00e+00	0	43	102	1048576	18	4845
2026-01-06 23:08:35.19	51.21	23.40	-29.2	-31.7	15.3	0.00e+00	0	43	102	1048576	18	4808
2026-01-06 23:08:38.21	51.86	23.69	-29.3	-31.9	15.2	0.00e+00	0	43	102	1048576	18	4868
2026-01-06 23:08:41.23	52.51	23.98	-29.4	-32.3	14.9	0.00e+00	0	43	102	1048576	18	4999
2026-01-06 23:08:44.26	53.18	24.27	-29.0	-31.3	15.5	0.00e+00	0	43	102	1048576	18	4681
2026-01-06 23:08:47.29	53.87	24.57	-29.1	-31.4	15.5	0.00e+00	0	43	102	1048576	18	4695
2026-01-06 23:08:50.31	54.56	24.86	-29.2	-31.8	15.2	0.00e+00	0	43	102	1048576	18	4822
2026-01-06 23:08:53.32	55.26	25.14	-29.4	-32.3	15.0	0.00e+00	0	44	102	1048576	18	4999
2026-01-06 23:08:56.35	55.98	25.43	-29.8	-32.7	14.4	0.00e+00	0	43	102	1048576	19	5031
2026-01-06 23:08:59.37	56.72	25.72	-29.9	-33.0	14.2	1.50e-06	0	43	102	1048576	19	5143
2026-01-06 23:09:02.39	57.46	26.00	-29.9	-32.9	14.3	0.00e+00	0	43	102	1048576	19	5104
2026-01-06 23:09:05.41	58.22	26.28	-30.0	-32.8	14.0	2.20e-06	0	43	102	1048576	20	4970
2026-01-06 23:09:08.43	58.99	26.56	-30.1	-33.2	13.8	4.50e-06	0	43	102	1048576	20	5089
2026-01-06 23:09:11.45	59.77	26.84	-30.0	-32.8	13.8	1.50e-06	0	43	102	1048576	20	4964
2026-01-06 23:09:14.47	60.57	27.11	-30.4	-34.0	13.2	1.98e-05	0	43	102	1048576	20	5399
2026-01-06 23:09:17.48	61.38	27.38	-30.9	-34.9	12.2	1.58e-03	0	43	102	1048576	21	5692
2026-01-06 23:09:20.51	62.21	27.65	-30.9	-34.3	12.4	1.17e-03	0	44	102	1048576	22	5315
2026-01-06 23:09:23.53	63.05	27.91	-30.9	-34.2	12.4	5.19e-04	0	44	102	1048576	22	5269
2026-01-06 23:09:26.55	63.90	28.17	-30.9	-34.8	12.4	1.59e-04	0	43	102	1048576	21	5620
2026-01-06 23:09:29.56	64.76	28.42	-30.8	-34.5	12.6	7.55e-05	0	44	102	1048576	21	5501
2026-01-06 23:09:32.58	65.64	28.67	-30.9	-34.8	12.4	1.44e-04	0	43	102	1048576	21	5648
2026-01-06 23:09:35.60	66.53	28.92	-30.8	-34.5	12.6	8.77e-05	0	43	102	1048576	21	5511
2026-01-06 23:09:38.61	67.43	29.15	-30.5	-33.6	13.2	2.05e-05	0	43	102	1048576	21	5136
2026-01-06 23:09:41.63	68.35	29.39	-30.7	-34.1	12.9	6.25e-05	0	44	102	1048576	21	5350
2026-01-06 23:09:44.65	69.29	29.61	-30.9	-34.8	12.4	1.24e-04	0	44	102	1048576	21	5630
2026-01-06 23:09:47.67	70.23	29.84	-31.0	-34.5	12.3	2.31e-04	0	43	102	1048576	22	5378
2026-01-06 23:09:50.69	71.19	30.05	-31.0	-34.3	12.4	1.16e-04	0	43	102	1048576	22	5320
2026-01-06 23:09:53.70	72.16	30.26	-31.7	-36.2	10.8	2.38e-03	0	43	102	1048576	23	6035
2026-01-06 23:09:56.71	73.13	30.46	-32.0	-36.8	9.9	8.03e-03	0	43	102	1048576	24	6246
2026-01-06 23:09:59.72	74.13	30.65	-32.0	-36.8	9.9	1.01e-02	0	43	102	1048576	24	6247
2026-01-06 23:10:02.75	75.13	30.83	-31.9	-36.4	10.2	9.63e-03	0	44	102	1048576	24	6055
2026-01-06 23:10:05.78	76.15	31.01	-31.8	-36.2	10.4	4.26e-03	0	44	102	1048576	24	5926
2026-01-06 23:10:08.81	77.18	31.17	-31.6	-35.3	11.0	2.54e-03	0	43	102	1048576	24	5507
2026-01-06 23:10:11.83	78.22	31.33	-31.3	-34.6	11.5	7.22e-04	0	44	102	1048576	24	5234
2026-01-06 23:10:14.84	79.27	31.48	-31.5	-35.7	11.2	1.26e-03	0	44	102	1048576	23	5782
2026-01-06 23:10:17.87	80.33	31.62	-31.6	-36.0	10.9	2.17e-03	0	43	102	1048576	23	5948
2026-01-06 23:10:20.88	81.39	31.74	-31.3	-35.0	11.6	6.55e-04	0	43	102	1048576	23	5517
2026-01-06 23:10:23.89	82.46	31.86	-31.2	-34.6	11.9	3.23e-04	0	44	102	1048576	23	5331
2026-01-06 23:10:26.91	83.54	31.97	-31.2	-34.7	11.9	4.56e-04	0	44	102	1048576	23	5370
2026-01-06 23:10:29.93	84.63	32.06	-31.4	-35.2	11.5	5.70e-04	0	44	102	1048576	23	5575
2026-01-06 23:10:32.95	85.72	32.15	-31.9	-36.9	10.2	3.54e-03	0	44	102	1048576	23	6409
2026-01-06 23:10:35.96	86.82	32.22	-32.0	-36.6	10.0	9.70e-03	0	44	102	1048576	24	6143
2026-01-06 23:10:38.97	87.92	32.29	-31.6	-35.3	11.0	4.23e-03	0	44	102	1048576	24	5516
2026-01-06 23:10:41.99	89.02	32.34	-31.3	-34.9	11.7	3.41e-04	0	43	102	1048576	23	5443
2026-01-06 23:10:45.02	90.14	32.38	-31.3	-35.0	11.6	6.58e-04	0	44	102	1048576	23	5483
2026-01-06 23:10:48.04	91.25	32.41	-31.3	-35.0	11.6	6.83e-04	0	44	102	1048576	23	5492
2026-01-06 23:10:51.06	92.37	32.42	-31.2	-34.6	11.9	5.58e-04	0	44	102	1048576	23	5305
2026-01-06 23:10:54.07	93.48	32.43	-31.4	-35.1	11.5	8.23e-04	0	43	102	1048576	23	5552
2026-01-06 23:10:57.09	94.59	32.42	-31.4	-35.8	11.4	1.19e-03	0	43	102	1048576	22	5963
2026-01-06 23:11:00.11	95.71	32.40	-30.8	-33.9	12.7	9.15e-05	0	44	102	1048576	22	5142
2026-01-06 23:11:03.13	96.82	32.37	-31.2	-35.1	11.8	2.21e-04	0	43	102	1048576	22	5657
2026-01-06 23:11:06.15	97.93	32.33	-31.4	-35.8	11.4	8.35e-04	0	44	102	1048576	22	5946
2026-01-06 23:11:09.16	99.04	32.27	-31.7	-36.3	10.6	3.02e-03	0	43	102	1048576	23	6107
2026-01-06 23:11:12.18	100.14	32.21	-31.9	-36.9	10.2	4.24e-03	0	44	102	1048576	23	6398
2026-01-06 23:11:15.21	101.24	32.13	-32.0	-36.9	9.8	1.26e-02	0	43	102	1048576	24	6295
2026-01-06 23:11:18.23	102.34	32.04	-31.9	-36.8	10.2	5.78e-03	0	44	102	1048576	23	6367
2026-01-06 23:11:21.25	103.42	31.95	-32.0	-36.8	9.8	7.83e-03	0	44	102	1048576	24	6263
2026-01-06 23:11:24.27	104.50	31.84	-32.1	-37.0	9.8	1.05e-02	0	44	102	1048576	24	6326
2026-01-06 23:11:27.29	105.58	31.72	-31.8	-36.2	10.3	4.78e-03	0	43	102	1048576	24	5926
2026-01-06 23:11:30.30	106.64	31.59	-31.7	-35.6	10.8	2.49e-03	0	44	102	1048576	24	5674
2026-01-06 23:11:33.33	107.70	31.44	-31.3	-34.4	11.6	6.64e-04	0	44	102	1048576	24	5155
2026-01-06 23:11:36.35	108.75	31.29	-31.5	-35.2	11.1	1.60e-03	0	43	102	1048576	24	5482
2026-01-06 23:11:39.36	109.78	31.13	-31.4	-34.8	11.3	1.44e-03	0	44	102	1048576	24	5296
2026-01-06 23:11:42.37	110.80	30.97	-31.4	-34.9	11.3	1.32e-03	0	44	102	1048576	24	5367
2026-01-06 23:11:45.38	111.82	30.79	-31.2	-34.7	11.7	5.93e-04	0	43	102	1048576	23	5381
2026-01-06 23:11:48.40	112.82	30.60	-31.2	-34.6	11.8	5.46e-04	0	43	102	1048576	23	5331
2026-01-06 23:11:51.42	113.82	30.41	-31.4	-35.4	11.3	7.78e-04	0	43	102	1048576	23	5674
2026-01-06 23:11:54.44	114.80	30.21	-31.9	-37.0	10.0	6.49e-03	0	43	102	1048576	23	6469
2026-01-06 23:11:57.45	115.77	30.00	-31.4	-35.4	11.2	1.41e-03	0	44	102	1048576	23	5686
2026-01-06 23:12:00.46	116.72	29.78	-31.6	-36.0	10.7	2.62e-03	0	44	102	1048576	23	5992
2026-01-06 23:12:03.48	117.67	29.56	-31.8	-36.6	10.3	4.53e-03	0	43	102	1048576	23	6259
2026-01-06 23:12:06.49	118.59	29.33	-31.8	-36.8	10.2	5.49e-03	0	43	102	1048576	23	6360
2026-01-06 23:12:09.51	119.51	29.09	-31.8	-36.8	10.1	7.63e-03	0	44	102	1048576	23	6394
2026-01-06 23:12:12.53	120.42	28.85	-31.7	-36.3	10.5	5.13e-03	0	44	102	1048576	23	6148
2026-01-06 23:12:15.55	121.31	28.60	-31.1	-34.3	11.9	8.21e-04	0	44	102	1048576	23	5240
2026-01-06 23:12:18.57	122.19	28.35	-30.8	-33.9	12.6	1.32e-04	0	44	102	1048576	22	5161
2026-01-06 23:12:21.59	123.06	28.10	-31.0	-34.6	12.1	2.68e-04	0	43	102	1048576	22	5430
2026-01-06 23:12:24.60	123.90	27.83	-31.1	-34.8	11.9	3.82e-04	0	44	102	1048576	22	5557
2026-01-06 23:12:27.61	124.74	27.57	-31.5	-35.7	10.9	2.44e-03	0	44	102	1048576	23	5829
2026-01-06 23:12:30.62	125.56	27.30	-30.5	-33.3	13.0	6.33e-05	0	44	102	1048576	22	4944
2026-01-06 23:12:33.64	126.37	27.03	-30.9	-34.4	12.2	1.93e-04	0	44	102	1048576	22	5373
2026-01-06 23:12:36.67	127.17	26.75	-30.8	-34.1	12.3	2.34e-04	0	44	102	1048576	22	5280
2026-01-06 23:12:39.69	127.96	26.47	-30.7	-33.7	12.6	6.10e-05	0	43	102	1048576	22	5105
2026-01-06 23:12:42.71	128.73	26.19	-31.8	-36.8	10.1	5.12e-03	0	44	102	1048576	23	6384
2026-01-06 23:12:45.72	129.48	25.91	-31.1	-34.4	11.8	1.38e-03	0	44	102	1048576	23	5275
2026-01-06 23:12:48.74	130.23	25.63	-30.7	-33.7	12.6	7.93e-05	0	43	102	1048576	22	5096
2026-01-06 23:12:51.77	130.96	25.34	-30.3	-32.8	13.2	6.17e-05	0	44	102	1048576	22	4760
2026-01-06 23:12:54.78	131.68	25.05	-29.9	-32.5	14.0	3.00e-06	0	44	102	1048576	20	4886
2026-01-06 23:12:57.80	132.38	24.76	-30.7	-34.4	12.4	1.42e-04	0	43	102	1048576	21	5512
2026-01-06 23:13:00.82	133.07	24.47	-29.7	-32.2	14.2	7.00e-07	0	44	102	1048576	20	4765
2026-01-06 23:13:03.84	133.75	24.17	-30.1	-33.2	13.5	3.80e-06	0	43	102	1048576	20	5137
2026-01-06 23:13:06.86	134.42	23.88	-30.1	-33.3	13.4	2.05e-05	0	44	102	1048576	20	5181
2026-01-06 23:13:09.88	135.08	23.59	-29.7	-32.6	14.2	0.00e+00	0	44	102	1048576	19	5030
2026-01-06 23:13:12.91	135.72	23.29	-30.1	-33.2	13.4	1.06e-05	0	44	102	1048576	20	5178
2026-01-06 23:13:15.93	136.36	23.00	-29.8	-32.4	13.9	4.50e-06	0	44	102	1048576	20	4867
2026-01-06 23:13:18.95	136.98	22.70	-29.5	-31.7	14.3	2.20e-06	0	43	102	1048576	20	4629
2026-01-06 23:13:21.94	137.58	22.41	-29.7	-32.8	14.0	1.50e-06	0	44	102	1048576	19	5127
2026-01-06 23:13:24.95	138.18	22.12	-29.5	-32.3	14.4	7.00e-07	0	44	102	1048576	19	4917
2026-01-06 23:13:27.96	138.76	21.82	-29.2	-31.3	14.9	0.00e+00	0	44	102	1048576	19	4607
2026-01-06 23:13:30.97	139.34	21.53	-29.2	-32.0	14.8	0.00e+00	0	44	102	1048576	18	4929
2026-01-06 23:13:34.00	139.91	21.24	-29.1	-31.5	15.1	0.00e+00	0	44	102	1048576	18	4779
2026-01-06 23:13:37.03	140.46	20.94	-28.9	-31.3	15.2	0.00e+00	0	44	102	1048576	18	4708
2026-01-06 23:13:40.04	141.01	20.65	-29.1	-31.7	14.9	7.00e-07	0	44	102	1048576	18	4862
2026-01-06 23:13:43.06	141.54	20.36	-29.1	-31.6	15.0	0.00e+00	0	44	102	1048576	18	4810
2026-01-06 23:13:46.09	142.07	20.07	-29.0	-31.4	15.0	1.48e-03	0	44	102	1048576	18	4748
2026-01-06 23:13:49.11	142.59	19.78	-29.1	-31.6	14.9	0.00e+00	0	44	102	1048576	18	4803
2026-01-06 23:13:52.14	143.10	19.49	-29.5	-32.3	14.1	7.00e-07	0	44	102	1048576	19	4959
2026-01-06 23:13:55.16	143.59	19.20	-29.8	-33.2	13.5	1.37e-05	0	44	102	1048576	19	5273
2026-01-06 23:13:58.18	144.08	18.92	-29.6	-32.5	14.0	1.06e-05	0	44	102	1048576	19	5019
2026-01-06 23:14:01.21	144.56	18.63	-29.4	-32.4	14.3	2.20e-06	0	44	102	1048576	18	5117
2026-01-06 23:14:04.23	145.04	18.35	-29.6	-32.6	13.8	2.03e-03	0	44	102	1048576	19	5097
2026-01-06 23:14:07.24	145.50	18.07	-29.6	-32.6	13.8	2.26e-03	0	44	102	1048576	19	5089
2026-01-06 23:14:10.26	145.95	17.79	-29.6	-32.6	13.8	2.16e-03	0	43	102	1048576	19	5090
2026-01-06 23:14:13.28	146.40	17.51	-30.0	-33.5	13.2	2.01e-03	0	44	102	1048576	19	5423
2026-01-06 23:14:16.30	146.84	17.24	-30.4	-34.2	12.2	2.58e-03	0	44	102	1048576	20	5633
2026-01-06 23:14:19.32	147.27	16.96	-30.4	-34.3	12.1	2.62e-03	0	43	102	1048576	20	5679
2026-01-06 23:14:22.33	147.69	16.69	-30.3	-34.2	12.1	2.32e-03	0	43	102	1048576	20	5656
2026-01-06 23:14:25.35	148.11	16.42	-30.6	-34.8	11.4	3.48e-03	0	44	102	1048576	21	5805
2026-01-06 23:14:28.37	148.52	16.14	-30.5	-34.3	11.7	3.20e-03	0	44	102	1048576	21	5608
2026-01-06 23:14:31.39	148.92	15.88	-30.2	-34.0	12.2	2.47e-03	0	44	102	1048576	20	5568
2026-01-06 23:14:34.40	149.31	15.61	-29.9	-33.2	12.8	2.47e-03	0	44	102	1048576	20	5246
2026-01-06 23:14:37.42	149.70	15.34	-30.1	-33.8	12.3	2.64e-03	0	44	102	1048576	20	5486
2026-01-06 23:14:40.44	150.08	15.08	-30.2	-34.2	12.0	3.61e-04	0	44	102	1048576	20	5689
2026-01-06 23:14:43.45	150.46	14.82	-30.2	-34.2	11.9	3.17e-04	0	44	102	1048576	20	5679
2026-01-06 23:14:46.47	150.83	14.56	-29.9	-33.3	12.6	1.52e-04	0	44	102	1048576	20	5292
2026-01-06 23:14:49.48	151.19	14.30	-29.9	-33.1	12.6	1.05e-04	0	43	102	1048576	20	5252
2026-01-06 23:14:52.50	151.54	14.04	-30.0	-33.5	12.3	1.72e-04	0	44	102	1048576	20	5408
2026-01-06 23:14:55.52	151.89	13.79	-30.1	-34.1	11.9	4.24e-04	0	44	102	1048576	20	5697
2026-01-06 23:14:58.54	152.24	13.53	-30.2	-34.4	11.7	5.65e-04	0	44	102	1048576	20	5810
2026-01-06 23:15:01.56	152.58	13.28	-29.9	-33.4	12.3	2.02e-04	0	44	102	1048576	20	5401
2026-01-06 23:15:04.59	152.91	13.03	-29.8	-33.5	12.7	9.53e-05	0	44	102	1048576	19	5494
2026-01-06 23:15:07.61	153.24	12.78	-29.8	-33.7	11.7	1.26e-04	0	44	102	1048576	19	5584
2026-01-06 23:15:10.63	153.57	12.54	-29.7	-33.4	12.8	6.63e-05	0	44	102	1048576	19	5459
2026-01-06 23:15:13.66	153.89	12.29	-30.0	-33.6	12.2	1.55e-04	0	44	102	1048576	20	5438
2026-01-06 23:15:16.68	154.20	12.05	-30.1	-34.1	11.9	9.09e-04	0	44	102	1048576	20	5660
2026-01-06 23:15:19.70	154.51	11.81	-30.1	-34.1	11.8	2.88e-03	0	44	102	1048576	20	5665
2026-01-06 23:15:22.72	154.81	11.57	-30.0	-33.7	12.1	2.50e-03	0	44	102	1048576	20	5502
2026-01-06 23:15:25.75	155.11	11.33	-29.9	-34.0	12.3	2.60e-03	0	44	102	1048576	19	5718
2026-01-06 23:15:28.75	155.40	11.09	-29.9	-33.6	12.6	8.01e-05	0	43	102	1048576	19	5554
2026-01-06 23:15:31.77	155.69	10.86	-29.9	-33.7	12.5	9.91e-05	0	44	102	1048576	19	5581
2026-01-06 23:15:34.79	155.98	10.62	-30.0	-33.9	12.4	2.58e-03	0	44	102	1048576	19	5676
2026-01-06 23:15:37.82	156.26	10.39	-30.0	-33.8	12.0	2.58e-03	0	44	102	1048576	20	5531
2026-01-06 23:15:40.83	156.53	10.16	-30.0	-33.5	12.2	2.33e-03	0	44	102	1048576	20	5406
2026-01-06 23:15:43.85	156.81	9.93	-30.0	-33.6	12.1	2.72e-03	0	44	102	1048576	20	5444
2026-01-06 23:15:46.87	157.08	9.70	-30.2	-34.1	11.8	2.72e-03	0	44	102	1048576	20	5668
2026-01-06 23:15:49.89	157.34	9.48	-30.2	-34.1	11.7	2.79e-03	0	44	102	1048576	20	5684
2026-01-06 23:15:52.91	157.60	9.25	-30.3	-34.6	11.4	7.54e-04	0	44	102	1048576	20	5888
2026-01-06 23:15:55.93	157.86	9.03	-30.4	-35.0	11.1	1.62e-03	0	44	102	1048576	20	6109
2026-01-06 23:15:58.94	158.11	8.81	-30.4	-35.0	11.0	1.59e-03	0	43	102	1048576	20	6094
2026-01-06 23:16:01.96	158.36	8.59	-30.4	-34.9	11.1	3.81e-03	0	44	102	1048576	20	6040
2026-01-06 23:16:04.99	158.61	8.37	-30.3	-34.8	11.2	4.02e-03	0	44	102	1048576	20	5992
2026-01-06 23:16:08.01	158.85	8.16	-30.4	-35.0	11.0	3.91e-03	0	44	102	1048576	20	6116
2026-01-06 23:16:11.03	159.09	7.94	-30.4	-35.0	10.9	1.72e-03	0	44	102	1048576	20	6116
2026-01-06 23:16:14.06	159.32	7.73	-30.4	-35.3	10.6	2.40e-03	0	44	102	1048576	20	6317
2026-01-06 23:16:17.06	159.56	7.51	-30.4	-35.2	10.6	3.16e-03	0	43	102	1048576	20	6295
2026-01-06 23:16:20.09	159.79	7.30	-30.5	-35.4	10.0	7.18e-03	0	44	102	1048576	21	6315
2026-01-06 23:16:23.11	160.01	7.09	-30.7	-35.8	9.7	1.07e-02	0	44	102	1048576	21	6524
2026-01-06 23:16:26.13	160.23	6.88	-33.5	-47.6	3.8	1.49e+00	0	44	104	1048576	27	18359

#Closed at: 2026-01-06 23:16:26
#Recorded file [1 MB]: D:/data/31010_260107_020523.dat