passes_logs/2026/01/06/R2M6_AANII_01/R2M6_AANII_01__20260106_100644_NOAA_21_JPSS-2_rec.log

#Pass ID: 20260106_100644_NOAA 21 (JPSS-2)
#Satellite: NOAA 21 (JPSS-2)
#Configuration: NOAA 21
#almurnet v.1.7.20240730
#Start time: 2026-01-06 10:08:22

#Version: 2.2.20231116
#Station: R2M6_AANII_01
#Location: 30.233357 lon 59.946436 lat
#TLE: 1 54234U 22150A   26005.21525222  .00000150  00000+0  91957-4 0  9992
#TLE: 2 54234  98.7490 306.2339 0001053 341.6032  18.5106 14.19532220163427

#Time	Az	El	Level	Level2	SNR	BER	BlckErr	Temp	State	Recorded	gain1	gain2
2026-01-06 10:08:22.91	152.81	16.06	-33.3	-44.6	3.8	8.46e-01	0	43	0	0	26	13272
2026-01-06 10:08:25.92	152.76	16.40	-34.0	-45.3	3.8	1.49e+00	0	43	104	0	29	13244
2026-01-06 10:08:28.94	152.71	16.75	-34.1	-45.4	3.8	1.49e+00	0	44	104	0	29	13353
2026-01-06 10:08:31.95	152.67	17.10	-34.1	-45.5	3.8	1.49e+00	0	44	104	0	29	13412
2026-01-06 10:08:34.97	152.62	17.45	-34.1	-45.4	3.8	1.49e+00	0	43	104	0	29	13340
2026-01-06 10:08:38.00	152.57	17.81	-34.1	-45.5	3.8	1.49e+00	0	43	104	0	29	13412
2026-01-06 10:08:41.03	152.52	18.18	-34.1	-45.5	3.8	1.49e+00	0	43	104	0	29	13430
2026-01-06 10:08:44.05	152.46	18.55	-34.2	-45.7	3.8	1.49e+00	0	43	104	0	29	13573
2026-01-06 10:08:47.07	152.41	18.92	-34.0	-45.4	3.8	1.49e+00	0	43	104	0	29	13342
2026-01-06 10:08:50.08	152.35	19.31	-33.8	-44.9	3.8	1.49e+00	0	43	104	0	29	12991
2026-01-06 10:08:53.10	152.29	19.69	-33.6	-45.1	3.8	1.49e+00	0	44	104	0	28	13557
2026-01-06 10:08:56.12	152.24	20.09	-33.3	-44.8	3.8	1.49e+00	0	44	104	0	27	13548
2026-01-06 10:08:59.14	152.17	20.49	-33.3	-45.0	3.8	1.49e+00	0	44	104	0	27	13792
2026-01-06 10:09:02.17	152.11	20.90	-33.1	-42.7	3.8	1.49e+00	0	43	104	0	27	10893
2026-01-06 10:09:05.19	152.05	21.31	-32.5	-38.7	5.3	6.26e-01	0	43	0	0	26	7333
2026-01-06 10:09:08.21	151.98	21.73	-30.9	-34.1	9.3	3.33e-02	0	44	102	1048576	23	5174
2026-01-06 10:09:11.24	151.91	22.16	-28.7	-30.4	13.4	2.51e-05	0	43	102	1048576	18	4416
2026-01-06 10:09:14.26	151.84	22.59	-27.6	-28.9	14.9	0.00e+00	0	44	102	1048576	16	4192
2026-01-06 10:09:17.28	151.76	23.03	-28.4	-30.8	13.7	2.20e-06	0	44	102	1048576	16	4765
2026-01-06 10:09:20.29	151.69	23.48	-27.9	-29.7	14.4	7.00e-07	0	44	102	1048576	16	4421
2026-01-06 10:09:23.31	151.61	23.94	-26.9	-27.9	15.6	0.00e+00	0	43	102	1048576	15	4033
2026-01-06 10:09:26.33	151.53	24.41	-27.0	-28.0	15.6	0.00e+00	0	44	102	1048576	15	4046
2026-01-06 10:09:29.35	151.44	24.88	-26.9	-27.9	15.6	0.00e+00	0	43	102	1048576	15	4031
2026-01-06 10:09:32.37	151.36	25.36	-26.7	-27.8	15.9	0.00e+00	0	43	102	1048576	14	4107
2026-01-06 10:09:35.39	151.27	25.85	-26.7	-27.9	15.9	0.00e+00	0	43	102	1048576	14	4131
2026-01-06 10:09:38.40	151.17	26.35	-26.9	-28.3	15.7	0.00e+00	0	44	102	1048576	14	4227
2026-01-06 10:09:41.42	151.08	26.86	-27.3	-29.2	15.2	0.00e+00	0	43	102	1048576	14	4483
2026-01-06 10:09:44.44	150.98	27.38	-27.5	-29.1	15.0	0.00e+00	0	44	102	1048576	15	4347
2026-01-06 10:09:47.46	150.87	27.91	-27.8	-29.8	14.6	7.00e-07	0	44	102	1048576	15	4557
2026-01-06 10:09:50.48	150.76	28.45	-27.9	-30.2	14.4	7.00e-07	0	43	102	1048576	15	4664
2026-01-06 10:09:53.50	150.65	29.00	-28.3	-30.4	14.2	4.50e-06	0	44	102	1048576	16	4621
2026-01-06 10:09:56.52	150.54	29.56	-27.9	-29.5	14.7	7.00e-07	0	43	102	1048576	16	4351
2026-01-06 10:09:59.53	150.42	30.13	-27.6	-28.9	15.1	0.00e+00	0	44	102	1048576	16	4167
2026-01-06 10:10:02.55	150.29	30.71	-27.5	-28.6	15.3	0.00e+00	0	43	102	1048576	16	4082
2026-01-06 10:10:05.57	150.16	31.31	-27.1	-28.3	15.6	0.00e+00	0	44	102	1048576	15	4123
2026-01-06 10:10:08.58	150.03	31.92	-27.0	-27.9	15.8	0.00e+00	0	44	102	1048576	15	4020
2026-01-06 10:10:11.61	149.89	32.54	-26.9	-28.2	15.9	0.00e+00	0	43	102	1048576	14	4203
2026-01-06 10:10:14.63	149.74	33.17	-27.1	-28.6	15.7	0.00e+00	0	44	102	1048576	14	4317
2026-01-06 10:10:17.65	149.59	33.82	-27.6	-29.3	15.1	0.00e+00	0	44	102	1048576	15	4378
2026-01-06 10:10:20.67	149.43	34.48	-27.8	-29.7	14.9	0.00e+00	0	44	102	1048576	15	4516
2026-01-06 10:10:23.69	149.26	35.15	-28.2	-30.2	14.5	0.00e+00	0	44	102	1048576	16	4521
2026-01-06 10:10:26.71	149.09	35.84	-28.6	-30.6	14.0	7.60e-06	0	44	102	1048576	17	4543
2026-01-06 10:10:29.72	148.91	36.54	-28.3	-29.9	14.4	7.00e-07	0	43	102	1048576	17	4324
2026-01-06 10:10:32.73	148.72	37.25	-28.2	-29.7	14.5	1.50e-06	0	44	102	1048576	17	4258
2026-01-06 10:10:35.75	148.52	37.98	-28.2	-29.6	14.5	7.00e-07	0	44	102	1048576	17	4254
2026-01-06 10:10:38.77	148.31	38.73	-28.4	-30.1	14.3	1.50e-06	0	43	102	1048576	17	4374
2026-01-06 10:10:41.79	148.09	39.50	-28.3	-29.8	14.5	0.00e+00	0	43	102	1048576	17	4315
2026-01-06 10:10:44.82	147.86	40.28	-28.1	-29.4	14.7	0.00e+00	0	43	102	1048576	17	4188
2026-01-06 10:10:47.84	147.62	41.08	-28.2	-29.6	14.6	1.50e-06	0	43	102	1048576	17	4255
2026-01-06 10:10:50.87	147.36	41.90	-29.0	-31.5	13.5	7.60e-06	0	43	102	1048576	17	4815
2026-01-06 10:10:53.88	147.09	42.73	-29.2	-31.5	13.2	1.52e-05	0	44	102	1048576	18	4708
2026-01-06 10:10:56.91	146.81	43.59	-29.3	-31.8	13.1	3.35e-05	0	44	102	1048576	18	4797
2026-01-06 10:10:59.93	146.51	44.46	-29.5	-31.8	12.8	7.40e-05	0	44	102	1048576	19	4678
2026-01-06 10:11:02.95	146.19	45.34	-29.9	-32.7	12.2	2.29e-04	0	44	102	1048576	19	5007
2026-01-06 10:11:05.97	145.85	46.25	-29.9	-32.8	12.1	2.78e-04	0	43	102	1048576	19	5021
2026-01-06 10:11:08.98	145.49	47.18	-29.3	-31.3	13.1	4.42e-05	0	43	102	1048576	19	4548
2026-01-06 10:11:12.01	145.11	48.13	-29.0	-30.5	13.5	7.60e-06	0	43	102	1048576	19	4301
2026-01-06 10:11:15.03	144.71	49.09	-28.7	-30.4	13.9	3.00e-06	0	44	102	1048576	18	4371
2026-01-06 10:11:18.05	144.27	50.08	-28.9	-30.9	13.6	8.30e-06	0	43	102	1048576	18	4521
2026-01-06 10:11:21.07	143.81	51.08	-28.9	-30.7	13.8	5.30e-06	0	43	102	1048576	18	4463
2026-01-06 10:11:24.09	143.32	52.11	-28.5	-29.8	14.3	1.50e-06	0	43	102	1048576	18	4196
2026-01-06 10:11:27.09	142.79	53.15	-28.1	-29.5	14.8	1.50e-06	0	43	102	1048576	17	4202
2026-01-06 10:11:30.11	142.22	54.21	-28.3	-29.8	14.6	0.00e+00	0	43	102	1048576	17	4305
2026-01-06 10:11:33.13	141.60	55.29	-27.8	-28.8	15.2	0.00e+00	0	43	102	1048576	17	4029
2026-01-06 10:11:36.15	140.93	56.40	-27.7	-29.0	15.4	0.00e+00	0	44	102	1048576	16	4172
2026-01-06 10:11:39.17	140.20	57.52	-27.5	-28.4	15.7	0.00e+00	0	43	102	1048576	16	4027
2026-01-06 10:11:42.19	139.42	58.65	-26.7	-27.8	16.4	0.00e+00	0	43	102	1048576	14	4071
2026-01-06 10:11:45.21	138.56	59.81	-26.7	-27.9	16.4	0.00e+00	0	44	102	1048576	14	4102
2026-01-06 10:11:48.23	137.61	60.97	-26.5	-27.3	16.8	0.00e+00	0	44	102	1048576	14	3948
2026-01-06 10:11:51.25	136.58	62.16	-26.3	-27.3	17.0	0.00e+00	0	44	102	1048576	13	4053
2026-01-06 10:11:54.27	135.44	63.35	-26.1	-26.9	17.2	0.00e+00	0	44	102	1048576	13	3950
2026-01-06 10:11:57.28	134.18	64.55	-26.4	-27.6	16.8	0.00e+00	0	44	102	1048576	13	4152
2026-01-06 10:12:00.30	132.77	65.76	-26.2	-27.2	17.0	0.00e+00	0	44	102	1048576	13	4033
2026-01-06 10:12:03.32	131.20	66.97	-26.1	-27.0	17.1	0.00e+00	0	43	102	1048576	13	4000
2026-01-06 10:12:06.34	129.43	68.18	-26.7	-28.2	16.5	0.00e+00	0	44	102	1048576	13	4303
2026-01-06 10:12:09.37	127.43	69.40	-26.3	-27.5	16.8	0.00e+00	0	43	102	1048576	13	4108
2026-01-06 10:12:12.40	125.16	70.60	-25.9	-26.5	17.4	0.00e+00	0	43	102	1048576	13	3865
2026-01-06 10:12:15.41	122.59	71.77	-25.4	-26.4	18.0	0.00e+00	0	43	102	1048576	11	4048
2026-01-06 10:12:18.43	119.64	72.92	-26.0	-27.3	17.3	0.00e+00	0	44	102	1048576	12	4161
2026-01-06 10:12:21.44	116.26	74.03	-25.7	-26.6	17.6	0.00e+00	0	44	102	1048576	12	3993
2026-01-06 10:12:24.44	112.37	75.08	-25.5	-26.7	17.9	0.00e+00	0	43	102	1048576	11	4114
2026-01-06 10:12:27.45	107.88	76.06	-25.3	-26.2	18.2	0.00e+00	0	44	102	1048576	11	3998
2026-01-06 10:12:30.46	102.71	76.96	-25.8	-27.2	17.7	0.00e+00	0	43	102	1048576	11	4240
2026-01-06 10:12:33.47	96.81	77.74	-25.9	-27.5	17.5	0.00e+00	0	43	102	1048576	11	4338
2026-01-06 10:12:36.49	90.14	78.39	-26.6	-28.1	16.6	0.00e+00	0	44	102	1048576	13	4269
2026-01-06 10:12:39.49	82.83	78.86	-26.5	-27.9	16.8	0.00e+00	0	43	102	1048576	13	4215
2026-01-06 10:12:42.51	74.94	79.14	-26.4	-27.5	17.0	0.00e+00	0	43	102	1048576	13	4110
2026-01-06 10:12:45.54	66.76	79.21	-26.0	-26.7	17.4	0.00e+00	0	43	102	1048576	13	3899
2026-01-06 10:12:48.56	58.67	79.07	-26.5	-27.8	16.8	0.00e+00	0	43	102	1048576	13	4182
2026-01-06 10:12:51.59	50.92	78.71	-26.1	-27.5	17.3	0.00e+00	0	43	102	1048576	12	4209
2026-01-06 10:12:54.60	43.82	78.18	-26.2	-27.7	17.2	0.00e+00	0	44	102	1048576	12	4256
2026-01-06 10:12:57.62	37.41	77.48	-26.5	-27.8	16.8	7.00e-07	0	43	102	1048576	13	4179
2026-01-06 10:13:00.65	31.74	76.65	-26.2	-27.2	17.2	9.10e-06	0	44	102	1048576	13	4026
2026-01-06 10:13:03.67	26.81	75.72	-25.9	-26.6	17.4	0.00e+00	0	44	102	1048576	13	3870
2026-01-06 10:13:06.69	22.53	74.71	-25.8	-26.8	17.6	0.00e+00	0	44	102	1048576	12	4027
2026-01-06 10:13:09.71	18.82	73.63	-26.6	-27.9	16.7	0.00e+00	0	44	102	1048576	13	4210
2026-01-06 10:13:12.72	15.61	72.51	-26.0	-26.8	17.4	0.00e+00	0	43	102	1048576	13	3913
2026-01-06 10:13:15.75	12.80	71.34	-26.1	-27.0	17.2	0.00e+00	0	43	102	1048576	13	3968
2026-01-06 10:13:18.76	10.35	70.16	-24.9	-25.3	18.6	0.00e+00	0	43	102	1048576	11	3782
2026-01-06 10:13:21.77	8.21	68.97	-26.5	-27.8	16.6	0.00e+00	0	43	102	1048576	13	4189
2026-01-06 10:13:24.79	6.30	67.76	-26.5	-27.9	16.7	0.00e+00	0	43	102	1048576	13	4204
2026-01-06 10:13:27.82	4.60	66.55	-27.5	-29.5	15.6	0.00e+00	0	43	102	1048576	14	4553
2026-01-06 10:13:30.84	3.10	65.34	-26.0	-26.7	17.3	0.00e+00	0	43	102	1048576	13	3912
2026-01-06 10:13:33.87	1.74	64.13	-26.6	-28.0	16.5	0.00e+00	0	44	102	1048576	13	4244
2026-01-06 10:13:36.89	0.53	62.93	-27.1	-28.7	15.8	0.00e+00	0	43	102	1048576	14	4310
2026-01-06 10:13:39.91	359.43	61.75	-27.3	-29.0	15.8	0.00e+00	0	44	102	1048576	14	4412
2026-01-06 10:13:42.93	358.43	60.58	-29.0	-31.1	13.7	1.14e-05	0	43	102	1048576	18	4555
2026-01-06 10:13:45.95	357.52	59.42	-27.8	-28.8	14.9	7.00e-07	0	43	102	1048576	17	4028
2026-01-06 10:13:48.97	356.69	58.27	-27.0	-28.5	16.0	0.00e+00	0	43	102	1048576	14	4252
2026-01-06 10:13:51.99	355.92	57.15	-29.2	-31.6	13.2	1.29e-05	0	44	102	1048576	18	4708
2026-01-06 10:13:55.00	355.22	56.04	-28.4	-29.6	14.5	2.20e-06	0	43	102	1048576	18	4122
2026-01-06 10:13:58.02	354.58	54.95	-28.8	-30.4	14.0	0.00e+00	0	44	102	1048576	18	4361
2026-01-06 10:14:01.04	353.98	53.88	-29.7	-32.2	12.6	4.65e-05	0	43	102	1048576	19	4817
2026-01-06 10:14:04.05	353.42	52.83	-29.7	-31.8	12.5	1.89e-04	0	43	102	1048576	20	4590
2026-01-06 10:14:07.07	352.90	51.79	-28.6	-30.0	14.3	3.00e-06	0	43	102	1048576	18	4237
2026-01-06 10:14:10.09	352.42	50.78	-28.6	-30.0	14.2	1.50e-06	0	43	102	1048576	18	4253
2026-01-06 10:14:13.11	351.97	49.78	-29.0	-31.0	13.6	3.80e-06	0	43	102	1048576	18	4543
2026-01-06 10:14:16.11	351.55	48.81	-29.9	-32.5	12.1	2.85e-04	0	44	102	1048576	20	4813
2026-01-06 10:14:19.13	351.16	47.86	-29.5	-31.3	12.6	1.41e-04	0	43	102	1048576	20	4442
2026-01-06 10:14:22.15	350.79	46.92	-29.2	-31.0	13.3	1.90e-05	0	44	102	1048576	19	4424
2026-01-06 10:14:25.18	350.44	46.00	-30.0	-33.0	12.1	2.27e-04	0	44	102	1048576	19	5093
2026-01-06 10:14:28.20	350.11	45.10	-29.8	-32.1	12.3	3.01e-04	0	44	102	1048576	20	4666
2026-01-06 10:14:31.22	349.80	44.23	-29.5	-31.2	12.7	1.09e-04	0	43	102	1048576	20	4413
2026-01-06 10:14:34.23	349.50	43.37	-29.7	-32.4	12.2	1.23e-04	0	43	102	1048576	19	4910
2026-01-06 10:14:37.25	349.23	42.53	-29.9	-32.4	11.9	5.24e-04	0	44	102	1048576	20	4797
2026-01-06 10:14:40.27	348.96	41.70	-28.8	-30.2	13.7	5.30e-06	0	44	102	1048576	19	4196
2026-01-06 10:14:43.29	348.71	40.89	-28.9	-30.4	13.6	9.90e-06	0	43	102	1048576	19	4263
2026-01-06 10:14:46.31	348.48	40.10	-29.2	-31.1	13.1	2.13e-05	0	43	102	1048576	19	4467
2026-01-06 10:14:49.33	348.25	39.33	-29.0	-30.6	13.4	1.14e-05	0	44	102	1048576	19	4326
2026-01-06 10:14:52.35	348.04	38.58	-29.2	-31.1	13.1	3.12e-05	0	44	102	1048576	19	4477
2026-01-06 10:14:55.37	347.83	37.83	-29.3	-31.4	12.9	4.19e-05	0	44	102	1048576	19	4557
2026-01-06 10:14:58.38	347.64	37.11	-28.4	-29.6	14.3	1.50e-06	0	44	102	1048576	18	4139
2026-01-06 10:15:01.39	347.45	36.41	-28.0	-29.1	14.8	7.00e-07	0	44	102	1048576	17	4122
2026-01-06 10:15:04.40	347.28	35.71	-28.0	-29.3	14.7	0.00e+00	0	44	102	1048576	17	4167
2026-01-06 10:15:07.43	347.11	35.03	-28.1	-29.5	14.6	7.00e-07	0	44	102	1048576	17	4227
2026-01-06 10:15:10.45	346.94	34.36	-28.1	-29.5	14.6	7.00e-07	0	44	102	1048576	17	4234
2026-01-06 10:15:13.47	346.79	33.71	-28.1	-29.5	14.6	0.00e+00	0	43	102	1048576	17	4214
2026-01-06 10:15:16.49	346.64	33.07	-27.6	-28.7	15.3	0.00e+00	0	44	102	1048576	16	4124
2026-01-06 10:15:19.51	346.50	32.45	-27.5	-28.6	15.4	0.00e+00	0	44	102	1048576	16	4073
2026-01-06 10:15:22.53	346.36	31.83	-27.3	-28.7	15.4	0.00e+00	0	43	102	1048576	15	4226
2026-01-06 10:15:25.56	346.23	31.23	-27.5	-29.2	15.1	0.00e+00	0	44	102	1048576	15	4362
2026-01-06 10:15:28.59	346.10	30.64	-27.6	-29.3	15.0	0.00e+00	0	44	102	1048576	15	4392
2026-01-06 10:15:31.61	345.98	30.06	-27.4	-29.0	15.2	0.00e+00	0	44	102	1048576	15	4305
2026-01-06 10:15:34.63	345.86	29.50	-27.4	-28.9	15.2	0.00e+00	0	44	102	1048576	15	4283
2026-01-06 10:15:37.66	345.75	28.94	-27.5	-29.1	15.1	7.00e-07	0	44	102	1048576	15	4336
2026-01-06 10:15:40.67	345.64	28.40	-27.4	-28.9	15.2	0.00e+00	0	44	102	1048576	15	4295
2026-01-06 10:15:43.68	345.53	27.86	-27.2	-28.5	15.5	0.00e+00	0	43	102	1048576	15	4167
2026-01-06 10:15:46.69	345.43	27.34	-27.0	-27.9	15.7	0.00e+00	0	44	102	1048576	15	4022
2026-01-06 10:15:49.71	345.34	26.83	-26.7	-27.8	16.1	0.00e+00	0	44	102	1048576	14	4103
2026-01-06 10:15:52.73	345.24	26.32	-26.6	-27.7	16.1	0.00e+00	0	44	102	1048576	14	4072
2026-01-06 10:15:55.75	345.15	25.83	-26.8	-28.0	15.9	0.00e+00	0	44	102	1048576	14	4140
2026-01-06 10:15:58.76	345.07	25.34	-26.8	-28.1	15.9	0.00e+00	0	44	102	1048576	14	4176
2026-01-06 10:16:01.78	344.98	24.87	-26.7	-27.9	16.0	0.00e+00	0	44	102	1048576	14	4113
2026-01-06 10:16:04.79	344.90	24.40	-26.6	-27.5	16.1	0.00e+00	0	43	102	1048576	14	4026
2026-01-06 10:16:07.82	344.82	23.93	-26.7	-27.9	15.9	0.00e+00	0	44	102	1048576	14	4139
2026-01-06 10:16:10.84	344.75	23.48	-26.7	-27.8	16.0	0.00e+00	0	44	102	1048576	14	4100
2026-01-06 10:16:13.86	344.67	23.04	-26.7	-27.8	16.0	0.00e+00	0	44	102	1048576	14	4095
2026-01-06 10:16:16.88	344.60	22.60	-26.9	-28.2	15.8	0.00e+00	0	44	102	1048576	14	4205
2026-01-06 10:16:19.90	344.53	22.17	-26.5	-27.4	16.2	0.00e+00	0	44	102	1048576	14	4006
2026-01-06 10:16:22.92	344.46	21.74	-26.5	-27.5	16.1	0.00e+00	0	44	102	1048576	14	4014
2026-01-06 10:16:25.94	344.40	21.33	-26.7	-27.8	16.0	0.00e+00	0	43	102	1048576	14	4097
2026-01-06 10:16:28.96	344.34	20.92	-26.5	-27.4	16.1	0.00e+00	0	44	102	1048576	14	3991
2026-01-06 10:16:31.99	344.28	20.51	-26.6	-27.7	15.9	0.00e+00	0	44	102	1048576	14	4083
2026-01-06 10:16:35.00	344.22	20.12	-26.6	-27.8	15.9	0.00e+00	0	44	102	1048576	14	4091
2026-01-06 10:16:38.02	344.16	19.73	-26.8	-28.1	15.7	0.00e+00	0	44	102	1048576	14	4187
2026-01-06 10:16:41.03	344.10	19.34	-26.9	-28.3	15.6	0.00e+00	0	44	102	1048576	14	4245
2026-01-06 10:16:44.05	344.05	18.96	-27.1	-28.9	15.3	7.00e-07	0	44	102	1048576	14	4403
2026-01-06 10:16:47.07	344.00	18.59	-27.1	-28.8	15.3	0.00e+00	0	43	102	1048576	14	4382
2026-01-06 10:16:50.09	343.95	18.22	-27.2	-29.1	15.1	0.00e+00	0	44	102	1048576	14	4477
2026-01-06 10:16:53.12	343.90	17.86	-27.4	-29.5	14.9	0.00e+00	0	44	102	1048576	14	4598
2026-01-06 10:16:56.14	343.85	17.50	-27.6	-29.6	14.5	0.00e+00	0	44	102	1048576	15	4500
2026-01-06 10:16:59.16	343.81	17.15	-27.7	-29.7	14.4	0.00e+00	0	44	102	1048576	15	4551
2026-01-06 10:17:02.18	343.76	16.80	-27.8	-30.1	14.2	3.00e-06	0	44	102	1048576	15	4649
2026-01-06 10:17:05.20	343.72	16.46	-27.9	-30.2	14.1	7.00e-07	0	44	102	1048576	15	4685
2026-01-06 10:17:08.22	343.67	16.12	-28.1	-30.2	14.0	3.80e-06	0	44	102	1048576	16	4560
2026-01-06 10:17:11.24	343.63	15.79	-27.9	-29.7	14.3	7.00e-07	0	44	102	1048576	16	4413
2026-01-06 10:17:14.25	343.59	15.46	-27.9	-29.5	14.4	7.00e-07	0	44	102	1048576	16	4373
2026-01-06 10:17:17.28	343.55	15.14	-27.8	-29.5	14.3	7.00e-07	0	44	102	1048576	16	4364
2026-01-06 10:17:20.29	343.52	14.82	-27.9	-29.6	14.3	7.00e-07	0	44	102	1048576	16	4382
2026-01-06 10:17:23.32	343.48	14.50	-27.9	-29.8	14.2	7.00e-07	0	44	102	1048576	16	4438
2026-01-06 10:17:26.33	343.44	14.19	-28.0	-30.0	14.0	1.50e-06	0	44	102	1048576	16	4497
2026-01-06 10:17:29.34	343.41	13.89	-28.0	-30.0	14.0	1.50e-06	0	43	102	1048576	16	4517
2026-01-06 10:17:32.36	343.38	13.58	-28.0	-29.9	14.0	1.50e-06	0	43	102	1048576	16	4493
2026-01-06 10:17:35.39	343.34	13.28	-28.1	-30.1	13.9	4.50e-06	0	44	102	1048576	16	4534
2026-01-06 10:17:38.41	343.31	12.99	-28.1	-30.2	13.8	5.30e-06	0	43	102	1048576	16	4581
2026-01-06 10:17:41.43	343.28	12.69	-28.1	-30.2	13.8	8.30e-06	0	44	102	1048576	16	4575
2026-01-06 10:17:44.44	343.25	12.41	-28.3	-30.6	13.5	4.50e-06	0	44	102	1048576	16	4693
2026-01-06 10:17:47.46	343.22	12.12	-28.3	-30.8	13.4	9.90e-06	0	43	102	1048576	16	4762
2026-01-06 10:17:50.46	343.19	11.84	-28.3	-30.8	13.4	1.44e-05	0	44	102	1048576	16	4778
2026-01-06 10:17:53.47	343.16	11.56	-28.4	-31.0	13.2	2.59e-05	0	44	102	1048576	16	4844
2026-01-06 10:17:56.49	343.14	11.28	-28.5	-30.6	13.1	2.97e-05	0	43	102	1048576	17	4616
2026-01-06 10:17:59.51	343.11	11.01	-28.5	-30.8	13.0	3.35e-05	0	43	102	1048576	17	4668
2026-01-06 10:18:02.53	343.09	10.74	-28.6	-31.0	12.9	5.41e-05	0	44	102	1048576	17	4727
2026-01-06 10:18:05.56	343.06	10.47	-28.5	-30.8	13.0	2.67e-05	0	44	102	1048576	17	4671
2026-01-06 10:18:08.57	343.04	10.21	-28.7	-31.1	12.7	8.08e-05	0	44	102	1048576	17	4781
2026-01-06 10:18:11.59	343.01	9.95	-28.8	-31.4	12.6	9.53e-05	0	43	102	1048576	17	4861
2026-01-06 10:18:14.60	342.99	9.69	-28.8	-31.5	12.5	1.27e-04	0	44	102	1048576	17	4893
2026-01-06 10:18:17.62	342.97	9.43	-28.9	-31.7	12.3	2.10e-04	0	43	102	1048576	17	4994
2026-01-06 10:18:20.64	342.95	9.18	-29.3	-32.4	11.5	6.66e-04	0	44	102	1048576	18	5116
2026-01-06 10:18:23.66	342.93	8.93	-29.3	-32.3	11.6	7.70e-04	0	43	102	1048576	18	5075
2026-01-06 10:18:26.68	342.91	8.68	-29.3	-32.2	11.6	7.01e-04	0	43	102	1048576	18	5049
2026-01-06 10:18:29.70	342.89	8.43	-29.2	-31.5	11.7	6.12e-04	0	44	102	1048576	19	4695
2026-01-06 10:18:32.71	342.87	8.19	-28.9	-30.8	12.2	2.08e-04	0	43	102	1048576	19	4475
2026-01-06 10:18:35.74	342.85	7.95	-28.9	-30.8	12.1	2.53e-04	0	44	102	1048576	19	4495
2026-01-06 10:18:38.75	342.83	7.71	-29.0	-31.0	12.0	3.13e-04	0	44	102	1048576	19	4533
2026-01-06 10:18:41.76	342.81	7.47	-29.0	-31.1	11.9	4.10e-04	0	43	102	1048576	19	4576
2026-01-06 10:18:44.78	342.79	7.24	-29.1	-31.3	11.8	5.01e-04	0	44	102	1048576	19	4635
2026-01-06 10:18:47.80	342.78	7.01	-33.1	-44.8	3.8	1.49e+00	0	44	104	1048576	26	13799

#Closed at: 2026-01-06 10:18:48
#Recorded file [1 MB]: D:/data/31010_260106_130905.dat