passes_logs/2026/01/06/R2M6_AANII_01/R2M6_AANII_01__20260106_114819_NOAA_21_JPSS-2_rec.log

#Pass ID: 20260106_114819_NOAA 21 (JPSS-2)
#Satellite: NOAA 21 (JPSS-2)
#Configuration: NOAA 21
#almurnet v.1.7.20240730
#Start time: 2026-01-06 11:49:02

#Version: 2.2.20231116
#Station: R2M6_AANII_01
#Location: 30.233357 lon 59.946436 lat
#TLE: 1 54234U 22150A   26005.21525222  .00000150  00000+0  91957-4 0  9992
#TLE: 2 54234  98.7490 306.2339 0001053 341.6032  18.5106 14.19532220163427

#Time	Az	El	Level	Level2	SNR	BER	BlckErr	Temp	State	Recorded	gain1	gain2
2026-01-06 11:49:02.92	212.80	9.96	-33.6	-44.7	3.8	8.47e-01	0	43	0	0	27	12875
2026-01-06 11:49:05.94	213.13	10.17	-34.0	-45.3	3.8	1.49e+00	0	43	104	0	29	13258
2026-01-06 11:49:08.96	213.46	10.39	-34.0	-45.3	3.8	1.49e+00	0	43	104	0	29	13277
2026-01-06 11:49:11.98	213.79	10.60	-34.0	-45.3	3.8	1.49e+00	0	44	104	0	29	13280
2026-01-06 11:49:15.01	214.13	10.82	-34.0	-45.3	3.8	1.49e+00	0	43	104	0	29	13236
2026-01-06 11:49:18.01	214.47	11.04	-34.0	-45.3	3.8	1.49e+00	0	44	104	0	29	13229
2026-01-06 11:49:21.02	214.82	11.25	-34.0	-45.3	3.8	1.49e+00	0	43	104	0	29	13235
2026-01-06 11:49:24.04	215.17	11.47	-33.9	-45.1	3.8	1.49e+00	0	43	104	0	29	13088
2026-01-06 11:49:27.07	215.53	11.69	-33.7	-45.3	3.8	1.49e+00	0	43	104	0	28	13714
2026-01-06 11:49:30.09	215.89	11.91	-33.6	-45.0	3.8	1.49e+00	0	44	104	0	28	13446
2026-01-06 11:49:33.10	216.26	12.13	-33.3	-44.6	3.8	1.49e+00	0	43	104	0	28	13145
2026-01-06 11:49:36.12	216.63	12.36	-33.0	-44.3	3.8	1.49e+00	0	44	104	0	27	13233
2026-01-06 11:49:39.14	217.01	12.58	-33.0	-43.8	3.8	1.49e+00	0	43	104	0	27	12512
2026-01-06 11:49:42.16	217.40	12.81	-32.9	-43.0	3.8	1.49e+00	0	44	104	0	27	11581
2026-01-06 11:49:45.18	217.79	13.03	-33.0	-44.0	3.8	1.49e+00	0	43	104	0	27	12866
2026-01-06 11:49:48.20	218.19	13.26	-31.9	-37.3	5.9	6.47e-01	0	43	104	0	25	6692
2026-01-06 11:49:51.23	218.59	13.49	-29.3	-31.2	11.7	1.02e-03	0	44	102	1048576	20	4511
2026-01-06 11:49:54.26	219.00	13.71	-28.2	-30.1	13.4	1.29e-05	0	44	102	1048576	17	4459
2026-01-06 11:49:57.27	219.41	13.94	-29.4	-32.5	11.6	6.09e-04	0	43	102	1048576	18	5150
2026-01-06 11:50:00.28	219.83	14.17	-29.4	-32.1	11.5	9.63e-04	0	43	102	1048576	19	4894
2026-01-06 11:50:03.29	220.26	14.40	-28.6	-30.5	12.9	6.25e-05	0	43	102	1048576	18	4455
2026-01-06 11:50:06.31	220.69	14.63	-28.3	-29.7	13.4	1.14e-05	0	43	102	1048576	18	4226
2026-01-06 11:50:09.32	221.13	14.86	-27.8	-29.1	14.1	1.50e-06	0	43	102	1048576	17	4153
2026-01-06 11:50:12.35	221.58	15.10	-27.5	-28.9	14.5	7.00e-07	0	43	102	1048576	16	4194
2026-01-06 11:50:15.37	222.04	15.33	-27.4	-28.4	14.8	0.00e+00	0	43	102	1048576	16	4070
2026-01-06 11:50:18.39	222.50	15.56	-27.4	-28.5	14.8	0.00e+00	0	44	102	1048576	16	4083
2026-01-06 11:50:21.40	222.96	15.80	-27.4	-28.6	14.7	0.00e+00	0	43	102	1048576	16	4109
2026-01-06 11:50:24.43	223.44	16.03	-27.5	-28.8	14.7	0.00e+00	0	44	102	1048576	16	4163
2026-01-06 11:50:27.44	223.92	16.27	-27.7	-29.2	14.4	0.00e+00	0	44	102	1048576	16	4277
2026-01-06 11:50:30.46	224.41	16.50	-27.8	-29.4	14.3	1.50e-06	0	44	102	1048576	16	4355
2026-01-06 11:50:33.48	224.91	16.74	-27.9	-29.6	14.2	2.20e-06	0	44	102	1048576	16	4407
2026-01-06 11:50:36.51	225.41	16.97	-28.1	-30.1	13.9	5.30e-06	0	43	102	1048576	16	4551
2026-01-06 11:50:39.53	225.93	17.21	-28.2	-30.4	13.7	7.60e-06	0	43	102	1048576	16	4642
2026-01-06 11:50:42.55	226.45	17.44	-27.9	-29.6	14.2	7.00e-07	0	43	102	1048576	16	4404
2026-01-06 11:50:45.57	226.97	17.68	-28.0	-29.9	14.1	2.20e-06	0	43	102	1048576	16	4476
2026-01-06 11:50:48.58	227.51	17.92	-27.7	-29.3	14.5	3.00e-06	0	43	102	1048576	16	4303
2026-01-06 11:50:51.59	228.05	18.15	-27.8	-29.5	14.4	7.00e-07	0	44	102	1048576	16	4350
2026-01-06 11:50:54.61	228.61	18.39	-27.7	-29.1	14.6	7.00e-07	0	43	102	1048576	16	4263
2026-01-06 11:50:57.64	229.17	18.62	-27.6	-28.9	14.7	7.00e-07	0	43	102	1048576	16	4191
2026-01-06 11:51:00.65	229.74	18.85	-27.6	-29.0	14.7	0.00e+00	0	43	102	1048576	16	4211
2026-01-06 11:51:03.67	230.31	19.09	-27.5	-28.7	14.8	0.00e+00	0	43	102	1048576	16	4148
2026-01-06 11:51:06.70	230.90	19.32	-27.3	-28.3	15.0	0.00e+00	0	44	102	1048576	16	4043
2026-01-06 11:51:09.72	231.50	19.55	-27.4	-28.5	14.9	0.00e+00	0	43	102	1048576	16	4096
2026-01-06 11:51:12.74	232.10	19.79	-27.5	-28.6	14.9	3.80e-06	0	43	102	1048576	16	4117
2026-01-06 11:51:15.75	232.71	20.02	-27.3	-28.3	15.1	0.00e+00	0	43	102	1048576	16	4033
2026-01-06 11:51:18.77	233.34	20.25	-26.9	-27.8	15.5	0.00e+00	0	44	102	1048576	15	4006
2026-01-06 11:51:21.78	233.97	20.47	-26.6	-27.7	15.8	4.50e-06	0	43	102	1048576	14	4094
2026-01-06 11:51:24.79	234.61	20.70	-26.5	-27.5	16.0	5.30e-06	0	44	102	1048576	14	4026
2026-01-06 11:51:27.82	235.26	20.92	-26.4	-27.2	16.1	5.30e-06	0	43	102	1048576	14	3966
2026-01-06 11:51:30.84	235.92	21.15	-26.2	-27.3	16.3	0.00e+00	0	43	102	1048576	13	4077
2026-01-06 11:51:33.86	236.58	21.37	-26.2	-27.4	16.3	3.80e-06	0	44	102	1048576	13	4104
2026-01-06 11:51:36.88	237.26	21.59	-26.3	-27.6	16.2	0.00e+00	0	43	102	1048576	13	4153
2026-01-06 11:51:39.90	237.95	21.80	-26.4	-27.7	16.1	0.00e+00	0	43	102	1048576	13	4187
2026-01-06 11:51:42.93	238.65	22.02	-26.5	-27.9	16.0	0.00e+00	0	43	102	1048576	13	4246
2026-01-06 11:51:45.95	239.35	22.23	-26.4	-27.6	16.2	0.00e+00	0	44	102	1048576	13	4173
2026-01-06 11:51:48.96	240.07	22.44	-26.2	-27.3	16.3	0.00e+00	0	44	102	1048576	13	4093
2026-01-06 11:51:51.98	240.79	22.65	-26.2	-27.3	16.4	0.00e+00	0	44	102	1048576	13	4079
2026-01-06 11:51:54.99	241.52	22.85	-26.4	-27.7	16.2	0.00e+00	0	44	102	1048576	13	4179
2026-01-06 11:51:58.02	242.27	23.05	-26.4	-27.7	16.2	2.20e-06	0	43	102	1048576	13	4192
2026-01-06 11:52:01.03	243.02	23.25	-26.5	-27.9	16.0	0.00e+00	0	43	102	1048576	13	4252
2026-01-06 11:52:04.05	243.78	23.44	-26.2	-27.3	16.4	0.00e+00	0	43	102	1048576	13	4089
2026-01-06 11:52:07.07	244.55	23.63	-26.3	-27.6	16.3	0.00e+00	0	44	102	1048576	13	4156
2026-01-06 11:52:10.09	245.33	23.82	-26.3	-27.5	16.3	0.00e+00	0	44	102	1048576	13	4124
2026-01-06 11:52:13.12	246.12	24.00	-26.4	-27.7	16.3	0.00e+00	0	44	102	1048576	13	4172
2026-01-06 11:52:16.14	246.92	24.17	-26.6	-28.1	16.0	0.00e+00	0	44	102	1048576	13	4306
2026-01-06 11:52:19.16	247.73	24.35	-26.6	-28.2	15.9	0.00e+00	0	43	102	1048576	13	4337
2026-01-06 11:52:22.16	248.54	24.51	-26.6	-28.2	16.0	0.00e+00	0	44	102	1048576	13	4303
2026-01-06 11:52:25.18	249.36	24.68	-26.9	-28.8	15.6	7.00e-07	0	44	102	1048576	13	4498
2026-01-06 11:52:28.19	250.19	24.83	-26.8	-28.1	15.8	0.00e+00	0	44	102	1048576	14	4177
2026-01-06 11:52:31.21	251.03	24.98	-26.7	-27.9	15.9	0.00e+00	0	43	102	1048576	14	4133
2026-01-06 11:52:34.23	251.87	25.13	-26.9	-28.3	15.7	0.00e+00	0	43	102	1048576	14	4240
2026-01-06 11:52:37.26	252.73	25.27	-26.8	-28.2	15.8	0.00e+00	0	43	102	1048576	14	4201
2026-01-06 11:52:40.27	253.59	25.40	-26.7	-27.9	15.9	0.00e+00	0	43	102	1048576	14	4125
2026-01-06 11:52:43.29	254.46	25.53	-26.7	-27.9	15.9	0.00e+00	0	44	102	1048576	14	4127
2026-01-06 11:52:46.31	255.33	25.65	-26.7	-27.9	15.9	0.00e+00	0	44	102	1048576	14	4116
2026-01-06 11:52:49.33	256.22	25.77	-26.6	-27.6	16.1	0.00e+00	0	44	102	1048576	14	4059
2026-01-06 11:52:52.35	257.10	25.88	-26.6	-27.7	16.0	0.00e+00	0	44	102	1048576	14	4086
2026-01-06 11:52:55.36	258.00	25.98	-26.7	-27.9	15.9	0.00e+00	0	43	102	1048576	14	4128
2026-01-06 11:52:58.38	258.89	26.08	-26.7	-27.9	15.9	0.00e+00	0	43	102	1048576	14	4118
2026-01-06 11:53:01.39	259.80	26.16	-26.8	-28.0	15.8	0.00e+00	0	44	102	1048576	14	4166
2026-01-06 11:53:04.42	260.71	26.24	-26.7	-27.9	15.9	0.00e+00	0	44	102	1048576	14	4141
2026-01-06 11:53:07.44	261.62	26.32	-26.4	-27.2	16.3	0.00e+00	0	44	102	1048576	14	3941
2026-01-06 11:53:10.46	262.54	26.38	-26.5	-27.4	16.2	0.00e+00	0	44	102	1048576	14	4008
2026-01-06 11:53:13.49	263.46	26.44	-26.6	-27.6	16.1	0.00e+00	0	44	102	1048576	14	4041
2026-01-06 11:53:16.50	264.38	26.49	-26.6	-27.6	16.1	0.00e+00	0	43	102	1048576	14	4046
2026-01-06 11:53:19.51	265.30	26.54	-26.6	-27.6	16.0	0.00e+00	0	43	102	1048576	14	4061
2026-01-06 11:53:22.53	266.23	26.57	-26.6	-27.7	16.0	0.00e+00	0	43	102	1048576	14	4075
2026-01-06 11:53:25.56	267.16	26.60	-26.9	-28.2	15.7	0.00e+00	0	44	102	1048576	14	4206
2026-01-06 11:53:28.57	268.09	26.62	-26.7	-27.9	15.9	0.00e+00	0	44	102	1048576	14	4130
2026-01-06 11:53:31.60	269.03	26.63	-27.0	-28.5	15.6	0.00e+00	0	44	102	1048576	14	4282
2026-01-06 11:53:34.61	269.96	26.63	-26.5	-27.4	16.2	0.00e+00	0	44	102	1048576	14	4009
2026-01-06 11:53:37.63	270.89	26.63	-26.3	-27.0	16.4	0.00e+00	0	44	102	1048576	14	3903
2026-01-06 11:53:40.65	271.82	26.61	-26.3	-27.4	16.4	0.00e+00	0	43	102	1048576	13	4102
2026-01-06 11:53:43.68	272.75	26.59	-26.2	-27.3	16.5	0.00e+00	0	43	102	1048576	13	4076
2026-01-06 11:53:46.70	273.68	26.57	-26.2	-27.2	16.5	0.00e+00	0	44	102	1048576	13	4062
2026-01-06 11:53:49.71	274.61	26.53	-26.3	-27.5	16.4	0.00e+00	0	44	102	1048576	13	4124
2026-01-06 11:53:52.72	275.53	26.49	-26.3	-27.5	16.3	0.00e+00	0	43	102	1048576	13	4135
2026-01-06 11:53:55.74	276.45	26.43	-26.2	-27.2	16.5	0.00e+00	0	43	102	1048576	13	4059
2026-01-06 11:53:58.76	277.37	26.37	-26.2	-27.2	16.5	0.00e+00	0	44	102	1048576	13	4045
2026-01-06 11:54:01.77	278.28	26.31	-26.4	-27.7	16.2	0.00e+00	0	43	102	1048576	13	4193
2026-01-06 11:54:04.80	279.19	26.23	-26.4	-27.7	16.2	0.00e+00	0	43	102	1048576	13	4192
2026-01-06 11:54:07.82	280.10	26.15	-26.4	-27.6	16.3	0.00e+00	0	44	102	1048576	13	4168
2026-01-06 11:54:10.83	281.00	26.06	-26.3	-27.4	16.4	0.00e+00	0	44	102	1048576	13	4099
2026-01-06 11:54:13.85	281.90	25.97	-26.3	-27.6	16.3	0.00e+00	0	43	102	1048576	13	4154
2026-01-06 11:54:16.87	282.79	25.86	-26.4	-27.7	16.2	0.00e+00	0	44	102	1048576	13	4172
2026-01-06 11:54:19.89	283.67	25.76	-26.2	-27.4	16.4	0.00e+00	0	44	102	1048576	13	4098
2026-01-06 11:54:22.91	284.55	25.64	-26.2	-27.4	16.4	0.00e+00	0	43	102	1048576	13	4094
2026-01-06 11:54:25.93	285.42	25.52	-26.4	-27.7	16.3	0.00e+00	0	43	102	1048576	13	4177
2026-01-06 11:54:28.95	286.29	25.39	-26.4	-27.6	16.3	0.00e+00	0	44	102	1048576	13	4169
2026-01-06 11:54:31.98	287.15	25.25	-26.3	-27.4	16.4	0.00e+00	0	44	102	1048576	13	4112
2026-01-06 11:54:35.01	288.00	25.11	-26.3	-27.6	16.3	0.00e+00	0	43	102	1048576	13	4149
2026-01-06 11:54:38.02	288.84	24.97	-26.5	-28.0	16.1	0.00e+00	0	43	102	1048576	13	4253
2026-01-06 11:54:41.04	289.68	24.81	-26.5	-27.9	16.1	7.00e-07	0	43	102	1048576	13	4251
2026-01-06 11:54:44.06	290.51	24.66	-26.5	-27.9	16.1	0.00e+00	0	44	102	1048576	13	4249
2026-01-06 11:54:47.09	291.33	24.49	-26.5	-28.0	16.1	0.00e+00	0	44	102	1048576	13	4258
2026-01-06 11:54:50.11	292.14	24.33	-26.5	-27.9	16.1	0.00e+00	0	43	102	1048576	13	4238
2026-01-06 11:54:53.12	292.94	24.16	-26.5	-27.9	16.1	0.00e+00	0	43	102	1048576	13	4225
2026-01-06 11:54:56.15	293.73	23.98	-26.4	-27.8	16.1	0.00e+00	0	43	102	1048576	13	4205
2026-01-06 11:54:59.16	294.52	23.80	-26.6	-28.2	15.9	0.00e+00	0	43	102	1048576	13	4318
2026-01-06 11:55:02.19	295.29	23.61	-26.6	-28.0	16.0	0.00e+00	0	43	102	1048576	13	4274
2026-01-06 11:55:05.20	296.06	23.43	-26.4	-27.6	16.2	0.00e+00	0	44	102	1048576	13	4157
2026-01-06 11:55:08.22	296.81	23.23	-26.2	-27.4	16.3	0.00e+00	0	43	102	1048576	13	4090
2026-01-06 11:55:11.24	297.56	23.04	-26.2	-27.3	16.4	0.00e+00	0	44	102	1048576	13	4070
2026-01-06 11:55:14.26	298.30	22.84	-26.3	-27.6	16.2	0.00e+00	0	44	102	1048576	13	4161
2026-01-06 11:55:17.28	299.03	22.64	-26.5	-28.0	16.0	0.00e+00	0	43	102	1048576	13	4257
2026-01-06 11:55:20.30	299.75	22.43	-26.5	-27.9	16.0	0.00e+00	0	43	102	1048576	13	4239
2026-01-06 11:55:23.32	300.46	22.22	-26.4	-27.7	16.1	0.00e+00	0	44	102	1048576	13	4177
2026-01-06 11:55:26.34	301.16	22.01	-26.3	-27.5	16.2	0.00e+00	0	44	102	1048576	13	4133
2026-01-06 11:55:29.36	301.86	21.80	-26.3	-27.6	16.2	0.00e+00	0	44	102	1048576	13	4146
2026-01-06 11:55:32.39	302.54	21.58	-26.5	-28.0	16.0	0.00e+00	0	43	102	1048576	13	4263
2026-01-06 11:55:35.41	303.21	21.36	-26.6	-28.2	15.8	0.00e+00	0	44	102	1048576	13	4333
2026-01-06 11:55:38.43	303.88	21.14	-26.5	-28.0	16.0	0.00e+00	0	44	102	1048576	13	4265
2026-01-06 11:55:41.45	304.53	20.92	-26.3	-27.5	16.2	0.00e+00	0	44	102	1048576	13	4147
2026-01-06 11:55:44.47	305.18	20.70	-26.4	-27.8	16.0	0.00e+00	0	44	102	1048576	13	4208
2026-01-06 11:55:47.48	305.81	20.47	-26.6	-28.2	15.8	0.00e+00	0	44	102	1048576	13	4333
2026-01-06 11:55:50.50	306.44	20.25	-26.5	-28.1	15.8	0.00e+00	0	44	102	1048576	13	4294
2026-01-06 11:55:53.52	307.06	20.02	-26.5	-28.1	15.9	0.00e+00	0	43	102	1048576	13	4289
2026-01-06 11:55:56.53	307.67	19.79	-26.6	-28.2	15.8	0.00e+00	0	43	102	1048576	13	4340
2026-01-06 11:55:59.55	308.27	19.56	-26.6	-28.3	15.7	0.00e+00	0	43	102	1048576	13	4361
2026-01-06 11:56:02.57	308.86	19.33	-26.6	-28.2	15.8	0.00e+00	0	43	102	1048576	13	4324
2026-01-06 11:56:05.58	309.44	19.10	-26.8	-28.6	15.5	0.00e+00	0	43	102	1048576	13	4447
2026-01-06 11:56:08.60	310.01	18.87	-26.7	-28.5	15.6	0.00e+00	0	44	102	1048576	13	4413
2026-01-06 11:56:11.62	310.58	18.64	-26.7	-28.4	15.6	0.00e+00	0	43	102	1048576	13	4386
2026-01-06 11:56:14.64	311.14	18.40	-26.7	-28.4	15.6	0.00e+00	0	44	102	1048576	13	4390
2026-01-06 11:56:17.65	311.69	18.17	-26.8	-28.6	15.5	0.00e+00	0	43	102	1048576	13	4445
2026-01-06 11:56:20.67	312.23	17.94	-26.7	-28.4	15.6	0.00e+00	0	44	102	1048576	13	4376
2026-01-06 11:56:23.69	312.76	17.70	-26.8	-28.7	15.5	0.00e+00	0	44	102	1048576	13	4460
2026-01-06 11:56:26.71	313.29	17.47	-26.9	-28.8	15.4	0.00e+00	0	44	102	1048576	13	4513
2026-01-06 11:56:29.74	313.81	17.24	-27.0	-28.5	15.3	0.00e+00	0	44	102	1048576	14	4308
2026-01-06 11:56:32.76	314.31	17.00	-27.0	-28.7	15.2	0.00e+00	0	44	102	1048576	14	4363
2026-01-06 11:56:35.77	314.82	16.77	-27.1	-28.9	15.0	0.00e+00	0	43	102	1048576	14	4431
2026-01-06 11:56:38.80	315.31	16.54	-27.2	-29.0	15.0	0.00e+00	0	43	102	1048576	14	4460
2026-01-06 11:56:41.82	315.80	16.30	-27.1	-29.0	15.0	7.00e-07	0	44	102	1048576	14	4431
2026-01-06 11:56:44.84	316.28	16.07	-27.2	-29.0	15.0	0.00e+00	0	44	102	1048576	14	4440
2026-01-06 11:56:47.85	316.75	15.84	-27.1	-29.0	15.0	0.00e+00	0	43	102	1048576	14	4436
2026-01-06 11:56:50.87	317.22	15.61	-27.3	-29.3	14.7	0.00e+00	0	44	102	1048576	14	4543
2026-01-06 11:56:53.89	317.67	15.38	-27.3	-29.4	14.7	0.00e+00	0	43	102	1048576	14	4578
2026-01-06 11:56:56.92	318.13	15.14	-27.2	-28.6	14.9	0.00e+00	0	44	102	1048576	15	4232
2026-01-06 11:56:59.94	318.57	14.91	-27.3	-28.9	14.7	0.00e+00	0	43	102	1048576	15	4317
2026-01-06 11:57:02.96	319.01	14.68	-27.5	-29.2	14.5	0.00e+00	0	44	102	1048576	15	4413
2026-01-06 11:57:05.95	319.44	14.46	-27.6	-29.5	14.3	7.00e-07	0	43	102	1048576	15	4505
2026-01-06 11:57:08.96	319.86	14.23	-27.7	-29.7	14.2	7.00e-07	0	43	102	1048576	15	4542
2026-01-06 11:57:11.99	320.28	14.00	-27.5	-29.4	14.3	7.00e-07	0	44	102	1048576	15	4450
2026-01-06 11:57:15.01	320.70	13.78	-27.5	-29.3	14.4	2.20e-06	0	44	102	1048576	15	4422
2026-01-06 11:57:18.03	321.10	13.55	-27.5	-29.2	14.4	7.00e-07	0	44	102	1048576	15	4404
2026-01-06 11:57:21.04	321.50	13.33	-27.5	-29.3	14.4	0.00e+00	0	44	102	1048576	15	4434
2026-01-06 11:57:24.06	321.90	13.10	-27.7	-29.8	14.1	3.00e-06	0	43	102	1048576	15	4575
2026-01-06 11:57:27.07	322.29	12.88	-28.2	-30.3	13.6	5.30e-06	0	44	102	1048576	16	4626
2026-01-06 11:57:30.09	322.67	12.66	-28.0	-29.8	13.9	2.20e-06	0	44	102	1048576	16	4471
2026-01-06 11:57:33.11	323.05	12.43	-28.1	-30.1	13.7	5.30e-06	0	43	102	1048576	16	4574
2026-01-06 11:57:36.12	323.42	12.21	-28.1	-30.2	13.6	7.60e-06	0	44	102	1048576	16	4607
2026-01-06 11:57:39.14	323.79	12.00	-28.1	-30.3	13.6	9.10e-06	0	44	102	1048576	16	4614
2026-01-06 11:57:42.16	324.15	11.78	-27.9	-29.8	13.8	6.80e-06	0	43	102	1048576	16	4474
2026-01-06 11:57:45.17	324.51	11.56	-28.1	-30.2	13.6	6.10e-06	0	43	102	1048576	16	4578
2026-01-06 11:57:48.19	324.86	11.34	-28.1	-30.2	13.6	1.14e-05	0	43	102	1048576	16	4602
2026-01-06 11:57:51.20	325.21	11.13	-28.1	-30.2	13.6	8.30e-06	0	43	102	1048576	16	4598
2026-01-06 11:57:54.22	325.55	10.91	-28.0	-30.1	13.7	4.50e-06	0	43	102	1048576	16	4546
2026-01-06 11:57:57.25	325.89	10.70	-28.0	-30.1	13.6	9.90e-06	0	43	102	1048576	16	4557
2026-01-06 11:58:00.27	326.22	10.49	-28.1	-30.3	13.5	1.37e-05	0	44	102	1048576	16	4636
2026-01-06 11:58:03.27	326.55	10.28	-28.1	-30.3	13.5	1.06e-05	0	43	102	1048576	16	4633
2026-01-06 11:58:06.28	326.87	10.07	-28.1	-30.3	13.5	9.90e-06	0	44	102	1048576	16	4618
2026-01-06 11:58:09.29	327.19	9.86	-28.0	-30.1	13.6	3.80e-06	0	44	102	1048576	16	4551
2026-01-06 11:58:12.30	327.51	9.65	-28.1	-30.3	13.4	1.14e-05	0	43	102	1048576	16	4643
2026-01-06 11:58:15.32	327.82	9.44	-28.3	-30.7	13.1	3.35e-05	0	43	102	1048576	16	4762
2026-01-06 11:58:18.33	328.12	9.24	-28.4	-30.9	13.0	5.26e-05	0	43	102	1048576	16	4840
2026-01-06 11:58:21.34	328.42	9.03	-28.5	-31.2	12.8	5.03e-05	0	44	102	1048576	16	4942
2026-01-06 11:58:24.36	328.72	8.83	-28.7	-31.3	12.4	1.88e-04	0	44	102	1048576	17	4867
2026-01-06 11:58:27.38	329.02	8.62	-28.4	-30.7	12.8	5.87e-05	0	43	102	1048576	17	4650
2026-01-06 11:58:30.41	329.31	8.42	-28.4	-30.7	12.7	7.09e-05	0	44	102	1048576	17	4684
2026-01-06 11:58:33.43	329.60	8.22	-28.5	-30.9	12.7	8.46e-05	0	43	102	1048576	17	4725
2026-01-06 11:58:36.45	329.88	8.02	-28.6	-31.1	12.5	1.27e-04	0	43	102	1048576	17	4785
2026-01-06 11:58:39.48	330.16	7.82	-28.6	-31.2	12.4	1.40e-04	0	44	102	1048576	17	4827
2026-01-06 11:58:42.49	330.44	7.62	-28.6	-31.1	12.4	1.21e-04	0	43	102	1048576	17	4809
2026-01-06 11:58:45.52	330.71	7.42	-28.7	-31.4	12.2	1.99e-04	0	43	102	1048576	17	4892
2026-01-06 11:58:48.54	330.98	7.23	-28.9	-31.8	12.0	2.91e-04	0	43	102	1048576	17	5026
2026-01-06 11:58:51.56	331.25	7.03	-32.7	-44.4	3.8	3.67e-01	0	44	104	1048576	25	13703

#Closed at: 2026-01-06 11:58:52
#Recorded file [1 MB]: D:/data/31010_260106_144948.dat