passes_logs/2026/01/06/R2M6_AANII_01/R2M6_AANII_01__20260106_091718_NOAA_20_JPSS-1_rec.log

#Pass ID: 20260106_091718_NOAA 20 (JPSS-1)
#Satellite: NOAA 20 (JPSS-1)
#Configuration: NOAA 20
#almurnet v.1.7.20240730
#Start time: 2026-01-06 09:17:20

#Version: 2.2.20231116
#Station: R2M6_AANII_01
#Location: 30.233357 lon 59.946436 lat
#TLE: 1 43013U 17073A   26005.46207808  .00000128  00000+0  81791-4 0  9997
#TLE: 2 43013  98.7627 306.5027 0001826  53.0458 307.0885 14.19533487421381

#Time	Az	El	Level	Level2	SNR	BER	BlckErr	Temp	State	Recorded	gain1	gain2
2026-01-06 09:17:20.17	128.27	7.15	-31.5	-37.7	4.9	1.29e+00	0	41	0	0	24	7341
2026-01-06 09:17:23.18	128.12	7.37	-31.6	-37.8	7.2	1.32e-01	0	41	102	1048576	24	7376
2026-01-06 09:17:26.19	127.96	7.60	-31.4	-36.7	8.1	6.48e-02	0	41	102	1048576	24	6631
2026-01-06 09:17:29.22	127.80	7.83	-31.1	-35.7	9.4	2.50e-02	0	41	102	1048576	23	6171
2026-01-06 09:17:32.24	127.64	8.06	-30.6	-34.4	10.8	3.05e-03	0	41	102	1048576	22	5579
2026-01-06 09:17:35.25	127.48	8.29	-30.5	-34.2	11.0	1.91e-03	0	41	102	1048576	22	5500
2026-01-06 09:17:38.28	127.31	8.52	-30.5	-34.1	11.1	1.42e-03	0	41	102	1048576	22	5448
2026-01-06 09:17:41.29	127.14	8.76	-30.5	-34.0	11.2	1.24e-03	0	41	102	1048576	22	5390
2026-01-06 09:17:44.30	126.97	8.99	-30.4	-33.7	11.4	9.22e-04	0	42	102	1048576	22	5269
2026-01-06 09:17:47.31	126.79	9.23	-30.5	-34.0	11.3	1.29e-03	0	41	102	1048576	22	5406
2026-01-06 09:17:50.33	126.61	9.48	-30.4	-33.6	11.6	7.15e-04	0	42	102	1048576	22	5217
2026-01-06 09:17:53.35	126.43	9.72	-30.4	-33.6	11.6	7.17e-04	0	42	102	1048576	22	5199
2026-01-06 09:17:56.37	126.25	9.97	-30.2	-33.5	12.0	3.89e-04	0	42	102	1048576	21	5278
2026-01-06 09:17:59.39	126.06	10.21	-30.0	-33.1	12.3	1.94e-04	0	42	102	1048576	21	5091
2026-01-06 09:18:02.39	125.87	10.46	-30.1	-33.3	12.2	2.10e-04	0	42	102	1048576	21	5187
2026-01-06 09:18:05.41	125.67	10.72	-30.1	-33.3	12.2	2.83e-04	0	42	102	1048576	21	5217
2026-01-06 09:18:08.43	125.47	10.97	-30.0	-33.0	12.4	1.52e-04	0	42	102	1048576	21	5076
2026-01-06 09:18:11.44	125.27	11.23	-30.2	-33.4	12.2	2.61e-04	0	42	102	1048576	21	5221
2026-01-06 09:18:14.47	125.06	11.49	-30.2	-33.6	12.1	2.40e-04	0	42	102	1048576	21	5299
2026-01-06 09:18:17.47	124.85	11.75	-30.4	-33.9	11.9	3.87e-04	0	42	102	1048576	21	5418
2026-01-06 09:18:20.50	124.64	12.01	-30.3	-33.7	12.1	3.52e-04	0	42	102	1048576	21	5322
2026-01-06 09:18:23.51	124.42	12.28	-30.4	-33.9	12.0	2.61e-04	0	42	102	1048576	21	5409
2026-01-06 09:18:26.53	124.20	12.55	-30.1	-33.1	12.5	1.56e-04	0	42	102	1048576	21	5102
2026-01-06 09:18:29.55	123.97	12.82	-30.0	-32.8	12.7	8.23e-05	0	42	102	1048576	21	4975
2026-01-06 09:18:32.57	123.74	13.10	-30.1	-33.2	12.5	1.27e-04	0	42	102	1048576	21	5105
2026-01-06 09:18:35.59	123.51	13.37	-30.2	-33.4	12.4	1.16e-04	0	42	102	1048576	21	5206
2026-01-06 09:18:38.60	123.27	13.65	-30.1	-33.2	12.6	1.15e-04	0	42	102	1048576	21	5106
2026-01-06 09:18:41.62	123.02	13.94	-30.2	-33.3	12.5	1.22e-04	0	42	102	1048576	21	5135
2026-01-06 09:18:44.64	122.77	14.22	-30.2	-33.4	12.4	2.28e-04	0	42	102	1048576	21	5195
2026-01-06 09:18:47.66	122.52	14.51	-30.0	-32.6	13.0	3.50e-05	0	42	102	1048576	21	4883
2026-01-06 09:18:50.68	122.26	14.80	-30.1	-32.9	12.8	6.71e-05	0	43	102	1048576	21	5002
2026-01-06 09:18:53.70	121.99	15.09	-30.2	-33.2	12.7	8.69e-05	0	43	102	1048576	21	5107
2026-01-06 09:18:56.72	121.72	15.39	-30.2	-33.3	12.6	7.93e-05	0	42	102	1048576	21	5136
2026-01-06 09:18:59.74	121.44	15.69	-30.0	-32.7	13.1	3.89e-05	0	43	102	1048576	21	4903
2026-01-06 09:19:02.76	121.16	15.99	-30.1	-33.0	12.9	3.73e-05	0	43	102	1048576	21	5005
2026-01-06 09:19:05.78	120.87	16.30	-29.9	-32.5	13.2	2.28e-05	0	43	102	1048576	21	4823
2026-01-06 09:19:08.81	120.58	16.61	-30.1	-32.9	12.9	3.89e-05	0	43	102	1048576	21	4991
2026-01-06 09:19:11.83	120.28	16.92	-30.2	-33.2	12.7	9.23e-05	0	43	102	1048576	21	5098
2026-01-06 09:19:14.85	119.97	17.24	-30.3	-33.4	12.6	7.24e-05	0	43	102	1048576	21	5177
2026-01-06 09:19:17.87	119.66	17.56	-30.0	-32.6	13.2	2.05e-05	0	43	102	1048576	21	4876
2026-01-06 09:19:20.87	119.34	17.88	-30.1	-32.8	13.1	2.28e-05	0	43	102	1048576	21	4940
2026-01-06 09:19:23.90	119.01	18.20	-30.0	-32.5	13.3	2.05e-05	0	43	102	1048576	21	4832
2026-01-06 09:19:26.92	118.68	18.53	-29.9	-32.4	13.4	7.60e-06	0	43	102	1048576	21	4784
2026-01-06 09:19:29.94	118.33	18.86	-29.9	-32.3	13.5	9.90e-06	0	43	102	1048576	21	4739
2026-01-06 09:19:32.96	117.98	19.20	-30.0	-32.5	13.3	4.50e-06	0	43	102	1048576	21	4830
2026-01-06 09:19:35.98	117.63	19.54	-30.2	-33.1	13.0	2.74e-05	0	43	102	1048576	21	5040
2026-01-06 09:19:38.99	117.26	19.88	-30.2	-33.2	12.9	5.56e-05	0	43	102	1048576	21	5067
2026-01-06 09:19:42.01	116.89	20.23	-30.4	-33.7	12.6	7.09e-05	0	43	102	1048576	21	5285
2026-01-06 09:19:45.03	116.50	20.58	-30.0	-32.6	13.3	1.22e-05	0	43	102	1048576	21	4851
2026-01-06 09:19:48.05	116.11	20.93	-30.1	-32.8	13.2	2.51e-05	0	43	102	1048576	21	4933
2026-01-06 09:19:51.07	115.71	21.28	-30.1	-32.8	13.2	2.13e-05	0	43	102	1048576	21	4941
2026-01-06 09:19:54.08	115.30	21.64	-30.2	-33.0	13.1	3.05e-05	0	43	102	1048576	21	5005
2026-01-06 09:19:57.09	114.88	22.01	-30.2	-33.0	13.1	3.12e-05	0	43	102	1048576	21	4990
2026-01-06 09:20:00.11	114.45	22.37	-30.3	-33.2	13.0	3.28e-05	0	43	102	1048576	21	5073
2026-01-06 09:20:03.11	114.01	22.74	-30.3	-33.3	13.0	5.03e-05	0	43	102	1048576	21	5082
2026-01-06 09:20:06.13	113.56	23.11	-30.4	-33.6	12.9	4.19e-05	0	43	102	1048576	21	5188
2026-01-06 09:20:09.15	113.09	23.49	-30.4	-33.7	12.8	4.73e-05	0	43	102	1048576	21	5251
2026-01-06 09:20:12.17	112.62	23.87	-30.4	-33.4	13.0	8.01e-05	0	43	102	1048576	21	5125
2026-01-06 09:20:15.19	112.13	24.26	-30.6	-34.2	12.5	1.11e-04	0	43	102	1048576	21	5430
2026-01-06 09:20:18.20	111.63	24.64	-30.3	-33.2	13.2	2.44e-05	0	43	102	1048576	21	5032
2026-01-06 09:20:21.21	111.12	25.03	-30.4	-33.7	12.9	4.88e-05	0	43	102	1048576	21	5208
2026-01-06 09:20:24.23	110.60	25.43	-30.2	-33.0	13.4	1.06e-05	0	43	102	1048576	21	4955
2026-01-06 09:20:27.25	110.06	25.82	-30.3	-33.3	13.2	2.44e-05	0	43	102	1048576	21	5058
2026-01-06 09:20:30.27	109.50	26.22	-30.5	-33.8	12.9	3.43e-05	0	43	102	1048576	21	5251
2026-01-06 09:20:33.28	108.94	26.63	-30.5	-33.7	12.9	5.18e-05	0	43	102	1048576	21	5222
2026-01-06 09:20:36.29	108.36	27.03	-30.6	-34.1	12.7	7.85e-05	0	43	102	1048576	21	5372
2026-01-06 09:20:39.31	107.76	27.44	-30.8	-34.6	12.3	8.39e-05	0	43	102	1048576	21	5557
2026-01-06 09:20:42.33	107.15	27.85	-31.2	-35.2	11.6	6.31e-04	0	43	102	1048576	22	5729
2026-01-06 09:20:45.35	106.52	28.26	-31.5	-35.6	11.0	1.73e-03	0	43	102	1048576	23	5787
2026-01-06 09:20:48.36	105.88	28.68	-31.6	-36.1	10.6	3.73e-03	0	43	102	1048576	23	6017
2026-01-06 09:20:51.38	105.22	29.10	-31.8	-36.8	10.2	4.64e-03	0	43	102	1048576	23	6381
2026-01-06 09:20:54.40	104.54	29.52	-31.8	-36.5	10.4	4.78e-03	0	43	102	1048576	23	6234
2026-01-06 09:20:57.41	103.84	29.94	-31.8	-36.6	10.3	5.63e-03	0	43	102	1048576	23	6276
2026-01-06 09:21:00.44	103.12	30.36	-31.7	-36.3	10.6	3.52e-03	0	43	102	1048576	23	6125
2026-01-06 09:21:03.45	102.39	30.78	-31.7	-36.3	10.6	3.84e-03	0	43	102	1048576	23	6124
2026-01-06 09:21:06.47	101.64	31.21	-31.6	-36.1	10.7	2.97e-03	0	43	102	1048576	23	5999
2026-01-06 09:21:09.49	100.86	31.63	-32.0	-36.8	9.8	1.04e-02	0	43	102	1048576	24	6251
2026-01-06 09:21:12.51	100.06	32.06	-32.1	-37.4	9.4	1.55e-02	0	43	102	1048576	24	6596
2026-01-06 09:21:15.54	99.24	32.48	-31.9	-36.5	10.1	7.13e-03	0	43	102	1048576	24	6121
2026-01-06 09:21:18.55	98.41	32.90	-31.6	-35.3	11.0	1.81e-03	0	43	102	1048576	24	5536
2026-01-06 09:21:21.58	97.54	33.33	-31.5	-35.0	11.2	1.87e-03	0	43	102	1048576	24	5382
2026-01-06 09:21:24.60	96.66	33.75	-31.4	-35.4	11.3	8.12e-04	0	43	102	1048576	23	5680
2026-01-06 09:21:27.62	95.75	34.16	-31.3	-35.0	11.6	6.06e-04	0	43	102	1048576	23	5512
2026-01-06 09:21:30.63	94.82	34.58	-31.6	-36.0	10.9	2.34e-03	0	43	102	1048576	23	5941
2026-01-06 09:21:33.65	93.87	34.99	-31.4	-35.3	11.4	1.06e-03	0	43	102	1048576	23	5622
2026-01-06 09:21:36.67	92.89	35.40	-31.5	-35.6	11.2	1.55e-03	0	43	102	1048576	23	5737
2026-01-06 09:21:39.69	91.89	35.80	-31.5	-35.6	11.2	1.44e-03	0	43	102	1048576	23	5746
2026-01-06 09:21:42.70	90.86	36.20	-31.6	-35.9	11.0	1.59e-03	0	43	102	1048576	23	5896
2026-01-06 09:21:45.73	89.80	36.59	-31.8	-36.6	10.5	4.60e-03	0	43	102	1048576	23	6206
2026-01-06 09:21:48.75	88.72	36.98	-31.6	-35.8	11.1	2.89e-03	0	43	102	1048576	23	5816
2026-01-06 09:21:51.78	87.61	37.36	-31.6	-35.9	11.0	1.73e-03	0	43	102	1048576	23	5880
2026-01-06 09:21:54.80	86.48	37.72	-31.4	-35.2	11.5	1.27e-03	0	43	102	1048576	23	5579
2026-01-06 09:21:57.82	85.32	38.08	-31.5	-35.3	11.4	1.13e-03	0	43	102	1048576	23	5614
2026-01-06 09:22:00.84	84.14	38.44	-31.2	-34.5	12.1	2.94e-04	0	43	102	1048576	23	5246
2026-01-06 09:22:03.87	82.93	38.78	-31.1	-34.2	12.2	2.22e-04	0	43	102	1048576	23	5153
2026-01-06 09:22:06.89	81.70	39.10	-30.8	-33.9	12.8	4.11e-05	0	43	102	1048576	22	5124
2026-01-06 09:22:09.91	80.44	39.42	-31.0	-34.4	12.5	9.07e-05	0	43	102	1048576	22	5310
2026-01-06 09:22:12.92	79.16	39.72	-30.8	-33.9	12.8	4.65e-05	0	43	102	1048576	22	5118
2026-01-06 09:22:15.94	77.86	40.01	-30.7	-33.6	13.1	2.97e-05	0	43	102	1048576	22	5003
2026-01-06 09:22:18.95	76.53	40.28	-30.6	-33.2	13.4	1.37e-05	0	43	102	1048576	22	4855
2026-01-06 09:22:21.98	75.18	40.54	-29.9	-31.8	14.6	0.00e+00	0	43	102	1048576	21	4485
2026-01-06 09:22:24.99	73.81	40.78	-29.9	-32.4	14.4	7.00e-07	0	43	102	1048576	20	4811
2026-01-06 09:22:27.99	72.43	41.00	-30.0	-32.8	14.2	7.00e-07	0	43	102	1048576	20	4936
2026-01-06 09:22:31.02	71.01	41.21	-30.0	-32.6	14.3	7.00e-07	0	43	102	1048576	20	4866
2026-01-06 09:22:34.02	69.60	41.39	-29.8	-32.2	14.6	7.00e-07	0	43	102	1048576	20	4738
2026-01-06 09:22:37.05	68.15	41.56	-29.8	-32.1	14.7	0.00e+00	0	43	102	1048576	20	4688
2026-01-06 09:22:40.07	66.69	41.71	-29.7	-32.0	14.7	7.00e-07	0	43	102	1048576	20	4664
2026-01-06 09:22:43.09	65.23	41.83	-30.0	-32.8	14.2	0.00e+00	0	43	102	1048576	20	4947
2026-01-06 09:22:46.11	63.75	41.94	-30.0	-32.6	14.3	7.00e-07	0	43	102	1048576	20	4863
2026-01-06 09:22:49.13	62.26	42.02	-30.1	-33.0	14.1	5.30e-06	0	43	102	1048576	20	5020
2026-01-06 09:22:52.15	60.76	42.09	-30.5	-34.0	13.5	1.14e-05	0	43	102	1048576	20	5391
2026-01-06 09:22:55.17	59.27	42.13	-30.7	-34.0	13.1	1.83e-05	0	43	102	1048576	21	5286
2026-01-06 09:22:58.19	57.76	42.14	-30.9	-34.7	12.6	6.48e-05	0	43	102	1048576	21	5570
2026-01-06 09:23:01.21	56.26	42.14	-30.9	-34.7	12.7	7.70e-05	0	43	102	1048576	21	5559
2026-01-06 09:23:04.24	54.76	42.11	-31.5	-35.3	11.5	8.81e-04	0	43	102	1048576	23	5601
2026-01-06 09:23:07.26	53.26	42.07	-31.6	-35.8	11.1	1.34e-03	0	43	102	1048576	23	5816
2026-01-06 09:23:10.28	51.77	41.99	-31.9	-36.6	10.7	2.08e-03	0	43	102	1048576	23	6184
2026-01-06 09:23:13.29	50.29	41.90	-32.3	-37.7	9.4	1.52e-02	0	43	102	1048576	24	6682
2026-01-06 09:23:16.32	48.81	41.79	-32.3	-37.9	9.2	2.24e-02	0	43	102	1048576	24	6792
2026-01-06 09:23:19.33	47.35	41.66	-32.4	-38.3	8.9	2.61e-02	0	43	102	1048576	24	7056
2026-01-06 09:23:22.35	45.90	41.50	-32.1	-37.1	9.8	1.19e-02	0	43	102	1048576	24	6375
2026-01-06 09:23:25.37	44.47	41.33	-31.8	-36.0	10.6	3.13e-03	0	43	102	1048576	24	5843
2026-01-06 09:23:28.39	43.05	41.13	-31.1	-34.0	12.4	1.73e-04	0	43	102	1048576	23	5075
2026-01-06 09:23:31.41	41.65	40.92	-30.9	-33.5	12.8	5.64e-05	0	43	102	1048576	23	4900
2026-01-06 09:23:34.44	40.26	40.69	-30.3	-32.6	13.7	1.22e-05	0	43	102	1048576	22	4651
2026-01-06 09:23:37.45	38.91	40.45	-29.9	-32.0	14.4	3.80e-06	0	43	102	1048576	21	4570
2026-01-06 09:23:40.47	37.57	40.18	-29.6	-31.7	14.8	0.00e+00	0	43	102	1048576	20	4583
2026-01-06 09:23:43.48	36.25	39.90	-29.1	-30.9	15.7	0.00e+00	0	43	102	1048576	19	4404
2026-01-06 09:23:46.50	34.96	39.61	-29.2	-31.2	15.5	0.00e+00	0	43	102	1048576	19	4512
2026-01-06 09:23:49.52	33.69	39.31	-29.2	-31.0	15.7	0.00e+00	0	43	102	1048576	19	4467
2026-01-06 09:23:52.55	32.44	38.98	-29.1	-31.0	15.7	0.00e+00	0	43	102	1048576	19	4453
2026-01-06 09:23:55.58	31.22	38.65	-29.5	-32.0	15.1	7.00e-07	0	43	102	1048576	19	4767
2026-01-06 09:23:58.59	30.03	38.31	-29.3	-31.4	15.4	0.00e+00	0	43	102	1048576	19	4575
2026-01-06 09:24:01.61	28.86	37.96	-29.6	-32.1	15.0	0.00e+00	0	43	102	1048576	19	4806
2026-01-06 09:24:04.62	27.71	37.60	-29.3	-31.5	15.3	0.00e+00	0	43	102	1048576	19	4603
2026-01-06 09:24:07.64	26.60	37.22	-29.4	-31.7	15.2	0.00e+00	0	43	102	1048576	19	4663
2026-01-06 09:24:10.66	25.50	36.85	-29.7	-32.3	14.8	0.00e+00	0	43	102	1048576	19	4892
2026-01-06 09:24:13.68	24.44	36.46	-29.8	-32.8	14.6	7.00e-07	0	43	102	1048576	19	5040
2026-01-06 09:24:16.70	23.39	36.07	-30.0	-32.7	14.2	7.00e-07	0	43	102	1048576	20	4899
2026-01-06 09:24:19.72	22.38	35.67	-30.4	-33.8	13.5	5.30e-06	0	43	102	1048576	20	5323
2026-01-06 09:24:22.75	21.38	35.26	-30.5	-33.7	13.2	2.67e-05	0	43	102	1048576	21	5167
2026-01-06 09:24:25.77	20.42	34.86	-30.8	-34.5	12.6	4.42e-05	0	43	102	1048576	21	5483
2026-01-06 09:24:28.79	19.47	34.44	-31.0	-34.5	12.3	2.01e-04	0	43	102	1048576	22	5398
2026-01-06 09:24:31.81	18.56	34.03	-31.1	-34.9	12.1	3.00e-04	0	43	102	1048576	22	5561
2026-01-06 09:24:34.82	17.66	33.61	-31.6	-35.7	11.1	1.43e-03	0	43	102	1048576	23	5826
2026-01-06 09:24:37.85	16.79	33.19	-31.8	-36.5	10.5	2.33e-03	0	43	102	1048576	23	6172
2026-01-06 09:24:40.87	15.94	32.77	-31.5	-35.6	11.2	1.64e-03	0	43	102	1048576	23	5743
2026-01-06 09:24:43.88	15.11	32.35	-31.8	-36.5	10.5	3.93e-03	0	43	102	1048576	23	6180
2026-01-06 09:24:46.90	14.31	31.93	-31.9	-36.3	10.2	7.83e-03	0	43	102	1048576	24	5976
2026-01-06 09:24:49.91	13.52	31.51	-31.7	-35.7	10.7	3.24e-03	0	43	102	1048576	24	5703
2026-01-06 09:24:52.94	12.76	31.08	-31.8	-36.0	10.4	4.45e-03	0	43	102	1048576	24	5854
2026-01-06 09:24:55.96	12.01	30.66	-31.8	-36.2	10.3	4.86e-03	0	43	102	1048576	24	5963
2026-01-06 09:24:58.98	11.29	30.24	-31.5	-35.1	11.0	2.13e-03	0	43	102	1048576	24	5456
2026-01-06 09:25:01.99	10.58	29.82	-31.2	-34.8	11.6	7.88e-04	0	43	102	1048576	23	5428
2026-01-06 09:25:05.01	9.89	29.40	-31.1	-34.4	11.8	5.53e-04	0	43	102	1048576	23	5280
2026-01-06 09:25:08.02	9.23	28.99	-30.8	-33.7	12.4	1.62e-04	0	43	102	1048576	23	4978
2026-01-06 09:25:11.04	8.57	28.57	-30.8	-33.9	12.5	1.13e-04	0	43	102	1048576	22	5181
2026-01-06 09:25:14.06	7.94	28.16	-30.5	-33.0	13.1	3.58e-05	0	43	102	1048576	22	4843
2026-01-06 09:25:17.08	7.32	27.75	-30.3	-32.7	13.3	1.83e-05	0	43	102	1048576	22	4740
2026-01-06 09:25:20.10	6.71	27.34	-30.6	-33.3	12.9	5.49e-05	0	43	102	1048576	22	4955
2026-01-06 09:25:23.12	6.12	26.93	-30.4	-33.0	13.1	3.66e-05	0	43	102	1048576	22	4846
2026-01-06 09:25:26.14	5.55	26.53	-30.3	-33.1	13.3	1.14e-05	0	43	102	1048576	21	4993
2026-01-06 09:25:29.15	4.99	26.13	-30.6	-34.0	12.7	5.49e-05	0	43	102	1048576	21	5311
2026-01-06 09:25:32.17	4.45	25.73	-30.6	-34.1	12.6	1.20e-04	0	43	102	1048576	21	5392
2026-01-06 09:25:35.19	3.92	25.34	-30.6	-33.9	12.7	9.38e-05	0	43	102	1048576	21	5306
2026-01-06 09:25:38.20	3.40	24.95	-30.6	-34.2	12.5	9.15e-05	0	43	102	1048576	21	5422
2026-01-06 09:25:41.23	2.90	24.56	-30.7	-34.3	12.4	1.79e-04	0	43	102	1048576	21	5464
2026-01-06 09:25:44.25	2.40	24.18	-30.5	-33.9	12.7	1.36e-04	0	43	102	1048576	21	5310
2026-01-06 09:25:47.28	1.92	23.79	-30.4	-33.5	13.0	3.66e-05	0	43	102	1048576	21	5134
2026-01-06 09:25:50.28	1.46	23.42	-30.2	-33.0	13.2	4.27e-05	0	43	102	1048576	21	4960
2026-01-06 09:25:53.30	1.00	23.04	-30.5	-33.7	12.8	3.96e-05	0	43	102	1048576	21	5231
2026-01-06 09:25:56.32	0.55	22.67	-30.6	-34.1	12.5	1.10e-04	0	43	102	1048576	21	5382
2026-01-06 09:25:59.34	0.12	22.30	-30.7	-34.3	12.4	1.85e-04	0	43	102	1048576	21	5483
2026-01-06 09:26:02.37	359.69	21.94	-30.7	-34.4	12.3	1.95e-04	0	43	102	1048576	21	5516
2026-01-06 09:26:05.38	359.28	21.58	-30.5	-33.7	12.7	7.32e-05	0	43	102	1048576	21	5252
2026-01-06 09:26:08.39	358.88	21.22	-30.3	-33.4	12.9	3.73e-05	0	43	102	1048576	21	5109
2026-01-06 09:26:11.41	358.48	20.87	-30.5	-33.8	12.6	8.01e-05	0	43	102	1048576	21	5270
2026-01-06 09:26:14.43	358.09	20.52	-30.7	-34.5	12.0	2.76e-04	0	43	102	1048576	21	5598
2026-01-06 09:26:17.45	357.72	20.17	-30.5	-33.8	12.6	9.84e-05	0	43	102	1048576	21	5279
2026-01-06 09:26:20.45	357.35	19.83	-30.4	-33.6	12.7	6.63e-05	0	43	102	1048576	21	5217
2026-01-06 09:26:23.47	356.99	19.49	-30.4	-33.4	12.9	7.17e-05	0	43	102	1048576	21	5139
2026-01-06 09:26:26.49	356.64	19.16	-30.3	-33.4	12.9	4.42e-05	0	43	102	1048576	21	5118
2026-01-06 09:26:29.51	356.29	18.83	-30.4	-33.5	12.8	8.23e-05	0	43	102	1048576	21	5160
2026-01-06 09:26:32.53	355.95	18.50	-30.3	-33.5	12.8	6.71e-05	0	43	102	1048576	21	5155
2026-01-06 09:26:35.55	355.62	18.17	-30.5	-33.8	12.5	9.68e-05	0	43	102	1048576	21	5297
2026-01-06 09:26:38.57	355.30	17.85	-30.5	-34.0	12.4	1.41e-04	0	43	102	1048576	21	5392
2026-01-06 09:26:41.58	354.99	17.53	-30.3	-33.4	12.8	6.71e-05	0	43	102	1048576	21	5141
2026-01-06 09:26:44.60	354.68	17.21	-30.3	-33.4	12.8	4.88e-05	0	43	102	1048576	21	5128
2026-01-06 09:26:47.62	354.38	16.90	-30.4	-33.6	12.6	8.46e-05	0	43	102	1048576	21	5228
2026-01-06 09:26:50.63	354.08	16.59	-30.5	-34.1	12.3	1.56e-04	0	43	102	1048576	21	5431
2026-01-06 09:26:53.65	353.79	16.28	-30.5	-34.0	12.3	2.75e-04	0	43	102	1048576	21	5388
2026-01-06 09:26:56.67	353.51	15.98	-30.7	-34.6	11.9	3.18e-04	0	43	102	1048576	21	5627
2026-01-06 09:26:59.69	353.23	15.68	-30.6	-34.2	12.1	2.30e-04	0	43	102	1048576	21	5458
2026-01-06 09:27:02.69	352.96	15.38	-30.6	-34.2	12.1	2.53e-04	0	43	102	1048576	21	5475
2026-01-06 09:27:05.70	352.70	15.09	-30.5	-34.1	12.1	2.54e-04	0	43	102	1048576	21	5435
2026-01-06 09:27:08.72	352.44	14.80	-30.6	-34.3	12.0	2.97e-04	0	43	102	1048576	21	5530
2026-01-06 09:27:11.74	352.18	14.51	-30.6	-34.4	11.9	3.75e-04	0	43	102	1048576	21	5587
2026-01-06 09:27:14.76	351.93	14.22	-30.8	-35.0	11.4	7.72e-04	0	43	102	1048576	21	5857
2026-01-06 09:27:17.77	351.68	13.94	-30.7	-34.8	11.6	7.48e-04	0	43	102	1048576	21	5735
2026-01-06 09:27:20.78	351.44	13.66	-30.6	-34.6	11.7	5.89e-04	0	43	102	1048576	21	5656
2026-01-06 09:27:23.79	351.21	13.38	-30.8	-34.9	11.4	1.41e-03	0	43	102	1048576	21	5816
2026-01-06 09:27:26.80	350.98	13.11	-30.6	-34.3	11.8	4.85e-04	0	43	102	1048576	21	5563
2026-01-06 09:27:29.82	350.75	12.83	-30.7	-34.9	11.4	7.06e-04	0	43	102	1048576	21	5819
2026-01-06 09:27:32.84	350.53	12.56	-30.8	-35.0	11.3	1.48e-03	0	43	102	1048576	21	5883
2026-01-06 09:27:35.86	350.31	12.30	-30.9	-35.5	10.9	1.84e-03	0	43	102	1048576	21	6130
2026-01-06 09:27:38.87	350.10	12.03	-31.1	-35.8	10.4	4.57e-03	0	43	102	1048576	22	6149
2026-01-06 09:27:41.90	349.89	11.77	-31.2	-35.9	10.2	6.06e-03	0	43	102	1048576	22	6209
2026-01-06 09:27:44.92	349.68	11.51	-31.1	-35.7	10.4	4.79e-03	0	43	102	1048576	22	6093
2026-01-06 09:27:47.94	349.48	11.25	-31.2	-36.1	10.1	6.82e-03	0	43	102	1048576	22	6318
2026-01-06 09:27:50.95	349.28	10.99	-30.9	-34.9	10.9	2.37e-03	0	43	102	1048576	22	5738
2026-01-06 09:27:53.98	349.08	10.74	-30.9	-34.9	10.9	2.08e-03	0	43	102	1048576	22	5732
2026-01-06 09:27:56.99	348.89	10.49	-30.8	-34.7	11.0	2.35e-03	0	43	102	1048576	22	5668
2026-01-06 09:28:00.01	348.70	10.24	-30.8	-34.9	10.8	2.42e-03	0	43	102	1048576	22	5772
2026-01-06 09:28:03.03	348.52	9.99	-30.9	-35.3	10.5	3.24e-03	0	43	102	1048576	22	5930
2026-01-06 09:28:06.05	348.34	9.75	-31.1	-35.7	10.2	5.73e-03	0	43	102	1048576	22	6149
2026-01-06 09:28:09.06	348.16	9.51	-31.0	-35.5	10.3	5.23e-03	0	43	102	1048576	22	6062
2026-01-06 09:28:12.09	347.98	9.27	-31.1	-35.8	10.0	6.22e-03	0	43	102	1048576	22	6218
2026-01-06 09:28:15.10	347.81	9.03	-30.9	-35.3	10.4	4.86e-03	0	43	102	1048576	22	5981
2026-01-06 09:28:18.13	347.64	8.79	-31.0	-35.8	10.0	8.16e-03	0	43	102	1048576	22	6196
2026-01-06 09:28:21.14	347.48	8.56	-31.0	-35.5	10.2	6.42e-03	0	43	102	1048576	22	6085
2026-01-06 09:28:24.16	347.31	8.32	-30.9	-35.5	10.2	5.19e-03	0	43	102	1048576	22	6064
2026-01-06 09:28:27.18	347.15	8.09	-31.0	-35.8	9.9	1.02e-02	0	43	102	1048576	22	6264
2026-01-06 09:28:30.20	346.99	7.87	-31.2	-36.5	9.3	1.66e-02	0	43	102	1048576	22	6630
2026-01-06 09:28:33.22	346.84	7.64	-31.3	-36.8	9.0	2.40e-02	0	43	102	1048576	22	6822
2026-01-06 09:28:36.22	346.69	7.41	-31.2	-36.6	9.1	2.44e-02	0	43	102	1048576	22	6715
2026-01-06 09:28:39.23	346.54	7.19	-31.2	-36.6	9.2	2.04e-02	0	43	102	1048576	22	6683
2026-01-06 09:28:42.25	346.39	6.97	-33.3	-47.7	3.8	1.49e+00	0	43	104	1048576	26	18804

#Closed at: 2026-01-06 09:28:42
#Recorded file [1 MB]: D:/data/31010_260106_121722.dat