passes_logs/2026/01/06/R2M6_AANII_01/R2M6_AANII_01__20260106_103619_SUOMI_NPP_rec.log

#Pass ID: 20260106_103619_SUOMI NPP
#Satellite: SUOMI NPP
#Configuration: NPP
#almurnet v.1.7.20240730
#Start time: 2026-01-06 10:36:18

#Version: 2.2.20231116
#Station: R2M6_AANII_01
#Location: 30.233357 lon 59.946436 lat
#TLE: 1 37849U 11061A   26004.95404768  .00000136  00000+0  85334-4 0  9991
#TLE: 2 37849  98.7801 307.0898 0002575  80.6707 279.4760 14.19522289735281

#Time	Az	El	Level	Level2	SNR	BER	BlckErr	Temp	State	Recorded	gain1	gain2
2026-01-06 10:36:18.97	166.83	6.95	-32.1	-38.8	4.2	1.44e+00	0	41	0	0	25	7790
2026-01-06 10:36:21.98	166.88	7.18	-32.0	-38.1	5.6	4.26e-01	0	41	102	1048576	25	7211
2026-01-06 10:36:25.00	166.93	7.42	-32.0	-37.7	5.8	3.85e-01	0	41	102	1048576	25	6970
2026-01-06 10:36:28.02	166.98	7.65	-31.7	-36.6	6.9	2.43e-01	0	41	102	1048576	24	6339
2026-01-06 10:36:31.03	167.03	7.89	-31.2	-34.9	8.6	5.33e-02	0	41	102	1048576	23	5480
2026-01-06 10:36:34.05	167.09	8.14	-30.8	-33.2	9.9	1.03e-02	0	41	102	1048576	23	4771
2026-01-06 10:36:37.07	167.14	8.38	-30.7	-33.4	10.1	6.04e-03	0	41	102	1048576	22	4932
2026-01-06 10:36:40.08	167.20	8.63	-30.7	-33.3	10.3	5.38e-03	0	41	102	1048576	22	4854
2026-01-06 10:36:43.09	167.25	8.88	-30.6	-33.2	10.4	5.05e-03	0	41	102	1048576	22	4815
2026-01-06 10:36:46.10	167.31	9.13	-30.4	-32.4	11.0	2.21e-03	0	41	102	1048576	22	4543
2026-01-06 10:36:49.11	167.37	9.38	-30.3	-32.2	11.2	1.50e-03	0	41	102	1048576	22	4436
2026-01-06 10:36:52.14	167.42	9.64	-30.3	-31.9	11.4	1.25e-03	0	42	102	1048576	22	4353
2026-01-06 10:36:55.15	167.48	9.90	-30.2	-32.1	11.6	6.93e-04	0	42	102	1048576	21	4512
2026-01-06 10:36:58.17	167.54	10.16	-30.1	-31.8	11.8	4.56e-04	0	42	102	1048576	21	4394
2026-01-06 10:37:01.18	167.61	10.43	-30.0	-31.4	12.1	2.17e-04	0	42	102	1048576	21	4259
2026-01-06 10:37:04.20	167.67	10.69	-30.0	-31.4	12.2	2.22e-04	0	42	102	1048576	21	4232
2026-01-06 10:37:07.21	167.73	10.96	-30.0	-31.4	12.2	3.00e-04	0	42	102	1048576	21	4241
2026-01-06 10:37:10.23	167.79	11.24	-29.9	-31.2	12.3	1.43e-04	0	42	102	1048576	21	4183
2026-01-06 10:37:13.25	167.86	11.52	-30.1	-31.6	12.1	1.71e-04	0	42	102	1048576	21	4300
2026-01-06 10:37:16.24	167.92	11.79	-30.1	-31.9	11.9	4.07e-04	0	42	102	1048576	21	4407
2026-01-06 10:37:19.26	167.99	12.08	-30.2	-32.0	11.8	3.97e-04	0	42	102	1048576	21	4448
2026-01-06 10:37:22.28	168.06	12.36	-30.3	-32.7	11.4	1.02e-03	0	42	102	1048576	21	4709
2026-01-06 10:37:25.29	168.13	12.65	-30.0	-31.6	12.2	3.10e-04	0	42	102	1048576	21	4308
2026-01-06 10:37:28.31	168.20	12.95	-29.5	-30.5	13.2	2.97e-05	0	42	102	1048576	20	4070
2026-01-06 10:37:31.34	168.27	13.25	-29.3	-30.1	13.6	1.22e-05	0	42	102	1048576	20	3923
2026-01-06 10:37:34.36	168.35	13.55	-29.3	-30.4	13.7	4.50e-06	0	42	102	1048576	19	4107
2026-01-06 10:37:37.38	168.42	13.85	-29.3	-30.4	13.8	4.50e-06	0	43	102	1048576	19	4094
2026-01-06 10:37:40.40	168.50	14.16	-29.4	-30.6	13.6	6.10e-06	0	43	102	1048576	19	4154
2026-01-06 10:37:43.42	168.57	14.47	-29.5	-30.9	13.5	1.14e-05	0	43	102	1048576	19	4222
2026-01-06 10:37:46.44	168.65	14.79	-29.5	-30.8	13.6	6.80e-06	0	43	102	1048576	19	4198
2026-01-06 10:37:49.45	168.73	15.11	-29.3	-30.2	14.0	5.30e-06	0	43	102	1048576	19	4025
2026-01-06 10:37:52.48	168.82	15.44	-29.1	-29.9	14.2	0.00e+00	0	43	102	1048576	19	3928
2026-01-06 10:37:55.50	168.90	15.77	-29.3	-30.2	14.0	3.80e-06	0	43	102	1048576	19	4017
2026-01-06 10:37:58.52	168.98	16.10	-29.2	-30.1	14.2	7.00e-07	0	43	102	1048576	19	3979
2026-01-06 10:38:01.53	169.07	16.44	-29.2	-30.0	14.2	3.80e-06	0	43	102	1048576	19	3958
2026-01-06 10:38:04.55	169.16	16.78	-29.3	-30.2	14.1	0.00e+00	0	43	102	1048576	19	3998
2026-01-06 10:38:07.56	169.25	17.13	-29.4	-30.5	13.9	4.50e-06	0	43	102	1048576	19	4098
2026-01-06 10:38:10.59	169.34	17.48	-29.8	-31.4	13.3	9.10e-06	0	43	102	1048576	19	4376
2026-01-06 10:38:13.60	169.44	17.84	-29.9	-31.5	12.9	4.27e-05	0	43	102	1048576	20	4305
2026-01-06 10:38:16.62	169.53	18.20	-30.0	-31.7	12.9	4.34e-05	0	43	102	1048576	20	4358
2026-01-06 10:38:19.64	169.63	18.57	-29.9	-31.2	13.2	1.75e-05	0	43	102	1048576	20	4208
2026-01-06 10:38:22.65	169.73	18.94	-29.9	-31.4	13.1	1.90e-05	0	43	102	1048576	20	4252
2026-01-06 10:38:25.67	169.83	19.32	-30.0	-31.6	12.9	6.25e-05	0	43	102	1048576	20	4349
2026-01-06 10:38:28.69	169.94	19.71	-30.1	-31.9	12.7	8.54e-05	0	43	102	1048576	20	4425
2026-01-06 10:38:31.71	170.05	20.10	-30.5	-32.4	12.1	2.17e-04	0	43	102	1048576	21	4502
2026-01-06 10:38:34.73	170.16	20.50	-30.2	-31.8	12.5	7.70e-05	0	43	102	1048576	21	4290
2026-01-06 10:38:37.74	170.27	20.90	-30.2	-31.6	12.7	1.10e-04	0	43	102	1048576	21	4232
2026-01-06 10:38:40.76	170.38	21.31	-30.1	-31.5	12.8	7.09e-05	0	43	102	1048576	21	4191
2026-01-06 10:38:43.78	170.50	21.73	-30.1	-31.5	12.8	7.70e-05	0	43	102	1048576	21	4188
2026-01-06 10:38:46.80	170.62	22.16	-30.2	-31.6	12.7	7.70e-05	0	43	102	1048576	21	4232
2026-01-06 10:38:49.82	170.75	22.59	-30.3	-31.8	12.7	9.00e-05	0	43	102	1048576	21	4295
2026-01-06 10:38:52.84	170.88	23.03	-30.3	-31.8	12.7	9.99e-05	0	43	102	1048576	21	4294
2026-01-06 10:38:55.85	171.01	23.47	-30.1	-31.3	13.0	5.49e-05	0	43	102	1048576	21	4124
2026-01-06 10:38:58.86	171.14	23.92	-30.0	-31.1	13.1	1.90e-05	0	43	102	1048576	21	4084
2026-01-06 10:39:01.87	171.28	24.38	-30.0	-31.2	13.1	1.37e-05	0	43	102	1048576	21	4095
2026-01-06 10:39:04.89	171.42	24.85	-30.2	-31.6	12.8	3.58e-05	0	43	102	1048576	21	4210
2026-01-06 10:39:07.90	171.57	25.33	-30.1	-31.2	13.0	3.05e-05	0	43	102	1048576	21	4097
2026-01-06 10:39:10.92	171.72	25.82	-29.8	-30.5	13.5	6.80e-06	0	43	102	1048576	21	3900
2026-01-06 10:39:13.94	171.87	26.31	-29.9	-31.1	13.5	6.10e-06	0	43	102	1048576	20	4155
2026-01-06 10:39:16.96	172.03	26.82	-30.1	-31.7	13.1	1.90e-05	0	43	102	1048576	20	4346
2026-01-06 10:39:19.97	172.20	27.33	-30.2	-32.1	12.8	3.50e-05	0	43	102	1048576	20	4466
2026-01-06 10:39:22.99	172.37	27.86	-30.0	-31.4	13.3	2.13e-05	0	43	102	1048576	20	4247
2026-01-06 10:39:26.00	172.54	28.39	-29.7	-30.8	13.7	1.06e-05	0	43	102	1048576	20	4059
2026-01-06 10:39:29.03	172.72	28.93	-30.2	-32.0	13.0	2.89e-05	0	43	102	1048576	20	4437
2026-01-06 10:39:32.05	172.91	29.49	-30.5	-32.4	12.4	1.20e-04	0	43	102	1048576	21	4475
2026-01-06 10:39:35.07	173.10	30.05	-30.7	-32.9	12.0	3.01e-04	0	43	102	1048576	21	4650
2026-01-06 10:39:38.08	173.30	30.63	-30.9	-33.5	11.5	7.67e-04	0	43	102	1048576	21	4882
2026-01-06 10:39:41.11	173.50	31.22	-31.3	-34.3	10.8	2.95e-03	0	43	102	1048576	22	5070
2026-01-06 10:39:44.12	173.72	31.82	-31.6	-34.8	9.9	6.99e-03	0	43	102	1048576	23	5228
2026-01-06 10:39:47.14	173.94	32.43	-31.3	-33.9	10.6	7.14e-03	0	43	102	1048576	23	4816
2026-01-06 10:39:50.15	174.16	33.05	-31.2	-33.5	11.0	2.83e-03	0	43	102	1048576	23	4692
2026-01-06 10:39:53.17	174.40	33.68	-30.5	-31.8	12.6	2.38e-04	0	43	102	1048576	22	4168
2026-01-06 10:39:56.19	174.65	34.33	-30.1	-31.1	13.4	2.36e-05	0	43	102	1048576	21	4048
2026-01-06 10:39:59.21	174.90	35.00	-30.2	-31.6	13.1	4.11e-05	0	43	102	1048576	21	4191
2026-01-06 10:40:02.23	175.17	35.67	-30.1	-31.1	13.3	2.67e-05	0	43	102	1048576	21	4064
2026-01-06 10:40:05.24	175.45	36.36	-30.2	-31.3	13.2	2.59e-05	0	43	102	1048576	21	4118
2026-01-06 10:40:08.27	175.74	37.07	-30.5	-32.2	12.6	1.72e-04	0	43	102	1048576	21	4397
2026-01-06 10:40:11.30	176.04	37.79	-30.9	-33.1	11.7	1.15e-03	0	43	102	1048576	22	4627
2026-01-06 10:40:14.31	176.35	38.52	-30.9	-33.0	11.7	5.36e-04	0	43	102	1048576	22	4577
2026-01-06 10:40:17.32	176.68	39.26	-30.4	-31.6	12.8	1.47e-04	0	43	102	1048576	22	4104
2026-01-06 10:40:20.34	177.02	40.03	-30.2	-31.5	13.1	4.73e-05	0	43	102	1048576	21	4146
2026-01-06 10:40:23.36	177.38	40.81	-30.7	-32.7	12.3	9.61e-05	0	43	102	1048576	21	4570
2026-01-06 10:40:26.38	177.76	41.60	-31.1	-33.7	11.3	8.19e-04	0	43	102	1048576	22	4822
2026-01-06 10:40:29.40	178.16	42.42	-31.5	-34.8	10.6	1.64e-03	0	43	102	1048576	22	5239
2026-01-06 10:40:32.41	178.57	43.24	-30.6	-32.1	12.5	2.02e-04	0	43	102	1048576	22	4269
2026-01-06 10:40:35.43	179.01	44.09	-30.2	-31.5	13.2	2.21e-05	0	43	102	1048576	21	4161
2026-01-06 10:40:38.45	179.47	44.95	-31.0	-33.2	11.7	4.62e-04	0	43	102	1048576	22	4642
2026-01-06 10:40:41.47	179.95	45.83	-31.5	-34.2	10.6	3.75e-03	0	43	102	1048576	23	4938
2026-01-06 10:40:44.49	180.47	46.73	-31.4	-34.0	10.9	2.56e-03	0	43	102	1048576	23	4826
2026-01-06 10:40:47.51	181.01	47.64	-31.5	-34.2	10.7	1.97e-03	0	43	102	1048576	23	4902
2026-01-06 10:40:50.53	181.59	48.57	-31.1	-33.0	11.6	7.63e-04	0	43	102	1048576	23	4485
2026-01-06 10:40:53.55	182.20	49.52	-29.8	-30.4	14.0	1.06e-05	0	43	102	1048576	21	3841
2026-01-06 10:40:56.57	182.85	50.48	-29.5	-30.0	14.4	0.00e+00	0	43	102	1048576	20	3803
2026-01-06 10:40:59.58	183.54	51.46	-28.6	-28.8	15.9	0.00e+00	0	43	102	1048576	18	3661
2026-01-06 10:41:02.60	184.28	52.46	-28.8	-29.8	15.5	0.00e+00	0	43	102	1048576	17	4028
2026-01-06 10:41:05.62	185.07	53.47	-28.0	-27.8	16.7	0.00e+00	0	43	102	1048576	17	3524
2026-01-06 10:41:08.65	185.92	54.50	-27.6	-27.3	17.2	0.00e+00	0	43	102	1048576	16	3501
2026-01-06 10:41:11.68	186.83	55.54	-27.6	-27.5	17.2	0.00e+00	0	43	102	1048576	16	3535
2026-01-06 10:41:14.69	187.81	56.59	-27.1	-26.8	17.7	0.00e+00	0	43	102	1048576	15	3475
2026-01-06 10:41:17.71	188.86	57.66	-27.3	-27.3	17.4	0.00e+00	0	43	102	1048576	15	3590
2026-01-06 10:41:20.72	190.00	58.73	-27.5	-27.6	17.3	0.00e+00	0	43	102	1048576	15	3661
2026-01-06 10:41:23.75	191.24	59.82	-29.0	-29.7	15.5	0.00e+00	0	43	102	1048576	18	3890
2026-01-06 10:41:26.77	192.59	60.91	-27.7	-27.7	17.2	0.00e+00	0	43	102	1048576	16	3571
2026-01-06 10:41:29.80	194.06	62.00	-27.7	-27.6	17.3	0.00e+00	0	43	102	1048576	16	3554
2026-01-06 10:41:32.81	195.66	63.09	-27.2	-26.9	17.7	0.00e+00	0	43	102	1048576	15	3490
2026-01-06 10:41:35.82	197.41	64.18	-27.6	-27.9	17.2	0.00e+00	0	43	102	1048576	15	3742
2026-01-06 10:41:38.84	199.33	65.26	-27.8	-28.3	17.0	0.00e+00	0	43	102	1048576	15	3818
2026-01-06 10:41:41.86	201.45	66.33	-29.3	-30.3	15.2	0.00e+00	0	43	102	1048576	18	4055
2026-01-06 10:41:44.87	203.78	67.38	-29.4	-30.1	15.2	0.00e+00	0	43	102	1048576	19	3894
2026-01-06 10:41:47.89	206.37	68.41	-31.5	-33.8	11.3	1.10e-03	0	43	102	1048576	23	4703
2026-01-06 10:41:50.91	209.23	69.40	-30.3	-31.3	13.7	4.50e-06	0	43	102	1048576	21	4060
2026-01-06 10:41:53.93	212.39	70.35	-29.9	-30.9	14.1	0.00e+00	0	43	102	1048576	20	4046
2026-01-06 10:41:56.94	215.87	71.25	-31.3	-33.2	11.5	7.90e-04	0	43	102	1048576	23	4475
2026-01-06 10:41:59.96	219.72	72.08	-29.8	-30.1	14.4	7.00e-07	0	43	102	1048576	21	3721
2026-01-06 10:42:02.99	223.97	72.84	-30.0	-31.1	14.0	1.50e-06	0	43	102	1048576	20	4100
2026-01-06 10:42:06.01	228.58	73.50	-29.3	-29.8	15.4	7.00e-07	0	43	102	1048576	19	3803
2026-01-06 10:42:09.03	233.57	74.06	-30.0	-31.2	14.1	0.00e+00	0	43	102	1048576	20	4114
2026-01-06 10:42:12.05	238.88	74.50	-28.4	-28.1	16.6	0.00e+00	0	43	102	1048576	18	3488
2026-01-06 10:42:15.08	244.49	74.80	-30.6	-32.2	13.2	1.50e-06	0	43	102	1048576	21	4323
2026-01-06 10:42:18.09	250.23	74.96	-29.8	-30.2	14.4	2.20e-06	0	43	102	1048576	21	3755
2026-01-06 10:42:21.11	256.06	74.97	-29.1	-29.4	15.5	0.00e+00	0	43	102	1048576	19	3720
2026-01-06 10:42:24.13	261.84	74.83	-29.7	-30.7	14.7	0.00e+00	0	43	102	1048576	19	4079
2026-01-06 10:42:27.14	267.44	74.55	-28.7	-29.3	16.2	0.00e+00	0	43	102	1048576	17	3885
2026-01-06 10:42:30.15	272.78	74.14	-29.7	-30.4	14.6	7.00e-07	0	43	102	1048576	20	3887
2026-01-06 10:42:33.16	277.80	73.60	-31.0	-32.9	12.3	7.93e-05	0	43	102	1048576	22	4465
2026-01-06 10:42:36.19	282.48	72.95	-31.4	-33.4	11.6	1.59e-03	0	43	102	1048576	23	4569
2026-01-06 10:42:39.20	286.76	72.21	-30.9	-32.0	12.5	1.82e-04	0	43	102	1048576	23	4099
2026-01-06 10:42:42.22	290.67	71.39	-32.3	-36.3	8.8	2.06e-02	0	43	102	1048576	24	5706
2026-01-06 10:42:45.24	294.21	70.50	-30.9	-32.1	12.5	1.10e-03	0	43	102	1048576	23	4142
2026-01-06 10:42:48.26	297.42	69.56	-30.0	-31.1	14.1	3.00e-06	0	43	102	1048576	20	4084
2026-01-06 10:42:51.27	300.31	68.58	-31.5	-34.4	11.2	7.01e-04	0	43	102	1048576	22	5041
2026-01-06 10:42:54.30	302.95	67.56	-30.7	-32.1	12.8	3.89e-05	0	43	102	1048576	22	4219
2026-01-06 10:42:57.31	305.31	66.51	-31.4	-33.1	11.2	4.71e-03	0	43	102	1048576	24	4403
2026-01-06 10:43:00.31	307.45	65.46	-30.1	-31.5	13.8	7.00e-07	0	43	102	1048576	20	4222
2026-01-06 10:43:03.31	309.39	64.38	-31.2	-32.9	11.8	1.68e-03	0	43	102	1048576	23	4418
2026-01-06 10:43:06.33	311.18	63.30	-30.5	-31.5	13.1	7.47e-05	0	43	102	1048576	22	4035
2026-01-06 10:43:09.35	312.80	62.21	-29.1	-30.0	15.3	0.00e+00	0	43	102	1048576	18	3987
2026-01-06 10:43:12.37	314.29	61.12	-30.6	-32.5	12.7	7.62e-05	0	43	102	1048576	21	4460
2026-01-06 10:43:15.39	315.65	60.03	-29.1	-29.4	15.3	0.00e+00	0	43	102	1048576	19	3729
2026-01-06 10:43:18.41	316.91	58.95	-30.4	-32.4	13.0	9.10e-06	0	43	102	1048576	20	4530
2026-01-06 10:43:21.43	318.06	57.88	-27.6	-27.4	17.2	0.00e+00	0	43	102	1048576	16	3522
2026-01-06 10:43:24.45	319.13	56.81	-29.4	-30.7	14.9	0.00e+00	0	44	102	1048576	18	4188
2026-01-06 10:43:27.47	320.12	55.76	-28.7	-28.9	15.8	0.00e+00	0	43	102	1048576	18	3686
2026-01-06 10:43:30.48	321.04	54.72	-29.3	-30.4	15.0	0.00e+00	0	43	102	1048576	18	4079
2026-01-06 10:43:33.50	321.90	53.70	-30.7	-32.7	12.5	2.13e-04	0	43	102	1048576	21	4532
2026-01-06 10:43:36.50	322.69	52.69	-30.2	-31.4	13.3	1.52e-05	0	43	102	1048576	21	4129
2026-01-06 10:43:39.53	323.44	51.69	-30.3	-31.7	13.1	8.08e-05	0	43	102	1048576	21	4224
2026-01-06 10:43:42.56	324.15	50.71	-30.5	-32.2	12.8	4.19e-05	0	43	102	1048576	21	4355
2026-01-06 10:43:45.58	324.80	49.75	-30.0	-31.3	13.7	0.00e+00	0	43	102	1048576	20	4176
2026-01-06 10:43:48.59	325.42	48.80	-31.2	-33.3	11.4	1.76e-03	0	43	102	1048576	23	4574
2026-01-06 10:43:51.61	326.00	47.87	-31.0	-33.1	11.9	4.13e-04	0	43	102	1048576	22	4596
2026-01-06 10:43:54.63	326.55	46.96	-32.5	-37.5	7.8	6.73e-02	0	43	102	1048576	24	6428
2026-01-06 10:43:57.66	327.07	46.06	-31.7	-34.4	10.0	1.13e-02	0	43	102	1048576	24	4925
2026-01-06 10:44:00.68	327.56	45.18	-31.3	-33.6	11.1	1.06e-03	0	44	102	1048576	23	4671
2026-01-06 10:44:03.71	328.03	44.32	-32.6	-37.5	7.4	1.13e-01	0	43	102	1048576	25	6319
2026-01-06 10:44:06.73	328.47	43.47	-31.8	-34.2	9.8	2.97e-02	0	43	102	1048576	25	4784
2026-01-06 10:44:09.75	328.89	42.64	-30.4	-31.3	12.9	2.94e-04	0	43	102	1048576	22	4026
2026-01-06 10:44:12.78	329.29	41.83	-29.6	-30.3	14.3	7.00e-07	0	43	102	1048576	20	3890
2026-01-06 10:44:15.79	329.67	41.03	-30.0	-31.4	13.5	2.13e-05	0	43	102	1048576	20	4229
2026-01-06 10:44:18.81	330.04	40.25	-29.8	-30.9	13.8	4.50e-06	0	43	102	1048576	20	4089
2026-01-06 10:44:21.84	330.39	39.49	-28.5	-28.6	15.9	0.00e+00	0	43	102	1048576	18	3629
2026-01-06 10:44:24.86	330.72	38.74	-29.8	-31.4	13.9	0.00e+00	0	43	102	1048576	19	4294
2026-01-06 10:44:27.88	331.03	38.01	-30.9	-33.4	11.8	3.65e-04	0	43	102	1048576	21	4808
2026-01-06 10:44:30.91	331.34	37.29	-29.9	-31.2	13.6	5.30e-06	0	43	102	1048576	20	4158
2026-01-06 10:44:33.94	331.63	36.58	-29.4	-30.2	14.6	0.00e+00	0	43	102	1048576	19	3966
2026-01-06 10:44:36.96	331.91	35.89	-29.8	-31.3	13.9	3.00e-06	0	43	102	1048576	19	4292
2026-01-06 10:44:39.98	332.18	35.21	-30.4	-32.4	12.8	6.80e-06	0	43	102	1048576	20	4549
2026-01-06 10:44:42.99	332.44	34.55	-31.3	-34.3	10.8	7.58e-04	0	43	102	1048576	22	5078
2026-01-06 10:44:46.02	332.69	33.90	-31.9	-35.5	9.2	1.91e-02	0	43	102	1048576	24	5399
2026-01-06 10:44:49.04	332.93	33.27	-31.4	-33.4	10.7	3.80e-03	0	43	102	1048576	24	4566
2026-01-06 10:44:52.06	333.16	32.64	-31.0	-33.3	11.6	6.57e-04	0	43	102	1048576	22	4675
2026-01-06 10:44:55.08	333.38	32.03	-30.3	-31.7	12.8	5.18e-05	0	43	102	1048576	21	4242
2026-01-06 10:44:58.10	333.60	31.43	-30.3	-31.8	12.8	4.73e-05	0	43	102	1048576	21	4259
2026-01-06 10:45:01.11	333.81	30.85	-31.0	-33.4	11.4	4.42e-04	0	43	102	1048576	22	4728
2026-01-06 10:45:04.14	334.01	30.27	-30.4	-31.4	12.7	7.55e-05	0	43	102	1048576	22	4066
2026-01-06 10:45:07.15	334.20	29.71	-30.3	-31.7	12.8	6.94e-05	0	43	102	1048576	21	4247
2026-01-06 10:45:10.17	334.39	29.15	-30.7	-33.1	11.9	2.07e-04	0	43	102	1048576	21	4718
2026-01-06 10:45:13.20	334.57	28.61	-30.6	-32.6	12.2	1.83e-04	0	43	102	1048576	21	4544
2026-01-06 10:45:16.22	334.75	28.07	-30.0	-30.9	13.3	3.28e-05	0	43	102	1048576	21	4016
2026-01-06 10:45:19.24	334.92	27.55	-29.8	-30.9	13.7	5.30e-06	0	43	102	1048576	20	4076
2026-01-06 10:45:22.26	335.09	27.04	-29.2	-29.9	14.7	7.00e-07	0	44	102	1048576	19	3894
2026-01-06 10:45:25.29	335.25	26.53	-29.7	-31.1	13.9	7.00e-07	0	43	102	1048576	19	4239
2026-01-06 10:45:28.31	335.41	26.04	-30.1	-31.9	13.0	4.34e-05	0	43	102	1048576	20	4402
2026-01-06 10:45:31.32	335.56	25.55	-30.8	-33.3	11.6	5.39e-04	0	44	102	1048576	21	4803
2026-01-06 10:45:34.35	335.71	25.07	-30.8	-32.8	11.6	1.27e-03	0	43	102	1048576	22	4539
2026-01-06 10:45:37.37	335.85	24.60	-29.8	-30.9	13.6	7.60e-06	0	43	102	1048576	20	4089
2026-01-06 10:45:40.41	335.99	24.14	-29.2	-29.7	14.6	7.00e-07	0	43	102	1048576	19	3853
2026-01-06 10:45:43.43	336.13	23.68	-29.2	-30.0	14.5	7.00e-07	0	44	102	1048576	19	3918
2026-01-06 10:45:46.45	336.26	23.24	-28.3	-28.1	15.9	0.00e+00	0	43	102	1048576	18	3527
2026-01-06 10:45:49.47	336.39	22.80	-28.4	-28.8	15.8	0.00e+00	0	43	102	1048576	17	3795
2026-01-06 10:45:52.48	336.52	22.37	-28.6	-29.3	15.4	0.00e+00	0	43	102	1048576	17	3932
2026-01-06 10:45:55.50	336.64	21.94	-29.0	-30.0	14.8	0.00e+00	0	43	102	1048576	18	4026
2026-01-06 10:45:58.53	336.76	21.53	-29.5	-30.8	14.0	1.50e-06	0	43	102	1048576	19	4154
2026-01-06 10:46:01.54	336.88	21.12	-29.7	-31.2	13.6	3.00e-06	0	44	102	1048576	19	4298
2026-01-06 10:46:04.57	337.00	20.71	-29.1	-29.7	14.6	3.00e-06	0	43	102	1048576	19	3862
2026-01-06 10:46:07.58	337.11	20.31	-28.8	-29.4	15.1	0.00e+00	0	43	102	1048576	18	3843
2026-01-06 10:46:10.60	337.22	19.92	-28.0	-28.0	16.1	7.00e-07	0	43	102	1048576	17	3598
2026-01-06 10:46:13.62	337.33	19.54	-27.7	-27.8	16.5	0.00e+00	0	43	102	1048576	16	3630
2026-01-06 10:46:16.64	337.43	19.16	-27.9	-28.3	16.2	0.00e+00	0	43	102	1048576	16	3758
2026-01-06 10:46:19.65	337.53	18.79	-27.9	-28.3	16.2	0.00e+00	0	43	102	1048576	16	3773
2026-01-06 10:46:22.67	337.63	18.42	-28.3	-29.2	15.7	7.00e-07	0	43	102	1048576	16	4003
2026-01-06 10:46:25.70	337.73	18.05	-28.6	-29.4	15.2	0.00e+00	0	43	102	1048576	17	3955
2026-01-06 10:46:28.72	337.83	17.70	-28.8	-30.0	14.8	0.00e+00	0	43	102	1048576	17	4127
2026-01-06 10:46:31.74	337.92	17.34	-29.1	-30.2	14.5	0.00e+00	0	43	102	1048576	18	4085
2026-01-06 10:46:34.77	338.02	16.99	-29.3	-30.8	14.1	2.20e-06	0	43	102	1048576	18	4266
2026-01-06 10:46:37.79	338.11	16.65	-29.6	-30.9	13.6	1.06e-05	0	43	102	1048576	19	4217
2026-01-06 10:46:40.82	338.20	16.31	-29.6	-30.6	13.4	1.52e-05	0	43	102	1048576	20	4048
2026-01-06 10:46:43.84	338.29	15.98	-29.5	-30.2	13.6	7.60e-06	0	43	102	1048576	20	3939
2026-01-06 10:46:46.86	338.37	15.65	-29.5	-30.4	13.5	9.90e-06	0	43	102	1048576	20	3981
2026-01-06 10:46:49.88	338.46	15.32	-29.8	-31.3	13.0	2.51e-05	0	43	102	1048576	20	4253
2026-01-06 10:46:52.90	338.54	15.00	-30.1	-32.1	12.3	7.62e-05	0	43	102	1048576	20	4519
2026-01-06 10:46:55.93	338.62	14.69	-30.2	-32.3	12.2	2.20e-04	0	43	102	1048576	20	4586
2026-01-06 10:46:58.95	338.70	14.37	-29.9	-31.6	12.7	8.08e-05	0	44	102	1048576	20	4350
2026-01-06 10:47:01.97	338.78	14.07	-30.0	-31.8	12.6	9.38e-05	0	43	102	1048576	20	4413
2026-01-06 10:47:04.99	338.86	13.76	-30.3	-32.8	11.8	3.28e-04	0	43	102	1048576	20	4768
2026-01-06 10:47:08.01	338.93	13.46	-30.5	-32.7	11.5	9.51e-04	0	43	102	1048576	21	4653
2026-01-06 10:47:11.03	339.01	13.16	-30.6	-33.2	11.2	1.02e-03	0	44	102	1048576	21	4853
2026-01-06 10:47:14.05	339.08	12.87	-30.8	-33.8	10.7	2.13e-03	0	43	102	1048576	21	5076
2026-01-06 10:47:17.06	339.15	12.58	-30.8	-33.9	10.6	3.14e-03	0	43	102	1048576	21	5142
2026-01-06 10:47:20.07	339.22	12.29	-30.8	-33.3	10.6	3.13e-03	0	43	102	1048576	22	4812
2026-01-06 10:47:23.09	339.29	12.01	-30.9	-33.7	10.4	4.12e-03	0	43	102	1048576	22	4949
2026-01-06 10:47:26.11	339.36	11.73	-31.0	-34.0	10.1	7.09e-03	0	43	102	1048576	22	5093
2026-01-06 10:47:29.14	339.43	11.45	-31.2	-34.5	9.7	1.13e-02	0	44	102	1048576	22	5320
2026-01-06 10:47:32.16	339.50	11.18	-31.2	-34.6	9.6	1.99e-02	0	43	102	1048576	22	5339
2026-01-06 10:47:35.17	339.56	10.91	-31.3	-35.0	9.3	2.32e-02	0	43	102	1048576	22	5541
2026-01-06 10:47:38.19	339.63	10.64	-31.4	-35.7	8.7	3.57e-02	0	43	102	1048576	22	5893
2026-01-06 10:47:41.20	339.69	10.38	-31.6	-36.0	8.1	6.62e-02	0	44	102	1048576	23	5930
2026-01-06 10:47:44.22	339.75	10.12	-31.5	-35.6	8.4	4.91e-02	0	44	102	1048576	23	5749
2026-01-06 10:47:47.23	339.82	9.86	-31.5	-35.7	8.3	5.76e-02	0	43	102	1048576	23	5796
2026-01-06 10:47:50.25	339.88	9.60	-30.7	-33.0	10.6	4.94e-03	0	43	102	1048576	22	4723
2026-01-06 10:47:53.27	339.94	9.35	-30.1	-31.7	11.9	4.45e-04	0	43	102	1048576	21	4347
2026-01-06 10:47:56.29	340.00	9.09	-29.8	-31.0	12.4	1.62e-04	0	43	102	1048576	21	4109
2026-01-06 10:47:59.31	340.06	8.84	-29.7	-31.2	12.3	2.03e-04	0	43	102	1048576	20	4278
2026-01-06 10:48:02.32	340.11	8.60	-29.4	-30.8	12.7	7.78e-05	0	44	102	1048576	19	4226
2026-01-06 10:48:05.35	340.17	8.35	-29.4	-30.7	13.1	2.36e-05	0	43	102	1048576	19	4197
2026-01-06 10:48:08.37	340.23	8.11	-29.4	-30.7	12.8	4.50e-05	0	43	102	1048576	19	4211
2026-01-06 10:48:11.39	340.28	7.87	-29.4	-30.8	12.8	6.40e-05	0	43	102	1048576	19	4252
2026-01-06 10:48:14.41	340.34	7.63	-29.5	-31.1	12.8	4.95e-05	0	43	102	1048576	19	4340
2026-01-06 10:48:17.43	340.39	7.40	-29.3	-30.7	12.9	5.49e-05	0	44	102	1048576	19	4205
2026-01-06 10:48:20.44	340.45	7.17	-29.5	-31.1	12.5	8.46e-05	0	43	102	1048576	19	4340
2026-01-06 10:48:23.46	340.50	6.94	-33.3	-45.8	3.8	1.49e+00	0	43	104	1048576	26	15276

#Closed at: 2026-01-06 10:48:23
#Recorded file [1 MB]: D:/data/31010_260106_133620.dat