passes_logs/2026/01/06/R2M6_AANII_01/R2M6_AANII_01__20260106_024503_NOAA_20_JPSS-1_rec.log

#Pass ID: 20260106_024503_NOAA 20 (JPSS-1)
#Satellite: NOAA 20 (JPSS-1)
#Configuration: NOAA 20
#almurnet v.1.7.20240730
#Start time: 2026-01-06 02:45:05

#Version: 2.2.20231116
#Station: R2M6_AANII_01
#Location: 30.233357 lon 59.946436 lat
#TLE: 1 43013U 17073A   26005.46207808  .00000128  00000+0  81791-4 0  9997
#TLE: 2 43013  98.7627 306.5027 0001826  53.0458 307.0885 14.19533487421381

#Time	Az	El	Level	Level2	SNR	BER	BlckErr	Temp	State	Recorded	gain1	gain2
2026-01-06 02:45:05.22	8.75	7.08	-32.2	-41.4	4.2	1.41e+00	0	41	0	0	24	10364
2026-01-06 02:45:08.24	8.41	7.25	-32.2	-40.7	5.4	5.15e-01	0	41	102	1048576	24	9597
2026-01-06 02:45:11.26	8.08	7.43	-32.2	-40.5	5.6	4.83e-01	0	41	102	1048576	24	9361
2026-01-06 02:45:14.29	7.74	7.60	-31.7	-38.4	7.4	1.58e-01	0	41	102	1048576	23	7733
2026-01-06 02:45:17.31	7.39	7.77	-31.3	-36.9	9.0	3.00e-02	0	42	102	1048576	22	6854
2026-01-06 02:45:20.32	7.04	7.94	-31.3	-36.9	9.0	3.28e-02	0	42	102	1048576	22	6859
2026-01-06 02:45:23.33	6.69	8.11	-31.2	-36.4	9.4	2.03e-02	0	42	102	1048576	22	6564
2026-01-06 02:45:26.35	6.33	8.29	-31.2	-36.3	9.6	1.41e-02	0	42	102	1048576	22	6481
2026-01-06 02:45:29.37	5.97	8.46	-31.0	-35.6	10.1	1.03e-02	0	42	102	1048576	22	6138
2026-01-06 02:45:32.39	5.60	8.63	-31.0	-35.5	10.2	6.81e-03	0	42	102	1048576	22	6056
2026-01-06 02:45:35.42	5.23	8.80	-30.9	-35.8	10.3	5.13e-03	0	42	102	1048576	21	6356
2026-01-06 02:45:38.44	4.85	8.98	-31.0	-35.7	10.1	6.06e-03	0	42	102	1048576	22	6157
2026-01-06 02:45:41.45	4.47	9.15	-31.1	-35.8	10.1	5.93e-03	0	42	102	1048576	22	6194
2026-01-06 02:45:44.47	4.09	9.32	-31.0	-35.7	10.1	1.20e-02	0	42	102	1048576	22	6165
2026-01-06 02:45:47.48	3.70	9.49	-30.8	-35.3	10.8	5.84e-03	0	42	102	1048576	21	6073
2026-01-06 02:45:50.49	3.31	9.66	-30.7	-34.9	11.1	1.69e-03	0	42	102	1048576	21	5880
2026-01-06 02:45:53.51	2.91	9.84	-30.8	-35.4	10.8	3.10e-03	0	42	102	1048576	21	6074
2026-01-06 02:45:56.53	2.50	10.01	-30.9	-35.5	10.7	2.93e-03	0	42	102	1048576	21	6174
2026-01-06 02:45:59.55	2.09	10.18	-31.2	-36.0	9.9	1.17e-02	0	42	102	1048576	22	6301
2026-01-06 02:46:02.56	1.68	10.35	-31.0	-35.6	10.3	5.77e-03	0	43	102	1048576	22	6109
2026-01-06 02:46:05.58	1.26	10.52	-31.0	-35.6	10.4	3.58e-03	0	43	102	1048576	22	6058
2026-01-06 02:46:08.61	0.84	10.69	-30.8	-35.4	10.9	2.15e-03	0	43	102	1048576	21	6064
2026-01-06 02:46:11.62	0.41	10.86	-30.7	-34.8	11.2	1.80e-03	0	43	102	1048576	21	5811
2026-01-06 02:46:14.64	359.97	11.03	-30.6	-34.6	11.4	1.28e-03	0	43	102	1048576	21	5726
2026-01-06 02:46:17.67	359.53	11.20	-30.8	-35.3	11.0	1.14e-03	0	43	102	1048576	21	6027
2026-01-06 02:46:20.68	359.09	11.37	-30.7	-34.9	11.4	1.00e-03	0	43	102	1048576	21	5816
2026-01-06 02:46:23.70	358.64	11.54	-30.9	-35.4	10.9	1.75e-03	0	43	102	1048576	21	6092
2026-01-06 02:46:26.72	358.19	11.71	-30.9	-35.6	10.9	2.89e-03	0	43	102	1048576	21	6150
2026-01-06 02:46:29.74	357.72	11.88	-31.0	-35.7	10.7	2.92e-03	0	43	102	1048576	21	6229
2026-01-06 02:46:32.76	357.26	12.04	-31.0	-35.3	10.7	3.79e-03	0	43	102	1048576	22	5907
2026-01-06 02:46:35.77	356.79	12.21	-31.0	-35.4	10.6	3.02e-03	0	43	102	1048576	22	5944
2026-01-06 02:46:38.80	356.31	12.37	-31.0	-35.7	10.8	2.52e-03	0	43	102	1048576	21	6194
2026-01-06 02:46:41.81	355.83	12.54	-31.0	-35.3	10.8	3.26e-03	0	43	102	1048576	22	5876
2026-01-06 02:46:44.82	355.34	12.70	-31.0	-35.3	10.8	3.01e-03	0	43	102	1048576	22	5885
2026-01-06 02:46:47.84	354.85	12.86	-30.9	-35.5	11.0	1.66e-03	0	43	102	1048576	21	6081
2026-01-06 02:46:50.86	354.35	13.03	-30.8	-35.1	11.2	1.50e-03	0	43	102	1048576	21	5900
2026-01-06 02:46:53.88	353.85	13.19	-30.7	-34.8	11.4	1.63e-03	0	43	102	1048576	21	5785
2026-01-06 02:46:56.90	353.34	13.34	-30.6	-34.4	11.8	8.35e-04	0	43	102	1048576	21	5578
2026-01-06 02:46:59.92	352.82	13.50	-30.4	-34.4	12.2	5.15e-04	0	43	102	1048576	20	5686
2026-01-06 02:47:02.95	352.30	13.66	-30.4	-34.3	12.3	4.80e-04	0	43	102	1048576	20	5658
2026-01-06 02:47:05.97	351.77	13.81	-30.4	-34.3	12.3	1.94e-04	0	43	102	1048576	20	5638
2026-01-06 02:47:08.99	351.24	13.97	-30.2	-33.7	12.7	5.32e-04	0	43	102	1048576	20	5403
2026-01-06 02:47:12.01	350.70	14.12	-30.5	-34.5	12.1	7.84e-04	0	43	102	1048576	20	5750
2026-01-06 02:47:15.03	350.16	14.27	-30.4	-34.4	12.2	1.68e-04	0	43	102	1048576	20	5686
2026-01-06 02:47:18.05	349.61	14.42	-30.3	-34.1	12.4	1.21e-04	0	43	102	1048576	20	5568
2026-01-06 02:47:21.06	349.05	14.57	-29.9	-33.0	13.2	2.89e-05	0	43	102	1048576	20	5106
2026-01-06 02:47:24.08	348.49	14.71	-29.9	-33.0	13.2	2.28e-05	0	43	102	1048576	20	5118
2026-01-06 02:47:27.09	347.93	14.85	-29.9	-33.2	13.3	1.83e-05	0	43	102	1048576	19	5308
2026-01-06 02:47:30.12	347.35	14.99	-30.0	-33.1	12.9	1.67e-05	0	43	102	1048576	20	5136
2026-01-06 02:47:33.13	346.78	15.13	-29.6	-32.5	13.9	6.80e-06	0	43	102	1048576	19	5040
2026-01-06 02:47:36.15	346.20	15.27	-29.8	-33.0	13.6	5.30e-06	0	43	102	1048576	19	5209
2026-01-06 02:47:39.18	345.61	15.40	-29.9	-33.4	13.4	1.06e-05	0	43	102	1048576	19	5348
2026-01-06 02:47:42.20	345.01	15.54	-29.9	-33.4	13.4	1.75e-05	0	43	102	1048576	19	5349
2026-01-06 02:47:45.21	344.42	15.67	-30.1	-33.4	13.0	2.21e-03	0	43	102	1048576	20	5273
2026-01-06 02:47:48.23	343.81	15.79	-29.9	-33.4	13.4	2.39e-03	0	43	102	1048576	19	5341
2026-01-06 02:47:51.26	343.20	15.92	-29.8	-33.1	13.6	2.42e-03	0	43	102	1048576	19	5235
2026-01-06 02:47:54.28	342.59	16.04	-30.0	-33.5	13.3	2.39e-03	0	43	102	1048576	19	5382
2026-01-06 02:47:57.29	341.97	16.16	-29.9	-33.3	13.5	2.87e-03	0	43	102	1048576	19	5313
2026-01-06 02:48:00.32	341.34	16.28	-29.6	-32.4	14.1	1.26e-03	0	43	102	1048576	19	4982
2026-01-06 02:48:03.35	340.71	16.39	-29.6	-32.5	14.0	2.64e-03	0	43	102	1048576	19	5023
2026-01-06 02:48:06.36	340.08	16.50	-29.7	-32.7	13.8	2.81e-03	0	43	102	1048576	19	5093
2026-01-06 02:48:09.38	339.44	16.61	-29.6	-32.5	13.9	2.83e-03	0	43	102	1048576	19	5019
2026-01-06 02:48:12.40	338.80	16.71	-29.7	-32.7	13.7	2.49e-03	0	43	102	1048576	19	5104
2026-01-06 02:48:15.43	338.15	16.81	-29.4	-32.4	14.4	2.69e-03	0	44	102	1048576	18	5083
2026-01-06 02:48:18.44	337.50	16.91	-29.3	-32.2	14.5	0.00e+00	0	43	102	1048576	18	5012
2026-01-06 02:48:21.47	336.84	17.00	-29.3	-32.1	14.5	7.00e-07	0	43	102	1048576	18	4986
2026-01-06 02:48:24.48	336.18	17.09	-29.3	-32.2	14.5	8.67e-04	0	43	102	1048576	18	5032
2026-01-06 02:48:27.50	335.52	17.18	-29.8	-33.0	13.7	1.14e-03	0	43	102	1048576	19	5191
2026-01-06 02:48:30.53	334.85	17.27	-29.4	-32.4	14.4	4.82e-04	0	43	102	1048576	18	5104
2026-01-06 02:48:33.55	334.18	17.34	-29.2	-32.0	14.6	7.00e-07	0	44	102	1048576	18	4931
2026-01-06 02:48:36.57	333.50	17.42	-29.2	-31.9	14.7	0.00e+00	0	43	102	1048576	18	4905
2026-01-06 02:48:39.59	332.82	17.49	-29.3	-32.2	14.5	3.81e-04	0	43	102	1048576	18	5034
2026-01-06 02:48:42.61	332.14	17.56	-29.4	-32.0	14.3	4.27e-04	0	43	102	1048576	19	4832
2026-01-06 02:48:45.62	331.46	17.62	-29.6	-32.5	14.0	1.14e-03	0	43	102	1048576	19	4999
2026-01-06 02:48:48.64	330.77	17.68	-30.0	-33.5	12.6	1.09e-03	0	44	102	1048576	19	5401
2026-01-06 02:48:51.67	330.08	17.74	-30.0	-33.1	13.2	2.59e-04	0	43	102	1048576	20	5147
2026-01-06 02:48:54.69	329.38	17.79	-29.9	-33.1	13.6	6.87e-04	0	43	102	1048576	19	5248
2026-01-06 02:48:57.69	328.69	17.84	-29.9	-33.1	13.6	2.69e-03	0	44	102	1048576	19	5252
2026-01-06 02:49:00.71	328.00	17.88	-30.0	-33.2	13.1	2.44e-03	0	44	102	1048576	20	5176
2026-01-06 02:49:03.74	327.29	17.92	-30.0	-33.5	13.3	2.25e-03	0	44	102	1048576	19	5389
2026-01-06 02:49:06.76	326.59	17.95	-29.9	-32.9	13.4	2.57e-03	0	43	102	1048576	20	5047
2026-01-06 02:49:09.79	325.89	17.98	-30.1	-33.3	13.1	4.05e-04	0	44	102	1048576	20	5208
2026-01-06 02:49:12.81	325.18	18.01	-30.0	-33.1	13.2	1.77e-04	0	43	102	1048576	20	5143
2026-01-06 02:49:15.84	324.48	18.03	-30.0	-33.2	13.2	2.47e-03	0	44	102	1048576	20	5158
2026-01-06 02:49:18.86	323.77	18.05	-30.2	-33.5	12.9	2.73e-03	0	43	102	1048576	20	5298
2026-01-06 02:49:21.88	323.06	18.06	-30.4	-34.1	12.6	3.02e-03	0	44	102	1048576	20	5554
2026-01-06 02:49:24.90	322.36	18.07	-30.4	-34.2	12.5	2.89e-03	0	43	102	1048576	20	5591
2026-01-06 02:49:27.92	321.65	18.07	-30.2	-33.6	12.8	2.09e-03	0	43	102	1048576	20	5337
2026-01-06 02:49:30.94	320.94	18.07	-30.1	-33.3	13.1	2.46e-03	0	44	102	1048576	20	5234
2026-01-06 02:49:33.96	320.23	18.06	-30.2	-33.6	12.9	9.38e-05	0	44	102	1048576	20	5351
2026-01-06 02:49:36.97	319.53	18.05	-30.4	-34.4	12.3	5.84e-04	0	44	102	1048576	20	5666
2026-01-06 02:49:40.00	318.82	18.03	-30.6	-34.4	12.0	5.79e-04	0	44	102	1048576	21	5548
2026-01-06 02:49:43.02	318.12	18.02	-30.6	-34.3	12.0	2.57e-03	0	43	102	1048576	21	5514
2026-01-06 02:49:46.04	317.41	17.99	-30.7	-34.5	11.9	2.77e-03	0	44	102	1048576	21	5603
2026-01-06 02:49:49.05	316.71	17.96	-30.3	-33.4	12.7	2.33e-03	0	44	102	1048576	21	5128
2026-01-06 02:49:52.07	316.01	17.93	-29.8	-32.8	13.8	1.46e-04	0	44	102	1048576	19	5138
2026-01-06 02:49:55.08	315.31	17.89	-29.7	-32.6	13.9	3.92e-04	0	44	102	1048576	19	5063
2026-01-06 02:49:58.09	314.61	17.85	-29.6	-32.5	14.0	1.05e-03	0	44	102	1048576	19	4999
2026-01-06 02:50:01.11	313.92	17.81	-29.7	-32.8	13.8	1.30e-03	0	44	102	1048576	19	5130
2026-01-06 02:50:04.13	313.22	17.76	-29.6	-32.4	14.1	1.64e-03	0	43	102	1048576	19	4973
2026-01-06 02:50:07.16	312.53	17.70	-29.6	-32.4	14.0	1.70e-03	0	43	102	1048576	19	4980
2026-01-06 02:50:10.17	311.84	17.64	-29.2	-31.9	14.4	7.00e-07	0	44	102	1048576	18	4919
2026-01-06 02:50:13.19	311.15	17.58	-29.1	-31.6	14.8	1.28e-04	0	44	102	1048576	18	4819
2026-01-06 02:50:16.20	310.47	17.52	-29.2	-31.8	14.7	1.79e-03	0	44	102	1048576	18	4892
2026-01-06 02:50:19.23	309.79	17.44	-29.6	-32.4	14.0	1.90e-03	0	43	102	1048576	19	4981
2026-01-06 02:50:22.23	309.12	17.37	-29.5	-32.2	14.1	1.95e-03	0	43	102	1048576	19	4922
2026-01-06 02:50:25.25	308.44	17.29	-29.4	-32.4	14.3	1.72e-03	0	44	102	1048576	18	5099
2026-01-06 02:50:28.28	307.77	17.21	-29.7	-32.7	13.8	5.30e-06	0	43	102	1048576	19	5097
2026-01-06 02:50:31.31	307.10	17.12	-29.6	-32.6	13.8	1.86e-04	0	44	102	1048576	19	5068
2026-01-06 02:50:34.32	306.44	17.04	-29.6	-32.6	13.9	1.72e-04	0	44	102	1048576	19	5072
2026-01-06 02:50:37.34	305.78	16.94	-29.6	-32.5	13.9	1.50e-06	0	44	102	1048576	19	5038
2026-01-06 02:50:40.37	305.12	16.85	-29.7	-32.7	13.7	6.80e-06	0	44	102	1048576	19	5113
2026-01-06 02:50:43.38	304.48	16.75	-29.8	-33.1	13.5	1.06e-05	0	44	102	1048576	19	5270
2026-01-06 02:50:46.41	303.83	16.64	-29.9	-33.3	13.4	1.37e-05	0	44	102	1048576	19	5317
2026-01-06 02:50:49.44	303.18	16.54	-30.0	-33.2	13.0	4.04e-05	0	43	102	1048576	20	5196
2026-01-06 02:50:52.45	302.55	16.43	-29.8	-33.2	13.4	9.10e-06	0	44	102	1048576	19	5272
2026-01-06 02:50:55.47	301.92	16.31	-29.7	-32.8	13.7	6.80e-06	0	44	102	1048576	19	5126
2026-01-06 02:50:58.48	301.29	16.20	-29.6	-32.5	13.9	4.50e-06	0	44	102	1048576	19	5014
2026-01-06 02:51:01.50	300.67	16.08	-29.7	-32.8	13.7	9.10e-06	0	44	102	1048576	19	5134
2026-01-06 02:51:04.53	300.05	15.96	-29.7	-32.7	13.7	9.90e-06	0	43	102	1048576	19	5124
2026-01-06 02:51:07.55	299.44	15.83	-29.6	-32.5	13.8	3.00e-06	0	44	102	1048576	19	5048
2026-01-06 02:51:10.57	298.83	15.71	-29.7	-32.7	13.7	6.80e-06	0	44	102	1048576	19	5125
2026-01-06 02:51:13.59	298.23	15.58	-29.7	-32.8	13.7	1.50e-06	0	44	102	1048576	19	5132
2026-01-06 02:51:16.61	297.63	15.45	-29.8	-33.0	13.5	1.29e-05	0	44	102	1048576	19	5227
2026-01-06 02:51:19.63	297.04	15.31	-30.1	-33.4	12.8	8.23e-05	0	44	102	1048576	20	5300
2026-01-06 02:51:22.65	296.45	15.18	-30.2	-34.0	12.4	1.16e-04	0	44	102	1048576	20	5522
2026-01-06 02:51:25.66	295.87	15.04	-30.0	-33.2	12.9	4.80e-05	0	44	102	1048576	20	5205
2026-01-06 02:51:28.69	295.30	14.90	-30.0	-33.1	12.9	3.35e-05	0	44	102	1048576	20	5184
2026-01-06 02:51:31.70	294.73	14.76	-30.2	-33.9	11.9	8.77e-05	0	44	102	1048576	20	5494
2026-01-06 02:51:34.73	294.16	14.61	-30.0	-33.2	12.9	4.42e-05	0	44	102	1048576	20	5200
2026-01-06 02:51:37.76	293.60	14.46	-30.3	-34.1	12.2	1.50e-04	0	44	102	1048576	20	5571
2026-01-06 02:51:40.78	293.05	14.31	-30.4	-34.4	12.0	3.42e-04	0	44	102	1048576	20	5702
2026-01-06 02:51:43.80	292.50	14.16	-30.5	-34.7	11.7	4.09e-04	0	44	102	1048576	20	5876
2026-01-06 02:51:46.82	291.96	14.01	-30.4	-34.6	11.9	2.75e-03	0	44	102	1048576	20	5804
2026-01-06 02:51:49.84	291.42	13.86	-30.3	-34.3	12.0	2.75e-03	0	44	102	1048576	20	5700
2026-01-06 02:51:52.86	290.89	13.70	-30.5	-34.5	11.6	3.20e-03	0	44	102	1048576	21	5669
2026-01-06 02:51:55.88	290.37	13.55	-30.5	-34.3	11.6	3.27e-03	0	44	102	1048576	21	5597
2026-01-06 02:51:58.89	289.85	13.39	-30.3	-34.3	12.0	3.24e-03	0	44	102	1048576	20	5694
2026-01-06 02:52:01.91	289.34	13.23	-30.4	-34.6	11.8	4.66e-04	0	44	102	1048576	20	5812
2026-01-06 02:52:04.93	288.83	13.07	-30.7	-35.1	11.1	4.15e-03	0	44	102	1048576	21	5940
2026-01-06 02:52:07.95	288.32	12.91	-30.8	-35.3	10.9	4.97e-03	0	44	102	1048576	21	6038
2026-01-06 02:52:10.98	287.83	12.75	-30.9	-35.6	10.4	4.34e-03	0	44	102	1048576	21	6217
2026-01-06 02:52:14.00	287.33	12.58	-30.8	-35.3	10.8	5.13e-03	0	44	102	1048576	21	6070
2026-01-06 02:52:17.02	286.85	12.42	-30.9	-35.8	10.4	5.99e-03	0	44	102	1048576	21	6306
2026-01-06 02:52:20.04	286.37	12.25	-30.7	-35.1	10.9	4.89e-03	0	44	102	1048576	21	5973
2026-01-06 02:52:23.06	285.89	12.09	-30.8	-35.3	10.8	3.44e-03	0	44	102	1048576	21	6052
2026-01-06 02:52:26.07	285.42	11.92	-30.7	-34.9	11.1	3.72e-03	0	44	102	1048576	21	5881
2026-01-06 02:52:29.09	284.96	11.75	-30.8	-35.5	10.6	5.61e-03	0	44	102	1048576	21	6191
2026-01-06 02:52:32.12	284.50	11.59	-30.8	-35.3	10.7	3.53e-03	0	44	102	1048576	21	6094
2026-01-06 02:52:35.14	284.04	11.42	-30.5	-34.6	11.2	2.86e-03	0	44	102	1048576	21	5735
2026-01-06 02:52:38.16	283.60	11.25	-30.3	-34.3	11.8	5.03e-04	0	44	102	1048576	20	5710
2026-01-06 02:52:41.17	283.15	11.08	-30.2	-34.1	11.9	2.80e-03	0	44	102	1048576	20	5627
2026-01-06 02:52:44.19	282.72	10.91	-30.3	-34.4	11.7	3.20e-03	0	44	102	1048576	20	5773
2026-01-06 02:52:47.21	282.28	10.74	-30.4	-34.6	11.5	3.71e-03	0	44	102	1048576	20	5879
2026-01-06 02:52:50.23	281.86	10.57	-30.1	-34.1	11.7	3.21e-03	0	44	102	1048576	20	5754
2026-01-06 02:52:53.25	281.43	10.39	-30.2	-34.3	11.3	2.56e-03	0	44	102	1048576	20	5742
2026-01-06 02:52:56.27	281.01	10.22	-30.2	-34.2	11.8	7.71e-04	0	44	102	1048576	20	5676
2026-01-06 02:52:59.30	280.60	10.05	-30.0	-33.4	12.3	1.69e-04	0	44	102	1048576	20	5353
2026-01-06 02:53:02.33	280.19	9.88	-30.0	-33.7	12.1	3.73e-03	0	44	102	1048576	20	5466
2026-01-06 02:53:05.34	279.79	9.71	-29.9	-33.8	12.4	3.08e-03	0	44	102	1048576	19	5625
2026-01-06 02:53:08.37	279.39	9.53	-29.9	-33.7	12.5	6.55e-03	0	44	102	1048576	19	5566
2026-01-06 02:53:11.40	278.99	9.36	-29.8	-33.6	12.5	2.35e-03	0	44	102	1048576	19	5539
2026-01-06 02:53:14.41	278.61	9.19	-29.9	-33.8	12.4	1.55e-03	0	44	102	1048576	19	5625
2026-01-06 02:53:17.43	278.22	9.01	-29.7	-33.1	12.8	6.25e-05	0	44	102	1048576	19	5340
2026-01-06 02:53:20.45	277.84	8.84	-29.8	-33.3	12.6	4.29e-03	0	44	102	1048576	19	5440
2026-01-06 02:53:23.47	277.47	8.67	-29.9	-33.9	12.2	4.87e-03	0	44	102	1048576	19	5666
2026-01-06 02:53:26.49	277.10	8.49	-30.0	-33.8	11.8	4.41e-03	0	44	102	1048576	20	5551
2026-01-06 02:53:29.51	276.73	8.32	-30.1	-33.9	11.8	3.38e-03	0	44	102	1048576	20	5603
2026-01-06 02:53:32.53	276.37	8.15	-29.3	-33.2	11.6	3.82e-03	0	44	102	1048576	20	5638
2026-01-06 02:53:35.56	276.01	7.98	-29.9	-33.9	10.8	2.59e-03	0	44	102	1048576	19	5707
2026-01-06 02:53:38.58	275.66	7.80	-30.2	-34.2	11.4	3.44e-03	0	44	102	1048576	20	5750
2026-01-06 02:53:41.60	275.31	7.63	-30.3	-34.6	11.2	4.23e-03	0	44	102	1048576	20	5932
2026-01-06 02:53:44.62	274.97	7.46	-30.3	-34.8	11.0	3.95e-03	0	44	102	1048576	20	6040
2026-01-06 02:53:47.64	274.63	7.29	-30.6	-35.3	10.2	9.43e-03	0	44	102	1048576	21	6169
2026-01-06 02:53:50.65	274.29	7.12	-30.0	-33.8	11.7	3.24e-03	0	44	102	1048576	20	5580
2026-01-06 02:53:53.69	273.96	6.94	-33.3	-47.7	3.8	1.49e+00	0	44	104	1048576	26	18837

#Closed at: 2026-01-06 02:53:54
#Recorded file [1 MB]: D:/data/31010_260106_054507.dat