passes_logs/2026/01/06/R2M6_AANII_01/R2M6_AANII_01__20260106_082808_NOAA_21_JPSS-2_rec.log

#Pass ID: 20260106_082808_NOAA 21 (JPSS-2)
#Satellite: NOAA 21 (JPSS-2)
#Configuration: NOAA 21
#almurnet v.1.7.20240730
#Start time: 2026-01-06 08:28:08

#Version: 2.2.20231116
#Station: R2M6_AANII_01
#Location: 30.233357 lon 59.946436 lat
#TLE: 1 54234U 22150A   26005.21525222  .00000150  00000+0  91957-4 0  9992
#TLE: 2 54234  98.7490 306.2339 0001053 341.6032  18.5106 14.19532220163427

#Time	Az	El	Level	Level2	SNR	BER	BlckErr	Temp	State	Recorded	gain1	gain2
2026-01-06 08:28:08.55	102.92	7.04	-31.3	-37.3	4.2	1.45e+00	0	41	0	0	24	7231
2026-01-06 08:28:11.57	102.65	7.23	-30.5	-34.6	7.9	7.94e-02	0	41	102	1048576	22	5724
2026-01-06 08:28:14.59	102.38	7.43	-30.5	-34.6	7.9	7.77e-02	0	41	102	1048576	22	5724
2026-01-06 08:28:17.61	102.10	7.63	-29.6	-32.6	10.1	9.12e-03	0	41	102	1048576	20	5057
2026-01-06 08:28:20.62	101.82	7.83	-28.6	-30.8	12.0	4.04e-04	0	41	102	1048576	18	4627
2026-01-06 08:28:23.65	101.53	8.03	-28.4	-30.2	12.5	9.38e-05	0	41	102	1048576	18	4421
2026-01-06 08:28:26.66	101.25	8.23	-28.3	-30.0	12.6	1.09e-04	0	41	102	1048576	18	4361
2026-01-06 08:28:29.68	100.95	8.43	-28.3	-30.4	12.6	7.09e-05	0	41	102	1048576	17	4594
2026-01-06 08:28:32.71	100.66	8.63	-28.2	-30.2	12.8	6.10e-05	0	42	102	1048576	17	4532
2026-01-06 08:28:35.72	100.36	8.84	-28.0	-29.8	13.0	2.36e-05	0	42	102	1048576	17	4419
2026-01-06 08:28:38.75	100.05	9.04	-28.2	-30.3	12.7	6.86e-05	0	42	102	1048576	17	4554
2026-01-06 08:28:41.78	99.74	9.25	-27.8	-29.6	13.5	9.10e-06	0	42	102	1048576	16	4448
2026-01-06 08:28:44.79	99.42	9.45	-27.8	-29.8	13.4	1.29e-05	0	42	102	1048576	16	4512
2026-01-06 08:28:47.82	99.10	9.66	-28.0	-30.1	13.2	2.21e-05	0	42	102	1048576	16	4593
2026-01-06 08:28:50.84	98.78	9.87	-27.9	-29.9	13.4	2.21e-05	0	42	102	1048576	16	4538
2026-01-06 08:28:53.86	98.45	10.08	-27.8	-29.6	13.6	8.30e-06	0	42	102	1048576	16	4433
2026-01-06 08:28:56.88	98.12	10.29	-28.1	-30.4	13.1	2.05e-05	0	42	102	1048576	16	4688
2026-01-06 08:28:59.91	97.78	10.50	-27.8	-29.6	13.6	1.22e-05	0	42	102	1048576	16	4446
2026-01-06 08:29:02.94	97.43	10.71	-27.7	-29.5	13.7	6.10e-06	0	42	102	1048576	16	4420
2026-01-06 08:29:05.96	97.09	10.93	-27.8	-29.6	13.7	6.10e-06	0	42	102	1048576	16	4431
2026-01-06 08:29:08.97	96.73	11.14	-27.6	-29.0	14.1	1.50e-06	0	42	102	1048576	16	4266
2026-01-06 08:29:11.99	96.38	11.35	-27.6	-29.2	14.0	3.00e-06	0	42	102	1048576	16	4294
2026-01-06 08:29:15.01	96.01	11.57	-27.6	-29.1	14.1	1.50e-06	0	42	102	1048576	16	4271
2026-01-06 08:29:18.03	95.64	11.78	-27.6	-29.1	14.1	0.00e+00	0	42	102	1048576	16	4279
2026-01-06 08:29:21.04	95.27	12.00	-27.4	-28.7	14.4	1.50e-06	0	42	102	1048576	16	4158
2026-01-06 08:29:24.07	94.89	12.22	-27.5	-28.9	14.3	1.50e-06	0	42	102	1048576	16	4207
2026-01-06 08:29:27.09	94.50	12.43	-27.7	-29.4	14.0	1.50e-06	0	42	102	1048576	16	4353
2026-01-06 08:29:30.11	94.11	12.65	-27.3	-28.4	14.7	7.00e-07	0	42	102	1048576	16	4077
2026-01-06 08:29:33.13	93.71	12.87	-27.4	-28.5	14.6	7.00e-07	0	42	102	1048576	16	4110
2026-01-06 08:29:36.15	93.30	13.09	-27.1	-28.4	14.8	0.00e+00	0	43	102	1048576	15	4195
2026-01-06 08:29:39.17	92.89	13.31	-27.2	-28.6	14.8	0.00e+00	0	42	102	1048576	15	4231
2026-01-06 08:29:42.18	92.48	13.53	-27.3	-28.8	14.6	0.00e+00	0	42	102	1048576	15	4289
2026-01-06 08:29:45.21	92.05	13.75	-27.3	-29.0	14.6	0.00e+00	0	42	102	1048576	15	4342
2026-01-06 08:29:48.23	91.62	13.97	-27.4	-29.0	14.6	1.50e-06	0	42	102	1048576	15	4347
2026-01-06 08:29:51.25	91.19	14.19	-27.4	-29.0	14.6	7.00e-07	0	43	102	1048576	15	4336
2026-01-06 08:29:54.27	90.74	14.42	-27.4	-29.0	14.6	7.00e-07	0	43	102	1048576	15	4356
2026-01-06 08:29:57.30	90.29	14.64	-27.5	-29.2	14.5	7.00e-07	0	43	102	1048576	15	4415
2026-01-06 08:30:00.31	89.84	14.86	-27.6	-29.4	14.4	7.00e-07	0	43	102	1048576	15	4470
2026-01-06 08:30:03.34	89.37	15.08	-27.3	-28.7	14.8	0.00e+00	0	43	102	1048576	15	4261
2026-01-06 08:30:06.35	88.90	15.31	-27.4	-29.0	14.7	0.00e+00	0	43	102	1048576	15	4337
2026-01-06 08:30:09.37	88.42	15.53	-27.6	-29.4	14.5	7.00e-07	0	43	102	1048576	15	4463
2026-01-06 08:30:12.39	87.94	15.75	-27.5	-29.4	14.5	1.50e-06	0	43	102	1048576	15	4447
2026-01-06 08:30:15.42	87.45	15.98	-27.4	-29.1	14.7	0.00e+00	0	43	102	1048576	15	4372
2026-01-06 08:30:18.43	86.95	16.20	-27.5	-29.2	14.7	0.00e+00	0	43	102	1048576	15	4386
2026-01-06 08:30:21.45	86.44	16.42	-27.4	-29.0	14.7	7.00e-07	0	43	102	1048576	15	4348
2026-01-06 08:30:24.47	85.93	16.64	-27.2	-28.5	15.0	0.00e+00	0	43	102	1048576	15	4210
2026-01-06 08:30:27.49	85.40	16.86	-27.2	-28.5	15.1	0.00e+00	0	43	102	1048576	15	4196
2026-01-06 08:30:30.50	84.87	17.08	-27.3	-28.8	14.9	0.00e+00	0	43	102	1048576	15	4288
2026-01-06 08:30:33.52	84.34	17.30	-27.1	-28.4	15.2	0.00e+00	0	43	102	1048576	15	4167
2026-01-06 08:30:36.54	83.79	17.52	-26.9	-27.9	15.5	0.00e+00	0	43	102	1048576	15	4032
2026-01-06 08:30:39.56	83.23	17.74	-26.8	-28.1	15.6	0.00e+00	0	43	102	1048576	14	4184
2026-01-06 08:30:42.58	82.67	17.96	-26.9	-28.4	15.5	0.00e+00	0	43	102	1048576	14	4256
2026-01-06 08:30:45.61	82.10	18.18	-27.0	-28.6	15.4	3.00e-06	0	43	102	1048576	14	4327
2026-01-06 08:30:48.63	81.52	18.40	-27.0	-28.7	15.3	0.00e+00	0	43	102	1048576	14	4349
2026-01-06 08:30:51.65	80.93	18.61	-27.3	-29.2	15.1	0.00e+00	0	43	102	1048576	14	4502
2026-01-06 08:30:54.67	80.34	18.82	-27.1	-28.8	15.3	3.00e-06	0	43	102	1048576	14	4389
2026-01-06 08:30:57.69	79.73	19.04	-27.2	-29.0	15.2	7.60e-06	0	43	102	1048576	14	4434
2026-01-06 08:31:00.70	79.12	19.25	-27.2	-29.0	15.3	4.50e-06	0	43	102	1048576	14	4426
2026-01-06 08:31:03.73	78.50	19.46	-27.3	-29.2	15.1	0.00e+00	0	43	102	1048576	14	4490
2026-01-06 08:31:06.74	77.87	19.66	-27.0	-28.7	15.4	6.10e-06	0	43	102	1048576	14	4338
2026-01-06 08:31:09.77	77.23	19.87	-27.1	-28.7	15.4	0.00e+00	0	43	102	1048576	14	4357
2026-01-06 08:31:12.80	76.58	20.07	-26.9	-28.4	15.6	0.00e+00	0	43	102	1048576	14	4271
2026-01-06 08:31:15.82	75.92	20.27	-26.9	-28.3	15.6	0.00e+00	0	43	102	1048576	14	4239
2026-01-06 08:31:18.84	75.26	20.47	-27.2	-29.1	15.3	0.00e+00	0	43	102	1048576	14	4446
2026-01-06 08:31:21.86	74.59	20.67	-27.3	-29.1	15.2	0.00e+00	0	43	102	1048576	14	4473
2026-01-06 08:31:24.88	73.91	20.86	-27.2	-29.1	15.3	0.00e+00	0	43	102	1048576	14	4456
2026-01-06 08:31:27.89	73.22	21.05	-26.8	-28.0	15.9	0.00e+00	0	43	102	1048576	14	4164
2026-01-06 08:31:30.91	72.52	21.23	-26.7	-27.9	15.9	0.00e+00	0	43	102	1048576	14	4138
2026-01-06 08:31:33.93	71.81	21.42	-26.8	-28.0	15.9	0.00e+00	0	43	102	1048576	14	4161
2026-01-06 08:31:36.94	71.10	21.60	-26.7	-27.9	15.9	0.00e+00	0	43	102	1048576	14	4123
2026-01-06 08:31:39.96	70.38	21.78	-27.0	-28.5	15.6	0.00e+00	0	43	102	1048576	14	4289
2026-01-06 08:31:42.97	69.65	21.95	-27.2	-28.9	15.4	0.00e+00	0	43	102	1048576	14	4403
2026-01-06 08:31:45.99	68.91	22.12	-26.8	-28.1	15.8	0.00e+00	0	43	102	1048576	14	4181
2026-01-06 08:31:49.02	68.15	22.28	-27.0	-28.6	15.6	0.00e+00	0	43	102	1048576	14	4305
2026-01-06 08:31:52.03	67.40	22.44	-26.5	-27.5	16.2	0.00e+00	0	43	102	1048576	14	4022
2026-01-06 08:31:55.05	66.64	22.60	-26.4	-27.2	16.3	0.00e+00	0	43	102	1048576	14	3948
2026-01-06 08:31:58.07	65.87	22.75	-26.7	-27.8	16.0	0.00e+00	0	43	102	1048576	14	4097
2026-01-06 08:32:01.09	65.09	22.90	-26.9	-28.4	15.7	0.00e+00	0	43	102	1048576	14	4264
2026-01-06 08:32:04.11	64.30	23.04	-26.8	-28.2	15.8	0.00e+00	0	43	102	1048576	14	4193
2026-01-06 08:32:07.13	63.51	23.18	-26.9	-28.3	15.8	0.00e+00	0	43	102	1048576	14	4244
2026-01-06 08:32:10.15	62.71	23.31	-26.8	-28.1	15.9	0.00e+00	0	43	102	1048576	14	4166
2026-01-06 08:32:13.18	61.90	23.44	-26.7	-27.9	16.0	0.00e+00	0	43	102	1048576	14	4126
2026-01-06 08:32:16.20	61.08	23.56	-26.6	-27.6	16.1	0.00e+00	0	43	102	1048576	14	4054
2026-01-06 08:32:19.22	60.27	23.67	-26.6	-27.6	16.2	0.00e+00	0	43	102	1048576	14	4035
2026-01-06 08:32:22.23	59.44	23.78	-26.7	-27.9	16.0	0.00e+00	0	43	102	1048576	14	4130
2026-01-06 08:32:25.26	58.61	23.88	-26.7	-27.9	16.0	0.00e+00	0	43	102	1048576	14	4129
2026-01-06 08:32:28.27	57.78	23.98	-26.7	-27.8	16.1	0.00e+00	0	43	102	1048576	14	4091
2026-01-06 08:32:31.28	56.94	24.07	-26.7	-27.8	16.1	0.00e+00	0	43	102	1048576	14	4109
2026-01-06 08:32:34.30	56.09	24.16	-26.6	-27.7	16.2	0.00e+00	0	43	102	1048576	14	4063
2026-01-06 08:32:37.31	55.25	24.23	-26.3	-27.1	16.4	0.00e+00	0	43	102	1048576	14	3906
2026-01-06 08:32:40.32	54.39	24.30	-26.2	-27.1	16.7	0.00e+00	0	43	102	1048576	13	4035
2026-01-06 08:32:43.33	53.54	24.37	-26.3	-27.4	16.5	0.00e+00	0	43	102	1048576	13	4103
2026-01-06 08:32:46.36	52.68	24.43	-26.5	-27.8	16.3	0.00e+00	0	43	102	1048576	13	4215
2026-01-06 08:32:49.37	51.81	24.48	-26.6	-28.2	16.2	0.00e+00	0	43	102	1048576	13	4303
2026-01-06 08:32:52.36	50.96	24.52	-26.6	-28.2	16.1	0.00e+00	0	43	102	1048576	13	4308
2026-01-06 08:32:55.34	50.10	24.55	-26.7	-28.3	16.1	0.00e+00	0	43	102	1048576	13	4331
2026-01-06 08:32:58.34	49.23	24.58	-26.7	-28.3	16.1	0.00e+00	0	43	102	1048576	13	4342
2026-01-06 08:33:01.35	48.37	24.61	-26.6	-28.1	16.2	0.00e+00	0	43	102	1048576	13	4288
2026-01-06 08:33:04.36	47.50	24.62	-26.5	-27.9	16.3	0.00e+00	0	43	102	1048576	13	4219
2026-01-06 08:33:07.36	46.63	24.63	-26.6	-28.2	16.1	0.00e+00	0	43	102	1048576	13	4302
2026-01-06 08:33:10.37	45.76	24.63	-26.8	-28.6	15.9	0.00e+00	0	43	102	1048576	13	4418
2026-01-06 08:33:13.38	44.89	24.62	-26.6	-28.1	16.2	0.00e+00	0	43	102	1048576	13	4284
2026-01-06 08:33:16.39	44.02	24.61	-26.5	-28.0	16.2	0.00e+00	0	43	102	1048576	13	4262
2026-01-06 08:33:19.41	43.15	24.59	-26.5	-27.9	16.3	0.00e+00	0	43	102	1048576	13	4232
2026-01-06 08:33:22.43	42.28	24.56	-26.2	-27.2	16.6	0.00e+00	0	43	102	1048576	13	4052
2026-01-06 08:33:25.44	41.41	24.52	-26.2	-27.3	16.6	0.00e+00	0	43	102	1048576	13	4080
2026-01-06 08:33:28.45	40.55	24.48	-26.1	-27.1	16.7	0.00e+00	0	43	102	1048576	13	4022
2026-01-06 08:33:31.43	39.70	24.43	-26.6	-28.0	16.2	0.00e+00	0	43	102	1048576	13	4261
2026-01-06 08:33:34.44	38.84	24.38	-26.7	-28.3	16.1	0.00e+00	0	43	102	1048576	13	4333
2026-01-06 08:33:37.43	37.99	24.32	-26.8	-28.6	15.9	0.00e+00	0	43	102	1048576	13	4421
2026-01-06 08:33:40.42	37.14	24.25	-26.5	-28.0	16.2	0.00e+00	0	43	102	1048576	13	4252
2026-01-06 08:33:43.42	36.30	24.17	-26.5	-28.0	16.2	7.00e-07	0	43	102	1048576	13	4250
2026-01-06 08:33:46.43	35.46	24.09	-26.7	-28.4	16.0	0.00e+00	0	43	102	1048576	13	4373
2026-01-06 08:33:49.43	34.62	24.00	-26.9	-28.8	15.8	0.00e+00	0	43	102	1048576	13	4484
2026-01-06 08:33:52.44	33.79	23.90	-26.8	-28.6	15.8	0.00e+00	0	43	102	1048576	13	4437
2026-01-06 08:33:55.45	32.96	23.80	-26.6	-27.7	16.1	0.00e+00	0	43	102	1048576	14	4076
2026-01-06 08:33:58.46	32.14	23.70	-26.8	-28.0	16.0	0.00e+00	0	43	102	1048576	14	4148
2026-01-06 08:34:01.47	31.32	23.58	-26.6	-27.7	16.1	0.00e+00	0	43	102	1048576	14	4077
2026-01-06 08:34:04.48	30.51	23.46	-26.6	-27.6	16.1	0.00e+00	0	43	102	1048576	14	4050
2026-01-06 08:34:07.49	29.71	23.34	-26.8	-28.0	15.9	0.00e+00	0	43	102	1048576	14	4149
2026-01-06 08:34:10.50	28.91	23.21	-26.8	-28.1	15.8	0.00e+00	0	43	102	1048576	14	4188
2026-01-06 08:34:13.50	28.13	23.07	-26.9	-28.3	15.7	0.00e+00	0	43	102	1048576	14	4238
2026-01-06 08:34:16.52	27.34	22.93	-26.7	-27.7	16.1	0.00e+00	0	43	102	1048576	14	4076
2026-01-06 08:34:19.53	26.56	22.79	-26.6	-27.7	16.0	0.00e+00	0	43	102	1048576	14	4079
2026-01-06 08:34:22.54	25.80	22.64	-26.7	-27.9	15.9	0.00e+00	0	43	102	1048576	14	4131
2026-01-06 08:34:25.54	25.04	22.49	-26.7	-27.9	16.0	0.00e+00	0	43	102	1048576	14	4112
2026-01-06 08:34:28.54	24.29	22.33	-26.8	-28.0	15.9	0.00e+00	0	43	102	1048576	14	4167
2026-01-06 08:34:31.56	23.54	22.16	-26.5	-27.4	16.2	0.00e+00	0	43	102	1048576	14	4004
2026-01-06 08:34:34.58	22.80	22.00	-26.6	-27.6	16.1	0.00e+00	0	43	102	1048576	14	4043
2026-01-06 08:34:37.59	22.07	21.82	-26.9	-28.3	15.7	0.00e+00	0	43	102	1048576	14	4229
2026-01-06 08:34:40.60	21.35	21.65	-26.7	-27.9	15.9	0.00e+00	0	43	102	1048576	14	4132
2026-01-06 08:34:43.61	20.64	21.47	-26.8	-28.2	15.8	0.00e+00	0	43	102	1048576	14	4208
2026-01-06 08:34:46.62	19.93	21.29	-26.9	-28.4	15.6	0.00e+00	0	43	102	1048576	14	4277
2026-01-06 08:34:49.64	19.23	21.10	-26.9	-28.4	15.6	0.00e+00	0	43	102	1048576	14	4257
2026-01-06 08:34:52.64	18.55	20.92	-27.0	-28.6	15.5	0.00e+00	0	43	102	1048576	14	4327
2026-01-06 08:34:55.64	17.87	20.73	-27.3	-29.1	15.2	0.00e+00	0	43	102	1048576	14	4454
2026-01-06 08:34:58.66	17.20	20.53	-27.3	-28.8	15.1	7.00e-07	0	43	102	1048576	15	4272
2026-01-06 08:35:01.67	16.54	20.34	-27.5	-29.3	14.8	0.00e+00	0	43	102	1048576	15	4402
2026-01-06 08:35:04.68	15.88	20.14	-26.8	-27.7	15.7	0.00e+00	0	43	102	1048576	15	3962
2026-01-06 08:35:07.70	15.24	19.94	-26.9	-28.2	15.6	0.00e+00	0	43	102	1048576	14	4212
2026-01-06 08:35:10.72	14.60	19.73	-26.9	-28.3	15.6	0.00e+00	0	43	102	1048576	14	4221
2026-01-06 08:35:13.74	13.97	19.53	-26.7	-27.9	15.8	0.00e+00	0	43	102	1048576	14	4129
2026-01-06 08:35:16.76	13.35	19.32	-26.9	-28.4	15.5	0.00e+00	0	43	102	1048576	14	4281
2026-01-06 08:35:19.77	12.74	19.11	-26.8	-28.2	15.6	0.00e+00	0	43	102	1048576	14	4207
2026-01-06 08:35:22.79	12.13	18.90	-26.7	-27.8	15.9	0.00e+00	0	43	102	1048576	14	4096
2026-01-06 08:35:25.80	11.54	18.69	-26.8	-28.0	15.7	0.00e+00	0	43	102	1048576	14	4167
2026-01-06 08:35:28.81	10.96	18.47	-26.9	-28.2	15.6	0.00e+00	0	43	102	1048576	14	4225
2026-01-06 08:35:31.83	10.38	18.26	-27.0	-28.6	15.4	0.00e+00	0	43	102	1048576	14	4319
2026-01-06 08:35:34.85	9.81	18.04	-26.9	-28.3	15.5	0.00e+00	0	43	102	1048576	14	4244
2026-01-06 08:35:37.87	9.24	17.83	-27.0	-28.6	15.4	0.00e+00	0	43	102	1048576	14	4325
2026-01-06 08:35:40.88	8.69	17.61	-27.2	-29.0	15.2	0.00e+00	0	43	102	1048576	14	4430
2026-01-06 08:35:43.90	8.15	17.39	-27.3	-29.3	15.0	0.00e+00	0	43	102	1048576	14	4527
2026-01-06 08:35:46.92	7.61	17.17	-27.1	-28.9	15.2	7.00e-07	0	43	102	1048576	14	4410
2026-01-06 08:35:49.94	7.08	16.95	-27.3	-29.2	15.0	0.00e+00	0	43	102	1048576	14	4488
2026-01-06 08:35:52.95	6.56	16.73	-27.2	-29.0	15.1	0.00e+00	0	43	102	1048576	14	4455
2026-01-06 08:35:55.97	6.04	16.51	-27.2	-29.0	15.1	0.00e+00	0	43	102	1048576	14	4438
2026-01-06 08:35:58.98	5.54	16.29	-27.2	-29.0	15.1	0.00e+00	0	43	102	1048576	14	4447
2026-01-06 08:36:02.00	5.04	16.07	-27.3	-29.2	15.0	7.00e-07	0	43	102	1048576	14	4519
2026-01-06 08:36:05.01	4.55	15.85	-27.2	-29.2	15.0	0.00e+00	0	43	102	1048576	14	4495
2026-01-06 08:36:08.03	4.07	15.63	-27.3	-29.3	14.9	7.00e-07	0	43	102	1048576	14	4534
2026-01-06 08:36:11.05	3.59	15.40	-27.5	-29.3	14.6	0.00e+00	0	43	102	1048576	15	4421
2026-01-06 08:36:14.06	3.12	15.18	-27.4	-29.1	14.7	0.00e+00	0	43	102	1048576	15	4373
2026-01-06 08:36:17.09	2.66	14.96	-27.4	-29.1	14.7	2.20e-06	0	43	102	1048576	15	4374
2026-01-06 08:36:20.11	2.20	14.74	-27.2	-28.6	14.9	0.00e+00	0	43	102	1048576	15	4232
2026-01-06 08:36:23.13	1.75	14.52	-27.4	-29.1	14.7	7.00e-07	0	43	102	1048576	15	4371
2026-01-06 08:36:26.15	1.31	14.30	-27.5	-29.3	14.6	7.00e-07	0	43	102	1048576	15	4412
2026-01-06 08:36:29.18	0.87	14.07	-27.8	-30.0	14.1	3.00e-06	0	43	102	1048576	15	4638
2026-01-06 08:36:32.20	0.44	13.85	-27.9	-30.2	13.9	5.30e-06	0	43	102	1048576	15	4714
2026-01-06 08:36:35.22	0.02	13.63	-28.2	-30.3	13.7	8.30e-06	0	43	102	1048576	16	4618
2026-01-06 08:36:38.24	359.60	13.41	-27.9	-29.8	14.1	7.00e-07	0	43	102	1048576	16	4440
2026-01-06 08:36:41.24	359.20	13.20	-28.2	-30.4	13.7	5.30e-06	0	43	102	1048576	16	4630
2026-01-06 08:36:44.26	358.79	12.98	-28.3	-30.6	13.5	7.60e-06	0	43	102	1048576	16	4714
2026-01-06 08:36:47.28	358.40	12.76	-28.3	-30.7	13.5	9.90e-06	0	44	102	1048576	16	4754
2026-01-06 08:36:50.30	358.00	12.54	-28.1	-30.1	13.8	5.30e-06	0	43	102	1048576	16	4562
2026-01-06 08:36:53.33	357.62	12.32	-27.9	-29.7	14.1	6.10e-06	0	43	102	1048576	16	4420
2026-01-06 08:36:56.33	357.24	12.11	-27.8	-29.6	14.1	3.80e-06	0	43	102	1048576	16	4394
2026-01-06 08:36:59.35	356.87	11.89	-28.0	-30.0	13.8	7.00e-07	0	43	102	1048576	16	4528
2026-01-06 08:37:02.37	356.50	11.68	-28.2	-30.3	13.6	5.30e-06	0	43	102	1048576	16	4630
2026-01-06 08:37:05.40	356.13	11.46	-28.1	-30.1	13.7	4.50e-06	0	43	102	1048576	16	4570
2026-01-06 08:37:08.42	355.77	11.25	-28.1	-30.3	13.6	6.10e-06	0	43	102	1048576	16	4603
2026-01-06 08:37:11.44	355.42	11.04	-27.6	-29.0	14.3	7.00e-07	0	43	102	1048576	16	4238
2026-01-06 08:37:14.46	355.08	10.83	-27.6	-28.9	14.4	1.50e-06	0	43	102	1048576	16	4218
2026-01-06 08:37:17.49	354.73	10.61	-27.9	-29.8	13.9	5.30e-06	0	43	102	1048576	16	4463
2026-01-06 08:37:20.51	354.40	10.40	-28.2	-30.5	13.4	1.14e-05	0	43	102	1048576	16	4700
2026-01-06 08:37:23.52	354.06	10.20	-28.6	-30.9	12.9	4.73e-05	0	43	102	1048576	17	4701
2026-01-06 08:37:26.54	353.74	9.99	-28.6	-31.1	12.8	7.47e-05	0	43	102	1048576	17	4762
2026-01-06 08:37:29.55	353.42	9.78	-28.5	-30.7	12.9	4.73e-05	0	43	102	1048576	17	4631
2026-01-06 08:37:32.57	353.10	9.57	-28.2	-30.1	13.3	1.90e-05	0	43	102	1048576	17	4447
2026-01-06 08:37:35.59	352.78	9.37	-28.1	-29.7	13.5	1.14e-05	0	43	102	1048576	17	4342
2026-01-06 08:37:38.61	352.48	9.16	-28.1	-29.8	13.4	9.10e-06	0	43	102	1048576	17	4366
2026-01-06 08:37:41.63	352.17	8.96	-28.3	-30.3	13.1	3.66e-05	0	43	102	1048576	17	4512
2026-01-06 08:37:44.64	351.87	8.75	-28.7	-31.3	12.5	7.47e-05	0	43	102	1048576	17	4851
2026-01-06 08:37:47.66	351.58	8.55	-28.7	-31.4	12.4	1.64e-04	0	43	102	1048576	17	4894
2026-01-06 08:37:50.69	351.29	8.35	-28.6	-31.2	12.5	1.43e-04	0	43	102	1048576	17	4819
2026-01-06 08:37:53.71	351.00	8.15	-28.5	-30.8	12.7	7.47e-05	0	43	102	1048576	17	4679
2026-01-06 08:37:56.72	350.72	7.95	-28.5	-30.8	12.7	7.09e-05	0	44	102	1048576	17	4705
2026-01-06 08:37:59.75	350.44	7.75	-28.5	-30.7	12.7	7.85e-05	0	43	102	1048576	17	4664
2026-01-06 08:38:02.77	350.16	7.55	-28.6	-31.2	12.4	1.19e-04	0	43	102	1048576	17	4819
2026-01-06 08:38:05.76	349.89	7.36	-28.7	-31.4	12.2	2.00e-04	0	43	102	1048576	17	4915
2026-01-06 08:38:08.78	349.63	7.16	-28.9	-31.9	11.9	3.62e-04	0	43	102	1048576	17	5094
2026-01-06 08:38:11.80	349.36	6.97	-33.1	-44.7	3.8	1.49e+00	0	44	104	1048576	26	13642

#Closed at: 2026-01-06 08:38:12
#Recorded file [1 MB]: D:/data/31010_260106_112810.dat