passes_logs/2026/01/06/R2M6_AANII_01/R2M6_AANII_01__20260106_010422_NOAA_20_JPSS-1_rec.log

#Pass ID: 20260106_010422_NOAA 20 (JPSS-1)
#Satellite: NOAA 20 (JPSS-1)
#Configuration: NOAA 20
#almurnet v.1.7.20240730
#Start time: 2026-01-06 01:04:23

#Version: 2.2.20231116
#Station: R2M6_AANII_01
#Location: 30.233357 lon 59.946436 lat
#TLE: 1 43013U 17073A   26005.46207808  .00000128  00000+0  81791-4 0  9997
#TLE: 2 43013  98.7627 306.5027 0001826  53.0458 307.0885 14.19533487421381

#Time	Az	El	Level	Level2	SNR	BER	BlckErr	Temp	State	Recorded	gain1	gain2
2026-01-06 01:04:23.23	14.70	7.04	-31.5	-38.0	5.0	1.28e+00	0	41	0	0	22	7648
2026-01-06 01:04:26.24	14.59	7.27	-31.7	-38.4	7.4	1.32e-01	0	41	102	1048576	23	7782
2026-01-06 01:04:29.26	14.48	7.50	-31.4	-37.3	8.6	5.04e-02	0	41	102	1048576	22	7135
2026-01-06 01:04:32.28	14.37	7.73	-31.2	-36.5	9.3	2.13e-02	0	41	102	1048576	22	6626
2026-01-06 01:04:35.30	14.26	7.97	-31.2	-36.2	9.6	2.49e-02	0	41	102	1048576	22	6475
2026-01-06 01:04:38.31	14.15	8.20	-31.0	-36.1	10.0	6.85e-03	0	41	102	1048576	21	6520
2026-01-06 01:04:41.33	14.03	8.44	-31.1	-36.2	9.7	1.46e-02	0	41	102	1048576	22	6427
2026-01-06 01:04:44.34	13.91	8.68	-31.3	-36.6	9.4	1.76e-02	0	42	102	1048576	22	6662
2026-01-06 01:04:47.36	13.79	8.92	-30.8	-35.4	10.7	4.46e-03	0	42	102	1048576	21	6132
2026-01-06 01:04:50.37	13.67	9.16	-30.1	-33.7	12.3	2.90e-04	0	42	102	1048576	20	5460
2026-01-06 01:04:53.39	13.54	9.41	-30.0	-33.3	12.6	8.77e-05	0	42	102	1048576	20	5289
2026-01-06 01:04:56.41	13.42	9.66	-29.9	-33.1	12.8	7.24e-05	0	42	102	1048576	20	5184
2026-01-06 01:04:59.43	13.29	9.91	-30.0	-33.2	12.7	8.62e-05	0	42	102	1048576	20	5233
2026-01-06 01:05:02.45	13.16	10.16	-30.1	-33.5	12.6	2.58e-03	0	42	102	1048576	20	5332
2026-01-06 01:05:05.47	13.02	10.42	-29.9	-33.5	13.0	2.82e-05	0	42	102	1048576	19	5435
2026-01-06 01:05:08.49	12.88	10.68	-30.2	-33.8	12.4	1.53e-04	0	42	102	1048576	20	5460
2026-01-06 01:05:11.52	12.74	10.94	-29.9	-33.0	13.0	4.34e-05	0	42	102	1048576	20	5125
2026-01-06 01:05:14.53	12.60	11.20	-30.2	-33.7	12.5	6.94e-05	0	42	102	1048576	20	5420
2026-01-06 01:05:17.54	12.46	11.47	-28.7	-32.2	12.3	4.73e-05	0	42	102	1048576	19	5388
2026-01-06 01:05:20.57	12.31	11.74	-29.9	-33.4	12.1	4.57e-05	0	42	102	1048576	19	5377
2026-01-06 01:05:23.59	12.16	12.01	-30.0	-33.3	12.9	7.40e-05	0	42	102	1048576	20	5234
2026-01-06 01:05:26.61	12.00	12.29	-29.9	-33.4	13.2	5.41e-04	0	43	102	1048576	19	5385
2026-01-06 01:05:29.63	11.84	12.57	-30.1	-33.4	12.8	2.55e-03	0	43	102	1048576	20	5296
2026-01-06 01:05:32.65	11.68	12.85	-29.6	-32.7	13.7	2.19e-03	0	43	102	1048576	19	5097
2026-01-06 01:05:35.67	11.52	13.13	-29.6	-32.5	13.8	5.30e-06	0	43	102	1048576	19	5053
2026-01-06 01:05:38.69	11.35	13.42	-29.6	-32.4	13.9	2.20e-06	0	43	102	1048576	19	5003
2026-01-06 01:05:41.72	11.18	13.71	-29.7	-32.7	13.8	5.30e-06	0	43	102	1048576	19	5097
2026-01-06 01:05:44.74	11.00	14.00	-29.7	-32.9	13.6	1.06e-05	0	43	102	1048576	19	5168
2026-01-06 01:05:47.76	10.82	14.30	-29.7	-32.7	13.7	2.37e-03	0	43	102	1048576	19	5112
2026-01-06 01:05:50.78	10.64	14.60	-29.5	-32.4	14.0	2.19e-03	0	43	102	1048576	19	4972
2026-01-06 01:05:53.81	10.45	14.90	-29.5	-32.6	14.2	2.35e-03	0	43	102	1048576	18	5181
2026-01-06 01:05:56.83	10.26	15.21	-29.6	-32.3	14.1	2.36e-03	0	43	102	1048576	19	4965
2026-01-06 01:05:59.86	10.07	15.52	-29.6	-32.5	14.0	2.06e-03	0	43	102	1048576	19	5017
2026-01-06 01:06:02.88	9.87	15.84	-29.7	-32.7	13.9	2.28e-03	0	43	102	1048576	19	5102
2026-01-06 01:06:05.90	9.67	16.15	-29.5	-32.3	14.2	3.80e-06	0	43	102	1048576	19	4937
2026-01-06 01:06:08.93	9.46	16.48	-29.7	-32.7	13.9	2.20e-06	0	43	102	1048576	19	5092
2026-01-06 01:06:11.94	9.24	16.80	-29.6	-32.3	14.1	1.50e-06	0	43	102	1048576	19	4956
2026-01-06 01:06:14.95	9.03	17.13	-29.6	-32.4	14.1	2.25e-03	0	43	102	1048576	19	4985
2026-01-06 01:06:17.98	8.80	17.46	-29.6	-32.3	14.2	2.04e-03	0	43	102	1048576	19	4950
2026-01-06 01:06:21.00	8.57	17.80	-29.5	-32.2	14.3	0.00e+00	0	43	102	1048576	19	4911
2026-01-06 01:06:24.02	8.34	18.14	-29.5	-32.1	14.3	1.50e-06	0	43	102	1048576	19	4856
2026-01-06 01:06:27.06	8.10	18.49	-29.5	-32.2	14.3	0.00e+00	0	43	102	1048576	19	4905
2026-01-06 01:06:30.08	7.85	18.84	-29.6	-32.5	14.1	1.50e-06	0	43	102	1048576	19	5026
2026-01-06 01:06:33.10	7.60	19.20	-29.6	-32.3	14.2	7.00e-07	0	43	102	1048576	19	4923
2026-01-06 01:06:36.12	7.35	19.56	-29.5	-32.0	14.4	3.00e-06	0	43	102	1048576	19	4827
2026-01-06 01:06:39.15	7.08	19.92	-29.4	-32.3	14.3	2.23e-04	0	43	102	1048576	18	5055
2026-01-06 01:06:42.16	6.81	20.29	-29.4	-32.3	14.6	1.78e-04	0	43	102	1048576	18	5040
2026-01-06 01:06:45.18	6.53	20.66	-29.4	-32.4	14.5	2.68e-04	0	43	102	1048576	18	5084
2026-01-06 01:06:48.20	6.25	21.04	-29.5	-32.2	14.4	4.11e-04	0	43	102	1048576	19	4890
2026-01-06 01:06:51.22	5.96	21.43	-29.6	-32.5	14.2	0.00e+00	0	43	102	1048576	19	4980
2026-01-06 01:06:54.24	5.66	21.82	-29.9	-33.1	13.8	1.50e-06	0	43	102	1048576	19	5212
2026-01-06 01:06:57.27	5.35	22.21	-30.0	-33.1	13.5	1.59e-04	0	43	102	1048576	20	5102
2026-01-06 01:07:00.29	5.03	22.61	-29.9	-33.1	13.9	3.16e-04	0	43	102	1048576	19	5211
2026-01-06 01:07:03.30	4.71	23.01	-30.3	-33.8	13.0	3.70e-04	0	43	102	1048576	20	5357
2026-01-06 01:07:06.33	4.37	23.42	-30.1	-33.3	13.4	2.05e-04	0	43	102	1048576	20	5171
2026-01-06 01:07:09.36	4.03	23.84	-30.4	-34.0	12.9	1.74e-04	0	43	102	1048576	20	5463
2026-01-06 01:07:12.38	3.68	24.26	-30.7	-34.5	12.2	5.16e-04	0	43	102	1048576	21	5573
2026-01-06 01:07:15.39	3.32	24.69	-30.5	-33.9	12.7	2.91e-04	0	43	102	1048576	21	5283
2026-01-06 01:07:18.41	2.95	25.12	-30.7	-34.3	12.4	2.88e-04	0	43	102	1048576	21	5479
2026-01-06 01:07:21.43	2.56	25.56	-30.6	-34.2	12.5	1.06e-04	0	43	102	1048576	21	5407
2026-01-06 01:07:24.45	2.17	26.00	-30.8	-34.6	12.2	1.91e-04	0	43	102	1048576	21	5572
2026-01-06 01:07:27.46	1.76	26.45	-30.9	-35.1	11.9	4.77e-04	0	43	102	1048576	21	5814
2026-01-06 01:07:30.49	1.34	26.91	-31.1	-35.0	11.6	6.77e-04	0	43	102	1048576	22	5667
2026-01-06 01:07:33.51	0.91	27.37	-31.1	-34.9	11.7	5.66e-04	0	43	102	1048576	22	5593
2026-01-06 01:07:36.53	0.47	27.84	-31.3	-35.7	11.1	1.33e-03	0	43	102	1048576	22	5982
2026-01-06 01:07:39.55	0.01	28.31	-31.2	-35.3	11.4	1.33e-03	0	43	102	1048576	22	5759
2026-01-06 01:07:42.57	359.54	28.79	-31.1	-35.1	11.6	8.44e-04	0	43	102	1048576	22	5683
2026-01-06 01:07:45.59	359.06	29.28	-30.8	-34.7	12.2	1.91e-04	0	43	102	1048576	21	5605
2026-01-06 01:07:48.62	358.56	29.77	-30.7	-34.3	12.5	9.38e-05	0	43	102	1048576	21	5441
2026-01-06 01:07:51.64	358.04	30.27	-30.7	-34.3	12.5	1.25e-04	0	43	102	1048576	21	5448
2026-01-06 01:07:54.66	357.51	30.77	-30.9	-35.0	12.0	3.65e-04	0	43	102	1048576	21	5724
2026-01-06 01:07:57.68	356.95	31.28	-30.9	-34.8	12.2	3.36e-04	0	43	102	1048576	21	5656
2026-01-06 01:08:00.70	356.39	31.80	-31.1	-35.0	11.7	3.94e-04	0	43	102	1048576	22	5617
2026-01-06 01:08:03.72	355.80	32.32	-31.4	-35.8	10.8	8.51e-04	0	43	102	1048576	22	5994
2026-01-06 01:08:06.75	355.19	32.85	-31.1	-35.0	11.7	5.99e-04	0	43	102	1048576	22	5619
2026-01-06 01:08:09.77	354.56	33.38	-31.1	-34.9	11.8	5.26e-04	0	43	102	1048576	22	5592
2026-01-06 01:08:12.79	353.91	33.92	-31.2	-35.3	11.5	8.55e-04	0	43	102	1048576	22	5763
2026-01-06 01:08:15.81	353.24	34.46	-31.3	-35.5	11.3	1.05e-03	0	43	102	1048576	22	5875
2026-01-06 01:08:18.82	352.55	35.01	-31.3	-35.6	11.4	1.83e-03	0	43	102	1048576	22	5882
2026-01-06 01:08:21.84	351.83	35.56	-31.3	-35.4	11.5	1.34e-03	0	43	102	1048576	22	5810
2026-01-06 01:08:24.87	351.08	36.12	-31.1	-34.8	11.9	1.86e-03	0	43	102	1048576	22	5529
2026-01-06 01:08:27.89	350.31	36.68	-30.9	-34.9	12.2	1.95e-03	0	43	102	1048576	21	5675
2026-01-06 01:08:30.91	349.51	37.24	-31.3	-35.4	11.6	2.22e-03	0	43	102	1048576	22	5800
2026-01-06 01:08:33.93	348.69	37.81	-31.4	-35.7	11.3	9.05e-04	0	43	102	1048576	22	5935
2026-01-06 01:08:36.95	347.83	38.38	-31.3	-35.3	11.6	7.29e-04	0	43	102	1048576	22	5755
2026-01-06 01:08:39.96	346.95	38.95	-31.2	-35.0	11.7	1.17e-03	0	44	102	1048576	22	5630
2026-01-06 01:08:42.99	346.03	39.53	-31.3	-35.6	11.5	1.46e-03	0	43	102	1048576	22	5861
2026-01-06 01:08:46.01	345.07	40.10	-31.2	-35.1	11.8	2.19e-03	0	44	102	1048576	22	5645
2026-01-06 01:08:49.02	344.09	40.68	-31.2	-35.2	11.7	2.85e-03	0	44	102	1048576	22	5711
2026-01-06 01:08:52.05	343.06	41.25	-30.9	-34.8	12.4	2.47e-03	0	43	102	1048576	21	5612
2026-01-06 01:08:55.07	342.00	41.82	-31.2	-35.0	11.8	6.39e-04	0	44	102	1048576	22	5607
2026-01-06 01:08:58.09	340.90	42.39	-31.7	-36.2	10.7	2.70e-03	0	43	102	1048576	23	6042
2026-01-06 01:09:01.11	339.76	42.96	-31.8	-36.4	10.5	5.43e-03	0	43	102	1048576	23	6179
2026-01-06 01:09:04.12	338.59	43.52	-31.4	-35.7	11.4	1.00e-03	0	44	102	1048576	22	5919
2026-01-06 01:09:07.13	337.37	44.07	-31.7	-36.4	10.6	3.57e-03	0	43	102	1048576	23	6133
2026-01-06 01:09:10.14	336.11	44.62	-31.7	-36.1	10.7	2.39e-03	0	44	102	1048576	23	6023
2026-01-06 01:09:13.16	334.80	45.16	-32.1	-37.3	9.4	1.05e-02	0	43	102	1048576	24	6542
2026-01-06 01:09:16.18	333.44	45.68	-31.3	-35.1	11.5	9.96e-04	0	43	102	1048576	23	5545
2026-01-06 01:09:19.19	332.05	46.20	-31.0	-34.6	12.1	2.62e-04	0	44	102	1048576	22	5443
2026-01-06 01:09:22.20	330.61	46.70	-31.0	-34.6	12.3	1.79e-04	0	43	102	1048576	22	5423
2026-01-06 01:09:25.21	329.12	47.19	-31.2	-35.0	11.9	3.46e-04	0	43	102	1048576	22	5607
2026-01-06 01:09:28.23	327.58	47.66	-31.1	-34.8	11.6	3.85e-04	0	43	102	1048576	22	5540
2026-01-06 01:09:31.26	325.98	48.12	-30.8	-34.4	12.7	8.08e-05	0	43	102	1048576	21	5438
2026-01-06 01:09:34.28	324.35	48.55	-31.3	-35.4	11.7	1.40e-03	0	43	102	1048576	22	5789
2026-01-06 01:09:37.30	322.67	48.97	-31.8	-36.4	10.7	3.53e-03	0	43	102	1048576	23	6130
2026-01-06 01:09:40.32	320.94	49.36	-31.6	-35.8	11.0	2.04e-03	0	43	102	1048576	23	5865
2026-01-06 01:09:43.35	319.17	49.72	-31.3	-34.8	11.7	4.78e-04	0	43	102	1048576	23	5386
2026-01-06 01:09:46.36	317.36	50.06	-31.7	-36.0	10.9	1.91e-03	0	44	102	1048576	23	5962
2026-01-06 01:09:49.38	315.52	50.36	-31.7	-36.2	10.8	2.40e-03	0	43	102	1048576	23	6014
2026-01-06 01:09:52.41	313.62	50.64	-31.6	-35.8	11.1	1.76e-03	0	43	102	1048576	23	5839
2026-01-06 01:09:55.44	311.70	50.89	-31.5	-35.9	11.4	1.33e-03	0	43	102	1048576	22	5999
2026-01-06 01:09:58.46	309.75	51.10	-30.9	-34.6	12.6	1.15e-03	0	44	102	1048576	21	5546
2026-01-06 01:10:01.48	307.78	51.28	-30.2	-33.2	13.8	3.73e-04	0	44	102	1048576	20	5106
2026-01-06 01:10:04.50	305.78	51.42	-29.8	-32.6	14.6	2.88e-04	0	44	102	1048576	19	4984
2026-01-06 01:10:07.52	303.77	51.52	-29.1	-31.4	15.7	5.37e-04	0	43	102	1048576	18	4688
2026-01-06 01:10:10.53	301.75	51.59	-28.6	-30.8	16.3	0.00e+00	0	44	102	1048576	17	4599
2026-01-06 01:10:13.56	299.71	51.62	-28.9	-31.3	16.0	0.00e+00	0	44	102	1048576	17	4766
2026-01-06 01:10:16.57	297.69	51.61	-28.9	-31.3	16.0	0.00e+00	0	44	102	1048576	17	4766
2026-01-06 01:10:19.59	295.66	51.57	-29.0	-31.1	15.8	0.00e+00	0	44	102	1048576	18	4601
2026-01-06 01:10:22.60	293.64	51.49	-29.2	-31.7	15.5	1.99e-04	0	44	102	1048576	18	4783
2026-01-06 01:10:25.63	291.63	51.37	-29.2	-31.7	15.5	2.94e-04	0	44	102	1048576	18	4772
2026-01-06 01:10:28.65	289.64	51.21	-29.4	-31.7	15.2	0.00e+00	0	43	102	1048576	19	4684
2026-01-06 01:10:31.67	287.67	51.02	-29.4	-31.6	15.3	0.00e+00	0	43	102	1048576	19	4633
2026-01-06 01:10:34.68	285.74	50.80	-29.3	-31.4	15.3	0.00e+00	0	43	102	1048576	19	4585
2026-01-06 01:10:37.69	283.84	50.54	-29.8	-32.6	14.6	0.00e+00	0	44	102	1048576	19	4993
2026-01-06 01:10:40.71	281.96	50.26	-29.6	-32.1	14.9	0.00e+00	0	44	102	1048576	19	4816
2026-01-06 01:10:43.74	280.12	49.94	-30.1	-33.1	13.9	1.50e-06	0	44	102	1048576	20	5066
2026-01-06 01:10:46.76	278.32	49.59	-30.8	-34.5	12.6	6.86e-05	0	44	102	1048576	21	5491
2026-01-06 01:10:49.78	276.56	49.22	-30.8	-34.6	12.6	6.48e-05	0	44	102	1048576	21	5520
2026-01-06 01:10:52.80	274.85	48.82	-31.5	-35.9	11.4	9.21e-04	0	44	102	1048576	22	5980
2026-01-06 01:10:55.82	273.18	48.40	-31.9	-36.7	10.4	4.99e-03	0	43	102	1048576	23	6305
2026-01-06 01:10:58.84	271.56	47.95	-31.6	-35.8	10.9	2.51e-03	0	43	102	1048576	23	5867
2026-01-06 01:11:01.86	269.99	47.49	-31.9	-37.0	10.1	7.17e-03	0	44	102	1048576	23	6463
2026-01-06 01:11:04.87	268.47	47.01	-31.6	-35.9	10.9	2.50e-03	0	43	102	1048576	23	5911
2026-01-06 01:11:07.89	266.99	46.52	-30.9	-34.3	12.4	2.90e-04	0	44	102	1048576	22	5302
2026-01-06 01:11:10.91	265.55	46.01	-31.9	-36.8	10.3	3.02e-03	0	43	102	1048576	23	6356
2026-01-06 01:11:13.93	264.17	45.48	-31.1	-34.4	12.0	5.46e-04	0	44	102	1048576	23	5249
2026-01-06 01:11:16.95	262.83	44.95	-30.4	-33.4	13.3	8.30e-06	0	43	102	1048576	21	5078
2026-01-06 01:11:19.96	261.53	44.41	-30.8	-34.5	12.6	6.79e-05	0	43	102	1048576	21	5499
2026-01-06 01:11:22.97	260.29	43.86	-30.8	-33.9	12.6	1.65e-04	0	44	102	1048576	22	5173
2026-01-06 01:11:26.00	259.07	43.29	-30.8	-34.4	12.3	8.46e-05	0	43	102	1048576	21	5482
2026-01-06 01:11:29.02	257.91	42.73	-30.8	-34.5	12.5	1.04e-04	0	44	102	1048576	21	5529
2026-01-06 01:11:32.03	256.78	42.16	-30.6	-33.8	13.0	1.52e-05	0	43	102	1048576	21	5215
2026-01-06 01:11:35.05	255.69	41.59	-30.6	-33.9	12.9	1.08e-04	0	44	102	1048576	21	5273
2026-01-06 01:11:38.07	254.65	41.02	-31.4	-35.8	11.3	5.96e-04	0	43	102	1048576	22	5965
2026-01-06 01:11:41.08	253.64	40.44	-31.3	-35.4	11.5	6.82e-04	0	43	102	1048576	22	5787
2026-01-06 01:11:44.10	252.66	39.87	-31.6	-36.1	10.7	3.13e-03	0	44	102	1048576	23	6012
2026-01-06 01:11:47.11	251.72	39.29	-31.9	-36.7	9.7	1.20e-02	0	44	102	1048576	24	6232
2026-01-06 01:11:50.13	250.81	38.72	-31.2	-35.3	11.6	7.93e-04	0	44	102	1048576	22	5731
2026-01-06 01:11:53.15	249.93	38.14	-31.6	-35.8	10.8	2.71e-03	0	44	102	1048576	23	5901
2026-01-06 01:11:56.16	249.09	37.57	-31.6	-35.9	10.8	2.37e-03	0	44	102	1048576	23	5932
2026-01-06 01:11:59.19	248.27	37.00	-31.7	-36.4	10.4	4.15e-03	0	43	102	1048576	23	6169
2026-01-06 01:12:02.20	247.48	36.44	-31.6	-36.1	10.6	3.73e-03	0	43	102	1048576	23	6040
2026-01-06 01:12:05.22	246.71	35.88	-31.8	-36.8	10.1	6.05e-03	0	44	102	1048576	23	6372
2026-01-06 01:12:08.24	245.98	35.32	-31.8	-36.7	10.1	7.77e-03	0	44	102	1048576	23	6336
2026-01-06 01:12:11.25	245.27	34.77	-31.8	-36.9	10.0	7.32e-03	0	43	102	1048576	23	6456
2026-01-06 01:12:14.27	244.58	34.22	-31.4	-35.5	11.0	3.11e-03	0	43	102	1048576	23	5773
2026-01-06 01:12:17.29	243.91	33.68	-31.4	-35.9	11.1	2.01e-03	0	43	102	1048576	22	6046
2026-01-06 01:12:20.30	243.27	33.14	-31.3	-35.5	11.4	9.40e-04	0	44	102	1048576	22	5868
2026-01-06 01:12:23.31	242.65	32.61	-31.0	-34.7	11.9	4.24e-04	0	44	102	1048576	22	5501
2026-01-06 01:12:26.33	242.05	32.08	-31.1	-35.0	11.7	8.28e-04	0	44	102	1048576	22	5626
2026-01-06 01:12:29.35	241.47	31.56	-31.4	-35.9	11.0	1.62e-03	0	44	102	1048576	22	6064
2026-01-06 01:12:32.37	240.90	31.04	-31.3	-35.8	11.1	1.60e-03	0	44	102	1048576	22	5993
2026-01-06 01:12:35.38	240.36	30.54	-31.1	-34.9	11.7	6.21e-04	0	44	102	1048576	22	5598
2026-01-06 01:12:38.40	239.83	30.03	-31.2	-35.3	11.5	9.54e-04	0	44	102	1048576	22	5765
2026-01-06 01:12:41.41	239.31	29.54	-31.0	-34.9	11.7	6.03e-04	0	44	102	1048576	22	5594
2026-01-06 01:12:44.43	238.82	29.04	-30.7	-34.4	12.4	4.55e-04	0	43	102	1048576	21	5511
2026-01-06 01:12:47.45	238.33	28.56	-30.5	-33.8	12.8	3.81e-04	0	44	102	1048576	21	5254
2026-01-06 01:12:50.46	237.87	28.08	-30.5	-33.7	12.8	6.83e-04	0	44	102	1048576	21	5239
2026-01-06 01:12:53.49	237.41	27.61	-30.5	-33.9	12.7	1.63e-03	0	43	102	1048576	21	5310
2026-01-06 01:12:56.51	236.97	27.14	-30.2	-33.5	13.3	1.83e-05	0	44	102	1048576	20	5266
2026-01-06 01:12:59.52	236.55	26.68	-30.4	-33.9	13.0	5.11e-05	0	44	102	1048576	20	5431
2026-01-06 01:13:02.54	236.13	26.22	-30.6	-34.1	12.5	1.18e-04	0	44	102	1048576	21	5394
2026-01-06 01:13:05.57	235.72	25.77	-30.8	-34.6	12.2	1.88e-04	0	44	102	1048576	21	5595
2026-01-06 01:13:08.58	235.33	25.33	-30.3	-33.8	13.0	3.09e-04	0	44	102	1048576	20	5386
2026-01-06 01:13:11.60	234.95	24.89	-30.3	-33.8	13.0	1.42e-03	0	44	102	1048576	20	5363
2026-01-06 01:13:14.62	234.58	24.46	-30.3	-33.7	13.1	7.17e-04	0	43	102	1048576	20	5345
2026-01-06 01:13:17.63	234.22	24.04	-30.4	-34.2	12.7	4.80e-05	0	44	102	1048576	20	5537
2026-01-06 01:13:20.65	233.87	23.62	-30.4	-34.1	12.8	1.52e-03	0	44	102	1048576	20	5514
2026-01-06 01:13:23.67	233.53	23.20	-30.2	-33.5	13.1	1.32e-03	0	43	102	1048576	20	5278
2026-01-06 01:13:26.69	233.20	22.79	-30.2	-33.6	13.0	6.55e-04	0	43	102	1048576	20	5304
2026-01-06 01:13:29.71	232.87	22.39	-30.2	-33.5	13.1	3.66e-04	0	43	102	1048576	20	5292
2026-01-06 01:13:32.73	232.56	21.99	-30.1	-33.4	13.1	9.53e-04	0	44	102	1048576	20	5235
2026-01-06 01:13:35.74	232.25	21.60	-30.0	-33.0	13.4	1.44e-05	0	44	102	1048576	20	5076
2026-01-06 01:13:38.76	231.95	21.21	-29.9	-33.3	13.6	3.88e-04	0	44	102	1048576	19	5285
2026-01-06 01:13:41.78	231.66	20.83	-29.9	-33.3	13.5	4.02e-04	0	43	102	1048576	19	5309
2026-01-06 01:13:44.80	231.38	20.45	-30.0	-33.0	13.3	3.95e-04	0	44	102	1048576	20	5096
2026-01-06 01:13:47.83	231.10	20.07	-30.0	-33.2	13.2	2.23e-04	0	44	102	1048576	20	5173
2026-01-06 01:13:50.84	230.83	19.71	-30.0	-33.1	12.2	7.70e-05	0	43	102	1048576	20	5158
2026-01-06 01:13:53.86	230.57	19.34	-30.0	-33.2	13.1	1.90e-05	0	44	102	1048576	20	5161
2026-01-06 01:13:56.88	230.31	18.98	-29.9	-33.3	13.5	2.15e-03	0	44	102	1048576	19	5303
2026-01-06 01:13:59.90	230.06	18.63	-30.1	-33.5	13.0	2.06e-03	0	43	102	1048576	20	5288
2026-01-06 01:14:02.91	229.81	18.28	-30.3	-34.1	12.5	1.53e-04	0	44	102	1048576	20	5549
2026-01-06 01:14:05.93	229.57	17.93	-30.3	-34.1	12.5	2.14e-04	0	44	102	1048576	20	5532
2026-01-06 01:14:08.96	229.34	17.59	-30.4	-34.2	12.4	2.43e-04	0	43	102	1048576	20	5600
2026-01-06 01:14:11.97	229.11	17.25	-30.4	-33.8	12.2	2.47e-04	0	43	102	1048576	21	5341
2026-01-06 01:14:15.00	228.88	16.92	-30.4	-34.2	12.3	9.12e-04	0	43	102	1048576	20	5604
2026-01-06 01:14:18.02	228.67	16.59	-30.2	-33.6	12.7	1.92e-03	0	44	102	1048576	20	5359
2026-01-06 01:14:21.03	228.45	16.27	-30.2	-33.7	12.7	2.13e-03	0	43	102	1048576	20	5379
2026-01-06 01:14:24.05	228.24	15.94	-30.4	-34.3	12.2	2.58e-03	0	43	102	1048576	20	5674
2026-01-06 01:14:27.08	228.04	15.63	-30.1	-33.5	12.7	2.34e-03	0	43	102	1048576	20	5326
2026-01-06 01:14:30.09	227.84	15.31	-30.3	-34.1	12.3	2.23e-03	0	44	102	1048576	20	5576
2026-01-06 01:14:33.10	227.64	15.00	-30.3	-34.0	12.3	2.01e-04	0	43	102	1048576	20	5551
2026-01-06 01:14:36.12	227.45	14.70	-30.4	-34.3	12.1	2.28e-03	0	44	102	1048576	20	5677
2026-01-06 01:14:39.14	227.26	14.39	-30.6	-34.4	11.6	2.52e-03	0	43	102	1048576	21	5629
2026-01-06 01:14:42.16	227.08	14.09	-30.7	-34.8	11.4	2.93e-03	0	44	102	1048576	21	5817
2026-01-06 01:14:45.18	226.90	13.80	-30.6	-34.5	11.5	2.92e-03	0	44	102	1048576	21	5678
2026-01-06 01:14:48.20	226.73	13.50	-30.7	-35.1	11.1	2.98e-03	0	44	102	1048576	21	5962
2026-01-06 01:14:51.22	226.55	13.21	-30.6	-34.8	11.3	1.15e-03	0	43	102	1048576	21	5808
2026-01-06 01:14:54.24	226.38	12.93	-30.6	-34.6	11.4	1.08e-03	0	44	102	1048576	21	5735
2026-01-06 01:14:57.26	226.22	12.64	-30.6	-34.7	11.4	1.05e-03	0	44	102	1048576	21	5753
2026-01-06 01:15:00.29	226.06	12.36	-30.6	-34.8	11.2	1.06e-03	0	44	102	1048576	21	5819
2026-01-06 01:15:03.31	225.90	12.08	-30.6	-34.6	11.3	1.11e-03	0	44	102	1048576	21	5735
2026-01-06 01:15:06.31	225.74	11.81	-30.6	-34.8	11.1	1.87e-03	0	43	102	1048576	21	5842
2026-01-06 01:15:09.33	225.59	11.54	-30.5	-34.5	11.4	1.22e-03	0	44	102	1048576	21	5690
2026-01-06 01:15:12.35	225.44	11.27	-30.5	-34.3	11.5	7.78e-04	0	44	102	1048576	21	5619
2026-01-06 01:15:15.37	225.29	11.00	-30.6	-34.9	11.0	1.38e-03	0	44	102	1048576	21	5870
2026-01-06 01:15:18.39	225.15	10.74	-30.7	-35.3	10.7	2.95e-03	0	43	102	1048576	21	6074
2026-01-06 01:15:21.40	225.00	10.48	-30.6	-34.9	10.9	1.92e-03	0	44	102	1048576	21	5906
2026-01-06 01:15:24.42	224.87	10.22	-30.7	-35.3	10.6	3.16e-03	0	44	102	1048576	21	6081
2026-01-06 01:15:27.43	224.73	9.97	-30.7	-35.3	10.6	4.25e-03	0	44	102	1048576	21	6076
2026-01-06 01:15:30.44	224.60	9.71	-30.8	-35.4	10.5	3.93e-03	0	43	102	1048576	21	6176
2026-01-06 01:15:33.47	224.46	9.46	-30.8	-35.5	10.4	4.82e-03	0	44	102	1048576	21	6216
2026-01-06 01:15:36.48	224.34	9.21	-30.8	-35.6	10.3	4.89e-03	0	43	102	1048576	21	6268
2026-01-06 01:15:39.50	224.21	8.97	-30.6	-35.0	10.7	3.12e-03	0	44	102	1048576	21	5984
2026-01-06 01:15:42.52	224.08	8.72	-30.6	-35.1	10.7	2.89e-03	0	44	102	1048576	21	5995
2026-01-06 01:15:45.54	223.96	8.48	-30.7	-35.4	10.3	5.54e-03	0	44	102	1048576	21	6199
2026-01-06 01:15:48.56	223.84	8.24	-30.7	-35.5	10.3	4.72e-03	0	44	102	1048576	21	6212
2026-01-06 01:15:51.58	223.72	8.00	-30.8	-35.7	10.1	6.17e-03	0	44	102	1048576	21	6365
2026-01-06 01:15:54.60	223.61	7.77	-30.8	-35.9	9.9	8.90e-03	0	44	102	1048576	21	6477
2026-01-06 01:15:57.62	223.49	7.53	-30.9	-36.2	9.6	1.40e-02	0	44	102	1048576	21	6612
2026-01-06 01:16:00.64	223.38	7.30	-30.9	-36.1	9.7	8.50e-03	0	44	102	1048576	21	6555
2026-01-06 01:16:03.66	223.27	7.07	-32.7	-46.9	3.8	6.50e-01	0	44	104	1048576	25	18414
2026-01-06 01:16:06.68	223.16	6.85	-33.5	-48.0	3.8	1.49e+00	0	44	104	1048576	26	19235

#Closed at: 2026-01-06 01:16:06
#Recorded file [1 MB]: D:/data/31010_260106_040425.dat