passes_logs/2026/01/06/R2M6_AANII_01/R2M6_AANII_01__20260106_022411_SUOMI_NPP_rec.log

#Pass ID: 20260106_022411_SUOMI NPP
#Satellite: SUOMI NPP
#Configuration: NPP
#almurnet v.1.7.20240730
#Start time: 2026-01-06 02:24:13

#Version: 2.2.20231116
#Station: R2M6_AANII_01
#Location: 30.233357 lon 59.946436 lat
#TLE: 1 37849U 11061A   26004.95404768  .00000136  00000+0  85334-4 0  9991
#TLE: 2 37849  98.7801 307.0898 0002575  80.6707 279.4760 14.19522289735281

#Time	Az	El	Level	Level2	SNR	BER	BlckErr	Temp	State	Recorded	gain1	gain2
2026-01-06 02:24:13.35	10.02	7.12	-32.1	-39.5	4.2	1.42e+00	0	41	0	0	24	8408
2026-01-06 02:24:16.36	9.74	7.31	-32.1	-39.3	5.1	6.06e-01	0	41	102	1048576	24	8207
2026-01-06 02:24:19.38	9.45	7.50	-32.2	-39.9	4.9	7.42e-01	0	41	102	1048576	24	8724
2026-01-06 02:24:22.40	9.16	7.69	-31.6	-36.7	7.1	2.83e-01	0	41	102	1048576	23	6480
2026-01-06 02:24:25.43	8.86	7.89	-31.0	-34.6	9.2	3.15e-02	0	41	102	1048576	22	5438
2026-01-06 02:24:28.45	8.56	8.08	-30.8	-34.2	9.9	8.44e-03	0	42	102	1048576	21	5361
2026-01-06 02:24:31.47	8.25	8.27	-30.8	-34.1	10.0	8.69e-03	0	42	102	1048576	21	5294
2026-01-06 02:24:34.49	7.94	8.47	-30.9	-34.6	9.7	8.41e-03	0	42	102	1048576	21	5502
2026-01-06 02:24:37.51	7.63	8.66	-30.4	-33.0	10.9	3.14e-03	0	42	102	1048576	21	4829
2026-01-06 02:24:40.54	7.31	8.86	-30.3	-33.1	11.2	1.62e-03	0	42	102	1048576	20	4958
2026-01-06 02:24:43.55	6.99	9.06	-30.3	-33.1	11.2	1.49e-03	0	42	102	1048576	20	4954
2026-01-06 02:24:46.58	6.66	9.26	-30.5	-33.2	10.8	2.25e-03	0	42	102	1048576	21	4900
2026-01-06 02:24:49.60	6.33	9.45	-30.5	-33.1	10.9	1.95e-03	0	42	102	1048576	21	4848
2026-01-06 02:24:52.60	6.00	9.65	-30.4	-33.2	11.3	9.76e-04	0	42	102	1048576	20	4972
2026-01-06 02:24:55.61	5.66	9.85	-30.7	-33.8	10.5	2.51e-03	0	42	102	1048576	21	5114
2026-01-06 02:24:58.62	5.31	10.05	-30.6	-33.4	10.8	3.09e-03	0	42	102	1048576	21	4945
2026-01-06 02:25:01.64	4.96	10.25	-30.7	-33.8	10.5	6.00e-03	0	42	102	1048576	21	5113
2026-01-06 02:25:04.66	4.61	10.45	-30.6	-33.5	10.7	2.83e-03	0	42	102	1048576	21	4979
2026-01-06 02:25:07.69	4.25	10.66	-30.7	-33.6	10.7	2.80e-03	0	42	102	1048576	21	5035
2026-01-06 02:25:10.71	3.88	10.86	-30.1	-33.0	10.7	3.68e-03	0	43	102	1048576	21	5028
2026-01-06 02:25:13.73	3.51	11.06	-30.7	-33.6	10.7	3.33e-03	0	43	102	1048576	21	5040
2026-01-06 02:25:16.75	3.13	11.27	-30.2	-32.8	11.1	1.35e-03	0	43	102	1048576	21	4853
2026-01-06 02:25:19.77	2.75	11.47	-30.4	-33.2	10.6	1.03e-03	0	43	102	1048576	20	4976
2026-01-06 02:25:22.79	2.36	11.67	-30.3	-32.8	11.5	8.12e-04	0	43	102	1048576	20	4823
2026-01-06 02:25:25.81	1.97	11.88	-30.4	-33.2	11.4	4.16e-03	0	43	102	1048576	20	4977
2026-01-06 02:25:28.83	1.57	12.08	-30.5	-33.0	11.2	1.05e-03	0	43	102	1048576	21	4798
2026-01-06 02:25:31.86	1.17	12.29	-30.3	-32.8	11.7	4.89e-04	0	43	102	1048576	20	4804
2026-01-06 02:25:34.88	0.76	12.50	-30.2	-32.5	12.0	2.73e-04	0	43	102	1048576	20	4671
2026-01-06 02:25:37.90	0.34	12.70	-30.2	-32.4	12.1	6.51e-04	0	43	102	1048576	20	4661
2026-01-06 02:25:40.92	359.92	12.91	-30.3	-32.7	11.9	1.93e-03	0	43	102	1048576	20	4743
2026-01-06 02:25:43.94	359.49	13.11	-30.0	-31.8	12.5	3.42e-03	0	43	102	1048576	20	4452
2026-01-06 02:25:46.96	359.06	13.32	-30.1	-32.2	12.2	3.04e-03	0	43	102	1048576	20	4564
2026-01-06 02:25:49.98	358.62	13.53	-30.3	-32.8	11.9	3.13e-03	0	43	102	1048576	20	4781
2026-01-06 02:25:53.00	358.17	13.73	-30.3	-32.7	11.9	3.41e-03	0	43	102	1048576	20	4761
2026-01-06 02:25:56.03	357.71	13.94	-30.2	-32.5	12.0	2.89e-03	0	43	102	1048576	20	4685
2026-01-06 02:25:59.04	357.26	14.15	-30.6	-33.1	11.2	9.81e-04	0	43	102	1048576	21	4825
2026-01-06 02:26:02.06	356.79	14.35	-30.5	-33.0	11.3	1.11e-03	0	43	102	1048576	21	4778
2026-01-06 02:26:05.09	356.31	14.56	-30.4	-33.1	11.6	4.18e-03	0	43	102	1048576	20	4901
2026-01-06 02:26:08.11	355.84	14.77	-30.1	-32.2	12.4	3.59e-03	0	43	102	1048576	20	4554
2026-01-06 02:26:11.13	355.35	14.97	-30.4	-33.0	11.8	2.76e-03	0	43	102	1048576	20	4871
2026-01-06 02:26:14.16	354.85	15.18	-30.6	-33.2	11.3	3.60e-03	0	43	102	1048576	21	4836
2026-01-06 02:26:17.16	354.36	15.38	-30.5	-33.2	11.6	5.68e-04	0	43	102	1048576	20	4937
2026-01-06 02:26:20.18	353.85	15.59	-30.6	-33.0	11.4	6.19e-04	0	43	102	1048576	21	4781
2026-01-06 02:26:23.20	353.33	15.79	-30.6	-33.2	11.2	1.41e-03	0	43	102	1048576	21	4852
2026-01-06 02:26:26.22	352.81	15.99	-30.6	-33.2	11.1	1.60e-03	0	43	102	1048576	21	4846
2026-01-06 02:26:29.24	352.28	16.20	-30.8	-33.6	10.9	1.44e-03	0	43	102	1048576	21	5005
2026-01-06 02:26:32.26	351.75	16.40	-30.7	-33.3	11.3	2.24e-03	0	43	102	1048576	21	4864
2026-01-06 02:26:35.28	351.20	16.60	-30.7	-33.5	11.1	2.66e-03	0	43	102	1048576	21	4955
2026-01-06 02:26:38.30	350.65	16.80	-29.4	-31.9	11.9	8.51e-04	0	43	102	1048576	20	4782
2026-01-06 02:26:41.32	350.09	17.00	-30.8	-33.8	10.4	1.31e-03	0	43	102	1048576	21	5076
2026-01-06 02:26:44.33	349.53	17.19	-30.6	-33.1	11.3	1.12e-03	0	43	102	1048576	21	4787
2026-01-06 02:26:47.36	348.95	17.39	-30.1	-32.1	12.5	1.43e-04	0	43	102	1048576	20	4535
2026-01-06 02:26:50.38	348.37	17.58	-30.1	-32.2	12.5	4.12e-04	0	43	102	1048576	20	4544
2026-01-06 02:26:53.40	347.78	17.78	-30.3	-32.6	12.2	3.98e-04	0	43	102	1048576	20	4691
2026-01-06 02:26:56.43	347.18	17.97	-29.9	-31.5	12.8	8.69e-05	0	43	102	1048576	20	4339
2026-01-06 02:26:59.46	346.58	18.16	-29.9	-31.9	13.0	4.68e-04	0	43	102	1048576	19	4555
2026-01-06 02:27:02.47	345.97	18.34	-29.8	-31.6	13.2	1.96e-03	0	44	102	1048576	19	4461
2026-01-06 02:27:05.43	345.36	18.52	-29.9	-31.9	13.0	2.24e-03	0	43	102	1048576	19	4534
2026-01-06 02:27:08.46	344.73	18.71	-29.5	-30.9	13.7	9.07e-05	0	43	102	1048576	19	4235
2026-01-06 02:27:11.49	344.09	18.89	-29.8	-31.7	13.3	6.33e-05	0	43	102	1048576	19	4470
2026-01-06 02:27:14.50	343.45	19.07	-29.1	-30.4	14.4	2.36e-03	0	43	102	1048576	18	4156
2026-01-06 02:27:17.52	342.80	19.24	-29.3	-30.8	14.1	2.28e-03	0	43	102	1048576	18	4281
2026-01-06 02:27:20.54	342.15	19.42	-29.7	-31.5	13.4	2.84e-03	0	44	102	1048576	19	4399
2026-01-06 02:27:23.54	341.48	19.59	-29.5	-30.7	13.8	2.57e-03	0	43	102	1048576	19	4166
2026-01-06 02:27:26.56	340.81	19.75	-29.1	-30.2	14.5	2.39e-03	0	43	102	1048576	18	4108
2026-01-06 02:27:29.58	340.13	19.92	-29.3	-30.7	14.2	2.65e-03	0	43	102	1048576	18	4239
2026-01-06 02:27:32.59	339.45	20.08	-29.1	-30.2	14.5	4.80e-05	0	43	102	1048576	18	4101
2026-01-06 02:27:35.61	338.75	20.24	-29.0	-30.1	14.7	7.00e-07	0	43	102	1048576	18	4062
2026-01-06 02:27:38.61	338.05	20.39	-29.1	-30.3	14.5	3.08e-03	0	43	102	1048576	18	4120
2026-01-06 02:27:41.63	337.35	20.54	-28.8	-29.9	15.0	2.52e-03	0	43	102	1048576	17	4104
2026-01-06 02:27:44.64	336.63	20.69	-28.6	-29.4	15.3	2.35e-03	0	44	102	1048576	17	3963
2026-01-06 02:27:47.66	335.91	20.83	-28.8	-30.0	15.0	1.52e-05	0	43	102	1048576	17	4123
2026-01-06 02:27:50.68	335.18	20.97	-28.6	-29.4	15.4	0.00e+00	0	43	102	1048576	17	3945
2026-01-06 02:27:53.71	334.44	21.10	-28.9	-30.1	15.0	0.00e+00	0	43	102	1048576	17	4161
2026-01-06 02:27:56.73	333.70	21.24	-29.0	-30.0	14.8	0.00e+00	0	43	102	1048576	18	4028
2026-01-06 02:27:59.75	332.95	21.36	-28.9	-29.7	14.9	7.00e-07	0	43	102	1048576	18	3946
2026-01-06 02:28:02.76	332.20	21.48	-28.9	-30.1	15.0	0.00e+00	0	44	102	1048576	17	4158
2026-01-06 02:28:05.78	331.43	21.60	-28.8	-29.9	15.1	0.00e+00	0	44	102	1048576	17	4104
2026-01-06 02:28:08.81	330.67	21.71	-28.4	-28.9	15.7	0.00e+00	0	43	102	1048576	17	3819
2026-01-06 02:28:11.81	329.90	21.82	-28.4	-29.5	15.7	0.00e+00	0	43	102	1048576	16	4070
2026-01-06 02:28:14.83	329.12	21.92	-28.8	-29.8	15.2	0.00e+00	0	43	102	1048576	17	4069
2026-01-06 02:28:17.85	328.34	22.01	-29.1	-30.1	14.7	0.00e+00	0	43	102	1048576	18	4047
2026-01-06 02:28:20.87	327.55	22.10	-29.8	-31.6	13.4	6.80e-06	0	43	102	1048576	19	4423
2026-01-06 02:28:23.90	326.76	22.19	-30.3	-32.4	12.5	8.01e-05	0	44	102	1048576	20	4605
2026-01-06 02:28:26.91	325.96	22.27	-29.8	-31.1	13.4	1.44e-05	0	44	102	1048576	20	4174
2026-01-06 02:28:29.93	325.16	22.34	-29.7	-31.2	13.8	3.24e-04	0	44	102	1048576	19	4287
2026-01-06 02:28:32.95	324.36	22.41	-29.8	-31.5	13.6	4.10e-04	0	44	102	1048576	19	4374
2026-01-06 02:28:35.98	323.55	22.47	-29.7	-31.2	13.7	4.78e-04	0	44	102	1048576	19	4288
2026-01-06 02:28:39.00	322.74	22.53	-29.5	-30.9	13.9	2.46e-04	0	44	102	1048576	19	4191
2026-01-06 02:28:42.02	321.92	22.58	-29.8	-31.5	13.5	5.60e-04	0	43	102	1048576	19	4398
2026-01-06 02:28:45.03	321.11	22.62	-30.0	-31.5	13.1	3.96e-05	0	44	102	1048576	20	4317
2026-01-06 02:28:48.05	320.29	22.66	-30.0	-31.6	13.0	6.00e-04	0	43	102	1048576	20	4322
2026-01-06 02:28:51.06	319.48	22.69	-29.9	-31.4	13.2	7.30e-04	0	44	102	1048576	20	4257
2026-01-06 02:28:54.08	318.65	22.72	-30.7	-33.2	11.6	1.91e-03	0	44	102	1048576	21	4816
2026-01-06 02:28:57.10	317.83	22.74	-30.8	-33.4	11.5	2.14e-03	0	43	102	1048576	21	4875
2026-01-06 02:29:00.12	317.01	22.75	-30.5	-32.8	11.9	9.28e-04	0	44	102	1048576	21	4665
2026-01-06 02:29:03.14	316.18	22.76	-30.2	-32.2	12.6	1.02e-04	0	44	102	1048576	20	4548
2026-01-06 02:29:06.16	315.36	22.76	-29.9	-32.0	13.2	1.75e-05	0	44	102	1048576	19	4549
2026-01-06 02:29:09.17	314.54	22.75	-29.9	-31.8	13.2	1.83e-05	0	44	102	1048576	19	4503
2026-01-06 02:29:12.19	313.71	22.74	-29.5	-30.8	13.9	1.67e-05	0	44	102	1048576	19	4180
2026-01-06 02:29:15.21	312.89	22.72	-29.7	-31.2	13.6	4.50e-06	0	44	102	1048576	19	4316
2026-01-06 02:29:18.22	312.07	22.69	-30.0	-31.5	13.0	1.25e-04	0	43	102	1048576	20	4325
2026-01-06 02:29:21.23	311.25	22.66	-29.8	-31.1	13.3	2.28e-05	0	44	102	1048576	20	4194
2026-01-06 02:29:24.25	310.44	22.62	-29.3	-30.2	14.3	0.00e+00	0	43	102	1048576	19	4008
2026-01-06 02:29:27.27	309.62	22.58	-29.1	-30.2	14.6	0.00e+00	0	44	102	1048576	18	4080
2026-01-06 02:29:30.29	308.81	22.53	-29.3	-30.3	14.3	2.20e-06	0	43	102	1048576	19	4020
2026-01-06 02:29:33.31	307.99	22.47	-29.2	-30.4	14.5	0.00e+00	0	43	102	1048576	18	4125
2026-01-06 02:29:36.33	307.19	22.41	-29.2	-30.4	14.6	3.69e-04	0	43	102	1048576	18	4124
2026-01-06 02:29:39.35	306.38	22.34	-28.8	-30.0	15.1	9.53e-05	0	43	102	1048576	17	4112
2026-01-06 02:29:42.37	305.58	22.27	-28.3	-29.2	15.8	1.26e-03	0	44	102	1048576	16	3998
2026-01-06 02:29:45.39	304.78	22.19	-28.4	-29.5	15.7	1.27e-03	0	44	102	1048576	16	4063
2026-01-06 02:29:48.41	303.99	22.10	-28.8	-29.8	15.1	1.76e-03	0	44	102	1048576	17	4077
2026-01-06 02:29:51.43	303.20	22.01	-28.5	-29.3	15.5	0.00e+00	0	44	102	1048576	17	3926
2026-01-06 02:29:54.46	302.42	21.92	-28.5	-29.2	15.6	0.00e+00	0	43	102	1048576	17	3886
2026-01-06 02:29:57.48	301.64	21.81	-28.3	-29.3	15.7	5.79e-05	0	44	102	1048576	16	4019
2026-01-06 02:30:00.50	300.86	21.71	-29.0	-29.9	14.9	2.38e-03	0	44	102	1048576	18	3996
2026-01-06 02:30:03.52	300.09	21.60	-29.0	-29.8	14.8	3.08e-03	0	43	102	1048576	18	3974
2026-01-06 02:30:06.54	299.33	21.48	-28.9	-30.1	14.9	3.91e-03	0	44	102	1048576	17	4155
2026-01-06 02:30:09.56	298.58	21.36	-28.9	-30.3	14.8	2.61e-03	0	44	102	1048576	17	4215
2026-01-06 02:30:12.58	297.83	21.23	-29.7	-31.2	13.7	3.12e-03	0	43	102	1048576	19	4286
2026-01-06 02:30:15.60	297.08	21.10	-30.3	-32.2	12.7	3.46e-03	0	44	102	1048576	20	4522
2026-01-06 02:30:18.61	296.35	20.97	-30.4	-32.6	12.4	1.30e-04	0	44	102	1048576	20	4651
2026-01-06 02:30:21.64	295.61	20.83	-30.3	-32.3	12.6	9.46e-05	0	44	102	1048576	20	4555
2026-01-06 02:30:24.65	294.89	20.68	-30.0	-31.6	13.1	2.72e-03	0	44	102	1048576	20	4300
2026-01-06 02:30:27.67	294.17	20.54	-30.2	-32.0	12.8	2.77e-03	0	44	102	1048576	20	4438
2026-01-06 02:30:30.69	293.46	20.38	-30.0	-31.6	13.0	3.04e-03	0	44	102	1048576	20	4305
2026-01-06 02:30:33.71	292.76	20.23	-29.6	-30.8	14.0	1.78e-03	0	44	102	1048576	19	4150
2026-01-06 02:30:36.73	292.06	20.07	-29.3	-30.5	14.4	0.00e+00	0	44	102	1048576	18	4163
2026-01-06 02:30:39.76	291.37	19.91	-29.7	-31.1	13.7	1.50e-06	0	44	102	1048576	19	4248
2026-01-06 02:30:42.78	290.69	19.74	-30.1	-31.9	12.9	3.73e-05	0	44	102	1048576	20	4402
2026-01-06 02:30:45.80	290.01	19.58	-30.5	-32.6	12.0	4.13e-04	0	43	102	1048576	21	4577
2026-01-06 02:30:48.82	289.35	19.41	-30.2	-32.2	12.6	2.14e-04	0	44	102	1048576	20	4529
2026-01-06 02:30:51.84	288.69	19.23	-30.0	-32.9	11.1	1.11e-03	0	44	102	1048576	21	5036
2026-01-06 02:30:54.87	288.03	19.05	-31.5	-34.7	9.4	1.14e-02	0	44	102	1048576	23	5242
2026-01-06 02:30:57.89	287.39	18.88	-30.9	-33.8	11.1	4.87e-03	0	44	102	1048576	21	5017
2026-01-06 02:31:00.91	286.75	18.69	-30.5	-32.6	11.9	3.99e-04	0	44	102	1048576	21	4576
2026-01-06 02:31:03.92	286.12	18.51	-30.1	-31.9	12.7	8.01e-05	0	44	102	1048576	20	4429
2026-01-06 02:31:06.93	285.50	18.33	-29.9	-31.4	13.1	5.41e-04	0	44	102	1048576	20	4248
2026-01-06 02:31:09.94	284.89	18.14	-30.2	-32.1	12.6	1.08e-03	0	44	102	1048576	20	4481
2026-01-06 02:31:12.96	284.29	17.95	-29.5	-30.6	14.0	9.84e-04	0	44	102	1048576	19	4107
2026-01-06 02:31:15.98	283.69	17.76	-29.1	-30.1	14.6	1.50e-03	0	44	102	1048576	18	4040
2026-01-06 02:31:19.00	283.10	17.56	-29.8	-31.4	13.4	2.22e-03	0	44	102	1048576	19	4366
2026-01-06 02:31:22.02	282.51	17.37	-30.4	-32.8	12.2	2.51e-03	0	44	102	1048576	20	4727
2026-01-06 02:31:25.04	281.94	17.17	-30.3	-32.5	12.2	2.67e-03	0	44	102	1048576	20	4628
2026-01-06 02:31:28.07	281.37	16.97	-30.0	-31.7	12.8	1.36e-03	0	44	102	1048576	20	4373
2026-01-06 02:31:31.09	280.81	16.78	-29.7	-31.3	13.5	9.10e-06	0	44	102	1048576	19	4316
2026-01-06 02:31:34.11	280.25	16.58	-29.5	-30.6	13.9	2.35e-03	0	44	102	1048576	19	4109
2026-01-06 02:31:37.12	279.71	16.38	-29.6	-30.9	13.7	3.80e-03	0	44	102	1048576	19	4195
2026-01-06 02:31:40.14	279.17	16.17	-30.0	-32.0	13.0	3.12e-03	0	44	102	1048576	19	4563
2026-01-06 02:31:43.16	278.64	15.97	-30.1	-31.9	12.6	2.28e-03	0	44	102	1048576	20	4447
2026-01-06 02:31:46.18	278.12	15.77	-29.7	-31.2	13.4	2.03e-03	0	44	102	1048576	19	4282
2026-01-06 02:31:49.20	277.60	15.56	-29.7	-31.4	13.4	2.05e-05	0	44	102	1048576	19	4355
2026-01-06 02:31:52.23	277.09	15.36	-29.8	-31.7	13.1	3.35e-05	0	44	102	1048576	19	4463
2026-01-06 02:31:55.25	276.59	15.15	-29.9	-31.3	12.9	5.95e-05	0	44	102	1048576	20	4263
2026-01-06 02:31:58.28	276.09	14.94	-29.7	-31.3	13.4	1.90e-05	0	44	102	1048576	19	4327
2026-01-06 02:32:01.30	275.60	14.74	-29.3	-30.9	13.9	4.50e-06	0	44	102	1048576	18	4298
2026-01-06 02:32:04.32	275.12	14.53	-29.4	-31.1	13.8	4.50e-06	0	44	102	1048576	18	4380
2026-01-06 02:32:07.35	274.64	14.32	-29.1	-30.2	14.3	1.60e-05	0	44	102	1048576	18	4083
2026-01-06 02:32:10.35	274.18	14.12	-29.1	-30.2	14.3	0.00e+00	0	44	102	1048576	18	4088
2026-01-06 02:32:13.37	273.71	13.91	-28.9	-30.2	14.2	0.00e+00	0	44	102	1048576	17	4201
2026-01-06 02:32:16.38	273.26	13.70	-29.4	-31.0	13.8	1.50e-06	0	44	102	1048576	18	4335
2026-01-06 02:32:19.40	272.81	13.50	-30.0	-31.7	12.5	6.71e-05	0	44	102	1048576	20	4403
2026-01-06 02:32:22.42	272.37	13.29	-29.9	-32.0	12.8	6.40e-05	0	44	102	1048576	19	4562
2026-01-06 02:32:25.44	271.93	13.08	-29.6	-31.2	13.3	2.82e-05	0	44	102	1048576	19	4300
2026-01-06 02:32:28.45	271.50	12.88	-29.1	-30.3	14.2	3.46e-04	0	44	102	1048576	18	4128
2026-01-06 02:32:31.47	271.08	12.67	-29.6	-31.1	13.2	2.12e-04	0	44	102	1048576	19	4280
2026-01-06 02:32:34.48	270.66	12.46	-29.6	-31.2	13.3	2.13e-05	0	43	102	1048576	19	4308
2026-01-06 02:32:37.50	270.25	12.26	-29.6	-31.1	13.3	1.98e-05	0	44	102	1048576	19	4287
2026-01-06 02:32:40.53	269.84	12.05	-29.8	-31.8	12.8	2.53e-04	0	44	102	1048576	19	4524
2026-01-06 02:32:43.55	269.44	11.84	-29.9	-31.5	12.6	1.13e-04	0	44	102	1048576	20	4333
2026-01-06 02:32:46.57	269.05	11.64	-29.6	-31.2	13.2	5.07e-04	0	44	102	1048576	19	4313
2026-01-06 02:32:49.58	268.66	11.43	-28.9	-30.4	14.3	1.93e-04	0	44	102	1048576	17	4257
2026-01-06 02:32:52.60	268.27	11.23	-28.8	-30.2	14.4	7.00e-07	0	44	102	1048576	17	4214
2026-01-06 02:32:55.63	267.89	11.03	-29.3	-31.0	13.6	1.47e-03	0	44	102	1048576	18	4353
2026-01-06 02:32:58.65	267.52	10.82	-29.9	-32.1	12.5	2.33e-03	0	44	102	1048576	19	4622
2026-01-06 02:33:01.67	267.15	10.62	-29.8	-31.8	12.7	2.32e-03	0	44	102	1048576	19	4539
2026-01-06 02:33:04.69	266.79	10.42	-29.7	-31.6	12.8	7.78e-05	0	44	102	1048576	19	4462
2026-01-06 02:33:07.72	266.43	10.21	-29.8	-31.8	12.6	9.38e-05	0	44	102	1048576	19	4537
2026-01-06 02:33:10.73	266.08	10.01	-29.8	-31.8	12.6	9.61e-05	0	43	102	1048576	19	4558
2026-01-06 02:33:13.75	265.73	9.81	-30.2	-32.6	11.7	4.93e-04	0	44	102	1048576	20	4733
2026-01-06 02:33:16.77	265.39	9.61	-29.8	-32.0	12.4	3.78e-04	0	44	102	1048576	19	4597
2026-01-06 02:33:19.79	265.05	9.41	-30.0	-32.2	11.9	3.11e-04	0	44	102	1048576	20	4600
2026-01-06 02:33:22.80	264.72	9.21	-30.2	-32.8	11.4	8.02e-04	0	44	102	1048576	20	4812
2026-01-06 02:33:25.82	264.39	9.02	-30.3	-33.0	11.2	1.70e-03	0	43	102	1048576	20	4893
2026-01-06 02:33:28.85	264.06	8.82	-30.1	-32.5	11.5	8.39e-04	0	44	102	1048576	20	4720
2026-01-06 02:33:31.86	263.74	8.62	-30.3	-33.2	11.0	1.77e-03	0	44	102	1048576	20	4999
2026-01-06 02:33:34.88	263.43	8.42	-30.7	-34.1	9.3	8.05e-03	0	44	102	1048576	21	5281
2026-01-06 02:33:37.90	263.12	8.23	-30.9	-34.6	9.5	1.17e-02	0	44	102	1048576	21	5498
2026-01-06 02:33:40.91	262.81	8.03	-31.1	-34.7	9.1	2.09e-02	0	44	102	1048576	22	5496
2026-01-06 02:33:43.93	262.51	7.84	-31.0	-34.7	9.1	2.84e-02	0	44	102	1048576	22	5462
2026-01-06 02:33:46.94	262.21	7.65	-30.3	-33.1	11.0	3.67e-03	0	44	102	1048576	20	4978
2026-01-06 02:33:49.97	261.91	7.45	-30.2	-32.9	11.1	1.35e-03	0	44	102	1048576	20	4900
2026-01-06 02:33:52.99	261.62	7.26	-30.3	-33.2	10.9	1.63e-03	0	44	102	1048576	20	5019
2026-01-06 02:33:56.01	261.34	7.07	-30.2	-32.9	11.0	2.53e-03	0	44	102	1048576	20	4918
2026-01-06 02:33:59.04	261.05	6.88	-33.4	-46.1	3.8	1.49e+00	0	44	104	1048576	26	15441

#Closed at: 2026-01-06 02:33:59
#Recorded file [1 MB]: D:/data/31010_260106_052415.dat