passes_logs/2026/01/06/R2M6_AANII_01/R2M6_AANII_01__20260106_224448_SUOMI_NPP_rec.log

#Pass ID: 20260106_224448_SUOMI NPP
#Satellite: SUOMI NPP
#Configuration: NPP
#almurnet v.1.7.20240730
#Start time: 2026-01-06 22:44:48

#Version: 2.2.20231116
#Station: R2M6_AANII_01
#Location: 30.233357 lon 59.946436 lat
#TLE: 1 37849U 11061A   26005.94084933  .00000134  00000+0  84554-4 0  9990
#TLE: 2 37849  98.7803 308.0679 0002567  79.1029 281.0436 14.19522657735426

#Time	Az	El	Level	Level2	SNR	BER	BlckErr	Temp	State	Recorded	gain1	gain2
2026-01-06 22:44:48.52	30.75	7.02	-31.5	-36.4	5.0	1.22e+00	0	41	0	0	22	6363
2026-01-06 22:44:51.53	31.04	7.21	-32.0	-38.2	5.9	3.22e-01	0	41	0	1048576	24	7325
2026-01-06 22:44:54.55	31.34	7.39	-31.9	-37.6	6.7	2.13e-01	0	41	0	7340032	23	6963
2026-01-06 22:44:57.57	31.64	7.58	-31.6	-36.4	7.7	1.13e-01	0	41	0	12582912	23	6235
2026-01-06 22:45:00.58	31.95	7.77	-31.4	-35.5	8.8	3.12e-02	0	41	102	18874368	22	5828
2026-01-06 22:45:03.60	32.26	7.96	-31.6	-35.9	8.2	8.48e-02	0	41	102	18874368	23	5900
2026-01-06 22:45:06.62	32.58	8.15	-31.2	-34.9	9.4	2.05e-02	0	41	102	18874368	22	5494
2026-01-06 22:45:09.64	32.90	8.34	-31.3	-35.0	9.3	1.43e-02	0	42	102	18874368	22	5566
2026-01-06 22:45:12.65	33.22	8.53	-30.8	-33.9	10.5	5.11e-03	0	42	102	18874368	21	5135
2026-01-06 22:45:15.67	33.54	8.72	-30.6	-33.3	11.0	1.68e-03	0	42	102	18874368	21	4896
2026-01-06 22:45:18.69	33.88	8.91	-30.3	-32.8	11.8	6.02e-04	0	42	102	18874368	20	4789
2026-01-06 22:45:21.71	34.21	9.10	-30.4	-32.9	11.7	5.61e-04	0	42	102	18874368	20	4831
2026-01-06 22:45:24.73	34.55	9.29	-30.4	-32.9	11.7	4.07e-04	0	42	102	18874368	20	4821
2026-01-06 22:45:27.75	34.89	9.49	-30.3	-32.6	11.9	6.74e-04	0	42	102	18874368	20	4716
2026-01-06 22:45:30.77	35.24	9.68	-30.2	-32.5	12.1	6.67e-04	0	42	102	18874368	20	4653
2026-01-06 22:45:33.79	35.59	9.88	-30.3	-32.6	12.0	4.32e-04	0	42	102	18874368	20	4691
2026-01-06 22:45:36.81	35.95	10.07	-30.3	-32.7	11.9	2.04e-04	0	42	102	18874368	20	4724
2026-01-06 22:45:39.82	36.31	10.27	-30.2	-32.4	12.2	2.29e-04	0	42	102	18874368	20	4625
2026-01-06 22:45:42.86	36.68	10.47	-30.5	-33.2	11.6	4.00e-04	0	42	102	18874368	20	4931
2026-01-06 22:45:45.88	37.05	10.66	-30.5	-32.7	11.6	6.80e-04	0	43	102	18874368	21	4642
2026-01-06 22:45:48.90	37.43	10.86	-30.6	-33.1	11.3	8.15e-04	0	42	102	18874368	21	4779
2026-01-06 22:45:51.92	37.81	11.06	-30.5	-32.8	11.6	9.19e-04	0	43	102	18874368	21	4670
2026-01-06 22:45:54.94	38.20	11.26	-30.2	-31.8	12.3	1.23e-04	0	43	102	18874368	21	4337
2026-01-06 22:45:57.97	38.59	11.46	-30.1	-31.4	12.6	1.04e-04	0	43	102	18874368	21	4210
2026-01-06 22:46:00.96	38.98	11.66	-29.9	-30.9	12.9	5.26e-05	0	43	102	18874368	21	4052
2026-01-06 22:46:03.98	39.38	11.86	-29.8	-30.6	13.2	4.04e-05	0	43	102	18874368	21	3947
2026-01-06 22:46:07.01	39.79	12.06	-29.8	-31.0	13.2	2.28e-05	0	43	102	18874368	20	4155
2026-01-06 22:46:10.03	40.20	12.26	-29.9	-31.3	13.1	2.51e-05	0	43	102	18874368	20	4234
2026-01-06 22:46:13.05	40.62	12.46	-30.0	-31.7	12.9	4.11e-05	0	43	102	18874368	20	4354
2026-01-06 22:46:16.06	41.04	12.66	-30.1	-31.9	12.7	7.40e-05	0	43	102	18874368	20	4426
2026-01-06 22:46:19.07	41.47	12.87	-30.0	-31.5	13.0	6.48e-05	0	43	102	18874368	20	4303
2026-01-06 22:46:22.10	41.91	13.07	-30.1	-32.0	12.6	7.47e-05	0	43	102	18874368	20	4469
2026-01-06 22:46:25.12	42.35	13.27	-30.4	-32.7	12.2	1.59e-04	0	43	102	18874368	20	4697
2026-01-06 22:46:28.14	42.79	13.47	-30.2	-32.1	12.6	1.04e-04	0	43	102	18874368	20	4479
2026-01-06 22:46:31.16	43.25	13.68	-30.0	-31.6	13.0	4.34e-05	0	43	102	18874368	20	4320
2026-01-06 22:46:34.18	43.71	13.88	-29.8	-31.6	13.4	1.06e-05	0	43	102	18874368	19	4427
2026-01-06 22:46:37.20	44.17	14.08	-29.9	-31.2	13.2	2.59e-05	0	43	102	18874368	20	4214
2026-01-06 22:46:40.21	44.64	14.28	-29.8	-31.1	13.1	2.28e-05	0	43	102	18874368	20	4175
2026-01-06 22:46:43.22	45.12	14.49	-29.9	-31.6	13.4	1.44e-05	0	43	102	18874368	19	4416
2026-01-06 22:46:46.24	45.60	14.69	-30.3	-32.5	12.4	1.28e-04	0	43	102	18874368	20	4626
2026-01-06 22:46:49.26	46.09	14.89	-29.7	-30.8	13.6	1.37e-05	0	43	102	18874368	20	4077
2026-01-06 22:46:52.28	46.59	15.09	-29.8	-31.3	13.6	3.00e-06	0	43	102	18874368	19	4312
2026-01-06 22:46:55.31	47.09	15.30	-29.9	-31.4	13.2	3.20e-04	0	43	102	18874368	20	4245
2026-01-06 22:46:58.33	47.60	15.50	-30.1	-31.9	12.9	3.07e-04	0	43	102	18874368	20	4394
2026-01-06 22:47:01.35	48.12	15.70	-30.1	-31.7	13.1	5.26e-05	0	43	102	18874368	20	4334
2026-01-06 22:47:04.37	48.64	15.90	-29.9	-31.3	13.3	1.37e-05	0	43	102	18874368	20	4209
2026-01-06 22:47:07.40	49.17	16.10	-29.9	-31.3	13.3	4.11e-05	0	43	102	18874368	20	4201
2026-01-06 22:47:10.42	49.71	16.30	-30.0	-31.5	13.2	1.05e-04	0	43	102	18874368	20	4289
2026-01-06 22:47:13.44	50.25	16.50	-29.8	-31.0	13.6	5.87e-05	0	43	102	18874368	20	4128
2026-01-06 22:47:16.46	50.80	16.70	-29.9	-31.7	13.4	2.32e-04	0	43	102	18874368	19	4428
2026-01-06 22:47:19.48	51.36	16.89	-30.0	-31.6	13.2	6.91e-04	0	43	102	18874368	20	4301
2026-01-06 22:47:22.50	51.93	17.09	-30.0	-31.3	13.4	1.09e-03	0	43	102	18874368	20	4214
2026-01-06 22:47:25.52	52.50	17.28	-30.1	-31.7	13.2	1.59e-03	0	43	102	18874368	20	4319
2026-01-06 22:47:28.55	53.08	17.48	-30.0	-31.4	13.4	1.90e-05	0	43	102	18874368	20	4242
2026-01-06 22:47:31.56	53.67	17.67	-30.1	-31.6	13.2	1.29e-05	0	43	102	18874368	20	4286
2026-01-06 22:47:34.58	54.26	17.86	-29.9	-31.5	13.7	8.30e-06	0	43	102	18874368	19	4364
2026-01-06 22:47:37.60	54.86	18.05	-30.2	-32.1	12.9	3.43e-05	0	43	102	18874368	20	4443
2026-01-06 22:47:40.60	55.47	18.24	-30.2	-31.4	13.0	3.43e-05	0	43	102	18874368	21	4158
2026-01-06 22:47:43.62	56.08	18.42	-29.7	-30.5	14.0	2.97e-05	0	43	102	18874368	20	3979
2026-01-06 22:47:46.64	56.71	18.61	-30.1	-31.7	13.2	1.14e-05	0	43	102	18874368	20	4338
2026-01-06 22:47:49.65	57.34	18.79	-30.3	-32.3	12.8	6.10e-05	0	43	102	18874368	20	4542
2026-01-06 22:47:52.67	57.98	18.97	-30.2	-32.0	13.0	2.74e-05	0	43	102	18874368	20	4437
2026-01-06 22:47:55.70	58.62	19.15	-30.4	-32.1	12.6	9.23e-05	0	43	102	18874368	21	4357
2026-01-06 22:47:58.72	59.28	19.32	-30.7	-32.9	12.1	2.66e-04	0	43	102	18874368	21	4646
2026-01-06 22:48:01.73	59.94	19.49	-30.7	-33.0	12.1	3.58e-04	0	43	102	18874368	21	4649
2026-01-06 22:48:04.74	60.60	19.66	-31.1	-33.6	11.3	9.36e-04	0	43	102	18874368	22	4791
2026-01-06 22:48:07.77	61.28	19.83	-31.1	-33.5	11.4	8.74e-04	0	43	102	18874368	22	4774
2026-01-06 22:48:10.80	61.96	20.00	-30.7	-32.3	12.3	3.57e-04	0	43	102	18874368	22	4322
2026-01-06 22:48:13.81	62.65	20.16	-30.5	-32.2	12.6	6.29e-04	0	43	102	18874368	21	4394
2026-01-06 22:48:16.82	63.35	20.32	-30.4	-32.1	12.7	1.00e-03	0	43	102	18874368	21	4346
2026-01-06 22:48:19.85	64.05	20.48	-30.7	-32.8	12.2	3.10e-04	0	43	102	18874368	21	4581
2026-01-06 22:48:22.87	64.76	20.63	-30.5	-32.2	12.6	1.34e-04	0	43	102	18874368	21	4397
2026-01-06 22:48:25.88	65.48	20.78	-30.2	-31.9	13.2	1.55e-03	0	43	102	18874368	20	4383
2026-01-06 22:48:28.89	66.20	20.92	-30.2	-32.0	13.1	8.36e-04	0	43	102	18874368	20	4411
2026-01-06 22:48:31.91	66.93	21.06	-30.0	-31.4	13.4	3.78e-04	0	43	102	18874368	20	4228
2026-01-06 22:48:34.94	67.67	21.20	-30.5	-32.7	12.7	2.35e-04	0	43	102	18874368	20	4638
2026-01-06 22:48:37.96	68.42	21.34	-30.2	-31.9	13.2	3.12e-04	0	43	102	18874368	20	4370
2026-01-06 22:48:40.98	69.17	21.47	-29.9	-31.0	13.8	1.92e-04	0	43	102	18874368	20	4096
2026-01-06 22:48:43.99	69.92	21.59	-30.1	-31.6	13.3	1.14e-05	0	43	102	18874368	20	4291
2026-01-06 22:48:47.02	70.69	21.71	-30.1	-31.6	13.4	1.90e-05	0	43	102	18874368	20	4288
2026-01-06 22:48:50.03	71.45	21.83	-30.3	-32.2	13.0	3.73e-05	0	43	102	18874368	20	4487
2026-01-06 22:48:53.05	72.23	21.94	-29.6	-30.3	14.2	2.08e-04	0	43	102	18874368	20	3890
2026-01-06 22:48:56.07	73.01	22.05	-30.1	-31.6	13.4	3.66e-04	0	43	102	18874368	20	4272
2026-01-06 22:48:59.09	73.79	22.15	-29.7	-30.6	14.0	4.42e-05	0	43	102	18874368	20	3989
2026-01-06 22:49:02.12	74.58	22.24	-30.3	-32.0	13.1	1.75e-05	0	43	102	18874368	20	4421
2026-01-06 22:49:05.14	75.38	22.34	-30.2	-31.9	13.3	2.51e-05	0	44	102	18874368	20	4364
2026-01-06 22:49:08.15	76.17	22.42	-30.5	-32.6	12.8	2.36e-05	0	44	102	18874368	20	4620
2026-01-06 22:49:11.17	76.98	22.50	-30.7	-32.9	12.1	1.88e-04	0	44	102	18874368	21	4633
2026-01-06 22:49:14.20	77.79	22.58	-30.0	-31.4	13.5	7.60e-06	0	43	102	18874368	20	4231
2026-01-06 22:49:17.21	78.60	22.65	-30.4	-32.4	12.9	4.88e-05	0	43	102	18874368	20	4535
2026-01-06 22:49:20.24	79.41	22.71	-30.3	-31.7	13.0	5.34e-05	0	43	102	18874368	21	4229
2026-01-06 22:49:23.26	80.23	22.77	-29.9	-31.1	13.7	2.20e-06	0	43	102	18874368	20	4147
2026-01-06 22:49:26.28	81.05	22.82	-30.1	-31.5	13.4	9.10e-06	0	43	102	18874368	20	4260
2026-01-06 22:49:29.30	81.87	22.87	-29.8	-30.7	13.9	3.80e-06	0	43	102	18874368	20	4024
2026-01-06 22:49:32.32	82.70	22.91	-30.0	-31.4	13.6	6.10e-06	0	43	102	18874368	20	4214
2026-01-06 22:49:35.34	83.53	22.95	-29.6	-30.4	14.2	1.50e-06	0	43	102	18874368	20	3932
2026-01-06 22:49:38.36	84.36	22.98	-28.5	-31.3	13.2	6.80e-06	0	43	102	18874368	18	4955
2026-01-06 22:49:41.38	85.19	23.00	-29.5	-31.6	13.3	1.75e-05	0	44	102	18874368	19	4578
2026-01-06 22:49:44.41	86.02	23.01	-30.0	-31.5	13.4	1.44e-05	0	43	102	18874368	20	4264
2026-01-06 22:49:47.42	86.85	23.02	-29.7	-30.6	14.0	7.00e-07	0	43	102	18874368	20	3992
2026-01-06 22:49:50.42	87.68	23.03	-28.6	-30.6	13.9	5.30e-06	0	44	102	18874368	18	4542
2026-01-06 22:49:53.44	88.51	23.03	-29.3	-31.3	13.9	2.20e-06	0	44	102	18874368	18	4523
2026-01-06 22:49:56.46	89.35	23.02	-29.7	-31.0	14.1	2.20e-06	0	43	102	18874368	19	4199
2026-01-06 22:49:59.48	90.18	23.01	-29.5	-30.6	14.4	1.50e-06	0	44	102	18874368	19	4080
2026-01-06 22:50:02.50	91.01	22.99	-29.5	-30.4	14.5	0.00e+00	0	43	102	18874368	19	4025
2026-01-06 22:50:05.53	91.84	22.96	-29.4	-30.2	14.6	7.00e-07	0	44	102	18874368	19	3975
2026-01-06 22:50:08.55	92.67	22.93	-29.5	-30.6	14.4	7.00e-07	0	43	102	18874368	19	4077
2026-01-06 22:50:11.57	93.50	22.89	-29.8	-31.3	13.9	4.50e-06	0	43	102	18874368	19	4293
2026-01-06 22:50:14.59	94.32	22.84	-29.7	-31.1	14.1	3.80e-06	0	43	102	18874368	19	4234
2026-01-06 22:50:17.61	95.15	22.79	-29.5	-30.6	14.4	3.00e-06	0	43	102	18874368	19	4071
2026-01-06 22:50:20.64	95.97	22.74	-30.0	-31.4	13.5	6.10e-06	0	43	102	18874368	20	4216
2026-01-06 22:50:23.66	96.79	22.67	-29.5	-30.2	14.1	2.20e-06	0	43	102	18874368	20	3874
2026-01-06 22:50:26.68	97.60	22.61	-29.1	-29.5	15.0	0.00e+00	0	43	102	18874368	19	3770
2026-01-06 22:50:29.70	98.41	22.53	-29.0	-29.2	15.2	0.00e+00	0	44	102	18874368	19	3690
2026-01-06 22:50:32.70	99.21	22.45	-28.7	-29.1	15.5	0.00e+00	0	43	102	18874368	18	3759
2026-01-06 22:50:35.73	100.02	22.37	-28.8	-29.3	15.4	0.00e+00	0	44	102	18874368	18	3816
2026-01-06 22:50:38.75	100.81	22.28	-29.0	-29.8	15.1	0.00e+00	0	43	102	18874368	18	3951
2026-01-06 22:50:41.78	101.61	22.18	-29.1	-30.0	15.0	7.00e-07	0	43	102	18874368	18	3991
2026-01-06 22:50:44.80	102.40	22.08	-29.1	-30.2	14.9	0.00e+00	0	43	102	18874368	18	4046
2026-01-06 22:50:47.81	103.18	21.98	-29.0	-29.8	15.2	0.00e+00	0	43	102	18874368	18	3939
2026-01-06 22:50:50.84	103.96	21.87	-28.7	-29.2	15.5	0.00e+00	0	44	102	18874368	18	3786
2026-01-06 22:50:53.86	104.73	21.75	-28.6	-29.3	15.7	4.32e-04	0	43	102	18874368	17	3903
2026-01-06 22:50:56.88	105.50	21.63	-28.5	-29.2	15.7	2.81e-04	0	43	102	18874368	17	3875
2026-01-06 22:50:59.90	106.26	21.51	-28.7	-29.6	15.5	8.31e-05	0	43	102	18874368	17	3994
2026-01-06 22:51:02.91	107.01	21.38	-29.0	-30.3	15.1	1.23e-04	0	43	102	18874368	17	4176
2026-01-06 22:51:05.93	107.76	21.25	-28.8	-29.3	15.4	2.46e-04	0	43	102	18874368	18	3808
2026-01-06 22:51:08.96	108.51	21.11	-29.0	-29.9	15.0	0.00e+00	0	43	102	18874368	18	3974
2026-01-06 22:51:11.98	109.24	20.97	-29.2	-30.4	14.7	1.01e-04	0	44	102	18874368	18	4120
2026-01-06 22:51:15.00	109.97	20.83	-29.2	-30.3	14.7	5.02e-04	0	44	102	18874368	18	4109
2026-01-06 22:51:18.02	110.70	20.68	-29.0	-29.7	15.0	5.33e-04	0	44	102	18874368	18	3932
2026-01-06 22:51:21.04	111.41	20.53	-29.5	-31.0	14.3	4.02e-04	0	43	102	18874368	18	4292
2026-01-06 22:51:24.06	112.12	20.37	-29.8	-31.3	13.8	2.08e-04	0	43	102	18874368	19	4288
2026-01-06 22:51:27.08	112.82	20.21	-29.9	-31.7	13.6	9.90e-06	0	44	102	18874368	19	4433
2026-01-06 22:51:30.10	113.52	20.05	-29.7	-30.7	13.7	3.80e-06	0	44	102	18874368	20	4050
2026-01-06 22:51:33.11	114.20	19.88	-29.7	-30.8	13.6	2.20e-06	0	43	102	18874368	20	4086
2026-01-06 22:51:36.12	114.88	19.72	-29.8	-31.4	13.6	6.80e-06	0	44	102	18874368	19	4353
2026-01-06 22:51:39.14	115.56	19.55	-29.7	-30.7	13.7	4.50e-06	0	43	102	18874368	20	4055
2026-01-06 22:51:42.16	116.22	19.37	-29.8	-30.9	13.6	8.39e-05	0	44	102	18874368	20	4102
2026-01-06 22:51:45.18	116.88	19.20	-30.3	-32.5	12.5	8.77e-05	0	44	102	18874368	20	4621
2026-01-06 22:51:48.21	117.53	19.02	-30.2	-31.5	12.8	6.48e-05	0	44	102	18874368	21	4212
2026-01-06 22:51:51.22	118.18	18.84	-30.0	-31.0	13.1	3.20e-05	0	43	102	18874368	21	4064
2026-01-06 22:51:54.25	118.81	18.65	-30.1	-31.4	12.9	3.96e-05	0	43	102	18874368	21	4162
2026-01-06 22:51:57.26	119.44	18.47	-30.0	-31.1	13.0	3.89e-05	0	44	102	18874368	21	4073
2026-01-06 22:52:00.29	120.06	18.28	-30.1	-31.4	12.8	6.10e-05	0	43	102	18874368	21	4188
2026-01-06 22:52:03.31	120.68	18.09	-30.3	-32.0	12.5	1.34e-04	0	44	102	18874368	21	4373
2026-01-06 22:52:06.33	121.29	17.90	-30.1	-31.3	13.0	4.73e-05	0	43	102	18874368	21	4134
2026-01-06 22:52:09.35	121.88	17.71	-30.0	-31.1	13.0	2.67e-05	0	43	102	18874368	21	4101
2026-01-06 22:52:12.38	122.48	17.52	-30.0	-31.1	13.0	8.39e-05	0	43	102	18874368	21	4081
2026-01-06 22:52:15.40	123.06	17.32	-29.3	-30.2	14.3	3.00e-06	0	43	102	18874368	19	4005
2026-01-06 22:52:18.42	123.64	17.13	-29.3	-30.2	14.2	0.00e+00	0	43	102	18874368	19	4009
2026-01-06 22:52:21.44	124.21	16.93	-29.7	-31.2	13.6	1.14e-05	0	44	102	18874368	19	4301
2026-01-06 22:52:24.46	124.77	16.73	-29.9	-31.7	13.3	1.98e-05	0	44	102	18874368	19	4446
2026-01-06 22:52:27.47	125.33	16.53	-30.2	-32.2	12.6	1.18e-04	0	43	102	18874368	20	4522
2026-01-06 22:52:30.49	125.88	16.34	-30.5	-32.7	11.8	5.30e-04	0	43	102	18874368	21	4642
2026-01-06 22:52:33.50	126.42	16.14	-29.9	-31.0	13.0	5.56e-05	0	44	102	18874368	21	4058
2026-01-06 22:52:36.52	126.95	15.93	-29.6	-30.9	13.8	5.30e-06	0	44	102	18874368	19	4186
2026-01-06 22:52:39.54	127.48	15.73	-29.9	-31.5	12.9	3.81e-05	0	43	102	18874368	20	4314
2026-01-06 22:52:42.56	128.00	15.53	-30.1	-32.1	12.5	1.42e-04	0	44	102	18874368	20	4551
2026-01-06 22:52:45.58	128.51	15.33	-29.5	-30.5	13.4	1.90e-05	0	44	102	18874368	20	4039
2026-01-06 22:52:48.59	129.02	15.12	-29.4	-30.7	13.8	1.50e-04	0	43	102	18874368	19	4163
2026-01-06 22:52:51.61	129.52	14.92	-29.9	-32.0	12.9	2.82e-04	0	44	102	18874368	19	4568
2026-01-06 22:52:54.63	130.01	14.71	-29.8	-31.2	13.1	5.18e-05	0	44	102	18874368	20	4220
2026-01-06 22:52:57.65	130.50	14.51	-29.9	-31.8	13.0	6.17e-05	0	44	102	18874368	19	4523
2026-01-06 22:53:00.67	130.98	14.31	-30.3	-32.8	11.9	2.82e-04	0	44	102	18874368	20	4776
2026-01-06 22:53:03.69	131.45	14.10	-30.1	-32.1	12.3	2.68e-04	0	44	102	18874368	20	4546
2026-01-06 22:53:06.71	131.92	13.90	-30.0	-31.9	12.4	1.18e-04	0	44	102	18874368	20	4489
2026-01-06 22:53:09.73	132.38	13.69	-30.1	-32.1	12.3	1.27e-04	0	44	102	18874368	20	4543
2026-01-06 22:53:12.75	132.84	13.49	-30.6	-33.1	11.2	9.71e-04	0	43	102	18874368	21	4815
2026-01-06 22:53:15.77	133.29	13.28	-30.4	-32.6	11.5	8.49e-04	0	44	102	18874368	21	4644
2026-01-06 22:53:18.80	133.73	13.08	-30.2	-32.2	11.8	4.59e-04	0	43	102	18874368	21	4513
2026-01-06 22:53:21.81	134.17	12.87	-30.1	-32.5	11.9	2.00e-04	0	43	102	18874368	20	4701
2026-01-06 22:53:24.83	134.60	12.67	-30.1	-32.4	12.0	4.14e-04	0	43	102	18874368	20	4676
2026-01-06 22:53:27.86	135.03	12.47	-30.2	-32.7	11.8	3.89e-04	0	43	102	18874368	20	4758
2026-01-06 22:53:30.88	135.45	12.26	-30.1	-32.2	12.0	3.55e-04	0	43	102	18874368	20	4624
2026-01-06 22:53:33.90	135.87	12.06	-30.1	-32.3	11.9	2.99e-04	0	44	102	18874368	20	4665
2026-01-06 22:53:36.93	136.28	11.86	-29.8	-31.6	12.4	1.58e-04	0	43	102	18874368	20	4429
2026-01-06 22:53:39.95	136.68	11.65	-30.0	-32.1	12.0	2.29e-04	0	43	102	18874368	20	4588
2026-01-06 22:53:42.98	137.08	11.45	-29.9	-31.7	12.3	2.18e-04	0	44	102	18874368	20	4461
2026-01-06 22:53:45.99	137.47	11.25	-29.9	-32.2	12.4	1.59e-04	0	43	102	18874368	19	4677
2026-01-06 22:53:49.02	137.86	11.05	-30.1	-32.3	11.8	4.68e-04	0	44	102	18874368	20	4652
2026-01-06 22:53:52.04	138.25	10.85	-30.3	-33.0	11.3	1.08e-03	0	43	102	18874368	20	4943
2026-01-06 22:53:55.06	138.62	10.65	-30.0	-32.3	11.7	4.88e-04	0	44	102	18874368	20	4686
2026-01-06 22:53:58.07	139.00	10.45	-30.0	-32.1	12.0	3.40e-04	0	44	102	18874368	20	4580
2026-01-06 22:54:01.09	139.36	10.25	-29.9	-31.8	12.1	2.60e-04	0	44	102	18874368	20	4476
2026-01-06 22:54:04.11	139.73	10.05	-30.0	-32.2	11.8	4.86e-04	0	43	102	18874368	20	4621
2026-01-06 22:54:07.12	140.09	9.85	-30.2	-32.9	11.2	1.11e-03	0	43	102	18874368	20	4917
2026-01-06 22:54:10.15	140.44	9.66	-30.5	-33.3	10.6	3.40e-03	0	44	102	18874368	21	4955
2026-01-06 22:54:13.17	140.79	9.46	-30.7	-33.8	10.1	5.16e-03	0	44	102	18874368	21	5173
2026-01-06 22:54:16.19	141.14	9.26	-30.7	-33.9	10.0	9.38e-03	0	43	102	18874368	21	5243
2026-01-06 22:54:19.21	141.48	9.07	-30.4	-33.2	10.5	5.59e-03	0	43	102	18874368	21	4948
2026-01-06 22:54:22.23	141.81	8.88	-30.3	-33.5	10.5	3.25e-03	0	43	102	18874368	20	5170
2026-01-06 22:54:25.24	142.14	8.68	-30.3	-33.3	10.5	4.26e-03	0	44	102	18874368	20	5127
2026-01-06 22:54:28.26	142.47	8.49	-30.0	-32.7	10.9	2.12e-03	0	44	102	18874368	20	4902
2026-01-06 22:54:31.29	142.80	8.30	-30.0	-32.6	10.9	2.48e-03	0	43	102	18874368	20	4886
2026-01-06 22:54:34.31	143.12	8.10	-30.0	-32.4	11.1	1.57e-03	0	44	102	18874368	20	4790
2026-01-06 22:54:37.33	143.43	7.91	-30.0	-32.6	10.9	1.97e-03	0	44	102	18874368	20	4857
2026-01-06 22:54:40.35	143.74	7.72	-30.2	-33.1	10.5	4.07e-03	0	44	102	18874368	20	5070
2026-01-06 22:54:43.37	144.05	7.53	-30.5	-33.9	9.5	9.93e-03	0	43	102	18874368	21	5337
2026-01-06 22:54:46.39	144.36	7.34	-30.6	-34.3	9.2	1.74e-02	0	43	102	18874368	21	5499
2026-01-06 22:54:49.41	144.66	7.16	-30.5	-33.9	9.5	1.78e-02	0	44	102	18874368	21	5330
2026-01-06 22:54:52.43	144.95	6.97	-33.4	-46.1	3.8	1.49e+00	0	44	104	18874368	26	15512

#Closed at: 2026-01-06 22:54:52
#Recorded file [18 MB]: D:/data/31010_260107_014450.dat