passes_logs/2026/01/06/R2M6_AANII_01/R2M6_AANII_01__20260106_132405_FENGYUN_3E_rec.log

#Pass ID: 20260106_132405_FENGYUN 3E
#Satellite: FENGYUN 3E
#Configuration: FENGYUN 3E
#almurnet v.1.7.20240730
#Start time: 2026-01-06 13:29:17

#Version: 2.2.20231116
#Station: R2M6_AANII_01
#Location: 30.233357 lon 59.946436 lat
#TLE: 1 49008U 21062A   26005.63346808  .00000216  00000+0  12264-3 0  9999
#TLE: 2 49008  98.7472  10.8714 0001569 158.0856 202.0387 14.19884439233512

#Time	Az	El	Level	Level2	SNR	BER	BlckErr	Temp	State	Recorded	gain1	gain2
2026-01-06 13:29:17.51	64.62	36.95	-33.2	-44.4	3.8	8.45e-01	0	43	0	0	26	13057
2026-01-06 13:29:19.52	63.78	37.03	-33.8	-42.9	3.8	8.47e-01	0	44	104	0	28	10308
2026-01-06 13:29:21.53	62.93	37.10	-33.9	-43.0	3.8	8.45e-01	0	43	104	0	28	10342
2026-01-06 13:29:23.55	62.08	37.16	-33.9	-43.1	3.8	8.46e-01	0	44	104	0	28	10384
2026-01-06 13:29:25.56	61.22	37.22	-33.9	-43.1	3.8	8.46e-01	0	44	104	0	28	10393
2026-01-06 13:29:27.57	60.37	37.26	-33.8	-42.9	3.8	8.46e-01	0	44	104	0	28	10261
2026-01-06 13:29:29.58	59.51	37.31	-33.8	-42.9	3.8	8.46e-01	0	44	104	0	28	10255
2026-01-06 13:29:31.59	58.65	37.34	-33.8	-43.0	3.8	8.46e-01	0	43	104	0	28	10294
2026-01-06 13:29:33.61	57.78	37.37	-33.9	-43.2	3.8	8.46e-01	0	44	104	0	28	10447
2026-01-06 13:29:35.62	56.92	37.39	-33.8	-42.9	3.8	8.45e-01	0	44	104	0	28	10301
2026-01-06 13:29:37.64	56.05	37.40	-33.8	-42.9	3.8	8.47e-01	0	44	104	0	28	10305
2026-01-06 13:29:39.66	55.18	37.40	-33.9	-43.0	3.8	8.48e-01	0	44	104	0	28	10301
2026-01-06 13:29:41.67	54.32	37.40	-33.8	-42.8	3.8	8.44e-01	0	44	104	0	28	10226
2026-01-06 13:29:43.68	53.46	37.39	-33.7	-42.7	3.8	8.46e-01	0	44	104	0	28	10163
2026-01-06 13:29:45.69	52.59	37.37	-33.6	-42.5	3.8	8.46e-01	0	44	104	0	28	9989
2026-01-06 13:29:47.71	51.73	37.35	-33.6	-42.2	3.8	8.46e-01	0	44	104	0	28	9706
2026-01-06 13:29:49.72	50.87	37.32	-33.6	-42.3	3.8	8.46e-01	0	44	104	0	28	9840
2026-01-06 13:29:51.74	50.01	37.28	-33.6	-42.3	3.8	8.44e-01	0	44	104	0	28	9842
2026-01-06 13:29:53.75	49.15	37.23	-33.6	-42.0	3.8	8.47e-01	0	44	104	0	28	9492
2026-01-06 13:29:55.76	48.30	37.18	-33.6	-42.4	3.8	8.48e-01	0	44	104	0	28	9961
2026-01-06 13:29:57.78	47.44	37.11	-33.6	-42.5	3.8	8.46e-01	0	44	104	0	28	10003
2026-01-06 13:29:59.79	46.60	37.05	-33.5	-41.4	3.8	8.45e-01	0	44	104	0	28	8941
2026-01-06 13:30:01.81	45.75	36.97	-33.4	-41.1	3.8	8.45e-01	0	44	104	0	28	8719
2026-01-06 13:30:03.82	44.91	36.89	-33.6	-42.1	3.8	8.47e-01	0	44	104	0	28	9613
2026-01-06 13:30:05.83	44.08	36.80	-33.5	-41.8	3.8	8.46e-01	0	44	104	0	28	9323
2026-01-06 13:30:07.84	43.25	36.70	-32.9	-38.3	4.5	8.42e-01	0	44	104	0	26	6726
2026-01-06 13:30:09.86	42.42	36.60	-31.5	-34.3	7.0	2.52e-01	0	44	102	1048576	24	4942
2026-01-06 13:30:11.87	41.60	36.49	-26.9	-27.1	14.1	6.80e-06	0	44	102	1048576	15	3679
2026-01-06 13:30:13.87	40.79	36.38	-27.0	-27.7	14.1	1.10e-06	0	44	102	1048576	14	3925
2026-01-06 13:30:15.88	39.98	36.26	-26.2	-26.6	14.9	0.00e+00	0	44	102	1048576	13	3759
2026-01-06 13:30:17.89	39.18	36.13	-25.5	-25.6	15.8	0.00e+00	0	44	102	1048576	12	3626
2026-01-06 13:30:19.90	38.39	36.00	-25.6	-26.2	15.8	0.00e+00	0	44	102	1048576	11	3849
2026-01-06 13:30:21.92	37.59	35.86	-26.4	-27.4	14.8	0.00e+00	0	44	102	1048576	12	4050
2026-01-06 13:30:23.93	36.81	35.72	-24.9	-24.7	16.6	0.00e+00	0	44	102	1048576	11	3521
2026-01-06 13:30:25.95	36.03	35.57	-23.7	-23.7	17.9	0.00e+00	0	44	102	1048576	8	3592
2026-01-06 13:30:27.96	35.27	35.41	-23.0	-22.8	18.5	0.00e+00	0	44	102	1048576	7	3502
2026-01-06 13:30:29.98	34.50	35.25	-22.8	-22.9	18.7	0.00e+00	0	44	102	1048576	6	3612
2026-01-06 13:30:32.00	33.75	35.09	-22.9	-23.0	18.7	0.00e+00	0	44	102	1048576	6	3642
2026-01-06 13:30:34.02	33.00	34.92	-22.5	-22.2	19.0	0.00e+00	0	44	102	1048576	6	3481
2026-01-06 13:30:36.04	32.26	34.74	-22.7	-22.5	18.9	0.00e+00	0	44	102	1048576	6	3542
2026-01-06 13:30:38.04	31.53	34.57	-22.5	-22.2	19.0	0.00e+00	0	44	102	1048576	6	3471
2026-01-06 13:30:40.05	30.81	34.38	-22.4	-21.9	19.2	0.00e+00	0	44	102	1048576	6	3410
2026-01-06 13:30:42.06	30.10	34.20	-22.3	-22.2	19.3	0.00e+00	0	44	102	1048576	5	3558
2026-01-06 13:30:44.07	29.40	34.01	-22.4	-22.4	19.2	0.00e+00	0	44	102	1048576	5	3610
2026-01-06 13:30:46.08	28.70	33.82	-22.4	-22.5	19.1	0.00e+00	0	44	102	1048576	5	3640
2026-01-06 13:30:48.10	28.01	33.62	-22.4	-22.4	19.1	0.00e+00	0	44	102	1048576	5	3622
2026-01-06 13:30:50.11	27.33	33.42	-22.2	-22.1	19.3	0.00e+00	0	44	102	1048576	5	3541
2026-01-06 13:30:52.13	26.66	33.21	-22.0	-21.6	19.5	0.00e+00	0	44	102	1048576	5	3453
2026-01-06 13:30:54.14	26.00	33.01	-22.2	-22.0	19.3	0.00e+00	0	44	102	1048576	5	3533
2026-01-06 13:30:56.16	25.34	32.80	-22.5	-22.7	19.0	0.00e+00	0	44	102	1048576	5	3676
2026-01-06 13:30:58.18	24.69	32.58	-22.7	-23.2	18.8	0.00e+00	0	44	102	1048576	5	3779
2026-01-06 13:31:00.19	24.06	32.37	-22.9	-23.6	18.6	0.00e+00	0	44	102	1048576	5	3876
2026-01-06 13:31:02.21	23.43	32.15	-22.7	-23.1	18.8	0.00e+00	0	44	102	1048576	5	3777
2026-01-06 13:31:04.22	22.81	31.93	-22.7	-23.0	18.8	0.00e+00	0	44	102	1048576	5	3755
2026-01-06 13:31:06.24	22.19	31.71	-22.5	-22.7	19.0	0.00e+00	0	44	102	1048576	5	3686
2026-01-06 13:31:08.23	21.60	31.49	-22.5	-22.7	19.0	0.00e+00	0	44	102	1048576	5	3673
2026-01-06 13:31:10.24	21.00	31.26	-22.8	-23.2	18.7	0.00e+00	0	44	102	1048576	5	3796
2026-01-06 13:31:12.25	20.42	31.03	-22.8	-23.3	18.7	0.00e+00	0	44	102	1048576	5	3809
2026-01-06 13:31:14.26	19.84	30.81	-23.1	-23.9	18.3	0.00e+00	0	44	102	1048576	5	3954
2026-01-06 13:31:16.28	19.27	30.58	-23.3	-23.9	18.1	0.00e+00	0	44	102	1048576	6	3842
2026-01-06 13:31:18.29	18.71	30.34	-22.8	-22.8	18.5	0.00e+00	0	44	102	1048576	6	3608
2026-01-06 13:31:20.31	18.15	30.11	-22.9	-23.0	18.6	0.00e+00	0	44	102	1048576	6	3631
2026-01-06 13:31:22.32	17.61	29.88	-22.8	-22.9	18.7	0.00e+00	0	44	102	1048576	6	3616
2026-01-06 13:31:24.34	17.07	29.64	-23.0	-23.2	18.5	0.00e+00	0	44	102	1048576	6	3682
2026-01-06 13:31:26.34	16.54	29.41	-23.1	-23.5	18.3	0.00e+00	0	44	102	1048576	6	3759
2026-01-06 13:31:28.36	16.02	29.17	-23.1	-23.4	18.3	0.00e+00	0	44	102	1048576	6	3740
2026-01-06 13:31:30.37	15.50	28.93	-23.1	-23.5	18.3	0.00e+00	0	44	102	1048576	6	3752
2026-01-06 13:31:32.38	15.00	28.70	-23.1	-23.5	18.3	0.00e+00	0	44	102	1048576	6	3744
2026-01-06 13:31:34.40	14.50	28.46	-23.0	-23.2	18.4	0.00e+00	0	44	102	1048576	6	3678
2026-01-06 13:31:36.40	14.01	28.22	-23.0	-23.2	18.4	0.00e+00	0	44	102	1048576	6	3687
2026-01-06 13:31:38.42	13.52	27.98	-22.9	-23.0	18.5	0.00e+00	0	44	102	1048576	6	3643
2026-01-06 13:31:40.44	13.04	27.74	-22.9	-23.1	18.5	0.00e+00	0	44	102	1048576	6	3664
2026-01-06 13:31:42.45	12.57	27.50	-23.0	-23.2	18.4	0.00e+00	0	44	102	1048576	6	3680
2026-01-06 13:31:44.45	12.11	27.27	-23.0	-23.3	18.4	0.00e+00	0	44	102	1048576	6	3707
2026-01-06 13:31:46.46	11.66	27.03	-23.1	-23.4	18.3	0.00e+00	0	44	102	1048576	6	3741
2026-01-06 13:31:48.47	11.21	26.79	-23.2	-23.6	18.2	0.00e+00	0	44	102	1048576	6	3778
2026-01-06 13:31:50.49	10.77	26.55	-23.1	-23.4	18.3	0.00e+00	0	44	102	1048576	6	3737
2026-01-06 13:31:52.51	10.33	26.31	-23.2	-23.6	18.2	0.00e+00	0	44	102	1048576	6	3780
2026-01-06 13:31:54.53	9.90	26.07	-23.2	-23.7	18.1	0.00e+00	0	44	102	1048576	6	3808
2026-01-06 13:31:56.54	9.48	25.83	-23.0	-23.3	18.3	0.00e+00	0	44	102	1048576	6	3713
2026-01-06 13:31:58.55	9.06	25.60	-23.0	-23.2	18.4	0.00e+00	0	44	102	1048576	6	3675
2026-01-06 13:32:00.57	8.65	25.36	-22.9	-23.1	18.4	0.00e+00	0	44	102	1048576	6	3658
2026-01-06 13:32:02.58	8.25	25.12	-22.9	-23.1	18.4	0.00e+00	0	44	102	1048576	6	3667
2026-01-06 13:32:04.60	7.85	24.89	-23.0	-23.2	18.3	0.00e+00	0	44	102	1048576	6	3690
2026-01-06 13:32:06.62	7.45	24.65	-23.2	-23.7	18.1	0.00e+00	0	44	102	1048576	6	3802
2026-01-06 13:32:08.63	7.07	24.42	-23.4	-24.0	17.9	0.00e+00	0	44	102	1048576	6	3883
2026-01-06 13:32:10.64	6.69	24.18	-23.3	-23.8	18.0	0.00e+00	0	44	102	1048576	6	3816
2026-01-06 13:32:12.66	6.32	23.95	-23.2	-23.6	18.1	0.00e+00	0	44	102	1048576	6	3767
2026-01-06 13:32:14.67	5.95	23.72	-23.2	-23.6	18.1	0.00e+00	0	44	102	1048576	6	3776
2026-01-06 13:32:16.68	5.58	23.49	-23.2	-23.7	18.0	0.00e+00	0	44	102	1048576	6	3804
2026-01-06 13:32:18.69	5.23	23.26	-23.4	-24.1	17.9	0.00e+00	0	44	102	1048576	6	3885
2026-01-06 13:32:20.70	4.88	23.03	-23.3	-23.9	17.9	0.00e+00	0	44	102	1048576	6	3844
2026-01-06 13:32:22.72	4.53	22.80	-23.3	-23.8	18.0	0.00e+00	0	44	102	1048576	6	3813
2026-01-06 13:32:24.73	4.19	22.57	-23.1	-23.5	18.1	0.00e+00	0	44	102	1048576	6	3754
2026-01-06 13:32:26.75	3.85	22.34	-23.1	-23.5	18.1	0.00e+00	0	44	102	1048576	6	3755
2026-01-06 13:32:28.75	3.52	22.12	-23.2	-23.6	18.1	0.00e+00	0	44	102	1048576	6	3771
2026-01-06 13:32:30.76	3.19	21.89	-23.2	-23.6	18.0	0.00e+00	0	44	102	1048576	6	3785
2026-01-06 13:32:32.78	2.87	21.67	-23.3	-23.8	18.0	0.00e+00	0	44	102	1048576	6	3817
2026-01-06 13:32:34.79	2.55	21.45	-23.4	-24.1	17.8	0.00e+00	0	44	102	1048576	6	3889
2026-01-06 13:32:36.81	2.24	21.22	-23.5	-24.3	17.6	0.00e+00	0	44	102	1048576	6	3951
2026-01-06 13:32:38.83	1.93	21.00	-23.8	-24.4	17.4	0.00e+00	0	44	102	1048576	7	3849
2026-01-06 13:32:40.84	1.63	20.78	-23.4	-23.5	17.8	0.00e+00	0	44	102	1048576	7	3664
2026-01-06 13:32:42.85	1.33	20.56	-23.4	-23.5	17.8	0.00e+00	0	44	102	1048576	7	3656
2026-01-06 13:32:44.86	1.03	20.34	-23.3	-23.4	17.9	0.00e+00	0	44	102	1048576	7	3624
2026-01-06 13:32:46.89	0.74	20.13	-23.5	-23.8	17.7	0.00e+00	0	44	102	1048576	7	3718
2026-01-06 13:32:48.90	0.45	19.91	-23.8	-24.5	17.3	0.00e+00	0	44	102	1048576	7	3883
2026-01-06 13:32:50.91	0.17	19.70	-24.2	-24.7	16.9	0.00e+00	0	44	102	1048576	8	3835
2026-01-06 13:32:52.92	359.89	19.48	-24.1	-24.6	17.0	0.00e+00	0	44	102	1048576	8	3798
2026-01-06 13:32:54.94	359.62	19.27	-24.1	-24.5	17.0	0.00e+00	0	44	102	1048576	8	3783
2026-01-06 13:32:56.95	359.35	19.06	-24.1	-24.6	17.0	0.00e+00	0	44	102	1048576	8	3797
2026-01-06 13:32:58.96	359.08	18.85	-24.2	-24.8	16.9	0.00e+00	0	44	102	1048576	8	3852
2026-01-06 13:33:00.97	358.82	18.64	-24.3	-25.0	16.7	0.00e+00	0	44	102	1048576	8	3906
2026-01-06 13:33:02.98	358.56	18.43	-24.4	-25.3	16.6	0.00e+00	0	44	102	1048576	8	3964
2026-01-06 13:33:05.00	358.30	18.23	-24.6	-25.6	16.4	0.00e+00	0	44	102	1048576	8	4048
2026-01-06 13:33:07.02	358.05	18.02	-24.3	-24.4	16.8	0.00e+00	0	44	102	1048576	9	3663
2026-01-06 13:33:09.03	357.80	17.82	-24.2	-24.3	16.8	0.00e+00	0	44	102	1048576	9	3638
2026-01-06 13:33:11.05	357.55	17.61	-24.2	-24.3	16.8	0.00e+00	0	44	102	1048576	9	3646
2026-01-06 13:33:13.05	357.31	17.41	-24.3	-24.4	16.8	0.00e+00	0	44	102	1048576	9	3654
2026-01-06 13:33:15.07	357.07	17.21	-24.3	-24.6	16.6	0.00e+00	0	44	102	1048576	9	3690
2026-01-06 13:33:17.08	356.84	17.01	-24.4	-24.6	16.6	0.00e+00	0	44	102	1048576	9	3715
2026-01-06 13:33:19.09	356.61	16.81	-24.7	-25.3	16.3	0.00e+00	0	44	102	1048576	9	3855
2026-01-06 13:33:21.10	356.38	16.61	-24.5	-25.0	16.4	0.00e+00	0	44	102	1048576	9	3797
2026-01-06 13:33:23.12	356.15	16.42	-24.6	-25.1	16.3	0.00e+00	0	44	102	1048576	9	3828
2026-01-06 13:33:25.13	355.93	16.22	-24.7	-25.4	16.2	0.00e+00	0	44	102	1048576	9	3898
2026-01-06 13:33:27.13	355.71	16.03	-24.8	-25.7	16.0	0.00e+00	0	44	102	1048576	9	3954
2026-01-06 13:33:29.15	355.49	15.83	-24.9	-25.8	16.0	0.00e+00	0	44	102	1048576	9	3979
2026-01-06 13:33:31.15	355.28	15.64	-24.9	-25.9	15.9	0.00e+00	0	44	102	1048576	9	4006
2026-01-06 13:33:33.17	355.07	15.45	-25.0	-26.0	15.9	0.00e+00	0	44	102	1048576	9	4029
2026-01-06 13:33:35.19	354.86	15.26	-25.0	-25.9	15.9	0.00e+00	0	44	102	1048576	9	4015
2026-01-06 13:33:37.21	354.65	15.07	-25.2	-25.9	15.6	0.00e+00	0	44	102	1048576	10	3902
2026-01-06 13:33:39.22	354.45	14.88	-25.2	-25.9	15.6	0.00e+00	0	44	102	1048576	10	3917
2026-01-06 13:33:41.23	354.25	14.70	-25.3	-26.0	15.5	0.00e+00	0	44	102	1048576	10	3940
2026-01-06 13:33:43.25	354.05	14.51	-25.4	-26.3	15.4	0.00e+00	0	44	102	1048576	10	4000
2026-01-06 13:33:45.26	353.85	14.33	-25.5	-26.6	15.2	0.00e+00	0	44	102	1048576	10	4080
2026-01-06 13:33:47.28	353.66	14.14	-25.8	-26.7	14.8	0.00e+00	0	44	102	1048576	11	4013
2026-01-06 13:33:49.29	353.47	13.96	-25.8	-26.9	14.7	1.10e-06	0	44	102	1048576	11	4049
2026-01-06 13:33:51.31	353.28	13.78	-25.9	-26.9	14.7	0.00e+00	0	44	102	1048576	11	4062
2026-01-06 13:33:53.32	353.09	13.60	-25.9	-27.0	14.6	3.40e-06	0	44	102	1048576	11	4097
2026-01-06 13:33:55.33	352.91	13.42	-25.9	-26.9	14.7	0.00e+00	0	44	102	1048576	11	4064
2026-01-06 13:33:57.35	352.73	13.24	-25.6	-26.4	14.9	0.00e+00	0	44	102	1048576	11	3938
2026-01-06 13:33:59.35	352.55	13.06	-25.5	-26.1	15.1	0.00e+00	0	44	102	1048576	11	3866
2026-01-06 13:34:01.37	352.37	12.89	-25.4	-25.9	15.2	0.00e+00	0	44	102	1048576	11	3809
2026-01-06 13:34:03.38	352.20	12.71	-25.4	-25.9	15.2	0.00e+00	0	44	102	1048576	11	3816
2026-01-06 13:34:05.40	352.03	12.54	-25.6	-26.4	14.9	0.00e+00	0	44	102	1048576	11	3933
2026-01-06 13:34:07.41	351.86	12.36	-25.6	-26.4	14.9	0.00e+00	0	44	102	1048576	11	3935
2026-01-06 13:34:09.42	351.69	12.19	-25.7	-26.6	14.8	0.00e+00	0	44	102	1048576	11	3975
2026-01-06 13:34:11.44	351.52	12.02	-25.7	-26.5	14.9	2.20e-06	0	44	102	1048576	11	3950
2026-01-06 13:34:13.45	351.36	11.85	-25.5	-26.2	15.0	0.00e+00	0	44	102	1048576	11	3884
2026-01-06 13:34:15.47	351.19	11.68	-25.6	-26.4	14.9	0.00e+00	0	44	102	1048576	11	3937
2026-01-06 13:34:17.47	351.04	11.51	-25.7	-26.5	14.8	0.00e+00	0	44	102	1048576	11	3948
2026-01-06 13:34:19.48	350.88	11.34	-25.7	-26.6	14.8	0.00e+00	0	44	102	1048576	11	3972
2026-01-06 13:34:21.50	350.72	11.18	-25.7	-26.7	14.7	0.00e+00	0	44	102	1048576	11	4001
2026-01-06 13:34:23.51	350.57	11.01	-25.8	-26.7	14.7	0.00e+00	0	44	102	1048576	11	4018
2026-01-06 13:34:25.53	350.41	10.85	-25.8	-26.8	14.5	3.40e-06	0	44	102	1048576	11	4043
2026-01-06 13:34:27.54	350.26	10.68	-25.9	-27.1	14.4	2.20e-06	0	44	102	1048576	11	4101
2026-01-06 13:34:29.55	350.11	10.52	-26.0	-26.8	14.2	0.00e+00	0	44	102	1048576	12	3931
2026-01-06 13:34:31.56	349.97	10.36	-26.1	-27.0	14.1	2.20e-06	0	44	102	1048576	12	3975
2026-01-06 13:34:33.57	349.82	10.20	-26.2	-27.3	13.9	2.20e-06	0	44	102	1048576	12	4067
2026-01-06 13:34:35.59	349.68	10.04	-26.3	-27.4	13.8	6.80e-06	0	44	102	1048576	12	4096
2026-01-06 13:34:37.60	349.53	9.88	-26.4	-27.6	13.7	6.80e-06	0	44	102	1048576	12	4136
2026-01-06 13:34:39.62	349.39	9.72	-26.2	-27.1	14.0	3.40e-06	0	44	102	1048576	12	4022
2026-01-06 13:34:41.62	349.25	9.56	-26.2	-27.2	13.9	3.40e-06	0	44	102	1048576	12	4054
2026-01-06 13:34:43.62	349.12	9.40	-26.2	-27.3	13.8	1.02e-05	0	44	102	1048576	12	4078
2026-01-06 13:34:45.64	348.98	9.25	-26.3	-27.3	13.8	3.40e-06	0	44	102	1048576	12	4079
2026-01-06 13:34:47.65	348.85	9.09	-26.1	-27.1	13.9	3.40e-06	0	44	102	1048576	12	4016
2026-01-06 13:34:49.67	348.71	8.94	-26.3	-27.4	13.7	8.00e-06	0	44	102	1048576	12	4106
2026-01-06 13:34:51.69	348.58	8.78	-26.2	-27.3	13.8	6.80e-06	0	44	102	1048576	12	4064
2026-01-06 13:34:53.69	348.45	8.63	-26.1	-27.0	14.0	5.70e-06	0	44	102	1048576	12	3996
2026-01-06 13:34:55.70	348.32	8.48	-26.2	-27.2	13.8	6.80e-06	0	44	102	1048576	12	4042
2026-01-06 13:34:57.71	348.20	8.33	-26.2	-27.3	13.7	4.50e-06	0	44	102	1048576	12	4062
2026-01-06 13:34:59.72	348.07	8.17	-26.3	-27.4	13.7	6.80e-06	0	44	102	1048576	12	4101
2026-01-06 13:35:01.72	347.95	8.03	-26.3	-27.4	13.7	6.80e-06	0	44	102	1048576	12	4095
2026-01-06 13:35:03.73	347.82	7.88	-26.4	-27.6	13.5	1.25e-05	0	44	102	1048576	12	4160
2026-01-06 13:35:05.74	347.70	7.73	-26.4	-27.3	13.4	2.17e-05	0	44	102	1048576	13	3974
2026-01-06 13:35:07.76	347.58	7.58	-26.4	-27.3	13.4	1.02e-05	0	44	102	1048576	13	3975
2026-01-06 13:35:09.77	347.46	7.43	-26.5	-27.4	13.3	1.83e-05	0	44	102	1048576	13	4013
2026-01-06 13:35:11.78	347.34	7.29	-26.4	-27.2	13.4	1.48e-05	0	44	102	1048576	13	3949
2026-01-06 13:35:13.80	347.23	7.14	-26.4	-27.2	13.4	1.94e-05	0	44	102	1048576	13	3938
2026-01-06 13:35:15.81	347.11	7.00	-32.9	-42.3	3.8	8.46e-01	0	44	104	1048576	25	10635
2026-01-06 13:35:17.82	347.00	6.85	-33.4	-43.2	3.8	8.47e-01	0	44	104	1048576	26	11035

#Closed at: 2026-01-06 13:35:18
#Recorded file [1 MB]: D:/data/31010_260106_163008.dat