passes_logs/2026/01/06/R2M6_AANII_01/R2M6_AANII_01__20260106_124708_AQUA_rec.log

#Pass ID: 20260106_124708_AQUA
#Satellite: AQUA
#Configuration: AQUA
#almurnet v.1.7.20240730
#Start time: 2026-01-06 12:47:10

#Version: 2.2.20231116
#Station: R2M6_AANII_01
#Location: 30.233357 lon 59.946436 lat
#TLE: 1 27424U 02022A   26004.96787593  .00001598  00000+0  32997-3 0  9996
#TLE: 2 27424  98.4069 331.2279 0002002  90.2377   0.6092 14.61798176259425

#Time	Az	El	Level	Level2	SNR	BER	BlckErr	Temp	State	Recorded	gain1	gain2
2026-01-06 12:47:10.04	185.92	7.15	-30.8	-36.6	5.2	7.10e-01	0	41	0	0	22	7055
2026-01-06 12:47:13.06	186.09	7.39	-31.8	-39.0	12.1	6.13e-01	0	41	102	524288	24	8257
2026-01-06 12:47:16.07	186.27	7.63	-31.1	-35.9	14.7	6.05e-01	0	41	102	524288	24	6226
2026-01-06 12:47:19.07	186.45	7.87	-30.3	-34.2	16.6	6.06e-01	0	41	102	524288	22	5608
2026-01-06 12:47:22.09	186.63	8.11	-29.9	-32.9	17.6	6.09e-01	0	41	102	524288	22	5061
2026-01-06 12:47:25.11	186.82	8.36	-30.0	-33.2	17.4	6.06e-01	0	41	102	524288	22	5175
2026-01-06 12:47:28.13	187.01	8.61	-29.9	-33.3	17.7	6.07e-01	0	41	102	524288	21	5321
2026-01-06 12:47:31.15	187.20	8.86	-29.9	-33.1	17.8	6.07e-01	0	41	102	524288	21	5262
2026-01-06 12:47:34.16	187.40	9.12	-30.1	-33.9	17.3	6.05e-01	0	41	102	524288	21	5575
2026-01-06 12:47:37.19	187.60	9.38	-29.7	-32.8	18.1	6.07e-01	0	42	102	524288	21	5136
2026-01-06 12:47:40.21	187.80	9.64	-29.7	-32.7	18.2	6.06e-01	0	42	102	524288	21	5070
2026-01-06 12:47:43.23	188.01	9.90	-29.5	-32.3	18.4	6.08e-01	0	42	102	524288	21	4917
2026-01-06 12:47:46.25	188.22	10.17	-29.6	-32.5	18.3	6.08e-01	0	42	102	524288	21	4997
2026-01-06 12:47:49.28	188.44	10.44	-29.6	-32.5	18.3	6.06e-01	0	42	102	524288	21	5024
2026-01-06 12:47:52.30	188.66	10.72	-29.8	-32.9	18.1	6.06e-01	0	42	102	524288	21	5137
2026-01-06 12:47:55.33	188.88	10.99	-29.7	-32.7	18.2	6.07e-01	0	42	102	524288	21	5082
2026-01-06 12:47:58.35	189.11	11.27	-29.6	-32.5	18.4	6.07e-01	0	42	102	524288	21	4986
2026-01-06 12:48:01.36	189.34	11.55	-29.8	-32.8	18.2	6.06e-01	0	42	102	524288	21	5128
2026-01-06 12:48:04.38	189.58	11.84	-29.6	-32.2	18.6	6.07e-01	0	42	102	524288	21	4877
2026-01-06 12:48:07.40	189.82	12.13	-29.5	-32.0	18.7	6.07e-01	0	42	102	524288	21	4811
2026-01-06 12:48:10.42	190.07	12.42	-29.5	-32.2	18.6	6.07e-01	0	42	102	524288	21	4863
2026-01-06 12:48:13.43	190.32	12.72	-29.4	-32.2	19.0	6.08e-01	0	42	102	524288	20	4980
2026-01-06 12:48:16.45	190.58	13.01	-29.4	-32.4	18.9	6.08e-01	0	42	102	524288	20	5041
2026-01-06 12:48:19.47	190.84	13.32	-29.6	-32.8	18.6	6.06e-01	0	42	102	524288	20	5214
2026-01-06 12:48:22.48	191.11	13.62	-29.5	-32.6	18.7	6.06e-01	0	42	102	524288	20	5139
2026-01-06 12:48:25.50	191.38	13.93	-29.6	-32.6	18.7	6.05e-01	0	42	102	524288	20	5135
2026-01-06 12:48:28.52	191.66	14.25	-29.4	-32.2	19.1	6.07e-01	0	42	102	524288	20	4969
2026-01-06 12:48:31.55	191.95	14.57	-29.2	-31.7	19.4	6.05e-01	0	42	102	524288	20	4794
2026-01-06 12:48:34.57	192.25	14.89	-29.2	-31.8	19.4	6.05e-01	0	42	102	524288	20	4827
2026-01-06 12:48:37.59	192.55	15.22	-29.3	-31.9	19.3	6.06e-01	0	42	102	524288	20	4868
2026-01-06 12:48:40.61	192.85	15.55	-29.3	-31.9	19.3	6.07e-01	0	43	102	524288	20	4861
2026-01-06 12:48:43.62	193.17	15.88	-29.1	-31.4	19.7	6.06e-01	0	43	102	524288	20	4668
2026-01-06 12:48:46.65	193.49	16.22	-29.1	-31.5	19.6	6.05e-01	0	42	102	524288	20	4713
2026-01-06 12:48:49.67	193.82	16.57	-29.2	-31.7	19.5	6.08e-01	0	43	102	524288	20	4773
2026-01-06 12:48:52.69	194.15	16.92	-29.2	-31.7	19.5	6.07e-01	0	43	102	524288	20	4778
2026-01-06 12:48:55.71	194.50	17.27	-29.0	-31.1	19.9	6.08e-01	0	43	102	524288	20	4588
2026-01-06 12:48:58.73	194.85	17.63	-29.0	-31.2	19.9	6.07e-01	0	43	102	524288	20	4595
2026-01-06 12:49:01.75	195.21	17.99	-29.1	-31.4	19.7	6.08e-01	0	43	102	524288	20	4666
2026-01-06 12:49:04.78	195.59	18.36	-29.1	-31.3	19.8	6.09e-01	0	43	102	524288	20	4621
2026-01-06 12:49:07.80	195.97	18.73	-29.2	-31.5	19.7	6.04e-01	0	43	102	524288	20	4698
2026-01-06 12:49:10.81	196.35	19.11	-29.1	-31.4	19.8	6.06e-01	0	43	102	524288	20	4659
2026-01-06 12:49:13.83	196.75	19.49	-29.2	-31.5	19.7	6.06e-01	0	43	102	524288	20	4701
2026-01-06 12:49:16.86	197.17	19.88	-29.2	-31.6	19.7	6.07e-01	0	43	102	524288	20	4741
2026-01-06 12:49:19.87	197.59	20.28	-29.1	-31.3	19.9	6.07e-01	0	43	102	524288	20	4642
2026-01-06 12:49:22.88	198.02	20.67	-29.2	-31.6	19.8	6.08e-01	0	43	102	524288	20	4725
2026-01-06 12:49:25.90	198.46	21.08	-29.4	-31.9	19.6	6.08e-01	0	43	102	524288	20	4829
2026-01-06 12:49:28.91	198.92	21.49	-29.4	-31.9	19.6	6.04e-01	0	43	102	524288	20	4833
2026-01-06 12:49:31.93	199.39	21.90	-29.6	-32.6	19.2	6.05e-01	0	43	102	524288	20	5062
2026-01-06 12:49:34.95	199.87	22.32	-29.2	-31.6	19.8	6.06e-01	0	43	102	524288	20	4737
2026-01-06 12:49:37.97	200.36	22.75	-29.4	-32.0	19.6	6.06e-01	0	43	102	524288	20	4860
2026-01-06 12:49:40.99	200.87	23.18	-29.3	-31.8	19.7	6.04e-01	0	43	102	524288	20	4810
2026-01-06 12:49:44.01	201.40	23.62	-29.4	-32.1	19.6	6.06e-01	0	43	102	524288	20	4881
2026-01-06 12:49:47.02	201.94	24.06	-29.4	-32.0	19.6	6.06e-01	0	43	102	524288	20	4855
2026-01-06 12:49:50.03	202.49	24.51	-29.3	-31.8	19.7	6.06e-01	0	43	102	524288	20	4815
2026-01-06 12:49:53.05	203.06	24.97	-29.3	-31.7	19.7	6.07e-01	0	43	102	524288	20	4762
2026-01-06 12:49:56.07	203.65	25.43	-29.2	-31.6	19.8	6.04e-01	0	43	102	524288	20	4744
2026-01-06 12:49:59.08	204.26	25.89	-29.1	-31.3	20.0	6.07e-01	0	43	102	524288	20	4629
2026-01-06 12:50:02.10	204.88	26.37	-29.1	-31.3	20.1	6.06e-01	0	43	102	524288	20	4613
2026-01-06 12:50:05.13	205.53	26.85	-29.2	-31.5	19.9	6.09e-01	0	43	102	524288	20	4697
2026-01-06 12:50:08.15	206.20	27.33	-29.4	-32.0	19.6	6.08e-01	0	43	102	524288	20	4876
2026-01-06 12:50:11.17	206.88	27.82	-29.1	-31.3	20.1	6.06e-01	0	43	102	524288	20	4627
2026-01-06 12:50:14.18	207.59	28.31	-29.3	-31.7	19.9	6.06e-01	0	43	102	524288	20	4738
2026-01-06 12:50:17.20	208.32	28.81	-29.5	-32.2	19.6	6.04e-01	0	43	102	524288	20	4917
2026-01-06 12:50:20.22	209.07	29.31	-29.4	-31.9	19.8	6.08e-01	0	43	102	524288	20	4813
2026-01-06 12:50:23.24	209.85	29.82	-29.1	-31.2	20.2	6.08e-01	0	43	102	524288	20	4597
2026-01-06 12:50:26.26	210.65	30.33	-29.3	-31.6	20.0	6.06e-01	0	43	102	524288	20	4703
2026-01-06 12:50:29.28	211.48	30.84	-29.2	-31.5	20.1	6.05e-01	0	43	102	524288	20	4671
2026-01-06 12:50:32.30	212.34	31.36	-29.3	-31.6	20.0	6.04e-01	0	43	102	524288	20	4712
2026-01-06 12:50:35.31	213.22	31.88	-29.3	-31.6	20.0	6.07e-01	0	43	102	524288	20	4711
2026-01-06 12:50:38.34	214.14	32.41	-29.4	-31.9	19.9	6.05e-01	0	43	102	524288	20	4793
2026-01-06 12:50:41.35	215.08	32.93	-29.4	-32.0	19.8	6.04e-01	0	43	102	524288	20	4832
2026-01-06 12:50:44.37	216.06	33.46	-29.3	-31.7	20.0	6.05e-01	0	43	102	524288	20	4732
2026-01-06 12:50:47.39	217.06	33.98	-29.5	-32.1	19.8	6.03e-01	0	43	102	524288	20	4852
2026-01-06 12:50:50.41	218.11	34.51	-29.6	-32.3	19.6	6.08e-01	0	43	102	524288	20	4951
2026-01-06 12:50:53.43	219.18	35.04	-29.6	-32.4	19.6	6.04e-01	0	43	102	524288	20	4958
2026-01-06 12:50:56.45	220.30	35.56	-29.6	-32.4	19.6	6.06e-01	0	43	102	524288	20	4979
2026-01-06 12:50:59.46	221.44	36.08	-29.8	-33.0	19.3	6.06e-01	0	43	102	524288	20	5173
2026-01-06 12:51:02.47	222.62	36.59	-29.7	-32.7	19.5	6.04e-01	0	43	102	524288	20	5068
2026-01-06 12:51:05.50	223.85	37.11	-29.9	-33.1	19.2	6.07e-01	0	43	102	524288	20	5222
2026-01-06 12:51:08.52	225.11	37.61	-29.7	-32.5	19.6	6.07e-01	0	43	102	524288	20	5012
2026-01-06 12:51:11.53	226.41	38.11	-30.0	-33.5	19.0	6.06e-01	0	43	102	524288	20	5353
2026-01-06 12:51:14.55	227.76	38.60	-29.6	-32.4	19.6	6.06e-01	0	43	102	524288	20	4971
2026-01-06 12:51:17.56	229.14	39.08	-29.5	-32.0	19.9	6.08e-01	0	43	102	524288	20	4838
2026-01-06 12:51:20.58	230.56	39.54	-29.5	-32.0	19.9	6.08e-01	0	43	102	524288	20	4841
2026-01-06 12:51:23.60	232.03	40.00	-29.3	-31.7	20.1	6.08e-01	0	43	102	524288	20	4726
2026-01-06 12:51:26.62	233.53	40.43	-29.5	-32.0	20.0	6.09e-01	0	43	102	524288	20	4810
2026-01-06 12:51:29.63	235.08	40.85	-29.2	-31.4	20.3	6.07e-01	0	43	102	524288	20	4609
2026-01-06 12:51:32.65	236.67	41.26	-29.2	-31.2	20.4	6.06e-01	0	43	102	524288	20	4569
2026-01-06 12:51:35.67	238.29	41.64	-29.2	-31.7	20.5	6.06e-01	0	43	102	524288	19	4816
2026-01-06 12:51:38.69	239.96	42.00	-29.2	-31.8	20.4	6.07e-01	0	43	102	524288	19	4851
2026-01-06 12:51:41.71	241.66	42.34	-29.2	-31.8	20.4	6.07e-01	0	43	102	524288	19	4855
2026-01-06 12:51:44.72	243.39	42.65	-29.0	-31.4	20.7	6.06e-01	0	43	102	524288	19	4696
2026-01-06 12:51:47.73	245.16	42.94	-29.2	-31.7	20.6	6.06e-01	0	43	102	524288	19	4799
2026-01-06 12:51:50.75	246.96	43.20	-29.1	-31.5	20.7	6.06e-01	0	43	102	524288	19	4737
2026-01-06 12:51:53.77	248.78	43.43	-29.2	-31.8	20.5	6.08e-01	0	43	102	524288	19	4835
2026-01-06 12:51:56.79	250.64	43.62	-29.3	-32.0	20.4	6.07e-01	0	43	102	524288	19	4919
2026-01-06 12:51:59.81	252.51	43.79	-29.1	-31.6	20.6	6.05e-01	0	43	102	524288	19	4765
2026-01-06 12:52:02.83	254.40	43.93	-29.2	-31.7	20.5	6.06e-01	0	43	102	524288	19	4823
2026-01-06 12:52:05.85	256.31	44.03	-29.2	-31.7	20.5	6.05e-01	0	43	102	524288	19	4816
2026-01-06 12:52:08.88	258.23	44.09	-29.3	-32.1	20.3	6.07e-01	0	43	102	524288	19	4947
2026-01-06 12:52:11.89	260.14	44.12	-29.4	-32.3	20.2	6.07e-01	0	43	102	524288	19	5003
2026-01-06 12:52:14.90	262.06	44.12	-29.3	-31.6	20.3	6.07e-01	0	43	102	524288	20	4674
2026-01-06 12:52:17.92	263.98	44.08	-29.3	-31.6	20.3	6.06e-01	0	43	102	524288	20	4655
2026-01-06 12:52:20.93	265.89	44.01	-29.3	-31.6	20.3	6.07e-01	0	43	102	524288	20	4677
2026-01-06 12:52:23.95	267.79	43.91	-29.4	-31.7	20.3	6.06e-01	0	43	102	524288	20	4715
2026-01-06 12:52:26.97	269.67	43.77	-29.3	-31.6	20.3	6.05e-01	0	43	102	524288	20	4665
2026-01-06 12:52:29.99	271.54	43.60	-29.6	-32.3	19.9	6.07e-01	0	43	102	524288	20	4892
2026-01-06 12:52:33.01	273.39	43.39	-29.7	-32.5	19.8	6.07e-01	0	43	102	524288	20	4976
2026-01-06 12:52:36.03	275.21	43.16	-29.5	-32.1	20.0	6.05e-01	0	43	102	524288	20	4828
2026-01-06 12:52:39.06	277.01	42.90	-29.8	-32.9	19.6	6.06e-01	0	43	102	524288	20	5124
2026-01-06 12:52:42.08	278.77	42.61	-29.9	-32.9	19.5	6.08e-01	0	43	102	524288	20	5123
2026-01-06 12:52:45.10	280.50	42.29	-30.0	-33.2	19.4	6.04e-01	0	43	102	524288	20	5243
2026-01-06 12:52:48.12	282.19	41.95	-29.8	-32.8	19.6	6.07e-01	0	43	102	524288	20	5092
2026-01-06 12:52:51.14	283.85	41.59	-30.0	-33.4	19.2	6.07e-01	0	43	102	524288	20	5285
2026-01-06 12:52:54.14	285.46	41.20	-29.8	-32.7	19.7	6.06e-01	0	43	102	524288	20	5024
2026-01-06 12:52:57.17	287.04	40.80	-29.8	-32.8	19.6	6.07e-01	0	43	102	524288	20	5092
2026-01-06 12:53:00.20	288.58	40.37	-30.3	-33.4	18.9	6.06e-01	0	43	102	524288	21	5196
2026-01-06 12:53:03.22	290.08	39.93	-30.2	-33.3	19.0	6.06e-01	0	43	102	524288	21	5143
2026-01-06 12:53:06.24	291.54	39.48	-30.4	-33.9	18.6	6.07e-01	0	43	102	524288	21	5362
2026-01-06 12:53:09.26	292.95	39.01	-30.0	-32.8	19.3	6.07e-01	0	43	102	524288	21	4963
2026-01-06 12:53:12.28	294.32	38.54	-29.7	-32.1	19.8	6.06e-01	0	43	102	524288	21	4720
2026-01-06 12:53:15.29	295.65	38.05	-30.0	-32.8	19.3	6.08e-01	0	43	102	524288	21	4949
2026-01-06 12:53:18.31	296.95	37.55	-29.7	-32.1	19.8	6.08e-01	0	43	102	524288	21	4721
2026-01-06 12:53:21.33	298.20	37.05	-29.9	-32.6	19.4	6.05e-01	0	43	102	524288	21	4895
2026-01-06 12:53:24.36	299.42	36.54	-29.4	-31.4	20.1	6.07e-01	0	43	102	524288	21	4495
2026-01-06 12:53:27.37	300.59	36.03	-29.4	-31.2	20.1	6.07e-01	0	43	102	524288	21	4447
2026-01-06 12:53:30.38	301.73	35.51	-29.4	-31.8	20.1	6.07e-01	0	43	102	524288	20	4740
2026-01-06 12:53:33.40	302.83	34.99	-29.1	-31.0	20.6	6.05e-01	0	43	102	524288	20	4496
2026-01-06 12:53:36.42	303.90	34.46	-29.1	-31.0	20.5	6.08e-01	0	43	102	524288	20	4497
2026-01-06 12:53:39.45	304.94	33.94	-28.9	-31.0	21.0	6.05e-01	0	43	102	524288	19	4584
2026-01-06 12:53:42.47	305.94	33.41	-29.0	-31.2	20.8	6.07e-01	0	43	102	524288	19	4662
2026-01-06 12:53:45.49	306.90	32.89	-28.8	-30.9	21.0	6.06e-01	0	43	102	524288	19	4561
2026-01-06 12:53:48.51	307.84	32.37	-28.9	-31.1	20.8	6.08e-01	0	43	102	524288	19	4632
2026-01-06 12:53:51.53	308.75	31.85	-28.9	-30.9	20.9	6.06e-01	0	43	102	524288	19	4573
2026-01-06 12:53:54.56	309.63	31.33	-28.8	-30.9	21.0	6.07e-01	0	43	102	524288	19	4546
2026-01-06 12:53:57.57	310.48	30.82	-29.1	-31.5	20.6	6.07e-01	0	43	102	524288	19	4769
2026-01-06 12:54:00.58	311.30	30.31	-29.0	-31.2	20.8	6.05e-01	0	43	102	524288	19	4647
2026-01-06 12:54:03.60	312.09	29.80	-29.1	-31.5	20.6	6.08e-01	0	43	102	524288	19	4747
2026-01-06 12:54:06.62	312.87	29.30	-29.1	-31.7	20.4	6.06e-01	0	43	102	524288	19	4813
2026-01-06 12:54:09.62	313.61	28.80	-29.2	-31.8	20.4	6.06e-01	0	43	102	524288	19	4866
2026-01-06 12:54:12.64	314.33	28.30	-29.3	-31.9	20.3	6.04e-01	0	43	102	524288	19	4897
2026-01-06 12:54:15.65	315.04	27.82	-29.3	-32.0	20.2	6.04e-01	0	43	102	524288	19	4933
2026-01-06 12:54:18.67	315.72	27.33	-29.5	-32.5	20.0	6.05e-01	0	43	102	524288	19	5099
2026-01-06 12:54:21.70	316.38	26.85	-29.8	-32.8	19.4	6.02e-01	0	43	102	524288	20	5106
2026-01-06 12:54:24.72	317.02	26.38	-29.2	-31.3	20.3	6.03e-01	0	43	102	524288	20	4581
2026-01-06 12:54:27.73	317.64	25.91	-29.2	-31.3	20.2	6.04e-01	0	43	102	524288	20	4607
2026-01-06 12:54:30.74	318.24	25.45	-29.5	-32.1	19.7	6.03e-01	0	43	102	524288	20	4865
2026-01-06 12:54:33.76	318.83	24.99	-29.6	-32.3	19.6	6.01e-01	0	43	102	524288	20	4929
2026-01-06 12:54:36.79	319.40	24.54	-29.4	-31.9	19.8	6.02e-01	0	43	102	524288	20	4799
2026-01-06 12:54:39.81	319.95	24.09	-29.6	-32.3	19.6	6.04e-01	0	43	102	524288	20	4950
2026-01-06 12:54:42.83	320.49	23.65	-29.4	-31.8	19.8	6.03e-01	0	43	102	524288	20	4775
2026-01-06 12:54:45.85	321.01	23.22	-29.4	-31.8	19.9	6.03e-01	0	43	102	524288	20	4753
2026-01-06 12:54:48.87	321.52	22.79	-29.4	-31.9	19.8	6.05e-01	0	43	102	524288	20	4807
2026-01-06 12:54:51.90	322.01	22.36	-29.5	-32.2	19.6	6.04e-01	0	43	102	524288	20	4916
2026-01-06 12:54:54.92	322.49	21.94	-29.6	-32.4	19.5	6.03e-01	0	43	102	524288	20	4978
2026-01-06 12:54:57.94	322.96	21.53	-29.4	-31.9	19.7	6.04e-01	0	43	102	524288	20	4813
2026-01-06 12:55:00.96	323.41	21.12	-29.3	-31.7	19.9	6.03e-01	0	43	102	524288	20	4752
2026-01-06 12:55:03.98	323.86	20.72	-29.3	-31.8	19.8	6.03e-01	0	43	102	524288	20	4762
2026-01-06 12:55:06.98	324.29	20.33	-29.4	-32.0	19.6	6.04e-01	0	43	102	524288	20	4847
2026-01-06 12:55:10.01	324.71	19.94	-29.4	-32.0	19.7	6.04e-01	0	43	102	524288	20	4834
2026-01-06 12:55:13.03	325.12	19.55	-29.3	-31.8	19.8	6.02e-01	0	43	102	524288	20	4766
2026-01-06 12:55:16.05	325.52	19.17	-29.2	-31.5	20.0	6.01e-01	0	43	102	524288	20	4667
2026-01-06 12:55:19.07	325.90	18.80	-29.2	-31.4	20.0	6.01e-01	0	43	102	524288	20	4652
2026-01-06 12:55:22.09	326.28	18.43	-29.4	-32.0	19.6	6.04e-01	0	43	102	524288	20	4847
2026-01-06 12:55:25.12	326.66	18.06	-29.5	-32.3	19.4	6.05e-01	0	43	102	524288	20	4941
2026-01-06 12:55:28.14	327.02	17.70	-29.4	-32.0	19.5	6.03e-01	0	43	102	524288	20	4852
2026-01-06 12:55:31.15	327.37	17.35	-29.3	-31.7	19.7	6.02e-01	0	43	102	524288	20	4751
2026-01-06 12:55:34.17	327.71	17.00	-29.2	-31.4	19.9	6.01e-01	0	43	102	524288	20	4646
2026-01-06 12:55:37.19	328.05	16.65	-29.2	-31.3	19.9	6.03e-01	0	43	102	524288	20	4635
2026-01-06 12:55:40.21	328.38	16.31	-29.2	-31.4	19.9	6.02e-01	0	43	102	524288	20	4652
2026-01-06 12:55:43.22	328.70	15.97	-29.3	-31.7	19.7	6.04e-01	0	43	102	524288	20	4768
2026-01-06 12:55:46.25	329.01	15.64	-29.4	-32.0	19.5	6.04e-01	0	43	102	524288	20	4843
2026-01-06 12:55:49.26	329.32	15.31	-29.5	-32.4	19.2	6.01e-01	0	43	102	524288	20	4993
2026-01-06 12:55:52.28	329.62	14.99	-29.3	-31.7	19.6	6.02e-01	0	43	102	524288	20	4765
2026-01-06 12:55:55.30	329.91	14.67	-29.6	-32.5	19.1	6.01e-01	0	43	102	524288	20	5038
2026-01-06 12:55:58.33	330.20	14.35	-29.4	-32.0	19.4	6.04e-01	0	43	102	524288	20	4886
2026-01-06 12:56:01.35	330.48	14.04	-29.3	-31.9	19.4	6.02e-01	0	43	102	524288	20	4841
2026-01-06 12:56:04.37	330.76	13.73	-29.5	-32.2	19.2	6.05e-01	0	43	102	524288	20	4961
2026-01-06 12:56:07.39	331.03	13.42	-29.3	-32.0	19.3	6.02e-01	0	43	102	524288	20	4860
2026-01-06 12:56:10.40	331.29	13.12	-29.3	-31.9	19.4	6.01e-01	0	43	102	524288	20	4836
2026-01-06 12:56:13.42	331.55	12.83	-29.4	-32.0	19.3	6.03e-01	0	43	102	524288	20	4887
2026-01-06 12:56:16.44	331.80	12.53	-29.4	-32.2	19.2	6.02e-01	0	43	102	524288	20	4946
2026-01-06 12:56:19.46	332.05	12.24	-29.4	-32.1	19.2	6.03e-01	0	43	102	524288	20	4927
2026-01-06 12:56:22.48	332.29	11.95	-29.4	-32.1	19.2	6.02e-01	0	43	102	524288	20	4920
2026-01-06 12:56:25.50	332.53	11.67	-29.5	-32.3	19.0	6.04e-01	0	43	102	524288	20	5009
2026-01-06 12:56:28.52	332.76	11.39	-29.5	-32.5	18.9	6.05e-01	0	43	102	524288	20	5075
2026-01-06 12:56:31.55	332.99	11.11	-29.6	-32.7	18.8	6.02e-01	0	43	102	524288	20	5134
2026-01-06 12:56:34.57	333.22	10.84	-29.7	-32.9	18.6	6.06e-01	0	43	102	524288	20	5238
2026-01-06 12:56:37.59	333.44	10.57	-29.8	-33.3	18.4	6.04e-01	0	43	102	524288	20	5372
2026-01-06 12:56:40.61	333.66	10.30	-29.7	-32.9	18.6	6.02e-01	0	43	102	524288	20	5240
2026-01-06 12:56:43.64	333.87	10.03	-29.8	-33.3	18.3	6.03e-01	0	43	102	524288	20	5364
2026-01-06 12:56:46.66	334.08	9.77	-29.9	-33.6	18.1	6.01e-01	0	43	102	524288	20	5517
2026-01-06 12:56:49.68	334.28	9.51	-29.9	-33.5	18.2	6.02e-01	0	43	102	524288	20	5456
2026-01-06 12:56:52.70	334.49	9.25	-29.9	-33.6	18.1	6.01e-01	0	43	102	524288	20	5503
2026-01-06 12:56:55.72	334.68	9.00	-29.9	-33.6	18.1	6.02e-01	0	43	102	524288	20	5507
2026-01-06 12:56:58.74	334.88	8.75	-29.9	-33.5	18.1	6.03e-01	0	43	102	524288	20	5494
2026-01-06 12:57:01.77	335.07	8.50	-30.0	-33.9	17.8	6.04e-01	0	43	102	524288	20	5636
2026-01-06 12:57:04.79	335.26	8.25	-29.9	-33.7	17.9	6.04e-01	0	43	102	524288	20	5578
2026-01-06 12:57:07.81	335.44	8.01	-30.1	-33.7	17.5	6.00e-01	0	43	102	524288	21	5485
2026-01-06 12:57:10.82	335.62	7.76	-30.2	-34.1	17.2	6.02e-01	0	43	102	524288	21	5634
2026-01-06 12:57:13.84	335.80	7.52	-30.2	-34.1	17.2	6.04e-01	0	43	102	524288	21	5647
2026-01-06 12:57:16.86	335.98	7.29	-30.1	-33.9	17.3	6.02e-01	0	43	102	524288	21	5552
2026-01-06 12:57:19.88	336.15	7.05	-33.2	-49.5	4.0	7.40e-01	0	43	104	524288	27	23487
2026-01-06 12:57:22.89	336.32	6.82	-33.9	-53.2	3.8	7.45e-01	0	43	104	524288	28	33391

#Closed at: 2026-01-06 12:57:23
#Recorded file [0 MB]: D:/data/31010_260106_154711.dat