passes_logs/2026/01/06/R2M6_AANII_01/R2M6_AANII_01__20260106_105716_NOAA_20_JPSS-1_rec.log

#Pass ID: 20260106_105716_NOAA 20 (JPSS-1)
#Satellite: NOAA 20 (JPSS-1)
#Configuration: NOAA 20
#almurnet v.1.7.20240730
#Start time: 2026-01-06 10:57:16

#Version: 2.2.20231116
#Station: R2M6_AANII_01
#Location: 30.233357 lon 59.946436 lat
#TLE: 1 43013U 17073A   26005.46207808  .00000128  00000+0  81791-4 0  9997
#TLE: 2 43013  98.7627 306.5027 0001826  53.0458 307.0885 14.19533487421381

#Time	Az	El	Level	Level2	SNR	BER	BlckErr	Temp	State	Recorded	gain1	gain2
2026-01-06 10:57:16.79	180.16	7.00	-30.6	-35.3	5.4	1.19e+00	0	41	0	0	21	6194
2026-01-06 10:57:19.81	180.28	7.23	-31.3	-36.8	8.3	4.31e-02	0	41	0	1048576	23	6799
2026-01-06 10:57:22.82	180.40	7.46	-30.8	-35.2	10.0	1.30e-02	0	41	0	7340032	22	6020
2026-01-06 10:57:25.83	180.53	7.69	-30.2	-33.7	11.5	1.17e-03	0	41	0	12582912	21	5421
2026-01-06 10:57:28.84	180.66	7.92	-30.3	-34.1	11.3	9.83e-04	0	41	0	18874368	21	5559
2026-01-06 10:57:31.85	180.79	8.16	-30.3	-33.9	11.4	9.24e-04	0	41	0	24117248	21	5492
2026-01-06 10:57:34.87	180.92	8.39	-30.5	-34.6	11.0	1.47e-03	0	41	0	29360128	21	5767
2026-01-06 10:57:37.88	181.05	8.63	-30.0	-33.2	12.1	3.07e-04	0	41	0	35651584	21	5161
2026-01-06 10:57:40.90	181.19	8.88	-30.0	-33.0	12.2	2.30e-04	0	41	0	40894464	21	5104
2026-01-06 10:57:43.92	181.33	9.12	-30.0	-33.1	12.2	2.79e-04	0	42	102	46137344	21	5124
2026-01-06 10:57:46.94	181.47	9.37	-29.9	-32.6	12.5	1.08e-04	0	42	102	46137344	21	4943
2026-01-06 10:57:49.96	181.61	9.62	-29.9	-32.8	12.4	1.28e-04	0	42	102	46137344	21	5007
2026-01-06 10:57:52.98	181.76	9.87	-29.9	-32.8	12.5	1.44e-04	0	42	102	46137344	21	4994
2026-01-06 10:57:55.99	181.90	10.12	-30.0	-32.9	12.4	1.25e-04	0	42	102	46137344	21	5025
2026-01-06 10:57:59.00	182.05	10.38	-30.0	-33.0	12.4	1.19e-04	0	42	102	46137344	21	5073
2026-01-06 10:58:02.01	182.20	10.63	-30.0	-32.9	12.3	1.51e-04	0	42	102	46137344	21	5052
2026-01-06 10:58:05.03	182.36	10.90	-30.0	-32.8	12.5	1.40e-04	0	42	102	46137344	21	5001
2026-01-06 10:58:08.04	182.52	11.16	-30.0	-32.9	12.4	1.74e-04	0	42	102	46137344	21	5051
2026-01-06 10:58:11.03	182.67	11.42	-30.0	-32.9	12.5	1.14e-04	0	42	102	46137344	21	5009
2026-01-06 10:58:14.06	182.84	11.70	-29.9	-32.6	12.7	8.16e-05	0	42	102	46137344	21	4924
2026-01-06 10:58:17.08	183.00	11.97	-29.9	-32.6	12.8	8.23e-05	0	42	102	46137344	21	4899
2026-01-06 10:58:20.11	183.17	12.24	-29.9	-32.7	12.7	6.94e-05	0	42	102	46137344	21	4933
2026-01-06 10:58:23.13	183.34	12.52	-30.0	-32.8	12.7	6.40e-05	0	42	102	46137344	21	4965
2026-01-06 10:58:26.16	183.52	12.80	-29.8	-32.2	13.0	3.89e-05	0	42	102	46137344	21	4763
2026-01-06 10:58:29.18	183.70	13.09	-29.8	-32.7	13.1	3.73e-05	0	42	102	46137344	20	5042
2026-01-06 10:58:32.20	183.88	13.38	-29.8	-32.7	13.1	4.11e-05	0	42	102	46137344	20	5050
2026-01-06 10:58:35.22	184.06	13.67	-29.9	-33.0	12.9	3.12e-05	0	42	102	46137344	20	5143
2026-01-06 10:58:38.24	184.25	13.96	-29.9	-33.1	12.9	4.73e-05	0	43	102	46137344	20	5198
2026-01-06 10:58:41.27	184.45	14.26	-29.7	-32.5	13.3	1.98e-05	0	42	102	46137344	20	4961
2026-01-06 10:58:44.29	184.64	14.56	-29.8	-32.7	13.2	3.20e-05	0	43	102	46137344	20	5037
2026-01-06 10:58:47.31	184.84	14.87	-29.6	-32.2	13.6	9.10e-06	0	43	102	46137344	20	4834
2026-01-06 10:58:50.33	185.04	15.17	-29.7	-32.4	13.4	1.52e-05	0	43	102	46137344	20	4918
2026-01-06 10:58:53.34	185.25	15.48	-29.5	-31.8	13.8	4.50e-06	0	43	102	46137344	20	4712
2026-01-06 10:58:56.37	185.46	15.80	-29.4	-31.7	13.9	6.10e-06	0	43	102	46137344	20	4649
2026-01-06 10:58:59.38	185.68	16.12	-29.3	-31.4	14.1	3.80e-06	0	43	102	46137344	20	4568
2026-01-06 10:59:02.40	185.90	16.44	-29.3	-31.3	14.2	7.00e-07	0	43	102	46137344	20	4524
2026-01-06 10:59:05.42	186.12	16.77	-29.3	-31.8	14.3	4.50e-06	0	43	102	46137344	19	4780
2026-01-06 10:59:08.44	186.35	17.10	-29.4	-32.0	14.2	9.10e-06	0	43	102	46137344	19	4849
2026-01-06 10:59:11.46	186.59	17.43	-29.3	-31.8	14.4	7.60e-06	0	43	102	46137344	19	4777
2026-01-06 10:59:14.48	186.82	17.77	-29.3	-31.6	14.5	6.80e-06	0	43	102	46137344	19	4719
2026-01-06 10:59:17.50	187.07	18.12	-29.2	-31.3	14.6	7.00e-07	0	43	102	46137344	19	4630
2026-01-06 10:59:20.51	187.32	18.46	-29.1	-31.2	14.8	0.00e+00	0	43	102	46137344	19	4593
2026-01-06 10:59:23.52	187.57	18.81	-29.1	-31.1	14.8	0.00e+00	0	43	102	46137344	19	4555
2026-01-06 10:59:26.54	187.83	19.17	-28.9	-30.7	15.1	0.00e+00	0	43	102	46137344	19	4426
2026-01-06 10:59:29.56	188.10	19.53	-29.1	-31.1	14.9	0.00e+00	0	43	102	46137344	19	4534
2026-01-06 10:59:32.58	188.37	19.90	-28.8	-30.4	15.3	0.00e+00	0	43	102	46137344	19	4345
2026-01-06 10:59:35.59	188.65	20.27	-28.7	-30.7	15.4	0.00e+00	0	43	102	46137344	18	4521
2026-01-06 10:59:38.61	188.94	20.64	-28.7	-30.7	15.4	0.00e+00	0	43	102	46137344	18	4541
2026-01-06 10:59:41.63	189.23	21.02	-28.6	-30.5	15.6	0.00e+00	0	43	102	46137344	18	4462
2026-01-06 10:59:44.66	189.53	21.41	-28.7	-30.7	15.5	0.00e+00	0	43	102	46137344	18	4528
2026-01-06 10:59:47.68	189.84	21.80	-28.4	-30.0	15.9	0.00e+00	0	43	102	46137344	18	4319
2026-01-06 10:59:50.69	190.15	22.20	-28.4	-29.9	16.0	0.00e+00	0	43	102	46137344	18	4278
2026-01-06 10:59:53.71	190.48	22.60	-28.4	-29.8	16.0	0.00e+00	0	43	102	46137344	18	4258
2026-01-06 10:59:56.73	190.81	23.01	-28.3	-30.3	16.1	0.00e+00	0	43	102	46137344	17	4497
2026-01-06 10:59:59.75	191.15	23.42	-28.3	-30.2	16.1	0.00e+00	0	43	102	46137344	17	4478
2026-01-06 11:00:02.75	191.49	23.83	-28.5	-30.7	15.8	0.00e+00	0	43	102	46137344	17	4636
2026-01-06 11:00:05.77	191.85	24.26	-28.7	-31.1	15.6	0.00e+00	0	43	102	46137344	17	4750
2026-01-06 11:00:08.79	192.22	24.69	-28.9	-31.5	15.4	0.00e+00	0	43	102	46137344	17	4894
2026-01-06 11:00:11.81	192.60	25.12	-28.9	-31.5	15.4	0.00e+00	0	43	102	46137344	17	4895
2026-01-06 11:00:14.84	192.98	25.57	-29.0	-31.8	15.3	0.00e+00	0	43	102	46137344	17	4969
2026-01-06 11:00:17.85	193.38	26.01	-29.1	-31.5	15.1	0.00e+00	0	43	102	46137344	18	4774
2026-01-06 11:00:20.86	193.79	26.47	-29.3	-32.1	14.8	7.00e-07	0	43	102	46137344	18	4984
2026-01-06 11:00:23.88	194.21	26.93	-29.8	-32.8	14.1	1.50e-06	0	43	102	46137344	19	5087
2026-01-06 11:00:26.89	194.64	27.39	-29.9	-33.1	13.9	3.80e-06	0	43	102	46137344	19	5216
2026-01-06 11:00:29.91	195.08	27.87	-30.0	-32.8	13.7	5.30e-06	0	43	102	46137344	20	5003
2026-01-06 11:00:32.93	195.54	28.35	-30.1	-33.3	13.4	1.06e-05	0	43	102	46137344	20	5185
2026-01-06 11:00:35.95	196.01	28.83	-30.3	-33.6	13.2	3.43e-05	0	43	102	46137344	20	5303
2026-01-06 11:00:38.96	196.50	29.32	-30.6	-34.0	12.6	1.24e-04	0	43	102	46137344	21	5353
2026-01-06 11:00:41.99	197.00	29.82	-31.2	-35.3	11.4	6.89e-04	0	43	102	46137344	22	5805
2026-01-06 11:00:45.02	197.52	30.33	-31.5	-35.8	10.6	2.79e-03	0	43	102	46137344	23	5929
2026-01-06 11:00:48.04	198.05	30.84	-31.7	-36.6	10.0	4.97e-03	0	43	102	46137344	23	6334
2026-01-06 11:00:51.06	198.60	31.36	-31.0	-34.4	11.7	7.09e-04	0	43	102	46137344	23	5272
2026-01-06 11:00:54.08	199.17	31.88	-30.9	-34.0	12.0	3.36e-04	0	43	102	46137344	23	5136
2026-01-06 11:00:57.10	199.75	32.41	-30.8	-34.0	12.4	1.94e-04	0	43	102	46137344	22	5220
2026-01-06 11:01:00.11	200.35	32.95	-30.4	-32.9	13.1	2.21e-05	0	43	102	46137344	22	4813
2026-01-06 11:01:03.13	200.98	33.49	-30.3	-33.1	13.3	1.83e-05	0	43	102	46137344	21	4990
2026-01-06 11:01:06.15	201.62	34.04	-30.4	-33.4	13.1	3.66e-05	0	43	102	46137344	21	5093
2026-01-06 11:01:09.17	202.29	34.59	-30.4	-33.4	13.1	4.19e-05	0	43	102	46137344	21	5100
2026-01-06 11:01:12.20	202.98	35.16	-30.0	-32.4	13.8	9.10e-06	0	43	102	46137344	21	4746
2026-01-06 11:01:15.21	203.69	35.72	-29.8	-32.2	14.3	1.50e-06	0	43	102	46137344	20	4755
2026-01-06 11:01:18.22	204.42	36.29	-29.8	-32.4	14.2	3.00e-06	0	43	102	46137344	20	4838
2026-01-06 11:01:21.23	205.18	36.86	-29.6	-31.9	14.5	0.00e+00	0	43	102	46137344	20	4652
2026-01-06 11:01:24.24	205.97	37.44	-29.5	-31.5	14.8	7.00e-07	0	43	102	46137344	20	4541
2026-01-06 11:01:27.27	206.79	38.03	-29.6	-31.7	14.6	7.00e-07	0	43	102	46137344	20	4599
2026-01-06 11:01:30.29	207.64	38.61	-29.4	-31.2	14.9	0.00e+00	0	43	102	46137344	20	4430
2026-01-06 11:01:33.30	208.51	39.20	-29.3	-31.4	15.2	0.00e+00	0	43	102	46137344	19	4599
2026-01-06 11:01:36.32	209.42	39.80	-28.9	-30.6	15.7	0.00e+00	0	43	102	46137344	19	4354
2026-01-06 11:01:39.35	210.37	40.39	-29.1	-30.9	15.5	0.00e+00	0	43	102	46137344	19	4433
2026-01-06 11:01:42.37	211.35	40.99	-29.3	-31.4	15.2	0.00e+00	0	43	102	46137344	19	4581
2026-01-06 11:01:45.39	212.36	41.59	-29.3	-31.4	15.2	0.00e+00	0	43	102	46137344	19	4614
2026-01-06 11:01:48.41	213.41	42.18	-29.5	-32.0	14.9	0.00e+00	0	43	102	46137344	19	4773
2026-01-06 11:01:51.43	214.51	42.78	-29.7	-32.4	14.6	7.00e-07	0	43	102	46137344	19	4939
2026-01-06 11:01:54.45	215.64	43.37	-30.1	-33.2	13.8	2.20e-06	0	43	102	46137344	20	5100
2026-01-06 11:01:57.47	216.81	43.96	-29.9	-32.6	14.1	3.00e-06	0	43	102	46137344	20	4889
2026-01-06 11:02:00.48	218.02	44.54	-30.0	-32.8	14.0	0.00e+00	0	43	102	46137344	20	4958
2026-01-06 11:02:03.49	219.28	45.12	-30.8	-34.4	12.6	5.64e-05	0	43	102	46137344	21	5477
2026-01-06 11:02:06.51	220.59	45.69	-30.6	-34.0	12.9	3.66e-05	0	43	102	46137344	21	5307
2026-01-06 11:02:09.52	221.94	46.25	-31.2	-35.1	11.8	3.73e-04	0	43	102	46137344	22	5668
2026-01-06 11:02:12.54	223.34	46.80	-30.9	-33.8	12.4	2.77e-04	0	43	102	46137344	23	5004
2026-01-06 11:02:15.56	224.79	47.34	-30.5	-33.0	13.3	2.67e-05	0	43	102	46137344	22	4824
2026-01-06 11:02:18.58	226.29	47.87	-31.1	-34.9	12.1	1.79e-04	0	43	102	46137344	22	5544
2026-01-06 11:02:21.60	227.84	48.38	-30.5	-33.1	13.3	2.89e-05	0	43	102	46137344	22	4865
2026-01-06 11:02:24.62	229.44	48.87	-30.8	-33.7	12.9	4.50e-05	0	43	102	46137344	22	5083
2026-01-06 11:02:27.64	231.10	49.35	-30.8	-33.8	12.8	8.46e-05	0	43	102	46137344	22	5123
2026-01-06 11:02:30.66	232.80	49.80	-30.6	-33.4	13.1	1.44e-05	0	43	102	46137344	22	4958
2026-01-06 11:02:33.68	234.55	50.23	-30.5	-33.0	13.3	7.93e-05	0	43	102	46137344	22	4823
2026-01-06 11:02:36.70	236.36	50.64	-29.4	-31.2	15.1	0.00e+00	0	43	102	46137344	20	4432
2026-01-06 11:02:39.72	238.20	51.02	-29.4	-31.1	15.2	0.00e+00	0	43	102	46137344	20	4397
2026-01-06 11:02:42.74	240.10	51.37	-29.4	-31.6	15.3	0.00e+00	0	43	102	46137344	19	4630
2026-01-06 11:02:45.76	242.04	51.69	-29.5	-31.8	15.2	0.00e+00	0	43	102	46137344	19	4694
2026-01-06 11:02:48.78	244.01	51.98	-29.3	-31.3	15.4	0.00e+00	0	43	102	46137344	19	4563
2026-01-06 11:02:51.79	246.02	52.23	-29.3	-31.4	15.5	0.00e+00	0	43	102	46137344	19	4574
2026-01-06 11:02:54.80	248.05	52.45	-29.1	-30.9	15.7	0.00e+00	0	43	102	46137344	19	4422
2026-01-06 11:02:57.83	250.13	52.63	-29.9	-32.8	14.5	0.00e+00	0	43	102	46137344	19	5052
2026-01-06 11:03:00.85	252.23	52.78	-29.4	-31.5	15.3	0.00e+00	0	43	102	46137344	19	4621
2026-01-06 11:03:03.88	254.35	52.88	-29.7	-32.3	14.8	7.00e-07	0	43	102	46137344	19	4879
2026-01-06 11:03:06.90	256.47	52.95	-28.8	-30.6	16.1	0.00e+00	0	43	102	46137344	18	4443
2026-01-06 11:03:09.91	258.60	52.98	-28.8	-30.5	16.2	0.00e+00	0	43	102	46137344	18	4417
2026-01-06 11:03:12.93	260.73	52.97	-28.6	-30.2	16.5	0.00e+00	0	43	102	46137344	18	4322
2026-01-06 11:03:15.95	262.85	52.91	-28.4	-29.6	16.8	0.00e+00	0	43	102	46137344	18	4152
2026-01-06 11:03:18.97	264.97	52.82	-28.9	-30.9	16.0	0.00e+00	0	43	102	46137344	18	4540
2026-01-06 11:03:21.98	267.07	52.69	-28.9	-30.8	16.1	0.00e+00	0	43	102	46137344	18	4509
2026-01-06 11:03:24.99	269.14	52.52	-28.2	-29.6	17.0	0.00e+00	0	43	102	46137344	17	4261
2026-01-06 11:03:28.01	271.19	52.32	-28.6	-30.6	16.5	0.00e+00	0	43	102	46137344	17	4550
2026-01-06 11:03:31.01	273.20	52.08	-28.7	-30.8	16.3	0.00e+00	0	43	102	46137344	17	4614
2026-01-06 11:03:34.03	275.19	51.80	-29.6	-32.1	15.0	0.00e+00	0	43	102	46137344	19	4814
2026-01-06 11:03:37.05	277.14	51.50	-29.6	-32.0	15.0	0.00e+00	0	43	102	46137344	19	4780
2026-01-06 11:03:40.07	279.04	51.16	-30.5	-33.5	13.5	1.60e-05	0	43	102	46137344	21	5097
2026-01-06 11:03:43.09	280.91	50.79	-30.8	-34.4	12.8	3.28e-05	0	43	102	46137344	21	5439
2026-01-06 11:03:46.11	282.72	50.39	-30.9	-34.1	12.7	9.84e-05	0	43	102	46137344	22	5210
2026-01-06 11:03:49.14	284.50	49.97	-31.5	-35.9	11.5	4.57e-04	0	43	102	46137344	22	5998
2026-01-06 11:03:52.16	286.22	49.53	-31.0	-34.0	12.5	2.06e-04	0	43	102	46137344	23	5048
2026-01-06 11:03:55.18	287.89	49.06	-32.1	-36.9	10.0	6.99e-03	0	44	102	46137344	24	6259
2026-01-06 11:03:58.20	289.50	48.58	-32.1	-36.8	10.1	5.53e-03	0	43	102	46137344	24	6214
2026-01-06 11:04:01.21	291.07	48.07	-31.8	-35.8	10.9	4.93e-03	0	43	102	46137344	24	5707
2026-01-06 11:04:04.23	292.58	47.56	-31.8	-35.8	10.9	1.97e-03	0	43	102	46137344	24	5705
2026-01-06 11:04:07.25	294.05	47.02	-31.4	-34.5	11.8	9.19e-04	0	43	102	46137344	24	5167
2026-01-06 11:04:10.28	295.47	46.48	-31.2	-34.4	12.2	2.49e-04	0	43	102	46137344	23	5208
2026-01-06 11:04:13.29	296.84	45.92	-31.8	-36.5	10.7	1.64e-03	0	43	102	46137344	23	6144
2026-01-06 11:04:16.30	298.16	45.36	-31.0	-33.9	12.4	3.32e-04	0	43	102	46137344	23	5047
2026-01-06 11:04:19.31	299.43	44.79	-30.9	-33.7	12.6	7.09e-05	0	43	102	46137344	23	4954
2026-01-06 11:04:22.33	300.66	44.21	-30.9	-33.7	12.6	8.31e-05	0	43	102	46137344	23	4953
2026-01-06 11:04:25.35	301.84	43.62	-30.8	-33.7	12.9	3.43e-05	0	43	102	46137344	22	5072
2026-01-06 11:04:28.37	302.99	43.04	-30.6	-33.3	13.2	4.88e-05	0	43	102	46137344	22	4917
2026-01-06 11:04:31.39	304.09	42.44	-31.0	-34.3	12.6	3.89e-05	0	43	102	46137344	22	5275
2026-01-06 11:04:34.40	305.15	41.85	-31.4	-35.5	11.7	6.11e-04	0	43	102	46137344	22	5817
2026-01-06 11:04:37.43	306.18	41.26	-31.3	-35.3	11.8	4.11e-04	0	43	102	46137344	22	5723
2026-01-06 11:04:40.44	307.17	40.67	-31.7	-36.2	10.9	7.93e-04	0	43	102	46137344	23	6015
2026-01-06 11:04:43.46	308.13	40.08	-32.7	-39.0	7.9	7.02e-02	0	43	102	46137344	25	7425
2026-01-06 11:04:46.48	309.05	39.48	-31.7	-35.7	10.8	4.41e-03	0	43	102	46137344	24	5672
2026-01-06 11:04:49.50	309.94	38.90	-32.7	-38.9	8.0	4.41e-02	0	43	102	46137344	25	7361
2026-01-06 11:04:52.52	310.79	38.31	-31.3	-34.3	11.8	1.15e-03	0	43	102	46137344	24	5093
2026-01-06 11:04:55.53	311.62	37.73	-31.7	-36.0	10.9	2.08e-03	0	43	102	46137344	23	5941
2026-01-06 11:04:58.54	312.42	37.15	-32.8	-39.7	7.3	1.55e-01	0	43	102	46137344	25	7932
2026-01-06 11:05:01.56	313.19	36.58	-31.6	-35.2	11.1	1.88e-03	0	43	102	46137344	24	5489
2026-01-06 11:05:04.58	313.93	36.01	-32.2	-37.3	9.5	8.82e-03	0	43	102	46137344	24	6538
2026-01-06 11:05:07.60	314.65	35.45	-32.5	-37.6	8.5	1.33e-01	0	43	102	46137344	26	6478
2026-01-06 11:05:10.61	315.35	34.89	-30.1	-32.4	14.0	5.30e-06	0	43	102	46137344	21	4702
2026-01-06 11:05:13.63	316.02	34.33	-31.3	-35.5	11.6	1.15e-04	0	43	102	46137344	22	5802
2026-01-06 11:05:16.64	316.67	33.79	-32.0	-36.9	9.7	2.02e-02	0	43	102	46137344	24	6327
2026-01-06 11:05:19.65	317.30	33.25	-30.3	-32.4	13.6	2.28e-05	0	43	102	46137344	22	4619
2026-01-06 11:05:22.67	317.91	32.71	-30.4	-33.3	13.4	1.22e-05	0	43	102	46137344	21	5032
2026-01-06 11:05:25.70	318.51	32.18	-31.9	-37.1	10.1	4.71e-03	0	43	102	46137344	23	6496
2026-01-06 11:05:28.70	319.08	31.66	-32.0	-36.8	9.8	1.41e-02	0	43	102	46137344	24	6253
2026-01-06 11:05:31.72	319.63	31.14	-31.1	-34.2	12.1	3.07e-04	0	43	102	46137344	23	5182
2026-01-06 11:05:34.75	320.17	30.63	-31.4	-35.4	11.3	1.26e-03	0	44	102	46137344	23	5664
2026-01-06 11:05:37.77	320.69	30.12	-32.2	-37.6	9.2	1.75e-02	0	43	102	46137344	24	6717
2026-01-06 11:05:40.78	321.20	29.63	-32.1	-37.3	9.4	1.66e-02	0	43	102	46137344	24	6519
2026-01-06 11:05:43.80	321.69	29.14	-31.9	-36.6	10.0	7.23e-03	0	43	102	46137344	24	6186
2026-01-06 11:05:46.81	322.17	28.65	-31.7	-35.7	10.6	4.91e-03	0	43	102	46137344	24	5705
2026-01-06 11:05:49.84	322.63	28.17	-31.6	-35.3	10.9	1.80e-03	0	43	102	46137344	24	5548
2026-01-06 11:05:52.86	323.08	27.70	-31.1	-34.5	11.8	7.38e-04	0	43	102	46137344	23	5309
2026-01-06 11:05:55.87	323.52	27.23	-31.0	-34.2	12.0	2.69e-04	0	43	102	46137344	23	5179
2026-01-06 11:05:58.89	323.95	26.77	-30.7	-33.7	12.7	1.13e-04	0	43	102	46137344	22	5105
2026-01-06 11:06:01.91	324.36	26.32	-30.5	-33.0	13.1	2.74e-05	0	43	102	46137344	22	4842
2026-01-06 11:06:04.93	324.76	25.87	-30.6	-33.4	12.8	4.04e-05	0	43	102	46137344	22	4991
2026-01-06 11:06:07.96	325.16	25.43	-31.0	-34.6	12.1	2.30e-04	0	43	102	46137344	22	5460
2026-01-06 11:06:10.98	325.54	24.99	-31.0	-34.6	12.0	4.19e-04	0	43	102	46137344	22	5470
2026-01-06 11:06:14.00	325.91	24.56	-30.9	-34.3	12.2	2.52e-04	0	44	102	46137344	22	5349
2026-01-06 11:06:17.01	326.27	24.14	-30.6	-33.5	12.7	1.18e-04	0	43	102	46137344	22	5026
2026-01-06 11:06:20.03	326.62	23.72	-30.3	-33.1	13.4	1.98e-05	0	44	102	46137344	21	4979
2026-01-06 11:06:23.05	326.97	23.31	-30.2	-33.0	13.3	1.60e-05	0	43	102	46137344	21	4967
2026-01-06 11:06:26.07	327.30	22.90	-30.3	-33.3	13.2	3.12e-05	0	43	102	46137344	21	5066
2026-01-06 11:06:29.10	327.63	22.49	-30.3	-33.3	13.2	3.12e-05	0	43	102	46137344	21	5061
2026-01-06 11:06:32.12	327.95	22.10	-30.5	-33.7	12.8	5.64e-05	0	43	102	46137344	21	5213
2026-01-06 11:06:35.15	328.26	21.71	-30.3	-33.1	13.2	2.13e-05	0	43	102	46137344	21	4998
2026-01-06 11:06:38.16	328.56	21.32	-30.1	-32.7	13.5	5.30e-06	0	43	102	46137344	21	4838
2026-01-06 11:06:41.19	328.86	20.94	-30.1	-32.6	13.5	9.10e-06	0	43	102	46137344	21	4817
2026-01-06 11:06:44.21	329.15	20.56	-30.3	-33.1	13.2	9.10e-06	0	43	102	46137344	21	5010
2026-01-06 11:06:47.24	329.44	20.19	-30.4	-33.6	12.9	4.65e-05	0	43	102	46137344	21	5181
2026-01-06 11:06:50.26	329.71	19.82	-30.6	-34.0	12.5	1.17e-04	0	43	102	46137344	21	5369
2026-01-06 11:06:53.28	329.98	19.46	-30.7	-34.3	12.3	1.65e-04	0	43	102	46137344	21	5478
2026-01-06 11:06:56.29	330.25	19.11	-30.7	-34.3	12.3	1.68e-04	0	43	102	46137344	21	5476
2026-01-06 11:06:59.31	330.51	18.76	-30.2	-33.0	13.2	3.05e-05	0	44	102	46137344	21	4977
2026-01-06 11:07:02.33	330.76	18.41	-30.2	-32.9	13.3	2.21e-05	0	44	102	46137344	21	4933
2026-01-06 11:07:05.35	331.01	18.06	-30.0	-32.5	13.5	1.06e-05	0	43	102	46137344	21	4775
2026-01-06 11:07:08.37	331.25	17.73	-29.9	-32.1	13.7	4.50e-06	0	43	102	46137344	21	4653
2026-01-06 11:07:11.40	331.49	17.39	-30.0	-32.5	13.4	1.44e-05	0	43	102	46137344	21	4810
2026-01-06 11:07:14.42	331.72	17.06	-30.1	-32.9	13.2	2.05e-05	0	43	102	46137344	21	4932
2026-01-06 11:07:17.44	331.95	16.73	-30.1	-32.7	13.3	1.67e-05	0	44	102	46137344	21	4873
2026-01-06 11:07:20.45	332.17	16.41	-30.2	-33.1	13.0	4.34e-05	0	44	102	46137344	21	5005
2026-01-06 11:07:23.47	332.39	16.09	-30.2	-33.1	13.0	4.50e-05	0	44	102	46137344	21	5017
2026-01-06 11:07:26.50	332.61	15.78	-30.1	-32.7	13.2	2.67e-05	0	44	102	46137344	21	4869
2026-01-06 11:07:29.52	332.82	15.46	-30.0	-32.4	13.4	1.29e-05	0	43	102	46137344	21	4777
2026-01-06 11:07:32.53	333.03	15.16	-30.1	-32.9	13.1	1.75e-05	0	43	102	46137344	21	4941
2026-01-06 11:07:35.55	333.23	14.85	-30.0	-32.5	13.4	1.14e-05	0	43	102	46137344	21	4794
2026-01-06 11:07:38.57	333.43	14.55	-30.1	-32.8	13.1	4.42e-05	0	43	102	46137344	21	4933
2026-01-06 11:07:41.58	333.62	14.26	-30.2	-33.2	12.8	5.64e-05	0	43	102	46137344	21	5082
2026-01-06 11:07:44.59	333.81	13.96	-30.4	-33.6	12.5	9.91e-05	0	43	102	46137344	21	5230
2026-01-06 11:07:47.60	334.00	13.67	-30.5	-34.0	12.2	2.33e-04	0	43	102	46137344	21	5414
2026-01-06 11:07:50.61	334.18	13.39	-30.6	-34.4	12.0	4.11e-04	0	43	102	46137344	21	5568
2026-01-06 11:07:53.63	334.37	13.10	-30.6	-34.5	11.9	4.34e-04	0	43	102	46137344	21	5604
2026-01-06 11:07:56.65	334.54	12.82	-30.7	-34.7	11.6	5.13e-04	0	43	102	46137344	21	5721
2026-01-06 11:07:59.67	334.72	12.54	-30.7	-34.6	11.7	6.13e-04	0	43	102	46137344	21	5666
2026-01-06 11:08:02.69	334.89	12.27	-30.6	-34.3	11.9	4.05e-04	0	43	102	46137344	21	5528
2026-01-06 11:08:05.70	335.06	11.99	-30.4	-33.7	12.3	2.04e-04	0	44	102	46137344	21	5296
2026-01-06 11:08:08.72	335.23	11.72	-30.2	-33.4	12.5	1.27e-04	0	43	102	46137344	21	5163
2026-01-06 11:08:11.73	335.39	11.46	-30.3	-33.4	12.4	1.15e-04	0	43	102	46137344	21	5188
2026-01-06 11:08:14.75	335.55	11.19	-30.2	-33.3	12.5	1.36e-04	0	43	102	46137344	21	5137
2026-01-06 11:08:17.76	335.71	10.93	-30.4	-33.8	12.1	2.08e-04	0	44	102	46137344	21	5351
2026-01-06 11:08:20.79	335.87	10.67	-30.3	-33.5	12.4	1.56e-04	0	44	102	46137344	21	5207
2026-01-06 11:08:23.81	336.02	10.42	-30.3	-33.6	12.2	2.09e-04	0	43	102	46137344	21	5290
2026-01-06 11:08:26.83	336.17	10.16	-30.5	-34.1	11.8	3.75e-04	0	44	102	46137344	21	5494
2026-01-06 11:08:29.85	336.32	9.91	-30.6	-34.4	11.6	6.68e-04	0	44	102	46137344	21	5617
2026-01-06 11:08:32.87	336.46	9.66	-30.7	-34.8	11.3	9.77e-04	0	44	102	46137344	21	5789
2026-01-06 11:08:35.89	336.61	9.42	-30.8	-35.3	11.0	1.84e-03	0	43	102	46137344	21	6025
2026-01-06 11:08:38.91	336.75	9.17	-31.0	-35.9	10.5	3.72e-03	0	43	102	46137344	21	6346
2026-01-06 11:08:41.93	336.89	8.93	-31.0	-35.6	10.3	4.47e-03	0	44	102	46137344	22	6066
2026-01-06 11:08:44.96	337.03	8.69	-31.2	-36.3	9.8	8.04e-03	0	43	102	46137344	22	6458
2026-01-06 11:08:47.98	337.16	8.45	-30.9	-35.2	10.6	3.91e-03	0	44	102	46137344	22	5886
2026-01-06 11:08:51.00	337.30	8.21	-30.9	-35.2	10.6	3.67e-03	0	44	102	46137344	22	5906
2026-01-06 11:08:54.02	337.43	7.98	-30.9	-35.1	10.6	3.65e-03	0	43	102	46137344	22	5846
2026-01-06 11:08:57.04	337.56	7.75	-30.8	-34.8	10.8	2.85e-03	0	44	102	46137344	22	5740
2026-01-06 11:09:00.06	337.69	7.52	-30.9	-35.2	10.4	3.60e-03	0	43	102	46137344	22	5926
2026-01-06 11:09:03.08	337.81	7.29	-30.6	-34.3	11.0	1.34e-03	0	44	102	46137344	22	5521
2026-01-06 11:09:06.10	337.94	7.07	-33.2	-47.4	3.8	1.47e+00	0	44	104	46137344	26	18449
2026-01-06 11:09:09.12	338.06	6.84	-33.8	-48.1	3.8	1.49e+00	0	43	104	46137344	27	18790

#Closed at: 2026-01-06 11:09:09
#Recorded file [46 MB]: D:/data/31010_260106_135718.dat