passes_logs/2026/01/06/R2M6_AANII_01/R2M6_AANII_01__20260106_121852_SUOMI_NPP_rec.log

#Pass ID: 20260106_121852_SUOMI NPP
#Satellite: SUOMI NPP
#Configuration: NPP
#almurnet v.1.7.20240730
#Start time: 2026-01-06 12:18:53

#Version: 2.2.20231116
#Station: R2M6_AANII_01
#Location: 30.233357 lon 59.946436 lat
#TLE: 1 37849U 11061A   26004.95404768  .00000136  00000+0  85334-4 0  9991
#TLE: 2 37849  98.7801 307.0898 0002575  80.6707 279.4760 14.19522289735281

#Time	Az	El	Level	Level2	SNR	BER	BlckErr	Temp	State	Recorded	gain1	gain2
2026-01-06 12:18:53.29	224.77	7.06	-31.0	-34.4	5.2	1.19e+00	0	41	0	0	23	5336
2026-01-06 12:18:56.31	225.11	7.23	-31.4	-35.9	7.6	1.05e-01	0	41	102	1048576	23	6034
2026-01-06 12:18:59.34	225.45	7.40	-31.0	-34.2	8.9	3.44e-02	0	41	102	1048576	23	5197
2026-01-06 12:19:02.36	225.80	7.57	-30.9	-33.7	9.4	1.77e-02	0	41	102	1048576	23	4970
2026-01-06 12:19:05.37	226.15	7.74	-30.8	-33.5	9.6	2.25e-02	0	41	102	1048576	23	4874
2026-01-06 12:19:08.38	226.50	7.91	-30.4	-32.3	10.9	3.40e-03	0	41	102	1048576	22	4500
2026-01-06 12:19:11.40	226.86	8.09	-30.3	-32.7	10.9	1.88e-03	0	42	102	1048576	21	4735
2026-01-06 12:19:14.42	227.23	8.26	-30.3	-32.7	11.0	1.87e-03	0	42	102	1048576	21	4719
2026-01-06 12:19:17.43	227.59	8.43	-30.2	-32.3	11.3	9.67e-04	0	42	102	1048576	21	4571
2026-01-06 12:19:20.43	227.96	8.60	-30.1	-32.1	11.4	8.83e-04	0	42	102	1048576	21	4492
2026-01-06 12:19:23.44	228.34	8.77	-29.9	-31.4	11.9	4.65e-04	0	42	102	1048576	21	4280
2026-01-06 12:19:26.46	228.72	8.95	-30.0	-31.7	11.8	5.27e-04	0	42	102	1048576	21	4367
2026-01-06 12:19:29.49	229.11	9.12	-30.1	-31.8	11.7	5.65e-04	0	42	102	1048576	21	4379
2026-01-06 12:19:32.52	229.50	9.29	-30.1	-31.9	11.7	7.57e-04	0	42	102	1048576	21	4416
2026-01-06 12:19:35.53	229.89	9.47	-30.1	-31.9	11.6	8.26e-04	0	42	102	1048576	21	4420
2026-01-06 12:19:38.54	230.29	9.64	-30.0	-31.6	11.9	2.97e-04	0	42	102	1048576	21	4326
2026-01-06 12:19:41.54	230.69	9.81	-30.0	-31.5	12.0	4.46e-04	0	42	102	1048576	21	4283
2026-01-06 12:19:44.57	231.10	9.99	-30.0	-31.6	12.0	2.68e-04	0	42	102	1048576	21	4307
2026-01-06 12:19:47.59	231.51	10.16	-30.2	-32.0	11.7	5.52e-04	0	42	102	1048576	21	4465
2026-01-06 12:19:50.61	231.92	10.33	-30.1	-31.9	11.8	4.94e-04	0	42	102	1048576	21	4405
2026-01-06 12:19:53.62	232.35	10.51	-30.2	-32.2	11.6	6.35e-04	0	42	102	1048576	21	4501
2026-01-06 12:19:56.63	232.77	10.68	-30.0	-31.6	12.1	2.87e-04	0	43	102	1048576	21	4286
2026-01-06 12:19:59.65	233.20	10.85	-30.0	-31.4	12.2	2.26e-04	0	42	102	1048576	21	4230
2026-01-06 12:20:02.67	233.64	11.02	-29.9	-31.1	12.4	2.44e-04	0	43	102	1048576	21	4133
2026-01-06 12:20:05.70	234.08	11.20	-29.9	-31.1	12.4	1.90e-04	0	42	102	1048576	21	4140
2026-01-06 12:20:08.72	234.53	11.37	-29.8	-31.3	12.7	8.23e-05	0	43	102	1048576	20	4290
2026-01-06 12:20:11.75	234.98	11.54	-29.8	-31.2	12.7	7.62e-05	0	43	102	1048576	20	4258
2026-01-06 12:20:14.77	235.44	11.71	-29.7	-31.0	12.9	3.96e-05	0	43	102	1048576	20	4195
2026-01-06 12:20:17.79	235.90	11.88	-29.8	-31.4	12.6	9.91e-05	0	43	102	1048576	20	4316
2026-01-06 12:20:20.81	236.37	12.05	-29.9	-31.5	12.4	1.12e-04	0	43	102	1048576	20	4358
2026-01-06 12:20:23.82	236.84	12.22	-30.0	-31.8	12.4	1.91e-04	0	43	102	1048576	20	4439
2026-01-06 12:20:26.84	237.32	12.39	-29.9	-31.5	12.5	1.14e-04	0	43	102	1048576	20	4348
2026-01-06 12:20:29.86	237.80	12.56	-29.8	-31.4	12.7	6.48e-05	0	43	102	1048576	20	4292
2026-01-06 12:20:32.88	238.29	12.73	-29.9	-31.6	12.5	1.29e-04	0	43	102	1048576	20	4367
2026-01-06 12:20:35.90	238.78	12.89	-29.8	-31.4	12.7	1.15e-04	0	43	102	1048576	20	4291
2026-01-06 12:20:38.92	239.28	13.06	-29.7	-31.0	13.0	4.42e-05	0	43	102	1048576	20	4179
2026-01-06 12:20:41.95	239.79	13.22	-29.4	-30.2	13.5	1.44e-05	0	43	102	1048576	20	3946
2026-01-06 12:20:44.97	240.30	13.39	-29.7	-30.9	13.0	4.73e-05	0	43	102	1048576	20	4158
2026-01-06 12:20:47.99	240.81	13.55	-29.8	-31.2	12.9	5.18e-05	0	43	102	1048576	20	4222
2026-01-06 12:20:51.01	241.33	13.71	-29.7	-31.1	12.9	4.27e-05	0	43	102	1048576	20	4193
2026-01-06 12:20:54.03	241.86	13.88	-29.7	-30.9	13.1	4.34e-05	0	43	102	1048576	20	4136
2026-01-06 12:20:57.05	242.39	14.04	-29.6	-30.5	13.4	5.30e-06	0	43	102	1048576	20	4031
2026-01-06 12:21:00.06	242.93	14.19	-29.5	-30.4	13.4	1.52e-05	0	43	102	1048576	20	3991
2026-01-06 12:21:03.07	243.47	14.35	-29.7	-31.0	13.2	3.12e-05	0	43	102	1048576	20	4162
2026-01-06 12:21:06.10	244.02	14.51	-29.9	-31.6	12.7	6.86e-05	0	43	102	1048576	20	4363
2026-01-06 12:21:09.12	244.58	14.66	-29.9	-31.5	12.7	8.31e-05	0	43	102	1048576	20	4336
2026-01-06 12:21:12.14	245.14	14.81	-29.6	-30.8	13.2	9.90e-06	0	43	102	1048576	20	4099
2026-01-06 12:21:15.16	245.70	14.97	-29.9	-31.3	12.9	2.21e-05	0	43	102	1048576	20	4267
2026-01-06 12:21:18.18	246.27	15.12	-30.2	-32.3	12.3	1.36e-04	0	43	102	1048576	20	4576
2026-01-06 12:21:21.19	246.85	15.26	-30.0	-31.7	12.7	6.94e-05	0	43	102	1048576	20	4377
2026-01-06 12:21:24.21	247.43	15.41	-30.1	-31.9	12.6	1.14e-04	0	43	102	1048576	20	4444
2026-01-06 12:21:27.23	248.02	15.55	-30.3	-32.5	12.2	2.63e-04	0	43	102	1048576	20	4639
2026-01-06 12:21:30.25	248.61	15.69	-30.1	-32.0	12.5	1.36e-04	0	43	102	1048576	20	4478
2026-01-06 12:21:33.27	249.21	15.83	-30.1	-32.1	12.5	1.14e-04	0	43	102	1048576	20	4492
2026-01-06 12:21:36.29	249.82	15.97	-30.0	-31.8	12.7	1.13e-04	0	43	102	1048576	20	4394
2026-01-06 12:21:39.31	250.43	16.11	-30.2	-32.3	12.4	1.05e-04	0	43	102	1048576	20	4563
2026-01-06 12:21:42.32	251.04	16.24	-30.4	-32.8	12.0	3.21e-04	0	43	102	1048576	20	4734
2026-01-06 12:21:45.34	251.66	16.37	-30.3	-32.6	12.1	1.95e-04	0	43	102	1048576	20	4696
2026-01-06 12:21:48.34	252.28	16.50	-30.4	-32.8	12.0	1.65e-04	0	43	102	1048576	20	4764
2026-01-06 12:21:51.37	252.91	16.63	-30.6	-33.0	11.5	7.67e-04	0	43	102	1048576	21	4747
2026-01-06 12:21:54.38	253.55	16.75	-30.5	-32.5	11.9	5.60e-04	0	43	102	1048576	21	4533
2026-01-06 12:21:57.39	254.19	16.87	-30.2	-31.7	12.5	1.49e-04	0	43	102	1048576	21	4297
2026-01-06 12:22:00.41	254.83	16.99	-30.2	-31.8	12.4	1.75e-04	0	43	102	1048576	21	4311
2026-01-06 12:22:03.43	255.48	17.10	-30.1	-31.4	12.7	8.85e-05	0	43	102	1048576	21	4193
2026-01-06 12:22:06.44	256.13	17.21	-30.1	-31.4	12.7	9.53e-05	0	43	102	1048576	21	4195
2026-01-06 12:22:09.46	256.79	17.32	-30.3	-32.0	12.3	1.40e-04	0	43	102	1048576	21	4371
2026-01-06 12:22:12.49	257.46	17.42	-30.0	-31.0	12.9	5.34e-05	0	43	102	1048576	21	4063
2026-01-06 12:22:15.50	258.13	17.53	-30.1	-31.5	12.6	7.09e-05	0	43	102	1048576	21	4218
2026-01-06 12:22:18.52	258.80	17.62	-30.5	-32.6	11.9	3.35e-04	0	43	102	1048576	21	4587
2026-01-06 12:22:21.54	259.48	17.72	-30.6	-32.8	11.7	2.91e-04	0	43	102	1048576	21	4666
2026-01-06 12:22:24.56	260.16	17.81	-30.4	-32.2	12.2	5.60e-04	0	43	102	1048576	21	4457
2026-01-06 12:22:27.58	260.84	17.90	-29.8	-31.0	13.3	9.10e-06	0	43	102	1048576	20	4135
2026-01-06 12:22:30.60	261.53	17.98	-29.7	-30.7	13.5	1.67e-05	0	43	102	1048576	20	4063
2026-01-06 12:22:33.61	262.22	18.06	-30.3	-32.4	12.4	8.46e-05	0	44	102	1048576	20	4589
2026-01-06 12:22:36.63	262.92	18.14	-29.6	-30.4	13.7	1.22e-05	0	43	102	1048576	20	3981
2026-01-06 12:22:39.65	263.62	18.21	-29.4	-30.0	13.9	4.50e-06	0	43	102	1048576	20	3864
2026-01-06 12:22:42.67	264.32	18.28	-29.3	-30.2	14.2	0.00e+00	0	43	102	1048576	19	3998
2026-01-06 12:22:45.69	265.03	18.35	-29.3	-30.1	14.3	7.00e-07	0	43	102	1048576	19	3961
2026-01-06 12:22:48.70	265.73	18.41	-29.5	-30.7	13.9	7.00e-07	0	43	102	1048576	19	4122
2026-01-06 12:22:51.72	266.44	18.46	-29.2	-30.0	14.4	0.00e+00	0	43	102	1048576	19	3934
2026-01-06 12:22:54.74	267.16	18.52	-29.8	-31.4	13.5	6.10e-06	0	44	102	1048576	19	4342
2026-01-06 12:22:57.76	267.87	18.56	-29.9	-31.4	13.1	3.28e-05	0	43	102	1048576	20	4260
2026-01-06 12:23:00.77	268.59	18.61	-30.0	-31.6	13.0	2.89e-05	0	43	102	1048576	20	4322
2026-01-06 12:23:03.80	269.31	18.65	-30.2	-32.1	12.6	5.95e-05	0	43	102	1048576	20	4471
2026-01-06 12:23:06.82	270.03	18.68	-29.8	-31.2	13.2	1.67e-05	0	43	102	1048576	20	4184
2026-01-06 12:23:09.84	270.75	18.71	-30.2	-32.2	12.6	5.41e-05	0	43	102	1048576	20	4533
2026-01-06 12:23:12.86	271.48	18.74	-30.3	-32.3	12.5	1.80e-04	0	44	102	1048576	20	4572
2026-01-06 12:23:15.88	272.20	18.76	-30.1	-32.0	12.7	7.70e-05	0	43	102	1048576	20	4441
2026-01-06 12:23:18.88	272.92	18.78	-30.1	-31.8	12.8	5.03e-05	0	43	102	1048576	20	4392
2026-01-06 12:23:21.90	273.65	18.79	-30.1	-31.7	12.9	4.57e-05	0	43	102	1048576	20	4364
2026-01-06 12:23:24.91	274.38	18.80	-30.0	-31.6	12.9	3.43e-05	0	44	102	1048576	20	4331
2026-01-06 12:23:27.93	275.10	18.81	-30.1	-31.8	12.8	5.03e-05	0	43	102	1048576	20	4375
2026-01-06 12:23:30.95	275.83	18.81	-30.3	-32.3	12.5	1.64e-04	0	43	102	1048576	20	4559
2026-01-06 12:23:33.97	276.56	18.80	-30.5	-32.4	12.1	2.43e-04	0	43	102	1048576	21	4499
2026-01-06 12:23:36.99	277.28	18.79	-30.6	-32.7	11.9	5.09e-04	0	43	102	1048576	21	4597
2026-01-06 12:23:40.01	278.01	18.78	-30.5	-32.6	11.9	3.41e-04	0	43	102	1048576	21	4586
2026-01-06 12:23:43.02	278.73	18.76	-30.5	-32.7	11.9	3.04e-04	0	43	102	1048576	21	4588
2026-01-06 12:23:46.05	279.46	18.74	-29.8	-31.0	13.4	1.90e-05	0	43	102	1048576	20	4126
2026-01-06 12:23:49.07	280.18	18.71	-30.1	-32.0	12.8	4.73e-05	0	43	102	1048576	20	4444
2026-01-06 12:23:52.09	280.91	18.68	-30.3	-32.5	12.4	1.60e-04	0	43	102	1048576	20	4619
2026-01-06 12:23:55.11	281.63	18.64	-30.4	-32.6	12.3	1.75e-04	0	43	102	1048576	20	4672
2026-01-06 12:23:58.11	282.34	18.60	-30.5	-32.6	12.0	2.70e-04	0	44	102	1048576	21	4578
2026-01-06 12:24:01.13	283.06	18.56	-30.5	-32.4	12.1	2.46e-04	0	43	102	1048576	21	4502
2026-01-06 12:24:04.15	283.77	18.51	-30.4	-32.2	12.1	1.70e-04	0	43	102	1048576	21	4449
2026-01-06 12:24:07.17	284.48	18.46	-30.0	-31.1	13.0	6.33e-05	0	44	102	1048576	21	4087
2026-01-06 12:24:10.19	285.19	18.40	-29.9	-30.7	13.3	2.13e-05	0	43	102	1048576	21	3962
2026-01-06 12:24:13.20	285.90	18.34	-29.8	-31.0	13.4	6.10e-06	0	43	102	1048576	20	4144
2026-01-06 12:24:16.21	286.60	18.28	-30.3	-32.4	12.4	1.14e-04	0	44	102	1048576	20	4587
2026-01-06 12:24:19.24	287.30	18.21	-30.3	-31.9	12.4	2.08e-04	0	44	102	1048576	21	4344
2026-01-06 12:24:22.26	288.00	18.13	-30.3	-31.9	12.4	1.52e-04	0	43	102	1048576	21	4324
2026-01-06 12:24:25.28	288.69	18.06	-30.2	-31.6	12.6	9.53e-05	0	43	102	1048576	21	4252
2026-01-06 12:24:28.31	289.38	17.98	-29.8	-31.1	13.2	1.98e-05	0	43	102	1048576	20	4170
2026-01-06 12:24:31.34	290.07	17.89	-30.0	-31.7	12.9	5.26e-05	0	43	102	1048576	20	4361
2026-01-06 12:24:34.35	290.75	17.80	-30.3	-32.3	12.4	1.36e-04	0	43	102	1048576	20	4576
2026-01-06 12:24:37.38	291.43	17.71	-29.9	-31.3	13.1	3.89e-05	0	43	102	1048576	20	4227
2026-01-06 12:24:40.39	292.11	17.62	-29.9	-31.5	13.0	5.18e-05	0	44	102	1048576	20	4305
2026-01-06 12:24:43.41	292.78	17.52	-30.0	-31.8	12.8	5.11e-05	0	44	102	1048576	20	4379
2026-01-06 12:24:46.43	293.44	17.42	-30.0	-31.6	12.9	7.17e-05	0	43	102	1048576	20	4323
2026-01-06 12:24:49.45	294.10	17.31	-29.4	-30.1	13.9	4.50e-06	0	43	102	1048576	20	3876
2026-01-06 12:24:52.46	294.76	17.20	-29.6	-30.4	13.7	6.10e-06	0	44	102	1048576	20	3974
2026-01-06 12:24:55.48	295.41	17.09	-29.5	-30.4	13.6	8.30e-06	0	43	102	1048576	20	3969
2026-01-06 12:24:58.51	296.06	16.98	-29.4	-30.1	13.8	6.10e-06	0	44	102	1048576	20	3899
2026-01-06 12:25:01.52	296.70	16.86	-29.4	-30.1	13.8	6.10e-06	0	43	102	1048576	20	3891
2026-01-06 12:25:04.54	297.34	16.74	-29.5	-30.3	13.7	7.60e-06	0	43	102	1048576	20	3951
2026-01-06 12:25:07.55	297.97	16.62	-29.8	-31.1	13.2	1.83e-05	0	44	102	1048576	20	4185
2026-01-06 12:25:10.58	298.60	16.50	-29.8	-31.2	13.2	3.20e-05	0	43	102	1048576	20	4201
2026-01-06 12:25:13.60	299.22	16.37	-29.7	-30.9	13.4	5.26e-05	0	43	102	1048576	20	4104
2026-01-06 12:25:16.61	299.84	16.24	-29.7	-30.8	13.3	1.44e-05	0	43	102	1048576	20	4090
2026-01-06 12:25:19.62	300.45	16.11	-29.9	-31.3	13.1	2.97e-05	0	43	102	1048576	20	4228
2026-01-06 12:25:22.65	301.06	15.97	-29.6	-30.6	13.6	6.10e-06	0	44	102	1048576	20	4024
2026-01-06 12:25:25.66	301.66	15.83	-30.0	-31.5	12.9	3.12e-05	0	43	102	1048576	20	4319
2026-01-06 12:25:28.68	302.25	15.69	-30.3	-32.6	12.1	3.42e-04	0	43	102	1048576	20	4696
2026-01-06 12:25:31.70	302.84	15.55	-30.3	-32.7	12.0	2.47e-04	0	43	102	1048576	20	4720
2026-01-06 12:25:34.72	303.43	15.41	-29.9	-31.4	13.0	3.20e-05	0	43	102	1048576	20	4270
2026-01-06 12:25:37.74	304.01	15.27	-29.8	-31.2	13.1	5.56e-05	0	43	102	1048576	20	4209
2026-01-06 12:25:40.76	304.58	15.12	-29.9	-31.3	13.0	2.59e-05	0	43	102	1048576	20	4248
2026-01-06 12:25:43.78	305.15	14.97	-29.9	-31.6	12.8	7.70e-05	0	44	102	1048576	20	4330
2026-01-06 12:25:46.81	305.71	14.82	-30.5	-32.8	11.6	6.48e-04	0	43	102	1048576	21	4661
2026-01-06 12:25:49.83	306.27	14.67	-30.9	-33.9	10.8	2.67e-03	0	44	102	1048576	21	5114
2026-01-06 12:25:52.85	306.82	14.51	-30.8	-33.8	10.9	1.74e-03	0	44	102	1048576	21	5040
2026-01-06 12:25:55.87	307.37	14.36	-30.7	-33.4	11.1	1.18e-03	0	44	102	1048576	21	4904
2026-01-06 12:25:58.88	307.91	14.20	-30.3	-32.2	11.9	4.71e-04	0	44	102	1048576	21	4475
2026-01-06 12:26:01.91	308.44	14.04	-30.2	-31.8	12.2	2.29e-04	0	43	102	1048576	21	4342
2026-01-06 12:26:04.93	308.97	13.89	-30.2	-31.7	12.3	1.27e-04	0	44	102	1048576	21	4279
2026-01-06 12:26:07.94	309.50	13.73	-30.4	-32.4	11.8	5.65e-04	0	44	102	1048576	21	4543
2026-01-06 12:26:10.95	310.01	13.57	-30.3	-32.1	12.0	3.80e-04	0	43	102	1048576	21	4447
2026-01-06 12:26:13.98	310.53	13.40	-30.4	-32.6	11.6	8.32e-04	0	44	102	1048576	21	4599
2026-01-06 12:26:17.00	311.04	13.24	-30.5	-32.8	11.5	9.12e-04	0	43	102	1048576	21	4682
2026-01-06 12:26:20.02	311.54	13.08	-30.2	-32.0	12.1	4.14e-04	0	43	102	1048576	21	4393
2026-01-06 12:26:23.04	312.03	12.91	-30.4	-32.4	11.8	4.28e-04	0	44	102	1048576	21	4547
2026-01-06 12:26:26.06	312.53	12.75	-30.5	-32.7	11.5	1.16e-03	0	44	102	1048576	21	4660
2026-01-06 12:26:29.07	313.01	12.58	-30.5	-32.9	11.4	1.46e-03	0	44	102	1048576	21	4726
2026-01-06 12:26:32.09	313.49	12.41	-30.0	-31.2	12.5	1.04e-04	0	43	102	1048576	21	4152
2026-01-06 12:26:35.11	313.97	12.25	-29.8	-31.3	12.8	4.50e-05	0	44	102	1048576	20	4258
2026-01-06 12:26:38.13	314.44	12.08	-29.9	-31.6	12.6	8.08e-05	0	44	102	1048576	20	4363
2026-01-06 12:26:41.15	314.90	11.91	-29.9	-31.4	12.7	7.47e-05	0	44	102	1048576	20	4313
2026-01-06 12:26:44.16	315.36	11.74	-29.8	-31.2	12.8	9.76e-05	0	44	102	1048576	20	4246
2026-01-06 12:26:47.19	315.82	11.57	-29.8	-31.3	12.8	6.40e-05	0	43	102	1048576	20	4263
2026-01-06 12:26:50.20	316.26	11.40	-29.9	-31.6	12.6	1.17e-04	0	43	102	1048576	20	4357
2026-01-06 12:26:53.22	316.71	11.23	-29.9	-31.5	12.6	8.77e-05	0	43	102	1048576	20	4331
2026-01-06 12:26:56.23	317.15	11.06	-29.7	-30.8	13.0	2.13e-05	0	43	102	1048576	20	4125
2026-01-06 12:26:59.24	317.58	10.89	-29.3	-30.4	13.7	9.90e-06	0	43	102	1048576	19	4083
2026-01-06 12:27:02.26	318.01	10.72	-29.5	-30.9	13.3	1.67e-05	0	44	102	1048576	19	4233
2026-01-06 12:27:05.29	318.44	10.55	-29.7	-31.5	13.0	3.89e-05	0	43	102	1048576	19	4423
2026-01-06 12:27:08.31	318.86	10.38	-29.8	-31.8	12.7	7.93e-05	0	43	102	1048576	19	4508
2026-01-06 12:27:11.33	319.27	10.21	-30.1	-32.2	12.0	2.34e-04	0	43	102	1048576	20	4583
2026-01-06 12:27:14.36	319.68	10.03	-30.3	-33.0	11.5	7.05e-04	0	43	102	1048576	20	4865
2026-01-06 12:27:17.37	320.09	9.86	-30.4	-33.0	11.4	1.08e-03	0	44	102	1048576	20	4888
2026-01-06 12:27:20.39	320.49	9.69	-30.2	-32.6	11.7	5.62e-04	0	43	102	1048576	20	4742
2026-01-06 12:27:23.40	320.89	9.52	-29.9	-31.6	12.3	2.04e-04	0	43	102	1048576	20	4393
2026-01-06 12:27:26.41	321.28	9.35	-29.9	-31.7	12.3	1.61e-04	0	43	102	1048576	20	4423
2026-01-06 12:27:29.43	321.67	9.18	-30.3	-32.9	11.5	6.52e-04	0	43	102	1048576	20	4849
2026-01-06 12:27:32.44	322.05	9.01	-30.4	-32.5	11.4	1.31e-03	0	43	102	1048576	21	4608
2026-01-06 12:27:35.46	322.43	8.84	-30.4	-32.6	11.3	1.12e-03	0	43	102	1048576	21	4641
2026-01-06 12:27:38.48	322.80	8.67	-30.4	-32.7	11.2	9.66e-04	0	44	102	1048576	21	4684
2026-01-06 12:27:41.50	323.18	8.49	-30.5	-32.9	11.1	1.58e-03	0	43	102	1048576	21	4751
2026-01-06 12:27:44.53	323.54	8.32	-30.6	-33.4	10.7	2.88e-03	0	44	102	1048576	21	4974
2026-01-06 12:27:47.55	323.91	8.15	-30.7	-33.7	10.5	4.15e-03	0	43	102	1048576	21	5067
2026-01-06 12:27:50.56	324.26	7.98	-30.7	-33.7	10.5	4.04e-03	0	43	102	1048576	21	5068
2026-01-06 12:27:53.58	324.62	7.81	-30.6	-33.6	10.4	5.32e-03	0	43	102	1048576	21	5043
2026-01-06 12:27:56.59	324.97	7.64	-30.8	-34.0	10.1	7.08e-03	0	44	102	1048576	21	5236
2026-01-06 12:27:59.61	325.31	7.47	-30.8	-34.1	10.1	7.32e-03	0	43	102	1048576	21	5285
2026-01-06 12:28:02.63	325.66	7.30	-30.6	-33.4	10.6	3.26e-03	0	43	102	1048576	21	4996
2026-01-06 12:28:05.64	326.00	7.13	-30.2	-32.3	11.3	1.93e-03	0	43	102	1048576	21	4553
2026-01-06 12:28:08.66	326.33	6.97	-33.2	-45.5	3.8	1.49e+00	0	43	104	1048576	26	14832

#Closed at: 2026-01-06 12:28:09
#Recorded file [1 MB]: D:/data/31010_260106_151855.dat