passes_logs/2026/01/06/R2M6_AANII_01/R2M6_AANII_01__20260106_095918_FENGYUN_3D_rec.log

#Pass ID: 20260106_095918_FENGYUN 3D
#Satellite: FENGYUN 3D
#Configuration: FENGYUN 3D
#almurnet v.1.7.20240730
#Start time: 2026-01-06 09:59:17

#Version: 2.2.20231116
#Station: R2M6_AANII_01
#Location: 30.233357 lon 59.946436 lat
#TLE: 1 43010U 17072A   26005.48915933 -.00000051  00000+0 -21983-5 0  9995
#TLE: 2 43010  98.9919 337.1582 0002001 124.6377 235.4988 14.19691925421909

#Time	Az	El	Level	Level2	SNR	BER	BlckErr	Temp	State	Recorded	gain1	gain2
2026-01-06 09:59:17.85	87.14	6.97	-31.7	-38.3	4.2	8.38e-01	0	41	0	0	24	7619
2026-01-06 09:59:20.87	86.82	7.14	-30.2	-33.6	8.4	4.97e-02	0	41	102	1048576	21	5344
2026-01-06 09:59:23.88	86.49	7.31	-30.0	-33.0	8.8	3.79e-02	0	41	102	1048576	21	5094
2026-01-06 09:59:26.90	86.15	7.49	-29.7	-32.6	9.5	2.07e-02	0	41	102	1048576	20	5035
2026-01-06 09:59:29.93	85.81	7.66	-28.2	-30.3	12.0	6.06e-04	0	41	102	1048576	17	4576
2026-01-06 09:59:32.95	85.47	7.84	-27.1	-28.6	13.5	2.05e-05	0	41	102	1048576	15	4275
2026-01-06 09:59:35.96	85.12	8.02	-27.0	-28.3	13.7	1.71e-05	0	41	102	1048576	15	4207
2026-01-06 09:59:38.99	84.77	8.19	-26.9	-28.1	13.9	1.02e-05	0	42	102	1048576	15	4137
2026-01-06 09:59:42.00	84.41	8.37	-27.0	-28.3	13.8	9.10e-06	0	42	102	1048576	15	4199
2026-01-06 09:59:45.03	84.05	8.55	-26.9	-28.0	14.0	8.00e-06	0	42	102	1048576	15	4124
2026-01-06 09:59:48.05	83.69	8.72	-26.7	-28.1	14.2	4.50e-06	0	42	102	1048576	14	4236
2026-01-06 09:59:51.07	83.32	8.90	-26.5	-27.7	14.5	5.70e-06	0	42	102	1048576	14	4138
2026-01-06 09:59:54.09	82.94	9.08	-26.4	-27.4	14.7	0.00e+00	0	42	102	1048576	14	4058
2026-01-06 09:59:57.12	82.56	9.25	-26.4	-27.4	14.7	2.20e-06	0	42	102	1048576	14	4045
2026-01-06 10:00:00.14	82.18	9.43	-26.1	-27.4	15.0	0.00e+00	0	42	102	1048576	13	4157
2026-01-06 10:00:03.16	81.79	9.61	-26.4	-28.0	14.6	0.00e+00	0	42	102	1048576	13	4311
2026-01-06 10:00:06.17	81.40	9.78	-26.5	-28.1	14.6	0.00e+00	0	42	102	1048576	13	4351
2026-01-06 10:00:09.20	81.00	9.96	-26.5	-28.3	14.5	1.10e-06	0	42	102	1048576	13	4403
2026-01-06 10:00:12.22	80.60	10.14	-26.5	-28.3	14.5	1.10e-06	0	42	102	1048576	13	4394
2026-01-06 10:00:15.24	80.19	10.31	-26.6	-28.4	14.4	0.00e+00	0	42	102	1048576	13	4426
2026-01-06 10:00:18.26	79.78	10.49	-26.5	-28.1	14.7	2.20e-06	0	42	102	1048576	13	4332
2026-01-06 10:00:21.27	79.36	10.67	-26.5	-28.1	14.7	1.10e-06	0	42	102	1048576	13	4339
2026-01-06 10:00:24.29	78.94	10.84	-26.3	-27.7	14.9	0.00e+00	0	42	102	1048576	13	4238
2026-01-06 10:00:27.32	78.51	11.02	-26.1	-27.4	15.1	0.00e+00	0	42	102	1048576	13	4140
2026-01-06 10:00:30.34	78.08	11.19	-26.1	-27.2	15.2	0.00e+00	0	42	102	1048576	13	4102
2026-01-06 10:00:33.35	77.64	11.37	-25.9	-26.9	15.4	1.10e-06	0	43	102	1048576	13	4020
2026-01-06 10:00:36.37	77.19	11.54	-26.1	-27.1	15.3	0.00e+00	0	43	102	1048576	13	4084
2026-01-06 10:00:39.39	76.74	11.72	-26.0	-27.1	15.3	0.00e+00	0	42	102	1048576	13	4066
2026-01-06 10:00:42.39	76.29	11.89	-26.2	-27.5	15.1	0.00e+00	0	42	102	1048576	13	4164
2026-01-06 10:00:45.40	75.83	12.06	-26.0	-27.0	15.4	0.00e+00	0	42	102	1048576	13	4034
2026-01-06 10:00:48.42	75.37	12.23	-25.8	-27.1	15.6	0.00e+00	0	43	102	1048576	12	4164
2026-01-06 10:00:51.44	74.90	12.41	-25.9	-27.3	15.5	0.00e+00	0	43	102	1048576	12	4239
2026-01-06 10:00:54.46	74.42	12.58	-25.9	-27.3	15.5	0.00e+00	0	43	102	1048576	12	4235
2026-01-06 10:00:57.47	73.94	12.75	-26.0	-27.5	15.4	0.00e+00	0	43	102	1048576	12	4301
2026-01-06 10:01:00.49	73.45	12.92	-25.8	-27.2	15.6	0.00e+00	0	43	102	1048576	12	4198
2026-01-06 10:01:03.51	72.96	13.09	-26.0	-27.4	15.5	0.00e+00	0	43	102	1048576	12	4264
2026-01-06 10:01:06.53	72.46	13.25	-25.5	-26.4	16.0	0.00e+00	0	43	102	1048576	12	3990
2026-01-06 10:01:09.54	71.95	13.42	-25.4	-26.2	16.1	0.00e+00	0	43	102	1048576	12	3957
2026-01-06 10:01:12.56	71.44	13.58	-25.4	-26.2	16.1	0.00e+00	0	43	102	1048576	12	3941
2026-01-06 10:01:15.58	70.93	13.75	-25.4	-26.3	16.1	0.00e+00	0	43	102	1048576	12	3963
2026-01-06 10:01:18.59	70.40	13.91	-25.7	-26.8	16.0	0.00e+00	0	43	102	1048576	12	4069
2026-01-06 10:01:21.60	69.88	14.07	-25.6	-26.7	16.0	0.00e+00	0	43	102	1048576	12	4042
2026-01-06 10:01:24.62	69.34	14.23	-25.8	-27.0	15.9	0.00e+00	0	43	102	1048576	12	4128
2026-01-06 10:01:27.65	68.80	14.39	-25.7	-26.8	16.0	0.00e+00	0	43	102	1048576	12	4090
2026-01-06 10:01:30.68	68.25	14.55	-25.8	-26.9	15.9	0.00e+00	0	43	102	1048576	12	4104
2026-01-06 10:01:33.69	67.70	14.71	-25.3	-26.4	16.5	0.00e+00	0	43	102	1048576	11	4081
2026-01-06 10:01:36.71	67.15	14.86	-25.2	-26.1	16.7	0.00e+00	0	43	102	1048576	11	4008
2026-01-06 10:01:39.72	66.58	15.01	-25.4	-26.6	16.5	0.00e+00	0	43	102	1048576	11	4121
2026-01-06 10:01:42.75	66.01	15.16	-25.4	-26.6	16.5	0.00e+00	0	43	102	1048576	11	4121
2026-01-06 10:01:45.76	65.44	15.31	-25.3	-26.3	16.6	0.00e+00	0	43	102	1048576	11	4052
2026-01-06 10:01:48.78	64.86	15.46	-25.3	-26.3	16.6	0.00e+00	0	43	102	1048576	11	4046
2026-01-06 10:01:51.80	64.27	15.60	-25.3	-26.3	16.7	0.00e+00	0	43	102	1048576	11	4049
2026-01-06 10:01:54.81	63.68	15.74	-25.1	-25.9	16.9	0.00e+00	0	43	102	1048576	11	3958
2026-01-06 10:01:57.84	63.08	15.88	-25.1	-26.0	16.8	0.00e+00	0	43	102	1048576	11	3981
2026-01-06 10:02:00.86	62.48	16.02	-24.9	-25.6	17.1	0.00e+00	0	43	102	1048576	11	3873
2026-01-06 10:02:03.87	61.87	16.15	-24.9	-25.5	17.1	0.00e+00	0	43	102	1048576	11	3865
2026-01-06 10:02:06.89	61.26	16.29	-24.7	-25.6	17.4	0.00e+00	0	43	102	1048576	10	3974
2026-01-06 10:02:09.91	60.64	16.42	-24.7	-25.5	17.4	0.00e+00	0	43	102	1048576	10	3954
2026-01-06 10:02:12.93	60.01	16.54	-24.7	-25.6	17.4	0.00e+00	0	43	102	1048576	10	3969
2026-01-06 10:02:15.94	59.38	16.67	-24.8	-25.7	17.3	0.00e+00	0	43	102	1048576	10	4012
2026-01-06 10:02:18.96	58.75	16.79	-24.6	-25.4	17.5	0.00e+00	0	43	102	1048576	10	3936
2026-01-06 10:02:21.98	58.11	16.90	-24.4	-25.0	17.7	0.00e+00	0	43	102	1048576	10	3840
2026-01-06 10:02:25.01	57.46	17.02	-24.4	-25.0	17.7	0.00e+00	0	43	102	1048576	10	3841
2026-01-06 10:02:28.02	56.81	17.13	-24.5	-25.1	17.7	0.00e+00	0	43	102	1048576	10	3852
2026-01-06 10:02:31.04	56.15	17.24	-24.8	-25.7	17.3	1.10e-06	0	43	102	1048576	10	4014
2026-01-06 10:02:34.06	55.49	17.34	-24.7	-25.5	17.4	0.00e+00	0	43	102	1048576	10	3969
2026-01-06 10:02:37.08	54.83	17.45	-24.8	-25.7	17.4	0.00e+00	0	43	102	1048576	10	3992
2026-01-06 10:02:40.09	54.16	17.54	-24.6	-25.4	17.5	1.10e-06	0	43	102	1048576	10	3937
2026-01-06 10:02:43.11	53.49	17.64	-24.7	-25.6	17.4	0.00e+00	0	43	102	1048576	10	3978
2026-01-06 10:02:46.13	52.81	17.73	-24.5	-25.1	17.6	0.00e+00	0	43	102	1048576	10	3863
2026-01-06 10:02:49.16	52.13	17.81	-24.6	-25.3	17.6	0.00e+00	0	43	102	1048576	10	3912
2026-01-06 10:02:52.18	51.44	17.90	-24.5	-25.1	17.7	0.00e+00	0	43	102	1048576	10	3868
2026-01-06 10:02:55.20	50.75	17.97	-24.3	-24.8	17.9	0.00e+00	0	43	102	1048576	10	3779
2026-01-06 10:02:58.23	50.06	18.05	-24.5	-25.1	17.8	1.10e-06	0	43	102	1048576	10	3849
2026-01-06 10:03:01.25	49.36	18.12	-24.5	-25.1	17.7	0.00e+00	0	43	102	1048576	10	3865
2026-01-06 10:03:04.27	48.66	18.19	-24.7	-25.4	17.6	0.00e+00	0	43	102	1048576	10	3939
2026-01-06 10:03:07.29	47.96	18.25	-24.2	-24.9	18.1	0.00e+00	0	43	102	1048576	9	3921
2026-01-06 10:03:10.30	47.26	18.31	-24.0	-24.6	18.2	0.00e+00	0	43	102	1048576	9	3840
2026-01-06 10:03:13.33	46.55	18.36	-24.1	-24.7	18.2	0.00e+00	0	43	102	1048576	9	3860
2026-01-06 10:03:16.34	45.84	18.41	-24.1	-24.8	18.1	0.00e+00	0	43	102	1048576	9	3888
2026-01-06 10:03:19.36	45.13	18.45	-24.2	-25.0	18.0	0.00e+00	0	43	102	1048576	9	3951
2026-01-06 10:03:22.38	44.42	18.49	-24.2	-25.1	18.0	0.00e+00	0	43	102	1048576	9	3955
2026-01-06 10:03:25.40	43.70	18.53	-24.1	-24.7	18.2	0.00e+00	0	43	102	1048576	9	3868
2026-01-06 10:03:28.42	42.98	18.56	-24.2	-25.0	18.0	0.00e+00	0	43	102	1048576	9	3947
2026-01-06 10:03:31.44	42.27	18.58	-24.0	-24.5	18.3	0.00e+00	0	43	102	1048576	9	3820
2026-01-06 10:03:34.46	41.55	18.61	-24.0	-24.5	18.3	0.00e+00	0	43	102	1048576	9	3818
2026-01-06 10:03:37.47	40.83	18.62	-24.0	-24.5	18.3	0.00e+00	0	43	102	1048576	9	3837
2026-01-06 10:03:40.50	40.10	18.63	-24.1	-24.8	18.1	0.00e+00	0	43	102	1048576	9	3898
2026-01-06 10:03:43.51	39.39	18.64	-24.4	-25.3	17.9	0.00e+00	0	43	102	1048576	9	4021
2026-01-06 10:03:46.53	38.66	18.64	-24.4	-25.5	17.8	0.00e+00	0	43	102	1048576	9	4066
2026-01-06 10:03:49.55	37.94	18.64	-24.3	-25.2	17.9	0.00e+00	0	43	102	1048576	9	3998
2026-01-06 10:03:52.57	37.22	18.64	-24.2	-25.1	18.0	0.00e+00	0	43	102	1048576	9	3960
2026-01-06 10:03:55.59	36.50	18.62	-24.1	-24.7	18.2	0.00e+00	0	43	102	1048576	9	3879
2026-01-06 10:03:58.61	35.78	18.61	-24.0	-24.5	18.3	0.00e+00	0	43	102	1048576	9	3826
2026-01-06 10:04:01.63	35.06	18.59	-23.8	-24.5	18.6	0.00e+00	0	43	102	1048576	8	3939
2026-01-06 10:04:04.65	34.34	18.56	-23.9	-24.8	18.4	0.00e+00	0	43	102	1048576	8	4008
2026-01-06 10:04:07.67	33.62	18.53	-24.0	-25.0	18.3	0.00e+00	0	43	102	1048576	8	4055
2026-01-06 10:04:10.69	32.91	18.50	-24.1	-25.2	18.2	0.00e+00	0	44	102	1048576	8	4107
2026-01-06 10:04:13.70	32.20	18.46	-24.3	-25.6	18.0	0.00e+00	0	43	102	1048576	8	4205
2026-01-06 10:04:16.72	31.49	18.41	-24.2	-25.5	18.0	0.00e+00	0	44	102	1048576	8	4181
2026-01-06 10:04:19.73	30.78	18.37	-24.2	-25.6	18.0	0.00e+00	0	43	102	1048576	8	4195
2026-01-06 10:04:22.75	30.07	18.31	-24.2	-25.6	18.0	0.00e+00	0	43	102	1048576	8	4191
2026-01-06 10:04:25.76	29.37	18.26	-24.2	-25.5	18.0	0.00e+00	0	43	102	1048576	8	4187
2026-01-06 10:04:28.77	28.67	18.20	-24.2	-25.4	18.1	0.00e+00	0	43	102	1048576	8	4150
2026-01-06 10:04:31.80	27.97	18.13	-24.2	-25.6	18.0	0.00e+00	0	44	102	1048576	8	4200
2026-01-06 10:04:34.81	27.28	18.06	-24.3	-25.8	17.8	0.00e+00	0	43	102	1048576	8	4265
2026-01-06 10:04:37.83	26.59	17.99	-24.4	-25.9	17.8	0.00e+00	0	44	102	1048576	8	4267
2026-01-06 10:04:40.85	25.90	17.91	-24.2	-25.5	18.0	0.00e+00	0	43	102	1048576	8	4182
2026-01-06 10:04:43.87	25.21	17.83	-24.3	-25.6	17.9	0.00e+00	0	43	102	1048576	8	4204
2026-01-06 10:04:46.89	24.53	17.74	-24.0	-25.1	18.2	0.00e+00	0	43	102	1048576	8	4081
2026-01-06 10:04:49.90	23.86	17.65	-24.3	-25.7	17.9	0.00e+00	0	43	102	1048576	8	4231
2026-01-06 10:04:52.92	23.18	17.56	-24.3	-25.7	17.9	0.00e+00	0	44	102	1048576	8	4219
2026-01-06 10:04:55.95	22.51	17.46	-24.5	-25.6	17.6	0.00e+00	0	44	102	1048576	9	4094
2026-01-06 10:04:58.97	21.85	17.36	-24.2	-25.0	18.0	0.00e+00	0	44	102	1048576	9	3932
2026-01-06 10:05:02.00	21.19	17.26	-24.3	-25.2	17.9	0.00e+00	0	43	102	1048576	9	3986
2026-01-06 10:05:05.03	20.53	17.15	-24.3	-25.2	17.9	0.00e+00	0	43	102	1048576	9	3983
2026-01-06 10:05:08.04	19.88	17.04	-24.4	-25.5	17.7	0.00e+00	0	43	102	1048576	9	4070
2026-01-06 10:05:11.06	19.24	16.92	-24.5	-25.5	17.7	0.00e+00	0	43	102	1048576	9	4075
2026-01-06 10:05:14.07	18.60	16.81	-24.9	-26.5	17.1	0.00e+00	0	43	102	1048576	9	4332
2026-01-06 10:05:17.10	17.96	16.69	-25.3	-26.8	16.7	0.00e+00	0	43	102	1048576	10	4290
2026-01-06 10:05:20.12	17.33	16.56	-25.0	-26.1	17.1	0.00e+00	0	43	102	1048576	10	4114
2026-01-06 10:05:23.14	16.71	16.44	-24.8	-25.8	17.3	0.00e+00	0	43	102	1048576	10	4037
2026-01-06 10:05:26.16	16.09	16.31	-24.7	-25.4	17.5	0.00e+00	0	44	102	1048576	10	3938
2026-01-06 10:05:29.19	15.47	16.18	-24.7	-25.7	17.4	0.00e+00	0	43	102	1048576	10	3994
2026-01-06 10:05:32.19	14.87	16.04	-25.1	-26.4	16.9	0.00e+00	0	43	102	1048576	10	4183
2026-01-06 10:05:35.21	14.26	15.91	-25.1	-26.5	16.9	0.00e+00	0	43	102	1048576	10	4206
2026-01-06 10:05:38.23	13.67	15.77	-25.1	-26.4	16.9	0.00e+00	0	43	102	1048576	10	4182
2026-01-06 10:05:41.26	13.07	15.62	-25.1	-26.5	16.9	0.00e+00	0	44	102	1048576	10	4214
2026-01-06 10:05:44.28	12.49	15.48	-25.3	-26.8	16.7	0.00e+00	0	44	102	1048576	10	4280
2026-01-06 10:05:47.31	11.91	15.33	-25.0	-26.1	17.0	0.00e+00	0	43	102	1048576	10	4119
2026-01-06 10:05:50.32	11.33	15.19	-25.2	-26.6	16.8	0.00e+00	0	44	102	1048576	10	4243
2026-01-06 10:05:53.34	10.77	15.04	-25.2	-26.6	16.8	0.00e+00	0	43	102	1048576	10	4224
2026-01-06 10:05:56.36	10.20	14.89	-25.3	-26.8	16.6	0.00e+00	0	43	102	1048576	10	4300
2026-01-06 10:05:59.38	9.65	14.73	-25.2	-26.7	16.7	0.00e+00	0	43	102	1048576	10	4253
2026-01-06 10:06:02.39	9.10	14.58	-25.2	-26.5	16.8	0.00e+00	0	43	102	1048576	10	4216
2026-01-06 10:06:05.42	8.55	14.42	-25.3	-26.8	16.6	0.00e+00	0	43	102	1048576	10	4294
2026-01-06 10:06:08.43	8.01	14.26	-25.2	-26.7	16.7	0.00e+00	0	43	102	1048576	10	4256
2026-01-06 10:06:11.46	7.48	14.10	-25.3	-26.8	16.6	0.00e+00	0	43	102	1048576	10	4294
2026-01-06 10:06:14.48	6.95	13.94	-25.4	-27.1	16.4	0.00e+00	0	43	102	1048576	10	4384
2026-01-06 10:06:17.50	6.43	13.78	-25.3	-26.9	16.5	0.00e+00	0	43	102	1048576	10	4322
2026-01-06 10:06:20.51	5.92	13.62	-25.3	-27.0	16.5	0.00e+00	0	43	102	1048576	10	4335
2026-01-06 10:06:23.53	5.41	13.45	-25.4	-27.1	16.4	0.00e+00	0	43	102	1048576	10	4378
2026-01-06 10:06:26.55	4.90	13.28	-25.4	-27.2	16.4	0.00e+00	0	43	102	1048576	10	4388
2026-01-06 10:06:29.57	4.40	13.12	-25.8	-27.4	16.0	0.00e+00	0	43	102	1048576	11	4334
2026-01-06 10:06:32.57	3.91	12.95	-25.7	-27.3	16.0	0.00e+00	0	43	102	1048576	11	4318
2026-01-06 10:06:35.60	3.42	12.78	-25.8	-27.5	15.9	0.00e+00	0	43	102	1048576	11	4369
2026-01-06 10:06:38.62	2.94	12.61	-25.8	-27.0	15.8	0.00e+00	0	43	102	1048576	12	4127
2026-01-06 10:06:41.65	2.47	12.44	-25.7	-26.8	15.9	0.00e+00	0	43	102	1048576	12	4078
2026-01-06 10:06:44.66	2.00	12.27	-25.8	-27.0	15.8	0.00e+00	0	43	102	1048576	12	4123
2026-01-06 10:06:47.68	1.53	12.10	-25.7	-26.9	15.9	0.00e+00	0	43	102	1048576	12	4098
2026-01-06 10:06:50.69	1.08	11.93	-25.9	-27.2	15.7	0.00e+00	0	43	102	1048576	12	4174
2026-01-06 10:06:53.72	0.62	11.75	-25.9	-27.2	15.6	0.00e+00	0	44	102	1048576	12	4191
2026-01-06 10:06:56.74	0.17	11.58	-26.0	-27.5	15.5	0.00e+00	0	44	102	1048576	12	4260
2026-01-06 10:06:59.76	359.73	11.40	-26.0	-27.4	15.5	0.00e+00	0	44	102	1048576	12	4242
2026-01-06 10:07:02.78	359.29	11.23	-26.1	-27.6	15.4	0.00e+00	0	44	102	1048576	12	4291
2026-01-06 10:07:05.80	358.86	11.05	-26.2	-27.8	15.3	0.00e+00	0	44	102	1048576	12	4340
2026-01-06 10:07:08.82	358.43	10.88	-26.2	-27.8	15.3	0.00e+00	0	44	102	1048576	12	4339
2026-01-06 10:07:11.84	358.01	10.70	-26.0	-27.5	15.4	0.00e+00	0	44	102	1048576	12	4258
2026-01-06 10:07:14.86	357.60	10.53	-26.2	-27.9	15.2	0.00e+00	0	44	102	1048576	12	4372
2026-01-06 10:07:17.88	357.18	10.35	-26.3	-28.1	15.1	0.00e+00	0	44	102	1048576	12	4436
2026-01-06 10:07:20.90	356.78	10.17	-26.3	-28.1	15.0	1.10e-06	0	44	102	1048576	12	4440
2026-01-06 10:07:23.91	356.38	10.00	-26.8	-28.8	14.3	0.00e+00	0	44	102	1048576	13	4526
2026-01-06 10:07:26.94	355.98	9.82	-26.6	-28.2	14.7	1.10e-06	0	44	102	1048576	13	4345
2026-01-06 10:07:29.96	355.59	9.65	-26.4	-27.8	14.9	1.10e-06	0	43	102	1048576	13	4232
2026-01-06 10:07:32.98	355.20	9.47	-26.6	-28.3	14.6	0.00e+00	0	44	102	1048576	13	4370
2026-01-06 10:07:35.99	354.82	9.29	-26.5	-28.1	14.7	0.00e+00	0	43	102	1048576	13	4332
2026-01-06 10:07:39.01	354.45	9.12	-26.6	-28.2	14.6	0.00e+00	0	43	102	1048576	13	4354
2026-01-06 10:07:42.03	354.07	8.94	-26.6	-28.3	14.6	1.10e-06	0	44	102	1048576	13	4372
2026-01-06 10:07:45.05	353.70	8.76	-26.7	-28.5	14.4	1.10e-06	0	44	102	1048576	13	4451
2026-01-06 10:07:48.07	353.34	8.59	-26.8	-28.7	14.3	2.20e-06	0	43	102	1048576	13	4502
2026-01-06 10:07:51.08	352.98	8.41	-26.7	-28.6	14.4	2.20e-06	0	44	102	1048576	13	4463
2026-01-06 10:07:54.10	352.63	8.24	-27.0	-28.7	14.0	5.70e-06	0	43	102	1048576	14	4374
2026-01-06 10:07:57.12	352.28	8.06	-27.1	-29.0	13.8	1.37e-05	0	43	102	1048576	14	4483
2026-01-06 10:08:00.15	351.93	7.88	-27.1	-28.9	13.9	2.20e-06	0	44	102	1048576	14	4442
2026-01-06 10:08:03.16	351.59	7.71	-27.0	-28.7	13.9	5.70e-06	0	44	102	1048576	14	4375
2026-01-06 10:08:06.19	351.25	7.53	-27.2	-29.2	13.6	1.25e-05	0	44	102	1048576	14	4525
2026-01-06 10:08:09.20	350.92	7.36	-27.1	-29.1	13.6	1.25e-05	0	43	102	1048576	14	4511
2026-01-06 10:08:12.22	350.59	7.19	-27.0	-28.7	13.8	1.37e-05	0	44	102	1048576	14	4408
2026-01-06 10:08:15.25	350.27	7.01	-32.8	-42.9	3.8	8.41e-01	0	44	104	1048576	25	11438

#Closed at: 2026-01-06 10:08:16
#Recorded file [1 MB]: D:/data/31010_260106_125919.dat