passes_logs/2026/01/06/R2M6_AANII_01/R2M6_AANII_01__20260106_221534_NOAA_21_JPSS-2_rec.log

#Pass ID: 20260106_221534_NOAA 21 (JPSS-2)
#Satellite: NOAA 21 (JPSS-2)
#Configuration: NOAA 21
#almurnet v.1.7.20240730
#Start time: 2026-01-06 22:15:34

#Version: 2.2.20231116
#Station: R2M6_AANII_01
#Location: 30.233357 lon 59.946436 lat
#TLE: 1 54234U 22150A   26005.56767909  .00000152  00000+0  92756-4 0  9990
#TLE: 2 54234  98.7490 306.5820 0001036 340.2747  19.8389 14.19532370163472

#Time	Az	El	Level	Level2	SNR	BER	BlckErr	Temp	State	Recorded	gain1	gain2
2026-01-06 22:15:34.79	36.08	7.01	-30.1	-34.8	4.7	1.35e+00	0	41	0	0	20	6182
2026-01-06 22:15:37.80	36.44	7.16	-31.5	-37.9	6.0	2.92e-01	0	41	102	1048576	22	7551
2026-01-06 22:15:40.82	36.81	7.32	-30.9	-35.5	7.6	1.12e-01	0	41	102	1048576	22	6129
2026-01-06 22:15:43.84	37.18	7.47	-30.1	-33.3	9.5	1.63e-02	0	41	102	1048576	21	5214
2026-01-06 22:15:46.86	37.55	7.63	-29.8	-32.8	10.3	4.84e-03	0	41	102	1048576	20	5129
2026-01-06 22:15:49.88	37.93	7.78	-29.1	-31.4	11.7	7.55e-04	0	41	102	1048576	19	4694
2026-01-06 22:15:52.91	38.31	7.94	-29.4	-32.2	11.2	1.29e-03	0	42	102	1048576	19	4964
2026-01-06 22:15:55.93	38.70	8.09	-29.3	-32.0	11.3	1.29e-03	0	41	102	1048576	19	4903
2026-01-06 22:15:58.95	39.09	8.25	-28.9	-30.8	12.1	2.73e-04	0	42	102	1048576	19	4503
2026-01-06 22:16:01.97	39.48	8.40	-28.8	-30.7	12.2	2.71e-04	0	42	102	1048576	19	4456
2026-01-06 22:16:04.99	39.88	8.56	-28.7	-30.8	12.6	1.27e-04	0	42	102	1048576	18	4593
2026-01-06 22:16:08.01	40.28	8.71	-28.7	-30.7	12.7	8.08e-05	0	42	102	1048576	18	4536
2026-01-06 22:16:11.03	40.69	8.87	-28.4	-29.9	13.1	2.05e-05	0	42	102	1048576	18	4300
2026-01-06 22:16:14.06	41.10	9.02	-28.2	-30.0	13.4	9.90e-06	0	42	102	1048576	17	4420
2026-01-06 22:16:17.07	41.51	9.17	-28.4	-30.5	13.1	2.44e-05	0	42	102	1048576	17	4582
2026-01-06 22:16:20.09	41.93	9.33	-28.4	-30.6	13.0	3.73e-05	0	42	102	1048576	17	4630
2026-01-06 22:16:23.10	42.35	9.48	-28.6	-31.2	12.6	7.32e-05	0	42	102	1048576	17	4809
2026-01-06 22:16:26.12	42.78	9.63	-28.2	-29.9	13.4	1.22e-05	0	42	102	1048576	17	4405
2026-01-06 22:16:29.13	43.21	9.78	-28.2	-30.0	13.4	1.22e-05	0	43	102	1048576	17	4412
2026-01-06 22:16:32.15	43.65	9.93	-28.1	-29.7	13.6	4.50e-06	0	42	102	1048576	17	4346
2026-01-06 22:16:35.17	44.09	10.08	-28.2	-29.9	13.5	9.10e-06	0	42	102	1048576	17	4411
2026-01-06 22:16:38.19	44.53	10.23	-28.0	-30.1	13.7	7.60e-06	0	42	102	1048576	16	4561
2026-01-06 22:16:41.20	44.98	10.38	-28.0	-29.9	13.8	3.80e-06	0	42	102	1048576	16	4517
2026-01-06 22:16:44.23	45.43	10.53	-27.9	-29.7	14.0	3.80e-06	0	43	102	1048576	16	4443
2026-01-06 22:16:47.24	45.89	10.68	-27.9	-29.8	13.9	2.20e-06	0	42	102	1048576	16	4464
2026-01-06 22:16:50.27	46.36	10.83	-27.9	-29.6	14.0	2.20e-06	0	43	102	1048576	16	4422
2026-01-06 22:16:53.30	46.82	10.98	-27.9	-29.8	13.9	4.50e-06	0	42	102	1048576	16	4466
2026-01-06 22:16:56.32	47.30	11.12	-27.9	-29.8	14.0	2.20e-06	0	43	102	1048576	16	4472
2026-01-06 22:16:59.33	47.77	11.27	-28.1	-30.1	13.8	4.50e-06	0	42	102	1048576	16	4567
2026-01-06 22:17:02.36	48.25	11.41	-28.0	-29.9	13.9	6.10e-06	0	43	102	1048576	16	4498
2026-01-06 22:17:05.38	48.74	11.56	-28.0	-29.9	14.0	5.30e-06	0	43	102	1048576	16	4479
2026-01-06 22:17:08.39	49.23	11.70	-27.8	-30.1	13.9	3.80e-06	0	43	102	1048576	15	4691
2026-01-06 22:17:11.41	49.72	11.84	-28.2	-30.4	13.7	8.30e-06	0	43	102	1048576	16	4639
2026-01-06 22:17:14.44	50.22	11.98	-28.3	-30.6	13.5	9.90e-06	0	43	102	1048576	16	4717
2026-01-06 22:17:17.45	50.72	12.12	-28.2	-30.5	13.6	9.10e-06	0	43	102	1048576	16	4686
2026-01-06 22:17:20.46	51.23	12.26	-28.2	-30.4	13.7	6.10e-06	0	43	102	1048576	16	4633
2026-01-06 22:17:23.47	51.74	12.39	-28.0	-30.0	13.9	2.20e-06	0	43	102	1048576	16	4533
2026-01-06 22:17:26.49	52.26	12.53	-28.1	-30.1	13.9	4.50e-06	0	43	102	1048576	16	4547
2026-01-06 22:17:29.50	52.78	12.66	-28.1	-30.3	13.8	6.10e-06	0	43	102	1048576	16	4611
2026-01-06 22:17:32.51	53.31	12.79	-27.5	-29.6	13.5	7.85e-05	0	43	102	1048576	16	4590
2026-01-06 22:17:35.54	53.84	12.93	-28.1	-30.3	13.7	1.22e-05	0	43	102	1048576	16	4605
2026-01-06 22:17:38.56	54.38	13.05	-28.1	-30.2	13.8	6.25e-04	0	43	102	1048576	16	4580
2026-01-06 22:17:41.58	54.92	13.18	-28.1	-30.2	13.8	3.80e-06	0	43	102	1048576	16	4589
2026-01-06 22:17:44.59	55.46	13.31	-28.2	-30.3	13.8	6.10e-06	0	43	102	1048576	16	4615
2026-01-06 22:17:47.61	56.01	13.43	-27.9	-30.2	14.0	8.12e-04	0	43	102	1048576	15	4697
2026-01-06 22:17:50.62	56.56	13.56	-27.8	-30.0	14.1	1.27e-03	0	43	102	1048576	15	4634
2026-01-06 22:17:53.64	57.12	13.68	-27.7	-29.9	14.2	7.08e-04	0	43	102	1048576	15	4595
2026-01-06 22:17:56.66	57.69	13.80	-27.8	-29.9	14.2	6.83e-04	0	43	102	1048576	15	4608
2026-01-06 22:17:59.67	58.25	13.91	-27.8	-30.0	14.1	2.04e-03	0	43	102	1048576	15	4649
2026-01-06 22:18:02.69	58.82	14.03	-27.6	-29.5	14.4	2.20e-06	0	43	102	1048576	15	4489
2026-01-06 22:18:05.71	59.40	14.14	-27.4	-29.1	14.7	2.25e-04	0	43	102	1048576	15	4356
2026-01-06 22:18:08.73	59.98	14.25	-27.5	-29.4	14.5	1.50e-06	0	43	102	1048576	15	4438
2026-01-06 22:18:11.75	60.57	14.36	-27.7	-29.7	14.4	1.15e-04	0	43	102	1048576	15	4540
2026-01-06 22:18:14.76	61.15	14.46	-27.7	-29.7	14.4	2.20e-06	0	43	102	1048576	15	4540
2026-01-06 22:18:17.77	61.74	14.57	-27.6	-29.5	14.5	7.00e-07	0	43	102	1048576	15	4483
2026-01-06 22:18:20.79	62.34	14.67	-27.5	-29.3	14.6	0.00e+00	0	43	102	1048576	15	4428
2026-01-06 22:18:23.81	62.94	14.77	-27.3	-28.9	14.8	7.00e-07	0	43	102	1048576	15	4304
2026-01-06 22:18:26.83	63.55	14.87	-27.4	-29.4	14.8	7.00e-07	0	43	102	1048576	14	4564
2026-01-06 22:18:29.86	64.16	14.96	-27.5	-29.2	14.7	7.00e-07	0	43	102	1048576	15	4384
2026-01-06 22:18:32.88	64.77	15.05	-27.6	-29.5	14.5	7.00e-07	0	43	102	1048576	15	4487
2026-01-06 22:18:35.90	65.39	15.14	-27.6	-29.4	14.5	7.00e-07	0	43	102	1048576	15	4460
2026-01-06 22:18:38.92	66.01	15.22	-27.5	-29.3	14.6	0.00e+00	0	43	102	1048576	15	4422
2026-01-06 22:18:41.94	66.63	15.31	-27.5	-29.4	14.6	7.00e-07	0	43	102	1048576	15	4439
2026-01-06 22:18:44.97	67.26	15.39	-27.5	-29.3	14.7	7.00e-07	0	43	102	1048576	15	4407
2026-01-06 22:18:47.97	67.88	15.46	-27.3	-28.8	14.9	0.00e+00	0	43	102	1048576	15	4279
2026-01-06 22:18:50.99	68.52	15.54	-27.4	-29.6	14.8	0.00e+00	0	43	102	1048576	14	4610
2026-01-06 22:18:54.01	69.15	15.61	-27.5	-29.4	14.6	1.50e-06	0	43	102	1048576	15	4445
2026-01-06 22:18:57.03	69.79	15.68	-27.3	-28.7	14.9	7.00e-07	0	43	102	1048576	15	4264
2026-01-06 22:19:00.04	70.43	15.74	-27.2	-28.7	14.5	6.53e-04	0	43	102	1048576	15	4242
2026-01-06 22:19:03.06	71.08	15.80	-27.5	-29.2	14.7	0.00e+00	0	43	102	1048576	15	4387
2026-01-06 22:19:06.07	71.72	15.86	-27.4	-29.6	14.8	0.00e+00	0	43	102	1048576	14	4606
2026-01-06 22:19:09.09	72.37	15.92	-27.4	-29.5	14.8	0.00e+00	0	43	102	1048576	14	4581
2026-01-06 22:19:12.11	73.02	15.97	-27.4	-28.9	14.9	0.00e+00	0	44	102	1048576	15	4315
2026-01-06 22:19:15.13	73.68	16.01	-27.2	-28.5	15.1	1.58e-04	0	44	102	1048576	15	4176
2026-01-06 22:19:18.15	74.33	16.06	-27.2	-28.5	15.1	1.80e-04	0	43	102	1048576	15	4197
2026-01-06 22:19:21.17	74.99	16.10	-27.5	-29.3	14.7	8.01e-05	0	43	102	1048576	15	4407
2026-01-06 22:19:24.19	75.65	16.14	-27.5	-29.2	14.7	1.31e-04	0	43	102	1048576	15	4398
2026-01-06 22:19:27.20	76.31	16.17	-27.6	-29.5	14.6	6.84e-04	0	43	102	1048576	15	4461
2026-01-06 22:19:30.22	76.97	16.20	-27.6	-29.4	14.6	7.00e-07	0	43	102	1048576	15	4454
2026-01-06 22:19:33.24	77.63	16.23	-27.6	-29.5	14.5	6.33e-04	0	43	102	1048576	15	4465
2026-01-06 22:19:36.27	78.30	16.25	-27.3	-29.3	15.0	0.00e+00	0	43	102	1048576	14	4530
2026-01-06 22:19:39.28	78.97	16.27	-27.3	-29.4	14.9	0.00e+00	0	43	102	1048576	14	4550
2026-01-06 22:19:42.30	79.63	16.29	-27.3	-29.4	14.9	0.00e+00	0	43	102	1048576	14	4554
2026-01-06 22:19:45.32	80.30	16.30	-27.4	-29.5	14.8	0.00e+00	0	43	102	1048576	14	4586
2026-01-06 22:19:48.34	80.97	16.31	-27.5	-29.7	14.7	0.00e+00	0	43	102	1048576	14	4638
2026-01-06 22:19:51.36	81.64	16.31	-27.4	-29.1	14.8	0.00e+00	0	43	102	1048576	15	4366
2026-01-06 22:19:54.38	82.30	16.32	-27.5	-29.2	14.7	0.00e+00	0	43	102	1048576	15	4386
2026-01-06 22:19:57.41	82.97	16.31	-27.4	-29.1	14.8	0.00e+00	0	43	102	1048576	15	4362
2026-01-06 22:20:00.43	83.64	16.31	-27.4	-29.0	14.9	0.00e+00	0	44	102	1048576	15	4328
2026-01-06 22:20:03.45	84.31	16.30	-27.5	-29.2	14.7	0.00e+00	0	43	102	1048576	15	4383
2026-01-06 22:20:06.46	84.98	16.28	-27.3	-28.7	15.0	0.00e+00	0	43	102	1048576	15	4240
2026-01-06 22:20:09.48	85.64	16.27	-27.5	-29.2	14.7	0.00e+00	0	43	102	1048576	15	4390
2026-01-06 22:20:12.50	86.31	16.25	-27.5	-29.2	14.6	1.50e-06	0	43	102	1048576	15	4406
2026-01-06 22:20:15.52	86.97	16.22	-27.7	-29.8	14.3	7.00e-07	0	44	102	1048576	15	4575
2026-01-06 22:20:18.53	87.64	16.19	-27.8	-30.0	14.2	0.00e+00	0	43	102	1048576	15	4643
2026-01-06 22:20:21.55	88.30	16.16	-28.2	-30.4	13.9	7.00e-07	0	43	102	1048576	16	4628
2026-01-06 22:20:24.57	88.96	16.13	-27.6	-28.9	14.8	0.00e+00	0	43	102	1048576	16	4179
2026-01-06 22:20:27.59	89.62	16.09	-27.5	-28.7	14.9	0.00e+00	0	43	102	1048576	16	4134
2026-01-06 22:20:30.62	90.28	16.05	-27.5	-28.7	14.9	0.00e+00	0	43	102	1048576	16	4136
2026-01-06 22:20:33.63	90.94	16.00	-27.6	-28.9	14.7	7.00e-07	0	43	102	1048576	16	4204
2026-01-06 22:20:36.66	91.59	15.95	-27.7	-29.2	14.6	1.50e-06	0	43	102	1048576	16	4270
2026-01-06 22:20:39.66	92.24	15.90	-27.6	-28.9	14.7	7.00e-07	0	44	102	1048576	16	4205
2026-01-06 22:20:42.67	92.89	15.84	-27.3	-28.8	14.9	0.00e+00	0	43	102	1048576	15	4274
2026-01-06 22:20:45.70	93.54	15.78	-27.4	-29.0	14.8	1.05e-04	0	43	102	1048576	15	4341
2026-01-06 22:20:48.72	94.18	15.72	-27.3	-28.9	14.8	1.98e-05	0	43	102	1048576	15	4321
2026-01-06 22:20:51.73	94.82	15.66	-27.4	-29.0	14.8	7.00e-07	0	43	102	1048576	15	4330
2026-01-06 22:20:54.75	95.46	15.59	-27.1	-28.4	15.1	3.20e-05	0	43	102	1048576	15	4159
2026-01-06 22:20:57.77	96.10	15.51	-27.2	-29.0	15.0	2.28e-05	0	43	102	1048576	14	4441
2026-01-06 22:21:00.79	96.73	15.44	-27.2	-29.0	15.0	6.25e-05	0	43	102	1048576	14	4436
2026-01-06 22:21:03.81	97.36	15.36	-27.3	-29.2	14.8	7.00e-07	0	43	102	1048576	14	4513
2026-01-06 22:21:06.84	97.99	15.28	-27.2	-29.2	14.9	1.14e-05	0	44	102	1048576	14	4500
2026-01-06 22:21:09.87	98.62	15.20	-27.3	-29.2	14.8	0.00e+00	0	44	102	1048576	14	4510
2026-01-06 22:21:12.88	99.24	15.11	-27.7	-29.7	14.3	5.49e-05	0	44	102	1048576	15	4558
2026-01-06 22:21:15.90	99.86	15.02	-27.2	-28.6	15.0	6.80e-06	0	43	102	1048576	15	4212
2026-01-06 22:21:18.92	100.47	14.93	-27.1	-28.2	15.1	0.00e+00	0	43	102	1048576	15	4130
2026-01-06 22:21:21.93	101.08	14.83	-27.1	-28.3	15.1	0.00e+00	0	44	102	1048576	15	4143
2026-01-06 22:21:24.94	101.68	14.73	-27.2	-28.5	15.0	0.00e+00	0	43	102	1048576	15	4204
2026-01-06 22:21:27.97	102.28	14.63	-27.3	-28.8	14.8	0.00e+00	0	44	102	1048576	15	4274
2026-01-06 22:21:30.98	102.88	14.53	-27.3	-28.8	14.7	7.00e-07	0	43	102	1048576	15	4296
2026-01-06 22:21:34.00	103.48	14.43	-27.4	-29.0	14.7	7.00e-07	0	44	102	1048576	15	4326
2026-01-06 22:21:37.02	104.07	14.32	-27.3	-29.5	14.7	0.00e+00	0	44	102	1048576	14	4588
2026-01-06 22:21:40.04	104.65	14.21	-27.3	-29.3	14.8	3.00e-06	0	43	102	1048576	14	4547
2026-01-06 22:21:43.06	105.23	14.10	-27.3	-28.8	14.7	1.50e-06	0	43	102	1048576	15	4300
2026-01-06 22:21:46.07	105.81	13.98	-27.3	-28.9	14.7	6.10e-06	0	44	102	1048576	15	4316
2026-01-06 22:21:49.09	106.38	13.87	-27.3	-28.7	14.8	9.90e-06	0	44	102	1048576	15	4261
2026-01-06 22:21:52.11	106.95	13.75	-27.5	-29.2	14.6	1.98e-05	0	44	102	1048576	15	4398
2026-01-06 22:21:55.13	107.51	13.63	-27.6	-29.5	14.4	1.06e-05	0	44	102	1048576	15	4492
2026-01-06 22:21:58.15	108.07	13.50	-27.6	-29.6	14.3	7.93e-04	0	44	102	1048576	15	4514
2026-01-06 22:22:01.18	108.63	13.38	-27.5	-29.3	14.5	1.60e-05	0	44	102	1048576	15	4422
2026-01-06 22:22:04.19	109.18	13.25	-27.4	-29.1	14.6	0.00e+00	0	44	102	1048576	15	4382
2026-01-06 22:22:07.22	109.73	13.12	-27.6	-29.4	14.3	3.00e-06	0	44	102	1048576	15	4472
2026-01-06 22:22:10.24	110.27	13.00	-27.7	-29.7	14.2	2.74e-05	0	43	102	1048576	15	4547
2026-01-06 22:22:13.25	110.81	12.86	-27.7	-29.7	14.2	7.00e-07	0	44	102	1048576	15	4550
2026-01-06 22:22:16.28	111.34	12.73	-27.7	-29.7	14.2	1.61e-04	0	43	102	1048576	15	4556
2026-01-06 22:22:19.29	111.87	12.60	-27.8	-30.1	13.9	2.09e-04	0	44	102	1048576	15	4670
2026-01-06 22:22:22.30	112.39	12.46	-27.8	-30.0	14.0	1.50e-06	0	44	102	1048576	15	4630
2026-01-06 22:22:25.32	112.91	12.33	-27.8	-30.0	14.0	3.58e-04	0	44	102	1048576	15	4646
2026-01-06 22:22:28.35	113.42	12.19	-27.9	-30.2	13.9	1.50e-06	0	43	102	1048576	15	4707
2026-01-06 22:22:31.37	113.93	12.05	-27.9	-30.3	13.8	6.10e-06	0	43	102	1048576	15	4744
2026-01-06 22:22:34.39	114.44	11.91	-27.9	-30.4	13.7	5.30e-06	0	43	102	1048576	15	4767
2026-01-06 22:22:37.41	114.94	11.76	-27.9	-30.3	13.8	3.80e-06	0	44	102	1048576	15	4740
2026-01-06 22:22:40.42	115.43	11.62	-27.9	-30.3	13.7	2.20e-06	0	44	102	1048576	15	4755
2026-01-06 22:22:43.44	115.92	11.48	-28.2	-30.4	13.6	6.10e-06	0	44	102	1048576	16	4636
2026-01-06 22:22:46.46	116.41	11.33	-28.2	-30.5	13.5	1.37e-05	0	44	102	1048576	16	4686
2026-01-06 22:22:49.48	116.89	11.19	-28.3	-30.6	13.4	1.22e-05	0	44	102	1048576	16	4731
2026-01-06 22:22:52.50	117.36	11.04	-28.2	-30.5	13.4	1.06e-05	0	44	102	1048576	16	4680
2026-01-06 22:22:55.51	117.83	10.89	-28.2	-30.6	13.4	1.29e-05	0	44	102	1048576	16	4717
2026-01-06 22:22:58.51	118.30	10.74	-28.3	-30.3	13.3	1.90e-05	0	43	102	1048576	17	4502
2026-01-06 22:23:01.53	118.76	10.60	-28.3	-30.3	13.2	2.36e-05	0	44	102	1048576	17	4515
2026-01-06 22:23:04.55	119.22	10.45	-28.2	-30.1	13.4	1.29e-05	0	44	102	1048576	17	4470
2026-01-06 22:23:07.56	119.67	10.30	-28.2	-30.1	13.3	1.83e-05	0	43	102	1048576	17	4463
2026-01-06 22:23:10.59	120.12	10.14	-28.4	-30.4	13.1	2.97e-05	0	44	102	1048576	17	4541
2026-01-06 22:23:13.62	120.57	9.99	-28.3	-30.8	13.2	1.37e-05	0	43	102	1048576	16	4787
2026-01-06 22:23:16.64	121.01	9.84	-28.3	-30.8	13.2	2.21e-05	0	43	102	1048576	16	4778
2026-01-06 22:23:19.66	121.45	9.69	-28.2	-30.6	13.3	3.05e-04	0	44	102	1048576	16	4713
2026-01-06 22:23:22.69	121.88	9.53	-28.3	-30.7	13.2	8.30e-06	0	44	102	1048576	16	4757
2026-01-06 22:23:25.71	122.31	9.38	-28.3	-30.6	13.2	2.97e-05	0	44	102	1048576	16	4742
2026-01-06 22:23:28.73	122.73	9.22	-28.3	-30.8	13.1	2.58e-04	0	43	102	1048576	16	4797
2026-01-06 22:23:31.76	123.15	9.07	-28.3	-30.8	13.1	3.89e-05	0	43	102	1048576	16	4805
2026-01-06 22:23:34.78	123.56	8.91	-28.4	-31.1	12.9	4.42e-05	0	43	102	1048576	16	4898
2026-01-06 22:23:37.80	123.97	8.76	-28.5	-30.9	12.7	1.05e-04	0	43	102	1048576	17	4719
2026-01-06 22:23:40.82	124.38	8.60	-28.7	-31.2	12.5	1.26e-04	0	43	102	1048576	17	4829
2026-01-06 22:23:43.83	124.78	8.45	-28.8	-31.5	12.3	1.76e-04	0	43	102	1048576	17	4934
2026-01-06 22:23:46.85	125.18	8.29	-28.8	-31.7	12.0	2.87e-04	0	44	102	1048576	17	5023
2026-01-06 22:23:49.86	125.57	8.13	-28.8	-31.6	12.2	2.34e-04	0	44	102	1048576	17	4966
2026-01-06 22:23:52.88	125.96	7.98	-28.9	-31.9	11.9	4.09e-04	0	43	102	1048576	17	5077
2026-01-06 22:23:55.91	126.35	7.82	-28.9	-31.8	11.9	4.20e-04	0	44	102	1048576	17	5058
2026-01-06 22:23:58.91	126.72	7.66	-28.9	-31.8	12.0	4.32e-04	0	44	102	1048576	17	5052
2026-01-06 22:24:01.94	127.10	7.51	-29.2	-32.1	11.4	7.33e-04	0	43	102	1048576	18	5046
2026-01-06 22:24:04.95	127.48	7.35	-28.8	-31.2	12.0	3.48e-04	0	44	102	1048576	18	4727
2026-01-06 22:24:07.98	127.85	7.19	-28.9	-31.5	11.7	5.58e-04	0	44	102	1048576	18	4846
2026-01-06 22:24:10.99	128.21	7.03	-32.8	-44.9	3.8	1.49e+00	0	44	104	1048576	25	14447

#Closed at: 2026-01-06 22:24:12
#Recorded file [1 MB]: D:/data/31010_260107_011536.dat