passes_logs/2026/01/06/R2M6_AANII_01/R2M6_AANII_01__20260106_065143_FENGYUN_3E_rec.log

#Pass ID: 20260106_065143_FENGYUN 3E
#Satellite: FENGYUN 3E
#Configuration: FENGYUN 3E
#almurnet v.1.7.20240730
#Start time: 2026-01-06 06:51:45

#Version: 2.2.20231116
#Station: R2M6_AANII_01
#Location: 30.233357 lon 59.946436 lat
#TLE: 1 49008U 21062A   26005.56299987  .00000339  00000+0  18069-3 0  9991
#TLE: 2 49008  98.7472  10.8019 0001562 158.0357 202.0886 14.19884907233502

#Time	Az	El	Level	Level2	SNR	BER	BlckErr	Temp	State	Recorded	gain1	gain2
2026-01-06 06:51:45.09	9.16	7.09	-31.2	-35.5	4.4	8.26e-01	0	41	0	0	23	5913
2026-01-06 06:51:48.10	8.84	7.27	-30.6	-34.1	6.7	1.99e-01	0	42	102	1048576	21	5388
2026-01-06 06:51:51.12	8.52	7.45	-30.0	-32.3	8.0	8.77e-02	0	42	102	1048576	21	4660
2026-01-06 06:51:54.14	8.20	7.63	-28.6	-29.9	10.6	5.22e-03	0	42	102	1048576	18	4174
2026-01-06 06:51:57.16	7.87	7.81	-27.6	-28.4	12.2	3.29e-04	0	42	102	1048576	16	3958
2026-01-06 06:52:00.19	7.54	7.99	-27.1	-27.7	12.8	6.17e-05	0	42	102	1048576	15	3868
2026-01-06 06:52:03.21	7.21	8.17	-26.9	-27.8	13.0	4.92e-05	0	42	102	1048576	14	4004
2026-01-06 06:52:06.23	6.87	8.35	-26.8	-27.6	13.1	8.01e-05	0	42	102	1048576	14	3935
2026-01-06 06:52:09.25	6.52	8.54	-27.1	-28.3	12.7	2.56e-04	0	42	102	1048576	14	4124
2026-01-06 06:52:12.28	6.17	8.72	-27.3	-28.6	12.5	4.63e-04	0	42	102	1048576	14	4205
2026-01-06 06:52:15.30	5.82	8.90	-27.1	-28.3	12.8	2.85e-04	0	42	102	1048576	14	4114
2026-01-06 06:52:18.32	5.46	9.08	-27.1	-28.2	12.9	2.46e-04	0	42	102	1048576	14	4082
2026-01-06 06:52:21.34	5.10	9.27	-26.6	-27.7	13.4	2.40e-04	0	42	102	1048576	13	4068
2026-01-06 06:52:24.35	4.73	9.45	-26.8	-28.1	13.2	1.60e-05	0	42	102	1048576	13	4177
2026-01-06 06:52:27.35	4.36	9.63	-26.8	-28.2	13.1	3.89e-05	0	43	102	1048576	13	4191
2026-01-06 06:52:30.38	3.99	9.81	-26.9	-28.3	13.1	3.43e-05	0	43	102	1048576	13	4225
2026-01-06 06:52:33.40	3.60	10.00	-27.0	-28.4	13.0	4.11e-05	0	43	102	1048576	13	4262
2026-01-06 06:52:36.42	3.22	10.18	-26.7	-27.9	13.4	1.37e-05	0	43	102	1048576	13	4106
2026-01-06 06:52:39.43	2.83	10.36	-26.7	-27.9	13.4	1.25e-05	0	43	102	1048576	13	4110
2026-01-06 06:52:42.45	2.43	10.55	-26.5	-27.3	13.7	6.80e-06	0	43	102	1048576	13	3945
2026-01-06 06:52:45.48	2.03	10.73	-26.4	-27.0	13.9	4.50e-06	0	43	102	1048576	13	3889
2026-01-06 06:52:48.51	1.62	10.92	-26.4	-27.2	13.8	4.50e-06	0	43	102	1048576	13	3923
2026-01-06 06:52:51.54	1.20	11.10	-26.2	-26.6	14.1	0.00e+00	0	43	102	1048576	13	3790
2026-01-06 06:52:54.56	0.79	11.29	-26.4	-27.7	13.8	3.40e-06	0	43	102	1048576	12	4163
2026-01-06 06:52:57.58	0.36	11.47	-26.4	-27.5	14.0	5.70e-06	0	43	102	1048576	12	4114
2026-01-06 06:53:00.60	359.94	11.65	-26.3	-27.5	14.0	4.50e-06	0	43	102	1048576	12	4100
2026-01-06 06:53:03.62	359.50	11.83	-26.3	-27.5	14.0	1.10e-06	0	43	102	1048576	12	4100
2026-01-06 06:53:06.65	359.06	12.02	-25.9	-26.6	14.5	0.00e+00	0	43	102	1048576	12	3876
2026-01-06 06:53:09.67	358.61	12.20	-26.0	-26.6	14.5	0.00e+00	0	43	102	1048576	12	3892
2026-01-06 06:53:12.68	358.16	12.38	-25.7	-26.1	14.8	0.00e+00	0	43	102	1048576	12	3761
2026-01-06 06:53:15.70	357.71	12.56	-25.7	-26.5	14.9	0.00e+00	0	43	102	1048576	11	3953
2026-01-06 06:53:18.71	357.25	12.74	-25.7	-26.6	14.9	0.00e+00	0	43	102	1048576	11	3971
2026-01-06 06:53:21.73	356.78	12.93	-26.1	-27.3	14.5	0.00e+00	0	43	102	1048576	11	4161
2026-01-06 06:53:24.76	356.30	13.11	-26.1	-27.0	14.3	2.76e-04	0	43	102	1048576	12	3990
2026-01-06 06:53:27.77	355.82	13.28	-26.1	-26.9	14.4	2.86e-04	0	43	102	1048576	12	3951
2026-01-06 06:53:30.79	355.34	13.46	-25.9	-27.0	14.7	3.57e-04	0	43	102	1048576	11	4087
2026-01-06 06:53:33.81	354.85	13.64	-26.3	-27.4	14.1	0.00e+00	0	43	102	1048576	12	4077
2026-01-06 06:53:36.83	354.35	13.82	-26.1	-27.0	14.4	0.00e+00	0	43	102	1048576	12	3979
2026-01-06 06:53:39.85	353.84	13.99	-25.9	-26.5	14.6	2.21e-04	0	43	102	1048576	12	3854
2026-01-06 06:53:42.87	353.33	14.17	-26.0	-27.1	14.7	0.00e+00	0	43	102	1048576	11	4098
2026-01-06 06:53:45.89	352.82	14.34	-26.1	-26.9	14.4	0.00e+00	0	44	102	1048576	12	3961
2026-01-06 06:53:48.91	352.29	14.52	-25.5	-26.0	15.3	0.00e+00	0	43	102	1048576	11	3825
2026-01-06 06:53:51.93	351.76	14.69	-25.4	-26.3	15.4	0.00e+00	0	43	102	1048576	10	4014
2026-01-06 06:53:54.94	351.23	14.86	-25.3	-26.1	15.5	0.00e+00	0	43	102	1048576	10	3946
2026-01-06 06:53:57.97	350.69	15.03	-25.4	-26.3	15.4	0.00e+00	0	44	102	1048576	10	4007
2026-01-06 06:54:00.99	350.14	15.20	-25.2	-26.0	15.6	0.00e+00	0	43	102	1048576	10	3920
2026-01-06 06:54:04.01	349.59	15.36	-25.1	-25.6	15.8	0.00e+00	0	44	102	1048576	10	3838
2026-01-06 06:54:07.03	349.02	15.53	-25.0	-25.4	16.0	0.00e+00	0	44	102	1048576	10	3779
2026-01-06 06:54:10.06	348.46	15.69	-24.8	-25.0	16.2	0.00e+00	0	44	102	1048576	10	3691
2026-01-06 06:54:13.08	347.88	15.85	-24.9	-25.2	16.1	0.00e+00	0	44	102	1048576	10	3740
2026-01-06 06:54:16.10	347.30	16.01	-24.8	-25.0	16.2	0.00e+00	0	44	102	1048576	10	3684
2026-01-06 06:54:19.11	346.72	16.17	-24.7	-24.9	16.2	0.00e+00	0	44	102	1048576	10	3677
2026-01-06 06:54:22.14	346.13	16.32	-24.8	-25.1	16.1	0.00e+00	0	44	102	1048576	10	3723
2026-01-06 06:54:25.16	345.53	16.48	-24.9	-25.7	16.0	0.00e+00	0	44	102	1048576	9	3972
2026-01-06 06:54:28.18	344.92	16.63	-24.8	-25.5	16.2	0.00e+00	0	44	102	1048576	9	3919
2026-01-06 06:54:31.20	344.31	16.77	-24.6	-25.2	16.4	0.00e+00	0	44	102	1048576	9	3831
2026-01-06 06:54:34.22	343.70	16.92	-24.8	-25.6	16.1	0.00e+00	0	44	102	1048576	9	3946
2026-01-06 06:54:37.24	343.07	17.06	-24.6	-25.2	16.3	0.00e+00	0	44	102	1048576	9	3845
2026-01-06 06:54:40.26	342.45	17.20	-24.6	-25.0	16.4	0.00e+00	0	44	102	1048576	9	3804
2026-01-06 06:54:43.27	341.81	17.34	-24.6	-25.0	16.4	0.00e+00	0	43	102	1048576	9	3800
2026-01-06 06:54:46.29	341.17	17.48	-24.6	-25.2	16.4	0.00e+00	0	44	102	1048576	9	3835
2026-01-06 06:54:49.31	340.53	17.61	-24.6	-25.2	16.4	0.00e+00	0	44	102	1048576	9	3834
2026-01-06 06:54:52.34	339.87	17.74	-24.5	-24.8	16.5	1.10e-06	0	44	102	1048576	9	3754
2026-01-06 06:54:55.36	339.22	17.86	-24.3	-24.5	16.7	0.00e+00	0	44	102	1048576	9	3685
2026-01-06 06:54:58.39	338.55	17.99	-24.2	-24.2	16.9	0.00e+00	0	44	102	1048576	9	3602
2026-01-06 06:55:01.41	337.88	18.10	-24.2	-24.8	16.8	0.00e+00	0	44	102	1048576	8	3862
2026-01-06 06:55:04.43	337.21	18.22	-24.2	-24.8	16.8	0.00e+00	0	44	102	1048576	8	3850
2026-01-06 06:55:07.45	336.53	18.33	-24.3	-24.9	16.8	0.00e+00	0	44	102	1048576	8	3883
2026-01-06 06:55:10.47	335.85	18.44	-24.1	-24.5	17.0	0.00e+00	0	44	102	1048576	8	3767
2026-01-06 06:55:13.49	335.16	18.54	-24.0	-24.4	17.1	0.00e+00	0	44	102	1048576	8	3751
2026-01-06 06:55:16.51	334.46	18.64	-23.8	-24.4	17.3	0.00e+00	0	44	102	1048576	7	3857
2026-01-06 06:55:19.53	333.77	18.74	-23.8	-24.5	17.3	0.00e+00	0	44	102	1048576	7	3882
2026-01-06 06:55:22.54	333.07	18.83	-24.0	-24.9	17.1	0.00e+00	0	44	102	1048576	7	3973
2026-01-06 06:55:25.55	332.36	18.92	-24.2	-24.8	16.9	0.00e+00	0	44	102	1048576	8	3843
2026-01-06 06:55:28.57	331.65	19.00	-24.4	-25.3	16.6	0.00e+00	0	44	102	1048576	8	3958
2026-01-06 06:55:31.58	330.94	19.08	-24.1	-24.7	17.0	0.00e+00	0	44	102	1048576	8	3816
2026-01-06 06:55:34.61	330.22	19.16	-24.1	-24.5	17.0	0.00e+00	0	44	102	1048576	8	3769
2026-01-06 06:55:37.63	329.50	19.23	-23.8	-24.5	17.3	0.00e+00	0	44	102	1048576	7	3875
2026-01-06 06:55:40.66	328.77	19.30	-23.9	-24.5	17.3	0.00e+00	0	44	102	1048576	7	3894
2026-01-06 06:55:43.68	328.04	19.36	-23.9	-24.6	17.2	0.00e+00	0	44	102	1048576	7	3904
2026-01-06 06:55:46.70	327.31	19.41	-24.1	-25.0	17.0	0.00e+00	0	44	102	1048576	7	3999
2026-01-06 06:55:49.73	326.57	19.47	-23.9	-24.6	17.2	0.00e+00	0	44	102	1048576	7	3893
2026-01-06 06:55:52.75	325.84	19.51	-23.9	-24.6	17.2	3.05e-04	0	44	102	1048576	7	3909
2026-01-06 06:55:55.77	325.10	19.56	-23.8	-24.3	17.4	1.41e-04	0	44	102	1048576	7	3845
2026-01-06 06:55:58.79	324.36	19.59	-23.9	-24.5	17.3	0.00e+00	0	44	102	1048576	7	3892
2026-01-06 06:56:01.81	323.62	19.63	-23.9	-24.6	17.2	1.02e-04	0	44	102	1048576	7	3899
2026-01-06 06:56:04.84	322.87	19.65	-24.0	-24.8	17.1	1.43e-04	0	44	102	1048576	7	3950
2026-01-06 06:56:07.86	322.12	19.68	-23.9	-24.6	17.2	0.00e+00	0	44	102	1048576	7	3919
2026-01-06 06:56:10.87	321.38	19.69	-23.9	-24.5	17.3	0.00e+00	0	44	102	1048576	7	3895
2026-01-06 06:56:13.88	320.64	19.70	-23.9	-24.5	17.3	0.00e+00	0	44	102	1048576	7	3892
2026-01-06 06:56:16.91	319.89	19.71	-23.6	-24.1	17.5	0.00e+00	0	44	102	1048576	7	3784
2026-01-06 06:56:19.91	319.14	19.71	-23.6	-24.0	17.5	0.00e+00	0	44	102	1048576	7	3764
2026-01-06 06:56:22.93	318.40	19.71	-23.7	-24.2	17.4	0.00e+00	0	44	102	1048576	7	3817
2026-01-06 06:56:25.95	317.65	19.70	-23.7	-24.1	17.5	0.00e+00	0	44	102	1048576	7	3791
2026-01-06 06:56:28.97	316.90	19.69	-23.6	-24.1	17.5	0.00e+00	0	44	102	1048576	7	3790
2026-01-06 06:56:32.00	316.15	19.67	-23.6	-24.1	17.5	0.00e+00	0	44	102	1048576	7	3782
2026-01-06 06:56:35.01	315.41	19.65	-23.8	-24.5	17.3	0.00e+00	0	44	102	1048576	7	3878
2026-01-06 06:56:38.03	314.67	19.62	-23.9	-24.5	17.3	0.00e+00	0	44	102	1048576	7	3886
2026-01-06 06:56:41.06	313.92	19.59	-23.6	-24.0	17.5	0.00e+00	0	44	102	1048576	7	3762
2026-01-06 06:56:44.08	313.18	19.55	-23.7	-24.2	17.4	0.00e+00	0	44	102	1048576	7	3801
2026-01-06 06:56:47.10	312.44	19.50	-23.8	-24.3	17.3	0.00e+00	0	44	102	1048576	7	3843
2026-01-06 06:56:50.12	311.71	19.46	-23.5	-24.2	17.6	0.00e+00	0	44	102	1048576	6	3929
2026-01-06 06:56:53.14	310.97	19.40	-23.5	-24.3	17.6	0.00e+00	0	44	102	1048576	6	3953
2026-01-06 06:56:56.16	310.24	19.34	-24.1	-24.9	17.0	0.00e+00	0	44	102	1048576	7	3989
2026-01-06 06:56:59.19	309.51	19.28	-23.9	-24.7	17.1	0.00e+00	0	44	102	1048576	7	3935
2026-01-06 06:57:02.20	308.79	19.21	-23.1	-23.5	15.8	0.00e+00	0	44	102	1048576	7	3774
2026-01-06 06:57:05.17	308.08	19.14	-23.7	-24.2	17.4	0.00e+00	0	44	102	1048576	7	3806
2026-01-06 06:57:08.20	307.36	19.07	-23.6	-24.1	17.4	3.18e-04	0	44	102	1048576	7	3795
2026-01-06 06:57:11.22	306.64	18.99	-23.7	-24.2	17.3	8.23e-04	0	44	102	1048576	7	3822
2026-01-06 06:57:14.24	305.93	18.90	-23.7	-24.1	17.4	8.96e-04	0	44	102	1048576	7	3800
2026-01-06 06:57:17.26	305.22	18.81	-23.9	-24.6	17.2	0.00e+00	0	44	102	1048576	7	3895
2026-01-06 06:57:20.28	304.52	18.72	-23.8	-24.5	17.2	4.70e-04	0	44	102	1048576	7	3880
2026-01-06 06:57:23.30	303.82	18.62	-23.9	-24.7	17.1	2.63e-04	0	44	102	1048576	7	3934
2026-01-06 06:57:26.32	303.13	18.52	-23.8	-24.5	17.2	7.28e-04	0	44	102	1048576	7	3886
2026-01-06 06:57:29.34	302.44	18.42	-24.2	-24.8	16.8	5.10e-04	0	44	102	1048576	8	3842
2026-01-06 06:57:32.35	301.75	18.31	-24.4	-25.2	16.6	0.00e+00	0	44	102	1048576	8	3950
2026-01-06 06:57:35.38	301.07	18.19	-24.2	-24.7	16.8	0.00e+00	0	44	102	1048576	8	3826
2026-01-06 06:57:38.40	300.40	18.08	-24.1	-24.6	16.9	0.00e+00	0	44	102	1048576	8	3796
2026-01-06 06:57:41.42	299.73	17.96	-24.2	-24.7	16.8	0.00e+00	0	44	102	1048576	8	3834
2026-01-06 06:57:44.44	299.07	17.83	-24.4	-25.3	16.5	0.00e+00	0	44	102	1048576	8	3966
2026-01-06 06:57:47.46	298.41	17.71	-24.4	-25.1	16.6	0.00e+00	0	44	102	1048576	8	3925
2026-01-06 06:57:50.47	297.76	17.58	-24.3	-25.0	16.6	0.00e+00	0	44	102	1048576	8	3899
2026-01-06 06:57:53.50	297.11	17.44	-24.2	-24.8	16.8	0.00e+00	0	44	102	1048576	8	3848
2026-01-06 06:57:56.53	296.46	17.31	-24.2	-24.7	16.8	0.00e+00	0	44	102	1048576	8	3829
2026-01-06 06:57:59.54	295.83	17.17	-24.3	-24.9	16.7	0.00e+00	0	44	102	1048576	8	3883
2026-01-06 06:58:02.56	295.20	17.03	-24.3	-25.0	16.6	0.00e+00	0	44	102	1048576	8	3893
2026-01-06 06:58:05.58	294.58	16.88	-24.2	-24.7	16.8	0.00e+00	0	44	102	1048576	8	3829
2026-01-06 06:58:08.60	293.96	16.74	-24.2	-24.7	16.7	0.00e+00	0	44	102	1048576	8	3819
2026-01-06 06:58:11.62	293.35	16.59	-24.4	-25.3	16.4	0.00e+00	0	44	102	1048576	8	3969
2026-01-06 06:58:14.64	292.74	16.44	-24.4	-25.2	16.5	0.00e+00	0	44	102	1048576	8	3958
2026-01-06 06:58:17.66	292.15	16.28	-24.9	-25.8	15.8	0.00e+00	0	44	102	1048576	9	4001
2026-01-06 06:58:20.67	291.55	16.13	-24.7	-25.2	16.2	0.00e+00	0	44	102	1048576	9	3855
2026-01-06 06:58:23.70	290.97	15.97	-24.8	-25.6	16.0	0.00e+00	0	44	102	1048576	9	3943
2026-01-06 06:58:26.72	290.39	15.81	-25.1	-25.8	15.6	0.00e+00	0	44	102	1048576	10	3882
2026-01-06 06:58:29.74	289.81	15.65	-24.8	-25.0	16.1	0.00e+00	0	44	102	1048576	10	3699
2026-01-06 06:58:32.77	289.24	15.48	-24.8	-25.2	16.0	0.00e+00	0	44	102	1048576	10	3736
2026-01-06 06:58:35.79	288.68	15.32	-24.7	-25.4	16.0	0.00e+00	0	44	102	1048576	9	3891
2026-01-06 06:58:38.81	288.12	15.15	-24.7	-25.3	16.1	0.00e+00	0	44	102	1048576	9	3882
2026-01-06 06:58:41.83	287.58	14.98	-24.7	-25.5	16.0	1.10e-06	0	44	102	1048576	9	3910
2026-01-06 06:58:44.85	287.03	14.81	-25.0	-26.0	15.7	0.00e+00	0	44	102	1048576	9	4039
2026-01-06 06:58:47.87	286.50	14.64	-25.1	-26.2	15.6	0.00e+00	0	44	102	1048576	9	4093
2026-01-06 06:58:50.89	285.97	14.47	-25.1	-26.2	15.6	0.00e+00	0	44	102	1048576	9	4089
2026-01-06 06:58:53.91	285.44	14.29	-24.9	-25.8	15.8	0.00e+00	0	44	102	1048576	9	3993
2026-01-06 06:58:56.94	284.92	14.12	-24.9	-25.8	15.8	0.00e+00	0	44	102	1048576	9	3993
2026-01-06 06:58:59.96	284.41	13.94	-24.9	-25.8	15.8	0.00e+00	0	44	102	1048576	9	3987
2026-01-06 06:59:02.98	283.90	13.77	-24.9	-25.9	15.7	0.00e+00	0	44	102	1048576	9	4014
2026-01-06 06:59:05.99	283.41	13.59	-24.9	-25.9	15.7	0.00e+00	0	44	102	1048576	9	4016
2026-01-06 06:59:09.01	282.91	13.41	-25.1	-25.8	15.5	1.10e-06	0	44	102	1048576	10	3892
2026-01-06 06:59:12.03	282.43	13.23	-25.0	-26.0	15.6	0.00e+00	0	44	102	1048576	9	4041
2026-01-06 06:59:15.05	281.94	13.05	-25.2	-25.9	15.4	0.00e+00	0	44	102	1048576	10	3919
2026-01-06 06:59:18.06	281.47	12.87	-25.3	-26.1	15.3	0.00e+00	0	44	102	1048576	10	3970
2026-01-06 06:59:21.07	281.00	12.69	-25.4	-26.4	15.1	0.00e+00	0	44	102	1048576	10	4047
2026-01-06 06:59:24.09	280.54	12.51	-25.6	-26.3	14.9	0.00e+00	0	44	102	1048576	11	3918
2026-01-06 06:59:27.12	280.08	12.32	-25.9	-26.9	14.5	1.10e-06	0	44	102	1048576	11	4057
2026-01-06 06:59:30.13	279.63	12.14	-25.6	-26.3	14.9	0.00e+00	0	44	102	1048576	11	3901
2026-01-06 06:59:33.16	279.18	11.96	-25.3	-26.2	15.2	0.00e+00	0	44	102	1048576	10	3982
2026-01-06 06:59:36.18	278.74	11.77	-25.1	-25.8	15.4	0.00e+00	0	44	102	1048576	10	3897
2026-01-06 06:59:39.20	278.30	11.59	-25.4	-26.4	15.1	2.20e-06	0	44	102	1048576	10	4028
2026-01-06 06:59:42.21	277.87	11.41	-25.8	-26.7	14.6	0.00e+00	0	44	102	1048576	11	4022
2026-01-06 06:59:45.23	277.45	11.22	-25.7	-26.6	14.6	0.00e+00	0	44	102	1048576	11	3991
2026-01-06 06:59:48.26	277.03	11.04	-25.7	-26.6	14.7	1.02e-05	0	44	102	1048576	11	3992
2026-01-06 06:59:51.27	276.62	10.85	-25.6	-26.4	14.7	1.10e-06	0	44	102	1048576	11	3942
2026-01-06 06:59:54.29	276.21	10.67	-25.6	-26.4	14.7	0.00e+00	0	44	102	1048576	11	3948
2026-01-06 06:59:57.31	275.80	10.49	-25.6	-26.4	14.7	0.00e+00	0	44	102	1048576	11	3942
2026-01-06 07:00:00.33	275.40	10.30	-25.6	-26.3	14.8	4.06e-04	0	44	102	1048576	11	3919
2026-01-06 07:00:03.35	275.01	10.12	-25.8	-26.7	14.5	1.15e-03	0	44	102	1048576	11	4020
2026-01-06 07:00:06.36	274.62	9.93	-25.9	-27.1	14.2	1.43e-03	0	44	102	1048576	11	4118
2026-01-06 07:00:09.38	274.24	9.75	-26.3	-27.4	13.7	1.65e-03	0	44	102	1048576	12	4099
2026-01-06 07:00:12.40	273.86	9.57	-26.1	-26.9	14.0	1.94e-03	0	44	102	1048576	12	3968
2026-01-06 07:00:15.41	273.49	9.38	-26.0	-26.9	14.0	2.08e-03	0	44	102	1048576	12	3958
2026-01-06 07:00:18.43	273.12	9.20	-26.0	-27.3	14.1	4.50e-06	0	44	102	1048576	11	4183
2026-01-06 07:00:21.44	272.76	9.02	-26.1	-27.0	13.9	5.70e-06	0	44	102	1048576	12	3989
2026-01-06 07:00:24.47	272.40	8.83	-26.1	-27.0	13.9	8.00e-06	0	44	102	1048576	12	3984
2026-01-06 07:00:27.49	272.04	8.65	-26.1	-27.1	13.8	1.23e-03	0	44	102	1048576	12	4036
2026-01-06 07:00:30.51	271.69	8.47	-26.1	-27.0	13.9	4.50e-06	0	44	102	1048576	12	3987
2026-01-06 07:00:33.53	271.35	8.28	-26.0	-26.8	13.9	3.40e-06	0	44	102	1048576	12	3950
2026-01-06 07:00:36.55	271.00	8.10	-26.0	-27.3	14.0	1.10e-06	0	44	102	1048576	11	4178
2026-01-06 07:00:39.56	270.67	7.92	-26.1	-27.0	13.8	2.20e-06	0	44	102	1048576	12	3995
2026-01-06 07:00:42.59	270.33	7.74	-26.2	-27.2	13.7	6.80e-06	0	44	102	1048576	12	4063
2026-01-06 07:00:45.60	270.01	7.56	-26.2	-27.3	13.6	9.10e-06	0	44	102	1048576	12	4085
2026-01-06 07:00:48.62	269.68	7.38	-26.3	-27.4	13.5	1.48e-05	0	44	102	1048576	12	4117
2026-01-06 07:00:51.64	269.36	7.20	-26.5	-28.0	13.2	3.43e-05	0	44	102	1048576	12	4272
2026-01-06 07:00:54.67	269.04	7.02	-32.8	-42.5	3.8	8.47e-01	0	44	104	1048576	25	10968

#Closed at: 2026-01-06 07:00:55
#Recorded file [1 MB]: D:/data/31010_260106_095146.dat