passes_logs/2026/01/06/R2M6_AANII_01/R2M6_AANII_01__20260106_032435_FENGYUN_3D_rec.log

#Pass ID: 20260106_032435_FENGYUN 3D
#Satellite: FENGYUN 3D
#Configuration: FENGYUN 3D
#almurnet v.1.7.20240730
#Start time: 2026-01-06 03:24:35

#Version: 2.2.20231116
#Station: R2M6_AANII_01
#Location: 30.233357 lon 59.946436 lat
#TLE: 1 43010U 17072A   26005.48915933 -.00000051  00000+0 -21983-5 0  9995
#TLE: 2 43010  98.9919 337.1582 0002001 124.6377 235.4988 14.19691925421909

#Time	Az	El	Level	Level2	SNR	BER	BlckErr	Temp	State	Recorded	gain1	gain2
2026-01-06 03:24:35.90	14.16	7.00	-30.0	-33.5	5.2	7.95e-01	0	41	0	0	20	5405
2026-01-06 03:24:38.92	14.01	7.22	-30.2	-34.0	8.5	4.32e-02	0	42	102	1048576	20	5585
2026-01-06 03:24:41.94	13.86	7.45	-29.6	-32.8	9.8	1.10e-02	0	42	102	1048576	19	5199
2026-01-06 03:24:44.96	13.71	7.67	-29.6	-32.4	9.8	1.78e-02	0	42	102	1048576	20	4933
2026-01-06 03:24:47.99	13.56	7.90	-28.3	-30.4	12.1	5.86e-04	0	42	102	1048576	17	4577
2026-01-06 03:24:51.01	13.40	8.13	-27.2	-28.6	13.6	1.60e-05	0	42	102	1048576	15	4255
2026-01-06 03:24:54.04	13.24	8.36	-26.9	-28.9	14.1	4.50e-06	0	42	102	1048576	13	4565
2026-01-06 03:24:57.05	13.08	8.60	-26.8	-28.7	14.2	0.00e+00	0	42	102	1048576	13	4501
2026-01-06 03:25:00.07	12.92	8.83	-26.8	-28.9	14.2	8.65e-04	0	42	102	1048576	13	4546
2026-01-06 03:25:03.08	12.75	9.07	-27.1	-29.1	13.8	9.10e-06	0	42	102	1048576	14	4496
2026-01-06 03:25:06.11	12.58	9.31	-27.2	-29.2	13.7	9.10e-06	0	42	102	1048576	14	4530
2026-01-06 03:25:09.13	12.41	9.55	-27.2	-29.3	13.7	8.24e-04	0	42	102	1048576	14	4557
2026-01-06 03:25:12.16	12.23	9.80	-26.9	-28.5	14.2	8.23e-04	0	42	102	1048576	14	4341
2026-01-06 03:25:15.18	12.05	10.04	-26.8	-28.7	14.4	0.00e+00	0	43	102	1048576	13	4491
2026-01-06 03:25:18.19	11.87	10.29	-26.6	-28.3	14.6	7.05e-04	0	43	102	1048576	13	4378
2026-01-06 03:25:21.20	11.68	10.54	-26.7	-28.6	14.5	6.68e-04	0	43	102	1048576	13	4469
2026-01-06 03:25:24.22	11.49	10.79	-26.7	-28.6	14.5	1.10e-06	0	43	102	1048576	13	4452
2026-01-06 03:25:27.23	11.30	11.04	-26.6	-28.3	14.7	4.92e-05	0	43	102	1048576	13	4381
2026-01-06 03:25:30.26	11.10	11.30	-26.3	-27.7	15.0	7.40e-04	0	43	102	1048576	13	4215
2026-01-06 03:25:33.28	10.90	11.56	-26.3	-28.0	15.2	1.10e-06	0	43	102	1048576	12	4402
2026-01-06 03:25:36.30	10.70	11.82	-26.1	-27.7	15.3	0.00e+00	0	43	102	1048576	12	4326
2026-01-06 03:25:39.32	10.49	12.09	-26.1	-27.7	15.3	0.00e+00	0	43	102	1048576	12	4330
2026-01-06 03:25:42.34	10.28	12.35	-26.1	-27.7	15.4	0.00e+00	0	43	102	1048576	12	4326
2026-01-06 03:25:45.36	10.06	12.62	-26.1	-27.7	15.4	0.00e+00	0	43	102	1048576	12	4322
2026-01-06 03:25:48.38	9.84	12.89	-26.2	-27.8	15.3	0.00e+00	0	43	102	1048576	12	4343
2026-01-06 03:25:51.39	9.62	13.17	-26.1	-27.6	15.4	0.00e+00	0	43	102	1048576	12	4301
2026-01-06 03:25:54.41	9.39	13.44	-26.1	-27.7	15.4	0.00e+00	0	43	102	1048576	12	4314
2026-01-06 03:25:57.43	9.15	13.72	-25.9	-27.3	15.6	0.00e+00	0	43	102	1048576	12	4205
2026-01-06 03:26:00.46	8.91	14.01	-25.9	-27.6	15.9	0.00e+00	0	43	102	1048576	11	4400
2026-01-06 03:26:03.48	8.67	14.29	-25.7	-27.3	16.0	0.00e+00	0	43	102	1048576	11	4315
2026-01-06 03:26:06.49	8.42	14.58	-25.7	-27.2	16.1	0.00e+00	0	43	102	1048576	11	4292
2026-01-06 03:26:09.51	8.17	14.87	-25.6	-27.1	16.2	0.00e+00	0	43	102	1048576	11	4263
2026-01-06 03:26:12.53	7.91	15.16	-25.6	-27.0	16.2	0.00e+00	0	43	102	1048576	11	4244
2026-01-06 03:26:15.56	7.64	15.46	-25.6	-27.0	16.3	0.00e+00	0	43	102	1048576	11	4220
2026-01-06 03:26:18.58	7.37	15.76	-25.4	-26.7	16.4	0.00e+00	0	43	102	1048576	11	4150
2026-01-06 03:26:21.60	7.10	16.06	-25.3	-26.8	16.7	0.00e+00	0	43	102	1048576	10	4287
2026-01-06 03:26:24.61	6.82	16.37	-25.1	-26.3	17.0	0.00e+00	0	43	102	1048576	10	4164
2026-01-06 03:26:27.62	6.53	16.68	-25.1	-26.4	16.9	0.00e+00	0	43	102	1048576	10	4171
2026-01-06 03:26:30.63	6.24	16.99	-25.2	-26.7	16.7	0.00e+00	0	43	102	1048576	10	4269
2026-01-06 03:26:33.65	5.94	17.30	-25.4	-27.1	16.6	0.00e+00	0	43	102	1048576	10	4359
2026-01-06 03:26:36.67	5.63	17.62	-25.3	-27.0	16.6	0.00e+00	0	43	102	1048576	10	4334
2026-01-06 03:26:39.69	5.32	17.94	-25.3	-26.8	16.8	0.00e+00	0	43	102	1048576	10	4288
2026-01-06 03:26:42.71	5.00	18.27	-24.8	-25.8	17.3	0.00e+00	0	43	102	1048576	10	4040
2026-01-06 03:26:45.73	4.67	18.60	-24.8	-26.3	17.3	0.00e+00	0	43	102	1048576	9	4272
2026-01-06 03:26:48.75	4.34	18.93	-25.2	-26.6	16.9	0.00e+00	0	43	102	1048576	10	4226
2026-01-06 03:26:51.77	3.99	19.27	-24.9	-26.0	17.2	0.00e+00	0	43	102	1048576	10	4085
2026-01-06 03:26:54.79	3.64	19.60	-25.0	-26.3	17.1	0.00e+00	0	43	102	1048576	10	4150
2026-01-06 03:26:57.81	3.28	19.95	-24.4	-24.8	17.9	0.00e+00	0	43	102	1048576	10	3801
2026-01-06 03:27:00.83	2.92	20.29	-24.2	-25.0	18.1	0.00e+00	0	44	102	1048576	9	3931
2026-01-06 03:27:03.86	2.54	20.64	-24.2	-25.0	18.0	0.00e+00	0	43	102	1048576	9	3942
2026-01-06 03:27:06.87	2.16	21.00	-24.3	-25.2	18.0	0.00e+00	0	44	102	1048576	9	3984
2026-01-06 03:27:09.90	1.76	21.35	-24.3	-25.3	17.9	0.00e+00	0	44	102	1048576	9	4014
2026-01-06 03:27:12.92	1.36	21.71	-24.2	-25.1	18.1	0.00e+00	0	44	102	1048576	9	3958
2026-01-06 03:27:15.94	0.94	22.08	-24.1	-24.7	18.3	0.00e+00	0	43	102	1048576	9	3873
2026-01-06 03:27:18.96	0.52	22.45	-24.2	-25.0	18.1	0.00e+00	0	44	102	1048576	9	3934
2026-01-06 03:27:21.98	0.09	22.82	-24.2	-25.0	18.1	0.00e+00	0	44	102	1048576	9	3934
2026-01-06 03:27:25.00	359.64	23.19	-24.1	-24.7	18.3	0.00e+00	0	43	102	1048576	9	3866
2026-01-06 03:27:28.01	359.19	23.57	-23.8	-24.1	18.6	0.00e+00	0	44	102	1048576	9	3728
2026-01-06 03:27:31.03	358.72	23.95	-23.7	-24.4	18.7	2.20e-06	0	43	102	1048576	8	3911
2026-01-06 03:27:34.05	358.24	24.34	-23.7	-24.9	18.7	0.00e+00	0	44	102	1048576	7	4127
2026-01-06 03:27:37.06	357.75	24.72	-23.8	-25.0	18.7	5.95e-05	0	43	102	1048576	7	4173
2026-01-06 03:27:40.07	357.25	25.11	-23.8	-25.1	18.6	0.00e+00	0	44	102	1048576	7	4183
2026-01-06 03:27:43.09	356.73	25.51	-23.8	-25.1	18.6	0.00e+00	0	44	102	1048576	7	4192
2026-01-06 03:27:46.10	356.21	25.91	-23.6	-24.7	18.9	1.10e-06	0	44	102	1048576	7	4078
2026-01-06 03:27:49.11	355.66	26.31	-23.4	-24.3	19.0	0.00e+00	0	44	102	1048576	7	4000
2026-01-06 03:27:52.12	355.11	26.71	-23.4	-24.4	19.0	0.00e+00	0	44	102	1048576	7	4010
2026-01-06 03:27:55.13	354.54	27.12	-23.4	-24.2	19.1	0.00e+00	0	43	102	1048576	7	3960
2026-01-06 03:27:58.15	353.95	27.53	-23.3	-24.1	19.2	0.00e+00	0	44	102	1048576	7	3932
2026-01-06 03:28:01.17	353.35	27.94	-23.3	-24.1	19.2	0.00e+00	0	44	102	1048576	7	3944
2026-01-06 03:28:04.19	352.73	28.36	-23.2	-23.9	19.3	0.00e+00	0	44	102	1048576	7	3893
2026-01-06 03:28:07.21	352.09	28.78	-23.4	-24.2	19.1	5.49e-05	0	43	102	1048576	7	3973
2026-01-06 03:28:10.23	351.44	29.20	-23.4	-24.3	19.1	2.33e-04	0	43	102	1048576	7	3987
2026-01-06 03:28:13.25	350.77	29.62	-23.3	-24.1	19.2	0.00e+00	0	44	102	1048576	7	3933
2026-01-06 03:28:16.28	350.07	30.05	-22.9	-23.6	19.7	0.00e+00	0	44	102	1048576	6	3938
2026-01-06 03:28:19.31	349.36	30.48	-23.1	-24.2	19.4	0.00e+00	0	44	102	1048576	6	4068
2026-01-06 03:28:22.32	348.64	30.90	-23.2	-24.4	19.3	0.00e+00	0	44	102	1048576	6	4128
2026-01-06 03:28:25.34	347.89	31.33	-23.0	-23.9	19.6	0.00e+00	0	44	102	1048576	6	3999
2026-01-06 03:28:28.36	347.13	31.76	-22.9	-23.7	19.7	0.00e+00	0	44	102	1048576	6	3946
2026-01-06 03:28:31.38	346.34	32.19	-23.2	-24.3	19.4	0.00e+00	0	44	102	1048576	6	4106
2026-01-06 03:28:34.41	345.52	32.62	-23.0	-23.9	19.5	0.00e+00	0	44	102	1048576	6	4010
2026-01-06 03:28:37.42	344.70	33.05	-23.1	-24.1	19.5	0.00e+00	0	44	102	1048576	6	4049
2026-01-06 03:28:40.45	343.84	33.48	-23.1	-24.2	19.4	0.00e+00	0	44	102	1048576	6	4085
2026-01-06 03:28:43.47	342.96	33.91	-22.9	-23.7	19.7	0.00e+00	0	44	102	1048576	6	3959
2026-01-06 03:28:46.49	342.06	34.33	-22.8	-23.5	19.8	0.00e+00	0	44	102	1048576	6	3905
2026-01-06 03:28:49.51	341.14	34.75	-22.8	-23.5	19.8	0.00e+00	0	44	102	1048576	6	3907
2026-01-06 03:28:52.52	340.19	35.17	-22.7	-23.2	20.0	0.00e+00	0	44	102	1048576	6	3845
2026-01-06 03:28:55.53	339.22	35.58	-23.0	-23.9	19.6	0.00e+00	0	44	102	1048576	6	3992
2026-01-06 03:28:58.55	338.22	35.99	-22.6	-23.6	20.0	0.00e+00	0	44	102	1048576	5	4032
2026-01-06 03:29:01.56	337.20	36.40	-22.5	-23.5	20.1	2.23e-04	0	44	102	1048576	5	4021
2026-01-06 03:29:04.58	336.15	36.80	-22.5	-23.5	20.1	0.00e+00	0	44	102	1048576	5	4002
2026-01-06 03:29:07.60	335.07	37.19	-22.7	-23.8	19.9	1.62e-04	0	44	102	1048576	5	4083
2026-01-06 03:29:10.63	333.97	37.58	-23.0	-23.9	19.7	2.29e-04	0	44	102	1048576	6	3992
2026-01-06 03:29:13.64	332.84	37.96	-22.9	-23.8	19.7	1.65e-04	0	44	102	1048576	6	3971
2026-01-06 03:29:16.66	331.69	38.33	-23.0	-24.0	19.6	3.05e-04	0	44	102	1048576	6	4018
2026-01-06 03:29:19.68	330.50	38.69	-23.0	-24.0	19.6	3.95e-04	0	44	102	1048576	6	4011
2026-01-06 03:29:22.70	329.30	39.04	-23.0	-24.0	19.6	5.31e-04	0	44	102	1048576	6	4029
2026-01-06 03:29:25.72	328.06	39.37	-23.1	-24.2	19.5	0.00e+00	0	44	102	1048576	6	4061
2026-01-06 03:29:28.74	326.80	39.70	-23.0	-23.9	19.7	5.62e-04	0	44	102	1048576	6	3991
2026-01-06 03:29:31.76	325.52	40.01	-22.6	-23.6	20.0	8.09e-04	0	44	102	1048576	5	4026
2026-01-06 03:29:34.78	324.21	40.31	-22.8	-24.1	19.8	0.00e+00	0	44	102	1048576	5	4162
2026-01-06 03:29:37.80	322.87	40.60	-22.8	-24.0	19.9	0.00e+00	0	44	102	1048576	5	4131
2026-01-06 03:29:40.83	321.51	40.86	-22.5	-23.4	20.1	0.00e+00	0	44	102	1048576	5	3996
2026-01-06 03:29:43.85	320.13	41.12	-22.6	-23.5	20.1	0.00e+00	0	44	102	1048576	5	4012
2026-01-06 03:29:46.88	318.72	41.35	-22.6	-23.6	20.0	0.00e+00	0	44	102	1048576	5	4045
2026-01-06 03:29:49.90	317.30	41.56	-22.6	-23.6	20.1	0.00e+00	0	44	102	1048576	5	4040
2026-01-06 03:29:52.92	315.87	41.76	-22.3	-22.9	20.4	0.00e+00	0	44	102	1048576	5	3873
2026-01-06 03:29:55.94	314.41	41.94	-22.5	-23.5	20.1	0.00e+00	0	44	102	1048576	5	4006
2026-01-06 03:29:58.96	312.94	42.09	-22.4	-23.2	20.3	0.00e+00	0	44	102	1048576	5	3951
2026-01-06 03:30:01.98	311.45	42.23	-22.9	-23.7	19.8	0.00e+00	0	44	102	1048576	6	3952
2026-01-06 03:30:05.00	309.96	42.34	-22.6	-23.6	20.0	0.00e+00	0	44	102	1048576	5	4048
2026-01-06 03:30:08.02	308.45	42.44	-22.2	-22.8	20.5	0.00e+00	0	44	102	1048576	5	3837
2026-01-06 03:30:11.04	306.94	42.50	-22.9	-24.1	19.8	0.00e+00	0	44	102	1048576	5	4160
2026-01-06 03:30:14.05	305.42	42.55	-22.7	-23.8	20.0	0.00e+00	0	44	102	1048576	5	4082
2026-01-06 03:30:17.08	303.90	42.58	-22.5	-23.3	20.2	0.00e+00	0	44	102	1048576	5	3957
2026-01-06 03:30:20.09	302.38	42.58	-22.8	-24.1	19.8	0.00e+00	0	44	102	1048576	5	4148
2026-01-06 03:30:23.11	300.85	42.56	-22.9	-23.8	19.7	0.00e+00	0	44	102	1048576	6	3974
2026-01-06 03:30:26.13	299.33	42.51	-22.0	-22.3	20.7	0.00e+00	0	44	102	1048576	5	3745
2026-01-06 03:30:29.14	297.82	42.45	-22.4	-23.2	20.3	0.00e+00	0	44	102	1048576	5	3941
2026-01-06 03:30:32.15	296.32	42.36	-22.2	-22.8	20.5	0.00e+00	0	44	102	1048576	5	3843
2026-01-06 03:30:35.17	294.82	42.25	-22.0	-22.9	20.7	0.00e+00	0	44	102	1048576	4	3977
2026-01-06 03:30:38.19	293.33	42.12	-22.2	-23.2	20.5	0.00e+00	0	44	102	1048576	4	4043
2026-01-06 03:30:41.22	291.85	41.96	-22.0	-22.8	20.7	0.00e+00	0	44	102	1048576	4	3961
2026-01-06 03:30:44.22	290.40	41.79	-22.5	-23.4	20.1	0.00e+00	0	44	102	1048576	5	3996
2026-01-06 03:30:47.24	288.96	41.60	-22.0	-22.9	20.6	0.00e+00	0	44	102	1048576	4	3972
2026-01-06 03:30:50.25	287.54	41.38	-22.1	-23.1	20.5	0.00e+00	0	44	102	1048576	4	4034
2026-01-06 03:30:53.28	286.13	41.15	-22.2	-23.2	20.5	0.00e+00	0	44	102	1048576	4	4054
2026-01-06 03:30:56.29	284.75	40.90	-22.0	-22.8	20.6	0.00e+00	0	44	102	1048576	4	3968
2026-01-06 03:30:59.31	283.38	40.64	-22.0	-22.9	20.6	0.00e+00	0	44	102	1048576	4	3968
2026-01-06 03:31:02.33	282.04	40.36	-22.1	-23.0	20.6	0.00e+00	0	44	102	1048576	4	3994
2026-01-06 03:31:05.36	280.72	40.06	-22.3	-23.5	20.3	0.00e+00	0	44	102	1048576	4	4120
2026-01-06 03:31:08.38	279.43	39.75	-22.2	-23.3	20.4	0.00e+00	0	44	102	1048576	4	4077
2026-01-06 03:31:11.40	278.16	39.42	-22.2	-23.3	20.4	0.00e+00	0	44	102	1048576	4	4076
2026-01-06 03:31:14.41	276.92	39.09	-22.1	-23.1	20.5	0.00e+00	0	44	102	1048576	4	4035
2026-01-06 03:31:17.43	275.71	38.74	-22.2	-23.2	20.4	0.00e+00	0	44	102	1048576	4	4044
2026-01-06 03:31:20.45	274.52	38.38	-22.1	-23.1	20.5	0.00e+00	0	44	102	1048576	4	4021
2026-01-06 03:31:23.47	273.35	38.01	-22.4	-23.6	20.2	0.00e+00	0	44	102	1048576	4	4157
2026-01-06 03:31:26.50	272.21	37.63	-22.8	-24.0	19.8	0.00e+00	0	44	102	1048576	5	4136
2026-01-06 03:31:29.51	271.11	37.24	-22.4	-23.2	20.1	0.00e+00	0	44	102	1048576	5	3955
2026-01-06 03:31:32.54	270.02	36.85	-22.5	-23.3	20.1	0.00e+00	0	44	102	1048576	5	3966
2026-01-06 03:31:35.56	268.96	36.45	-22.4	-23.1	20.2	0.00e+00	0	44	102	1048576	5	3924
2026-01-06 03:31:38.58	267.93	36.04	-22.6	-23.6	16.8	0.00e+00	0	44	102	1048576	5	4048
2026-01-06 03:31:41.59	266.93	35.63	-22.3	-23.1	20.2	0.00e+00	0	44	102	1048576	5	3910
2026-01-06 03:31:44.62	265.94	35.21	-22.3	-23.6	20.2	9.07e-04	0	44	102	1048576	4	4149
2026-01-06 03:31:47.64	264.99	34.79	-22.3	-23.4	20.2	5.85e-04	0	44	102	1048576	4	4102
2026-01-06 03:31:50.67	264.05	34.37	-22.2	-23.2	20.4	0.00e+00	0	44	102	1048576	4	4045
2026-01-06 03:31:53.68	263.15	33.95	-22.1	-23.1	20.4	3.19e-04	0	44	102	1048576	4	4027
2026-01-06 03:31:56.71	262.26	33.52	-22.1	-23.1	20.4	9.75e-04	0	44	102	1048576	4	4042
2026-01-06 03:31:59.72	261.41	33.09	-22.2	-23.3	20.3	1.18e-03	0	44	102	1048576	4	4083
2026-01-06 03:32:02.73	260.57	32.66	-22.6	-23.7	19.8	1.15e-03	0	44	102	1048576	5	4077
2026-01-06 03:32:05.75	259.75	32.23	-22.7	-23.8	19.8	6.24e-04	0	44	102	1048576	5	4092
2026-01-06 03:32:08.77	258.96	31.80	-22.3	-23.1	20.1	1.53e-04	0	44	102	1048576	5	3911
2026-01-06 03:32:11.79	258.19	31.37	-22.7	-23.8	19.8	0.00e+00	0	44	102	1048576	5	4080
2026-01-06 03:32:14.81	257.43	30.93	-22.9	-24.1	19.6	2.75e-04	0	44	102	1048576	5	4172
2026-01-06 03:32:17.83	256.70	30.50	-23.0	-24.4	19.5	0.00e+00	0	44	102	1048576	5	4248
2026-01-06 03:32:20.85	255.99	30.08	-22.9	-23.8	19.5	0.00e+00	0	44	102	1048576	6	3981
2026-01-06 03:32:23.87	255.29	29.65	-23.2	-24.3	19.3	0.00e+00	0	44	102	1048576	6	4091
2026-01-06 03:32:26.88	254.62	29.23	-22.7	-23.3	19.8	0.00e+00	0	44	102	1048576	6	3850
2026-01-06 03:32:29.90	253.96	28.80	-22.7	-23.4	19.7	0.00e+00	0	44	102	1048576	6	3882
2026-01-06 03:32:32.93	253.32	28.38	-22.8	-23.6	19.6	0.00e+00	0	44	102	1048576	6	3929
2026-01-06 03:32:35.95	252.69	27.96	-23.2	-24.3	19.2	0.00e+00	0	44	102	1048576	6	4113
2026-01-06 03:32:38.97	252.08	27.54	-23.1	-24.1	19.3	0.00e+00	0	44	102	1048576	6	4049
2026-01-06 03:32:41.99	251.49	27.13	-23.1	-24.2	19.3	0.00e+00	0	44	102	1048576	6	4068
2026-01-06 03:32:44.99	250.92	26.72	-23.2	-24.3	19.2	0.00e+00	0	44	102	1048576	6	4100
2026-01-06 03:32:48.02	250.35	26.31	-23.0	-24.0	19.4	0.00e+00	0	44	102	1048576	6	4023
2026-01-06 03:32:51.04	249.80	25.91	-23.1	-24.2	19.2	0.00e+00	0	44	102	1048576	6	4087
2026-01-06 03:32:54.06	249.27	25.51	-23.0	-24.0	19.4	0.00e+00	0	44	102	1048576	6	4014
2026-01-06 03:32:57.09	248.74	25.11	-23.0	-23.9	19.4	0.00e+00	0	44	102	1048576	6	4003
2026-01-06 03:33:00.10	248.24	24.72	-23.2	-24.3	19.2	0.00e+00	0	44	102	1048576	6	4091
2026-01-06 03:33:03.12	247.74	24.33	-23.4	-24.7	18.9	0.00e+00	0	44	102	1048576	6	4197
2026-01-06 03:33:06.14	247.26	23.94	-23.4	-24.7	19.0	7.14e-04	0	44	102	1048576	6	4199
2026-01-06 03:33:09.15	246.79	23.56	-23.3	-24.5	19.0	7.95e-04	0	44	102	1048576	6	4153
2026-01-06 03:33:12.17	246.33	23.18	-23.1	-24.1	19.2	0.00e+00	0	44	102	1048576	6	4059
2026-01-06 03:33:15.18	245.88	22.80	-23.2	-24.4	19.1	0.00e+00	0	44	102	1048576	6	4117
2026-01-06 03:33:18.20	245.45	22.43	-23.5	-24.4	18.8	2.63e-04	0	44	102	1048576	7	4022
2026-01-06 03:33:21.22	245.02	22.06	-23.6	-24.7	18.6	3.05e-04	0	44	102	1048576	7	4100
2026-01-06 03:33:24.24	244.60	21.69	-23.6	-24.7	18.6	0.00e+00	0	44	102	1048576	7	4093
2026-01-06 03:33:27.26	244.19	21.33	-23.6	-24.6	18.7	9.70e-04	0	44	102	1048576	7	4068
2026-01-06 03:33:30.28	243.80	20.97	-23.7	-24.8	18.6	9.59e-04	0	44	102	1048576	7	4114
2026-01-06 03:33:33.31	243.41	20.61	-23.7	-25.0	18.5	0.00e+00	0	44	102	1048576	7	4153
2026-01-06 03:33:36.32	243.03	20.26	-23.9	-25.3	18.2	7.71e-04	0	44	102	1048576	7	4250
2026-01-06 03:33:39.34	242.66	19.91	-24.2	-25.4	18.0	0.00e+00	0	44	102	1048576	8	4161
2026-01-06 03:33:42.37	242.29	19.57	-24.1	-25.3	18.0	0.00e+00	0	44	102	1048576	8	4125
2026-01-06 03:33:45.39	241.94	19.23	-24.2	-25.4	17.9	0.00e+00	0	44	102	1048576	8	4159
2026-01-06 03:33:48.40	241.59	18.89	-24.0	-25.2	18.0	0.00e+00	0	44	102	1048576	8	4094
2026-01-06 03:33:51.43	241.26	18.56	-24.0	-25.0	18.1	0.00e+00	0	44	102	1048576	8	4054
2026-01-06 03:33:54.45	240.92	18.23	-24.1	-25.4	17.9	0.00e+00	0	44	102	1048576	8	4150
2026-01-06 03:33:57.47	240.60	17.90	-24.4	-26.0	17.6	0.00e+00	0	44	102	1048576	8	4306
2026-01-06 03:34:00.49	240.28	17.58	-24.7	-26.1	17.2	0.00e+00	0	44	102	1048576	9	4236
2026-01-06 03:34:03.51	239.97	17.26	-24.6	-25.9	17.3	0.00e+00	0	44	102	1048576	9	4179
2026-01-06 03:34:06.53	239.67	16.94	-24.6	-25.8	17.4	0.00e+00	0	44	102	1048576	9	4132
2026-01-06 03:34:09.55	239.37	16.62	-24.7	-26.0	17.3	0.00e+00	0	44	102	1048576	9	4181
2026-01-06 03:34:12.57	239.08	16.31	-24.7	-26.0	17.2	0.00e+00	0	44	102	1048576	9	4207
2026-01-06 03:34:15.58	238.80	16.01	-24.8	-26.3	17.1	0.00e+00	0	44	102	1048576	9	4266
2026-01-06 03:34:18.61	238.52	15.70	-24.9	-26.4	17.0	0.00e+00	0	44	102	1048576	9	4319
2026-01-06 03:34:21.62	238.25	15.40	-25.0	-26.7	16.8	0.00e+00	0	44	102	1048576	9	4374
2026-01-06 03:34:24.63	237.98	15.10	-25.1	-26.4	16.7	0.00e+00	0	44	102	1048576	10	4198
2026-01-06 03:34:27.64	237.72	14.81	-25.2	-26.7	16.5	0.00e+00	0	44	102	1048576	10	4267
2026-01-06 03:34:30.66	237.46	14.52	-25.3	-26.9	16.4	0.00e+00	0	44	102	1048576	10	4325
2026-01-06 03:34:33.68	237.21	14.23	-25.4	-26.5	16.3	0.00e+00	0	44	102	1048576	11	4122
2026-01-06 03:34:36.70	236.97	13.94	-25.4	-27.1	16.3	0.00e+00	0	44	102	1048576	10	4386
2026-01-06 03:34:39.72	236.72	13.66	-25.7	-26.8	15.8	0.00e+00	0	44	102	1048576	12	4082
2026-01-06 03:34:42.74	236.49	13.38	-25.6	-26.9	16.1	0.00e+00	0	44	102	1048576	11	4222
2026-01-06 03:34:45.75	236.26	13.10	-25.5	-26.8	16.1	0.00e+00	0	44	102	1048576	11	4188
2026-01-06 03:34:48.77	236.03	12.82	-25.6	-27.0	16.0	0.00e+00	0	44	102	1048576	11	4226
2026-01-06 03:34:51.79	235.80	12.55	-25.7	-27.3	15.8	0.00e+00	0	44	102	1048576	11	4310
2026-01-06 03:34:54.82	235.58	12.28	-25.7	-27.2	15.8	0.00e+00	0	44	102	1048576	11	4302
2026-01-06 03:34:57.83	235.37	12.01	-25.8	-27.5	15.7	0.00e+00	0	44	102	1048576	11	4387
2026-01-06 03:35:00.85	235.16	11.75	-25.9	-27.8	15.5	0.00e+00	0	44	102	1048576	11	4460
2026-01-06 03:35:03.87	234.95	11.49	-25.8	-27.0	15.5	0.00e+00	0	44	102	1048576	12	4147
2026-01-06 03:35:06.89	234.75	11.23	-25.7	-27.4	15.7	0.00e+00	0	44	102	1048576	11	4340
2026-01-06 03:35:09.92	234.55	10.97	-25.8	-27.6	15.6	0.00e+00	0	44	102	1048576	11	4402
2026-01-06 03:35:12.96	234.35	10.71	-25.8	-27.0	15.5	0.00e+00	0	44	102	1048576	12	4146
2026-01-06 03:35:15.97	234.16	10.46	-26.1	-27.6	15.1	0.00e+00	0	44	102	1048576	12	4315
2026-01-06 03:35:18.99	233.97	10.21	-26.0	-27.5	15.2	0.00e+00	0	44	102	1048576	12	4277
2026-01-06 03:35:22.00	233.78	9.96	-26.1	-27.6	15.1	0.00e+00	0	44	102	1048576	12	4309
2026-01-06 03:35:25.03	233.60	9.71	-26.2	-28.0	14.9	0.00e+00	0	44	102	1048576	12	4407
2026-01-06 03:35:28.05	233.42	9.47	-26.1	-27.8	14.9	0.00e+00	0	44	102	1048576	12	4355
2026-01-06 03:35:31.07	233.24	9.22	-26.2	-27.9	14.9	1.10e-06	0	44	102	1048576	12	4395
2026-01-06 03:35:34.09	233.07	8.98	-26.2	-28.0	14.8	0.00e+00	0	44	102	1048576	12	4437
2026-01-06 03:35:37.11	232.90	8.74	-26.3	-28.3	14.6	0.00e+00	0	44	102	1048576	12	4503
2026-01-06 03:35:40.13	232.73	8.51	-26.5	-28.2	14.3	0.00e+00	0	44	102	1048576	13	4381
2026-01-06 03:35:43.14	232.57	8.27	-26.5	-28.2	14.4	1.10e-06	0	44	102	1048576	13	4375
2026-01-06 03:35:46.16	232.40	8.04	-26.8	-28.8	13.9	4.50e-06	0	44	102	1048576	13	4557
2026-01-06 03:35:49.18	232.24	7.81	-26.7	-28.6	14.1	1.10e-06	0	44	102	1048576	13	4484
2026-01-06 03:35:52.19	232.09	7.58	-26.6	-28.3	13.1	4.50e-06	0	44	102	1048576	13	4397
2026-01-06 03:35:55.21	231.93	7.36	-26.5	-28.3	14.2	2.20e-06	0	44	102	1048576	13	4390
2026-01-06 03:35:58.23	231.78	7.13	-26.5	-28.2	14.3	5.70e-06	0	44	102	1048576	13	4369
2026-01-06 03:36:01.25	231.63	6.91	-33.2	-44.5	3.8	8.46e-01	0	44	104	1048576	26	13162

#Closed at: 2026-01-06 03:36:01
#Recorded file [1 MB]: D:/data/31010_260106_062437.dat