passes_logs/2026/01/06/R2M6_AANII_01/R2M6_AANII_01__20260106_235510_NOAA_21_JPSS-2_rec.log

#Pass ID: 20260106_235510_NOAA 21 (JPSS-2)
#Satellite: NOAA 21 (JPSS-2)
#Configuration: NOAA 21
#almurnet v.1.7.20240730
#Start time: 2026-01-06 23:55:11

#Version: 2.2.20231116
#Station: R2M6_AANII_01
#Location: 30.233357 lon 59.946436 lat
#TLE: 1 54234U 22150A   26005.56767909  .00000152  00000+0  92756-4 0  9990
#TLE: 2 54234  98.7490 306.5820 0001036 340.2747  19.8389 14.19532370163472

#Time	Az	El	Level	Level2	SNR	BER	BlckErr	Temp	State	Recorded	gain1	gain2
2026-01-06 23:55:11.17	20.46	7.07	-30.1	-34.7	4.7	1.39e+00	0	41	0	0	20	6156
2026-01-06 23:55:14.18	20.54	7.30	-30.6	-35.2	7.9	7.52e-02	0	41	102	1048576	21	6107
2026-01-06 23:55:17.21	20.62	7.54	-30.8	-36.0	7.4	8.83e-02	0	41	102	1048576	21	6489
2026-01-06 23:55:20.22	20.71	7.77	-30.7	-35.4	7.8	9.33e-02	0	41	102	1048576	21	6172
2026-01-06 23:55:23.23	20.79	8.01	-29.9	-33.7	9.8	1.02e-02	0	41	102	1048576	19	5598
2026-01-06 23:55:26.24	20.88	8.24	-29.3	-32.6	11.0	2.86e-03	0	42	102	1048576	18	5254
2026-01-06 23:55:29.25	20.97	8.48	-29.5	-32.7	10.6	4.69e-03	0	42	102	1048576	19	5181
2026-01-06 23:55:32.27	21.06	8.73	-29.8	-33.3	10.1	7.86e-03	0	42	102	1048576	19	5435
2026-01-06 23:55:35.28	21.15	8.97	-29.4	-32.7	10.9	3.14e-03	0	42	102	1048576	18	5299
2026-01-06 23:55:38.31	21.24	9.22	-29.3	-32.5	11.1	1.76e-03	0	42	102	1048576	18	5209
2026-01-06 23:55:41.34	21.33	9.47	-29.5	-32.9	10.9	2.24e-03	0	42	102	1048576	18	5348
2026-01-06 23:55:44.36	21.43	9.72	-28.8	-31.6	11.0	3.18e-04	0	42	102	1048576	17	4987
2026-01-06 23:55:47.37	21.52	9.98	-28.9	-31.8	11.9	3.99e-04	0	42	102	1048576	17	5050
2026-01-06 23:55:50.38	21.62	10.24	-28.6	-31.1	12.5	1.62e-04	0	42	102	1048576	17	4793
2026-01-06 23:55:53.40	21.72	10.50	-28.4	-31.0	12.8	3.46e-03	0	42	102	1048576	16	4884
2026-01-06 23:55:56.43	21.82	10.76	-28.2	-30.6	13.1	3.28e-05	0	42	102	1048576	16	4742
2026-01-06 23:55:59.44	21.92	11.03	-28.2	-30.6	13.1	3.21e-03	0	42	102	1048576	16	4758
2026-01-06 23:56:02.47	22.03	11.30	-28.0	-30.6	13.3	3.42e-03	0	42	102	1048576	15	4867
2026-01-06 23:56:05.49	22.13	11.57	-27.5	-29.4	13.9	3.31e-03	0	42	102	1048576	15	4500
2026-01-06 23:56:08.50	22.24	11.84	-27.6	-29.7	13.9	3.02e-03	0	42	102	1048576	15	4568
2026-01-06 23:56:11.52	22.35	12.12	-27.5	-29.5	13.9	2.20e-06	0	42	102	1048576	15	4515
2026-01-06 23:56:14.54	22.46	12.40	-27.4	-29.7	14.2	3.40e-03	0	42	102	1048576	14	4676
2026-01-06 23:56:17.56	22.57	12.68	-27.8	-30.1	13.6	8.30e-06	0	42	102	1048576	15	4701
2026-01-06 23:56:20.57	22.69	12.97	-27.5	-29.3	14.1	3.10e-03	0	43	102	1048576	15	4471
2026-01-06 23:56:23.60	22.80	13.26	-27.5	-29.4	14.0	7.00e-07	0	42	102	1048576	15	4495
2026-01-06 23:56:26.62	22.92	13.56	-27.9	-30.4	13.4	6.80e-06	0	43	102	1048576	15	4810
2026-01-06 23:56:29.64	23.04	13.86	-28.2	-30.5	13.2	1.29e-05	0	43	102	1048576	16	4696
2026-01-06 23:56:32.66	23.17	14.16	-27.8	-30.1	13.6	6.10e-06	0	43	102	1048576	15	4681
2026-01-06 23:56:35.68	23.29	14.46	-27.7	-30.0	13.8	5.30e-06	0	43	102	1048576	15	4662
2026-01-06 23:56:38.70	23.42	14.77	-28.1	-30.2	13.5	1.52e-05	0	43	102	1048576	16	4610
2026-01-06 23:56:41.71	23.55	15.08	-27.1	-29.0	14.6	1.01e-03	0	43	102	1048576	14	4479
2026-01-06 23:56:44.73	23.68	15.40	-27.3	-29.3	14.5	0.00e+00	0	43	102	1048576	14	4567
2026-01-06 23:56:47.75	23.82	15.72	-27.1	-28.9	14.7	9.99e-04	0	43	102	1048576	14	4432
2026-01-06 23:56:50.76	23.95	16.04	-27.2	-29.2	14.6	7.00e-07	0	43	102	1048576	14	4529
2026-01-06 23:56:53.78	24.09	16.37	-26.9	-29.1	14.9	8.23e-04	0	43	102	1048576	13	4601
2026-01-06 23:56:56.81	24.24	16.71	-26.9	-29.0	15.0	7.61e-04	0	43	102	1048576	13	4571
2026-01-06 23:56:59.82	24.38	17.05	-27.3	-29.3	14.6	6.49e-04	0	43	102	1048576	14	4559
2026-01-06 23:57:02.84	24.53	17.39	-27.3	-29.5	14.5	6.03e-04	0	43	102	1048576	14	4605
2026-01-06 23:57:05.86	24.68	17.74	-27.7	-30.0	13.9	5.43e-04	0	43	102	1048576	15	4643
2026-01-06 23:57:08.88	24.84	18.09	-27.6	-29.7	14.1	7.00e-07	0	43	102	1048576	15	4555
2026-01-06 23:57:11.90	25.00	18.44	-28.1	-30.3	12.9	7.00e-07	0	43	102	1048576	15	4640
2026-01-06 23:57:14.91	25.16	18.81	-27.2	-29.2	14.6	3.22e-04	0	43	102	1048576	14	4525
2026-01-06 23:57:17.93	25.33	19.17	-27.2	-29.2	14.7	0.00e+00	0	43	102	1048576	14	4519
2026-01-06 23:57:20.95	25.50	19.55	-27.2	-29.2	14.7	4.35e-04	0	43	102	1048576	14	4510
2026-01-06 23:57:23.95	25.67	19.92	-27.0	-28.8	15.0	0.00e+00	0	43	102	1048576	14	4403
2026-01-06 23:57:26.97	25.85	20.31	-26.6	-28.3	15.5	1.44e-03	0	43	102	1048576	13	4381
2026-01-06 23:57:29.98	26.03	20.69	-26.5	-28.5	15.7	1.98e-03	0	43	102	1048576	12	4530
2026-01-06 23:57:33.00	26.22	21.09	-26.2	-27.9	16.0	0.00e+00	0	43	102	1048576	12	4381
2026-01-06 23:57:36.02	26.41	21.49	-26.0	-27.4	16.3	2.02e-03	0	43	102	1048576	12	4232
2026-01-06 23:57:39.04	26.60	21.90	-25.8	-27.6	16.5	1.84e-03	0	43	102	1048576	11	4383
2026-01-06 23:57:42.05	26.80	22.31	-25.9	-27.6	16.5	1.72e-03	0	43	102	1048576	11	4407
2026-01-06 23:57:45.07	27.01	22.73	-25.8	-27.5	16.6	0.00e+00	0	43	102	1048576	11	4358
2026-01-06 23:57:48.10	27.22	23.16	-25.7	-27.3	16.7	9.76e-04	0	43	102	1048576	11	4303
2026-01-06 23:57:51.11	27.44	23.59	-26.0	-27.8	16.5	0.00e+00	0	43	102	1048576	11	4445
2026-01-06 23:57:54.13	27.66	24.03	-26.1	-27.7	16.2	5.21e-04	0	43	102	1048576	12	4301
2026-01-06 23:57:57.15	27.89	24.48	-25.9	-27.7	16.6	0.00e+00	0	43	102	1048576	11	4415
2026-01-06 23:58:00.17	28.12	24.94	-26.2	-27.8	16.2	0.00e+00	0	43	102	1048576	12	4333
2026-01-06 23:58:03.19	28.36	25.40	-26.1	-27.7	16.2	0.00e+00	0	43	102	1048576	12	4304
2026-01-06 23:58:06.21	28.61	25.87	-26.3	-28.1	16.0	0.00e+00	0	43	102	1048576	12	4436
2026-01-06 23:58:09.24	28.87	26.35	-26.6	-28.2	15.7	0.00e+00	0	43	102	1048576	13	4331
2026-01-06 23:58:12.26	29.13	26.84	-26.6	-28.3	15.6	0.00e+00	0	43	102	1048576	13	4372
2026-01-06 23:58:15.28	29.40	27.33	-26.8	-28.6	15.5	0.00e+00	0	43	102	1048576	13	4439
2026-01-06 23:58:18.30	29.68	27.84	-27.0	-29.0	15.3	1.50e-06	0	43	102	1048576	13	4575
2026-01-06 23:58:21.31	29.96	28.35	-26.9	-29.0	15.3	0.00e+00	0	43	102	1048576	13	4547
2026-01-06 23:58:24.33	30.26	28.87	-27.0	-29.1	15.3	0.00e+00	0	43	102	1048576	13	4577
2026-01-06 23:58:27.35	30.57	29.40	-27.0	-28.6	15.3	0.00e+00	0	43	102	1048576	14	4324
2026-01-06 23:58:30.36	30.88	29.94	-26.9	-28.4	15.4	0.00e+00	0	43	102	1048576	14	4292
2026-01-06 23:58:33.38	31.21	30.49	-26.7	-28.5	15.6	0.00e+00	0	43	102	1048576	13	4425
2026-01-06 23:58:36.40	31.54	31.05	-26.7	-28.4	15.7	0.00e+00	0	43	102	1048576	13	4388
2026-01-06 23:58:39.42	31.89	31.61	-26.6	-28.3	15.8	0.00e+00	0	43	102	1048576	13	4352
2026-01-06 23:58:42.43	32.25	32.19	-26.7	-28.4	15.7	0.00e+00	0	43	102	1048576	13	4369
2026-01-06 23:58:45.45	32.62	32.78	-26.9	-28.8	15.5	0.00e+00	0	43	102	1048576	13	4494
2026-01-06 23:58:48.47	33.01	33.38	-26.9	-28.9	15.4	0.00e+00	0	43	102	1048576	13	4537
2026-01-06 23:58:51.49	33.41	33.99	-27.1	-28.9	15.2	0.00e+00	0	43	102	1048576	14	4408
2026-01-06 23:58:54.51	33.83	34.61	-27.4	-29.4	14.9	7.00e-07	0	43	102	1048576	14	4560
2026-01-06 23:58:57.52	34.25	35.24	-27.9	-30.2	14.2	7.00e-07	0	43	102	1048576	15	4682
2026-01-06 23:59:00.54	34.70	35.88	-28.6	-30.7	13.5	1.29e-05	0	43	102	1048576	17	4607
2026-01-06 23:59:03.55	35.17	36.54	-28.6	-30.7	13.5	7.60e-06	0	43	102	1048576	17	4611
2026-01-06 23:59:06.58	35.65	37.20	-28.8	-31.2	13.3	2.59e-05	0	43	102	1048576	17	4760
2026-01-06 23:59:09.59	36.15	37.88	-29.0	-31.7	13.0	3.28e-05	0	43	102	1048576	17	4917
2026-01-06 23:59:12.61	36.68	38.57	-29.2	-31.7	12.7	6.71e-05	0	43	102	1048576	18	4815
2026-01-06 23:59:15.63	37.23	39.27	-28.9	-30.9	13.1	2.97e-05	0	43	102	1048576	18	4560
2026-01-06 23:59:18.64	37.80	39.98	-28.9	-31.5	13.1	2.13e-05	0	43	102	1048576	17	4854
2026-01-06 23:59:21.67	38.39	40.70	-28.5	-30.5	13.7	6.10e-06	0	43	102	1048576	17	4516
2026-01-06 23:59:24.69	39.02	41.44	-28.1	-30.0	14.4	1.50e-06	0	43	102	1048576	16	4474
2026-01-06 23:59:27.70	39.67	42.18	-28.7	-30.9	13.6	9.90e-06	0	43	102	1048576	17	4641
2026-01-06 23:59:30.73	40.35	42.94	-28.8	-30.7	13.4	1.52e-05	0	44	102	1048576	18	4485
2026-01-06 23:59:33.75	41.07	43.71	-29.0	-31.1	13.1	3.05e-05	0	43	102	1048576	18	4615
2026-01-06 23:59:36.77	41.82	44.48	-29.1	-31.6	12.9	5.34e-05	0	44	102	1048576	18	4755
2026-01-06 23:59:39.79	42.60	45.27	-29.3	-32.1	12.6	8.69e-05	0	43	102	1048576	18	4938
2026-01-06 23:59:42.82	43.43	46.07	-29.3	-31.5	12.6	9.53e-05	0	43	102	1048576	19	4632
2026-01-06 23:59:45.83	44.30	46.88	-29.2	-31.3	12.8	8.77e-05	0	43	102	1048576	19	4562
2026-01-06 23:59:48.85	45.21	47.69	-29.2	-31.2	12.8	5.26e-05	0	43	102	1048576	19	4543
2026-01-06 23:59:51.86	46.17	48.51	-29.3	-31.3	12.7	3.66e-05	0	44	102	1048576	19	4573
2026-01-06 23:59:54.89	47.19	49.35	-29.6	-32.2	12.2	2.46e-04	0	43	102	1048576	19	4860
2026-01-06 23:59:57.89	48.26	50.18	-28.9	-30.3	13.3	2.89e-05	0	43	102	1048576	19	4265
2026-01-07 00:00:00.91	49.39	51.02	-28.3	-29.6	14.1	1.50e-06	0	43	102	1048576	18	4146
2026-01-07 00:00:03.92	50.58	51.86	-28.0	-29.2	14.7	0.00e+00	0	43	102	1048576	17	4141
2026-01-07 00:00:06.94	51.85	52.71	-27.7	-29.2	14.9	2.67e-05	0	44	102	1048576	16	4258
2026-01-07 00:00:09.96	53.19	53.55	-27.0	-28.1	15.6	0.00e+00	0	43	102	1048576	15	4069
2026-01-07 00:00:12.98	54.61	54.39	-27.1	-28.8	15.6	6.48e-05	0	43	102	1048576	14	4381
2026-01-07 00:00:16.01	56.12	55.23	-27.0	-28.5	15.7	0.00e+00	0	43	102	1048576	14	4271
2026-01-07 00:00:19.02	57.71	56.06	-27.3	-29.3	15.3	1.89e-04	0	43	102	1048576	14	4507
2026-01-07 00:00:22.05	59.41	56.88	-27.0	-28.6	15.7	1.23e-04	0	43	102	1048576	14	4293
2026-01-07 00:00:25.07	61.21	57.69	-27.5	-29.2	15.1	1.46e-04	0	44	102	1048576	15	4377
2026-01-07 00:00:28.08	63.11	58.48	-26.7	-27.8	16.2	1.44e-05	0	43	102	1048576	14	4082
2026-01-07 00:00:31.10	65.12	59.25	-26.2	-27.2	16.7	9.23e-05	0	43	102	1048576	13	4056
2026-01-07 00:00:34.12	67.26	60.00	-26.6	-28.2	16.3	4.80e-05	0	43	102	1048576	13	4297
2026-01-07 00:00:37.14	69.53	60.71	-27.4	-29.3	15.3	7.03e-04	0	43	102	1048576	14	4521
2026-01-07 00:00:40.15	71.91	61.40	-27.2	-29.0	15.6	1.10e-03	0	44	102	1048576	14	4403
2026-01-07 00:00:43.17	74.43	62.04	-25.8	-26.8	17.2	1.07e-03	0	44	102	1048576	12	4051
2026-01-07 00:00:46.19	77.09	62.64	-26.0	-27.4	17.0	0.00e+00	0	43	102	1048576	12	4198
2026-01-07 00:00:49.21	79.87	63.20	-26.2	-27.8	16.7	1.17e-04	0	43	102	1048576	12	4312
2026-01-07 00:00:52.24	82.79	63.70	-26.3	-27.4	16.7	0.00e+00	0	43	102	1048576	13	4081
2026-01-07 00:00:55.25	85.81	64.14	-25.7	-26.7	17.3	0.00e+00	0	43	102	1048576	12	4024
2026-01-07 00:00:58.26	88.94	64.51	-25.9	-27.1	17.1	2.55e-03	0	44	102	1048576	12	4130
2026-01-07 00:01:01.27	92.16	64.82	-25.8	-27.4	17.3	0.00e+00	0	44	102	1048576	11	4308
2026-01-07 00:01:04.29	95.47	65.05	-26.3	-28.0	16.6	0.00e+00	0	43	102	1048576	12	4377
2026-01-07 00:01:07.31	98.84	65.21	-25.8	-27.3	17.4	0.00e+00	0	43	102	1048576	11	4291
2026-01-07 00:01:10.33	102.25	65.30	-26.1	-27.5	16.9	0.00e+00	0	44	102	1048576	12	4230
2026-01-07 00:01:13.35	105.67	65.30	-26.2	-27.7	16.9	0.00e+00	0	43	102	1048576	12	4280
2026-01-07 00:01:16.36	109.07	65.23	-26.7	-28.3	16.2	0.00e+00	0	43	102	1048576	13	4323
2026-01-07 00:01:19.38	112.44	65.08	-25.4	-26.4	17.8	0.00e+00	0	43	102	1048576	11	4060
2026-01-07 00:01:22.41	115.78	64.85	-26.2	-27.6	16.9	0.00e+00	0	44	102	1048576	12	4260
2026-01-07 00:01:25.43	119.02	64.55	-25.7	-26.7	17.3	0.00e+00	0	43	102	1048576	12	4009
2026-01-07 00:01:28.44	122.16	64.18	-26.3	-27.8	16.7	0.00e+00	0	43	102	1048576	12	4313
2026-01-07 00:01:31.46	125.21	63.75	-25.6	-26.5	17.4	0.00e+00	0	43	102	1048576	12	3961
2026-01-07 00:01:34.48	128.14	63.26	-26.3	-27.9	16.7	0.00e+00	0	44	102	1048576	12	4346
2026-01-07 00:01:37.49	130.93	62.71	-25.3	-26.6	17.9	0.00e+00	0	44	102	1048576	10	4208
2026-01-07 00:01:40.51	133.60	62.12	-26.6	-28.0	16.4	0.00e+00	0	43	102	1048576	13	4250
2026-01-07 00:01:43.52	136.14	61.48	-25.4	-26.4	17.8	0.00e+00	0	43	102	1048576	11	4053
2026-01-07 00:01:46.55	138.56	60.79	-27.6	-29.3	15.1	2.44e-03	0	44	102	1048576	15	4397
2026-01-07 00:01:49.57	140.84	60.08	-26.8	-28.4	16.2	0.00e+00	0	43	102	1048576	13	4357
2026-01-07 00:01:52.59	143.00	59.33	-27.4	-29.3	15.4	2.86e-03	0	43	102	1048576	14	4503
2026-01-07 00:01:55.61	145.03	58.56	-27.3	-28.7	15.4	0.00e+00	0	43	102	1048576	15	4219
2026-01-07 00:01:58.63	146.95	57.77	-26.4	-28.1	16.6	8.39e-04	0	43	102	1048576	12	4400
2026-01-07 00:02:01.64	148.76	56.97	-27.8	-29.9	14.8	4.34e-04	0	44	102	1048576	15	4578
2026-01-07 00:02:04.66	150.47	56.14	-26.3	-27.4	16.7	7.67e-04	0	44	102	1048576	13	4084
2026-01-07 00:02:07.68	152.08	55.31	-27.8	-29.8	14.7	8.75e-04	0	43	102	1048576	15	4537
2026-01-07 00:02:10.69	153.59	54.47	-28.1	-30.0	14.6	8.31e-05	0	43	102	1048576	16	4464
2026-01-07 00:02:13.71	155.02	53.63	-27.5	-29.1	15.3	6.59e-04	0	44	102	1048576	15	4345
2026-01-07 00:02:16.74	156.38	52.78	-28.2	-30.1	14.4	0.00e+00	0	43	102	1048576	16	4497
2026-01-07 00:02:19.76	157.65	51.93	-28.3	-30.6	13.9	8.68e-04	0	43	102	1048576	16	4660
2026-01-07 00:02:22.78	158.86	51.08	-28.6	-30.7	13.8	6.10e-06	0	43	102	1048576	17	4583
2026-01-07 00:02:25.81	160.01	50.24	-29.7	-32.5	12.2	2.19e-04	0	43	102	1048576	19	4938
2026-01-07 00:02:28.82	161.08	49.40	-29.7	-32.4	12.3	2.78e-04	0	43	102	1048576	19	4904
2026-01-07 00:02:31.84	162.11	48.56	-28.0	-29.2	14.7	0.00e+00	0	43	102	1048576	17	4148
2026-01-07 00:02:34.86	163.08	47.74	-29.8	-32.6	12.1	1.96e-04	0	44	102	1048576	19	4978
2026-01-07 00:02:37.87	163.99	46.92	-29.2	-31.6	12.9	6.33e-05	0	43	102	1048576	18	4758
2026-01-07 00:02:40.89	164.87	46.11	-29.2	-31.7	12.9	5.34e-05	0	43	102	1048576	18	4799
2026-01-07 00:02:43.92	165.70	45.30	-29.4	-32.2	12.6	7.62e-05	0	43	102	1048576	18	4963
2026-01-07 00:02:46.94	166.49	44.51	-29.7	-32.5	12.1	1.87e-04	0	44	102	1048576	19	4951
2026-01-07 00:02:49.96	167.25	43.73	-30.2	-33.4	11.2	1.67e-03	0	43	102	1048576	20	5177
2026-01-07 00:02:52.98	167.97	42.95	-28.6	-30.2	13.8	8.30e-06	0	44	102	1048576	18	4318
2026-01-07 00:02:56.00	168.65	42.19	-29.2	-31.7	12.9	4.73e-05	0	43	102	1048576	18	4797
2026-01-07 00:02:59.02	169.31	41.44	-28.7	-30.4	13.7	1.50e-06	0	44	102	1048576	18	4384
2026-01-07 00:03:02.04	169.93	40.70	-28.5	-29.9	14.0	7.00e-07	0	44	102	1048576	18	4234
2026-01-07 00:03:05.05	170.53	39.98	-29.2	-31.6	12.9	2.89e-05	0	44	102	1048576	18	4760
2026-01-07 00:03:08.07	171.11	39.26	-29.2	-31.2	12.9	1.69e-04	0	44	102	1048576	19	4523
2026-01-07 00:03:11.08	171.65	38.56	-28.8	-31.1	13.5	7.60e-06	0	43	102	1048576	17	4710
2026-01-07 00:03:14.10	172.18	37.87	-28.7	-31.0	13.5	1.23e-04	0	44	102	1048576	17	4670
2026-01-07 00:03:17.11	172.69	37.19	-28.4	-30.2	14.0	2.20e-06	0	43	102	1048576	17	4421
2026-01-07 00:03:20.13	173.17	36.52	-27.7	-29.2	14.9	7.00e-07	0	44	102	1048576	16	4245
2026-01-07 00:03:23.14	173.64	35.86	-27.8	-29.4	14.8	2.36e-05	0	43	102	1048576	16	4328
2026-01-07 00:03:26.17	174.09	35.21	-27.9	-29.5	14.7	7.00e-07	0	44	102	1048576	16	4332
2026-01-07 00:03:29.19	174.52	34.58	-27.6	-29.5	14.8	0.00e+00	0	43	102	1048576	15	4459
2026-01-07 00:03:32.21	174.94	33.95	-28.7	-31.1	13.4	6.17e-05	0	43	102	1048576	17	4709
2026-01-07 00:03:35.23	175.34	33.34	-28.3	-30.1	14.0	8.23e-05	0	43	102	1048576	17	4418
2026-01-07 00:03:38.25	175.72	32.74	-28.0	-29.3	14.5	7.00e-07	0	43	102	1048576	17	4176
2026-01-07 00:03:41.26	176.10	32.14	-27.3	-29.1	15.2	2.09e-04	0	43	102	1048576	14	4448
2026-01-07 00:03:44.29	176.46	31.56	-27.0	-28.5	15.6	0.00e+00	0	44	102	1048576	14	4293
2026-01-07 00:03:47.31	176.81	30.99	-27.0	-28.5	15.5	0.00e+00	0	43	102	1048576	14	4297
2026-01-07 00:03:50.34	177.15	30.42	-26.8	-28.1	15.7	6.10e-06	0	43	102	1048576	14	4189
2026-01-07 00:03:53.36	177.47	29.87	-27.2	-29.0	15.2	0.00e+00	0	43	102	1048576	14	4444
2026-01-07 00:03:56.38	177.79	29.33	-27.4	-29.5	15.0	1.37e-05	0	43	102	1048576	14	4595
2026-01-07 00:03:59.40	178.09	28.79	-27.4	-29.4	15.0	4.50e-06	0	43	102	1048576	14	4564
2026-01-07 00:04:02.42	178.39	28.27	-27.4	-29.6	14.9	9.10e-06	0	43	102	1048576	14	4603
2026-01-07 00:04:05.43	178.67	27.76	-27.1	-28.9	15.3	0.00e+00	0	43	102	1048576	14	4399
2026-01-07 00:04:08.45	178.95	27.25	-27.0	-28.6	15.4	0.00e+00	0	44	102	1048576	14	4325
2026-01-07 00:04:11.47	179.22	26.75	-26.7	-27.9	15.8	0.00e+00	0	44	102	1048576	14	4133
2026-01-07 00:04:14.49	179.48	26.26	-26.4	-27.7	16.2	0.00e+00	0	43	102	1048576	13	4169
2026-01-07 00:04:17.52	179.74	25.78	-26.1	-27.5	16.5	0.00e+00	0	43	102	1048576	12	4246
2026-01-07 00:04:20.53	179.99	25.31	-26.3	-28.0	16.3	0.00e+00	0	44	102	1048576	12	4390
2026-01-07 00:04:23.56	180.23	24.84	-26.7	-28.5	15.7	0.00e+00	0	43	102	1048576	13	4408
2026-01-07 00:04:26.57	180.46	24.38	-26.3	-28.1	15.7	0.00e+00	0	44	102	1048576	12	4396
2026-01-07 00:04:29.59	180.69	23.93	-26.5	-27.9	16.0	0.00e+00	0	43	102	1048576	13	4241
2026-01-07 00:04:32.61	180.91	23.49	-26.5	-28.1	15.9	0.00e+00	0	43	102	1048576	13	4292
2026-01-07 00:04:35.62	181.12	23.05	-26.7	-28.3	15.8	3.14e-03	0	44	102	1048576	13	4357
2026-01-07 00:04:38.64	181.33	22.63	-26.6	-28.3	15.8	0.00e+00	0	44	102	1048576	13	4355
2026-01-07 00:04:41.66	181.54	22.20	-26.6	-28.3	15.8	3.74e-03	0	43	102	1048576	13	4344
2026-01-07 00:04:44.68	181.74	21.79	-26.6	-28.1	15.8	3.68e-03	0	43	102	1048576	13	4310
2026-01-07 00:04:47.71	181.93	21.38	-26.9	-29.0	15.3	3.35e-03	0	44	102	1048576	13	4560
2026-01-07 00:04:50.71	182.12	20.97	-26.9	-29.0	15.3	3.77e-03	0	43	102	1048576	13	4555
2026-01-07 00:04:53.73	182.31	20.58	-27.2	-29.2	15.0	3.64e-03	0	43	102	1048576	14	4499
2026-01-07 00:04:56.75	182.49	20.19	-26.7	-28.3	15.6	3.19e-03	0	44	102	1048576	13	4375
2026-01-07 00:04:59.77	182.66	19.80	-26.6	-28.3	15.4	0.00e+00	0	44	102	1048576	13	4359
2026-01-07 00:05:02.80	182.84	19.42	-26.6	-28.2	15.7	2.95e-03	0	43	102	1048576	13	4332
2026-01-07 00:05:05.82	183.01	19.04	-26.6	-28.1	15.7	0.00e+00	0	43	102	1048576	13	4323
2026-01-07 00:05:08.84	183.17	18.67	-26.6	-28.2	15.7	2.53e-03	0	44	102	1048576	13	4339
2026-01-07 00:05:11.86	183.33	18.31	-26.7	-28.6	15.5	3.36e-04	0	43	102	1048576	13	4440
2026-01-07 00:05:14.88	183.49	17.95	-26.8	-28.6	15.4	0.00e+00	0	43	102	1048576	13	4444
2026-01-07 00:05:17.89	183.64	17.60	-26.9	-28.9	15.3	3.68e-04	0	44	102	1048576	13	4541
2026-01-07 00:05:20.92	183.79	17.25	-27.2	-29.1	14.9	4.00e-04	0	44	102	1048576	14	4473
2026-01-07 00:05:23.93	183.94	16.91	-27.4	-29.6	14.6	4.09e-04	0	44	102	1048576	14	4635
2026-01-07 00:05:26.96	184.09	16.57	-27.3	-29.2	14.8	3.17e-04	0	44	102	1048576	14	4517
2026-01-07 00:05:29.98	184.23	16.23	-27.5	-29.3	14.4	3.23e-04	0	43	102	1048576	15	4433
2026-01-07 00:05:32.99	184.37	15.90	-27.4	-29.7	14.5	0.00e+00	0	43	102	1048576	14	4647
2026-01-07 00:05:36.02	184.50	15.57	-27.9	-30.2	13.9	3.76e-04	0	44	102	1048576	15	4714
2026-01-07 00:05:39.03	184.64	15.25	-27.3	-28.9	14.7	0.00e+00	0	43	102	1048576	15	4308
2026-01-07 00:05:42.06	184.77	14.93	-27.5	-29.8	14.4	0.00e+00	0	44	102	1048576	14	4683
2026-01-07 00:05:45.08	184.89	14.62	-27.7	-29.8	14.1	7.00e-07	0	44	102	1048576	15	4595
2026-01-07 00:05:48.09	185.02	14.31	-28.0	-30.4	13.7	3.80e-06	0	44	102	1048576	15	4789
2026-01-07 00:05:51.11	185.14	14.00	-28.3	-30.6	13.5	1.37e-05	0	44	102	1048576	16	4729
2026-01-07 00:05:54.12	185.26	13.70	-28.3	-30.7	13.4	1.44e-05	0	44	102	1048576	16	4755
2026-01-07 00:05:57.12	185.38	13.40	-28.1	-30.3	13.6	3.24e-04	0	44	102	1048576	16	4622
2026-01-07 00:06:00.14	185.50	13.11	-28.0	-30.0	13.8	5.30e-06	0	44	102	1048576	16	4544
2026-01-07 00:06:03.16	185.61	12.82	-27.7	-29.9	14.0	2.72e-04	0	44	102	1048576	15	4632
2026-01-07 00:06:06.19	185.73	12.53	-27.9	-30.2	13.8	6.10e-06	0	44	102	1048576	15	4728
2026-01-07 00:06:09.20	185.84	12.24	-28.0	-30.1	13.7	3.50e-04	0	43	102	1048576	16	4554
2026-01-07 00:06:12.22	185.94	11.96	-27.9	-30.4	13.6	3.42e-04	0	44	102	1048576	15	4780
2026-01-07 00:06:15.25	186.05	11.68	-28.3	-30.8	13.2	3.91e-04	0	44	102	1048576	16	4777
2026-01-07 00:06:18.26	186.16	11.40	-28.1	-30.2	13.6	2.39e-04	0	44	102	1048576	16	4595
2026-01-07 00:06:21.27	186.26	11.13	-28.1	-30.2	13.6	3.13e-04	0	44	102	1048576	16	4581
2026-01-07 00:06:24.29	186.36	10.86	-28.2	-30.6	13.3	5.50e-04	0	44	102	1048576	16	4724
2026-01-07 00:06:27.30	186.46	10.60	-28.4	-31.0	13.0	3.58e-05	0	43	102	1048576	16	4847
2026-01-07 00:06:30.31	186.56	10.33	-28.2	-30.4	13.4	1.62e-03	0	44	102	1048576	16	4672
2026-01-07 00:06:33.33	186.65	10.07	-28.2	-30.5	13.3	1.52e-05	0	43	102	1048576	16	4712
2026-01-07 00:06:36.35	186.75	9.81	-28.4	-30.9	13.1	4.11e-05	0	43	102	1048576	16	4827
2026-01-07 00:06:39.36	186.84	9.56	-28.6	-30.9	12.7	8.46e-05	0	44	102	1048576	17	4734
2026-01-07 00:06:42.39	186.93	9.30	-28.3	-30.9	13.0	3.43e-05	0	44	102	1048576	16	4816
2026-01-07 00:06:45.41	187.02	9.05	-28.8	-31.5	12.3	1.69e-04	0	44	102	1048576	17	4909
2026-01-07 00:06:48.43	187.11	8.80	-29.1	-31.8	11.8	3.05e-04	0	44	102	1048576	18	4910
2026-01-07 00:06:51.45	187.20	8.55	-29.3	-32.3	11.4	8.83e-04	0	44	102	1048576	18	5112
2026-01-07 00:06:54.46	187.29	8.31	-29.5	-32.5	10.9	1.65e-03	0	44	102	1048576	19	5074
2026-01-07 00:06:57.49	187.37	8.07	-29.6	-32.7	10.8	2.73e-03	0	44	102	1048576	19	5166
2026-01-07 00:07:00.51	187.46	7.83	-29.4	-32.8	11.0	1.55e-03	0	44	102	1048576	18	5288
2026-01-07 00:07:03.53	187.54	7.59	-29.4	-32.7	11.1	2.34e-03	0	44	102	1048576	18	5251
2026-01-07 00:07:06.55	187.62	7.36	-29.4	-32.3	11.0	2.36e-03	0	44	102	1048576	19	5013
2026-01-07 00:07:09.57	187.70	7.12	-29.4	-32.8	11.0	2.72e-03	0	44	102	1048576	18	5314
2026-01-07 00:07:12.59	187.78	6.89	-33.1	-45.1	3.8	1.49e+00	0	44	104	1048576	26	14300

#Closed at: 2026-01-07 00:07:12
#Recorded file [1 MB]: D:/data/31010_260107_025513.dat