passes_logs/2026/01/06/R2M6_AANII_01/R2M6_AANII_01__20260106_073952_NOAA_20_JPSS-1_rec.log

#Pass ID: 20260106_073952_NOAA 20 (JPSS-1)
#Satellite: NOAA 20 (JPSS-1)
#Configuration: NOAA 20
#almurnet v.1.7.20240730
#Start time: 2026-01-06 07:39:52

#Version: 2.2.20231116
#Station: R2M6_AANII_01
#Location: 30.233357 lon 59.946436 lat
#TLE: 1 43013U 17073A   26005.46207808  .00000128  00000+0  81791-4 0  9997
#TLE: 2 43013  98.7627 306.5027 0001826  53.0458 307.0885 14.19533487421381

#Time	Az	El	Level	Level2	SNR	BER	BlckErr	Temp	State	Recorded	gain1	gain2
2026-01-06 07:39:52.27	77.42	6.99	-32.4	-43.3	3.9	1.49e+00	0	40	0	0	26	12694
2026-01-06 07:39:54.27	77.18	7.10	-31.9	-39.6	5.5	5.08e-01	0	40	0	0	25	8757
2026-01-06 07:39:56.29	76.94	7.20	-31.9	-39.2	5.8	4.16e-01	0	40	102	1048576	25	8373
2026-01-06 07:39:58.30	76.69	7.31	-31.9	-39.2	5.8	3.68e-01	0	41	102	1048576	25	8374
2026-01-06 07:40:00.32	76.44	7.41	-31.8	-38.7	6.1	3.49e-01	0	41	102	1048576	25	7970
2026-01-06 07:40:02.33	76.20	7.52	-31.5	-37.2	7.6	1.19e-01	0	41	102	1048576	24	6987
2026-01-06 07:40:04.35	75.95	7.62	-31.1	-36.0	9.0	3.58e-02	0	41	102	1048576	23	6336
2026-01-06 07:40:06.36	75.69	7.73	-30.9	-35.0	9.9	1.10e-02	0	41	102	1048576	23	5787
2026-01-06 07:40:08.37	75.44	7.83	-30.8	-34.7	10.2	6.47e-03	0	41	102	1048576	23	5632
2026-01-06 07:40:10.38	75.19	7.93	-30.7	-34.9	10.4	4.35e-03	0	41	102	1048576	22	5816
2026-01-06 07:40:12.40	74.93	8.04	-30.8	-35.2	10.2	5.76e-03	0	41	102	1048576	22	5997
2026-01-06 07:40:14.42	74.67	8.14	-30.6	-34.6	10.7	4.43e-03	0	41	102	1048576	22	5684
2026-01-06 07:40:16.43	74.41	8.25	-30.7	-34.8	10.5	3.65e-03	0	41	102	1048576	22	5783
2026-01-06 07:40:18.45	74.14	8.35	-30.7	-34.8	10.5	4.21e-03	0	41	102	1048576	22	5802
2026-01-06 07:40:20.46	73.88	8.46	-30.7	-34.8	10.5	3.99e-03	0	41	102	1048576	22	5785
2026-01-06 07:40:22.47	73.61	8.56	-30.7	-34.9	10.5	3.55e-03	0	41	102	1048576	22	5824
2026-01-06 07:40:24.49	73.34	8.66	-30.8	-35.1	10.4	4.56e-03	0	41	102	1048576	22	5894
2026-01-06 07:40:26.50	73.07	8.77	-30.8	-35.3	10.3	5.11e-03	0	41	102	1048576	22	5987
2026-01-06 07:40:28.52	72.80	8.87	-30.8	-35.2	10.4	5.10e-03	0	41	102	1048576	22	5937
2026-01-06 07:40:30.53	72.52	8.97	-30.8	-35.1	10.4	4.42e-03	0	42	102	1048576	22	5907
2026-01-06 07:40:32.54	72.25	9.08	-30.9	-35.4	10.2	7.20e-03	0	41	102	1048576	22	6046
2026-01-06 07:40:34.55	71.97	9.18	-30.7	-34.6	10.8	2.63e-03	0	42	102	1048576	22	5678
2026-01-06 07:40:36.56	71.69	9.28	-30.8	-34.9	10.6	3.06e-03	0	42	102	1048576	22	5802
2026-01-06 07:40:38.58	71.40	9.38	-30.9	-35.3	10.3	5.02e-03	0	42	102	1048576	22	6002
2026-01-06 07:40:40.59	71.12	9.48	-30.9	-35.2	10.4	5.79e-03	0	42	102	1048576	22	5969
2026-01-06 07:40:42.61	70.83	9.59	-30.9	-35.4	10.3	5.12e-03	0	42	102	1048576	22	6036
2026-01-06 07:40:44.62	70.54	9.69	-30.8	-35.2	10.5	4.01e-03	0	42	102	1048576	22	5915
2026-01-06 07:40:46.63	70.25	9.79	-30.9	-35.5	10.3	4.24e-03	0	42	102	1048576	22	6062
2026-01-06 07:40:48.65	69.96	9.89	-30.7	-34.8	10.8	2.72e-03	0	42	102	1048576	22	5720
2026-01-06 07:40:50.66	69.66	9.99	-30.8	-34.9	10.8	2.35e-03	0	42	102	1048576	22	5758
2026-01-06 07:40:52.68	69.36	10.09	-30.8	-34.8	10.8	2.16e-03	0	42	102	1048576	22	5740
2026-01-06 07:40:54.69	69.07	10.19	-30.6	-34.2	11.2	1.16e-03	0	42	102	1048576	22	5465
2026-01-06 07:40:56.71	68.76	10.29	-30.4	-33.8	11.6	7.72e-04	0	42	102	1048576	22	5266
2026-01-06 07:40:58.72	68.46	10.39	-30.4	-33.7	11.6	6.06e-04	0	42	102	1048576	22	5238
2026-01-06 07:41:00.73	68.16	10.49	-30.3	-33.3	11.9	4.14e-04	0	42	102	1048576	22	5089
2026-01-06 07:41:02.74	67.85	10.58	-30.4	-33.5	11.8	4.90e-04	0	42	102	1048576	22	5164
2026-01-06 07:41:04.75	67.54	10.68	-30.3	-33.7	11.9	3.34e-04	0	42	102	1048576	21	5356
2026-01-06 07:41:06.77	67.23	10.78	-30.5	-34.4	11.4	7.98e-04	0	42	102	1048576	21	5674
2026-01-06 07:41:08.78	66.91	10.88	-30.4	-34.0	11.8	5.78e-04	0	42	102	1048576	21	5493
2026-01-06 07:41:10.79	66.60	10.97	-30.4	-34.2	11.7	5.97e-04	0	42	102	1048576	21	5534
2026-01-06 07:41:12.81	66.28	11.07	-30.5	-34.5	11.5	6.74e-04	0	42	102	1048576	21	5675
2026-01-06 07:41:14.82	65.96	11.16	-30.2	-33.4	12.2	2.94e-04	0	42	102	1048576	21	5237
2026-01-06 07:41:16.83	65.64	11.26	-30.0	-32.9	12.6	1.01e-04	0	42	102	1048576	21	5011
2026-01-06 07:41:18.84	65.31	11.35	-30.0	-32.8	12.7	8.62e-05	0	42	102	1048576	21	4980
2026-01-06 07:41:20.84	64.99	11.45	-30.0	-32.7	12.7	7.32e-05	0	42	102	1048576	21	4961
2026-01-06 07:41:22.85	64.66	11.54	-30.0	-32.7	12.7	7.93e-05	0	42	102	1048576	21	4961
2026-01-06 07:41:24.87	64.33	11.63	-30.0	-32.7	12.7	9.46e-05	0	42	102	1048576	21	4964
2026-01-06 07:41:26.87	64.00	11.72	-29.9	-32.6	12.8	9.00e-05	0	42	102	1048576	21	4923
2026-01-06 07:41:28.89	63.66	11.82	-29.9	-32.6	12.8	5.41e-05	0	42	102	1048576	21	4914
2026-01-06 07:41:30.90	63.33	11.91	-29.8	-32.4	12.9	3.89e-05	0	42	102	1048576	21	4841
2026-01-06 07:41:32.92	62.99	12.00	-29.8	-32.7	13.1	2.59e-05	0	42	102	1048576	20	5033
2026-01-06 07:41:34.93	62.65	12.09	-29.9	-33.0	12.9	5.49e-05	0	42	102	1048576	20	5149
2026-01-06 07:41:36.94	62.30	12.18	-29.9	-33.1	12.9	4.11e-05	0	42	102	1048576	20	5213
2026-01-06 07:41:38.96	61.96	12.26	-30.0	-33.4	12.6	9.30e-05	0	42	102	1048576	20	5325
2026-01-06 07:41:40.98	61.61	12.35	-30.3	-34.3	12.0	2.40e-04	0	42	102	1048576	20	5699
2026-01-06 07:41:42.98	61.26	12.44	-30.2	-34.0	12.3	1.57e-04	0	42	102	1048576	20	5544
2026-01-06 07:41:45.00	60.91	12.53	-30.2	-33.9	12.3	1.50e-04	0	42	102	1048576	20	5510
2026-01-06 07:41:47.01	60.56	12.61	-30.2	-34.0	12.3	3.19e-04	0	42	102	1048576	20	5543
2026-01-06 07:41:49.01	60.20	12.69	-30.0	-33.2	12.8	9.07e-05	0	42	102	1048576	20	5239
2026-01-06 07:41:51.02	59.85	12.78	-30.0	-33.2	12.8	5.11e-05	0	42	102	1048576	20	5226
2026-01-06 07:41:53.03	59.49	12.86	-30.1	-33.7	12.5	1.20e-04	0	42	102	1048576	20	5422
2026-01-06 07:41:55.04	59.12	12.94	-30.2	-33.8	12.5	1.65e-04	0	42	102	1048576	20	5460
2026-01-06 07:41:57.06	58.76	13.02	-30.3	-34.1	12.2	1.62e-04	0	42	102	1048576	20	5594
2026-01-06 07:41:59.08	58.39	13.11	-30.3	-34.0	12.2	2.64e-04	0	42	102	1048576	20	5561
2026-01-06 07:42:01.07	58.03	13.18	-30.2	-33.8	12.4	1.27e-04	0	43	102	1048576	20	5452
2026-01-06 07:42:03.08	57.66	13.26	-30.1	-33.6	12.6	1.26e-04	0	42	102	1048576	20	5390
2026-01-06 07:42:05.11	57.28	13.34	-30.4	-34.4	12.0	2.45e-04	0	43	102	1048576	20	5740
2026-01-06 07:42:07.11	56.91	13.42	-30.0	-33.2	12.9	9.91e-05	0	43	102	1048576	20	5225
2026-01-06 07:42:09.14	56.53	13.49	-29.8	-32.7	13.3	1.98e-05	0	42	102	1048576	20	5014
2026-01-06 07:42:11.15	56.16	13.57	-29.8	-32.6	13.3	1.52e-05	0	42	102	1048576	20	4978
2026-01-06 07:42:13.16	55.78	13.64	-29.8	-32.8	13.2	1.52e-05	0	42	102	1048576	20	5060
2026-01-06 07:42:15.17	55.40	13.71	-29.6	-32.1	13.6	7.60e-06	0	43	102	1048576	20	4816
2026-01-06 07:42:17.18	55.01	13.79	-29.6	-32.3	13.5	6.80e-06	0	42	102	1048576	20	4862
2026-01-06 07:42:19.20	54.63	13.86	-29.7	-32.3	13.5	9.90e-06	0	43	102	1048576	20	4887
2026-01-06 07:42:21.22	54.24	13.93	-29.6	-32.0	13.7	7.60e-06	0	42	102	1048576	20	4782
2026-01-06 07:42:23.23	53.85	13.99	-29.6	-32.2	13.6	6.10e-06	0	43	102	1048576	20	4840
2026-01-06 07:42:25.24	53.46	14.06	-29.7	-32.3	13.5	8.30e-06	0	43	102	1048576	20	4864
2026-01-06 07:42:27.25	53.07	14.13	-29.6	-32.2	13.6	7.60e-06	0	43	102	1048576	20	4827
2026-01-06 07:42:29.27	52.67	14.19	-29.7	-32.4	13.5	1.06e-05	0	43	102	1048576	20	4899
2026-01-06 07:42:31.28	52.28	14.26	-29.8	-32.6	13.3	1.52e-05	0	43	102	1048576	20	4974
2026-01-06 07:42:33.30	51.88	14.32	-29.5	-31.9	13.9	4.50e-06	0	43	102	1048576	20	4721
2026-01-06 07:42:35.31	51.48	14.38	-29.6	-32.1	13.7	9.10e-06	0	42	102	1048576	20	4817
2026-01-06 07:42:37.32	51.08	14.44	-29.5	-31.9	13.9	3.80e-06	0	43	102	1048576	20	4722
2026-01-06 07:42:39.33	50.68	14.50	-29.5	-31.8	13.9	3.00e-06	0	43	102	1048576	20	4695
2026-01-06 07:42:41.35	50.27	14.56	-29.7	-32.2	13.6	6.10e-06	0	43	102	1048576	20	4844
2026-01-06 07:42:43.36	49.87	14.61	-29.7	-32.4	13.5	1.29e-05	0	43	102	1048576	20	4915
2026-01-06 07:42:45.37	49.46	14.67	-29.7	-32.4	13.5	1.14e-05	0	43	102	1048576	20	4926
2026-01-06 07:42:47.37	49.06	14.72	-29.9	-32.8	13.3	2.97e-05	0	43	102	1048576	20	5043
2026-01-06 07:42:49.38	48.65	14.77	-29.9	-32.8	13.2	2.89e-05	0	43	102	1048576	20	5044
2026-01-06 07:42:51.40	48.23	14.82	-29.8	-32.6	13.4	9.10e-06	0	43	102	1048576	20	4982
2026-01-06 07:42:53.41	47.82	14.87	-29.9	-32.8	13.3	1.06e-05	0	43	102	1048576	20	5064
2026-01-06 07:42:55.43	47.40	14.92	-29.9	-32.9	13.1	2.82e-05	0	43	102	1048576	20	5101
2026-01-06 07:42:57.44	46.99	14.97	-29.8	-32.7	13.3	1.37e-05	0	43	102	1048576	20	5019
2026-01-06 07:42:59.46	46.57	15.01	-30.0	-33.2	13.0	3.28e-05	0	43	102	1048576	20	5218
2026-01-06 07:43:01.48	46.15	15.06	-30.0	-33.2	13.0	4.11e-05	0	43	102	1048576	20	5193
2026-01-06 07:43:03.49	45.73	15.10	-29.8	-32.7	13.3	1.90e-05	0	43	102	1048576	20	5010
2026-01-06 07:43:05.50	45.31	15.14	-29.9	-33.0	13.1	1.90e-05	0	43	102	1048576	20	5137
2026-01-06 07:43:07.51	44.89	15.18	-29.9	-32.9	13.2	1.90e-05	0	43	102	1048576	20	5096
2026-01-06 07:43:09.52	44.47	15.22	-29.8	-32.8	13.3	1.90e-05	0	43	102	1048576	20	5041
2026-01-06 07:43:11.53	44.05	15.25	-30.0	-33.1	13.1	3.96e-05	0	43	102	1048576	20	5164
2026-01-06 07:43:13.55	43.62	15.29	-29.9	-32.8	13.2	1.90e-05	0	42	102	1048576	20	5055
2026-01-06 07:43:15.56	43.20	15.32	-29.9	-32.9	13.2	1.90e-05	0	43	102	1048576	20	5099
2026-01-06 07:43:17.58	42.77	15.35	-30.0	-33.3	13.0	3.66e-05	0	43	102	1048576	20	5232
2026-01-06 07:43:19.58	42.34	15.38	-30.2	-33.7	12.7	5.95e-05	0	43	102	1048576	20	5396
2026-01-06 07:43:21.60	41.91	15.41	-30.1	-33.5	12.8	6.56e-05	0	43	102	1048576	20	5318
2026-01-06 07:43:23.61	41.48	15.44	-30.2	-33.7	12.7	1.13e-04	0	43	102	1048576	20	5393
2026-01-06 07:43:25.62	41.05	15.46	-30.1	-33.4	12.8	5.41e-05	0	43	102	1048576	20	5295
2026-01-06 07:43:27.64	40.62	15.49	-30.1	-33.4	12.9	6.40e-05	0	43	102	1048576	20	5288
2026-01-06 07:43:29.65	40.19	15.51	-29.9	-32.9	13.2	2.74e-05	0	43	102	1048576	20	5085
2026-01-06 07:43:31.66	39.76	15.53	-29.9	-32.9	13.2	2.89e-05	0	43	102	1048576	20	5103
2026-01-06 07:43:33.68	39.33	15.55	-30.0	-33.3	13.0	2.44e-05	0	43	102	1048576	20	5235
2026-01-06 07:43:35.68	38.90	15.57	-30.0	-33.2	13.1	3.81e-05	0	43	102	1048576	20	5192
2026-01-06 07:43:37.69	38.46	15.58	-30.0	-33.0	13.1	2.36e-05	0	43	102	1048576	20	5138
2026-01-06 07:43:39.70	38.03	15.60	-29.9	-33.0	13.2	2.59e-05	0	43	102	1048576	20	5108
2026-01-06 07:43:41.72	37.59	15.61	-30.0	-33.1	13.1	3.81e-05	0	43	102	1048576	20	5165
2026-01-06 07:43:43.73	37.16	15.62	-29.8	-32.7	13.4	1.44e-05	0	43	102	1048576	20	4998
2026-01-06 07:43:45.75	36.72	15.63	-29.9	-33.0	13.2	2.28e-05	0	43	102	1048576	20	5113
2026-01-06 07:43:47.75	36.29	15.64	-30.1	-33.3	12.9	3.05e-05	0	43	102	1048576	20	5257
2026-01-06 07:43:49.77	35.85	15.64	-30.2	-33.7	12.7	7.55e-05	0	43	102	1048576	20	5400
2026-01-06 07:43:51.78	35.42	15.64	-30.2	-33.7	12.7	7.47e-05	0	43	102	1048576	20	5403
2026-01-06 07:43:53.80	34.98	15.65	-30.0	-33.1	13.1	4.11e-05	0	43	102	1048576	20	5155
2026-01-06 07:43:55.81	34.55	15.65	-30.0	-33.1	13.0	2.74e-05	0	43	102	1048576	20	5164
2026-01-06 07:43:57.83	34.11	15.65	-30.0	-33.3	12.9	4.80e-05	0	43	102	1048576	20	5240
2026-01-06 07:43:59.85	33.67	15.64	-30.0	-33.2	13.0	4.04e-05	0	43	102	1048576	20	5185
2026-01-06 07:44:01.85	33.24	15.64	-29.9	-32.9	13.2	2.13e-05	0	43	102	1048576	20	5099
2026-01-06 07:44:03.86	32.81	15.63	-30.1	-33.3	13.0	2.13e-05	0	43	102	1048576	20	5243
2026-01-06 07:44:05.88	32.37	15.63	-30.1	-33.5	12.8	4.11e-05	0	43	102	1048576	20	5316
2026-01-06 07:44:07.89	31.94	15.62	-30.0	-33.1	13.1	3.89e-05	0	43	102	1048576	20	5166
2026-01-06 07:44:09.89	31.51	15.61	-29.9	-32.8	13.2	2.82e-05	0	43	102	1048576	20	5057
2026-01-06 07:44:11.91	31.07	15.59	-29.9	-32.9	13.2	2.44e-05	0	43	102	1048576	20	5095
2026-01-06 07:44:13.93	30.63	15.58	-30.1	-33.5	12.8	5.49e-05	0	43	102	1048576	20	5316
2026-01-06 07:44:15.95	30.20	15.56	-30.0	-33.3	13.0	4.50e-05	0	43	102	1048576	20	5233
2026-01-06 07:44:17.95	29.77	15.55	-30.1	-33.4	12.9	3.20e-05	0	43	102	1048576	20	5259
2026-01-06 07:44:19.96	29.34	15.53	-30.0	-33.3	13.0	6.40e-05	0	43	102	1048576	20	5239
2026-01-06 07:44:21.97	28.91	15.51	-29.8	-32.8	13.3	1.52e-05	0	43	102	1048576	20	5050
2026-01-06 07:44:23.98	28.48	15.48	-29.8	-32.5	13.4	1.37e-05	0	43	102	1048576	20	4960
2026-01-06 07:44:26.00	28.05	15.46	-29.8	-32.8	13.3	1.98e-05	0	43	102	1048576	20	5049
2026-01-06 07:44:28.01	27.62	15.43	-30.0	-33.1	13.0	2.89e-05	0	43	102	1048576	20	5182
2026-01-06 07:44:30.03	27.19	15.41	-29.8	-32.5	13.4	1.52e-05	0	43	102	1048576	20	4943
2026-01-06 07:44:32.04	26.76	15.38	-29.7	-32.5	13.4	1.29e-05	0	43	102	1048576	20	4941
2026-01-06 07:44:34.06	26.33	15.35	-29.7	-32.4	13.5	9.10e-06	0	43	102	1048576	20	4920
2026-01-06 07:44:36.06	25.91	15.32	-29.5	-31.9	13.8	4.50e-06	0	43	102	1048576	20	4743
2026-01-06 07:44:38.07	25.48	15.28	-29.6	-32.0	13.8	3.80e-06	0	43	102	1048576	20	4765
2026-01-06 07:44:40.08	25.06	15.25	-29.6	-32.0	13.8	5.30e-06	0	43	102	1048576	20	4776
2026-01-06 07:44:42.10	24.64	15.21	-29.5	-31.9	13.9	3.00e-06	0	43	102	1048576	20	4711
2026-01-06 07:44:44.12	24.21	15.17	-29.6	-32.0	13.8	3.80e-06	0	43	102	1048576	20	4758
2026-01-06 07:44:46.13	23.79	15.13	-29.6	-32.0	13.8	8.30e-06	0	43	102	1048576	20	4777
2026-01-06 07:44:48.14	23.37	15.09	-29.7	-32.3	13.6	1.14e-05	0	43	102	1048576	20	4858
2026-01-06 07:44:50.16	22.95	15.05	-29.7	-32.4	13.5	1.52e-05	0	43	102	1048576	20	4893
2026-01-06 07:44:52.17	22.54	15.00	-29.9	-32.8	13.2	2.13e-05	0	43	102	1048576	20	5059
2026-01-06 07:44:54.19	22.12	14.96	-29.9	-33.0	13.1	2.05e-05	0	43	102	1048576	20	5113
2026-01-06 07:44:56.21	21.70	14.91	-30.1	-33.4	12.8	4.57e-05	0	43	102	1048576	20	5299
2026-01-06 07:44:58.22	21.29	14.86	-30.0	-33.2	13.0	3.20e-05	0	43	102	1048576	20	5191
2026-01-06 07:45:00.23	20.88	14.81	-30.0	-33.3	12.9	5.64e-05	0	43	102	1048576	20	5260
2026-01-06 07:45:02.25	20.47	14.76	-30.0	-33.1	13.0	3.12e-05	0	43	102	1048576	20	5177
2026-01-06 07:45:04.26	20.06	14.71	-30.0	-33.1	13.0	3.81e-05	0	43	102	1048576	20	5155
2026-01-06 07:45:06.28	19.65	14.66	-29.9	-32.9	13.1	3.12e-05	0	43	102	1048576	20	5110
2026-01-06 07:45:08.29	19.24	14.60	-30.0	-33.3	12.9	5.11e-05	0	43	102	1048576	20	5247
2026-01-06 07:45:10.31	18.84	14.55	-29.8	-32.8	13.2	2.59e-05	0	43	102	1048576	20	5077
2026-01-06 07:45:12.33	18.43	14.49	-29.8	-32.8	13.2	2.36e-05	0	43	102	1048576	20	5058
2026-01-06 07:45:14.34	18.03	14.43	-29.8	-32.8	13.2	2.21e-05	0	43	102	1048576	20	5045
2026-01-06 07:45:16.35	17.63	14.37	-29.8	-32.6	13.3	1.44e-05	0	43	102	1048576	20	4973
2026-01-06 07:45:18.37	17.23	14.31	-29.7	-32.4	13.4	9.10e-06	0	43	102	1048576	20	4921
2026-01-06 07:45:20.38	16.84	14.25	-29.7	-32.4	13.4	1.44e-05	0	43	102	1048576	20	4915
2026-01-06 07:45:22.40	16.44	14.18	-29.8	-32.8	13.1	3.28e-05	0	43	102	1048576	20	5058
2026-01-06 07:45:24.42	16.05	14.12	-29.7	-32.4	13.4	1.60e-05	0	43	102	1048576	20	4913
2026-01-06 07:45:26.43	15.66	14.05	-29.7	-32.3	13.5	9.90e-06	0	43	102	1048576	20	4872
2026-01-06 07:45:28.44	15.27	13.98	-29.7	-32.4	13.4	8.30e-06	0	43	102	1048576	20	4918
2026-01-06 07:45:30.46	14.88	13.91	-29.7	-32.5	13.4	1.75e-05	0	43	102	1048576	20	4945
2026-01-06 07:45:32.47	14.50	13.84	-29.7	-32.5	13.4	1.44e-05	0	43	102	1048576	20	4942
2026-01-06 07:45:34.48	14.11	13.77	-29.8	-32.6	13.3	2.59e-05	0	43	102	1048576	20	4985
2026-01-06 07:45:36.49	13.73	13.70	-29.6	-32.1	13.6	7.60e-06	0	43	102	1048576	20	4815
2026-01-06 07:45:38.51	13.35	13.63	-29.7	-32.3	13.5	1.14e-05	0	43	102	1048576	20	4867
2026-01-06 07:45:40.53	12.97	13.56	-29.5	-32.0	13.7	8.30e-06	0	43	102	1048576	20	4761
2026-01-06 07:45:42.54	12.59	13.48	-29.6	-32.2	13.5	1.44e-05	0	43	102	1048576	20	4846
2026-01-06 07:45:44.55	12.22	13.41	-29.7	-32.3	13.5	9.90e-06	0	43	102	1048576	20	4868
2026-01-06 07:45:46.57	11.85	13.33	-29.8	-32.7	13.2	2.36e-05	0	43	102	1048576	20	5004
2026-01-06 07:45:48.58	11.48	13.25	-29.7	-32.3	13.4	1.22e-05	0	43	102	1048576	20	4874
2026-01-06 07:45:50.59	11.11	13.17	-29.7	-32.4	13.3	1.29e-05	0	43	102	1048576	20	4933
2026-01-06 07:45:52.61	10.74	13.09	-29.8	-32.7	13.2	2.51e-05	0	43	102	1048576	20	5033
2026-01-06 07:45:54.63	10.38	13.01	-29.9	-33.1	12.9	4.50e-05	0	43	102	1048576	20	5166
2026-01-06 07:45:56.65	10.01	12.93	-30.0	-33.3	12.7	9.38e-05	0	43	102	1048576	20	5274
2026-01-06 07:45:58.66	9.65	12.85	-30.2	-33.8	12.4	1.27e-04	0	43	102	1048576	20	5452
2026-01-06 07:46:00.67	9.30	12.77	-30.2	-33.7	12.4	1.43e-04	0	43	102	1048576	20	5439
2026-01-06 07:46:02.69	8.94	12.68	-30.3	-34.1	12.2	2.33e-04	0	43	102	1048576	20	5613
2026-01-06 07:46:04.70	8.59	12.60	-30.3	-34.3	12.0	3.30e-04	0	43	102	1048576	20	5657
2026-01-06 07:46:06.71	8.23	12.51	-30.3	-34.2	12.1	2.75e-04	0	43	102	1048576	20	5632
2026-01-06 07:46:08.72	7.88	12.43	-30.4	-34.6	11.8	4.73e-04	0	43	102	1048576	20	5813
2026-01-06 07:46:10.74	7.54	12.34	-30.4	-34.1	11.8	5.90e-04	0	43	102	1048576	21	5504
2026-01-06 07:46:12.75	7.19	12.25	-30.5	-34.4	11.6	6.62e-04	0	43	102	1048576	21	5602
2026-01-06 07:46:14.76	6.85	12.16	-30.6	-34.5	11.5	6.33e-04	0	43	102	1048576	21	5662
2026-01-06 07:46:16.78	6.50	12.07	-30.6	-34.8	11.3	1.20e-03	0	43	102	1048576	21	5810
2026-01-06 07:46:18.78	6.17	11.99	-30.7	-35.1	11.0	2.07e-03	0	43	102	1048576	21	5964
2026-01-06 07:46:20.80	5.83	11.89	-30.7	-34.9	11.2	1.33e-03	0	43	102	1048576	21	5872
2026-01-06 07:46:22.82	5.49	11.80	-30.7	-35.0	11.1	1.70e-03	0	43	102	1048576	21	5912
2026-01-06 07:46:24.83	5.16	11.71	-30.8	-35.2	10.9	2.18e-03	0	43	102	1048576	21	6004
2026-01-06 07:46:26.85	4.83	11.62	-30.9	-35.6	10.7	3.33e-03	0	43	102	1048576	21	6195
2026-01-06 07:46:28.87	4.50	11.53	-31.0	-35.6	10.3	5.41e-03	0	43	102	1048576	22	6091
2026-01-06 07:46:30.88	4.17	11.43	-31.0	-35.5	10.3	4.74e-03	0	43	102	1048576	22	6049
2026-01-06 07:46:32.89	3.85	11.34	-31.1	-35.7	10.2	6.09e-03	0	43	102	1048576	22	6149
2026-01-06 07:46:34.91	3.52	11.25	-31.2	-36.2	9.8	8.10e-03	0	43	102	1048576	22	6434
2026-01-06 07:46:36.92	3.20	11.15	-31.1	-36.0	10.0	7.93e-03	0	43	102	1048576	22	6277
2026-01-06 07:46:38.94	2.89	11.05	-31.1	-36.0	9.9	8.73e-03	0	43	102	1048576	22	6318
2026-01-06 07:46:40.95	2.57	10.96	-31.2	-36.3	9.7	1.01e-02	0	43	102	1048576	22	6499
2026-01-06 07:46:42.97	2.25	10.86	-31.3	-36.6	9.5	1.24e-02	0	43	102	1048576	22	6626
2026-01-06 07:46:44.98	1.94	10.77	-31.1	-35.8	10.1	8.43e-03	0	43	102	1048576	22	6183
2026-01-06 07:46:46.99	1.63	10.67	-31.0	-35.6	10.2	5.67e-03	0	43	102	1048576	22	6114
2026-01-06 07:46:49.00	1.33	10.57	-31.0	-35.5	10.3	6.20e-03	0	43	102	1048576	22	6042
2026-01-06 07:46:51.02	1.02	10.47	-31.0	-35.5	10.3	5.41e-03	0	43	102	1048576	22	6043
2026-01-06 07:46:53.03	0.72	10.37	-31.0	-35.7	10.1	7.42e-03	0	43	102	1048576	22	6177
2026-01-06 07:46:55.05	0.41	10.28	-31.2	-36.2	9.7	9.93e-03	0	43	102	1048576	22	6448
2026-01-06 07:46:57.06	0.12	10.18	-31.1	-36.1	9.7	1.31e-02	0	43	102	1048576	22	6391
2026-01-06 07:46:59.06	359.82	10.08	-31.0	-35.5	10.3	6.34e-03	0	43	102	1048576	22	6052
2026-01-06 07:47:01.07	359.53	9.98	-30.9	-35.2	10.4	4.40e-03	0	43	102	1048576	22	5932
2026-01-06 07:47:03.09	359.23	9.88	-31.0	-35.6	10.1	5.60e-03	0	43	102	1048576	22	6130
2026-01-06 07:47:05.10	358.94	9.78	-30.7	-34.6	10.9	2.61e-03	0	43	102	1048576	22	5650
2026-01-06 07:47:07.12	358.65	9.68	-30.7	-34.5	10.9	2.43e-03	0	43	102	1048576	22	5605
2026-01-06 07:47:09.12	358.37	9.58	-30.6	-34.3	11.1	1.66e-03	0	43	102	1048576	22	5496
2026-01-06 07:47:11.14	358.08	9.47	-30.6	-34.4	11.0	1.95e-03	0	43	102	1048576	22	5552
2026-01-06 07:47:13.15	357.80	9.37	-30.5	-33.9	11.3	1.13e-03	0	43	102	1048576	22	5347
2026-01-06 07:47:15.16	357.52	9.27	-30.5	-33.9	11.4	9.93e-04	0	43	102	1048576	22	5337
2026-01-06 07:47:17.18	357.24	9.17	-30.5	-34.0	11.2	1.37e-03	0	43	102	1048576	22	5415
2026-01-06 07:47:19.19	356.96	9.07	-30.3	-33.4	11.7	7.29e-04	0	43	102	1048576	22	5130
2026-01-06 07:47:21.20	356.69	8.96	-30.3	-34.0	11.6	5.50e-04	0	43	102	1048576	21	5491
2026-01-06 07:47:23.22	356.41	8.86	-30.2	-33.5	11.9	4.29e-04	0	43	102	1048576	21	5298
2026-01-06 07:47:25.23	356.14	8.76	-30.2	-33.6	11.8	5.65e-04	0	43	102	1048576	21	5329
2026-01-06 07:47:27.25	355.87	8.65	-30.1	-33.4	11.9	3.11e-04	0	43	102	1048576	21	5257
2026-01-06 07:47:29.26	355.61	8.55	-30.0	-33.2	12.1	3.68e-04	0	43	102	1048576	21	5168
2026-01-06 07:47:31.27	355.34	8.45	-30.1	-33.3	11.9	2.82e-04	0	43	102	1048576	21	5215
2026-01-06 07:47:33.28	355.08	8.34	-29.9	-32.7	12.4	1.79e-04	0	43	102	1048576	21	4996
2026-01-06 07:47:35.29	354.82	8.24	-29.9	-32.7	12.3	1.44e-04	0	43	102	1048576	21	5005
2026-01-06 07:47:37.30	354.56	8.14	-29.9	-32.8	12.3	1.52e-04	0	43	102	1048576	21	5031
2026-01-06 07:47:39.32	354.30	8.03	-29.9	-32.8	12.3	1.71e-04	0	43	102	1048576	21	5016
2026-01-06 07:47:41.33	354.04	7.93	-29.9	-32.7	12.3	1.72e-04	0	43	102	1048576	21	4991
2026-01-06 07:47:43.35	353.79	7.82	-29.9	-32.8	12.2	1.57e-04	0	43	102	1048576	21	5033
2026-01-06 07:47:45.35	353.54	7.72	-29.9	-32.8	12.2	2.27e-04	0	43	102	1048576	21	5022
2026-01-06 07:47:47.37	353.29	7.62	-29.9	-32.8	12.2	2.26e-04	0	43	102	1048576	21	5043
2026-01-06 07:47:49.38	353.04	7.51	-29.9	-33.0	12.1	2.17e-04	0	43	102	1048576	21	5096
2026-01-06 07:47:51.39	352.79	7.41	-30.0	-33.2	11.9	3.42e-04	0	43	102	1048576	21	5182
2026-01-06 07:47:53.40	352.55	7.30	-30.0	-33.2	11.9	5.45e-04	0	43	102	1048576	21	5198
2026-01-06 07:47:55.42	352.31	7.20	-30.1	-33.4	11.8	4.80e-04	0	43	102	1048576	21	5262
2026-01-06 07:47:57.43	352.07	7.09	-30.0	-33.3	11.8	6.26e-04	0	43	102	1048576	21	5241

#Closed at: 2026-01-06 07:47:59
#Recorded file [1 MB]: D:/data/31010_260106_103954.dat