passes_logs/2026/01/06/R2M6_AANII_01/R2M6_AANII_01__20260106_015431_NOAA_21_JPSS-2_rec.log

#Pass ID: 20260106_015431_NOAA 21 (JPSS-2)
#Satellite: NOAA 21 (JPSS-2)
#Configuration: NOAA 21
#almurnet v.1.7.20240730
#Start time: 2026-01-06 01:56:11

#Version: 2.2.20231116
#Station: R2M6_AANII_01
#Location: 30.233357 lon 59.946436 lat
#TLE: 1 54234U 22150A   26005.21525222  .00000150  00000+0  91957-4 0  9992
#TLE: 2 54234  98.7490 306.2339 0001053 341.6032  18.5106 14.19532220163427

#Time	Az	El	Level	Level2	SNR	BER	BlckErr	Temp	State	Recorded	gain1	gain2
2026-01-06 01:56:11.61	1.66	14.54	-33.3	-44.7	3.8	8.47e-01	0	44	0	0	26	13336
2026-01-06 01:56:14.63	1.27	14.79	-33.8	-45.6	3.8	1.49e+00	0	44	104	0	28	13878
2026-01-06 01:56:17.64	0.87	15.04	-33.9	-45.6	3.8	1.49e+00	0	44	104	0	28	13924
2026-01-06 01:56:20.67	0.47	15.29	-33.9	-45.7	3.8	1.49e+00	0	44	104	0	28	13997
2026-01-06 01:56:23.68	0.06	15.54	-33.9	-45.7	3.8	1.49e+00	0	44	104	0	28	13993
2026-01-06 01:56:26.70	359.64	15.79	-33.9	-45.7	3.8	1.49e+00	0	44	104	0	28	13984
2026-01-06 01:56:29.73	359.22	16.05	-34.0	-45.8	3.8	1.49e+00	0	44	104	0	28	14038
2026-01-06 01:56:32.75	358.79	16.31	-33.9	-45.7	3.8	1.49e+00	0	44	104	0	28	13983
2026-01-06 01:56:35.77	358.35	16.56	-33.9	-45.6	3.8	1.49e+00	0	44	104	0	28	13873
2026-01-06 01:56:38.77	357.91	16.82	-33.8	-46.0	3.8	1.49e+00	0	44	104	0	27	14571
2026-01-06 01:56:41.79	357.45	17.08	-33.6	-45.6	3.8	1.49e+00	0	44	104	0	27	14263
2026-01-06 01:56:44.82	356.99	17.34	-33.4	-45.3	3.8	1.49e+00	0	44	104	0	26	14184
2026-01-06 01:56:47.84	356.52	17.60	-33.4	-45.5	3.8	1.49e+00	0	44	104	0	26	14523
2026-01-06 01:56:50.86	356.04	17.86	-33.4	-45.7	3.8	1.49e+00	0	44	104	0	26	14820
2026-01-06 01:56:53.89	355.55	18.12	-33.4	-45.4	3.8	1.49e+00	0	44	104	0	26	14276
2026-01-06 01:56:56.91	355.05	18.38	-33.3	-44.1	3.8	1.49e+00	0	44	104	0	26	12562
2026-01-06 01:56:59.92	354.55	18.64	-33.4	-45.7	3.8	1.49e+00	0	44	104	0	26	14715
2026-01-06 01:57:02.94	354.04	18.91	-31.9	-36.9	7.0	2.71e-01	0	44	102	1048576	24	6395
2026-01-06 01:57:05.92	353.52	19.17	-30.4	-34.0	10.4	6.58e-03	0	44	102	1048576	20	5434
2026-01-06 01:57:08.94	352.99	19.43	-30.2	-33.4	10.8	4.46e-03	0	44	102	1048576	20	5202
2026-01-06 01:57:11.96	352.45	19.69	-30.4	-34.1	10.4	7.84e-03	0	44	102	1048576	20	5470
2026-01-06 01:57:14.98	351.90	19.96	-30.0	-32.7	11.3	3.07e-03	0	44	102	1048576	20	4942
2026-01-06 01:57:18.01	351.33	20.22	-28.5	-30.5	13.7	8.41e-04	0	44	102	1048576	17	4542
2026-01-06 01:57:21.02	350.76	20.48	-28.3	-30.5	14.0	2.35e-03	0	44	102	1048576	16	4643
2026-01-06 01:57:24.04	350.18	20.75	-27.8	-29.9	14.5	7.18e-04	0	44	102	1048576	15	4579
2026-01-06 01:57:27.05	349.59	21.01	-28.5	-30.4	13.7	2.99e-03	0	44	102	1048576	17	4517
2026-01-06 01:57:30.07	348.99	21.27	-27.9	-30.2	14.3	3.05e-04	0	44	102	1048576	15	4660
2026-01-06 01:57:33.10	348.38	21.53	-26.9	-28.2	15.8	7.47e-05	0	44	102	1048576	14	4207
2026-01-06 01:57:36.12	347.76	21.79	-26.8	-28.1	15.8	2.67e-05	0	44	102	1048576	14	4170
2026-01-06 01:57:39.14	347.12	22.05	-26.5	-27.5	16.1	1.75e-05	0	44	102	1048576	14	4030
2026-01-06 01:57:42.15	346.48	22.31	-26.5	-27.5	16.1	0.00e+00	0	44	102	1048576	14	4026
2026-01-06 01:57:45.17	345.83	22.57	-26.6	-28.1	16.1	0.00e+00	0	44	102	1048576	13	4279
2026-01-06 01:57:48.18	345.16	22.82	-26.6	-28.2	16.0	0.00e+00	0	44	102	1048576	13	4329
2026-01-06 01:57:51.20	344.49	23.08	-26.6	-28.1	16.1	0.00e+00	0	44	102	1048576	13	4278
2026-01-06 01:57:54.22	343.80	23.33	-26.5	-27.9	16.2	0.00e+00	0	44	102	1048576	13	4247
2026-01-06 01:57:57.24	343.10	23.58	-26.4	-28.2	16.3	0.00e+00	0	44	102	1048576	12	4431
2026-01-06 01:58:00.26	342.39	23.83	-26.5	-27.9	16.2	0.00e+00	0	44	102	1048576	13	4228
2026-01-06 01:58:03.28	341.67	24.07	-26.5	-27.8	16.3	0.00e+00	0	44	102	1048576	13	4208
2026-01-06 01:58:06.31	340.93	24.31	-26.5	-27.8	16.3	0.00e+00	0	44	102	1048576	13	4214
2026-01-06 01:58:09.33	340.19	24.55	-26.6	-28.1	13.7	0.00e+00	0	44	102	1048576	13	4273
2026-01-06 01:58:12.35	339.43	24.79	-27.1	-28.8	15.0	0.00e+00	0	44	102	1048576	14	4366
2026-01-06 01:58:15.37	338.66	25.02	-27.1	-28.7	15.6	4.02e-03	0	44	102	1048576	14	4327
2026-01-06 01:58:18.39	337.88	25.25	-27.0	-28.9	15.7	0.00e+00	0	44	102	1048576	13	4522
2026-01-06 01:58:21.41	337.09	25.47	-27.1	-28.6	15.6	3.44e-03	0	43	102	1048576	14	4325
2026-01-06 01:58:24.43	336.29	25.70	-26.8	-28.6	15.9	0.00e+00	0	44	102	1048576	13	4433
2026-01-06 01:58:27.45	335.48	25.91	-26.7	-28.4	16.0	2.78e-03	0	44	102	1048576	13	4360
2026-01-06 01:58:30.48	334.65	26.12	-26.8	-28.6	15.9	3.34e-03	0	44	102	1048576	13	4420
2026-01-06 01:58:33.50	333.82	26.33	-27.0	-28.6	15.6	2.59e-03	0	44	102	1048576	14	4320
2026-01-06 01:58:36.52	332.97	26.53	-27.1	-28.8	15.6	7.35e-04	0	44	102	1048576	14	4353
2026-01-06 01:58:39.54	332.11	26.73	-27.0	-28.6	15.7	1.34e-03	0	44	102	1048576	14	4301
2026-01-06 01:58:42.56	331.24	26.92	-26.9	-28.9	15.8	2.89e-03	0	44	102	1048576	13	4506
2026-01-06 01:58:45.58	330.37	27.10	-26.8	-28.5	16.0	4.03e-04	0	44	102	1048576	13	4383
2026-01-06 01:58:48.60	329.48	27.28	-26.8	-28.6	15.9	2.70e-03	0	44	102	1048576	13	4433
2026-01-06 01:58:51.62	328.58	27.45	-26.8	-28.5	16.0	0.00e+00	0	44	102	1048576	13	4388
2026-01-06 01:58:54.64	327.67	27.61	-26.8	-28.6	15.9	4.39e-04	0	44	102	1048576	13	4421
2026-01-06 01:58:57.66	326.75	27.77	-26.8	-28.6	15.9	2.14e-03	0	44	102	1048576	13	4426
2026-01-06 01:59:00.68	325.83	27.92	-26.8	-28.5	16.0	0.00e+00	0	44	102	1048576	13	4379
2026-01-06 01:59:03.70	324.89	28.06	-26.8	-28.5	16.0	0.00e+00	0	44	102	1048576	13	4390
2026-01-06 01:59:06.72	323.95	28.19	-26.6	-28.2	16.2	2.36e-03	0	44	102	1048576	13	4295
2026-01-06 01:59:09.73	323.00	28.32	-26.9	-28.9	15.8	0.00e+00	0	44	102	1048576	13	4501
2026-01-06 01:59:12.76	322.04	28.44	-27.4	-29.3	15.3	0.00e+00	0	43	102	1048576	14	4519
2026-01-06 01:59:15.77	321.08	28.55	-27.0	-28.5	15.7	0.00e+00	0	44	102	1048576	14	4273
2026-01-06 01:59:18.79	320.11	28.65	-26.8	-28.6	15.9	0.00e+00	0	44	102	1048576	13	4433
2026-01-06 01:59:21.81	319.13	28.74	-27.1	-28.8	15.6	0.00e+00	0	44	102	1048576	14	4352
2026-01-06 01:59:24.83	318.15	28.82	-27.0	-28.5	15.7	0.00e+00	0	44	102	1048576	14	4288
2026-01-06 01:59:27.85	317.16	28.89	-27.3	-29.1	15.4	0.00e+00	0	44	102	1048576	14	4455
2026-01-06 01:59:30.87	316.17	28.96	-27.4	-29.4	15.3	0.00e+00	0	44	102	1048576	14	4528
2026-01-06 01:59:33.89	315.18	29.01	-26.9	-28.4	15.8	0.00e+00	0	44	102	1048576	14	4236
2026-01-06 01:59:36.92	314.18	29.05	-26.9	-28.9	15.8	5.30e-06	0	44	102	1048576	13	4499
2026-01-06 01:59:39.94	313.17	29.09	-27.3	-29.1	15.4	0.00e+00	0	44	102	1048576	14	4451
2026-01-06 01:59:42.96	312.17	29.11	-26.9	-28.9	15.8	1.42e-04	0	44	102	1048576	13	4498
2026-01-06 01:59:45.98	311.17	29.13	-26.8	-28.6	15.9	2.61e-04	0	44	102	1048576	13	4416
2026-01-06 01:59:49.01	310.16	29.14	-27.1	-28.8	15.6	2.54e-04	0	44	102	1048576	14	4359
2026-01-06 01:59:52.03	309.15	29.13	-27.1	-28.8	15.6	0.00e+00	0	44	102	1048576	14	4366
2026-01-06 01:59:55.05	308.15	29.12	-27.5	-29.2	15.1	3.20e-05	0	44	102	1048576	15	4376
2026-01-06 01:59:58.08	307.14	29.09	-27.5	-29.2	15.1	0.00e+00	0	44	102	1048576	15	4362
2026-01-06 02:00:01.10	306.14	29.06	-27.3	-29.2	15.3	0.00e+00	0	44	102	1048576	14	4479
2026-01-06 02:00:04.13	305.14	29.01	-27.1	-28.7	15.7	0.00e+00	0	44	102	1048576	14	4324
2026-01-06 02:00:07.14	304.15	28.96	-27.1	-28.7	15.6	0.00e+00	0	44	102	1048576	14	4332
2026-01-06 02:00:10.16	303.15	28.90	-26.9	-28.3	15.9	0.00e+00	0	44	102	1048576	14	4214
2026-01-06 02:00:13.18	302.16	28.83	-26.8	-28.5	16.0	0.00e+00	0	44	102	1048576	13	4402
2026-01-06 02:00:16.20	301.18	28.74	-26.8	-28.4	16.0	0.00e+00	0	44	102	1048576	13	4373
2026-01-06 02:00:19.21	300.21	28.65	-26.9	-28.8	15.8	0.00e+00	0	44	102	1048576	13	4481
2026-01-06 02:00:22.23	299.23	28.55	-27.2	-29.1	15.4	0.00e+00	0	44	102	1048576	14	4441
2026-01-06 02:00:25.26	298.26	28.45	-27.0	-28.6	15.7	0.00e+00	0	44	102	1048576	14	4313
2026-01-06 02:00:28.28	297.30	28.33	-26.9	-28.3	15.9	0.00e+00	0	44	102	1048576	14	4221
2026-01-06 02:00:31.28	296.36	28.20	-26.7	-28.4	16.1	0.00e+00	0	43	102	1048576	13	4351
2026-01-06 02:00:34.30	295.41	28.07	-27.0	-28.4	15.8	0.00e+00	0	44	102	1048576	14	4253
2026-01-06 02:00:37.33	294.47	27.93	-26.9	-28.3	15.8	0.00e+00	0	44	102	1048576	14	4228
2026-01-06 02:00:40.34	293.55	27.78	-26.8	-28.6	15.9	0.00e+00	0	44	102	1048576	13	4420
2026-01-06 02:00:43.37	292.62	27.62	-26.9	-28.9	15.7	0.00e+00	0	44	102	1048576	13	4505
2026-01-06 02:00:46.39	291.71	27.46	-27.0	-28.6	15.6	0.00e+00	0	44	102	1048576	14	4304
2026-01-06 02:00:49.41	290.81	27.29	-26.2	-28.0	14.8	0.00e+00	0	44	102	1048576	14	4402
2026-01-06 02:00:52.43	289.92	27.11	-27.2	-28.9	15.5	0.00e+00	0	44	102	1048576	14	4387
2026-01-06 02:00:55.44	289.04	26.93	-27.2	-28.9	15.4	0.00e+00	0	44	102	1048576	14	4401
2026-01-06 02:00:58.47	288.17	26.74	-27.2	-29.0	15.4	4.16e-03	0	44	102	1048576	14	4424
2026-01-06 02:01:01.49	287.31	26.54	-27.2	-29.0	15.4	0.00e+00	0	44	102	1048576	14	4429
2026-01-06 02:01:04.51	286.46	26.34	-27.0	-28.6	15.6	3.52e-03	0	44	102	1048576	14	4300
2026-01-06 02:01:07.53	285.62	26.14	-26.4	-28.2	16.3	2.44e-03	0	44	102	1048576	12	4410
2026-01-06 02:01:10.55	284.79	25.92	-26.8	-28.6	15.6	6.10e-06	0	44	102	1048576	13	4412
2026-01-06 02:01:13.57	283.97	25.71	-27.4	-29.4	15.1	1.25e-03	0	43	102	1048576	14	4551
2026-01-06 02:01:16.60	283.17	25.49	-26.4	-27.7	16.3	4.28e-04	0	44	102	1048576	13	4178
2026-01-06 02:01:19.62	282.37	25.26	-26.4	-28.3	16.3	2.08e-04	0	43	102	1048576	12	4450
2026-01-06 02:01:22.64	281.59	25.03	-27.1	-28.8	15.4	2.13e-04	0	44	102	1048576	14	4376
2026-01-06 02:01:25.67	280.82	24.80	-26.9	-28.3	15.7	8.77e-05	0	44	102	1048576	14	4238
2026-01-06 02:01:28.68	280.06	24.56	-26.8	-28.7	15.7	0.00e+00	0	44	102	1048576	13	4456
2026-01-06 02:01:31.71	279.31	24.32	-27.4	-29.5	15.0	0.00e+00	0	44	102	1048576	14	4580
2026-01-06 02:01:34.74	278.57	24.08	-27.1	-28.8	15.4	6.34e-04	0	44	102	1048576	14	4388
2026-01-06 02:01:37.76	277.84	23.83	-27.0	-28.5	15.6	0.00e+00	0	44	102	1048576	14	4279
2026-01-06 02:01:40.78	277.13	23.59	-27.0	-28.6	15.5	2.68e-03	0	44	102	1048576	14	4329
2026-01-06 02:01:43.79	276.43	23.34	-27.2	-29.0	15.2	0.00e+00	0	44	102	1048576	14	4426
2026-01-06 02:01:46.81	275.74	23.08	-26.5	-27.9	16.1	0.00e+00	0	44	102	1048576	13	4249
2026-01-06 02:01:49.84	275.05	22.83	-26.7	-28.4	15.9	7.85e-05	0	44	102	1048576	13	4368
2026-01-06 02:01:52.86	274.38	22.57	-27.3	-29.3	15.1	0.00e+00	0	44	102	1048576	14	4519
2026-01-06 02:01:55.87	273.73	22.32	-26.5	-28.0	16.0	0.00e+00	0	44	102	1048576	13	4254
2026-01-06 02:01:58.90	273.08	22.06	-26.5	-28.4	16.1	0.00e+00	0	44	102	1048576	12	4481
2026-01-06 02:02:01.92	272.44	21.80	-26.8	-28.7	15.6	0.00e+00	0	44	102	1048576	13	4453
2026-01-06 02:02:04.94	271.82	21.53	-26.5	-28.1	16.0	0.00e+00	0	44	102	1048576	13	4281
2026-01-06 02:02:07.97	271.20	21.27	-26.4	-28.2	14.7	0.00e+00	0	44	102	1048576	12	4445
2026-01-06 02:02:10.99	270.59	21.01	-26.8	-28.5	15.7	0.00e+00	0	44	102	1048576	13	4415
2026-01-06 02:02:14.01	270.00	20.74	-27.0	-29.0	15.4	0.00e+00	0	44	102	1048576	13	4561
2026-01-06 02:02:17.04	269.41	20.48	-27.1	-28.8	15.3	2.42e-03	0	44	102	1048576	14	4382
2026-01-06 02:02:20.06	268.84	20.21	-27.1	-28.7	15.3	3.77e-03	0	44	102	1048576	14	4365
2026-01-06 02:02:23.08	268.28	19.95	-26.8	-28.7	13.2	3.84e-03	0	44	102	1048576	13	4456
2026-01-06 02:02:26.09	267.72	19.69	-26.5	-28.4	16.0	4.49e-03	0	44	102	1048576	12	4494
2026-01-06 02:02:29.11	267.18	19.42	-26.5	-27.9	16.0	5.98e-03	0	44	102	1048576	13	4257
2026-01-06 02:02:32.13	266.64	19.16	-26.5	-28.0	15.9	4.34e-03	0	44	102	1048576	13	4260
2026-01-06 02:02:35.15	266.12	18.89	-26.5	-28.0	15.9	3.71e-03	0	44	102	1048576	13	4270
2026-01-06 02:02:38.17	265.60	18.63	-26.7	-28.3	15.7	3.70e-03	0	44	102	1048576	13	4360
2026-01-06 02:02:41.19	265.09	18.36	-26.7	-28.4	15.6	2.26e-03	0	44	102	1048576	13	4388
2026-01-06 02:02:44.21	264.59	18.10	-26.3	-28.0	16.1	2.51e-04	0	44	102	1048576	12	4383
2026-01-06 02:02:47.23	264.10	17.84	-26.7	-28.3	15.7	9.10e-06	0	43	102	1048576	13	4363
2026-01-06 02:02:50.24	263.62	17.58	-27.2	-29.1	15.0	1.91e-04	0	44	102	1048576	14	4457
2026-01-06 02:02:53.27	263.15	17.32	-26.8	-28.6	15.5	0.00e+00	0	44	102	1048576	13	4428
2026-01-06 02:02:56.28	262.68	17.06	-26.6	-28.2	15.7	4.26e-04	0	43	102	1048576	13	4327
2026-01-06 02:02:59.29	262.23	16.80	-26.5	-28.1	15.8	0.00e+00	0	44	102	1048576	13	4294
2026-01-06 02:03:02.32	261.77	16.54	-27.2	-29.1	14.9	3.09e-03	0	44	102	1048576	14	4486
2026-01-06 02:03:05.32	261.34	16.28	-27.7	-29.6	14.3	0.00e+00	0	44	102	1048576	15	4526
2026-01-06 02:03:08.35	260.90	16.03	-27.3	-29.2	14.8	7.00e-07	0	44	102	1048576	14	4515
2026-01-06 02:03:11.36	260.47	15.77	-27.1	-29.0	15.0	7.00e-07	0	44	102	1048576	14	4435
2026-01-06 02:03:14.38	260.06	15.52	-27.3	-29.3	14.8	1.50e-06	0	44	102	1048576	14	4536
2026-01-06 02:03:17.40	259.64	15.26	-28.3	-30.7	13.5	1.44e-05	0	44	102	1048576	16	4739
2026-01-06 02:03:20.42	259.24	15.01	-28.1	-30.1	13.8	3.80e-06	0	44	102	1048576	16	4544
2026-01-06 02:03:23.44	258.84	14.76	-27.2	-29.2	14.8	0.00e+00	0	44	102	1048576	14	4511
2026-01-06 02:03:26.45	258.45	14.51	-27.1	-28.8	15.0	0.00e+00	0	44	102	1048576	14	4403
2026-01-06 02:03:29.47	258.06	14.26	-27.2	-29.0	14.8	0.00e+00	0	44	102	1048576	14	4462
2026-01-06 02:03:32.49	257.69	14.01	-27.4	-29.6	14.4	0.00e+00	0	43	102	1048576	14	4641
2026-01-06 02:03:35.51	257.31	13.77	-27.9	-30.3	13.8	6.80e-06	0	44	102	1048576	15	4732
2026-01-06 02:03:38.53	256.95	13.52	-28.2	-30.3	13.6	6.10e-06	0	44	102	1048576	16	4625
2026-01-06 02:03:41.55	256.59	13.28	-27.8	-30.0	13.9	5.41e-04	0	44	102	1048576	15	4643
2026-01-06 02:03:44.57	256.23	13.04	-27.4	-29.1	14.4	0.00e+00	0	44	102	1048576	15	4389
2026-01-06 02:03:47.59	255.89	12.80	-27.1	-28.8	14.9	6.02e-04	0	44	102	1048576	14	4409
2026-01-06 02:03:50.60	255.54	12.56	-27.2	-29.2	14.6	7.00e-07	0	43	102	1048576	14	4526
2026-01-06 02:03:53.63	255.21	12.32	-27.5	-29.7	14.3	2.46e-04	0	44	102	1048576	14	4682
2026-01-06 02:03:56.65	254.88	12.08	-28.2	-30.5	13.4	1.06e-05	0	44	102	1048576	16	4672
2026-01-06 02:03:59.67	254.55	11.84	-28.2	-30.6	13.4	8.99e-04	0	43	102	1048576	16	4712
2026-01-06 02:04:02.68	254.23	11.61	-27.7	-29.8	13.9	2.20e-06	0	44	102	1048576	15	4585
2026-01-06 02:04:05.70	253.91	11.38	-27.4	-29.2	14.3	3.80e-06	0	44	102	1048576	15	4402
2026-01-06 02:04:08.73	253.60	11.15	-27.4	-29.7	14.3	0.00e+00	0	44	102	1048576	14	4675
2026-01-06 02:04:11.74	253.30	10.92	-27.7	-29.8	13.9	3.80e-06	0	44	102	1048576	15	4589
2026-01-06 02:04:14.76	253.00	10.69	-27.9	-30.5	13.5	1.29e-05	0	44	102	1048576	15	4810
2026-01-06 02:04:17.78	252.70	10.46	-28.5	-30.7	12.9	5.79e-05	0	44	102	1048576	17	4653
2026-01-06 02:04:20.80	252.41	10.23	-28.3	-30.7	13.2	2.82e-05	0	44	102	1048576	16	4760
2026-01-06 02:04:23.81	252.13	10.01	-28.2	-30.5	13.2	2.82e-05	0	44	102	1048576	16	4714
2026-01-06 02:04:26.84	251.84	9.79	-28.0	-30.5	13.3	1.67e-05	0	44	102	1048576	15	4839
2026-01-06 02:04:29.85	251.57	9.56	-27.9	-30.4	13.4	1.37e-05	0	44	102	1048576	15	4809
2026-01-06 02:04:32.88	251.29	9.34	-28.1	-30.3	13.4	1.06e-05	0	44	102	1048576	16	4624
2026-01-06 02:04:35.90	251.02	9.12	-28.1	-30.4	13.2	1.90e-05	0	44	102	1048576	16	4675
2026-01-06 02:04:38.93	250.76	8.90	-28.3	-30.8	13.0	3.81e-05	0	44	102	1048576	16	4799
2026-01-06 02:04:41.96	250.49	8.69	-28.5	-31.2	12.7	6.71e-05	0	43	102	1048576	16	4942
2026-01-06 02:04:44.98	250.24	8.47	-28.6	-31.1	12.4	1.55e-04	0	44	102	1048576	17	4810
2026-01-06 02:04:48.00	249.98	8.26	-28.7	-31.4	12.2	2.68e-04	0	44	102	1048576	17	4913
2026-01-06 02:04:51.02	249.74	8.04	-28.7	-31.3	12.3	2.02e-04	0	44	102	1048576	17	4877
2026-01-06 02:04:54.04	249.49	7.83	-28.6	-31.1	12.2	1.72e-04	0	44	102	1048576	17	4793
2026-01-06 02:04:57.06	249.25	7.62	-28.6	-31.0	12.4	1.41e-04	0	44	102	1048576	17	4780
2026-01-06 02:05:00.07	249.01	7.41	-28.6	-31.1	12.3	1.59e-04	0	44	102	1048576	17	4807
2026-01-06 02:05:03.09	248.77	7.20	-28.7	-31.5	12.1	1.36e-03	0	44	102	1048576	17	4949
2026-01-06 02:05:06.12	248.54	7.00	-32.9	-45.0	3.8	1.49e+00	0	43	104	1048576	25	14549

#Closed at: 2026-01-06 02:05:07
#Recorded file [1 MB]: D:/data/31010_260106_045702.dat