passes_logs/2026/01/06/R2M6_AANII_01/R2M6_AANII_01__20260106_113709_FENGYUN_3D_rec.log

#Pass ID: 20260106_113709_FENGYUN 3D
#Satellite: FENGYUN 3D
#Configuration: FENGYUN 3D
#almurnet v.1.7.20240730
#Start time: 2026-01-06 11:37:09

#Version: 2.2.20231116
#Station: R2M6_AANII_01
#Location: 30.233357 lon 59.946436 lat
#TLE: 1 43010U 17072A   26005.48915933 -.00000051  00000+0 -21983-5 0  9995
#TLE: 2 43010  98.9919 337.1582 0002001 124.6377 235.4988 14.19691925421909

#Time	Az	El	Level	Level2	SNR	BER	BlckErr	Temp	State	Recorded	gain1	gain2
2026-01-06 11:37:09.48	137.65	7.01	-29.5	-32.8	5.2	7.96e-01	0	41	0	0	20	5225
2026-01-06 11:37:12.49	137.55	7.24	-29.7	-33.1	8.6	4.40e-02	0	41	102	1048576	20	5338
2026-01-06 11:37:15.50	137.45	7.47	-29.5	-32.5	9.0	3.73e-02	0	41	102	1048576	20	5106
2026-01-06 11:37:18.52	137.34	7.70	-29.1	-31.8	9.9	1.07e-02	0	41	102	1048576	19	4946
2026-01-06 11:37:21.54	137.23	7.94	-28.3	-30.2	11.4	2.19e-03	0	41	102	1048576	18	4498
2026-01-06 11:37:24.56	137.12	8.18	-27.4	-29.0	12.8	1.67e-04	0	41	102	1048576	16	4333
2026-01-06 11:37:27.58	137.01	8.42	-27.0	-28.5	13.3	3.77e-05	0	42	102	1048576	15	4298
2026-01-06 11:37:30.60	136.90	8.66	-27.1	-28.8	13.1	3.66e-05	0	42	102	1048576	15	4354
2026-01-06 11:37:33.62	136.78	8.90	-26.8	-28.1	13.6	1.94e-05	0	42	102	1048576	15	4157
2026-01-06 11:37:36.64	136.66	9.15	-26.7	-28.3	13.8	3.40e-06	0	42	102	1048576	14	4323
2026-01-06 11:37:39.65	136.54	9.40	-26.7	-28.2	13.9	3.40e-06	0	42	102	1048576	14	4289
2026-01-06 11:37:42.67	136.42	9.65	-26.6	-28.0	14.0	4.50e-06	0	42	102	1048576	14	4246
2026-01-06 11:37:45.68	136.30	9.90	-26.6	-27.9	14.1	1.10e-06	0	42	102	1048576	14	4194
2026-01-06 11:37:48.70	136.17	10.16	-26.5	-27.8	14.2	4.50e-06	0	42	102	1048576	14	4181
2026-01-06 11:37:51.71	136.04	10.42	-26.4	-27.5	14.4	1.10e-06	0	42	102	1048576	14	4101
2026-01-06 11:37:54.73	135.91	10.68	-26.4	-27.6	14.4	0.00e+00	0	42	102	1048576	14	4115
2026-01-06 11:37:57.75	135.77	10.95	-26.2	-27.6	14.6	1.10e-06	0	42	102	1048576	13	4222
2026-01-06 11:38:00.77	135.63	11.21	-26.1	-27.4	14.7	0.00e+00	0	42	102	1048576	13	4177
2026-01-06 11:38:03.79	135.49	11.48	-26.2	-27.5	14.7	1.10e-06	0	43	102	1048576	13	4204
2026-01-06 11:38:06.81	135.35	11.76	-25.9	-26.9	15.1	0.00e+00	0	42	102	1048576	13	4033
2026-01-06 11:38:09.83	135.21	12.03	-25.9	-26.9	15.1	0.00e+00	0	42	102	1048576	13	4041
2026-01-06 11:38:12.86	135.06	12.31	-25.9	-26.8	15.1	1.10e-06	0	43	102	1048576	13	4023
2026-01-06 11:38:15.88	134.90	12.59	-25.9	-26.8	15.2	0.00e+00	0	43	102	1048576	13	4024
2026-01-06 11:38:18.88	134.75	12.87	-25.9	-27.0	15.1	0.00e+00	0	43	102	1048576	13	4059
2026-01-06 11:38:21.90	134.59	13.16	-25.8	-27.1	15.3	0.00e+00	0	42	102	1048576	12	4206
2026-01-06 11:38:24.91	134.43	13.45	-25.7	-27.0	15.3	1.10e-06	0	43	102	1048576	12	4183
2026-01-06 11:38:27.93	134.27	13.75	-25.7	-26.9	15.4	0.00e+00	0	43	102	1048576	12	4143
2026-01-06 11:38:30.95	134.10	14.05	-25.7	-26.9	15.4	0.00e+00	0	43	102	1048576	12	4142
2026-01-06 11:38:33.97	133.93	14.35	-25.6	-26.6	15.6	0.00e+00	0	43	102	1048576	12	4073
2026-01-06 11:38:37.00	133.75	14.65	-25.4	-26.3	15.8	0.00e+00	0	43	102	1048576	12	3991
2026-01-06 11:38:40.02	133.57	14.96	-25.5	-26.6	15.6	0.00e+00	0	43	102	1048576	12	4064
2026-01-06 11:38:43.04	133.39	15.27	-25.5	-26.5	15.7	0.00e+00	0	43	102	1048576	12	4028
2026-01-06 11:38:46.06	133.20	15.59	-25.4	-26.1	16.0	0.00e+00	0	43	102	1048576	12	3939
2026-01-06 11:38:49.08	133.01	15.91	-25.3	-26.5	16.2	0.00e+00	0	43	102	1048576	11	4130
2026-01-06 11:38:52.10	132.82	16.23	-25.2	-26.2	16.3	0.00e+00	0	43	102	1048576	11	4059
2026-01-06 11:38:55.11	132.62	16.56	-25.1	-26.0	16.4	0.00e+00	0	43	102	1048576	11	4007
2026-01-06 11:38:58.12	132.41	16.89	-25.0	-25.7	16.7	0.00e+00	0	43	102	1048576	11	3933
2026-01-06 11:39:01.14	132.20	17.22	-25.0	-25.7	16.7	0.00e+00	0	43	102	1048576	11	3930
2026-01-06 11:39:04.15	131.99	17.56	-24.6	-25.5	17.0	0.00e+00	0	43	102	1048576	10	3990
2026-01-06 11:39:07.18	131.77	17.91	-24.5	-25.1	17.2	0.00e+00	0	43	102	1048576	10	3892
2026-01-06 11:39:10.20	131.54	18.25	-24.7	-25.6	17.0	0.00e+00	0	43	102	1048576	10	4000
2026-01-06 11:39:13.23	131.31	18.61	-24.6	-25.5	17.1	0.00e+00	0	43	102	1048576	10	3979
2026-01-06 11:39:16.24	131.08	18.97	-24.5	-25.4	17.2	0.00e+00	0	43	102	1048576	10	3948
2026-01-06 11:39:19.25	130.84	19.33	-24.8	-26.0	16.9	0.00e+00	0	43	102	1048576	10	4107
2026-01-06 11:39:22.26	130.59	19.69	-24.2	-25.2	17.6	0.00e+00	0	43	102	1048576	9	4021
2026-01-06 11:39:25.28	130.34	20.06	-24.0	-24.7	17.8	0.00e+00	0	43	102	1048576	9	3899
2026-01-06 11:39:28.30	130.08	20.44	-23.9	-24.5	18.0	0.00e+00	0	43	102	1048576	9	3840
2026-01-06 11:39:31.32	129.81	20.82	-23.8	-24.7	18.1	0.00e+00	0	43	102	1048576	8	4012
2026-01-06 11:39:34.35	129.53	21.21	-24.0	-25.2	17.9	0.00e+00	0	43	102	1048576	8	4123
2026-01-06 11:39:37.36	129.25	21.60	-24.1	-25.4	17.8	0.00e+00	0	43	102	1048576	8	4174
2026-01-06 11:39:40.38	128.97	22.00	-24.0	-25.1	18.0	1.10e-06	0	43	102	1048576	8	4116
2026-01-06 11:39:43.40	128.67	22.40	-23.7	-24.6	18.3	1.10e-06	0	43	102	1048576	8	3973
2026-01-06 11:39:46.42	128.37	22.81	-23.7	-24.5	18.3	0.00e+00	0	43	102	1048576	8	3956
2026-01-06 11:39:49.43	128.05	23.23	-23.6	-24.3	18.5	0.00e+00	0	43	102	1048576	8	3887
2026-01-06 11:39:52.45	127.73	23.65	-23.5	-24.0	18.6	0.00e+00	0	43	102	1048576	8	3833
2026-01-06 11:39:55.48	127.40	24.07	-23.5	-24.0	18.6	0.00e+00	0	43	102	1048576	8	3839
2026-01-06 11:39:58.49	127.06	24.51	-23.4	-23.9	18.7	0.00e+00	0	43	102	1048576	8	3811
2026-01-06 11:40:01.52	126.71	24.95	-23.4	-23.9	18.7	3.40e-06	0	43	102	1048576	8	3809
2026-01-06 11:40:04.54	126.35	25.39	-23.3	-24.2	18.8	0.00e+00	0	43	102	1048576	7	3986
2026-01-06 11:40:07.56	125.98	25.84	-23.4	-24.4	18.7	0.00e+00	0	43	102	1048576	7	4037
2026-01-06 11:40:10.58	125.60	26.30	-23.4	-24.3	18.7	0.00e+00	0	43	102	1048576	7	4014
2026-01-06 11:40:13.59	125.21	26.76	-23.2	-24.0	18.9	0.00e+00	0	43	102	1048576	7	3943
2026-01-06 11:40:16.61	124.80	27.23	-23.4	-24.3	18.7	0.00e+00	0	43	102	1048576	7	4017
2026-01-06 11:40:19.63	124.39	27.71	-23.2	-24.0	18.9	0.00e+00	0	43	102	1048576	7	3937
2026-01-06 11:40:22.65	123.96	28.19	-23.1	-23.8	19.0	0.00e+00	0	43	102	1048576	7	3890
2026-01-06 11:40:25.67	123.51	28.68	-23.2	-24.0	18.9	0.00e+00	0	43	102	1048576	7	3940
2026-01-06 11:40:28.70	123.06	29.18	-23.2	-23.9	18.9	0.00e+00	0	43	102	1048576	7	3925
2026-01-06 11:40:31.72	122.58	29.68	-23.3	-24.1	18.9	0.00e+00	0	43	102	1048576	7	3956
2026-01-06 11:40:34.74	122.10	30.19	-23.4	-24.4	18.7	0.00e+00	0	43	102	1048576	7	4033
2026-01-06 11:40:37.76	121.59	30.71	-23.5	-24.5	18.7	0.00e+00	0	44	102	1048576	7	4057
2026-01-06 11:40:40.78	121.07	31.23	-23.0	-23.5	19.3	0.00e+00	0	44	102	1048576	7	3811
2026-01-06 11:40:43.79	120.54	31.76	-22.7	-23.5	19.5	0.00e+00	0	44	102	1048576	6	3918
2026-01-06 11:40:46.81	119.98	32.30	-22.8	-23.7	19.4	0.00e+00	0	43	102	1048576	6	3966
2026-01-06 11:40:49.83	119.41	32.84	-22.7	-23.5	19.5	0.00e+00	0	44	102	1048576	6	3917
2026-01-06 11:40:52.85	118.81	33.39	-22.7	-23.4	19.6	0.00e+00	0	43	102	1048576	6	3907
2026-01-06 11:40:55.86	118.20	33.94	-22.6	-23.2	19.7	0.00e+00	0	43	102	1048576	6	3863
2026-01-06 11:40:58.89	117.56	34.51	-22.8	-23.7	19.4	0.00e+00	0	43	102	1048576	6	3963
2026-01-06 11:41:01.91	116.90	35.07	-22.9	-23.8	19.4	0.00e+00	0	43	102	1048576	6	3991
2026-01-06 11:41:04.93	116.22	35.65	-22.8	-23.7	19.4	0.00e+00	0	43	102	1048576	6	3978
2026-01-06 11:41:07.95	115.51	36.23	-22.5	-22.9	19.9	0.00e+00	0	43	102	1048576	6	3787
2026-01-06 11:41:10.97	114.78	36.81	-22.6	-23.3	19.7	0.00e+00	0	44	102	1048576	6	3864
2026-01-06 11:41:13.99	114.02	37.40	-22.7	-23.3	19.7	0.00e+00	0	43	102	1048576	6	3873
2026-01-06 11:41:17.00	113.23	37.99	-22.8	-23.5	19.6	0.00e+00	0	43	102	1048576	6	3915
2026-01-06 11:41:20.02	112.41	38.59	-22.6	-23.2	19.7	0.00e+00	0	43	102	1048576	6	3859
2026-01-06 11:41:23.04	111.56	39.19	-22.6	-23.3	19.8	0.00e+00	0	43	102	1048576	6	3860
2026-01-06 11:41:26.04	110.68	39.80	-22.7	-23.4	19.7	0.00e+00	0	44	102	1048576	6	3887
2026-01-06 11:41:29.06	109.77	40.40	-23.0	-24.0	19.4	0.00e+00	0	44	102	1048576	6	4052
2026-01-06 11:41:32.08	108.81	41.01	-22.7	-23.3	19.7	0.00e+00	0	43	102	1048576	6	3879
2026-01-06 11:41:35.08	107.83	41.62	-22.6	-23.2	19.8	0.00e+00	0	43	102	1048576	6	3857
2026-01-06 11:41:38.10	106.81	42.23	-22.7	-23.4	19.7	0.00e+00	0	43	102	1048576	6	3891
2026-01-06 11:41:41.11	105.74	42.83	-22.4	-22.7	20.1	0.00e+00	0	44	102	1048576	6	3738
2026-01-06 11:41:44.11	104.64	43.44	-22.8	-23.6	19.6	0.00e+00	0	44	102	1048576	6	3951
2026-01-06 11:41:47.13	103.49	44.04	-22.8	-23.5	19.7	0.00e+00	0	43	102	1048576	6	3908
2026-01-06 11:41:50.15	102.30	44.64	-22.8	-23.5	19.7	0.00e+00	0	43	102	1048576	6	3928
2026-01-06 11:41:53.17	101.06	45.24	-22.8	-23.6	19.7	0.00e+00	0	43	102	1048576	6	3932
2026-01-06 11:41:56.19	99.77	45.82	-23.1	-24.2	19.4	0.00e+00	0	43	102	1048576	6	4090
2026-01-06 11:41:59.21	98.44	46.40	-23.3	-24.7	19.2	0.00e+00	0	43	102	1048576	6	4205
2026-01-06 11:42:02.23	97.05	46.97	-23.3	-24.7	19.2	0.00e+00	0	43	102	1048576	6	4200
2026-01-06 11:42:05.25	95.61	47.53	-23.7	-25.0	18.8	0.00e+00	0	43	102	1048576	7	4171
2026-01-06 11:42:08.26	94.13	48.08	-23.8	-25.2	18.7	0.00e+00	0	43	102	1048576	7	4216
2026-01-06 11:42:11.28	92.59	48.60	-24.0	-25.0	18.6	0.00e+00	0	44	102	1048576	8	4061
2026-01-06 11:42:14.29	91.00	49.12	-23.3	-24.0	19.3	1.10e-06	0	43	102	1048576	7	3923
2026-01-06 11:42:17.29	89.36	49.61	-23.6	-24.8	18.9	0.00e+00	0	43	102	1048576	7	4120
2026-01-06 11:42:20.30	87.66	50.08	-23.6	-24.7	19.0	0.00e+00	0	44	102	1048576	7	4083
2026-01-06 11:42:23.31	85.92	50.53	-23.9	-24.9	18.7	0.00e+00	0	44	102	1048576	8	4025
2026-01-06 11:42:26.33	84.11	50.95	-24.0	-25.1	18.6	0.00e+00	0	44	102	1048576	8	4072
2026-01-06 11:42:29.35	82.26	51.35	-23.9	-24.9	18.7	0.00e+00	0	43	102	1048576	8	4017
2026-01-06 11:42:32.36	80.36	51.71	-24.2	-25.5	18.4	0.00e+00	0	43	102	1048576	8	4172
2026-01-06 11:42:35.39	78.40	52.05	-23.6	-24.2	19.0	0.00e+00	0	43	102	1048576	8	3851
2026-01-06 11:42:38.39	76.42	52.35	-23.5	-24.0	19.1	0.00e+00	0	44	102	1048576	8	3802
2026-01-06 11:42:41.41	74.39	52.62	-23.6	-24.8	19.0	0.00e+00	0	43	102	1048576	7	4105
2026-01-06 11:42:44.42	72.34	52.86	-23.8	-25.1	18.8	0.00e+00	0	44	102	1048576	7	4192
2026-01-06 11:42:47.44	70.24	53.05	-23.5	-24.5	19.1	0.00e+00	0	44	102	1048576	7	4044
2026-01-06 11:42:50.46	68.12	53.21	-23.5	-24.4	19.3	0.00e+00	0	44	102	1048576	7	4003
2026-01-06 11:42:53.49	65.97	53.32	-23.9	-25.3	18.8	0.00e+00	0	44	102	1048576	7	4238
2026-01-06 11:42:56.51	63.82	53.40	-24.1	-25.3	18.7	0.00e+00	0	43	102	1048576	8	4105
2026-01-06 11:42:59.53	61.65	53.43	-23.7	-24.5	19.1	0.00e+00	0	44	102	1048576	8	3913
2026-01-06 11:43:02.54	59.50	53.42	-23.5	-24.0	19.3	0.00e+00	0	44	102	1048576	8	3804
2026-01-06 11:43:05.56	57.34	53.37	-23.8	-24.6	19.0	0.00e+00	0	43	102	1048576	8	3936
2026-01-06 11:43:08.57	55.20	53.28	-23.5	-23.9	19.3	0.00e+00	0	44	102	1048576	8	3787
2026-01-06 11:43:11.59	53.06	53.15	-23.8	-24.6	19.0	0.00e+00	0	43	102	1048576	8	3946
2026-01-06 11:43:14.61	50.95	52.98	-24.1	-25.1	18.7	0.00e+00	0	44	102	1048576	8	4070
2026-01-06 11:43:17.62	48.88	52.77	-23.5	-23.9	19.4	0.00e+00	0	43	102	1048576	8	3774
2026-01-06 11:43:20.63	46.84	52.52	-23.5	-24.4	19.3	0.00e+00	0	43	102	1048576	7	4004
2026-01-06 11:43:23.65	44.82	52.24	-23.5	-24.4	19.3	0.00e+00	0	44	102	1048576	7	4010
2026-01-06 11:43:26.67	42.85	51.92	-23.3	-24.0	19.5	0.00e+00	0	44	102	1048576	7	3916
2026-01-06 11:43:29.68	40.93	51.57	-23.2	-23.9	19.6	0.00e+00	0	43	102	1048576	7	3885
2026-01-06 11:43:32.69	39.05	51.19	-23.2	-23.8	19.6	0.00e+00	0	43	102	1048576	7	3875
2026-01-06 11:43:35.72	37.22	50.78	-23.2	-23.8	19.6	0.00e+00	0	44	102	1048576	7	3860
2026-01-06 11:43:38.73	35.44	50.35	-23.0	-23.4	19.8	0.00e+00	0	43	102	1048576	7	3780
2026-01-06 11:43:41.76	33.71	49.89	-22.9	-23.2	19.9	0.00e+00	0	44	102	1048576	7	3726
2026-01-06 11:43:44.77	32.03	49.41	-23.4	-24.3	19.3	0.00e+00	0	43	102	1048576	7	3993
2026-01-06 11:43:47.80	30.41	48.91	-23.0	-23.4	19.8	0.00e+00	0	44	102	1048576	7	3768
2026-01-06 11:43:50.81	28.84	48.39	-23.1	-23.5	19.7	0.00e+00	0	43	102	1048576	7	3805
2026-01-06 11:43:53.83	27.33	47.86	-23.2	-23.8	19.6	0.00e+00	0	44	102	1048576	7	3868
2026-01-06 11:43:56.84	25.87	47.31	-22.7	-23.3	20.0	0.00e+00	0	44	102	1048576	6	3861
2026-01-06 11:43:59.85	24.46	46.75	-22.7	-23.2	20.1	0.00e+00	0	44	102	1048576	6	3839
2026-01-06 11:44:02.86	23.10	46.18	-22.7	-23.3	20.1	0.00e+00	0	43	102	1048576	6	3846
2026-01-06 11:44:05.88	21.79	45.60	-22.6	-23.1	20.1	0.00e+00	0	44	102	1048576	6	3808
2026-01-06 11:44:08.90	20.52	45.01	-22.7	-23.3	20.0	0.00e+00	0	43	102	1048576	6	3859
2026-01-06 11:44:11.92	19.30	44.41	-22.3	-22.6	20.4	0.00e+00	0	43	102	1048576	6	3689
2026-01-06 11:44:14.94	18.13	43.81	-22.6	-23.1	20.1	0.00e+00	0	43	102	1048576	6	3810
2026-01-06 11:44:17.95	17.01	43.21	-22.9	-23.7	19.8	0.00e+00	0	44	102	1048576	6	3948
2026-01-06 11:44:20.97	15.92	42.60	-22.6	-23.0	20.2	0.00e+00	0	43	102	1048576	6	3786
2026-01-06 11:44:23.99	14.87	42.00	-22.5	-22.9	20.2	0.00e+00	0	43	102	1048576	6	3759
2026-01-06 11:44:27.02	13.86	41.39	-22.5	-22.8	20.2	0.00e+00	0	44	102	1048576	6	3738
2026-01-06 11:44:30.03	12.90	40.78	-22.7	-23.3	20.0	0.00e+00	0	44	102	1048576	6	3853
2026-01-06 11:44:33.05	11.96	40.17	-22.7	-23.4	20.0	0.00e+00	0	43	102	1048576	6	3871
2026-01-06 11:44:36.07	11.06	39.57	-22.4	-23.1	20.3	0.00e+00	0	43	102	1048576	5	3929
2026-01-06 11:44:39.09	10.20	38.97	-22.8	-24.0	19.8	0.00e+00	0	43	102	1048576	5	4140
2026-01-06 11:44:42.11	9.36	38.37	-22.8	-24.1	19.8	0.00e+00	0	43	102	1048576	5	4160
2026-01-06 11:44:45.12	8.56	37.78	-23.2	-23.9	19.4	0.00e+00	0	44	102	1048576	7	3890
2026-01-06 11:44:48.13	7.79	37.19	-22.7	-23.4	19.9	0.00e+00	0	43	102	1048576	6	3882
2026-01-06 11:44:51.15	7.04	36.60	-22.7	-23.4	19.9	0.00e+00	0	44	102	1048576	6	3878
2026-01-06 11:44:54.18	6.32	36.02	-22.7	-23.2	20.0	0.00e+00	0	43	102	1048576	6	3837
2026-01-06 11:44:57.20	5.62	35.45	-22.4	-22.7	20.2	0.00e+00	0	43	102	1048576	6	3713
2026-01-06 11:45:00.22	4.95	34.88	-22.5	-22.9	20.1	0.00e+00	0	44	102	1048576	6	3758
2026-01-06 11:45:03.22	4.31	34.32	-22.5	-22.8	20.1	0.00e+00	0	43	102	1048576	6	3747
2026-01-06 11:45:06.23	3.69	33.76	-22.5	-22.9	20.1	0.00e+00	0	44	102	1048576	6	3766
2026-01-06 11:45:09.24	3.08	33.21	-22.7	-23.3	19.9	0.00e+00	0	43	102	1048576	6	3855
2026-01-06 11:45:12.25	2.50	32.67	-22.8	-23.5	19.8	0.00e+00	0	44	102	1048576	6	3900
2026-01-06 11:45:15.27	1.94	32.13	-23.1	-24.1	19.5	0.00e+00	0	44	102	1048576	6	4043
2026-01-06 11:45:18.30	1.39	31.60	-23.0	-23.9	19.5	0.00e+00	0	43	102	1048576	6	4013
2026-01-06 11:45:21.31	0.86	31.07	-22.7	-23.3	19.8	0.00e+00	0	43	102	1048576	6	3857
2026-01-06 11:45:24.33	0.35	30.56	-22.7	-23.2	19.9	0.00e+00	0	43	102	1048576	6	3834
2026-01-06 11:45:27.34	359.86	30.05	-22.8	-23.5	19.7	0.00e+00	0	43	102	1048576	6	3899
2026-01-06 11:45:30.37	359.38	29.54	-23.2	-24.3	19.3	0.00e+00	0	44	102	1048576	6	4098
2026-01-06 11:45:33.38	358.92	29.04	-23.3	-24.5	19.2	0.00e+00	0	44	102	1048576	6	4153
2026-01-06 11:45:36.40	358.47	28.55	-23.1	-24.1	19.4	0.00e+00	0	44	102	1048576	6	4059
2026-01-06 11:45:39.42	358.03	28.06	-22.9	-23.7	19.6	0.00e+00	0	43	102	1048576	6	3950
2026-01-06 11:45:42.45	357.61	27.58	-22.9	-23.7	19.5	0.00e+00	0	44	102	1048576	6	3960
2026-01-06 11:45:45.47	357.20	27.11	-22.9	-23.8	19.5	0.00e+00	0	44	102	1048576	6	3971
2026-01-06 11:45:48.49	356.80	26.65	-22.9	-23.7	19.5	0.00e+00	0	44	102	1048576	6	3954
2026-01-06 11:45:51.49	356.42	26.19	-23.1	-24.2	19.3	0.00e+00	0	44	102	1048576	6	4076
2026-01-06 11:45:54.52	356.04	25.74	-23.2	-24.4	19.1	0.00e+00	0	44	102	1048576	6	4137
2026-01-06 11:45:57.54	355.68	25.29	-23.1	-24.2	19.3	0.00e+00	0	43	102	1048576	6	4072
2026-01-06 11:46:00.56	355.32	24.85	-23.2	-23.8	19.2	0.00e+00	0	44	102	1048576	7	3871
2026-01-06 11:46:03.59	354.98	24.41	-23.3	-24.0	19.1	0.00e+00	0	44	102	1048576	7	3930
2026-01-06 11:46:06.60	354.65	23.98	-23.5	-24.6	18.8	0.00e+00	0	44	102	1048576	7	4051
2026-01-06 11:46:09.62	354.32	23.56	-23.6	-24.7	18.7	0.00e+00	0	44	102	1048576	7	4094
2026-01-06 11:46:12.64	354.01	23.15	-23.4	-24.3	18.9	0.00e+00	0	44	102	1048576	7	3992
2026-01-06 11:46:15.66	353.70	22.73	-23.4	-24.2	18.9	0.00e+00	0	44	102	1048576	7	3971
2026-01-06 11:46:18.68	353.40	22.33	-23.4	-24.2	18.9	0.00e+00	0	44	102	1048576	7	3968
2026-01-06 11:46:21.69	353.11	21.93	-23.4	-24.2	19.0	0.00e+00	0	44	102	1048576	7	3963
2026-01-06 11:46:24.71	352.83	21.54	-23.5	-24.4	18.8	0.00e+00	0	44	102	1048576	7	4016
2026-01-06 11:46:27.73	352.55	21.15	-23.6	-24.7	18.7	0.00e+00	0	44	102	1048576	7	4102
2026-01-06 11:46:30.75	352.28	20.76	-23.7	-24.9	18.6	0.00e+00	0	44	102	1048576	7	4135
2026-01-06 11:46:33.76	352.02	20.39	-23.8	-25.1	18.4	0.00e+00	0	44	102	1048576	7	4189
2026-01-06 11:46:36.78	351.76	20.01	-24.1	-25.2	18.1	0.00e+00	0	44	102	1048576	8	4109
2026-01-06 11:46:39.79	351.52	19.64	-24.2	-25.5	18.0	0.00e+00	0	44	102	1048576	8	4179
2026-01-06 11:46:42.81	351.27	19.28	-24.3	-25.7	17.8	0.00e+00	0	44	102	1048576	8	4244
2026-01-06 11:46:45.83	351.04	18.92	-24.4	-26.0	17.7	0.00e+00	0	44	102	1048576	8	4307
2026-01-06 11:46:48.84	350.80	18.57	-24.4	-26.0	17.7	0.00e+00	0	44	102	1048576	8	4295
2026-01-06 11:46:51.85	350.58	18.22	-24.4	-25.9	17.7	0.00e+00	0	44	102	1048576	8	4280
2026-01-06 11:46:54.88	350.36	17.87	-24.4	-26.0	17.7	0.00e+00	0	43	102	1048576	8	4305
2026-01-06 11:46:57.90	350.14	17.53	-24.7	-26.0	17.4	0.00e+00	0	43	102	1048576	9	4186
2026-01-06 11:47:00.93	349.93	17.19	-24.8	-26.3	17.2	0.00e+00	0	44	102	1048576	9	4284
2026-01-06 11:47:03.94	349.73	16.86	-25.1	-26.4	16.9	0.00e+00	0	44	102	1048576	10	4197
2026-01-06 11:47:06.96	349.53	16.53	-25.0	-26.2	17.0	0.00e+00	0	44	102	1048576	10	4151
2026-01-06 11:47:09.97	349.33	16.21	-25.0	-26.3	16.9	0.00e+00	0	44	102	1048576	10	4172
2026-01-06 11:47:12.99	349.14	15.89	-25.0	-26.3	16.9	0.00e+00	0	44	102	1048576	10	4159
2026-01-06 11:47:16.01	348.95	15.57	-25.2	-26.6	16.7	0.00e+00	0	43	102	1048576	10	4233
2026-01-06 11:47:19.03	348.77	15.26	-25.1	-26.4	16.8	0.00e+00	0	44	102	1048576	10	4199
2026-01-06 11:47:22.04	348.59	14.95	-25.1	-26.4	16.8	0.00e+00	0	44	102	1048576	10	4194
2026-01-06 11:47:25.06	348.41	14.64	-25.2	-26.7	16.7	0.00e+00	0	44	102	1048576	10	4266
2026-01-06 11:47:28.08	348.24	14.34	-25.4	-27.0	16.5	0.00e+00	0	44	102	1048576	10	4344
2026-01-06 11:47:31.09	348.08	14.04	-25.4	-27.1	16.4	0.00e+00	0	44	102	1048576	10	4377
2026-01-06 11:47:34.11	347.91	13.75	-25.5	-26.8	16.2	0.00e+00	0	44	102	1048576	11	4195
2026-01-06 11:47:37.13	347.75	13.45	-25.6	-27.0	16.2	1.10e-06	0	44	102	1048576	11	4229
2026-01-06 11:47:40.14	347.59	13.17	-25.6	-27.1	16.0	0.00e+00	0	43	102	1048576	11	4264
2026-01-06 11:47:43.16	347.44	12.88	-25.8	-27.5	15.8	0.00e+00	0	43	102	1048576	11	4367
2026-01-06 11:47:46.18	347.29	12.60	-25.9	-27.6	15.7	0.00e+00	0	44	102	1048576	11	4415
2026-01-06 11:47:49.20	347.14	12.32	-25.9	-27.7	15.7	0.00e+00	0	43	102	1048576	11	4425
2026-01-06 11:47:52.21	347.00	12.04	-25.8	-27.1	15.6	0.00e+00	0	44	102	1048576	12	4176
2026-01-06 11:47:55.23	346.85	11.77	-26.1	-27.6	15.3	0.00e+00	0	44	102	1048576	12	4310
2026-01-06 11:47:58.24	346.71	11.50	-26.1	-27.7	15.2	0.00e+00	0	44	102	1048576	12	4336
2026-01-06 11:48:01.26	346.58	11.23	-26.2	-28.0	15.1	0.00e+00	0	44	102	1048576	12	4398
2026-01-06 11:48:04.27	346.44	10.96	-26.0	-27.6	15.3	0.00e+00	0	44	102	1048576	12	4296
2026-01-06 11:48:07.29	346.31	10.70	-26.2	-27.9	15.1	1.10e-06	0	44	102	1048576	12	4373
2026-01-06 11:48:10.31	346.18	10.44	-26.2	-27.9	15.1	0.00e+00	0	44	102	1048576	12	4372
2026-01-06 11:48:13.32	346.06	10.18	-26.2	-28.0	15.0	1.10e-06	0	44	102	1048576	12	4421
2026-01-06 11:48:16.34	345.94	9.93	-26.3	-28.2	14.9	0.00e+00	0	44	102	1048576	12	4456
2026-01-06 11:48:19.35	345.81	9.68	-26.3	-28.2	14.8	0.00e+00	0	44	102	1048576	12	4482
2026-01-06 11:48:22.38	345.69	9.43	-26.3	-28.2	14.8	0.00e+00	0	44	102	1048576	12	4482
2026-01-06 11:48:25.39	345.58	9.18	-26.4	-28.4	14.7	1.10e-06	0	44	102	1048576	12	4534
2026-01-06 11:48:28.41	345.46	8.93	-26.4	-28.5	14.6	0.00e+00	0	44	102	1048576	12	4574
2026-01-06 11:48:31.43	345.35	8.69	-26.6	-28.3	14.4	1.10e-06	0	44	102	1048576	13	4391
2026-01-06 11:48:34.45	345.24	8.45	-26.7	-28.7	14.2	5.70e-06	0	44	102	1048576	13	4506
2026-01-06 11:48:37.47	345.13	8.21	-26.8	-28.9	14.0	4.50e-06	0	43	102	1048576	13	4560
2026-01-06 11:48:40.50	345.02	7.97	-27.1	-29.1	13.6	1.25e-05	0	44	102	1048576	14	4531
2026-01-06 11:48:43.51	344.92	7.74	-26.8	-28.4	13.9	4.50e-06	0	44	102	1048576	14	4322
2026-01-06 11:48:46.52	344.82	7.51	-26.9	-28.6	13.8	3.40e-06	0	44	102	1048576	14	4374
2026-01-06 11:48:49.55	344.72	7.27	-27.1	-29.0	13.6	6.80e-06	0	44	102	1048576	14	4483
2026-01-06 11:48:52.56	344.62	7.05	-28.7	-30.7	11.5	2.56e-04	0	43	102	1048576	18	4565
2026-01-06 11:48:55.58	344.52	6.82	-33.5	-45.0	3.8	8.47e-01	0	44	104	1048576	26	13546

#Closed at: 2026-01-06 11:48:56
#Recorded file [1 MB]: D:/data/31010_260106_143711.dat