passes_logs/2026/01/06/R2M6_AANII_01/R2M6_AANII_01__20260106_164655_FENGYUN_3E_rec.log

#Pass ID: 20260106_164655_FENGYUN 3E
#Satellite: FENGYUN 3E
#Configuration: FENGYUN 3E
#almurnet v.1.7.20240730
#Start time: 2026-01-06 16:46:55

#Version: 2.2.20231116
#Station: R2M6_AANII_01
#Location: 30.233357 lon 59.946436 lat
#TLE: 1 49008U 21062A   26005.63346808  .00000216  00000+0  12264-3 0  9999
#TLE: 2 49008  98.7472  10.8714 0001569 158.0856 202.0387 14.19884439233512

#Time	Az	El	Level	Level2	SNR	BER	BlckErr	Temp	State	Recorded	gain1	gain2
2026-01-06 16:46:55.05	234.93	6.97	-29.2	-31.2	5.2	7.58e-01	0	41	0	0	19	4529
2026-01-06 16:46:57.04	235.18	7.07	-28.9	-31.4	9.4	1.84e-02	0	41	0	0	17	4803
2026-01-06 16:46:59.06	235.44	7.17	-29.1	-31.8	9.2	2.04e-02	0	41	102	1048576	17	4925
2026-01-06 16:47:01.07	235.69	7.27	-28.8	-30.9	9.8	1.30e-02	0	41	102	1048576	17	4630
2026-01-06 16:47:03.07	235.94	7.37	-28.6	-30.5	10.1	8.56e-03	0	41	102	1048576	17	4489
2026-01-06 16:47:05.08	236.20	7.47	-29.2	-31.5	9.1	1.82e-02	0	41	102	1048576	18	4727
2026-01-06 16:47:07.10	236.46	7.57	-27.9	-28.8	11.3	1.70e-03	0	42	102	1048576	17	3980
2026-01-06 16:47:09.11	236.72	7.67	-26.9	-27.8	12.6	1.42e-04	0	42	102	1048576	14	4009
2026-01-06 16:47:11.13	236.99	7.77	-26.5	-27.4	13.2	3.20e-05	0	42	102	1048576	13	3994
2026-01-06 16:47:13.14	237.25	7.87	-26.3	-27.5	13.4	1.02e-05	0	42	102	1048576	12	4127
2026-01-06 16:47:15.16	237.52	7.97	-26.4	-27.8	13.3	1.37e-05	0	42	102	1048576	12	4208
2026-01-06 16:47:17.17	237.78	8.07	-26.2	-27.3	13.5	1.02e-05	0	42	102	1048576	12	4093
2026-01-06 16:47:19.19	238.06	8.17	-26.3	-27.5	13.4	1.02e-05	0	42	102	1048576	12	4131
2026-01-06 16:47:21.20	238.33	8.26	-26.3	-27.6	13.4	2.17e-05	0	42	102	1048576	12	4152
2026-01-06 16:47:23.21	238.60	8.36	-26.1	-26.9	13.8	5.70e-06	0	42	102	1048576	12	3978
2026-01-06 16:47:25.24	238.88	8.46	-26.1	-27.1	13.7	8.00e-06	0	42	102	1048576	12	4017
2026-01-06 16:47:27.24	239.15	8.56	-26.2	-27.3	13.5	1.02e-05	0	42	102	1048576	12	4092
2026-01-06 16:47:29.25	239.43	8.66	-26.4	-27.6	13.4	1.60e-05	0	42	102	1048576	12	4173
2026-01-06 16:47:31.27	239.71	8.76	-26.3	-27.6	13.4	1.14e-05	0	42	102	1048576	12	4156
2026-01-06 16:47:33.28	240.00	8.85	-26.5	-28.0	13.2	2.63e-05	0	42	102	1048576	12	4269
2026-01-06 16:47:35.30	240.28	8.95	-26.2	-27.3	13.7	6.80e-06	0	42	102	1048576	12	4078
2026-01-06 16:47:37.31	240.57	9.05	-26.1	-27.1	13.7	1.37e-05	0	42	102	1048576	12	4036
2026-01-06 16:47:39.32	240.85	9.15	-26.4	-27.6	13.4	1.25e-05	0	42	102	1048576	12	4166
2026-01-06 16:47:41.34	241.14	9.24	-26.2	-27.3	13.6	1.14e-05	0	42	102	1048576	12	4085
2026-01-06 16:47:43.34	241.43	9.34	-26.5	-27.9	13.3	1.60e-05	0	43	102	1048576	12	4242
2026-01-06 16:47:45.36	241.73	9.43	-25.8	-26.9	13.3	9.10e-06	0	42	102	1048576	12	4089
2026-01-06 16:47:47.36	242.02	9.53	-26.3	-27.6	13.4	1.14e-05	0	42	102	1048576	12	4142
2026-01-06 16:47:49.37	242.32	9.63	-26.2	-27.3	13.7	6.80e-06	0	43	102	1048576	12	4070
2026-01-06 16:47:51.39	242.62	9.72	-26.0	-27.2	14.2	1.10e-06	0	42	102	1048576	11	4148
2026-01-06 16:47:53.41	242.92	9.82	-25.9	-27.1	14.2	1.10e-06	0	43	102	1048576	11	4119
2026-01-06 16:47:55.41	243.22	9.91	-25.9	-27.0	14.3	2.20e-06	0	42	102	1048576	11	4103
2026-01-06 16:47:57.42	243.53	10.00	-26.1	-27.4	14.0	2.86e-04	0	43	102	1048576	11	4206
2026-01-06 16:47:59.44	243.84	10.10	-26.2	-27.2	13.8	5.70e-06	0	43	102	1048576	12	4045
2026-01-06 16:48:01.45	244.14	10.19	-26.0	-26.7	14.1	4.50e-06	0	43	102	1048576	12	3931
2026-01-06 16:48:03.45	244.45	10.28	-26.0	-27.3	14.1	1.10e-06	0	43	102	1048576	11	4189
2026-01-06 16:48:05.46	244.76	10.38	-26.0	-27.2	14.2	4.11e-04	0	43	102	1048576	11	4158
2026-01-06 16:48:07.48	245.08	10.47	-25.8	-26.8	14.4	1.10e-06	0	43	102	1048576	11	4054
2026-01-06 16:48:09.49	245.40	10.56	-25.8	-26.8	14.4	4.08e-04	0	43	102	1048576	11	4038
2026-01-06 16:48:11.50	245.71	10.65	-25.7	-26.7	14.5	4.18e-04	0	43	102	1048576	11	4021
2026-01-06 16:48:13.51	246.03	10.74	-25.8	-26.8	14.4	0.00e+00	0	43	102	1048576	11	4058
2026-01-06 16:48:15.53	246.36	10.84	-25.6	-26.4	14.7	9.84e-04	0	43	102	1048576	11	3950
2026-01-06 16:48:17.54	246.68	10.93	-25.7	-26.5	14.6	9.55e-04	0	43	102	1048576	11	3973
2026-01-06 16:48:19.55	247.01	11.02	-25.6	-26.4	14.7	1.10e-06	0	43	102	1048576	11	3949
2026-01-06 16:48:21.56	247.33	11.10	-25.5	-26.2	14.8	4.43e-04	0	43	102	1048576	11	3890
2026-01-06 16:48:23.58	247.66	11.19	-25.7	-26.6	14.6	0.00e+00	0	43	102	1048576	11	3977
2026-01-06 16:48:25.59	247.99	11.28	-25.6	-26.3	14.8	0.00e+00	0	43	102	1048576	11	3916
2026-01-06 16:48:27.60	248.33	11.37	-25.4	-25.9	15.0	0.00e+00	0	43	102	1048576	11	3812
2026-01-06 16:48:29.61	248.66	11.46	-25.4	-25.9	15.0	3.20e-05	0	43	102	1048576	11	3830
2026-01-06 16:48:31.63	249.00	11.54	-25.4	-25.9	15.0	0.00e+00	0	43	102	1048576	11	3811
2026-01-06 16:48:33.64	249.34	11.63	-25.4	-26.0	15.0	0.00e+00	0	43	102	1048576	11	3842
2026-01-06 16:48:35.65	249.68	11.71	-25.4	-25.9	15.1	0.00e+00	0	43	102	1048576	11	3812
2026-01-06 16:48:37.67	250.03	11.80	-25.5	-26.2	14.9	1.10e-06	0	43	102	1048576	11	3884
2026-01-06 16:48:39.67	250.37	11.88	-25.4	-26.3	15.1	0.00e+00	0	43	102	1048576	10	4021
2026-01-06 16:48:41.68	250.72	11.97	-25.3	-26.1	15.2	0.00e+00	0	43	102	1048576	10	3974
2026-01-06 16:48:43.69	251.06	12.05	-25.3	-26.1	15.2	2.20e-06	0	43	102	1048576	10	3978
2026-01-06 16:48:45.71	251.42	12.13	-25.4	-26.3	15.1	0.00e+00	0	43	102	1048576	10	4029
2026-01-06 16:48:47.73	251.77	12.21	-25.3	-26.1	15.3	0.00e+00	0	43	102	1048576	10	3963
2026-01-06 16:48:49.74	252.12	12.29	-25.2	-26.0	15.3	1.10e-06	0	43	102	1048576	10	3931
2026-01-06 16:48:51.75	252.48	12.37	-25.2	-26.0	15.3	0.00e+00	0	43	102	1048576	10	3941
2026-01-06 16:48:53.77	252.84	12.45	-25.1	-25.8	15.5	0.00e+00	0	43	102	1048576	10	3882
2026-01-06 16:48:55.78	253.20	12.53	-25.1	-25.7	15.5	0.00e+00	0	43	102	1048576	10	3866
2026-01-06 16:48:57.80	253.56	12.61	-25.1	-25.8	15.4	0.00e+00	0	43	102	1048576	10	3898
2026-01-06 16:48:59.81	253.93	12.68	-25.1	-26.1	15.5	0.00e+00	0	43	102	1048576	9	4068
2026-01-06 16:49:01.83	254.29	12.76	-25.0	-25.9	15.6	0.00e+00	0	43	102	1048576	9	4031
2026-01-06 16:49:03.84	254.66	12.84	-25.0	-25.5	15.6	0.00e+00	0	43	102	1048576	10	3814
2026-01-06 16:49:05.86	255.03	12.91	-25.0	-26.1	15.6	0.00e+00	0	43	102	1048576	9	4072
2026-01-06 16:49:07.87	255.40	12.98	-25.0	-25.6	15.6	0.00e+00	0	43	102	1048576	10	3841
2026-01-06 16:49:09.89	255.78	13.06	-25.1	-25.8	15.5	0.00e+00	0	43	102	1048576	10	3896
2026-01-06 16:49:11.90	256.15	13.13	-25.2	-25.9	15.4	0.00e+00	0	43	102	1048576	10	3917
2026-01-06 16:49:13.91	256.53	13.20	-25.1	-25.7	15.5	0.00e+00	0	43	102	1048576	10	3875
2026-01-06 16:49:15.92	256.90	13.27	-25.1	-25.7	15.6	0.00e+00	0	43	102	1048576	10	3858
2026-01-06 16:49:17.92	257.28	13.34	-25.0	-26.0	15.6	0.00e+00	0	43	102	1048576	9	4056
2026-01-06 16:49:19.94	257.66	13.40	-25.1	-25.8	15.5	0.00e+00	0	44	102	1048576	10	3903
2026-01-06 16:49:21.95	258.05	13.47	-25.0	-26.0	15.6	0.00e+00	0	43	102	1048576	9	4056
2026-01-06 16:49:23.96	258.43	13.54	-24.9	-25.9	15.7	0.00e+00	0	43	102	1048576	9	4021
2026-01-06 16:49:25.97	258.82	13.60	-25.0	-26.0	15.7	0.00e+00	0	43	102	1048576	9	4040
2026-01-06 16:49:27.98	259.21	13.67	-25.1	-25.7	15.6	0.00e+00	0	44	102	1048576	10	3853
2026-01-06 16:49:29.99	259.59	13.73	-25.1	-25.7	15.6	0.00e+00	0	44	102	1048576	10	3860
2026-01-06 16:49:32.00	259.99	13.79	-25.2	-25.9	15.5	0.00e+00	0	43	102	1048576	10	3918
2026-01-06 16:49:34.00	260.38	13.85	-25.2	-25.9	15.5	0.00e+00	0	43	102	1048576	10	3911
2026-01-06 16:49:36.01	260.77	13.91	-25.5	-26.5	15.1	0.00e+00	0	43	102	1048576	10	4067
2026-01-06 16:49:38.02	261.17	13.97	-24.1	-24.6	15.4	0.00e+00	0	44	102	1048576	10	3798
2026-01-06 16:49:40.03	261.56	14.03	-25.0	-25.9	15.7	5.70e-06	0	43	102	1048576	9	4020
2026-01-06 16:49:42.04	261.96	14.08	-25.5	-26.5	14.6	0.00e+00	0	44	102	1048576	10	4074
2026-01-06 16:49:44.04	262.36	14.14	-25.2	-25.9	15.5	0.00e+00	0	44	102	1048576	10	3921
2026-01-06 16:49:46.05	262.76	14.19	-25.3	-26.2	15.4	1.10e-06	0	43	102	1048576	10	3979
2026-01-06 16:49:48.07	263.16	14.24	-25.4	-26.4	15.2	0.00e+00	0	43	102	1048576	10	4042
2026-01-06 16:49:50.08	263.57	14.30	-24.9	-25.7	15.9	8.07e-04	0	43	102	1048576	9	3968
2026-01-06 16:49:52.09	263.97	14.35	-24.7	-25.3	16.1	1.10e-06	0	43	102	1048576	9	3869
2026-01-06 16:49:54.10	264.38	14.39	-24.7	-25.3	16.1	3.29e-04	0	43	102	1048576	9	3864
2026-01-06 16:49:56.12	264.79	14.44	-24.7	-25.4	16.0	9.46e-04	0	43	102	1048576	9	3908
2026-01-06 16:49:58.13	265.20	14.49	-24.8	-25.5	16.0	4.50e-06	0	43	102	1048576	9	3928
2026-01-06 16:50:00.14	265.61	14.53	-24.8	-25.6	15.9	1.40e-03	0	43	102	1048576	9	3940
2026-01-06 16:50:02.16	266.02	14.58	-24.8	-25.5	16.0	1.52e-03	0	43	102	1048576	9	3916
2026-01-06 16:50:04.16	266.43	14.62	-24.7	-25.3	16.1	4.23e-05	0	43	102	1048576	9	3878
2026-01-06 16:50:06.18	266.85	14.66	-24.6	-25.2	16.1	1.69e-03	0	44	102	1048576	9	3848
2026-01-06 16:50:08.19	267.27	14.70	-24.7	-25.3	16.1	0.00e+00	0	43	102	1048576	9	3863
2026-01-06 16:50:10.20	267.68	14.74	-24.7	-25.4	16.0	0.00e+00	0	43	102	1048576	9	3898
2026-01-06 16:50:12.22	268.10	14.78	-24.7	-25.2	16.1	1.54e-03	0	44	102	1048576	9	3856
2026-01-06 16:50:14.23	268.52	14.81	-24.7	-25.5	16.0	1.56e-03	0	44	102	1048576	9	3906
2026-01-06 16:50:16.25	268.94	14.85	-24.7	-25.3	16.1	2.28e-05	0	44	102	1048576	9	3874
2026-01-06 16:50:18.26	269.36	14.88	-24.8	-25.6	15.9	0.00e+00	0	44	102	1048576	9	3942
2026-01-06 16:50:20.27	269.78	14.91	-24.8	-25.5	16.0	1.10e-06	0	43	102	1048576	9	3911
2026-01-06 16:50:22.29	270.20	14.94	-24.8	-25.5	16.0	2.12e-03	0	44	102	1048576	9	3909
2026-01-06 16:50:24.30	270.63	14.97	-24.6	-25.2	16.1	1.90e-03	0	43	102	1048576	9	3853
2026-01-06 16:50:26.31	271.05	15.00	-24.8	-25.5	16.0	3.34e-04	0	43	102	1048576	9	3914
2026-01-06 16:50:28.32	271.47	15.03	-24.6	-25.6	16.3	0.00e+00	0	44	102	1048576	8	4034
2026-01-06 16:50:30.34	271.90	15.05	-24.6	-25.1	16.2	1.77e-03	0	44	102	1048576	9	3833
2026-01-06 16:50:32.35	272.33	15.08	-24.9	-25.8	15.9	5.95e-05	0	44	102	1048576	9	3981
2026-01-06 16:50:34.36	272.75	15.10	-24.8	-25.7	15.9	1.55e-03	0	43	102	1048576	9	3964
2026-01-06 16:50:36.38	273.18	15.12	-25.0	-25.9	15.8	2.74e-03	0	44	102	1048576	9	4026
2026-01-06 16:50:38.40	273.61	15.14	-24.8	-25.6	16.0	1.07e-03	0	43	102	1048576	9	3952
2026-01-06 16:50:40.41	274.04	15.15	-24.8	-25.5	16.0	1.37e-05	0	44	102	1048576	9	3917
2026-01-06 16:50:42.42	274.46	15.17	-24.6	-25.5	16.3	0.00e+00	0	44	102	1048576	8	4035
2026-01-06 16:50:44.44	274.90	15.18	-24.6	-25.2	16.2	1.71e-03	0	44	102	1048576	9	3858
2026-01-06 16:50:46.45	275.32	15.20	-25.1	-25.7	15.7	8.00e-06	0	44	102	1048576	10	3851
2026-01-06 16:50:48.47	275.76	15.21	-24.8	-25.5	16.1	1.04e-03	0	44	102	1048576	9	3909
2026-01-06 16:50:50.47	276.18	15.22	-24.7	-25.3	16.2	0.00e+00	0	43	102	1048576	9	3876
2026-01-06 16:50:52.49	276.61	15.23	-24.6	-25.3	16.2	0.00e+00	0	44	102	1048576	9	3859
2026-01-06 16:50:54.50	277.04	15.23	-24.7	-25.4	16.1	0.00e+00	0	44	102	1048576	9	3891
2026-01-06 16:50:56.51	277.47	15.24	-24.6	-25.2	16.2	0.00e+00	0	44	102	1048576	9	3852
2026-01-06 16:50:58.53	277.91	15.24	-24.9	-25.8	15.9	0.00e+00	0	44	102	1048576	9	3984
2026-01-06 16:51:00.55	278.34	15.25	-24.9	-25.9	15.9	0.00e+00	0	44	102	1048576	9	4006
2026-01-06 16:51:02.57	278.77	15.25	-25.0	-26.1	15.7	0.00e+00	0	44	102	1048576	9	4063
2026-01-06 16:51:04.58	279.20	15.25	-25.0	-26.1	15.7	0.00e+00	0	44	102	1048576	9	4067
2026-01-06 16:51:06.60	279.63	15.24	-24.7	-25.5	16.0	0.00e+00	0	44	102	1048576	9	3908
2026-01-06 16:51:08.61	280.06	15.24	-24.7	-25.3	16.1	0.00e+00	0	44	102	1048576	9	3876
2026-01-06 16:51:10.62	280.49	15.23	-24.6	-25.2	16.2	0.00e+00	0	44	102	1048576	9	3834
2026-01-06 16:51:12.64	280.92	15.23	-24.6	-25.2	16.2	0.00e+00	0	43	102	1048576	9	3835
2026-01-06 16:51:14.65	281.35	15.22	-24.7	-25.3	16.1	0.00e+00	0	43	102	1048576	9	3875
2026-01-06 16:51:16.67	281.78	15.21	-25.0	-25.9	15.8	0.00e+00	0	44	102	1048576	9	4026
2026-01-06 16:51:18.68	282.21	15.20	-25.0	-26.0	15.7	0.00e+00	0	44	102	1048576	9	4047
2026-01-06 16:51:20.69	282.64	15.19	-25.3	-26.1	15.5	0.00e+00	0	43	102	1048576	10	3957
2026-01-06 16:51:22.70	283.07	15.17	-25.1	-25.8	15.6	0.00e+00	0	43	102	1048576	10	3880
2026-01-06 16:51:24.72	283.50	15.16	-25.1	-26.2	15.6	0.00e+00	0	44	102	1048576	9	4100
2026-01-06 16:51:26.73	283.93	15.14	-24.8	-25.5	16.0	0.00e+00	0	43	102	1048576	9	3921
2026-01-06 16:51:28.74	284.35	15.12	-24.8	-25.6	16.0	0.00e+00	0	44	102	1048576	9	3936
2026-01-06 16:51:30.75	284.78	15.10	-25.0	-26.0	15.3	1.94e-03	0	44	102	1048576	9	4036
2026-01-06 16:51:32.77	285.21	15.08	-24.9	-25.7	15.9	0.00e+00	0	44	102	1048576	9	3969
2026-01-06 16:51:34.77	285.63	15.06	-24.8	-25.6	16.0	0.00e+00	0	44	102	1048576	9	3938
2026-01-06 16:51:36.78	286.05	15.03	-24.8	-25.5	16.1	0.00e+00	0	44	102	1048576	9	3909
2026-01-06 16:51:38.79	286.48	15.01	-24.8	-25.6	16.0	1.61e-04	0	44	102	1048576	9	3940
2026-01-06 16:51:40.81	286.90	14.98	-24.9	-25.8	15.8	3.73e-04	0	43	102	1048576	9	3990
2026-01-06 16:51:42.82	287.32	14.95	-24.8	-25.5	16.1	1.54e-03	0	44	102	1048576	9	3908
2026-01-06 16:51:44.84	287.75	14.92	-24.8	-25.6	16.0	0.00e+00	0	44	102	1048576	9	3943
2026-01-06 16:51:46.85	288.17	14.89	-24.9	-25.7	15.9	0.00e+00	0	44	102	1048576	9	3969
2026-01-06 16:51:48.87	288.59	14.86	-24.9	-25.9	15.8	1.88e-03	0	44	102	1048576	9	4014
2026-01-06 16:51:50.87	289.00	14.82	-24.9	-25.7	15.9	1.82e-03	0	43	102	1048576	9	3960
2026-01-06 16:51:52.89	289.42	14.79	-24.8	-25.6	16.0	0.00e+00	0	44	102	1048576	9	3947
2026-01-06 16:51:54.90	289.84	14.75	-24.8	-25.6	16.0	1.78e-03	0	44	102	1048576	9	3933
2026-01-06 16:51:56.91	290.26	14.71	-24.9	-25.7	15.9	9.44e-04	0	44	102	1048576	9	3971
2026-01-06 16:51:58.92	290.67	14.67	-25.0	-26.1	15.7	9.83e-04	0	44	102	1048576	9	4069
2026-01-06 16:52:00.94	291.08	14.63	-25.3	-26.2	15.4	1.62e-03	0	43	102	1048576	10	3975
2026-01-06 16:52:02.95	291.50	14.59	-25.2	-25.8	15.6	1.49e-03	0	44	102	1048576	10	3896
2026-01-06 16:52:04.96	291.91	14.54	-25.1	-25.8	15.6	1.09e-03	0	44	102	1048576	10	3886
2026-01-06 16:52:06.97	292.32	14.50	-25.0	-25.6	15.7	2.20e-06	0	44	102	1048576	10	3827
2026-01-06 16:52:08.97	292.72	14.45	-24.9	-25.9	15.8	1.02e-03	0	44	102	1048576	9	4010
2026-01-06 16:52:11.00	293.13	14.40	-24.9	-25.8	15.8	8.49e-04	0	44	102	1048576	9	3993
2026-01-06 16:52:13.01	293.54	14.36	-25.0	-26.0	15.8	0.00e+00	0	44	102	1048576	9	4035
2026-01-06 16:52:15.02	293.94	14.31	-25.2	-25.9	15.6	0.00e+00	0	44	102	1048576	10	3907
2026-01-06 16:52:17.03	294.35	14.26	-25.2	-25.9	15.5	3.92e-04	0	44	102	1048576	10	3915
2026-01-06 16:52:19.04	294.75	14.20	-25.2	-25.8	15.6	0.00e+00	0	44	102	1048576	10	3896
2026-01-06 16:52:21.05	295.15	14.15	-25.2	-25.9	15.6	0.00e+00	0	44	102	1048576	10	3901
2026-01-06 16:52:23.06	295.55	14.10	-25.2	-25.8	15.6	0.00e+00	0	44	102	1048576	10	3897
2026-01-06 16:52:25.07	295.95	14.04	-25.2	-25.9	15.6	0.00e+00	0	44	102	1048576	10	3901
2026-01-06 16:52:27.08	296.34	13.98	-25.2	-26.0	15.5	0.00e+00	0	44	102	1048576	10	3939
2026-01-06 16:52:29.09	296.74	13.93	-25.3	-26.2	15.3	5.24e-04	0	44	102	1048576	10	3998
2026-01-06 16:52:31.10	297.13	13.87	-25.4	-26.3	15.3	0.00e+00	0	43	102	1048576	10	4002
2026-01-06 16:52:33.12	297.52	13.81	-25.5	-26.5	15.2	0.00e+00	0	44	102	1048576	10	4065
2026-01-06 16:52:35.13	297.91	13.74	-25.3	-26.2	15.3	1.10e-06	0	44	102	1048576	10	3990
2026-01-06 16:52:37.14	298.30	13.68	-25.2	-25.8	15.6	0.00e+00	0	44	102	1048576	10	3895
2026-01-06 16:52:39.15	298.69	13.62	-25.2	-25.9	15.5	0.00e+00	0	44	102	1048576	10	3913
2026-01-06 16:52:41.17	299.07	13.55	-25.0	-26.1	15.6	0.00e+00	0	44	102	1048576	9	4060
2026-01-06 16:52:43.18	299.46	13.49	-25.0	-26.0	15.7	0.00e+00	0	43	102	1048576	9	4055
2026-01-06 16:52:45.20	299.84	13.42	-25.0	-26.0	15.7	0.00e+00	0	44	102	1048576	9	4032
2026-01-06 16:52:47.21	300.22	13.36	-25.2	-25.9	15.5	0.00e+00	0	44	102	1048576	10	3901
2026-01-06 16:52:49.22	300.60	13.29	-25.3	-26.2	15.4	0.00e+00	0	44	102	1048576	10	3977
2026-01-06 16:52:51.23	300.98	13.22	-25.4	-26.5	15.1	0.00e+00	0	44	102	1048576	10	4051
2026-01-06 16:52:53.23	301.35	13.15	-25.5	-26.5	15.1	0.00e+00	0	44	102	1048576	10	4060
2026-01-06 16:52:55.24	301.72	13.08	-25.9	-27.0	14.6	0.00e+00	0	44	102	1048576	11	4081
2026-01-06 16:52:57.26	302.10	13.01	-25.6	-26.4	14.9	1.09e-03	0	44	102	1048576	11	3938
2026-01-06 16:52:59.27	302.47	12.93	-25.5	-26.6	15.0	0.00e+00	0	44	102	1048576	10	4102
2026-01-06 16:53:01.29	302.83	12.86	-25.7	-26.6	14.8	0.00e+00	0	44	102	1048576	11	3975
2026-01-06 16:53:03.30	303.20	12.78	-25.6	-26.4	14.9	0.00e+00	0	44	102	1048576	11	3923
2026-01-06 16:53:05.32	303.57	12.71	-25.4	-25.9	15.1	0.00e+00	0	44	102	1048576	11	3813
2026-01-06 16:53:07.32	303.93	12.63	-25.5	-26.7	15.0	0.00e+00	0	43	102	1048576	10	4105
2026-01-06 16:53:09.33	304.29	12.56	-25.5	-26.6	15.1	1.18e-03	0	44	102	1048576	10	4083
2026-01-06 16:53:11.35	304.65	12.48	-25.4	-26.4	15.2	1.15e-03	0	44	102	1048576	10	4022
2026-01-06 16:53:13.36	305.00	12.40	-25.4	-26.3	15.2	0.00e+00	0	44	102	1048576	10	4009
2026-01-06 16:53:15.38	305.36	12.32	-25.4	-26.4	15.1	1.55e-03	0	44	102	1048576	10	4028
2026-01-06 16:53:17.40	305.72	12.24	-25.5	-26.7	15.0	1.52e-03	0	44	102	1048576	10	4103
2026-01-06 16:53:19.41	306.07	12.16	-25.8	-26.8	14.7	0.00e+00	0	44	102	1048576	11	4029
2026-01-06 16:53:21.42	306.42	12.08	-25.7	-26.5	14.8	1.45e-03	0	44	102	1048576	11	3964
2026-01-06 16:53:23.44	306.77	12.00	-25.7	-26.6	14.7	2.55e-04	0	44	102	1048576	11	3996
2026-01-06 16:53:25.45	307.11	11.91	-25.6	-26.4	14.9	1.50e-04	0	44	102	1048576	11	3933
2026-01-06 16:53:27.47	307.46	11.83	-25.7	-26.6	14.8	0.00e+00	0	44	102	1048576	11	3976
2026-01-06 16:53:29.49	307.80	11.75	-25.8	-26.7	14.7	0.00e+00	0	44	102	1048576	11	4004
2026-01-06 16:53:31.51	308.14	11.66	-25.6	-26.3	14.9	0.00e+00	0	44	102	1048576	11	3915
2026-01-06 16:53:33.51	308.48	11.58	-25.8	-26.8	14.6	0.00e+00	0	44	102	1048576	11	4044
2026-01-06 16:53:35.52	308.81	11.49	-26.0	-27.3	14.4	1.10e-06	0	44	102	1048576	11	4158
2026-01-06 16:53:37.54	309.15	11.41	-26.0	-26.7	14.3	1.32e-04	0	44	102	1048576	12	3911
2026-01-06 16:53:39.55	309.48	11.32	-26.2	-27.3	14.0	3.40e-06	0	44	102	1048576	12	4048
2026-01-06 16:53:41.57	309.81	11.23	-26.1	-26.9	14.2	3.40e-06	0	44	102	1048576	12	3959
2026-01-06 16:53:43.58	310.14	11.14	-26.1	-27.0	14.2	3.40e-06	0	44	102	1048576	12	3974
2026-01-06 16:53:45.59	310.47	11.06	-25.8	-26.7	14.7	0.00e+00	0	44	102	1048576	11	4003
2026-01-06 16:53:47.61	310.79	10.97	-25.9	-26.9	14.6	0.00e+00	0	44	102	1048576	11	4050
2026-01-06 16:53:49.62	311.12	10.88	-25.9	-27.1	14.5	0.00e+00	0	44	102	1048576	11	4108
2026-01-06 16:53:51.63	311.44	10.79	-25.9	-26.5	14.4	3.40e-06	0	44	102	1048576	12	3856
2026-01-06 16:53:53.63	311.76	10.70	-26.0	-27.3	14.3	2.20e-06	0	44	102	1048576	11	4170
2026-01-06 16:53:55.65	312.07	10.61	-26.1	-27.0	14.1	2.20e-06	0	44	102	1048576	12	3990
2026-01-06 16:53:57.66	312.39	10.52	-26.0	-26.6	14.3	2.20e-06	0	44	102	1048576	12	3894
2026-01-06 16:53:59.67	312.70	10.42	-26.0	-27.1	14.4	4.50e-06	0	43	102	1048576	11	4122
2026-01-06 16:54:01.69	313.01	10.33	-26.0	-27.2	14.3	2.20e-06	0	44	102	1048576	11	4148
2026-01-06 16:54:03.70	313.32	10.24	-26.1	-27.4	14.3	2.20e-06	0	44	102	1048576	11	4192
2026-01-06 16:54:05.72	313.63	10.15	-26.1	-27.0	14.1	1.10e-06	0	44	102	1048576	12	3973
2026-01-06 16:54:07.74	313.94	10.05	-26.1	-27.0	14.1	1.10e-06	0	44	102	1048576	12	3991
2026-01-06 16:54:09.75	314.24	9.96	-26.2	-27.1	14.0	4.50e-06	0	44	102	1048576	12	4020
2026-01-06 16:54:11.76	314.54	9.87	-25.6	-26.7	13.5	0.00e+00	0	44	102	1048576	12	4087
2026-01-06 16:54:13.78	314.85	9.77	-26.4	-27.6	13.3	3.40e-06	0	44	102	1048576	12	4145
2026-01-06 16:54:15.79	315.14	9.68	-26.1	-27.1	14.0	3.40e-06	0	44	102	1048576	12	4001
2026-01-06 16:54:17.80	315.44	9.58	-26.3	-27.4	13.8	1.16e-03	0	44	102	1048576	12	4100
2026-01-06 16:54:19.81	315.73	9.49	-26.2	-27.2	13.9	5.70e-06	0	44	102	1048576	12	4033
2026-01-06 16:54:21.82	316.03	9.39	-26.3	-27.4	13.8	3.40e-06	0	44	102	1048576	12	4100
2026-01-06 16:54:23.83	316.32	9.30	-26.2	-27.2	13.9	1.05e-03	0	44	102	1048576	12	4041
2026-01-06 16:54:25.84	316.61	9.20	-26.4	-27.8	13.6	1.49e-03	0	44	102	1048576	12	4195
2026-01-06 16:54:27.86	316.89	9.11	-26.4	-27.3	13.6	1.25e-05	0	44	102	1048576	13	3953
2026-01-06 16:54:29.87	317.18	9.01	-26.6	-27.6	13.3	1.81e-03	0	44	102	1048576	13	4048
2026-01-06 16:54:31.88	317.46	8.91	-26.5	-27.9	13.5	1.84e-03	0	44	102	1048576	12	4237
2026-01-06 16:54:33.90	317.75	8.82	-26.9	-28.3	13.0	3.20e-05	0	44	102	1048576	13	4228
2026-01-06 16:54:35.91	318.03	8.72	-26.6	-27.7	13.3	1.77e-03	0	44	102	1048576	13	4071
2026-01-06 16:54:37.93	318.30	8.62	-26.7	-27.8	13.3	1.79e-03	0	44	102	1048576	13	4089
2026-01-06 16:54:39.94	318.58	8.53	-26.7	-27.8	13.2	3.08e-05	0	44	102	1048576	13	4107
2026-01-06 16:54:41.95	318.85	8.43	-26.6	-28.0	13.4	2.28e-05	0	44	102	1048576	12	4270
2026-01-06 16:54:43.97	319.13	8.33	-26.5	-27.9	13.4	1.25e-05	0	44	102	1048576	12	4223
2026-01-06 16:54:45.98	319.40	8.23	-26.5	-27.4	13.4	5.37e-05	0	44	102	1048576	13	3984
2026-01-06 16:54:47.99	319.67	8.13	-26.7	-27.8	13.2	1.50e-03	0	44	102	1048576	13	4093
2026-01-06 16:54:50.00	319.94	8.04	-26.2	-27.3	13.7	6.80e-06	0	44	102	1048576	12	4080
2026-01-06 16:54:52.02	320.20	7.94	-26.6	-27.7	13.3	2.17e-05	0	44	102	1048576	13	4068
2026-01-06 16:54:54.03	320.47	7.84	-26.9	-28.2	12.9	6.63e-05	0	44	102	1048576	13	4211
2026-01-06 16:54:56.04	320.73	7.74	-26.6	-28.1	13.2	2.20e-04	0	44	102	1048576	12	4297
2026-01-06 16:54:58.05	320.99	7.64	-26.4	-27.8	13.4	3.05e-04	0	44	102	1048576	12	4199
2026-01-06 16:55:00.07	321.25	7.54	-27.0	-28.6	12.6	5.60e-05	0	44	102	1048576	13	4328
2026-01-06 16:55:02.08	321.51	7.45	-27.6	-29.1	11.8	1.11e-03	0	44	102	1048576	15	4247
2026-01-06 16:55:04.10	321.76	7.35	-26.8	-27.6	13.0	5.26e-05	0	44	102	1048576	14	3940
2026-01-06 16:55:06.11	322.02	7.25	-26.8	-28.2	12.9	4.57e-05	0	44	102	1048576	13	4212
2026-01-06 16:55:08.12	322.27	7.15	-26.7	-27.9	13.0	9.42e-04	0	44	102	1048576	13	4144
2026-01-06 16:55:10.13	322.52	7.05	-26.7	-28.0	12.9	8.86e-04	0	44	102	1048576	13	4152
2026-01-06 16:55:12.15	322.77	6.95	-33.1	-43.0	3.8	8.46e-01	0	44	104	1048576	25	11307

#Closed at: 2026-01-06 16:55:14
#Recorded file [1 MB]: D:/data/31010_260106_194656.dat