passes_logs/2026/01/06/R2M6_AANII_01/R2M6_AANII_01__20260106_050515_FENGYUN_3D_rec.log

#Pass ID: 20260106_050515_FENGYUN 3D
#Satellite: FENGYUN 3D
#Configuration: FENGYUN 3D
#almurnet v.1.7.20240730
#Start time: 2026-01-06 05:05:14

#Version: 2.2.20231116
#Station: R2M6_AANII_01
#Location: 30.233357 lon 59.946436 lat
#TLE: 1 43010U 17072A   26005.48915933 -.00000051  00000+0 -21983-5 0  9995
#TLE: 2 43010  98.9919 337.1582 0002001 124.6377 235.4988 14.19691925421909

#Time	Az	El	Level	Level2	SNR	BER	BlckErr	Temp	State	Recorded	gain1	gain2
2026-01-06 05:05:14.36	9.06	6.96	-32.1	-39.2	4.0	8.43e-01	0	41	0	0	25	8137
2026-01-06 05:05:16.37	8.82	7.07	-30.5	-34.4	8.0	8.05e-02	0	41	0	0	21	5672
2026-01-06 05:05:18.38	8.58	7.17	-30.5	-34.3	8.1	7.25e-02	0	41	102	1048576	21	5621
2026-01-06 05:05:20.39	8.34	7.28	-30.4	-34.6	8.1	5.15e-02	0	42	102	1048576	20	5845
2026-01-06 05:05:22.40	8.10	7.39	-30.1	-33.6	9.0	4.21e-02	0	42	102	1048576	20	5374
2026-01-06 05:05:24.41	7.86	7.49	-29.3	-31.7	10.7	5.34e-03	0	41	102	1048576	19	4775
2026-01-06 05:05:26.42	7.61	7.60	-28.4	-30.1	12.1	5.92e-04	0	42	102	1048576	18	4364
2026-01-06 05:05:28.44	7.36	7.70	-27.4	-28.7	13.6	3.08e-05	0	42	102	1048576	16	4172
2026-01-06 05:05:30.45	7.12	7.81	-27.0	-28.8	13.9	5.17e-04	0	42	102	1048576	14	4432
2026-01-06 05:05:32.46	6.86	7.91	-27.2	-29.2	13.7	5.25e-04	0	41	102	1048576	14	4543
2026-01-06 05:05:34.47	6.61	8.02	-27.0	-28.8	13.9	1.02e-05	0	42	102	1048576	14	4411
2026-01-06 05:05:36.49	6.36	8.13	-26.9	-28.9	14.1	6.40e-04	0	42	102	1048576	13	4565
2026-01-06 05:05:38.51	6.10	8.23	-27.1	-29.0	13.8	1.02e-05	0	42	102	1048576	14	4484
2026-01-06 05:05:40.52	5.84	8.34	-27.0	-28.6	14.1	5.70e-06	0	42	102	1048576	14	4375
2026-01-06 05:05:42.54	5.58	8.44	-26.8	-28.9	14.2	9.04e-04	0	42	102	1048576	13	4543
2026-01-06 05:05:44.55	5.31	8.55	-26.9	-28.9	14.2	8.73e-04	0	42	102	1048576	13	4565
2026-01-06 05:05:46.57	5.05	8.65	-26.9	-28.5	14.2	0.00e+00	0	42	102	1048576	14	4339
2026-01-06 05:05:48.58	4.78	8.76	-27.0	-29.2	14.1	8.89e-04	0	42	102	1048576	13	4641
2026-01-06 05:05:50.59	4.51	8.86	-27.0	-28.6	14.1	8.28e-04	0	42	102	1048576	14	4363
2026-01-06 05:05:52.61	4.24	8.97	-26.9	-29.0	14.2	6.80e-06	0	42	102	1048576	13	4579
2026-01-06 05:05:54.63	3.97	9.07	-26.9	-29.0	14.2	1.10e-06	0	42	102	1048576	13	4587
2026-01-06 05:05:56.64	3.69	9.17	-26.8	-28.8	14.3	0.00e+00	0	42	102	1048576	13	4528
2026-01-06 05:05:58.64	3.42	9.28	-26.7	-28.6	14.5	0.00e+00	0	42	102	1048576	13	4459
2026-01-06 05:06:00.66	3.14	9.38	-26.9	-29.0	14.3	4.50e-06	0	42	102	1048576	13	4572
2026-01-06 05:06:02.67	2.86	9.48	-26.7	-28.5	14.5	1.10e-06	0	42	102	1048576	13	4444
2026-01-06 05:06:04.68	2.58	9.59	-26.8	-28.8	14.3	3.40e-06	0	42	102	1048576	13	4526
2026-01-06 05:06:06.70	2.29	9.69	-26.9	-29.0	14.2	1.10e-06	0	42	102	1048576	13	4577
2026-01-06 05:06:08.70	2.00	9.79	-26.7	-28.6	14.5	2.20e-06	0	42	102	1048576	13	4476
2026-01-06 05:06:10.72	1.71	9.89	-26.7	-28.6	14.5	0.00e+00	0	43	102	1048576	13	4473
2026-01-06 05:06:12.73	1.42	10.00	-26.6	-28.2	14.7	1.10e-06	0	43	102	1048576	13	4352
2026-01-06 05:06:14.74	1.13	10.10	-26.6	-28.3	14.7	2.20e-06	0	43	102	1048576	13	4374
2026-01-06 05:06:16.75	0.84	10.20	-26.5	-28.2	14.8	0.00e+00	0	43	102	1048576	13	4343
2026-01-06 05:06:18.76	0.54	10.30	-26.5	-28.1	14.8	0.00e+00	0	43	102	1048576	13	4314
2026-01-06 05:06:20.77	0.24	10.40	-26.6	-28.2	14.7	0.00e+00	0	43	102	1048576	13	4354
2026-01-06 05:06:22.78	359.94	10.50	-26.7	-28.4	14.6	0.00e+00	0	43	102	1048576	13	4418
2026-01-06 05:06:24.79	359.64	10.60	-26.4	-27.8	15.0	1.10e-06	0	43	102	1048576	13	4228
2026-01-06 05:06:26.80	359.33	10.70	-26.2	-27.8	15.3	0.00e+00	0	43	102	1048576	12	4356
2026-01-06 05:06:28.80	359.02	10.80	-26.1	-27.7	15.4	0.00e+00	0	43	102	1048576	12	4318
2026-01-06 05:06:30.81	358.71	10.90	-26.3	-28.1	15.1	0.00e+00	0	43	102	1048576	12	4435
2026-01-06 05:06:32.82	358.40	10.99	-26.0	-27.5	15.4	0.00e+00	0	43	102	1048576	12	4276
2026-01-06 05:06:34.84	358.09	11.09	-26.1	-27.6	15.4	0.00e+00	0	43	102	1048576	12	4289
2026-01-06 05:06:36.85	357.77	11.19	-26.3	-28.0	15.2	0.00e+00	0	43	102	1048576	12	4417
2026-01-06 05:06:38.87	357.45	11.29	-26.2	-27.9	15.2	0.00e+00	0	43	102	1048576	12	4388
2026-01-06 05:06:40.88	357.13	11.38	-26.1	-27.7	15.4	0.00e+00	0	43	102	1048576	12	4326
2026-01-06 05:06:42.90	356.81	11.48	-26.3	-28.1	15.1	0.00e+00	0	43	102	1048576	12	4443
2026-01-06 05:06:44.91	356.48	11.57	-26.0	-27.5	13.6	0.00e+00	0	43	102	1048576	12	4275
2026-01-06 05:06:46.92	356.16	11.67	-26.2	-27.8	15.4	0.00e+00	0	43	102	1048576	12	4338
2026-01-06 05:06:48.94	355.83	11.76	-26.0	-27.5	15.6	0.00e+00	0	43	102	1048576	12	4262
2026-01-06 05:06:50.95	355.49	11.86	-26.0	-27.4	15.5	0.00e+00	0	43	102	1048576	12	4248
2026-01-06 05:06:52.97	355.16	11.95	-26.0	-27.8	15.7	0.00e+00	0	43	102	1048576	11	4462
2026-01-06 05:06:54.98	354.82	12.04	-25.9	-27.2	15.7	0.00e+00	0	43	102	1048576	12	4170
2026-01-06 05:06:57.00	354.48	12.14	-26.2	-27.8	15.3	7.45e-04	0	43	102	1048576	12	4356
2026-01-06 05:06:59.02	354.14	12.23	-25.9	-27.2	15.7	8.26e-04	0	43	102	1048576	12	4181
2026-01-06 05:07:01.04	353.80	12.32	-26.0	-27.5	15.5	0.00e+00	0	43	102	1048576	12	4249
2026-01-06 05:07:03.05	353.45	12.41	-26.0	-27.3	15.6	7.87e-04	0	43	102	1048576	12	4223
2026-01-06 05:07:05.07	353.11	12.50	-26.1	-27.6	15.4	8.26e-04	0	43	102	1048576	12	4300
2026-01-06 05:07:07.08	352.76	12.59	-26.2	-27.8	15.4	0.00e+00	0	43	102	1048576	12	4344
2026-01-06 05:07:09.09	352.41	12.67	-26.3	-28.1	15.2	0.00e+00	0	43	102	1048576	12	4425
2026-01-06 05:07:11.10	352.06	12.76	-25.9	-27.2	15.7	8.20e-04	0	43	102	1048576	12	4190
2026-01-06 05:07:13.11	351.70	12.85	-25.8	-27.5	15.9	0.00e+00	0	43	102	1048576	11	4360
2026-01-06 05:07:15.13	351.34	12.93	-25.7	-27.3	16.0	8.64e-04	0	43	102	1048576	11	4307
2026-01-06 05:07:17.14	350.98	13.02	-25.9	-27.7	15.8	8.12e-04	0	43	102	1048576	11	4412
2026-01-06 05:07:19.15	350.62	13.10	-25.8	-27.4	16.0	0.00e+00	0	43	102	1048576	11	4341
2026-01-06 05:07:21.16	350.26	13.18	-25.9	-27.7	15.8	0.00e+00	0	43	102	1048576	11	4413
2026-01-06 05:07:23.17	349.89	13.27	-25.8	-27.0	15.8	0.00e+00	0	43	102	1048576	12	4127
2026-01-06 05:07:25.18	349.53	13.35	-25.9	-27.6	15.9	0.00e+00	0	43	102	1048576	11	4405
2026-01-06 05:07:27.20	349.16	13.43	-25.8	-27.5	15.9	0.00e+00	0	43	102	1048576	11	4362
2026-01-06 05:07:29.21	348.78	13.51	-25.7	-27.1	16.1	0.00e+00	0	43	102	1048576	11	4266
2026-01-06 05:07:31.22	348.41	13.58	-25.6	-27.0	16.2	0.00e+00	0	43	102	1048576	11	4229
2026-01-06 05:07:33.22	348.04	13.66	-25.5	-26.8	16.3	0.00e+00	0	43	102	1048576	11	4186
2026-01-06 05:07:35.24	347.66	13.74	-25.5	-26.9	16.3	0.00e+00	0	43	102	1048576	11	4201
2026-01-06 05:07:37.25	347.28	13.81	-25.5	-26.8	16.3	0.00e+00	0	43	102	1048576	11	4183
2026-01-06 05:07:39.26	346.90	13.89	-25.5	-26.8	16.4	0.00e+00	0	43	102	1048576	11	4168
2026-01-06 05:07:41.27	346.51	13.96	-25.4	-27.1	16.4	0.00e+00	0	43	102	1048576	10	4388
2026-01-06 05:07:43.29	346.13	14.03	-25.2	-26.7	16.7	0.00e+00	0	43	102	1048576	10	4259
2026-01-06 05:07:45.30	345.74	14.11	-25.2	-26.6	16.7	0.00e+00	0	43	102	1048576	10	4238
2026-01-06 05:07:47.31	345.35	14.18	-25.3	-27.0	16.5	0.00e+00	0	43	102	1048576	10	4338
2026-01-06 05:07:49.33	344.96	14.24	-25.5	-26.7	16.4	0.00e+00	0	43	102	1048576	11	4162
2026-01-06 05:07:51.34	344.56	14.31	-25.3	-27.0	16.5	0.00e+00	0	44	102	1048576	10	4339
2026-01-06 05:07:53.35	344.17	14.38	-25.1	-26.4	16.9	0.00e+00	0	43	102	1048576	10	4176
2026-01-06 05:07:55.36	343.77	14.44	-25.2	-26.6	16.7	0.00e+00	0	43	102	1048576	10	4249
2026-01-06 05:07:57.37	343.38	14.51	-25.4	-27.1	16.5	0.00e+00	0	43	102	1048576	10	4369
2026-01-06 05:07:59.38	342.98	14.57	-25.3	-26.8	16.6	0.00e+00	0	43	102	1048576	10	4280
2026-01-06 05:08:01.40	342.57	14.63	-25.2	-26.5	16.8	0.00e+00	0	43	102	1048576	10	4225
2026-01-06 05:08:03.41	342.17	14.69	-25.1	-26.4	16.9	0.00e+00	0	43	102	1048576	10	4180
2026-01-06 05:08:05.43	341.76	14.75	-25.1	-26.5	16.8	0.00e+00	0	43	102	1048576	10	4212
2026-01-06 05:08:07.44	341.36	14.81	-25.2	-26.6	16.8	0.00e+00	0	43	102	1048576	10	4244
2026-01-06 05:08:09.45	340.95	14.87	-25.2	-26.6	16.8	0.00e+00	0	43	102	1048576	10	4230
2026-01-06 05:08:11.46	340.54	14.92	-25.2	-26.7	16.7	2.06e-04	0	43	102	1048576	10	4273
2026-01-06 05:08:13.48	340.13	14.98	-25.3	-26.9	16.6	1.57e-04	0	43	102	1048576	10	4322
2026-01-06 05:08:15.49	339.71	15.03	-25.3	-26.9	16.6	0.00e+00	0	43	102	1048576	10	4308
2026-01-06 05:08:17.50	339.30	15.08	-25.1	-26.5	16.8	0.00e+00	0	44	102	1048576	10	4216
2026-01-06 05:08:19.51	338.88	15.13	-25.1	-26.5	16.8	7.26e-04	0	43	102	1048576	10	4208
2026-01-06 05:08:21.51	338.47	15.18	-24.9	-26.0	17.1	0.00e+00	0	43	102	1048576	10	4081
2026-01-06 05:08:23.53	338.05	15.23	-25.0	-26.3	16.9	2.56e-04	0	44	102	1048576	10	4165
2026-01-06 05:08:25.55	337.63	15.27	-25.2	-26.7	16.7	5.70e-06	0	43	102	1048576	10	4255
2026-01-06 05:08:27.56	337.20	15.32	-25.4	-27.1	16.5	0.00e+00	0	44	102	1048576	10	4367
2026-01-06 05:08:29.57	336.78	15.36	-25.1	-26.4	16.8	7.23e-04	0	44	102	1048576	10	4197
2026-01-06 05:08:31.59	336.36	15.40	-25.0	-26.2	17.0	0.00e+00	0	44	102	1048576	10	4126
2026-01-06 05:08:33.60	335.93	15.44	-25.1	-26.5	16.8	0.00e+00	0	43	102	1048576	10	4213
2026-01-06 05:08:35.61	335.51	15.48	-24.9	-26.5	17.1	7.45e-04	0	44	102	1048576	9	4316
2026-01-06 05:08:37.62	335.08	15.51	-25.4	-27.0	16.5	0.00e+00	0	43	102	1048576	10	4340
2026-01-06 05:08:39.63	334.65	15.55	-25.3	-26.4	16.6	0.00e+00	0	43	102	1048576	11	4074
2026-01-06 05:08:41.64	334.22	15.58	-25.6	-27.0	16.2	2.83e-04	0	43	102	1048576	11	4237
2026-01-06 05:08:43.64	333.80	15.61	-25.4	-26.6	16.5	0.00e+00	0	43	102	1048576	11	4116
2026-01-06 05:08:45.65	333.36	15.64	-25.2	-26.7	16.7	0.00e+00	0	44	102	1048576	10	4255
2026-01-06 05:08:47.67	332.93	15.67	-24.7	-25.5	17.3	0.00e+00	0	43	102	1048576	10	3962
2026-01-06 05:08:49.68	332.50	15.70	-24.7	-26.1	17.3	0.00e+00	0	44	102	1048576	9	4210
2026-01-06 05:08:51.70	332.06	15.72	-24.7	-26.0	17.3	0.00e+00	0	43	102	1048576	9	4198
2026-01-06 05:08:53.72	331.63	15.75	-24.5	-25.6	17.5	0.00e+00	0	44	102	1048576	9	4096
2026-01-06 05:08:55.73	331.19	15.77	-24.6	-25.9	17.3	0.00e+00	0	43	102	1048576	9	4180
2026-01-06 05:08:57.74	330.76	15.79	-24.8	-26.2	17.2	0.00e+00	0	44	102	1048576	9	4243
2026-01-06 05:08:59.76	330.32	15.81	-24.8	-26.3	17.2	0.00e+00	0	44	102	1048576	9	4276
2026-01-06 05:09:01.77	329.88	15.82	-24.7	-26.1	17.2	0.00e+00	0	43	102	1048576	9	4219
2026-01-06 05:09:03.78	329.45	15.84	-24.8	-26.3	17.2	0.00e+00	0	43	102	1048576	9	4261
2026-01-06 05:09:05.80	329.01	15.85	-24.7	-26.1	17.2	0.00e+00	0	44	102	1048576	9	4232
2026-01-06 05:09:07.81	328.57	15.86	-24.8	-26.2	17.2	0.00e+00	0	43	102	1048576	9	4246
2026-01-06 05:09:09.82	328.13	15.88	-24.5	-25.7	17.5	0.00e+00	0	44	102	1048576	9	4107
2026-01-06 05:09:11.83	327.69	15.88	-24.6	-25.9	17.3	0.00e+00	0	44	102	1048576	9	4182
2026-01-06 05:09:13.84	327.25	15.89	-24.7	-26.1	17.3	0.00e+00	0	44	102	1048576	9	4227
2026-01-06 05:09:15.84	326.82	15.90	-24.7	-26.1	17.2	0.00e+00	0	44	102	1048576	9	4222
2026-01-06 05:09:17.86	326.38	15.90	-24.6	-25.9	17.4	0.00e+00	0	44	102	1048576	9	4165
2026-01-06 05:09:19.87	325.94	15.90	-24.5	-25.7	17.4	2.76e-04	0	44	102	1048576	9	4122
2026-01-06 05:09:21.88	325.50	15.90	-24.6	-25.9	17.4	0.00e+00	0	44	102	1048576	9	4181
2026-01-06 05:09:23.89	325.06	15.90	-24.8	-26.2	17.2	0.00e+00	0	44	102	1048576	9	4251
2026-01-06 05:09:25.90	324.62	15.90	-24.9	-26.4	17.1	0.00e+00	0	44	102	1048576	9	4300
2026-01-06 05:09:27.92	324.18	15.89	-24.9	-26.4	17.1	0.00e+00	0	44	102	1048576	9	4308
2026-01-06 05:09:29.93	323.74	15.88	-24.8	-26.3	17.1	0.00e+00	0	44	102	1048576	9	4271
2026-01-06 05:09:31.95	323.30	15.88	-24.7	-26.1	17.2	7.36e-04	0	44	102	1048576	9	4228
2026-01-06 05:09:33.96	322.86	15.87	-24.8	-26.4	17.1	7.49e-04	0	44	102	1048576	9	4292
2026-01-06 05:09:35.98	322.42	15.85	-24.8	-26.4	17.1	0.00e+00	0	44	102	1048576	9	4293
2026-01-06 05:09:37.99	321.99	15.84	-24.7	-26.0	17.3	3.00e-04	0	44	102	1048576	9	4201
2026-01-06 05:09:40.00	321.55	15.82	-24.7	-26.1	17.2	2.97e-04	0	44	102	1048576	9	4233
2026-01-06 05:09:42.02	321.11	15.81	-24.7	-26.0	17.3	0.00e+00	0	44	102	1048576	9	4193
2026-01-06 05:09:44.02	320.68	15.79	-24.7	-26.0	17.3	8.00e-04	0	44	102	1048576	9	4197
2026-01-06 05:09:46.04	320.24	15.77	-24.7	-26.2	17.2	7.46e-04	0	43	102	1048576	9	4237
2026-01-06 05:09:48.06	319.80	15.75	-24.9	-26.5	17.0	0.00e+00	0	44	102	1048576	9	4319
2026-01-06 05:09:50.08	319.36	15.72	-24.7	-26.1	17.2	5.84e-04	0	44	102	1048576	9	4229
2026-01-06 05:09:52.09	318.93	15.70	-24.8	-26.3	17.1	6.38e-04	0	43	102	1048576	9	4273
2026-01-06 05:09:54.10	318.50	15.67	-24.8	-26.2	17.1	0.00e+00	0	44	102	1048576	9	4259
2026-01-06 05:09:56.11	318.07	15.64	-24.8	-26.3	17.1	0.00e+00	0	44	102	1048576	9	4259
2026-01-06 05:09:58.12	317.63	15.61	-24.8	-26.2	17.2	0.00e+00	0	43	102	1048576	9	4253
2026-01-06 05:10:00.13	317.20	15.58	-24.8	-26.3	17.1	0.00e+00	0	44	102	1048576	9	4269
2026-01-06 05:10:02.14	316.78	15.55	-24.7	-26.1	17.2	0.00e+00	0	43	102	1048576	9	4226
2026-01-06 05:10:04.15	316.35	15.51	-24.6	-25.8	17.3	0.00e+00	0	44	102	1048576	9	4148
2026-01-06 05:10:06.16	315.92	15.48	-24.7	-26.0	17.2	0.00e+00	0	44	102	1048576	9	4199
2026-01-06 05:10:08.18	315.49	15.44	-24.6	-25.9	17.3	0.00e+00	0	44	102	1048576	9	4174
2026-01-06 05:10:10.19	315.07	15.40	-24.6	-25.8	17.4	0.00e+00	0	44	102	1048576	9	4133
2026-01-06 05:10:12.20	314.64	15.36	-24.7	-26.0	17.3	0.00e+00	0	44	102	1048576	9	4193
2026-01-06 05:10:14.22	314.22	15.32	-25.0	-26.6	16.9	0.00e+00	0	44	102	1048576	9	4365
2026-01-06 05:10:16.22	313.80	15.27	-25.0	-26.2	16.9	0.00e+00	0	44	102	1048576	10	4144
2026-01-06 05:10:18.23	313.38	15.23	-24.7	-25.6	17.2	0.00e+00	0	43	102	1048576	10	3999
2026-01-06 05:10:20.24	312.96	15.18	-24.7	-26.0	17.2	0.00e+00	0	44	102	1048576	9	4196
2026-01-06 05:10:22.25	312.54	15.13	-24.7	-26.0	17.2	0.00e+00	0	44	102	1048576	9	4200
2026-01-06 05:10:24.25	312.13	15.08	-24.8	-26.3	17.0	0.00e+00	0	44	102	1048576	9	4286
2026-01-06 05:10:26.27	311.71	15.03	-24.9	-26.5	16.9	0.00e+00	0	44	102	1048576	9	4330
2026-01-06 05:10:28.28	311.30	14.98	-25.2	-26.8	16.5	0.00e+00	0	44	102	1048576	10	4291
2026-01-06 05:10:30.29	310.88	14.92	-25.3	-26.8	16.5	0.00e+00	0	44	102	1048576	10	4294
2026-01-06 05:10:32.31	310.47	14.87	-25.2	-26.7	16.6	0.00e+00	0	44	102	1048576	10	4264
2026-01-06 05:10:34.31	310.06	14.81	-24.9	-26.1	15.9	0.00e+00	0	44	102	1048576	11	4123
2026-01-06 05:10:36.33	309.65	14.75	-25.1	-26.4	16.2	0.00e+00	0	44	102	1048576	10	4200
2026-01-06 05:10:38.34	309.25	14.69	-25.2	-26.6	16.6	0.00e+00	0	43	102	1048576	10	4254
2026-01-06 05:10:40.36	308.84	14.63	-25.1	-26.5	16.6	0.00e+00	0	43	102	1048576	10	4228
2026-01-06 05:10:42.38	308.44	14.57	-25.3	-26.8	16.5	7.55e-04	0	44	102	1048576	10	4293
2026-01-06 05:10:44.39	308.04	14.51	-25.4	-27.1	16.3	0.00e+00	0	44	102	1048576	10	4379
2026-01-06 05:10:46.39	307.64	14.44	-25.7	-27.3	16.0	6.89e-04	0	44	102	1048576	11	4321
2026-01-06 05:10:48.39	307.24	14.38	-25.4	-27.0	16.3	1.10e-06	0	44	102	1048576	10	4362
2026-01-06 05:10:50.41	306.85	14.31	-25.4	-27.1	16.3	0.00e+00	0	43	102	1048576	10	4367
2026-01-06 05:10:52.42	306.45	14.24	-25.7	-27.2	16.0	0.00e+00	0	44	102	1048576	11	4301
2026-01-06 05:10:54.44	306.06	14.18	-25.5	-26.8	16.2	7.88e-04	0	43	102	1048576	11	4176
2026-01-06 05:10:56.45	305.67	14.11	-25.2	-26.6	16.6	0.00e+00	0	44	102	1048576	10	4236
2026-01-06 05:10:58.46	305.28	14.03	-25.2	-26.7	16.5	8.40e-04	0	44	102	1048576	10	4275
2026-01-06 05:11:00.47	304.89	13.96	-25.2	-26.8	16.5	1.07e-03	0	44	102	1048576	10	4290
2026-01-06 05:11:02.48	304.51	13.89	-25.2	-26.7	16.5	0.00e+00	0	44	102	1048576	10	4275
2026-01-06 05:11:04.49	304.13	13.81	-25.3	-26.8	16.5	0.00e+00	0	44	102	1048576	10	4292
2026-01-06 05:11:06.51	303.75	13.74	-25.3	-26.9	16.4	0.00e+00	0	43	102	1048576	10	4338
2026-01-06 05:11:08.52	303.37	13.66	-25.3	-26.9	16.4	0.00e+00	0	44	102	1048576	10	4333
2026-01-06 05:11:10.53	302.99	13.58	-25.4	-27.1	16.3	1.02e-03	0	44	102	1048576	10	4373
2026-01-06 05:11:12.55	302.61	13.51	-25.5	-27.2	16.2	1.11e-03	0	43	102	1048576	10	4421
2026-01-06 05:11:14.56	302.24	13.43	-25.3	-26.3	16.4	0.00e+00	0	44	102	1048576	11	4066
2026-01-06 05:11:16.58	301.87	13.35	-25.3	-26.8	16.4	0.00e+00	0	44	102	1048576	10	4293
2026-01-06 05:11:18.59	301.50	13.26	-25.2	-26.7	16.5	0.00e+00	0	44	102	1048576	10	4270
2026-01-06 05:11:20.60	301.13	13.18	-25.3	-26.9	16.4	0.00e+00	0	44	102	1048576	10	4322
2026-01-06 05:11:22.62	300.77	13.10	-25.3	-27.0	16.3	0.00e+00	0	44	102	1048576	10	4344
2026-01-06 05:11:24.63	300.41	13.01	-25.3	-27.0	16.3	0.00e+00	0	44	102	1048576	10	4351
2026-01-06 05:11:26.64	300.05	12.93	-25.4	-27.2	16.2	0.00e+00	0	44	102	1048576	10	4398
2026-01-06 05:11:28.65	299.69	12.84	-25.4	-26.6	16.2	0.00e+00	0	44	102	1048576	11	4138
2026-01-06 05:11:30.67	299.33	12.76	-25.4	-26.5	16.3	0.00e+00	0	44	102	1048576	11	4125
2026-01-06 05:11:32.68	298.98	12.67	-25.3	-27.0	16.3	1.10e-06	0	44	102	1048576	10	4349
2026-01-06 05:11:34.69	298.62	12.58	-25.4	-27.2	16.2	0.00e+00	0	44	102	1048576	10	4410
2026-01-06 05:11:36.71	298.27	12.49	-25.4	-26.7	16.2	0.00e+00	0	44	102	1048576	11	4167
2026-01-06 05:11:38.72	297.92	12.40	-25.5	-26.7	16.1	1.10e-06	0	44	102	1048576	11	4172
2026-01-06 05:11:40.74	297.58	12.31	-25.6	-27.1	15.9	0.00e+00	0	44	102	1048576	11	4264
2026-01-06 05:11:42.75	297.23	12.22	-25.6	-27.2	15.9	0.00e+00	0	44	102	1048576	11	4292
2026-01-06 05:11:44.77	296.89	12.13	-25.8	-27.6	15.6	1.10e-06	0	44	102	1048576	11	4412
2026-01-06 05:11:46.78	296.55	12.04	-25.8	-27.5	15.7	0.00e+00	0	44	102	1048576	11	4386
2026-01-06 05:11:48.79	296.22	11.95	-26.1	-27.7	15.2	0.00e+00	0	44	102	1048576	12	4331
2026-01-06 05:11:50.80	295.88	11.85	-26.7	-28.6	14.4	2.20e-06	0	43	102	1048576	13	4468
2026-01-06 05:11:52.81	295.55	11.76	-26.6	-28.3	14.6	0.00e+00	0	44	102	1048576	13	4374
2026-01-06 05:11:54.83	295.22	11.66	-26.6	-28.4	14.5	1.31e-03	0	44	102	1048576	13	4399
2026-01-06 05:11:56.85	294.89	11.57	-26.8	-28.9	14.2	3.40e-06	0	44	102	1048576	13	4559
2026-01-06 05:11:58.87	294.56	11.47	-26.4	-27.9	14.8	0.00e+00	0	44	102	1048576	13	4265
2026-01-06 05:12:00.87	294.24	11.38	-26.5	-28.5	14.7	0.00e+00	0	43	102	1048576	12	4557
2026-01-06 05:12:02.89	293.91	11.28	-26.1	-27.8	15.1	0.00e+00	0	44	102	1048576	12	4351
2026-01-06 05:12:04.90	293.59	11.18	-26.1	-27.6	15.2	0.00e+00	0	43	102	1048576	12	4302
2026-01-06 05:12:06.90	293.28	11.09	-25.9	-27.8	15.4	1.32e-03	0	44	102	1048576	11	4463
2026-01-06 05:12:08.92	292.96	10.99	-26.1	-27.6	15.1	1.41e-03	0	44	102	1048576	12	4317
2026-01-06 05:12:10.93	292.65	10.89	-26.1	-27.7	15.1	0.00e+00	0	44	102	1048576	12	4329
2026-01-06 05:12:12.95	292.33	10.79	-25.9	-27.4	15.3	1.15e-03	0	43	102	1048576	12	4243
2026-01-06 05:12:14.97	292.02	10.69	-25.8	-27.6	15.5	8.48e-04	0	44	102	1048576	11	4414
2026-01-06 05:12:16.98	291.72	10.59	-25.8	-27.6	15.5	0.00e+00	0	44	102	1048576	11	4410
2026-01-06 05:12:18.99	291.41	10.49	-26.0	-27.9	15.3	8.30e-04	0	44	102	1048576	11	4502
2026-01-06 05:12:21.00	291.11	10.39	-25.9	-27.4	15.2	1.12e-03	0	44	102	1048576	12	4247
2026-01-06 05:12:23.01	290.81	10.29	-25.8	-27.1	15.4	0.00e+00	0	43	102	1048576	12	4172
2026-01-06 05:12:25.03	290.51	10.19	-25.9	-27.9	15.3	1.27e-03	0	44	102	1048576	11	4491
2026-01-06 05:12:27.04	290.21	10.09	-26.0	-27.5	15.1	1.34e-03	0	44	102	1048576	12	4272
2026-01-06 05:12:29.06	289.92	9.98	-26.2	-27.9	14.9	1.10e-06	0	44	102	1048576	12	4402
2026-01-06 05:12:31.07	289.63	9.88	-26.4	-28.3	14.6	1.10e-06	0	43	102	1048576	12	4520
2026-01-06 05:12:33.07	289.34	9.78	-26.4	-28.3	14.6	0.00e+00	0	44	102	1048576	12	4514
2026-01-06 05:12:35.08	289.05	9.68	-26.4	-28.5	14.5	0.00e+00	0	44	102	1048576	12	4564
2026-01-06 05:12:37.09	288.76	9.58	-26.4	-28.4	14.6	1.10e-06	0	44	102	1048576	12	4544
2026-01-06 05:12:39.10	288.48	9.47	-26.4	-28.5	14.5	1.20e-03	0	44	102	1048576	12	4563
2026-01-06 05:12:41.11	288.20	9.37	-26.5	-28.6	14.4	2.20e-06	0	44	102	1048576	12	4607
2026-01-06 05:12:43.12	287.92	9.27	-26.3	-28.2	14.6	1.10e-06	0	44	102	1048576	12	4476
2026-01-06 05:12:45.13	287.64	9.16	-26.6	-28.4	14.1	3.40e-06	0	44	102	1048576	13	4448
2026-01-06 05:12:47.13	287.36	9.06	-26.2	-27.6	14.6	0.00e+00	0	44	102	1048576	13	4205
2026-01-06 05:12:49.14	287.09	8.95	-26.2	-28.1	14.6	1.10e-06	0	44	102	1048576	12	4463
2026-01-06 05:12:51.16	286.82	8.85	-26.4	-28.4	14.4	2.20e-06	0	44	102	1048576	12	4547
2026-01-06 05:12:53.16	286.55	8.74	-26.3	-28.2	14.5	1.10e-06	0	44	102	1048576	12	4499
2026-01-06 05:12:55.17	286.28	8.64	-26.3	-28.1	14.5	1.10e-06	0	44	102	1048576	12	4471
2026-01-06 05:12:57.19	286.01	8.53	-26.4	-28.5	14.3	0.00e+00	0	44	102	1048576	12	4581
2026-01-06 05:12:59.21	285.75	8.43	-26.6	-28.4	14.1	3.40e-06	0	44	102	1048576	13	4445
2026-01-06 05:13:01.22	285.49	8.32	-26.7	-28.6	13.9	9.10e-06	0	44	102	1048576	13	4504
2026-01-06 05:13:03.23	285.23	8.22	-27.2	-29.5	13.1	3.89e-05	0	44	102	1048576	14	4652
2026-01-06 05:13:05.24	284.97	8.11	-27.2	-29.3	13.2	3.31e-05	0	44	102	1048576	14	4599
2026-01-06 05:13:07.25	284.71	8.01	-27.1	-29.1	13.2	3.66e-05	0	44	102	1048576	14	4549
2026-01-06 05:13:09.27	284.46	7.90	-27.2	-29.5	13.0	4.57e-05	0	44	102	1048576	14	4660
2026-01-06 05:13:11.28	284.20	7.80	-27.1	-28.6	13.2	5.49e-05	0	44	102	1048576	15	4285
2026-01-06 05:13:13.30	283.95	7.69	-26.6	-28.4	13.9	3.40e-06	0	44	102	1048576	13	4450
2026-01-06 05:13:15.31	283.70	7.58	-26.5	-28.2	13.5	3.40e-06	0	44	102	1048576	13	4383
2026-01-06 05:13:17.33	283.45	7.48	-26.5	-28.3	14.0	5.70e-06	0	44	102	1048576	13	4421
2026-01-06 05:13:19.34	283.21	7.37	-26.6	-28.6	13.8	6.80e-06	0	44	102	1048576	13	4492
2026-01-06 05:13:21.35	282.97	7.26	-26.7	-28.7	13.7	2.24e-03	0	44	102	1048576	13	4548
2026-01-06 05:13:23.37	282.72	7.16	-26.6	-28.6	13.8	1.90e-03	0	44	102	1048576	13	4506
2026-01-06 05:13:25.38	282.48	7.05	-32.0	-40.8	4.4	1.37e-05	0	44	102	1048576	23	9945
2026-01-06 05:13:27.39	282.24	6.95	-33.3	-44.6	3.8	8.45e-01	0	44	104	1048576	26	13210

#Closed at: 2026-01-06 05:13:27
#Recorded file [1 MB]: D:/data/31010_260106_080516.dat