passes_logs/2026/01/06/R2M6_AANII_01/R2M6_AANII_01__20260106_110946_AQUA_rec.log

#Pass ID: 20260106_110946_AQUA
#Satellite: AQUA
#Configuration: AQUA
#almurnet v.1.7.20240730
#Start time: 2026-01-06 11:09:46

#Version: 2.2.20231116
#Station: R2M6_AANII_01
#Location: 30.233357 lon 59.946436 lat
#TLE: 1 27424U 02022A   26004.96787593  .00001598  00000+0  32997-3 0  9996
#TLE: 2 27424  98.4069 331.2279 0002002  90.2377   0.6092 14.61798176259425

#Time	Az	El	Level	Level2	SNR	BER	BlckErr	Temp	State	Recorded	gain1	gain2
2026-01-06 11:09:46.64	131.43	7.01	-34.3	-53.1	3.8	7.49e-01	0	43	0	0	30	31435
2026-01-06 11:09:49.66	131.26	7.25	-33.3	-52.3	3.7	7.46e-01	0	43	104	0	28	32209
2026-01-06 11:09:52.68	131.09	7.49	-32.8	-46.2	5.3	7.02e-01	0	43	0	0	27	16803
2026-01-06 11:09:55.71	130.92	7.73	-32.9	-50.9	3.8	7.46e-01	0	44	104	0	27	28434
2026-01-06 11:09:58.72	130.74	7.98	-32.8	-48.8	3.9	7.41e-01	0	44	104	0	27	22553
2026-01-06 11:10:01.74	130.56	8.22	-32.4	-41.4	9.0	6.32e-01	0	43	102	524288	27	10152
2026-01-06 11:10:04.76	130.37	8.47	-31.8	-38.7	12.3	6.11e-01	0	43	102	524288	25	7923
2026-01-06 11:10:07.78	130.18	8.72	-31.5	-37.0	13.7	6.08e-01	0	44	102	524288	25	6818
2026-01-06 11:10:10.80	129.99	8.98	-31.5	-37.1	13.7	6.09e-01	0	44	102	524288	25	6846
2026-01-06 11:10:13.81	129.79	9.23	-31.6	-37.3	13.6	6.10e-01	0	43	102	524288	25	6943
2026-01-06 11:10:16.83	129.59	9.49	-31.4	-36.9	14.3	6.09e-01	0	43	102	524288	24	6792
2026-01-06 11:10:19.84	129.39	9.76	-31.1	-35.8	15.2	6.04e-01	0	43	102	524288	24	6178
2026-01-06 11:10:22.87	129.18	10.02	-30.2	-33.8	17.3	6.08e-01	0	43	102	524288	22	5428
2026-01-06 11:10:25.88	128.96	10.29	-29.9	-33.4	18.0	6.05e-01	0	43	102	524288	21	5344
2026-01-06 11:10:28.89	128.75	10.56	-30.1	-33.7	17.8	6.07e-01	0	44	102	524288	21	5477
2026-01-06 11:10:31.90	128.52	10.83	-29.8	-33.0	18.3	6.05e-01	0	43	102	524288	21	5168
2026-01-06 11:10:34.92	128.30	11.11	-29.8	-32.8	18.4	6.08e-01	0	43	102	524288	21	5105
2026-01-06 11:10:37.95	128.06	11.39	-29.6	-32.2	18.8	6.06e-01	0	43	102	524288	21	4863
2026-01-06 11:10:40.98	127.83	11.67	-29.6	-32.2	18.9	6.08e-01	0	43	102	524288	21	4862
2026-01-06 11:10:44.00	127.58	11.96	-29.6	-32.2	18.9	6.06e-01	0	43	102	524288	21	4847
2026-01-06 11:10:47.01	127.34	12.25	-29.6	-32.1	19.0	6.08e-01	0	43	102	524288	21	4797
2026-01-06 11:10:50.03	127.08	12.54	-29.6	-32.1	19.0	6.07e-01	0	43	102	524288	21	4801
2026-01-06 11:10:53.06	126.82	12.84	-29.7	-32.4	18.8	6.06e-01	0	43	102	524288	21	4925
2026-01-06 11:10:56.08	126.56	13.14	-29.7	-32.4	18.9	6.05e-01	0	43	102	524288	21	4917
2026-01-06 11:10:59.10	126.29	13.44	-29.6	-32.1	19.1	6.08e-01	0	43	102	524288	21	4813
2026-01-06 11:11:02.12	126.01	13.75	-29.6	-32.1	19.2	6.08e-01	0	43	102	524288	21	4793
2026-01-06 11:11:05.14	125.73	14.06	-29.7	-32.3	19.0	6.07e-01	0	43	102	524288	21	4862
2026-01-06 11:11:08.16	125.44	14.37	-29.5	-31.9	19.4	6.06e-01	0	44	102	524288	21	4711
2026-01-06 11:11:11.17	125.14	14.69	-29.5	-31.8	19.4	6.04e-01	0	43	102	524288	21	4696
2026-01-06 11:11:14.19	124.84	15.01	-29.5	-31.8	19.4	6.07e-01	0	43	102	524288	21	4701
2026-01-06 11:11:17.21	124.53	15.34	-29.5	-31.7	19.5	6.09e-01	0	43	102	524288	21	4660
2026-01-06 11:11:20.23	124.21	15.67	-29.5	-31.8	19.5	6.07e-01	0	43	102	524288	21	4679
2026-01-06 11:11:23.26	123.88	16.00	-29.6	-32.0	19.3	6.08e-01	0	43	102	524288	21	4764
2026-01-06 11:11:26.27	123.55	16.34	-29.7	-32.3	19.2	6.06e-01	0	44	102	524288	21	4856
2026-01-06 11:11:29.29	123.20	16.68	-29.5	-31.7	19.5	6.06e-01	0	43	102	524288	21	4676
2026-01-06 11:11:32.31	122.85	17.03	-29.4	-31.6	19.6	6.05e-01	0	43	102	524288	21	4616
2026-01-06 11:11:35.33	122.49	17.38	-29.5	-31.7	19.6	6.05e-01	0	43	102	524288	21	4651
2026-01-06 11:11:38.36	122.12	17.73	-29.4	-31.5	19.7	6.07e-01	0	43	102	524288	21	4593
2026-01-06 11:11:41.38	121.74	18.10	-29.4	-31.5	19.8	6.06e-01	0	44	102	524288	21	4593
2026-01-06 11:11:44.39	121.35	18.46	-29.3	-31.9	19.8	6.07e-01	0	43	102	524288	20	4817
2026-01-06 11:11:47.41	120.96	18.83	-29.4	-32.1	19.8	6.06e-01	0	43	102	524288	20	4876
2026-01-06 11:11:50.43	120.55	19.20	-29.6	-32.5	19.5	6.07e-01	0	43	102	524288	20	5035
2026-01-06 11:11:53.45	120.12	19.58	-29.8	-33.0	19.2	6.06e-01	0	43	102	524288	20	5217
2026-01-06 11:11:56.47	119.69	19.96	-29.9	-33.1	19.1	6.07e-01	0	43	102	524288	20	5257
2026-01-06 11:11:59.48	119.25	20.35	-29.9	-33.1	19.2	6.06e-01	0	43	102	524288	20	5252
2026-01-06 11:12:02.50	118.79	20.74	-29.7	-32.8	19.4	6.07e-01	0	43	102	524288	20	5128
2026-01-06 11:12:05.52	118.32	21.14	-29.9	-33.1	19.2	6.09e-01	0	43	102	524288	20	5245
2026-01-06 11:12:08.54	117.84	21.55	-29.9	-33.2	19.2	6.07e-01	0	44	102	524288	20	5274
2026-01-06 11:12:11.55	117.35	21.95	-30.0	-33.4	19.0	6.07e-01	0	43	102	524288	20	5333
2026-01-06 11:12:14.57	116.84	22.36	-30.1	-33.2	18.9	6.04e-01	0	43	102	524288	21	5136
2026-01-06 11:12:17.59	116.31	22.78	-30.2	-33.3	18.8	6.05e-01	0	43	102	524288	21	5180
2026-01-06 11:12:20.61	115.77	23.20	-30.3	-33.8	18.5	6.06e-01	0	43	102	524288	21	5385
2026-01-06 11:12:23.62	115.22	23.63	-29.9	-32.5	19.4	6.07e-01	0	43	102	524288	21	4878
2026-01-06 11:12:26.63	114.65	24.06	-29.9	-32.6	19.4	6.04e-01	0	43	102	524288	21	4910
2026-01-06 11:12:29.65	114.06	24.50	-30.0	-32.8	19.3	6.08e-01	0	43	102	524288	21	4974
2026-01-06 11:12:32.66	113.46	24.94	-29.9	-32.6	19.4	6.04e-01	0	43	102	524288	21	4899
2026-01-06 11:12:35.68	112.83	25.39	-29.9	-32.6	19.4	6.06e-01	0	43	102	524288	21	4903
2026-01-06 11:12:38.71	112.19	25.84	-29.8	-32.2	19.7	6.05e-01	0	43	102	524288	21	4774
2026-01-06 11:12:41.73	111.52	26.29	-29.8	-32.2	19.7	6.07e-01	0	43	102	524288	21	4750
2026-01-06 11:12:44.75	110.84	26.75	-29.7	-31.9	19.9	6.06e-01	0	43	102	524288	21	4653
2026-01-06 11:12:47.76	110.14	27.21	-29.9	-32.6	19.5	6.07e-01	0	43	102	524288	21	4893
2026-01-06 11:12:50.78	109.41	27.68	-29.4	-31.3	20.3	6.08e-01	0	43	102	524288	21	4481
2026-01-06 11:12:53.80	108.66	28.15	-29.4	-31.7	20.4	6.06e-01	0	43	102	524288	20	4700
2026-01-06 11:12:56.82	107.89	28.62	-29.5	-32.0	20.2	6.07e-01	0	43	102	524288	20	4796
2026-01-06 11:12:59.84	107.10	29.10	-29.3	-31.4	20.5	6.04e-01	0	43	102	524288	20	4610
2026-01-06 11:13:02.87	106.27	29.58	-29.3	-31.5	20.5	6.06e-01	0	43	102	524288	20	4642
2026-01-06 11:13:05.88	105.43	30.06	-29.3	-31.5	20.6	6.06e-01	0	43	102	524288	20	4615
2026-01-06 11:13:08.90	104.55	30.54	-29.2	-31.2	20.7	6.07e-01	0	43	102	524288	20	4533
2026-01-06 11:13:11.92	103.65	31.02	-29.2	-31.1	20.8	6.06e-01	0	43	102	524288	20	4503
2026-01-06 11:13:14.93	102.73	31.51	-29.3	-31.3	20.7	6.05e-01	0	43	102	524288	20	4572
2026-01-06 11:13:17.95	101.77	31.99	-29.3	-31.5	20.6	6.07e-01	0	43	102	524288	20	4619
2026-01-06 11:13:20.97	100.78	32.47	-29.5	-31.8	20.4	6.07e-01	0	43	102	524288	20	4719
2026-01-06 11:13:23.98	99.76	32.95	-29.5	-31.9	20.4	6.06e-01	0	43	102	524288	20	4742
2026-01-06 11:13:27.01	98.71	33.43	-29.8	-32.6	20.0	6.08e-01	0	43	102	524288	20	4987
2026-01-06 11:13:30.03	97.63	33.91	-29.7	-32.5	20.1	6.06e-01	0	44	102	524288	20	4935
2026-01-06 11:13:33.05	96.51	34.38	-29.9	-32.9	19.8	6.07e-01	0	43	102	524288	20	5098
2026-01-06 11:13:36.06	95.36	34.85	-29.8	-32.6	20.0	6.07e-01	0	43	102	524288	20	4997
2026-01-06 11:13:39.08	94.18	35.31	-30.0	-33.2	19.7	6.08e-01	0	43	102	524288	20	5205
2026-01-06 11:13:42.10	92.96	35.76	-30.0	-33.2	19.7	6.06e-01	0	43	102	524288	20	5185
2026-01-06 11:13:45.12	91.71	36.21	-30.1	-33.0	19.5	6.07e-01	0	44	102	524288	21	4990
2026-01-06 11:13:48.14	90.42	36.64	-30.3	-33.3	19.3	6.07e-01	0	43	102	524288	21	5122
2026-01-06 11:13:51.16	89.09	37.07	-30.5	-33.8	19.0	6.06e-01	0	43	102	524288	21	5293
2026-01-06 11:13:54.17	87.74	37.48	-30.4	-33.7	19.1	6.10e-01	0	43	102	524288	21	5246
2026-01-06 11:13:57.19	86.35	37.88	-30.5	-33.3	19.1	6.08e-01	0	43	102	524288	22	4993
2026-01-06 11:14:00.22	84.91	38.27	-30.4	-33.2	19.1	6.06e-01	0	43	102	524288	22	4972
2026-01-06 11:14:03.23	83.45	38.64	-30.5	-33.4	19.0	6.06e-01	0	43	102	524288	22	5045
2026-01-06 11:14:06.25	81.95	38.99	-30.5	-33.3	19.1	6.06e-01	0	44	102	524288	22	4997
2026-01-06 11:14:09.27	80.42	39.33	-30.4	-33.1	19.2	6.06e-01	0	43	102	524288	22	4936
2026-01-06 11:14:12.29	78.86	39.64	-30.4	-33.3	19.1	6.07e-01	0	44	102	524288	22	4976
2026-01-06 11:14:15.30	77.28	39.93	-30.2	-32.7	19.4	6.06e-01	0	43	102	524288	22	4783
2026-01-06 11:14:18.31	75.66	40.20	-30.3	-33.0	19.3	6.07e-01	0	43	102	524288	22	4887
2026-01-06 11:14:21.34	74.01	40.45	-30.4	-33.1	19.3	6.07e-01	0	43	102	524288	22	4909
2026-01-06 11:14:24.36	72.34	40.67	-30.2	-32.6	19.5	6.08e-01	0	43	102	524288	22	4739
2026-01-06 11:14:27.38	70.65	40.86	-30.3	-32.8	19.4	6.06e-01	0	43	102	524288	22	4820
2026-01-06 11:14:30.39	68.94	41.03	-30.2	-32.6	19.5	6.06e-01	0	43	102	524288	22	4735
2026-01-06 11:14:33.41	67.22	41.17	-30.3	-32.8	19.4	6.05e-01	0	44	102	524288	22	4801
2026-01-06 11:14:36.43	65.47	41.28	-30.2	-32.6	19.6	6.06e-01	0	43	102	524288	22	4735
2026-01-06 11:14:39.45	63.72	41.36	-30.3	-32.9	19.3	6.07e-01	0	43	102	524288	22	4858
2026-01-06 11:14:42.48	61.96	41.41	-30.0	-32.1	19.8	6.08e-01	0	43	102	524288	22	4593
2026-01-06 11:14:45.49	60.20	41.43	-29.9	-31.9	20.0	6.06e-01	0	44	102	524288	22	4514
2026-01-06 11:14:48.50	58.44	41.42	-30.1	-32.8	19.7	6.06e-01	0	43	102	524288	21	4914
2026-01-06 11:14:51.53	56.68	41.38	-30.7	-34.1	18.6	6.06e-01	0	44	102	524288	22	5273
2026-01-06 11:14:54.55	54.92	41.31	-30.6	-33.8	18.8	6.06e-01	0	43	102	524288	22	5162
2026-01-06 11:14:57.57	53.18	41.21	-30.5	-33.4	19.0	6.06e-01	0	43	102	524288	22	5015
2026-01-06 11:15:00.60	51.44	41.08	-30.6	-33.6	18.8	6.08e-01	0	43	102	524288	22	5109
2026-01-06 11:15:03.62	49.72	40.93	-30.0	-32.1	19.8	6.05e-01	0	43	102	524288	22	4602
2026-01-06 11:15:06.64	48.03	40.74	-29.8	-32.1	20.1	6.04e-01	0	44	102	524288	21	4679
2026-01-06 11:15:09.66	46.35	40.53	-29.9	-32.4	19.9	6.06e-01	0	43	102	524288	21	4792
2026-01-06 11:15:12.67	44.70	40.30	-30.0	-32.7	19.7	6.07e-01	0	43	102	524288	21	4881
2026-01-06 11:15:15.70	43.07	40.04	-30.2	-33.2	19.4	6.07e-01	0	43	102	524288	21	5079
2026-01-06 11:15:18.72	41.47	39.75	-30.4	-33.7	19.0	6.04e-01	0	43	102	524288	21	5273
2026-01-06 11:15:21.73	39.90	39.45	-30.3	-33.3	19.3	6.09e-01	0	44	102	524288	21	5120
2026-01-06 11:15:24.74	38.37	39.13	-30.5	-34.0	18.9	6.07e-01	0	43	102	524288	21	5367
2026-01-06 11:15:27.75	36.87	38.78	-30.3	-33.5	19.2	6.09e-01	0	43	102	524288	21	5169
2026-01-06 11:15:30.77	35.40	38.42	-30.3	-33.3	19.3	6.06e-01	0	43	102	524288	21	5097
2026-01-06 11:15:33.79	33.96	38.04	-30.7	-33.9	18.6	6.07e-01	0	43	102	524288	22	5224
2026-01-06 11:15:36.80	32.56	37.65	-31.1	-35.1	17.9	6.09e-01	0	43	102	524288	22	5687
2026-01-06 11:15:39.81	31.19	37.24	-30.9	-33.9	18.3	6.00e-01	0	43	102	524288	23	5116
2026-01-06 11:15:42.83	29.86	36.82	-30.9	-34.1	18.2	6.02e-01	0	43	102	524288	23	5184
2026-01-06 11:15:45.86	28.55	36.39	-30.6	-33.1	18.8	6.02e-01	0	44	102	524288	23	4836
2026-01-06 11:15:48.87	27.29	35.95	-30.3	-32.8	19.3	6.03e-01	0	43	102	524288	22	4828
2026-01-06 11:15:51.89	26.06	35.50	-30.0	-32.1	19.7	6.02e-01	0	43	102	524288	22	4590
2026-01-06 11:15:54.92	24.87	35.04	-30.1	-32.4	19.4	6.04e-01	0	43	102	524288	22	4709
2026-01-06 11:15:57.95	23.70	34.58	-30.2	-32.6	19.4	6.02e-01	0	43	102	524288	22	4767
2026-01-06 11:16:00.95	22.59	34.11	-30.6	-33.8	18.7	6.03e-01	0	43	102	524288	22	5179
2026-01-06 11:16:03.97	21.49	33.64	-29.6	-31.8	20.1	6.03e-01	0	43	102	524288	21	4603
2026-01-06 11:16:06.98	20.44	33.17	-30.1	-33.0	19.4	6.02e-01	0	43	102	524288	21	5028
2026-01-06 11:16:10.01	19.41	32.69	-29.5	-31.4	20.3	6.02e-01	0	43	102	524288	21	4497
2026-01-06 11:16:13.03	18.41	32.21	-29.5	-31.5	20.2	6.01e-01	0	43	102	524288	21	4534
2026-01-06 11:16:16.05	17.44	31.72	-29.7	-32.1	19.9	6.03e-01	0	43	102	524288	21	4702
2026-01-06 11:16:19.06	16.51	31.24	-30.0	-32.7	19.5	6.02e-01	0	43	102	524288	21	4925
2026-01-06 11:16:22.08	15.60	30.76	-30.2	-33.3	19.1	6.03e-01	0	43	102	524288	21	5149
2026-01-06 11:16:25.11	14.72	30.28	-29.8	-32.2	19.8	6.00e-01	0	43	102	524288	21	4738
2026-01-06 11:16:28.12	13.86	29.80	-30.0	-32.6	19.4	6.03e-01	0	43	102	524288	21	4896
2026-01-06 11:16:31.13	13.04	29.33	-29.5	-31.9	20.3	6.01e-01	0	43	102	524288	20	4767
2026-01-06 11:16:34.15	12.24	28.85	-29.8	-32.8	19.7	6.01e-01	0	43	102	524288	20	5078
2026-01-06 11:16:37.17	11.46	28.38	-30.4	-33.8	18.7	6.01e-01	0	43	102	524288	21	5350
2026-01-06 11:16:40.20	10.70	27.91	-30.5	-34.1	18.6	5.98e-01	0	43	102	524288	21	5433
2026-01-06 11:16:43.23	9.97	27.44	-29.7	-32.1	19.8	6.03e-01	0	43	102	524288	21	4704
2026-01-06 11:16:46.25	9.26	26.98	-30.5	-34.0	18.5	6.00e-01	0	43	102	524288	21	5434
2026-01-06 11:16:49.27	8.57	26.52	-29.5	-31.6	20.0	6.01e-01	0	43	102	524288	21	4555
2026-01-06 11:16:52.29	7.90	26.07	-29.7	-32.0	19.8	6.03e-01	0	43	102	524288	21	4681
2026-01-06 11:16:55.32	7.25	25.62	-29.8	-32.2	19.7	6.03e-01	0	43	102	524288	21	4770
2026-01-06 11:16:58.34	6.62	25.17	-29.7	-32.1	19.7	6.02e-01	0	43	102	524288	21	4742
2026-01-06 11:17:01.36	6.01	24.73	-29.6	-31.8	19.8	6.03e-01	0	43	102	524288	21	4639
2026-01-06 11:17:04.38	5.42	24.29	-29.6	-31.7	19.9	6.03e-01	0	43	102	524288	21	4595
2026-01-06 11:17:07.39	4.84	23.86	-29.8	-32.4	19.5	6.01e-01	0	43	102	524288	21	4832
2026-01-06 11:17:10.41	4.29	23.43	-29.7	-32.0	19.7	6.02e-01	0	43	102	524288	21	4716
2026-01-06 11:17:13.43	3.74	23.01	-30.0	-32.8	19.2	6.03e-01	0	43	102	524288	21	4970
2026-01-06 11:17:16.44	3.22	22.59	-30.1	-33.1	19.0	6.01e-01	0	43	102	524288	21	5107
2026-01-06 11:17:19.45	2.70	22.18	-30.2	-33.3	18.8	6.02e-01	0	43	102	524288	21	5175
2026-01-06 11:17:22.44	2.21	21.78	-29.8	-32.3	19.4	6.02e-01	0	43	102	524288	21	4807
2026-01-06 11:17:25.45	1.73	21.38	-29.8	-32.4	19.4	6.04e-01	0	44	102	524288	21	4841
2026-01-06 11:17:28.47	1.26	20.98	-29.7	-32.2	19.5	6.03e-01	0	43	102	524288	21	4785
2026-01-06 11:17:31.49	0.80	20.59	-29.7	-32.0	19.6	6.03e-01	0	43	102	524288	21	4717
2026-01-06 11:17:34.50	0.35	20.20	-29.8	-32.3	19.4	6.02e-01	0	43	102	524288	21	4823
2026-01-06 11:17:37.52	359.92	19.81	-29.6	-31.9	19.6	6.03e-01	0	43	102	524288	21	4667
2026-01-06 11:17:40.53	359.50	19.44	-29.6	-32.0	19.5	6.00e-01	0	43	102	524288	21	4717
2026-01-06 11:17:43.56	359.08	19.06	-29.6	-32.0	19.5	6.01e-01	0	43	102	524288	21	4726
2026-01-06 11:17:46.58	358.68	18.69	-29.6	-31.8	19.6	6.04e-01	0	43	102	524288	21	4657
2026-01-06 11:17:49.59	358.29	18.33	-29.8	-32.5	19.1	6.02e-01	0	43	102	524288	21	4912
2026-01-06 11:17:52.61	357.91	17.97	-29.9	-32.7	19.1	6.03e-01	0	43	102	524288	21	4945
2026-01-06 11:17:55.63	357.54	17.61	-29.7	-32.2	19.3	6.01e-01	0	43	102	524288	21	4802
2026-01-06 11:17:58.66	357.18	17.26	-29.5	-31.8	19.6	6.03e-01	0	43	102	524288	21	4643
2026-01-06 11:18:01.69	356.82	16.91	-29.7	-32.2	19.3	6.01e-01	0	43	102	524288	21	4781
2026-01-06 11:18:04.70	356.48	16.57	-29.8	-32.3	19.2	6.03e-01	0	43	102	524288	21	4847
2026-01-06 11:18:07.73	356.14	16.23	-29.7	-32.2	19.3	6.04e-01	0	43	102	524288	21	4799
2026-01-06 11:18:10.75	355.82	15.89	-29.8	-32.5	19.1	6.02e-01	0	43	102	524288	21	4912
2026-01-06 11:18:13.77	355.50	15.56	-29.7	-32.3	19.2	6.00e-01	0	44	102	524288	21	4838
2026-01-06 11:18:16.79	355.19	15.24	-29.8	-32.5	19.0	6.00e-01	0	43	102	524288	21	4925
2026-01-06 11:18:19.79	354.88	14.92	-30.0	-33.0	18.7	6.01e-01	0	44	102	524288	21	5102
2026-01-06 11:18:22.81	354.59	14.60	-30.0	-32.9	18.8	6.04e-01	0	43	102	524288	21	5077
2026-01-06 11:18:25.83	354.30	14.28	-29.7	-32.3	19.1	6.00e-01	0	43	102	524288	21	4835
2026-01-06 11:18:28.85	354.01	13.97	-30.0	-33.0	18.7	6.02e-01	0	43	102	524288	21	5109
2026-01-06 11:18:31.87	353.74	13.67	-30.0	-33.0	18.6	6.04e-01	0	43	102	524288	21	5105
2026-01-06 11:18:34.87	353.47	13.36	-29.9	-32.8	18.8	6.01e-01	0	43	102	524288	21	5020
2026-01-06 11:18:37.90	353.20	13.06	-29.8	-32.5	18.9	6.02e-01	0	43	102	524288	21	4920
2026-01-06 11:18:40.91	352.94	12.77	-29.9	-32.9	18.6	6.01e-01	0	43	102	524288	21	5075
2026-01-06 11:18:43.94	352.69	12.47	-30.1	-33.4	18.3	6.04e-01	0	43	102	524288	21	5265
2026-01-06 11:18:46.96	352.44	12.18	-30.2	-33.7	18.1	6.02e-01	0	44	102	524288	21	5383
2026-01-06 11:18:49.97	352.20	11.90	-30.0	-33.2	18.4	6.02e-01	0	43	102	524288	21	5193
2026-01-06 11:18:52.98	351.96	11.62	-29.9	-33.0	18.5	6.04e-01	0	43	102	524288	21	5111
2026-01-06 11:18:56.00	351.73	11.34	-30.1	-33.4	18.2	6.03e-01	0	43	102	524288	21	5288
2026-01-06 11:18:59.03	351.50	11.06	-30.0	-33.3	18.3	6.03e-01	0	43	102	524288	21	5252
2026-01-06 11:19:02.05	351.28	10.78	-30.2	-33.7	18.0	6.03e-01	0	44	102	524288	21	5385
2026-01-06 11:19:05.06	351.07	10.51	-30.3	-34.0	17.8	6.03e-01	0	43	102	524288	21	5509
2026-01-06 11:19:08.09	350.85	10.24	-30.0	-33.2	18.3	5.99e-01	0	43	102	524288	21	5211
2026-01-06 11:19:11.12	350.64	9.98	-30.1	-33.4	18.1	6.03e-01	0	44	102	524288	21	5294
2026-01-06 11:19:14.14	350.44	9.72	-30.0	-33.4	18.1	6.03e-01	0	44	102	524288	21	5277
2026-01-06 11:19:17.15	350.24	9.46	-30.1	-33.6	17.9	6.02e-01	0	43	102	524288	21	5385
2026-01-06 11:19:20.16	350.04	9.20	-30.1	-33.5	18.0	6.01e-01	0	43	102	524288	21	5353
2026-01-06 11:19:23.17	349.85	8.95	-30.3	-34.1	17.6	6.01e-01	0	43	102	524288	21	5581
2026-01-06 11:19:26.18	349.66	8.70	-30.1	-33.5	17.9	6.04e-01	0	43	102	524288	21	5362
2026-01-06 11:19:29.19	349.48	8.45	-30.2	-33.8	17.7	6.01e-01	0	43	102	524288	21	5477
2026-01-06 11:19:32.21	349.30	8.20	-30.2	-33.8	17.7	6.02e-01	0	44	102	524288	21	5486
2026-01-06 11:19:35.24	349.12	7.95	-30.3	-34.2	17.3	6.03e-01	0	43	102	524288	21	5663
2026-01-06 11:19:38.25	348.95	7.71	-30.3	-34.2	17.4	6.04e-01	0	43	102	524288	21	5637
2026-01-06 11:19:41.27	348.78	7.47	-30.4	-34.6	17.1	6.03e-01	0	43	102	524288	21	5820
2026-01-06 11:19:44.29	348.61	7.23	-30.3	-34.4	17.2	6.00e-01	0	43	102	524288	21	5734
2026-01-06 11:19:47.30	348.44	7.00	-33.5	-50.4	3.8	7.44e-01	0	43	104	524288	27	25272

#Closed at: 2026-01-06 11:19:48
#Recorded file [0 MB]: D:/data/31010_260106_141000.dat