passes_logs/2026/01/06/R2M6_AANII_01/R2M6_AANII_01__20260106_004333_SUOMI_NPP_rec.log

#Pass ID: 20260106_004333_SUOMI NPP
#Satellite: SUOMI NPP
#Configuration: NPP
#almurnet v.1.7.20240730
#Start time: 2026-01-06 00:43:34

#Version: 2.2.20231116
#Station: R2M6_AANII_01
#Location: 30.233357 lon 59.946436 lat
#TLE: 1 37849U 11061A   26004.95404768  .00000136  00000+0  85334-4 0  9991
#TLE: 2 37849  98.7801 307.0898 0002575  80.6707 279.4760 14.19522289735281

#Time	Az	El	Level	Level2	SNR	BER	BlckErr	Temp	State	Recorded	gain1	gain2
2026-01-06 00:43:34.60	16.62	7.07	-31.8	-38.3	4.5	1.38e+00	0	41	0	0	23	7596
2026-01-06 00:43:37.62	16.58	7.30	-32.0	-38.7	5.7	4.41e-01	0	41	102	1048576	23	7801
2026-01-06 00:43:40.64	16.54	7.54	-31.6	-36.5	7.3	1.63e-01	0	41	102	1048576	23	6312
2026-01-06 00:43:43.66	16.50	7.78	-31.2	-35.2	8.8	4.30e-02	0	41	102	1048576	22	5685
2026-01-06 00:43:46.69	16.45	8.02	-31.3	-35.3	8.8	3.23e-02	0	41	102	1048576	22	5741
2026-01-06 00:43:49.72	16.41	8.26	-31.6	-36.4	7.6	6.40e-02	0	41	102	1048576	23	6240
2026-01-06 00:43:52.74	16.37	8.50	-31.4	-35.4	8.4	4.06e-02	0	42	102	1048576	23	5668
2026-01-06 00:43:55.76	16.32	8.75	-31.4	-35.9	8.4	3.97e-02	0	42	102	1048576	22	6040
2026-01-06 00:43:58.77	16.28	9.00	-31.1	-34.7	9.4	1.99e-02	0	42	102	1048576	22	5421
2026-01-06 00:44:01.79	16.23	9.25	-31.2	-34.7	9.5	1.15e-02	0	42	102	1048576	22	5419
2026-01-06 00:44:04.82	16.18	9.50	-31.0	-34.0	10.0	7.24e-03	0	42	102	1048576	22	5123
2026-01-06 00:44:07.83	16.13	9.76	-31.0	-34.1	9.9	9.48e-03	0	42	102	1048576	22	5139
2026-01-06 00:44:10.84	16.08	10.02	-30.9	-33.6	10.4	5.01e-03	0	42	102	1048576	22	4923
2026-01-06 00:44:13.85	16.03	10.28	-31.0	-34.1	10.0	5.06e-03	0	42	102	1048576	22	5129
2026-01-06 00:44:16.88	15.98	10.54	-30.9	-33.7	10.3	9.55e-03	0	42	102	1048576	22	4952
2026-01-06 00:44:19.90	15.93	10.81	-30.4	-32.6	11.5	1.35e-03	0	42	102	1048576	21	4618
2026-01-06 00:44:22.92	15.87	11.08	-30.4	-33.0	11.6	8.38e-04	0	42	102	1048576	20	4863
2026-01-06 00:44:25.94	15.82	11.36	-30.3	-32.6	11.9	7.48e-04	0	42	102	1048576	20	4693
2026-01-06 00:44:28.96	15.76	11.63	-30.3	-32.7	11.8	7.37e-04	0	42	102	1048576	20	4736
2026-01-06 00:44:31.98	15.70	11.91	-30.4	-32.9	11.7	6.25e-04	0	42	102	1048576	20	4809
2026-01-06 00:44:35.00	15.64	12.19	-30.3	-32.7	11.8	2.78e-04	0	42	102	1048576	20	4735
2026-01-06 00:44:38.01	15.58	12.48	-30.2	-32.3	12.1	1.81e-04	0	43	102	1048576	20	4611
2026-01-06 00:44:41.03	15.52	12.77	-30.3	-32.7	11.8	4.86e-04	0	43	102	1048576	20	4751
2026-01-06 00:44:44.05	15.45	13.06	-30.0	-31.9	12.5	1.20e-04	0	43	102	1048576	20	4450
2026-01-06 00:44:47.07	15.39	13.36	-30.1	-32.1	12.4	1.30e-04	0	43	102	1048576	20	4517
2026-01-06 00:44:50.08	15.32	13.66	-30.1	-31.9	12.5	1.12e-04	0	43	102	1048576	20	4448
2026-01-06 00:44:53.09	15.25	13.96	-30.1	-32.6	11.7	1.07e-04	0	43	102	1048576	19	4814
2026-01-06 00:44:56.11	15.18	14.27	-30.1	-31.9	12.5	1.20e-04	0	43	102	1048576	20	4457
2026-01-06 00:44:59.13	15.11	14.58	-30.0	-31.8	12.6	8.31e-05	0	43	102	1048576	20	4412
2026-01-06 00:45:02.15	15.03	14.89	-30.1	-31.9	12.6	8.39e-05	0	43	102	1048576	20	4450
2026-01-06 00:45:05.17	14.96	15.21	-30.0	-32.0	12.9	3.66e-05	0	43	102	1048576	19	4570
2026-01-06 00:45:08.18	14.88	15.54	-29.9	-31.9	13.0	2.37e-03	0	43	102	1048576	19	4516
2026-01-06 00:45:11.20	14.80	15.86	-30.0	-31.6	12.9	2.71e-03	0	43	102	1048576	20	4341
2026-01-06 00:45:14.23	14.72	16.20	-29.9	-31.9	13.2	2.54e-03	0	43	102	1048576	19	4508
2026-01-06 00:45:17.23	14.63	16.53	-30.0	-31.7	12.9	2.41e-03	0	43	102	1048576	20	4353
2026-01-06 00:45:20.24	14.55	16.87	-30.2	-32.2	12.5	8.31e-05	0	43	102	1048576	20	4528
2026-01-06 00:45:23.26	14.46	17.22	-30.1	-31.8	12.8	3.81e-05	0	43	102	1048576	20	4383
2026-01-06 00:45:26.28	14.37	17.57	-29.9	-31.8	13.2	2.23e-03	0	43	102	1048576	19	4463
2026-01-06 00:45:29.31	14.27	17.93	-29.9	-31.7	13.3	2.51e-03	0	43	102	1048576	19	4436
2026-01-06 00:45:32.32	14.18	18.29	-29.7	-31.2	13.6	2.38e-03	0	43	102	1048576	19	4282
2026-01-06 00:45:35.35	14.08	18.65	-29.6	-30.9	13.9	2.14e-03	0	43	102	1048576	19	4173
2026-01-06 00:45:38.36	13.98	19.03	-29.7	-31.1	13.7	2.41e-03	0	43	102	1048576	19	4239
2026-01-06 00:45:41.38	13.88	19.40	-29.6	-30.9	13.9	2.31e-03	0	43	102	1048576	19	4173
2026-01-06 00:45:44.40	13.77	19.79	-29.6	-31.0	13.5	7.60e-06	0	43	102	1048576	19	4218
2026-01-06 00:45:47.43	13.66	20.18	-29.5	-30.7	14.0	6.10e-06	0	43	102	1048576	19	4120
2026-01-06 00:45:50.44	13.54	20.57	-29.6	-30.8	14.0	1.10e-03	0	43	102	1048576	19	4148
2026-01-06 00:45:53.47	13.43	20.97	-29.5	-31.0	14.2	8.67e-04	0	43	102	1048576	18	4316
2026-01-06 00:45:56.49	13.31	21.38	-29.4	-30.8	14.3	2.38e-03	0	43	102	1048576	18	4238
2026-01-06 00:45:59.51	13.18	21.80	-29.4	-30.3	14.3	2.28e-03	0	43	102	1048576	19	4019
2026-01-06 00:46:02.53	13.06	22.22	-29.4	-30.8	14.4	7.00e-07	0	43	102	1048576	18	4225
2026-01-06 00:46:05.54	12.93	22.64	-29.3	-30.7	14.4	2.20e-06	0	43	102	1048576	18	4198
2026-01-06 00:46:08.55	12.79	23.08	-29.0	-29.9	14.9	9.28e-04	0	43	102	1048576	18	3980
2026-01-06 00:46:11.57	12.65	23.52	-28.8	-29.9	15.2	7.57e-04	0	43	102	1048576	17	4065
2026-01-06 00:46:14.59	12.51	23.97	-28.7	-29.6	15.4	4.89e-04	0	43	102	1048576	17	3995
2026-01-06 00:46:17.61	12.36	24.43	-29.1	-30.5	13.8	4.04e-04	0	43	102	1048576	17	4233
2026-01-06 00:46:20.62	12.21	24.89	-29.3	-30.7	13.9	2.97e-04	0	43	102	1048576	18	4187
2026-01-06 00:46:23.64	12.05	25.37	-29.7	-31.1	13.9	2.19e-03	0	43	102	1048576	19	4240
2026-01-06 00:46:26.66	11.89	25.85	-29.7	-31.0	14.0	2.00e-03	0	43	102	1048576	19	4195
2026-01-06 00:46:29.67	11.72	26.34	-29.4	-30.3	14.4	3.84e-04	0	43	102	1048576	19	3996
2026-01-06 00:46:32.70	11.55	26.84	-29.4	-30.9	14.5	3.89e-04	0	43	102	1048576	18	4256
2026-01-06 00:46:35.71	11.37	27.35	-29.8	-31.4	13.8	3.83e-04	0	43	102	1048576	19	4322
2026-01-06 00:46:38.74	11.18	27.86	-30.0	-31.3	13.5	2.82e-04	0	43	102	1048576	20	4191
2026-01-06 00:46:41.76	10.99	28.39	-29.7	-31.0	14.0	1.40e-03	0	43	102	1048576	19	4185
2026-01-06 00:46:44.79	10.79	28.93	-29.8	-31.4	13.8	9.23e-04	0	43	102	1048576	19	4314
2026-01-06 00:46:47.81	10.58	29.48	-30.2	-32.0	13.1	8.56e-04	0	43	102	1048576	20	4412
2026-01-06 00:46:50.83	10.36	30.04	-30.7	-32.8	12.2	8.57e-04	0	43	102	1048576	21	4575
2026-01-06 00:46:53.85	10.14	30.61	-30.2	-31.5	13.1	5.43e-04	0	43	102	1048576	21	4164
2026-01-06 00:46:56.87	9.91	31.18	-30.4	-32.5	12.8	3.13e-04	0	43	102	1048576	20	4569
2026-01-06 00:46:59.90	9.67	31.78	-31.2	-33.9	11.1	7.99e-04	0	43	102	1048576	22	4887
2026-01-06 00:47:02.93	9.42	32.38	-31.7	-34.9	10.0	6.18e-03	0	43	102	1048576	23	5230
2026-01-06 00:47:05.94	9.16	32.99	-31.7	-35.0	9.9	9.36e-03	0	43	102	1048576	23	5259
2026-01-06 00:47:08.95	8.89	33.62	-31.6	-34.7	10.2	7.06e-03	0	43	102	1048576	23	5127
2026-01-06 00:47:11.98	8.61	34.26	-32.1	-35.9	8.9	1.60e-02	0	43	102	1048576	24	5570
2026-01-06 00:47:15.00	8.32	34.91	-31.5	-34.2	10.5	1.08e-02	0	43	102	1048576	23	4935
2026-01-06 00:47:18.02	8.01	35.57	-31.3	-33.5	11.1	1.46e-03	0	43	102	1048576	23	4641
2026-01-06 00:47:21.03	7.69	36.24	-31.7	-34.9	10.0	5.87e-03	0	43	102	1048576	23	5217
2026-01-06 00:47:24.05	7.36	36.93	-31.4	-33.9	10.8	3.96e-03	0	43	102	1048576	23	4789
2026-01-06 00:47:27.07	7.01	37.64	-31.1	-33.4	11.5	5.28e-04	0	43	102	1048576	22	4700
2026-01-06 00:47:30.09	6.65	38.35	-30.9	-32.8	11.9	1.19e-03	0	43	102	1048576	22	4498
2026-01-06 00:47:33.11	6.27	39.09	-31.0	-33.1	11.7	1.48e-03	0	44	102	1048576	22	4591
2026-01-06 00:47:36.13	5.87	39.83	-31.3	-33.9	11.3	1.96e-03	0	43	102	1048576	22	4873
2026-01-06 00:47:39.14	5.45	40.59	-31.1	-33.4	11.6	8.09e-04	0	43	102	1048576	22	4673
2026-01-06 00:47:42.17	5.01	41.37	-31.1	-33.5	11.5	7.17e-04	0	44	102	1048576	22	4727
2026-01-06 00:47:45.19	4.55	42.16	-30.9	-32.9	12.2	4.13e-04	0	43	102	1048576	22	4522
2026-01-06 00:47:48.21	4.06	42.96	-31.6	-34.3	10.6	2.18e-03	0	44	102	1048576	23	4953
2026-01-06 00:47:51.23	3.55	43.78	-31.5	-34.1	10.7	7.07e-03	0	43	102	1048576	23	4870
2026-01-06 00:47:54.25	3.01	44.62	-31.1	-33.3	11.5	6.71e-04	0	44	102	1048576	22	4656
2026-01-06 00:47:57.28	2.44	45.47	-30.3	-31.7	13.1	1.83e-05	0	43	102	1048576	21	4196
2026-01-06 00:48:00.30	1.84	46.33	-30.3	-31.6	13.2	5.03e-05	0	44	102	1048576	21	4191
2026-01-06 00:48:03.32	1.20	47.21	-30.4	-31.3	13.2	8.46e-05	0	44	102	1048576	22	3996
2026-01-06 00:48:06.33	0.53	48.10	-30.1	-31.5	13.6	1.60e-05	0	44	102	1048576	20	4232
2026-01-06 00:48:09.34	359.82	49.01	-30.6	-32.4	12.7	6.63e-05	0	43	102	1048576	21	4446
2026-01-06 00:48:12.36	359.06	49.93	-29.6	-30.3	14.4	9.90e-06	0	43	102	1048576	20	3897
2026-01-06 00:48:15.38	358.25	50.87	-29.7	-31.0	14.3	2.21e-05	0	44	102	1048576	19	4176
2026-01-06 00:48:18.40	357.39	51.81	-29.5	-30.6	14.6	1.90e-05	0	43	102	1048576	19	4047
2026-01-06 00:48:21.42	356.47	52.77	-29.7	-30.3	14.3	4.65e-05	0	44	102	1048576	20	3900
2026-01-06 00:48:24.44	355.49	53.74	-28.7	-29.0	15.9	2.28e-05	0	43	102	1048576	18	3722
2026-01-06 00:48:27.46	354.44	54.72	-29.9	-31.0	14.0	6.80e-06	0	44	102	1048576	20	4089
2026-01-06 00:48:30.49	353.30	55.71	-29.3	-30.0	15.0	0.00e+00	0	43	102	1048576	19	3877
2026-01-06 00:48:33.50	352.10	56.71	-30.1	-31.6	13.5	1.29e-05	0	44	102	1048576	20	4257
2026-01-06 00:48:36.52	350.80	57.70	-30.1	-31.5	13.7	9.10e-06	0	44	102	1048576	20	4242
2026-01-06 00:48:39.53	349.40	58.70	-30.4	-32.2	13.0	1.37e-05	0	44	102	1048576	20	4462
2026-01-06 00:48:42.56	347.88	59.70	-30.5	-32.3	12.8	6.63e-05	0	43	102	1048576	21	4390
2026-01-06 00:48:45.58	346.24	60.70	-30.1	-31.6	13.5	3.00e-06	0	43	102	1048576	20	4275
2026-01-06 00:48:48.59	344.47	61.69	-30.1	-31.0	13.8	3.80e-06	0	43	102	1048576	21	4005
2026-01-06 00:48:51.61	342.56	62.66	-29.6	-30.1	14.5	1.50e-06	0	44	102	1048576	20	3837
2026-01-06 00:48:54.62	340.48	63.62	-28.7	-28.8	16.0	0.00e+00	0	44	102	1048576	18	3661
2026-01-06 00:48:57.65	338.22	64.57	-29.8	-31.2	14.2	0.00e+00	0	43	102	1048576	19	4219
2026-01-06 00:49:00.66	335.77	65.48	-30.2	-31.7	13.6	1.50e-06	0	44	102	1048576	20	4281
2026-01-06 00:49:03.69	333.11	66.36	-31.8	-35.2	10.1	3.09e-03	0	44	102	1048576	23	5303
2026-01-06 00:49:06.71	330.23	67.20	-31.5	-33.7	10.9	3.44e-03	0	44	102	1048576	24	4600
2026-01-06 00:49:09.72	327.12	67.99	-29.8	-30.7	14.0	7.60e-06	0	43	102	1048576	20	3963
2026-01-06 00:49:12.74	323.76	68.72	-30.3	-31.5	13.3	2.51e-05	0	44	102	1048576	21	4134
2026-01-06 00:49:15.77	320.14	69.38	-30.7	-32.5	12.8	1.14e-04	0	43	102	1048576	21	4460
2026-01-06 00:49:18.79	316.29	69.97	-30.1	-31.4	13.9	3.80e-06	0	44	102	1048576	20	4178
2026-01-06 00:49:21.81	312.21	70.46	-30.9	-32.8	12.2	1.56e-04	0	44	102	1048576	22	4436
2026-01-06 00:49:24.83	307.93	70.87	-31.0	-33.0	12.4	8.46e-05	0	44	102	1048576	22	4522
2026-01-06 00:49:27.85	303.47	71.17	-32.0	-35.2	9.9	5.09e-03	0	43	102	1048576	24	5197
2026-01-06 00:49:30.88	298.87	71.35	-30.5	-31.5	13.3	6.86e-05	0	44	102	1048576	22	4045
2026-01-06 00:49:33.90	294.22	71.43	-31.6	-34.2	11.0	4.33e-03	0	44	102	1048576	23	4868
2026-01-06 00:49:36.92	289.56	71.38	-31.7	-34.4	10.8	3.61e-03	0	44	102	1048576	23	4962
2026-01-06 00:49:39.94	284.95	71.22	-31.5	-33.8	11.3	3.24e-03	0	44	102	1048576	23	4728
2026-01-06 00:49:42.96	280.46	70.95	-30.7	-32.7	12.7	1.95e-03	0	43	102	1048576	21	4513
2026-01-06 00:49:45.98	276.12	70.58	-31.4	-34.2	11.3	1.89e-03	0	44	102	1048576	22	4953
2026-01-06 00:49:49.00	271.98	70.10	-30.5	-32.2	13.0	1.22e-03	0	43	102	1048576	21	4333
2026-01-06 00:49:52.03	268.06	69.53	-30.7	-32.1	12.8	1.13e-04	0	43	102	1048576	22	4230
2026-01-06 00:49:55.05	264.39	68.89	-31.2	-33.0	11.7	4.93e-03	0	43	102	1048576	23	4430
2026-01-06 00:49:58.06	260.97	68.18	-30.1	-30.9	13.8	1.80e-03	0	43	102	1048576	21	3960
2026-01-06 00:50:01.09	257.78	67.40	-30.2	-31.3	13.5	7.55e-04	0	43	102	1048576	21	4082
2026-01-06 00:50:04.11	254.84	66.57	-30.1	-31.4	13.8	1.94e-03	0	44	102	1048576	20	4189
2026-01-06 00:50:07.12	252.13	65.70	-29.7	-30.9	14.4	2.26e-03	0	44	102	1048576	19	4128
2026-01-06 00:50:10.14	249.63	64.79	-28.9	-29.0	15.6	0.00e+00	0	44	102	1048576	19	3631
2026-01-06 00:50:13.16	247.32	63.86	-29.5	-30.5	14.6	1.50e-06	0	44	102	1048576	19	4011
2026-01-06 00:50:16.17	245.20	62.90	-29.3	-30.0	14.9	7.00e-07	0	44	102	1048576	19	3877
2026-01-06 00:50:19.19	243.24	61.92	-29.3	-29.8	15.0	0.00e+00	0	44	102	1048576	19	3841
2026-01-06 00:50:22.21	241.43	60.93	-28.7	-29.0	15.8	0.00e+00	0	43	102	1048576	18	3714
2026-01-06 00:50:25.24	239.75	59.93	-29.1	-29.9	15.2	0.00e+00	0	43	102	1048576	18	3966
2026-01-06 00:50:28.26	238.20	58.93	-29.5	-30.5	14.7	0.00e+00	0	43	102	1048576	19	4021
2026-01-06 00:50:31.28	236.77	57.93	-30.4	-32.0	12.9	2.05e-05	0	44	102	1048576	21	4320
2026-01-06 00:50:34.30	235.44	56.93	-29.9	-31.1	13.7	9.10e-06	0	43	102	1048576	20	4128
2026-01-06 00:50:37.33	234.21	55.93	-29.5	-30.5	14.5	0.00e+00	0	44	102	1048576	19	4033
2026-01-06 00:50:40.34	233.06	54.94	-29.2	-30.1	15.1	0.00e+00	0	44	102	1048576	18	4020
2026-01-06 00:50:43.36	231.99	53.95	-28.7	-29.5	15.8	0.00e+00	0	44	102	1048576	17	3944
2026-01-06 00:50:46.38	230.99	52.98	-30.0	-31.3	13.6	2.13e-05	0	44	102	1048576	20	4201
2026-01-06 00:50:49.41	230.05	52.01	-30.0	-31.3	13.6	1.15e-03	0	44	102	1048576	20	4198
2026-01-06 00:50:52.42	229.18	51.06	-30.3	-32.2	13.1	9.36e-04	0	44	102	1048576	20	4457
2026-01-06 00:50:55.44	228.35	50.12	-31.4	-33.8	10.8	6.04e-03	0	44	102	1048576	23	4785
2026-01-06 00:50:58.46	227.58	49.19	-31.0	-33.3	11.6	1.32e-03	0	43	102	1048576	22	4665
2026-01-06 00:51:01.47	226.86	48.28	-30.1	-31.5	13.5	2.70e-04	0	44	102	1048576	20	4238
2026-01-06 00:51:04.50	226.17	47.37	-28.6	-28.8	15.9	7.00e-07	0	43	102	1048576	18	3684
2026-01-06 00:51:07.51	225.52	46.49	-29.5	-30.4	14.5	4.08e-04	0	43	102	1048576	19	4002
2026-01-06 00:51:10.53	224.91	45.62	-29.9	-31.6	13.9	1.75e-04	0	44	102	1048576	19	4352
2026-01-06 00:51:13.55	224.34	44.76	-30.9	-33.0	11.8	8.43e-04	0	43	102	1048576	22	4567
2026-01-06 00:51:16.58	223.79	43.92	-30.9	-33.0	11.8	8.03e-04	0	44	102	1048576	22	4584
2026-01-06 00:51:19.59	223.27	43.10	-31.2	-33.8	11.3	6.43e-04	0	44	102	1048576	22	4864
2026-01-06 00:51:22.61	222.78	42.28	-31.3	-34.1	11.1	1.70e-03	0	43	102	1048576	22	4968
2026-01-06 00:51:25.62	222.31	41.49	-32.0	-36.1	9.1	1.71e-02	0	44	102	1048576	23	5757
2026-01-06 00:51:28.63	221.86	40.71	-31.5	-34.5	10.3	7.18e-03	0	43	102	1048576	23	5047
2026-01-06 00:51:31.65	221.44	39.95	-31.2	-33.8	11.2	1.31e-03	0	44	102	1048576	22	4870
2026-01-06 00:51:34.67	221.03	39.19	-31.7	-34.9	9.9	2.58e-03	0	43	102	1048576	23	5232
2026-01-06 00:51:37.69	220.65	38.46	-31.6	-34.5	10.2	6.47e-03	0	43	102	1048576	23	5067
2026-01-06 00:51:40.71	220.28	37.73	-30.5	-32.1	12.7	2.83e-04	0	43	102	1048576	21	4374
2026-01-06 00:51:43.74	219.92	37.02	-30.3	-31.6	13.0	2.00e-04	0	44	102	1048576	21	4191
2026-01-06 00:51:46.76	219.59	36.33	-30.1	-31.8	13.1	3.28e-05	0	44	102	1048576	20	4353
2026-01-06 00:51:49.78	219.26	35.65	-29.7	-31.1	14.0	2.20e-06	0	44	102	1048576	19	4229
2026-01-06 00:51:52.80	218.95	34.98	-29.1	-30.0	15.0	0.00e+00	0	44	102	1048576	18	3992
2026-01-06 00:51:55.82	218.66	34.32	-30.7	-32.9	12.1	1.54e-04	0	43	102	1048576	21	4628
2026-01-06 00:51:58.85	218.37	33.68	-30.7	-32.5	12.0	4.61e-04	0	44	102	1048576	22	4404
2026-01-06 00:52:01.87	218.09	33.05	-30.2	-32.0	13.0	6.10e-05	0	44	102	1048576	20	4411
2026-01-06 00:52:04.90	217.83	32.43	-30.4	-32.1	12.8	1.50e-04	0	44	102	1048576	21	4380
2026-01-06 00:52:07.91	217.58	31.82	-30.0	-31.3	13.2	1.29e-05	0	44	102	1048576	20	4220
2026-01-06 00:52:10.93	217.33	31.23	-30.3	-32.2	12.7	4.57e-05	0	44	102	1048576	20	4501
2026-01-06 00:52:13.95	217.10	30.64	-31.1	-33.6	11.1	7.58e-04	0	44	102	1048576	22	4822
2026-01-06 00:52:16.98	216.87	30.07	-31.2	-33.9	11.0	1.75e-03	0	44	102	1048576	22	4917
2026-01-06 00:52:20.00	216.65	29.51	-31.3	-34.4	10.5	1.85e-03	0	44	102	1048576	22	5130
2026-01-06 00:52:23.02	216.44	28.95	-31.5	-34.5	10.1	6.73e-03	0	43	102	1048576	23	5064
2026-01-06 00:52:26.03	216.24	28.41	-31.3	-34.4	10.5	4.30e-03	0	44	102	1048576	22	5133
2026-01-06 00:52:29.05	216.05	27.88	-31.1	-33.6	11.2	2.20e-03	0	43	102	1048576	22	4813
2026-01-06 00:52:32.07	215.86	27.36	-31.0	-33.4	11.2	1.91e-03	0	44	102	1048576	22	4764
2026-01-06 00:52:35.09	215.67	26.85	-30.6	-32.6	12.1	1.15e-03	0	44	102	1048576	21	4559
2026-01-06 00:52:38.10	215.50	26.35	-30.6	-32.7	12.1	1.64e-03	0	44	102	1048576	21	4568
2026-01-06 00:52:41.11	215.33	25.85	-30.4	-32.7	12.4	1.65e-03	0	44	102	1048576	20	4671
2026-01-06 00:52:44.13	215.16	25.37	-30.5	-32.4	12.2	2.57e-04	0	44	102	1048576	21	4477
2026-01-06 00:52:47.15	215.00	24.89	-31.1	-33.6	11.0	1.08e-03	0	44	102	1048576	22	4840
2026-01-06 00:52:50.17	214.84	24.42	-31.6	-34.8	10.0	4.05e-03	0	44	102	1048576	23	5231
2026-01-06 00:52:53.19	214.69	23.96	-31.7	-35.5	9.3	1.47e-02	0	44	102	1048576	23	5536
2026-01-06 00:52:56.21	214.55	23.51	-31.6	-35.2	9.5	1.58e-02	0	44	102	1048576	23	5394
2026-01-06 00:52:59.23	214.40	23.06	-31.0	-33.6	10.9	2.47e-03	0	44	102	1048576	22	4855
2026-01-06 00:53:02.26	214.27	22.62	-30.5	-32.6	12.1	9.53e-04	0	44	102	1048576	21	4546
2026-01-06 00:53:05.28	214.13	22.19	-30.5	-32.5	12.1	7.61e-04	0	44	102	1048576	21	4536
2026-01-06 00:53:08.29	214.00	21.77	-30.6	-32.7	11.8	2.59e-04	0	44	102	1048576	21	4611
2026-01-06 00:53:11.32	213.88	21.35	-30.7	-33.2	11.5	6.35e-04	0	44	102	1048576	21	4780
2026-01-06 00:53:14.33	213.75	20.94	-30.6	-32.9	11.7	4.35e-04	0	44	102	1048576	21	4688
2026-01-06 00:53:17.36	213.63	20.54	-30.5	-32.5	12.0	3.67e-04	0	44	102	1048576	21	4529
2026-01-06 00:53:20.38	213.52	20.14	-30.4	-32.2	12.2	5.43e-04	0	44	102	1048576	21	4438
2026-01-06 00:53:23.39	213.41	19.75	-30.1	-31.9	12.7	4.47e-04	0	44	102	1048576	20	4416
2026-01-06 00:53:26.41	213.30	19.36	-30.0	-31.7	12.4	2.92e-04	0	44	102	1048576	20	4361
2026-01-06 00:53:29.43	213.19	18.98	-29.9	-31.5	12.9	5.49e-05	0	44	102	1048576	20	4308
2026-01-06 00:53:32.45	213.08	18.61	-29.8	-31.7	13.2	2.89e-05	0	44	102	1048576	19	4437
2026-01-06 00:53:35.47	212.98	18.24	-30.0	-31.7	12.8	4.27e-05	0	44	102	1048576	20	4362
2026-01-06 00:53:38.48	212.89	17.88	-30.0	-31.8	12.7	6.48e-05	0	44	102	1048576	20	4394
2026-01-06 00:53:41.51	212.79	17.52	-30.3	-32.5	12.2	1.06e-03	0	44	102	1048576	20	4653
2026-01-06 00:53:44.53	212.70	17.16	-30.6	-33.1	11.5	1.17e-03	0	44	102	1048576	21	4759
2026-01-06 00:53:47.55	212.60	16.82	-30.7	-33.4	11.2	2.27e-03	0	44	102	1048576	21	4895
2026-01-06 00:53:50.57	212.51	16.47	-30.5	-32.7	11.6	1.40e-03	0	44	102	1048576	21	4642
2026-01-06 00:53:53.59	212.43	16.13	-30.4	-33.0	11.8	5.76e-04	0	44	102	1048576	20	4830
2026-01-06 00:53:56.60	212.34	15.80	-30.3	-32.7	12.0	1.10e-03	0	44	102	1048576	20	4733
2026-01-06 00:53:59.62	212.26	15.47	-30.2	-32.5	12.1	9.60e-04	0	44	102	1048576	20	4652
2026-01-06 00:54:02.64	212.18	15.15	-30.3	-32.8	11.8	1.55e-03	0	44	102	1048576	20	4762
2026-01-06 00:54:05.66	212.10	14.82	-30.7	-33.5	10.9	3.07e-03	0	44	102	1048576	21	4957
2026-01-06 00:54:08.68	212.02	14.51	-30.9	-33.9	10.6	3.27e-03	0	44	102	1048576	21	5133
2026-01-06 00:54:11.70	211.95	14.19	-31.2	-34.4	9.9	9.01e-03	0	44	102	1048576	22	5250
2026-01-06 00:54:14.72	211.88	13.89	-31.2	-34.6	9.7	1.46e-02	0	44	102	1048576	22	5314
2026-01-06 00:54:17.74	211.80	13.58	-31.2	-34.7	9.7	1.14e-02	0	44	102	1048576	22	5356
2026-01-06 00:54:20.75	211.73	13.28	-30.8	-33.8	10.7	4.24e-03	0	44	102	1048576	21	5067
2026-01-06 00:54:23.78	211.67	12.98	-30.9	-33.8	10.3	4.65e-03	0	44	102	1048576	22	4980
2026-01-06 00:54:26.80	211.60	12.69	-30.2	-32.4	11.9	5.30e-04	0	44	102	1048576	20	4653
2026-01-06 00:54:29.82	211.53	12.40	-30.2	-32.5	11.8	8.40e-04	0	44	102	1048576	20	4701
2026-01-06 00:54:32.85	211.47	12.11	-30.0	-31.8	12.3	1.72e-04	0	44	102	1048576	20	4451
2026-01-06 00:54:35.86	211.41	11.82	-29.8	-31.3	12.6	2.08e-04	0	44	102	1048576	20	4287
2026-01-06 00:54:38.88	211.34	11.54	-30.1	-32.1	12.1	1.95e-04	0	43	102	1048576	20	4544
2026-01-06 00:54:41.89	211.29	11.27	-29.9	-31.7	12.3	1.94e-04	0	44	102	1048576	20	4420
2026-01-06 00:54:44.92	211.23	10.99	-30.1	-32.4	11.8	3.30e-04	0	44	102	1048576	20	4655
2026-01-06 00:54:47.93	211.17	10.72	-30.0	-32.1	12.0	2.81e-04	0	44	102	1048576	20	4543
2026-01-06 00:54:50.95	211.11	10.45	-30.2	-32.7	11.6	5.77e-04	0	44	102	1048576	20	4759
2026-01-06 00:54:53.97	211.06	10.19	-30.2	-32.5	11.6	5.95e-04	0	44	102	1048576	20	4698
2026-01-06 00:54:57.00	211.00	9.92	-30.3	-33.0	11.3	9.70e-04	0	44	102	1048576	20	4892
2026-01-06 00:55:00.02	210.95	9.66	-30.4	-33.2	11.2	1.40e-03	0	44	102	1048576	20	4960
2026-01-06 00:55:03.04	210.90	9.40	-30.5	-33.1	10.8	2.04e-03	0	44	102	1048576	21	4863
2026-01-06 00:55:06.05	210.85	9.15	-30.6	-33.3	10.7	2.28e-03	0	44	102	1048576	21	4921
2026-01-06 00:55:09.07	210.80	8.90	-30.6	-33.4	10.6	4.69e-03	0	44	102	1048576	21	4974
2026-01-06 00:55:12.08	210.75	8.65	-30.8	-34.1	10.0	8.04e-03	0	44	102	1048576	21	5281
2026-01-06 00:55:15.11	210.70	8.40	-30.8	-34.1	9.9	1.23e-02	0	43	102	1048576	21	5286
2026-01-06 00:55:18.12	210.66	8.16	-31.0	-34.7	9.2	1.50e-02	0	44	102	1048576	22	5463
2026-01-06 00:55:21.13	210.61	7.91	-31.0	-34.7	9.1	2.34e-02	0	44	102	1048576	22	5478
2026-01-06 00:55:24.15	210.56	7.67	-31.0	-34.4	9.3	2.26e-02	0	44	102	1048576	22	5348
2026-01-06 00:55:27.17	210.52	7.44	-31.0	-34.7	8.9	2.83e-02	0	43	102	1048576	22	5502
2026-01-06 00:55:30.19	210.48	7.20	-31.0	-34.5	9.0	3.02e-02	0	44	102	1048576	22	5419

#Closed at: 2026-01-06 00:55:33
#Recorded file [1 MB]: D:/data/31010_260106_034336.dat