passes_logs/2026/01/06/R2M6_AANII_01/R2M6_AANII_01__20260106_031112_AQUA_rec.log

#Pass ID: 20260106_031112_AQUA
#Satellite: AQUA
#Configuration: AQUA
#almurnet v.1.7.20240730
#Start time: 2026-01-06 03:11:12

#Version: 2.2.20231116
#Station: R2M6_AANII_01
#Location: 30.233357 lon 59.946436 lat
#TLE: 1 27424U 02022A   26004.96787593  .00001598  00000+0  32997-3 0  9996
#TLE: 2 27424  98.4069 331.2279 0002002  90.2377   0.6092 14.61798176259425

#Time	Az	El	Level	Level2	SNR	BER	BlckErr	Temp	State	Recorded	gain1	gain2
2026-01-06 03:11:12.26	9.53	6.98	-31.9	-47.9	3.8	7.46e-01	0	41	0	0	24	22631
2026-01-06 03:11:15.27	9.31	7.20	-31.8	-47.6	3.8	7.44e-01	0	41	104	0	24	22036
2026-01-06 03:11:18.29	9.08	7.43	-31.8	-47.3	3.8	7.43e-01	0	41	104	0	24	21364
2026-01-06 03:11:21.31	8.85	7.66	-31.2	-45.6	3.8	7.44e-01	0	41	104	0	23	18799
2026-01-06 03:11:24.33	8.61	7.89	-30.6	-43.9	3.8	7.45e-01	0	41	104	0	22	16696
2026-01-06 03:11:27.35	8.37	8.12	-30.5	-44.1	3.8	7.43e-01	0	42	104	0	21	17213
2026-01-06 03:11:30.36	8.13	8.35	-30.3	-43.5	3.8	7.46e-01	0	42	104	0	21	16475
2026-01-06 03:11:33.38	7.88	8.59	-30.8	-44.4	3.8	7.45e-01	0	42	104	0	22	17285
2026-01-06 03:11:36.40	7.62	8.83	-31.5	-46.3	3.8	7.46e-01	0	42	104	0	23	19732
2026-01-06 03:11:39.42	7.36	9.07	-32.1	-47.9	3.8	7.45e-01	0	42	104	0	24	22221
2026-01-06 03:11:42.45	7.10	9.31	-32.4	-48.9	3.8	7.48e-01	0	42	104	0	25	24013
2026-01-06 03:11:45.46	6.83	9.56	-32.8	-50.2	3.8	7.47e-01	0	42	104	0	26	26600
2026-01-06 03:11:48.48	6.55	9.80	-33.0	-51.2	3.8	7.44e-01	0	42	104	0	26	29460
2026-01-06 03:11:51.50	6.27	10.05	-33.0	-51.2	3.8	7.42e-01	0	42	104	0	26	29268
2026-01-06 03:11:54.52	5.99	10.31	-32.8	-50.1	3.8	7.47e-01	0	42	104	0	26	26448
2026-01-06 03:11:57.54	5.70	10.56	-32.6	-49.2	3.8	7.45e-01	0	42	104	0	26	24314
2026-01-06 03:12:00.56	5.40	10.81	-32.3	-48.2	3.8	7.47e-01	0	42	104	0	25	22472
2026-01-06 03:12:03.57	5.10	11.07	-31.6	-46.2	3.8	7.46e-01	0	42	104	0	24	19293
2026-01-06 03:12:06.58	4.79	11.33	-31.6	-46.4	3.8	7.48e-01	0	43	104	0	23	19770
2026-01-06 03:12:09.59	4.48	11.59	-31.5	-46.2	3.8	7.47e-01	0	42	104	0	23	19569
2026-01-06 03:12:12.62	4.15	11.86	-30.6	-43.6	3.8	7.45e-01	0	43	104	0	22	16223
2026-01-06 03:12:15.63	3.83	12.12	-30.0	-43.2	3.8	7.44e-01	0	42	104	0	20	16403
2026-01-06 03:12:18.65	3.49	12.39	-29.9	-42.8	3.8	7.43e-01	0	43	104	0	20	15918
2026-01-06 03:12:21.67	3.15	12.66	-30.3	-43.5	3.8	7.46e-01	0	43	104	0	21	16378
2026-01-06 03:12:24.70	2.80	12.94	-31.1	-45.2	3.8	7.45e-01	0	43	104	0	22	18194
2026-01-06 03:12:27.72	2.45	13.22	-32.0	-47.0	3.8	7.45e-01	0	43	104	0	24	20379
2026-01-06 03:12:30.73	2.08	13.49	-32.4	-48.4	3.8	7.47e-01	0	43	104	0	25	22588
2026-01-06 03:12:33.74	1.71	13.77	-32.3	-47.9	3.8	7.44e-01	0	43	104	0	25	21792
2026-01-06 03:12:36.75	1.34	14.06	-32.7	-49.3	3.8	7.48e-01	0	43	104	0	26	24394
2026-01-06 03:12:39.77	0.95	14.34	-33.0	-50.8	3.8	7.47e-01	0	43	104	0	26	27988
2026-01-06 03:12:42.79	0.55	14.63	-32.9	-49.9	3.8	7.45e-01	0	43	104	0	26	25552
2026-01-06 03:12:45.81	0.15	14.92	-32.8	-49.1	3.8	7.44e-01	0	43	104	0	26	23570
2026-01-06 03:12:48.84	359.74	15.22	-32.6	-48.3	3.8	7.43e-01	0	43	104	0	26	21998
2026-01-06 03:12:51.86	359.32	15.52	-31.9	-46.7	3.8	7.42e-01	0	43	104	0	24	19656
2026-01-06 03:12:54.88	358.89	15.81	-30.0	-44.8	3.9	7.49e-01	0	43	104	0	22	19781
2026-01-06 03:12:57.90	358.45	16.12	-31.6	-45.6	3.8	7.42e-01	0	43	104	0	24	18109
2026-01-06 03:13:00.91	358.00	16.42	-30.8	-44.1	3.8	7.46e-01	0	43	104	0	22	16636
2026-01-06 03:13:03.94	357.54	16.73	-29.8	-42.4	3.8	7.43e-01	0	43	104	0	20	15369
2026-01-06 03:13:06.96	357.06	17.03	-29.7	-42.0	3.8	7.42e-01	0	43	104	0	20	14947
2026-01-06 03:13:09.98	356.58	17.35	-30.0	-43.0	3.8	7.46e-01	0	43	104	0	20	16120
2026-01-06 03:13:13.00	356.09	17.66	-30.9	-44.4	3.8	7.42e-01	0	43	104	0	22	17122
2026-01-06 03:13:16.02	355.59	17.97	-31.8	-46.1	3.8	7.48e-01	0	43	104	0	24	18656
2026-01-06 03:13:19.05	355.07	18.29	-32.5	-48.2	3.8	7.40e-01	0	43	104	0	26	21776
2026-01-06 03:13:22.06	354.55	18.61	-32.5	-48.1	3.8	7.42e-01	0	43	104	0	25	21721
2026-01-06 03:13:25.08	354.01	18.93	-32.2	-39.2	5.1	7.10e-01	0	43	104	0	25	8040
2026-01-06 03:13:28.10	353.46	19.26	-32.4	-39.3	12.3	6.08e-01	0	43	102	524288	25	7980
2026-01-06 03:13:31.11	352.90	19.58	-31.4	-36.4	15.7	6.00e-01	0	43	102	524288	23	6403
2026-01-06 03:13:34.13	352.32	19.91	-30.6	-34.6	17.7	5.99e-01	0	43	102	524288	21	5759
2026-01-06 03:13:37.15	351.73	20.24	-30.8	-35.0	17.1	6.01e-01	0	43	102	524288	22	5785
2026-01-06 03:13:40.18	351.12	20.57	-30.2	-33.8	18.2	6.01e-01	0	43	102	524288	21	5427
2026-01-06 03:13:43.19	350.51	20.91	-30.6	-34.3	17.5	6.00e-01	0	43	102	524288	22	5500
2026-01-06 03:13:46.22	349.87	21.24	-29.7	-32.7	19.2	6.04e-01	0	43	102	524288	20	5093
2026-01-06 03:13:49.24	349.23	21.58	-29.5	-32.3	19.5	6.01e-01	0	43	102	524288	20	4951
2026-01-06 03:13:52.27	348.56	21.91	-29.7	-32.7	19.2	6.02e-01	0	43	102	524288	20	5110
2026-01-06 03:13:55.27	347.89	22.25	-29.5	-32.7	19.7	6.01e-01	0	43	102	524288	19	5181
2026-01-06 03:13:58.29	347.19	22.59	-29.6	-32.3	19.6	6.01e-01	0	43	102	524288	20	4952
2026-01-06 03:14:01.32	346.48	22.93	-29.6	-32.6	19.4	6.02e-01	0	43	102	524288	20	5068
2026-01-06 03:14:04.34	345.75	23.26	-29.7	-32.6	19.4	6.01e-01	0	43	102	524288	20	5038
2026-01-06 03:14:07.36	345.01	23.60	-29.5	-32.3	19.6	6.00e-01	0	43	102	524288	20	4944
2026-01-06 03:14:10.39	344.25	23.94	-29.6	-32.3	19.6	6.01e-01	0	43	102	524288	20	4936
2026-01-06 03:14:13.41	343.47	24.28	-29.6	-32.3	19.6	5.99e-01	0	43	102	524288	20	4948
2026-01-06 03:14:16.43	342.67	24.62	-29.8	-32.8	19.3	6.02e-01	0	43	102	524288	20	5118
2026-01-06 03:14:19.45	341.86	24.95	-29.5	-32.2	19.6	6.02e-01	0	44	102	524288	20	4921
2026-01-06 03:14:22.47	341.03	25.28	-29.5	-32.6	19.8	5.98e-01	0	43	102	524288	19	5153
2026-01-06 03:14:25.49	340.17	25.62	-29.6	-32.5	18.9	6.01e-01	0	43	102	524288	20	5030
2026-01-06 03:14:28.51	339.30	25.94	-29.6	-32.9	18.0	6.01e-01	0	43	102	524288	19	5252
2026-01-06 03:14:31.53	338.41	26.27	-29.6	-32.4	19.6	5.99e-01	0	44	102	524288	20	4963
2026-01-06 03:14:34.55	337.51	26.59	-29.1	-32.2	19.9	6.01e-01	0	44	102	524288	19	5155
2026-01-06 03:14:37.58	336.57	26.91	-29.5	-32.5	19.9	6.00e-01	0	43	102	524288	19	5111
2026-01-06 03:14:40.60	335.63	27.23	-29.5	-32.2	19.7	6.00e-01	0	43	102	524288	20	4923
2026-01-06 03:14:43.62	334.66	27.54	-29.5	-32.7	19.8	6.00e-01	0	43	102	524288	19	5184
2026-01-06 03:14:46.65	333.67	27.84	-29.1	-31.6	20.4	6.01e-01	0	44	102	524288	19	4814
2026-01-06 03:14:49.67	332.66	28.14	-29.0	-31.7	20.0	6.01e-01	0	43	102	524288	19	4907
2026-01-06 03:14:52.68	331.64	28.44	-29.1	-32.1	20.5	6.00e-01	0	43	102	524288	18	5084
2026-01-06 03:14:55.70	330.59	28.72	-29.3	-32.0	20.2	6.01e-01	0	44	102	524288	19	4946
2026-01-06 03:14:58.74	329.52	29.00	-29.2	-31.9	20.4	6.00e-01	0	44	102	524288	19	4887
2026-01-06 03:15:01.75	328.44	29.27	-29.3	-32.2	20.2	5.99e-01	0	44	102	524288	19	4983
2026-01-06 03:15:04.78	327.33	29.53	-29.1	-31.6	20.5	5.98e-01	0	44	102	524288	19	4814
2026-01-06 03:15:07.79	326.21	29.78	-29.1	-32.0	20.6	6.00e-01	0	43	102	524288	18	5041
2026-01-06 03:15:10.81	325.07	30.03	-28.9	-31.7	20.7	6.01e-01	0	44	102	524288	18	4927
2026-01-06 03:15:13.83	323.91	30.26	-29.0	-31.9	20.7	6.00e-01	0	44	102	524288	18	4996
2026-01-06 03:15:16.85	322.74	30.48	-29.1	-31.6	20.5	6.02e-01	0	43	102	524288	19	4785
2026-01-06 03:15:19.86	321.55	30.69	-29.0	-31.7	20.7	5.99e-01	0	44	102	524288	18	4953
2026-01-06 03:15:22.88	320.34	30.89	-29.2	-31.7	20.4	6.01e-01	0	43	102	524288	19	4821
2026-01-06 03:15:25.90	319.12	31.07	-29.1	-31.6	20.5	6.00e-01	0	43	102	524288	19	4792
2026-01-06 03:15:28.92	317.88	31.24	-29.0	-31.7	20.6	6.01e-01	0	43	102	524288	18	4961
2026-01-06 03:15:31.95	316.63	31.40	-28.9	-31.6	20.9	6.00e-01	0	44	102	524288	18	4892
2026-01-06 03:15:34.97	315.37	31.54	-28.9	-31.0	20.8	6.03e-01	0	44	102	524288	19	4599
2026-01-06 03:15:37.99	314.09	31.67	-29.1	-32.0	20.6	6.01e-01	0	44	102	524288	18	5038
2026-01-06 03:15:41.02	312.81	31.78	-29.1	-31.6	20.5	6.04e-01	0	44	102	524288	19	4792
2026-01-06 03:15:44.04	311.51	31.88	-28.7	-30.5	21.2	6.01e-01	0	44	102	524288	19	4443
2026-01-06 03:15:47.07	310.21	31.96	-29.4	-32.3	20.3	5.98e-01	0	44	102	524288	19	5023
2026-01-06 03:15:50.09	308.90	32.03	-29.6	-32.5	19.5	5.99e-01	0	44	102	524288	20	5009
2026-01-06 03:15:53.11	307.59	32.08	-29.0	-30.9	20.5	6.02e-01	0	44	102	524288	20	4460
2026-01-06 03:15:56.12	306.28	32.11	-28.4	-31.7	19.9	6.01e-01	0	44	102	524288	19	5261
2026-01-06 03:15:59.14	304.97	32.12	-30.4	-34.1	16.6	6.07e-01	0	44	102	524288	21	5477
2026-01-06 03:16:02.15	303.66	32.12	-30.5	-34.3	16.5	6.00e-01	0	44	102	524288	21	5571
2026-01-06 03:16:05.17	302.34	32.11	-29.6	-32.2	19.8	5.99e-01	0	43	102	524288	20	4896
2026-01-06 03:16:08.18	301.03	32.07	-29.9	-33.0	19.3	5.99e-01	0	44	102	524288	20	5181
2026-01-06 03:16:11.19	299.72	32.02	-29.4	-32.2	20.2	5.99e-01	0	43	102	524288	19	4988
2026-01-06 03:16:14.22	298.41	31.96	-28.8	-30.8	20.9	6.00e-01	0	44	102	524288	19	4535
2026-01-06 03:16:17.23	297.12	31.87	-29.1	-31.1	20.4	5.99e-01	0	44	102	524288	20	4504
2026-01-06 03:16:20.24	295.83	31.78	-29.8	-32.8	19.5	6.00e-01	0	44	102	524288	20	5093
2026-01-06 03:16:23.24	294.56	31.66	-30.3	-33.6	18.7	6.00e-01	0	44	102	524288	21	5288
2026-01-06 03:16:26.26	293.28	31.53	-30.3	-33.9	18.5	6.00e-01	0	44	102	524288	21	5439
2026-01-06 03:16:29.28	292.02	31.39	-29.5	-33.7	17.6	6.01e-01	0	44	102	524288	21	5787
2026-01-06 03:16:32.30	290.77	31.23	-31.1	-35.4	17.3	6.01e-01	0	44	102	524288	22	5940
2026-01-06 03:16:35.33	289.52	31.06	-30.4	-34.1	18.4	6.02e-01	0	44	102	524288	21	5482
2026-01-06 03:16:38.34	288.30	30.87	-30.8	-34.5	17.8	6.01e-01	0	44	102	524288	22	5530
2026-01-06 03:16:41.35	287.10	30.68	-30.8	-34.6	17.6	6.00e-01	0	44	102	524288	22	5567
2026-01-06 03:16:44.38	285.90	30.47	-31.3	-35.8	16.4	6.01e-01	0	44	102	524288	23	6022
2026-01-06 03:16:47.39	284.73	30.24	-29.9	-32.6	19.2	5.99e-01	0	44	102	524288	21	4933
2026-01-06 03:16:50.41	283.57	30.01	-29.4	-32.0	19.8	6.01e-01	0	44	102	524288	20	4831
2026-01-06 03:16:53.44	282.42	29.77	-29.7	-32.6	19.5	6.00e-01	0	44	102	524288	20	5054
2026-01-06 03:16:56.47	281.29	29.51	-29.9	-33.1	19.2	6.00e-01	0	44	102	524288	20	5208
2026-01-06 03:16:59.49	280.19	29.25	-29.7	-32.8	19.3	6.00e-01	0	44	102	524288	20	5139
2026-01-06 03:17:02.50	279.10	28.98	-29.6	-32.5	19.6	5.99e-01	0	44	102	524288	20	5024
2026-01-06 03:17:05.53	278.03	28.70	-29.6	-32.3	19.6	6.00e-01	0	44	102	524288	20	4940
2026-01-06 03:17:08.56	276.98	28.41	-29.4	-32.5	19.9	5.98e-01	0	44	102	524288	19	5100
2026-01-06 03:17:11.57	275.96	28.12	-29.6	-32.4	19.6	6.03e-01	0	44	102	524288	20	4992
2026-01-06 03:17:14.60	274.94	27.81	-29.4	-32.4	20.0	6.02e-01	0	44	102	524288	19	5064
2026-01-06 03:17:17.61	273.96	27.51	-29.4	-32.2	19.6	6.02e-01	0	44	102	524288	19	5010
2026-01-06 03:17:20.62	272.99	27.20	-29.2	-32.0	19.9	5.98e-01	0	44	102	524288	19	4932
2026-01-06 03:17:23.64	272.04	26.88	-29.5	-32.2	19.6	6.00e-01	0	44	102	524288	20	4930
2026-01-06 03:17:26.65	271.11	26.56	-29.7	-32.9	19.3	6.02e-01	0	44	102	524288	20	5148
2026-01-06 03:17:29.68	270.20	26.24	-29.5	-32.3	19.6	6.02e-01	0	44	102	524288	20	4919
2026-01-06 03:17:32.69	269.31	25.91	-29.7	-32.8	19.2	6.02e-01	0	44	102	524288	20	5102
2026-01-06 03:17:35.71	268.44	25.58	-29.8	-33.1	19.1	6.01e-01	0	44	102	524288	20	5250
2026-01-06 03:17:38.73	267.58	25.25	-29.4	-32.5	19.8	6.03e-01	0	44	102	524288	19	5122
2026-01-06 03:17:41.75	266.75	24.91	-29.7	-32.8	19.2	5.99e-01	0	44	102	524288	20	5140
2026-01-06 03:17:44.77	265.93	24.58	-29.6	-32.9	19.6	5.99e-01	0	44	102	524288	19	5258
2026-01-06 03:17:47.79	265.13	24.24	-29.5	-32.4	19.4	6.02e-01	0	44	102	524288	20	5030
2026-01-06 03:17:50.81	264.35	23.90	-29.7	-32.8	19.2	6.01e-01	0	44	102	524288	20	5137
2026-01-06 03:17:53.82	263.59	23.56	-29.6	-32.6	19.3	6.01e-01	0	44	102	524288	20	5049
2026-01-06 03:17:56.85	262.84	23.22	-29.7	-32.8	19.2	5.99e-01	0	44	102	524288	20	5121
2026-01-06 03:17:59.88	262.11	22.88	-29.8	-33.0	19.0	6.00e-01	0	44	102	524288	20	5207
2026-01-06 03:18:02.90	261.40	22.54	-29.9	-33.2	18.9	5.99e-01	0	44	102	524288	20	5300
2026-01-06 03:18:05.92	260.70	22.20	-29.6	-32.7	19.0	6.02e-01	0	44	102	524288	20	5118
2026-01-06 03:18:08.94	260.02	21.86	-29.5	-32.4	19.2	6.02e-01	0	44	102	524288	20	5044
2026-01-06 03:18:11.96	259.35	21.52	-29.5	-32.8	19.4	6.00e-01	0	44	102	524288	19	5272
2026-01-06 03:18:14.98	258.71	21.19	-29.6	-32.5	19.2	6.02e-01	0	44	102	524288	20	5050
2026-01-06 03:18:18.00	258.07	20.85	-29.8	-33.1	18.8	5.99e-01	0	44	102	524288	20	5280
2026-01-06 03:18:21.02	257.45	20.52	-29.4	-32.2	19.4	6.03e-01	0	44	102	524288	20	4914
2026-01-06 03:18:24.04	256.84	20.18	-29.2	-32.3	18.9	6.01e-01	0	44	102	524288	20	5110
2026-01-06 03:18:27.06	256.25	19.85	-29.5	-32.4	19.2	6.03e-01	0	44	102	524288	20	5018
2026-01-06 03:18:30.09	255.67	19.52	-29.6	-32.6	19.1	6.02e-01	0	44	102	524288	20	5091
2026-01-06 03:18:33.11	255.10	19.19	-29.3	-32.3	19.4	6.02e-01	0	44	102	524288	19	5116
2026-01-06 03:18:36.13	254.55	18.87	-29.4	-32.7	18.8	6.02e-01	0	44	102	524288	19	5241
2026-01-06 03:18:39.14	254.01	18.55	-29.5	-32.7	18.5	6.00e-01	0	44	102	524288	19	5249
2026-01-06 03:18:42.16	253.48	18.23	-29.5	-32.9	19.2	6.01e-01	0	44	102	524288	19	5308
2026-01-06 03:18:45.18	252.97	17.91	-29.5	-32.8	19.2	6.03e-01	0	44	102	524288	19	5289
2026-01-06 03:18:48.20	252.46	17.59	-29.6	-32.9	18.9	6.01e-01	0	44	102	524288	20	5217
2026-01-06 03:18:51.22	251.97	17.27	-29.5	-32.5	19.0	6.00e-01	0	44	102	524288	20	5095
2026-01-06 03:18:54.23	251.48	16.96	-29.4	-32.9	19.2	5.99e-01	0	44	102	524288	19	5340
2026-01-06 03:18:57.26	251.01	16.65	-29.4	-32.9	19.1	6.01e-01	0	44	102	524288	19	5339
2026-01-06 03:19:00.28	250.55	16.35	-29.3	-32.5	19.3	6.03e-01	0	44	102	524288	19	5233
2026-01-06 03:19:03.30	250.10	16.04	-29.4	-32.7	19.2	6.01e-01	0	44	102	524288	19	5302
2026-01-06 03:19:06.32	249.65	15.74	-29.1	-32.4	19.3	6.02e-01	0	44	102	524288	19	5226
2026-01-06 03:19:09.35	249.22	15.44	-29.5	-33.1	18.9	6.00e-01	0	44	102	524288	19	5477
2026-01-06 03:19:12.37	248.79	15.14	-29.5	-33.1	18.9	6.04e-01	0	44	102	524288	19	5461
2026-01-06 03:19:15.39	248.38	14.84	-29.3	-32.6	19.3	6.01e-01	0	44	102	524288	19	5235
2026-01-06 03:19:18.41	247.97	14.55	-29.4	-32.8	19.1	6.01e-01	0	44	102	524288	19	5326
2026-01-06 03:19:21.43	247.58	14.26	-29.3	-32.7	19.1	5.99e-01	0	44	102	524288	19	5315
2026-01-06 03:19:24.44	247.19	13.98	-29.5	-32.9	18.5	5.99e-01	0	44	102	524288	20	5326
2026-01-06 03:19:27.47	246.81	13.69	-29.3	-32.8	18.9	6.01e-01	0	44	102	524288	19	5377
2026-01-06 03:19:30.49	246.43	13.41	-29.3	-32.9	18.8	6.02e-01	0	44	102	524288	19	5411
2026-01-06 03:19:33.52	246.07	13.13	-29.7	-33.4	18.2	6.02e-01	0	44	102	524288	20	5514
2026-01-06 03:19:36.54	245.71	12.85	-29.6	-32.9	18.5	6.01e-01	0	44	102	524288	20	5282
2026-01-06 03:19:39.55	245.36	12.57	-29.7	-33.1	18.3	5.99e-01	0	43	102	524288	20	5374
2026-01-06 03:19:42.57	245.02	12.30	-29.9	-34.0	17.7	6.00e-01	0	44	102	524288	20	5753
2026-01-06 03:19:45.59	244.68	12.03	-29.5	-32.7	18.5	5.99e-01	0	44	102	524288	20	5217
2026-01-06 03:19:48.61	244.35	11.76	-29.6	-33.0	18.4	5.98e-01	0	44	102	524288	20	5318
2026-01-06 03:19:51.63	244.03	11.50	-29.5	-32.8	18.5	6.02e-01	0	44	102	524288	20	5248
2026-01-06 03:19:54.65	243.71	11.23	-28.7	-32.3	18.2	6.01e-01	0	44	102	524288	20	5472
2026-01-06 03:19:57.68	243.40	10.97	-29.8	-33.3	18.1	6.01e-01	0	44	102	524288	20	5427
2026-01-06 03:20:00.70	243.09	10.71	-29.7	-33.1	18.3	6.00e-01	0	44	102	524288	20	5356
2026-01-06 03:20:03.72	242.79	10.46	-29.6	-32.9	18.2	5.98e-01	0	44	102	524288	20	5302
2026-01-06 03:20:06.75	242.50	10.20	-29.6	-33.1	18.2	6.00e-01	0	44	102	524288	20	5379
2026-01-06 03:20:09.78	242.21	9.95	-29.7	-33.4	18.0	6.00e-01	0	44	102	524288	20	5482
2026-01-06 03:20:12.80	241.93	9.70	-29.8	-33.6	17.9	5.99e-01	0	44	102	524288	20	5571
2026-01-06 03:20:15.82	241.65	9.45	-29.9	-34.0	17.6	6.02e-01	0	44	102	524288	20	5735
2026-01-06 03:20:18.83	241.38	9.21	-29.8	-33.6	17.9	6.01e-01	0	43	102	524288	20	5559
2026-01-06 03:20:21.85	241.11	8.97	-29.8	-33.6	17.7	6.01e-01	0	44	102	524288	20	5617
2026-01-06 03:20:24.87	240.85	8.72	-29.8	-33.6	17.7	5.99e-01	0	44	102	524288	20	5616
2026-01-06 03:20:27.88	240.59	8.49	-29.8	-33.7	17.6	6.00e-01	0	44	102	524288	20	5656
2026-01-06 03:20:30.91	240.34	8.25	-29.8	-33.8	17.3	6.01e-01	0	44	102	524288	20	5702
2026-01-06 03:20:33.93	240.09	8.01	-29.9	-34.1	17.3	6.01e-01	0	44	102	524288	20	5824
2026-01-06 03:20:36.95	239.85	7.78	-29.9	-34.0	17.4	5.98e-01	0	44	102	524288	20	5780
2026-01-06 03:20:39.96	239.61	7.55	-29.9	-34.0	17.3	6.02e-01	0	44	102	524288	20	5787
2026-01-06 03:20:42.97	239.38	7.32	-29.8	-33.8	17.5	6.02e-01	0	44	102	524288	20	5680
2026-01-06 03:20:46.00	239.15	7.09	-29.9	-34.0	17.4	6.02e-01	0	44	102	524288	20	5762
2026-01-06 03:20:49.02	238.92	6.87	-33.6	-52.7	3.8	7.44e-01	0	44	104	524288	28	32731

#Closed at: 2026-01-06 03:20:49
#Recorded file [0 MB]: D:/data/31010_260106_061327.dat