passes_logs/2026/01/06/R2M6_AANII_01/R2M6_AANII_01__20260106_014413_FENGYUN_3D_rec.log

#Pass ID: 20260106_014413_FENGYUN 3D
#Satellite: FENGYUN 3D
#Configuration: FENGYUN 3D
#almurnet v.1.7.20240730
#Start time: 2026-01-06 01:44:15

#Version: 2.2.20231116
#Station: R2M6_AANII_01
#Location: 30.233357 lon 59.946436 lat
#TLE: 1 43010U 17072A   26005.48915933 -.00000051  00000+0 -21983-5 0  9995
#TLE: 2 43010  98.9919 337.1582 0002001 124.6377 235.4988 14.19691925421909

#Time	Az	El	Level	Level2	SNR	BER	BlckErr	Temp	State	Recorded	gain1	gain2
2026-01-06 01:44:15.37	22.64	7.15	-33.9	-45.3	3.8	8.46e-01	0	44	0	0	27	13426
2026-01-06 01:44:18.37	22.76	7.38	-33.9	-44.8	3.8	8.46e-01	0	44	104	0	28	12676
2026-01-06 01:44:21.39	22.89	7.61	-34.0	-45.4	3.8	8.46e-01	0	44	104	0	27	13510
2026-01-06 01:44:24.41	23.02	7.84	-34.0	-45.5	3.8	8.47e-01	0	44	104	0	27	13540
2026-01-06 01:44:27.43	23.15	8.07	-33.9	-44.9	3.8	8.46e-01	0	44	104	0	28	12788
2026-01-06 01:44:30.45	23.29	8.30	-33.9	-45.3	3.8	8.46e-01	0	43	104	0	27	13412
2026-01-06 01:44:33.47	23.42	8.54	-33.7	-44.9	3.8	8.46e-01	0	44	104	0	27	13125
2026-01-06 01:44:36.49	23.56	8.78	-33.5	-44.6	3.8	8.47e-01	0	44	104	0	27	12898
2026-01-06 01:44:39.51	23.70	9.02	-33.3	-44.7	3.8	8.46e-01	0	44	104	0	26	13399
2026-01-06 01:44:42.53	23.84	9.26	-33.0	-44.0	3.8	8.46e-01	0	44	104	0	26	12795
2026-01-06 01:44:45.55	23.99	9.51	-31.8	-38.1	5.2	7.54e-01	0	44	0	0	23	7474
2026-01-06 01:44:48.55	24.14	9.75	-31.4	-36.6	6.0	3.95e-01	0	44	102	1048576	23	6565
2026-01-06 01:44:51.58	24.29	10.00	-30.7	-34.6	7.6	1.39e-01	0	44	102	1048576	22	5623
2026-01-06 01:44:54.60	24.44	10.26	-29.5	-32.1	10.0	1.44e-02	0	44	102	1048576	20	4840
2026-01-06 01:44:57.61	24.59	10.51	-28.5	-30.4	11.8	7.86e-04	0	44	102	1048576	18	4477
2026-01-06 01:45:00.63	24.75	10.77	-28.1	-30.4	12.4	2.60e-04	0	44	102	1048576	16	4701
2026-01-06 01:45:03.65	24.91	11.03	-28.9	-32.0	11.1	2.30e-03	0	44	102	1048576	17	5102
2026-01-06 01:45:06.67	25.07	11.29	-29.5	-32.5	10.2	6.55e-03	0	44	102	1048576	19	5070
2026-01-06 01:45:09.69	25.23	11.56	-28.9	-30.8	11.3	2.76e-03	0	44	102	1048576	19	4489
2026-01-06 01:45:12.70	25.40	11.82	-28.4	-30.5	12.1	5.39e-04	0	44	102	1048576	17	4599
2026-01-06 01:45:15.72	25.57	12.09	-26.8	-28.4	14.1	2.20e-06	0	44	102	1048576	14	4295
2026-01-06 01:45:18.72	25.74	12.37	-26.1	-27.2	15.0	0.00e+00	0	44	102	1048576	13	4098
2026-01-06 01:45:21.74	25.92	12.64	-26.4	-27.9	14.6	0.00e+00	0	44	102	1048576	13	4284
2026-01-06 01:45:24.77	26.10	12.92	-25.5	-26.3	15.8	1.19e-04	0	44	102	1048576	12	3966
2026-01-06 01:45:27.79	26.28	13.20	-25.5	-26.9	15.9	0.00e+00	0	44	102	1048576	11	4221
2026-01-06 01:45:30.81	26.46	13.49	-25.5	-27.3	16.0	9.76e-04	0	44	102	1048576	10	4440
2026-01-06 01:45:33.84	26.65	13.78	-25.3	-26.8	16.2	3.70e-04	0	44	102	1048576	10	4311
2026-01-06 01:45:36.86	26.84	14.07	-25.2	-26.8	16.3	4.23e-04	0	44	102	1048576	10	4298
2026-01-06 01:45:39.88	27.04	14.37	-25.2	-26.7	16.3	1.15e-03	0	44	102	1048576	10	4289
2026-01-06 01:45:42.89	27.24	14.66	-25.3	-27.0	16.1	1.15e-03	0	44	102	1048576	10	4365
2026-01-06 01:45:45.91	27.44	14.97	-25.7	-27.2	15.8	3.70e-04	0	44	102	1048576	11	4315
2026-01-06 01:45:48.93	27.65	15.27	-25.6	-27.0	15.9	5.23e-04	0	44	102	1048576	11	4261
2026-01-06 01:45:51.94	27.86	15.58	-25.7	-27.2	15.8	5.25e-04	0	44	102	1048576	11	4308
2026-01-06 01:45:54.97	28.08	15.89	-25.0	-26.2	16.7	4.34e-04	0	44	102	1048576	10	4136
2026-01-06 01:45:57.98	28.29	16.21	-25.1	-26.5	16.5	4.75e-04	0	44	102	1048576	10	4217
2026-01-06 01:46:01.00	28.52	16.53	-24.8	-26.2	16.9	7.16e-04	0	44	102	1048576	9	4264
2026-01-06 01:46:04.01	28.75	16.85	-24.8	-25.8	16.9	0.00e+00	0	44	102	1048576	10	4054
2026-01-06 01:46:07.03	28.98	17.18	-24.6	-25.9	17.1	0.00e+00	0	44	102	1048576	9	4187
2026-01-06 01:46:10.04	29.22	17.51	-24.4	-26.0	17.3	7.35e-04	0	44	102	1048576	8	4319
2026-01-06 01:46:13.06	29.46	17.84	-24.3	-25.7	17.5	0.00e+00	0	44	102	1048576	8	4235
2026-01-06 01:46:16.07	29.71	18.18	-24.0	-25.1	17.8	0.00e+00	0	44	102	1048576	8	4095
2026-01-06 01:46:19.09	29.96	18.53	-24.1	-25.4	17.7	0.00e+00	0	44	102	1048576	8	4166
2026-01-06 01:46:22.11	30.22	18.88	-24.1	-25.3	17.8	0.00e+00	0	44	102	1048576	8	4124
2026-01-06 01:46:25.13	30.48	19.23	-24.0	-25.0	17.9	0.00e+00	0	44	102	1048576	8	4063
2026-01-06 01:46:28.15	30.76	19.59	-23.8	-25.1	18.1	0.00e+00	0	44	102	1048576	7	4202
2026-01-06 01:46:31.16	31.03	19.95	-23.9	-25.0	18.0	0.00e+00	0	44	102	1048576	8	4047
2026-01-06 01:46:34.18	31.32	20.32	-23.9	-24.9	18.0	0.00e+00	0	44	102	1048576	8	4028
2026-01-06 01:46:37.20	31.61	20.69	-24.0	-25.5	17.9	0.00e+00	0	44	102	1048576	7	4311
2026-01-06 01:46:40.21	31.90	21.06	-23.9	-25.0	18.0	0.00e+00	0	44	102	1048576	8	4054
2026-01-06 01:46:43.24	32.21	21.45	-23.7	-25.0	16.2	0.00e+00	0	44	102	1048576	7	4179
2026-01-06 01:46:46.26	32.52	21.84	-23.5	-24.6	18.4	0.00e+00	0	44	102	1048576	7	4073
2026-01-06 01:46:49.28	32.84	22.23	-23.5	-24.6	18.5	0.00e+00	0	44	102	1048576	7	4066
2026-01-06 01:46:52.30	33.16	22.63	-23.6	-24.7	18.4	0.00e+00	0	44	102	1048576	7	4097
2026-01-06 01:46:55.31	33.50	23.03	-23.4	-24.3	18.6	4.35e-04	0	44	102	1048576	7	3990
2026-01-06 01:46:58.34	33.84	23.44	-23.2	-24.3	18.9	1.45e-04	0	44	102	1048576	6	4114
2026-01-06 01:47:01.36	34.19	23.85	-23.1	-24.3	18.9	0.00e+00	0	44	102	1048576	6	4094
2026-01-06 01:47:04.37	34.55	24.27	-23.1	-24.3	18.9	4.98e-04	0	44	102	1048576	6	4098
2026-01-06 01:47:07.40	34.92	24.69	-23.2	-24.5	18.8	2.84e-04	0	44	102	1048576	6	4153
2026-01-06 01:47:10.41	35.30	25.12	-23.4	-24.3	18.7	1.60e-04	0	44	102	1048576	7	3996
2026-01-06 01:47:13.43	35.69	25.56	-23.2	-24.3	18.9	2.76e-04	0	44	102	1048576	6	4108
2026-01-06 01:47:16.44	36.09	26.00	-23.0	-24.0	19.1	0.00e+00	0	44	102	1048576	6	4036
2026-01-06 01:47:19.45	36.50	26.45	-22.9	-23.8	19.2	2.91e-04	0	44	102	1048576	6	3995
2026-01-06 01:47:22.46	36.93	26.90	-23.3	-24.5	18.8	2.97e-04	0	44	102	1048576	6	4165
2026-01-06 01:47:25.48	37.36	27.36	-23.3	-24.7	18.8	5.70e-04	0	44	102	1048576	6	4197
2026-01-06 01:47:28.50	37.81	27.83	-23.6	-24.8	18.5	0.00e+00	0	44	102	1048576	7	4105
2026-01-06 01:47:31.52	38.27	28.30	-23.5	-24.0	18.7	2.09e-04	0	44	102	1048576	8	3812
2026-01-06 01:47:34.55	38.75	28.79	-23.3	-24.2	18.8	2.21e-04	0	44	102	1048576	7	3961
2026-01-06 01:47:37.57	39.24	29.27	-23.2	-23.9	18.9	0.00e+00	0	44	102	1048576	7	3912
2026-01-06 01:47:40.59	39.74	29.76	-23.4	-24.3	18.8	0.00e+00	0	44	102	1048576	7	3995
2026-01-06 01:47:43.61	40.26	30.26	-22.7	-23.3	19.5	8.12e-05	0	44	102	1048576	6	3859
2026-01-06 01:47:46.64	40.80	30.77	-23.0	-24.1	19.2	0.00e+00	0	44	102	1048576	6	4047
2026-01-06 01:47:49.65	41.34	31.28	-23.0	-24.0	19.2	0.00e+00	0	44	102	1048576	6	4039
2026-01-06 01:47:52.68	41.92	31.80	-23.2	-24.4	19.0	0.00e+00	0	44	102	1048576	6	4142
2026-01-06 01:47:55.68	42.50	32.32	-22.8	-23.5	19.5	0.00e+00	0	44	102	1048576	6	3916
2026-01-06 01:47:58.70	43.10	32.85	-22.7	-23.3	19.6	0.00e+00	0	44	102	1048576	6	3866
2026-01-06 01:48:01.72	43.73	33.38	-22.6	-23.2	19.7	0.00e+00	0	44	102	1048576	6	3840
2026-01-06 01:48:04.73	44.37	33.92	-23.0	-24.0	19.3	0.00e+00	0	44	102	1048576	6	4024
2026-01-06 01:48:07.75	45.04	34.47	-22.7	-23.4	19.5	0.00e+00	0	44	102	1048576	6	3885
2026-01-06 01:48:10.78	45.73	35.02	-22.5	-22.8	19.9	0.00e+00	0	44	102	1048576	6	3752
2026-01-06 01:48:13.80	46.45	35.58	-22.5	-22.9	19.8	0.00e+00	0	44	102	1048576	6	3779
2026-01-06 01:48:16.82	47.18	36.14	-22.5	-23.0	19.8	0.00e+00	0	44	102	1048576	6	3797
2026-01-06 01:48:19.83	47.95	36.70	-22.4	-22.7	19.9	0.00e+00	0	44	102	1048576	6	3721
2026-01-06 01:48:22.84	48.73	37.27	-22.6	-23.2	19.7	0.00e+00	0	44	102	1048576	6	3845
2026-01-06 01:48:25.86	49.55	37.85	-22.1	-22.6	20.2	0.00e+00	0	44	102	1048576	5	3808
2026-01-06 01:48:28.88	50.40	38.42	-22.2	-22.8	20.2	0.00e+00	0	44	102	1048576	5	3845
2026-01-06 01:48:31.90	51.27	39.01	-22.3	-22.9	20.1	0.00e+00	0	44	102	1048576	5	3888
2026-01-06 01:48:34.92	52.18	39.59	-22.4	-23.2	19.9	0.00e+00	0	44	102	1048576	5	3948
2026-01-06 01:48:37.94	53.12	40.17	-22.5	-23.4	19.9	0.00e+00	0	44	102	1048576	5	3992
2026-01-06 01:48:40.96	54.10	40.76	-22.7	-23.9	19.6	0.00e+00	0	44	102	1048576	5	4110
2026-01-06 01:48:43.98	55.11	41.35	-22.7	-23.9	19.6	0.00e+00	0	44	102	1048576	5	4113
2026-01-06 01:48:47.01	56.16	41.93	-22.5	-23.3	19.9	0.00e+00	0	44	102	1048576	5	3981
2026-01-06 01:48:50.03	57.25	42.52	-22.6	-23.6	19.8	0.00e+00	0	44	102	1048576	5	4050
2026-01-06 01:48:53.05	58.37	43.10	-22.3	-23.1	20.1	0.00e+00	0	44	102	1048576	5	3908
2026-01-06 01:48:56.07	59.54	43.68	-22.4	-23.2	20.0	0.00e+00	0	44	102	1048576	5	3952
2026-01-06 01:48:59.08	60.75	44.25	-22.5	-23.5	19.9	1.10e-06	0	44	102	1048576	5	4012
2026-01-06 01:49:02.10	62.00	44.82	-23.1	-24.1	19.3	2.20e-06	0	44	102	1048576	6	4064
2026-01-06 01:49:05.12	63.30	45.38	-22.5	-22.8	20.0	0.00e+00	0	44	102	1048576	6	3743
2026-01-06 01:49:08.14	64.64	45.93	-23.0	-23.9	19.4	0.00e+00	0	44	102	1048576	6	4015
2026-01-06 01:49:11.16	66.03	46.47	-22.6	-23.2	19.8	0.00e+00	0	44	102	1048576	6	3833
2026-01-06 01:49:14.18	67.47	47.00	-22.6	-23.0	19.9	0.00e+00	0	44	102	1048576	6	3794
2026-01-06 01:49:17.20	68.96	47.52	-22.7	-23.3	19.8	0.00e+00	0	44	102	1048576	6	3863
2026-01-06 01:49:20.22	70.49	48.02	-22.8	-23.6	19.6	0.00e+00	0	44	102	1048576	6	3927
2026-01-06 01:49:23.23	72.07	48.50	-23.0	-24.0	19.3	0.00e+00	0	44	102	1048576	6	4042
2026-01-06 01:49:26.25	73.71	48.97	-22.3	-22.5	20.0	0.00e+00	0	44	102	1048576	6	3699
2026-01-06 01:49:29.27	75.39	49.41	-22.6	-23.1	19.7	0.00e+00	0	44	102	1048576	6	3819
2026-01-06 01:49:32.30	77.13	49.84	-22.9	-23.9	19.3	2.28e-05	0	44	102	1048576	6	4014
2026-01-06 01:49:35.31	78.90	50.24	-22.9	-23.8	19.4	0.00e+00	0	44	102	1048576	6	3997
2026-01-06 01:49:38.33	80.73	50.61	-23.0	-24.0	19.3	0.00e+00	0	44	102	1048576	6	4050
2026-01-06 01:49:41.35	82.60	50.95	-22.8	-23.5	19.5	5.72e-05	0	44	102	1048576	6	3912
2026-01-06 01:49:44.37	84.51	51.27	-23.4	-24.9	18.9	1.14e-05	0	44	102	1048576	6	4259
2026-01-06 01:49:47.38	86.45	51.55	-22.8	-23.2	19.4	8.00e-06	0	44	102	1048576	7	3736
2026-01-06 01:49:50.40	88.43	51.80	-23.1	-23.7	19.2	1.85e-04	0	44	102	1048576	7	3868
2026-01-06 01:49:53.42	90.45	52.02	-22.8	-23.1	19.5	0.00e+00	0	44	102	1048576	7	3723
2026-01-06 01:49:56.44	92.49	52.20	-23.0	-23.5	19.3	0.00e+00	0	44	102	1048576	7	3807
2026-01-06 01:49:59.46	94.56	52.34	-22.9	-23.7	19.5	1.60e-04	0	44	102	1048576	6	3948
2026-01-06 01:50:02.48	96.64	52.45	-23.0	-24.0	19.3	0.00e+00	0	44	102	1048576	6	4033
2026-01-06 01:50:05.50	98.73	52.52	-23.2	-24.5	19.1	0.00e+00	0	44	102	1048576	6	4160
2026-01-06 01:50:08.53	100.84	52.55	-23.1	-24.3	19.1	0.00e+00	0	44	102	1048576	6	4114
2026-01-06 01:50:11.54	102.94	52.54	-23.2	-24.5	19.0	0.00e+00	0	44	102	1048576	6	4162
2026-01-06 01:50:14.58	105.05	52.49	-23.2	-24.5	19.1	0.00e+00	0	44	102	1048576	6	4162
2026-01-06 01:50:17.60	107.14	52.40	-22.9	-23.8	19.4	0.00e+00	0	44	102	1048576	6	3996
2026-01-06 01:50:20.62	109.22	52.27	-23.3	-24.1	19.0	0.00e+00	0	44	102	1048576	7	3967
2026-01-06 01:50:23.64	111.28	52.11	-23.2	-24.0	19.1	0.00e+00	0	44	102	1048576	7	3924
2026-01-06 01:50:26.67	113.31	51.91	-23.8	-25.2	18.5	0.00e+00	0	44	102	1048576	7	4218
2026-01-06 01:50:29.69	115.31	51.67	-23.5	-24.5	18.8	0.00e+00	0	44	102	1048576	7	4050
2026-01-06 01:50:32.71	117.28	51.41	-22.9	-23.2	19.5	0.00e+00	0	44	102	1048576	7	3752
2026-01-06 01:50:35.73	119.21	51.10	-23.0	-24.0	19.3	0.00e+00	0	44	102	1048576	6	4049
2026-01-06 01:50:38.74	121.10	50.77	-22.7	-23.4	19.6	0.00e+00	0	44	102	1048576	6	3900
2026-01-06 01:50:41.77	122.95	50.41	-23.3	-24.5	19.0	0.00e+00	0	44	102	1048576	6	4179
2026-01-06 01:50:44.79	124.76	50.02	-22.8	-23.5	19.6	0.00e+00	0	44	102	1048576	6	3915
2026-01-06 01:50:47.81	126.52	49.61	-22.8	-23.6	19.5	0.00e+00	0	44	102	1048576	6	3941
2026-01-06 01:50:50.82	128.22	49.17	-23.0	-24.0	19.1	0.00e+00	0	44	102	1048576	6	4041
2026-01-06 01:50:53.83	129.88	48.72	-22.9	-23.8	19.4	2.97e-05	0	44	102	1048576	6	3979
2026-01-06 01:50:56.85	131.49	48.24	-22.8	-23.7	19.5	0.00e+00	0	44	102	1048576	6	3961
2026-01-06 01:50:59.88	133.06	47.74	-23.1	-24.2	19.2	0.00e+00	0	44	102	1048576	6	4092
2026-01-06 01:51:02.90	134.57	47.23	-22.6	-23.1	19.8	3.22e-04	0	44	102	1048576	6	3811
2026-01-06 01:51:05.92	136.04	46.70	-22.9	-23.7	19.4	2.88e-04	0	44	102	1048576	6	3983
2026-01-06 01:51:08.93	137.45	46.17	-22.5	-23.5	19.7	4.08e-04	0	44	102	1048576	5	4038
2026-01-06 01:51:11.94	138.81	45.62	-23.0	-24.5	19.2	6.27e-04	0	44	102	1048576	5	4289
2026-01-06 01:51:14.96	140.13	45.06	-22.9	-23.8	19.3	4.93e-04	0	44	102	1048576	6	3990
2026-01-06 01:51:17.98	141.41	44.49	-23.0	-24.0	19.2	0.00e+00	0	44	102	1048576	6	4055
2026-01-06 01:51:20.99	142.64	43.92	-23.3	-24.6	18.9	6.38e-04	0	44	102	1048576	6	4205
2026-01-06 01:51:24.00	143.82	43.35	-22.6	-23.6	19.6	3.94e-04	0	44	102	1048576	5	4065
2026-01-06 01:51:27.02	144.97	42.76	-22.8	-24.1	19.4	0.00e+00	0	44	102	1048576	5	4188
2026-01-06 01:51:30.04	146.08	42.18	-22.8	-24.2	19.3	0.00e+00	0	44	102	1048576	5	4210
2026-01-06 01:51:33.07	147.15	41.59	-22.3	-23.1	19.8	3.59e-04	0	44	102	1048576	5	3951
2026-01-06 01:51:36.09	148.18	41.00	-22.3	-23.0	19.9	0.00e+00	0	44	102	1048576	5	3923
2026-01-06 01:51:39.11	149.18	40.41	-22.5	-23.4	19.7	0.00e+00	0	44	102	1048576	5	4011
2026-01-06 01:51:42.13	150.14	39.82	-22.8	-24.1	19.3	0.00e+00	0	44	102	1048576	5	4191
2026-01-06 01:51:45.15	151.06	39.23	-22.4	-23.3	19.7	0.00e+00	0	44	102	1048576	5	3982
2026-01-06 01:51:48.18	151.96	38.65	-22.3	-23.0	19.9	0.00e+00	0	44	102	1048576	5	3908
2026-01-06 01:51:51.19	152.82	38.06	-22.2	-23.3	20.0	1.10e-06	0	44	102	1048576	4	4099
2026-01-06 01:51:54.21	153.65	37.49	-22.4	-23.9	19.7	0.00e+00	0	44	102	1048576	4	4256
2026-01-06 01:51:57.23	154.45	36.91	-22.7	-23.9	19.4	0.00e+00	0	44	102	1048576	5	4141
2026-01-06 01:52:00.24	155.23	36.34	-22.4	-23.3	19.7	0.00e+00	0	44	102	1048576	5	3998
2026-01-06 01:52:03.27	155.98	35.77	-22.3	-23.0	19.8	0.00e+00	0	44	102	1048576	5	3932
2026-01-06 01:52:06.29	156.71	35.21	-22.1	-22.7	20.0	0.00e+00	0	44	102	1048576	5	3857
2026-01-06 01:52:09.31	157.41	34.65	-22.2	-22.9	19.9	0.00e+00	0	44	102	1048576	5	3889
2026-01-06 01:52:12.33	158.09	34.10	-22.4	-23.2	19.7	0.00e+00	0	44	102	1048576	5	3970
2026-01-06 01:52:15.33	158.74	33.56	-22.4	-23.4	19.6	0.00e+00	0	44	102	1048576	5	4008
2026-01-06 01:52:18.34	159.37	33.02	-22.3	-23.2	19.7	0.00e+00	0	44	102	1048576	5	3959
2026-01-06 01:52:21.35	159.99	32.48	-22.4	-23.4	19.6	0.00e+00	0	44	102	1048576	5	4013
2026-01-06 01:52:24.37	160.58	31.95	-22.7	-23.9	19.3	0.00e+00	0	44	102	1048576	5	4144
2026-01-06 01:52:27.38	161.16	31.43	-22.7	-24.0	19.3	0.00e+00	0	44	102	1048576	5	4159
2026-01-06 01:52:30.40	161.72	30.92	-23.0	-24.1	19.0	0.00e+00	0	44	102	1048576	6	4087
2026-01-06 01:52:33.42	162.26	30.41	-23.0	-24.0	19.0	0.00e+00	0	44	102	1048576	6	4059
2026-01-06 01:52:36.44	162.79	29.90	-23.0	-24.0	19.0	0.00e+00	0	44	102	1048576	6	4052
2026-01-06 01:52:39.45	163.30	29.41	-22.8	-23.7	19.2	0.00e+00	0	44	102	1048576	6	3974
2026-01-06 01:52:42.46	163.79	28.92	-22.9	-24.3	19.1	0.00e+00	0	44	102	1048576	5	4246
2026-01-06 01:52:45.48	164.27	28.43	-22.9	-24.3	19.1	0.00e+00	0	44	102	1048576	5	4235
2026-01-06 01:52:48.51	164.74	27.95	-22.7	-23.9	19.3	0.00e+00	0	44	102	1048576	5	4137
2026-01-06 01:52:51.53	165.20	27.48	-22.7	-23.9	19.3	0.00e+00	0	44	102	1048576	5	4147
2026-01-06 01:52:54.55	165.64	27.01	-22.7	-23.8	19.3	0.00e+00	0	44	102	1048576	5	4121
2026-01-06 01:52:57.57	166.07	26.55	-22.7	-23.9	19.3	0.00e+00	0	44	102	1048576	5	4134
2026-01-06 01:53:00.59	166.48	26.10	-22.8	-24.1	19.2	0.00e+00	0	44	102	1048576	5	4192
2026-01-06 01:53:03.61	166.89	25.65	-22.8	-24.1	19.2	0.00e+00	0	44	102	1048576	5	4198
2026-01-06 01:53:06.62	167.28	25.21	-23.2	-24.6	18.7	0.00e+00	0	44	102	1048576	6	4186
2026-01-06 01:53:09.64	167.67	24.77	-23.1	-24.3	18.9	0.00e+00	0	44	102	1048576	6	4118
2026-01-06 01:53:12.65	168.04	24.34	-23.2	-24.5	18.7	0.00e+00	0	44	102	1048576	6	4175
2026-01-06 01:53:15.66	168.40	23.92	-23.3	-24.6	18.7	0.00e+00	0	44	102	1048576	6	4205
2026-01-06 01:53:18.67	168.76	23.50	-23.3	-24.7	18.6	0.00e+00	0	44	102	1048576	6	4230
2026-01-06 01:53:21.68	169.10	23.09	-23.3	-24.2	18.6	0.00e+00	0	44	102	1048576	7	3989
2026-01-06 01:53:24.70	169.44	22.68	-23.5	-24.6	18.4	0.00e+00	0	44	102	1048576	7	4094
2026-01-06 01:53:27.73	169.77	22.28	-23.6	-24.9	18.3	0.00e+00	0	44	102	1048576	7	4152
2026-01-06 01:53:30.72	170.09	21.89	-23.9	-25.5	18.0	0.00e+00	0	44	102	1048576	7	4313
2026-01-06 01:53:33.74	170.40	21.50	-23.8	-25.2	18.1	0.00e+00	0	44	102	1048576	7	4231
2026-01-06 01:53:36.75	170.71	21.11	-24.1	-25.4	17.7	0.00e+00	0	44	102	1048576	8	4187
2026-01-06 01:53:39.76	171.01	20.73	-24.2	-25.5	17.7	0.00e+00	0	44	102	1048576	8	4209
2026-01-06 01:53:42.78	171.30	20.35	-24.4	-26.1	17.4	0.00e+00	0	44	102	1048576	8	4360
2026-01-06 01:53:45.80	171.59	19.98	-24.1	-25.4	17.7	0.00e+00	0	44	102	1048576	8	4179
2026-01-06 01:53:48.83	171.86	19.61	-23.9	-24.9	18.0	0.00e+00	0	44	102	1048576	8	4054
2026-01-06 01:53:51.84	172.14	19.25	-23.7	-25.1	15.5	0.00e+00	0	44	102	1048576	7	4246
2026-01-06 01:53:54.87	172.40	18.90	-23.9	-25.4	17.8	0.00e+00	0	44	102	1048576	7	4292
2026-01-06 01:53:57.89	172.66	18.54	-24.1	-25.4	17.7	4.57e-04	0	44	102	1048576	8	4167
2026-01-06 01:54:00.91	172.92	18.19	-24.3	-25.7	17.5	3.95e-04	0	44	102	1048576	8	4257
2026-01-06 01:54:03.93	173.17	17.85	-24.4	-26.0	17.3	0.00e+00	0	44	102	1048576	8	4346
2026-01-06 01:54:06.96	173.41	17.51	-24.7	-26.3	17.0	3.84e-04	0	44	102	1048576	9	4287
2026-01-06 01:54:09.97	173.65	17.18	-25.0	-26.8	16.7	3.78e-04	0	44	102	1048576	9	4431
2026-01-06 01:54:12.99	173.89	16.84	-24.8	-26.3	16.9	4.14e-04	0	44	102	1048576	9	4306
2026-01-06 01:54:16.01	174.11	16.52	-25.1	-26.4	16.6	8.83e-04	0	44	102	1048576	10	4224
2026-01-06 01:54:19.03	174.34	16.19	-25.1	-26.6	16.5	4.32e-04	0	44	102	1048576	10	4273
2026-01-06 01:54:22.05	174.56	15.87	-25.1	-26.7	16.5	3.99e-04	0	44	102	1048576	10	4285
2026-01-06 01:54:25.08	174.77	15.56	-25.3	-27.0	16.2	5.39e-04	0	44	102	1048576	10	4391
2026-01-06 01:54:28.09	174.99	15.25	-25.3	-27.0	16.3	7.90e-04	0	44	102	1048576	10	4369
2026-01-06 01:54:31.11	175.19	14.94	-25.2	-26.8	16.3	3.47e-04	0	44	102	1048576	10	4326
2026-01-06 01:54:34.13	175.40	14.63	-25.2	-26.8	16.3	3.32e-04	0	44	102	1048576	10	4312
2026-01-06 01:54:37.16	175.60	14.33	-25.2	-26.8	16.3	5.12e-04	0	44	102	1048576	10	4322
2026-01-06 01:54:40.18	175.79	14.03	-25.1	-26.7	16.4	0.00e+00	0	44	102	1048576	10	4288
2026-01-06 01:54:43.21	175.98	13.74	-25.2	-26.7	16.3	7.09e-04	0	44	102	1048576	10	4308
2026-01-06 01:54:46.22	176.17	13.45	-25.3	-27.0	16.2	1.37e-05	0	44	102	1048576	10	4370
2026-01-06 01:54:49.23	176.36	13.16	-25.4	-27.2	16.1	1.14e-05	0	44	102	1048576	10	4420
2026-01-06 01:54:52.26	176.54	12.87	-25.7	-27.4	15.7	1.37e-05	0	44	102	1048576	11	4370
2026-01-06 01:54:55.27	176.72	12.59	-25.9	-27.7	15.5	6.13e-04	0	44	102	1048576	11	4468
2026-01-06 01:54:58.29	176.89	12.31	-26.0	-28.0	15.3	1.71e-05	0	44	102	1048576	11	4539
2026-01-06 01:55:01.31	177.06	12.04	-26.2	-28.1	14.9	1.25e-05	0	44	102	1048576	12	4453
2026-01-06 01:55:04.33	177.23	11.76	-26.0	-27.6	15.2	1.10e-06	0	44	102	1048576	12	4319
2026-01-06 01:55:07.35	177.40	11.49	-26.0	-27.7	15.1	0.00e+00	0	44	102	1048576	12	4337
2026-01-06 01:55:10.37	177.56	11.23	-26.1	-27.9	15.0	0.00e+00	0	44	102	1048576	12	4399
2026-01-06 01:55:13.39	177.72	10.96	-25.9	-27.4	15.2	0.00e+00	0	44	102	1048576	12	4269
2026-01-06 01:55:16.40	177.88	10.70	-26.0	-27.7	15.1	0.00e+00	0	44	102	1048576	12	4340
2026-01-06 01:55:19.42	178.03	10.44	-26.1	-27.8	15.0	1.10e-06	0	44	102	1048576	12	4369
2026-01-06 01:55:22.44	178.19	10.18	-26.1	-27.8	14.9	4.22e-04	0	44	102	1048576	12	4378
2026-01-06 01:55:25.46	178.34	9.93	-26.3	-28.3	14.7	1.10e-06	0	44	102	1048576	12	4522
2026-01-06 01:55:28.48	178.48	9.68	-26.5	-28.7	14.1	3.68e-04	0	44	102	1048576	12	4629
2026-01-06 01:55:31.50	178.63	9.43	-26.5	-28.2	14.4	2.78e-04	0	44	102	1048576	13	4392
2026-01-06 01:55:34.52	178.77	9.18	-26.4	-28.5	14.5	3.43e-04	0	44	102	1048576	12	4595
2026-01-06 01:55:37.54	178.91	8.93	-26.3	-28.3	14.6	1.15e-03	0	44	102	1048576	12	4526
2026-01-06 01:55:40.56	179.05	8.69	-26.6	-28.4	14.3	2.85e-04	0	44	102	1048576	13	4428
2026-01-06 01:55:43.58	179.19	8.45	-26.6	-28.4	14.2	2.23e-04	0	44	102	1048576	13	4454
2026-01-06 01:55:46.59	179.32	8.21	-26.4	-28.6	14.4	8.71e-04	0	44	102	1048576	12	4602
2026-01-06 01:55:49.62	179.46	7.98	-26.5	-28.3	14.3	1.04e-03	0	44	102	1048576	13	4398
2026-01-06 01:55:52.63	179.59	7.74	-26.5	-28.3	14.2	2.79e-04	0	44	102	1048576	13	4414
2026-01-06 01:55:55.65	179.71	7.51	-26.7	-28.6	14.0	8.77e-04	0	44	102	1048576	13	4501
2026-01-06 01:55:58.66	179.84	7.28	-26.7	-28.6	14.0	9.06e-04	0	44	102	1048576	13	4507
2026-01-06 01:56:01.69	179.97	7.05	-32.7	-43.9	3.8	8.46e-01	0	44	104	1048576	25	13014
2026-01-06 01:56:04.69	180.09	6.83	-33.2	-44.5	3.8	8.47e-01	0	44	104	1048576	26	13240

#Closed at: 2026-01-06 01:56:04
#Recorded file [1 MB]: D:/data/31010_260106_044445.dat