passes_logs/2026/01/06/R2M6_AANII_01/R2M6_AANII_01__20260106_085703_SUOMI_NPP_rec.log

#Pass ID: 20260106_085703_SUOMI NPP
#Satellite: SUOMI NPP
#Configuration: NPP
#almurnet v.1.7.20240730
#Start time: 2026-01-06 08:57:04

#Version: 2.2.20231116
#Station: R2M6_AANII_01
#Location: 30.233357 lon 59.946436 lat
#TLE: 1 37849U 11061A   26004.95404768  .00000136  00000+0  85334-4 0  9991
#TLE: 2 37849  98.7801 307.0898 0002575  80.6707 279.4760 14.19522289735281

#Time	Az	El	Level	Level2	SNR	BER	BlckErr	Temp	State	Recorded	gain1	gain2
2026-01-06 08:57:04.50	115.62	7.09	-31.8	-37.2	4.6	1.34e+00	0	40	0	0	24	6764
2026-01-06 08:57:07.50	115.41	7.30	-31.7	-36.7	6.7	1.75e-01	0	41	102	1048576	24	6429
2026-01-06 08:57:10.53	115.19	7.52	-31.6	-36.0	7.2	1.72e-01	0	41	102	1048576	24	6020
2026-01-06 08:57:13.55	114.97	7.73	-31.2	-34.8	8.7	4.95e-02	0	41	102	1048576	23	5423
2026-01-06 08:57:16.57	114.75	7.95	-31.0	-33.8	9.5	1.64e-02	0	41	102	1048576	23	4986
2026-01-06 08:57:19.57	114.52	8.17	-31.0	-33.7	9.7	1.25e-02	0	41	102	1048576	23	4943
2026-01-06 08:57:22.59	114.29	8.39	-30.7	-33.3	10.4	4.14e-03	0	41	102	1048576	22	4831
2026-01-06 08:57:25.61	114.05	8.61	-30.8	-33.4	10.3	6.38e-03	0	41	102	1048576	22	4901
2026-01-06 08:57:28.64	113.81	8.83	-30.7	-33.1	10.6	3.95e-03	0	41	102	1048576	22	4766
2026-01-06 08:57:31.65	113.57	9.05	-30.4	-32.2	11.2	1.59e-03	0	41	102	1048576	22	4436
2026-01-06 08:57:34.66	113.33	9.28	-30.6	-32.7	10.9	1.91e-03	0	42	102	1048576	22	4584
2026-01-06 08:57:37.67	113.08	9.51	-30.7	-33.1	10.7	3.17e-03	0	42	102	1048576	22	4742
2026-01-06 08:57:40.69	112.82	9.73	-30.5	-32.3	11.3	2.08e-03	0	42	102	1048576	22	4429
2026-01-06 08:57:43.72	112.56	9.96	-30.6	-32.6	11.1	8.38e-04	0	42	102	1048576	22	4553
2026-01-06 08:57:46.73	112.30	10.20	-30.7	-32.9	10.8	1.72e-03	0	42	102	1048576	22	4674
2026-01-06 08:57:49.75	112.04	10.43	-30.5	-32.3	11.3	2.62e-03	0	42	102	1048576	22	4460
2026-01-06 08:57:52.77	111.76	10.66	-30.4	-32.0	11.6	7.57e-04	0	42	102	1048576	22	4320
2026-01-06 08:57:55.79	111.49	10.90	-30.5	-32.2	11.4	7.19e-04	0	42	102	1048576	22	4413
2026-01-06 08:57:58.81	111.21	11.14	-30.5	-32.4	11.3	1.05e-03	0	42	102	1048576	22	4452
2026-01-06 08:58:01.84	110.92	11.38	-30.2	-32.0	12.0	4.59e-04	0	42	102	1048576	21	4418
2026-01-06 08:58:04.85	110.63	11.62	-30.4	-32.4	11.7	5.68e-04	0	42	102	1048576	21	4565
2026-01-06 08:58:07.88	110.34	11.86	-30.2	-32.0	12.1	3.56e-04	0	42	102	1048576	21	4390
2026-01-06 08:58:10.89	110.04	12.11	-30.3	-32.2	11.9	3.58e-04	0	42	102	1048576	21	4470
2026-01-06 08:58:13.91	109.73	12.35	-30.3	-32.1	12.0	4.37e-04	0	42	102	1048576	21	4435
2026-01-06 08:58:16.94	109.42	12.60	-30.4	-32.3	11.9	3.52e-04	0	42	102	1048576	21	4492
2026-01-06 08:58:19.95	109.11	12.85	-30.4	-32.3	11.9	2.67e-04	0	43	102	1048576	21	4493
2026-01-06 08:58:22.96	108.79	13.10	-30.4	-32.5	11.8	5.10e-04	0	42	102	1048576	21	4549
2026-01-06 08:58:25.97	108.46	13.35	-30.4	-32.4	11.9	3.83e-04	0	42	102	1048576	21	4516
2026-01-06 08:58:28.98	108.13	13.61	-30.4	-32.4	11.9	6.73e-04	0	42	102	1048576	21	4519
2026-01-06 08:58:31.99	107.79	13.86	-30.5	-32.6	11.7	4.99e-04	0	42	102	1048576	21	4600
2026-01-06 08:58:35.02	107.45	14.12	-30.4	-32.4	11.9	3.31e-04	0	42	102	1048576	21	4513
2026-01-06 08:58:38.03	107.10	14.38	-30.3	-32.1	12.2	2.35e-04	0	43	102	1048576	21	4423
2026-01-06 08:58:41.05	106.74	14.64	-30.7	-33.2	11.4	7.19e-04	0	43	102	1048576	21	4793
2026-01-06 08:58:44.06	106.38	14.91	-30.1	-31.5	12.7	9.53e-05	0	43	102	1048576	21	4204
2026-01-06 08:58:47.08	106.01	15.17	-30.0	-31.6	12.9	4.73e-05	0	43	102	1048576	20	4334
2026-01-06 08:58:50.08	105.63	15.44	-30.2	-32.3	12.4	1.17e-04	0	43	102	1048576	20	4565
2026-01-06 08:58:53.10	105.25	15.70	-29.8	-31.2	13.2	9.38e-05	0	43	102	1048576	20	4210
2026-01-06 08:58:56.12	104.86	15.97	-30.4	-32.9	12.1	1.08e-04	0	43	102	1048576	20	4771
2026-01-06 08:58:59.14	104.46	16.25	-30.8	-33.4	11.4	9.67e-04	0	43	102	1048576	21	4868
2026-01-06 08:59:02.16	104.05	16.52	-30.5	-32.5	12.1	2.36e-04	0	43	102	1048576	21	4551
2026-01-06 08:59:05.19	103.64	16.79	-30.9	-33.8	11.2	1.23e-03	0	43	102	1048576	21	5017
2026-01-06 08:59:08.20	103.22	17.07	-30.9	-33.7	11.2	1.59e-03	0	43	102	1048576	21	4980
2026-01-06 08:59:11.22	102.79	17.35	-30.8	-33.4	11.5	7.31e-04	0	43	102	1048576	21	4862
2026-01-06 08:59:14.23	102.35	17.63	-30.8	-33.3	11.6	6.01e-04	0	43	102	1048576	21	4804
2026-01-06 08:59:17.26	101.91	17.91	-30.7	-33.0	11.8	4.32e-04	0	43	102	1048576	21	4702
2026-01-06 08:59:20.27	101.45	18.19	-30.2	-31.7	12.7	9.68e-05	0	43	102	1048576	21	4276
2026-01-06 08:59:23.29	100.99	18.47	-30.8	-33.3	11.6	5.22e-04	0	43	102	1048576	21	4802
2026-01-06 08:59:26.31	100.52	18.76	-30.1	-31.3	13.0	4.50e-05	0	43	102	1048576	21	4120
2026-01-06 08:59:29.33	100.04	19.04	-30.0	-31.7	13.0	2.13e-05	0	43	102	1048576	20	4357
2026-01-06 08:59:32.35	99.55	19.33	-30.1	-32.0	12.8	3.96e-05	0	43	102	1048576	20	4478
2026-01-06 08:59:35.35	99.05	19.62	-30.2	-32.3	12.6	6.86e-05	0	43	102	1048576	20	4570
2026-01-06 08:59:38.37	98.55	19.90	-30.0	-31.6	13.1	3.89e-05	0	43	102	1048576	20	4340
2026-01-06 08:59:41.39	98.03	20.19	-29.8	-31.1	13.4	1.52e-05	0	43	102	1048576	20	4194
2026-01-06 08:59:44.40	97.50	20.48	-29.6	-30.7	13.7	5.30e-06	0	43	102	1048576	20	4065
2026-01-06 08:59:47.41	96.96	20.77	-29.5	-30.3	14.0	4.50e-06	0	43	102	1048576	20	3942
2026-01-06 08:59:50.44	96.41	21.07	-29.9	-31.2	13.4	1.37e-05	0	43	102	1048576	20	4222
2026-01-06 08:59:53.46	95.85	21.36	-30.3	-32.4	12.6	7.40e-05	0	43	102	1048576	20	4607
2026-01-06 08:59:56.47	95.28	21.65	-30.2	-32.0	12.9	8.31e-05	0	43	102	1048576	20	4453
2026-01-06 08:59:59.48	94.70	21.95	-29.9	-31.3	13.5	1.83e-05	0	43	102	1048576	20	4219
2026-01-06 09:00:02.50	94.11	22.24	-29.9	-31.2	13.4	1.22e-05	0	43	102	1048576	20	4200
2026-01-06 09:00:05.52	93.51	22.53	-30.0	-31.6	13.3	9.10e-06	0	43	102	1048576	20	4318
2026-01-06 09:00:08.54	92.89	22.83	-30.3	-32.4	12.8	4.57e-05	0	43	102	1048576	20	4570
2026-01-06 09:00:11.56	92.26	23.12	-30.2	-32.0	13.0	5.26e-05	0	43	102	1048576	20	4445
2026-01-06 09:00:14.58	91.63	23.41	-30.2	-32.2	12.9	3.81e-05	0	43	102	1048576	20	4500
2026-01-06 09:00:17.60	90.97	23.70	-30.4	-32.7	12.6	7.85e-05	0	43	102	1048576	20	4690
2026-01-06 09:00:20.62	90.31	24.00	-30.6	-32.8	12.2	3.41e-04	0	43	102	1048576	21	4606
2026-01-06 09:00:23.64	89.63	24.29	-29.9	-30.8	13.5	2.51e-05	0	43	102	1048576	21	3965
2026-01-06 09:00:26.66	88.94	24.58	-29.7	-30.7	13.9	7.00e-07	0	43	102	1048576	20	4039
2026-01-06 09:00:29.69	88.24	24.86	-29.6	-30.3	14.1	2.20e-06	0	43	102	1048576	20	3938
2026-01-06 09:00:32.70	87.53	25.15	-29.3	-30.1	14.7	0.00e+00	0	43	102	1048576	19	3948
2026-01-06 09:00:35.72	86.80	25.43	-29.6	-30.8	14.2	7.00e-07	0	43	102	1048576	19	4160
2026-01-06 09:00:38.73	86.06	25.71	-29.7	-31.1	14.0	3.80e-06	0	43	102	1048576	19	4253
2026-01-06 09:00:41.75	85.31	25.99	-29.9	-31.3	13.5	1.44e-05	0	43	102	1048576	20	4237
2026-01-06 09:00:44.78	84.54	26.27	-29.9	-31.3	13.5	1.60e-05	0	43	102	1048576	20	4237
2026-01-06 09:00:47.81	83.75	26.55	-29.8	-31.0	13.7	3.80e-06	0	43	102	1048576	20	4132
2026-01-06 09:00:50.82	82.96	26.82	-30.0	-31.4	13.5	1.06e-05	0	43	102	1048576	20	4250
2026-01-06 09:00:53.84	82.15	27.08	-30.1	-31.7	13.3	2.36e-05	0	43	102	1048576	20	4347
2026-01-06 09:00:56.86	81.33	27.35	-30.0	-31.4	13.5	9.10e-06	0	43	102	1048576	20	4254
2026-01-06 09:00:59.87	80.50	27.60	-30.0	-31.4	13.5	3.00e-06	0	43	102	1048576	20	4243
2026-01-06 09:01:02.89	79.65	27.86	-30.3	-32.4	12.9	4.11e-05	0	43	102	1048576	20	4584
2026-01-06 09:01:05.91	78.78	28.11	-30.5	-32.5	12.5	7.93e-05	0	43	102	1048576	21	4517
2026-01-06 09:01:08.93	77.91	28.35	-30.6	-32.7	12.5	9.91e-05	0	43	102	1048576	21	4568
2026-01-06 09:01:11.95	77.02	28.59	-30.6	-32.7	12.4	1.20e-04	0	43	102	1048576	21	4570
2026-01-06 09:01:14.97	76.11	28.83	-30.4	-32.0	12.8	4.88e-05	0	43	102	1048576	21	4343
2026-01-06 09:01:17.99	75.20	29.05	-30.3	-31.9	12.9	4.34e-05	0	43	102	1048576	21	4331
2026-01-06 09:01:21.01	74.27	29.27	-30.7	-33.1	12.1	3.36e-04	0	43	102	1048576	21	4730
2026-01-06 09:01:24.02	73.33	29.49	-30.4	-32.1	12.7	3.58e-05	0	43	102	1048576	21	4389
2026-01-06 09:01:27.05	72.37	29.69	-30.2	-31.6	13.1	2.51e-05	0	43	102	1048576	21	4225
2026-01-06 09:01:30.06	71.41	29.89	-30.2	-31.5	13.1	2.74e-05	0	43	102	1048576	21	4191
2026-01-06 09:01:33.08	70.43	30.08	-30.0	-30.9	13.6	9.90e-06	0	43	102	1048576	21	4010
2026-01-06 09:01:36.10	69.44	30.26	-30.6	-32.8	12.3	9.07e-05	0	43	102	1048576	21	4610
2026-01-06 09:01:39.12	68.44	30.44	-30.3	-31.9	12.9	1.01e-04	0	43	102	1048576	21	4325
2026-01-06 09:01:42.14	67.43	30.60	-30.3	-31.7	13.1	3.50e-05	0	43	102	1048576	21	4231
2026-01-06 09:01:45.16	66.41	30.76	-29.6	-30.3	14.3	2.20e-06	0	43	102	1048576	20	3902
2026-01-06 09:01:48.17	65.38	30.91	-30.0	-31.4	13.6	7.60e-06	0	43	102	1048576	20	4248
2026-01-06 09:01:51.19	64.34	31.04	-31.0	-33.9	11.6	2.78e-04	0	43	102	1048576	21	5025
2026-01-06 09:01:54.21	63.30	31.17	-31.0	-33.5	11.6	1.17e-03	0	43	102	1048576	22	4796
2026-01-06 09:01:57.24	62.24	31.29	-31.1	-33.6	11.4	8.52e-04	0	43	102	1048576	22	4814
2026-01-06 09:02:00.26	61.17	31.39	-31.1	-33.7	11.4	1.34e-03	0	43	102	1048576	22	4850
2026-01-06 09:02:03.28	60.10	31.49	-30.8	-32.5	12.3	2.37e-04	0	43	102	1048576	22	4412
2026-01-06 09:02:06.30	59.03	31.57	-30.8	-32.7	12.2	1.41e-04	0	43	102	1048576	22	4486
2026-01-06 09:02:09.31	57.95	31.64	-30.8	-32.7	12.0	5.15e-04	0	43	102	1048576	22	4484
2026-01-06 09:02:12.34	56.86	31.70	-30.6	-32.1	12.5	1.24e-04	0	43	102	1048576	22	4289
2026-01-06 09:02:15.36	55.77	31.75	-30.9	-33.0	11.9	6.57e-04	0	43	102	1048576	22	4594
2026-01-06 09:02:18.37	54.69	31.79	-30.6	-32.0	12.6	1.56e-04	0	43	102	1048576	22	4237
2026-01-06 09:02:21.38	53.60	31.81	-31.0	-33.2	11.8	5.54e-04	0	43	102	1048576	22	4644
2026-01-06 09:02:24.41	52.50	31.83	-30.9	-33.1	11.9	6.30e-04	0	43	102	1048576	22	4616
2026-01-06 09:02:27.42	51.41	31.83	-30.5	-31.9	12.7	1.04e-04	0	43	102	1048576	22	4190
2026-01-06 09:02:30.45	50.31	31.82	-30.8	-32.5	12.3	2.62e-04	0	43	102	1048576	22	4397
2026-01-06 09:02:33.46	49.22	31.80	-31.5	-34.7	10.9	2.03e-03	0	43	102	1048576	22	5199
2026-01-06 09:02:36.48	48.13	31.77	-31.4	-33.9	11.0	1.94e-03	0	43	102	1048576	23	4803
2026-01-06 09:02:39.50	47.04	31.72	-31.3	-33.6	11.2	1.78e-03	0	43	102	1048576	23	4705
2026-01-06 09:02:42.51	45.95	31.67	-30.8	-32.7	12.2	3.90e-04	0	43	102	1048576	22	4452
2026-01-06 09:02:45.53	44.87	31.60	-30.3	-31.3	13.1	8.62e-05	0	43	102	1048576	22	4016
2026-01-06 09:02:48.54	43.80	31.52	-30.7	-32.9	12.3	1.14e-04	0	43	102	1048576	21	4625
2026-01-06 09:02:51.56	42.73	31.43	-30.7	-32.9	12.3	3.17e-04	0	43	102	1048576	21	4648
2026-01-06 09:02:54.59	41.66	31.33	-30.3	-31.8	12.9	4.04e-05	0	43	102	1048576	21	4283
2026-01-06 09:02:57.61	40.60	31.22	-30.6	-32.7	12.4	1.71e-04	0	43	102	1048576	21	4574
2026-01-06 09:03:00.63	39.55	31.09	-30.6	-32.5	12.5	1.14e-04	0	43	102	1048576	21	4505
2026-01-06 09:03:03.65	38.51	30.96	-31.2	-34.0	11.2	5.97e-04	0	43	102	1048576	22	4957
2026-01-06 09:03:06.68	37.48	30.82	-30.3	-31.4	12.9	6.86e-05	0	43	102	1048576	22	4072
2026-01-06 09:03:09.69	36.46	30.67	-30.2	-31.4	13.2	2.82e-05	0	43	102	1048576	21	4150
2026-01-06 09:03:12.72	35.44	30.51	-30.0	-30.9	13.5	1.29e-05	0	43	102	1048576	21	3992
2026-01-06 09:03:15.74	34.44	30.33	-30.3	-31.7	13.0	2.67e-05	0	43	102	1048576	21	4243
2026-01-06 09:03:18.77	33.44	30.16	-31.0	-33.3	11.7	8.32e-04	0	43	102	1048576	22	4706
2026-01-06 09:03:21.78	32.47	29.97	-31.0	-33.4	11.6	5.27e-04	0	43	102	1048576	22	4716
2026-01-06 09:03:24.80	31.50	29.77	-31.6	-35.0	10.1	1.16e-02	0	43	102	1048576	23	5285
2026-01-06 09:03:27.82	30.54	29.57	-31.2	-33.6	11.0	2.40e-03	0	43	102	1048576	23	4713
2026-01-06 09:03:30.84	29.60	29.36	-31.4	-34.2	10.6	2.71e-03	0	43	102	1048576	23	4953
2026-01-06 09:03:33.87	28.66	29.14	-31.4	-34.2	10.5	4.42e-03	0	43	102	1048576	23	4976
2026-01-06 09:03:36.89	27.74	28.92	-30.2	-31.6	13.1	7.78e-05	0	43	102	1048576	21	4208
2026-01-06 09:03:39.91	26.84	28.69	-29.3	-30.1	14.7	0.00e+00	0	43	102	1048576	19	3953
2026-01-06 09:03:42.93	25.95	28.45	-29.6	-31.0	14.2	7.00e-07	0	43	102	1048576	19	4196
2026-01-06 09:03:45.94	25.07	28.21	-30.7	-33.1	12.1	3.20e-05	0	43	102	1048576	21	4721
2026-01-06 09:03:48.96	24.20	27.96	-30.3	-31.7	13.0	2.62e-04	0	43	102	1048576	21	4247
2026-01-06 09:03:51.97	23.36	27.71	-30.6	-32.8	12.2	2.82e-05	0	43	102	1048576	21	4639
2026-01-06 09:03:54.99	22.52	27.46	-31.7	-35.3	9.7	1.16e-02	0	43	102	1048576	23	5452
2026-01-06 09:03:58.01	21.69	27.19	-31.2	-33.5	11.1	2.12e-03	0	43	102	1048576	23	4691
2026-01-06 09:04:01.03	20.88	26.93	-30.6	-32.1	12.5	1.46e-04	0	43	102	1048576	22	4268
2026-01-06 09:04:04.05	20.08	26.66	-30.6	-32.1	12.4	1.32e-04	0	43	102	1048576	22	4282
2026-01-06 09:04:07.07	19.30	26.39	-30.4	-31.9	12.8	4.73e-05	0	43	102	1048576	21	4311
2026-01-06 09:04:10.08	18.53	26.12	-29.6	-30.5	14.1	7.00e-07	0	43	102	1048576	20	3960
2026-01-06 09:04:13.09	17.78	25.84	-29.6	-30.6	14.0	3.00e-06	0	43	102	1048576	20	4001
2026-01-06 09:04:16.11	17.03	25.56	-30.1	-31.7	13.3	1.44e-05	0	43	102	1048576	20	4339
2026-01-06 09:04:19.14	16.30	25.28	-29.7	-30.8	13.9	8.30e-06	0	43	102	1048576	20	4058
2026-01-06 09:04:22.15	15.59	24.99	-29.7	-30.6	14.0	3.80e-06	0	43	102	1048576	20	4014
2026-01-06 09:04:25.18	14.88	24.71	-29.6	-30.4	14.1	5.30e-06	0	43	102	1048576	20	3938
2026-01-06 09:04:28.20	14.19	24.42	-29.2	-29.8	14.8	0.00e+00	0	43	102	1048576	19	3867
2026-01-06 09:04:31.22	13.51	24.13	-28.3	-28.2	16.1	0.00e+00	0	43	102	1048576	18	3539
2026-01-06 09:04:34.23	12.85	23.84	-28.4	-28.8	15.9	0.00e+00	0	43	102	1048576	17	3785
2026-01-06 09:04:37.26	12.19	23.55	-29.4	-30.4	14.4	1.50e-06	0	43	102	1048576	19	4029
2026-01-06 09:04:40.27	11.55	23.26	-29.0	-29.3	15.1	7.00e-07	0	43	102	1048576	19	3737
2026-01-06 09:04:43.28	10.92	22.97	-29.1	-29.5	15.0	0.00e+00	0	43	102	1048576	19	3782
2026-01-06 09:04:46.30	10.31	22.68	-29.2	-29.9	14.7	0.00e+00	0	43	102	1048576	19	3909
2026-01-06 09:04:49.32	9.70	22.38	-29.6	-30.9	14.0	3.00e-06	0	43	102	1048576	19	4198
2026-01-06 09:04:52.33	9.11	22.09	-29.4	-30.5	14.3	0.00e+00	0	43	102	1048576	19	4058
2026-01-06 09:04:55.35	8.53	21.80	-29.2	-30.0	14.6	0.00e+00	0	43	102	1048576	19	3911
2026-01-06 09:04:58.37	7.95	21.51	-29.7	-31.1	13.9	0.00e+00	0	43	102	1048576	19	4247
2026-01-06 09:05:01.39	7.39	21.22	-30.3	-32.3	12.8	3.73e-05	0	43	102	1048576	20	4524
2026-01-06 09:05:04.41	6.84	20.92	-29.9	-30.7	13.4	1.52e-05	0	43	102	1048576	21	3969
2026-01-06 09:05:07.42	6.30	20.63	-29.8	-30.4	13.6	8.30e-06	0	43	102	1048576	21	3861
2026-01-06 09:05:10.44	5.77	20.34	-29.3	-30.2	14.4	1.50e-06	0	43	102	1048576	19	3980
2026-01-06 09:05:13.45	5.26	20.06	-29.6	-30.9	14.0	7.00e-07	0	43	102	1048576	19	4178
2026-01-06 09:05:16.47	4.75	19.77	-30.3	-32.3	12.7	8.39e-05	0	43	102	1048576	20	4557
2026-01-06 09:05:19.49	4.25	19.48	-30.2	-32.2	12.7	8.31e-05	0	43	102	1048576	20	4523
2026-01-06 09:05:22.50	3.76	19.20	-29.9	-31.4	13.3	1.98e-05	0	43	102	1048576	20	4255
2026-01-06 09:05:25.51	3.28	18.91	-29.9	-31.4	13.2	9.90e-06	0	43	102	1048576	20	4262
2026-01-06 09:05:28.52	2.81	18.63	-30.2	-32.2	12.6	7.09e-05	0	43	102	1048576	20	4529
2026-01-06 09:05:31.53	2.35	18.35	-30.0	-31.5	13.1	3.58e-05	0	43	102	1048576	20	4282
2026-01-06 09:05:34.55	1.89	18.07	-29.5	-30.3	13.9	4.50e-06	0	43	102	1048576	20	3937
2026-01-06 09:05:37.58	1.44	17.78	-29.3	-29.8	14.2	7.00e-07	0	43	102	1048576	20	3802
2026-01-06 09:05:40.60	1.00	17.51	-29.6	-30.5	13.7	4.50e-06	0	43	102	1048576	20	4009
2026-01-06 09:05:43.62	0.58	17.23	-30.0	-31.5	13.0	1.22e-05	0	44	102	1048576	20	4285
2026-01-06 09:05:46.65	0.15	16.95	-30.0	-31.5	13.1	2.51e-05	0	43	102	1048576	20	4286
2026-01-06 09:05:49.67	359.74	16.68	-29.5	-30.3	13.8	3.80e-06	0	43	102	1048576	20	3950
2026-01-06 09:05:52.69	359.33	16.40	-29.7	-30.8	13.5	3.80e-06	0	43	102	1048576	20	4091
2026-01-06 09:05:55.71	358.93	16.13	-30.5	-32.6	11.9	2.99e-04	0	43	102	1048576	21	4591
2026-01-06 09:05:58.73	358.54	15.86	-31.3	-34.8	9.9	5.67e-03	0	43	102	1048576	22	5362
2026-01-06 09:06:01.75	358.16	15.60	-31.0	-33.5	10.9	3.24e-03	0	43	102	1048576	22	4837
2026-01-06 09:06:04.76	357.78	15.33	-30.7	-32.6	11.6	7.01e-04	0	43	102	1048576	22	4502
2026-01-06 09:06:07.77	357.41	15.07	-30.5	-32.2	11.9	2.63e-04	0	43	102	1048576	22	4347
2026-01-06 09:06:10.79	357.05	14.80	-30.8	-33.0	11.3	4.32e-04	0	43	102	1048576	22	4618
2026-01-06 09:06:13.79	356.69	14.54	-31.1	-34.0	10.5	4.07e-03	0	43	102	1048576	22	5033
2026-01-06 09:06:16.81	356.34	14.28	-30.8	-33.1	11.1	1.61e-03	0	43	102	1048576	22	4679
2026-01-06 09:06:19.82	356.00	14.03	-30.6	-32.5	11.6	7.88e-04	0	43	102	1048576	22	4475
2026-01-06 09:06:22.84	355.66	13.77	-30.6	-32.5	11.5	5.39e-04	0	43	102	1048576	22	4486
2026-01-06 09:06:25.85	355.33	13.52	-30.4	-31.9	12.0	3.65e-04	0	43	102	1048576	22	4266
2026-01-06 09:06:28.87	355.00	13.26	-30.5	-32.1	11.9	4.66e-04	0	43	102	1048576	22	4328
2026-01-06 09:06:31.90	354.68	13.01	-30.5	-32.3	11.6	6.35e-04	0	43	102	1048576	22	4433
2026-01-06 09:06:34.91	354.37	12.76	-30.6	-32.4	11.5	6.45e-04	0	43	102	1048576	22	4439
2026-01-06 09:06:37.93	354.06	12.52	-30.5	-32.3	11.6	6.87e-04	0	43	102	1048576	22	4411
2026-01-06 09:06:40.96	353.75	12.27	-30.2	-31.8	12.2	2.61e-04	0	43	102	1048576	21	4344
2026-01-06 09:06:43.99	353.45	12.02	-29.8	-30.8	12.9	7.47e-05	0	43	102	1048576	21	4014
2026-01-06 09:06:47.01	353.16	11.78	-29.6	-30.8	13.2	2.97e-05	0	43	102	1048576	20	4099
2026-01-06 09:06:50.02	352.87	11.54	-29.9	-31.6	12.7	8.62e-05	0	43	102	1048576	20	4352
2026-01-06 09:06:53.05	352.58	11.30	-30.5	-33.2	11.5	5.42e-04	0	43	102	1048576	20	4938
2026-01-06 09:06:56.07	352.30	11.06	-31.0	-34.3	10.4	4.82e-03	0	43	102	1048576	21	5296
2026-01-06 09:06:59.10	352.03	10.83	-31.2	-34.8	9.6	1.35e-02	0	43	102	1048576	22	5438
2026-01-06 09:07:02.13	351.76	10.59	-31.3	-35.1	9.4	1.70e-02	0	43	102	1048576	22	5545
2026-01-06 09:07:05.15	351.49	10.36	-31.2	-34.7	9.6	1.61e-02	0	43	102	1048576	22	5409
2026-01-06 09:07:08.17	351.23	10.12	-31.1	-34.4	9.8	1.28e-02	0	43	102	1048576	22	5275
2026-01-06 09:07:11.19	350.97	9.89	-30.9	-33.9	10.1	6.76e-03	0	43	102	1048576	22	5047
2026-01-06 09:07:14.21	350.72	9.67	-30.8	-33.4	10.5	7.60e-03	0	43	102	1048576	22	4858
2026-01-06 09:07:17.23	350.47	9.44	-30.4	-32.2	11.3	1.19e-03	0	43	102	1048576	22	4429
2026-01-06 09:07:20.25	350.23	9.21	-30.3	-31.9	11.6	7.85e-04	0	43	102	1048576	22	4304
2026-01-06 09:07:23.28	349.98	8.99	-30.3	-32.5	11.4	1.05e-03	0	43	102	1048576	21	4608
2026-01-06 09:07:26.30	349.75	8.77	-30.3	-32.5	11.3	1.39e-03	0	43	102	1048576	21	4631
2026-01-06 09:07:29.32	349.51	8.55	-30.7	-33.5	10.6	3.31e-03	0	43	102	1048576	21	5015
2026-01-06 09:07:32.34	349.28	8.33	-30.9	-34.3	10.0	7.35e-03	0	43	102	1048576	21	5357
2026-01-06 09:07:35.36	349.06	8.11	-31.1	-34.5	9.5	1.17e-02	0	43	102	1048576	22	5328
2026-01-06 09:07:38.37	348.83	7.89	-31.1	-34.6	9.3	1.92e-02	0	43	102	1048576	22	5409
2026-01-06 09:07:41.39	348.62	7.68	-31.1	-34.7	9.2	1.94e-02	0	43	102	1048576	22	5467
2026-01-06 09:07:44.39	348.40	7.47	-31.1	-34.8	9.2	2.15e-02	0	43	102	1048576	22	5498
2026-01-06 09:07:47.42	348.19	7.25	-31.0	-34.4	9.4	2.43e-02	0	43	102	1048576	22	5329
2026-01-06 09:07:50.43	347.98	7.04	-32.3	-39.5	5.7	2.87e-02	0	43	102	1048576	24	8235
2026-01-06 09:07:53.46	347.77	6.83	-33.6	-45.8	3.8	1.49e+00	0	43	104	1048576	27	14693

#Closed at: 2026-01-06 09:07:53
#Recorded file [1 MB]: D:/data/31010_260106_115706.dat