passes_logs/2026/01/06/R2M6_AANII_01/R2M6_AANII_01__20260106_001357_NOAA_21_JPSS-2_rec.log

#Pass ID: 20260106_001357_NOAA 21 (JPSS-2)
#Satellite: NOAA 21 (JPSS-2)
#Configuration: NOAA 21
#almurnet v.1.7.20240730
#Start time: 2026-01-06 00:13:57

#Version: 2.2.20231116
#Station: R2M6_AANII_01
#Location: 30.233357 lon 59.946436 lat
#TLE: 1 54234U 22150A   26005.21525222  .00000150  00000+0  91957-4 0  9992
#TLE: 2 54234  98.7490 306.2339 0001053 341.6032  18.5106 14.19532220163427

#Time	Az	El	Level	Level2	SNR	BER	BlckErr	Temp	State	Recorded	gain1	gain2
2026-01-06 00:13:57.04	18.65	6.96	-30.5	-35.7	4.5	1.42e+00	0	41	0	0	21	6541
2026-01-06 00:14:00.06	18.68	7.19	-30.2	-34.5	8.7	3.81e-02	0	41	102	1048576	20	5875
2026-01-06 00:14:03.08	18.71	7.42	-30.3	-34.8	8.5	4.47e-02	0	41	102	1048576	20	6012
2026-01-06 00:14:06.11	18.74	7.66	-30.1	-34.0	9.0	2.92e-02	0	41	102	1048576	20	5658
2026-01-06 00:14:09.12	18.77	7.90	-30.5	-35.2	8.2	4.97e-02	0	42	102	1048576	20	6235
2026-01-06 00:14:12.15	18.80	8.14	-30.3	-34.6	8.7	3.23e-02	0	42	102	1048576	20	5913
2026-01-06 00:14:15.17	18.83	8.38	-30.3	-34.5	8.8	3.02e-02	0	42	102	1048576	20	5870
2026-01-06 00:14:18.19	18.86	8.63	-29.9	-33.3	9.7	1.62e-02	0	42	102	1048576	20	5315
2026-01-06 00:14:21.21	18.89	8.87	-28.8	-31.8	11.8	5.77e-04	0	42	102	1048576	17	5060
2026-01-06 00:14:24.22	18.92	9.12	-28.0	-30.2	13.1	3.12e-05	0	42	102	1048576	16	4617
2026-01-06 00:14:27.24	18.95	9.38	-27.7	-30.1	13.3	1.37e-05	0	42	102	1048576	15	4708
2026-01-06 00:14:30.26	18.99	9.63	-27.6	-29.8	13.5	1.06e-05	0	42	102	1048576	15	4625
2026-01-06 00:14:33.28	19.02	9.89	-27.8	-30.2	13.3	9.90e-06	0	42	102	1048576	15	4757
2026-01-06 00:14:36.29	19.05	10.15	-27.7	-29.9	13.5	9.10e-06	0	42	102	1048576	15	4659
2026-01-06 00:14:39.31	19.08	10.41	-27.8	-30.3	13.3	9.10e-06	0	42	102	1048576	15	4774
2026-01-06 00:14:42.33	19.12	10.68	-27.4	-29.3	13.9	8.30e-06	0	42	102	1048576	15	4483
2026-01-06 00:14:45.35	19.15	10.95	-27.4	-29.3	13.8	4.50e-06	0	42	102	1048576	15	4506
2026-01-06 00:14:48.37	19.19	11.22	-27.4	-29.8	13.0	3.80e-06	0	43	102	1048576	14	4721
2026-01-06 00:14:51.39	19.22	11.50	-27.4	-29.7	13.6	2.20e-06	0	42	102	1048576	14	4701
2026-01-06 00:14:54.41	19.26	11.78	-27.3	-29.5	14.1	2.20e-06	0	43	102	1048576	14	4642
2026-01-06 00:14:57.43	19.29	12.06	-27.1	-29.1	14.4	0.00e+00	0	42	102	1048576	14	4513
2026-01-06 00:15:00.45	19.33	12.34	-27.2	-29.1	14.4	1.50e-06	0	43	102	1048576	14	4527
2026-01-06 00:15:03.47	19.36	12.63	-27.0	-28.7	14.6	9.66e-04	0	43	102	1048576	14	4389
2026-01-06 00:15:06.49	19.40	12.92	-26.9	-29.0	14.7	1.50e-06	0	43	102	1048576	13	4606
2026-01-06 00:15:09.51	19.44	13.22	-26.7	-28.7	14.9	7.99e-04	0	43	102	1048576	13	4503
2026-01-06 00:15:12.53	19.48	13.52	-27.0	-29.2	14.7	0.00e+00	0	43	102	1048576	13	4639
2026-01-06 00:15:15.54	19.51	13.82	-27.0	-28.8	14.6	9.54e-04	0	43	102	1048576	14	4418
2026-01-06 00:15:18.56	19.55	14.13	-26.9	-29.0	14.8	3.80e-03	0	43	102	1048576	13	4600
2026-01-06 00:15:21.57	19.59	14.44	-26.7	-28.7	15.0	4.40e-03	0	43	102	1048576	13	4493
2026-01-06 00:15:24.59	19.63	14.75	-27.1	-29.0	14.5	8.20e-04	0	43	102	1048576	14	4482
2026-01-06 00:15:27.61	19.67	15.07	-27.2	-29.3	14.4	4.62e-03	0	43	102	1048576	14	4574
2026-01-06 00:15:30.63	19.71	15.39	-27.6	-29.6	13.9	4.47e-03	0	43	102	1048576	15	4549
2026-01-06 00:15:33.65	19.76	15.72	-27.4	-29.7	14.2	3.46e-03	0	43	102	1048576	14	4672
2026-01-06 00:15:36.67	19.80	16.05	-27.6	-29.7	13.9	3.80e-06	0	43	102	1048576	15	4559
2026-01-06 00:15:39.68	19.84	16.39	-27.6	-29.5	14.0	3.54e-03	0	43	102	1048576	15	4522
2026-01-06 00:15:42.71	19.89	16.73	-27.8	-30.1	13.7	6.80e-06	0	43	102	1048576	15	4702
2026-01-06 00:15:45.72	19.93	17.07	-27.3	-29.4	14.4	1.50e-06	0	43	102	1048576	14	4604
2026-01-06 00:15:48.74	19.98	17.42	-27.6	-29.7	14.0	1.50e-06	0	43	102	1048576	15	4562
2026-01-06 00:15:51.76	20.02	17.78	-27.4	-29.6	14.3	1.50e-06	0	43	102	1048576	14	4633
2026-01-06 00:15:54.78	20.07	18.14	-27.4	-29.2	14.3	7.00e-07	0	43	102	1048576	15	4400
2026-01-06 00:15:57.80	20.12	18.51	-27.0	-28.8	14.8	0.00e+00	0	43	102	1048576	14	4409
2026-01-06 00:16:00.83	20.17	18.88	-27.1	-29.0	14.7	0.00e+00	0	43	102	1048576	14	4469
2026-01-06 00:16:03.85	20.21	19.26	-27.2	-29.1	14.7	0.00e+00	0	43	102	1048576	14	4492
2026-01-06 00:16:06.87	20.27	19.64	-27.0	-28.6	15.0	0.00e+00	0	43	102	1048576	14	4356
2026-01-06 00:16:09.88	20.32	20.03	-27.2	-29.3	14.6	0.00e+00	0	43	102	1048576	14	4537
2026-01-06 00:16:12.90	20.37	20.43	-26.6	-28.2	15.4	0.00e+00	0	43	102	1048576	13	4358
2026-01-06 00:16:15.92	20.42	20.83	-26.5	-28.1	15.5	0.00e+00	0	43	102	1048576	13	4321
2026-01-06 00:16:18.95	20.48	21.24	-26.6	-28.2	15.5	0.00e+00	0	43	102	1048576	13	4332
2026-01-06 00:16:21.96	20.53	21.65	-26.4	-27.9	15.7	0.00e+00	0	43	102	1048576	13	4253
2026-01-06 00:16:24.98	20.59	22.08	-26.1	-27.6	16.1	0.00e+00	0	43	102	1048576	12	4292
2026-01-06 00:16:28.00	20.65	22.51	-26.1	-27.6	16.1	0.00e+00	0	43	102	1048576	12	4300
2026-01-06 00:16:31.03	20.71	22.94	-25.9	-27.2	16.3	0.00e+00	0	43	102	1048576	12	4200
2026-01-06 00:16:34.05	20.77	23.39	-26.0	-27.3	16.3	1.06e-05	0	43	102	1048576	12	4213
2026-01-06 00:16:37.08	20.83	23.84	-25.8	-27.1	16.5	0.00e+00	0	43	102	1048576	12	4139
2026-01-06 00:16:40.09	20.89	24.30	-25.8	-27.4	16.6	0.00e+00	0	43	102	1048576	11	4344
2026-01-06 00:16:43.12	20.96	24.77	-25.8	-27.5	16.5	0.00e+00	0	43	102	1048576	11	4380
2026-01-06 00:16:46.14	21.03	25.25	-26.0	-27.5	16.3	0.00e+00	0	43	102	1048576	12	4247
2026-01-06 00:16:49.16	21.09	25.73	-26.2	-27.8	16.1	0.00e+00	0	43	102	1048576	12	4330
2026-01-06 00:16:52.17	21.16	26.23	-26.4	-28.4	15.8	0.00e+00	0	43	102	1048576	12	4495
2026-01-06 00:16:55.19	21.24	26.73	-26.6	-28.1	15.7	0.00e+00	0	43	102	1048576	13	4316
2026-01-06 00:16:58.20	21.31	27.24	-26.7	-28.5	15.5	0.00e+00	0	43	102	1048576	13	4407
2026-01-06 00:17:01.22	21.39	27.76	-26.9	-28.8	15.3	0.00e+00	0	43	102	1048576	13	4517
2026-01-06 00:17:04.24	21.46	28.30	-27.0	-29.0	15.2	0.00e+00	0	43	102	1048576	13	4576
2026-01-06 00:17:07.26	21.54	28.84	-26.9	-28.4	15.3	0.00e+00	0	43	102	1048576	14	4283
2026-01-06 00:17:10.28	21.63	29.40	-27.0	-28.5	15.3	0.00e+00	0	43	102	1048576	14	4318
2026-01-06 00:17:13.28	21.71	29.96	-26.7	-28.5	15.5	0.00e+00	0	43	102	1048576	13	4414
2026-01-06 00:17:16.31	21.80	30.54	-26.5	-27.9	15.9	0.00e+00	0	43	102	1048576	13	4256
2026-01-06 00:17:19.32	21.89	31.12	-26.3	-28.0	16.1	0.00e+00	0	43	102	1048576	12	4395
2026-01-06 00:17:22.33	21.98	31.72	-26.3	-28.0	16.1	0.00e+00	0	44	102	1048576	12	4382
2026-01-06 00:17:25.35	22.08	32.34	-26.4	-28.3	16.0	0.00e+00	0	43	102	1048576	12	4476
2026-01-06 00:17:28.37	22.18	32.96	-26.6	-28.3	15.7	0.00e+00	0	43	102	1048576	13	4354
2026-01-06 00:17:31.40	22.28	33.60	-26.8	-28.7	15.5	0.00e+00	0	43	102	1048576	13	4468
2026-01-06 00:17:34.42	22.39	34.26	-27.3	-29.4	14.9	0.00e+00	0	44	102	1048576	14	4556
2026-01-06 00:17:37.44	22.50	34.92	-27.7	-29.7	14.4	7.00e-07	0	43	102	1048576	15	4544
2026-01-06 00:17:40.45	22.62	35.60	-27.8	-30.0	14.3	7.00e-07	0	43	102	1048576	15	4626
2026-01-06 00:17:43.47	22.74	36.30	-27.8	-30.0	14.3	2.20e-06	0	43	102	1048576	15	4624
2026-01-06 00:17:46.49	22.86	37.01	-28.3	-30.5	13.9	2.20e-06	0	44	102	1048576	16	4654
2026-01-06 00:17:49.50	22.99	37.73	-28.4	-30.9	13.7	8.30e-06	0	43	102	1048576	16	4770
2026-01-06 00:17:52.52	23.13	38.48	-28.4	-30.8	13.7	5.30e-06	0	44	102	1048576	16	4755
2026-01-06 00:17:55.55	23.27	39.24	-28.2	-30.2	14.1	1.50e-06	0	44	102	1048576	16	4560
2026-01-06 00:17:58.57	23.42	40.02	-28.3	-30.6	13.8	6.10e-06	0	44	102	1048576	16	4714
2026-01-06 00:18:01.59	23.57	40.81	-28.5	-30.4	13.5	2.20e-06	0	43	102	1048576	17	4523
2026-01-06 00:18:04.60	23.73	41.62	-28.9	-31.6	13.0	4.19e-05	0	44	102	1048576	17	4884
2026-01-06 00:18:07.62	23.90	42.45	-29.3	-32.1	12.3	1.57e-04	0	43	102	1048576	18	4958
2026-01-06 00:18:10.64	24.08	43.30	-29.5	-32.4	12.2	1.94e-04	0	44	102	1048576	18	5050
2026-01-06 00:18:13.65	24.26	44.16	-29.9	-33.0	11.5	5.13e-04	0	44	102	1048576	19	5142
2026-01-06 00:18:16.67	24.46	45.05	-29.7	-32.2	11.7	8.41e-04	0	43	102	1048576	20	4777
2026-01-06 00:18:19.69	24.66	45.96	-29.5	-31.5	12.1	2.82e-04	0	43	102	1048576	20	4552
2026-01-06 00:18:22.70	24.88	46.88	-29.7	-31.9	11.9	6.88e-04	0	43	102	1048576	20	4685
2026-01-06 00:18:25.72	25.11	47.83	-29.0	-30.8	13.0	5.63e-04	0	43	102	1048576	19	4420
2026-01-06 00:18:28.74	25.36	48.80	-28.8	-30.7	13.4	5.19e-04	0	43	102	1048576	18	4476
2026-01-06 00:18:31.76	25.62	49.79	-28.2	-29.7	14.2	0.00e+00	0	44	102	1048576	17	4295
2026-01-06 00:18:34.78	25.90	50.80	-28.2	-30.3	14.1	4.55e-04	0	44	102	1048576	16	4579
2026-01-06 00:18:37.80	26.19	51.84	-28.0	-29.9	14.4	7.00e-07	0	44	102	1048576	16	4451
2026-01-06 00:18:40.83	26.51	52.89	-27.8	-29.3	14.8	7.00e-07	0	44	102	1048576	16	4279
2026-01-06 00:18:43.85	26.85	53.97	-27.6	-28.9	15.0	0.00e+00	0	43	102	1048576	16	4183
2026-01-06 00:18:46.87	27.22	55.07	-27.0	-28.1	15.6	0.00e+00	0	43	102	1048576	15	4067
2026-01-06 00:18:49.89	27.61	56.20	-27.1	-28.3	15.5	0.00e+00	0	43	102	1048576	15	4135
2026-01-06 00:18:52.91	28.04	57.34	-27.0	-28.0	15.6	7.55e-05	0	44	102	1048576	15	4058
2026-01-06 00:18:55.94	28.51	58.51	-26.2	-27.2	16.6	0.00e+00	0	44	102	1048576	13	4052
2026-01-06 00:18:58.95	29.01	59.69	-26.3	-27.4	16.5	0.00e+00	0	44	102	1048576	13	4102
2026-01-06 00:19:01.96	29.56	60.90	-25.7	-26.7	17.2	0.00e+00	0	43	102	1048576	12	4028
2026-01-06 00:19:04.99	30.17	62.13	-25.5	-26.2	17.5	0.00e+00	0	43	102	1048576	12	3899
2026-01-06 00:19:08.01	30.85	63.38	-25.3	-25.8	17.7	0.00e+00	0	43	102	1048576	12	3805
2026-01-06 00:19:11.04	31.60	64.66	-25.4	-26.4	17.7	0.00e+00	0	43	102	1048576	11	4058
2026-01-06 00:19:14.05	32.43	65.94	-25.6	-26.8	17.5	0.00e+00	0	43	102	1048576	11	4162
2026-01-06 00:19:17.07	33.37	67.24	-25.5	-26.8	17.5	0.00e+00	0	44	102	1048576	11	4144
2026-01-06 00:19:20.08	34.43	68.55	-25.7	-27.1	17.4	0.00e+00	0	43	102	1048576	11	4235
2026-01-06 00:19:23.10	35.65	69.88	-25.7	-27.1	17.4	0.00e+00	0	44	102	1048576	11	4224
2026-01-06 00:19:26.12	37.05	71.22	-25.1	-25.9	17.9	0.00e+00	0	44	102	1048576	11	3930
2026-01-06 00:19:29.15	38.68	72.56	-25.3	-26.1	17.9	2.94e-04	0	43	102	1048576	11	3990
2026-01-06 00:19:32.16	40.58	73.90	-25.3	-26.2	17.8	0.00e+00	0	44	102	1048576	11	3990
2026-01-06 00:19:35.17	42.85	75.24	-25.6	-26.8	17.6	0.00e+00	0	43	102	1048576	11	4149
2026-01-06 00:19:38.19	45.59	76.56	-25.9	-27.6	17.1	7.00e-07	0	44	102	1048576	11	4376
2026-01-06 00:19:41.21	48.94	77.86	-26.2	-27.8	16.7	0.00e+00	0	43	102	1048576	12	4299
2026-01-06 00:19:44.23	53.10	79.12	-25.5	-26.7	17.7	5.63e-04	0	43	102	1048576	11	4120
2026-01-06 00:19:47.25	58.34	80.32	-25.6	-26.8	17.6	1.82e-03	0	43	102	1048576	11	4156
2026-01-06 00:19:50.26	64.99	81.42	-25.6	-26.4	17.5	0.00e+00	0	43	102	1048576	12	3950
2026-01-06 00:19:53.28	73.51	82.38	-26.2	-27.6	16.8	5.64e-04	0	43	102	1048576	12	4262
2026-01-06 00:19:56.30	84.20	83.14	-26.7	-28.3	16.3	5.73e-04	0	44	102	1048576	13	4324
2026-01-06 00:19:59.31	96.94	83.60	-27.2	-28.9	15.8	0.00e+00	0	44	102	1048576	14	4379
2026-01-06 00:20:02.33	110.94	83.72	-28.3	-30.3	14.6	1.64e-04	0	44	102	1048576	16	4551
2026-01-06 00:20:05.35	124.63	83.46	-29.6	-32.1	12.6	8.16e-05	0	44	102	1048576	19	4783
2026-01-06 00:20:08.37	136.66	82.87	-30.5	-33.5	11.0	3.51e-03	0	43	102	1048576	21	5060
2026-01-06 00:20:11.39	146.48	82.03	-29.3	-30.9	13.0	3.60e-04	0	44	102	1048576	20	4291
2026-01-06 00:20:14.40	154.22	81.01	-29.6	-32.2	12.6	3.43e-05	0	44	102	1048576	19	4806
2026-01-06 00:20:17.42	160.29	79.86	-29.7	-31.8	12.5	1.84e-04	0	43	102	1048576	20	4577
2026-01-06 00:20:20.44	165.07	78.63	-27.3	-28.2	15.7	0.00e+00	0	44	102	1048576	16	3957
2026-01-06 00:20:23.45	168.88	77.36	-26.3	-27.4	16.8	0.00e+00	0	44	102	1048576	13	4074
2026-01-06 00:20:26.46	171.97	76.05	-26.3	-27.4	16.7	3.66e-05	0	44	102	1048576	13	4079
2026-01-06 00:20:29.48	174.51	74.72	-27.3	-28.6	15.5	4.50e-06	0	43	102	1048576	15	4193
2026-01-06 00:20:32.50	176.64	73.37	-26.0	-26.8	17.0	7.60e-06	0	43	102	1048576	13	3928
2026-01-06 00:20:35.53	178.44	72.02	-26.3	-27.9	16.7	0.00e+00	0	44	102	1048576	12	4343
2026-01-06 00:20:38.54	179.96	70.68	-25.2	-26.1	18.0	1.50e-06	0	44	102	1048576	11	3967
2026-01-06 00:20:41.56	181.29	69.35	-26.0	-27.4	17.0	0.00e+00	0	43	102	1048576	12	4191
2026-01-06 00:20:44.58	182.44	68.02	-26.0	-27.4	17.0	0.00e+00	0	44	102	1048576	12	4195
2026-01-06 00:20:47.60	183.45	66.71	-25.7	-26.6	17.2	0.00e+00	0	44	102	1048576	12	3996
2026-01-06 00:20:50.62	184.35	65.41	-26.0	-27.3	17.0	0.00e+00	0	44	102	1048576	12	4165
2026-01-06 00:20:53.64	185.15	64.12	-25.4	-26.0	17.6	0.00e+00	0	44	102	1048576	12	3862
2026-01-06 00:20:56.66	185.87	62.86	-25.9	-27.4	17.2	0.00e+00	0	43	102	1048576	11	4314
2026-01-06 00:20:59.68	186.51	61.61	-26.7	-27.7	16.2	0.00e+00	0	44	102	1048576	14	4073
2026-01-06 00:21:02.70	187.10	60.39	-25.5	-26.2	17.5	0.00e+00	0	43	102	1048576	12	3893
2026-01-06 00:21:05.72	187.64	59.19	-26.7	-28.4	16.1	0.00e+00	0	43	102	1048576	13	4362
2026-01-06 00:21:08.74	188.13	58.00	-27.5	-29.3	15.1	0.00e+00	0	43	102	1048576	15	4385
2026-01-06 00:21:11.76	188.57	56.84	-26.3	-27.4	16.7	0.00e+00	0	44	102	1048576	13	4091
2026-01-06 00:21:14.77	188.99	55.70	-28.2	-30.2	14.4	0.00e+00	0	44	102	1048576	16	4545
2026-01-06 00:21:17.79	189.37	54.59	-27.8	-29.3	14.9	0.00e+00	0	44	102	1048576	16	4286
2026-01-06 00:21:20.81	189.72	53.49	-27.6	-28.9	15.1	0.00e+00	0	43	102	1048576	16	4170
2026-01-06 00:21:23.84	190.06	52.42	-28.1	-29.9	14.6	0.00e+00	0	44	102	1048576	16	4444
2026-01-06 00:21:26.87	190.36	51.36	-28.9	-31.3	13.5	1.52e-05	0	44	102	1048576	17	4756
2026-01-06 00:21:29.88	190.65	50.34	-29.2	-31.5	13.0	3.73e-05	0	44	102	1048576	18	4723
2026-01-06 00:21:32.90	190.92	49.33	-29.2	-31.5	13.0	2.28e-05	0	44	102	1048576	18	4723
2026-01-06 00:21:35.92	191.18	48.34	-28.5	-30.0	13.9	6.10e-06	0	44	102	1048576	18	4252
2026-01-06 00:21:38.94	191.41	47.38	-29.6	-32.3	12.2	1.48e-04	0	44	102	1048576	19	4884
2026-01-06 00:21:41.96	191.64	46.44	-29.5	-31.9	12.4	1.75e-04	0	43	102	1048576	19	4759
2026-01-06 00:21:44.98	191.85	45.51	-29.4	-32.1	12.6	7.01e-05	0	44	102	1048576	18	4907
2026-01-06 00:21:48.00	192.06	44.61	-29.9	-33.0	11.7	5.00e-04	0	44	102	1048576	19	5143
2026-01-06 00:21:51.02	192.25	43.73	-29.8	-32.2	11.8	5.14e-04	0	44	102	1048576	20	4762
2026-01-06 00:21:54.03	192.43	42.87	-28.6	-30.2	13.7	6.10e-06	0	44	102	1048576	18	4330
2026-01-06 00:21:57.06	192.60	42.02	-29.4	-31.6	12.4	2.00e-04	0	44	102	1048576	19	4668
2026-01-06 00:22:00.08	192.77	41.20	-29.2	-31.6	12.8	5.41e-05	0	44	102	1048576	18	4775
2026-01-06 00:22:03.10	192.92	40.39	-29.1	-31.5	13.0	5.49e-05	0	44	102	1048576	18	4720
2026-01-06 00:22:06.12	193.07	39.60	-29.0	-31.3	13.0	3.12e-05	0	44	102	1048576	18	4662
2026-01-06 00:22:09.14	193.22	38.83	-28.6	-30.1	13.7	6.10e-06	0	44	102	1048576	18	4301
2026-01-06 00:22:12.16	193.35	38.07	-28.3	-29.9	14.1	3.00e-06	0	44	102	1048576	17	4353
2026-01-06 00:22:15.17	193.49	37.34	-28.0	-29.8	14.5	0.00e+00	0	44	102	1048576	16	4414
2026-01-06 00:22:18.19	193.61	36.61	-28.3	-30.6	14.0	2.20e-06	0	43	102	1048576	16	4656
2026-01-06 00:22:21.21	193.73	35.90	-27.2	-28.8	14.1	0.00e+00	0	44	102	1048576	17	4303
2026-01-06 00:22:24.23	193.85	35.21	-28.3	-30.5	13.6	2.20e-06	0	43	102	1048576	16	4655
2026-01-06 00:22:27.25	193.96	34.53	-28.5	-31.0	13.8	4.50e-06	0	44	102	1048576	16	4788
2026-01-06 00:22:30.26	194.07	33.87	-28.2	-30.3	14.1	1.50e-06	0	44	102	1048576	16	4574
2026-01-06 00:22:33.28	194.17	33.22	-27.4	-29.0	15.0	2.57e-03	0	44	102	1048576	15	4320
2026-01-06 00:22:36.30	194.28	32.59	-27.3	-29.3	15.1	0.00e+00	0	44	102	1048576	14	4505
2026-01-06 00:22:39.33	194.37	31.96	-27.4	-29.1	14.9	3.49e-03	0	44	102	1048576	15	4337
2026-01-06 00:22:42.35	194.47	31.35	-27.2	-29.1	15.2	5.65e-04	0	44	102	1048576	14	4450
2026-01-06 00:22:45.36	194.56	30.76	-27.5	-29.2	14.8	3.35e-03	0	44	102	1048576	15	4396
2026-01-06 00:22:48.38	194.65	30.17	-27.3	-29.3	15.1	3.85e-03	0	44	102	1048576	14	4521
2026-01-06 00:22:51.39	194.73	29.60	-27.5	-29.1	14.9	3.70e-03	0	44	102	1048576	15	4362
2026-01-06 00:22:54.41	194.81	29.04	-27.3	-29.4	15.0	3.48e-03	0	44	102	1048576	14	4539
2026-01-06 00:22:57.43	194.90	28.48	-26.9	-28.3	15.6	0.00e+00	0	44	102	1048576	14	4226
2026-01-06 00:23:00.44	194.97	27.94	-26.7	-28.3	15.8	3.73e-03	0	44	102	1048576	13	4346
2026-01-06 00:23:03.47	195.05	27.41	-26.3	-28.0	16.3	0.00e+00	0	44	102	1048576	12	4366
2026-01-06 00:23:06.48	195.12	26.89	-25.5	-27.1	16.2	3.86e-03	0	44	102	1048576	12	4355
2026-01-06 00:23:09.50	195.19	26.38	-26.4	-28.1	16.2	0.00e+00	0	44	102	1048576	12	4413
2026-01-06 00:23:12.52	195.26	25.88	-26.5	-28.0	16.0	6.00e-04	0	44	102	1048576	13	4270
2026-01-06 00:23:15.54	195.33	25.39	-27.0	-28.6	15.4	0.00e+00	0	44	102	1048576	14	4333
2026-01-06 00:23:18.56	195.40	24.90	-27.3	-29.3	15.0	5.93e-04	0	44	102	1048576	14	4536
2026-01-06 00:23:21.58	195.46	24.43	-27.1	-28.8	15.2	6.74e-04	0	44	102	1048576	14	4395
2026-01-06 00:23:24.59	195.53	23.96	-26.7	-28.5	15.7	0.00e+00	0	44	102	1048576	13	4400
2026-01-06 00:23:27.61	195.59	23.50	-26.5	-28.4	15.9	6.34e-04	0	43	102	1048576	12	4508
2026-01-06 00:23:30.63	195.65	23.05	-26.8	-28.6	15.6	6.00e-04	0	44	102	1048576	13	4429
2026-01-06 00:23:33.64	195.70	22.61	-26.8	-28.6	15.5	5.42e-04	0	44	102	1048576	13	4441
2026-01-06 00:23:36.66	195.76	22.18	-26.7	-28.5	15.6	0.00e+00	0	44	102	1048576	13	4425
2026-01-06 00:23:39.67	195.82	21.75	-26.5	-28.0	15.8	4.71e-04	0	44	102	1048576	13	4283
2026-01-06 00:23:42.69	195.87	21.33	-26.4	-28.4	15.9	0.00e+00	0	44	102	1048576	12	4498
2026-01-06 00:23:45.70	195.93	20.92	-26.6	-28.2	15.7	4.26e-04	0	44	102	1048576	13	4344
2026-01-06 00:23:48.72	195.98	20.51	-26.8	-28.7	15.5	7.60e-06	0	44	102	1048576	13	4478
2026-01-06 00:23:51.73	196.03	20.11	-27.2	-29.0	15.0	7.00e-07	0	44	102	1048576	14	4456
2026-01-06 00:23:54.75	196.08	19.72	-27.3	-29.2	14.9	1.37e-05	0	44	102	1048576	14	4521
2026-01-06 00:23:57.78	196.13	19.33	-27.3	-29.2	14.8	7.00e-07	0	44	102	1048576	14	4510
2026-01-06 00:24:00.80	196.18	18.95	-27.2	-28.6	14.9	4.50e-04	0	44	102	1048576	15	4234
2026-01-06 00:24:03.82	196.22	18.57	-27.3	-29.4	14.7	1.22e-05	0	44	102	1048576	14	4564
2026-01-06 00:24:06.84	196.27	18.20	-27.0	-28.7	15.1	4.34e-05	0	44	102	1048576	14	4364
2026-01-06 00:24:09.86	196.31	17.83	-27.1	-28.8	15.0	1.98e-05	0	44	102	1048576	14	4396
2026-01-06 00:24:12.88	196.36	17.47	-27.2	-29.0	14.9	4.65e-05	0	44	102	1048576	14	4463
2026-01-06 00:24:15.90	196.40	17.12	-27.2	-29.2	14.8	4.54e-04	0	44	102	1048576	14	4519
2026-01-06 00:24:18.92	196.45	16.77	-27.3	-29.3	14.7	1.31e-03	0	44	102	1048576	14	4530
2026-01-06 00:24:21.94	196.49	16.42	-27.3	-29.3	14.7	1.93e-03	0	44	102	1048576	14	4536
2026-01-06 00:24:24.96	196.53	16.08	-27.2	-29.2	14.7	0.00e+00	0	44	102	1048576	14	4516
2026-01-06 00:24:27.98	196.57	15.75	-27.4	-29.5	14.5	2.13e-03	0	44	102	1048576	14	4610
2026-01-06 00:24:30.99	196.61	15.42	-27.6	-29.6	14.2	2.20e-06	0	43	102	1048576	15	4511
2026-01-06 00:24:34.02	196.65	15.09	-27.8	-30.1	13.9	2.49e-03	0	44	102	1048576	15	4674
2026-01-06 00:24:37.04	196.69	14.77	-28.3	-30.6	13.5	9.90e-06	0	44	102	1048576	16	4704
2026-01-06 00:24:40.06	196.73	14.45	-27.7	-29.7	14.1	2.20e-06	0	44	102	1048576	15	4554
2026-01-06 00:24:43.07	196.76	14.14	-27.5	-29.4	14.3	0.00e+00	0	44	102	1048576	15	4456
2026-01-06 00:24:46.10	196.80	13.83	-27.6	-29.5	14.2	7.00e-07	0	44	102	1048576	15	4482
2026-01-06 00:24:49.12	196.84	13.52	-27.5	-29.3	14.3	1.50e-06	0	44	102	1048576	15	4430
2026-01-06 00:24:52.14	196.87	13.22	-27.7	-29.7	14.0	2.20e-06	0	44	102	1048576	15	4572
2026-01-06 00:24:55.16	196.91	12.92	-27.4	-29.5	14.4	1.50e-06	0	44	102	1048576	14	4613
2026-01-06 00:24:58.18	196.94	12.63	-27.5	-29.8	14.3	7.00e-07	0	44	102	1048576	14	4701
2026-01-06 00:25:01.20	196.98	12.33	-27.7	-29.8	13.9	2.20e-06	0	44	102	1048576	15	4603
2026-01-06 00:25:04.23	197.01	12.05	-27.5	-29.4	14.1	1.50e-06	0	44	102	1048576	15	4481
2026-01-06 00:25:07.25	197.04	11.76	-27.7	-29.9	13.8	4.50e-06	0	44	102	1048576	15	4629
2026-01-06 00:25:10.28	197.08	11.48	-27.7	-29.9	13.8	5.30e-06	0	44	102	1048576	15	4624
2026-01-06 00:25:13.30	197.11	11.20	-27.7	-29.7	13.9	3.80e-06	0	44	102	1048576	15	4579
2026-01-06 00:25:16.32	197.14	10.93	-27.9	-30.3	13.6	1.06e-05	0	44	102	1048576	15	4753
2026-01-06 00:25:19.35	197.17	10.65	-28.0	-30.0	13.6	6.10e-06	0	44	102	1048576	16	4524
2026-01-06 00:25:22.36	197.20	10.39	-27.7	-29.7	13.9	7.60e-06	0	44	102	1048576	15	4582
2026-01-06 00:25:25.38	197.23	10.12	-27.9	-30.3	13.5	1.37e-05	0	44	102	1048576	15	4769
2026-01-06 00:25:28.40	197.26	9.86	-27.8	-30.1	13.6	1.74e-04	0	43	102	1048576	15	4701
2026-01-06 00:25:31.42	197.29	9.60	-27.9	-30.4	13.4	7.60e-06	0	44	102	1048576	15	4784
2026-01-06 00:25:34.42	197.32	9.34	-27.9	-30.4	13.4	1.39e-04	0	44	102	1048576	15	4790
2026-01-06 00:25:37.43	197.35	9.09	-28.1	-30.4	13.2	2.51e-05	0	44	102	1048576	16	4670
2026-01-06 00:25:40.45	197.38	8.83	-28.4	-31.0	12.9	1.50e-04	0	44	102	1048576	16	4864
2026-01-06 00:25:43.47	197.41	8.58	-28.5	-30.9	12.5	1.01e-04	0	44	102	1048576	17	4746
2026-01-06 00:25:46.49	197.44	8.34	-28.5	-30.9	12.6	1.35e-04	0	44	102	1048576	17	4722
2026-01-06 00:25:49.51	197.47	8.09	-28.8	-31.5	12.1	2.53e-04	0	44	102	1048576	17	4956
2026-01-06 00:25:52.53	197.49	7.85	-29.0	-32.1	11.8	3.97e-04	0	44	102	1048576	17	5151
2026-01-06 00:25:55.54	197.52	7.61	-29.0	-32.1	11.8	4.94e-04	0	44	102	1048576	17	5147
2026-01-06 00:25:58.57	197.55	7.37	-29.3	-32.4	11.2	1.26e-03	0	44	102	1048576	18	5168
2026-01-06 00:26:01.58	197.57	7.13	-29.4	-32.7	11.0	1.66e-03	0	44	102	1048576	18	5270

#Closed at: 2026-01-06 00:26:04
#Recorded file [1 MB]: D:/data/31010_260106_031358.dat