passes_logs/2026/01/06/R2M6_AANII_01/R2M6_AANII_01__20260106_013331_AQUA_rec.log

#Pass ID: 20260106_013331_AQUA
#Satellite: AQUA
#Configuration: AQUA
#almurnet v.1.7.20240730
#Start time: 2026-01-06 01:33:30

#Version: 2.2.20231116
#Station: R2M6_AANII_01
#Location: 30.233357 lon 59.946436 lat
#TLE: 1 27424U 02022A   26004.96787593  .00001598  00000+0  32997-3 0  9996
#TLE: 2 27424  98.4069 331.2279 0002002  90.2377   0.6092 14.61798176259425

#Time	Az	El	Level	Level2	SNR	BER	BlckErr	Temp	State	Recorded	gain1	gain2
2026-01-06 01:33:30.95	20.94	6.96	-31.0	-37.0	5.1	7.11e-01	0	41	0	0	23	7165
2026-01-06 01:33:33.97	21.04	7.20	-31.0	-36.9	14.5	6.02e-01	0	41	102	524288	22	7051
2026-01-06 01:33:36.98	21.15	7.45	-31.2	-36.9	14.1	6.01e-01	0	41	102	524288	23	7000
2026-01-06 01:33:40.00	21.26	7.69	-29.7	-35.1	14.9	6.01e-01	0	41	102	524288	22	6684
2026-01-06 01:33:43.01	21.36	7.94	-30.4	-35.1	16.2	6.01e-01	0	41	102	524288	21	6180
2026-01-06 01:33:46.03	21.47	8.19	-30.2	-34.5	16.6	6.02e-01	0	41	102	524288	21	5896
2026-01-06 01:33:49.05	21.59	8.45	-29.9	-33.5	17.3	6.03e-01	0	42	102	524288	21	5455
2026-01-06 01:33:52.07	21.70	8.71	-30.2	-34.3	16.9	6.03e-01	0	41	102	524288	21	5800
2026-01-06 01:33:55.09	21.82	8.97	-30.0	-33.6	17.3	5.99e-01	0	42	102	524288	21	5500
2026-01-06 01:33:58.12	21.93	9.23	-29.6	-33.4	17.7	6.03e-01	0	42	102	524288	20	5527
2026-01-06 01:34:01.15	22.06	9.50	-29.9	-33.9	17.5	6.00e-01	0	41	102	524288	20	5714
2026-01-06 01:34:04.17	22.18	9.77	-30.0	-34.3	17.3	5.99e-01	0	42	102	524288	20	5862
2026-01-06 01:34:07.19	22.30	10.04	-30.0	-33.6	17.4	6.02e-01	0	42	102	524288	21	5456
2026-01-06 01:34:10.21	22.43	10.32	-30.0	-34.2	17.3	6.02e-01	0	42	102	524288	20	5846
2026-01-06 01:34:13.22	22.56	10.60	-29.9	-34.0	17.5	6.02e-01	0	42	102	524288	20	5768
2026-01-06 01:34:16.25	22.69	10.88	-29.9	-33.9	17.6	6.00e-01	0	42	102	524288	20	5693
2026-01-06 01:34:19.26	22.82	11.17	-29.8	-33.7	17.6	6.00e-01	0	42	102	524288	19	5684
2026-01-06 01:34:22.28	22.96	11.46	-29.6	-33.0	18.0	6.04e-01	0	42	102	524288	20	5341
2026-01-06 01:34:25.30	23.10	11.76	-29.7	-33.2	17.9	6.00e-01	0	42	102	524288	20	5371
2026-01-06 01:34:28.31	23.24	12.05	-29.9	-33.7	17.8	6.01e-01	0	42	102	524288	20	5614
2026-01-06 01:34:31.34	23.39	12.36	-29.9	-33.7	17.8	6.04e-01	0	42	102	524288	20	5607
2026-01-06 01:34:34.35	23.53	12.66	-29.9	-33.9	17.7	6.01e-01	0	42	102	524288	20	5655
2026-01-06 01:34:37.37	23.69	12.97	-29.5	-32.7	18.5	6.01e-01	0	42	102	524288	20	5173
2026-01-06 01:34:40.38	23.84	13.29	-29.5	-33.1	18.6	6.01e-01	0	42	102	524288	19	5438
2026-01-06 01:34:43.40	24.00	13.61	-29.3	-32.4	19.1	5.99e-01	0	42	102	524288	19	5173
2026-01-06 01:34:46.42	24.16	13.93	-29.3	-32.6	19.0	5.99e-01	0	42	102	524288	19	5241
2026-01-06 01:34:49.45	24.32	14.26	-29.4	-32.7	19.0	6.00e-01	0	42	102	524288	19	5271
2026-01-06 01:34:52.47	24.49	14.59	-29.2	-32.3	19.3	5.99e-01	0	42	102	524288	19	5118
2026-01-06 01:34:55.49	24.66	14.93	-29.2	-32.3	19.2	6.02e-01	0	42	102	524288	19	5143
2026-01-06 01:34:58.51	24.84	15.28	-29.2	-32.3	19.3	6.02e-01	0	42	102	524288	19	5115
2026-01-06 01:35:01.51	25.02	15.62	-29.3	-32.5	19.2	5.99e-01	0	43	102	524288	19	5198
2026-01-06 01:35:04.53	25.20	15.98	-29.5	-33.1	18.8	6.01e-01	0	42	102	524288	19	5419
2026-01-06 01:35:07.56	25.39	16.34	-29.6	-32.7	18.7	5.99e-01	0	43	102	524288	20	5165
2026-01-06 01:35:10.58	25.58	16.70	-29.3	-32.4	19.3	6.00e-01	0	43	102	524288	19	5145
2026-01-06 01:35:13.59	25.78	17.07	-29.5	-32.9	19.0	6.00e-01	0	43	102	524288	19	5343
2026-01-06 01:35:16.61	25.98	17.45	-29.5	-32.9	19.0	6.02e-01	0	43	102	524288	19	5326
2026-01-06 01:35:19.63	26.19	17.84	-29.4	-32.8	19.1	6.01e-01	0	43	102	524288	19	5283
2026-01-06 01:35:22.64	26.41	18.22	-29.4	-32.7	19.2	5.99e-01	0	43	102	524288	19	5243
2026-01-06 01:35:25.66	26.62	18.62	-29.2	-32.2	19.4	6.00e-01	0	43	102	524288	19	5067
2026-01-06 01:35:28.68	26.85	19.02	-29.1	-32.3	19.7	5.98e-01	0	43	102	524288	18	5226
2026-01-06 01:35:31.70	27.08	19.43	-29.2	-32.0	19.6	6.00e-01	0	43	102	524288	19	4986
2026-01-06 01:35:34.72	27.32	19.85	-29.2	-32.0	19.6	5.99e-01	0	43	102	524288	19	5006
2026-01-06 01:35:37.74	27.56	20.28	-29.2	-32.1	19.6	6.02e-01	0	43	102	524288	19	5018
2026-01-06 01:35:40.75	27.81	20.71	-29.3	-32.4	19.4	6.01e-01	0	43	102	524288	19	5140
2026-01-06 01:35:43.77	28.07	21.15	-29.4	-32.2	19.2	6.00e-01	0	43	102	524288	20	4942
2026-01-06 01:35:46.79	28.33	21.60	-29.4	-32.6	19.3	6.01e-01	0	43	102	524288	19	5183
2026-01-06 01:35:49.81	28.61	22.05	-30.0	-33.7	18.3	6.00e-01	0	43	102	524288	20	5515
2026-01-06 01:35:52.83	28.89	22.52	-29.5	-32.7	18.6	6.01e-01	0	43	102	524288	20	5216
2026-01-06 01:35:55.85	29.18	22.99	-29.7	-33.0	18.2	6.02e-01	0	43	102	524288	20	5253
2026-01-06 01:35:58.86	29.48	23.47	-29.4	-32.6	19.2	6.02e-01	0	43	102	524288	19	5201
2026-01-06 01:36:01.87	29.78	23.96	-29.2	-31.9	18.9	6.03e-01	0	43	102	524288	19	4945
2026-01-06 01:36:04.89	30.10	24.47	-29.5	-32.7	18.7	6.02e-01	0	43	102	524288	19	5228
2026-01-06 01:36:07.91	30.43	24.98	-29.2	-32.1	19.7	6.04e-01	0	43	102	524288	19	5036
2026-01-06 01:36:10.93	30.77	25.50	-29.4	-32.5	19.5	6.01e-01	0	43	102	524288	19	5158
2026-01-06 01:36:13.95	31.12	26.03	-29.3	-32.2	19.7	5.99e-01	0	43	102	524288	19	5032
2026-01-06 01:36:16.97	31.48	26.57	-29.3	-32.1	19.8	6.03e-01	0	43	102	524288	19	5001
2026-01-06 01:36:19.99	31.86	27.13	-29.1	-31.8	19.9	6.00e-01	0	43	102	524288	19	4895
2026-01-06 01:36:23.01	32.25	27.69	-29.2	-31.9	19.9	6.02e-01	0	43	102	524288	19	4927
2026-01-06 01:36:26.03	32.65	28.27	-29.1	-32.1	20.2	6.03e-01	0	43	102	524288	18	5107
2026-01-06 01:36:29.05	33.07	28.85	-29.1	-32.1	20.1	6.03e-01	0	43	102	524288	18	5111
2026-01-06 01:36:32.07	33.51	29.45	-29.0	-31.9	20.3	6.00e-01	0	43	102	524288	18	5023
2026-01-06 01:36:35.09	33.96	30.07	-29.0	-32.0	20.2	6.02e-01	0	43	102	524288	18	5063
2026-01-06 01:36:38.11	34.43	30.69	-29.0	-32.0	20.2	6.00e-01	0	43	102	524288	18	5078
2026-01-06 01:36:41.13	34.92	31.33	-29.0	-32.0	20.2	6.02e-01	0	43	102	524288	18	5075
2026-01-06 01:36:44.15	35.42	31.98	-29.3	-32.1	19.9	6.01e-01	0	43	102	524288	19	4999
2026-01-06 01:36:47.17	35.95	32.64	-29.6	-32.6	19.3	6.04e-01	0	43	102	524288	20	5061
2026-01-06 01:36:50.19	36.50	33.32	-29.9	-33.1	19.0	6.03e-01	0	43	102	524288	20	5258
2026-01-06 01:36:53.21	37.08	34.01	-29.9	-33.2	18.9	6.02e-01	0	43	102	524288	20	5266
2026-01-06 01:36:56.22	37.68	34.71	-29.5	-32.3	19.5	6.01e-01	0	43	102	524288	20	4953
2026-01-06 01:36:59.23	38.30	35.42	-29.8	-33.0	19.1	6.04e-01	0	43	102	524288	20	5228
2026-01-06 01:37:02.27	38.96	36.16	-29.9	-33.2	19.0	6.00e-01	0	43	102	524288	20	5282
2026-01-06 01:37:05.27	39.64	36.90	-30.1	-33.4	18.6	6.00e-01	0	43	102	524288	21	5219
2026-01-06 01:37:08.30	40.36	37.66	-30.3	-33.9	18.3	6.03e-01	0	43	102	524288	21	5420
2026-01-06 01:37:11.32	41.12	38.43	-30.1	-33.1	18.8	6.02e-01	0	43	102	524288	21	5130
2026-01-06 01:37:14.33	41.91	39.21	-30.0	-32.9	18.9	6.01e-01	0	43	102	524288	21	5035
2026-01-06 01:37:17.36	42.74	40.01	-29.9	-32.7	19.0	6.01e-01	0	43	102	524288	21	4974
2026-01-06 01:37:20.38	43.61	40.83	-29.8	-33.0	19.2	6.02e-01	0	43	102	524288	20	5193
2026-01-06 01:37:23.40	44.53	41.65	-29.8	-32.8	19.3	6.00e-01	0	43	102	524288	20	5097
2026-01-06 01:37:26.42	45.50	42.48	-30.0	-32.9	19.0	6.00e-01	0	43	102	524288	21	5045
2026-01-06 01:37:29.44	46.51	43.33	-29.4	-32.0	19.9	5.99e-01	0	43	102	524288	20	4813
2026-01-06 01:37:32.47	47.59	44.19	-29.1	-31.2	20.3	6.00e-01	0	43	102	524288	20	4572
2026-01-06 01:37:35.49	48.73	45.05	-28.7	-30.5	21.1	6.00e-01	0	43	102	524288	19	4458
2026-01-06 01:37:38.51	49.93	45.92	-28.6	-30.8	21.1	6.04e-01	0	43	102	524288	18	4664
2026-01-06 01:37:41.53	51.19	46.80	-28.7	-31.1	21.0	6.01e-01	0	43	102	524288	18	4742
2026-01-06 01:37:44.54	52.53	47.68	-28.7	-31.1	21.0	6.01e-01	0	43	102	524288	18	4737
2026-01-06 01:37:47.55	53.94	48.56	-29.0	-31.9	20.6	6.01e-01	0	43	102	524288	18	5012
2026-01-06 01:37:50.56	55.44	49.44	-28.9	-31.6	20.6	6.01e-01	0	43	102	524288	18	4920
2026-01-06 01:37:53.58	57.03	50.32	-29.0	-31.8	20.7	6.01e-01	0	43	102	524288	18	4964
2026-01-06 01:37:56.60	58.72	51.19	-28.8	-30.9	20.9	5.99e-01	0	43	102	524288	19	4553
2026-01-06 01:37:59.62	60.51	52.05	-28.9	-31.5	20.9	6.00e-01	0	43	102	524288	18	4869
2026-01-06 01:38:02.65	62.41	52.91	-28.5	-30.9	21.1	6.02e-01	0	43	102	524288	18	4736
2026-01-06 01:38:05.67	64.42	53.74	-29.1	-31.4	20.7	6.00e-01	0	43	102	524288	19	4726
2026-01-06 01:38:08.69	66.54	54.54	-29.2	-31.8	20.5	6.00e-01	0	43	102	524288	19	4839
2026-01-06 01:38:11.70	68.78	55.32	-29.4	-32.1	20.2	6.00e-01	0	43	102	524288	19	4961
2026-01-06 01:38:14.71	71.14	56.06	-29.6	-32.3	19.8	6.00e-01	0	43	102	524288	20	4894
2026-01-06 01:38:17.72	73.63	56.77	-29.9	-33.1	19.4	5.99e-01	0	43	102	524288	20	5185
2026-01-06 01:38:20.75	76.27	57.43	-30.1	-33.1	19.0	6.01e-01	0	43	102	524288	21	5096
2026-01-06 01:38:23.77	79.02	58.04	-30.5	-34.1	18.4	6.00e-01	0	43	102	524288	21	5471
2026-01-06 01:38:26.78	81.88	58.59	-30.5	-33.6	18.4	6.00e-01	0	43	102	524288	22	5168
2026-01-06 01:38:29.81	84.88	59.08	-30.6	-33.9	18.3	6.01e-01	0	43	102	524288	22	5287
2026-01-06 01:38:32.82	87.97	59.50	-30.5	-34.2	18.4	5.99e-01	0	43	102	524288	21	5490
2026-01-06 01:38:35.85	91.17	59.84	-30.7	-34.3	18.1	6.02e-01	0	43	102	524288	22	5409
2026-01-06 01:38:38.87	94.43	60.11	-30.9	-34.6	17.8	6.01e-01	0	43	102	524288	22	5555
2026-01-06 01:38:41.88	97.74	60.29	-30.7	-34.2	18.1	5.98e-01	0	43	102	524288	22	5363
2026-01-06 01:38:44.90	101.10	60.39	-30.8	-34.5	17.5	6.03e-01	0	43	102	524288	22	5496
2026-01-06 01:38:47.92	104.48	60.40	-30.8	-34.5	17.9	6.03e-01	0	43	102	524288	22	5518
2026-01-06 01:38:50.95	107.85	60.32	-30.7	-34.3	18.0	6.02e-01	0	43	102	524288	22	5417
2026-01-06 01:38:53.98	111.20	60.16	-31.0	-35.0	17.7	6.02e-01	0	43	102	524288	22	5712
2026-01-06 01:38:57.00	114.48	59.91	-30.5	-33.7	18.5	6.01e-01	0	43	102	524288	22	5172
2026-01-06 01:39:00.01	117.68	59.59	-30.3	-33.6	18.8	6.03e-01	0	43	102	524288	21	5246
2026-01-06 01:39:03.04	120.81	59.18	-30.6	-33.9	18.2	6.01e-01	0	43	102	524288	22	5279
2026-01-06 01:39:06.06	123.83	58.71	-30.8	-34.5	17.9	6.05e-01	0	43	102	524288	22	5515
2026-01-06 01:39:09.08	126.73	58.17	-30.6	-34.0	18.2	6.02e-01	0	43	102	524288	22	5307
2026-01-06 01:39:12.10	129.52	57.57	-30.2	-33.4	18.9	6.03e-01	0	43	102	524288	21	5195
2026-01-06 01:39:15.11	132.17	56.92	-30.2	-33.4	18.9	6.00e-01	0	43	102	524288	21	5206
2026-01-06 01:39:18.13	134.70	56.22	-30.3	-33.5	18.9	6.01e-01	0	43	102	524288	21	5225
2026-01-06 01:39:21.14	137.10	55.49	-30.4	-34.0	18.5	6.00e-01	0	43	102	524288	21	5425
2026-01-06 01:39:24.16	139.37	54.71	-30.1	-33.6	19.1	6.00e-01	0	43	102	524288	20	5371
2026-01-06 01:39:27.18	141.53	53.91	-29.9	-33.1	19.4	6.02e-01	0	43	102	524288	20	5196
2026-01-06 01:39:30.20	143.57	53.08	-30.2	-33.4	18.8	5.99e-01	0	43	102	524288	21	5206
2026-01-06 01:39:33.21	145.48	52.24	-30.0	-33.2	19.3	6.02e-01	0	43	102	524288	20	5257
2026-01-06 01:39:36.23	147.30	51.37	-30.6	-33.9	18.2	6.00e-01	0	43	102	524288	22	5262
2026-01-06 01:39:39.25	149.01	50.50	-30.1	-33.6	19.1	6.00e-01	0	43	102	524288	20	5371
2026-01-06 01:39:42.26	150.62	49.62	-30.2	-33.3	18.8	6.03e-01	0	43	102	524288	21	5159
2026-01-06 01:39:45.28	152.15	48.74	-30.1	-33.2	18.9	5.98e-01	0	43	102	524288	21	5135
2026-01-06 01:39:48.30	153.59	47.85	-30.2	-33.5	18.7	6.00e-01	0	43	102	524288	21	5236
2026-01-06 01:39:51.32	154.95	46.96	-30.1	-33.2	18.9	6.03e-01	0	43	102	524288	21	5135
2026-01-06 01:39:54.33	156.23	46.08	-30.1	-33.2	18.9	6.02e-01	0	43	102	524288	21	5129
2026-01-06 01:39:57.35	157.45	45.21	-29.7	-32.1	19.6	6.00e-01	0	43	102	524288	21	4749
2026-01-06 01:40:00.36	158.59	44.34	-30.0	-33.4	19.1	6.00e-01	0	43	102	524288	20	5321
2026-01-06 01:40:03.37	159.68	43.48	-29.9	-33.1	19.2	5.99e-01	0	43	102	524288	20	5231
2026-01-06 01:40:06.39	160.71	42.63	-29.8	-33.0	19.3	6.03e-01	0	43	102	524288	20	5173
2026-01-06 01:40:09.41	161.69	41.79	-30.1	-33.6	18.7	6.00e-01	0	43	102	524288	20	5428
2026-01-06 01:40:12.43	162.62	40.96	-30.7	-34.3	17.8	6.01e-01	0	43	102	524288	21	5465
2026-01-06 01:40:15.45	163.51	40.14	-30.0	-33.4	18.9	6.04e-01	0	43	102	524288	20	5350
2026-01-06 01:40:18.48	164.35	39.33	-30.0	-33.3	19.0	5.99e-01	0	43	102	524288	20	5308
2026-01-06 01:40:21.50	165.15	38.54	-30.0	-33.5	18.9	6.02e-01	0	43	102	524288	20	5384
2026-01-06 01:40:24.52	165.91	37.76	-30.3	-33.7	18.5	6.02e-01	0	43	102	524288	21	5316
2026-01-06 01:40:27.54	166.64	37.00	-30.0	-33.4	18.9	6.01e-01	0	43	102	524288	20	5348
2026-01-06 01:40:30.56	167.33	36.24	-29.8	-32.8	19.3	6.02e-01	0	43	102	524288	20	5110
2026-01-06 01:40:33.58	168.00	35.51	-29.5	-32.5	19.9	6.04e-01	0	43	102	524288	19	5117
2026-01-06 01:40:36.60	168.63	34.78	-29.1	-31.6	20.3	5.99e-01	0	43	102	524288	19	4816
2026-01-06 01:40:39.62	169.24	34.07	-29.0	-31.9	20.5	6.01e-01	0	43	102	524288	18	5018
2026-01-06 01:40:42.63	169.81	33.38	-29.2	-31.8	20.3	6.03e-01	0	43	102	524288	19	4863
2026-01-06 01:40:45.66	170.37	32.69	-28.8	-31.2	20.8	6.00e-01	0	43	102	524288	18	4797
2026-01-06 01:40:48.68	170.91	32.03	-28.8	-31.5	20.7	6.02e-01	0	43	102	524288	18	4881
2026-01-06 01:40:51.70	171.42	31.37	-28.8	-31.5	20.6	6.00e-01	0	43	102	524288	18	4890
2026-01-06 01:40:54.72	171.91	30.73	-28.7	-31.3	20.8	6.00e-01	0	43	102	524288	18	4808
2026-01-06 01:40:57.74	172.38	30.10	-29.0	-31.8	20.5	6.00e-01	0	43	102	524288	18	4984
2026-01-06 01:41:00.74	172.84	29.48	-29.1	-31.7	20.3	6.01e-01	0	43	102	524288	19	4839
2026-01-06 01:41:03.77	173.27	28.88	-29.2	-32.0	20.1	6.01e-01	0	43	102	524288	19	4949
2026-01-06 01:41:06.79	173.70	28.28	-29.2	-32.0	20.0	6.03e-01	0	43	102	524288	19	4958
2026-01-06 01:41:09.82	174.10	27.70	-29.2	-32.0	20.1	6.03e-01	0	43	102	524288	19	4957
2026-01-06 01:41:12.83	174.50	27.13	-29.5	-32.7	19.7	6.02e-01	0	43	102	524288	19	5205
2026-01-06 01:41:15.85	174.87	26.58	-29.2	-31.9	20.0	6.03e-01	0	43	102	524288	19	4927
2026-01-06 01:41:18.86	175.24	26.03	-29.4	-32.5	19.7	6.01e-01	0	43	102	524288	19	5138
2026-01-06 01:41:21.88	175.59	25.49	-29.6	-32.4	19.4	6.03e-01	0	43	102	524288	20	4981
2026-01-06 01:41:24.90	175.93	24.97	-29.7	-32.8	19.2	6.00e-01	0	43	102	524288	20	5135
2026-01-06 01:41:27.92	176.26	24.45	-30.0	-33.5	18.7	6.01e-01	0	43	102	524288	20	5407
2026-01-06 01:41:30.94	176.58	23.95	-29.7	-32.9	19.0	6.00e-01	0	43	102	524288	20	5168
2026-01-06 01:41:33.96	176.89	23.45	-29.7	-32.7	19.1	6.01e-01	0	43	102	524288	20	5106
2026-01-06 01:41:36.98	177.19	22.96	-29.8	-32.9	19.0	6.01e-01	0	43	102	524288	20	5196
2026-01-06 01:41:40.00	177.48	22.49	-29.5	-32.3	19.4	6.02e-01	0	43	102	524288	20	4965
2026-01-06 01:41:43.03	177.77	22.01	-29.5	-32.7	19.5	5.99e-01	0	43	102	524288	19	5207
2026-01-06 01:41:46.04	178.04	21.56	-29.5	-32.7	19.5	6.00e-01	0	43	102	524288	19	5210
2026-01-06 01:41:49.06	178.31	21.10	-29.3	-32.3	19.7	6.00e-01	0	43	102	524288	19	5083
2026-01-06 01:41:52.08	178.56	20.66	-29.2	-32.1	19.8	6.01e-01	0	43	102	524288	19	5005
2026-01-06 01:41:55.10	178.81	20.22	-29.4	-32.4	19.5	6.03e-01	0	43	102	524288	19	5119
2026-01-06 01:41:58.13	179.06	19.79	-29.2	-32.0	19.8	6.03e-01	0	43	102	524288	19	4969
2026-01-06 01:42:01.14	179.30	19.38	-29.2	-32.0	19.8	6.00e-01	0	43	102	524288	19	4998
2026-01-06 01:42:04.17	179.53	18.96	-29.2	-32.1	19.8	6.02e-01	0	43	102	524288	19	5033
2026-01-06 01:42:07.19	179.75	18.55	-29.3	-32.3	19.6	6.02e-01	0	43	102	524288	19	5106
2026-01-06 01:42:10.20	179.97	18.16	-29.4	-32.6	19.4	5.99e-01	0	43	102	524288	19	5217
2026-01-06 01:42:13.22	180.18	17.76	-29.3	-32.3	19.6	5.98e-01	0	43	102	524288	19	5102
2026-01-06 01:42:16.22	180.39	17.38	-29.2	-32.0	19.8	6.00e-01	0	43	102	524288	19	5001
2026-01-06 01:42:19.24	180.59	17.00	-29.2	-32.0	19.8	6.01e-01	0	43	102	524288	19	4989
2026-01-06 01:42:22.26	180.79	16.63	-29.2	-32.2	19.6	6.04e-01	0	43	102	524288	19	5080
2026-01-06 01:42:25.27	180.98	16.26	-29.2	-32.1	19.6	5.99e-01	0	43	102	524288	19	5038
2026-01-06 01:42:28.28	181.17	15.90	-29.3	-32.3	19.5	6.00e-01	0	43	102	524288	19	5117
2026-01-06 01:42:31.28	181.35	15.54	-29.3	-32.5	19.4	6.01e-01	0	43	102	524288	19	5156
2026-01-06 01:42:34.29	181.53	15.19	-29.5	-32.8	19.2	6.00e-01	0	43	102	524288	19	5299
2026-01-06 01:42:37.31	181.70	14.85	-29.5	-32.8	19.1	6.00e-01	0	43	102	524288	19	5292
2026-01-06 01:42:40.34	181.87	14.50	-29.5	-33.0	19.0	5.99e-01	0	43	102	524288	19	5369
2026-01-06 01:42:43.35	182.04	14.17	-29.5	-32.4	18.9	6.02e-01	0	43	102	524288	20	5059
2026-01-06 01:42:46.37	182.20	13.84	-29.4	-32.3	19.0	6.00e-01	0	43	102	524288	20	5025
2026-01-06 01:42:49.38	182.36	13.51	-29.5	-33.0	19.0	5.99e-01	0	43	102	524288	19	5364
2026-01-06 01:42:52.40	182.52	13.19	-29.4	-32.7	19.1	6.00e-01	0	43	102	524288	19	5275
2026-01-06 01:42:55.42	182.67	12.87	-29.3	-32.3	19.4	6.02e-01	0	43	102	524288	19	5117
2026-01-06 01:42:58.44	182.82	12.56	-29.3	-32.4	19.3	6.00e-01	0	43	102	524288	19	5155
2026-01-06 01:43:01.45	182.97	12.25	-29.3	-32.3	19.2	6.03e-01	0	43	102	524288	19	5122
2026-01-06 01:43:04.48	183.11	11.95	-29.4	-32.6	19.2	6.00e-01	0	43	102	524288	19	5202
2026-01-06 01:43:07.51	183.25	11.65	-29.3	-32.5	18.5	6.02e-01	0	43	102	524288	19	5182
2026-01-06 01:43:10.53	183.39	11.35	-29.4	-32.7	19.1	6.01e-01	0	43	102	524288	19	5246
2026-01-06 01:43:13.54	183.53	11.06	-29.5	-33.0	18.8	6.00e-01	0	43	102	524288	19	5406
2026-01-06 01:43:16.55	183.66	10.77	-29.7	-33.2	18.3	6.04e-01	0	43	102	524288	20	5368
2026-01-06 01:43:19.57	183.79	10.49	-29.8	-33.3	18.2	6.01e-01	0	43	102	524288	20	5422
2026-01-06 01:43:22.59	183.92	10.20	-29.6	-32.8	18.5	6.03e-01	0	43	102	524288	20	5208
2026-01-06 01:43:25.60	184.04	9.93	-29.6	-33.2	18.6	6.00e-01	0	43	102	524288	19	5490
2026-01-06 01:43:28.62	184.16	9.65	-29.5	-32.7	18.5	6.02e-01	0	43	102	524288	20	5179
2026-01-06 01:43:31.63	184.28	9.38	-29.6	-33.0	18.3	6.01e-01	0	43	102	524288	20	5302
2026-01-06 01:43:34.64	184.40	9.11	-29.7	-33.3	18.1	6.00e-01	0	43	102	524288	20	5444
2026-01-06 01:43:37.66	184.52	8.85	-30.0	-34.1	17.6	6.02e-01	0	44	102	524288	20	5755
2026-01-06 01:43:40.67	184.63	8.59	-29.9	-33.9	17.7	6.01e-01	0	43	102	524288	20	5672
2026-01-06 01:43:43.69	184.74	8.33	-30.0	-34.0	17.6	6.01e-01	0	43	102	524288	20	5752
2026-01-06 01:43:46.70	184.85	8.07	-30.2	-34.4	17.0	6.01e-01	0	43	102	524288	21	5790
2026-01-06 01:43:49.72	184.96	7.82	-30.1	-34.0	17.1	6.01e-01	0	43	102	524288	21	5681
2026-01-06 01:43:52.73	185.07	7.57	-30.3	-34.7	16.7	5.98e-01	0	43	102	524288	21	5941
2026-01-06 01:43:55.75	185.17	7.32	-30.1	-34.4	17.2	6.00e-01	0	43	102	524288	20	5907
2026-01-06 01:43:58.77	185.28	7.07	-33.0	-52.5	3.8	7.44e-01	0	43	104	524288	26	33914
2026-01-06 01:44:01.79	185.38	6.83	-33.4	-52.6	3.8	7.46e-01	0	43	104	524288	28	32878

#Closed at: 2026-01-06 01:44:02
#Recorded file [0 MB]: D:/data/31010_260106_043333.dat