passes_logs/2026/01/06/R2M6_AANII_01/R2M6_AANII_01__20260106_131740_FENGYUN_3D_rec.log

#Pass ID: 20260106_131740_FENGYUN 3D
#Satellite: FENGYUN 3D
#Configuration: FENGYUN 3D
#almurnet v.1.7.20240730
#Start time: 2026-01-06 13:17:42

#Version: 2.2.20231116
#Station: R2M6_AANII_01
#Location: 30.233357 lon 59.946436 lat
#TLE: 1 43010U 17072A   26005.63011380 -.00000074  00000+0 -13266-4 0  9994
#TLE: 2 43010  98.9921 337.3013 0002022 125.0204 235.1161 14.19691768421927

#Time	Az	El	Level	Level2	SNR	BER	BlckErr	Temp	State	Recorded	gain1	gain2
2026-01-06 13:17:42.16	190.27	7.14	-28.0	-30.8	5.6	7.73e-01	0	41	0	0	15	5000
2026-01-06 13:17:45.17	190.45	7.36	-28.5	-30.7	11.1	1.45e-03	0	41	102	1048576	18	4596
2026-01-06 13:17:48.19	190.63	7.58	-27.3	-28.7	13.0	4.11e-05	0	41	102	1048576	16	4206
2026-01-06 13:17:51.20	190.81	7.81	-26.7	-28.3	13.7	1.10e-06	0	41	102	1048576	14	4303
2026-01-06 13:17:54.21	191.00	8.03	-26.9	-28.8	13.4	2.20e-06	0	41	102	1048576	14	4452
2026-01-06 13:17:57.22	191.19	8.26	-26.3	-27.3	14.4	1.10e-06	0	42	102	1048576	14	4034
2026-01-06 13:18:00.24	191.38	8.49	-26.3	-27.7	14.4	2.20e-06	0	42	102	1048576	13	4253
2026-01-06 13:18:03.25	191.58	8.72	-26.1	-27.4	14.6	0.00e+00	0	42	102	1048576	13	4182
2026-01-06 13:18:06.28	191.78	8.95	-26.3	-27.8	14.4	0.00e+00	0	42	102	1048576	13	4284
2026-01-06 13:18:09.30	191.98	9.19	-26.3	-27.8	14.4	0.00e+00	0	42	102	1048576	13	4281
2026-01-06 13:18:12.32	192.19	9.42	-26.3	-27.7	14.5	0.00e+00	0	42	102	1048576	13	4260
2026-01-06 13:18:15.34	192.39	9.66	-26.0	-27.1	14.8	0.00e+00	0	42	102	1048576	13	4089
2026-01-06 13:18:18.37	192.61	9.90	-25.8	-27.1	15.2	1.10e-06	0	42	102	1048576	12	4191
2026-01-06 13:18:21.39	192.82	10.15	-25.7	-27.0	15.2	0.00e+00	0	42	102	1048576	12	4157
2026-01-06 13:18:24.41	193.04	10.39	-25.6	-26.7	15.4	0.00e+00	0	42	102	1048576	12	4090
2026-01-06 13:18:27.43	193.26	10.64	-25.7	-27.0	15.2	0.00e+00	0	42	102	1048576	12	4162
2026-01-06 13:18:30.46	193.49	10.89	-25.9	-27.3	15.1	0.00e+00	0	42	102	1048576	12	4234
2026-01-06 13:18:33.48	193.72	11.14	-25.9	-27.4	15.0	0.00e+00	0	42	102	1048576	12	4262
2026-01-06 13:18:36.50	193.95	11.39	-25.8	-27.2	15.2	0.00e+00	0	42	102	1048576	12	4220
2026-01-06 13:18:39.51	194.19	11.65	-25.9	-27.3	15.2	0.00e+00	0	43	102	1048576	12	4236
2026-01-06 13:18:42.52	194.43	11.90	-25.6	-26.7	15.5	0.00e+00	0	43	102	1048576	12	4079
2026-01-06 13:18:45.55	194.67	12.16	-25.7	-26.9	15.4	0.00e+00	0	43	102	1048576	12	4144
2026-01-06 13:18:48.57	194.92	12.43	-25.6	-26.8	15.5	0.00e+00	0	43	102	1048576	12	4102
2026-01-06 13:18:51.58	195.17	12.69	-25.6	-26.6	15.6	0.00e+00	0	43	102	1048576	12	4064
2026-01-06 13:18:54.59	195.43	12.96	-25.4	-26.3	15.8	0.00e+00	0	43	102	1048576	12	3977
2026-01-06 13:18:57.61	195.69	13.23	-25.3	-26.5	16.0	0.00e+00	0	43	102	1048576	11	4124
2026-01-06 13:19:00.63	195.96	13.50	-25.3	-26.5	16.0	0.00e+00	0	43	102	1048576	11	4139
2026-01-06 13:19:03.65	196.23	13.77	-25.3	-26.5	16.0	0.00e+00	0	43	102	1048576	11	4135
2026-01-06 13:19:06.66	196.51	14.05	-25.2	-26.2	16.2	1.10e-06	0	43	102	1048576	11	4068
2026-01-06 13:19:09.67	196.79	14.33	-25.1	-26.1	16.2	0.00e+00	0	43	102	1048576	11	4032
2026-01-06 13:19:12.69	197.08	14.61	-25.0	-25.9	16.4	0.00e+00	0	43	102	1048576	11	3987
2026-01-06 13:19:15.71	197.37	14.90	-25.0	-25.9	16.4	1.14e-05	0	43	102	1048576	11	3978
2026-01-06 13:19:18.73	197.66	15.19	-25.0	-25.8	16.5	2.20e-06	0	43	102	1048576	11	3954
2026-01-06 13:19:21.75	197.97	15.48	-24.8	-25.4	16.7	4.50e-06	0	43	102	1048576	11	3854
2026-01-06 13:19:24.77	198.28	15.77	-24.8	-25.5	16.7	5.70e-06	0	43	102	1048576	11	3876
2026-01-06 13:19:27.79	198.59	16.07	-24.4	-25.0	17.2	5.70e-06	0	43	102	1048576	10	3857
2026-01-06 13:19:30.81	198.91	16.37	-24.3	-25.3	17.3	0.00e+00	0	43	102	1048576	9	4043
2026-01-06 13:19:33.83	199.24	16.67	-24.5	-25.7	17.1	0.00e+00	0	43	102	1048576	9	4129
2026-01-06 13:19:36.84	199.57	16.97	-24.5	-25.8	17.0	0.00e+00	0	43	102	1048576	9	4166
2026-01-06 13:19:39.85	199.91	17.28	-24.4	-25.6	17.2	0.00e+00	0	43	102	1048576	9	4127
2026-01-06 13:19:42.87	200.26	17.59	-24.4	-25.5	17.2	0.00e+00	0	43	102	1048576	9	4096
2026-01-06 13:19:45.89	200.61	17.90	-24.0	-24.8	17.6	0.00e+00	0	43	102	1048576	9	3908
2026-01-06 13:19:48.92	200.97	18.22	-24.1	-24.9	17.5	0.00e+00	0	43	102	1048576	9	3956
2026-01-06 13:19:51.94	201.34	18.54	-23.9	-24.4	17.8	0.00e+00	0	43	102	1048576	9	3815
2026-01-06 13:19:54.96	201.72	18.86	-23.7	-24.6	18.0	0.00e+00	0	43	102	1048576	8	3971
2026-01-06 13:19:57.97	202.10	19.19	-23.8	-24.6	18.0	0.00e+00	0	43	102	1048576	8	3986
2026-01-06 13:20:01.00	202.49	19.52	-23.9	-24.9	17.8	0.00e+00	0	43	102	1048576	8	4058
2026-01-06 13:20:04.02	202.90	19.85	-24.0	-25.1	17.8	0.00e+00	0	43	102	1048576	8	4104
2026-01-06 13:20:07.04	203.30	20.18	-23.9	-24.9	17.9	0.00e+00	0	43	102	1048576	8	4050
2026-01-06 13:20:10.06	203.72	20.52	-23.7	-24.6	18.0	0.00e+00	0	43	102	1048576	8	3981
2026-01-06 13:20:13.09	204.15	20.86	-23.7	-24.5	18.1	0.00e+00	0	43	102	1048576	8	3961
2026-01-06 13:20:16.11	204.59	21.21	-23.5	-24.2	18.3	0.00e+00	0	43	102	1048576	8	3878
2026-01-06 13:20:19.13	205.03	21.56	-23.6	-24.2	18.3	0.00e+00	0	43	102	1048576	8	3891
2026-01-06 13:20:22.13	205.48	21.90	-23.7	-24.5	18.1	0.00e+00	0	43	102	1048576	8	3956
2026-01-06 13:20:25.15	205.95	22.26	-23.7	-24.5	18.1	0.00e+00	0	43	102	1048576	8	3961
2026-01-06 13:20:28.17	206.42	22.61	-23.6	-24.2	18.3	0.00e+00	0	43	102	1048576	8	3884
2026-01-06 13:20:31.18	206.91	22.97	-23.4	-23.9	18.5	0.00e+00	0	43	102	1048576	8	3809
2026-01-06 13:20:34.21	207.41	23.34	-23.4	-24.4	18.5	0.00e+00	0	43	102	1048576	7	4038
2026-01-06 13:20:37.23	207.92	23.70	-23.4	-24.3	18.5	0.00e+00	0	43	102	1048576	7	4007
2026-01-06 13:20:40.25	208.44	24.07	-23.3	-24.1	18.6	0.00e+00	0	43	102	1048576	7	3973
2026-01-06 13:20:43.27	208.97	24.44	-23.2	-24.0	18.7	0.00e+00	0	43	102	1048576	7	3928
2026-01-06 13:20:46.30	209.52	24.82	-23.1	-23.7	18.9	0.00e+00	0	43	102	1048576	7	3856
2026-01-06 13:20:49.32	210.08	25.19	-23.2	-23.9	18.9	0.00e+00	0	44	102	1048576	7	3896
2026-01-06 13:20:52.34	210.65	25.57	-23.1	-23.6	19.1	0.00e+00	0	44	102	1048576	7	3820
2026-01-06 13:20:55.37	211.23	25.95	-22.9	-23.3	19.2	0.00e+00	0	43	102	1048576	7	3770
2026-01-06 13:20:58.38	211.83	26.34	-22.9	-23.2	19.3	0.00e+00	0	43	102	1048576	7	3748
2026-01-06 13:21:01.40	212.44	26.72	-23.2	-23.8	19.0	0.00e+00	0	43	102	1048576	7	3880
2026-01-06 13:21:04.42	213.07	27.11	-22.7	-23.4	19.5	0.00e+00	0	43	102	1048576	6	3886
2026-01-06 13:21:07.44	213.72	27.50	-22.7	-23.3	19.6	0.00e+00	0	43	102	1048576	6	3857
2026-01-06 13:21:10.47	214.38	27.89	-22.4	-22.7	19.8	0.00e+00	0	43	102	1048576	6	3734
2026-01-06 13:21:13.49	215.05	28.28	-22.5	-23.0	19.7	0.00e+00	0	43	102	1048576	6	3786
2026-01-06 13:21:16.51	215.74	28.68	-22.6	-23.2	19.6	0.00e+00	0	43	102	1048576	6	3841
2026-01-06 13:21:19.53	216.45	29.07	-22.5	-22.9	19.8	0.00e+00	0	43	102	1048576	6	3779
2026-01-06 13:21:22.54	217.17	29.47	-22.5	-22.9	19.8	0.00e+00	0	43	102	1048576	6	3773
2026-01-06 13:21:25.56	217.91	29.86	-22.4	-22.6	19.9	0.00e+00	0	43	102	1048576	6	3712
2026-01-06 13:21:28.58	218.67	30.26	-22.5	-22.9	19.8	0.00e+00	0	43	102	1048576	6	3778
2026-01-06 13:21:31.60	219.45	30.66	-22.4	-22.7	19.9	0.00e+00	0	43	102	1048576	6	3738
2026-01-06 13:21:34.63	220.25	31.05	-22.4	-22.6	20.0	0.00e+00	0	43	102	1048576	6	3713
2026-01-06 13:21:37.65	221.07	31.45	-22.4	-22.7	20.0	0.00e+00	0	43	102	1048576	6	3721
2026-01-06 13:21:40.67	221.91	31.84	-22.3	-22.6	20.0	0.00e+00	0	43	102	1048576	6	3698
2026-01-06 13:21:43.69	222.77	32.24	-22.3	-22.9	20.0	0.00e+00	0	43	102	1048576	5	3884
2026-01-06 13:21:46.72	223.65	32.63	-22.4	-23.2	19.9	0.00e+00	0	43	102	1048576	5	3947
2026-01-06 13:21:49.74	224.55	33.02	-22.4	-23.2	19.9	0.00e+00	0	43	102	1048576	5	3953
2026-01-06 13:21:52.75	225.46	33.40	-22.3	-23.0	20.0	0.00e+00	0	43	102	1048576	5	3906
2026-01-06 13:21:55.77	226.40	33.78	-22.5	-23.4	19.8	0.00e+00	0	43	102	1048576	5	3992
2026-01-06 13:21:58.79	227.37	34.16	-22.5	-23.4	19.8	0.00e+00	0	43	102	1048576	5	4006
2026-01-06 13:22:01.81	228.35	34.53	-22.3	-23.1	20.0	0.00e+00	0	43	102	1048576	5	3918
2026-01-06 13:22:04.82	229.36	34.90	-22.3	-23.1	20.0	0.00e+00	0	44	102	1048576	5	3915
2026-01-06 13:22:07.85	230.39	35.27	-22.2	-22.8	20.2	0.00e+00	0	43	102	1048576	5	3845
2026-01-06 13:22:10.86	231.44	35.62	-22.1	-22.6	20.3	0.00e+00	0	43	102	1048576	5	3811
2026-01-06 13:22:13.88	232.52	35.97	-22.0	-22.3	20.4	0.00e+00	0	43	102	1048576	5	3742
2026-01-06 13:22:16.89	233.61	36.31	-22.2	-22.8	20.2	2.20e-06	0	43	102	1048576	5	3860
2026-01-06 13:22:19.91	234.73	36.64	-22.2	-22.7	20.2	1.10e-06	0	43	102	1048576	5	3833
2026-01-06 13:22:22.93	235.87	36.97	-22.1	-22.6	20.3	0.00e+00	0	43	102	1048576	5	3809
2026-01-06 13:22:25.94	237.04	37.28	-22.0	-22.4	20.4	0.00e+00	0	43	102	1048576	5	3769
2026-01-06 13:22:28.96	238.22	37.59	-22.1	-22.5	20.3	0.00e+00	0	43	102	1048576	5	3789
2026-01-06 13:22:31.98	239.43	37.88	-22.1	-22.6	20.3	0.00e+00	0	44	102	1048576	5	3815
2026-01-06 13:22:35.01	240.67	38.16	-22.0	-22.4	20.4	0.00e+00	0	43	102	1048576	5	3765
2026-01-06 13:22:38.03	241.92	38.43	-22.1	-22.5	20.4	0.00e+00	0	43	102	1048576	5	3778
2026-01-06 13:22:41.05	243.19	38.69	-22.0	-22.3	20.5	0.00e+00	0	43	102	1048576	5	3739
2026-01-06 13:22:44.07	244.48	38.93	-22.2	-22.8	20.2	0.00e+00	0	44	102	1048576	5	3853
2026-01-06 13:22:47.09	245.79	39.16	-22.2	-22.8	20.2	0.00e+00	0	43	102	1048576	5	3860
2026-01-06 13:22:50.11	247.11	39.37	-22.2	-22.7	20.3	0.00e+00	0	43	102	1048576	5	3829
2026-01-06 13:22:53.13	248.45	39.57	-22.1	-22.7	20.3	0.00e+00	0	44	102	1048576	5	3823
2026-01-06 13:22:56.16	249.82	39.75	-22.1	-22.7	20.3	0.00e+00	0	44	102	1048576	5	3824
2026-01-06 13:22:59.18	251.19	39.91	-22.1	-22.6	20.3	0.00e+00	0	44	102	1048576	5	3800
2026-01-06 13:23:02.20	252.57	40.05	-22.1	-22.5	20.3	0.00e+00	0	43	102	1048576	5	3792
2026-01-06 13:23:05.22	253.97	40.18	-21.9	-22.8	20.5	0.00e+00	0	44	102	1048576	4	3953
2026-01-06 13:23:08.23	255.37	40.29	-21.7	-22.2	20.8	0.00e+00	0	44	102	1048576	4	3813
2026-01-06 13:23:11.25	256.78	40.38	-22.3	-23.4	20.1	0.00e+00	0	43	102	1048576	4	4109
2026-01-06 13:23:14.28	258.21	40.45	-22.4	-23.6	20.1	0.00e+00	0	43	102	1048576	4	4168
2026-01-06 13:23:17.31	259.64	40.50	-22.2	-23.3	20.2	0.00e+00	0	43	102	1048576	4	4077
2026-01-06 13:23:20.32	261.07	40.53	-22.2	-23.3	20.2	0.00e+00	0	43	102	1048576	4	4082
2026-01-06 13:23:23.34	262.50	40.54	-22.2	-23.2	20.3	0.00e+00	0	44	102	1048576	4	4065
2026-01-06 13:23:26.36	263.93	40.53	-22.3	-23.5	20.1	0.00e+00	0	43	102	1048576	4	4142
2026-01-06 13:23:29.38	265.36	40.51	-22.1	-23.2	20.3	0.00e+00	0	44	102	1048576	4	4049
2026-01-06 13:23:32.40	266.79	40.46	-22.7	-23.8	19.7	0.00e+00	0	43	102	1048576	5	4097
2026-01-06 13:23:35.42	268.21	40.39	-22.3	-22.9	20.2	0.00e+00	0	43	102	1048576	5	3883
2026-01-06 13:23:38.44	269.62	40.31	-22.2	-22.8	20.2	0.00e+00	0	43	102	1048576	5	3854
2026-01-06 13:23:41.46	271.03	40.20	-22.0	-22.5	20.4	0.00e+00	0	44	102	1048576	5	3774
2026-01-06 13:23:44.48	272.43	40.08	-22.2	-22.7	20.3	0.00e+00	0	43	102	1048576	5	3841
2026-01-06 13:23:47.50	273.81	39.94	-22.3	-23.0	20.2	0.00e+00	0	43	102	1048576	5	3899
2026-01-06 13:23:50.51	275.18	39.78	-22.1	-22.5	20.4	0.00e+00	0	44	102	1048576	5	3791
2026-01-06 13:23:53.54	276.54	39.60	-22.1	-22.7	20.3	0.00e+00	0	43	102	1048576	5	3820
2026-01-06 13:23:56.56	277.89	39.41	-22.2	-22.7	20.3	0.00e+00	0	44	102	1048576	5	3841
2026-01-06 13:23:59.58	279.21	39.20	-21.9	-22.1	20.6	0.00e+00	0	43	102	1048576	5	3701
2026-01-06 13:24:02.60	280.52	38.98	-22.2	-22.9	20.2	0.00e+00	0	44	102	1048576	5	3873
2026-01-06 13:24:05.62	281.82	38.74	-22.4	-23.1	20.1	0.00e+00	0	44	102	1048576	5	3921
2026-01-06 13:24:08.65	283.09	38.49	-22.5	-23.4	20.0	0.00e+00	0	44	102	1048576	5	3992
2026-01-06 13:24:11.66	284.34	38.22	-22.1	-22.6	20.3	0.00e+00	0	44	102	1048576	5	3798
2026-01-06 13:24:14.68	285.57	37.95	-22.6	-23.6	19.8	0.00e+00	0	44	102	1048576	5	4054
2026-01-06 13:24:17.69	286.78	37.66	-22.2	-22.9	20.2	0.00e+00	0	44	102	1048576	5	3869
2026-01-06 13:24:20.70	287.96	37.36	-22.2	-22.9	20.2	0.00e+00	0	44	102	1048576	5	3878
2026-01-06 13:24:23.73	289.13	37.04	-22.2	-22.7	20.3	0.00e+00	0	43	102	1048576	5	3823
2026-01-06 13:24:26.74	290.28	36.72	-22.4	-23.2	20.0	0.00e+00	0	44	102	1048576	5	3939
2026-01-06 13:24:29.76	291.40	36.39	-22.6	-23.6	19.8	0.00e+00	0	44	102	1048576	5	4050
2026-01-06 13:24:32.79	292.50	36.05	-22.6	-23.6	19.9	0.00e+00	0	43	102	1048576	5	4035
2026-01-06 13:24:35.81	293.58	35.71	-22.1	-22.5	20.4	0.00e+00	0	44	102	1048576	5	3788
2026-01-06 13:24:38.83	294.63	35.35	-22.3	-23.0	20.1	0.00e+00	0	44	102	1048576	5	3895
2026-01-06 13:24:41.85	295.67	34.99	-22.1	-22.6	20.3	0.00e+00	0	44	102	1048576	5	3805
2026-01-06 13:24:44.86	296.67	34.63	-22.5	-23.4	19.9	0.00e+00	0	44	102	1048576	5	3994
2026-01-06 13:24:47.89	297.66	34.26	-22.4	-23.2	20.0	0.00e+00	0	44	102	1048576	5	3934
2026-01-06 13:24:50.90	298.63	33.88	-22.4	-23.2	20.0	0.00e+00	0	44	102	1048576	5	3937
2026-01-06 13:24:53.93	299.57	33.50	-22.5	-23.3	19.9	0.00e+00	0	44	102	1048576	5	3978
2026-01-06 13:24:56.95	300.49	33.12	-22.6	-23.6	19.8	0.00e+00	0	44	102	1048576	5	4041
2026-01-06 13:24:59.97	301.39	32.74	-22.4	-23.3	19.9	0.00e+00	0	44	102	1048576	5	3968
2026-01-06 13:25:02.98	302.27	32.35	-22.7	-23.8	19.7	0.00e+00	0	44	102	1048576	5	4091
2026-01-06 13:25:06.00	303.13	31.96	-22.6	-23.6	19.8	0.00e+00	0	44	102	1048576	5	4044
2026-01-06 13:25:09.02	303.97	31.57	-22.9	-24.2	19.5	0.00e+00	0	44	102	1048576	5	4195
2026-01-06 13:25:12.03	304.79	31.18	-22.6	-23.7	19.7	0.00e+00	0	44	102	1048576	5	4053
2026-01-06 13:25:15.05	305.59	30.78	-22.6	-23.7	19.7	0.00e+00	0	44	102	1048576	5	4062
2026-01-06 13:25:18.08	306.37	30.39	-23.1	-24.1	19.2	0.00e+00	0	44	102	1048576	6	4067
2026-01-06 13:25:21.10	307.13	29.99	-22.9	-23.7	19.4	0.00e+00	0	44	102	1048576	6	3965
2026-01-06 13:25:24.11	307.88	29.60	-23.1	-24.1	19.3	0.00e+00	0	44	102	1048576	6	4053
2026-01-06 13:25:27.13	308.60	29.21	-23.1	-24.2	19.2	0.00e+00	0	44	102	1048576	6	4091
2026-01-06 13:25:30.13	309.31	28.82	-23.0	-23.9	19.3	0.00e+00	0	44	102	1048576	6	4010
2026-01-06 13:25:33.15	310.00	28.42	-23.0	-23.9	19.4	0.00e+00	0	44	102	1048576	6	3995
2026-01-06 13:25:36.18	310.68	28.03	-22.8	-23.5	19.5	0.00e+00	0	44	102	1048576	6	3918
2026-01-06 13:25:39.19	311.34	27.64	-22.7	-23.3	19.6	0.00e+00	0	44	102	1048576	6	3867
2026-01-06 13:25:42.21	311.98	27.26	-22.9	-23.7	19.4	0.00e+00	0	44	102	1048576	6	3965
2026-01-06 13:25:45.22	312.61	26.87	-23.0	-24.0	19.2	0.00e+00	0	44	102	1048576	6	4030
2026-01-06 13:25:48.25	313.23	26.49	-22.9	-23.8	19.4	0.00e+00	0	44	102	1048576	6	3973
2026-01-06 13:25:51.28	313.83	26.10	-23.0	-23.9	19.3	0.00e+00	0	44	102	1048576	6	4002
2026-01-06 13:25:54.30	314.42	25.72	-23.1	-24.2	19.1	0.00e+00	0	44	102	1048576	6	4091
2026-01-06 13:25:57.31	314.99	25.35	-23.4	-24.7	18.9	0.00e+00	0	44	102	1048576	6	4212
2026-01-06 13:26:00.32	315.55	24.98	-23.4	-24.7	18.9	0.00e+00	0	44	102	1048576	6	4211
2026-01-06 13:26:03.34	316.10	24.60	-23.4	-24.8	18.8	0.00e+00	0	43	102	1048576	6	4233
2026-01-06 13:26:06.35	316.63	24.24	-23.5	-24.6	18.6	0.00e+00	0	44	102	1048576	7	4063
2026-01-06 13:26:09.37	317.15	23.87	-23.6	-24.7	18.6	0.00e+00	0	44	102	1048576	7	4088
2026-01-06 13:26:12.38	317.66	23.51	-23.4	-24.4	18.7	0.00e+00	0	43	102	1048576	7	4019
2026-01-06 13:26:15.40	318.16	23.15	-23.4	-24.3	18.7	0.00e+00	0	44	102	1048576	7	4001
2026-01-06 13:26:18.42	318.65	22.79	-23.5	-24.4	18.7	0.00e+00	0	44	102	1048576	7	4018
2026-01-06 13:26:21.43	319.13	22.43	-23.5	-24.5	18.7	0.00e+00	0	44	102	1048576	7	4032
2026-01-06 13:26:24.45	319.60	22.08	-23.8	-25.2	18.3	0.00e+00	0	44	102	1048576	7	4226
2026-01-06 13:26:27.47	320.05	21.73	-24.2	-25.6	17.8	0.00e+00	0	44	102	1048576	8	4207
2026-01-06 13:26:30.50	320.50	21.39	-24.3	-25.8	17.7	0.00e+00	0	44	102	1048576	8	4255
2026-01-06 13:26:33.51	320.94	21.04	-24.0	-25.1	18.1	0.00e+00	0	44	102	1048576	8	4087
2026-01-06 13:26:36.53	321.37	20.70	-24.1	-25.3	18.0	0.00e+00	0	44	102	1048576	8	4122
2026-01-06 13:26:39.55	321.79	20.37	-24.3	-25.8	17.7	0.00e+00	0	44	102	1048576	8	4252
2026-01-06 13:26:42.57	322.20	20.03	-24.5	-26.1	17.5	0.00e+00	0	44	102	1048576	8	4344
2026-01-06 13:26:45.60	322.60	19.70	-24.5	-25.7	17.5	0.00e+00	0	44	102	1048576	9	4131
2026-01-06 13:26:48.61	323.00	19.38	-24.4	-25.5	17.6	0.00e+00	0	44	102	1048576	9	4061
2026-01-06 13:26:51.63	323.38	19.05	-24.4	-25.5	17.6	0.00e+00	0	44	102	1048576	9	4056
2026-01-06 13:26:54.66	323.76	18.73	-24.4	-25.5	17.5	0.00e+00	0	44	102	1048576	9	4075
2026-01-06 13:26:57.68	324.13	18.41	-24.5	-25.6	17.5	0.00e+00	0	44	102	1048576	9	4092
2026-01-06 13:27:00.71	324.50	18.09	-24.6	-25.8	17.4	0.00e+00	0	44	102	1048576	9	4137
2026-01-06 13:27:03.73	324.85	17.78	-24.7	-26.0	17.3	0.00e+00	0	43	102	1048576	9	4196
2026-01-06 13:27:06.75	325.20	17.47	-24.8	-26.3	17.1	0.00e+00	0	44	102	1048576	9	4273
2026-01-06 13:27:09.78	325.55	17.16	-24.9	-26.6	16.9	0.00e+00	0	44	102	1048576	9	4364
2026-01-06 13:27:12.77	325.88	16.86	-24.9	-26.1	16.9	0.00e+00	0	44	102	1048576	10	4113
2026-01-06 13:27:15.80	326.21	16.56	-24.8	-25.8	17.0	0.00e+00	0	44	102	1048576	10	4049
2026-01-06 13:27:18.82	326.53	16.26	-24.9	-26.0	16.9	0.00e+00	0	44	102	1048576	10	4087
2026-01-06 13:27:21.83	326.85	15.97	-24.9	-26.1	16.9	0.00e+00	0	43	102	1048576	10	4110
2026-01-06 13:27:24.83	327.16	15.68	-24.9	-26.1	16.8	0.00e+00	0	44	102	1048576	10	4109
2026-01-06 13:27:27.84	327.47	15.39	-25.1	-26.4	16.7	0.00e+00	0	43	102	1048576	10	4198
2026-01-06 13:27:30.87	327.77	15.10	-25.3	-26.9	16.4	0.00e+00	0	44	102	1048576	10	4338
2026-01-06 13:27:33.87	328.06	14.82	-25.4	-27.1	16.3	0.00e+00	0	43	102	1048576	10	4386
2026-01-06 13:27:36.89	328.35	14.54	-25.7	-27.2	15.9	0.00e+00	0	44	102	1048576	11	4302
2026-01-06 13:27:39.92	328.63	14.26	-25.6	-27.1	16.0	0.00e+00	0	44	102	1048576	11	4263
2026-01-06 13:27:42.94	328.91	13.98	-25.7	-27.2	15.9	0.00e+00	0	44	102	1048576	11	4303
2026-01-06 13:27:45.96	329.19	13.71	-25.7	-27.3	15.8	0.00e+00	0	44	102	1048576	11	4338
2026-01-06 13:27:48.98	329.46	13.44	-25.7	-27.4	15.8	0.00e+00	0	44	102	1048576	11	4349
2026-01-06 13:27:51.99	329.72	13.17	-25.8	-27.4	15.7	0.00e+00	0	44	102	1048576	11	4360
2026-01-06 13:27:55.02	329.98	12.90	-25.8	-27.6	15.6	0.00e+00	0	44	102	1048576	11	4408
2026-01-06 13:27:58.03	330.24	12.64	-25.8	-27.6	15.6	0.00e+00	0	44	102	1048576	11	4407
2026-01-06 13:28:01.04	330.49	12.38	-25.9	-27.6	15.6	0.00e+00	0	44	102	1048576	11	4418
2026-01-06 13:28:04.07	330.74	12.12	-26.0	-27.9	15.4	0.00e+00	0	44	102	1048576	11	4504
2026-01-06 13:28:07.10	330.98	11.86	-26.1	-27.7	15.1	1.10e-06	0	44	102	1048576	12	4327
2026-01-06 13:28:10.12	331.22	11.60	-26.0	-27.5	15.2	0.00e+00	0	44	102	1048576	12	4277
2026-01-06 13:28:13.14	331.46	11.35	-25.9	-27.4	15.3	0.00e+00	0	44	102	1048576	12	4244
2026-01-06 13:28:16.16	331.69	11.10	-26.0	-27.5	15.2	0.00e+00	0	44	102	1048576	12	4268
2026-01-06 13:28:19.18	331.92	10.85	-26.0	-27.5	15.2	0.00e+00	0	44	102	1048576	12	4267
2026-01-06 13:28:22.19	332.14	10.61	-26.1	-27.7	15.1	0.00e+00	0	44	102	1048576	12	4322
2026-01-06 13:28:25.22	332.36	10.36	-26.2	-28.0	14.9	0.00e+00	0	44	102	1048576	12	4414
2026-01-06 13:28:28.23	332.58	10.12	-26.2	-28.1	14.8	0.00e+00	0	44	102	1048576	12	4444
2026-01-06 13:28:31.24	332.80	9.88	-26.3	-28.1	14.8	0.00e+00	0	44	102	1048576	12	4457
2026-01-06 13:28:34.25	333.01	9.64	-26.3	-28.1	14.7	0.00e+00	0	44	102	1048576	12	4458
2026-01-06 13:28:37.28	333.21	9.41	-26.5	-28.1	14.4	0.00e+00	0	44	102	1048576	13	4349
2026-01-06 13:28:40.31	333.42	9.17	-26.4	-28.0	14.5	0.00e+00	0	43	102	1048576	13	4325
2026-01-06 13:28:43.32	333.62	8.94	-26.6	-28.4	14.3	0.00e+00	0	44	102	1048576	13	4412
2026-01-06 13:28:46.35	333.82	8.71	-26.5	-28.1	14.4	0.00e+00	0	44	102	1048576	13	4342
2026-01-06 13:28:49.37	334.02	8.48	-26.5	-28.1	14.4	0.00e+00	0	44	102	1048576	13	4335
2026-01-06 13:28:52.38	334.21	8.26	-26.5	-28.2	14.3	0.00e+00	0	44	102	1048576	13	4382
2026-01-06 13:28:55.40	334.40	8.03	-26.5	-28.0	14.4	0.00e+00	0	44	102	1048576	13	4323
2026-01-06 13:28:58.42	334.59	7.81	-26.5	-28.2	14.3	1.10e-06	0	44	102	1048576	13	4363
2026-01-06 13:29:01.44	334.77	7.59	-26.6	-28.4	14.1	1.10e-06	0	44	102	1048576	13	4422
2026-01-06 13:29:04.46	334.96	7.37	-26.7	-28.6	14.0	0.00e+00	0	44	102	1048576	13	4487
2026-01-06 13:29:07.48	335.14	7.15	-27.0	-28.9	13.5	5.70e-06	0	44	102	1048576	14	4470
2026-01-06 13:29:10.50	335.31	6.93	-33.2	-44.4	3.8	8.46e-01	0	44	104	1048576	26	13085

#Closed at: 2026-01-06 13:29:10
#Recorded file [1 MB]: D:/data/31010_260106_161744.dat