passes_logs/2026/01/06/R2M6_AANII_01/R2M6_AANII_01__20260106_051104_FENGYUN_3E_rec.log

#Pass ID: 20260106_051104_FENGYUN 3E
#Satellite: FENGYUN 3E
#Configuration: FENGYUN 3E
#almurnet v.1.7.20240730
#Start time: 2026-01-06 05:13:34

#Version: 2.2.20231116
#Station: R2M6_AANII_01
#Location: 30.233357 lon 59.946436 lat
#TLE: 1 49008U 21062A   26005.56299987  .00000339  00000+0  18069-3 0  9991
#TLE: 2 49008  98.7472  10.8019 0001562 158.0357 202.0886 14.19884907233502

#Time	Az	El	Level	Level2	SNR	BER	BlckErr	Temp	State	Recorded	gain1	gain2
2026-01-06 05:13:34.17	8.55	21.89	-33.4	-44.8	3.8	8.46e-01	0	43	0	0	26	13363
2026-01-06 05:13:37.19	8.31	22.29	-34.0	-43.9	3.8	8.46e-01	0	44	104	0	27	11177
2026-01-06 05:13:40.21	8.06	22.71	-34.1	-44.0	3.8	8.46e-01	0	44	104	0	27	11288
2026-01-06 05:13:43.23	7.81	23.13	-34.1	-44.0	3.8	8.46e-01	0	44	104	0	27	11298
2026-01-06 05:13:46.25	7.55	23.56	-34.0	-44.0	3.8	8.46e-01	0	44	104	0	27	11280
2026-01-06 05:13:49.26	7.28	23.99	-34.0	-43.9	3.8	8.45e-01	0	44	104	0	27	11223
2026-01-06 05:13:52.26	7.01	24.43	-34.0	-43.4	3.8	8.46e-01	0	44	104	0	28	10625
2026-01-06 05:13:55.29	6.72	24.87	-34.0	-43.4	3.8	8.46e-01	0	44	104	0	28	10597
2026-01-06 05:13:58.31	6.43	25.33	-34.0	-43.3	3.8	8.46e-01	0	44	104	0	28	10574
2026-01-06 05:14:01.33	6.13	25.79	-33.9	-43.1	3.8	8.45e-01	0	44	104	0	28	10417
2026-01-06 05:14:04.34	5.82	26.26	-33.7	-42.7	3.8	8.46e-01	0	44	104	0	27	10120
2026-01-06 05:14:07.36	5.50	26.73	-33.0	-38.3	4.4	8.26e-01	0	44	104	0	27	6610
2026-01-06 05:14:10.38	5.17	27.21	-32.9	-38.5	4.5	8.22e-01	0	44	0	0	26	6820
2026-01-06 05:14:13.41	4.83	27.71	-32.2	-36.0	5.8	6.24e-01	0	44	102	1048576	25	5576
2026-01-06 05:14:16.43	4.48	28.21	-31.7	-34.7	6.9	1.71e-01	0	44	102	1048576	24	5069
2026-01-06 05:14:19.45	4.11	28.71	-33.1	-39.9	4.2	8.22e-01	0	44	102	1048576	25	7934
2026-01-06 05:14:22.46	3.74	29.22	-30.5	-32.2	9.0	6.91e-02	0	44	102	1048576	22	4379
2026-01-06 05:14:25.47	3.35	29.74	-26.1	-26.4	15.1	0.00e+00	0	44	102	1048576	13	3705
2026-01-06 05:14:28.48	2.95	30.27	-26.6	-27.3	14.6	1.10e-06	0	44	102	1048576	13	3925
2026-01-06 05:14:31.48	2.54	30.81	-25.9	-26.5	15.4	0.00e+00	0	44	102	1048576	12	3818
2026-01-06 05:14:34.50	2.11	31.35	-25.0	-25.0	16.6	0.00e+00	0	44	102	1048576	11	3571
2026-01-06 05:14:37.52	1.66	31.91	-24.8	-25.0	16.8	0.00e+00	0	44	102	1048576	10	3681
2026-01-06 05:14:40.55	1.20	32.48	-23.4	-23.1	18.2	0.00e+00	0	44	102	1048576	8	3469
2026-01-06 05:14:43.57	0.72	33.05	-23.2	-23.1	18.5	0.00e+00	0	44	102	1048576	7	3566
2026-01-06 05:14:46.58	0.23	33.63	-23.3	-23.2	18.4	0.00e+00	0	44	102	1048576	7	3586
2026-01-06 05:14:49.60	359.71	34.22	-23.0	-23.3	18.6	0.00e+00	0	44	102	1048576	6	3702
2026-01-06 05:14:52.61	359.18	34.81	-23.0	-23.3	18.7	0.00e+00	0	44	102	1048576	6	3699
2026-01-06 05:14:55.62	358.63	35.42	-22.9	-23.4	18.8	0.00e+00	0	44	102	1048576	5	3835
2026-01-06 05:14:58.64	358.05	36.03	-22.9	-23.5	18.8	0.00e+00	0	44	102	1048576	5	3846
2026-01-06 05:15:01.66	357.46	36.66	-23.0	-23.8	18.7	0.00e+00	0	44	102	1048576	5	3922
2026-01-06 05:15:04.68	356.83	37.29	-23.0	-23.6	18.7	0.00e+00	0	44	102	1048576	5	3882
2026-01-06 05:15:07.70	356.19	37.93	-23.1	-23.4	18.4	0.00e+00	0	44	102	1048576	6	3725
2026-01-06 05:15:10.72	355.51	38.58	-23.3	-23.8	18.4	0.00e+00	0	44	102	1048576	6	3822
2026-01-06 05:15:13.74	354.81	39.24	-23.5	-23.8	18.2	0.00e+00	0	44	102	1048576	7	3710
2026-01-06 05:15:16.76	354.08	39.90	-23.3	-23.3	18.4	0.00e+00	0	44	102	1048576	7	3609
2026-01-06 05:15:19.77	353.32	40.57	-23.5	-23.6	18.3	0.00e+00	0	44	102	1048576	7	3678
2026-01-06 05:15:22.79	352.52	41.25	-23.9	-24.6	17.8	0.00e+00	0	44	102	1048576	7	3892
2026-01-06 05:15:25.81	351.69	41.93	-23.5	-23.7	18.2	0.00e+00	0	44	102	1048576	7	3696
2026-01-06 05:15:28.83	350.83	42.62	-23.0	-22.7	18.8	0.00e+00	0	44	102	1048576	7	3470
2026-01-06 05:15:31.85	349.92	43.32	-23.2	-23.1	18.5	0.00e+00	0	44	102	1048576	7	3567
2026-01-06 05:15:34.86	348.98	44.01	-23.4	-23.5	18.4	1.71e-05	0	44	102	1048576	7	3637
2026-01-06 05:15:37.88	347.99	44.72	-24.0	-24.7	17.8	0.00e+00	0	44	102	1048576	7	3912
2026-01-06 05:15:40.89	346.96	45.42	-23.4	-23.4	18.4	0.00e+00	0	44	102	1048576	7	3631
2026-01-06 05:15:43.90	345.88	46.12	-23.3	-23.3	18.5	0.00e+00	0	44	102	1048576	7	3603
2026-01-06 05:15:46.92	344.75	46.83	-23.6	-23.9	18.2	0.00e+00	0	44	102	1048576	7	3742
2026-01-06 05:15:49.93	343.57	47.53	-24.4	-25.2	17.3	0.00e+00	0	44	102	1048576	8	3924
2026-01-06 05:15:52.95	342.33	48.24	-24.7	-25.2	17.0	0.00e+00	0	44	102	1048576	9	3825
2026-01-06 05:15:55.97	341.03	48.94	-25.1	-25.7	16.5	0.00e+00	0	44	102	1048576	10	3834
2026-01-06 05:15:58.99	339.68	49.63	-25.1	-25.7	16.6	0.00e+00	0	44	102	1048576	10	3847
2026-01-06 05:16:02.02	338.25	50.32	-25.2	-25.9	16.4	0.00e+00	0	44	102	1048576	10	3886
2026-01-06 05:16:05.04	336.76	51.00	-24.6	-25.1	17.1	0.00e+00	0	44	102	1048576	9	3804
2026-01-06 05:16:08.06	335.20	51.67	-24.6	-25.6	17.1	0.00e+00	0	44	102	1048576	8	4015
2026-01-06 05:16:11.08	333.58	52.32	-24.8	-25.4	17.0	0.00e+00	0	44	102	1048576	9	3872
2026-01-06 05:16:14.10	331.87	52.95	-24.8	-25.6	16.8	0.00e+00	0	44	102	1048576	9	3916
2026-01-06 05:16:17.13	330.09	53.57	-25.0	-25.5	16.7	0.00e+00	0	44	102	1048576	10	3778
2026-01-06 05:16:20.15	328.24	54.17	-24.4	-24.7	17.3	0.00e+00	0	44	102	1048576	9	3698
2026-01-06 05:16:23.17	326.31	54.74	-24.3	-24.4	17.5	0.00e+00	0	44	102	1048576	9	3635
2026-01-06 05:16:26.19	324.30	55.28	-24.4	-24.6	17.3	1.20e-04	0	44	102	1048576	9	3692
2026-01-06 05:16:29.21	322.22	55.79	-24.3	-24.4	17.5	0.00e+00	0	44	102	1048576	9	3641
2026-01-06 05:16:32.22	320.07	56.26	-24.0	-23.7	17.8	0.00e+00	0	44	102	1048576	9	3501
2026-01-06 05:16:35.25	317.83	56.70	-24.2	-24.6	17.6	0.00e+00	0	44	102	1048576	8	3788
2026-01-06 05:16:38.27	315.53	57.10	-24.4	-25.0	17.4	1.91e-04	0	44	102	1048576	8	3886
2026-01-06 05:16:41.29	313.17	57.46	-24.1	-24.5	17.7	1.58e-04	0	44	102	1048576	8	3756
2026-01-06 05:16:44.31	310.74	57.77	-24.6	-25.0	17.1	1.93e-04	0	44	102	1048576	9	3766
2026-01-06 05:16:47.33	308.26	58.03	-24.3	-24.4	17.4	0.00e+00	0	44	102	1048576	9	3628
2026-01-06 05:16:50.35	305.74	58.24	-24.4	-25.0	17.4	0.00e+00	0	44	102	1048576	8	3887
2026-01-06 05:16:53.36	303.19	58.40	-24.6	-25.0	17.1	0.00e+00	0	44	102	1048576	9	3778
2026-01-06 05:16:56.38	300.61	58.50	-24.7	-25.3	17.0	0.00e+00	0	44	102	1048576	9	3844
2026-01-06 05:16:59.41	298.00	58.56	-25.1	-25.5	16.6	0.00e+00	0	44	102	1048576	10	3786
2026-01-06 05:17:02.43	295.40	58.55	-24.6	-25.1	17.1	0.00e+00	0	44	102	1048576	9	3791
2026-01-06 05:17:05.45	292.80	58.49	-24.1	-24.5	17.6	0.00e+00	0	44	102	1048576	8	3767
2026-01-06 05:17:08.45	290.24	58.38	-24.3	-24.9	17.4	0.00e+00	0	44	102	1048576	8	3847
2026-01-06 05:17:11.48	287.68	58.21	-24.3	-24.8	17.5	0.00e+00	0	44	102	1048576	8	3845
2026-01-06 05:17:14.51	285.15	57.99	-24.7	-25.3	17.0	0.00e+00	0	44	102	1048576	9	3843
2026-01-06 05:17:17.53	282.68	57.73	-24.7	-25.3	16.8	0.00e+00	0	44	102	1048576	9	3855
2026-01-06 05:17:20.54	280.27	57.41	-24.7	-25.4	16.9	0.00e+00	0	44	102	1048576	9	3869
2026-01-06 05:17:23.54	277.92	57.05	-24.1	-24.6	17.6	0.00e+00	0	44	102	1048576	8	3783
2026-01-06 05:17:26.56	275.63	56.64	-24.2	-24.6	17.5	0.00e+00	0	44	102	1048576	8	3787
2026-01-06 05:17:29.59	273.40	56.20	-24.2	-24.7	17.4	0.00e+00	0	44	102	1048576	8	3818
2026-01-06 05:17:32.60	271.25	55.72	-24.2	-24.7	17.4	0.00e+00	0	44	102	1048576	8	3822
2026-01-06 05:17:35.62	269.18	55.20	-23.7	-24.1	18.0	0.00e+00	0	44	102	1048576	7	3778
2026-01-06 05:17:38.64	267.18	54.66	-24.2	-24.8	17.4	0.00e+00	0	44	102	1048576	8	3836
2026-01-06 05:17:41.66	265.25	54.08	-24.3	-24.9	17.4	0.00e+00	0	44	102	1048576	8	3869
2026-01-06 05:17:44.68	263.41	53.48	-24.6	-25.5	17.1	0.00e+00	0	44	102	1048576	8	4002
2026-01-06 05:17:47.70	261.64	52.86	-24.1	-24.5	17.6	0.00e+00	0	44	102	1048576	8	3759
2026-01-06 05:17:50.71	259.95	52.23	-24.1	-24.6	17.5	0.00e+00	0	44	102	1048576	8	3784
2026-01-06 05:17:53.73	258.33	51.57	-23.9	-24.1	17.8	0.00e+00	0	44	102	1048576	8	3665
2026-01-06 05:17:56.74	256.78	50.90	-23.9	-24.5	17.7	0.00e+00	0	44	102	1048576	7	3877
2026-01-06 05:17:59.76	255.30	50.22	-23.8	-23.9	17.9	0.00e+00	0	44	102	1048576	8	3622
2026-01-06 05:18:02.79	253.87	49.53	-24.1	-24.5	17.5	0.00e+00	0	44	102	1048576	8	3773
2026-01-06 05:18:05.81	252.52	48.83	-24.3	-24.9	17.3	0.00e+00	0	44	102	1048576	8	3874
2026-01-06 05:18:08.83	251.23	48.13	-24.0	-24.4	17.6	0.00e+00	0	44	102	1048576	8	3742
2026-01-06 05:18:11.85	249.99	47.42	-23.9	-24.0	17.8	0.00e+00	0	44	102	1048576	8	3646
2026-01-06 05:18:14.87	248.81	46.71	-23.7	-24.2	17.7	0.00e+00	0	44	102	1048576	7	3799
2026-01-06 05:18:17.90	247.68	46.00	-23.1	-22.9	18.5	0.00e+00	0	44	102	1048576	7	3510
2026-01-06 05:18:20.92	246.60	45.29	-23.1	-23.4	18.5	0.00e+00	0	44	102	1048576	6	3735
2026-01-06 05:18:23.94	245.57	44.58	-22.9	-23.5	18.7	0.00e+00	0	44	102	1048576	5	3853
2026-01-06 05:18:26.97	244.58	43.87	-23.4	-24.1	18.1	0.00e+00	0	44	102	1048576	6	3897
2026-01-06 05:18:29.99	243.64	43.17	-23.6	-24.4	18.0	0.00e+00	0	44	102	1048576	6	3963
2026-01-06 05:18:33.01	242.74	42.47	-23.4	-23.5	18.2	0.00e+00	0	44	102	1048576	7	3655
2026-01-06 05:18:36.04	241.87	41.78	-23.3	-23.9	18.2	0.00e+00	0	44	102	1048576	6	3848
2026-01-06 05:18:39.05	241.05	41.10	-23.2	-23.6	18.4	0.00e+00	0	44	102	1048576	6	3765
2026-01-06 05:18:42.07	240.25	40.42	-22.9	-23.0	18.6	0.00e+00	0	44	102	1048576	6	3649
2026-01-06 05:18:45.09	239.49	39.74	-23.3	-23.8	18.3	0.00e+00	0	44	102	1048576	6	3824
2026-01-06 05:18:48.11	238.76	39.08	-22.7	-22.5	18.9	0.00e+00	0	44	102	1048576	6	3530
2026-01-06 05:18:51.14	238.06	38.42	-22.8	-22.7	18.8	0.00e+00	0	44	102	1048576	6	3583
2026-01-06 05:18:54.16	237.39	37.77	-23.0	-23.2	18.5	0.00e+00	0	44	102	1048576	6	3689
2026-01-06 05:18:57.17	236.75	37.13	-23.1	-23.3	18.3	0.00e+00	0	44	102	1048576	6	3715
2026-01-06 05:19:00.19	236.13	36.49	-22.9	-23.1	18.5	0.00e+00	0	44	102	1048576	6	3670
2026-01-06 05:19:03.21	235.53	35.87	-22.9	-22.9	18.7	0.00e+00	0	44	102	1048576	6	3625
2026-01-06 05:19:06.23	234.96	35.25	-22.4	-22.5	19.1	3.10e-04	0	44	102	1048576	5	3630
2026-01-06 05:19:09.25	234.40	34.64	-22.4	-23.0	19.0	2.71e-04	0	44	102	1048576	4	3852
2026-01-06 05:19:12.27	233.87	34.04	-22.5	-22.7	18.9	2.94e-04	0	44	102	1048576	5	3688
2026-01-06 05:19:15.29	233.36	33.45	-22.4	-23.0	19.1	5.37e-04	0	44	102	1048576	4	3839
2026-01-06 05:19:18.31	232.86	32.87	-23.0	-23.8	18.4	4.03e-04	0	44	102	1048576	5	3920
2026-01-06 05:19:21.32	232.39	32.30	-23.2	-23.5	18.3	3.59e-04	0	44	102	1048576	6	3763
2026-01-06 05:19:24.33	231.93	31.74	-23.0	-23.6	18.4	4.43e-04	0	44	102	1048576	5	3891
2026-01-06 05:19:27.35	231.48	31.18	-22.7	-23.1	18.7	0.00e+00	0	44	102	1048576	5	3774
2026-01-06 05:19:30.37	231.05	30.63	-22.9	-23.6	18.5	0.00e+00	0	44	102	1048576	5	3876
2026-01-06 05:19:33.40	230.64	30.09	-22.8	-23.3	18.6	0.00e+00	0	44	102	1048576	5	3823
2026-01-06 05:19:36.42	230.24	29.56	-22.7	-23.0	18.7	0.00e+00	0	44	102	1048576	5	3754
2026-01-06 05:19:39.44	229.85	29.04	-22.8	-23.3	18.6	0.00e+00	0	44	102	1048576	5	3824
2026-01-06 05:19:42.46	229.47	28.52	-23.1	-23.3	18.3	0.00e+00	0	44	102	1048576	6	3719
2026-01-06 05:19:45.48	229.11	28.01	-22.9	-23.5	18.5	0.00e+00	0	44	102	1048576	5	3862
2026-01-06 05:19:48.49	228.76	27.52	-23.0	-23.7	18.3	0.00e+00	0	44	102	1048576	5	3909
2026-01-06 05:19:51.51	228.42	27.03	-23.4	-24.1	17.9	0.00e+00	0	44	102	1048576	6	3900
2026-01-06 05:19:54.53	228.09	26.54	-23.5	-23.8	17.8	0.00e+00	0	44	102	1048576	7	3719
2026-01-06 05:19:57.54	227.77	26.07	-23.2	-23.7	18.1	0.00e+00	0	44	102	1048576	6	3809
2026-01-06 05:20:00.57	227.46	25.60	-23.1	-23.5	18.2	0.00e+00	0	44	102	1048576	6	3749
2026-01-06 05:20:03.59	227.16	25.14	-22.8	-23.2	18.6	0.00e+00	0	44	102	1048576	5	3798
2026-01-06 05:20:06.61	226.86	24.68	-22.8	-23.2	18.5	0.00e+00	0	44	102	1048576	5	3797
2026-01-06 05:20:09.62	226.58	24.23	-22.9	-23.4	18.4	0.00e+00	0	44	102	1048576	5	3846
2026-01-06 05:20:12.64	226.30	23.79	-23.0	-23.7	18.3	0.00e+00	0	44	102	1048576	5	3902
2026-01-06 05:20:15.65	226.04	23.36	-23.3	-23.8	18.0	0.00e+00	0	44	102	1048576	6	3838
2026-01-06 05:20:18.68	225.77	22.93	-23.4	-24.2	17.8	0.00e+00	0	44	102	1048576	6	3912
2026-01-06 05:20:21.69	225.52	22.51	-24.0	-24.9	17.1	0.00e+00	0	44	102	1048576	7	3992
2026-01-06 05:20:24.70	225.27	22.10	-23.5	-23.7	17.7	0.00e+00	0	44	102	1048576	7	3706
2026-01-06 05:20:27.72	225.03	21.69	-23.4	-24.1	17.8	5.76e-04	0	44	102	1048576	6	3900
2026-01-06 05:20:30.74	224.80	21.29	-23.4	-24.1	17.8	6.35e-04	0	44	102	1048576	6	3890
2026-01-06 05:20:33.76	224.57	20.89	-23.4	-24.2	17.7	8.03e-04	0	44	102	1048576	6	3917
2026-01-06 05:20:36.79	224.35	20.50	-23.6	-24.4	17.6	1.71e-05	0	44	102	1048576	6	3981
2026-01-06 05:20:39.80	224.14	20.11	-24.0	-24.9	17.1	1.00e-03	0	44	102	1048576	7	3972
2026-01-06 05:20:42.82	223.93	19.73	-23.9	-24.7	17.1	1.18e-03	0	44	102	1048576	7	3938
2026-01-06 05:20:45.84	223.72	19.36	-23.9	-24.7	17.1	0.00e+00	0	44	102	1048576	7	3931
2026-01-06 05:20:48.86	223.52	18.99	-24.3	-25.0	16.7	0.00e+00	0	44	102	1048576	8	3892
2026-01-06 05:20:51.88	223.33	18.62	-24.3	-24.9	16.8	0.00e+00	0	44	102	1048576	8	3874
2026-01-06 05:20:54.89	223.14	18.26	-24.4	-25.2	16.6	0.00e+00	0	44	102	1048576	8	3954
2026-01-06 05:20:57.92	222.95	17.91	-24.6	-25.5	16.4	0.00e+00	0	44	102	1048576	8	4032
2026-01-06 05:21:00.94	222.77	17.56	-24.8	-25.5	16.1	0.00e+00	0	44	102	1048576	9	3924
2026-01-06 05:21:03.96	222.59	17.21	-24.7	-25.4	16.2	0.00e+00	0	44	102	1048576	9	3890
2026-01-06 05:21:06.98	222.42	16.87	-24.7	-25.3	16.2	0.00e+00	0	44	102	1048576	9	3858
2026-01-06 05:21:10.00	222.25	16.53	-24.6	-25.6	16.3	0.00e+00	0	44	102	1048576	8	4052
2026-01-06 05:21:13.03	222.09	16.20	-24.5	-25.3	16.5	0.00e+00	0	44	102	1048576	8	3981
2026-01-06 05:21:16.04	221.93	15.87	-24.6	-25.6	16.3	0.00e+00	0	44	102	1048576	8	4047
2026-01-06 05:21:19.07	221.77	15.55	-24.8	-25.5	16.1	0.00e+00	0	44	102	1048576	9	3918
2026-01-06 05:21:22.08	221.62	15.23	-24.8	-25.5	16.0	0.00e+00	0	44	102	1048576	9	3923
2026-01-06 05:21:25.10	221.46	14.91	-25.0	-26.0	15.8	0.00e+00	0	44	102	1048576	9	4034
2026-01-06 05:21:28.12	221.32	14.60	-24.9	-25.9	15.8	0.00e+00	0	44	102	1048576	9	4009
2026-01-06 05:21:31.14	221.17	14.29	-25.0	-26.0	15.7	0.00e+00	0	44	102	1048576	9	4042
2026-01-06 05:21:34.16	221.03	13.99	-24.9	-25.8	15.8	0.00e+00	0	44	102	1048576	9	4002
2026-01-06 05:21:37.19	220.90	13.68	-25.4	-26.3	15.2	0.00e+00	0	44	102	1048576	10	4015
2026-01-06 05:21:40.21	220.76	13.39	-25.2	-25.9	15.5	0.00e+00	0	44	102	1048576	10	3911
2026-01-06 05:21:43.22	220.63	13.09	-25.2	-26.0	15.4	0.00e+00	0	44	102	1048576	10	3939
2026-01-06 05:21:46.24	220.50	12.80	-25.4	-26.3	15.2	0.00e+00	0	44	102	1048576	10	4004
2026-01-06 05:21:49.27	220.37	12.51	-25.5	-26.6	15.1	0.00e+00	0	44	102	1048576	10	4076
2026-01-06 05:21:52.29	220.25	12.23	-25.4	-26.4	15.1	0.00e+00	0	44	102	1048576	10	4039
2026-01-06 05:21:55.31	220.13	11.95	-25.6	-26.8	15.0	1.10e-06	0	44	102	1048576	10	4130
2026-01-06 05:21:58.33	220.01	11.67	-25.8	-26.7	14.6	0.00e+00	0	44	102	1048576	11	4010
2026-01-06 05:22:01.35	219.89	11.39	-26.0	-27.2	14.4	2.20e-06	0	44	102	1048576	11	4152
2026-01-06 05:22:04.38	219.78	11.12	-26.1	-27.0	14.1	2.20e-06	0	44	102	1048576	12	3977
2026-01-06 05:22:07.40	219.67	10.85	-26.1	-27.1	14.0	1.10e-06	0	44	102	1048576	12	4012
2026-01-06 05:22:10.41	219.56	10.59	-25.8	-26.4	14.4	0.00e+00	0	44	102	1048576	12	3856
2026-01-06 05:22:13.43	219.45	10.32	-26.0	-27.1	14.3	0.00e+00	0	44	102	1048576	11	4125
2026-01-06 05:22:16.46	219.34	10.06	-26.1	-27.4	14.2	1.10e-06	0	44	102	1048576	11	4209
2026-01-06 05:22:19.48	219.24	9.80	-26.0	-26.9	14.1	1.10e-06	0	44	102	1048576	12	3962
2026-01-06 05:22:22.50	219.14	9.55	-26.6	-27.7	13.3	1.71e-05	0	44	102	1048576	13	4068
2026-01-06 05:22:25.51	219.04	9.29	-26.5	-27.4	13.5	5.70e-06	0	44	102	1048576	13	3991
2026-01-06 05:22:28.53	218.94	9.04	-26.6	-28.0	13.4	1.25e-05	0	44	102	1048576	12	4261
2026-01-06 05:22:31.55	218.84	8.80	-27.0	-28.5	12.8	3.20e-05	0	44	102	1048576	13	4279
2026-01-06 05:22:34.58	218.75	8.55	-26.5	-27.4	13.4	4.50e-06	0	44	102	1048576	13	3995
2026-01-06 05:22:37.59	218.66	8.31	-26.4	-27.6	13.5	5.70e-06	0	44	102	1048576	12	4163
2026-01-06 05:22:40.61	218.56	8.06	-26.3	-27.4	13.6	3.40e-06	0	44	102	1048576	12	4091
2026-01-06 05:22:43.63	218.48	7.82	-26.3	-27.5	13.6	1.25e-05	0	44	102	1048576	12	4127
2026-01-06 05:22:46.65	218.39	7.59	-26.2	-27.3	13.7	8.00e-06	0	44	102	1048576	12	4069
2026-01-06 05:22:49.67	218.30	7.35	-25.7	-26.9	12.5	1.25e-05	0	44	102	1048576	12	4137
2026-01-06 05:22:52.68	218.22	7.12	-26.4	-27.7	13.4	5.70e-06	0	44	102	1048576	12	4178
2026-01-06 05:22:55.70	218.13	6.89	-33.3	-42.9	3.8	8.45e-01	0	44	104	1048576	26	10896

#Closed at: 2026-01-06 05:22:56
#Recorded file [1 MB]: D:/data/31010_260106_081421.dat