passes_logs/2026/01/06/R2M6_AANII_01/R2M6_AANII_01__20260106_033050_FENGYUN_3E_rec.log

#Pass ID: 20260106_033050_FENGYUN 3E
#Satellite: FENGYUN 3E
#Configuration: FENGYUN 3E
#almurnet v.1.7.20240730
#Start time: 2026-01-06 03:36:08

#Version: 2.2.20231116
#Station: R2M6_AANII_01
#Location: 30.233357 lon 59.946436 lat
#TLE: 1 49008U 21062A   26005.56299987  .00000339  00000+0  18069-3 0  9991
#TLE: 2 49008  98.7472  10.8019 0001562 158.0357 202.0886 14.19884907233502

#Time	Az	El	Level	Level2	SNR	BER	BlckErr	Temp	State	Recorded	gain1	gain2
2026-01-06 03:36:08.16	85.76	36.11	-33.3	-44.7	3.8	8.47e-01	0	43	0	0	26	13383
2026-01-06 03:36:10.17	86.58	36.18	-34.1	-44.0	3.8	8.47e-01	0	44	104	0	27	11312
2026-01-06 03:36:12.18	87.41	36.25	-34.0	-43.5	3.8	8.46e-01	0	44	104	0	28	10632
2026-01-06 03:36:14.19	88.24	36.31	-34.1	-43.5	3.8	8.46e-01	0	44	104	0	28	10660
2026-01-06 03:36:16.21	89.07	36.36	-34.1	-43.5	3.8	8.47e-01	0	44	104	0	28	10665
2026-01-06 03:36:18.23	89.91	36.41	-34.0	-43.4	3.8	8.46e-01	0	44	104	0	28	10613
2026-01-06 03:36:20.24	90.75	36.45	-34.0	-43.4	3.8	8.46e-01	0	44	104	0	28	10574
2026-01-06 03:36:22.25	91.59	36.48	-34.0	-43.4	3.8	8.46e-01	0	44	104	0	28	10580
2026-01-06 03:36:24.27	92.44	36.50	-34.0	-43.4	3.8	8.46e-01	0	44	104	0	28	10618
2026-01-06 03:36:26.28	93.28	36.52	-34.0	-43.2	3.8	8.47e-01	0	44	104	0	28	10480
2026-01-06 03:36:28.30	94.13	36.54	-33.9	-43.8	3.8	8.46e-01	0	44	104	0	27	11146
2026-01-06 03:36:30.31	94.97	36.54	-34.0	-43.3	3.8	8.45e-01	0	44	104	0	28	10505
2026-01-06 03:36:32.33	95.82	36.54	-33.9	-43.2	3.8	8.46e-01	0	44	104	0	28	10449
2026-01-06 03:36:34.34	96.66	36.53	-33.8	-42.9	3.8	8.47e-01	0	44	104	0	28	10258
2026-01-06 03:36:36.36	97.51	36.52	-33.8	-42.9	3.8	8.46e-01	0	44	104	0	28	10290
2026-01-06 03:36:38.37	98.35	36.50	-33.7	-42.8	3.8	8.47e-01	0	44	104	0	28	10270
2026-01-06 03:36:40.39	99.19	36.47	-33.7	-42.8	3.8	8.46e-01	0	44	104	0	28	10272
2026-01-06 03:36:42.40	100.03	36.43	-33.7	-42.8	3.8	8.46e-01	0	44	104	0	28	10261
2026-01-06 03:36:44.41	100.87	36.39	-33.7	-42.8	3.8	8.47e-01	0	44	104	0	28	10180
2026-01-06 03:36:46.43	101.71	36.34	-33.7	-42.7	3.8	8.46e-01	0	44	104	0	28	10158
2026-01-06 03:36:48.44	102.54	36.29	-33.6	-42.1	3.8	8.46e-01	0	44	104	0	28	9501
2026-01-06 03:36:50.46	103.38	36.22	-33.7	-42.4	3.8	8.46e-01	0	44	104	0	28	9814
2026-01-06 03:36:52.47	104.20	36.15	-33.6	-42.1	3.8	8.47e-01	0	44	104	0	28	9483
2026-01-06 03:36:54.49	105.03	36.08	-33.4	-40.3	3.8	8.44e-01	0	44	104	0	28	7975
2026-01-06 03:36:56.50	105.85	36.00	-33.4	-40.2	3.9	8.43e-01	0	44	104	0	27	7921
2026-01-06 03:36:58.52	106.67	35.91	-30.9	-32.8	8.4	3.63e-01	0	44	104	0	23	4476
2026-01-06 03:37:00.53	107.48	35.82	-25.5	-25.4	16.0	0.00e+00	0	44	102	1048576	12	3581
2026-01-06 03:37:02.55	108.29	35.72	-25.5	-25.9	16.1	0.00e+00	0	44	102	1048576	11	3770
2026-01-06 03:37:04.56	109.09	35.61	-25.3	-25.5	16.3	0.00e+00	0	44	102	1048576	11	3686
2026-01-06 03:37:06.58	109.89	35.50	-25.1	-25.1	16.5	0.00e+00	0	44	102	1048576	11	3610
2026-01-06 03:37:08.59	110.68	35.38	-25.1	-25.2	16.5	0.00e+00	0	44	102	1048576	11	3631
2026-01-06 03:37:10.60	111.47	35.26	-24.1	-23.9	17.6	0.00e+00	0	44	102	1048576	9	3545
2026-01-06 03:37:12.62	112.25	35.13	-23.2	-23.1	18.5	0.00e+00	0	44	102	1048576	7	3551
2026-01-06 03:37:14.62	113.02	35.00	-23.0	-23.2	18.6	0.00e+00	0	44	102	1048576	6	3675
2026-01-06 03:37:16.63	113.78	34.86	-22.9	-23.1	18.8	0.00e+00	0	44	102	1048576	6	3650
2026-01-06 03:37:18.65	114.55	34.72	-23.0	-23.1	18.8	0.00e+00	0	44	102	1048576	6	3667
2026-01-06 03:37:20.66	115.30	34.57	-22.9	-22.9	18.8	0.00e+00	0	44	102	1048576	6	3625
2026-01-06 03:37:22.67	116.05	34.42	-22.9	-22.9	18.9	0.00e+00	0	44	102	1048576	6	3614
2026-01-06 03:37:24.68	116.79	34.26	-22.7	-22.5	19.1	0.00e+00	0	44	102	1048576	6	3524
2026-01-06 03:37:26.69	117.52	34.10	-22.8	-22.8	18.9	0.00e+00	0	44	102	1048576	6	3595
2026-01-06 03:37:28.71	118.25	33.94	-23.0	-23.1	18.7	0.00e+00	0	44	102	1048576	6	3663
2026-01-06 03:37:30.73	118.97	33.77	-23.0	-23.3	18.6	0.00e+00	0	44	102	1048576	6	3698
2026-01-06 03:37:32.74	119.68	33.59	-23.2	-23.7	18.4	0.00e+00	0	44	102	1048576	6	3798
2026-01-06 03:37:34.75	120.38	33.42	-23.1	-23.5	18.5	0.00e+00	0	44	102	1048576	6	3741
2026-01-06 03:37:36.77	121.08	33.23	-23.2	-23.6	18.5	0.00e+00	0	44	102	1048576	6	3764
2026-01-06 03:37:38.79	121.78	33.05	-23.1	-23.5	18.5	0.00e+00	0	44	102	1048576	6	3748
2026-01-06 03:37:40.80	122.46	32.86	-23.2	-23.7	18.4	0.00e+00	0	44	102	1048576	6	3798
2026-01-06 03:37:42.81	123.13	32.67	-23.0	-23.2	18.6	0.00e+00	0	44	102	1048576	6	3679
2026-01-06 03:37:44.81	123.79	32.48	-23.0	-23.1	18.7	0.00e+00	0	44	102	1048576	6	3669
2026-01-06 03:37:46.84	124.45	32.28	-22.9	-23.1	18.6	0.00e+00	0	44	102	1048576	6	3659
2026-01-06 03:37:48.85	125.10	32.08	-23.1	-23.4	18.5	0.00e+00	0	44	102	1048576	6	3731
2026-01-06 03:37:50.86	125.75	31.88	-22.8	-22.8	18.8	0.00e+00	0	44	102	1048576	6	3585
2026-01-06 03:37:52.88	126.38	31.67	-23.1	-23.4	18.5	0.00e+00	0	44	102	1048576	6	3726
2026-01-06 03:37:54.89	127.01	31.47	-23.2	-23.7	18.4	0.00e+00	0	44	102	1048576	6	3793
2026-01-06 03:37:56.89	127.62	31.26	-23.7	-24.1	17.9	0.00e+00	0	44	102	1048576	7	3783
2026-01-06 03:37:58.91	128.24	31.05	-23.6	-24.0	18.0	0.00e+00	0	44	102	1048576	7	3753
2026-01-06 03:38:00.92	128.84	30.83	-23.4	-23.6	18.2	0.00e+00	0	44	102	1048576	7	3663
2026-01-06 03:38:02.93	129.43	30.62	-22.9	-22.9	18.7	0.00e+00	0	44	102	1048576	6	3622
2026-01-06 03:38:04.95	130.02	30.40	-22.7	-22.6	18.9	0.00e+00	0	44	102	1048576	6	3559
2026-01-06 03:38:06.97	130.60	30.18	-22.8	-22.8	18.7	0.00e+00	0	44	102	1048576	6	3584
2026-01-06 03:38:08.98	131.18	29.96	-23.1	-23.4	18.5	0.00e+00	0	44	102	1048576	6	3718
2026-01-06 03:38:10.99	131.74	29.74	-23.4	-24.1	18.2	0.00e+00	0	44	102	1048576	6	3889
2026-01-06 03:38:13.00	132.30	29.52	-23.6	-24.0	17.9	0.00e+00	0	44	102	1048576	7	3767
2026-01-06 03:38:15.01	132.85	29.30	-23.5	-23.7	18.1	0.00e+00	0	44	102	1048576	7	3703
2026-01-06 03:38:17.02	133.39	29.07	-23.2	-23.0	18.3	0.00e+00	0	44	102	1048576	7	3552
2026-01-06 03:38:19.03	133.92	28.85	-23.1	-22.8	18.5	0.00e+00	0	44	102	1048576	7	3509
2026-01-06 03:38:21.05	134.45	28.62	-23.2	-23.1	18.4	3.40e-06	0	44	102	1048576	7	3558
2026-01-06 03:38:23.06	134.97	28.40	-23.3	-23.4	18.2	0.00e+00	0	44	102	1048576	7	3634
2026-01-06 03:38:25.08	135.49	28.17	-23.5	-23.7	18.1	0.00e+00	0	44	102	1048576	7	3694
2026-01-06 03:38:27.09	135.99	27.94	-23.5	-23.7	18.0	0.00e+00	0	44	102	1048576	7	3694
2026-01-06 03:38:29.11	136.49	27.71	-23.7	-24.3	17.7	0.00e+00	0	44	102	1048576	7	3826
2026-01-06 03:38:31.12	136.98	27.48	-23.3	-23.3	18.2	0.00e+00	0	44	102	1048576	7	3598
2026-01-06 03:38:33.13	137.47	27.25	-23.2	-23.2	18.3	2.20e-06	0	44	102	1048576	7	3582
2026-01-06 03:38:35.14	137.95	27.03	-23.2	-23.1	18.4	0.00e+00	0	44	102	1048576	7	3551
2026-01-06 03:38:37.16	138.42	26.79	-23.3	-23.3	18.2	0.00e+00	0	44	102	1048576	7	3599
2026-01-06 03:38:39.18	138.89	26.56	-23.5	-23.7	18.0	0.00e+00	0	44	102	1048576	7	3699
2026-01-06 03:38:41.20	139.35	26.33	-23.5	-23.9	17.9	0.00e+00	0	44	102	1048576	7	3734
2026-01-06 03:38:43.21	139.80	26.11	-23.5	-23.8	17.7	0.00e+00	0	44	102	1048576	7	3719
2026-01-06 03:38:45.22	140.24	25.88	-23.4	-23.6	18.0	0.00e+00	0	44	102	1048576	7	3676
2026-01-06 03:38:47.23	140.68	25.65	-23.3	-23.4	18.1	0.00e+00	0	44	102	1048576	7	3636
2026-01-06 03:38:49.25	141.12	25.42	-23.3	-23.4	18.1	0.00e+00	0	44	102	1048576	7	3623
2026-01-06 03:38:51.26	141.54	25.19	-23.5	-23.7	17.9	0.00e+00	0	44	102	1048576	7	3691
2026-01-06 03:38:53.28	141.97	24.96	-23.6	-24.0	17.8	0.00e+00	0	44	102	1048576	7	3754
2026-01-06 03:38:55.29	142.38	24.73	-23.6	-24.0	17.7	0.00e+00	0	44	102	1048576	7	3762
2026-01-06 03:38:57.30	142.79	24.51	-23.5	-23.8	17.8	3.40e-06	0	44	102	1048576	7	3731
2026-01-06 03:38:59.32	143.20	24.28	-23.5	-23.8	17.8	0.00e+00	0	44	102	1048576	7	3726
2026-01-06 03:39:01.34	143.60	24.05	-23.7	-24.2	17.6	0.00e+00	0	44	102	1048576	7	3817
2026-01-06 03:39:03.36	143.99	23.83	-23.6	-24.1	17.7	3.77e-05	0	44	102	1048576	7	3786
2026-01-06 03:39:05.36	144.38	23.60	-23.7	-24.3	17.5	0.00e+00	0	44	102	1048576	7	3830
2026-01-06 03:39:07.39	144.76	23.38	-23.8	-24.4	17.5	0.00e+00	0	44	102	1048576	7	3865
2026-01-06 03:39:09.40	145.14	23.15	-23.8	-24.4	17.5	0.00e+00	0	44	102	1048576	7	3851
2026-01-06 03:39:11.41	145.51	22.93	-23.7	-24.2	17.5	0.00e+00	0	44	102	1048576	7	3814
2026-01-06 03:39:13.41	145.87	22.71	-23.7	-24.1	17.6	0.00e+00	0	44	102	1048576	7	3793
2026-01-06 03:39:15.42	146.23	22.49	-23.4	-23.5	17.9	0.00e+00	0	44	102	1048576	7	3647
2026-01-06 03:39:17.43	146.59	22.27	-23.4	-23.5	17.9	0.00e+00	0	44	102	1048576	7	3645
2026-01-06 03:39:19.44	146.94	22.05	-23.5	-23.8	17.7	0.00e+00	0	44	102	1048576	7	3727
2026-01-06 03:39:21.45	147.29	21.83	-23.6	-24.0	17.6	0.00e+00	0	44	102	1048576	7	3775
2026-01-06 03:39:23.47	147.63	21.61	-23.8	-24.4	17.4	0.00e+00	0	44	102	1048576	7	3866
2026-01-06 03:39:25.48	147.97	21.39	-24.0	-24.7	17.2	0.00e+00	0	44	102	1048576	7	3939
2026-01-06 03:39:27.50	148.30	21.18	-24.0	-24.8	17.2	0.00e+00	0	44	102	1048576	7	3942
2026-01-06 03:39:29.51	148.63	20.96	-24.1	-24.5	17.1	0.00e+00	0	44	102	1048576	8	3767
2026-01-06 03:39:31.53	148.95	20.74	-23.9	-24.1	17.3	0.00e+00	0	44	102	1048576	8	3678
2026-01-06 03:39:33.54	149.27	20.53	-23.9	-24.1	17.3	0.00e+00	0	44	102	1048576	8	3685
2026-01-06 03:39:35.56	149.59	20.32	-23.9	-24.2	17.2	0.00e+00	0	44	102	1048576	8	3710
2026-01-06 03:39:37.57	149.90	20.11	-24.0	-24.4	17.1	0.00e+00	0	44	102	1048576	8	3752
2026-01-06 03:39:39.59	150.21	19.89	-24.2	-24.8	16.9	0.00e+00	0	44	102	1048576	8	3842
2026-01-06 03:39:41.60	150.51	19.68	-24.3	-25.0	16.8	0.00e+00	0	44	102	1048576	8	3896
2026-01-06 03:39:43.62	150.81	19.48	-24.3	-25.0	16.7	0.00e+00	0	44	102	1048576	8	3904
2026-01-06 03:39:45.62	151.10	19.27	-24.3	-25.0	16.8	0.00e+00	0	44	102	1048576	8	3896
2026-01-06 03:39:47.62	151.39	19.06	-24.4	-25.1	16.7	0.00e+00	0	44	102	1048576	8	3919
2026-01-06 03:39:49.63	151.68	18.86	-24.4	-25.3	16.6	0.00e+00	0	44	102	1048576	8	3970
2026-01-06 03:39:51.64	151.96	18.65	-24.4	-25.2	16.6	0.00e+00	0	44	102	1048576	8	3935
2026-01-06 03:39:53.66	152.24	18.45	-24.4	-25.1	16.7	0.00e+00	0	44	102	1048576	8	3923
2026-01-06 03:39:55.67	152.52	18.25	-24.3	-25.1	16.6	0.00e+00	0	44	102	1048576	8	3920
2026-01-06 03:39:57.69	152.79	18.04	-24.4	-25.2	16.5	0.00e+00	0	44	102	1048576	8	3953
2026-01-06 03:39:59.71	153.06	17.84	-24.6	-25.1	16.3	0.00e+00	0	44	102	1048576	9	3831
2026-01-06 03:40:01.71	153.32	17.64	-24.7	-25.4	16.2	0.00e+00	0	44	102	1048576	9	3883
2026-01-06 03:40:03.73	153.59	17.44	-24.9	-25.8	16.0	0.00e+00	0	44	102	1048576	9	3985
2026-01-06 03:40:05.75	153.85	17.25	-25.0	-26.0	15.8	0.00e+00	0	44	102	1048576	9	4034
2026-01-06 03:40:07.76	154.10	17.05	-25.0	-26.0	15.8	0.00e+00	0	44	102	1048576	9	4038
2026-01-06 03:40:09.78	154.36	16.85	-25.3	-26.2	15.4	0.00e+00	0	44	102	1048576	10	3981
2026-01-06 03:40:11.79	154.61	16.66	-25.3	-26.1	15.5	0.00e+00	0	44	102	1048576	10	3967
2026-01-06 03:40:13.80	154.85	16.47	-25.1	-25.7	15.7	0.00e+00	0	44	102	1048576	10	3860
2026-01-06 03:40:15.81	155.10	16.27	-25.1	-25.7	15.7	2.91e-04	0	44	102	1048576	10	3873
2026-01-06 03:40:17.83	155.34	16.08	-24.9	-25.2	16.0	2.20e-04	0	44	102	1048576	10	3743
2026-01-06 03:40:19.85	155.58	15.89	-24.9	-25.2	15.9	0.00e+00	0	44	102	1048576	10	3752
2026-01-06 03:40:21.86	155.81	15.70	-24.8	-25.1	16.0	1.10e-06	0	44	102	1048576	10	3726
2026-01-06 03:40:23.87	156.04	15.51	-24.8	-25.1	16.0	2.51e-05	0	44	102	1048576	10	3728
2026-01-06 03:40:25.89	156.27	15.33	-24.9	-25.3	15.9	0.00e+00	0	44	102	1048576	10	3776
2026-01-06 03:40:27.90	156.50	15.14	-24.9	-25.4	15.8	0.00e+00	0	44	102	1048576	10	3783
2026-01-06 03:40:29.92	156.72	14.96	-25.0	-25.5	15.7	0.00e+00	0	44	102	1048576	10	3804
2026-01-06 03:40:31.93	156.94	14.77	-25.1	-25.8	15.6	0.00e+00	0	44	102	1048576	10	3883
2026-01-06 03:40:33.94	157.16	14.59	-25.2	-25.9	15.5	0.00e+00	0	44	102	1048576	10	3898
2026-01-06 03:40:35.96	157.38	14.41	-25.2	-26.0	15.4	0.00e+00	0	44	102	1048576	10	3946
2026-01-06 03:40:37.98	157.59	14.22	-25.5	-26.5	15.2	0.00e+00	0	44	102	1048576	10	4063
2026-01-06 03:40:39.99	157.80	14.04	-25.6	-26.7	15.0	0.00e+00	0	44	102	1048576	10	4124
2026-01-06 03:40:42.01	158.01	13.86	-25.4	-26.4	15.2	0.00e+00	0	44	102	1048576	10	4047
2026-01-06 03:40:44.02	158.21	13.69	-25.6	-26.8	15.0	0.00e+00	0	44	102	1048576	10	4139
2026-01-06 03:40:46.02	158.42	13.51	-25.4	-26.4	15.2	1.10e-06	0	44	102	1048576	10	4049
2026-01-06 03:40:48.03	158.62	13.33	-25.5	-26.5	15.1	0.00e+00	0	44	102	1048576	10	4074
2026-01-06 03:40:50.04	158.82	13.16	-25.6	-26.4	14.9	0.00e+00	0	44	102	1048576	11	3930
2026-01-06 03:40:52.05	159.01	12.99	-25.8	-26.8	14.6	1.10e-06	0	44	102	1048576	11	4047
2026-01-06 03:40:54.06	159.21	12.81	-25.9	-26.9	14.6	0.00e+00	0	44	102	1048576	11	4060
2026-01-06 03:40:56.08	159.40	12.64	-26.1	-27.4	14.3	1.10e-06	0	44	102	1048576	11	4181
2026-01-06 03:40:58.09	159.59	12.47	-25.9	-26.9	14.6	0.00e+00	0	44	102	1048576	11	4071
2026-01-06 03:41:00.10	159.78	12.30	-26.0	-27.2	14.4	0.00e+00	0	44	102	1048576	11	4144
2026-01-06 03:41:02.08	159.96	12.13	-26.1	-26.9	14.2	0.00e+00	0	44	102	1048576	12	3970
2026-01-06 03:41:04.10	160.14	11.96	-26.1	-27.0	14.2	2.20e-06	0	44	102	1048576	12	3978
2026-01-06 03:41:06.11	160.33	11.79	-26.1	-26.9	14.2	1.10e-06	0	44	102	1048576	12	3966
2026-01-06 03:41:08.13	160.51	11.63	-26.1	-26.9	14.2	1.10e-06	0	44	102	1048576	12	3967
2026-01-06 03:41:10.15	160.69	11.46	-26.0	-26.9	14.2	1.10e-06	0	44	102	1048576	12	3964
2026-01-06 03:41:12.16	160.86	11.30	-25.9	-27.1	14.4	1.10e-06	0	44	102	1048576	11	4122
2026-01-06 03:41:14.18	161.04	11.13	-26.2	-27.2	14.0	1.10e-06	0	44	102	1048576	12	4033
2026-01-06 03:41:16.19	161.21	10.97	-26.0	-26.8	14.2	2.20e-06	0	44	102	1048576	12	3930
2026-01-06 03:41:18.20	161.38	10.81	-25.9	-27.1	14.4	0.00e+00	0	44	102	1048576	11	4117
2026-01-06 03:41:20.21	161.55	10.64	-26.1	-27.4	14.2	7.53e-04	0	44	102	1048576	11	4206
2026-01-06 03:41:22.22	161.71	10.48	-26.0	-26.7	14.2	1.10e-06	0	44	102	1048576	12	3932
2026-01-06 03:41:24.24	161.88	10.32	-25.9	-27.1	14.3	2.20e-06	0	44	102	1048576	11	4127
2026-01-06 03:41:26.26	162.04	10.16	-25.9	-27.1	14.3	0.00e+00	0	44	102	1048576	11	4129
2026-01-06 03:41:28.27	162.20	10.00	-26.1	-27.4	14.1	2.20e-06	0	44	102	1048576	11	4216
2026-01-06 03:41:30.28	162.36	9.85	-26.1	-27.5	14.1	1.07e-03	0	44	102	1048576	11	4236
2026-01-06 03:41:32.30	162.52	9.69	-26.2	-27.4	13.8	1.08e-03	0	44	102	1048576	12	4100
2026-01-06 03:41:34.31	162.68	9.53	-26.3	-27.6	13.7	1.48e-05	0	44	102	1048576	12	4151
2026-01-06 03:41:36.32	162.84	9.38	-26.3	-27.6	13.6	1.13e-03	0	44	102	1048576	12	4167
2026-01-06 03:41:38.33	162.99	9.23	-26.4	-27.7	13.5	1.20e-03	0	44	102	1048576	12	4196
2026-01-06 03:41:40.34	163.14	9.07	-26.4	-27.8	13.5	6.80e-06	0	44	102	1048576	12	4229
2026-01-06 03:41:42.36	163.29	8.92	-26.6	-27.7	13.2	1.30e-03	0	44	102	1048576	13	4080
2026-01-06 03:41:44.38	163.44	8.77	-27.1	-28.4	12.5	1.20e-04	0	44	102	1048576	14	4156
2026-01-06 03:41:46.39	163.59	8.62	-26.7	-27.8	13.1	1.25e-05	0	44	102	1048576	13	4117
2026-01-06 03:41:48.40	163.74	8.47	-26.9	-28.4	12.8	8.12e-05	0	44	102	1048576	13	4268
2026-01-06 03:41:50.42	163.88	8.32	-26.9	-28.4	12.8	6.63e-05	0	44	102	1048576	13	4273
2026-01-06 03:41:52.43	164.02	8.17	-26.9	-28.4	12.7	3.77e-05	0	44	102	1048576	13	4285
2026-01-06 03:41:54.45	164.17	8.02	-27.0	-28.6	12.6	4.92e-05	0	44	102	1048576	13	4321
2026-01-06 03:41:56.46	164.31	7.87	-26.9	-28.3	12.8	5.95e-05	0	44	102	1048576	13	4240
2026-01-06 03:41:58.48	164.45	7.72	-26.3	-27.1	13.5	1.14e-05	0	44	102	1048576	13	3917
2026-01-06 03:42:00.50	164.59	7.58	-26.5	-27.9	13.3	2.17e-05	0	44	102	1048576	12	4233
2026-01-06 03:42:02.51	164.72	7.43	-26.5	-27.6	13.2	1.25e-05	0	44	102	1048576	13	4049
2026-01-06 03:42:04.53	164.86	7.29	-26.5	-27.9	13.3	1.60e-05	0	44	102	1048576	12	4256
2026-01-06 03:42:06.54	164.99	7.14	-26.5	-28.0	13.2	1.37e-05	0	44	102	1048576	12	4273
2026-01-06 03:42:08.56	165.13	7.00	-32.5	-42.5	3.8	8.47e-01	0	44	104	1048576	24	11421

#Closed at: 2026-01-06 03:42:09
#Recorded file [1 MB]: D:/data/31010_260106_063659.dat