passes_logs/2026/01/20/T1/T1__20260120_135426_FENGYUN_3E_rec.log

#Pass ID: 20260120_135426_FENGYUN 3E
#Satellite: FENGYUN 3E
#Configuration: FENGYUN 3E
#almurnet v.1.7.20251203
#Start time: 2026-01-20 13:54:28

#Version: 2.0.20230620
#Station: T1
#Location: 37.570604 lon 55.790049 lat
#TLE: 1 49008U 21062A   26020.00892250 -.00000287  00000+0 -11478-3 0  9990
#TLE: 2 49008  98.7482  25.0782 0002252 128.5071 231.6308 14.19884466235554

#Time	Az	El	Level	Level2	SNR	BER	BlckErr	Temp	State	Recorded	gain1	gain2
2026-01-20 13:54:28.64	150.78	5.13	-50.2	-60.1	3.8	8.46e-01	0	38	0	0	70	11527
2026-01-20 13:54:32.62	150.72	5.42	-50.2	-60.7	3.8	8.48e-01	0	38	104	0	71	11605
2026-01-20 13:54:36.60	150.66	5.71	-50.2	-60.4	3.8	8.47e-01	0	39	104	0	71	11277
2026-01-20 13:54:40.60	150.60	6.00	-49.9	-58.9	3.8	8.45e-01	0	39	104	0	70	10022
2026-01-20 13:54:44.58	150.53	6.30	-49.9	-58.7	3.8	8.45e-01	0	39	104	0	70	9787
2026-01-20 13:54:48.57	150.47	6.60	-50.2	-60.6	3.8	8.47e-01	0	39	104	0	70	12097
2026-01-20 13:54:52.56	150.40	6.91	-50.2	-60.3	3.8	8.48e-01	0	40	104	0	70	11756
2026-01-20 13:54:56.55	150.33	7.21	-49.7	-57.7	4.1	8.43e-01	0	40	0	0	70	8713
2026-01-20 13:55:00.54	150.26	7.53	-47.8	-52.1	7.4	1.46e-01	0	40	0	8388608	66	5748
2026-01-20 13:55:04.53	150.18	7.84	-44.7	-47.1	12.6	2.92e-04	0	40	0	36700160	60	4587
2026-01-20 13:55:08.52	150.11	8.16	-42.2	-44.1	15.3	0.00e+00	0	40	0	66060288	55	4299
2026-01-20 13:55:12.51	150.03	8.49	-42.3	-44.2	15.0	0.00e+00	0	40	0	94371840	54	4615
2026-01-20 13:55:16.51	149.95	8.81	-44.6	-46.9	12.7	6.98e-05	0	40	0	123731968	58	5041
2026-01-20 13:55:20.49	149.87	9.15	-44.2	-46.4	13.2	7.70e-04	0	40	0	153092096	59	4490
2026-01-20 13:55:24.48	149.79	9.48	-40.6	-42.3	17.1	0.00e+00	0	40	0	175112192	51	4431
2026-01-20 13:55:28.47	149.70	9.82	-39.3	-40.9	18.4	0.00e+00	0	40	0	204472320	49	4224
2026-01-20 13:55:32.46	149.62	10.17	-39.1	-40.6	18.7	0.00e+00	0	40	0	232783872	48	4340
2026-01-20 13:55:36.45	149.53	10.52	-39.1	-40.7	18.7	0.00e+00	0	40	0	262144000	48	4355
2026-01-20 13:55:40.44	149.43	10.88	-39.1	-40.7	18.7	0.00e+00	0	40	0	290455552	48	4344
2026-01-20 13:55:44.44	149.34	11.24	-38.7	-40.2	19.2	0.00e+00	0	41	0	319815680	48	4105
2026-01-20 13:55:48.43	149.24	11.61	-38.5	-40.0	19.1	0.00e+00	0	40	0	348127232	47	4252
2026-01-20 13:55:52.41	149.14	11.98	-38.5	-40.0	19.1	0.00e+00	0	41	0	377487360	47	4272
2026-01-20 13:55:56.40	149.04	12.35	-38.1	-39.6	19.4	0.00e+00	0	41	0	405798912	47	4066
2026-01-20 13:56:00.39	148.93	12.74	-38.0	-39.4	19.6	0.00e+00	0	41	0	435159040	46	4223
2026-01-20 13:56:04.38	148.82	13.13	-37.9	-39.3	19.8	0.00e+00	0	41	0	463470592	46	4161
2026-01-20 13:56:08.36	148.71	13.52	-37.8	-39.2	19.8	0.00e+00	0	41	0	492830720	46	4133
2026-01-20 13:56:12.35	148.60	13.92	-37.6	-39.0	20.1	0.00e+00	0	41	0	521142272	45	4244
2026-01-20 13:56:16.33	148.48	14.33	-37.5	-38.8	20.2	0.00e+00	0	41	0	549453824	45	4179
2026-01-20 13:56:20.32	148.35	14.75	-37.5	-38.8	20.2	0.00e+00	0	41	0	578813952	45	4186
2026-01-20 13:56:24.32	148.23	15.17	-37.4	-38.8	20.2	0.00e+00	0	41	0	607125504	45	4166
2026-01-20 13:56:28.31	148.10	15.60	-37.4	-38.7	20.3	0.00e+00	0	41	0	636485632	45	4143
2026-01-20 13:56:32.31	147.96	16.04	-37.1	-38.4	20.6	0.00e+00	0	41	0	664797184	44	4224
2026-01-20 13:56:36.30	147.82	16.49	-37.3	-38.6	20.4	0.00e+00	0	41	0	694157312	44	4335
2026-01-20 13:56:40.28	147.68	16.94	-37.0	-38.4	20.6	0.00e+00	0	41	0	722468864	44	4195
2026-01-20 13:56:44.27	147.53	17.40	-36.9	-38.3	20.7	0.00e+00	0	41	0	751828992	44	4160
2026-01-20 13:56:48.25	147.38	17.87	-36.9	-38.3	20.7	0.00e+00	0	41	0	780140544	44	4157
2026-01-20 13:56:52.24	147.22	18.35	-36.9	-38.3	20.7	0.00e+00	0	41	0	808452096	44	4162
2026-01-20 13:56:56.23	147.06	18.84	-36.9	-38.3	20.6	0.00e+00	0	41	0	837812224	44	4169
2026-01-20 13:57:00.22	146.89	19.34	-36.8	-38.2	20.7	0.00e+00	0	41	0	866123776	44	4113
2026-01-20 13:57:04.21	146.71	19.84	-36.7	-38.0	20.8	0.00e+00	0	41	0	895483904	44	4051
2026-01-20 13:57:08.20	146.53	20.36	-36.7	-38.0	20.9	0.00e+00	0	41	0	924844032	44	4036
2026-01-20 13:57:12.19	146.34	20.89	-36.4	-37.7	21.1	0.00e+00	0	41	0	953155584	43	4128
2026-01-20 13:57:16.18	146.14	21.43	-36.0	-37.3	21.3	0.00e+00	0	41	0	981467136	42	4189
2026-01-20 13:57:20.16	145.94	21.98	-35.9	-37.3	21.4	0.00e+00	0	41	0	1010827264	42	4147
2026-01-20 13:57:24.15	145.73	22.55	-36.1	-37.4	21.3	0.00e+00	0	41	0	1039138816	42	4214
2026-01-20 13:57:28.14	145.51	23.12	-35.9	-37.2	21.4	0.00e+00	0	41	0	1068498944	42	4132
2026-01-20 13:57:32.12	145.28	23.71	-35.8	-37.1	21.5	0.00e+00	0	41	0	1096810496	42	4080
2026-01-20 13:57:36.11	145.05	24.31	-36.0	-37.3	21.2	0.00e+00	0	41	0	1126170624	42	4192
2026-01-20 13:57:40.10	144.80	24.92	-36.2	-37.6	21.0	0.00e+00	0	41	0	1154482176	42	4331
2026-01-20 13:57:44.09	144.54	25.55	-36.2	-37.7	21.0	0.00e+00	0	42	0	1183842304	42	4355
2026-01-20 13:57:48.07	144.27	26.20	-36.2	-37.6	21.0	0.00e+00	0	41	0	1212153856	42	4325
2026-01-20 13:57:52.07	143.99	26.86	-36.1	-37.6	21.1	0.00e+00	0	42	0	1240465408	42	4296
2026-01-20 13:57:56.06	143.70	27.53	-35.8	-37.2	21.4	0.00e+00	0	41	0	1269825536	42	4114
2026-01-20 13:58:00.05	143.39	28.22	-35.3	-36.6	22.0	0.00e+00	0	41	0	1299185664	41	4066
2026-01-20 13:58:04.04	143.07	28.93	-35.2	-36.4	22.1	0.00e+00	0	41	0	1327497216	40	4239
2026-01-20 13:58:08.04	142.74	29.65	-35.3	-36.5	22.1	0.00e+00	0	41	0	1355808768	40	4276
2026-01-20 13:58:12.03	142.39	30.39	-35.2	-36.5	22.1	0.00e+00	0	41	0	1385168896	40	4254
2026-01-20 13:58:16.03	142.02	31.16	-35.4	-36.7	21.9	0.00e+00	0	41	0	1413480448	40	4369
2026-01-20 13:58:20.02	141.63	31.94	-35.5	-36.9	21.7	0.00e+00	0	41	0	1442840576	40	4451
2026-01-20 13:58:24.01	141.23	32.73	-35.6	-37.0	21.6	0.00e+00	0	41	0	1471152128	40	4513
2026-01-20 13:58:28.00	140.80	33.55	-35.7	-37.1	21.5	0.00e+00	0	42	0	1500512256	40	4572
2026-01-20 13:58:31.98	140.35	34.39	-35.4	-36.7	21.8	0.00e+00	0	41	0	1528823808	40	4379
2026-01-20 13:58:35.97	139.88	35.25	-35.2	-36.5	22.1	0.00e+00	0	41	0	1558183936	40	4263
2026-01-20 13:58:39.95	139.38	36.13	-35.2	-36.5	22.0	0.00e+00	0	41	0	1586495488	40	4284
2026-01-20 13:58:43.94	138.85	37.03	-35.5	-36.8	21.8	0.00e+00	0	42	0	1614807040	40	4416
2026-01-20 13:58:47.93	138.28	37.95	-35.4	-36.8	21.9	0.00e+00	0	42	0	1644167168	40	4392
2026-01-20 13:58:51.91	137.69	38.90	-35.4	-36.7	21.9	0.00e+00	0	42	0	1672478720	40	4352
2026-01-20 13:58:55.91	137.06	39.87	-36.2	-37.0	22.4	0.00e+00	0	41	0	1701838848	42	4051
2026-01-20 13:58:59.89	136.39	40.86	-36.1	-36.9	22.5	0.00e+00	0	42	0	1731198976	42	3992
2026-01-20 13:59:03.88	135.67	41.88	-35.8	-36.6	22.8	0.00e+00	0	42	0	1759510528	42	3852
2026-01-20 13:59:07.87	134.91	42.92	-35.9	-36.7	22.6	0.00e+00	0	41	0	1787822080	41	4124
2026-01-20 13:59:11.87	134.09	43.99	-36.1	-36.9	22.5	0.00e+00	0	41	0	1817182208	42	3980
2026-01-20 13:59:15.86	133.22	45.07	-36.2	-37.1	22.4	0.00e+00	0	41	0	1845493760	42	4057
2026-01-20 13:59:19.84	132.28	46.18	-36.3	-37.2	22.2	0.00e+00	0	41	0	1874853888	42	4114
2026-01-20 13:59:23.84	131.28	47.31	-36.9	-37.8	21.7	0.00e+00	0	42	0	1903165440	43	4151
2026-01-20 13:59:27.83	130.19	48.46	-37.4	-38.3	21.5	0.00e+00	0	42	0	1932525568	44	4150
2026-01-20 13:59:31.82	129.02	49.63	-37.1	-37.9	21.7	0.00e+00	0	42	0	1960837120	44	4003
2026-01-20 13:59:35.81	127.76	50.82	-37.7	-38.6	21.1	0.00e+00	0	41	0	1990197248	45	4076
2026-01-20 13:59:39.79	126.40	52.01	-37.4	-38.3	21.4	0.00e+00	0	42	0	2018508800	45	3930
2026-01-20 13:59:43.79	124.91	53.23	-37.0	-37.9	21.8	0.00e+00	0	42	0	2046820352	44	3984
2026-01-20 13:59:47.77	123.30	54.44	-37.9	-38.8	21.0	0.00e+00	0	42	0	2076180480	45	4158
2026-01-20 13:59:51.77	121.54	55.67	-37.7	-38.6	21.2	0.00e+00	0	41	0	2105540608	45	4079
2026-01-20 13:59:55.76	119.62	56.89	-37.3	-38.2	21.5	0.00e+00	0	42	0	2133852160	45	3897
2026-01-20 13:59:59.75	117.52	58.10	-37.4	-38.3	21.5	0.00e+00	0	42	0	2163212288	45	3927
2026-01-20 14:00:03.75	115.21	59.30	-37.5	-38.4	21.4	0.00e+00	0	42	0	2191523840	44	4213
2026-01-20 14:00:07.74	112.70	60.48	-37.4	-38.2	21.5	0.00e+00	0	42	0	2220883968	44	4141
2026-01-20 14:00:11.72	109.94	61.61	-37.0	-37.9	21.8	0.00e+00	0	42	0	2249195520	44	3975
2026-01-20 14:00:15.71	106.93	62.71	-36.8	-37.6	21.9	0.00e+00	0	42	0	2277507072	43	4091
2026-01-20 14:00:19.69	103.63	63.75	-36.0	-36.8	22.6	0.00e+00	0	42	0	2306867200	42	3936
2026-01-20 14:00:23.68	100.04	64.72	-36.2	-37.0	22.4	0.00e+00	0	42	0	2335178752	42	4041
2026-01-20 14:00:27.67	96.13	65.60	-35.7	-36.6	22.8	0.00e+00	0	42	0	2364538880	41	4058
2026-01-20 14:00:31.67	91.91	66.38	-35.8	-36.6	22.7	0.00e+00	0	42	0	2392850432	41	4098
2026-01-20 14:00:35.66	87.41	67.04	-35.9	-36.8	22.6	0.00e+00	0	42	0	2422210560	41	4161
2026-01-20 14:00:39.64	82.65	67.57	-35.6	-36.4	22.9	0.00e+00	0	42	0	2450522112	41	3993
2026-01-20 14:00:43.63	77.68	67.95	-35.8	-36.7	22.7	0.00e+00	0	42	0	2478833664	41	4109
2026-01-20 14:00:47.62	72.55	68.17	-35.6	-36.5	22.9	0.00e+00	0	42	0	2508193792	41	4013
2026-01-20 14:00:51.61	67.35	68.22	-35.9	-36.7	22.7	0.00e+00	0	42	0	2537553920	42	3896
2026-01-20 14:00:55.61	62.15	68.12	-35.8	-36.6	22.8	0.00e+00	0	42	0	2565865472	41	4086
2026-01-20 14:00:59.60	57.06	67.84	-35.7	-36.5	22.8	0.00e+00	0	42	0	2595225600	41	4020
2026-01-20 14:01:03.59	52.14	67.42	-36.0	-36.8	22.6	0.00e+00	0	42	0	2623537152	41	4184
2026-01-20 14:01:07.58	47.46	66.85	-35.8	-36.6	22.8	0.00e+00	0	42	0	2651848704	41	4078
2026-01-20 14:01:11.57	43.05	66.15	-36.0	-36.9	22.6	0.00e+00	0	42	0	2681208832	41	4196
2026-01-20 14:01:15.57	38.93	65.33	-36.2	-37.0	22.4	0.00e+00	0	42	0	2709520384	42	4045
2026-01-20 14:01:19.56	35.13	64.42	-36.2	-37.0	22.4	0.00e+00	0	42	0	2738880512	42	4041
2026-01-20 14:01:23.55	31.63	63.43	-36.3	-37.1	22.3	0.00e+00	0	42	0	2767192064	42	4094
2026-01-20 14:01:27.53	28.43	62.38	-36.2	-37.1	22.4	0.00e+00	0	42	0	2796552192	42	4054
2026-01-20 14:01:31.53	25.49	61.27	-37.7	-38.6	21.2	0.00e+00	0	42	0	2824863744	44	4329
2026-01-20 14:01:35.52	22.82	60.12	-36.9	-37.8	22.0	0.00e+00	0	42	0	2854223872	44	3914
2026-01-20 14:01:39.51	20.38	58.94	-37.2	-38.1	21.6	0.00e+00	0	42	0	2882535424	44	4059
2026-01-20 14:01:43.50	18.15	57.74	-37.1	-38.0	21.7	0.00e+00	0	42	0	2911895552	44	4020
2026-01-20 14:01:47.50	16.11	56.52	-37.4	-38.3	21.5	0.00e+00	0	42	0	2940207104	44	4148
2026-01-20 14:01:51.49	14.24	55.30	-37.6	-38.5	21.3	0.00e+00	0	42	0	2969567232	44	4258
2026-01-20 14:01:55.47	12.54	54.09	-37.3	-38.2	21.6	0.00e+00	0	42	0	2997878784	44	4125
2026-01-20 14:01:59.46	10.97	52.88	-37.8	-38.7	21.1	0.00e+00	0	42	0	3027238912	45	4122
2026-01-20 14:02:03.45	9.52	51.67	-37.2	-38.1	21.6	0.00e+00	0	42	0	3055550464	45	3853
2026-01-20 14:02:07.44	8.19	50.48	-37.5	-38.4	21.3	0.00e+00	0	42	0	3084910592	45	3976
2026-01-20 14:02:11.44	6.96	49.30	-37.3	-38.1	21.7	0.00e+00	0	42	0	3113222144	44	4091
2026-01-20 14:02:15.43	5.82	48.14	-37.1	-37.9	21.8	0.00e+00	0	42	0	3141533696	44	4004
2026-01-20 14:02:19.42	4.77	47.00	-36.8	-37.7	22.0	0.00e+00	0	42	0	3170893824	44	3894
2026-01-20 14:02:23.41	3.79	45.88	-36.9	-37.7	22.0	0.00e+00	0	42	0	3199205376	44	3894
2026-01-20 14:02:27.39	2.87	44.79	-36.3	-37.2	22.3	0.00e+00	0	42	0	3228565504	43	3892
2026-01-20 14:02:31.39	2.02	43.71	-35.9	-36.8	22.6	0.00e+00	0	42	0	3256877056	42	3926
2026-01-20 14:02:35.38	1.22	42.66	-36.1	-37.0	22.4	0.00e+00	0	42	0	3286237184	42	4022
2026-01-20 14:02:39.36	0.48	41.63	-35.9	-36.7	22.6	0.00e+00	0	42	0	3314548736	42	3912
2026-01-20 14:02:43.35	359.78	40.62	-36.0	-36.8	22.6	0.00e+00	0	42	0	3343908864	42	3946
2026-01-20 14:02:47.33	359.13	39.64	-36.1	-36.9	22.5	0.00e+00	0	42	0	3372220416	42	4004
2026-01-20 14:02:51.33	358.51	38.68	-36.3	-37.2	22.3	0.00e+00	0	42	0	3401580544	42	4109
2026-01-20 14:02:55.33	357.92	37.74	-36.3	-37.2	22.2	0.00e+00	0	42	0	3429892096	42	4121
2026-01-20 14:02:59.32	357.37	36.83	-36.1	-37.0	22.5	0.00e+00	0	42	0	3459252224	42	4022
2026-01-20 14:03:03.31	356.85	35.93	-36.1	-36.9	22.5	0.00e+00	0	42	0	3487563776	42	4004
2026-01-20 14:03:07.31	356.36	35.06	-35.8	-36.6	22.7	0.00e+00	0	42	0	3516923904	42	3857
2026-01-20 14:03:11.30	355.90	34.21	-35.7	-36.5	22.8	0.00e+00	0	42	0	3545235456	42	3800
2026-01-20 14:03:15.28	355.46	33.38	-35.5	-36.3	22.9	0.00e+00	0	42	0	3573547008	41	3941
2026-01-20 14:03:19.26	355.04	32.58	-35.7	-36.5	22.8	0.00e+00	0	42	0	3602907136	41	4020
2026-01-20 14:03:23.25	354.64	31.79	-35.9	-36.7	22.6	0.00e+00	0	42	0	3631218688	41	4141
2026-01-20 14:03:27.24	354.27	31.02	-35.8	-36.6	22.8	0.00e+00	0	42	0	3660578816	41	4071
2026-01-20 14:03:31.23	353.91	30.26	-35.8	-36.6	22.8	0.00e+00	0	42	0	3688890368	41	4067
2026-01-20 14:03:35.22	353.56	29.53	-36.0	-36.9	22.5	0.00e+00	0	42	0	3718250496	41	4210
2026-01-20 14:03:39.21	353.23	28.81	-36.5	-37.4	22.1	0.00e+00	0	42	0	3746562048	42	4208
2026-01-20 14:03:43.20	352.92	28.12	-36.6	-37.5	22.1	0.00e+00	0	42	0	3775922176	42	4251
2026-01-20 14:03:47.19	352.62	27.43	-36.5	-37.3	22.1	0.00e+00	0	42	0	3804233728	42	4177
2026-01-20 14:03:51.18	352.34	26.77	-36.1	-37.0	22.4	0.00e+00	0	42	0	3833593856	42	4022
2026-01-20 14:03:55.17	352.06	26.11	-36.3	-37.1	22.3	0.00e+00	0	42	0	3861905408	42	4098
2026-01-20 14:03:59.17	351.80	25.47	-36.6	-37.5	22.0	0.00e+00	0	42	0	3891265536	42	4253
2026-01-20 14:04:03.16	351.55	24.85	-36.8	-37.6	21.8	0.00e+00	0	42	0	3919577088	43	4096
2026-01-20 14:04:07.15	351.31	24.24	-36.6	-37.5	21.8	0.00e+00	0	42	0	3948937216	43	4044
2026-01-20 14:04:11.14	351.07	23.65	-36.5	-37.4	21.9	0.00e+00	0	42	0	3977248768	43	3995
2026-01-20 14:04:15.12	350.85	23.07	-36.5	-37.4	22.0	0.00e+00	0	42	0	4005560320	43	3973
2026-01-20 14:04:19.11	350.64	22.50	-36.3	-37.1	22.3	0.00e+00	0	42	0	4034920448	43	3858
2026-01-20 14:04:23.10	350.43	21.94	-36.4	-37.2	22.2	0.00e+00	0	42	0	4064280576	43	3907
2026-01-20 14:04:27.08	350.24	21.39	-36.4	-37.3	22.1	0.00e+00	0	42	0	4092592128	43	3933
2026-01-20 14:04:31.07	350.04	20.86	-36.6	-37.5	22.0	0.00e+00	0	42	0	4120903680	43	4013
2026-01-20 14:04:35.07	349.86	20.33	-36.7	-37.6	21.8	0.00e+00	0	42	0	4150263808	43	4068
2026-01-20 14:04:39.06	349.68	19.82	-36.8	-37.7	21.7	0.00e+00	0	42	0	4178575360	43	4133
2026-01-20 14:04:43.05	349.51	19.31	-37.0	-37.9	21.6	0.00e+00	0	42	0	4207935488	43	4214
2026-01-20 14:04:47.04	349.35	18.82	-37.1	-38.0	21.4	0.00e+00	0	42	0	4236247040	43	4268
2026-01-20 14:04:51.02	349.19	18.34	-37.3	-38.2	21.2	0.00e+00	0	42	0	4265607168	43	4386
2026-01-20 14:04:55.02	349.03	17.86	-37.6	-38.6	21.1	0.00e+00	0	42	0	4293918720	44	4299
2026-01-20 14:04:59.01	348.89	17.39	-37.8	-38.8	20.9	0.00e+00	0	42	0	4323278848	45	4146
2026-01-20 14:05:03.00	348.74	16.94	-38.0	-38.9	20.7	0.00e+00	0	42	0	4351590400	45	4236
2026-01-20 14:05:06.99	348.60	16.49	-38.1	-39.0	20.6	0.00e+00	0	42	0	4380950528	45	4278
2026-01-20 14:05:10.98	348.47	16.04	-38.1	-39.1	20.6	0.00e+00	0	42	0	4409262080	45	4311
2026-01-20 14:05:14.97	348.34	15.61	-38.2	-39.2	20.5	0.00e+00	0	42	0	4437573632	45	4371
2026-01-20 14:05:18.96	348.21	15.18	-38.2	-39.2	20.5	0.00e+00	0	42	0	4466933760	46	4137
2026-01-20 14:05:22.95	348.09	14.76	-38.3	-39.3	20.4	0.00e+00	0	42	0	4496293888	46	4155
2026-01-20 14:05:26.94	347.97	14.35	-38.3	-39.4	20.3	0.00e+00	0	42	0	4524605440	46	4195
2026-01-20 14:05:30.92	347.86	13.95	-38.4	-39.5	20.1	0.00e+00	0	42	0	4552916992	46	4244
2026-01-20 14:05:34.92	347.75	13.55	-38.6	-39.7	20.0	0.00e+00	0	42	0	4582277120	46	4357
2026-01-20 14:05:38.91	347.64	13.15	-38.6	-39.7	20.0	0.00e+00	0	42	0	4610588672	46	4345
2026-01-20 14:05:42.91	347.53	12.77	-38.7	-39.8	19.9	0.00e+00	0	42	0	4639948800	47	4152
2026-01-20 14:05:46.91	347.43	12.38	-38.9	-40.0	19.6	0.00e+00	0	42	0	4668260352	47	4259
2026-01-20 14:05:50.90	347.33	12.01	-38.8	-40.0	19.6	0.00e+00	0	42	0	4697620480	47	4288
2026-01-20 14:05:54.89	347.24	11.64	-38.9	-40.2	19.4	0.00e+00	0	42	0	4725932032	47	4390
2026-01-20 14:05:58.88	347.14	11.28	-39.0	-40.4	19.2	0.00e+00	0	42	0	4755292160	47	4454
2026-01-20 14:06:02.88	347.05	10.92	-39.2	-40.5	19.0	0.00e+00	0	42	0	4783603712	47	4542
2026-01-20 14:06:06.88	346.97	10.56	-39.2	-40.6	19.0	0.00e+00	0	42	0	4812963840	47	4571
2026-01-20 14:06:10.87	346.88	10.21	-39.4	-40.8	19.0	0.00e+00	0	42	0	4841275392	48	4422
2026-01-20 14:06:14.86	346.80	9.87	-39.6	-41.0	18.9	0.00e+00	0	42	0	4870635520	48	4495
2026-01-20 14:06:18.85	346.72	9.53	-39.6	-41.0	18.8	0.00e+00	0	42	0	4898947072	48	4531
2026-01-20 14:06:22.84	346.64	9.20	-39.5	-41.0	18.7	0.00e+00	0	42	0	4928307200	48	4538
2026-01-20 14:06:26.84	346.56	8.86	-49.5	-61.4	3.8	8.46e-01	0	42	104	4951375872	68	14941
2026-01-20 14:06:30.83	346.49	8.54	-50.6	-61.8	3.8	8.47e-01	0	42	104	4951375872	70	13927
2026-01-20 14:06:34.83	346.42	8.22	-50.5	-62.0	3.8	8.48e-01	0	42	104	4951375872	71	13417
2026-01-20 14:06:38.82	346.35	7.90	-51.2	-62.0	3.8	8.48e-01	0	42	104	4951375872	72	12724
2026-01-20 14:06:42.82	346.28	7.58	-51.3	-62.0	3.8	8.48e-01	0	42	104	4951375872	72	12700
2026-01-20 14:06:46.82	346.21	7.27	-51.2	-62.0	3.8	8.47e-01	0	42	104	4951375872	72	12683
2026-01-20 14:06:50.82	346.15	6.97	-51.2	-61.9	3.8	8.47e-01	0	42	104	4951375872	72	12609
2026-01-20 14:06:54.81	346.08	6.66	-51.0	-61.9	3.8	8.46e-01	0	42	104	4951375872	72	12593
2026-01-20 14:06:58.80	346.02	6.36	-51.0	-61.9	3.8	8.47e-01	0	42	104	4951375872	72	12578
2026-01-20 14:07:02.80	345.96	6.07	-51.0	-61.9	3.8	8.47e-01	0	43	104	4951375872	72	12585
2026-01-20 14:07:06.80	345.90	5.77	-51.0	-61.9	3.8	8.47e-01	0	43	104	4951375872	72	12546
2026-01-20 14:07:10.79	345.85	5.48	-51.0	-61.9	3.8	8.47e-01	0	43	104	4951375872	72	12547
2026-01-20 14:07:14.78	345.79	5.20	-51.0	-61.9	3.8	8.48e-01	0	42	104	4951375872	72	12607

#Closed at: 2026-01-20 14:07:18
#Recorded file [4951 MB]: D:/Data/31040_260120_165428.dat