passes_logs/2026/01/20/T1/T1__20260120_214322_SUOMI_NPP_rec.log

#Pass ID: 20260120_214322_SUOMI NPP
#Satellite: SUOMI NPP
#Configuration: NPP
#almurnet v.1.7.20251203
#Start time: 2026-01-20 21:43:24

#Version: 2.0.20230620
#Station: T1
#Location: 37.570604 lon 55.790049 lat
#TLE: 1 37849U 11061A   26020.31993517  .00000142  00000+0  88240-4 0  9990
#TLE: 2 37849  98.7818 322.3228 0002330  54.3778 305.7615 14.19527005737466

#Time	Az	El	Level	Level2	SNR	BER	BlckErr	Temp	State	Recorded	gain1	gain2
2026-01-20 21:43:24.18	38.05	5.08	-51.7	-66.9	3.8	1.49e+00	0	37	0	0	75	20186
2026-01-20 21:43:27.15	38.39	5.21	-51.7	-66.9	3.8	1.49e+00	0	37	104	0	75	20120
2026-01-20 21:43:30.13	38.75	5.35	-51.7	-66.9	3.8	1.49e+00	0	38	104	0	75	20126
2026-01-20 21:43:33.11	39.10	5.48	-51.7	-66.9	3.8	1.49e+00	0	38	104	0	75	20201
2026-01-20 21:43:36.09	39.46	5.62	-51.7	-66.8	3.8	1.49e+00	0	38	104	0	75	20046
2026-01-20 21:43:39.06	39.82	5.75	-51.7	-66.9	3.8	1.49e+00	0	38	104	0	75	20087
2026-01-20 21:43:42.04	40.18	5.89	-51.7	-66.9	3.8	1.49e+00	0	38	104	0	75	20109
2026-01-20 21:43:45.02	40.55	6.02	-51.7	-66.9	3.8	1.49e+00	0	38	104	0	75	20230
2026-01-20 21:43:48.00	40.92	6.16	-51.7	-66.9	3.8	1.49e+00	0	38	104	0	75	20198
2026-01-20 21:43:50.98	41.29	6.29	-51.7	-66.9	3.8	1.49e+00	0	38	104	0	75	20160
2026-01-20 21:43:53.96	41.67	6.42	-51.7	-66.9	3.8	1.49e+00	0	39	104	0	75	20163
2026-01-20 21:43:56.94	42.05	6.56	-51.7	-66.9	3.8	1.49e+00	0	39	104	0	75	20127
2026-01-20 21:43:59.92	42.43	6.69	-51.7	-66.9	3.8	1.49e+00	0	39	104	0	75	20206
2026-01-20 21:44:02.90	42.82	6.82	-51.7	-66.9	3.8	1.49e+00	0	39	104	0	75	20172
2026-01-20 21:44:05.88	43.21	6.95	-51.7	-66.9	3.8	1.49e+00	0	39	104	0	75	20173
2026-01-20 21:44:08.86	43.61	7.08	-51.7	-66.9	3.8	1.49e+00	0	39	104	0	75	20136
2026-01-20 21:44:11.84	44.00	7.22	-51.7	-66.9	3.8	1.49e+00	0	39	104	0	75	20126
2026-01-20 21:44:14.81	44.40	7.35	-51.7	-66.9	3.8	1.49e+00	0	39	104	0	75	20223
2026-01-20 21:44:17.79	44.81	7.48	-51.7	-66.9	3.8	1.49e+00	0	39	104	0	75	20175
2026-01-20 21:44:20.77	45.22	7.61	-51.7	-66.8	3.8	1.49e+00	0	39	104	0	75	19970
2026-01-20 21:44:23.75	45.63	7.74	-51.7	-66.8	3.8	1.49e+00	0	39	104	0	75	19844
2026-01-20 21:44:26.73	46.04	7.86	-51.7	-66.7	3.8	1.49e+00	0	39	104	0	75	19790
2026-01-20 21:44:29.71	46.46	7.99	-51.7	-66.8	3.8	1.49e+00	0	39	104	0	75	20019
2026-01-20 21:44:32.69	46.88	8.12	-51.7	-66.9	3.8	1.49e+00	0	39	104	0	75	20170
2026-01-20 21:44:35.67	47.31	8.25	-51.7	-66.8	3.8	1.49e+00	0	40	104	0	75	19995
2026-01-20 21:44:38.65	47.74	8.37	-51.7	-66.8	3.8	1.49e+00	0	39	104	0	75	19993
2026-01-20 21:44:41.63	48.17	8.50	-51.7	-66.9	3.8	1.49e+00	0	40	104	0	75	20154
2026-01-20 21:44:44.61	48.61	8.62	-51.7	-66.8	3.8	1.49e+00	0	39	104	0	75	19979
2026-01-20 21:44:47.59	49.05	8.74	-51.7	-66.3	3.8	1.49e+00	0	39	104	0	75	18899
2026-01-20 21:44:50.57	49.49	8.87	-51.6	-65.3	3.8	1.49e+00	0	40	104	0	75	16807
2026-01-20 21:44:53.54	49.94	8.99	-50.8	-58.8	6.8	3.67e-01	0	40	0	2097152	73	8879
2026-01-20 21:44:56.52	50.39	9.11	-50.8	-58.9	6.4	1.13e+00	0	40	0	4194304	73	9044
2026-01-20 21:44:59.51	50.84	9.23	-47.4	-50.9	14.7	0.00e+00	0	40	0	8388608	66	5373
2026-01-20 21:45:02.50	51.30	9.35	-47.5	-51.0	14.6	0.00e+00	0	40	0	13631488	66	5407
2026-01-20 21:45:05.48	51.77	9.47	-47.3	-50.7	14.9	0.00e+00	0	40	0	19922944	66	5227
2026-01-20 21:45:08.47	52.23	9.58	-47.5	-51.0	14.5	0.00e+00	0	40	0	25165824	66	5455
2026-01-20 21:45:11.45	52.70	9.70	-47.7	-51.3	14.3	7.00e-07	0	40	0	30408704	66	5634
2026-01-20 21:45:14.44	53.18	9.81	-47.6	-51.1	14.5	7.00e-07	0	40	0	36700160	66	5498
2026-01-20 21:45:17.42	53.65	9.93	-47.5	-51.0	14.6	7.00e-07	0	40	0	41943040	66	5455
2026-01-20 21:45:20.41	54.13	10.04	-47.3	-50.6	15.0	0.00e+00	0	40	0	47185920	66	5200
2026-01-20 21:45:23.39	54.62	10.15	-47.2	-50.5	15.0	0.00e+00	0	40	0	53477376	66	5148
2026-01-20 21:45:26.37	55.10	10.26	-47.1	-50.3	15.3	0.00e+00	0	40	0	58720256	66	5016
2026-01-20 21:45:29.36	55.60	10.37	-47.1	-50.4	15.3	0.00e+00	0	40	0	63963136	66	5049
2026-01-20 21:45:32.34	56.09	10.48	-47.2	-50.5	15.1	0.00e+00	0	40	0	70254592	66	5122
2026-01-20 21:45:35.33	56.59	10.58	-47.0	-50.2	15.4	0.00e+00	0	40	0	75497472	65	5242
2026-01-20 21:45:38.31	57.09	10.69	-46.8	-49.9	15.8	0.00e+00	0	40	0	80740352	65	5072
2026-01-20 21:45:41.30	57.60	10.79	-46.5	-49.5	16.1	0.00e+00	0	40	0	87031808	65	4856
2026-01-20 21:45:44.29	58.11	10.89	-46.8	-49.9	15.8	0.00e+00	0	40	0	92274688	65	5045
2026-01-20 21:45:47.28	58.62	10.99	-46.9	-50.1	15.5	0.00e+00	0	40	0	98566144	65	5190
2026-01-20 21:45:50.27	59.14	11.09	-47.0	-50.2	15.4	0.00e+00	0	40	0	103809024	65	5225
2026-01-20 21:45:53.25	59.66	11.18	-47.0	-50.1	15.5	0.00e+00	0	40	0	109051904	65	5197
2026-01-20 21:45:56.23	60.18	11.28	-46.9	-50.0	15.6	0.00e+00	0	40	0	115343360	65	5122
2026-01-20 21:45:59.22	60.71	11.37	-46.8	-49.9	15.7	0.00e+00	0	40	0	120586240	65	5069
2026-01-20 21:46:02.18	61.23	11.46	-46.4	-49.4	16.2	0.00e+00	0	40	0	125829120	64	5042
2026-01-20 21:46:05.17	61.76	11.55	-46.4	-49.3	16.3	0.00e+00	0	40	0	131072000	64	5023
2026-01-20 21:46:08.15	62.30	11.64	-46.8	-50.0	15.7	0.00e+00	0	40	0	137363456	64	5409
2026-01-20 21:46:11.13	62.84	11.72	-47.1	-50.3	15.3	0.00e+00	0	40	0	142606336	64	5620
2026-01-20 21:46:14.12	63.38	11.80	-46.4	-49.3	16.3	0.00e+00	0	40	0	147849216	64	5004
2026-01-20 21:46:17.10	63.92	11.89	-46.3	-49.2	16.4	0.00e+00	0	40	0	154140672	64	4929
2026-01-20 21:46:20.09	64.47	11.96	-46.7	-49.7	15.9	0.00e+00	0	40	0	159383552	64	5244
2026-01-20 21:46:23.08	65.02	12.04	-46.2	-49.1	16.5	0.00e+00	0	40	0	165675008	64	4905
2026-01-20 21:46:26.06	65.57	12.12	-45.9	-48.6	17.0	0.00e+00	0	40	0	170917888	63	4909
2026-01-20 21:46:29.05	66.13	12.19	-46.4	-49.3	16.4	0.00e+00	0	40	0	176160768	63	5303
2026-01-20 21:46:32.03	66.69	12.26	-46.8	-49.9	15.8	0.00e+00	0	40	0	182452224	64	5341
2026-01-20 21:46:35.02	67.25	12.33	-46.4	-49.3	16.3	0.00e+00	0	40	0	187695104	64	5037
2026-01-20 21:46:38.00	67.81	12.39	-47.3	-50.6	15.0	0.00e+00	0	40	0	192937984	65	5519
2026-01-20 21:46:40.98	68.38	12.46	-47.9	-51.5	14.2	2.20e-06	0	40	0	199229440	66	5773
2026-01-20 21:46:43.97	68.95	12.52	-47.0	-50.1	15.6	0.00e+00	0	40	0	204472320	66	4887
2026-01-20 21:46:46.95	69.52	12.58	-46.8	-49.9	15.8	0.00e+00	0	40	0	209715200	65	5088
2026-01-20 21:46:49.94	70.09	12.63	-47.4	-50.7	15.0	0.00e+00	0	40	0	216006656	65	5570
2026-01-20 21:46:52.92	70.66	12.69	-47.0	-50.2	15.5	0.00e+00	0	40	0	221249536	65	5230
2026-01-20 21:46:55.91	71.24	12.74	-46.9	-50.1	15.6	0.00e+00	0	40	0	226492416	65	5176
2026-01-20 21:46:58.89	71.82	12.79	-47.5	-51.0	14.7	0.00e+00	0	40	0	232783872	65	5750
2026-01-20 21:47:01.88	72.40	12.83	-47.1	-50.3	15.3	0.00e+00	0	40	0	238026752	65	5317
2026-01-20 21:47:04.87	72.99	12.88	-46.5	-49.4	16.2	0.00e+00	0	40	0	243269632	65	4805
2026-01-20 21:47:07.85	73.57	12.92	-46.6	-49.6	16.1	0.00e+00	0	40	0	249561088	64	5172
2026-01-20 21:47:10.84	74.16	12.96	-46.4	-49.4	16.3	0.00e+00	0	40	0	254803968	64	5050
2026-01-20 21:47:13.82	74.74	12.99	-46.0	-48.8	16.9	0.00e+00	0	40	0	260046848	63	4992
2026-01-20 21:47:16.80	75.33	13.03	-45.7	-48.3	17.3	0.00e+00	0	40	0	266338304	63	4755
2026-01-20 21:47:19.79	75.92	13.06	-45.8	-48.5	17.2	0.00e+00	0	40	0	271581184	63	4853
2026-01-20 21:47:22.78	76.51	13.08	-45.8	-48.6	17.1	0.00e+00	0	40	0	276824064	63	4878
2026-01-20 21:47:25.76	77.10	13.11	-46.1	-48.9	16.8	0.00e+00	0	40	0	283115520	63	5093
2026-01-20 21:47:28.75	77.70	13.13	-46.0	-48.8	16.9	0.00e+00	0	41	0	288358400	63	5017
2026-01-20 21:47:31.73	78.29	13.15	-45.8	-48.5	17.2	0.00e+00	0	41	0	293601280	63	4824
2026-01-20 21:47:34.72	78.89	13.17	-46.1	-48.9	16.8	0.00e+00	0	40	0	299892736	63	5078
2026-01-20 21:47:37.70	79.48	13.18	-46.1	-48.9	16.7	0.00e+00	0	40	0	305135616	63	5092
2026-01-20 21:47:40.69	80.08	13.19	-45.9	-48.6	17.0	0.00e+00	0	40	0	310378496	63	4920
2026-01-20 21:47:43.68	80.68	13.20	-46.1	-48.9	16.8	0.00e+00	0	40	0	316669952	63	5048
2026-01-20 21:47:46.66	81.27	13.21	-45.9	-48.8	16.9	0.00e+00	0	40	0	321912832	63	4999
2026-01-20 21:47:49.65	81.87	13.21	-45.6	-48.4	17.3	0.00e+00	0	41	0	327155712	63	4770
2026-01-20 21:47:52.63	82.47	13.21	-45.8	-48.6	17.1	0.00e+00	0	40	0	333447168	63	4894
2026-01-20 21:47:55.61	83.06	13.20	-45.7	-48.5	17.2	0.00e+00	0	41	0	338690048	63	4815
2026-01-20 21:47:58.60	83.66	13.20	-45.1	-47.7	17.9	0.00e+00	0	41	0	343932928	62	4666
2026-01-20 21:48:01.58	84.25	13.19	-44.7	-47.3	18.2	0.00e+00	0	41	0	350224384	61	4719
2026-01-20 21:48:04.57	84.85	13.18	-45.0	-47.5	18.0	0.00e+00	0	40	0	355467264	61	4869
2026-01-20 21:48:07.53	85.44	13.16	-44.9	-47.5	18.1	0.00e+00	0	41	0	360710144	61	4826
2026-01-20 21:48:10.51	86.04	13.15	-45.1	-47.6	17.9	0.00e+00	0	41	0	367001600	61	4926
2026-01-20 21:48:13.50	86.63	13.12	-45.3	-48.0	17.6	0.00e+00	0	41	0	372244480	61	5110
2026-01-20 21:48:16.48	87.22	13.10	-45.3	-47.9	17.6	0.00e+00	0	41	0	377487360	61	5068
2026-01-20 21:48:19.46	87.82	13.08	-45.1	-47.7	17.8	0.00e+00	0	40	0	383778816	61	4937
2026-01-20 21:48:22.45	88.41	13.05	-45.3	-48.0	17.5	0.00e+00	0	41	0	389021696	61	5114
2026-01-20 21:48:25.43	89.00	13.02	-45.4	-48.1	17.4	0.00e+00	0	41	0	394264576	61	5197
2026-01-20 21:48:28.41	89.59	12.98	-45.2	-47.8	17.6	0.00e+00	0	41	0	400556032	61	5002
2026-01-20 21:48:31.40	90.17	12.95	-44.9	-47.5	17.9	0.00e+00	0	41	0	405798912	61	4846
2026-01-20 21:48:34.38	90.76	12.91	-44.8	-47.3	18.0	0.00e+00	0	40	0	411041792	61	4757
2026-01-20 21:48:37.37	91.35	12.86	-44.6	-47.1	18.2	0.00e+00	0	41	0	417333248	61	4601
2026-01-20 21:48:40.35	91.93	12.82	-44.7	-47.1	18.2	0.00e+00	0	41	0	422576128	61	4628
2026-01-20 21:48:43.33	92.51	12.77	-44.7	-47.2	18.1	0.00e+00	0	41	0	427819008	61	4656
2026-01-20 21:48:46.32	93.09	12.72	-44.6	-47.1	18.1	0.00e+00	0	41	0	434110464	61	4613
2026-01-20 21:48:49.31	93.67	12.67	-44.5	-46.9	18.3	0.00e+00	0	41	0	439353344	60	4803
2026-01-20 21:48:52.29	94.24	12.62	-44.6	-47.0	18.2	0.00e+00	0	41	0	444596224	60	4864
2026-01-20 21:48:55.27	94.82	12.56	-44.8	-47.3	17.8	0.00e+00	0	41	0	450887680	60	5039
2026-01-20 21:48:58.26	95.39	12.50	-44.5	-47.0	18.2	0.00e+00	0	41	0	456130560	60	4827
2026-01-20 21:49:01.24	95.96	12.44	-44.3	-46.7	18.3	0.00e+00	0	41	0	461373440	60	4694
2026-01-20 21:49:04.23	96.52	12.37	-44.4	-46.8	18.3	0.00e+00	0	41	0	467664896	60	4718
2026-01-20 21:49:07.21	97.09	12.30	-44.2	-46.6	18.3	0.00e+00	0	41	0	472907776	60	4645
2026-01-20 21:49:10.20	97.65	12.23	-44.0	-46.3	18.5	0.00e+00	0	41	0	478150656	59	4740
2026-01-20 21:49:13.18	98.21	12.16	-43.9	-46.2	18.5	0.00e+00	0	41	0	484442112	59	4700
2026-01-20 21:49:16.17	98.77	12.09	-43.9	-46.3	18.5	0.00e+00	0	41	0	489684992	59	4721
2026-01-20 21:49:19.16	99.32	12.01	-44.2	-46.7	18.2	0.00e+00	0	41	0	494927872	59	4937
2026-01-20 21:49:22.14	99.87	11.94	-44.2	-46.6	18.1	0.00e+00	0	41	0	501219328	59	4919
2026-01-20 21:49:25.13	100.42	11.85	-44.0	-46.4	18.3	0.00e+00	0	41	0	506462208	59	4771
2026-01-20 21:49:28.11	100.96	11.77	-44.0	-46.4	18.3	0.00e+00	0	41	0	511705088	59	4773
2026-01-20 21:49:31.09	101.51	11.69	-44.4	-46.9	17.8	0.00e+00	0	41	0	517996544	59	5056
2026-01-20 21:49:34.08	102.05	11.60	-44.4	-46.9	17.7	0.00e+00	0	41	0	523239424	59	5090
2026-01-20 21:49:37.06	102.58	11.51	-44.7	-47.2	17.4	0.00e+00	0	41	0	528482304	59	5269
2026-01-20 21:49:40.05	103.12	11.42	-45.0	-47.8	16.9	0.00e+00	0	41	0	534773760	60	5290
2026-01-20 21:49:43.03	103.65	11.33	-45.1	-47.9	16.7	0.00e+00	0	41	0	540016640	61	5071
2026-01-20 21:49:46.02	104.17	11.24	-45.0	-47.7	16.9	0.00e+00	0	41	0	545259520	61	4958
2026-01-20 21:49:49.01	104.70	11.14	-44.9	-47.6	16.9	0.00e+00	0	41	0	551550976	61	4920
2026-01-20 21:49:51.99	105.22	11.04	-45.3	-48.2	16.5	0.00e+00	0	41	0	556793856	61	5224
2026-01-20 21:49:54.98	105.73	10.94	-46.0	-49.2	15.5	0.00e+00	0	41	0	562036736	62	5554
2026-01-20 21:49:57.96	106.25	10.84	-45.7	-48.9	15.7	0.00e+00	0	41	0	568328192	62	5388
2026-01-20 21:50:00.95	106.76	10.74	-45.5	-48.6	15.9	0.00e+00	0	41	0	573571072	62	5218
2026-01-20 21:50:03.93	107.26	10.64	-45.9	-49.3	15.3	0.00e+00	0	41	0	578813952	62	5617
2026-01-20 21:50:06.91	107.76	10.53	-45.8	-49.1	15.4	0.00e+00	0	41	0	585105408	63	5208
2026-01-20 21:50:09.89	108.26	10.42	-45.5	-48.4	16.1	0.00e+00	0	41	0	590348288	62	5083
2026-01-20 21:50:12.88	108.76	10.32	-45.7	-48.8	15.7	0.00e+00	0	41	0	595591168	62	5280
2026-01-20 21:50:15.87	109.25	10.21	-46.1	-49.4	15.1	0.00e+00	0	41	0	601882624	62	5686
2026-01-20 21:50:18.85	109.74	10.10	-46.1	-49.4	15.1	0.00e+00	0	41	0	607125504	63	5359
2026-01-20 21:50:21.84	110.23	9.98	-46.1	-49.4	15.0	0.00e+00	0	41	0	612368384	63	5375
2026-01-20 21:50:24.82	110.71	9.87	-46.1	-49.4	15.0	7.00e-07	0	41	0	618659840	63	5396
2026-01-20 21:50:27.81	111.19	9.75	-45.9	-49.3	15.1	0.00e+00	0	41	0	623902720	63	5320
2026-01-20 21:50:30.79	111.66	9.64	-45.9	-49.4	15.0	0.00e+00	0	41	0	629145600	63	5351
2026-01-20 21:50:33.78	112.13	9.52	-46.0	-49.5	14.9	0.00e+00	0	41	0	635437056	63	5448
2026-01-20 21:50:36.76	112.60	9.40	-45.7	-49.0	15.4	0.00e+00	0	41	0	640679936	63	5113
2026-01-20 21:50:39.74	113.06	9.28	-45.2	-48.1	16.2	0.00e+00	0	41	0	645922816	62	4902
2026-01-20 21:50:42.73	113.52	9.16	-45.4	-48.4	15.9	0.00e+00	0	41	0	652214272	62	5070
2026-01-20 21:50:45.71	113.98	9.04	-45.8	-49.2	15.1	0.00e+00	0	41	0	657457152	62	5561
2026-01-20 21:50:48.69	114.43	8.92	-50.9	-66.1	3.8	1.49e+00	0	41	104	659554304	72	21979
2026-01-20 21:50:51.67	114.88	8.79	-51.1	-66.3	3.8	1.49e+00	0	41	104	659554304	72	22356
2026-01-20 21:50:54.65	115.32	8.67	-51.0	-66.4	3.8	1.49e+00	0	41	104	659554304	72	22614
2026-01-20 21:50:57.63	115.76	8.55	-50.8	-66.4	3.8	1.49e+00	0	41	104	659554304	72	22672
2026-01-20 21:51:00.61	116.20	8.42	-51.0	-66.5	3.8	1.49e+00	0	41	104	659554304	72	22785
2026-01-20 21:51:03.59	116.63	8.29	-50.9	-66.4	3.8	1.49e+00	0	41	104	659554304	72	22777
2026-01-20 21:51:06.57	117.06	8.17	-51.0	-66.5	3.8	1.49e+00	0	41	104	659554304	72	22819
2026-01-20 21:51:09.55	117.49	8.04	-51.0	-66.4	3.8	1.49e+00	0	41	104	659554304	72	22744
2026-01-20 21:51:12.53	117.91	7.91	-51.0	-66.4	3.8	1.49e+00	0	41	104	659554304	72	22639
2026-01-20 21:51:15.51	118.33	7.78	-51.0	-66.4	3.8	1.49e+00	0	41	104	659554304	72	22674
2026-01-20 21:51:18.48	118.74	7.65	-51.0	-66.4	3.8	1.49e+00	0	41	104	659554304	72	22625
2026-01-20 21:51:21.46	119.15	7.52	-51.0	-66.4	3.8	1.49e+00	0	41	104	659554304	72	22610
2026-01-20 21:51:24.44	119.56	7.39	-51.0	-66.3	3.8	1.49e+00	0	41	104	659554304	72	22519
2026-01-20 21:51:27.42	119.97	7.26	-50.9	-66.4	3.8	1.49e+00	0	41	104	659554304	72	22535
2026-01-20 21:51:30.40	120.37	7.12	-50.9	-66.4	3.8	1.49e+00	0	41	104	659554304	72	22547
2026-01-20 21:51:33.38	120.76	6.99	-50.9	-66.3	3.8	1.49e+00	0	41	104	659554304	72	22498
2026-01-20 21:51:36.36	121.16	6.86	-50.9	-66.4	3.8	1.49e+00	0	41	104	659554304	72	22548
2026-01-20 21:51:39.34	121.55	6.72	-50.9	-66.3	3.8	1.49e+00	0	41	104	659554304	72	22466
2026-01-20 21:51:42.32	121.94	6.59	-50.9	-66.3	3.8	1.49e+00	0	41	104	659554304	72	22503
2026-01-20 21:51:45.30	122.32	6.45	-50.9	-66.4	3.8	1.49e+00	0	41	104	659554304	72	22583
2026-01-20 21:51:48.28	122.70	6.32	-50.9	-66.3	3.8	1.49e+00	0	41	104	659554304	72	22393
2026-01-20 21:51:51.26	123.08	6.18	-50.9	-66.3	3.8	1.49e+00	0	41	104	659554304	72	22476
2026-01-20 21:51:54.24	123.45	6.05	-50.9	-66.3	3.8	1.49e+00	0	41	104	659554304	72	22496
2026-01-20 21:51:57.22	123.82	5.91	-50.9	-66.3	3.8	1.49e+00	0	41	104	659554304	72	22477
2026-01-20 21:52:00.20	124.19	5.78	-50.9	-66.3	3.8	1.49e+00	0	41	104	659554304	72	22440
2026-01-20 21:52:03.18	124.55	5.64	-50.9	-66.3	3.8	1.49e+00	0	41	104	659554304	72	22457
2026-01-20 21:52:06.16	124.91	5.50	-50.9	-66.3	3.8	1.49e+00	0	41	104	659554304	72	22439
2026-01-20 21:52:09.14	125.27	5.37	-50.9	-66.3	3.8	1.49e+00	0	41	104	659554304	72	22394
2026-01-20 21:52:12.12	125.62	5.23	-50.9	-66.3	3.8	1.49e+00	0	41	104	659554304	72	22430
2026-01-20 21:52:15.09	125.97	5.09	-50.9	-66.3	3.8	1.49e+00	0	41	104	659554304	72	22354
2026-01-20 21:52:18.07	126.32	4.96	-50.9	-66.3	3.8	1.49e+00	0	41	104	659554304	72	22335

#Closed at: 2026-01-20 21:52:19
#Recorded file [659 MB]: D:/Data/31040_260121_004324.dat