passes_logs/2026/01/20/T1/T1__20260120_095240_NOAA_20_JPSS-1_rec.log

#Pass ID: 20260120_095240_NOAA 20 (JPSS-1)
#Satellite: NOAA 20 (JPSS-1)
#Configuration: NOAA 20
#almurnet v.1.7.20251203
#Start time: 2026-01-20 09:52:39

#Version: 2.0.20230620
#Station: T1
#Location: 37.570604 lon 55.790049 lat
#TLE: 1 43013U 17073A   26019.55911981  .00000079  00000+0  58510-4 0  9994
#TLE: 2 43013  98.7641 320.4504 0001323  32.6518 327.4739 14.19537050423380

#Time	Az	El	Level	Level2	SNR	BER	BlckErr	Temp	State	Recorded	gain1	gain2
2026-01-20 09:52:39.77	158.62	4.98	-50.3	-65.6	3.8	1.49e+00	0	40	0	0	71	21841
2026-01-20 09:52:43.74	158.62	5.27	-50.1	-65.3	3.8	1.49e+00	0	40	104	0	72	19895
2026-01-20 09:52:47.71	158.61	5.56	-50.1	-65.4	3.8	1.49e+00	0	41	104	0	72	20250
2026-01-20 09:52:51.69	158.61	5.85	-50.1	-65.2	3.8	1.49e+00	0	41	104	0	72	19666
2026-01-20 09:52:55.66	158.60	6.15	-50.1	-64.5	3.8	1.49e+00	0	41	104	0	72	18187
2026-01-20 09:52:59.63	158.60	6.45	-50.1	-64.6	3.8	1.49e+00	0	41	104	0	72	18470
2026-01-20 09:53:03.61	158.59	6.75	-50.1	-65.3	3.8	1.49e+00	0	41	104	0	72	19887
2026-01-20 09:53:07.58	158.58	7.06	-50.1	-65.4	3.8	1.49e+00	0	41	104	0	72	20091
2026-01-20 09:53:11.55	158.58	7.37	-50.0	-64.2	3.8	1.49e+00	0	41	104	0	72	17571
2026-01-20 09:53:15.53	158.57	7.68	-49.7	-59.5	5.2	8.23e-01	0	41	0	2097152	71	10848
2026-01-20 09:53:19.50	158.56	8.00	-48.8	-55.5	8.6	6.00e-02	0	42	0	9437184	69	7684
2026-01-20 09:53:23.48	158.55	8.32	-48.3	-53.9	10.2	6.11e-03	0	42	0	16777216	68	6796
2026-01-20 09:53:27.45	158.54	8.65	-48.6	-54.9	9.2	1.65e-02	0	42	0	24117248	68	7584
2026-01-20 09:53:31.42	158.53	8.98	-49.5	-58.7	5.8	3.30e-01	0	42	0	31457280	69	11072
2026-01-20 09:53:35.40	158.52	9.32	-50.1	-64.1	3.8	1.49e+00	0	42	104	37748736	70	19584
2026-01-20 09:53:39.38	158.51	9.66	-48.3	-54.0	10.2	1.30e-02	0	42	0	42991616	68	6838
2026-01-20 09:53:43.37	158.50	10.00	-47.3	-51.8	12.3	2.63e-02	0	42	0	51380224	66	5988
2026-01-20 09:53:47.35	158.49	10.36	-47.1	-51.5	12.7	4.57e-05	0	42	0	58720256	65	6112
2026-01-20 09:53:51.33	158.48	10.71	-46.3	-50.1	14.1	5.30e-06	0	42	0	66060288	64	5482
2026-01-20 09:53:55.31	158.47	11.07	-45.9	-49.4	14.9	7.00e-07	0	42	0	73400320	63	5373
2026-01-20 09:53:59.29	158.45	11.44	-45.7	-49.0	15.4	0.00e+00	0	42	0	80740352	63	5108
2026-01-20 09:54:03.27	158.44	11.81	-45.4	-48.6	15.8	1.57e-02	0	42	0	88080384	62	5182
2026-01-20 09:54:07.25	158.43	12.19	-45.3	-48.3	16.1	0.00e+00	0	42	0	95420416	62	5024
2026-01-20 09:54:11.23	158.41	12.57	-45.1	-48.1	16.2	0.00e+00	0	42	0	102760448	62	4908
2026-01-20 09:54:15.22	158.40	12.96	-45.1	-48.1	16.3	0.00e+00	0	42	0	111149056	62	4881
2026-01-20 09:54:19.19	158.38	13.36	-45.0	-47.9	16.5	0.00e+00	0	42	0	118489088	61	5065
2026-01-20 09:54:23.18	158.36	13.76	-44.9	-47.7	13.4	0.00e+00	0	43	0	125829120	61	4968
2026-01-20 09:54:27.16	158.35	14.17	-44.9	-47.7	16.7	0.00e+00	0	43	0	133169152	61	4968
2026-01-20 09:54:31.14	158.33	14.59	-44.8	-47.7	16.7	0.00e+00	0	42	0	140509184	61	4948
2026-01-20 09:54:35.12	158.31	15.01	-44.8	-47.6	16.8	0.00e+00	0	43	0	147849216	61	4893
2026-01-20 09:54:39.10	158.29	15.44	-44.6	-47.4	17.0	0.00e+00	0	43	0	155189248	61	4803
2026-01-20 09:54:43.08	158.27	15.88	-44.4	-47.2	17.2	0.00e+00	0	42	0	162529280	60	4958
2026-01-20 09:54:47.06	158.24	16.33	-44.3	-47.0	17.5	0.00e+00	0	43	0	169869312	60	4822
2026-01-20 09:54:51.04	158.22	16.78	-44.3	-47.1	17.4	0.00e+00	0	43	0	178257920	60	4889
2026-01-20 09:54:55.03	158.20	17.25	-44.2	-46.9	17.5	0.00e+00	0	43	0	185597952	60	4807
2026-01-20 09:54:59.00	158.17	17.72	-44.2	-46.9	17.6	0.00e+00	0	43	0	192937984	60	4764
2026-01-20 09:55:02.98	158.14	18.20	-44.0	-46.7	17.8	0.00e+00	0	43	0	200278016	60	4654
2026-01-20 09:55:06.96	158.12	18.69	-43.9	-46.4	18.0	0.00e+00	0	43	0	207618048	59	4778
2026-01-20 09:55:10.95	158.09	19.20	-43.9	-46.4	17.9	0.00e+00	0	43	0	214958080	59	4814
2026-01-20 09:55:14.92	158.06	19.71	-43.7	-46.3	18.1	0.00e+00	0	43	0	222298112	59	4713
2026-01-20 09:55:18.90	158.03	20.23	-43.7	-46.3	18.1	0.00e+00	0	43	0	229638144	59	4707
2026-01-20 09:55:22.88	157.99	20.77	-43.6	-46.1	18.3	0.00e+00	0	43	0	238026752	59	4626
2026-01-20 09:55:26.86	157.96	21.31	-43.7	-46.2	18.2	0.00e+00	0	43	0	245366784	59	4694
2026-01-20 09:55:30.85	157.92	21.87	-43.7	-46.1	18.2	0.00e+00	0	43	0	252706816	59	4648
2026-01-20 09:55:34.83	157.88	22.44	-43.7	-46.1	18.3	0.00e+00	0	43	0	260046848	59	4622
2026-01-20 09:55:38.81	157.84	23.03	-43.5	-45.8	18.5	0.00e+00	0	43	0	267386880	59	4492
2026-01-20 09:55:42.80	157.80	23.62	-43.5	-45.9	18.5	0.00e+00	0	43	0	274726912	58	4770
2026-01-20 09:55:46.77	157.76	24.23	-43.5	-45.9	18.5	0.00e+00	0	43	0	282066944	58	4777
2026-01-20 09:55:50.75	157.71	24.86	-43.8	-46.3	18.2	0.00e+00	0	43	0	289406976	58	4997
2026-01-20 09:55:54.74	157.66	25.50	-43.8	-46.3	18.2	0.00e+00	0	43	0	297795584	58	4986
2026-01-20 09:55:58.72	157.61	26.16	-44.2	-46.7	17.8	0.00e+00	0	43	0	305135616	58	5243
2026-01-20 09:56:02.70	157.55	26.83	-44.3	-46.9	17.6	0.00e+00	0	43	0	312475648	59	5072
2026-01-20 09:56:06.68	157.50	27.52	-44.3	-46.9	17.6	0.00e+00	0	43	0	319815680	59	5052
2026-01-20 09:56:10.66	157.44	28.23	-44.6	-47.3	17.2	0.00e+00	0	43	0	327155712	59	5293
2026-01-20 09:56:14.64	157.37	28.96	-44.8	-47.6	16.9	0.00e+00	0	43	0	334495744	60	5206
2026-01-20 09:56:18.61	157.31	29.70	-45.1	-48.1	16.5	0.00e+00	0	43	0	341835776	60	5468
2026-01-20 09:56:22.59	157.24	30.47	-45.6	-48.9	15.7	0.00e+00	0	43	0	349175808	61	5696
2026-01-20 09:56:26.57	157.16	31.25	-46.0	-49.6	15.1	0.00e+00	0	43	0	356515840	62	5814
2026-01-20 09:56:30.55	157.08	32.06	-46.3	-49.8	14.8	0.00e+00	0	43	0	364904448	63	5601
2026-01-20 09:56:34.53	157.00	32.89	-46.2	-49.6	15.1	0.00e+00	0	43	0	372244480	63	5469
2026-01-20 09:56:38.52	156.91	33.75	-45.9	-49.1	15.5	0.00e+00	0	43	0	379584512	63	5172
2026-01-20 09:56:42.50	156.81	34.63	-45.3	-48.3	16.3	0.00e+00	0	43	0	386924544	62	5022
2026-01-20 09:56:46.48	156.71	35.53	-44.8	-47.5	17.1	0.00e+00	0	43	0	394264576	61	4864
2026-01-20 09:56:50.46	156.61	36.46	-43.5	-45.9	18.5	0.00e+00	0	43	0	401604608	59	4523
2026-01-20 09:56:54.44	156.49	37.42	-43.1	-45.5	19.0	0.00e+00	0	43	0	408944640	58	4547
2026-01-20 09:56:58.42	156.37	38.40	-43.0	-45.3	19.2	0.00e+00	0	43	0	416284672	57	4720
2026-01-20 09:57:02.40	156.24	39.42	-43.4	-45.7	18.7	0.00e+00	0	43	0	423624704	57	4978
2026-01-20 09:57:06.38	156.10	40.46	-43.9	-46.3	18.2	0.00e+00	0	43	0	432013312	58	5015
2026-01-20 09:57:10.35	155.95	41.54	-44.3	-46.9	17.7	0.00e+00	0	43	0	439353344	59	5064
2026-01-20 09:57:14.33	155.79	42.65	-44.4	-47.0	17.5	0.00e+00	0	43	0	446693376	59	5123
2026-01-20 09:57:18.31	155.62	43.79	-44.6	-47.2	17.3	0.00e+00	0	43	0	454033408	59	5260
2026-01-20 09:57:22.29	155.43	44.96	-44.9	-47.7	16.9	0.00e+00	0	43	0	461373440	60	5260
2026-01-20 09:57:26.27	155.23	46.18	-45.7	-48.8	15.9	0.00e+00	0	43	0	468713472	62	5308
2026-01-20 09:57:30.25	155.00	47.43	-46.6	-50.2	14.4	0.00e+00	0	43	0	476053504	64	5576
2026-01-20 09:57:34.23	154.76	48.71	-46.2	-49.6	15.0	0.00e+00	0	43	0	483393536	64	5174
2026-01-20 09:57:38.20	154.50	50.03	-45.0	-47.8	16.8	0.00e+00	0	43	0	491782144	62	4730
2026-01-20 09:57:42.19	154.21	51.40	-43.4	-45.7	18.8	0.00e+00	0	43	0	499122176	58	4675
2026-01-20 09:57:46.16	153.90	52.79	-42.4	-44.5	19.9	0.00e+00	0	43	0	506462208	56	4588
2026-01-20 09:57:50.14	153.55	54.24	-42.8	-45.0	19.5	0.00e+00	0	43	0	513802240	56	4848
2026-01-20 09:57:54.12	153.16	55.72	-43.5	-45.9	18.6	0.00e+00	0	43	0	521142272	57	5067
2026-01-20 09:57:58.11	152.72	57.24	-46.1	-49.3	15.4	0.00e+00	0	43	0	528482304	62	5618
2026-01-20 09:58:02.08	152.23	58.80	-47.0	-50.9	13.6	6.80e-06	0	43	0	535822336	64	6044
2026-01-20 09:58:06.06	151.68	60.40	-45.5	-48.4	16.3	0.00e+00	0	43	0	543162368	62	5093
2026-01-20 09:58:10.04	151.05	62.03	-43.4	-45.8	18.7	0.00e+00	0	43	0	550502400	58	4722
2026-01-20 09:58:14.02	150.33	63.71	-43.0	-45.2	19.2	0.00e+00	0	43	0	558891008	57	4703
2026-01-20 09:58:18.00	149.49	65.42	-44.1	-46.6	17.9	0.00e+00	0	43	0	566231040	58	5207
2026-01-20 09:58:21.99	148.51	67.16	-44.9	-47.7	17.0	0.00e+00	0	43	0	573571072	60	5231
2026-01-20 09:58:25.97	147.35	68.94	-44.9	-47.7	17.0	0.00e+00	0	43	0	580911104	60	5253
2026-01-20 09:58:29.95	145.95	70.73	-44.1	-46.6	18.0	0.00e+00	0	43	0	588251136	60	4617
2026-01-20 09:58:33.93	144.24	72.55	-44.4	-47.0	17.5	0.00e+00	0	43	0	595591168	60	4846
2026-01-20 09:58:37.91	142.11	74.37	-45.4	-48.4	16.2	0.00e+00	0	43	0	602931200	61	5357
2026-01-20 09:58:41.89	139.38	76.20	-44.4	-46.9	17.7	0.00e+00	0	43	0	610271232	60	4814
2026-01-20 09:58:45.87	135.78	78.00	-45.8	-48.9	15.8	0.00e+00	0	43	0	618659840	62	5390
2026-01-20 09:58:49.85	130.89	79.77	-43.4	-45.7	18.8	0.00e+00	0	43	0	625999872	58	4680
2026-01-20 09:58:53.83	123.99	81.44	-45.0	-47.9	16.8	0.00e+00	0	43	0	633339904	60	5344
2026-01-20 09:58:57.81	113.88	82.95	-44.2	-46.8	17.9	0.00e+00	0	43	0	640679936	60	4733
2026-01-20 09:59:01.79	99.02	84.13	-42.5	-44.7	19.6	0.00e+00	0	43	0	648019968	57	4440
2026-01-20 09:59:05.77	78.77	84.76	-44.2	-46.8	17.7	0.00e+00	0	43	0	655360000	59	5011
2026-01-20 09:59:09.75	56.55	84.63	-44.1	-46.7	17.8	0.00e+00	0	43	0	662700032	59	4955
2026-01-20 09:59:13.74	37.92	83.79	-44.2	-46.7	17.8	0.00e+00	0	43	0	670040064	59	4970
2026-01-20 09:59:17.72	24.81	82.47	-46.1	-49.4	15.3	0.00e+00	0	43	0	677380096	62	5687
2026-01-20 09:59:21.70	15.93	80.90	-44.1	-46.6	18.0	0.00e+00	0	43	0	685768704	60	4629
2026-01-20 09:59:25.68	9.81	79.19	-43.7	-46.1	18.5	0.00e+00	0	43	0	693108736	58	4873
2026-01-20 09:59:29.66	5.41	77.41	-45.2	-48.1	16.7	0.00e+00	0	43	0	700448768	60	5468
2026-01-20 09:59:33.64	2.15	75.60	-45.9	-49.0	15.7	0.00e+00	0	43	0	707788800	62	5431
2026-01-20 09:59:37.62	359.64	73.78	-45.4	-48.4	16.3	0.00e+00	0	43	0	715128832	62	5059
2026-01-20 09:59:41.60	357.66	71.96	-44.0	-46.5	18.1	0.00e+00	0	43	0	722468864	60	4576
2026-01-20 09:59:45.58	356.06	70.15	-45.0	-47.8	17.0	0.00e+00	0	43	0	729808896	60	5311
2026-01-20 09:59:49.57	354.75	68.36	-46.3	-49.6	15.1	0.00e+00	0	43	0	737148928	63	5526
2026-01-20 09:59:53.55	353.66	66.61	-45.7	-48.9	15.8	0.00e+00	0	43	0	745537536	63	5072
2026-01-20 09:59:57.53	352.73	64.88	-43.9	-46.4	18.2	0.00e+00	0	43	0	752877568	59	4798
2026-01-20 10:00:01.51	351.93	63.19	-42.7	-44.9	19.6	0.00e+00	0	43	0	760217600	56	4780
2026-01-20 10:00:05.48	351.25	61.53	-41.7	-43.8	20.5	0.00e+00	0	43	0	767557632	55	4456
2026-01-20 10:00:09.46	350.65	59.91	-45.0	-47.7	16.9	0.00e+00	0	43	0	774897664	60	5265
2026-01-20 10:00:13.45	350.11	58.33	-45.1	-47.9	16.7	0.00e+00	0	43	0	782237696	60	5393
2026-01-20 10:00:17.42	349.65	56.79	-45.4	-48.5	16.2	0.00e+00	0	43	0	789577728	62	5116
2026-01-20 10:00:21.40	349.23	55.29	-43.4	-45.8	18.7	0.00e+00	0	43	0	796917760	58	4731
2026-01-20 10:00:25.38	348.85	53.82	-43.1	-45.4	19.1	0.00e+00	0	43	0	804257792	58	4540
2026-01-20 10:00:29.36	348.52	52.40	-43.2	-45.5	19.1	0.00e+00	0	43	0	812646400	57	4835
2026-01-20 10:00:33.34	348.21	51.02	-45.1	-48.0	16.7	0.00e+00	0	43	0	819986432	61	5128
2026-01-20 10:00:37.32	347.93	49.67	-45.2	-48.2	16.5	0.00e+00	0	43	0	827326464	61	5234
2026-01-20 10:00:41.30	347.68	48.37	-47.4	-52.0	12.6	6.10e-05	0	43	0	834666496	65	6471
2026-01-20 10:00:45.28	347.44	47.10	-44.3	-46.9	17.7	0.00e+00	0	43	0	842006528	60	4793
2026-01-20 10:00:49.25	347.23	45.87	-45.8	-49.1	15.7	0.00e+00	0	43	0	849346560	62	5483
2026-01-20 10:00:53.23	347.04	44.67	-46.4	-50.1	14.5	1.50e-06	0	43	0	856686592	64	5509
2026-01-20 10:00:57.22	346.85	43.51	-43.9	-46.5	18.1	0.00e+00	0	43	0	864026624	59	4821
2026-01-20 10:01:01.20	346.69	42.38	-46.1	-49.5	15.3	0.00e+00	0	43	0	872415232	62	5745
2026-01-20 10:01:05.17	346.53	41.29	-46.8	-50.7	13.8	7.60e-06	0	43	0	879755264	64	5912
2026-01-20 10:01:09.15	346.39	40.23	-44.9	-47.7	16.9	0.00e+00	0	43	0	887095296	61	4942
2026-01-20 10:01:13.14	346.25	39.20	-46.1	-49.4	15.3	0.00e+00	0	43	0	894435328	62	5706
2026-01-20 10:01:17.12	346.12	38.20	-47.3	-52.0	12.6	9.46e-05	0	43	0	901775360	65	6463
2026-01-20 10:01:21.10	346.01	37.22	-46.3	-50.2	14.3	1.50e-06	0	43	0	909115392	64	5582
2026-01-20 10:01:25.08	345.90	36.28	-45.6	-48.8	15.9	0.00e+00	0	43	0	916455424	63	5004
2026-01-20 10:01:29.06	345.79	35.36	-46.2	-49.7	15.0	0.00e+00	0	43	0	923795456	63	5582
2026-01-20 10:01:33.03	345.70	34.47	-47.2	-51.6	13.0	2.36e-05	0	43	0	931135488	65	6198
2026-01-20 10:01:37.01	345.61	33.60	-47.3	-52.5	12.0	3.83e-04	0	43	0	939524096	65	6829
2026-01-20 10:01:40.99	345.52	32.76	-46.9	-51.4	13.1	4.50e-05	0	43	0	946864128	65	6057
2026-01-20 10:01:44.97	345.44	31.94	-46.0	-49.5	15.1	7.00e-07	0	43	0	954204160	64	5112
2026-01-20 10:01:48.95	345.36	31.14	-45.9	-49.3	15.3	0.00e+00	0	43	0	961544192	63	5327
2026-01-20 10:01:52.93	345.29	30.36	-46.6	-50.3	14.4	0.00e+00	0	43	0	968884224	63	5952
2026-01-20 10:01:56.91	345.23	29.61	-46.6	-50.7	13.9	3.00e-06	0	43	0	976224256	64	5864
2026-01-20 10:02:00.89	345.16	28.87	-46.0	-49.9	14.7	1.50e-06	0	43	0	983564288	64	5358
2026-01-20 10:02:04.87	345.10	28.15	-45.3	-48.3	16.3	0.00e+00	0	43	0	990904320	62	5023
2026-01-20 10:02:08.85	345.05	27.45	-44.3	-47.0	17.6	0.00e+00	0	43	0	998244352	60	4842
2026-01-20 10:02:12.83	344.99	26.77	-44.0	-46.7	17.8	0.00e+00	0	43	0	1006632960	59	4943
2026-01-20 10:02:16.81	344.94	26.10	-44.0	-46.6	17.9	0.00e+00	0	43	0	1013972992	59	4900
2026-01-20 10:02:20.79	344.89	25.46	-44.0	-46.5	17.9	0.00e+00	0	44	0	1021313024	59	4866
2026-01-20 10:02:24.76	344.85	24.82	-43.8	-46.4	18.1	0.00e+00	0	43	0	1028653056	59	4782
2026-01-20 10:02:28.74	344.80	24.20	-43.6	-46.3	18.2	0.00e+00	0	43	0	1035993088	59	4715
2026-01-20 10:02:32.72	344.76	23.60	-43.4	-45.9	18.5	0.00e+00	0	43	0	1043333120	58	4780
2026-01-20 10:02:36.70	344.72	23.01	-43.0	-45.4	19.0	0.00e+00	0	43	0	1050673152	58	4501
2026-01-20 10:02:40.67	344.69	22.43	-42.6	-45.2	19.1	0.00e+00	0	43	0	1058013184	57	4679
2026-01-20 10:02:44.65	344.65	21.87	-43.0	-45.5	18.8	0.00e+00	0	43	0	1065353216	57	4848
2026-01-20 10:02:48.63	344.62	21.32	-43.2	-45.5	18.8	0.00e+00	0	43	0	1073741824	57	4866
2026-01-20 10:02:52.61	344.59	20.77	-43.3	-45.8	18.6	0.00e+00	0	43	0	1081081856	57	5004
2026-01-20 10:02:56.59	344.56	20.25	-43.4	-45.9	18.4	0.00e+00	0	43	0	1088421888	57	5098
2026-01-20 10:03:00.57	344.53	19.73	-43.7	-46.2	18.1	0.00e+00	0	43	0	1095761920	58	4968
2026-01-20 10:03:04.55	344.50	19.22	-43.9	-46.5	17.9	0.00e+00	0	43	0	1103101952	58	5108
2026-01-20 10:03:08.53	344.47	18.72	-43.9	-46.6	17.8	0.00e+00	0	43	0	1110441984	58	5177
2026-01-20 10:03:12.51	344.45	18.24	-43.9	-46.7	17.6	0.00e+00	0	43	0	1117782016	58	5261
2026-01-20 10:03:16.49	344.43	17.76	-44.1	-46.9	17.5	0.00e+00	0	43	0	1125122048	58	5368
2026-01-20 10:03:20.46	344.40	17.29	-44.2	-46.8	17.5	0.00e+00	0	43	0	1132462080	59	5030
2026-01-20 10:03:24.44	344.38	16.83	-44.2	-47.1	17.3	0.00e+00	0	43	0	1140850688	59	5164
2026-01-20 10:03:28.43	344.36	16.38	-44.0	-47.3	17.1	0.00e+00	0	43	0	1148190720	59	5309
2026-01-20 10:03:32.41	344.35	15.93	-44.1	-47.3	17.1	0.00e+00	0	43	0	1155530752	59	5280
2026-01-20 10:03:36.39	344.33	15.50	-44.2	-47.1	17.2	0.00e+00	0	43	0	1162870784	59	5207
2026-01-20 10:03:40.37	344.31	15.07	-44.1	-47.0	17.2	0.00e+00	0	43	0	1170210816	59	5156
2026-01-20 10:03:44.35	344.30	14.65	-43.9	-47.0	17.2	0.00e+00	0	43	0	1177550848	59	5145
2026-01-20 10:03:48.33	344.28	14.24	-43.8	-47.1	17.2	0.00e+00	0	43	0	1184890880	59	5172
2026-01-20 10:03:52.31	344.27	13.83	-44.0	-47.3	17.0	0.00e+00	0	43	0	1192230912	59	5305
2026-01-20 10:03:56.29	344.25	13.43	-44.3	-47.5	16.8	0.00e+00	0	43	0	1200619520	59	5403
2026-01-20 10:04:00.27	344.24	13.04	-44.4	-47.6	16.6	0.00e+00	0	43	0	1207959552	59	5519
2026-01-20 10:04:04.25	344.23	12.65	-44.4	-47.8	16.5	0.00e+00	0	43	0	1215299584	59	5616
2026-01-20 10:04:08.23	344.22	12.27	-44.4	-48.0	16.2	0.00e+00	0	43	0	1222639616	59	5787
2026-01-20 10:04:12.21	344.21	11.90	-44.6	-48.2	16.0	0.00e+00	0	43	0	1229979648	59	5922
2026-01-20 10:04:16.18	344.20	11.53	-44.6	-48.3	16.0	0.00e+00	0	43	0	1237319680	60	5629
2026-01-20 10:04:20.16	344.19	11.16	-44.6	-48.3	15.9	0.00e+00	0	43	0	1244659712	60	5617
2026-01-20 10:04:24.14	344.18	10.81	-44.2	-48.2	16.0	0.00e+00	0	43	0	1251999744	60	5588
2026-01-20 10:04:28.12	344.17	10.45	-44.0	-48.1	16.0	0.00e+00	0	43	0	1260388352	59	5806
2026-01-20 10:04:32.10	344.17	10.10	-43.8	-48.3	15.8	0.00e+00	0	43	0	1267728384	59	5990
2026-01-20 10:04:36.08	344.16	9.76	-43.7	-48.2	15.8	0.00e+00	0	43	0	1275068416	59	5895
2026-01-20 10:04:40.06	344.15	9.42	-43.8	-48.2	15.9	0.00e+00	0	43	0	1282408448	59	5883
2026-01-20 10:04:44.04	344.15	9.09	-43.7	-48.0	16.0	0.00e+00	0	43	0	1289748480	59	5738
2026-01-20 10:04:48.01	344.14	8.76	-49.0	-65.7	3.8	1.49e+00	0	43	104	1293942784	69	24813
2026-01-20 10:04:51.99	344.14	8.43	-50.6	-66.0	3.8	1.49e+00	0	43	104	1293942784	71	22833
2026-01-20 10:04:55.96	344.14	8.11	-50.6	-66.0	3.8	1.49e+00	0	44	104	1293942784	72	21613
2026-01-20 10:04:59.93	344.13	7.80	-50.7	-66.1	3.8	1.49e+00	0	43	104	1293942784	72	21771
2026-01-20 10:05:03.91	344.13	7.48	-50.5	-66.1	3.8	1.49e+00	0	43	104	1293942784	72	21831
2026-01-20 10:05:07.88	344.13	7.18	-50.8	-66.0	3.8	1.49e+00	0	43	104	1293942784	72	21697
2026-01-20 10:05:11.85	344.12	6.87	-50.7	-66.0	3.8	1.49e+00	0	43	104	1293942784	72	21689
2026-01-20 10:05:15.83	344.12	6.57	-50.5	-66.0	3.8	1.49e+00	0	43	104	1293942784	72	21577
2026-01-20 10:05:19.80	344.12	6.27	-50.5	-66.0	3.8	1.49e+00	0	44	104	1293942784	72	21541
2026-01-20 10:05:23.78	344.12	5.98	-50.5	-66.0	3.8	1.49e+00	0	44	104	1293942784	72	21571
2026-01-20 10:05:27.75	344.12	5.68	-50.5	-66.0	3.8	1.49e+00	0	44	104	1293942784	72	21563
2026-01-20 10:05:31.72	344.12	5.40	-50.5	-66.0	3.8	1.49e+00	0	43	104	1293942784	72	21536
2026-01-20 10:05:35.70	344.12	5.11	-50.5	-66.0	3.8	1.49e+00	0	44	104	1293942784	72	21525

#Closed at: 2026-01-20 10:05:38
#Recorded file [1293 MB]: D:/Data/31040_260120_125239.dat