passes_logs/2026/01/20/T1/T1__20260120_202340_FENGYUN_3G_rec.log

#Pass ID: 20260120_202340_FENGYUN 3G
#Satellite: FENGYUN 3G
#Configuration: FENGYUN 3G
#almurnet v.1.7.20251203
#Start time: 2026-01-20 20:23:42

#Version: 2.0.20230620
#Station: T1
#Location: 37.570604 lon 55.790049 lat
#TLE: 1 56232U 23055A   26020.00144243  .00036531  00000+0  56251-3 0  9990
#TLE: 2 56232  49.9940  30.1229 0004155  52.6154 307.5191 15.53783627156971

#Time	Az	El	Level	Level2	SNR	BER	BlckErr	Temp	State	Recorded	gain1	gain2
2026-01-20 20:23:42.30	237.40	5.38	-50.4	-69.3	3.8	8.47e-01	0	38	0	0	72	31549
2026-01-20 20:23:44.28	237.22	5.53	-50.4	-68.9	3.8	8.47e-01	0	38	104	0	72	30248
2026-01-20 20:23:46.27	237.03	5.69	-50.3	-68.8	3.8	8.47e-01	0	38	104	0	72	29927
2026-01-20 20:23:48.25	236.84	5.84	-50.3	-68.7	3.8	8.46e-01	0	38	104	0	72	29568
2026-01-20 20:23:50.24	236.64	6.00	-50.3	-68.8	3.8	8.46e-01	0	38	104	0	72	29696
2026-01-20 20:23:52.22	236.45	6.15	-50.3	-68.9	3.8	8.47e-01	0	38	104	0	72	30166
2026-01-20 20:23:54.21	236.25	6.31	-50.3	-68.9	3.8	8.46e-01	0	38	104	0	72	30084
2026-01-20 20:23:56.20	236.04	6.47	-50.3	-68.8	3.8	8.47e-01	0	38	104	0	72	29858
2026-01-20 20:23:58.18	235.84	6.63	-50.3	-69.0	3.8	8.46e-01	0	38	104	0	72	30411
2026-01-20 20:24:00.17	235.63	6.79	-50.3	-69.2	3.8	8.47e-01	0	39	104	0	72	31161
2026-01-20 20:24:02.15	235.42	6.95	-50.3	-69.0	3.8	8.47e-01	0	39	104	0	72	30700
2026-01-20 20:24:04.14	235.20	7.12	-50.3	-69.0	3.8	8.47e-01	0	39	104	0	72	30716
2026-01-20 20:24:06.12	234.98	7.28	-50.3	-69.0	3.8	8.46e-01	0	39	104	0	72	30456
2026-01-20 20:24:08.11	234.76	7.45	-50.3	-67.8	3.8	8.46e-01	0	39	104	0	72	26564
2026-01-20 20:24:10.10	234.53	7.62	-50.3	-67.2	3.8	8.46e-01	0	39	104	0	72	24786
2026-01-20 20:24:12.08	234.30	7.79	-50.3	-68.3	3.8	8.47e-01	0	39	104	0	72	28280
2026-01-20 20:24:14.07	234.06	7.96	-50.4	-69.0	3.8	8.46e-01	0	39	104	0	72	30386
2026-01-20 20:24:16.05	233.82	8.13	-50.3	-67.4	3.8	8.46e-01	0	39	104	0	72	25409
2026-01-20 20:24:18.04	233.58	8.31	-50.3	-66.7	3.9	8.45e-01	0	39	104	0	72	23493
2026-01-20 20:24:20.02	233.34	8.48	-50.0	-61.4	6.5	8.44e-01	0	39	0	0	72	12778
2026-01-20 20:24:22.01	233.08	8.66	-49.1	-56.2	12.0	5.13e-02	0	39	0	0	70	7816
2026-01-20 20:24:24.00	232.83	8.84	-48.4	-54.1	14.1	4.87e-04	0	39	0	0	68	6914
2026-01-20 20:24:25.98	232.57	9.02	-48.7	-55.1	13.2	9.10e-06	0	39	0	0	68	7750
2026-01-20 20:24:27.97	232.31	9.20	-44.1	-46.9	21.2	8.53e-02	0	39	0	0	59	5091
2026-01-20 20:24:29.96	232.04	9.38	-46.0	-49.4	18.4	6.94e-02	0	39	0	0	63	5386
2026-01-20 20:24:31.95	231.76	9.57	-45.2	-48.4	19.8	0.00e+00	0	39	0	0	62	5042
2026-01-20 20:24:33.94	231.48	9.75	-44.0	-46.8	21.2	0.00e+00	0	39	0	0	60	4706
2026-01-20 20:24:35.93	231.20	9.94	-44.0	-46.8	21.3	0.00e+00	0	39	0	0	59	4997
2026-01-20 20:24:37.92	230.91	10.13	-43.3	-45.9	22.1	0.00e+00	0	39	0	0	58	4766
2026-01-20 20:24:39.91	230.62	10.32	-43.6	-46.2	21.8	0.00e+00	0	39	0	0	58	4981
2026-01-20 20:24:41.90	230.32	10.51	-43.4	-46.0	22.0	0.00e+00	0	39	0	0	58	4852
2026-01-20 20:24:43.89	230.01	10.71	-43.0	-45.5	22.4	0.00e+00	0	39	0	0	58	4583
2026-01-20 20:24:45.88	229.70	10.91	-42.1	-44.5	23.4	0.00e+00	0	40	0	0	56	4550
2026-01-20 20:24:47.87	229.39	11.10	-42.2	-44.5	23.4	0.00e+00	0	39	0	0	56	4571
2026-01-20 20:24:49.86	229.07	11.30	-41.8	-44.1	23.6	0.00e+00	0	39	0	0	55	4613
2026-01-20 20:24:51.85	228.74	11.50	-41.4	-43.6	24.0	0.00e+00	0	40	0	0	54	4612
2026-01-20 20:24:53.84	228.41	11.71	-41.5	-43.7	23.9	0.00e+00	0	40	0	0	54	4678
2026-01-20 20:24:55.83	228.07	11.91	-41.5	-43.7	23.9	0.00e+00	0	40	0	0	54	4703
2026-01-20 20:24:57.82	227.72	12.12	-41.5	-43.7	23.9	0.00e+00	0	40	0	0	54	4700
2026-01-20 20:24:59.81	227.37	12.33	-41.2	-43.4	24.1	0.00e+00	0	39	0	0	54	4518
2026-01-20 20:25:01.80	227.01	12.54	-41.1	-43.3	24.2	0.00e+00	0	40	0	0	54	4483
2026-01-20 20:25:03.79	226.64	12.75	-40.9	-43.1	24.5	0.00e+00	0	39	0	0	53	4632
2026-01-20 20:25:05.78	226.27	12.97	-40.6	-42.7	24.8	0.00e+00	0	39	0	0	53	4434
2026-01-20 20:25:07.77	225.89	13.18	-40.7	-42.9	24.7	0.00e+00	0	40	0	0	53	4497
2026-01-20 20:25:09.76	225.50	13.40	-40.7	-42.8	24.8	0.00e+00	0	40	0	0	53	4463
2026-01-20 20:25:11.75	225.10	13.62	-40.6	-42.7	24.9	0.00e+00	0	40	0	0	53	4402
2026-01-20 20:25:13.74	224.70	13.84	-40.4	-42.5	25.0	0.00e+00	0	40	0	0	52	4550
2026-01-20 20:25:15.72	224.29	14.06	-40.1	-42.2	25.2	0.00e+00	0	40	0	0	52	4423
2026-01-20 20:25:17.71	223.87	14.29	-40.1	-42.1	25.3	0.00e+00	0	40	0	0	52	4385
2026-01-20 20:25:19.70	223.44	14.51	-40.3	-42.3	25.2	0.00e+00	0	39	0	0	52	4490
2026-01-20 20:25:21.70	223.01	14.74	-40.4	-42.5	25.1	0.00e+00	0	39	0	0	52	4566
2026-01-20 20:25:23.69	222.56	14.97	-40.3	-42.4	25.2	0.00e+00	0	39	0	0	52	4529
2026-01-20 20:25:25.68	222.11	15.21	-39.9	-41.9	25.6	0.00e+00	0	40	0	0	51	4535
2026-01-20 20:25:27.67	221.64	15.44	-39.9	-41.9	25.6	0.00e+00	0	39	0	0	51	4527
2026-01-20 20:25:29.65	221.17	15.67	-39.8	-41.8	25.7	0.00e+00	0	39	0	0	51	4456
2026-01-20 20:25:31.64	220.69	15.91	-39.9	-42.0	25.6	0.00e+00	0	40	0	0	51	4546
2026-01-20 20:25:33.63	220.20	16.15	-40.1	-42.1	25.4	0.00e+00	0	39	0	0	51	4644
2026-01-20 20:25:35.62	219.70	16.39	-40.0	-42.0	25.5	0.00e+00	0	40	0	0	51	4578
2026-01-20 20:25:37.61	219.19	16.63	-39.2	-41.2	26.1	0.00e+00	0	40	0	0	50	4401
2026-01-20 20:25:39.60	218.66	16.88	-39.3	-41.3	26.1	0.00e+00	0	40	0	0	50	4470
2026-01-20 20:25:41.59	218.13	17.12	-39.2	-41.2	26.2	0.00e+00	0	40	0	0	50	4418
2026-01-20 20:25:43.58	217.59	17.37	-39.4	-41.4	26.1	0.00e+00	0	40	0	0	50	4506
2026-01-20 20:25:45.57	217.03	17.61	-39.8	-41.9	25.7	0.00e+00	0	39	0	0	50	4775
2026-01-20 20:25:47.56	216.46	17.86	-39.7	-41.7	25.8	0.00e+00	0	40	0	0	50	4703
2026-01-20 20:25:49.55	215.88	18.11	-39.6	-41.6	25.9	0.00e+00	0	39	0	0	50	4636
2026-01-20 20:25:51.54	215.29	18.36	-39.2	-41.2	26.2	0.00e+00	0	40	0	0	50	4435
2026-01-20 20:25:53.53	214.69	18.61	-39.2	-41.2	26.2	0.00e+00	0	39	0	0	50	4409
2026-01-20 20:25:55.52	214.08	18.87	-39.1	-41.1	26.3	0.00e+00	0	40	0	0	50	4350
2026-01-20 20:25:57.52	213.45	19.12	-39.4	-41.4	26.1	0.00e+00	0	40	0	0	50	4523
2026-01-20 20:25:59.51	212.80	19.37	-39.6	-41.6	26.0	0.00e+00	0	40	0	0	50	4603
2026-01-20 20:26:01.49	212.15	19.63	-39.4	-41.3	26.1	0.00e+00	0	40	0	0	50	4487
2026-01-20 20:26:03.48	211.49	19.88	-38.7	-40.6	26.6	0.00e+00	0	40	0	0	49	4376
2026-01-20 20:26:05.48	210.80	20.14	-38.7	-40.7	26.7	0.00e+00	0	39	0	0	49	4395
2026-01-20 20:26:07.46	210.11	20.39	-38.8	-40.7	26.6	0.00e+00	0	40	0	0	49	4429
2026-01-20 20:26:09.45	209.40	20.64	-39.1	-41.0	26.5	0.00e+00	0	40	0	0	49	4569
2026-01-20 20:26:11.44	208.68	20.90	-39.2	-41.2	26.3	0.00e+00	0	40	0	0	49	4680
2026-01-20 20:26:13.43	207.94	21.15	-39.1	-41.1	26.4	0.00e+00	0	39	0	0	49	4606
2026-01-20 20:26:15.42	207.19	21.40	-38.7	-40.6	26.7	0.00e+00	0	40	0	0	49	4384
2026-01-20 20:26:17.41	206.43	21.65	-38.7	-40.6	26.7	0.00e+00	0	40	0	0	49	4387
2026-01-20 20:26:19.40	205.64	21.90	-38.6	-40.5	26.8	0.00e+00	0	40	0	0	48	4561
2026-01-20 20:26:21.39	204.85	22.15	-38.7	-40.6	26.8	0.00e+00	0	40	0	0	48	4637
2026-01-20 20:26:23.38	204.04	22.39	-38.8	-40.7	26.8	0.00e+00	0	40	0	0	48	4662
2026-01-20 20:26:25.37	203.21	22.64	-38.8	-40.8	26.8	0.00e+00	0	40	0	0	48	4719
2026-01-20 20:26:27.36	202.37	22.88	-38.7	-40.6	26.8	0.00e+00	0	40	0	0	48	4638
2026-01-20 20:26:29.35	201.51	23.11	-38.6	-40.5	26.9	0.00e+00	0	40	0	0	48	4579
2026-01-20 20:26:31.34	200.64	23.35	-38.5	-40.4	27.1	0.00e+00	0	40	0	0	48	4498
2026-01-20 20:26:33.33	199.75	23.58	-38.6	-40.5	27.0	0.00e+00	0	40	0	0	48	4558
2026-01-20 20:26:35.32	198.85	23.81	-38.4	-40.3	27.1	0.00e+00	0	40	0	0	48	4457
2026-01-20 20:26:37.30	197.93	24.03	-38.4	-40.3	27.2	0.00e+00	0	40	0	0	48	4458
2026-01-20 20:26:39.29	197.00	24.25	-38.5	-40.4	27.1	0.00e+00	0	40	0	0	48	4532
2026-01-20 20:26:41.28	196.05	24.46	-38.6	-40.5	27.1	0.00e+00	0	40	0	0	48	4574
2026-01-20 20:26:43.27	195.09	24.67	-38.6	-40.5	27.1	0.00e+00	0	40	0	0	48	4557
2026-01-20 20:26:45.26	194.11	24.87	-38.8	-40.7	27.0	0.00e+00	0	40	0	0	48	4665
2026-01-20 20:26:47.25	193.12	25.07	-38.9	-40.8	26.9	0.00e+00	0	40	0	0	48	4712
2026-01-20 20:26:49.24	192.11	25.26	-38.9	-40.8	26.9	0.00e+00	0	40	0	0	48	4732
2026-01-20 20:26:51.23	191.09	25.44	-38.6	-40.5	27.1	0.00e+00	0	40	0	0	48	4557
2026-01-20 20:26:53.22	190.05	25.62	-38.6	-40.5	27.1	0.00e+00	0	40	0	0	48	4562
2026-01-20 20:26:55.21	189.01	25.78	-38.9	-40.8	27.0	0.00e+00	0	40	0	0	48	4706
2026-01-20 20:26:57.20	187.95	25.94	-38.7	-40.5	27.1	0.00e+00	0	40	0	0	48	4590
2026-01-20 20:26:59.19	186.88	26.10	-38.6	-40.5	27.1	0.00e+00	0	40	0	0	48	4550
2026-01-20 20:27:01.18	185.79	26.24	-38.7	-40.6	27.1	0.00e+00	0	40	0	0	48	4602
2026-01-20 20:27:03.17	184.70	26.37	-38.2	-40.1	27.5	0.00e+00	0	40	0	0	48	4358
2026-01-20 20:27:05.16	183.59	26.50	-38.1	-39.9	27.5	0.00e+00	0	40	0	0	48	4288
2026-01-20 20:27:07.15	182.48	26.61	-38.4	-40.3	27.3	0.00e+00	0	40	0	0	48	4458
2026-01-20 20:27:09.14	181.36	26.71	-38.1	-39.9	27.5	0.00e+00	0	40	0	0	48	4274
2026-01-20 20:27:11.13	180.23	26.81	-38.0	-39.9	27.4	0.00e+00	0	40	0	0	47	4518
2026-01-20 20:27:13.12	179.09	26.89	-38.3	-40.2	27.3	0.00e+00	0	40	0	0	47	4662
2026-01-20 20:27:15.11	177.95	26.96	-38.3	-40.1	27.3	0.00e+00	0	40	0	0	47	4644
2026-01-20 20:27:17.09	176.80	27.03	-38.1	-40.0	27.5	0.00e+00	0	40	0	0	47	4549
2026-01-20 20:27:19.08	175.65	27.08	-38.2	-40.0	27.4	0.00e+00	0	40	0	0	47	4596
2026-01-20 20:27:21.07	174.49	27.12	-38.2	-40.1	27.3	0.00e+00	0	40	0	0	47	4628
2026-01-20 20:27:23.06	173.33	27.14	-38.1	-40.0	27.4	0.00e+00	0	40	0	0	47	4570
2026-01-20 20:27:25.05	172.17	27.16	-38.4	-40.3	27.3	0.00e+00	0	40	0	0	47	4722
2026-01-20 20:27:27.04	171.01	27.16	-38.3	-40.2	27.3	0.00e+00	0	40	0	0	47	4656
2026-01-20 20:27:29.03	169.84	27.16	-38.3	-40.2	27.3	0.00e+00	0	40	0	0	47	4681
2026-01-20 20:27:31.02	168.68	27.14	-38.3	-40.2	27.3	0.00e+00	0	39	0	0	47	4657
2026-01-20 20:27:33.01	167.52	27.11	-38.1	-39.9	27.4	0.00e+00	0	40	0	0	47	4543
2026-01-20 20:27:35.00	166.36	27.07	-37.8	-39.7	27.6	0.00e+00	0	40	0	0	47	4417
2026-01-20 20:27:36.99	165.21	27.01	-38.4	-40.3	27.2	0.00e+00	0	40	0	0	47	4752
2026-01-20 20:27:38.98	164.06	26.95	-38.8	-40.7	27.2	0.00e+00	0	40	0	0	48	4655
2026-01-20 20:27:40.97	162.92	26.88	-38.0	-39.9	27.7	0.00e+00	0	40	0	0	48	4249
2026-01-20 20:27:42.96	161.79	26.79	-38.0	-39.8	27.6	0.00e+00	0	40	0	0	47	4486
2026-01-20 20:27:44.94	160.66	26.69	-38.5	-40.3	27.2	0.00e+00	0	40	0	0	47	4758
2026-01-20 20:27:46.93	159.54	26.59	-38.2	-40.1	27.4	0.00e+00	0	40	0	0	47	4605
2026-01-20 20:27:48.92	158.43	26.47	-38.3	-40.2	27.4	0.00e+00	0	40	0	0	47	4678
2026-01-20 20:27:50.91	157.33	26.35	-38.4	-40.3	27.3	0.00e+00	0	40	0	0	47	4749
2026-01-20 20:27:52.90	156.24	26.21	-38.7	-40.5	27.2	0.00e+00	0	40	0	0	48	4593
2026-01-20 20:27:54.89	155.16	26.07	-39.1	-41.0	27.0	0.00e+00	0	40	0	0	48	4826
2026-01-20 20:27:56.88	154.09	25.91	-39.6	-41.5	26.6	0.00e+00	0	39	0	0	49	4848
2026-01-20 20:27:58.86	153.04	25.75	-39.5	-41.4	26.7	0.00e+00	0	40	0	0	49	4800
2026-01-20 20:28:00.85	152.00	25.58	-39.1	-41.1	27.0	0.00e+00	0	40	0	0	49	4608
2026-01-20 20:28:02.84	150.97	25.41	-39.0	-40.9	27.0	0.00e+00	0	40	0	0	49	4533
2026-01-20 20:28:04.83	149.95	25.22	-38.9	-40.8	27.1	0.00e+00	0	40	0	0	49	4480
2026-01-20 20:28:06.82	148.95	25.03	-39.2	-41.2	26.9	0.00e+00	0	40	0	0	49	4654
2026-01-20 20:28:08.81	147.96	24.83	-39.1	-41.1	27.0	0.00e+00	0	40	0	0	49	4603
2026-01-20 20:28:10.79	146.99	24.63	-39.2	-41.1	26.9	0.00e+00	0	40	0	0	49	4616
2026-01-20 20:28:12.79	146.02	24.42	-39.2	-41.1	26.9	0.00e+00	0	40	0	0	49	4637
2026-01-20 20:28:14.77	145.08	24.21	-39.5	-41.4	26.7	0.00e+00	0	40	0	0	49	4788
2026-01-20 20:28:16.76	144.15	23.99	-39.0	-40.9	27.0	0.00e+00	0	40	0	0	49	4494
2026-01-20 20:28:18.75	143.24	23.77	-38.6	-40.5	27.3	0.00e+00	0	40	0	0	49	4293
2026-01-20 20:28:20.74	142.34	23.54	-39.0	-41.0	27.0	0.00e+00	0	40	0	0	49	4546
2026-01-20 20:28:22.73	141.46	23.31	-39.6	-41.5	26.6	0.00e+00	0	40	0	0	49	4845
2026-01-20 20:28:24.72	140.59	23.07	-39.3	-41.2	26.9	0.00e+00	0	40	0	0	50	4409
2026-01-20 20:28:26.71	139.74	22.83	-39.3	-41.2	26.8	0.00e+00	0	40	0	0	50	4420
2026-01-20 20:28:28.70	138.90	22.59	-39.0	-40.9	27.0	0.00e+00	0	40	0	0	50	4249
2026-01-20 20:28:30.69	138.08	22.35	-39.1	-41.0	27.0	0.00e+00	0	40	0	0	49	4558
2026-01-20 20:28:32.67	137.27	22.11	-39.5	-41.4	26.7	0.00e+00	0	40	0	0	49	4768
2026-01-20 20:28:34.66	136.48	21.86	-39.7	-41.7	26.5	0.00e+00	0	40	0	0	50	4652
2026-01-20 20:28:36.65	135.71	21.61	-39.6	-41.6	26.6	0.00e+00	0	40	0	0	50	4614
2026-01-20 20:28:38.64	134.94	21.36	-39.7	-41.6	26.3	0.00e+00	0	40	0	0	50	4629
2026-01-20 20:28:40.63	134.20	21.11	-39.9	-41.8	26.4	0.00e+00	0	40	0	0	50	4738
2026-01-20 20:28:42.62	133.46	20.86	-39.9	-41.8	26.4	0.00e+00	0	40	0	0	50	4747
2026-01-20 20:28:44.61	132.74	20.60	-40.0	-42.0	26.3	0.00e+00	0	40	0	0	50	4824
2026-01-20 20:28:46.60	132.04	20.35	-40.2	-42.1	26.2	0.00e+00	0	40	0	0	50	4907
2026-01-20 20:28:48.59	131.35	20.10	-40.0	-42.0	26.3	0.00e+00	0	40	0	0	51	4564
2026-01-20 20:28:50.58	130.67	19.84	-39.9	-41.8	26.4	0.00e+00	0	40	0	0	51	4470
2026-01-20 20:28:52.57	130.01	19.59	-40.4	-42.4	26.0	0.00e+00	0	40	0	0	51	4794
2026-01-20 20:28:54.56	129.36	19.34	-40.4	-42.4	26.0	0.00e+00	0	40	0	0	51	4763
2026-01-20 20:28:56.55	128.72	19.08	-40.2	-42.2	26.2	0.00e+00	0	40	0	0	51	4671
2026-01-20 20:28:58.53	128.10	18.83	-40.3	-42.2	26.1	0.00e+00	0	40	0	0	51	4687
2026-01-20 20:29:00.52	127.49	18.58	-40.3	-42.3	26.0	0.00e+00	0	40	0	0	51	4734
2026-01-20 20:29:02.51	126.89	18.33	-40.3	-42.2	26.1	0.00e+00	0	40	0	0	51	4692
2026-01-20 20:29:04.50	126.30	18.08	-40.2	-42.2	26.1	0.00e+00	0	40	0	0	51	4682
2026-01-20 20:29:06.49	125.73	17.83	-40.7	-42.7	25.8	0.00e+00	0	40	0	0	51	4950
2026-01-20 20:29:08.48	125.16	17.58	-40.6	-42.7	25.7	0.00e+00	0	40	0	0	52	4659
2026-01-20 20:29:10.47	124.61	17.34	-40.6	-42.6	25.8	0.00e+00	0	40	0	0	52	4605
2026-01-20 20:29:12.46	124.07	17.09	-40.7	-42.7	25.7	0.00e+00	0	40	0	0	52	4686
2026-01-20 20:29:14.45	123.54	16.85	-40.8	-42.8	25.6	0.00e+00	0	40	0	0	52	4745
2026-01-20 20:29:16.44	123.02	16.61	-41.1	-43.2	25.4	0.00e+00	0	40	0	0	52	4936
2026-01-20 20:29:18.42	122.51	16.37	-41.4	-43.4	25.1	0.00e+00	0	40	0	0	53	4804
2026-01-20 20:29:20.41	122.01	16.13	-41.2	-43.3	25.3	0.00e+00	0	40	0	0	53	4731
2026-01-20 20:29:22.40	121.53	15.89	-41.2	-43.3	25.2	0.00e+00	0	40	0	0	53	4713
2026-01-20 20:29:24.39	121.05	15.65	-41.1	-43.2	25.3	0.00e+00	0	40	0	0	53	4673
2026-01-20 20:29:26.38	120.58	15.42	-41.5	-43.7	25.0	0.00e+00	0	40	0	0	53	4941
2026-01-20 20:29:28.37	120.12	15.18	-41.9	-44.0	24.7	0.00e+00	0	40	0	0	54	4846
2026-01-20 20:29:30.36	119.66	14.95	-41.8	-43.9	24.8	0.00e+00	0	40	0	0	54	4778
2026-01-20 20:29:32.35	119.22	14.72	-41.8	-43.9	24.8	0.00e+00	0	39	0	0	54	4793
2026-01-20 20:29:34.34	118.79	14.50	-41.8	-43.9	24.7	0.00e+00	0	40	0	0	54	4803
2026-01-20 20:29:36.33	118.36	14.27	-41.9	-44.1	24.6	0.00e+00	0	40	0	0	54	4893
2026-01-20 20:29:38.32	117.95	14.04	-42.2	-44.3	24.4	0.00e+00	0	40	0	0	54	5030
2026-01-20 20:29:40.31	117.54	13.82	-42.4	-44.6	24.2	0.00e+00	0	40	0	0	55	4884
2026-01-20 20:29:42.30	117.14	13.60	-42.2	-44.4	24.3	0.00e+00	0	39	0	0	55	4790
2026-01-20 20:29:44.29	116.74	13.38	-42.1	-44.3	24.4	0.00e+00	0	40	0	0	55	4723
2026-01-20 20:29:46.28	116.36	13.17	-42.2	-44.3	24.3	0.00e+00	0	40	0	0	55	4753
2026-01-20 20:29:48.26	115.98	12.95	-42.4	-44.6	24.2	0.00e+00	0	40	0	0	55	4893
2026-01-20 20:29:50.25	115.61	12.74	-43.0	-45.3	23.7	0.00e+00	0	40	0	0	56	5008
2026-01-20 20:29:52.24	115.24	12.53	-42.9	-45.2	23.8	0.00e+00	0	40	0	0	56	4928
2026-01-20 20:29:54.23	114.89	12.32	-43.0	-45.2	23.8	0.00e+00	0	40	0	0	56	4960
2026-01-20 20:29:56.22	114.54	12.11	-42.8	-45.1	23.9	0.00e+00	0	40	0	0	56	4873
2026-01-20 20:29:58.21	114.19	11.90	-43.1	-45.3	23.7	0.00e+00	0	40	0	0	56	5036
2026-01-20 20:30:00.20	113.85	11.70	-43.3	-45.6	23.4	0.00e+00	0	40	0	0	57	4918
2026-01-20 20:30:02.19	113.52	11.50	-43.4	-45.8	23.3	0.00e+00	0	40	0	0	57	4995
2026-01-20 20:30:04.18	113.20	11.30	-43.5	-45.9	23.2	0.00e+00	0	40	0	0	57	5045
2026-01-20 20:30:06.17	112.88	11.10	-43.4	-45.7	23.3	0.00e+00	0	40	0	0	57	4975
2026-01-20 20:30:08.16	112.56	10.90	-43.4	-45.9	23.2	0.00e+00	0	40	0	0	57	5049
2026-01-20 20:30:10.15	112.25	10.70	-43.6	-46.0	23.0	0.00e+00	0	40	0	0	58	4842
2026-01-20 20:30:12.14	111.95	10.51	-43.5	-45.9	23.2	0.00e+00	0	40	0	0	58	4773
2026-01-20 20:30:14.13	111.65	10.32	-43.6	-46.0	23.0	0.00e+00	0	40	0	0	58	4820
2026-01-20 20:30:16.12	111.36	10.13	-43.8	-46.3	22.8	0.00e+00	0	40	0	0	58	5010
2026-01-20 20:30:18.11	111.07	9.94	-44.2	-46.7	22.4	0.00e+00	0	40	0	0	58	5220
2026-01-20 20:30:20.09	110.79	9.75	-44.5	-47.0	22.1	0.00e+00	0	40	0	0	59	5146
2026-01-20 20:30:22.08	110.52	9.56	-44.3	-46.8	22.3	0.00e+00	0	40	0	0	59	5023
2026-01-20 20:30:24.07	110.24	9.38	-44.2	-46.7	22.4	0.00e+00	0	40	0	0	59	4937
2026-01-20 20:30:26.07	109.98	9.20	-44.2	-46.6	22.4	0.00e+00	0	40	0	0	59	4919
2026-01-20 20:30:28.05	109.71	9.02	-44.2	-46.8	22.3	0.00e+00	0	40	0	0	59	5010
2026-01-20 20:30:30.04	109.46	8.84	-52.0	-70.2	3.8	0.00e+00	0	40	104	0	74	31409
2026-01-20 20:30:32.03	109.20	8.66	-52.4	-71.1	3.8	8.47e-01	0	40	104	0	75	32909
2026-01-20 20:30:34.01	108.95	8.48	-52.4	-71.2	3.8	8.47e-01	0	40	104	0	75	33259
2026-01-20 20:30:36.00	108.71	8.31	-52.3	-71.3	3.8	8.46e-01	0	40	104	0	75	33505
2026-01-20 20:30:37.98	108.47	8.14	-52.2	-71.4	3.8	8.48e-01	0	40	104	0	75	33774
2026-01-20 20:30:39.97	108.23	7.96	-52.2	-71.4	3.8	8.47e-01	0	40	104	0	75	33873
2026-01-20 20:30:41.96	107.99	7.79	-52.3	-71.4	3.8	8.47e-01	0	40	104	0	75	34007
2026-01-20 20:30:43.94	107.76	7.62	-52.5	-71.4	3.8	8.46e-01	0	40	104	0	75	34001
2026-01-20 20:30:45.93	107.54	7.46	-52.4	-71.5	3.8	8.47e-01	0	40	104	0	75	34105
2026-01-20 20:30:47.92	107.32	7.29	-52.4	-71.5	3.8	8.47e-01	0	40	104	0	75	34111
2026-01-20 20:30:49.90	107.10	7.12	-52.5	-71.5	3.8	8.46e-01	0	40	104	0	75	34138
2026-01-20 20:30:51.89	106.88	6.96	-52.4	-71.4	3.8	8.47e-01	0	40	104	0	75	33962
2026-01-20 20:30:53.88	106.67	6.80	-52.4	-71.4	3.8	8.47e-01	0	40	104	0	75	33877
2026-01-20 20:30:55.86	106.46	6.64	-52.4	-71.4	3.8	8.47e-01	0	40	104	0	75	33889
2026-01-20 20:30:57.85	106.26	6.48	-52.4	-71.4	3.8	8.47e-01	0	40	104	0	75	33720
2026-01-20 20:30:59.84	106.05	6.32	-52.4	-71.4	3.8	8.46e-01	0	40	104	0	75	33835
2026-01-20 20:31:01.82	105.86	6.16	-52.4	-71.4	3.8	8.46e-01	0	40	104	0	75	33769
2026-01-20 20:31:03.81	105.66	6.00	-52.4	-71.4	3.8	8.47e-01	0	40	104	0	75	33842
2026-01-20 20:31:05.79	105.47	5.85	-52.4	-71.4	3.8	8.47e-01	0	40	104	0	75	33822
2026-01-20 20:31:07.78	105.28	5.70	-52.4	-71.3	3.8	8.46e-01	0	40	104	0	75	33674
2026-01-20 20:31:09.77	105.09	5.54	-52.4	-71.4	3.8	8.47e-01	0	40	104	0	75	33753
2026-01-20 20:31:11.75	104.91	5.39	-52.4	-71.3	3.8	8.48e-01	0	40	104	0	75	33645
2026-01-20 20:31:13.74	104.72	5.24	-52.4	-71.3	3.8	8.48e-01	0	40	104	0	75	33690
2026-01-20 20:31:15.73	104.54	5.09	-52.4	-71.4	3.8	8.48e-01	0	40	104	0	75	33757
2026-01-20 20:31:17.71	104.37	4.94	-52.4	-71.4	3.8	8.47e-01	0	40	104	0	75	33760
2026-01-20 20:31:19.70	104.19	4.79	-52.4	-71.4	3.8	8.47e-01	0	40	104	0	75	33769

#Closed at: 2026-01-20 20:31:21
#Recorded file [0 MB]: D:/Data/31040_260120_232342.dat