passes_logs/2026/01/20/T1/T1__20260120_081747_KHAYYAM_rec.log

#Pass ID: 20260120_081747_KHAYYAM
#Satellite: KHAYYAM
#Configuration: KHAYYAM_480M
#almurnet v.1.7.20251203
#Start time: 2026-01-20 08:17:48

#Version: 2.0.20230620
#Station: T1
#Location: 37.570604 lon 55.790049 lat
#TLE: 1 53370U 22096A   26019.68235035  .00007249  00000+0  29653-3 0  9996
#TLE: 2 53370  97.3562 286.6082 0001738 107.8095 252.3333 15.24629188191955

#Time	Az	El	Level	Level2	SNR	BER	BlckErr	Temp	State	Recorded	gain1	gain2
2026-01-20 08:17:48.91	180.90	5.14	-51.9	-57.0	3.5	0.00e+00	0	42	0	0	75	25682
2026-01-20 08:17:51.90	181.04	5.39	-51.5	-56.2	3.7	0.00e+00	0	42	104	0	73	26447
2026-01-20 08:17:54.89	181.19	5.63	-51.5	-56.3	3.7	0.00e+00	0	42	104	0	73	26624
2026-01-20 08:17:57.89	181.34	5.88	-51.5	-56.3	3.7	0.00e+00	0	43	104	0	73	26590
2026-01-20 08:18:00.86	181.50	6.13	-51.5	-56.3	3.7	0.00e+00	0	43	104	0	73	26727
2026-01-20 08:18:03.85	181.66	6.38	-51.5	-56.3	3.7	0.00e+00	0	43	104	0	73	26805
2026-01-20 08:18:06.84	181.82	6.64	-51.4	-56.2	3.7	0.00e+00	0	44	104	0	73	26376
2026-01-20 08:18:09.83	181.98	6.90	-51.4	-56.1	3.7	0.00e+00	0	44	104	0	73	26217
2026-01-20 08:18:12.82	182.15	7.16	-51.4	-56.2	3.7	0.00e+00	0	44	104	0	73	26430
2026-01-20 08:18:15.82	182.32	7.43	-51.5	-56.2	3.7	0.00e+00	0	44	104	0	73	26546
2026-01-20 08:18:18.82	182.50	7.70	-51.5	-56.3	3.7	0.00e+00	0	44	104	0	73	26674
2026-01-20 08:18:21.81	182.68	7.97	-51.4	-56.2	3.7	0.00e+00	0	44	104	0	73	26375
2026-01-20 08:18:24.80	182.86	8.25	-51.4	-56.2	3.7	0.00e+00	0	44	104	0	73	26350
2026-01-20 08:18:27.80	183.05	8.54	-51.5	-56.3	3.7	0.00e+00	0	45	104	0	73	26633
2026-01-20 08:18:30.79	183.24	8.82	-51.5	-56.2	3.7	0.00e+00	0	45	104	0	73	26522
2026-01-20 08:18:33.78	183.44	9.11	-51.5	-56.2	3.7	0.00e+00	0	45	104	0	73	26520
2026-01-20 08:18:36.77	183.64	9.41	-51.6	-56.4	3.7	0.00e+00	0	45	104	0	74	25485
2026-01-20 08:18:39.76	183.85	9.71	-51.9	-56.7	3.7	0.00e+00	0	45	104	0	75	25029
2026-01-20 08:18:42.75	184.06	10.02	-52.1	-57.0	3.7	0.00e+00	0	45	104	0	75	25728
2026-01-20 08:18:45.74	184.27	10.32	-51.7	-56.7	3.7	0.00e+00	0	45	104	0	75	24941
2026-01-20 08:18:48.74	184.50	10.64	-51.8	-56.8	3.7	0.00e+00	0	46	104	0	75	25207
2026-01-20 08:18:51.73	184.73	10.96	-51.9	-57.0	3.7	0.00e+00	0	45	104	0	75	25720
2026-01-20 08:18:54.72	184.96	11.29	-52.0	-57.0	3.7	0.00e+00	0	45	104	0	75	25842
2026-01-20 08:18:57.72	185.20	11.62	-52.2	-57.1	3.7	0.00e+00	0	45	104	0	75	26086
2026-01-20 08:19:00.70	185.45	11.95	-52.2	-57.1	3.7	0.00e+00	0	46	104	0	75	26226
2026-01-20 08:19:03.71	185.70	12.30	-52.0	-56.9	3.7	0.00e+00	0	46	104	0	75	25387
2026-01-20 08:19:06.71	185.96	12.65	-52.1	-56.8	3.7	0.00e+00	0	46	104	0	75	25347
2026-01-20 08:19:09.71	186.23	13.00	-51.9	-56.8	3.7	0.00e+00	0	46	104	0	75	25124
2026-01-20 08:19:12.71	186.51	13.37	-44.9	-46.2	9.1	2.48e-02	0	46	0	134217728	60	17704
2026-01-20 08:19:15.71	186.79	13.73	-43.0	-44.1	11.4	4.87e-03	0	46	0	318767104	58	15624
2026-01-20 08:19:18.70	187.09	14.11	-42.7	-43.9	11.7	2.59e-03	0	47	0	494927872	57	16033
2026-01-20 08:19:21.70	187.39	14.49	-41.0	-42.0	13.0	1.70e-04	0	47	0	679477248	53	16351
2026-01-20 08:19:24.70	187.70	14.88	-40.2	-41.2	13.6	7.62e-05	0	47	0	855638016	51	16696
2026-01-20 08:19:27.69	188.02	15.28	-39.0	-40.0	14.2	1.69e-05	0	47	0	1040187392	49	16255
2026-01-20 08:19:30.68	188.35	15.69	-36.0	-36.9	15.9	0.00e+00	0	47	0	1216348160	44	15229
2026-01-20 08:19:33.69	188.69	16.10	-32.9	-33.8	18.0	0.00e+00	0	47	0	1392508928	37	15870
2026-01-20 08:19:36.69	189.05	16.53	-32.0	-32.9	18.5	0.00e+00	0	47	0	1577058304	36	15262
2026-01-20 08:19:39.69	189.41	16.96	-30.3	-31.2	18.4	0.00e+00	0	47	0	1753219072	32	15674
2026-01-20 08:19:42.69	189.79	17.40	-29.9	-30.7	18.6	0.00e+00	0	48	0	1937768448	31	15819
2026-01-20 08:19:45.68	190.17	17.85	-29.7	-30.5	18.9	0.00e+00	0	48	0	2113929216	31	15402
2026-01-20 08:19:48.68	190.58	18.31	-29.6	-30.5	18.8	0.00e+00	0	47	0	2290089984	31	15390
2026-01-20 08:19:51.67	190.99	18.78	-29.2	-30.1	19.0	0.00e+00	0	48	0	2474639360	30	15476
2026-01-20 08:19:54.67	191.42	19.26	-29.0	-29.8	19.1	0.00e+00	0	48	0	2650800128	29	16014
2026-01-20 08:19:57.67	191.87	19.75	-28.9	-29.8	19.2	0.00e+00	0	48	0	2835349504	29	15916
2026-01-20 08:20:00.68	192.34	20.26	-28.7	-29.5	19.2	0.00e+00	0	48	0	3011510272	29	15437
2026-01-20 08:20:03.67	192.82	20.77	-52.9	-57.5	3.7	2.03e-04	0	47	104	3061841920	76	25802
2026-01-20 08:20:06.66	193.32	21.29	-52.7	-57.3	3.7	2.03e-04	0	48	104	3061841920	76	25334
2026-01-20 08:20:09.66	193.84	21.83	-53.3	-57.8	3.7	2.03e-04	0	48	104	3061841920	77	25340
2026-01-20 08:20:12.66	194.38	22.38	-53.5	-58.0	3.7	2.03e-04	0	47	104	3061841920	77	25706
2026-01-20 08:20:15.66	194.94	22.95	-53.4	-58.0	3.7	2.03e-04	0	47	104	3061841920	77	25721
2026-01-20 08:20:18.66	195.52	23.52	-53.4	-57.9	3.7	2.03e-04	0	48	104	3061841920	77	25543
2026-01-20 08:20:21.65	196.13	24.11	-53.7	-58.2	3.7	2.03e-04	0	47	104	3061841920	77	26325
2026-01-20 08:20:24.65	196.77	24.71	-53.7	-58.3	3.7	2.03e-04	0	47	104	3061841920	78	25095
2026-01-20 08:20:27.66	197.43	25.33	-53.9	-58.4	3.7	2.03e-04	0	47	104	3061841920	78	25450
2026-01-20 08:20:30.66	198.13	25.96	-53.8	-58.3	3.7	2.03e-04	0	47	104	3061841920	78	25288
2026-01-20 08:20:33.65	198.85	26.61	-53.9	-58.4	3.7	2.03e-04	0	47	104	3061841920	78	25488
2026-01-20 08:20:36.64	199.60	27.27	-53.8	-58.3	3.7	2.03e-04	0	47	104	3061841920	78	25218
2026-01-20 08:20:39.64	200.39	27.94	-53.6	-58.1	3.7	2.03e-04	0	47	104	3061841920	78	24612
2026-01-20 08:20:42.63	201.22	28.63	-53.5	-57.9	3.7	2.03e-04	0	47	104	3061841920	78	24088
2026-01-20 08:20:45.63	202.08	29.33	-54.0	-58.4	3.7	2.03e-04	0	47	104	3061841920	78	25387
2026-01-20 08:20:48.63	202.99	30.05	-53.9	-58.4	3.7	2.03e-04	0	47	104	3061841920	78	25644
2026-01-20 08:20:51.63	203.95	30.78	-53.9	-58.3	3.7	2.03e-04	0	47	104	3061841920	78	25351
2026-01-20 08:20:54.63	204.95	31.53	-54.0	-58.5	3.7	2.03e-04	0	47	104	3061841920	78	25755
2026-01-20 08:20:57.63	206.00	32.29	-53.8	-58.3	3.7	2.03e-04	0	47	104	3061841920	78	25270
2026-01-20 08:21:00.63	207.11	33.06	-53.9	-58.4	3.7	2.03e-04	0	47	104	3061841920	78	25578
2026-01-20 08:21:03.61	208.27	33.84	-54.0	-58.4	3.7	2.03e-04	0	47	104	3061841920	78	25643
2026-01-20 08:21:06.61	209.49	34.64	-53.9	-58.2	3.7	2.03e-04	0	47	104	3061841920	78	24858
2026-01-20 08:21:09.60	210.78	35.44	-53.9	-58.4	3.7	2.03e-04	0	47	104	3061841920	78	25650
2026-01-20 08:21:12.60	212.14	36.26	-54.0	-58.4	3.7	2.03e-04	0	47	104	3061841920	78	25645
2026-01-20 08:21:15.59	213.57	37.07	-53.6	-58.1	3.7	2.03e-04	0	47	104	3061841920	78	24783
2026-01-20 08:21:18.58	215.07	37.89	-53.9	-58.3	3.7	2.03e-04	0	47	104	3061841920	78	25334
2026-01-20 08:21:21.59	216.67	38.72	-54.0	-58.4	3.7	2.03e-04	0	47	104	3061841920	78	25553
2026-01-20 08:21:24.59	218.35	39.54	-54.2	-58.5	3.7	2.03e-04	0	47	104	3061841920	79	24445
2026-01-20 08:21:27.59	220.12	40.36	-54.2	-58.7	3.7	2.03e-04	0	47	104	3061841920	79	24813
2026-01-20 08:21:30.57	221.97	41.16	-54.1	-58.6	3.7	2.03e-04	0	47	104	3061841920	79	24529
2026-01-20 08:21:33.58	223.94	41.95	-54.2	-58.5	3.7	2.03e-04	0	47	104	3061841920	79	24331
2026-01-20 08:21:36.57	225.99	42.73	-54.0	-58.4	3.7	2.03e-04	0	47	104	3061841920	79	24212
2026-01-20 08:21:39.57	228.16	43.48	-54.2	-58.6	3.6	2.03e-04	0	47	104	3061841920	79	24666
2026-01-20 08:21:42.56	230.42	44.19	-53.9	-58.3	3.7	2.03e-04	0	47	104	3061841920	79	23816
2026-01-20 08:21:45.56	232.79	44.88	-54.3	-58.8	3.7	2.03e-04	0	47	104	3061841920	79	25291
2026-01-20 08:21:48.55	235.26	45.52	-54.5	-58.8	3.7	2.03e-04	0	47	104	3061841920	79	25351
2026-01-20 08:21:51.55	237.84	46.12	-54.3	-58.8	3.7	2.03e-04	0	47	104	3061841920	79	25309
2026-01-20 08:21:54.55	240.52	46.66	-54.1	-58.7	3.7	2.03e-04	0	47	104	3061841920	79	24860
2026-01-20 08:21:57.55	243.29	47.14	-54.3	-58.8	3.7	2.03e-04	0	47	104	3061841920	79	25164
2026-01-20 08:22:00.54	246.13	47.55	-54.3	-58.7	3.6	2.03e-04	0	47	104	3061841920	79	25032
2026-01-20 08:22:03.54	249.05	47.89	-53.9	-58.6	3.7	2.03e-04	0	47	104	3061841920	79	24525
2026-01-20 08:22:06.53	252.02	48.15	-54.1	-58.7	3.7	2.03e-04	0	47	104	3061841920	79	24873
2026-01-20 08:22:09.54	255.06	48.34	-54.1	-58.6	3.7	2.03e-04	0	47	104	3061841920	79	24604
2026-01-20 08:22:12.53	258.10	48.44	-54.0	-58.6	3.7	2.03e-04	0	47	104	3061841920	79	24763
2026-01-20 08:22:15.53	261.16	48.45	-53.7	-58.5	3.7	2.03e-04	0	47	104	3061841920	79	24408
2026-01-20 08:22:18.53	264.22	48.38	-53.6	-58.4	3.7	2.03e-04	0	47	104	3061841920	79	24105
2026-01-20 08:22:21.52	267.24	48.23	-53.9	-58.5	3.7	2.03e-04	0	47	104	3061841920	79	24492
2026-01-20 08:22:24.52	270.24	48.00	-54.2	-58.7	3.7	2.03e-04	0	47	104	3061841920	79	24976
2026-01-20 08:22:27.51	273.17	47.69	-54.1	-58.7	3.7	2.03e-04	0	47	104	3061841920	79	24887
2026-01-20 08:22:30.51	276.05	47.30	-54.2	-58.7	3.7	2.03e-04	0	47	104	3061841920	79	24957
2026-01-20 08:22:33.51	278.84	46.85	-54.2	-58.6	3.7	2.03e-04	0	47	104	3061841920	79	24784
2026-01-20 08:22:36.50	281.54	46.34	-54.3	-58.8	3.7	2.03e-04	0	47	104	3061841920	79	25264
2026-01-20 08:22:39.50	284.16	45.76	-54.3	-58.8	3.7	2.03e-04	0	48	104	3061841920	79	25146
2026-01-20 08:22:42.49	286.66	45.14	-54.0	-58.6	3.7	2.03e-04	0	47	104	3061841920	79	24530
2026-01-20 08:22:45.49	289.07	44.47	-54.3	-58.6	3.7	2.03e-04	0	47	104	3061841920	79	24807
2026-01-20 08:22:48.48	291.37	43.77	-54.1	-58.6	3.7	2.03e-04	0	47	104	3061841920	79	24607
2026-01-20 08:22:51.48	293.57	43.03	-54.3	-58.7	3.7	2.03e-04	0	47	104	3061841920	79	25023
2026-01-20 08:22:54.48	295.66	42.27	-54.0	-58.6	3.7	2.03e-04	0	47	104	3061841920	79	24703
2026-01-20 08:22:57.46	297.64	41.50	-53.5	-58.1	3.7	2.03e-04	0	47	104	3061841920	79	23350
2026-01-20 08:23:00.46	299.54	40.70	-54.0	-58.1	3.7	2.03e-04	0	47	104	3061841920	78	24644
2026-01-20 08:23:03.46	301.34	39.89	-53.5	-57.7	3.7	0.00e+00	0	47	104	3061841920	78	23564
2026-01-20 08:23:06.46	303.04	39.07	-53.6	-58.1	3.7	0.00e+00	0	47	104	3061841920	78	24729
2026-01-20 08:23:09.46	304.67	38.25	-53.9	-58.4	3.7	0.00e+00	0	47	104	3061841920	78	25426
2026-01-20 08:23:12.45	306.20	37.44	-53.4	-58.0	3.7	0.00e+00	0	47	104	3061841920	78	24514
2026-01-20 08:23:15.45	307.66	36.62	-53.5	-58.1	3.7	0.00e+00	0	47	104	3061841920	78	24592
2026-01-20 08:23:18.44	309.04	35.81	-53.7	-58.2	3.7	0.00e+00	0	47	104	3061841920	78	25093
2026-01-20 08:23:21.44	310.35	35.01	-54.1	-58.5	3.7	0.00e+00	0	47	104	3061841920	78	25766
2026-01-20 08:23:24.44	311.60	34.21	-54.1	-58.4	3.7	0.00e+00	0	47	104	3061841920	78	25677
2026-01-20 08:23:27.44	312.78	33.43	-54.0	-58.5	3.7	0.00e+00	0	47	104	3061841920	78	25833
2026-01-20 08:23:30.44	313.91	32.66	-53.4	-58.1	3.7	0.00e+00	0	47	104	3061841920	78	24679
2026-01-20 08:23:33.44	314.98	31.89	-54.1	-58.6	3.7	0.00e+00	0	47	104	3061841920	78	26003
2026-01-20 08:23:36.44	316.00	31.15	-53.7	-58.4	3.7	0.00e+00	0	48	104	3061841920	78	25664
2026-01-20 08:23:39.43	316.97	30.41	-51.7	-57.1	3.7	0.00e+00	0	47	104	3061841920	75	26217
2026-01-20 08:23:42.42	317.89	29.70	-52.9	-57.7	3.7	0.00e+00	0	48	104	3061841920	76	26438
2026-01-20 08:23:45.42	318.77	28.99	-53.6	-57.7	3.7	0.00e+00	0	47	104	3061841920	77	24942
2026-01-20 08:23:48.42	319.61	28.30	-53.4	-57.5	3.7	0.00e+00	0	47	104	3061841920	77	24497
2026-01-20 08:23:51.40	320.41	27.63	-52.0	-56.7	3.7	0.00e+00	0	47	104	3061841920	76	23672
2026-01-20 08:23:54.39	321.18	26.97	-52.3	-57.1	3.7	0.00e+00	0	48	104	3061841920	76	24766
2026-01-20 08:23:57.38	321.91	26.32	-52.6	-57.2	3.7	0.00e+00	0	47	104	3061841920	76	24857
2026-01-20 08:24:00.39	322.62	25.69	-51.5	-56.8	3.7	0.00e+00	0	48	104	3061841920	75	25297
2026-01-20 08:24:03.38	323.29	25.07	-52.8	-57.8	3.7	0.00e+00	0	47	104	3061841920	76	26626
2026-01-20 08:24:06.38	323.93	24.46	-52.7	-57.6	3.7	0.00e+00	0	47	104	3061841920	76	26249
2026-01-20 08:24:09.38	324.55	23.87	-52.6	-57.8	3.7	0.00e+00	0	47	104	3061841920	76	26625
2026-01-20 08:24:12.38	325.15	23.29	-53.0	-57.9	3.7	0.00e+00	0	47	104	3061841920	76	27185
2026-01-20 08:24:15.38	325.72	22.73	-53.0	-58.1	3.7	0.00e+00	0	47	104	3061841920	76	27521
2026-01-20 08:24:18.36	326.26	22.18	-51.7	-57.0	3.7	0.00e+00	0	47	104	3061841920	75	25822
2026-01-20 08:24:21.35	326.79	21.64	-51.5	-57.0	3.7	0.00e+00	0	47	104	3061841920	74	27428
2026-01-20 08:24:24.35	327.30	21.11	-51.8	-57.1	3.7	0.00e+00	0	47	104	3061841920	74	27621
2026-01-20 08:24:27.34	327.78	20.60	-53.0	-57.8	3.7	0.00e+00	0	47	104	3061841920	76	26784
2026-01-20 08:24:30.33	328.25	20.09	-52.2	-57.5	3.7	0.00e+00	0	48	104	3061841920	76	25691
2026-01-20 08:24:33.31	328.71	19.60	-52.1	-57.4	3.7	0.00e+00	0	48	104	3061841920	76	25476
2026-01-20 08:24:36.31	329.14	19.12	-52.0	-57.3	3.7	0.00e+00	0	47	104	3061841920	76	25269
2026-01-20 08:24:39.30	329.57	18.65	-51.3	-56.8	3.7	0.00e+00	0	47	104	3061841920	74	26869
2026-01-20 08:24:42.30	329.98	18.19	-51.1	-56.8	3.7	0.00e+00	0	47	104	3061841920	74	26585
2026-01-20 08:24:45.29	330.37	17.74	-53.4	-58.1	3.7	0.00e+00	0	47	104	3061841920	77	26076
2026-01-20 08:24:48.29	330.75	17.29	-53.3	-58.0	3.7	0.00e+00	0	47	104	3061841920	77	25788
2026-01-20 08:24:51.28	331.12	16.86	-53.6	-58.2	3.7	0.00e+00	0	47	104	3061841920	77	26559
2026-01-20 08:24:54.27	331.48	16.44	-53.4	-58.2	3.7	0.00e+00	0	47	104	3061841920	77	26521
2026-01-20 08:24:57.26	331.83	16.02	-52.1	-57.4	3.6	0.00e+00	0	48	104	3061841920	76	25654
2026-01-20 08:25:00.26	332.16	15.61	-52.5	-57.6	3.7	0.00e+00	0	48	104	3061841920	76	26072
2026-01-20 08:25:03.24	332.49	15.21	-52.4	-57.6	3.7	0.00e+00	0	47	104	3061841920	76	26027
2026-01-20 08:25:06.23	332.80	14.82	-52.3	-57.5	3.7	0.00e+00	0	47	104	3061841920	76	25936
2026-01-20 08:25:09.23	333.11	14.44	-52.9	-57.9	3.7	0.00e+00	0	48	104	3061841920	76	26898
2026-01-20 08:25:12.23	333.41	14.06	-52.5	-57.6	3.7	0.00e+00	0	47	104	3061841920	76	26135
2026-01-20 08:25:15.22	333.70	13.69	-53.2	-58.2	3.7	0.00e+00	0	47	104	3061841920	77	26378
2026-01-20 08:25:18.22	333.98	13.33	-52.8	-57.9	3.7	0.00e+00	0	47	104	3061841920	76	27024
2026-01-20 08:25:21.21	334.25	12.97	-53.4	-58.3	3.7	0.00e+00	0	47	104	3061841920	77	26810
2026-01-20 08:25:24.20	334.52	12.62	-53.3	-58.2	3.7	0.00e+00	0	47	104	3061841920	77	26284
2026-01-20 08:25:27.18	334.77	12.28	-52.7	-57.8	3.7	0.00e+00	0	47	104	3061841920	76	26843
2026-01-20 08:25:30.17	335.02	11.94	-53.2	-58.1	3.7	0.00e+00	0	48	104	3061841920	76	27628
2026-01-20 08:25:33.18	335.27	11.61	-53.3	-58.2	3.7	0.00e+00	0	47	104	3061841920	77	26546
2026-01-20 08:25:36.17	335.51	11.28	-53.1	-58.0	3.7	0.00e+00	0	48	104	3061841920	77	25919
2026-01-20 08:25:39.17	335.74	10.96	-52.2	-57.5	3.7	0.00e+00	0	47	104	3061841920	76	25856
2026-01-20 08:25:42.17	335.97	10.64	-51.6	-57.2	3.7	0.00e+00	0	47	104	3061841920	74	28071
2026-01-20 08:25:45.16	336.19	10.33	-51.6	-57.3	3.7	0.00e+00	0	48	104	3061841920	74	28163
2026-01-20 08:25:48.15	336.41	10.02	-51.7	-57.3	3.7	0.00e+00	0	47	104	3061841920	74	28236
2026-01-20 08:25:51.15	336.62	9.72	-51.5	-57.1	3.7	0.00e+00	0	47	104	3061841920	73	29321
2026-01-20 08:25:54.14	336.82	9.43	-50.9	-56.7	3.7	0.00e+00	0	48	104	3061841920	73	28040
2026-01-20 08:25:57.13	337.02	9.13	-51.2	-57.0	3.7	0.00e+00	0	47	104	3061841920	73	29024
2026-01-20 08:26:00.11	337.22	8.85	-53.0	-58.2	3.7	0.00e+00	0	48	104	3061841920	77	26292
2026-01-20 08:26:03.10	337.41	8.56	-53.5	-58.6	3.7	0.00e+00	0	47	104	3061841920	77	27660
2026-01-20 08:26:06.10	337.60	8.28	-54.3	-59.2	3.7	0.00e+00	0	47	104	3061841920	79	26283
2026-01-20 08:26:09.09	337.78	8.01	-54.0	-59.0	3.7	0.00e+00	0	48	104	3061841920	79	25869
2026-01-20 08:26:12.09	337.96	7.74	-54.8	-59.5	3.7	0.00e+00	0	47	104	3061841920	80	25789
2026-01-20 08:26:15.08	338.14	7.47	-54.8	-59.5	3.7	0.00e+00	0	47	104	3061841920	80	25726
2026-01-20 08:26:18.07	338.31	7.20	-55.1	-59.6	3.7	0.00e+00	0	48	104	3061841920	81	24742
2026-01-20 08:26:21.06	338.48	6.94	-54.9	-59.4	3.7	0.00e+00	0	48	104	3061841920	81	24162
2026-01-20 08:26:24.06	338.64	6.68	-54.4	-59.0	3.7	0.00e+00	0	48	104	3061841920	80	24303
2026-01-20 08:26:27.05	338.81	6.43	-54.4	-58.9	3.7	0.00e+00	0	47	104	3061841920	80	24220
2026-01-20 08:26:30.04	338.96	6.18	-54.4	-59.0	3.7	0.00e+00	0	47	104	3061841920	80	24275
2026-01-20 08:26:33.03	339.12	5.93	-54.5	-59.0	3.7	0.00e+00	0	47	104	3061841920	80	24398
2026-01-20 08:26:36.02	339.27	5.69	-54.5	-59.0	3.7	0.00e+00	0	48	104	3061841920	80	24452
2026-01-20 08:26:39.01	339.42	5.45	-54.5	-59.1	3.7	0.00e+00	0	47	104	3061841920	80	24580
2026-01-20 08:26:42.00	339.57	5.21	-54.5	-59.1	3.7	0.00e+00	0	48	104	3061841920	80	24583
2026-01-20 08:26:44.99	339.71	4.97	-54.6	-59.1	3.7	0.00e+00	0	47	104	3061841920	80	24631

#Closed at: 2026-01-20 08:26:45
#Recorded file [3061 MB]: D:/Data/31040_260120_111748.dat