passes_logs/2026/01/20/T1/T1__20260120_225303_NOAA_21_JPSS-2_rec.log

#Pass ID: 20260120_225303_NOAA 21 (JPSS-2)
#Satellite: NOAA 21 (JPSS-2)
#Configuration: NOAA 21
#almurnet v.1.7.20251203
#Start time: 2026-01-20 22:53:03

#Version: 2.0.20230620
#Station: T1
#Location: 37.570604 lon 55.790049 lat
#TLE: 1 54234U 22150A   26020.29910383  .00000141  00000+0  87571-4 0  9990
#TLE: 2 54234  98.7506 321.1348 0000615 250.8428 109.2682 14.19536295165564

#Time	Az	El	Level	Level2	SNR	BER	BlckErr	Temp	State	Recorded	gain1	gain2
2026-01-20 22:53:03.06	22.30	4.96	-49.7	-63.5	3.8	1.49e+00	0	41	0	0	71	17246
2026-01-20 22:53:06.03	22.44	5.16	-49.7	-63.4	3.8	1.49e+00	0	41	104	0	70	18005
2026-01-20 22:53:09.01	22.59	5.36	-49.7	-63.3	3.8	1.49e+00	0	41	104	0	70	17745
2026-01-20 22:53:11.99	22.73	5.56	-49.7	-63.3	3.8	1.49e+00	0	41	104	0	70	17739
2026-01-20 22:53:14.97	22.88	5.77	-49.7	-63.3	3.8	1.49e+00	0	41	104	0	70	17872
2026-01-20 22:53:17.95	23.03	5.98	-49.7	-63.4	3.8	1.49e+00	0	41	104	0	70	18072
2026-01-20 22:53:20.93	23.18	6.19	-49.7	-63.4	3.8	1.49e+00	0	41	104	0	70	18054
2026-01-20 22:53:23.91	23.34	6.40	-49.7	-63.4	3.8	1.49e+00	0	42	104	0	70	18061
2026-01-20 22:53:26.89	23.50	6.61	-49.7	-63.4	3.8	1.49e+00	0	42	104	0	70	17896
2026-01-20 22:53:29.87	23.65	6.82	-49.7	-63.4	3.8	1.49e+00	0	42	104	0	70	18003
2026-01-20 22:53:32.84	23.81	7.03	-49.7	-63.4	3.8	1.49e+00	0	42	104	0	70	17970
2026-01-20 22:53:35.82	23.98	7.25	-49.7	-63.1	3.8	1.49e+00	0	42	104	0	70	17331
2026-01-20 22:53:38.80	24.14	7.47	-49.7	-62.6	3.8	1.49e+00	0	42	104	0	70	16386
2026-01-20 22:53:41.78	24.31	7.69	-49.7	-62.3	3.8	1.49e+00	0	42	104	0	70	15906
2026-01-20 22:53:44.76	24.48	7.91	-49.7	-62.3	3.8	1.49e+00	0	42	104	0	70	15886
2026-01-20 22:53:47.74	24.65	8.13	-49.7	-62.3	3.8	1.49e+00	0	42	104	0	70	15784
2026-01-20 22:53:50.72	24.83	8.36	-49.6	-61.8	3.9	1.49e+00	0	42	104	0	70	14885
2026-01-20 22:53:53.70	25.00	8.58	-49.3	-58.9	4.6	1.36e+00	0	42	104	0	70	10726
2026-01-20 22:53:56.68	25.18	8.81	-48.4	-54.7	7.5	1.46e-01	0	43	0	0	68	7405
2026-01-20 22:53:59.66	25.37	9.04	-46.9	-51.2	10.9	3.67e-03	0	42	0	0	65	5890
2026-01-20 22:54:02.64	25.55	9.28	-46.4	-50.2	11.9	1.24e-02	0	42	0	0	64	5577
2026-01-20 22:54:05.62	25.74	9.51	-42.8	-45.1	17.0	0.00e+00	0	42	0	0	57	4619
2026-01-20 22:54:08.60	25.93	9.75	-42.4	-44.5	17.6	0.00e+00	0	43	0	0	56	4576
2026-01-20 22:54:11.59	26.13	9.99	-42.3	-44.3	17.8	0.00e+00	0	43	0	0	56	4480
2026-01-20 22:54:14.58	26.32	10.23	-42.2	-44.2	17.9	0.00e+00	0	42	0	0	56	4415
2026-01-20 22:54:17.56	26.52	10.47	-42.1	-44.1	18.0	0.00e+00	0	43	0	0	56	4354
2026-01-20 22:54:20.55	26.73	10.72	-41.9	-43.9	18.1	0.00e+00	0	43	0	0	55	4502
2026-01-20 22:54:23.53	26.93	10.96	-41.8	-43.8	18.2	0.00e+00	0	43	0	0	55	4453
2026-01-20 22:54:26.52	27.14	11.21	-41.7	-43.6	18.3	0.00e+00	0	43	0	0	55	4375
2026-01-20 22:54:29.50	27.36	11.46	-41.7	-43.6	18.4	0.00e+00	0	43	0	0	55	4364
2026-01-20 22:54:32.49	27.57	11.72	-41.6	-43.5	18.4	0.00e+00	0	43	0	0	55	4329
2026-01-20 22:54:35.47	27.79	11.98	-41.4	-43.4	18.6	0.00e+00	0	43	0	0	54	4494
2026-01-20 22:54:38.46	28.02	12.23	-41.3	-43.2	18.7	0.00e+00	0	43	0	0	54	4433
2026-01-20 22:54:41.44	28.24	12.50	-41.3	-43.1	18.8	0.00e+00	0	43	0	0	54	4381
2026-01-20 22:54:44.42	28.47	12.76	-41.3	-43.2	18.8	0.00e+00	0	43	0	0	54	4392
2026-01-20 22:54:47.41	28.71	13.03	-41.2	-43.1	18.9	0.00e+00	0	43	0	0	54	4365
2026-01-20 22:54:50.39	28.95	13.29	-41.3	-43.1	18.9	0.00e+00	0	43	0	0	54	4379
2026-01-20 22:54:53.38	29.19	13.57	-41.1	-43.0	19.0	0.00e+00	0	43	0	0	54	4305
2026-01-20 22:54:56.36	29.44	13.84	-41.3	-43.1	19.0	0.00e+00	0	43	0	0	54	4353
2026-01-20 22:54:59.35	29.69	14.12	-41.3	-43.1	18.9	0.00e+00	0	43	0	0	54	4388
2026-01-20 22:55:02.33	29.95	14.39	-41.3	-43.1	19.0	0.00e+00	0	43	0	0	54	4366
2026-01-20 22:55:05.31	30.21	14.68	-41.3	-43.1	18.9	0.00e+00	0	43	0	0	54	4383
2026-01-20 22:55:08.30	30.48	14.96	-41.2	-43.0	19.1	0.00e+00	0	43	0	0	54	4307
2026-01-20 22:55:11.28	30.75	15.25	-41.3	-43.1	19.0	0.00e+00	0	43	0	0	54	4367
2026-01-20 22:55:14.27	31.03	15.54	-41.2	-43.1	19.1	0.00e+00	0	43	0	0	54	4341
2026-01-20 22:55:17.25	31.31	15.83	-41.3	-43.1	19.0	0.00e+00	0	43	0	0	54	4384
2026-01-20 22:55:20.23	31.59	16.13	-41.6	-43.5	18.7	0.00e+00	0	43	0	0	54	4581
2026-01-20 22:55:23.21	31.88	16.43	-41.7	-43.5	18.6	0.00e+00	0	43	0	0	54	4591
2026-01-20 22:55:26.20	32.18	16.73	-41.7	-43.6	18.6	0.00e+00	0	43	0	0	54	4603
2026-01-20 22:55:29.18	32.49	17.03	-41.6	-43.5	18.7	0.00e+00	0	43	0	0	54	4550
2026-01-20 22:55:32.17	32.80	17.34	-41.7	-43.6	18.6	0.00e+00	0	43	0	0	54	4621
2026-01-20 22:55:35.15	33.11	17.65	-41.7	-43.6	18.6	0.00e+00	0	43	0	0	54	4613
2026-01-20 22:55:38.13	33.43	17.97	-41.8	-43.6	18.6	0.00e+00	0	43	0	0	54	4641
2026-01-20 22:55:41.12	33.76	18.29	-41.7	-43.6	18.6	0.00e+00	0	43	0	0	54	4645
2026-01-20 22:55:44.10	34.10	18.61	-41.7	-43.6	18.6	0.00e+00	0	43	0	0	54	4645
2026-01-20 22:55:47.09	34.44	18.93	-41.6	-43.4	18.8	0.00e+00	0	43	0	0	54	4522
2026-01-20 22:55:50.07	34.79	19.26	-41.5	-43.4	18.8	0.00e+00	0	43	0	0	54	4503
2026-01-20 22:55:53.06	35.14	19.59	-41.5	-43.3	18.8	0.00e+00	0	43	0	0	54	4487
2026-01-20 22:55:56.04	35.51	19.93	-41.4	-43.2	18.9	0.00e+00	0	43	0	0	54	4423
2026-01-20 22:55:59.02	35.88	20.27	-41.1	-42.9	19.1	0.00e+00	0	43	0	0	54	4271
2026-01-20 22:56:02.00	36.26	20.61	-40.9	-42.7	19.4	0.00e+00	0	43	0	0	53	4395
2026-01-20 22:56:04.99	36.65	20.95	-40.8	-42.6	19.5	0.00e+00	0	43	0	0	53	4342
2026-01-20 22:56:07.97	37.04	21.30	-40.7	-42.4	19.6	0.00e+00	0	43	0	0	53	4263
2026-01-20 22:56:10.96	37.45	21.65	-40.6	-42.3	19.6	0.00e+00	0	43	0	0	53	4219
2026-01-20 22:56:13.94	37.86	22.01	-40.5	-42.2	19.7	0.00e+00	0	43	0	0	53	4156
2026-01-20 22:56:16.93	38.29	22.37	-40.4	-42.1	19.9	0.00e+00	0	43	0	0	52	4345
2026-01-20 22:56:19.91	38.72	22.73	-40.4	-42.1	19.9	0.00e+00	0	43	0	0	52	4370
2026-01-20 22:56:22.90	39.17	23.10	-40.3	-42.0	20.0	0.00e+00	0	43	0	0	52	4311
2026-01-20 22:56:25.88	39.62	23.47	-40.5	-42.2	19.8	0.00e+00	0	43	0	0	52	4409
2026-01-20 22:56:28.86	40.08	23.84	-40.1	-41.8	20.2	0.00e+00	0	43	0	0	52	4210
2026-01-20 22:56:31.85	40.56	24.22	-40.2	-41.9	20.2	0.00e+00	0	43	0	0	52	4276
2026-01-20 22:56:34.83	41.05	24.60	-40.3	-42.0	20.1	0.00e+00	0	43	0	0	52	4318
2026-01-20 22:56:37.82	41.55	24.98	-40.4	-42.1	20.1	0.00e+00	0	43	0	0	52	4369
2026-01-20 22:56:40.80	42.06	25.37	-40.5	-42.2	20.0	0.00e+00	0	43	0	0	52	4436
2026-01-20 22:56:43.78	42.58	25.76	-40.6	-42.3	19.9	0.00e+00	0	43	0	0	52	4443
2026-01-20 22:56:46.77	43.11	26.15	-40.9	-42.6	19.6	0.00e+00	0	43	0	0	52	4613
2026-01-20 22:56:49.75	43.66	26.55	-41.2	-43.0	19.3	0.00e+00	0	43	0	0	53	4551
2026-01-20 22:56:52.74	44.23	26.95	-41.5	-43.3	19.0	0.00e+00	0	43	0	0	53	4757
2026-01-20 22:56:55.72	44.80	27.35	-41.7	-43.6	18.8	0.00e+00	0	43	0	0	54	4606
2026-01-20 22:56:58.71	45.39	27.76	-41.8	-43.6	18.8	0.00e+00	0	43	0	0	54	4628
2026-01-20 22:57:01.69	46.00	28.17	-42.0	-43.9	18.6	0.00e+00	0	43	0	0	54	4780
2026-01-20 22:57:04.67	46.62	28.58	-41.9	-43.7	18.6	0.00e+00	0	43	0	0	54	4699
2026-01-20 22:57:07.66	47.26	29.00	-41.7	-43.6	18.8	0.00e+00	0	44	0	0	54	4603
2026-01-20 22:57:10.64	47.91	29.41	-41.4	-43.2	19.1	0.00e+00	0	43	0	0	54	4414
2026-01-20 22:57:13.62	48.58	29.83	-41.4	-43.1	19.2	0.00e+00	0	43	0	0	54	4389
2026-01-20 22:57:16.61	49.27	30.25	-41.4	-43.2	19.2	0.00e+00	0	43	0	0	54	4406
2026-01-20 22:57:19.59	49.97	30.67	-41.1	-42.8	19.5	0.00e+00	0	43	0	0	54	4229
2026-01-20 22:57:22.58	50.70	31.10	-41.0	-42.7	19.6	0.00e+00	0	43	0	0	53	4423
2026-01-20 22:57:25.56	51.44	31.52	-41.2	-42.9	19.4	0.00e+00	0	43	0	0	53	4527
2026-01-20 22:57:28.55	52.20	31.95	-41.2	-43.0	19.3	0.00e+00	0	43	0	0	53	4564
2026-01-20 22:57:31.53	52.99	32.38	-41.5	-43.3	19.0	0.00e+00	0	43	0	0	53	4729
2026-01-20 22:57:34.52	53.79	32.80	-41.6	-43.5	18.9	0.00e+00	0	43	0	0	54	4550
2026-01-20 22:57:37.50	54.61	33.23	-41.7	-43.5	18.9	0.00e+00	0	43	0	0	54	4584
2026-01-20 22:57:40.48	55.46	33.66	-41.9	-43.7	18.7	0.00e+00	0	43	0	0	54	4678
2026-01-20 22:57:43.46	56.32	34.08	-42.1	-44.0	18.3	0.00e+00	0	43	0	0	54	4844
2026-01-20 22:57:46.45	57.21	34.50	-42.1	-44.0	18.3	0.00e+00	0	43	0	0	55	4551
2026-01-20 22:57:49.43	58.13	34.93	-42.3	-44.2	18.2	0.00e+00	0	43	0	0	55	4691
2026-01-20 22:57:52.42	59.06	35.35	-42.8	-44.8	17.9	0.00e+00	0	44	0	0	56	4719
2026-01-20 22:57:55.40	60.02	35.76	-42.6	-44.5	18.1	0.00e+00	0	43	0	0	56	4597
2026-01-20 22:57:58.39	61.01	36.17	-42.9	-44.8	17.8	0.00e+00	0	43	0	0	56	4754
2026-01-20 22:58:01.37	62.02	36.58	-42.8	-44.7	18.0	0.00e+00	0	43	0	0	56	4674
2026-01-20 22:58:04.36	63.06	36.99	-42.5	-44.3	18.3	0.00e+00	0	43	0	0	56	4486
2026-01-20 22:58:07.34	64.12	37.38	-42.7	-44.6	18.1	0.00e+00	0	43	0	0	56	4608
2026-01-20 22:58:10.33	65.20	37.78	-43.1	-45.0	17.7	0.00e+00	0	43	0	0	56	4866
2026-01-20 22:58:13.31	66.32	38.16	-43.3	-45.2	17.6	0.00e+00	0	43	0	0	57	4704
2026-01-20 22:58:16.30	67.46	38.54	-43.0	-45.0	17.7	0.00e+00	0	43	0	0	57	4561
2026-01-20 22:58:19.28	68.62	38.90	-43.7	-45.8	17.0	0.00e+00	0	44	0	0	58	4732
2026-01-20 22:58:22.26	69.81	39.26	-43.7	-45.8	17.0	0.00e+00	0	43	0	0	58	4725
2026-01-20 22:58:25.25	71.03	39.61	-43.8	-45.9	16.8	0.00e+00	0	43	0	0	58	4779
2026-01-20 22:58:28.23	72.27	39.95	-43.9	-46.0	16.7	0.00e+00	0	44	0	0	58	4851
2026-01-20 22:58:31.22	73.54	40.27	-43.8	-45.9	16.9	0.00e+00	0	43	0	0	58	4777
2026-01-20 22:58:34.20	74.83	40.59	-43.9	-46.0	16.8	0.00e+00	0	44	0	0	58	4860
2026-01-20 22:58:37.18	76.14	40.88	-43.8	-46.0	16.7	0.00e+00	0	44	0	0	58	4824
2026-01-20 22:58:40.16	77.48	41.17	-43.4	-45.4	17.3	0.00e+00	0	43	0	0	58	4513
2026-01-20 22:58:43.15	78.85	41.44	-43.9	-46.0	16.7	0.00e+00	0	43	0	0	58	4855
2026-01-20 22:58:46.13	80.23	41.69	-43.5	-45.5	17.1	0.00e+00	0	44	0	0	58	4598
2026-01-20 22:58:49.12	81.64	41.93	-43.7	-45.9	16.7	0.00e+00	0	44	0	0	58	4786
2026-01-20 22:58:52.10	83.07	42.14	-43.2	-45.2	17.5	0.00e+00	0	43	0	0	58	4409
2026-01-20 22:58:55.09	84.52	42.34	-43.4	-45.5	17.2	0.00e+00	0	44	0	0	58	4588
2026-01-20 22:58:58.07	85.98	42.52	-43.7	-45.8	16.9	0.00e+00	0	43	0	0	58	4749
2026-01-20 22:59:01.06	87.46	42.68	-43.8	-46.0	16.8	0.00e+00	0	43	0	0	58	4829
2026-01-20 22:59:04.04	88.95	42.82	-43.4	-45.5	17.3	0.00e+00	0	44	0	0	58	4553
2026-01-20 22:59:07.03	90.45	42.94	-43.6	-45.7	17.1	0.00e+00	0	43	0	0	58	4654
2026-01-20 22:59:10.02	91.97	43.04	-43.3	-45.3	17.4	0.00e+00	0	43	0	0	58	4461
2026-01-20 22:59:13.01	93.50	43.12	-43.8	-46.0	16.9	0.00e+00	0	44	0	0	58	4816
2026-01-20 22:59:15.99	95.02	43.17	-43.7	-45.8	16.9	0.00e+00	0	43	0	0	58	4739
2026-01-20 22:59:18.97	96.55	43.20	-43.3	-45.3	17.5	0.00e+00	0	44	0	0	58	4487
2026-01-20 22:59:21.96	98.09	43.21	-43.1	-45.1	17.6	0.00e+00	0	44	0	0	58	4366
2026-01-20 22:59:24.94	99.62	43.19	-43.6	-45.7	17.0	0.00e+00	0	43	0	0	58	4680
2026-01-20 22:59:27.93	101.16	43.16	-43.9	-46.0	16.7	0.00e+00	0	43	0	0	58	4851
2026-01-20 22:59:30.91	102.69	43.10	-43.9	-46.0	16.7	0.00e+00	0	43	0	0	58	4853
2026-01-20 22:59:33.89	104.21	43.02	-43.7	-45.8	16.9	0.00e+00	0	44	0	0	58	4741
2026-01-20 22:59:36.88	105.72	42.92	-44.3	-46.6	16.3	0.00e+00	0	43	0	0	59	4888
2026-01-20 22:59:39.86	107.22	42.79	-44.0	-46.0	16.7	0.00e+00	0	43	0	0	59	4596
2026-01-20 22:59:42.85	108.72	42.65	-43.5	-45.5	17.3	0.00e+00	0	43	0	0	59	4324
2026-01-20 22:59:45.84	110.20	42.48	-43.9	-46.1	16.8	0.00e+00	0	43	0	0	58	4874
2026-01-20 22:59:48.82	111.66	42.30	-43.7	-45.8	17.1	0.00e+00	0	44	0	0	58	4737
2026-01-20 22:59:51.80	113.10	42.09	-43.2	-45.1	17.7	0.00e+00	0	44	0	0	58	4385
2026-01-20 22:59:54.78	114.52	41.87	-44.6	-46.9	16.0	0.00e+00	0	43	0	0	59	5056
2026-01-20 22:59:57.76	115.92	41.63	-44.1	-46.2	16.5	0.00e+00	0	44	0	0	59	4687
2026-01-20 23:00:00.75	117.31	41.37	-43.6	-45.7	17.1	0.00e+00	0	43	0	0	59	4393
2026-01-20 23:00:03.73	118.67	41.10	-44.8	-47.2	15.5	0.00e+00	0	44	0	0	60	4979
2026-01-20 23:00:06.71	120.01	40.81	-43.5	-45.5	17.1	0.00e+00	0	44	0	0	58	4587
2026-01-20 23:00:09.70	121.32	40.51	-43.9	-46.0	16.7	0.00e+00	0	44	0	0	58	4857
2026-01-20 23:00:12.68	122.61	40.19	-44.2	-46.5	16.3	0.00e+00	0	43	0	0	59	4829
2026-01-20 23:00:15.67	123.88	39.86	-43.1	-45.1	17.6	0.00e+00	0	44	0	0	58	4380
2026-01-20 23:00:18.65	125.12	39.52	-43.4	-45.4	17.2	0.00e+00	0	44	0	0	57	4793
2026-01-20 23:00:21.64	126.34	39.17	-43.2	-45.1	17.6	0.00e+00	0	44	0	0	58	4391
2026-01-20 23:00:24.62	127.52	38.81	-43.6	-45.7	16.9	0.00e+00	0	44	0	0	58	4702
2026-01-20 23:00:27.60	128.68	38.44	-43.4	-45.4	17.3	0.00e+00	0	44	0	0	58	4544
2026-01-20 23:00:30.59	129.82	38.05	-43.7	-45.8	17.0	0.00e+00	0	43	0	0	58	4708
2026-01-20 23:00:33.57	130.93	37.67	-43.1	-45.1	17.5	0.00e+00	0	44	0	0	58	4372
2026-01-20 23:00:36.55	132.01	37.27	-42.5	-44.4	18.2	0.00e+00	0	44	0	0	56	4510
2026-01-20 23:00:39.54	133.07	36.87	-42.6	-44.5	18.1	0.00e+00	0	44	0	0	56	4581
2026-01-20 23:00:42.52	134.10	36.46	-42.6	-44.5	17.9	0.00e+00	0	44	0	0	56	4563
2026-01-20 23:00:45.51	135.11	36.05	-42.5	-44.4	18.2	0.00e+00	0	44	0	0	56	4500
2026-01-20 23:00:48.50	136.10	35.63	-42.7	-44.7	17.9	0.00e+00	0	44	0	0	56	4661
2026-01-20 23:00:51.49	137.06	35.21	-42.6	-44.6	17.9	0.00e+00	0	44	0	0	56	4603
2026-01-20 23:00:54.47	137.99	34.79	-42.5	-44.4	18.1	0.00e+00	0	44	0	0	56	4498
2026-01-20 23:00:57.45	138.90	34.37	-42.5	-44.4	18.1	0.00e+00	0	44	0	0	56	4538
2026-01-20 23:01:00.44	139.79	33.94	-42.3	-44.1	18.4	0.00e+00	0	44	0	0	56	4390
2026-01-20 23:01:03.43	140.65	33.51	-41.7	-43.5	18.8	0.00e+00	0	44	0	0	55	4315
2026-01-20 23:01:06.41	141.49	33.08	-41.3	-43.0	19.3	0.00e+00	0	44	0	0	54	4329
2026-01-20 23:01:09.39	142.31	32.65	-41.0	-42.7	19.6	0.00e+00	0	44	0	0	54	4171
2026-01-20 23:01:12.37	143.11	32.22	-40.7	-42.4	19.8	0.00e+00	0	44	0	0	53	4266
2026-01-20 23:01:15.36	143.90	31.79	-40.6	-42.3	19.9	0.00e+00	0	43	0	0	53	4215
2026-01-20 23:01:18.34	144.65	31.37	-40.6	-42.3	19.7	0.00e+00	0	44	0	0	53	4228
2026-01-20 23:01:21.33	145.40	30.94	-40.7	-42.4	19.6	0.00e+00	0	44	0	0	53	4276
2026-01-20 23:01:24.31	146.12	30.51	-40.7	-42.5	19.7	0.00e+00	0	44	0	0	53	4293
2026-01-20 23:01:27.30	146.82	30.08	-40.7	-42.4	19.7	0.00e+00	0	43	0	0	53	4273
2026-01-20 23:01:30.28	147.50	29.66	-40.9	-42.6	19.6	0.00e+00	0	43	0	0	53	4372
2026-01-20 23:01:33.27	148.17	29.24	-41.1	-42.9	19.3	0.00e+00	0	43	0	0	53	4511
2026-01-20 23:01:36.26	148.83	28.82	-41.2	-43.0	19.2	0.00e+00	0	43	0	0	53	4595
2026-01-20 23:01:39.24	149.46	28.40	-41.2	-42.9	19.2	0.00e+00	0	44	0	0	53	4544
2026-01-20 23:01:42.22	150.08	27.99	-41.2	-43.0	19.2	0.00e+00	0	43	0	0	53	4592
2026-01-20 23:01:45.21	150.68	27.58	-41.1	-43.0	19.3	0.00e+00	0	44	0	0	53	4554
2026-01-20 23:01:48.19	151.27	27.17	-41.2	-43.0	19.2	0.00e+00	0	43	0	0	53	4573
2026-01-20 23:01:51.17	151.84	26.77	-41.1	-43.0	19.2	0.00e+00	0	43	0	0	53	4546
2026-01-20 23:01:54.16	152.40	26.36	-41.1	-42.9	19.2	0.00e+00	0	44	0	0	53	4536
2026-01-20 23:01:57.14	152.95	25.96	-40.5	-42.2	19.9	0.00e+00	0	44	0	0	52	4409
2026-01-20 23:02:00.12	153.48	25.57	-40.4	-42.1	19.9	0.00e+00	0	44	0	0	52	4360
2026-01-20 23:02:03.11	154.00	25.18	-40.5	-42.3	19.8	0.00e+00	0	44	0	0	52	4442
2026-01-20 23:02:06.09	154.51	24.79	-40.8	-42.6	19.6	0.00e+00	0	43	0	0	52	4611
2026-01-20 23:02:09.07	155.00	24.40	-40.8	-42.5	19.7	0.00e+00	0	44	0	0	52	4570
2026-01-20 23:02:12.06	155.49	24.02	-40.8	-42.5	19.5	0.00e+00	0	44	0	0	52	4577
2026-01-20 23:02:15.04	155.96	23.64	-40.6	-42.4	19.6	0.00e+00	0	44	0	0	52	4501
2026-01-20 23:02:18.02	156.42	23.27	-40.7	-42.4	19.5	0.00e+00	0	44	0	0	52	4519
2026-01-20 23:02:21.01	156.88	22.89	-40.7	-42.4	19.6	0.00e+00	0	43	0	0	52	4534
2026-01-20 23:02:23.99	157.32	22.53	-40.7	-42.5	19.6	0.00e+00	0	43	0	0	52	4550
2026-01-20 23:02:26.98	157.75	22.16	-40.8	-42.5	19.5	0.00e+00	0	44	0	0	52	4575
2026-01-20 23:02:29.96	158.17	21.80	-40.8	-42.6	19.4	0.00e+00	0	44	0	0	52	4629
2026-01-20 23:02:32.95	158.58	21.44	-40.7	-42.4	19.5	0.00e+00	0	44	0	0	52	4539
2026-01-20 23:02:35.93	158.98	21.09	-40.6	-42.3	19.6	0.00e+00	0	44	0	0	52	4479
2026-01-20 23:02:38.91	159.38	20.74	-40.6	-42.3	19.6	0.00e+00	0	44	0	0	52	4486
2026-01-20 23:02:41.90	159.77	20.39	-40.7	-42.4	19.6	0.00e+00	0	44	0	0	52	4531
2026-01-20 23:02:44.88	160.14	20.05	-40.9	-42.6	19.4	0.00e+00	0	44	0	0	52	4636
2026-01-20 23:02:47.87	160.51	19.71	-40.9	-42.7	19.3	0.00e+00	0	44	0	0	52	4672
2026-01-20 23:02:50.85	160.87	19.37	-41.0	-42.8	19.2	0.00e+00	0	44	0	0	52	4731
2026-01-20 23:02:53.83	161.23	19.04	-40.8	-42.6	19.3	0.00e+00	0	44	0	0	52	4603
2026-01-20 23:02:56.82	161.57	18.71	-40.9	-42.7	16.1	0.00e+00	0	44	0	0	52	4681
2026-01-20 23:02:59.80	161.91	18.38	-40.8	-42.6	19.1	0.00e+00	0	44	0	0	52	4637
2026-01-20 23:03:02.78	162.25	18.06	-40.7	-42.5	19.3	0.00e+00	0	44	0	0	52	4563
2026-01-20 23:03:05.77	162.57	17.74	-40.7	-42.4	19.4	0.00e+00	0	44	0	0	52	4528
2026-01-20 23:03:08.75	162.89	17.43	-40.5	-42.3	19.6	0.00e+00	0	44	0	0	52	4442
2026-01-20 23:03:11.74	163.20	17.11	-40.8	-42.6	19.3	0.00e+00	0	44	0	0	52	4614
2026-01-20 23:03:14.72	163.51	16.80	-41.1	-43.0	19.0	0.00e+00	0	44	0	0	52	4830
2026-01-20 23:03:17.71	163.81	16.50	-41.4	-43.3	18.7	0.00e+00	0	44	0	0	53	4746
2026-01-20 23:03:20.69	164.11	16.19	-41.7	-43.6	18.4	0.00e+00	0	44	0	0	53	4912
2026-01-20 23:03:23.67	164.40	15.89	-41.8	-43.8	18.2	0.00e+00	0	44	0	0	54	4735
2026-01-20 23:03:26.66	164.68	15.60	-41.8	-43.7	18.2	0.00e+00	0	44	0	0	54	4701
2026-01-20 23:03:29.64	164.96	15.30	-41.6	-43.5	18.4	0.00e+00	0	44	0	0	54	4564
2026-01-20 23:03:32.63	165.23	15.01	-41.5	-43.4	18.4	0.00e+00	0	44	0	0	54	4519
2026-01-20 23:03:35.61	165.50	14.72	-41.6	-43.5	18.4	0.00e+00	0	44	0	0	54	4560
2026-01-20 23:03:38.60	165.76	14.44	-41.6	-43.5	18.4	0.00e+00	0	44	0	0	54	4564
2026-01-20 23:03:41.58	166.02	14.15	-41.6	-43.5	18.5	0.00e+00	0	44	0	0	54	4570
2026-01-20 23:03:44.57	166.28	13.87	-41.4	-43.3	18.6	0.00e+00	0	44	0	0	54	4483
2026-01-20 23:03:47.55	166.52	13.60	-41.5	-43.4	18.5	0.00e+00	0	44	0	0	54	4527
2026-01-20 23:03:50.53	166.77	13.32	-41.6	-43.5	18.4	0.00e+00	0	44	0	0	54	4597
2026-01-20 23:03:53.51	167.01	13.05	-41.8	-43.8	18.2	0.00e+00	0	44	0	0	54	4712
2026-01-20 23:03:56.50	167.25	12.78	-41.9	-43.9	18.1	0.00e+00	0	44	0	0	54	4781
2026-01-20 23:03:59.48	167.48	12.51	-42.0	-44.0	18.0	0.00e+00	0	44	0	0	54	4825
2026-01-20 23:04:02.46	167.71	12.25	-42.1	-44.1	17.8	0.00e+00	0	44	0	0	55	4631
2026-01-20 23:04:05.45	167.93	11.99	-42.2	-44.2	17.7	0.00e+00	0	44	0	0	55	4677
2026-01-20 23:04:08.43	168.15	11.73	-42.0	-44.0	17.9	0.00e+00	0	44	0	0	55	4556
2026-01-20 23:04:11.42	168.37	11.47	-41.9	-43.9	17.9	0.00e+00	0	44	0	0	55	4542
2026-01-20 23:04:14.40	168.58	11.21	-41.9	-44.0	17.8	0.00e+00	0	44	0	0	55	4586
2026-01-20 23:04:17.39	168.79	10.96	-42.0	-44.2	17.7	0.00e+00	0	44	0	0	55	4676
2026-01-20 23:04:20.38	169.00	10.71	-42.0	-44.3	17.6	0.00e+00	0	43	0	0	55	4725
2026-01-20 23:04:23.36	169.20	10.46	-42.0	-44.4	17.4	0.00e+00	0	44	0	0	55	4795
2026-01-20 23:04:26.34	169.40	10.22	-42.0	-44.5	17.3	0.00e+00	0	44	0	0	55	4846
2026-01-20 23:04:29.33	169.60	9.97	-42.0	-44.5	17.3	0.00e+00	0	44	0	0	55	4841
2026-01-20 23:04:32.32	169.79	9.73	-42.0	-44.5	17.3	0.00e+00	0	44	0	0	55	4847
2026-01-20 23:04:35.30	169.98	9.49	-42.2	-44.8	17.0	0.00e+00	0	44	0	0	55	4988
2026-01-20 23:04:38.28	170.17	9.25	-42.2	-44.7	17.0	0.00e+00	0	44	0	0	55	4969
2026-01-20 23:04:41.27	170.36	9.02	-42.2	-44.8	17.0	0.00e+00	0	44	0	0	55	4998
2026-01-20 23:04:44.25	170.54	8.78	-50.6	-63.8	3.8	1.49e+00	0	44	104	0	71	17755
2026-01-20 23:04:47.23	170.72	8.55	-50.8	-64.0	3.8	1.49e+00	0	44	104	0	72	17110
2026-01-20 23:04:50.20	170.89	8.32	-50.9	-64.0	3.8	1.49e+00	0	44	104	0	72	17260
2026-01-20 23:04:53.18	171.07	8.09	-51.1	-64.1	3.8	1.49e+00	0	44	104	0	72	17322
2026-01-20 23:04:56.16	171.24	7.87	-51.1	-64.1	3.8	1.49e+00	0	44	104	0	72	17361
2026-01-20 23:04:59.14	171.41	7.64	-51.1	-64.1	3.8	1.49e+00	0	44	104	0	72	17439
2026-01-20 23:05:02.12	171.57	7.42	-50.9	-64.2	3.8	1.49e+00	0	44	104	0	72	17515
2026-01-20 23:05:05.10	171.74	7.20	-51.0	-64.1	3.8	1.49e+00	0	44	104	0	72	17477
2026-01-20 23:05:08.08	171.90	6.98	-50.7	-64.1	3.8	1.49e+00	0	44	104	0	72	17435
2026-01-20 23:05:11.06	172.06	6.77	-50.8	-64.0	3.8	1.49e+00	0	44	104	0	72	17280
2026-01-20 23:05:14.04	172.22	6.55	-50.8	-64.1	3.8	1.49e+00	0	44	104	0	72	17311
2026-01-20 23:05:17.02	172.37	6.34	-50.8	-64.1	3.8	1.49e+00	0	44	104	0	72	17308
2026-01-20 23:05:20.00	172.53	6.12	-50.8	-64.1	3.8	1.49e+00	0	44	104	0	72	17397
2026-01-20 23:05:22.98	172.68	5.91	-50.8	-64.0	3.8	1.49e+00	0	44	104	0	72	17280
2026-01-20 23:05:25.96	172.83	5.70	-50.8	-64.1	3.8	1.49e+00	0	44	104	0	72	17285
2026-01-20 23:05:28.93	172.97	5.50	-50.8	-64.0	3.8	1.49e+00	0	44	104	0	72	17279
2026-01-20 23:05:31.91	173.12	5.29	-50.8	-64.0	3.8	1.49e+00	0	44	104	0	72	17252
2026-01-20 23:05:34.89	173.26	5.09	-50.8	-64.0	3.8	1.49e+00	0	44	104	0	72	17274

#Closed at: 2026-01-20 23:05:37
#Recorded file [0 MB]: D:/Data/31040_260121_015303.dat