passes_logs/2026/01/20/T1/T1__20260120_104258_NOAA_21_JPSS-2_rec.log

#Pass ID: 20260120_104258_NOAA 21 (JPSS-2)
#Satellite: NOAA 21 (JPSS-2)
#Configuration: NOAA 21
#almurnet v.1.7.20251203
#Start time: 2026-01-20 10:42:59

#Version: 2.0.20230620
#Station: T1
#Location: 37.570604 lon 55.790049 lat
#TLE: 1 54234U 22150A   26019.59425193  .00000067  00000+0  52811-4 0  9997
#TLE: 2 54234  98.7505 320.4385 0000607 256.3203 103.7906 14.19535690165464

#Time	Az	El	Level	Level2	SNR	BER	BlckErr	Temp	State	Recorded	gain1	gain2
2026-01-20 10:42:59.46	185.37	5.05	-49.9	-63.4	3.8	1.49e+00	0	41	0	0	70	18008
2026-01-20 10:43:02.44	185.50	5.26	-49.6	-63.2	3.8	1.49e+00	0	41	104	0	70	17488
2026-01-20 10:43:05.42	185.64	5.47	-49.6	-63.0	3.8	1.49e+00	0	41	104	0	70	17211
2026-01-20 10:43:08.40	185.78	5.67	-49.6	-63.0	3.8	1.49e+00	0	41	104	0	70	17170
2026-01-20 10:43:11.38	185.92	5.88	-49.6	-63.1	3.8	1.49e+00	0	41	104	0	70	17428
2026-01-20 10:43:14.36	186.07	6.10	-49.6	-63.1	3.8	1.49e+00	0	42	104	0	70	17374
2026-01-20 10:43:17.34	186.21	6.31	-49.6	-63.1	3.8	1.49e+00	0	42	104	0	70	17300
2026-01-20 10:43:20.32	186.36	6.52	-49.6	-63.1	3.8	1.49e+00	0	42	104	0	70	17481
2026-01-20 10:43:23.30	186.51	6.74	-49.6	-62.9	3.8	1.49e+00	0	42	104	0	70	17037
2026-01-20 10:43:26.28	186.66	6.96	-49.4	-61.5	3.8	1.49e+00	0	42	104	0	70	14512
2026-01-20 10:43:29.26	186.81	7.18	-49.4	-61.4	3.8	1.49e+00	0	42	104	0	70	14228
2026-01-20 10:43:32.24	186.97	7.40	-49.6	-63.2	3.8	1.49e+00	0	42	104	0	70	17575
2026-01-20 10:43:35.22	187.13	7.62	-48.4	-55.0	6.9	2.90e-01	0	42	0	0	68	7685
2026-01-20 10:43:38.20	187.29	7.85	-45.5	-48.8	13.1	8.23e-05	0	42	0	0	63	5006
2026-01-20 10:43:41.18	187.45	8.08	-43.3	-45.7	16.1	0.00e+00	0	42	0	0	58	4653
2026-01-20 10:43:44.17	187.61	8.31	-42.9	-45.1	16.6	0.00e+00	0	42	0	0	57	4638
2026-01-20 10:43:47.15	187.78	8.54	-44.0	-46.6	15.2	0.00e+00	0	42	0	0	58	5210
2026-01-20 10:43:50.13	187.95	8.77	-46.2	-49.9	11.9	1.74e-04	0	43	0	0	63	5720
2026-01-20 10:43:53.11	188.13	9.00	-48.0	-54.0	7.7	6.09e-02	0	43	0	0	66	7712
2026-01-20 10:43:56.09	188.30	9.24	-49.3	-59.7	3.9	1.43e+00	0	43	104	0	69	12445
2026-01-20 10:43:59.07	188.48	9.48	-49.3	-60.0	4.1	1.38e+00	0	43	104	0	69	12853
2026-01-20 10:44:02.06	188.66	9.72	-46.1	-49.9	12.0	1.85e-04	0	43	0	0	63	5663
2026-01-20 10:44:05.04	188.84	9.96	-45.1	-48.2	13.7	1.22e-05	0	43	0	0	62	4956
2026-01-20 10:44:08.03	189.03	10.21	-43.7	-46.2	15.7	0.00e+00	0	43	0	0	59	4656
2026-01-20 10:44:11.01	189.22	10.46	-42.0	-44.1	17.7	0.00e+00	0	43	0	0	56	4375
2026-01-20 10:44:14.00	189.42	10.71	-41.7	-43.8	17.9	0.00e+00	0	43	0	0	55	4474
2026-01-20 10:44:16.99	189.61	10.96	-41.6	-43.7	18.0	0.00e+00	0	43	0	0	55	4397
2026-01-20 10:44:19.97	189.81	11.22	-41.6	-43.7	18.0	0.00e+00	0	43	0	0	55	4411
2026-01-20 10:44:22.95	190.01	11.47	-41.5	-43.5	18.1	0.00e+00	0	43	0	0	54	4596
2026-01-20 10:44:25.94	190.22	11.73	-41.4	-43.4	18.2	0.00e+00	0	43	0	0	54	4522
2026-01-20 10:44:28.92	190.43	11.99	-41.3	-43.3	18.3	0.00e+00	0	43	0	0	54	4457
2026-01-20 10:44:31.91	190.65	12.26	-41.2	-43.2	18.4	0.00e+00	0	43	0	0	54	4422
2026-01-20 10:44:34.89	190.86	12.53	-41.2	-43.2	18.5	0.00e+00	0	43	0	0	54	4409
2026-01-20 10:44:37.88	191.08	12.80	-41.4	-43.3	18.4	0.00e+00	0	43	0	0	54	4484
2026-01-20 10:44:40.87	191.31	13.07	-41.3	-43.3	18.4	0.00e+00	0	43	0	0	54	4451
2026-01-20 10:44:43.85	191.54	13.34	-41.3	-43.3	18.4	0.00e+00	0	43	0	0	54	4443
2026-01-20 10:44:46.84	191.77	13.62	-41.3	-43.2	18.5	0.00e+00	0	43	0	0	54	4416
2026-01-20 10:44:49.83	192.01	13.90	-41.3	-43.3	18.4	0.00e+00	0	43	0	0	54	4463
2026-01-20 10:44:52.81	192.25	14.18	-41.2	-43.1	18.5	0.00e+00	0	43	0	0	54	4373
2026-01-20 10:44:55.80	192.50	14.47	-41.1	-43.1	18.6	0.00e+00	0	43	0	0	54	4341
2026-01-20 10:44:58.79	192.75	14.76	-41.1	-43.0	18.6	0.00e+00	0	43	0	0	54	4338
2026-01-20 10:45:01.74	193.00	15.05	-41.3	-43.2	18.5	0.00e+00	0	43	0	0	54	4408
2026-01-20 10:45:04.72	193.26	15.34	-41.3	-43.2	18.5	7.00e-07	0	43	0	0	54	4413
2026-01-20 10:45:07.71	193.53	15.64	-41.2	-43.1	18.6	0.00e+00	0	43	0	0	54	4351
2026-01-20 10:45:10.69	193.80	15.94	-41.2	-43.1	18.5	0.00e+00	0	43	0	0	54	4388
2026-01-20 10:45:13.68	194.07	16.25	-41.3	-43.3	18.4	0.00e+00	0	43	0	0	54	4451
2026-01-20 10:45:16.67	194.36	16.56	-41.4	-43.3	18.4	0.00e+00	0	43	0	0	54	4465
2026-01-20 10:45:19.65	194.64	16.87	-41.4	-43.4	18.3	0.00e+00	0	43	0	0	54	4507
2026-01-20 10:45:22.63	194.93	17.18	-41.5	-43.4	18.4	0.00e+00	0	43	0	0	54	4532
2026-01-20 10:45:25.62	195.23	17.50	-41.4	-43.4	18.4	0.00e+00	0	43	0	0	54	4503
2026-01-20 10:45:28.60	195.54	17.82	-41.3	-43.2	18.6	0.00e+00	0	43	0	0	54	4435
2026-01-20 10:45:31.59	195.85	18.14	-41.3	-43.2	18.6	0.00e+00	0	43	0	0	54	4408
2026-01-20 10:45:34.58	196.17	18.47	-41.3	-43.1	18.6	0.00e+00	0	43	0	0	54	4391
2026-01-20 10:45:37.56	196.49	18.80	-41.2	-43.1	18.7	0.00e+00	0	44	0	0	54	4363
2026-01-20 10:45:40.54	196.82	19.14	-41.2	-43.0	18.8	0.00e+00	0	43	0	0	54	4324
2026-01-20 10:45:43.52	197.16	19.48	-41.0	-42.8	18.9	0.00e+00	0	44	0	0	54	4240
2026-01-20 10:45:46.51	197.51	19.82	-40.6	-42.4	19.3	0.00e+00	0	43	0	0	53	4265
2026-01-20 10:45:49.49	197.86	20.17	-40.7	-42.4	19.3	0.00e+00	0	43	0	0	53	4278
2026-01-20 10:45:52.48	198.22	20.52	-40.5	-42.2	19.4	0.00e+00	0	43	0	0	53	4184
2026-01-20 10:45:55.46	198.59	20.87	-40.4	-42.2	19.5	0.00e+00	0	43	0	0	52	4399
2026-01-20 10:45:58.45	198.97	21.23	-40.2	-41.9	19.6	0.00e+00	0	43	0	0	52	4288
2026-01-20 10:46:01.44	199.36	21.59	-40.1	-41.8	19.8	0.00e+00	0	43	0	0	52	4201
2026-01-20 10:46:04.42	199.75	21.95	-40.2	-41.9	19.7	0.00e+00	0	43	0	0	52	4289
2026-01-20 10:46:07.41	200.16	22.32	-40.3	-42.0	19.6	0.00e+00	0	43	0	0	52	4316
2026-01-20 10:46:10.39	200.57	22.70	-40.1	-41.8	19.8	0.00e+00	0	44	0	0	52	4214
2026-01-20 10:46:13.38	200.99	23.07	-40.1	-41.8	19.8	0.00e+00	0	44	0	0	52	4212
2026-01-20 10:46:16.37	201.43	23.46	-40.0	-41.8	19.8	0.00e+00	0	44	0	0	52	4199
2026-01-20 10:46:19.35	201.87	23.84	-39.9	-41.6	20.0	0.00e+00	0	44	0	0	51	4362
2026-01-20 10:46:22.33	202.33	24.23	-39.9	-41.6	20.1	0.00e+00	0	44	0	0	51	4380
2026-01-20 10:46:25.32	202.79	24.62	-40.0	-41.6	20.0	0.00e+00	0	43	0	0	51	4383
2026-01-20 10:46:28.30	203.27	25.02	-40.1	-41.7	20.0	0.00e+00	0	43	0	0	51	4438
2026-01-20 10:46:31.29	203.76	25.42	-40.1	-41.8	20.0	0.00e+00	0	43	0	0	51	4492
2026-01-20 10:46:34.28	204.26	25.83	-40.5	-42.2	19.7	0.00e+00	0	44	0	0	51	4672
2026-01-20 10:46:37.26	204.78	26.24	-40.5	-42.2	19.7	0.00e+00	0	44	0	0	51	4681
2026-01-20 10:46:40.25	205.31	26.65	-40.5	-42.2	19.7	0.00e+00	0	44	0	0	51	4680
2026-01-20 10:46:43.24	205.85	27.07	-40.5	-42.3	19.5	0.00e+00	0	44	0	0	52	4443
2026-01-20 10:46:46.22	206.40	27.49	-40.7	-42.5	19.2	0.00e+00	0	44	0	0	52	4567
2026-01-20 10:46:49.21	206.97	27.91	-40.8	-42.5	19.2	0.00e+00	0	44	0	0	52	4598
2026-01-20 10:46:52.19	207.56	28.34	-41.0	-42.8	19.0	0.00e+00	0	44	0	0	52	4732
2026-01-20 10:46:55.18	208.16	28.77	-40.9	-42.7	19.1	0.00e+00	0	44	0	0	52	4658
2026-01-20 10:46:58.17	208.78	29.20	-40.8	-42.6	19.1	0.00e+00	0	44	0	0	52	4617
2026-01-20 10:47:01.14	209.41	29.64	-40.8	-42.6	19.2	0.00e+00	0	44	0	0	52	4604
2026-01-20 10:47:04.13	210.06	30.08	-40.7	-42.5	19.3	0.00e+00	0	44	0	0	52	4551
2026-01-20 10:47:07.11	210.72	30.52	-40.6	-42.4	19.4	0.00e+00	0	44	0	0	52	4509
2026-01-20 10:47:10.10	211.41	30.97	-40.5	-42.2	19.6	0.00e+00	0	44	0	0	52	4425
2026-01-20 10:47:13.09	212.12	31.41	-40.7	-42.4	19.4	0.00e+00	0	44	0	0	52	4526
2026-01-20 10:47:16.07	212.84	31.86	-40.8	-42.6	19.4	0.00e+00	0	44	0	0	52	4605
2026-01-20 10:47:19.06	213.59	32.31	-41.2	-43.0	18.9	0.00e+00	0	44	0	0	53	4564
2026-01-20 10:47:22.04	214.35	32.77	-41.4	-43.2	18.6	0.00e+00	0	43	0	0	53	4697
2026-01-20 10:47:25.03	215.14	33.22	-41.5	-43.4	18.5	0.00e+00	0	44	0	0	53	4792
2026-01-20 10:47:28.01	215.94	33.67	-41.5	-43.4	18.6	0.00e+00	0	44	0	0	53	4793
2026-01-20 10:47:31.00	216.77	34.13	-41.7	-43.6	18.5	0.00e+00	0	43	0	0	54	4619
2026-01-20 10:47:33.98	217.63	34.58	-41.5	-43.3	18.6	0.00e+00	0	44	0	0	54	4457
2026-01-20 10:47:36.97	218.50	35.04	-41.6	-43.4	18.6	0.00e+00	0	44	0	0	54	4514
2026-01-20 10:47:39.95	219.40	35.49	-42.0	-43.9	18.2	0.00e+00	0	44	0	0	54	4805
2026-01-20 10:47:42.94	220.33	35.94	-42.2	-44.1	18.0	0.00e+00	0	44	0	0	55	4629
2026-01-20 10:47:45.93	221.28	36.39	-42.6	-44.6	17.4	0.00e+00	0	44	0	0	55	4916
2026-01-20 10:47:48.91	222.26	36.84	-42.8	-44.9	17.4	0.00e+00	0	44	0	0	56	4770
2026-01-20 10:47:51.90	223.27	37.28	-43.0	-45.0	17.3	0.00e+00	0	44	0	0	56	4863
2026-01-20 10:47:54.88	224.30	37.72	-43.2	-45.3	17.1	0.00e+00	0	44	0	0	57	4729
2026-01-20 10:47:57.86	225.35	38.16	-42.6	-44.6	17.7	0.00e+00	0	44	0	0	57	4352
2026-01-20 10:48:00.83	226.43	38.58	-42.2	-44.1	18.2	0.00e+00	0	44	0	0	56	4362
2026-01-20 10:48:03.82	227.55	39.01	-42.3	-44.2	18.0	0.00e+00	0	44	0	0	56	4432
2026-01-20 10:48:06.80	228.69	39.42	-42.3	-44.2	18.1	0.00e+00	0	44	0	0	56	4398
2026-01-20 10:48:09.79	229.87	39.83	-42.6	-44.6	17.7	0.00e+00	0	44	0	0	56	4639
2026-01-20 10:48:12.77	231.07	40.23	-42.8	-44.8	17.4	0.00e+00	0	43	0	0	56	4750
2026-01-20 10:48:15.76	232.30	40.62	-42.7	-44.7	17.6	0.00e+00	0	44	0	0	56	4674
2026-01-20 10:48:18.75	233.56	41.00	-43.2	-45.3	17.1	0.00e+00	0	44	0	0	57	4742
2026-01-20 10:48:21.73	234.85	41.36	-42.8	-44.8	17.5	0.00e+00	0	44	0	0	57	4472
2026-01-20 10:48:24.72	236.17	41.72	-43.2	-45.2	17.2	0.00e+00	0	44	0	0	57	4685
2026-01-20 10:48:27.70	237.51	42.06	-43.5	-45.6	16.7	0.00e+00	0	44	0	0	57	4917
2026-01-20 10:48:30.69	238.89	42.38	-43.8	-46.0	16.3	0.00e+00	0	44	0	0	58	4854
2026-01-20 10:48:33.68	240.29	42.69	-43.7	-46.0	16.4	0.00e+00	0	44	0	0	59	4547
2026-01-20 10:48:36.67	241.72	42.99	-43.2	-45.3	16.8	0.00e+00	0	44	0	0	58	4470
2026-01-20 10:48:39.65	243.17	43.26	-43.2	-45.3	17.0	0.00e+00	0	44	0	0	58	4459
2026-01-20 10:48:42.65	244.65	43.52	-43.1	-45.2	17.0	0.00e+00	0	44	0	0	57	4673
2026-01-20 10:48:45.63	246.15	43.75	-43.6	-45.7	16.6	0.00e+00	0	44	0	0	58	4703
2026-01-20 10:48:48.62	247.67	43.97	-43.8	-46.0	16.3	0.00e+00	0	44	0	0	58	4845
2026-01-20 10:48:51.60	249.20	44.17	-44.3	-46.7	15.7	0.00e+00	0	44	0	0	59	4946
2026-01-20 10:48:54.59	250.76	44.34	-43.8	-46.0	16.4	0.00e+00	0	44	0	0	59	4556
2026-01-20 10:48:57.58	252.34	44.49	-43.7	-45.8	16.6	0.00e+00	0	44	0	0	59	4477
2026-01-20 10:49:00.57	253.92	44.62	-43.0	-45.1	17.3	0.00e+00	0	44	0	0	58	4349
2026-01-20 10:49:03.56	255.52	44.72	-43.2	-45.2	17.1	0.00e+00	0	44	0	0	57	4705
2026-01-20 10:49:06.54	257.13	44.80	-43.4	-45.6	16.9	0.00e+00	0	44	0	0	57	4893
2026-01-20 10:49:09.53	258.74	44.86	-43.7	-45.9	16.4	0.00e+00	0	44	0	0	58	4763
2026-01-20 10:49:12.51	260.36	44.89	-43.2	-45.3	17.1	0.00e+00	0	44	0	0	58	4480
2026-01-20 10:49:15.50	261.98	44.90	-43.2	-45.4	17.0	0.00e+00	0	44	0	0	58	4495
2026-01-20 10:49:18.48	263.59	44.88	-42.9	-45.0	17.3	0.00e+00	0	44	0	0	57	4570
2026-01-20 10:49:21.47	265.21	44.84	-43.4	-45.5	16.9	0.00e+00	0	44	0	0	57	4846
2026-01-20 10:49:24.45	266.81	44.77	-43.3	-45.5	16.8	0.00e+00	0	44	0	0	57	4816
2026-01-20 10:49:27.45	268.42	44.68	-42.8	-44.8	17.4	0.00e+00	0	44	0	0	57	4482
2026-01-20 10:49:30.43	270.01	44.56	-42.5	-44.5	17.8	0.00e+00	0	44	0	0	57	4292
2026-01-20 10:49:33.41	271.59	44.42	-43.0	-45.0	17.2	0.00e+00	0	44	0	0	57	4566
2026-01-20 10:49:36.40	273.15	44.26	-43.3	-45.4	16.9	0.00e+00	0	44	0	0	57	4770
2026-01-20 10:49:39.39	274.70	44.08	-43.6	-45.8	16.6	0.00e+00	0	44	0	0	58	4729
2026-01-20 10:49:42.37	276.22	43.87	-43.1	-45.2	17.1	0.00e+00	0	44	0	0	58	4406
2026-01-20 10:49:45.36	277.73	43.64	-43.6	-45.8	16.7	0.00e+00	0	44	0	0	58	4726
2026-01-20 10:49:48.35	279.22	43.40	-43.6	-45.7	16.7	0.00e+00	0	44	0	0	58	4702
2026-01-20 10:49:51.33	280.68	43.13	-42.8	-44.8	17.5	0.00e+00	0	44	0	0	57	4452
2026-01-20 10:49:54.31	282.11	42.85	-43.9	-46.1	16.4	0.00e+00	0	44	0	0	58	4893
2026-01-20 10:49:57.30	283.52	42.55	-43.6	-45.8	16.6	0.00e+00	0	44	0	0	59	4445
2026-01-20 10:50:00.28	284.91	42.24	-43.5	-45.6	16.7	0.00e+00	0	44	0	0	58	4635
2026-01-20 10:50:03.27	286.27	41.90	-43.7	-45.9	16.4	0.00e+00	0	44	0	0	58	4770
2026-01-20 10:50:06.26	287.60	41.56	-44.0	-46.2	16.1	0.00e+00	0	44	0	0	59	4679
2026-01-20 10:50:09.25	288.90	41.20	-43.7	-45.9	16.3	0.00e+00	0	44	0	0	58	4790
2026-01-20 10:50:12.23	290.17	40.83	-43.8	-46.0	16.2	0.00e+00	0	44	0	0	58	4832
2026-01-20 10:50:15.22	291.41	40.45	-42.9	-44.9	17.4	0.00e+00	0	44	0	0	57	4529
2026-01-20 10:50:18.20	292.62	40.06	-42.5	-44.4	17.8	0.00e+00	0	44	0	0	56	4539
2026-01-20 10:50:21.19	293.81	39.65	-42.9	-44.9	17.4	0.00e+00	0	44	0	0	56	4797
2026-01-20 10:50:24.17	294.97	39.25	-42.5	-44.4	17.8	0.00e+00	0	44	0	0	56	4528
2026-01-20 10:50:27.16	296.09	38.83	-43.0	-45.1	17.2	0.00e+00	0	44	0	0	57	4639
2026-01-20 10:50:30.14	297.19	38.41	-43.4	-45.5	16.8	0.00e+00	0	44	0	0	57	4852
2026-01-20 10:50:33.13	298.26	37.98	-42.9	-44.9	17.4	0.00e+00	0	44	0	0	57	4526
2026-01-20 10:50:36.11	299.30	37.54	-42.3	-44.2	18.0	0.00e+00	0	44	0	0	56	4416
2026-01-20 10:50:39.10	300.32	37.10	-42.1	-44.0	18.2	0.00e+00	0	44	0	0	56	4328
2026-01-20 10:50:42.09	301.31	36.66	-42.4	-44.3	17.9	0.00e+00	0	44	0	0	56	4492
2026-01-20 10:50:45.07	302.27	36.21	-42.1	-44.0	18.1	0.00e+00	0	44	0	0	56	4333
2026-01-20 10:50:48.06	303.21	35.77	-42.2	-44.2	18.1	0.00e+00	0	44	0	0	56	4396
2026-01-20 10:50:51.04	304.12	35.32	-42.3	-44.3	18.0	0.00e+00	0	44	0	0	56	4489
2026-01-20 10:50:54.03	305.01	34.86	-42.4	-44.4	17.8	0.00e+00	0	44	0	0	56	4495
2026-01-20 10:50:57.02	305.87	34.41	-42.0	-43.9	18.3	0.00e+00	0	44	0	0	56	4260
2026-01-20 10:51:00.00	306.71	33.96	-41.8	-43.7	18.3	0.00e+00	0	44	0	0	55	4435
2026-01-20 10:51:02.99	307.53	33.51	-41.4	-43.2	18.7	0.00e+00	0	44	0	0	54	4438
2026-01-20 10:51:05.98	308.32	33.06	-41.1	-42.9	19.0	0.00e+00	0	44	0	0	54	4274
2026-01-20 10:51:08.97	309.10	32.61	-40.6	-42.4	19.5	0.00e+00	0	44	0	0	53	4247
2026-01-20 10:51:11.96	309.85	32.16	-40.4	-42.1	19.7	0.00e+00	0	44	0	0	52	4356
2026-01-20 10:51:14.94	310.58	31.71	-40.4	-42.1	19.7	0.00e+00	0	44	0	0	52	4358
2026-01-20 10:51:17.92	311.30	31.26	-40.3	-42.0	19.8	0.00e+00	0	44	0	0	52	4317
2026-01-20 10:51:20.90	311.99	30.82	-40.3	-42.0	19.8	0.00e+00	0	44	0	0	52	4299
2026-01-20 10:51:23.88	312.66	30.38	-40.3	-42.0	19.7	0.00e+00	0	44	0	0	52	4312
2026-01-20 10:51:26.87	313.32	29.94	-40.5	-42.2	19.5	0.00e+00	0	44	0	0	52	4424
2026-01-20 10:51:29.85	313.96	29.51	-40.4	-42.2	19.5	0.00e+00	0	44	0	0	52	4397
2026-01-20 10:51:32.84	314.59	29.07	-40.7	-42.5	19.1	0.00e+00	0	44	0	0	52	4587
2026-01-20 10:51:35.83	315.20	28.64	-40.6	-42.5	19.2	0.00e+00	0	44	0	0	52	4587
2026-01-20 10:51:38.81	315.79	28.22	-40.7	-42.5	19.4	0.00e+00	0	44	0	0	52	4569
2026-01-20 10:51:41.80	316.37	27.80	-40.8	-42.6	19.4	0.00e+00	0	44	0	0	52	4601
2026-01-20 10:51:44.78	316.93	27.38	-40.8	-42.6	19.3	0.00e+00	0	44	0	0	52	4621
2026-01-20 10:51:47.77	317.48	26.96	-40.5	-42.3	19.6	0.00e+00	0	44	0	0	52	4450
2026-01-20 10:51:50.76	318.01	26.55	-40.5	-42.3	19.6	0.00e+00	0	44	0	0	52	4450
2026-01-20 10:51:53.75	318.53	26.14	-40.1	-41.9	19.9	0.00e+00	0	44	0	0	52	4244
2026-01-20 10:51:56.73	319.04	25.74	-39.9	-41.7	20.1	0.00e+00	0	44	0	0	51	4397
2026-01-20 10:51:59.72	319.54	25.34	-40.2	-42.0	19.8	0.00e+00	0	44	0	0	51	4558
2026-01-20 10:52:02.70	320.02	24.94	-40.4	-42.1	19.6	0.00e+00	0	44	0	0	51	4645
2026-01-20 10:52:05.68	320.49	24.55	-40.3	-42.2	19.7	0.00e+00	0	44	0	0	51	4652
2026-01-20 10:52:08.67	320.95	24.16	-40.2	-42.0	19.8	0.00e+00	0	44	0	0	51	4569
2026-01-20 10:52:11.65	321.40	23.77	-40.2	-42.0	19.7	0.00e+00	0	44	0	0	51	4587
2026-01-20 10:52:14.64	321.84	23.39	-40.4	-42.2	19.6	0.00e+00	0	44	0	0	51	4693
2026-01-20 10:52:17.62	322.27	23.02	-40.5	-42.3	19.6	0.00e+00	0	44	0	0	51	4706
2026-01-20 10:52:20.61	322.69	22.64	-40.5	-42.3	19.6	0.00e+00	0	44	0	0	51	4745
2026-01-20 10:52:23.59	323.10	22.27	-40.6	-42.4	19.4	0.00e+00	0	44	0	0	51	4809
2026-01-20 10:52:26.58	323.50	21.91	-40.5	-42.3	19.4	0.00e+00	0	44	0	0	52	4471
2026-01-20 10:52:29.56	323.89	21.55	-40.6	-42.4	19.3	0.00e+00	0	44	0	0	52	4545
2026-01-20 10:52:32.54	324.27	21.19	-40.4	-42.3	19.5	0.00e+00	0	44	0	0	52	4446
2026-01-20 10:52:35.53	324.65	20.84	-40.2	-42.0	19.7	0.00e+00	0	44	0	0	52	4327
2026-01-20 10:52:38.51	325.02	20.49	-40.3	-42.1	19.6	0.00e+00	0	44	0	0	52	4383
2026-01-20 10:52:41.50	325.37	20.14	-40.4	-42.2	19.6	0.00e+00	0	44	0	0	52	4400
2026-01-20 10:52:44.49	325.73	19.80	-40.4	-42.1	19.6	0.00e+00	0	44	0	0	52	4373
2026-01-20 10:52:47.47	326.07	19.46	-40.2	-41.9	19.8	0.00e+00	0	44	0	0	52	4256
2026-01-20 10:52:50.46	326.41	19.13	-40.1	-41.9	19.7	0.00e+00	0	44	0	0	52	4247
2026-01-20 10:52:53.44	326.73	18.79	-40.1	-41.9	19.7	0.00e+00	0	44	0	0	52	4248
2026-01-20 10:52:56.42	327.06	18.47	-40.2	-42.0	19.5	0.00e+00	0	44	0	0	52	4332
2026-01-20 10:52:59.41	327.37	18.14	-40.4	-42.3	19.3	0.00e+00	0	44	0	0	52	4454
2026-01-20 10:53:02.40	327.68	17.82	-40.6	-42.5	19.2	0.00e+00	0	44	0	0	52	4554
2026-01-20 10:53:05.38	327.99	17.50	-40.8	-42.7	19.1	0.00e+00	0	44	0	0	52	4679
2026-01-20 10:53:08.36	328.28	17.19	-40.8	-42.8	19.0	0.00e+00	0	44	0	0	52	4745
2026-01-20 10:53:11.35	328.57	16.88	-41.1	-43.0	18.8	0.00e+00	0	44	0	0	52	4846
2026-01-20 10:53:14.34	328.86	16.57	-41.2	-43.1	18.6	0.00e+00	0	44	0	0	53	4621
2026-01-20 10:53:17.32	329.14	16.27	-41.3	-43.2	18.5	0.00e+00	0	44	0	0	53	4679
2026-01-20 10:53:20.30	329.41	15.97	-41.3	-43.1	18.6	0.00e+00	0	44	0	0	53	4630
2026-01-20 10:53:23.29	329.69	15.67	-41.2	-43.0	18.6	0.00e+00	0	44	0	0	53	4590
2026-01-20 10:53:26.27	329.95	15.37	-41.2	-43.0	18.5	0.00e+00	0	44	0	0	53	4582
2026-01-20 10:53:29.26	330.21	15.08	-41.1	-43.0	18.6	0.00e+00	0	44	0	0	53	4553
2026-01-20 10:53:32.24	330.46	14.79	-41.3	-43.2	18.5	0.00e+00	0	44	0	0	53	4675
2026-01-20 10:53:35.23	330.72	14.51	-41.5	-43.4	18.3	0.00e+00	0	44	0	0	53	4791
2026-01-20 10:53:38.21	330.96	14.22	-41.5	-43.5	18.3	0.00e+00	0	44	0	0	53	4824
2026-01-20 10:53:41.20	331.20	13.94	-41.5	-43.5	18.3	0.00e+00	0	44	0	0	54	4547
2026-01-20 10:53:44.18	331.44	13.67	-41.7	-43.6	18.2	0.00e+00	0	44	0	0	54	4637
2026-01-20 10:53:47.17	331.67	13.39	-42.0	-43.9	17.9	0.00e+00	0	44	0	0	54	4805
2026-01-20 10:53:50.15	331.90	13.12	-41.9	-43.9	17.8	0.00e+00	0	44	0	0	55	4525
2026-01-20 10:53:53.14	332.13	12.85	-42.0	-44.0	17.7	0.00e+00	0	44	0	0	55	4556
2026-01-20 10:53:56.13	332.35	12.58	-42.0	-44.0	17.6	0.00e+00	0	44	0	0	55	4581
2026-01-20 10:53:59.11	332.57	12.32	-42.1	-44.2	17.4	0.00e+00	0	44	0	0	55	4688
2026-01-20 10:54:02.09	332.78	12.06	-42.1	-44.2	17.4	0.00e+00	0	44	0	0	55	4678
2026-01-20 10:54:05.08	332.99	11.80	-42.2	-44.3	17.4	0.00e+00	0	44	0	0	55	4724
2026-01-20 10:54:08.07	333.20	11.54	-42.2	-44.2	17.5	0.00e+00	0	44	0	0	55	4694
2026-01-20 10:54:11.05	333.40	11.29	-42.0	-44.1	17.6	0.00e+00	0	44	0	0	55	4602
2026-01-20 10:54:14.04	333.60	11.03	-42.1	-44.1	17.5	0.00e+00	0	44	0	0	55	4648
2026-01-20 10:54:17.02	333.80	10.78	-42.2	-44.3	17.4	0.00e+00	0	44	0	0	55	4727
2026-01-20 10:54:20.01	334.00	10.54	-42.2	-44.3	17.4	0.00e+00	0	44	0	0	55	4740
2026-01-20 10:54:22.99	334.19	10.29	-42.3	-44.4	17.4	0.00e+00	0	44	0	0	55	4790
2026-01-20 10:54:25.98	334.38	10.05	-42.1	-44.2	17.5	0.00e+00	0	44	0	0	55	4688
2026-01-20 10:54:28.97	334.56	9.81	-42.1	-44.2	17.5	0.00e+00	0	44	0	0	55	4691
2026-01-20 10:54:31.95	334.74	9.57	-42.2	-44.3	17.4	0.00e+00	0	44	0	0	55	4750
2026-01-20 10:54:34.94	334.92	9.33	-42.3	-44.5	17.2	0.00e+00	0	44	0	0	55	4840
2026-01-20 10:54:37.92	335.10	9.09	-42.3	-44.5	17.2	0.00e+00	0	44	0	0	55	4867
2026-01-20 10:54:40.91	335.28	8.86	-50.0	-63.3	3.8	1.49e+00	0	44	104	0	71	16728
2026-01-20 10:54:43.89	335.45	8.63	-50.2	-63.8	3.8	1.49e+00	0	44	104	0	70	18837
2026-01-20 10:54:46.87	335.62	8.40	-50.5	-63.9	3.8	1.49e+00	0	44	104	0	72	17012
2026-01-20 10:54:49.85	335.78	8.17	-50.6	-64.0	3.8	1.49e+00	0	44	104	0	72	17181
2026-01-20 10:54:52.83	335.95	7.95	-50.9	-64.0	3.8	1.49e+00	0	44	104	0	72	17138
2026-01-20 10:54:55.81	336.11	7.73	-51.1	-64.0	3.8	1.49e+00	0	44	104	0	72	17278
2026-01-20 10:54:58.79	336.27	7.51	-50.9	-64.0	3.8	1.49e+00	0	44	104	0	72	17137
2026-01-20 10:55:01.77	336.43	7.29	-50.9	-64.0	3.8	1.49e+00	0	44	104	0	72	17168
2026-01-20 10:55:04.75	336.58	7.07	-50.7	-63.9	3.8	1.49e+00	0	44	104	0	72	17071
2026-01-20 10:55:07.73	336.74	6.85	-50.7	-63.9	3.8	1.49e+00	0	44	104	0	72	17034
2026-01-20 10:55:10.71	336.89	6.64	-50.7	-63.9	3.8	1.49e+00	0	44	104	0	72	17034
2026-01-20 10:55:13.69	337.04	6.42	-50.6	-63.9	3.8	1.49e+00	0	44	104	0	72	16939
2026-01-20 10:55:16.67	337.19	6.21	-50.6	-63.9	3.8	1.49e+00	0	44	104	0	72	16988
2026-01-20 10:55:19.65	337.33	6.00	-50.6	-63.9	3.8	1.49e+00	0	44	104	0	72	17007
2026-01-20 10:55:22.63	337.47	5.79	-50.6	-63.9	3.8	1.49e+00	0	44	104	0	72	17016
2026-01-20 10:55:25.61	337.62	5.59	-50.7	-63.9	3.8	1.49e+00	0	44	104	0	72	16954
2026-01-20 10:55:28.59	337.76	5.38	-50.6	-63.9	3.8	1.49e+00	0	44	104	0	72	16988
2026-01-20 10:55:31.57	337.90	5.18	-50.6	-63.9	3.8	1.49e+00	0	44	104	0	72	16918
2026-01-20 10:55:34.55	338.03	4.98	-50.6	-63.9	3.8	1.49e+00	0	44	104	0	72	17016

#Closed at: 2026-01-20 10:55:35
#Recorded file [0 MB]: D:/Data/31040_260120_134259.dat