passes_logs/2026/01/20/T1/T1__20260120_184825_FENGYUN_3G_rec.log

#Pass ID: 20260120_184825_FENGYUN 3G
#Satellite: FENGYUN 3G
#Configuration: FENGYUN 3G
#almurnet v.1.7.20251203
#Start time: 2026-01-20 18:48:25

#Version: 2.0.20230620
#Station: T1
#Location: 37.570604 lon 55.790049 lat
#TLE: 1 56232U 23055A   26020.00144243  .00036531  00000+0  56251-3 0  9990
#TLE: 2 56232  49.9940  30.1229 0004155  52.6154 307.5191 15.53783627156971

#Time	Az	El	Level	Level2	SNR	BER	BlckErr	Temp	State	Recorded	gain1	gain2
2026-01-20 18:48:25.22	200.51	5.13	-49.4	-69.3	3.8	8.47e-01	0	41	0	0	70	35381
2026-01-20 18:48:27.21	200.20	5.25	-49.7	-69.1	3.8	8.46e-01	0	41	104	0	71	32623
2026-01-20 18:48:29.19	199.89	5.37	-49.7	-69.1	3.8	8.47e-01	0	41	104	0	71	32781
2026-01-20 18:48:31.18	199.57	5.49	-49.7	-69.1	3.8	8.47e-01	0	41	104	0	71	32661
2026-01-20 18:48:33.16	199.25	5.62	-49.7	-69.0	3.8	8.47e-01	0	41	104	0	71	32458
2026-01-20 18:48:35.15	198.92	5.74	-49.7	-69.1	3.8	8.47e-01	0	41	104	0	71	32611
2026-01-20 18:48:37.14	198.59	5.86	-49.7	-69.1	3.8	8.46e-01	0	41	104	0	71	32601
2026-01-20 18:48:39.12	198.26	5.99	-49.7	-69.0	3.8	8.47e-01	0	41	104	0	71	32523
2026-01-20 18:48:41.11	197.92	6.11	-49.7	-69.1	3.8	8.47e-01	0	41	104	0	71	32675
2026-01-20 18:48:43.10	197.58	6.23	-49.7	-69.1	3.8	8.47e-01	0	41	104	0	71	32683
2026-01-20 18:48:45.08	197.24	6.36	-49.7	-69.0	3.8	8.46e-01	0	41	104	0	71	32237
2026-01-20 18:48:47.07	196.89	6.48	-49.7	-68.9	3.8	8.47e-01	0	41	104	0	71	31942
2026-01-20 18:48:49.05	196.54	6.61	-49.7	-69.0	3.8	8.47e-01	0	41	104	0	71	32498
2026-01-20 18:48:51.04	196.18	6.73	-49.7	-69.1	3.8	8.47e-01	0	41	104	0	71	32681
2026-01-20 18:48:53.03	195.81	6.86	-49.7	-69.1	3.8	8.47e-01	0	41	104	0	71	32556
2026-01-20 18:48:55.01	195.45	6.98	-49.7	-69.0	3.8	8.47e-01	0	42	104	0	71	32277
2026-01-20 18:48:57.00	195.08	7.11	-49.7	-69.0	3.8	8.47e-01	0	42	104	0	71	32473
2026-01-20 18:48:58.98	194.70	7.23	-49.7	-69.1	3.8	8.48e-01	0	42	104	0	71	32759
2026-01-20 18:49:00.97	194.32	7.35	-49.7	-68.9	3.8	8.47e-01	0	42	104	0	71	32119
2026-01-20 18:49:02.96	193.94	7.48	-49.7	-68.8	3.8	8.46e-01	0	42	104	0	71	31468
2026-01-20 18:49:04.94	193.55	7.60	-49.7	-68.9	3.8	8.48e-01	0	42	104	0	71	31837
2026-01-20 18:49:06.93	193.15	7.73	-49.7	-69.1	3.8	8.47e-01	0	42	104	0	71	32680
2026-01-20 18:49:08.92	192.76	7.85	-49.7	-68.9	3.8	8.46e-01	0	42	104	0	71	32095
2026-01-20 18:49:10.90	192.35	7.98	-49.7	-69.0	3.8	8.48e-01	0	42	104	0	71	32538
2026-01-20 18:49:12.89	191.94	8.10	-49.7	-68.4	3.8	8.49e-01	0	42	104	0	71	30062
2026-01-20 18:49:14.87	191.53	8.23	-49.7	-68.9	3.8	8.46e-01	0	42	104	0	71	32098
2026-01-20 18:49:16.86	191.11	8.35	-49.7	-67.6	3.8	8.47e-01	0	42	104	0	71	27420
2026-01-20 18:49:18.85	190.69	8.48	-49.7	-68.2	3.8	8.47e-01	0	42	104	0	71	29431
2026-01-20 18:49:20.83	190.26	8.60	-49.7	-67.2	3.8	8.45e-01	0	42	104	0	71	26394
2026-01-20 18:49:22.82	189.83	8.72	-49.6	-66.3	3.9	8.44e-01	0	42	104	0	71	23674
2026-01-20 18:49:24.81	189.39	8.85	-49.1	-59.1	8.6	8.41e-01	0	42	0	0	70	10973
2026-01-20 18:49:26.79	188.95	8.97	-48.4	-55.8	12.2	6.22e-03	0	42	0	0	68	8375
2026-01-20 18:49:28.78	188.50	9.09	-49.3	-60.8	7.2	9.42e-04	0	42	0	0	69	14120
2026-01-20 18:49:30.77	188.05	9.22	-49.4	-61.5	7.1	2.16e-02	0	43	0	0	69	15277
2026-01-20 18:49:32.76	187.59	9.34	-49.3	-60.5	7.7	2.82e-01	0	42	0	0	69	13605
2026-01-20 18:49:34.75	187.13	9.46	-44.5	-47.6	20.6	9.37e-02	0	42	0	0	60	5183
2026-01-20 18:49:36.74	186.66	9.58	-44.6	-47.8	20.2	0.00e+00	0	42	0	0	60	5303
2026-01-20 18:49:38.73	186.18	9.70	-44.5	-47.6	20.2	0.00e+00	0	42	0	0	60	5201
2026-01-20 18:49:40.72	185.70	9.82	-44.1	-47.2	20.7	0.00e+00	0	42	0	0	60	4958
2026-01-20 18:49:42.71	185.22	9.94	-44.0	-47.0	21.0	0.00e+00	0	43	0	0	59	5158
2026-01-20 18:49:44.69	184.73	10.06	-43.6	-46.5	21.4	0.00e+00	0	43	0	0	59	4839
2026-01-20 18:49:46.68	184.23	10.18	-43.8	-46.7	20.6	0.00e+00	0	43	0	0	59	4941
2026-01-20 18:49:48.67	183.73	10.29	-43.3	-46.1	20.9	0.00e+00	0	43	0	0	58	4871
2026-01-20 18:49:50.66	183.22	10.41	-43.3	-46.1	22.1	0.00e+00	0	42	0	0	57	5193
2026-01-20 18:49:52.65	182.71	10.52	-43.6	-46.5	21.3	2.74e-05	0	42	0	0	58	5101
2026-01-20 18:49:54.65	182.19	10.64	-43.5	-46.3	21.4	0.00e+00	0	43	0	0	58	5041
2026-01-20 18:49:56.64	181.67	10.75	-43.8	-46.6	21.1	0.00e+00	0	42	0	0	59	4923
2026-01-20 18:49:58.62	181.14	10.87	-43.7	-46.5	21.4	0.00e+00	0	43	0	0	59	4815
2026-01-20 18:50:00.61	180.61	10.98	-43.5	-46.3	21.6	0.00e+00	0	43	0	0	59	4716
2026-01-20 18:50:02.60	180.07	11.09	-43.2	-45.8	21.9	0.00e+00	0	43	0	0	57	5013
2026-01-20 18:50:04.59	179.52	11.20	-42.8	-45.4	22.2	0.00e+00	0	43	0	0	57	4781
2026-01-20 18:50:06.58	178.97	11.30	-42.9	-45.5	22.1	0.00e+00	0	43	0	0	57	4840
2026-01-20 18:50:08.57	178.42	11.41	-42.7	-45.2	22.6	0.00e+00	0	43	0	0	57	4691
2026-01-20 18:50:10.56	177.85	11.51	-42.5	-44.9	22.8	0.00e+00	0	43	0	0	56	4807
2026-01-20 18:50:12.55	177.29	11.62	-42.4	-44.8	22.9	0.00e+00	0	43	0	0	56	4735
2026-01-20 18:50:14.54	176.72	11.72	-41.6	-43.9	23.5	0.00e+00	0	43	0	0	55	4536
2026-01-20 18:50:16.53	176.14	11.82	-41.3	-43.6	23.8	0.00e+00	0	43	0	0	54	4648
2026-01-20 18:50:18.52	175.56	11.92	-41.1	-43.3	24.1	0.00e+00	0	43	0	0	54	4482
2026-01-20 18:50:20.51	174.97	12.02	-40.8	-43.0	24.3	0.00e+00	0	42	0	0	53	4582
2026-01-20 18:50:22.50	174.38	12.11	-40.9	-43.2	24.1	0.00e+00	0	43	0	0	53	4690
2026-01-20 18:50:24.49	173.78	12.21	-40.9	-43.2	24.1	0.00e+00	0	43	0	0	53	4671
2026-01-20 18:50:26.48	173.18	12.30	-40.9	-43.2	24.1	0.00e+00	0	43	0	0	53	4683
2026-01-20 18:50:28.46	172.58	12.39	-40.7	-42.9	24.4	0.00e+00	0	43	0	0	53	4526
2026-01-20 18:50:30.46	171.96	12.47	-40.6	-42.8	24.5	0.00e+00	0	43	0	0	53	4465
2026-01-20 18:50:32.45	171.34	12.56	-40.5	-42.7	24.6	1.66e-03	0	43	0	0	53	4394
2026-01-20 18:50:34.44	170.72	12.64	-40.6	-42.7	24.5	0.00e+00	0	43	0	0	53	4438
2026-01-20 18:50:36.43	170.10	12.72	-40.5	-42.7	24.5	0.00e+00	0	43	0	0	53	4416
2026-01-20 18:50:38.42	169.47	12.80	-40.5	-42.7	24.5	0.00e+00	0	43	0	0	53	4412
2026-01-20 18:50:40.41	168.83	12.88	-40.4	-42.5	24.7	0.00e+00	0	43	0	0	52	4573
2026-01-20 18:50:42.40	168.19	12.95	-40.4	-42.6	24.6	0.00e+00	0	43	0	0	52	4624
2026-01-20 18:50:44.39	167.55	13.02	-40.2	-42.3	24.9	0.00e+00	0	43	0	0	52	4463
2026-01-20 18:50:46.38	166.91	13.09	-40.0	-42.2	24.9	0.00e+00	0	43	0	0	52	4402
2026-01-20 18:50:48.37	166.25	13.16	-39.9	-42.0	25.1	0.00e+00	0	43	0	0	51	4580
2026-01-20 18:50:50.36	165.60	13.22	-39.9	-42.1	25.1	0.00e+00	0	43	0	0	51	4599
2026-01-20 18:50:52.35	164.94	13.28	-40.3	-42.4	24.8	0.00e+00	0	43	0	0	51	4796
2026-01-20 18:50:54.34	164.28	13.34	-40.7	-42.8	24.5	0.00e+00	0	43	0	0	51	5035
2026-01-20 18:50:56.33	163.62	13.40	-40.8	-43.1	24.3	0.00e+00	0	43	0	0	52	4874
2026-01-20 18:50:58.32	162.95	13.45	-40.8	-43.0	24.3	0.00e+00	0	43	0	0	52	4833
2026-01-20 18:51:00.31	162.28	13.50	-40.9	-43.2	24.2	0.00e+00	0	43	0	0	52	4938
2026-01-20 18:51:02.30	161.61	13.55	-40.3	-42.5	24.7	0.00e+00	0	43	0	0	52	4562
2026-01-20 18:51:04.29	160.93	13.59	-40.1	-42.3	24.9	1.02e-05	0	43	0	0	52	4448
2026-01-20 18:51:06.28	160.25	13.63	-40.1	-42.3	25.0	0.00e+00	0	43	0	0	51	4713
2026-01-20 18:51:08.27	159.57	13.67	-40.0	-42.1	25.1	3.89e-05	0	43	0	0	51	4614
2026-01-20 18:51:10.26	158.89	13.70	-39.8	-41.9	25.3	2.42e-03	0	43	0	0	51	4507
2026-01-20 18:51:12.25	158.20	13.73	-40.0	-42.2	24.8	0.00e+00	0	43	0	0	51	4658
2026-01-20 18:51:14.24	157.52	13.76	-40.3	-42.4	24.8	0.00e+00	0	43	0	0	51	4801
2026-01-20 18:51:16.23	156.83	13.79	-40.7	-42.9	24.4	2.05e-03	0	43	0	0	52	4797
2026-01-20 18:51:18.22	156.14	13.81	-40.4	-42.6	24.6	0.00e+00	0	43	0	0	52	4620
2026-01-20 18:51:20.21	155.45	13.83	-40.2	-42.3	24.8	0.00e+00	0	43	0	0	52	4481
2026-01-20 18:51:22.21	154.75	13.84	-39.9	-42.0	25.1	0.00e+00	0	43	0	0	51	4596
2026-01-20 18:51:24.20	154.06	13.85	-40.2	-42.4	24.8	0.00e+00	0	43	0	0	51	4774
2026-01-20 18:51:26.19	153.37	13.86	-40.2	-42.4	24.9	0.00e+00	0	43	0	0	51	4776
2026-01-20 18:51:28.18	152.68	13.87	-40.5	-42.7	24.5	0.00e+00	0	43	0	0	51	4969
2026-01-20 18:51:30.17	151.98	13.87	-40.8	-43.0	24.3	0.00e+00	0	43	0	0	52	4843
2026-01-20 18:51:32.16	151.29	13.86	-41.1	-43.4	24.0	0.00e+00	0	43	0	0	52	5054
2026-01-20 18:51:34.15	150.60	13.86	-41.0	-43.3	24.1	0.00e+00	0	43	0	0	53	4710
2026-01-20 18:51:36.14	149.90	13.85	-40.7	-42.9	24.4	0.00e+00	0	43	0	0	53	4505
2026-01-20 18:51:38.12	149.22	13.84	-40.5	-42.7	24.6	0.00e+00	0	43	0	0	52	4661
2026-01-20 18:51:40.12	148.52	13.82	-40.3	-42.4	24.8	0.00e+00	0	43	0	0	52	4512
2026-01-20 18:51:42.11	147.83	13.81	-40.7	-42.9	24.4	0.00e+00	0	43	0	0	52	4793
2026-01-20 18:51:44.10	147.14	13.78	-40.8	-43.0	24.3	0.00e+00	0	43	0	0	52	4860
2026-01-20 18:51:46.08	146.46	13.76	-40.6	-42.8	24.4	0.00e+00	0	43	0	0	52	4743
2026-01-20 18:51:48.07	145.77	13.73	-40.3	-42.4	24.7	0.00e+00	0	43	0	0	52	4536
2026-01-20 18:51:50.06	145.09	13.70	-40.0	-42.1	25.0	0.00e+00	0	43	0	0	52	4384
2026-01-20 18:51:52.05	144.41	13.67	-40.4	-42.5	24.6	0.00e+00	0	43	0	0	52	4572
2026-01-20 18:51:54.04	143.73	13.63	-40.4	-42.6	24.6	0.00e+00	0	43	0	0	52	4627
2026-01-20 18:51:56.03	143.05	13.59	-40.1	-42.3	24.8	0.00e+00	0	43	0	0	52	4461
2026-01-20 18:51:58.02	142.38	13.54	-40.1	-42.2	24.9	0.00e+00	0	43	0	0	52	4411
2026-01-20 18:52:00.01	141.70	13.50	-40.0	-42.1	25.0	0.00e+00	0	43	0	0	51	4639
2026-01-20 18:52:01.99	141.04	13.45	-40.1	-42.3	25.0	0.00e+00	0	43	0	0	51	4709
2026-01-20 18:52:03.98	140.37	13.40	-40.3	-42.4	24.8	0.00e+00	0	43	0	0	51	4814
2026-01-20 18:52:05.97	139.71	13.34	-40.2	-42.3	24.9	0.00e+00	0	43	0	0	51	4736
2026-01-20 18:52:07.97	139.05	13.28	-40.1	-42.2	24.9	0.00e+00	0	43	0	0	51	4693
2026-01-20 18:52:09.96	138.39	13.22	-39.6	-41.7	25.4	0.00e+00	0	43	0	0	51	4404
2026-01-20 18:52:11.94	137.74	13.16	-40.1	-42.3	24.9	0.00e+00	0	43	0	0	51	4719
2026-01-20 18:52:13.93	137.09	13.09	-40.5	-42.6	24.6	0.00e+00	0	43	0	0	51	4926
2026-01-20 18:52:15.93	136.45	13.02	-40.1	-42.2	24.9	0.00e+00	0	43	0	0	51	4690
2026-01-20 18:52:17.91	135.81	12.95	-39.8	-41.9	25.2	0.00e+00	0	43	0	0	51	4500
2026-01-20 18:52:19.90	135.17	12.88	-39.7	-41.8	25.3	0.00e+00	0	43	0	0	51	4462
2026-01-20 18:52:21.89	134.54	12.80	-40.4	-42.5	24.7	0.00e+00	0	43	0	0	51	4855
2026-01-20 18:52:23.88	133.91	12.72	-40.8	-43.0	24.2	0.00e+00	0	43	0	0	52	4840
2026-01-20 18:52:25.87	133.29	12.64	-40.7	-42.9	24.3	0.00e+00	0	43	0	0	52	4807
2026-01-20 18:52:27.86	132.67	12.56	-40.5	-42.7	24.5	0.00e+00	0	43	0	0	52	4658
2026-01-20 18:52:29.85	132.05	12.47	-40.1	-42.2	24.8	0.00e+00	0	43	0	0	52	4421
2026-01-20 18:52:31.84	131.45	12.38	-40.3	-42.5	24.7	0.00e+00	0	43	0	0	52	4556
2026-01-20 18:52:33.83	130.84	12.29	-40.8	-43.0	24.2	0.00e+00	0	43	0	0	52	4867
2026-01-20 18:52:35.82	130.24	12.20	-41.3	-43.6	23.7	0.00e+00	0	43	0	0	53	4882
2026-01-20 18:52:37.81	129.65	12.11	-41.3	-43.6	23.7	0.00e+00	0	43	0	0	53	4902
2026-01-20 18:52:39.80	129.06	12.02	-41.1	-43.4	23.9	0.00e+00	0	43	0	0	53	4781
2026-01-20 18:52:41.79	128.47	11.92	-40.7	-42.9	24.3	0.00e+00	0	43	0	0	53	4518
2026-01-20 18:52:43.78	127.89	11.82	-40.7	-42.9	24.3	0.00e+00	0	43	0	0	53	4526
2026-01-20 18:52:45.77	127.32	11.72	-40.6	-42.8	24.3	0.00e+00	0	43	0	0	53	4489
2026-01-20 18:52:47.75	126.75	11.62	-41.2	-43.4	23.9	0.00e+00	0	43	0	0	53	4811
2026-01-20 18:52:49.75	126.19	11.51	-41.5	-43.9	23.5	0.00e+00	0	43	0	0	53	5045
2026-01-20 18:52:51.74	125.63	11.41	-41.3	-43.6	23.7	0.00e+00	0	43	0	0	53	4913
2026-01-20 18:52:53.73	125.07	11.30	-41.0	-43.3	23.9	0.00e+00	0	43	0	0	53	4720
2026-01-20 18:52:55.72	124.53	11.20	-40.7	-43.0	24.1	0.00e+00	0	43	0	0	53	4573
2026-01-20 18:52:57.71	123.98	11.09	-41.3	-43.5	23.7	0.00e+00	0	43	0	0	53	4862
2026-01-20 18:52:59.69	123.45	10.98	-41.9	-44.2	23.2	0.00e+00	0	43	0	0	54	4972
2026-01-20 18:53:01.68	122.92	10.87	-41.7	-44.3	23.1	0.00e+00	0	43	0	0	54	4993
2026-01-20 18:53:03.67	122.39	10.76	-41.4	-43.8	23.5	0.00e+00	0	43	0	0	54	4747
2026-01-20 18:53:05.66	121.87	10.64	-41.5	-43.8	23.5	0.00e+00	0	43	0	0	54	4758
2026-01-20 18:53:07.65	121.36	10.53	-41.4	-43.7	23.6	0.00e+00	0	43	0	0	54	4658
2026-01-20 18:53:09.64	120.85	10.41	-41.2	-43.6	23.6	0.00e+00	0	43	0	0	54	4604
2026-01-20 18:53:11.63	120.34	10.30	-41.3	-43.8	23.5	0.00e+00	0	43	0	0	54	4710
2026-01-20 18:53:13.62	119.84	10.18	-41.6	-44.0	23.3	0.00e+00	0	43	0	0	54	4855
2026-01-20 18:53:15.61	119.35	10.06	-42.2	-44.7	22.7	0.00e+00	0	43	0	0	55	4957
2026-01-20 18:53:17.60	118.86	9.95	-42.3	-44.8	22.5	0.00e+00	0	43	0	0	55	5010
2026-01-20 18:53:19.59	118.38	9.83	-42.0	-44.5	22.8	0.00e+00	0	43	0	0	55	4853
2026-01-20 18:53:21.57	117.90	9.71	-41.9	-44.4	22.9	0.00e+00	0	43	0	0	55	4780
2026-01-20 18:53:23.57	117.43	9.59	-42.1	-44.5	22.8	0.00e+00	0	43	0	0	55	4862
2026-01-20 18:53:25.56	116.96	9.47	-42.2	-44.7	22.7	0.00e+00	0	43	0	0	55	4951
2026-01-20 18:53:27.55	116.50	9.35	-42.2	-44.6	22.7	0.00e+00	0	43	0	0	55	4907
2026-01-20 18:53:29.54	116.04	9.22	-42.1	-44.6	22.7	0.00e+00	0	43	0	0	55	4889
2026-01-20 18:53:31.52	115.59	9.10	-42.1	-44.6	22.7	0.00e+00	0	43	0	0	55	4900
2026-01-20 18:53:33.51	115.15	8.98	-42.4	-45.0	22.5	0.00e+00	0	43	0	0	55	5109
2026-01-20 18:53:35.50	114.71	8.86	-50.5	-69.4	3.8	8.46e-01	0	43	104	0	71	33698
2026-01-20 18:53:37.48	114.27	8.74	-50.6	-69.5	3.8	8.47e-01	0	43	104	0	72	32373
2026-01-20 18:53:39.47	113.84	8.61	-50.7	-69.6	3.8	8.47e-01	0	43	104	0	72	32630
2026-01-20 18:53:41.46	113.42	8.49	-50.7	-69.6	3.8	8.48e-01	0	43	104	0	72	32875
2026-01-20 18:53:43.44	113.00	8.37	-50.5	-69.6	3.8	8.47e-01	0	43	104	0	72	32920
2026-01-20 18:53:45.43	112.58	8.24	-50.6	-69.7	3.8	8.48e-01	0	43	104	0	72	33241
2026-01-20 18:53:47.42	112.17	8.12	-50.6	-69.7	3.8	8.46e-01	0	43	104	0	72	33294
2026-01-20 18:53:49.40	111.77	7.99	-50.7	-69.8	3.8	8.46e-01	0	43	104	0	72	33386
2026-01-20 18:53:51.39	111.37	7.87	-50.5	-69.8	3.8	8.47e-01	0	43	104	0	72	33338
2026-01-20 18:53:53.38	110.97	7.75	-50.7	-69.8	3.8	8.47e-01	0	43	104	0	72	33435
2026-01-20 18:53:55.36	110.58	7.62	-50.7	-69.7	3.8	8.47e-01	0	43	104	0	72	33271
2026-01-20 18:53:57.35	110.19	7.50	-50.7	-69.7	3.8	8.47e-01	0	43	104	0	72	33209
2026-01-20 18:53:59.33	109.81	7.37	-50.7	-69.7	3.8	8.46e-01	0	43	104	0	72	33224
2026-01-20 18:54:01.32	109.43	7.25	-50.7	-69.7	3.8	8.47e-01	0	43	104	0	72	33051
2026-01-20 18:54:03.31	109.06	7.12	-50.7	-69.7	3.8	8.47e-01	0	43	104	0	72	33145
2026-01-20 18:54:05.29	108.69	7.00	-50.7	-69.7	3.8	8.48e-01	0	43	104	0	72	33147
2026-01-20 18:54:07.28	108.33	6.88	-50.7	-69.7	3.8	8.47e-01	0	43	104	0	72	33241
2026-01-20 18:54:09.26	107.97	6.75	-50.7	-69.7	3.8	8.45e-01	0	43	104	0	72	33102
2026-01-20 18:54:11.25	107.61	6.63	-50.7	-69.7	3.8	8.46e-01	0	43	104	0	72	33114
2026-01-20 18:54:13.23	107.26	6.50	-50.7	-69.7	3.8	8.48e-01	0	43	104	0	72	33079
2026-01-20 18:54:15.22	106.91	6.38	-50.7	-69.7	3.8	8.46e-01	0	43	104	0	72	33105
2026-01-20 18:54:17.21	106.57	6.26	-50.7	-69.7	3.8	8.47e-01	0	43	104	0	72	33070
2026-01-20 18:54:19.19	106.23	6.13	-50.7	-69.7	3.8	8.47e-01	0	43	104	0	72	33044
2026-01-20 18:54:21.18	105.90	6.01	-50.7	-69.7	3.8	8.46e-01	0	43	104	0	72	33068
2026-01-20 18:54:23.16	105.57	5.89	-50.7	-69.7	3.8	8.47e-01	0	44	104	0	72	32980
2026-01-20 18:54:25.15	105.24	5.77	-50.7	-69.7	3.8	8.47e-01	0	43	104	0	72	33051
2026-01-20 18:54:27.14	104.92	5.64	-50.6	-69.7	3.8	8.46e-01	0	43	104	0	72	32962
