passes_logs/2026/01/20/T1/T1__20260120_054439_FENGYUN_3E_rec.log

#Pass ID: 20260120_054439_FENGYUN 3E
#Satellite: FENGYUN 3E
#Configuration: FENGYUN 3E
#almurnet v.1.7.20251203
#Start time: 2026-01-20 05:44:39

#Version: 2.0.20230620
#Station: T1
#Location: 37.570604 lon 55.790049 lat
#TLE: 1 49008U 21062A   26019.58611515 -.00000153  00000+0 -51205-4 0  9999
#TLE: 2 49008  98.7481  24.6604 0002215 127.7537 232.3840 14.19884915235499

#Time	Az	El	Level	Level2	SNR	BER	BlckErr	Temp	State	Recorded	gain1	gain2
2026-01-20 05:44:39.32	5.88	5.02	-50.6	-61.6	3.8	8.47e-01	0	41	0	0	70	13579
2026-01-20 05:44:42.30	5.63	5.20	-49.2	-60.9	3.8	8.47e-01	0	41	104	0	68	14085
2026-01-20 05:44:45.37	5.36	5.38	-49.2	-60.9	3.8	8.47e-01	0	41	104	0	68	14160
2026-01-20 05:44:48.45	5.09	5.57	-49.2	-60.9	3.8	8.46e-01	0	41	104	0	68	14187
2026-01-20 05:44:51.52	4.82	5.75	-49.0	-60.8	3.9	8.45e-01	0	41	104	0	68	13930
2026-01-20 05:44:54.53	4.55	5.93	-49.1	-60.9	3.8	8.46e-01	0	41	104	0	68	14060
2026-01-20 05:44:57.51	4.28	6.11	-49.0	-60.8	3.9	8.45e-01	0	41	104	0	68	13907
2026-01-20 05:45:00.49	4.01	6.29	-49.2	-61.0	3.8	8.46e-01	0	42	104	0	68	14245
2026-01-20 05:45:03.47	3.73	6.47	-49.2	-61.0	3.8	8.46e-01	0	42	104	0	68	14251
2026-01-20 05:45:06.45	3.45	6.65	-49.2	-61.0	3.8	8.47e-01	0	42	104	0	68	14315
2026-01-20 05:45:09.50	3.16	6.84	-49.2	-61.0	3.8	8.46e-01	0	42	104	0	68	14279
2026-01-20 05:45:12.54	2.87	7.02	-49.2	-61.0	3.8	8.47e-01	0	42	104	0	68	14338
2026-01-20 05:45:15.52	2.58	7.21	-49.2	-60.9	3.8	8.46e-01	0	42	104	0	68	14208
2026-01-20 05:45:18.50	2.28	7.39	-49.2	-60.9	3.8	8.47e-01	0	42	104	0	68	14134
2026-01-20 05:45:21.48	1.98	7.58	-49.2	-60.9	3.8	8.46e-01	0	42	104	0	68	14104
2026-01-20 05:45:24.46	1.68	7.76	-49.2	-60.3	3.8	8.46e-01	0	42	104	0	68	13218
2026-01-20 05:45:27.45	1.37	7.95	-49.1	-59.4	3.8	8.46e-01	0	42	104	0	68	11845
2026-01-20 05:45:30.53	1.05	8.14	-49.1	-59.8	3.8	8.46e-01	0	42	104	0	68	12463
2026-01-20 05:45:33.54	0.73	8.33	-49.2	-60.6	3.8	8.46e-01	0	42	104	0	68	13592
2026-01-20 05:45:36.52	0.41	8.52	-48.7	-56.7	4.5	8.34e-01	0	42	0	0	68	8728
2026-01-20 05:45:39.50	0.08	8.70	-46.5	-50.2	9.6	2.03e-02	0	43	0	13631488	63	5487
2026-01-20 05:45:42.48	359.75	8.89	-44.2	-46.3	13.6	1.48e-05	0	43	0	35651584	59	4410
2026-01-20 05:45:45.46	359.42	9.08	-44.3	-46.5	13.4	1.10e-06	0	43	0	56623104	58	4767
2026-01-20 05:45:48.54	359.07	9.28	-40.4	-41.5	18.2	0.00e+00	0	42	0	77594624	51	4049
2026-01-20 05:45:51.39	358.74	9.46	-40.4	-41.6	18.2	0.00e+00	0	43	0	97517568	51	4065
2026-01-20 05:45:54.52	358.38	9.66	-40.3	-41.5	18.3	0.00e+00	0	43	0	120586240	51	4005
2026-01-20 05:45:57.36	358.04	9.84	-40.0	-41.2	18.5	0.00e+00	0	43	0	140509184	50	4120
2026-01-20 05:46:00.48	357.67	10.04	-39.9	-41.1	18.7	0.00e+00	0	43	0	163577856	50	4074
2026-01-20 05:46:03.38	357.32	10.23	-40.0	-41.3	18.5	0.00e+00	0	43	0	184549376	50	4147
2026-01-20 05:46:06.60	356.92	10.43	-39.8	-41.1	18.7	0.00e+00	0	43	0	207618048	50	4093
2026-01-20 05:46:09.43	356.57	10.62	-39.8	-41.1	18.8	0.00e+00	0	43	0	227540992	50	4057
2026-01-20 05:46:12.56	356.17	10.82	-39.6	-40.9	18.9	0.00e+00	0	43	0	250609664	50	3981
2026-01-20 05:46:15.40	355.81	11.00	-39.8	-41.1	18.8	0.00e+00	0	43	0	270532608	50	4060
2026-01-20 05:46:18.53	355.40	11.20	-39.6	-40.9	19.0	0.00e+00	0	43	0	293601280	49	4196
2026-01-20 05:46:21.37	355.03	11.39	-39.5	-40.8	19.1	0.00e+00	0	43	0	313524224	49	4151
2026-01-20 05:46:24.60	354.59	11.60	-39.6	-40.9	19.0	0.00e+00	0	43	0	337641472	49	4204
2026-01-20 05:46:27.56	354.19	11.79	-39.9	-41.1	18.7	0.00e+00	0	43	0	358612992	49	4340
2026-01-20 05:46:30.68	353.77	11.99	-39.9	-41.2	18.7	0.00e+00	0	43	0	381681664	49	4351
2026-01-20 05:46:33.70	353.34	12.19	-39.7	-40.9	19.0	0.00e+00	0	43	0	402653184	49	4216
2026-01-20 05:46:37.08	352.87	12.41	-39.6	-40.8	19.1	0.00e+00	0	43	0	427819008	49	4188
2026-01-20 05:46:39.97	352.45	12.60	-39.3	-40.5	19.4	0.00e+00	0	43	0	447741952	49	4014
2026-01-20 05:46:43.25	351.98	12.81	-39.1	-40.3	19.6	0.00e+00	0	43	0	471859200	48	4146
2026-01-20 05:46:45.96	351.58	12.99	-39.2	-40.4	19.5	0.00e+00	0	43	0	491782144	48	4218
2026-01-20 05:46:49.24	351.09	13.20	-39.5	-40.7	19.3	0.00e+00	0	43	0	514850816	48	4350
2026-01-20 05:46:52.16	350.65	13.39	-39.6	-40.7	19.3	0.00e+00	0	43	0	535822336	49	4122
2026-01-20 05:46:55.85	350.08	13.63	-39.5	-40.6	19.4	0.00e+00	0	43	0	563085312	49	4060
2026-01-20 05:46:58.74	349.63	13.81	-39.4	-40.5	19.5	0.00e+00	0	43	0	584056832	49	4011
2026-01-20 05:47:02.37	349.05	14.05	-39.1	-40.2	19.8	0.00e+00	0	43	0	610271232	49	3883
2026-01-20 05:47:05.10	348.62	14.22	-39.0	-40.1	19.8	0.00e+00	0	43	0	630194176	48	4097
2026-01-20 05:47:08.38	348.08	14.43	-39.0	-40.0	19.9	0.00e+00	0	43	0	653262848	48	4048
2026-01-20 05:47:11.10	347.63	14.61	-39.0	-40.0	19.9	0.00e+00	0	43	0	673185792	48	4035
2026-01-20 05:47:14.39	347.09	14.82	-38.8	-39.8	20.1	0.00e+00	0	43	0	697303040	48	3956
2026-01-20 05:47:17.10	346.63	14.99	-38.8	-39.8	20.1	0.00e+00	0	43	0	716177408	48	3947
2026-01-20 05:47:20.42	346.06	15.20	-38.7	-39.8	20.1	0.00e+00	0	43	0	740294656	48	3918
2026-01-20 05:47:23.25	345.57	15.38	-38.7	-39.7	20.2	0.00e+00	0	43	0	761266176	48	3904
2026-01-20 05:47:26.54	344.99	15.58	-38.8	-39.8	20.1	0.00e+00	0	43	0	784334848	48	3958
2026-01-20 05:47:29.42	344.47	15.76	-38.7	-39.8	20.2	0.00e+00	0	43	0	805306368	48	3932
2026-01-20 05:47:32.70	343.88	15.96	-38.7	-39.8	20.1	0.00e+00	0	43	0	829423616	48	3945
2026-01-20 05:47:35.40	343.39	16.13	-38.4	-39.5	20.2	0.00e+00	0	43	0	848297984	47	4012
2026-01-20 05:47:38.68	342.78	16.33	-38.5	-39.5	20.2	0.00e+00	0	43	0	872415232	47	4030
2026-01-20 05:47:41.38	342.27	16.49	-37.8	-38.8	20.8	0.00e+00	0	43	0	891289600	46	3945
2026-01-20 05:47:44.71	341.64	16.69	-37.7	-38.7	20.9	0.00e+00	0	43	0	915406848	46	3897
2026-01-20 05:47:47.43	341.12	16.86	-37.8	-38.7	20.9	0.00e+00	0	43	0	935329792	46	3900
2026-01-20 05:47:50.71	340.48	17.05	-37.9	-38.9	20.8	0.00e+00	0	43	0	959447040	46	3981
2026-01-20 05:47:53.46	339.94	17.21	-38.1	-39.1	20.5	0.00e+00	0	43	0	978321408	46	4095
2026-01-20 05:47:56.94	339.25	17.41	-37.8	-38.7	21.0	0.00e+00	0	43	0	1004535808	46	3884
2026-01-20 05:47:59.86	338.66	17.58	-37.7	-38.6	21.0	0.00e+00	0	43	0	1025507328	46	3846
2026-01-20 05:48:03.19	337.98	17.76	-37.6	-38.5	21.1	0.00e+00	0	44	0	1049624576	45	4028
2026-01-20 05:48:06.25	337.35	17.93	-37.5	-38.5	21.1	0.00e+00	0	43	0	1071644672	45	4013
2026-01-20 05:48:09.14	336.74	18.09	-37.6	-38.6	21.0	0.00e+00	0	43	0	1092616192	45	4059
2026-01-20 05:48:12.35	336.07	18.26	-37.8	-38.8	20.8	0.00e+00	0	43	0	1115684864	45	4189
2026-01-20 05:48:15.29	335.44	18.42	-37.9	-38.9	20.7	0.00e+00	0	43	0	1136656384	45	4231
2026-01-20 05:48:18.42	334.76	18.58	-37.7	-38.7	21.0	0.00e+00	0	43	0	1159725056	45	4126
2026-01-20 05:48:21.26	334.14	18.72	-37.5	-38.5	21.2	0.00e+00	0	44	0	1179648000	45	4006
2026-01-20 05:48:24.81	333.36	18.90	-37.1	-38.1	21.5	0.00e+00	0	43	0	1205862400	45	3845
2026-01-20 05:48:27.52	332.76	19.03	-37.1	-38.0	21.5	0.00e+00	0	43	0	1224736768	44	4035
2026-01-20 05:48:30.78	332.02	19.19	-37.3	-38.2	21.4	0.00e+00	0	43	0	1248854016	44	4102
2026-01-20 05:48:33.50	331.41	19.31	-37.5	-38.4	21.3	0.00e+00	0	44	0	1267728384	44	4209
2026-01-20 05:48:36.77	330.66	19.46	-37.6	-38.5	21.1	0.00e+00	0	43	0	1291845632	44	4270
2026-01-20 05:48:39.76	329.97	19.60	-37.4	-38.4	21.2	0.00e+00	0	44	0	1313865728	44	4225
2026-01-20 05:48:43.05	329.20	19.74	-37.2	-38.1	21.5	0.00e+00	0	43	0	1336934400	44	4083
2026-01-20 05:48:45.76	328.56	19.85	-37.1	-38.0	21.6	0.00e+00	0	44	0	1356857344	44	4033
2026-01-20 05:48:49.06	327.78	19.98	-37.0	-37.9	21.6	0.00e+00	0	43	0	1380974592	44	3999
2026-01-20 05:48:51.78	327.13	20.09	-37.1	-38.0	21.6	0.00e+00	0	43	0	1399848960	44	4021
2026-01-20 05:48:55.16	326.31	20.21	-37.1	-38.0	21.6	0.00e+00	0	44	0	1425014784	44	4015
2026-01-20 05:48:58.17	325.58	20.32	-36.8	-37.7	21.8	0.00e+00	0	43	0	1445986304	44	3884
2026-01-20 05:49:01.80	324.70	20.45	-36.8	-37.7	21.8	0.00e+00	0	44	0	1472200704	44	3880
2026-01-20 05:49:04.64	324.00	20.54	-36.7	-37.6	21.9	0.00e+00	0	43	0	1493172224	44	3826
2026-01-20 05:49:08.62	323.01	20.66	-36.5	-37.4	22.0	0.00e+00	0	43	0	1521483776	43	3971
2026-01-20 05:49:11.44	322.30	20.74	-36.6	-37.4	21.9	0.00e+00	0	44	0	1541406720	43	4000
2026-01-20 05:49:14.73	321.48	20.83	-36.6	-37.5	21.9	0.00e+00	0	43	0	1565523968	43	4041
2026-01-20 05:49:17.57	320.76	20.91	-36.5	-37.4	22.0	0.00e+00	0	44	0	1586495488	43	3971
2026-01-20 05:49:20.69	319.97	20.98	-36.5	-37.4	21.9	0.00e+00	0	43	0	1608515584	43	4004
2026-01-20 05:49:23.53	319.24	21.04	-36.6	-37.6	21.8	0.00e+00	0	43	0	1629487104	43	4059
2026-01-20 05:49:26.65	318.44	21.11	-36.9	-37.8	21.6	0.00e+00	0	44	0	1651507200	43	4187
2026-01-20 05:49:29.64	317.67	21.16	-36.5	-37.4	22.0	0.00e+00	0	43	0	1673527296	43	3974
2026-01-20 05:49:32.76	316.87	21.22	-36.5	-37.4	22.0	0.00e+00	0	44	0	1695547392	43	3970
2026-01-20 05:49:35.83	316.07	21.26	-36.6	-37.5	21.9	0.00e+00	0	44	0	1717567488	43	4023
2026-01-20 05:49:38.96	315.26	21.30	-36.6	-37.5	21.9	0.00e+00	0	43	0	1740636160	43	4009
2026-01-20 05:49:41.80	314.52	21.33	-36.8	-37.7	21.7	0.00e+00	0	44	0	1760559104	43	4111
2026-01-20 05:49:44.93	313.70	21.36	-36.7	-37.5	21.9	0.00e+00	0	43	0	1783627776	43	4043
2026-01-20 05:49:47.77	312.96	21.39	-36.5	-37.4	22.0	0.00e+00	0	43	0	1804599296	43	3981
2026-01-20 05:49:51.06	312.10	21.40	-36.5	-37.4	22.0	0.00e+00	0	44	0	1827667968	43	3978
2026-01-20 05:49:53.96	311.34	21.41	-36.6	-37.4	22.0	0.00e+00	0	43	0	1848639488	43	4001
2026-01-20 05:49:57.09	310.52	21.42	-36.5	-37.4	22.0	0.00e+00	0	44	0	1871708160	43	3987
2026-01-20 05:50:00.03	309.75	21.42	-36.5	-37.3	22.0	0.00e+00	0	43	0	1892679680	43	3949
2026-01-20 05:50:03.01	308.97	21.41	-36.4	-37.2	22.1	0.00e+00	0	44	0	1914699776	43	3904
2026-01-20 05:50:05.99	308.19	21.40	-36.4	-37.2	22.2	0.00e+00	0	43	0	1935671296	43	3897
2026-01-20 05:50:08.97	307.41	21.38	-36.4	-37.3	22.1	0.00e+00	0	44	0	1957691392	43	3937
2026-01-20 05:50:11.96	306.63	21.36	-36.6	-37.5	21.9	0.00e+00	0	44	0	1978662912	43	4020
2026-01-20 05:50:14.94	305.85	21.33	-36.6	-37.5	21.9	0.00e+00	0	44	0	2000683008	43	4006
2026-01-20 05:50:17.93	305.07	21.30	-36.4	-37.2	22.1	0.00e+00	0	44	0	2021654528	43	3898
2026-01-20 05:50:20.91	304.30	21.26	-36.7	-37.5	21.9	0.00e+00	0	44	0	2043674624	43	4038
2026-01-20 05:50:23.89	303.52	21.21	-36.6	-37.5	21.9	0.00e+00	0	44	0	2064646144	43	4027
2026-01-20 05:50:26.82	302.77	21.16	-36.5	-37.3	22.0	0.00e+00	0	44	0	2085617664	43	3958
2026-01-20 05:50:29.94	301.96	21.10	-36.5	-37.3	22.0	0.00e+00	0	44	0	2108686336	43	3957
2026-01-20 05:50:32.78	301.23	21.04	-36.8	-37.7	21.8	0.00e+00	0	44	0	2128609280	43	4103
2026-01-20 05:50:35.91	300.43	20.97	-36.7	-37.6	21.8	0.00e+00	0	44	0	2151677952	43	4058
2026-01-20 05:50:38.75	299.71	20.91	-36.6	-37.5	21.8	0.00e+00	0	43	0	2171600896	43	4032
2026-01-20 05:50:42.08	298.87	20.82	-36.6	-37.5	21.9	0.00e+00	0	44	0	2195718144	43	4016
2026-01-20 05:50:45.24	298.07	20.73	-36.6	-37.5	21.9	0.00e+00	0	44	0	2218786816	43	4032
2026-01-20 05:50:48.16	297.34	20.65	-36.7	-37.6	21.8	0.00e+00	0	44	0	2239758336	43	4052
2026-01-20 05:50:51.41	296.54	20.55	-36.7	-37.5	21.8	0.00e+00	0	44	0	2263875584	43	4050
2026-01-20 05:50:54.25	295.83	20.45	-36.7	-37.6	21.8	0.00e+00	0	44	0	2283798528	43	4069
2026-01-20 05:50:57.53	295.03	20.34	-36.6	-37.5	21.9	0.00e+00	0	44	0	2307915776	43	4017
2026-01-20 05:51:00.25	294.37	20.25	-36.7	-37.5	21.8	0.00e+00	0	43	0	2326790144	43	4050
2026-01-20 05:51:03.52	293.57	20.12	-36.9	-37.8	21.6	0.00e+00	0	44	0	2350907392	43	4158
2026-01-20 05:51:06.25	292.92	20.02	-37.0	-37.9	21.5	0.00e+00	0	44	0	2370830336	43	4236
2026-01-20 05:51:09.53	292.14	19.89	-36.9	-37.7	21.6	0.00e+00	0	44	0	2393899008	43	4140
2026-01-20 05:51:12.23	291.50	19.78	-36.8	-37.7	21.7	0.00e+00	0	44	0	2413821952	43	4099
2026-01-20 05:51:15.51	290.73	19.64	-36.7	-37.5	21.8	0.00e+00	0	44	0	2437939200	43	4045
2026-01-20 05:51:18.21	290.10	19.52	-36.7	-37.5	21.8	0.00e+00	0	44	0	2456813568	43	4047
2026-01-20 05:51:21.97	289.23	19.35	-36.7	-37.6	21.8	0.00e+00	0	44	0	2484076544	43	4075
2026-01-20 05:51:24.75	288.60	19.22	-36.8	-37.6	21.8	0.00e+00	0	43	0	2503999488	43	4084
2026-01-20 05:51:28.02	287.86	19.06	-36.9	-37.8	21.6	0.00e+00	0	44	0	2528116736	43	4158
2026-01-20 05:51:30.74	287.25	18.93	-36.8	-37.7	21.7	0.00e+00	0	44	0	2546991104	43	4127
2026-01-20 05:51:34.10	286.50	18.77	-36.9	-37.8	21.6	0.00e+00	0	44	0	2571108352	43	4168
2026-01-20 05:51:36.95	285.88	18.62	-36.9	-37.8	21.6	0.00e+00	0	44	0	2592079872	43	4153
2026-01-20 05:51:40.24	285.16	18.45	-36.9	-37.8	21.6	0.00e+00	0	44	0	2616197120	43	4179
2026-01-20 05:51:42.97	284.57	18.31	-37.1	-38.0	21.4	0.00e+00	0	44	0	2636120064	43	4254
2026-01-20 05:51:46.24	283.88	18.13	-37.5	-38.4	21.2	0.00e+00	0	44	0	2659188736	44	4212
2026-01-20 05:51:48.95	283.31	17.98	-37.3	-38.2	21.4	0.00e+00	0	44	0	2679111680	44	4105
2026-01-20 05:51:52.51	282.57	17.79	-37.2	-38.1	21.4	0.00e+00	0	43	0	2704277504	44	4084
2026-01-20 05:51:55.21	282.01	17.64	-37.4	-38.3	21.3	0.00e+00	0	43	0	2724200448	44	4147
2026-01-20 05:51:58.47	281.35	17.45	-37.7	-38.7	21.0	0.00e+00	0	44	0	2747269120	45	4099
2026-01-20 05:52:01.30	280.78	17.29	-37.8	-38.7	20.9	0.00e+00	0	43	0	2768240640	45	4134
2026-01-20 05:52:04.57	280.13	17.10	-37.8	-38.7	20.9	0.00e+00	0	44	0	2791309312	45	4127
2026-01-20 05:52:07.41	279.57	16.93	-37.8	-38.7	20.9	0.00e+00	0	44	0	2812280832	45	4130
2026-01-20 05:52:10.54	278.96	16.74	-37.7	-38.6	21.0	0.00e+00	0	44	0	2834300928	45	4068
2026-01-20 05:52:13.44	278.41	16.57	-37.8	-38.7	20.7	0.00e+00	0	44	0	2855272448	45	4144
2026-01-20 05:52:16.57	277.81	16.38	-37.8	-38.7	20.9	0.00e+00	0	44	0	2878341120	45	4128
2026-01-20 05:52:19.41	277.28	16.21	-37.9	-38.8	20.8	0.00e+00	0	44	0	2899312640	45	4189
2026-01-20 05:52:22.54	276.70	16.01	-37.9	-38.9	20.8	0.00e+00	0	44	0	2921332736	45	4199
2026-01-20 05:52:25.38	276.19	15.84	-37.9	-38.8	20.8	0.00e+00	0	44	0	2942304256	45	4191
2026-01-20 05:52:28.50	275.62	15.64	-38.0	-39.0	20.7	0.00e+00	0	44	0	2964324352	45	4252
2026-01-20 05:52:31.35	275.12	15.47	-38.1	-39.0	20.6	0.00e+00	0	44	0	2985295872	45	4290
2026-01-20 05:52:34.48	274.57	15.27	-38.3	-39.3	20.4	0.00e+00	0	44	0	3007315968	46	4154
2026-01-20 05:52:37.33	274.07	15.09	-38.1	-39.0	20.6	0.00e+00	0	44	0	3028287488	46	4037
2026-01-20 05:52:40.46	273.53	14.89	-38.1	-39.0	20.6	0.00e+00	0	44	0	3051356160	46	4042
2026-01-20 05:52:43.30	273.05	14.71	-38.2	-39.2	20.5	0.00e+00	0	44	0	3071279104	46	4099
2026-01-20 05:52:46.43	272.53	14.51	-38.3	-39.2	20.5	0.00e+00	0	44	0	3094347776	46	4119
2026-01-20 05:52:49.30	272.06	14.32	-38.4	-39.3	20.3	0.00e+00	0	44	0	3114270720	46	4187
2026-01-20 05:52:52.57	271.53	14.11	-38.4	-39.3	20.3	0.00e+00	0	44	0	3138387968	46	4186
2026-01-20 05:52:55.29	271.09	13.94	-38.5	-39.5	20.1	0.00e+00	0	43	0	3157262336	46	4264
2026-01-20 05:52:58.56	270.57	13.72	-38.8	-39.8	19.9	0.00e+00	0	44	0	3181379584	47	4149
2026-01-20 05:53:01.25	270.15	13.55	-38.8	-39.7	19.9	0.00e+00	0	44	0	3200253952	47	4140
2026-01-20 05:53:04.65	269.63	13.33	-38.6	-39.5	20.1	0.00e+00	0	44	0	3225419776	47	4034
2026-01-20 05:53:07.67	269.17	13.13	-38.6	-39.6	20.0	0.00e+00	0	44	0	3247439872	47	4079
2026-01-20 05:53:10.94	268.68	12.92	-38.9	-39.9	19.7	0.00e+00	0	44	0	3270508544	47	4229
2026-01-20 05:53:13.68	268.27	12.74	-38.9	-39.9	19.7	0.00e+00	0	44	0	3290431488	47	4216
2026-01-20 05:53:17.01	267.79	12.52	-38.8	-39.8	19.8	0.00e+00	0	44	0	3314548736	47	4163
2026-01-20 05:53:19.71	267.40	12.35	-38.8	-39.8	19.8	0.00e+00	0	44	0	3334471680	47	4156
2026-01-20 05:53:23.12	266.91	12.12	-38.9	-39.9	19.7	0.00e+00	0	44	0	3358588928	47	4214
2026-01-20 05:53:25.95	266.52	11.94	-38.8	-39.8	19.7	0.00e+00	0	44	0	3378511872	47	4170
2026-01-20 05:53:29.24	266.06	11.72	-38.8	-39.8	19.7	0.00e+00	0	43	0	3402629120	47	4169
2026-01-20 05:53:31.94	265.70	11.55	-38.8	-39.8	19.8	0.00e+00	0	44	0	3422552064	47	4172
2026-01-20 05:53:35.22	265.25	11.33	-49.9	-60.7	3.8	8.46e-01	0	44	104	3442475008	70	12372
2026-01-20 05:53:37.96	264.89	11.16	-46.9	-58.8	3.8	8.47e-01	0	44	104	3442475008	63	14716
2026-01-20 05:53:41.27	264.46	10.94	-46.9	-58.9	3.8	8.46e-01	0	44	104	3442475008	63	14917
2026-01-20 05:53:44.11	264.09	10.76	-46.9	-58.8	3.8	8.48e-01	0	44	104	3442475008	63	14877
2026-01-20 05:53:47.23	263.69	10.55	-46.9	-58.8	3.8	8.46e-01	0	44	104	3442475008	63	14738
2026-01-20 05:53:50.24	263.32	10.36	-46.9	-58.9	3.8	8.47e-01	0	44	104	3442475008	63	15029
2026-01-20 05:53:53.42	262.92	10.15	-46.9	-58.9	3.8	8.46e-01	0	44	104	3442475008	63	15013
2026-01-20 05:53:56.32	262.57	9.97	-46.9	-58.9	3.8	8.47e-01	0	44	104	3442475008	63	14910
2026-01-20 05:53:59.46	262.19	9.77	-46.9	-58.9	3.8	8.47e-01	0	44	104	3442475008	63	14935
2026-01-20 05:54:02.37	261.84	9.58	-46.9	-58.9	3.8	8.46e-01	0	44	104	3442475008	63	14973
2026-01-20 05:54:05.84	261.44	9.36	-46.9	-58.9	3.8	8.47e-01	0	44	104	3442475008	63	14907
2026-01-20 05:54:08.54	261.13	9.18	-46.9	-58.9	3.8	8.46e-01	0	44	104	3442475008	63	15020
2026-01-20 05:54:11.90	260.74	8.97	-46.9	-58.9	3.8	8.47e-01	0	44	104	3442475008	63	15009
2026-01-20 05:54:14.59	260.44	8.80	-46.9	-58.9	3.8	8.47e-01	0	44	104	3442475008	63	14927
2026-01-20 05:54:17.86	260.08	8.59	-46.9	-58.9	3.8	8.47e-01	0	44	104	3442475008	63	14949
2026-01-20 05:54:20.57	259.78	8.42	-46.9	-58.9	3.8	8.47e-01	0	44	104	3442475008	63	15012
2026-01-20 05:54:23.85	259.43	8.21	-46.9	-58.9	3.8	8.46e-01	0	44	104	3442475008	63	14911
2026-01-20 05:54:26.56	259.14	8.04	-46.9	-58.9	3.8	8.47e-01	0	44	104	3442475008	63	14952
2026-01-20 05:54:29.83	258.79	7.84	-46.9	-58.9	3.8	8.46e-01	0	44	104	3442475008	63	14924
2026-01-20 05:54:32.53	258.51	7.67	-46.9	-58.9	3.8	8.47e-01	0	44	104	3442475008	63	15008
2026-01-20 05:54:35.79	258.18	7.47	-46.9	-59.0	3.8	8.46e-01	0	44	104	3442475008	63	15061
2026-01-20 05:54:38.50	257.90	7.30	-46.9	-58.9	3.8	8.47e-01	0	44	104	3442475008	63	15019
2026-01-20 05:54:41.78	257.57	7.10	-46.9	-58.9	3.8	8.46e-01	0	44	104	3442475008	63	15039
2026-01-20 05:54:44.49	257.31	6.93	-46.9	-58.9	3.8	8.45e-01	0	44	104	3442475008	63	15024
2026-01-20 05:54:47.82	256.98	6.72	-46.9	-58.9	3.8	8.47e-01	0	44	104	3442475008	63	14951
2026-01-20 05:54:50.55	256.72	6.56	-46.9	-58.9	3.8	8.47e-01	0	44	104	3442475008	63	15012
2026-01-20 05:54:53.87	256.41	6.35	-46.8	-58.9	3.8	8.46e-01	0	44	104	3442475008	63	14987
2026-01-20 05:54:56.60	256.15	6.19	-46.9	-58.9	3.8	8.46e-01	0	44	104	3442475008	63	14900
2026-01-20 05:54:59.91	255.84	5.99	-46.9	-58.9	3.8	8.46e-01	0	44	104	3442475008	63	14898
2026-01-20 05:55:02.62	255.60	5.82	-46.9	-58.9	3.8	8.46e-01	0	44	104	3442475008	63	14954
2026-01-20 05:55:05.89	255.30	5.63	-46.9	-58.9	3.8	8.47e-01	0	44	104	3442475008	63	14915
2026-01-20 05:55:08.58	255.06	5.47	-46.9	-58.9	3.8	8.46e-01	0	44	104	3442475008	63	14911
2026-01-20 05:55:11.86	254.77	5.27	-46.9	-58.9	3.8	8.47e-01	0	44	104	3442475008	63	14899
2026-01-20 05:55:14.58	254.54	5.11	-46.9	-58.9	3.8	8.47e-01	0	44	104	3442475008	63	14954

#Closed at: 2026-01-20 05:55:17
#Recorded file [3442 MB]: D:/Data/31040_260120_084439.dat