passes_logs/2026/01/20/T1/T1__20260120_004154_AQUA_rec.log

#Pass ID: 20260120_004154_AQUA
#Satellite: AQUA
#Configuration: AQUA
#almurnet v.1.7.20251203
#Start time: 2026-01-20 00:41:55

#Version: 2.0.20230620
#Station: T1
#Location: 37.570604 lon 55.790049 lat
#TLE: 1 27424U 02022A   26019.27629806  .00001032  00000+0  21655-3 0  9990
#TLE: 2 27424  98.4090 345.7756 0001997  73.0764  31.8912 14.61830109261513

#Time	Az	El	Level	Level2	SNR	BER	BlckErr	Temp	State	Recorded	gain1	gain2
2026-01-20 00:41:55.83	22.45	5.09	-49.8	-71.5	3.8	7.46e-01	0	38	0	0	71	43336
2026-01-20 00:41:58.81	22.60	5.30	-49.8	-71.5	3.8	7.46e-01	0	38	104	0	70	45855
2026-01-20 00:42:01.79	22.75	5.52	-49.8	-71.5	3.8	7.49e-01	0	38	104	0	70	45599
2026-01-20 00:42:04.77	22.91	5.73	-49.8	-71.4	3.8	7.46e-01	0	38	104	0	70	45403
2026-01-20 00:42:07.75	23.07	5.95	-49.7	-71.5	3.8	7.47e-01	0	39	104	0	70	45526
2026-01-20 00:42:10.73	23.23	6.17	-49.7	-71.5	3.8	7.48e-01	0	39	104	0	70	45699
2026-01-20 00:42:13.71	23.39	6.40	-49.8	-71.5	3.8	7.45e-01	0	39	104	0	70	45627
2026-01-20 00:42:16.69	23.56	6.62	-49.7	-71.4	3.8	7.44e-01	0	39	104	0	70	45261
2026-01-20 00:42:19.67	23.72	6.85	-49.7	-71.4	3.8	7.44e-01	0	39	104	0	70	45114
2026-01-20 00:42:22.65	23.89	7.08	-49.7	-71.5	3.8	7.45e-01	0	39	104	0	70	45462
2026-01-20 00:42:25.63	24.07	7.31	-49.7	-71.4	3.8	7.46e-01	0	39	104	0	70	45389
2026-01-20 00:42:28.61	24.24	7.55	-49.7	-71.2	3.8	7.38e-01	0	39	104	0	70	44191
2026-01-20 00:42:31.59	24.42	7.78	-49.7	-71.1	3.8	7.47e-01	0	40	104	0	70	43473
2026-01-20 00:42:34.58	24.61	8.02	-49.7	-71.0	3.8	7.46e-01	0	40	104	0	70	43219
2026-01-20 00:42:37.56	24.79	8.26	-49.7	-71.0	3.8	7.48e-01	0	40	104	0	70	43147
2026-01-20 00:42:40.54	24.98	8.51	-49.6	-70.8	3.8	7.46e-01	0	40	104	0	70	42038
2026-01-20 00:42:43.55	25.17	8.75	-49.5	-63.0	7.1	6.60e-01	0	40	0	0	70	17223
2026-01-20 00:42:46.56	25.37	9.00	-48.8	-57.6	12.7	6.04e-01	0	40	0	5767168	69	9733
2026-01-20 00:42:49.55	25.57	9.26	-48.5	-56.8	13.0	6.06e-01	0	40	0	11534336	69	8939
2026-01-20 00:42:52.53	25.77	9.51	-45.0	-48.7	21.5	6.02e-01	0	40	0	16777216	61	5561
2026-01-20 00:42:55.52	25.98	9.77	-44.5	-47.8	22.4	6.02e-01	0	40	0	22544384	61	4986
2026-01-20 00:42:58.50	26.18	10.02	-44.5	-47.7	22.5	6.03e-01	0	40	0	27787264	60	5237
2026-01-20 00:43:01.48	26.40	10.29	-44.5	-47.5	22.7	6.00e-01	0	40	0	33554432	60	5137
2026-01-20 00:43:04.54	26.62	10.56	-44.6	-47.5	22.7	6.03e-01	0	40	0	39321600	60	5136
2026-01-20 00:43:07.38	26.83	10.81	-44.5	-47.4	22.9	6.03e-01	0	40	0	44564480	60	5045
2026-01-20 00:43:10.51	27.07	11.09	-44.4	-47.3	22.9	6.01e-01	0	40	0	50331648	60	5004
2026-01-20 00:43:13.35	27.28	11.35	-44.3	-47.1	23.1	6.03e-01	0	40	0	55574528	60	4918
2026-01-20 00:43:16.56	27.54	11.65	-44.3	-47.3	23.0	6.04e-01	0	40	0	61865984	60	5021
2026-01-20 00:43:19.40	27.76	11.92	-44.2	-47.1	23.1	6.05e-01	0	40	0	67108864	60	4917
2026-01-20 00:43:22.53	28.02	12.21	-44.0	-47.0	23.2	6.01e-01	0	41	0	72876032	60	4838
2026-01-20 00:43:25.37	28.25	12.49	-44.2	-47.1	23.2	6.03e-01	0	40	0	78118912	60	4926
2026-01-20 00:43:28.50	28.52	12.79	-44.1	-46.9	23.5	5.99e-01	0	40	0	84410368	59	5059
2026-01-20 00:43:31.39	28.77	13.07	-44.0	-46.9	23.5	6.02e-01	0	41	0	89653248	59	5048
2026-01-20 00:43:34.62	29.06	13.40	-44.1	-46.9	23.5	6.02e-01	0	41	0	95420416	59	5056
2026-01-20 00:43:37.55	29.32	13.69	-44.0	-46.7	23.6	6.07e-01	0	41	0	101187584	59	4969
2026-01-20 00:43:40.68	29.61	14.01	-44.2	-46.8	23.5	6.05e-01	0	40	0	106954752	59	5019
2026-01-20 00:43:43.60	29.88	14.31	-44.1	-46.7	23.7	6.02e-01	0	41	0	112721920	59	4969
2026-01-20 00:43:46.58	30.17	14.62	-44.2	-46.9	23.5	6.04e-01	0	41	0	117964800	59	5054
2026-01-20 00:43:49.57	30.46	14.94	-44.2	-46.8	23.6	6.01e-01	0	40	0	123731968	59	5015
2026-01-20 00:43:52.56	30.77	15.26	-44.1	-46.8	23.7	6.02e-01	0	41	0	129499136	59	4995
2026-01-20 00:43:55.54	31.07	15.58	-44.0	-46.6	23.8	6.03e-01	0	41	0	134742016	59	4926
2026-01-20 00:43:58.52	31.38	15.91	-43.7	-46.4	23.9	6.07e-01	0	40	0	140509184	59	4786
2026-01-20 00:44:01.48	31.70	16.23	-43.6	-46.2	24.1	6.05e-01	0	40	0	146276352	59	4705
2026-01-20 00:44:04.47	32.03	16.57	-43.8	-46.5	23.9	6.03e-01	0	41	0	151519232	59	4827
2026-01-20 00:44:07.49	32.37	16.92	-43.8	-46.4	24.0	6.05e-01	0	41	0	157286400	59	4791
2026-01-20 00:44:10.41	32.71	17.25	-43.8	-46.4	23.9	6.01e-01	0	40	0	162529280	59	4809
2026-01-20 00:44:13.54	33.07	17.62	-43.8	-46.5	24.0	6.02e-01	0	41	0	168820736	59	4826
2026-01-20 00:44:16.38	33.42	17.96	-43.6	-46.4	24.0	6.03e-01	0	41	0	174063616	59	4792
2026-01-20 00:44:19.51	33.80	18.33	-43.6	-46.4	24.0	6.02e-01	0	41	0	179830784	59	4783
2026-01-20 00:44:22.36	34.16	18.68	-43.8	-46.5	23.7	5.99e-01	0	41	0	185073664	59	4815
2026-01-20 00:44:25.59	34.58	19.08	-43.9	-46.4	24.0	6.04e-01	0	41	0	191365120	59	4807
2026-01-20 00:44:28.43	34.96	19.43	-43.9	-46.4	24.1	6.04e-01	0	41	0	196608000	59	4776
2026-01-20 00:44:31.56	35.39	19.83	-43.9	-46.5	24.0	6.03e-01	0	41	0	202375168	59	4822
2026-01-20 00:44:34.40	35.79	20.19	-44.0	-46.6	23.8	6.00e-01	0	41	0	207618048	59	4887
2026-01-20 00:44:37.53	36.24	20.60	-44.1	-46.6	23.9	6.03e-01	0	41	0	213385216	59	4895
2026-01-20 00:44:40.37	36.66	20.97	-44.1	-46.7	23.8	6.05e-01	0	41	0	219152384	59	4950
2026-01-20 00:44:43.63	37.15	21.41	-43.9	-46.5	24.0	6.03e-01	0	41	0	224919552	59	4842
2026-01-20 00:44:46.47	37.59	21.79	-44.0	-46.6	23.9	6.04e-01	0	41	0	230162432	59	4882
2026-01-20 00:44:49.60	38.09	22.22	-43.9	-46.6	23.9	6.02e-01	0	41	0	236453888	59	4903
2026-01-20 00:44:52.62	38.59	22.64	-44.1	-46.7	23.9	6.01e-01	0	41	0	241696768	59	4939
2026-01-20 00:44:55.96	39.15	23.11	-44.1	-46.7	23.8	6.02e-01	0	41	0	247988224	59	4969
2026-01-20 00:44:58.93	39.67	23.54	-44.0	-46.6	24.0	6.06e-01	0	41	0	253755392	59	4875
2026-01-20 00:45:02.22	40.26	24.01	-44.1	-46.6	23.9	6.02e-01	0	41	0	260046848	59	4896
2026-01-20 00:45:04.93	40.76	24.41	-44.0	-46.5	24.0	6.00e-01	0	41	0	264765440	59	4816
2026-01-20 00:45:08.21	41.39	24.89	-44.1	-46.7	23.9	6.02e-01	0	41	0	271056896	59	4941
2026-01-20 00:45:11.00	41.93	25.31	-44.1	-46.6	23.9	6.04e-01	0	41	0	276299776	59	4900
2026-01-20 00:45:14.13	42.56	25.79	-44.1	-46.6	23.9	6.02e-01	0	41	0	282066944	59	4916
2026-01-20 00:45:17.34	43.23	26.28	-44.2	-46.7	23.8	6.05e-01	0	41	0	288358400	59	4973
2026-01-20 00:45:20.18	43.84	26.72	-44.1	-46.7	23.9	6.05e-01	0	41	0	293601280	59	4948
2026-01-20 00:45:23.31	44.53	27.22	-44.1	-46.6	24.0	6.03e-01	0	41	0	299368448	59	4882
2026-01-20 00:45:26.16	45.18	27.67	-44.2	-46.7	23.9	6.04e-01	0	41	0	304611328	59	4930
2026-01-20 00:45:29.49	45.96	28.20	-44.0	-46.5	24.0	6.04e-01	0	41	0	310902784	59	4847
2026-01-20 00:45:32.22	46.62	28.64	-44.2	-46.6	23.9	6.01e-01	0	41	0	316145664	59	4923
2026-01-20 00:45:35.49	47.43	29.18	-44.1	-46.6	24.0	6.01e-01	0	41	0	322437120	59	4893
2026-01-20 00:45:38.21	48.13	29.63	-44.1	-46.5	24.0	6.02e-01	0	41	0	327155712	59	4839
2026-01-20 00:45:41.57	49.03	30.18	-44.2	-46.6	24.0	6.04e-01	0	41	0	333447168	59	4907
2026-01-20 00:45:44.27	49.77	30.64	-43.9	-46.3	24.2	6.03e-01	0	41	0	338690048	59	4753
2026-01-20 00:45:47.65	50.72	31.20	-44.2	-46.7	23.9	6.05e-01	0	41	0	344981504	59	4931
2026-01-20 00:45:50.71	51.62	31.72	-44.1	-46.6	24.0	6.03e-01	0	41	0	350748672	59	4897
2026-01-20 00:45:53.56	52.48	32.20	-44.1	-46.7	23.9	6.02e-01	0	41	0	355991552	59	4949
2026-01-20 00:45:56.69	53.46	32.74	-44.5	-47.0	23.7	6.01e-01	0	41	0	362283008	59	5129
2026-01-20 00:45:59.66	54.42	33.24	-44.3	-46.8	23.8	6.05e-01	0	41	0	367525888	59	5025
2026-01-20 00:46:03.02	55.54	33.82	-44.4	-46.9	23.7	6.05e-01	0	41	0	373817344	59	5073
2026-01-20 00:46:05.71	56.47	34.28	-44.3	-46.8	23.8	6.01e-01	0	41	0	379060224	59	5037
2026-01-20 00:46:09.23	57.72	34.87	-44.4	-46.9	23.7	6.03e-01	0	41	0	385875968	59	5094
2026-01-20 00:46:11.94	58.72	35.33	-44.4	-46.9	23.7	6.03e-01	0	41	0	390594560	59	5098
2026-01-20 00:46:15.24	59.97	35.89	-44.5	-47.0	23.6	6.03e-01	0	41	0	396886016	59	5129
2026-01-20 00:46:17.95	61.03	36.34	-44.4	-46.9	23.7	6.06e-01	0	41	0	402128896	59	5075
2026-01-20 00:46:21.23	62.36	36.88	-44.6	-47.1	23.5	6.02e-01	0	41	0	407896064	59	5193
2026-01-20 00:46:24.11	63.56	37.35	-44.3	-46.8	23.8	6.00e-01	0	41	0	413663232	59	5031
2026-01-20 00:46:27.24	64.91	37.85	-44.6	-47.1	23.5	6.06e-01	0	41	0	419430400	59	5196
2026-01-20 00:46:30.08	66.16	38.30	-44.4	-46.9	23.5	6.03e-01	0	41	0	424673280	59	5044
2026-01-20 00:46:33.29	67.63	38.79	-44.2	-46.7	23.9	6.02e-01	0	41	0	430964736	59	4948
2026-01-20 00:46:36.16	68.97	39.22	-44.2	-46.7	23.9	6.02e-01	0	41	0	436207616	59	4954
2026-01-20 00:46:39.72	70.69	39.74	-44.3	-46.8	23.9	6.05e-01	0	41	0	442499072	59	4996
2026-01-20 00:46:42.43	72.04	40.12	-44.0	-46.4	24.2	6.03e-01	0	41	0	447741952	59	4791
2026-01-20 00:46:45.70	73.71	40.56	-43.8	-46.3	24.3	6.05e-01	0	41	0	454033408	59	4715
2026-01-20 00:46:48.42	75.13	40.91	-43.6	-46.0	24.5	6.04e-01	0	41	0	459276288	59	4573
2026-01-20 00:46:51.74	76.90	41.31	-44.1	-46.6	24.1	6.02e-01	0	41	0	465567744	59	4887
2026-01-20 00:46:54.53	78.43	41.63	-43.8	-46.2	24.4	6.04e-01	0	41	0	470286336	59	4675
2026-01-20 00:46:57.86	80.29	41.99	-43.9	-46.4	24.2	6.03e-01	0	41	0	476577792	59	4773
2026-01-20 00:47:00.87	82.01	42.28	-43.5	-45.9	24.7	6.00e-01	0	41	0	482344960	59	4506
2026-01-20 00:47:04.24	83.97	42.58	-43.5	-46.0	24.5	6.03e-01	0	41	0	488636416	58	4842
2026-01-20 00:47:07.23	85.74	42.82	-43.6	-46.0	24.5	6.07e-01	0	41	0	494403584	58	4858
2026-01-20 00:47:10.20	87.52	43.03	-43.6	-46.1	24.5	6.03e-01	0	41	0	500170752	58	4888
2026-01-20 00:47:13.18	89.33	43.20	-43.4	-45.8	24.7	6.03e-01	0	41	0	505413632	58	4728
2026-01-20 00:47:16.16	91.16	43.35	-43.6	-46.0	24.5	6.04e-01	0	41	0	511180800	58	4863
2026-01-20 00:47:19.14	93.00	43.47	-43.6	-46.1	24.5	6.04e-01	0	41	0	516947968	58	4882
2026-01-20 00:47:22.13	94.86	43.55	-43.6	-46.0	24.6	6.06e-01	0	41	0	522190848	58	4851
2026-01-20 00:47:25.17	96.76	43.61	-43.6	-46.0	24.5	6.06e-01	0	41	0	527958016	58	4820
2026-01-20 00:47:28.26	98.70	43.63	-43.7	-46.1	24.5	6.03e-01	0	41	0	533725184	58	4886
2026-01-20 00:47:31.15	100.51	43.61	-43.9	-46.3	24.2	6.03e-01	0	41	0	538968064	58	5039
2026-01-20 00:47:34.63	102.69	43.55	-43.7	-46.1	24.4	6.02e-01	0	41	0	545783808	58	4909
2026-01-20 00:47:37.45	104.44	43.47	-43.8	-46.3	24.3	6.03e-01	0	41	0	551026688	58	5023
2026-01-20 00:47:40.85	106.55	43.34	-43.8	-46.2	24.3	6.04e-01	0	41	0	557318144	58	4948
2026-01-20 00:47:43.56	108.21	43.20	-44.0	-46.4	24.2	6.01e-01	0	41	0	562561024	58	5098
2026-01-20 00:47:46.85	110.21	43.00	-43.8	-46.2	24.4	6.01e-01	0	41	0	568852480	58	4945
2026-01-20 00:47:49.57	111.84	42.81	-44.1	-46.5	24.1	6.05e-01	0	41	0	573571072	59	4834
2026-01-20 00:47:52.85	113.78	42.55	-44.0	-46.5	24.2	6.03e-01	0	41	0	579862528	59	4822
2026-01-20 00:47:55.63	115.40	42.30	-44.1	-46.6	24.0	6.01e-01	0	41	0	585105408	59	4873
2026-01-20 00:47:58.83	117.23	41.99	-44.0	-46.4	24.2	6.02e-01	0	41	0	590872576	59	4808
2026-01-20 00:48:01.72	118.85	41.68	-44.2	-46.6	24.0	6.05e-01	0	41	0	596639744	59	4918
2026-01-20 00:48:04.98	120.64	41.31	-44.2	-46.6	24.0	6.06e-01	0	41	0	602406912	59	4921
2026-01-20 00:48:07.82	122.17	40.96	-44.4	-47.0	23.7	6.04e-01	0	41	0	608174080	59	5115
2026-01-20 00:48:11.14	123.91	40.54	-44.4	-46.9	23.8	6.03e-01	0	41	0	613941248	59	5071
2026-01-20 00:48:14.27	125.51	40.11	-44.3	-46.8	23.9	6.03e-01	0	41	0	620232704	59	4998
2026-01-20 00:48:17.14	126.94	39.71	-44.4	-46.9	23.7	6.03e-01	0	41	0	625475584	59	5096
2026-01-20 00:48:20.27	128.46	39.25	-44.5	-47.0	23.7	6.03e-01	0	41	0	631242752	59	5142
2026-01-20 00:48:23.19	129.83	38.82	-44.5	-47.1	23.5	6.03e-01	0	41	0	637009920	60	4907
2026-01-20 00:48:26.46	131.33	38.31	-44.4	-46.9	23.7	6.04e-01	0	41	0	642777088	60	4797
2026-01-20 00:48:29.16	132.53	37.88	-44.2	-46.7	23.9	6.05e-01	0	41	0	648019968	60	4678
2026-01-20 00:48:32.44	133.95	37.36	-44.2	-46.7	23.9	6.01e-01	0	41	0	654311424	59	4944
2026-01-20 00:48:35.14	135.08	36.92	-44.1	-46.6	24.1	6.02e-01	0	41	0	659030016	59	4872
2026-01-20 00:48:38.45	136.43	36.37	-43.9	-46.4	24.2	6.05e-01	0	42	0	665321472	59	4803
2026-01-20 00:48:41.26	137.54	35.90	-43.9	-46.4	24.2	6.03e-01	0	41	0	670564352	59	4808
2026-01-20 00:48:44.61	138.82	35.33	-43.6	-45.9	24.6	6.02e-01	0	41	0	676855808	59	4544
2026-01-20 00:48:47.69	139.95	34.81	-43.3	-45.6	24.8	6.00e-01	0	41	0	682622976	58	4640
2026-01-20 00:48:50.81	141.07	34.27	-43.3	-45.6	24.9	6.01e-01	0	42	0	688390144	58	4639
2026-01-20 00:48:53.66	142.05	33.78	-43.2	-45.4	25.0	6.05e-01	0	41	0	693633024	58	4545
2026-01-20 00:48:56.89	143.13	33.23	-43.1	-45.4	25.0	6.02e-01	0	41	0	699924480	58	4530
2026-01-20 00:48:59.82	144.08	32.73	-43.0	-45.3	25.1	6.04e-01	0	41	0	705691648	58	4460
2026-01-20 00:49:02.94	145.06	32.19	-42.9	-45.1	25.3	6.02e-01	0	41	0	711458816	57	4648
2026-01-20 00:49:05.79	145.93	31.71	-42.9	-45.2	25.2	6.01e-01	0	41	0	716701696	57	4658
2026-01-20 00:49:08.91	146.85	31.17	-42.8	-45.0	25.4	5.99e-01	0	41	0	722468864	57	4590
2026-01-20 00:49:11.76	147.66	30.69	-42.7	-44.9	25.4	6.05e-01	0	41	0	727711744	57	4520
2026-01-20 00:49:14.92	148.53	30.16	-43.0	-45.4	25.0	6.04e-01	0	41	0	734003200	57	4768
2026-01-20 00:49:17.84	149.32	29.67	-42.9	-45.3	25.1	6.02e-01	0	41	0	739246080	57	4721
2026-01-20 00:49:21.06	150.15	29.14	-43.0	-45.3	25.1	6.03e-01	0	42	0	745013248	57	4727
2026-01-20 00:49:23.91	150.87	28.67	-43.1	-45.4	25.0	6.03e-01	0	41	0	750780416	57	4804
2026-01-20 00:49:27.03	151.63	28.16	-42.9	-45.3	25.1	6.03e-01	0	41	0	756547584	57	4736
2026-01-20 00:49:29.88	152.30	27.70	-42.9	-45.4	25.0	6.02e-01	0	41	0	761790464	57	4793
2026-01-20 00:49:33.01	153.02	27.20	-43.3	-45.8	24.7	6.04e-01	0	41	0	767557632	57	5013
2026-01-20 00:49:35.85	153.65	26.75	-43.4	-45.9	24.6	6.03e-01	0	41	0	772800512	57	5053
2026-01-20 00:49:39.05	154.34	26.25	-43.5	-45.9	24.5	6.04e-01	0	42	0	779091968	57	5100
2026-01-20 00:49:41.89	154.93	25.81	-43.4	-45.7	24.7	6.02e-01	0	42	0	784334848	57	4982
2026-01-20 00:49:45.02	155.56	25.33	-43.5	-45.8	24.6	6.02e-01	0	42	0	790102016	57	5024
2026-01-20 00:49:47.86	156.12	24.90	-43.5	-45.9	24.6	6.02e-01	0	42	0	795344896	57	5043
2026-01-20 00:49:51.00	156.73	24.43	-43.6	-46.0	24.5	6.04e-01	0	42	0	801636352	57	5115
2026-01-20 00:49:53.85	157.26	24.01	-43.7	-46.1	24.3	6.02e-01	0	42	0	806879232	58	4917
2026-01-20 00:49:57.12	157.85	23.53	-43.7	-46.1	24.4	6.03e-01	0	41	0	813170688	58	4906
2026-01-20 00:49:59.87	158.33	23.13	-43.8	-46.2	24.3	6.01e-01	0	41	0	817889280	58	4966
2026-01-20 00:50:03.14	158.89	22.67	-43.7	-46.1	24.3	6.04e-01	0	41	0	824180736	58	4898
2026-01-20 00:50:06.06	159.37	22.26	-43.7	-46.1	24.3	6.05e-01	0	41	0	829423616	58	4906
2026-01-20 00:50:09.16	159.87	21.83	-43.7	-46.1	24.3	6.02e-01	0	41	0	835190784	58	4901
2026-01-20 00:50:12.33	160.37	21.39	-43.6	-46.2	24.2	6.05e-01	0	41	0	841482240	58	4944
2026-01-20 00:50:15.31	160.82	20.99	-43.7	-46.2	24.2	6.01e-01	0	41	0	846725120	58	4967
2026-01-20 00:50:18.30	161.27	20.60	-43.7	-46.1	24.3	6.02e-01	0	41	0	852492288	58	4876
2026-01-20 00:50:21.28	161.70	20.20	-43.5	-45.9	24.4	6.03e-01	0	41	0	858259456	58	4814
2026-01-20 00:50:24.27	162.12	19.82	-43.4	-45.8	24.5	6.04e-01	0	41	0	864026624	58	4746
2026-01-20 00:50:27.38	162.55	19.42	-43.2	-45.7	24.7	6.02e-01	0	41	0	869793792	58	4653
2026-01-20 00:50:30.30	162.94	19.05	-43.3	-45.7	24.6	6.05e-01	0	41	0	875036672	58	4695
2026-01-20 00:50:33.59	163.37	18.64	-43.4	-45.8	24.5	6.02e-01	0	41	0	881328128	58	4743
2026-01-20 00:50:36.29	163.71	18.31	-43.4	-45.8	24.5	6.02e-01	0	42	0	886571008	58	4713
2026-01-20 00:50:39.59	164.12	17.91	-43.2	-45.6	24.7	6.05e-01	0	41	0	892338176	58	4608
2026-01-20 00:50:42.43	164.47	17.57	-43.2	-45.7	24.6	6.02e-01	0	41	0	898105344	58	4673
2026-01-20 00:50:45.56	164.84	17.20	-43.2	-45.7	24.6	6.01e-01	0	42	0	903872512	58	4664
2026-01-20 00:50:48.41	165.17	16.87	-43.3	-45.9	24.5	6.03e-01	0	42	0	909115392	58	4760
2026-01-20 00:50:51.66	165.53	16.49	-43.4	-45.9	24.4	6.02e-01	0	42	0	914882560	58	4781
2026-01-20 00:50:54.53	165.85	16.17	-43.2	-45.6	24.6	6.04e-01	0	41	0	920649728	58	4651
2026-01-20 00:50:57.66	166.18	15.82	-43.3	-45.8	24.5	6.03e-01	0	41	0	926416896	58	4712
2026-01-20 00:51:00.65	166.50	15.49	-43.3	-45.7	24.5	6.02e-01	0	42	0	932184064	58	4681
2026-01-20 00:51:04.14	166.86	15.11	-43.3	-45.7	24.5	6.04e-01	0	42	0	938475520	58	4705
2026-01-20 00:51:06.92	167.13	14.81	-43.4	-45.9	24.3	6.05e-01	0	42	0	943718400	58	4809
2026-01-20 00:51:10.15	167.45	14.47	-43.4	-46.0	24.2	6.05e-01	0	42	0	950009856	58	4861
2026-01-20 00:51:13.30	167.75	14.14	-43.5	-46.1	24.1	6.05e-01	0	42	0	955777024	58	4886
2026-01-20 00:51:16.20	168.02	13.84	-43.4	-46.0	24.2	6.02e-01	0	41	0	961019904	58	4866
2026-01-20 00:51:19.47	168.32	13.50	-43.4	-46.0	24.1	6.05e-01	0	41	0	967311360	58	4864
2026-01-20 00:51:22.37	168.58	13.21	-43.5	-46.0	24.2	6.02e-01	0	41	0	972554240	58	4862
2026-01-20 00:51:25.77	168.88	12.87	-43.5	-46.0	24.2	6.02e-01	0	42	0	979369984	58	4837
2026-01-20 00:51:28.53	169.12	12.60	-43.5	-46.1	24.1	6.07e-01	0	41	0	984088576	58	4890
2026-01-20 00:51:31.80	169.39	12.28	-43.5	-46.2	24.0	6.00e-01	0	41	0	990380032	58	4927
2026-01-20 00:51:34.51	169.61	12.02	-43.5	-46.2	24.0	6.06e-01	0	42	0	995622912	58	4947
2026-01-20 00:51:37.80	169.88	11.71	-43.5	-46.3	23.9	6.03e-01	0	41	0	1001390080	58	5035
2026-01-20 00:51:40.61	170.10	11.44	-43.3	-46.4	23.8	6.02e-01	0	42	0	1007157248	58	5065
2026-01-20 00:51:44.13	170.37	11.11	-43.0	-46.6	23.6	6.03e-01	0	42	0	1013448704	57	5472
2026-01-20 00:51:46.88	170.58	10.86	-42.8	-46.5	23.7	6.04e-01	0	42	0	1018691584	57	5403
2026-01-20 00:51:50.10	170.82	10.57	-42.9	-46.6	23.5	6.04e-01	0	42	0	1024458752	57	5485
2026-01-20 00:51:52.94	171.03	10.31	-42.9	-46.6	23.4	6.03e-01	0	42	0	1030225920	57	5518
2026-01-20 00:51:56.06	171.25	10.04	-42.9	-46.7	23.4	6.02e-01	0	42	0	1035993088	57	5531
2026-01-20 00:51:59.33	171.48	9.75	-43.0	-46.8	23.3	6.01e-01	0	42	0	1042284544	57	5646
2026-01-20 00:52:02.52	171.70	9.47	-43.0	-46.8	23.3	6.06e-01	0	42	0	1048051712	57	5635
2026-01-20 00:52:05.36	171.89	9.23	-43.0	-46.9	23.1	6.01e-01	0	41	0	1053294592	57	5664
2026-01-20 00:52:08.49	172.10	8.96	-43.0	-47.2	23.0	6.02e-01	0	41	0	1059061760	57	5882
2026-01-20 00:52:11.33	172.29	8.72	-51.1	-71.5	3.8	7.46e-01	0	42	104	1060110336	72	40637
2026-01-20 00:52:14.61	172.50	8.45	-52.0	-72.1	3.8	7.46e-01	0	42	104	1060110336	74	38874
2026-01-20 00:52:17.51	172.68	8.21	-51.9	-72.2	3.8	7.48e-01	0	42	104	1060110336	75	36985
2026-01-20 00:52:20.68	172.88	7.95	-52.1	-72.2	3.8	7.47e-01	0	42	104	1060110336	75	37153
2026-01-20 00:52:23.52	173.05	7.72	-52.3	-72.2	3.8	7.47e-01	0	42	104	1060110336	75	37129
2026-01-20 00:52:26.64	173.23	7.48	-51.8	-72.2	3.8	7.44e-01	0	42	104	1060110336	75	37222
2026-01-20 00:52:29.48	173.40	7.25	-51.9	-72.2	3.8	7.46e-01	0	42	104	1060110336	74	39439
2026-01-20 00:52:32.60	173.58	7.01	-52.3	-72.2	3.8	7.48e-01	0	42	104	1060110336	75	37272
2026-01-20 00:52:35.47	173.74	6.78	-51.1	-72.2	3.8	7.45e-01	0	42	104	1060110336	74	39557
2026-01-20 00:52:38.67	173.92	6.54	-51.3	-72.2	3.8	7.49e-01	0	42	104	1060110336	74	39223
2026-01-20 00:52:41.51	174.08	6.32	-51.3	-72.2	3.8	7.47e-01	0	42	104	1060110336	74	39227
2026-01-20 00:52:44.64	174.25	6.08	-51.3	-72.2	3.8	7.48e-01	0	42	104	1060110336	74	39155
2026-01-20 00:52:47.47	174.40	5.87	-51.3	-72.1	3.8	7.44e-01	0	42	104	1060110336	74	39035
2026-01-20 00:52:50.59	174.56	5.64	-51.3	-72.2	3.8	7.45e-01	0	42	104	1060110336	74	39139
2026-01-20 00:52:53.43	174.71	5.43	-51.3	-72.1	3.8	7.47e-01	0	42	104	1060110336	74	39090
2026-01-20 00:52:56.55	174.87	5.20	-51.3	-72.1	3.8	7.45e-01	0	42	104	1060110336	74	39066
2026-01-20 00:52:59.39	175.01	4.99	-51.3	-72.1	3.8	7.46e-01	0	42	104	1060110336	74	39043

#Closed at: 2026-01-20 00:53:00
#Recorded file [1060 MB]: D:/Data/31040_260120_034155.dat