passes_logs/2026/01/20/T1/T1__20260120_012207_SUOMI_NPP_rec.log

#Pass ID: 20260120_012207_SUOMI NPP
#Satellite: SUOMI NPP
#Configuration: NPP
#almurnet v.1.7.20251203
#Start time: 2026-01-20 01:22:09

#Version: 2.0.20230620
#Station: T1
#Location: 37.570604 lon 55.790049 lat
#TLE: 1 37849U 11061A   26019.26265094  .00000081  00000+0  59609-4 0  9993
#TLE: 2 37849  98.7817 321.2746 0002356  56.2510 303.8890 14.19526363737315

#Time	Az	El	Level	Level2	SNR	BER	BlckErr	Temp	State	Recorded	gain1	gain2
2026-01-20 01:22:09.99	6.82	5.14	-49.4	-65.4	3.8	1.49e+00	0	40	0	0	69	23875
2026-01-20 01:22:12.97	6.59	5.33	-48.9	-65.3	3.8	1.49e+00	0	40	104	0	69	23757
2026-01-20 01:22:15.95	6.36	5.51	-48.9	-65.3	3.8	1.49e+00	0	40	104	0	69	23754
2026-01-20 01:22:18.93	6.12	5.70	-48.9	-65.3	3.8	1.49e+00	0	41	104	0	69	23824
2026-01-20 01:22:21.91	5.88	5.88	-48.9	-65.3	3.8	1.49e+00	0	41	104	0	69	23754
2026-01-20 01:22:24.89	5.64	6.07	-48.9	-65.3	3.8	1.49e+00	0	41	104	0	69	23701
2026-01-20 01:22:27.87	5.39	6.26	-48.9	-65.3	3.8	1.49e+00	0	41	104	0	69	23729
2026-01-20 01:22:30.85	5.14	6.45	-48.9	-65.2	3.8	1.49e+00	0	41	104	0	69	23538
2026-01-20 01:22:33.83	4.88	6.64	-48.9	-65.3	3.8	1.49e+00	0	41	104	0	69	23787
2026-01-20 01:22:36.81	4.63	6.83	-48.9	-65.4	3.8	1.49e+00	0	41	104	0	69	23895
2026-01-20 01:22:39.79	4.37	7.02	-48.9	-65.3	3.8	1.49e+00	0	41	104	0	69	23643
2026-01-20 01:22:42.77	4.10	7.21	-48.9	-65.2	3.8	1.49e+00	0	41	104	0	69	23437
2026-01-20 01:22:45.75	3.83	7.40	-48.9	-65.0	3.8	1.49e+00	0	41	104	0	69	22828
2026-01-20 01:22:48.73	3.56	7.60	-48.8	-64.5	3.8	1.49e+00	0	41	104	0	69	21546
2026-01-20 01:22:51.71	3.28	7.79	-48.8	-64.1	3.8	1.49e+00	0	41	104	0	69	20599
2026-01-20 01:22:54.69	3.00	7.99	-48.9	-64.6	3.8	1.49e+00	0	42	104	0	69	21769
2026-01-20 01:22:57.67	2.72	8.19	-48.9	-65.2	3.8	1.49e+00	0	42	104	0	69	23472
2026-01-20 01:23:00.65	2.43	8.38	-48.7	-63.0	3.8	1.49e+00	0	42	104	0	69	18142
2026-01-20 01:23:03.63	2.14	8.58	-48.1	-57.0	7.0	2.84e-01	0	42	0	3145728	68	9608
2026-01-20 01:23:06.61	1.85	8.78	-47.2	-53.7	10.1	1.01e-02	0	42	0	9437184	66	7449
2026-01-20 01:23:09.59	1.55	8.98	-47.0	-53.3	10.4	3.34e-03	0	42	0	14680064	65	7512
2026-01-20 01:23:12.58	1.24	9.18	-46.3	-52.2	11.4	6.00e-01	0	42	0	19922944	64	6997
2026-01-20 01:23:15.57	0.93	9.38	-45.1	-50.1	13.7	2.47e-03	0	42	0	26214400	62	6134
2026-01-20 01:23:18.56	0.62	9.59	-44.5	-48.5	15.4	0.00e+00	0	42	0	31457280	60	5760
2026-01-20 01:23:21.54	0.30	9.79	-44.8	-48.8	15.1	0.00e+00	0	42	0	36700160	60	5938
2026-01-20 01:23:24.52	359.97	9.99	-44.7	-48.4	15.6	0.00e+00	0	42	0	42991616	60	5694
2026-01-20 01:23:27.50	359.65	10.20	-44.7	-48.3	15.5	0.00e+00	0	42	0	48234496	60	5642
2026-01-20 01:23:30.49	359.31	10.41	-44.8	-48.3	15.6	0.00e+00	0	42	0	53477376	60	5650
2026-01-20 01:23:33.48	358.98	10.61	-44.7	-48.3	15.6	0.00e+00	0	42	0	59768832	60	5638
2026-01-20 01:23:36.46	358.63	10.82	-44.7	-48.4	15.6	0.00e+00	0	42	0	65011712	60	5658
2026-01-20 01:23:39.45	358.29	11.03	-44.6	-48.2	15.8	0.00e+00	0	42	0	70254592	60	5542
2026-01-20 01:23:42.47	357.93	11.24	-44.2	-47.7	16.3	0.00e+00	0	42	0	76546048	60	5242
2026-01-20 01:23:45.55	357.56	11.46	-44.3	-48.1	15.9	0.00e+00	0	42	0	81788928	60	5514
2026-01-20 01:23:48.39	357.21	11.66	-44.5	-48.5	15.5	0.00e+00	0	42	0	87031808	60	5786
2026-01-20 01:23:51.52	356.83	11.88	-44.7	-48.9	15.2	0.00e+00	0	42	0	93323264	60	6012
2026-01-20 01:23:54.36	356.47	12.08	-44.4	-48.6	15.4	0.00e+00	0	42	0	98566144	60	5822
2026-01-20 01:23:57.49	356.07	12.30	-44.3	-48.4	15.6	0.00e+00	0	43	0	104857600	60	5721
2026-01-20 01:24:00.33	355.71	12.50	-44.3	-48.5	15.5	0.00e+00	0	42	0	110100480	60	5763
2026-01-20 01:24:03.46	355.30	12.73	-44.1	-48.0	15.9	0.00e+00	0	43	0	115343360	60	5459
2026-01-20 01:24:06.30	354.92	12.93	-44.0	-47.4	16.5	0.00e+00	0	42	0	120586240	59	5394
2026-01-20 01:24:09.43	354.50	13.15	-43.8	-47.0	16.9	0.00e+00	0	43	0	126877696	59	5127
2026-01-20 01:24:12.27	354.11	13.36	-43.9	-46.9	17.1	0.00e+00	0	42	0	132120576	59	5056
2026-01-20 01:24:15.39	353.67	13.58	-44.3	-47.4	16.6	0.00e+00	0	43	0	138412032	59	5359
2026-01-20 01:24:18.31	353.26	13.79	-44.4	-47.6	16.4	0.00e+00	0	43	0	143654912	59	5506
2026-01-20 01:24:21.58	352.79	14.03	-44.0	-46.9	17.1	0.00e+00	0	42	0	149946368	59	5097
2026-01-20 01:24:24.28	352.40	14.23	-44.0	-46.9	17.1	0.00e+00	0	43	0	154140672	59	5095
2026-01-20 01:24:27.57	351.91	14.47	-44.1	-47.1	16.9	0.00e+00	0	43	0	160432128	59	5214
2026-01-20 01:24:30.30	351.50	14.66	-44.2	-47.4	16.6	0.00e+00	0	43	0	165675008	59	5392
2026-01-20 01:24:33.75	350.98	14.91	-43.7	-46.8	17.2	0.00e+00	0	43	0	171966464	59	5009
2026-01-20 01:24:36.45	350.56	15.11	-43.9	-46.9	17.2	0.00e+00	0	43	0	177209344	59	5044
2026-01-20 01:24:39.73	350.05	15.35	-44.5	-47.7	16.3	0.00e+00	0	43	0	183500800	59	5576
2026-01-20 01:24:42.48	349.61	15.55	-44.7	-48.1	16.1	0.00e+00	0	43	0	188743680	60	5480
2026-01-20 01:24:45.76	349.08	15.79	-44.4	-47.9	16.2	0.00e+00	0	43	0	195035136	60	5351
2026-01-20 01:24:48.48	348.63	15.98	-44.4	-47.7	16.4	0.00e+00	0	43	0	200278016	60	5275
2026-01-20 01:24:51.98	348.05	16.24	-44.9	-48.5	15.6	0.00e+00	0	43	0	206569472	60	5775
2026-01-20 01:24:54.70	347.59	16.43	-44.9	-48.4	15.7	0.00e+00	0	43	0	211812352	60	5709
2026-01-20 01:24:57.98	347.02	16.67	-44.5	-47.9	16.2	0.00e+00	0	43	0	218103808	60	5397
2026-01-20 01:25:00.72	346.55	16.87	-44.5	-48.5	15.7	0.00e+00	0	43	0	223346688	60	5747
2026-01-20 01:25:04.12	345.95	17.11	-44.2	-48.1	16.1	0.00e+00	0	43	0	229638144	60	5466
2026-01-20 01:25:07.22	345.39	17.33	-44.3	-47.5	16.6	0.00e+00	0	43	0	234881024	60	5124
2026-01-20 01:25:10.06	344.87	17.54	-44.4	-47.5	16.7	0.00e+00	0	43	0	240123904	60	5131
2026-01-20 01:25:13.27	344.28	17.76	-44.7	-48.3	15.9	0.00e+00	0	43	0	246415360	60	5597
2026-01-20 01:25:16.11	343.74	17.97	-44.3	-47.8	16.3	0.00e+00	0	43	0	251658240	60	5311
2026-01-20 01:25:19.24	343.15	18.19	-44.3	-47.4	16.8	0.00e+00	0	43	0	257949696	60	5055
2026-01-20 01:25:22.37	342.54	18.40	-44.6	-47.7	16.5	0.00e+00	0	43	0	263192576	60	5244
2026-01-20 01:25:25.35	341.96	18.61	-45.0	-48.6	15.6	0.00e+00	0	43	0	269484032	60	5845
2026-01-20 01:25:28.34	341.36	18.82	-44.5	-47.6	16.5	0.00e+00	0	43	0	274726912	60	5197
2026-01-20 01:25:31.32	340.76	19.02	-43.8	-46.6	17.5	0.00e+00	0	43	0	279969792	59	4891
2026-01-20 01:25:34.36	340.14	19.23	-44.1	-47.2	16.8	0.00e+00	0	43	0	286261248	59	5274
2026-01-20 01:25:37.44	339.51	19.44	-44.0	-47.2	16.8	0.00e+00	0	43	0	291504128	59	5271
2026-01-20 01:25:40.34	338.90	19.63	-43.5	-46.3	17.7	0.00e+00	0	43	0	296747008	58	5013
2026-01-20 01:25:43.33	338.26	19.83	-43.0	-45.7	18.3	0.00e+00	0	43	0	303038464	57	4946
2026-01-20 01:25:46.31	337.62	20.02	-43.0	-45.9	18.0	0.00e+00	0	43	0	308281344	57	5097
2026-01-20 01:25:49.30	336.97	20.21	-42.5	-45.4	18.5	0.00e+00	0	43	0	314572800	57	4771
2026-01-20 01:25:52.28	336.31	20.40	-42.9	-45.6	18.3	0.00e+00	0	43	0	319815680	57	4921
2026-01-20 01:25:55.26	335.64	20.59	-42.9	-45.7	18.2	0.00e+00	0	43	0	325058560	57	4964
2026-01-20 01:25:58.24	334.97	20.77	-42.6	-45.4	18.5	0.00e+00	0	43	0	331350016	57	4787
2026-01-20 01:26:01.28	334.27	20.96	-42.5	-45.0	18.9	0.00e+00	0	43	0	336592896	56	4864
2026-01-20 01:26:04.54	333.52	21.15	-42.7	-45.3	18.6	0.00e+00	0	43	0	342884352	56	5032
2026-01-20 01:26:07.26	332.88	21.31	-42.6	-45.1	18.8	0.00e+00	0	43	0	348127232	56	4919
2026-01-20 01:26:10.62	332.08	21.51	-42.2	-44.7	19.2	0.00e+00	0	43	0	354418688	56	4673
2026-01-20 01:26:13.65	331.35	21.68	-42.4	-45.0	18.9	0.00e+00	0	43	0	359661568	56	4866
2026-01-20 01:26:16.98	330.54	21.86	-42.2	-44.7	19.2	0.00e+00	0	43	0	365953024	56	4667
2026-01-20 01:26:19.68	329.88	22.00	-41.8	-44.2	19.5	0.00e+00	0	43	0	371195904	55	4679
2026-01-20 01:26:22.96	329.06	22.17	-42.4	-44.8	19.0	0.00e+00	0	43	0	377487360	55	5012
2026-01-20 01:26:25.76	328.36	22.32	-42.1	-44.4	19.3	0.00e+00	0	43	0	382730240	55	4795
2026-01-20 01:26:29.15	327.50	22.48	-42.0	-44.4	19.3	0.00e+00	0	43	0	389021696	55	4804
2026-01-20 01:26:31.90	326.80	22.61	-42.8	-45.5	18.5	0.00e+00	0	43	0	394264576	56	5122
2026-01-20 01:26:35.23	325.94	22.77	-42.5	-45.1	18.9	0.00e+00	0	43	0	400556032	56	4889
2026-01-20 01:26:38.56	325.07	22.91	-42.2	-44.6	19.4	0.00e+00	0	43	0	406847488	56	4606
2026-01-20 01:26:41.28	324.36	23.03	-42.4	-44.9	19.1	0.00e+00	0	43	0	411041792	56	4767
2026-01-20 01:26:44.55	323.49	23.16	-42.1	-44.5	19.4	0.00e+00	0	43	0	417333248	56	4563
2026-01-20 01:26:47.28	322.76	23.27	-41.5	-43.7	19.9	0.00e+00	0	43	0	422576128	55	4441
2026-01-20 01:26:50.55	321.88	23.39	-41.9	-44.2	19.5	0.00e+00	0	43	0	428867584	54	4981
2026-01-20 01:26:53.26	321.14	23.48	-42.2	-44.6	19.2	0.00e+00	0	43	0	434110464	55	4925
2026-01-20 01:26:56.73	320.20	23.60	-42.4	-45.0	18.8	0.00e+00	0	43	0	440401920	55	5143
2026-01-20 01:26:59.47	319.44	23.68	-43.5	-46.3	17.8	0.00e+00	0	43	0	445644800	57	5318
2026-01-20 01:27:02.73	318.54	23.78	-44.4	-47.6	16.6	0.00e+00	0	43	0	451936256	59	5465
2026-01-20 01:27:05.45	317.79	23.85	-43.7	-46.6	17.6	0.00e+00	0	43	0	457179136	59	4890
2026-01-20 01:27:08.72	316.87	23.93	-43.8	-46.5	17.6	0.00e+00	0	43	0	463470592	59	4862
2026-01-20 01:27:11.44	316.11	23.99	-43.8	-46.6	17.5	0.00e+00	0	43	0	467664896	59	4873
2026-01-20 01:27:14.77	315.17	24.06	-43.7	-46.4	17.7	0.00e+00	0	43	0	473956352	59	4782
2026-01-20 01:27:17.55	314.39	24.11	-43.7	-46.4	17.6	0.00e+00	0	43	0	479199232	58	5096
2026-01-20 01:27:20.82	313.46	24.16	-44.0	-47.0	17.1	0.00e+00	0	43	0	485490688	59	5130
2026-01-20 01:27:23.54	312.69	24.20	-44.5	-47.8	16.4	0.00e+00	0	43	0	490733568	59	5598
2026-01-20 01:27:26.82	311.75	24.24	-44.3	-47.4	16.8	0.00e+00	0	43	0	497025024	60	5088
2026-01-20 01:27:29.71	310.92	24.27	-43.9	-46.7	17.4	0.00e+00	0	43	0	502267904	59	4983
2026-01-20 01:27:33.12	309.95	24.29	-44.7	-47.8	16.5	0.00e+00	0	43	0	508559360	60	5326
2026-01-20 01:27:35.85	309.17	24.30	-44.8	-48.0	16.3	0.00e+00	0	43	0	513802240	60	5403
2026-01-20 01:27:39.12	308.23	24.30	-44.4	-47.4	16.9	0.00e+00	0	43	0	520093696	60	5060
2026-01-20 01:27:41.89	307.43	24.30	-43.4	-46.0	18.1	0.00e+00	0	43	0	525336576	58	4830
2026-01-20 01:27:45.15	306.50	24.29	-43.8	-46.6	17.6	0.00e+00	0	43	0	531628032	58	5169
2026-01-20 01:27:48.24	305.61	24.28	-44.2	-47.2	16.9	0.00e+00	0	43	0	536870912	59	5219
2026-01-20 01:27:51.32	304.73	24.25	-43.9	-46.8	17.3	0.00e+00	0	43	0	543162368	59	5012
2026-01-20 01:27:54.40	303.85	24.22	-43.6	-46.4	17.6	0.00e+00	0	43	0	548405248	59	4789
2026-01-20 01:27:57.39	303.00	24.19	-43.5	-46.2	17.9	0.00e+00	0	43	0	554696704	58	4948
2026-01-20 01:28:00.37	302.15	24.14	-43.5	-46.1	18.0	0.00e+00	0	43	0	559939584	58	4905
2026-01-20 01:28:03.36	301.30	24.09	-43.1	-45.6	18.4	0.00e+00	0	43	0	565182464	57	4886
2026-01-20 01:28:06.35	300.46	24.03	-43.2	-45.8	18.2	0.00e+00	0	43	0	571473920	57	5014
2026-01-20 01:28:09.33	299.62	23.97	-42.4	-44.7	19.2	0.00e+00	0	43	0	576716800	56	4699
2026-01-20 01:28:12.32	298.78	23.90	-42.1	-44.5	19.5	0.00e+00	0	43	0	581959680	56	4546
2026-01-20 01:28:15.30	297.95	23.82	-41.7	-44.0	19.8	0.00e+00	0	43	0	588251136	55	4555
2026-01-20 01:28:18.35	297.10	23.74	-41.6	-43.7	20.0	0.00e+00	0	43	0	593494016	55	4438
2026-01-20 01:28:21.23	296.31	23.65	-41.8	-43.9	19.8	0.00e+00	0	43	0	598736896	55	4544
2026-01-20 01:28:24.70	295.36	23.54	-42.3	-44.6	19.2	0.00e+00	0	43	0	605028352	55	4908
2026-01-20 01:28:27.42	294.61	23.45	-42.3	-44.6	19.2	0.00e+00	0	43	0	610271232	55	4892
2026-01-20 01:28:30.69	293.73	23.33	-42.0	-44.3	19.5	0.00e+00	0	43	0	616562688	55	4720
2026-01-20 01:28:33.69	292.92	23.22	-42.5	-44.8	19.1	0.00e+00	0	43	0	621805568	55	5007
2026-01-20 01:28:36.68	292.12	23.10	-43.2	-45.7	18.4	0.00e+00	0	43	0	628097024	57	4949
2026-01-20 01:28:39.66	291.34	22.98	-43.1	-45.6	18.5	0.00e+00	0	43	0	633339904	57	4890
2026-01-20 01:28:42.65	290.55	22.85	-43.6	-46.3	17.8	0.00e+00	0	43	0	639631360	57	5307
2026-01-20 01:28:45.63	289.77	22.71	-44.0	-46.8	17.3	0.00e+00	0	43	0	644874240	59	5009
2026-01-20 01:28:48.74	288.97	22.57	-44.1	-46.9	17.2	0.00e+00	0	43	0	650117120	59	5067
2026-01-20 01:28:51.65	288.23	22.43	-44.4	-47.4	16.8	0.00e+00	0	43	0	656408576	59	5360
2026-01-20 01:28:55.14	287.34	22.25	-44.1	-47.0	17.1	0.00e+00	0	43	0	662700032	59	5115
2026-01-20 01:28:58.17	286.59	22.10	-43.8	-46.6	17.5	0.00e+00	0	43	0	667942912	59	4910
2026-01-20 01:29:01.84	285.68	21.90	-44.5	-47.5	16.6	0.00e+00	0	43	0	675282944	59	5452
2026-01-20 01:29:04.67	284.98	21.75	-44.0	-46.8	17.3	0.00e+00	0	43	0	680525824	59	5013
2026-01-20 01:29:08.65	284.02	21.53	-43.8	-46.6	17.6	0.00e+00	0	43	0	687865856	59	4872
2026-01-20 01:29:11.62	283.31	21.36	-44.0	-46.8	17.3	0.00e+00	0	43	0	693108736	59	5000
2026-01-20 01:29:15.44	282.41	21.13	-44.8	-48.0	16.2	0.00e+00	0	43	0	700448768	60	5446
2026-01-20 01:29:18.31	281.74	20.96	-44.5	-47.6	16.7	0.00e+00	0	43	0	705691648	60	5163
2026-01-20 01:29:21.44	281.02	20.77	-44.1	-47.0	17.1	0.00e+00	0	43	0	711983104	60	4866
2026-01-20 01:29:24.28	280.38	20.59	-44.8	-48.1	16.1	0.00e+00	0	43	0	717225984	60	5512
2026-01-20 01:29:27.41	279.67	20.40	-45.3	-48.8	15.4	7.00e-07	0	43	0	723517440	61	5647
2026-01-20 01:29:30.25	279.04	20.22	-44.7	-48.0	16.3	0.00e+00	0	43	0	728760320	61	5103
2026-01-20 01:29:33.38	278.36	20.01	-43.7	-46.5	17.6	0.00e+00	0	43	0	734003200	59	4831
2026-01-20 01:29:36.36	277.71	19.82	-43.3	-46.0	18.0	0.00e+00	0	43	0	740294656	58	4815
2026-01-20 01:29:39.34	277.08	19.62	-43.1	-45.7	18.2	0.00e+00	0	43	0	745537536	58	4685
2026-01-20 01:29:42.33	276.45	19.42	-42.8	-45.3	18.6	0.00e+00	0	43	0	750780416	57	4724
2026-01-20 01:29:45.31	275.83	19.22	-42.2	-44.6	19.2	0.00e+00	0	43	0	757071872	56	4610
2026-01-20 01:29:48.27	275.22	19.02	-42.3	-44.7	19.1	0.00e+00	0	43	0	762314752	56	4681
2026-01-20 01:29:51.45	274.58	18.80	-43.5	-46.1	17.8	0.00e+00	0	43	0	768606208	57	5201
2026-01-20 01:29:54.35	274.00	18.60	-44.0	-47.0	17.0	0.00e+00	0	43	0	773849088	58	5417
2026-01-20 01:29:57.62	273.36	18.37	-44.2	-47.3	16.7	0.00e+00	0	43	0	780140544	59	5333
2026-01-20 01:30:00.33	272.83	18.18	-43.7	-46.6	17.4	0.00e+00	0	43	0	784334848	59	4888
2026-01-20 01:30:03.61	272.20	17.95	-43.7	-46.2	17.9	0.00e+00	0	43	0	790626304	59	4679
2026-01-20 01:30:06.31	271.69	17.76	-43.2	-45.6	18.5	0.00e+00	0	43	0	795869184	58	4603
2026-01-20 01:30:09.63	271.08	17.52	-43.3	-45.7	18.3	0.00e+00	0	43	0	802160640	57	4954
2026-01-20 01:30:13.04	270.45	17.28	-44.1	-46.8	17.4	0.00e+00	0	43	0	808452096	58	5297
2026-01-20 01:30:15.75	269.96	17.08	-43.8	-46.3	17.8	0.00e+00	0	43	0	813694976	58	5014
2026-01-20 01:30:19.03	269.38	16.85	-43.8	-46.4	17.7	0.00e+00	0	43	0	819986432	58	5059
2026-01-20 01:30:21.76	268.90	16.65	-43.9	-46.6	17.5	0.00e+00	0	43	0	825229312	58	5189
2026-01-20 01:30:25.03	268.34	16.41	-43.9	-46.5	17.6	0.00e+00	0	43	0	831520768	58	5124
2026-01-20 01:30:27.74	267.88	16.21	-43.5	-46.1	18.0	0.00e+00	0	43	0	835715072	58	4878
2026-01-20 01:30:31.01	267.33	15.98	-43.1	-45.5	18.5	0.00e+00	0	43	0	842006528	58	4568
2026-01-20 01:30:33.74	266.88	15.78	-43.1	-45.5	18.4	0.00e+00	0	43	0	847249408	57	4863
2026-01-20 01:30:37.01	266.34	15.54	-43.2	-45.6	18.3	0.00e+00	0	43	0	853540864	57	4916
2026-01-20 01:30:39.74	265.91	15.34	-42.8	-45.1	18.8	0.00e+00	0	43	0	858783744	57	4640
2026-01-20 01:30:43.25	265.35	15.09	-43.1	-45.5	19.1	0.00e+00	0	43	0	865075200	56	5126
2026-01-20 01:30:46.57	264.84	14.84	-42.7	-45.0	18.9	0.00e+00	0	43	0	871366656	56	4856
2026-01-20 01:30:49.27	264.42	14.65	-43.1	-45.5	18.4	0.00e+00	0	43	0	876609536	56	5130
2026-01-20 01:30:52.54	263.93	14.41	-43.3	-45.7	18.2	0.00e+00	0	43	0	882900992	57	4981
2026-01-20 01:30:55.28	263.52	14.21	-43.0	-45.4	18.5	0.00e+00	0	43	0	888143872	57	4774
2026-01-20 01:30:58.63	263.03	13.97	-42.6	-44.9	18.9	0.00e+00	0	43	0	894435328	57	4529
2026-01-20 01:31:01.41	262.63	13.76	-42.7	-45.1	18.8	0.00e+00	0	43	0	899678208	57	4609
2026-01-20 01:31:04.79	262.15	13.52	-43.7	-46.3	17.7	0.00e+00	0	43	0	905969664	58	5035
2026-01-20 01:31:07.49	261.77	13.32	-43.9	-46.5	17.4	0.00e+00	0	43	0	910163968	58	5159
2026-01-20 01:31:10.79	261.32	13.09	-43.9	-46.5	17.5	0.00e+00	0	43	0	916455424	58	5137
2026-01-20 01:31:13.49	260.95	12.89	-43.5	-46.1	17.8	0.00e+00	0	43	0	921698304	58	4916
2026-01-20 01:31:16.77	260.51	12.66	-43.3	-45.9	18.0	0.00e+00	0	43	0	927989760	58	4772
2026-01-20 01:31:19.48	260.16	12.46	-43.0	-45.5	18.4	0.00e+00	0	43	0	933232640	57	4822
2026-01-20 01:31:22.78	259.73	12.23	-43.0	-45.5	18.4	0.00e+00	0	43	0	939524096	57	4816
2026-01-20 01:31:25.49	259.38	12.03	-44.0	-46.7	17.2	0.00e+00	0	43	0	944766976	58	5258
2026-01-20 01:31:28.76	258.97	11.80	-44.2	-47.0	17.0	0.00e+00	0	43	0	951058432	59	5112
2026-01-20 01:31:31.50	258.63	11.61	-44.1	-46.8	17.2	0.00e+00	0	43	0	955252736	59	4984
2026-01-20 01:31:34.75	258.23	11.38	-43.5	-46.0	17.8	0.00e+00	0	43	0	961544192	59	4585
2026-01-20 01:31:37.86	257.86	11.16	-43.7	-46.3	17.6	0.00e+00	0	43	0	967835648	58	5004
2026-01-20 01:31:40.85	257.50	10.95	-43.8	-46.4	17.4	0.00e+00	0	43	0	973078528	58	5100
2026-01-20 01:31:43.83	257.15	10.74	-43.8	-46.4	17.4	0.00e+00	0	43	0	978321408	58	5047
2026-01-20 01:31:46.82	256.81	10.53	-44.1	-46.8	17.0	0.00e+00	0	43	0	984612864	58	5303
2026-01-20 01:31:49.80	256.47	10.33	-44.4	-47.2	16.6	0.00e+00	0	43	0	989855744	59	5263
2026-01-20 01:31:53.08	256.10	10.10	-44.7	-47.6	16.3	0.00e+00	0	43	0	996147200	60	5207
2026-01-20 01:31:55.79	255.80	9.91	-44.7	-47.8	16.2	0.00e+00	0	43	0	1001390080	60	5289
2026-01-20 01:31:59.02	255.45	9.69	-44.6	-47.5	16.4	0.00e+00	0	43	0	1007681536	60	5155
2026-01-20 01:32:01.87	255.15	9.50	-44.9	-48.0	15.9	0.00e+00	0	43	0	1012924416	60	5434
2026-01-20 01:32:04.99	254.82	9.28	-45.3	-48.7	15.2	0.00e+00	0	43	0	1018167296	61	5588
2026-01-20 01:32:07.84	254.52	9.09	-45.6	-49.0	14.9	0.00e+00	0	43	0	1023410176	61	5782
2026-01-20 01:32:11.10	254.18	8.87	-50.3	-65.6	3.8	1.49e+00	0	43	104	1027604480	71	21824
2026-01-20 01:32:13.82	253.91	8.69	-50.6	-65.8	3.8	1.49e+00	0	43	104	1027604480	71	22440
2026-01-20 01:32:17.11	253.58	8.47	-50.7	-65.9	3.8	1.49e+00	0	43	104	1027604480	72	21474
2026-01-20 01:32:19.80	253.31	8.29	-50.7	-66.0	3.8	1.49e+00	0	43	104	1027604480	72	21569
2026-01-20 01:32:23.07	253.00	8.07	-50.7	-66.0	3.8	1.49e+00	0	43	104	1027604480	72	21635
2026-01-20 01:32:25.78	252.74	7.89	-50.7	-66.0	3.8	1.49e+00	0	43	104	1027604480	72	21696
2026-01-20 01:32:29.06	252.43	7.68	-50.5	-65.9	3.8	1.49e+00	0	43	104	1027604480	72	21453
2026-01-20 01:32:31.76	252.17	7.50	-50.3	-65.9	3.8	1.49e+00	0	43	104	1027604480	72	21417
2026-01-20 01:32:35.02	251.87	7.29	-50.3	-65.9	3.8	1.49e+00	0	43	104	1027604480	72	21336
2026-01-20 01:32:37.71	251.63	7.11	-50.3	-65.9	3.8	1.49e+00	0	43	104	1027604480	72	21348
2026-01-20 01:32:40.98	251.34	6.90	-50.3	-65.8	3.8	1.49e+00	0	43	104	1027604480	72	21227
2026-01-20 01:32:43.67	251.10	6.73	-50.3	-65.8	3.8	1.49e+00	0	43	104	1027604480	72	21254
2026-01-20 01:32:46.95	250.82	6.52	-50.3	-65.9	3.8	1.49e+00	0	43	104	1027604480	72	21385
2026-01-20 01:32:49.65	250.58	6.35	-50.3	-65.9	3.8	1.49e+00	0	43	104	1027604480	72	21364
2026-01-20 01:32:52.93	250.31	6.14	-50.3	-65.9	3.8	1.49e+00	0	43	104	1027604480	72	21291
2026-01-20 01:32:55.65	250.08	5.97	-50.3	-65.9	3.8	1.49e+00	0	43	104	1027604480	72	21427
2026-01-20 01:32:58.91	249.81	5.76	-50.3	-65.9	3.8	1.49e+00	0	43	104	1027604480	72	21327
2026-01-20 01:33:01.61	249.59	5.59	-50.3	-65.8	3.8	1.49e+00	0	43	104	1027604480	72	21237
2026-01-20 01:33:04.88	249.33	5.39	-50.3	-65.9	3.8	1.49e+00	0	43	104	1027604480	72	21288
2026-01-20 01:33:07.57	249.11	5.22	-50.3	-65.9	3.8	1.49e+00	0	43	104	1027604480	72	21315
2026-01-20 01:33:10.85	248.86	5.02	-50.3	-65.8	3.8	1.49e+00	0	43	104	1027604480	72	21183

#Closed at: 2026-01-20 01:33:12
#Recorded file [1027 MB]: D:/Data/31040_260120_042209.dat