passes_logs/2026/01/20/T1/T1__20260120_000207_NOAA_20_JPSS-1_rec.log

#Pass ID: 20260120_000207_NOAA 20 (JPSS-1)
#Satellite: NOAA 20 (JPSS-1)
#Configuration: NOAA 20
#almurnet v.1.7.20251203
#Start time: 2026-01-20 00:02:08

#Version: 2.0.20230620
#Station: T1
#Location: 37.570604 lon 55.790049 lat
#TLE: 1 43013U 17073A   26019.27717929  .00000087  00000+0  62288-4 0  9995
#TLE: 2 43013  98.7641 320.1715 0001339  33.1986 326.9274 14.19537047423343

#Time	Az	El	Level	Level2	SNR	BER	BlckErr	Temp	State	Recorded	gain1	gain2
2026-01-20 00:02:08.41	14.14	5.08	-49.4	-65.1	3.8	1.49e+00	0	37	0	0	69	23166
2026-01-20 00:02:12.66	14.08	5.39	-49.4	-65.1	3.8	1.49e+00	0	37	104	0	70	21948
2026-01-20 00:02:16.84	14.02	5.69	-49.4	-65.2	3.8	1.49e+00	0	37	104	0	70	22097
2026-01-20 00:02:20.86	13.96	5.98	-49.4	-65.2	3.8	1.49e+00	0	37	104	0	70	22089
2026-01-20 00:02:24.84	13.89	6.28	-49.4	-65.1	3.8	1.49e+00	0	37	104	0	70	21806
2026-01-20 00:02:28.82	13.83	6.57	-49.3	-64.9	3.8	1.49e+00	0	37	104	0	70	21368
2026-01-20 00:02:32.80	13.76	6.87	-49.3	-64.8	3.8	1.49e+00	0	37	104	0	70	21080
2026-01-20 00:02:36.80	13.69	7.18	-49.4	-64.8	3.8	1.49e+00	0	38	104	0	70	21248
2026-01-20 00:02:40.79	13.62	7.49	-49.4	-64.5	3.8	1.49e+00	0	38	104	0	70	20512
2026-01-20 00:02:44.77	13.55	7.80	-49.3	-62.8	3.8	1.49e+00	0	38	104	0	70	16813
2026-01-20 00:02:48.77	13.48	8.12	-48.9	-59.2	5.2	6.89e-01	0	38	0	3145728	69	11764
2026-01-20 00:02:52.79	13.40	8.44	-48.3	-55.9	7.9	9.70e-02	0	38	0	10485760	68	8496
2026-01-20 00:02:56.83	13.32	8.77	-47.7	-54.2	9.5	1.63e-02	0	38	0	18874368	67	7406
2026-01-20 00:03:00.80	13.24	9.09	-48.6	-58.6	5.6	2.91e-02	0	38	0	26214400	67	12276
2026-01-20 00:03:04.81	13.16	9.43	-46.0	-50.1	13.5	1.19e+00	0	38	0	32505856	64	5519
2026-01-20 00:03:08.79	13.07	9.77	-44.6	-48.1	15.8	0.00e+00	0	38	0	39845888	61	5174
2026-01-20 00:03:12.77	12.98	10.11	-44.6	-47.9	16.0	0.00e+00	0	38	0	47185920	61	5085
2026-01-20 00:03:16.93	12.89	10.47	-44.5	-47.7	16.2	0.00e+00	0	38	0	55574528	60	5256
2026-01-20 00:03:20.94	12.80	10.82	-44.4	-47.6	16.4	0.00e+00	0	38	0	62914560	60	5185
2026-01-20 00:03:24.92	12.70	11.18	-44.3	-47.4	16.6	0.00e+00	0	38	0	70254592	60	5072
2026-01-20 00:03:29.07	12.60	11.55	-44.1	-47.2	16.8	0.00e+00	0	38	0	78643200	60	4982
2026-01-20 00:03:33.27	12.49	11.94	-44.1	-47.1	16.9	0.00e+00	0	39	0	85983232	60	4919
2026-01-20 00:03:37.28	12.39	12.31	-43.9	-46.9	17.1	0.00e+00	0	39	0	93323264	59	5061
2026-01-20 00:03:41.27	12.28	12.69	-43.8	-46.6	17.3	0.00e+00	0	39	0	100663296	59	4920
2026-01-20 00:03:45.28	12.17	13.08	-43.7	-46.5	17.4	0.00e+00	0	39	0	108003328	59	4866
2026-01-20 00:03:49.22	12.06	13.46	-43.6	-46.5	17.5	0.00e+00	0	39	0	116391936	59	4825
2026-01-20 00:03:53.20	11.94	13.86	-43.5	-46.3	17.7	0.00e+00	0	39	0	123731968	59	4738
2026-01-20 00:03:57.18	11.82	14.26	-43.4	-46.2	17.8	0.00e+00	0	39	0	131072000	58	4960
2026-01-20 00:04:01.16	11.70	14.67	-43.3	-46.1	17.9	0.00e+00	0	38	0	138412032	58	4879
2026-01-20 00:04:05.08	11.57	15.08	-43.2	-45.9	18.1	0.00e+00	0	39	0	145752064	58	4810
2026-01-20 00:04:09.06	11.44	15.50	-43.1	-45.7	18.3	0.00e+00	0	39	0	153092096	58	4690
2026-01-20 00:04:13.42	11.29	15.98	-43.0	-45.6	18.4	0.00e+00	0	39	0	161480704	57	4901
2026-01-20 00:04:17.40	11.15	16.41	-42.7	-45.3	18.7	0.00e+00	0	39	0	168820736	57	4748
2026-01-20 00:04:21.38	11.00	16.86	-42.7	-45.3	18.7	0.00e+00	0	38	0	176160768	57	4722
2026-01-20 00:04:25.36	10.85	17.31	-42.5	-45.1	18.9	0.00e+00	0	39	0	183500800	57	4608
2026-01-20 00:04:29.31	10.69	17.77	-42.5	-45.0	19.0	0.00e+00	0	39	0	190840832	56	4853
2026-01-20 00:04:33.28	10.53	18.24	-42.5	-45.0	19.0	0.00e+00	0	39	0	198180864	56	4849
2026-01-20 00:04:37.28	10.36	18.72	-42.4	-45.0	19.1	0.00e+00	0	39	0	205520896	56	4824
2026-01-20 00:04:41.37	10.19	19.23	-42.3	-44.8	19.2	0.00e+00	0	39	0	213909504	56	4746
2026-01-20 00:04:45.48	10.00	19.74	-42.4	-44.8	19.2	0.00e+00	0	39	0	221249536	56	4733
2026-01-20 00:04:49.54	9.81	20.26	-42.3	-44.7	19.3	0.00e+00	0	39	0	228589568	56	4700
2026-01-20 00:04:53.52	9.62	20.78	-42.4	-44.7	19.3	0.00e+00	0	39	0	236978176	56	4697
2026-01-20 00:04:57.70	9.41	21.34	-42.2	-44.5	19.5	0.00e+00	0	39	0	244318208	56	4592
2026-01-20 00:05:01.69	9.20	21.88	-42.1	-44.4	19.6	0.00e+00	0	39	0	251658240	56	4520
2026-01-20 00:05:05.67	8.98	22.44	-41.8	-44.1	19.8	0.00e+00	0	39	0	258998272	55	4636
2026-01-20 00:05:09.63	8.76	23.00	-41.8	-44.1	19.8	0.00e+00	0	39	0	266338304	55	4633
2026-01-20 00:05:13.61	8.52	23.58	-41.9	-44.1	19.8	0.00e+00	0	39	0	273678336	55	4645
2026-01-20 00:05:17.69	8.27	24.18	-42.1	-44.3	19.7	0.00e+00	0	39	0	282066944	55	4722
2026-01-20 00:05:21.69	8.02	24.79	-42.4	-44.7	19.3	0.00e+00	0	39	0	289406976	55	4939
2026-01-20 00:05:25.68	7.75	25.41	-42.9	-45.2	19.0	0.00e+00	0	39	0	296747008	56	4937
2026-01-20 00:05:29.85	7.46	26.07	-43.3	-45.7	18.5	0.00e+00	0	39	0	304087040	57	4982
2026-01-20 00:05:33.87	7.17	26.72	-43.4	-45.9	18.3	0.00e+00	0	39	0	312475648	57	5068
2026-01-20 00:05:37.92	6.87	27.39	-43.8	-46.4	17.9	0.00e+00	0	39	0	319815680	58	5055
2026-01-20 00:05:41.98	6.55	28.08	-44.2	-46.8	17.4	0.00e+00	0	39	0	327155712	59	5028
2026-01-20 00:05:45.96	6.22	28.78	-44.8	-47.6	16.7	0.00e+00	0	39	0	334495744	60	5218
2026-01-20 00:05:50.49	5.82	29.58	-45.2	-48.2	16.2	0.00e+00	0	39	0	342884352	61	5256
2026-01-20 00:05:54.69	5.44	30.35	-45.3	-48.4	16.0	0.00e+00	0	39	0	351272960	61	5379
2026-01-20 00:05:58.68	5.06	31.10	-45.4	-48.7	15.7	0.00e+00	0	39	0	358612992	61	5540
2026-01-20 00:06:02.67	4.65	31.87	-45.9	-49.4	15.0	7.00e-07	0	39	0	365953024	62	5686
2026-01-20 00:06:06.88	4.21	32.70	-46.4	-50.1	14.3	7.00e-07	0	39	0	374341632	63	5817
2026-01-20 00:06:10.87	3.76	33.51	-46.4	-50.1	14.2	7.00e-07	0	39	0	381681664	63	5844
2026-01-20 00:06:14.85	3.30	34.33	-46.4	-50.1	14.2	0.00e+00	0	39	0	389021696	63	5831
2026-01-20 00:06:19.16	2.76	35.24	-45.9	-49.4	15.0	0.00e+00	0	39	0	397410304	63	5373
2026-01-20 00:06:23.28	2.22	36.14	-45.6	-49.2	15.2	0.00e+00	0	39	0	404750336	63	5241
2026-01-20 00:06:27.28	1.66	37.03	-46.1	-49.9	14.5	1.50e-06	0	39	0	412090368	63	5721
2026-01-20 00:06:31.26	1.08	37.94	-46.6	-50.5	13.9	2.20e-06	0	39	0	419430400	63	6101
2026-01-20 00:06:35.24	0.46	38.87	-46.9	-50.9	13.5	4.50e-06	0	39	0	426770432	64	6019
2026-01-20 00:06:39.22	359.80	39.83	-46.3	-50.0	14.4	1.50e-06	0	39	0	435159040	64	5448
2026-01-20 00:06:43.30	359.08	40.83	-46.1	-49.6	14.8	0.00e+00	0	39	0	442499072	63	5503
2026-01-20 00:06:47.28	358.33	41.82	-45.6	-48.9	15.6	0.00e+00	0	39	0	449839104	63	5099
2026-01-20 00:06:51.26	357.54	42.84	-45.4	-48.4	16.1	0.00e+00	0	39	0	457179136	62	5091
2026-01-20 00:06:55.24	356.69	43.88	-44.8	-47.7	16.8	0.00e+00	0	39	0	464519168	61	4931
2026-01-20 00:06:59.22	355.79	44.94	-44.4	-47.2	17.3	0.00e+00	0	39	0	471859200	60	4945
2026-01-20 00:07:03.31	354.79	46.06	-44.2	-46.8	17.6	0.00e+00	0	39	0	480247808	59	5028
2026-01-20 00:07:07.29	353.74	47.16	-43.9	-46.4	18.0	0.00e+00	0	39	0	487587840	59	4796
2026-01-20 00:07:11.26	352.63	48.28	-44.1	-46.7	17.7	0.00e+00	0	39	0	494927872	59	4949
2026-01-20 00:07:15.85	351.23	49.59	-44.0	-46.6	17.8	0.00e+00	0	39	0	503316480	59	4907
2026-01-20 00:07:19.84	349.90	50.74	-43.6	-46.0	18.4	0.00e+00	0	39	0	510656512	59	4577
2026-01-20 00:07:23.83	348.48	51.91	-43.1	-45.4	19.0	0.00e+00	0	39	0	517996544	58	4503
2026-01-20 00:07:28.30	346.74	53.23	-42.4	-44.5	19.8	0.00e+00	0	39	0	526385152	56	4584
2026-01-20 00:07:32.86	344.79	54.58	-43.1	-45.5	18.9	0.00e+00	0	39	0	534773760	57	4834
2026-01-20 00:07:36.85	342.92	55.75	-44.7	-47.5	17.0	0.00e+00	0	39	0	543162368	60	5112
2026-01-20 00:07:41.04	340.79	56.99	-46.4	-50.0	14.6	0.00e+00	0	39	0	550502400	63	5733
2026-01-20 00:07:45.04	338.57	58.15	-45.4	-48.7	15.8	0.00e+00	0	39	0	557842432	62	5263
2026-01-20 00:07:49.02	336.15	59.28	-44.7	-47.6	16.9	0.00e+00	0	39	0	565182464	61	4913
2026-01-20 00:07:53.02	333.51	60.39	-43.6	-46.0	18.3	0.00e+00	0	39	0	573571072	59	4592
2026-01-20 00:07:57.00	330.65	61.45	-41.7	-43.8	20.3	0.00e+00	0	39	0	580911104	55	4459
2026-01-20 00:08:01.24	327.32	62.52	-42.2	-44.4	19.7	0.00e+00	0	39	0	588251136	55	4790
2026-01-20 00:08:05.22	323.92	63.47	-41.8	-44.0	20.1	0.00e+00	0	39	0	595591168	55	4569
2026-01-20 00:08:09.26	320.19	64.34	-42.1	-44.2	19.9	0.00e+00	0	39	0	603979776	55	4670
2026-01-20 00:08:13.28	316.21	65.12	-42.9	-45.2	19.2	0.00e+00	0	39	0	611319808	56	4930
2026-01-20 00:08:17.52	311.71	65.82	-44.7	-47.5	17.0	0.00e+00	0	39	0	618659840	60	5140
2026-01-20 00:08:21.52	307.23	66.35	-44.6	-47.3	17.3	0.00e+00	0	39	0	625999872	60	4992
2026-01-20 00:08:25.52	302.54	66.75	-44.8	-47.6	16.9	0.00e+00	0	39	0	634388480	60	5217
2026-01-20 00:08:29.53	297.70	67.00	-44.7	-47.4	17.0	0.00e+00	0	39	0	641728512	60	5069
2026-01-20 00:08:33.52	292.80	67.10	-44.9	-47.8	16.7	0.00e+00	0	39	0	649068544	60	5339
2026-01-20 00:08:37.67	287.69	67.04	-45.0	-47.9	16.7	0.00e+00	0	39	0	656408576	60	5364
2026-01-20 00:08:41.76	282.72	66.82	-44.6	-47.2	17.3	0.00e+00	0	39	0	664797184	61	4700
2026-01-20 00:08:45.83	277.92	66.44	-44.5	-47.2	17.4	0.00e+00	0	39	0	672137216	60	4972
2026-01-20 00:08:49.85	273.36	65.93	-43.9	-46.5	18.0	0.00e+00	0	39	0	679477248	59	4822
2026-01-20 00:08:53.85	269.07	65.30	-43.3	-45.7	18.8	0.00e+00	0	39	0	686817280	58	4652
2026-01-20 00:08:57.86	265.02	64.55	-41.7	-43.8	20.3	0.00e+00	0	39	0	694157312	55	4492
2026-01-20 00:09:01.86	261.25	63.70	-41.4	-43.5	20.6	0.00e+00	0	39	0	702545920	54	4561
2026-01-20 00:09:05.88	257.74	62.77	-42.3	-44.5	19.7	0.00e+00	0	39	0	709885952	55	4827
2026-01-20 00:09:09.91	254.50	61.76	-43.9	-46.4	18.1	0.00e+00	0	39	0	717225984	58	5079
2026-01-20 00:09:14.15	251.37	60.64	-45.4	-48.4	16.2	0.00e+00	0	39	0	725614592	61	5387
2026-01-20 00:09:18.26	248.60	59.51	-45.8	-49.0	15.6	0.00e+00	0	39	0	732954624	62	5430
2026-01-20 00:09:22.16	246.18	58.40	-46.2	-49.5	15.0	0.00e+00	0	39	0	740294656	63	5447
2026-01-20 00:09:26.15	243.91	57.24	-45.2	-48.1	16.5	0.00e+00	0	39	0	747634688	62	4881
2026-01-20 00:09:30.13	241.84	56.07	-43.6	-46.0	18.5	0.00e+00	0	39	0	754974720	59	4568
2026-01-20 00:09:34.27	239.86	54.85	-43.7	-46.1	18.3	0.00e+00	0	39	0	763363328	58	4915
2026-01-20 00:09:38.48	238.01	53.60	-43.5	-45.9	18.5	0.00e+00	0	39	0	770703360	58	4802
2026-01-20 00:09:42.46	236.40	52.42	-44.8	-47.6	17.0	0.00e+00	0	39	0	778043392	60	5180
2026-01-20 00:09:46.44	234.92	51.25	-44.2	-46.8	17.7	0.00e+00	0	39	0	785383424	60	4752
2026-01-20 00:09:50.42	233.56	50.08	-45.2	-48.1	16.5	0.00e+00	0	39	0	792723456	61	5212
2026-01-20 00:09:54.39	232.29	48.94	-45.1	-47.9	16.6	0.00e+00	0	39	0	801112064	62	4788
2026-01-20 00:09:58.47	231.09	47.78	-44.7	-47.4	17.1	0.00e+00	0	39	0	808452096	60	5067
2026-01-20 00:10:02.45	229.99	46.66	-44.9	-47.8	16.8	0.00e+00	0	39	0	815792128	60	5328
2026-01-20 00:10:06.43	228.98	45.56	-44.5	-47.3	17.2	0.00e+00	0	39	0	823132160	60	5019
2026-01-20 00:10:10.41	228.03	44.48	-45.6	-48.7	15.8	0.00e+00	0	39	0	830472192	61	5578
2026-01-20 00:10:14.61	227.10	43.37	-45.9	-49.2	15.4	0.00e+00	0	39	0	838860800	62	5580
2026-01-20 00:10:18.68	226.25	42.31	-46.2	-49.7	14.8	0.00e+00	0	39	0	846200832	63	5543
2026-01-20 00:10:22.64	225.48	41.30	-46.8	-50.7	13.7	6.10e-06	0	39	0	853540864	64	5894
2026-01-20 00:10:26.69	224.74	40.29	-47.3	-51.5	12.8	6.40e-05	0	39	0	860880896	65	6116
2026-01-20 00:10:30.66	224.06	39.33	-46.5	-50.1	14.2	2.20e-06	0	39	0	868220928	65	5217
2026-01-20 00:10:34.64	223.42	38.38	-46.7	-50.6	13.9	3.00e-06	0	39	0	875560960	64	5806
2026-01-20 00:10:38.67	222.80	37.45	-46.2	-49.7	14.7	0.00e+00	0	39	0	883949568	64	5253
2026-01-20 00:10:42.77	222.21	36.52	-45.5	-48.6	15.9	0.00e+00	0	39	0	891289600	62	5176
2026-01-20 00:10:46.78	221.67	35.63	-45.6	-48.7	15.8	0.00e+00	0	39	0	898629632	62	5240
2026-01-20 00:10:50.79	221.15	34.76	-45.3	-48.2	16.2	0.00e+00	0	39	0	905969664	62	4982
2026-01-20 00:10:54.79	220.67	33.92	-44.8	-47.6	16.8	0.00e+00	0	39	0	914358272	61	4914
2026-01-20 00:10:58.88	220.19	33.08	-45.9	-49.2	15.2	0.00e+00	0	39	0	921698304	62	5541
2026-01-20 00:11:02.87	219.75	32.27	-46.4	-50.0	14.5	0.00e+00	0	39	0	929038336	63	5748
2026-01-20 00:11:06.91	219.33	31.48	-46.5	-50.3	14.2	1.50e-06	0	39	0	936378368	63	5975
2026-01-20 00:11:10.90	218.93	30.72	-46.3	-49.9	14.6	7.00e-07	0	39	0	943718400	63	5668
2026-01-20 00:11:14.92	218.55	29.97	-46.5	-50.2	14.2	7.00e-07	0	39	0	952107008	63	5893
2026-01-20 00:11:19.28	218.16	29.18	-46.8	-50.8	13.5	1.06e-05	0	39	0	959447040	64	5967
2026-01-20 00:11:23.25	217.82	28.47	-46.7	-50.5	13.8	7.60e-06	0	39	0	966787072	64	5785
2026-01-20 00:11:27.37	217.48	27.75	-45.7	-49.0	15.5	0.00e+00	0	39	0	975175680	63	5108
2026-01-20 00:11:31.62	217.15	27.04	-45.3	-48.3	16.1	0.00e+00	0	39	0	982515712	62	5026
2026-01-20 00:11:35.72	216.84	26.36	-45.8	-49.1	15.3	0.00e+00	0	39	0	990904320	62	5497
2026-01-20 00:11:39.70	216.55	25.72	-46.0	-49.4	15.0	0.00e+00	0	39	0	998244352	62	5713
2026-01-20 00:11:43.68	216.28	25.09	-45.6	-48.9	15.5	0.00e+00	0	39	0	1005584384	62	5362
2026-01-20 00:11:47.61	216.02	24.48	-45.1	-48.1	16.3	0.00e+00	0	39	0	1012924416	62	4879
2026-01-20 00:11:51.68	215.76	23.87	-44.6	-47.4	16.9	0.00e+00	0	39	0	1020264448	61	4806
2026-01-20 00:11:56.16	215.49	23.20	-44.7	-47.5	16.9	0.00e+00	0	39	0	1028653056	61	4818
2026-01-20 00:12:00.71	215.22	22.55	-44.5	-47.3	17.0	0.00e+00	0	39	0	1037041664	60	5014
2026-01-20 00:12:05.52	214.95	21.87	-44.0	-46.7	17.7	0.00e+00	0	39	0	1046478848	60	4655
2026-01-20 00:12:10.01	214.71	21.26	-43.9	-46.5	17.8	0.00e+00	0	39	0	1054867456	59	4818
2026-01-20 00:12:13.99	214.51	20.72	-44.2	-46.9	17.4	0.00e+00	0	39	0	1062207488	59	5062
2026-01-20 00:12:17.96	214.31	20.20	-44.4	-47.2	17.0	0.00e+00	0	39	0	1069547520	59	5253
2026-01-20 00:12:21.94	214.12	19.69	-44.5	-47.3	16.9	0.00e+00	0	39	0	1076887552	59	5336
2026-01-20 00:12:26.32	213.92	19.14	-44.6	-47.5	16.8	0.00e+00	0	39	0	1085276160	59	5405
2026-01-20 00:12:30.29	213.74	18.65	-44.4	-47.1	17.1	0.00e+00	0	39	0	1092616192	59	5213
2026-01-20 00:12:34.29	213.57	18.16	-44.1	-46.8	17.3	0.00e+00	0	39	0	1099956224	59	5035
2026-01-20 00:12:38.26	213.41	17.69	-44.1	-46.7	17.4	0.00e+00	0	39	0	1108344832	59	4981
2026-01-20 00:12:42.48	213.24	17.20	-44.1	-46.7	17.4	0.00e+00	0	39	0	1115684864	59	4968
2026-01-20 00:12:46.47	213.08	16.74	-44.4	-47.1	17.0	0.00e+00	0	39	0	1123024896	59	5218
2026-01-20 00:12:50.47	212.93	16.29	-44.6	-47.5	16.7	0.00e+00	0	39	0	1130364928	59	5409
2026-01-20 00:12:54.57	212.78	15.84	-44.7	-47.7	16.5	0.00e+00	0	39	0	1138753536	60	5248
2026-01-20 00:12:58.61	212.64	15.40	-44.9	-47.9	16.3	0.00e+00	0	39	0	1146093568	60	5377
2026-01-20 00:13:02.61	212.50	14.97	-44.8	-47.8	16.4	0.00e+00	0	39	0	1153433600	60	5309
2026-01-20 00:13:06.62	212.37	14.55	-44.8	-47.9	16.3	0.00e+00	0	39	0	1160773632	60	5345
2026-01-20 00:13:10.58	212.24	14.14	-44.8	-47.9	16.3	0.00e+00	0	39	0	1168113664	60	5367
2026-01-20 00:13:14.56	212.12	13.74	-44.9	-47.9	16.2	0.00e+00	0	39	0	1175453696	60	5375
2026-01-20 00:13:18.54	212.00	13.34	-44.9	-48.0	16.1	0.00e+00	0	39	0	1183842304	60	5424
2026-01-20 00:13:22.61	211.88	12.94	-45.1	-48.2	15.9	0.00e+00	0	39	0	1191182336	60	5577
2026-01-20 00:13:26.60	211.76	12.56	-45.2	-48.3	15.8	0.00e+00	0	39	0	1198522368	61	5313
2026-01-20 00:13:30.57	211.65	12.18	-45.3	-48.5	15.6	0.00e+00	0	39	0	1205862400	61	5416
2026-01-20 00:13:34.55	211.54	11.81	-45.3	-48.5	15.5	0.00e+00	0	39	0	1213202432	61	5456
2026-01-20 00:13:38.53	211.44	11.44	-45.4	-48.7	15.4	0.00e+00	0	39	0	1220542464	61	5567
2026-01-20 00:13:42.51	211.34	11.08	-45.6	-48.9	15.1	0.00e+00	0	39	0	1227882496	61	5702
2026-01-20 00:13:46.49	211.24	10.72	-45.6	-49.0	15.0	0.00e+00	0	39	0	1236271104	61	5779
2026-01-20 00:13:50.47	211.14	10.37	-45.6	-49.1	14.9	0.00e+00	0	39	0	1243611136	62	5497
2026-01-20 00:13:54.49	211.04	10.01	-45.7	-49.1	14.9	0.00e+00	0	39	0	1250951168	62	5507
2026-01-20 00:13:58.63	210.95	9.66	-45.7	-49.3	14.7	0.00e+00	0	39	0	1258291200	62	5596
2026-01-20 00:14:02.63	210.86	9.32	-45.7	-49.1	14.8	0.00e+00	0	39	0	1265631232	62	5525
2026-01-20 00:14:06.61	210.77	8.99	-46.2	-50.0	14.1	7.00e-07	0	39	0	1272971264	62	6081
2026-01-20 00:14:10.58	210.69	8.66	-50.4	-65.7	3.8	1.49e+00	0	39	104	1274019840	71	22157
2026-01-20 00:14:14.62	210.60	8.33	-50.5	-65.9	3.8	1.49e+00	0	39	104	1274019840	71	22767
2026-01-20 00:14:18.66	210.52	8.00	-50.7	-65.9	3.8	1.49e+00	0	39	104	1274019840	72	21395
2026-01-20 00:14:22.63	210.44	7.69	-50.7	-65.9	3.8	1.49e+00	0	39	104	1274019840	72	21304
2026-01-20 00:14:26.61	210.37	7.37	-50.2	-65.8	3.8	1.49e+00	0	39	104	1274019840	72	21109
2026-01-20 00:14:30.58	210.29	7.07	-50.2	-65.8	3.8	1.49e+00	0	39	104	1274019840	72	21174
2026-01-20 00:14:34.55	210.22	6.76	-50.2	-65.8	3.8	1.49e+00	0	39	104	1274019840	72	21067
2026-01-20 00:14:38.52	210.15	6.46	-50.2	-65.8	3.8	1.49e+00	0	39	104	1274019840	72	21127
2026-01-20 00:14:42.50	210.08	6.16	-50.2	-65.7	3.8	1.49e+00	0	39	104	1274019840	72	20991
2026-01-20 00:14:46.47	210.01	5.87	-50.2	-65.8	3.8	1.49e+00	0	39	104	1274019840	72	21018
2026-01-20 00:14:50.44	209.94	5.58	-50.2	-65.8	3.8	1.49e+00	0	39	104	1274019840	72	21078
2026-01-20 00:14:54.42	209.88	5.29	-50.2	-65.7	3.8	1.49e+00	0	39	104	1274019840	72	20998
2026-01-20 00:14:58.39	209.81	5.00	-50.2	-65.8	3.8	1.49e+00	0	39	104	1274019840	72	21045

#Closed at: 2026-01-20 00:14:59
#Recorded file [1274 MB]: D:/Data/31040_260120_030208.dat