passes_logs/2026/01/20/T1/T1__20260120_072557_NOAA_21_JPSS-2_rec.log

#Pass ID: 20260120_072557_NOAA 21 (JPSS-2)
#Satellite: NOAA 21 (JPSS-2)
#Configuration: NOAA 21
#almurnet v.1.7.20251203
#Start time: 2026-01-20 07:25:59

#Version: 2.0.20230620
#Station: T1
#Location: 37.570604 lon 55.790049 lat
#TLE: 1 54234U 22150A   26019.59425193  .00000067  00000+0  52811-4 0  9997
#TLE: 2 54234  98.7505 320.4385 0000607 256.3203 103.7906 14.19535690165464

#Time	Az	El	Level	Level2	SNR	BER	BlckErr	Temp	State	Recorded	gain1	gain2
2026-01-20 07:25:59.13	78.67	5.06	-50.0	-63.1	3.8	1.49e+00	0	39	0	0	72	15409
2026-01-20 07:26:01.11	78.44	5.15	-50.0	-63.0	3.8	1.49e+00	0	39	104	0	72	15329
2026-01-20 07:26:03.10	78.20	5.24	-50.0	-63.0	3.8	1.49e+00	0	39	104	0	72	15369
2026-01-20 07:26:05.08	77.96	5.33	-50.0	-63.1	3.8	1.49e+00	0	39	104	0	72	15408
2026-01-20 07:26:07.07	77.73	5.42	-50.0	-63.0	3.8	1.49e+00	0	39	104	0	72	15348
2026-01-20 07:26:09.06	77.49	5.51	-50.0	-63.0	3.8	1.49e+00	0	39	104	0	72	15352
2026-01-20 07:26:11.04	77.24	5.60	-50.0	-63.0	3.8	1.49e+00	0	39	104	0	72	15387
2026-01-20 07:26:13.03	77.00	5.69	-50.0	-63.0	3.8	1.49e+00	0	39	104	0	72	15368
2026-01-20 07:26:15.01	76.76	5.77	-50.0	-63.0	3.8	1.49e+00	0	39	104	0	72	15370
2026-01-20 07:26:17.00	76.51	5.86	-50.0	-63.0	3.8	1.49e+00	0	39	104	0	72	15345
2026-01-20 07:26:18.99	76.26	5.95	-50.0	-63.0	3.8	1.49e+00	0	40	104	0	72	15255
2026-01-20 07:26:20.97	76.02	6.04	-50.0	-63.0	3.8	1.49e+00	0	40	104	0	72	15307
2026-01-20 07:26:22.96	75.76	6.13	-50.0	-63.0	3.8	1.49e+00	0	40	104	0	72	15280
2026-01-20 07:26:24.95	75.51	6.22	-50.0	-62.9	3.8	1.49e+00	0	40	104	0	72	15184
2026-01-20 07:26:26.93	75.26	6.30	-50.0	-63.0	3.8	1.49e+00	0	40	104	0	72	15251
2026-01-20 07:26:28.92	75.00	6.39	-50.0	-63.0	3.8	1.49e+00	0	40	104	0	72	15299
2026-01-20 07:26:30.91	74.75	6.48	-50.0	-63.0	3.8	1.49e+00	0	40	104	0	72	15253
2026-01-20 07:26:32.89	74.49	6.57	-50.0	-63.0	3.8	1.49e+00	0	40	104	0	72	15332
2026-01-20 07:26:34.88	74.23	6.65	-50.0	-62.9	3.8	1.49e+00	0	40	104	0	72	15183
2026-01-20 07:26:36.87	73.97	6.74	-50.0	-62.9	3.8	1.49e+00	0	40	104	0	72	15194
2026-01-20 07:26:38.86	73.70	6.83	-50.0	-63.0	3.8	1.49e+00	0	40	104	0	72	15248
2026-01-20 07:26:40.84	73.44	6.91	-50.0	-62.9	3.8	1.49e+00	0	40	104	0	72	15122
2026-01-20 07:26:42.83	73.17	7.00	-50.0	-62.9	3.8	1.49e+00	0	40	104	0	72	15082
2026-01-20 07:26:44.81	72.91	7.08	-50.0	-62.9	3.8	1.49e+00	0	40	104	0	72	15079
2026-01-20 07:26:46.80	72.64	7.17	-50.0	-62.8	3.8	1.49e+00	0	40	104	0	71	15878
2026-01-20 07:26:48.79	72.37	7.25	-50.0	-62.8	3.8	1.49e+00	0	40	104	0	71	15839
2026-01-20 07:26:50.78	72.09	7.34	-50.0	-62.8	3.8	1.49e+00	0	40	104	0	71	15943
2026-01-20 07:26:52.76	71.82	7.42	-50.0	-62.9	3.8	1.49e+00	0	40	104	0	71	16012
2026-01-20 07:26:54.75	71.54	7.50	-50.0	-62.9	3.8	1.49e+00	0	40	104	0	71	16073
2026-01-20 07:26:56.74	71.26	7.59	-50.0	-62.8	3.8	1.49e+00	0	40	104	0	71	15794
2026-01-20 07:26:58.72	70.99	7.67	-50.0	-62.7	3.8	1.49e+00	0	40	104	0	71	15727
2026-01-20 07:27:00.71	70.71	7.75	-50.0	-62.8	3.8	1.49e+00	0	40	104	0	71	15813
2026-01-20 07:27:02.69	70.42	7.84	-50.0	-62.9	3.8	1.49e+00	0	41	104	0	71	16092
2026-01-20 07:27:04.68	70.14	7.92	-50.0	-62.9	3.8	1.49e+00	0	41	104	0	71	16108
2026-01-20 07:27:06.67	69.85	8.00	-50.0	-62.8	3.8	1.49e+00	0	41	104	0	71	15799
2026-01-20 07:27:08.65	69.57	8.08	-49.9	-62.3	3.8	1.49e+00	0	40	104	0	71	14951
2026-01-20 07:27:10.64	69.28	8.16	-49.9	-62.2	3.8	1.49e+00	0	41	104	0	71	14799
2026-01-20 07:27:12.63	68.99	8.24	-50.0	-62.7	3.8	1.49e+00	0	41	104	0	71	15671
2026-01-20 07:27:14.62	68.70	8.32	-50.0	-62.9	3.8	1.49e+00	0	41	104	0	71	16043
2026-01-20 07:27:16.60	68.40	8.40	-50.0	-62.5	3.8	1.49e+00	0	41	104	0	71	15351
2026-01-20 07:27:18.59	68.11	8.48	-49.8	-60.9	3.9	1.49e+00	0	41	104	0	71	12730
2026-01-20 07:27:20.58	67.81	8.56	-49.8	-60.9	3.9	1.48e+00	0	41	104	0	71	12746
2026-01-20 07:27:22.57	67.51	8.64	-49.8	-61.2	3.8	1.49e+00	0	41	104	0	71	13165
2026-01-20 07:27:24.55	67.21	8.71	-47.2	-51.6	10.0	3.86e-02	0	41	0	0	66	5811
2026-01-20 07:27:26.54	66.91	8.79	-44.6	-47.3	14.4	2.20e-06	0	41	0	0	61	4716
2026-01-20 07:27:28.53	66.61	8.87	-43.8	-46.1	15.5	0.00e+00	0	41	0	0	59	4651
2026-01-20 07:27:30.51	66.30	8.94	-44.8	-47.5	14.2	1.50e-06	0	41	0	0	60	5156
2026-01-20 07:27:32.50	66.00	9.02	-47.3	-51.8	9.8	4.76e-03	0	41	0	0	65	6276
2026-01-20 07:27:34.49	65.69	9.09	-44.7	-47.3	14.5	0.00e+00	0	41	0	0	59	5312
2026-01-20 07:27:36.47	65.38	9.17	-49.4	-58.6	4.0	1.49e+00	0	41	104	0	70	10387
2026-01-20 07:27:38.47	65.07	9.24	-49.6	-59.6	3.9	1.49e+00	0	41	104	0	70	11676
2026-01-20 07:27:40.46	64.75	9.31	-46.3	-49.9	11.8	8.19e-04	0	41	0	0	64	5348
2026-01-20 07:27:42.45	64.44	9.39	-45.2	-48.1	13.7	1.52e-05	0	41	0	0	62	4886
2026-01-20 07:27:44.44	64.12	9.46	-43.5	-45.8	15.9	0.00e+00	0	41	0	0	59	4470
2026-01-20 07:27:46.43	63.80	9.53	-42.6	-44.7	17.0	0.00e+00	0	41	0	0	57	4393
2026-01-20 07:27:48.42	63.48	9.60	-42.0	-44.0	17.7	0.00e+00	0	41	0	0	56	4307
2026-01-20 07:27:50.41	63.16	9.67	-42.0	-44.0	17.6	0.00e+00	0	41	0	0	56	4328
2026-01-20 07:27:52.40	62.84	9.74	-42.1	-44.1	17.6	0.00e+00	0	41	0	0	56	4365
2026-01-20 07:27:54.43	62.51	9.81	-42.1	-44.1	17.6	0.00e+00	0	41	0	0	56	4354
2026-01-20 07:27:56.48	62.17	9.88	-42.3	-44.3	17.4	0.00e+00	0	41	0	0	56	4462
2026-01-20 07:27:58.47	61.85	9.95	-42.3	-44.4	17.3	0.00e+00	0	41	0	0	56	4508
2026-01-20 07:28:00.46	61.52	10.01	-42.3	-44.4	17.3	0.00e+00	0	41	0	0	56	4511
2026-01-20 07:28:02.45	61.19	10.08	-42.4	-44.4	17.3	0.00e+00	0	41	0	0	56	4533
2026-01-20 07:28:04.44	60.86	10.14	-42.3	-44.4	17.3	0.00e+00	0	41	0	0	56	4511
2026-01-20 07:28:06.43	60.52	10.21	-42.4	-44.5	17.2	0.00e+00	0	41	0	0	56	4584
2026-01-20 07:28:08.42	60.19	10.27	-42.5	-44.6	17.1	0.00e+00	0	41	0	0	56	4623
2026-01-20 07:28:10.41	59.85	10.33	-42.5	-44.6	17.2	0.00e+00	0	41	0	0	56	4612
2026-01-20 07:28:12.40	59.51	10.39	-42.5	-44.6	17.2	0.00e+00	0	41	0	0	56	4610
2026-01-20 07:28:14.39	59.17	10.46	-42.4	-44.4	17.4	0.00e+00	0	41	0	0	56	4506
2026-01-20 07:28:16.35	58.84	10.51	-42.2	-44.3	17.5	0.00e+00	0	41	0	0	56	4442
2026-01-20 07:28:18.34	58.50	10.57	-42.1	-44.0	17.6	0.00e+00	0	41	0	0	56	4335
2026-01-20 07:28:20.33	58.15	10.63	-42.2	-44.2	17.5	0.00e+00	0	41	0	0	56	4425
2026-01-20 07:28:22.32	57.81	10.69	-42.4	-44.5	17.3	0.00e+00	0	41	0	0	56	4557
2026-01-20 07:28:24.31	57.46	10.75	-42.5	-44.5	17.2	0.00e+00	0	41	0	0	56	4597
2026-01-20 07:28:26.30	57.12	10.80	-42.5	-44.5	17.2	0.00e+00	0	41	0	0	56	4589
2026-01-20 07:28:28.29	56.77	10.86	-42.5	-44.6	17.2	0.00e+00	0	41	0	0	56	4603
2026-01-20 07:28:30.28	56.42	10.91	-42.5	-44.5	17.2	0.00e+00	0	41	0	0	56	4598
2026-01-20 07:28:32.37	56.05	10.97	-42.5	-44.5	17.2	0.00e+00	0	41	0	0	56	4583
2026-01-20 07:28:34.44	55.68	11.02	-42.5	-44.6	17.2	0.00e+00	0	41	0	0	56	4619
2026-01-20 07:28:36.43	55.33	11.07	-42.4	-44.5	17.3	0.00e+00	0	41	0	0	56	4560
2026-01-20 07:28:38.42	54.97	11.12	-42.4	-44.5	17.3	0.00e+00	0	41	0	0	56	4553
2026-01-20 07:28:40.40	54.62	11.17	-42.5	-44.5	17.2	0.00e+00	0	41	0	0	56	4598
2026-01-20 07:28:42.39	54.26	11.22	-42.6	-44.7	17.2	0.00e+00	0	41	0	0	56	4654
2026-01-20 07:28:44.38	53.90	11.27	-42.3	-44.3	17.5	0.00e+00	0	41	0	0	56	4458
2026-01-20 07:28:46.37	53.54	11.31	-42.2	-44.2	17.5	0.00e+00	0	41	0	0	56	4414
2026-01-20 07:28:48.36	53.18	11.36	-42.2	-44.1	17.6	0.00e+00	0	41	0	0	56	4382
2026-01-20 07:28:50.35	52.82	11.40	-42.2	-44.1	17.6	0.00e+00	0	41	0	0	56	4378
2026-01-20 07:28:52.45	52.44	11.45	-42.3	-44.3	17.5	0.00e+00	0	41	0	0	56	4452
2026-01-20 07:28:54.50	52.06	11.49	-42.4	-44.4	17.4	0.00e+00	0	41	0	0	56	4521
2026-01-20 07:28:56.56	51.68	11.54	-42.4	-44.5	17.3	0.00e+00	0	41	0	0	56	4556
2026-01-20 07:28:58.55	51.32	11.58	-42.5	-44.5	17.3	0.00e+00	0	41	0	0	56	4567
2026-01-20 07:29:00.54	50.95	11.62	-42.5	-44.6	17.2	0.00e+00	0	41	0	0	56	4613
2026-01-20 07:29:02.53	50.58	11.65	-42.5	-44.6	17.2	0.00e+00	0	41	0	0	56	4620
2026-01-20 07:29:04.73	50.17	11.69	-42.3	-44.3	17.5	0.00e+00	0	41	0	0	56	4474
2026-01-20 07:29:06.91	49.77	11.73	-42.3	-44.4	17.4	0.00e+00	0	41	0	0	56	4498
2026-01-20 07:29:09.11	49.35	11.77	-42.0	-44.0	17.8	0.00e+00	0	41	0	0	56	4305
2026-01-20 07:29:11.27	48.95	11.81	-41.8	-43.8	17.8	0.00e+00	0	41	0	0	55	4468
2026-01-20 07:29:13.29	48.57	11.84	-41.9	-43.8	17.8	0.00e+00	0	41	0	0	55	4474
2026-01-20 07:29:15.28	48.20	11.87	-41.8	-43.8	17.9	0.00e+00	0	41	0	0	55	4445
2026-01-20 07:29:17.27	47.82	11.90	-41.8	-43.7	17.9	0.00e+00	0	41	0	0	55	4431
2026-01-20 07:29:19.27	47.45	11.93	-41.8	-43.8	17.8	0.00e+00	0	41	0	0	55	4447
2026-01-20 07:29:21.29	47.06	11.95	-41.8	-43.8	17.8	0.00e+00	0	41	0	0	55	4470
2026-01-20 07:29:23.28	46.69	11.98	-41.7	-43.7	17.9	0.00e+00	0	41	0	0	55	4395
2026-01-20 07:29:25.29	46.31	12.01	-41.7	-43.6	18.0	0.00e+00	0	41	0	0	55	4368
2026-01-20 07:29:27.29	45.93	12.03	-41.7	-43.6	18.0	0.00e+00	0	41	0	0	55	4352
2026-01-20 07:29:29.23	45.56	12.05	-41.7	-43.6	18.0	0.00e+00	0	41	0	0	55	4387
2026-01-20 07:29:31.36	45.15	12.07	-41.9	-43.9	17.8	0.00e+00	0	41	0	0	55	4504
2026-01-20 07:29:33.35	44.77	12.09	-41.9	-43.9	17.8	0.00e+00	0	41	0	0	55	4501
2026-01-20 07:29:35.34	44.39	12.11	-41.9	-43.8	17.8	0.00e+00	0	41	0	0	55	4476
2026-01-20 07:29:37.34	44.01	12.13	-41.7	-43.6	18.0	0.00e+00	0	41	0	0	55	4363
2026-01-20 07:29:39.34	43.63	12.15	-41.7	-43.7	17.9	0.00e+00	0	41	0	0	55	4400
2026-01-20 07:29:41.34	43.24	12.16	-41.7	-43.7	17.9	0.00e+00	0	41	0	0	55	4400
2026-01-20 07:29:43.34	42.86	12.17	-41.8	-43.8	17.8	0.00e+00	0	41	0	0	55	4459
2026-01-20 07:29:45.33	42.48	12.19	-41.8	-43.8	17.8	0.00e+00	0	41	0	0	55	4463
2026-01-20 07:29:47.33	42.09	12.20	-41.8	-43.7	17.9	0.00e+00	0	41	0	0	55	4416
2026-01-20 07:29:49.32	41.71	12.21	-41.7	-43.7	18.0	0.00e+00	0	41	0	0	55	4403
2026-01-20 07:29:51.31	41.33	12.22	-41.8	-43.7	17.9	0.00e+00	0	41	0	0	55	4410
2026-01-20 07:29:53.31	40.94	12.23	-41.8	-43.8	17.9	0.00e+00	0	41	0	0	55	4443
2026-01-20 07:29:55.31	40.55	12.23	-41.8	-43.8	17.9	0.00e+00	0	41	0	0	55	4452
2026-01-20 07:29:57.31	40.17	12.24	-41.7	-43.7	18.0	0.00e+00	0	41	0	0	55	4396
2026-01-20 07:29:59.30	39.79	12.24	-41.8	-43.8	17.8	0.00e+00	0	41	0	0	55	4460
2026-01-20 07:30:01.29	39.40	12.24	-41.9	-43.8	17.8	0.00e+00	0	41	0	0	55	4474
2026-01-20 07:30:03.28	39.02	12.24	-41.9	-43.8	17.7	0.00e+00	0	41	0	0	55	4472
2026-01-20 07:30:05.28	38.63	12.24	-41.9	-43.9	17.7	0.00e+00	0	41	0	0	55	4515
2026-01-20 07:30:07.28	38.25	12.24	-42.0	-44.0	17.6	0.00e+00	0	41	0	0	55	4546
2026-01-20 07:30:09.28	37.86	12.24	-42.0	-44.0	17.6	0.00e+00	0	41	0	0	55	4589
2026-01-20 07:30:11.28	37.48	12.24	-41.8	-43.8	17.8	0.00e+00	0	41	0	0	55	4460
2026-01-20 07:30:13.27	37.09	12.23	-41.7	-43.6	17.9	0.00e+00	0	41	0	0	55	4372
2026-01-20 07:30:15.27	36.71	12.23	-41.7	-43.6	17.9	0.00e+00	0	41	0	0	55	4374
2026-01-20 07:30:17.27	36.32	12.22	-41.7	-43.6	17.9	0.00e+00	0	41	0	0	55	4380
2026-01-20 07:30:19.27	35.94	12.21	-41.6	-43.6	18.0	0.00e+00	0	41	0	0	55	4370
2026-01-20 07:30:21.26	35.55	12.20	-41.7	-43.6	18.0	0.00e+00	0	41	0	0	55	4368
2026-01-20 07:30:23.26	35.17	12.19	-41.6	-43.6	18.0	0.00e+00	0	41	0	0	55	4341
2026-01-20 07:30:25.26	34.79	12.17	-41.7	-43.6	17.9	0.00e+00	0	41	0	0	55	4383
2026-01-20 07:30:27.26	34.40	12.16	-41.7	-43.7	17.9	0.00e+00	0	41	0	0	55	4397
2026-01-20 07:30:29.26	34.02	12.15	-41.8	-43.8	17.7	0.00e+00	0	41	0	0	55	4484
2026-01-20 07:30:31.26	33.64	12.13	-41.8	-43.7	17.8	0.00e+00	0	41	0	0	55	4431
2026-01-20 07:30:33.25	33.26	12.11	-41.7	-43.6	18.0	0.00e+00	0	41	0	0	55	4390
2026-01-20 07:30:35.25	32.87	12.09	-41.6	-43.6	17.9	0.00e+00	0	41	0	0	55	4375
2026-01-20 07:30:37.25	32.49	12.07	-41.7	-43.7	17.8	0.00e+00	0	41	0	0	55	4413
2026-01-20 07:30:39.24	32.11	12.05	-41.8	-43.8	17.8	0.00e+00	0	41	0	0	55	4490
2026-01-20 07:30:41.24	31.73	12.03	-41.8	-43.8	17.8	0.00e+00	0	41	0	0	55	4471
2026-01-20 07:30:43.24	31.35	12.01	-41.8	-43.8	17.8	0.00e+00	0	41	0	0	55	4466
2026-01-20 07:30:45.24	30.98	11.98	-41.6	-43.6	18.0	0.00e+00	0	41	0	0	55	4357
2026-01-20 07:30:47.23	30.60	11.95	-41.6	-43.6	18.0	0.00e+00	0	41	0	0	55	4342
2026-01-20 07:30:49.23	30.22	11.93	-41.8	-43.8	17.8	0.00e+00	0	41	0	0	55	4442
2026-01-20 07:30:51.23	29.84	11.90	-41.9	-43.9	17.7	0.00e+00	0	41	0	0	55	4529
2026-01-20 07:30:53.22	29.47	11.87	-41.9	-44.0	17.6	0.00e+00	0	41	0	0	55	4564
2026-01-20 07:30:55.21	29.10	11.84	-41.9	-44.0	17.6	0.00e+00	0	41	0	0	55	4568
2026-01-20 07:30:57.21	28.72	11.81	-42.0	-44.1	17.5	0.00e+00	0	41	0	0	55	4613
2026-01-20 07:30:59.21	28.35	11.77	-42.1	-44.2	17.4	0.00e+00	0	41	0	0	55	4670
2026-01-20 07:31:01.20	27.98	11.74	-42.0	-44.0	17.6	0.00e+00	0	41	0	0	55	4576
2026-01-20 07:31:03.20	27.61	11.70	-42.0	-44.0	17.6	0.00e+00	0	41	0	0	55	4590
2026-01-20 07:31:05.20	27.24	11.67	-42.0	-44.0	17.6	0.00e+00	0	41	0	0	55	4586
2026-01-20 07:31:07.19	26.87	11.63	-41.9	-43.9	17.6	0.00e+00	0	41	0	0	55	4537
2026-01-20 07:31:09.19	26.50	11.59	-41.8	-43.9	17.7	0.00e+00	0	41	0	0	55	4497
2026-01-20 07:31:11.18	26.13	11.55	-42.0	-44.1	17.4	0.00e+00	0	41	0	0	55	4640
2026-01-20 07:31:13.19	25.76	11.51	-41.9	-44.1	17.4	0.00e+00	0	41	0	0	55	4635
2026-01-20 07:31:15.18	25.40	11.47	-41.9	-44.0	17.5	0.00e+00	0	41	0	0	55	4597
2026-01-20 07:31:17.17	25.04	11.43	-41.9	-44.0	17.5	0.00e+00	0	41	0	0	55	4590
2026-01-20 07:31:19.17	24.67	11.38	-41.8	-43.8	17.7	0.00e+00	0	41	0	0	55	4487
2026-01-20 07:31:21.17	24.31	11.34	-41.8	-43.8	17.7	0.00e+00	0	41	0	0	55	4487
2026-01-20 07:31:23.17	23.95	11.29	-41.8	-43.8	17.8	0.00e+00	0	41	0	0	55	4466
2026-01-20 07:31:25.16	23.59	11.25	-41.8	-43.8	17.8	0.00e+00	0	41	0	0	55	4452
2026-01-20 07:31:27.16	23.23	11.20	-41.8	-43.8	17.7	0.00e+00	0	41	0	0	55	4487
2026-01-20 07:31:29.16	22.87	11.15	-42.0	-44.1	17.5	0.00e+00	0	41	0	0	55	4602
2026-01-20 07:31:31.16	22.52	11.10	-41.9	-44.0	17.6	0.00e+00	0	41	0	0	55	4555
2026-01-20 07:31:33.16	22.16	11.05	-41.6	-43.7	17.9	0.00e+00	0	41	0	0	55	4421
2026-01-20 07:31:35.16	21.81	11.00	-41.7	-43.9	17.7	0.00e+00	0	41	0	0	55	4501
2026-01-20 07:31:37.16	21.45	10.94	-41.7	-43.9	17.7	0.00e+00	0	41	0	0	55	4500
2026-01-20 07:31:39.16	21.10	10.89	-41.6	-43.8	17.8	0.00e+00	0	41	0	0	55	4464
2026-01-20 07:31:41.16	20.75	10.83	-41.5	-43.7	17.8	0.00e+00	0	41	0	0	55	4422
2026-01-20 07:31:43.16	20.40	10.78	-41.4	-43.6	17.9	0.00e+00	0	41	0	0	54	4650
2026-01-20 07:31:45.15	20.06	10.72	-41.6	-43.7	17.8	0.00e+00	0	41	0	0	54	4693
2026-01-20 07:31:47.14	19.71	10.67	-41.6	-43.7	17.9	0.00e+00	0	41	0	0	54	4658
2026-01-20 07:31:49.14	19.37	10.61	-41.8	-43.9	17.7	0.00e+00	0	41	0	0	54	4767
2026-01-20 07:31:51.13	19.03	10.55	-41.9	-44.0	17.6	0.00e+00	0	41	0	0	54	4848
2026-01-20 07:31:53.12	18.69	10.49	-42.0	-44.1	17.5	0.00e+00	0	41	0	0	54	4884
2026-01-20 07:31:55.12	18.35	10.43	-42.0	-44.1	17.5	0.00e+00	0	41	0	0	54	4924
2026-01-20 07:31:57.12	18.01	10.37	-42.1	-44.1	17.5	0.00e+00	0	41	0	0	54	4923
2026-01-20 07:31:59.12	17.67	10.30	-42.0	-44.1	17.5	0.00e+00	0	41	0	0	54	4897
2026-01-20 07:32:01.12	17.33	10.24	-42.1	-44.2	17.3	0.00e+00	0	41	0	0	54	4982
2026-01-20 07:32:03.11	17.00	10.18	-42.2	-44.4	17.1	0.00e+00	0	41	0	0	55	4806
2026-01-20 07:32:05.11	16.67	10.11	-42.2	-44.6	17.0	0.00e+00	0	41	0	0	55	4897
2026-01-20 07:32:07.11	16.34	10.05	-42.1	-44.5	17.1	0.00e+00	0	41	0	0	55	4817
2026-01-20 07:32:09.11	16.01	9.98	-42.0	-44.3	17.2	0.00e+00	0	41	0	0	55	4745
2026-01-20 07:32:11.11	15.68	9.91	-41.8	-44.1	17.4	0.00e+00	0	41	0	0	55	4606
2026-01-20 07:32:13.11	15.35	9.85	-41.8	-44.0	17.5	0.00e+00	0	41	0	0	55	4571
2026-01-20 07:32:15.10	15.03	9.78	-41.9	-44.1	17.5	0.00e+00	0	41	0	0	55	4602
2026-01-20 07:32:17.10	14.70	9.71	-42.0	-44.2	17.3	0.00e+00	0	41	0	0	55	4677
2026-01-20 07:32:19.10	14.38	9.64	-42.1	-44.3	17.2	0.00e+00	0	41	0	0	55	4720
2026-01-20 07:32:21.11	14.06	9.57	-42.2	-44.4	17.1	0.00e+00	0	41	0	0	55	4790
2026-01-20 07:32:23.10	13.74	9.50	-42.1	-44.3	17.2	0.00e+00	0	41	0	0	55	4731
2026-01-20 07:32:25.10	13.42	9.43	-42.2	-44.4	17.1	0.00e+00	0	41	0	0	55	4784
2026-01-20 07:32:27.09	13.11	9.35	-42.2	-44.5	17.0	0.00e+00	0	41	0	0	55	4818
2026-01-20 07:32:29.09	12.80	9.28	-42.0	-44.2	17.3	0.00e+00	0	41	0	0	55	4704
2026-01-20 07:32:31.08	12.48	9.21	-42.1	-44.3	17.2	0.00e+00	0	41	0	0	55	4732
2026-01-20 07:32:33.08	12.17	9.13	-42.2	-44.5	17.0	0.00e+00	0	41	0	0	55	4818
2026-01-20 07:32:35.08	11.86	9.06	-42.2	-44.5	16.9	0.00e+00	0	41	0	0	55	4853
2026-01-20 07:32:37.07	11.56	8.98	-49.0	-59.2	4.4	2.04e-02	0	41	0	0	68	12497
2026-01-20 07:32:39.07	11.25	8.91	-49.6	-63.5	3.8	1.49e+00	0	41	104	0	69	19175
2026-01-20 07:32:41.07	10.95	8.83	-50.0	-63.6	3.8	1.49e+00	0	41	104	0	71	17447
2026-01-20 07:32:43.06	10.65	8.75	-50.3	-63.7	3.8	1.49e+00	0	41	104	0	71	17586
2026-01-20 07:32:45.06	10.34	8.68	-50.4	-63.8	3.8	1.49e+00	0	41	104	0	71	17734
2026-01-20 07:32:47.05	10.05	8.60	-50.6	-63.8	3.8	1.49e+00	0	41	104	0	72	16831
2026-01-20 07:32:49.05	9.75	8.52	-50.7	-63.9	3.8	1.49e+00	0	41	104	0	72	16890
2026-01-20 07:32:51.04	9.45	8.44	-50.6	-63.9	3.8	1.49e+00	0	41	104	0	72	16962
2026-01-20 07:32:53.04	9.16	8.36	-50.8	-63.9	3.8	1.49e+00	0	41	104	0	72	16925
2026-01-20 07:32:55.03	8.87	8.28	-50.7	-63.8	3.8	1.49e+00	0	41	104	0	72	16874
2026-01-20 07:32:57.03	8.58	8.20	-50.8	-63.9	3.8	1.49e+00	0	41	104	0	72	16893
2026-01-20 07:32:59.02	8.29	8.12	-50.7	-63.8	3.8	1.49e+00	0	41	104	0	72	16741
2026-01-20 07:33:01.02	8.00	8.04	-50.7	-63.8	3.8	1.49e+00	0	41	104	0	72	16790
2026-01-20 07:33:03.01	7.71	7.96	-50.5	-63.8	3.8	1.49e+00	0	41	104	0	72	16705
2026-01-20 07:33:05.00	7.43	7.88	-50.5	-63.8	3.8	1.49e+00	0	41	104	0	72	16724
2026-01-20 07:33:06.99	7.15	7.80	-50.5	-63.8	3.8	1.49e+00	0	41	104	0	72	16742
2026-01-20 07:33:08.99	6.87	7.71	-50.5	-63.7	3.8	1.49e+00	0	41	104	0	72	16683
2026-01-20 07:33:10.99	6.59	7.63	-50.5	-63.8	3.8	1.49e+00	0	41	104	0	72	16698
2026-01-20 07:33:12.98	6.31	7.55	-50.5	-63.8	3.8	1.49e+00	0	41	104	0	72	16738
2026-01-20 07:33:14.98	6.03	7.46	-50.5	-63.7	3.8	1.49e+00	0	41	104	0	72	16642
2026-01-20 07:33:16.97	5.76	7.38	-50.5	-63.8	3.8	1.49e+00	0	41	104	0	72	16698
2026-01-20 07:33:18.98	5.48	7.29	-50.5	-63.8	3.8	1.49e+00	0	41	104	0	72	16707
2026-01-20 07:33:20.97	5.21	7.21	-50.5	-63.7	3.8	1.49e+00	0	41	104	0	72	16613
2026-01-20 07:33:22.96	4.94	7.12	-50.5	-63.7	3.8	1.49e+00	0	41	104	0	72	16642
2026-01-20 07:33:24.95	4.68	7.04	-50.5	-63.7	3.8	1.49e+00	0	41	104	0	72	16665
2026-01-20 07:33:26.95	4.41	6.95	-50.5	-63.8	3.8	1.49e+00	0	41	104	0	72	16700
2026-01-20 07:33:28.94	4.15	6.87	-50.5	-63.7	3.8	1.49e+00	0	41	104	0	72	16643
2026-01-20 07:33:30.94	3.88	6.78	-50.5	-63.7	3.8	1.49e+00	0	41	104	0	72	16673
2026-01-20 07:33:32.94	3.62	6.69	-50.5	-63.7	3.8	1.49e+00	0	41	104	0	72	16593
2026-01-20 07:33:34.93	3.36	6.61	-50.5	-63.7	3.8	1.49e+00	0	41	104	0	72	16580
2026-01-20 07:33:36.93	3.10	6.52	-50.5	-63.7	3.8	1.49e+00	0	41	104	0	72	16655
2026-01-20 07:33:38.93	2.84	6.43	-50.5	-63.7	3.8	1.49e+00	0	41	104	0	72	16679
2026-01-20 07:33:40.93	2.59	6.34	-50.5	-63.7	3.8	1.49e+00	0	41	104	0	72	16587
2026-01-20 07:33:42.92	2.34	6.26	-50.5	-63.7	3.8	1.49e+00	0	41	104	0	72	16675
2026-01-20 07:33:44.92	2.08	6.17	-50.5	-63.7	3.8	1.49e+00	0	41	104	0	72	16638
2026-01-20 07:33:46.91	1.83	6.08	-50.5	-63.7	3.8	1.49e+00	0	41	104	0	72	16633
2026-01-20 07:33:48.91	1.58	5.99	-50.5	-63.7	3.8	1.49e+00	0	41	104	0	72	16621
2026-01-20 07:33:50.91	1.34	5.90	-50.5	-63.7	3.8	1.49e+00	0	41	104	0	72	16578
2026-01-20 07:33:52.90	1.09	5.81	-50.5	-63.7	3.8	1.49e+00	0	41	104	0	72	16585
2026-01-20 07:33:54.90	0.85	5.73	-50.5	-63.7	3.8	1.49e+00	0	41	104	0	72	16607
2026-01-20 07:33:56.89	0.60	5.64	-50.5	-63.7	3.8	1.49e+00	0	41	104	0	72	16641
2026-01-20 07:33:58.89	0.36	5.55	-50.5	-63.7	3.8	1.49e+00	0	41	104	0	72	16663
2026-01-20 07:34:00.89	0.12	5.46	-50.5	-63.7	3.8	1.49e+00	0	41	104	0	72	16576
2026-01-20 07:34:02.88	359.88	5.37	-50.5	-63.8	3.8	1.49e+00	0	41	104	0	72	16699
2026-01-20 07:34:04.88	359.65	5.28	-50.5	-63.7	3.8	1.49e+00	0	41	104	0	72	16626
2026-01-20 07:34:06.87	359.41	5.19	-50.5	-63.7	3.8	1.49e+00	0	41	104	0	72	16616
2026-01-20 07:34:08.87	359.18	5.10	-50.5	-63.7	3.8	1.49e+00	0	41	104	0	72	16545
2026-01-20 07:34:10.86	358.95	5.01	-50.5	-63.7	3.8	1.49e+00	0	41	104	0	72	16657

#Closed at: 2026-01-20 07:34:12
#Recorded file [0 MB]: D:/Data/31040_260120_102559.dat