passes_logs/2026/01/20/T1/T1__20260120_075431_SUOMI_NPP_rec.log

#Pass ID: 20260120_075431_SUOMI NPP
#Satellite: SUOMI NPP
#Configuration: NPP
#almurnet v.1.7.20251203
#Start time: 2026-01-20 07:54:32

#Version: 2.0.20230620
#Station: T1
#Location: 37.570604 lon 55.790049 lat
#TLE: 1 37849U 11061A   26019.61507914  .00000076  00000+0  57195-4 0  9994
#TLE: 2 37849  98.7817 321.6240 0002347  55.5899 304.5499 14.19526391737369

#Time	Az	El	Level	Level2	SNR	BER	BlckErr	Temp	State	Recorded	gain1	gain2
2026-01-20 07:54:32.06	92.85	5.01	-49.6	-65.2	3.8	1.49e+00	0	37	0	0	71	20805
2026-01-20 07:54:35.04	92.54	5.17	-49.6	-65.1	3.8	1.49e+00	0	37	104	0	71	20699
2026-01-20 07:54:38.02	92.23	5.33	-49.6	-65.1	3.8	1.49e+00	0	38	104	0	71	20736
2026-01-20 07:54:41.01	91.92	5.49	-49.6	-65.1	3.8	1.49e+00	0	38	104	0	71	20736
2026-01-20 07:54:43.99	91.60	5.65	-49.6	-65.1	3.8	1.49e+00	0	38	104	0	71	20688
2026-01-20 07:54:46.98	91.28	5.81	-49.6	-65.0	3.8	1.49e+00	0	38	104	0	71	20538
2026-01-20 07:54:49.97	90.96	5.97	-49.6	-65.1	3.8	1.49e+00	0	38	104	0	71	20707
2026-01-20 07:54:52.96	90.63	6.13	-49.6	-65.1	3.8	1.49e+00	0	38	104	0	71	20703
2026-01-20 07:54:55.95	90.30	6.29	-49.6	-65.1	3.8	1.49e+00	0	38	104	0	71	20574
2026-01-20 07:54:58.93	89.97	6.45	-49.6	-65.1	3.8	1.49e+00	0	38	104	0	71	20652
2026-01-20 07:55:01.92	89.63	6.61	-49.6	-65.1	3.8	1.49e+00	0	38	104	0	71	20549
2026-01-20 07:55:04.91	89.29	6.77	-49.6	-65.0	3.8	1.49e+00	0	39	104	0	71	20394
2026-01-20 07:55:07.90	88.94	6.93	-49.6	-64.8	3.8	1.49e+00	0	39	104	0	71	20018
2026-01-20 07:55:10.89	88.59	7.09	-49.6	-64.9	3.8	1.49e+00	0	39	104	0	71	20137
2026-01-20 07:55:13.88	88.24	7.25	-49.6	-65.0	3.8	1.49e+00	0	39	104	0	71	20307
2026-01-20 07:55:16.87	87.88	7.41	-49.6	-64.8	3.8	1.49e+00	0	39	104	0	71	20041
2026-01-20 07:55:19.86	87.52	7.57	-49.6	-64.4	3.8	1.49e+00	0	39	104	0	71	19001
2026-01-20 07:55:22.85	87.15	7.74	-49.6	-64.3	3.8	1.49e+00	0	39	104	0	71	18945
2026-01-20 07:55:25.84	86.78	7.90	-49.6	-64.9	3.8	1.49e+00	0	39	104	0	71	20161
2026-01-20 07:55:28.83	86.41	8.06	-49.5	-64.3	3.8	1.49e+00	0	39	104	0	71	18734
2026-01-20 07:55:31.82	86.03	8.22	-49.5	-63.5	3.8	1.49e+00	0	39	104	0	71	17270
2026-01-20 07:55:34.81	85.65	8.38	-49.5	-64.1	3.8	1.49e+00	0	39	104	0	71	18500
2026-01-20 07:55:37.80	85.26	8.54	-48.0	-54.3	9.3	4.35e-02	0	39	0	3145728	68	7080
2026-01-20 07:55:40.78	84.87	8.69	-46.3	-50.4	13.3	3.20e-05	0	39	0	9437184	64	5697
2026-01-20 07:55:43.78	84.48	8.85	-46.8	-51.4	12.2	1.38e-04	0	39	0	14680064	64	6409
2026-01-20 07:55:46.77	84.08	9.01	-48.9	-58.0	6.0	1.26e-01	0	39	0	19922944	68	10789
2026-01-20 07:55:49.77	83.67	9.17	-49.4	-62.2	4.0	1.82e-02	0	39	0	26214400	69	16605
2026-01-20 07:55:52.77	83.26	9.33	-46.8	-51.5	12.2	6.19e-01	0	39	0	29360128	65	6089
2026-01-20 07:55:55.78	82.84	9.49	-47.1	-52.1	11.6	6.06e-04	0	39	0	34603008	65	6541
2026-01-20 07:55:58.78	82.42	9.65	-46.2	-50.2	13.5	3.12e-05	0	39	0	40894464	64	5558
2026-01-20 07:56:01.79	82.00	9.81	-46.2	-50.3	13.5	1.44e-05	0	39	0	46137344	64	5598
2026-01-20 07:56:04.79	81.57	9.96	-46.0	-49.9	13.9	4.50e-06	0	40	0	52428800	64	5364
2026-01-20 07:56:07.80	81.13	10.12	-45.6	-49.1	14.8	0.00e+00	0	39	0	57671680	63	5166
2026-01-20 07:56:10.81	80.69	10.27	-45.4	-48.7	15.2	0.00e+00	0	40	0	62914560	62	5249
2026-01-20 07:56:13.81	80.25	10.43	-45.1	-48.3	15.6	0.00e+00	0	40	0	69206016	62	5023
2026-01-20 07:56:16.82	79.80	10.58	-44.9	-48.1	15.8	0.00e+00	0	40	0	74448896	61	5191
2026-01-20 07:56:19.81	79.35	10.74	-44.8	-47.8	16.1	0.00e+00	0	40	0	79691776	61	5020
2026-01-20 07:56:22.81	78.89	10.89	-44.5	-47.3	16.5	0.00e+00	0	40	0	85983232	60	5032
2026-01-20 07:56:25.82	78.43	11.04	-44.2	-47.0	16.9	0.00e+00	0	40	0	91226112	60	4839
2026-01-20 07:56:28.82	77.96	11.19	-44.4	-47.3	16.7	0.00e+00	0	40	0	97517568	60	5029
2026-01-20 07:56:31.83	77.49	11.34	-44.5	-47.5	16.4	0.00e+00	0	40	0	102760448	60	5137
2026-01-20 07:56:34.83	77.01	11.49	-44.5	-47.4	16.5	0.00e+00	0	40	0	108003328	60	5093
2026-01-20 07:56:37.84	76.53	11.64	-44.0	-46.7	17.1	0.00e+00	0	39	0	114294784	60	4683
2026-01-20 07:56:40.84	76.04	11.79	-44.3	-47.0	16.8	0.00e+00	0	40	0	119537664	59	5154
2026-01-20 07:56:43.84	75.55	11.93	-43.7	-46.3	17.5	0.00e+00	0	40	0	124780544	59	4729
2026-01-20 07:56:46.85	75.05	12.08	-43.9	-46.5	17.1	0.00e+00	0	40	0	131072000	59	4843
2026-01-20 07:56:49.86	74.55	12.22	-44.1	-46.8	17.0	0.00e+00	0	39	0	136314880	59	5031
2026-01-20 07:56:52.86	74.04	12.37	-44.4	-47.2	16.7	0.00e+00	0	40	0	141557760	59	5257
2026-01-20 07:56:55.86	73.53	12.51	-43.8	-46.5	17.4	0.00e+00	0	40	0	147849216	59	4825
2026-01-20 07:56:58.87	73.01	12.65	-43.4	-45.9	17.9	0.00e+00	0	40	0	153092096	58	4765
2026-01-20 07:57:01.86	72.50	12.78	-43.5	-46.0	17.9	0.00e+00	0	40	0	159383552	58	4827
2026-01-20 07:57:04.87	71.97	12.92	-43.8	-46.4	17.4	0.00e+00	0	40	0	164626432	58	5100
2026-01-20 07:57:07.87	71.44	13.05	-43.9	-46.6	17.2	0.00e+00	0	40	0	169869312	58	5208
2026-01-20 07:57:10.88	70.90	13.19	-44.2	-46.9	17.0	0.00e+00	0	40	0	176160768	59	5094
2026-01-20 07:57:13.88	70.36	13.32	-43.9	-46.7	17.0	0.00e+00	0	40	0	181403648	59	4941
2026-01-20 07:57:16.88	69.81	13.45	-43.8	-46.7	17.0	0.00e+00	0	40	0	186646528	59	4930
2026-01-20 07:57:19.89	69.26	13.57	-44.3	-47.3	16.5	0.00e+00	0	40	0	192937984	59	5329
2026-01-20 07:57:22.89	68.71	13.70	-44.2	-47.3	16.5	0.00e+00	0	40	0	198180864	59	5301
2026-01-20 07:57:25.89	68.15	13.82	-44.0	-46.9	16.9	0.00e+00	0	40	0	204472320	59	5054
2026-01-20 07:57:28.90	67.58	13.94	-43.6	-46.3	17.4	0.00e+00	0	40	0	209715200	59	4738
2026-01-20 07:57:31.90	67.01	14.06	-43.8	-46.6	17.2	0.00e+00	0	40	0	214958080	59	4883
2026-01-20 07:57:34.90	66.44	14.18	-43.7	-46.5	17.2	0.00e+00	0	40	0	221249536	59	4844
2026-01-20 07:57:37.91	65.86	14.29	-43.5	-46.2	17.5	0.00e+00	0	40	0	226492416	58	4953
2026-01-20 07:57:40.91	65.28	14.41	-43.6	-46.4	17.4	0.00e+00	0	40	0	231735296	58	5049
2026-01-20 07:57:43.91	64.69	14.52	-43.9	-46.7	17.1	0.00e+00	0	40	0	238026752	58	5244
2026-01-20 07:57:46.92	64.10	14.62	-43.8	-46.6	17.2	0.00e+00	0	40	0	243269632	58	5193
2026-01-20 07:57:49.92	63.50	14.73	-43.2	-45.7	18.0	0.00e+00	0	40	0	249561088	58	4686
2026-01-20 07:57:52.92	62.90	14.83	-43.0	-45.6	18.2	0.00e+00	0	40	0	254803968	58	4611
2026-01-20 07:57:55.93	62.30	14.93	-43.1	-45.7	18.1	0.00e+00	0	40	0	260046848	57	4927
2026-01-20 07:57:58.92	61.69	15.02	-43.4	-46.1	17.7	0.00e+00	0	40	0	266338304	57	5166
2026-01-20 07:58:01.93	61.08	15.12	-43.2	-45.8	18.0	0.00e+00	0	40	0	271581184	57	4989
2026-01-20 07:58:04.93	60.46	15.21	-43.2	-45.7	18.0	0.00e+00	0	40	0	276824064	57	4972
2026-01-20 07:58:07.93	59.84	15.29	-43.6	-46.3	17.5	0.00e+00	0	40	0	283115520	57	5297
2026-01-20 07:58:10.93	59.22	15.38	-44.0	-46.7	17.1	0.00e+00	0	40	0	288358400	58	5278
2026-01-20 07:58:13.93	58.59	15.46	-44.0	-46.9	17.0	0.00e+00	0	40	0	293601280	58	5342
2026-01-20 07:58:16.94	57.96	15.54	-43.8	-46.6	17.2	0.00e+00	0	40	0	299892736	58	5195
2026-01-20 07:58:19.94	57.33	15.61	-43.8	-46.5	17.3	0.00e+00	0	40	0	305135616	58	5152
2026-01-20 07:58:22.95	56.69	15.68	-43.6	-46.3	17.6	0.00e+00	0	40	0	311427072	58	4990
2026-01-20 07:58:25.95	56.05	15.75	-43.6	-46.3	17.5	0.00e+00	0	40	0	316669952	58	5005
2026-01-20 07:58:28.95	55.41	15.81	-43.4	-46.0	17.8	0.00e+00	0	40	0	321912832	58	4839
2026-01-20 07:58:31.95	54.77	15.87	-43.3	-45.9	17.9	0.00e+00	0	40	0	328204288	58	4761
2026-01-20 07:58:34.95	54.12	15.93	-43.6	-46.3	17.4	0.00e+00	0	40	0	333447168	58	5021
2026-01-20 07:58:37.96	53.47	15.99	-43.7	-46.5	17.3	0.00e+00	0	40	0	338690048	58	5126
2026-01-20 07:58:40.96	52.82	16.04	-43.8	-46.6	17.2	0.00e+00	0	40	0	344981504	58	5218
2026-01-20 07:58:43.96	52.17	16.08	-44.2	-47.2	16.7	0.00e+00	0	40	0	350224384	59	5249
2026-01-20 07:58:46.97	51.51	16.12	-44.3	-47.3	16.6	0.00e+00	0	40	0	356515840	59	5297
2026-01-20 07:58:49.97	50.85	16.16	-43.9	-46.8	17.0	0.00e+00	0	40	0	361758720	59	5001
2026-01-20 07:58:52.97	50.19	16.20	-43.8	-46.7	17.1	0.00e+00	0	40	0	367001600	59	4955
2026-01-20 07:58:55.97	49.53	16.23	-43.9	-46.8	17.0	0.00e+00	0	40	0	373293056	59	5022
2026-01-20 07:58:58.98	48.87	16.26	-43.5	-46.3	17.5	0.00e+00	0	40	0	378535936	59	4724
2026-01-20 07:59:01.98	48.21	16.28	-43.4	-46.1	17.7	0.00e+00	0	40	0	383778816	58	4893
2026-01-20 07:59:04.98	47.55	16.30	-43.6	-46.4	17.4	0.00e+00	0	40	0	390070272	58	5056
2026-01-20 07:59:07.98	46.88	16.32	-43.9	-46.8	17.1	0.00e+00	0	40	0	395313152	58	5292
2026-01-20 07:59:10.97	46.22	16.33	-43.8	-46.6	17.2	0.00e+00	0	40	0	400556032	58	5206
2026-01-20 07:59:13.98	45.55	16.34	-43.5	-46.2	17.6	0.00e+00	0	40	0	406847488	58	4948
2026-01-20 07:59:16.98	44.89	16.34	-43.4	-46.1	17.7	0.00e+00	0	40	0	412090368	58	4895
2026-01-20 07:59:19.99	44.22	16.34	-43.8	-46.6	17.2	0.00e+00	0	40	0	418381824	58	5199
2026-01-20 07:59:23.00	43.55	16.34	-44.1	-47.1	16.8	0.00e+00	0	40	0	423624704	58	5480
2026-01-20 07:59:26.00	42.89	16.33	-44.5	-47.5	16.3	0.00e+00	0	40	0	428867584	59	5461
2026-01-20 07:59:29.01	42.22	16.32	-44.6	-47.8	16.1	0.00e+00	0	40	0	435159040	60	5308
2026-01-20 07:59:32.02	41.55	16.31	-44.2	-47.3	16.5	0.00e+00	0	40	0	440401920	60	5033
2026-01-20 07:59:35.01	40.89	16.29	-43.9	-46.8	17.0	0.00e+00	0	40	0	445644800	59	5002
2026-01-20 07:59:38.02	40.23	16.26	-43.9	-46.7	17.1	0.00e+00	0	40	0	451936256	59	4959
2026-01-20 07:59:41.02	39.57	16.24	-43.7	-46.5	17.3	0.00e+00	0	40	0	457179136	59	4839
2026-01-20 07:59:44.02	38.91	16.21	-43.8	-46.6	17.2	0.00e+00	0	40	0	463470592	59	4915
2026-01-20 07:59:47.03	38.25	16.17	-43.5	-46.2	17.7	0.00e+00	0	40	0	468713472	59	4661
2026-01-20 07:59:50.03	37.59	16.13	-42.8	-45.3	18.4	0.00e+00	0	40	0	473956352	57	4722
2026-01-20 07:59:53.03	36.94	16.09	-43.1	-45.6	18.2	0.00e+00	0	40	0	480247808	57	4917
2026-01-20 07:59:56.03	36.28	16.04	-43.3	-45.9	17.9	0.00e+00	0	40	0	485490688	57	5091
2026-01-20 07:59:59.04	35.63	16.00	-43.3	-46.0	17.8	0.00e+00	0	40	0	490733568	57	5140
2026-01-20 08:00:02.04	34.98	15.94	-43.5	-46.2	17.6	0.00e+00	0	40	0	497025024	57	5247
2026-01-20 08:00:05.05	34.34	15.89	-43.7	-46.5	17.4	0.00e+00	0	40	0	502267904	58	5134
2026-01-20 08:00:08.05	33.69	15.83	-43.5	-46.2	17.6	0.00e+00	0	40	0	507510784	58	4981
2026-01-20 08:00:11.05	33.05	15.76	-43.2	-45.8	18.0	0.00e+00	0	40	0	513802240	58	4729
2026-01-20 08:00:14.05	32.41	15.70	-43.2	-45.7	18.1	0.00e+00	0	40	0	519045120	58	4699
2026-01-20 08:00:17.05	31.78	15.62	-43.1	-45.6	18.1	0.00e+00	0	40	0	525336576	58	4639
2026-01-20 08:00:20.05	31.15	15.55	-43.3	-45.9	17.9	0.00e+00	0	40	0	530579456	58	4809
2026-01-20 08:00:23.05	30.52	15.47	-43.8	-46.5	17.3	0.00e+00	0	40	0	535822336	58	5154
2026-01-20 08:00:26.06	29.89	15.39	-43.6	-46.3	17.5	0.00e+00	0	40	0	542113792	58	5020
2026-01-20 08:00:29.07	29.27	15.31	-44.1	-47.1	16.8	0.00e+00	0	40	0	547356672	58	5485
2026-01-20 08:00:32.07	28.65	15.22	-44.1	-47.1	16.8	0.00e+00	0	40	0	552599552	59	5175
2026-01-20 08:00:35.07	28.04	15.13	-43.9	-47.0	16.9	0.00e+00	0	40	0	558891008	59	5143
2026-01-20 08:00:38.08	27.42	15.04	-43.8	-46.9	17.0	0.00e+00	0	40	0	564133888	59	5048
2026-01-20 08:00:41.08	26.82	14.95	-43.6	-46.5	17.4	0.00e+00	0	40	0	570425344	59	4845
2026-01-20 08:00:44.09	26.21	14.85	-43.7	-46.5	17.4	0.00e+00	0	40	0	575668224	58	5130
2026-01-20 08:00:47.09	25.62	14.75	-43.7	-46.5	17.4	0.00e+00	0	40	0	580911104	58	5121
2026-01-20 08:00:50.08	25.02	14.64	-43.1	-45.7	18.2	0.00e+00	0	40	0	587202560	58	4685
2026-01-20 08:00:53.09	24.43	14.54	-42.9	-45.6	18.2	0.00e+00	0	40	0	592445440	57	4898
2026-01-20 08:00:56.09	23.85	14.43	-43.3	-46.2	17.7	0.00e+00	0	40	0	597688320	57	5219
2026-01-20 08:00:59.10	23.26	14.32	-43.8	-46.8	17.1	0.00e+00	0	40	0	603979776	58	5335
2026-01-20 08:01:02.10	22.69	14.20	-44.6	-47.8	16.2	0.00e+00	0	40	0	609222656	59	5613
2026-01-20 08:01:05.10	22.11	14.09	-44.5	-47.7	16.3	0.00e+00	0	40	0	614465536	60	5257
2026-01-20 08:01:08.10	21.55	13.97	-44.4	-47.5	16.4	0.00e+00	0	40	0	620756992	60	5140
2026-01-20 08:01:11.10	20.98	13.85	-44.3	-47.5	16.4	0.00e+00	0	40	0	625999872	60	5154
2026-01-20 08:01:14.10	20.42	13.73	-44.2	-47.7	16.3	0.00e+00	0	40	0	632291328	60	5239
2026-01-20 08:01:17.10	19.87	13.60	-44.0	-47.3	16.6	0.00e+00	0	40	0	637534208	59	5301
2026-01-20 08:01:20.11	19.32	13.48	-44.0	-47.2	16.7	0.00e+00	0	40	0	642777088	59	5271
2026-01-20 08:01:23.11	18.78	13.35	-44.1	-47.0	16.8	0.00e+00	0	40	0	649068544	59	5136
2026-01-20 08:01:26.11	18.24	13.22	-43.6	-46.3	17.6	0.00e+00	0	40	0	654311424	59	4717
2026-01-20 08:01:29.11	17.70	13.09	-43.7	-46.5	17.4	0.00e+00	0	40	0	659554304	59	4823
2026-01-20 08:01:32.11	17.17	12.95	-44.3	-47.4	16.5	0.00e+00	0	40	0	665845760	59	5362
2026-01-20 08:01:35.12	16.65	12.82	-44.2	-47.4	16.4	0.00e+00	0	40	0	671088640	59	5401
2026-01-20 08:01:38.12	16.13	12.68	-43.9	-47.2	16.7	0.00e+00	0	40	0	677380096	59	5235
2026-01-20 08:01:41.12	15.61	12.54	-44.0	-47.4	16.5	0.00e+00	0	40	0	682622976	59	5382
2026-01-20 08:01:44.12	15.10	12.40	-44.5	-48.5	15.5	0.00e+00	0	40	0	687865856	59	6088
2026-01-20 08:01:47.13	14.60	12.26	-45.6	-50.8	13.2	1.06e-05	0	40	0	694157312	61	7068
2026-01-20 08:01:50.13	14.10	12.12	-45.8	-50.7	13.3	2.05e-05	0	40	0	699400192	62	6606
2026-01-20 08:01:53.14	13.60	11.97	-45.6	-49.7	14.3	2.20e-06	0	40	0	704643072	62	5903
2026-01-20 08:01:56.14	13.11	11.83	-45.4	-49.3	14.7	0.00e+00	0	40	0	710934528	62	5630
2026-01-20 08:01:59.15	12.62	11.68	-45.0	-48.7	15.3	0.00e+00	0	40	0	716177408	61	5570
2026-01-20 08:02:02.15	12.14	11.53	-44.5	-47.9	16.1	0.00e+00	0	40	0	721420288	61	5070
2026-01-20 08:02:05.16	11.67	11.39	-44.5	-48.1	15.8	0.00e+00	0	40	0	727711744	60	5511
2026-01-20 08:02:08.16	11.20	11.24	-44.4	-48.5	15.4	0.00e+00	0	40	0	732954624	60	5787
2026-01-20 08:02:11.16	10.73	11.09	-44.2	-48.1	15.8	0.00e+00	0	40	0	739246080	60	5479
2026-01-20 08:02:14.17	10.27	10.93	-44.1	-47.8	16.1	0.00e+00	0	40	0	744488960	59	5630
2026-01-20 08:02:17.17	9.81	10.78	-43.6	-47.7	16.2	0.00e+00	0	40	0	749731840	59	5534
2026-01-20 08:02:20.17	9.36	10.63	-43.5	-47.8	16.1	0.00e+00	0	40	0	756023296	59	5636
2026-01-20 08:02:23.16	8.92	10.48	-43.9	-48.0	15.8	0.00e+00	0	40	0	761266176	59	5774
2026-01-20 08:02:26.16	8.48	10.32	-44.3	-48.5	15.5	0.00e+00	0	40	0	767557632	59	6062
2026-01-20 08:02:29.16	8.04	10.17	-44.4	-48.4	15.5	0.00e+00	0	40	0	772800512	59	6059
2026-01-20 08:02:32.16	7.61	10.01	-44.4	-48.0	15.9	0.00e+00	0	40	0	778043392	59	5736
2026-01-20 08:02:35.17	7.18	9.85	-44.4	-47.8	16.0	0.00e+00	0	40	0	784334848	59	5648
2026-01-20 08:02:38.16	6.76	9.70	-44.1	-47.4	16.5	0.00e+00	0	40	0	789577728	59	5348
2026-01-20 08:02:41.17	6.34	9.54	-43.4	-46.5	17.3	0.00e+00	0	40	0	794820608	58	5104
2026-01-20 08:02:44.17	5.93	9.38	-43.1	-46.3	17.5	0.00e+00	0	40	0	801112064	58	5006
2026-01-20 08:02:47.17	5.52	9.22	-43.5	-46.7	17.1	0.00e+00	0	40	0	806354944	58	5235
2026-01-20 08:02:50.18	5.12	9.07	-43.6	-46.9	16.9	0.00e+00	0	40	0	811597824	58	5349
2026-01-20 08:02:53.17	4.72	8.91	-49.1	-65.4	3.8	1.49e+00	0	40	104	815792128	69	24035
2026-01-20 08:02:56.16	4.32	8.75	-50.2	-65.8	3.8	1.49e+00	0	40	104	815792128	70	23835
2026-01-20 08:02:59.14	3.94	8.59	-50.6	-65.9	3.8	1.49e+00	0	40	104	815792128	71	22731
2026-01-20 08:03:02.13	3.55	8.43	-50.6	-66.0	3.8	1.49e+00	0	40	104	815792128	72	21584
2026-01-20 08:03:05.11	3.17	8.27	-50.7	-66.0	3.8	1.49e+00	0	40	104	815792128	72	21666
2026-01-20 08:03:08.10	2.80	8.11	-50.6	-66.0	3.8	1.49e+00	0	40	104	815792128	72	21676
2026-01-20 08:03:11.09	2.42	7.95	-50.8	-66.1	3.8	1.49e+00	0	40	104	815792128	72	21842
2026-01-20 08:03:14.07	2.06	7.79	-50.8	-66.0	3.8	1.49e+00	0	40	104	815792128	72	21706
2026-01-20 08:03:17.05	1.69	7.63	-50.7	-66.1	3.8	1.49e+00	0	40	104	815792128	72	21764
2026-01-20 08:03:20.04	1.33	7.47	-50.5	-65.9	3.8	1.49e+00	0	40	104	815792128	72	21462
2026-01-20 08:03:23.02	0.98	7.31	-50.5	-66.0	3.8	1.49e+00	0	40	104	815792128	72	21588
2026-01-20 08:03:26.01	0.63	7.15	-50.5	-65.9	3.8	1.49e+00	0	40	104	815792128	72	21505
2026-01-20 08:03:29.00	0.28	6.99	-50.5	-66.0	3.8	1.49e+00	0	40	104	815792128	72	21530
2026-01-20 08:03:31.98	359.94	6.84	-50.5	-65.9	3.8	1.49e+00	0	40	104	815792128	72	21500
2026-01-20 08:03:34.97	359.60	6.67	-50.5	-66.0	3.8	1.49e+00	0	40	104	815792128	72	21518
2026-01-20 08:03:37.96	359.26	6.51	-50.5	-65.9	3.8	1.49e+00	0	40	104	815792128	72	21461
2026-01-20 08:03:40.95	358.93	6.35	-50.5	-65.9	3.8	1.49e+00	0	40	104	815792128	72	21446
2026-01-20 08:03:43.93	358.60	6.20	-50.5	-65.9	3.8	1.49e+00	0	40	104	815792128	72	21482
2026-01-20 08:03:46.92	358.28	6.04	-50.5	-65.9	3.8	1.49e+00	0	40	104	815792128	72	21499
2026-01-20 08:03:49.91	357.95	5.88	-50.5	-66.0	3.8	1.49e+00	0	40	104	815792128	72	21569
2026-01-20 08:03:52.90	357.64	5.72	-50.5	-65.9	3.8	1.49e+00	0	40	104	815792128	72	21438
2026-01-20 08:03:55.89	357.32	5.56	-50.5	-65.9	3.8	1.49e+00	0	40	104	815792128	72	21427
2026-01-20 08:03:58.87	357.01	5.40	-50.5	-65.9	3.8	1.49e+00	0	40	104	815792128	72	21479
2026-01-20 08:04:01.87	356.71	5.24	-50.5	-65.9	3.8	1.49e+00	0	40	104	815792128	72	21416
2026-01-20 08:04:04.85	356.40	5.08	-50.5	-65.9	3.8	1.49e+00	0	40	104	815792128	72	21438

#Closed at: 2026-01-20 08:04:07
#Recorded file [815 MB]: D:/Data/31040_260120_105432.dat