passes_logs/2026/01/20/T1/T1__20260120_040357_FENGYUN_3E_rec.log

#Pass ID: 20260120_040357_FENGYUN 3E
#Satellite: FENGYUN 3E
#Configuration: FENGYUN 3E
#almurnet v.1.7.20251203
#Start time: 2026-01-20 04:03:56

#Version: 2.0.20230620
#Station: T1
#Location: 37.570604 lon 55.790049 lat
#TLE: 1 49008U 21062A   26019.23377557 -.00000048  00000+0 -18182-5 0  9997
#TLE: 2 49008  98.7482  24.3123 0002210 128.5385 231.5989 14.19885253235444

#Time	Az	El	Level	Level2	SNR	BER	BlckErr	Temp	State	Recorded	gain1	gain2
2026-01-20 04:03:56.78	15.69	4.98	-48.9	-60.9	3.8	8.46e-01	0	37	0	0	68	14097
2026-01-20 04:04:00.75	15.68	5.26	-48.7	-60.8	3.8	8.46e-01	0	37	104	0	66	15631
2026-01-20 04:04:04.72	15.68	5.55	-48.7	-60.9	3.8	8.47e-01	0	37	104	0	66	15815
2026-01-20 04:04:08.70	15.67	5.84	-48.6	-60.7	3.8	8.46e-01	0	38	104	0	66	15475
2026-01-20 04:04:12.67	15.67	6.13	-48.6	-60.8	3.8	8.47e-01	0	38	104	0	66	15603
2026-01-20 04:04:16.64	15.66	6.43	-48.7	-60.8	3.8	8.48e-01	0	38	104	0	66	15649
2026-01-20 04:04:20.62	15.65	6.73	-48.7	-60.4	3.8	8.47e-01	0	38	104	0	66	14928
2026-01-20 04:04:24.59	15.64	7.03	-48.5	-59.4	3.8	8.47e-01	0	38	104	0	66	13407
2026-01-20 04:04:28.57	15.63	7.34	-48.3	-58.0	4.0	8.45e-01	0	38	104	0	66	11408
2026-01-20 04:04:32.54	15.62	7.65	-48.0	-56.1	4.6	8.16e-01	0	38	0	0	66	9136
2026-01-20 04:04:36.52	15.61	7.97	-47.5	-53.9	5.9	5.35e-01	0	38	0	1048576	65	7532
2026-01-20 04:04:40.49	15.60	8.29	-46.8	-51.6	8.0	7.83e-02	0	39	0	30408704	64	6086
2026-01-20 04:04:44.56	15.59	8.62	-46.0	-49.5	10.3	5.66e-03	0	39	0	59768832	62	5348
2026-01-20 04:04:48.53	15.58	8.94	-45.2	-48.1	11.6	6.30e-04	0	39	0	88080384	61	4865
2026-01-20 04:04:52.51	15.57	9.28	-45.5	-49.4	10.0	1.73e-01	0	39	0	112197632	62	5331
2026-01-20 04:04:56.49	15.56	9.61	-40.6	-41.9	17.8	0.00e+00	0	39	0	141557760	51	4211
2026-01-20 04:05:00.48	15.54	9.96	-39.7	-40.9	18.7	0.00e+00	0	39	0	170917888	50	3988
2026-01-20 04:05:04.56	15.53	10.31	-38.9	-40.0	19.6	0.00e+00	0	39	0	199229440	48	4008
2026-01-20 04:05:08.54	15.51	10.66	-38.8	-39.9	19.8	0.00e+00	0	39	0	228589568	48	3974
2026-01-20 04:05:12.52	15.50	11.02	-38.5	-39.6	19.7	0.00e+00	0	39	0	256901120	47	4081
2026-01-20 04:05:16.49	15.48	11.38	-38.3	-39.4	20.0	0.00e+00	0	39	0	286261248	47	3970
2026-01-20 04:05:20.63	15.46	11.76	-38.3	-39.4	20.0	0.00e+00	0	39	0	315621376	47	3976
2026-01-20 04:05:24.66	15.44	12.14	-38.3	-39.4	20.0	0.00e+00	0	39	0	344981504	47	3970
2026-01-20 04:05:28.64	15.42	12.52	-38.1	-39.2	20.2	0.00e+00	0	39	0	373293056	47	3900
2026-01-20 04:05:32.78	15.40	12.92	-38.0	-39.1	20.4	0.00e+00	0	39	0	403701760	46	4074
2026-01-20 04:05:37.14	15.38	13.35	-38.2	-39.2	20.2	0.00e+00	0	39	0	435159040	46	4141
2026-01-20 04:05:41.17	15.35	13.75	-37.9	-38.9	20.5	0.00e+00	0	39	0	463470592	46	4004
2026-01-20 04:05:45.71	15.33	14.22	-38.1	-39.1	20.3	0.00e+00	0	39	0	497025024	46	4096
2026-01-20 04:05:49.96	15.30	14.66	-37.7	-38.7	20.7	0.00e+00	0	39	0	527433728	46	3890
2026-01-20 04:05:54.09	15.27	15.09	-37.6	-38.6	20.8	0.00e+00	0	39	0	557842432	45	4088
2026-01-20 04:05:58.29	15.24	15.55	-37.7	-38.6	20.8	0.00e+00	0	39	0	587202560	45	4098
2026-01-20 04:06:02.32	15.21	15.99	-37.3	-38.3	21.1	0.00e+00	0	39	0	616562688	45	3929
2026-01-20 04:06:06.33	15.18	16.44	-37.2	-38.1	21.3	0.00e+00	0	39	0	645922816	45	3861
2026-01-20 04:06:10.51	15.15	16.91	-37.3	-38.2	21.2	0.00e+00	0	39	0	675282944	45	3904
2026-01-20 04:06:14.49	15.12	17.37	-37.3	-38.2	21.2	0.00e+00	0	40	0	704643072	45	3889
2026-01-20 04:06:18.53	15.08	17.85	-37.1	-38.0	21.5	0.00e+00	0	39	0	734003200	44	4005
2026-01-20 04:06:22.53	15.04	18.34	-37.2	-38.1	21.4	0.00e+00	0	39	0	762314752	44	4089
2026-01-20 04:06:26.50	15.01	18.82	-37.0	-37.9	21.5	0.00e+00	0	40	0	791674880	44	3971
2026-01-20 04:06:30.48	14.97	19.32	-37.1	-38.0	21.4	0.00e+00	0	39	0	819986432	44	4037
2026-01-20 04:06:34.46	14.92	19.83	-36.9	-37.8	21.6	0.00e+00	0	40	0	848297984	44	3947
2026-01-20 04:06:38.44	14.88	20.36	-36.8	-37.7	21.7	0.00e+00	0	39	0	877658112	44	3889
2026-01-20 04:06:42.63	14.83	20.92	-36.5	-37.3	21.9	0.00e+00	0	39	0	908066816	43	3950
2026-01-20 04:06:46.64	14.78	21.46	-36.3	-37.2	22.0	0.00e+00	0	40	0	936378368	43	3878
2026-01-20 04:06:50.60	14.73	22.02	-36.1	-37.0	22.2	0.00e+00	0	39	0	965738496	43	3802
2026-01-20 04:06:54.92	14.68	22.64	-36.1	-36.9	22.2	0.00e+00	0	39	0	996147200	42	3990
2026-01-20 04:06:58.84	14.62	23.21	-35.9	-36.8	22.4	0.00e+00	0	39	0	1024458752	42	3923
2026-01-20 04:07:02.82	14.56	23.81	-35.7	-36.5	22.6	0.00e+00	0	40	0	1053818880	42	3808
2026-01-20 04:07:06.80	14.50	24.42	-35.5	-36.4	22.7	0.00e+00	0	40	0	1082130432	41	3968
2026-01-20 04:07:10.84	14.44	25.05	-35.7	-36.5	22.6	0.00e+00	0	40	0	1111490560	41	4029
2026-01-20 04:07:14.85	14.37	25.69	-35.7	-36.6	22.5	0.00e+00	0	40	0	1139802112	41	4077
2026-01-20 04:07:18.86	14.30	26.36	-35.8	-36.6	22.5	0.00e+00	0	39	0	1169162240	41	4080
2026-01-20 04:07:22.89	14.22	27.04	-35.9	-36.8	22.4	0.00e+00	0	40	0	1198522368	41	4162
2026-01-20 04:07:26.90	14.14	27.73	-35.7	-36.5	22.6	0.00e+00	0	40	0	1226833920	41	4047
2026-01-20 04:07:30.95	14.06	28.45	-35.5	-36.4	22.8	0.00e+00	0	40	0	1256194048	41	3961
2026-01-20 04:07:34.95	13.97	29.18	-35.1	-36.0	23.1	0.00e+00	0	40	0	1285554176	41	3790
2026-01-20 04:07:38.94	13.88	29.93	-35.3	-36.1	23.0	0.00e+00	0	39	0	1313865728	41	3846
2026-01-20 04:07:43.02	13.78	30.71	-35.3	-36.2	23.0	0.00e+00	0	40	0	1343225856	41	3882
2026-01-20 04:07:47.01	13.67	31.50	-35.3	-36.1	23.0	0.00e+00	0	40	0	1372585984	41	3849
2026-01-20 04:07:51.22	13.56	32.36	-35.4	-36.3	22.9	0.00e+00	0	40	0	1402994688	41	3927
2026-01-20 04:07:55.20	13.44	33.19	-35.2	-36.1	23.1	0.00e+00	0	40	0	1431306240	41	3828
2026-01-20 04:07:59.18	13.32	34.05	-35.3	-36.1	23.1	0.00e+00	0	40	0	1460666368	41	3843
2026-01-20 04:08:03.16	13.19	34.93	-35.5	-36.3	22.9	0.00e+00	0	40	0	1488977920	41	3925
2026-01-20 04:08:07.35	13.04	35.88	-35.3	-36.1	22.9	0.00e+00	0	40	0	1519386624	41	3862
2026-01-20 04:08:11.90	12.87	36.95	-35.1	-35.9	23.2	0.00e+00	0	40	0	1551892480	41	3772
2026-01-20 04:08:16.43	12.69	38.05	-35.3	-36.1	23.1	0.00e+00	0	40	0	1585446912	40	4068
2026-01-20 04:08:21.15	12.48	39.24	-35.6	-36.4	22.8	0.00e+00	0	40	0	1619001344	40	4239
2026-01-20 04:08:25.75	12.27	40.43	-35.5	-36.3	22.9	0.00e+00	0	40	0	1652555776	41	3947
2026-01-20 04:08:29.78	12.06	41.51	-35.6	-36.4	22.8	0.00e+00	0	40	0	1680867328	41	4002
2026-01-20 04:08:33.76	11.84	42.61	-35.9	-36.8	22.5	0.00e+00	0	40	0	1710227456	41	4168
2026-01-20 04:08:37.74	11.61	43.75	-36.1	-36.9	22.4	0.00e+00	0	40	0	1738539008	42	3984
2026-01-20 04:08:41.83	11.35	44.95	-36.1	-37.0	22.3	0.00e+00	0	40	0	1767899136	42	4022
2026-01-20 04:08:45.81	11.08	46.15	-36.0	-36.9	22.5	0.00e+00	0	40	0	1797259264	42	3977
2026-01-20 04:08:49.78	10.78	47.38	-36.4	-37.2	22.2	0.00e+00	0	40	0	1825570816	42	4139
2026-01-20 04:08:53.84	10.45	48.68	-36.8	-37.7	21.8	0.00e+00	0	40	0	1854930944	43	4108
2026-01-20 04:08:57.93	10.09	50.03	-37.1	-37.9	21.5	0.00e+00	0	39	0	1884291072	43	4240
2026-01-20 04:09:02.40	9.65	51.55	-37.0	-37.9	21.6	0.00e+00	0	40	0	1916796928	43	4217
2026-01-20 04:09:06.47	9.21	52.98	-37.4	-38.3	21.4	0.00e+00	0	40	0	1946157056	44	4160
2026-01-20 04:09:10.49	8.73	54.43	-37.2	-38.1	21.5	0.00e+00	0	40	0	1975517184	44	4065
2026-01-20 04:09:14.49	8.19	55.91	-38.0	-38.9	20.8	0.00e+00	0	40	0	2003828736	46	4003
2026-01-20 04:09:18.49	7.60	57.43	-37.3	-38.2	21.5	0.00e+00	0	40	0	2033188864	44	4101
2026-01-20 04:09:22.46	6.94	58.97	-37.4	-38.3	21.4	0.00e+00	0	40	0	2061500416	44	4154
2026-01-20 04:09:26.53	6.17	60.59	-36.7	-37.6	22.0	0.00e+00	0	40	0	2090860544	44	3840
2026-01-20 04:09:30.51	5.31	62.21	-36.4	-37.3	22.2	0.00e+00	0	40	0	2119172096	43	3925
2026-01-20 04:09:34.52	4.32	63.88	-36.5	-37.3	21.1	0.00e+00	0	40	0	2148532224	43	3943
2026-01-20 04:09:38.84	3.08	65.71	-35.7	-36.5	22.8	0.00e+00	0	40	0	2179989504	42	3822
2026-01-20 04:09:43.05	1.64	67.52	-35.5	-36.4	22.8	0.00e+00	0	40	0	2210398208	41	3970
2026-01-20 04:09:47.12	359.99	69.30	-35.7	-36.6	22.7	0.00e+00	0	40	0	2239758336	40	4295
2026-01-20 04:09:51.13	358.03	71.06	-35.6	-36.5	22.8	0.00e+00	0	40	0	2269118464	41	4014
2026-01-20 04:09:55.23	355.58	72.87	-35.8	-36.7	22.6	0.00e+00	0	40	0	2298478592	41	4101
2026-01-20 04:09:59.23	352.59	74.62	-35.4	-36.2	23.1	0.00e+00	0	40	0	2326790144	41	3892
2026-01-20 04:10:03.24	348.80	76.36	-34.7	-35.5	23.5	0.00e+00	0	40	0	2356150272	40	3821
2026-01-20 04:10:07.26	343.86	78.04	-34.1	-34.9	24.1	0.00e+00	0	40	0	2384461824	39	3757
2026-01-20 04:10:11.24	337.38	79.61	-34.0	-34.8	24.1	0.00e+00	0	40	0	2413821952	38	3944
2026-01-20 04:10:15.22	328.70	81.01	-34.1	-34.9	24.1	0.00e+00	0	40	0	2442133504	38	3977
2026-01-20 04:10:19.20	317.14	82.14	-34.3	-35.1	23.9	0.00e+00	0	39	0	2471493632	38	4085
2026-01-20 04:10:23.18	302.44	82.87	-34.3	-35.1	24.0	0.00e+00	0	40	0	2499805184	38	4057
2026-01-20 04:10:27.15	285.80	83.05	-34.1	-34.9	24.2	0.00e+00	0	39	0	2528116736	38	3961
2026-01-20 04:10:31.14	269.59	82.65	-34.1	-34.8	24.2	0.00e+00	0	40	0	2557476864	38	3953
2026-01-20 04:10:35.14	256.00	81.74	-34.3	-35.2	24.0	0.00e+00	0	40	0	2585788416	38	4099
2026-01-20 04:10:39.12	245.64	80.48	-34.1	-34.8	24.2	0.00e+00	0	40	0	2615148544	38	3951
2026-01-20 04:10:43.09	237.92	79.01	-33.9	-34.7	24.3	0.00e+00	0	40	0	2643460096	38	3896
2026-01-20 04:10:47.33	231.80	77.29	-35.1	-35.9	23.3	0.00e+00	0	39	0	2673868800	39	4218
2026-01-20 04:10:51.39	227.38	75.55	-35.2	-36.0	23.2	0.00e+00	0	40	0	2703228928	39	4254
2026-01-20 04:10:55.38	224.00	73.81	-35.3	-36.1	23.1	0.00e+00	0	40	0	2731540480	40	4080
2026-01-20 04:10:59.35	221.32	72.06	-35.7	-36.5	22.7	0.00e+00	0	40	0	2760900608	41	4037
2026-01-20 04:11:03.39	219.11	70.27	-35.7	-36.5	22.8	0.00e+00	0	40	0	2790260736	41	4020
2026-01-20 04:11:07.44	217.29	68.49	-35.4	-36.2	23.0	0.00e+00	0	40	0	2819620864	41	3910
2026-01-20 04:11:11.42	215.79	66.76	-35.4	-36.3	22.9	0.00e+00	0	40	0	2847932416	40	4158
2026-01-20 04:11:15.40	214.52	65.05	-35.5	-36.3	22.9	0.00e+00	0	40	0	2876243968	40	4193
2026-01-20 04:11:19.37	213.43	63.38	-36.5	-37.3	22.1	0.00e+00	0	40	0	2905604096	42	4181
2026-01-20 04:11:23.36	212.48	61.72	-36.8	-37.6	21.8	0.00e+00	0	40	0	2933915648	43	4096
2026-01-20 04:11:27.44	211.63	60.07	-37.1	-38.0	21.4	0.00e+00	0	40	0	2963275776	43	4291
2026-01-20 04:11:31.42	210.91	58.49	-37.5	-38.4	21.3	0.00e+00	0	40	0	2992635904	44	4206
2026-01-20 04:11:35.39	210.26	56.95	-37.1	-37.9	21.7	0.00e+00	0	39	0	3020947456	44	3988
2026-01-20 04:11:39.37	209.69	55.44	-37.3	-38.2	21.4	0.00e+00	0	40	0	3049259008	44	4115
2026-01-20 04:11:43.35	209.17	53.98	-36.8	-37.7	21.9	0.00e+00	0	40	0	3078619136	44	3872
2026-01-20 04:11:47.40	208.70	52.52	-36.9	-37.8	21.7	0.00e+00	0	40	0	3107979264	44	3938
2026-01-20 04:11:51.41	208.27	51.12	-37.4	-38.3	21.4	0.00e+00	0	40	0	3136290816	44	4149
2026-01-20 04:11:55.53	207.88	49.73	-36.8	-37.6	21.8	0.00e+00	0	40	0	3166699520	44	3867
2026-01-20 04:11:59.80	207.50	48.32	-37.0	-37.8	21.8	0.00e+00	0	40	0	3197108224	44	3956
2026-01-20 04:12:03.78	207.18	47.05	-36.6	-37.5	22.0	0.00e+00	0	40	0	3225419776	44	3799
2026-01-20 04:12:07.75	206.89	45.82	-36.1	-36.9	22.5	0.00e+00	0	40	0	3254779904	42	3982
2026-01-20 04:12:11.79	206.62	44.60	-35.8	-36.6	22.6	0.00e+00	0	40	0	3284140032	42	3859
2026-01-20 04:12:15.90	206.36	43.40	-35.5	-36.3	22.9	0.00e+00	0	40	0	3313500160	41	3943
2026-01-20 04:12:20.27	206.11	42.16	-35.4	-36.2	23.0	0.00e+00	0	40	0	3344957440	41	3894
2026-01-20 04:12:24.27	205.89	41.06	-35.7	-36.6	22.7	0.00e+00	0	40	0	3373268992	41	4052
2026-01-20 04:12:28.27	205.69	39.99	-35.8	-36.6	22.6	0.00e+00	0	40	0	3402629120	41	4089
2026-01-20 04:12:32.32	205.50	38.94	-35.9	-36.8	22.5	0.00e+00	0	40	0	3431989248	41	4155
2026-01-20 04:12:36.78	205.31	37.82	-35.6	-36.4	22.8	0.00e+00	0	39	0	3464495104	41	3989
2026-01-20 04:12:40.77	205.15	36.85	-35.4	-36.2	22.9	0.00e+00	0	40	0	3492806656	41	3910
2026-01-20 04:12:44.75	205.00	35.91	-35.5	-36.4	22.8	0.00e+00	0	40	0	3522166784	41	3966
2026-01-20 04:12:48.78	204.85	34.99	-35.5	-36.3	22.9	0.00e+00	0	40	0	3550478336	41	3931
2026-01-20 04:12:52.76	204.72	34.10	-35.0	-35.8	23.3	0.00e+00	0	40	0	3579838464	40	3945
2026-01-20 04:12:57.02	204.58	33.17	-35.0	-35.9	23.2	0.00e+00	0	40	0	3610247168	40	3963
2026-01-20 04:13:01.01	204.46	32.33	-35.3	-36.2	23.0	0.00e+00	0	40	0	3638558720	40	4103
2026-01-20 04:13:05.01	204.35	31.51	-35.4	-36.3	22.9	0.00e+00	0	40	0	3667918848	40	4150
2026-01-20 04:13:09.05	204.24	30.71	-35.4	-36.3	22.9	0.00e+00	0	40	0	3697278976	40	4154
2026-01-20 04:13:13.04	204.14	29.93	-35.5	-36.3	22.9	0.00e+00	0	40	0	3725590528	40	4171
2026-01-20 04:13:17.03	204.05	29.18	-35.7	-36.6	22.6	0.00e+00	0	40	0	3754950656	40	4299
2026-01-20 04:13:21.05	203.95	28.44	-36.0	-36.8	22.4	0.00e+00	0	40	0	3783262208	41	4182
2026-01-20 04:13:25.05	203.87	27.72	-36.1	-37.0	22.2	0.00e+00	0	40	0	3812622336	41	4261
2026-01-20 04:13:29.04	203.79	27.02	-36.1	-36.9	22.3	0.00e+00	0	40	0	3841982464	41	4231
2026-01-20 04:13:33.05	203.71	26.34	-36.0	-36.9	22.4	0.00e+00	0	40	0	3870294016	41	4207
2026-01-20 04:13:37.07	203.63	25.67	-36.1	-36.9	22.3	0.00e+00	0	40	0	3899654144	41	4225
2026-01-20 04:13:41.07	203.56	25.02	-36.1	-37.0	22.3	0.00e+00	0	40	0	3927965696	41	4254
2026-01-20 04:13:45.11	203.49	24.38	-36.3	-37.1	22.1	0.00e+00	0	40	0	3957325824	42	4096
2026-01-20 04:13:49.34	203.42	23.73	-36.4	-37.3	22.0	0.00e+00	0	40	0	3987734528	42	4167
2026-01-20 04:13:53.32	203.36	23.13	-36.6	-37.5	21.8	0.00e+00	0	40	0	4016046080	42	4246
2026-01-20 04:13:57.30	203.30	22.55	-36.5	-37.4	21.9	0.00e+00	0	40	0	4045406208	42	4213
2026-01-20 04:14:01.28	203.25	21.97	-36.3	-37.2	22.0	0.00e+00	0	40	0	4074766336	42	4108
2026-01-20 04:14:05.26	203.19	21.41	-36.3	-37.2	22.0	0.00e+00	0	40	0	4103077888	42	4108
2026-01-20 04:14:09.46	203.14	20.83	-36.3	-37.1	22.0	0.00e+00	0	40	0	4133486592	42	4093
2026-01-20 04:14:13.44	203.09	20.30	-36.3	-37.1	22.1	0.00e+00	0	40	0	4161798144	42	4085
2026-01-20 04:14:17.42	203.04	19.77	-36.4	-37.3	22.0	0.00e+00	0	40	0	4190109696	42	4149
2026-01-20 04:14:21.41	203.00	19.26	-36.5	-37.4	21.9	0.00e+00	0	40	0	4219469824	42	4214
2026-01-20 04:14:25.39	202.96	18.75	-36.7	-37.5	21.7	0.00e+00	0	40	0	4247781376	42	4281
2026-01-20 04:14:29.47	202.91	18.25	-36.9	-37.7	21.5	0.00e+00	0	40	0	4277141504	43	4139
2026-01-20 04:14:33.45	202.87	17.76	-36.9	-37.8	21.5	0.00e+00	0	40	0	4306501632	43	4158
2026-01-20 04:14:37.43	202.84	17.29	-37.1	-38.0	21.2	0.00e+00	0	40	0	4334813184	43	4283
2026-01-20 04:14:41.41	202.80	16.82	-37.2	-38.0	21.2	0.00e+00	0	40	0	4364173312	43	4290
2026-01-20 04:14:45.39	202.76	16.37	-37.4	-38.3	21.1	0.00e+00	0	40	0	4392484864	44	4188
2026-01-20 04:14:49.37	202.73	15.92	-37.5	-38.4	21.0	0.00e+00	0	40	0	4420796416	44	4233
2026-01-20 04:14:53.35	202.70	15.48	-37.7	-38.6	20.8	0.00e+00	0	40	0	4450156544	44	4337
2026-01-20 04:14:57.33	202.67	15.05	-37.7	-38.7	20.8	0.00e+00	0	40	0	4478468096	45	4109
2026-01-20 04:15:01.32	202.64	14.62	-37.8	-38.8	20.6	0.00e+00	0	40	0	4507828224	45	4152
2026-01-20 04:15:05.55	202.60	14.18	-38.1	-39.1	20.4	0.00e+00	0	40	0	4538236928	45	4305
2026-01-20 04:15:09.53	202.58	13.77	-38.2	-39.2	20.3	0.00e+00	0	40	0	4566548480	45	4369
2026-01-20 04:15:13.51	202.55	13.37	-38.4	-39.4	20.0	0.00e+00	0	40	0	4595908608	46	4232
2026-01-20 04:15:17.57	202.52	12.96	-38.5	-39.5	19.9	0.00e+00	0	39	0	4624220160	46	4276
2026-01-20 04:15:21.55	202.50	12.57	-38.6	-39.6	19.8	0.00e+00	0	40	0	4653580288	46	4320
2026-01-20 04:15:25.53	202.48	12.19	-38.7	-39.7	19.7	0.00e+00	0	40	0	4682940416	46	4382
2026-01-20 04:15:29.51	202.45	11.81	-38.8	-39.8	19.6	0.00e+00	0	40	0	4711251968	47	4188
2026-01-20 04:15:33.51	202.43	11.44	-38.9	-39.9	19.5	0.00e+00	0	40	0	4739563520	47	4220
2026-01-20 04:15:37.49	202.41	11.07	-38.9	-40.0	19.4	0.00e+00	0	40	0	4768923648	47	4259
2026-01-20 04:15:41.47	202.39	10.71	-38.9	-40.0	19.4	0.00e+00	0	40	0	4797235200	47	4258
2026-01-20 04:15:45.44	202.37	10.35	-39.1	-40.2	19.2	0.00e+00	0	40	0	4826595328	47	4342
2026-01-20 04:15:49.43	202.35	10.00	-39.1	-40.2	19.2	0.00e+00	0	40	0	4854906880	47	4352
2026-01-20 04:15:53.40	202.33	9.66	-39.2	-40.3	19.0	0.00e+00	0	40	0	4883218432	47	4419
2026-01-20 04:15:57.38	202.31	9.32	-39.4	-40.4	19.1	0.00e+00	0	40	0	4912578560	48	4232
2026-01-20 04:16:01.36	202.30	8.98	-39.5	-40.6	19.0	0.00e+00	0	40	0	4940890112	48	4294
2026-01-20 04:16:05.51	202.28	8.63	-50.8	-61.5	3.8	8.47e-01	0	40	104	4945084416	71	12795
2026-01-20 04:16:09.61	202.26	8.30	-50.8	-61.7	3.8	8.46e-01	0	40	104	4945084416	71	13063
2026-01-20 04:16:13.59	202.25	7.97	-51.1	-61.7	3.8	8.46e-01	0	40	104	4945084416	71	13045
2026-01-20 04:16:17.56	202.23	7.66	-51.0	-61.7	3.8	8.47e-01	0	40	104	4945084416	71	13069
2026-01-20 04:16:21.53	202.22	7.34	-50.9	-61.7	3.8	8.47e-01	0	40	104	4945084416	71	12974
2026-01-20 04:16:25.51	202.21	7.03	-50.6	-61.6	3.8	8.46e-01	0	40	104	4945084416	71	12878
2026-01-20 04:16:29.48	202.19	6.72	-50.6	-61.6	3.8	8.47e-01	0	40	104	4945084416	71	12918
2026-01-20 04:16:33.45	202.18	6.42	-50.6	-61.6	3.8	8.46e-01	0	40	104	4945084416	71	12952
2026-01-20 04:16:37.43	202.17	6.12	-50.6	-61.6	3.8	8.47e-01	0	40	104	4945084416	71	12952
2026-01-20 04:16:41.40	202.16	5.82	-50.5	-61.6	3.8	8.47e-01	0	40	104	4945084416	71	12919
2026-01-20 04:16:45.37	202.14	5.53	-50.5	-61.7	3.8	8.46e-01	0	40	104	4945084416	71	12972
2026-01-20 04:16:49.35	202.13	5.24	-50.5	-61.6	3.8	8.47e-01	0	40	104	4945084416	71	12915
2026-01-20 04:16:53.32	202.12	4.96	-50.6	-61.6	3.8	8.48e-01	0	40	104	4945084416	71	12855

#Closed at: 2026-01-20 04:16:54
#Recorded file [4945 MB]: D:/Data/31040_260120_070356.dat