passes_logs/2026/01/20/T1/T1__20260120_093213_SUOMI_NPP_rec.log

#Pass ID: 20260120_093213_SUOMI NPP
#Satellite: SUOMI NPP
#Configuration: NPP
#almurnet v.1.7.20251203
#Start time: 2026-01-20 09:32:14

#Version: 2.0.20230620
#Station: T1
#Location: 37.570604 lon 55.790049 lat
#TLE: 1 37849U 11061A   26019.61507914  .00000076  00000+0  57195-4 0  9994
#TLE: 2 37849  98.7817 321.6240 0002347  55.5899 304.5499 14.19526391737369

#Time	Az	El	Level	Level2	SNR	BER	BlckErr	Temp	State	Recorded	gain1	gain2
2026-01-20 09:32:14.10	145.64	5.05	-49.5	-64.7	3.8	1.49e+00	0	39	0	0	71	19675
2026-01-20 09:32:18.07	145.55	5.33	-49.5	-64.6	3.8	1.49e+00	0	40	104	0	71	19453
2026-01-20 09:32:22.05	145.45	5.62	-49.5	-64.3	3.8	1.49e+00	0	40	104	0	71	18920
2026-01-20 09:32:26.04	145.35	5.91	-49.5	-63.7	3.8	1.49e+00	0	40	104	0	70	18639
2026-01-20 09:32:30.02	145.25	6.21	-49.4	-63.6	3.8	1.49e+00	0	40	104	0	70	18340
2026-01-20 09:32:34.00	145.15	6.50	-49.5	-64.7	3.8	1.49e+00	0	40	104	0	70	20978
2026-01-20 09:32:37.98	145.04	6.80	-49.5	-64.7	3.8	1.49e+00	0	40	104	0	70	20953
2026-01-20 09:32:41.96	144.93	7.11	-49.4	-62.8	3.9	1.49e+00	0	41	104	0	70	16732
2026-01-20 09:32:45.95	144.82	7.41	-49.0	-58.9	5.3	8.19e-01	0	41	0	3145728	70	10707
2026-01-20 09:32:49.93	144.71	7.73	-47.4	-52.9	10.6	1.23e-02	0	41	0	10485760	66	6797
2026-01-20 09:32:53.91	144.59	8.04	-45.4	-49.0	14.7	7.00e-07	0	41	0	17825792	62	5432
2026-01-20 09:32:57.89	144.47	8.36	-44.7	-47.8	15.8	0.00e+00	0	41	0	25165824	61	5011
2026-01-20 09:33:01.87	144.35	8.68	-45.9	-49.8	13.9	1.50e-06	0	41	0	32505856	62	5949
2026-01-20 09:33:05.85	144.22	9.01	-48.1	-54.9	8.6	2.19e-02	0	41	0	39845888	66	8536
2026-01-20 09:33:09.86	144.09	9.34	-45.3	-48.8	14.9	2.11e-02	0	42	0	47185920	62	5313
2026-01-20 09:33:13.87	143.96	9.68	-44.2	-47.1	16.7	0.00e+00	0	42	0	52428800	60	4883
2026-01-20 09:33:17.87	143.83	10.02	-44.3	-47.4	16.4	0.00e+00	0	41	0	59768832	60	5064
2026-01-20 09:33:21.88	143.69	10.37	-44.1	-47.0	16.8	0.00e+00	0	42	0	67108864	60	4866
2026-01-20 09:33:25.88	143.54	10.72	-43.6	-46.3	17.5	0.00e+00	0	42	0	75497472	59	4716
2026-01-20 09:33:29.88	143.40	11.07	-43.2	-45.7	18.0	0.00e+00	0	42	0	82837504	58	4686
2026-01-20 09:33:33.89	143.25	11.44	-43.2	-45.7	18.0	0.00e+00	0	42	0	90177536	58	4692
2026-01-20 09:33:37.90	143.09	11.80	-43.6	-46.2	17.6	0.00e+00	0	42	0	97517568	58	4950
2026-01-20 09:33:41.90	142.94	12.17	-43.6	-46.3	17.6	0.00e+00	0	42	0	104857600	58	4988
2026-01-20 09:33:45.91	142.77	12.55	-43.4	-45.9	17.9	0.00e+00	0	42	0	112197632	58	4811
2026-01-20 09:33:49.92	142.60	12.94	-42.9	-45.3	18.4	0.00e+00	0	42	0	120586240	57	4740
2026-01-20 09:33:53.92	142.43	13.32	-42.4	-44.7	19.1	0.00e+00	0	42	0	127926272	56	4659
2026-01-20 09:33:57.92	142.26	13.72	-42.6	-44.9	18.8	0.00e+00	0	42	0	135266304	56	4786
2026-01-20 09:34:01.93	142.07	14.12	-43.3	-45.9	17.9	0.00e+00	0	42	0	142606336	57	5078
2026-01-20 09:34:05.93	141.89	14.53	-43.5	-46.2	17.7	0.00e+00	0	42	0	149946368	58	4942
2026-01-20 09:34:09.94	141.69	14.94	-42.2	-44.5	19.3	0.00e+00	0	42	0	157286400	56	4555
2026-01-20 09:34:13.94	141.50	15.36	-41.7	-43.8	19.7	0.00e+00	0	42	0	165675008	54	4717
2026-01-20 09:34:17.95	141.29	15.79	-43.1	-45.6	18.2	0.00e+00	0	42	0	173015040	56	5207
2026-01-20 09:34:21.96	141.08	16.23	-43.1	-45.6	18.3	0.00e+00	0	42	0	180355072	57	4888
2026-01-20 09:34:25.97	140.86	16.67	-41.5	-43.5	19.9	0.00e+00	0	42	0	187695104	55	4335
2026-01-20 09:34:29.97	140.64	17.12	-42.2	-44.5	19.1	0.00e+00	0	42	0	195035136	55	4844
2026-01-20 09:34:33.97	140.41	17.58	-43.8	-46.6	17.5	0.00e+00	0	42	0	202375168	58	5182
2026-01-20 09:34:37.98	140.17	18.05	-42.5	-44.7	19.1	0.00e+00	0	42	0	210763776	56	4695
2026-01-20 09:34:41.98	139.92	18.52	-41.9	-44.1	19.4	0.00e+00	0	42	0	218103808	55	4636
2026-01-20 09:34:45.98	139.67	19.00	-43.7	-46.3	17.7	0.00e+00	0	42	0	225443840	57	5316
2026-01-20 09:34:49.99	139.40	19.50	-42.8	-45.1	18.8	0.00e+00	0	42	0	232783872	57	4649
2026-01-20 09:34:53.99	139.13	20.00	-42.5	-44.8	19.1	0.00e+00	0	42	0	240123904	56	4740
2026-01-20 09:34:57.99	138.85	20.51	-43.1	-45.4	18.5	0.00e+00	0	42	0	247463936	57	4812
2026-01-20 09:35:01.99	138.56	21.03	-42.3	-44.4	19.4	0.00e+00	0	42	0	254803968	56	4545
2026-01-20 09:35:06.00	138.26	21.56	-43.2	-45.6	18.4	0.00e+00	0	42	0	263192576	57	4878
2026-01-20 09:35:10.01	137.94	22.11	-44.1	-46.8	17.3	0.00e+00	0	43	0	270532608	58	5322
2026-01-20 09:35:14.02	137.62	22.66	-43.4	-45.8	18.3	0.00e+00	0	42	0	277872640	58	4706
2026-01-20 09:35:18.01	137.28	23.22	-44.1	-46.7	17.4	0.00e+00	0	42	0	285212672	58	5253
2026-01-20 09:35:22.02	136.93	23.80	-43.5	-46.0	18.0	0.00e+00	0	42	0	292552704	59	4570
2026-01-20 09:35:26.02	136.57	24.38	-43.9	-46.5	17.6	0.00e+00	0	42	0	299892736	58	5113
2026-01-20 09:35:30.03	136.19	24.98	-44.3	-47.1	17.1	0.00e+00	0	42	0	308281344	60	4885
2026-01-20 09:35:34.03	135.79	25.60	-43.6	-46.1	17.9	0.00e+00	0	42	0	315621376	59	4643
2026-01-20 09:35:38.04	135.38	26.22	-44.3	-46.9	17.2	0.00e+00	0	42	0	322961408	59	5086
2026-01-20 09:35:42.04	134.96	26.86	-44.1	-46.6	17.5	0.00e+00	0	42	0	330301440	59	4925
2026-01-20 09:35:46.04	134.51	27.51	-44.5	-47.2	17.0	0.00e+00	0	42	0	337641472	59	5224
2026-01-20 09:35:50.05	134.05	28.17	-44.1	-46.8	17.4	0.00e+00	0	43	0	344981504	59	4987
2026-01-20 09:35:54.05	133.57	28.85	-45.3	-48.3	15.9	0.00e+00	0	42	0	353370112	61	5340
2026-01-20 09:35:58.05	133.06	29.55	-44.5	-47.2	17.1	0.00e+00	0	42	0	360710144	60	4974
2026-01-20 09:36:02.06	132.53	30.25	-44.3	-47.1	17.1	0.00e+00	0	42	0	368050176	60	4887
2026-01-20 09:36:06.06	131.98	30.98	-44.0	-46.7	17.5	0.00e+00	0	42	0	375390208	59	4949
2026-01-20 09:36:10.06	131.40	31.71	-44.3	-47.0	17.3	0.00e+00	0	42	0	382730240	59	5138
2026-01-20 09:36:14.06	130.80	32.47	-44.8	-47.7	16.6	0.00e+00	0	42	0	390070272	60	5238
2026-01-20 09:36:18.06	130.16	33.23	-45.9	-49.3	15.2	0.00e+00	0	42	0	398458880	62	5603
2026-01-20 09:36:22.07	129.50	34.02	-45.4	-48.4	15.9	0.00e+00	0	43	0	405798912	61	5385
2026-01-20 09:36:26.07	128.80	34.82	-45.5	-48.5	16.0	0.00e+00	0	43	0	413138944	62	5144
2026-01-20 09:36:30.08	128.06	35.63	-46.0	-49.3	15.0	0.00e+00	0	43	0	420478976	62	5643
2026-01-20 09:36:34.08	127.29	36.46	-47.2	-51.6	12.8	2.13e-05	0	42	0	427819008	65	6149
2026-01-20 09:36:38.08	126.47	37.31	-46.6	-50.4	13.9	2.21e-05	0	43	0	435159040	65	5352
2026-01-20 09:36:42.09	125.61	38.17	-45.4	-48.3	16.1	0.00e+00	0	43	0	442499072	62	5034
2026-01-20 09:36:46.09	124.70	39.05	-45.8	-49.1	15.3	0.00e+00	0	42	0	450887680	62	5492
2026-01-20 09:36:50.09	123.74	39.93	-45.9	-49.2	15.2	0.00e+00	0	43	0	458227712	63	5223
2026-01-20 09:36:54.09	122.73	40.84	-46.9	-50.9	13.5	1.14e-05	0	42	0	465567744	65	5683
2026-01-20 09:36:58.10	121.65	41.75	-47.6	-52.2	12.1	7.63e-04	0	42	0	472907776	66	6215
2026-01-20 09:37:02.10	120.52	42.68	-46.6	-50.4	13.9	4.50e-06	0	42	0	480247808	65	5400
2026-01-20 09:37:06.11	119.31	43.61	-46.3	-49.8	14.7	0.00e+00	0	43	0	487587840	63	5642
2026-01-20 09:37:10.12	118.03	44.55	-45.0	-47.8	16.6	0.00e+00	0	43	0	495976448	61	5003
2026-01-20 09:37:14.12	116.68	45.50	-45.1	-48.0	16.3	0.00e+00	0	43	0	503316480	61	5123
2026-01-20 09:37:18.13	115.23	46.45	-45.3	-48.2	16.2	0.00e+00	0	43	0	510656512	62	4962
2026-01-20 09:37:22.14	113.70	47.41	-44.4	-47.0	17.4	0.00e+00	0	43	0	517996544	60	4868
2026-01-20 09:37:26.15	112.07	48.36	-45.7	-48.9	15.6	0.00e+00	0	43	0	525336576	62	5341
2026-01-20 09:37:30.15	110.34	49.30	-45.2	-48.2	16.0	0.00e+00	0	43	0	532676608	62	4928
2026-01-20 09:37:34.16	108.49	50.23	-43.8	-46.3	17.9	0.00e+00	0	43	0	541065216	59	4751
2026-01-20 09:37:38.17	106.53	51.15	-43.3	-46.0	17.9	0.00e+00	0	43	0	548405248	58	4836
2026-01-20 09:37:42.18	104.44	52.05	-42.6	-45.2	18.6	0.00e+00	0	43	0	555745280	57	4652
2026-01-20 09:37:46.18	102.24	52.92	-42.8	-45.3	18.5	0.00e+00	0	43	0	563085312	56	5000
2026-01-20 09:37:50.18	99.90	53.76	-43.9	-46.8	17.4	0.00e+00	0	42	0	570425344	59	5005
2026-01-20 09:37:54.18	97.42	54.56	-43.5	-46.2	17.5	0.00e+00	0	43	0	577765376	59	4686
2026-01-20 09:37:58.18	94.80	55.32	-43.7	-46.7	17.4	0.00e+00	0	43	0	586153984	58	5231
2026-01-20 09:38:02.19	92.04	56.02	-43.8	-46.7	17.1	0.00e+00	0	43	0	593494016	59	4942
2026-01-20 09:38:06.19	89.14	56.66	-44.5	-47.9	16.1	0.00e+00	0	43	0	600834048	60	5390
2026-01-20 09:38:10.20	86.11	57.24	-43.2	-46.1	17.8	0.00e+00	0	43	0	608174080	57	5192
2026-01-20 09:38:14.21	82.96	57.74	-42.2	-44.7	19.1	0.00e+00	0	43	0	615514112	56	4698
2026-01-20 09:38:18.22	79.69	58.16	-42.4	-45.0	18.6	0.00e+00	0	43	0	622854144	55	5131
2026-01-20 09:38:22.23	76.34	58.50	-42.6	-45.2	18.7	0.00e+00	0	43	0	631242752	57	4657
2026-01-20 09:38:26.23	72.92	58.74	-42.3	-44.7	18.9	0.00e+00	0	43	0	638582784	55	4966
2026-01-20 09:38:30.22	69.45	58.88	-40.8	-43.0	20.4	0.00e+00	0	42	0	645922816	53	4597
2026-01-20 09:38:34.23	65.95	58.93	-41.0	-43.3	20.3	0.00e+00	0	43	0	653262848	53	4713
2026-01-20 09:38:38.24	62.45	58.88	-41.2	-43.5	20.0	0.00e+00	0	43	0	660602880	54	4587
2026-01-20 09:38:42.24	58.98	58.73	-41.3	-43.5	20.1	0.00e+00	0	43	0	667942912	53	4849
2026-01-20 09:38:46.25	55.55	58.48	-40.4	-42.5	20.8	0.00e+00	0	43	0	676331520	52	4590
2026-01-20 09:38:50.25	52.21	58.14	-43.0	-45.6	18.3	0.00e+00	0	42	0	683671552	57	4895
2026-01-20 09:38:54.25	48.97	57.72	-43.2	-45.8	18.2	0.00e+00	0	43	0	691011584	57	4991
2026-01-20 09:38:58.26	45.82	57.21	-43.2	-45.7	18.4	0.00e+00	0	43	0	698351616	57	4970
2026-01-20 09:39:02.26	42.81	56.64	-43.9	-46.6	17.5	0.00e+00	0	43	0	705691648	58	5190
2026-01-20 09:39:06.27	39.92	55.99	-41.5	-43.7	19.9	0.00e+00	0	43	0	713031680	54	4684
2026-01-20 09:39:10.27	37.18	55.29	-40.9	-43.0	20.6	0.00e+00	0	43	0	720371712	53	4560
2026-01-20 09:39:14.27	34.57	54.53	-42.9	-45.4	18.8	0.00e+00	0	43	0	728760320	57	4796
2026-01-20 09:39:18.28	32.10	53.73	-43.3	-45.9	18.1	0.00e+00	0	43	0	736100352	58	4796
2026-01-20 09:39:22.28	29.77	52.89	-44.3	-47.3	16.8	0.00e+00	0	43	0	743440384	59	5280
2026-01-20 09:39:26.29	27.57	52.02	-43.2	-45.7	18.4	0.00e+00	0	43	0	750780416	58	4703
2026-01-20 09:39:30.29	25.50	51.12	-44.0	-47.0	17.3	0.00e+00	0	43	0	758120448	59	5110
2026-01-20 09:39:34.30	23.55	50.21	-44.1	-47.0	17.2	0.00e+00	0	43	0	765460480	59	5125
2026-01-20 09:39:38.31	21.71	49.27	-44.9	-48.4	15.9	0.00e+00	0	43	0	773849088	61	5344
2026-01-20 09:39:42.31	19.99	48.34	-46.0	-50.0	14.3	7.00e-07	0	43	0	781189120	62	6110
2026-01-20 09:39:46.32	18.37	47.39	-45.5	-49.0	15.3	0.00e+00	0	43	0	788529152	62	5459
2026-01-20 09:39:50.32	16.85	46.44	-45.9	-49.8	14.7	0.00e+00	0	43	0	795869184	62	5928
2026-01-20 09:39:54.33	15.41	45.49	-44.1	-46.9	17.3	0.00e+00	0	43	0	803209216	60	4803
2026-01-20 09:39:58.34	14.06	44.55	-46.0	-49.7	14.6	0.00e+00	0	43	0	810549248	62	5916
2026-01-20 09:40:02.34	12.79	43.61	-44.4	-47.2	17.0	0.00e+00	0	43	0	818937856	60	4966
2026-01-20 09:40:06.34	11.60	42.68	-45.1	-48.4	15.9	0.00e+00	0	43	0	826277888	61	5354
2026-01-20 09:40:10.35	10.47	41.76	-44.1	-46.9	17.2	0.00e+00	0	43	0	833617920	59	5099
2026-01-20 09:40:14.36	9.40	40.85	-46.0	-49.8	14.5	1.50e-06	0	43	0	840957952	63	5633
2026-01-20 09:40:18.36	8.39	39.95	-46.2	-49.9	14.4	0.00e+00	0	43	0	848297984	63	5704
2026-01-20 09:40:22.37	7.43	39.07	-45.6	-49.0	15.3	0.00e+00	0	43	0	855638016	63	5115
2026-01-20 09:40:26.37	6.53	38.20	-45.8	-49.3	15.1	1.50e-06	0	43	0	864026624	63	5295
2026-01-20 09:40:30.38	5.68	37.34	-45.2	-48.4	15.9	0.00e+00	0	43	0	871366656	62	5061
2026-01-20 09:40:34.39	4.86	36.50	-46.5	-51.0	13.2	1.11e-04	0	43	0	878706688	64	6111
2026-01-20 09:40:38.40	4.09	35.67	-46.9	-52.3	12.0	8.57e-04	0	43	0	886046720	64	7047
2026-01-20 09:40:42.41	3.36	34.86	-46.1	-50.1	14.1	0.00e+00	0	43	0	893386752	63	5843
2026-01-20 09:40:46.41	2.66	34.06	-46.1	-50.2	14.1	3.80e-06	0	43	0	900726784	64	5529
2026-01-20 09:40:50.41	2.00	33.28	-46.9	-52.0	12.2	9.84e-05	0	43	0	909115392	64	6833
2026-01-20 09:40:54.42	1.37	32.52	-44.6	-47.9	16.3	0.00e+00	0	43	0	916455424	61	5087
2026-01-20 09:40:58.42	0.77	31.77	-45.4	-49.0	15.3	0.00e+00	0	43	0	923795456	61	5756
2026-01-20 09:41:02.43	0.20	31.03	-45.0	-48.2	16.1	0.00e+00	0	43	0	931135488	61	5272
2026-01-20 09:41:06.43	359.65	30.31	-45.4	-48.8	15.5	7.00e-07	0	43	0	938475520	62	5331
2026-01-20 09:41:10.43	359.12	29.61	-44.0	-46.7	17.5	0.00e+00	0	43	0	945815552	59	4934
2026-01-20 09:41:14.44	358.62	28.92	-44.4	-47.3	16.9	0.00e+00	0	43	0	953155584	59	5317
2026-01-20 09:41:18.44	358.14	28.25	-44.5	-47.4	16.7	0.00e+00	0	43	0	961544192	59	5400
2026-01-20 09:41:22.44	357.68	27.59	-46.4	-50.4	13.9	1.50e-06	0	43	0	968884224	63	6007
2026-01-20 09:41:26.44	357.24	26.94	-45.8	-49.3	15.0	0.00e+00	0	43	0	976224256	63	5300
2026-01-20 09:41:30.44	356.82	26.30	-45.0	-48.1	16.2	0.00e+00	0	43	0	983564288	61	5215
2026-01-20 09:41:34.43	356.42	25.68	-44.1	-47.0	17.3	0.00e+00	0	43	0	990904320	60	4818
2026-01-20 09:41:38.44	356.03	25.08	-44.4	-47.2	17.0	0.00e+00	0	43	0	998244352	59	5276
2026-01-20 09:41:42.45	355.65	24.48	-45.3	-48.6	15.7	0.00e+00	0	43	0	1006632960	61	5522
2026-01-20 09:41:46.46	355.29	23.89	-44.1	-47.1	17.1	0.00e+00	0	43	0	1013972992	60	4896
2026-01-20 09:41:50.46	354.94	23.32	-44.6	-47.8	16.4	0.00e+00	0	43	0	1021313024	59	5599
2026-01-20 09:41:54.47	354.61	22.76	-46.5	-50.8	13.5	2.20e-06	0	43	0	1028653056	63	6289
2026-01-20 09:41:58.48	354.29	22.21	-45.5	-49.2	15.1	0.00e+00	0	43	0	1035993088	62	5540
2026-01-20 09:42:02.49	353.98	21.67	-43.9	-46.7	17.4	0.00e+00	0	43	0	1043333120	59	4965
2026-01-20 09:42:06.50	353.68	21.14	-43.9	-46.6	17.5	0.00e+00	0	43	0	1050673152	59	4885
2026-01-20 09:42:10.50	353.39	20.62	-43.8	-46.5	17.6	0.00e+00	0	43	0	1059061760	59	4865
2026-01-20 09:42:14.51	353.11	20.11	-43.8	-46.6	17.5	0.00e+00	0	43	0	1066401792	59	4899
2026-01-20 09:42:18.52	352.84	19.61	-44.2	-47.2	16.9	0.00e+00	0	43	0	1073741824	59	5261
2026-01-20 09:42:22.53	352.58	19.12	-44.6	-47.9	16.2	0.00e+00	0	43	0	1081081856	59	5712
2026-01-20 09:42:26.53	352.33	18.63	-44.7	-48.1	16.1	0.00e+00	0	43	0	1088421888	60	5494
2026-01-20 09:42:30.53	352.09	18.16	-44.8	-48.3	15.9	0.00e+00	0	43	0	1096810496	60	5614
2026-01-20 09:42:34.55	351.85	17.70	-45.2	-48.9	15.3	0.00e+00	0	43	0	1104150528	61	5705
2026-01-20 09:42:38.55	351.62	17.24	-45.9	-49.7	14.6	0.00e+00	0	43	0	1111490560	62	5906
2026-01-20 09:42:42.55	351.40	16.79	-45.1	-48.5	15.7	0.00e+00	0	43	0	1118830592	62	5105
2026-01-20 09:42:46.56	351.19	16.35	-44.1	-47.2	16.9	0.00e+00	0	43	0	1126170624	60	4962
2026-01-20 09:42:50.56	350.98	15.92	-43.8	-46.8	17.3	0.00e+00	0	43	0	1133510656	59	5012
2026-01-20 09:42:54.57	350.78	15.49	-43.9	-46.9	17.2	0.00e+00	0	43	0	1141899264	59	5066
2026-01-20 09:42:58.58	350.59	15.07	-44.4	-47.7	16.4	0.00e+00	0	43	0	1149239296	59	5559
2026-01-20 09:43:02.59	350.40	14.66	-44.9	-48.7	15.5	0.00e+00	0	43	0	1156579328	60	5856
2026-01-20 09:43:06.59	350.21	14.25	-45.2	-48.9	15.3	0.00e+00	0	43	0	1163919360	61	5669
2026-01-20 09:43:10.59	350.04	13.85	-45.0	-48.6	15.5	0.00e+00	0	43	0	1171259392	61	5512
2026-01-20 09:43:14.60	349.86	13.46	-44.8	-48.2	16.0	0.00e+00	0	43	0	1178599424	61	5225
2026-01-20 09:43:18.60	349.70	13.07	-44.5	-48.3	15.9	0.00e+00	0	43	0	1186988032	60	5620
2026-01-20 09:43:22.61	349.53	12.69	-44.2	-48.5	15.6	7.00e-07	0	43	0	1194328064	60	5778
2026-01-20 09:43:26.62	349.37	12.31	-44.4	-48.7	15.5	0.00e+00	0	43	0	1201668096	60	5891
2026-01-20 09:43:30.62	349.22	11.94	-45.0	-49.4	14.7	0.00e+00	0	43	0	1209008128	60	6387
2026-01-20 09:43:34.62	349.07	11.58	-44.9	-49.5	14.6	0.00e+00	0	43	0	1216348160	60	6483
2026-01-20 09:43:38.63	348.92	11.22	-44.4	-49.0	15.1	0.00e+00	0	43	0	1223688192	60	6062
2026-01-20 09:43:42.63	348.78	10.86	-44.3	-49.1	14.9	7.00e-07	0	43	0	1231028224	60	6187
2026-01-20 09:43:46.63	348.64	10.51	-44.2	-49.0	15.1	0.00e+00	0	43	0	1239416832	60	6082
2026-01-20 09:43:50.64	348.51	10.17	-43.9	-48.6	15.3	0.00e+00	0	43	0	1246756864	59	6191
2026-01-20 09:43:54.65	348.38	9.83	-44.1	-49.1	14.9	0.00e+00	0	43	0	1254096896	59	6509
2026-01-20 09:43:58.66	348.25	9.49	-44.4	-49.1	15.0	0.00e+00	0	43	0	1261436928	59	6519
2026-01-20 09:44:02.68	348.12	9.16	-44.5	-49.1	14.8	0.00e+00	0	43	0	1268776960	60	6185
2026-01-20 09:44:06.67	348.00	8.83	-48.7	-65.7	3.8	1.49e+00	0	43	104	1272971264	69	24804
2026-01-20 09:44:10.65	347.88	8.51	-50.2	-65.9	3.8	1.49e+00	0	43	104	1272971264	71	22736
2026-01-20 09:44:14.64	347.77	8.19	-50.7	-66.0	3.8	1.49e+00	0	43	104	1272971264	72	21543
2026-01-20 09:44:18.62	347.66	7.88	-50.7	-66.0	3.8	1.49e+00	0	43	104	1272971264	72	21705
2026-01-20 09:44:22.60	347.55	7.57	-50.7	-66.0	3.8	1.49e+00	0	43	104	1272971264	72	21648
2026-01-20 09:44:26.58	347.44	7.26	-50.8	-66.0	3.8	1.49e+00	0	43	104	1272971264	72	21644
2026-01-20 09:44:30.56	347.34	6.96	-50.7	-66.0	3.8	1.49e+00	0	43	104	1272971264	72	21678
2026-01-20 09:44:34.54	347.23	6.66	-50.5	-65.9	3.8	1.49e+00	0	43	104	1272971264	72	21476
2026-01-20 09:44:38.52	347.13	6.36	-50.5	-65.9	3.8	1.49e+00	0	43	104	1272971264	72	21469
2026-01-20 09:44:42.50	347.04	6.07	-50.5	-66.0	3.8	1.49e+00	0	43	104	1272971264	72	21588
2026-01-20 09:44:46.48	346.94	5.78	-50.5	-66.0	3.8	1.49e+00	0	43	104	1272971264	72	21509
2026-01-20 09:44:50.47	346.85	5.49	-50.5	-65.9	3.8	1.49e+00	0	43	104	1272971264	72	21499
2026-01-20 09:44:54.45	346.76	5.21	-50.5	-66.0	3.8	1.49e+00	0	43	104	1272971264	72	21577

#Closed at: 2026-01-20 09:44:58
#Recorded file [1272 MB]: D:/Data/31040_260120_123214.dat