passes_logs/2026/01/20/T1/T1__20260120_101652_AQUA_rec.log

#Pass ID: 20260120_101652_AQUA
#Satellite: AQUA
#Configuration: AQUA
#almurnet v.1.7.20251203
#Start time: 2026-01-20 10:16:55

#Version: 2.0.20230620
#Station: T1
#Location: 37.570604 lon 55.790049 lat
#TLE: 1 27424U 02022A   26019.60905539  .00000968  00000+0  20374-3 0  9991
#TLE: 2 27424  98.4090 346.1140 0001992  72.7126 342.3847 14.61830366261565

#Time	Az	El	Level	Level2	SNR	BER	BlckErr	Temp	State	Recorded	gain1	gain2
2026-01-20 10:16:55.21	112.82	5.15	-51.2	-71.1	3.8	7.43e-01	0	41	0	0	74	34681
2026-01-20 10:16:58.19	112.55	5.34	-51.2	-71.2	3.8	7.44e-01	0	41	104	0	73	37247
2026-01-20 10:17:01.17	112.27	5.53	-51.2	-71.3	3.8	7.47e-01	0	41	104	0	73	37581
2026-01-20 10:17:04.15	111.99	5.73	-51.2	-71.3	3.8	7.45e-01	0	41	104	0	73	37428
2026-01-20 10:17:07.13	111.71	5.92	-51.2	-71.3	3.8	7.47e-01	0	41	104	0	73	37398
2026-01-20 10:17:10.11	111.42	6.12	-51.2	-71.1	3.8	7.46e-01	0	41	104	0	73	36678
2026-01-20 10:17:13.09	111.13	6.32	-51.2	-70.9	3.8	7.46e-01	0	41	104	0	73	35759
2026-01-20 10:17:16.07	110.83	6.52	-51.2	-70.5	3.8	7.48e-01	0	41	104	0	73	34434
2026-01-20 10:17:19.06	110.53	6.72	-51.1	-70.2	3.8	7.43e-01	0	41	104	0	73	33307
2026-01-20 10:17:22.04	110.22	6.92	-51.1	-69.6	3.8	7.44e-01	0	42	104	0	73	30807
2026-01-20 10:17:25.02	109.91	7.12	-51.1	-68.4	3.9	7.38e-01	0	42	104	0	73	27035
2026-01-20 10:17:28.00	109.59	7.32	-51.1	-68.8	3.9	7.44e-01	0	42	104	0	73	28029
2026-01-20 10:17:30.98	109.27	7.53	-51.2	-69.9	3.8	7.46e-01	0	42	104	0	73	31909
2026-01-20 10:17:33.96	108.95	7.73	-51.1	-68.6	4.0	7.40e-01	0	42	104	0	73	27476
2026-01-20 10:17:36.94	108.61	7.94	-51.0	-65.9	5.0	7.11e-01	0	42	0	0	73	20251
2026-01-20 10:17:39.92	108.28	8.15	-51.1	-67.7	3.9	7.40e-01	0	42	104	0	73	24961
2026-01-20 10:17:42.90	107.93	8.35	-48.8	-54.2	15.9	6.05e-01	0	42	0	4194304	69	6620
2026-01-20 10:17:45.88	107.59	8.56	-45.8	-49.0	21.2	6.08e-01	0	42	0	9961472	63	5120
2026-01-20 10:17:48.86	107.23	8.77	-46.1	-49.3	20.9	6.08e-01	0	42	0	15728640	62	5656
2026-01-20 10:17:51.84	106.88	8.98	-49.0	-54.7	15.8	6.05e-01	0	42	0	20971520	68	7389
2026-01-20 10:17:54.83	106.51	9.20	-49.6	-56.0	14.5	6.09e-01	0	43	0	26738688	69	8145
2026-01-20 10:17:57.81	106.14	9.41	-51.0	-62.6	8.0	6.55e-01	0	42	0	30932992	72	14694
2026-01-20 10:18:00.78	105.76	9.62	-46.3	-49.6	20.7	6.06e-01	0	43	0	35127296	64	5179
2026-01-20 10:18:03.77	105.38	9.84	-46.0	-49.1	21.2	6.08e-01	0	43	0	40894464	63	5189
2026-01-20 10:18:06.75	104.99	10.05	-45.4	-48.2	22.1	6.06e-01	0	42	0	46661632	62	4946
2026-01-20 10:18:09.74	104.59	10.27	-44.6	-47.2	23.0	6.08e-01	0	43	0	51904512	61	4696
2026-01-20 10:18:12.72	104.19	10.49	-44.7	-47.4	22.9	6.06e-01	0	42	0	57671680	61	4762
2026-01-20 10:18:15.71	103.78	10.71	-44.6	-47.3	23.0	6.07e-01	0	43	0	63438848	61	4724
2026-01-20 10:18:18.69	103.37	10.92	-44.5	-47.1	23.2	6.06e-01	0	43	0	68681728	60	4909
2026-01-20 10:18:21.68	102.95	11.14	-44.4	-47.0	23.3	6.08e-01	0	43	0	74448896	60	4830
2026-01-20 10:18:24.67	102.51	11.37	-44.3	-46.9	23.4	6.07e-01	0	43	0	80216064	60	4761
2026-01-20 10:18:27.66	102.08	11.59	-44.2	-46.7	23.5	6.06e-01	0	43	0	85458944	60	4684
2026-01-20 10:18:30.64	101.63	11.81	-44.1	-46.6	23.7	6.07e-01	0	43	0	91226112	60	4623
2026-01-20 10:18:33.63	101.18	12.03	-44.1	-46.6	23.6	6.06e-01	0	43	0	96993280	60	4650
2026-01-20 10:18:36.62	100.72	12.26	-44.2	-46.7	23.6	6.08e-01	0	43	0	102236160	60	4683
2026-01-20 10:18:39.60	100.26	12.48	-44.1	-46.6	23.7	6.07e-01	0	43	0	108003328	60	4620
2026-01-20 10:18:42.58	99.78	12.70	-44.0	-46.5	23.8	6.07e-01	0	43	0	113770496	60	4574
2026-01-20 10:18:45.57	99.30	12.93	-44.1	-46.6	23.7	6.08e-01	0	43	0	119013376	60	4614
2026-01-20 10:18:48.55	98.81	13.16	-44.1	-46.6	23.7	6.06e-01	0	43	0	124780544	60	4620
2026-01-20 10:18:51.54	98.31	13.38	-44.1	-46.7	23.7	6.04e-01	0	43	0	130547712	60	4658
2026-01-20 10:18:54.52	97.81	13.61	-44.0	-46.5	23.8	6.04e-01	0	43	0	135790592	60	4595
2026-01-20 10:18:57.51	97.29	13.83	-44.1	-46.6	23.7	6.07e-01	0	43	0	141557760	60	4639
2026-01-20 10:19:00.49	96.77	14.06	-44.0	-46.5	24.0	6.05e-01	0	43	0	147324928	59	4828
2026-01-20 10:19:03.48	96.23	14.29	-44.1	-46.6	23.8	6.08e-01	0	43	0	152567808	59	4901
2026-01-20 10:19:06.47	95.69	14.51	-44.1	-46.6	23.9	6.07e-01	0	43	0	158334976	59	4882
2026-01-20 10:19:09.45	95.14	14.74	-44.0	-46.4	24.0	6.06e-01	0	43	0	164102144	59	4808
2026-01-20 10:19:12.44	94.58	14.96	-44.0	-46.5	24.0	6.07e-01	0	43	0	169345024	59	4846
2026-01-20 10:19:15.42	94.01	15.19	-44.1	-46.6	23.8	6.09e-01	0	43	0	175112192	59	4920
2026-01-20 10:19:18.40	93.44	15.41	-44.2	-46.6	23.8	6.06e-01	0	43	0	180879360	59	4923
2026-01-20 10:19:21.39	92.85	15.64	-44.1	-46.6	23.9	6.07e-01	0	43	0	186122240	59	4910
2026-01-20 10:19:24.38	92.25	15.86	-44.0	-46.5	24.0	6.07e-01	0	43	0	191889408	59	4853
2026-01-20 10:19:27.36	91.64	16.09	-44.1	-46.5	23.9	6.05e-01	0	43	0	197656576	59	4860
2026-01-20 10:19:30.35	91.03	16.31	-44.0	-46.5	24.0	6.07e-01	0	43	0	203423744	59	4859
2026-01-20 10:19:33.34	90.40	16.53	-44.0	-46.5	23.8	6.05e-01	0	43	0	208666624	59	4819
2026-01-20 10:19:36.33	89.76	16.75	-44.0	-46.5	24.0	6.06e-01	0	43	0	214433792	59	4862
2026-01-20 10:19:39.31	89.12	16.97	-44.0	-46.6	24.0	6.06e-01	0	43	0	220200960	59	4873
2026-01-20 10:19:42.29	88.46	17.19	-44.0	-46.6	23.9	6.07e-01	0	43	0	225443840	59	4895
2026-01-20 10:19:45.28	87.80	17.40	-44.0	-46.5	24.0	6.05e-01	0	43	0	231211008	59	4859
2026-01-20 10:19:48.26	87.12	17.62	-44.1	-46.7	23.9	6.05e-01	0	43	0	236978176	59	4936
2026-01-20 10:19:51.25	86.43	17.83	-43.9	-46.5	24.0	6.06e-01	0	43	0	242221056	59	4833
2026-01-20 10:19:54.23	85.74	18.04	-44.1	-46.6	23.8	6.04e-01	0	43	0	247988224	59	4926
2026-01-20 10:19:57.22	85.03	18.25	-44.1	-46.7	23.9	6.06e-01	0	43	0	253755392	59	4943
2026-01-20 10:20:00.21	84.31	18.45	-43.9	-46.6	24.0	6.04e-01	0	43	0	258998272	59	4876
2026-01-20 10:20:03.19	83.59	18.65	-44.1	-46.7	23.9	6.07e-01	0	43	0	264765440	59	4946
2026-01-20 10:20:06.17	82.85	18.85	-44.2	-46.8	23.8	6.05e-01	0	43	0	270532608	59	5009
2026-01-20 10:20:09.16	82.10	19.05	-44.2	-46.8	23.8	6.06e-01	0	43	0	275775488	59	5032
2026-01-20 10:20:12.14	81.34	19.24	-44.1	-46.7	23.9	6.04e-01	0	43	0	281542656	59	4940
2026-01-20 10:20:15.13	80.57	19.43	-44.3	-46.8	23.8	6.05e-01	0	43	0	287309824	59	5007
2026-01-20 10:20:18.12	79.79	19.62	-44.4	-46.9	23.6	6.05e-01	0	43	0	292552704	59	5083
2026-01-20 10:20:21.10	79.01	19.80	-44.1	-46.6	24.0	6.06e-01	0	43	0	298319872	59	4918
2026-01-20 10:20:24.08	78.21	19.98	-44.4	-46.9	23.7	6.07e-01	0	43	0	304087040	59	5076
2026-01-20 10:20:27.07	77.40	20.15	-44.2	-46.7	24.0	6.05e-01	0	43	0	309329920	59	4937
2026-01-20 10:20:30.06	76.58	20.32	-44.5	-47.1	23.6	6.07e-01	0	43	0	315097088	59	5160
2026-01-20 10:20:33.04	75.75	20.49	-44.5	-47.0	23.7	6.11e-01	0	43	0	320864256	59	5123
2026-01-20 10:20:36.03	74.92	20.65	-44.5	-47.0	23.6	6.06e-01	0	43	0	326107136	59	5147
2026-01-20 10:20:39.01	74.07	20.80	-44.5	-47.1	23.6	6.07e-01	0	43	0	331874304	59	5166
2026-01-20 10:20:42.00	73.22	20.95	-44.6	-47.1	23.6	6.05e-01	0	43	0	337641472	59	5213
2026-01-20 10:20:44.98	72.35	21.10	-44.5	-47.0	23.7	6.05e-01	0	43	0	342884352	59	5129
2026-01-20 10:20:47.97	71.48	21.23	-44.5	-47.0	23.7	6.06e-01	0	43	0	348651520	59	5152
2026-01-20 10:20:50.96	70.60	21.37	-44.5	-47.1	23.6	6.04e-01	0	43	0	354418688	59	5167
2026-01-20 10:20:53.94	69.72	21.49	-44.6	-47.2	23.5	6.05e-01	0	43	0	359661568	59	5228
2026-01-20 10:20:56.93	68.82	21.61	-44.6	-47.2	23.6	6.05e-01	0	43	0	365428736	59	5221
2026-01-20 10:20:59.91	67.92	21.73	-44.6	-47.2	23.6	6.07e-01	0	43	0	371195904	59	5224
2026-01-20 10:21:02.90	67.01	21.83	-44.6	-47.1	23.5	6.06e-01	0	43	0	376963072	60	4911
2026-01-20 10:21:05.89	66.09	21.93	-44.5	-47.0	23.6	6.07e-01	0	43	0	382205952	60	4861
2026-01-20 10:21:08.87	65.18	22.02	-44.4	-46.9	23.7	6.08e-01	0	43	0	387973120	60	4813
2026-01-20 10:21:11.86	64.25	22.11	-44.4	-47.0	23.6	6.05e-01	0	43	0	393740288	60	4828
2026-01-20 10:21:14.85	63.32	22.18	-44.4	-47.0	23.6	6.07e-01	0	43	0	398983168	60	4829
2026-01-20 10:21:17.83	62.38	22.25	-44.4	-47.0	23.6	6.05e-01	0	43	0	404750336	60	4850
2026-01-20 10:21:20.82	61.44	22.32	-44.5	-47.0	23.6	6.05e-01	0	43	0	410517504	60	4857
2026-01-20 10:21:23.81	60.50	22.37	-44.4	-47.0	23.7	6.04e-01	0	43	0	415760384	60	4843
2026-01-20 10:21:26.79	59.55	22.42	-44.4	-47.0	23.6	6.06e-01	0	43	0	421527552	60	4855
2026-01-20 10:21:29.78	58.60	22.46	-44.4	-47.0	23.6	6.07e-01	0	43	0	427294720	60	4829
2026-01-20 10:21:32.77	57.65	22.49	-44.6	-47.2	23.5	6.05e-01	0	43	0	432537600	60	4945
2026-01-20 10:21:35.75	56.70	22.51	-44.4	-47.0	23.6	6.06e-01	0	43	0	438304768	60	4834
2026-01-20 10:21:38.74	55.74	22.52	-44.6	-47.2	23.4	6.06e-01	0	43	0	444071936	60	4944
2026-01-20 10:21:41.72	54.79	22.53	-44.5	-47.1	23.6	6.06e-01	0	43	0	449314816	60	4887
2026-01-20 10:21:44.71	53.83	22.53	-44.6	-47.1	23.5	6.05e-01	0	43	0	455081984	60	4919
2026-01-20 10:21:47.69	52.88	22.52	-44.7	-47.3	23.4	6.07e-01	0	43	0	460849152	60	5035
2026-01-20 10:21:50.68	51.93	22.50	-44.5	-47.1	23.5	6.04e-01	0	43	0	466092032	60	4903
2026-01-20 10:21:53.67	50.97	22.47	-44.7	-47.3	23.4	6.07e-01	0	43	0	471859200	60	4990
2026-01-20 10:21:56.66	50.02	22.44	-44.6	-47.2	23.5	6.07e-01	0	43	0	477626368	60	4968
2026-01-20 10:21:59.64	49.08	22.39	-44.7	-47.2	23.4	6.07e-01	0	43	0	482869248	60	4978
2026-01-20 10:22:02.63	48.13	22.34	-44.6	-47.2	23.4	6.07e-01	0	43	0	488636416	60	4973
2026-01-20 10:22:05.61	47.19	22.28	-44.7	-47.4	23.3	6.06e-01	0	43	0	494403584	60	5045
2026-01-20 10:22:08.59	46.26	22.22	-44.6	-47.2	23.5	6.05e-01	0	43	0	499646464	60	4937
2026-01-20 10:22:11.58	45.33	22.15	-44.6	-47.2	23.4	6.07e-01	0	43	0	505413632	60	4971
2026-01-20 10:22:14.57	44.40	22.06	-44.6	-47.2	23.5	6.06e-01	0	43	0	511180800	60	4962
2026-01-20 10:22:17.55	43.48	21.98	-44.4	-47.0	23.6	6.06e-01	0	43	0	516947968	60	4855
2026-01-20 10:22:20.53	42.56	21.88	-44.6	-47.3	23.4	6.08e-01	0	43	0	522190848	60	5009
2026-01-20 10:22:23.52	41.65	21.78	-44.7	-47.3	23.4	6.07e-01	0	43	0	527958016	60	5016
2026-01-20 10:22:26.51	40.75	21.67	-44.6	-47.2	23.4	6.07e-01	0	43	0	533725184	60	4962
2026-01-20 10:22:29.49	39.86	21.55	-44.3	-47.0	23.6	6.06e-01	0	43	0	538968064	60	4817
2026-01-20 10:22:32.47	38.97	21.43	-44.4	-47.3	23.4	6.06e-01	0	43	0	544735232	60	4991
2026-01-20 10:22:35.46	38.09	21.30	-44.3	-47.0	23.7	6.05e-01	0	43	0	550502400	60	4830
2026-01-20 10:22:38.44	37.22	21.17	-44.3	-47.1	23.5	6.07e-01	0	43	0	555745280	60	4915
2026-01-20 10:22:41.43	36.35	21.03	-44.4	-47.1	23.5	6.05e-01	0	43	0	561512448	60	4905
2026-01-20 10:22:44.41	35.50	20.88	-44.6	-47.2	23.5	6.08e-01	0	43	0	567279616	60	4958
2026-01-20 10:22:47.39	34.65	20.73	-44.6	-47.3	23.4	6.08e-01	0	43	0	572522496	60	4993
2026-01-20 10:22:50.38	33.81	20.57	-44.3	-47.0	23.6	6.08e-01	0	43	0	578289664	60	4833
2026-01-20 10:22:53.36	32.98	20.41	-44.2	-47.1	23.3	6.07e-01	0	43	0	584056832	60	4906
2026-01-20 10:22:56.35	32.16	20.24	-44.1	-47.0	23.7	6.07e-01	0	43	0	589299712	59	5148
2026-01-20 10:22:59.33	31.35	20.07	-44.5	-47.1	23.6	6.05e-01	0	43	0	595066880	59	5185
2026-01-20 10:23:02.32	30.55	19.89	-44.5	-47.2	23.4	6.05e-01	0	43	0	600834048	60	4949
2026-01-20 10:23:05.31	29.76	19.71	-44.2	-46.8	23.8	6.06e-01	0	43	0	606076928	60	4732
2026-01-20 10:23:08.29	28.98	19.53	-44.3	-47.0	23.6	6.06e-01	0	43	0	611844096	60	4835
2026-01-20 10:23:11.28	28.21	19.34	-44.2	-46.9	23.7	6.08e-01	0	43	0	617611264	60	4773
2026-01-20 10:23:14.26	27.45	19.15	-44.3	-47.0	23.6	6.07e-01	0	43	0	622854144	59	5148
2026-01-20 10:23:17.25	26.70	18.96	-44.1	-47.0	23.6	6.05e-01	0	43	0	628621312	59	5127
2026-01-20 10:23:20.23	25.96	18.76	-44.2	-47.1	23.6	6.05e-01	0	43	0	634388480	59	5189
2026-01-20 10:23:23.22	25.23	18.56	-44.1	-47.0	23.7	6.06e-01	0	43	0	639631360	59	5137
2026-01-20 10:23:26.20	24.52	18.36	-44.5	-47.1	23.6	6.05e-01	0	43	0	645398528	59	5218
2026-01-20 10:23:29.19	23.81	18.15	-44.4	-47.1	23.6	6.08e-01	0	43	0	651165696	59	5160
2026-01-20 10:23:32.18	23.11	17.94	-44.4	-47.0	23.6	6.08e-01	0	43	0	656408576	59	5149
2026-01-20 10:23:35.16	22.42	17.73	-44.4	-47.1	23.5	6.05e-01	0	43	0	662175744	59	5192
2026-01-20 10:23:38.15	21.74	17.52	-44.2	-47.0	23.6	6.09e-01	0	43	0	667942912	59	5134
2026-01-20 10:23:41.14	21.07	17.31	-44.1	-46.9	23.8	6.04e-01	0	43	0	673185792	59	5048
2026-01-20 10:23:44.12	20.42	17.09	-44.4	-47.2	23.5	6.05e-01	0	43	0	678952960	59	5240
2026-01-20 10:23:47.11	19.77	16.88	-44.2	-47.0	23.7	6.06e-01	0	43	0	684720128	59	5104
2026-01-20 10:23:50.09	19.13	16.66	-44.3	-47.1	23.5	6.04e-01	0	43	0	689963008	59	5209
2026-01-20 10:23:53.07	18.51	16.44	-44.0	-46.9	23.7	6.05e-01	0	43	0	695730176	59	5060
2026-01-20 10:23:56.06	17.89	16.22	-44.3	-46.9	23.7	6.04e-01	0	43	0	701497344	59	5090
2026-01-20 10:23:59.05	17.28	15.99	-44.5	-47.0	23.6	6.06e-01	0	43	0	707264512	59	5155
2026-01-20 10:24:02.03	16.68	15.77	-44.4	-46.9	23.8	5.97e-01	0	43	0	712507392	59	5069
2026-01-20 10:24:05.02	16.09	15.55	-44.5	-47.2	23.5	6.02e-01	0	43	0	718274560	59	5230
2026-01-20 10:24:08.00	15.52	15.33	-44.1	-47.1	23.5	6.01e-01	0	43	0	724041728	59	5191
2026-01-20 10:24:10.99	14.95	15.10	-43.8	-47.1	23.6	6.01e-01	0	43	0	729284608	59	5166
2026-01-20 10:24:13.98	14.38	14.88	-43.7	-47.0	23.5	6.01e-01	0	43	0	735051776	59	5105
2026-01-20 10:24:16.96	13.83	14.65	-43.7	-47.0	23.6	6.03e-01	0	43	0	740818944	59	5159
2026-01-20 10:24:19.95	13.29	14.43	-43.9	-47.2	23.4	6.00e-01	0	43	0	746061824	59	5220
2026-01-20 10:24:22.93	12.76	14.20	-44.1	-47.2	23.4	6.03e-01	0	43	0	751828992	59	5236
2026-01-20 10:24:25.92	12.23	13.98	-44.4	-47.3	23.4	6.04e-01	0	43	0	757596160	59	5303
2026-01-20 10:24:28.91	11.72	13.75	-44.5	-47.7	23.0	6.03e-01	0	43	0	762839040	59	5535
2026-01-20 10:24:31.89	11.21	13.53	-44.4	-47.5	23.2	6.03e-01	0	43	0	768606208	59	5418
2026-01-20 10:24:34.88	10.71	13.30	-44.3	-47.4	23.2	6.01e-01	0	43	0	774373376	59	5367
2026-01-20 10:24:37.86	10.22	13.08	-44.0	-47.3	23.2	6.03e-01	0	43	0	779616256	59	5314
2026-01-20 10:24:40.85	9.74	12.85	-44.1	-47.4	23.1	6.01e-01	0	43	0	785383424	59	5400
2026-01-20 10:24:43.84	9.26	12.63	-44.1	-47.4	23.2	6.00e-01	0	43	0	791150592	59	5355
2026-01-20 10:24:46.83	8.79	12.40	-43.7	-47.3	23.2	6.02e-01	0	43	0	796393472	59	5322
2026-01-20 10:24:49.81	8.34	12.18	-43.8	-47.4	23.1	5.98e-01	0	43	0	802160640	59	5357
2026-01-20 10:24:52.80	7.88	11.96	-44.1	-47.5	22.9	6.00e-01	0	43	0	807927808	59	5444
2026-01-20 10:24:55.78	7.44	11.74	-44.3	-47.6	22.9	6.02e-01	0	43	0	813170688	59	5500
2026-01-20 10:24:58.77	7.00	11.52	-44.6	-47.8	22.7	6.02e-01	0	43	0	818937856	59	5652
2026-01-20 10:25:01.75	6.57	11.30	-44.4	-47.6	22.8	6.03e-01	0	43	0	824705024	60	5177
2026-01-20 10:25:04.74	6.15	11.08	-44.2	-47.3	23.1	6.01e-01	0	43	0	829947904	60	5029
2026-01-20 10:25:07.72	5.74	10.86	-44.3	-47.7	22.9	6.02e-01	0	44	0	835715072	59	5536
2026-01-20 10:25:10.70	5.33	10.64	-44.4	-48.0	22.1	6.01e-01	0	43	0	841482240	59	5758
2026-01-20 10:25:13.69	4.93	10.42	-44.4	-47.9	22.6	6.03e-01	0	43	0	846725120	59	5705
2026-01-20 10:25:16.68	4.53	10.21	-44.3	-47.9	22.6	5.99e-01	0	43	0	852492288	59	5678
2026-01-20 10:25:19.66	4.14	9.99	-44.6	-48.0	22.5	6.02e-01	0	43	0	858259456	59	5735
2026-01-20 10:25:22.65	3.76	9.78	-44.8	-47.7	22.7	6.02e-01	0	43	0	863502336	60	5242
2026-01-20 10:25:25.64	3.38	9.56	-44.4	-48.1	22.3	6.02e-01	0	43	0	869269504	60	5475
2026-01-20 10:25:28.62	3.01	9.35	-44.3	-48.0	22.4	6.02e-01	0	43	0	875036672	60	5408
2026-01-20 10:25:31.60	2.65	9.14	-45.2	-57.9	3.7	7.46e-01	0	43	104	877658112	61	15991
2026-01-20 10:25:34.58	2.29	8.93	-50.2	-71.8	3.8	7.43e-01	0	43	104	877658112	72	42276
2026-01-20 10:25:37.56	1.94	8.72	-51.3	-72.2	3.8	7.44e-01	0	43	104	877658112	73	41706
2026-01-20 10:25:40.55	1.59	8.51	-52.1	-72.4	3.8	7.45e-01	0	43	104	877658112	75	37872
2026-01-20 10:25:43.53	1.25	8.30	-52.3	-72.7	3.8	7.45e-01	0	43	104	877658112	75	39162
2026-01-20 10:25:46.50	0.91	8.10	-52.2	-72.5	3.8	7.45e-01	0	43	104	877658112	75	38368
2026-01-20 10:25:49.49	0.58	7.89	-52.1	-72.5	3.8	7.47e-01	0	43	104	877658112	75	38522
2026-01-20 10:25:52.47	0.25	7.69	-52.4	-72.5	3.8	7.45e-01	0	43	104	877658112	75	38544
2026-01-20 10:25:55.45	359.93	7.48	-52.3	-72.5	3.8	7.46e-01	0	43	104	877658112	76	36512
2026-01-20 10:25:58.43	359.62	7.28	-52.3	-72.5	3.8	7.47e-01	0	43	104	877658112	76	36426
2026-01-20 10:26:01.41	359.31	7.08	-52.1	-72.5	3.8	7.44e-01	0	43	104	877658112	75	38413
2026-01-20 10:26:04.39	359.00	6.88	-51.9	-72.5	3.8	7.45e-01	0	43	104	877658112	75	38263
2026-01-20 10:26:07.37	358.70	6.68	-51.9	-72.4	3.8	7.47e-01	0	43	104	877658112	75	38234
2026-01-20 10:26:10.35	358.40	6.48	-51.9	-72.5	3.8	7.46e-01	0	43	104	877658112	75	38246
2026-01-20 10:26:13.33	358.11	6.28	-51.9	-72.4	3.8	7.46e-01	0	43	104	877658112	75	38239
2026-01-20 10:26:16.31	357.83	6.09	-51.9	-72.4	3.8	7.46e-01	0	44	104	877658112	75	38150
2026-01-20 10:26:19.29	357.54	5.89	-51.9	-72.4	3.8	7.45e-01	0	43	104	877658112	75	38161
2026-01-20 10:26:22.27	357.26	5.70	-51.9	-72.4	3.8	7.48e-01	0	44	104	877658112	75	38192
2026-01-20 10:26:25.25	356.99	5.50	-51.9	-72.4	3.8	7.44e-01	0	43	104	877658112	75	38105
2026-01-20 10:26:28.23	356.72	5.31	-51.9	-72.4	3.8	7.45e-01	0	44	104	877658112	75	38101
2026-01-20 10:26:31.21	356.45	5.12	-51.8	-72.4	3.8	7.45e-01	0	43	104	877658112	75	38081

#Closed at: 2026-01-20 10:26:34
#Recorded file [877 MB]: D:/Data/31040_260120_131655.dat