passes_logs/2026/01/20/T1/T1__20260120_090253_NOAA_21_JPSS-2_rec.log

#Pass ID: 20260120_090253_NOAA 21 (JPSS-2)
#Satellite: NOAA 21 (JPSS-2)
#Configuration: NOAA 21
#almurnet v.1.7.20251203
#Start time: 2026-01-20 09:02:54

#Version: 2.0.20230620
#Station: T1
#Location: 37.570604 lon 55.790049 lat
#TLE: 1 54234U 22150A   26019.59425193  .00000067  00000+0  52811-4 0  9997
#TLE: 2 54234  98.7505 320.4385 0000607 256.3203 103.7906 14.19535690165464

#Time	Az	El	Level	Level2	SNR	BER	BlckErr	Temp	State	Recorded	gain1	gain2
2026-01-20 09:02:54.18	132.67	5.07	-49.8	-62.8	3.8	1.49e+00	0	38	0	0	71	15793
2026-01-20 09:02:57.16	132.53	5.27	-49.8	-62.8	3.8	1.49e+00	0	38	104	0	71	15939
2026-01-20 09:03:00.15	132.40	5.48	-49.8	-62.9	3.8	1.49e+00	0	38	104	0	71	16009
2026-01-20 09:03:03.13	132.26	5.69	-49.8	-62.9	3.8	1.49e+00	0	38	104	0	71	16070
2026-01-20 09:03:06.11	132.11	5.90	-49.8	-62.9	3.8	1.49e+00	0	38	104	0	71	15965
2026-01-20 09:03:09.09	131.97	6.11	-49.8	-62.7	3.8	1.49e+00	0	39	104	0	71	15605
2026-01-20 09:03:12.08	131.82	6.33	-49.7	-62.4	3.8	1.49e+00	0	39	104	0	71	15212
2026-01-20 09:03:15.06	131.67	6.54	-49.7	-62.4	3.8	1.49e+00	0	39	104	0	71	15215
2026-01-20 09:03:18.05	131.52	6.76	-49.8	-62.8	3.8	1.49e+00	0	39	104	0	71	15937
2026-01-20 09:03:21.03	131.37	6.97	-49.7	-62.5	3.8	1.49e+00	0	39	104	0	71	15315
2026-01-20 09:03:24.02	131.21	7.19	-49.6	-61.2	3.8	1.49e+00	0	39	104	0	71	13222
2026-01-20 09:03:27.00	131.05	7.42	-49.4	-59.0	4.3	1.45e+00	0	39	104	0	70	10829
2026-01-20 09:03:29.98	130.89	7.64	-48.3	-54.4	7.2	2.23e-01	0	39	0	0	68	7167
2026-01-20 09:03:32.97	130.73	7.86	-46.0	-49.5	12.0	4.59e-04	0	39	0	0	63	5429
2026-01-20 09:03:35.95	130.56	8.09	-43.8	-46.2	15.3	0.00e+00	0	39	0	0	59	4688
2026-01-20 09:03:38.93	130.39	8.32	-42.9	-45.1	16.4	0.00e+00	0	39	0	0	57	4613
2026-01-20 09:03:41.92	130.22	8.55	-43.5	-45.9	15.6	0.00e+00	0	39	0	0	57	5077
2026-01-20 09:03:44.90	130.05	8.78	-45.4	-48.6	13.0	1.29e-05	0	39	0	0	61	5496
2026-01-20 09:03:47.89	129.87	9.02	-47.8	-53.3	8.1	4.68e-02	0	39	0	0	66	7096
2026-01-20 09:03:50.89	129.69	9.25	-49.5	-60.5	3.9	3.53e-01	0	39	104	0	69	13697
2026-01-20 09:03:53.89	129.50	9.49	-44.4	-47.1	14.6	2.20e-06	0	39	0	0	60	4911
2026-01-20 09:03:56.90	129.31	9.73	-43.8	-46.3	15.3	0.00e+00	0	39	0	0	59	4720
2026-01-20 09:03:59.90	129.12	9.98	-42.5	-44.7	16.9	0.00e+00	0	40	0	0	57	4431
2026-01-20 09:04:02.90	128.93	10.22	-41.7	-43.8	17.6	0.00e+00	0	40	0	0	55	4445
2026-01-20 09:04:05.90	128.73	10.47	-41.7	-43.7	17.7	0.00e+00	0	40	0	0	54	4686
2026-01-20 09:04:08.90	128.53	10.72	-41.4	-43.4	18.0	0.00e+00	0	40	0	0	54	4524
2026-01-20 09:04:11.91	128.32	10.97	-41.5	-43.5	18.0	0.00e+00	0	40	0	0	54	4563
2026-01-20 09:04:14.91	128.11	11.23	-41.3	-43.3	18.1	0.00e+00	0	40	0	0	54	4482
2026-01-20 09:04:17.91	127.90	11.48	-41.3	-43.2	18.3	0.00e+00	0	40	0	0	54	4435
2026-01-20 09:04:20.92	127.68	11.74	-41.0	-42.9	18.6	0.00e+00	0	40	0	0	54	4249
2026-01-20 09:04:23.92	127.46	12.00	-41.0	-42.9	18.6	0.00e+00	0	40	0	0	53	4515
2026-01-20 09:04:26.92	127.24	12.27	-40.8	-42.6	18.8	0.00e+00	0	40	0	0	53	4378
2026-01-20 09:04:29.93	127.01	12.53	-41.0	-42.8	18.6	0.00e+00	0	40	0	0	53	4470
2026-01-20 09:04:32.93	126.77	12.80	-40.8	-42.6	18.7	0.00e+00	0	40	0	0	53	4369
2026-01-20 09:04:35.93	126.53	13.07	-40.9	-42.8	18.6	0.00e+00	0	40	0	0	53	4473
2026-01-20 09:04:38.94	126.29	13.35	-40.8	-42.6	18.8	0.00e+00	0	40	0	0	53	4386
2026-01-20 09:04:41.94	126.04	13.62	-40.8	-42.7	18.7	0.00e+00	0	40	0	0	53	4440
2026-01-20 09:04:44.94	125.79	13.90	-40.8	-42.6	18.8	0.00e+00	0	40	0	0	53	4380
2026-01-20 09:04:47.95	125.54	14.18	-40.7	-42.5	19.0	0.00e+00	0	40	0	0	53	4312
2026-01-20 09:04:50.95	125.27	14.47	-40.6	-42.4	19.1	0.00e+00	0	40	0	0	53	4263
2026-01-20 09:04:53.95	125.01	14.76	-40.6	-42.4	19.1	0.00e+00	0	40	0	0	53	4265
2026-01-20 09:04:56.95	124.73	15.04	-40.7	-42.4	19.0	0.00e+00	0	41	0	0	53	4291
2026-01-20 09:04:59.96	124.46	15.34	-40.8	-42.6	18.9	0.00e+00	0	40	0	0	53	4372
2026-01-20 09:05:02.97	124.17	15.63	-40.9	-42.7	18.8	0.00e+00	0	40	0	0	53	4429
2026-01-20 09:05:05.96	123.88	15.93	-40.9	-42.7	18.9	0.00e+00	0	40	0	0	53	4400
2026-01-20 09:05:08.96	123.59	16.23	-40.7	-42.6	18.9	0.00e+00	0	40	0	0	53	4345
2026-01-20 09:05:11.97	123.29	16.54	-40.9	-42.7	18.9	0.00e+00	0	40	0	0	53	4432
2026-01-20 09:05:14.97	122.98	16.84	-40.9	-42.7	18.9	0.00e+00	0	40	0	0	53	4410
2026-01-20 09:05:17.97	122.66	17.15	-40.9	-42.7	18.8	0.00e+00	0	40	0	0	53	4422
2026-01-20 09:05:20.97	122.34	17.47	-41.0	-42.9	18.7	0.00e+00	0	40	0	0	53	4494
2026-01-20 09:05:23.97	122.02	17.78	-41.0	-42.8	18.7	0.00e+00	0	41	0	0	53	4478
2026-01-20 09:05:26.98	121.68	18.10	-41.0	-42.9	18.7	0.00e+00	0	40	0	0	53	4505
2026-01-20 09:05:29.98	121.34	18.42	-40.9	-42.7	18.9	0.00e+00	0	40	0	0	53	4441
2026-01-20 09:05:32.99	120.99	18.75	-40.7	-42.5	19.1	0.00e+00	0	41	0	0	53	4301
2026-01-20 09:05:35.99	120.63	19.08	-40.3	-42.1	19.4	0.00e+00	0	40	0	0	52	4361
2026-01-20 09:05:38.99	120.26	19.41	-40.4	-42.1	19.3	0.00e+00	0	40	0	0	52	4389
2026-01-20 09:05:41.99	119.89	19.75	-40.4	-42.2	19.3	0.00e+00	0	40	0	0	52	4401
2026-01-20 09:05:44.99	119.51	20.08	-40.5	-42.3	19.2	0.00e+00	0	40	0	0	52	4449
2026-01-20 09:05:47.99	119.12	20.42	-40.3	-42.0	19.5	0.00e+00	0	41	0	0	52	4335
2026-01-20 09:05:50.99	118.72	20.77	-40.1	-41.9	19.7	0.00e+00	0	40	0	0	52	4250
2026-01-20 09:05:53.99	118.31	21.12	-40.1	-41.8	19.7	0.00e+00	0	41	0	0	52	4205
2026-01-20 09:05:57.00	117.89	21.47	-39.8	-41.5	19.9	0.00e+00	0	41	0	0	51	4332
2026-01-20 09:06:00.00	117.46	21.82	-39.9	-41.6	19.9	0.00e+00	0	40	0	0	51	4370
2026-01-20 09:06:03.01	117.02	22.18	-39.8	-41.5	20.0	0.00e+00	0	41	0	0	51	4317
2026-01-20 09:06:06.01	116.57	22.54	-39.5	-41.2	20.3	0.00e+00	0	40	0	0	51	4165
2026-01-20 09:06:09.01	116.12	22.91	-39.7	-41.3	20.2	0.00e+00	0	41	0	0	51	4231
2026-01-20 09:06:12.02	115.64	23.27	-39.7	-41.4	20.1	0.00e+00	0	41	0	0	51	4269
2026-01-20 09:06:15.02	115.16	23.64	-39.8	-41.4	20.1	0.00e+00	0	40	0	0	51	4291
2026-01-20 09:06:18.02	114.67	24.02	-39.7	-41.4	20.1	0.00e+00	0	41	0	0	51	4253
2026-01-20 09:06:21.02	114.16	24.39	-39.9	-41.5	20.1	0.00e+00	0	40	0	0	51	4339
2026-01-20 09:06:24.02	113.65	24.77	-39.9	-41.5	20.1	0.00e+00	0	40	0	0	51	4334
2026-01-20 09:06:27.02	113.12	25.15	-40.0	-41.7	19.9	0.00e+00	0	41	0	0	51	4419
2026-01-20 09:06:30.02	112.57	25.54	-40.2	-41.9	19.7	0.00e+00	0	41	0	0	51	4538
2026-01-20 09:06:33.03	112.01	25.93	-40.5	-42.3	19.4	0.00e+00	0	40	0	0	51	4737
2026-01-20 09:06:36.03	111.44	26.32	-40.6	-42.4	19.3	0.00e+00	0	41	0	0	52	4519
2026-01-20 09:06:39.04	110.85	26.71	-40.3	-42.0	19.7	0.00e+00	0	41	0	0	52	4310
2026-01-20 09:06:42.04	110.25	27.11	-40.2	-41.9	19.6	0.00e+00	0	41	0	0	52	4262
2026-01-20 09:06:45.04	109.64	27.50	-40.5	-42.2	19.4	0.00e+00	0	41	0	0	52	4428
2026-01-20 09:06:48.05	109.01	27.90	-40.6	-42.3	19.3	0.00e+00	0	40	0	0	52	4482
2026-01-20 09:06:51.05	108.36	28.30	-40.3	-42.0	19.6	0.00e+00	0	41	0	0	52	4340
2026-01-20 09:06:54.06	107.69	28.71	-40.6	-42.4	19.2	0.00e+00	0	41	0	0	52	4505
2026-01-20 09:06:57.06	107.01	29.11	-40.7	-42.4	19.3	0.00e+00	0	41	0	0	52	4535
2026-01-20 09:07:00.06	106.31	29.52	-40.4	-42.1	19.4	0.00e+00	0	41	0	0	52	4374
2026-01-20 09:07:03.07	105.59	29.92	-40.3	-42.1	19.5	0.00e+00	0	41	0	0	52	4354
2026-01-20 09:07:06.07	104.86	30.33	-40.4	-42.2	19.5	0.00e+00	0	41	0	0	52	4399
2026-01-20 09:07:09.08	104.10	30.74	-40.4	-42.2	19.5	0.00e+00	0	41	0	0	52	4396
2026-01-20 09:07:12.08	103.33	31.14	-40.5	-42.3	19.4	0.00e+00	0	41	0	0	52	4460
2026-01-20 09:07:15.09	102.54	31.55	-40.6	-42.4	19.3	0.00e+00	0	41	0	0	52	4518
2026-01-20 09:07:18.09	101.72	31.96	-40.6	-42.4	19.3	0.00e+00	0	41	0	0	52	4518
2026-01-20 09:07:21.09	100.89	32.36	-40.7	-42.5	19.1	0.00e+00	0	41	0	0	52	4587
2026-01-20 09:07:24.10	100.03	32.76	-41.0	-42.9	18.9	0.00e+00	0	41	0	0	52	4767
2026-01-20 09:07:27.10	99.16	33.16	-41.4	-43.3	18.5	0.00e+00	0	41	0	0	53	4732
2026-01-20 09:07:30.10	98.26	33.56	-41.4	-43.3	18.5	0.00e+00	0	41	0	0	53	4736
2026-01-20 09:07:33.10	97.34	33.96	-41.3	-43.2	18.6	0.00e+00	0	41	0	0	53	4668
2026-01-20 09:07:36.11	96.39	34.35	-41.4	-43.3	18.5	0.00e+00	0	41	0	0	53	4709
2026-01-20 09:07:39.11	95.43	34.73	-41.5	-43.3	18.5	0.00e+00	0	41	0	0	54	4492
2026-01-20 09:07:42.11	94.44	35.12	-41.8	-43.7	18.0	0.00e+00	0	41	0	0	54	4679
2026-01-20 09:07:45.11	93.43	35.49	-41.8	-43.7	18.1	0.00e+00	0	41	0	0	54	4676
2026-01-20 09:07:48.12	92.39	35.86	-41.8	-43.8	18.1	0.00e+00	0	41	0	0	54	4712
2026-01-20 09:07:51.12	91.33	36.23	-41.9	-43.8	18.1	0.00e+00	0	41	0	0	54	4729
2026-01-20 09:07:54.12	90.25	36.58	-41.5	-43.4	18.4	0.00e+00	0	41	0	0	54	4534
2026-01-20 09:07:57.13	89.14	36.93	-41.6	-43.5	18.4	0.00e+00	0	41	0	0	54	4590
2026-01-20 09:08:00.13	88.01	37.27	-41.5	-43.4	18.5	0.00e+00	0	41	0	0	54	4501
2026-01-20 09:08:03.13	86.85	37.60	-42.0	-44.0	17.9	0.00e+00	0	41	0	0	54	4822
2026-01-20 09:08:06.13	85.67	37.92	-42.1	-44.1	17.8	0.00e+00	0	41	0	0	55	4641
2026-01-20 09:08:09.14	84.47	38.23	-42.1	-44.2	17.8	0.00e+00	0	41	0	0	55	4659
2026-01-20 09:08:12.14	83.25	38.53	-42.0	-44.0	17.9	0.00e+00	0	41	0	0	55	4583
2026-01-20 09:08:15.14	82.00	38.81	-41.9	-43.9	18.0	0.00e+00	0	41	0	0	55	4506
2026-01-20 09:08:18.14	80.74	39.08	-42.0	-44.0	17.9	0.00e+00	0	41	0	0	55	4564
2026-01-20 09:08:21.15	79.45	39.34	-42.6	-44.6	17.3	0.00e+00	0	41	0	0	55	4923
2026-01-20 09:08:24.15	78.14	39.58	-42.7	-44.7	17.4	0.00e+00	0	41	0	0	56	4699
2026-01-20 09:08:27.16	76.81	39.80	-42.3	-44.2	17.9	0.00e+00	0	41	0	0	56	4436
2026-01-20 09:08:30.16	75.47	40.01	-42.0	-43.9	18.2	0.00e+00	0	41	0	0	56	4279
2026-01-20 09:08:33.16	74.11	40.20	-42.4	-44.3	17.8	0.00e+00	0	41	0	0	56	4482
2026-01-20 09:08:36.16	72.74	40.38	-42.2	-44.1	17.9	0.00e+00	0	41	0	0	56	4380
2026-01-20 09:08:39.17	71.34	40.54	-42.7	-44.7	17.4	0.00e+00	0	41	0	0	56	4668
2026-01-20 09:08:42.17	69.94	40.67	-43.3	-45.5	16.7	0.00e+00	0	41	0	0	57	4819
2026-01-20 09:08:45.17	68.53	40.79	-42.9	-45.0	17.3	0.00e+00	0	41	0	0	57	4580
2026-01-20 09:08:48.17	67.11	40.89	-43.0	-45.1	17.2	0.00e+00	0	41	0	0	57	4600
2026-01-20 09:08:51.17	65.68	40.97	-43.4	-45.6	16.6	0.00e+00	0	41	0	0	57	4883
2026-01-20 09:08:54.17	64.24	41.03	-43.2	-45.3	16.8	0.00e+00	0	41	0	0	57	4757
2026-01-20 09:08:57.18	62.80	41.07	-43.5	-45.8	16.4	0.00e+00	0	41	0	0	57	4996
2026-01-20 09:09:00.18	61.35	41.08	-43.4	-45.5	16.6	0.00e+00	0	41	0	0	57	4864
2026-01-20 09:09:03.19	59.91	41.08	-43.0	-45.1	17.1	0.00e+00	0	41	0	0	57	4624
2026-01-20 09:09:06.19	58.46	41.06	-43.7	-46.0	15.9	0.00e+00	0	41	0	0	58	4838
2026-01-20 09:09:09.19	57.03	41.01	-42.9	-45.0	17.1	0.00e+00	0	41	0	0	58	4313
2026-01-20 09:09:12.19	55.59	40.95	-43.0	-45.1	17.0	0.00e+00	0	41	0	0	57	4606
2026-01-20 09:09:15.19	54.17	40.87	-42.9	-45.0	17.1	0.00e+00	0	41	0	0	57	4567
2026-01-20 09:09:18.19	52.75	40.76	-42.7	-44.7	17.4	0.00e+00	0	41	0	0	57	4400
2026-01-20 09:09:21.19	51.34	40.64	-43.8	-46.1	16.1	0.00e+00	0	41	0	0	58	4918
2026-01-20 09:09:24.20	49.94	40.49	-43.0	-45.1	17.1	0.00e+00	0	41	0	0	58	4365
2026-01-20 09:09:27.20	48.55	40.33	-42.5	-44.5	17.6	0.00e+00	0	41	0	0	57	4323
2026-01-20 09:09:30.21	47.18	40.15	-43.5	-45.7	16.4	0.00e+00	0	41	0	0	57	4974
2026-01-20 09:09:33.21	45.83	39.96	-43.4	-45.5	16.5	0.00e+00	0	41	0	0	57	4864
2026-01-20 09:09:36.21	44.49	39.75	-42.9	-44.9	17.1	0.00e+00	0	41	0	0	57	4541
2026-01-20 09:09:39.21	43.18	39.52	-43.0	-45.1	16.9	0.00e+00	0	41	0	0	57	4638
2026-01-20 09:09:42.21	41.88	39.27	-43.7	-45.9	16.3	0.00e+00	0	41	0	0	57	5074
2026-01-20 09:09:45.21	40.60	39.01	-43.8	-46.0	16.1	0.00e+00	0	41	0	0	58	4864
2026-01-20 09:09:48.21	39.34	38.74	-42.4	-44.3	17.8	0.00e+00	0	41	0	0	56	4480
2026-01-20 09:09:51.21	38.11	38.45	-43.2	-45.3	16.9	0.00e+00	0	41	0	0	57	4737
2026-01-20 09:09:54.21	36.89	38.16	-42.7	-44.8	17.3	0.00e+00	0	41	0	0	57	4444
2026-01-20 09:09:57.21	35.70	37.85	-42.6	-44.5	17.7	0.00e+00	0	41	0	0	56	4591
2026-01-20 09:10:00.21	34.53	37.53	-43.3	-45.4	16.9	0.00e+00	0	41	0	0	57	4791
2026-01-20 09:10:03.22	33.39	37.19	-42.1	-44.1	18.0	0.00e+00	0	41	0	0	56	4353
2026-01-20 09:10:06.22	32.27	36.85	-43.5	-45.7	16.5	0.00e+00	0	41	0	0	57	4966
2026-01-20 09:10:09.23	31.17	36.50	-42.4	-44.4	17.6	0.00e+00	0	41	0	0	56	4523
2026-01-20 09:10:12.23	30.09	36.15	-41.2	-42.9	19.0	0.00e+00	0	41	0	0	54	4290
2026-01-20 09:10:15.23	29.04	35.78	-42.8	-44.8	17.3	0.00e+00	0	41	0	0	56	4733
2026-01-20 09:10:18.23	28.02	35.41	-40.9	-42.7	19.0	0.00e+00	0	41	0	0	53	4413
2026-01-20 09:10:21.22	27.02	35.04	-41.3	-43.2	18.8	0.00e+00	0	41	0	0	53	4673
2026-01-20 09:10:24.23	26.04	34.65	-42.2	-44.2	17.7	0.00e+00	0	41	0	0	55	4686
2026-01-20 09:10:27.23	25.08	34.27	-41.1	-42.9	18.9	0.00e+00	0	41	0	0	54	4287
2026-01-20 09:10:30.23	24.15	33.88	-41.3	-43.2	18.8	0.00e+00	0	41	0	0	53	4653
2026-01-20 09:10:33.23	23.24	33.48	-41.6	-43.6	18.2	0.00e+00	0	41	0	0	54	4637
2026-01-20 09:10:36.23	22.35	33.09	-40.9	-42.8	18.9	0.00e+00	0	41	0	0	53	4444
2026-01-20 09:10:39.24	21.48	32.69	-40.9	-42.7	19.1	0.00e+00	0	41	0	0	53	4436
2026-01-20 09:10:42.24	20.63	32.29	-41.2	-43.1	18.7	0.00e+00	0	41	0	0	53	4616
2026-01-20 09:10:45.25	19.80	31.88	-40.5	-42.2	19.6	0.00e+00	0	41	0	0	52	4435
2026-01-20 09:10:48.25	19.00	31.48	-41.2	-43.0	18.9	0.00e+00	0	41	0	0	52	4854
2026-01-20 09:10:51.25	18.21	31.07	-41.5	-43.4	18.5	0.00e+00	0	41	0	0	53	4795
2026-01-20 09:10:54.25	17.45	30.67	-41.2	-43.1	18.8	0.00e+00	0	41	0	0	53	4622
2026-01-20 09:10:57.25	16.70	30.26	-40.5	-42.3	19.5	0.00e+00	0	41	0	0	53	4224
2026-01-20 09:11:00.25	15.98	29.86	-40.7	-42.5	19.3	0.00e+00	0	41	0	0	53	4310
2026-01-20 09:11:03.25	15.27	29.46	-40.1	-41.8	19.7	0.00e+00	0	41	0	0	52	4214
2026-01-20 09:11:06.25	14.58	29.05	-39.7	-41.3	20.2	0.00e+00	0	41	0	0	51	4226
2026-01-20 09:11:09.26	13.90	28.65	-40.5	-42.2	19.6	0.00e+00	0	41	0	0	51	4693
2026-01-20 09:11:12.26	13.25	28.25	-40.8	-42.6	19.2	0.00e+00	0	41	0	0	52	4631
2026-01-20 09:11:15.26	12.61	27.85	-40.7	-42.5	19.2	0.00e+00	0	41	0	0	52	4580
2026-01-20 09:11:18.26	11.98	27.46	-40.5	-42.3	19.4	0.00e+00	0	41	0	0	52	4471
2026-01-20 09:11:21.26	11.37	27.06	-40.7	-42.5	19.3	0.00e+00	0	41	0	0	52	4556
2026-01-20 09:11:24.27	10.78	26.67	-40.7	-42.5	19.3	0.00e+00	0	41	0	0	52	4582
2026-01-20 09:11:27.27	10.20	26.28	-40.3	-42.1	19.6	0.00e+00	0	41	0	0	52	4344
2026-01-20 09:11:30.27	9.63	25.89	-40.1	-41.8	20.0	0.00e+00	0	41	0	0	51	4447
2026-01-20 09:11:33.27	9.08	25.51	-39.9	-41.5	20.1	0.00e+00	0	41	0	0	51	4338
2026-01-20 09:11:36.27	8.55	25.12	-40.2	-41.9	19.8	0.00e+00	0	41	0	0	51	4506
2026-01-20 09:11:39.28	8.02	24.74	-40.3	-42.0	19.7	0.00e+00	0	42	0	0	51	4566
2026-01-20 09:11:42.28	7.51	24.37	-40.5	-42.3	19.5	0.00e+00	0	41	0	0	51	4716
2026-01-20 09:11:45.28	7.01	23.99	-40.7	-42.5	19.3	0.00e+00	0	41	0	0	52	4591
2026-01-20 09:11:48.29	6.52	23.62	-40.8	-42.6	19.2	0.00e+00	0	41	0	0	52	4641
2026-01-20 09:11:51.29	6.04	23.25	-40.7	-42.5	19.3	0.00e+00	0	41	0	0	52	4572
2026-01-20 09:11:54.30	5.58	22.89	-40.3	-42.1	19.5	0.00e+00	0	41	0	0	52	4385
2026-01-20 09:11:57.31	5.12	22.53	-40.3	-42.1	19.5	0.00e+00	0	41	0	0	52	4370
2026-01-20 09:12:00.31	4.68	22.17	-40.4	-42.2	19.5	0.00e+00	0	42	0	0	52	4412
2026-01-20 09:12:03.31	4.25	21.81	-40.5	-42.4	19.3	0.00e+00	0	41	0	0	52	4511
2026-01-20 09:12:06.31	3.82	21.46	-40.3	-42.1	19.5	0.00e+00	0	41	0	0	52	4385
2026-01-20 09:12:09.31	3.41	21.11	-40.3	-42.1	19.6	0.00e+00	0	41	0	0	52	4346
2026-01-20 09:12:12.32	3.00	20.77	-40.3	-42.1	19.6	0.00e+00	0	41	0	0	52	4347
2026-01-20 09:12:15.32	2.61	20.42	-40.2	-42.0	19.7	0.00e+00	0	41	0	0	52	4320
2026-01-20 09:12:18.33	2.22	20.08	-40.1	-41.9	19.8	0.00e+00	0	41	0	0	52	4259
2026-01-20 09:12:21.33	1.85	19.75	-40.3	-42.0	19.6	0.00e+00	0	41	0	0	52	4335
2026-01-20 09:12:24.34	1.48	19.41	-40.3	-42.1	19.5	0.00e+00	0	41	0	0	52	4367
2026-01-20 09:12:27.34	1.12	19.08	-40.1	-41.8	19.6	0.00e+00	0	41	0	0	52	4235
2026-01-20 09:12:30.34	0.76	18.76	-40.0	-41.7	19.7	0.00e+00	0	41	0	0	51	4418
2026-01-20 09:12:33.34	0.42	18.44	-39.9	-41.6	19.9	0.00e+00	0	41	0	0	51	4354
2026-01-20 09:12:36.34	0.08	18.12	-39.8	-41.5	20.0	0.00e+00	0	41	0	0	51	4333
2026-01-20 09:12:39.35	359.75	17.80	-40.1	-41.9	19.8	0.00e+00	0	41	0	0	51	4505
2026-01-20 09:12:42.35	359.43	17.48	-40.6	-42.4	19.3	0.00e+00	0	41	0	0	51	4801
2026-01-20 09:12:45.35	359.11	17.17	-40.9	-42.8	18.9	0.00e+00	0	42	0	0	52	4708
2026-01-20 09:12:48.35	358.80	16.86	-41.0	-43.0	18.7	0.00e+00	0	42	0	0	52	4827
2026-01-20 09:12:51.35	358.50	16.56	-41.0	-42.9	18.7	0.00e+00	0	41	0	0	52	4811
2026-01-20 09:12:54.35	358.20	16.26	-40.9	-42.8	18.8	0.00e+00	0	41	0	0	52	4743
2026-01-20 09:12:57.36	357.91	15.96	-41.0	-43.0	18.7	0.00e+00	0	42	0	0	52	4819
2026-01-20 09:13:00.37	357.62	15.66	-40.9	-42.8	18.9	0.00e+00	0	41	0	0	52	4714
2026-01-20 09:13:03.37	357.34	15.37	-41.0	-43.0	18.7	0.00e+00	0	41	0	0	52	4822
2026-01-20 09:13:06.37	357.07	15.08	-41.2	-43.2	18.5	0.00e+00	0	41	0	0	53	4659
2026-01-20 09:13:09.37	356.80	14.79	-41.3	-43.2	18.5	0.00e+00	0	42	0	0	53	4691
2026-01-20 09:13:12.37	356.54	14.51	-41.4	-43.4	18.4	0.00e+00	0	41	0	0	53	4774
2026-01-20 09:13:15.38	356.28	14.22	-41.4	-43.5	18.3	0.00e+00	0	41	0	0	53	4817
2026-01-20 09:13:18.38	356.03	13.94	-41.5	-43.5	18.2	0.00e+00	0	42	0	0	53	4850
2026-01-20 09:13:21.38	355.78	13.67	-41.7	-43.7	18.0	0.00e+00	0	41	0	0	54	4678
2026-01-20 09:13:24.38	355.54	13.39	-41.6	-43.7	18.0	0.00e+00	0	42	0	0	54	4661
2026-01-20 09:13:27.39	355.30	13.12	-41.8	-43.8	17.8	0.00e+00	0	41	0	0	54	4759
2026-01-20 09:13:30.39	355.06	12.85	-41.5	-43.8	17.9	0.00e+00	0	41	0	0	54	4713
2026-01-20 09:13:33.40	354.83	12.58	-41.4	-43.8	17.9	0.00e+00	0	42	0	0	54	4708
2026-01-20 09:13:36.40	354.61	12.32	-41.4	-43.7	17.9	0.00e+00	0	41	0	0	54	4675
2026-01-20 09:13:39.40	354.39	12.06	-41.5	-43.7	17.9	0.00e+00	0	41	0	0	54	4689
2026-01-20 09:13:42.40	354.17	11.80	-41.4	-43.7	17.9	0.00e+00	0	42	0	0	54	4670
2026-01-20 09:13:45.40	353.96	11.54	-41.4	-43.7	17.9	0.00e+00	0	41	0	0	54	4686
2026-01-20 09:13:48.40	353.75	11.28	-41.4	-44.0	17.7	0.00e+00	0	41	0	0	54	4859
2026-01-20 09:13:51.40	353.54	11.03	-41.2	-44.2	17.5	0.00e+00	0	41	0	0	54	4936
2026-01-20 09:13:54.40	353.34	10.78	-41.1	-44.3	17.3	0.00e+00	0	42	0	0	54	5030
2026-01-20 09:13:57.41	353.14	10.53	-41.5	-44.6	17.1	0.00e+00	0	42	0	0	54	5168
2026-01-20 09:14:00.41	352.95	10.28	-41.8	-44.7	17.0	0.00e+00	0	41	0	0	54	5240
2026-01-20 09:14:03.41	352.76	10.04	-42.1	-44.9	16.7	0.00e+00	0	42	0	0	54	5400
2026-01-20 09:14:06.42	352.57	9.80	-41.9	-44.9	16.7	0.00e+00	0	42	0	0	54	5361
2026-01-20 09:14:09.43	352.39	9.56	-41.9	-45.0	16.6	0.00e+00	0	42	0	0	54	5455
2026-01-20 09:14:12.43	352.21	9.32	-41.9	-45.0	16.6	0.00e+00	0	42	0	0	54	5418
2026-01-20 09:14:15.43	352.03	9.08	-41.9	-44.9	16.6	0.00e+00	0	42	0	0	54	5382
2026-01-20 09:14:18.42	351.85	8.85	-49.7	-63.4	3.8	1.49e+00	0	42	104	0	70	18089
2026-01-20 09:14:21.41	351.68	8.62	-50.2	-63.6	3.8	1.49e+00	0	42	104	0	71	17455
2026-01-20 09:14:24.39	351.51	8.39	-50.4	-63.7	3.8	1.49e+00	0	42	104	0	71	17644
2026-01-20 09:14:27.37	351.35	8.16	-50.6	-63.7	3.8	1.49e+00	0	42	104	0	72	16685
2026-01-20 09:14:30.35	351.19	7.94	-50.6	-63.8	3.8	1.49e+00	0	42	104	0	72	16782
2026-01-20 09:14:33.33	351.03	7.71	-50.5	-63.8	3.8	1.49e+00	0	42	104	0	72	16753
2026-01-20 09:14:36.32	350.87	7.49	-50.6	-63.8	3.8	1.49e+00	0	42	104	0	72	16804
2026-01-20 09:14:39.30	350.71	7.27	-50.7	-63.8	3.8	1.49e+00	0	42	104	0	72	16787
2026-01-20 09:14:42.28	350.56	7.05	-50.6	-63.8	3.8	1.49e+00	0	42	104	0	72	16695
2026-01-20 09:14:45.27	350.41	6.83	-50.6	-63.8	3.8	1.49e+00	0	41	104	0	72	16707
2026-01-20 09:14:48.25	350.26	6.62	-50.4	-63.7	3.8	1.49e+00	0	42	104	0	72	16648
2026-01-20 09:14:51.24	350.12	6.41	-50.5	-63.7	3.8	1.49e+00	0	42	104	0	72	16647
2026-01-20 09:14:54.24	349.97	6.19	-50.5	-63.7	3.8	1.49e+00	0	42	104	0	72	16639
2026-01-20 09:14:57.23	349.83	5.98	-50.4	-63.7	3.8	1.49e+00	0	42	104	0	72	16600
2026-01-20 09:15:00.22	349.69	5.77	-50.4	-63.7	3.8	1.49e+00	0	42	104	0	72	16590
2026-01-20 09:15:03.21	349.56	5.56	-50.4	-63.7	3.8	1.49e+00	0	42	104	0	72	16597
2026-01-20 09:15:06.20	349.42	5.36	-50.4	-63.7	3.8	1.49e+00	0	42	104	0	72	16580
2026-01-20 09:15:09.18	349.29	5.15	-50.4	-63.7	3.8	1.49e+00	0	42	104	0	72	16608
2026-01-20 09:15:12.17	349.16	4.95	-50.4	-63.7	3.8	1.49e+00	0	42	104	0	72	16574

#Closed at: 2026-01-20 09:15:13
#Recorded file [0 MB]: D:/Data/31040_260120_120254.dat