passes_logs/2026/01/20/T1/T1__20260120_064458_KHAYYAM_rec.log

#Pass ID: 20260120_064458_KHAYYAM
#Satellite: KHAYYAM
#Configuration: KHAYYAM_480M
#almurnet v.1.7.20251203
#Start time: 2026-01-20 06:45:01

#Version: 2.0.20230620
#Station: T1
#Location: 37.570604 lon 55.790049 lat
#TLE: 1 53370U 22096A   26019.68235035  .00007249  00000+0  29653-3 0  9996
#TLE: 2 53370  97.3562 286.6082 0001738 107.8095 252.3333 15.24629188191955

#Time	Az	El	Level	Level2	SNR	BER	BlckErr	Temp	State	Recorded	gain1	gain2
2026-01-20 06:45:01.16	119.93	5.17	-53.2	-57.7	3.6	0.00e+00	0	46	0	0	78	23594
2026-01-20 06:45:03.14	119.71	5.31	-53.2	-57.7	3.7	0.00e+00	0	46	104	0	77	24828
2026-01-20 06:45:05.13	119.49	5.45	-53.2	-57.7	3.7	0.00e+00	0	46	104	0	77	24926
2026-01-20 06:45:07.12	119.27	5.60	-53.2	-57.7	3.7	0.00e+00	0	47	104	0	77	24917
2026-01-20 06:45:09.11	119.04	5.74	-53.2	-57.7	3.7	0.00e+00	0	47	104	0	77	24861
2026-01-20 06:45:11.10	118.81	5.88	-53.2	-57.7	3.7	0.00e+00	0	47	104	0	77	24909
2026-01-20 06:45:13.10	118.58	6.03	-53.2	-57.7	3.7	0.00e+00	0	47	104	0	77	24830
2026-01-20 06:45:15.09	118.34	6.18	-53.2	-57.7	3.7	0.00e+00	0	47	104	0	77	24937
2026-01-20 06:45:17.08	118.10	6.32	-53.2	-57.7	3.7	0.00e+00	0	48	104	0	77	24860
2026-01-20 06:45:19.07	117.86	6.47	-53.2	-57.7	3.7	0.00e+00	0	48	104	0	77	24830
2026-01-20 06:45:21.06	117.61	6.62	-53.2	-57.7	3.7	0.00e+00	0	48	104	0	77	24966
2026-01-20 06:45:23.05	117.36	6.77	-53.2	-57.7	3.7	0.00e+00	0	48	104	0	77	24848
2026-01-20 06:45:25.04	117.11	6.92	-53.2	-57.7	3.7	0.00e+00	0	48	104	0	77	24862
2026-01-20 06:45:27.03	116.86	7.07	-53.2	-57.7	3.7	0.00e+00	0	48	104	0	77	24868
2026-01-20 06:45:29.02	116.60	7.22	-53.2	-57.7	3.7	0.00e+00	0	48	104	0	77	24848
2026-01-20 06:45:31.01	116.34	7.37	-53.2	-57.7	3.7	0.00e+00	0	48	104	0	77	24872
2026-01-20 06:45:33.00	116.07	7.52	-53.2	-57.7	3.7	0.00e+00	0	48	104	0	77	24909
2026-01-20 06:45:34.99	115.80	7.68	-53.2	-57.7	3.7	0.00e+00	0	49	104	0	77	24832
2026-01-20 06:45:36.98	115.53	7.83	-53.2	-57.7	3.7	0.00e+00	0	49	104	0	77	24876
2026-01-20 06:45:38.97	115.25	7.99	-53.2	-57.7	3.7	0.00e+00	0	49	104	0	77	24852
2026-01-20 06:45:40.96	114.97	8.14	-53.2	-57.7	3.7	0.00e+00	0	49	104	0	77	24864
2026-01-20 06:45:42.95	114.69	8.30	-53.2	-57.7	3.7	0.00e+00	0	49	104	0	77	24918
2026-01-20 06:45:44.94	114.40	8.45	-53.2	-57.6	3.7	0.00e+00	0	49	104	0	77	24791
2026-01-20 06:45:46.93	114.11	8.61	-53.2	-57.6	3.7	0.00e+00	0	49	104	0	77	24745
2026-01-20 06:45:48.93	113.81	8.77	-53.1	-57.6	3.7	0.00e+00	0	49	104	0	77	24755
2026-01-20 06:45:50.92	113.51	8.93	-53.2	-57.6	3.7	0.00e+00	0	49	104	0	77	24752
2026-01-20 06:45:52.92	113.21	9.09	-53.2	-57.7	3.7	0.00e+00	0	49	104	0	77	24882
2026-01-20 06:45:54.92	112.90	9.25	-53.2	-57.7	3.7	0.00e+00	0	49	104	0	77	25007
2026-01-20 06:45:56.92	112.58	9.42	-53.2	-57.7	3.7	0.00e+00	0	49	104	0	77	25052
2026-01-20 06:45:58.93	112.26	9.58	-53.2	-57.7	3.7	0.00e+00	0	50	104	0	77	24934
2026-01-20 06:46:00.93	111.94	9.74	-52.9	-57.5	3.7	0.00e+00	0	50	104	0	77	24446
2026-01-20 06:46:02.93	111.61	9.91	-53.2	-57.7	3.7	0.00e+00	0	49	104	0	77	24884
2026-01-20 06:46:04.93	111.28	10.07	-52.8	-57.5	3.7	0.00e+00	0	50	104	0	77	24481
2026-01-20 06:46:06.93	110.94	10.24	-52.8	-57.6	3.7	0.00e+00	0	50	104	0	77	24594
2026-01-20 06:46:08.94	110.59	10.41	-53.1	-57.8	3.7	0.00e+00	0	50	104	0	77	25106
2026-01-20 06:46:10.94	110.25	10.57	-53.2	-57.8	3.6	0.00e+00	0	50	104	0	77	25144
2026-01-20 06:46:12.94	109.89	10.74	-53.3	-57.8	3.7	0.00e+00	0	50	104	0	77	25303
2026-01-20 06:46:14.94	109.54	10.91	-53.4	-57.9	3.7	0.00e+00	0	50	104	0	77	25517
2026-01-20 06:46:16.95	109.17	11.08	-53.4	-57.8	3.7	0.00e+00	0	50	104	0	77	25358
2026-01-20 06:46:18.96	108.80	11.25	-53.4	-57.9	3.7	0.00e+00	0	50	104	0	77	25458
2026-01-20 06:46:20.96	108.43	11.42	-53.4	-57.8	3.7	0.00e+00	0	50	104	0	77	25347
2026-01-20 06:46:22.96	108.05	11.59	-53.4	-57.8	3.7	0.00e+00	0	50	104	0	77	25359
2026-01-20 06:46:24.96	107.67	11.77	-53.5	-57.9	3.7	0.00e+00	0	50	104	0	77	25626
2026-01-20 06:46:26.96	107.28	11.94	-53.5	-58.0	3.7	0.00e+00	0	50	104	0	77	25713
2026-01-20 06:46:28.96	106.88	12.11	-53.3	-57.8	3.7	0.00e+00	0	50	104	0	77	25368
2026-01-20 06:46:30.96	106.48	12.28	-53.3	-57.9	3.7	0.00e+00	0	50	104	0	77	25464
2026-01-20 06:46:32.96	106.07	12.46	-53.4	-57.9	3.7	0.00e+00	0	50	104	0	77	25551
2026-01-20 06:46:34.97	105.66	12.63	-53.2	-57.9	3.7	0.00e+00	0	50	104	0	77	25464
2026-01-20 06:46:36.97	105.24	12.81	-53.4	-58.0	3.7	0.00e+00	0	50	104	0	77	25714
2026-01-20 06:46:38.97	104.82	12.98	-53.5	-58.0	3.7	0.00e+00	0	50	104	0	77	25798
2026-01-20 06:46:40.97	104.39	13.16	-53.6	-58.1	3.7	0.00e+00	0	51	104	0	77	26035
2026-01-20 06:46:42.98	103.95	13.33	-53.6	-58.1	3.7	0.00e+00	0	51	104	0	77	26195
2026-01-20 06:46:44.97	103.50	13.51	-53.6	-58.1	3.7	0.00e+00	0	51	104	0	78	24632
2026-01-20 06:46:46.97	103.05	13.68	-53.7	-58.1	3.7	0.00e+00	0	51	104	0	78	24717
2026-01-20 06:46:48.97	102.60	13.86	-53.6	-58.1	3.7	0.00e+00	0	51	104	0	78	24582
2026-01-20 06:46:50.98	102.13	14.04	-53.6	-58.0	3.7	0.00e+00	0	51	104	0	78	24470
2026-01-20 06:46:52.98	101.66	14.21	-53.7	-58.0	3.7	0.00e+00	0	51	104	0	78	24523
2026-01-20 06:46:54.98	101.18	14.39	-53.6	-58.0	3.7	0.00e+00	0	51	104	0	78	24508
2026-01-20 06:46:56.98	100.70	14.57	-53.6	-58.0	3.7	0.00e+00	0	51	104	0	78	24417
2026-01-20 06:46:58.98	100.21	14.74	-53.7	-58.0	3.7	0.00e+00	0	51	104	0	78	24389
2026-01-20 06:47:00.99	99.71	14.92	-53.7	-58.0	3.7	0.00e+00	0	51	104	0	78	24444
2026-01-20 06:47:02.99	99.21	15.09	-53.7	-58.1	3.7	0.00e+00	0	51	104	0	78	24542
2026-01-20 06:47:04.99	98.69	15.27	-53.5	-57.7	3.7	0.00e+00	0	51	104	0	78	23628
2026-01-20 06:47:06.99	98.17	15.44	-53.5	-57.8	3.7	0.00e+00	0	51	104	0	78	23761
2026-01-20 06:47:09.00	97.65	15.62	-53.5	-57.8	3.7	0.00e+00	0	51	104	0	78	23844
2026-01-20 06:47:11.00	97.11	15.79	-53.6	-57.9	3.7	0.00e+00	0	51	104	0	78	24104
2026-01-20 06:47:13.00	96.57	15.97	-53.6	-58.1	3.7	0.00e+00	0	51	104	0	78	24543
2026-01-20 06:47:15.01	96.02	16.14	-53.6	-58.1	3.7	0.00e+00	0	51	104	0	78	24635
2026-01-20 06:47:17.00	95.47	16.31	-53.4	-57.8	3.7	0.00e+00	0	51	104	0	78	23955
2026-01-20 06:47:19.01	94.90	16.48	-53.6	-58.0	3.7	0.00e+00	0	51	104	0	78	24442
2026-01-20 06:47:21.01	94.33	16.66	-53.6	-58.0	3.7	0.00e+00	0	51	104	0	78	24424
2026-01-20 06:47:23.01	93.75	16.82	-53.5	-57.9	3.7	0.00e+00	0	51	104	0	78	24204
2026-01-20 06:47:25.01	93.16	16.99	-53.7	-58.1	3.7	0.00e+00	0	51	104	0	78	24663
2026-01-20 06:47:27.01	92.57	17.16	-53.7	-58.1	3.7	0.00e+00	0	51	104	0	78	24567
2026-01-20 06:47:29.01	91.97	17.33	-53.4	-58.0	3.7	0.00e+00	0	51	104	0	78	24335
2026-01-20 06:47:31.02	91.35	17.49	-53.3	-57.9	3.7	0.00e+00	0	51	104	0	78	24195
2026-01-20 06:47:33.02	90.73	17.65	-53.4	-58.0	3.7	0.00e+00	0	51	104	0	78	24461
2026-01-20 06:47:35.02	90.11	17.81	-53.3	-57.9	3.7	0.00e+00	0	51	104	0	78	24147
2026-01-20 06:47:37.02	89.48	17.97	-53.3	-57.9	3.7	0.00e+00	0	51	104	0	78	24119
2026-01-20 06:47:39.02	88.83	18.13	-53.0	-57.7	3.6	0.00e+00	0	51	104	0	78	23681
2026-01-20 06:47:41.03	88.18	18.29	-52.9	-57.0	3.7	0.00e+00	0	51	104	0	77	22978
2026-01-20 06:47:43.03	87.53	18.44	-52.7	-57.0	3.7	0.00e+00	0	51	104	0	77	22960
2026-01-20 06:47:45.03	86.86	18.59	-53.1	-57.6	3.7	0.00e+00	0	51	104	0	77	24642
2026-01-20 06:47:47.03	86.19	18.74	-52.9	-57.7	3.7	0.00e+00	0	51	104	0	77	25011
2026-01-20 06:47:49.03	85.51	18.88	-52.8	-57.8	3.7	0.00e+00	0	51	104	0	77	25153
2026-01-20 06:47:51.03	84.82	19.03	-53.2	-58.0	3.7	0.00e+00	0	51	104	0	77	25812
2026-01-20 06:47:53.03	84.13	19.17	-52.5	-57.5	3.7	0.00e+00	0	51	104	0	77	24431
2026-01-20 06:47:55.04	83.42	19.31	-52.9	-57.8	3.7	0.00e+00	0	51	104	0	77	25175
2026-01-20 06:47:57.04	82.71	19.44	-53.3	-58.1	3.7	0.00e+00	0	51	104	0	77	26012
2026-01-20 06:47:59.04	82.00	19.57	-53.3	-58.1	3.7	0.00e+00	0	51	104	0	77	26055
2026-01-20 06:48:01.04	81.27	19.70	-53.0	-57.8	3.7	0.00e+00	0	51	104	0	77	25297
2026-01-20 06:48:03.05	80.54	19.83	-53.1	-57.9	3.7	0.00e+00	0	51	104	0	77	25454
2026-01-20 06:48:05.05	79.80	19.95	-53.7	-58.1	3.7	0.00e+00	0	51	104	0	77	26202
2026-01-20 06:48:07.05	79.06	20.06	-53.6	-58.1	3.7	0.00e+00	0	51	104	0	77	26134
2026-01-20 06:48:09.05	78.31	20.18	-53.6	-58.1	3.7	0.00e+00	0	51	104	0	77	26219
2026-01-20 06:48:11.05	77.55	20.29	-53.7	-58.2	3.7	0.00e+00	0	51	104	0	78	24835
2026-01-20 06:48:13.05	76.79	20.39	-53.4	-58.0	3.7	0.00e+00	0	51	104	0	78	24471
2026-01-20 06:48:15.06	76.02	20.49	-53.4	-58.1	3.7	0.00e+00	0	51	104	0	78	24655
2026-01-20 06:48:17.05	75.25	20.59	-53.8	-58.2	3.7	0.00e+00	0	51	104	0	78	25008
2026-01-20 06:48:19.05	74.47	20.68	-53.8	-58.3	3.7	0.00e+00	0	51	104	0	78	25183
2026-01-20 06:48:21.05	73.69	20.77	-53.5	-58.1	3.7	0.00e+00	0	51	104	0	78	24583
2026-01-20 06:48:23.05	72.90	20.85	-53.6	-58.1	3.7	0.00e+00	0	51	104	0	78	24783
2026-01-20 06:48:25.06	72.10	20.93	-53.7	-58.1	3.7	0.00e+00	0	51	104	0	78	24525
2026-01-20 06:48:27.05	71.31	21.01	-53.6	-58.0	3.7	0.00e+00	0	51	104	0	78	24406
2026-01-20 06:48:29.05	70.50	21.07	-53.7	-58.2	3.7	0.00e+00	0	51	104	0	78	24934
2026-01-20 06:48:31.05	69.70	21.14	-53.7	-58.2	3.7	0.00e+00	0	51	104	0	78	25000
2026-01-20 06:48:33.05	68.89	21.19	-53.7	-58.1	3.7	0.00e+00	0	51	104	0	78	24662
2026-01-20 06:48:35.05	68.07	21.25	-53.7	-58.2	3.7	0.00e+00	0	51	104	0	78	24939
2026-01-20 06:48:37.05	67.26	21.29	-53.8	-58.3	3.7	0.00e+00	0	51	104	0	78	25245
2026-01-20 06:48:39.06	66.43	21.34	-53.8	-58.4	3.7	0.00e+00	0	51	104	0	78	25407
2026-01-20 06:48:41.06	65.61	21.37	-53.8	-58.3	3.7	0.00e+00	0	51	104	0	78	25118
2026-01-20 06:48:43.07	64.78	21.40	-53.9	-58.3	3.7	0.00e+00	0	51	104	0	78	25259
2026-01-20 06:48:45.07	63.96	21.43	-53.7	-58.1	3.7	0.00e+00	0	51	104	0	78	24794
2026-01-20 06:48:47.07	63.13	21.45	-53.7	-58.2	3.7	0.00e+00	0	51	104	0	78	24997
2026-01-20 06:48:49.08	62.30	21.46	-53.5	-58.1	3.7	0.00e+00	0	51	104	0	78	24602
2026-01-20 06:48:51.08	61.47	21.47	-53.6	-58.1	3.7	0.00e+00	0	51	104	0	78	24726
2026-01-20 06:48:53.08	60.65	21.48	-53.5	-57.6	3.7	0.00e+00	0	51	104	0	78	23311
2026-01-20 06:48:55.09	59.81	21.47	-53.5	-57.8	3.7	0.00e+00	0	51	104	0	78	23855
2026-01-20 06:48:57.09	58.99	21.46	-53.2	-57.9	3.7	0.00e+00	0	51	104	0	77	25414
2026-01-20 06:48:59.09	58.16	21.45	-53.5	-57.9	3.7	0.00e+00	0	51	104	0	77	25547
2026-01-20 06:49:01.09	57.33	21.43	-53.7	-58.2	3.7	0.00e+00	0	51	104	0	78	25039
2026-01-20 06:49:03.09	56.51	21.40	-53.7	-58.2	3.7	0.00e+00	0	51	104	0	78	24989
2026-01-20 06:49:05.10	55.68	21.37	-53.7	-58.2	3.7	0.00e+00	0	51	104	0	78	25005
2026-01-20 06:49:07.10	54.86	21.34	-53.7	-58.3	3.7	0.00e+00	0	51	104	0	78	25134
2026-01-20 06:49:09.10	54.04	21.30	-53.3	-57.9	3.7	0.00e+00	0	52	104	0	78	23996
2026-01-20 06:49:11.11	53.23	21.25	-53.6	-58.1	3.7	0.00e+00	0	52	104	0	78	24671
2026-01-20 06:49:13.11	52.41	21.20	-53.6	-58.2	3.7	0.00e+00	0	51	104	0	78	24901
2026-01-20 06:49:15.10	51.61	21.14	-53.5	-58.0	3.7	0.00e+00	0	51	104	0	78	24476
2026-01-20 06:49:17.10	50.80	21.07	-53.5	-57.7	3.7	0.00e+00	0	51	104	0	78	23564
2026-01-20 06:49:19.11	50.00	21.01	-53.8	-58.2	3.7	0.00e+00	0	51	104	0	78	25001
2026-01-20 06:49:21.11	49.20	20.93	-53.6	-58.1	3.7	0.00e+00	0	51	104	0	78	24624
2026-01-20 06:49:23.11	48.41	20.85	-53.7	-58.1	3.7	0.00e+00	0	51	104	0	78	24695
2026-01-20 06:49:25.11	47.62	20.77	-53.7	-58.1	3.7	0.00e+00	0	51	104	0	78	24565
2026-01-20 06:49:27.11	46.84	20.68	-53.5	-57.7	3.7	0.00e+00	0	51	104	0	78	23563
2026-01-20 06:49:29.11	46.06	20.59	-53.5	-57.6	3.7	0.00e+00	0	51	104	0	78	23343
2026-01-20 06:49:31.11	45.29	20.50	-53.1	-57.0	3.7	0.00e+00	0	51	104	0	78	21798
2026-01-20 06:49:33.12	44.52	20.39	-53.7	-58.0	3.7	0.00e+00	0	51	104	0	78	24313
2026-01-20 06:49:35.12	43.76	20.29	-53.5	-57.8	3.7	0.00e+00	0	52	104	0	78	23706
2026-01-20 06:49:37.12	43.01	20.18	-53.4	-58.0	3.7	0.00e+00	0	51	104	0	78	24294
2026-01-20 06:49:39.11	42.26	20.07	-53.5	-57.9	3.7	0.00e+00	0	51	104	0	78	24072
2026-01-20 06:49:41.12	41.52	19.95	-53.4	-57.5	3.7	0.00e+00	0	51	104	0	78	23105
2026-01-20 06:49:43.12	40.78	19.83	-53.5	-57.7	3.7	0.00e+00	0	51	104	0	78	23526
2026-01-20 06:49:45.12	40.06	19.71	-53.5	-57.7	3.7	0.00e+00	0	52	104	0	78	23677
2026-01-20 06:49:47.12	39.34	19.58	-53.0	-56.8	3.7	0.00e+00	0	51	104	0	77	22569
2026-01-20 06:49:49.13	38.62	19.45	-53.1	-56.8	3.7	0.00e+00	0	51	104	0	77	22618
2026-01-20 06:49:51.13	37.91	19.31	-51.9	-54.9	3.8	0.00e+00	0	51	104	0	75	20290
2026-01-20 06:49:53.13	37.21	19.18	-52.6	-56.2	3.7	0.00e+00	0	51	104	0	75	23530
2026-01-20 06:49:55.13	36.52	19.04	-53.3	-57.6	3.7	0.00e+00	0	51	104	0	77	24637
2026-01-20 06:49:57.13	35.84	18.89	-52.8	-56.5	3.7	0.00e+00	0	51	104	0	77	21717
2026-01-20 06:49:59.13	35.16	18.75	-53.5	-57.8	3.7	0.00e+00	0	51	104	0	77	25201
2026-01-20 06:50:01.14	34.49	18.60	-52.9	-56.8	3.7	0.00e+00	0	51	104	0	77	22506
2026-01-20 06:50:03.14	33.83	18.45	-52.1	-56.6	3.7	0.00e+00	0	52	104	0	76	23268
2026-01-20 06:50:05.14	33.18	18.30	-51.3	-54.7	3.7	0.00e+00	0	51	104	0	74	21072
2026-01-20 06:50:07.14	32.53	18.14	-52.2	-55.7	3.7	0.00e+00	0	51	104	0	75	22220
2026-01-20 06:50:09.15	31.89	17.99	-53.2	-57.3	3.7	0.00e+00	0	52	104	0	77	23854
2026-01-20 06:50:11.15	31.26	17.83	-53.0	-57.8	3.7	0.00e+00	0	51	104	0	77	25098
2026-01-20 06:50:13.15	30.64	17.67	-53.5	-57.8	3.7	0.00e+00	0	51	104	0	77	25217
2026-01-20 06:50:15.15	30.02	17.51	-52.7	-57.5	3.7	0.00e+00	0	52	104	0	77	24514
2026-01-20 06:50:17.15	29.42	17.34	-52.5	-57.4	3.7	0.00e+00	0	52	104	0	77	24184
2026-01-20 06:50:19.15	28.82	17.18	-53.6	-58.0	3.7	0.00e+00	0	52	104	0	77	25811
2026-01-20 06:50:21.14	28.23	17.01	-53.4	-57.7	3.7	0.00e+00	0	51	104	0	77	24848
2026-01-20 06:50:23.35	27.58	16.83	-52.4	-56.9	3.7	0.00e+00	0	52	104	0	76	24196
2026-01-20 06:50:25.34	27.01	16.66	-51.8	-56.7	3.7	0.00e+00	0	52	104	0	75	24942
2026-01-20 06:50:27.32	26.45	16.49	-51.3	-56.2	3.7	0.00e+00	0	52	104	0	74	25051
2026-01-20 06:50:29.31	25.89	16.32	-51.6	-56.8	3.7	0.00e+00	0	52	104	0	74	26602
2026-01-20 06:50:31.30	25.34	16.15	-52.3	-57.3	3.7	0.00e+00	0	52	104	0	75	26826
2026-01-20 06:50:33.29	24.80	15.98	-53.1	-57.8	3.7	0.00e+00	0	51	104	0	76	26770
2026-01-20 06:50:35.28	24.27	15.81	-53.2	-57.9	3.7	0.00e+00	0	52	104	0	77	25544
2026-01-20 06:50:37.39	23.71	15.63	-52.6	-57.5	3.7	0.00e+00	0	52	104	0	76	25923
2026-01-20 06:50:39.44	23.17	15.45	-52.0	-56.7	3.7	0.00e+00	0	52	104	0	75	25082
2026-01-20 06:50:41.43	22.66	15.28	-52.4	-57.2	3.7	0.00e+00	0	52	104	0	75	26372
2026-01-20 06:50:43.53	22.13	15.09	-52.4	-57.0	3.7	0.00e+00	0	52	104	0	75	25755
2026-01-20 06:50:45.60	21.61	14.91	-52.4	-56.6	3.7	0.00e+00	0	51	104	0	75	24695
2026-01-20 06:50:47.65	21.10	14.73	-52.5	-56.7	3.7	0.00e+00	0	51	104	0	76	23478
2026-01-20 06:50:49.64	20.62	14.56	-52.5	-57.2	3.7	0.00e+00	0	52	104	0	76	24850
2026-01-20 06:50:51.63	20.14	14.39	-51.5	-56.2	3.7	0.00e+00	0	52	104	0	75	23528
2026-01-20 06:50:53.62	19.67	14.21	-50.9	-56.2	3.7	0.00e+00	0	52	104	0	73	26288
2026-01-20 06:50:55.62	19.21	14.04	-50.6	-55.7	3.7	0.00e+00	0	52	104	0	73	24925
2026-01-20 06:50:57.70	18.73	13.85	-51.1	-56.4	3.7	0.00e+00	0	52	104	0	73	27015
2026-01-20 06:50:59.72	18.27	13.68	-52.7	-57.6	3.7	0.00e+00	0	52	104	0	75	27653
2026-01-20 06:51:01.71	17.83	13.50	-53.2	-57.8	3.7	0.00e+00	0	52	104	0	77	25326
2026-01-20 06:51:03.73	17.39	13.33	-53.4	-57.9	3.7	0.00e+00	0	52	104	0	77	25654
2026-01-20 06:51:05.72	16.96	13.15	-53.4	-58.0	3.7	0.00e+00	0	52	104	0	77	25892
2026-01-20 06:51:07.73	16.53	12.98	-53.0	-57.7	3.7	0.00e+00	0	51	104	0	77	24847
2026-01-20 06:51:09.73	16.11	12.81	-51.6	-56.7	3.7	0.00e+00	0	52	104	0	74	26547
2026-01-20 06:51:11.74	15.69	12.63	-50.0	-55.8	3.7	0.00e+00	0	52	104	0	72	26723
2026-01-20 06:51:13.74	15.28	12.46	-50.1	-55.9	3.7	0.00e+00	0	52	104	0	72	27045
2026-01-20 06:51:15.86	14.86	12.28	-49.9	-55.8	3.7	0.00e+00	0	52	104	0	71	28386
2026-01-20 06:51:17.86	14.46	12.10	-49.6	-55.5	3.7	0.00e+00	0	51	104	0	71	27246
2026-01-20 06:51:19.96	14.05	11.92	-50.6	-56.3	3.7	0.00e+00	0	52	104	0	72	28255
2026-01-20 06:51:22.30	13.60	11.72	-50.9	-56.4	3.7	0.00e+00	0	52	104	0	72	28679
2026-01-20 06:51:24.32	13.22	11.55	-51.7	-57.0	3.7	0.00e+00	0	52	104	0	74	27227
2026-01-20 06:51:26.31	12.85	11.38	-52.3	-57.2	3.7	0.00e+00	0	52	104	0	75	26383
2026-01-20 06:51:28.36	12.47	11.21	-51.6	-56.6	3.7	0.00e+00	0	52	104	0	75	24770
2026-01-20 06:51:30.35	12.11	11.04	-51.8	-57.0	3.7	0.00e+00	0	52	104	0	74	27491
2026-01-20 06:51:32.45	11.74	10.86	-51.8	-57.1	3.7	0.00e+00	0	52	104	0	74	27575
2026-01-20 06:51:34.44	11.39	10.70	-51.3	-56.7	3.7	0.00e+00	0	52	104	0	73	27971
2026-01-20 06:51:36.57	11.02	10.52	-49.9	-55.8	3.7	0.00e+00	0	52	104	0	71	28440
2026-01-20 06:51:38.56	10.68	10.36	-49.3	-55.5	3.7	0.00e+00	0	52	104	0	70	28888
2026-01-20 06:51:40.58	10.34	10.19	-49.2	-55.5	3.7	0.00e+00	0	52	104	0	69	30526
2026-01-20 06:51:42.57	10.01	10.02	-48.4	-54.8	3.7	0.00e+00	0	52	104	0	69	28223
2026-01-20 06:51:44.56	9.68	9.86	-47.4	-53.8	3.8	0.00e+00	0	52	104	0	66	30012
2026-01-20 06:51:46.57	9.36	9.70	-47.0	-53.5	3.9	0.00e+00	0	52	104	0	66	28988
2026-01-20 06:51:48.58	9.04	9.53	-47.2	-53.8	3.8	0.00e+00	0	52	104	0	65	31867
2026-01-20 06:51:50.57	8.73	9.37	-48.0	-54.4	3.8	0.00e+00	0	52	104	0	66	32236
2026-01-20 06:51:52.67	8.40	9.20	-47.9	-54.3	3.8	0.00e+00	0	52	104	0	66	31773
2026-01-20 06:51:54.66	8.10	9.04	-49.1	-55.2	3.7	0.00e+00	0	52	104	0	68	31487
2026-01-20 06:51:56.77	7.78	8.88	-50.0	-55.9	3.7	0.00e+00	0	52	104	0	70	30510
2026-01-20 06:51:58.85	7.48	8.71	-51.3	-56.7	3.7	0.00e+00	0	52	104	0	73	27888
2026-01-20 06:52:00.84	7.19	8.55	-52.9	-57.2	3.7	0.
