passes_logs/2026/01/20/T1/T1__20260120_113439_NOAA_20_JPSS-1_rec.log

#Pass ID: 20260120_113439_NOAA 20 (JPSS-1)
#Satellite: NOAA 20 (JPSS-1)
#Configuration: NOAA 20
#almurnet v.1.7.20251203
#Start time: 2026-01-20 11:34:40

#Version: 2.0.20230620
#Station: T1
#Location: 37.570604 lon 55.790049 lat
#TLE: 1 43013U 17073A   26019.55911981  .00000079  00000+0  58510-4 0  9994
#TLE: 2 43013  98.7641 320.4504 0001323  32.6518 327.4739 14.19537050423380

#Time	Az	El	Level	Level2	SNR	BER	BlckErr	Temp	State	Recorded	gain1	gain2
2026-01-20 11:34:40.22	214.92	5.07	-47.9	-64.9	3.8	1.49e+00	0	41	0	0	67	25441
2026-01-20 11:34:43.20	215.20	5.24	-47.9	-64.9	3.8	1.49e+00	0	42	104	0	66	26822
2026-01-20 11:34:46.18	215.48	5.41	-47.9	-64.8	3.8	1.49e+00	0	42	104	0	66	26765
2026-01-20 11:34:49.16	215.76	5.59	-47.9	-64.8	3.8	1.49e+00	0	42	104	0	66	26748
2026-01-20 11:34:52.14	216.04	5.76	-47.8	-64.8	3.8	1.49e+00	0	42	104	0	66	26548
2026-01-20 11:34:55.12	216.33	5.93	-47.9	-64.9	3.8	1.49e+00	0	42	104	0	66	26783
2026-01-20 11:34:58.10	216.63	6.11	-47.9	-64.8	3.8	1.49e+00	0	42	104	0	66	26527
2026-01-20 11:35:01.09	216.92	6.28	-47.8	-64.8	3.8	1.49e+00	0	42	104	0	66	26523
2026-01-20 11:35:04.07	217.22	6.46	-47.9	-64.8	3.8	1.49e+00	0	42	104	0	66	26520
2026-01-20 11:35:07.05	217.52	6.63	-47.8	-64.9	3.8	1.49e+00	0	43	104	0	66	26785
2026-01-20 11:35:10.03	217.83	6.81	-47.9	-64.9	3.8	1.49e+00	0	42	104	0	66	26888
2026-01-20 11:35:13.01	218.14	6.99	-47.9	-64.8	3.8	1.49e+00	0	43	104	0	66	26497
2026-01-20 11:35:15.99	218.46	7.16	-47.8	-64.6	3.8	1.49e+00	0	43	104	0	66	26144
2026-01-20 11:35:18.97	218.77	7.34	-47.8	-64.7	3.8	1.49e+00	0	43	104	0	66	26239
2026-01-20 11:35:21.95	219.09	7.52	-47.9	-64.6	3.8	1.49e+00	0	43	104	0	66	25972
2026-01-20 11:35:24.93	219.42	7.70	-47.8	-64.6	3.8	1.49e+00	0	43	104	0	66	25985
2026-01-20 11:35:27.91	219.75	7.88	-47.8	-63.9	3.8	1.49e+00	0	43	104	0	66	23998
2026-01-20 11:35:30.89	220.08	8.06	-47.7	-63.8	3.8	1.49e+00	0	43	104	0	66	23609
2026-01-20 11:35:33.87	220.42	8.24	-47.7	-62.1	4.0	1.49e+00	0	43	104	0	66	19604
2026-01-20 11:35:36.85	220.76	8.42	-46.3	-52.8	10.8	1.11e-02	0	43	0	4194304	64	7478
2026-01-20 11:35:39.83	221.10	8.60	-45.0	-49.5	14.2	2.20e-06	0	43	0	10485760	62	5768
2026-01-20 11:35:42.81	221.45	8.78	-45.3	-50.2	13.6	2.20e-06	0	43	0	15728640	61	6598
2026-01-20 11:35:45.79	221.81	8.96	-46.7	-54.2	9.3	1.13e-02	0	43	0	20971520	64	8812
2026-01-20 11:35:48.78	222.16	9.15	-46.2	-51.1	12.8	7.00e-07	0	43	0	27262976	63	6515
2026-01-20 11:35:51.76	222.53	9.33	-46.0	-50.0	13.8	3.04e-01	0	43	0	32505856	64	5463
2026-01-20 11:35:54.75	222.89	9.51	-45.9	-49.5	14.3	4.50e-06	0	43	0	37748736	63	5460
2026-01-20 11:35:57.73	223.27	9.70	-45.9	-49.5	14.4	7.00e-07	0	43	0	44040192	63	5453
2026-01-20 11:36:00.72	223.64	9.88	-45.5	-48.9	15.1	0.00e+00	0	43	0	49283072	63	5052
2026-01-20 11:36:03.71	224.02	10.06	-45.1	-48.3	15.8	0.00e+00	0	43	0	54525952	62	5007
2026-01-20 11:36:06.69	224.41	10.25	-44.8	-47.8	16.2	0.00e+00	0	43	0	60817408	61	5028
2026-01-20 11:36:09.68	224.80	10.43	-44.9	-47.9	16.2	0.00e+00	0	43	0	66060288	61	5065
2026-01-20 11:36:12.66	225.19	10.62	-44.9	-48.0	16.1	0.00e+00	0	43	0	71303168	61	5111
2026-01-20 11:36:15.65	225.59	10.80	-44.9	-47.9	16.2	0.00e+00	0	43	0	77594624	61	5093
2026-01-20 11:36:18.63	226.00	10.99	-44.7	-47.6	16.6	0.00e+00	0	43	0	82837504	61	4876
2026-01-20 11:36:21.61	226.41	11.17	-44.4	-47.3	16.8	0.00e+00	0	43	0	88080384	60	4987
2026-01-20 11:36:24.60	226.82	11.36	-44.4	-47.2	16.9	0.00e+00	0	43	0	94371840	60	4959
2026-01-20 11:36:27.59	227.24	11.55	-44.4	-47.3	16.9	0.00e+00	0	43	0	99614720	60	4988
2026-01-20 11:36:30.57	227.67	11.73	-44.4	-47.2	17.0	0.00e+00	0	43	0	104857600	60	4937
2026-01-20 11:36:33.56	228.10	11.92	-44.4	-47.1	17.0	0.00e+00	0	43	0	111149056	60	4911
2026-01-20 11:36:36.54	228.53	12.10	-44.5	-47.2	17.0	0.00e+00	0	43	0	116391936	60	4958
2026-01-20 11:36:39.53	228.97	12.29	-44.4	-47.1	17.0	0.00e+00	0	43	0	121634816	60	4926
2026-01-20 11:36:42.52	229.42	12.47	-44.4	-47.1	17.0	0.00e+00	0	43	0	127926272	60	4926
2026-01-20 11:36:45.50	229.87	12.66	-44.4	-47.2	17.1	0.00e+00	0	43	0	133169152	60	4929
2026-01-20 11:36:48.49	230.33	12.84	-44.4	-47.1	17.1	0.00e+00	0	44	0	138412032	60	4926
2026-01-20 11:36:51.47	230.79	13.03	-44.6	-47.4	16.8	0.00e+00	0	43	0	144703488	60	5073
2026-01-20 11:36:54.46	231.26	13.21	-44.4	-47.2	17.0	0.00e+00	0	43	0	149946368	60	4978
2026-01-20 11:36:57.45	231.74	13.40	-44.2	-46.9	17.3	0.00e+00	0	43	0	155189248	60	4785
2026-01-20 11:37:00.43	232.22	13.58	-44.2	-46.8	17.4	0.00e+00	0	43	0	161480704	60	4757
2026-01-20 11:37:03.41	232.70	13.76	-44.2	-47.0	17.3	0.00e+00	0	44	0	166723584	60	4828
2026-01-20 11:37:06.40	233.19	13.94	-44.2	-46.8	17.4	0.00e+00	0	43	0	171966464	60	4759
2026-01-20 11:37:09.38	233.69	14.12	-44.3	-47.0	17.2	0.00e+00	0	43	0	178257920	60	4849
2026-01-20 11:37:12.37	234.20	14.31	-44.3	-47.1	17.2	0.00e+00	0	43	0	183500800	60	4882
2026-01-20 11:37:15.36	234.71	14.49	-44.4	-47.2	17.1	0.00e+00	0	43	0	188743680	60	4940
2026-01-20 11:37:18.34	235.22	14.67	-44.2	-46.9	17.3	0.00e+00	0	43	0	195035136	60	4805
2026-01-20 11:37:21.33	235.74	14.85	-44.2	-46.9	17.4	0.00e+00	0	43	0	200278016	60	4769
2026-01-20 11:37:24.31	236.27	15.02	-44.2	-46.9	17.4	0.00e+00	0	43	0	205520896	60	4785
2026-01-20 11:37:27.29	236.80	15.20	-44.1	-46.7	17.6	0.00e+00	0	44	0	211812352	60	4688
2026-01-20 11:37:30.28	237.34	15.38	-43.8	-46.4	17.8	0.00e+00	0	43	0	217055232	59	4779
2026-01-20 11:37:33.27	237.89	15.55	-43.6	-46.1	18.1	0.00e+00	0	43	0	222298112	59	4645
2026-01-20 11:37:36.25	238.44	15.72	-43.4	-45.9	18.3	0.00e+00	0	43	0	228589568	58	4768
2026-01-20 11:37:39.24	239.00	15.90	-43.4	-45.8	18.4	0.00e+00	0	43	0	233832448	58	4743
2026-01-20 11:37:42.22	239.56	16.07	-43.2	-45.6	18.6	0.00e+00	0	43	0	239075328	58	4619
2026-01-20 11:37:45.21	240.14	16.24	-43.2	-45.5	18.7	0.00e+00	0	43	0	245366784	58	4570
2026-01-20 11:37:48.19	240.71	16.40	-43.3	-45.7	18.5	0.00e+00	0	43	0	250609664	58	4680
2026-01-20 11:37:51.18	241.30	16.57	-43.3	-45.6	18.5	0.00e+00	0	43	0	255852544	58	4651
2026-01-20 11:37:54.17	241.89	16.73	-43.2	-45.6	18.7	0.00e+00	0	43	0	262144000	58	4606
2026-01-20 11:37:57.16	242.48	16.90	-43.3	-45.7	18.6	0.00e+00	0	43	0	267386880	58	4665
2026-01-20 11:38:00.14	243.09	17.06	-43.6	-46.0	18.2	0.00e+00	0	43	0	272629760	58	4854
2026-01-20 11:38:03.13	243.70	17.22	-43.7	-46.2	18.0	0.00e+00	0	43	0	278921216	58	4968
2026-01-20 11:38:06.11	244.31	17.37	-43.7	-46.1	18.1	0.00e+00	0	43	0	284164096	58	4926
2026-01-20 11:38:09.10	244.93	17.53	-43.8	-46.2	18.0	0.00e+00	0	43	0	289406976	58	4972
2026-01-20 11:38:12.08	245.56	17.68	-44.0	-46.5	17.8	0.00e+00	0	43	0	295698432	58	5129
2026-01-20 11:38:15.06	246.19	17.83	-44.1	-46.7	17.6	0.00e+00	0	43	0	300941312	58	5259
2026-01-20 11:38:18.04	246.83	17.97	-44.1	-46.7	17.5	0.00e+00	0	43	0	306184192	59	4974
2026-01-20 11:38:21.03	247.47	18.12	-44.3	-47.0	17.3	0.00e+00	0	43	0	312475648	59	5120
2026-01-20 11:38:24.02	248.13	18.26	-44.6	-47.4	16.9	0.00e+00	0	43	0	317718528	59	5360
2026-01-20 11:38:27.01	248.78	18.40	-44.8	-47.7	16.7	0.00e+00	0	43	0	322961408	60	5226
2026-01-20 11:38:29.99	249.45	18.53	-44.9	-47.8	16.6	0.00e+00	0	43	0	329252864	60	5298
2026-01-20 11:38:32.97	250.11	18.67	-45.0	-48.0	16.4	0.00e+00	0	43	0	334495744	60	5408
2026-01-20 11:38:35.96	250.79	18.80	-45.1	-48.0	16.4	0.00e+00	0	43	0	339738624	60	5440
2026-01-20 11:38:38.94	251.47	18.92	-44.8	-47.7	16.7	0.00e+00	0	43	0	346030080	60	5259
2026-01-20 11:38:41.93	252.15	19.05	-44.7	-47.5	17.0	0.00e+00	0	43	0	351272960	60	5106
2026-01-20 11:38:44.91	252.84	19.17	-44.8	-47.6	16.8	0.00e+00	0	43	0	356515840	60	5208
2026-01-20 11:38:47.89	253.54	19.28	-44.8	-47.7	16.7	0.00e+00	0	43	0	362807296	60	5248
2026-01-20 11:38:50.88	254.24	19.39	-44.6	-47.5	16.9	0.00e+00	0	43	0	368050176	60	5115
2026-01-20 11:38:53.86	254.94	19.50	-44.6	-47.4	17.0	0.00e+00	0	43	0	373293056	60	5058
2026-01-20 11:38:56.85	255.65	19.61	-44.5	-47.2	17.1	0.00e+00	0	43	0	379584512	60	4983
2026-01-20 11:38:59.84	256.37	19.71	-44.6	-47.3	17.0	0.00e+00	0	43	0	384827392	60	5039
2026-01-20 11:39:02.82	257.09	19.81	-44.6	-47.4	17.0	0.00e+00	0	43	0	390070272	60	5078
2026-01-20 11:39:05.81	257.81	19.90	-44.5	-47.2	17.2	0.00e+00	0	43	0	396361728	60	4971
2026-01-20 11:39:08.79	258.54	19.99	-44.1	-46.8	17.6	0.00e+00	0	43	0	401604608	60	4711
2026-01-20 11:39:11.78	259.27	20.07	-44.2	-46.9	17.5	0.00e+00	0	43	0	407896064	60	4782
2026-01-20 11:39:14.76	260.01	20.15	-44.2	-46.9	17.5	0.00e+00	0	43	0	413138944	60	4789
2026-01-20 11:39:17.75	260.75	20.23	-44.2	-46.8	17.5	0.00e+00	0	43	0	418381824	60	4742
2026-01-20 11:39:20.74	261.49	20.30	-44.1	-46.7	17.7	0.00e+00	0	43	0	424673280	60	4683
2026-01-20 11:39:23.72	262.24	20.36	-43.9	-46.4	17.9	0.00e+00	0	43	0	429916160	59	4811
2026-01-20 11:39:26.70	262.98	20.43	-44.0	-46.6	17.7	0.00e+00	0	43	0	435159040	59	4915
2026-01-20 11:39:29.69	263.74	20.48	-44.1	-46.8	17.6	0.00e+00	0	43	0	441450496	59	4991
2026-01-20 11:39:32.68	264.49	20.53	-43.8	-46.3	18.0	0.00e+00	0	43	0	446693376	59	4732
2026-01-20 11:39:35.66	265.25	20.58	-44.1	-46.7	17.6	0.00e+00	0	43	0	451936256	59	4936
2026-01-20 11:39:38.65	266.01	20.62	-44.6	-47.3	17.0	0.00e+00	0	43	0	458227712	59	5316
2026-01-20 11:39:41.64	266.77	20.66	-44.8	-47.7	16.7	0.00e+00	0	43	0	463470592	60	5262
2026-01-20 11:39:44.62	267.53	20.69	-44.3	-47.0	17.4	0.00e+00	0	43	0	468713472	60	4840
2026-01-20 11:39:47.61	268.29	20.72	-44.0	-46.6	17.8	0.00e+00	0	43	0	475004928	60	4640
2026-01-20 11:39:50.60	269.06	20.74	-44.3	-47.0	17.4	0.00e+00	0	43	0	480247808	60	4861
2026-01-20 11:39:53.58	269.82	20.76	-44.8	-47.6	16.8	0.00e+00	0	43	0	485490688	60	5203
2026-01-20 11:39:56.56	270.59	20.77	-44.7	-47.6	16.9	0.00e+00	0	43	0	491782144	60	5167
2026-01-20 11:39:59.55	271.36	20.78	-44.6	-47.4	17.0	0.00e+00	0	43	0	497025024	60	5048
2026-01-20 11:40:02.54	272.13	20.78	-44.9	-47.8	16.6	0.00e+00	0	43	0	502267904	60	5326
2026-01-20 11:40:05.52	272.89	20.78	-44.9	-47.8	16.7	0.00e+00	0	43	0	508559360	60	5287
2026-01-20 11:40:08.51	273.66	20.77	-44.7	-47.6	16.9	0.00e+00	0	43	0	513802240	60	5191
2026-01-20 11:40:11.50	274.43	20.76	-44.4	-47.1	17.4	0.00e+00	0	43	0	519045120	60	4873
2026-01-20 11:40:14.48	275.19	20.74	-44.3	-46.9	17.5	0.00e+00	0	43	0	525336576	60	4797
2026-01-20 11:40:17.47	275.95	20.72	-44.1	-46.7	17.6	0.00e+00	0	43	0	530579456	59	4964
2026-01-20 11:40:20.45	276.72	20.69	-44.5	-47.2	17.2	0.00e+00	0	43	0	535822336	59	5250
2026-01-20 11:40:23.44	277.48	20.65	-44.5	-47.3	17.2	0.00e+00	0	43	0	542113792	60	4997
2026-01-20 11:40:26.42	278.24	20.61	-44.5	-47.3	17.2	0.00e+00	0	43	0	547356672	60	5005
2026-01-20 11:40:29.41	278.99	20.57	-44.8	-47.6	16.9	0.00e+00	0	43	0	552599552	60	5186
2026-01-20 11:40:32.39	279.75	20.52	-44.7	-47.5	16.9	0.00e+00	0	43	0	558891008	60	5136
2026-01-20 11:40:35.38	280.50	20.47	-44.7	-47.5	17.0	0.00e+00	0	43	0	564133888	60	5104
2026-01-20 11:40:38.36	281.25	20.41	-44.5	-47.2	17.2	0.00e+00	0	43	0	569376768	60	4966
2026-01-20 11:40:41.35	282.00	20.35	-44.2	-46.8	17.6	0.00e+00	0	43	0	575668224	60	4747
2026-01-20 11:40:44.33	282.74	20.28	-44.3	-46.9	17.5	0.00e+00	0	43	0	580911104	60	4809
2026-01-20 11:40:47.32	283.48	20.21	-44.6	-47.4	17.1	0.00e+00	0	43	0	586153984	60	5047
2026-01-20 11:40:50.31	284.22	20.13	-44.3	-47.0	17.4	0.00e+00	0	43	0	592445440	60	4824
2026-01-20 11:40:53.29	284.95	20.05	-43.9	-46.5	17.8	0.00e+00	0	43	0	597688320	59	4816
2026-01-20 11:40:56.27	285.68	19.97	-43.5	-45.9	18.4	0.00e+00	0	43	0	602931200	58	4782
2026-01-20 11:40:59.26	286.40	19.88	-43.4	-45.8	18.5	0.00e+00	0	43	0	609222656	58	4711
2026-01-20 11:41:02.24	287.12	19.79	-43.8	-46.3	18.0	0.00e+00	0	43	0	614465536	58	5023
2026-01-20 11:41:05.23	287.84	19.69	-44.0	-46.6	17.7	0.00e+00	0	43	0	619708416	58	5206
2026-01-20 11:41:08.21	288.55	19.59	-43.8	-46.3	18.0	0.00e+00	0	43	0	625999872	58	5033
2026-01-20 11:41:11.20	289.26	19.48	-43.6	-46.1	18.2	0.00e+00	0	43	0	631242752	58	4878
2026-01-20 11:41:14.18	289.96	19.37	-43.3	-45.7	18.6	0.00e+00	0	43	0	636485632	58	4686
2026-01-20 11:41:17.17	290.66	19.26	-43.2	-45.5	18.7	0.00e+00	0	43	0	642777088	58	4588
2026-01-20 11:41:20.15	291.35	19.14	-43.2	-45.6	18.7	0.00e+00	0	43	0	648019968	58	4611
2026-01-20 11:41:23.14	292.04	19.02	-43.4	-45.8	18.5	0.00e+00	0	43	0	653262848	58	4738
2026-01-20 11:41:26.12	292.72	18.90	-43.3	-45.7	18.6	0.00e+00	0	43	0	659554304	58	4677
2026-01-20 11:41:29.11	293.39	18.78	-43.1	-45.4	18.8	0.00e+00	0	43	0	664797184	58	4537
2026-01-20 11:41:32.09	294.06	18.65	-42.8	-45.1	19.1	0.00e+00	0	43	0	670040064	57	4611
2026-01-20 11:41:35.07	294.72	18.51	-42.7	-44.9	19.3	0.00e+00	0	43	0	676331520	57	4525
2026-01-20 11:41:38.06	295.38	18.38	-42.7	-44.9	19.2	0.00e+00	0	43	0	681574400	57	4538
2026-01-20 11:41:41.04	296.04	18.24	-42.9	-45.2	19.0	0.00e+00	0	43	0	686817280	57	4678
2026-01-20 11:41:44.02	296.68	18.10	-43.2	-45.6	18.6	0.00e+00	0	43	0	693108736	57	4909
2026-01-20 11:41:47.01	297.32	17.95	-43.3	-45.7	18.6	0.00e+00	0	43	0	698351616	57	4932
2026-01-20 11:41:49.99	297.96	17.81	-43.4	-45.8	18.5	0.00e+00	0	43	0	703594496	57	5015
2026-01-20 11:41:52.98	298.59	17.66	-43.8	-46.3	18.0	0.00e+00	0	43	0	709885952	58	5003
2026-01-20 11:41:55.96	299.21	17.51	-43.9	-46.4	17.8	0.00e+00	0	43	0	715128832	58	5081
2026-01-20 11:41:58.95	299.83	17.36	-43.9	-46.5	17.8	0.00e+00	0	43	0	720371712	58	5113
2026-01-20 11:42:01.93	300.44	17.20	-44.3	-46.9	17.3	0.00e+00	0	43	0	726663168	59	5098
2026-01-20 11:42:04.92	301.04	17.04	-44.2	-46.9	17.4	0.00e+00	0	43	0	731906048	59	5055
2026-01-20 11:42:07.90	301.64	16.88	-44.2	-46.8	17.5	0.00e+00	0	43	0	737148928	59	5012
2026-01-20 11:42:10.89	302.23	16.72	-44.5	-47.2	17.0	0.00e+00	0	43	0	743440384	59	5269
2026-01-20 11:42:13.88	302.82	16.56	-44.9	-47.8	16.6	0.00e+00	0	43	0	748683264	60	5286
2026-01-20 11:42:16.86	303.40	16.39	-44.8	-47.7	16.6	0.00e+00	0	43	0	753926144	60	5228
2026-01-20 11:42:19.84	303.97	16.23	-44.5	-47.3	17.0	0.00e+00	0	43	0	760217600	60	5035
2026-01-20 11:42:22.83	304.54	16.06	-44.6	-47.5	16.9	0.00e+00	0	43	0	765460480	60	5104
2026-01-20 11:42:25.81	305.10	15.89	-44.7	-47.6	16.7	0.00e+00	0	43	0	770703360	60	5160
2026-01-20 11:42:28.80	305.65	15.72	-44.9	-47.8	16.5	0.00e+00	0	43	0	776994816	60	5311
2026-01-20 11:42:31.78	306.20	15.55	-44.6	-47.4	16.9	0.00e+00	0	43	0	782237696	60	5073
2026-01-20 11:42:34.77	306.74	15.37	-44.2	-46.9	17.4	0.00e+00	0	43	0	787480576	60	4765
2026-01-20 11:42:37.75	307.28	15.20	-44.1	-46.8	17.5	0.00e+00	0	43	0	793772032	60	4706
2026-01-20 11:42:40.73	307.81	15.02	-44.1	-46.8	17.4	0.00e+00	0	42	0	799014912	60	4727
2026-01-20 11:42:43.72	308.33	14.85	-44.3	-47.1	17.2	0.00e+00	0	43	0	804257792	60	4885
2026-01-20 11:42:46.70	308.85	14.67	-44.9	-47.9	16.4	0.00e+00	0	43	0	810549248	60	5393
2026-01-20 11:42:49.69	309.36	14.49	-45.2	-48.3	16.0	0.00e+00	0	43	0	815792128	61	5286
2026-01-20 11:42:52.67	309.87	14.31	-44.5	-47.4	16.8	0.00e+00	0	43	0	821035008	61	4808
2026-01-20 11:42:55.66	310.37	14.13	-44.0	-46.7	17.5	0.00e+00	0	43	0	827326464	60	4683
2026-01-20 11:42:58.64	310.86	13.96	-44.1	-46.9	17.3	0.00e+00	0	43	0	832569344	59	5045
2026-01-20 11:43:01.63	311.35	13.77	-44.2	-47.0	17.2	0.00e+00	0	43	0	838860800	59	5101
2026-01-20 11:43:04.61	311.83	13.59	-44.0	-46.7	17.4	0.00e+00	0	43	0	844103680	59	4983
2026-01-20 11:43:07.60	312.31	13.41	-44.2	-46.9	17.2	0.00e+00	0	43	0	849346560	59	5063
2026-01-20 11:43:10.58	312.78	13.23	-44.3	-47.1	17.1	0.00e+00	0	43	0	855638016	59	5184
2026-01-20 11:43:13.57	313.25	13.05	-44.1	-46.8	17.3	0.00e+00	0	43	0	860880896	59	5033
2026-01-20 11:43:16.55	313.71	12.87	-43.9	-46.6	17.5	0.00e+00	0	43	0	866123776	59	4900
2026-01-20 11:43:19.54	314.16	12.68	-43.8	-46.6	17.6	0.00e+00	0	43	0	872415232	59	4871
2026-01-20 11:43:22.52	314.61	12.50	-44.2	-47.0	17.1	0.00e+00	0	43	0	877658112	59	5119
2026-01-20 11:43:25.51	315.05	12.32	-44.2	-46.9	17.2	0.00e+00	0	43	0	882900992	59	5085
2026-01-20 11:43:28.49	315.49	12.13	-43.9	-46.6	17.5	0.00e+00	0	43	0	889192448	59	4922
2026-01-20 11:43:31.48	315.92	11.95	-44.0	-46.8	17.2	0.00e+00	0	42	0	894435328	59	5032
2026-01-20 11:43:34.47	316.35	11.77	-44.5	-47.4	16.7	0.00e+00	0	43	0	899678208	59	5372
2026-01-20 11:43:37.45	316.78	11.58	-44.5	-47.5	16.6	0.00e+00	0	42	0	905969664	59	5409
2026-01-20 11:43:40.43	317.19	11.40	-44.3	-47.1	16.9	0.00e+00	0	43	0	911212544	59	5206
2026-01-20 11:43:43.42	317.61	11.22	-44.3	-47.1	17.0	0.00e+00	0	42	0	916455424	59	5202
2026-01-20 11:43:46.40	318.01	11.03	-44.6	-47.5	16.7	0.00e+00	0	43	0	922746880	59	5405
2026-01-20 11:43:49.39	318.42	10.85	-44.8	-47.8	16.2	0.00e+00	0	43	0	927989760	60	5340
2026-01-20 11:43:52.37	318.81	10.67	-44.4	-47.4	16.7	0.00e+00	0	42	0	933232640	60	5056
2026-01-20 11:43:55.36	319.21	10.48	-44.1	-47.0	17.0	0.00e+00	0	43	0	939524096	60	4862
2026-01-20 11:43:58.34	319.59	10.30	-44.3	-47.4	16.6	0.00e+00	0	42	0	944766976	60	5085
2026-01-20 11:44:01.33	319.98	10.12	-44.7	-47.9	16.1	0.00e+00	0	43	0	950009856	60	5391
2026-01-20 11:44:04.31	320.36	9.94	-44.9	-48.2	15.9	0.00e+00	0	43	0	956301312	60	5553
2026-01-20 11:44:07.30	320.73	9.75	-44.8	-48.0	16.1	0.00e+00	0	43	0	961544192	60	5415
2026-01-20 11:44:10.28	321.10	9.57	-44.8	-48.1	16.0	0.00e+00	0	43	0	966787072	60	5501
2026-01-20 11:44:13.27	321.47	9.39	-45.0	-48.2	15.8	0.00e+00	0	42	0	973078528	60	5563
2026-01-20 11:44:16.25	321.83	9.21	-45.2	-48.6	15.5	0.00e+00	0	43	0	978321408	61	5476
2026-01-20 11:44:19.23	322.19	9.03	-45.1	-48.5	15.5	0.00e+00	0	43	0	983564288	61	5446
2026-01-20 11:44:22.21	322.54	8.85	-49.7	-65.7	3.8	1.49e+00	0	42	104	985661440	71	22166
2026-01-20 11:44:25.19	322.89	8.67	-50.5	-65.9	3.8	1.49e+00	0	43	104	985661440	71	22686
2026-01-20 11:44:28.18	323.23	8.49	-50.4	-66.0	3.8	1.49e+00	0	43	104	985661440	72	21530
2026-01-20 11:44:31.16	323.57	8.31	-50.6	-66.0	3.8	1.49e+00	0	43	104	985661440	72	21558
2026-01-20 11:44:34.13	323.91	8.14	-50.8	-66.0	3.8	1.49e+00	0	43	104	985661440	72	21668
2026-01-20 11:44:37.11	324.24	7.96	-50.7	-66.0	3.8	1.49e+00	0	42	104	985661440	72	21533
2026-01-20 11:44:40.10	324.57	7.78	-50.4	-65.9	3.8	1.49e+00	0	43	104	985661440	72	21317
2026-01-20 11:44:43.08	324.89	7.60	-50.4	-65.9	3.8	1.49e+00	0	43	104	985661440	72	21354
2026-01-20 11:44:46.06	325.21	7.43	-50.4	-65.9	3.8	1.49e+00	0	43	104	985661440	72	21394
2026-01-20 11:44:49.04	325.53	7.25	-50.4	-65.9	3.8	1.49e+00	0	42	104	985661440	72	21310
2026-01-20 11:44:52.02	325.84	7.08	-50.4	-65.9	3.8	1.49e+00	0	43	104	985661440	72	21324
2026-01-20 11:44:55.00	326.15	6.90	-50.4	-65.9	3.8	1.49e+00	0	42	104	985661440	72	21330
2026-01-20 11:44:57.98	326.46	6.73	-50.4	-65.9	3.8	1.49e+00	0	42	104	985661440	72	21298
2026-01-20 11:45:00.94	326.76	6.55	-50.4	-65.9	3.8	1.49e+00	0	43	104	985661440	72	21323
2026-01-20 11:45:03.92	327.06	6.38	-50.4	-65.9	3.8	1.49e+00	0	43	104	985661440	72	21286
2026-01-20 11:45:06.90	327.36	6.21	-50.4	-65.9	3.8	1.49e+00	0	43	104	985661440	72	21273
2026-01-20 11:45:09.88	327.65	6.04	-50.4	-65.9	3.8	1.49e+00	0	42	104	985661440	72	21278
2026-01-20 11:45:12.86	327.94	5.87	-50.4	-65.8	3.8	1.49e+00	0	43	104	985661440	72	21228
2026-01-20 11:45:15.84	328.22	5.69	-50.4	-65.9	3.8	1.49e+00	0	42	104	985661440	72	21278
2026-01-20 11:45:18.82	328.51	5.52	-50.4	-65.8	3.8	1.49e+00	0	42	104	985661440	72	21166
2026-01-20 11:45:21.80	328.79	5.35	-50.4	-65.9	3.8	1.49e+00	0	42	104	985661440	72	21290
2026-01-20 11:45:24.78	329.06	5.18	-50.4	-65.8	3.8	1.49e+00	0	43	104	985661440	72	21250
2026-01-20 11:45:27.76	329.34	5.02	-50.4	-65.8	3.8	1.49e+00	0	42	104	985661440	72	21141

#Closed at: 2026-01-20 11:45:29
#Recorded file [985 MB]: D:/Data/31040_260120_143440.dat