passes_logs/2026/01/20/T1/T1__20260120_014255_NOAA_20_JPSS-1_rec.log

#Pass ID: 20260120_014255_NOAA 20 (JPSS-1)
#Satellite: NOAA 20 (JPSS-1)
#Configuration: NOAA 20
#almurnet v.1.7.20251203
#Start time: 2026-01-20 01:42:55

#Version: 2.0.20230620
#Station: T1
#Location: 37.570604 lon 55.790049 lat
#TLE: 1 43013U 17073A   26019.27717929  .00000087  00000+0  62288-4 0  9995
#TLE: 2 43013  98.7641 320.1715 0001339  33.1986 326.9274 14.19537047423343

#Time	Az	El	Level	Level2	SNR	BER	BlckErr	Temp	State	Recorded	gain1	gain2
2026-01-20 01:42:55.21	4.60	4.99	-50.0	-65.7	3.8	1.49e+00	0	41	0	0	71	22195
2026-01-20 01:42:58.22	4.32	5.16	-46.7	-65.2	3.8	1.49e+00	0	41	104	0	65	29461
2026-01-20 01:43:01.29	4.02	5.33	-46.7	-65.2	3.8	1.49e+00	0	41	104	0	65	29538
2026-01-20 01:43:04.36	3.72	5.50	-46.7	-65.2	3.8	1.49e+00	0	41	104	0	65	29448
2026-01-20 01:43:07.44	3.42	5.67	-46.7	-65.2	3.8	1.49e+00	0	41	104	0	65	29430
2026-01-20 01:43:10.51	3.12	5.85	-46.7	-65.2	3.8	1.49e+00	0	41	104	0	65	29410
2026-01-20 01:43:13.55	2.81	6.02	-46.7	-65.2	3.8	1.49e+00	0	41	104	0	65	29465
2026-01-20 01:43:16.53	2.51	6.18	-46.7	-65.2	3.8	1.49e+00	0	41	104	0	65	29414
2026-01-20 01:43:19.51	2.20	6.35	-46.7	-65.2	3.8	1.49e+00	0	42	104	0	65	29555
2026-01-20 01:43:22.49	1.89	6.52	-46.7	-65.2	3.8	1.49e+00	0	42	104	0	65	29473
2026-01-20 01:43:25.47	1.57	6.69	-46.7	-65.2	3.8	1.49e+00	0	42	104	0	65	29516
2026-01-20 01:43:28.45	1.25	6.86	-46.7	-65.2	3.8	1.49e+00	0	42	104	0	65	29510
2026-01-20 01:43:31.52	0.92	7.03	-46.7	-65.2	3.8	1.49e+00	0	42	104	0	65	29380
2026-01-20 01:43:34.57	0.58	7.20	-46.7	-65.1	3.8	1.49e+00	0	42	104	0	65	29335
2026-01-20 01:43:37.55	0.25	7.37	-46.7	-65.2	3.8	1.49e+00	0	42	104	0	65	29422
2026-01-20 01:43:40.52	359.92	7.54	-46.7	-65.1	3.8	1.49e+00	0	42	104	0	65	29331
2026-01-20 01:43:43.50	359.58	7.71	-46.7	-65.2	3.8	1.49e+00	0	42	104	0	65	29449
2026-01-20 01:43:46.49	359.24	7.88	-46.7	-65.2	3.8	1.49e+00	0	42	104	0	65	29444
2026-01-20 01:43:49.48	358.89	8.05	-46.7	-65.1	3.8	1.49e+00	0	42	104	0	65	29182
2026-01-20 01:43:52.56	358.53	8.23	-46.7	-64.8	3.8	1.49e+00	0	42	104	0	65	28063
2026-01-20 01:43:55.54	358.17	8.40	-46.7	-64.6	3.8	1.49e+00	0	42	104	0	65	27445
2026-01-20 01:43:58.52	357.81	8.57	-46.7	-63.7	3.8	1.49e+00	0	42	104	0	65	24857
2026-01-20 01:44:01.47	357.45	8.74	-46.5	-59.4	5.1	9.12e-01	0	43	0	1048576	65	15097
2026-01-20 01:44:04.45	357.08	8.91	-46.0	-54.7	9.3	2.93e-02	0	43	0	6291456	63	9832
2026-01-20 01:44:07.51	356.70	9.08	-45.3	-52.3	11.7	7.48e-04	0	43	0	12582912	62	7949
2026-01-20 01:44:10.37	356.33	9.25	-46.2	-54.6	9.4	8.62e-04	0	42	0	17825792	63	9829
2026-01-20 01:44:13.49	355.93	9.42	-43.2	-48.9	15.0	0.00e+00	0	43	0	23068672	58	6776
2026-01-20 01:44:16.33	355.56	9.59	-43.6	-48.7	15.3	0.00e+00	0	43	0	28311552	58	6588
2026-01-20 01:44:19.49	355.15	9.77	-43.5	-48.4	15.6	0.00e+00	0	43	0	34603008	58	6370
2026-01-20 01:44:22.33	354.77	9.93	-43.6	-48.3	15.7	0.00e+00	0	43	0	39845888	58	6307
2026-01-20 01:44:25.65	354.32	10.12	-43.8	-48.6	15.4	0.00e+00	0	43	0	46137344	58	6560
2026-01-20 01:44:28.35	353.96	10.27	-43.8	-48.7	15.4	0.00e+00	0	43	0	51380224	58	6583
2026-01-20 01:44:31.63	353.50	10.46	-43.3	-48.7	15.4	0.00e+00	0	43	0	57671680	58	6588
2026-01-20 01:44:34.37	353.12	10.61	-43.3	-48.7	15.4	0.00e+00	0	43	0	62914560	58	6593
2026-01-20 01:44:37.87	352.63	10.81	-43.1	-48.6	15.5	0.00e+00	0	43	0	69206016	58	6519
2026-01-20 01:44:40.65	352.23	10.97	-43.1	-48.7	15.4	0.00e+00	0	43	0	74448896	58	6603
2026-01-20 01:44:44.40	351.69	11.18	-43.8	-48.7	15.4	0.00e+00	0	43	0	81788928	58	6603
2026-01-20 01:44:47.10	351.29	11.33	-44.2	-48.5	15.6	0.00e+00	0	43	0	85983232	59	6067
2026-01-20 01:44:50.51	350.78	11.52	-44.5	-48.6	15.6	0.00e+00	0	43	0	93323264	59	6144
2026-01-20 01:44:53.28	350.37	11.68	-44.6	-48.8	15.4	0.00e+00	0	43	0	98566144	60	5972
2026-01-20 01:44:56.56	349.87	11.86	-44.9	-49.0	15.3	0.00e+00	0	43	0	103809024	60	6077
2026-01-20 01:44:59.70	349.38	12.03	-44.8	-49.0	15.3	0.00e+00	0	43	0	110100480	60	6075
2026-01-20 01:45:02.68	348.92	12.20	-44.5	-48.9	15.3	0.00e+00	0	43	0	115343360	60	6054
2026-01-20 01:45:05.67	348.45	12.36	-44.5	-48.9	15.3	0.00e+00	0	43	0	121634816	60	6017
2026-01-20 01:45:08.77	347.95	12.53	-45.0	-48.8	15.4	0.00e+00	0	43	0	126877696	60	5972
2026-01-20 01:45:11.70	347.48	12.69	-45.4	-49.0	15.2	0.00e+00	0	43	0	132120576	61	5746
2026-01-20 01:45:14.98	346.95	12.86	-45.4	-48.9	15.3	0.00e+00	0	43	0	138412032	61	5712
2026-01-20 01:45:17.70	346.50	13.01	-45.2	-48.9	15.4	0.00e+00	0	43	0	143654912	61	5668
2026-01-20 01:45:20.97	345.95	13.18	-44.6	-48.2	16.0	0.00e+00	0	43	0	149946368	61	5260
2026-01-20 01:45:23.69	345.49	13.33	-44.7	-48.2	16.0	0.00e+00	0	43	0	155189248	61	5247
2026-01-20 01:45:27.02	344.92	13.50	-44.6	-47.9	16.4	0.00e+00	0	43	0	161480704	61	5058
2026-01-20 01:45:29.85	344.44	13.65	-44.3	-47.6	16.6	0.00e+00	0	43	0	166723584	60	5194
2026-01-20 01:45:33.05	343.88	13.81	-44.0	-47.3	16.9	0.00e+00	0	43	0	173015040	59	5319
2026-01-20 01:45:36.42	343.28	13.98	-44.1	-47.3	16.9	0.00e+00	0	43	0	179306496	59	5297
2026-01-20 01:45:39.40	342.75	14.13	-44.0	-47.0	17.2	0.00e+00	0	43	0	184549376	59	5108
2026-01-20 01:45:42.38	342.22	14.28	-43.7	-46.8	17.4	0.00e+00	0	43	0	189792256	59	5015
2026-01-20 01:45:45.37	341.67	14.43	-43.8	-46.9	17.3	0.00e+00	0	43	0	196083712	59	5072
2026-01-20 01:45:48.35	341.13	14.58	-43.7	-46.6	17.6	0.00e+00	0	43	0	201326592	59	4900
2026-01-20 01:45:51.33	340.57	14.72	-43.5	-46.5	17.7	0.00e+00	0	43	0	206569472	59	4819
2026-01-20 01:45:54.32	340.01	14.86	-43.3	-46.2	18.0	0.00e+00	0	43	0	212860928	58	4968
2026-01-20 01:45:57.30	339.45	15.00	-43.4	-46.2	18.0	0.00e+00	0	43	0	218103808	58	4977
2026-01-20 01:46:00.28	338.88	15.14	-43.3	-46.0	18.2	0.00e+00	0	43	0	223346688	58	4842
2026-01-20 01:46:03.35	338.29	15.28	-43.2	-45.9	18.3	0.00e+00	0	43	0	229638144	58	4787
2026-01-20 01:46:06.23	337.73	15.41	-43.5	-46.2	18.0	0.00e+00	0	43	0	234881024	58	4957
2026-01-20 01:46:09.81	337.02	15.56	-43.7	-46.3	17.9	0.00e+00	0	43	0	241172480	58	5019
2026-01-20 01:46:12.55	336.48	15.68	-43.7	-46.3	17.9	0.00e+00	0	43	0	246415360	58	5017
2026-01-20 01:46:16.02	335.78	15.83	-43.8	-46.5	17.7	0.00e+00	0	43	0	253755392	58	5156
2026-01-20 01:46:18.73	335.24	15.94	-43.6	-46.3	17.9	0.00e+00	0	43	0	257949696	58	4999
2026-01-20 01:46:22.02	334.57	16.07	-43.5	-46.2	18.0	0.00e+00	0	43	0	264241152	58	4946
2026-01-20 01:46:24.73	334.01	16.18	-43.5	-46.2	18.0	0.00e+00	0	43	0	269484032	58	4983
2026-01-20 01:46:28.00	333.33	16.31	-43.2	-45.8	18.4	0.00e+00	0	43	0	275775488	58	4741
2026-01-20 01:46:30.73	332.76	16.41	-43.1	-45.7	18.5	0.00e+00	0	43	0	281018368	58	4657
2026-01-20 01:46:34.02	332.07	16.53	-43.0	-45.6	18.6	0.00e+00	0	43	0	287309824	58	4625
2026-01-20 01:46:36.72	331.50	16.63	-42.9	-45.5	18.6	0.00e+00	0	43	0	292552704	57	4846
2026-01-20 01:46:40.21	330.76	16.75	-43.0	-45.4	18.7	0.00e+00	0	43	0	298844160	57	4806
2026-01-20 01:46:43.26	330.10	16.85	-43.1	-45.6	18.6	0.00e+00	0	43	0	304087040	57	4875
2026-01-20 01:46:46.10	329.49	16.94	-43.0	-45.4	18.8	0.00e+00	0	43	0	309329920	57	4787
2026-01-20 01:46:49.39	328.77	17.04	-42.8	-45.3	18.9	0.00e+00	0	43	0	315621376	57	4717
2026-01-20 01:46:52.23	328.15	17.13	-42.8	-45.5	18.7	0.00e+00	0	43	0	320864256	57	4821
2026-01-20 01:46:55.36	327.46	17.22	-43.0	-45.6	18.6	0.00e+00	0	43	0	327155712	57	4877
2026-01-20 01:46:58.20	326.83	17.29	-43.1	-45.7	18.5	0.00e+00	0	43	0	332398592	57	4957
2026-01-20 01:47:01.26	326.15	17.37	-43.1	-45.8	18.4	0.00e+00	0	43	0	337641472	57	5015
2026-01-20 01:47:04.39	325.45	17.45	-43.1	-45.6	18.6	0.00e+00	0	43	0	343932928	57	4889
2026-01-20 01:47:07.23	324.81	17.52	-43.2	-45.6	18.6	0.00e+00	0	43	0	349175808	57	4885
2026-01-20 01:47:10.43	324.09	17.59	-43.3	-45.7	18.4	0.00e+00	0	43	0	355467264	57	4969
2026-01-20 01:47:13.32	323.43	17.65	-43.4	-46.1	18.1	0.00e+00	0	43	0	360710144	57	5165
2026-01-20 01:47:16.45	322.71	17.71	-43.7	-46.4	17.8	0.00e+00	0	43	0	367001600	58	5099
2026-01-20 01:47:19.30	322.06	17.77	-43.8	-46.5	17.7	0.00e+00	0	43	0	372244480	58	5133
2026-01-20 01:47:22.42	321.35	17.82	-43.8	-46.5	17.7	0.00e+00	0	43	0	377487360	58	5123
2026-01-20 01:47:25.27	320.69	17.86	-43.7	-46.4	17.9	0.00e+00	0	43	0	382730240	58	5055
2026-01-20 01:47:28.50	319.94	17.91	-43.7	-46.4	17.9	0.00e+00	0	43	0	389021696	58	5062
2026-01-20 01:47:31.35	319.28	17.95	-44.1	-46.8	17.4	0.00e+00	0	43	0	394264576	58	5312
2026-01-20 01:47:34.47	318.55	17.98	-44.2	-47.2	17.1	0.00e+00	0	43	0	400556032	59	5219
2026-01-20 01:47:37.39	317.87	18.01	-44.2	-47.2	17.0	0.00e+00	0	43	0	405798912	59	5268
2026-01-20 01:47:40.38	317.18	18.04	-44.1	-46.9	17.4	0.00e+00	0	43	0	411041792	59	5069
2026-01-20 01:47:43.36	316.48	18.06	-44.1	-46.8	17.4	0.00e+00	0	43	0	417333248	59	5024
2026-01-20 01:47:46.34	315.78	18.07	-44.1	-46.8	17.4	0.00e+00	0	43	0	422576128	59	5027
2026-01-20 01:47:49.40	315.07	18.08	-44.2	-46.9	17.3	0.00e+00	0	43	0	427819008	59	5084
2026-01-20 01:47:52.35	314.37	18.09	-44.1	-46.9	17.4	0.00e+00	0	43	0	434110464	59	5052
2026-01-20 01:47:55.67	313.59	18.10	-44.1	-46.9	17.4	0.00e+00	0	43	0	440401920	59	5047
2026-01-20 01:47:58.47	312.94	18.09	-44.1	-46.8	17.4	0.00e+00	0	43	0	445644800	59	5041
2026-01-20 01:48:01.59	312.21	18.09	-44.4	-47.1	17.1	0.00e+00	0	43	0	450887680	59	5217
2026-01-20 01:48:04.44	311.54	18.08	-44.5	-47.3	17.0	0.00e+00	0	43	0	456130560	59	5297
2026-01-20 01:48:07.83	310.74	18.06	-44.1	-46.8	17.4	0.00e+00	0	43	0	462422016	59	5021
2026-01-20 01:48:10.82	310.04	18.04	-43.9	-46.5	17.7	0.00e+00	0	43	0	468713472	59	4860
2026-01-20 01:48:13.80	309.35	18.02	-43.8	-46.4	17.8	0.00e+00	0	43	0	473956352	59	4795
2026-01-20 01:48:16.78	308.65	17.99	-44.0	-46.6	17.7	0.00e+00	0	43	0	479199232	59	4876
2026-01-20 01:48:19.86	307.94	17.95	-44.0	-46.6	17.6	0.00e+00	0	44	0	485490688	59	4904
2026-01-20 01:48:22.80	307.25	17.92	-43.8	-46.3	17.9	0.00e+00	0	43	0	490733568	59	4755
2026-01-20 01:48:25.95	306.52	17.87	-43.6	-46.1	18.1	0.00e+00	0	43	0	497025024	59	4639
2026-01-20 01:48:28.80	305.86	17.83	-43.4	-45.9	18.4	0.00e+00	0	43	0	502267904	58	4779
2026-01-20 01:48:31.92	305.15	17.78	-43.4	-45.9	18.3	0.00e+00	0	43	0	508559360	58	4780
2026-01-20 01:48:34.77	304.49	17.73	-43.4	-45.8	18.4	0.00e+00	0	43	0	513802240	58	4730
2026-01-20 01:48:37.89	303.78	17.67	-43.4	-45.8	18.4	0.00e+00	0	43	0	519045120	58	4753
2026-01-20 01:48:40.78	303.12	17.61	-43.3	-45.7	18.5	0.00e+00	0	43	0	524288000	58	4688
2026-01-20 01:48:44.07	302.38	17.53	-43.1	-45.5	18.7	0.00e+00	0	43	0	530579456	58	4560
2026-01-20 01:48:46.86	301.75	17.47	-43.1	-45.5	18.7	0.00e+00	0	43	0	535822336	58	4598
2026-01-20 01:48:49.98	301.04	17.39	-43.3	-45.7	18.5	0.00e+00	0	43	0	542113792	58	4681
2026-01-20 01:48:52.82	300.41	17.32	-43.4	-45.9	18.3	0.00e+00	0	43	0	547356672	58	4792
2026-01-20 01:48:55.95	299.71	17.23	-43.6	-46.1	18.1	0.00e+00	0	43	0	553648128	58	4898
2026-01-20 01:48:58.81	299.08	17.15	-43.8	-46.3	17.9	0.00e+00	0	43	0	558891008	58	5018
2026-01-20 01:49:02.09	298.36	17.05	-43.7	-46.3	17.9	0.00e+00	0	43	0	564133888	58	4994
2026-01-20 01:49:04.80	297.77	16.97	-43.7	-46.2	18.0	0.00e+00	0	43	0	569376768	58	4956
2026-01-20 01:49:08.07	297.06	16.87	-43.9	-46.5	17.7	0.00e+00	0	43	0	575668224	58	5138
2026-01-20 01:49:11.05	296.42	16.77	-44.1	-46.7	17.5	0.00e+00	0	43	0	581959680	58	5263
2026-01-20 01:49:14.34	295.71	16.65	-44.1	-46.7	17.5	0.00e+00	0	43	0	587202560	58	5276
2026-01-20 01:49:17.31	295.08	16.55	-44.2	-46.8	17.4	0.00e+00	0	43	0	593494016	59	5026
2026-01-20 01:49:20.59	294.39	16.43	-44.2	-46.9	17.4	0.00e+00	0	43	0	599785472	59	5069
2026-01-20 01:49:23.33	293.81	16.33	-43.9	-46.4	17.7	0.00e+00	0	43	0	603979776	59	4805
2026-01-20 01:49:26.55	293.14	16.20	-43.9	-46.5	17.7	0.00e+00	0	43	0	610271232	59	4817
2026-01-20 01:49:29.39	292.56	16.09	-44.0	-46.6	17.6	0.00e+00	0	44	0	615514112	59	4887
2026-01-20 01:49:32.51	291.92	15.97	-44.0	-46.6	17.6	0.00e+00	0	43	0	621805568	59	4891
2026-01-20 01:49:35.36	291.34	15.85	-43.7	-46.2	17.9	0.00e+00	0	43	0	627048448	59	4702
2026-01-20 01:49:38.58	290.69	15.71	-43.9	-46.5	17.7	0.00e+00	0	44	0	633339904	59	4819
2026-01-20 01:49:41.42	290.13	15.59	-43.9	-46.5	17.7	0.00e+00	0	43	0	638582784	59	4845
2026-01-20 01:49:44.55	289.51	15.45	-44.0	-46.6	17.6	0.00e+00	0	43	0	643825664	59	4897
2026-01-20 01:49:47.39	288.95	15.33	-44.0	-46.6	17.6	0.00e+00	0	43	0	649068544	59	4884
2026-01-20 01:49:50.52	288.34	15.18	-44.0	-46.6	17.6	0.00e+00	0	43	0	655360000	59	4921
2026-01-20 01:49:53.42	287.78	15.05	-44.1	-46.8	17.4	0.00e+00	0	44	0	660602880	59	4992
2026-01-20 01:49:56.67	287.17	14.90	-44.2	-46.8	17.4	0.00e+00	0	43	0	666894336	59	5025
2026-01-20 01:49:59.51	286.63	14.76	-44.3	-47.0	17.2	0.00e+00	0	43	0	672137216	59	5115
2026-01-20 01:50:02.64	286.04	14.61	-44.3	-47.0	17.1	0.00e+00	0	43	0	678428672	59	5151
2026-01-20 01:50:05.61	285.49	14.47	-44.3	-47.0	17.2	0.00e+00	0	43	0	683671552	59	5106
2026-01-20 01:50:08.71	284.93	14.32	-44.5	-47.3	16.9	0.00e+00	0	43	0	689963008	59	5316
2026-01-20 01:50:12.07	284.32	14.15	-44.7	-47.6	16.7	0.00e+00	0	43	0	696254464	60	5165
2026-01-20 01:50:14.79	283.83	14.01	-44.7	-47.5	16.6	0.00e+00	0	43	0	700448768	60	5152
2026-01-20 01:50:18.09	283.24	13.84	-44.9	-47.8	16.5	0.00e+00	0	43	0	706740224	60	5316
2026-01-20 01:50:20.97	282.74	13.70	-45.1	-48.2	16.1	0.00e+00	0	43	0	713031680	60	5535
2026-01-20 01:50:24.05	282.20	13.54	-45.4	-48.5	15.7	0.00e+00	0	43	0	718274560	61	5457
2026-01-20 01:50:26.89	281.71	13.39	-45.2	-48.3	15.9	0.00e+00	0	43	0	723517440	61	5338
2026-01-20 01:50:30.10	281.17	13.22	-45.0	-47.9	16.3	0.00e+00	0	43	0	729808896	61	5090
2026-01-20 01:50:33.39	280.61	13.04	-45.3	-48.5	15.8	0.00e+00	0	43	0	736100352	61	5435
2026-01-20 01:50:36.26	280.14	12.89	-45.7	-49.1	15.1	0.00e+00	0	43	0	741343232	62	5523
2026-01-20 01:50:39.39	279.62	12.72	-45.8	-49.3	15.0	0.00e+00	0	43	0	746586112	62	5594
2026-01-20 01:50:42.23	279.16	12.57	-45.6	-49.0	15.2	0.00e+00	0	43	0	752877568	62	5428
2026-01-20 01:50:45.36	278.66	12.40	-45.5	-48.8	15.4	0.00e+00	0	43	0	758120448	62	5291
2026-01-20 01:50:48.34	278.18	12.23	-45.6	-48.9	15.4	0.00e+00	0	43	0	763363328	62	5350
2026-01-20 01:50:51.47	277.69	12.06	-45.6	-49.0	15.3	0.00e+00	0	43	0	769654784	62	5427
2026-01-20 01:50:54.31	277.25	11.90	-45.5	-48.9	15.4	0.00e+00	0	43	0	774897664	62	5343
2026-01-20 01:50:57.43	276.77	11.73	-45.4	-48.7	15.5	0.00e+00	0	44	0	781189120	62	5255
2026-01-20 01:51:00.27	276.34	11.57	-45.6	-48.9	15.3	0.00e+00	0	43	0	786432000	62	5390
2026-01-20 01:51:03.51	275.85	11.39	-45.5	-48.9	15.3	0.00e+00	0	44	0	792723456	62	5351
2026-01-20 01:51:06.43	275.42	11.22	-45.3	-48.6	15.6	0.00e+00	0	43	0	797966336	62	5161
2026-01-20 01:51:09.61	274.95	11.05	-45.1	-48.3	15.9	0.00e+00	0	43	0	804257792	62	5009
2026-01-20 01:51:12.46	274.54	10.88	-45.0	-48.1	16.1	0.00e+00	0	43	0	809500672	62	4883
2026-01-20 01:51:15.59	274.09	10.71	-45.0	-48.1	16.1	0.00e+00	0	43	0	814743552	61	5172
2026-01-20 01:51:18.61	273.66	10.54	-45.0	-48.0	16.1	0.00e+00	0	43	0	821035008	61	5145
2026-01-20 01:51:21.96	273.19	10.34	-44.9	-47.9	16.1	0.00e+00	0	43	0	827326464	61	5091
2026-01-20 01:51:24.94	272.78	10.17	-44.5	-47.5	16.6	0.00e+00	0	43	0	832569344	61	4859
2026-01-20 01:51:28.24	272.33	9.99	-44.4	-47.4	16.7	0.00e+00	0	43	0	838860800	60	5074
2026-01-20 01:51:30.93	271.97	9.83	-44.4	-47.4	16.6	0.00e+00	0	44	0	844103680	60	5079
2026-01-20 01:51:34.21	271.53	9.64	-44.2	-47.2	16.8	0.00e+00	0	43	0	849346560	60	4974
2026-01-20 01:51:37.00	271.17	9.49	-44.2	-47.0	17.0	0.00e+00	0	43	0	855638016	60	4859
2026-01-20 01:51:40.23	270.75	9.30	-44.1	-46.8	17.2	0.00e+00	0	43	0	860880896	60	4749
2026-01-20 01:51:43.08	270.38	9.14	-44.0	-46.7	17.3	0.00e+00	0	43	0	866123776	59	4946
2026-01-20 01:51:46.20	269.99	8.96	-50.0	-63.2	3.8	2.03e-02	0	43	104	871366656	70	17626
2026-01-20 01:51:49.04	269.63	8.80	-50.5	-65.8	3.8	1.49e+00	0	43	104	871366656	71	22383
2026-01-20 01:51:52.08	269.25	8.62	-50.5	-65.9	3.8	1.49e+00	0	43	104	871366656	71	22728
2026-01-20 01:51:55.06	268.89	8.45	-50.7	-66.0	3.8	1.49e+00	0	44	104	871366656	72	21534
2026-01-20 01:51:58.04	268.53	8.28	-50.6	-66.0	3.8	1.49e+00	0	44	104	871366656	72	21553
2026-01-20 01:52:01.02	268.17	8.11	-50.6	-65.9	3.8	1.49e+00	0	44	104	871366656	72	21453
2026-01-20 01:52:04.00	267.82	7.94	-50.7	-66.0	3.8	1.49e+00	0	43	104	871366656	72	21564
2026-01-20 01:52:06.98	267.47	7.77	-50.7	-66.0	3.8	1.49e+00	0	44	104	871366656	72	21612
2026-01-20 01:52:09.96	267.13	7.60	-50.7	-66.0	3.8	1.49e+00	0	44	104	871366656	72	21627
2026-01-20 01:52:12.93	266.79	7.43	-50.6	-65.9	3.8	1.49e+00	0	44	104	871366656	72	21389
2026-01-20 01:52:15.91	266.45	7.26	-50.6	-65.9	3.8	1.49e+00	0	44	104	871366656	72	21303
2026-01-20 01:52:18.89	266.12	7.09	-50.5	-65.9	3.8	1.49e+00	0	43	104	871366656	72	21288
2026-01-20 01:52:21.88	265.79	6.92	-50.5	-65.8	3.8	1.49e+00	0	44	104	871366656	72	21237
2026-01-20 01:52:24.86	265.47	6.75	-50.3	-65.8	3.8	1.49e+00	0	43	104	871366656	72	21243
2026-01-20 01:52:27.83	265.15	6.58	-50.3	-65.8	3.8	1.49e+00	0	43	104	871366656	72	21238
2026-01-20 01:52:30.82	264.83	6.41	-50.3	-65.8	3.8	1.49e+00	0	43	104	871366656	72	21201
2026-01-20 01:52:33.80	264.52	6.24	-50.2	-65.8	3.8	1.49e+00	0	43	104	871366656	72	21098
2026-01-20 01:52:36.77	264.21	6.08	-50.2	-65.8	3.8	1.49e+00	0	43	104	871366656	72	21147
2026-01-20 01:52:39.75	263.91	5.91	-50.2	-65.8	3.8	1.49e+00	0	44	104	871366656	72	21063
2026-01-20 01:52:42.73	263.61	5.74	-50.2	-65.8	3.8	1.49e+00	0	44	104	871366656	72	21132
2026-01-20 01:52:45.71	263.31	5.57	-50.2	-65.8	3.8	1.49e+00	0	43	104	871366656	72	21158
2026-01-20 01:52:48.69	263.01	5.41	-50.2	-65.8	3.8	1.49e+00	0	44	104	871366656	72	21057
2026-01-20 01:52:51.67	262.72	5.24	-50.2	-65.8	3.8	1.49e+00	0	44	104	871366656	72	21177
2026-01-20 01:52:54.65	262.43	5.08	-50.2	-65.8	3.8	1.49e+00	0	44	104	871366656	72	21134

#Closed at: 2026-01-20 01:52:57
#Recorded file [871 MB]: D:/Data/31040_260120_044255.dat