passes_logs/2026/01/20/T1/T1__20260120_153547_FENGYUN_3E_rec.log

#Pass ID: 20260120_153547_FENGYUN 3E
#Satellite: FENGYUN 3E
#Configuration: FENGYUN 3E
#almurnet v.1.7.20251203
#Start time: 2026-01-20 15:35:49

#Version: 2.0.20230620
#Station: T1
#Location: 37.570604 lon 55.790049 lat
#TLE: 1 49008U 21062A   26020.00892250 -.00000287  00000+0 -11478-3 0  9990
#TLE: 2 49008  98.7482  25.0782 0002252 128.5071 231.6308 14.19884466235554

#Time	Az	El	Level	Level2	SNR	BER	BlckErr	Temp	State	Recorded	gain1	gain2
2026-01-20 15:35:49.63	205.64	5.14	-50.3	-61.1	3.8	8.47e-01	0	41	0	0	71	12177
2026-01-20 15:35:52.61	205.87	5.32	-50.3	-61.0	3.8	8.47e-01	0	41	104	0	71	12032
2026-01-20 15:35:55.59	206.11	5.51	-50.2	-61.1	3.8	8.47e-01	0	41	104	0	71	12126
2026-01-20 15:35:58.57	206.35	5.69	-50.2	-61.1	3.8	8.48e-01	0	41	104	0	71	12170
2026-01-20 15:36:01.54	206.60	5.88	-50.3	-61.1	3.8	8.47e-01	0	42	104	0	71	12141
2026-01-20 15:36:04.52	206.85	6.07	-50.3	-61.1	3.8	8.46e-01	0	41	104	0	71	12105
2026-01-20 15:36:07.50	207.10	6.26	-50.2	-60.8	3.8	8.47e-01	0	42	104	0	71	11772
2026-01-20 15:36:10.48	207.35	6.45	-50.2	-60.1	3.8	8.47e-01	0	42	104	0	71	10834
2026-01-20 15:36:13.46	207.61	6.64	-50.2	-60.4	3.8	8.47e-01	0	42	104	0	71	11216
2026-01-20 15:36:16.44	207.87	6.84	-50.1	-60.4	3.8	8.48e-01	0	42	104	0	71	11215
2026-01-20 15:36:19.43	208.13	7.03	-50.1	-60.3	3.8	8.47e-01	0	42	104	0	71	11145
2026-01-20 15:36:22.40	208.40	7.22	-50.2	-60.6	3.8	8.47e-01	0	42	104	0	71	11464
2026-01-20 15:36:25.39	208.67	7.42	-50.2	-60.7	3.8	8.47e-01	0	42	104	0	71	11663
2026-01-20 15:36:28.36	208.94	7.61	-49.9	-58.5	4.0	8.45e-01	0	42	104	0	70	9546
2026-01-20 15:36:31.34	209.22	7.81	-50.1	-60.2	3.8	8.46e-01	0	42	104	0	70	11637
2026-01-20 15:36:34.32	209.50	8.01	-48.8	-53.9	6.1	6.47e-01	0	42	0	0	68	6297
2026-01-20 15:36:37.30	209.79	8.21	-43.8	-45.4	14.5	3.40e-06	0	42	0	22020096	58	4219
2026-01-20 15:36:40.28	210.08	8.41	-40.9	-42.0	17.6	0.00e+00	0	43	0	44040192	52	4050
2026-01-20 15:36:43.26	210.37	8.61	-41.3	-42.5	17.2	0.00e+00	0	43	0	65011712	52	4278
2026-01-20 15:36:46.24	210.66	8.81	-44.2	-46.0	13.8	4.50e-06	0	43	0	87031808	57	4784
2026-01-20 15:36:49.22	210.96	9.02	-47.4	-51.0	8.8	3.11e-02	0	43	0	108003328	64	5665
2026-01-20 15:36:52.20	211.27	9.22	-48.9	-54.7	5.5	5.20e-01	0	43	0	128974848	67	7290
2026-01-20 15:36:55.18	211.58	9.43	-46.4	-49.0	11.0	2.04e-03	0	43	0	143654912	63	4797
2026-01-20 15:36:58.17	211.89	9.63	-46.1	-48.5	11.4	2.09e-03	0	43	0	164626432	62	4810
2026-01-20 15:37:01.15	212.21	9.84	-45.1	-47.1	13.0	1.01e-04	0	43	0	186646528	60	4557
2026-01-20 15:37:04.13	212.53	10.05	-43.0	-44.4	15.6	0.00e+00	0	43	0	208666624	56	4239
2026-01-20 15:37:07.12	212.86	10.26	-42.4	-43.8	16.1	0.00e+00	0	43	0	229638144	55	4149
2026-01-20 15:37:10.10	213.19	10.47	-41.4	-42.7	17.2	0.00e+00	0	43	0	250609664	53	4102
2026-01-20 15:37:13.08	213.52	10.68	-40.9	-42.0	17.8	0.00e+00	0	43	0	272629760	52	4038
2026-01-20 15:37:16.07	213.87	10.89	-40.6	-41.7	18.2	0.00e+00	0	43	0	293601280	51	4145
2026-01-20 15:37:19.05	214.21	11.10	-39.6	-40.6	19.3	0.00e+00	0	43	0	315621376	50	3848
2026-01-20 15:37:22.04	214.56	11.32	-39.6	-40.6	19.3	0.00e+00	0	43	0	337641472	49	4062
2026-01-20 15:37:25.03	214.92	11.53	-39.4	-40.4	19.4	0.00e+00	0	43	0	358612992	49	3986
2026-01-20 15:37:28.01	215.28	11.75	-39.4	-40.4	19.4	0.00e+00	0	43	0	380633088	49	3996
2026-01-20 15:37:31.00	215.64	11.97	-39.3	-40.2	19.6	0.00e+00	0	43	0	401604608	49	3906
2026-01-20 15:37:33.98	216.01	12.18	-39.3	-40.3	19.6	0.00e+00	0	43	0	423624704	49	3915
2026-01-20 15:37:36.97	216.39	12.40	-39.5	-40.5	19.4	0.00e+00	0	43	0	444596224	49	4008
2026-01-20 15:37:39.95	216.77	12.62	-39.2	-40.1	19.7	0.00e+00	0	43	0	466616320	49	3863
2026-01-20 15:37:42.94	217.16	12.84	-39.1	-40.0	19.9	0.00e+00	0	43	0	488636416	48	4043
2026-01-20 15:37:45.92	217.55	13.06	-39.1	-40.1	19.8	0.00e+00	0	43	0	509607936	48	4089
2026-01-20 15:37:48.90	217.95	13.29	-39.2	-40.2	19.7	0.00e+00	0	43	0	531628032	48	4137
2026-01-20 15:37:51.89	218.36	13.51	-39.3	-40.3	19.6	0.00e+00	0	43	0	552599552	48	4183
2026-01-20 15:37:54.87	218.77	13.73	-39.2	-40.2	19.7	0.00e+00	0	43	0	574619648	48	4124
2026-01-20 15:37:57.85	219.18	13.96	-39.0	-40.0	19.9	0.00e+00	0	43	0	595591168	48	4036
2026-01-20 15:38:00.84	219.61	14.18	-38.9	-39.9	20.0	0.00e+00	0	43	0	617611264	48	3978
2026-01-20 15:38:03.82	220.03	14.41	-38.8	-39.8	20.2	0.00e+00	0	43	0	638582784	48	3919
2026-01-20 15:38:06.81	220.47	14.63	-38.8	-39.7	20.2	0.00e+00	0	43	0	660602880	48	3897
2026-01-20 15:38:09.79	220.91	14.86	-38.4	-39.3	20.3	0.00e+00	0	43	0	681574400	47	3948
2026-01-20 15:38:12.78	221.36	15.09	-38.3	-39.3	20.4	0.00e+00	0	43	0	703594496	47	3919
2026-01-20 15:38:15.76	221.81	15.31	-38.1	-39.0	20.6	0.00e+00	0	43	0	724566016	47	3806
2026-01-20 15:38:18.75	222.28	15.54	-38.0	-38.9	20.7	0.00e+00	0	43	0	746586112	46	3999
2026-01-20 15:38:21.73	222.75	15.77	-37.8	-38.7	20.9	0.00e+00	0	43	0	767557632	46	3898
2026-01-20 15:38:24.71	223.22	16.00	-37.9	-38.9	20.8	0.00e+00	0	43	0	789577728	46	3961
2026-01-20 15:38:27.69	223.70	16.23	-38.0	-38.9	20.7	0.00e+00	0	43	0	811597824	46	4003
2026-01-20 15:38:30.68	224.19	16.46	-38.0	-38.9	20.7	0.00e+00	0	43	0	832569344	46	3994
2026-01-20 15:38:33.67	224.69	16.69	-37.8	-38.7	21.0	0.00e+00	0	43	0	854589440	46	3872
2026-01-20 15:38:36.65	225.20	16.92	-37.6	-38.5	21.1	0.00e+00	0	43	0	875560960	45	4037
2026-01-20 15:38:39.63	225.71	17.14	-37.4	-38.2	21.4	0.00e+00	0	43	0	897581056	45	3905
2026-01-20 15:38:42.62	226.23	17.37	-37.3	-38.2	21.3	0.00e+00	0	43	0	918552576	45	3899
2026-01-20 15:38:45.60	226.76	17.60	-37.3	-38.2	21.4	0.00e+00	0	43	0	940572672	45	3887
2026-01-20 15:38:48.58	227.29	17.83	-37.3	-38.2	21.4	0.00e+00	0	43	0	962592768	45	3899
2026-01-20 15:38:51.57	227.83	18.06	-37.5	-38.4	21.2	0.00e+00	0	43	0	983564288	45	3980
2026-01-20 15:38:54.55	228.39	18.29	-37.5	-38.4	21.2	0.00e+00	0	43	0	1005584384	45	3975
2026-01-20 15:38:57.54	228.95	18.52	-37.5	-38.4	21.2	0.00e+00	0	43	0	1026555904	45	3992
2026-01-20 15:39:00.52	229.51	18.74	-37.3	-38.2	21.5	0.00e+00	0	43	0	1047527424	45	3884
2026-01-20 15:39:03.51	230.09	18.97	-37.2	-38.1	21.5	0.00e+00	0	43	0	1069547520	45	3850
2026-01-20 15:39:06.49	230.67	19.20	-37.2	-38.1	21.5	0.00e+00	0	43	0	1091567616	44	4080
2026-01-20 15:39:09.48	231.27	19.42	-37.1	-38.0	21.6	0.00e+00	0	43	0	1112539136	44	4035
2026-01-20 15:39:12.47	231.87	19.65	-37.2	-38.1	21.5	0.00e+00	0	43	0	1134559232	44	4067
2026-01-20 15:39:15.45	232.48	19.87	-37.1	-38.0	21.6	0.00e+00	0	43	0	1155530752	44	4018
2026-01-20 15:39:18.43	233.10	20.09	-37.0	-37.9	21.7	0.00e+00	0	43	0	1177550848	44	3992
2026-01-20 15:39:21.42	233.73	20.31	-36.9	-37.8	21.8	0.00e+00	0	43	0	1198522368	44	3947
2026-01-20 15:39:24.40	234.36	20.53	-37.0	-37.9	21.7	0.00e+00	0	43	0	1220542464	44	3971
2026-01-20 15:39:27.39	235.01	20.74	-37.0	-37.8	21.8	0.00e+00	0	43	0	1242562560	44	3957
2026-01-20 15:39:30.37	235.66	20.96	-36.7	-37.6	22.0	0.00e+00	0	43	0	1263534080	44	3838
2026-01-20 15:39:33.36	236.33	21.17	-36.8	-37.6	22.0	0.00e+00	0	43	0	1285554176	44	3857
2026-01-20 15:39:36.34	237.00	21.38	-36.9	-37.8	21.8	0.00e+00	0	43	0	1306525696	44	3923
2026-01-20 15:39:39.33	237.68	21.59	-36.9	-37.8	21.8	0.00e+00	0	43	0	1328545792	44	3923
2026-01-20 15:39:42.31	238.37	21.80	-37.0	-37.9	21.8	0.00e+00	0	43	0	1349517312	44	3959
2026-01-20 15:39:45.30	239.07	22.00	-36.9	-37.7	21.9	0.00e+00	0	43	0	1371537408	44	3913
2026-01-20 15:39:48.28	239.78	22.20	-36.8	-37.7	21.9	0.00e+00	0	43	0	1393557504	44	3895
2026-01-20 15:39:51.27	240.50	22.40	-36.7	-37.6	22.0	0.00e+00	0	43	0	1414529024	44	3835
2026-01-20 15:39:54.25	241.22	22.60	-36.3	-37.2	22.2	0.00e+00	0	43	0	1436549120	43	3875
2026-01-20 15:39:57.24	241.96	22.79	-36.3	-37.2	22.2	0.00e+00	0	43	0	1457520640	43	3885
2026-01-20 15:40:00.22	242.70	22.98	-36.3	-37.1	22.3	0.00e+00	0	43	0	1478492160	43	3862
2026-01-20 15:40:03.21	243.45	23.16	-36.4	-37.2	22.2	0.00e+00	0	43	0	1500512256	43	3890
2026-01-20 15:40:06.19	244.21	23.34	-36.3	-37.2	22.2	0.00e+00	0	43	0	1522532352	43	3890
2026-01-20 15:40:09.17	244.98	23.52	-36.5	-37.4	22.0	0.00e+00	0	43	0	1543503872	43	3985
2026-01-20 15:40:12.16	245.76	23.69	-36.5	-37.3	22.1	0.00e+00	0	43	0	1565523968	43	3950
2026-01-20 15:40:15.14	246.54	23.86	-36.3	-37.1	22.3	0.00e+00	0	43	0	1586495488	43	3867
2026-01-20 15:40:18.12	247.34	24.02	-36.3	-37.1	22.3	0.00e+00	0	43	0	1608515584	43	3855
2026-01-20 15:40:21.11	248.14	24.18	-36.2	-37.0	22.4	0.00e+00	0	43	0	1629487104	43	3805
2026-01-20 15:40:24.09	248.95	24.34	-36.0	-36.8	22.5	0.00e+00	0	43	0	1651507200	42	3947
2026-01-20 15:40:27.08	249.77	24.49	-36.0	-36.8	22.6	0.00e+00	0	43	0	1672478720	42	3941
2026-01-20 15:40:30.06	250.59	24.63	-35.8	-36.7	22.7	0.00e+00	0	43	0	1694498816	42	3872
2026-01-20 15:40:33.05	251.43	24.77	-35.8	-36.6	22.7	0.00e+00	0	43	0	1716518912	42	3839
2026-01-20 15:40:36.03	252.26	24.90	-35.8	-36.7	22.7	0.00e+00	0	43	0	1737490432	42	3876
2026-01-20 15:40:39.02	253.11	25.03	-36.1	-37.0	22.4	0.00e+00	0	43	0	1759510528	42	4019
2026-01-20 15:40:42.00	253.96	25.15	-36.0	-36.9	22.5	0.00e+00	0	43	0	1780482048	42	3973
2026-01-20 15:40:44.98	254.82	25.26	-36.1	-36.9	22.5	0.00e+00	0	43	0	1802502144	42	3983
2026-01-20 15:40:47.96	255.68	25.37	-36.1	-36.9	22.4	0.00e+00	0	43	0	1823473664	42	4004
2026-01-20 15:40:50.95	256.56	25.47	-35.9	-36.7	22.6	0.00e+00	0	43	0	1845493760	42	3904
2026-01-20 15:40:53.93	257.43	25.57	-35.9	-36.7	22.6	0.00e+00	0	43	0	1867513856	42	3889
2026-01-20 15:40:56.91	258.31	25.66	-35.8	-36.7	22.7	0.00e+00	0	43	0	1888485376	42	3873
2026-01-20 15:40:59.89	259.19	25.74	-36.1	-36.9	22.5	0.00e+00	0	43	0	1909456896	42	3992
2026-01-20 15:41:02.88	260.09	25.82	-36.1	-37.0	22.4	0.00e+00	0	43	0	1931476992	42	4006
2026-01-20 15:41:05.86	260.98	25.88	-35.9	-36.7	22.6	0.00e+00	0	43	0	1952448512	42	3902
2026-01-20 15:41:08.85	261.88	25.94	-36.0	-36.8	22.5	0.00e+00	0	43	0	1974468608	42	3945
2026-01-20 15:41:11.83	262.78	26.00	-35.8	-36.7	22.7	0.00e+00	0	43	0	1995440128	42	3883
2026-01-20 15:41:14.81	263.68	26.04	-35.7	-36.5	22.8	0.00e+00	0	43	0	2017460224	42	3820
2026-01-20 15:41:17.80	264.58	26.08	-35.8	-36.6	22.7	0.00e+00	0	43	0	2039480320	42	3866
2026-01-20 15:41:20.78	265.49	26.12	-35.8	-36.6	22.7	0.00e+00	0	43	0	2060451840	42	3866
2026-01-20 15:41:23.77	266.40	26.14	-35.9	-36.7	22.6	0.00e+00	0	43	0	2082471936	42	3907
2026-01-20 15:41:26.75	267.31	26.16	-35.7	-36.6	22.7	0.00e+00	0	43	0	2103443456	42	3836
2026-01-20 15:41:29.74	268.22	26.17	-35.7	-36.5	22.8	0.00e+00	0	43	0	2125463552	42	3802
2026-01-20 15:41:32.72	269.13	26.17	-35.9	-36.7	22.6	0.00e+00	0	43	0	2146435072	42	3904
2026-01-20 15:41:35.71	270.04	26.16	-35.9	-36.8	22.6	0.00e+00	0	43	0	2168455168	42	3923
2026-01-20 15:41:38.69	270.95	26.15	-35.9	-36.7	22.7	0.00e+00	0	43	0	2190475264	42	3881
2026-01-20 15:41:41.67	271.86	26.13	-36.0	-36.9	22.6	0.00e+00	0	43	0	2211446784	42	3968
2026-01-20 15:41:44.65	272.76	26.10	-35.7	-36.6	22.8	0.00e+00	0	43	0	2233466880	42	3833
2026-01-20 15:41:47.64	273.67	26.06	-35.6	-36.4	22.9	0.00e+00	0	43	0	2254438400	41	3969
2026-01-20 15:41:50.62	274.57	26.02	-35.9	-36.7	22.6	0.00e+00	0	43	0	2276458496	41	4127
2026-01-20 15:41:53.60	275.47	25.97	-35.7	-36.6	22.7	0.00e+00	0	43	0	2297430016	41	4056
2026-01-20 15:41:56.59	276.37	25.91	-35.8	-36.7	22.7	0.00e+00	0	43	0	2319450112	41	4100
2026-01-20 15:41:59.57	277.26	25.84	-36.0	-36.9	22.5	0.00e+00	0	43	0	2340421632	41	4200
2026-01-20 15:42:02.56	278.15	25.77	-36.2	-37.0	22.2	0.00e+00	0	43	0	2362441728	41	4267
2026-01-20 15:42:05.54	279.04	25.69	-36.0	-36.8	22.5	0.00e+00	0	43	0	2383413248	41	4185
2026-01-20 15:42:08.52	279.92	25.60	-35.9	-36.7	22.6	0.00e+00	0	43	0	2405433344	41	4127
2026-01-20 15:42:11.51	280.80	25.51	-35.9	-36.8	22.6	0.00e+00	0	43	0	2426404864	41	4147
2026-01-20 15:42:14.49	281.67	25.41	-35.8	-36.6	22.8	0.00e+00	0	43	0	2448424960	41	4057
2026-01-20 15:42:17.48	282.53	25.31	-35.9	-36.7	22.6	0.00e+00	0	43	0	2469396480	41	4143
2026-01-20 15:42:20.46	283.39	25.19	-36.1	-37.0	22.4	0.00e+00	0	43	0	2491416576	41	4252
2026-01-20 15:42:23.45	284.24	25.08	-36.0	-36.9	22.4	0.00e+00	0	43	0	2513436672	41	4203
2026-01-20 15:42:26.43	285.09	24.95	-36.1	-36.9	22.4	0.00e+00	0	43	0	2534408192	41	4229
2026-01-20 15:42:29.41	285.93	24.82	-36.4	-37.2	22.2	0.00e+00	0	43	0	2556428288	42	4138
2026-01-20 15:42:32.40	286.76	24.69	-36.3	-37.2	22.2	0.00e+00	0	43	0	2577399808	42	4109
2026-01-20 15:42:35.38	287.59	24.55	-36.1	-36.9	22.5	0.00e+00	0	43	0	2599419904	42	3993
2026-01-20 15:42:38.36	288.40	24.40	-36.2	-37.0	22.4	0.00e+00	0	43	0	2620391424	42	4024
2026-01-20 15:42:41.35	289.22	24.25	-36.3	-37.2	22.2	0.00e+00	0	43	0	2642411520	42	4100
2026-01-20 15:42:44.33	290.02	24.09	-36.3	-37.2	22.2	0.00e+00	0	43	0	2664431616	42	4105
2026-01-20 15:42:47.32	290.81	23.93	-36.6	-37.4	22.0	0.00e+00	0	43	0	2685403136	42	4240
2026-01-20 15:42:50.30	291.60	23.76	-36.6	-37.5	22.0	0.00e+00	0	43	0	2706374656	43	4023
2026-01-20 15:42:53.29	292.38	23.59	-36.2	-37.0	22.4	0.00e+00	0	43	0	2728394752	43	3814
2026-01-20 15:42:56.27	293.15	23.42	-36.2	-37.0	22.4	0.00e+00	0	43	0	2749366272	42	4028
2026-01-20 15:42:59.25	293.91	23.24	-36.4	-37.2	22.2	0.00e+00	0	43	0	2771386368	42	4135
2026-01-20 15:43:02.24	294.66	23.06	-36.4	-37.2	22.2	0.00e+00	0	43	0	2793406464	42	4140
2026-01-20 15:43:05.22	295.41	22.87	-36.7	-37.5	21.9	0.00e+00	0	43	0	2814377984	42	4283
2026-01-20 15:43:08.21	296.14	22.68	-36.8	-37.6	21.8	0.00e+00	0	43	0	2836398080	43	4093
2026-01-20 15:43:11.19	296.87	22.49	-36.8	-37.7	21.8	0.00e+00	0	43	0	2857369600	43	4130
2026-01-20 15:43:14.18	297.59	22.30	-36.9	-37.8	21.7	0.00e+00	0	43	0	2879389696	43	4163
2026-01-20 15:43:17.16	298.30	22.10	-36.6	-37.5	21.9	0.00e+00	0	43	0	2900361216	43	4024
2026-01-20 15:43:20.15	299.00	21.90	-36.7	-37.6	21.8	0.00e+00	0	43	0	2922381312	43	4079
2026-01-20 15:43:23.13	299.69	21.69	-36.8	-37.7	21.8	0.00e+00	0	43	0	2943352832	43	4109
2026-01-20 15:43:26.11	300.37	21.49	-36.8	-37.7	21.7	0.00e+00	0	43	0	2965372928	43	4121
2026-01-20 15:43:29.09	301.04	21.28	-36.9	-37.7	21.7	0.00e+00	0	42	0	2987393024	43	4140
2026-01-20 15:43:32.08	301.71	21.07	-37.1	-37.9	21.5	0.00e+00	0	42	0	3008364544	43	4240
2026-01-20 15:43:35.06	302.36	20.86	-37.1	-38.0	21.5	0.00e+00	0	43	0	3030384640	43	4276
2026-01-20 15:43:38.04	303.01	20.64	-37.0	-37.9	21.5	0.00e+00	0	43	0	3051356160	43	4205
2026-01-20 15:43:41.03	303.64	20.43	-36.9	-37.8	21.6	0.00e+00	0	43	0	3073376256	43	4167
2026-01-20 15:43:44.01	304.27	20.21	-37.0	-37.9	21.5	0.00e+00	0	43	0	3094347776	43	4212
2026-01-20 15:43:46.99	304.89	19.99	-37.3	-38.1	21.3	0.00e+00	0	42	0	3116367872	43	4339
2026-01-20 15:43:49.98	305.50	19.77	-37.6	-38.6	21.1	0.00e+00	0	43	0	3137339392	44	4300
2026-01-20 15:43:52.96	306.11	19.55	-37.7	-38.6	21.0	0.00e+00	0	43	0	3159359488	45	4080
2026-01-20 15:43:55.94	306.70	19.32	-37.7	-38.6	21.1	0.00e+00	0	43	0	3180331008	45	4063
2026-01-20 15:43:58.93	307.29	19.10	-37.6	-38.5	21.1	0.00e+00	0	43	0	3202351104	45	4027
2026-01-20 15:44:01.91	307.86	18.88	-37.6	-38.5	21.1	0.00e+00	0	42	0	3223322624	45	4013
2026-01-20 15:44:04.89	308.43	18.65	-37.6	-38.5	21.1	0.00e+00	0	43	0	3245342720	45	4010
2026-01-20 15:44:07.88	308.99	18.43	-37.7	-38.6	21.1	0.00e+00	0	42	0	3266314240	45	4070
2026-01-20 15:44:10.86	309.55	18.20	-37.8	-38.8	20.9	0.00e+00	0	43	0	3288334336	45	4149
2026-01-20 15:44:13.84	310.09	17.97	-38.1	-39.0	20.7	0.00e+00	0	43	0	3310354432	45	4277
2026-01-20 15:44:16.83	310.63	17.75	-38.2	-39.1	20.5	0.00e+00	0	43	0	3331325952	45	4333
2026-01-20 15:44:19.82	311.16	17.52	-37.7	-38.7	21.0	0.00e+00	0	42	0	3353346048	45	4099
2026-01-20 15:44:22.80	311.68	17.29	-37.6	-38.5	21.1	0.00e+00	0	43	0	3374317568	45	4021
2026-01-20 15:44:25.79	312.20	17.06	-37.6	-38.5	21.1	0.00e+00	0	43	0	3396337664	45	4050
2026-01-20 15:44:28.77	312.70	16.84	-37.9	-38.8	20.8	0.00e+00	0	42	0	3417309184	45	4156
2026-01-20 15:44:31.75	313.20	16.61	-38.4	-39.3	20.3	0.00e+00	0	43	0	3439329280	46	4191
2026-01-20 15:44:34.74	313.69	16.38	-38.8	-39.8	19.9	0.00e+00	0	42	0	3461349376	47	4178
2026-01-20 15:44:37.72	314.18	16.16	-38.6	-39.6	20.1	0.00e+00	0	42	0	3482320896	47	4053
2026-01-20 15:44:40.70	314.65	15.93	-38.3	-39.3	20.4	0.00e+00	0	42	0	3503292416	47	3929
2026-01-20 15:44:43.69	315.12	15.70	-38.1	-39.1	20.6	0.00e+00	0	42	0	3525312512	47	3828
2026-01-20 15:44:46.67	315.59	15.48	-38.0	-38.9	20.7	0.00e+00	0	43	0	3546284032	46	3997
2026-01-20 15:44:49.65	316.04	15.25	-38.0	-38.9	20.7	0.00e+00	0	43	0	3568304128	46	3989
2026-01-20 15:44:52.64	316.50	15.02	-38.2	-39.2	20.4	0.00e+00	0	42	0	3590324224	46	4119
2026-01-20 15:44:55.62	316.94	14.80	-38.7	-39.8	19.9	0.00e+00	0	42	0	3611295744	47	4148
2026-01-20 15:44:58.60	317.37	14.58	-39.1	-40.1	19.5	0.00e+00	0	42	0	3633315840	47	4340
2026-01-20 15:45:01.56	317.80	14.35	-39.2	-40.2	19.5	0.00e+00	0	43	0	3654287360	47	4359
2026-01-20 15:45:04.54	318.23	14.13	-39.2	-40.2	19.7	0.00e+00	0	42	0	3676307456	48	4125
2026-01-20 15:45:07.52	318.64	13.91	-38.9	-39.9	20.0	0.00e+00	0	42	0	3697278976	48	3990
2026-01-20 15:45:10.51	319.06	13.69	-38.8	-39.8	20.1	0.00e+00	0	42	0	3719299072	48	3922
2026-01-20 15:45:13.49	319.46	13.47	-38.5	-39.5	20.1	0.00e+00	0	42	0	3740270592	47	4018
2026-01-20 15:45:16.48	319.87	13.25	-38.5	-39.5	20.1	0.00e+00	0	42	0	3762290688	47	4029
2026-01-20 15:45:19.46	320.26	13.03	-38.8	-39.8	19.8	0.00e+00	0	42	0	3783262208	47	4170
2026-01-20 15:45:22.45	320.65	12.81	-38.9	-40.0	19.6	0.00e+00	0	42	0	3805282304	47	4265
2026-01-20 15:45:25.43	321.03	12.59	-39.2	-40.2	19.4	0.00e+00	0	43	0	3827302400	47	4364
2026-01-20 15:45:28.42	321.41	12.37	-39.3	-40.4	19.5	0.00e+00	0	42	0	3848273920	48	4196
2026-01-20 15:45:31.41	321.79	12.16	-39.4	-40.4	19.5	0.00e+00	0	42	0	3870294016	48	4233
2026-01-20 15:45:34.39	322.15	11.94	-39.4	-40.4	19.4	0.00e+00	0	42	0	3891265536	48	4228
2026-01-20 15:45:37.37	322.52	11.73	-39.3	-40.3	19.6	0.00e+00	0	43	0	3912237056	48	4163
2026-01-20 15:45:40.36	322.88	11.51	-39.2	-40.2	19.7	0.00e+00	0	42	0	3934257152	48	4108
2026-01-20 15:45:43.34	323.23	11.30	-39.2	-40.3	19.5	0.00e+00	0	42	0	3956277248	48	4173
2026-01-20 15:45:46.33	323.58	11.09	-39.2	-40.3	19.5	0.00e+00	0	43	0	3977248768	48	4176
2026-01-20 15:45:49.31	323.92	10.88	-39.3	-40.4	19.4	0.00e+00	0	42	0	3999268864	48	4228
2026-01-20 15:45:52.29	324.26	10.67	-39.3	-40.4	19.4	0.00e+00	0	42	0	4020240384	48	4211
2026-01-20 15:45:55.28	324.59	10.46	-39.4	-40.5	19.3	0.00e+00	0	42	0	4042260480	48	4248
2026-01-20 15:45:58.26	324.92	10.25	-39.6	-40.8	19.0	0.00e+00	0	42	0	4063232000	48	4402
2026-01-20 15:46:01.24	325.24	10.05	-39.6	-40.8	19.0	0.00e+00	0	42	0	4085252096	49	4161
2026-01-20 15:46:04.22	325.56	9.84	-39.8	-41.0	18.8	0.00e+00	0	42	0	4106223616	49	4265
2026-01-20 15:46:07.21	325.88	9.63	-39.9	-41.1	18.7	0.00e+00	0	43	0	4128243712	49	4328
2026-01-20 15:46:10.20	326.19	9.43	-40.1	-41.3	18.5	0.00e+00	0	42	0	4150263808	49	4408
2026-01-20 15:46:13.18	326.50	9.23	-40.3	-41.5	18.3	0.00e+00	0	42	0	4171235328	50	4264
2026-01-20 15:46:16.17	326.81	9.02	-40.2	-41.3	18.4	0.00e+00	0	42	0	4193255424	50	4191
2026-01-20 15:46:19.15	327.11	8.82	-50.1	-61.5	3.8	8.47e-01	0	42	104	4198498304	70	13564
2026-01-20 15:46:22.13	327.40	8.62	-50.9	-61.7	3.8	8.45e-01	0	42	104	4198498304	71	13103
2026-01-20 15:46:25.11	327.69	8.42	-51.2	-61.9	3.8	8.47e-01	0	42	104	4198498304	71	13327
2026-01-20 15:46:28.09	327.98	8.23	-51.1	-61.9	3.8	8.48e-01	0	42	104	4198498304	71	13330
2026-01-20 15:46:31.07	328.26	8.03	-51.1	-61.9	3.8	8.46e-01	0	42	104	4198498304	72	12580
2026-01-20 15:46:34.05	328.55	7.83	-51.1	-61.9	3.8	8.47e-01	0	42	104	4198498304	72	12588
2026-01-20 15:46:37.03	328.82	7.64	-50.9	-61.9	3.8	8.48e-01	0	42	104	4198498304	72	12530
2026-01-20 15:46:40.01	329.10	7.44	-50.9	-61.8	3.8	8.48e-01	0	42	104	4198498304	72	12411
2026-01-20 15:46:42.99	329.37	7.25	-50.8	-61.8	3.8	8.46e-01	0	42	104	4198498304	72	12463
2026-01-20 15:46:45.97	329.63	7.06	-50.9	-61.8	3.8	8.47e-01	0	42	104	4198498304	72	12514
2026-01-20 15:46:48.94	329.90	6.87	-50.9	-61.8	3.8	8.47e-01	0	42	104	4198498304	72	12448
2026-01-20 15:46:51.92	330.16	6.68	-50.8	-61.8	3.8	8.48e-01	0	42	104	4198498304	72	12461
2026-01-20 15:46:54.90	330.41	6.49	-50.9	-61.8	3.8	8.47e-01	0	42	104	4198498304	72	12439
2026-01-20 15:46:57.88	330.67	6.30	-50.8	-61.8	3.8	8.47e-01	0	42	104	4198498304	72	12446
2026-01-20 15:47:00.85	330.92	6.11	-50.8	-61.8	3.8	8.47e-01	0	42	104	4198498304	72	12465
2026-01-20 15:47:03.83	331.16	5.93	-50.8	-61.8	3.8	8.46e-01	0	43	104	4198498304	72	12458
2026-01-20 15:47:06.81	331.41	5.74	-50.8	-61.8	3.8	8.46e-01	0	42	104	4198498304	72	12448
2026-01-20 15:47:09.79	331.65	5.56	-50.8	-61.8	3.8	8.47e-01	0	42	104	4198498304	72	12405
2026-01-20 15:47:12.77	331.89	5.37	-50.8	-61.8	3.8	8.46e-01	0	42	104	4198498304	72	12401
2026-01-20 15:47:15.75	332.13	5.19	-50.8	-61.8	3.8	8.46e-01	0	42	104	4198498304	72	12376
2026-01-20 15:47:18.72	332.36	5.01	-50.8	-61.8	3.8	8.47e-01	0	42	104	4198498304	72	12378

#Closed at: 2026-01-20 15:47:20
#Recorded file [4198 MB]: D:/Data/31040_260120_183549.dat