passes_logs/2026/01/20/T1/T1__20260120_115300_AQUA_rec.log

#Pass ID: 20260120_115300_AQUA
#Satellite: AQUA
#Configuration: AQUA
#almurnet v.1.7.20251203
#Start time: 2026-01-20 11:53:00

#Version: 2.0.20230620
#Station: T1
#Location: 37.570604 lon 55.790049 lat
#TLE: 1 27424U 02022A   26019.60905539  .00000968  00000+0  20374-3 0  9991
#TLE: 2 27424  98.4090 346.1140 0001992  72.7126 342.3847 14.61830366261565

#Time	Az	El	Level	Level2	SNR	BER	BlckErr	Temp	State	Recorded	gain1	gain2
2026-01-20 11:53:00.39	167.61	4.98	-50.9	-71.8	3.8	7.46e-01	0	39	0	0	73	39689
2026-01-20 11:53:03.37	167.65	5.20	-46.4	-69.1	3.8	7.45e-01	0	39	104	0	64	48715
2026-01-20 11:53:06.35	167.70	5.43	-46.4	-68.8	4.0	7.45e-01	0	39	104	0	64	47444
2026-01-20 11:53:09.33	167.74	5.66	-46.4	-70.1	3.8	7.45e-01	0	39	104	0	64	54701
2026-01-20 11:53:12.31	167.79	5.89	-46.5	-70.7	3.8	7.42e-01	0	39	104	0	64	59058
2026-01-20 11:53:15.29	167.83	6.12	-46.4	-68.5	3.8	7.40e-01	0	39	104	0	64	45605
2026-01-20 11:53:18.27	167.88	6.36	-46.4	-66.1	4.8	7.14e-01	0	40	104	0	64	34552
2026-01-20 11:53:21.25	167.93	6.60	-46.6	-66.8	4.0	7.40e-01	0	40	104	0	64	37793
2026-01-20 11:53:24.22	167.98	6.84	-46.5	-69.6	3.8	7.43e-01	0	40	104	0	64	52071
2026-01-20 11:53:27.20	168.03	7.08	-46.5	-71.3	3.8	7.44e-01	0	40	104	0	64	63007
2026-01-20 11:53:30.18	168.08	7.33	-46.5	-69.7	3.8	7.47e-01	0	40	104	0	64	52681
2026-01-20 11:53:33.16	168.13	7.58	-46.3	-63.8	6.3	6.78e-01	0	40	0	524288	64	26577
2026-01-20 11:53:36.15	168.18	7.83	-46.1	-57.9	12.2	6.13e-01	0	40	0	6291456	64	13556
2026-01-20 11:53:39.13	168.23	8.08	-45.5	-54.4	15.8	6.08e-01	0	40	0	11534336	63	9589
2026-01-20 11:53:42.11	168.29	8.34	-45.4	-53.4	16.8	6.09e-01	0	40	0	17301504	62	9050
2026-01-20 11:53:45.09	168.34	8.60	-45.7	-54.8	15.5	6.06e-01	0	41	0	23068672	62	10623
2026-01-20 11:53:48.07	168.40	8.86	-46.2	-59.1	11.2	6.19e-01	0	40	0	28311552	63	16374
2026-01-20 11:53:51.05	168.45	9.13	-46.4	-61.7	8.4	6.45e-01	0	40	0	34078720	63	22203
2026-01-20 11:53:54.04	168.51	9.40	-44.3	-49.3	20.9	6.05e-01	0	41	0	37224448	60	6294
2026-01-20 11:53:57.02	168.57	9.67	-44.1	-49.2	21.1	6.07e-01	0	40	0	42467328	59	6575
2026-01-20 11:54:00.00	168.63	9.95	-43.8	-48.0	22.1	6.07e-01	0	41	0	48234496	59	5788
2026-01-20 11:54:02.99	168.69	10.23	-43.7	-47.9	22.4	6.05e-01	0	41	0	54001664	59	5710
2026-01-20 11:54:05.97	168.75	10.51	-43.1	-46.9	23.2	6.07e-01	0	41	0	59244544	58	5386
2026-01-20 11:54:08.96	168.82	10.80	-43.3	-46.9	23.3	6.07e-01	0	41	0	65011712	58	5366
2026-01-20 11:54:11.94	168.88	11.09	-43.5	-46.7	23.4	6.06e-01	0	41	0	70778880	58	5264
2026-01-20 11:54:14.93	168.94	11.39	-43.7	-46.7	23.5	6.07e-01	0	41	0	76021760	58	5276
2026-01-20 11:54:17.91	169.01	11.68	-44.0	-46.9	23.4	6.05e-01	0	41	0	81788928	58	5356
2026-01-20 11:54:20.90	169.08	11.99	-44.1	-46.9	23.4	6.06e-01	0	41	0	87556096	58	5362
2026-01-20 11:54:23.89	169.15	12.30	-44.1	-46.8	23.4	6.07e-01	0	41	0	92798976	58	5334
2026-01-20 11:54:26.87	169.22	12.61	-44.2	-46.9	23.4	6.08e-01	0	41	0	98566144	59	5059
2026-01-20 11:54:29.85	169.29	12.92	-44.2	-46.8	23.5	6.09e-01	0	41	0	104333312	59	5006
2026-01-20 11:54:32.84	169.36	13.24	-44.1	-46.7	23.6	6.08e-01	0	41	0	109576192	59	4956
2026-01-20 11:54:35.82	169.44	13.57	-44.0	-46.7	23.6	6.07e-01	0	41	0	115343360	59	4943
2026-01-20 11:54:38.81	169.51	13.90	-43.7	-46.4	23.9	6.08e-01	0	41	0	121110528	59	4777
2026-01-20 11:54:41.79	169.59	14.23	-43.7	-46.3	24.0	6.10e-01	0	41	0	126877696	59	4756
2026-01-20 11:54:44.78	169.67	14.57	-43.7	-46.4	23.9	6.08e-01	0	41	0	132120576	59	4778
2026-01-20 11:54:47.76	169.75	14.92	-43.7	-46.4	23.9	6.08e-01	0	41	0	137887744	59	4784
2026-01-20 11:54:50.74	169.84	15.27	-43.8	-46.6	23.8	6.09e-01	0	41	0	143654912	59	4893
2026-01-20 11:54:53.72	169.92	15.63	-43.8	-46.6	23.9	6.07e-01	0	41	0	148897792	59	4879
2026-01-20 11:54:56.71	170.01	15.99	-43.8	-46.5	23.9	6.06e-01	0	41	0	154664960	59	4843
2026-01-20 11:54:59.69	170.10	16.36	-43.7	-46.2	24.1	6.06e-01	0	41	0	160432128	59	4695
2026-01-20 11:55:02.68	170.19	16.73	-43.8	-46.3	24.1	6.04e-01	0	41	0	165675008	59	4727
2026-01-20 11:55:05.66	170.28	17.11	-43.6	-46.1	24.3	6.08e-01	0	41	0	171442176	59	4646
2026-01-20 11:55:08.65	170.38	17.50	-43.6	-46.1	24.3	6.05e-01	0	41	0	177209344	59	4649
2026-01-20 11:55:11.63	170.48	17.90	-43.7	-46.3	24.2	6.09e-01	0	41	0	182452224	59	4707
2026-01-20 11:55:14.62	170.58	18.30	-43.6	-46.2	24.2	6.08e-01	0	41	0	188219392	59	4689
2026-01-20 11:55:17.60	170.68	18.71	-43.6	-46.2	24.3	6.05e-01	0	41	0	193986560	59	4654
2026-01-20 11:55:20.59	170.79	19.13	-43.8	-46.3	24.1	6.09e-01	0	41	0	199229440	59	4751
2026-01-20 11:55:23.57	170.90	19.55	-43.7	-46.2	24.2	6.04e-01	0	41	0	204996608	59	4691
2026-01-20 11:55:26.55	171.01	19.98	-43.7	-46.2	24.2	6.05e-01	0	41	0	210763776	59	4691
2026-01-20 11:55:29.54	171.12	20.42	-43.8	-46.3	24.1	6.09e-01	0	41	0	216006656	59	4754
2026-01-20 11:55:32.52	171.24	20.87	-43.8	-46.4	24.1	6.08e-01	0	41	0	221773824	59	4766
2026-01-20 11:55:35.50	171.36	21.33	-44.0	-46.8	23.7	6.08e-01	0	41	0	227540992	59	5009
2026-01-20 11:55:38.49	171.49	21.80	-44.1	-46.8	22.1	6.06e-01	0	41	0	232783872	59	5020
2026-01-20 11:55:41.47	171.62	22.27	-44.1	-46.7	23.8	6.04e-01	0	41	0	238551040	59	4973
2026-01-20 11:55:44.46	171.75	22.76	-43.9	-46.4	24.1	6.07e-01	0	41	0	244318208	59	4812
2026-01-20 11:55:47.44	171.89	23.25	-44.0	-46.6	23.9	6.05e-01	0	41	0	249561088	59	4877
2026-01-20 11:55:50.42	172.03	23.76	-44.1	-46.7	23.9	6.07e-01	0	41	0	255328256	59	4928
2026-01-20 11:55:53.41	172.18	24.28	-44.0	-46.5	24.0	6.09e-01	0	41	0	261095424	59	4852
2026-01-20 11:55:56.39	172.33	24.81	-44.2	-46.8	23.8	6.04e-01	0	41	0	266338304	59	4986
2026-01-20 11:55:59.38	172.48	25.35	-44.3	-46.8	23.8	6.06e-01	0	41	0	272105472	59	5020
2026-01-20 11:56:02.36	172.65	25.90	-44.2	-46.7	23.8	6.08e-01	0	41	0	277872640	59	4968
2026-01-20 11:56:05.35	172.81	26.47	-44.2	-46.7	23.8	6.05e-01	0	41	0	283115520	59	4954
2026-01-20 11:56:08.33	172.99	27.04	-44.0	-46.4	24.1	6.04e-01	0	41	0	288882688	59	4814
2026-01-20 11:56:11.31	173.16	27.63	-43.8	-46.2	24.4	6.05e-01	0	41	0	294649856	59	4659
2026-01-20 11:56:14.29	173.35	28.24	-43.8	-46.3	24.3	6.06e-01	0	41	0	299892736	59	4720
2026-01-20 11:56:17.27	173.54	28.85	-43.6	-45.9	24.6	6.07e-01	0	41	0	305659904	59	4534
2026-01-20 11:56:20.25	173.74	29.49	-43.6	-46.0	24.5	6.06e-01	0	41	0	311427072	59	4559
2026-01-20 11:56:23.24	173.95	30.14	-43.5	-45.9	24.6	6.06e-01	0	41	0	316669952	58	4784
2026-01-20 11:56:26.22	174.17	30.80	-43.5	-46.0	24.5	6.07e-01	0	41	0	322437120	58	4816
2026-01-20 11:56:29.21	174.40	31.48	-43.7	-46.1	24.4	6.08e-01	0	41	0	328204288	58	4901
2026-01-20 11:56:32.19	174.63	32.18	-43.9	-46.4	24.2	6.07e-01	0	41	0	333447168	58	5072
2026-01-20 11:56:35.18	174.88	32.89	-43.7	-46.1	24.4	6.08e-01	0	41	0	339214336	58	4922
2026-01-20 11:56:38.16	175.14	33.63	-44.3	-46.8	23.9	6.07e-01	0	41	0	344981504	59	5013
2026-01-20 11:56:41.15	175.41	34.38	-44.4	-46.9	23.7	6.06e-01	0	41	0	350224384	59	5095
2026-01-20 11:56:44.13	175.69	35.15	-44.6	-47.2	23.5	6.09e-01	0	41	0	355991552	59	5222
2026-01-20 11:56:47.11	175.98	35.94	-45.0	-47.7	23.0	6.03e-01	0	41	0	361758720	60	5245
2026-01-20 11:56:50.10	176.29	36.75	-45.0	-47.8	22.9	6.05e-01	0	41	0	367001600	60	5323
2026-01-20 11:56:53.08	176.62	37.58	-45.3	-48.2	22.5	6.08e-01	0	41	0	372768768	62	4964
2026-01-20 11:56:56.07	176.96	38.43	-45.3	-48.0	22.7	6.09e-01	0	41	0	378535936	62	4857
2026-01-20 11:56:59.05	177.32	39.31	-45.6	-48.5	22.2	6.07e-01	0	41	0	383778816	62	5123
2026-01-20 11:57:02.03	177.70	40.20	-45.3	-48.1	22.7	6.07e-01	0	41	0	389545984	62	4886
2026-01-20 11:57:05.02	178.11	41.12	-45.0	-47.6	23.0	6.06e-01	0	41	0	395313152	61	4916
2026-01-20 11:57:08.00	178.53	42.07	-44.5	-47.1	23.5	6.06e-01	0	41	0	400556032	60	4907
2026-01-20 11:57:10.99	178.99	43.04	-43.8	-46.2	24.3	6.05e-01	0	41	0	406323200	59	4703
2026-01-20 11:57:13.98	179.47	44.03	-43.8	-46.2	24.4	6.05e-01	0	41	0	412090368	59	4664
2026-01-20 11:57:16.96	179.98	45.05	-43.8	-46.2	24.4	6.04e-01	0	41	0	417333248	59	4654
2026-01-20 11:57:19.94	180.52	46.09	-43.8	-46.1	24.5	6.06e-01	0	41	0	423100416	59	4638
2026-01-20 11:57:22.92	181.11	47.16	-43.7	-46.1	24.5	6.09e-01	0	41	0	428867584	59	4619
2026-01-20 11:57:25.90	181.73	48.25	-43.9	-46.4	24.3	6.05e-01	0	41	0	434110464	59	4760
2026-01-20 11:57:28.89	182.40	49.37	-43.8	-46.2	24.4	6.03e-01	0	41	0	439877632	59	4701
2026-01-20 11:57:31.87	183.13	50.52	-43.4	-45.7	24.8	6.04e-01	0	41	0	445644800	58	4705
2026-01-20 11:57:34.85	183.90	51.69	-43.2	-45.4	25.0	6.06e-01	0	41	0	450887680	58	4544
2026-01-20 11:57:37.84	184.75	52.89	-43.1	-45.4	25.0	6.08e-01	0	41	0	456654848	58	4528
2026-01-20 11:57:40.82	185.67	54.10	-43.0	-45.3	25.3	6.03e-01	0	41	0	462422016	57	4722
2026-01-20 11:57:43.80	186.66	55.34	-43.6	-45.9	24.7	6.07e-01	0	41	0	467664896	57	5098
2026-01-20 11:57:46.79	187.75	56.61	-44.3	-46.7	24.0	6.07e-01	0	41	0	473432064	59	4955
2026-01-20 11:57:49.78	188.95	57.90	-44.4	-46.9	23.7	6.06e-01	0	41	0	479199232	60	4796
2026-01-20 11:57:52.76	190.27	59.20	-44.9	-47.6	23.1	6.06e-01	0	41	0	484442112	60	5170
2026-01-20 11:57:55.74	191.72	60.51	-45.2	-47.8	23.0	6.08e-01	0	41	0	490209280	61	5008
2026-01-20 11:57:58.72	193.32	61.83	-45.8	-48.7	22.2	6.07e-01	0	41	0	495976448	62	5232
2026-01-20 11:58:01.71	195.12	63.16	-46.4	-49.5	21.3	6.07e-01	0	41	0	501219328	63	5461
2026-01-20 11:58:04.69	197.13	64.49	-47.0	-50.4	20.4	6.05e-01	0	41	0	506986496	64	5696
2026-01-20 11:58:07.68	199.39	65.82	-47.6	-51.4	19.5	6.06e-01	0	41	0	512753664	65	6027
2026-01-20 11:58:10.66	201.92	67.12	-47.9	-51.6	19.2	6.09e-01	0	41	0	517996544	67	5465
2026-01-20 11:58:13.64	204.80	68.41	-48.1	-51.9	18.9	6.06e-01	0	41	0	523763712	67	5704
2026-01-20 11:58:16.63	208.07	69.65	-48.4	-52.6	18.3	6.06e-01	0	41	0	529530880	67	6161
2026-01-20 11:58:19.62	211.79	70.85	-47.3	-51.1	19.7	6.05e-01	0	41	0	534773760	66	5474
2026-01-20 11:58:22.60	216.00	71.96	-47.0	-50.4	20.5	6.05e-01	0	41	0	540540928	65	5359
2026-01-20 11:58:25.59	220.80	72.99	-46.3	-49.3	21.5	6.05e-01	0	41	0	546308096	64	5015
2026-01-20 11:58:28.57	226.18	73.90	-46.4	-49.4	21.5	6.07e-01	0	41	0	551550976	63	5389
2026-01-20 11:58:31.55	232.18	74.66	-46.4	-49.5	21.3	6.07e-01	0	41	0	557318144	64	5157
2026-01-20 11:58:34.53	238.75	75.25	-45.6	-48.5	22.2	6.08e-01	0	41	0	563085312	63	4830
2026-01-20 11:58:37.52	245.81	75.64	-45.5	-48.4	22.4	6.08e-01	0	41	0	568328192	62	5076
2026-01-20 11:58:40.50	253.14	75.81	-45.5	-48.5	22.3	6.05e-01	0	41	0	574095360	62	5127
2026-01-20 11:58:43.48	260.52	75.75	-45.7	-48.6	22.2	6.06e-01	0	41	0	579862528	62	5165
2026-01-20 11:58:46.47	267.75	75.47	-45.9	-48.8	22.0	6.06e-01	0	41	0	585629696	62	5288
2026-01-20 11:58:49.45	274.58	74.98	-45.5	-48.4	22.4	6.07e-01	0	41	0	590872576	62	5060
2026-01-20 11:58:52.43	280.87	74.30	-45.7	-48.7	22.1	6.06e-01	0	41	0	596639744	62	5236
2026-01-20 11:58:55.42	286.58	73.47	-46.3	-49.4	21.6	6.07e-01	0	41	0	602406912	63	5345
2026-01-20 11:58:58.41	291.67	72.50	-46.1	-49.0	21.8	6.07e-01	0	41	0	607649792	63	5148
2026-01-20 11:59:01.39	296.16	71.42	-46.1	-49.0	21.9	6.07e-01	0	41	0	613416960	63	5123
2026-01-20 11:59:04.37	300.11	70.27	-46.3	-49.4	21.5	6.07e-01	0	41	0	619184128	63	5366
2026-01-20 11:59:07.36	303.59	69.05	-46.6	-49.7	21.1	6.06e-01	0	41	0	624427008	64	5273
2026-01-20 11:59:10.34	306.65	67.79	-46.6	-49.7	21.2	6.08e-01	0	41	0	630194176	64	5221
2026-01-20 11:59:13.32	309.35	66.50	-46.4	-49.7	21.1	6.07e-01	0	41	0	635961344	64	5259
2026-01-20 11:59:16.31	311.75	65.18	-45.7	-48.5	22.3	6.07e-01	0	41	0	641204224	63	4834
2026-01-20 11:59:19.29	313.87	63.86	-45.2	-47.9	22.9	6.09e-01	0	41	0	646971392	62	4794
2026-01-20 11:59:22.28	315.77	62.53	-44.8	-47.3	23.4	6.05e-01	0	41	0	652738560	61	4756
2026-01-20 11:59:25.26	317.47	61.21	-44.7	-47.5	23.2	6.05e-01	0	41	0	657981440	61	4850
2026-01-20 11:59:28.25	319.00	59.89	-44.5	-47.1	23.5	6.06e-01	0	41	0	663748608	60	4912
2026-01-20 11:59:31.23	320.38	58.59	-44.2	-46.7	23.8	6.05e-01	0	41	0	669515776	60	4687
2026-01-20 11:59:34.22	321.63	57.30	-44.0	-46.4	24.3	6.06e-01	0	41	0	674758656	59	4781
2026-01-20 11:59:37.20	322.77	56.03	-43.3	-45.6	24.9	6.07e-01	0	41	0	680525824	58	4617
2026-01-20 11:59:40.18	323.81	54.78	-43.6	-45.9	24.7	6.09e-01	0	41	0	686292992	58	4804
2026-01-20 11:59:43.17	324.77	53.55	-43.5	-45.8	24.7	6.07e-01	0	41	0	691535872	58	4753
2026-01-20 11:59:46.15	325.65	52.35	-43.6	-46.0	24.7	6.06e-01	0	41	0	697303040	58	4848
2026-01-20 11:59:49.14	326.46	51.17	-43.7	-46.1	24.5	6.07e-01	0	41	0	703070208	58	4926
2026-01-20 11:59:52.12	327.21	50.02	-44.2	-46.8	23.9	6.05e-01	0	41	0	708313088	59	4989
2026-01-20 11:59:55.10	327.91	48.89	-44.5	-47.2	23.4	6.07e-01	0	41	0	714080256	60	4952
2026-01-20 11:59:58.09	328.56	47.78	-44.2	-46.7	24.0	6.06e-01	0	41	0	719847424	59	4954
2026-01-20 12:00:01.08	329.16	46.70	-44.2	-46.6	24.1	6.04e-01	0	41	0	725090304	59	4921
2026-01-20 12:00:04.07	329.73	45.65	-44.4	-47.1	23.6	6.06e-01	0	41	0	730857472	59	5170
2026-01-20 12:00:07.05	330.26	44.62	-43.9	-46.5	24.2	6.08e-01	0	41	0	736624640	59	4828
2026-01-20 12:00:10.04	330.75	43.62	-44.2	-46.8	23.9	6.07e-01	0	41	0	741867520	59	5004
2026-01-20 12:00:13.02	331.22	42.65	-44.2	-46.8	23.9	6.07e-01	0	41	0	747634688	59	5006
2026-01-20 12:00:16.00	331.66	41.69	-44.5	-47.5	23.1	6.05e-01	0	41	0	753401856	60	5146
2026-01-20 12:00:18.98	332.08	40.77	-44.6	-47.4	23.3	6.05e-01	0	41	0	758644736	60	5055
2026-01-20 12:00:21.97	332.47	39.86	-44.7	-47.4	23.2	6.08e-01	0	41	0	764411904	60	5077
2026-01-20 12:00:24.95	332.84	38.98	-44.7	-47.4	23.3	6.08e-01	0	41	0	770179072	60	5054
2026-01-20 12:00:27.93	333.19	38.12	-44.5	-47.4	23.2	6.04e-01	0	41	0	775421952	60	5087
2026-01-20 12:00:30.92	333.53	37.28	-44.3	-47.0	23.6	6.08e-01	0	41	0	781189120	60	4844
2026-01-20 12:00:33.90	333.85	36.46	-44.3	-46.8	23.8	6.07e-01	0	41	0	786956288	60	4725
2026-01-20 12:00:36.89	334.15	35.66	-44.2	-46.7	24.0	6.09e-01	0	41	0	792199168	59	4928
2026-01-20 12:00:39.87	334.44	34.89	-43.6	-46.1	24.5	6.06e-01	0	41	0	797966336	59	4621
2026-01-20 12:00:42.86	334.72	34.13	-43.2	-45.8	24.7	6.07e-01	0	41	0	803733504	58	4710
2026-01-20 12:00:45.84	334.98	33.39	-42.7	-45.3	25.2	6.06e-01	0	41	0	809500672	57	4715
2026-01-20 12:00:48.83	335.23	32.67	-43.1	-45.6	24.8	6.05e-01	0	41	0	814743552	57	4922
2026-01-20 12:00:51.81	335.48	31.97	-43.0	-45.3	25.1	6.05e-01	0	41	0	820510720	57	4740
2026-01-20 12:00:54.79	335.71	31.28	-42.8	-45.2	25.2	6.06e-01	0	41	0	826277888	57	4679
2026-01-20 12:00:57.78	335.93	30.61	-42.6	-45.2	25.2	6.06e-01	0	41	0	831520768	57	4685
2026-01-20 12:01:00.76	336.14	29.96	-42.7	-45.4	25.0	6.07e-01	0	41	0	837287936	57	4805
2026-01-20 12:01:03.74	336.35	29.32	-43.2	-45.7	24.7	6.07e-01	0	41	0	843055104	57	4973
2026-01-20 12:01:06.73	336.55	28.69	-43.4	-45.9	24.6	6.07e-01	0	41	0	848297984	57	5058
2026-01-20 12:01:09.72	336.74	28.08	-43.5	-46.1	24.4	6.06e-01	0	41	0	854065152	57	5174
2026-01-20 12:01:12.70	336.92	27.49	-43.6	-46.1	24.5	6.07e-01	0	41	0	859832320	58	4886
2026-01-20 12:01:15.69	337.10	26.91	-43.6	-46.1	24.4	6.08e-01	0	41	0	865075200	58	4886
2026-01-20 12:01:18.67	337.27	26.34	-43.6	-46.3	24.2	6.05e-01	0	41	0	870842368	58	5033
2026-01-20 12:01:21.65	337.44	25.78	-43.7	-46.6	23.9	6.06e-01	0	41	0	876609536	58	5191
2026-01-20 12:01:24.64	337.60	25.24	-43.8	-46.5	24.0	6.06e-01	0	41	0	881852416	58	5145
2026-01-20 12:01:27.62	337.75	24.70	-43.9	-46.5	24.0	6.07e-01	0	41	0	887619584	58	5113
2026-01-20 12:01:30.60	337.90	24.18	-43.7	-46.4	24.1	6.06e-01	0	41	0	893386752	58	5069
2026-01-20 12:01:33.59	338.05	23.67	-43.6	-46.4	24.1	6.07e-01	0	41	0	898629632	58	5094
2026-01-20 12:01:36.57	338.19	23.17	-43.7	-46.7	23.9	6.06e-01	0	41	0	904396800	58	5219
2026-01-20 12:01:39.55	338.33	22.68	-43.8	-46.7	23.8	6.05e-01	0	41	0	910163968	58	5241
2026-01-20 12:01:42.53	338.46	22.20	-43.9	-46.5	24.0	6.06e-01	0	41	0	915406848	58	5158
2026-01-20 12:01:45.52	338.59	21.73	-43.6	-46.4	24.0	6.06e-01	0	41	0	921174016	58	5099
2026-01-20 12:01:48.50	338.71	21.27	-43.4	-46.5	24.0	6.07e-01	0	41	0	926941184	58	5126
2026-01-20 12:01:51.48	338.84	20.82	-43.5	-46.4	24.0	6.09e-01	0	41	0	932184064	58	5077
2026-01-20 12:01:54.47	338.95	20.38	-43.7	-46.3	24.1	6.10e-01	0	41	0	937951232	58	5003
2026-01-20 12:01:57.45	339.07	19.94	-43.7	-46.1	24.3	6.08e-01	0	41	0	943718400	58	4923
2026-01-20 12:02:00.43	339.18	19.52	-43.5	-46.1	24.3	6.07e-01	0	41	0	948961280	58	4888
2026-01-20 12:02:03.42	339.29	19.10	-43.3	-46.0	24.4	6.05e-01	0	41	0	954728448	58	4823
2026-01-20 12:02:06.40	339.40	18.69	-43.4	-45.9	24.5	6.04e-01	0	41	0	960495616	58	4804
2026-01-20 12:02:09.38	339.50	18.28	-43.6	-46.0	24.4	6.08e-01	0	41	0	965738496	58	4857
2026-01-20 12:02:12.37	339.60	17.88	-43.6	-46.0	24.4	6.06e-01	0	41	0	971505664	58	4845
2026-01-20 12:02:15.35	339.70	17.49	-43.5	-46.1	24.3	6.07e-01	0	41	0	977272832	58	4913
2026-01-20 12:02:18.34	339.80	17.11	-43.3	-46.0	24.3	6.06e-01	0	41	0	982515712	58	4859
2026-01-20 12:02:21.33	339.89	16.73	-43.3	-46.1	24.3	6.07e-01	0	41	0	988282880	58	4902
2026-01-20 12:02:24.31	339.99	16.36	-43.3	-46.0	24.3	6.03e-01	0	41	0	994050048	58	4850
2026-01-20 12:02:27.30	340.08	16.00	-43.3	-46.0	24.4	6.05e-01	0	41	0	999292928	58	4829
2026-01-20 12:02:30.28	340.17	15.64	-43.3	-46.1	24.3	6.07e-01	0	41	0	1005060096	58	4879
2026-01-20 12:02:33.27	340.25	15.29	-43.2	-46.1	24.2	6.06e-01	0	41	0	1010827264	58	4917
2026-01-20 12:02:36.25	340.34	14.94	-43.2	-46.3	24.0	6.00e-01	0	41	0	1016070144	58	5021
2026-01-20 12:02:39.24	340.42	14.60	-43.4	-46.3	24.0	6.04e-01	0	41	0	1021837312	58	5036
2026-01-20 12:02:42.22	340.50	14.26	-43.7	-46.4	23.9	6.01e-01	0	41	0	1027604480	58	5086
2026-01-20 12:02:45.21	340.58	13.93	-43.7	-46.5	23.8	6.04e-01	0	41	0	1032847360	58	5121
2026-01-20 12:02:48.19	340.66	13.60	-43.6	-46.5	23.8	6.04e-01	0	41	0	1038614528	58	5142
2026-01-20 12:02:51.17	340.73	13.28	-43.4	-46.5	23.8	6.01e-01	0	41	0	1044381696	58	5123
2026-01-20 12:02:54.16	340.81	12.96	-43.3	-46.6	23.7	6.04e-01	0	41	0	1049624576	58	5199
2026-01-20 12:02:57.15	340.88	12.65	-43.4	-46.5	23.7	6.03e-01	0	41	0	1055391744	58	5154
2026-01-20 12:03:00.13	340.96	12.34	-43.7	-46.6	23.7	6.02e-01	0	41	0	1061158912	58	5212
2026-01-20 12:03:03.12	341.03	12.03	-43.8	-46.7	23.6	6.03e-01	0	41	0	1066401792	58	5254
2026-01-20 12:03:06.10	341.10	11.74	-43.7	-46.7	23.6	6.03e-01	0	41	0	1072168960	58	5254
2026-01-20 12:03:09.09	341.16	11.44	-43.6	-46.8	23.5	6.02e-01	0	41	0	1077936128	58	5305
2026-01-20 12:03:12.07	341.23	11.15	-43.6	-46.7	23.5	6.01e-01	0	41	0	1083179008	58	5237
2026-01-20 12:03:15.06	341.30	10.86	-43.8	-46.8	23.4	6.04e-01	0	41	0	1088946176	58	5335
2026-01-20 12:03:18.04	341.36	10.57	-43.9	-46.9	23.3	6.02e-01	0	41	0	1094713344	58	5378
2026-01-20 12:03:21.03	341.43	10.29	-43.9	-47.1	23.1	6.00e-01	0	41	0	1099956224	58	5480
2026-01-20 12:03:24.01	341.49	10.02	-43.8	-47.1	23.1	6.00e-01	0	41	0	1105723392	58	5471
2026-01-20 12:03:26.99	341.55	9.74	-43.6	-47.1	23.1	6.02e-01	0	41	0	1111490560	58	5482
2026-01-20 12:03:29.98	341.61	9.47	-43.7	-47.3	22.9	6.04e-01	0	41	0	1116733440	58	5626
2026-01-20 12:03:32.96	341.67	9.20	-43.3	-47.2	22.9	6.03e-01	0	41	0	1122500608	58	5566
2026-01-20 12:03:35.95	341.73	8.94	-48.6	-62.9	9.3	6.45e-01	0	41	0	1128267776	67	20300
2026-01-20 12:03:38.93	341.79	8.68	-51.1	-71.7	3.8	7.47e-01	0	41	104	1128267776	72	41884
2026-01-20 12:03:41.91	341.85	8.42	-51.3	-72.1	3.8	7.50e-01	0	41	104	1128267776	73	41224
2026-01-20 12:03:44.89	341.90	8.16	-51.5	-72.2	3.8	7.49e-01	0	41	104	1128267776	75	37183
2026-01-20 12:03:47.87	341.96	7.91	-52.2	-72.3	3.8	7.47e-01	0	41	104	1128267776	74	39712
2026-01-20 12:03:50.85	342.01	7.66	-52.3	-72.3	3.9	7.41e-01	0	41	104	1128267776	75	37504
2026-01-20 12:03:53.83	342.07	7.42	-52.4	-72.3	3.8	7.45e-01	0	41	104	1128267776	75	37480
2026-01-20 12:03:56.81	342.12	7.17	-52.2	-72.3	3.8	7.47e-01	0	41	104	1128267776	75	37382
2026-01-20 1