passes_logs/2026/01/20/T1/T1__20260120_022002_FENGYUN_3D_rec.log

#Pass ID: 20260120_022002_FENGYUN 3D
#Satellite: FENGYUN 3D
#Configuration: FENGYUN 3D
#almurnet v.1.7.20251203
#Start time: 2026-01-20 02:20:02

#Version: 2.0.20230620
#Station: T1
#Location: 37.570604 lon 55.790049 lat
#TLE: 1 43010U 17072A   26019.30265705  .00000224  00000+0  12791-3 0  9991
#TLE: 2 43010  98.9940 351.1850 0002428 100.8496 259.2953 14.19697535423864

#Time	Az	El	Level	Level2	SNR	BER	BlckErr	Temp	State	Recorded	gain1	gain2
2026-01-20 02:20:02.94	13.32	5.04	-49.4	-62.2	3.8	8.48e-01	0	41	0	0	69	16571
2026-01-20 02:20:05.92	13.24	5.25	-49.2	-61.9	3.8	8.49e-01	0	41	104	0	69	16123
2026-01-20 02:20:08.90	13.17	5.46	-49.1	-61.9	3.8	8.47e-01	0	41	104	0	69	16107
2026-01-20 02:20:11.88	13.09	5.67	-49.1	-62.0	3.8	8.47e-01	0	42	104	0	69	16262
2026-01-20 02:20:14.86	13.01	5.89	-49.1	-62.0	3.8	8.47e-01	0	42	104	0	69	16294
2026-01-20 02:20:17.84	12.93	6.10	-49.2	-62.0	3.8	8.47e-01	0	42	104	0	69	16255
2026-01-20 02:20:20.82	12.84	6.32	-49.1	-61.8	3.8	8.47e-01	0	42	104	0	69	15764
2026-01-20 02:20:23.80	12.76	6.54	-49.1	-61.2	3.8	8.47e-01	0	42	104	0	69	14733
2026-01-20 02:20:26.78	12.67	6.77	-49.0	-60.6	3.8	8.46e-01	0	42	104	0	69	13848
2026-01-20 02:20:29.76	12.59	6.99	-49.0	-60.5	3.8	8.47e-01	0	42	104	0	69	13670
2026-01-20 02:20:32.74	12.50	7.22	-49.1	-61.1	3.8	8.47e-01	0	42	104	0	69	14660
2026-01-20 02:20:35.72	12.41	7.44	-49.1	-61.7	3.8	8.47e-01	0	42	104	0	69	15730
2026-01-20 02:20:38.70	12.31	7.67	-49.1	-61.1	3.8	8.47e-01	0	43	104	0	69	14682
2026-01-20 02:20:41.68	12.22	7.91	-48.7	-58.0	4.3	8.34e-01	0	42	0	0	69	10209
2026-01-20 02:20:44.66	12.12	8.14	-47.5	-53.7	7.0	2.27e-01	0	43	0	6291456	67	6963
2026-01-20 02:20:47.64	12.03	8.38	-46.2	-50.6	10.1	1.23e-02	0	43	0	23068672	64	5809
2026-01-20 02:20:50.62	11.93	8.61	-45.2	-48.7	12.1	5.24e-04	0	43	0	39845888	62	5255
2026-01-20 02:20:53.60	11.83	8.85	-45.0	-48.4	12.4	2.31e-04	0	43	0	56623104	61	5369
2026-01-20 02:20:56.59	11.72	9.10	-45.5	-49.2	11.6	1.26e-03	0	43	0	73400320	61	5913
2026-01-20 02:20:59.64	11.62	9.35	-47.6	-53.9	6.9	1.64e-01	0	43	0	90177536	65	8000
2026-01-20 02:21:02.76	11.50	9.61	-40.6	-42.8	17.8	0.00e+00	0	43	0	106954752	53	4467
2026-01-20 02:21:05.79	11.39	9.86	-39.9	-42.1	18.7	0.00e+00	0	43	0	123731968	51	4600
2026-01-20 02:21:09.06	11.27	10.14	-39.8	-41.9	18.8	0.00e+00	0	43	0	142606336	51	4503
2026-01-20 02:21:11.78	11.17	10.37	-39.6	-41.7	19.0	0.00e+00	0	43	0	157286400	51	4439
2026-01-20 02:21:15.05	11.04	10.65	-39.6	-41.7	19.0	0.00e+00	0	43	0	176160768	51	4419
2026-01-20 02:21:17.77	10.93	10.89	-39.7	-41.8	19.0	0.00e+00	0	43	0	191889408	51	4442
2026-01-20 02:21:21.21	10.79	11.20	-39.7	-41.8	19.0	0.00e+00	0	43	0	210763776	51	4470
2026-01-20 02:21:23.91	10.68	11.44	-39.5	-41.6	19.2	0.00e+00	0	43	0	226492416	51	4369
2026-01-20 02:21:27.20	10.54	11.73	-39.6	-41.6	19.2	0.00e+00	0	43	0	244318208	50	4632
2026-01-20 02:21:29.91	10.43	11.98	-39.4	-41.4	19.4	0.00e+00	0	43	0	260046848	50	4536
2026-01-20 02:21:33.13	10.29	12.28	-39.3	-41.3	19.4	0.00e+00	0	43	0	277872640	50	4490
2026-01-20 02:21:35.98	10.16	12.54	-39.2	-41.2	19.6	0.00e+00	0	43	0	293601280	50	4432
2026-01-20 02:21:39.11	10.02	12.83	-39.1	-41.1	19.7	0.00e+00	0	43	0	311427072	50	4342
2026-01-20 02:21:42.41	9.86	13.15	-39.0	-41.0	19.8	0.00e+00	0	43	0	330301440	50	4323
2026-01-20 02:21:45.13	9.73	13.41	-38.9	-40.8	20.0	0.00e+00	0	43	0	344981504	49	4485
2026-01-20 02:21:48.43	9.57	13.73	-38.9	-40.9	19.9	0.00e+00	0	43	0	363855872	49	4512
2026-01-20 02:21:51.14	9.44	14.00	-38.7	-40.6	20.2	0.00e+00	0	43	0	379584512	49	4370
2026-01-20 02:21:54.42	9.27	14.33	-38.7	-40.6	20.2	0.00e+00	0	44	0	397410304	49	4373
2026-01-20 02:21:57.16	9.13	14.60	-38.6	-40.5	20.3	0.00e+00	0	44	0	413138944	49	4316
2026-01-20 02:22:00.43	8.96	14.93	-38.5	-40.4	20.4	0.00e+00	0	44	0	430964736	48	4504
2026-01-20 02:22:03.13	8.81	15.21	-38.6	-40.4	20.4	0.00e+00	0	43	0	446693376	48	4542
2026-01-20 02:22:06.45	8.62	15.56	-38.3	-40.1	20.7	0.00e+00	0	43	0	465567744	48	4369
2026-01-20 02:22:09.17	8.47	15.85	-38.1	-39.9	20.8	0.00e+00	0	44	0	480247808	48	4282
2026-01-20 02:22:12.65	8.27	16.22	-38.0	-39.8	21.0	0.00e+00	0	44	0	500170752	48	4212
2026-01-20 02:22:15.35	8.11	16.51	-37.9	-39.7	20.9	0.00e+00	0	44	0	515899392	47	4397
2026-01-20 02:22:18.81	7.90	16.89	-37.9	-39.7	20.8	0.00e+00	0	44	0	534773760	47	4412
2026-01-20 02:22:21.52	7.73	17.19	-37.9	-39.6	20.9	0.00e+00	0	44	0	550502400	47	4385
2026-01-20 02:22:24.80	7.52	17.56	-37.6	-39.4	21.1	0.00e+00	0	43	0	568328192	47	4256
2026-01-20 02:22:27.50	7.34	17.87	-37.5	-39.3	21.2	0.00e+00	0	43	0	584056832	47	4196
2026-01-20 02:22:31.10	7.10	18.29	-37.6	-39.4	21.2	0.00e+00	0	44	0	603979776	47	4249
2026-01-20 02:22:33.81	6.91	18.61	-37.5	-39.2	21.3	0.00e+00	0	44	0	619708416	46	4438
2026-01-20 02:22:37.15	6.68	19.00	-37.4	-39.1	21.4	0.00e+00	0	44	0	637534208	46	4381
2026-01-20 02:22:39.88	6.48	19.33	-37.3	-39.1	21.4	0.00e+00	0	44	0	653262848	46	4376
2026-01-20 02:22:43.15	6.24	19.73	-37.3	-39.1	21.5	0.00e+00	0	44	0	672137216	46	4356
2026-01-20 02:22:46.16	6.01	20.10	-37.3	-39.1	21.5	0.00e+00	0	43	0	688914432	46	4373
2026-01-20 02:22:49.81	5.72	20.56	-37.2	-38.9	21.6	0.00e+00	0	43	0	708837376	46	4286
2026-01-20 02:22:52.66	5.49	20.93	-37.2	-38.9	21.6	0.00e+00	0	44	0	725614592	46	4275
2026-01-20 02:22:56.64	5.16	21.44	-37.0	-38.8	21.7	0.00e+00	0	44	0	747634688	46	4200
2026-01-20 02:22:59.53	4.91	21.82	-36.9	-38.6	21.9	0.00e+00	0	44	0	764411904	45	4350
2026-01-20 02:23:02.76	4.63	22.26	-36.9	-38.6	21.9	0.00e+00	0	44	0	782237696	45	4365
2026-01-20 02:23:05.84	4.35	22.67	-36.9	-38.6	21.9	0.00e+00	0	44	0	799014912	45	4362
2026-01-20 02:23:08.97	4.06	23.10	-36.7	-38.4	22.1	0.00e+00	0	44	0	816840704	45	4272
2026-01-20 02:23:11.81	3.79	23.50	-36.6	-38.3	22.2	0.00e+00	0	44	0	832569344	45	4206
2026-01-20 02:23:14.94	3.48	23.94	-36.5	-38.2	22.3	0.00e+00	0	44	0	850395136	45	4159
2026-01-20 02:23:17.78	3.19	24.35	-36.4	-38.1	22.4	0.00e+00	0	44	0	866123776	44	4348
2026-01-20 02:23:21.00	2.85	24.82	-36.1	-37.8	22.6	0.00e+00	0	44	0	884998144	44	4227
2026-01-20 02:23:23.93	2.54	25.26	-36.1	-37.8	22.6	0.00e+00	0	44	0	900726784	44	4222
2026-01-20 02:23:27.10	2.19	25.73	-36.0	-37.6	22.8	0.00e+00	0	44	0	919601152	44	4143
2026-01-20 02:23:30.02	1.86	26.18	-35.8	-37.5	22.8	0.00e+00	0	44	0	935329792	43	4292
2026-01-20 02:23:33.01	1.51	26.64	-35.9	-37.5	22.7	0.00e+00	0	44	0	952107008	43	4332
2026-01-20 02:23:35.99	1.14	27.11	-36.0	-37.7	22.6	0.00e+00	0	44	0	968884224	43	4420
2026-01-20 02:23:38.98	0.77	27.59	-36.1	-37.7	22.6	0.00e+00	0	44	0	985661440	43	4441
2026-01-20 02:23:41.96	0.39	28.07	-36.0	-37.6	22.7	0.00e+00	0	44	0	1002438656	43	4380
2026-01-20 02:23:44.95	359.99	28.56	-36.0	-37.7	22.6	0.00e+00	0	44	0	1019215872	43	4399
2026-01-20 02:23:47.93	359.58	29.05	-35.9	-37.6	22.7	0.00e+00	0	44	0	1035993088	43	4364
2026-01-20 02:23:50.92	359.16	29.56	-35.9	-37.5	22.8	0.00e+00	0	44	0	1052770304	43	4338
2026-01-20 02:23:53.90	358.73	30.07	-35.9	-37.5	22.7	0.00e+00	0	44	0	1069547520	43	4334
2026-01-20 02:23:56.92	358.27	30.59	-35.7	-37.4	22.9	0.00e+00	0	44	0	1086324736	43	4261
2026-01-20 02:23:59.91	357.80	31.12	-35.7	-37.4	22.9	0.00e+00	0	44	0	1104150528	43	4257
2026-01-20 02:24:02.90	357.32	31.65	-35.6	-37.3	23.0	0.00e+00	0	44	0	1120927744	43	4214
2026-01-20 02:24:05.89	356.82	32.20	-35.4	-37.1	23.2	0.00e+00	0	44	0	1136656384	42	4353
2026-01-20 02:24:08.87	356.31	32.74	-35.5	-37.1	23.1	0.00e+00	0	44	0	1154482176	42	4379
2026-01-20 02:24:11.95	355.76	33.32	-35.5	-37.2	23.0	0.00e+00	0	44	0	1171259392	42	4428
2026-01-20 02:24:14.82	355.22	33.86	-35.7	-37.4	22.9	0.00e+00	0	44	0	1186988032	42	4509
2026-01-20 02:24:17.95	354.62	34.46	-35.5	-37.2	23.1	0.00e+00	0	44	0	1204813824	42	4396
2026-01-20 02:24:20.79	354.06	35.01	-35.4	-37.1	23.2	0.00e+00	0	44	0	1220542464	42	4373
2026-01-20 02:24:23.92	353.41	35.62	-35.4	-37.0	23.2	0.00e+00	0	44	0	1238368256	42	4335
2026-01-20 02:24:26.76	352.81	36.18	-35.7	-37.3	23.0	0.00e+00	0	44	0	1255145472	42	4486
2026-01-20 02:24:29.92	352.10	36.81	-35.4	-37.1	23.1	0.00e+00	0	44	0	1271922688	42	4367
2026-01-20 02:24:32.81	351.44	37.40	-35.4	-37.0	23.2	0.00e+00	0	44	0	1288699904	42	4335
2026-01-20 02:24:36.28	350.60	38.11	-35.3	-36.9	23.3	0.00e+00	0	44	0	1308622848	42	4287
2026-01-20 02:24:38.98	349.93	38.67	-35.5	-37.2	23.1	0.00e+00	0	44	0	1323302912	42	4396
2026-01-20 02:24:42.25	349.08	39.35	-35.7	-37.4	23.0	0.00e+00	0	44	0	1342177280	42	4519
2026-01-20 02:24:44.97	348.34	39.93	-35.8	-37.5	22.9	0.00e+00	0	44	0	1356857344	42	4580
2026-01-20 02:24:48.25	347.42	40.62	-35.6	-37.3	23.0	0.00e+00	0	44	0	1375731712	42	4458
2026-01-20 02:24:51.08	346.59	41.23	-35.4	-37.0	23.2	0.00e+00	0	43	0	1391460352	42	4332
2026-01-20 02:24:54.20	345.64	41.89	-35.7	-37.3	23.0	0.00e+00	0	44	0	1409286144	42	4484
2026-01-20 02:24:57.04	344.74	42.51	-35.9	-37.5	22.8	0.00e+00	0	44	0	1425014784	42	4598
2026-01-20 02:25:00.17	343.71	43.18	-35.9	-37.6	22.8	0.00e+00	0	44	0	1442840576	42	4601
2026-01-20 02:25:03.10	342.70	43.82	-35.7	-37.3	23.0	0.00e+00	0	44	0	1459617792	42	4485
2026-01-20 02:25:06.30	341.55	44.51	-36.1	-37.8	22.6	0.00e+00	0	44	0	1477443584	43	4461
2026-01-20 02:25:09.24	340.45	45.15	-35.8	-37.4	23.0	0.00e+00	0	44	0	1493172224	43	4264
2026-01-20 02:25:12.37	339.23	45.82	-36.0	-37.7	22.7	0.00e+00	0	44	0	1510998016	43	4423
2026-01-20 02:25:15.21	338.08	46.43	-35.7	-37.4	23.0	0.00e+00	0	44	0	1526726656	43	4256
2026-01-20 02:25:18.34	336.75	47.09	-36.2	-37.9	22.6	0.00e+00	0	44	0	1544552448	43	4514
2026-01-20 02:25:21.19	335.50	47.69	-36.3	-38.0	22.5	0.00e+00	0	44	0	1560281088	43	4548
2026-01-20 02:25:24.32	334.06	48.34	-36.8	-38.6	22.1	0.00e+00	0	44	0	1578106880	44	4599
2026-01-20 02:25:27.35	332.61	48.96	-36.8	-38.5	22.2	0.00e+00	0	44	0	1595932672	44	4548
2026-01-20 02:25:30.40	331.09	49.57	-36.8	-38.4	22.2	0.00e+00	0	44	0	1612709888	44	4540
2026-01-20 02:25:33.39	329.54	50.16	-36.9	-38.6	22.1	0.00e+00	0	44	0	1629487104	44	4617
2026-01-20 02:25:36.37	327.93	50.72	-37.4	-39.1	21.6	0.00e+00	0	44	0	1646264320	45	4631
2026-01-20 02:25:39.35	326.27	51.27	-37.0	-38.7	22.0	0.00e+00	0	44	0	1663041536	45	4408
2026-01-20 02:25:42.37	324.51	51.81	-37.1	-38.8	21.9	0.00e+00	0	44	0	1679818752	45	4467
2026-01-20 02:25:45.35	322.72	52.32	-36.9	-38.6	22.1	0.00e+00	0	44	0	1696595968	45	4371
2026-01-20 02:25:48.33	320.87	52.80	-36.7	-38.4	22.2	0.00e+00	0	44	0	1713373184	45	4258
2026-01-20 02:25:51.32	318.95	53.25	-37.1	-38.8	21.9	0.00e+00	0	44	0	1730150400	45	4488
2026-01-20 02:25:54.38	316.93	53.69	-36.4	-38.0	22.5	0.00e+00	0	44	0	1746927616	44	4337
2026-01-20 02:25:57.28	314.95	54.07	-36.9	-38.6	22.1	0.00e+00	0	44	0	1763704832	44	4615
2026-01-20 02:26:00.77	312.51	54.48	-36.4	-38.1	22.6	0.00e+00	0	44	0	1783627776	44	4356
2026-01-20 02:26:03.48	310.57	54.77	-36.2	-37.9	22.7	0.00e+00	0	44	0	1798307840	44	4267
2026-01-20 02:26:06.77	308.15	55.07	-36.6	-38.3	21.9	0.00e+00	0	44	0	1817182208	44	4476
2026-01-20 02:26:09.53	306.09	55.29	-36.6	-38.4	21.8	0.00e+00	0	44	0	1832910848	44	4514
2026-01-20 02:26:13.03	303.44	55.52	-36.5	-38.2	22.0	0.00e+00	0	44	0	1852833792	44	4421
2026-01-20 02:26:15.95	301.20	55.65	-35.5	-37.9	22.2	0.00e+00	0	44	0	1868562432	43	4523
2026-01-20 02:26:19.27	298.62	55.76	-36.4	-38.3	21.8	0.00e+00	0	44	0	1887436800	43	4723
2026-01-20 02:26:21.99	296.50	55.81	-36.4	-38.1	21.9	0.00e+00	0	44	0	1903165440	43	4641
2026-01-20 02:26:25.27	293.94	55.81	-36.0	-37.7	22.3	0.00e+00	0	44	0	1920991232	43	4438
2026-01-20 02:26:27.99	291.82	55.77	-36.5	-38.2	21.9	0.00e+00	0	44	0	1936719872	43	4694
2026-01-20 02:26:31.57	289.04	55.66	-36.0	-37.7	22.3	0.00e+00	0	44	0	1956642816	43	4435
2026-01-20 02:26:34.29	286.95	55.53	-36.2	-37.9	22.1	0.00e+00	0	44	0	1972371456	43	4506
2026-01-20 02:26:37.56	284.47	55.32	-36.0	-37.7	22.4	0.00e+00	0	44	0	1990197248	43	4418
2026-01-20 02:26:40.26	282.44	55.12	-36.1	-37.9	22.2	0.00e+00	0	44	0	2005925888	43	4494
2026-01-20 02:26:43.52	280.04	54.82	-36.1	-37.9	22.1	0.00e+00	0	44	0	2023751680	43	4494
2026-01-20 02:26:46.35	278.00	54.53	-36.1	-37.9	22.2	0.00e+00	0	44	0	2039480320	43	4497
2026-01-20 02:26:49.76	275.61	54.13	-36.0	-37.7	22.4	0.00e+00	0	44	0	2059403264	43	4430
2026-01-20 02:26:52.48	273.74	53.78	-36.0	-37.7	22.4	0.00e+00	0	44	0	2074083328	43	4394
2026-01-20 02:26:55.77	271.55	53.32	-35.8	-37.5	22.5	0.00e+00	0	44	0	2092957696	43	4326
2026-01-20 02:26:58.50	269.78	52.91	-36.0	-37.8	22.2	0.00e+00	0	44	0	2108686336	43	4457
2026-01-20 02:27:01.83	267.70	52.37	-36.0	-37.8	22.3	0.00e+00	0	44	0	2126512128	43	4443
2026-01-20 02:27:04.62	266.01	51.90	-36.0	-37.7	22.4	0.00e+00	0	44	0	2142240768	43	4420
2026-01-20 02:27:07.91	264.09	51.32	-36.5	-38.2	21.9	0.00e+00	0	44	0	2161115136	43	4705
2026-01-20 02:27:10.62	262.56	50.82	-36.2	-37.9	22.2	0.00e+00	0	44	0	2176843776	43	4498
2026-01-20 02:27:14.00	260.73	50.18	-36.1	-37.8	22.2	0.00e+00	0	44	0	2195718144	43	4485
2026-01-20 02:27:16.75	259.29	49.64	-35.9	-37.6	22.4	0.00e+00	0	44	0	2211446784	43	4363
2026-01-20 02:27:20.07	257.63	48.97	-36.1	-37.8	22.2	0.00e+00	0	44	0	2229272576	43	4468
2026-01-20 02:27:22.88	256.28	48.40	-36.1	-37.8	22.2	0.00e+00	0	44	0	2245001216	43	4489
2026-01-20 02:27:26.21	254.74	47.71	-35.5	-37.2	22.7	0.00e+00	0	44	0	2263875584	42	4433
2026-01-20 02:27:28.95	253.52	47.13	-35.3	-37.0	22.8	0.00e+00	0	44	0	2279604224	42	4306
2026-01-20 02:27:32.22	252.13	46.43	-35.5	-37.2	22.6	0.00e+00	0	44	0	2297430016	42	4417
2026-01-20 02:27:35.20	250.92	45.79	-35.6	-37.3	22.6	0.00e+00	0	44	0	2314207232	42	4457
2026-01-20 02:27:38.58	249.60	45.06	-35.1	-36.8	23.0	0.00e+00	0	44	0	2333081600	42	4212
2026-01-20 02:27:41.50	248.50	44.43	-35.1	-36.8	23.0	0.00e+00	0	44	0	2349858816	42	4223
2026-01-20 02:27:44.78	247.33	43.71	-35.4	-37.2	22.7	0.00e+00	0	44	0	2368733184	42	4400
2026-01-20 02:27:47.49	246.40	43.12	-35.2	-36.9	22.9	0.00e+00	0	44	0	2383413248	42	4266
2026-01-20 02:27:50.76	245.32	42.41	-35.0	-36.6	23.1	0.00e+00	0	44	0	2402287616	42	4145
2026-01-20 02:27:53.50	244.45	41.82	-35.2	-36.9	22.8	0.00e+00	0	44	0	2416967680	41	4518
2026-01-20 02:27:56.78	243.45	41.12	-35.2	-36.9	22.8	0.00e+00	0	44	0	2435842048	41	4518
2026-01-20 02:27:59.67	242.61	40.50	-35.3	-37.0	22.6	0.00e+00	0	44	0	2452619264	41	4595
2026-01-20 02:28:02.97	241.68	39.79	-34.8	-36.5	23.1	0.00e+00	0	44	0	2470445056	41	4324
2026-01-20 02:28:05.69	240.95	39.22	-35.1	-36.8	22.8	0.00e+00	0	44	0	2486173696	41	4465
2026-01-20 02:28:08.99	240.09	38.53	-35.2	-37.0	22.7	0.00e+00	0	44	0	2505048064	41	4548
2026-01-20 02:28:11.71	239.41	37.97	-35.4	-37.1	22.6	0.00e+00	0	44	0	2519728128	41	4616
2026-01-20 02:28:14.98	238.63	37.29	-35.5	-37.3	22.4	0.00e+00	0	44	0	2538602496	41	4725
2026-01-20 02:28:17.96	237.94	36.69	-35.3	-37.0	22.6	0.00e+00	0	44	0	2555379712	41	4571
2026-01-20 02:28:21.25	237.21	36.03	-35.1	-36.8	22.8	0.00e+00	0	44	0	2574254080	41	4450
2026-01-20 02:28:23.98	236.63	35.48	-35.2	-36.9	22.8	0.00e+00	0	44	0	2588934144	41	4512
2026-01-20 02:28:27.27	235.95	34.84	-35.0	-36.7	23.0	0.00e+00	0	44	0	2607808512	41	4417
2026-01-20 02:28:30.07	235.40	34.29	-34.9	-36.6	23.0	0.00e+00	0	44	0	2623537152	41	4359
2026-01-20 02:28:33.67	234.71	33.61	-34.7	-36.4	23.2	0.00e+00	0	44	0	2643460096	41	4256
2026-01-20 02:28:36.69	234.15	33.04	-34.8	-36.5	23.1	0.00e+00	0	44	0	2660237312	41	4292
2026-01-20 02:28:39.72	233.62	32.47	-34.9	-36.6	23.1	0.00e+00	0	44	0	2677014528	41	4342
2026-01-20 02:28:43.01	233.05	31.87	-35.0	-36.7	22.9	0.00e+00	0	44	0	2695888896	41	4393
2026-01-20 02:28:45.75	232.60	31.37	-35.3	-37.0	22.7	0.00e+00	0	44	0	2711617536	41	4577
2026-01-20 02:28:49.02	232.08	30.79	-35.4	-37.1	22.5	0.00e+00	0	44	0	2729443328	41	4644
2026-01-20 02:28:51.86	231.64	30.29	-35.6	-37.3	22.4	0.00e+00	0	44	0	2746220544	41	4757
2026-01-20 02:28:55.42	231.11	29.67	-35.3	-37.1	22.7	0.00e+00	0	44	0	2766143488	41	4605
2026-01-20 02:28:58.42	230.68	29.16	-35.2	-36.9	22.8	0.00e+00	0	44	0	2782920704	41	4534
2026-01-20 02:29:01.40	230.26	28.66	-35.5	-37.2	22.5	0.00e+00	0	44	0	2799697920	41	4691
2026-01-20 02:29:04.39	229.86	28.17	-35.8	-37.5	22.2	0.00e+00	0	44	0	2816475136	42	4598
2026-01-20 02:29:07.37	229.47	27.68	-35.8	-37.5	22.2	0.00e+00	0	44	0	2833252352	42	4578
2026-01-20 02:29:10.36	229.09	27.20	-35.6	-37.4	22.4	0.00e+00	0	44	0	2850029568	42	4506
2026-01-20 02:29:13.34	228.72	26.73	-35.5	-37.2	22.4	0.00e+00	0	44	0	2866806784	42	4434
2026-01-20 02:29:16.33	228.36	26.26	-35.6	-37.3	22.4	0.00e+00	0	44	0	2883584000	42	4454
2026-01-20 02:29:19.31	228.02	25.80	-35.7	-37.4	22.4	0.00e+00	0	44	0	2900361216	42	4515
2026-01-20 02:29:22.29	227.68	25.35	-35.8	-37.6	22.2	0.00e+00	0	44	0	2917138432	42	4617
2026-01-20 02:29:25.28	227.35	24.90	-35.9	-37.6	22.1	0.00e+00	0	44	0	2933915648	42	4649
2026-01-20 02:29:28.55	227.01	24.42	-35.8	-37.6	22.2	0.00e+00	0	44	0	2952790016	42	4610
2026-01-20 02:29:31.47	226.71	24.00	-35.8	-37.5	22.2	0.00e+00	0	44	0	2968518656	42	4561
2026-01-20 02:29:34.74	226.38	23.53	-35.8	-37.6	22.2	0.00e+00	0	44	0	2987393024	42	4612
2026-01-20 02:29:37.47	226.11	23.15	-36.0	-37.8	22.0	0.00e+00	0	44	0	3002073088	42	4734
2026-01-20 02:29:40.78	225.80	22.69	-36.2	-37.9	21.9	0.00e+00	0	44	0	3020947456	43	4543
2026-01-20 02:29:43.60	225.54	22.30	-36.1	-37.9	21.9	0.00e+00	0	44	0	3036676096	43	4522
2026-01-20 02:29:46.87	225.25	21.86	-36.2	-38.0	21.9	0.00e+00	0	44	0	3055550464	43	4555
2026-01-20 02:29:49.76	224.99	21.47	-36.2	-38.0	21.8	0.00e+00	0	44	0	3071279104	43	4572
2026-01-20 02:29:52.89	224.73	21.06	-36.5	-38.2	21.6	0.00e+00	0	44	0	3089104896	43	4703
2026-01-20 02:29:55.73	224.49	20.70	-36.3	-38.1	21.7	0.00e+00	0	44	0	3104833536	43	4628
2026-01-20 02:29:58.92	224.24	20.29	-36.4	-38.2	21.7	0.00e+00	0	44	0	3122659328	43	4677
2026-01-20 02:30:01.87	224.00	19.92	-36.6	-38.4	21.5	0.00e+00	0	44	0	3139436544	43	4767
2026-01-20 02:30:05.14	223.75	19.52	-36.9	-38.7	21.4	0.00e+00	0	44	0	3158310912	44	4676
2026-01-20 02:30:07.98	223.54	19.17	-37.0	-38.8	21.3	0.00e+00	0	44	0	3174039552	44	4753
2026-01-20 02:30:11.14	223.31	18.79	-37.1	-38.9	21.2	0.00e+00	0	44	0	3191865344	45	4527
2026-01-20 02:30:14.05	223.10	18.44	-37.2	-39.0	21.1	0.00e+00	0	44	0	3208642560	45	4574
2026-01-20 02:30:17.04	222.90	18.09	-37.3	-39.1	21.1	0.00e+00	0	44	0	3224371200	45	4638
2026-01-20 02:30:20.02	222.69	17.74	-37.3	-39.1	21.1	0.00e+00	0	44	0	3242196992	45	4609
2026-01-20 02:30:23.01	222.50	17.40	-37.4	-39.2	20.9	0.00e+00	0	44	0	3258974208	45	4701
2026-01-20 02:30:25.99	222.30	17.07	-37.3	-39.1	21.0	0.00e+00	0	44	0	3274702848	45	4646
2026-01-20 02:30:28.97	222.12	16.73	-37.5	-39.3	20.8	0.00e+00	0	44	0	3292528640	45	4742
2026-01-20 02:30:31.96	221.93	16.40	-37.6	-39.4	20.8	0.00e+00	0	44	0	3309305856	45	4781
2026-01-20 02:30:34.94	221.75	16.08	-37.7	-39.6	20.6	0.00e+00	0	44	0	3325034496	46	4608
2026-01-20 02:30:37.98	221.57	15.75	-37.9	-39.7	20.4	0.00e+00	0	44	0	3342860288	46	4694
2026-01-20 02:30:40.96	221.40	15.44	-38.0	-39.9	20.3	0.00e+00	0	44	0	3359637504	46	4776
2026-01-20 02:30:43.95	221.23	15.12	-38.1	-39.9	20.3	0.00e+00	0	44	0	3376414720	46	4804
2026-01-20 02:30:46.93	221.07	14.81	-38.2	-40.1	20.1	0.00e+00	0	44	0	3393191936	47	4633
2026-01-20 02:30:49.92	220.90	14.51	-38.3	-40.1	20.1	0.00e+00	0	44	0	3409969152	47	4640
2026-01-20 02:30:52.91	220.75	14.21	-38.3	-40.2	20.0	0.00e+00	0	44	0	3426746368	47	4688
2026-01-20 02:30:55.90	220.59	13.91	-38.4	-40.3	19.9	0.00e+00	0	44	0	3443523584	47	4748
2026-01-20 02:30:58.88	220.44	13.61	-38.5	-40.4	19.9	0.00e+00	0	44	0	3460300800	47	4791
2026-01-20 02:31:01.87	220.29	13.32	-38.6	-40.5	19.7	0.00e+00	0	44	0	3477078016	47	4832
2026-01-20 02:31:04.85	220.15	13.03	-38.6	-40.5	19.9	0.00e+00	0	44	0	3493855232	48	4582
2026-01-20 02:31:07.84	220.00	12.75	-38.7	-40.6	19.9	0.00e+00	0	44	0	3510632448	48	4602
2026-01-20 02:31:10.87	219.86	12.46	-38.7	-40.5	19.9	0.00e+00	0	44	0	3527409664	48	4584
2026-01-20 02:31:13.85	219.73	12.18	-38.8	-40.6	19.8	0.00e+00	0	44	0	3544186880	48	4641
2026-01-20 02:31:16.84	219.59	11.91	-38.8	-40.6	19.8	0.00e+00	0	44	0	3560964096	48	4641
2026-01-20 02:31:19.82	219.46	11.63	-38.9	-40.8	19.7	0.00e+00	0	44	0	3577741312	48	4713
2026-01-20 02:31:22.81	219.33	11.36	-39.0	-40.9	19.5	0.00e+00	0	44	0	3594518528	48	4782
2026-01-20 02:31:25.81	219.20	11.09	-39.1	-41.0	19.4	0.00e+00	0	44	0	3611295744	48	4844
2026-01-20 02:31:29.04	219.07	10.81	-39.2	-41.1	19.3	0.00e+00	0	44	0	3630170112	49	4639
2026-01-20 02:31:31.97	218.95	10.55	-39.3	-41.3	19.2	0.00e+00	0	44	0	3645898752	49	4717
2026-01-20 02:31:35.25	218.82	10.27	-39.3	-41.3	19.1	0.00e+00	0	44	0	3664773120	49	4727
2026-01-20 02:31:38.09	218.71	10.02	-39.5	-41.5	19.0	0.00e+00	0	44	0	3680501760	49	4841
2026-01-20 02:31:41.52	218.58	9.73	-39.7	-41.7	18.7	0.00e+00	0	44	0	3700424704	50	4693
2026-01-20 02:31:44.22	218.48	9.50	-39.6	-41.5	18.9	0.00e+00	0	44	0	3715104768	50	4594
2026-01-20 02:31:48.13	218.33	9.18	-39.7	-41.7	18.8	0.00e+00	0	44	0	3737124864	50	4665
2026-01-20 02:31:50.97	218.23	8.94	-49.5	-60.6	3.9	0.00e+00	0	44	104	3752853504	70	13107
2026-01-20 02:31:54.98	218.09	8.62	-50.6	-62.7	3.8	8.46e-01	0	44	104	3752853504	71	15746
2026-01-20 02:31:57.94	217.98	8.38	-50.8	-62.9	3.8	8.48e-01	0	44	104	3752853504	72	15077
2026-01-20 02:32:01.68	217.86	8.08	-50.6	-62.8	3.8	8.47e-01	0	44	104	3752853504	72	15051
2026-01-20 02:32:04.50	217.76	7.86	-50.6	-62.9	3.8	8.47e-01	0	44	104	3752853504	72	15067
2026-01-20 02:32:07.85	217.65	7.59	-50.6	-62.8	3.8	8.47e-01	0	44	104	3752853504	72	14928
2026-01-20 02:32:10.56	217.57	7.38	-50.4	-62.8	3.8	8.46e-01	0	44	104	3752853504	72	14957
2026-01-20 02:32:13.82	217.46	7.13	-50.2	-62.7	3.8	8.47e-01	0	44	104	3752853504	72	14832
2026-01-20 02:32:16.55	217.38	6.93	-50.2	-62.8	3.8	8.47e-01	0	44	104	3752853504	72	14893
2026-01-20 02:32:19.81	217.28	6.68	-50.2	-62.7	3.8	8.46e-01	0	44	104	3752853504	72	14790
2026-01-20 02:32:22.51	217.20	6.48	-50.2	-62.7	3.8	8.46e-01	0	44	104	3752853504	72	14865
2026-01-20 02:32:25.79	217.10	6.23	-50.2	-62.8	3.8	8.47e-01	0	44	104	3752853504	72	14925
2026-01-20 02:32:28.49	217.02	6.03	-50.2	-62.7	3.8	8.46e-01	0	44	104	3752853504	72	14750
2026-01-20 02:32:31.75	216.93	5.80	-50.2	-62.7	3.8	8.46e-01	0	44	104	3752853504	72	14803
2026-01-20 02:32:34.45	216.85	5.60	-50.2	-62.7	3.8	8.47e-01	0	44	104	3752853504	72	14793
2026-01-20 02:32:37.71	216.76	5.37	-50.2	-62.7	3.8	8.48e-01	0	44	104	3752853504	72	14742
2026-01-20 02:32:40.42	216.69	5.17	-50.2	-62.7	3.8	8.47e-01	0	44	104	3752853504	72	14806
2026-01-20 02:32:43.70	216.60	4.94	-50.2	-62.7	3.8	8.47e-01	0	44	104	3752853504	72	14841

#Closed at: 2026-01-20 02:32:44
#Recorded file [3752 MB]: D:/Data/31040_260120_052002.dat