passes_logs/2026/01/20/T1/T1__20260120_133253_AQUA_rec.log

#Pass ID: 20260120_133253_AQUA
#Satellite: AQUA
#Configuration: AQUA
#almurnet v.1.7.20251203
#Start time: 2026-01-20 13:32:53

#Version: 2.0.20230620
#Station: T1
#Location: 37.570604 lon 55.790049 lat
#TLE: 1 27424U 02022A   26019.95447505  .00001296  00000+0  26931-3 0  9993
#TLE: 2 27424  98.4091 346.4652 0001983  72.1988 359.6274 14.61832814261618

#Time	Az	El	Level	Level2	SNR	BER	BlckErr	Temp	State	Recorded	gain1	gain2
2026-01-20 13:32:53.19	229.30	5.01	-51.6	-71.5	3.8	7.47e-01	0	36	0	0	74	36440
2026-01-20 13:32:55.18	229.56	5.11	-51.5	-71.5	3.8	7.44e-01	0	36	104	0	73	38412
2026-01-20 13:32:57.17	229.81	5.22	-51.5	-71.5	3.8	7.47e-01	0	36	104	0	73	38366
2026-01-20 13:32:59.17	230.07	5.32	-51.5	-71.5	3.8	7.44e-01	0	37	104	0	73	38328
2026-01-20 13:33:01.16	230.33	5.42	-51.5	-71.4	3.8	7.45e-01	0	37	104	0	73	38210
2026-01-20 13:33:03.16	230.59	5.52	-51.5	-71.4	3.8	7.47e-01	0	37	104	0	73	37914
2026-01-20 13:33:05.15	230.85	5.62	-51.5	-71.4	3.8	7.47e-01	0	37	104	0	73	38003
2026-01-20 13:33:07.15	231.12	5.72	-51.5	-71.4	3.8	7.46e-01	0	37	104	0	73	37852
2026-01-20 13:33:09.14	231.39	5.82	-51.5	-71.3	3.8	7.45e-01	0	37	104	0	73	37603
2026-01-20 13:33:11.14	231.66	5.93	-51.5	-71.2	3.8	7.46e-01	0	37	104	0	73	37000
2026-01-20 13:33:13.13	231.93	6.03	-51.5	-71.2	3.8	7.43e-01	0	37	104	0	73	37003
2026-01-20 13:33:15.13	232.20	6.13	-51.5	-71.3	3.8	7.45e-01	0	37	104	0	73	37491
2026-01-20 13:33:17.12	232.48	6.23	-51.5	-71.3	3.8	7.47e-01	0	37	104	0	73	37560
2026-01-20 13:33:19.12	232.76	6.33	-51.4	-71.2	3.8	7.47e-01	0	37	104	0	73	37276
2026-01-20 13:33:21.11	233.04	6.43	-51.5	-71.4	3.8	7.44e-01	0	37	104	0	73	38000
2026-01-20 13:33:23.11	233.32	6.53	-51.4	-71.4	3.8	7.45e-01	0	37	104	0	73	38028
2026-01-20 13:33:25.11	233.60	6.63	-51.5	-71.4	3.8	7.43e-01	0	37	104	0	73	37825
2026-01-20 13:33:27.10	233.89	6.73	-51.5	-71.2	3.8	7.46e-01	0	38	104	0	73	37259
2026-01-20 13:33:29.10	234.18	6.83	-51.5	-71.1	3.8	7.45e-01	0	38	104	0	73	36828
2026-01-20 13:33:31.10	234.47	6.93	-51.5	-71.1	3.8	7.44e-01	0	38	104	0	73	36723
2026-01-20 13:33:33.09	234.76	7.03	-51.4	-71.2	3.8	7.47e-01	0	38	104	0	73	37063
2026-01-20 13:33:35.09	235.05	7.13	-51.5	-71.3	3.8	7.44e-01	0	38	104	0	73	37646
2026-01-20 13:33:37.08	235.35	7.23	-51.5	-71.3	3.8	7.48e-01	0	38	104	0	73	37728
2026-01-20 13:33:39.08	235.65	7.33	-51.5	-71.2	3.8	7.46e-01	0	38	104	0	73	37034
2026-01-20 13:33:41.07	235.95	7.43	-51.5	-71.3	3.8	7.45e-01	0	38	104	0	73	37781
2026-01-20 13:33:43.06	236.25	7.53	-51.4	-71.2	3.8	7.44e-01	0	38	104	0	73	37274
2026-01-20 13:33:45.06	236.56	7.63	-51.4	-70.6	3.8	7.46e-01	0	38	104	0	73	34800
2026-01-20 13:33:47.06	236.86	7.73	-51.4	-71.0	3.8	7.45e-01	0	38	104	0	73	36331
2026-01-20 13:33:49.05	237.17	7.83	-51.5	-71.4	3.8	7.48e-01	0	38	104	0	73	37991
2026-01-20 13:33:51.05	237.49	7.93	-51.5	-71.1	3.8	7.45e-01	0	38	104	0	73	36853
2026-01-20 13:33:53.05	237.80	8.02	-51.4	-71.2	3.8	7.43e-01	0	38	104	0	73	37219
2026-01-20 13:33:55.04	238.12	8.12	-51.4	-71.3	3.8	7.44e-01	0	38	104	0	73	37383
2026-01-20 13:33:57.04	238.43	8.22	-51.4	-70.9	3.8	7.45e-01	0	38	104	0	73	35760
2026-01-20 13:33:59.03	238.75	8.32	-51.4	-70.9	3.8	7.45e-01	0	38	104	0	73	35927
2026-01-20 13:34:01.03	239.08	8.41	-51.3	-66.5	4.7	7.20e-01	0	38	104	0	73	21683
2026-01-20 13:34:03.03	239.40	8.51	-51.4	-67.7	4.3	7.32e-01	0	38	104	0	73	24852
2026-01-20 13:34:05.03	239.73	8.61	-51.0	-62.0	7.8	6.48e-01	0	38	0	0	73	12886
2026-01-20 13:34:07.02	240.06	8.70	-48.5	-53.1	17.1	6.08e-01	0	38	0	4194304	69	5854
2026-01-20 13:34:09.02	240.39	8.80	-46.9	-50.5	19.7	6.07e-01	0	38	0	7864320	65	5408
2026-01-20 13:34:11.02	240.73	8.89	-47.2	-51.1	19.1	6.07e-01	0	38	0	11534336	65	5801
2026-01-20 13:34:13.01	241.06	8.99	-49.2	-54.7	15.6	6.09e-01	0	38	0	15204352	69	7036
2026-01-20 13:34:15.00	241.40	9.08	-51.1	-61.4	8.8	6.37e-01	0	38	0	18874368	72	12731
2026-01-20 13:34:17.00	241.74	9.17	-50.9	-61.4	8.8	6.37e-01	0	38	0	22544384	72	12690
2026-01-20 13:34:18.99	242.09	9.27	-46.7	-50.1	20.2	6.07e-01	0	38	0	26214400	65	5185
2026-01-20 13:34:20.98	242.43	9.36	-46.5	-49.9	20.3	6.07e-01	0	38	0	29884416	65	5046
2026-01-20 13:34:22.97	242.78	9.45	-45.8	-48.9	21.4	6.07e-01	0	38	0	34078720	63	5049
2026-01-20 13:34:24.96	243.13	9.54	-45.1	-47.9	22.3	6.08e-01	0	39	0	37748736	62	4802
2026-01-20 13:34:26.96	243.48	9.63	-45.1	-47.9	22.4	6.06e-01	0	38	0	41418752	61	5044
2026-01-20 13:34:28.95	243.84	9.73	-44.9	-47.7	22.5	6.06e-01	0	38	0	45088768	61	4963
2026-01-20 13:34:30.94	244.19	9.81	-45.0	-47.7	21.6	6.06e-01	0	39	0	48758784	61	4977
2026-01-20 13:34:32.92	244.55	9.90	-45.0	-47.8	22.4	6.06e-01	0	39	0	52428800	61	4991
2026-01-20 13:34:34.92	244.91	9.99	-45.0	-47.8	22.4	6.04e-01	0	39	0	56098816	61	5017
2026-01-20 13:34:36.91	245.27	10.08	-44.9	-47.6	22.6	6.08e-01	0	39	0	59768832	61	4914
2026-01-20 13:34:38.91	245.64	10.17	-44.9	-47.7	22.5	6.05e-01	0	38	0	63963136	61	4931
2026-01-20 13:34:40.91	246.01	10.26	-44.8	-47.5	22.7	6.05e-01	0	39	0	67633152	61	4841
2026-01-20 13:34:42.90	246.38	10.34	-44.7	-47.4	22.7	6.06e-01	0	39	0	71303168	61	4809
2026-01-20 13:34:44.89	246.75	10.43	-44.7	-47.4	22.8	6.08e-01	0	39	0	74973184	61	4775
2026-01-20 13:34:46.89	247.13	10.51	-44.8	-47.5	22.7	6.07e-01	0	39	0	78643200	61	4846
2026-01-20 13:34:48.88	247.51	10.60	-44.7	-47.4	22.8	6.07e-01	0	39	0	82313216	61	4808
2026-01-20 13:34:50.87	247.89	10.68	-44.6	-47.3	22.9	6.06e-01	0	39	0	85983232	61	4729
2026-01-20 13:34:52.86	248.27	10.76	-44.8	-47.5	22.7	6.06e-01	0	39	0	89653248	61	4817
2026-01-20 13:34:54.86	248.65	10.85	-44.7	-47.4	22.8	6.08e-01	0	38	0	93847552	61	4813
2026-01-20 13:34:56.85	249.04	10.93	-44.7	-47.4	22.8	6.06e-01	0	39	0	97517568	61	4773
2026-01-20 13:34:58.84	249.43	11.01	-44.6	-47.2	22.9	6.07e-01	0	39	0	101187584	61	4703
2026-01-20 13:35:00.84	249.82	11.09	-44.7	-47.4	22.8	6.08e-01	0	39	0	104857600	61	4796
2026-01-20 13:35:02.83	250.21	11.17	-44.7	-47.3	22.9	6.07e-01	0	39	0	108527616	61	4742
2026-01-20 13:35:04.83	250.61	11.24	-44.5	-47.1	23.1	6.08e-01	0	39	0	112197632	61	4632
2026-01-20 13:35:06.82	251.01	11.32	-44.7	-47.4	22.8	6.09e-01	0	39	0	115867648	61	4765
2026-01-20 13:35:08.82	251.41	11.40	-44.6	-47.2	23.0	6.06e-01	0	38	0	120061952	60	4960
2026-01-20 13:35:10.82	251.81	11.47	-44.6	-47.4	22.9	6.07e-01	0	39	0	123731968	60	5056
2026-01-20 13:35:12.81	252.22	11.55	-44.6	-47.3	22.9	6.07e-01	0	39	0	127401984	60	5025
2026-01-20 13:35:14.81	252.62	11.62	-44.4	-47.0	23.2	6.06e-01	0	39	0	131072000	60	4851
2026-01-20 13:35:16.80	253.03	11.69	-44.6	-47.3	22.9	6.08e-01	0	39	0	134742016	60	5015
2026-01-20 13:35:18.79	253.44	11.76	-44.6	-47.3	23.0	6.06e-01	0	39	0	138412032	60	4986
2026-01-20 13:35:20.78	253.85	11.83	-44.5	-47.2	23.1	6.09e-01	0	39	0	142082048	60	4927
2026-01-20 13:35:22.78	254.27	11.90	-44.3	-47.0	23.2	6.06e-01	0	39	0	145752064	60	4827
2026-01-20 13:35:24.77	254.68	11.97	-44.3	-47.0	23.3	6.06e-01	0	39	0	149946368	60	4826
2026-01-20 13:35:26.76	255.10	12.04	-44.5	-47.2	23.0	6.06e-01	0	39	0	153616384	60	4928
2026-01-20 13:35:28.75	255.52	12.10	-44.4	-47.0	23.2	6.07e-01	0	39	0	157286400	60	4845
2026-01-20 13:35:30.74	255.94	12.17	-44.4	-47.0	23.2	6.07e-01	0	39	0	160956416	60	4857
2026-01-20 13:35:32.74	256.37	12.23	-44.4	-47.1	23.2	6.06e-01	0	39	0	164626432	60	4872
2026-01-20 13:35:34.74	256.80	12.29	-44.4	-47.0	23.2	6.07e-01	0	39	0	168296448	60	4861
2026-01-20 13:35:36.73	257.22	12.35	-44.4	-47.1	23.2	6.07e-01	0	39	0	171966464	60	4880
2026-01-20 13:35:38.72	257.65	12.41	-44.3	-46.9	23.3	6.07e-01	0	39	0	175636480	60	4782
2026-01-20 13:35:40.72	258.09	12.47	-44.2	-46.8	23.4	6.05e-01	0	39	0	179830784	60	4717
2026-01-20 13:35:42.71	258.52	12.53	-44.4	-47.0	23.3	6.04e-01	0	39	0	183500800	60	4835
2026-01-20 13:35:44.70	258.95	12.59	-44.5	-47.1	23.1	6.08e-01	0	39	0	187170816	60	4914
2026-01-20 13:35:46.70	259.39	12.64	-44.2	-46.9	23.4	6.07e-01	0	39	0	190840832	60	4768
2026-01-20 13:35:48.69	259.83	12.69	-44.4	-47.2	23.1	6.06e-01	0	39	0	194510848	60	4933
2026-01-20 13:35:50.68	260.27	12.75	-44.1	-46.8	23.5	6.05e-01	0	39	0	198180864	60	4720
2026-01-20 13:35:52.67	260.71	12.80	-44.3	-47.0	23.3	6.06e-01	0	39	0	201850880	60	4824
2026-01-20 13:35:54.66	261.15	12.85	-44.3	-46.9	23.3	6.07e-01	0	39	0	205520896	60	4805
2026-01-20 13:35:56.66	261.60	12.89	-44.2	-46.8	23.5	6.07e-01	0	39	0	209715200	60	4709
2026-01-20 13:35:58.65	262.05	12.94	-44.2	-46.8	23.4	6.07e-01	0	39	0	213385216	60	4745
2026-01-20 13:36:00.64	262.49	12.99	-44.1	-46.7	23.5	6.08e-01	0	39	0	217055232	60	4679
2026-01-20 13:36:02.63	262.94	13.03	-44.2	-46.8	23.4	6.07e-01	0	39	0	220725248	60	4747
2026-01-20 13:36:04.62	263.39	13.07	-44.1	-46.8	23.4	6.05e-01	0	39	0	224395264	60	4735
2026-01-20 13:36:06.61	263.84	13.11	-44.1	-46.7	23.5	6.06e-01	0	39	0	228065280	60	4675
2026-01-20 13:36:08.60	264.30	13.15	-44.1	-46.8	23.4	6.03e-01	0	39	0	231735296	60	4708
2026-01-20 13:36:10.60	264.75	13.19	-44.2	-46.7	23.5	6.03e-01	0	39	0	235929600	60	4699
2026-01-20 13:36:12.59	265.21	13.23	-44.1	-46.7	23.6	6.07e-01	0	39	0	239599616	60	4665
2026-01-20 13:36:14.59	265.66	13.26	-44.1	-46.8	23.5	6.05e-01	0	39	0	243269632	60	4721
2026-01-20 13:36:16.59	266.12	13.29	-44.1	-46.7	23.5	6.08e-01	0	39	0	246939648	60	4666
2026-01-20 13:36:18.59	266.58	13.33	-44.2	-46.8	23.4	6.10e-01	0	39	0	250609664	60	4743
2026-01-20 13:36:20.58	267.04	13.36	-44.1	-46.7	23.6	6.07e-01	0	39	0	254279680	60	4661
2026-01-20 13:36:22.58	267.51	13.38	-44.1	-46.8	23.5	6.05e-01	0	39	0	257949696	60	4710
2026-01-20 13:36:24.58	267.97	13.41	-44.1	-46.7	23.5	6.06e-01	0	39	0	261619712	60	4676
2026-01-20 13:36:26.57	268.43	13.44	-44.1	-46.8	23.5	6.09e-01	0	39	0	265814016	60	4710
2026-01-20 13:36:28.57	268.89	13.46	-44.2	-46.8	23.5	6.06e-01	0	39	0	269484032	60	4732
2026-01-20 13:36:30.57	269.36	13.48	-44.0	-46.6	23.6	6.08e-01	0	39	0	273154048	60	4633
2026-01-20 13:36:32.55	269.82	13.50	-44.1	-46.7	23.5	6.07e-01	0	39	0	276824064	60	4671
2026-01-20 13:36:34.55	270.29	13.52	-44.3	-46.9	23.4	6.04e-01	0	39	0	280494080	60	4784
2026-01-20 13:36:36.54	270.75	13.54	-44.1	-46.7	23.5	6.07e-01	0	39	0	284164096	60	4683
2026-01-20 13:36:38.53	271.22	13.56	-44.2	-46.8	23.5	6.08e-01	0	39	0	287834112	60	4745
2026-01-20 13:36:40.52	271.68	13.57	-44.1	-46.8	23.5	6.07e-01	0	39	0	291504128	60	4710
2026-01-20 13:36:42.52	272.15	13.58	-44.1	-46.6	23.6	6.06e-01	0	39	0	295698432	60	4645
2026-01-20 13:36:44.51	272.62	13.59	-44.2	-46.7	23.5	6.06e-01	0	39	0	299368448	60	4700
2026-01-20 13:36:46.51	273.09	13.60	-44.0	-46.5	23.7	6.06e-01	0	39	0	303038464	60	4570
2026-01-20 13:36:48.50	273.56	13.61	-44.2	-46.8	23.5	6.05e-01	0	39	0	306708480	60	4756
2026-01-20 13:36:50.50	274.03	13.61	-44.2	-46.8	23.5	6.05e-01	0	39	0	310378496	60	4725
2026-01-20 13:36:52.49	274.49	13.62	-44.1	-46.7	23.6	6.08e-01	0	39	0	314048512	60	4670
2026-01-20 13:36:54.49	274.96	13.62	-44.1	-46.6	23.6	6.05e-01	0	39	0	317718528	60	4643
2026-01-20 13:36:56.49	275.43	13.62	-44.3	-46.9	23.4	6.08e-01	0	39	0	321912832	60	4760
2026-01-20 13:36:58.48	275.90	13.62	-44.2	-46.7	23.5	6.07e-01	0	39	0	325582848	60	4699
2026-01-20 13:37:00.47	276.37	13.62	-44.1	-46.6	23.6	6.06e-01	0	39	0	329252864	60	4648
2026-01-20 13:37:02.47	276.84	13.61	-44.0	-46.6	23.6	6.07e-01	0	39	0	332922880	60	4633
2026-01-20 13:37:04.46	277.31	13.61	-44.1	-46.8	23.5	6.08e-01	0	39	0	336592896	60	4713
2026-01-20 13:37:06.46	277.78	13.60	-44.2	-46.9	23.4	6.06e-01	0	39	0	340262912	60	4766
2026-01-20 13:37:08.45	278.24	13.59	-44.0	-46.6	23.7	6.08e-01	0	39	0	343932928	60	4602
2026-01-20 13:37:10.44	278.71	13.58	-44.2	-46.8	23.5	6.05e-01	0	39	0	347602944	59	5022
2026-01-20 13:37:12.44	279.18	13.56	-44.3	-46.9	23.5	6.07e-01	0	39	0	351797248	59	5082
2026-01-20 13:37:14.43	279.64	13.55	-44.3	-46.8	23.5	6.07e-01	0	39	0	355467264	59	5029
2026-01-20 13:37:16.43	280.11	13.53	-44.3	-46.9	23.4	6.07e-01	0	39	0	359137280	59	5087
2026-01-20 13:37:18.42	280.57	13.52	-44.3	-46.8	23.6	6.06e-01	0	39	0	362807296	59	5004
2026-01-20 13:37:20.42	281.04	13.50	-44.4	-46.9	23.5	6.07e-01	0	39	0	366477312	59	5079
2026-01-20 13:37:22.41	281.50	13.47	-44.4	-47.0	23.4	6.08e-01	0	39	0	370147328	59	5121
2026-01-20 13:37:24.41	281.97	13.45	-44.4	-47.0	23.4	6.07e-01	0	39	0	373817344	59	5120
2026-01-20 13:37:26.41	282.43	13.43	-44.4	-47.0	23.4	6.07e-01	0	39	0	378011648	59	5118
2026-01-20 13:37:28.40	282.89	13.40	-44.4	-46.9	23.4	6.06e-01	0	39	0	381681664	59	5088
2026-01-20 13:37:30.39	283.35	13.37	-44.4	-47.0	23.4	6.03e-01	0	39	0	385351680	59	5125
2026-01-20 13:37:32.38	283.81	13.35	-44.4	-47.0	23.4	6.07e-01	0	39	0	389021696	59	5107
2026-01-20 13:37:34.38	284.27	13.31	-44.3	-46.9	23.4	6.05e-01	0	39	0	392691712	59	5092
2026-01-20 13:37:36.37	284.73	13.28	-44.3	-46.9	23.5	6.06e-01	0	39	0	396361728	59	5061
2026-01-20 13:37:38.37	285.18	13.25	-44.4	-47.0	23.4	6.07e-01	0	39	0	400031744	59	5108
2026-01-20 13:37:40.36	285.64	13.21	-44.4	-47.0	23.3	6.06e-01	0	39	0	404226048	59	5153
2026-01-20 13:37:42.36	286.09	13.18	-44.3	-46.9	23.5	6.08e-01	0	39	0	407896064	59	5062
2026-01-20 13:37:44.35	286.55	13.14	-44.4	-47.0	23.3	6.07e-01	0	39	0	411566080	59	5144
2026-01-20 13:37:46.34	287.00	13.10	-44.5	-47.1	23.2	6.07e-01	0	39	0	415236096	59	5211
2026-01-20 13:37:48.33	287.45	13.06	-44.6	-47.2	23.2	6.08e-01	0	39	0	418906112	59	5245
2026-01-20 13:37:50.33	287.90	13.01	-44.5	-47.0	23.3	6.06e-01	0	39	0	422576128	59	5146
2026-01-20 13:37:52.32	288.34	12.97	-44.5	-47.2	23.2	6.05e-01	0	39	0	426246144	59	5243
2026-01-20 13:37:54.32	288.79	12.93	-44.5	-47.2	23.2	6.05e-01	0	39	0	429916160	59	5253
2026-01-20 13:37:56.31	289.23	12.88	-44.4	-47.2	23.2	6.09e-01	0	39	0	434110464	59	5222
2026-01-20 13:37:58.31	289.68	12.83	-44.2	-47.1	23.3	6.06e-01	0	39	0	437780480	59	5165
2026-01-20 13:38:00.31	290.12	12.78	-44.4	-47.3	23.2	6.06e-01	0	39	0	441450496	59	5281
2026-01-20 13:38:02.30	290.56	12.73	-44.5	-47.3	23.1	6.06e-01	0	39	0	445120512	59	5301
2026-01-20 13:38:04.30	291.00	12.68	-44.6	-47.3	23.1	6.08e-01	0	39	0	448790528	59	5303
2026-01-20 13:38:06.29	291.44	12.62	-44.6	-47.3	23.1	6.07e-01	0	39	0	452460544	59	5307
2026-01-20 13:38:08.29	291.87	12.57	-44.6	-47.3	23.1	6.06e-01	0	39	0	456130560	59	5319
2026-01-20 13:38:10.28	292.30	12.51	-44.5	-47.2	23.0	6.06e-01	0	39	0	459800576	60	4980
2026-01-20 13:38:12.27	292.73	12.45	-44.6	-47.3	23.0	6.08e-01	0	39	0	463994880	60	4996
2026-01-20 13:38:14.27	293.17	12.40	-44.7	-47.4	22.9	6.07e-01	0	39	0	467664896	60	5051
2026-01-20 13:38:16.26	293.59	12.34	-44.7	-47.3	22.9	6.07e-01	0	39	0	471334912	60	5040
2026-01-20 13:38:18.25	294.02	12.27	-44.6	-47.3	22.9	6.08e-01	0	39	0	475004928	60	5027
2026-01-20 13:38:20.24	294.44	12.21	-44.6	-47.3	23.0	6.07e-01	0	39	0	478674944	60	5019
2026-01-20 13:38:22.23	294.86	12.15	-44.8	-47.5	22.8	6.07e-01	0	39	0	482344960	60	5114
2026-01-20 13:38:24.23	295.28	12.08	-44.8	-47.6	22.8	6.05e-01	0	39	0	486014976	60	5165
2026-01-20 13:38:26.22	295.70	12.02	-44.7	-47.5	22.8	6.09e-01	0	39	0	489684992	60	5135
2026-01-20 13:38:28.21	296.12	11.95	-44.7	-47.5	22.8	6.06e-01	0	39	0	493879296	60	5134
2026-01-20 13:38:30.21	296.53	11.88	-44.8	-47.6	22.7	6.06e-01	0	39	0	497549312	60	5162
2026-01-20 13:38:32.20	296.94	11.82	-44.8	-47.5	22.7	6.05e-01	0	39	0	501219328	60	5146
2026-01-20 13:38:34.20	297.35	11.75	-44.8	-47.5	22.7	6.05e-01	0	39	0	504889344	60	5153
2026-01-20 13:38:36.19	297.76	11.67	-44.8	-47.6	22.7	6.05e-01	0	39	0	508559360	60	5192
2026-01-20 13:38:38.19	298.17	11.60	-45.0	-47.8	22.5	6.06e-01	0	39	0	512229376	60	5282
2026-01-20 13:38:40.18	298.57	11.53	-44.9	-47.7	22.6	6.06e-01	0	39	0	515899392	60	5237
2026-01-20 13:38:42.18	298.97	11.46	-44.9	-47.7	22.6	6.06e-01	0	39	0	520093696	60	5226
2026-01-20 13:38:44.17	299.37	11.38	-45.0	-47.8	22.5	6.07e-01	0	39	0	523763712	60	5300
2026-01-20 13:38:46.16	299.77	11.30	-45.0	-47.9	22.4	6.06e-01	0	39	0	527433728	60	5371
2026-01-20 13:38:48.16	300.16	11.23	-45.0	-47.8	22.5	6.08e-01	0	39	0	531103744	60	5281
2026-01-20 13:38:50.16	300.56	11.15	-44.9	-47.7	22.5	6.06e-01	0	39	0	534773760	60	5247
2026-01-20 13:38:52.15	300.95	11.07	-45.0	-47.8	22.5	6.09e-01	0	39	0	538443776	60	5308
2026-01-20 13:38:54.15	301.34	10.99	-45.2	-48.0	22.3	6.06e-01	0	39	0	542113792	61	5142
2026-01-20 13:38:56.14	301.72	10.91	-45.1	-48.0	22.3	6.08e-01	0	39	0	545783808	61	5134
2026-01-20 13:38:58.13	302.11	10.83	-45.2	-48.0	22.3	6.06e-01	0	39	0	549978112	61	5130
2026-01-20 13:39:00.13	302.49	10.75	-45.1	-47.9	22.3	6.08e-01	0	39	0	553648128	61	5094
2026-01-20 13:39:02.13	302.87	10.67	-45.1	-48.0	22.3	6.06e-01	0	39	0	557318144	61	5148
2026-01-20 13:39:04.12	303.25	10.58	-45.2	-48.1	22.2	6.06e-01	0	39	0	560988160	61	5197
2026-01-20 13:39:06.12	303.62	10.50	-45.2	-48.1	22.2	6.07e-01	0	39	0	564658176	61	5179
2026-01-20 13:39:08.11	303.99	10.42	-45.3	-48.2	22.1	6.07e-01	0	39	0	568328192	61	5251
2026-01-20 13:39:10.10	304.36	10.33	-45.2	-48.1	22.2	6.08e-01	0	39	0	571998208	61	5200
2026-01-20 13:39:12.11	304.73	10.24	-45.2	-48.2	22.1	6.08e-01	0	39	0	576192512	61	5234
2026-01-20 13:39:14.10	305.10	10.16	-45.3	-48.2	22.1	6.06e-01	0	39	0	579862528	61	5256
2026-01-20 13:39:16.10	305.46	10.07	-45.2	-48.1	22.2	6.05e-01	0	39	0	583532544	61	5175
2026-01-20 13:39:18.10	305.83	9.98	-45.2	-48.2	22.1	6.05e-01	0	39	0	587202560	61	5264
2026-01-20 13:39:20.09	306.18	9.90	-45.2	-48.2	22.1	6.06e-01	0	39	0	590872576	61	5275
2026-01-20 13:39:22.08	306.54	9.81	-45.1	-48.3	22.0	6.07e-01	0	39	0	594542592	61	5288
2026-01-20 13:39:24.08	306.90	9.72	-45.3	-48.3	22.0	6.06e-01	0	39	0	598212608	61	5285
2026-01-20 13:39:26.07	307.25	9.63	-45.4	-48.5	21.8	6.07e-01	0	39	0	602406912	61	5437
2026-01-20 13:39:28.07	307.60	9.54	-45.4	-48.4	21.9	6.06e-01	0	39	0	606076928	61	5359
2026-01-20 13:39:30.07	307.95	9.44	-45.4	-48.4	21.8	6.04e-01	0	39	0	609746944	61	5386
2026-01-20 13:39:32.07	308.29	9.35	-45.2	-48.2	22.0	6.07e-01	0	39	0	613416960	61	5250
2026-01-20 13:39:34.07	308.64	9.26	-45.1	-48.3	22.0	6.05e-01	0	39	0	617086976	61	5296
2026-01-20 13:39:36.06	308.98	9.17	-45.2	-48.5	21.8	6.05e-01	0	39	0	620756992	61	5418
2026-01-20 13:39:38.06	309.31	9.08	-45.2	-48.6	21.7	6.07e-01	0	39	0	624427008	61	5484
2026-01-20 13:39:40.05	309.65	8.98	-51.2	-70.4	3.7	7.46e-01	0	39	104	628097024	73	33986
2026-01-20 13:39:42.05	309.98	8.89	-51.8	-72.0	3.8	7.46e-01	0	39	104	628097024	74	38333
2026-01-20 13:39:44.04	310.32	8.80	-52.0	-72.2	3.8	7.46e-01	0	39	104	628097024	74	39282
2026-01-20 13:39:46.03	310.64	8.70	-51.9	-72.2	3.8	7.49e-01	0	39	104	628097024	74	39567
2026-01-20 13:39:48.03	310.97	8.61	-52.4	-72.3	3.8	7.48e-01	0	39	104	628097024	75	37491
2026-01-20 13:39:50.02	311.30	8.51	-52.1	-72.3	3.8	7.47e-01	0	39	104	628097024	75	37620
2026-01-20 13:39:52.02	311.62	8.42	-52.2	-72.3	3.8	7.44e-01	0	39	104	628097024	75	37693
2026-01-20 13:39:54.01	311.94	8.32	-52.3	-72.3	3.8	7.45e-01	0	39	104	628097024	75	37759
2026-01-20 13:39:56.01	312.26	8.22	-52.2	-72.3	3.8	7.45e-01	0	39	104	628097024	75	37636
2026-01-20 13:39:58.00	312.57	8.13	-52.2	-72.3	3.8	7.48e-01	0	39	104	628097024	75	37611
2026-01-20 13:40:00.00	312.89	8.03	-52.0	-72.3	3.8	7.43e-01	0	39	104	628097024	75	37611
2026-01-20 13:40:02.00	313.20	7.93	-51.7	-72.3	3.8	7.46e-01	0	40	104	628097024	75	37471
2026-01-20 13:40:04.00	313.51	7.84	-51.7	-72.3	3.8	7.45e-01	0	39	104	628097024	75	37424
2026-01-20 13:40:05.98	313.81	7.74	-51.7	-72.3	3.8	7.49e-01	0	39	104	628097024	75	37473
2026-01-20 13:40:07.98	314.12	7.64	-51.7	-72.3	3.8	7.48e-01	0	39	104	628097024	75	37385
2026-01-20 13:40:09.98	314.42	7.54	-51.7	-72.2	3.8	7.46e-01	0	39	104	628097024	75	37310
2026-01-20 13:40:11.97	314.72	7.44	-51.6	-72.2	3.8	7.46e-01	0	39	104	628097024	75	37303
2026-01-20 13:40:13.97	315.02	7.35	-51.7	-72.2	3.8	7.44e-01	0	39	104	628097024	75	37285
2026-01-20 13:40:15.97	315.32	7.25	-51.7	-72.2	3.8	7.47e-01	0	39	104	628097024	75	37255
2026-01-20 13:40:17.96	315.61	7.15	-51.7	-72.2	3.8	7.48e-01	0	39	104	628097024	75	37371
2026-01-20 13:40:19.96	315.91	7.05	-51.7	-72.2	3.8	7.47e-01	0	39	104	628097024	75	37315
2026-01-20 13:40:21.95	316.20	6.95	-51.7	-72.2	3.8	7.46e-01	0	39	104	628097024	75	37246
2026-01-20 13:40:23.95	316.48	6.85	-51.7	-72.2	3.8	7.48e-01	0	39	104	628097024	75	37352
2026-01-20 13:40:25.94	316.77	6.75	-51.7	-72.2	3.8	7.44e-01	0	39	104	628097024	75	37274
2026-01-20 13:40:27.94	317.05	6.65	-51.7	-72.2	3.8	7.44e-01	0	39	104	628097024	75	37268
2026-01-20 13:40:29.93	317.34	6.55	-51.7	-72.2	3.8	7.44e-01	0	39	104	628097024	75	37233
2026-01-20 13:40:31.93	317.62	6.45	-51.7	-72.2	3.8	7.46e-01	0	39	104	628097024	75	37250
2026-01-20 13:40:33.93	317.89	6.35	-51.7	-72.2	3.8	7.46e-01	0	39	104	628097024	75	37252
2026-01-20 13:40:35.92	318.17	6.25	-51.7	-72.2	3.8	7.47e-01	0	39	104	628097024	75	37216
2026-01-20 13:40:37.92	318.44	6.15	-51.7	-72.2	3.8	7.47e-01	0	39	104	628097024	75	37275
2026-01-20 13:40:39.91	318.71	6.05	-51.7	-72.2	3.8	7.45e-01	0	39	104	628097024	75	37275
2026-01-20 13:40:41.90	318.98	5.95	-51.7	-72.2	3.8	7.44e-01	0	39	104	628097024	75	37147
2026-01-20 13:40:43.90	319.25	5.85	-51.6	-72.2	3.8	7.47e-01	0	39	104	628097024	75	37239
2026-01-20 13:40:45.90	319.52	5.75	-51.7	-72.2	3.8	7.47e-01	0	39	104	628097024	75	37171
2026-01-20 13:40:47.90	319.78	5.65	-51.6	-72.2	3.8	7.44e-01	0	39	104	628097024	75	37233
2026-01-20 13:40:49.89	320.05	5.55	-51.6	-72.2	3.8	7.47e-01	0	39	104	628097024	75	37184
2026-01-20 13:40:51.89	320.31	5.45	-51.6	-72.2	3.8	7.43e-01	0	39	104	628097024	75	37264
2026-01-20 13:40:53.88	320.56	5.35	-51.7	-72.2	3.8	7.46e-01	0	40	104	628097024	75	37174
2026-01-20 13:40:55.88	320.82	5.25	-51.7	-72.2	3.8	7.43e-01	0	39	104	628097024	75	37169
2026-01-20 13:40:57.88	321.08	5.15	-51.6	-72.2	3.8	7.48e-01	0	39	104	628097024	75	37169
2026-01-20 13:40:59.87	321.33	5.05	-51.6	-72.2	3.8	7.47e-01	0	39	104	628097024	75	37131
2026-01-20 13:41:01.87	321.58	4.95	-51.6	-72.2	3.8	7.45e-01	0	40	104	628097024	75	37240

#Closed at: 2026-01-20 13:41:02
#Recorded file [628 MB]: D:/Data/31040_260120_163253.dat