passes_logs/2026/01/20/T1/T1__20260120_111312_SUOMI_NPP_rec.log

#Pass ID: 20260120_111312_SUOMI NPP
#Satellite: SUOMI NPP
#Configuration: NPP
#almurnet v.1.7.20251203
#Start time: 2026-01-20 11:13:13

#Version: 2.0.20230620
#Station: T1
#Location: 37.570604 lon 55.790049 lat
#TLE: 1 37849U 11061A   26019.61507914  .00000076  00000+0  57195-4 0  9994
#TLE: 2 37849  98.7817 321.6240 0002347  55.5899 304.5499 14.19526391737369

#Time	Az	El	Level	Level2	SNR	BER	BlckErr	Temp	State	Recorded	gain1	gain2
2026-01-20 11:13:13.56	199.64	5.05	-49.3	-65.1	3.8	1.49e+00	0	41	0	0	70	22003
2026-01-20 11:13:16.53	199.84	5.25	-49.2	-65.1	3.8	1.49e+00	0	42	104	0	69	23248
2026-01-20 11:13:19.52	200.05	5.44	-49.2	-65.1	3.8	1.49e+00	0	41	104	0	69	23218
2026-01-20 11:13:22.50	200.26	5.63	-49.2	-65.1	3.8	1.49e+00	0	42	104	0	69	23148
2026-01-20 11:13:25.48	200.48	5.83	-49.2	-65.0	3.8	1.49e+00	0	42	104	0	69	23035
2026-01-20 11:13:28.46	200.70	6.02	-49.2	-64.8	3.8	1.49e+00	0	42	104	0	69	22383
2026-01-20 11:13:31.44	200.92	6.22	-49.3	-64.8	3.8	1.49e+00	0	42	104	0	69	22329
2026-01-20 11:13:34.42	201.14	6.42	-49.3	-64.9	3.8	1.49e+00	0	42	104	0	69	22680
2026-01-20 11:13:37.40	201.37	6.62	-49.2	-64.8	3.8	1.49e+00	0	42	104	0	69	22499
2026-01-20 11:13:40.38	201.60	6.82	-49.3	-64.8	3.8	1.49e+00	0	42	104	0	69	22390
2026-01-20 11:13:43.36	201.83	7.02	-49.3	-64.9	3.8	1.49e+00	0	42	104	0	69	22532
2026-01-20 11:13:46.34	202.07	7.23	-49.3	-64.9	3.8	1.49e+00	0	42	104	0	69	22769
2026-01-20 11:13:49.32	202.31	7.43	-49.2	-63.8	3.8	1.49e+00	0	43	104	0	69	19887
2026-01-20 11:13:52.31	202.55	7.64	-49.2	-63.8	3.8	1.49e+00	0	43	104	0	69	20009
2026-01-20 11:13:55.29	202.79	7.85	-49.2	-63.6	3.8	1.49e+00	0	43	104	0	69	19436
2026-01-20 11:13:58.27	203.04	8.06	-47.7	-54.4	9.1	4.74e-02	0	43	0	4194304	67	7600
2026-01-20 11:14:01.25	203.30	8.27	-45.9	-50.1	13.8	1.22e-05	0	43	0	9437184	63	5794
2026-01-20 11:14:04.23	203.55	8.48	-45.1	-48.6	15.2	0.00e+00	0	43	0	14680064	62	5177
2026-01-20 11:14:07.21	203.81	8.69	-46.1	-50.4	13.4	2.20e-06	0	43	0	20971520	62	6383
2026-01-20 11:14:10.19	204.07	8.90	-47.6	-53.9	9.7	4.33e-03	0	43	0	26214400	65	8082
2026-01-20 11:14:13.17	204.34	9.12	-46.2	-50.5	13.4	1.62e-04	0	43	0	31457280	63	6122
2026-01-20 11:14:16.16	204.61	9.33	-46.3	-50.6	13.4	4.27e-05	0	43	0	34603008	63	6151
2026-01-20 11:14:19.14	204.89	9.55	-45.4	-49.2	14.5	3.90e-04	0	43	0	40894464	62	5535
2026-01-20 11:14:22.13	205.17	9.77	-45.2	-48.8	14.9	7.00e-07	0	43	0	46137344	62	5280
2026-01-20 11:14:25.11	205.45	9.99	-44.9	-48.2	15.7	0.00e+00	0	43	0	52428800	61	5245
2026-01-20 11:14:28.10	205.74	10.22	-44.1	-47.0	16.9	0.00e+00	0	43	0	57671680	60	4822
2026-01-20 11:14:31.08	206.03	10.44	-43.8	-46.5	17.3	0.00e+00	0	43	0	62914560	59	4845
2026-01-20 11:14:34.07	206.33	10.66	-43.8	-46.6	17.2	0.00e+00	0	43	0	69206016	59	4875
2026-01-20 11:14:37.05	206.62	10.89	-44.0	-46.8	17.0	0.00e+00	0	43	0	74448896	59	4989
2026-01-20 11:14:40.04	206.93	11.12	-44.0	-46.7	17.0	0.00e+00	0	43	0	79691776	59	4968
2026-01-20 11:14:43.02	207.24	11.35	-44.3	-47.2	16.7	0.00e+00	0	43	0	85983232	59	5230
2026-01-20 11:14:46.01	207.55	11.58	-44.2	-47.0	16.9	0.00e+00	0	43	0	91226112	59	5128
2026-01-20 11:14:48.99	207.87	11.81	-44.1	-46.8	17.1	0.00e+00	0	43	0	96468992	59	5009
2026-01-20 11:14:51.98	208.20	12.04	-43.6	-46.2	17.6	0.00e+00	0	43	0	102760448	59	4664
2026-01-20 11:14:54.96	208.53	12.28	-43.5	-46.1	17.7	0.00e+00	0	44	0	108003328	58	4883
2026-01-20 11:14:57.95	208.86	12.52	-43.6	-46.2	17.7	0.00e+00	0	43	0	113246208	58	4928
2026-01-20 11:15:00.93	209.20	12.75	-43.6	-46.1	17.8	0.00e+00	0	44	0	119537664	58	4903
2026-01-20 11:15:03.92	209.54	12.99	-43.6	-46.1	17.8	0.00e+00	0	43	0	124780544	58	4891
2026-01-20 11:15:06.90	209.89	13.23	-43.8	-46.4	17.5	0.00e+00	0	43	0	130023424	58	5065
2026-01-20 11:15:09.88	210.25	13.47	-43.9	-46.6	17.4	0.00e+00	0	43	0	136314880	58	5165
2026-01-20 11:15:12.87	210.61	13.72	-44.1	-46.8	17.2	0.00e+00	0	43	0	141557760	58	5318
2026-01-20 11:15:15.85	210.98	13.96	-44.1	-46.7	17.3	0.00e+00	0	44	0	146800640	58	5252
2026-01-20 11:15:18.84	211.35	14.21	-43.8	-46.3	17.7	0.00e+00	0	44	0	153092096	58	4998
2026-01-20 11:15:21.82	211.73	14.46	-43.8	-46.3	17.6	0.00e+00	0	43	0	158334976	58	5025
2026-01-20 11:15:24.81	212.12	14.71	-44.1	-46.8	17.3	0.00e+00	0	43	0	163577856	58	5282
2026-01-20 11:15:27.80	212.51	14.96	-44.4	-47.2	16.9	0.00e+00	0	43	0	169869312	59	5220
2026-01-20 11:15:30.78	212.91	15.21	-44.1	-46.8	17.2	0.00e+00	0	43	0	175112192	59	5038
2026-01-20 11:15:33.76	213.31	15.46	-43.9	-46.5	17.5	0.00e+00	0	44	0	180355072	59	4849
2026-01-20 11:15:36.75	213.72	15.72	-43.9	-46.5	17.4	1.13e-04	0	44	0	186646528	59	4845
2026-01-20 11:15:39.73	214.14	15.97	-44.2	-46.9	17.1	7.60e-06	0	44	0	191889408	59	5074
2026-01-20 11:15:42.71	214.57	16.23	-44.4	-47.2	16.9	0.00e+00	0	44	0	197132288	59	5233
2026-01-20 11:15:45.70	215.00	16.49	-44.4	-47.3	16.8	2.20e-06	0	44	0	203423744	59	5306
2026-01-20 11:15:48.68	215.44	16.74	-44.5	-47.4	16.6	7.00e-07	0	44	0	208666624	59	5391
2026-01-20 11:15:51.66	215.88	17.00	-44.3	-47.0	17.0	0.00e+00	0	44	0	213909504	59	5156
2026-01-20 11:15:54.65	216.34	17.27	-43.9	-46.6	17.5	0.00e+00	0	44	0	220200960	59	4880
2026-01-20 11:15:57.64	216.80	17.53	-43.8	-46.4	17.7	0.00e+00	0	44	0	225443840	59	4765
2026-01-20 11:16:00.62	217.27	17.79	-43.8	-46.4	17.7	0.00e+00	0	44	0	230686720	59	4764
2026-01-20 11:16:03.60	217.75	18.06	-43.7	-46.3	17.8	0.00e+00	0	44	0	236978176	59	4713
2026-01-20 11:16:06.59	218.24	18.32	-43.4	-45.9	18.2	0.00e+00	0	44	0	242221056	58	4781
2026-01-20 11:16:09.57	218.73	18.59	-43.5	-46.0	18.1	0.00e+00	0	44	0	247463936	58	4851
2026-01-20 11:16:12.55	219.24	18.85	-43.5	-45.9	18.2	0.00e+00	0	44	0	253755392	58	4804
2026-01-20 11:16:15.54	219.75	19.12	-43.5	-45.9	18.2	0.00e+00	0	44	0	258998272	58	4795
2026-01-20 11:16:18.52	220.27	19.39	-43.5	-45.9	18.2	0.00e+00	0	44	0	264241152	58	4788
2026-01-20 11:16:21.51	220.80	19.66	-43.5	-45.9	18.2	0.00e+00	0	44	0	270532608	58	4796
2026-01-20 11:16:24.50	221.34	19.93	-43.0	-45.4	18.7	0.00e+00	0	44	0	275775488	58	4496
2026-01-20 11:16:27.48	221.89	20.20	-42.9	-45.2	18.8	0.00e+00	0	43	0	281018368	57	4694
2026-01-20 11:16:30.47	222.45	20.47	-43.0	-45.4	18.7	0.00e+00	0	44	0	287309824	57	4764
2026-01-20 11:16:33.45	223.01	20.74	-42.9	-45.2	18.8	0.00e+00	0	44	0	292552704	57	4680
2026-01-20 11:16:36.43	223.59	21.01	-42.9	-45.2	18.9	0.00e+00	0	44	0	297795584	57	4662
2026-01-20 11:16:39.42	224.18	21.28	-42.5	-44.8	19.2	0.00e+00	0	44	0	304087040	57	4458
2026-01-20 11:16:42.40	224.78	21.55	-42.3	-44.5	19.5	0.00e+00	0	44	0	309329920	56	4580
2026-01-20 11:16:45.39	225.38	21.82	-42.7	-45.0	19.1	0.00e+00	0	44	0	314572800	56	4840
2026-01-20 11:16:48.37	226.00	22.09	-43.0	-45.3	18.8	0.00e+00	0	44	0	320864256	56	5022
2026-01-20 11:16:51.36	226.63	22.36	-43.5	-45.9	18.3	0.00e+00	0	44	0	326107136	57	5075
2026-01-20 11:16:54.34	227.27	22.63	-43.7	-46.2	18.0	0.00e+00	0	44	0	331350016	57	5233
2026-01-20 11:16:57.33	227.92	22.90	-43.3	-45.7	18.5	0.00e+00	0	44	0	337641472	58	4653
2026-01-20 11:17:00.32	228.58	23.16	-42.9	-45.2	18.9	0.00e+00	0	44	0	342884352	57	4666
2026-01-20 11:17:03.30	229.26	23.43	-43.0	-45.3	18.8	0.00e+00	0	44	0	348127232	57	4717
2026-01-20 11:17:06.29	229.94	23.69	-42.9	-45.2	18.9	0.00e+00	0	44	0	354418688	57	4696
2026-01-20 11:17:09.28	230.64	23.95	-43.0	-45.3	18.8	0.00e+00	0	44	0	359661568	57	4726
2026-01-20 11:17:12.26	231.34	24.21	-42.8	-45.1	19.0	0.00e+00	0	44	0	364904448	57	4623
2026-01-20 11:17:15.25	232.06	24.47	-42.2	-44.4	19.6	0.00e+00	0	44	0	371195904	56	4505
2026-01-20 11:17:18.24	232.79	24.73	-42.7	-44.9	19.2	0.00e+00	0	44	0	376438784	56	4802
2026-01-20 11:17:21.22	233.53	24.98	-43.2	-45.6	18.5	0.00e+00	0	44	0	381681664	57	4897
2026-01-20 11:17:24.21	234.28	25.23	-43.2	-45.6	18.5	0.00e+00	0	44	0	387973120	57	4901
2026-01-20 11:17:27.19	235.05	25.48	-43.4	-45.9	18.3	0.00e+00	0	44	0	393216000	57	5059
2026-01-20 11:17:30.18	235.82	25.73	-43.4	-45.8	18.4	0.00e+00	0	44	0	398458880	57	4988
2026-01-20 11:17:33.17	236.61	25.97	-43.3	-45.8	18.4	0.00e+00	0	44	0	404750336	57	4986
2026-01-20 11:17:36.15	237.41	26.21	-43.1	-45.4	18.7	0.00e+00	0	44	0	409993216	57	4804
2026-01-20 11:17:39.14	238.23	26.44	-42.8	-45.0	19.0	0.00e+00	0	44	0	415236096	57	4593
2026-01-20 11:17:42.12	239.05	26.67	-43.4	-45.8	18.4	0.00e+00	0	44	0	421527552	57	5036
2026-01-20 11:17:45.11	239.88	26.90	-43.7	-46.2	18.1	0.00e+00	0	44	0	426770432	58	4942
2026-01-20 11:17:48.09	240.73	27.12	-43.6	-46.0	18.2	0.00e+00	0	44	0	432013312	58	4851
2026-01-20 11:17:51.08	241.59	27.34	-43.0	-45.4	18.8	0.00e+00	0	44	0	438304768	58	4498
2026-01-20 11:17:54.06	242.45	27.55	-43.2	-45.5	18.7	0.00e+00	0	44	0	443547648	57	4848
2026-01-20 11:17:57.05	243.34	27.75	-43.5	-45.8	18.3	0.00e+00	0	44	0	448790528	57	5038
2026-01-20 11:18:00.03	244.23	27.95	-44.3	-46.9	17.4	0.00e+00	0	44	0	455081984	59	5059
2026-01-20 11:18:03.00	245.12	28.15	-43.2	-45.5	18.7	0.00e+00	0	44	0	460324864	58	4570
2026-01-20 11:18:05.99	246.04	28.33	-43.3	-45.6	18.6	0.00e+00	0	44	0	465567744	57	4922
2026-01-20 11:18:08.97	246.96	28.51	-43.9	-46.4	17.9	0.00e+00	0	44	0	471859200	58	5046
2026-01-20 11:18:11.96	247.89	28.69	-43.7	-46.2	18.1	0.00e+00	0	44	0	477102080	58	4941
2026-01-20 11:18:14.94	248.83	28.86	-43.8	-46.2	18.0	0.00e+00	0	44	0	483393536	58	4973
2026-01-20 11:18:17.93	249.79	29.02	-44.3	-46.9	17.4	0.00e+00	0	44	0	488636416	59	5093
2026-01-20 11:18:20.91	250.75	29.17	-45.0	-47.9	16.6	0.00e+00	0	44	0	493879296	60	5369
2026-01-20 11:18:23.90	251.72	29.31	-44.8	-47.6	16.9	0.00e+00	0	44	0	500170752	60	5170
2026-01-20 11:18:26.88	252.69	29.45	-46.0	-49.2	15.3	0.00e+00	0	44	0	505413632	62	5591
2026-01-20 11:18:29.87	253.68	29.57	-45.4	-48.4	16.0	0.00e+00	0	44	0	510656512	62	5097
2026-01-20 11:18:32.85	254.67	29.69	-44.3	-46.9	17.5	0.00e+00	0	44	0	516947968	60	4790
2026-01-20 11:18:35.84	255.67	29.80	-45.4	-48.4	16.1	0.00e+00	0	44	0	522190848	61	5357
2026-01-20 11:18:38.82	256.68	29.90	-45.2	-48.1	16.3	0.00e+00	0	44	0	527433728	61	5164
2026-01-20 11:18:41.81	257.69	30.00	-45.1	-48.1	16.3	0.00e+00	0	44	0	533725184	61	5169
2026-01-20 11:18:44.80	258.71	30.08	-44.0	-46.5	17.8	0.00e+00	0	44	0	538968064	59	4833
2026-01-20 11:18:47.78	259.73	30.15	-44.4	-47.0	17.3	0.00e+00	0	44	0	544210944	60	4870
2026-01-20 11:18:50.77	260.76	30.21	-43.7	-46.2	18.1	0.00e+00	0	44	0	550502400	59	4654
2026-01-20 11:18:53.75	261.79	30.27	-43.9	-46.4	17.8	0.00e+00	0	44	0	555745280	59	4814
2026-01-20 11:18:56.73	262.82	30.31	-43.1	-45.4	18.8	0.00e+00	0	44	0	560988160	57	4785
2026-01-20 11:18:59.72	263.86	30.34	-43.2	-45.6	18.6	0.00e+00	0	44	0	567279616	57	4881
2026-01-20 11:19:02.71	264.89	30.37	-43.5	-45.9	18.4	0.00e+00	0	44	0	572522496	57	5055
2026-01-20 11:19:05.69	265.93	30.38	-44.5	-47.1	17.2	0.00e+00	0	44	0	577765376	59	5218
2026-01-20 11:19:08.68	266.97	30.38	-44.7	-47.5	16.9	0.00e+00	0	44	0	584056832	60	5116
2026-01-20 11:19:11.66	268.01	30.37	-44.4	-47.2	17.3	0.00e+00	0	44	0	589299712	60	4928
2026-01-20 11:19:14.65	269.05	30.36	-43.8	-46.3	18.0	0.00e+00	0	44	0	594542592	59	4730
2026-01-20 11:19:17.64	270.08	30.33	-43.8	-46.4	17.9	0.00e+00	0	44	0	600834048	58	5042
2026-01-20 11:19:20.63	271.12	30.29	-44.4	-47.0	17.4	0.00e+00	0	44	0	606076928	60	4830
2026-01-20 11:19:23.61	272.15	30.24	-44.5	-47.2	17.2	0.00e+00	0	44	0	611319808	60	4957
2026-01-20 11:19:26.59	273.17	30.19	-45.1	-48.1	16.4	0.00e+00	0	44	0	617611264	61	5163
2026-01-20 11:19:29.58	274.20	30.12	-44.6	-47.4	17.1	0.00e+00	0	44	0	622854144	61	4770
2026-01-20 11:19:32.56	275.22	30.04	-45.7	-48.8	15.7	0.00e+00	0	44	0	628097024	62	5339
2026-01-20 11:19:35.55	276.23	29.96	-44.7	-47.4	16.9	0.00e+00	0	44	0	634388480	61	4790
2026-01-20 11:19:38.53	277.24	29.86	-45.2	-48.2	16.2	0.00e+00	0	44	0	639631360	61	5236
2026-01-20 11:19:41.52	278.24	29.76	-45.4	-48.5	16.1	0.00e+00	0	44	0	644874240	61	5418
2026-01-20 11:19:44.50	279.23	29.64	-45.9	-49.2	15.3	0.00e+00	0	44	0	651165696	62	5565
2026-01-20 11:19:47.49	280.22	29.52	-45.9	-49.2	15.4	0.00e+00	0	44	0	656408576	62	5585
2026-01-20 11:19:50.48	281.21	29.39	-46.2	-49.7	14.9	0.00e+00	0	44	0	661651456	63	5544
2026-01-20 11:19:53.47	282.18	29.25	-46.2	-49.6	15.0	0.00e+00	0	44	0	667942912	63	5516
2026-01-20 11:19:56.45	283.14	29.11	-48.0	-52.8	11.6	1.03e-03	0	44	0	673185792	66	6723
2026-01-20 11:19:59.43	284.09	28.95	-46.2	-49.7	14.8	7.00e-07	0	44	0	678428672	64	5272
2026-01-20 11:20:02.42	285.04	28.79	-46.0	-49.3	15.3	0.00e+00	0	44	0	684720128	63	5284
2026-01-20 11:20:05.40	285.98	28.62	-45.2	-48.1	16.4	0.00e+00	0	44	0	689963008	62	4878
2026-01-20 11:20:08.39	286.90	28.44	-45.0	-47.9	16.6	0.00e+00	0	44	0	695205888	61	5043
2026-01-20 11:20:11.38	287.82	28.26	-45.1	-48.0	16.5	0.00e+00	0	44	0	701497344	61	5143
2026-01-20 11:20:14.36	288.72	28.07	-44.8	-47.6	16.9	0.00e+00	0	44	0	706740224	61	4894
2026-01-20 11:20:17.34	289.62	27.88	-45.0	-47.8	16.6	0.00e+00	0	44	0	711983104	61	5029
2026-01-20 11:20:20.33	290.50	27.67	-44.8	-47.5	16.9	0.00e+00	0	44	0	718274560	61	4860
2026-01-20 11:20:23.31	291.37	27.47	-45.3	-48.4	16.1	0.00e+00	0	44	0	723517440	61	5355
2026-01-20 11:20:26.30	292.23	27.26	-45.1	-48.0	16.4	0.00e+00	0	44	0	728760320	61	5130
2026-01-20 11:20:29.28	293.08	27.04	-46.2	-49.6	14.9	0.00e+00	0	44	0	735051776	63	5479
2026-01-20 11:20:32.26	293.92	26.82	-46.1	-49.4	15.1	7.00e-07	0	44	0	740294656	63	5400
2026-01-20 11:20:35.25	294.75	26.59	-45.3	-48.3	16.2	0.00e+00	0	44	0	745537536	61	5312
2026-01-20 11:20:38.23	295.56	26.36	-45.3	-48.2	16.3	0.00e+00	0	44	0	751828992	62	4971
2026-01-20 11:20:41.22	296.37	26.13	-44.6	-47.3	17.1	0.00e+00	0	44	0	757071872	61	4737
2026-01-20 11:20:44.21	297.16	25.89	-45.2	-48.2	16.3	0.00e+00	0	44	0	762314752	61	5250
2026-01-20 11:20:47.20	297.94	25.64	-44.5	-47.2	17.2	0.00e+00	0	44	0	768606208	61	4676
2026-01-20 11:20:50.18	298.71	25.40	-44.1	-46.7	17.6	0.00e+00	0	44	0	773849088	60	4687
2026-01-20 11:20:53.17	299.46	25.15	-44.2	-46.9	17.5	0.00e+00	0	44	0	779091968	60	4765
2026-01-20 11:20:56.16	300.21	24.90	-43.9	-46.4	17.9	0.00e+00	0	44	0	785383424	59	4782
2026-01-20 11:20:59.14	300.94	24.65	-44.3	-47.0	17.4	0.00e+00	0	44	0	790626304	59	5120
2026-01-20 11:21:02.13	301.66	24.39	-43.4	-45.8	18.4	0.00e+00	0	44	0	795869184	58	4744
2026-01-20 11:21:05.11	302.37	24.14	-43.0	-45.3	18.8	0.00e+00	0	44	0	802160640	57	4742
2026-01-20 11:21:08.10	303.07	23.88	-44.4	-47.0	17.3	0.00e+00	0	44	0	807403520	59	5127
2026-01-20 11:21:11.08	303.76	23.62	-43.7	-46.2	18.1	0.00e+00	0	44	0	812646400	59	4653
2026-01-20 11:21:14.06	304.43	23.36	-43.8	-46.3	18.0	0.00e+00	0	44	0	818937856	59	4734
2026-01-20 11:21:17.05	305.10	23.09	-43.7	-46.2	18.0	0.00e+00	0	44	0	824180736	59	4674
2026-01-20 11:21:20.04	305.76	22.83	-43.1	-45.5	18.7	0.00e+00	0	44	0	829423616	57	4821
2026-01-20 11:21:23.02	306.40	22.56	-43.7	-46.1	18.1	0.00e+00	0	44	0	835715072	57	5212
2026-01-20 11:21:26.00	307.03	22.30	-44.7	-47.5	16.9	0.00e+00	0	44	0	840957952	60	5132
2026-01-20 11:21:28.99	307.65	22.03	-43.1	-45.5	18.7	0.00e+00	0	44	0	846200832	58	4568
2026-01-20 11:21:31.97	308.26	21.76	-43.3	-45.7	18.5	0.00e+00	0	44	0	852492288	58	4692
2026-01-20 11:21:34.96	308.87	21.49	-43.3	-45.7	18.4	0.00e+00	0	44	0	857735168	58	4696
2026-01-20 11:21:37.94	309.46	21.23	-43.1	-45.4	18.7	0.00e+00	0	44	0	864026624	57	4764
2026-01-20 11:21:40.93	310.04	20.96	-44.5	-47.2	17.1	0.00e+00	0	44	0	869269504	59	5260
2026-01-20 11:21:43.91	310.61	20.69	-45.1	-48.2	16.2	0.00e+00	0	44	0	874512384	61	5272
2026-01-20 11:21:46.89	311.17	20.42	-44.0	-46.7	17.6	0.00e+00	0	44	0	880803840	60	4664
2026-01-20 11:21:49.88	311.72	20.15	-43.7	-46.3	17.9	0.00e+00	0	44	0	886046720	59	4724
2026-01-20 11:21:52.87	312.27	19.89	-43.6	-46.1	18.0	0.00e+00	0	44	0	891289600	59	4624
2026-01-20 11:21:55.85	312.80	19.62	-42.9	-45.2	18.8	0.00e+00	0	44	0	897581056	57	4690
2026-01-20 11:21:58.84	313.33	19.35	-43.0	-45.3	18.8	0.00e+00	0	44	0	902823936	57	4741
2026-01-20 11:22:01.82	313.84	19.09	-43.3	-45.8	18.3	0.00e+00	0	44	0	908066816	57	5009
2026-01-20 11:22:04.81	314.35	18.82	-43.3	-45.8	18.3	0.00e+00	0	44	0	914358272	57	5005
2026-01-20 11:22:07.79	314.85	18.56	-43.7	-46.2	17.9	0.00e+00	0	44	0	919601152	57	5252
2026-01-20 11:22:10.78	315.34	18.29	-44.6	-47.4	16.8	0.00e+00	0	44	0	924844032	59	5384
2026-01-20 11:22:13.77	315.82	18.03	-44.2	-47.0	17.2	0.00e+00	0	44	0	931135488	59	5109
2026-01-20 11:22:16.75	316.30	17.77	-43.3	-45.7	18.3	0.00e+00	0	44	0	936378368	58	4691
2026-01-20 11:22:19.74	316.76	17.51	-42.8	-45.2	18.8	0.00e+00	0	44	0	941621248	57	4701
2026-01-20 11:22:22.72	317.22	17.25	-42.8	-45.2	18.8	0.00e+00	0	44	0	947912704	57	4691
2026-01-20 11:22:25.71	317.67	16.99	-42.6	-45.0	18.9	0.00e+00	0	44	0	953155584	57	4589
2026-01-20 11:22:28.69	318.12	16.73	-42.7	-45.0	19.0	0.00e+00	0	44	0	958398464	56	4841
2026-01-20 11:22:31.67	318.55	16.48	-42.9	-45.3	18.7	0.00e+00	0	44	0	964689920	56	4991
2026-01-20 11:22:34.66	318.98	16.22	-43.3	-45.8	18.3	0.00e+00	0	44	0	969932800	57	4989
2026-01-20 11:22:37.64	319.40	15.97	-43.6	-46.2	17.9	0.00e+00	0	44	0	975175680	57	5274
2026-01-20 11:22:40.63	319.82	15.71	-43.7	-46.3	17.7	0.00e+00	0	44	0	981467136	58	5020
2026-01-20 11:22:43.62	320.23	15.46	-43.5	-46.1	18.0	0.00e+00	0	44	0	986710016	58	4878
2026-01-20 11:22:46.60	320.63	15.21	-43.3	-45.8	18.2	0.00e+00	0	44	0	991952896	58	4759
2026-01-20 11:22:49.58	321.02	14.96	-43.5	-46.1	18.0	0.00e+00	0	44	0	998244352	58	4878
2026-01-20 11:22:52.57	321.41	14.71	-43.2	-45.8	18.2	0.00e+00	0	44	0	1003487232	58	4729
2026-01-20 11:22:55.55	321.79	14.47	-43.0	-45.5	18.4	0.00e+00	0	44	0	1008730112	58	4586
2026-01-20 11:22:58.54	322.17	14.22	-42.7	-45.1	18.8	0.00e+00	0	44	0	1015021568	57	4617
2026-01-20 11:23:01.52	322.54	13.98	-43.0	-45.4	18.6	0.00e+00	0	44	0	1020264448	57	4763
2026-01-20 11:23:04.51	322.91	13.74	-43.3	-45.7	18.2	0.00e+00	0	44	0	1025507328	57	4978
2026-01-20 11:23:07.49	323.27	13.50	-43.9	-46.5	17.5	0.00e+00	0	44	0	1031798784	58	5140
2026-01-20 11:23:10.47	323.62	13.26	-44.1	-46.8	17.2	0.00e+00	0	44	0	1037041664	58	5319
2026-01-20 11:23:13.46	323.97	13.02	-43.9	-46.8	17.2	0.00e+00	0	44	0	1042284544	58	5313
2026-01-20 11:23:16.44	324.31	12.78	-43.8	-46.7	17.3	0.00e+00	0	44	0	1048576000	58	5274
2026-01-20 11:23:19.43	324.65	12.55	-43.7	-46.7	17.3	0.00e+00	0	44	0	1053818880	58	5249
2026-01-20 11:23:22.41	324.98	12.31	-44.1	-47.2	16.9	0.00e+00	0	44	0	1059061760	59	5266
2026-01-20 11:23:25.40	325.31	12.08	-44.4	-47.7	16.4	0.00e+00	0	44	0	1065353216	59	5534
2026-01-20 11:23:28.38	325.63	11.85	-44.3	-47.6	16.5	0.00e+00	0	44	0	1070596096	59	5504
2026-01-20 11:23:31.37	325.95	11.62	-44.0	-47.2	16.8	0.00e+00	0	44	0	1075838976	59	5237
2026-01-20 11:23:34.35	326.26	11.39	-44.0	-47.1	16.9	0.00e+00	0	44	0	1082130432	59	5205
2026-01-20 11:23:37.34	326.57	11.17	-44.4	-47.6	16.3	0.00e+00	0	44	0	1087373312	59	5470
2026-01-20 11:23:40.32	326.88	10.94	-44.7	-48.0	16.1	0.00e+00	0	44	0	1092616192	60	5426
2026-01-20 11:23:43.30	327.18	10.72	-45.0	-48.3	15.8	0.00e+00	0	44	0	1098907648	60	5610
2026-01-20 11:23:46.29	327.47	10.50	-44.7	-47.9	16.1	0.00e+00	0	44	0	1104150528	60	5366
2026-01-20 11:23:49.28	327.76	10.27	-44.3	-47.4	16.6	0.00e+00	0	44	0	1109393408	60	5042
2026-01-20 11:23:52.26	328.05	10.05	-44.2	-47.2	16.7	0.00e+00	0	44	0	1115684864	60	4962
2026-01-20 11:23:55.25	328.33	9.84	-44.3	-47.3	16.7	0.00e+00	0	44	0	1120927744	60	4986
2026-01-20 11:23:58.23	328.61	9.62	-44.6	-47.7	16.2	0.00e+00	0	44	0	1126170624	60	5238
2026-01-20 11:24:01.22	328.89	9.40	-45.2	-48.6	15.4	0.00e+00	0	44	0	1132462080	61	5528
2026-01-20 11:24:04.20	329.16	9.19	-45.5	-49.2	14.8	7.00e-07	0	44	0	1137704960	61	5897
2026-01-20 11:24:07.18	329.43	8.98	-49.5	-65.2	3.8	5.83e-01	0	44	104	1142947840	69	23366
2026-01-20 11:24:10.16	329.69	8.76	-49.9	-65.8	3.8	1.49e+00	0	44	104	1142947840	71	22463
2026-01-20 11:24:13.14	329.95	8.55	-50.6	-66.0	3.8	1.49e+00	0	44	104	1142947840	72	21590
2026-01-20 11:24:16.12	330.20	8.35	-50.7	-66.0	3.8	1.49e+00	0	44	104	1142947840	72	21704
2026-01-20 11:24:19.10	330.46	8.14	-50.7	-66.0	3.8	1.49e+00	0	44	104	1142947840	72	21739
2026-01-20 11:24:22.08	330.71	7.93	-50.8	-66.1	3.8	1.49e+00	0	44	104	1142947840	72	21802
2026-01-20 11:24:25.06	330.95	7.73	-50.8	-66.0	3.8	1.49e+00	0	44	104	1142947840	72	21735
2026-01-20 11:24:28.04	331.20	7.52	-50.6	-66.0	3.8	1.49e+00	0	44	104	1142947840	72	21647
2026-01-20 11:24:31.02	331.44	7.32	-50.4	-66.0	3.8	1.49e+00	0	44	104	1142947840	72	21560
2026-01-20 11:24:34.00	331.67	7.12	-50.5	-65.9	3.8	1.49e+00	0	44	104	1142947840	72	21470
2026-01-20 11:24:36.98	331.91	6.92	-50.5	-66.0	3.8	1.49e+00	0	44	104	1142947840	72	21523
2026-01-20 11:24:39.96	332.14	6.72	-50.5	-66.0	3.8	1.49e+00	0	44	104	1142947840	72	21521
2026-01-20 11:24:42.94	332.36	6.52	-50.5	-65.9	3.8	1.49e+00	0	44	104	1142947840	72	21479
2026-01-20 11:24:45.92	332.59	6.32	-50.5	-65.9	3.8	1.49e+00	0	44	104	1142947840	72	21441
2026-01-20 11:24:48.90	332.81	6.13	-50.5	-65.9	3.8	1.49e+00	0	44	104	1142947840	72	21499
2026-01-20 11:24:51.88	333.03	5.93	-50.5	-66.0	3.8	1.49e+00	0	44	104	1142947840	72	21514
2026-01-20 11:24:54.86	333.25	5.74	-50.5	-66.0	3.8	1.49e+00	0	44	104	1142947840	72	21518
2026-01-20 11:24:57.84	333.46	5.55	-50.5	-65.9	3.8	1.49e+00	0	44	104	1142947840	72	21437
2026-01-20 11:25:00.82	333.67	5.36	-50.5	-65.9	3.8	1.49e+00	0	44	104	1142947840	72	21477
2026-01-20 11:25:03.80	333.88	5.17	-50.5	-66.0	3.8	1.49e+00	0	44	104	1142947840	72	21519
2026-01-20 11:25:06.78	334.09	4.98	-50.5	-65.9	3.8	1.49e+00	0	44	104	1142947840	72	21460

#Closed at: 2026-01-20 11:25:07
#Recorded file [1142 MB]: D:/Data/31040_260120_141313.dat