passes_logs/2026/01/20/T1/T1__20260120_233633_FENGYUN_3G_rec.log

#Pass ID: 20260120_233633_FENGYUN 3G
#Satellite: FENGYUN 3G
#Configuration: FENGYUN 3G
#almurnet v.1.7.20251203
#Start time: 2026-01-20 23:36:32

#Version: 2.0.20230620
#Station: T1
#Location: 37.570604 lon 55.790049 lat
#TLE: 1 56232U 23055A   26020.19436899  .00056262  00000+0  85928-3 0  9997
#TLE: 2 56232  49.9940  29.1271 0004169  54.2682 305.8673 15.53816929157008

#Time	Az	El	Level	Level2	SNR	BER	BlckErr	Temp	State	Recorded	gain1	gain2
2026-01-20 23:36:32.71	254.80	5.25	-50.7	-69.6	3.8	8.48e-01	0	43	0	0	73	31070
2026-01-20 23:36:34.69	254.47	5.37	-50.7	-69.5	3.8	8.48e-01	0	43	104	0	73	30705
2026-01-20 23:36:36.68	254.14	5.48	-50.7	-69.5	3.8	8.46e-01	0	43	104	0	73	30674
2026-01-20 23:36:38.66	253.80	5.60	-50.7	-69.6	3.8	8.46e-01	0	43	104	0	73	30934
2026-01-20 23:36:40.65	253.46	5.72	-50.7	-69.6	3.8	8.47e-01	0	43	104	0	73	30923
2026-01-20 23:36:42.63	253.12	5.83	-50.7	-69.6	3.8	8.47e-01	0	43	104	0	73	30852
2026-01-20 23:36:44.62	252.77	5.95	-50.7	-69.5	3.8	8.48e-01	0	43	104	0	73	30715
2026-01-20 23:36:46.61	252.42	6.06	-50.7	-69.5	3.8	8.48e-01	0	43	104	0	73	30690
2026-01-20 23:36:48.59	252.06	6.18	-50.7	-69.6	3.8	8.47e-01	0	43	104	0	73	30984
2026-01-20 23:36:50.58	251.70	6.30	-50.7	-69.6	3.8	8.46e-01	0	43	104	0	73	30913
2026-01-20 23:36:52.57	251.34	6.41	-50.7	-69.4	3.8	8.47e-01	0	43	104	0	73	30275
2026-01-20 23:36:54.55	250.97	6.53	-50.7	-69.2	3.8	8.46e-01	0	43	104	0	73	29534
2026-01-20 23:36:56.54	250.60	6.64	-50.7	-69.4	3.8	8.47e-01	0	43	104	0	73	30130
2026-01-20 23:36:58.52	250.22	6.76	-50.7	-69.6	3.8	8.47e-01	0	43	104	0	73	30892
2026-01-20 23:37:00.51	249.84	6.88	-50.7	-69.6	3.8	8.47e-01	0	43	104	0	73	30973
2026-01-20 23:37:02.49	249.45	6.99	-50.8	-69.5	3.8	8.47e-01	0	43	104	0	73	30666
2026-01-20 23:37:04.48	249.06	7.11	-50.8	-69.4	3.8	8.46e-01	0	43	104	0	73	30324
2026-01-20 23:37:06.47	248.67	7.22	-50.8	-69.5	3.8	8.48e-01	0	43	104	0	73	30638
2026-01-20 23:37:08.45	248.27	7.34	-50.8	-69.5	3.8	8.47e-01	0	43	104	0	73	30445
2026-01-20 23:37:10.44	247.87	7.45	-50.8	-69.6	3.8	8.48e-01	0	43	104	0	73	30867
2026-01-20 23:37:12.43	247.46	7.57	-50.8	-69.7	3.8	8.46e-01	0	43	104	0	73	31430
2026-01-20 23:37:14.41	247.05	7.68	-50.8	-69.8	3.8	8.47e-01	0	43	104	0	73	31470
2026-01-20 23:37:16.40	246.63	7.80	-50.8	-69.7	3.8	8.47e-01	0	43	104	0	73	31175
2026-01-20 23:37:18.38	246.21	7.91	-50.9	-69.7	3.8	8.46e-01	0	44	104	0	73	31303
2026-01-20 23:37:20.37	245.79	8.02	-50.8	-69.6	3.8	8.48e-01	0	43	104	0	73	30950
2026-01-20 23:37:22.36	245.36	8.14	-50.9	-69.0	3.8	8.47e-01	0	44	104	0	73	28958
2026-01-20 23:37:24.34	244.92	8.25	-50.9	-69.5	3.8	8.47e-01	0	44	104	0	73	30703
2026-01-20 23:37:26.33	244.48	8.36	-50.9	-69.5	3.8	8.47e-01	0	43	104	0	73	30411
2026-01-20 23:37:28.32	244.04	8.47	-50.9	-69.7	3.8	8.47e-01	0	43	104	0	73	31393
2026-01-20 23:37:30.30	243.59	8.58	-50.9	-69.8	3.8	8.47e-01	0	43	104	0	73	31485
2026-01-20 23:37:32.29	243.14	8.70	-50.9	-67.9	3.8	8.47e-01	0	43	104	0	73	25420
2026-01-20 23:37:34.27	242.68	8.80	-50.6	-61.8	6.6	8.09e-01	0	43	0	0	73	12662
2026-01-20 23:37:36.26	242.22	8.91	-49.4	-56.0	12.7	1.56e-01	0	43	0	0	70	7646
2026-01-20 23:37:38.25	241.75	9.02	-48.1	-52.8	15.9	1.10e-06	0	43	0	0	68	5955
2026-01-20 23:37:40.23	241.28	9.13	-45.0	-47.8	20.9	0.00e+00	0	43	0	0	61	5040
2026-01-20 23:37:42.23	240.80	9.24	-46.4	-50.3	17.8	1.86e-01	0	44	0	0	65	5301
2026-01-20 23:37:44.22	240.31	9.35	-44.1	-46.7	21.8	0.00e+00	0	43	0	0	60	4674
2026-01-20 23:37:46.21	239.82	9.45	-43.6	-46.1	22.3	0.00e+00	0	43	0	0	59	4639
2026-01-20 23:37:48.20	239.33	9.56	-43.1	-45.5	22.9	0.00e+00	0	44	0	0	58	4559
2026-01-20 23:37:50.19	238.83	9.66	-42.9	-45.2	23.2	0.00e+00	0	44	0	0	57	4674
2026-01-20 23:37:52.18	238.33	9.76	-42.9	-45.3	23.1	0.00e+00	0	43	0	0	57	4710
2026-01-20 23:37:54.16	237.83	9.87	-43.2	-45.6	22.9	0.00e+00	0	44	0	0	57	4887
2026-01-20 23:37:56.15	237.31	9.97	-43.5	-45.9	22.6	0.00e+00	0	43	0	0	57	5084
2026-01-20 23:37:58.14	236.80	10.07	-43.7	-46.2	22.4	0.00e+00	0	44	0	0	58	4944
2026-01-20 23:38:00.13	236.28	10.17	-43.5	-45.9	22.6	0.00e+00	0	44	0	0	58	4788
2026-01-20 23:38:02.12	235.75	10.26	-43.4	-45.9	22.7	0.00e+00	0	44	0	0	58	4769
2026-01-20 23:38:04.11	235.22	10.36	-43.2	-45.5	23.0	0.00e+00	0	44	0	0	58	4595
2026-01-20 23:38:06.10	234.68	10.46	-43.3	-45.6	22.9	0.00e+00	0	44	0	0	58	4641
2026-01-20 23:38:08.09	234.14	10.55	-43.2	-45.5	23.0	0.00e+00	0	43	0	0	58	4589
2026-01-20 23:38:10.08	233.60	10.64	-43.3	-45.7	22.9	0.00e+00	0	44	0	0	58	4666
2026-01-20 23:38:12.07	233.05	10.73	-43.1	-45.5	23.1	0.00e+00	0	43	0	0	58	4551
2026-01-20 23:38:14.06	232.49	10.82	-43.1	-45.4	23.1	0.00e+00	0	43	0	0	58	4536
2026-01-20 23:38:16.05	231.93	10.91	-42.7	-45.0	23.5	0.00e+00	0	44	0	0	57	4584
2026-01-20 23:38:18.05	231.37	11.00	-42.9	-45.2	23.4	0.00e+00	0	44	0	0	57	4677
2026-01-20 23:38:20.03	230.80	11.08	-42.9	-45.1	23.5	0.00e+00	0	44	0	0	57	4648
2026-01-20 23:38:22.02	230.23	11.16	-42.5	-44.7	23.8	0.00e+00	0	44	0	0	57	4435
2026-01-20 23:38:24.01	229.65	11.24	-42.5	-44.7	23.8	0.00e+00	0	44	0	0	57	4435
2026-01-20 23:38:26.00	229.07	11.32	-42.4	-44.7	23.9	0.00e+00	0	43	0	0	56	4652
2026-01-20 23:38:27.99	228.49	11.40	-42.2	-44.4	24.1	0.00e+00	0	43	0	0	56	4536
2026-01-20 23:38:29.98	227.90	11.48	-42.2	-44.4	24.2	0.00e+00	0	44	0	0	56	4502
2026-01-20 23:38:31.97	227.30	11.55	-42.3	-44.5	24.1	0.00e+00	0	43	0	0	56	4565
2026-01-20 23:38:33.96	226.71	11.62	-42.4	-44.6	23.9	0.00e+00	0	43	0	0	56	4651
2026-01-20 23:38:35.95	226.11	11.69	-42.5	-44.7	23.9	0.00e+00	0	43	0	0	56	4687
2026-01-20 23:38:37.94	225.50	11.76	-42.6	-44.9	23.8	0.00e+00	0	44	0	0	56	4775
2026-01-20 23:38:39.93	224.89	11.82	-42.7	-44.9	23.7	0.00e+00	0	44	0	0	56	4811
2026-01-20 23:38:41.92	224.28	11.88	-43.0	-45.3	23.5	0.00e+00	0	44	0	0	56	5005
2026-01-20 23:38:43.91	223.67	11.94	-42.9	-45.2	23.5	0.00e+00	0	44	0	0	56	4961
2026-01-20 23:38:45.90	223.05	12.00	-42.7	-45.0	23.6	0.00e+00	0	43	0	0	56	4826
2026-01-20 23:38:47.89	222.43	12.06	-42.7	-45.0	23.7	0.00e+00	0	44	0	0	56	4821
2026-01-20 23:38:49.88	221.80	12.11	-42.6	-44.8	23.9	0.00e+00	0	44	0	0	56	4734
2026-01-20 23:38:51.87	221.17	12.16	-42.6	-44.8	23.9	0.00e+00	0	43	0	0	56	4758
2026-01-20 23:38:53.86	220.54	12.21	-42.7	-44.9	23.9	0.00e+00	0	43	0	0	56	4793
2026-01-20 23:38:55.86	219.91	12.26	-42.6	-44.8	23.9	0.00e+00	0	44	0	0	56	4742
2026-01-20 23:38:57.85	219.27	12.30	-42.8	-45.1	23.7	0.00e+00	0	44	0	0	56	4889
2026-01-20 23:38:59.84	218.63	12.34	-43.0	-45.3	23.6	0.00e+00	0	44	0	0	56	5008
2026-01-20 23:39:01.82	218.00	12.38	-43.1	-45.4	23.5	0.00e+00	0	44	0	0	56	5047
2026-01-20 23:39:03.81	217.35	12.41	-43.0	-45.3	23.6	0.00e+00	0	43	0	0	56	5010
2026-01-20 23:39:05.80	216.71	12.44	-42.8	-45.1	23.8	0.00e+00	0	44	0	0	56	4894
2026-01-20 23:39:07.79	216.06	12.47	-42.6	-44.9	23.9	0.00e+00	0	44	0	0	56	4760
2026-01-20 23:39:09.78	215.42	12.50	-42.5	-44.7	24.1	0.00e+00	0	44	0	0	56	4685
2026-01-20 23:39:11.77	214.77	12.52	-42.6	-44.8	24.0	0.00e+00	0	43	0	0	56	4707
2026-01-20 23:39:13.76	214.12	12.54	-42.2	-44.3	24.4	0.00e+00	0	44	0	0	56	4470
2026-01-20 23:39:15.75	213.46	12.56	-41.8	-44.0	24.6	0.00e+00	0	44	0	0	55	4546
2026-01-20 23:39:17.74	212.81	12.58	-41.7	-43.9	24.6	0.00e+00	0	44	0	0	55	4504
2026-01-20 23:39:19.72	212.16	12.59	-42.1	-44.3	24.3	0.00e+00	0	44	0	0	55	4733
2026-01-20 23:39:21.71	211.51	12.60	-42.4	-44.6	24.0	0.00e+00	0	44	0	0	55	4903
2026-01-20 23:39:23.70	210.85	12.61	-42.5	-44.7	24.0	0.00e+00	0	44	0	0	55	4980
2026-01-20 23:39:25.70	210.19	12.61	-42.6	-44.8	23.9	0.00e+00	0	44	0	0	55	5019
2026-01-20 23:39:27.68	209.54	12.61	-42.2	-44.3	24.3	0.00e+00	0	43	0	0	55	4737
2026-01-20 23:39:29.67	208.89	12.61	-42.4	-44.6	24.1	0.00e+00	0	44	0	0	55	4910
2026-01-20 23:39:31.66	208.23	12.60	-42.3	-44.5	24.2	0.00e+00	0	44	0	0	55	4857
2026-01-20 23:39:33.65	207.58	12.60	-42.1	-44.3	24.4	0.00e+00	0	43	0	0	55	4729
2026-01-20 23:39:35.65	206.92	12.59	-42.4	-44.6	24.2	0.00e+00	0	44	0	0	55	4879
2026-01-20 23:39:37.64	206.27	12.57	-42.7	-44.9	23.9	0.00e+00	0	44	0	0	55	5074
2026-01-20 23:39:39.62	205.62	12.56	-43.0	-45.3	23.7	0.00e+00	0	44	0	0	56	4987
2026-01-20 23:39:41.61	204.96	12.54	-42.8	-45.1	23.9	0.00e+00	0	44	0	0	56	4874
2026-01-20 23:39:43.60	204.31	12.51	-42.4	-44.6	24.2	0.00e+00	0	44	0	0	56	4640
2026-01-20 23:39:45.59	203.66	12.49	-42.2	-44.3	24.5	0.00e+00	0	44	0	0	56	4482
2026-01-20 23:39:47.59	203.01	12.46	-42.2	-44.4	24.5	0.00e+00	0	44	0	0	56	4527
2026-01-20 23:39:49.57	202.37	12.43	-42.4	-44.5	24.3	0.00e+00	0	44	0	0	56	4595
2026-01-20 23:39:51.56	201.73	12.40	-42.6	-44.8	24.1	0.00e+00	0	43	0	0	56	4735
2026-01-20 23:39:53.55	201.09	12.36	-42.6	-44.8	24.1	0.00e+00	0	44	0	0	56	4756
2026-01-20 23:39:55.54	200.45	12.32	-42.3	-44.5	24.3	0.00e+00	0	44	0	0	56	4581
2026-01-20 23:39:57.53	199.81	12.28	-42.3	-44.5	24.3	0.00e+00	0	44	0	0	56	4564
2026-01-20 23:39:59.52	199.17	12.24	-42.8	-45.1	23.9	0.00e+00	0	44	0	0	56	4871
2026-01-20 23:40:01.51	198.54	12.19	-43.1	-45.4	23.7	0.00e+00	0	44	0	0	56	5053
2026-01-20 23:40:03.50	197.91	12.14	-43.2	-45.5	23.6	0.00e+00	0	44	0	0	56	5143
2026-01-20 23:40:05.49	197.28	12.09	-43.0	-45.3	23.8	0.00e+00	0	44	0	0	57	4718
2026-01-20 23:40:07.48	196.66	12.03	-42.6	-44.9	24.1	0.00e+00	0	43	0	0	57	4508
2026-01-20 23:40:09.47	196.04	11.98	-42.7	-44.9	24.1	0.00e+00	0	43	0	0	57	4530
2026-01-20 23:40:11.46	195.42	11.92	-43.2	-45.5	23.6	0.00e+00	0	44	0	0	57	4867
2026-01-20 23:40:13.45	194.80	11.86	-43.6	-46.0	23.2	0.00e+00	0	44	0	0	57	5113
2026-01-20 23:40:15.44	194.19	11.79	-43.4	-45.8	23.4	0.00e+00	0	44	0	0	57	4986
2026-01-20 23:40:17.43	193.59	11.73	-42.8	-45.0	24.0	0.00e+00	0	44	0	0	57	4587
2026-01-20 23:40:19.41	192.98	11.66	-42.8	-45.1	24.0	0.00e+00	0	44	0	0	57	4613
2026-01-20 23:40:21.40	192.38	11.59	-43.4	-45.7	23.5	0.00e+00	0	44	0	0	57	4961
2026-01-20 23:40:23.40	191.78	11.52	-43.8	-46.3	23.0	0.00e+00	0	44	0	0	58	4990
2026-01-20 23:40:25.38	191.20	11.44	-43.4	-45.8	23.4	0.00e+00	0	44	0	0	58	4723
2026-01-20 23:40:27.37	190.61	11.37	-43.2	-45.5	23.7	0.00e+00	0	44	0	0	58	4576
2026-01-20 23:40:29.36	190.02	11.29	-42.4	-44.7	24.3	0.00e+00	0	44	0	0	56	4665
2026-01-20 23:40:31.35	189.44	11.21	-43.0	-45.3	23.8	0.00e+00	0	44	0	0	56	5036
2026-01-20 23:40:33.34	188.87	11.13	-43.5	-45.9	23.4	0.00e+00	0	44	0	0	57	5051
2026-01-20 23:40:35.33	188.29	11.04	-44.0	-46.5	22.9	0.00e+00	0	44	0	0	58	5103
2026-01-20 23:40:37.32	187.73	10.96	-43.7	-46.1	23.2	0.00e+00	0	44	0	0	58	4874
2026-01-20 23:40:39.31	187.16	10.87	-43.2	-45.6	23.6	0.00e+00	0	43	0	0	58	4601
2026-01-20 23:40:41.30	186.61	10.78	-42.9	-45.2	23.9	0.00e+00	0	44	0	0	57	4670
2026-01-20 23:40:43.29	186.05	10.69	-43.1	-45.4	23.7	0.00e+00	0	43	0	0	57	4762
2026-01-20 23:40:45.28	185.50	10.60	-43.6	-46.0	23.3	0.00e+00	0	44	0	0	57	5151
2026-01-20 23:40:47.27	184.96	10.51	-44.2	-46.7	22.6	0.00e+00	0	44	0	0	59	4977
2026-01-20 23:40:49.26	184.42	10.41	-44.2	-46.8	22.6	0.00e+00	0	44	0	0	59	5004
2026-01-20 23:40:51.25	183.88	10.32	-44.2	-46.7	22.6	0.00e+00	0	44	0	0	59	4982
2026-01-20 23:40:53.24	183.35	10.22	-44.2	-46.7	22.7	0.00e+00	0	44	0	0	59	4948
2026-01-20 23:40:55.22	182.83	10.12	-43.8	-46.2	23.0	4.50e-06	0	44	0	0	59	4698
2026-01-20 23:40:57.22	182.30	10.02	-43.7	-46.1	23.2	0.00e+00	0	43	0	0	59	4604
2026-01-20 23:40:59.21	181.79	9.92	-44.0	-46.5	22.9	0.00e+00	0	43	0	0	59	4835
2026-01-20 23:41:01.20	181.28	9.82	-44.4	-46.9	22.4	0.00e+00	0	44	0	0	59	5090
2026-01-20 23:41:03.19	180.77	9.72	-44.3	-46.9	22.5	0.00e+00	0	44	0	0	59	5057
2026-01-20 23:41:05.18	180.27	9.61	-44.1	-46.6	22.7	0.00e+00	0	44	0	0	59	4904
2026-01-20 23:41:07.17	179.77	9.51	-43.7	-46.3	23.0	0.00e+00	0	44	0	0	59	4727
2026-01-20 23:41:09.16	179.28	9.40	-43.8	-46.4	22.9	0.00e+00	0	44	0	0	59	4795
2026-01-20 23:41:11.15	178.79	9.30	-43.9	-46.6	22.7	0.00e+00	0	43	0	0	59	4907
2026-01-20 23:41:13.14	178.31	9.19	-44.6	-47.4	22.0	3.40e-06	0	44	0	0	59	5347
2026-01-20 23:41:15.13	177.83	9.08	-44.6	-47.4	22.0	0.00e+00	0	44	0	0	60	5083
2026-01-20 23:41:17.12	177.36	8.97	-50.3	-64.7	4.8	0.00e+00	0	44	104	0	71	19638
2026-01-20 23:41:19.10	176.89	8.86	-52.0	-71.2	3.8	7.60e-01	0	44	104	0	74	35005
2026-01-20 23:41:21.09	176.43	8.75	-52.3	-71.3	3.8	8.47e-01	0	44	104	0	75	33651
2026-01-20 23:41:23.07	175.97	8.64	-52.5	-71.4	3.8	8.47e-01	0	44	104	0	75	33839
2026-01-20 23:41:25.06	175.52	8.53	-52.6	-71.4	3.8	8.47e-01	0	43	104	0	75	34016
2026-01-20 23:41:27.05	175.07	8.42	-52.6	-71.5	3.8	8.46e-01	0	44	104	0	75	34171
2026-01-20 23:41:29.03	174.63	8.31	-52.7	-71.5	3.8	8.47e-01	0	44	104	0	76	32344
2026-01-20 23:41:31.02	174.19	8.19	-52.7	-71.6	3.8	8.47e-01	0	44	104	0	76	32561
2026-01-20 23:41:33.01	173.75	8.08	-52.5	-71.5	3.8	8.46e-01	0	44	104	0	76	32465
2026-01-20 23:41:34.99	173.32	7.97	-52.6	-71.5	3.8	8.48e-01	0	44	104	0	76	32430
2026-01-20 23:41:36.98	172.90	7.85	-52.6	-71.5	3.8	8.47e-01	0	44	104	0	76	32500
2026-01-20 23:41:38.96	172.48	7.74	-52.8	-71.5	3.8	8.47e-01	0	44	104	0	76	32421
2026-01-20 23:41:40.95	172.06	7.62	-52.8	-71.5	3.8	8.45e-01	0	44	104	0	76	32498
2026-01-20 23:41:42.94	171.65	7.51	-52.6	-71.5	3.8	8.46e-01	0	44	104	0	76	32448
2026-01-20 23:41:44.92	171.24	7.39	-52.5	-71.5	3.8	8.48e-01	0	44	104	0	76	32433
2026-01-20 23:41:46.91	170.84	7.28	-52.5	-71.5	3.8	8.47e-01	0	44	104	0	76	32210
2026-01-20 23:41:48.89	170.44	7.16	-52.5	-71.5	3.8	8.47e-01	0	44	104	0	76	32300
2026-01-20 23:41:50.88	170.05	7.05	-52.5	-71.5	3.8	8.47e-01	0	44	104	0	76	32198
2026-01-20 23:41:52.87	169.66	6.93	-52.5	-71.5	3.8	8.47e-01	0	43	104	0	76	32240
2026-01-20 23:41:54.86	169.27	6.82	-52.5	-71.5	3.8	8.47e-01	0	44	104	0	76	32218
2026-01-20 23:41:56.84	168.90	6.70	-52.5	-71.5	3.8	8.46e-01	0	44	104	0	76	32227
2026-01-20 23:41:58.83	168.52	6.58	-52.5	-71.5	3.8	8.48e-01	0	44	104	0	76	32206
2026-01-20 23:42:00.81	168.15	6.47	-52.5	-71.5	3.8	8.47e-01	0	44	104	0	76	32246
2026-01-20 23:42:02.80	167.78	6.35	-52.5	-71.5	3.8	8.47e-01	0	44	104	0	76	32220
2026-01-20 23:42:04.79	167.41	6.23	-52.5	-71.5	3.8	8.47e-01	0	44	104	0	76	32226
2026-01-20 23:42:06.77	167.05	6.12	-52.5	-71.5	3.8	8.47e-01	0	44	104	0	76	32187
2026-01-20 23:42:08.76	166.70	6.00	-52.5	-71.5	3.8	8.48e-01	0	44	104	0	76	32279
2026-01-20 23:42:10.75	166.35	5.88	-52.5	-71.5	3.8	8.46e-01	0	44	104	0	76	32293
2026-01-20 23:42:12.73	166.00	5.77	-52.5	-71.5	3.8	8.47e-01	0	44	104	0	76	32328
2026-01-20 23:42:14.72	165.65	5.65	-52.5	-71.4	3.8	8.46e-01	0	44	104	0	76	32176
2026-01-20 23:42:16.71	165.31	5.54	-52.5	-71.5	3.8	8.48e-01	0	44	104	0	76	32278
2026-01-20 23:42:18.69	164.98	5.42	-52.5	-71.5	3.8	8.46e-01	0	44	104	0	76	32298
2026-01-20 23:42:20.68	164.64	5.30	-52.5	-71.5	3.8	8.47e-01	0	44	104	0	76	32340
2026-01-20 23:42:22.66	164.32	5.19	-52.5	-71.5	3.8	8.47e-01	0	44	104	0	76	32258
2026-01-20 23:42:24.65	163.99	5.07	-52.5	-71.5	3.8	8.48e-01	0	44	104	0	76	32210
2026-01-20 23:42:26.63	163.67	4.96	-52.5	-71.5	3.8	8.46e-01	0	44	104	0	76	32189
2026-01-20 23:42:28.62	163.35	4.84	-52.5	-71.5	3.8	8.46e-01	0	44	104	0	76	32282
2026-01-20 23:42:30.61	163.04	4.73	-52.5	-71.5	3.8	8.47e-01	0	44	104	0	76	32310

#Closed at: 2026-01-20 23:42:32
#Recorded file [0 MB]: D:/Data/31040_260121_023632.dat