passes_logs/2026/01/20/T1/T1__20260120_121029_FENGYUN_3D_rec.log

#Pass ID: 20260120_121029_FENGYUN 3D
#Satellite: FENGYUN 3D
#Configuration: FENGYUN 3D
#almurnet v.1.7.20251203
#Start time: 2026-01-20 12:10:29

#Version: 2.0.20230620
#Station: T1
#Location: 37.570604 lon 55.790049 lat
#TLE: 1 43010U 17072A   26019.65504262 -.00000232  00000+0 -88147-4 0  9993
#TLE: 2 43010  98.9941 351.5427 0002443 100.5024 259.6427 14.19695886423913

#Time	Az	El	Level	Level2	SNR	BER	BlckErr	Temp	State	Recorded	gain1	gain2
2026-01-20 12:10:29.24	166.13	4.98	-49.8	-62.3	3.8	8.47e-01	0	38	0	0	71	14895
2026-01-20 12:10:33.21	166.18	5.26	-47.9	-61.0	3.8	8.47e-01	0	38	104	0	67	16221
2026-01-20 12:10:37.18	166.23	5.55	-48.0	-61.5	3.8	8.46e-01	0	38	104	0	67	17245
2026-01-20 12:10:41.15	166.28	5.84	-48.0	-61.7	3.8	8.46e-01	0	38	104	0	67	17544
2026-01-20 12:10:45.12	166.33	6.14	-47.8	-60.3	3.8	8.46e-01	0	39	104	0	67	14955
2026-01-20 12:10:49.10	166.39	6.44	-47.8	-59.6	3.9	8.46e-01	0	39	104	0	67	13802
2026-01-20 12:10:53.07	166.44	6.74	-47.9	-60.9	3.8	8.47e-01	0	39	104	0	67	15960
2026-01-20 12:10:57.04	166.50	7.04	-47.9	-61.8	3.8	8.48e-01	0	39	104	0	67	17786
2026-01-20 12:11:01.02	166.56	7.35	-47.8	-60.9	3.8	8.47e-01	0	39	104	0	67	16024
2026-01-20 12:11:04.99	166.61	7.67	-47.1	-54.8	5.9	5.29e-01	0	39	0	1048576	66	8449
2026-01-20 12:11:08.97	166.67	7.98	-45.1	-49.4	11.1	3.44e-03	0	39	0	23068672	62	5722
2026-01-20 12:11:12.94	166.73	8.31	-43.8	-47.2	13.4	3.20e-05	0	40	0	45088768	59	5268
2026-01-20 12:11:16.92	166.79	8.63	-45.0	-48.8	9.1	1.06e-04	0	40	0	67108864	60	5983
2026-01-20 12:11:20.89	166.86	8.96	-46.5	-53.0	7.6	6.52e-02	0	40	0	90177536	63	8098
2026-01-20 12:11:24.87	166.92	9.30	-45.1	-49.4	11.1	1.62e-01	0	39	0	105906176	62	5717
2026-01-20 12:11:28.85	166.98	9.63	-43.9	-47.5	13.2	2.08e-04	0	40	0	124780544	59	5407
2026-01-20 12:11:32.83	167.05	9.98	-43.0	-46.1	14.5	1.10e-06	0	40	0	146800640	57	5204
2026-01-20 12:11:36.81	167.12	10.33	-41.8	-44.6	16.0	0.00e+00	0	40	0	169869312	54	5168
2026-01-20 12:11:40.79	167.18	10.68	-41.0	-43.4	17.1	0.00e+00	0	40	0	191889408	54	4501
2026-01-20 12:11:44.77	167.25	11.04	-40.5	-42.8	17.7	0.00e+00	0	40	0	213909504	53	4451
2026-01-20 12:11:48.75	167.33	11.40	-40.3	-42.4	18.0	0.00e+00	0	40	0	236978176	52	4524
2026-01-20 12:11:52.73	167.40	11.77	-40.4	-42.5	17.9	0.00e+00	0	40	0	258998272	52	4583
2026-01-20 12:11:56.71	167.47	12.15	-39.7	-41.7	18.7	0.00e+00	0	40	0	282066944	51	4420
2026-01-20 12:12:00.69	167.55	12.53	-39.6	-41.6	18.8	0.00e+00	0	40	0	304087040	51	4360
2026-01-20 12:12:04.67	167.63	12.92	-39.7	-41.7	18.8	0.00e+00	0	40	0	326107136	50	4663
2026-01-20 12:12:08.65	167.71	13.31	-39.2	-41.2	19.3	0.00e+00	0	40	0	349175808	50	4402
2026-01-20 12:12:12.62	167.79	13.71	-38.9	-40.9	19.4	0.00e+00	0	40	0	371195904	49	4530
2026-01-20 12:12:16.61	167.87	14.12	-38.9	-40.8	19.5	0.00e+00	0	40	0	393216000	49	4483
2026-01-20 12:12:20.59	167.96	14.53	-38.8	-40.8	19.6	9.83e-04	0	40	0	416284672	49	4446
2026-01-20 12:12:24.57	168.05	14.95	-38.5	-40.4	19.9	0.00e+00	0	40	0	438304768	49	4272
2026-01-20 12:12:28.55	168.14	15.38	-38.2	-40.1	20.2	0.00e+00	0	40	0	460324864	48	4359
2026-01-20 12:12:32.52	168.23	15.82	-38.0	-39.9	20.4	0.00e+00	0	40	0	483393536	48	4261
2026-01-20 12:12:36.50	168.32	16.26	-37.7	-39.6	20.5	0.00e+00	0	40	0	505413632	47	4348
2026-01-20 12:12:40.49	168.42	16.71	-37.7	-39.5	20.5	0.00e+00	0	40	0	527433728	47	4332
2026-01-20 12:12:44.47	168.52	17.17	-37.5	-39.4	20.6	0.00e+00	0	40	0	550502400	47	4250
2026-01-20 12:12:48.45	168.62	17.64	-37.4	-39.2	20.8	0.00e+00	0	40	0	572522496	46	4433
2026-01-20 12:12:52.43	168.73	18.12	-37.3	-39.2	20.8	0.00e+00	0	40	0	594542592	46	4407
2026-01-20 12:12:56.41	168.83	18.61	-37.4	-39.2	20.8	0.00e+00	0	40	0	617611264	46	4428
2026-01-20 12:13:00.38	168.95	19.10	-37.3	-39.1	20.9	0.00e+00	0	40	0	639631360	46	4388
2026-01-20 12:13:04.37	169.06	19.61	-37.2	-39.1	20.9	0.00e+00	0	40	0	661651456	46	4343
2026-01-20 12:13:08.35	169.18	20.13	-37.0	-38.8	21.2	0.00e+00	0	40	0	684720128	45	4452
2026-01-20 12:13:12.33	169.30	20.66	-36.9	-38.7	21.2	0.00e+00	0	40	0	706740224	45	4395
2026-01-20 12:13:16.31	169.43	21.20	-36.8	-38.6	21.3	0.00e+00	0	40	0	729808896	45	4356
2026-01-20 12:13:20.29	169.56	21.75	-36.8	-38.7	21.2	0.00e+00	0	40	0	751828992	45	4398
2026-01-20 12:13:24.27	169.69	22.31	-36.5	-38.3	21.5	0.00e+00	0	40	0	773849088	45	4236
2026-01-20 12:13:28.25	169.83	22.89	-36.3	-38.1	21.7	0.00e+00	0	40	0	796917760	44	4364
2026-01-20 12:13:32.23	169.97	23.48	-36.3	-38.1	21.4	0.00e+00	0	40	0	818937856	44	4360
2026-01-20 12:13:36.21	170.12	24.08	-36.5	-38.3	21.6	0.00e+00	0	40	0	840957952	44	4442
2026-01-20 12:13:40.19	170.28	24.70	-36.5	-38.3	21.6	0.00e+00	0	40	0	864026624	44	4464
2026-01-20 12:13:44.18	170.44	25.34	-36.4	-38.1	21.8	0.00e+00	0	40	0	886046720	44	4383
2026-01-20 12:13:48.16	170.60	25.98	-36.0	-37.7	22.1	0.00e+00	0	40	0	908066816	44	4182
2026-01-20 12:13:52.14	170.77	26.65	-35.8	-37.5	22.1	0.00e+00	0	40	0	931135488	43	4335
2026-01-20 12:13:56.12	170.95	27.33	-36.0	-37.8	22.0	0.00e+00	0	40	0	953155584	43	4445
2026-01-20 12:14:00.09	171.14	28.02	-35.9	-37.7	22.0	0.00e+00	0	40	0	976224256	43	4416
2026-01-20 12:14:04.07	171.33	28.74	-35.9	-37.7	22.0	0.00e+00	0	40	0	998244352	43	4413
2026-01-20 12:14:08.05	171.53	29.47	-36.0	-37.7	21.9	0.00e+00	0	41	0	1020264448	43	4431
2026-01-20 12:14:12.03	171.75	30.22	-36.0	-37.8	21.8	0.00e+00	0	40	0	1042284544	43	4472
2026-01-20 12:14:16.01	171.97	30.99	-35.8	-37.5	22.1	0.00e+00	0	40	0	1065353216	43	4327
2026-01-20 12:14:19.99	172.20	31.78	-35.7	-37.4	22.2	0.00e+00	0	40	0	1087373312	43	4276
2026-01-20 12:14:23.97	172.44	32.60	-35.7	-37.5	22.2	0.00e+00	0	40	0	1110441984	43	4295
2026-01-20 12:14:27.95	172.69	33.43	-35.4	-37.1	22.5	0.00e+00	0	41	0	1132462080	42	4370
2026-01-20 12:14:31.93	172.96	34.29	-35.4	-37.1	22.5	0.00e+00	0	40	0	1154482176	42	4367
2026-01-20 12:14:35.91	173.24	35.17	-35.5	-37.3	22.3	0.00e+00	0	40	0	1177550848	42	4459
2026-01-20 12:14:39.89	173.54	36.08	-35.3	-37.1	22.6	0.00e+00	0	40	0	1199570944	42	4342
2026-01-20 12:14:43.87	173.85	37.01	-35.2	-36.9	22.7	0.00e+00	0	40	0	1221591040	42	4258
2026-01-20 12:14:47.85	174.18	37.97	-35.2	-36.9	22.7	0.00e+00	0	40	0	1244659712	42	4266
2026-01-20 12:14:51.82	174.53	38.96	-35.4	-37.2	22.5	0.00e+00	0	40	0	1266679808	42	4399
2026-01-20 12:14:55.80	174.90	39.97	-35.4	-37.1	22.5	0.00e+00	0	40	0	1288699904	42	4380
2026-01-20 12:14:59.78	175.30	41.01	-35.6	-37.4	22.4	0.00e+00	0	40	0	1311768576	42	4503
2026-01-20 12:15:03.76	175.72	42.08	-36.1	-37.8	22.0	0.00e+00	0	40	0	1333788672	42	4744
2026-01-20 12:15:07.75	176.17	43.19	-35.6	-37.3	22.4	0.00e+00	0	40	0	1355808768	43	4205
2026-01-20 12:15:11.73	176.64	44.32	-35.8	-37.6	22.3	0.00e+00	0	40	0	1378877440	42	4599
2026-01-20 12:15:15.71	177.16	45.49	-36.2	-38.0	21.9	0.00e+00	0	40	0	1400897536	43	4552
2026-01-20 12:15:19.69	177.71	46.68	-35.8	-37.5	22.3	0.00e+00	0	40	0	1422917632	43	4337
2026-01-20 12:15:23.67	178.31	47.91	-35.8	-37.5	22.3	0.00e+00	0	40	0	1445986304	42	4596
2026-01-20 12:15:27.64	178.95	49.17	-35.9	-37.6	22.3	0.00e+00	0	40	0	1468006400	42	4632
2026-01-20 12:15:31.62	179.65	50.46	-36.4	-38.1	21.9	0.00e+00	0	40	0	1490026496	43	4639
2026-01-20 12:15:35.60	180.41	51.79	-36.7	-38.4	21.6	0.00e+00	0	40	0	1513095168	43	4804
2026-01-20 12:15:39.58	181.25	53.15	-36.7	-38.5	21.6	0.00e+00	0	40	0	1535115264	44	4566
2026-01-20 12:15:43.56	182.16	54.54	-37.2	-39.0	21.3	0.00e+00	0	40	0	1558183936	45	4552
2026-01-20 12:15:47.54	183.17	55.96	-37.5	-39.3	21.0	0.00e+00	0	40	0	1580204032	45	4714
2026-01-20 12:15:51.53	184.28	57.41	-36.9	-38.7	21.4	0.00e+00	0	40	0	1602224128	45	4415
2026-01-20 12:15:55.51	185.52	58.88	-36.2	-38.0	22.2	0.00e+00	0	40	0	1625292800	44	4293
2026-01-20 12:15:59.49	186.90	60.38	-35.2	-36.9	22.9	0.00e+00	0	40	0	1647312896	42	4274
2026-01-20 12:16:03.47	188.46	61.89	-35.4	-37.1	22.7	0.00e+00	0	40	0	1669332992	42	4344
2026-01-20 12:16:07.45	190.22	63.42	-35.0	-36.7	22.9	0.00e+00	0	40	0	1692401664	42	4193
2026-01-20 12:16:11.43	192.22	64.96	-35.0	-36.7	22.9	0.00e+00	0	40	0	1714421760	41	4416
2026-01-20 12:16:15.41	194.51	66.50	-35.2	-36.9	22.7	0.00e+00	0	40	0	1736441856	41	4544
2026-01-20 12:16:19.39	197.16	68.02	-35.2	-36.9	22.7	0.00e+00	0	40	0	1759510528	41	4544
2026-01-20 12:16:23.37	200.23	69.53	-34.8	-36.5	23.0	0.00e+00	0	41	0	1781530624	41	4338
2026-01-20 12:16:27.35	203.81	70.99	-34.6	-36.3	23.2	0.00e+00	0	40	0	1803550720	40	4449
2026-01-20 12:16:31.33	208.02	72.39	-34.3	-36.0	23.5	0.00e+00	0	40	0	1826619392	39	4553
2026-01-20 12:16:35.31	212.96	73.71	-34.2	-35.9	23.5	0.00e+00	0	40	0	1848639488	39	4507
2026-01-20 12:16:39.29	218.77	74.90	-33.6	-35.3	24.0	0.00e+00	0	40	0	1871708160	39	4198
2026-01-20 12:16:43.27	225.53	75.92	-33.8	-35.5	23.7	0.00e+00	0	40	0	1893728256	38	4575
2026-01-20 12:16:47.25	233.27	76.74	-33.6	-35.2	24.0	0.00e+00	0	40	0	1915748352	38	4435
2026-01-20 12:16:51.23	241.87	77.29	-33.6	-35.3	23.9	0.00e+00	0	40	0	1937768448	38	4452
2026-01-20 12:16:55.21	251.05	77.55	-33.8	-35.4	23.8	0.00e+00	0	40	0	1960837120	38	4545
2026-01-20 12:16:59.19	260.38	77.49	-33.6	-35.3	23.9	0.00e+00	0	40	0	1982857216	38	4463
2026-01-20 12:17:03.17	269.39	77.12	-33.7	-35.4	23.9	0.00e+00	0	40	0	2005925888	38	4495
2026-01-20 12:17:07.15	277.68	76.46	-34.0	-35.7	23.7	0.00e+00	0	40	0	2027945984	38	4658
2026-01-20 12:17:11.13	285.04	75.56	-33.6	-35.2	24.0	0.00e+00	0	40	0	2049966080	38	4426
2026-01-20 12:17:15.11	291.43	74.46	-33.7	-35.3	24.0	0.00e+00	0	40	0	2073034752	38	4482
2026-01-20 12:17:19.09	296.89	73.22	-34.3	-36.0	23.4	0.00e+00	0	40	0	2095054848	39	4565
2026-01-20 12:17:23.07	301.54	71.88	-34.3	-36.0	23.5	0.00e+00	0	40	0	2117074944	39	4578
2026-01-20 12:17:27.05	305.49	70.45	-34.6	-36.4	23.2	0.00e+00	0	40	0	2140143616	40	4497
2026-01-20 12:17:31.02	308.86	68.98	-34.6	-36.3	23.3	0.00e+00	0	40	0	2162163712	40	4465
2026-01-20 12:17:35.00	311.76	67.47	-34.7	-36.4	23.1	0.00e+00	0	40	0	2184183808	40	4537
2026-01-20 12:17:38.98	314.26	65.94	-35.1	-36.8	22.9	0.00e+00	0	40	0	2207252480	40	4748
2026-01-20 12:17:42.96	316.44	64.40	-34.8	-36.5	23.2	0.00e+00	0	40	0	2229272576	40	4561
2026-01-20 12:17:46.95	318.35	62.87	-35.1	-36.8	22.8	0.00e+00	0	40	0	2251292672	41	4490
2026-01-20 12:17:50.93	320.02	61.35	-35.2	-36.9	22.8	0.00e+00	0	40	0	2274361344	41	4503
2026-01-20 12:17:54.91	321.51	59.84	-35.7	-37.4	22.4	0.00e+00	0	40	0	2296381440	41	4790
2026-01-20 12:17:58.89	322.84	58.36	-36.1	-37.9	22.0	0.00e+00	0	40	0	2318401536	43	4515
2026-01-20 12:18:02.86	324.02	56.90	-36.4	-38.1	21.8	0.00e+00	0	40	0	2341470208	43	4640
2026-01-20 12:18:06.84	325.10	55.47	-36.3	-38.0	22.0	0.00e+00	0	40	0	2363490304	43	4569
2026-01-20 12:18:10.82	326.07	54.07	-36.5	-38.2	22.2	0.00e+00	0	41	0	2385510400	43	4684
2026-01-20 12:18:14.80	326.95	52.69	-36.8	-38.5	22.1	0.00e+00	0	40	0	2408579072	44	4554
2026-01-20 12:18:18.78	327.75	51.35	-37.2	-38.9	21.7	0.00e+00	0	40	0	2430599168	45	4542
2026-01-20 12:18:22.76	328.49	50.04	-36.3	-38.0	22.5	0.00e+00	0	40	0	2453667840	44	4315
2026-01-20 12:18:26.74	329.17	48.77	-35.7	-37.3	22.9	0.00e+00	0	40	0	2475687936	43	4236
2026-01-20 12:18:30.71	329.80	47.52	-35.8	-37.5	22.8	0.00e+00	0	40	0	2497708032	43	4308
2026-01-20 12:18:34.69	330.38	46.31	-35.7	-37.4	22.9	0.00e+00	0	40	0	2520776704	43	4256
2026-01-20 12:18:38.67	330.92	45.13	-35.6	-37.3	23.0	0.00e+00	0	40	0	2542796800	43	4210
2026-01-20 12:18:42.65	331.42	43.98	-35.4	-37.0	23.1	0.00e+00	0	40	0	2564816896	42	4331
2026-01-20 12:18:46.63	331.89	42.87	-35.4	-37.0	23.1	0.00e+00	0	40	0	2586836992	42	4332
2026-01-20 12:18:50.61	332.33	41.78	-35.4	-37.1	23.1	0.00e+00	0	40	0	2609905664	42	4345
2026-01-20 12:18:54.59	332.74	40.72	-35.1	-36.7	23.4	0.00e+00	0	40	0	2631925760	42	4176
2026-01-20 12:18:58.57	333.12	39.69	-34.8	-36.4	23.6	0.00e+00	0	40	0	2654994432	41	4287
2026-01-20 12:19:02.55	333.49	38.70	-35.2	-36.9	23.3	0.00e+00	0	40	0	2677014528	41	4496
2026-01-20 12:19:06.53	333.83	37.72	-35.1	-36.8	23.3	0.00e+00	0	40	0	2699034624	41	4459
2026-01-20 12:19:10.51	334.16	36.78	-35.3	-37.0	23.2	0.00e+00	0	40	0	2722103296	41	4561
2026-01-20 12:19:14.49	334.46	35.86	-35.4	-37.0	23.1	0.00e+00	0	40	0	2744123392	41	4583
2026-01-20 12:19:18.47	334.76	34.96	-35.1	-36.8	23.3	0.00e+00	0	40	0	2766143488	41	4461
2026-01-20 12:19:22.45	335.03	34.09	-35.3	-37.0	23.2	0.00e+00	0	40	0	2789212160	41	4555
2026-01-20 12:19:26.43	335.30	33.25	-35.5	-37.2	23.0	0.00e+00	0	40	0	2811232256	41	4674
2026-01-20 12:19:30.42	335.55	32.42	-35.7	-37.4	22.9	0.00e+00	0	40	0	2833252352	42	4500
2026-01-20 12:19:34.40	335.79	31.62	-35.7	-37.4	22.8	0.00e+00	0	40	0	2856321024	42	4497
2026-01-20 12:19:38.38	336.02	30.83	-35.6	-37.3	22.9	0.00e+00	0	40	0	2878341120	42	4485
2026-01-20 12:19:42.36	336.24	30.07	-35.6	-37.3	22.9	0.00e+00	0	40	0	2901409792	42	4483
2026-01-20 12:19:46.34	336.45	29.33	-35.6	-37.3	22.9	0.00e+00	0	40	0	2923429888	42	4462
2026-01-20 12:19:50.32	336.65	28.61	-35.4	-37.1	23.0	0.00e+00	0	40	0	2945449984	42	4356
2026-01-20 12:19:54.30	336.84	27.90	-35.5	-37.1	23.0	0.00e+00	0	40	0	2968518656	42	4388
2026-01-20 12:19:58.28	337.03	27.21	-35.7	-37.3	22.9	0.00e+00	0	40	0	2990538752	42	4474
2026-01-20 12:20:02.26	337.21	26.54	-35.9	-37.6	22.6	0.00e+00	0	40	0	3012558848	42	4619
2026-01-20 12:20:06.25	337.38	25.89	-36.0	-37.7	22.6	0.00e+00	0	40	0	3035627520	42	4660
2026-01-20 12:20:10.23	337.55	25.25	-36.1	-37.8	22.5	0.00e+00	0	40	0	3057647616	42	4716
2026-01-20 12:20:14.21	337.71	24.62	-36.3	-37.9	22.3	0.00e+00	0	40	0	3079667712	43	4544
2026-01-20 12:20:18.19	337.86	24.01	-36.2	-37.9	22.3	0.00e+00	0	40	0	3102736384	43	4524
2026-01-20 12:20:22.17	338.01	23.41	-36.3	-38.1	22.2	0.00e+00	0	40	0	3124756480	43	4613
2026-01-20 12:20:26.15	338.15	22.83	-36.3	-38.0	22.2	0.00e+00	0	41	0	3146776576	43	4592
2026-01-20 12:20:30.13	338.29	22.26	-36.4	-38.1	22.1	0.00e+00	0	40	0	3169845248	43	4631
2026-01-20 12:20:34.10	338.43	21.71	-36.5	-38.2	22.1	0.00e+00	0	40	0	3191865344	43	4681
2026-01-20 12:20:38.08	338.56	21.16	-36.6	-38.3	22.0	0.00e+00	0	40	0	3214934016	43	4759
2026-01-20 12:20:42.06	338.69	20.63	-37.0	-38.8	21.7	0.00e+00	0	40	0	3236954112	44	4719
2026-01-20 12:20:46.05	338.81	20.10	-37.0	-38.7	21.8	0.00e+00	0	40	0	3258974208	44	4685
2026-01-20 12:20:50.02	338.93	19.59	-37.2	-38.9	21.6	0.00e+00	0	40	0	3280994304	45	4514
2026-01-20 12:20:54.00	339.05	19.09	-37.2	-38.9	21.5	0.00e+00	0	41	0	3304062976	45	4545
2026-01-20 12:20:57.98	339.16	18.60	-37.4	-39.1	21.3	0.00e+00	0	40	0	3326083072	45	4637
2026-01-20 12:21:01.96	339.27	18.11	-37.4	-39.1	21.3	0.00e+00	0	40	0	3349151744	45	4633
2026-01-20 12:21:05.94	339.38	17.64	-37.5	-39.3	21.2	0.00e+00	0	40	0	3371171840	45	4711
2026-01-20 12:21:09.92	339.48	17.17	-37.5	-39.3	21.2	0.00e+00	0	40	0	3393191936	45	4728
2026-01-20 12:21:13.89	339.58	16.72	-37.7	-39.4	21.0	0.00e+00	0	40	0	3416260608	46	4543
2026-01-20 12:21:17.87	339.68	16.27	-37.8	-39.6	20.9	0.00e+00	0	40	0	3438280704	46	4614
2026-01-20 12:21:21.86	339.78	15.83	-37.9	-39.7	20.8	0.00e+00	0	40	0	3460300800	46	4682
2026-01-20 12:21:25.83	339.87	15.40	-38.1	-39.9	20.6	0.00e+00	0	40	0	3482320896	46	4806
2026-01-20 12:21:29.81	339.96	14.98	-38.3	-40.2	20.4	0.00e+00	0	40	0	3505389568	47	4658
2026-01-20 12:21:33.79	340.05	14.56	-38.3	-40.2	20.3	0.00e+00	0	40	0	3527409664	47	4704
2026-01-20 12:21:37.77	340.14	14.15	-38.5	-40.4	20.1	0.00e+00	0	40	0	3550478336	47	4801
2026-01-20 12:21:41.75	340.23	13.75	-38.8	-40.7	20.0	0.00e+00	0	41	0	3572498432	48	4686
2026-01-20 12:21:45.73	340.31	13.35	-38.9	-40.8	19.9	0.00e+00	0	40	0	3594518528	48	4756
2026-01-20 12:21:49.71	340.40	12.96	-38.9	-40.9	19.9	0.00e+00	0	40	0	3617587200	48	4794
2026-01-20 12:21:53.70	340.48	12.58	-39.1	-41.2	19.6	0.00e+00	0	40	0	3639607296	48	4933
2026-01-20 12:21:57.68	340.56	12.20	-39.1	-41.1	19.6	0.00e+00	0	40	0	3661627392	49	4641
2026-01-20 12:22:01.66	340.63	11.83	-39.3	-41.2	19.5	0.00e+00	0	40	0	3684696064	49	4705
2026-01-20 12:22:05.64	340.71	11.46	-39.3	-41.3	19.4	0.00e+00	0	40	0	3706716160	49	4746
2026-01-20 12:22:09.62	340.79	11.10	-39.3	-41.3	19.4	0.00e+00	0	40	0	3728736256	49	4738
2026-01-20 12:22:13.60	340.86	10.74	-39.3	-41.4	19.3	0.00e+00	0	40	0	3751804928	49	4764
2026-01-20 12:22:17.58	340.93	10.39	-39.4	-41.5	19.2	0.00e+00	0	40	0	3773825024	49	4824
2026-01-20 12:22:21.56	341.00	10.04	-39.7	-41.7	18.9	0.00e+00	0	40	0	3796893696	49	4964
2026-01-20 12:22:25.54	341.07	9.70	-39.6	-41.7	18.9	0.00e+00	0	40	0	3818913792	50	4693
2026-01-20 12:22:29.52	341.14	9.37	-39.6	-41.8	18.8	0.00e+00	0	40	0	3840933888	50	4722
2026-01-20 12:22:33.50	341.21	9.03	-40.2	-42.5	18.2	0.00e+00	0	40	0	3864002560	50	5133
2026-01-20 12:22:37.48	341.27	8.71	-49.6	-62.6	3.8	8.48e-01	0	40	104	3866099712	70	16361
2026-01-20 12:22:41.45	341.34	8.38	-49.7	-62.7	3.8	8.47e-01	0	40	104	3866099712	71	15745
2026-01-20 12:22:45.42	341.40	8.06	-50.5	-62.9	3.8	8.47e-01	0	40	104	3866099712	71	15947
2026-01-20 12:22:49.40	341.46	7.75	-50.7	-62.8	3.8	8.47e-01	0	40	104	3866099712	72	14991
2026-01-20 12:22:53.37	341.53	7.44	-50.5	-62.8	3.8	8.47e-01	0	40	104	3866099712	72	14952
2026-01-20 12:22:57.34	341.59	7.13	-50.5	-62.8	3.8	8.47e-01	0	40	104	3866099712	72	14944
2026-01-20 12:23:01.32	341.65	6.83	-50.4	-62.7	3.8	8.47e-01	0	40	104	3866099712	72	14873
2026-01-20 12:23:05.29	341.71	6.53	-50.3	-62.7	3.8	8.45e-01	0	40	104	3866099712	72	14811
2026-01-20 12:23:09.26	341.76	6.23	-50.3	-62.7	3.8	8.47e-01	0	40	104	3866099712	72	14814
2026-01-20 12:23:13.24	341.82	5.94	-50.3	-62.7	3.8	8.46e-01	0	40	104	3866099712	72	14820
2026-01-20 12:23:17.21	341.88	5.65	-50.3	-62.7	3.8	8.47e-01	0	40	104	3866099712	72	14785
2026-01-20 12:23:21.18	341.93	5.36	-50.3	-62.7	3.8	8.48e-01	0	40	104	3866099712	72	14865
2026-01-20 12:23:25.16	341.99	5.08	-50.3	-62.7	3.8	8.46e-01	0	41	104	3866099712	72	14833

#Closed at: 2026-01-20 12:23:27
#Recorded file [3866 MB]: D:/Data/31040_260120_151029.dat