passes_logs/2026/01/20/T1/T1__20260120_232241_SUOMI_NPP_rec.log

#Pass ID: 20260120_232241_SUOMI NPP
#Satellite: SUOMI NPP
#Configuration: NPP
#almurnet v.1.7.20251203
#Start time: 2026-01-20 23:22:43

#Version: 2.0.20230620
#Station: T1
#Location: 37.570604 lon 55.790049 lat
#TLE: 1 37849U 11061A   26020.31993517  .00000142  00000+0  88240-4 0  9990
#TLE: 2 37849  98.7818 322.3228 0002330  54.3778 305.7615 14.19527005737466

#Time	Az	El	Level	Level2	SNR	BER	BlckErr	Temp	State	Recorded	gain1	gain2
2026-01-20 23:22:43.56	19.16	5.13	-49.3	-66.1	3.8	1.49e+00	0	41	0	0	70	24542
2026-01-20 23:22:47.53	19.27	5.41	-49.2	-65.9	3.8	1.49e+00	0	41	104	0	69	25560
2026-01-20 23:22:51.50	19.37	5.70	-49.3	-66.0	3.8	1.49e+00	0	42	104	0	69	25697
2026-01-20 23:22:55.47	19.47	5.98	-49.2	-66.1	3.8	1.49e+00	0	42	104	0	69	26066
2026-01-20 23:22:59.45	19.58	6.28	-49.3	-66.2	3.8	1.49e+00	0	42	104	0	69	26174
2026-01-20 23:23:03.42	19.69	6.57	-49.2	-66.0	3.8	1.49e+00	0	42	104	0	69	25608
2026-01-20 23:23:07.39	19.80	6.87	-49.2	-65.2	3.8	1.49e+00	0	42	104	0	69	23446
2026-01-20 23:23:11.36	19.91	7.17	-49.2	-64.2	3.8	1.49e+00	0	42	104	0	69	20996
2026-01-20 23:23:15.33	20.03	7.47	-49.2	-63.5	3.8	1.47e+00	0	42	104	0	69	19385
2026-01-20 23:23:19.31	20.14	7.78	-49.2	-63.4	3.9	1.46e+00	0	42	104	0	69	18997
2026-01-20 23:23:23.28	20.26	8.09	-49.2	-62.7	4.2	1.42e+00	0	42	0	0	69	17605
2026-01-20 23:23:27.25	20.38	8.41	-48.9	-60.2	5.3	7.41e-01	0	43	0	4194304	69	13219
2026-01-20 23:23:31.22	20.50	8.72	-48.5	-56.6	8.3	6.63e-02	0	43	0	11534336	68	9260
2026-01-20 23:23:35.20	20.63	9.05	-47.7	-54.2	10.6	3.41e-03	0	43	0	18874368	67	7429
2026-01-20 23:23:39.18	20.76	9.38	-49.0	-59.9	5.4	5.22e-01	0	43	0	27262976	68	13507
2026-01-20 23:23:43.15	20.89	9.71	-45.4	-48.9	16.1	0.00e+00	0	43	0	34603008	62	5368
2026-01-20 23:23:47.13	21.02	10.04	-45.2	-48.5	16.6	0.00e+00	0	43	0	41943040	62	5109
2026-01-20 23:23:51.11	21.16	10.39	-45.0	-48.3	16.8	0.00e+00	0	43	0	49283072	62	5014
2026-01-20 23:23:55.10	21.30	10.73	-44.9	-48.1	17.0	0.00e+00	0	43	0	56623104	61	5175
2026-01-20 23:23:59.08	21.44	11.08	-45.0	-48.0	17.1	0.00e+00	0	43	0	63963136	61	5140
2026-01-20 23:24:03.05	21.58	11.44	-44.8	-47.8	17.3	0.00e+00	0	43	0	71303168	61	5024
2026-01-20 23:24:07.03	21.73	11.80	-44.9	-47.8	17.5	0.00e+00	0	43	0	78643200	61	4986
2026-01-20 23:24:11.01	21.88	12.16	-44.9	-47.6	17.6	0.00e+00	0	43	0	85983232	61	4921
2026-01-20 23:24:14.98	22.03	12.53	-44.9	-47.6	17.8	0.00e+00	0	43	0	94371840	61	4881
2026-01-20 23:24:18.96	22.19	12.91	-44.9	-47.6	17.8	0.00e+00	0	43	0	101711872	61	4874
2026-01-20 23:24:22.94	22.35	13.29	-44.9	-47.5	17.9	0.00e+00	0	43	0	109051904	61	4826
2026-01-20 23:24:26.92	22.52	13.68	-44.7	-47.1	18.3	0.00e+00	0	43	0	116391936	61	4636
2026-01-20 23:24:30.91	22.69	14.08	-44.9	-47.4	18.1	0.00e+00	0	43	0	123731968	61	4761
2026-01-20 23:24:34.89	22.86	14.48	-44.6	-47.1	18.3	0.00e+00	0	43	0	131072000	61	4633
2026-01-20 23:24:38.86	23.04	14.89	-44.7	-47.2	18.3	0.00e+00	0	43	0	138412032	61	4672
2026-01-20 23:24:42.84	23.22	15.30	-44.9	-47.5	18.0	0.00e+00	0	43	0	145752064	61	4848
2026-01-20 23:24:46.82	23.41	15.72	-44.8	-47.5	18.1	0.00e+00	0	43	0	154140672	61	4818
2026-01-20 23:24:50.80	23.60	16.15	-45.2	-47.9	17.7	0.00e+00	0	43	0	161480704	61	5061
2026-01-20 23:24:54.78	23.80	16.59	-45.1	-47.7	17.9	0.00e+00	0	43	0	168820736	61	4953
2026-01-20 23:24:58.76	24.00	17.03	-45.1	-47.7	17.9	0.00e+00	0	43	0	176160768	61	4964
2026-01-20 23:25:02.74	24.21	17.49	-45.3	-47.9	17.8	0.00e+00	0	43	0	183500800	61	5073
2026-01-20 23:25:06.72	24.42	17.95	-45.5	-48.1	17.7	0.00e+00	0	43	0	190840832	61	5166
2026-01-20 23:25:10.70	24.64	18.41	-45.6	-48.2	17.5	0.00e+00	0	43	0	198180864	61	5275
2026-01-20 23:25:14.68	24.87	18.89	-45.5	-48.3	17.5	0.00e+00	0	43	0	205520896	62	5011
2026-01-20 23:25:18.66	25.10	19.38	-45.6	-48.5	17.3	0.00e+00	0	44	0	212860928	62	5115
2026-01-20 23:25:22.64	25.34	19.87	-45.9	-48.9	17.0	0.00e+00	0	43	0	221249536	62	5353
2026-01-20 23:25:26.62	25.59	20.38	-46.0	-48.9	17.0	0.00e+00	0	43	0	228589568	63	5084
2026-01-20 23:25:30.59	25.84	20.89	-45.7	-48.5	17.4	0.00e+00	0	43	0	235929600	63	4820
2026-01-20 23:25:34.58	26.11	21.42	-45.4	-48.0	17.8	0.00e+00	0	43	0	243269632	62	4840
2026-01-20 23:25:38.55	26.38	21.95	-45.1	-47.6	18.2	0.00e+00	0	44	0	250609664	61	4873
2026-01-20 23:25:42.53	26.66	22.50	-45.0	-47.4	18.3	0.00e+00	0	44	0	257949696	61	4802
2026-01-20 23:25:46.51	26.95	23.06	-44.5	-46.8	18.8	0.00e+00	0	43	0	265289728	60	4732
2026-01-20 23:25:50.49	27.25	23.63	-44.2	-46.5	19.1	0.00e+00	0	43	0	272629760	60	4590
2026-01-20 23:25:54.46	27.56	24.21	-44.2	-46.4	19.1	0.00e+00	0	43	0	281018368	60	4532
2026-01-20 23:25:58.44	27.89	24.80	-44.1	-46.3	19.2	0.00e+00	0	43	0	288358400	60	4492
2026-01-20 23:26:02.43	28.22	25.41	-44.3	-46.5	19.1	0.00e+00	0	43	0	295698432	60	4590
2026-01-20 23:26:06.41	28.57	26.03	-44.5	-46.9	18.7	0.00e+00	0	43	0	303038464	60	4784
2026-01-20 23:26:10.39	28.93	26.67	-44.2	-46.6	19.0	0.00e+00	0	43	0	310378496	60	4616
2026-01-20 23:26:14.37	29.30	27.32	-44.1	-46.4	19.2	0.00e+00	0	44	0	317718528	60	4511
2026-01-20 23:26:18.35	29.69	27.98	-44.6	-46.9	18.7	0.00e+00	0	44	0	325058560	60	4807
2026-01-20 23:26:22.33	30.10	28.66	-44.6	-47.0	18.6	0.00e+00	0	44	0	332398592	60	4825
2026-01-20 23:26:26.31	30.52	29.35	-44.9	-47.4	18.3	0.00e+00	0	44	0	339738624	60	5045
2026-01-20 23:26:30.28	30.96	30.06	-45.6	-48.2	17.5	0.00e+00	0	44	0	348127232	62	4981
2026-01-20 23:26:34.26	31.42	30.79	-46.7	-49.8	16.0	0.00e+00	0	43	0	355467264	64	5301
2026-01-20 23:26:38.24	31.90	31.53	-47.5	-51.0	14.9	0.00e+00	0	44	0	362807296	65	5724
2026-01-20 23:26:42.22	32.41	32.29	-47.6	-51.0	14.6	0.00e+00	0	44	0	370147328	66	5457
2026-01-20 23:26:46.20	32.93	33.06	-47.4	-50.8	14.9	0.00e+00	0	44	0	377487360	66	5281
2026-01-20 23:26:50.18	33.48	33.86	-46.9	-50.0	15.7	0.00e+00	0	44	0	384827392	65	5125
2026-01-20 23:26:54.15	34.06	34.67	-46.1	-49.0	16.5	0.00e+00	0	44	0	392167424	64	4815
2026-01-20 23:26:58.13	34.67	35.50	-46.5	-49.6	15.9	0.00e+00	0	43	0	399507456	64	5207
2026-01-20 23:27:02.11	35.31	36.35	-46.6	-49.6	15.9	0.00e+00	0	44	0	406847488	64	5211
2026-01-20 23:27:06.09	35.98	37.22	-46.8	-49.9	15.6	0.00e+00	0	44	0	415236096	64	5399
2026-01-20 23:27:10.07	36.69	38.11	-47.2	-50.7	14.8	0.00e+00	0	43	0	422576128	65	5555
2026-01-20 23:27:14.05	37.44	39.01	-46.6	-49.7	15.7	0.00e+00	0	44	0	429916160	64	5249
2026-01-20 23:27:18.03	38.23	39.94	-46.8	-50.0	15.5	0.00e+00	0	44	0	437256192	64	5411
2026-01-20 23:27:22.02	39.07	40.89	-46.2	-49.2	16.2	0.00e+00	0	44	0	444596224	64	4983
2026-01-20 23:27:26.00	39.95	41.85	-45.7	-48.4	16.9	0.00e+00	0	44	0	451936256	63	4781
2026-01-20 23:27:29.98	40.89	42.83	-46.6	-49.7	15.7	0.00e+00	0	43	0	459276288	63	5554
2026-01-20 23:27:33.96	41.89	43.83	-46.3	-49.5	15.8	0.00e+00	0	43	0	466616320	64	5118
2026-01-20 23:27:37.94	42.96	44.84	-46.3	-49.4	16.0	0.00e+00	0	44	0	475004928	63	5361
2026-01-20 23:27:41.92	44.09	45.87	-46.2	-49.3	16.0	0.00e+00	0	44	0	482344960	63	5280
2026-01-20 23:27:45.90	45.30	46.92	-44.9	-47.5	17.6	0.00e+00	0	44	0	489684992	61	4835
2026-01-20 23:27:49.89	46.59	47.97	-45.8	-48.7	16.6	0.00e+00	0	44	0	497025024	62	5257
2026-01-20 23:27:53.87	47.98	49.04	-45.4	-48.2	17.0	0.00e+00	0	44	0	504365056	62	4936
2026-01-20 23:27:57.85	49.46	50.11	-44.4	-46.8	18.1	0.00e+00	0	44	0	511705088	60	4729
2026-01-20 23:28:01.82	51.04	51.19	-45.1	-47.8	17.2	0.00e+00	0	44	0	519045120	60	5325
2026-01-20 23:28:05.80	52.75	52.26	-44.6	-47.1	17.9	0.00e+00	0	44	0	526385152	60	4886
2026-01-20 23:28:09.78	54.58	53.34	-44.6	-47.1	17.9	0.00e+00	0	44	0	533725184	61	4627
2026-01-20 23:28:13.76	56.56	54.40	-43.9	-46.3	18.6	0.00e+00	0	44	0	542113792	58	4986
2026-01-20 23:28:17.74	58.68	55.45	-43.2	-45.4	19.3	0.00e+00	0	44	0	549453824	57	4781
2026-01-20 23:28:21.71	60.96	56.48	-44.0	-46.3	18.5	0.00e+00	0	44	0	556793856	59	4746
2026-01-20 23:28:25.70	63.42	57.49	-43.9	-46.2	18.6	0.00e+00	0	44	0	564133888	58	4957
2026-01-20 23:28:29.67	66.06	58.45	-44.1	-46.4	18.4	0.00e+00	0	44	0	571473920	59	4802
2026-01-20 23:28:33.65	68.90	59.37	-44.0	-46.3	18.6	0.00e+00	0	44	0	578813952	58	4999
2026-01-20 23:28:37.63	71.93	60.24	-45.1	-47.9	17.2	0.00e+00	0	43	0	586153984	61	5060
2026-01-20 23:28:41.61	75.17	61.04	-44.0	-46.4	18.5	0.00e+00	0	44	0	593494016	59	4763
2026-01-20 23:28:45.59	78.62	61.77	-44.2	-46.6	18.3	0.00e+00	0	44	0	600834048	59	4896
2026-01-20 23:28:49.57	82.26	62.41	-43.1	-45.3	19.4	0.00e+00	0	44	0	609222656	58	4487
2026-01-20 23:28:53.55	86.08	62.96	-43.2	-45.5	19.2	0.00e+00	0	44	0	616562688	57	4817
2026-01-20 23:28:57.53	90.06	63.40	-44.1	-46.5	18.4	0.00e+00	0	44	0	623902720	59	4864
2026-01-20 23:29:01.51	94.17	63.72	-43.6	-45.9	18.9	0.00e+00	0	44	0	631242752	57	5098
2026-01-20 23:29:05.49	98.38	63.92	-44.3	-46.9	18.1	0.00e+00	0	44	0	638582784	60	4769
2026-01-20 23:29:09.47	102.64	64.00	-42.6	-44.7	19.9	0.00e+00	0	44	0	645922816	57	4429
2026-01-20 23:29:13.44	106.89	63.95	-43.0	-45.2	19.5	0.00e+00	0	44	0	653262848	56	4954
2026-01-20 23:29:17.42	111.12	63.77	-42.6	-44.7	19.9	0.00e+00	0	44	0	660602880	57	4410
2026-01-20 23:29:21.40	115.26	63.47	-43.6	-45.9	18.9	0.00e+00	0	44	0	667942912	57	5087
2026-01-20 23:29:25.37	119.26	63.06	-43.6	-45.9	19.0	0.00e+00	0	44	0	676331520	57	5053
2026-01-20 23:29:29.35	123.12	62.54	-43.9	-46.3	18.5	0.00e+00	0	44	0	683671552	58	5035
2026-01-20 23:29:33.33	126.81	61.91	-42.0	-44.0	20.3	0.00e+00	0	44	0	691011584	55	4577
2026-01-20 23:29:37.31	130.30	61.20	-42.7	-44.8	19.7	0.00e+00	0	44	0	698351616	57	4482
2026-01-20 23:29:41.29	133.59	60.41	-41.7	-43.7	20.6	0.00e+00	0	44	0	705691648	54	4681
2026-01-20 23:29:45.27	136.67	59.56	-43.2	-45.5	19.3	0.00e+00	0	44	0	713031680	56	5107
2026-01-20 23:29:49.25	139.55	58.64	-42.4	-44.5	19.8	0.00e+00	0	44	0	720371712	55	4859
2026-01-20 23:29:53.23	142.24	57.68	-41.7	-43.7	20.5	0.00e+00	0	43	0	727711744	54	4660
2026-01-20 23:29:57.21	144.74	56.68	-42.7	-44.9	19.8	0.00e+00	0	44	0	736100352	56	4782
2026-01-20 23:30:01.19	147.06	55.65	-42.3	-44.4	20.1	0.00e+00	0	44	0	743440384	56	4512
2026-01-20 23:30:05.17	149.22	54.60	-41.8	-43.9	20.4	0.00e+00	0	44	0	750780416	54	4766
2026-01-20 23:30:09.15	151.23	53.54	-42.2	-44.3	20.1	0.00e+00	0	44	0	758120448	56	4445
2026-01-20 23:30:13.13	153.09	52.46	-43.2	-45.3	19.2	0.00e+00	0	44	0	765460480	57	4751
2026-01-20 23:30:17.11	154.83	51.38	-43.2	-45.4	19.3	0.00e+00	0	44	0	772800512	58	4530
2026-01-20 23:30:21.09	156.44	50.30	-44.4	-46.9	17.9	0.00e+00	0	44	0	780140544	59	5088
2026-01-20 23:30:25.07	157.95	49.22	-44.0	-46.4	18.3	0.00e+00	0	44	0	787480576	58	5075
2026-01-20 23:30:29.05	159.35	48.15	-42.9	-45.1	19.4	0.00e+00	0	44	0	794820608	57	4612
2026-01-20 23:30:33.03	160.66	47.09	-46.2	-49.4	15.5	0.00e+00	0	44	0	803209216	63	5389
2026-01-20 23:30:37.01	161.89	46.04	-44.3	-46.8	18.1	0.00e+00	0	44	0	810549248	60	4716
2026-01-20 23:30:40.99	163.04	45.00	-42.9	-45.1	19.5	0.00e+00	0	44	0	817889280	57	4612
2026-01-20 23:30:44.97	164.12	43.98	-44.8	-47.4	17.4	0.00e+00	0	44	0	825229312	60	5059
2026-01-20 23:30:48.94	165.13	42.97	-46.0	-49.2	15.5	7.00e-07	0	44	0	832569344	64	4960
2026-01-20 23:30:52.92	166.08	41.98	-43.3	-45.5	19.0	0.00e+00	0	44	0	839909376	57	4855
2026-01-20 23:30:56.90	166.98	41.01	-44.1	-46.7	18.0	0.00e+00	0	44	0	847249408	60	4677
2026-01-20 23:31:00.88	167.82	40.06	-44.2	-46.6	18.0	0.00e+00	0	44	0	854589440	59	4897
2026-01-20 23:31:04.86	168.62	39.13	-45.6	-48.6	16.2	0.00e+00	0	44	0	861929472	61	5507
2026-01-20 23:31:08.84	169.38	38.21	-43.4	-45.7	18.9	0.00e+00	0	44	0	870318080	58	4672
2026-01-20 23:31:12.81	170.10	37.32	-43.4	-45.7	18.8	0.00e+00	0	44	0	877658112	57	4937
2026-01-20 23:31:16.80	170.78	36.44	-44.6	-47.2	17.6	0.00e+00	0	43	0	884998144	60	4956
2026-01-20 23:31:20.78	171.42	35.58	-43.6	-45.9	18.6	0.00e+00	0	44	0	892338176	59	4523
2026-01-20 23:31:24.75	172.03	34.75	-43.2	-45.5	18.9	0.00e+00	0	44	0	899678208	57	4833
2026-01-20 23:31:28.73	172.62	33.93	-45.5	-48.5	16.3	0.00e+00	0	44	0	907018240	61	5424
2026-01-20 23:31:32.71	173.17	33.13	-46.7	-50.2	14.5	7.00e-07	0	44	0	914358272	64	5591
2026-01-20 23:31:36.70	173.70	32.34	-44.6	-47.2	17.4	0.00e+00	0	44	0	921698304	61	4695
2026-01-20 23:31:40.68	174.21	31.57	-43.2	-45.5	18.9	0.00e+00	0	44	0	930086912	58	4563
2026-01-20 23:31:44.66	174.69	30.82	-44.3	-46.9	17.6	0.00e+00	0	44	0	937426944	59	5054
2026-01-20 23:31:48.63	175.16	30.09	-45.5	-48.5	16.2	0.00e+00	0	44	0	944766976	61	5429
2026-01-20 23:31:52.61	175.60	29.38	-45.7	-48.8	15.9	0.00e+00	0	44	0	952107008	62	5329
2026-01-20 23:31:56.59	176.02	28.68	-45.3	-48.2	16.5	0.00e+00	0	44	0	959447040	62	4935
2026-01-20 23:32:00.57	176.43	28.00	-43.4	-45.7	18.7	0.00e+00	0	44	0	966787072	58	4656
2026-01-20 23:32:04.55	176.82	27.33	-42.4	-44.5	19.7	0.00e+00	0	44	0	974127104	56	4563
2026-01-20 23:32:08.52	177.20	26.67	-43.1	-45.4	19.0	0.00e+00	0	44	0	981467136	57	4768
2026-01-20 23:32:12.50	177.56	26.03	-43.8	-46.2	18.1	0.00e+00	0	44	0	988807168	58	4978
2026-01-20 23:32:16.48	177.91	25.41	-43.8	-46.3	18.2	0.00e+00	0	44	0	997195776	58	5001
2026-01-20 23:32:20.46	178.24	24.79	-44.1	-46.6	17.8	0.00e+00	0	44	0	1004535808	59	4915
2026-01-20 23:32:24.43	178.57	24.20	-44.0	-46.6	17.9	0.00e+00	0	44	0	1011875840	59	4876
2026-01-20 23:32:28.41	178.88	23.61	-43.4	-45.8	18.6	0.00e+00	0	44	0	1019215872	58	4743
2026-01-20 23:32:32.39	179.18	23.03	-43.0	-45.4	19.0	0.00e+00	0	44	0	1026555904	57	4764
2026-01-20 23:32:36.37	179.47	22.47	-42.6	-44.8	19.4	0.00e+00	0	44	0	1033895936	56	4754
2026-01-20 23:32:40.34	179.75	21.92	-42.3	-44.5	19.7	0.00e+00	0	44	0	1041235968	56	4569
2026-01-20 23:32:44.32	180.02	21.38	-42.5	-44.7	19.5	0.00e+00	0	44	0	1048576000	56	4690
2026-01-20 23:32:48.30	180.28	20.85	-43.4	-45.8	18.6	0.00e+00	0	44	0	1055916032	57	4999
2026-01-20 23:32:52.28	180.54	20.33	-43.5	-45.9	18.4	0.00e+00	0	44	0	1064304640	57	5100
2026-01-20 23:32:56.26	180.78	19.82	-43.2	-45.5	18.7	0.00e+00	0	44	0	1071644672	57	4866
2026-01-20 23:33:00.23	181.02	19.33	-42.9	-45.2	19.1	0.00e+00	0	44	0	1078984704	57	4667
2026-01-20 23:33:04.22	181.26	18.83	-42.9	-45.2	19.0	0.00e+00	0	44	0	1086324736	57	4671
2026-01-20 23:33:08.20	181.48	18.35	-43.1	-45.4	18.8	0.00e+00	0	44	0	1093664768	57	4797
2026-01-20 23:33:12.18	181.70	17.88	-43.2	-45.6	18.7	0.00e+00	0	44	0	1101004800	57	4887
2026-01-20 23:33:16.16	181.91	17.42	-43.0	-45.3	19.0	0.00e+00	0	44	0	1108344832	57	4722
2026-01-20 23:33:20.14	182.12	16.96	-43.0	-45.3	18.9	0.00e+00	0	44	0	1115684864	57	4741
2026-01-20 23:33:24.12	182.32	16.52	-42.9	-45.2	19.0	0.00e+00	0	44	0	1124073472	57	4659
2026-01-20 23:33:28.10	182.51	16.08	-43.0	-45.3	18.9	0.00e+00	0	44	0	1131413504	57	4758
2026-01-20 23:33:32.08	182.70	15.64	-43.2	-45.7	18.5	0.00e+00	0	44	0	1138753536	57	4963
2026-01-20 23:33:36.06	182.89	15.22	-43.7	-46.4	17.9	0.00e+00	0	43	0	1146093568	58	5046
2026-01-20 23:33:40.03	183.07	14.80	-44.0	-46.7	17.6	0.00e+00	0	44	0	1153433600	58	5252
2026-01-20 23:33:44.01	183.24	14.39	-44.5	-47.3	17.1	0.00e+00	0	44	0	1160773632	59	5310
2026-01-20 23:33:47.99	183.41	13.99	-44.8	-47.9	16.6	0.00e+00	0	44	0	1168113664	60	5354
2026-01-20 23:33:51.96	183.58	13.59	-45.4	-48.8	15.7	0.00e+00	0	44	0	1175453696	61	5644
2026-01-20 23:33:55.95	183.74	13.20	-45.5	-49.0	15.5	0.00e+00	0	44	0	1182793728	62	5404
2026-01-20 23:33:59.92	183.90	12.81	-45.8	-49.3	15.1	0.00e+00	0	44	0	1191182336	62	5651
2026-01-20 23:34:03.90	184.06	12.44	-45.6	-48.9	15.5	0.00e+00	0	44	0	1198522368	62	5392
2026-01-20 23:34:07.88	184.21	12.06	-45.5	-48.8	15.6	0.00e+00	0	44	0	1205862400	62	5330
2026-01-20 23:34:11.86	184.36	11.69	-45.2	-48.4	16.0	0.00e+00	0	44	0	1213202432	62	5086
2026-01-20 23:34:15.84	184.50	11.33	-44.8	-47.8	16.6	0.00e+00	0	44	0	1220542464	61	5004
2026-01-20 23:34:19.82	184.64	10.97	-44.4	-47.3	17.0	0.00e+00	0	44	0	1227882496	60	5003
2026-01-20 23:34:23.80	184.78	10.62	-44.2	-47.1	17.2	0.00e+00	0	44	0	1235222528	60	4873
2026-01-20 23:34:27.78	184.91	10.27	-44.1	-46.9	17.3	0.00e+00	0	44	0	1242562560	60	4777
2026-01-20 23:34:31.76	185.05	9.93	-44.0	-46.8	17.4	0.00e+00	0	44	0	1249902592	59	5002
2026-01-20 23:34:35.74	185.18	9.59	-43.9	-46.7	17.4	0.00e+00	0	44	0	1258291200	59	4951
2026-01-20 23:34:39.72	185.30	9.25	-43.9	-46.5	17.3	0.00e+00	0	44	0	1265631232	59	4870
2026-01-20 23:34:43.70	185.43	8.93	-50.1	-65.3	3.8	1.49e+00	0	44	104	1271922688	70	22480
2026-01-20 23:34:47.67	185.55	8.60	-50.9	-66.2	3.8	1.49e+00	0	44	104	1271922688	72	22138
2026-01-20 23:34:51.64	185.67	8.28	-51.1	-66.3	3.8	1.49e+00	0	44	104	1271922688	72	22387
2026-01-20 23:34:55.61	185.79	7.96	-51.1	-66.3	3.8	1.49e+00	0	44	104	1271922688	73	21247
2026-01-20 23:34:59.59	185.90	7.65	-51.0	-66.3	3.8	1.49e+00	0	44	104	1271922688	73	21123
2026-01-20 23:35:03.56	186.01	7.34	-51.2	-66.3	3.8	1.49e+00	0	44	104	1271922688	73	21214
2026-01-20 23:35:07.53	186.12	7.03	-51.0	-66.4	3.8	1.49e+00	0	44	104	1271922688	73	21400
2026-01-20 23:35:11.51	186.23	6.73	-50.9	-66.3	3.8	1.49e+00	0	44	104	1271922688	73	21193
2026-01-20 23:35:15.48	186.34	6.43	-50.9	-66.3	3.8	1.49e+00	0	44	104	1271922688	73	21123
2026-01-20 23:35:19.45	186.44	6.14	-50.9	-66.3	3.8	1.49e+00	0	44	104	1271922688	73	21167
2026-01-20 23:35:23.42	186.54	5.85	-50.9	-66.3	3.8	1.49e+00	0	44	104	1271922688	73	21166
2026-01-20 23:35:27.39	186.64	5.56	-50.9	-66.3	3.8	1.49e+00	0	44	104	1271922688	73	21135
2026-01-20 23:35:31.36	186.74	5.27	-50.9	-66.3	3.8	1.49e+00	0	44	104	1271922688	73	21089
2026-01-20 23:35:35.33	186.84	4.99	-50.9	-66.3	3.8	1.49e+00	0	44	104	1271922688	73	21090

#Closed at: 2026-01-20 23:35:36
#Recorded file [1271 MB]: D:/Data/31040_260121_022243.dat