passes_logs/2026/01/20/T1/T1__20260120_215948_FENGYUN_3G_rec.log

#Pass ID: 20260120_215948_FENGYUN 3G
#Satellite: FENGYUN 3G
#Configuration: FENGYUN 3G
#almurnet v.1.7.20251203
#Start time: 2026-01-20 21:59:49

#Version: 2.0.20230620
#Station: T1
#Location: 37.570604 lon 55.790049 lat
#TLE: 1 56232U 23055A   26020.19436899  .00056262  00000+0  85928-3 0  9997
#TLE: 2 56232  49.9940  29.1271 0004169  54.2682 305.8673 15.53816929157008

#Time	Az	El	Level	Level2	SNR	BER	BlckErr	Temp	State	Recorded	gain1	gain2
2026-01-20 21:59:49.67	256.04	5.40	-50.4	-69.2	3.8	8.47e-01	0	39	0	0	72	31413
2026-01-20 21:59:51.65	255.85	5.55	-50.4	-69.3	3.8	8.48e-01	0	39	104	0	72	31560
2026-01-20 21:59:53.64	255.65	5.71	-50.4	-69.2	3.8	8.47e-01	0	39	104	0	72	31367
2026-01-20 21:59:55.62	255.46	5.86	-50.4	-69.1	3.8	8.47e-01	0	39	104	0	72	30843
2026-01-20 21:59:57.61	255.25	6.01	-50.4	-69.0	3.8	8.47e-01	0	39	104	0	72	30621
2026-01-20 21:59:59.59	255.05	6.17	-50.4	-68.9	3.8	8.48e-01	0	39	104	0	72	30150
2026-01-20 22:00:01.58	254.85	6.32	-50.4	-68.8	3.8	8.47e-01	0	39	104	0	72	29953
2026-01-20 22:00:03.56	254.64	6.48	-50.3	-68.7	3.8	8.46e-01	0	39	104	0	72	29411
2026-01-20 22:00:05.55	254.42	6.64	-50.4	-68.6	3.8	8.46e-01	0	40	104	0	72	29305
2026-01-20 22:00:07.54	254.21	6.80	-50.4	-68.9	3.8	8.46e-01	0	40	104	0	72	30234
2026-01-20 22:00:09.52	253.99	6.96	-50.4	-69.3	3.8	8.47e-01	0	40	104	0	72	31483
2026-01-20 22:00:11.51	253.76	7.13	-50.4	-69.3	3.8	8.46e-01	0	40	104	0	72	31549
2026-01-20 22:00:13.49	253.54	7.29	-50.4	-69.2	3.8	8.46e-01	0	40	104	0	72	31423
2026-01-20 22:00:15.48	253.31	7.45	-50.4	-69.1	3.8	8.47e-01	0	40	104	0	72	31002
2026-01-20 22:00:17.47	253.07	7.62	-50.3	-68.1	3.8	8.45e-01	0	40	104	0	72	27604
2026-01-20 22:00:19.45	252.83	7.79	-50.3	-67.4	3.9	8.46e-01	0	40	104	0	72	25427
2026-01-20 22:00:21.44	252.59	7.96	-50.3	-68.3	3.8	8.46e-01	0	40	104	0	72	28332
2026-01-20 22:00:23.43	252.34	8.13	-50.4	-69.1	3.8	8.47e-01	0	40	104	0	72	30800
2026-01-20 22:00:25.41	252.09	8.30	-50.3	-67.8	3.8	8.48e-01	0	40	104	0	72	26551
2026-01-20 22:00:27.40	251.84	8.47	-50.3	-66.8	3.8	8.48e-01	0	40	104	0	72	23584
2026-01-20 22:00:29.38	251.58	8.65	-49.9	-60.9	7.1	7.85e-01	0	40	0	0	71	12669
2026-01-20 22:00:31.37	251.32	8.83	-48.8	-55.4	12.7	1.14e-01	0	40	0	0	69	7619
2026-01-20 22:00:33.36	251.05	9.00	-47.7	-52.7	15.4	2.20e-06	0	40	0	0	67	6271
2026-01-20 22:00:35.34	250.78	9.18	-47.8	-53.1	15.1	0.00e+00	0	40	0	0	67	6497
2026-01-20 22:00:37.33	250.50	9.36	-47.5	-52.5	15.0	2.20e-06	0	40	0	0	67	6078
2026-01-20 22:00:39.32	250.22	9.54	-50.0	-61.5	5.8	1.79e-01	0	40	0	0	71	13663
2026-01-20 22:00:41.31	249.93	9.73	-44.0	-46.7	21.3	9.84e-02	0	40	0	0	59	4957
2026-01-20 22:00:43.30	249.64	9.91	-43.9	-46.6	21.4	0.00e+00	0	40	0	0	59	4907
2026-01-20 22:00:45.29	249.34	10.10	-43.8	-46.5	21.7	0.00e+00	0	40	0	0	59	4823
2026-01-20 22:00:47.28	249.04	10.29	-43.1	-45.6	22.3	0.00e+00	0	40	0	0	57	4887
2026-01-20 22:00:49.27	248.74	10.48	-42.4	-44.7	23.1	0.00e+00	0	41	0	0	56	4704
2026-01-20 22:00:51.26	248.42	10.67	-42.2	-44.5	23.4	0.00e+00	0	40	0	0	56	4567
2026-01-20 22:00:53.25	248.10	10.86	-41.6	-43.8	23.8	0.00e+00	0	40	0	0	55	4475
2026-01-20 22:00:55.24	247.78	11.06	-41.6	-43.8	23.8	0.00e+00	0	41	0	0	54	4754
2026-01-20 22:00:57.23	247.45	11.25	-41.6	-43.8	23.7	0.00e+00	0	40	0	0	54	4747
2026-01-20 22:00:59.22	247.11	11.45	-41.6	-43.9	23.7	0.00e+00	0	41	0	0	54	4800
2026-01-20 22:01:01.21	246.77	11.65	-41.7	-44.0	23.7	0.00e+00	0	40	0	0	54	4826
2026-01-20 22:01:03.20	246.42	11.85	-41.5	-43.8	23.9	0.00e+00	0	40	0	0	54	4711
2026-01-20 22:01:05.19	246.07	12.06	-41.4	-43.7	23.9	0.00e+00	0	41	0	0	54	4662
2026-01-20 22:01:07.18	245.70	12.26	-41.5	-43.7	24.0	0.00e+00	0	41	0	0	54	4678
2026-01-20 22:01:09.17	245.33	12.47	-41.0	-43.2	24.4	0.00e+00	0	41	0	0	54	4418
2026-01-20 22:01:11.16	244.96	12.68	-40.7	-42.8	24.7	0.00e+00	0	41	0	0	53	4478
2026-01-20 22:01:13.15	244.58	12.88	-40.7	-42.9	24.7	0.00e+00	0	40	0	0	53	4506
2026-01-20 22:01:15.13	244.19	13.10	-40.9	-43.0	24.5	0.00e+00	0	41	0	0	53	4584
2026-01-20 22:01:17.12	243.79	13.31	-40.6	-42.8	24.7	0.00e+00	0	41	0	0	53	4448
2026-01-20 22:01:19.11	243.39	13.52	-40.4	-42.5	24.8	0.00e+00	0	41	0	0	52	4593
2026-01-20 22:01:21.10	242.97	13.74	-40.2	-42.3	25.1	0.00e+00	0	41	0	0	52	4463
2026-01-20 22:01:23.09	242.55	13.96	-40.1	-42.2	25.2	0.00e+00	0	41	0	0	52	4410
2026-01-20 22:01:25.08	242.12	14.18	-40.2	-42.3	25.2	0.00e+00	0	41	0	0	52	4469
2026-01-20 22:01:27.07	241.69	14.40	-40.4	-42.5	25.0	0.00e+00	0	41	0	0	52	4566
2026-01-20 22:01:29.06	241.24	14.62	-40.3	-42.4	25.1	0.00e+00	0	41	0	0	52	4501
2026-01-20 22:01:31.05	240.79	14.84	-40.0	-42.0	25.4	0.00e+00	0	41	0	0	51	4578
2026-01-20 22:01:33.04	240.32	15.07	-39.8	-41.8	25.6	0.00e+00	0	41	0	0	51	4469
2026-01-20 22:01:35.03	239.85	15.30	-39.7	-41.7	25.6	0.00e+00	0	41	0	0	51	4424
2026-01-20 22:01:37.02	239.37	15.52	-40.0	-42.1	25.4	0.00e+00	0	41	0	0	51	4605
2026-01-20 22:01:39.00	238.88	15.75	-40.1	-42.2	25.3	0.00e+00	0	41	0	0	51	4685
2026-01-20 22:01:40.99	238.38	15.98	-39.9	-41.9	25.2	0.00e+00	0	41	0	0	51	4538
2026-01-20 22:01:42.98	237.87	16.22	-39.5	-41.5	25.8	0.00e+00	0	41	0	0	50	4547
2026-01-20 22:01:44.98	237.35	16.45	-39.1	-41.1	26.1	0.00e+00	0	41	0	0	50	4374
2026-01-20 22:01:46.97	236.82	16.69	-39.6	-41.6	25.7	0.00e+00	0	41	0	0	50	4624
2026-01-20 22:01:48.96	236.27	16.92	-39.5	-41.5	25.9	0.00e+00	0	41	0	0	50	4554
2026-01-20 22:01:50.95	235.72	17.16	-39.7	-41.7	25.7	0.00e+00	0	41	0	0	50	4681
2026-01-20 22:01:52.94	235.16	17.40	-39.6	-41.6	25.8	0.00e+00	0	41	0	0	50	4609
2026-01-20 22:01:54.92	234.59	17.64	-39.3	-41.3	26.0	0.00e+00	0	41	0	0	50	4484
2026-01-20 22:01:56.91	234.00	17.88	-39.3	-41.3	26.0	0.00e+00	0	41	0	0	50	4469
2026-01-20 22:01:58.90	233.40	18.12	-39.2	-41.2	26.1	0.00e+00	0	41	0	0	50	4413
2026-01-20 22:02:00.89	232.79	18.36	-39.6	-41.6	25.8	0.00e+00	0	41	0	0	50	4648
2026-01-20 22:02:02.88	232.17	18.60	-39.5	-41.5	25.8	0.00e+00	0	41	0	0	50	4562
2026-01-20 22:02:04.87	231.54	18.84	-39.4	-41.4	25.9	0.00e+00	0	41	0	0	50	4528
2026-01-20 22:02:06.86	230.89	19.08	-38.6	-40.6	26.5	0.00e+00	0	41	0	0	49	4346
2026-01-20 22:02:08.84	230.23	19.32	-38.4	-40.4	26.6	0.00e+00	0	41	0	0	48	4499
2026-01-20 22:02:10.84	229.56	19.57	-38.5	-40.5	26.6	0.00e+00	0	41	0	0	48	4551
2026-01-20 22:02:12.83	228.87	19.81	-38.9	-40.9	26.4	0.00e+00	0	41	0	0	48	4776
2026-01-20 22:02:14.82	228.17	20.05	-39.3	-41.2	26.1	0.00e+00	0	41	0	0	49	4696
2026-01-20 22:02:16.81	227.46	20.29	-38.9	-40.9	26.3	0.00e+00	0	41	0	0	49	4509
2026-01-20 22:02:18.80	226.74	20.53	-38.6	-40.6	26.5	0.00e+00	0	41	0	0	49	4346
2026-01-20 22:02:20.78	226.00	20.77	-38.4	-40.3	26.7	0.00e+00	0	41	0	0	48	4477
2026-01-20 22:02:22.77	225.25	21.00	-38.2	-40.1	26.9	0.00e+00	0	41	0	0	48	4379
2026-01-20 22:02:24.76	224.48	21.24	-38.5	-40.5	26.6	0.00e+00	0	41	0	0	48	4558
2026-01-20 22:02:26.75	223.70	21.47	-38.6	-40.6	26.5	0.00e+00	0	41	0	0	48	4612
2026-01-20 22:02:28.74	222.90	21.71	-38.5	-40.4	26.7	0.00e+00	0	41	0	0	48	4518
2026-01-20 22:02:30.73	222.09	21.94	-38.3	-40.2	26.8	0.00e+00	0	41	0	0	48	4439
2026-01-20 22:02:32.72	221.27	22.16	-38.4	-40.3	26.8	0.00e+00	0	41	0	0	48	4491
2026-01-20 22:02:34.71	220.43	22.39	-38.3	-40.2	26.9	0.00e+00	0	41	0	0	48	4439
2026-01-20 22:02:36.70	219.58	22.61	-37.9	-39.8	27.0	0.00e+00	0	41	0	0	47	4491
2026-01-20 22:02:38.69	218.71	22.83	-38.0	-39.9	26.9	0.00e+00	0	41	0	0	47	4517
2026-01-20 22:02:40.68	217.83	23.04	-38.1	-40.0	26.8	0.00e+00	0	41	0	0	47	4595
2026-01-20 22:02:42.67	216.93	23.25	-38.3	-40.3	26.7	0.00e+00	0	41	0	0	47	4733
2026-01-20 22:02:44.66	216.02	23.46	-38.1	-40.0	26.9	0.00e+00	0	41	0	0	47	4570
2026-01-20 22:02:46.65	215.10	23.66	-38.2	-40.1	26.8	0.00e+00	0	41	0	0	47	4623
2026-01-20 22:02:48.64	214.16	23.85	-38.2	-40.1	26.8	0.00e+00	0	41	0	0	47	4643
2026-01-20 22:02:50.63	213.21	24.04	-37.9	-39.8	27.0	0.00e+00	0	41	0	0	47	4487
2026-01-20 22:02:52.62	212.24	24.23	-38.0	-39.9	27.0	0.00e+00	0	41	0	0	47	4531
2026-01-20 22:02:54.61	211.27	24.41	-38.1	-40.0	26.9	0.00e+00	0	41	0	0	47	4563
2026-01-20 22:02:56.60	210.28	24.58	-38.0	-39.9	27.0	0.00e+00	0	41	0	0	47	4520
2026-01-20 22:02:58.58	209.28	24.74	-37.8	-39.7	27.1	0.00e+00	0	41	0	0	47	4398
2026-01-20 22:03:00.57	208.26	24.90	-37.5	-39.4	27.2	0.00e+00	0	41	0	0	47	4269
2026-01-20 22:03:02.56	207.24	25.05	-37.7	-39.6	27.1	0.00e+00	0	41	0	0	46	4644
2026-01-20 22:03:04.55	206.20	25.20	-37.6	-39.5	27.2	0.00e+00	0	41	0	0	46	4563
2026-01-20 22:03:06.54	205.15	25.33	-37.6	-39.5	27.1	0.00e+00	0	41	0	0	46	4553
2026-01-20 22:03:08.53	204.09	25.46	-37.9	-39.8	26.9	0.00e+00	0	41	0	0	46	4744
2026-01-20 22:03:10.52	203.02	25.57	-37.7	-39.6	27.1	0.00e+00	0	41	0	0	46	4629
2026-01-20 22:03:12.51	201.95	25.68	-37.3	-39.2	27.4	0.00e+00	0	41	0	0	46	4422
2026-01-20 22:03:14.50	200.86	25.78	-37.4	-39.3	27.3	0.00e+00	0	41	0	0	46	4463
2026-01-20 22:03:16.49	199.77	25.87	-37.5	-39.4	27.3	0.00e+00	0	42	0	0	46	4508
2026-01-20 22:03:18.48	198.67	25.95	-37.2	-39.0	27.5	0.00e+00	0	41	0	0	46	4332
2026-01-20 22:03:20.46	197.57	26.02	-37.2	-39.1	27.5	0.00e+00	0	41	0	0	46	4370
2026-01-20 22:03:22.46	196.46	26.08	-37.4	-39.2	27.4	0.00e+00	0	41	0	0	46	4433
2026-01-20 22:03:24.45	195.34	26.13	-37.1	-39.0	27.5	0.00e+00	0	41	0	0	46	4310
2026-01-20 22:03:26.44	194.22	26.17	-37.1	-39.0	27.6	0.00e+00	0	41	0	0	46	4310
2026-01-20 22:03:28.43	193.10	26.20	-37.4	-39.2	27.3	0.00e+00	0	41	0	0	46	4437
2026-01-20 22:03:30.42	191.98	26.22	-37.2	-39.1	27.4	0.00e+00	0	41	0	0	46	4369
2026-01-20 22:03:32.41	190.85	26.22	-37.1	-39.0	27.5	0.00e+00	0	41	0	0	46	4317
2026-01-20 22:03:34.40	189.73	26.22	-36.9	-38.8	27.5	0.00e+00	0	41	0	0	45	4461
2026-01-20 22:03:36.39	188.61	26.21	-36.6	-38.4	27.8	0.00e+00	0	41	0	0	45	4291
2026-01-20 22:03:38.38	187.48	26.18	-37.1	-39.0	27.5	0.00e+00	0	41	0	0	45	4548
2026-01-20 22:03:40.37	186.36	26.15	-37.7	-39.6	27.1	0.00e+00	0	41	0	0	46	4642
2026-01-20 22:03:42.36	185.25	26.10	-37.6	-39.5	27.2	0.00e+00	0	41	0	0	46	4581
2026-01-20 22:03:44.35	184.14	26.04	-37.3	-39.2	27.4	0.00e+00	0	41	0	0	46	4429
2026-01-20 22:03:46.34	183.03	25.98	-37.5	-39.3	27.4	0.00e+00	0	41	0	0	46	4488
2026-01-20 22:03:48.33	181.93	25.90	-37.8	-39.7	27.1	0.00e+00	0	41	0	0	46	4693
2026-01-20 22:03:50.32	180.83	25.81	-37.4	-39.2	27.4	0.00e+00	0	41	0	0	46	4441
2026-01-20 22:03:52.31	179.75	25.72	-37.9	-39.8	26.9	0.00e+00	0	41	0	0	46	4756
2026-01-20 22:03:54.30	178.67	25.61	-38.4	-40.3	26.7	0.00e+00	0	41	0	0	47	4741
2026-01-20 22:03:56.30	177.59	25.50	-38.1	-40.0	26.9	0.00e+00	0	41	0	0	47	4559
2026-01-20 22:03:58.28	176.53	25.37	-38.3	-40.2	26.7	0.00e+00	0	41	0	0	47	4692
2026-01-20 22:04:00.27	175.48	25.24	-38.3	-40.2	26.7	0.00e+00	0	41	0	0	47	4694
2026-01-20 22:04:02.26	174.44	25.10	-38.2	-40.1	26.7	0.00e+00	0	41	0	0	47	4647
2026-01-20 22:04:04.25	173.41	24.95	-37.7	-39.6	27.0	0.00e+00	0	41	0	0	47	4367
2026-01-20 22:04:06.24	172.39	24.80	-37.8	-39.8	27.0	0.00e+00	0	41	0	0	46	4706
2026-01-20 22:04:08.23	171.38	24.64	-38.3	-40.3	26.6	0.00e+00	0	41	0	0	47	4711
2026-01-20 22:04:10.22	170.39	24.47	-38.4	-40.4	26.4	0.00e+00	0	41	0	0	47	4813
2026-01-20 22:04:12.21	169.40	24.29	-37.8	-39.7	26.9	0.00e+00	0	41	0	0	47	4434
2026-01-20 22:04:14.20	168.44	24.11	-37.6	-39.5	27.1	0.00e+00	0	41	0	0	47	4340
2026-01-20 22:04:16.19	167.48	23.92	-37.9	-39.8	26.9	0.00e+00	0	41	0	0	47	4475
2026-01-20 22:04:18.18	166.54	23.72	-37.9	-39.8	26.8	0.00e+00	0	41	0	0	47	4484
2026-01-20 22:04:20.16	165.61	23.53	-37.5	-39.4	27.1	0.00e+00	0	41	0	0	47	4289
2026-01-20 22:04:22.15	164.70	23.32	-37.5	-39.4	27.2	0.00e+00	0	42	0	0	46	4500
2026-01-20 22:04:24.15	163.79	23.11	-37.8	-39.7	27.0	0.00e+00	0	41	0	0	46	4695
2026-01-20 22:04:26.13	162.91	22.90	-38.0	-39.9	26.8	0.00e+00	0	42	0	0	46	4806
2026-01-20 22:04:28.12	162.04	22.68	-37.8	-39.7	26.9	0.00e+00	0	41	0	0	46	4681
2026-01-20 22:04:30.11	161.18	22.46	-37.4	-39.3	27.1	0.00e+00	0	42	0	0	46	4483
2026-01-20 22:04:32.11	160.33	22.24	-37.6	-39.5	27.0	0.00e+00	0	42	0	0	46	4580
2026-01-20 22:04:34.10	159.50	22.01	-38.3	-40.3	26.5	0.00e+00	0	41	0	0	47	4737
2026-01-20 22:04:36.09	158.69	21.78	-38.3	-40.3	26.6	0.00e+00	0	42	0	0	47	4709
2026-01-20 22:04:38.08	157.89	21.55	-38.2	-40.2	26.7	0.00e+00	0	41	0	0	47	4652
2026-01-20 22:04:40.07	157.10	21.32	-38.1	-40.1	26.6	0.00e+00	0	41	0	0	47	4607
2026-01-20 22:04:42.06	156.33	21.08	-38.2	-40.1	26.7	0.00e+00	0	41	0	0	47	4638
2026-01-20 22:04:44.05	155.57	20.85	-38.4	-40.3	26.5	0.00e+00	0	41	0	0	47	4748
2026-01-20 22:04:46.04	154.83	20.61	-38.4	-40.4	26.4	0.00e+00	0	41	0	0	47	4774
2026-01-20 22:04:48.04	154.09	20.37	-38.4	-40.4	26.3	0.00e+00	0	41	0	0	47	4766
2026-01-20 22:04:50.02	153.38	20.13	-38.5	-40.5	26.5	0.00e+00	0	41	0	0	48	4567
2026-01-20 22:04:52.02	152.67	19.89	-38.4	-40.4	26.5	0.00e+00	0	42	0	0	48	4504
2026-01-20 22:04:54.01	151.98	19.64	-38.6	-40.5	26.4	0.00e+00	0	41	0	0	48	4588
2026-01-20 22:04:56.00	151.31	19.40	-38.6	-40.6	26.4	0.00e+00	0	41	0	0	48	4604
2026-01-20 22:04:58.00	150.64	19.16	-38.6	-40.6	26.3	0.00e+00	0	42	0	0	48	4616
2026-01-20 22:04:59.99	149.99	18.92	-38.8	-40.7	26.2	0.00e+00	0	42	0	0	48	4704
2026-01-20 22:05:01.98	149.35	18.67	-38.7	-40.7	26.2	0.00e+00	0	42	0	0	48	4680
2026-01-20 22:05:03.97	148.72	18.43	-38.6	-40.6	26.3	0.00e+00	0	41	0	0	48	4610
2026-01-20 22:05:05.96	148.11	18.19	-39.0	-41.0	26.1	0.00e+00	0	42	0	0	48	4823
2026-01-20 22:05:07.95	147.51	17.95	-39.2	-41.2	25.8	0.00e+00	0	41	0	0	48	4927
2026-01-20 22:05:09.94	146.92	17.71	-39.1	-41.1	25.8	0.00e+00	0	42	0	0	49	4621
2026-01-20 22:05:11.93	146.34	17.47	-39.0	-41.0	26.0	0.00e+00	0	42	0	0	49	4574
2026-01-20 22:05:13.92	145.77	17.23	-39.2	-41.2	25.9	0.00e+00	0	41	0	0	49	4657
2026-01-20 22:05:15.91	145.22	17.00	-39.2	-41.2	25.8	0.00e+00	0	42	0	0	49	4704
2026-01-20 22:05:17.90	144.67	16.76	-39.3	-41.3	25.8	0.00e+00	0	42	0	0	49	4751
2026-01-20 22:05:19.89	144.14	16.52	-39.4	-41.5	25.7	0.00e+00	0	42	0	0	49	4823
2026-01-20 22:05:21.88	143.61	16.29	-39.7	-41.7	25.5	0.00e+00	0	41	0	0	50	4699
2026-01-20 22:05:23.87	143.10	16.06	-39.6	-41.7	25.5	0.00e+00	0	42	0	0	50	4674
2026-01-20 22:05:25.86	142.59	15.82	-39.6	-41.7	25.5	0.00e+00	0	41	0	0	50	4677
2026-01-20 22:05:27.85	142.10	15.59	-39.7	-41.7	25.5	0.00e+00	0	41	0	0	50	4697
2026-01-20 22:05:29.83	141.62	15.37	-39.9	-42.0	25.2	0.00e+00	0	42	0	0	50	4856
2026-01-20 22:05:31.82	141.14	15.14	-40.1	-42.2	25.1	0.00e+00	0	41	0	0	50	4945
2026-01-20 22:05:33.81	140.67	14.91	-40.2	-42.3	25.0	0.00e+00	0	42	0	0	51	4756
2026-01-20 22:05:35.80	140.22	14.69	-40.2	-42.3	25.0	0.00e+00	0	41	0	0	51	4753
2026-01-20 22:05:37.80	139.77	14.46	-40.1	-42.1	25.1	0.00e+00	0	41	0	0	51	4645
2026-01-20 22:05:39.78	139.33	14.24	-40.1	-42.2	25.0	0.00e+00	0	41	0	0	51	4703
2026-01-20 22:05:41.77	138.90	14.02	-40.4	-42.6	24.8	0.00e+00	0	42	0	0	51	4871
2026-01-20 22:05:43.76	138.47	13.81	-40.7	-42.9	24.4	0.00e+00	0	41	0	0	52	4774
2026-01-20 22:05:45.75	138.06	13.59	-40.7	-42.9	24.4	0.00e+00	0	42	0	0	52	4799
2026-01-20 22:05:47.74	137.65	13.37	-40.7	-42.9	24.4	0.00e+00	0	41	0	0	52	4794
2026-01-20 22:05:49.73	137.25	13.16	-40.8	-43.0	24.4	0.00e+00	0	41	0	0	52	4834
2026-01-20 22:05:51.72	136.86	12.95	-40.8	-43.0	24.4	0.00e+00	0	41	0	0	52	4854
2026-01-20 22:05:53.71	136.47	12.74	-41.1	-43.3	24.1	0.00e+00	0	42	0	0	52	4999
2026-01-20 22:05:55.70	136.09	12.53	-41.2	-43.4	24.0	0.00e+00	0	41	0	0	52	5079
2026-01-20 22:05:57.68	135.73	12.32	-41.1	-43.3	24.0	0.00e+00	0	42	0	0	53	4736
2026-01-20 22:05:59.67	135.36	12.12	-41.1	-43.4	24.0	0.00e+00	0	41	0	0	53	4769
2026-01-20 22:06:01.66	135.00	11.92	-41.2	-43.4	24.0	0.00e+00	0	41	0	0	53	4787
2026-01-20 22:06:03.65	134.65	11.71	-41.1	-43.4	24.0	0.00e+00	0	42	0	0	53	4778
2026-01-20 22:06:05.64	134.31	11.51	-41.2	-43.5	23.9	0.00e+00	0	42	0	0	53	4837
2026-01-20 22:06:07.63	133.97	11.31	-41.5	-43.8	23.6	0.00e+00	0	41	0	0	53	5031
2026-01-20 22:06:09.62	133.64	11.12	-41.8	-44.1	23.4	0.00e+00	0	42	0	0	54	4897
2026-01-20 22:06:11.61	133.31	10.92	-41.8	-44.1	23.4	0.00e+00	0	42	0	0	54	4892
2026-01-20 22:06:13.60	132.99	10.73	-41.7	-44.0	23.4	0.00e+00	0	42	0	0	54	4846
2026-01-20 22:06:15.59	132.67	10.54	-41.9	-44.3	23.2	0.00e+00	0	41	0	0	54	4996
2026-01-20 22:06:17.58	132.36	10.35	-42.1	-44.5	23.0	0.00e+00	0	41	0	0	54	5102
2026-01-20 22:06:19.57	132.06	10.16	-42.2	-44.7	22.8	0.00e+00	0	42	0	0	55	4944
2026-01-20 22:06:21.56	131.76	9.97	-42.3	-44.8	22.7	0.00e+00	0	42	0	0	55	5029
2026-01-20 22:06:23.55	131.47	9.78	-42.4	-44.9	22.6	0.00e+00	0	42	0	0	55	5047
2026-01-20 22:06:25.54	131.18	9.60	-42.2	-44.7	22.7	0.00e+00	0	42	0	0	55	4953
2026-01-20 22:06:27.53	130.89	9.42	-42.4	-44.9	22.5	0.00e+00	0	42	0	0	55	5066
2026-01-20 22:06:29.52	130.62	9.24	-42.3	-44.8	22.6	0.00e+00	0	42	0	0	55	4998
2026-01-20 22:06:31.51	130.34	9.06	-42.3	-44.8	22.6	0.00e+00	0	42	0	0	55	5003
2026-01-20 22:06:33.49	130.07	8.88	-50.2	-69.3	3.7	1.34e-01	0	41	104	0	71	33435
2026-01-20 22:06:35.48	129.81	8.70	-50.3	-69.5	3.8	8.48e-01	0	42	104	0	72	32261
2026-01-20 22:06:37.47	129.55	8.53	-50.8	-69.6	3.8	8.46e-01	0	42	104	0	72	32912
2026-01-20 22:06:39.45	129.29	8.35	-50.8	-69.8	3.8	8.46e-01	0	41	104	0	72	33450
2026-01-20 22:06:41.44	129.04	8.18	-51.0	-69.8	3.8	8.48e-01	0	42	104	0	72	33588
2026-01-20 22:06:43.43	128.79	8.01	-50.8	-69.9	3.8	8.48e-01	0	42	104	0	72	33749
2026-01-20 22:06:45.41	128.55	7.84	-50.9	-69.9	3.8	8.48e-01	0	42	104	0	72	33797
2026-01-20 22:06:47.40	128.31	7.67	-50.8	-69.9	3.8	8.47e-01	0	42	104	0	72	33900
2026-01-20 22:06:49.38	128.07	7.50	-50.7	-69.9	3.8	8.46e-01	0	42	104	0	72	33914
2026-01-20 22:06:51.37	127.84	7.34	-50.8	-69.9	3.8	8.47e-01	0	42	104	0	72	34069
2026-01-20 22:06:53.36	127.61	7.17	-50.9	-69.9	3.8	8.47e-01	0	42	104	0	72	34037
2026-01-20 22:06:55.34	127.39	7.01	-50.9	-69.9	3.8	8.47e-01	0	42	104	0	72	33769
2026-01-20 22:06:57.33	127.17	6.85	-50.9	-69.9	3.8	8.46e-01	0	42	104	0	72	33903
2026-01-20 22:06:59.32	126.95	6.69	-50.9	-69.9	3.8	8.46e-01	0	42	104	0	72	33895
2026-01-20 22:07:01.30	126.73	6.53	-50.9	-69.9	3.8	8.47e-01	0	42	104	0	72	33831
2026-01-20 22:07:03.29	126.52	6.37	-50.8	-69.9	3.8	8.46e-01	0	42	104	0	72	33713
2026-01-20 22:07:05.27	126.32	6.21	-50.8	-69.9	3.8	8.47e-01	0	42	104	0	72	33752
2026-01-20 22:07:07.26	126.11	6.06	-50.8	-69.9	3.8	8.46e-01	0	42	104	0	72	33735
2026-01-20 22:07:09.24	125.91	5.90	-50.9	-69.9	3.8	8.47e-01	0	42	104	0	72	33734
2026-01-20 22:07:11.23	125.71	5.75	-50.8	-69.9	3.8	8.48e-01	0	42	104	0	72	33739
2026-01-20 22:07:13.22	125.51	5.60	-50.8	-69.8	3.8	8.48e-01	0	42	104	0	72	33686
2026-01-20 22:07:15.20	125.32	5.45	-50.8	-69.9	3.8	8.47e-01	0	42	104	0	72	33721
2026-01-20 22:07:17.19	125.13	5.30	-50.8	-69.9	3.8	8.47e-01	0	42	104	0	72	33728
2026-01-20 22:07:19.17	124.95	5.15	-50.8	-69.9	3.8	8.47e-01	0	42	104	0	72	33735
2026-01-20 22:07:21.16	124.76	5.00	-50.8	-69.9	3.8	8.47e-01	0	42	104	0	72	33725
2026-01-20 22:07:23.15	124.58	4.85	-50.8	-69.8	3.8	8.47e-01	0	42	104	0	72	33662
2026-01-20 22:07:25.13	124.40	4.71	-50.8	-69.9	3.8	8.47e-01	0	42	104	0	72	33722

#Closed at: 2026-01-20 22:07:27
#Recorded file [0 MB]: D:/Data/31040_260121_005949.dat