passes_logs/2026/01/20/T1/T1__20260120_211139_KHAYYAM_rec.log

#Pass ID: 20260120_211139_KHAYYAM
#Satellite: KHAYYAM
#Configuration: KHAYYAM_480M
#almurnet v.1.7.20251203
#Start time: 2026-01-20 21:11:39

#Version: 2.0.20230620
#Station: T1
#Location: 37.570604 lon 55.790049 lat
#TLE: 1 53370U 22096A   26020.14177223  .00010117  00000+0  41245-3 0  9992
#TLE: 2 53370  97.3561 287.0594 0001744 107.9120 252.2308 15.24640779192023

#Time	Az	El	Level	Level2	SNR	BER	BlckErr	Temp	State	Recorded	gain1	gain2
2026-01-20 21:11:39.46	15.81	5.04	-54.2	-58.7	3.5	0.00e+00	0	41	0	0	78	26457
2026-01-20 21:11:42.43	15.85	5.28	-52.8	-57.8	3.7	0.00e+00	0	41	104	0	76	26865
2026-01-20 21:11:45.41	15.90	5.52	-52.8	-57.9	3.7	0.00e+00	0	41	104	0	76	26981
2026-01-20 21:11:48.39	15.95	5.77	-52.7	-57.9	3.7	0.00e+00	0	42	104	0	76	27031
2026-01-20 21:11:51.37	16.00	6.02	-52.7	-57.9	3.7	0.00e+00	0	42	104	0	76	26961
2026-01-20 21:11:54.35	16.05	6.28	-52.8	-57.8	3.7	0.00e+00	0	42	104	0	76	26846
2026-01-20 21:11:57.33	16.11	6.53	-52.8	-57.9	3.7	0.00e+00	0	43	104	0	76	26952
2026-01-20 21:12:00.31	16.16	6.80	-52.7	-57.9	3.7	0.00e+00	0	43	104	0	76	27018
2026-01-20 21:12:03.29	16.21	7.06	-52.7	-57.9	3.7	0.00e+00	0	43	104	0	76	26890
2026-01-20 21:12:06.27	16.27	7.33	-52.8	-57.8	3.7	0.00e+00	0	43	104	0	76	26874
2026-01-20 21:12:09.25	16.32	7.60	-52.7	-57.8	3.7	0.00e+00	0	43	104	0	76	26851
2026-01-20 21:12:12.23	16.38	7.88	-52.7	-57.8	3.7	0.00e+00	0	43	104	0	76	26833
2026-01-20 21:12:15.21	16.44	8.16	-52.7	-57.9	3.7	0.00e+00	0	44	104	0	76	26913
2026-01-20 21:12:18.19	16.50	8.44	-52.7	-57.8	3.7	0.00e+00	0	44	104	0	76	26822
2026-01-20 21:12:21.17	16.56	8.73	-52.7	-57.8	3.7	0.00e+00	0	44	104	0	76	26873
2026-01-20 21:12:24.15	16.62	9.03	-52.7	-57.9	3.7	0.00e+00	0	44	104	0	76	26939
2026-01-20 21:12:27.13	16.68	9.33	-52.8	-58.0	3.7	0.00e+00	0	44	104	0	77	25781
2026-01-20 21:12:30.12	16.75	9.63	-53.6	-58.7	3.7	0.00e+00	0	44	104	0	77	28009
2026-01-20 21:12:33.10	16.81	9.94	-52.6	-57.8	3.7	0.00e+00	0	44	104	0	77	25275
2026-01-20 21:12:36.09	16.88	10.26	-52.9	-58.3	3.7	0.00e+00	0	45	104	0	77	26590
2026-01-20 21:12:39.07	16.95	10.58	-53.5	-58.6	3.7	0.00e+00	0	45	104	0	77	27745
2026-01-20 21:12:42.05	17.02	10.90	-54.1	-59.0	3.7	0.00e+00	0	45	104	0	79	25913
2026-01-20 21:12:45.04	17.09	11.23	-54.9	-59.5	3.7	0.00e+00	0	45	104	0	80	25861
2026-01-20 21:12:48.02	17.16	11.57	-54.4	-59.0	3.7	0.00e+00	0	45	104	0	80	24300
2026-01-20 21:12:51.00	17.24	11.92	-54.6	-59.2	3.7	0.00e+00	0	45	104	0	80	25001
2026-01-20 21:12:53.99	17.31	12.27	-54.9	-59.5	3.7	0.00e+00	0	45	104	0	80	25779
2026-01-20 21:12:56.97	17.39	12.62	-55.0	-59.6	3.7	0.00e+00	0	45	104	0	80	26019
2026-01-20 21:12:59.96	17.48	12.99	-55.2	-59.8	3.7	0.00e+00	0	45	104	0	81	25112
2026-01-20 21:13:02.94	17.56	13.36	-55.2	-59.8	3.7	0.00e+00	0	45	104	0	81	25166
2026-01-20 21:13:05.93	17.64	13.74	-54.7	-59.5	3.7	0.00e+00	0	45	104	0	81	24364
2026-01-20 21:13:08.91	17.73	14.13	-55.1	-59.7	3.7	0.00e+00	0	45	104	0	80	26555
2026-01-20 21:13:11.90	17.82	14.53	-54.8	-59.4	3.7	0.00e+00	0	45	104	0	80	25586
2026-01-20 21:13:14.88	17.91	14.93	-53.9	-59.0	3.7	0.00e+00	0	46	104	0	79	25704
2026-01-20 21:13:17.87	18.01	15.35	-53.3	-58.7	3.7	0.00e+00	0	46	104	0	78	26435
2026-01-20 21:13:20.85	18.11	15.77	-53.2	-58.6	3.7	0.00e+00	0	46	104	0	78	26189
2026-01-20 21:13:23.83	18.21	16.20	-53.6	-58.9	3.7	0.00e+00	0	46	104	0	78	26922
2026-01-20 21:13:26.82	18.31	16.65	-53.2	-58.6	3.7	0.00e+00	0	46	104	0	78	26238
2026-01-20 21:13:29.80	18.42	17.10	-54.2	-59.2	3.7	0.00e+00	0	46	104	0	79	26442
2026-01-20 21:13:32.79	18.53	17.57	-54.1	-59.0	3.7	0.00e+00	0	46	104	0	79	25765
2026-01-20 21:13:35.78	18.65	18.04	-54.5	-59.4	3.7	0.00e+00	0	46	104	0	79	26963
2026-01-20 21:13:38.76	18.77	18.53	-54.5	-59.2	3.7	0.00e+00	0	46	104	0	79	26378
2026-01-20 21:13:41.75	18.89	19.03	-53.8	-59.0	3.7	0.00e+00	0	46	104	0	79	25702
2026-01-20 21:13:44.73	19.02	19.55	-53.9	-59.0	3.7	0.00e+00	0	46	104	0	79	25694
2026-01-20 21:13:47.71	19.15	20.08	-53.7	-58.6	3.7	0.00e+00	0	46	104	0	79	24716
2026-01-20 21:13:50.69	19.29	20.62	-54.0	-59.0	3.7	0.00e+00	0	46	104	0	79	25720
2026-01-20 21:13:53.68	19.43	21.18	-54.5	-59.3	3.7	0.00e+00	0	46	104	0	79	26711
2026-01-20 21:13:56.66	19.58	21.75	-54.4	-59.3	3.7	0.00e+00	0	46	104	0	79	26615
2026-01-20 21:13:59.64	19.73	22.35	-54.4	-59.1	3.7	0.00e+00	0	46	104	0	80	24761
2026-01-20 21:14:02.63	19.89	22.96	-54.8	-59.5	3.7	0.00e+00	0	46	104	0	80	25884
2026-01-20 21:14:05.61	20.06	23.58	-54.6	-58.7	3.7	0.00e+00	0	46	104	0	80	23512
2026-01-20 21:14:08.60	20.23	24.23	-53.8	-58.0	3.7	0.00e+00	0	46	104	0	79	23050
2026-01-20 21:14:11.59	20.41	24.90	-53.8	-58.3	3.7	0.00e+00	0	46	104	0	79	23739
2026-01-20 21:14:14.57	20.60	25.59	-54.4	-59.3	3.7	0.00e+00	0	46	104	0	79	26881
2026-01-20 21:14:17.55	20.80	26.30	-54.3	-59.2	3.7	0.00e+00	0	46	104	0	79	26376
2026-01-20 21:14:20.54	21.01	27.03	-54.3	-58.7	3.7	0.00e+00	0	46	104	0	79	25094
2026-01-20 21:14:23.52	21.23	27.79	-54.6	-59.0	3.7	0.00e+00	0	46	104	0	79	25809
2026-01-20 21:14:26.50	21.46	28.57	-55.1	-59.6	3.7	0.00e+00	0	46	104	0	80	26150
2026-01-20 21:14:29.49	21.70	29.39	-54.7	-59.1	3.7	0.00e+00	0	46	104	0	80	24637
2026-01-20 21:14:32.47	21.96	30.22	-54.6	-58.9	3.7	0.00e+00	0	46	104	0	80	24106
2026-01-20 21:14:35.46	22.23	31.10	-55.1	-59.6	3.7	0.00e+00	0	46	104	0	81	24530
2026-01-20 21:14:38.44	22.52	32.00	-55.0	-59.6	3.7	0.00e+00	0	46	104	0	81	24545
2026-01-20 21:14:41.42	22.82	32.93	-54.4	-59.3	3.7	0.00e+00	0	46	104	0	80	25219
2026-01-20 21:14:44.41	23.15	33.90	-54.6	-59.5	3.7	0.00e+00	0	46	104	0	80	25727
2026-01-20 21:14:47.39	23.49	34.90	-54.9	-59.4	3.7	0.00e+00	0	46	104	0	80	25669
2026-01-20 21:14:50.38	23.86	35.95	-54.7	-59.5	3.7	0.00e+00	0	46	104	0	80	25757
2026-01-20 21:14:53.36	24.25	37.03	-54.8	-59.5	3.7	0.00e+00	0	46	104	0	80	25735
2026-01-20 21:14:56.35	24.67	38.16	-55.2	-59.6	3.7	0.00e+00	0	46	104	0	81	24724
2026-01-20 21:14:59.34	25.12	39.33	-55.2	-59.6	3.7	0.00e+00	0	46	104	0	81	24774
2026-01-20 21:15:02.33	25.61	40.54	-55.3	-59.6	3.7	0.00e+00	0	46	104	0	81	24793
2026-01-20 21:15:05.31	26.14	41.80	-54.5	-59.1	3.7	0.00e+00	0	46	104	0	81	23157
2026-01-20 21:15:08.29	26.71	43.11	-54.7	-59.5	3.7	0.00e+00	0	47	104	0	80	25732
2026-01-20 21:15:11.28	27.34	44.47	-54.8	-58.8	3.7	0.00e+00	0	46	104	0	81	22539
2026-01-20 21:15:14.26	28.02	45.88	-55.1	-59.0	3.7	0.00e+00	0	46	104	0	81	23029
2026-01-20 21:15:17.25	28.77	47.34	-54.9	-59.0	3.7	0.00e+00	0	46	104	0	81	23104
2026-01-20 21:15:20.23	29.59	48.86	-54.5	-59.0	3.7	0.00e+00	0	46	104	0	81	22949
2026-01-20 21:15:23.22	30.50	50.43	-55.1	-59.6	3.7	0.00e+00	0	46	104	0	80	26023
2026-01-20 21:15:26.20	31.52	52.05	-55.4	-59.7	3.7	0.00e+00	0	47	104	0	81	25004
2026-01-20 21:15:29.18	32.65	53.72	-55.6	-59.9	3.7	0.00e+00	0	46	104	0	81	25426
2026-01-20 21:15:32.16	33.93	55.44	-55.3	-59.6	3.7	0.00e+00	0	46	104	0	81	24694
2026-01-20 21:15:35.15	35.39	57.22	-55.5	-59.5	3.7	0.00e+00	0	46	104	0	81	24352
2026-01-20 21:15:38.13	37.04	59.04	-55.4	-59.7	3.7	0.00e+00	0	47	104	0	81	25014
2026-01-20 21:15:41.12	38.96	60.89	-55.5	-60.0	3.7	0.00e+00	0	47	104	0	82	24398
2026-01-20 21:15:44.10	41.17	62.77	-55.8	-60.2	3.7	0.00e+00	0	47	104	0	82	25003
2026-01-20 21:15:47.08	43.77	64.66	-55.9	-60.2	3.7	0.00e+00	0	47	104	0	82	24984
2026-01-20 21:15:50.07	46.85	66.56	-55.8	-60.2	3.7	0.00e+00	0	46	104	0	82	24882
2026-01-20 21:15:53.06	50.53	68.43	-55.8	-60.3	3.7	0.00e+00	0	46	104	0	82	25186
2026-01-20 21:15:56.04	54.95	70.23	-55.6	-60.2	3.7	0.00e+00	0	46	104	0	82	24890
2026-01-20 21:15:59.02	60.30	71.94	-55.5	-60.1	3.7	0.00e+00	0	47	104	0	82	24725
2026-01-20 21:16:02.00	66.79	73.50	-55.7	-60.2	3.7	0.00e+00	0	46	104	0	82	24857
2026-01-20 21:16:04.99	74.61	74.84	-55.4	-60.0	3.7	0.00e+00	0	47	104	0	82	24376
2026-01-20 21:16:07.98	83.82	75.87	-55.3	-60.0	3.7	0.00e+00	0	47	104	0	82	24340
2026-01-20 21:16:10.96	94.19	76.50	-54.9	-59.7	3.7	0.00e+00	0	47	104	0	81	24943
2026-01-20 21:16:13.94	105.21	76.67	-55.3	-60.0	3.7	0.00e+00	0	47	104	0	81	25788
2026-01-20 21:16:16.93	116.17	76.37	-55.8	-60.3	3.7	0.00e+00	0	47	104	0	82	25112
2026-01-20 21:16:19.91	126.24	75.62	-55.6	-60.2	3.7	0.00e+00	0	47	104	0	82	24860
2026-01-20 21:16:22.90	135.08	74.49	-55.1	-59.9	3.7	0.00e+00	0	47	104	0	82	24040
2026-01-20 21:16:25.88	142.51	73.08	-55.4	-59.9	3.7	0.00e+00	0	46	104	0	81	25545
2026-01-20 21:16:28.87	148.68	71.47	-55.8	-60.1	3.7	0.00e+00	0	47	104	0	82	24741
2026-01-20 21:16:31.86	153.77	69.72	-55.8	-60.1	3.7	0.00e+00	0	47	104	0	82	24613
2026-01-20 21:16:34.84	157.96	67.89	-55.7	-60.2	3.7	0.00e+00	0	47	104	0	82	24936
2026-01-20 21:16:37.82	161.45	66.01	-55.4	-60.0	3.7	0.00e+00	0	47	104	0	82	24426
2026-01-20 21:16:40.81	164.39	64.10	-55.7	-60.2	3.7	0.00e+00	0	47	104	0	82	25021
2026-01-20 21:16:43.79	166.87	62.21	-55.7	-60.2	3.7	0.00e+00	0	47	104	0	82	25017
2026-01-20 21:16:46.77	169.00	60.33	-55.8	-60.3	3.7	0.00e+00	0	47	104	0	82	25291
2026-01-20 21:16:49.76	170.84	58.48	-55.8	-60.3	3.7	0.00e+00	0	46	104	0	82	25208
2026-01-20 21:16:52.74	172.43	56.67	-55.2	-60.0	3.7	0.00e+00	0	47	104	0	82	24463
2026-01-20 21:16:55.73	173.84	54.90	-55.4	-60.1	3.7	0.00e+00	0	47	104	0	82	24557
2026-01-20 21:16:58.71	175.07	53.19	-55.6	-60.0	3.7	0.00e+00	0	47	104	0	82	24499
2026-01-20 21:17:01.70	176.18	51.52	-55.8	-60.3	3.7	0.00e+00	0	47	104	0	82	25151
2026-01-20 21:17:04.68	177.16	49.90	-55.6	-60.1	3.7	0.00e+00	0	47	104	0	82	24708
2026-01-20 21:17:07.67	178.05	48.34	-55.6	-59.9	3.7	0.00e+00	0	47	104	0	82	24099
2026-01-20 21:17:10.65	178.85	46.84	-55.6	-60.2	3.7	0.00e+00	0	47	104	0	82	24882
2026-01-20 21:17:13.63	179.57	45.39	-55.6	-60.1	3.7	0.00e+00	0	47	104	0	82	24697
2026-01-20 21:17:16.62	180.24	43.98	-55.5	-60.0	3.7	0.00e+00	0	47	104	0	82	24463
2026-01-20 21:17:19.60	180.85	42.64	-55.5	-59.9	3.7	0.00e+00	0	47	104	0	82	24023
2026-01-20 21:17:22.58	181.40	41.34	-55.4	-60.0	3.7	0.00e+00	0	47	104	0	82	24347
2026-01-20 21:17:25.57	181.92	40.08	-55.5	-60.1	3.7	0.00e+00	0	47	104	0	82	24758
2026-01-20 21:17:28.56	182.40	38.88	-55.3	-59.9	3.7	0.00e+00	0	47	104	0	82	24194
2026-01-20 21:17:31.54	182.84	37.72	-54.8	-59.6	3.7	0.00e+00	0	47	104	0	81	24568
2026-01-20 21:17:34.52	183.25	36.60	-55.2	-59.7	3.7	0.00e+00	0	47	104	0	81	24940
2026-01-20 21:17:37.51	183.64	35.53	-55.5	-60.0	3.7	0.00e+00	0	47	104	0	81	25782
2026-01-20 21:17:40.49	184.00	34.49	-55.4	-59.9	3.7	0.00e+00	0	47	104	0	81	25530
2026-01-20 21:17:43.48	184.33	33.49	-55.3	-59.7	3.7	0.00e+00	0	47	104	0	81	25017
2026-01-20 21:17:46.46	184.65	32.53	-55.5	-59.9	3.7	0.00e+00	0	47	104	0	81	25603
2026-01-20 21:17:49.44	184.95	31.60	-55.3	-59.8	3.7	0.00e+00	0	47	104	0	81	25262
2026-01-20 21:17:52.43	185.23	30.70	-55.2	-59.8	3.7	0.00e+00	0	47	104	0	81	25312
2026-01-20 21:17:55.41	185.50	29.84	-55.1	-59.6	3.7	0.00e+00	0	47	104	0	81	24629
2026-01-20 21:17:58.39	185.75	29.01	-55.1	-59.7	3.7	0.00e+00	0	47	104	0	81	25040
2026-01-20 21:18:01.38	185.99	28.20	-55.1	-59.7	3.7	0.00e+00	0	47	104	0	81	24831
2026-01-20 21:18:04.36	186.21	27.42	-55.1	-59.6	3.7	0.00e+00	0	47	104	0	81	24699
2026-01-20 21:18:07.33	186.43	26.67	-55.2	-59.5	3.7	0.00e+00	0	47	104	0	81	24345
2026-01-20 21:18:10.31	186.63	25.94	-55.2	-59.7	3.7	0.00e+00	0	47	104	0	81	24835
2026-01-20 21:18:13.29	186.83	25.23	-55.2	-59.7	3.7	0.00e+00	0	47	104	0	81	24852
2026-01-20 21:18:16.28	187.01	24.55	-55.2	-59.6	3.7	0.00e+00	0	47	104	0	81	24792
2026-01-20 21:18:19.26	187.19	23.89	-54.8	-59.4	3.7	0.00e+00	0	47	104	0	81	24048
2026-01-20 21:18:22.25	187.36	23.24	-54.9	-59.4	3.6	0.00e+00	0	47	104	0	81	24150
2026-01-20 21:18:25.23	187.53	22.62	-54.6	-59.2	3.7	0.00e+00	0	47	104	0	81	23659
2026-01-20 21:18:28.21	187.68	22.01	-54.6	-59.3	3.7	0.00e+00	0	47	104	0	80	25221
2026-01-20 21:18:31.20	187.84	21.42	-54.4	-59.1	3.7	0.00e+00	0	47	104	0	80	24628
2026-01-20 21:18:34.18	187.98	20.85	-54.5	-59.2	3.7	0.00e+00	0	47	104	0	80	24969
2026-01-20 21:18:37.17	188.12	20.29	-54.3	-59.0	3.7	0.00e+00	0	47	104	0	80	24522
2026-01-20 21:18:40.15	188.25	19.75	-54.4	-59.1	3.7	0.00e+00	0	47	104	0	80	24558
2026-01-20 21:18:43.14	188.38	19.23	-54.4	-59.1	3.7	0.00e+00	0	47	104	0	80	24686
2026-01-20 21:18:46.12	188.51	18.71	-54.3	-59.0	3.7	0.00e+00	0	47	104	0	80	24356
2026-01-20 21:18:49.10	188.63	18.21	-54.2	-59.0	3.7	0.00e+00	0	47	104	0	80	24264
2026-01-20 21:18:52.09	188.74	17.73	-54.4	-59.0	3.7	0.00e+00	0	47	104	0	80	24352
2026-01-20 21:18:55.07	188.86	17.25	-54.1	-58.8	3.7	0.00e+00	0	47	104	0	79	25381
2026-01-20 21:18:58.06	188.96	16.79	-54.0	-58.8	3.7	0.00e+00	0	47	104	0	79	25166
2026-01-20 21:19:01.04	189.07	16.34	-53.7	-58.6	3.7	0.00e+00	0	47	104	0	79	24540
2026-01-20 21:19:04.03	189.17	15.89	-53.8	-58.6	3.7	0.00e+00	0	47	104	0	79	24542
2026-01-20 21:19:07.01	189.27	15.46	-53.3	-58.3	3.7	0.00e+00	0	47	104	0	78	25196
2026-01-20 21:19:09.99	189.37	15.04	-53.7	-58.5	3.7	0.00e+00	0	47	104	0	78	25832
2026-01-20 21:19:12.98	189.46	14.63	-53.4	-58.2	3.7	0.00e+00	0	47	104	0	78	24971
2026-01-20 21:19:15.96	189.55	14.23	-53.2	-58.1	3.7	0.00e+00	0	47	104	0	78	24736
2026-01-20 21:19:18.95	189.64	13.83	-53.6	-58.4	3.7	0.00e+00	0	47	104	0	78	25552
2026-01-20 21:19:21.94	189.72	13.44	-53.3	-58.2	3.7	0.00e+00	0	47	104	0	78	24948
2026-01-20 21:19:24.92	189.80	13.06	-53.7	-58.5	3.7	0.00e+00	0	47	104	0	78	25820
2026-01-20 21:19:27.90	189.89	12.69	-53.2	-58.1	3.7	0.00e+00	0	47	104	0	78	24631
2026-01-20 21:19:30.88	189.96	12.33	-53.2	-58.1	3.7	0.00e+00	0	47	104	0	78	24600
2026-01-20 21:19:33.87	190.04	11.97	-53.3	-58.0	3.7	0.00e+00	0	47	104	0	78	24503
2026-01-20 21:19:36.85	190.11	11.62	-53.4	-58.2	3.7	0.00e+00	0	47	104	0	78	25058
2026-01-20 21:19:39.83	190.19	11.28	-53.2	-58.0	3.7	0.00e+00	0	47	104	0	78	24449
2026-01-20 21:19:42.82	190.26	10.94	-53.0	-57.9	3.7	0.00e+00	0	47	104	0	78	24154
2026-01-20 21:19:45.80	190.33	10.61	-53.6	-58.4	3.7	0.00e+00	0	47	104	0	77	26967
2026-01-20 21:19:48.79	190.39	10.29	-52.9	-57.9	3.7	0.00e+00	0	47	104	0	77	25432
2026-01-20 21:19:51.77	190.46	9.97	-52.7	-57.6	3.7	0.00e+00	0	47	104	0	77	24796
2026-01-20 21:19:54.75	190.53	9.65	-52.8	-57.7	3.7	0.00e+00	0	47	104	0	77	24931
2026-01-20 21:19:57.74	190.59	9.35	-52.8	-57.7	3.7	0.00e+00	0	47	104	0	77	24945
2026-01-20 21:20:00.73	190.65	9.04	-53.1	-58.0	3.7	0.00e+00	0	47	104	0	77	25861
2026-01-20 21:20:03.71	190.71	8.74	-54.0	-58.7	3.7	0.00e+00	0	47	104	0	78	26333
2026-01-20 21:20:06.69	190.77	8.45	-55.1	-59.6	3.7	0.00e+00	0	47	104	0	81	24595
2026-01-20 21:20:09.67	190.83	8.16	-55.6	-60.0	3.7	0.00e+00	0	47	104	0	82	24453
2026-01-20 21:20:12.65	190.88	7.88	-55.7	-60.2	3.7	0.00e+00	0	47	104	0	82	24933
2026-01-20 21:20:15.63	190.94	7.60	-55.4	-60.0	3.7	0.00e+00	0	47	104	0	81	25912
2026-01-20 21:20:18.60	190.99	7.32	-55.4	-60.1	3.7	0.00e+00	0	47	104	0	82	24696
2026-01-20 21:20:21.58	191.05	7.05	-55.7	-60.1	3.7	0.00e+00	0	47	104	0	82	24590
2026-01-20 21:20:24.56	191.10	6.78	-55.6	-60.0	3.7	0.00e+00	0	47	104	0	82	24515
2026-01-20 21:20:27.54	191.15	6.51	-55.0	-59.5	3.7	0.00e+00	0	47	104	0	81	24496
2026-01-20 21:20:30.52	191.20	6.25	-55.0	-59.5	3.7	0.00e+00	0	47	104	0	81	24409
2026-01-20 21:20:33.50	191.25	6.00	-55.0	-59.5	3.7	0.00e+00	0	47	104	0	81	24388
2026-01-20 21:20:36.48	191.30	5.74	-55.0	-59.5	3.7	0.00e+00	0	47	104	0	81	24469
2026-01-20 21:20:39.46	191.34	5.49	-55.0	-59.5	3.7	0.00e+00	0	47	104	0	81	24402
2026-01-20 21:20:42.44	191.39	5.24	-55.0	-59.5	3.7	0.00e+00	0	47	104	0	81	24385
2026-01-20 21:20:45.42	191.44	5.00	-55.0	-59.5	3.7	0.00e+00	0	47	104	0	81	24360

#Closed at: 2026-01-20 21:20:47
#Recorded file [0 MB]: D:/Data/31040_260121_001139.dat