passes_logs/2026/01/20/T1/T1__20260120_234317_NOAA_20_JPSS-1_rec.log

#Pass ID: 20260120_234317_NOAA 20 (JPSS-1)
#Satellite: NOAA 20 (JPSS-1)
#Configuration: NOAA 20
#almurnet v.1.7.20251203
#Start time: 2026-01-20 23:43:17

#Version: 2.0.20230620
#Station: T1
#Location: 37.570604 lon 55.790049 lat
#TLE: 1 43013U 17073A   26020.26397077  .00000127  00000+0  80954-4 0  9999
#TLE: 2 43013  98.7643 321.1479 0001288  31.3158 328.8095 14.19537595423482

#Time	Az	El	Level	Level2	SNR	BER	BlckErr	Temp	State	Recorded	gain1	gain2
2026-01-20 23:43:17.32	16.16	4.97	-50.9	-67.2	3.8	1.49e+00	0	43	0	0	73	23330
2026-01-20 23:43:21.29	16.17	5.25	-50.9	-67.2	3.8	1.49e+00	0	43	104	0	72	24914
2026-01-20 23:43:25.26	16.18	5.54	-50.8	-67.2	3.8	1.49e+00	0	43	104	0	72	24787
2026-01-20 23:43:29.24	16.18	5.83	-50.8	-67.2	3.8	1.49e+00	0	44	104	0	72	24732
2026-01-20 23:43:33.21	16.19	6.12	-50.8	-67.2	3.8	1.49e+00	0	43	104	0	72	24711
2026-01-20 23:43:37.18	16.20	6.42	-50.8	-67.1	3.8	1.49e+00	0	44	104	0	72	24632
2026-01-20 23:43:41.15	16.21	6.72	-50.8	-67.0	3.8	1.49e+00	0	44	104	0	72	24202
2026-01-20 23:43:45.12	16.22	7.02	-50.8	-66.6	3.8	1.49e+00	0	44	104	0	72	23175
2026-01-20 23:43:49.10	16.23	7.33	-50.8	-66.0	3.8	1.49e+00	0	44	104	0	72	21752
2026-01-20 23:43:53.07	16.23	7.64	-50.7	-65.0	3.8	1.49e+00	0	44	104	0	72	19321
2026-01-20 23:43:57.04	16.24	7.95	-50.6	-63.0	4.4	1.35e+00	0	44	0	0	72	15233
2026-01-20 23:44:01.01	16.25	8.27	-50.3	-60.0	6.1	4.04e-01	0	44	0	7340032	72	10805
2026-01-20 23:44:04.98	16.26	8.60	-49.8	-57.4	8.5	5.02e-02	0	44	0	14680064	71	8509
2026-01-20 23:44:08.96	16.26	8.92	-49.5	-56.2	9.7	1.05e-02	0	44	0	22020096	71	7419
2026-01-20 23:44:12.93	16.27	9.25	-50.3	-59.4	6.7	3.14e-02	0	44	0	30408704	71	10656
2026-01-20 23:44:16.91	16.28	9.59	-47.4	-51.5	14.4	1.50e-06	0	44	0	37748736	66	5787
2026-01-20 23:44:20.89	16.28	9.93	-47.0	-50.9	15.0	0.00e+00	0	44	0	45088768	66	5365
2026-01-20 23:44:24.87	16.29	10.28	-47.1	-51.1	14.9	0.00e+00	0	44	0	52428800	65	5807
2026-01-20 23:44:28.85	16.29	10.63	-46.9	-50.6	15.4	0.00e+00	0	44	0	59768832	65	5488
2026-01-20 23:44:32.83	16.30	10.98	-46.8	-50.4	15.6	0.00e+00	0	44	0	67108864	65	5394
2026-01-20 23:44:36.81	16.30	11.34	-46.8	-50.4	15.5	0.00e+00	0	44	0	74448896	65	5399
2026-01-20 23:44:40.78	16.31	11.71	-46.6	-50.1	15.8	0.00e+00	0	44	0	81788928	65	5213
2026-01-20 23:44:44.76	16.31	12.08	-46.6	-50.0	16.0	0.00e+00	0	44	0	89128960	65	5129
2026-01-20 23:44:48.74	16.32	12.46	-46.5	-50.0	16.0	0.00e+00	0	44	0	97517568	64	5429
2026-01-20 23:44:52.71	16.32	12.84	-46.4	-49.8	16.2	0.00e+00	0	44	0	104857600	64	5312
2026-01-20 23:44:56.69	16.32	13.23	-46.4	-49.6	16.4	0.00e+00	0	44	0	112197632	64	5196
2026-01-20 23:45:00.67	16.33	13.63	-46.3	-49.4	16.6	0.00e+00	0	44	0	119537664	64	5091
2026-01-20 23:45:04.65	16.33	14.03	-46.4	-49.4	16.7	0.00e+00	0	44	0	126877696	64	5075
2026-01-20 23:45:08.64	16.33	14.44	-46.2	-49.1	17.0	0.00e+00	0	44	0	134217728	64	4891
2026-01-20 23:45:12.61	16.34	14.86	-46.2	-49.0	17.0	0.00e+00	0	44	0	141557760	64	4853
2026-01-20 23:45:16.59	16.34	15.28	-46.2	-48.9	17.1	0.00e+00	0	44	0	148897792	64	4813
2026-01-20 23:45:20.57	16.34	15.71	-46.1	-48.7	17.4	0.00e+00	0	44	0	156237824	63	4955
2026-01-20 23:45:24.54	16.34	16.15	-46.1	-48.7	17.4	0.00e+00	0	44	0	164626432	63	4964
2026-01-20 23:45:28.52	16.34	16.60	-46.0	-48.6	17.6	0.00e+00	0	44	0	171966464	63	4884
2026-01-20 23:45:32.50	16.34	17.05	-45.9	-48.4	17.7	0.00e+00	0	44	0	179306496	63	4814
2026-01-20 23:45:36.49	16.34	17.52	-45.8	-48.4	17.8	0.00e+00	0	44	0	186646528	63	4773
2026-01-20 23:45:40.47	16.34	17.99	-45.8	-48.4	17.8	0.00e+00	0	44	0	193986560	63	4769
2026-01-20 23:45:44.44	16.34	18.48	-45.7	-48.2	17.9	0.00e+00	0	44	0	201326592	63	4688
2026-01-20 23:45:48.42	16.33	18.97	-45.6	-48.1	18.0	0.00e+00	0	44	0	208666624	63	4633
2026-01-20 23:45:52.40	16.33	19.47	-45.4	-47.9	18.3	0.00e+00	0	44	0	216006656	62	4774
2026-01-20 23:45:56.38	16.33	19.98	-45.3	-47.9	18.3	0.00e+00	0	44	0	224395264	62	4770
2026-01-20 23:46:00.34	16.32	20.50	-45.3	-47.8	18.3	0.00e+00	0	44	0	231735296	62	4724
2026-01-20 23:46:04.31	16.32	21.04	-45.5	-48.0	18.2	0.00e+00	0	44	0	239075328	62	4828
2026-01-20 23:46:08.29	16.31	21.58	-45.3	-47.8	18.4	0.00e+00	0	44	0	246415360	62	4732
2026-01-20 23:46:12.26	16.31	22.14	-45.3	-47.7	18.5	0.00e+00	0	44	0	253755392	62	4687
2026-01-20 23:46:16.25	16.30	22.71	-45.3	-47.8	18.4	0.00e+00	0	44	0	261095424	62	4708
2026-01-20 23:46:20.23	16.29	23.30	-45.2	-47.7	18.5	0.00e+00	0	44	0	268435456	62	4686
2026-01-20 23:46:24.21	16.28	23.90	-45.3	-47.9	18.3	0.00e+00	0	44	0	275775488	62	4761
2026-01-20 23:46:28.19	16.27	24.51	-45.4	-47.9	18.3	0.00e+00	0	44	0	283115520	62	4788
2026-01-20 23:46:32.17	16.26	25.13	-45.7	-48.2	18.0	0.00e+00	0	44	0	290455552	62	4977
2026-01-20 23:46:36.15	16.25	25.78	-45.9	-48.5	17.8	0.00e+00	0	44	0	298844160	62	5134
2026-01-20 23:46:40.13	16.24	26.43	-46.3	-49.0	17.3	0.00e+00	0	44	0	306184192	63	5109
2026-01-20 23:46:44.11	16.22	27.11	-46.6	-49.4	16.9	0.00e+00	0	44	0	313524224	63	5370
2026-01-20 23:46:48.09	16.21	27.80	-46.8	-49.8	16.5	0.00e+00	0	44	0	320864256	64	5306
2026-01-20 23:46:52.07	16.19	28.51	-47.3	-50.5	15.8	0.00e+00	0	44	0	328204288	65	5414
2026-01-20 23:46:56.05	16.17	29.24	-47.6	-51.0	15.4	0.00e+00	0	44	0	335544320	65	5740
2026-01-20 23:47:00.03	16.15	29.98	-47.9	-51.4	15.0	0.00e+00	0	44	0	342884352	66	5688
2026-01-20 23:47:04.00	16.13	30.75	-48.0	-51.6	14.8	7.00e-07	0	44	0	350224384	66	5821
2026-01-20 23:47:07.99	16.11	31.54	-47.9	-51.3	15.0	0.00e+00	0	44	0	358612992	66	5654
2026-01-20 23:47:11.96	16.08	32.35	-48.1	-51.5	14.8	0.00e+00	0	44	0	365953024	66	5786
2026-01-20 23:47:15.94	16.05	33.18	-47.5	-50.7	15.7	0.00e+00	0	44	0	373293056	66	5230
2026-01-20 23:47:19.92	16.02	34.04	-46.6	-49.4	16.9	0.00e+00	0	44	0	380633088	65	4774
2026-01-20 23:47:23.89	15.99	34.91	-45.7	-48.2	18.2	0.00e+00	0	44	0	387973120	63	4658
2026-01-20 23:47:27.87	15.96	35.82	-45.1	-47.5	18.8	0.00e+00	0	44	0	395313152	62	4562
2026-01-20 23:47:31.85	15.92	36.75	-45.2	-47.6	18.8	0.00e+00	0	44	0	402653184	62	4600
2026-01-20 23:47:35.83	15.88	37.71	-44.7	-47.0	19.3	0.00e+00	0	44	0	409993216	61	4553
2026-01-20 23:47:39.81	15.83	38.70	-44.6	-46.9	19.3	0.00e+00	0	44	0	417333248	61	4527
2026-01-20 23:47:43.79	15.79	39.72	-44.5	-46.7	19.5	0.00e+00	0	44	0	425721856	60	4692
2026-01-20 23:47:47.77	15.73	40.77	-44.5	-46.7	19.6	0.00e+00	0	44	0	433061888	60	4664
2026-01-20 23:47:51.75	15.68	41.85	-44.6	-46.9	19.4	0.00e+00	0	44	0	440401920	60	4769
2026-01-20 23:47:55.73	15.61	42.96	-44.6	-46.9	19.4	0.00e+00	0	44	0	447741952	60	4786
2026-01-20 23:47:59.71	15.55	44.11	-45.4	-47.8	18.6	0.00e+00	0	44	0	455081984	61	4987
2026-01-20 23:48:03.68	15.47	45.29	-46.9	-49.7	16.7	0.00e+00	0	44	0	462422016	64	5275
2026-01-20 23:48:07.65	15.39	46.50	-47.2	-50.1	16.3	0.00e+00	0	44	0	469762048	65	5211
2026-01-20 23:48:11.63	15.30	47.76	-47.2	-50.1	16.3	0.00e+00	0	44	0	477102080	65	5208
2026-01-20 23:48:15.60	15.21	49.04	-47.3	-50.5	16.0	0.00e+00	0	44	0	484442112	65	5404
2026-01-20 23:48:19.58	15.10	50.38	-46.9	-49.8	16.6	0.00e+00	0	44	0	492830720	65	5006
2026-01-20 23:48:23.57	14.98	51.75	-45.0	-47.3	19.0	0.00e+00	0	44	0	500170752	62	4469
2026-01-20 23:48:27.55	14.85	53.16	-44.2	-46.4	19.9	0.00e+00	0	44	0	507510784	60	4499
2026-01-20 23:48:31.52	14.70	54.61	-43.7	-45.7	20.4	0.00e+00	0	44	0	514850816	59	4427
2026-01-20 23:48:35.50	14.54	56.10	-45.3	-47.8	18.6	0.00e+00	0	44	0	522190848	61	5009
2026-01-20 23:48:39.48	14.35	57.64	-47.2	-50.3	16.1	0.00e+00	0	44	0	529530880	65	5287
2026-01-20 23:48:43.46	14.14	59.22	-46.6	-49.3	17.1	0.00e+00	0	44	0	536870912	65	4740
2026-01-20 23:48:47.44	13.90	60.84	-45.3	-47.7	18.7	0.00e+00	0	44	0	544210944	62	4668
2026-01-20 23:48:51.42	13.63	62.50	-43.8	-45.9	20.2	0.00e+00	0	44	0	552599552	59	4512
2026-01-20 23:48:55.40	13.31	64.20	-44.5	-46.7	19.5	0.00e+00	0	44	0	559939584	59	4960
2026-01-20 23:48:59.38	12.95	65.94	-46.0	-48.5	17.9	0.00e+00	0	44	0	567279616	62	5119
2026-01-20 23:49:03.36	12.51	67.71	-46.6	-49.3	17.0	0.00e+00	0	44	0	574619648	64	5041
2026-01-20 23:49:07.33	11.99	69.52	-48.0	-51.3	15.1	0.00e+00	0	44	0	581959680	66	5641
2026-01-20 23:49:11.31	11.35	71.37	-47.1	-50.0	16.5	0.00e+00	0	44	0	589299712	66	4823
2026-01-20 23:49:15.29	10.56	73.25	-47.9	-51.2	15.2	0.00e+00	0	44	0	596639744	66	5537
2026-01-20 23:49:19.27	9.55	75.15	-48.8	-52.4	14.1	3.80e-06	0	44	0	603979776	68	5718
2026-01-20 23:49:23.25	8.22	77.08	-49.0	-52.8	13.8	4.50e-06	0	44	0	611319808	69	5606
2026-01-20 23:49:27.23	6.41	79.02	-47.8	-51.1	15.3	0.00e+00	0	44	0	619708416	67	5183
2026-01-20 23:49:31.21	3.79	80.97	-46.3	-48.9	17.4	0.00e+00	0	44	0	627048448	64	4802
2026-01-20 23:49:35.19	359.69	82.91	-46.8	-49.6	16.7	0.00e+00	0	44	0	634388480	65	4900
2026-01-20 23:49:39.18	352.52	84.80	-42.8	-44.8	21.1	0.00e+00	0	44	0	641728512	57	4456
2026-01-20 23:49:43.15	337.77	86.52	-44.5	-46.8	19.2	0.00e+00	0	44	0	649068544	59	5004
2026-01-20 23:49:47.13	303.07	87.66	-45.1	-47.5	18.7	0.00e+00	0	44	0	656408576	61	4824
2026-01-20 23:49:51.11	255.49	87.31	-45.1	-47.6	18.5	0.00e+00	0	44	0	663748608	60	5170
2026-01-20 23:49:55.09	231.06	85.83	-44.7	-47.0	18.9	0.00e+00	0	44	0	671088640	61	4567
2026-01-20 23:49:59.06	220.41	84.02	-44.5	-46.8	19.2	0.00e+00	0	44	0	679477248	60	4736
2026-01-20 23:50:03.05	214.82	82.10	-46.1	-48.8	17.3	0.00e+00	0	44	0	686817280	62	5289
2026-01-20 23:50:07.03	211.46	80.15	-44.0	-46.1	19.7	0.00e+00	0	44	0	694157312	59	4644
2026-01-20 23:50:11.00	209.23	78.21	-45.7	-48.2	17.9	0.00e+00	0	44	0	701497344	61	5270
2026-01-20 23:50:14.99	207.64	76.26	-46.6	-49.4	16.5	0.00e+00	0	44	0	708837376	64	5080
2026-01-20 23:50:18.96	206.46	74.35	-47.4	-50.6	15.4	0.00e+00	0	44	0	716177408	65	5505
2026-01-20 23:50:22.94	205.55	72.45	-46.4	-49.3	16.6	0.00e+00	0	44	0	723517440	64	5008
2026-01-20 23:50:26.91	204.83	70.58	-46.4	-49.2	16.7	0.00e+00	0	44	0	730857472	64	4965
2026-01-20 23:50:30.89	204.25	68.75	-47.0	-50.0	15.9	0.00e+00	0	44	0	738197504	64	5434
2026-01-20 23:50:34.87	203.76	66.94	-47.9	-51.5	14.4	0.00e+00	0	44	0	746586112	67	5459
2026-01-20 23:50:38.85	203.35	65.18	-45.1	-47.6	18.1	0.00e+00	0	44	0	753926144	62	4605
2026-01-20 23:50:42.82	203.01	63.45	-43.2	-45.3	20.1	0.00e+00	0	44	0	761266176	58	4470
2026-01-20 23:50:46.81	202.71	61.76	-43.4	-45.5	19.9	0.00e+00	0	44	0	768606208	58	4584
2026-01-20 23:50:50.79	202.45	60.12	-45.9	-48.7	16.8	0.00e+00	0	44	0	775946240	62	5262
2026-01-20 23:50:54.77	202.22	58.51	-45.8	-48.5	17.0	0.00e+00	0	44	0	783286272	62	5122
2026-01-20 23:50:58.74	202.02	56.95	-46.6	-49.7	15.7	0.00e+00	0	44	0	790626304	65	4964
2026-01-20 23:51:02.72	201.85	55.43	-44.6	-47.0	18.2	0.00e+00	0	44	0	797966336	61	4592
2026-01-20 23:51:06.70	201.69	53.95	-43.5	-45.7	19.4	0.00e+00	0	44	0	805306368	58	4694
2026-01-20 23:51:10.68	201.55	52.51	-43.8	-46.1	19.0	0.00e+00	0	44	0	813694976	58	4881
2026-01-20 23:51:14.65	201.42	51.11	-46.0	-48.9	16.3	0.00e+00	0	44	0	821035008	62	5374
2026-01-20 23:51:18.64	201.30	49.75	-46.0	-49.0	16.1	0.00e+00	0	44	0	828375040	62	5447
2026-01-20 23:51:22.62	201.20	48.43	-47.3	-51.3	13.8	4.50e-06	0	44	0	835715072	65	5936
2026-01-20 23:51:26.59	201.11	47.15	-45.1	-47.8	17.3	0.00e+00	0	44	0	843055104	62	4715
2026-01-20 23:51:30.58	201.02	45.90	-45.9	-49.0	16.0	0.00e+00	0	44	0	850395136	62	5447
2026-01-20 23:51:34.56	200.94	44.70	-46.2	-49.4	15.5	0.00e+00	0	44	0	857735168	64	5084
2026-01-20 23:51:38.53	200.87	43.53	-44.5	-47.0	17.9	0.00e+00	0	44	0	865075200	60	4833
2026-01-20 23:51:42.51	200.80	42.39	-46.1	-49.2	15.7	0.00e+00	0	44	0	873463808	62	5581
2026-01-20 23:51:46.50	200.74	41.29	-46.9	-50.6	14.3	1.50e-06	0	44	0	880803840	64	5807
2026-01-20 23:51:50.48	200.68	40.22	-45.9	-48.9	16.1	0.00e+00	0	44	0	888143872	63	5064
2026-01-20 23:51:54.46	200.63	39.18	-46.0	-49.0	16.0	0.00e+00	0	44	0	895483904	63	5118
2026-01-20 23:51:58.44	200.58	38.17	-46.7	-50.2	14.7	0.00e+00	0	44	0	902823936	64	5568
2026-01-20 23:52:02.41	200.54	37.19	-46.6	-50.1	14.8	0.00e+00	0	44	0	910163968	64	5476
2026-01-20 23:52:06.39	200.50	36.24	-45.8	-48.7	16.2	0.00e+00	0	44	0	917504000	63	4979
2026-01-20 23:52:10.37	200.46	35.32	-45.6	-48.6	16.3	0.00e+00	0	44	0	924844032	62	5171
2026-01-20 23:52:14.35	200.42	34.42	-46.6	-50.1	14.7	0.00e+00	0	44	0	932184064	64	5498
2026-01-20 23:52:18.33	200.39	33.54	-47.3	-51.2	13.6	6.80e-06	0	44	0	940572672	65	5884
2026-01-20 23:52:22.31	200.36	32.70	-47.0	-50.7	14.1	4.50e-06	0	44	0	947912704	65	5585
2026-01-20 23:52:26.29	200.33	31.87	-46.1	-49.3	15.5	0.00e+00	0	44	0	955252736	64	5027
2026-01-20 23:52:30.27	200.30	31.07	-45.9	-49.0	15.9	0.00e+00	0	44	0	962592768	63	5130
2026-01-20 23:52:34.25	200.28	30.29	-46.1	-49.3	15.5	0.00e+00	0	44	0	969932800	63	5328
2026-01-20 23:52:38.23	200.26	29.52	-46.3	-49.6	15.2	0.00e+00	0	44	0	977272832	63	5515
2026-01-20 23:52:42.21	200.23	28.78	-46.1	-49.4	15.5	0.00e+00	0	44	0	984612864	63	5345
2026-01-20 23:52:46.19	200.21	28.06	-45.8	-48.9	15.9	0.00e+00	0	44	0	991952896	63	5097
2026-01-20 23:52:50.17	200.20	27.36	-45.4	-48.4	16.4	0.00e+00	0	44	0	999292928	62	5063
2026-01-20 23:52:54.15	200.18	26.67	-44.8	-47.5	17.2	0.00e+00	0	44	0	1007681536	61	4865
2026-01-20 23:52:58.13	200.16	26.00	-44.4	-47.0	17.7	0.00e+00	0	44	0	1015021568	60	4857
2026-01-20 23:53:02.10	200.15	25.35	-44.2	-46.7	17.9	0.00e+00	0	44	0	1022361600	60	4688
2026-01-20 23:53:06.08	200.13	24.71	-44.3	-46.8	17.8	0.00e+00	0	44	0	1029701632	60	4749
2026-01-20 23:53:10.05	200.12	24.09	-44.3	-46.9	17.7	0.00e+00	0	44	0	1037041664	60	4793
2026-01-20 23:53:14.03	200.11	23.49	-44.4	-47.0	17.7	0.00e+00	0	44	0	1044381696	60	4830
2026-01-20 23:53:18.01	200.10	22.89	-44.4	-47.0	17.6	0.00e+00	0	44	0	1051721728	60	4852
2026-01-20 23:53:21.99	200.09	22.31	-44.4	-47.1	17.6	0.00e+00	0	44	0	1059061760	60	4878
2026-01-20 23:53:25.97	200.08	21.75	-44.2	-46.7	17.9	0.00e+00	0	44	0	1066401792	60	4695
2026-01-20 23:53:29.95	200.07	21.19	-44.1	-46.7	17.9	0.00e+00	0	44	0	1074790400	60	4674
2026-01-20 23:53:33.93	200.06	20.65	-44.4	-47.0	17.6	0.00e+00	0	44	0	1082130432	60	4846
2026-01-20 23:53:37.91	200.05	20.12	-44.5	-47.3	17.3	0.00e+00	0	44	0	1089470464	60	5012
2026-01-20 23:53:41.89	200.05	19.60	-44.8	-47.7	16.9	0.00e+00	0	44	0	1096810496	60	5235
2026-01-20 23:53:45.87	200.04	19.09	-44.5	-47.3	17.3	0.00e+00	0	44	0	1104150528	60	4998
2026-01-20 23:53:49.85	200.04	18.59	-44.7	-47.5	17.1	0.00e+00	0	44	0	1111490560	60	5130
2026-01-20 23:53:53.83	200.03	18.10	-44.8	-47.7	16.9	0.00e+00	0	44	0	1118830592	60	5232
2026-01-20 23:53:57.81	200.03	17.62	-45.0	-48.0	16.6	0.00e+00	0	44	0	1126170624	60	5403
2026-01-20 23:54:01.79	200.02	17.15	-45.3	-48.4	16.1	0.00e+00	0	44	0	1134559232	61	5378
2026-01-20 23:54:05.77	200.02	16.68	-45.4	-48.4	16.1	0.00e+00	0	44	0	1141899264	61	5391
2026-01-20 23:54:09.75	200.02	16.23	-45.5	-48.6	15.9	0.00e+00	0	44	0	1149239296	61	5527
2026-01-20 23:54:13.73	200.01	15.79	-45.5	-48.7	15.8	0.00e+00	0	44	0	1156579328	61	5559
2026-01-20 23:54:17.71	200.01	15.35	-45.6	-48.9	15.7	0.00e+00	0	44	0	1163919360	62	5344
2026-01-20 23:54:21.69	200.01	14.92	-45.6	-48.9	15.6	0.00e+00	0	44	0	1171259392	62	5361
2026-01-20 23:54:25.67	200.01	14.50	-45.6	-48.7	15.8	0.00e+00	0	44	0	1178599424	62	5265
2026-01-20 23:54:29.65	200.01	14.08	-45.4	-48.6	15.9	0.00e+00	0	44	0	1185939456	62	5185
2026-01-20 23:54:33.63	200.01	13.68	-45.4	-48.6	15.8	0.00e+00	0	44	0	1193279488	62	5190
2026-01-20 23:54:37.61	200.00	13.28	-45.5	-48.7	15.8	0.00e+00	0	44	0	1201668096	62	5229
2026-01-20 23:54:41.59	200.00	12.88	-45.4	-48.6	15.8	0.00e+00	0	44	0	1209008128	62	5179
2026-01-20 23:54:45.57	200.00	12.49	-45.5	-48.7	15.7	0.00e+00	0	44	0	1216348160	62	5258
2026-01-20 23:54:49.55	200.01	12.11	-45.5	-48.7	15.7	0.00e+00	0	44	0	1223688192	62	5266
2026-01-20 23:54:53.52	200.01	11.74	-45.6	-48.9	15.5	0.00e+00	0	44	0	1231028224	62	5357
2026-01-20 23:54:57.50	200.01	11.37	-45.7	-49.1	15.3	7.00e-07	0	44	0	1238368256	62	5508
2026-01-20 23:55:01.48	200.01	11.00	-45.7	-49.1	15.2	0.00e+00	0	44	0	1245708288	62	5524
2026-01-20 23:55:05.46	200.01	10.64	-45.7	-49.2	15.1	0.00e+00	0	44	0	1253048320	62	5589
2026-01-20 23:55:09.44	200.01	10.29	-45.8	-49.4	14.9	0.00e+00	0	44	0	1260388352	62	5679
2026-01-20 23:55:13.42	200.01	9.94	-45.9	-49.6	14.7	0.00e+00	0	44	0	1268776960	62	5803
2026-01-20 23:55:17.40	200.01	9.59	-45.9	-49.6	14.7	0.00e+00	0	44	0	1276116992	62	5826
2026-01-20 23:55:21.38	200.02	9.25	-45.9	-49.7	14.5	0.00e+00	0	44	0	1283457024	62	5903
2026-01-20 23:55:25.36	200.02	8.92	-50.2	-64.7	3.8	9.08e-01	0	44	104	1289748480	71	19646
2026-01-20 23:55:29.33	200.02	8.59	-50.7	-66.0	3.8	1.49e+00	0	44	104	1289748480	72	21693
2026-01-20 23:55:33.30	200.02	8.26	-50.8	-66.1	3.8	1.49e+00	0	44	104	1289748480	72	21918
2026-01-20 23:55:37.27	200.03	7.94	-51.0	-66.2	3.8	1.49e+00	0	44	104	1289748480	72	22105
2026-01-20 23:55:41.25	200.03	7.62	-51.0	-66.2	3.8	1.49e+00	0	44	104	1289748480	72	22023
2026-01-20 23:55:45.22	200.03	7.31	-50.7	-66.1	3.8	1.49e+00	0	44	104	1289748480	72	21976
2026-01-20 23:55:49.19	200.04	7.00	-50.7	-66.1	3.8	1.49e+00	0	44	104	1289748480	72	21756
2026-01-20 23:55:53.17	200.04	6.69	-50.6	-66.1	3.8	1.49e+00	0	44	104	1289748480	72	21834
2026-01-20 23:55:57.14	200.04	6.39	-50.6	-66.1	3.8	1.49e+00	0	44	104	1289748480	72	21855
2026-01-20 23:56:01.11	200.05	6.09	-50.6	-66.1	3.8	1.49e+00	0	44	104	1289748480	72	21790
2026-01-20 23:56:05.08	200.05	5.80	-50.6	-66.1	3.8	1.49e+00	0	44	104	1289748480	72	21877
2026-01-20 23:56:09.05	200.06	5.50	-50.6	-66.1	3.8	1.49e+00	0	44	104	1289748480	72	21829
2026-01-20 23:56:13.03	200.06	5.21	-50.6	-66.1	3.8	1.49e+00	0	44	104	1289748480	72	21827

#Closed at: 2026-01-20 23:56:17
#Recorded file [1289 MB]: D:/Data/31040_260121_024317.dat