passes_logs/2026/01/29/XPeterburg/XPeterburg__20260129_043720_FENGYUN_3E_rec.log

#Pass ID: 20260129_043720_FENGYUN 3E
#Satellite: FENGYUN 3E
#Configuration: FENGYUN 3E
#Start time: 2026-01-29 04:37:14

#Version: 1.5.20200625
#Station: XPeterburg
#Location: 30.318091 lon 59.932769 lat
#TLE: 1 49008U 21062A   26027.83084825  .00000170  00000+0  10081-3 0  9997
#TLE: 2 49008  98.7501  32.8098 0002509 114.2687 245.8752 14.19888158236667

#Time	Az	El	Level	Level2	SNR	BER	Gain	Gain2
2026-01-29 04:37:14.18	30.95	67.66	-37.3	-39.0	3.3	8384170	93	5969
2026-01-29 04:37:14.58	31.07	67.84	-37.4	-40.7	3.5	8454391	92	7227
2026-01-29 04:37:14.98	31.18	68.02	-37.4	-39.8	3.3	8397319	92	6440
2026-01-29 04:37:15.38	31.30	68.19	-37.4	-41.0	3.6	8447948	92	7477
2026-01-29 04:37:15.79	31.42	68.38	-37.2	-39.1	3.3	8413867	92	6130
2026-01-29 04:37:16.19	31.54	68.56	-36.9	-39.6	3.6	8413627	92	6672
2026-01-29 04:37:16.59	31.67	68.73	-36.5	-37.4	3.4	8413570	91	5432
2026-01-29 04:37:16.99	31.79	68.91	-35.5	-36.9	3.8	8395408	89	5785
2026-01-29 04:37:17.40	31.93	69.10	-34.4	-34.0	5.0	8196235	87	4678
2026-01-29 04:37:17.80	32.06	69.28	-33.5	-33.0	5.8	6875656	85	4624
2026-01-29 04:37:18.20	32.19	69.46	-32.3	-31.8	7.5	1943664	82	4671
2026-01-29 04:37:18.60	32.33	69.64	-31.2	-30.6	9.0	464939	80	4614
2026-01-29 04:37:19.00	32.46	69.82	-30.0	-29.2	10.3	205455	78	4485
2026-01-29 04:37:19.40	32.61	70.00	-29.0	-28.2	11.6	29731	76	4486
2026-01-29 04:37:19.81	32.75	70.18	-27.9	-27.1	12.7	3490	74	4449
2026-01-29 04:37:20.21	32.90	70.36	-27.1	-26.4	13.5	228	72	4520
2026-01-29 04:37:20.61	33.05	70.54	-26.4	-25.4	14.2	57	71	4374
2026-01-29 04:37:21.01	33.20	70.73	-26.0	-25.2	14.6	0	70	4451
2026-01-29 04:37:21.42	33.36	70.91	-26.0	-25.0	14.7	0	70	4419
2026-01-29 04:37:21.82	33.52	71.09	-26.1	-25.3	14.6	11	70	4494
2026-01-29 04:37:22.22	33.68	71.28	-26.0	-25.1	14.6	11	70	4427
2026-01-29 04:37:22.62	33.85	71.46	-26.3	-25.2	14.0	11	71	4336
2026-01-29 04:37:23.03	34.02	71.64	-26.7	-26.5	14.0	34	70	4818
2026-01-29 04:37:23.43	34.20	71.83	-26.7	-26.6	14.1	0	70	4834
2026-01-29 04:37:23.83	34.37	72.01	-26.9	-27.0	13.9	34	70	4981
2026-01-29 04:37:24.23	34.55	72.19	-26.8	-26.9	14.0	22	70	4947
2026-01-29 04:37:24.64	34.74	72.38	-26.8	-26.7	13.9	80	70	4882
2026-01-29 04:37:25.04	34.93	72.56	-26.9	-27.0	13.8	57	70	4971
2026-01-29 04:37:25.44	35.12	72.75	-26.9	-26.4	13.7	45	71	4665
2026-01-29 04:37:25.84	35.32	72.93	-26.8	-26.3	13.7	57	71	4633
2026-01-29 04:37:26.24	35.52	73.11	-26.9	-26.5	13.6	22	71	4699
2026-01-29 04:37:26.65	35.73	73.30	-26.8	-26.2	13.6	80	71	4589
2026-01-29 04:37:27.05	35.94	73.48	-26.6	-25.9	13.8	114	71	4521
2026-01-29 04:37:27.45	36.16	73.67	-26.4	-25.6	13.9	57	71	4452
2026-01-29 04:37:27.85	36.38	73.85	-26.6	-25.9	13.7	102	71	4537
2026-01-29 04:37:28.26	36.61	74.04	-26.5	-26.1	14.1	34	70	4686
2026-01-29 04:37:28.66	36.84	74.22	-26.3	-25.7	14.2	34	70	4581
2026-01-29 04:37:29.06	37.08	74.41	-26.4	-25.8	14.2	22	70	4607
2026-01-29 04:37:29.46	37.32	74.59	-26.3	-25.7	14.2	0	70	4570
2026-01-29 04:37:29.86	37.57	74.77	-26.3	-25.7	14.2	22	70	4578
2026-01-29 04:37:30.27	37.83	74.96	-26.5	-26.0	14.0	34	70	4651
2026-01-29 04:37:30.67	38.10	75.15	-26.7	-26.5	13.8	68	70	4798
2026-01-29 04:37:31.07	38.36	75.33	-26.7	-26.4	13.9	102	70	4778
2026-01-29 04:37:31.47	38.64	75.51	-26.7	-26.6	13.9	34	70	4860
2026-01-29 04:37:31.88	38.93	75.70	-26.6	-26.4	14.1	22	70	4810
2026-01-29 04:37:32.28	39.22	75.89	-26.4	-26.1	14.4	0	70	4718
2026-01-29 04:37:32.68	39.52	76.07	-26.5	-26.1	14.4	0	70	4702
2026-01-29 04:37:33.08	39.83	76.25	-26.7	-26.6	14.2	11	70	4865
2026-01-29 04:37:33.49	40.15	76.44	-26.5	-26.2	14.5	0	70	4757
2026-01-29 04:37:33.89	40.48	76.62	-26.4	-25.9	14.7	0	70	4670
2026-01-29 04:37:34.29	40.81	76.81	-26.4	-25.9	14.7	11	70	4638
2026-01-29 04:37:34.69	41.16	76.99	-26.3	-25.7	14.9	0	70	4588
2026-01-29 04:37:35.10	41.52	77.17	-26.3	-25.6	14.9	0	70	4571
2026-01-29 04:37:35.50	41.88	77.36	-26.3	-25.7	14.9	0	70	4595
2026-01-29 04:37:35.90	42.26	77.54	-26.2	-25.5	15.0	0	70	4548
2026-01-29 04:37:36.30	42.64	77.72	-26.3	-25.6	15.0	0	70	4588
2026-01-29 04:37:36.70	43.04	77.90	-26.1	-25.4	15.0	0	70	4528
2026-01-29 04:37:37.11	43.46	78.09	-26.1	-25.3	15.1	0	70	4503
2026-01-29 04:37:37.51	43.89	78.27	-26.0	-25.2	15.1	0	70	4489
2026-01-29 04:37:37.91	44.33	78.45	-26.0	-25.3	15.0	0	70	4534
2026-01-29 04:37:38.31	44.78	78.62	-25.8	-25.3	15.1	0	69	4657
2026-01-29 04:37:38.72	45.26	78.81	-25.5	-24.7	15.5	0	69	4480
2026-01-29 04:37:39.12	45.74	78.99	-25.4	-24.9	15.5	0	68	4642
2026-01-29 04:37:39.52	46.24	79.16	-25.5	-25.0	15.4	0	68	4673
2026-01-29 04:37:39.92	46.75	79.34	-25.4	-24.8	15.6	0	68	4594
2026-01-29 04:37:40.32	47.29	79.52	-25.5	-25.0	15.4	11	68	4649
2026-01-29 04:37:40.73	47.85	79.70	-25.5	-25.0	15.4	0	68	4662
2026-01-29 04:37:41.13	48.42	79.87	-25.6	-25.3	15.3	11	68	4735
2026-01-29 04:37:41.53	49.01	80.05	-25.4	-24.9	15.5	0	68	4634
2026-01-29 04:37:41.93	49.63	80.22	-25.5	-25.0	15.5	0	68	4667
2026-01-29 04:37:42.33	50.26	80.39	-25.4	-24.9	15.6	0	68	4640
2026-01-29 04:37:42.74	50.94	80.57	-25.3	-24.6	15.8	0	68	4551
2026-01-29 04:37:43.14	51.62	80.74	-25.0	-24.1	16.1	0	68	4423
2026-01-29 04:37:43.54	52.33	80.90	-25.1	-24.1	16.0	0	68	4423
2026-01-29 04:37:43.94	53.07	81.07	-25.0	-24.0	16.1	0	68	4403
2026-01-29 04:37:44.35	53.85	81.24	-25.2	-24.4	15.9	0	68	4509
2026-01-29 04:37:44.75	54.65	81.40	-25.1	-24.3	15.9	0	68	4472
2026-01-29 04:37:45.15	55.47	81.57	-25.0	-24.0	16.1	0	68	4400
2026-01-29 04:37:45.55	56.33	81.73	-24.9	-23.8	16.1	0	68	4342
2026-01-29 04:37:45.95	57.23	81.89	-24.9	-23.9	16.1	0	68	4368
2026-01-29 04:37:46.36	58.18	82.05	-24.9	-23.8	16.2	0	68	4353
2026-01-29 04:37:46.76	59.15	82.20	-24.6	-23.7	16.3	0	67	4437
2026-01-29 04:37:47.16	60.15	82.36	-24.4	-23.3	16.5	0	67	4347
2026-01-29 04:37:47.56	61.20	82.51	-24.5	-24.0	16.4	0	66	4656
2026-01-29 04:37:47.97	62.32	82.66	-24.4	-23.8	16.5	0	66	4611
2026-01-29 04:37:48.37	63.46	82.81	-24.4	-23.8	16.5	0	66	4595
2026-01-29 04:37:48.77	64.64	82.95	-24.3	-23.7	16.6	0	66	4564
2026-01-29 04:37:49.17	65.88	83.09	-24.2	-23.3	16.8	0	66	4480
2026-01-29 04:37:49.57	67.16	83.22	-24.2	-23.4	16.7	0	66	4483
2026-01-29 04:37:49.98	68.53	83.36	-24.1	-23.1	16.9	0	66	4414
2026-01-29 04:37:50.38	69.92	83.49	-24.1	-23.1	16.8	0	66	4425
2026-01-29 04:37:50.78	71.37	83.61	-24.0	-23.0	17.0	0	66	4393
2026-01-29 04:37:51.18	72.88	83.74	-24.0	-22.9	17.0	0	66	4373
2026-01-29 04:37:51.58	74.44	83.85	-24.0	-23.1	16.9	0	66	4403
2026-01-29 04:37:51.99	76.11	83.97	-24.1	-23.2	16.9	0	66	4445
2026-01-29 04:37:52.39	77.79	84.07	-24.2	-23.5	16.8	0	66	4527
2026-01-29 04:37:52.79	79.54	84.18	-24.3	-23.5	16.7	0	66	4528
2026-01-29 04:37:53.20	81.39	84.27	-24.4	-23.8	16.6	0	66	4619
2026-01-29 04:37:53.60	83.26	84.37	-24.5	-24.0	16.6	0	66	4665
2026-01-29 04:37:54.00	85.18	84.45	-24.4	-23.9	16.6	0	66	4617
2026-01-29 04:37:54.40	87.17	84.53	-24.4	-23.9	16.6	0	66	4622
2026-01-29 04:37:54.80	89.21	84.60	-24.4	-23.8	16.7	0	66	4603
2026-01-29 04:37:55.21	91.35	84.66	-24.4	-23.8	16.7	0	66	4610
2026-01-29 04:37:55.61	93.49	84.72	-24.2	-23.5	16.8	0	66	4529
2026-01-29 04:37:56.01	95.68	84.77	-24.3	-23.6	16.8	0	66	4547
2026-01-29 04:37:56.41	97.90	84.81	-24.3	-23.7	16.8	0	66	4589
2026-01-29 04:37:56.82	100.21	84.85	-24.4	-23.7	16.8	0	66	4584
2026-01-29 04:37:57.22	102.49	84.87	-24.4	-23.8	16.8	0	66	4595
2026-01-29 04:37:57.62	104.79	84.89	-24.5	-24.0	16.7	0	66	4659
2026-01-29 04:37:58.02	107.11	84.90	-24.2	-23.5	16.9	0	66	4523
2026-01-29 04:37:58.43	109.48	84.90	-24.4	-23.9	16.7	0	66	4640
2026-01-29 04:37:58.83	111.80	84.89	-24.3	-23.7	16.8	0	66	4578
2026-01-29 04:37:59.23	114.10	84.87	-24.3	-23.7	16.8	0	66	4581
2026-01-29 04:37:59.63	116.38	84.85	-24.2	-23.4	17.0	0	66	4496
2026-01-29 04:38:00.03	118.64	84.82	-24.3	-23.6	17.0	0	66	4541
2026-01-29 04:38:00.44	120.93	84.78	-23.9	-22.9	17.2	0	66	4377
2026-01-29 04:38:00.84	123.12	84.73	-24.0	-23.1	17.2	0	66	4417
2026-01-29 04:38:01.24	125.27	84.67	-23.9	-22.9	17.3	0	66	4371
2026-01-29 04:38:01.64	127.37	84.61	-24.0	-23.1	17.2	0	66	4422
2026-01-29 04:38:02.05	129.46	84.54	-24.2	-23.5	17.0	0	66	4533
2026-01-29 04:38:02.45	131.46	84.46	-24.3	-23.7	16.9	0	66	4574
2026-01-29 04:38:02.85	133.39	84.38	-24.6	-24.3	16.6	0	66	4729
2026-01-29 04:38:03.25	135.27	84.29	-24.8	-24.6	16.4	0	66	4833
2026-01-29 04:38:03.66	137.13	84.19	-24.8	-24.7	16.4	0	66	4858
2026-01-29 04:38:04.06	138.89	84.09	-24.9	-24.9	16.3	0	66	4918
2026-01-29 04:38:04.46	140.58	83.98	-25.1	-24.9	15.9	0	67	4768
2026-01-29 04:38:04.86	142.21	83.87	-25.2	-24.9	16.0	0	67	4779
2026-01-29 04:38:05.26	143.79	83.76	-25.2	-25.1	15.9	0	67	4834
2026-01-29 04:38:05.67	145.34	83.63	-25.3	-25.2	15.8	0	67	4870
2026-01-29 04:38:06.07	146.80	83.51	-25.2	-25.1	15.9	0	67	4833
2026-01-29 04:38:06.47	148.20	83.38	-25.1	-24.8	16.1	0	67	4736
2026-01-29 04:38:06.87	149.54	83.25	-25.0	-24.5	16.2	0	67	4654
2026-01-29 04:38:07.28	150.87	83.11	-24.8	-24.3	16.3	0	67	4604
2026-01-29 04:38:07.68	152.11	82.97	-24.7	-24.0	16.4	0	67	4528
2026-01-29 04:38:08.08	153.30	82.82	-24.8	-24.1	16.4	0	67	4561
2026-01-29 04:38:08.48	154.44	82.68	-24.8	-24.2	16.3	0	67	4576
2026-01-29 04:38:08.88	155.54	82.53	-24.9	-24.2	16.3	0	67	4587
2026-01-29 04:38:09.28	156.60	82.38	-25.0	-24.6	16.1	0	67	4689
2026-01-29 04:38:09.69	157.64	82.22	-25.2	-24.9	16.0	0	67	4759
2026-01-29 04:38:10.09	158.61	82.07	-25.3	-25.1	15.8	0	67	4838
2026-01-29 04:38:10.49	159.55	81.91	-25.2	-25.0	15.8	0	67	4789
2026-01-29 04:38:10.89	160.45	81.75	-25.2	-25.0	15.8	0	67	4796
2026-01-29 04:38:11.30	161.33	81.59	-25.1	-24.8	15.9	0	67	4725
2026-01-29 04:38:11.70	162.17	81.43	-25.1	-24.7	15.8	0	67	4705
2026-01-29 04:38:12.10	162.97	81.26	-25.2	-25.0	15.7	0	67	4780
2026-01-29 04:38:12.50	163.73	81.10	-25.1	-24.8	15.8	0	67	4731
2026-01-29 04:38:12.90	164.48	80.93	-25.1	-24.7	15.8	0	67	4708
2026-01-29 04:38:13.31	165.21	80.76	-25.0	-24.5	15.8	0	67	4668
2026-01-29 04:38:13.71	165.90	80.59	-25.0	-24.6	15.8	0	67	4690
2026-01-29 04:38:14.11	166.56	80.42	-25.0	-24.5	15.8	0	67	4677
2026-01-29 04:38:14.52	167.21	80.24	-24.9	-24.4	15.9	0	67	4625
2026-01-29 04:38:14.92	167.83	80.07	-25.0	-24.6	15.8	0	67	4689
2026-01-29 04:38:15.32	168.42	79.89	-25.0	-24.5	15.7	0	67	4662
2026-01-29 04:38:15.72	169.00	79.72	-25.0	-24.6	15.7	0	67	4698
2026-01-29 04:38:16.12	169.55	79.54	-25.3	-25.2	15.5	0	67	4855
2026-01-29 04:38:16.53	170.10	79.36	-25.4	-25.3	15.4	0	67	4889
2026-01-29 04:38:16.93	170.62	79.18	-25.3	-25.2	15.4	0	67	4846
2026-01-29 04:38:17.33	171.12	79.01	-25.6	-25.4	15.3	0	68	4768
2026-01-29 04:38:17.73	171.61	78.83	-25.7	-25.5	15.2	0	68	4815
2026-01-29 04:38:18.14	172.09	78.65	-25.5	-25.1	15.4	11	68	4691
2026-01-29 04:38:18.54	172.54	78.47	-25.5	-25.2	15.3	11	68	4726
2026-01-29 04:38:18.94	172.98	78.29	-25.6	-25.3	15.3	0	68	4742
2026-01-29 04:38:19.34	173.41	78.11	-25.6	-25.4	15.3	0	68	4766
2026-01-29 04:38:19.74	173.82	77.92	-25.9	-25.9	15.0	0	68	4923
2026-01-29 04:38:20.15	174.23	77.74	-26.1	-25.9	14.8	0	69	4788
2026-01-29 04:38:20.55	174.62	77.56	-26.3	-26.2	14.6	0	69	4883
2026-01-29 04:38:20.95	174.99	77.38	-26.4	-26.4	14.5	0	69	4917
2026-01-29 04:38:21.35	175.36	77.19	-26.6	-26.4	14.3	11	70	4796
2026-01-29 04:38:21.75	175.72	77.01	-26.7	-26.6	14.3	22	70	4849
2026-01-29 04:38:22.16	176.07	76.82	-26.8	-26.8	14.2	11	70	4900
2026-01-29 04:38:22.56	176.41	76.64	-26.8	-26.7	14.2	0	70	4895
2026-01-29 04:38:22.96	176.73	76.46	-26.9	-26.9	14.1	11	70	4934
2026-01-29 04:38:23.36	177.05	76.27	-27.0	-26.6	14.0	57	71	4713
2026-01-29 04:38:23.76	177.36	76.09	-27.1	-27.0	13.8	22	71	4819
2026-01-29 04:38:24.17	177.67	75.90	-27.1	-26.8	13.8	45	71	4773
2026-01-29 04:38:24.57	177.96	75.72	-27.4	-27.4	13.5	114	71	4950
2026-01-29 04:38:24.97	178.24	75.53	-27.6	-27.4	13.4	160	72	4792
2026-01-29 04:38:25.37	178.52	75.35	-27.6	-27.3	13.3	263	72	4760
2026-01-29 04:38:25.77	178.79	75.17	-27.8	-27.3	12.9	480	73	4627
2026-01-29 04:38:26.18	179.06	74.98	-27.8	-27.1	13.0	411	73	4569
2026-01-29 04:38:26.58	179.32	74.79	-28.0	-27.6	12.7	606	73	4695
2026-01-29 04:38:26.98	179.57	74.61	-28.0	-27.7	12.6	629	73	4730
2026-01-29 04:38:27.38	179.81	74.43	-28.0	-27.5	12.6	1018	73	4679
2026-01-29 04:38:27.79	180.06	74.24	-27.9	-27.3	12.7	984	73	4613
2026-01-29 04:38:28.19	180.29	74.05	-27.8	-27.2	12.7	720	73	4590
2026-01-29 04:38:28.59	180.51	73.87	-27.6	-26.8	12.9	469	73	4475
2026-01-29 04:38:28.99	180.74	73.69	-27.6	-26.8	12.9	503	73	4482
2026-01-29 04:38:29.39	180.95	73.50	-27.5	-27.2	13.0	434	72	4717
2026-01-29 04:38:29.80	181.17	73.31	-27.5	-27.1	13.0	205	72	4687
2026-01-29 04:38:30.20	181.38	73.13	-27.5	-27.0	13.1	366	72	4680
2026-01-29 04:38:30.60	181.58	72.95	-27.6	-27.2	13.0	434	72	4739
2026-01-29 04:38:31.00	181.78	72.76	-27.7	-27.5	12.9	446	72	4809
2026-01-29 04:38:31.41	181.97	72.57	-27.7	-27.5	12.9	606	72	4825
2026-01-29 04:38:31.81	182.16	72.39	-27.8	-27.7	12.8	537	72	4866
2026-01-29 04:38:32.21	182.35	72.21	-27.8	-27.7	12.7	823	72	4864
2026-01-29 04:38:32.61	182.53	72.02	-27.9	-28.1	12.6	1087	72	5001
2026-01-29 04:38:33.02	182.71	71.84	-27.9	-28.0	12.7	1075	72	4983
2026-01-29 04:38:33.42	182.88	71.65	-28.0	-27.8	12.5	1155	73	4793
2026-01-29 04:38:33.82	183.05	71.47	-28.1	-28.0	12.4	1338	73	4833
2026-01-29 04:38:34.22	183.22	71.29	-28.2	-28.1	12.3	1407	73	4891
2026-01-29 04:38:34.63	183.39	71.10	-28.2	-28.1	12.3	2128	73	4872
2026-01-29 04:38:35.03	183.55	70.92	-28.2	-28.1	12.3	1991	73	4874
2026-01-29 04:38:35.43	183.70	70.74	-28.1	-28.0	12.3	2094	73	4850
2026-01-29 04:38:35.83	183.85	70.56	-28.0	-27.8	12.5	1579	73	4803
2026-01-29 04:38:36.23	184.00	70.37	-28.1	-27.9	12.4	1327	73	4827

#Closed at: 2026-01-29 04:38:36