passes_logs/2026/01/29/XPeterburg/XPeterburg__20260129_092215_FENGYUN_3F_rec.log

#Pass ID: 20260129_092215_FENGYUN 3F
#Satellite: FENGYUN 3F
#Configuration: FENGYUN 3F
#Start time: 2026-01-29 09:22:10

#Version: 1.5.20200625
#Station: XPeterburg
#Location: 30.318091 lon 59.932769 lat
#TLE: 1 57490U 23111A   26027.81741314  .00000131  00000+0  82004-4 0  9991
#TLE: 2 57490  98.7009 100.3525 0001419 107.0148 253.1184 14.19908798128946

#Time	Az	El	Level	Level2	SNR	BER	Gain	Gain2
2026-01-29 09:22:10.01	354.94	67.71	-38.2	-40.5	3.3	8387798	94	6440
2026-01-29 09:22:10.42	354.70	67.87	-38.2	-42.0	3.5	8439399	93	7571
2026-01-29 09:22:10.82	354.47	68.04	-38.2	-41.1	3.3	8392055	93	6855
2026-01-29 09:22:11.22	354.24	68.20	-38.2	-42.3	3.6	8446197	93	7867
2026-01-29 09:22:11.62	354.00	68.36	-38.2	-41.0	3.3	8414691	93	6760
2026-01-29 09:22:12.02	353.75	68.52	-38.1	-42.3	3.6	8395317	93	7981
2026-01-29 09:22:12.43	353.50	68.69	-38.1	-40.8	3.3	8403980	93	6729
2026-01-29 09:22:12.83	353.25	68.85	-38.1	-42.1	3.6	8420848	93	7799
2026-01-29 09:22:13.23	352.99	69.01	-38.0	-40.3	3.3	8439216	93	6400
2026-01-29 09:22:13.63	352.73	69.18	-37.8	-41.3	3.6	8398475	93	7309
2026-01-29 09:22:14.04	352.46	69.34	-37.6	-39.2	3.3	8425426	93	5919
2026-01-29 09:22:14.44	352.19	69.50	-37.4	-39.9	3.6	8402893	93	6562
2026-01-29 09:22:14.84	351.92	69.67	-37.3	-38.4	3.5	8416477	93	5569
2026-01-29 09:22:15.24	351.64	69.83	-37.1	-39.5	3.6	8389011	92	6487
2026-01-29 09:22:15.64	351.36	69.99	-37.0	-38.1	3.7	8432716	92	5579
2026-01-29 09:22:16.05	351.06	70.15	-37.0	-37.6	3.6	8373836	92	5284
2026-01-29 09:22:16.45	350.77	70.32	-36.9	-38.0	3.7	8394287	92	5598
2026-01-29 09:22:16.85	350.47	70.48	-37.2	-38.3	3.5	8366317	92	5611
2026-01-29 09:22:17.25	350.17	70.64	-37.5	-40.2	3.6	8430404	92	6717
2026-01-29 09:22:17.65	349.86	70.80	-37.5	-39.5	3.4	8398395	92	6135
2026-01-29 09:22:18.05	349.54	70.96	-37.4	-40.1	3.7	8437019	92	6711
2026-01-29 09:22:18.46	349.22	71.12	-37.3	-38.4	3.5	8374866	92	5633
2026-01-29 09:22:18.86	348.89	71.28	-37.4	-40.0	3.7	8395225	92	6623
2026-01-29 09:22:19.26	348.56	71.44	-37.5	-39.3	3.4	8398017	92	6021
2026-01-29 09:22:19.66	348.22	71.60	-37.3	-40.0	3.6	8425563	92	6674
2026-01-29 09:22:20.07	347.87	71.76	-37.0	-37.5	3.6	8371627	92	5232
2026-01-29 09:22:20.47	347.51	71.92	-36.8	-37.0	3.8	8332180	92	5005
2026-01-29 09:22:20.87	347.16	72.07	-36.8	-38.3	3.9	8380462	91	5841
2026-01-29 09:22:21.27	346.79	72.23	-37.0	-37.8	3.7	8343532	91	5415
2026-01-29 09:22:21.67	346.42	72.39	-37.1	-39.6	3.7	8415229	91	6534
2026-01-29 09:22:22.07	346.04	72.54	-37.3	-38.7	3.5	8412059	91	5790
2026-01-29 09:22:22.48	345.65	72.70	-37.2	-40.0	3.6	8374889	91	6758
2026-01-29 09:22:22.88	345.25	72.86	-37.4	-39.1	3.5	8407127	91	5943
2026-01-29 09:22:23.28	344.85	73.01	-37.5	-40.3	3.6	8403442	92	6799
2026-01-29 09:22:23.68	344.44	73.17	-37.6	-39.1	3.4	8431102	92	5879
2026-01-29 09:22:24.09	344.02	73.32	-37.4	-39.7	3.6	8373985	92	6460
2026-01-29 09:22:24.49	343.59	73.48	-37.2	-38.0	3.6	8415035	92	5420
2026-01-29 09:22:24.89	343.16	73.63	-37.4	-39.8	3.6	8371444	92	6519
2026-01-29 09:22:25.29	342.72	73.78	-37.7	-39.7	3.5	8416110	92	6204
2026-01-29 09:22:25.69	342.27	73.93	-37.8	-39.6	3.3	8391071	92	6065
2026-01-29 09:22:26.09	341.81	74.08	-37.8	-40.1	3.5	8432098	92	6468
2026-01-29 09:22:26.50	341.33	74.23	-37.6	-39.2	3.4	8392295	92	5888
2026-01-29 09:22:26.90	340.85	74.38	-37.7	-40.3	3.6	8442214	92	6613
2026-01-29 09:22:27.30	340.36	74.52	-37.8	-39.8	3.4	8402755	92	6148
2026-01-29 09:22:27.70	339.87	74.67	-37.8	-41.1	3.6	8414199	92	7148
2026-01-29 09:22:28.10	339.36	74.81	-37.9	-40.2	3.3	8394035	92	6407
2026-01-29 09:22:28.51	338.83	74.96	-38.2	-41.6	3.6	8438575	94	7286
2026-01-29 09:22:28.91	338.30	75.11	-38.4	-40.9	3.3	8401496	94	6524
2026-01-29 09:22:29.31	337.76	75.25	-38.4	-42.4	3.6	8385669	94	7753
2026-01-29 09:22:29.71	337.21	75.39	-38.5	-41.1	3.3	8428104	94	6653
2026-01-29 09:22:30.12	336.64	75.53	-38.5	-42.6	3.6	8405227	94	7852
2026-01-29 09:22:30.52	336.07	75.67	-38.8	-41.4	3.4	8370700	95	6676
2026-01-29 09:22:30.92	335.48	75.81	-38.7	-42.3	3.6	8403030	95	7440
2026-01-29 09:22:31.32	334.89	75.94	-38.7	-41.1	3.4	8447753	95	6545
2026-01-29 09:22:31.72	334.28	76.08	-38.6	-40.5	3.3	8392559	95	6135
2026-01-29 09:22:32.13	333.65	76.21	-38.4	-40.8	3.5	8442146	95	6441
2026-01-29 09:22:32.53	333.02	76.34	-37.9	-38.9	3.3	8424076	94	5531
2026-01-29 09:22:32.93	332.37	76.47	-37.8	-39.9	3.6	8421123	94	6217
2026-01-29 09:22:33.33	331.71	76.60	-38.0	-39.2	3.3	8405239	94	5631
2026-01-29 09:22:33.73	331.04	76.73	-38.1	-40.9	3.6	8425987	94	6826
2026-01-29 09:22:34.14	330.34	76.86	-38.1	-39.6	3.3	8412746	94	5805
2026-01-29 09:22:34.54	329.64	76.98	-38.0	-40.4	3.6	8361934	94	6475
2026-01-29 09:22:34.94	328.93	77.10	-37.9	-38.7	3.3	8431377	94	5419
2026-01-29 09:22:35.34	328.21	77.22	-37.9	-40.1	3.6	8393920	94	6378
2026-01-29 09:22:35.74	327.47	77.34	-37.9	-38.8	3.4	8409301	94	5501
2026-01-29 09:22:36.15	326.70	77.45	-37.6	-39.7	3.6	8388484	93	6260
2026-01-29 09:22:36.55	325.93	77.57	-37.5	-38.3	3.7	8428802	93	5434
2026-01-29 09:22:36.95	325.15	77.68	-37.6	-38.2	3.5	8368972	93	5285
2026-01-29 09:22:37.35	324.35	77.79	-37.7	-39.1	3.6	8421215	93	5812
2026-01-29 09:22:37.75	323.54	77.89	-37.8	-38.9	3.4	8387248	93	5587
2026-01-29 09:22:38.16	322.69	78.00	-37.6	-38.9	3.6	8439262	93	5738
2026-01-29 09:22:38.56	321.85	78.10	-37.4	-37.9	3.6	8386287	93	5189
2026-01-29 09:22:38.96	321.00	78.20	-37.1	-38.4	3.9	8423320	92	5699
2026-01-29 09:22:39.36	320.13	78.30	-36.8	-36.8	4.0	8295112	92	4883
2026-01-29 09:22:39.76	319.24	78.39	-36.7	-37.0	4.1	8269363	91	5055
2026-01-29 09:22:40.17	318.32	78.49	-36.7	-37.0	4.1	8227844	91	5076
2026-01-29 09:22:40.57	317.41	78.58	-36.8	-37.1	4.0	8237560	91	5104
2026-01-29 09:22:40.97	316.48	78.66	-36.8	-37.1	4.0	8240638	91	5109
2026-01-29 09:22:41.37	315.53	78.74	-37.0	-37.7	3.9	8259155	91	5353
2026-01-29 09:22:41.77	314.58	78.82	-36.8	-37.1	4.0	8302871	91	5114
2026-01-29 09:22:42.18	313.58	78.90	-36.6	-36.7	4.2	8173255	91	4943
2026-01-29 09:22:42.58	312.60	78.98	-36.5	-36.3	4.4	8062625	91	4813
2026-01-29 09:22:42.98	311.60	79.05	-36.6	-36.5	4.2	8074687	91	4889
2026-01-29 09:22:43.38	310.59	79.11	-36.8	-37.3	4.0	8137458	91	5188
2026-01-29 09:22:43.78	309.56	79.18	-36.6	-36.6	4.2	8189414	91	4928
2026-01-29 09:22:44.18	308.53	79.24	-36.0	-35.7	4.5	7973648	90	4756
2026-01-29 09:22:44.59	307.45	79.30	-35.7	-35.5	4.9	7624053	89	4800
2026-01-29 09:22:44.99	306.40	79.35	-35.6	-35.2	5.0	7499553	89	4701
2026-01-29 09:22:45.39	305.33	79.40	-35.2	-34.8	5.5	7167652	88	4716
2026-01-29 09:22:45.79	304.25	79.44	-34.9	-34.3	5.7	3753501	88	4577
2026-01-29 09:22:46.19	303.16	79.49	-35.2	-34.9	5.4	5315334	88	4772
2026-01-29 09:22:46.60	302.04	79.53	-35.6	-36.0	4.9	7023754	88	5103
2026-01-29 09:22:47.00	300.93	79.56	-36.0	-36.7	4.6	7722141	88	5337
2026-01-29 09:22:47.40	299.82	79.59	-35.9	-35.9	4.7	7816967	89	4963
2026-01-29 09:22:47.80	298.70	79.62	-35.7	-35.6	4.9	7664646	89	4835
2026-01-29 09:22:48.20	297.58	79.64	-35.9	-36.0	4.7	7601989	89	4989
2026-01-29 09:22:48.60	296.45	79.66	-36.2	-36.9	4.4	7835334	89	5322
2026-01-29 09:22:49.01	295.29	79.68	-36.3	-37.1	4.3	8033512	89	5387
2026-01-29 09:22:49.41	294.16	79.69	-36.5	-37.1	4.1	8159626	90	5296
2026-01-29 09:22:49.81	293.02	79.69	-36.6	-37.4	4.0	8234035	90	5388
2026-01-29 09:22:50.21	291.88	79.70	-36.3	-36.7	4.2	8232112	90	5124
2026-01-29 09:22:50.62	290.71	79.70	-36.3	-36.6	4.3	8149097	90	5100
2026-01-29 09:22:51.02	289.58	79.69	-36.0	-35.8	4.6	7965007	90	4800
2026-01-29 09:22:51.42	288.44	79.68	-36.0	-35.8	4.5	7807067	90	4806
2026-01-29 09:22:51.82	287.31	79.67	-36.2	-36.5	4.3	7917697	90	5093
2026-01-29 09:22:52.22	286.18	79.65	-36.5	-37.3	4.0	8176723	90	5393
2026-01-29 09:22:52.63	285.02	79.63	-36.8	-38.0	3.8	8258605	90	5665
2026-01-29 09:22:53.03	283.90	79.60	-36.8	-39.4	3.7	8383712	90	6661
2026-01-29 09:22:53.43	282.79	79.58	-36.6	-37.6	3.9	8304199	90	5512
2026-01-29 09:22:53.83	281.68	79.54	-36.5	-37.0	4.1	8251544	90	5263
2026-01-29 09:22:54.23	280.58	79.51	-36.6	-37.5	4.0	8208538	90	5440
2026-01-29 09:22:54.64	279.46	79.46	-36.8	-37.9	3.9	8263629	90	5620
2026-01-29 09:22:55.04	278.37	79.42	-36.9	-39.7	3.7	8399997	90	6764
2026-01-29 09:22:55.44	277.30	79.37	-36.9	-38.3	3.8	8372611	90	5797
2026-01-29 09:22:55.84	276.24	79.32	-36.8	-37.8	3.9	8317691	90	5573
2026-01-29 09:22:56.24	275.18	79.27	-36.6	-37.4	4.0	8272933	90	5416
2026-01-29 09:22:56.65	274.11	79.21	-36.5	-37.1	4.1	8220417	90	5275
2026-01-29 09:22:57.05	273.09	79.14	-36.3	-36.5	4.3	8168003	90	5035
2026-01-29 09:22:57.45	272.07	79.08	-36.1	-35.9	4.5	7945152	90	4855
2026-01-29 09:22:57.85	271.06	79.01	-36.3	-36.5	4.3	8011493	90	5040
2026-01-29 09:22:58.25	270.07	78.94	-36.4	-37.0	4.2	8127204	90	5234
2026-01-29 09:22:58.66	269.07	78.86	-36.6	-37.3	4.0	8205471	90	5350
2026-01-29 09:22:59.06	268.11	78.78	-36.6	-37.4	4.0	8206752	90	5400
2026-01-29 09:22:59.46	267.16	78.70	-36.7	-37.8	3.9	8230670	90	5568
2026-01-29 09:22:59.86	266.22	78.62	-37.0	-38.4	3.7	8328266	90	5812
2026-01-29 09:23:00.26	265.30	78.53	-37.3	-40.1	3.7	8376583	91	6760
2026-01-29 09:23:00.66	264.39	78.44	-37.5	-39.2	3.6	8415584	91	6039
2026-01-29 09:23:01.07	263.48	78.34	-37.5	-40.5	3.7	8368618	91	7008
2026-01-29 09:23:01.47	262.60	78.25	-37.5	-38.8	3.6	8406440	92	5769
2026-01-29 09:23:01.87	261.74	78.15	-37.4	-39.8	3.7	8363159	92	6503
2026-01-29 09:23:02.27	260.89	78.05	-37.3	-38.6	3.7	8399127	92	5697
2026-01-29 09:23:02.67	260.05	77.95	-37.2	-38.0	3.7	8365562	92	5384
2026-01-29 09:23:03.08	259.21	77.84	-37.0	-38.1	3.9	8421409	92	5569
2026-01-29 09:23:03.48	258.41	77.73	-36.9	-37.1	3.9	8332672	92	5047
2026-01-29 09:23:03.88	257.62	77.62	-36.9	-37.1	3.9	8303089	92	5037
2026-01-29 09:23:04.28	256.85	77.51	-37.1	-39.0	3.7	8318218	92	6162
2026-01-29 09:23:04.68	256.09	77.39	-37.1	-38.0	3.8	8408065	92	5440
2026-01-29 09:23:05.09	255.32	77.27	-37.0	-37.5	3.8	8340190	92	5202
2026-01-29 09:23:05.49	254.59	77.15	-37.0	-38.9	3.7	8403739	92	6092
2026-01-29 09:23:05.89	253.87	77.03	-37.2	-37.8	3.7	8377498	92	5306
2026-01-29 09:23:06.29	253.17	76.91	-37.3	-39.4	3.7	8374889	92	6314
2026-01-29 09:23:06.69	252.48	76.79	-37.2	-38.0	3.6	8366626	92	5368
2026-01-29 09:23:07.10	251.78	76.66	-37.1	-39.0	3.7	8379741	92	6105
2026-01-29 09:23:07.50	251.12	76.53	-37.1	-37.6	3.7	8405216	92	5239
2026-01-29 09:23:07.90	250.47	76.40	-37.2	-39.1	3.7	8357643	92	6138
2026-01-29 09:23:08.30	249.83	76.27	-37.2	-38.1	3.7	8408809	92	5445
2026-01-29 09:23:08.70	249.20	76.14	-37.2	-39.2	3.7	8364189	92	6205
2026-01-29 09:23:09.11	248.57	76.00	-36.9	-37.3	3.8	8384525	92	5111
2026-01-29 09:23:09.51	247.97	75.87	-37.0	-37.1	3.7	8351188	92	5007
2026-01-29 09:23:09.91	247.38	75.73	-37.1	-38.4	3.8	8396255	92	5682
2026-01-29 09:23:10.31	246.81	75.59	-37.2	-37.7	3.6	8360252	92	5232
2026-01-29 09:23:10.71	246.24	75.45	-37.0	-37.2	3.7	8353614	92	5022
2026-01-29 09:23:11.12	245.67	75.31	-36.8	-36.8	3.8	8331848	92	4895
2026-01-29 09:23:11.52	245.13	75.17	-36.8	-37.3	3.9	8311706	91	5175
2026-01-29 09:23:11.92	244.60	75.03	-37.0	-37.7	3.8	8326652	91	5343
2026-01-29 09:23:12.32	244.07	74.88	-37.3	-39.7	3.8	8408889	91	6529
2026-01-29 09:23:12.72	243.56	74.74	-37.5	-39.2	3.5	8377098	91	5997
2026-01-29 09:23:13.13	243.05	74.59	-37.4	-40.5	3.6	8392078	91	7011
2026-01-29 09:23:13.53	242.55	74.44	-37.5	-38.7	3.5	8398933	92	5698
2026-01-29 09:23:13.93	242.07	74.29	-37.5	-40.3	3.6	8413925	92	6825
2026-01-29 09:23:14.33	241.60	74.15	-37.6	-39.4	3.4	8411430	92	6026
2026-01-29 09:23:14.73	241.13	74.00	-37.5	-40.5	3.6	8373367	92	6892
2026-01-29 09:23:15.13	240.68	73.85	-37.1	-37.9	3.6	8432659	92	5377
2026-01-29 09:23:15.54	240.22	73.69	-36.9	-37.2	3.8	8337741	92	5069
2026-01-29 09:23:15.94	239.78	73.54	-37.1	-39.0	3.8	8428745	92	6082
2026-01-29 09:23:16.34	239.36	73.39	-37.4	-38.7	3.5	8402423	92	5694
2026-01-29 09:23:16.74	238.94	73.23	-37.5	-40.2	3.6	8398612	92	6742
2026-01-29 09:23:17.14	238.52	73.08	-37.5	-38.9	3.5	8395282	92	5799
2026-01-29 09:23:17.55	238.11	72.92	-37.5	-40.3	3.6	8410263	92	6815
2026-01-29 09:23:17.95	237.71	72.77	-37.6	-39.4	3.3	8431823	92	6032
2026-01-29 09:23:18.35	237.32	72.61	-37.7	-41.1	3.6	8398418	92	7246
2026-01-29 09:23:18.75	236.94	72.46	-37.9	-39.8	3.3	8373149	93	6075
2026-01-29 09:23:19.16	236.55	72.30	-37.8	-40.8	3.6	8389503	93	6941
2026-01-29 09:23:19.56	236.19	72.14	-37.9	-39.6	3.4	8385898	94	5947
2026-01-29 09:23:19.96	235.82	71.98	-37.9	-39.3	3.3	8400192	94	5735
2026-01-29 09:23:20.36	235.47	71.82	-37.8	-39.7	3.5	8381504	94	6096
2026-01-29 09:23:20.76	235.12	71.67	-37.8	-39.3	3.3	8398406	93	5855
2026-01-29 09:23:21.17	234.77	71.50	-37.6	-39.9	3.6	8454357	93	6356
2026-01-29 09:23:21.57	234.44	71.34	-37.5	-38.4	3.3	8393234	93	5435
2026-01-29 09:23:21.97	234.11	71.18	-37.4	-39.5	3.6	8397823	93	6267
2026-01-29 09:23:22.37	233.78	71.02	-37.5	-38.4	3.3	8407207	93	5469
2026-01-29 09:23:22.77	233.47	70.86	-37.7	-40.4	3.6	8401794	93	6682
2026-01-29 09:23:23.18	233.15	70.70	-37.8	-39.3	3.3	8416648	93	5837
2026-01-29 09:23:23.58	232.84	70.54	-37.9	-41.1	3.6	8380165	93	7094
2026-01-29 09:23:23.98	232.54	70.38	-37.9	-39.7	3.3	8430198	93	6039
2026-01-29 09:23:24.38	232.24	70.22	-38.3	-42.4	3.6	8384674	93	7873
2026-01-29 09:23:24.79	231.94	70.05	-38.3	-41.3	3.4	8425746	93	6939

#Closed at: 2026-01-29 09:23:24