passes_logs/2026/01/29/XPeterburg/XPeterburg__20260129_142958_FENGYUN_3E_rec.log

#Pass ID: 20260129_142958_FENGYUN 3E
#Satellite: FENGYUN 3E
#Configuration: FENGYUN 3E
#Start time: 2026-01-29 14:29:53

#Version: 1.5.20200625
#Station: XPeterburg
#Location: 30.318091 lon 59.932769 lat
#TLE: 1 49008U 21062A   26028.95833242 -.00000015  00000+0  13843-4 0  9995
#TLE: 2 49008  98.7500  33.9242 0002547 112.2873 247.8573 14.19887818236829

#Time	Az	El	Level	Level2	SNR	BER	Gain	Gain2
2026-01-29 14:29:53.27	132.30	68.20	-37.7	-40.2	3.3	8386711	92	6598
2026-01-29 14:29:53.67	132.08	68.36	-37.1	-39.9	3.5	8437717	91	6822
2026-01-29 14:29:54.08	131.84	68.53	-36.8	-38.1	3.4	8397983	91	5699
2026-01-29 14:29:54.48	131.60	68.70	-36.5	-38.2	3.8	8419166	91	6015
2026-01-29 14:29:54.88	131.36	68.86	-35.8	-36.1	4.0	8372383	89	5106
2026-01-29 14:29:55.28	131.11	69.03	-35.1	-34.9	4.5	8153663	88	4798
2026-01-29 14:29:55.68	130.86	69.19	-34.3	-33.4	5.4	7456649	87	4466
2026-01-29 14:29:56.09	130.60	69.36	-33.3	-32.3	6.4	3067142	85	4423
2026-01-29 14:29:56.49	130.34	69.52	-32.5	-31.9	7.2	2064090	83	4568
2026-01-29 14:29:56.89	130.08	69.69	-31.3	-30.2	8.8	874820	81	4355
2026-01-29 14:29:57.29	129.81	69.85	-30.7	-29.7	9.7	233242	80	4351
2026-01-29 14:29:57.70	129.54	70.02	-29.7	-29.0	10.8	61088	77	4541
2026-01-29 14:29:58.10	129.26	70.18	-29.2	-28.5	11.4	13355	76	4558
2026-01-29 14:29:58.50	128.98	70.35	-28.5	-27.6	12.0	7244	75	4454
2026-01-29 14:29:58.90	128.69	70.51	-28.1	-27.4	12.5	2426	74	4530
2026-01-29 14:29:59.30	128.40	70.67	-28.0	-27.2	12.6	995	74	4489
2026-01-29 14:29:59.71	128.09	70.84	-27.9	-26.9	12.8	698	74	4393
2026-01-29 14:30:00.11	127.79	71.00	-27.8	-27.2	13.0	583	73	4611
2026-01-29 14:30:00.51	127.48	71.17	-27.7	-27.0	13.1	480	73	4548
2026-01-29 14:30:00.91	127.17	71.33	-27.6	-26.7	13.3	331	73	4465
2026-01-29 14:30:01.31	126.84	71.49	-27.4	-26.5	13.5	148	73	4432
2026-01-29 14:30:01.72	126.51	71.66	-27.4	-27.0	13.7	308	72	4696
2026-01-29 14:30:02.12	126.18	71.82	-27.3	-26.7	13.8	205	72	4604
2026-01-29 14:30:02.52	125.84	71.98	-27.3	-26.8	13.8	45	72	4625
2026-01-29 14:30:02.92	125.49	72.14	-27.4	-26.9	13.7	68	72	4637
2026-01-29 14:30:03.32	125.14	72.30	-27.2	-26.6	13.8	102	72	4570
2026-01-29 14:30:03.73	124.77	72.46	-27.3	-26.9	13.7	57	72	4665
2026-01-29 14:30:04.13	124.41	72.62	-27.4	-26.9	13.5	34	72	4665
2026-01-29 14:30:04.53	124.03	72.78	-27.3	-26.7	13.6	80	72	4613
2026-01-29 14:30:04.93	123.65	72.94	-27.3	-26.7	13.6	68	72	4592
2026-01-29 14:30:05.33	123.26	73.10	-27.1	-26.2	13.8	125	72	4481
2026-01-29 14:30:05.74	122.86	73.26	-26.9	-26.1	13.8	125	72	4462
2026-01-29 14:30:06.14	122.45	73.42	-26.3	-25.3	14.3	11	71	4349
2026-01-29 14:30:06.54	122.04	73.57	-26.5	-25.6	14.2	11	71	4452
2026-01-29 14:30:06.94	121.62	73.73	-26.1	-25.4	14.6	11	70	4537
2026-01-29 14:30:07.34	121.19	73.88	-26.3	-25.8	14.4	0	70	4629
2026-01-29 14:30:07.75	120.75	74.04	-26.0	-25.2	14.8	0	70	4477
2026-01-29 14:30:08.15	120.30	74.19	-25.8	-24.8	15.0	0	70	4373
2026-01-29 14:30:08.55	119.84	74.35	-25.9	-24.9	14.9	11	70	4406
2026-01-29 14:30:08.95	119.38	74.50	-26.0	-25.1	14.9	0	70	4447
2026-01-29 14:30:09.36	118.89	74.65	-26.0	-25.2	14.9	0	70	4464
2026-01-29 14:30:09.76	118.41	74.80	-26.1	-25.3	14.8	0	70	4494
2026-01-29 14:30:10.16	117.91	74.95	-26.1	-25.3	14.9	22	70	4506
2026-01-29 14:30:10.56	117.41	75.10	-26.0	-25.2	15.0	0	70	4480
2026-01-29 14:30:10.96	116.89	75.25	-25.9	-25.0	15.1	0	70	4434
2026-01-29 14:30:11.36	116.37	75.39	-25.7	-25.1	15.3	0	69	4586
2026-01-29 14:30:11.77	115.81	75.54	-25.6	-24.9	15.5	0	69	4543
2026-01-29 14:30:12.17	115.27	75.69	-25.5	-24.7	15.6	0	69	4476
2026-01-29 14:30:12.57	114.71	75.83	-25.6	-24.7	15.6	0	69	4480
2026-01-29 14:30:12.97	114.13	75.97	-25.6	-24.9	15.6	0	69	4524
2026-01-29 14:30:13.37	113.55	76.11	-25.5	-24.8	15.7	0	69	4507
2026-01-29 14:30:13.78	112.94	76.25	-25.5	-24.7	15.8	0	69	4476
2026-01-29 14:30:14.18	112.33	76.39	-25.5	-24.6	15.8	0	69	4464
2026-01-29 14:30:14.58	111.71	76.53	-25.4	-24.4	16.0	0	69	4419
2026-01-29 14:30:14.98	111.07	76.66	-25.3	-24.3	16.0	11	69	4396
2026-01-29 14:30:15.38	110.42	76.80	-25.5	-24.6	15.9	0	69	4468
2026-01-29 14:30:15.79	109.74	76.93	-25.3	-24.3	16.1	0	69	4388
2026-01-29 14:30:16.19	109.07	77.06	-25.2	-24.5	16.4	0	68	4578
2026-01-29 14:30:16.59	108.38	77.19	-25.4	-24.9	16.2	0	68	4688
2026-01-29 14:30:16.99	107.67	77.32	-25.3	-24.8	16.3	0	68	4636
2026-01-29 14:30:17.39	106.95	77.44	-25.5	-25.1	16.1	0	68	4740
2026-01-29 14:30:17.80	106.20	77.57	-25.4	-25.1	16.1	0	68	4720
2026-01-29 14:30:18.20	105.45	77.69	-25.5	-25.3	16.0	0	68	4779
2026-01-29 14:30:18.60	104.69	77.81	-25.4	-25.0	16.1	0	68	4695
2026-01-29 14:30:19.00	103.91	77.92	-25.3	-24.8	16.2	0	68	4644
2026-01-29 14:30:19.41	103.09	78.04	-25.1	-24.4	16.5	0	68	4533
2026-01-29 14:30:19.81	102.28	78.16	-25.0	-24.2	16.5	0	68	4497
2026-01-29 14:30:20.21	101.45	78.27	-25.0	-24.2	16.5	0	68	4488
2026-01-29 14:30:20.61	100.61	78.37	-24.5	-23.8	16.7	0	67	4504
2026-01-29 14:30:21.02	99.73	78.48	-24.4	-23.6	16.7	0	67	4460
2026-01-29 14:30:21.42	98.85	78.58	-24.3	-23.4	16.8	0	67	4396
2026-01-29 14:30:21.82	97.96	78.68	-24.5	-24.1	16.7	0	66	4740
2026-01-29 14:30:22.22	97.05	78.78	-24.5	-24.1	16.7	0	66	4737
2026-01-29 14:30:22.62	96.13	78.88	-24.5	-24.2	16.7	0	66	4746
2026-01-29 14:30:23.03	95.16	78.97	-24.7	-24.5	16.5	0	66	4796
2026-01-29 14:30:23.43	94.21	79.06	-24.7	-24.4	16.5	0	66	4773
2026-01-29 14:30:23.83	93.24	79.15	-24.7	-24.6	16.5	0	66	4856
2026-01-29 14:30:24.23	92.25	79.23	-24.5	-24.2	16.7	0	66	4748
2026-01-29 14:30:24.63	91.25	79.31	-24.4	-24.1	16.8	0	66	4708
2026-01-29 14:30:25.03	90.23	79.38	-24.4	-24.0	16.8	0	66	4696
2026-01-29 14:30:25.44	89.17	79.46	-24.4	-24.0	16.8	0	66	4689
2026-01-29 14:30:25.84	88.12	79.53	-24.5	-24.2	16.6	0	66	4759
2026-01-29 14:30:26.24	87.06	79.60	-24.5	-24.2	16.6	0	66	4743
2026-01-29 14:30:26.64	85.99	79.66	-24.5	-24.2	16.6	0	66	4742
2026-01-29 14:30:27.05	84.87	79.72	-24.7	-24.5	16.5	0	66	4835
2026-01-29 14:30:27.45	83.77	79.77	-24.7	-24.7	16.4	0	66	4877
2026-01-29 14:30:27.85	82.66	79.83	-24.8	-24.8	16.3	0	66	4912
2026-01-29 14:30:28.25	81.53	79.87	-24.9	-24.5	16.2	0	67	4678
2026-01-29 14:30:28.65	80.40	79.92	-25.0	-24.6	16.1	0	67	4716
2026-01-29 14:30:29.06	79.23	79.96	-25.0	-24.6	16.1	0	67	4715
2026-01-29 14:30:29.46	78.08	79.99	-25.1	-24.8	16.1	0	67	4770
2026-01-29 14:30:29.86	76.92	80.03	-24.9	-24.5	16.2	0	67	4695
2026-01-29 14:30:30.26	75.75	80.05	-25.0	-24.6	16.2	0	67	4731
2026-01-29 14:30:30.67	74.54	80.08	-25.1	-24.8	16.1	0	67	4777
2026-01-29 14:30:31.07	73.37	80.10	-25.0	-24.6	16.2	0	67	4715
2026-01-29 14:30:31.47	72.18	80.11	-24.9	-24.5	16.2	0	67	4694
2026-01-29 14:30:31.87	71.00	80.12	-24.9	-24.4	16.3	0	67	4674
2026-01-29 14:30:32.27	69.81	80.13	-24.9	-24.5	16.3	0	67	4694
2026-01-29 14:30:32.68	68.59	80.13	-24.9	-24.5	16.2	0	67	4687
2026-01-29 14:30:33.08	67.40	80.13	-25.0	-24.6	16.2	0	67	4722
2026-01-29 14:30:33.48	66.21	80.13	-25.0	-24.7	16.1	0	67	4748
2026-01-29 14:30:33.88	65.02	80.12	-25.0	-24.7	16.2	0	67	4732
2026-01-29 14:30:34.28	63.84	80.10	-25.1	-24.9	16.1	0	67	4788
2026-01-29 14:30:34.69	62.63	80.09	-25.3	-25.3	15.9	0	67	4909
2026-01-29 14:30:35.09	61.45	80.06	-25.4	-25.4	15.8	0	67	4950
2026-01-29 14:30:35.49	60.28	80.04	-25.7	-25.6	15.7	0	68	4846
2026-01-29 14:30:35.89	59.12	80.01	-25.7	-25.6	15.6	0	68	4840
2026-01-29 14:30:36.29	57.96	79.97	-25.7	-25.6	15.6	0	68	4844
2026-01-29 14:30:36.70	56.79	79.93	-25.7	-25.5	15.6	0	68	4838
2026-01-29 14:30:37.10	55.65	79.89	-25.6	-25.4	15.6	0	68	4788
2026-01-29 14:30:37.50	54.53	79.84	-25.6	-25.3	15.7	0	68	4776
2026-01-29 14:30:37.90	53.41	79.79	-25.4	-25.0	15.8	0	68	4684
2026-01-29 14:30:38.30	52.30	79.74	-25.4	-24.9	15.8	0	68	4644
2026-01-29 14:30:38.71	51.19	79.68	-25.7	-25.5	15.6	0	68	4825
2026-01-29 14:30:39.11	50.11	79.62	-25.8	-25.6	15.5	0	68	4862
2026-01-29 14:30:39.51	49.04	79.55	-25.9	-25.9	15.4	0	68	4925
2026-01-29 14:30:39.91	47.99	79.48	-25.6	-25.4	15.5	0	68	4789
2026-01-29 14:30:40.31	46.95	79.41	-25.8	-25.7	15.3	0	68	4886
2026-01-29 14:30:40.71	45.93	79.34	-25.8	-25.8	15.4	0	68	4904
2026-01-29 14:30:41.12	44.90	79.26	-25.8	-25.7	15.4	0	68	4862
2026-01-29 14:30:41.52	43.90	79.17	-25.7	-25.6	15.5	0	68	4839
2026-01-29 14:30:41.92	42.93	79.09	-25.7	-25.6	15.4	0	68	4838
2026-01-29 14:30:42.32	41.97	79.00	-25.7	-25.6	15.4	0	68	4845
2026-01-29 14:30:42.73	41.00	78.91	-25.7	-25.6	15.4	0	68	4863
2026-01-29 14:30:43.13	40.07	78.82	-25.7	-25.5	15.5	0	68	4834
2026-01-29 14:30:43.53	39.15	78.72	-25.7	-25.5	15.5	0	68	4843
2026-01-29 14:30:43.93	38.26	78.62	-25.8	-25.8	15.4	0	68	4928
2026-01-29 14:30:44.33	37.38	78.52	-25.9	-26.1	15.3	0	68	4996
2026-01-29 14:30:44.73	36.51	78.41	-25.9	-26.0	15.3	0	68	4983
2026-01-29 14:30:45.14	35.64	78.30	-26.0	-25.7	15.2	0	69	4756
2026-01-29 14:30:45.54	34.81	78.19	-26.0	-25.7	15.2	0	69	4748
2026-01-29 14:30:45.94	33.99	78.08	-26.2	-26.1	15.1	0	69	4857
2026-01-29 14:30:46.34	33.19	77.97	-26.2	-26.0	15.1	0	69	4807
2026-01-29 14:30:46.74	32.41	77.85	-26.1	-25.8	15.3	0	69	4763
2026-01-29 14:30:47.15	31.62	77.73	-26.1	-25.8	15.3	0	69	4748
2026-01-29 14:30:47.55	30.86	77.61	-26.1	-25.9	15.3	0	69	4766
2026-01-29 14:30:47.95	30.12	77.49	-26.2	-26.0	15.3	0	69	4794
2026-01-29 14:30:48.35	29.40	77.36	-26.3	-26.2	15.1	0	69	4861
2026-01-29 14:30:48.75	28.69	77.24	-26.2	-26.0	15.2	0	69	4807
2026-01-29 14:30:49.16	27.98	77.11	-26.2	-26.1	15.2	0	69	4843
2026-01-29 14:30:49.56	27.30	76.98	-26.2	-26.0	15.3	0	69	4810
2026-01-29 14:30:49.96	26.63	76.85	-26.0	-25.7	15.4	0	69	4710
2026-01-29 14:30:50.36	25.98	76.71	-25.9	-25.3	15.5	0	69	4606
2026-01-29 14:30:50.76	25.34	76.58	-25.8	-25.2	15.5	0	69	4568
2026-01-29 14:30:51.17	24.69	76.44	-25.7	-24.9	15.6	0	69	4508
2026-01-29 14:30:51.57	24.08	76.30	-25.7	-25.0	15.5	0	69	4514
2026-01-29 14:30:51.97	23.48	76.17	-25.8	-25.2	15.3	11	69	4580
2026-01-29 14:30:52.37	22.89	76.03	-25.9	-25.4	15.2	0	69	4643
2026-01-29 14:30:52.77	22.32	75.88	-26.0	-25.6	15.0	0	69	4693
2026-01-29 14:30:53.18	21.74	75.74	-26.2	-25.9	14.9	0	69	4784
2026-01-29 14:30:53.58	21.18	75.60	-26.3	-26.1	14.8	22	69	4823
2026-01-29 14:30:53.98	20.64	75.45	-26.2	-25.9	14.8	11	69	4769
2026-01-29 14:30:54.38	20.11	75.30	-26.4	-25.7	14.6	0	70	4574
2026-01-29 14:30:54.78	19.59	75.16	-26.3	-25.7	14.6	0	70	4593
2026-01-29 14:30:55.18	19.09	75.01	-26.4	-25.8	14.6	0	70	4615
2026-01-29 14:30:55.59	18.58	74.86	-26.4	-25.9	14.5	22	70	4639
2026-01-29 14:30:55.99	18.09	74.71	-26.4	-25.9	14.5	11	70	4629
2026-01-29 14:30:56.39	17.61	74.56	-26.6	-26.2	14.4	22	70	4714
2026-01-29 14:30:56.79	17.14	74.41	-26.6	-26.3	14.3	0	70	4747
2026-01-29 14:30:57.20	16.67	74.25	-26.6	-26.2	14.4	0	70	4706
2026-01-29 14:30:57.60	16.22	74.10	-26.8	-26.7	14.1	45	70	4852
2026-01-29 14:30:58.00	15.78	73.94	-26.7	-26.5	14.1	22	70	4794
2026-01-29 14:30:58.40	15.35	73.79	-26.7	-26.4	14.2	0	70	4785
2026-01-29 14:30:58.80	14.93	73.63	-26.7	-26.5	14.1	22	70	4788
2026-01-29 14:30:59.21	14.50	73.48	-26.7	-26.4	14.1	22	70	4768
2026-01-29 14:30:59.61	14.10	73.32	-26.6	-26.2	14.3	11	70	4716
2026-01-29 14:31:00.01	13.70	73.16	-26.6	-26.3	14.3	22	70	4764
2026-01-29 14:31:00.41	13.31	73.01	-26.7	-26.5	14.2	34	70	4798
2026-01-29 14:31:00.81	12.92	72.85	-26.9	-26.8	14.2	0	70	4904
2026-01-29 14:31:01.22	12.54	72.68	-27.0	-26.6	14.0	0	71	4722
2026-01-29 14:31:01.62	12.17	72.53	-27.0	-26.6	13.9	45	71	4711
2026-01-29 14:31:02.02	11.81	72.37	-27.1	-26.9	13.9	91	71	4775
2026-01-29 14:31:02.42	11.45	72.21	-27.3	-27.2	13.6	102	71	4878
2026-01-29 14:31:02.82	11.11	72.05	-27.3	-27.2	13.7	45	71	4855
2026-01-29 14:31:03.23	10.76	71.88	-27.5	-27.6	13.5	80	71	4988
2026-01-29 14:31:03.63	10.42	71.72	-27.6	-27.2	13.5	171	72	4741
2026-01-29 14:31:04.03	10.09	71.56	-27.7	-27.5	13.4	102	72	4814
2026-01-29 14:31:04.43	9.77	71.40	-27.7	-27.6	13.3	240	72	4845
2026-01-29 14:31:04.83	9.45	71.24	-27.8	-27.7	13.2	263	72	4872
2026-01-29 14:31:05.24	9.14	71.07	-27.9	-27.9	13.1	137	72	4915
2026-01-29 14:31:05.64	8.83	70.91	-27.7	-27.6	13.1	160	72	4818
2026-01-29 14:31:06.04	8.53	70.75	-27.5	-27.0	13.4	114	72	4674
2026-01-29 14:31:06.44	8.24	70.58	-27.3	-26.7	13.4	217	72	4572
2026-01-29 14:31:06.84	7.95	70.42	-27.1	-26.3	13.5	205	72	4482
2026-01-29 14:31:07.25	7.66	70.25	-27.1	-26.1	13.6	194	72	4426

#Closed at: 2026-01-29 14:31:07