passes_logs/2026/01/26/R3.2S_Murmansk/R3.2S_Murmansk__20260126_213428_JL1KF02B03_rec.log

#Pass ID: 20260126_213428_JL1KF02B03
#Satellite: JL1KF02B03
#Configuration: 01B_900M
#almurnet v.1.7.20251203
#Start time: 2026-01-26 21:34:28

#Version: 2.2.20231116
#Station: R3.2S_Murmansk
#Location: 33.079688 lon 68.888172 lat
#TLE: 1 61190U 24169B   26026.49211616  .00007179  00000+0  44995-3 0  9992
#TLE: 2 61190  97.5615 117.4604 0015035 143.4613 216.7645 15.09556816 74458

#Time	Az	El	Level	Level2	SNR	BER	BlckErr	Temp	State	Recorded	gain1	gain2
2026-01-26 21:34:28.75	205.91	2.03	-55.4	-57.4	6.2	0.00e+00	0	44	0	0	81	19253
2026-01-26 21:34:31.66	206.15	2.21	-55.4	-57.5	6.2	0.00e+00	0	44	104	0	82	18232
2026-01-26 21:34:34.57	206.40	2.39	-55.4	-57.5	6.2	0.00e+00	0	44	104	0	82	18304
2026-01-26 21:34:37.49	206.65	2.57	-55.6	-57.7	6.2	0.00e+00	0	44	104	0	82	18637
2026-01-26 21:34:40.40	206.90	2.75	-55.5	-57.6	6.2	0.00e+00	0	44	104	0	82	18535
2026-01-26 21:34:43.31	207.16	2.93	-55.5	-57.6	6.2	0.00e+00	0	44	104	0	82	18423
2026-01-26 21:34:46.23	207.42	3.12	-55.3	-57.4	6.2	0.00e+00	0	44	104	0	82	18172
2026-01-26 21:34:49.14	207.69	3.31	-55.2	-57.3	6.2	0.00e+00	0	44	104	0	82	17769
2026-01-26 21:34:52.06	207.96	3.49	-55.0	-57.0	6.2	0.00e+00	0	44	104	0	82	17361
2026-01-26 21:34:54.97	208.23	3.68	-54.7	-56.7	6.2	0.00e+00	0	44	104	0	81	17737
2026-01-26 21:34:57.89	208.51	3.87	-54.0	-56.1	6.2	0.00e+00	0	45	104	0	79	18495
2026-01-26 21:35:00.80	208.79	4.06	-54.0	-56.1	6.2	0.00e+00	0	45	104	0	79	18423
2026-01-26 21:35:03.71	209.08	4.25	-53.9	-56.1	6.2	0.00e+00	0	45	104	0	79	18403
2026-01-26 21:35:06.61	209.36	4.44	-53.9	-56.0	6.2	0.00e+00	0	45	104	0	79	18363
2026-01-26 21:35:09.53	209.66	4.64	-53.9	-56.0	6.2	0.00e+00	0	45	104	0	79	18357
2026-01-26 21:35:12.45	209.96	4.83	-53.9	-56.0	6.2	0.00e+00	0	45	104	0	79	18368
2026-01-26 21:35:15.36	210.27	5.03	-54.0	-56.1	6.2	0.00e+00	0	45	104	0	79	18429
2026-01-26 21:35:18.28	210.58	5.23	-54.0	-56.1	6.2	0.00e+00	0	45	104	0	79	18442
2026-01-26 21:35:21.19	210.89	5.43	-53.8	-55.9	6.2	0.00e+00	0	45	104	0	79	18082
2026-01-26 21:35:24.11	211.21	5.63	-53.8	-55.9	6.2	0.00e+00	0	45	104	0	79	18081
2026-01-26 21:35:27.04	211.54	5.83	-53.9	-56.0	6.2	0.00e+00	0	45	104	0	79	18289
2026-01-26 21:35:29.96	211.87	6.04	-54.0	-56.1	6.2	0.00e+00	0	45	104	0	79	18430
2026-01-26 21:35:32.88	212.21	6.24	-53.8	-55.9	6.2	0.00e+00	0	45	104	0	79	18092
2026-01-26 21:35:35.79	212.55	6.45	-53.9	-55.9	6.2	0.00e+00	0	45	104	0	79	18168
2026-01-26 21:35:38.71	212.90	6.66	-53.9	-56.0	6.2	0.00e+00	0	45	104	0	79	18373
2026-01-26 21:35:41.63	213.25	6.87	-53.9	-56.0	6.2	0.00e+00	0	45	104	0	79	18258
2026-01-26 21:35:44.54	213.61	7.08	-53.8	-55.9	6.2	0.00e+00	0	45	104	0	79	18150
2026-01-26 21:35:47.45	213.98	7.29	-53.9	-56.0	6.2	0.00e+00	0	45	104	0	79	18357
2026-01-26 21:35:50.37	214.35	7.50	-54.0	-56.1	6.2	0.00e+00	0	45	104	0	79	18400
2026-01-26 21:35:53.29	214.73	7.72	-53.9	-56.0	6.2	0.00e+00	0	46	104	0	79	18205
2026-01-26 21:35:56.20	215.12	7.93	-53.9	-56.0	6.2	0.00e+00	0	45	104	0	79	18317
2026-01-26 21:35:59.11	215.51	8.15	-54.0	-56.1	6.2	0.00e+00	0	46	104	0	79	18426
2026-01-26 21:36:02.03	215.91	8.37	-54.0	-56.1	6.2	0.00e+00	0	45	104	0	79	18507
2026-01-26 21:36:04.95	216.31	8.59	-53.9	-56.0	6.2	0.00e+00	0	46	104	0	79	18248
2026-01-26 21:36:07.87	216.73	8.81	-53.9	-56.0	6.2	0.00e+00	0	46	104	0	79	18360
2026-01-26 21:36:10.79	217.15	9.04	-54.0	-56.1	6.2	0.00e+00	0	45	104	0	79	18494
2026-01-26 21:36:13.71	217.58	9.26	-54.0	-56.1	6.2	0.00e+00	0	46	104	0	79	18457
2026-01-26 21:36:16.62	218.02	9.49	-34.3	-34.0	15.3	1.35e-04	0	46	0	109051904	40	13667
2026-01-26 21:36:19.54	218.46	9.71	-33.8	-33.5	15.5	7.05e-05	0	46	0	436207616	39	13782
2026-01-26 21:36:22.46	218.91	9.94	-33.7	-33.5	15.5	8.01e-05	0	46	0	780140544	39	13760
2026-01-26 21:36:25.38	219.38	10.17	-33.7	-33.5	15.6	4.38e-05	0	46	0	1098907648	39	13702
2026-01-26 21:36:28.29	219.85	10.40	-33.6	-33.4	15.5	6.86e-05	0	46	0	1426063360	39	13623
2026-01-26 21:36:31.21	220.32	10.64	-33.6	-33.4	15.5	4.19e-05	0	46	0	1753219072	39	13617
2026-01-26 21:36:34.13	220.81	10.87	-33.5	-33.3	15.6	5.14e-05	0	46	0	2080374784	38	14230
2026-01-26 21:36:37.03	221.31	11.11	-33.4	-33.2	15.6	4.95e-05	0	46	0	2407530496	38	14105
2026-01-26 21:36:39.95	221.81	11.34	-33.4	-33.2	15.7	5.53e-05	0	46	0	2743074816	38	14108
2026-01-26 21:36:42.87	222.33	11.58	-33.3	-33.1	15.7	4.19e-05	0	46	0	3070230528	38	13840
2026-01-26 21:36:45.79	222.85	11.82	-33.3	-33.0	15.7	3.81e-05	0	46	0	3397386240	38	13777
2026-01-26 21:36:48.70	223.39	12.06	-33.3	-33.1	15.6	4.00e-05	0	46	0	3724541952	38	13906
2026-01-26 21:36:51.62	223.93	12.30	-33.1	-32.9	15.7	2.86e-05	0	46	0	4051697664	38	13508
2026-01-26 21:36:54.53	224.49	12.54	-33.0	-32.8	15.7	3.81e-05	0	46	0	4378853376	37	14147
2026-01-26 21:36:57.45	225.05	12.78	-32.8	-32.5	15.8	2.28e-05	0	46	0	4714397696	37	13788
2026-01-26 21:37:00.36	225.63	13.03	-32.8	-32.6	15.8	2.67e-05	0	47	0	5041553408	37	13888
2026-01-26 21:37:03.27	226.22	13.27	-32.7	-32.5	15.8	1.71e-05	0	46	0	5368709120	37	13647
2026-01-26 21:37:06.18	226.81	13.51	-32.7	-32.5	15.8	2.09e-05	0	46	0	5695864832	37	13658
2026-01-26 21:37:09.09	227.42	13.76	-32.8	-32.6	15.7	3.43e-05	0	47	0	6023020544	37	13826
2026-01-26 21:37:12.01	228.05	14.00	-32.5	-32.3	15.8	3.43e-05	0	46	0	6341787648	37	13450
2026-01-26 21:37:14.92	228.68	14.25	-32.6	-32.3	15.8	2.09e-05	0	46	0	6668943360	36	14256
2026-01-26 21:37:17.84	229.33	14.50	-32.4	-32.2	15.8	2.47e-05	0	46	0	6996099072	36	14035
2026-01-26 21:37:20.75	229.98	14.74	-32.4	-32.2	15.9	1.52e-05	0	47	0	7331643392	36	14070
2026-01-26 21:37:23.67	230.65	14.99	-32.4	-32.2	15.9	2.28e-05	0	47	0	7658799104	36	13992
2026-01-26 21:37:26.59	231.34	15.23	-32.3	-32.1	15.9	1.71e-05	0	47	0	7985954816	36	13816
2026-01-26 21:37:29.50	232.03	15.48	-32.1	-31.9	15.9	2.09e-05	0	47	0	8313110528	36	13527
2026-01-26 21:37:32.42	232.74	15.73	-32.1	-31.9	16.0	1.71e-05	0	46	0	8640266240	36	13598
2026-01-26 21:37:35.35	233.47	15.97	-29.6	-29.4	15.6	4.76e-05	0	47	0	8975810560	31	13606
2026-01-26 21:37:38.27	234.21	16.21	-29.6	-29.4	15.5	7.43e-05	0	47	0	9302966272	31	13580
2026-01-26 21:37:41.18	234.96	16.46	-29.5	-29.3	15.6	3.24e-05	0	47	0	9630121984	31	13413
2026-01-26 21:37:44.10	235.72	16.70	-29.4	-29.3	15.6	5.34e-05	0	47	0	9957277696	30	14113
2026-01-26 21:37:47.01	236.50	16.94	-29.3	-29.1	15.6	2.67e-05	0	47	0	10284433408	30	13870
2026-01-26 21:37:49.93	237.29	17.18	-29.4	-29.2	15.6	4.38e-05	0	46	0	10611589120	30	13984
2026-01-26 21:37:52.85	238.09	17.41	-29.3	-29.1	15.7	3.43e-05	0	47	0	10947133440	30	13839
2026-01-26 21:37:55.76	238.91	17.64	-29.2	-29.0	15.7	4.95e-05	0	47	0	11274289152	30	13765
2026-01-26 21:37:58.68	239.75	17.88	-29.4	-29.2	15.4	6.67e-05	0	47	0	11601444864	30	13973
2026-01-26 21:38:01.58	240.59	18.10	-29.2	-29.0	15.5	4.95e-05	0	47	0	11928600576	30	13744
2026-01-26 21:38:04.49	241.45	18.33	-29.3	-29.1	15.5	6.86e-05	0	47	0	12255756288	30	13901
2026-01-26 21:38:07.40	242.33	18.55	-28.9	-28.7	15.7	3.81e-05	0	47	0	12574523392	29	14073
2026-01-26 21:38:10.32	243.22	18.77	-28.9	-28.7	15.7	3.62e-05	0	47	0	12901679104	29	14077
2026-01-26 21:38:13.22	244.12	18.98	-29.0	-28.8	15.8	1.71e-05	0	47	0	13228834816	29	14165
2026-01-26 21:38:16.13	245.03	19.19	-28.9	-28.7	15.6	3.62e-05	0	47	0	13555990528	29	14014
2026-01-26 21:38:19.04	245.97	19.40	-28.9	-28.7	15.7	2.86e-05	0	47	0	13883146240	29	13953
2026-01-26 21:38:21.96	246.91	19.60	-28.8	-28.6	15.8	1.90e-05	0	47	0	14218690560	29	13888
2026-01-26 21:38:24.87	247.87	19.79	-28.8	-28.6	15.7	4.57e-05	0	47	0	14545846272	29	13924
2026-01-26 21:38:27.78	248.84	19.98	-28.8	-28.6	15.7	4.00e-05	0	47	0	14873001984	29	13884
2026-01-26 21:38:30.70	249.83	20.17	-28.6	-28.4	15.8	2.67e-05	0	47	0	15200157696	29	13623
2026-01-26 21:38:33.61	250.83	20.35	-28.6	-28.4	15.8	3.62e-05	0	47	0	15527313408	29	13601
2026-01-26 21:38:36.53	251.85	20.52	-28.6	-28.4	15.7	1.90e-05	0	47	0	15854469120	29	13499
2026-01-26 21:38:39.44	252.87	20.68	-28.5	-28.3	15.8	2.67e-05	0	47	0	16181624832	29	13393
2026-01-26 21:38:42.36	253.91	20.84	-28.5	-28.3	15.7	3.43e-05	0	47	0	16517169152	28	14156
2026-01-26 21:38:45.27	254.95	20.99	-28.4	-28.3	15.8	2.86e-05	0	47	0	16844324864	28	14112
2026-01-26 21:38:48.19	256.02	21.13	-28.6	-28.4	15.9	1.71e-05	0	47	0	17171480576	28	14297
2026-01-26 21:38:51.12	257.09	21.27	-28.5	-28.3	15.9	2.09e-05	0	47	0	17490247680	28	14150
2026-01-26 21:38:54.04	258.17	21.39	-28.3	-28.1	16.0	9.50e-06	0	47	0	17817403392	28	13891
2026-01-26 21:38:56.96	259.26	21.51	-28.2	-28.0	16.0	1.14e-05	0	47	0	18161336320	28	13714
2026-01-26 21:38:59.89	260.37	21.62	-28.3	-28.1	16.0	2.09e-05	0	47	0	18480103424	28	13871
2026-01-26 21:39:02.82	261.48	21.72	-28.2	-28.0	16.0	1.52e-05	0	47	0	18807259136	28	13744
2026-01-26 21:39:05.74	262.59	21.80	-28.3	-28.1	16.0	2.28e-05	0	47	0	19134414848	28	13930
2026-01-26 21:39:08.66	263.72	21.88	-28.2	-28.0	16.1	1.71e-05	0	47	0	19478347776	28	13643
2026-01-26 21:39:11.58	264.84	21.95	-28.2	-28.0	16.0	1.14e-05	0	47	0	19797114880	28	13716
2026-01-26 21:39:14.50	265.98	22.01	-28.2	-28.0	16.0	1.90e-05	0	47	0	20124270592	28	13755
2026-01-26 21:39:17.42	267.11	22.06	-28.2	-28.0	16.0	3.05e-05	0	47	0	20451426304	28	13762
2026-01-26 21:39:20.35	268.26	22.10	-28.2	-28.0	16.1	9.50e-06	0	47	0	20786970624	28	13637
2026-01-26 21:39:23.27	269.40	22.12	-28.2	-28.0	16.0	1.14e-05	0	47	0	21114126336	28	13703
2026-01-26 21:39:26.19	270.55	22.14	-28.2	-28.0	16.0	1.14e-05	0	47	0	21441282048	28	13729
2026-01-26 21:39:29.13	271.70	22.15	-28.3	-28.1	16.1	5.70e-06	0	47	0	21768437760	28	13888
2026-01-26 21:39:32.07	272.85	22.14	-28.3	-28.1	16.1	1.71e-05	0	47	0	22103982080	28	13948
2026-01-26 21:39:35.01	274.01	22.12	-28.3	-28.0	16.2	1.52e-05	0	47	0	22431137792	28	13785
2026-01-26 21:39:37.96	275.16	22.10	-28.2	-28.0	16.2	3.80e-06	0	47	0	22766682112	28	13748
2026-01-26 21:39:40.92	276.32	22.06	-28.3	-28.2	16.1	1.33e-05	0	47	0	23093837824	28	13956
2026-01-26 21:39:43.89	277.47	22.01	-28.3	-28.1	16.3	7.60e-06	0	47	0	23437770752	28	13866
2026-01-26 21:39:46.86	278.63	21.95	-28.4	-28.2	16.3	9.50e-06	0	47	0	23773315072	28	13974
2026-01-26 21:39:49.83	279.77	21.88	-28.3	-28.1	16.4	9.50e-06	0	47	0	24100470784	28	13862
2026-01-26 21:39:52.82	280.92	21.80	-28.4	-28.2	16.4	1.90e-05	0	47	0	24436015104	28	14026
2026-01-26 21:39:55.80	282.06	21.71	-28.6	-28.4	16.3	7.60e-06	0	47	0	24771559424	28	14358
2026-01-26 21:39:58.78	283.19	21.61	-28.6	-28.4	16.3	9.50e-06	0	47	0	25107103744	28	14345
2026-01-26 21:40:01.77	284.31	21.50	-28.5	-28.3	16.5	5.70e-06	0	47	0	25451036672	28	14267
2026-01-26 21:40:04.75	285.43	21.38	-28.5	-28.3	16.6	3.80e-06	0	47	0	25786580992	28	14141
2026-01-26 21:40:07.77	286.54	21.25	-28.6	-28.4	16.6	3.80e-06	0	47	0	26122125312	28	14403
2026-01-26 21:40:10.79	287.65	21.11	-28.7	-28.6	16.7	3.80e-06	0	47	0	26457669632	28	14609
2026-01-26 21:40:13.80	288.74	20.96	-28.9	-28.7	16.7	3.80e-06	0	47	0	26801602560	28	14919
2026-01-26 21:40:16.81	289.82	20.80	-29.0	-28.8	16.8	3.80e-06	0	47	0	27137146880	28	15067
2026-01-26 21:40:19.84	290.90	20.63	-28.8	-28.6	16.9	3.80e-06	0	47	0	27472691200	28	14768
2026-01-26 21:40:22.85	291.95	20.46	-29.0	-28.8	17.0	5.70e-06	0	47	0	27816624128	28	15054
2026-01-26 21:40:25.87	293.00	20.28	-29.0	-28.8	17.0	9.50e-06	0	47	0	28160557056	28	15093
2026-01-26 21:40:28.89	294.03	20.09	-29.1	-28.9	17.1	7.60e-06	0	47	0	28496101376	28	15243
2026-01-26 21:40:31.91	295.04	19.90	-29.2	-29.0	17.2	1.90e-06	0	47	0	28831645696	29	14553
2026-01-26 21:40:34.92	296.04	19.70	-29.2	-29.0	17.3	3.80e-06	0	47	0	29175578624	29	14532
2026-01-26 21:40:37.95	297.03	19.50	-29.3	-29.1	17.3	7.60e-06	0	47	0	29519511552	29	14771
2026-01-26 21:40:40.97	298.01	19.29	-29.5	-29.3	17.3	3.80e-06	0	47	0	29855055872	29	14983
2026-01-26 21:40:43.99	298.97	19.07	-29.4	-29.2	17.4	0.00e+00	0	47	0	30198988800	29	14835
2026-01-26 21:40:47.02	299.91	18.85	-29.4	-29.2	17.5	1.90e-06	0	47	0	30534533120	29	14904
2026-01-26 21:40:50.04	300.84	18.62	-29.4	-29.2	17.5	7.60e-06	0	47	0	30870077440	29	14936
2026-01-26 21:40:53.06	301.75	18.39	-29.5	-29.4	17.6	3.80e-06	0	47	0	31222398976	29	15156
2026-01-26 21:40:56.08	302.65	18.16	-29.7	-29.5	17.6	1.90e-06	0	47	0	31557943296	30	14479
2026-01-26 21:40:59.09	303.53	17.93	-29.7	-29.5	17.7	1.90e-06	0	47	0	31893487616	30	14569
2026-01-26 21:41:02.11	304.39	17.69	-29.7	-29.5	17.7	3.80e-06	0	47	0	32229031936	30	14571
2026-01-26 21:41:05.13	305.25	17.45	-29.8	-29.6	17.7	1.90e-06	0	47	0	32572964864	30	14734
2026-01-26 21:41:08.15	306.08	17.20	-30.0	-29.8	17.6	0.00e+00	0	47	0	32916897792	30	15111
2026-01-26 21:41:11.18	306.91	16.96	-30.0	-29.8	17.7	0.00e+00	0	47	0	33252442112	30	15049
2026-01-26 21:41:14.19	307.71	16.71	-30.1	-29.9	17.7	1.90e-06	0	47	0	33596375040	31	14317
2026-01-26 21:41:17.22	308.50	16.46	-30.2	-30.0	17.6	1.90e-06	0	47	0	33931919360	31	14507
2026-01-26 21:41:20.24	309.28	16.21	-30.4	-30.2	17.5	1.90e-06	0	47	0	34275852288	31	14781
2026-01-26 21:41:23.26	310.04	15.96	-30.3	-30.1	17.6	3.80e-06	0	47	0	34619785216	31	14759
2026-01-26 21:41:26.28	310.79	15.70	-30.4	-30.2	17.6	1.90e-06	0	47	0	34955329536	31	14871
2026-01-26 21:41:29.31	311.53	15.45	-30.4	-30.2	17.6	1.33e-05	0	47	0	35290873856	31	14884
2026-01-26 21:41:32.33	312.25	15.19	-30.6	-30.4	17.5	9.50e-06	0	47	0	35626418176	31	15166
2026-01-26 21:41:35.35	312.95	14.94	-30.6	-30.4	17.5	3.80e-06	0	47	0	35978739712	31	15179
2026-01-26 21:41:38.37	313.64	14.68	-30.5	-30.3	17.5	1.90e-06	0	47	0	36314284032	32	14209
2026-01-26 21:41:41.39	314.32	14.43	-30.6	-30.4	17.4	7.60e-06	0	47	0	36649828352	32	14411
2026-01-26 21:41:44.41	314.99	14.17	-30.7	-30.5	17.4	7.60e-06	0	47	0	36993761280	32	14474
2026-01-26 21:41:47.43	315.64	13.92	-30.7	-30.5	17.4	7.60e-06	0	47	0	37329305600	32	14571
2026-01-26 21:41:50.45	316.28	13.67	-30.9	-30.7	17.3	5.70e-06	0	47	0	37673238528	32	14901
2026-01-26 21:41:53.48	316.91	13.41	-30.9	-30.7	17.3	1.33e-05	0	47	0	38017171456	32	14935
2026-01-26 21:41:56.50	317.53	13.16	-31.1	-30.9	17.2	9.50e-06	0	47	0	38352715776	32	15138
2026-01-26 21:41:59.53	318.13	12.91	-54.6	-56.8	6.2	0.00e+00	0	47	104	38470156288	80	18944
2026-01-26 21:42:02.56	318.73	12.65	-54.7	-56.8	6.2	0.00e+00	0	47	104	38470156288	80	18824
2026-01-26 21:42:05.58	319.31	12.40	-54.7	-56.8	6.2	0.00e+00	0	47	104	38470156288	80	18834
2026-01-26 21:42:08.61	319.88	12.15	-54.6	-56.6	6.2	0.00e+00	0	47	104	38470156288	80	18565
2026-01-26 21:42:11.63	320.44	11.90	-54.5	-56.6	6.2	0.00e+00	0	47	104	38470156288	80	18466
2026-01-26 21:42:14.66	320.99	11.66	-54.5	-56.5	6.2	0.00e+00	0	47	104	38470156288	80	18374
2026-01-26 21:42:17.68	321.53	11.41	-54.5	-56.5	6.2	0.00e+00	0	47	104	38470156288	80	18377
2026-01-26 21:42:20.70	322.05	11.17	-54.4	-56.5	6.2	0.00e+00	0	46	104	38470156288	80	18251
2026-01-26 21:42:23.73	322.57	10.92	-54.3	-56.4	6.2	0.00e+00	0	47	104	38470156288	80	18056
2026-01-26 21:42:26.75	323.08	10.68	-54.3	-56.4	6.2	0.00e+00	0	47	104	38470156288	80	18014
2026-01-26 21:42:29.77	323.58	10.44	-54.3	-56.4	6.2	0.00e+00	0	47	104	38470156288	80	18018
2026-01-26 21:42:32.80	324.07	10.20	-54.2	-56.3	6.2	0.00e+00	0	46	104	38470156288	80	17830
2026-01-26 21:42:35.81	324.54	9.96	-54.1	-56.2	6.2	0.00e+00	0	47	104	38470156288	80	17678
2026-01-26 21:42:38.83	325.01	9.72	-54.1	-56.2	6.2	0.00e+00	0	46	104	38470156288	80	17649
2026-01-26 21:42:41.85	325.48	9.49	-54.1	-56.2	6.2	0.00e+00	0	47	104	38470156288	80	17756
2026-01-26 21:42:44.87	325.93	9.25	-54.0	-56.1	6.2	0.00e+00	0	47	104	38470156288	80	17537
2026-01-26 21:42:47.89	326.37	9.02	-54.0	-56.1	6.2	0.00e+00	0	47	104	38470156288	80	17416
2026-01-26 21:42:50.91	326.81	8.79	-54.0	-56.1	6.2	0.00e+00	0	47	104	38470156288	79	18544
2026-01-26 21:42:53.93	327.24	8.56	-54.1	-56.2	6.2	0.00e+00	0	46	104	38470156288	79	18647
2026-01-26 21:42:56.96	327.66	8.33	-54.0	-56.0	6.2	0.00e+00	0	47	104	38470156288	79	18355
2026-01-26 21:42:59.97	328.07	8.11	-53.9	-56.0	6.2	0.00e+00	0	47	104	38470156288	79	18353
2026-01-26 21:43:02.99	328.48	7.88	-53.9	-56.0	6.2	0.00e+00	0	46	104	38470156288	79	18351
2026-01-26 21:43:06.01	328.88	7.66	-54.0	-56.1	6.2	0.00e+00	0	47	104	38470156288	79	18437
2026-01-26 21:43:09.03	329.27	7.44	-53.9	-56.0	6.2	0.00e+00	0	46	104	38470156288	79	18258
2026-01-26 21:43:12.04	329.65	7.22	-53.9	-56.0	6.2	0.00e+00	0	46	104	38470156288	79	18205
2026-01-26 21:43:15.06	330.03	7.00	-53.8	-55.9	6.2	0.00e+00	0	46	104	38470156288	79	18029
2026-01-26 21:43:18.08	330.40	6.78	-53.9	-55.9	6.2	0.00e+00	0	46	104	38470156288	79	18150
2026-01-26 21:43:21.11	330.77	6.56	-53.7	-55.8	6.2	0.00e+00	0	46	104	38470156288	79	17885
2026-01-26 21:43:24.12	331.13	6.35	-53.8	-55.8	6.2	0.00e+00	0	46	104	38470156288	79	17928
2026-01-26 21:43:27.14	331.48	6.14	-53.7	-55.8	6.2	0.00e+00	0	46	104	38470156288	79	17879
2026-01-26 21:43:30.17	331.83	5.93	-53.8	-55.8	6.2	0.00e+00	0	46	104	38470156288	79	17961
2026-01-26 21:43:33.19	332.17	5.72	-53.6	-55.7	6.2	0.00e+00	0	46	104	38470156288	79	17643
2026-01-26 21:43:36.21	332.50	5.51	-53.6	-55.7	6.2	0.00e+00	0	46	104	38470156288	79	17638
2026-01-26 21:43:39.23	332.83	5.30	-53.5	-55.6	6.2	0.00e+00	0	46	104	38470156288	79	17439
2026-01-26 21:43:42.25	333.16	5.10	-53.5	-55.6	6.2	0.00e+00	0	46	104	38470156288	78	18583
2026-01-26 21:43:45.27	333.48	4.89	-54.3	-56.4	6.2	0.00e+00	0	46	104	38470156288	79	19204
2026-01-26 21:43:48.29	333.79	4.69	-54.9	-56.9	6.2	0.00e+00	0	46	104	38470156288	80	19236
2026-01-26 21:43:51.32	334.10	4.49	-55.0	-57.1	6.2	0.00e+00	0	46	104	38470156288	80	19487
2026-01-26 21:43:54.34	334.41	4.29	-54.9	-56.9	6.2	0.00e+00	0	46	104	38470156288	80	19249
2026-01-26 21:43:57.36	334.71	4.09	-54.7	-56.8	6.2	0.00e+00	0	46	104	38470156288	80	18933
2026-01-26 21:44:00.36	335.00	3.89	-54.8	-56.8	6.2	0.00e+00	0	46	104	38470156288	80	18966
2026-01-26 21:44:03.39	335.29	3.70	-54.8	-56.9	6.2	0.00e+00	0	46	104	38470156288	80	19082
2026-01-26 21:44:06.41	335.57	3.50	-54.7	-56.8	6.2	0.00e+00	0	46	104	38470156288	80	18917
2026-01-26 21:44:09.43	335.86	3.31	-54.7	-56.8	6.2	0.00e+00	0	46	104	38470156288	80	18846
2026-01-26 21:44:12.45	336.13	3.12	-54.6	-56.7	6.2	0.00e+00	0	46	104	38470156288	80	18765
2026-01-26 21:44:15.48	336.41	2.92	-54.6	-56.7	6.2	0.00e+00	0	46	104	38470156288	80	18676
2026-01-26 21:44:18.49	336.67	2.74	-54.6	-56.7	6.2	0.00e+00	0	46	104	38470156288	80	18654
2026-01-26 21:44:21.52	336.94	2.55	-54.6	-56.7	6.2	0.00e+00	0	46	104	38470156288	80	18603
2026-01-26 21:44:24.55	337.20	2.36	-54.5	-56.6	6.2	0.00e+00	0	46	104	38470156288	80	18522
2026-01-26 21:44:27.57	337.46	2.17	-54.5	-56.6	6.2	0.00e+00	0	46	104	38470156288	80	18552

#Closed at: 2026-01-26 21:44:30
#Recorded file [38470 MB]: D:/lorett/data/31041_260127_003428.dat