passes_logs/2026/01/26/R3.2S_Murmansk/R3.2S_Murmansk__20260126_140910_AQUA_rec.log

#Pass ID: 20260126_140910_AQUA
#Satellite: AQUA
#Configuration: AQUA
#almurnet v.1.7.20251203
#Start time: 2026-01-26 14:09:12

#Version: 2.2.20231116
#Station: R3.2S_Murmansk
#Location: 33.079688 lon 68.888172 lat
#TLE: 1 27424U 02022A   26025.91340420  .00001969  00000+0  40368-3 0  9991
#TLE: 2 27424  98.4100 352.5253 0001880  65.2649  27.8322 14.61861165262482

#Time	Az	El	Level	Level2	SNR	BER	BlckErr	Temp	State	Recorded	gain1	gain2
2026-01-26 14:09:12.04	229.61	2.10	-55.7	-73.6	3.8	7.47e-01	0	41	0	0	82	29099
2026-01-26 14:09:15.05	229.91	2.26	-56.1	-73.9	3.8	7.44e-01	0	41	104	0	82	30189
2026-01-26 14:09:18.07	230.22	2.41	-55.9	-73.8	3.8	7.46e-01	0	41	104	0	82	29772
2026-01-26 14:09:21.09	230.53	2.57	-55.8	-73.6	3.8	7.44e-01	0	41	104	0	82	29303
2026-01-26 14:09:24.12	230.84	2.72	-55.6	-73.5	3.8	7.45e-01	0	41	104	0	82	28726
2026-01-26 14:09:27.14	231.16	2.88	-55.4	-73.3	3.8	7.43e-01	0	42	104	0	82	28075
2026-01-26 14:09:30.17	231.48	3.03	-55.0	-72.8	3.8	7.48e-01	0	42	104	0	82	26611
2026-01-26 14:09:33.20	231.81	3.19	-54.3	-72.2	3.8	7.46e-01	0	42	104	0	80	27799
2026-01-26 14:09:36.23	232.14	3.34	-54.3	-72.1	3.8	7.49e-01	0	42	104	0	80	27517
2026-01-26 14:09:39.25	232.47	3.50	-54.3	-72.0	3.8	7.44e-01	0	42	104	0	80	27265
2026-01-26 14:09:42.27	232.80	3.66	-54.3	-72.1	3.8	7.49e-01	0	42	104	0	80	27628
2026-01-26 14:09:45.29	233.14	3.81	-54.3	-72.1	3.8	7.45e-01	0	42	104	0	80	27532
2026-01-26 14:09:48.32	233.49	3.97	-54.3	-71.7	3.8	7.46e-01	0	42	104	0	80	26381
2026-01-26 14:09:51.34	233.83	4.13	-54.3	-71.9	3.8	7.46e-01	0	42	104	0	80	26819
2026-01-26 14:09:54.36	234.18	4.29	-54.3	-71.8	3.8	7.47e-01	0	42	104	0	80	26630
2026-01-26 14:09:57.39	234.54	4.44	-54.2	-70.4	3.8	7.45e-01	0	42	104	0	80	22591
2026-01-26 14:10:00.41	234.90	4.60	-54.0	-66.2	5.2	7.02e-01	0	42	0	0	80	13993
2026-01-26 14:10:03.43	235.26	4.76	-53.4	-60.9	9.6	6.27e-01	0	42	0	1572864	78	8494
2026-01-26 14:10:06.46	235.63	4.92	-48.8	-50.9	20.2	6.05e-01	0	42	0	7340032	69	4520
2026-01-26 14:10:09.49	236.00	5.08	-47.6	-49.4	21.8	6.06e-01	0	43	0	13107200	66	4530
2026-01-26 14:10:12.50	236.38	5.23	-49.0	-51.4	19.4	6.07e-01	0	42	0	18350080	70	4521
2026-01-26 14:10:15.52	236.76	5.39	-47.3	-48.9	22.3	6.08e-01	0	43	0	24117248	66	4289
2026-01-26 14:10:18.53	237.14	5.55	-46.9	-48.5	22.7	6.09e-01	0	42	0	29884416	65	4309
2026-01-26 14:10:21.55	237.53	5.71	-47.3	-49.0	22.3	6.05e-01	0	42	0	35651584	65	4557
2026-01-26 14:10:24.57	237.92	5.87	-47.0	-48.7	22.6	6.08e-01	0	42	0	41418752	65	4393
2026-01-26 14:10:27.60	238.32	6.03	-47.0	-48.6	22.7	6.07e-01	0	43	0	46661632	65	4380
2026-01-26 14:10:30.61	238.72	6.18	-46.4	-48.0	23.3	6.07e-01	0	43	0	52428800	64	4292
2026-01-26 14:10:33.63	239.13	6.34	-46.7	-48.3	23.0	6.05e-01	0	43	0	58195968	64	4455
2026-01-26 14:10:36.66	239.54	6.50	-46.6	-48.2	23.1	6.06e-01	0	43	0	63963136	64	4411
2026-01-26 14:10:39.68	239.96	6.66	-46.3	-47.8	23.6	6.04e-01	0	43	0	69730304	64	4202
2026-01-26 14:10:42.71	240.38	6.82	-46.5	-48.0	23.3	6.06e-01	0	43	0	74973184	64	4312
2026-01-26 14:10:45.72	240.80	6.98	-46.6	-48.1	23.2	6.05e-01	0	43	0	80740352	64	4389
2026-01-26 14:10:48.73	241.23	7.13	-46.4	-47.9	23.5	6.08e-01	0	43	0	86507520	63	4496
2026-01-26 14:10:51.75	241.67	7.29	-46.4	-47.9	23.4	6.05e-01	0	43	0	92274688	63	4530
2026-01-26 14:10:54.76	242.11	7.45	-46.3	-47.7	23.6	6.05e-01	0	43	0	98041856	63	4439
2026-01-26 14:10:57.78	242.55	7.60	-46.1	-47.6	23.7	6.06e-01	0	43	0	103284736	64	4099
2026-01-26 14:11:00.79	243.00	7.76	-46.3	-47.7	23.7	6.05e-01	0	43	0	109051904	63	4429
2026-01-26 14:11:03.81	243.46	7.92	-46.3	-47.8	23.6	6.06e-01	0	43	0	114819072	63	4467
2026-01-26 14:11:06.83	243.92	8.07	-46.2	-47.6	23.8	6.07e-01	0	43	0	120061952	63	4373
2026-01-26 14:11:09.85	244.38	8.23	-45.9	-47.3	24.1	6.06e-01	0	43	0	126353408	63	4227
2026-01-26 14:11:12.88	244.86	8.38	-46.1	-47.5	23.9	6.06e-01	0	43	0	131596288	63	4316
2026-01-26 14:11:15.90	245.33	8.54	-46.0	-47.4	24.0	6.06e-01	0	43	0	137363456	63	4268
2026-01-26 14:11:18.92	245.81	8.69	-46.1	-47.5	24.0	6.06e-01	0	43	0	143130624	63	4310
2026-01-26 14:11:21.93	246.30	8.85	-46.0	-47.4	24.0	6.09e-01	0	43	0	148373504	63	4283
2026-01-26 14:11:24.96	246.79	9.00	-45.8	-47.2	24.3	6.06e-01	0	43	0	154664960	63	4162
2026-01-26 14:11:27.97	247.29	9.15	-45.9	-47.3	24.2	6.05e-01	0	43	0	159907840	63	4216
2026-01-26 14:11:30.99	247.79	9.30	-45.8	-47.2	24.3	6.05e-01	0	43	0	165675008	63	4160
2026-01-26 14:11:34.01	248.30	9.45	-45.7	-47.1	24.5	6.06e-01	0	43	0	171442176	63	4103
2026-01-26 14:11:37.03	248.81	9.60	-45.7	-47.0	24.5	6.06e-01	0	43	0	176685056	63	4089
2026-01-26 14:11:40.05	249.33	9.75	-45.7	-47.0	24.5	6.08e-01	0	43	0	182976512	63	4075
2026-01-26 14:11:43.06	249.86	9.90	-45.6	-46.9	24.7	6.06e-01	0	43	0	188219392	63	4031
2026-01-26 14:11:46.08	250.39	10.04	-46.0	-56.9	3.9	7.36e-01	0	43	104	192937984	63	12758
2026-01-26 14:11:49.10	250.92	10.19	-47.8	-58.9	4.0	7.41e-01	0	43	104	192937984	66	13527
2026-01-26 14:11:52.12	251.47	10.33	-50.5	-62.6	3.8	7.43e-01	0	43	104	192937984	71	15501
2026-01-26 14:11:55.15	252.02	10.48	-45.8	-56.7	3.8	7.47e-01	0	43	104	192937984	63	12488
2026-01-26 14:11:58.18	252.57	10.62	-50.0	-61.9	3.7	7.46e-01	0	43	104	192937984	72	13438
2026-01-26 14:12:01.19	253.13	10.76	-45.5	-56.1	4.1	7.34e-01	0	43	104	192937984	63	11604
2026-01-26 14:12:04.21	253.69	10.90	-46.5	-57.5	3.8	7.46e-01	0	43	104	192937984	63	13591
2026-01-26 14:12:07.23	254.26	11.03	-49.3	-60.7	3.9	7.45e-01	0	43	104	192937984	70	13235
2026-01-26 14:12:10.25	254.84	11.17	-45.7	-56.6	3.8	7.46e-01	0	43	104	192937984	63	12367
2026-01-26 14:12:13.27	255.42	11.30	-46.0	-56.9	3.8	7.46e-01	0	43	104	192937984	64	12019
2026-01-26 14:12:16.29	256.00	11.44	-48.8	-60.3	3.8	7.41e-01	0	43	104	192937984	69	13264
2026-01-26 14:12:19.32	256.60	11.57	-45.5	-56.4	3.8	7.45e-01	0	43	104	192937984	63	11956
2026-01-26 14:12:22.35	257.20	11.70	-48.5	-59.8	3.8	7.45e-01	0	43	104	192937984	69	12606
2026-01-26 14:12:25.36	257.80	11.82	-45.7	-56.5	3.8	7.44e-01	0	43	104	192937984	63	12154
2026-01-26 14:12:28.38	258.41	11.95	-45.9	-56.9	3.9	7.44e-01	0	43	104	192937984	63	12743
2026-01-26 14:12:31.40	259.02	12.07	-46.5	-57.4	3.9	7.45e-01	0	43	104	192937984	65	12061
2026-01-26 14:12:34.41	259.64	12.19	-45.5	-56.4	3.8	7.46e-01	0	43	104	192937984	63	12060
2026-01-26 14:12:37.41	260.26	12.31	-46.5	-57.4	3.8	7.45e-01	0	43	104	192937984	65	12082
2026-01-26 14:12:40.43	260.89	12.43	-46.1	-57.1	3.8	7.48e-01	0	43	104	192937984	64	12260
2026-01-26 14:12:43.46	261.52	12.54	-45.8	-56.7	3.8	7.46e-01	0	43	104	192937984	62	13127
2026-01-26 14:12:46.49	262.17	12.65	-47.8	-59.0	3.8	7.43e-01	0	43	104	192937984	67	12858
2026-01-26 14:12:49.51	262.81	12.76	-45.2	-56.1	3.8	7.46e-01	0	43	104	192937984	62	12288
2026-01-26 14:12:52.52	263.46	12.87	-45.7	-56.5	3.8	7.41e-01	0	43	104	192937984	63	12227
2026-01-26 14:12:55.54	264.11	12.97	-45.6	-56.4	3.8	7.48e-01	0	43	104	192937984	62	12706
2026-01-26 14:12:58.57	264.77	13.07	-45.2	-56.1	3.8	7.40e-01	0	43	104	192937984	62	12304
2026-01-26 14:13:01.59	265.44	13.17	-46.5	-57.5	3.8	7.48e-01	0	43	104	192937984	63	13601
2026-01-26 14:13:04.61	266.11	13.26	-46.5	-57.4	3.8	7.43e-01	0	43	104	192937984	65	12082
2026-01-26 14:13:07.64	266.78	13.36	-46.4	-57.3	3.8	7.39e-01	0	43	104	192937984	63	13345
2026-01-26 14:13:10.66	267.46	13.44	-48.8	-60.3	3.8	7.40e-01	0	43	104	192937984	68	14180
2026-01-26 14:13:13.69	268.14	13.53	-45.2	-56.0	3.8	7.45e-01	0	43	104	192937984	62	12102
2026-01-26 14:13:16.71	268.83	13.61	-45.5	-56.3	3.8	7.48e-01	0	43	104	192937984	62	12640
2026-01-26 14:13:19.73	269.51	13.69	-47.1	-58.1	3.8	7.47e-01	0	43	104	192937984	64	13729
2026-01-26 14:13:22.76	270.21	13.77	-45.7	-56.5	3.8	7.44e-01	0	43	104	192937984	63	12233
2026-01-26 14:13:25.77	270.90	13.84	-48.9	-60.3	3.8	7.42e-01	0	43	104	192937984	68	14146
2026-01-26 14:13:28.79	271.60	13.91	-46.1	-57.0	3.8	7.44e-01	0	43	104	192937984	64	12230
2026-01-26 14:13:31.81	272.30	13.97	-46.6	-57.5	3.8	7.42e-01	0	43	104	192937984	63	13706
2026-01-26 14:13:34.83	273.01	14.03	-50.3	-62.2	3.8	7.46e-01	0	43	104	192937984	71	14813
2026-01-26 14:13:37.85	273.72	14.09	-45.7	-56.6	3.8	7.43e-01	0	43	104	192937984	63	12244
2026-01-26 14:13:40.88	274.43	14.15	-46.0	-56.9	3.8	7.42e-01	0	43	104	192937984	62	13496
2026-01-26 14:13:43.90	275.15	14.20	-48.9	-60.4	3.8	7.44e-01	0	43	104	192937984	68	14213
2026-01-26 14:13:46.92	275.86	14.24	-45.6	-56.5	3.8	7.46e-01	0	43	104	192937984	63	12116
2026-01-26 14:13:49.95	276.59	14.29	-51.1	-63.4	3.8	7.42e-01	0	43	104	192937984	72	16036
2026-01-26 14:13:52.96	277.30	14.32	-46.2	-57.1	3.8	7.44e-01	0	43	104	192937984	64	12325
2026-01-26 14:13:55.99	278.03	14.36	-45.2	-56.0	3.8	7.44e-01	0	43	104	192937984	62	12217
2026-01-26 14:13:59.01	278.75	14.39	-51.5	-63.9	3.8	7.44e-01	0	43	104	192937984	73	16004
2026-01-26 14:14:02.04	279.48	14.42	-46.1	-57.1	3.8	7.41e-01	0	43	104	192937984	64	12310
2026-01-26 14:14:05.05	280.20	14.44	-48.3	-59.6	3.8	7.42e-01	0	43	104	192937984	68	13083
2026-01-26 14:14:08.08	280.93	14.46	-47.7	-58.7	3.8	7.39e-01	0	43	104	192937984	65	14012
2026-01-26 14:14:11.10	281.66	14.47	-46.3	-57.3	3.9	7.43e-01	0	44	104	192937984	64	12547
2026-01-26 14:14:14.13	282.40	14.48	-51.0	-63.1	3.8	7.41e-01	0	43	104	192937984	73	14662
2026-01-26 14:14:17.15	283.12	14.49	-46.1	-57.0	3.8	7.45e-01	0	43	104	192937984	64	12128
2026-01-26 14:14:20.17	283.85	14.49	-45.6	-56.4	3.8	7.41e-01	0	43	104	192937984	63	12073
2026-01-26 14:14:23.20	284.59	14.49	-49.5	-61.1	3.8	7.43e-01	0	43	104	192937984	71	12979
2026-01-26 14:14:26.21	285.31	14.48	-45.8	-56.6	3.9	7.47e-01	0	43	104	192937984	63	12364
2026-01-26 14:14:29.24	286.04	14.47	-46.0	-56.8	3.9	7.42e-01	0	43	104	192937984	64	11947
2026-01-26 14:14:32.27	286.78	14.46	-47.4	-58.5	3.8	7.43e-01	0	43	104	192937984	66	12904
2026-01-26 14:14:35.29	287.50	14.44	-45.7	-56.4	3.8	7.43e-01	0	43	104	192937984	63	12076
2026-01-26 14:14:38.31	288.23	14.42	-52.2	-64.9	3.8	7.46e-01	0	43	104	192937984	76	15192
2026-01-26 14:14:41.33	288.95	14.39	-46.1	-57.0	3.8	7.42e-01	0	43	104	192937984	63	12882
2026-01-26 14:14:44.35	289.68	14.36	-45.4	-56.2	3.8	7.43e-01	0	43	104	192937984	62	12451
2026-01-26 14:14:47.36	290.40	14.33	-48.0	-59.3	3.8	7.44e-01	0	43	104	192937984	68	12524
2026-01-26 14:14:50.39	291.12	14.29	-45.8	-56.6	3.8	7.46e-01	0	43	104	192937984	63	12347
2026-01-26 14:14:53.41	291.84	14.25	-45.5	-56.3	3.8	7.43e-01	0	43	104	192937984	63	11820
2026-01-26 14:14:56.44	292.55	14.20	-47.3	-58.3	3.8	7.44e-01	0	43	104	192937984	66	12595
2026-01-26 14:14:59.45	293.27	14.15	-46.4	-57.4	3.9	7.45e-01	0	44	104	192937984	64	12759
2026-01-26 14:15:02.47	293.98	14.10	-51.7	-63.8	3.8	7.43e-01	0	43	104	192937984	73	15872
2026-01-26 14:15:05.50	294.69	14.04	-46.1	-57.0	3.9	7.44e-01	0	43	104	192937984	64	12106
2026-01-26 14:15:08.52	295.39	13.98	-47.4	-58.3	3.8	7.46e-01	0	44	104	192937984	66	12631
2026-01-26 14:15:11.54	296.09	13.91	-46.1	-57.0	3.8	7.45e-01	0	44	104	192937984	63	12832
2026-01-26 14:15:14.56	296.79	13.85	-46.2	-57.0	3.8	7.43e-01	0	44	104	192937984	63	12936
2026-01-26 14:15:17.58	297.49	13.77	-46.7	-57.6	3.8	7.45e-01	0	43	104	192937984	64	13034
2026-01-26 14:15:20.61	298.18	13.70	-46.0	-56.9	3.8	7.44e-01	0	43	104	192937984	64	12037
2026-01-26 14:15:23.64	298.87	13.62	-46.2	-57.1	3.8	7.43e-01	0	43	104	192937984	62	13801
2026-01-26 14:15:26.66	299.55	13.54	-49.4	-60.7	3.9	7.44e-01	0	43	104	192937984	70	13151
2026-01-26 14:15:29.68	300.23	13.45	-46.1	-57.1	3.8	7.44e-01	0	44	104	192937984	64	12310
2026-01-26 14:15:32.71	300.91	13.36	-47.2	-58.2	3.8	7.43e-01	0	43	104	192937984	65	13166
2026-01-26 14:15:35.73	301.58	13.27	-45.6	-56.3	3.8	7.47e-01	0	43	104	192937984	62	12555
2026-01-26 14:15:38.75	302.25	13.18	-45.3	-56.1	3.8	7.48e-01	0	43	104	192937984	62	12372
2026-01-26 14:15:41.77	302.91	13.08	-52.9	-66.4	3.8	7.44e-01	0	43	104	192937984	76	18090
2026-01-26 14:15:44.80	303.57	12.98	-46.4	-57.2	3.8	7.46e-01	0	43	104	192937984	64	12515
2026-01-26 14:15:47.82	304.22	12.88	-45.4	-56.2	3.8	7.46e-01	0	43	104	192937984	62	12477
2026-01-26 14:15:50.85	304.87	12.77	-54.2	-69.7	3.7	7.45e-01	0	43	104	192937984	78	23321
2026-01-26 14:15:53.87	305.51	12.67	-45.5	-56.3	3.8	7.44e-01	0	43	104	192937984	62	12603
2026-01-26 14:15:56.90	306.15	12.55	-47.0	-57.9	3.9	7.44e-01	0	43	104	192937984	64	13566
2026-01-26 14:15:59.92	306.78	12.44	-48.7	-60.4	3.9	7.47e-01	0	43	104	192937984	68	14256
2026-01-26 14:16:02.94	307.41	12.33	-46.0	-57.0	3.8	7.44e-01	0	44	104	192937984	63	12862
2026-01-26 14:16:05.96	308.03	12.21	-48.4	-59.6	3.9	7.43e-01	0	44	104	192937984	67	13875
2026-01-26 14:16:08.98	308.65	12.09	-45.4	-56.2	3.8	7.47e-01	0	43	104	192937984	62	12406
2026-01-26 14:16:12.00	309.26	11.97	-45.8	-56.7	3.8	7.42e-01	0	43	104	192937984	62	13132
2026-01-26 14:16:15.03	309.87	11.84	-48.2	-59.5	3.9	7.45e-01	0	43	104	192937984	68	12854
2026-01-26 14:16:18.05	310.47	11.72	-46.4	-57.2	3.8	7.45e-01	0	43	104	192937984	64	12501
2026-01-26 14:16:21.07	311.07	11.59	-47.0	-58.1	3.8	7.45e-01	0	43	104	192937984	65	13001
2026-01-26 14:16:24.09	311.66	11.46	-49.6	-61.2	3.8	7.46e-01	0	43	104	192937984	69	14743
2026-01-26 14:16:27.11	312.24	11.33	-46.1	-57.0	3.8	7.45e-01	0	43	104	192937984	64	12194
2026-01-26 14:16:30.13	312.82	11.19	-48.4	-59.8	3.9	7.44e-01	0	43	104	192937984	67	14088
2026-01-26 14:16:33.15	313.39	11.06	-45.4	-56.1	3.8	7.45e-01	0	43	104	192937984	62	12369
2026-01-26 14:16:36.18	313.96	10.92	-46.3	-57.3	3.9	7.41e-01	0	43	104	192937984	64	12557
2026-01-26 14:16:39.20	314.53	10.78	-47.6	-58.7	3.8	7.44e-01	0	43	104	192937984	67	12394
2026-01-26 14:16:42.23	315.08	10.64	-47.0	-58.1	3.8	7.46e-01	0	43	104	192937984	65	12991
2026-01-26 14:16:45.25	315.63	10.50	-48.0	-59.0	3.9	7.47e-01	0	43	104	192937984	67	12859
2026-01-26 14:16:48.27	316.18	10.36	-46.5	-57.5	3.8	7.48e-01	0	43	104	192937984	64	12827
2026-01-26 14:16:51.30	316.72	10.22	-45.5	-56.4	3.8	7.47e-01	0	44	104	192937984	62	12720
2026-01-26 14:16:54.32	317.26	10.07	-53.1	-67.5	3.9	7.41e-01	0	43	104	192937984	78	18239
2026-01-26 14:16:57.34	317.79	9.93	-46.8	-57.8	3.8	7.43e-01	0	43	104	192937984	65	12647
2026-01-26 14:17:00.36	318.31	9.78	-46.0	-56.9	3.9	7.45e-01	0	43	104	192937984	64	11981
2026-01-26 14:17:03.39	318.83	9.63	-45.6	-56.5	3.8	7.44e-01	0	43	104	192937984	63	12103
2026-01-26 14:17:06.41	319.34	9.49	-46.2	-57.2	3.8	7.46e-01	0	44	104	192937984	64	12408
2026-01-26 14:17:09.44	319.85	9.34	-47.1	-58.1	3.8	7.44e-01	0	43	104	192937984	64	13749
2026-01-26 14:17:12.47	320.35	9.19	-48.2	-59.4	3.9	7.44e-01	0	43	104	192937984	68	12775
2026-01-26 14:17:15.49	320.85	9.03	-46.1	-57.0	3.8	7.46e-01	0	43	104	192937984	64	12213
2026-01-26 14:17:18.51	321.34	8.88	-49.8	-61.6	3.9	7.43e-01	0	43	104	192937984	71	13743
2026-01-26 14:17:21.54	321.83	8.73	-46.2	-57.1	3.8	7.45e-01	0	43	104	192937984	64	12365
2026-01-26 14:17:24.56	322.31	8.58	-45.8	-56.7	3.8	7.45e-01	0	43	104	192937984	63	12433
2026-01-26 14:17:27.58	322.78	8.42	-46.5	-57.5	3.8	7.43e-01	0	43	104	192937984	63	13648
2026-01-26 14:17:30.60	323.25	8.27	-46.4	-57.4	3.8	7.45e-01	0	44	104	192937984	64	12702
2026-01-26 14:17:33.62	323.71	8.12	-50.2	-61.9	3.8	7.42e-01	0	43	104	192937984	70	15078
2026-01-26 14:17:36.64	324.17	7.96	-46.8	-57.8	3.8	7.43e-01	0	43	104	192937984	65	12605
2026-01-26 14:17:39.67	324.63	7.81	-46.4	-57.4	3.8	7.48e-01	0	44	104	192937984	64	12808
2026-01-26 14:17:42.69	325.08	7.65	-48.6	-60.2	3.8	7.43e-01	0	44	104	192937984	69	13171
2026-01-26 14:17:45.71	325.52	7.49	-47.0	-58.1	3.8	7.40e-01	0	43	104	192937984	65	12982
2026-01-26 14:17:48.73	325.96	7.34	-46.3	-57.3	3.8	7.43e-01	0	43	104	192937984	63	13274
2026-01-26 14:17:51.75	326.39	7.18	-48.4	-59.7	3.8	7.44e-01	0	43	104	192937984	67	13940
2026-01-26 14:17:54.77	326.82	7.03	-46.7	-57.6	3.8	7.45e-01	0	44	104	192937984	65	12324
2026-01-26 14:17:57.80	327.25	6.87	-53.7	-69.8	3.8	7.48e-01	0	44	104	192937984	77	25057
2026-01-26 14:18:00.82	327.67	6.71	-47.1	-58.3	3.8	7.42e-01	0	44	104	192937984	66	12594
2026-01-26 14:18:03.84	328.08	6.56	-47.1	-58.2	3.8	7.48e-01	0	44	104	192937984	64	13992
2026-01-26 14:18:06.86	328.49	6.40	-48.7	-60.2	3.8	7.45e-01	0	43	104	192937984	69	13116
2026-01-26 14:18:09.89	328.90	6.24	-46.8	-57.9	3.8	7.46e-01	0	43	104	192937984	65	12737
2026-01-26 14:18:12.91	329.30	6.08	-46.7	-57.8	3.8	7.45e-01	0	43	104	192937984	64	13284
2026-01-26 14:18:15.94	329.70	5.93	-49.8	-62.0	3.8	7.44e-01	0	43	104	192937984	70	15240
2026-01-26 14:18:18.97	330.09	5.77	-47.0	-48.7	21.8	6.03e-01	0	43	0	195035136	65	4402
2026-01-26 14:18:21.99	330.48	5.61	-46.2	-47.7	22.6	6.02e-01	0	43	0	200802304	64	4186
2026-01-26 14:18:25.00	330.86	5.45	-46.2	-47.8	22.6	6.03e-01	0	43	0	206569472	64	4204
2026-01-26 14:18:28.02	331.24	5.30	-46.0	-47.5	22.9	6.04e-01	0	43	0	211812352	63	4323
2026-01-26 14:18:31.04	331.62	5.14	-46.4	-48.0	22.5	6.03e-01	0	43	0	218103808	63	4568
2026-01-26 14:18:34.06	331.99	4.98	-54.1	-70.8	3.9	7.48e-01	0	43	104	222822400	78	26568
2026-01-26 14:18:37.08	332.35	4.83	-54.8	-72.6	3.8	7.42e-01	0	44	104	222822400	80	29315
2026-01-26 14:18:40.10	332.72	4.67	-55.1	-72.9	3.8	7.43e-01	0	43	104	222822400	80	30126
2026-01-26 14:18:43.13	333.07	4.51	-55.0	-72.9	3.8	7.42e-01	0	44	104	222822400	80	30078
2026-01-26 14:18:46.14	333.43	4.36	-54.8	-72.7	3.8	7.47e-01	0	43	104	222822400	80	29525
2026-01-26 14:18:49.17	333.78	4.20	-55.0	-72.8	3.8	7.43e-01	0	44	104	222822400	80	29895
2026-01-26 14:18:52.20	334.13	4.05	-55.1	-72.9	3.8	7.46e-01	0	43	104	222822400	80	30303
2026-01-26 14:18:55.22	334.47	3.89	-55.1	-72.9	3.8	7.45e-01	0	43	104	222822400	80	30306
2026-01-26 14:18:58.25	334.81	3.73	-55.0	-72.9	3.8	7.46e-01	0	43	104	222822400	80	30038
2026-01-26 14:19:01.26	335.14	3.58	-55.0	-72.8	3.8	7.45e-01	0	43	104	222822400	80	29973
2026-01-26 14:19:04.27	335.47	3.42	-55.0	-72.8	3.8	7.44e-01	0	44	104	222822400	80	29993
2026-01-26 14:19:07.30	335.80	3.27	-55.0	-72.8	3.8	7.45e-01	0	43	104	222822400	80	29848
2026-01-26 14:19:10.33	336.13	3.11	-55.0	-72.8	3.8	7.46e-01	0	43	104	222822400	80	29789
2026-01-26 14:19:13.34	336.45	2.96	-54.9	-72.8	3.8	7.44e-01	0	43	104	222822400	80	29743
2026-01-26 14:19:16.37	336.77	2.81	-54.9	-72.8	3.8	7.44e-01	0	44	104	222822400	80	29830
2026-01-26 14:19:19.40	337.08	2.65	-54.9	-72.8	3.8	7.43e-01	0	44	104	222822400	80	29766
2026-01-26 14:19:22.42	337.39	2.50	-54.9	-72.7	3.8	7.47e-01	0	43	104	222822400	80	29657
2026-01-26 14:19:25.45	337.70	2.35	-54.9	-72.7	3.8	7.47e-01	0	43	104	222822400	80	29642
2026-01-26 14:19:28.47	338.00	2.19	-54.9	-72.7	3.8	7.41e-01	0	44	104	222822400	80	29658
2026-01-26 14:19:31.50	338.30	2.04	-54.9	-72.8	3.8	7.44e-01	0	43	104	222822400	80	29715
2026-01-26 14:19:34.52	338.60	1.89	-54.9	-72.7	3.8	7.46e-01	0	44	104	222822400	80	29682

#Closed at: 2026-01-26 14:19:34
#Recorded file [222 MB]: D:/lorett/data/31041_260126_170911.dat