passes_logs/2026/01/26/R3.2S_Murmansk/R3.2S_Murmansk__20260126_182353_TY-42_rec.log

#Pass ID: 20260126_182353_TY-42
#Satellite: TY-42
#Configuration: TY-42_900M
#almurnet v.1.7.20251203
#Start time: 2026-01-26 18:23:54

#Version: 2.2.20231116
#Station: R3.2S_Murmansk
#Location: 33.079688 lon 68.888172 lat
#TLE: 1 64048U 25103A   26026.63109954  .00008012  00000-0  38191-3 0 09992
#TLE: 2 64048 097.4117 101.8302 0001725 091.3579 298.9652 15.19176186 38587

#Time	Az	El	Level	Level2	SNR	BER	BlckErr	Temp	State	Recorded	gain1	gain2
2026-01-26 18:23:54.10	145.85	1.99	-54.7	-56.8	6.2	0.00e+00	0	49	0	0	80	18968
2026-01-26 18:23:57.11	145.81	2.20	-54.4	-56.5	6.2	0.00e+00	0	50	104	0	80	18290
2026-01-26 18:24:00.13	145.76	2.41	-54.1	-56.2	6.2	0.00e+00	0	50	104	0	80	17763
2026-01-26 18:24:03.15	145.71	2.63	-53.8	-55.9	6.2	0.00e+00	0	50	104	0	79	18152
2026-01-26 18:24:06.17	145.67	2.85	-53.0	-55.1	6.2	0.00e+00	0	50	104	0	78	17450
2026-01-26 18:24:09.19	145.62	3.07	-52.8	-55.0	6.2	0.00e+00	0	51	104	0	77	18188
2026-01-26 18:24:12.21	145.57	3.29	-52.8	-54.9	6.2	0.00e+00	0	51	104	0	77	18080
2026-01-26 18:24:15.23	145.52	3.52	-52.8	-54.9	6.2	0.00e+00	0	51	104	0	77	18084
2026-01-26 18:24:18.25	145.47	3.74	-52.8	-54.9	6.2	0.00e+00	0	51	104	0	77	18147
2026-01-26 18:24:21.28	145.41	3.97	-52.8	-54.9	6.2	0.00e+00	0	51	104	0	77	18134
2026-01-26 18:24:24.30	145.36	4.21	-52.8	-54.9	6.2	0.00e+00	0	51	104	0	77	18086
2026-01-26 18:24:27.33	145.30	4.44	-52.8	-54.9	6.2	0.00e+00	0	51	104	0	77	18089
2026-01-26 18:24:30.34	145.25	4.68	-52.8	-54.9	6.2	0.00e+00	0	51	104	0	77	18096
2026-01-26 18:24:33.37	145.19	4.92	-52.8	-54.9	6.2	0.00e+00	0	52	104	0	77	18022
2026-01-26 18:24:36.39	145.13	5.16	-52.9	-55.0	6.2	0.00e+00	0	52	104	0	77	18260
2026-01-26 18:24:39.40	145.07	5.41	-52.9	-55.0	6.2	0.00e+00	0	52	104	0	77	18338
2026-01-26 18:24:42.43	145.00	5.66	-46.0	-46.3	8.9	0.00e+00	0	52	104	0	64	14166
2026-01-26 18:24:45.45	144.94	5.91	-42.7	-42.7	11.0	0.00e+00	11020	56	0	159383552	57	14089
2026-01-26 18:24:48.47	144.87	6.17	-40.3	-40.3	12.5	2.82e-01	0	55	0	494927872	52	14148
2026-01-26 18:24:51.50	144.80	6.43	-39.4	-39.3	13.1	1.35e-01	0	55	0	830472192	50	14217
2026-01-26 18:24:54.52	144.73	6.69	-37.0	-37.0	13.5	3.43e-02	0	55	0	1182793728	46	13634
2026-01-26 18:24:57.54	144.66	6.96	-36.5	-36.4	13.8	3.40e-02	0	55	0	1518338048	45	13598
2026-01-26 18:25:00.56	144.59	7.23	-36.5	-36.5	13.8	3.00e-02	0	55	0	1853882368	45	13646
2026-01-26 18:25:03.58	144.51	7.50	-36.4	-36.3	13.9	3.11e-02	0	55	0	2197815296	44	14198
2026-01-26 18:25:06.61	144.44	7.78	-36.4	-36.3	13.9	2.82e-02	0	56	0	2541748224	44	14237
2026-01-26 18:25:09.62	144.36	8.06	-36.1	-36.1	14.0	2.42e-02	0	56	0	2877292544	44	13817
2026-01-26 18:25:12.65	144.28	8.35	-36.2	-36.1	14.1	2.42e-02	0	56	0	3221225472	43	14677
2026-01-26 18:25:15.66	144.19	8.64	-36.2	-36.1	14.1	2.22e-02	0	56	0	3556769792	43	14750
2026-01-26 18:25:18.68	144.11	8.93	-35.9	-35.9	14.2	2.05e-02	0	56	0	3892314112	43	14285
2026-01-26 18:25:21.69	144.02	9.23	-35.8	-35.8	14.3	1.77e-02	0	56	0	4227858432	43	14149
2026-01-26 18:25:24.72	143.93	9.54	-35.8	-35.7	14.3	1.59e-02	0	56	0	4580179968	43	14031
2026-01-26 18:25:27.74	143.83	9.84	-35.5	-35.4	14.5	1.56e-02	0	56	0	4915724288	43	13608
2026-01-26 18:25:30.75	143.74	10.16	-35.4	-35.3	14.5	1.29e-02	0	57	0	5251268608	42	14135
2026-01-26 18:25:33.76	143.64	10.48	-35.2	-35.1	14.6	1.19e-02	0	56	0	5595201536	42	13899
2026-01-26 18:25:36.78	143.53	10.80	-35.1	-35.0	14.6	1.15e-02	0	57	0	5930745856	42	13747
2026-01-26 18:25:39.80	143.43	11.13	-34.9	-34.8	14.8	9.32e-03	0	57	0	6274678784	41	14224
2026-01-26 18:25:42.82	143.32	11.47	-34.7	-34.6	14.9	7.59e-03	0	57	0	6618611712	41	13913
2026-01-26 18:25:45.84	143.21	11.81	-34.6	-34.5	14.9	6.17e-03	0	57	0	6954156032	41	13746
2026-01-26 18:25:48.85	143.09	12.16	-34.5	-34.4	14.9	5.68e-03	0	57	0	7289700352	41	13616
2026-01-26 18:25:51.87	142.97	12.51	-34.3	-34.2	15.0	4.63e-03	0	57	0	7625244672	40	14077
2026-01-26 18:25:54.90	142.85	12.88	-34.1	-34.0	15.1	3.91e-03	0	57	0	7969177600	40	13675
2026-01-26 18:25:57.91	142.72	13.24	-34.0	-33.9	15.2	3.83e-03	0	57	0	8313110528	39	14340
2026-01-26 18:26:00.92	142.59	13.62	-33.7	-33.6	15.3	3.26e-03	0	57	0	8648654848	39	13941
2026-01-26 18:26:03.94	142.46	14.00	-33.6	-33.5	15.4	2.44e-03	0	58	0	8992587776	39	13701
2026-01-26 18:26:06.96	142.32	14.40	-33.6	-33.5	15.4	1.73e-03	0	57	0	9328132096	39	13658
2026-01-26 18:26:09.98	142.17	14.80	-33.2	-33.1	15.5	1.62e-03	0	58	0	9663676416	38	13913
2026-01-26 18:26:13.01	142.02	15.21	-33.0	-32.9	15.6	1.45e-03	0	57	0	10015997952	38	13567
2026-01-26 18:26:16.03	141.87	15.62	-32.9	-32.8	15.6	1.25e-03	0	58	0	10351542272	37	14269
2026-01-26 18:26:19.05	141.70	16.05	-32.7	-32.6	15.7	8.53e-04	0	58	0	10687086592	37	13913
2026-01-26 18:26:22.06	141.54	16.48	-32.7	-32.6	15.7	7.91e-04	0	58	0	11022630912	37	13877
2026-01-26 18:26:25.07	141.37	16.93	-32.4	-32.3	15.8	7.01e-04	0	58	0	11366563840	36	14256
2026-01-26 18:26:28.08	141.19	17.38	-32.4	-32.3	15.8	5.43e-04	0	58	0	11702108160	36	14146
2026-01-26 18:26:31.09	141.00	17.85	-32.1	-32.0	15.9	4.96e-04	0	58	0	12037652480	36	13732
2026-01-26 18:26:34.11	140.81	18.33	-29.6	-29.5	15.5	4.10e-04	0	58	0	12389974016	31	13741
2026-01-26 18:26:37.13	140.61	18.82	-29.4	-29.3	15.6	1.54e-03	0	58	0	12725518336	30	14259
2026-01-26 18:26:40.15	140.40	19.32	-29.1	-29.1	15.7	1.17e-03	0	58	0	13061062656	30	13791
2026-01-26 18:26:43.16	140.18	19.83	-28.6	-28.5	15.8	1.04e-03	0	58	0	13396606976	29	13786
2026-01-26 18:26:46.18	139.95	20.36	-28.1	-28.1	15.9	7.82e-04	0	58	0	13740539904	28	13820
2026-01-26 18:26:49.20	139.72	20.90	-27.9	-27.8	16.0	4.20e-04	0	58	0	14084472832	27	14211
2026-01-26 18:26:52.21	139.47	21.46	-27.8	-27.7	16.1	3.05e-04	0	58	0	14420017152	27	13986
2026-01-26 18:26:55.23	139.22	22.03	-27.4	-27.3	16.1	1.48e-04	0	58	0	14763950080	26	14167
2026-01-26 18:26:58.25	138.95	22.61	-27.2	-27.1	16.1	6.67e-05	0	58	0	15099494400	26	13826
2026-01-26 18:27:01.27	138.67	23.22	-27.1	-27.0	16.2	6.67e-05	0	58	0	15435038720	26	13783
2026-01-26 18:27:04.30	138.37	23.84	-26.9	-26.8	16.3	3.81e-05	0	58	0	15770583040	25	14221
2026-01-26 18:27:07.32	138.06	24.48	-26.8	-26.7	16.4	3.81e-05	0	58	0	16122904576	25	14001
2026-01-26 18:27:10.34	137.74	25.13	-26.5	-26.4	16.5	4.29e-05	0	58	0	16458448896	25	13524
2026-01-26 18:27:13.36	137.40	25.81	-26.4	-26.3	16.5	4.76e-05	0	58	0	16793993216	24	14214
2026-01-26 18:27:16.38	137.05	26.50	-26.0	-25.9	16.7	1.90e-05	0	58	0	17137926144	24	13508
2026-01-26 18:27:19.40	136.68	27.22	-25.6	-25.5	16.7	2.86e-05	0	58	0	17481859072	23	13684
2026-01-26 18:27:22.43	136.28	27.96	-25.2	-25.1	16.8	2.38e-05	0	59	0	17817403392	22	13944
2026-01-26 18:27:25.45	135.87	28.72	-25.0	-24.9	16.9	1.43e-05	0	58	0	18161336320	22	13546
2026-01-26 18:27:28.47	135.43	29.51	-24.6	-24.5	16.9	9.50e-06	0	58	0	18496880640	21	13717
2026-01-26 18:27:31.50	134.97	30.32	-24.3	-24.2	17.0	0.00e+00	0	58	0	18832424960	20	14076
2026-01-26 18:27:34.52	134.48	31.16	-24.1	-24.0	17.1	0.00e+00	0	58	0	19184746496	20	13655
2026-01-26 18:27:37.53	133.97	32.02	-24.1	-24.0	17.1	4.70e-06	0	58	0	19520290816	19	14499
2026-01-26 18:27:40.56	133.42	32.91	-23.9	-23.8	17.2	0.00e+00	0	58	0	19855835136	19	14194
2026-01-26 18:27:43.58	132.83	33.83	-23.2	-23.1	17.2	0.00e+00	0	58	0	20191379456	18	13905
2026-01-26 18:27:46.60	132.21	34.77	-22.9	-22.8	17.2	0.00e+00	0	58	0	20535312384	17	14253
2026-01-26 18:27:49.63	131.55	35.76	-22.6	-22.5	17.3	0.00e+00	0	58	0	20879245312	17	13711
2026-01-26 18:27:52.66	130.84	36.77	-22.3	-22.2	17.3	0.00e+00	0	58	0	21214789632	16	13961
2026-01-26 18:27:55.68	130.09	37.81	-22.1	-22.0	17.3	0.00e+00	0	58	0	21558722560	16	13700
2026-01-26 18:27:58.70	129.28	38.88	-21.5	-21.4	17.4	0.00e+00	0	58	0	21902655488	15	13600
2026-01-26 18:28:01.73	128.41	39.99	-21.4	-21.3	17.4	0.00e+00	0	58	0	22238199808	14	14217
2026-01-26 18:28:04.75	127.48	41.13	-21.2	-21.1	17.5	0.00e+00	0	58	0	22582132736	14	13888
2026-01-26 18:28:07.77	126.47	42.30	-20.7	-20.6	17.5	0.00e+00	0	58	0	22917677056	13	13900
2026-01-26 18:28:10.80	125.38	43.50	-20.6	-20.4	17.5	0.00e+00	0	58	0	23253221376	13	13607
2026-01-26 18:28:13.82	124.21	44.74	-20.5	-20.3	17.5	0.00e+00	0	58	0	23605542912	12	14272
2026-01-26 18:28:16.84	122.93	46.00	-20.1	-20.0	17.6	0.00e+00	0	58	0	23941087232	12	13652
2026-01-26 18:28:19.87	121.53	47.30	-20.0	-19.9	17.6	0.00e+00	0	58	0	24276631552	11	14289
2026-01-26 18:28:22.89	120.02	48.61	-19.6	-19.5	17.6	0.00e+00	0	58	0	24612175872	11	13676
2026-01-26 18:28:25.91	118.36	49.95	-19.4	-19.2	17.6	0.00e+00	0	58	0	24964497408	10	14083
2026-01-26 18:28:28.93	116.55	51.30	-19.2	-19.1	17.7	0.00e+00	0	58	0	25300041728	10	13793
2026-01-26 18:28:31.94	114.56	52.66	-18.8	-18.7	17.7	0.00e+00	0	58	0	25635586048	9	13952
2026-01-26 18:28:34.96	112.37	54.03	-18.6	-18.5	17.7	0.00e+00	0	58	0	25979518976	9	13715
2026-01-26 18:28:37.98	109.96	55.39	-18.4	-18.2	17.7	0.00e+00	0	58	0	26315063296	8	14099
2026-01-26 18:28:41.01	107.28	56.74	-18.2	-18.1	17.6	0.00e+00	0	58	0	26667384832	8	13791
2026-01-26 18:28:44.02	104.36	58.04	-18.0	-17.9	17.6	0.00e+00	0	58	0	27002929152	8	13546
2026-01-26 18:28:47.03	101.13	59.31	-18.0	-17.9	17.5	0.00e+00	0	58	0	27338473472	8	13578
2026-01-26 18:28:50.04	97.58	60.50	-18.0	-17.9	17.5	0.00e+00	0	59	0	27674017792	7	14340
2026-01-26 18:28:53.06	93.67	61.62	-17.9	-17.8	17.5	0.00e+00	0	58	0	28009562112	7	14147
2026-01-26 18:28:56.08	89.41	62.63	-17.6	-17.5	17.6	0.00e+00	0	59	0	28353495040	7	13730
2026-01-26 18:28:59.10	84.79	63.51	-17.4	-17.2	17.5	0.00e+00	0	59	0	28697427968	6	14090
2026-01-26 18:29:02.13	79.83	64.24	-17.4	-17.3	17.5	0.00e+00	0	58	0	29032972288	6	14208
2026-01-26 18:29:05.15	74.59	64.79	-17.3	-17.2	17.5	0.00e+00	0	59	0	29376905216	6	14042
2026-01-26 18:29:08.17	69.14	65.15	-17.4	-17.2	17.5	0.00e+00	0	59	0	29712449536	6	14069
2026-01-26 18:29:11.19	63.57	65.31	-17.3	-17.2	17.5	0.00e+00	0	59	0	30047993856	6	13986
2026-01-26 18:29:14.22	57.95	65.25	-17.2	-17.1	17.6	0.00e+00	0	58	0	30400315392	6	13843
2026-01-26 18:29:17.24	52.43	64.98	-17.2	-17.0	17.6	0.00e+00	0	59	0	30735859712	6	13754
2026-01-26 18:29:20.25	47.11	64.51	-17.3	-17.1	17.6	0.00e+00	0	59	0	31071404032	6	13913
2026-01-26 18:29:23.27	42.03	63.86	-17.3	-17.2	17.7	0.00e+00	0	59	0	31406948352	6	14046
2026-01-26 18:29:26.28	37.28	63.05	-17.4	-17.3	17.7	0.00e+00	0	59	0	31750881280	6	14121
2026-01-26 18:29:29.31	32.85	62.09	-17.6	-17.4	17.7	0.00e+00	0	58	0	32094814208	6	14433
2026-01-26 18:29:32.33	28.79	61.02	-17.7	-17.6	17.7	0.00e+00	0	59	0	32430358528	6	14629
2026-01-26 18:29:35.35	25.07	59.86	-17.9	-17.7	17.6	0.00e+00	0	59	0	32774291456	6	14913
2026-01-26 18:29:38.36	21.71	58.63	-18.0	-17.9	17.6	0.00e+00	0	59	0	33109835776	6	15141
2026-01-26 18:29:41.38	18.64	57.33	-18.4	-18.2	17.6	0.00e+00	0	59	0	33445380096	7	14934
2026-01-26 18:29:44.41	15.86	56.00	-18.5	-18.4	17.6	0.00e+00	0	59	0	33797701632	7	15198
2026-01-26 18:29:47.43	13.34	54.65	-18.6	-18.5	17.6	0.00e+00	0	59	0	34133245952	7	15333
2026-01-26 18:29:50.44	11.06	53.29	-18.7	-18.6	17.6	0.00e+00	0	58	0	34468790272	7	15506
2026-01-26 18:29:53.46	8.99	51.93	-18.9	-18.8	17.6	0.00e+00	0	59	0	34804334592	8	15039
2026-01-26 18:29:56.48	7.10	50.58	-19.2	-19.1	17.5	0.00e+00	0	58	0	35148267520	8	15525
2026-01-26 18:29:59.50	5.37	49.24	-19.5	-19.4	17.5	0.00e+00	0	58	0	35492200448	9	15198
2026-01-26 18:30:02.51	3.80	47.92	-19.8	-19.7	17.5	0.00e+00	0	59	0	35836133376	10	14781
2026-01-26 18:30:05.53	2.36	46.62	-20.0	-19.9	17.5	0.00e+00	0	59	0	36171677696	10	15201
2026-01-26 18:30:08.55	1.04	45.35	-20.3	-20.2	17.5	0.00e+00	0	59	0	36507222016	11	14838
2026-01-26 18:30:11.57	359.82	44.10	-20.6	-20.4	17.4	0.00e+00	0	59	0	36842766336	11	15287
2026-01-26 18:30:14.58	358.70	42.89	-20.6	-20.5	17.4	0.00e+00	0	59	0	37178310656	12	14543
2026-01-26 18:30:17.60	357.66	41.71	-20.8	-20.7	17.3	0.00e+00	0	59	0	37530632192	12	14891
2026-01-26 18:30:20.62	356.69	40.56	-21.1	-21.0	17.3	0.00e+00	0	59	0	37866176512	12	15348
2026-01-26 18:30:23.65	355.79	39.44	-21.4	-21.2	17.3	0.00e+00	0	59	0	38201720832	13	14940
2026-01-26 18:30:26.67	354.96	38.36	-21.6	-21.4	17.2	0.00e+00	0	59	0	38545653760	13	15289
2026-01-26 18:30:29.69	354.18	37.31	-21.8	-21.6	17.2	0.00e+00	0	59	0	38881198080	14	14762
2026-01-26 18:30:32.71	353.46	36.29	-22.1	-22.0	17.1	0.00e+00	0	59	0	39233519616	14	15322
2026-01-26 18:30:35.73	352.78	35.30	-22.3	-22.2	17.1	0.00e+00	0	59	0	39569063936	15	14865
2026-01-26 18:30:38.76	352.14	34.33	-22.7	-22.6	17.1	0.00e+00	0	59	0	39904608256	15	15508
2026-01-26 18:30:41.78	351.54	33.41	-23.0	-22.9	17.1	0.00e+00	0	59	0	40240152576	16	15199
2026-01-26 18:30:44.80	350.98	32.51	-23.5	-23.3	17.0	0.00e+00	0	59	0	40575696896	17	15098
2026-01-26 18:30:47.81	350.45	31.64	-23.9	-23.8	16.9	0.00e+00	0	59	0	40928018432	18	15025
2026-01-26 18:30:50.82	349.95	30.79	-24.4	-24.2	16.9	0.00e+00	0	59	0	41263562752	19	14921
2026-01-26 18:30:53.84	349.48	29.97	-54.1	-56.4	6.2	0.00e+00	0	58	104	41582329856	59	60699
2026-01-26 18:30:56.86	349.03	29.18	-54.3	-56.4	6.2	0.00e+00	0	57	104	41582329856	79	19145
2026-01-26 18:30:59.87	348.61	28.41	-54.3	-56.4	6.2	0.00e+00	0	57	104	41582329856	79	19084
2026-01-26 18:31:02.89	348.21	27.66	-54.2	-56.3	6.2	0.00e+00	0	57	104	41582329856	79	19026
2026-01-26 18:31:05.90	347.83	26.94	-54.2	-56.3	6.2	0.00e+00	0	57	104	41582329856	79	19017
2026-01-26 18:31:08.92	347.46	26.24	-54.2	-56.3	6.2	0.00e+00	0	57	104	41582329856	79	18971
2026-01-26 18:31:11.93	347.12	25.56	-54.2	-56.3	6.2	0.00e+00	0	56	104	41582329856	79	18919
2026-01-26 18:31:14.94	346.79	24.89	-54.1	-56.3	6.2	0.00e+00	0	57	104	41582329856	79	18868
2026-01-26 18:31:17.97	346.48	24.25	-54.1	-56.3	6.2	0.00e+00	0	57	104	41582329856	79	18846
2026-01-26 18:31:20.98	346.18	23.62	-54.1	-56.2	6.2	0.00e+00	0	56	104	41582329856	79	18756
2026-01-26 18:31:23.99	345.89	23.01	-54.1	-56.2	6.2	0.00e+00	0	56	104	41582329856	79	18704
2026-01-26 18:31:27.01	345.62	22.42	-54.1	-56.2	6.2	0.00e+00	0	56	104	41582329856	79	18685
2026-01-26 18:31:30.02	345.36	21.84	-54.0	-56.2	6.2	0.00e+00	0	56	104	41582329856	79	18648
2026-01-26 18:31:33.03	345.11	21.28	-54.0	-56.1	6.2	0.00e+00	0	56	104	41582329856	79	18550
2026-01-26 18:31:36.04	344.87	20.74	-54.0	-56.1	6.2	0.00e+00	0	56	104	41582329856	79	18535
2026-01-26 18:31:39.06	344.64	20.20	-54.0	-56.1	6.2	0.00e+00	0	56	104	41582329856	79	18498
2026-01-26 18:31:42.08	344.42	19.68	-54.0	-56.1	6.2	0.00e+00	0	56	104	41582329856	79	18506
2026-01-26 18:31:45.10	344.21	19.18	-53.9	-56.0	6.2	0.00e+00	0	56	104	41582329856	79	18373
2026-01-26 18:31:48.11	344.00	18.68	-53.9	-56.1	6.2	0.00e+00	0	56	104	41582329856	79	18409
2026-01-26 18:31:51.13	343.81	18.20	-53.9	-56.0	6.2	0.00e+00	0	56	104	41582329856	79	18281
2026-01-26 18:31:54.15	343.62	17.73	-53.9	-56.0	6.2	0.00e+00	0	55	104	41582329856	79	18210
2026-01-26 18:31:57.16	343.44	17.27	-53.8	-56.0	6.2	0.00e+00	0	55	104	41582329856	79	18210
2026-01-26 18:32:00.18	343.26	16.82	-53.8	-56.0	6.2	0.00e+00	0	55	104	41582329856	79	18218
2026-01-26 18:32:03.20	343.09	16.38	-53.8	-56.0	6.2	0.00e+00	0	55	104	41582329856	79	18194
2026-01-26 18:32:06.21	342.93	15.95	-53.8	-55.9	6.2	0.00e+00	0	55	104	41582329856	79	18168
2026-01-26 18:32:09.23	342.78	15.53	-53.8	-55.9	6.2	0.00e+00	0	55	104	41582329856	79	18006
2026-01-26 18:32:12.25	342.62	15.12	-53.8	-55.9	6.2	0.00e+00	0	55	104	41582329856	79	18063
2026-01-26 18:32:15.26	342.48	14.72	-53.7	-55.8	6.2	0.00e+00	0	55	104	41582329856	79	17944
2026-01-26 18:32:18.28	342.34	14.32	-53.7	-55.9	6.2	0.00e+00	0	55	104	41582329856	79	17998
2026-01-26 18:32:21.30	342.20	13.93	-53.7	-55.8	6.2	0.00e+00	0	55	104	41582329856	79	17888
2026-01-26 18:32:24.32	342.07	13.55	-53.7	-55.7	6.2	0.00e+00	0	55	104	41582329856	79	17761
2026-01-26 18:32:27.33	341.94	13.18	-53.6	-55.7	6.2	0.00e+00	0	55	104	41582329856	79	17761
2026-01-26 18:32:30.35	341.82	12.82	-53.6	-55.8	6.2	0.00e+00	0	55	104	41582329856	79	17788
2026-01-26 18:32:33.36	341.70	12.46	-53.6	-55.7	6.2	0.00e+00	0	55	104	41582329856	79	17741
2026-01-26 18:32:36.38	341.58	12.11	-53.6	-55.7	6.2	0.00e+00	0	55	104	41582329856	79	17691
2026-01-26 18:32:39.41	341.47	11.76	-53.6	-55.7	6.2	0.00e+00	0	55	104	41582329856	79	17610
2026-01-26 18:32:42.42	341.36	11.43	-53.5	-55.6	6.2	0.00e+00	0	55	104	41582329856	79	17559
2026-01-26 18:32:45.44	341.25	11.09	-53.5	-55.7	6.2	0.00e+00	0	55	104	41582329856	79	17568
2026-01-26 18:32:48.45	341.15	10.77	-53.5	-55.6	6.2	0.00e+00	0	55	104	41582329856	78	18416
2026-01-26 18:32:51.48	341.05	10.44	-53.4	-55.6	6.2	0.00e+00	0	55	104	41582329856	78	18440
2026-01-26 18:32:54.50	340.95	10.13	-53.4	-55.6	6.2	0.00e+00	0	55	104	41582329856	78	18498
2026-01-26 18:32:57.51	340.86	9.82	-53.4	-55.5	6.2	0.00e+00	0	55	104	41582329856	78	18356
2026-01-26 18:33:00.53	340.77	9.51	-53.4	-55.5	6.2	0.00e+00	0	55	104	41582329856	78	18246
2026-01-26 18:33:03.56	340.68	9.21	-53.3	-55.5	6.2	0.00e+00	0	55	104	41582329856	78	18198
2026-01-26 18:33:06.57	340.59	8.91	-53.4	-55.5	6.2	0.00e+00	0	55	104	41582329856	78	18253
2026-01-26 18:33:09.59	340.51	8.62	-53.3	-55.5	6.2	0.00e+00	0	55	104	41582329856	78	18195
2026-01-26 18:33:12.61	340.43	8.33	-53.2	-55.3	6.2	0.00e+00	0	55	104	41582329856	78	17970
2026-01-26 18:33:15.63	340.35	8.05	-53.2	-55.4	6.2	0.00e+00	0	55	104	41582329856	78	17973
2026-01-26 18:33:18.65	340.27	7.77	-53.2	-55.4	6.2	0.00e+00	0	55	104	41582329856	78	17985
2026-01-26 18:33:21.67	340.20	7.50	-53.2	-55.4	6.2	0.00e+00	0	55	104	41582329856	78	17990
2026-01-26 18:33:24.68	340.13	7.22	-53.1	-55.3	6.2	0.00e+00	0	55	104	41582329856	78	17787
2026-01-26 18:33:27.70	340.06	6.96	-53.1	-55.2	6.2	0.00e+00	0	55	104	41582329856	78	17759
2026-01-26 18:33:30.73	339.99	6.69	-53.1	-55.3	6.2	0.00e+00	0	55	104	41582329856	78	17802
2026-01-26 18:33:33.74	339.92	6.43	-53.1	-55.2	6.2	0.00e+00	0	55	104	41582329856	78	17741
2026-01-26 18:33:36.76	339.85	6.17	-52.9	-55.1	6.2	0.00e+00	0	55	104	41582329856	77	18399
2026-01-26 18:33:39.77	339.79	5.92	-52.9	-55.1	6.2	0.00e+00	0	55	104	41582329856	77	18435
2026-01-26 18:33:42.80	339.73	5.67	-53.0	-55.1	6.2	0.00e+00	0	55	104	41582329856	77	18410
2026-01-26 18:33:45.82	339.67	5.42	-53.0	-55.1	6.2	0.00e+00	0	55	104	41582329856	77	18526
2026-01-26 18:33:48.83	339.61	5.18	-52.8	-54.9	6.2	0.00e+00	0	55	104	41582329856	77	18032
2026-01-26 18:33:51.86	339.55	4.94	-52.7	-54.8	6.2	0.00e+00	0	55	104	41582329856	77	17883
2026-01-26 18:33:54.88	339.50	4.70	-49.0	-51.2	6.2	0.00e+00	0	55	104	41582329856	70	17605
2026-01-26 18:33:57.90	339.44	4.46	-49.0	-51.2	6.2	0.00e+00	0	55	104	41582329856	70	17567
2026-01-26 18:34:00.91	339.39	4.23	-49.0	-51.2	6.2	0.00e+00	0	55	104	41582329856	70	17573
2026-01-26 18:34:03.93	339.34	4.00	-49.0	-51.2	6.2	0.00e+00	0	55	104	41582329856	70	17592
2026-01-26 18:34:06.95	339.28	3.77	-49.0	-51.1	6.2	0.00e+00	0	55	104	41582329856	70	17519
2026-01-26 18:34:09.96	339.24	3.54	-49.0	-51.1	6.2	0.00e+00	0	55	104	41582329856	70	17480
2026-01-26 18:34:12.97	339.19	3.32	-49.0	-51.1	6.2	0.00e+00	0	55	104	41582329856	70	17553
2026-01-26 18:34:16.00	339.14	3.10	-49.0	-51.1	6.2	0.00e+00	0	55	104	41582329856	70	17482
2026-01-26 18:34:19.01	339.09	2.88	-49.0	-51.1	6.2	0.00e+00	0	55	104	41582329856	70	17539
2026-01-26 18:34:22.04	339.05	2.66	-49.0	-51.1	6.2	0.00e+00	0	55	104	41582329856	70	17492
2026-01-26 18:34:25.06	339.01	2.45	-49.0	-51.1	6.2	0.00e+00	0	55	104	41582329856	70	17495
2026-01-26 18:34:28.08	338.96	2.24	-49.0	-51.1	6.2	0.00e+00	0	55	104	41582329856	70	17553
2026-01-26 18:34:31.10	338.92	2.03	-49.0	-51.2	6.2	0.00e+00	0	55	104	41582329856	70	17572

#Closed at: 2026-01-26 18:34:31
#Recorded file [41582 MB]: D:/lorett/data/31041_260126_212353.dat