passes_logs/2026/01/26/R3.2S_Murmansk/R3.2S_Murmansk__20260126_092732_ZKF01_rec.log

#Pass ID: 20260126_092732_ZKF01
#Satellite: ZKF01
#Configuration: ZKF01
#almurnet v.1.7.20251203
#Start time: 2026-01-26 09:27:33

#Version: 2.2.20231116
#Station: R3.2S_Murmansk
#Location: 33.079688 lon 68.888172 lat
#TLE: 1 61240U 24174C   26025.65656009  .00009627  00000-0  43404-3 0  9995
#TLE: 2 61240  97.4467  35.5131 0010940 352.4451   7.6618 15.21186723 74036

#Time	Az	El	Level	Level2	SNR	BER	BlckErr	Temp	State	Recorded	gain1	gain2
2026-01-26 09:27:33.93	43.31	2.09	-50.1	-51.9	3.6	0.00e+00	0	46	0	0	70	19210
2026-01-26 09:27:35.94	43.06	2.20	-50.1	-51.9	3.7	0.00e+00	0	46	104	0	70	19219
2026-01-26 09:27:37.96	42.81	2.31	-50.1	-51.9	3.7	0.00e+00	0	46	104	0	70	19153
2026-01-26 09:27:39.97	42.56	2.41	-50.1	-51.9	3.7	0.00e+00	0	47	104	0	70	19123
2026-01-26 09:27:41.99	42.30	2.52	-50.1	-51.9	3.7	0.00e+00	0	47	104	0	70	19140
2026-01-26 09:27:44.00	42.04	2.62	-50.1	-51.9	3.7	0.00e+00	0	47	104	0	70	19164
2026-01-26 09:27:46.02	41.78	2.73	-50.1	-51.9	3.7	0.00e+00	0	47	104	0	70	19142
2026-01-26 09:27:48.04	41.52	2.83	-50.1	-51.9	3.7	0.00e+00	0	47	104	0	70	19166
2026-01-26 09:27:50.05	41.25	2.94	-50.1	-51.9	3.7	0.00e+00	0	47	104	0	70	19196
2026-01-26 09:27:52.07	40.98	3.05	-50.1	-51.9	3.7	0.00e+00	0	47	104	0	70	19173
2026-01-26 09:27:54.08	40.71	3.15	-50.1	-51.9	3.7	0.00e+00	0	47	104	0	70	19071
2026-01-26 09:27:56.10	40.44	3.26	-50.1	-51.9	3.7	0.00e+00	0	47	104	0	70	19213
2026-01-26 09:27:58.11	40.16	3.36	-50.1	-51.9	3.7	0.00e+00	0	47	104	0	70	19191
2026-01-26 09:28:00.13	39.88	3.47	-50.1	-51.9	3.7	0.00e+00	0	48	104	0	70	19182
2026-01-26 09:28:02.14	39.60	3.58	-50.1	-51.9	3.7	0.00e+00	0	48	104	0	70	19178
2026-01-26 09:28:04.16	39.32	3.68	-50.1	-51.9	3.7	0.00e+00	0	48	104	0	70	19119
2026-01-26 09:28:06.17	39.03	3.79	-50.1	-51.9	3.7	0.00e+00	0	48	104	0	70	19194
2026-01-26 09:28:08.19	38.74	3.90	-50.1	-51.9	3.7	0.00e+00	0	48	104	0	70	19156
2026-01-26 09:28:10.20	38.45	4.00	-50.1	-51.9	3.7	0.00e+00	0	48	104	0	70	19192
2026-01-26 09:28:12.21	38.16	4.11	-50.1	-51.9	3.7	0.00e+00	0	48	104	0	70	19151
2026-01-26 09:28:14.23	37.86	4.21	-50.1	-51.9	3.7	0.00e+00	0	48	104	0	70	19195
2026-01-26 09:28:16.24	37.56	4.32	-50.1	-51.9	3.7	0.00e+00	0	48	104	0	70	19107
2026-01-26 09:28:18.26	37.25	4.43	-50.1	-51.9	3.7	0.00e+00	0	48	104	0	70	19182
2026-01-26 09:28:20.28	36.95	4.53	-50.1	-51.9	3.7	0.00e+00	0	48	104	0	70	19128
2026-01-26 09:28:22.29	36.64	4.64	-50.1	-51.9	3.7	0.00e+00	0	48	104	0	70	19185
2026-01-26 09:28:24.30	36.33	4.74	-50.1	-51.9	3.7	0.00e+00	0	48	104	0	70	19161
2026-01-26 09:28:26.31	36.02	4.85	-50.1	-51.9	3.7	0.00e+00	0	48	104	0	70	19248
2026-01-26 09:28:28.32	35.70	4.95	-50.1	-51.9	3.7	0.00e+00	0	48	104	0	70	19184
2026-01-26 09:28:30.34	35.38	5.06	-50.1	-51.9	3.7	0.00e+00	0	48	104	0	70	19146
2026-01-26 09:28:32.35	35.05	5.16	-50.1	-51.9	3.7	0.00e+00	0	49	104	0	70	19141
2026-01-26 09:28:34.37	34.73	5.27	-50.1	-51.9	3.7	0.00e+00	0	48	104	0	70	19152
2026-01-26 09:28:36.39	34.40	5.37	-50.1	-51.9	3.7	0.00e+00	0	49	104	0	70	19223
2026-01-26 09:28:38.41	34.06	5.48	-50.1	-51.9	3.7	0.00e+00	0	49	104	0	70	19178
2026-01-26 09:28:40.42	33.73	5.58	-50.1	-51.9	3.7	0.00e+00	0	49	104	0	70	19208
2026-01-26 09:28:42.43	33.39	5.69	-50.1	-51.9	3.7	0.00e+00	0	49	104	0	70	19164
2026-01-26 09:28:44.45	33.05	5.79	-50.1	-51.9	3.7	0.00e+00	0	49	104	0	70	19187
2026-01-26 09:28:46.46	32.70	5.89	-50.1	-51.9	3.7	0.00e+00	0	49	104	0	70	19189
2026-01-26 09:28:48.48	32.36	6.00	-50.1	-51.9	3.7	0.00e+00	0	49	104	0	70	19192
2026-01-26 09:28:50.49	32.01	6.10	-50.1	-51.9	3.7	0.00e+00	0	49	104	0	70	19214
2026-01-26 09:28:52.51	31.65	6.20	-50.1	-51.9	3.7	0.00e+00	0	49	104	0	70	19163
2026-01-26 09:28:54.53	31.29	6.31	-50.1	-51.9	3.7	0.00e+00	0	49	104	0	70	19172
2026-01-26 09:28:56.54	30.93	6.41	-50.1	-51.9	3.7	0.00e+00	0	49	104	0	70	19151
2026-01-26 09:28:58.57	30.57	6.51	-50.1	-51.9	3.7	0.00e+00	0	49	104	0	70	19198
2026-01-26 09:29:00.58	30.20	6.61	-50.1	-51.9	3.7	0.00e+00	0	49	104	0	70	19205
2026-01-26 09:29:02.59	29.83	6.71	-50.1	-51.9	3.7	0.00e+00	0	49	104	0	70	19191
2026-01-26 09:29:04.61	29.46	6.81	-50.1	-51.9	3.7	0.00e+00	0	49	104	0	70	19173
2026-01-26 09:29:06.63	29.08	6.91	-50.1	-51.9	3.7	0.00e+00	0	49	104	0	70	19192
2026-01-26 09:29:08.64	28.70	7.01	-50.1	-51.9	3.7	0.00e+00	0	49	104	0	70	19137
2026-01-26 09:29:10.66	28.31	7.11	-50.1	-51.9	3.7	0.00e+00	0	49	104	0	70	19196
2026-01-26 09:29:12.68	27.93	7.21	-50.1	-51.9	3.7	0.00e+00	0	49	104	0	70	19200
2026-01-26 09:29:14.70	27.54	7.31	-50.1	-51.9	3.7	0.00e+00	0	49	104	0	70	19233
2026-01-26 09:29:16.71	27.14	7.41	-50.1	-51.9	3.7	0.00e+00	0	49	104	0	70	19169
2026-01-26 09:29:18.73	26.75	7.50	-50.1	-51.9	3.7	0.00e+00	0	49	104	0	70	19189
2026-01-26 09:29:20.75	26.34	7.60	-50.1	-51.9	3.7	0.00e+00	0	49	104	0	70	19242
2026-01-26 09:29:22.77	25.94	7.70	-50.1	-51.9	3.7	0.00e+00	0	49	104	0	70	19121
2026-01-26 09:29:24.78	25.53	7.79	-50.1	-51.9	3.7	0.00e+00	0	50	104	0	70	19172
2026-01-26 09:29:26.80	25.12	7.89	-50.1	-51.9	3.7	0.00e+00	0	49	104	0	70	19146
2026-01-26 09:29:28.81	24.71	7.98	-50.1	-51.9	3.7	0.00e+00	0	49	104	0	70	19194
2026-01-26 09:29:30.82	24.30	8.07	-50.1	-51.9	3.7	0.00e+00	0	49	104	0	70	19106
2026-01-26 09:29:32.84	23.87	8.16	-50.1	-51.9	3.7	0.00e+00	0	49	104	0	70	19203
2026-01-26 09:29:34.86	23.45	8.26	-50.1	-51.9	3.7	0.00e+00	0	49	104	0	70	19157
2026-01-26 09:29:36.88	23.02	8.35	-50.1	-51.9	3.7	0.00e+00	0	49	104	0	70	19192
2026-01-26 09:29:38.89	22.59	8.44	-50.1	-51.9	3.7	0.00e+00	0	50	104	0	70	19211
2026-01-26 09:29:40.91	22.16	8.53	-50.1	-51.9	3.7	0.00e+00	0	49	104	0	70	19182
2026-01-26 09:29:42.92	21.72	8.61	-50.1	-51.9	3.7	0.00e+00	0	49	104	0	70	19164
2026-01-26 09:29:44.93	21.28	8.70	-50.1	-51.9	3.7	0.00e+00	0	49	104	0	70	19157
2026-01-26 09:29:46.95	20.84	8.79	-50.1	-51.9	3.7	0.00e+00	0	49	104	0	70	19176
2026-01-26 09:29:48.97	20.39	8.87	-50.1	-51.9	3.7	0.00e+00	0	49	104	0	70	19177
2026-01-26 09:29:50.99	19.94	8.96	-50.1	-51.9	3.7	0.00e+00	0	50	104	0	70	19160
2026-01-26 09:29:53.00	19.49	9.04	-50.1	-51.9	3.7	0.00e+00	0	49	104	0	70	19178
2026-01-26 09:29:55.02	19.03	9.12	-50.1	-51.9	3.7	0.00e+00	0	50	104	0	70	19196
2026-01-26 09:29:57.03	18.58	9.20	-50.1	-51.9	3.7	0.00e+00	0	49	104	0	70	19175
2026-01-26 09:29:59.05	18.11	9.28	-50.1	-51.9	3.7	0.00e+00	0	49	104	0	70	19135
2026-01-26 09:30:01.07	17.65	9.36	-50.1	-51.9	3.7	0.00e+00	0	50	104	0	70	19221
2026-01-26 09:30:03.08	17.18	9.43	-50.1	-51.9	3.7	0.00e+00	0	50	104	0	70	19162
2026-01-26 09:30:05.10	16.71	9.51	-50.1	-51.9	3.7	0.00e+00	0	50	104	0	70	19206
2026-01-26 09:30:07.11	16.23	9.59	-50.1	-51.9	3.7	0.00e+00	0	50	104	0	70	19215
2026-01-26 09:30:09.13	15.75	9.66	-50.1	-51.9	3.7	0.00e+00	0	49	104	0	70	19198
2026-01-26 09:30:11.14	15.28	9.73	-50.1	-51.9	3.7	0.00e+00	0	50	104	0	70	19190
2026-01-26 09:30:13.15	14.79	9.80	-50.1	-51.9	3.7	0.00e+00	0	50	104	0	70	19190
2026-01-26 09:30:15.16	14.31	9.87	-50.1	-51.9	3.7	0.00e+00	0	49	104	0	70	19200
2026-01-26 09:30:17.18	13.82	9.94	-50.1	-51.9	3.7	0.00e+00	0	50	104	0	70	19148
2026-01-26 09:30:19.19	13.33	10.00	-50.1	-51.9	3.7	0.00e+00	0	49	104	0	70	19133
2026-01-26 09:30:21.20	12.84	10.07	-50.1	-51.9	3.7	0.00e+00	0	50	104	0	70	19193
2026-01-26 09:30:23.21	12.34	10.13	-50.1	-51.9	3.7	0.00e+00	0	50	104	0	70	19191
2026-01-26 09:30:25.23	11.84	10.19	-50.1	-51.9	3.7	0.00e+00	0	50	104	0	70	19179
2026-01-26 09:30:27.23	11.34	10.25	-50.1	-51.9	3.7	0.00e+00	0	50	104	0	70	19165
2026-01-26 09:30:29.25	10.84	10.31	-50.1	-51.9	3.7	0.00e+00	0	50	104	0	70	19168
2026-01-26 09:30:31.27	10.33	10.37	-50.1	-51.9	3.7	0.00e+00	0	50	104	0	70	19209
2026-01-26 09:30:33.28	9.82	10.42	-50.1	-51.9	3.7	0.00e+00	0	50	104	0	70	19189
2026-01-26 09:30:35.29	9.31	10.48	-50.1	-51.9	3.7	0.00e+00	0	50	104	0	70	19178
2026-01-26 09:30:37.31	8.79	10.53	-50.1	-51.9	3.7	0.00e+00	0	49	104	0	70	19224
2026-01-26 09:30:39.33	8.28	10.58	-50.1	-51.9	3.7	0.00e+00	0	50	104	0	70	19198
2026-01-26 09:30:41.34	7.76	10.62	-50.1	-51.9	3.7	0.00e+00	0	50	104	0	70	19200
2026-01-26 09:30:43.36	7.24	10.67	-50.1	-51.9	3.7	0.00e+00	0	50	104	0	70	19183
2026-01-26 09:30:45.37	6.72	10.72	-50.1	-51.9	3.7	0.00e+00	0	50	104	0	70	19172
2026-01-26 09:30:47.39	6.19	10.76	-50.1	-51.9	3.7	0.00e+00	0	50	104	0	70	19184
2026-01-26 09:30:49.41	5.66	10.80	-50.1	-51.9	3.7	0.00e+00	0	50	104	0	70	19142
2026-01-26 09:30:51.43	5.14	10.84	-50.1	-51.9	3.7	0.00e+00	0	50	104	0	70	19214
2026-01-26 09:30:53.45	4.61	10.87	-50.1	-51.9	3.7	0.00e+00	0	50	104	0	70	19150
2026-01-26 09:30:55.46	4.08	10.91	-50.1	-51.9	3.7	0.00e+00	0	50	104	0	70	19191
2026-01-26 09:30:57.48	3.54	10.94	-50.1	-51.9	3.7	0.00e+00	0	50	104	0	70	19198
2026-01-26 09:30:59.49	3.01	10.97	-50.1	-51.9	3.7	0.00e+00	0	50	104	0	70	19176
2026-01-26 09:31:01.51	2.47	11.00	-50.1	-51.9	3.7	0.00e+00	0	50	104	0	70	19214
2026-01-26 09:31:03.52	1.94	11.03	-50.1	-51.9	3.7	0.00e+00	0	50	104	0	70	19174
2026-01-26 09:31:05.54	1.40	11.05	-50.1	-51.9	3.7	0.00e+00	0	50	104	0	70	19213
2026-01-26 09:31:07.56	0.86	11.08	-50.1	-51.9	3.7	0.00e+00	0	50	104	0	70	19208
2026-01-26 09:31:09.58	0.32	11.10	-50.1	-51.9	3.7	0.00e+00	0	50	104	0	70	19172
2026-01-26 09:31:11.60	359.78	11.12	-50.1	-51.9	3.7	0.00e+00	0	50	104	0	70	19186
2026-01-26 09:31:13.62	359.24	11.13	-50.1	-51.9	3.7	0.00e+00	0	50	104	0	70	19164
2026-01-26 09:31:15.63	358.70	11.15	-50.1	-51.9	3.7	0.00e+00	0	50	104	0	70	19178
2026-01-26 09:31:17.65	358.15	11.16	-50.1	-51.9	3.7	0.00e+00	0	50	104	0	70	19197
2026-01-26 09:31:19.67	357.61	11.17	-50.1	-51.9	3.7	0.00e+00	0	50	104	0	70	19211
2026-01-26 09:31:21.68	357.07	11.18	-50.1	-51.9	3.7	0.00e+00	0	50	104	0	70	19193
2026-01-26 09:31:23.69	356.52	11.18	-50.1	-51.9	3.7	0.00e+00	0	50	104	0	70	19208
2026-01-26 09:31:25.71	355.98	11.19	-50.1	-51.9	3.7	0.00e+00	0	50	104	0	70	19203
2026-01-26 09:31:27.73	355.43	11.19	-50.1	-51.9	3.7	0.00e+00	0	50	104	0	70	19164
2026-01-26 09:31:29.74	354.89	11.19	-50.1	-51.9	3.7	0.00e+00	0	50	104	0	70	19232
2026-01-26 09:31:31.76	354.35	11.18	-50.1	-51.9	3.7	0.00e+00	0	50	104	0	70	19172
2026-01-26 09:31:33.77	353.80	11.18	-50.1	-51.9	3.7	0.00e+00	0	50	104	0	70	19227
2026-01-26 09:31:35.78	353.26	11.17	-50.1	-51.9	3.7	0.00e+00	0	50	104	0	70	19217
2026-01-26 09:31:37.80	352.72	11.16	-50.1	-51.9	3.7	0.00e+00	0	50	104	0	70	19163
2026-01-26 09:31:39.82	352.17	11.15	-50.1	-51.9	3.7	0.00e+00	0	50	104	0	70	19208
2026-01-26 09:31:41.83	351.63	11.14	-50.1	-51.9	3.7	0.00e+00	0	50	104	0	70	19177
2026-01-26 09:31:43.84	351.09	11.12	-50.1	-51.9	3.7	0.00e+00	0	50	104	0	70	19173
2026-01-26 09:31:45.87	350.55	11.11	-50.1	-51.9	3.7	0.00e+00	0	50	104	0	70	19159
2026-01-26 09:31:47.88	350.01	11.09	-50.1	-51.9	3.7	0.00e+00	0	50	104	0	70	19146
2026-01-26 09:31:49.89	349.48	11.07	-50.1	-51.9	3.7	0.00e+00	0	50	104	0	70	19217
2026-01-26 09:31:51.91	348.94	11.04	-50.1	-51.9	3.7	0.00e+00	0	50	104	0	70	19189
2026-01-26 09:31:53.93	348.40	11.02	-50.1	-51.9	3.7	0.00e+00	0	50	104	0	70	19207
2026-01-26 09:31:55.94	347.87	10.99	-50.1	-51.9	3.7	0.00e+00	0	50	104	0	70	19166
2026-01-26 09:31:57.95	347.33	10.96	-50.1	-51.9	3.7	0.00e+00	0	50	104	0	70	19202
2026-01-26 09:31:59.97	346.80	10.93	-50.1	-51.9	3.7	0.00e+00	0	50	104	0	70	19224
2026-01-26 09:32:01.99	346.27	10.89	-50.1	-51.9	3.7	0.00e+00	0	50	104	0	70	19177
2026-01-26 09:32:04.00	345.74	10.86	-50.1	-52.0	3.7	0.00e+00	0	50	104	0	70	19296
2026-01-26 09:32:06.02	345.21	10.82	-50.1	-51.9	3.7	0.00e+00	0	50	104	0	70	19217
2026-01-26 09:32:08.03	344.69	10.78	-50.1	-51.9	3.7	0.00e+00	0	50	104	0	70	19221
2026-01-26 09:32:10.05	344.16	10.74	-50.1	-51.9	3.7	0.00e+00	0	50	104	0	70	19210
2026-01-26 09:32:12.07	343.64	10.70	-50.1	-51.9	3.7	0.00e+00	0	50	104	0	70	19205
2026-01-26 09:32:14.08	343.12	10.65	-50.1	-51.9	3.7	0.00e+00	0	50	104	0	70	19171
2026-01-26 09:32:16.10	342.60	10.60	-50.1	-51.9	3.7	0.00e+00	0	50	104	0	70	19146
2026-01-26 09:32:18.12	342.08	10.55	-50.1	-51.9	3.7	0.00e+00	0	50	104	0	70	19203
2026-01-26 09:32:20.13	341.57	10.50	-50.1	-51.9	3.7	0.00e+00	0	50	104	0	70	19148
2026-01-26 09:32:22.14	341.06	10.45	-50.1	-51.9	3.7	0.00e+00	0	50	104	0	70	19206
2026-01-26 09:32:24.16	340.55	10.40	-50.1	-51.9	3.7	0.00e+00	0	50	104	0	70	19248
2026-01-26 09:32:26.18	340.04	10.34	-50.1	-51.9	3.7	0.00e+00	0	50	104	0	70	19198
2026-01-26 09:32:28.19	339.53	10.28	-50.1	-51.9	3.7	0.00e+00	0	50	104	0	70	19238
2026-01-26 09:32:30.21	339.03	10.23	-50.1	-51.9	3.7	0.00e+00	0	50	104	0	70	19221
2026-01-26 09:32:32.22	338.53	10.17	-50.2	-51.9	3.7	0.00e+00	0	50	104	0	70	19237
2026-01-26 09:32:34.24	338.03	10.10	-50.1	-51.9	3.7	0.00e+00	0	50	104	0	70	19231
2026-01-26 09:32:36.25	337.54	10.04	-50.1	-51.9	3.7	0.00e+00	0	50	104	0	70	19200
2026-01-26 09:32:38.27	337.05	9.97	-50.1	-51.9	3.7	0.00e+00	0	50	104	0	70	19218
2026-01-26 09:32:40.29	336.56	9.91	-50.1	-51.9	3.7	0.00e+00	0	50	104	0	70	19171
2026-01-26 09:32:42.30	336.07	9.84	-50.1	-51.9	3.7	0.00e+00	0	50	104	0	70	19203
2026-01-26 09:32:44.31	335.59	9.77	-50.1	-51.9	3.7	0.00e+00	0	50	104	0	70	19207
2026-01-26 09:32:46.33	335.11	9.70	-50.1	-51.9	3.7	0.00e+00	0	50	104	0	70	19159
2026-01-26 09:32:48.35	334.63	9.63	-50.1	-52.0	3.7	0.00e+00	0	50	104	0	70	19294
2026-01-26 09:32:50.36	334.16	9.55	-50.1	-51.9	3.7	0.00e+00	0	50	104	0	70	19218
2026-01-26 09:32:52.38	333.69	9.48	-50.1	-51.9	3.7	0.00e+00	0	50	104	0	70	19160
2026-01-26 09:32:54.39	333.22	9.40	-50.1	-51.9	3.7	0.00e+00	0	50	104	0	70	19173
2026-01-26 09:32:56.41	332.75	9.32	-50.1	-51.9	3.7	0.00e+00	0	50	104	0	70	19175
2026-01-26 09:32:58.42	332.29	9.25	-50.1	-51.9	3.7	0.00e+00	0	50	104	0	70	19167
2026-01-26 09:33:00.44	331.83	9.17	-50.1	-51.9	3.7	0.00e+00	0	50	104	0	70	19206
2026-01-26 09:33:02.46	331.37	9.08	-50.1	-51.9	3.7	0.00e+00	0	50	104	0	70	19244
2026-01-26 09:33:04.47	330.92	9.00	-50.1	-51.9	3.7	0.00e+00	0	50	104	0	70	19184
2026-01-26 09:33:06.49	330.47	8.92	-50.1	-51.9	3.7	0.00e+00	0	50	104	0	70	19186
2026-01-26 09:33:08.50	330.03	8.84	-50.1	-51.9	3.7	0.00e+00	0	50	104	0	70	19201
2026-01-26 09:33:10.52	329.58	8.75	-50.1	-51.9	3.7	0.00e+00	0	50	104	0	70	19188
2026-01-26 09:33:12.54	329.14	8.66	-50.1	-51.9	3.7	0.00e+00	0	50	104	0	70	19160
2026-01-26 09:33:14.55	328.70	8.58	-50.1	-51.9	3.7	0.00e+00	0	50	104	0	70	19206
2026-01-26 09:33:16.57	328.27	8.49	-50.1	-51.9	3.7	0.00e+00	0	50	104	0	70	19212
2026-01-26 09:33:18.59	327.84	8.40	-50.1	-51.9	3.7	0.00e+00	0	50	104	0	70	19242
2026-01-26 09:33:20.61	327.41	8.31	-50.1	-51.9	3.7	0.00e+00	0	50	104	0	70	19220
2026-01-26 09:33:22.62	326.99	8.22	-50.1	-51.9	3.7	0.00e+00	0	50	104	0	70	19195
2026-01-26 09:33:24.64	326.57	8.13	-50.1	-51.9	3.7	0.00e+00	0	50	104	0	70	19212
2026-01-26 09:33:26.65	326.15	8.04	-50.1	-51.9	3.7	0.00e+00	0	50	104	0	70	19215
2026-01-26 09:33:28.67	325.74	7.94	-50.1	-51.9	3.7	0.00e+00	0	50	104	0	70	19255
2026-01-26 09:33:30.69	325.33	7.85	-50.1	-51.9	3.7	0.00e+00	0	50	104	0	70	19213
2026-01-26 09:33:32.70	324.92	7.76	-50.1	-51.9	3.7	0.00e+00	0	50	104	0	70	19205
2026-01-26 09:33:34.72	324.52	7.66	-50.1	-51.9	3.7	0.00e+00	0	50	104	0	70	19185
2026-01-26 09:33:36.73	324.12	7.57	-50.1	-51.9	3.7	0.00e+00	0	50	104	0	70	19220
2026-01-26 09:33:38.75	323.72	7.47	-50.1	-51.9	3.7	0.00e+00	0	50	104	0	70	19155
2026-01-26 09:33:40.77	323.32	7.37	-50.1	-51.9	3.7	0.00e+00	0	50	104	0	70	19133
2026-01-26 09:33:42.77	322.94	7.28	-50.1	-51.9	3.7	0.00e+00	0	50	104	0	70	19187
2026-01-26 09:33:44.79	322.55	7.18	-50.1	-51.9	3.7	0.00e+00	0	50	104	0	70	19195
2026-01-26 09:33:46.80	322.17	7.08	-50.1	-51.9	3.7	0.00e+00	0	50	104	0	70	19194
2026-01-26 09:33:48.82	321.79	6.98	-50.1	-51.9	3.7	0.00e+00	0	50	104	0	70	19191
2026-01-26 09:33:50.83	321.41	6.88	-50.1	-51.9	3.7	0.00e+00	0	50	104	0	70	19220
2026-01-26 09:33:52.85	321.04	6.78	-50.1	-51.9	3.7	0.00e+00	0	50	104	0	70	19217
2026-01-26 09:33:54.87	320.66	6.68	-50.1	-51.9	3.7	0.00e+00	0	50	104	0	70	19174
2026-01-26 09:33:56.89	320.30	6.58	-50.1	-51.9	3.7	0.00e+00	0	50	104	0	70	19189
2026-01-26 09:33:58.91	319.93	6.48	-50.1	-51.9	3.7	0.00e+00	0	50	104	0	70	19203
2026-01-26 09:34:00.93	319.57	6.38	-50.1	-51.9	3.7	0.00e+00	0	50	104	0	70	19160
2026-01-26 09:34:02.94	319.21	6.27	-50.1	-51.9	3.7	0.00e+00	0	50	104	0	70	19152
2026-01-26 09:34:04.96	318.86	6.17	-50.1	-51.9	3.7	0.00e+00	0	50	104	0	70	19238
2026-01-26 09:34:06.97	318.51	6.07	-50.1	-51.9	3.7	0.00e+00	0	50	104	0	70	19246
2026-01-26 09:34:08.98	318.16	5.97	-50.1	-51.9	3.7	0.00e+00	0	50	104	0	70	19180
2026-01-26 09:34:11.00	317.81	5.86	-50.1	-51.9	3.7	0.00e+00	0	50	104	0	70	19146
2026-01-26 09:34:13.01	317.47	5.76	-50.1	-51.9	3.6	0.00e+00	0	50	104	0	70	19165
2026-01-26 09:34:15.03	317.13	5.66	-50.1	-51.9	3.7	0.00e+00	0	50	104	0	70	19184
2026-01-26 09:34:17.05	316.80	5.55	-50.1	-51.9	3.7	0.00e+00	0	50	104	0	70	19189
2026-01-26 09:34:19.06	316.46	5.45	-50.1	-51.9	3.7	0.00e+00	0	50	104	0	70	19183
2026-01-26 09:34:21.07	316.14	5.34	-50.1	-51.9	3.7	0.00e+00	0	50	104	0	70	19183
2026-01-26 09:34:23.09	315.81	5.24	-50.1	-51.9	3.7	0.00e+00	0	50	104	0	70	19243
2026-01-26 09:34:25.11	315.48	5.14	-50.1	-51.9	3.7	0.00e+00	0	50	104	0	70	19171
2026-01-26 09:34:27.13	315.16	5.03	-50.1	-51.9	3.7	0.00e+00	0	50	104	0	70	19154
2026-01-26 09:34:29.14	314.85	4.93	-50.1	-51.9	3.7	0.00e+00	0	50	104	0	70	19232
2026-01-26 09:34:31.16	314.53	4.82	-50.1	-51.9	3.7	0.00e+00	0	50	104	0	70	19216
2026-01-26 09:34:33.17	314.22	4.72	-50.1	-51.9	3.7	0.00e+00	0	50	104	0	70	19223
2026-01-26 09:34:35.19	313.91	4.61	-50.1	-51.9	3.7	0.00e+00	0	50	104	0	70	19236
2026-01-26 09:34:37.21	313.60	4.50	-50.1	-51.9	3.7	0.00e+00	0	50	104	0	70	19220
2026-01-26 09:34:39.22	313.30	4.40	-50.1	-51.9	3.7	0.00e+00	0	50	104	0	70	19164
2026-01-26 09:34:41.24	313.00	4.29	-50.1	-51.9	3.7	0.00e+00	0	50	104	0	70	19196
2026-01-26 09:34:43.25	312.70	4.19	-50.1	-51.9	3.7	0.00e+00	0	50	104	0	70	19167
2026-01-26 09:34:45.26	312.41	4.08	-50.1	-51.9	3.7	0.00e+00	0	50	104	0	70	19246
2026-01-26 09:34:47.28	312.12	3.98	-50.1	-51.9	3.7	0.00e+00	0	50	104	0	70	19209
2026-01-26 09:34:49.29	311.83	3.87	-50.1	-51.9	3.7	0.00e+00	0	50	104	0	70	19137
2026-01-26 09:34:51.31	311.54	3.77	-50.1	-51.9	3.7	0.00e+00	0	50	104	0	70	19236
2026-01-26 09:34:53.33	311.25	3.66	-50.1	-51.9	3.7	0.00e+00	0	50	104	0	70	19162
2026-01-26 09:34:55.34	310.97	3.55	-50.1	-51.9	3.7	0.00e+00	0	50	104	0	70	19238
2026-01-26 09:34:57.36	310.69	3.45	-50.1	-51.9	3.7	0.00e+00	0	50	104	0	70	19192
2026-01-26 09:34:59.37	310.42	3.34	-50.1	-51.9	3.7	0.00e+00	0	50	104	0	70	19196
2026-01-26 09:35:01.39	310.14	3.24	-50.1	-51.9	3.7	0.00e+00	0	50	104	0	70	19216
2026-01-26 09:35:03.40	309.87	3.13	-50.1	-51.9	3.7	0.00e+00	0	50	104	0	70	19211
2026-01-26 09:35:05.42	309.61	3.03	-50.1	-51.9	3.7	0.00e+00	0	50	104	0	70	19157
2026-01-26 09:35:07.44	309.34	2.92	-50.1	-51.9	3.7	0.00e+00	0	50	104	0	70	19233
2026-01-26 09:35:09.45	309.08	2.81	-50.1	-51.9	3.7	0.00e+00	0	50	104	0	70	19166
2026-01-26 09:35:11.47	308.81	2.71	-50.1	-51.9	3.7	0.00e+00	0	50	104	0	70	19248
2026-01-26 09:35:13.49	308.55	2.60	-50.1	-51.9	3.7	0.00e+00	0	50	104	0	70	19190
2026-01-26 09:35:15.50	308.30	2.50	-50.1	-51.9	3.7	0.00e+00	0	50	104	0	70	19206
2026-01-26 09:35:17.52	308.05	2.39	-50.1	-51.9	3.7	0.00e+00	0	50	104	0	70	19185
2026-01-26 09:35:19.54	307.79	2.29	-50.1	-52.0	3.7	0.00e+00	0	50	104	0	70	19278
2026-01-26 09:35:21.56	307.54	2.18	-50.1	-51.9	3.7	0.00e+00	0	50	104	0	70	19210
2026-01-26 09:35:23.58	307.30	2.08	-50.1	-51.9	3.7	0.00e+00	0	50	104	0	70	19193
2026-01-26 09:35:25.59	307.05	1.97	-50.1	-51.9	3.7	0.00e+00	0	50	104	0	70	19234

#Closed at: 2026-01-26 09:35:26
#Recorded file [0 MB]: D:/lorett/data/31041_260126_122733.dat