passes_logs/2026/01/26/R3.2S_Murmansk/R3.2S_Murmansk__20260126_020231_FENGYUN_3D_rec.log

#Pass ID: 20260126_020231_FENGYUN 3D
#Satellite: FENGYUN 3D
#Configuration: FENGYUN 3D
#almurnet v.1.7.20251203
#Start time: 2026-01-26 02:02:32

#Version: 2.2.20231116
#Station: R3.2S_Murmansk
#Location: 33.079688 lon 68.888172 lat
#TLE: 1 43010U 17072A   26025.50461972  .00000046  00000+0  43592-4 0  9990
#TLE: 2 43010  98.9962 357.4844 0002523  89.7890 270.3575 14.19699798424744

#Time	Az	El	Level	Level2	SNR	BER	BlckErr	Temp	State	Recorded	gain1	gain2
2026-01-26 02:02:32.43	22.66	2.07	-53.9	-65.8	3.8	8.46e-01	0	42	0	0	78	14999
2026-01-26 02:02:36.45	22.76	2.33	-53.9	-65.9	3.8	8.47e-01	0	42	104	0	78	15134
2026-01-26 02:02:40.48	22.87	2.59	-54.1	-66.0	3.8	8.47e-01	0	42	104	0	78	15356
2026-01-26 02:02:44.52	22.97	2.85	-54.0	-66.0	3.8	8.46e-01	0	42	104	0	78	15252
2026-01-26 02:02:48.54	23.08	3.11	-53.9	-65.8	3.8	8.46e-01	0	42	104	0	78	14999
2026-01-26 02:02:52.57	23.18	3.37	-53.6	-65.6	3.8	8.47e-01	0	42	104	0	78	14583
2026-01-26 02:02:56.60	23.29	3.64	-53.1	-65.0	3.8	8.46e-01	0	42	104	0	78	13669
2026-01-26 02:03:00.63	23.40	3.91	-47.4	-49.5	13.3	5.49e-05	0	42	0	5242880	66	4564
2026-01-26 02:03:04.67	23.51	4.18	-44.2	-45.4	17.6	0.00e+00	0	42	0	28311552	60	4038
2026-01-26 02:03:08.70	23.63	4.45	-43.6	-44.8	18.5	0.00e+00	0	42	0	50331648	58	4209
2026-01-26 02:03:12.74	23.75	4.73	-44.7	-46.1	17.3	0.00e+00	0	42	0	73400320	59	4600
2026-01-26 02:03:16.78	23.86	5.01	-48.1	-50.7	12.2	4.46e-05	0	42	0	95420416	66	5221
2026-01-26 02:03:20.81	23.98	5.30	-44.2	-45.4	18.0	1.91e-04	0	43	0	118489088	59	4246
2026-01-26 02:03:24.84	24.10	5.58	-43.5	-44.6	18.9	0.00e+00	0	43	0	134217728	58	4108
2026-01-26 02:03:28.87	24.23	5.87	-42.7	-43.8	19.7	0.00e+00	0	42	0	156237824	57	3971
2026-01-26 02:03:32.90	24.35	6.16	-43.1	-44.1	19.5	0.00e+00	0	43	0	179306496	57	4129
2026-01-26 02:03:36.93	24.48	6.46	-42.5	-43.5	20.1	0.00e+00	0	43	0	202375168	57	3838
2026-01-26 02:03:40.96	24.61	6.76	-42.3	-43.2	20.4	0.00e+00	0	43	0	224395264	56	3948
2026-01-26 02:03:45.00	24.74	7.06	-42.4	-43.4	20.2	0.00e+00	0	43	0	247463936	56	4016
2026-01-26 02:03:49.03	24.88	7.36	-41.8	-42.7	20.9	0.00e+00	0	43	0	269484032	55	3920
2026-01-26 02:03:53.06	25.02	7.67	-41.7	-42.6	21.0	0.00e+00	0	43	0	292552704	55	3904
2026-01-26 02:03:57.09	25.16	7.99	-42.0	-42.9	20.7	0.00e+00	0	43	0	315621376	54	4279
2026-01-26 02:04:01.12	25.30	8.30	-41.6	-42.5	21.2	0.00e+00	0	43	0	337641472	54	4075
2026-01-26 02:04:05.15	25.45	8.62	-41.5	-42.4	21.3	0.00e+00	0	43	0	360710144	54	4032
2026-01-26 02:04:09.18	25.59	8.95	-41.5	-42.4	21.2	0.00e+00	0	43	0	383778816	54	4042
2026-01-26 02:04:13.21	25.74	9.28	-41.6	-42.5	21.2	0.00e+00	0	43	0	405798912	54	4069
2026-01-26 02:04:17.24	25.90	9.61	-41.6	-42.5	21.3	0.00e+00	0	43	0	428867584	54	4063
2026-01-26 02:04:21.27	26.06	9.95	-41.7	-42.6	21.2	0.00e+00	0	43	0	450887680	54	4102
2026-01-26 02:04:25.30	26.22	10.29	-41.5	-42.4	21.4	0.00e+00	0	43	0	473956352	54	4049
2026-01-26 02:04:29.34	26.38	10.64	-41.4	-42.3	21.5	0.00e+00	0	43	0	497025024	54	3991
2026-01-26 02:04:33.37	26.55	10.99	-41.3	-42.1	21.7	0.00e+00	0	43	0	519045120	54	3911
2026-01-26 02:04:37.40	26.72	11.35	-41.1	-41.9	21.9	0.00e+00	0	43	0	542113792	54	3812
2026-01-26 02:04:41.42	26.89	11.71	-40.8	-41.6	22.2	0.00e+00	0	43	0	564133888	53	3908
2026-01-26 02:04:45.45	27.07	12.07	-40.5	-41.3	22.5	0.00e+00	0	43	0	587202560	53	3749
2026-01-26 02:04:49.48	27.26	12.45	-40.5	-41.3	22.5	0.00e+00	0	43	0	610271232	52	3971
2026-01-26 02:04:53.50	27.44	12.82	-40.6	-41.4	22.4	0.00e+00	0	43	0	632291328	52	4047
2026-01-26 02:04:57.53	27.63	13.21	-40.6	-41.4	22.4	0.00e+00	0	43	0	655360000	52	4035
2026-01-26 02:05:01.55	27.83	13.59	-40.4	-41.2	22.7	0.00e+00	0	43	0	678428672	52	3951
2026-01-26 02:05:05.58	28.03	13.99	-40.4	-41.2	22.7	0.00e+00	0	43	0	700448768	52	3938
2026-01-26 02:05:09.60	28.24	14.39	-40.1	-40.9	23.0	0.00e+00	0	43	0	723517440	52	3808
2026-01-26 02:05:13.63	28.45	14.80	-40.0	-40.8	23.2	0.00e+00	0	43	0	745537536	51	3979
2026-01-26 02:05:17.65	28.66	15.21	-40.0	-40.8	23.2	0.00e+00	0	44	0	768606208	51	3971
2026-01-26 02:05:21.68	28.89	15.63	-40.0	-40.8	23.2	0.00e+00	0	43	0	790626304	51	3974
2026-01-26 02:05:25.70	29.11	16.06	-40.0	-40.7	23.3	0.00e+00	0	43	0	813694976	51	3958
2026-01-26 02:05:29.72	29.35	16.50	-40.0	-40.8	23.3	0.00e+00	0	43	0	835715072	51	3971
2026-01-26 02:05:33.75	29.59	16.94	-39.6	-40.4	23.6	0.00e+00	0	43	0	858783744	51	3781
2026-01-26 02:05:37.78	29.83	17.39	-39.3	-40.0	24.0	0.00e+00	0	43	0	881852416	50	3857
2026-01-26 02:05:41.80	30.09	17.85	-39.3	-40.1	23.9	0.00e+00	0	43	0	903872512	50	3887
2026-01-26 02:05:45.83	30.35	18.32	-39.3	-40.0	24.0	0.00e+00	0	43	0	926941184	50	3864
2026-01-26 02:05:49.86	30.62	18.79	-39.3	-40.0	24.0	0.00e+00	0	43	0	950009856	50	3863
2026-01-26 02:05:53.88	30.89	19.27	-39.0	-39.7	24.3	0.00e+00	0	43	0	972029952	50	3735
2026-01-26 02:05:57.91	31.18	19.77	-39.0	-39.7	24.3	0.00e+00	0	43	0	995098624	50	3723
2026-01-26 02:06:01.93	31.47	20.27	-39.2	-39.9	24.2	0.00e+00	0	43	0	1018167296	50	3809
2026-01-26 02:06:05.96	31.78	20.78	-39.0	-39.7	24.3	0.00e+00	0	43	0	1040187392	50	3735
2026-01-26 02:06:09.98	32.09	21.30	-38.8	-39.5	24.6	0.00e+00	0	43	0	1063256064	49	3838
2026-01-26 02:06:14.01	32.41	21.84	-38.7	-39.5	24.6	0.00e+00	0	43	0	1085276160	49	3828
2026-01-26 02:06:18.03	32.75	22.38	-38.5	-39.3	24.8	0.00e+00	0	44	0	1108344832	49	3739
2026-01-26 02:06:22.06	33.09	22.93	-38.6	-39.3	24.7	0.00e+00	0	43	0	1131413504	49	3771
2026-01-26 02:06:26.08	33.45	23.50	-38.4	-39.1	24.9	0.00e+00	0	43	0	1153433600	48	3912
2026-01-26 02:06:30.11	33.82	24.07	-38.3	-39.0	25.0	0.00e+00	0	43	0	1175453696	48	3859
2026-01-26 02:06:34.15	34.20	24.67	-38.3	-39.0	25.1	0.00e+00	0	43	0	1198522368	48	3833
2026-01-26 02:06:38.18	34.60	25.27	-37.6	-38.3	25.2	0.00e+00	0	43	0	1221591040	47	3762
2026-01-26 02:06:42.21	35.01	25.88	-37.4	-38.1	25.4	0.00e+00	0	43	0	1243611136	46	3912
2026-01-26 02:06:46.23	35.44	26.51	-37.7	-38.4	25.1	0.00e+00	0	43	0	1266679808	46	4030
2026-01-26 02:06:50.26	35.89	27.15	-37.6	-38.4	25.2	0.00e+00	0	43	0	1289748480	46	4005
2026-01-26 02:06:54.29	36.35	27.80	-37.5	-38.2	25.3	0.00e+00	0	43	0	1311768576	46	3941
2026-01-26 02:06:58.32	36.83	28.47	-37.8	-38.5	25.1	0.00e+00	0	43	0	1334837248	46	4067
2026-01-26 02:07:02.36	37.33	29.15	-37.5	-38.3	25.3	0.00e+00	0	44	0	1357905920	46	3959
2026-01-26 02:07:06.38	37.85	29.84	-37.5	-38.2	25.3	0.00e+00	0	43	0	1379926016	46	3954
2026-01-26 02:07:10.42	38.40	30.56	-37.2	-37.9	25.6	0.00e+00	0	43	0	1402994688	46	3812
2026-01-26 02:07:14.45	38.97	31.28	-37.6	-38.3	25.3	0.00e+00	0	43	0	1426063360	46	3993
2026-01-26 02:07:18.47	39.56	32.02	-37.4	-38.1	25.5	0.00e+00	0	43	0	1448083456	46	3886
2026-01-26 02:07:22.50	40.18	32.78	-37.3	-37.9	25.6	0.00e+00	0	43	0	1471152128	46	3824
2026-01-26 02:07:26.52	40.83	33.55	-37.3	-38.0	25.6	0.00e+00	0	43	0	1493172224	46	3830
2026-01-26 02:07:30.54	41.51	34.34	-37.3	-38.0	25.6	0.00e+00	0	44	0	1516240896	46	3846
2026-01-26 02:07:34.56	42.23	35.14	-37.2	-37.9	25.7	0.00e+00	0	43	0	1538260992	46	3818
2026-01-26 02:07:38.59	42.98	35.96	-37.2	-37.9	25.7	0.00e+00	0	44	0	1561329664	46	3796
2026-01-26 02:07:42.63	43.77	36.80	-37.2	-37.9	25.7	0.00e+00	0	43	0	1583349760	46	3811
2026-01-26 02:07:46.66	44.60	37.65	-37.2	-37.9	25.8	0.00e+00	0	43	0	1606418432	46	3786
2026-01-26 02:07:50.69	45.47	38.52	-36.8	-37.5	26.0	0.00e+00	0	43	0	1629487104	45	3844
2026-01-26 02:07:54.72	46.39	39.41	-37.1	-37.9	25.8	0.00e+00	0	44	0	1651507200	45	4005
2026-01-26 02:07:58.74	47.36	40.30	-37.2	-37.8	25.8	0.00e+00	0	43	0	1674575872	45	4004
2026-01-26 02:08:02.77	48.39	41.21	-37.3	-38.0	25.7	0.00e+00	0	43	0	1697644544	45	4055
2026-01-26 02:08:06.80	49.47	42.14	-37.4	-38.1	25.6	0.00e+00	0	43	0	1719664640	45	4107
2026-01-26 02:08:10.84	50.62	43.08	-37.5	-38.2	25.5	0.00e+00	0	43	0	1742733312	45	4165
2026-01-26 02:08:14.87	51.84	44.02	-37.5	-38.2	25.4	0.00e+00	0	43	0	1765801984	45	4192
2026-01-26 02:08:18.89	53.13	44.97	-37.6	-38.3	25.4	0.00e+00	0	43	0	1787822080	45	4205
2026-01-26 02:08:22.93	54.50	45.94	-37.9	-38.7	25.1	0.00e+00	0	43	0	1810890752	46	4159
2026-01-26 02:08:26.96	55.96	46.90	-37.5	-38.2	25.5	0.00e+00	0	43	0	1833959424	46	3947
2026-01-26 02:08:30.99	57.50	47.87	-37.7	-38.4	25.3	0.00e+00	0	43	0	1855979520	46	4042
2026-01-26 02:08:35.03	59.15	48.84	-37.6	-38.3	25.4	0.00e+00	0	43	0	1877999616	46	4000
2026-01-26 02:08:39.06	60.90	49.80	-37.9	-38.6	25.2	0.00e+00	0	44	0	1901068288	46	4121
2026-01-26 02:08:43.10	62.77	50.75	-38.4	-39.2	24.7	0.00e+00	0	44	0	1924136960	47	4173
2026-01-26 02:08:47.13	64.75	51.69	-37.9	-38.7	25.2	0.00e+00	0	44	0	1946157056	47	3923
2026-01-26 02:08:51.16	66.86	52.61	-38.3	-39.0	24.8	0.00e+00	0	43	0	1969225728	47	4086
2026-01-26 02:08:55.19	69.11	53.50	-38.4	-39.2	24.7	0.00e+00	0	44	0	1992294400	47	4155
2026-01-26 02:08:59.22	71.49	54.37	-38.7	-39.4	25.0	0.00e+00	0	44	0	2014314496	48	4043
2026-01-26 02:09:03.24	74.01	55.19	-38.7	-39.4	25.0	0.00e+00	0	43	0	2037383168	48	4037
2026-01-26 02:09:07.27	76.68	55.97	-39.1	-39.8	24.7	0.00e+00	0	44	0	2060451840	48	4238
2026-01-26 02:09:11.29	79.49	56.70	-39.1	-39.9	24.6	0.00e+00	0	44	0	2082471936	49	4021
2026-01-26 02:09:15.32	82.46	57.36	-38.7	-39.4	25.0	0.00e+00	0	44	0	2105540608	49	3818
2026-01-26 02:09:19.35	85.56	57.96	-38.7	-39.4	25.0	0.00e+00	0	43	0	2128609280	49	3803
2026-01-26 02:09:23.38	88.80	58.49	-38.6	-39.3	25.1	0.00e+00	0	44	0	2150629376	49	3752
2026-01-26 02:09:27.41	92.15	58.93	-38.1	-38.8	25.5	0.00e+00	0	43	0	2173698048	48	3769
2026-01-26 02:09:31.45	95.62	59.28	-38.3	-39.0	25.4	0.00e+00	0	44	0	2196766720	48	3856
2026-01-26 02:09:35.48	99.16	59.53	-38.3	-38.9	25.4	0.00e+00	0	44	0	2218786816	48	3822
2026-01-26 02:09:39.51	102.76	59.69	-38.5	-39.3	25.1	0.00e+00	0	44	0	2240806912	48	3964
2026-01-26 02:09:43.53	106.37	59.75	-38.4	-39.1	25.3	0.00e+00	0	44	0	2263875584	48	3887
2026-01-26 02:09:47.57	110.01	59.70	-38.4	-39.2	25.2	0.00e+00	0	44	0	2286944256	48	3926
2026-01-26 02:09:51.60	113.61	59.55	-38.4	-39.2	25.2	0.00e+00	0	44	0	2308964352	48	3922
2026-01-26 02:09:55.63	117.16	59.30	-38.3	-39.0	25.4	0.00e+00	0	44	0	2332033024	48	3825
2026-01-26 02:09:59.66	120.62	58.96	-38.7	-39.4	25.0	0.00e+00	0	44	0	2355101696	48	4032
2026-01-26 02:10:03.69	123.99	58.52	-38.7	-39.4	25.1	0.00e+00	0	44	0	2377121792	48	4021
2026-01-26 02:10:07.72	127.24	58.01	-38.9	-39.7	24.8	0.00e+00	0	44	0	2400190464	48	4157
2026-01-26 02:10:11.75	130.36	57.41	-38.4	-39.1	25.3	0.00e+00	0	44	0	2423259136	48	3888
2026-01-26 02:10:15.78	133.34	56.75	-38.5	-39.2	25.3	0.00e+00	0	44	0	2445279232	48	3914
2026-01-26 02:10:19.81	136.17	56.02	-38.8	-39.5	24.9	0.00e+00	0	44	0	2468347904	48	4087
2026-01-26 02:10:23.83	138.85	55.25	-38.4	-39.1	25.3	0.00e+00	0	44	0	2491416576	48	3882
2026-01-26 02:10:27.86	141.39	54.42	-38.6	-39.3	25.1	0.00e+00	0	44	0	2513436672	48	3990
2026-01-26 02:10:31.90	143.79	53.56	-38.7	-39.4	25.0	0.00e+00	0	44	0	2536505344	48	4042
2026-01-26 02:10:35.94	146.06	52.66	-38.4	-39.1	25.2	0.00e+00	0	43	0	2559574016	48	3906
2026-01-26 02:10:39.97	148.18	51.74	-38.7	-39.4	25.0	0.00e+00	0	44	0	2581594112	48	4023
2026-01-26 02:10:43.99	150.17	50.81	-38.3	-39.1	25.3	0.00e+00	0	44	0	2603614208	48	3869
2026-01-26 02:10:48.03	152.05	49.85	-38.3	-39.0	25.3	0.00e+00	0	43	0	2626682880	48	3855
2026-01-26 02:10:52.05	153.80	48.89	-38.4	-39.2	25.2	0.00e+00	0	43	0	2649751552	48	3923
2026-01-26 02:10:56.08	155.46	47.92	-37.6	-38.3	25.4	0.00e+00	0	44	0	2671771648	47	3750
2026-01-26 02:11:00.12	157.02	46.95	-37.8	-38.5	25.2	0.00e+00	0	44	0	2694840320	47	3860
2026-01-26 02:11:04.15	158.48	45.98	-37.7	-38.4	25.3	0.00e+00	0	44	0	2717908992	47	3798
2026-01-26 02:11:08.17	159.86	45.02	-37.6	-38.3	25.4	0.00e+00	0	43	0	2739929088	47	3760
2026-01-26 02:11:12.21	161.16	44.05	-37.7	-38.4	25.3	0.00e+00	0	44	0	2762997760	47	3793
2026-01-26 02:11:16.24	162.38	43.10	-37.3	-38.0	25.7	0.00e+00	0	43	0	2786066432	46	3859
2026-01-26 02:11:20.27	163.53	42.16	-37.3	-38.0	25.7	0.00e+00	0	44	0	2808086528	46	3840
2026-01-26 02:11:24.31	164.63	41.23	-37.2	-37.9	25.7	0.00e+00	0	44	0	2831155200	46	3806
2026-01-26 02:11:28.34	165.66	40.32	-36.9	-37.6	25.9	0.00e+00	0	43	0	2854223872	45	3906
2026-01-26 02:11:32.37	166.64	39.42	-37.0	-37.7	25.8	0.00e+00	0	43	0	2876243968	45	3949
2026-01-26 02:11:36.41	167.56	38.53	-37.0	-37.7	25.8	0.00e+00	0	44	0	2899312640	45	3944
2026-01-26 02:11:40.43	168.44	37.66	-36.8	-37.5	26.0	0.00e+00	0	43	0	2922381312	45	3864
2026-01-26 02:11:44.47	169.27	36.80	-37.1	-37.8	25.8	0.00e+00	0	44	0	2944401408	45	3987
2026-01-26 02:11:48.51	170.07	35.96	-37.2	-37.9	25.6	0.00e+00	0	43	0	2966421504	45	4029
2026-01-26 02:11:52.53	170.82	35.13	-37.2	-37.9	25.7	0.00e+00	0	43	0	2989490176	45	4016
2026-01-26 02:11:56.56	171.53	34.32	-37.0	-37.7	25.8	0.00e+00	0	44	0	3012558848	45	3939
2026-01-26 02:12:00.60	172.22	33.53	-36.9	-37.6	25.4	0.00e+00	0	44	0	3034578944	45	3898
2026-01-26 02:12:04.62	172.87	32.75	-37.1	-37.9	25.1	0.00e+00	0	43	0	3057647616	45	4008
2026-01-26 02:12:08.65	173.49	31.99	-37.2	-38.0	25.0	0.00e+00	0	43	0	3080716288	45	4080
2026-01-26 02:12:12.68	174.09	31.25	-36.9	-37.7	25.3	0.00e+00	0	44	0	3102736384	45	3930
2026-01-26 02:12:16.72	174.66	30.52	-37.0	-37.8	25.2	0.00e+00	0	43	0	3125805056	45	3980
2026-01-26 02:12:20.75	175.20	29.80	-37.2	-37.9	25.1	0.00e+00	0	44	0	3148873728	45	4046
2026-01-26 02:12:24.78	175.73	29.10	-37.3	-38.1	25.0	0.00e+00	0	44	0	3170893824	45	4101
2026-01-26 02:12:28.81	176.23	28.42	-37.5	-38.2	24.8	0.00e+00	0	43	0	3193962496	45	4181
2026-01-26 02:12:32.84	176.71	27.75	-37.4	-38.1	24.9	0.00e+00	0	44	0	3217031168	45	4136
2026-01-26 02:12:36.86	177.17	27.09	-37.1	-37.8	25.1	0.00e+00	0	43	0	3239051264	45	3994
2026-01-26 02:12:40.89	177.62	26.45	-37.1	-37.8	25.1	0.00e+00	0	44	0	3262119936	45	3996
2026-01-26 02:12:44.93	178.05	25.82	-37.4	-38.1	24.8	0.00e+00	0	44	0	3284140032	45	4142
2026-01-26 02:12:48.96	178.46	25.20	-37.7	-38.5	24.6	0.00e+00	0	44	0	3307208704	45	4307
2026-01-26 02:12:52.99	178.86	24.60	-37.7	-38.4	24.6	0.00e+00	0	43	0	3329228800	46	4049
2026-01-26 02:12:57.02	179.24	24.01	-37.6	-38.4	24.6	0.00e+00	0	43	0	3352297472	46	4017
2026-01-26 02:13:01.04	179.61	23.43	-37.6	-38.4	24.6	0.00e+00	0	44	0	3375366144	46	4026
2026-01-26 02:13:05.07	179.97	22.86	-37.9	-38.7	24.4	0.00e+00	0	43	0	3397386240	46	4148
2026-01-26 02:13:09.10	180.31	22.30	-38.0	-38.8	24.3	0.00e+00	0	44	0	3420454912	46	4197
2026-01-26 02:13:13.13	180.64	21.76	-38.2	-39.0	24.1	0.00e+00	0	44	0	3443523584	47	4070
2026-01-26 02:13:17.16	180.97	21.22	-38.3	-39.0	24.0	0.00e+00	0	43	0	3465543680	47	4088
2026-01-26 02:13:21.19	181.28	20.70	-38.4	-39.1	24.0	0.00e+00	0	44	0	3488612352	47	4142
2026-01-26 02:13:25.21	181.58	20.18	-38.6	-39.4	23.7	0.00e+00	0	44	0	3510632448	47	4256
2026-01-26 02:13:29.24	181.88	19.68	-39.2	-40.0	23.7	0.00e+00	0	43	0	3533701120	48	4301
2026-01-26 02:13:33.28	182.16	19.18	-39.3	-40.1	23.6	0.00e+00	0	43	0	3556769792	49	4113
2026-01-26 02:13:37.31	182.44	18.69	-39.5	-40.3	23.4	0.00e+00	0	43	0	3578789888	49	4221
2026-01-26 02:13:41.34	182.70	18.22	-39.2	-40.0	23.7	0.00e+00	0	44	0	3601858560	49	4054
2026-01-26 02:13:45.36	182.96	17.75	-39.2	-40.0	23.7	0.00e+00	0	43	0	3624927232	49	4069
2026-01-26 02:13:49.39	183.22	17.29	-39.3	-40.1	23.5	0.00e+00	0	44	0	3646947328	49	4126
2026-01-26 02:13:53.42	183.46	16.84	-39.5	-40.3	23.4	0.00e+00	0	43	0	3668967424	49	4236
2026-01-26 02:13:57.45	183.70	16.39	-39.7	-40.6	23.2	0.00e+00	0	44	0	3692036096	50	4100
2026-01-26 02:14:01.47	183.93	15.95	-40.0	-40.8	22.9	0.00e+00	0	43	0	3715104768	50	4214
2026-01-26 02:14:05.51	184.16	15.52	-40.2	-41.0	22.7	0.00e+00	0	44	0	3737124864	50	4333
2026-01-26 02:14:09.53	184.38	15.10	-40.1	-41.0	22.7	0.00e+00	0	44	0	3760193536	51	4067
2026-01-26 02:14:13.56	184.59	14.68	-40.3	-41.1	22.6	0.00e+00	0	43	0	3783262208	51	4120
2026-01-26 02:14:17.58	184.80	14.28	-40.2	-41.0	22.7	0.00e+00	0	44	0	3805282304	51	4072
2026-01-26 02:14:21.62	185.01	13.87	-40.3	-41.2	22.6	0.00e+00	0	44	0	3828350976	51	4152
2026-01-26 02:14:25.64	185.21	13.48	-40.3	-41.2	22.5	0.00e+00	0	44	0	3851419648	51	4163
2026-01-26 02:14:29.68	185.40	13.09	-40.4	-41.2	22.4	0.00e+00	0	44	0	3873439744	51	4193
2026-01-26 02:14:33.71	185.59	12.70	-40.7	-41.5	22.1	0.00e+00	0	44	0	3896508416	51	4338
2026-01-26 02:14:37.73	185.77	12.32	-40.7	-41.6	22.0	0.00e+00	0	43	0	3919577088	52	4125
2026-01-26 02:14:41.75	185.96	11.95	-40.9	-41.7	21.9	0.00e+00	0	44	0	3941597184	52	4187
2026-01-26 02:14:45.78	186.13	11.58	-41.0	-41.8	21.7	0.00e+00	0	43	0	3964665856	52	4239
2026-01-26 02:14:49.81	186.30	11.22	-40.9	-41.8	21.8	0.00e+00	0	44	0	3986685952	52	4205
2026-01-26 02:14:53.84	186.47	10.86	-41.1	-42.0	21.6	0.00e+00	0	44	0	4009754624	52	4300
2026-01-26 02:14:57.87	186.64	10.51	-41.2	-42.1	21.5	0.00e+00	0	44	0	4031774720	53	4114
2026-01-26 02:15:01.90	186.80	10.16	-41.2	-42.1	21.4	0.00e+00	0	44	0	4054843392	53	4127
2026-01-26 02:15:05.92	186.96	9.82	-41.3	-42.2	21.3	0.00e+00	0	44	0	4076863488	53	4192
2026-01-26 02:15:09.95	187.11	9.48	-41.4	-42.3	21.2	0.00e+00	0	44	0	4099932160	53	4210
2026-01-26 02:15:13.97	187.26	9.15	-41.5	-42.4	21.1	0.00e+00	0	44	0	4123000832	53	4286
2026-01-26 02:15:18.00	187.41	8.82	-41.7	-42.7	20.8	0.00e+00	0	43	0	4145020928	54	4170
2026-01-26 02:15:22.03	187.56	8.49	-41.9	-42.8	20.6	0.00e+00	0	44	0	4168089600	54	4228
2026-01-26 02:15:26.05	187.70	8.17	-41.9	-42.9	20.5	0.00e+00	0	44	0	4191158272	54	4269
2026-01-26 02:15:30.07	187.84	7.85	-42.0	-42.9	20.5	0.00e+00	0	43	0	4213178368	54	4287
2026-01-26 02:15:34.10	187.98	7.54	-42.2	-43.2	20.2	0.00e+00	0	44	0	4236247040	54	4420
2026-01-26 02:15:38.13	188.11	7.23	-42.1	-43.2	20.2	0.00e+00	0	44	0	4258267136	54	4399
2026-01-26 02:15:42.16	188.25	6.92	-42.2	-43.2	20.1	0.00e+00	0	43	0	4281335808	55	4193
2026-01-26 02:15:46.19	188.38	6.62	-42.4	-43.5	19.8	0.00e+00	0	44	0	4304404480	55	4320
2026-01-26 02:15:50.22	188.50	6.32	-42.3	-43.3	20.0	0.00e+00	0	43	0	4326424576	55	4212
2026-01-26 02:15:54.24	188.63	6.03	-42.6	-43.7	19.6	0.00e+00	0	43	0	4349493248	55	4405
2026-01-26 02:15:58.27	188.75	5.73	-42.7	-43.8	19.5	0.00e+00	0	44	0	4371513344	56	4208
2026-01-26 02:16:02.31	188.87	5.44	-42.9	-44.0	19.3	0.00e+00	0	44	0	4394582016	56	4308
2026-01-26 02:16:06.33	188.99	5.16	-42.9	-44.0	19.2	0.00e+00	0	44	0	4416602112	56	4306
2026-01-26 02:16:10.36	189.11	4.87	-52.9	-64.8	3.8	8.47e-01	0	44	104	4430233600	76	15023
2026-01-26 02:16:14.40	189.22	4.59	-53.5	-65.5	3.8	8.47e-01	0	44	104	4430233600	77	15228
2026-01-26 02:16:18.44	189.33	4.31	-53.8	-65.8	3.8	8.46e-01	0	44	104	4430233600	78	14922
2026-01-26 02:16:22.46	189.44	4.04	-54.0	-66.0	3.8	8.47e-01	0	44	104	4430233600	78	15278
2026-01-26 02:16:26.50	189.55	3.76	-54.1	-66.1	3.8	8.46e-01	0	44	104	4430233600	78	15490
2026-01-26 02:16:30.53	189.66	3.49	-54.2	-66.1	3.8	8.45e-01	0	44	104	4430233600	78	15548
2026-01-26 02:16:34.56	189.77	3.23	-54.0	-66.0	3.8	8.46e-01	0	44	104	4430233600	78	15284
2026-01-26 02:16:38.60	189.87	2.96	-53.7	-65.7	3.8	8.46e-01	0	44	104	4430233600	78	14758
2026-01-26 02:16:42.62	189.97	2.70	-53.3	-65.2	3.8	8.45e-01	0	44	104	4430233600	78	13989
2026-01-26 02:16:46.65	190.07	2.44	-53.2	-65.2	3.8	8.47e-01	0	44	104	4430233600	78	13915
2026-01-26 02:16:50.69	190.17	2.18	-53.2	-65.1	3.8	8.47e-01	0	44	104	4430233600	78	13852
2026-01-26 02:16:54.72	190.27	1.93	-53.2	-65.1	3.8	8.46e-01	0	44	104	4430233600	78	13808

#Closed at: 2026-01-26 02:16:55
#Recorded file [4430 MB]: D:/lorett/data/31041_260126_050232.dat