passes_logs/2026/01/26/R3.2S_Murmansk/R3.2S_Murmansk__20260126_122924_AQUA_rec.log

#Pass ID: 20260126_122924_AQUA
#Satellite: AQUA
#Configuration: AQUA
#almurnet v.1.7.20251203
#Start time: 2026-01-26 12:29:26

#Version: 2.2.20231116
#Station: R3.2S_Murmansk
#Location: 33.079688 lon 68.888172 lat
#TLE: 1 27424U 02022A   26025.91340420  .00001969  00000+0  40368-3 0  9991
#TLE: 2 27424  98.4100 352.5253 0001880  65.2649  27.8322 14.61861165262482

#Time	Az	El	Level	Level2	SNR	BER	BlckErr	Temp	State	Recorded	gain1	gain2
2026-01-26 12:29:26.38	182.94	2.09	-54.7	-72.5	3.8	7.43e-01	0	43	0	0	80	28892
2026-01-26 12:29:29.40	183.07	2.29	-54.7	-72.5	3.8	7.46e-01	0	43	104	0	80	28919
2026-01-26 12:29:32.42	183.20	2.48	-54.7	-72.5	3.8	7.48e-01	0	43	104	0	80	28861
2026-01-26 12:29:35.44	183.34	2.68	-54.7	-72.5	3.8	7.45e-01	0	43	104	0	80	28834
2026-01-26 12:29:38.45	183.47	2.88	-54.7	-72.5	3.8	7.43e-01	0	43	104	0	80	28857
2026-01-26 12:29:41.48	183.61	3.08	-54.7	-72.5	3.8	7.46e-01	0	43	104	0	80	28806
2026-01-26 12:29:44.50	183.75	3.28	-54.7	-72.5	3.8	7.48e-01	0	44	104	0	80	28823
2026-01-26 12:29:47.52	183.89	3.49	-54.7	-72.5	3.8	7.42e-01	0	43	104	0	80	28843
2026-01-26 12:29:50.54	184.03	3.69	-54.7	-72.5	3.8	7.47e-01	0	43	104	0	80	28837
2026-01-26 12:29:53.57	184.18	3.90	-54.7	-72.5	3.8	7.43e-01	0	43	104	0	80	28819
2026-01-26 12:29:56.60	184.33	4.11	-54.6	-72.5	3.8	7.47e-01	0	43	104	0	80	28754
2026-01-26 12:29:59.61	184.48	4.32	-54.7	-72.5	3.8	7.48e-01	0	43	104	0	80	28781
2026-01-26 12:30:02.64	184.63	4.53	-54.7	-72.5	3.8	7.48e-01	0	43	104	0	80	28782
2026-01-26 12:30:05.66	184.78	4.74	-54.6	-72.5	3.8	7.44e-01	0	43	104	0	80	28794
2026-01-26 12:30:08.68	184.94	4.96	-54.7	-72.5	3.8	7.47e-01	0	43	104	0	80	28777
2026-01-26 12:30:11.70	185.10	5.18	-54.6	-72.5	3.8	7.45e-01	0	43	104	0	80	28751
2026-01-26 12:30:14.72	185.26	5.39	-54.7	-72.5	3.8	7.43e-01	0	43	104	0	80	28776
2026-01-26 12:30:17.75	185.42	5.62	-54.6	-72.5	3.8	7.45e-01	0	43	104	0	80	28783
2026-01-26 12:30:20.77	185.59	5.84	-54.6	-72.5	3.8	7.43e-01	0	43	104	0	80	28721
2026-01-26 12:30:23.79	185.76	6.06	-54.6	-72.5	3.8	7.42e-01	0	43	104	0	80	28718
2026-01-26 12:30:26.82	185.93	6.29	-54.6	-72.5	3.8	7.48e-01	0	43	104	0	80	28752
2026-01-26 12:30:29.84	186.11	6.52	-54.6	-72.5	3.8	7.45e-01	0	43	104	0	80	28795
2026-01-26 12:30:32.87	186.28	6.75	-54.6	-72.5	3.8	7.46e-01	0	43	104	0	80	28711
2026-01-26 12:30:35.88	186.46	6.98	-54.6	-72.5	3.8	7.47e-01	0	43	104	0	80	28801
2026-01-26 12:30:38.90	186.65	7.22	-54.6	-72.5	3.8	7.44e-01	0	43	104	0	80	28740
2026-01-26 12:30:41.93	186.83	7.45	-54.6	-72.5	3.8	7.45e-01	0	43	104	0	80	28762
2026-01-26 12:30:44.95	187.02	7.69	-54.6	-72.5	3.8	7.45e-01	0	43	104	0	80	28759
2026-01-26 12:30:47.97	187.21	7.94	-54.6	-72.5	3.8	7.49e-01	0	43	104	0	80	28741
2026-01-26 12:30:50.98	187.41	8.18	-54.6	-72.5	3.8	7.48e-01	0	43	104	0	80	28712
2026-01-26 12:30:54.01	187.61	8.43	-54.6	-72.5	3.8	7.47e-01	0	43	104	0	80	28737
2026-01-26 12:30:57.02	187.81	8.67	-54.6	-72.5	3.8	7.45e-01	0	43	104	0	80	28756
2026-01-26 12:31:00.05	188.02	8.93	-54.6	-72.5	3.8	7.47e-01	0	43	104	0	80	28734
2026-01-26 12:31:03.07	188.23	9.18	-54.6	-72.5	3.8	7.49e-01	0	44	104	0	80	28690
2026-01-26 12:31:06.09	188.44	9.44	-54.6	-72.5	3.8	7.49e-01	0	43	104	0	80	28682
2026-01-26 12:31:09.11	188.66	9.70	-54.6	-72.5	3.8	7.44e-01	0	43	104	0	80	28745
2026-01-26 12:31:12.13	188.88	9.96	-54.6	-72.5	3.8	7.45e-01	0	44	104	0	80	28756
2026-01-26 12:31:15.15	189.11	10.22	-54.6	-72.5	3.8	7.46e-01	0	43	104	0	80	28730
2026-01-26 12:31:18.17	189.34	10.49	-54.6	-72.5	3.8	7.41e-01	0	43	104	0	80	28704
2026-01-26 12:31:21.20	189.57	10.76	-54.6	-72.5	3.8	7.47e-01	0	44	104	0	80	28688
2026-01-26 12:31:24.22	189.81	11.04	-54.6	-72.4	3.8	7.48e-01	0	43	104	0	80	28679
2026-01-26 12:31:27.25	190.05	11.31	-54.6	-72.4	3.8	7.46e-01	0	43	104	0	80	28666
2026-01-26 12:31:30.27	190.30	11.59	-54.6	-72.5	3.8	7.47e-01	0	43	104	0	80	28703
2026-01-26 12:31:33.30	190.56	11.88	-54.6	-72.4	3.8	7.45e-01	0	43	104	0	80	28669
2026-01-26 12:31:36.32	190.81	12.16	-54.6	-72.4	3.8	7.49e-01	0	43	104	0	80	28577
2026-01-26 12:31:39.34	191.08	12.45	-54.6	-72.5	3.8	7.47e-01	0	44	104	0	80	28680
2026-01-26 12:31:42.36	191.35	12.74	-54.6	-72.4	3.8	7.42e-01	0	43	104	0	80	28600
2026-01-26 12:31:45.39	191.62	13.04	-54.6	-72.4	3.8	7.41e-01	0	44	104	0	80	28666
2026-01-26 12:31:48.41	191.90	13.34	-54.6	-72.4	3.8	7.45e-01	0	43	104	0	80	28656
2026-01-26 12:31:51.44	192.19	13.64	-54.6	-72.4	3.8	7.44e-01	0	43	104	0	80	28619
2026-01-26 12:31:54.47	192.48	13.95	-54.6	-72.4	3.8	7.47e-01	0	43	104	0	80	28631
2026-01-26 12:31:57.50	192.78	14.26	-54.6	-72.4	3.8	7.49e-01	0	43	104	0	80	28654
2026-01-26 12:32:00.52	193.08	14.58	-54.6	-72.4	3.8	7.47e-01	0	44	104	0	80	28526
2026-01-26 12:32:03.54	193.40	14.90	-54.6	-72.4	3.8	7.43e-01	0	43	104	0	80	28529
2026-01-26 12:32:06.56	193.71	15.22	-54.6	-72.4	3.8	7.45e-01	0	43	104	0	80	28601
2026-01-26 12:32:09.59	194.04	15.55	-54.6	-72.4	3.8	7.43e-01	0	44	104	0	80	28493
2026-01-26 12:32:12.60	194.37	15.87	-54.6	-72.4	3.8	7.45e-01	0	44	104	0	80	28544
2026-01-26 12:32:15.63	194.72	16.21	-54.6	-72.4	3.8	7.44e-01	0	43	104	0	80	28483
2026-01-26 12:32:18.64	195.06	16.55	-54.6	-72.4	3.8	7.44e-01	0	44	104	0	80	28515
2026-01-26 12:32:21.66	195.42	16.89	-54.6	-72.4	3.8	7.46e-01	0	44	104	0	80	28505
2026-01-26 12:32:24.68	195.78	17.24	-54.6	-72.4	3.8	7.44e-01	0	44	104	0	80	28388
2026-01-26 12:32:27.70	196.16	17.59	-54.6	-72.4	3.8	7.44e-01	0	44	104	0	80	28393
2026-01-26 12:32:30.72	196.54	17.94	-54.6	-72.4	3.8	7.46e-01	0	44	104	0	80	28413
2026-01-26 12:32:33.74	196.93	18.30	-54.6	-72.4	3.8	7.48e-01	0	44	104	0	80	28507
2026-01-26 12:32:36.77	197.34	18.67	-54.6	-72.4	3.8	7.45e-01	0	44	104	0	80	28429
2026-01-26 12:32:39.79	197.75	19.04	-54.6	-72.4	3.8	7.44e-01	0	43	104	0	80	28509
2026-01-26 12:32:42.81	198.17	19.42	-54.6	-72.4	3.8	7.46e-01	0	43	104	0	80	28407
2026-01-26 12:32:45.83	198.60	19.79	-54.6	-72.4	3.8	7.46e-01	0	43	104	0	80	28427
2026-01-26 12:32:48.85	199.05	20.18	-54.5	-72.3	3.8	7.45e-01	0	43	104	0	80	28348
2026-01-26 12:32:51.86	199.50	20.57	-54.5	-72.4	3.8	7.47e-01	0	43	104	0	80	28371
2026-01-26 12:32:54.88	199.97	20.96	-54.5	-72.4	3.8	7.44e-01	0	44	104	0	80	28393
2026-01-26 12:32:57.90	200.45	21.36	-54.6	-72.4	3.8	7.46e-01	0	43	104	0	80	28459
2026-01-26 12:33:00.93	200.95	21.77	-54.5	-72.3	3.8	7.45e-01	0	44	104	0	80	28094
2026-01-26 12:33:03.95	201.45	22.17	-54.5	-72.3	3.8	7.45e-01	0	43	104	0	80	28311
2026-01-26 12:33:06.97	201.97	22.59	-54.5	-72.3	3.8	7.45e-01	0	44	104	0	80	28051
2026-01-26 12:33:09.99	202.51	23.01	-54.4	-72.1	3.8	7.48e-01	0	43	104	0	80	27516
2026-01-26 12:33:13.01	203.06	23.43	-54.4	-72.2	3.8	7.43e-01	0	44	104	0	80	27823
2026-01-26 12:33:16.04	203.62	23.86	-54.5	-72.3	3.8	7.45e-01	0	44	104	0	80	28184
2026-01-26 12:33:19.06	204.20	24.30	-54.4	-72.0	3.8	7.48e-01	0	44	104	0	80	27304
2026-01-26 12:33:22.08	204.80	24.73	-54.4	-72.0	3.8	7.48e-01	0	44	104	0	80	27267
2026-01-26 12:33:25.10	205.42	25.18	-54.3	-71.8	3.8	7.43e-01	0	43	104	0	80	26562
2026-01-26 12:33:28.12	206.05	25.63	-54.2	-71.5	3.8	7.44e-01	0	44	104	0	80	25730
2026-01-26 12:33:31.15	206.70	26.08	-54.4	-72.1	3.8	7.44e-01	0	44	104	0	80	27498
2026-01-26 12:33:34.17	207.38	26.54	-54.4	-72.1	3.8	7.46e-01	0	44	104	0	80	27617
2026-01-26 12:33:37.19	208.07	27.00	-54.3	-71.8	3.8	7.43e-01	0	44	104	0	80	26544
2026-01-26 12:33:40.21	208.78	27.47	-54.4	-72.0	3.8	7.47e-01	0	44	104	0	80	27098
2026-01-26 12:33:43.23	209.51	27.94	-54.4	-72.1	3.8	7.43e-01	0	44	104	0	80	27528
2026-01-26 12:33:46.25	210.27	28.41	-54.4	-72.1	3.8	7.42e-01	0	43	104	0	80	27479
2026-01-26 12:33:49.28	211.05	28.89	-54.5	-72.2	3.8	7.47e-01	0	43	104	0	80	27945
2026-01-26 12:33:52.30	211.85	29.37	-54.5	-72.3	3.8	7.43e-01	0	43	104	0	80	28302
2026-01-26 12:33:55.32	212.68	29.86	-54.5	-72.3	3.8	7.43e-01	0	43	104	0	80	28133
2026-01-26 12:33:58.35	213.53	30.34	-54.5	-72.3	3.8	7.44e-01	0	44	104	0	80	28241
2026-01-26 12:34:01.37	214.41	30.83	-54.5	-72.3	3.8	7.46e-01	0	43	104	0	80	28283
2026-01-26 12:34:04.39	215.32	31.32	-54.5	-72.3	3.8	7.44e-01	0	43	104	0	80	28278
2026-01-26 12:34:07.41	216.25	31.81	-54.5	-72.3	3.8	7.44e-01	0	44	104	0	80	28310
2026-01-26 12:34:10.44	217.22	32.30	-54.5	-72.3	3.8	7.44e-01	0	43	104	0	80	28210
2026-01-26 12:34:13.46	218.21	32.79	-54.5	-72.4	3.8	7.44e-01	0	43	104	0	80	28433
2026-01-26 12:34:16.47	219.23	33.28	-54.5	-72.3	3.8	7.49e-01	0	43	104	0	80	28296
2026-01-26 12:34:19.49	220.29	33.77	-54.5	-72.3	3.8	7.46e-01	0	43	104	0	80	28211
2026-01-26 12:34:22.51	221.38	34.25	-54.5	-72.4	3.8	7.45e-01	0	44	104	0	80	28408
2026-01-26 12:34:25.53	222.50	34.73	-54.5	-72.3	3.8	7.46e-01	0	44	104	0	80	28125
2026-01-26 12:34:28.56	223.66	35.21	-54.5	-72.2	3.8	7.49e-01	0	43	104	0	80	28008
2026-01-26 12:34:31.58	224.85	35.68	-54.4	-72.1	3.8	7.45e-01	0	43	104	0	80	27689
2026-01-26 12:34:34.60	226.07	36.15	-54.5	-72.2	3.8	7.47e-01	0	43	104	0	80	27815
2026-01-26 12:34:37.63	227.33	36.61	-54.5	-72.2	3.8	7.41e-01	0	43	104	0	80	27853
2026-01-26 12:34:40.66	228.63	37.06	-54.5	-72.2	3.8	7.48e-01	0	43	104	0	80	27977
2026-01-26 12:34:43.67	229.96	37.50	-54.5	-72.3	3.8	7.45e-01	0	44	104	0	80	28195
2026-01-26 12:34:46.70	231.33	37.93	-54.5	-72.3	3.8	7.47e-01	0	44	104	0	80	28213
2026-01-26 12:34:49.73	232.74	38.34	-54.5	-72.3	3.8	7.49e-01	0	44	104	0	80	28333
2026-01-26 12:34:52.75	234.18	38.74	-54.6	-72.4	3.8	7.46e-01	0	44	104	0	80	28427
2026-01-26 12:34:55.77	235.66	39.13	-54.5	-72.4	3.8	7.44e-01	0	44	104	0	80	28419
2026-01-26 12:34:58.79	237.17	39.50	-54.5	-72.4	3.8	7.44e-01	0	44	104	0	80	28384
2026-01-26 12:35:01.82	238.72	39.85	-54.5	-72.4	3.8	7.42e-01	0	44	104	0	80	28415
2026-01-26 12:35:04.85	240.30	40.18	-54.5	-72.4	3.8	7.44e-01	0	44	104	0	80	28401
2026-01-26 12:35:07.87	241.91	40.49	-54.5	-72.4	3.8	7.45e-01	0	44	104	0	80	28451
2026-01-26 12:35:10.90	243.56	40.78	-54.5	-72.3	3.8	7.45e-01	0	44	104	0	80	28326
2026-01-26 12:35:13.92	245.22	41.05	-54.5	-72.3	3.8	7.44e-01	0	44	104	0	80	28344
2026-01-26 12:35:16.94	246.92	41.29	-54.5	-72.3	3.8	7.47e-01	0	43	104	0	80	28279
2026-01-26 12:35:19.96	248.64	41.50	-54.5	-72.3	3.8	7.42e-01	0	44	104	0	80	28315
2026-01-26 12:35:22.98	250.38	41.69	-54.5	-72.4	3.8	7.46e-01	0	43	104	0	80	28402
2026-01-26 12:35:26.01	252.14	41.84	-54.5	-72.4	3.8	7.47e-01	0	44	104	0	80	28362
2026-01-26 12:35:29.03	253.91	41.97	-54.5	-72.4	3.8	7.45e-01	0	44	104	0	80	28392
2026-01-26 12:35:32.05	255.70	42.07	-54.5	-72.3	3.8	7.45e-01	0	43	104	0	80	28303
2026-01-26 12:35:35.07	257.50	42.14	-54.5	-72.4	3.8	7.46e-01	0	44	104	0	80	28409
2026-01-26 12:35:38.08	259.29	42.18	-54.5	-72.4	3.8	7.46e-01	0	44	104	0	80	28382
2026-01-26 12:35:41.10	261.09	42.19	-54.5	-72.4	3.8	7.45e-01	0	44	104	0	80	28358
2026-01-26 12:35:44.13	262.90	42.17	-54.5	-72.3	3.8	7.43e-01	0	44	104	0	80	28310
2026-01-26 12:35:47.14	264.70	42.11	-54.5	-72.4	3.8	7.44e-01	0	44	104	0	80	28389
2026-01-26 12:35:50.16	266.49	42.03	-54.5	-72.4	3.8	7.46e-01	0	43	104	0	80	28419
2026-01-26 12:35:53.18	268.27	41.91	-54.5	-72.4	3.8	7.44e-01	0	43	104	0	80	28400
2026-01-26 12:35:56.21	270.04	41.77	-54.5	-72.3	3.8	7.44e-01	0	43	104	0	80	28336
2026-01-26 12:35:59.23	271.79	41.60	-54.5	-72.3	3.8	7.43e-01	0	44	104	0	80	28328
2026-01-26 12:36:02.25	273.51	41.40	-54.5	-72.3	3.8	7.45e-01	0	44	104	0	80	28284
2026-01-26 12:36:05.27	275.22	41.18	-54.5	-72.3	3.8	7.49e-01	0	44	104	0	80	28317
2026-01-26 12:36:08.29	276.90	40.93	-54.5	-72.3	3.8	7.47e-01	0	44	104	0	80	28341
2026-01-26 12:36:11.32	278.55	40.65	-54.5	-72.3	3.8	7.46e-01	0	44	104	0	80	28319
2026-01-26 12:36:14.34	280.18	40.35	-54.5	-72.3	3.8	7.46e-01	0	43	104	0	80	28326
2026-01-26 12:36:17.36	281.77	40.03	-54.5	-72.3	3.8	7.45e-01	0	44	104	0	80	28293
2026-01-26 12:36:20.38	283.33	39.69	-54.5	-72.3	3.8	7.48e-01	0	44	104	0	80	28343
2026-01-26 12:36:23.41	284.86	39.33	-54.5	-72.3	3.8	7.44e-01	0	44	104	0	80	28241
2026-01-26 12:36:26.43	286.35	38.96	-54.5	-72.3	3.8	7.45e-01	0	43	104	0	80	28195
2026-01-26 12:36:29.45	287.80	38.56	-54.5	-72.3	3.8	7.45e-01	0	44	104	0	80	28276
2026-01-26 12:36:32.47	289.22	38.16	-54.5	-72.3	3.8	7.44e-01	0	44	104	0	80	28347
2026-01-26 12:36:35.50	290.61	37.74	-54.5	-71.5	3.8	7.46e-01	0	43	104	0	80	25664
2026-01-26 12:36:38.52	291.96	37.31	-54.5	-72.3	3.8	7.43e-01	0	43	104	0	80	28120
2026-01-26 12:36:41.54	293.27	36.86	-54.5	-72.3	3.8	7.39e-01	0	43	104	0	80	28228
2026-01-26 12:36:44.56	294.55	36.41	-54.5	-72.4	3.8	7.46e-01	0	44	104	0	80	28362
2026-01-26 12:36:47.58	295.79	35.95	-54.5	-72.3	3.8	7.44e-01	0	44	104	0	80	28303
2026-01-26 12:36:50.61	297.00	35.48	-54.5	-72.1	3.8	7.44e-01	0	43	104	0	80	27668
2026-01-26 12:36:53.63	298.17	35.01	-54.5	-72.3	3.8	7.45e-01	0	43	104	0	80	28346
2026-01-26 12:36:56.64	299.30	34.54	-54.5	-72.3	3.8	7.44e-01	0	43	104	0	80	28105
2026-01-26 12:36:59.66	300.40	34.05	-54.5	-72.3	3.8	7.44e-01	0	43	104	0	80	28278
2026-01-26 12:37:02.68	301.47	33.57	-54.5	-72.3	3.8	7.45e-01	0	43	104	0	80	28270
2026-01-26 12:37:05.69	302.51	33.09	-54.5	-72.3	3.8	7.46e-01	0	44	104	0	80	28345
2026-01-26 12:37:08.72	303.52	32.60	-54.5	-72.3	3.8	7.43e-01	0	43	104	0	80	28275
2026-01-26 12:37:11.75	304.50	32.11	-54.5	-72.3	3.8	7.44e-01	0	44	104	0	80	28272
2026-01-26 12:37:14.77	305.45	31.62	-54.5	-72.3	3.8	7.44e-01	0	44	104	0	80	28225
2026-01-26 12:37:17.79	306.37	31.13	-54.5	-72.3	3.8	7.43e-01	0	44	104	0	80	28216
2026-01-26 12:37:20.81	307.26	30.65	-54.5	-72.3	3.8	7.43e-01	0	44	104	0	80	28332
2026-01-26 12:37:23.84	308.13	30.16	-54.5	-72.3	3.8	7.43e-01	0	44	104	0	80	28305
2026-01-26 12:37:26.86	308.96	29.68	-54.5	-72.3	3.8	7.44e-01	0	43	104	0	80	28177
2026-01-26 12:37:29.88	309.78	29.20	-54.5	-72.4	3.8	7.44e-01	0	44	104	0	80	28394
2026-01-26 12:37:32.90	310.57	28.72	-54.5	-72.3	3.8	7.42e-01	0	44	104	0	80	28258
2026-01-26 12:37:35.92	311.33	28.25	-54.5	-72.3	3.8	7.46e-01	0	43	104	0	80	28309
2026-01-26 12:37:38.95	312.08	27.78	-54.5	-72.3	3.8	7.46e-01	0	43	104	0	80	28344
2026-01-26 12:37:41.97	312.80	27.31	-54.5	-72.4	3.8	7.44e-01	0	43	104	0	80	28360
2026-01-26 12:37:44.99	313.50	26.85	-54.5	-72.4	3.8	7.48e-01	0	43	104	0	80	28389
2026-01-26 12:37:48.01	314.18	26.39	-54.5	-72.3	3.8	7.50e-01	0	43	104	0	80	28268
2026-01-26 12:37:51.03	314.84	25.94	-54.5	-72.3	3.8	7.46e-01	0	44	104	0	80	28313
2026-01-26 12:37:54.05	315.48	25.49	-54.5	-72.4	3.8	7.46e-01	0	44	104	0	80	28462
2026-01-26 12:37:57.07	316.11	25.05	-54.5	-72.3	3.8	7.43e-01	0	43	104	0	80	28284
2026-01-26 12:38:00.09	316.71	24.61	-54.5	-72.4	3.8	7.43e-01	0	44	104	0	80	28363
2026-01-26 12:38:03.09	317.30	24.17	-54.5	-72.3	3.8	7.44e-01	0	44	104	0	80	28331
2026-01-26 12:38:06.11	317.87	23.74	-54.5	-72.4	3.8	7.44e-01	0	43	104	0	80	28418
2026-01-26 12:38:09.13	318.43	23.32	-54.5	-72.3	3.8	7.46e-01	0	44	104	0	80	28319
2026-01-26 12:38:12.14	318.97	22.90	-54.5	-72.4	3.8	7.46e-01	0	44	104	0	80	28362
2026-01-26 12:38:15.17	319.50	22.49	-54.5	-72.3	3.8	7.48e-01	0	44	104	0	80	28336
2026-01-26 12:38:18.20	320.02	22.07	-54.5	-72.3	3.8	7.44e-01	0	44	104	0	80	28329
2026-01-26 12:38:21.22	320.52	21.67	-54.5	-72.3	3.8	7.46e-01	0	44	104	0	80	28144
2026-01-26 12:38:24.25	321.00	21.27	-54.5	-72.3	3.8	7.45e-01	0	44	104	0	80	28304
2026-01-26 12:38:27.27	321.48	20.87	-54.5	-72.3	3.8	7.44e-01	0	43	104	0	80	28236
2026-01-26 12:38:30.29	321.94	20.48	-54.5	-72.3	3.8	7.44e-01	0	43	104	0	80	28142
2026-01-26 12:38:33.31	322.39	20.10	-54.5	-72.3	3.8	7.46e-01	0	43	104	0	80	28130
2026-01-26 12:38:36.32	322.83	19.72	-54.5	-72.2	3.8	7.43e-01	0	44	104	0	80	27979
2026-01-26 12:38:39.34	323.26	19.34	-54.5	-72.3	3.8	7.47e-01	0	44	104	0	80	28100
2026-01-26 12:38:42.37	323.68	18.97	-54.5	-72.3	3.8	7.46e-01	0	43	104	0	80	28160
2026-01-26 12:38:45.39	324.08	18.61	-54.5	-72.3	3.8	7.45e-01	0	44	104	0	80	28284
2026-01-26 12:38:48.41	324.48	18.25	-54.5	-72.3	3.8	7.41e-01	0	44	104	0	80	28257
2026-01-26 12:38:51.43	324.87	17.89	-54.5	-72.3	3.8	7.47e-01	0	43	104	0	80	28155
2026-01-26 12:38:54.46	325.25	17.54	-54.5	-72.2	3.8	7.44e-01	0	44	104	0	80	27982
2026-01-26 12:38:57.48	325.62	17.19	-54.5	-72.2	3.8	7.48e-01	0	44	104	0	80	27869
2026-01-26 12:39:00.51	325.98	16.84	-54.5	-72.3	3.8	7.44e-01	0	43	104	0	80	28124
2026-01-26 12:39:03.53	326.34	16.50	-54.5	-72.3	3.8	7.50e-01	0	44	104	0	80	28188
2026-01-26 12:39:06.55	326.68	16.17	-54.5	-72.3	3.8	7.42e-01	0	43	104	0	80	28086
2026-01-26 12:39:09.58	327.02	15.84	-54.5	-72.3	3.8	7.48e-01	0	44	104	0	80	28165
2026-01-26 12:39:12.60	327.35	15.51	-54.5	-72.4	3.8	7.47e-01	0	43	104	0	80	28361
2026-01-26 12:39:15.62	327.67	15.19	-54.5	-72.4	3.8	7.47e-01	0	44	104	0	80	28422
2026-01-26 12:39:18.64	327.99	14.87	-54.5	-72.3	3.8	7.47e-01	0	44	104	0	80	28348
2026-01-26 12:39:21.66	328.30	14.55	-54.5	-72.3	3.8	7.42e-01	0	43	104	0	80	28297
2026-01-26 12:39:24.68	328.60	14.24	-54.5	-72.4	3.8	7.45e-01	0	43	104	0	80	28423
2026-01-26 12:39:27.70	328.90	13.94	-54.5	-72.4	3.8	7.48e-01	0	44	104	0	80	28362
2026-01-26 12:39:30.73	329.19	13.63	-54.5	-72.4	3.8	7.44e-01	0	44	104	0	80	28385
2026-01-26 12:39:33.75	329.47	13.33	-54.5	-72.4	3.8	7.43e-01	0	44	104	0	80	28367
2026-01-26 12:39:36.77	329.75	13.03	-54.5	-72.4	3.8	7.44e-01	0	44	104	0	80	28406
2026-01-26 12:39:39.79	330.02	12.74	-54.5	-72.4	3.8	7.44e-01	0	44	104	0	80	28419
2026-01-26 12:39:42.81	330.29	12.45	-54.5	-72.4	3.8	7.46e-01	0	44	104	0	80	28397
2026-01-26 12:39:45.83	330.55	12.16	-54.5	-72.4	3.8	7.47e-01	0	43	104	0	80	28457
2026-01-26 12:39:48.86	330.81	11.88	-54.5	-72.4	3.8	7.46e-01	0	43	104	0	80	28428
2026-01-26 12:39:51.88	331.06	11.60	-54.5	-72.4	3.8	7.47e-01	0	44	104	0	80	28445
2026-01-26 12:39:54.90	331.31	11.32	-54.5	-72.4	3.8	7.45e-01	0	43	104	0	80	28437
2026-01-26 12:39:57.93	331.55	11.05	-54.5	-72.4	3.8	7.46e-01	0	44	104	0	80	28419
2026-01-26 12:40:00.93	331.79	10.78	-54.5	-72.4	3.8	7.44e-01	0	44	104	0	80	28377
2026-01-26 12:40:03.95	332.02	10.51	-54.5	-72.4	3.8	7.44e-01	0	43	104	0	80	28423
2026-01-26 12:40:06.97	332.25	10.24	-54.5	-72.4	3.8	7.44e-01	0	43	104	0	80	28427
2026-01-26 12:40:10.00	332.48	9.98	-54.5	-72.4	3.8	7.44e-01	0	43	104	0	80	28352
2026-01-26 12:40:13.02	332.70	9.72	-54.5	-72.4	3.8	7.47e-01	0	44	104	0	80	28409
2026-01-26 12:40:16.04	332.92	9.46	-54.5	-72.4	3.8	7.44e-01	0	43	104	0	80	28447
2026-01-26 12:40:19.06	333.13	9.21	-54.5	-72.4	3.8	7.43e-01	0	44	104	0	80	28392
2026-01-26 12:40:22.09	333.34	8.96	-54.5	-72.3	3.8	7.46e-01	0	44	104	0	80	28332
2026-01-26 12:40:25.12	333.55	8.71	-54.5	-72.3	3.8	7.44e-01	0	44	104	0	80	28305
2026-01-26 12:40:28.14	333.75	8.46	-54.5	-72.4	3.8	7.46e-01	0	44	104	0	80	28358
2026-01-26 12:40:31.16	333.95	8.22	-54.5	-72.4	3.8	7.45e-01	0	44	104	0	80	28353
2026-01-26 12:40:34.18	334.14	7.97	-54.5	-72.3	3.8	7.44e-01	0	43	104	0	80	28347
2026-01-26 12:40:37.20	334.34	7.73	-54.5	-72.3	3.8	7.46e-01	0	44	104	0	80	28228
2026-01-26 12:40:40.22	334.53	7.50	-54.6	-72.3	3.8	7.44e-01	0	44	104	0	80	28299
2026-01-26 12:40:43.24	334.71	7.26	-54.5	-72.3	3.8	7.47e-01	0	43	104	0	80	28334
2026-01-26 12:40:46.27	334.90	7.03	-54.5	-72.3	3.8	7.44e-01	0	43	104	0	80	28331
2026-01-26 12:40:49.30	335.08	6.80	-54.5	-72.4	3.8	7.42e-01	0	44	104	0	80	28363
2026-01-26 12:40:52.31	335.25	6.57	-54.6	-72.4	3.8	7.47e-01	0	44	104	0	80	28454
2026-01-26 12:40:55.33	335.43	6.34	-54.6	-72.4	3.8	7.47e-01	0	44	104	0	80	28424
2026-01-26 12:40:58.35	335.60	6.12	-54.5	-72.4	3.8	7.43e-01	0	44	104	0	80	28437
2026-01-26 12:41:01.37	335.77	5.89	-54.5	-72.4	3.8	7.45e-01	0	44	104	0	80	28480
2026-01-26 12:41:04.39	335.94	5.67	-54.5	-72.4	3.8	7.43e-01	0	44	104	0	80	28501
2026-01-26 12:41:07.40	336.10	5.45	-54.6	-72.4	3.8	7.46e-01	0	44	104	0	80	28355
2026-01-26 12:41:10.42	336.26	5.24	-54.5	-72.4	3.8	7.40e-01	0	43	104	0	80	28384
2026-01-26 12:41:13.45	336.42	5.02	-54.5	-72.4	3.8	7.45e-01	0	43	104	0	80	28492
2026-01-26 12:41:16.47	336.58	4.81	-54.5	-72.4	3.8	7.44e-01	0	43	104	0	80	28464
2026-01-26 12:41:19.49	336.74	4.60	-54.5	-72.4	3.8	7.46e-01	0	44	104	0	80	28450
2026-01-26 12:41:22.51	336.89	4.39	-54.5	-72.4	3.8	7.47e-01	0	44	104	0	80	28451
2026-01-26 12:41:25.53	337.04	4.18	-54.5	-72.4	3.8	7.44e-01	0	44	104	0	80	28397
2026-01-26 12:41:28.55	337.19	3.97	-54.5	-72.4	3.8	7.42e-01	0	43	104	0	80	28442
2026-01-26 12:41:31.58	337.33	3.76	-54.5	-72.4	3.8	7.42e-01	0	43	104	0	80	28383
2026-01-26 12:41:34.61	337.48	3.56	-54.5	-72.3	3.8	7.44e-01	0	44	104	0	80	28129
2026-01-26 12:41:37.63	337.62	3.36	-54.5	-72.3	3.8	7.47e-01	0	44	104	0	80	28304
2026-01-26 12:41:40.65	337.76	3.16	-54.5	-72.4	3.8	7.46e-01	0	43	104	0	80	28451
2026-01-26 12:41:43.67	337.90	2.96	-54.6	-72.4	3.8	7.46e-01	0	43	104	0	80	28480
2026-01-26 12:41:46.69	338.04	2.76	-54.5	-72.4	3.8	7.45e-01	0	43	104	0	80	28424
2026-01-26 12:41:49.71	338.17	2.56	-54.6	-72.4	3.8	7.45e-01	0	44	104	0	80	28366
2026-01-26 12:41:52.73	338.31	2.37	-54.5	-72.4	3.8	7.45e-01	0	44	104	0	80	28448
2026-01-26 12:41:55.76	338.44	2.18	-54.5	-72.4	3.8	7.44e-01	0	44	104	0	80	28426
2026-01-26 12:41:58.78	338.57	1.98	-54.5	-72.4	3.8	7.43e-01	0	44	104	0	80	28483

#Closed at: 2026-01-26 12:42:01
#Recorded file [0 MB]: D:/lorett/data/31041_260126_152926.dat