passes_logs/2026/01/26/R3.2S_Murmansk/R3.2S_Murmansk__20260126_223859_KANOPUS-V_5_rec.log

#Pass ID: 20260126_223859_KANOPUS-V 5
#Satellite: KANOPUS-V 5
#Configuration: KANOPUS-V_8320
#almurnet v.1.7.20251203
#Start time: 2026-01-26 22:39:01

#Version: 2.2.20231116
#Station: R3.2S_Murmansk
#Location: 33.079688 lon 68.888172 lat
#TLE: 1 43876U 18111A   26026.53344362  .00004964  00000+0  21063-3 0  9993
#TLE: 2 43876  97.3674 294.8392 0001826  89.2862 270.8585 15.23550007393227

#Time	Az	El	Level	Level2	SNR	BER	BlckErr	Temp	State	Recorded	gain1	gain2
2026-01-26 22:39:01.58	20.85	2.16	-54.9	-63.8	3.8	7.46e-01	0	41	0	0	80	10542
2026-01-26 22:39:04.60	20.81	2.37	-55.1	-63.9	3.8	7.44e-01	0	41	104	0	81	10174
2026-01-26 22:39:07.63	20.77	2.58	-55.0	-63.8	3.8	7.45e-01	0	41	104	0	81	10006
2026-01-26 22:39:10.65	20.72	2.80	-54.9	-63.7	3.8	7.45e-01	0	42	104	0	81	9944
2026-01-26 22:39:13.67	20.68	3.02	-54.8	-63.6	3.8	7.47e-01	0	42	104	0	81	9794
2026-01-26 22:39:16.70	20.63	3.24	-54.5	-63.3	3.8	7.46e-01	0	42	104	0	81	9438
2026-01-26 22:39:19.72	20.58	3.47	-54.0	-62.8	3.8	7.44e-01	0	42	104	0	79	10015
2026-01-26 22:39:22.74	20.54	3.69	-53.2	-62.0	3.8	7.46e-01	0	42	104	0	78	9713
2026-01-26 22:39:25.76	20.49	3.92	-53.1	-62.1	3.8	7.45e-01	0	42	104	0	78	9746
2026-01-26 22:39:28.79	20.44	4.15	-53.2	-62.0	3.8	7.46e-01	0	42	104	0	78	9663
2026-01-26 22:39:31.81	20.38	4.39	-53.2	-62.0	3.8	7.44e-01	0	42	104	0	78	9695
2026-01-26 22:39:34.83	20.33	4.62	-53.2	-62.0	3.8	7.45e-01	0	42	104	0	78	9695
2026-01-26 22:39:37.85	20.28	4.86	-53.2	-62.0	3.8	7.46e-01	0	42	104	0	78	9657
2026-01-26 22:39:40.88	20.22	5.11	-53.2	-62.0	3.8	7.45e-01	0	42	104	0	78	9706
2026-01-26 22:39:43.90	20.16	5.35	-53.3	-62.1	3.8	7.43e-01	0	43	104	0	78	9801
2026-01-26 22:39:46.92	20.10	5.60	-53.2	-62.0	3.8	7.45e-01	0	43	104	0	78	9653
2026-01-26 22:39:49.95	20.04	5.85	-53.4	-62.3	3.8	7.45e-01	0	43	104	0	78	9960
2026-01-26 22:39:52.96	19.98	6.11	-53.3	-62.1	3.8	7.44e-01	0	43	104	0	78	9802
2026-01-26 22:39:55.99	19.92	6.37	-53.4	-62.2	3.8	7.44e-01	0	43	104	0	78	9890
2026-01-26 22:39:59.01	19.85	6.63	-53.3	-62.1	3.8	7.45e-01	0	43	104	0	78	9825
2026-01-26 22:40:02.03	19.78	6.89	-53.5	-62.3	3.8	7.47e-01	0	43	104	0	78	10056
2026-01-26 22:40:05.06	19.71	7.16	-53.4	-62.2	3.8	7.45e-01	0	43	104	0	78	9913
2026-01-26 22:40:08.08	19.64	7.44	-53.5	-62.3	3.8	7.44e-01	0	43	104	0	78	10025
2026-01-26 22:40:11.10	19.57	7.71	-53.4	-62.3	3.8	7.45e-01	0	43	104	0	78	9949
2026-01-26 22:40:14.13	19.49	8.00	-53.6	-62.4	3.8	7.46e-01	0	43	104	0	78	10168
2026-01-26 22:40:17.14	19.42	8.28	-53.5	-62.3	3.8	7.45e-01	0	43	104	0	78	10054
2026-01-26 22:40:20.16	19.34	8.57	-53.6	-62.4	3.8	7.46e-01	0	43	104	0	78	10163
2026-01-26 22:40:23.19	19.25	8.86	-53.6	-62.4	3.8	7.45e-01	0	43	104	0	78	10086
2026-01-26 22:40:26.20	19.17	9.16	-53.7	-62.5	3.8	7.46e-01	0	43	104	0	78	10286
2026-01-26 22:40:29.22	19.08	9.47	-53.6	-62.4	3.8	7.45e-01	0	43	104	0	78	10164
2026-01-26 22:40:32.24	18.99	9.77	-53.7	-62.5	3.8	7.43e-01	0	43	104	0	78	10271
2026-01-26 22:40:35.27	18.90	10.09	-53.7	-62.5	3.8	7.46e-01	0	43	104	0	78	10232
2026-01-26 22:40:38.29	18.80	10.41	-53.8	-62.6	3.8	7.44e-01	0	43	104	0	78	10316
2026-01-26 22:40:41.31	18.71	10.73	-53.7	-62.5	3.8	7.44e-01	0	43	104	0	78	10279
2026-01-26 22:40:44.34	18.60	11.06	-53.8	-62.6	3.8	7.44e-01	0	43	104	0	78	10302
2026-01-26 22:40:47.36	18.50	11.40	-53.7	-62.6	3.8	7.45e-01	0	43	104	0	78	10320
2026-01-26 22:40:50.38	18.39	11.74	-53.8	-62.6	3.8	7.44e-01	0	44	104	0	78	10407
2026-01-26 22:40:53.40	18.28	12.09	-53.8	-62.6	3.8	7.45e-01	0	44	104	0	78	10372
2026-01-26 22:40:56.42	18.16	12.45	-53.8	-62.7	3.8	7.43e-01	0	44	104	0	78	10431
2026-01-26 22:40:59.44	18.05	12.81	-53.8	-62.6	3.8	7.47e-01	0	44	104	0	78	10387
2026-01-26 22:41:02.47	17.92	13.18	-53.9	-62.7	3.8	7.47e-01	0	44	104	0	78	10495
2026-01-26 22:41:05.49	17.79	13.56	-53.9	-62.7	3.8	7.45e-01	0	44	104	0	78	10445
2026-01-26 22:41:08.52	17.66	13.94	-53.9	-62.7	3.8	7.45e-01	0	44	104	0	78	10484
2026-01-26 22:41:11.53	17.53	14.33	-53.9	-62.7	3.8	7.43e-01	0	44	104	0	78	10514
2026-01-26 22:41:14.56	17.39	14.74	-54.0	-62.8	3.8	7.45e-01	0	44	104	0	78	10555
2026-01-26 22:41:17.58	17.24	15.15	-54.0	-62.8	3.8	7.45e-01	0	44	104	0	78	10589
2026-01-26 22:41:20.59	17.09	15.56	-54.0	-62.8	3.8	7.45e-01	0	44	104	0	78	10589
2026-01-26 22:41:23.62	16.93	15.99	-54.0	-62.8	3.8	7.45e-01	0	43	104	0	78	10632
2026-01-26 22:41:26.64	16.77	16.43	-54.0	-62.8	3.8	7.46e-01	0	44	104	0	78	10632
2026-01-26 22:41:29.66	16.60	16.88	-54.1	-62.9	3.8	7.46e-01	0	44	104	0	78	10691
2026-01-26 22:41:32.69	16.42	17.34	-54.0	-62.9	3.8	7.45e-01	0	43	104	0	78	10660
2026-01-26 22:41:35.71	16.24	17.81	-54.1	-62.9	3.8	7.46e-01	0	44	104	0	78	10707
2026-01-26 22:41:38.74	16.05	18.29	-54.1	-62.9	3.8	7.44e-01	0	44	104	0	78	10701
2026-01-26 22:41:41.76	15.86	18.79	-54.1	-63.0	3.8	7.46e-01	0	44	104	0	78	10785
2026-01-26 22:41:44.77	15.65	19.29	-54.1	-62.9	3.8	7.46e-01	0	44	104	0	78	10738
2026-01-26 22:41:47.79	15.44	19.81	-54.1	-62.9	3.8	7.45e-01	0	44	104	0	78	10761
2026-01-26 22:41:50.82	15.21	20.35	-54.1	-63.0	3.8	7.46e-01	0	44	104	0	78	10816
2026-01-26 22:41:53.84	14.98	20.89	-54.2	-63.0	3.8	7.45e-01	0	44	104	0	78	10844
2026-01-26 22:41:56.86	14.74	21.46	-54.2	-62.9	3.8	7.45e-01	0	44	104	0	78	10778
2026-01-26 22:41:59.89	14.48	22.04	-54.2	-63.0	3.8	7.45e-01	0	44	104	0	78	10884
2026-01-26 22:42:02.91	14.22	22.63	-54.2	-63.0	3.8	7.45e-01	0	44	104	0	79	10239
2026-01-26 22:42:05.93	13.94	23.24	-54.3	-63.1	3.8	7.46e-01	0	44	104	0	79	10358
2026-01-26 22:42:08.95	13.65	23.87	-54.2	-63.0	3.8	7.45e-01	0	44	104	0	79	10279
2026-01-26 22:42:11.97	13.35	24.52	-54.3	-63.1	3.8	7.45e-01	0	44	104	0	79	10332
2026-01-26 22:42:14.99	13.03	25.19	-54.3	-63.1	3.8	7.45e-01	0	44	104	0	79	10362
2026-01-26 22:42:18.01	12.69	25.87	-54.3	-63.2	3.8	7.44e-01	0	44	104	0	79	10419
2026-01-26 22:42:21.04	12.33	26.58	-54.3	-63.1	3.8	7.45e-01	0	44	104	0	79	10386
2026-01-26 22:42:24.06	11.96	27.31	-54.4	-63.2	3.8	7.44e-01	0	44	104	0	79	10452
2026-01-26 22:42:27.07	11.57	28.07	-54.3	-63.2	3.8	7.45e-01	0	44	104	0	79	10436
2026-01-26 22:42:30.10	11.16	28.85	-54.4	-63.2	3.8	7.45e-01	0	44	104	0	79	10477
2026-01-26 22:42:33.12	10.72	29.65	-54.4	-63.2	3.8	7.46e-01	0	44	104	0	79	10503
2026-01-26 22:42:36.15	10.25	30.48	-54.4	-63.2	3.8	7.45e-01	0	44	104	0	79	10528
2026-01-26 22:42:39.17	9.76	31.34	-54.4	-63.2	3.8	7.45e-01	0	44	104	0	79	10495
2026-01-26 22:42:42.19	9.24	32.22	-54.5	-63.3	3.8	7.46e-01	0	44	104	0	79	10577
2026-01-26 22:42:45.21	8.69	33.13	-54.5	-63.3	3.8	7.45e-01	0	44	104	0	79	10623
2026-01-26 22:42:48.23	8.10	34.08	-54.5	-63.3	3.8	7.43e-01	0	44	104	0	79	10635
2026-01-26 22:42:51.25	7.47	35.05	-54.5	-63.4	3.8	7.46e-01	0	44	104	0	79	10663
2026-01-26 22:42:54.28	6.80	36.06	-54.6	-63.4	3.8	7.46e-01	0	44	104	0	79	10726
2026-01-26 22:42:57.30	6.08	37.10	-54.6	-63.4	3.8	7.45e-01	0	44	104	0	79	10699
2026-01-26 22:43:00.33	5.31	38.18	-54.6	-63.4	3.8	7.45e-01	0	44	104	0	79	10744
2026-01-26 22:43:03.34	4.49	39.29	-54.6	-63.4	3.8	7.45e-01	0	44	104	0	79	10707
2026-01-26 22:43:06.37	3.59	40.43	-54.7	-63.5	3.8	7.44e-01	0	44	104	0	79	10811
2026-01-26 22:43:09.40	2.63	41.62	-54.7	-63.5	3.8	7.43e-01	0	44	104	0	79	10875
2026-01-26 22:43:12.43	1.59	42.83	-54.6	-63.5	3.8	7.45e-01	0	44	104	0	80	10182
2026-01-26 22:43:15.46	0.46	44.09	-54.6	-63.5	3.8	7.44e-01	0	44	104	0	80	10214
2026-01-26 22:43:18.49	359.23	45.37	-54.7	-63.5	3.8	7.46e-01	0	44	104	0	80	10275
2026-01-26 22:43:21.51	357.89	46.69	-54.7	-63.6	3.8	7.45e-01	0	44	104	0	80	10312
2026-01-26 22:43:24.53	356.44	48.03	-54.7	-63.6	3.8	7.45e-01	0	44	104	0	80	10306
2026-01-26 22:43:27.56	354.84	49.40	-54.8	-63.6	3.8	7.46e-01	0	44	104	0	80	10298
2026-01-26 22:43:30.58	353.08	50.80	-54.8	-63.6	3.8	7.46e-01	0	44	104	0	80	10317
2026-01-26 22:43:33.61	351.15	52.21	-54.8	-63.6	3.8	7.46e-01	0	44	104	0	80	10406
2026-01-26 22:43:36.63	349.02	53.62	-54.8	-63.6	3.8	7.47e-01	0	44	104	0	80	10404
2026-01-26 22:43:39.65	346.66	55.04	-54.9	-63.7	3.8	7.46e-01	0	44	104	0	80	10433
2026-01-26 22:43:42.67	344.06	56.45	-54.9	-63.7	3.8	7.44e-01	0	44	104	0	80	10457
2026-01-26 22:43:45.70	341.16	57.83	-54.9	-63.7	3.8	7.45e-01	0	44	104	0	80	10511
2026-01-26 22:43:48.72	337.95	59.17	-54.9	-63.7	3.8	7.46e-01	0	44	104	0	80	10511
2026-01-26 22:43:51.75	334.39	60.46	-54.9	-63.7	3.8	7.44e-01	0	44	104	0	80	10503
2026-01-26 22:43:54.77	330.47	61.66	-54.9	-63.8	3.8	7.46e-01	0	44	104	0	80	10545
2026-01-26 22:43:57.79	326.17	62.75	-55.0	-63.8	3.8	7.45e-01	0	44	104	0	80	10584
2026-01-26 22:44:00.81	321.47	63.72	-55.0	-63.9	3.8	7.45e-01	0	44	104	0	80	10658
2026-01-26 22:44:03.84	316.38	64.52	-55.0	-63.8	3.8	7.46e-01	0	44	104	0	80	10626
2026-01-26 22:44:06.87	310.95	65.15	-55.0	-63.9	3.8	7.47e-01	0	44	104	0	80	10697
2026-01-26 22:44:09.89	305.28	65.57	-55.1	-63.9	3.8	7.45e-01	0	44	104	0	80	10709
2026-01-26 22:44:12.92	299.43	65.77	-55.1	-63.9	3.8	7.45e-01	0	44	104	0	80	10699
2026-01-26 22:44:15.93	293.57	65.74	-55.1	-63.9	3.8	7.45e-01	0	44	104	0	80	10677
2026-01-26 22:44:18.96	287.75	65.48	-55.1	-63.9	3.8	7.45e-01	0	44	104	0	80	10698
2026-01-26 22:44:21.98	282.14	65.00	-55.1	-63.9	3.8	7.45e-01	0	44	104	0	80	10736
2026-01-26 22:44:25.00	276.81	64.32	-55.1	-64.0	3.8	7.46e-01	0	44	104	0	80	10783
2026-01-26 22:44:28.02	271.83	63.47	-55.1	-63.9	3.8	7.44e-01	0	44	104	0	80	10761
2026-01-26 22:44:31.05	267.21	62.46	-55.1	-63.9	3.8	7.45e-01	0	44	104	0	80	10706
2026-01-26 22:44:34.07	263.01	61.34	-55.1	-63.9	3.8	7.45e-01	0	44	104	0	80	10717
2026-01-26 22:44:37.09	259.19	60.11	-55.1	-63.9	3.8	7.44e-01	0	44	104	0	80	10732
2026-01-26 22:44:40.12	255.72	58.80	-55.1	-63.9	3.8	7.45e-01	0	44	104	0	80	10703
2026-01-26 22:44:43.15	252.59	57.44	-55.0	-63.8	3.8	7.46e-01	0	44	104	0	80	10618
2026-01-26 22:44:46.17	249.78	56.05	-55.0	-63.9	3.8	7.46e-01	0	44	104	0	80	10669
2026-01-26 22:44:49.20	247.23	54.64	-55.0	-63.8	3.8	7.45e-01	0	44	104	0	80	10648
2026-01-26 22:44:52.22	244.94	53.21	-55.0	-63.8	3.8	7.45e-01	0	44	104	0	80	10610
2026-01-26 22:44:55.24	242.86	51.80	-54.9	-63.7	3.8	7.47e-01	0	44	104	0	80	10499
2026-01-26 22:44:58.26	240.98	50.39	-54.9	-63.7	3.8	7.45e-01	0	44	104	0	80	10532
2026-01-26 22:45:01.27	239.27	49.00	-54.9	-63.7	3.8	7.45e-01	0	44	104	0	80	10522
2026-01-26 22:45:04.29	237.71	47.64	-54.9	-63.7	3.8	7.46e-01	0	44	104	0	80	10489
2026-01-26 22:45:07.32	236.29	46.29	-54.8	-63.7	3.8	7.45e-01	0	44	104	0	80	10454
2026-01-26 22:45:10.34	234.98	44.98	-54.8	-63.7	3.8	7.45e-01	0	44	104	0	80	10431
2026-01-26 22:45:13.36	233.78	43.71	-54.8	-63.7	3.8	7.44e-01	0	44	104	0	80	10426
2026-01-26 22:45:16.38	232.68	42.46	-54.8	-63.6	3.8	7.44e-01	0	44	104	0	80	10403
2026-01-26 22:45:19.40	231.66	41.25	-54.8	-63.6	3.8	7.44e-01	0	44	104	0	80	10341
2026-01-26 22:45:22.43	230.71	40.08	-54.8	-63.6	3.8	7.43e-01	0	44	104	0	80	10343
2026-01-26 22:45:25.45	229.84	38.94	-54.7	-63.5	3.8	7.45e-01	0	44	104	0	80	10280
2026-01-26 22:45:28.48	229.02	37.83	-54.7	-63.6	3.8	7.45e-01	0	44	104	0	80	10299
2026-01-26 22:45:31.50	228.27	36.76	-54.7	-63.5	3.8	7.46e-01	0	44	104	0	80	10253
2026-01-26 22:45:34.52	227.56	35.73	-54.7	-63.5	3.8	7.46e-01	0	44	104	0	80	10229
2026-01-26 22:45:37.55	226.90	34.72	-54.7	-63.5	3.8	7.44e-01	0	44	104	0	80	10208
2026-01-26 22:45:40.57	226.28	33.75	-54.6	-63.5	3.8	7.45e-01	0	44	104	0	80	10213
2026-01-26 22:45:43.60	225.70	32.81	-54.6	-63.4	3.8	7.46e-01	0	44	104	0	80	10117
2026-01-26 22:45:46.62	225.15	31.90	-54.6	-63.4	3.8	7.46e-01	0	44	104	0	80	10112
2026-01-26 22:45:49.64	224.64	31.03	-54.6	-63.4	3.8	7.45e-01	0	44	104	0	80	10131
2026-01-26 22:45:52.67	224.15	30.17	-54.5	-63.4	3.8	7.44e-01	0	44	104	0	80	10108
2026-01-26 22:45:55.69	223.70	29.35	-54.5	-63.3	3.8	7.46e-01	0	44	104	0	80	10021
2026-01-26 22:45:58.71	223.26	28.55	-54.5	-63.3	3.8	7.46e-01	0	44	104	0	80	10058
2026-01-26 22:46:01.74	222.85	27.77	-54.5	-63.3	3.8	7.44e-01	0	44	104	0	80	10033
2026-01-26 22:46:04.76	222.46	27.02	-54.5	-63.3	3.8	7.43e-01	0	44	104	0	80	9989
2026-01-26 22:46:07.78	222.10	26.30	-54.4	-63.2	3.8	7.45e-01	0	44	104	0	80	9937
2026-01-26 22:46:10.81	221.75	25.59	-54.4	-63.2	3.8	7.46e-01	0	44	104	0	80	9926
2026-01-26 22:46:13.83	221.41	24.91	-54.4	-63.2	3.8	7.45e-01	0	44	104	0	80	9884
2026-01-26 22:46:16.86	221.10	24.24	-54.4	-63.2	3.8	7.45e-01	0	44	104	0	80	9894
2026-01-26 22:46:19.87	220.79	23.60	-54.3	-63.2	3.8	7.44e-01	0	44	104	0	80	9877
2026-01-26 22:46:22.88	220.51	22.98	-54.3	-63.2	3.8	7.46e-01	0	44	104	0	80	9851
2026-01-26 22:46:25.91	220.23	22.37	-54.3	-63.1	3.8	7.46e-01	0	44	104	0	80	9819
2026-01-26 22:46:28.93	219.97	21.78	-54.3	-63.1	3.8	7.45e-01	0	44	104	0	80	9765
2026-01-26 22:46:31.96	219.72	21.20	-54.3	-63.1	3.8	7.45e-01	0	44	104	0	79	10341
2026-01-26 22:46:34.98	219.47	20.64	-54.3	-63.1	3.8	7.46e-01	0	44	104	0	79	10358
2026-01-26 22:46:38.00	219.24	20.09	-54.3	-63.0	3.8	7.46e-01	0	44	104	0	79	10283
2026-01-26 22:46:41.02	219.02	19.56	-54.2	-63.1	3.8	7.44e-01	0	44	104	0	79	10298
2026-01-26 22:46:44.04	218.81	19.05	-54.2	-63.0	3.8	7.44e-01	0	44	104	0	79	10253
2026-01-26 22:46:47.06	218.61	18.54	-54.2	-63.0	3.8	7.44e-01	0	44	104	0	79	10271
2026-01-26 22:46:50.09	218.41	18.05	-54.2	-63.0	3.8	7.46e-01	0	44	104	0	79	10191
2026-01-26 22:46:53.11	218.22	17.57	-54.1	-63.0	3.8	7.46e-01	0	44	104	0	79	10203
2026-01-26 22:46:56.13	218.04	17.10	-54.1	-63.0	3.8	7.45e-01	0	44	104	0	79	10187
2026-01-26 22:46:59.15	217.86	16.65	-54.1	-62.9	3.8	7.45e-01	0	44	104	0	79	10162
2026-01-26 22:47:02.16	217.70	16.20	-54.1	-62.9	3.8	7.45e-01	0	44	104	0	79	10125
2026-01-26 22:47:05.18	217.53	15.76	-54.1	-62.9	3.8	7.46e-01	0	44	104	0	79	10128
2026-01-26 22:47:08.20	217.38	15.34	-54.1	-62.9	3.8	7.44e-01	0	44	104	0	79	10079
2026-01-26 22:47:11.23	217.23	14.92	-54.0	-62.9	3.8	7.45e-01	0	44	104	0	79	10095
2026-01-26 22:47:14.25	217.08	14.51	-54.0	-62.8	3.8	7.45e-01	0	44	104	0	79	10017
2026-01-26 22:47:17.27	216.94	14.11	-54.0	-62.8	3.8	7.46e-01	0	44	104	0	79	10024
2026-01-26 22:47:20.30	216.80	13.72	-54.0	-62.8	3.8	7.44e-01	0	44	104	0	79	10007
2026-01-26 22:47:23.32	216.67	13.34	-54.0	-62.8	3.8	7.45e-01	0	44	104	0	79	9980
2026-01-26 22:47:26.35	216.55	12.96	-53.9	-62.7	3.8	7.47e-01	0	44	104	0	79	9911
2026-01-26 22:47:29.37	216.42	12.59	-53.9	-62.7	3.8	7.46e-01	0	44	104	0	79	9864
2026-01-26 22:47:32.40	216.30	12.23	-53.9	-62.7	3.8	7.45e-01	0	44	104	0	79	9865
2026-01-26 22:47:35.42	216.19	11.87	-53.9	-62.7	3.8	7.45e-01	0	44	104	0	79	9901
2026-01-26 22:47:38.45	216.07	11.52	-53.8	-62.7	3.8	7.45e-01	0	44	104	0	79	9855
2026-01-26 22:47:41.46	215.97	11.18	-53.8	-62.6	3.8	7.44e-01	0	44	104	0	79	9769
2026-01-26 22:47:44.48	215.86	10.85	-53.8	-62.6	3.8	7.46e-01	0	44	104	0	79	9778
2026-01-26 22:47:47.51	215.76	10.52	-53.8	-62.6	3.8	7.45e-01	0	44	104	0	79	9772
2026-01-26 22:47:50.54	215.66	10.19	-53.7	-62.5	3.8	7.46e-01	0	44	104	0	79	9709
2026-01-26 22:47:53.57	215.56	9.87	-53.6	-62.5	3.8	7.45e-01	0	44	104	0	79	9644
2026-01-26 22:47:56.59	215.47	9.56	-53.6	-62.5	3.8	7.45e-01	0	44	104	0	79	9639
2026-01-26 22:47:59.61	215.38	9.25	-53.6	-62.5	3.8	7.45e-01	0	44	104	0	79	9631
2026-01-26 22:48:02.63	215.29	8.95	-53.6	-62.4	3.8	7.43e-01	0	44	104	0	79	9577
2026-01-26 22:48:05.66	215.21	8.65	-53.5	-62.4	3.8	7.46e-01	0	44	104	0	79	9503
2026-01-26 22:48:08.68	215.12	8.36	-53.5	-62.3	3.8	7.44e-01	0	44	104	0	79	9476
2026-01-26 22:48:11.71	215.04	8.07	-53.5	-62.3	3.8	7.45e-01	0	44	104	0	78	10038
2026-01-26 22:48:14.73	214.96	7.79	-53.5	-62.3	3.8	7.46e-01	0	44	104	0	78	10012
2026-01-26 22:48:17.76	214.89	7.50	-53.4	-62.2	3.8	7.43e-01	0	44	104	0	78	9885
2026-01-26 22:48:20.79	214.81	7.23	-53.4	-62.2	3.8	7.47e-01	0	44	104	0	78	9900
2026-01-26 22:48:23.81	214.74	6.96	-53.4	-62.2	3.8	7.46e-01	0	44	104	0	78	9884
2026-01-26 22:48:26.84	214.67	6.69	-53.4	-62.2	3.8	7.44e-01	0	44	104	0	78	9909
2026-01-26 22:48:29.86	214.60	6.42	-53.2	-62.1	3.8	7.44e-01	0	44	104	0	78	9723
2026-01-26 22:48:32.89	214.53	6.16	-53.2	-62.1	3.8	7.46e-01	0	44	104	0	78	9751
2026-01-26 22:48:35.91	214.47	5.90	-53.2	-62.1	3.8	7.45e-01	0	44	104	0	78	9761
2026-01-26 22:48:38.93	214.41	5.65	-53.3	-62.1	3.8	7.46e-01	0	44	104	0	78	9756
2026-01-26 22:48:41.95	214.34	5.40	-53.1	-61.9	3.8	7.44e-01	0	44	104	0	78	9530
2026-01-26 22:48:44.98	214.28	5.15	-53.1	-61.9	3.8	7.45e-01	0	44	104	0	78	9523
2026-01-26 22:48:48.01	214.22	4.90	-53.7	-62.6	3.8	7.45e-01	0	44	104	0	78	10301
2026-01-26 22:48:51.03	214.17	4.66	-54.3	-63.1	3.8	7.46e-01	0	44	104	0	79	10410
2026-01-26 22:48:54.06	214.11	4.42	-54.6	-63.4	3.8	7.44e-01	0	44	104	0	79	10689
2026-01-26 22:48:57.08	214.06	4.18	-54.7	-63.5	3.8	7.45e-01	0	44	104	0	79	10900
2026-01-26 22:49:00.10	214.00	3.95	-54.8	-63.6	3.8	7.44e-01	0	44	104	0	80	10354
2026-01-26 22:49:03.12	213.95	3.72	-54.8	-63.6	3.8	7.45e-01	0	44	104	0	80	10366
2026-01-26 22:49:06.14	213.90	3.49	-54.7	-63.6	3.8	7.46e-01	0	44	104	0	80	10303
2026-01-26 22:49:09.17	213.85	3.26	-54.5	-63.4	3.8	7.45e-01	0	44	104	0	80	10099
2026-01-26 22:49:12.19	213.80	3.04	-54.3	-63.2	3.8	7.45e-01	0	44	104	0	80	9834
2026-01-26 22:49:15.22	213.76	2.82	-54.3	-63.1	3.8	7.45e-01	0	44	104	0	80	9804
2026-01-26 22:49:18.24	213.71	2.60	-54.3	-63.1	3.8	7.46e-01	0	44	104	0	80	9818
2026-01-26 22:49:21.26	213.66	2.38	-54.3	-63.1	3.8	7.45e-01	0	44	104	0	80	9793
2026-01-26 22:49:24.28	213.62	2.17	-54.3	-63.1	3.8	7.46e-01	0	44	104	0	80	9790
2026-01-26 22:49:27.30	213.58	1.96	-54.3	-63.1	3.8	7.44e-01	0	44	104	0	80	9775

#Closed at: 2026-01-26 22:49:27
#Recorded file [0 MB]: D:/lorett/data/31041_260127_013901.dat