passes_logs/2026/01/26/R3.2S_Murmansk/R3.2S_Murmansk__20260126_011107_AQUA_rec.log

#Pass ID: 20260126_011107_AQUA
#Satellite: AQUA
#Configuration: AQUA
#almurnet v.1.7.20251203
#Start time: 2026-01-26 01:11:08

#Version: 2.2.20231116
#Station: R3.2S_Murmansk
#Location: 33.079688 lon 68.888172 lat
#TLE: 1 27424U 02022A   26025.50647354  .00001868  00000+0  38363-3 0  9992
#TLE: 2 27424  98.4099 352.1114 0001896  65.7986  47.0097 14.61858879262422

#Time	Az	El	Level	Level2	SNR	BER	BlckErr	Temp	State	Recorded	gain1	gain2
2026-01-26 01:11:08.18	21.45	2.04	-55.3	-73.1	3.8	7.44e-01	0	41	0	0	81	29198
2026-01-26 01:11:11.19	21.58	2.23	-55.4	-73.3	3.8	7.44e-01	0	41	104	0	81	29875
2026-01-26 01:11:14.22	21.72	2.42	-55.5	-73.3	3.8	7.44e-01	0	41	104	0	81	29907
2026-01-26 01:11:17.24	21.85	2.62	-55.5	-73.3	3.8	7.47e-01	0	42	104	0	81	29774
2026-01-26 01:11:20.27	21.99	2.82	-55.4	-73.2	3.8	7.45e-01	0	41	104	0	81	29481
2026-01-26 01:11:23.30	22.13	3.02	-55.3	-73.1	3.8	7.46e-01	0	42	104	0	81	29163
2026-01-26 01:11:26.32	22.27	3.21	-55.0	-72.8	3.8	7.46e-01	0	42	104	0	81	28322
2026-01-26 01:11:29.34	22.41	3.42	-54.4	-71.7	3.8	7.43e-01	0	42	104	0	80	26161
2026-01-26 01:11:32.37	22.56	3.62	-51.1	-55.1	16.2	5.99e-01	0	42	0	524288	72	6182
2026-01-26 01:11:35.39	22.71	3.82	-53.4	-66.0	4.7	7.16e-01	0	42	104	1572864	77	16311
2026-01-26 01:11:38.41	22.86	4.03	-53.4	-65.7	5.0	7.12e-01	0	42	0	1572864	77	15609
2026-01-26 01:11:41.44	23.01	4.24	-52.8	-67.2	3.8	7.44e-01	0	42	104	1572864	77	18577
2026-01-26 01:11:44.46	23.16	4.44	-50.1	-62.5	3.8	7.47e-01	0	42	104	1572864	72	14461
2026-01-26 01:11:47.49	23.32	4.66	-47.7	-59.1	3.8	7.46e-01	0	42	104	1572864	67	12994
2026-01-26 01:11:50.51	23.47	4.87	-46.8	-58.0	3.8	7.43e-01	0	42	104	1572864	65	12871
2026-01-26 01:11:53.53	23.63	5.08	-46.6	-57.8	3.8	7.47e-01	0	42	104	1572864	65	12574
2026-01-26 01:11:56.55	23.80	5.30	-49.2	-61.0	3.9	7.43e-01	0	43	104	1572864	70	13721
2026-01-26 01:11:59.58	23.96	5.52	-47.9	-59.3	3.8	7.46e-01	0	42	104	1572864	67	13371
2026-01-26 01:12:02.60	24.13	5.73	-49.4	-61.3	3.8	7.41e-01	0	42	104	1572864	69	15004
2026-01-26 01:12:05.62	24.30	5.96	-49.1	-60.8	3.8	7.43e-01	0	43	104	1572864	68	14946
2026-01-26 01:12:08.64	24.47	6.18	-46.3	-57.4	3.8	7.45e-01	0	42	104	1572864	64	12757
2026-01-26 01:12:11.66	24.64	6.40	-48.6	-60.1	3.8	7.47e-01	0	43	104	1572864	67	14590
2026-01-26 01:12:14.68	24.82	6.63	-48.0	-59.3	3.9	7.44e-01	0	43	104	1572864	67	13406
2026-01-26 01:12:17.71	25.00	6.86	-46.7	-57.9	3.8	7.48e-01	0	43	104	1572864	65	12736
2026-01-26 01:12:20.73	25.19	7.09	-49.8	-61.9	3.8	7.47e-01	0	43	104	1572864	71	14281
2026-01-26 01:12:23.75	25.37	7.33	-47.5	-58.8	3.8	7.46e-01	0	43	104	1572864	66	13301
2026-01-26 01:12:26.77	25.56	7.56	-48.9	-60.5	3.8	7.44e-01	0	43	104	1572864	68	14528
2026-01-26 01:12:29.80	25.75	7.80	-51.7	-64.9	3.8	7.46e-01	0	43	104	1572864	73	17926
2026-01-26 01:12:32.81	25.95	8.04	-45.8	-56.7	3.8	7.45e-01	0	43	104	1572864	63	12516
2026-01-26 01:12:35.84	26.15	8.28	-51.1	-63.8	3.8	7.45e-01	0	43	104	1572864	72	16716
2026-01-26 01:12:38.86	26.35	8.53	-47.6	-58.8	3.9	7.47e-01	0	43	104	1572864	67	12543
2026-01-26 01:12:41.88	26.56	8.77	-47.3	-58.4	3.8	7.41e-01	0	43	104	1572864	65	13455
2026-01-26 01:12:44.90	26.77	9.02	-46.2	-57.1	3.9	7.43e-01	0	43	104	1572864	63	13087
2026-01-26 01:12:47.92	26.98	9.28	-45.9	-56.8	3.8	7.43e-01	0	43	104	1572864	63	12557
2026-01-26 01:12:50.95	27.20	9.53	-47.2	-58.3	3.8	7.43e-01	0	43	104	1572864	66	12617
2026-01-26 01:12:53.97	27.42	9.79	-50.0	-61.7	3.8	7.47e-01	0	43	104	1572864	70	14791
2026-01-26 01:12:56.99	27.64	10.05	-46.2	-57.1	3.9	7.43e-01	0	43	104	1572864	64	12292
2026-01-26 01:13:00.01	27.87	10.31	-52.4	-66.1	3.7	7.47e-01	0	43	104	1572864	75	18477
2026-01-26 01:13:03.03	28.10	10.58	-46.5	-57.5	3.8	7.43e-01	0	43	104	1572864	65	12206
2026-01-26 01:13:06.05	28.34	10.85	-47.5	-58.6	3.9	7.45e-01	0	43	104	1572864	65	13884
2026-01-26 01:13:09.08	28.58	11.12	-48.8	-60.3	3.8	7.43e-01	0	43	104	1572864	69	13402
2026-01-26 01:13:12.10	28.83	11.39	-45.7	-56.6	3.8	7.43e-01	0	43	104	1572864	63	12276
2026-01-26 01:13:15.12	29.08	11.67	-48.7	-60.3	3.8	7.42e-01	0	43	104	1572864	68	14066
2026-01-26 01:13:18.14	29.34	11.95	-52.2	-65.8	3.9	7.45e-01	0	43	104	1572864	75	17705
2026-01-26 01:13:21.16	29.60	12.23	-46.0	-57.0	3.8	7.45e-01	0	43	104	1572864	64	12101
2026-01-26 01:13:24.18	29.87	12.52	-51.6	-64.7	3.9	7.44e-01	0	43	104	1572864	74	16593
2026-01-26 01:13:27.21	30.14	12.81	-46.2	-57.2	3.8	7.46e-01	0	43	104	1572864	64	12436
2026-01-26 01:13:30.22	30.41	13.11	-44.7	-55.5	3.8	7.45e-01	0	43	104	1572864	61	12149
2026-01-26 01:13:33.25	30.70	13.40	-47.0	-58.1	3.8	7.44e-01	0	43	104	1572864	66	12260
2026-01-26 01:13:36.27	30.99	13.70	-45.8	-56.7	3.8	7.43e-01	0	43	104	1572864	63	12503
2026-01-26 01:13:39.29	31.28	14.01	-45.0	-55.8	3.8	7.45e-01	0	43	104	1572864	62	11938
2026-01-26 01:13:42.32	31.58	14.32	-49.2	-60.9	3.9	7.48e-01	0	43	104	1572864	70	13452
2026-01-26 01:13:45.33	31.89	14.63	-45.2	-56.1	3.8	7.45e-01	0	43	104	1572864	62	12253
2026-01-26 01:13:48.36	32.21	14.94	-46.8	-57.8	3.8	7.44e-01	0	43	104	1572864	65	12614
2026-01-26 01:13:51.38	32.53	15.26	-44.8	-55.6	3.8	7.46e-01	0	43	104	1572864	61	12287
2026-01-26 01:13:54.41	32.86	15.59	-45.4	-56.0	3.8	7.43e-01	0	43	104	1572864	62	12233
2026-01-26 01:13:57.43	33.19	15.91	-45.6	-56.5	3.8	7.48e-01	0	43	104	1572864	63	12109
2026-01-26 01:14:00.46	33.54	16.24	-45.3	-56.2	3.8	7.45e-01	0	43	104	1572864	62	12465
2026-01-26 01:14:03.48	33.89	16.58	-45.8	-56.7	3.8	7.45e-01	0	43	104	1572864	63	12488
2026-01-26 01:14:06.50	34.25	16.92	-47.5	-58.9	3.8	7.44e-01	0	43	104	1572864	67	12678
2026-01-26 01:14:09.52	34.61	17.26	-45.0	-55.8	3.8	7.49e-01	0	43	104	1572864	60	13273
2026-01-26 01:14:12.55	34.99	17.61	-48.0	-59.2	3.9	7.45e-01	0	43	104	1572864	67	13165
2026-01-26 01:14:15.57	35.38	17.96	-45.4	-56.3	3.8	7.45e-01	0	43	104	1572864	62	12562
2026-01-26 01:14:18.60	35.77	18.32	-46.8	-57.9	3.8	7.45e-01	0	43	104	1572864	64	13531
2026-01-26 01:14:21.63	36.18	18.68	-46.0	-56.9	3.8	7.46e-01	0	43	104	1572864	62	13539
2026-01-26 01:14:24.64	36.59	19.05	-44.7	-55.5	3.8	7.43e-01	0	43	104	1572864	61	12163
2026-01-26 01:14:27.67	37.02	19.42	-46.2	-57.0	3.8	7.45e-01	0	43	104	1572864	62	13683
2026-01-26 01:14:30.69	37.45	19.79	-46.1	-57.0	3.8	7.42e-01	0	43	104	1572864	64	12215
2026-01-26 01:14:33.71	37.90	20.17	-44.8	-55.6	3.8	7.43e-01	0	43	104	1572864	61	12311
2026-01-26 01:14:36.73	38.36	20.56	-45.5	-56.3	3.8	7.45e-01	0	43	104	1572864	62	12524
2026-01-26 01:14:39.75	38.83	20.95	-44.5	-55.3	3.8	7.45e-01	0	43	104	1572864	60	12643
2026-01-26 01:14:42.78	39.31	21.34	-48.0	-59.2	3.8	7.42e-01	0	44	104	1572864	68	12420
2026-01-26 01:14:45.80	39.81	21.74	-49.0	-60.4	3.8	7.47e-01	0	43	104	1572864	68	14352
2026-01-26 01:14:48.82	40.31	22.14	-44.9	-55.7	3.8	7.47e-01	0	43	104	1572864	61	12397
2026-01-26 01:14:51.84	40.84	22.55	-49.0	-60.4	3.8	7.47e-01	0	43	104	1572864	68	14296
2026-01-26 01:14:54.87	41.37	22.97	-44.9	-55.7	3.9	7.44e-01	0	43	104	1572864	61	12393
2026-01-26 01:14:57.89	41.92	23.39	-46.8	-57.8	3.8	7.45e-01	0	43	104	1572864	64	13315
2026-01-26 01:15:00.91	42.49	23.81	-48.4	-59.8	3.8	7.44e-01	0	43	104	1572864	68	13353
2026-01-26 01:15:03.92	43.07	24.24	-45.5	-56.4	3.8	7.44e-01	0	43	104	1572864	63	11973
2026-01-26 01:15:06.94	43.67	24.67	-47.6	-58.8	3.8	7.45e-01	0	43	104	1572864	67	12547
2026-01-26 01:15:09.97	44.29	25.11	-50.2	-62.0	3.8	7.43e-01	0	44	104	1572864	70	15228
2026-01-26 01:15:12.99	44.92	25.55	-45.1	-55.9	3.8	7.41e-01	0	43	104	1572864	61	12748
2026-01-26 01:15:16.01	45.57	25.99	-48.3	-59.8	3.9	7.41e-01	0	43	104	1572864	67	14147
2026-01-26 01:15:19.04	46.25	26.45	-44.9	-55.6	3.8	7.46e-01	0	44	104	1572864	61	12327
2026-01-26 01:15:22.05	46.93	26.90	-47.0	-58.0	3.8	7.42e-01	0	43	104	1572864	64	13647
2026-01-26 01:15:25.08	47.65	27.36	-49.1	-60.6	3.8	7.42e-01	0	43	104	1572864	69	13860
2026-01-26 01:15:28.10	48.38	27.82	-46.2	-57.1	3.8	7.43e-01	0	44	104	1572864	64	12306
2026-01-26 01:15:31.13	49.14	28.29	-50.4	-62.6	3.8	7.43e-01	0	44	104	1572864	72	14623
2026-01-26 01:15:34.15	49.91	28.76	-50.2	-62.0	3.8	7.44e-01	0	43	104	1572864	71	14538
2026-01-26 01:15:37.17	50.71	29.23	-44.6	-55.4	3.8	7.41e-01	0	43	104	1572864	61	11961
2026-01-26 01:15:40.20	51.54	29.71	-50.2	-62.2	3.8	7.43e-01	0	44	104	1572864	72	14033
2026-01-26 01:15:43.22	52.39	30.19	-45.7	-56.5	3.8	7.45e-01	0	43	104	1572864	63	12216
2026-01-26 01:15:46.25	53.27	30.67	-45.0	-55.8	3.8	7.44e-01	0	44	104	1572864	61	12619
2026-01-26 01:15:49.28	54.17	31.15	-46.1	-57.0	3.9	7.46e-01	0	43	104	1572864	64	12207
2026-01-26 01:15:52.30	55.11	31.63	-45.0	-55.7	3.8	7.48e-01	0	43	104	1572864	61	12400
2026-01-26 01:15:55.33	56.07	32.11	-45.9	-56.7	3.8	7.43e-01	0	43	104	1572864	63	12379
2026-01-26 01:15:58.35	57.06	32.59	-49.8	-61.5	3.9	7.46e-01	0	43	104	1572864	71	13673
2026-01-26 01:16:01.37	58.07	33.07	-46.1	-56.9	3.8	7.45e-01	0	43	104	1572864	63	12716
2026-01-26 01:16:04.39	59.12	33.55	-46.8	-57.8	3.9	7.48e-01	0	44	104	1572864	65	12607
2026-01-26 01:16:07.41	60.20	34.03	-45.3	-56.0	3.8	7.43e-01	0	43	104	1572864	62	12158
2026-01-26 01:16:10.43	61.32	34.50	-47.4	-58.6	3.8	7.42e-01	0	43	104	1572864	67	12352
2026-01-26 01:16:13.46	62.47	34.97	-45.1	-55.9	3.9	7.50e-01	0	43	104	1572864	62	12006
2026-01-26 01:16:16.48	63.65	35.43	-44.8	-55.5	3.9	7.42e-01	0	43	104	1572864	61	12106
2026-01-26 01:16:19.51	64.87	35.89	-44.9	-46.2	25.5	6.04e-01	0	43	0	3145728	61	4148
2026-01-26 01:16:22.54	66.12	36.34	-46.5	-48.0	23.3	6.03e-01	0	44	0	8912896	65	4054
2026-01-26 01:16:25.56	67.40	36.78	-45.0	-46.2	25.4	6.03e-01	0	43	0	14680064	61	4170
2026-01-26 01:16:28.59	68.73	37.21	-44.8	-46.0	25.8	6.02e-01	0	43	0	20447232	61	4074
2026-01-26 01:16:31.61	70.08	37.63	-44.5	-45.7	26.0	6.02e-01	0	43	0	26214400	61	3943
2026-01-26 01:16:34.63	71.47	38.03	-44.7	-45.9	25.9	6.03e-01	0	44	0	31457280	61	4021
2026-01-26 01:16:37.65	72.89	38.43	-44.6	-45.8	26.0	6.03e-01	0	43	0	37224448	61	3983
2026-01-26 01:16:40.68	74.36	38.81	-44.2	-45.4	26.4	6.00e-01	0	43	0	42991616	60	4010
2026-01-26 01:16:43.70	75.85	39.17	-44.6	-45.8	26.0	6.03e-01	0	43	0	48758784	60	4211
2026-01-26 01:16:46.72	77.38	39.51	-44.6	-45.8	26.0	6.04e-01	0	43	0	54525952	60	4211
2026-01-26 01:16:49.74	78.94	39.83	-44.3	-45.5	26.3	6.02e-01	0	43	0	59768832	60	4057
2026-01-26 01:16:52.76	80.52	40.14	-44.5	-45.6	26.2	6.00e-01	0	43	0	65536000	60	4140
2026-01-26 01:16:55.77	82.14	40.42	-44.5	-45.7	26.0	6.02e-01	0	43	0	71303168	60	4154
2026-01-26 01:16:58.79	83.78	40.68	-44.0	-45.1	26.5	6.02e-01	0	43	0	77070336	59	4144
2026-01-26 01:17:01.80	85.45	40.91	-44.1	-45.3	26.3	6.03e-01	0	43	0	82837504	59	4200
2026-01-26 01:17:04.82	87.14	41.12	-43.9	-45.1	26.5	6.03e-01	0	43	0	88080384	59	4100
2026-01-26 01:17:07.85	88.87	41.31	-44.0	-45.1	26.5	6.02e-01	0	43	0	93847552	59	4118
2026-01-26 01:17:10.86	90.60	41.46	-44.1	-45.3	26.3	6.03e-01	0	43	0	99614720	59	4200
2026-01-26 01:17:13.87	92.34	41.59	-44.1	-45.3	26.3	6.03e-01	0	43	0	104857600	59	4217
2026-01-26 01:17:16.90	94.11	41.69	-44.1	-45.2	26.4	6.02e-01	0	43	0	111149056	59	4182
2026-01-26 01:17:19.92	95.88	41.76	-44.2	-45.3	26.3	6.02e-01	0	43	0	116391936	59	4222
2026-01-26 01:17:22.94	97.66	41.80	-44.2	-45.4	26.2	6.01e-01	0	43	0	122159104	59	4243
2026-01-26 01:17:25.96	99.44	41.81	-44.2	-45.4	26.2	6.00e-01	0	43	0	127926272	59	4244
2026-01-26 01:17:28.98	101.22	41.79	-44.1	-45.3	26.4	6.01e-01	0	43	0	133169152	59	4194
2026-01-26 01:17:32.01	103.00	41.74	-44.2	-45.3	26.3	6.01e-01	0	43	0	139460608	59	4229
2026-01-26 01:17:35.03	104.77	41.66	-44.7	-45.9	26.0	6.01e-01	0	44	0	144703488	60	4262
2026-01-26 01:17:38.05	106.53	41.55	-44.3	-45.5	26.1	6.01e-01	0	44	0	150470656	59	4311
2026-01-26 01:17:41.07	108.28	41.42	-44.6	-45.7	25.9	6.04e-01	0	43	0	156237824	59	4441
2026-01-26 01:17:44.09	110.01	41.25	-44.6	-45.7	25.8	6.03e-01	0	44	0	162004992	59	4438
2026-01-26 01:17:47.11	111.72	41.06	-44.4	-45.6	26.1	6.02e-01	0	44	0	167772160	59	4354
2026-01-26 01:17:50.13	113.41	40.84	-44.4	-45.6	26.0	6.02e-01	0	43	0	173015040	59	4347
2026-01-26 01:17:53.15	115.08	40.59	-44.5	-45.6	26.0	6.03e-01	0	43	0	178782208	59	4378
2026-01-26 01:17:56.18	116.72	40.33	-44.5	-45.7	25.9	6.03e-01	0	43	0	184549376	59	4435
2026-01-26 01:17:59.20	118.33	40.04	-44.7	-45.9	25.8	6.01e-01	0	43	0	190316544	60	4277
2026-01-26 01:18:02.23	119.92	39.72	-44.4	-45.6	26.1	6.07e-01	0	43	0	196083712	60	4131
2026-01-26 01:18:05.25	121.47	39.39	-44.5	-45.7	26.0	6.02e-01	0	43	0	201326592	60	4168
2026-01-26 01:18:08.27	122.99	39.04	-44.4	-45.6	26.2	6.02e-01	0	43	0	207093760	60	4099
2026-01-26 01:18:11.30	124.48	38.67	-44.4	-45.5	26.1	6.05e-01	0	44	0	212860928	60	4076
2026-01-26 01:18:14.32	125.93	38.29	-44.5	-45.6	26.1	6.01e-01	0	43	0	218628096	60	4133
2026-01-26 01:18:17.34	127.34	37.89	-44.4	-45.5	26.2	6.02e-01	0	43	0	224395264	60	4094
2026-01-26 01:18:20.36	128.72	37.47	-44.3	-45.4	26.3	6.03e-01	0	43	0	229638144	60	4041
2026-01-26 01:18:23.38	130.07	37.05	-44.3	-45.5	26.3	6.02e-01	0	43	0	235405312	60	4052
2026-01-26 01:18:26.40	131.38	36.62	-44.1	-45.2	26.3	6.04e-01	0	43	0	241172480	59	4168
2026-01-26 01:18:29.43	132.66	36.17	-44.2	-45.3	26.1	6.02e-01	0	43	0	246939648	59	4239
2026-01-26 01:18:32.45	133.90	35.72	-44.1	-45.3	26.2	6.04e-01	0	44	0	252706816	59	4197
2026-01-26 01:18:35.48	135.10	35.26	-43.6	-44.7	26.8	6.02e-01	0	43	0	257949696	59	3951
2026-01-26 01:18:38.50	136.28	34.79	-43.5	-44.6	26.9	6.01e-01	0	43	0	263716864	58	4123
2026-01-26 01:18:41.52	137.41	34.32	-43.3	-44.4	27.0	6.02e-01	0	44	0	269484032	58	4018
2026-01-26 01:18:44.54	138.52	33.84	-43.3	-44.4	27.1	6.02e-01	0	43	0	275251200	58	4023
2026-01-26 01:18:47.57	139.59	33.36	-42.9	-43.9	27.3	6.02e-01	0	43	0	281018368	57	4041
2026-01-26 01:18:50.59	140.63	32.88	-43.0	-44.1	27.3	6.02e-01	0	43	0	286785536	57	4119
2026-01-26 01:18:53.61	141.64	32.40	-43.0	-44.1	27.3	6.02e-01	0	43	0	292028416	57	4101
2026-01-26 01:18:56.63	142.62	31.92	-42.5	-43.5	27.7	6.02e-01	0	43	0	297795584	57	3868
2026-01-26 01:18:59.65	143.58	31.43	-42.9	-44.0	27.3	6.01e-01	0	43	0	303562752	57	4064
2026-01-26 01:19:02.68	144.50	30.95	-42.6	-43.7	27.6	6.02e-01	0	43	0	309329920	57	3932
2026-01-26 01:19:05.70	145.40	30.47	-42.9	-44.0	27.2	6.00e-01	0	43	0	315097088	57	4086
2026-01-26 01:19:08.72	146.27	29.99	-43.1	-44.1	27.2	6.03e-01	0	43	0	320339968	57	4144
2026-01-26 01:19:11.73	147.11	29.51	-42.9	-44.0	27.3	6.00e-01	0	43	0	326107136	57	4063
2026-01-26 01:19:14.76	147.93	29.03	-43.0	-44.0	27.2	6.02e-01	0	43	0	331874304	57	4098
2026-01-26 01:19:17.78	148.72	28.56	-43.2	-44.3	27.0	6.02e-01	0	43	0	337641472	57	4238
2026-01-26 01:19:20.80	149.49	28.09	-43.3	-44.4	26.9	6.01e-01	0	43	0	343408640	57	4274
2026-01-26 01:19:23.82	150.24	27.62	-43.3	-44.3	26.9	6.02e-01	0	43	0	348651520	57	4238
2026-01-26 01:19:26.84	150.97	27.16	-43.4	-44.5	26.8	6.03e-01	0	43	0	354418688	57	4317
2026-01-26 01:19:29.87	151.67	26.69	-43.6	-44.8	26.5	6.02e-01	0	43	0	360185856	57	4456
2026-01-26 01:19:32.89	152.36	26.24	-43.7	-44.8	26.5	6.01e-01	0	43	0	365953024	57	4459
2026-01-26 01:19:35.91	153.02	25.79	-43.4	-44.5	26.7	6.01e-01	0	43	0	371720192	57	4330
2026-01-26 01:19:38.93	153.67	25.34	-43.8	-45.0	26.3	6.04e-01	0	43	0	376963072	58	4317
2026-01-26 01:19:41.96	154.30	24.90	-44.0	-45.2	26.1	6.05e-01	0	43	0	382730240	58	4395
2026-01-26 01:19:44.98	154.91	24.46	-43.8	-44.9	26.3	6.03e-01	0	43	0	388497408	58	4291
2026-01-26 01:19:48.01	155.51	24.02	-43.7	-44.9	26.4	6.02e-01	0	44	0	394264576	58	4252
2026-01-26 01:19:51.03	156.08	23.60	-43.8	-44.9	26.3	6.04e-01	0	43	0	400031744	58	4279
2026-01-26 01:19:54.05	156.65	23.17	-43.7	-44.8	26.3	6.03e-01	0	43	0	405274624	58	4239
2026-01-26 01:19:57.07	157.19	22.75	-43.9	-45.1	26.1	6.02e-01	0	43	0	411041792	58	4355
2026-01-26 01:20:00.09	157.72	22.34	-43.8	-45.0	26.2	6.03e-01	0	43	0	416808960	58	4315
2026-01-26 01:20:03.11	158.24	21.93	-43.9	-45.1	26.1	6.04e-01	0	43	0	422576128	58	4354
2026-01-26 01:20:06.13	158.75	21.53	-43.7	-44.8	25.5	6.02e-01	0	43	0	428343296	58	4218
2026-01-26 01:20:09.15	159.24	21.13	-43.7	-44.8	26.4	6.03e-01	0	43	0	433586176	58	4222
2026-01-26 01:20:12.18	159.72	20.73	-43.6	-44.8	26.4	6.01e-01	0	43	0	439353344	58	4198
2026-01-26 01:20:15.20	160.18	20.34	-43.6	-44.7	26.4	6.03e-01	0	43	0	445120512	58	4180
2026-01-26 01:20:18.22	160.64	19.96	-43.6	-44.7	26.4	6.03e-01	0	43	0	450887680	58	4181
2026-01-26 01:20:21.24	161.08	19.58	-43.6	-44.7	26.4	6.02e-01	0	43	0	456654848	58	4165
2026-01-26 01:20:24.27	161.51	19.20	-43.6	-44.7	26.4	6.01e-01	0	43	0	461897728	58	4168
2026-01-26 01:20:27.29	161.93	18.83	-43.6	-44.7	26.3	6.04e-01	0	43	0	467664896	58	4184
2026-01-26 01:20:30.32	162.34	18.47	-43.5	-44.6	26.4	6.01e-01	0	43	0	473432064	58	4134
2026-01-26 01:20:33.34	162.75	18.11	-43.6	-44.7	26.3	6.01e-01	0	43	0	479199232	58	4187
2026-01-26 01:20:36.35	163.13	17.75	-43.5	-44.6	26.4	6.04e-01	0	43	0	484966400	58	4124
2026-01-26 01:20:39.37	163.52	17.40	-43.3	-44.4	26.5	6.03e-01	0	43	0	490209280	58	4044
2026-01-26 01:20:42.39	163.89	17.05	-43.3	-44.4	26.6	6.02e-01	0	43	0	495976448	58	4051
2026-01-26 01:20:45.41	164.25	16.71	-43.4	-44.5	26.5	6.01e-01	0	43	0	501743616	58	4084
2026-01-26 01:20:48.43	164.61	16.37	-43.3	-44.4	26.6	6.04e-01	0	43	0	507510784	58	4026
2026-01-26 01:20:51.46	164.96	16.03	-43.4	-44.5	26.5	6.02e-01	0	43	0	513277952	58	4064
2026-01-26 01:20:54.48	165.30	15.70	-43.5	-44.6	26.4	6.02e-01	0	43	0	518520832	58	4122
2026-01-26 01:20:57.49	165.63	15.38	-43.5	-44.6	26.3	6.00e-01	0	43	0	524288000	58	4118
2026-01-26 01:21:00.51	165.96	15.05	-43.5	-44.6	26.3	6.02e-01	0	43	0	530055168	58	4129
2026-01-26 01:21:03.53	166.27	14.73	-43.5	-44.7	26.3	6.01e-01	0	43	0	535822336	58	4146
2026-01-26 01:21:06.56	166.59	14.42	-43.5	-44.7	26.2	6.02e-01	0	43	0	541589504	58	4157
2026-01-26 01:21:09.58	166.89	14.11	-43.7	-44.8	26.0	6.04e-01	0	44	0	546832384	58	4234
2026-01-26 01:21:12.60	167.19	13.80	-43.6	-44.8	26.0	6.04e-01	0	43	0	552599552	58	4195
2026-01-26 01:21:15.62	167.48	13.49	-43.7	-44.9	25.9	6.01e-01	0	43	0	558366720	58	4276
2026-01-26 01:21:18.65	167.77	13.19	-43.8	-45.0	25.8	6.04e-01	0	43	0	564133888	58	4313
2026-01-26 01:21:21.67	168.05	12.90	-43.7	-44.9	26.0	5.99e-01	0	43	0	569901056	58	4265
2026-01-26 01:21:24.69	168.32	12.60	-43.9	-45.0	25.8	6.02e-01	0	43	0	575668224	58	4340
2026-01-26 01:21:27.72	168.59	12.31	-43.8	-45.0	25.9	6.03e-01	0	43	0	580911104	58	4327
2026-01-26 01:21:30.74	168.86	12.02	-43.9	-45.1	25.8	6.03e-01	0	43	0	586678272	58	4342
2026-01-26 01:21:33.76	169.11	11.74	-44.0	-45.1	25.7	6.02e-01	0	43	0	592445440	58	4389
2026-01-26 01:21:36.78	169.37	11.46	-44.0	-45.2	25.6	6.03e-01	0	43	0	598212608	58	4422
2026-01-26 01:21:39.80	169.62	11.18	-43.9	-45.1	25.7	6.01e-01	0	44	0	603979776	58	4363
2026-01-26 01:21:42.82	169.86	10.91	-44.0	-45.2	25.5	6.01e-01	0	44	0	609222656	58	4413
2026-01-26 01:21:45.83	170.10	10.64	-44.2	-45.4	25.3	6.04e-01	0	43	0	614989824	58	4530
2026-01-26 01:21:48.85	170.33	10.37	-44.1	-45.3	25.3	6.04e-01	0	43	0	620756992	59	4235
2026-01-26 01:21:51.87	170.56	10.10	-44.5	-45.7	25.0	6.04e-01	0	43	0	626524160	59	4439
2026-01-26 01:21:54.89	170.79	9.84	-44.2	-45.4	25.3	6.04e-01	0	43	0	632291328	60	4043
2026-01-26 01:21:57.91	171.01	9.58	-44.4	-45.7	24.2	6.02e-01	0	44	0	637534208	60	4163
2026-01-26 01:22:00.93	171.23	9.32	-44.4	-45.7	25.1	6.01e-01	0	43	0	643301376	60	4170
2026-01-26 01:22:03.95	171.44	9.07	-44.7	-46.0	24.8	6.04e-01	0	44	0	649068544	60	4334
2026-01-26 01:22:06.97	171.65	8.82	-44.9	-46.2	24.6	6.02e-01	0	43	0	654835712	60	4407
2026-01-26 01:22:09.99	171.86	8.57	-44.7	-46.0	24.8	6.02e-01	0	44	0	660602880	60	4328
2026-01-26 01:22:13.00	172.06	8.32	-44.7	-46.1	24.7	6.02e-01	0	43	0	665845760	60	4344
2026-01-26 01:22:16.03	172.26	8.07	-44.8	-46.1	24.7	6.02e-01	0	43	0	671612928	60	4372
2026-01-26 01:22:19.04	172.46	7.83	-44.8	-46.1	24.6	6.04e-01	0	43	0	677380096	60	4371
2026-01-26 01:22:22.05	172.65	7.59	-44.8	-46.1	24.6	6.02e-01	0	44	0	683147264	60	4380
2026-01-26 01:22:25.08	172.84	7.35	-45.1	-46.5	24.2	6.02e-01	0	43	0	688390144	60	4567
2026-01-26 01:22:28.10	173.03	7.12	-44.9	-46.2	24.5	6.04e-01	0	43	0	694157312	61	4178
2026-01-26 01:22:31.13	173.21	6.88	-45.1	-46.5	24.1	6.04e-01	0	43	0	699924480	61	4316
2026-01-26 01:22:34.15	173.39	6.65	-45.4	-46.9	23.8	6.02e-01	0	43	0	705691648	61	4496
2026-01-26 01:22:37.17	173.57	6.42	-45.3	-46.7	23.9	6.04e-01	0	43	0	711458816	61	4428
2026-01-26 01:22:40.20	173.75	6.20	-45.3	-46.8	23.9	6.04e-01	0	43	0	717225984	61	4444
2026-01-26 01:22:43.22	173.92	5.97	-45.8	-47.3	23.4	6.03e-01	0	43	0	722468864	62	4444
2026-01-26 01:22:46.24	174.09	5.75	-45.6	-47.1	23.5	6.05e-01	0	43	0	728236032	62	4374
2026-01-26 01:22:49.26	174.26	5.53	-45.5	-47.0	23.6	6.04e-01	0	43	0	734003200	62	4300
2026-01-26 01:22:52.28	174.42	5.31	-45.5	-47.0	23.6	6.03e-01	0	43	0	739770368	62	4297
2026-01-26 01:22:55.30	174.58	5.09	-45.8	-47.3	23.2	6.07e-01	0	43	0	745537536	62	4467
2026-01-26 01:22:58.33	174.74	4.87	-54.4	-72.3	3.8	7.46e-01	0	43	104	748158976	79	29704
2026-01-26 01:23:01.35	174.90	4.66	-54.9	-72.7	3.8	7.45e-01	0	44	104	748158976	80	29470
2026-01-26 01:23:04.37	175.05	4.45	-55.1	-72.9	3.8	7.46e-01	0	44	104	748158976	80	30312
2026-01-26 01:23:07.40	175.21	4.23	-55.4	-73.2	3.8	7.47e-01	0	43	104	748158976	81	29589
2026-01-26 01:23:10.42	175.36	4.03	-55.5	-73.4	3.8	7.48e-01	0	44	104	748158976	81	30119
2026-01-26 01:23:13.43	175.50	3.82	-55.7	-73.5	3.8	7.47e-01	0	43	104	748158976	81	30495
2026-01-26 01:23:16.45	175.65	3.61	-55.8	-73.6	3.8	7.46e-01	0	44	104	748158976	82	29141
2026-01-26 01:23:19.47	175.79	3.41	-55.8	-73.6	3.8	7.43e-01	0	44	104	748158976	82	29138
2026-01-26 01:23:22.50	175.94	3.21	-55.7	-73.6	3.8	7.47e-01	0	43	104	748158976	82	29020
2026-01-26 01:23:25.52	176.08	3.00	-55.6	-73.4	3.8	7.44e-01	0	44	104	748158976	82	28642
2026-01-26 01:23:28.54	176.22	2.81	-55.4	-73.3	3.8	7.47e-01	0	44	104	748158976	82	28123
2026-01-26 01:23:31.56	176.35	2.61	-55.2	-73.1	3.8	7.46e-01	0	44	104	748158976	82	27394
2026-01-26 01:23:34.58	176.49	2.41	-54.8	-72.6	3.8	7.45e-01	0	44	104	748158976	81	27591
2026-01-26 01:23:37.59	176.62	2.22	-54.7	-72.6	3.8	7.45e-01	0	44	104	748158976	81	27436
2026-01-26 01:23:40.62	176.75	2.02	-54.7	-72.5	3.8	7.48e-01	0	44	104	748158976	81	27356

#Closed at: 2026-01-26 01:23:43
#Recorded file [748 MB]: D:/lorett/data/31041_260126_041107.dat