passes_logs/2026/01/26/R3.2S_Murmansk/R3.2S_Murmansk__20260126_124623_SUOMI_NPP_rec.log

#Pass ID: 20260126_124623_SUOMI NPP
#Satellite: SUOMI NPP
#Configuration: NPP
#almurnet v.1.7.20251203
#Start time: 2026-01-26 12:46:24

#Version: 2.2.20231116
#Station: R3.2S_Murmansk
#Location: 33.079688 lon 68.888172 lat
#TLE: 1 37849U 11061A   26025.95877665  .00000192  00000+0  11229-3 0  9997
#TLE: 2 37849  98.7822 327.9136 0002155  44.9234 315.2116 14.19530109738267

#Time	Az	El	Level	Level2	SNR	BER	BlckErr	Temp	State	Recorded	gain1	gain2
2026-01-26 12:46:24.82	233.94	2.05	-53.0	-68.0	3.8	1.49e+00	0	41	0	0	76	21585
2026-01-26 12:46:27.83	234.21	2.19	-53.0	-68.0	3.8	1.49e+00	0	42	104	0	76	21615
2026-01-26 12:46:30.85	234.49	2.34	-53.0	-68.0	3.8	1.49e+00	0	42	104	0	76	21572
2026-01-26 12:46:33.87	234.78	2.48	-53.0	-68.0	3.8	1.49e+00	0	42	104	0	76	21585
2026-01-26 12:46:36.89	235.06	2.63	-53.0	-68.0	3.8	1.49e+00	0	42	104	0	76	21508
2026-01-26 12:46:39.91	235.35	2.77	-53.0	-68.0	3.8	1.49e+00	0	42	104	0	76	21596
2026-01-26 12:46:42.92	235.64	2.92	-53.0	-68.0	3.8	1.49e+00	0	42	104	0	76	21532
2026-01-26 12:46:45.94	235.93	3.07	-53.0	-68.0	3.8	1.49e+00	0	42	104	0	76	21634
2026-01-26 12:46:48.96	236.23	3.21	-53.0	-68.0	3.8	1.49e+00	0	42	104	0	76	21578
2026-01-26 12:46:51.98	236.53	3.36	-53.0	-68.0	3.8	1.49e+00	0	42	104	0	76	21527
2026-01-26 12:46:55.01	236.83	3.51	-53.0	-68.0	3.8	1.49e+00	0	42	104	0	76	21644
2026-01-26 12:46:58.04	237.14	3.65	-53.0	-68.0	3.8	1.49e+00	0	43	104	0	76	21591
2026-01-26 12:47:01.06	237.45	3.80	-53.0	-68.0	3.8	1.49e+00	0	42	104	0	76	21632
2026-01-26 12:47:04.08	237.76	3.95	-53.0	-68.0	3.8	1.49e+00	0	43	104	0	76	21605
2026-01-26 12:47:07.10	238.07	4.09	-53.0	-68.0	3.8	1.49e+00	0	42	104	0	76	21598
2026-01-26 12:47:10.12	238.39	4.24	-53.0	-68.0	3.8	1.49e+00	0	42	104	0	76	21524
2026-01-26 12:47:13.14	238.71	4.39	-53.0	-68.0	3.8	1.49e+00	0	43	104	0	76	21582
2026-01-26 12:47:16.16	239.03	4.54	-53.0	-68.0	3.8	1.49e+00	0	43	104	0	76	21576
2026-01-26 12:47:19.18	239.36	4.68	-53.0	-68.0	3.8	1.49e+00	0	43	104	0	76	21528
2026-01-26 12:47:22.20	239.69	4.83	-53.0	-68.0	3.8	1.49e+00	0	43	104	0	76	21582
2026-01-26 12:47:25.23	240.02	4.98	-53.0	-68.0	3.8	1.49e+00	0	43	104	0	76	21580
2026-01-26 12:47:28.25	240.36	5.13	-53.0	-68.0	3.8	1.49e+00	0	43	104	0	76	21572
2026-01-26 12:47:31.27	240.70	5.28	-53.0	-68.0	3.8	1.49e+00	0	43	104	0	76	21526
2026-01-26 12:47:34.30	241.04	5.42	-53.0	-68.0	3.8	1.49e+00	0	43	104	0	76	21551
2026-01-26 12:47:37.32	241.39	5.57	-53.0	-68.0	3.8	1.49e+00	0	43	104	0	76	21630
2026-01-26 12:47:40.34	241.74	5.72	-53.0	-68.0	3.8	1.49e+00	0	43	104	0	76	21564
2026-01-26 12:47:43.36	242.09	5.87	-53.0	-68.0	3.8	1.49e+00	0	43	104	0	76	21611
2026-01-26 12:47:46.39	242.45	6.01	-53.0	-68.0	3.8	1.49e+00	0	43	104	0	76	21559
2026-01-26 12:47:49.41	242.81	6.16	-53.0	-68.0	3.8	1.49e+00	0	43	104	0	76	21538
2026-01-26 12:47:52.44	243.17	6.31	-53.0	-68.0	3.8	1.49e+00	0	43	104	0	76	21571
2026-01-26 12:47:55.46	243.54	6.46	-53.0	-68.0	3.8	1.49e+00	0	43	104	0	76	21536
2026-01-26 12:47:58.49	243.91	6.60	-53.0	-68.0	3.8	1.49e+00	0	43	104	0	76	21596
2026-01-26 12:48:01.51	244.28	6.75	-53.0	-68.0	3.8	1.49e+00	0	43	104	0	76	21620
2026-01-26 12:48:04.52	244.66	6.90	-53.0	-68.0	3.8	1.49e+00	0	43	104	0	76	21597
2026-01-26 12:48:07.55	245.04	7.04	-53.0	-68.0	3.8	1.49e+00	0	43	104	0	76	21524
2026-01-26 12:48:10.57	245.43	7.19	-53.0	-68.0	3.8	1.49e+00	0	43	104	0	76	21607
2026-01-26 12:48:13.60	245.82	7.34	-53.0	-68.0	3.8	1.49e+00	0	43	104	0	76	21590
2026-01-26 12:48:16.62	246.21	7.48	-53.0	-68.0	3.8	1.49e+00	0	43	104	0	76	21572
2026-01-26 12:48:19.63	246.60	7.63	-53.0	-68.0	3.8	1.49e+00	0	43	104	0	76	21553
2026-01-26 12:48:22.66	247.00	7.77	-53.0	-68.0	3.8	1.49e+00	0	43	104	0	76	21629
2026-01-26 12:48:25.68	247.41	7.92	-53.0	-68.0	3.8	1.49e+00	0	43	104	0	76	21578
2026-01-26 12:48:28.70	247.82	8.06	-53.0	-68.0	3.8	1.49e+00	0	43	104	0	76	21610
2026-01-26 12:48:31.73	248.23	8.21	-53.0	-68.0	3.8	1.49e+00	0	43	104	0	76	21609
2026-01-26 12:48:34.74	248.64	8.35	-53.0	-68.0	3.8	1.49e+00	0	43	104	0	76	21595
2026-01-26 12:48:37.77	249.06	8.49	-53.0	-68.0	3.8	1.49e+00	0	43	104	0	76	21636
2026-01-26 12:48:40.80	249.49	8.64	-53.0	-68.0	3.8	1.49e+00	0	43	104	0	76	21611
2026-01-26 12:48:43.82	249.92	8.78	-53.0	-68.0	3.8	1.49e+00	0	43	104	0	76	21629
2026-01-26 12:48:46.84	250.35	8.92	-53.0	-68.0	3.8	1.49e+00	0	43	104	0	76	21574
2026-01-26 12:48:49.85	250.78	9.06	-53.0	-68.0	3.8	1.49e+00	0	43	104	0	76	21524
2026-01-26 12:48:52.87	251.22	9.20	-53.0	-68.0	3.8	1.49e+00	0	43	104	0	76	21570
2026-01-26 12:48:55.89	251.66	9.34	-53.0	-68.0	3.8	1.49e+00	0	43	104	0	76	21577
2026-01-26 12:48:58.92	252.11	9.48	-53.0	-68.0	3.8	1.49e+00	0	44	104	0	76	21593
2026-01-26 12:49:01.94	252.56	9.62	-53.0	-68.0	3.8	1.49e+00	0	44	104	0	76	21573
2026-01-26 12:49:04.95	253.02	9.75	-53.0	-68.0	3.8	1.49e+00	0	43	104	0	76	21563
2026-01-26 12:49:07.97	253.48	9.89	-53.0	-68.0	3.8	1.49e+00	0	43	104	0	76	21550
2026-01-26 12:49:10.99	253.94	10.02	-53.0	-67.9	3.8	1.49e+00	0	44	104	0	76	21501
2026-01-26 12:49:14.01	254.41	10.16	-53.0	-68.0	3.8	1.49e+00	0	43	104	0	76	21627
2026-01-26 12:49:17.04	254.88	10.29	-53.0	-68.0	3.8	1.49e+00	0	43	104	0	76	21610
2026-01-26 12:49:20.06	255.36	10.43	-53.0	-68.0	3.8	1.49e+00	0	43	104	0	76	21637
2026-01-26 12:49:23.08	255.84	10.56	-53.0	-68.0	3.8	1.49e+00	0	44	104	0	76	21594
2026-01-26 12:49:26.11	256.33	10.69	-53.0	-68.0	3.8	1.49e+00	0	43	104	0	76	21546
2026-01-26 12:49:29.13	256.82	10.82	-53.0	-68.0	3.8	1.49e+00	0	43	104	0	76	21548
2026-01-26 12:49:32.15	257.31	10.95	-53.0	-68.0	3.8	1.49e+00	0	43	104	0	76	21548
2026-01-26 12:49:35.17	257.81	11.07	-53.0	-68.0	3.8	1.49e+00	0	44	104	0	76	21569
2026-01-26 12:49:38.19	258.31	11.20	-53.0	-68.0	3.8	1.49e+00	0	44	104	0	76	21557
2026-01-26 12:49:41.21	258.81	11.32	-53.0	-68.0	3.8	1.49e+00	0	44	104	0	76	21582
2026-01-26 12:49:44.23	259.32	11.45	-53.0	-68.0	3.8	1.49e+00	0	43	104	0	76	21602
2026-01-26 12:49:47.25	259.84	11.57	-53.0	-68.0	3.8	1.49e+00	0	43	104	0	76	21556
2026-01-26 12:49:50.28	260.36	11.69	-53.0	-68.0	3.8	1.49e+00	0	43	104	0	76	21601
2026-01-26 12:49:53.29	260.88	11.81	-53.0	-68.0	3.8	1.49e+00	0	44	104	0	76	21607
2026-01-26 12:49:56.31	261.40	11.92	-53.0	-68.0	3.8	1.49e+00	0	44	104	0	76	21589
2026-01-26 12:49:59.33	261.93	12.04	-53.0	-68.0	3.8	1.49e+00	0	44	104	0	76	21537
2026-01-26 12:50:02.35	262.47	12.15	-53.0	-68.0	3.8	1.49e+00	0	44	104	0	76	21588
2026-01-26 12:50:05.37	263.01	12.26	-53.0	-68.0	3.8	1.49e+00	0	44	104	0	76	21584
2026-01-26 12:50:08.39	263.55	12.37	-53.0	-68.0	3.8	1.49e+00	0	43	104	0	76	21580
2026-01-26 12:50:11.41	264.09	12.48	-53.0	-68.0	3.8	1.49e+00	0	43	104	0	76	21562
2026-01-26 12:50:14.44	264.64	12.59	-53.0	-68.0	3.8	1.49e+00	0	43	104	0	76	21631
2026-01-26 12:50:17.46	265.20	12.69	-53.0	-68.0	3.8	1.49e+00	0	44	104	0	76	21544
2026-01-26 12:50:20.48	265.76	12.80	-53.0	-68.0	3.8	1.49e+00	0	43	104	0	76	21617
2026-01-26 12:50:23.49	266.31	12.90	-53.0	-68.0	3.8	1.49e+00	0	44	104	0	76	21626
2026-01-26 12:50:26.51	266.88	12.99	-53.0	-68.0	3.8	1.49e+00	0	44	104	0	76	21556
2026-01-26 12:50:29.53	267.45	13.09	-53.0	-68.0	3.8	1.49e+00	0	44	104	0	76	21570
2026-01-26 12:50:32.55	268.02	13.18	-53.0	-68.0	3.8	1.49e+00	0	44	104	0	76	21542
2026-01-26 12:50:35.57	268.59	13.28	-53.0	-68.0	3.8	1.49e+00	0	43	104	0	76	21587
2026-01-26 12:50:38.59	269.17	13.37	-53.0	-68.0	3.8	1.49e+00	0	44	104	0	76	21614
2026-01-26 12:50:41.61	269.75	13.45	-53.0	-68.0	3.8	1.49e+00	0	43	104	0	76	21617
2026-01-26 12:50:44.64	270.34	13.54	-53.0	-68.0	3.8	1.49e+00	0	43	104	0	76	21573
2026-01-26 12:50:47.67	270.93	13.62	-53.0	-68.0	3.8	1.49e+00	0	44	104	0	76	21518
2026-01-26 12:50:50.69	271.52	13.70	-53.0	-68.0	3.8	1.49e+00	0	43	104	0	76	21581
2026-01-26 12:50:53.72	272.12	13.78	-53.0	-68.0	3.8	1.49e+00	0	44	104	0	76	21547
2026-01-26 12:50:56.75	272.72	13.85	-53.0	-68.0	3.8	1.49e+00	0	44	104	0	76	21604
2026-01-26 12:50:59.77	273.32	13.92	-53.0	-68.0	3.8	1.49e+00	0	43	104	0	76	21558
2026-01-26 12:51:02.79	273.92	13.99	-53.0	-68.0	3.8	1.49e+00	0	43	104	0	76	21563
2026-01-26 12:51:05.82	274.53	14.06	-53.0	-68.0	3.8	1.49e+00	0	43	104	0	76	21554
2026-01-26 12:51:08.84	275.14	14.12	-53.0	-68.0	3.8	1.49e+00	0	44	104	0	76	21587
2026-01-26 12:51:11.87	275.75	14.18	-53.0	-68.0	3.8	1.49e+00	0	44	104	0	76	21579
2026-01-26 12:51:14.89	276.36	14.24	-53.0	-68.0	3.8	1.49e+00	0	44	104	0	76	21585
2026-01-26 12:51:17.92	276.98	14.30	-53.0	-68.0	3.8	1.49e+00	0	44	104	0	76	21547
2026-01-26 12:51:20.94	277.60	14.35	-53.0	-68.0	3.8	1.49e+00	0	43	104	0	76	21584
2026-01-26 12:51:23.96	278.22	14.40	-53.0	-68.0	3.8	1.49e+00	0	44	104	0	76	21578
2026-01-26 12:51:26.97	278.84	14.45	-53.0	-67.9	3.8	1.49e+00	0	44	104	0	76	21503
2026-01-26 12:51:29.99	279.46	14.49	-53.0	-68.0	3.8	1.49e+00	0	44	104	0	76	21612
2026-01-26 12:51:33.02	280.09	14.53	-53.0	-68.0	3.8	1.49e+00	0	44	104	0	76	21571
2026-01-26 12:51:36.04	280.71	14.57	-53.0	-67.9	3.8	1.49e+00	0	44	104	0	76	21482
2026-01-26 12:51:39.06	281.34	14.60	-53.0	-68.0	3.8	1.49e+00	0	44	104	0	76	21531
2026-01-26 12:51:42.08	281.97	14.63	-53.0	-68.0	3.8	1.49e+00	0	44	104	0	76	21545
2026-01-26 12:51:45.09	282.60	14.66	-53.0	-67.9	3.8	1.49e+00	0	44	104	0	76	21432
2026-01-26 12:51:48.11	283.23	14.68	-53.0	-68.0	3.8	1.49e+00	0	43	104	0	76	21562
2026-01-26 12:51:51.14	283.86	14.70	-53.0	-68.0	3.8	1.49e+00	0	44	104	0	76	21541
2026-01-26 12:51:54.16	284.50	14.72	-53.0	-68.0	3.8	1.49e+00	0	44	104	0	76	21559
2026-01-26 12:51:57.19	285.13	14.74	-53.0	-68.0	3.8	1.49e+00	0	43	104	0	76	21565
2026-01-26 12:52:00.21	285.77	14.75	-53.0	-67.9	3.8	1.49e+00	0	44	104	0	76	21473
2026-01-26 12:52:03.23	286.40	14.76	-53.0	-67.9	3.8	1.49e+00	0	43	104	0	76	21482
2026-01-26 12:52:06.25	287.04	14.76	-53.0	-68.0	3.8	1.49e+00	0	43	104	0	76	21529
2026-01-26 12:52:09.28	287.67	14.76	-53.0	-67.9	3.8	1.49e+00	0	44	104	0	76	21470
2026-01-26 12:52:12.30	288.31	14.76	-53.0	-67.9	3.8	1.49e+00	0	43	104	0	76	21266
2026-01-26 12:52:15.31	288.94	14.76	-53.0	-67.7	3.8	1.49e+00	0	43	104	0	76	20927
2026-01-26 12:52:18.34	289.58	14.75	-53.0	-67.8	3.8	1.49e+00	0	43	104	0	76	21041
2026-01-26 12:52:21.37	290.21	14.74	-53.0	-67.9	3.8	1.49e+00	0	44	104	0	76	21438
2026-01-26 12:52:24.38	290.84	14.72	-53.0	-68.0	3.8	1.49e+00	0	44	104	0	76	21567
2026-01-26 12:52:27.41	291.48	14.70	-53.0	-68.0	3.8	1.49e+00	0	44	104	0	76	21551
2026-01-26 12:52:30.43	292.11	14.68	-53.0	-67.9	3.8	1.49e+00	0	43	104	0	76	21454
2026-01-26 12:52:33.45	292.74	14.66	-53.0	-67.9	3.8	1.49e+00	0	44	104	0	76	21392
2026-01-26 12:52:36.48	293.37	14.63	-53.0	-68.0	3.8	1.49e+00	0	44	104	0	76	21528
2026-01-26 12:52:39.49	294.00	14.60	-53.0	-68.0	3.8	1.49e+00	0	44	104	0	76	21569
2026-01-26 12:52:42.51	294.62	14.57	-53.0	-68.0	3.8	1.49e+00	0	44	104	0	76	21522
2026-01-26 12:52:45.54	295.25	14.53	-53.0	-67.9	3.8	1.49e+00	0	44	104	0	76	21497
2026-01-26 12:52:48.56	295.88	14.49	-53.0	-68.0	3.8	1.49e+00	0	44	104	0	76	21513
2026-01-26 12:52:51.58	296.50	14.45	-53.0	-67.9	3.8	1.49e+00	0	44	104	0	76	21497
2026-01-26 12:52:54.60	297.12	14.40	-53.0	-67.9	3.8	1.49e+00	0	44	104	0	76	21506
2026-01-26 12:52:57.62	297.74	14.35	-53.0	-68.0	3.8	1.49e+00	0	44	104	0	76	21556
2026-01-26 12:53:00.64	298.35	14.30	-53.0	-68.0	3.8	1.49e+00	0	43	104	0	76	21509
2026-01-26 12:53:03.66	298.97	14.25	-53.0	-68.0	3.8	1.49e+00	0	44	104	0	76	21535
2026-01-26 12:53:06.69	299.58	14.19	-53.0	-67.9	3.8	1.49e+00	0	44	104	0	76	21494
2026-01-26 12:53:09.71	300.19	14.13	-53.0	-67.9	3.8	1.49e+00	0	44	104	0	76	21419
2026-01-26 12:53:12.73	300.80	14.06	-53.0	-67.9	3.8	1.49e+00	0	44	104	0	76	21489
2026-01-26 12:53:15.75	301.40	14.00	-53.0	-67.9	3.8	1.49e+00	0	44	104	0	76	21503
2026-01-26 12:53:18.78	302.01	13.93	-53.0	-67.9	3.8	1.49e+00	0	44	104	0	76	21484
2026-01-26 12:53:21.80	302.61	13.86	-53.0	-67.9	3.8	1.49e+00	0	44	104	0	76	21412
2026-01-26 12:53:24.83	303.20	13.78	-53.0	-67.9	3.8	1.49e+00	0	43	104	0	76	21468
2026-01-26 12:53:27.84	303.79	13.71	-53.0	-67.9	3.8	1.49e+00	0	44	104	0	76	21484
2026-01-26 12:53:30.86	304.38	13.63	-53.0	-67.9	3.8	1.49e+00	0	44	104	0	76	21349
2026-01-26 12:53:33.89	304.97	13.54	-53.0	-67.8	3.8	1.49e+00	0	44	104	0	76	21101
2026-01-26 12:53:36.90	305.55	13.46	-53.0	-67.7	3.8	1.49e+00	0	44	104	0	76	20904
2026-01-26 12:53:39.93	306.14	13.37	-53.0	-67.7	3.8	1.49e+00	0	44	104	0	76	20991
2026-01-26 12:53:42.96	306.72	13.28	-53.0	-67.9	3.8	1.49e+00	0	44	104	0	76	21323
2026-01-26 12:53:45.98	307.29	13.19	-53.0	-67.9	3.8	1.49e+00	0	44	104	0	76	21373
2026-01-26 12:53:49.00	307.86	13.10	-53.0	-68.0	3.8	1.49e+00	0	44	104	0	76	21507
2026-01-26 12:53:52.03	308.43	13.00	-53.0	-67.9	3.8	1.49e+00	0	43	104	0	76	21470
2026-01-26 12:53:55.04	308.99	12.91	-53.0	-67.9	3.8	1.49e+00	0	44	104	0	76	21397
2026-01-26 12:53:58.07	309.55	12.81	-53.0	-67.9	3.8	1.49e+00	0	43	104	0	76	21415
2026-01-26 12:54:01.09	310.11	12.70	-53.0	-67.9	3.8	1.49e+00	0	44	104	0	76	21432
2026-01-26 12:54:04.10	310.66	12.60	-53.0	-67.9	3.8	1.49e+00	0	44	104	0	76	21455
2026-01-26 12:54:07.13	311.20	12.50	-53.0	-68.0	3.8	1.49e+00	0	44	104	0	76	21508
2026-01-26 12:54:10.14	311.75	12.39	-53.0	-68.0	3.8	1.49e+00	0	43	104	0	76	21540
2026-01-26 12:54:13.17	312.29	12.28	-53.0	-67.9	3.8	1.49e+00	0	44	104	0	76	21459
2026-01-26 12:54:16.20	312.83	12.17	-53.0	-67.9	3.8	1.49e+00	0	44	104	0	76	21495
2026-01-26 12:54:19.22	313.36	12.05	-53.0	-67.9	3.8	1.49e+00	0	44	104	0	76	21443
2026-01-26 12:54:22.24	313.89	11.94	-53.0	-67.9	3.8	1.49e+00	0	44	104	0	76	21464
2026-01-26 12:54:25.27	314.41	11.82	-53.0	-67.9	3.8	1.49e+00	0	44	104	0	76	21431
2026-01-26 12:54:28.29	314.93	11.71	-53.0	-67.9	3.8	1.49e+00	0	44	104	0	76	21482
2026-01-26 12:54:31.31	315.45	11.59	-53.0	-67.9	3.8	1.49e+00	0	44	104	0	76	21484
2026-01-26 12:54:34.33	315.96	11.47	-53.0	-68.0	3.8	1.49e+00	0	44	104	0	76	21542
2026-01-26 12:54:37.35	316.47	11.34	-53.0	-67.9	3.8	1.49e+00	0	44	104	0	76	21480
2026-01-26 12:54:40.36	316.97	11.22	-53.0	-67.9	3.8	1.49e+00	0	44	104	0	76	21399
2026-01-26 12:54:43.38	317.47	11.10	-53.0	-67.9	3.8	1.49e+00	0	44	104	0	76	21457
2026-01-26 12:54:46.39	317.97	10.97	-53.0	-67.9	3.8	1.49e+00	0	44	104	0	76	21461
2026-01-26 12:54:49.43	318.46	10.84	-53.0	-67.9	3.8	1.49e+00	0	44	104	0	76	21492
2026-01-26 12:54:52.45	318.95	10.71	-53.0	-67.9	3.8	1.49e+00	0	44	104	0	76	21504
2026-01-26 12:54:55.47	319.43	10.58	-53.0	-67.9	3.8	1.49e+00	0	43	104	0	76	21450
2026-01-26 12:54:58.49	319.91	10.45	-53.0	-67.9	3.8	1.49e+00	0	44	104	0	76	21398
2026-01-26 12:55:01.51	320.38	10.32	-53.0	-67.9	3.8	1.49e+00	0	44	104	0	76	21362
2026-01-26 12:55:04.53	320.85	10.19	-53.0	-67.9	3.8	1.49e+00	0	44	104	0	76	21396
2026-01-26 12:55:07.56	321.32	10.06	-53.0	-67.9	3.8	1.49e+00	0	44	104	0	76	21451
2026-01-26 12:55:10.58	321.79	9.92	-53.0	-67.9	3.8	1.49e+00	0	44	104	0	76	21503
2026-01-26 12:55:13.60	322.24	9.79	-53.0	-67.9	3.8	1.49e+00	0	44	104	0	76	21475
2026-01-26 12:55:16.62	322.70	9.65	-53.0	-67.9	3.8	1.49e+00	0	43	104	0	76	21359
2026-01-26 12:55:19.65	323.15	9.51	-53.0	-67.9	3.8	1.49e+00	0	44	104	0	76	21335
2026-01-26 12:55:22.66	323.59	9.38	-53.0	-67.9	3.8	1.49e+00	0	44	104	0	76	21284
2026-01-26 12:55:25.68	324.04	9.24	-53.0	-67.8	3.8	1.49e+00	0	44	104	0	76	21260
2026-01-26 12:55:28.69	324.47	9.10	-53.0	-67.8	3.8	1.49e+00	0	44	104	0	76	21197
2026-01-26 12:55:31.72	324.91	8.96	-53.0	-67.9	3.8	1.49e+00	0	44	104	0	76	21413
2026-01-26 12:55:34.74	325.34	8.82	-53.0	-67.9	3.8	1.49e+00	0	43	104	0	76	21445
2026-01-26 12:55:37.77	325.77	8.68	-53.0	-68.0	3.8	1.49e+00	0	43	104	0	76	21511
2026-01-26 12:55:40.78	326.19	8.54	-53.0	-67.9	3.8	1.49e+00	0	43	104	0	76	21483
2026-01-26 12:55:43.80	326.60	8.40	-53.0	-68.0	3.8	1.49e+00	0	44	104	0	76	21522
2026-01-26 12:55:46.82	327.02	8.25	-53.0	-67.9	3.8	1.49e+00	0	44	104	0	76	21472
2026-01-26 12:55:49.85	327.43	8.11	-53.0	-68.0	3.8	1.49e+00	0	43	104	0	76	21546
2026-01-26 12:55:52.86	327.84	7.97	-53.0	-67.9	3.8	1.49e+00	0	43	104	0	76	21483
2026-01-26 12:55:55.89	328.24	7.82	-53.0	-67.9	3.8	1.49e+00	0	44	104	0	76	21478
2026-01-26 12:55:58.91	328.64	7.68	-53.0	-67.9	3.8	1.49e+00	0	43	104	0	76	21452
2026-01-26 12:56:01.93	329.03	7.54	-53.0	-67.9	3.8	1.49e+00	0	44	104	0	76	21465
2026-01-26 12:56:04.96	329.43	7.39	-53.0	-67.9	3.8	1.49e+00	0	44	104	0	76	21478
2026-01-26 12:56:07.97	329.81	7.25	-53.0	-67.9	3.8	1.49e+00	0	44	104	0	76	21473
2026-01-26 12:56:11.00	330.20	7.10	-53.0	-67.9	3.8	1.49e+00	0	44	104	0	76	21453
2026-01-26 12:56:14.02	330.58	6.96	-53.0	-68.0	3.8	1.49e+00	0	44	104	0	76	21526
2026-01-26 12:56:17.04	330.95	6.81	-53.0	-67.9	3.8	1.49e+00	0	44	104	0	76	21491
2026-01-26 12:56:20.06	331.33	6.67	-53.0	-67.9	3.8	1.49e+00	0	44	104	0	76	21494
2026-01-26 12:56:23.08	331.70	6.52	-53.0	-68.0	3.8	1.49e+00	0	44	104	0	76	21545
2026-01-26 12:56:26.11	332.06	6.37	-53.0	-67.9	3.8	1.49e+00	0	44	104	0	76	21506
2026-01-26 12:56:29.13	332.43	6.23	-53.0	-68.0	3.8	1.49e+00	0	44	104	0	76	21525
2026-01-26 12:56:32.16	332.79	6.08	-53.0	-67.9	3.8	1.49e+00	0	44	104	0	76	21471
2026-01-26 12:56:35.18	333.14	5.93	-53.0	-67.9	3.8	1.49e+00	0	44	104	0	76	21495
2026-01-26 12:56:38.20	333.49	5.79	-53.0	-68.0	3.8	1.49e+00	0	44	104	0	76	21535
2026-01-26 12:56:41.23	333.84	5.64	-53.0	-68.0	3.8	1.49e+00	0	43	104	0	76	21515
2026-01-26 12:56:44.25	334.19	5.49	-53.0	-67.9	3.8	1.49e+00	0	44	104	0	76	21443
2026-01-26 12:56:47.27	334.53	5.35	-53.0	-67.9	3.8	1.49e+00	0	44	104	0	76	21455
2026-01-26 12:56:50.29	334.87	5.20	-53.0	-67.9	3.8	1.49e+00	0	44	104	0	76	21461
2026-01-26 12:56:53.31	335.21	5.06	-53.0	-67.9	3.8	1.49e+00	0	44	104	0	76	21487
2026-01-26 12:56:56.33	335.54	4.91	-53.0	-68.0	3.8	1.49e+00	0	44	104	0	76	21515
2026-01-26 12:56:59.35	335.87	4.76	-53.0	-67.9	3.8	1.49e+00	0	44	104	0	76	21401
2026-01-26 12:57:02.37	336.19	4.62	-53.0	-68.0	3.8	1.49e+00	0	43	104	0	76	21513
2026-01-26 12:57:05.40	336.52	4.47	-53.0	-68.0	3.8	1.49e+00	0	44	104	0	76	21570
2026-01-26 12:57:08.43	336.84	4.32	-53.0	-67.9	3.8	1.49e+00	0	44	104	0	76	21494
2026-01-26 12:57:11.45	337.16	4.18	-53.0	-68.0	3.8	1.49e+00	0	44	104	0	76	21518
2026-01-26 12:57:14.47	337.47	4.03	-53.0	-68.0	3.8	1.49e+00	0	44	104	0	76	21560
2026-01-26 12:57:17.49	337.78	3.89	-53.0	-68.0	3.8	1.49e+00	0	44	104	0	76	21523
2026-01-26 12:57:20.51	338.09	3.74	-53.0	-67.9	3.8	1.49e+00	0	44	104	0	76	21441
2026-01-26 12:57:23.54	338.40	3.59	-53.0	-68.0	3.8	1.49e+00	0	44	104	0	76	21521
2026-01-26 12:57:26.57	338.70	3.45	-53.0	-67.9	3.8	1.49e+00	0	44	104	0	76	21458
2026-01-26 12:57:29.60	339.00	3.30	-53.0	-67.9	3.8	1.49e+00	0	44	104	0	76	21472
2026-01-26 12:57:32.61	339.30	3.16	-53.0	-67.9	3.8	1.49e+00	0	44	104	0	76	21465
2026-01-26 12:57:35.63	339.59	3.01	-53.0	-67.9	3.8	1.49e+00	0	44	104	0	76	21496
2026-01-26 12:57:38.64	339.88	2.87	-53.0	-67.9	3.8	1.49e+00	0	44	104	0	76	21497
2026-01-26 12:57:41.67	340.17	2.72	-53.0	-67.9	3.8	1.49e+00	0	44	104	0	76	21463
2026-01-26 12:57:44.69	340.45	2.58	-53.0	-67.9	3.8	1.49e+00	0	44	104	0	76	21471
2026-01-26 12:57:47.71	340.74	2.44	-53.0	-67.9	3.8	1.49e+00	0	44	104	0	76	21431
2026-01-26 12:57:50.73	341.02	2.29	-53.0	-68.0	3.8	1.49e+00	0	43	104	0	76	21517
2026-01-26 12:57:53.74	341.30	2.15	-53.0	-67.9	3.8	1.49e+00	0	43	104	0	76	21472
2026-01-26 12:57:56.76	341.57	2.00	-53.0	-68.0	3.8	1.49e+00	0	44	104	0	76	21528

#Closed at: 2026-01-26 12:57:59
#Recorded file [0 MB]: D:/lorett/data/31041_260126_154624.dat