passes_logs/2026/01/26/R3.2S_Murmansk/R3.2S_Murmansk__20260126_195817_TY-42_rec.log

#Pass ID: 20260126_195817_TY-42
#Satellite: TY-42
#Configuration: TY-42_900M
#almurnet v.1.7.20251203
#Start time: 2026-01-26 19:58:18

#Version: 2.2.20231116
#Station: R3.2S_Murmansk
#Location: 33.079688 lon 68.888172 lat
#TLE: 1 64048U 25103A   26026.63109954  .00008012  00000-0  38191-3 0 09992
#TLE: 2 64048 097.4117 101.8302 0001725 091.3579 298.9652 15.19176186 38587

#Time	Az	El	Level	Level2	SNR	BER	BlckErr	Temp	State	Recorded	gain1	gain2
2026-01-26 19:58:18.01	189.97	2.06	-54.6	-56.8	6.3	0.00e+00	0	50	0	0	80	18831
2026-01-26 19:58:21.03	190.16	2.26	-54.6	-56.8	6.2	0.00e+00	0	50	104	0	81	17785
2026-01-26 19:58:24.05	190.34	2.46	-54.8	-56.9	6.2	0.00e+00	0	50	104	0	81	18172
2026-01-26 19:58:27.08	190.53	2.67	-54.8	-57.0	6.2	0.00e+00	0	50	104	0	81	18184
2026-01-26 19:58:30.09	190.72	2.87	-54.8	-56.9	6.2	0.00e+00	0	50	104	0	81	18088
2026-01-26 19:58:33.10	190.92	3.08	-54.7	-56.8	6.2	0.00e+00	0	50	104	0	81	17909
2026-01-26 19:58:36.13	191.12	3.29	-54.5	-56.6	6.2	0.00e+00	0	51	104	0	81	17504
2026-01-26 19:58:39.15	191.32	3.50	-54.3	-56.4	6.2	0.00e+00	0	51	104	0	80	18157
2026-01-26 19:58:42.17	191.53	3.72	-54.0	-56.1	6.2	0.00e+00	0	51	104	0	80	17482
2026-01-26 19:58:45.20	191.74	3.93	-53.3	-55.5	6.2	0.00e+00	0	51	104	0	78	18230
2026-01-26 19:58:48.22	191.95	4.15	-53.3	-55.4	6.2	0.00e+00	0	51	104	0	78	18102
2026-01-26 19:58:51.25	192.17	4.37	-53.3	-55.4	6.2	0.00e+00	0	51	104	0	78	18176
2026-01-26 19:58:54.27	192.39	4.59	-53.3	-55.4	6.2	0.00e+00	0	52	104	0	78	18105
2026-01-26 19:58:57.29	192.62	4.82	-53.3	-55.4	6.2	0.00e+00	0	52	104	0	78	18109
2026-01-26 19:59:00.32	192.85	5.05	-53.3	-55.4	6.2	0.00e+00	0	52	104	0	78	18159
2026-01-26 19:59:03.34	193.08	5.27	-53.4	-55.5	6.2	0.00e+00	0	52	104	0	78	18277
2026-01-26 19:59:06.35	193.32	5.50	-40.1	-39.9	11.9	0.00e+00	10956	54	104	0	52	13576
2026-01-26 19:59:09.37	193.56	5.74	-41.8	-41.7	12.0	8.88e-02	4308	55	0	318767104	55	14090
2026-01-26 19:59:12.39	193.81	5.97	-37.0	-36.9	13.9	7.01e-02	0	54	0	654311424	45	14350
2026-01-26 19:59:15.42	194.06	6.21	-36.1	-36.1	14.3	3.43e-02	0	54	0	998244352	44	13796
2026-01-26 19:59:18.42	194.32	6.45	-36.0	-35.9	14.4	2.45e-02	0	55	0	1342177280	44	13608
2026-01-26 19:59:21.45	194.58	6.70	-36.2	-36.1	14.4	2.10e-02	0	55	0	1677721600	43	14754
2026-01-26 19:59:24.47	194.85	6.94	-35.7	-35.6	14.6	1.71e-02	0	55	0	2013265920	43	13855
2026-01-26 19:59:27.49	195.12	7.19	-35.8	-35.7	14.5	1.31e-02	0	55	0	2348810240	43	13985
2026-01-26 19:59:30.51	195.40	7.45	-35.4	-35.3	14.7	1.24e-02	0	55	0	2692743168	42	14233
2026-01-26 19:59:33.53	195.68	7.70	-35.5	-35.4	14.7	9.18e-03	0	56	0	3036676096	42	14404
2026-01-26 19:59:36.55	195.98	7.96	-35.4	-35.3	14.7	9.47e-03	0	56	0	3372220416	42	14256
2026-01-26 19:59:39.58	196.27	8.22	-35.3	-35.2	14.8	9.47e-03	0	56	0	3716153344	42	14001
2026-01-26 19:59:42.60	196.58	8.48	-34.9	-34.8	15.0	9.43e-03	0	56	0	4051697664	41	14131
2026-01-26 19:59:45.62	196.89	8.75	-34.7	-34.6	15.1	6.46e-03	0	56	0	4395630592	41	13874
2026-01-26 19:59:48.63	197.20	9.02	-34.9	-34.8	15.0	6.19e-03	0	56	0	4739563520	41	14255
2026-01-26 19:59:51.66	197.53	9.29	-34.7	-34.6	15.1	5.79e-03	0	56	0	5075107840	41	13813
2026-01-26 19:59:54.68	197.86	9.57	-34.6	-34.5	15.1	5.07e-03	0	56	0	5410652160	41	13754
2026-01-26 19:59:57.71	198.20	9.85	-34.4	-34.3	15.2	4.06e-03	0	56	0	5746196480	40	14248
2026-01-26 20:00:00.73	198.54	10.13	-34.3	-34.2	15.3	3.99e-03	0	56	0	6098518016	40	14092
2026-01-26 20:00:03.75	198.90	10.42	-34.2	-34.1	15.3	2.97e-03	0	57	0	6434062336	40	13829
2026-01-26 20:00:06.77	199.26	10.71	-34.1	-34.0	15.3	2.72e-03	0	57	0	6769606656	40	13721
2026-01-26 20:00:09.79	199.63	11.01	-33.9	-33.8	15.5	2.61e-03	0	57	0	7113539584	39	14143
2026-01-26 20:00:12.82	200.01	11.31	-43.5	-43.6	11.1	2.20e-03	5175	58	0	7457472512	57	15578
2026-01-26 20:00:15.84	200.40	11.61	-42.6	-42.7	11.7	8.06e-02	185	58	0	7793016832	55	15657
2026-01-26 20:00:18.86	200.80	11.91	-38.5	-38.8	14.0	2.29e-01	0	58	0	8136949760	49	14263
2026-01-26 20:00:21.88	201.21	12.22	-34.9	-34.8	15.1	1.41e-02	0	57	0	8472494080	41	14212
2026-01-26 20:00:24.91	201.63	12.54	-34.0	-33.9	15.5	1.41e-02	0	57	0	8808038400	39	14388
2026-01-26 20:00:27.93	202.06	12.86	-33.4	-33.3	15.7	3.20e-03	0	58	0	9160359936	38	14214
2026-01-26 20:00:30.94	202.50	13.18	-33.2	-33.1	15.8	1.51e-03	0	58	0	9495904256	38	13886
2026-01-26 20:00:33.96	202.95	13.51	-33.0	-32.9	15.8	1.16e-03	0	58	0	9831448576	38	13614
2026-01-26 20:00:36.99	203.42	13.84	-32.9	-32.8	15.9	9.77e-04	0	58	0	10166992896	37	14128
2026-01-26 20:00:40.01	203.89	14.17	-32.8	-32.7	16.0	8.68e-04	0	58	0	10519314432	37	13985
2026-01-26 20:00:43.03	204.38	14.51	-32.6	-32.5	16.1	7.25e-04	0	58	0	10854858752	37	13634
2026-01-26 20:00:46.05	204.88	14.86	-32.4	-32.3	16.1	5.63e-04	0	58	0	11190403072	36	14178
2026-01-26 20:00:49.07	205.40	15.21	-32.2	-32.1	16.2	6.01e-04	0	58	0	11534336000	36	13921
2026-01-26 20:00:52.10	205.93	15.56	-32.1	-32.0	16.1	3.15e-04	0	58	0	11869880320	36	13738
2026-01-26 20:00:55.12	206.47	15.92	-29.6	-29.5	15.8	3.43e-04	0	58	0	12222201856	31	13684
2026-01-26 20:00:58.15	207.03	16.28	-29.5	-29.5	15.8	3.96e-04	0	58	0	12557746176	31	13637
2026-01-26 20:01:01.17	207.61	16.65	-29.5	-29.4	15.8	6.44e-04	0	58	0	12893290496	30	14340
2026-01-26 20:01:04.20	208.20	17.03	-29.3	-29.2	15.9	6.44e-04	0	58	0	13228834816	30	14031
2026-01-26 20:01:07.23	208.81	17.40	-29.1	-29.0	16.0	6.44e-04	0	58	0	13581156352	30	13728
2026-01-26 20:01:10.25	209.43	17.78	-29.0	-28.9	16.0	4.53e-04	0	58	0	13916700672	29	14287
2026-01-26 20:01:13.27	210.08	18.17	-28.7	-28.6	16.1	4.15e-04	0	58	0	14252244992	29	13859
2026-01-26 20:01:16.30	210.74	18.56	-28.5	-28.4	16.2	2.34e-04	0	58	0	14587789312	29	13531
2026-01-26 20:01:19.32	211.42	18.96	-28.2	-28.1	16.2	2.62e-04	0	58	0	14940110848	28	13946
2026-01-26 20:01:22.34	212.12	19.36	-28.0	-27.9	16.3	1.29e-04	0	58	0	15275655168	28	13617
2026-01-26 20:01:25.36	212.85	19.76	-28.1	-28.0	16.3	9.53e-05	0	58	0	15611199488	27	14449
2026-01-26 20:01:28.38	213.59	20.17	-28.2	-28.1	16.3	8.10e-05	0	58	0	15955132416	27	14647
2026-01-26 20:01:31.39	214.36	20.58	-27.8	-27.7	16.4	1.52e-04	0	58	0	16290676736	27	13983
2026-01-26 20:01:34.41	215.15	21.00	-27.5	-27.4	16.5	7.15e-05	0	58	0	16642998272	27	13594
2026-01-26 20:01:37.44	215.96	21.42	-27.3	-27.2	16.5	2.38e-05	0	58	0	16978542592	26	14047
2026-01-26 20:01:40.46	216.80	21.84	-27.1	-27.0	16.6	2.38e-05	0	58	0	17314086912	26	13737
2026-01-26 20:01:43.48	217.67	22.26	-27.0	-26.9	16.6	2.38e-05	0	58	0	17649631232	26	13615
2026-01-26 20:01:46.51	218.56	22.69	-26.9	-26.8	16.6	2.38e-05	0	58	0	17993564160	25	14221
2026-01-26 20:01:49.53	219.48	23.12	-26.7	-26.6	16.7	2.38e-05	0	58	0	18337497088	25	13889
2026-01-26 20:01:52.55	220.43	23.55	-26.6	-26.5	16.7	9.50e-06	0	58	0	18673041408	25	13684
2026-01-26 20:01:55.58	221.41	23.99	-26.4	-26.3	16.7	1.43e-05	0	58	0	19016974336	24	14205
2026-01-26 20:01:58.60	222.41	24.42	-26.2	-26.1	16.8	4.70e-06	0	58	0	19352518656	24	13874
2026-01-26 20:02:01.63	223.45	24.86	-26.2	-26.1	16.8	4.70e-06	0	58	0	19696451584	24	13816
2026-01-26 20:02:04.65	224.52	25.29	-26.0	-25.9	16.8	4.70e-06	0	58	0	20040384512	24	13611
2026-01-26 20:02:07.67	225.62	25.72	-25.9	-25.8	16.8	0.00e+00	0	58	0	20375928832	23	14248
2026-01-26 20:02:10.70	226.76	26.15	-25.8	-25.7	16.9	0.00e+00	0	58	0	20711473152	23	13963
2026-01-26 20:02:13.73	227.93	26.58	-25.5	-25.4	16.9	4.70e-06	0	58	0	21063794688	23	13615
2026-01-26 20:02:16.74	229.13	27.00	-25.4	-25.3	16.9	0.00e+00	0	58	0	21399339008	22	14260
2026-01-26 20:02:19.77	230.37	27.42	-25.3	-25.2	16.9	0.00e+00	0	58	0	21734883328	22	13989
2026-01-26 20:02:22.79	231.64	27.83	-25.0	-24.9	17.0	4.70e-06	0	58	0	22070427648	22	13578
2026-01-26 20:02:25.80	232.95	28.24	-24.9	-24.8	17.0	0.00e+00	0	58	0	22414360576	21	14162
2026-01-26 20:02:28.83	234.29	28.63	-24.8	-24.7	17.0	0.00e+00	0	58	0	22758293504	21	14030
2026-01-26 20:02:31.86	235.67	29.02	-24.7	-24.6	17.1	0.00e+00	0	58	0	23093837824	21	13947
2026-01-26 20:02:34.87	237.08	29.40	-24.6	-24.5	17.1	0.00e+00	0	58	0	23437770752	21	13700
2026-01-26 20:02:37.89	238.53	29.76	-24.5	-24.4	17.1	0.00e+00	0	58	0	23773315072	21	13623
2026-01-26 20:02:40.92	240.02	30.11	-24.4	-24.3	17.1	0.00e+00	0	58	0	24117248000	20	14215
2026-01-26 20:02:43.94	241.54	30.44	-24.4	-24.3	17.1	0.00e+00	0	58	0	24461180928	20	14190
2026-01-26 20:02:46.96	243.09	30.76	-24.2	-24.1	17.1	0.00e+00	0	58	0	24796725248	20	13909
2026-01-26 20:02:49.98	244.67	31.06	-24.1	-24.0	17.1	4.70e-06	0	58	0	25132269568	20	13742
2026-01-26 20:02:53.00	246.28	31.34	-24.1	-23.9	17.1	0.00e+00	0	58	0	25467813888	20	13630
2026-01-26 20:02:56.02	247.92	31.60	-24.0	-23.9	17.1	0.00e+00	0	58	0	25820135424	19	14394
2026-01-26 20:02:59.04	249.59	31.84	-24.0	-23.9	17.1	0.00e+00	0	58	0	26155679744	19	14373
2026-01-26 20:03:02.07	251.28	32.05	-24.0	-23.9	17.1	0.00e+00	0	58	0	26491224064	19	14374
2026-01-26 20:03:05.09	253.00	32.24	-24.0	-23.9	17.0	0.00e+00	0	58	0	26835156992	19	14298
2026-01-26 20:03:08.12	254.74	32.40	-23.9	-23.8	17.0	0.00e+00	0	58	0	27179089920	19	14248
2026-01-26 20:03:11.14	256.49	32.54	-23.8	-23.7	17.0	0.00e+00	0	58	0	27514634240	19	14048
2026-01-26 20:03:14.15	258.25	32.65	-23.8	-23.7	17.0	0.00e+00	0	58	0	27858567168	19	14015
2026-01-26 20:03:17.18	260.03	32.73	-23.8	-23.7	17.0	0.00e+00	0	58	0	28194111488	19	14100
2026-01-26 20:03:20.20	261.81	32.79	-23.8	-23.7	16.9	0.00e+00	0	58	0	28529655808	19	14081
2026-01-26 20:03:23.22	263.60	32.81	-24.0	-23.9	16.9	0.00e+00	0	58	0	28881977344	19	14319
2026-01-26 20:03:26.25	265.39	32.81	-23.9	-23.8	16.9	0.00e+00	0	58	0	29217521664	19	14176
2026-01-26 20:03:29.27	267.18	32.77	-24.0	-23.8	16.9	0.00e+00	0	58	0	29553065984	19	14274
2026-01-26 20:03:32.29	268.96	32.71	-24.1	-24.0	16.9	0.00e+00	0	58	0	29888610304	19	14481
2026-01-26 20:03:35.31	270.73	32.62	-24.1	-24.0	16.9	0.00e+00	0	58	0	30240931840	19	14483
2026-01-26 20:03:38.32	272.48	32.50	-24.3	-24.2	16.8	0.00e+00	0	58	0	30576476160	19	14845
2026-01-26 20:03:41.35	274.23	32.36	-24.2	-24.1	16.9	0.00e+00	0	58	0	30912020480	19	14638
2026-01-26 20:03:44.36	275.95	32.18	-24.3	-24.1	16.9	0.00e+00	0	58	0	31255953408	19	14761
2026-01-26 20:03:47.39	277.66	31.99	-24.2	-24.1	17.0	0.00e+00	0	58	0	31591497728	19	14620
2026-01-26 20:03:50.41	279.34	31.77	-24.3	-24.2	16.9	0.00e+00	0	58	0	31927042048	19	14904
2026-01-26 20:03:53.43	281.00	31.52	-24.5	-24.4	17.0	4.70e-06	0	58	0	32279363584	19	15150
2026-01-26 20:03:56.46	282.63	31.26	-24.6	-24.5	16.9	0.00e+00	0	58	0	32614907904	19	15332
2026-01-26 20:03:59.49	284.24	30.97	-24.7	-24.6	17.0	0.00e+00	0	59	0	32950452224	20	14668
2026-01-26 20:04:02.51	285.80	30.67	-24.7	-24.5	17.1	0.00e+00	0	58	0	33302773760	20	14589
2026-01-26 20:04:05.54	287.34	30.34	-24.7	-24.6	17.1	0.00e+00	0	58	0	33638318080	20	14630
2026-01-26 20:04:08.57	288.85	30.00	-24.9	-24.7	17.0	0.00e+00	0	58	0	33973862400	20	14944
2026-01-26 20:04:11.58	290.31	29.65	-24.8	-24.7	17.1	0.00e+00	0	58	0	34309406720	20	14900
2026-01-26 20:04:14.61	291.75	29.29	-25.0	-24.9	17.1	0.00e+00	0	58	0	34661728256	20	15188
2026-01-26 20:04:17.63	293.15	28.91	-25.1	-25.0	17.1	0.00e+00	0	58	0	34997272576	20	15327
2026-01-26 20:04:20.64	294.51	28.52	-25.1	-25.0	17.2	0.00e+00	0	58	0	35332816896	20	15431
2026-01-26 20:04:23.67	295.84	28.12	-25.4	-25.3	17.3	0.00e+00	0	58	0	35676749824	21	15042
2026-01-26 20:04:26.70	297.14	27.72	-25.4	-25.3	17.3	0.00e+00	0	58	0	36012294144	21	15059
2026-01-26 20:04:29.71	298.39	27.31	-25.4	-25.3	17.3	0.00e+00	0	58	0	36364615680	21	15068
2026-01-26 20:04:32.74	299.61	26.89	-25.6	-25.5	17.3	0.00e+00	0	58	0	36700160000	21	15394
2026-01-26 20:04:35.77	300.80	26.47	-25.7	-25.6	17.3	0.00e+00	0	59	0	37035704320	22	14673
2026-01-26 20:04:38.79	301.96	26.04	-25.8	-25.7	17.3	4.70e-06	0	58	0	37371248640	22	14931
2026-01-26 20:04:41.82	303.08	25.61	-26.0	-25.9	17.2	0.00e+00	0	59	0	37723570176	22	15191
2026-01-26 20:04:44.85	304.17	25.18	-26.1	-26.0	17.1	0.00e+00	0	59	0	38059114496	22	15355
2026-01-26 20:04:47.86	305.22	24.75	-26.1	-26.0	17.1	9.50e-06	0	59	0	38394658816	22	15351
2026-01-26 20:04:50.89	306.25	24.32	-26.3	-26.1	17.1	0.00e+00	0	59	0	38730203136	23	14767
2026-01-26 20:04:53.91	307.24	23.89	-26.3	-26.2	17.0	0.00e+00	0	59	0	39082524672	23	14917
2026-01-26 20:04:56.93	308.21	23.46	-26.5	-26.4	17.0	9.50e-06	0	58	0	39418068992	23	15171
2026-01-26 20:04:59.95	309.14	23.03	-26.7	-26.6	16.9	9.50e-06	0	58	0	39762001920	23	15500
2026-01-26 20:05:02.97	310.05	22.60	-26.9	-26.7	16.8	9.50e-06	0	59	0	40097546240	24	14944
2026-01-26 20:05:06.00	310.93	22.18	-27.0	-26.9	16.8	4.70e-06	0	59	0	40433090560	24	15129
2026-01-26 20:05:09.03	311.79	21.75	-27.2	-27.1	16.7	1.90e-05	0	59	0	40785412096	25	14698
2026-01-26 20:05:12.04	312.61	21.33	-27.4	-27.3	16.6	2.38e-05	0	59	0	41120956416	25	14993
2026-01-26 20:05:15.07	313.42	20.92	-27.5	-27.4	16.6	2.86e-05	0	59	0	41456500736	25	15239
2026-01-26 20:05:18.10	314.20	20.50	-27.6	-27.5	16.6	5.24e-05	0	59	0	41792045056	25	15322
2026-01-26 20:05:21.13	314.96	20.09	-27.7	-27.6	16.6	1.90e-05	0	59	0	42144366592	26	14722
2026-01-26 20:05:24.15	315.70	19.69	-27.8	-27.7	16.5	6.19e-05	0	59	0	42479910912	26	14845
2026-01-26 20:05:27.17	316.41	19.29	-28.0	-27.9	16.5	7.62e-05	0	59	0	42815455232	26	15182
2026-01-26 20:05:30.19	317.11	18.89	-28.0	-27.9	16.5	6.67e-05	0	59	0	43159388160	26	15214
2026-01-26 20:05:33.20	317.78	18.50	-28.1	-28.0	16.4	1.14e-04	0	59	0	43494932480	26	15367
2026-01-26 20:05:36.22	318.43	18.12	-28.1	-28.0	16.4	1.14e-04	0	59	0	43838865408	26	15381
2026-01-26 20:05:39.23	319.07	17.74	-28.3	-28.2	16.3	1.72e-04	0	59	0	44182798336	27	14782
2026-01-26 20:05:42.26	319.69	17.36	-28.4	-28.3	16.3	2.29e-04	0	59	0	44518342656	27	15051
2026-01-26 20:05:45.28	320.29	16.98	-28.6	-28.5	16.2	2.72e-04	0	59	0	44853886976	27	15419
2026-01-26 20:05:48.31	320.87	16.61	-28.6	-28.5	16.2	3.86e-04	0	59	0	45206208512	28	14490
2026-01-26 20:05:51.33	321.44	16.25	-28.7	-28.6	16.2	4.15e-04	0	59	0	45541752832	28	14614
2026-01-26 20:05:54.35	321.99	15.89	-28.8	-28.7	16.1	5.15e-04	0	59	0	45877297152	28	14838
2026-01-26 20:05:57.38	322.53	15.53	-29.1	-29.0	16.0	6.63e-04	0	59	0	46212841472	28	15391
2026-01-26 20:06:00.41	323.06	15.18	-29.1	-29.0	16.0	7.49e-04	0	59	0	46565163008	28	15385
2026-01-26 20:06:03.43	323.57	14.84	-29.2	-29.1	16.0	8.73e-04	0	59	0	46900707328	29	14733
2026-01-26 20:06:06.45	324.07	14.50	-29.3	-29.2	15.9	1.13e-03	0	59	0	47236251648	29	14790
2026-01-26 20:06:09.48	324.55	14.16	-29.3	-29.2	16.0	1.21e-03	0	59	0	47580184576	29	14806
2026-01-26 20:06:12.51	325.02	13.82	-29.3	-29.2	15.9	1.36e-03	0	59	0	47915728896	29	14875
2026-01-26 20:06:15.53	325.48	13.50	-29.3	-29.2	15.9	1.13e-03	0	59	0	48259661824	29	14911
2026-01-26 20:06:18.55	325.93	13.17	-29.6	-29.5	15.8	1.33e-03	0	59	0	48603594752	29	15308
2026-01-26 20:06:21.57	326.37	12.85	-29.6	-29.5	15.8	1.30e-03	0	59	0	48939139072	29	15461
2026-01-26 20:06:24.58	326.79	12.54	-29.8	-29.7	15.8	1.25e-03	0	59	0	49274683392	30	14866
2026-01-26 20:06:27.61	327.21	12.23	-30.0	-29.9	15.7	1.55e-03	0	59	0	49610227712	30	15210
2026-01-26 20:06:30.62	327.61	11.92	-30.2	-30.1	15.6	1.68e-03	0	59	0	49962549248	30	15508
2026-01-26 20:06:33.63	328.01	11.62	-30.3	-30.2	15.6	2.08e-03	0	59	0	50298093568	31	14925
2026-01-26 20:06:36.65	328.39	11.32	-30.3	-30.2	15.5	2.85e-03	0	59	0	50633637888	31	14906
2026-01-26 20:06:39.68	328.77	11.02	-30.6	-30.5	15.4	2.78e-03	0	59	0	50977570816	31	15369
2026-01-26 20:06:42.70	329.14	10.73	-30.5	-30.4	15.4	2.78e-03	0	59	0	51313115136	31	15236
2026-01-26 20:06:45.72	329.50	10.44	-30.6	-30.5	15.3	3.47e-03	0	59	0	51657048064	32	14530
2026-01-26 20:06:48.73	329.85	10.16	-30.7	-30.7	15.3	3.56e-03	0	59	0	52000980992	32	14796
2026-01-26 20:06:51.75	330.20	9.88	-53.6	-55.8	6.2	3.11e-03	0	58	104	52210696192	77	19948
2026-01-26 20:06:54.77	330.53	9.60	-53.6	-55.7	6.2	3.11e-03	0	58	104	52210696192	77	19771
2026-01-26 20:06:57.79	330.86	9.33	-53.6	-55.7	6.2	3.11e-03	0	58	104	52210696192	77	19740
2026-01-26 20:07:00.81	331.19	9.05	-53.6	-55.7	6.2	3.11e-03	0	58	104	52210696192	77	19814
2026-01-26 20:07:03.84	331.50	8.79	-53.5	-55.7	6.2	0.00e+00	0	57	104	52210696192	77	19709
2026-01-26 20:07:06.86	331.81	8.52	-53.5	-55.6	6.2	0.00e+00	0	57	104	52210696192	77	19684
2026-01-26 20:07:09.87	332.11	8.26	-53.4	-55.6	6.2	0.00e+00	0	57	104	52210696192	77	19496
2026-01-26 20:07:12.90	332.41	8.00	-53.4	-55.6	6.2	0.00e+00	0	57	104	52210696192	77	19580
2026-01-26 20:07:15.91	332.70	7.75	-53.4	-55.5	6.2	0.00e+00	0	57	104	52210696192	77	19364
2026-01-26 20:07:18.93	332.98	7.49	-53.4	-55.5	6.2	0.00e+00	0	57	104	52210696192	77	19379
2026-01-26 20:07:21.95	333.26	7.24	-53.3	-55.4	6.2	0.00e+00	0	57	104	52210696192	77	19087
2026-01-26 20:07:24.98	333.53	6.99	-53.3	-55.4	6.2	0.00e+00	0	57	104	52210696192	77	19209
2026-01-26 20:07:27.99	333.80	6.75	-53.2	-55.4	6.2	0.00e+00	0	56	104	52210696192	77	19064
2026-01-26 20:07:31.01	334.06	6.51	-53.3	-55.5	6.2	0.00e+00	0	56	104	52210696192	77	19265
2026-01-26 20:07:34.02	334.32	6.27	-53.2	-55.3	6.2	0.00e+00	0	56	104	52210696192	77	18877
2026-01-26 20:07:37.04	334.57	6.03	-53.2	-55.4	6.2	0.00e+00	0	56	104	52210696192	77	19076
2026-01-26 20:07:40.07	334.82	5.80	-53.1	-55.2	6.2	0.00e+00	0	56	104	52210696192	77	18747
2026-01-26 20:07:43.09	335.06	5.57	-53.2	-55.3	6.2	0.00e+00	0	56	104	52210696192	77	18950
2026-01-26 20:07:46.12	335.30	5.34	-52.8	-54.9	6.2	0.00e+00	0	56	104	52210696192	77	18078
2026-01-26 20:07:49.14	335.53	5.11	-52.6	-54.8	6.2	0.00e+00	0	56	104	52210696192	77	17828
2026-01-26 20:07:52.15	335.76	4.88	-53.6	-55.6	6.2	0.00e+00	0	56	104	52210696192	77	19703
2026-01-26 20:07:55.17	335.99	4.66	-54.0	-56.2	6.2	0.00e+00	0	56	104	52210696192	78	19783
2026-01-26 20:07:58.19	336.21	4.44	-53.7	-55.6	6.2	0.00e+00	0	56	104	52210696192	78	18482
2026-01-26 20:08:01.22	336.42	4.22	-54.2	-56.3	6.2	0.00e+00	0	56	104	52210696192	79	18995
2026-01-26 20:08:04.24	336.64	4.01	-54.0	-56.1	6.2	0.00e+00	0	56	104	52210696192	79	18544
2026-01-26 20:08:07.25	336.85	3.79	-54.1	-56.3	6.2	0.00e+00	0	56	104	52210696192	79	18866
2026-01-26 20:08:10.28	337.05	3.58	-54.2	-56.3	6.2	0.00e+00	0	56	104	52210696192	79	18962
2026-01-26 20:08:13.30	337.26	3.37	-54.1	-56.2	6.2	0.00e+00	0	56	104	52210696192	79	18657
2026-01-26 20:08:16.32	337.46	3.16	-54.0	-56.1	6.2	0.00e+00	0	56	104	52210696192	79	18517
2026-01-26 20:08:19.34	337.65	2.95	-54.0	-56.1	6.2	0.00e+00	0	55	104	52210696192	79	18546
2026-01-26 20:08:22.37	337.85	2.75	-54.0	-56.1	6.2	0.00e+00	0	55	104	52210696192	79	18599
2026-01-26 20:08:25.39	338.04	2.54	-54.0	-56.1	6.2	0.00e+00	0	56	104	52210696192	79	18568
2026-01-26 20:08:28.42	338.22	2.34	-54.0	-56.1	6.2	0.00e+00	0	55	104	52210696192	79	18448
2026-01-26 20:08:31.43	338.41	2.14	-54.0	-56.1	6.2	0.00e+00	0	55	104	52210696192	79	18453
2026-01-26 20:08:34.45	338.59	1.94	-54.0	-56.1	6.2	0.00e+00	0	55	104	52210696192	79	18488

#Closed at: 2026-01-26 20:08:34
#Recorded file [52210 MB]: D:/lorett/data/31041_260126_225817.dat