passes_logs/2026/01/26/R3.2S_Murmansk/R3.2S_Murmansk__20260126_073910_AQUA_rec.log

#Pass ID: 20260126_073910_AQUA
#Satellite: AQUA
#Configuration: AQUA
#almurnet v.1.7.20251203
#Start time: 2026-01-26 07:39:12

#Version: 2.2.20231116
#Station: R3.2S_Murmansk
#Location: 33.079688 lon 68.888172 lat
#TLE: 1 27424U 02022A   26025.91340420  .00001969  00000+0  40368-3 0  9991
#TLE: 2 27424  98.4100 352.5253 0001880  65.2649  27.8322 14.61861165262482

#Time	Az	El	Level	Level2	SNR	BER	BlckErr	Temp	State	Recorded	gain1	gain2
2026-01-26 07:39:12.87	70.45	2.13	-49.8	-67.7	3.8	7.49e-01	0	41	0	0	70	29352
2026-01-26 07:39:15.90	70.21	2.30	-49.8	-67.7	3.8	7.47e-01	0	41	104	0	70	29428
2026-01-26 07:39:18.92	69.96	2.48	-49.8	-67.6	3.8	7.46e-01	0	41	104	0	70	29312
2026-01-26 07:39:21.94	69.72	2.65	-49.8	-67.7	3.8	7.44e-01	0	41	104	0	70	29360
2026-01-26 07:39:24.97	69.47	2.83	-49.8	-67.6	3.8	7.46e-01	0	41	104	0	70	29312
2026-01-26 07:39:27.98	69.22	3.00	-49.8	-67.7	3.8	7.45e-01	0	42	104	0	70	29389
2026-01-26 07:39:31.01	68.96	3.18	-49.8	-67.7	3.8	7.44e-01	0	42	104	0	70	29386
2026-01-26 07:39:34.03	68.70	3.36	-49.8	-67.7	3.8	7.48e-01	0	42	104	0	70	29408
2026-01-26 07:39:37.05	68.44	3.54	-49.8	-67.7	3.8	7.49e-01	0	42	104	0	70	29460
2026-01-26 07:39:40.08	68.17	3.72	-49.8	-67.7	3.8	7.47e-01	0	42	104	0	70	29358
2026-01-26 07:39:43.10	67.90	3.90	-49.8	-67.7	3.8	7.43e-01	0	42	104	0	70	29431
2026-01-26 07:39:46.13	67.62	4.08	-49.8	-67.7	3.8	7.45e-01	0	42	104	0	70	29396
2026-01-26 07:39:49.16	67.34	4.26	-49.8	-67.7	3.8	7.42e-01	0	42	104	0	70	29380
2026-01-26 07:39:52.18	67.06	4.44	-49.8	-67.7	3.8	7.45e-01	0	42	104	0	70	29391
2026-01-26 07:39:55.20	66.77	4.62	-49.8	-67.7	3.8	7.42e-01	0	42	104	0	70	29419
2026-01-26 07:39:58.23	66.48	4.81	-49.8	-67.7	3.8	7.48e-01	0	42	104	0	70	29352
2026-01-26 07:40:01.25	66.19	4.99	-49.8	-67.7	3.8	7.47e-01	0	42	104	0	70	29416
2026-01-26 07:40:04.28	65.89	5.18	-49.8	-67.7	3.8	7.45e-01	0	42	104	0	70	29377
2026-01-26 07:40:07.30	65.59	5.37	-49.8	-67.7	3.8	7.45e-01	0	42	104	0	70	29367
2026-01-26 07:40:10.32	65.28	5.55	-49.8	-67.7	3.8	7.41e-01	0	42	104	0	70	29451
2026-01-26 07:40:13.34	64.97	5.74	-49.8	-67.7	3.8	7.43e-01	0	42	104	0	70	29420
2026-01-26 07:40:16.36	64.65	5.93	-49.8	-67.7	3.8	7.48e-01	0	43	104	0	70	29403
2026-01-26 07:40:19.38	64.33	6.12	-49.8	-67.7	3.8	7.46e-01	0	43	104	0	70	29429
2026-01-26 07:40:22.41	64.00	6.31	-49.8	-67.7	3.8	7.46e-01	0	42	104	0	70	29405
2026-01-26 07:40:25.43	63.67	6.50	-49.8	-67.7	3.8	7.47e-01	0	42	104	0	70	29409
2026-01-26 07:40:28.44	63.34	6.69	-49.8	-67.7	3.8	7.45e-01	0	43	104	0	70	29372
2026-01-26 07:40:31.47	62.99	6.88	-49.8	-67.7	3.8	7.45e-01	0	43	104	0	70	29432
2026-01-26 07:40:34.50	62.65	7.07	-49.8	-67.7	3.8	7.48e-01	0	43	104	0	70	29434
2026-01-26 07:40:37.52	62.30	7.27	-49.8	-67.7	3.8	7.47e-01	0	43	104	0	70	29417
2026-01-26 07:40:40.54	61.94	7.46	-49.8	-67.7	3.8	7.45e-01	0	43	104	0	70	29403
2026-01-26 07:40:43.56	61.58	7.65	-49.8	-67.7	3.8	7.45e-01	0	43	104	0	70	29389
2026-01-26 07:40:46.59	61.21	7.85	-49.8	-67.7	3.8	7.44e-01	0	43	104	0	70	29366
2026-01-26 07:40:49.62	60.84	8.05	-49.8	-67.7	3.8	7.46e-01	0	43	104	0	70	29477
2026-01-26 07:40:52.65	60.46	8.24	-49.8	-67.7	3.8	7.44e-01	0	43	104	0	70	29422
2026-01-26 07:40:55.68	60.07	8.44	-49.8	-67.7	3.8	7.45e-01	0	43	104	0	70	29387
2026-01-26 07:40:58.71	59.68	8.64	-49.8	-67.7	3.8	7.45e-01	0	43	104	0	70	29400
2026-01-26 07:41:01.73	59.29	8.84	-49.8	-67.7	3.8	7.45e-01	0	43	104	0	70	29389
2026-01-26 07:41:04.75	58.89	9.03	-49.8	-67.7	3.8	7.44e-01	0	43	104	0	70	29408
2026-01-26 07:41:07.78	58.48	9.23	-49.8	-67.7	3.8	7.46e-01	0	43	104	0	70	29381
2026-01-26 07:41:10.81	58.06	9.43	-49.8	-67.7	3.8	7.47e-01	0	43	104	0	70	29443
2026-01-26 07:41:13.83	57.64	9.63	-49.8	-67.7	3.8	7.46e-01	0	43	104	0	70	29437
2026-01-26 07:41:16.85	57.22	9.83	-49.8	-67.7	3.8	7.46e-01	0	43	104	0	70	29452
2026-01-26 07:41:19.88	56.78	10.03	-49.8	-67.7	3.8	7.46e-01	0	43	104	0	70	29385
2026-01-26 07:41:22.91	56.34	10.23	-49.8	-67.7	3.8	7.45e-01	0	43	104	0	70	29415
2026-01-26 07:41:25.93	55.89	10.44	-49.8	-67.7	3.8	7.48e-01	0	43	104	0	70	29366
2026-01-26 07:41:28.95	55.44	10.64	-49.8	-67.7	3.8	7.45e-01	0	43	104	0	70	29363
2026-01-26 07:41:31.98	54.98	10.84	-49.8	-67.7	3.8	7.44e-01	0	43	104	0	70	29429
2026-01-26 07:41:35.01	54.51	11.04	-49.8	-67.7	3.8	7.47e-01	0	43	104	0	70	29504
2026-01-26 07:41:38.03	54.04	11.24	-49.8	-67.7	3.8	7.44e-01	0	43	104	0	70	29417
2026-01-26 07:41:41.04	53.56	11.44	-49.8	-67.7	3.8	7.43e-01	0	43	104	0	70	29430
2026-01-26 07:41:44.07	53.07	11.64	-49.8	-67.7	3.8	7.47e-01	0	43	104	0	70	29449
2026-01-26 07:41:47.09	52.57	11.85	-49.8	-67.7	3.8	7.43e-01	0	43	104	0	70	29445
2026-01-26 07:41:50.12	52.07	12.05	-49.8	-67.7	3.8	7.45e-01	0	43	104	0	70	29435
2026-01-26 07:41:53.14	51.56	12.25	-49.8	-67.7	3.8	7.45e-01	0	43	104	0	70	29380
2026-01-26 07:41:56.16	51.04	12.45	-49.8	-67.7	3.8	7.44e-01	0	43	104	0	70	29443
2026-01-26 07:41:59.18	50.51	12.65	-49.8	-67.7	3.8	7.44e-01	0	43	104	0	70	29469
2026-01-26 07:42:02.21	49.98	12.85	-49.8	-67.7	3.8	7.46e-01	0	43	104	0	70	29454
2026-01-26 07:42:05.24	49.43	13.05	-49.8	-67.7	3.8	7.45e-01	0	43	104	0	70	29459
2026-01-26 07:42:08.26	48.88	13.25	-49.8	-67.7	3.8	7.45e-01	0	43	104	0	70	29485
2026-01-26 07:42:11.28	48.32	13.44	-49.8	-67.7	3.8	7.43e-01	0	43	104	0	70	29444
2026-01-26 07:42:14.31	47.76	13.64	-49.8	-67.7	3.8	7.44e-01	0	43	104	0	70	29510
2026-01-26 07:42:17.33	47.18	13.84	-49.8	-67.7	3.8	7.48e-01	0	43	104	0	70	29432
2026-01-26 07:42:20.35	46.60	14.03	-49.8	-67.7	3.8	7.46e-01	0	43	104	0	70	29465
2026-01-26 07:42:23.38	46.01	14.22	-49.8	-67.7	3.8	7.45e-01	0	43	104	0	70	29421
2026-01-26 07:42:26.40	45.41	14.42	-49.8	-67.7	3.8	7.42e-01	0	43	104	0	70	29509
2026-01-26 07:42:29.43	44.80	14.61	-49.8	-67.7	3.8	7.48e-01	0	43	104	0	70	29488
2026-01-26 07:42:32.46	44.18	14.80	-49.8	-67.7	3.8	7.48e-01	0	43	104	0	70	29463
2026-01-26 07:42:35.48	43.55	14.99	-49.8	-67.7	3.8	7.44e-01	0	43	104	0	70	29526
2026-01-26 07:42:38.49	42.92	15.17	-49.8	-67.7	3.8	7.45e-01	0	43	104	0	70	29469
2026-01-26 07:42:41.52	42.28	15.36	-49.8	-67.7	3.8	7.45e-01	0	43	104	0	70	29498
2026-01-26 07:42:44.54	41.63	15.54	-49.8	-67.7	3.8	7.47e-01	0	43	104	0	70	29553
2026-01-26 07:42:47.56	40.97	15.72	-49.8	-67.7	3.8	7.47e-01	0	43	104	0	70	29469
2026-01-26 07:42:50.59	40.30	15.90	-49.8	-67.7	3.8	7.45e-01	0	43	104	0	70	29389
2026-01-26 07:42:53.61	39.62	16.07	-49.8	-67.7	3.8	7.43e-01	0	43	104	0	70	29490
2026-01-26 07:42:56.63	38.94	16.24	-49.8	-67.7	3.8	7.42e-01	0	43	104	0	70	29480
2026-01-26 07:42:59.65	38.25	16.42	-49.8	-67.7	3.8	7.47e-01	0	43	104	0	70	29504
2026-01-26 07:43:02.68	37.54	16.58	-49.8	-67.7	3.8	7.44e-01	0	43	104	0	70	29500
2026-01-26 07:43:05.70	36.83	16.75	-49.8	-67.7	3.8	7.45e-01	0	43	104	0	70	29531
2026-01-26 07:43:08.72	36.11	16.91	-49.8	-67.7	3.8	7.44e-01	0	43	104	0	70	29439
2026-01-26 07:43:11.75	35.39	17.07	-49.8	-67.7	3.8	7.45e-01	0	43	104	0	70	29480
2026-01-26 07:43:14.77	34.65	17.22	-49.8	-67.7	3.8	7.44e-01	0	43	104	0	70	29483
2026-01-26 07:43:17.79	33.91	17.37	-49.8	-67.7	3.8	7.47e-01	0	43	104	0	70	29466
2026-01-26 07:43:20.82	33.16	17.52	-49.8	-67.7	3.8	7.47e-01	0	43	104	0	70	29488
2026-01-26 07:43:23.84	32.40	17.66	-49.8	-67.7	3.8	7.45e-01	0	43	104	0	70	29468
2026-01-26 07:43:26.87	31.63	17.80	-49.8	-67.7	3.8	7.44e-01	0	44	104	0	70	29453
2026-01-26 07:43:29.89	30.86	17.94	-49.8	-67.7	3.8	7.44e-01	0	43	104	0	70	29510
2026-01-26 07:43:32.91	30.08	18.07	-49.8	-67.7	3.8	7.47e-01	0	43	104	0	70	29518
2026-01-26 07:43:35.93	29.29	18.19	-49.8	-67.7	3.8	7.44e-01	0	43	104	0	70	29469
2026-01-26 07:43:38.96	28.49	18.32	-49.8	-67.7	3.8	7.46e-01	0	43	104	0	70	29471
2026-01-26 07:43:41.99	27.69	18.43	-49.8	-67.7	3.8	7.47e-01	0	43	104	0	70	29456
2026-01-26 07:43:45.01	26.88	18.54	-49.8	-67.7	3.8	7.47e-01	0	43	104	0	70	29531
2026-01-26 07:43:48.03	26.07	18.65	-49.8	-67.7	3.8	7.49e-01	0	43	104	0	70	29503
2026-01-26 07:43:51.05	25.25	18.75	-49.8	-67.7	3.8	7.45e-01	0	43	104	0	70	29460
2026-01-26 07:43:54.08	24.42	18.85	-49.8	-67.7	3.8	7.41e-01	0	43	104	0	70	29400
2026-01-26 07:43:57.10	23.59	18.94	-49.8	-67.7	3.8	7.46e-01	0	43	104	0	70	29530
2026-01-26 07:44:00.13	22.75	19.02	-49.8	-67.7	3.8	7.46e-01	0	43	104	0	70	29590
2026-01-26 07:44:03.15	21.91	19.10	-49.8	-67.7	3.8	7.44e-01	0	43	104	0	70	29478
2026-01-26 07:44:06.18	21.07	19.17	-49.8	-67.7	3.8	7.43e-01	0	43	104	0	70	29518
2026-01-26 07:44:09.21	20.21	19.24	-49.8	-67.7	3.8	7.46e-01	0	43	104	0	70	29535
2026-01-26 07:44:12.23	19.36	19.30	-49.8	-67.7	3.8	7.44e-01	0	43	104	0	70	29463
2026-01-26 07:44:15.26	18.50	19.35	-49.8	-67.7	3.8	7.47e-01	0	43	104	0	70	29479
2026-01-26 07:44:18.28	17.64	19.40	-49.8	-67.7	3.8	7.48e-01	0	43	104	0	70	29529
2026-01-26 07:44:21.30	16.78	19.44	-49.8	-67.7	3.8	7.46e-01	0	43	104	0	70	29519
2026-01-26 07:44:24.32	15.92	19.48	-49.8	-67.7	3.8	7.47e-01	0	43	104	0	70	29480
2026-01-26 07:44:27.35	15.05	19.50	-49.8	-67.7	3.8	7.44e-01	0	43	104	0	70	29479
2026-01-26 07:44:30.37	14.18	19.53	-49.8	-67.7	3.8	7.42e-01	0	43	104	0	70	29549
2026-01-26 07:44:33.39	13.32	19.54	-49.8	-67.7	3.8	7.48e-01	0	43	104	0	70	29535
2026-01-26 07:44:36.41	12.45	19.55	-49.8	-67.7	3.8	7.48e-01	0	43	104	0	70	29500
2026-01-26 07:44:39.44	11.58	19.55	-49.8	-67.7	3.8	7.44e-01	0	43	104	0	70	29515
2026-01-26 07:44:42.46	10.71	19.55	-49.8	-67.7	3.8	7.43e-01	0	43	104	0	70	29445
2026-01-26 07:44:45.48	9.84	19.54	-49.8	-67.7	3.8	7.45e-01	0	44	104	0	70	29500
2026-01-26 07:44:48.50	8.97	19.52	-49.8	-67.7	3.8	7.45e-01	0	43	104	0	70	29477
2026-01-26 07:44:51.53	8.10	19.49	-49.8	-67.7	3.8	7.45e-01	0	43	104	0	70	29455
2026-01-26 07:44:54.56	7.23	19.46	-49.8	-67.7	3.8	7.45e-01	0	43	104	0	70	29475
2026-01-26 07:44:57.59	6.37	19.43	-49.8	-67.7	3.8	7.47e-01	0	44	104	0	70	29532
2026-01-26 07:45:00.61	5.51	19.38	-49.8	-67.7	3.8	7.46e-01	0	44	104	0	70	29497
2026-01-26 07:45:03.63	4.65	19.33	-49.8	-67.7	3.8	7.44e-01	0	43	104	0	70	29526
2026-01-26 07:45:06.65	3.80	19.28	-49.8	-67.7	3.8	7.42e-01	0	43	104	0	70	29484
2026-01-26 07:45:09.67	2.94	19.21	-49.8	-67.7	3.8	7.45e-01	0	43	104	0	70	29486
2026-01-26 07:45:12.69	2.10	19.14	-49.8	-67.7	3.8	7.45e-01	0	43	104	0	70	29496
2026-01-26 07:45:15.72	1.25	19.07	-49.8	-67.7	3.8	7.45e-01	0	44	104	0	70	29479
2026-01-26 07:45:18.73	0.42	18.99	-49.8	-67.7	3.8	7.45e-01	0	43	104	0	70	29519
2026-01-26 07:45:21.76	359.58	18.90	-49.8	-67.7	3.8	7.45e-01	0	43	104	0	70	29545
2026-01-26 07:45:24.78	358.75	18.81	-49.8	-67.7	3.8	7.48e-01	0	43	104	0	70	29509
2026-01-26 07:45:27.81	357.93	18.71	-49.8	-67.7	3.8	7.43e-01	0	43	104	0	70	29447
2026-01-26 07:45:30.84	357.11	18.61	-49.8	-67.7	3.8	7.44e-01	0	43	104	0	70	29486
2026-01-26 07:45:33.86	356.30	18.50	-49.8	-67.7	3.8	7.46e-01	0	43	104	0	70	29543
2026-01-26 07:45:36.88	355.49	18.39	-49.8	-67.7	3.8	7.43e-01	0	43	104	0	70	29505
2026-01-26 07:45:39.91	354.69	18.27	-49.8	-67.7	3.8	7.45e-01	0	44	104	0	70	29497
2026-01-26 07:45:42.92	353.91	18.15	-49.8	-67.7	3.8	7.46e-01	0	43	104	0	70	29525
2026-01-26 07:45:45.93	353.12	18.02	-49.8	-67.7	3.8	7.46e-01	0	43	104	0	70	29489
2026-01-26 07:45:48.96	352.34	17.89	-49.8	-67.7	3.8	7.44e-01	0	43	104	0	70	29485
2026-01-26 07:45:51.99	351.57	17.75	-49.8	-67.7	3.8	7.47e-01	0	43	104	0	70	29538
2026-01-26 07:45:55.01	350.81	17.61	-49.8	-67.7	3.8	7.48e-01	0	43	104	0	70	29422
2026-01-26 07:45:58.03	350.06	17.47	-49.8	-67.7	3.8	7.46e-01	0	43	104	0	70	29560
2026-01-26 07:46:01.06	349.31	17.32	-49.8	-67.7	3.8	7.42e-01	0	44	104	0	70	29513
2026-01-26 07:46:04.09	348.57	17.17	-49.8	-67.7	3.8	7.45e-01	0	43	104	0	70	29500
2026-01-26 07:46:07.11	347.84	17.01	-49.8	-67.7	3.8	7.44e-01	0	44	104	0	70	29478
2026-01-26 07:46:10.14	347.11	16.85	-49.8	-67.7	3.8	7.44e-01	0	43	104	0	70	29502
2026-01-26 07:46:13.16	346.40	16.69	-49.8	-67.7	3.8	7.45e-01	0	43	104	0	70	29399
2026-01-26 07:46:16.18	345.69	16.52	-49.8	-67.7	3.8	7.43e-01	0	44	104	0	70	29507
2026-01-26 07:46:19.21	344.99	16.35	-49.8	-67.7	3.8	7.43e-01	0	44	104	0	70	29481
2026-01-26 07:46:22.22	344.30	16.18	-49.8	-67.7	3.8	7.42e-01	0	43	104	0	70	29508
2026-01-26 07:46:25.24	343.62	16.01	-49.8	-67.7	3.8	7.47e-01	0	43	104	0	70	29452
2026-01-26 07:46:28.26	342.95	15.83	-49.8	-67.7	3.8	7.47e-01	0	43	104	0	70	29585
2026-01-26 07:46:31.28	342.29	15.66	-49.8	-67.7	3.8	7.44e-01	0	43	104	0	70	29441
2026-01-26 07:46:34.30	341.63	15.47	-49.8	-67.7	3.8	7.44e-01	0	43	104	0	70	29432
2026-01-26 07:46:37.32	340.99	15.29	-49.8	-67.7	3.8	7.48e-01	0	43	104	0	70	29471
2026-01-26 07:46:40.34	340.35	15.11	-49.8	-67.7	3.8	7.44e-01	0	43	104	0	70	29464
2026-01-26 07:46:43.37	339.72	14.92	-49.8	-67.7	3.8	7.45e-01	0	43	104	0	70	29519
2026-01-26 07:46:46.39	339.10	14.73	-49.8	-67.7	3.8	7.46e-01	0	43	104	0	70	29486
2026-01-26 07:46:49.42	338.48	14.54	-49.8	-67.7	3.8	7.46e-01	0	43	104	0	70	29447
2026-01-26 07:46:52.44	337.88	14.35	-49.8	-67.7	3.8	7.46e-01	0	43	104	0	70	29490
2026-01-26 07:46:55.46	337.28	14.16	-49.8	-67.7	3.8	7.46e-01	0	43	104	0	70	29459
2026-01-26 07:46:58.49	336.69	13.96	-49.8	-67.7	3.8	7.46e-01	0	44	104	0	70	29450
2026-01-26 07:47:01.51	336.11	13.77	-49.8	-67.7	3.8	7.43e-01	0	43	104	0	70	29506
2026-01-26 07:47:04.53	335.54	13.57	-49.8	-67.7	3.8	7.47e-01	0	43	104	0	70	29453
2026-01-26 07:47:07.56	334.98	13.38	-49.8	-67.7	3.8	7.48e-01	0	43	104	0	70	29506
2026-01-26 07:47:10.58	334.43	13.18	-49.8	-67.7	3.8	7.45e-01	0	44	104	0	70	29450
2026-01-26 07:47:13.60	333.88	12.98	-49.8	-67.7	3.8	7.44e-01	0	43	104	0	70	29444
2026-01-26 07:47:16.63	333.34	12.78	-49.8	-67.7	3.8	7.43e-01	0	43	104	0	70	29450
2026-01-26 07:47:19.65	332.81	12.58	-49.8	-67.7	3.8	7.45e-01	0	43	104	0	70	29459
2026-01-26 07:47:22.67	332.29	12.38	-49.8	-67.7	3.8	7.48e-01	0	44	104	0	70	29447
2026-01-26 07:47:25.70	331.77	12.18	-49.8	-67.7	3.8	7.45e-01	0	43	104	0	70	29462
2026-01-26 07:47:28.72	331.26	11.98	-49.8	-67.7	3.8	7.50e-01	0	43	104	0	70	29509
2026-01-26 07:47:31.74	330.76	11.78	-49.8	-67.7	3.8	7.45e-01	0	43	104	0	70	29421
2026-01-26 07:47:34.77	330.27	11.58	-49.8	-67.7	3.8	7.44e-01	0	44	104	0	70	29447
2026-01-26 07:47:37.79	329.78	11.38	-49.8	-67.7	3.8	7.43e-01	0	43	104	0	70	29467
2026-01-26 07:47:40.81	329.31	11.18	-49.8	-67.7	3.8	7.47e-01	0	43	104	0	70	29522
2026-01-26 07:47:43.84	328.83	10.97	-49.8	-67.7	3.8	7.42e-01	0	43	104	0	70	29414
2026-01-26 07:47:46.87	328.37	10.77	-49.8	-67.7	3.8	7.44e-01	0	43	104	0	70	29548
2026-01-26 07:47:49.90	327.91	10.57	-49.8	-67.7	3.8	7.44e-01	0	44	104	0	70	29462
2026-01-26 07:47:52.92	327.46	10.37	-49.8	-67.7	3.8	7.45e-01	0	43	104	0	70	29497
2026-01-26 07:47:55.94	327.02	10.17	-49.8	-67.7	3.8	7.46e-01	0	43	104	0	70	29506
2026-01-26 07:47:58.96	326.58	9.97	-49.8	-67.7	3.8	7.43e-01	0	43	104	0	70	29532
2026-01-26 07:48:01.99	326.15	9.77	-49.8	-67.7	3.8	7.47e-01	0	43	104	0	70	29470
2026-01-26 07:48:05.01	325.73	9.57	-49.8	-67.7	3.8	7.45e-01	0	44	104	0	70	29517
2026-01-26 07:48:08.03	325.31	9.37	-49.8	-67.7	3.8	7.46e-01	0	43	104	0	70	29445
2026-01-26 07:48:11.05	324.90	9.17	-49.8	-67.7	3.8	7.42e-01	0	43	104	0	70	29566
2026-01-26 07:48:14.08	324.49	8.97	-49.8	-67.7	3.8	7.43e-01	0	43	104	0	70	29488
2026-01-26 07:48:17.10	324.10	8.78	-49.8	-67.7	3.8	7.45e-01	0	43	104	0	70	29509
2026-01-26 07:48:20.13	323.70	8.58	-49.8	-67.7	3.8	7.43e-01	0	44	104	0	70	29429
2026-01-26 07:48:23.15	323.31	8.38	-49.8	-67.7	3.8	7.46e-01	0	43	104	0	70	29501
2026-01-26 07:48:26.17	322.93	8.18	-49.8	-67.7	3.8	7.51e-01	0	43	104	0	70	29398
2026-01-26 07:48:29.19	322.56	7.99	-49.8	-67.7	3.8	7.44e-01	0	43	104	0	70	29387
2026-01-26 07:48:32.22	322.19	7.79	-49.8	-67.7	3.8	7.39e-01	0	44	104	0	70	29428
2026-01-26 07:48:35.25	321.82	7.60	-49.8	-67.7	3.8	7.44e-01	0	44	104	0	70	29355
2026-01-26 07:48:38.27	321.46	7.40	-49.8	-67.7	3.8	7.45e-01	0	43	104	0	70	29483
2026-01-26 07:48:41.29	321.11	7.21	-49.8	-67.7	3.8	7.45e-01	0	43	104	0	70	29394
2026-01-26 07:48:44.31	320.76	7.02	-49.8	-67.7	3.8	7.45e-01	0	43	104	0	70	29414
2026-01-26 07:48:47.33	320.42	6.83	-49.8	-67.7	3.8	7.45e-01	0	43	104	0	70	29432
2026-01-26 07:48:50.36	320.08	6.63	-49.8	-67.7	3.8	7.45e-01	0	44	104	0	70	29433
2026-01-26 07:48:53.38	319.75	6.44	-49.8	-67.7	3.8	7.43e-01	0	43	104	0	70	29433
2026-01-26 07:48:56.41	319.42	6.25	-49.8	-67.7	3.8	7.45e-01	0	43	104	0	70	29400
2026-01-26 07:48:59.43	319.09	6.06	-49.8	-67.6	3.8	7.46e-01	0	44	104	0	70	29234
2026-01-26 07:49:02.45	318.77	5.88	-49.8	-67.6	3.8	7.47e-01	0	43	104	0	70	29237
2026-01-26 07:49:05.48	318.46	5.69	-49.8	-67.7	3.8	7.46e-01	0	44	104	0	70	29370
2026-01-26 07:49:08.50	318.15	5.50	-49.8	-67.6	3.8	7.45e-01	0	44	104	0	70	29336
2026-01-26 07:49:11.52	317.84	5.31	-49.8	-67.7	3.8	7.46e-01	0	43	104	0	70	29371
2026-01-26 07:49:14.55	317.54	5.13	-49.8	-67.7	3.8	7.44e-01	0	43	104	0	70	29382
2026-01-26 07:49:17.57	317.25	4.94	-49.8	-67.6	3.8	7.50e-01	0	43	104	0	70	29159
2026-01-26 07:49:20.60	316.95	4.76	-49.8	-67.6	3.8	7.44e-01	0	43	104	0	70	29162
2026-01-26 07:49:23.62	316.66	4.57	-49.8	-67.6	3.8	7.47e-01	0	43	104	0	70	29293
2026-01-26 07:49:26.65	316.38	4.39	-49.8	-67.6	3.8	7.45e-01	0	44	104	0	70	29163
2026-01-26 07:49:29.66	316.10	4.21	-49.8	-67.7	3.8	7.45e-01	0	43	104	0	70	29360
2026-01-26 07:49:32.69	315.82	4.03	-49.8	-67.6	3.8	7.44e-01	0	43	104	0	70	29146
2026-01-26 07:49:35.71	315.55	3.85	-49.8	-67.6	3.8	7.44e-01	0	44	104	0	70	29077
2026-01-26 07:49:38.74	315.28	3.67	-49.8	-67.7	3.8	7.44e-01	0	44	104	0	70	29471
2026-01-26 07:49:41.76	315.02	3.49	-49.8	-67.6	3.8	7.44e-01	0	44	104	0	70	29230
2026-01-26 07:49:44.79	314.75	3.31	-49.8	-67.7	3.8	7.46e-01	0	44	104	0	70	29496
2026-01-26 07:49:47.81	314.50	3.13	-49.8	-67.5	3.8	7.47e-01	0	44	104	0	70	28862
2026-01-26 07:49:50.83	314.24	2.96	-49.8	-66.6	3.8	7.46e-01	0	44	104	0	70	25951
2026-01-26 07:49:53.85	313.99	2.78	-49.8	-67.6	3.8	7.45e-01	0	44	104	0	70	29305
2026-01-26 07:49:56.88	313.74	2.61	-49.8	-67.7	3.8	7.46e-01	0	44	104	0	70	29509
2026-01-26 07:49:59.91	313.50	2.43	-49.8	-67.7	3.8	7.46e-01	0	43	104	0	70	29475
2026-01-26 07:50:02.93	313.26	2.26	-49.8	-67.7	3.8	7.46e-01	0	43	104	0	70	29476
2026-01-26 07:50:05.95	313.02	2.08	-49.8	-67.7	3.8	7.46e-01	0	43	104	0	70	29503

#Closed at: 2026-01-26 07:50:08
#Recorded file [0 MB]: D:/lorett/data/31041_260126_103912.dat