passes_logs/2026/01/26/R3.2S_Murmansk/R3.2S_Murmansk__20260126_112424_NOAA_20_JPSS-1_rec.log

#Pass ID: 20260126_112424_NOAA 20 (JPSS-1)
#Satellite: NOAA 20 (JPSS-1)
#Configuration: NOAA 20
#almurnet v.1.7.20251203
#Start time: 2026-01-26 11:24:25

#Version: 2.2.20231116
#Station: R3.2S_Murmansk
#Location: 33.079688 lon 68.888172 lat
#TLE: 1 43013U 17073A   26025.90277267  .00000170  00000+0  10165-3 0  9997
#TLE: 2 43013  98.7646 326.7276 0001032  23.5492 336.5731 14.19540457424285

#Time	Az	El	Level	Level2	SNR	BER	BlckErr	Temp	State	Recorded	gain1	gain2
2026-01-26 11:24:25.72	198.65	2.07	-52.5	-67.4	3.8	1.49e+00	0	41	0	0	75	21430
2026-01-26 11:24:29.74	198.88	2.31	-52.5	-67.4	3.8	1.49e+00	0	41	104	0	75	21490
2026-01-26 11:24:33.77	199.11	2.55	-52.5	-67.4	3.8	1.49e+00	0	42	104	0	75	21369
2026-01-26 11:24:37.80	199.35	2.79	-52.5	-67.4	3.8	1.49e+00	0	41	104	0	75	21439
2026-01-26 11:24:41.83	199.59	3.03	-52.5	-67.4	3.8	1.49e+00	0	42	104	0	75	21376
2026-01-26 11:24:45.85	199.83	3.28	-52.5	-67.4	3.8	1.49e+00	0	42	104	0	75	21392
2026-01-26 11:24:49.89	200.08	3.52	-52.4	-67.3	3.8	1.49e+00	0	42	104	0	75	21260
2026-01-26 11:24:53.92	200.33	3.77	-52.5	-67.4	3.8	1.49e+00	0	42	104	0	75	21348
2026-01-26 11:24:57.94	200.58	4.02	-52.4	-67.2	3.8	1.49e+00	0	42	104	0	75	20857
2026-01-26 11:25:01.97	200.84	4.27	-52.5	-67.3	3.8	1.49e+00	0	42	104	0	75	21245
2026-01-26 11:25:06.00	201.10	4.53	-51.8	-59.9	6.3	4.68e-01	0	42	0	2097152	75	8994
2026-01-26 11:25:10.03	201.37	4.78	-49.6	-53.1	13.2	2.89e-05	0	42	0	9437184	70	5516
2026-01-26 11:25:14.06	201.64	5.04	-48.6	-51.3	15.0	0.00e+00	0	42	0	17825792	67	5328
2026-01-26 11:25:18.09	201.92	5.30	-50.4	-54.7	11.7	1.90e-04	0	42	0	22020096	71	6251
2026-01-26 11:25:22.12	202.20	5.56	-48.2	-50.6	15.7	0.00e+00	0	42	0	30408704	67	4916
2026-01-26 11:25:26.15	202.48	5.83	-48.0	-50.3	16.1	0.00e+00	0	42	0	37748736	66	5038
2026-01-26 11:25:30.18	202.77	6.09	-48.3	-50.7	15.8	0.00e+00	0	42	0	45088768	67	4972
2026-01-26 11:25:34.21	203.07	6.36	-47.7	-49.8	16.7	0.00e+00	0	42	0	52428800	66	4737
2026-01-26 11:25:38.24	203.37	6.63	-47.4	-49.4	17.1	0.00e+00	0	43	0	59768832	65	4802
2026-01-26 11:25:42.27	203.68	6.90	-47.7	-49.8	16.7	0.00e+00	0	43	0	68157440	66	4756
2026-01-26 11:25:46.30	203.99	7.18	-47.5	-49.5	17.1	0.00e+00	0	43	0	75497472	65	4854
2026-01-26 11:25:50.33	204.31	7.46	-47.4	-49.4	17.3	0.00e+00	0	43	0	82837504	65	4773
2026-01-26 11:25:54.35	204.63	7.73	-47.4	-49.4	17.3	0.00e+00	0	43	0	90177536	65	4769
2026-01-26 11:25:58.37	204.96	8.02	-47.3	-49.2	17.5	0.00e+00	0	43	0	97517568	65	4654
2026-01-26 11:26:02.41	205.29	8.30	-47.3	-49.2	17.5	0.00e+00	0	43	0	105906176	65	4665
2026-01-26 11:26:06.43	205.63	8.59	-46.8	-48.6	18.1	0.00e+00	0	43	0	113246208	64	4633
2026-01-26 11:26:10.46	205.98	8.88	-46.5	-48.2	18.7	0.00e+00	0	43	0	120586240	63	4657
2026-01-26 11:26:14.48	206.34	9.17	-46.6	-48.2	18.6	0.00e+00	0	43	0	127926272	63	4689
2026-01-26 11:26:18.52	206.70	9.46	-46.1	-47.6	19.2	0.00e+00	0	43	0	135266304	63	4366
2026-01-26 11:26:22.54	207.07	9.76	-46.0	-47.5	19.3	0.00e+00	0	43	0	143654912	62	4580
2026-01-26 11:26:26.57	207.44	10.06	-46.1	-47.7	19.2	0.00e+00	0	43	0	150994944	62	4657
2026-01-26 11:26:30.60	207.82	10.36	-46.0	-47.4	19.4	0.00e+00	0	43	0	158334976	62	4530
2026-01-26 11:26:34.63	208.21	10.66	-45.9	-47.4	19.5	0.00e+00	0	43	0	165675008	62	4522
2026-01-26 11:26:38.65	208.61	10.97	-45.8	-47.3	19.6	0.00e+00	0	43	0	173015040	62	4450
2026-01-26 11:26:42.69	209.02	11.28	-45.7	-47.2	19.7	0.00e+00	0	43	0	181403648	62	4394
2026-01-26 11:26:46.72	209.44	11.59	-45.8	-47.2	19.7	0.00e+00	0	43	0	188743680	62	4438
2026-01-26 11:26:50.74	209.86	11.91	-45.7	-47.1	19.9	0.00e+00	0	43	0	196083712	62	4345
2026-01-26 11:26:54.77	210.29	12.22	-45.6	-46.9	20.0	0.00e+00	0	43	0	203423744	62	4285
2026-01-26 11:26:58.80	210.73	12.54	-45.4	-46.7	20.2	0.00e+00	0	43	0	210763776	62	4186
2026-01-26 11:27:02.83	211.18	12.87	-45.5	-46.9	20.1	0.00e+00	0	43	0	219152384	62	4249
2026-01-26 11:27:06.86	211.64	13.19	-45.3	-46.6	20.4	0.00e+00	0	43	0	226492416	61	4362
2026-01-26 11:27:10.89	212.11	13.52	-45.5	-46.8	20.2	0.00e+00	0	43	0	233832448	61	4470
2026-01-26 11:27:14.91	212.59	13.85	-45.6	-46.9	20.1	0.00e+00	0	43	0	241172480	61	4536
2026-01-26 11:27:18.94	213.08	14.18	-45.7	-47.1	20.0	0.00e+00	0	43	0	249561088	62	4350
2026-01-26 11:27:22.97	213.59	14.52	-45.9	-47.4	19.8	0.00e+00	0	43	0	256901120	62	4495
2026-01-26 11:27:26.99	214.10	14.86	-45.9	-47.3	19.8	0.00e+00	0	43	0	264241152	62	4486
2026-01-26 11:27:31.01	214.62	15.20	-45.9	-47.4	19.8	0.00e+00	0	43	0	271581184	62	4496
2026-01-26 11:27:35.03	215.15	15.54	-45.9	-47.3	19.9	0.00e+00	0	43	0	278921216	62	4442
2026-01-26 11:27:39.05	215.70	15.89	-46.0	-47.4	19.7	0.00e+00	0	43	0	286261248	62	4542
2026-01-26 11:27:43.08	216.26	16.24	-46.1	-47.5	19.6	0.00e+00	0	43	0	294649856	62	4592
2026-01-26 11:27:47.10	216.83	16.59	-46.0	-47.5	19.7	0.00e+00	0	43	0	301989888	63	4292
2026-01-26 11:27:51.13	217.42	16.94	-46.1	-47.5	19.7	0.00e+00	0	43	0	309329920	63	4315
2026-01-26 11:27:55.16	218.02	17.30	-45.8	-47.2	20.0	0.00e+00	0	43	0	316669952	63	4170
2026-01-26 11:27:59.19	218.63	17.66	-45.5	-46.8	20.4	0.00e+00	0	43	0	324009984	63	3983
2026-01-26 11:28:03.23	219.26	18.02	-45.6	-46.9	20.3	0.00e+00	0	43	0	332398592	62	4276
2026-01-26 11:28:07.25	219.90	18.38	-45.7	-47.0	20.2	0.00e+00	0	43	0	339738624	62	4332
2026-01-26 11:28:11.29	220.56	18.75	-45.5	-46.8	20.4	0.00e+00	0	43	0	347078656	62	4239
2026-01-26 11:28:15.31	221.23	19.11	-45.5	-46.9	20.4	0.00e+00	0	43	0	354418688	62	4244
2026-01-26 11:28:19.34	221.92	19.48	-45.6	-46.9	20.4	0.00e+00	0	43	0	362807296	62	4264
2026-01-26 11:28:23.36	222.63	19.85	-45.0	-46.2	21.0	0.00e+00	0	43	0	370147328	62	3927
2026-01-26 11:28:27.39	223.35	20.22	-44.8	-46.0	21.2	0.00e+00	0	43	0	377487360	61	4085
2026-01-26 11:28:31.42	224.09	20.59	-44.9	-46.1	21.1	0.00e+00	0	43	0	384827392	61	4110
2026-01-26 11:28:35.44	224.84	20.96	-44.8	-46.0	21.2	0.00e+00	0	43	0	392167424	61	4068
2026-01-26 11:28:39.47	225.62	21.33	-44.6	-45.8	21.4	0.00e+00	0	43	0	399507456	61	3977
2026-01-26 11:28:43.49	226.41	21.71	-44.4	-45.5	21.7	0.00e+00	0	43	0	407896064	60	4070
2026-01-26 11:28:47.52	227.22	22.08	-44.3	-45.5	21.8	0.00e+00	0	43	0	415236096	60	4054
2026-01-26 11:28:51.54	228.05	22.45	-44.4	-45.6	21.7	0.00e+00	0	43	0	422576128	60	4101
2026-01-26 11:28:55.57	228.90	22.82	-44.0	-45.1	22.1	0.00e+00	0	43	0	429916160	60	3896
2026-01-26 11:28:59.59	229.76	23.19	-44.3	-45.4	21.8	0.00e+00	0	43	0	437256192	60	4049
2026-01-26 11:29:03.61	230.65	23.56	-44.3	-45.4	21.8	0.00e+00	0	43	0	445644800	60	4036
2026-01-26 11:29:07.65	231.56	23.93	-44.5	-45.6	21.6	0.00e+00	0	43	0	452984832	60	4145
2026-01-26 11:29:11.67	232.49	24.29	-44.5	-45.7	21.6	0.00e+00	0	43	0	460324864	60	4152
2026-01-26 11:29:15.69	233.44	24.65	-44.4	-45.5	21.8	0.00e+00	0	43	0	467664896	60	4072
2026-01-26 11:29:19.71	234.42	25.01	-44.9	-46.1	21.2	0.00e+00	0	43	0	475004928	60	4343
2026-01-26 11:29:23.74	235.41	25.36	-45.0	-46.2	21.1	0.00e+00	0	43	0	483393536	60	4432
2026-01-26 11:29:27.77	236.43	25.71	-45.2	-46.4	20.9	0.00e+00	0	43	0	490733568	61	4285
2026-01-26 11:29:31.79	237.47	26.05	-45.4	-46.6	20.7	0.00e+00	0	43	0	498073600	61	4376
2026-01-26 11:29:35.82	238.53	26.39	-45.6	-46.9	20.5	0.00e+00	0	43	0	505413632	62	4271
2026-01-26 11:29:39.85	239.61	26.72	-45.7	-47.0	20.4	0.00e+00	0	43	0	512753664	62	4320
2026-01-26 11:29:43.89	240.72	27.05	-46.6	-48.0	19.4	0.00e+00	0	43	0	521142272	63	4587
2026-01-26 11:29:47.91	241.84	27.37	-46.8	-48.4	19.1	0.00e+00	0	43	0	528482304	64	4497
2026-01-26 11:29:51.95	243.00	27.68	-46.7	-48.2	19.2	0.00e+00	0	43	0	535822336	64	4421
2026-01-26 11:29:55.98	244.17	27.98	-46.8	-48.3	19.1	0.00e+00	0	43	0	543162368	64	4477
2026-01-26 11:30:00.00	245.36	28.27	-47.0	-48.6	18.8	0.00e+00	0	43	0	550502400	64	4650
2026-01-26 11:30:04.02	246.57	28.54	-46.7	-48.2	19.2	0.00e+00	0	43	0	558891008	64	4436
2026-01-26 11:30:08.04	247.80	28.81	-46.4	-47.8	19.6	0.00e+00	0	43	0	566231040	64	4237
2026-01-26 11:30:12.07	249.05	29.07	-46.7	-48.3	19.1	0.00e+00	0	43	0	573571072	64	4462
2026-01-26 11:30:16.09	250.32	29.31	-46.7	-48.2	19.2	0.00e+00	0	43	0	580911104	64	4418
2026-01-26 11:30:20.12	251.61	29.54	-47.8	-49.6	17.9	0.00e+00	0	43	0	588251136	66	4624
2026-01-26 11:30:24.14	252.92	29.76	-48.5	-50.6	16.9	0.00e+00	0	43	0	596639744	67	4903
2026-01-26 11:30:28.17	254.24	29.96	-48.8	-50.9	16.7	0.00e+00	0	43	0	603979776	68	4809
2026-01-26 11:30:32.19	255.58	30.15	-49.0	-51.3	16.3	0.00e+00	0	43	0	611319808	68	4987
2026-01-26 11:30:36.21	256.93	30.32	-48.6	-50.7	16.9	0.00e+00	0	43	0	618659840	68	4699
2026-01-26 11:30:40.24	258.30	30.48	-48.4	-50.4	17.3	0.00e+00	0	43	0	625999872	68	4494
2026-01-26 11:30:44.28	259.69	30.61	-48.4	-50.4	17.2	0.00e+00	0	43	0	634388480	68	4539
2026-01-26 11:30:48.30	261.08	30.73	-47.5	-49.2	18.3	0.00e+00	0	43	0	641728512	66	4410
2026-01-26 11:30:52.33	262.48	30.84	-48.0	-49.8	17.7	0.00e+00	0	43	0	649068544	66	4751
2026-01-26 11:30:56.36	263.89	30.92	-47.6	-49.4	18.1	0.00e+00	0	43	0	656408576	66	4528
2026-01-26 11:31:00.38	265.30	30.99	-47.4	-49.1	18.5	0.00e+00	0	43	0	663748608	65	4614
2026-01-26 11:31:04.41	266.72	31.03	-48.2	-50.1	17.4	0.00e+00	0	43	0	672137216	67	4648
2026-01-26 11:31:08.43	268.14	31.06	-47.8	-49.6	18.0	0.00e+00	0	43	0	679477248	67	4356
2026-01-26 11:31:12.45	269.56	31.07	-47.1	-48.7	18.8	0.00e+00	0	43	0	686817280	66	4168
2026-01-26 11:31:16.47	270.98	31.06	-46.1	-47.5	20.0	0.00e+00	0	43	0	694157312	64	4069
2026-01-26 11:31:20.50	272.40	31.03	-46.7	-48.2	19.3	0.00e+00	0	43	0	701497344	64	4434
2026-01-26 11:31:24.53	273.82	30.98	-47.6	-49.3	18.3	0.00e+00	0	43	0	709885952	65	4721
2026-01-26 11:31:28.56	275.24	30.91	-47.7	-49.5	18.1	0.00e+00	0	43	0	717225984	66	4548
2026-01-26 11:31:32.58	276.64	30.83	-47.7	-49.4	18.2	0.00e+00	0	43	0	724566016	66	4530
2026-01-26 11:31:36.62	278.04	30.72	-47.7	-49.5	18.2	0.00e+00	0	43	0	731906048	66	4548
2026-01-26 11:31:40.65	279.43	30.60	-48.0	-49.8	17.9	0.00e+00	0	43	0	739246080	66	4743
2026-01-26 11:31:44.68	280.81	30.46	-48.3	-50.3	17.3	0.00e+00	0	43	0	747634688	67	4742
2026-01-26 11:31:48.71	282.18	30.31	-48.2	-50.1	17.6	0.00e+00	0	43	0	754974720	67	4615
2026-01-26 11:31:52.74	283.53	30.13	-47.7	-49.4	18.2	0.00e+00	0	43	0	762314752	67	4278
2026-01-26 11:31:56.77	284.87	29.95	-48.6	-50.7	17.0	0.00e+00	0	43	0	769654784	68	4675
2026-01-26 11:32:00.79	286.18	29.74	-47.7	-49.4	18.3	0.00e+00	0	43	0	776994816	66	4539
2026-01-26 11:32:04.82	287.49	29.53	-47.0	-48.5	19.1	0.00e+00	0	43	0	785383424	65	4334
2026-01-26 11:32:08.85	288.78	29.29	-46.7	-48.2	19.4	0.00e+00	0	43	0	792723456	65	4182
2026-01-26 11:32:12.86	290.04	29.05	-47.3	-48.9	18.7	0.00e+00	0	43	0	800063488	65	4543
2026-01-26 11:32:16.89	291.29	28.79	-46.3	-47.7	20.0	0.00e+00	0	43	0	807403520	64	4148
2026-01-26 11:32:20.92	292.51	28.52	-46.4	-47.8	20.0	0.00e+00	0	43	0	814743552	63	4472
2026-01-26 11:32:24.94	293.72	28.25	-47.4	-49.0	18.7	0.00e+00	0	43	0	823132160	65	4573
2026-01-26 11:32:28.97	294.91	27.96	-47.4	-49.0	18.7	0.00e+00	0	43	0	830472192	65	4566
2026-01-26 11:32:32.98	296.07	27.66	-47.0	-48.6	19.1	0.00e+00	0	43	0	837812224	65	4355
2026-01-26 11:32:37.01	297.21	27.35	-47.2	-48.8	18.9	0.00e+00	0	43	0	845152256	65	4459
2026-01-26 11:32:41.03	298.33	27.03	-47.6	-49.3	18.4	0.00e+00	0	43	0	852492288	65	4735
2026-01-26 11:32:45.06	299.43	26.71	-47.2	-48.8	18.8	0.00e+00	0	43	0	860880896	65	4487
2026-01-26 11:32:49.08	300.51	26.38	-47.0	-48.5	19.1	0.00e+00	0	43	0	868220928	65	4332
2026-01-26 11:32:53.10	301.56	26.04	-46.1	-47.4	20.2	0.00e+00	0	43	0	875560960	63	4282
2026-01-26 11:32:57.12	302.59	25.70	-45.8	-47.1	20.6	0.00e+00	0	43	0	882900992	63	4103
2026-01-26 11:33:01.15	303.60	25.35	-46.4	-47.8	19.8	0.00e+00	0	43	0	890241024	63	4464
2026-01-26 11:33:05.18	304.59	25.00	-46.1	-47.5	20.1	0.00e+00	0	43	0	898629632	63	4300
2026-01-26 11:33:09.20	305.56	24.65	-45.9	-47.4	20.2	0.00e+00	0	43	0	905969664	63	4280
2026-01-26 11:33:13.22	306.51	24.29	-46.3	-47.7	19.8	0.00e+00	0	43	0	913309696	63	4436
2026-01-26 11:33:17.25	307.43	23.92	-45.9	-47.3	20.3	0.00e+00	0	43	0	920649728	63	4206
2026-01-26 11:33:21.27	308.34	23.56	-47.1	-48.8	18.7	0.00e+00	0	43	0	927989760	64	4713
2026-01-26 11:33:25.30	309.22	23.20	-46.7	-48.2	19.3	0.00e+00	0	43	0	936378368	65	4164
2026-01-26 11:33:29.32	310.09	22.83	-46.8	-48.3	19.1	0.00e+00	0	43	0	943718400	64	4491
2026-01-26 11:33:33.35	310.93	22.46	-46.4	-47.8	19.6	0.00e+00	0	43	0	951058432	64	4224
2026-01-26 11:33:37.37	311.76	22.09	-45.9	-47.2	20.3	0.00e+00	0	43	0	958398464	63	4160
2026-01-26 11:33:41.40	312.56	21.72	-46.5	-48.0	19.3	0.00e+00	0	43	0	965738496	64	4337
2026-01-26 11:33:45.42	313.35	21.35	-46.2	-47.6	19.8	0.00e+00	0	43	0	973078528	63	4391
2026-01-26 11:33:49.45	314.12	20.98	-46.6	-48.2	19.2	0.00e+00	0	43	0	981467136	64	4407
2026-01-26 11:33:53.47	314.87	20.61	-45.5	-46.8	20.6	0.00e+00	0	43	0	988807168	63	3964
2026-01-26 11:33:57.49	315.61	20.25	-46.0	-47.4	20.0	0.00e+00	0	43	0	996147200	62	4510
2026-01-26 11:34:01.51	316.32	19.88	-45.5	-46.8	20.5	0.00e+00	0	43	0	1003487232	62	4232
2026-01-26 11:34:05.53	317.03	19.51	-45.4	-46.7	20.7	0.00e+00	0	43	0	1011875840	62	4147
2026-01-26 11:34:09.55	317.71	19.15	-45.5	-46.7	20.6	0.00e+00	0	43	0	1019215872	62	4183
2026-01-26 11:34:13.58	318.38	18.78	-45.1	-46.3	20.9	0.00e+00	0	43	0	1026555904	61	4240
2026-01-26 11:34:17.61	319.04	18.42	-45.0	-46.2	21.0	0.00e+00	0	43	0	1033895936	61	4156
2026-01-26 11:34:21.63	319.67	18.06	-44.9	-46.1	21.1	0.00e+00	0	43	0	1041235968	61	4104
2026-01-26 11:34:25.66	320.30	17.71	-44.8	-46.0	21.2	0.00e+00	0	43	0	1049624576	60	4302
2026-01-26 11:34:29.69	320.91	17.35	-45.0	-46.3	20.9	0.00e+00	0	43	0	1056964608	60	4446
2026-01-26 11:34:33.73	321.51	16.99	-45.3	-46.6	20.6	0.00e+00	0	43	0	1064304640	61	4348
2026-01-26 11:34:37.76	322.10	16.64	-45.4	-46.7	20.4	0.00e+00	0	43	0	1071644672	61	4403
2026-01-26 11:34:41.79	322.67	16.29	-45.2	-46.5	20.6	0.00e+00	0	43	0	1078984704	61	4305
2026-01-26 11:34:45.82	323.23	15.95	-45.3	-46.6	20.5	0.00e+00	0	43	0	1086324736	61	4373
2026-01-26 11:34:49.85	323.77	15.60	-45.6	-47.0	20.1	0.00e+00	0	43	0	1094713344	61	4552
2026-01-26 11:34:53.87	324.31	15.26	-45.6	-46.9	20.2	0.00e+00	0	43	0	1102053376	61	4519
2026-01-26 11:34:57.90	324.83	14.92	-46.0	-47.5	19.6	0.00e+00	0	43	0	1109393408	62	4555
2026-01-26 11:35:01.93	325.34	14.58	-46.2	-47.7	19.4	0.00e+00	0	43	0	1116733440	63	4417
2026-01-26 11:35:05.96	325.84	14.25	-46.2	-47.7	19.4	0.00e+00	0	43	0	1125122048	63	4423
2026-01-26 11:35:09.99	326.33	13.92	-46.2	-47.7	19.3	0.00e+00	0	43	0	1132462080	63	4407
2026-01-26 11:35:14.01	326.81	13.59	-46.5	-48.1	18.9	0.00e+00	0	44	0	1139802112	63	4643
2026-01-26 11:35:18.04	327.28	13.27	-46.6	-48.3	18.7	0.00e+00	0	43	0	1147142144	64	4454
2026-01-26 11:35:22.07	327.74	12.94	-46.8	-48.5	18.5	0.00e+00	0	43	0	1154482176	64	4550
2026-01-26 11:35:26.10	328.19	12.62	-46.4	-48.0	18.9	0.00e+00	0	43	0	1162870784	64	4298
2026-01-26 11:35:30.13	328.63	12.30	-46.3	-47.9	18.8	0.00e+00	0	43	0	1170210816	64	4277
2026-01-26 11:35:34.15	329.06	11.99	-46.5	-48.1	18.8	0.00e+00	0	43	0	1177550848	63	4633
2026-01-26 11:35:38.17	329.48	11.68	-46.8	-48.6	18.2	0.00e+00	0	43	0	1184890880	64	4613
2026-01-26 11:35:42.20	329.90	11.37	-46.6	-48.2	18.6	0.00e+00	0	43	0	1192230912	64	4438
2026-01-26 11:35:46.23	330.31	11.06	-46.2	-47.7	19.2	0.00e+00	0	43	0	1200619520	63	4423
2026-01-26 11:35:50.26	330.71	10.75	-45.8	-47.3	19.5	0.00e+00	0	43	0	1207959552	62	4464
2026-01-26 11:35:54.29	331.10	10.45	-46.0	-47.5	19.3	0.00e+00	0	43	0	1215299584	62	4578
2026-01-26 11:35:58.31	331.48	10.15	-46.2	-47.8	19.0	0.00e+00	0	43	0	1222639616	63	4459
2026-01-26 11:36:02.34	331.85	9.86	-46.5	-48.1	18.6	0.00e+00	0	43	0	1229979648	63	4634
2026-01-26 11:36:06.36	332.22	9.56	-46.5	-48.2	18.6	0.00e+00	0	43	0	1238368256	63	4671
2026-01-26 11:36:10.39	332.59	9.27	-46.3	-47.9	18.9	0.00e+00	0	43	0	1245708288	63	4495
2026-01-26 11:36:14.41	332.94	8.98	-46.3	-47.9	18.8	0.00e+00	0	43	0	1253048320	63	4525
2026-01-26 11:36:18.43	333.29	8.69	-46.5	-48.2	18.5	0.00e+00	0	43	0	1260388352	63	4662
2026-01-26 11:36:22.46	333.63	8.41	-46.7	-48.4	18.2	0.00e+00	0	43	0	1267728384	63	4802
2026-01-26 11:36:26.48	333.97	8.13	-46.6	-48.4	18.2	0.00e+00	0	43	0	1276116992	64	4495
2026-01-26 11:36:30.51	334.30	7.85	-46.4	-48.2	18.3	0.00e+00	0	43	0	1283457024	63	4662
2026-01-26 11:36:34.52	334.62	7.57	-46.3	-47.9	18.5	0.00e+00	0	43	0	1290797056	63	4532
2026-01-26 11:36:38.55	334.94	7.30	-46.2	-47.8	18.6	0.00e+00	0	43	0	1298137088	63	4488
2026-01-26 11:36:42.59	335.25	7.02	-46.3	-48.0	18.4	0.00e+00	0	43	0	1305477120	63	4553
2026-01-26 11:36:46.61	335.56	6.75	-46.7	-48.6	17.8	0.00e+00	0	43	0	1312817152	64	4601
2026-01-26 11:36:50.64	335.86	6.48	-47.0	-48.9	17.4	0.00e+00	0	43	0	1321205760	64	4811
2026-01-26 11:36:54.67	336.16	6.22	-47.0	-49.0	17.3	0.00e+00	0	43	0	1328545792	64	4850
2026-01-26 11:36:58.69	336.45	5.95	-47.0	-49.0	17.2	0.00e+00	0	43	0	1335885824	64	4864
2026-01-26 11:37:02.70	336.73	5.69	-46.9	-48.9	17.4	0.00e+00	0	43	0	1343225856	64	4776
2026-01-26 11:37:06.73	337.02	5.43	-46.9	-48.9	17.3	0.00e+00	0	43	0	1351614464	64	4790
2026-01-26 11:37:10.75	337.29	5.17	-47.0	-49.0	17.2	0.00e+00	0	43	0	1358954496	64	4834
2026-01-26 11:37:14.77	337.57	4.92	-52.7	-67.7	3.8	1.49e+00	0	43	104	1364197376	75	22018
2026-01-26 11:37:18.80	337.84	4.67	-53.4	-68.3	3.8	1.49e+00	0	43	104	1364197376	77	21189
2026-01-26 11:37:22.83	338.10	4.41	-53.5	-68.4	3.8	1.49e+00	0	43	104	1364197376	77	21287
2026-01-26 11:37:26.86	338.36	4.16	-53.2	-68.1	3.8	1.49e+00	0	44	104	1364197376	77	20761
2026-01-26 11:37:30.90	338.62	3.91	-53.3	-68.2	3.7	1.49e+00	0	43	104	1364197376	77	20831
2026-01-26 11:37:34.93	338.87	3.67	-53.4	-68.3	3.8	1.49e+00	0	44	104	1364197376	77	21238
2026-01-26 11:37:38.96	339.12	3.42	-53.3	-68.3	3.8	1.49e+00	0	43	104	1364197376	77	21109
2026-01-26 11:37:42.99	339.37	3.18	-53.3	-68.3	3.8	1.49e+00	0	43	104	1364197376	77	21057
2026-01-26 11:37:47.02	339.61	2.94	-53.3	-68.1	3.8	1.49e+00	0	43	104	1364197376	77	20655
2026-01-26 11:37:51.05	339.85	2.70	-53.2	-68.1	3.8	1.49e+00	0	43	104	1364197376	77	20671
2026-01-26 11:37:55.08	340.08	2.46	-53.3	-68.2	3.8	1.49e+00	0	44	104	1364197376	77	20871
2026-01-26 11:37:59.12	340.31	2.22	-53.2	-68.1	3.8	1.49e+00	0	44	104	1364197376	77	20613
2026-01-26 11:38:03.15	340.54	1.99	-53.2	-68.1	3.8	1.49e+00	0	44	104	1364197376	76	21878

#Closed at: 2026-01-26 11:38:03
#Recorded file [1364 MB]: D:/lorett/data/31041_260126_142425.dat