passes_logs/2026/01/26/R3.2S_Murmansk/R3.2S_Murmansk__20260126_030605_NOAA_20_JPSS-1_rec.log

#Pass ID: 20260126_030605_NOAA 20 (JPSS-1)
#Satellite: NOAA 20 (JPSS-1)
#Configuration: NOAA 20
#almurnet v.1.7.20251203
#Start time: 2026-01-26 03:06:04

#Version: 2.2.20231116
#Station: R3.2S_Murmansk
#Location: 33.079688 lon 68.888172 lat
#TLE: 1 43013U 17073A   26025.47986292  .00000161  00000+0  97249-4 0  9993
#TLE: 2 43013  98.7646 326.3091 0001052  24.2709 335.8516 14.19540188424225

#Time	Az	El	Level	Level2	SNR	BER	BlckErr	Temp	State	Recorded	gain1	gain2
2026-01-26 03:06:04.66	38.49	1.96	-53.9	-68.9	3.8	1.49e+00	0	41	0	0	78	21354
2026-01-26 03:06:08.68	38.29	2.21	-54.1	-69.1	3.8	1.49e+00	0	41	104	0	78	21788
2026-01-26 03:06:12.71	38.10	2.45	-54.0	-69.0	3.8	1.49e+00	0	42	104	0	78	21660
2026-01-26 03:06:16.74	37.89	2.69	-53.8	-68.8	3.8	1.49e+00	0	42	104	0	78	21207
2026-01-26 03:06:20.77	37.69	2.94	-53.6	-68.6	3.8	1.49e+00	0	42	104	0	78	20660
2026-01-26 03:06:24.80	37.48	3.19	-53.2	-68.1	3.8	1.49e+00	0	42	104	0	78	19611
2026-01-26 03:06:28.83	37.27	3.44	-52.0	-66.9	3.8	1.49e+00	0	42	104	0	76	18972
2026-01-26 03:06:32.86	37.05	3.69	-52.0	-66.9	3.8	1.49e+00	0	42	104	0	76	19071
2026-01-26 03:06:36.89	36.83	3.95	-51.9	-65.9	3.8	1.49e+00	0	42	104	0	75	18063
2026-01-26 03:06:40.93	36.60	4.20	-51.8	-63.8	3.9	1.46e+00	0	42	104	0	75	14201
2026-01-26 03:06:44.97	36.37	4.46	-51.7	-62.4	4.5	1.36e+00	12	43	0	0	75	11996
2026-01-26 03:06:49.00	36.14	4.72	-50.8	-57.1	8.4	4.46e-02	0	43	0	7340032	73	7369
2026-01-26 03:06:53.03	35.90	4.98	-50.1	-54.9	10.8	2.73e-03	0	43	0	14680064	72	6008
2026-01-26 03:06:57.07	35.66	5.25	-51.3	-59.5	6.2	1.79e-02	0	43	0	23068672	73	9631
2026-01-26 03:07:01.10	35.41	5.52	-47.6	-49.9	16.1	0.00e+00	0	43	0	28311552	67	4522
2026-01-26 03:07:05.13	35.16	5.78	-47.4	-49.6	16.5	0.00e+00	0	43	0	35651584	66	4625
2026-01-26 03:07:09.16	34.90	6.06	-47.5	-49.8	16.3	0.00e+00	0	43	0	42991616	66	4721
2026-01-26 03:07:13.19	34.64	6.33	-47.2	-49.4	16.8	0.00e+00	0	43	0	50331648	66	4495
2026-01-26 03:07:17.22	34.37	6.60	-47.4	-49.6	16.6	0.00e+00	0	43	0	57671680	66	4639
2026-01-26 03:07:21.25	34.09	6.88	-47.3	-49.4	16.8	0.00e+00	0	43	0	65011712	66	4535
2026-01-26 03:07:25.28	33.82	7.16	-47.5	-49.6	16.7	0.00e+00	0	43	0	73400320	66	4649
2026-01-26 03:07:29.31	33.53	7.44	-47.5	-49.6	16.7	0.00e+00	0	43	0	80740352	66	4627
2026-01-26 03:07:33.34	33.24	7.73	-47.4	-49.5	16.8	0.00e+00	0	43	0	88080384	66	4594
2026-01-26 03:07:37.36	32.94	8.02	-47.3	-49.4	17.0	0.00e+00	0	43	0	95420416	66	4508
2026-01-26 03:07:41.39	32.64	8.31	-47.3	-49.4	17.0	0.00e+00	0	43	0	103809024	66	4497
2026-01-26 03:07:45.42	32.33	8.60	-47.0	-49.0	17.4	0.00e+00	0	43	0	111149056	66	4305
2026-01-26 03:07:49.45	32.02	8.89	-47.1	-49.0	17.5	0.00e+00	0	43	0	118489088	66	4308
2026-01-26 03:07:53.48	31.69	9.19	-46.9	-48.8	17.7	0.00e+00	0	43	0	125829120	65	4445
2026-01-26 03:07:57.51	31.36	9.49	-46.6	-48.4	18.1	0.00e+00	0	43	0	133169152	65	4270
2026-01-26 03:08:01.54	31.03	9.79	-46.6	-48.3	18.2	0.00e+00	0	43	0	141557760	65	4233
2026-01-26 03:08:05.57	30.68	10.10	-46.4	-48.0	18.5	0.00e+00	0	43	0	148897792	64	4340
2026-01-26 03:08:09.60	30.33	10.41	-46.4	-48.1	18.4	0.00e+00	0	43	0	156237824	64	4376
2026-01-26 03:08:13.63	29.97	10.72	-46.4	-48.1	18.5	0.00e+00	0	43	0	163577856	64	4348
2026-01-26 03:08:17.67	29.60	11.03	-46.3	-47.9	18.7	0.00e+00	0	43	0	171966464	64	4287
2026-01-26 03:08:21.69	29.23	11.35	-46.4	-48.1	18.6	0.00e+00	0	43	0	179306496	64	4342
2026-01-26 03:08:25.72	28.84	11.67	-46.3	-48.0	18.6	0.00e+00	0	43	0	186646528	64	4313
2026-01-26 03:08:29.74	28.45	11.99	-46.2	-47.8	18.8	0.00e+00	0	43	0	193986560	64	4231
2026-01-26 03:08:33.77	28.05	12.32	-46.1	-47.7	19.0	0.00e+00	0	43	0	201326592	64	4182
2026-01-26 03:08:37.80	27.64	12.65	-46.2	-47.7	19.0	0.00e+00	0	43	0	208666624	63	4436
2026-01-26 03:08:41.84	27.21	12.98	-46.2	-47.7	19.1	0.00e+00	0	43	0	217055232	63	4430
2026-01-26 03:08:45.86	26.78	13.31	-46.3	-47.8	19.0	0.00e+00	0	43	0	224395264	63	4481
2026-01-26 03:08:49.89	26.34	13.65	-46.3	-47.8	19.0	0.00e+00	0	43	0	231735296	63	4487
2026-01-26 03:08:53.92	25.89	13.99	-46.4	-47.9	18.9	0.00e+00	0	43	0	239075328	63	4540
2026-01-26 03:08:57.95	25.43	14.33	-46.3	-47.9	18.9	0.00e+00	0	43	0	246415360	63	4525
2026-01-26 03:09:01.98	24.95	14.68	-46.4	-48.0	18.9	0.00e+00	0	43	0	254803968	63	4573
2026-01-26 03:09:06.01	24.47	15.03	-46.5	-48.2	18.7	0.00e+00	0	43	0	262144000	63	4662
2026-01-26 03:09:10.05	23.97	15.38	-46.4	-48.0	18.9	0.00e+00	0	43	0	269484032	63	4574
2026-01-26 03:09:14.07	23.46	15.73	-46.4	-48.0	19.0	0.00e+00	0	43	0	276824064	63	4546
2026-01-26 03:09:18.09	22.94	16.09	-46.5	-48.1	18.8	0.00e+00	0	43	0	285212672	63	4627
2026-01-26 03:09:22.12	22.40	16.45	-46.3	-47.9	19.1	0.00e+00	0	43	0	292552704	63	4504
2026-01-26 03:09:26.15	21.85	16.81	-46.4	-48.0	19.0	0.00e+00	0	43	0	299892736	63	4574
2026-01-26 03:09:30.17	21.29	17.18	-46.2	-47.7	19.3	0.00e+00	0	43	0	307232768	63	4407
2026-01-26 03:09:34.20	20.72	17.54	-46.1	-47.5	19.4	0.00e+00	0	43	0	314572800	63	4324
2026-01-26 03:09:38.24	20.12	17.91	-46.0	-47.5	19.5	0.00e+00	0	43	0	321912832	63	4307
2026-01-26 03:09:42.26	19.52	18.29	-45.8	-47.2	19.8	0.00e+00	0	43	0	330301440	63	4183
2026-01-26 03:09:46.29	18.90	18.66	-45.7	-47.0	20.0	0.00e+00	0	43	0	337641472	63	4086
2026-01-26 03:09:50.32	18.26	19.04	-45.8	-47.2	19.8	0.00e+00	0	43	0	344981504	63	4191
2026-01-26 03:09:54.34	17.61	19.41	-45.7	-47.1	19.9	0.00e+00	0	43	0	352321536	63	4130
2026-01-26 03:09:58.37	16.94	19.80	-45.6	-46.9	20.1	0.00e+00	0	44	0	360710144	63	4043
2026-01-26 03:10:02.40	16.25	20.18	-45.6	-47.0	20.1	0.00e+00	0	43	0	368050176	63	4077
2026-01-26 03:10:06.43	15.55	20.56	-45.8	-47.2	19.9	0.00e+00	0	43	0	375390208	63	4172
2026-01-26 03:10:10.46	14.82	20.94	-46.0	-47.4	19.7	0.00e+00	0	43	0	382730240	63	4253
2026-01-26 03:10:14.49	14.08	21.33	-46.1	-47.5	19.6	0.00e+00	0	43	0	390070272	63	4323
2026-01-26 03:10:18.51	13.32	21.72	-46.3	-47.8	19.4	0.00e+00	0	43	0	398458880	63	4444
2026-01-26 03:10:22.53	12.54	22.10	-46.5	-48.0	19.1	0.00e+00	0	43	0	405798912	63	4596
2026-01-26 03:10:26.57	11.74	22.49	-46.1	-47.5	19.6	0.00e+00	0	43	0	413138944	63	4323
2026-01-26 03:10:30.59	10.92	22.87	-45.8	-47.2	19.9	0.00e+00	0	43	0	420478976	63	4183
2026-01-26 03:10:34.62	10.08	23.26	-45.8	-47.1	20.0	0.00e+00	0	43	0	427819008	63	4142
2026-01-26 03:10:38.64	9.22	23.64	-45.4	-46.6	20.5	0.00e+00	0	43	0	435159040	62	4144
2026-01-26 03:10:42.66	8.34	24.02	-45.1	-46.3	20.8	0.00e+00	0	43	0	443547648	62	3995
2026-01-26 03:10:46.69	7.43	24.40	-45.0	-46.2	20.9	0.00e+00	0	43	0	450887680	61	4174
2026-01-26 03:10:50.72	6.50	24.78	-45.0	-46.3	20.9	0.00e+00	0	43	0	458227712	61	4205
2026-01-26 03:10:54.75	5.55	25.15	-45.0	-46.2	20.9	0.00e+00	0	43	0	465567744	61	4182
2026-01-26 03:10:58.78	4.58	25.52	-44.9	-46.1	21.0	0.00e+00	0	43	0	473956352	61	4140
2026-01-26 03:11:02.80	3.58	25.89	-44.9	-46.1	21.1	0.00e+00	0	43	0	481296384	61	4100
2026-01-26 03:11:06.83	2.56	26.25	-45.1	-46.3	20.9	0.00e+00	0	43	0	488636416	61	4224
2026-01-26 03:11:10.85	1.52	26.61	-45.7	-47.1	20.2	0.00e+00	0	43	0	495976448	61	4612
2026-01-26 03:11:14.88	0.45	26.96	-45.8	-47.1	20.2	0.00e+00	0	43	0	503316480	62	4364
2026-01-26 03:11:18.91	359.36	27.30	-46.2	-47.7	19.6	0.00e+00	0	43	0	511705088	63	4392
2026-01-26 03:11:22.93	358.25	27.63	-46.7	-48.2	19.1	0.00e+00	0	43	0	519045120	63	4697
2026-01-26 03:11:26.96	357.11	27.96	-46.6	-48.2	19.1	0.00e+00	0	43	0	526385152	64	4409
2026-01-26 03:11:30.98	355.95	28.28	-46.8	-48.5	18.7	0.00e+00	0	43	0	533725184	64	4550
2026-01-26 03:11:35.00	354.77	28.59	-47.2	-48.9	18.3	0.00e+00	0	43	0	541065216	65	4525
2026-01-26 03:11:39.03	353.56	28.88	-46.8	-48.4	18.9	0.00e+00	0	43	0	548405248	65	4262
2026-01-26 03:11:43.05	352.33	29.17	-46.6	-48.1	19.2	0.00e+00	0	43	0	556793856	65	4140
2026-01-26 03:11:47.08	351.08	29.44	-46.5	-48.0	19.3	0.00e+00	0	43	0	564133888	64	4314
2026-01-26 03:11:51.11	349.80	29.70	-46.7	-48.2	19.1	0.00e+00	0	44	0	571473920	64	4427
2026-01-26 03:11:55.14	348.51	29.95	-46.6	-48.2	19.1	0.00e+00	0	43	0	578813952	64	4405
2026-01-26 03:11:59.16	347.20	30.18	-46.7	-48.3	19.1	0.00e+00	0	43	0	586153984	64	4456
2026-01-26 03:12:03.19	345.87	30.40	-46.9	-48.5	18.8	0.00e+00	0	43	0	594542592	64	4598
2026-01-26 03:12:07.21	344.52	30.60	-47.1	-48.7	18.6	0.00e+00	0	43	0	601882624	64	4685
2026-01-26 03:12:11.24	343.15	30.78	-46.8	-48.4	19.0	0.00e+00	0	43	0	609222656	64	4497
2026-01-26 03:12:15.27	341.77	30.95	-46.8	-48.4	19.0	0.00e+00	0	43	0	616562688	64	4502
2026-01-26 03:12:19.31	340.37	31.10	-46.8	-48.4	19.0	0.00e+00	0	43	0	624951296	64	4529
2026-01-26 03:12:23.34	338.97	31.22	-46.6	-48.1	19.3	0.00e+00	0	43	0	632291328	64	4385
2026-01-26 03:12:27.37	337.55	31.33	-46.9	-48.5	19.0	0.00e+00	0	43	0	639631360	64	4570
2026-01-26 03:12:31.39	336.13	31.42	-47.0	-48.6	18.8	0.00e+00	0	43	0	646971392	64	4634
2026-01-26 03:12:35.42	334.69	31.49	-47.1	-48.7	18.8	0.00e+00	0	43	0	654311424	64	4674
2026-01-26 03:12:39.45	333.26	31.54	-47.7	-49.6	18.0	0.00e+00	0	43	0	661651456	66	4601
2026-01-26 03:12:43.48	331.81	31.57	-47.7	-49.5	18.0	0.00e+00	0	43	0	670040064	66	4586
2026-01-26 03:12:47.51	330.37	31.58	-47.7	-49.5	18.0	0.00e+00	0	44	0	677380096	66	4558
2026-01-26 03:12:51.54	328.93	31.57	-47.7	-49.5	18.0	0.00e+00	0	43	0	684720128	66	4550
2026-01-26 03:12:55.57	327.48	31.54	-47.2	-48.8	18.7	0.00e+00	0	43	0	692060160	66	4220
2026-01-26 03:12:59.59	326.05	31.49	-47.1	-48.7	18.8	0.00e+00	0	43	0	700448768	65	4407
2026-01-26 03:13:03.63	324.61	31.41	-47.4	-49.1	18.4	0.00e+00	0	43	0	707788800	65	4613
2026-01-26 03:13:07.66	323.19	31.32	-47.1	-48.7	18.8	0.00e+00	0	43	0	715128832	65	4409
2026-01-26 03:13:11.69	321.77	31.21	-47.2	-48.9	18.6	0.00e+00	0	43	0	722468864	65	4514
2026-01-26 03:13:15.71	320.37	31.08	-47.1	-48.8	18.7	0.00e+00	0	43	0	729808896	65	4447
2026-01-26 03:13:19.74	318.97	30.93	-47.1	-48.7	18.8	0.00e+00	0	43	0	738197504	65	4399
2026-01-26 03:13:23.77	317.59	30.76	-47.2	-48.8	18.6	0.00e+00	0	43	0	745537536	65	4491
2026-01-26 03:13:27.80	316.23	30.58	-47.1	-48.7	18.8	0.00e+00	0	43	0	752877568	65	4418
2026-01-26 03:13:31.82	314.88	30.37	-47.4	-49.1	18.3	0.00e+00	0	44	0	760217600	65	4650
2026-01-26 03:13:35.84	313.55	30.16	-47.3	-48.9	18.5	0.00e+00	0	44	0	767557632	65	4541
2026-01-26 03:13:39.88	312.24	29.92	-47.6	-49.4	18.1	0.00e+00	0	43	0	775946240	65	4803
2026-01-26 03:13:43.91	310.94	29.67	-47.7	-49.4	18.1	0.00e+00	0	44	0	783286272	66	4544
2026-01-26 03:13:47.92	309.68	29.41	-47.7	-49.5	17.9	0.00e+00	0	44	0	790626304	66	4598
2026-01-26 03:13:51.96	308.42	29.14	-48.2	-50.2	17.3	0.00e+00	0	43	0	797966336	67	4687
2026-01-26 03:13:55.99	307.19	28.85	-47.3	-48.9	18.6	0.00e+00	0	43	0	805306368	66	4289
2026-01-26 03:14:00.01	305.99	28.55	-47.1	-48.8	18.7	0.00e+00	0	44	0	813694976	66	4198
2026-01-26 03:14:04.04	304.80	28.24	-47.2	-48.8	18.7	0.00e+00	0	44	0	821035008	66	4209
2026-01-26 03:14:08.07	303.64	27.92	-46.8	-48.3	19.1	0.00e+00	0	43	0	828375040	65	4236
2026-01-26 03:14:12.10	302.51	27.59	-46.6	-48.0	19.4	0.00e+00	0	43	0	835715072	65	4094
2026-01-26 03:14:16.13	301.39	27.26	-46.7	-48.2	19.3	0.00e+00	0	43	0	843055104	65	4175
2026-01-26 03:14:20.16	300.30	26.91	-46.4	-47.8	19.6	0.00e+00	0	44	0	851443712	64	4230
2026-01-26 03:14:24.19	299.23	26.56	-46.3	-47.7	19.8	0.00e+00	0	43	0	858783744	64	4155
2026-01-26 03:14:28.21	298.19	26.20	-46.0	-47.4	20.1	0.00e+00	0	43	0	866123776	64	4011
2026-01-26 03:14:32.25	297.17	25.84	-46.0	-47.3	20.1	0.00e+00	0	43	0	873463808	63	4238
2026-01-26 03:14:36.28	296.17	25.47	-45.6	-46.9	20.6	0.00e+00	0	43	0	881852416	63	4037
2026-01-26 03:14:40.31	295.20	25.10	-45.1	-46.3	21.1	0.00e+00	0	44	0	889192448	62	3994
2026-01-26 03:14:44.33	294.25	24.73	-44.9	-46.1	21.3	0.00e+00	0	43	0	896532480	61	4107
2026-01-26 03:14:48.36	293.33	24.35	-44.3	-45.4	21.9	0.00e+00	0	44	0	903872512	60	4045
2026-01-26 03:14:52.39	292.42	23.97	-44.6	-45.7	21.7	0.00e+00	0	43	0	911212544	60	4168
2026-01-26 03:14:56.42	291.54	23.58	-44.3	-45.4	22.1	0.00e+00	0	43	0	918552576	59	4283
2026-01-26 03:15:00.45	290.68	23.20	-44.2	-45.3	22.3	0.00e+00	0	43	0	926941184	59	4227
2026-01-26 03:15:04.48	289.83	22.81	-44.2	-45.3	22.3	0.00e+00	0	43	0	934281216	59	4223
2026-01-26 03:15:08.51	289.02	22.43	-44.2	-45.2	22.4	0.00e+00	0	43	0	941621248	59	4192
2026-01-26 03:15:12.54	288.22	22.04	-44.0	-45.1	22.5	0.00e+00	0	43	0	948961280	59	4121
2026-01-26 03:15:16.57	287.44	21.65	-44.3	-45.4	22.2	0.00e+00	0	43	0	957349888	59	4288
2026-01-26 03:15:20.60	286.68	21.27	-44.5	-45.6	22.0	0.00e+00	0	44	0	964689920	59	4378
2026-01-26 03:15:24.63	285.94	20.88	-44.6	-45.8	21.8	0.00e+00	0	43	0	972029952	59	4443
2026-01-26 03:15:28.67	285.21	20.49	-44.7	-45.8	21.8	0.00e+00	0	44	0	979369984	59	4456
2026-01-26 03:15:32.71	284.51	20.11	-44.5	-45.7	21.6	0.00e+00	0	43	0	986710016	60	4164
2026-01-26 03:15:36.74	283.82	19.73	-44.8	-46.0	21.3	0.00e+00	0	43	0	995098624	60	4301
2026-01-26 03:15:40.77	283.15	19.35	-44.9	-46.1	21.1	0.00e+00	0	44	0	1002438656	60	4382
2026-01-26 03:15:44.80	282.50	18.97	-45.1	-46.4	20.9	0.00e+00	0	43	0	1009778688	60	4506
2026-01-26 03:15:48.83	281.86	18.59	-45.2	-46.4	20.8	0.00e+00	0	43	0	1017118720	61	4286
2026-01-26 03:15:52.86	281.24	18.21	-45.2	-46.5	20.7	0.00e+00	0	43	0	1024458752	61	4311
2026-01-26 03:15:56.89	280.63	17.84	-45.4	-46.7	20.5	0.00e+00	0	43	0	1032847360	61	4432
2026-01-26 03:16:00.92	280.04	17.47	-45.3	-46.6	20.6	0.00e+00	0	43	0	1040187392	61	4362
2026-01-26 03:16:04.95	279.47	17.10	-45.6	-46.9	20.3	0.00e+00	0	43	0	1047527424	61	4510
2026-01-26 03:16:08.98	278.91	16.74	-45.9	-47.3	19.9	0.00e+00	0	43	0	1054867456	62	4474
2026-01-26 03:16:13.01	278.36	16.37	-45.8	-47.1	20.0	0.00e+00	0	43	0	1062207488	62	4384
2026-01-26 03:16:17.03	277.82	16.02	-46.1	-47.6	19.6	0.00e+00	0	43	0	1070596096	62	4611
2026-01-26 03:16:21.06	277.30	15.66	-46.4	-47.9	19.2	0.00e+00	0	43	0	1077936128	63	4531
2026-01-26 03:16:25.10	276.79	15.30	-46.3	-47.8	19.3	0.00e+00	0	43	0	1085276160	63	4473
2026-01-26 03:16:29.12	276.29	14.95	-46.2	-47.7	19.4	0.00e+00	0	43	0	1092616192	63	4411
2026-01-26 03:16:33.15	275.81	14.60	-46.5	-48.1	19.1	0.00e+00	0	43	0	1099956224	63	4616
2026-01-26 03:16:37.17	275.34	14.26	-46.6	-48.2	18.9	0.00e+00	0	44	0	1108344832	63	4680
2026-01-26 03:16:41.19	274.87	13.91	-46.4	-47.9	19.2	0.00e+00	0	43	0	1115684864	63	4522
2026-01-26 03:16:45.22	274.42	13.57	-46.2	-47.7	19.3	0.00e+00	0	43	0	1123024896	63	4435
2026-01-26 03:16:49.25	273.98	13.24	-46.5	-48.1	19.0	0.00e+00	0	43	0	1130364928	63	4599
2026-01-26 03:16:53.28	273.55	12.90	-46.6	-48.2	18.7	0.00e+00	0	43	0	1137704960	64	4419
2026-01-26 03:16:57.31	273.13	12.57	-46.4	-48.0	18.9	0.00e+00	0	43	0	1146093568	64	4337
2026-01-26 03:17:01.34	272.72	12.24	-46.7	-48.4	18.5	0.00e+00	0	44	0	1153433600	64	4509
2026-01-26 03:17:05.37	272.31	11.92	-46.8	-48.5	18.4	0.00e+00	0	44	0	1160773632	64	4586
2026-01-26 03:17:09.40	271.92	11.60	-46.8	-48.5	18.4	0.00e+00	0	44	0	1168113664	64	4555
2026-01-26 03:17:13.43	271.53	11.28	-46.9	-48.6	18.2	0.00e+00	0	43	0	1175453696	64	4622
2026-01-26 03:17:17.45	271.16	10.96	-47.1	-48.9	17.9	0.00e+00	0	44	0	1183842304	64	4784
2026-01-26 03:17:21.49	270.79	10.64	-47.1	-48.9	17.9	0.00e+00	0	44	0	1191182336	64	4799
2026-01-26 03:17:25.51	270.43	10.33	-47.2	-49.0	17.7	0.00e+00	0	44	0	1198522368	65	4589
2026-01-26 03:17:29.54	270.08	10.03	-47.5	-49.5	17.0	0.00e+00	0	44	0	1205862400	65	4867
2026-01-26 03:17:33.57	269.73	9.72	-48.4	-51.2	14.9	0.00e+00	0	43	0	1214251008	67	5223
2026-01-26 03:17:37.60	269.40	9.42	-49.6	-53.9	11.7	2.84e-04	0	43	0	1221591040	69	6391
2026-01-26 03:17:41.63	269.07	9.12	-50.2	-56.0	9.2	1.24e-02	0	44	0	1228931072	70	7697
2026-01-26 03:17:45.66	268.74	8.82	-50.5	-57.8	7.2	1.17e-01	0	44	0	1236271104	71	8869
2026-01-26 03:17:49.69	268.43	8.52	-50.5	-59.0	5.9	2.48e-01	0	44	0	1243611136	71	10260
2026-01-26 03:17:53.72	268.12	8.23	-50.0	-56.9	7.6	8.60e-01	0	44	0	1250951168	72	7555
2026-01-26 03:17:57.74	267.81	7.94	-49.7	-54.1	11.5	2.59e-03	0	44	0	1258291200	71	5817
2026-01-26 03:18:01.77	267.51	7.65	-48.9	-52.0	14.1	2.20e-06	0	43	0	1265631232	69	5134
2026-01-26 03:18:05.81	267.22	7.37	-48.0	-50.4	15.8	0.00e+00	0	44	0	1272971264	68	4534
2026-01-26 03:18:09.84	266.94	7.09	-47.6	-49.8	16.6	0.00e+00	0	43	0	1281359872	67	4458
2026-01-26 03:18:13.85	266.66	6.81	-48.0	-50.3	16.1	0.00e+00	0	44	0	1288699904	67	4745
2026-01-26 03:18:17.88	266.38	6.53	-48.0	-50.3	16.1	0.00e+00	0	44	0	1296039936	67	4740
2026-01-26 03:18:21.91	266.12	6.25	-48.1	-50.5	15.9	0.00e+00	0	43	0	1303379968	67	4835
2026-01-26 03:18:25.94	265.85	5.98	-48.1	-50.6	15.7	0.00e+00	0	44	0	1310720000	67	4894
2026-01-26 03:18:29.96	265.59	5.71	-48.3	-50.9	15.4	0.00e+00	0	44	0	1319108608	67	5055
2026-01-26 03:18:33.99	265.34	5.44	-48.4	-51.0	15.2	0.00e+00	0	44	0	1326448640	67	5134
2026-01-26 03:18:38.02	265.09	5.18	-48.6	-51.5	14.7	0.00e+00	0	43	0	1333788672	67	5404
2026-01-26 03:18:42.03	264.85	4.91	-52.1	-67.1	3.8	1.49e+00	0	43	104	1339031552	75	20585
2026-01-26 03:18:46.07	264.61	4.65	-52.5	-67.4	3.8	1.49e+00	0	44	104	1339031552	75	21385
2026-01-26 03:18:50.10	264.37	4.39	-52.8	-67.8	3.8	1.49e+00	0	44	104	1339031552	76	21089
2026-01-26 03:18:54.13	264.14	4.13	-53.0	-68.0	3.8	1.49e+00	0	44	104	1339031552	76	21621
2026-01-26 03:18:58.16	263.92	3.88	-53.2	-68.1	3.8	1.49e+00	0	44	104	1339031552	76	21928
2026-01-26 03:19:02.19	263.69	3.62	-53.2	-68.1	3.8	1.49e+00	0	44	104	1339031552	77	20733
2026-01-26 03:19:06.22	263.48	3.37	-53.2	-68.1	3.8	1.49e+00	0	44	104	1339031552	77	20699
2026-01-26 03:19:10.25	263.26	3.12	-53.1	-68.1	3.8	1.49e+00	0	44	104	1339031552	77	20654
2026-01-26 03:19:14.29	263.05	2.87	-53.1	-68.1	3.8	1.49e+00	0	44	104	1339031552	77	20627
2026-01-26 03:19:18.32	262.84	2.62	-53.1	-68.1	3.8	1.49e+00	0	44	104	1339031552	77	20601
2026-01-26 03:19:22.35	262.64	2.38	-53.1	-68.1	3.8	1.49e+00	0	44	104	1339031552	77	20618
2026-01-26 03:19:26.38	262.44	2.13	-53.1	-68.1	3.8	1.49e+00	0	44	104	1339031552	77	20541
2026-01-26 03:19:30.41	262.24	1.89	-53.1	-68.1	3.8	1.49e+00	0	44	104	1339031552	77	20558

#Closed at: 2026-01-26 03:19:30
#Recorded file [1339 MB]: D:/lorett/data/31041_260126_060604.dat