passes_logs/2026/01/26/R3.2S_Murmansk/R3.2S_Murmansk__20260126_064346_KANOPUS-V_5_rec.log

#Pass ID: 20260126_064346_KANOPUS-V 5
#Satellite: KANOPUS-V 5
#Configuration: KANOPUS-V_8320
#almurnet v.1.7.20251203
#Start time: 2026-01-26 06:43:48

#Version: 2.2.20231116
#Station: R3.2S_Murmansk
#Location: 33.079688 lon 68.888172 lat
#TLE: 1 43876U 18111A   26026.00801652  .00005574  00000+0  23616-3 0  9999
#TLE: 2 43876  97.3673 294.3234 0001826  89.2210 270.9236 15.23545039393147

#Time	Az	El	Level	Level2	SNR	BER	BlckErr	Temp	State	Recorded	gain1	gain2
2026-01-26 06:43:48.90	130.91	2.15	-54.8	-63.6	3.8	7.45e-01	0	42	0	0	80	10366
2026-01-26 06:43:51.92	130.79	2.36	-54.9	-63.8	3.8	7.45e-01	0	42	104	0	81	9965
2026-01-26 06:43:54.95	130.66	2.57	-54.9	-63.7	3.8	7.46e-01	0	42	104	0	81	9903
2026-01-26 06:43:57.97	130.53	2.78	-54.7	-63.5	3.8	7.47e-01	0	42	104	0	81	9716
2026-01-26 06:44:00.99	130.40	3.00	-54.6	-63.4	3.8	7.46e-01	0	42	104	0	81	9558
2026-01-26 06:44:04.01	130.27	3.22	-54.2	-63.1	3.8	7.44e-01	0	42	104	0	80	9722
2026-01-26 06:44:07.03	130.14	3.44	-53.8	-62.7	3.8	7.45e-01	0	42	104	0	79	9835
2026-01-26 06:44:10.05	130.00	3.66	-53.4	-62.2	3.8	7.46e-01	0	42	104	0	78	9869
2026-01-26 06:44:13.07	129.86	3.88	-53.0	-61.8	3.8	7.45e-01	0	43	104	0	78	9491
2026-01-26 06:44:16.09	129.72	4.11	-53.0	-61.8	3.8	7.45e-01	0	43	104	0	77	9977
2026-01-26 06:44:19.11	129.57	4.34	-50.5	-54.7	5.8	6.87e-01	0	43	104	0	73	5576
2026-01-26 06:44:22.13	129.42	4.57	-47.6	-50.3	10.4	6.21e-01	0	43	0	41943040	67	4744
2026-01-26 06:44:25.17	129.26	4.81	-46.2	-48.5	12.0	6.13e-01	0	43	0	88080384	64	4554
2026-01-26 06:44:28.19	129.11	5.05	-46.9	-49.3	11.2	6.17e-01	0	43	0	134217728	64	5018
2026-01-26 06:44:31.21	128.95	5.29	-50.8	-55.3	5.5	6.96e-01	0	43	0	180355072	73	5942
2026-01-26 06:44:34.23	128.78	5.53	-46.4	-48.7	11.8	6.14e-01	0	43	0	226492416	64	4704
2026-01-26 06:44:37.25	128.62	5.77	-45.9	-48.1	12.6	6.12e-01	0	43	0	272629760	63	4646
2026-01-26 06:44:40.26	128.44	6.02	-45.8	-48.3	12.6	5.88e-01	0	43	0	318767104	62	4989
2026-01-26 06:44:43.28	128.27	6.27	-45.7	-48.0	12.8	5.87e-01	0	43	0	364904448	62	4863
2026-01-26 06:44:46.30	128.09	6.53	-45.3	-47.6	13.2	5.87e-01	0	43	0	411041792	62	4648
2026-01-26 06:44:49.32	127.91	6.78	-45.3	-47.6	13.3	5.86e-01	0	43	0	459276288	62	4641
2026-01-26 06:44:52.35	127.72	7.05	-45.3	-47.7	13.2	5.86e-01	0	43	0	505413632	62	4703
2026-01-26 06:44:55.37	127.52	7.31	-45.1	-47.4	13.5	5.85e-01	0	43	0	551550976	62	4535
2026-01-26 06:44:58.39	127.33	7.58	-45.0	-47.3	13.6	5.85e-01	0	43	0	597688320	61	4755
2026-01-26 06:45:01.41	127.13	7.85	-44.6	-46.9	14.0	5.86e-01	0	43	0	643825664	60	4788
2026-01-26 06:45:04.43	126.92	8.12	-44.4	-46.6	14.3	5.85e-01	0	43	0	689963008	60	4619
2026-01-26 06:45:07.45	126.71	8.40	-44.3	-46.5	14.4	5.84e-01	0	43	0	736100352	60	4592
2026-01-26 06:45:10.47	126.49	8.69	-44.2	-46.3	14.6	5.84e-01	0	43	0	782237696	60	4486
2026-01-26 06:45:13.50	126.26	8.97	-44.2	-46.2	14.6	5.84e-01	0	43	0	828375040	60	4440
2026-01-26 06:45:16.52	126.03	9.26	-44.1	-46.2	14.7	5.85e-01	0	43	0	876609536	60	4420
2026-01-26 06:45:19.54	125.80	9.56	-44.2	-46.2	14.7	5.84e-01	0	43	0	922746880	59	4686
2026-01-26 06:45:22.56	125.56	9.86	-44.0	-46.0	14.9	5.84e-01	0	43	0	968884224	59	4549
2026-01-26 06:45:25.59	125.31	10.16	-43.6	-45.5	15.4	5.83e-01	0	44	0	1015021568	59	4310
2026-01-26 06:45:28.61	125.05	10.47	-43.6	-45.5	15.3	5.84e-01	0	43	0	1063256064	59	4337
2026-01-26 06:45:31.64	124.79	10.79	-43.5	-45.5	15.4	5.85e-01	0	43	0	1109393408	59	4312
2026-01-26 06:45:34.66	124.52	11.10	-43.1	-45.1	15.6	5.83e-01	0	44	0	1155530752	58	4386
2026-01-26 06:45:37.69	124.24	11.43	-43.1	-45.1	15.7	5.83e-01	0	44	0	1201668096	58	4368
2026-01-26 06:45:40.71	123.96	11.76	-43.0	-45.0	15.7	5.83e-01	0	43	0	1247805440	57	4583
2026-01-26 06:45:43.73	123.67	12.09	-42.8	-44.8	16.0	5.84e-01	0	43	0	1293942784	57	4457
2026-01-26 06:45:46.75	123.37	12.43	-42.8	-44.8	16.0	5.84e-01	0	44	0	1340080128	57	4454
2026-01-26 06:45:49.77	123.06	12.77	-42.7	-44.7	16.1	5.84e-01	0	44	0	1386217472	57	4413
2026-01-26 06:45:52.79	122.74	13.12	-42.6	-44.6	16.2	5.84e-01	0	44	0	1432354816	57	4356
2026-01-26 06:45:55.82	122.41	13.48	-42.6	-44.6	16.2	5.84e-01	0	44	0	1480589312	57	4359
2026-01-26 06:45:58.84	122.07	13.84	-42.5	-44.5	16.3	5.84e-01	0	44	0	1526726656	57	4301
2026-01-26 06:46:01.86	121.72	14.21	-42.3	-44.3	16.5	5.83e-01	0	44	0	1572864000	56	4444
2026-01-26 06:46:04.89	121.36	14.59	-42.4	-44.4	16.4	5.84e-01	0	44	0	1619001344	56	4522
2026-01-26 06:46:07.91	120.99	14.97	-42.3	-44.3	16.6	5.83e-01	0	44	0	1665138688	56	4459
2026-01-26 06:46:10.93	120.60	15.36	-42.0	-44.0	16.8	5.84e-01	0	44	0	1711276032	56	4332
2026-01-26 06:46:13.96	120.21	15.76	-42.0	-44.1	16.8	5.83e-01	0	44	0	1757413376	55	4634
2026-01-26 06:46:16.98	119.80	16.16	-41.8	-43.8	17.1	5.83e-01	0	44	0	1803550720	55	4470
2026-01-26 06:46:20.01	119.37	16.57	-41.4	-43.4	17.4	5.83e-01	0	44	0	1851785216	54	4512
2026-01-26 06:46:23.04	118.94	16.99	-41.3	-43.1	17.6	5.94e-01	0	44	0	1897922560	54	4377
2026-01-26 06:46:26.07	118.48	17.42	-41.3	-43.1	17.7	5.92e-01	0	44	0	1944059904	54	4363
2026-01-26 06:46:29.09	118.02	17.86	-40.9	-42.6	18.0	5.95e-01	0	44	0	1990197248	53	4358
2026-01-26 06:46:32.11	117.53	18.30	-40.8	-42.5	18.0	5.98e-01	0	44	0	2038431744	53	4327
2026-01-26 06:46:35.14	117.03	18.75	-40.6	-42.4	18.2	6.00e-01	0	44	0	2084569088	53	4261
2026-01-26 06:46:38.17	116.51	19.21	-40.5	-42.4	18.2	6.00e-01	0	44	0	2130706432	53	4267
2026-01-26 06:46:41.19	115.97	19.68	-40.4	-42.3	18.2	6.01e-01	0	44	0	2176843776	52	4455
2026-01-26 06:46:44.21	115.42	20.16	-40.2	-42.1	18.4	5.98e-01	0	44	0	2222981120	52	4365
2026-01-26 06:46:47.24	114.84	20.65	-40.0	-41.8	18.6	6.00e-01	0	44	0	2269118464	52	4217
2026-01-26 06:46:50.27	114.24	21.14	-40.0	-41.8	18.6	6.01e-01	0	44	0	2315255808	51	4450
2026-01-26 06:46:53.29	113.61	21.65	-40.0	-41.8	18.6	5.99e-01	0	44	0	2361393152	51	4480
2026-01-26 06:46:56.31	112.97	22.16	-40.0	-41.9	18.6	5.99e-01	0	44	0	2409627648	51	4499
2026-01-26 06:46:59.34	112.29	22.69	-39.8	-41.6	18.7	5.97e-01	0	44	0	2455764992	51	4377
2026-01-26 06:47:02.36	111.60	23.22	-39.7	-41.6	18.8	6.00e-01	0	44	0	2501902336	51	4354
2026-01-26 06:47:05.38	110.87	23.76	-39.4	-41.2	19.0	6.01e-01	0	44	0	2548039680	50	4407
2026-01-26 06:47:08.41	110.11	24.32	-39.3	-41.0	19.2	6.00e-01	0	44	0	2596274176	50	4318
2026-01-26 06:47:11.43	109.33	24.88	-39.0	-40.8	19.3	6.00e-01	0	44	0	2642411520	50	4206
2026-01-26 06:47:14.46	108.50	25.45	-38.9	-40.7	19.3	6.00e-01	0	44	0	2688548864	49	4396
2026-01-26 06:47:17.48	107.65	26.03	-39.0	-40.7	19.3	6.00e-01	0	44	0	2734686208	49	4426
2026-01-26 06:47:20.50	106.76	26.62	-39.0	-40.7	19.3	6.00e-01	0	44	0	2780823552	49	4413
2026-01-26 06:47:23.53	105.84	27.22	-38.7	-40.4	19.5	6.01e-01	0	44	0	2826960896	49	4264
2026-01-26 06:47:26.55	104.87	27.83	-38.6	-40.3	19.6	5.99e-01	0	44	0	2873098240	49	4207
2026-01-26 06:47:29.57	103.86	28.44	-38.6	-40.4	19.5	5.98e-01	0	44	0	2919235584	49	4287
2026-01-26 06:47:32.59	102.81	29.06	-38.6	-40.4	19.5	6.01e-01	0	44	0	2965372928	49	4251
2026-01-26 06:47:35.62	101.71	29.69	-38.6	-40.3	19.5	6.02e-01	0	44	0	3013607424	49	4229
2026-01-26 06:47:38.64	100.57	30.32	-38.5	-40.2	19.6	6.01e-01	0	44	0	3059744768	49	4184
2026-01-26 06:47:41.67	99.37	30.96	-38.5	-40.1	19.6	6.02e-01	0	44	0	3105882112	48	4391
2026-01-26 06:47:44.68	98.13	31.59	-38.5	-40.3	19.5	5.98e-01	0	44	0	3152019456	48	4452
2026-01-26 06:47:47.71	96.83	32.23	-38.8	-40.5	19.4	5.99e-01	0	44	0	3198156800	48	4598
2026-01-26 06:47:50.74	95.46	32.88	-38.6	-40.3	19.6	6.00e-01	0	44	0	3244294144	48	4467
2026-01-26 06:47:53.77	94.04	33.51	-38.9	-40.6	19.4	6.01e-01	0	44	0	3290431488	48	4619
2026-01-26 06:47:56.80	92.56	34.15	-39.0	-40.8	19.3	5.99e-01	0	44	0	3336568832	48	4744
2026-01-26 06:47:59.82	91.02	34.78	-38.8	-40.6	19.3	5.98e-01	0	44	0	3384803328	48	4599
2026-01-26 06:48:02.85	89.42	35.39	-38.9	-40.6	19.4	5.98e-01	0	44	0	3430940672	48	4635
2026-01-26 06:48:05.87	87.75	36.00	-39.0	-40.9	19.1	6.01e-01	0	44	0	3477078016	48	4761
2026-01-26 06:48:08.90	86.01	36.59	-39.4	-41.2	18.9	6.00e-01	0	44	0	3523215360	49	4701
2026-01-26 06:48:11.92	84.21	37.17	-39.2	-41.0	19.1	5.99e-01	0	44	0	3571449856	49	4596
2026-01-26 06:48:14.94	82.34	37.72	-39.2	-41.0	19.1	5.97e-01	0	44	0	3617587200	49	4598
2026-01-26 06:48:17.95	80.41	38.25	-38.9	-40.8	19.3	6.01e-01	0	44	0	3663724544	49	4447
2026-01-26 06:48:20.98	78.40	38.75	-39.2	-41.1	19.1	6.01e-01	0	44	0	3709861888	49	4621
2026-01-26 06:48:24.00	76.34	39.22	-39.3	-41.2	19.0	6.02e-01	0	44	0	3755999232	49	4668
2026-01-26 06:48:27.03	74.20	39.66	-39.4	-41.5	18.9	6.01e-01	0	44	0	3802136576	49	4822
2026-01-26 06:48:30.05	72.02	40.05	-39.7	-41.8	18.7	5.98e-01	0	44	0	3848273920	50	4746
2026-01-26 06:48:33.07	69.78	40.41	-39.7	-41.8	18.7	6.01e-01	0	44	0	3894411264	50	4740
2026-01-26 06:48:36.09	67.49	40.71	-39.8	-42.0	18.5	6.00e-01	0	44	0	3940548608	50	4832
2026-01-26 06:48:39.11	65.16	40.98	-39.7	-41.9	18.7	6.02e-01	0	44	0	3988783104	50	4780
2026-01-26 06:48:42.13	62.80	41.19	-39.5	-41.6	18.7	6.05e-01	0	44	0	4034920448	50	4648
2026-01-26 06:48:45.15	60.41	41.34	-39.7	-42.0	18.4	6.01e-01	0	44	0	4081057792	50	4840
2026-01-26 06:48:48.18	57.99	41.45	-39.7	-41.9	18.7	6.06e-01	0	44	0	4127195136	50	4761
2026-01-26 06:48:51.21	55.55	41.50	-39.6	-41.8	18.7	6.04e-01	0	44	0	4175429632	50	4735
2026-01-26 06:48:54.23	53.13	41.49	-39.2	-41.3	19.0	6.04e-01	0	44	0	4221566976	50	4481
2026-01-26 06:48:57.25	50.70	41.43	-39.8	-41.9	18.5	6.06e-01	0	44	0	4265607168	50	4801
2026-01-26 06:49:00.27	48.30	41.31	-39.6	-41.8	18.6	6.03e-01	0	44	0	4311744512	50	4707
2026-01-26 06:49:03.30	45.90	41.14	-39.7	-41.9	18.6	6.04e-01	0	44	0	4357881856	50	4810
2026-01-26 06:49:06.32	43.55	40.91	-39.7	-41.9	18.6	5.97e-01	0	44	0	4406116352	50	4812
2026-01-26 06:49:09.34	41.24	40.64	-39.9	-42.2	18.4	6.02e-01	0	44	0	4452253696	50	4940
2026-01-26 06:49:12.37	38.96	40.32	-40.1	-42.6	18.3	5.95e-01	0	44	0	4498391040	50	5160
2026-01-26 06:49:15.39	36.74	39.95	-39.9	-41.9	18.7	5.98e-01	0	44	0	4544528384	51	4512
2026-01-26 06:49:18.41	34.57	39.54	-40.3	-42.4	18.3	5.98e-01	0	44	0	4592762880	51	4809
2026-01-26 06:49:21.43	32.46	39.10	-40.3	-42.5	18.3	5.99e-01	0	44	0	4638900224	51	4816
2026-01-26 06:49:24.45	30.42	38.62	-40.2	-42.2	18.4	6.01e-01	0	44	0	4685037568	51	4683
2026-01-26 06:49:27.47	28.44	38.12	-40.3	-42.2	18.4	6.02e-01	0	44	0	4731174912	51	4704
2026-01-26 06:49:30.49	26.52	37.58	-40.2	-42.2	18.4	6.00e-01	0	44	0	4777312256	51	4682
2026-01-26 06:49:33.52	24.67	37.02	-40.2	-42.2	18.5	6.01e-01	0	44	0	4823449600	51	4685
2026-01-26 06:49:36.55	22.88	36.44	-40.3	-42.1	18.5	6.02e-01	0	44	0	4869586944	51	4649
2026-01-26 06:49:39.57	21.17	35.85	-40.1	-42.1	18.5	6.03e-01	0	44	0	4915724288	51	4633
2026-01-26 06:49:42.59	19.52	35.24	-40.3	-42.0	18.6	6.00e-01	0	44	0	4961861632	51	4580
2026-01-26 06:49:45.61	17.94	34.63	-39.9	-41.7	18.7	5.98e-01	0	44	0	5010096128	51	4425
2026-01-26 06:49:48.63	16.42	34.00	-40.1	-42.1	18.5	5.98e-01	0	44	0	5056233472	51	4630
2026-01-26 06:49:51.66	14.96	33.37	-40.1	-42.0	18.5	6.02e-01	0	44	0	5102370816	51	4577
2026-01-26 06:49:54.67	13.57	32.73	-40.0	-41.9	18.6	6.01e-01	0	44	0	5148508160	51	4516
2026-01-26 06:49:57.69	12.23	32.10	-39.9	-41.9	18.6	6.02e-01	0	44	0	5194645504	51	4508
2026-01-26 06:50:00.72	10.95	31.46	-39.8	-41.7	18.7	6.02e-01	0	44	0	5242880000	51	4404
2026-01-26 06:50:03.74	9.72	30.82	-39.7	-41.7	18.7	5.98e-01	0	44	0	5289017344	51	4411
2026-01-26 06:50:06.77	8.54	30.19	-39.5	-41.5	18.9	6.01e-01	0	44	0	5335154688	51	4302
2026-01-26 06:50:09.79	7.41	29.56	-39.3	-41.1	19.0	6.03e-01	0	44	0	5379194880	50	4385
2026-01-26 06:50:12.81	6.33	28.94	-39.5	-41.4	18.8	6.02e-01	0	44	0	5427429376	50	4533
2026-01-26 06:50:15.84	5.29	28.32	-39.4	-41.3	18.9	6.01e-01	0	44	0	5473566720	50	4492
2026-01-26 06:50:18.87	4.29	27.71	-39.4	-41.3	18.9	6.03e-01	0	44	0	5519704064	50	4474
2026-01-26 06:50:21.89	3.34	27.11	-39.4	-41.5	18.8	5.99e-01	0	44	0	5565841408	50	4546
2026-01-26 06:50:24.92	2.42	26.51	-39.6	-41.5	18.7	6.03e-01	0	44	0	5614075904	50	4593
2026-01-26 06:50:27.94	1.55	25.93	-39.7	-41.7	18.6	6.00e-01	0	44	0	5660213248	50	4662
2026-01-26 06:50:30.97	0.70	25.35	-39.6	-41.6	18.6	6.02e-01	0	44	0	5706350592	50	4630
2026-01-26 06:50:34.00	359.89	24.78	-39.7	-41.9	18.4	5.99e-01	0	44	0	5752487936	50	4772
2026-01-26 06:50:37.03	359.11	24.22	-39.9	-42.0	18.4	6.00e-01	0	44	0	5798625280	50	4856
2026-01-26 06:50:40.06	358.37	23.67	-39.9	-41.9	18.4	6.03e-01	0	44	0	5844762624	50	4794
2026-01-26 06:50:43.08	357.65	23.14	-40.0	-42.0	18.4	6.05e-01	0	44	0	5890899968	50	4850
2026-01-26 06:50:46.11	356.96	22.60	-39.9	-42.0	18.3	6.01e-01	0	44	0	5939134464	50	4865
2026-01-26 06:50:49.13	356.30	22.08	-40.2	-42.3	18.1	6.00e-01	0	44	0	5985271808	50	5010
2026-01-26 06:50:52.15	355.66	21.57	-40.3	-42.4	18.0	6.06e-01	0	44	0	6031409152	51	4811
2026-01-26 06:50:55.17	355.04	21.07	-40.4	-42.6	17.9	6.03e-01	0	44	0	6077546496	51	4885
2026-01-26 06:50:58.20	354.45	20.58	-40.6	-42.7	17.8	6.03e-01	0	44	0	6123683840	51	4962
2026-01-26 06:51:01.23	353.88	20.10	-41.0	-43.2	17.5	5.84e-01	0	44	0	6171918336	52	4961
2026-01-26 06:51:04.26	353.33	19.62	-41.0	-43.2	17.5	5.84e-01	0	44	0	6218055680	52	4965
2026-01-26 06:51:07.29	352.80	19.16	-41.1	-43.3	17.3	5.83e-01	0	44	0	6264193024	52	5022
2026-01-26 06:51:10.31	352.28	18.70	-41.1	-43.3	17.3	5.83e-01	0	44	0	6310330368	52	5028
2026-01-26 06:51:13.34	351.79	18.25	-53.9	-62.8	3.8	7.45e-01	0	44	104	6350176256	78	10625
2026-01-26 06:51:16.36	351.31	17.81	-53.8	-62.7	3.8	7.44e-01	0	44	104	6350176256	78	10420
2026-01-26 06:51:19.39	350.85	17.38	-53.8	-62.6	3.8	7.44e-01	0	44	104	6350176256	78	10408
2026-01-26 06:51:22.41	350.40	16.96	-53.8	-62.6	3.8	7.45e-01	0	44	104	6350176256	78	10394
2026-01-26 06:51:25.43	349.97	16.54	-53.8	-62.6	3.8	7.46e-01	0	44	104	6350176256	78	10342
2026-01-26 06:51:28.46	349.55	16.13	-53.8	-62.6	3.8	7.46e-01	0	44	104	6350176256	78	10354
2026-01-26 06:51:31.48	349.15	15.73	-53.7	-62.6	3.8	7.44e-01	0	44	104	6350176256	78	10333
2026-01-26 06:51:34.50	348.76	15.34	-53.7	-62.5	3.8	7.46e-01	0	44	104	6350176256	78	10283
2026-01-26 06:51:37.52	348.38	14.95	-53.7	-62.5	3.8	7.46e-01	0	44	104	6350176256	78	10243
2026-01-26 06:51:40.54	348.01	14.57	-53.7	-62.5	3.8	7.44e-01	0	44	104	6350176256	78	10284
2026-01-26 06:51:43.56	347.66	14.20	-53.7	-62.5	3.8	7.44e-01	0	44	104	6350176256	78	10260
2026-01-26 06:51:46.59	347.31	13.83	-53.7	-62.5	3.8	7.45e-01	0	44	104	6350176256	78	10257
2026-01-26 06:51:49.60	346.98	13.48	-53.7	-62.5	3.8	7.44e-01	0	44	104	6350176256	78	10211
2026-01-26 06:51:52.63	346.65	13.12	-53.6	-62.4	3.8	7.46e-01	0	44	104	6350176256	78	10175
2026-01-26 06:51:55.64	346.34	12.77	-53.6	-62.4	3.8	7.45e-01	0	44	104	6350176256	78	10147
2026-01-26 06:51:58.66	346.03	12.43	-53.6	-62.5	3.8	7.46e-01	0	44	104	6350176256	78	10185
2026-01-26 06:52:01.68	345.74	12.09	-53.6	-62.4	3.8	7.45e-01	0	44	104	6350176256	78	10133
2026-01-26 06:52:04.71	345.45	11.76	-53.6	-62.4	3.8	7.46e-01	0	44	104	6350176256	78	10088
2026-01-26 06:52:07.73	345.16	11.44	-53.5	-62.4	3.8	7.46e-01	0	44	104	6350176256	78	10071
2026-01-26 06:52:10.75	344.89	11.12	-53.6	-62.4	3.8	7.45e-01	0	44	104	6350176256	78	10082
2026-01-26 06:52:13.77	344.63	10.80	-53.5	-62.3	3.8	7.45e-01	0	44	104	6350176256	78	10037
2026-01-26 06:52:16.79	344.37	10.49	-53.5	-62.3	3.8	7.46e-01	0	44	104	6350176256	78	10024
2026-01-26 06:52:19.81	344.12	10.18	-53.5	-62.3	3.8	7.43e-01	0	44	104	6350176256	78	10005
2026-01-26 06:52:22.83	343.87	9.88	-53.5	-62.3	3.8	7.45e-01	0	44	104	6350176256	78	10052
2026-01-26 06:52:25.86	343.63	9.58	-53.5	-62.3	3.8	7.46e-01	0	44	104	6350176256	78	10026
2026-01-26 06:52:28.88	343.40	9.29	-53.4	-62.2	3.8	7.45e-01	0	44	104	6350176256	78	9897
2026-01-26 06:52:31.89	343.17	9.00	-53.4	-62.2	3.8	7.46e-01	0	44	104	6350176256	78	9892
2026-01-26 06:52:34.92	342.95	8.71	-53.4	-62.2	3.8	7.44e-01	0	44	104	6350176256	78	9931
2026-01-26 06:52:37.95	342.74	8.43	-53.4	-62.2	3.8	7.45e-01	0	44	104	6350176256	78	9888
2026-01-26 06:52:40.97	342.53	8.15	-53.3	-62.1	3.8	7.46e-01	0	44	104	6350176256	78	9772
2026-01-26 06:52:43.99	342.32	7.88	-53.3	-62.1	3.8	7.46e-01	0	44	104	6350176256	78	9730
2026-01-26 06:52:47.01	342.12	7.61	-53.3	-62.1	3.8	7.45e-01	0	44	104	6350176256	78	9819
2026-01-26 06:52:50.02	341.93	7.35	-53.3	-62.1	3.8	7.47e-01	0	44	104	6350176256	78	9777
2026-01-26 06:52:53.05	341.74	7.08	-53.2	-61.9	3.8	7.45e-01	0	44	104	6350176256	78	9596
2026-01-26 06:52:56.06	341.55	6.82	-53.1	-61.9	3.8	7.44e-01	0	44	104	6350176256	78	9548
2026-01-26 06:52:59.08	341.37	6.57	-53.2	-62.0	3.8	7.45e-01	0	44	104	6350176256	78	9679
2026-01-26 06:53:02.11	341.20	6.31	-53.1	-62.0	3.8	7.46e-01	0	44	104	6350176256	78	9621
2026-01-26 06:53:05.13	341.02	6.06	-53.0	-61.8	3.8	7.45e-01	0	44	104	6350176256	78	9408
2026-01-26 06:53:08.14	340.85	5.82	-52.9	-61.7	3.8	7.45e-01	0	44	104	6350176256	77	9937
2026-01-26 06:53:11.16	340.69	5.57	-53.0	-61.8	3.8	7.45e-01	0	44	104	6350176256	77	9976
2026-01-26 06:53:14.18	340.53	5.33	-53.0	-61.8	3.8	7.45e-01	0	44	104	6350176256	77	9989
2026-01-26 06:53:17.21	340.37	5.09	-52.8	-61.6	3.8	7.46e-01	0	44	104	6350176256	77	9819
2026-01-26 06:53:20.23	340.22	4.86	-53.6	-62.4	3.8	7.46e-01	0	44	104	6350176256	77	10693
2026-01-26 06:53:23.25	340.07	4.62	-54.0	-62.8	3.8	7.46e-01	0	44	104	6350176256	78	10596
2026-01-26 06:53:26.27	339.92	4.39	-54.3	-63.1	3.8	7.45e-01	0	44	104	6350176256	79	10379
2026-01-26 06:53:29.29	339.77	4.16	-54.3	-63.1	3.8	7.45e-01	0	44	104	6350176256	79	10335
2026-01-26 06:53:32.32	339.63	3.94	-54.1	-62.9	3.8	7.45e-01	0	44	104	6350176256	79	10111
2026-01-26 06:53:35.34	339.49	3.71	-54.0	-62.9	3.8	7.46e-01	0	44	104	6350176256	79	10090
2026-01-26 06:53:38.37	339.36	3.49	-54.1	-62.9	3.8	7.46e-01	0	44	104	6350176256	79	10063
2026-01-26 06:53:41.38	339.23	3.27	-54.0	-62.8	3.8	7.45e-01	0	44	104	6350176256	79	9987
2026-01-26 06:53:44.41	339.10	3.05	-53.9	-62.8	3.8	7.46e-01	0	44	104	6350176256	79	9971
2026-01-26 06:53:47.43	338.97	2.84	-53.9	-62.8	3.8	7.45e-01	0	44	104	6350176256	79	9953
2026-01-26 06:53:50.45	338.84	2.63	-53.9	-62.7	3.8	7.46e-01	0	44	104	6350176256	79	9931
2026-01-26 06:53:53.48	338.72	2.41	-53.9	-62.7	3.8	7.46e-01	0	44	104	6350176256	79	9913
2026-01-26 06:53:56.50	338.60	2.21	-53.9	-62.7	3.8	7.44e-01	0	44	104	6350176256	79	9906

#Closed at: 2026-01-26 06:53:59
#Recorded file [6350 MB]: D:/lorett/data/31041_260126_094348.dat