passes_logs/2026/01/26/R3.2S_Murmansk/R3.2S_Murmansk__20260126_130800_NOAA_20_JPSS-1_rec.log

#Pass ID: 20260126_130800_NOAA 20 (JPSS-1)
#Satellite: NOAA 20 (JPSS-1)
#Configuration: NOAA 20
#almurnet v.1.7.20251203
#Start time: 2026-01-26 13:08:00

#Version: 2.2.20231116
#Station: R3.2S_Murmansk
#Location: 33.079688 lon 68.888172 lat
#TLE: 1 43013U 17073A   26025.90277267  .00000170  00000+0  10165-3 0  9997
#TLE: 2 43013  98.7646 326.7276 0001032  23.5492 336.5731 14.19540457424285

#Time	Az	El	Level	Level2	SNR	BER	BlckErr	Temp	State	Recorded	gain1	gain2
2026-01-26 13:08:00.30	246.48	1.97	-52.9	-67.9	3.8	1.49e+00	0	41	0	0	76	21351
2026-01-26 13:08:03.32	246.79	2.10	-52.9	-67.9	3.8	1.49e+00	0	41	104	0	76	21400
2026-01-26 13:08:06.34	247.10	2.23	-52.9	-67.9	3.8	1.49e+00	0	41	104	0	76	21394
2026-01-26 13:08:09.36	247.42	2.36	-52.9	-67.9	3.8	1.49e+00	0	41	104	0	76	21409
2026-01-26 13:08:12.39	247.73	2.49	-52.9	-67.9	3.8	1.49e+00	0	42	104	0	76	21357
2026-01-26 13:08:15.41	248.05	2.62	-52.9	-67.9	3.8	1.49e+00	0	42	104	0	76	21385
2026-01-26 13:08:18.43	248.37	2.75	-52.9	-67.9	3.8	1.49e+00	0	42	104	0	76	21334
2026-01-26 13:08:21.45	248.70	2.88	-52.9	-67.9	3.8	1.49e+00	0	42	104	0	76	21394
2026-01-26 13:08:24.47	249.02	3.01	-52.9	-67.9	3.8	1.49e+00	0	42	104	0	76	21339
2026-01-26 13:08:27.49	249.35	3.14	-52.9	-67.9	3.8	1.49e+00	0	42	104	0	76	21389
2026-01-26 13:08:30.51	249.69	3.27	-52.9	-67.9	3.8	1.49e+00	0	42	104	0	76	21363
2026-01-26 13:08:33.54	250.02	3.40	-52.9	-67.9	3.8	1.49e+00	0	42	104	0	76	21394
2026-01-26 13:08:36.56	250.36	3.52	-52.9	-67.9	3.8	1.49e+00	0	42	104	0	76	21398
2026-01-26 13:08:39.57	250.70	3.65	-52.9	-67.9	3.8	1.49e+00	0	42	104	0	76	21354
2026-01-26 13:08:42.60	251.04	3.78	-52.9	-67.9	3.8	1.49e+00	0	42	104	0	76	21372
2026-01-26 13:08:45.62	251.39	3.91	-52.9	-67.9	3.8	1.49e+00	0	42	104	0	76	21364
2026-01-26 13:08:48.65	251.74	4.04	-52.9	-67.9	3.8	1.49e+00	0	42	104	0	76	21350
2026-01-26 13:08:51.67	252.09	4.16	-52.9	-67.9	3.8	1.49e+00	0	42	104	0	76	21421
2026-01-26 13:08:54.69	252.45	4.29	-52.9	-67.9	3.8	1.49e+00	0	42	104	0	76	21391
2026-01-26 13:08:57.71	252.80	4.42	-53.5	-68.5	3.8	1.49e+00	0	43	104	0	77	21580
2026-01-26 13:09:00.73	253.17	4.54	-53.9	-68.9	3.8	1.49e+00	0	42	104	0	78	21366
2026-01-26 13:09:03.76	253.53	4.67	-54.1	-69.1	3.8	1.49e+00	0	43	104	0	78	21937
2026-01-26 13:09:06.78	253.90	4.80	-54.2	-69.2	3.8	1.49e+00	0	43	104	0	79	20991
2026-01-26 13:09:09.80	254.27	4.92	-54.3	-69.3	3.8	1.49e+00	0	43	104	0	79	21139
2026-01-26 13:09:12.82	254.64	5.05	-54.4	-69.4	3.8	1.49e+00	0	43	104	0	79	21296
2026-01-26 13:09:15.85	255.02	5.17	-54.4	-69.4	3.8	1.49e+00	0	43	104	0	79	21375
2026-01-26 13:09:18.87	255.40	5.29	-54.4	-69.4	3.8	1.49e+00	0	43	104	0	79	21373
2026-01-26 13:09:21.89	255.78	5.42	-54.4	-69.4	3.8	1.49e+00	0	43	104	0	79	21293
2026-01-26 13:09:24.92	256.17	5.54	-54.3	-69.3	3.8	1.49e+00	0	43	104	0	79	21223
2026-01-26 13:09:27.95	256.56	5.66	-54.3	-69.3	3.8	1.49e+00	0	43	104	0	79	21068
2026-01-26 13:09:30.97	256.95	5.79	-54.2	-69.2	3.8	1.49e+00	0	43	104	0	79	20985
2026-01-26 13:09:34.00	257.34	5.91	-54.3	-69.2	3.8	1.49e+00	0	43	104	0	79	20974
2026-01-26 13:09:37.02	257.74	6.03	-54.3	-69.2	3.8	1.49e+00	0	43	104	0	79	20968
2026-01-26 13:09:40.04	258.14	6.15	-54.2	-69.2	3.8	1.49e+00	0	43	104	0	79	20935
2026-01-26 13:09:43.07	258.55	6.27	-54.2	-69.2	3.8	1.49e+00	0	43	104	0	79	20866
2026-01-26 13:09:46.10	258.96	6.39	-54.2	-69.2	3.8	1.49e+00	0	43	104	0	79	20807
2026-01-26 13:09:49.12	259.37	6.51	-54.2	-69.1	3.8	1.49e+00	0	43	104	0	79	20741
2026-01-26 13:09:52.14	259.78	6.62	-54.2	-69.1	3.8	1.49e+00	0	43	104	0	79	20689
2026-01-26 13:09:55.16	260.20	6.74	-54.1	-69.1	3.8	1.49e+00	0	43	104	0	79	20721
2026-01-26 13:09:58.19	260.62	6.86	-54.4	-69.4	3.8	1.49e+00	0	43	104	0	79	21407
2026-01-26 13:10:01.22	261.05	6.97	-54.5	-69.5	3.8	1.49e+00	0	43	104	0	79	21553
2026-01-26 13:10:04.24	261.47	7.09	-54.4	-69.4	3.8	1.49e+00	0	43	104	0	79	21278
2026-01-26 13:10:07.27	261.90	7.20	-54.2	-69.3	3.8	1.49e+00	0	43	104	0	79	21021
2026-01-26 13:10:10.29	262.34	7.32	-53.7	-68.7	3.8	1.49e+00	0	43	104	0	78	21013
2026-01-26 13:10:13.32	262.77	7.43	-53.8	-68.7	3.8	1.49e+00	0	43	104	0	78	20989
2026-01-26 13:10:16.34	263.21	7.54	-53.3	-68.1	3.8	1.49e+00	0	43	104	0	78	19424
2026-01-26 13:10:19.37	263.66	7.65	-47.7	-49.6	17.2	0.00e+00	0	43	0	1048576	66	4635
2026-01-26 13:10:22.39	264.10	7.76	-50.1	-53.5	13.1	1.29e-02	0	43	0	6291456	72	5115
2026-01-26 13:10:25.41	264.55	7.87	-47.6	-49.6	17.3	0.00e+00	0	43	0	12582912	66	4618
2026-01-26 13:10:28.44	265.01	7.97	-47.4	-49.3	17.6	0.00e+00	0	43	0	17825792	66	4451
2026-01-26 13:10:31.45	265.46	8.08	-47.3	-49.1	17.7	0.00e+00	0	43	0	23068672	66	4372
2026-01-26 13:10:34.47	265.92	8.18	-47.3	-49.1	17.7	0.00e+00	0	43	0	29360128	66	4391
2026-01-26 13:10:37.49	266.38	8.29	-47.3	-49.1	17.7	0.00e+00	0	43	0	34603008	66	4384
2026-01-26 13:10:40.51	266.85	8.39	-47.6	-49.7	17.0	0.00e+00	0	43	0	40894464	66	4652
2026-01-26 13:10:43.54	267.32	8.49	-48.6	-51.5	14.6	0.00e+00	0	43	0	46137344	67	5428
2026-01-26 13:10:46.57	267.79	8.59	-49.4	-53.6	11.9	2.11e-04	0	43	0	51380224	69	6149
2026-01-26 13:10:49.58	268.26	8.69	-50.2	-56.5	8.4	1.90e-02	0	43	0	57671680	70	8144
2026-01-26 13:10:52.60	268.74	8.79	-50.7	-58.8	6.3	2.51e-01	0	43	0	62914560	71	9978
2026-01-26 13:10:55.63	269.22	8.89	-50.4	-57.0	8.1	7.19e-02	0	44	0	69206016	71	8133
2026-01-26 13:10:58.65	269.71	8.98	-49.6	-53.7	12.0	1.08e+00	0	43	0	73400320	71	5550
2026-01-26 13:11:01.67	270.19	9.07	-49.1	-52.1	14.3	7.00e-07	0	43	0	79691776	70	4900
2026-01-26 13:11:04.69	270.68	9.17	-48.3	-50.6	16.2	0.00e+00	0	43	0	84934656	68	4633
2026-01-26 13:11:07.71	271.18	9.26	-47.6	-49.6	17.2	0.00e+00	0	43	0	91226112	67	4359
2026-01-26 13:11:10.71	271.67	9.34	-47.6	-49.5	17.4	0.00e+00	0	43	0	96468992	66	4596
2026-01-26 13:11:13.73	272.17	9.43	-47.5	-49.4	17.5	0.00e+00	0	43	0	101711872	66	4533
2026-01-26 13:11:16.75	272.67	9.52	-47.1	-48.9	18.1	0.00e+00	0	43	0	108003328	66	4269
2026-01-26 13:11:19.77	273.17	9.60	-47.3	-49.1	17.8	0.00e+00	0	43	0	113246208	66	4384
2026-01-26 13:11:22.79	273.68	9.68	-47.4	-49.2	17.7	0.00e+00	0	43	0	118489088	66	4429
2026-01-26 13:11:25.81	274.19	9.76	-47.4	-49.2	17.8	0.00e+00	0	43	0	124780544	66	4426
2026-01-26 13:11:28.83	274.70	9.84	-47.4	-49.2	17.8	0.00e+00	0	43	0	130023424	66	4413
2026-01-26 13:11:31.85	275.21	9.92	-47.6	-49.5	17.5	0.00e+00	0	43	0	136314880	66	4570
2026-01-26 13:11:34.86	275.73	10.00	-47.5	-49.3	17.6	0.00e+00	0	43	0	141557760	66	4491
2026-01-26 13:11:37.88	276.25	10.07	-47.4	-49.3	17.7	0.00e+00	0	43	0	146800640	66	4467
2026-01-26 13:11:40.89	276.77	10.14	-47.3	-49.1	17.9	0.00e+00	0	43	0	153092096	66	4369
2026-01-26 13:11:43.92	277.30	10.21	-47.1	-48.8	18.1	0.00e+00	0	43	0	158334976	66	4242
2026-01-26 13:11:46.94	277.82	10.28	-47.2	-49.0	18.1	0.00e+00	0	43	0	164626432	66	4313
2026-01-26 13:11:49.96	278.35	10.34	-47.3	-49.1	18.0	0.00e+00	0	43	0	169869312	66	4344
2026-01-26 13:11:52.98	278.89	10.41	-47.3	-49.1	18.0	0.00e+00	0	43	0	175112192	66	4371
2026-01-26 13:11:56.00	279.42	10.47	-47.2	-49.0	18.1	0.00e+00	0	43	0	181403648	66	4292
2026-01-26 13:11:59.03	279.96	10.53	-47.2	-48.9	18.1	0.00e+00	0	43	0	186646528	66	4263
2026-01-26 13:12:02.05	280.50	10.59	-46.8	-48.5	18.7	0.00e+00	0	43	0	192937984	65	4295
2026-01-26 13:12:05.06	281.03	10.64	-46.7	-48.3	18.7	0.00e+00	0	43	0	198180864	65	4235
2026-01-26 13:12:08.08	281.58	10.70	-47.1	-48.8	18.3	0.00e+00	0	43	0	203423744	65	4452
2026-01-26 13:12:11.10	282.12	10.75	-47.2	-48.9	18.2	0.00e+00	0	43	0	209715200	65	4530
2026-01-26 13:12:14.13	282.67	10.80	-47.3	-49.1	18.1	0.00e+00	0	43	0	214958080	65	4617
2026-01-26 13:12:17.14	283.21	10.85	-47.2	-49.0	18.1	0.00e+00	0	43	0	221249536	65	4562
2026-01-26 13:12:20.16	283.76	10.89	-47.4	-49.2	18.0	0.00e+00	0	43	0	226492416	65	4675
2026-01-26 13:12:23.18	284.31	10.93	-47.6	-49.5	17.7	0.00e+00	0	43	0	231735296	65	4837
2026-01-26 13:12:26.20	284.87	10.97	-47.7	-49.6	17.6	0.00e+00	0	43	0	238026752	66	4625
2026-01-26 13:12:29.22	285.42	11.01	-47.8	-49.7	17.5	0.00e+00	0	43	0	243269632	66	4667
2026-01-26 13:12:32.23	285.97	11.05	-47.9	-49.8	17.4	0.00e+00	0	43	0	249561088	66	4732
2026-01-26 13:12:35.25	286.53	11.08	-48.1	-50.1	17.1	0.00e+00	0	43	0	254803968	66	4920
2026-01-26 13:12:38.27	287.09	11.11	-48.4	-50.5	16.7	0.00e+00	0	43	0	260046848	67	4841
2026-01-26 13:12:41.29	287.64	11.14	-48.4	-50.6	16.7	0.00e+00	0	43	0	266338304	67	4890
2026-01-26 13:12:44.31	288.20	11.17	-48.1	-50.1	17.2	0.00e+00	0	43	0	271581184	67	4600
2026-01-26 13:12:47.33	288.76	11.19	-47.9	-49.8	17.5	0.00e+00	0	43	0	277872640	67	4466
2026-01-26 13:12:50.35	289.32	11.21	-47.8	-49.7	17.6	0.00e+00	0	43	0	283115520	67	4407
2026-01-26 13:12:53.37	289.89	11.23	-48.0	-49.9	17.5	0.00e+00	0	43	0	288358400	67	4523
2026-01-26 13:12:56.39	290.45	11.25	-47.8	-49.7	17.6	0.00e+00	0	43	0	294649856	67	4434
2026-01-26 13:12:59.41	291.01	11.26	-47.9	-49.8	17.6	0.00e+00	0	44	0	299892736	67	4449
2026-01-26 13:13:02.42	291.57	11.27	-47.6	-49.4	18.0	0.00e+00	0	43	0	306184192	67	4253
2026-01-26 13:13:05.45	292.14	11.28	-47.7	-49.6	17.8	0.00e+00	0	43	0	311427072	67	4363
2026-01-26 13:13:08.47	292.70	11.29	-47.5	-49.3	18.0	0.00e+00	0	43	0	316669952	67	4231
2026-01-26 13:13:11.49	293.27	11.29	-45.3	-49.1	18.0	0.00e+00	0	43	0	322961408	62	5524
2026-01-26 13:13:14.51	293.83	11.30	-45.7	-49.2	17.7	0.00e+00	0	43	0	328204288	61	5898
2026-01-26 13:13:17.53	294.40	11.30	-47.2	-49.0	18.2	0.00e+00	0	43	0	334495744	65	4553
2026-01-26 13:13:20.55	294.96	11.29	-47.1	-48.8	18.5	0.00e+00	0	43	0	339738624	65	4457
2026-01-26 13:13:23.58	295.53	11.29	-46.7	-48.2	19.0	0.00e+00	0	43	0	344981504	65	4182
2026-01-26 13:13:26.60	296.09	11.28	-46.4	-47.9	19.3	0.00e+00	0	43	0	351272960	64	4275
2026-01-26 13:13:29.62	296.65	11.27	-46.6	-48.1	19.1	0.00e+00	0	43	0	356515840	64	4366
2026-01-26 13:13:32.65	297.22	11.26	-46.6	-48.2	18.9	0.00e+00	0	43	0	362807296	64	4424
2026-01-26 13:13:35.67	297.78	11.24	-46.3	-47.8	19.4	0.00e+00	0	43	0	368050176	64	4201
2026-01-26 13:13:38.69	298.34	11.22	-46.1	-47.5	19.6	0.00e+00	0	43	0	373293056	64	4089
2026-01-26 13:13:41.71	298.90	11.20	-46.2	-47.7	19.4	0.00e+00	0	43	0	379584512	64	4153
2026-01-26 13:13:44.73	299.46	11.18	-46.3	-47.7	19.4	0.00e+00	0	43	0	384827392	64	4193
2026-01-26 13:13:47.74	300.02	11.16	-46.0	-47.4	19.6	0.00e+00	0	43	0	391118848	64	4034
2026-01-26 13:13:50.77	300.58	11.13	-46.1	-47.5	19.6	0.00e+00	0	43	0	396361728	64	4081
2026-01-26 13:13:53.78	301.14	11.10	-46.0	-47.5	19.6	0.00e+00	0	44	0	401604608	64	4065
2026-01-26 13:13:56.80	301.69	11.07	-46.2	-47.7	19.4	0.00e+00	0	43	0	407896064	63	4414
2026-01-26 13:13:59.83	302.25	11.03	-46.3	-47.8	19.4	0.00e+00	0	44	0	413138944	63	4475
2026-01-26 13:14:02.85	302.80	10.99	-46.3	-47.8	19.4	0.00e+00	0	43	0	419430400	63	4478
2026-01-26 13:14:05.87	303.35	10.96	-46.5	-48.0	19.2	0.00e+00	0	43	0	424673280	63	4568
2026-01-26 13:14:08.89	303.90	10.91	-46.4	-47.9	19.3	0.00e+00	0	43	0	429916160	63	4512
2026-01-26 13:14:11.92	304.45	10.87	-46.2	-47.7	19.4	0.00e+00	0	43	0	436207616	63	4434
2026-01-26 13:14:14.94	305.00	10.83	-46.5	-48.1	19.1	0.00e+00	0	43	0	441450496	63	4612
2026-01-26 13:14:17.95	305.55	10.78	-46.6	-48.2	18.9	0.00e+00	0	43	0	447741952	63	4696
2026-01-26 13:14:20.97	306.09	10.73	-46.7	-48.3	18.7	0.00e+00	0	43	0	452984832	64	4459
2026-01-26 13:14:23.99	306.63	10.67	-46.5	-48.1	18.9	0.00e+00	0	43	0	458227712	64	4361
2026-01-26 13:14:27.02	307.17	10.62	-46.1	-47.6	19.4	0.00e+00	0	43	0	464519168	64	4117
2026-01-26 13:14:30.04	307.71	10.56	-46.2	-47.7	19.3	0.00e+00	0	43	0	469762048	64	4164
2026-01-26 13:14:33.06	308.25	10.50	-46.2	-47.7	19.2	0.00e+00	0	43	0	476053504	64	4188
2026-01-26 13:14:36.07	308.78	10.44	-46.2	-47.7	19.3	0.00e+00	0	43	0	481296384	64	4157
2026-01-26 13:14:39.08	309.31	10.38	-46.2	-47.7	19.3	0.00e+00	0	43	0	486539264	64	4159
2026-01-26 13:14:42.10	309.84	10.32	-46.1	-47.6	19.4	0.00e+00	0	43	0	492830720	64	4125
2026-01-26 13:14:45.13	310.37	10.25	-46.1	-47.5	19.6	0.00e+00	0	43	0	498073600	63	4318
2026-01-26 13:14:48.14	310.89	10.18	-46.0	-47.5	19.6	0.00e+00	0	43	0	504365056	63	4298
2026-01-26 13:14:51.17	311.41	10.11	-45.9	-47.3	19.6	0.00e+00	0	43	0	509607936	63	4223
2026-01-26 13:14:54.18	311.93	10.04	-45.9	-47.4	19.7	0.00e+00	0	43	0	514850816	63	4251
2026-01-26 13:14:57.20	312.45	9.97	-46.2	-47.7	19.3	0.00e+00	0	43	0	521142272	63	4392
2026-01-26 13:15:00.21	312.96	9.89	-46.2	-47.8	19.2	0.00e+00	0	43	0	526385152	63	4452
2026-01-26 13:15:03.22	313.47	9.81	-46.3	-47.9	19.1	0.00e+00	0	43	0	532676608	63	4512
2026-01-26 13:15:06.24	313.98	9.73	-46.3	-47.8	19.1	0.00e+00	0	43	0	537919488	63	4482
2026-01-26 13:15:09.26	314.49	9.65	-46.2	-47.7	19.3	0.00e+00	0	43	0	543162368	63	4413
2026-01-26 13:15:12.28	314.99	9.57	-45.9	-47.3	19.6	0.00e+00	0	43	0	549453824	63	4211
2026-01-26 13:15:15.29	315.49	9.49	-46.3	-47.8	19.1	0.00e+00	0	43	0	554696704	63	4465
2026-01-26 13:15:18.31	315.99	9.40	-46.6	-48.2	18.7	0.00e+00	0	43	0	560988160	63	4703
2026-01-26 13:15:21.33	316.49	9.31	-46.5	-48.1	18.7	0.00e+00	0	43	0	566231040	64	4359
2026-01-26 13:15:24.35	316.98	9.22	-46.5	-48.1	18.6	0.00e+00	0	43	0	571473920	64	4386
2026-01-26 13:15:27.37	317.47	9.13	-46.5	-48.1	18.7	0.00e+00	0	43	0	577765376	64	4360
2026-01-26 13:15:30.40	317.96	9.04	-46.8	-48.5	18.3	0.00e+00	0	43	0	583008256	64	4559
2026-01-26 13:15:33.42	318.44	8.95	-46.8	-48.6	18.2	0.00e+00	0	43	0	589299712	64	4630
2026-01-26 13:15:36.44	318.92	8.85	-47.2	-49.1	17.7	0.00e+00	0	43	0	594542592	64	4871
2026-01-26 13:15:39.46	319.40	8.76	-47.5	-49.5	17.2	0.00e+00	0	43	0	599785472	65	4849
2026-01-26 13:15:42.48	319.87	8.66	-48.0	-50.1	16.7	0.00e+00	0	43	0	606076928	66	4920
2026-01-26 13:15:45.50	320.34	8.56	-48.0	-50.2	16.6	0.00e+00	0	43	0	611319808	66	4927
2026-01-26 13:15:48.53	320.81	8.46	-47.9	-50.1	16.6	0.00e+00	0	43	0	617611264	66	4903
2026-01-26 13:15:51.55	321.28	8.36	-47.8	-50.0	16.8	0.00e+00	0	43	0	622854144	66	4824
2026-01-26 13:15:54.57	321.74	8.26	-48.0	-50.2	16.6	0.00e+00	0	43	0	628097024	66	4951
2026-01-26 13:15:57.60	322.20	8.15	-47.9	-50.1	16.6	0.00e+00	0	43	0	634388480	66	4907
2026-01-26 13:16:00.62	322.66	8.05	-48.2	-50.5	16.2	0.00e+00	0	44	0	639631360	67	4863
2026-01-26 13:16:03.64	323.11	7.94	-48.9	-51.6	15.2	0.00e+00	0	43	0	645922816	68	5171
2026-01-26 13:16:06.67	323.56	7.83	-49.2	-52.0	14.7	0.00e+00	0	43	0	651165696	69	5135
2026-01-26 13:16:09.69	324.01	7.73	-49.2	-52.1	14.6	0.00e+00	0	43	0	656408576	69	5189
2026-01-26 13:16:12.71	324.45	7.62	-49.1	-51.9	14.8	0.00e+00	0	43	0	662700032	69	5094
2026-01-26 13:16:15.73	324.89	7.51	-48.9	-51.6	15.2	0.00e+00	0	43	0	667942912	69	4887
2026-01-26 13:16:18.75	325.33	7.40	-48.7	-51.2	15.5	0.00e+00	0	44	0	674234368	69	4678
2026-01-26 13:16:21.77	325.76	7.29	-48.6	-51.2	15.6	0.00e+00	0	43	0	679477248	69	4657
2026-01-26 13:16:24.80	326.19	7.17	-48.9	-51.6	15.0	0.00e+00	0	44	0	684720128	69	4907
2026-01-26 13:16:27.82	326.62	7.06	-48.8	-51.5	14.9	7.00e-07	0	43	0	691011584	69	4839
2026-01-26 13:16:30.85	327.04	6.95	-48.5	-51.1	15.5	0.00e+00	0	43	0	696254464	69	4599
2026-01-26 13:16:33.87	327.46	6.83	-48.1	-50.4	16.1	0.00e+00	0	44	0	702545920	68	4520
2026-01-26 13:16:36.88	327.88	6.72	-48.3	-50.7	16.0	0.00e+00	0	43	0	707788800	68	4660
2026-01-26 13:16:39.91	328.29	6.60	-48.9	-51.6	15.0	0.00e+00	0	43	0	714080256	68	5201
2026-01-26 13:16:42.93	328.71	6.48	-48.9	-51.7	14.9	0.00e+00	0	43	0	719323136	68	5268
2026-01-26 13:16:45.95	329.11	6.36	-48.2	-50.6	16.0	0.00e+00	0	43	0	724566016	68	4622
2026-01-26 13:16:48.97	329.52	6.25	-47.8	-49.9	16.6	0.00e+00	0	43	0	730857472	67	4536
2026-01-26 13:16:51.99	329.92	6.13	-47.9	-50.1	16.3	0.00e+00	0	43	0	736100352	67	4638
2026-01-26 13:16:55.01	330.32	6.01	-47.7	-50.0	16.4	0.00e+00	0	43	0	742391808	67	4554
2026-01-26 13:16:58.03	330.71	5.89	-47.8	-50.1	16.3	0.00e+00	0	43	0	747634688	67	4631
2026-01-26 13:17:01.04	331.10	5.77	-47.7	-49.9	16.5	0.00e+00	0	43	0	752877568	67	4525
2026-01-26 13:17:04.07	331.49	5.65	-47.8	-50.1	16.3	0.00e+00	0	43	0	759169024	67	4621
2026-01-26 13:17:07.09	331.88	5.52	-48.1	-50.4	15.9	0.00e+00	0	43	0	764411904	67	4812
2026-01-26 13:17:10.11	332.26	5.40	-47.8	-50.0	16.3	0.00e+00	0	43	0	770703360	67	4598
2026-01-26 13:17:13.14	332.64	5.28	-47.5	-49.7	16.7	0.00e+00	0	43	0	775946240	67	4396
2026-01-26 13:17:16.16	333.02	5.16	-47.1	-49.2	17.1	0.00e+00	0	43	0	781189120	66	4396
2026-01-26 13:17:19.18	333.39	5.03	-47.4	-49.6	16.7	0.00e+00	0	44	0	787480576	66	4622
2026-01-26 13:17:22.20	333.77	4.91	-53.2	-68.1	3.8	1.49e+00	0	44	104	788529152	76	21965
2026-01-26 13:17:25.22	334.13	4.78	-53.0	-67.0	3.8	1.49e+00	0	44	104	788529152	77	18190
2026-01-26 13:17:28.24	334.50	4.66	-53.5	-68.5	3.8	1.49e+00	0	44	104	788529152	77	21677
2026-01-26 13:17:31.26	334.86	4.53	-53.3	-68.3	3.8	1.49e+00	0	44	104	788529152	77	21094
2026-01-26 13:17:34.29	335.22	4.41	-53.4	-68.3	3.8	1.49e+00	0	43	104	788529152	77	21184
2026-01-26 13:17:37.31	335.58	4.28	-53.5	-68.4	3.8	1.49e+00	0	43	104	788529152	77	21410
2026-01-26 13:17:40.33	335.93	4.16	-53.5	-68.5	3.8	1.49e+00	0	43	104	788529152	77	21543
2026-01-26 13:17:43.35	336.28	4.03	-53.4	-68.4	3.8	1.49e+00	0	44	104	788529152	77	21362
2026-01-26 13:17:46.38	336.63	3.90	-53.5	-68.4	3.8	1.49e+00	0	44	104	788529152	77	21410
2026-01-26 13:17:49.41	336.97	3.78	-53.4	-68.4	3.8	1.49e+00	0	44	104	788529152	77	21344
2026-01-26 13:17:52.43	337.31	3.65	-53.4	-68.4	3.8	1.49e+00	0	43	104	788529152	77	21320
2026-01-26 13:17:55.45	337.65	3.52	-53.4	-68.4	3.8	1.49e+00	0	44	104	788529152	77	21278
2026-01-26 13:17:58.47	337.99	3.40	-53.4	-68.3	3.8	1.49e+00	0	44	104	788529152	77	21247
2026-01-26 13:18:01.50	338.32	3.27	-53.4	-68.3	3.8	1.49e+00	0	44	104	788529152	77	21220
2026-01-26 13:18:04.52	338.65	3.14	-53.4	-68.3	3.8	1.49e+00	0	44	104	788529152	77	21167
2026-01-26 13:18:07.54	338.98	3.01	-53.3	-68.3	3.8	1.49e+00	0	44	104	788529152	77	21098
2026-01-26 13:18:10.57	339.31	2.88	-53.3	-68.3	3.8	1.49e+00	0	44	104	788529152	77	21066
2026-01-26 13:18:13.59	339.63	2.76	-53.3	-68.3	3.8	1.49e+00	0	43	104	788529152	77	21051
2026-01-26 13:18:16.61	339.95	2.63	-53.3	-68.3	3.8	1.49e+00	0	44	104	788529152	77	21072
2026-01-26 13:18:19.63	340.26	2.50	-53.3	-68.3	3.8	1.49e+00	0	43	104	788529152	77	21031
2026-01-26 13:18:22.66	340.58	2.37	-53.3	-68.3	3.8	1.49e+00	0	44	104	788529152	77	21083
2026-01-26 13:18:25.68	340.89	2.24	-53.3	-68.2	3.8	1.49e+00	0	43	104	788529152	77	21009
2026-01-26 13:18:28.71	341.20	2.11	-53.3	-68.3	3.8	1.49e+00	0	43	104	788529152	77	21043
2026-01-26 13:18:31.72	341.51	1.99	-53.3	-68.2	3.8	1.49e+00	0	44	104	788529152	77	20927

#Closed at: 2026-01-26 13:18:31
#Recorded file [788 MB]: D:/lorett/data/31041_260126_160800.dat