passes_logs/2026/01/26/R3.2S_Murmansk/R3.2S_Murmansk__20260126_085249_NOAA_21_JPSS-2_rec.log

#Pass ID: 20260126_085249_NOAA 21 (JPSS-2)
#Satellite: NOAA 21 (JPSS-2)
#Configuration: NOAA-21
#almurnet v.1.7.20251203
#Start time: 2026-01-26 08:54:19

#Version: 2.2.20231116
#Station: R3.2S_Murmansk
#Location: 33.079688 lon 68.888172 lat
#TLE: 1 54234U 22150A   26025.93791214  .00000195  00000+0  11336-3 0  9990
#TLE: 2 54234  98.7509 326.7059 0000782 212.3040 147.8088 14.19539484166365

#Time	Az	El	Level	Level2	SNR	BER	BlckErr	Temp	State	Recorded	gain1	gain2
2026-01-26 08:54:19.33	134.85	8.40	-48.1	-59.9	3.8	8.46e-01	0	42	0	0	66	15099
2026-01-26 08:54:22.35	134.78	8.65	-48.1	-60.7	3.8	1.49e+00	0	43	104	0	66	16625
2026-01-26 08:54:25.37	134.70	8.89	-48.1	-60.7	3.8	1.49e+00	0	44	104	0	66	16615
2026-01-26 08:54:28.40	134.63	9.14	-48.1	-60.7	3.8	1.49e+00	0	43	104	0	66	16566
2026-01-26 08:54:31.42	134.56	9.40	-48.1	-60.7	3.8	1.49e+00	0	43	104	0	66	16582
2026-01-26 08:54:34.44	134.48	9.65	-48.1	-60.7	3.8	1.49e+00	0	43	104	0	66	16546
2026-01-26 08:54:37.46	134.40	9.91	-48.1	-60.7	3.8	1.49e+00	0	44	104	0	66	16504
2026-01-26 08:54:40.48	134.33	10.17	-48.1	-60.6	3.8	1.49e+00	0	43	104	0	66	16400
2026-01-26 08:54:43.51	134.25	10.44	-48.1	-60.7	3.8	1.49e+00	0	43	104	0	66	16668
2026-01-26 08:54:46.54	134.16	10.70	-48.1	-60.7	3.8	1.49e+00	0	43	104	0	66	16643
2026-01-26 08:54:49.56	134.08	10.97	-48.1	-60.7	3.8	1.49e+00	0	44	104	0	66	16606
2026-01-26 08:54:52.59	133.99	11.24	-48.1	-60.7	3.8	1.49e+00	0	44	104	0	66	16622
2026-01-26 08:54:55.61	133.91	11.52	-48.1	-60.7	3.8	1.49e+00	0	43	104	0	66	16647
2026-01-26 08:54:58.63	133.82	11.80	-48.1	-60.7	3.8	1.49e+00	0	44	104	0	66	16641
2026-01-26 08:55:01.65	133.73	12.08	-48.1	-60.7	3.8	1.49e+00	0	43	104	0	66	16621
2026-01-26 08:55:04.67	133.63	12.36	-48.1	-60.7	3.8	1.49e+00	0	43	104	0	66	16673
2026-01-26 08:55:07.70	133.54	12.65	-48.1	-60.7	3.8	1.49e+00	0	44	104	0	66	16671
2026-01-26 08:55:10.72	133.44	12.94	-48.1	-60.7	3.8	1.49e+00	0	44	104	0	66	16658
2026-01-26 08:55:13.74	133.34	13.24	-48.1	-60.7	3.8	1.49e+00	0	43	104	0	66	16679
2026-01-26 08:55:16.76	133.24	13.53	-48.1	-60.7	3.8	1.49e+00	0	43	104	0	66	16671
2026-01-26 08:55:19.79	133.14	13.84	-48.1	-60.7	3.8	1.49e+00	0	44	104	0	66	16671
2026-01-26 08:55:22.81	133.03	14.14	-48.1	-60.7	3.8	1.49e+00	0	44	104	0	66	16663
2026-01-26 08:55:25.83	132.92	14.45	-48.1	-60.7	3.8	1.49e+00	0	43	104	0	66	16660
2026-01-26 08:55:28.86	132.81	14.76	-48.1	-60.8	3.8	1.49e+00	0	43	104	0	66	16705
2026-01-26 08:55:31.88	132.70	15.08	-48.1	-60.7	3.8	1.49e+00	0	44	104	0	66	16660
2026-01-26 08:55:34.91	132.58	15.40	-48.1	-60.7	3.8	1.49e+00	0	44	104	0	66	16635
2026-01-26 08:55:37.93	132.47	15.73	-48.1	-60.7	3.8	1.49e+00	0	44	104	0	66	16658
2026-01-26 08:55:40.96	132.34	16.06	-48.1	-60.7	3.8	1.49e+00	0	43	104	0	66	16653
2026-01-26 08:55:43.99	132.22	16.39	-48.1	-60.7	3.8	1.49e+00	0	43	104	0	66	16655
2026-01-26 08:55:47.01	132.09	16.73	-48.1	-60.7	3.8	1.49e+00	0	44	104	0	66	16680
2026-01-26 08:55:50.03	131.96	17.07	-48.1	-60.7	3.8	1.49e+00	0	43	104	0	66	16631
2026-01-26 08:55:53.05	131.83	17.42	-48.1	-60.7	3.8	1.49e+00	0	44	104	0	66	16635
2026-01-26 08:55:56.07	131.69	17.77	-48.1	-60.7	3.8	1.49e+00	0	43	104	0	66	16659
2026-01-26 08:55:59.10	131.55	18.13	-48.1	-60.7	3.8	1.49e+00	0	44	104	0	66	16615
2026-01-26 08:56:02.13	131.40	18.49	-48.1	-60.7	3.8	1.49e+00	0	44	104	0	66	16648
2026-01-26 08:56:05.15	131.26	18.86	-48.1	-60.7	3.8	1.49e+00	0	44	104	0	66	16640
2026-01-26 08:56:08.17	131.10	19.23	-48.1	-60.7	3.8	1.49e+00	0	44	104	0	66	16638
2026-01-26 08:56:11.19	130.95	19.61	-48.1	-60.7	3.8	1.49e+00	0	44	104	0	66	16659
2026-01-26 08:56:14.21	130.79	19.99	-48.1	-60.7	3.8	1.49e+00	0	44	104	0	66	16680
2026-01-26 08:56:17.24	130.62	20.38	-48.1	-60.7	3.8	1.49e+00	0	43	104	0	66	16665
2026-01-26 08:56:20.26	130.45	20.78	-48.1	-60.7	3.8	1.49e+00	0	44	104	0	66	16646
2026-01-26 08:56:23.28	130.28	21.18	-48.1	-60.7	3.8	1.49e+00	0	44	104	0	66	16634
2026-01-26 08:56:26.31	130.10	21.58	-48.1	-60.7	3.8	1.49e+00	0	43	104	0	66	16621
2026-01-26 08:56:29.33	129.92	22.00	-48.1	-60.7	3.8	1.49e+00	0	44	104	0	66	16679
2026-01-26 08:56:32.36	129.73	22.42	-48.1	-60.7	3.8	1.49e+00	0	43	104	0	66	16622
2026-01-26 08:56:35.38	129.53	22.85	-48.1	-60.7	3.8	1.49e+00	0	43	104	0	66	16636
2026-01-26 08:56:38.41	129.33	23.28	-48.1	-60.7	3.8	1.49e+00	0	43	104	0	66	16653
2026-01-26 08:56:41.42	129.13	23.72	-48.1	-60.7	3.8	1.49e+00	0	44	104	0	66	16668
2026-01-26 08:56:44.45	128.91	24.17	-48.1	-60.7	3.8	1.49e+00	0	44	104	0	66	16678
2026-01-26 08:56:47.47	128.70	24.62	-48.1	-60.7	3.8	1.49e+00	0	44	104	0	66	16626
2026-01-26 08:56:50.50	128.47	25.09	-48.1	-60.7	3.8	1.49e+00	0	44	104	0	66	16635
2026-01-26 08:56:53.53	128.24	25.56	-48.1	-60.7	3.8	1.49e+00	0	44	104	0	66	16682
2026-01-26 08:56:56.56	128.00	26.04	-48.1	-60.7	3.8	1.49e+00	0	43	104	0	66	16650
2026-01-26 08:56:59.58	127.75	26.52	-48.1	-60.7	3.8	1.49e+00	0	44	104	0	66	16622
2026-01-26 08:57:02.60	127.49	27.02	-48.1	-60.8	3.8	1.49e+00	0	44	104	0	66	16701
2026-01-26 08:57:05.63	127.23	27.52	-48.1	-60.7	3.8	1.49e+00	0	44	104	0	66	16662
2026-01-26 08:57:08.66	126.95	28.03	-48.1	-60.8	3.8	1.49e+00	0	44	104	0	66	16695
2026-01-26 08:57:11.69	126.67	28.55	-48.1	-60.7	3.8	1.49e+00	0	43	104	0	66	16630
2026-01-26 08:57:14.71	126.38	29.08	-48.1	-60.7	3.8	1.49e+00	0	44	104	0	66	16672
2026-01-26 08:57:17.73	126.08	29.62	-48.1	-60.7	3.8	1.49e+00	0	43	104	0	66	16641
2026-01-26 08:57:20.75	125.77	30.17	-48.1	-60.7	3.8	1.49e+00	0	43	104	0	66	16634
2026-01-26 08:57:23.77	125.44	30.73	-48.1	-60.7	3.8	1.49e+00	0	43	104	0	66	16636
2026-01-26 08:57:26.80	125.11	31.29	-48.1	-60.7	3.8	1.49e+00	0	43	104	0	66	16669
2026-01-26 08:57:29.82	124.76	31.87	-48.1	-60.7	3.8	1.49e+00	0	43	104	0	66	16662
2026-01-26 08:57:32.84	124.40	32.46	-48.1	-60.7	3.8	1.49e+00	0	44	104	0	66	16637
2026-01-26 08:57:35.86	124.02	33.06	-48.1	-60.7	3.8	1.49e+00	0	44	104	0	66	16671
2026-01-26 08:57:38.88	123.63	33.66	-48.1	-60.8	3.8	1.49e+00	0	43	104	0	66	16738
2026-01-26 08:57:41.91	123.23	34.28	-48.1	-60.7	3.8	1.49e+00	0	43	104	0	66	16644
2026-01-26 08:57:44.93	122.81	34.91	-48.1	-60.7	3.8	1.49e+00	0	43	104	0	66	16645
2026-01-26 08:57:47.96	122.37	35.56	-48.1	-60.7	3.8	1.49e+00	0	43	104	0	66	16688
2026-01-26 08:57:50.98	121.91	36.21	-48.1	-60.7	3.8	1.49e+00	0	44	104	0	66	16618
2026-01-26 08:57:54.01	121.44	36.87	-48.1	-60.7	3.8	1.49e+00	0	44	104	0	66	16626
2026-01-26 08:57:57.03	120.94	37.54	-48.1	-60.7	3.8	1.49e+00	0	43	104	0	66	16680
2026-01-26 08:58:00.05	120.43	38.23	-48.1	-60.7	3.8	1.49e+00	0	43	104	0	66	16651
2026-01-26 08:58:03.08	119.88	38.93	-48.1	-60.7	3.8	1.49e+00	0	44	104	0	66	16641
2026-01-26 08:58:06.11	119.32	39.64	-48.1	-60.7	3.8	1.49e+00	0	43	104	0	66	16639
2026-01-26 08:58:09.13	118.73	40.36	-48.1	-60.7	3.8	1.49e+00	0	43	104	0	66	16647
2026-01-26 08:58:12.16	118.11	41.09	-48.1	-60.7	3.8	1.49e+00	0	43	104	0	66	16632
2026-01-26 08:58:15.19	117.46	41.83	-48.1	-60.7	3.8	1.49e+00	0	43	104	0	66	16648
2026-01-26 08:58:18.21	116.79	42.58	-48.1	-60.7	3.8	1.49e+00	0	44	104	0	66	16652
2026-01-26 08:58:21.23	116.08	43.34	-48.1	-60.7	3.8	1.49e+00	0	44	104	0	66	16633
2026-01-26 08:58:24.25	115.33	44.11	-48.1	-60.7	3.8	1.49e+00	0	43	104	0	66	16638
2026-01-26 08:58:27.28	114.55	44.90	-48.1	-60.7	3.8	1.49e+00	0	44	104	0	66	16660
2026-01-26 08:58:30.30	113.73	45.69	-48.1	-60.7	3.8	1.49e+00	0	44	104	0	66	16651
2026-01-26 08:58:33.33	112.86	46.49	-48.1	-60.7	3.8	1.49e+00	0	43	104	0	66	16655
2026-01-26 08:58:36.35	111.95	47.30	-48.1	-60.7	3.8	1.49e+00	0	44	104	0	66	16657
2026-01-26 08:58:39.37	110.99	48.11	-48.1	-60.8	3.8	1.49e+00	0	43	104	0	66	16701
2026-01-26 08:58:42.39	109.97	48.93	-48.1	-60.7	3.8	1.49e+00	0	44	104	0	66	16646
2026-01-26 08:58:45.41	108.90	49.76	-48.1	-60.7	3.8	1.49e+00	0	44	104	0	66	16657
2026-01-26 08:58:48.44	107.77	50.59	-48.1	-60.7	3.8	1.49e+00	0	44	104	0	66	16651
2026-01-26 08:58:51.46	106.58	51.42	-48.1	-60.7	3.8	1.49e+00	0	44	104	0	66	16652
2026-01-26 08:58:54.48	105.31	52.25	-48.1	-60.7	3.8	1.49e+00	0	44	104	0	66	16668
2026-01-26 08:58:57.51	103.97	53.08	-48.1	-60.7	3.8	1.49e+00	0	44	104	0	66	16682
2026-01-26 08:59:00.54	102.55	53.91	-48.1	-60.7	3.8	1.49e+00	0	43	104	0	66	16648
2026-01-26 08:59:03.57	101.05	54.74	-48.1	-60.7	3.8	1.49e+00	0	43	104	0	66	16644
2026-01-26 08:59:06.59	99.46	55.55	-48.1	-60.7	3.8	1.49e+00	0	44	104	0	66	16654
2026-01-26 08:59:09.61	97.78	56.35	-48.1	-60.7	3.8	1.49e+00	0	44	104	0	66	16620
2026-01-26 08:59:12.63	95.99	57.14	-48.1	-60.7	3.8	1.49e+00	0	43	104	0	66	16650
2026-01-26 08:59:15.66	94.10	57.92	-48.1	-60.7	3.8	1.49e+00	0	43	104	0	66	16651
2026-01-26 08:59:18.69	92.10	58.67	-48.1	-60.7	3.8	1.49e+00	0	43	104	0	66	16661
2026-01-26 08:59:21.71	89.98	59.39	-48.1	-60.7	3.8	1.49e+00	0	43	104	0	66	16656
2026-01-26 08:59:24.73	87.75	60.09	-48.1	-60.7	3.8	1.49e+00	0	44	104	0	66	16592
2026-01-26 08:59:27.75	85.40	60.75	-48.1	-60.7	3.8	1.49e+00	0	44	104	0	66	16633
2026-01-26 08:59:30.78	82.91	61.37	-48.1	-60.7	3.8	1.49e+00	0	44	104	0	66	16641
2026-01-26 08:59:33.81	80.31	61.95	-48.1	-60.7	3.8	1.49e+00	0	43	104	0	66	16667
2026-01-26 08:59:36.84	77.58	62.48	-48.1	-60.7	3.8	1.49e+00	0	43	104	0	66	16620
2026-01-26 08:59:39.86	74.74	62.95	-48.1	-60.7	3.8	1.49e+00	0	43	104	0	66	16681
2026-01-26 08:59:42.89	71.79	63.37	-48.1	-60.7	3.8	1.49e+00	0	44	104	0	66	16632
2026-01-26 08:59:45.91	68.75	63.72	-48.1	-60.7	3.8	1.49e+00	0	43	104	0	66	16645
2026-01-26 08:59:48.93	65.62	64.01	-48.1	-60.7	3.8	1.49e+00	0	44	104	0	66	16659
2026-01-26 08:59:51.95	62.43	64.23	-48.1	-60.7	3.8	1.49e+00	0	44	104	0	66	16607
2026-01-26 08:59:54.98	59.17	64.37	-48.1	-60.7	3.8	1.49e+00	0	44	104	0	66	16622
2026-01-26 08:59:58.00	55.90	64.44	-48.1	-60.7	3.8	1.49e+00	0	44	104	0	66	16651
2026-01-26 09:00:01.02	52.62	64.43	-48.1	-60.7	3.8	1.49e+00	0	44	104	0	66	16659
2026-01-26 09:00:04.04	49.34	64.35	-48.1	-60.7	3.8	1.49e+00	0	44	104	0	66	16641
2026-01-26 09:00:07.06	46.11	64.20	-48.1	-60.7	3.8	1.49e+00	0	43	104	0	66	16665
2026-01-26 09:00:10.08	42.92	63.97	-48.1	-60.7	3.8	1.49e+00	0	44	104	0	66	16675
2026-01-26 09:00:13.11	39.80	63.67	-48.1	-60.7	3.8	1.49e+00	0	44	104	0	66	16637
2026-01-26 09:00:16.13	36.78	63.31	-48.1	-60.7	3.8	1.49e+00	0	44	104	0	66	16680
2026-01-26 09:00:19.16	33.84	62.88	-48.1	-60.7	3.8	1.49e+00	0	43	104	0	66	16683
2026-01-26 09:00:22.18	31.03	62.40	-48.1	-60.7	3.8	1.49e+00	0	44	104	0	66	16672
2026-01-26 09:00:25.20	28.33	61.86	-48.1	-60.7	3.8	1.49e+00	0	43	104	0	66	16639
2026-01-26 09:00:28.21	25.76	61.28	-48.1	-60.7	3.8	1.49e+00	0	44	104	0	66	16621
2026-01-26 09:00:31.24	23.30	60.65	-48.1	-60.7	3.8	1.49e+00	0	43	104	0	66	16636
2026-01-26 09:00:34.26	20.96	59.99	-48.1	-60.7	3.8	1.49e+00	0	44	104	0	66	16645
2026-01-26 09:00:37.29	18.74	59.29	-48.1	-60.7	3.8	1.49e+00	0	44	104	0	66	16605
2026-01-26 09:00:40.31	16.65	58.56	-48.1	-60.7	3.8	1.49e+00	0	44	104	0	66	16630
2026-01-26 09:00:43.33	14.67	57.81	-48.1	-60.7	3.8	1.49e+00	0	44	104	0	66	16633
2026-01-26 09:00:46.35	12.80	57.04	-48.1	-60.7	3.8	1.49e+00	0	44	104	0	66	16635
2026-01-26 09:00:49.37	11.04	56.25	-48.1	-60.7	3.8	1.49e+00	0	44	104	0	66	16615
2026-01-26 09:00:52.40	9.36	55.45	-48.1	-60.7	3.8	1.49e+00	0	44	104	0	66	16657
2026-01-26 09:00:55.42	7.79	54.63	-48.1	-60.7	3.8	1.49e+00	0	44	104	0	66	16666
2026-01-26 09:00:58.44	6.31	53.81	-48.1	-60.7	3.8	1.49e+00	0	44	104	0	66	16613
2026-01-26 09:01:01.47	4.90	52.98	-48.1	-60.7	3.8	1.49e+00	0	44	104	0	66	16628
2026-01-26 09:01:04.49	3.57	52.15	-48.1	-60.7	3.8	1.49e+00	0	44	104	0	66	16644
2026-01-26 09:01:07.51	2.32	51.32	-48.1	-60.7	3.8	1.49e+00	0	44	104	0	66	16617
2026-01-26 09:01:10.53	1.14	50.50	-48.1	-60.7	3.8	1.49e+00	0	44	104	0	66	16663
2026-01-26 09:01:13.56	0.02	49.67	-48.1	-60.7	3.8	1.49e+00	0	44	104	0	66	16651
2026-01-26 09:01:16.58	358.96	48.84	-48.1	-60.7	3.8	1.49e+00	0	44	104	0	66	16638
2026-01-26 09:01:19.61	357.95	48.02	-48.1	-60.7	3.8	1.49e+00	0	44	104	0	66	16604
2026-01-26 09:01:22.63	357.00	47.21	-48.1	-60.7	3.8	1.49e+00	0	44	104	0	66	16607
2026-01-26 09:01:25.65	356.09	46.41	-48.1	-60.7	3.8	1.49e+00	0	44	104	0	66	16670
2026-01-26 09:01:28.68	355.23	45.61	-48.1	-60.7	3.8	1.49e+00	0	44	104	0	66	16694
2026-01-26 09:01:31.70	354.42	44.82	-48.1	-60.7	3.8	1.49e+00	0	44	104	0	66	16656
2026-01-26 09:01:34.73	353.64	44.04	-48.1	-60.7	3.8	1.49e+00	0	43	104	0	66	16637
2026-01-26 09:01:37.76	352.90	43.27	-48.1	-60.7	3.8	1.49e+00	0	44	104	0	66	16656
2026-01-26 09:01:40.78	352.20	42.51	-48.1	-60.7	3.8	1.49e+00	0	43	104	0	66	16660
2026-01-26 09:01:43.80	351.53	41.77	-48.1	-60.7	3.8	1.49e+00	0	43	104	0	66	16640
2026-01-26 09:01:46.83	350.88	41.03	-48.1	-60.7	3.8	1.49e+00	0	44	104	0	66	16654
2026-01-26 09:01:49.86	350.27	40.30	-48.1	-60.7	3.8	1.49e+00	0	44	104	0	66	16681
2026-01-26 09:01:52.88	349.69	39.58	-48.1	-60.7	3.8	1.49e+00	0	43	104	0	66	16660
2026-01-26 09:01:55.91	349.13	38.88	-48.1	-60.7	3.8	1.49e+00	0	44	104	0	66	16639
2026-01-26 09:01:58.94	348.59	38.18	-48.1	-60.7	3.8	1.49e+00	0	43	104	0	66	16619
2026-01-26 09:02:01.97	348.07	37.50	-48.1	-60.7	3.8	1.49e+00	0	44	104	0	66	16633
2026-01-26 09:02:04.99	347.58	36.83	-48.1	-60.7	3.8	1.49e+00	0	44	104	0	66	16644
2026-01-26 09:02:08.02	347.11	36.17	-48.1	-60.7	3.8	1.49e+00	0	44	104	0	66	16581
2026-01-26 09:02:11.04	346.66	35.52	-48.1	-60.7	3.8	1.49e+00	0	43	104	0	66	16665
2026-01-26 09:02:14.07	346.22	34.88	-48.1	-60.7	3.8	1.49e+00	0	44	104	0	66	16633
2026-01-26 09:02:17.09	345.81	34.25	-48.1	-60.7	3.8	1.49e+00	0	44	104	0	66	16660
2026-01-26 09:02:20.11	345.41	33.64	-48.1	-60.7	3.8	1.49e+00	0	44	104	0	66	16659
2026-01-26 09:02:23.14	345.02	33.03	-48.1	-60.7	3.8	1.49e+00	0	44	104	0	66	16638
2026-01-26 09:02:26.17	344.65	32.44	-48.1	-60.7	3.8	1.49e+00	0	43	104	0	66	16595
2026-01-26 09:02:29.19	344.29	31.85	-48.1	-60.7	3.8	1.49e+00	0	44	104	0	66	16628
2026-01-26 09:02:32.21	343.94	31.28	-48.1	-60.7	3.8	1.49e+00	0	43	104	0	66	16633
2026-01-26 09:02:35.24	343.61	30.71	-48.1	-60.7	3.8	1.49e+00	0	44	104	0	66	16616
2026-01-26 09:02:38.27	343.29	30.16	-48.1	-60.7	3.8	1.49e+00	0	44	104	0	66	16644
2026-01-26 09:02:41.29	342.98	29.61	-48.1	-60.7	3.8	1.49e+00	0	43	104	0	66	16642
2026-01-26 09:02:44.32	342.68	29.07	-48.1	-60.7	3.8	1.49e+00	0	44	104	0	66	16636
2026-01-26 09:02:47.34	342.39	28.55	-48.1	-60.7	3.8	1.49e+00	0	43	104	0	66	16611
2026-01-26 09:02:50.37	342.11	28.03	-48.1	-60.7	3.8	1.49e+00	0	44	104	0	66	16565
2026-01-26 09:02:53.39	341.84	27.52	-48.1	-60.7	3.8	1.49e+00	0	43	104	0	66	16605
2026-01-26 09:02:56.41	341.58	27.02	-48.1	-60.7	3.8	1.49e+00	0	44	104	0	66	16620
2026-01-26 09:02:59.44	341.32	26.53	-48.1	-60.7	3.8	1.49e+00	0	43	104	0	66	16649
2026-01-26 09:03:02.46	341.08	26.04	-48.1	-60.7	3.8	1.49e+00	0	43	104	0	66	16644
2026-01-26 09:03:05.49	340.84	25.57	-48.1	-60.7	3.8	1.49e+00	0	44	104	0	66	16602
2026-01-26 09:03:08.51	340.61	25.10	-48.1	-60.7	3.8	1.49e+00	0	44	104	0	66	16623
2026-01-26 09:03:11.53	340.39	24.64	-48.1	-60.7	3.8	1.49e+00	0	44	104	0	66	16630
2026-01-26 09:03:14.55	340.17	24.19	-48.1	-60.7	3.8	1.49e+00	0	44	104	0	66	16577
2026-01-26 09:03:17.58	339.96	23.74	-48.1	-60.7	3.8	1.49e+00	0	44	104	0	66	16638
2026-01-26 09:03:20.60	339.76	23.30	-48.1	-60.7	3.8	1.49e+00	0	44	104	0	66	16644
2026-01-26 09:03:23.62	339.56	22.87	-48.1	-60.7	3.8	1.49e+00	0	43	104	0	66	16630
2026-01-26 09:03:26.65	339.37	22.45	-48.1	-60.7	3.8	1.49e+00	0	44	104	0	66	16588
2026-01-26 09:03:29.67	339.18	22.03	-48.1	-60.7	3.8	1.49e+00	0	44	104	0	66	16668
2026-01-26 09:03:32.69	339.00	21.62	-48.1	-60.7	3.8	1.49e+00	0	44	104	0	66	16631
2026-01-26 09:03:35.72	338.82	21.21	-48.1	-60.7	3.8	1.49e+00	0	43	104	0	66	16664
2026-01-26 09:03:38.74	338.65	20.81	-48.1	-60.7	3.8	1.49e+00	0	44	104	0	66	16647
2026-01-26 09:03:41.77	338.48	20.42	-48.1	-60.7	3.8	1.49e+00	0	44	104	0	66	16613
2026-01-26 09:03:44.79	338.32	20.03	-48.1	-60.7	3.8	1.49e+00	0	44	104	0	66	16675
2026-01-26 09:03:47.81	338.16	19.65	-48.1	-60.7	3.8	1.49e+00	0	44	104	0	66	16593
2026-01-26 09:03:50.84	338.00	19.27	-48.1	-60.7	3.8	1.49e+00	0	44	104	0	66	16624
2026-01-26 09:03:53.87	337.85	18.90	-48.1	-60.7	3.8	1.49e+00	0	44	104	0	66	16595
2026-01-26 09:03:56.89	337.71	18.53	-48.1	-60.7	3.8	1.49e+00	0	43	104	0	66	16627
2026-01-26 09:03:59.91	337.57	18.17	-48.1	-60.7	3.8	1.49e+00	0	44	104	0	66	16672
2026-01-26 09:04:02.93	337.43	17.82	-48.1	-60.7	3.8	1.49e+00	0	44	104	0	66	16612
2026-01-26 09:04:05.96	337.29	17.46	-48.1	-60.7	3.8	1.49e+00	0	44	104	0	66	16618
2026-01-26 09:04:08.98	337.16	17.12	-48.1	-60.7	3.8	1.49e+00	0	43	104	0	66	16634
2026-01-26 09:04:12.00	337.03	16.78	-48.1	-60.7	3.8	1.49e+00	0	44	104	0	66	16621
2026-01-26 09:04:15.02	336.90	16.44	-48.1	-60.7	3.8	1.49e+00	0	44	104	0	66	16647
2026-01-26 09:04:18.05	336.78	16.11	-48.1	-60.7	3.8	1.49e+00	0	44	104	0	66	16574
2026-01-26 09:04:21.08	336.66	15.78	-48.1	-60.7	3.8	1.49e+00	0	44	104	0	66	16631
2026-01-26 09:04:24.09	336.54	15.46	-48.1	-60.7	3.8	1.49e+00	0	44	104	0	66	16555
2026-01-26 09:04:27.12	336.43	15.14	-48.1	-60.7	3.8	1.49e+00	0	44	104	0	66	16534
2026-01-26 09:04:30.14	336.32	14.82	-48.1	-60.7	3.8	1.49e+00	0	44	104	0	66	16596
2026-01-26 09:04:33.17	336.21	14.51	-48.1	-60.7	3.8	1.49e+00	0	44	104	0	66	16588
2026-01-26 09:04:36.19	336.10	14.20	-48.1	-60.7	3.8	1.49e+00	0	43	104	0	66	16651
2026-01-26 09:04:39.21	336.00	13.90	-48.1	-60.7	3.8	1.49e+00	0	43	104	0	66	16622
2026-01-26 09:04:42.24	335.90	13.60	-48.1	-60.7	3.8	1.49e+00	0	44	104	0	66	16640
2026-01-26 09:04:45.26	335.80	13.30	-48.1	-60.7	3.8	1.49e+00	0	44	104	0	66	16605
2026-01-26 09:04:48.29	335.70	13.00	-48.1	-60.7	3.8	1.49e+00	0	43	104	0	66	16606
2026-01-26 09:04:51.31	335.61	12.72	-48.1	-60.7	3.8	1.49e+00	0	44	104	0	66	16629
2026-01-26 09:04:54.33	335.51	12.43	-48.1	-60.7	3.8	1.49e+00	0	44	104	0	66	16614
2026-01-26 09:04:57.36	335.42	12.14	-48.1	-60.7	3.8	1.49e+00	0	44	104	0	66	16682
2026-01-26 09:05:00.38	335.33	11.86	-48.1	-60.7	3.8	1.49e+00	0	44	104	0	66	16617
2026-01-26 09:05:03.41	335.24	11.59	-48.1	-60.7	3.8	1.49e+00	0	44	104	0	66	16631
2026-01-26 09:05:06.42	335.16	11.31	-48.1	-60.7	3.8	1.49e+00	0	43	104	0	66	16616
2026-01-26 09:05:09.45	335.08	11.04	-48.1	-60.7	3.8	1.49e+00	0	44	104	0	66	16589
2026-01-26 09:05:12.47	334.99	10.77	-48.1	-60.7	3.8	1.49e+00	0	43	104	0	66	16623
2026-01-26 09:05:15.49	334.91	10.51	-48.1	-60.7	3.8	1.49e+00	0	43	104	0	66	16587
2026-01-26 09:05:18.53	334.84	10.24	-48.1	-60.7	3.8	1.49e+00	0	43	104	0	66	16620
2026-01-26 09:05:21.55	334.76	9.98	-48.1	-60.7	3.8	1.49e+00	0	44	104	0	66	16609
2026-01-26 09:05:24.57	334.68	9.73	-48.1	-60.7	3.8	1.49e+00	0	44	104	0	66	16584
2026-01-26 09:05:27.60	334.61	9.47	-48.0	-60.7	3.8	1.49e+00	0	44	104	0	66	16600
2026-01-26 09:05:30.62	334.54	9.22	-48.1	-60.7	3.8	1.49e+00	0	44	104	0	66	16605
2026-01-26 09:05:33.65	334.47	8.97	-48.1	-60.7	3.8	1.49e+00	0	44	104	0	66	16671
2026-01-26 09:05:36.67	334.40	8.72	-48.1	-60.7	3.8	1.49e+00	0	44	104	0	66	16641
2026-01-26 09:05:39.70	334.33	8.48	-48.1	-60.7	3.8	1.49e+00	0	44	104	0	66	16567
2026-01-26 09:05:42.73	334.26	8.23	-48.1	-60.7	3.8	1.49e+00	0	43	104	0	66	16611
2026-01-26 09:05:45.75	334.20	7.99	-48.1	-60.7	3.8	1.49e+00	0	43	104	0	66	16613
2026-01-26 09:05:48.77	334.13	7.75	-48.1	-60.7	3.8	1.49e+00	0	44	104	0	66	16610
2026-01-26 09:05:51.80	334.07	7.52	-48.1	-60.7	3.8	1.49e+00	0	44	104	0	66	16603
2026-01-26 09:05:54.82	334.01	7.28	-48.1	-60.7	3.8	1.49e+00	0	44	104	0	66	16611
2026-01-26 09:05:57.84	333.95	7.05	-48.1	-60.7	3.8	1.49e+00	0	44	104	0	66	16581
2026-01-26 09:06:00.87	333.89	6.82	-48.1	-60.7	3.8	1.49e+00	0	44	104	0	66	16607
2026-01-26 09:06:03.89	333.83	6.59	-48.1	-60.7	3.8	1.49e+00	0	44	104	0	66	16593
2026-01-26 09:06:06.91	333.77	6.37	-48.1	-60.7	3.8	1.49e+00	0	44	104	0	66	16612
2026-01-26 09:06:09.93	333.72	6.14	-48.1	-60.7	3.8	1.49e+00	0	44	104	0	66	16590
2026-01-26 09:06:12.95	333.66	5.92	-48.1	-60.7	3.8	1.49e+00	0	44	104	0	66	16586
2026-01-26 09:06:15.98	333.61	5.70	-48.1	-60.7	3.8	1.49e+00	0	43	104	0	66	16617
2026-01-26 09:06:19.01	333.56	5.48	-48.1	-60.7	3.8	1.49e+00	0	44	104	0	66	16540
2026-01-26 09:06:22.03	333.50	5.27	-48.1	-60.7	3.8	1.49e+00	0	44	104	0	66	16522
2026-01-26 09:06:25.06	333.45	5.05	-48.1	-60.7	3.8	1.49e+00	0	44	104	0	66	16626
2026-01-26 09:06:28.09	333.40	4.84	-48.1	-60.7	3.8	1.49e+00	0	44	104	0	66	16613
2026-01-26 09:06:31.11	333.35	4.63	-48.1	-60.7	3.8	1.49e+00	0	44	104	0	66	16602
2026-01-26 09:06:34.13	333.31	4.42	-48.1	-60.7	3.8	1.49e+00	0	44	104	0	66	16608
2026-01-26 09:06:37.15	333.26	4.21	-48.1	-60.7	3.8	1.49e+00	0	44	104	0	66	16587
2026-01-26 09:06:40.17	333.21	4.00	-48.1	-60.7	3.8	1.49e+00	0	44	104	0	66	16586
2026-01-26 09:06:43.20	333.17	3.80	-48.1	-60.7	3.8	1.49e+00	0	44	104	0	66	16583
2026-01-26 09:06:46.22	333.12	3.59	-48.1	-60.7	3.8	1.49e+00	0	44	104	0	66	16593
2026-01-26 09:06:49.25	333.08	3.39	-48.1	-60.7	3.8	1.49e+00	0	44	104	0	66	16589
2026-01-26 09:06:52.27	333.03	3.19	-48.1	-60.7	3.8	1.49e+00	0	44	104	0	66	16612
2026-01-26 09:06:55.28	332.99	2.99	-48.1	-60.7	3.8	1.49e+00	0	44	104	0	66	16583
2026-01-26 09:06:58.31	332.95	2.79	-48.1	-60.7	3.8	1.49e+00	0	44	104	0	66	16617
2026-01-26 09:07:01.33	332.91	2.59	-48.1	-60.7	3.8	1.49e+00	0	44	104	0	66	16557
2026-01-26 09:07:04.35	332.87	2.40	-48.1	-60.7	3.8	1.49e+00	0	44	104	0	66	16596
2026-01-26 09:07:07.37	332.83	2.21	-48.1	-60.7	3.8	1.49e+00	0	43	104	0	66	16604
2026-01-26 09:07:10.40	332.79	2.01	-48.1	-60.7	3.8	1.49e+00	0	44	104	0	66	16622

#Closed at: 2026-01-26 09:07:13
#Recorded file [0 MB]: D:/lorett/data/31041_260126_115419.dat