passes_logs/2026/01/26/R3.2S_Murmansk/R3.2S_Murmansk__20260126_235054_ZKG05_rec.log

#Pass ID: 20260126_235054_ZKG05
#Satellite: ZKG05
#Configuration: ZKG05
#almurnet v.1.7.20251203
#Start time: 2026-01-26 23:50:56

#Version: 2.2.20231116
#Station: R3.2S_Murmansk
#Location: 33.079688 lon 68.888172 lat
#TLE: 1 65263U 25180E   26026.52273064  .00006133  00000+0  31951-3 0  9997
#TLE: 2 65263  97.4770 155.5972 0001599  90.3970 269.7447 15.16353540 24259

#Time	Az	El	Level	Level2	SNR	BER	BlckErr	Temp	State	Recorded	gain1	gain2
2026-01-26 23:50:56.39	198.46	2.15	-54.6	-56.7	6.3	0.00e+00	0	50	0	0	80	18787
2026-01-26 23:50:59.41	198.68	2.35	-54.8	-56.9	6.2	0.00e+00	0	50	104	0	81	18077
2026-01-26 23:51:02.43	198.91	2.55	-54.8	-56.9	6.2	0.00e+00	0	50	104	0	81	17993
2026-01-26 23:51:05.45	199.14	2.74	-54.7	-56.7	6.2	0.00e+00	0	50	104	0	81	17731
2026-01-26 23:51:08.47	199.38	2.94	-54.5	-56.6	6.2	0.00e+00	0	50	104	0	81	17425
2026-01-26 23:51:11.49	199.62	3.15	-54.3	-56.3	6.2	0.00e+00	0	51	104	0	80	17944
2026-01-26 23:51:14.51	199.86	3.35	-53.9	-56.0	6.2	0.00e+00	0	51	104	0	79	18252
2026-01-26 23:51:17.54	200.11	3.55	-53.1	-55.2	6.2	0.00e+00	0	51	104	0	78	17688
2026-01-26 23:51:20.56	200.36	3.76	-53.1	-55.2	6.2	0.00e+00	0	51	104	0	78	17627
2026-01-26 23:51:23.58	200.62	3.97	-53.1	-55.2	6.2	0.00e+00	0	51	104	0	78	17657
2026-01-26 23:51:26.61	200.88	4.18	-53.1	-55.2	6.2	0.00e+00	0	51	104	0	78	17631
2026-01-26 23:51:29.63	201.15	4.39	-53.1	-55.2	6.2	0.00e+00	0	51	104	0	78	17568
2026-01-26 23:51:32.65	201.42	4.60	-53.1	-55.2	6.2	0.00e+00	0	51	104	0	78	17647
2026-01-26 23:51:35.68	201.69	4.82	-53.0	-55.2	6.2	0.00e+00	0	52	104	0	78	17571
2026-01-26 23:51:38.71	201.97	5.03	-53.0	-55.2	6.2	0.00e+00	0	52	104	0	78	17634
2026-01-26 23:51:41.73	202.26	5.25	-53.1	-55.3	6.2	0.00e+00	0	52	104	0	78	17801
2026-01-26 23:51:44.76	202.55	5.47	-53.0	-55.1	6.2	0.00e+00	0	52	104	0	78	17510
2026-01-26 23:51:47.78	202.84	5.69	-53.1	-55.2	6.2	0.00e+00	0	52	104	0	78	17751
2026-01-26 23:51:50.80	203.14	5.92	-53.1	-55.3	6.2	0.00e+00	0	52	104	0	78	17848
2026-01-26 23:51:53.82	203.45	6.14	-53.2	-55.3	6.2	0.00e+00	0	52	104	0	78	17856
2026-01-26 23:51:56.84	203.76	6.37	-53.1	-55.2	6.2	0.00e+00	0	52	104	0	78	17645
2026-01-26 23:51:59.88	204.08	6.60	-53.1	-55.2	6.2	0.00e+00	0	52	104	0	78	17748
2026-01-26 23:52:02.91	204.41	6.84	-53.2	-55.3	6.2	0.00e+00	0	52	104	0	78	17957
2026-01-26 23:52:05.93	204.74	7.07	-53.3	-55.4	6.2	0.00e+00	0	52	104	0	78	18170
2026-01-26 23:52:08.95	205.07	7.31	-53.2	-55.3	6.2	0.00e+00	0	53	104	0	78	17837
2026-01-26 23:52:11.97	205.42	7.55	-53.3	-55.4	6.2	0.00e+00	0	53	104	0	78	18032
2026-01-26 23:52:14.99	205.77	7.79	-53.3	-55.4	6.2	0.00e+00	0	53	104	0	78	18154
2026-01-26 23:52:18.01	206.12	8.03	-53.3	-55.5	6.2	0.00e+00	0	53	104	0	78	18191
2026-01-26 23:52:21.04	206.49	8.28	-53.3	-55.4	6.2	0.00e+00	0	53	104	0	78	18061
2026-01-26 23:52:24.06	206.86	8.53	-53.3	-55.4	6.2	0.00e+00	0	53	104	0	78	18141
2026-01-26 23:52:27.08	207.24	8.78	-53.4	-55.5	6.2	0.00e+00	0	53	104	0	78	18291
2026-01-26 23:52:30.11	207.63	9.03	-53.4	-55.5	6.2	0.00e+00	0	53	104	0	78	18378
2026-01-26 23:52:33.14	208.02	9.29	-53.4	-55.5	6.2	0.00e+00	0	53	104	0	78	18262
2026-01-26 23:52:36.16	208.42	9.54	-53.4	-55.5	6.2	0.00e+00	0	53	104	0	78	18224
2026-01-26 23:52:39.18	208.84	9.80	-53.4	-55.6	6.2	0.00e+00	0	53	104	0	78	18469
2026-01-26 23:52:42.20	209.26	10.07	-53.5	-55.6	6.2	0.00e+00	0	53	104	0	78	18501
2026-01-26 23:52:45.23	209.69	10.33	-53.5	-55.6	6.2	0.00e+00	0	53	104	0	78	18392
2026-01-26 23:52:48.25	210.12	10.60	-53.5	-55.6	6.2	0.00e+00	0	53	104	0	78	18437
2026-01-26 23:52:51.27	210.57	10.87	-53.5	-55.6	6.2	0.00e+00	0	53	104	0	78	18534
2026-01-26 23:52:54.30	211.03	11.14	-53.5	-55.7	6.2	0.00e+00	0	53	104	0	78	18675
2026-01-26 23:52:57.32	211.50	11.42	-53.5	-55.6	6.2	0.00e+00	0	53	104	0	78	18557
2026-01-26 23:53:00.34	211.98	11.69	-53.5	-55.6	6.2	0.00e+00	0	54	104	0	78	18555
2026-01-26 23:53:03.37	212.47	11.98	-53.5	-55.7	6.2	0.00e+00	0	53	104	0	78	18632
2026-01-26 23:53:06.39	212.97	12.26	-53.5	-55.7	6.2	0.00e+00	0	53	104	0	78	18704
2026-01-26 23:53:09.41	213.48	12.54	-53.5	-55.7	6.2	0.00e+00	0	54	104	0	78	18624
2026-01-26 23:53:12.43	214.00	12.83	-53.6	-55.7	6.2	0.00e+00	0	54	104	0	78	18663
2026-01-26 23:53:15.45	214.54	13.12	-53.5	-55.7	6.2	0.00e+00	0	54	104	0	78	18714
2026-01-26 23:53:18.48	215.09	13.41	-51.0	-52.2	6.7	0.00e+00	0	54	104	0	72	17580
2026-01-26 23:53:21.50	215.64	13.71	-29.6	-29.5	18.1	8.39e-04	0	55	0	327155712	31	13712
2026-01-26 23:53:24.53	216.22	14.01	-29.7	-29.6	18.1	1.16e-03	0	55	0	662700032	31	13791
2026-01-26 23:53:27.55	216.81	14.31	-28.7	-28.6	18.6	5.91e-04	0	55	0	998244352	29	13895
2026-01-26 23:53:30.57	217.41	14.61	-28.7	-28.6	18.6	2.67e-04	0	56	0	1342177280	29	13895
2026-01-26 23:53:33.59	218.02	14.91	-29.1	-28.9	18.5	1.48e-04	0	56	0	1686110208	29	14421
2026-01-26 23:53:36.62	218.65	15.22	-28.9	-28.7	18.6	1.91e-04	0	56	0	2021654528	29	14093
2026-01-26 23:53:39.65	219.30	15.53	-28.3	-28.2	18.8	1.91e-04	0	56	0	2365587456	28	14006
2026-01-26 23:53:42.68	219.96	15.84	-28.2	-28.1	18.9	1.95e-04	0	56	0	2701131776	28	13888
2026-01-26 23:53:45.70	220.63	16.15	-28.2	-28.1	18.9	9.05e-05	0	56	0	3045064704	28	13872
2026-01-26 23:53:48.72	221.32	16.47	-28.3	-28.2	18.9	5.72e-05	0	56	0	3388997632	28	13993
2026-01-26 23:53:51.75	222.03	16.79	-28.2	-28.0	18.9	1.00e-04	0	56	0	3724541952	28	13778
2026-01-26 23:53:54.77	222.76	17.10	-28.2	-28.1	18.9	4.29e-05	0	56	0	4060086272	28	13837
2026-01-26 23:53:57.79	223.50	17.42	-28.5	-28.4	18.8	2.86e-05	0	57	0	4395630592	28	14320
2026-01-26 23:54:00.82	224.26	17.74	-28.4	-28.3	18.9	4.76e-05	0	57	0	4747952128	27	14970
2026-01-26 23:54:03.85	225.05	18.06	-27.8	-27.6	19.2	6.67e-05	0	57	0	5083496448	27	13918
2026-01-26 23:54:06.88	225.85	18.38	-27.6	-27.5	19.3	2.38e-05	0	57	0	5419040768	27	13679
2026-01-26 23:54:09.91	226.66	18.70	-27.7	-27.5	19.3	1.90e-05	0	57	0	5771362304	27	13740
2026-01-26 23:54:12.93	227.50	19.02	-27.4	-27.3	19.3	1.43e-05	0	57	0	6106906624	26	14221
2026-01-26 23:54:15.96	228.36	19.35	-27.1	-27.0	19.4	2.86e-05	0	57	0	6442450944	25	14542
2026-01-26 23:54:18.97	229.23	19.66	-26.8	-26.7	19.6	9.50e-06	0	57	0	6786383872	25	14021
2026-01-26 23:54:21.99	230.13	19.98	-26.9	-26.8	19.6	4.70e-06	0	57	0	7121928192	25	14198
2026-01-26 23:54:25.02	231.05	20.30	-26.7	-26.5	19.7	1.43e-05	0	57	0	7474249728	25	13749
2026-01-26 23:54:28.04	231.99	20.62	-26.5	-26.4	19.7	9.50e-06	0	57	0	7809794048	25	13551
2026-01-26 23:54:31.06	232.95	20.93	-26.5	-26.3	19.8	0.00e+00	0	57	0	8145338368	24	14227
2026-01-26 23:54:34.09	233.93	21.24	-26.4	-26.3	19.8	0.00e+00	0	57	0	8480882688	24	14178
2026-01-26 23:54:37.12	234.94	21.55	-26.4	-26.2	19.8	0.00e+00	0	57	0	8833204224	24	14097
2026-01-26 23:54:40.15	235.97	21.85	-26.1	-26.0	19.9	0.00e+00	0	57	0	9168748544	24	13679
2026-01-26 23:54:43.18	237.02	22.15	-26.2	-26.1	19.9	4.70e-06	0	57	0	9504292864	24	13835
2026-01-26 23:54:46.21	238.10	22.45	-26.2	-26.0	19.9	0.00e+00	0	57	0	9856614400	24	13750
2026-01-26 23:54:49.24	239.19	22.74	-25.7	-25.6	20.1	0.00e+00	0	58	0	10192158720	23	13856
2026-01-26 23:54:52.26	240.31	23.02	-25.6	-25.4	20.1	0.00e+00	0	57	0	10527703040	23	13590
2026-01-26 23:54:55.28	241.44	23.29	-25.5	-25.4	20.1	0.00e+00	0	57	0	10871635968	22	14289
2026-01-26 23:54:58.30	242.60	23.56	-25.6	-25.5	20.1	4.70e-06	0	57	0	11215568896	22	14516
2026-01-26 23:55:01.33	243.79	23.82	-25.2	-25.1	20.3	0.00e+00	0	58	0	11551113216	22	13885
2026-01-26 23:55:04.35	244.99	24.07	-25.2	-25.1	20.3	0.00e+00	0	58	0	11895046144	22	13860
2026-01-26 23:55:07.36	246.21	24.32	-25.2	-25.0	20.3	0.00e+00	0	58	0	12230590464	22	13757
2026-01-26 23:55:10.39	247.45	24.55	-25.2	-25.0	20.3	0.00e+00	0	58	0	12566134784	22	13761
2026-01-26 23:55:13.41	248.72	24.77	-25.1	-25.0	20.4	0.00e+00	0	57	0	12918456320	22	13667
2026-01-26 23:55:16.43	250.00	24.98	-25.0	-24.9	20.4	0.00e+00	0	58	0	13254000640	22	13579
2026-01-26 23:55:19.45	251.30	25.18	-25.1	-24.9	20.4	0.00e+00	0	58	0	13589544960	22	13595
2026-01-26 23:55:22.48	252.62	25.36	-25.0	-24.9	20.4	0.00e+00	0	58	0	13925089280	22	13533
2026-01-26 23:55:25.50	253.95	25.54	-25.1	-25.0	20.3	0.00e+00	0	58	0	14277410816	21	14524
2026-01-26 23:55:28.53	255.30	25.69	-25.1	-25.0	20.4	0.00e+00	0	58	0	14612955136	21	14479
2026-01-26 23:55:31.56	256.67	25.84	-24.9	-24.8	20.2	0.00e+00	0	57	0	14948499456	21	14169
2026-01-26 23:55:34.59	258.04	25.96	-25.2	-25.1	19.9	0.00e+00	0	58	0	15292432384	21	14642
2026-01-26 23:55:37.61	259.43	26.08	-24.8	-24.7	20.3	0.00e+00	0	58	0	15636365312	21	14028
2026-01-26 23:55:40.64	260.83	26.17	-24.9	-24.8	20.2	0.00e+00	0	58	0	15971909632	21	14183
2026-01-26 23:55:43.66	262.23	26.25	-25.0	-24.9	20.2	0.00e+00	0	58	0	16315842560	21	14351
2026-01-26 23:55:46.69	263.65	26.32	-24.9	-24.7	20.3	0.00e+00	0	58	0	16651386880	21	14068
2026-01-26 23:55:49.71	265.06	26.36	-24.8	-24.6	20.0	0.00e+00	0	58	0	16995319808	21	13901
2026-01-26 23:55:52.73	266.48	26.39	-24.8	-24.7	20.5	4.70e-06	0	58	0	17339252736	21	13989
2026-01-26 23:55:55.76	267.90	26.40	-24.7	-24.6	20.6	0.00e+00	0	58	0	17674797056	21	13882
2026-01-26 23:55:58.78	269.32	26.40	-24.6	-24.4	20.6	0.00e+00	0	58	0	18010341376	21	13596
2026-01-26 23:56:01.81	270.75	26.37	-25.3	-25.2	20.3	0.00e+00	0	58	0	18362662912	21	14905
2026-01-26 23:56:04.84	272.17	26.33	-24.7	-24.5	20.6	0.00e+00	0	58	0	18698207232	21	13789
2026-01-26 23:56:07.87	273.58	26.28	-24.8	-24.7	20.5	0.00e+00	0	58	0	19033751552	21	13973
2026-01-26 23:56:10.89	274.99	26.20	-24.8	-24.7	20.5	0.00e+00	0	58	0	19369295872	21	14001
2026-01-26 23:56:13.91	276.38	26.11	-25.3	-25.1	20.4	0.00e+00	0	58	0	19721617408	21	14771
2026-01-26 23:56:16.94	277.77	26.01	-24.7	-24.6	20.6	0.00e+00	0	58	0	20057161728	21	13869
2026-01-26 23:56:19.97	279.16	25.88	-24.9	-24.8	20.5	0.00e+00	0	58	0	20392706048	21	14119
2026-01-26 23:56:22.99	280.52	25.75	-25.1	-24.9	20.5	0.00e+00	0	58	0	20736638976	21	14395
2026-01-26 23:56:26.01	281.87	25.59	-25.2	-25.1	20.4	0.00e+00	0	58	0	21080571904	21	14655
2026-01-26 23:56:29.03	283.20	25.43	-25.0	-24.9	20.6	0.00e+00	0	58	0	21424504832	21	14278
2026-01-26 23:56:32.06	284.53	25.25	-25.1	-24.9	20.5	0.00e+00	0	58	0	21760049152	21	14437
2026-01-26 23:56:35.09	285.83	25.06	-25.1	-25.0	20.5	0.00e+00	0	58	0	22095593472	21	14491
2026-01-26 23:56:38.11	287.12	24.85	-25.2	-25.0	20.5	0.00e+00	0	58	0	22447915008	21	14586
2026-01-26 23:56:41.13	288.38	24.63	-25.2	-25.0	20.5	0.00e+00	0	58	0	22783459328	21	14553
2026-01-26 23:56:44.15	289.63	24.41	-25.2	-25.1	20.5	0.00e+00	0	58	0	23119003648	21	14706
2026-01-26 23:56:47.18	290.86	24.17	-25.4	-25.3	20.4	0.00e+00	0	58	0	23454547968	21	14958
2026-01-26 23:56:50.20	292.06	23.92	-25.4	-25.3	20.4	0.00e+00	0	58	0	23806869504	21	15047
2026-01-26 23:56:53.22	293.25	23.66	-25.6	-25.5	20.3	0.00e+00	0	58	0	24142413824	21	15368
2026-01-26 23:56:56.24	294.41	23.40	-26.0	-25.8	20.2	0.00e+00	0	58	0	24477958144	22	15065
2026-01-26 23:56:59.27	295.56	23.13	-25.8	-25.6	20.3	0.00e+00	0	58	0	24821891072	22	14720
2026-01-26 23:57:02.29	296.68	22.85	-25.9	-25.7	20.3	0.00e+00	0	58	0	25165824000	22	14934
2026-01-26 23:57:05.32	297.78	22.56	-26.1	-26.0	20.2	0.00e+00	0	58	0	25501368320	22	15368
2026-01-26 23:57:08.34	298.85	22.27	-26.2	-26.1	20.1	0.00e+00	0	58	0	25845301248	22	15493
2026-01-26 23:57:11.37	299.91	21.98	-26.4	-26.2	20.1	4.70e-06	0	58	0	26180845568	23	14920
2026-01-26 23:57:14.39	300.94	21.68	-26.4	-26.3	20.1	0.00e+00	0	58	0	26524778496	23	14958
2026-01-26 23:57:17.42	301.95	21.37	-26.5	-26.4	20.0	0.00e+00	0	58	0	26868711424	23	15178
2026-01-26 23:57:20.44	302.93	21.06	-26.7	-26.6	20.0	0.00e+00	0	58	0	27204255744	24	14636
2026-01-26 23:57:23.47	303.90	20.75	-26.7	-26.6	20.0	0.00e+00	0	58	0	27539800064	24	14707
2026-01-26 23:57:26.49	304.84	20.44	-27.0	-26.8	19.8	0.00e+00	0	58	0	27875344384	24	15118
2026-01-26 23:57:29.51	305.77	20.13	-27.0	-26.9	19.8	4.70e-06	0	58	0	28227665920	24	15143
2026-01-26 23:57:32.53	306.67	19.81	-27.3	-27.2	19.7	0.00e+00	0	58	0	28563210240	25	14784
2026-01-26 23:57:35.56	307.55	19.49	-27.3	-27.1	19.7	9.50e-06	0	58	0	28898754560	25	14771
2026-01-26 23:57:38.59	308.41	19.17	-27.5	-27.4	19.6	0.00e+00	0	58	0	29242687488	25	15186
2026-01-26 23:57:41.60	309.25	18.86	-27.6	-27.5	19.5	0.00e+00	0	58	0	29586620416	25	15412
2026-01-26 23:57:44.62	310.07	18.54	-27.8	-27.6	19.5	9.50e-06	0	58	0	29922164736	26	14774
2026-01-26 23:57:47.64	310.87	18.22	-28.1	-28.0	19.3	1.43e-05	0	58	0	30266097664	26	15351
2026-01-26 23:57:50.67	311.66	17.90	-28.2	-28.1	19.3	1.90e-05	0	58	0	30601641984	27	14719
2026-01-26 23:57:53.70	312.42	17.58	-28.4	-28.3	19.3	2.86e-05	0	58	0	30945574912	27	14983
2026-01-26 23:57:56.72	313.17	17.27	-28.6	-28.5	19.1	5.72e-05	0	58	0	31289507840	27	15379
2026-01-26 23:57:59.74	313.90	16.95	-28.7	-28.5	19.1	5.24e-05	0	58	0	31625052160	28	14593
2026-01-26 23:58:02.77	314.61	16.64	-28.9	-28.7	19.0	1.19e-04	0	58	0	31960596480	28	14925
2026-01-26 23:58:05.80	315.31	16.32	-28.9	-28.8	19.0	1.00e-04	0	58	0	32312918016	28	14952
2026-01-26 23:58:08.82	315.99	16.01	-29.0	-28.9	18.9	6.19e-05	0	58	0	32648462336	28	15172
2026-01-26 23:58:11.85	316.65	15.70	-29.1	-29.0	18.8	1.10e-04	0	58	0	32984006656	28	15305
2026-01-26 23:58:14.87	317.30	15.39	-29.3	-29.2	18.7	1.33e-04	0	58	0	33319550976	29	14852
2026-01-26 23:58:17.90	317.93	15.09	-29.5	-29.4	18.6	1.00e-04	0	58	0	33671872512	29	15149
2026-01-26 23:58:20.92	318.55	14.79	-29.6	-29.5	18.5	2.00e-04	0	58	0	34007416832	29	15365
2026-01-26 23:58:23.95	319.16	14.48	-29.8	-29.7	18.4	2.57e-04	0	58	0	34342961152	30	14899
2026-01-26 23:58:26.98	319.75	14.18	-29.9	-29.8	18.3	3.38e-04	0	59	0	34686894080	30	15007
2026-01-26 23:58:29.99	320.32	13.89	-30.0	-29.9	18.3	4.00e-04	0	58	0	35030827008	30	15178
2026-01-26 23:58:33.01	320.89	13.59	-30.2	-30.0	18.2	3.67e-04	0	59	0	35366371328	31	14588
2026-01-26 23:58:36.04	321.44	13.30	-30.3	-30.1	18.1	4.62e-04	0	58	0	35710304256	31	14763
2026-01-26 23:58:39.06	321.98	13.01	-30.4	-30.3	18.0	5.96e-04	0	58	0	36045848576	31	15032
2026-01-26 23:58:42.09	322.50	12.72	-53.7	-56.0	6.2	6.77e-04	0	57	104	36205232128	78	19359
2026-01-26 23:58:45.10	323.02	12.44	-53.8	-56.0	6.2	6.77e-04	0	57	104	36205232128	78	19265
2026-01-26 23:58:48.13	323.52	12.16	-53.8	-55.9	6.2	6.77e-04	0	57	104	36205232128	78	19132
2026-01-26 23:58:51.16	324.01	11.88	-53.7	-55.9	6.2	6.77e-04	0	57	104	36205232128	78	19040
2026-01-26 23:58:54.18	324.50	11.60	-53.7	-55.9	6.2	6.77e-04	0	57	104	36205232128	78	19045
2026-01-26 23:58:57.21	324.97	11.33	-53.7	-55.9	6.2	6.77e-04	0	57	104	36205232128	78	19052
2026-01-26 23:59:00.24	325.43	11.05	-53.7	-55.8	6.2	6.19e-05	0	57	104	36205232128	78	18865
2026-01-26 23:59:03.26	325.88	10.78	-53.6	-55.8	6.2	6.19e-05	0	56	104	36205232128	78	18868
2026-01-26 23:59:06.29	326.32	10.52	-53.6	-55.7	6.2	6.19e-05	0	56	104	36205232128	78	18792
2026-01-26 23:59:09.31	326.75	10.25	-53.5	-55.7	6.2	6.19e-05	0	56	104	36205232128	78	18789
2026-01-26 23:59:12.33	327.18	9.99	-53.5	-55.7	6.2	0.00e+00	0	56	104	36205232128	78	18630
2026-01-26 23:59:15.35	327.59	9.73	-53.5	-55.7	6.2	0.00e+00	0	56	104	36205232128	78	18625
2026-01-26 23:59:18.38	328.00	9.47	-53.4	-55.6	6.2	0.00e+00	0	56	104	36205232128	78	18511
2026-01-26 23:59:21.40	328.40	9.22	-53.5	-55.6	6.2	0.00e+00	0	56	104	36205232128	78	18538
2026-01-26 23:59:24.43	328.79	8.97	-53.4	-55.6	6.2	0.00e+00	0	56	104	36205232128	78	18443
2026-01-26 23:59:27.45	329.17	8.72	-53.4	-55.5	6.2	0.00e+00	0	56	104	36205232128	78	18352
2026-01-26 23:59:30.48	329.54	8.47	-53.4	-55.5	6.2	0.00e+00	0	56	104	36205232128	78	18352
2026-01-26 23:59:33.50	329.91	8.22	-53.4	-55.5	6.2	0.00e+00	0	56	104	36205232128	78	18364
2026-01-26 23:59:36.52	330.27	7.98	-53.3	-55.5	6.2	0.00e+00	0	56	104	36205232128	78	18314
2026-01-26 23:59:39.55	330.62	7.74	-53.3	-55.4	6.2	0.00e+00	0	56	104	36205232128	78	18129
2026-01-26 23:59:42.57	330.97	7.50	-53.3	-55.5	6.2	0.00e+00	0	56	104	36205232128	78	18189
2026-01-26 23:59:45.59	331.31	7.27	-53.3	-55.4	6.2	0.00e+00	0	55	104	36205232128	78	18120
2026-01-26 23:59:48.61	331.64	7.03	-53.3	-55.4	6.2	0.00e+00	0	56	104	36205232128	78	18106
2026-01-26 23:59:51.64	331.97	6.80	-53.2	-55.3	6.2	0.00e+00	0	55	104	36205232128	78	17888
2026-01-26 23:59:54.66	332.29	6.57	-53.2	-55.3	6.2	0.00e+00	0	56	104	36205232128	78	17953
2026-01-26 23:59:57.69	332.60	6.34	-53.1	-55.3	6.2	0.00e+00	0	55	104	36205232128	78	17784
2026-01-27 00:00:00.71	332.91	6.12	-53.2	-55.3	6.2	0.00e+00	0	55	104	36205232128	78	17858
2026-01-27 00:00:03.73	333.22	5.89	-53.0	-55.1	6.2	0.00e+00	0	56	104	36205232128	78	17560
2026-01-27 00:00:06.75	333.51	5.67	-53.1	-55.2	6.2	0.00e+00	0	55	104	36205232128	77	18656
2026-01-27 00:00:09.77	333.81	5.45	-52.6	-54.7	6.2	0.00e+00	0	55	104	36205232128	77	17750
2026-01-27 00:00:12.80	334.09	5.23	-53.0	-55.1	6.2	0.00e+00	0	55	104	36205232128	77	18491
2026-01-27 00:00:15.82	334.38	5.02	-51.4	-53.5	6.2	0.00e+00	0	55	104	36205232128	74	18300
2026-01-27 00:00:18.84	334.65	4.80	-53.7	-55.8	6.2	0.00e+00	0	55	104	36205232128	77	19989
2026-01-27 00:00:21.87	334.93	4.59	-54.1	-56.2	6.2	0.00e+00	0	55	104	36205232128	78	19734
2026-01-27 00:00:24.88	335.19	4.38	-54.2	-56.3	6.2	0.00e+00	0	55	104	36205232128	79	18995
2026-01-27 00:00:27.91	335.46	4.17	-54.1	-56.2	6.2	0.00e+00	0	55	104	36205232128	79	18716
2026-01-27 00:00:30.93	335.72	3.96	-54.1	-56.2	6.2	0.00e+00	0	55	104	36205232128	79	18610
2026-01-27 00:00:33.95	335.97	3.76	-54.2	-56.3	6.2	0.00e+00	0	55	104	36205232128	79	18854
2026-01-27 00:00:36.98	336.22	3.55	-54.2	-56.3	6.2	0.00e+00	0	55	104	36205232128	79	18936
2026-01-27 00:00:40.00	336.47	3.35	-54.2	-56.2	6.2	0.00e+00	0	55	104	36205232128	79	18799
2026-01-27 00:00:43.02	336.71	3.15	-54.2	-56.3	6.2	0.00e+00	0	55	104	36205232128	79	18819
2026-01-27 00:00:46.04	336.95	2.95	-54.1	-56.2	6.2	0.00e+00	0	55	104	36205232128	79	18754
2026-01-27 00:00:49.05	337.19	2.75	-54.1	-56.2	6.2	0.00e+00	0	55	104	36205232128	79	18683
2026-01-27 00:00:52.08	337.42	2.56	-54.1	-56.2	6.2	0.00e+00	0	55	104	36205232128	79	18707
2026-01-27 00:00:55.10	337.65	2.36	-54.1	-56.2	6.2	0.00e+00	0	55	104	36205232128	79	18709
2026-01-27 00:00:58.12	337.87	2.17	-54.1	-56.2	6.2	0.00e+00	0	55	104	36205232128	79	18621

#Closed at: 2026-01-27 00:01:01
#Recorded file [36205 MB]: D:/lorett/data/31041_260127_025056.dat