passes_logs/2026/01/26/R3.2S_Murmansk/R3.2S_Murmansk__20260126_000540_ZKG05_rec.log

#Pass ID: 20260126_000540_ZKG05
#Satellite: ZKG05
#Configuration: ZKG05
#almurnet v.1.7.20251203
#Start time: 2026-01-26 00:05:40

#Version: 2.2.20231116
#Station: R3.2S_Murmansk
#Location: 33.079688 lon 68.888172 lat
#TLE: 1 65263U 25180E   26025.53288388  .00001444  00000+0  77880-4 0  9994
#TLE: 2 65263  97.4774 154.6216 0001647  84.9743 275.1678 15.16338307 24100

#Time	Az	El	Level	Level2	SNR	BER	BlckErr	Temp	State	Recorded	gain1	gain2
2026-01-26 00:05:40.44	205.65	2.01	-54.3	-56.4	6.2	0.00e+00	0	50	0	0	79	19048
2026-01-26 00:05:43.45	205.91	2.20	-54.3	-56.4	6.2	0.00e+00	0	50	104	0	80	17998
2026-01-26 00:05:46.47	206.17	2.39	-54.5	-56.6	6.2	0.00e+00	0	50	104	0	80	18453
2026-01-26 00:05:49.49	206.44	2.58	-54.5	-56.6	6.2	0.00e+00	0	50	104	0	80	18530
2026-01-26 00:05:52.52	206.71	2.77	-54.5	-56.5	6.2	0.00e+00	0	51	104	0	80	18335
2026-01-26 00:05:55.55	206.98	2.96	-54.4	-56.4	6.2	0.00e+00	0	51	104	0	80	18156
2026-01-26 00:05:58.57	207.26	3.16	-54.2	-56.3	6.2	0.00e+00	0	51	104	0	80	17799
2026-01-26 00:06:01.59	207.54	3.35	-54.0	-56.1	6.2	0.00e+00	0	51	104	0	79	18470
2026-01-26 00:06:04.62	207.83	3.55	-53.6	-55.7	6.2	0.00e+00	0	51	104	0	79	17602
2026-01-26 00:06:07.65	208.12	3.75	-52.8	-54.9	6.2	0.00e+00	0	51	104	0	77	18148
2026-01-26 00:06:10.66	208.42	3.95	-52.8	-54.9	6.2	0.00e+00	0	52	104	0	77	18109
2026-01-26 00:06:13.69	208.72	4.15	-52.8	-54.9	6.2	0.00e+00	0	52	104	0	77	18052
2026-01-26 00:06:16.71	209.03	4.35	-52.8	-54.9	6.2	0.00e+00	0	52	104	0	77	18046
2026-01-26 00:06:19.74	209.34	4.55	-52.8	-54.9	6.2	0.00e+00	0	52	104	0	77	18086
2026-01-26 00:06:22.75	209.66	4.76	-52.8	-54.9	6.2	0.00e+00	0	52	104	0	77	18105
2026-01-26 00:06:25.78	209.98	4.97	-52.8	-54.9	6.2	0.00e+00	0	52	104	0	77	18083
2026-01-26 00:06:28.80	210.31	5.17	-52.8	-54.8	6.2	0.00e+00	0	52	104	0	77	17951
2026-01-26 00:06:31.82	210.65	5.38	-52.8	-54.9	6.2	0.00e+00	0	53	104	0	77	18049
2026-01-26 00:06:34.84	210.99	5.59	-52.9	-54.9	6.2	0.00e+00	0	53	104	0	77	18175
2026-01-26 00:06:37.87	211.33	5.81	-52.9	-55.0	6.2	0.00e+00	0	53	104	0	77	18271
2026-01-26 00:06:40.90	211.69	6.02	-52.8	-54.8	6.2	0.00e+00	0	53	104	0	77	17925
2026-01-26 00:06:43.92	212.04	6.24	-52.8	-54.9	6.2	0.00e+00	0	53	104	0	77	18141
2026-01-26 00:06:46.94	212.41	6.45	-52.9	-55.0	6.2	0.00e+00	0	53	104	0	77	18335
2026-01-26 00:06:49.96	212.78	6.67	-52.9	-55.1	6.2	0.00e+00	0	53	104	0	77	18435
2026-01-26 00:06:52.99	213.16	6.89	-52.9	-55.0	6.2	0.00e+00	0	53	104	0	77	18191
2026-01-26 00:06:56.01	213.54	7.11	-52.9	-55.0	6.2	0.00e+00	0	53	104	0	77	18319
2026-01-26 00:06:59.03	213.94	7.34	-53.0	-55.1	6.2	0.00e+00	0	53	104	0	77	18492
2026-01-26 00:07:02.05	214.33	7.56	-53.0	-55.1	6.2	0.00e+00	0	53	104	0	77	18570
2026-01-26 00:07:05.08	214.74	7.79	-52.9	-55.0	6.2	0.00e+00	0	53	104	0	77	18323
2026-01-26 00:07:08.09	215.15	8.02	-53.0	-55.1	6.2	0.00e+00	0	53	104	0	77	18438
2026-01-26 00:07:11.12	215.58	8.25	-53.0	-55.1	6.2	0.00e+00	0	54	104	0	77	18592
2026-01-26 00:07:14.14	216.01	8.48	-53.0	-55.2	6.2	0.00e+00	0	54	104	0	77	18693
2026-01-26 00:07:17.17	216.45	8.71	-53.0	-55.1	6.2	0.00e+00	0	54	104	0	77	18556
2026-01-26 00:07:20.18	216.89	8.95	-53.1	-55.2	6.2	0.00e+00	0	54	104	0	77	18667
2026-01-26 00:07:23.21	217.35	9.18	-53.1	-55.2	6.2	0.00e+00	0	54	104	0	77	18709
2026-01-26 00:07:26.23	217.81	9.42	-53.0	-55.2	6.2	0.00e+00	0	54	104	0	77	18782
2026-01-26 00:07:29.26	218.29	9.66	-53.1	-55.2	6.2	0.00e+00	0	54	104	0	77	18697
2026-01-26 00:07:32.28	218.77	9.90	-53.1	-55.2	6.2	0.00e+00	0	54	104	0	77	18734
2026-01-26 00:07:35.31	219.26	10.14	-53.1	-55.3	6.2	0.00e+00	0	54	104	0	77	18839
2026-01-26 00:07:38.33	219.76	10.39	-53.1	-55.3	6.2	0.00e+00	0	54	104	0	77	18880
2026-01-26 00:07:41.35	220.28	10.63	-53.2	-55.3	6.2	0.00e+00	0	54	104	0	77	18845
2026-01-26 00:07:44.37	220.80	10.88	-53.2	-55.3	6.2	0.00e+00	0	54	104	0	77	18885
2026-01-26 00:07:47.39	221.33	11.13	-53.2	-55.3	6.2	0.00e+00	0	54	104	0	77	18993
2026-01-26 00:07:50.41	221.87	11.38	-53.2	-55.3	6.2	0.00e+00	0	54	104	0	77	18977
2026-01-26 00:07:53.43	222.43	11.63	-53.2	-55.3	6.2	0.00e+00	0	54	104	0	77	18986
2026-01-26 00:07:56.45	222.99	11.88	-53.2	-55.3	6.2	0.00e+00	0	54	104	0	77	18999
2026-01-26 00:07:59.48	223.57	12.13	-53.2	-55.3	6.2	0.00e+00	0	54	104	0	77	19020
2026-01-26 00:08:02.50	224.16	12.39	-53.2	-55.4	6.2	0.00e+00	0	54	104	0	77	19123
2026-01-26 00:08:05.51	224.75	12.64	-53.2	-55.4	6.2	0.00e+00	0	54	104	0	77	19071
2026-01-26 00:08:08.54	225.37	12.90	-53.3	-55.4	6.2	0.00e+00	0	54	104	0	77	19100
2026-01-26 00:08:11.56	225.99	13.16	-53.2	-55.4	6.2	0.00e+00	0	54	104	0	77	19077
2026-01-26 00:08:14.58	226.63	13.41	-53.2	-55.4	6.2	0.00e+00	0	54	104	0	77	19197
2026-01-26 00:08:17.61	227.28	13.67	-53.2	-55.4	6.2	0.00e+00	0	54	104	0	77	19179
2026-01-26 00:08:20.63	227.94	13.93	-53.3	-55.4	6.2	0.00e+00	0	54	104	0	77	19189
2026-01-26 00:08:23.64	228.62	14.19	-53.3	-55.4	6.2	0.00e+00	0	54	104	0	77	19202
2026-01-26 00:08:26.67	229.31	14.45	-53.3	-55.5	6.2	0.00e+00	0	54	104	0	77	19269
2026-01-26 00:08:29.69	230.01	14.71	-53.3	-55.5	6.2	0.00e+00	0	54	104	0	77	19289
2026-01-26 00:08:32.71	230.73	14.97	-53.4	-55.5	6.2	0.00e+00	0	54	104	0	77	19324
2026-01-26 00:08:35.73	231.47	15.23	-28.1	-28.0	18.8	0.00e+00	0	55	0	8388608	27	14590
2026-01-26 00:08:38.76	232.22	15.49	-27.6	-27.5	19.1	5.77e-04	0	56	0	360710144	27	13720
2026-01-26 00:08:41.78	232.98	15.74	-28.3	-28.1	18.8	2.10e-04	0	56	0	696254464	27	14736
2026-01-26 00:08:44.81	233.76	16.00	-27.4	-27.2	19.2	1.76e-04	0	56	0	1031798784	26	14110
2026-01-26 00:08:47.82	234.55	16.26	-27.3	-27.2	19.2	9.53e-05	0	56	0	1375731712	26	13970
2026-01-26 00:08:50.84	235.36	16.51	-27.4	-27.2	19.2	1.19e-04	0	56	0	1719664640	26	14064
2026-01-26 00:08:53.87	236.18	16.77	-27.2	-27.1	19.3	5.24e-05	0	57	0	2055208960	26	13866
2026-01-26 00:08:56.89	237.02	17.02	-27.2	-27.1	19.2	8.58e-05	0	56	0	2399141888	26	13861
2026-01-26 00:08:59.92	237.88	17.27	-27.2	-27.1	19.3	5.72e-05	0	57	0	2734686208	26	13814
2026-01-26 00:09:02.94	238.75	17.51	-27.1	-27.0	19.3	3.33e-05	0	57	0	3078619136	26	13703
2026-01-26 00:09:05.97	239.65	17.76	-27.0	-26.8	19.4	1.90e-05	0	57	0	3422552064	25	14263
2026-01-26 00:09:08.99	240.55	18.00	-27.0	-26.9	19.4	1.43e-05	0	57	0	3758096384	25	14301
2026-01-26 00:09:12.01	241.47	18.24	-26.8	-26.7	19.5	1.90e-05	0	57	0	4093640704	25	13985
2026-01-26 00:09:15.02	242.40	18.47	-26.7	-26.6	19.5	1.43e-05	0	57	0	4429185024	25	13825
2026-01-26 00:09:18.04	243.36	18.70	-26.7	-26.6	19.5	4.70e-06	0	57	0	4781506560	25	13876
2026-01-26 00:09:21.06	244.32	18.92	-26.6	-26.4	19.6	9.50e-06	0	57	0	5117050880	25	13600
2026-01-26 00:09:24.09	245.31	19.14	-26.5	-26.4	19.6	0.00e+00	0	57	0	5452595200	24	14338
2026-01-26 00:09:27.11	246.31	19.36	-26.5	-26.3	19.6	1.43e-05	0	57	0	5796528128	24	14242
2026-01-26 00:09:30.12	247.32	19.57	-26.4	-26.3	19.7	4.70e-06	0	57	0	6132072448	24	14189
2026-01-26 00:09:33.14	248.36	19.77	-26.3	-26.2	19.7	4.70e-06	0	57	0	6467616768	24	14010
2026-01-26 00:09:36.16	249.40	19.97	-26.3	-26.2	19.7	0.00e+00	0	57	0	6819938304	24	13951
2026-01-26 00:09:39.18	250.46	20.15	-26.1	-25.9	19.8	0.00e+00	0	57	0	7155482624	24	13625
2026-01-26 00:09:42.21	251.54	20.34	-26.3	-26.1	19.8	4.70e-06	0	57	0	7491026944	24	13946
2026-01-26 00:09:45.24	252.63	20.51	-26.1	-26.0	19.8	0.00e+00	0	58	0	7826571264	24	13680
2026-01-26 00:09:48.26	253.74	20.68	-26.1	-25.9	19.8	0.00e+00	0	58	0	8178892800	23	14398
2026-01-26 00:09:51.29	254.86	20.84	-26.1	-26.0	19.8	0.00e+00	0	58	0	8514437120	23	14542
2026-01-26 00:09:54.31	255.98	20.99	-26.0	-25.9	19.9	0.00e+00	0	58	0	8858370048	23	14361
2026-01-26 00:09:57.34	257.13	21.13	-26.2	-26.1	19.8	0.00e+00	0	58	0	9193914368	23	14703
2026-01-26 00:10:00.36	258.28	21.26	-26.1	-25.9	19.6	0.00e+00	0	58	0	9537847296	23	14427
2026-01-26 00:10:03.38	259.44	21.38	-26.0	-25.9	19.6	0.00e+00	0	58	0	9881780224	23	14368
2026-01-26 00:10:06.40	260.61	21.49	-26.4	-26.3	19.6	1.43e-05	0	58	0	10217324544	23	15053
2026-01-26 00:10:09.42	261.79	21.59	-26.4	-26.3	19.4	4.70e-06	0	58	0	10552868864	23	14975
2026-01-26 00:10:12.45	262.98	21.68	-26.0	-25.9	19.8	1.43e-05	0	58	0	10905190400	23	14299
2026-01-26 00:10:15.47	264.17	21.75	-26.7	-26.6	19.2	0.00e+00	0	58	0	11240734720	24	14641
2026-01-26 00:10:18.50	265.38	21.82	-26.6	-26.5	19.7	4.70e-06	0	58	0	11576279040	24	14466
2026-01-26 00:10:21.52	266.58	21.88	-26.5	-26.4	19.8	4.70e-06	0	58	0	11911823360	24	14312
2026-01-26 00:10:24.55	267.80	21.92	-25.9	-25.8	20.0	0.00e+00	0	58	0	12264144896	23	14142
2026-01-26 00:10:27.57	269.01	21.95	-27.1	-27.0	19.5	0.00e+00	0	58	0	12599689216	24	15390
2026-01-26 00:10:30.60	270.23	21.97	-25.7	-25.6	20.1	0.00e+00	0	58	0	12935233536	23	13848
2026-01-26 00:10:33.62	271.44	21.98	-26.0	-25.8	20.0	4.70e-06	0	58	0	13279166464	23	14261
2026-01-26 00:10:36.64	272.66	21.97	-25.8	-25.6	20.0	9.50e-06	0	58	0	13614710784	23	13895
2026-01-26 00:10:39.66	273.87	21.96	-25.7	-25.6	20.1	0.00e+00	0	58	0	13958643712	23	13872
2026-01-26 00:10:42.68	275.09	21.93	-26.0	-25.8	20.0	0.00e+00	0	58	0	14302576640	23	14241
2026-01-26 00:10:45.70	276.30	21.89	-25.7	-25.6	20.1	9.50e-06	0	58	0	14638120960	23	13848
2026-01-26 00:10:48.73	277.50	21.83	-25.8	-25.7	20.1	0.00e+00	0	58	0	14973665280	23	14008
2026-01-26 00:10:51.76	278.71	21.77	-25.9	-25.8	20.0	0.00e+00	0	58	0	15325986816	23	14173
2026-01-26 00:10:54.78	279.90	21.70	-26.0	-25.8	20.0	0.00e+00	0	58	0	15661531136	23	14228
2026-01-26 00:10:57.80	281.09	21.61	-26.0	-25.9	20.0	0.00e+00	0	58	0	15997075456	23	14382
2026-01-26 00:11:00.83	282.27	21.51	-25.9	-25.7	20.1	0.00e+00	0	58	0	16332619776	23	14102
2026-01-26 00:11:03.85	283.44	21.41	-26.0	-25.9	20.0	0.00e+00	0	58	0	16684941312	23	14347
2026-01-26 00:11:06.88	284.61	21.29	-26.0	-25.8	20.0	9.50e-06	0	58	0	17020485632	23	14255
2026-01-26 00:11:09.89	285.76	21.16	-26.1	-25.9	20.0	0.00e+00	0	58	0	17356029952	23	14386
2026-01-26 00:11:12.92	286.90	21.02	-26.0	-25.9	20.0	0.00e+00	0	58	0	17699962880	23	14354
2026-01-26 00:11:15.94	288.03	20.88	-26.3	-26.1	20.0	0.00e+00	0	58	0	18035507200	23	14737
2026-01-26 00:11:18.96	289.14	20.72	-26.1	-26.0	20.0	0.00e+00	0	58	0	18379440128	23	14455
2026-01-26 00:11:21.98	290.24	20.56	-26.4	-26.2	19.9	4.70e-06	0	58	0	18723373056	23	14904
2026-01-26 00:11:25.00	291.33	20.38	-26.5	-26.4	19.8	0.00e+00	0	58	0	19058917376	23	15126
2026-01-26 00:11:28.03	292.41	20.20	-26.3	-26.2	19.9	0.00e+00	0	58	0	19394461696	23	14818
2026-01-26 00:11:31.04	293.47	20.02	-26.4	-26.3	19.9	4.70e-06	0	58	0	19746783232	23	14972
2026-01-26 00:11:34.06	294.52	19.82	-26.6	-26.4	19.9	9.50e-06	0	58	0	20082327552	23	15235
2026-01-26 00:11:37.08	295.55	19.62	-26.5	-26.4	19.9	0.00e+00	0	58	0	20417871872	23	15202
2026-01-26 00:11:40.11	296.57	19.42	-26.8	-26.7	19.7	0.00e+00	0	58	0	20753416192	24	14872
2026-01-26 00:11:43.13	297.57	19.20	-26.6	-26.4	19.9	9.50e-06	0	58	0	21097349120	24	14421
2026-01-26 00:11:46.13	298.55	18.99	-26.7	-26.6	19.8	4.70e-06	0	58	0	21432893440	24	14673
2026-01-26 00:11:49.15	299.51	18.77	-26.8	-26.7	19.8	4.70e-06	0	58	0	21776826368	24	14830
2026-01-26 00:11:52.17	300.47	18.54	-27.0	-26.9	19.7	0.00e+00	0	58	0	22120759296	24	15144
2026-01-26 00:11:55.19	301.40	18.31	-27.0	-26.9	19.6	4.70e-06	0	58	0	22456303616	24	15194
2026-01-26 00:11:58.21	302.32	18.07	-27.2	-27.0	19.6	4.70e-06	0	58	0	22791847936	24	15411
2026-01-26 00:12:01.23	303.23	17.84	-27.4	-27.2	19.5	4.70e-06	0	58	0	23127392256	25	14930
2026-01-26 00:12:04.25	304.12	17.59	-27.4	-27.2	19.5	1.43e-05	0	58	0	23479713792	25	14942
2026-01-26 00:12:07.27	304.99	17.35	-27.6	-27.5	19.4	2.38e-05	0	58	0	23815258112	25	15325
2026-01-26 00:12:10.29	305.84	17.10	-27.8	-27.6	19.3	4.70e-06	0	59	0	24150802432	26	14764
2026-01-26 00:12:13.31	306.69	16.85	-27.9	-27.8	19.3	4.29e-05	0	58	0	24494735360	26	14983
2026-01-26 00:12:16.34	307.51	16.60	-28.1	-28.0	19.1	4.29e-05	0	58	0	24838668288	26	15323
2026-01-26 00:12:19.37	308.32	16.35	-28.2	-28.1	19.1	4.76e-05	0	58	0	25174212608	26	15486
2026-01-26 00:12:22.39	309.12	16.10	-28.3	-28.2	19.1	3.81e-05	0	58	0	25518145536	27	14843
2026-01-26 00:12:25.42	309.90	15.84	-28.4	-28.3	19.0	5.24e-05	0	58	0	25853689856	27	15063
2026-01-26 00:12:28.44	310.66	15.58	-28.6	-28.5	18.9	8.10e-05	0	59	0	26189234176	27	15399
2026-01-26 00:12:31.46	311.41	15.33	-28.6	-28.4	18.8	7.62e-05	0	58	0	26541555712	28	14410
2026-01-26 00:12:34.49	312.15	15.07	-28.8	-28.7	18.7	8.10e-05	0	58	0	26877100032	28	14846
2026-01-26 00:12:37.51	312.86	14.81	-28.9	-28.7	18.7	1.24e-04	0	59	0	27212644352	28	14911
2026-01-26 00:12:40.53	313.57	14.55	-29.0	-28.8	18.6	1.24e-04	0	59	0	27548188672	28	15102
2026-01-26 00:12:43.55	314.26	14.30	-29.3	-29.2	18.4	1.76e-04	0	58	0	27900510208	29	14824
2026-01-26 00:12:46.58	314.94	14.04	-29.4	-29.3	18.3	1.86e-04	0	58	0	28236054528	29	15065
2026-01-26 00:12:49.60	315.60	13.78	-29.4	-29.3	18.3	1.76e-04	0	58	0	28571598848	29	15082
2026-01-26 00:12:52.61	316.25	13.53	-29.5	-29.4	18.3	2.38e-04	0	59	0	28915531776	29	15252
2026-01-26 00:12:55.64	316.89	13.27	-51.0	-52.3	6.6	2.53e-04	0	58	104	29209133056	72	17900
2026-01-26 00:12:58.66	317.52	13.01	-53.3	-55.5	6.2	2.53e-04	0	57	104	29209133056	77	19442
2026-01-26 00:13:01.68	318.13	12.76	-53.4	-55.6	6.2	2.62e-04	0	57	104	29209133056	77	19556
2026-01-26 00:13:04.70	318.73	12.51	-53.4	-55.5	6.2	2.62e-04	0	57	104	29209133056	77	19439
2026-01-26 00:13:07.73	319.32	12.25	-53.4	-55.5	6.2	2.62e-04	0	57	104	29209133056	77	19470
2026-01-26 00:13:10.76	319.90	12.00	-53.3	-55.5	6.2	2.62e-04	0	57	104	29209133056	77	19275
2026-01-26 00:13:13.79	320.47	11.75	-53.3	-55.5	6.2	2.62e-04	0	57	104	29209133056	77	19307
2026-01-26 00:13:16.80	321.02	11.50	-53.3	-55.4	6.2	2.62e-04	0	56	104	29209133056	77	19218
2026-01-26 00:13:19.82	321.56	11.25	-53.3	-55.4	6.2	0.00e+00	0	56	104	29209133056	77	19143
2026-01-26 00:13:22.85	322.10	11.00	-53.2	-55.4	6.2	0.00e+00	0	56	104	29209133056	77	19087
2026-01-26 00:13:25.87	322.62	10.76	-53.3	-55.4	6.2	0.00e+00	0	56	104	29209133056	77	19186
2026-01-26 00:13:28.89	323.13	10.52	-53.2	-55.3	6.2	0.00e+00	0	56	104	29209133056	77	18977
2026-01-26 00:13:31.92	323.64	10.27	-53.2	-55.3	6.2	0.00e+00	0	56	104	29209133056	77	18958
2026-01-26 00:13:34.94	324.13	10.03	-53.1	-55.3	6.2	0.00e+00	0	56	104	29209133056	77	18852
2026-01-26 00:13:37.97	324.61	9.79	-53.2	-55.3	6.2	0.00e+00	0	56	104	29209133056	77	18935
2026-01-26 00:13:40.99	325.09	9.55	-53.1	-55.2	6.2	0.00e+00	0	56	104	29209133056	77	18793
2026-01-26 00:13:44.01	325.55	9.32	-53.1	-55.2	6.2	0.00e+00	0	56	104	29209133056	77	18774
2026-01-26 00:13:47.03	326.01	9.08	-53.0	-55.2	6.2	0.00e+00	0	56	104	29209133056	77	18719
2026-01-26 00:13:50.06	326.46	8.85	-53.1	-55.3	6.2	0.00e+00	0	56	104	29209133056	77	18854
2026-01-26 00:13:53.08	326.90	8.62	-53.0	-55.1	6.2	0.00e+00	0	56	104	29209133056	77	18486
2026-01-26 00:13:56.10	327.33	8.39	-53.0	-55.2	6.2	0.00e+00	0	56	104	29209133056	77	18619
2026-01-26 00:13:59.13	327.75	8.16	-52.9	-55.1	6.2	0.00e+00	0	56	104	29209133056	77	18448
2026-01-26 00:14:02.15	328.17	7.93	-53.0	-55.1	6.2	0.00e+00	0	56	104	29209133056	77	18546
2026-01-26 00:14:05.17	328.57	7.70	-52.9	-55.0	6.2	0.00e+00	0	56	104	29209133056	77	18383
2026-01-26 00:14:08.20	328.98	7.48	-52.9	-55.1	6.2	0.00e+00	0	55	104	29209133056	77	18411
2026-01-26 00:14:11.22	329.37	7.26	-52.8	-55.0	6.2	0.00e+00	0	55	104	29209133056	77	18250
2026-01-26 00:14:14.24	329.76	7.04	-52.9	-55.0	6.2	0.00e+00	0	55	104	29209133056	77	18234
2026-01-26 00:14:17.27	330.14	6.82	-52.8	-54.9	6.2	0.00e+00	0	55	104	29209133056	77	18096
2026-01-26 00:14:20.29	330.51	6.60	-52.8	-54.9	6.2	0.00e+00	0	55	104	29209133056	77	18013
2026-01-26 00:14:23.31	330.87	6.38	-52.7	-54.8	6.2	0.00e+00	0	55	104	29209133056	77	17963
2026-01-26 00:14:26.33	331.23	6.17	-52.6	-54.7	6.2	0.00e+00	0	55	104	29209133056	76	18625
2026-01-26 00:14:29.36	331.59	5.96	-52.7	-54.7	6.2	0.00e+00	0	55	104	29209133056	76	18738
2026-01-26 00:14:32.38	331.94	5.74	-50.0	-51.4	6.3	0.00e+00	0	55	104	29209133056	71	17111
2026-01-26 00:14:35.40	332.28	5.54	-52.6	-54.7	6.2	0.00e+00	0	55	104	29209133056	75	19803
2026-01-26 00:14:38.42	332.61	5.33	-51.6	-53.6	6.2	0.00e+00	0	55	104	29209133056	74	18414
2026-01-26 00:14:41.44	332.94	5.12	-48.3	-49.0	7.0	0.00e+00	0	55	104	29209133056	68	15451
2026-01-26 00:14:44.46	333.27	4.91	-53.0	-55.2	6.2	0.00e+00	0	55	104	29209133056	76	19716
2026-01-26 00:14:47.49	333.59	4.71	-53.6	-55.7	6.2	0.00e+00	0	55	104	29209133056	77	19787
2026-01-26 00:14:50.51	333.90	4.51	-53.8	-55.9	6.2	0.00e+00	0	55	104	29209133056	78	19195
2026-01-26 00:14:53.54	334.21	4.31	-53.8	-55.9	6.2	0.00e+00	0	55	104	29209133056	78	19062
2026-01-26 00:14:56.56	334.51	4.11	-53.6	-55.7	6.2	0.00e+00	0	55	104	29209133056	78	18682
2026-01-26 00:14:59.59	334.81	3.91	-53.7	-55.8	6.2	0.00e+00	0	55	104	29209133056	78	18898
2026-01-26 00:15:02.62	335.11	3.71	-53.7	-55.8	6.2	0.00e+00	0	55	104	29209133056	78	18999
2026-01-26 00:15:05.65	335.40	3.51	-53.7	-55.8	6.2	0.00e+00	0	55	104	29209133056	78	18844
2026-01-26 00:15:08.66	335.68	3.32	-53.6	-55.7	6.2	0.00e+00	0	55	104	29209133056	78	18705
2026-01-26 00:15:11.68	335.96	3.13	-53.6	-55.7	6.2	0.00e+00	0	55	104	29209133056	78	18651
2026-01-26 00:15:14.71	336.24	2.93	-53.6	-55.7	6.2	0.00e+00	0	55	104	29209133056	78	18650
2026-01-26 00:15:17.74	336.51	2.74	-53.5	-55.6	6.2	0.00e+00	0	55	104	29209133056	78	18553
2026-01-26 00:15:20.76	336.78	2.55	-53.5	-55.6	6.2	0.00e+00	0	55	104	29209133056	78	18546
2026-01-26 00:15:23.79	337.04	2.37	-53.5	-55.6	6.2	0.00e+00	0	55	104	29209133056	78	18472
2026-01-26 00:15:26.81	337.30	2.18	-53.5	-55.6	6.2	0.00e+00	0	55	104	29209133056	78	18496
2026-01-26 00:15:29.83	337.56	1.99	-53.5	-55.6	6.2	0.00e+00	0	55	104	29209133056	78	18533

#Closed at: 2026-01-26 00:15:30
#Recorded file [29209 MB]: D:/lorett/data/31041_260126_030540.dat