passes_logs/2026/01/26/R3.2S_Murmansk/R3.2S_Murmansk__20260126_081720_KANOPUS-V_5_rec.log

#Pass ID: 20260126_081720_KANOPUS-V 5
#Satellite: KANOPUS-V 5
#Configuration: KANOPUS-V_8320
#almurnet v.1.7.20251203
#Start time: 2026-01-26 08:17:21

#Version: 2.2.20231116
#Station: R3.2S_Murmansk
#Location: 33.079688 lon 68.888172 lat
#TLE: 1 43876U 18111A   26026.00801652  .00005574  00000+0  23616-3 0  9999
#TLE: 2 43876  97.3673 294.3234 0001826  89.2210 270.9236 15.23545039393147

#Time	Az	El	Level	Level2	SNR	BER	BlckErr	Temp	State	Recorded	gain1	gain2
2026-01-26 08:17:21.60	174.01	2.07	-49.1	-58.0	3.8	7.46e-01	0	41	0	0	68	10824
2026-01-26 08:17:24.63	174.12	2.29	-49.2	-58.0	3.8	7.46e-01	0	42	104	0	69	10206
2026-01-26 08:17:27.65	174.22	2.50	-49.1	-58.0	3.8	7.46e-01	0	42	104	0	69	10227
2026-01-26 08:17:30.67	174.32	2.71	-49.1	-58.0	3.8	7.45e-01	0	42	104	0	69	10204
2026-01-26 08:17:33.70	174.43	2.93	-49.2	-58.0	3.8	7.46e-01	0	42	104	0	69	10216
2026-01-26 08:17:36.72	174.54	3.15	-49.2	-58.0	3.8	7.45e-01	0	42	104	0	69	10228
2026-01-26 08:17:39.75	174.65	3.37	-49.1	-58.0	3.8	7.44e-01	0	42	104	0	69	10215
2026-01-26 08:17:42.77	174.77	3.60	-49.1	-58.0	3.8	7.45e-01	0	42	104	0	69	10205
2026-01-26 08:17:45.80	174.88	3.82	-49.1	-58.0	3.8	7.47e-01	0	42	104	0	69	10231
2026-01-26 08:17:48.82	175.00	4.05	-49.2	-58.0	3.8	7.44e-01	0	42	104	0	69	10195
2026-01-26 08:17:51.85	175.12	4.28	-49.2	-58.0	3.8	7.46e-01	0	42	104	0	69	10213
2026-01-26 08:17:54.87	175.24	4.52	-49.2	-58.0	3.8	7.46e-01	0	42	104	0	69	10235
2026-01-26 08:17:57.89	175.37	4.75	-49.2	-58.0	3.8	7.46e-01	0	42	104	0	69	10228
2026-01-26 08:18:00.91	175.49	4.99	-49.2	-58.0	3.8	7.45e-01	0	43	104	0	69	10224
2026-01-26 08:18:03.94	175.62	5.24	-49.2	-58.0	3.8	7.45e-01	0	43	104	0	69	10233
2026-01-26 08:18:06.96	175.75	5.48	-49.2	-58.0	3.8	7.45e-01	0	42	104	0	69	10227
2026-01-26 08:18:09.98	175.89	5.73	-49.2	-58.0	3.8	7.44e-01	0	43	104	0	69	10218
2026-01-26 08:18:13.01	176.02	5.98	-49.2	-58.0	3.8	7.47e-01	0	43	104	0	69	10189
2026-01-26 08:18:16.03	176.16	6.24	-49.2	-58.0	3.8	7.47e-01	0	43	104	0	69	10221
2026-01-26 08:18:19.05	176.31	6.50	-49.2	-58.0	3.8	7.47e-01	0	43	104	0	69	10217
2026-01-26 08:18:22.07	176.45	6.76	-49.2	-58.0	3.8	7.44e-01	0	43	104	0	69	10202
2026-01-26 08:18:25.09	176.60	7.02	-49.2	-58.0	3.8	7.45e-01	0	43	104	0	69	10197
2026-01-26 08:18:28.12	176.75	7.29	-49.2	-58.0	3.8	7.45e-01	0	43	104	0	69	10180
2026-01-26 08:18:31.15	176.91	7.56	-49.2	-58.0	3.8	7.45e-01	0	43	104	0	69	10230
2026-01-26 08:18:34.18	177.07	7.84	-49.2	-58.0	3.8	7.45e-01	0	43	104	0	69	10202
2026-01-26 08:18:37.20	177.23	8.12	-49.2	-58.0	3.8	7.46e-01	0	43	104	0	69	10241
2026-01-26 08:18:40.23	177.39	8.41	-49.2	-58.0	3.8	7.45e-01	0	43	104	0	69	10208
2026-01-26 08:18:43.25	177.56	8.69	-49.2	-58.0	3.8	7.44e-01	0	43	104	0	69	10218
2026-01-26 08:18:46.27	177.74	8.99	-49.2	-58.0	3.8	7.45e-01	0	43	104	0	69	10228
2026-01-26 08:18:49.30	177.91	9.28	-49.2	-58.0	3.8	7.46e-01	0	43	104	0	69	10185
2026-01-26 08:18:52.32	178.10	9.59	-49.2	-58.0	3.8	7.45e-01	0	43	104	0	69	10211
2026-01-26 08:18:55.35	178.28	9.89	-49.2	-58.0	3.8	7.45e-01	0	43	104	0	69	10219
2026-01-26 08:18:58.37	178.47	10.20	-49.2	-58.0	3.8	7.44e-01	0	43	104	0	69	10219
2026-01-26 08:19:01.39	178.67	10.52	-49.2	-58.0	3.8	7.47e-01	0	43	104	0	69	10241
2026-01-26 08:19:04.42	178.87	10.84	-49.2	-58.0	3.8	7.45e-01	0	43	104	0	69	10203
2026-01-26 08:19:07.44	179.08	11.17	-49.2	-58.0	3.8	7.46e-01	0	43	104	0	69	10232
2026-01-26 08:19:10.46	179.29	11.50	-49.2	-58.0	3.8	7.46e-01	0	43	104	0	69	10223
2026-01-26 08:19:13.49	179.51	11.84	-49.2	-58.0	3.8	7.46e-01	0	44	104	0	69	10257
2026-01-26 08:19:16.52	179.73	12.19	-49.2	-58.0	3.8	7.45e-01	0	44	104	0	69	10213
2026-01-26 08:19:19.54	179.96	12.54	-49.2	-58.0	3.8	7.44e-01	0	43	104	0	69	10216
2026-01-26 08:19:22.57	180.19	12.90	-49.2	-58.0	3.8	7.45e-01	0	44	104	0	69	10217
2026-01-26 08:19:25.59	180.44	13.27	-49.2	-58.0	3.8	7.45e-01	0	43	104	0	69	10243
2026-01-26 08:19:28.61	180.69	13.64	-49.2	-58.0	3.8	7.45e-01	0	44	104	0	69	10225
2026-01-26 08:19:31.64	180.94	14.02	-49.2	-58.0	3.8	7.46e-01	0	44	104	0	69	10201
2026-01-26 08:19:34.67	181.21	14.40	-49.2	-58.0	3.8	7.44e-01	0	44	104	0	69	10220
2026-01-26 08:19:37.69	181.48	14.80	-49.2	-58.0	3.8	7.45e-01	0	44	104	0	69	10253
2026-01-26 08:19:40.71	181.76	15.20	-49.2	-58.0	3.8	7.45e-01	0	44	104	0	69	10264
2026-01-26 08:19:43.73	182.05	15.61	-49.2	-58.0	3.8	7.46e-01	0	44	104	0	69	10249
2026-01-26 08:19:46.75	182.35	16.03	-49.2	-58.0	3.8	7.46e-01	0	44	104	0	69	10250
2026-01-26 08:19:49.77	182.66	16.46	-49.2	-58.0	3.8	7.44e-01	0	44	104	0	69	10259
2026-01-26 08:19:52.79	182.98	16.89	-49.2	-58.0	3.8	7.43e-01	0	44	104	0	69	10230
2026-01-26 08:19:55.82	183.31	17.34	-49.2	-58.0	3.8	7.44e-01	0	44	104	0	69	10211
2026-01-26 08:19:58.85	183.65	17.80	-49.2	-58.0	3.8	7.45e-01	0	44	104	0	69	10232
2026-01-26 08:20:01.86	184.00	18.27	-49.2	-58.0	3.8	7.46e-01	0	44	104	0	69	10225
2026-01-26 08:20:04.89	184.36	18.74	-49.2	-58.0	3.8	7.44e-01	0	44	104	0	69	10286
2026-01-26 08:20:07.91	184.74	19.23	-49.2	-58.0	3.8	7.43e-01	0	44	104	0	69	10215
2026-01-26 08:20:10.93	185.13	19.73	-49.2	-58.0	3.8	7.46e-01	0	44	104	0	69	10237
2026-01-26 08:20:13.95	185.54	20.24	-49.2	-58.0	3.8	7.46e-01	0	44	104	0	69	10240
2026-01-26 08:20:16.97	185.96	20.77	-49.2	-58.0	3.8	7.46e-01	0	44	104	0	69	10245
2026-01-26 08:20:20.00	186.40	21.31	-49.2	-58.0	3.8	7.45e-01	0	44	104	0	69	10222
2026-01-26 08:20:23.03	186.86	21.86	-49.2	-58.0	3.8	7.46e-01	0	44	104	0	69	10221
2026-01-26 08:20:26.05	187.33	22.42	-49.2	-58.0	3.8	7.44e-01	0	44	104	0	69	10229
2026-01-26 08:20:29.08	187.83	23.00	-49.2	-58.0	3.8	7.45e-01	0	44	104	0	69	10220
2026-01-26 08:20:32.10	188.34	23.59	-49.2	-58.0	3.8	7.46e-01	0	44	104	0	69	10187
2026-01-26 08:20:35.13	188.88	24.20	-49.2	-58.0	3.8	7.45e-01	0	44	104	0	69	10225
2026-01-26 08:20:38.15	189.44	24.82	-49.2	-58.0	3.8	7.45e-01	0	44	104	0	69	10220
2026-01-26 08:20:41.17	190.02	25.46	-49.2	-58.0	3.8	7.46e-01	0	44	104	0	69	10233
2026-01-26 08:20:44.19	190.63	26.12	-49.2	-58.0	3.8	7.45e-01	0	44	104	0	69	10224
2026-01-26 08:20:47.22	191.27	26.79	-49.2	-58.0	3.8	7.44e-01	0	44	104	0	69	10231
2026-01-26 08:20:50.25	191.94	27.48	-49.2	-58.0	3.8	7.43e-01	0	44	104	0	69	10229
2026-01-26 08:20:53.27	192.65	28.18	-49.2	-58.0	3.8	7.45e-01	0	44	104	0	69	10241
2026-01-26 08:20:56.29	193.38	28.91	-49.2	-58.0	3.8	7.43e-01	0	44	104	0	69	10230
2026-01-26 08:20:59.32	194.16	29.65	-49.2	-58.0	3.8	7.46e-01	0	44	104	0	69	10240
2026-01-26 08:21:02.34	194.97	30.41	-49.2	-58.0	3.8	7.45e-01	0	44	104	0	69	10217
2026-01-26 08:21:05.36	195.82	31.19	-49.2	-58.0	3.8	7.46e-01	0	44	104	0	69	10250
2026-01-26 08:21:08.38	196.72	31.98	-49.2	-58.0	3.8	7.47e-01	0	44	104	0	69	10223
2026-01-26 08:21:11.40	197.67	32.79	-49.2	-58.0	3.8	7.46e-01	0	44	104	0	69	10249
2026-01-26 08:21:14.42	198.67	33.63	-49.2	-58.0	3.8	7.45e-01	0	44	104	0	69	10219
2026-01-26 08:21:17.44	199.72	34.48	-49.2	-58.0	3.8	7.45e-01	0	44	104	0	69	10217
2026-01-26 08:21:20.47	200.84	35.34	-49.2	-58.0	3.8	7.45e-01	0	44	104	0	69	10223
2026-01-26 08:21:23.50	202.02	36.23	-49.2	-58.0	3.8	7.45e-01	0	44	104	0	69	10230
2026-01-26 08:21:26.52	203.27	37.12	-49.2	-58.0	3.8	7.46e-01	0	44	104	0	69	10216
2026-01-26 08:21:29.54	204.59	38.03	-49.2	-58.0	3.8	7.44e-01	0	44	104	0	69	10218
2026-01-26 08:21:32.57	206.00	38.96	-49.2	-58.0	3.8	7.45e-01	0	44	104	0	69	10205
2026-01-26 08:21:35.59	207.49	39.89	-49.2	-58.0	3.8	7.46e-01	0	44	104	0	69	10209
2026-01-26 08:21:38.61	209.07	40.83	-49.2	-58.0	3.8	7.46e-01	0	44	104	0	69	10220
2026-01-26 08:21:41.63	210.75	41.77	-49.2	-58.0	3.8	7.43e-01	0	44	104	0	69	10226
2026-01-26 08:21:44.65	212.53	42.71	-49.2	-58.0	3.8	7.44e-01	0	44	104	0	69	10247
2026-01-26 08:21:47.68	214.43	43.64	-49.2	-58.0	3.8	7.45e-01	0	44	104	0	69	10219
2026-01-26 08:21:50.70	216.44	44.57	-49.2	-58.0	3.8	7.44e-01	0	44	104	0	69	10238
2026-01-26 08:21:53.72	218.57	45.48	-49.2	-58.0	3.8	7.44e-01	0	44	104	0	69	10256
2026-01-26 08:21:56.74	220.83	46.37	-49.2	-58.0	3.8	7.46e-01	0	44	104	0	69	10195
2026-01-26 08:21:59.77	223.23	47.23	-49.2	-58.0	3.8	7.47e-01	0	44	104	0	69	10219
2026-01-26 08:22:02.79	225.76	48.05	-49.2	-58.0	3.8	7.44e-01	0	44	104	0	69	10209
2026-01-26 08:22:05.81	228.43	48.83	-49.2	-58.0	3.8	7.44e-01	0	44	104	0	69	10204
2026-01-26 08:22:08.83	231.23	49.55	-49.2	-58.0	3.8	7.45e-01	0	44	104	0	69	10235
2026-01-26 08:22:11.86	234.17	50.22	-49.2	-58.0	3.8	7.45e-01	0	44	104	0	69	10222
2026-01-26 08:22:14.88	237.24	50.81	-49.2	-58.0	3.8	7.46e-01	0	44	104	0	69	10239
2026-01-26 08:22:17.91	240.43	51.32	-49.2	-58.0	3.8	7.45e-01	0	44	104	0	69	10193
2026-01-26 08:22:20.93	243.71	51.75	-49.2	-58.0	3.8	7.46e-01	0	44	104	0	69	10221
2026-01-26 08:22:23.97	247.10	52.08	-49.2	-58.0	3.8	7.44e-01	0	44	104	0	69	10265
2026-01-26 08:22:26.99	250.53	52.31	-49.2	-58.0	3.8	7.45e-01	0	44	104	0	69	10212
2026-01-26 08:22:30.02	254.02	52.44	-49.2	-58.0	3.8	7.45e-01	0	44	104	0	69	10221
2026-01-26 08:22:33.04	257.51	52.46	-49.2	-58.0	3.8	7.46e-01	0	44	104	0	69	10214
2026-01-26 08:22:36.07	261.01	52.38	-49.2	-58.0	3.8	7.45e-01	0	44	104	0	69	10213
2026-01-26 08:22:39.10	264.47	52.19	-49.2	-58.0	3.8	7.45e-01	0	44	104	0	69	10222
2026-01-26 08:22:42.12	267.87	51.90	-49.2	-58.0	3.8	7.46e-01	0	44	104	0	69	10214
2026-01-26 08:22:45.15	271.20	51.51	-49.2	-58.0	3.8	7.45e-01	0	44	104	0	69	10265
2026-01-26 08:22:48.17	274.42	51.04	-49.2	-58.0	3.8	7.46e-01	0	44	104	0	69	10200
2026-01-26 08:22:51.19	277.52	50.48	-49.2	-58.0	3.8	7.46e-01	0	44	104	0	69	10210
2026-01-26 08:22:54.21	280.51	49.84	-49.2	-58.0	3.8	7.45e-01	0	44	104	0	69	10229
2026-01-26 08:22:57.24	283.37	49.14	-49.2	-58.0	3.8	7.44e-01	0	44	104	0	69	10238
2026-01-26 08:23:00.26	286.09	48.39	-49.2	-58.0	3.8	7.46e-01	0	44	104	0	69	10228
2026-01-26 08:23:03.28	288.68	47.59	-49.2	-58.0	3.8	7.45e-01	0	44	104	0	69	10244
2026-01-26 08:23:06.31	291.13	46.74	-49.2	-58.0	3.8	7.45e-01	0	44	104	0	69	10207
2026-01-26 08:23:09.33	293.44	45.87	-49.2	-58.0	3.8	7.46e-01	0	44	104	0	69	10199
2026-01-26 08:23:12.36	295.63	44.97	-49.2	-58.0	3.8	7.46e-01	0	44	104	0	69	10214
2026-01-26 08:23:15.38	297.68	44.05	-49.2	-58.0	3.8	7.46e-01	0	44	104	0	69	10248
2026-01-26 08:23:18.40	299.62	43.12	-49.2	-58.0	3.8	7.45e-01	0	44	104	0	69	10231
2026-01-26 08:23:21.42	301.45	42.19	-49.2	-58.0	3.8	7.45e-01	0	44	104	0	69	10216
2026-01-26 08:23:24.45	303.17	41.25	-49.2	-58.0	3.8	7.47e-01	0	44	104	0	69	10222
2026-01-26 08:23:27.47	304.79	40.31	-49.2	-58.0	3.8	7.46e-01	0	44	104	0	69	10223
2026-01-26 08:23:30.49	306.31	39.38	-49.2	-58.0	3.8	7.44e-01	0	44	104	0	69	10245
2026-01-26 08:23:33.52	307.75	38.46	-49.2	-58.0	3.8	7.45e-01	0	44	104	0	69	10231
2026-01-26 08:23:36.53	309.10	37.55	-49.1	-58.0	3.8	7.45e-01	0	44	104	0	69	10253
2026-01-26 08:23:39.56	310.38	36.65	-49.2	-58.0	3.8	7.44e-01	0	44	104	0	69	10223
2026-01-26 08:23:42.58	311.59	35.77	-49.1	-58.0	3.8	7.45e-01	0	44	104	0	69	10218
2026-01-26 08:23:45.61	312.73	34.89	-49.2	-58.0	3.8	7.45e-01	0	44	104	0	69	10221
2026-01-26 08:23:48.62	313.80	34.04	-49.2	-58.0	3.8	7.47e-01	0	44	104	0	69	10221
2026-01-26 08:23:51.64	314.82	33.21	-49.2	-58.0	3.8	7.46e-01	0	44	104	0	69	10218
2026-01-26 08:23:54.66	315.79	32.39	-49.2	-58.0	3.8	7.46e-01	0	44	104	0	69	10229
2026-01-26 08:23:57.69	316.71	31.59	-49.2	-58.0	3.8	7.47e-01	0	44	104	0	69	10213
2026-01-26 08:24:00.71	317.58	30.81	-49.2	-58.0	3.8	7.45e-01	0	44	104	0	69	10224
2026-01-26 08:24:03.73	318.41	30.04	-49.2	-58.0	3.8	7.46e-01	0	44	104	0	69	10242
2026-01-26 08:24:06.75	319.20	29.30	-49.2	-58.0	3.8	7.45e-01	0	44	104	0	69	10219
2026-01-26 08:24:09.78	319.95	28.57	-49.2	-58.0	3.8	7.44e-01	0	44	104	0	69	10244
2026-01-26 08:24:12.80	320.67	27.86	-49.1	-58.0	3.8	7.44e-01	0	44	104	0	69	10212
2026-01-26 08:24:15.82	321.35	27.16	-49.2	-58.0	3.8	7.46e-01	0	44	104	0	69	10192
2026-01-26 08:24:18.84	322.00	26.49	-49.2	-58.0	3.8	7.44e-01	0	44	104	0	69	10238
2026-01-26 08:24:21.87	322.62	25.83	-49.2	-58.0	3.8	7.44e-01	0	44	104	0	69	10215
2026-01-26 08:24:24.89	323.22	25.19	-49.2	-58.0	3.8	7.45e-01	0	44	104	0	69	10207
2026-01-26 08:24:27.91	323.79	24.56	-49.2	-58.0	3.8	7.45e-01	0	44	104	0	69	10215
2026-01-26 08:24:30.93	324.33	23.95	-49.2	-58.0	3.8	7.47e-01	0	44	104	0	69	10200
2026-01-26 08:24:33.95	324.86	23.35	-49.2	-58.0	3.8	7.46e-01	0	44	104	0	69	10200
2026-01-26 08:24:36.98	325.36	22.77	-49.2	-58.0	3.8	7.45e-01	0	44	104	0	69	10223
2026-01-26 08:24:40.00	325.84	22.20	-49.2	-58.0	3.8	7.47e-01	0	44	104	0	69	10203
2026-01-26 08:24:43.03	326.31	21.65	-49.2	-58.0	3.8	7.46e-01	0	44	104	0	69	10257
2026-01-26 08:24:46.06	326.75	21.11	-49.2	-58.0	3.8	7.46e-01	0	44	104	0	69	10192
2026-01-26 08:24:49.08	327.18	20.58	-49.2	-58.0	3.8	7.48e-01	0	44	104	0	69	10205
2026-01-26 08:24:52.10	327.60	20.06	-49.2	-58.0	3.8	7.45e-01	0	44	104	0	69	10236
2026-01-26 08:24:55.12	327.99	19.56	-49.2	-58.0	3.8	7.46e-01	0	44	104	0	69	10198
2026-01-26 08:24:58.15	328.38	19.07	-49.2	-58.0	3.8	7.44e-01	0	44	104	0	69	10214
2026-01-26 08:25:01.17	328.75	18.59	-49.2	-58.0	3.8	7.45e-01	0	44	104	0	69	10188
2026-01-26 08:25:04.19	329.11	18.12	-49.2	-58.0	3.8	7.44e-01	0	44	104	0	69	10210
2026-01-26 08:25:07.22	329.46	17.65	-49.2	-58.0	3.8	7.45e-01	0	44	104	0	69	10243
2026-01-26 08:25:10.25	329.79	17.20	-49.2	-58.0	3.8	7.47e-01	0	44	104	0	69	10238
2026-01-26 08:25:13.27	330.12	16.76	-49.2	-58.0	3.8	7.47e-01	0	44	104	0	69	10198
2026-01-26 08:25:16.30	330.43	16.33	-49.2	-58.0	3.8	7.45e-01	0	44	104	0	69	10252
2026-01-26 08:25:19.32	330.73	15.91	-49.1	-58.0	3.8	7.46e-01	0	44	104	0	69	10226
2026-01-26 08:25:22.34	331.03	15.50	-49.2	-58.0	3.8	7.45e-01	0	44	104	0	69	10206
2026-01-26 08:25:25.36	331.31	15.09	-49.1	-58.0	3.8	7.45e-01	0	44	104	0	69	10256
2026-01-26 08:25:28.39	331.59	14.70	-49.2	-58.0	3.8	7.43e-01	0	44	104	0	69	10250
2026-01-26 08:25:31.41	331.86	14.31	-49.2	-58.0	3.8	7.45e-01	0	44	104	0	69	10230
2026-01-26 08:25:34.43	332.12	13.93	-49.2	-58.0	3.8	7.46e-01	0	44	104	0	69	10243
2026-01-26 08:25:37.45	332.37	13.55	-49.2	-58.0	3.8	7.45e-01	0	44	104	0	69	10235
2026-01-26 08:25:40.48	332.62	13.19	-49.1	-58.0	3.8	7.46e-01	0	44	104	0	69	10226
2026-01-26 08:25:43.50	332.86	12.83	-49.2	-58.0	3.8	7.45e-01	0	44	104	0	69	10217
2026-01-26 08:25:46.52	333.09	12.47	-49.1	-58.0	3.8	7.45e-01	0	44	104	0	69	10191
2026-01-26 08:25:49.54	333.32	12.13	-49.2	-58.0	3.8	7.44e-01	0	44	104	0	69	10195
2026-01-26 08:25:52.57	333.54	11.79	-49.2	-58.0	3.8	7.46e-01	0	44	104	0	69	10232
2026-01-26 08:25:55.60	333.75	11.45	-49.2	-58.0	3.8	7.47e-01	0	44	104	0	69	10221
2026-01-26 08:25:58.62	333.96	11.12	-49.2	-58.0	3.8	7.45e-01	0	44	104	0	69	10229
2026-01-26 08:26:01.65	334.17	10.80	-49.2	-58.0	3.8	7.46e-01	0	44	104	0	69	10220
2026-01-26 08:26:04.67	334.37	10.48	-49.2	-58.0	3.8	7.45e-01	0	44	104	0	69	10227
2026-01-26 08:26:07.70	334.56	10.16	-49.2	-58.0	3.8	7.46e-01	0	44	104	0	69	10250
2026-01-26 08:26:10.72	334.75	9.86	-49.2	-58.0	3.8	7.45e-01	0	44	104	0	69	10232
2026-01-26 08:26:13.74	334.94	9.55	-49.2	-58.0	3.8	7.43e-01	0	44	104	0	69	10203
2026-01-26 08:26:16.76	335.12	9.26	-49.2	-58.0	3.8	7.45e-01	0	44	104	0	69	10217
2026-01-26 08:26:19.78	335.29	8.96	-49.2	-58.0	3.8	7.45e-01	0	44	104	0	69	10237
2026-01-26 08:26:22.81	335.47	8.67	-49.2	-58.0	3.8	7.47e-01	0	44	104	0	69	10216
2026-01-26 08:26:25.83	335.63	8.39	-49.2	-58.0	3.8	7.46e-01	0	44	104	0	69	10192
2026-01-26 08:26:28.85	335.80	8.11	-49.2	-58.0	3.8	7.45e-01	0	44	104	0	69	10199
2026-01-26 08:26:31.87	335.96	7.83	-49.2	-58.0	3.8	7.46e-01	0	44	104	0	69	10233
2026-01-26 08:26:34.89	336.12	7.55	-49.2	-58.0	3.8	7.46e-01	0	44	104	0	69	10210
2026-01-26 08:26:37.91	336.27	7.29	-49.2	-58.0	3.8	7.45e-01	0	44	104	0	69	10230
2026-01-26 08:26:40.94	336.42	7.02	-49.2	-58.0	3.8	7.45e-01	0	44	104	0	69	10211
2026-01-26 08:26:43.96	336.57	6.76	-49.2	-58.0	3.8	7.45e-01	0	44	104	0	69	10250
2026-01-26 08:26:46.98	336.72	6.50	-49.2	-58.0	3.8	7.45e-01	0	44	104	0	69	10278
2026-01-26 08:26:50.00	336.86	6.24	-49.2	-58.0	3.8	7.45e-01	0	44	104	0	69	10206
2026-01-26 08:26:53.02	337.00	5.99	-49.2	-58.0	3.8	7.44e-01	0	44	104	0	69	10231
2026-01-26 08:26:56.05	337.14	5.74	-49.2	-58.0	3.8	7.46e-01	0	44	104	0	69	10216
2026-01-26 08:26:59.08	337.27	5.49	-49.2	-58.0	3.8	7.47e-01	0	44	104	0	69	10201
2026-01-26 08:27:02.09	337.40	5.25	-49.2	-58.0	3.8	7.46e-01	0	44	104	0	69	10192
2026-01-26 08:27:05.12	337.53	5.01	-49.2	-58.0	3.8	7.43e-01	0	44	104	0	69	10224
2026-01-26 08:27:08.14	337.66	4.77	-49.2	-58.0	3.8	7.45e-01	0	44	104	0	69	10239
2026-01-26 08:27:11.17	337.78	4.54	-49.2	-58.0	3.8	7.44e-01	0	44	104	0	69	10236
2026-01-26 08:27:14.19	337.91	4.31	-49.2	-58.0	3.8	7.43e-01	0	44	104	0	69	10196
2026-01-26 08:27:17.21	338.03	4.08	-49.2	-58.0	3.8	7.47e-01	0	44	104	0	69	10247
2026-01-26 08:27:20.24	338.14	3.85	-49.2	-58.0	3.8	7.46e-01	0	44	104	0	69	10244
2026-01-26 08:27:23.27	338.26	3.62	-49.2	-58.0	3.8	7.46e-01	0	44	104	0	69	10213
2026-01-26 08:27:26.29	338.38	3.40	-49.2	-58.0	3.8	7.45e-01	0	44	104	0	69	10240
2026-01-26 08:27:29.33	338.49	3.18	-49.2	-58.0	3.8	7.46e-01	0	44	104	0	69	10228
2026-01-26 08:27:32.34	338.60	2.96	-49.2	-58.0	3.8	7.46e-01	0	44	104	0	69	10249
2026-01-26 08:27:35.37	338.71	2.75	-49.2	-58.0	3.8	7.45e-01	0	44	104	0	69	10189
2026-01-26 08:27:38.39	338.81	2.54	-49.2	-58.0	3.8	7.45e-01	0	44	104	0	69	10225
2026-01-26 08:27:41.41	338.92	2.32	-49.2	-58.0	3.8	7.45e-01	0	44	104	0	69	10245
2026-01-26 08:27:44.43	339.02	2.11	-49.2	-58.0	3.8	7.45e-01	0	44	104	0	69	10206

#Closed at: 2026-01-26 08:27:47
#Recorded file [0 MB]: D:/lorett/data/31041_260126_111721.dat