passes_logs/2026/01/26/R3.2S_Murmansk/R3.2S_Murmansk__20260126_230607_SUOMI_NPP_rec.log

#Pass ID: 20260126_230607_SUOMI NPP
#Satellite: SUOMI NPP
#Configuration: NPP
#almurnet v.1.7.20251203
#Start time: 2026-01-26 23:06:08

#Version: 2.2.20231116
#Station: R3.2S_Murmansk
#Location: 33.079688 lon 68.888172 lat
#TLE: 1 37849U 11061A   26026.52266023  .00000173  00000+0  10323-3 0  9994
#TLE: 2 37849  98.7822 328.4727 0002140  43.9411 316.1934 14.19530258738341

#Time	Az	El	Level	Level2	SNR	BER	BlckErr	Temp	State	Recorded	gain1	gain2
2026-01-26 23:06:08.79	19.97	2.10	-54.1	-69.1	3.8	1.49e+00	0	41	0	0	79	20671
2026-01-26 23:06:12.82	20.18	2.34	-54.3	-69.3	3.8	1.49e+00	0	41	104	0	79	21067
2026-01-26 23:06:16.85	20.39	2.58	-54.2	-69.1	3.8	1.49e+00	0	41	104	0	79	20723
2026-01-26 23:06:20.87	20.60	2.83	-54.0	-69.0	3.8	1.49e+00	0	42	104	0	79	20514
2026-01-26 23:06:24.90	20.82	3.07	-53.7	-68.7	3.8	1.49e+00	0	41	104	0	79	19622
2026-01-26 23:06:28.93	21.04	3.32	-52.9	-67.9	3.8	1.49e+00	0	41	104	0	77	20110
2026-01-26 23:06:32.97	21.26	3.57	-52.2	-66.4	3.8	1.49e+00	0	42	104	0	76	18025
2026-01-26 23:06:37.00	21.49	3.82	-52.1	-65.5	3.8	1.49e+00	0	42	104	0	76	16255
2026-01-26 23:06:41.02	21.71	4.08	-51.2	-57.7	8.1	9.63e-02	0	42	0	4194304	74	7389
2026-01-26 23:06:45.05	21.95	4.33	-49.5	-53.1	13.0	4.04e-05	0	42	0	11534336	70	5503
2026-01-26 23:06:49.08	22.18	4.59	-48.8	-51.9	14.2	7.00e-07	0	42	0	18874368	69	5055
2026-01-26 23:06:53.10	22.42	4.85	-50.6	-55.8	10.1	3.46e-03	0	42	0	27262976	71	7085
2026-01-26 23:06:57.13	22.67	5.11	-49.9	-53.9	12.2	6.23e-04	0	42	0	34603008	71	5710
2026-01-26 23:07:01.16	22.92	5.38	-48.7	-51.5	14.6	0.00e+00	0	42	0	37748736	68	5142
2026-01-26 23:07:05.19	23.17	5.64	-48.6	-51.4	14.9	7.00e-07	0	42	0	45088768	68	5071
2026-01-26 23:07:09.22	23.43	5.91	-48.9	-51.8	14.5	0.00e+00	0	42	0	52428800	68	5289
2026-01-26 23:07:13.25	23.69	6.18	-48.2	-50.8	15.6	0.00e+00	0	42	0	60817408	68	4722
2026-01-26 23:07:17.28	23.96	6.46	-48.2	-50.6	15.8	0.00e+00	0	42	0	68157440	68	4620
2026-01-26 23:07:21.31	24.23	6.73	-48.2	-50.7	15.6	0.00e+00	0	42	0	75497472	67	4943
2026-01-26 23:07:25.35	24.50	7.01	-47.5	-49.6	16.7	0.00e+00	0	42	0	82837504	67	4390
2026-01-26 23:07:29.38	24.78	7.29	-47.5	-49.6	16.7	0.00e+00	0	42	0	90177536	66	4635
2026-01-26 23:07:33.40	25.07	7.58	-47.0	-48.9	17.5	0.00e+00	0	43	0	98566144	66	4282
2026-01-26 23:07:37.43	25.36	7.86	-47.2	-49.2	17.2	0.00e+00	0	42	0	105906176	66	4410
2026-01-26 23:07:41.46	25.66	8.15	-47.2	-49.1	17.3	0.00e+00	0	42	0	113246208	66	4382
2026-01-26 23:07:45.49	25.96	8.44	-47.2	-49.1	17.3	0.00e+00	0	42	0	120586240	65	4622
2026-01-26 23:07:49.52	26.27	8.74	-47.1	-49.0	17.5	0.00e+00	0	43	0	128974848	65	4584
2026-01-26 23:07:53.54	26.58	9.03	-46.7	-48.5	18.0	0.00e+00	0	42	0	136314880	65	4322
2026-01-26 23:07:57.57	26.90	9.33	-46.5	-48.2	18.3	0.00e+00	0	43	0	143654912	64	4419
2026-01-26 23:08:01.60	27.23	9.64	-46.3	-47.9	18.6	0.00e+00	0	43	0	150994944	64	4277
2026-01-26 23:08:05.63	27.56	9.94	-46.4	-48.1	18.4	0.00e+00	0	43	0	158334976	64	4361
2026-01-26 23:08:09.66	27.90	10.25	-46.3	-47.9	18.7	0.00e+00	0	43	0	165675008	64	4251
2026-01-26 23:08:13.70	28.25	10.57	-46.0	-47.6	19.1	0.00e+00	0	43	0	174063616	63	4347
2026-01-26 23:08:17.73	28.60	10.88	-45.9	-47.4	19.2	0.00e+00	0	43	0	181403648	63	4279
2026-01-26 23:08:21.76	28.96	11.20	-45.6	-47.0	19.6	0.00e+00	0	43	0	188743680	63	4052
2026-01-26 23:08:25.80	29.33	11.52	-45.5	-46.9	19.8	0.00e+00	0	43	0	196083712	62	4262
2026-01-26 23:08:29.83	29.70	11.85	-45.7	-47.1	19.6	0.00e+00	0	43	0	204472320	62	4356
2026-01-26 23:08:33.86	30.09	12.17	-45.9	-47.4	19.3	0.00e+00	0	43	0	211812352	62	4523
2026-01-26 23:08:37.89	30.48	12.51	-45.9	-47.4	19.4	0.00e+00	0	43	0	219152384	62	4520
2026-01-26 23:08:41.92	30.88	12.84	-45.7	-47.1	19.6	0.00e+00	0	43	0	226492416	62	4388
2026-01-26 23:08:45.94	31.29	13.18	-45.4	-46.7	20.0	0.00e+00	0	43	0	233832448	62	4177
2026-01-26 23:08:49.97	31.71	13.52	-45.1	-46.4	20.2	0.00e+00	0	43	0	242221056	62	4038
2026-01-26 23:08:54.00	32.14	13.87	-45.2	-46.5	20.2	0.00e+00	0	43	0	249561088	61	4299
2026-01-26 23:08:58.04	32.57	14.22	-45.4	-46.8	19.9	0.00e+00	0	43	0	256901120	61	4470
2026-01-26 23:09:02.07	33.02	14.57	-45.9	-47.4	19.4	0.00e+00	0	43	0	264241152	62	4527
2026-01-26 23:09:06.10	33.48	14.92	-46.0	-47.5	19.4	0.00e+00	0	43	0	272629760	62	4582
2026-01-26 23:09:10.13	33.95	15.28	-45.9	-47.4	19.5	0.00e+00	0	43	0	279969792	62	4516
2026-01-26 23:09:14.16	34.43	15.65	-45.6	-47.0	19.9	0.00e+00	0	43	0	287309824	62	4319
2026-01-26 23:09:18.19	34.92	16.01	-45.8	-47.2	19.7	0.00e+00	0	43	0	294649856	62	4397
2026-01-26 23:09:22.23	35.42	16.39	-45.9	-47.3	19.6	0.00e+00	0	43	0	301989888	62	4485
2026-01-26 23:09:26.25	35.94	16.76	-46.1	-47.5	19.4	0.00e+00	0	43	0	309329920	63	4336
2026-01-26 23:09:30.28	36.46	17.14	-46.2	-47.7	19.3	0.00e+00	0	43	0	317718528	63	4396
2026-01-26 23:09:34.32	37.00	17.52	-46.1	-47.5	19.4	0.00e+00	0	43	0	325058560	63	4329
2026-01-26 23:09:38.34	37.56	17.90	-46.3	-47.8	19.2	0.00e+00	0	43	0	332398592	63	4472
2026-01-26 23:09:42.38	38.12	18.29	-46.6	-48.2	18.8	0.00e+00	0	43	0	339738624	64	4430
2026-01-26 23:09:46.41	38.71	18.68	-46.6	-48.2	18.8	0.00e+00	0	43	0	348127232	64	4402
2026-01-26 23:09:50.44	39.30	19.08	-46.6	-48.2	18.7	0.00e+00	0	43	0	355467264	64	4410
2026-01-26 23:09:54.47	39.91	19.48	-46.6	-48.2	18.8	0.00e+00	0	43	0	362807296	64	4399
2026-01-26 23:09:58.50	40.54	19.88	-45.7	-47.1	19.9	0.00e+00	0	43	0	370147328	63	4103
2026-01-26 23:10:02.52	41.18	20.28	-45.3	-46.6	20.3	0.00e+00	0	43	0	377487360	62	4137
2026-01-26 23:10:06.56	41.84	20.69	-45.3	-46.6	20.4	0.00e+00	0	43	0	385875968	62	4115
2026-01-26 23:10:10.57	42.52	21.10	-45.0	-46.2	20.7	0.00e+00	0	43	0	393216000	61	4183
2026-01-26 23:10:14.60	43.21	21.52	-44.2	-45.3	21.5	0.00e+00	0	43	0	400556032	60	3973
2026-01-26 23:10:18.62	43.92	21.93	-44.5	-45.7	21.2	0.00e+00	0	43	0	407896064	60	4179
2026-01-26 23:10:22.65	44.66	22.35	-44.7	-45.9	21.0	0.00e+00	0	43	0	415236096	60	4254
2026-01-26 23:10:26.68	45.41	22.77	-44.7	-45.9	21.0	0.00e+00	0	43	0	422576128	60	4282
2026-01-26 23:10:30.71	46.18	23.19	-44.5	-45.7	21.2	0.00e+00	0	43	0	430964736	60	4148
2026-01-26 23:10:34.74	46.97	23.62	-44.1	-45.2	21.6	0.00e+00	0	43	0	438304768	60	3957
2026-01-26 23:10:38.77	47.79	24.05	-44.0	-45.1	22.1	0.00e+00	0	43	0	445644800	59	4099
2026-01-26 23:10:42.81	48.62	24.47	-44.3	-45.4	21.8	0.00e+00	0	43	0	452984832	59	4252
2026-01-26 23:10:46.84	49.48	24.90	-44.6	-45.8	21.5	0.00e+00	0	43	0	461373440	59	4454
2026-01-26 23:10:50.86	50.36	25.33	-44.3	-45.4	21.5	0.00e+00	0	43	0	468713472	60	4026
2026-01-26 23:10:54.89	51.26	25.75	-44.4	-45.5	21.5	0.00e+00	0	43	0	476053504	60	4068
2026-01-26 23:10:58.93	52.20	26.18	-44.5	-45.7	21.3	0.00e+00	0	43	0	483393536	60	4146
2026-01-26 23:11:02.95	53.15	26.61	-44.6	-45.7	21.3	0.00e+00	0	43	0	490733568	60	4168
2026-01-26 23:11:06.98	54.13	27.03	-45.3	-46.6	20.5	0.00e+00	0	43	0	499122176	61	4342
2026-01-26 23:11:11.01	55.13	27.45	-45.7	-47.0	20.1	0.00e+00	0	43	0	506462208	62	4338
2026-01-26 23:11:15.04	56.16	27.87	-46.3	-47.8	19.4	0.00e+00	0	43	0	513802240	63	4447
2026-01-26 23:11:19.07	57.22	28.29	-46.7	-48.3	18.9	0.00e+00	0	43	0	521142272	64	4476
2026-01-26 23:11:23.10	58.30	28.70	-47.6	-49.4	17.8	0.00e+00	0	43	0	529530880	65	4775
2026-01-26 23:11:27.13	59.41	29.10	-47.8	-49.7	17.5	0.00e+00	0	43	0	536870912	66	4703
2026-01-26 23:11:31.16	60.55	29.50	-48.0	-49.9	17.3	0.00e+00	0	43	0	544210944	66	4808
2026-01-26 23:11:35.18	61.72	29.89	-48.6	-50.8	16.5	0.00e+00	0	43	0	551550976	67	5007
2026-01-26 23:11:39.21	62.91	30.28	-49.3	-51.9	15.6	0.00e+00	0	43	0	558891008	69	5042
2026-01-26 23:11:43.24	64.14	30.65	-49.4	-52.0	15.4	0.00e+00	0	43	0	566231040	69	5133
2026-01-26 23:11:47.28	65.39	31.02	-49.3	-51.8	15.6	7.00e-07	0	43	0	574619648	69	5027
2026-01-26 23:11:51.31	66.67	31.38	-48.4	-50.5	16.9	0.00e+00	0	43	0	581959680	68	4563
2026-01-26 23:11:55.35	67.98	31.72	-47.9	-49.9	17.5	0.00e+00	0	43	0	589299712	66	4760
2026-01-26 23:11:59.38	69.32	32.05	-48.5	-50.6	16.8	0.00e+00	0	43	0	596639744	68	4617
2026-01-26 23:12:03.41	70.68	32.37	-46.2	-47.6	19.6	0.00e+00	0	43	0	605028352	64	4120
2026-01-26 23:12:07.45	72.07	32.68	-48.4	-50.5	16.8	0.00e+00	0	43	0	612368384	67	4834
2026-01-26 23:12:11.47	73.48	32.96	-47.4	-49.1	18.2	0.00e+00	0	43	0	619708416	66	4349
2026-01-26 23:12:15.50	74.91	33.24	-47.9	-49.8	17.5	0.00e+00	0	43	0	627048448	66	4745
2026-01-26 23:12:19.54	76.38	33.49	-50.1	-53.0	14.4	7.00e-07	0	43	0	634388480	71	5135
2026-01-26 23:12:23.58	77.86	33.73	-51.1	-55.2	12.2	8.01e-05	0	43	0	642777088	72	6266
2026-01-26 23:12:27.61	79.36	33.94	-49.2	-51.6	15.9	7.00e-07	0	43	0	650117120	70	4624
2026-01-26 23:12:31.64	80.89	34.14	-49.9	-52.7	14.8	7.00e-07	0	43	0	657457152	70	5265
2026-01-26 23:12:35.67	82.42	34.31	-48.7	-50.8	16.6	0.00e+00	0	43	0	664797184	69	4489
2026-01-26 23:12:39.70	83.98	34.47	-49.2	-51.6	15.9	0.00e+00	0	43	0	672137216	68	5182
2026-01-26 23:12:43.73	85.54	34.59	-50.4	-53.7	13.9	1.50e-06	0	43	0	680525824	71	5556
2026-01-26 23:12:47.76	87.12	34.70	-49.8	-52.5	15.0	1.50e-06	0	43	0	687865856	71	4857
2026-01-26 23:12:51.79	88.71	34.78	-49.4	-51.9	15.7	0.00e+00	0	43	0	695205888	69	5085
2026-01-26 23:12:55.82	90.30	34.84	-51.4	-55.6	11.9	2.53e-04	0	43	0	702545920	73	6184
2026-01-26 23:12:59.84	91.90	34.88	-52.0	-57.4	9.8	7.22e-03	0	43	0	709885952	74	7178
2026-01-26 23:13:03.88	93.51	34.89	-49.0	-51.3	16.1	0.00e+00	0	43	0	718274560	69	4747
2026-01-26 23:13:07.91	95.11	34.87	-48.8	-51.0	16.4	0.00e+00	0	43	0	725614592	69	4580
2026-01-26 23:13:11.94	96.71	34.84	-50.4	-53.7	13.8	4.50e-06	0	43	0	732954624	71	5545
2026-01-26 23:13:15.97	98.30	34.77	-48.6	-50.7	16.7	0.00e+00	0	43	0	740294656	68	4699
2026-01-26 23:13:19.99	99.88	34.69	-47.7	-49.5	17.9	0.00e+00	0	43	0	748683264	67	4323
2026-01-26 23:13:24.02	101.46	34.57	-50.9	-54.7	12.7	9.61e-05	0	43	0	756023296	72	5898
2026-01-26 23:13:28.05	103.03	34.44	-50.2	-53.3	14.3	0.00e+00	0	43	0	763363328	70	5609
2026-01-26 23:13:32.09	104.58	34.28	-49.5	-52.0	15.5	0.00e+00	0	43	0	770703360	70	4836
2026-01-26 23:13:36.12	106.12	34.11	-48.7	-50.8	16.6	0.00e+00	0	43	0	778043392	69	4450
2026-01-26 23:13:40.15	107.64	33.91	-48.9	-51.2	16.3	0.00e+00	0	43	0	785383424	68	4944
2026-01-26 23:13:44.19	109.14	33.69	-47.8	-49.6	17.8	0.00e+00	0	43	0	793772032	67	4351
2026-01-26 23:13:48.22	110.62	33.45	-47.7	-49.5	17.8	0.00e+00	0	43	0	801112064	67	4326
2026-01-26 23:13:52.25	112.08	33.19	-47.3	-49.0	18.3	0.00e+00	0	43	0	808452096	65	4554
2026-01-26 23:13:56.29	113.52	32.91	-46.9	-48.4	18.8	0.00e+00	0	43	0	815792128	65	4286
2026-01-26 23:14:00.33	114.94	32.62	-46.5	-48.1	19.2	0.00e+00	0	43	0	824180736	65	4099
2026-01-26 23:14:04.35	116.32	32.31	-46.9	-48.5	18.8	0.00e+00	0	43	0	831520768	64	4562
2026-01-26 23:14:08.38	117.68	31.99	-45.3	-46.5	20.6	0.00e+00	0	43	0	838860800	62	4090
2026-01-26 23:14:12.41	119.01	31.66	-46.5	-48.0	19.3	0.00e+00	0	43	0	846200832	63	4559
2026-01-26 23:14:16.44	120.31	31.31	-46.0	-47.3	19.9	0.00e+00	0	43	0	853540864	63	4235
2026-01-26 23:14:20.47	121.59	30.95	-44.7	-45.8	21.1	0.00e+00	0	43	0	861929472	61	4002
2026-01-26 23:14:24.49	122.84	30.58	-45.9	-47.3	20.0	0.00e+00	0	43	0	869269504	62	4464
2026-01-26 23:14:28.52	124.06	30.20	-45.6	-46.9	20.3	0.00e+00	0	43	0	876609536	63	4041
2026-01-26 23:14:32.56	125.26	29.81	-46.6	-48.1	19.1	0.00e+00	0	43	0	883949568	63	4641
2026-01-26 23:14:36.59	126.42	29.42	-44.1	-45.2	21.8	0.00e+00	0	43	0	892338176	60	3930
2026-01-26 23:14:40.63	127.56	29.01	-45.7	-47.1	20.2	0.00e+00	0	43	0	899678208	63	4101
2026-01-26 23:14:44.66	128.67	28.60	-46.0	-47.3	19.9	0.00e+00	0	43	0	907018240	62	4478
2026-01-26 23:14:48.68	129.75	28.19	-45.3	-46.6	20.5	0.00e+00	0	43	0	914358272	62	4100
2026-01-26 23:14:52.71	130.81	27.78	-46.6	-48.1	18.9	0.00e+00	0	43	0	921698304	64	4379
2026-01-26 23:14:56.73	131.83	27.36	-45.2	-46.5	20.5	0.00e+00	0	43	0	929038336	62	4064
2026-01-26 23:15:00.76	132.83	26.93	-46.8	-48.5	18.6	0.00e+00	0	43	0	937426944	64	4552
2026-01-26 23:15:04.78	133.81	26.51	-45.9	-47.3	19.8	0.00e+00	0	43	0	944766976	63	4213
2026-01-26 23:15:08.81	134.76	26.08	-46.9	-48.6	18.5	0.00e+00	0	43	0	952107008	65	4346
2026-01-26 23:15:12.84	135.69	25.65	-45.9	-47.3	19.8	0.00e+00	0	43	0	959447040	62	4474
2026-01-26 23:15:16.88	136.59	25.22	-46.7	-48.4	18.6	0.00e+00	0	43	0	966787072	65	4268
2026-01-26 23:15:20.91	137.47	24.79	-44.6	-45.8	21.1	0.00e+00	0	43	0	975175680	60	4206
2026-01-26 23:15:24.94	138.33	24.36	-45.8	-47.2	19.8	0.00e+00	0	43	0	982515712	62	4422
2026-01-26 23:15:28.97	139.16	23.93	-45.2	-46.5	20.4	0.00e+00	0	43	0	989855744	62	4072
2026-01-26 23:15:33.00	139.97	23.50	-45.4	-46.7	20.2	0.00e+00	0	43	0	997195776	61	4412
2026-01-26 23:15:37.03	140.76	23.08	-44.0	-45.1	21.5	0.00e+00	0	43	0	1005584384	60	3887
2026-01-26 23:15:41.06	141.53	22.65	-44.5	-45.6	21.2	0.00e+00	0	43	0	1012924416	60	4132
2026-01-26 23:15:45.09	142.28	22.23	-44.8	-46.1	20.7	0.00e+00	0	43	0	1020264448	60	4364
2026-01-26 23:15:49.11	143.01	21.81	-44.1	-45.2	21.5	0.00e+00	0	43	0	1027604480	60	3940
2026-01-26 23:15:53.14	143.72	21.39	-44.6	-45.8	21.0	0.00e+00	0	43	0	1034944512	60	4199
2026-01-26 23:15:57.17	144.41	20.97	-44.9	-46.2	20.6	0.00e+00	0	43	0	1042284544	60	4419
2026-01-26 23:16:01.21	145.09	20.56	-44.6	-45.8	20.9	0.00e+00	0	43	0	1050673152	60	4222
2026-01-26 23:16:05.23	145.74	20.15	-44.4	-45.6	21.1	0.00e+00	0	43	0	1058013184	60	4110
2026-01-26 23:16:09.27	146.38	19.74	-44.7	-45.9	20.8	0.00e+00	0	43	0	1065353216	60	4275
2026-01-26 23:16:13.30	147.01	19.34	-44.1	-45.2	21.4	0.00e+00	0	43	0	1072693248	60	3946
2026-01-26 23:16:17.34	147.62	18.94	-44.3	-45.5	21.1	0.00e+00	0	43	0	1081081856	60	4080
2026-01-26 23:16:21.37	148.21	18.54	-45.3	-46.6	20.1	0.00e+00	0	43	0	1088421888	61	4373
2026-01-26 23:16:25.41	148.79	18.15	-46.5	-48.1	18.8	0.00e+00	0	43	0	1095761920	63	4628
2026-01-26 23:16:29.44	149.36	17.76	-46.4	-48.0	18.7	0.00e+00	0	43	0	1103101952	64	4330
2026-01-26 23:16:33.47	149.91	17.37	-45.5	-46.9	19.8	0.00e+00	0	43	0	1110441984	62	4269
2026-01-26 23:16:37.50	150.45	16.99	-46.0	-47.5	19.3	0.00e+00	0	43	0	1118830592	62	4558
2026-01-26 23:16:41.53	150.97	16.61	-46.4	-48.1	18.7	0.00e+00	0	43	0	1126170624	63	4610
2026-01-26 23:16:45.56	151.48	16.24	-45.8	-47.2	19.5	0.00e+00	0	43	0	1133510656	63	4170
2026-01-26 23:16:49.59	151.98	15.86	-45.2	-46.5	20.2	0.00e+00	0	43	0	1140850688	62	4080
2026-01-26 23:16:53.62	152.47	15.50	-45.2	-46.6	20.1	0.00e+00	0	43	0	1148190720	62	4106
2026-01-26 23:16:57.65	152.95	15.13	-45.6	-47.0	19.6	0.00e+00	0	43	0	1156579328	62	4332
2026-01-26 23:17:01.68	153.41	14.77	-45.0	-46.3	20.3	0.00e+00	0	43	0	1163919360	62	3997
2026-01-26 23:17:05.71	153.87	14.41	-45.2	-46.6	20.0	0.00e+00	0	43	0	1171259392	61	4347
2026-01-26 23:17:09.74	154.31	14.06	-45.7	-47.1	19.5	0.00e+00	0	43	0	1178599424	62	4370
2026-01-26 23:17:13.77	154.75	13.71	-45.7	-47.2	19.4	0.00e+00	0	43	0	1185939456	62	4422
2026-01-26 23:17:17.80	155.17	13.36	-45.4	-46.8	19.8	0.00e+00	0	43	0	1194328064	62	4202
2026-01-26 23:17:21.82	155.59	13.02	-45.8	-47.2	19.3	0.00e+00	0	43	0	1201668096	62	4425
2026-01-26 23:17:25.85	155.99	12.68	-46.0	-47.6	19.0	0.00e+00	0	43	0	1209008128	62	4611
2026-01-26 23:17:29.88	156.39	12.35	-46.9	-48.7	17.8	0.00e+00	0	43	0	1216348160	64	4705
2026-01-26 23:17:33.91	156.78	12.01	-47.2	-49.2	17.4	0.00e+00	0	43	0	1224736768	65	4670
2026-01-26 23:17:37.94	157.16	11.68	-47.1	-49.1	17.4	0.00e+00	0	43	0	1232076800	65	4610
2026-01-26 23:17:41.97	157.54	11.36	-46.5	-48.1	18.3	0.00e+00	0	43	0	1239416832	64	4389
2026-01-26 23:17:46.00	157.90	11.04	-46.0	-47.5	19.0	0.00e+00	0	43	0	1246756864	63	4317
2026-01-26 23:17:50.03	158.26	10.72	-45.3	-46.7	19.8	0.00e+00	0	43	0	1254096896	62	4152
2026-01-26 23:17:54.05	158.61	10.40	-45.7	-47.2	19.2	0.00e+00	0	43	0	1261436928	62	4418
2026-01-26 23:17:58.08	158.95	10.09	-45.7	-47.2	19.2	0.00e+00	0	43	0	1269825536	62	4407
2026-01-26 23:18:02.11	159.29	9.78	-46.0	-47.6	18.4	0.00e+00	0	43	0	1277165568	62	4608
2026-01-26 23:18:06.14	159.62	9.47	-46.2	-47.8	18.6	0.00e+00	0	43	0	1284505600	63	4456
2026-01-26 23:18:10.18	159.94	9.17	-46.7	-48.5	17.8	0.00e+00	0	43	0	1291845632	64	4593
2026-01-26 23:18:14.21	160.26	8.87	-46.6	-48.4	17.9	0.00e+00	0	43	0	1300234240	64	4537
2026-01-26 23:18:18.24	160.57	8.57	-47.0	-48.9	17.4	0.00e+00	0	43	0	1307574272	64	4805
2026-01-26 23:18:22.26	160.87	8.27	-47.0	-49.0	17.3	0.00e+00	0	43	0	1314914304	64	4826
2026-01-26 23:18:26.29	161.17	7.98	-47.1	-49.1	17.2	0.00e+00	0	43	0	1322254336	65	4599
2026-01-26 23:18:30.32	161.47	7.69	-47.1	-49.1	17.1	0.00e+00	0	43	0	1329594368	65	4614
2026-01-26 23:18:34.34	161.75	7.40	-47.2	-49.2	16.9	0.00e+00	0	43	0	1337982976	65	4687
2026-01-26 23:18:38.36	162.04	7.12	-47.2	-49.3	16.9	0.00e+00	0	43	0	1345323008	65	4723
2026-01-26 23:18:42.40	162.32	6.84	-47.4	-49.5	16.6	0.00e+00	0	43	0	1352663040	65	4855
2026-01-26 23:18:46.43	162.59	6.56	-47.7	-49.9	16.2	0.00e+00	0	43	0	1360003072	66	4801
2026-01-26 23:18:50.45	162.86	6.28	-47.9	-50.4	15.8	0.00e+00	0	43	0	1367343104	66	5052
2026-01-26 23:18:54.48	163.12	6.01	-48.2	-50.9	15.2	0.00e+00	0	43	0	1374683136	67	5044
2026-01-26 23:18:58.51	163.38	5.73	-48.8	-51.8	14.3	0.00e+00	0	43	0	1383071744	68	5339
2026-01-26 23:19:02.54	163.63	5.46	-48.7	-51.7	14.3	7.00e-07	0	43	0	1390411776	68	5274
2026-01-26 23:19:06.57	163.88	5.20	-49.0	-52.3	13.7	8.30e-06	0	43	0	1397751808	69	5311
2026-01-26 23:19:10.61	164.13	4.93	-52.7	-67.7	3.8	1.49e+00	0	43	104	1404043264	75	22069
2026-01-26 23:19:14.63	164.37	4.67	-53.5	-68.5	3.8	1.49e+00	0	43	104	1404043264	77	21535
2026-01-26 23:19:18.66	164.61	4.41	-53.9	-68.8	3.8	1.49e+00	0	43	104	1404043264	78	21245
2026-01-26 23:19:22.69	164.84	4.15	-54.2	-69.1	3.8	1.49e+00	0	43	104	1404043264	78	21967
2026-01-26 23:19:26.72	165.07	3.89	-54.4	-69.3	3.8	1.49e+00	0	43	104	1404043264	79	21237
2026-01-26 23:19:30.74	165.29	3.64	-54.5	-69.5	3.8	1.49e+00	0	43	104	1404043264	79	21573
2026-01-26 23:19:34.77	165.52	3.39	-54.5	-69.5	3.8	1.49e+00	0	43	104	1404043264	79	21613
2026-01-26 23:19:38.81	165.74	3.14	-54.4	-69.4	3.8	1.49e+00	0	43	104	1404043264	79	21385
2026-01-26 23:19:42.84	165.95	2.89	-54.3	-69.2	3.8	1.49e+00	0	43	104	1404043264	79	21008
2026-01-26 23:19:46.87	166.16	2.64	-54.1	-69.0	3.8	1.49e+00	0	43	104	1404043264	79	20534
2026-01-26 23:19:50.90	166.37	2.40	-53.6	-68.5	3.8	1.49e+00	0	43	104	1404043264	79	19290
2026-01-26 23:19:54.93	166.58	2.15	-53.5	-68.5	3.8	1.49e+00	0	43	104	1404043264	79	19188
2026-01-26 23:19:58.96	166.78	1.91	-53.5	-68.4	3.8	1.49e+00	0	43	104	1404043264	78	20199

#Closed at: 2026-01-26 23:19:59
#Recorded file [1404 MB]: D:/lorett/data/31041_260127_020608.dat