passes_logs/2026/01/26/R3.2S_Murmansk/R3.2S_Murmansk__20260126_084102_FENGYUN_3D_rec.log

#Pass ID: 20260126_084102_FENGYUN 3D
#Satellite: FENGYUN 3D
#Configuration: FENGYUN 3D
#almurnet v.1.7.20251203
#Start time: 2026-01-26 08:41:03

#Version: 2.2.20231116
#Station: R3.2S_Murmansk
#Location: 33.079688 lon 68.888172 lat
#TLE: 1 43010U 17072A   26025.99795741 -.00000136  00000+0 -42313-4 0  9999
#TLE: 2 43010  98.9962 357.9855 0002515  89.6991 270.4472 14.19699257424818

#Time	Az	El	Level	Level2	SNR	BER	BlckErr	Temp	State	Recorded	gain1	gain2
2026-01-26 08:41:03.96	87.44	2.09	-48.0	-59.9	3.8	8.46e-01	0	41	0	0	66	15094
2026-01-26 08:41:06.99	87.27	2.27	-48.0	-59.9	3.8	8.46e-01	0	41	104	0	66	15110
2026-01-26 08:41:10.02	87.10	2.45	-48.0	-59.9	3.8	8.46e-01	0	41	104	0	66	15104
2026-01-26 08:41:13.04	86.93	2.63	-48.0	-59.9	3.8	8.47e-01	0	42	104	0	66	15097
2026-01-26 08:41:16.07	86.76	2.81	-48.0	-59.9	3.8	8.46e-01	0	41	104	0	66	15115
2026-01-26 08:41:19.09	86.58	2.99	-48.0	-59.9	3.8	8.46e-01	0	42	104	0	66	15093
2026-01-26 08:41:22.11	86.41	3.17	-48.0	-59.9	3.8	8.47e-01	0	42	104	0	66	15126
2026-01-26 08:41:25.13	86.23	3.36	-48.0	-59.9	3.8	8.45e-01	0	42	104	0	66	15104
2026-01-26 08:41:28.16	86.04	3.54	-48.0	-59.9	3.8	8.47e-01	0	42	104	0	66	15104
2026-01-26 08:41:31.18	85.86	3.73	-48.0	-59.9	3.8	8.45e-01	0	42	104	0	66	15118
2026-01-26 08:41:34.20	85.67	3.92	-48.0	-59.9	3.8	8.45e-01	0	42	104	0	66	15086
2026-01-26 08:41:37.23	85.48	4.10	-48.0	-59.9	3.8	8.46e-01	0	42	104	0	66	15106
2026-01-26 08:41:40.25	85.29	4.29	-48.1	-59.9	3.8	8.46e-01	0	42	104	0	66	15153
2026-01-26 08:41:43.27	85.09	4.48	-48.0	-59.9	3.8	8.45e-01	0	42	104	0	66	15070
2026-01-26 08:41:46.30	84.89	4.67	-48.0	-59.9	3.8	8.46e-01	0	42	104	0	66	15094
2026-01-26 08:41:49.33	84.69	4.87	-48.0	-59.9	3.8	8.45e-01	0	42	104	0	66	15113
2026-01-26 08:41:52.34	84.49	5.06	-48.0	-59.9	3.8	8.46e-01	0	42	104	0	66	15160
2026-01-26 08:41:55.37	84.28	5.25	-48.0	-59.9	3.8	8.47e-01	0	43	104	0	66	15100
2026-01-26 08:41:58.39	84.07	5.45	-48.0	-59.9	3.8	8.46e-01	0	43	104	0	66	15083
2026-01-26 08:42:01.42	83.86	5.65	-48.0	-59.9	3.8	8.46e-01	0	43	104	0	66	15103
2026-01-26 08:42:04.44	83.65	5.84	-48.0	-59.9	3.8	8.47e-01	0	43	104	0	66	15070
2026-01-26 08:42:07.46	83.43	6.04	-48.0	-59.9	3.8	8.46e-01	0	43	104	0	66	15076
2026-01-26 08:42:10.47	83.21	6.24	-48.0	-59.9	3.8	8.46e-01	0	43	104	0	66	15153
2026-01-26 08:42:13.49	82.98	6.44	-48.0	-59.9	3.8	8.46e-01	0	43	104	0	66	15062
2026-01-26 08:42:16.51	82.75	6.64	-48.0	-59.9	3.8	8.46e-01	0	43	104	0	66	15115
2026-01-26 08:42:19.53	82.52	6.85	-48.0	-59.9	3.8	8.47e-01	0	43	104	0	66	15113
2026-01-26 08:42:22.55	82.29	7.05	-48.0	-59.9	3.8	8.46e-01	0	43	104	0	66	15140
2026-01-26 08:42:25.58	82.05	7.26	-48.0	-59.9	3.8	8.46e-01	0	43	104	0	66	15098
2026-01-26 08:42:28.60	81.81	7.46	-48.1	-59.9	3.8	8.46e-01	0	43	104	0	66	15105
2026-01-26 08:42:31.63	81.56	7.67	-48.0	-59.9	3.8	8.46e-01	0	43	104	0	66	15128
2026-01-26 08:42:34.65	81.31	7.88	-48.1	-59.9	3.8	8.48e-01	0	43	104	0	66	15094
2026-01-26 08:42:37.67	81.06	8.09	-48.0	-59.9	3.8	8.47e-01	0	43	104	0	66	15099
2026-01-26 08:42:40.70	80.80	8.30	-48.0	-59.9	3.8	8.46e-01	0	43	104	0	66	15075
2026-01-26 08:42:43.73	80.54	8.52	-48.0	-59.9	3.8	8.46e-01	0	43	104	0	66	15060
2026-01-26 08:42:46.75	80.28	8.73	-48.1	-59.9	3.8	8.46e-01	0	43	104	0	66	15131
2026-01-26 08:42:49.78	80.01	8.94	-48.1	-59.9	3.8	8.45e-01	0	43	104	0	66	15135
2026-01-26 08:42:52.80	79.74	9.16	-48.1	-59.9	3.8	8.46e-01	0	43	104	0	66	15131
2026-01-26 08:42:55.83	79.46	9.38	-48.1	-59.9	3.8	8.45e-01	0	43	104	0	66	15152
2026-01-26 08:42:58.85	79.18	9.60	-48.1	-59.9	3.8	8.46e-01	0	43	104	0	66	15119
2026-01-26 08:43:01.87	78.89	9.82	-48.1	-59.9	3.8	8.45e-01	0	43	104	0	66	15109
2026-01-26 08:43:04.89	78.60	10.04	-48.1	-59.9	3.8	8.47e-01	0	43	104	0	66	15133
2026-01-26 08:43:07.92	78.31	10.26	-48.1	-59.9	3.8	8.46e-01	0	43	104	0	66	15103
2026-01-26 08:43:10.94	78.01	10.48	-48.1	-59.9	3.8	8.45e-01	0	43	104	0	66	15070
2026-01-26 08:43:13.96	77.71	10.71	-48.0	-59.9	3.8	8.46e-01	0	43	104	0	66	15098
2026-01-26 08:43:16.98	77.40	10.94	-48.1	-59.9	3.8	8.46e-01	0	43	104	0	66	15141
2026-01-26 08:43:20.00	77.08	11.16	-48.0	-59.9	3.8	8.46e-01	0	43	104	0	66	15084
2026-01-26 08:43:23.03	76.76	11.39	-48.1	-59.9	3.8	8.46e-01	0	43	104	0	66	15151
2026-01-26 08:43:26.05	76.44	11.62	-48.1	-59.9	3.8	8.45e-01	0	43	104	0	66	15113
2026-01-26 08:43:29.07	76.11	11.85	-48.1	-59.9	3.8	8.45e-01	0	43	104	0	66	15147
2026-01-26 08:43:32.10	75.78	12.09	-48.1	-59.9	3.8	8.47e-01	0	43	104	0	66	15063
2026-01-26 08:43:35.12	75.44	12.32	-48.1	-59.9	3.8	8.45e-01	0	43	104	0	66	15133
2026-01-26 08:43:38.15	75.09	12.56	-48.1	-59.9	3.8	8.45e-01	0	43	104	0	66	15121
2026-01-26 08:43:41.18	74.74	12.79	-48.1	-59.9	3.8	8.46e-01	0	43	104	0	66	15139
2026-01-26 08:43:44.20	74.38	13.03	-48.1	-59.8	3.8	8.46e-01	0	43	104	0	66	15051
2026-01-26 08:43:47.22	74.02	13.27	-48.1	-59.9	3.8	8.45e-01	0	43	104	0	66	15099
2026-01-26 08:43:50.25	73.65	13.51	-48.1	-59.9	3.8	8.46e-01	0	43	104	0	66	15084
2026-01-26 08:43:53.27	73.27	13.75	-48.1	-59.9	3.8	8.46e-01	0	43	104	0	66	15167
2026-01-26 08:43:56.29	72.89	13.99	-48.1	-59.9	3.8	8.47e-01	0	43	104	0	66	15133
2026-01-26 08:43:59.31	72.50	14.23	-48.1	-59.9	3.8	8.46e-01	0	43	104	0	66	15123
2026-01-26 08:44:02.33	72.11	14.48	-48.1	-59.9	3.8	8.47e-01	0	43	104	0	66	15156
2026-01-26 08:44:05.36	71.70	14.72	-48.1	-59.9	3.8	8.46e-01	0	43	104	0	66	15102
2026-01-26 08:44:08.39	71.29	14.97	-48.1	-59.9	3.8	8.46e-01	0	43	104	0	66	15078
2026-01-26 08:44:11.41	70.88	15.22	-48.0	-59.9	3.8	8.45e-01	0	43	104	0	66	15132
2026-01-26 08:44:14.44	70.46	15.47	-48.1	-59.9	3.8	8.46e-01	0	43	104	0	66	15160
2026-01-26 08:44:17.47	70.03	15.72	-48.1	-59.9	3.8	8.46e-01	0	43	104	0	66	15159
2026-01-26 08:44:20.49	69.59	15.97	-48.1	-59.9	3.8	8.45e-01	0	44	104	0	66	15106
2026-01-26 08:44:23.51	69.14	16.22	-48.1	-59.9	3.8	8.46e-01	0	43	104	0	66	15138
2026-01-26 08:44:26.54	68.69	16.47	-48.1	-59.9	3.8	8.45e-01	0	44	104	0	66	15097
2026-01-26 08:44:29.56	68.23	16.72	-48.1	-59.9	3.8	8.46e-01	0	43	104	0	66	15143
2026-01-26 08:44:32.58	67.76	16.97	-48.0	-59.9	3.8	8.47e-01	0	44	104	0	66	15130
2026-01-26 08:44:35.60	67.29	17.23	-48.1	-59.9	3.8	8.46e-01	0	43	104	0	66	15091
2026-01-26 08:44:38.63	66.80	17.48	-48.1	-59.9	3.8	8.46e-01	0	43	104	0	66	15127
2026-01-26 08:44:41.65	66.31	17.74	-48.1	-59.9	3.8	8.46e-01	0	43	104	0	66	15111
2026-01-26 08:44:44.67	65.81	17.99	-48.1	-59.9	3.8	8.45e-01	0	43	104	0	66	15123
2026-01-26 08:44:47.70	65.30	18.25	-48.1	-59.9	3.8	8.45e-01	0	43	104	0	66	15145
2026-01-26 08:44:50.72	64.78	18.50	-48.1	-59.9	3.8	8.46e-01	0	43	104	0	66	15149
2026-01-26 08:44:53.74	64.25	18.76	-48.1	-59.9	3.8	8.47e-01	0	44	104	0	66	15099
2026-01-26 08:44:56.77	63.71	19.01	-48.1	-59.9	3.8	8.45e-01	0	43	104	0	66	15146
2026-01-26 08:44:59.78	63.17	19.27	-48.1	-59.9	3.8	8.45e-01	0	44	104	0	66	15142
2026-01-26 08:45:02.81	62.61	19.53	-48.1	-59.9	3.8	8.46e-01	0	43	104	0	66	15130
2026-01-26 08:45:05.83	62.05	19.78	-48.1	-59.9	3.8	8.45e-01	0	44	104	0	66	15136
2026-01-26 08:45:08.85	61.48	20.04	-48.1	-59.9	3.8	8.46e-01	0	43	104	0	66	15170
2026-01-26 08:45:11.88	60.89	20.29	-48.1	-59.9	3.8	8.46e-01	0	44	104	0	66	15124
2026-01-26 08:45:14.90	60.30	20.54	-48.1	-59.9	3.8	8.46e-01	0	43	104	0	66	15132
2026-01-26 08:45:17.93	59.69	20.80	-48.1	-59.9	3.8	8.47e-01	0	44	104	0	66	15123
2026-01-26 08:45:20.95	59.08	21.05	-48.1	-59.9	3.8	8.46e-01	0	44	104	0	66	15138
2026-01-26 08:45:23.98	58.45	21.30	-48.1	-59.9	3.8	8.46e-01	0	43	104	0	66	15150
2026-01-26 08:45:27.00	57.82	21.55	-48.1	-59.9	3.8	8.47e-01	0	44	104	0	66	15115
2026-01-26 08:45:30.02	57.17	21.80	-48.1	-59.9	3.8	8.45e-01	0	44	104	0	66	15145
2026-01-26 08:45:33.04	56.52	22.05	-48.1	-59.9	3.8	8.45e-01	0	44	104	0	66	15124
2026-01-26 08:45:36.07	55.85	22.29	-48.1	-59.9	3.8	8.46e-01	0	43	104	0	66	15125
2026-01-26 08:45:39.09	55.17	22.54	-48.1	-59.9	3.8	8.45e-01	0	43	104	0	66	15123
2026-01-26 08:45:42.12	54.48	22.78	-48.1	-59.9	3.8	8.46e-01	0	43	104	0	66	15107
2026-01-26 08:45:45.14	53.79	23.02	-48.0	-59.9	3.8	8.47e-01	0	44	104	0	66	15088
2026-01-26 08:45:48.16	53.08	23.25	-48.1	-59.9	3.8	8.47e-01	0	44	104	0	66	15175
2026-01-26 08:45:51.18	52.36	23.49	-48.1	-59.9	3.8	8.46e-01	0	44	104	0	66	15151
2026-01-26 08:45:54.21	51.63	23.72	-48.1	-59.9	3.8	8.46e-01	0	44	104	0	66	15157
2026-01-26 08:45:57.23	50.89	23.94	-48.1	-59.9	3.8	8.45e-01	0	43	104	0	66	15123
2026-01-26 08:46:00.25	50.13	24.17	-48.1	-59.9	3.8	8.46e-01	0	44	104	0	66	15166
2026-01-26 08:46:03.27	49.37	24.39	-48.1	-59.9	3.8	8.48e-01	0	44	104	0	66	15134
2026-01-26 08:46:06.30	48.59	24.61	-48.1	-59.9	3.8	8.46e-01	0	44	104	0	66	15123
2026-01-26 08:46:09.32	47.81	24.82	-48.1	-59.9	3.8	8.47e-01	0	44	104	0	66	15111
2026-01-26 08:46:12.34	47.02	25.03	-48.1	-59.9	3.8	8.46e-01	0	44	104	0	66	15152
2026-01-26 08:46:15.36	46.21	25.23	-48.1	-59.9	3.8	8.46e-01	0	44	104	0	66	15082
2026-01-26 08:46:18.38	45.39	25.43	-48.1	-59.9	3.8	8.46e-01	0	43	104	0	66	15141
2026-01-26 08:46:21.40	44.57	25.63	-48.1	-59.9	3.8	8.46e-01	0	44	104	0	66	15142
2026-01-26 08:46:24.42	43.73	25.82	-48.1	-59.9	3.8	8.48e-01	0	44	104	0	66	15119
2026-01-26 08:46:27.45	42.88	26.00	-48.1	-59.9	3.8	8.47e-01	0	44	104	0	66	15150
2026-01-26 08:46:30.47	42.03	26.18	-48.1	-59.9	3.8	8.46e-01	0	44	104	0	66	15121
2026-01-26 08:46:33.50	41.16	26.35	-48.1	-59.9	3.8	8.45e-01	0	44	104	0	66	15136
2026-01-26 08:46:36.52	40.28	26.52	-48.1	-59.9	3.8	8.46e-01	0	44	104	0	66	15153
2026-01-26 08:46:39.55	39.40	26.68	-48.1	-59.9	3.8	8.47e-01	0	44	104	0	66	15117
2026-01-26 08:46:42.58	38.50	26.83	-48.1	-59.9	3.8	8.46e-01	0	43	104	0	66	15116
2026-01-26 08:46:45.60	37.60	26.97	-48.1	-59.9	3.8	8.46e-01	0	44	104	0	66	15117
2026-01-26 08:46:48.63	36.69	27.11	-48.1	-59.9	3.8	8.47e-01	0	44	104	0	66	15101
2026-01-26 08:46:51.65	35.77	27.24	-48.1	-59.9	3.8	8.46e-01	0	44	104	0	66	15121
2026-01-26 08:46:54.67	34.85	27.37	-48.1	-59.9	3.8	8.47e-01	0	44	104	0	66	15129
2026-01-26 08:46:57.69	33.91	27.48	-48.1	-59.9	3.8	8.46e-01	0	44	104	0	66	15151
2026-01-26 08:47:00.71	32.98	27.59	-48.1	-59.9	3.8	8.47e-01	0	44	104	0	66	15141
2026-01-26 08:47:03.74	32.03	27.69	-48.1	-59.9	3.8	8.46e-01	0	44	104	0	66	15127
2026-01-26 08:47:06.77	31.08	27.78	-48.1	-59.9	3.8	8.45e-01	0	44	104	0	66	15082
2026-01-26 08:47:09.79	30.12	27.86	-48.1	-59.9	3.8	8.46e-01	0	44	104	0	66	15086
2026-01-26 08:47:12.82	29.16	27.93	-48.1	-59.9	3.8	8.47e-01	0	44	104	0	66	15167
2026-01-26 08:47:15.84	28.19	28.00	-48.1	-59.9	3.8	8.47e-01	0	44	104	0	66	15128
2026-01-26 08:47:18.86	27.23	28.06	-48.1	-59.9	3.8	8.46e-01	0	43	104	0	66	15139
2026-01-26 08:47:21.88	26.26	28.10	-48.1	-59.9	3.8	8.47e-01	0	44	104	0	66	15155
2026-01-26 08:47:24.91	25.28	28.14	-48.1	-59.9	3.8	8.45e-01	0	44	104	0	66	15112
2026-01-26 08:47:27.94	24.30	28.17	-48.1	-59.9	3.8	8.46e-01	0	44	104	0	66	15145
2026-01-26 08:47:30.97	23.32	28.19	-48.1	-59.9	3.8	8.46e-01	0	44	104	0	66	15097
2026-01-26 08:47:33.99	22.35	28.20	-48.1	-59.9	3.8	8.46e-01	0	44	104	0	66	15191
2026-01-26 08:47:37.01	21.37	28.20	-48.1	-59.9	3.8	8.46e-01	0	44	104	0	66	15133
2026-01-26 08:47:40.03	20.39	28.19	-48.1	-59.9	3.8	8.45e-01	0	44	104	0	66	15127
2026-01-26 08:47:43.06	19.41	28.17	-48.1	-59.9	3.8	8.46e-01	0	44	104	0	66	15168
2026-01-26 08:47:46.08	18.44	28.14	-48.1	-59.9	3.8	8.45e-01	0	44	104	0	66	15134
2026-01-26 08:47:49.11	17.46	28.11	-48.1	-59.9	3.8	8.45e-01	0	44	104	0	66	15126
2026-01-26 08:47:52.13	16.49	28.06	-48.1	-59.9	3.8	8.46e-01	0	44	104	0	66	15097
2026-01-26 08:47:55.15	15.52	28.01	-48.1	-59.9	3.8	8.46e-01	0	44	104	0	66	15151
2026-01-26 08:47:58.19	14.55	27.94	-48.1	-59.9	3.8	8.45e-01	0	44	104	0	66	15113
2026-01-26 08:48:01.21	13.59	27.87	-48.1	-59.9	3.8	8.45e-01	0	44	104	0	66	15115
2026-01-26 08:48:04.24	12.63	27.79	-48.1	-59.9	3.8	8.46e-01	0	44	104	0	66	15148
2026-01-26 08:48:07.26	11.68	27.70	-48.1	-59.9	3.8	8.45e-01	0	44	104	0	66	15155
2026-01-26 08:48:10.29	10.74	27.60	-48.1	-59.9	3.8	8.47e-01	0	44	104	0	66	15145
2026-01-26 08:48:13.32	9.80	27.49	-48.1	-59.9	3.8	8.48e-01	0	44	104	0	66	15127
2026-01-26 08:48:16.34	8.86	27.38	-48.1	-59.9	3.8	8.47e-01	0	44	104	0	66	15147
2026-01-26 08:48:19.36	7.94	27.26	-48.1	-59.9	3.8	8.47e-01	0	44	104	0	66	15139
2026-01-26 08:48:22.38	7.02	27.13	-48.1	-59.9	3.8	8.45e-01	0	44	104	0	66	15152
2026-01-26 08:48:25.41	6.11	26.99	-48.1	-59.9	3.8	8.46e-01	0	44	104	0	66	15124
2026-01-26 08:48:28.42	5.21	26.84	-48.1	-59.9	3.8	8.46e-01	0	44	104	0	66	15113
2026-01-26 08:48:31.45	4.32	26.69	-48.1	-59.9	3.8	8.46e-01	0	44	104	0	66	15201
2026-01-26 08:48:34.47	3.43	26.53	-48.1	-59.9	3.8	8.45e-01	0	44	104	0	66	15150
2026-01-26 08:48:37.49	2.56	26.37	-48.1	-59.9	3.8	8.45e-01	0	44	104	0	66	15083
2026-01-26 08:48:40.51	1.69	26.20	-48.1	-59.9	3.8	8.47e-01	0	43	104	0	66	15129
2026-01-26 08:48:43.53	0.83	26.02	-48.1	-59.9	3.8	8.45e-01	0	44	104	0	66	15135
2026-01-26 08:48:46.55	359.99	25.84	-48.1	-59.9	3.8	8.46e-01	0	44	104	0	66	15148
2026-01-26 08:48:49.57	359.15	25.65	-48.1	-59.9	3.8	8.47e-01	0	44	104	0	66	15153
2026-01-26 08:48:52.60	358.32	25.46	-48.1	-59.9	3.8	8.46e-01	0	44	104	0	66	15144
2026-01-26 08:48:55.62	357.51	25.26	-48.1	-59.9	3.8	8.46e-01	0	43	104	0	66	15096
2026-01-26 08:48:58.64	356.70	25.05	-48.1	-59.9	3.8	8.46e-01	0	44	104	0	66	15149
2026-01-26 08:49:01.67	355.90	24.85	-48.1	-59.9	3.8	8.45e-01	0	44	104	0	66	15141
2026-01-26 08:49:04.69	355.12	24.63	-48.1	-59.9	3.8	8.46e-01	0	44	104	0	66	15153
2026-01-26 08:49:07.71	354.34	24.42	-48.1	-59.9	3.8	8.46e-01	0	43	104	0	66	15120
2026-01-26 08:49:10.73	353.58	24.20	-48.1	-59.9	3.8	8.45e-01	0	43	104	0	66	15132
2026-01-26 08:49:13.76	352.83	23.97	-48.1	-59.9	3.8	8.47e-01	0	44	104	0	66	15127
2026-01-26 08:49:16.78	352.09	23.75	-48.1	-59.9	3.8	8.46e-01	0	44	104	0	66	15079
2026-01-26 08:49:19.80	351.35	23.52	-48.1	-59.9	3.8	8.46e-01	0	44	104	0	66	15147
2026-01-26 08:49:22.82	350.64	23.28	-48.1	-59.9	3.8	8.47e-01	0	44	104	0	66	15167
2026-01-26 08:49:25.84	349.93	23.05	-48.1	-59.9	3.8	8.46e-01	0	44	104	0	66	15158
2026-01-26 08:49:28.86	349.23	22.81	-48.1	-59.9	3.8	8.48e-01	0	44	104	0	66	15129
2026-01-26 08:49:31.89	348.54	22.57	-48.1	-59.9	3.8	8.46e-01	0	44	104	0	66	15126
2026-01-26 08:49:34.91	347.86	22.32	-48.1	-59.9	3.8	8.46e-01	0	44	104	0	66	15128
2026-01-26 08:49:37.93	347.20	22.08	-48.1	-59.9	3.8	8.47e-01	0	44	104	0	66	15159
2026-01-26 08:49:40.96	346.54	21.83	-48.1	-59.9	3.8	8.46e-01	0	44	104	0	66	15142
2026-01-26 08:49:43.98	345.89	21.59	-48.1	-59.9	3.8	8.46e-01	0	44	104	0	66	15135
2026-01-26 08:49:47.00	345.26	21.34	-48.1	-59.9	3.8	8.45e-01	0	44	104	0	66	15120
2026-01-26 08:49:50.02	344.64	21.09	-48.1	-59.9	3.8	8.46e-01	0	44	104	0	66	15163
2026-01-26 08:49:53.05	344.02	20.83	-48.1	-59.9	3.8	8.46e-01	0	44	104	0	66	15114
2026-01-26 08:49:56.06	343.42	20.58	-48.1	-59.9	3.8	8.46e-01	0	44	104	0	66	15147
2026-01-26 08:49:59.08	342.83	20.33	-48.1	-59.9	3.8	8.46e-01	0	44	104	0	66	15139
2026-01-26 08:50:02.10	342.24	20.08	-48.1	-59.9	3.8	8.44e-01	0	44	104	0	66	15146
2026-01-26 08:50:05.13	341.67	19.82	-48.1	-59.9	3.8	8.46e-01	0	44	104	0	66	15100
2026-01-26 08:50:08.15	341.10	19.57	-48.1	-59.9	3.8	8.45e-01	0	44	104	0	66	15109
2026-01-26 08:50:11.17	340.55	19.31	-48.1	-59.9	3.8	8.47e-01	0	44	104	0	66	15191
2026-01-26 08:50:14.19	340.00	19.06	-48.1	-59.9	3.8	8.46e-01	0	44	104	0	66	15150
2026-01-26 08:50:17.21	339.47	18.80	-48.1	-59.9	3.8	8.45e-01	0	44	104	0	66	15144
2026-01-26 08:50:20.24	338.94	18.54	-48.1	-59.9	3.8	8.47e-01	0	44	104	0	66	15126
2026-01-26 08:50:23.26	338.42	18.29	-48.1	-59.9	3.8	8.46e-01	0	44	104	0	66	15113
2026-01-26 08:50:26.28	337.91	18.03	-48.1	-59.9	3.8	8.46e-01	0	44	104	0	66	15118
2026-01-26 08:50:29.31	337.41	17.78	-48.1	-59.9	3.8	8.45e-01	0	44	104	0	66	15138
2026-01-26 08:50:32.34	336.91	17.52	-48.1	-59.9	3.8	8.47e-01	0	44	104	0	66	15130
2026-01-26 08:50:35.36	336.43	17.27	-48.1	-59.9	3.8	8.46e-01	0	44	104	0	66	15140
2026-01-26 08:50:38.37	335.95	17.02	-48.1	-59.9	3.8	8.45e-01	0	44	104	0	66	15112
2026-01-26 08:50:41.40	335.48	16.76	-48.1	-59.9	3.8	8.47e-01	0	44	104	0	66	15119
2026-01-26 08:50:44.43	335.02	16.51	-48.1	-59.9	3.8	8.45e-01	0	44	104	0	66	15160
2026-01-26 08:50:47.45	334.57	16.26	-48.1	-59.9	3.8	8.46e-01	0	44	104	0	66	15140
2026-01-26 08:50:50.47	334.13	16.01	-48.1	-59.9	3.8	8.46e-01	0	44	104	0	66	15155
2026-01-26 08:50:53.50	333.69	15.76	-48.1	-59.9	3.8	8.47e-01	0	44	104	0	66	15140
2026-01-26 08:50:56.52	333.26	15.51	-48.1	-59.9	3.8	8.46e-01	0	44	104	0	66	15105
2026-01-26 08:50:59.54	332.84	15.26	-48.1	-59.9	3.8	8.44e-01	0	44	104	0	66	15088
2026-01-26 08:51:02.56	332.42	15.02	-48.1	-59.9	3.8	8.47e-01	0	44	104	0	66	15081
2026-01-26 08:51:05.58	332.01	14.77	-48.1	-59.9	3.8	8.46e-01	0	44	104	0	66	15086
2026-01-26 08:51:08.60	331.61	14.53	-48.1	-59.9	3.8	8.46e-01	0	44	104	0	66	15127
2026-01-26 08:51:11.63	331.22	14.28	-48.1	-59.9	3.8	8.46e-01	0	43	104	0	66	15123
2026-01-26 08:51:14.65	330.83	14.04	-48.1	-59.9	3.8	8.47e-01	0	43	104	0	66	15069
2026-01-26 08:51:17.67	330.45	13.80	-48.1	-59.9	3.8	8.47e-01	0	44	104	0	66	15147
2026-01-26 08:51:20.69	330.07	13.56	-48.1	-59.9	3.8	8.46e-01	0	44	104	0	66	15119
2026-01-26 08:51:23.71	329.70	13.32	-48.1	-59.9	3.8	8.45e-01	0	44	104	0	66	15143
2026-01-26 08:51:26.74	329.34	13.08	-48.1	-59.9	3.8	8.47e-01	0	44	104	0	66	15128
2026-01-26 08:51:29.76	328.98	12.84	-48.1	-59.9	3.8	8.46e-01	0	44	104	0	66	15134
2026-01-26 08:51:32.77	328.63	12.61	-48.1	-59.9	3.8	8.47e-01	0	44	104	0	66	15139
2026-01-26 08:51:35.79	328.29	12.37	-48.1	-59.9	3.8	8.47e-01	0	44	104	0	66	15112
2026-01-26 08:51:38.81	327.95	12.14	-48.1	-59.9	3.8	8.47e-01	0	44	104	0	66	15110
2026-01-26 08:51:41.84	327.61	11.91	-48.1	-59.9	3.8	8.46e-01	0	44	104	0	66	15103
2026-01-26 08:51:44.86	327.28	11.67	-48.1	-59.9	3.8	8.46e-01	0	44	104	0	66	15127
2026-01-26 08:51:47.88	326.96	11.44	-48.1	-59.9	3.8	8.47e-01	0	44	104	0	66	15120
2026-01-26 08:51:50.90	326.64	11.22	-48.1	-59.9	3.8	8.46e-01	0	43	104	0	66	15078
2026-01-26 08:51:53.93	326.33	10.99	-48.1	-59.9	3.8	8.47e-01	0	44	104	0	66	15139
2026-01-26 08:51:56.95	326.02	10.76	-48.1	-59.9	3.8	8.45e-01	0	44	104	0	66	15148
2026-01-26 08:51:59.97	325.72	10.54	-48.1	-59.9	3.8	8.46e-01	0	44	104	0	66	15181
2026-01-26 08:52:02.99	325.42	10.31	-48.1	-59.9	3.8	8.46e-01	0	43	104	0	66	15165
2026-01-26 08:52:06.01	325.12	10.09	-48.1	-59.9	3.8	8.45e-01	0	44	104	0	66	15137
2026-01-26 08:52:09.04	324.83	9.87	-48.1	-59.9	3.8	8.46e-01	0	44	104	0	66	15127
2026-01-26 08:52:12.06	324.55	9.65	-48.1	-59.9	3.8	8.46e-01	0	43	104	0	66	15145
2026-01-26 08:52:15.08	324.27	9.43	-48.1	-59.9	3.8	8.46e-01	0	44	104	0	66	15082
2026-01-26 08:52:18.11	323.99	9.21	-48.1	-59.9	3.8	8.45e-01	0	44	104	0	66	15107
2026-01-26 08:52:21.13	323.72	9.00	-48.1	-59.9	3.8	8.47e-01	0	44	104	0	66	15110
2026-01-26 08:52:24.16	323.45	8.78	-48.1	-59.9	3.8	8.48e-01	0	44	104	0	66	15134
2026-01-26 08:52:27.19	323.18	8.57	-48.1	-59.9	3.8	8.47e-01	0	44	104	0	66	15133
2026-01-26 08:52:30.21	322.92	8.36	-48.1	-59.9	3.8	8.47e-01	0	44	104	0	66	15061
2026-01-26 08:52:33.23	322.67	8.14	-48.1	-59.9	3.8	8.46e-01	0	44	104	0	66	15107
2026-01-26 08:52:36.25	322.42	7.93	-48.1	-59.9	3.8	8.47e-01	0	44	104	0	66	15080
2026-01-26 08:52:39.28	322.17	7.73	-48.1	-59.9	3.8	8.46e-01	0	44	104	0	66	15108
2026-01-26 08:52:42.30	321.92	7.52	-48.1	-59.8	3.8	8.46e-01	0	44	104	0	66	15002
2026-01-26 08:52:45.32	321.68	7.31	-48.1	-59.9	3.8	8.46e-01	0	44	104	0	66	15055
2026-01-26 08:52:48.34	321.44	7.11	-48.1	-59.9	3.8	8.45e-01	0	44	104	0	66	15059
2026-01-26 08:52:51.37	321.21	6.90	-48.1	-59.9	3.8	8.45e-01	0	44	104	0	66	15055
2026-01-26 08:52:54.39	320.98	6.70	-48.1	-59.9	3.8	8.47e-01	0	44	104	0	66	15137
2026-01-26 08:52:57.42	320.75	6.50	-48.1	-59.9	3.8	8.46e-01	0	44	104	0	66	15165
2026-01-26 08:53:00.44	320.53	6.30	-48.1	-59.9	3.8	8.46e-01	0	44	104	0	66	15124
2026-01-26 08:53:03.46	320.31	6.10	-48.1	-59.9	3.8	8.45e-01	0	44	104	0	66	15099
2026-01-26 08:53:06.49	320.09	5.90	-48.1	-59.9	3.8	8.46e-01	0	44	104	0	66	15095
2026-01-26 08:53:09.51	319.87	5.70	-48.1	-59.9	3.8	8.45e-01	0	44	104	0	66	15124
2026-01-26 08:53:12.53	319.66	5.50	-48.1	-59.9	3.8	8.47e-01	0	44	104	0	66	15119
2026-01-26 08:53:15.56	319.45	5.31	-48.1	-59.9	3.8	8.46e-01	0	44	104	0	66	15113
2026-01-26 08:53:18.58	319.25	5.11	-48.1	-59.9	3.8	8.45e-01	0	44	104	0	66	15190
2026-01-26 08:53:21.60	319.05	4.92	-48.1	-59.9	3.8	8.45e-01	0	44	104	0	66	15119
2026-01-26 08:53:24.63	318.84	4.73	-48.1	-59.9	3.8	8.46e-01	0	43	104	0	66	15120
2026-01-26 08:53:27.65	318.65	4.54	-48.1	-59.9	3.8	8.45e-01	0	44	104	0	66	15130
2026-01-26 08:53:30.68	318.45	4.35	-48.1	-59.9	3.8	8.45e-01	0	44	104	0	66	15106
2026-01-26 08:53:33.70	318.26	4.16	-48.1	-59.9	3.8	8.45e-01	0	44	104	0	66	15145
2026-01-26 08:53:36.73	318.07	3.97	-48.1	-59.8	3.8	8.46e-01	0	44	104	0	66	15005
2026-01-26 08:53:39.75	317.88	3.78	-48.1	-59.8	3.8	8.47e-01	0	44	104	0	66	15034
2026-01-26 08:53:42.77	317.70	3.60	-48.1	-59.9	3.8	8.47e-01	0	44	104	0	66	15081
2026-01-26 08:53:45.80	317.52	3.41	-48.1	-59.8	3.8	8.47e-01	0	44	104	0	66	14997
2026-01-26 08:53:48.82	317.34	3.23	-48.1	-59.8	3.8	8.46e-01	0	44	104	0	66	15013
2026-01-26 08:53:51.85	317.16	3.04	-48.1	-59.7	3.8	8.46e-01	0	44	104	0	66	14843
2026-01-26 08:53:54.87	316.99	2.86	-48.1	-59.7	3.8	8.46e-01	0	44	104	0	66	14787
2026-01-26 08:53:57.90	316.81	2.68	-48.1	-59.6	3.8	8.45e-01	0	44	104	0	66	14670
2026-01-26 08:54:00.92	316.64	2.50	-48.1	-59.6	3.8	8.46e-01	0	44	104	0	66	14703
2026-01-26 08:54:03.95	316.48	2.32	-48.1	-59.7	3.8	8.45e-01	0	44	104	0	66	14726
2026-01-26 08:54:06.98	316.31	2.14	-48.1	-59.8	3.8	8.47e-01	0	44	104	0	66	14903
2026-01-26 08:54:10.00	316.15	1.96	-48.1	-59.8	3.8	8.46e-01	0	44	104	0	66	14971

#Closed at: 2026-01-26 08:54:12
#Recorded file [0 MB]: D:/lorett/data/31041_260126_114103.dat