passes_logs/2026/01/26/R3.2S_Murmansk/R3.2S_Murmansk__20260126_024844_AQUA_rec.log

#Pass ID: 20260126_024844_AQUA
#Satellite: AQUA
#Configuration: AQUA
#almurnet v.1.7.20251203
#Start time: 2026-01-26 02:48:45

#Version: 2.2.20231116
#Station: R3.2S_Murmansk
#Location: 33.079688 lon 68.888172 lat
#TLE: 1 27424U 02022A   26025.50647354  .00001868  00000+0  38363-3 0  9992
#TLE: 2 27424  98.4099 352.1114 0001896  65.7986  47.0097 14.61858879262422

#Time	Az	El	Level	Level2	SNR	BER	BlckErr	Temp	State	Recorded	gain1	gain2
2026-01-26 02:48:45.46	24.94	2.07	-55.3	-73.2	3.8	7.43e-01	0	41	0	0	81	29473
2026-01-26 02:48:48.48	24.90	2.27	-55.3	-73.2	3.8	7.42e-01	0	41	104	0	81	29407
2026-01-26 02:48:51.51	24.87	2.47	-55.3	-73.1	3.8	7.46e-01	0	41	104	0	81	29231
2026-01-26 02:48:54.53	24.83	2.67	-55.3	-73.1	3.8	7.46e-01	0	41	104	0	81	29137
2026-01-26 02:48:57.55	24.80	2.88	-55.3	-73.1	3.8	7.44e-01	0	42	104	0	81	29147
2026-01-26 02:49:00.57	24.76	3.09	-55.5	-73.3	3.8	7.45e-01	0	42	104	0	81	29823
2026-01-26 02:49:03.60	24.72	3.30	-55.5	-73.3	3.8	7.47e-01	0	42	104	0	81	29923
2026-01-26 02:49:06.62	24.69	3.51	-55.5	-73.3	3.8	7.45e-01	0	42	104	0	81	29856
2026-01-26 02:49:09.65	24.65	3.72	-55.4	-73.2	3.8	7.46e-01	0	42	104	0	81	29561
2026-01-26 02:49:12.67	24.61	3.93	-55.2	-73.0	3.8	7.45e-01	0	42	104	0	81	28966
2026-01-26 02:49:15.69	24.57	4.15	-55.0	-72.8	3.8	7.45e-01	0	42	104	0	81	28127
2026-01-26 02:49:18.72	24.52	4.37	-54.5	-72.3	3.8	7.49e-01	0	42	104	0	81	26672
2026-01-26 02:49:21.74	24.48	4.59	-48.3	-59.8	3.8	7.47e-01	0	42	104	0	68	13409
2026-01-26 02:49:24.76	24.44	4.81	-48.6	-60.2	3.8	7.44e-01	0	42	104	0	67	14871
2026-01-26 02:49:27.78	24.39	5.03	-50.4	-62.9	3.8	7.48e-01	0	42	104	0	71	16038
2026-01-26 02:49:30.81	24.35	5.26	-53.0	-68.6	3.7	7.51e-01	0	42	104	0	76	23267
2026-01-26 02:49:33.83	24.30	5.49	-46.3	-57.4	3.8	7.42e-01	0	42	104	0	64	12667
2026-01-26 02:49:36.86	24.26	5.72	-51.9	-63.7	3.8	7.43e-01	0	42	104	0	74	14770
2026-01-26 02:49:39.89	24.21	5.95	-46.6	-57.7	3.8	7.46e-01	0	43	104	0	64	13137
2026-01-26 02:49:42.91	24.16	6.19	-45.9	-56.9	3.8	7.45e-01	0	42	104	0	63	12667
2026-01-26 02:49:45.92	24.11	6.42	-47.0	-58.2	3.8	7.45e-01	0	42	104	0	64	13979
2026-01-26 02:49:48.95	24.06	6.66	-52.9	-67.7	3.8	7.43e-01	0	43	104	0	76	20992
2026-01-26 02:49:51.98	24.00	6.91	-45.9	-56.8	3.8	7.46e-01	0	43	104	0	63	12611
2026-01-26 02:49:55.00	23.95	7.15	-53.6	-70.4	3.8	7.43e-01	0	43	104	0	77	27033
2026-01-26 02:49:58.02	23.89	7.40	-45.6	-56.4	3.8	7.44e-01	0	43	104	0	63	12063
2026-01-26 02:50:01.05	23.84	7.65	-50.1	-61.9	3.8	7.45e-01	0	43	104	0	70	15111
2026-01-26 02:50:04.07	23.78	7.90	-45.9	-56.9	3.8	7.41e-01	0	43	104	0	62	13427
2026-01-26 02:50:07.09	23.72	8.16	-45.9	-56.8	3.8	7.43e-01	0	43	104	0	63	12535
2026-01-26 02:50:10.11	23.66	8.41	-46.7	-57.7	3.8	7.41e-01	0	43	104	0	63	13901
2026-01-26 02:50:13.13	23.60	8.68	-53.1	-67.8	3.8	7.47e-01	0	43	104	0	76	21080
2026-01-26 02:50:16.16	23.53	8.94	-45.3	-56.0	3.8	7.46e-01	0	43	104	0	62	12205
2026-01-26 02:50:19.17	23.47	9.21	-53.3	-68.0	3.8	7.42e-01	0	43	104	0	78	19264
2026-01-26 02:50:22.20	23.40	9.48	-46.0	-56.9	3.8	7.42e-01	0	43	104	0	63	12733
2026-01-26 02:50:25.22	23.34	9.75	-45.0	-55.8	3.8	7.46e-01	0	43	104	0	61	12562
2026-01-26 02:50:28.24	23.27	10.03	-45.4	-55.9	3.9	7.44e-01	0	43	104	0	62	12091
2026-01-26 02:50:31.26	23.19	10.31	-46.1	-57.1	3.8	7.46e-01	0	43	104	0	63	13054
2026-01-26 02:50:34.28	23.12	10.60	-46.3	-57.5	3.8	7.41e-01	0	43	104	0	63	13647
2026-01-26 02:50:37.30	23.05	10.88	-51.7	-65.0	3.9	7.46e-01	0	43	104	0	75	16129
2026-01-26 02:50:40.32	22.97	11.18	-45.0	-55.9	3.8	7.47e-01	0	43	104	0	61	12723
2026-01-26 02:50:43.35	22.89	11.47	-52.3	-65.9	3.9	7.41e-01	0	43	104	0	76	17050
2026-01-26 02:50:46.37	22.81	11.77	-45.7	-56.6	3.8	7.45e-01	0	43	104	0	63	12290
2026-01-26 02:50:49.39	22.73	12.07	-45.3	-56.1	3.8	7.44e-01	0	43	104	0	62	12348
2026-01-26 02:50:52.42	22.64	12.38	-44.4	-55.1	3.8	7.43e-01	0	43	104	0	60	12359
2026-01-26 02:50:55.44	22.55	12.70	-44.6	-55.3	3.8	7.46e-01	0	43	104	0	61	11912
2026-01-26 02:50:58.46	22.46	13.01	-46.2	-57.0	3.8	7.47e-01	0	43	104	0	62	13649
2026-01-26 02:51:01.48	22.37	13.33	-47.2	-58.3	3.9	7.46e-01	0	43	104	0	66	12548
2026-01-26 02:51:04.51	22.28	13.66	-45.2	-56.0	3.8	7.44e-01	0	43	104	0	60	13624
2026-01-26 02:51:07.53	22.18	13.99	-45.9	-56.5	3.8	7.44e-01	0	43	104	0	63	12130
2026-01-26 02:51:10.55	22.08	14.33	-45.1	-55.9	3.8	7.43e-01	0	43	104	0	61	12740
2026-01-26 02:51:13.57	21.98	14.67	-44.3	-55.1	3.9	7.45e-01	0	43	104	0	60	12241
2026-01-26 02:51:16.60	21.87	15.01	-47.0	-58.1	3.8	7.43e-01	0	43	104	0	64	13782
2026-01-26 02:51:19.62	21.76	15.36	-44.3	-55.1	3.8	7.47e-01	0	43	104	0	60	12246
2026-01-26 02:51:22.65	21.65	15.72	-49.5	-61.2	3.8	7.45e-01	0	43	104	0	69	14853
2026-01-26 02:51:25.67	21.54	16.09	-45.8	-56.8	3.8	7.47e-01	0	43	104	0	63	12562
2026-01-26 02:51:28.70	21.42	16.45	-45.4	-56.3	3.8	7.45e-01	0	43	104	0	61	13270
2026-01-26 02:51:31.73	21.30	16.83	-44.9	-55.7	3.9	7.43e-01	0	43	104	0	61	12452
2026-01-26 02:51:34.75	21.17	17.21	-45.0	-55.9	3.8	7.42e-01	0	43	104	0	62	11976
2026-01-26 02:51:37.77	21.04	17.60	-45.0	-55.8	3.8	7.48e-01	0	43	104	0	61	12624
2026-01-26 02:51:40.79	20.91	17.99	-51.1	-63.4	3.8	7.47e-01	0	43	104	0	72	16040
2026-01-26 02:51:43.82	20.77	18.40	-44.2	-55.0	3.8	7.43e-01	0	43	104	0	60	12124
2026-01-26 02:51:46.84	20.63	18.80	-53.1	-67.1	3.8	7.47e-01	0	44	104	0	76	19611
2026-01-26 02:51:49.86	20.49	19.22	-45.2	-56.0	3.8	7.45e-01	0	43	104	0	62	12210
2026-01-26 02:51:52.88	20.34	19.64	-48.6	-60.1	3.9	7.45e-01	0	43	104	0	67	14633
2026-01-26 02:51:55.90	20.18	20.07	-45.8	-56.6	3.8	7.47e-01	0	43	104	0	62	13050
2026-01-26 02:51:58.93	20.02	20.51	-44.4	-55.1	3.9	7.43e-01	0	43	104	0	60	12342
2026-01-26 02:52:01.95	19.86	20.96	-45.0	-55.8	3.8	7.45e-01	0	43	104	0	60	13265
2026-01-26 02:52:04.96	19.69	21.42	-52.7	-66.4	3.8	7.48e-01	0	43	104	0	75	19012
2026-01-26 02:52:07.98	19.51	21.88	-44.6	-55.3	3.8	7.49e-01	0	43	104	0	61	11877
2026-01-26 02:52:11.00	19.33	22.35	-54.0	-69.7	3.8	7.46e-01	0	43	104	0	78	23462
2026-01-26 02:52:14.03	19.14	22.84	-44.6	-55.3	3.8	7.42e-01	0	44	104	0	61	11937
2026-01-26 02:52:17.05	18.94	23.33	-48.6	-60.0	3.8	7.44e-01	0	43	104	0	67	14438
2026-01-26 02:52:20.08	18.74	23.84	-44.9	-55.7	3.8	7.48e-01	0	43	104	0	61	12475
2026-01-26 02:52:23.10	18.53	24.35	-44.6	-55.4	3.8	7.46e-01	0	43	104	0	61	11972
2026-01-26 02:52:26.12	18.31	24.88	-45.3	-56.1	3.8	7.43e-01	0	43	104	0	61	13011
2026-01-26 02:52:29.14	18.08	25.41	-52.5	-66.0	3.8	7.45e-01	0	43	104	0	75	18231
2026-01-26 02:52:32.16	17.85	25.96	-44.3	-55.1	3.8	7.42e-01	0	43	104	0	60	12283
2026-01-26 02:52:35.18	17.60	26.52	-53.7	-68.7	3.9	7.41e-01	0	43	104	0	79	19837
2026-01-26 02:52:38.20	17.35	27.09	-44.8	-55.5	3.9	7.43e-01	0	43	104	0	61	12188
2026-01-26 02:52:41.23	17.08	27.67	-48.6	-60.1	3.9	7.43e-01	0	44	104	0	69	12989
2026-01-26 02:52:44.26	16.81	28.27	-44.9	-55.5	3.8	7.40e-01	0	43	104	0	61	12174
2026-01-26 02:52:47.28	16.52	28.88	-44.6	-55.4	3.8	7.42e-01	0	43	104	0	60	12685
2026-01-26 02:52:50.31	16.22	29.51	-44.6	-55.3	3.8	7.41e-01	0	44	104	0	60	12557
2026-01-26 02:52:53.34	15.91	30.15	-50.5	-62.5	3.9	7.44e-01	0	44	104	0	73	13682
2026-01-26 02:52:56.36	15.59	30.80	-43.9	-54.7	3.8	7.45e-01	0	43	104	0	59	12385
2026-01-26 02:52:59.38	15.25	31.46	-49.5	-61.2	3.9	7.46e-01	0	43	104	0	71	13184
2026-01-26 02:53:02.41	14.89	32.15	-44.5	-55.2	3.8	7.44e-01	0	43	104	0	61	11727
2026-01-26 02:53:05.43	14.52	32.85	-48.9	-60.1	3.8	7.43e-01	0	43	104	0	69	12984
2026-01-26 02:53:08.45	14.14	33.56	-44.2	-54.9	3.8	7.46e-01	0	44	104	0	60	12021
2026-01-26 02:53:11.48	13.73	34.30	-44.6	-55.3	3.8	7.46e-01	0	44	104	0	60	12644
2026-01-26 02:53:14.50	13.30	35.04	-47.0	-57.9	3.8	7.45e-01	0	44	104	0	64	13437
2026-01-26 02:53:17.53	12.85	35.81	-48.1	-59.3	3.9	7.44e-01	0	44	104	0	68	12621
2026-01-26 02:53:20.54	12.38	36.59	-47.5	-58.6	3.9	7.40e-01	0	44	104	0	65	13753
2026-01-26 02:53:23.57	11.89	37.40	-47.6	-58.7	3.8	7.44e-01	0	44	104	0	67	12407
2026-01-26 02:53:26.60	11.36	38.22	-46.9	-58.0	3.8	7.45e-01	0	43	104	0	65	12855
2026-01-26 02:53:29.62	10.81	39.06	-46.6	-57.4	3.9	7.46e-01	0	43	104	0	65	12040
2026-01-26 02:53:32.64	10.23	39.92	-48.3	-59.4	3.8	7.42e-01	0	43	104	0	66	14309
2026-01-26 02:53:35.66	9.62	40.79	-45.8	-56.6	3.8	7.44e-01	0	43	104	0	63	12349
2026-01-26 02:53:38.69	8.96	41.69	-51.6	-63.9	3.8	7.43e-01	0	43	104	0	73	16029
2026-01-26 02:53:41.71	8.27	42.61	-45.4	-55.9	3.9	7.46e-01	0	44	104	0	62	11999
2026-01-26 02:53:44.73	7.54	43.54	-50.2	-61.9	3.8	7.43e-01	0	43	104	0	70	15080
2026-01-26 02:53:47.75	6.77	44.49	-47.2	-58.2	3.8	7.44e-01	0	43	104	0	66	12399
2026-01-26 02:53:50.77	5.94	45.47	-45.0	-55.8	3.8	7.46e-01	0	43	104	0	62	11844
2026-01-26 02:53:53.79	5.06	46.46	-49.6	-61.2	3.8	7.47e-01	0	43	104	0	71	13177
2026-01-26 02:53:56.81	4.12	47.46	-52.9	-66.2	3.8	7.45e-01	0	43	104	0	76	17629
2026-01-26 02:53:59.83	3.11	48.49	-44.9	-55.6	3.8	7.43e-01	0	43	104	0	61	12298
2026-01-26 02:54:02.85	2.04	49.52	-53.0	-66.3	3.8	7.48e-01	0	43	104	0	76	17762
2026-01-26 02:54:05.87	0.88	50.58	-45.4	-56.1	3.8	7.44e-01	0	44	104	0	62	12273
2026-01-26 02:54:08.90	359.64	51.64	-48.6	-59.7	3.9	7.40e-01	0	44	104	0	67	14022
2026-01-26 02:54:11.92	358.30	52.72	-47.6	-49.1	23.0	6.01e-01	0	43	0	4194304	65	4633
2026-01-26 02:54:14.95	356.86	53.80	-43.9	-45.0	26.7	6.02e-01	0	43	0	9961472	59	4095
2026-01-26 02:54:17.96	355.31	54.89	-43.9	-45.0	26.7	6.03e-01	0	43	0	15728640	59	4087
2026-01-26 02:54:20.99	353.63	55.98	-44.2	-45.3	26.5	6.03e-01	0	43	0	21495808	59	4211
2026-01-26 02:54:24.00	351.82	57.06	-44.7	-45.9	26.0	6.04e-01	0	43	0	27262976	60	4274
2026-01-26 02:54:27.03	349.85	58.13	-45.1	-46.3	25.7	6.00e-01	0	44	0	32505856	60	4473
2026-01-26 02:54:30.05	347.71	59.19	-45.3	-46.5	25.6	6.01e-01	0	43	0	38273024	61	4303
2026-01-26 02:54:33.06	345.41	60.23	-45.2	-46.4	25.7	6.01e-01	0	43	0	44040192	61	4267
2026-01-26 02:54:36.08	342.90	61.24	-45.1	-46.3	25.9	6.02e-01	0	43	0	49807360	62	3971
2026-01-26 02:54:39.10	340.19	62.22	-45.5	-46.7	25.5	6.01e-01	0	43	0	55574528	62	4179
2026-01-26 02:54:42.12	337.25	63.15	-46.2	-47.5	24.8	6.03e-01	0	43	0	60817408	62	4557
2026-01-26 02:54:45.15	334.06	64.03	-46.5	-47.9	24.3	6.04e-01	0	43	0	66584576	64	4246
2026-01-26 02:54:48.17	330.65	64.83	-46.9	-48.3	23.9	6.02e-01	0	43	0	72351744	64	4489
2026-01-26 02:54:51.19	326.99	65.56	-47.4	-49.0	23.3	6.01e-01	0	43	0	78118912	65	4547
2026-01-26 02:54:54.21	323.10	66.20	-48.1	-49.7	22.7	6.00e-01	0	43	0	83886080	66	4705
2026-01-26 02:54:57.23	318.98	66.74	-47.8	-49.4	22.9	6.02e-01	0	43	0	89128960	67	4246
2026-01-26 02:55:00.26	314.66	67.17	-47.9	-49.4	22.9	6.00e-01	0	43	0	94896128	67	4273
2026-01-26 02:55:03.28	310.20	67.47	-48.1	-49.7	22.7	5.99e-01	0	43	0	100663296	67	4439
2026-01-26 02:55:06.30	305.63	67.65	-47.8	-49.4	22.9	6.02e-01	0	44	0	106430464	67	4247
2026-01-26 02:55:09.32	301.02	67.70	-48.2	-49.9	22.6	6.03e-01	0	43	0	112197632	67	4517
2026-01-26 02:55:12.34	296.41	67.61	-48.5	-50.2	22.1	6.01e-01	0	43	0	117440512	68	4405
2026-01-26 02:55:15.36	291.87	67.39	-48.6	-50.3	22.0	6.00e-01	0	43	0	123207680	68	4458
2026-01-26 02:55:18.38	287.45	67.04	-48.3	-50.0	22.4	6.03e-01	0	43	0	128974848	68	4314
2026-01-26 02:55:21.40	283.20	66.58	-49.2	-51.1	21.2	6.02e-01	0	44	0	134742016	69	4637
2026-01-26 02:55:24.41	279.17	66.01	-49.5	-51.5	20.8	6.00e-01	0	43	0	140509184	69	4849
2026-01-26 02:55:27.43	275.35	65.34	-49.6	-51.6	20.8	6.05e-01	0	43	0	145752064	70	4620
2026-01-26 02:55:30.45	271.76	64.58	-48.1	-49.7	22.7	6.01e-01	0	43	0	151519232	67	4394
2026-01-26 02:55:33.47	268.42	63.75	-47.6	-49.1	23.2	6.06e-01	0	43	0	157286400	67	4124
2026-01-26 02:55:36.48	265.33	62.86	-47.0	-48.4	23.9	6.02e-01	0	43	0	163053568	66	4026
2026-01-26 02:55:39.51	262.45	61.91	-47.5	-49.0	23.4	6.03e-01	0	43	0	168820736	66	4322
2026-01-26 02:55:42.53	259.80	60.92	-47.3	-48.8	23.4	5.99e-01	0	43	0	174063616	66	4241
2026-01-26 02:55:45.54	257.37	59.90	-46.1	-47.4	24.8	6.01e-01	0	43	0	179830784	63	4280
2026-01-26 02:55:48.56	255.11	58.85	-45.4	-46.6	25.6	6.01e-01	0	44	0	185597952	62	4124
2026-01-26 02:55:51.58	253.03	57.78	-45.1	-46.3	25.7	6.02e-01	0	43	0	191365120	62	4001
2026-01-26 02:55:54.59	251.12	56.70	-45.3	-46.5	25.6	6.01e-01	0	43	0	197132288	61	4309
2026-01-26 02:55:57.62	249.34	55.61	-43.8	-44.9	26.9	6.04e-01	0	43	0	202375168	59	4020
2026-01-26 02:56:00.64	247.70	54.52	-43.6	-44.7	27.2	6.02e-01	0	43	0	208142336	59	3937
2026-01-26 02:56:03.67	246.18	53.43	-43.5	-44.6	27.2	6.02e-01	0	43	0	213909504	58	4108
2026-01-26 02:56:06.68	244.78	52.35	-43.5	-44.6	27.3	6.02e-01	0	43	0	219676672	58	4121
2026-01-26 02:56:09.71	243.47	51.28	-43.6	-44.7	27.1	6.03e-01	0	43	0	225443840	58	4156
2026-01-26 02:56:12.72	242.26	50.22	-43.8	-44.9	27.0	6.02e-01	0	43	0	230686720	58	4255
2026-01-26 02:56:15.75	241.13	49.16	-44.4	-45.5	26.2	6.04e-01	0	43	0	236453888	59	4340
2026-01-26 02:56:18.76	240.08	48.13	-44.1	-45.2	26.6	6.02e-01	0	43	0	242221056	59	4159
2026-01-26 02:56:21.79	239.09	47.11	-44.4	-45.5	26.2	6.02e-01	0	43	0	247988224	59	4335
2026-01-26 02:56:24.80	238.17	46.10	-44.0	-45.1	26.5	6.03e-01	0	43	0	253755392	59	4135
2026-01-26 02:56:27.83	237.30	45.12	-44.3	-45.4	26.3	6.01e-01	0	43	0	258998272	59	4287
2026-01-26 02:56:30.85	236.49	44.15	-44.1	-45.2	26.4	6.02e-01	0	43	0	264765440	59	4189
2026-01-26 02:56:33.87	235.72	43.20	-44.5	-45.6	26.1	6.03e-01	0	43	0	270532608	59	4369
2026-01-26 02:56:36.89	235.01	42.27	-45.0	-46.2	25.6	6.03e-01	0	43	0	276299776	60	4432
2026-01-26 02:56:39.91	234.33	41.36	-45.0	-46.2	25.5	6.02e-01	0	43	0	282066944	60	4429
2026-01-26 02:56:42.94	233.69	40.46	-45.8	-47.1	24.9	6.00e-01	0	43	0	287309824	62	4348
2026-01-26 02:56:45.96	233.08	39.59	-46.1	-47.4	24.5	6.00e-01	0	43	0	293076992	62	4538
2026-01-26 02:56:48.98	232.51	38.73	-46.5	-47.9	24.1	6.04e-01	0	43	0	298844160	63	4504
2026-01-26 02:56:52.00	231.97	37.90	-46.1	-47.4	24.5	6.02e-01	0	43	0	304611328	63	4270
2026-01-26 02:56:55.02	231.45	37.08	-45.6	-46.9	25.0	6.04e-01	0	43	0	310378496	63	4028
2026-01-26 02:56:58.04	230.97	36.29	-46.0	-47.4	24.5	6.00e-01	0	43	0	315621376	63	4266
2026-01-26 02:57:01.06	230.50	35.51	-45.7	-47.0	25.0	6.00e-01	0	43	0	321388544	63	4057
2026-01-26 02:57:04.08	230.06	34.74	-44.9	-46.0	25.8	6.04e-01	0	43	0	327155712	61	4095
2026-01-26 02:57:07.10	229.64	34.00	-44.7	-45.9	25.9	6.01e-01	0	43	0	332922880	61	4042
2026-01-26 02:57:10.12	229.24	33.27	-44.2	-45.4	26.4	6.00e-01	0	43	0	338690048	60	4015
2026-01-26 02:57:13.15	228.85	32.56	-44.2	-45.4	26.4	6.05e-01	0	43	0	343932928	60	4010
2026-01-26 02:57:16.17	228.49	31.86	-43.9	-45.0	26.6	6.02e-01	0	43	0	349700096	59	4065
2026-01-26 02:57:19.18	228.14	31.19	-43.8	-44.9	26.7	6.04e-01	0	43	0	355467264	59	4044
2026-01-26 02:57:22.20	227.80	30.52	-44.0	-45.2	26.4	6.01e-01	0	43	0	361234432	59	4151
2026-01-26 02:57:25.22	227.48	29.87	-44.0	-45.1	26.5	6.01e-01	0	43	0	367001600	59	4142
2026-01-26 02:57:28.24	227.17	29.24	-43.9	-45.1	26.4	6.03e-01	0	43	0	372244480	59	4101
2026-01-26 02:57:31.26	226.88	28.62	-44.0	-45.1	26.4	6.02e-01	0	43	0	378011648	59	4129
2026-01-26 02:57:34.28	226.59	28.01	-44.0	-45.1	26.4	6.01e-01	0	43	0	383778816	59	4122
2026-01-26 02:57:37.30	226.32	27.42	-44.1	-45.3	26.2	6.01e-01	0	43	0	389545984	59	4213
2026-01-26 02:57:40.32	226.06	26.84	-44.1	-45.2	26.2	6.02e-01	0	43	0	395313152	59	4189
2026-01-26 02:57:43.34	225.81	26.27	-44.3	-45.4	26.1	6.01e-01	0	43	0	400556032	59	4275
2026-01-26 02:57:46.35	225.57	25.71	-44.5	-45.7	25.7	6.04e-01	0	44	0	406323200	59	4437
2026-01-26 02:57:49.37	225.33	25.17	-44.6	-45.8	25.6	6.04e-01	0	43	0	412090368	59	4469
2026-01-26 02:57:52.39	225.11	24.64	-44.6	-45.8	25.7	6.00e-01	0	43	0	417857536	59	4465
2026-01-26 02:57:55.41	224.89	24.11	-44.7	-45.9	25.5	6.02e-01	0	43	0	423624704	59	4536
2026-01-26 02:57:58.43	224.68	23.60	-44.5	-45.7	25.9	6.02e-01	0	44	0	428867584	60	4153
2026-01-26 02:58:01.45	224.48	23.10	-44.3	-45.5	26.0	6.02e-01	0	43	0	434634752	60	4076
2026-01-26 02:58:04.46	224.29	22.61	-44.5	-45.7	25.8	6.03e-01	0	44	0	440401920	60	4177
2026-01-26 02:58:07.48	224.10	22.13	-44.6	-45.9	25.7	6.00e-01	0	43	0	446169088	60	4243
2026-01-26 02:58:10.50	223.92	21.66	-44.6	-45.9	25.6	6.03e-01	0	44	0	451936256	60	4253
2026-01-26 02:58:13.52	223.74	21.19	-44.4	-45.5	25.9	6.04e-01	0	43	0	457179136	60	4096
2026-01-26 02:58:16.54	223.57	20.74	-44.4	-45.5	26.0	6.02e-01	0	43	0	462946304	60	4086
2026-01-26 02:58:19.56	223.41	20.29	-44.4	-45.5	25.9	6.00e-01	0	44	0	468713472	60	4092
2026-01-26 02:58:22.58	223.25	19.86	-44.5	-45.7	25.8	6.03e-01	0	44	0	474480640	60	4149
2026-01-26 02:58:25.60	223.09	19.43	-44.4	-45.6	25.8	6.02e-01	0	43	0	480247808	60	4101
2026-01-26 02:58:28.61	222.94	19.01	-44.4	-45.6	25.8	6.01e-01	0	44	0	485490688	60	4124
2026-01-26 02:58:31.63	222.80	18.59	-44.3	-45.5	25.9	6.03e-01	0	43	0	491257856	60	4063
2026-01-26 02:58:34.65	222.65	18.18	-44.3	-45.5	25.8	6.05e-01	0	44	0	497025024	60	4083
2026-01-26 02:58:37.67	222.52	17.78	-44.4	-45.6	25.8	6.04e-01	0	43	0	502792192	60	4104
2026-01-26 02:58:40.69	222.38	17.39	-44.4	-45.6	25.7	6.03e-01	0	44	0	508559360	60	4134
2026-01-26 02:58:43.72	222.26	17.00	-44.4	-45.6	25.7	6.03e-01	0	43	0	513802240	60	4143
2026-01-26 02:58:46.74	222.13	16.62	-44.4	-45.7	25.7	6.03e-01	0	43	0	519569408	60	4148
2026-01-26 02:58:49.76	222.01	16.25	-44.6	-45.8	25.6	6.04e-01	0	44	0	525336576	60	4212
2026-01-26 02:58:52.77	221.89	15.88	-44.5	-45.8	25.5	6.04e-01	0	43	0	531103744	60	4203
2026-01-26 02:58:55.80	221.77	15.52	-44.4	-45.6	25.7	6.02e-01	0	43	0	536870912	60	4120
2026-01-26 02:58:58.82	221.66	15.17	-44.6	-45.8	25.4	6.01e-01	0	43	0	542113792	60	4234
2026-01-26 02:59:01.84	221.55	14.82	-44.4	-45.6	25.6	6.03e-01	0	43	0	547880960	60	4141
2026-01-26 02:59:04.87	221.45	14.47	-44.5	-45.7	25.5	6.06e-01	0	43	0	553648128	60	4173
2026-01-26 02:59:07.89	221.34	14.13	-44.4	-45.6	25.6	6.02e-01	0	43	0	559415296	60	4131
2026-01-26 02:59:10.91	221.24	13.79	-44.4	-45.6	25.6	6.01e-01	0	43	0	565182464	60	4135
2026-01-26 02:59:13.93	221.15	13.46	-44.1	-45.3	25.8	6.03e-01	0	43	0	570425344	60	3987
2026-01-26 02:59:16.95	221.05	13.14	-44.3	-45.5	25.6	6.03e-01	0	43	0	576192512	60	4091
2026-01-26 02:59:19.97	220.96	12.82	-44.4	-45.6	25.5	6.01e-01	0	43	0	581959680	60	4119
2026-01-26 02:59:22.99	220.87	12.50	-44.4	-45.6	25.6	6.01e-01	0	43	0	587726848	60	4130
2026-01-26 02:59:26.02	220.78	12.19	-44.5	-45.7	25.4	6.02e-01	0	43	0	593494016	60	4181
2026-01-26 02:59:29.04	220.69	11.88	-44.5	-45.7	25.4	6.03e-01	0	43	0	598736896	60	4171
2026-01-26 02:59:32.07	220.61	11.58	-44.8	-46.0	25.1	6.02e-01	0	43	0	604504064	60	4335
2026-01-26 02:59:35.09	220.53	11.28	-44.5	-45.8	25.3	6.02e-01	0	43	0	610271232	60	4208
2026-01-26 02:59:38.11	220.45	10.99	-44.7	-45.9	25.2	5.99e-01	0	43	0	616038400	60	4270
2026-01-26 02:59:41.13	220.37	10.70	-44.8	-46.1	25.0	6.02e-01	0	44	0	621805568	60	4343
2026-01-26 02:59:44.15	220.29	10.41	-44.8	-46.1	25.0	6.02e-01	0	43	0	627048448	60	4371
2026-01-26 02:59:47.17	220.22	10.12	-44.8	-46.1	25.0	6.04e-01	0	43	0	632815616	60	4352
2026-01-26 02:59:50.19	220.15	9.84	-44.7	-46.0	25.0	6.01e-01	0	43	0	638582784	60	4317
2026-01-26 02:59:53.21	220.08	9.57	-45.0	-46.3	24.8	6.03e-01	0	43	0	644349952	60	4458
2026-01-26 02:59:56.23	220.01	9.29	-45.0	-46.4	24.6	6.04e-01	0	43	0	650117120	60	4494
2026-01-26 02:59:59.26	219.94	9.02	-45.1	-46.4	24.6	6.01e-01	0	44	0	655360000	60	4535
2026-01-26 03:00:02.28	219.87	8.76	-45.1	-46.5	24.5	6.02e-01	0	43	0	661127168	60	4561
2026-01-26 03:00:05.30	219.81	8.49	-45.4	-46.8	24.2	6.02e-01	0	43	0	666894336	61	4451
2026-01-26 03:00:08.32	219.74	8.23	-45.2	-46.5	24.4	6.01e-01	0	43	0	672661504	61	4323
2026-01-26 03:00:11.34	219.68	7.97	-45.4	-46.8	24.1	6.02e-01	0	43	0	678428672	61	4483
2026-01-26 03:00:14.36	219.62	7.72	-45.4	-46.8	24.1	6.02e-01	0	44	0	683671552	61	4469
2026-01-26 03:00:17.39	219.56	7.47	-45.4	-46.8	24.1	6.02e-01	0	43	0	689438720	61	4466
2026-01-26 03:00:20.42	219.51	7.22	-45.4	-46.8	24.0	6.04e-01	0	43	0	695205888	61	4477
2026-01-26 03:00:23.44	219.45	6.97	-45.5	-46.9	23.9	6.03e-01	0	43	0	700973056	61	4528
2026-01-26 03:00:26.46	219.39	6.72	-45.7	-47.2	23.6	6.03e-01	0	43	0	706740224	62	4395
2026-01-26 03:00:29.49	219.34	6.48	-45.5	-46.9	23.8	6.05e-01	0	43	0	712507392	62	4282
2026-01-26 03:00:32.51	219.29	6.24	-45.9	-47.5	23.3	6.00e-01	0	43	0	717750272	62	4548
2026-01-26 03:00:35.54	219.23	6.00	-45.8	-47.3	23.4	6.02e-01	0	44	0	723517440	62	4466
2026-01-26 03:00:38.56	219.18	5.77	-45.9	-47.4	23.3	6.02e-01	0	43	0	729284608	62	4538
2026-01-26 03:00:41.58	219.13	5.54	-46.1	-47.7	23.1	6.01e-01	0	43	0	735051776	63	4395
2026-01-26 03:00:44.61	219.08	5.31	-45.9	-47.5	23.2	6.01e-01	0	43	0	740818944	63	4301
2026-01-26 03:00:47.62	219.04	5.08	-46.1	-47.7	22.9	5.99e-01	0	43	0	746061824	63	4416
2026-01-26 03:00:50.64	218.99	4.85	-54.6	-72.4	3.8	7.48e-01	0	43	104	748158976	79	30321
2026-01-26 03:00:53.66	218.94	4.63	-54.9	-72.8	3.8	7.45e-01	0	43	104	748158976	80	29701
2026-01-26 03:00:56.69	218.90	4.41	-55.1	-72.9	3.8	7.46e-01	0	44	104	748158976	80	30301
2026-01-26 03:00:59.71	218.85	4.19	-55.2	-73.0	3.8	7.44e-01	0	43	104	748158976	80	30621
2026-01-26 03:01:02.73	218.81	3.97	-55.2	-73.1	3.8	7.44e-01	0	44	104	748158976	81	29041
2026-01-26 03:01:05.76	218.77	3.76	-55.2	-73.1	3.8	7.44e-01	0	43	104	748158976	81	29026
2026-01-26 03:01:08.77	218.73	3.54	-55.0	-72.9	3.8	7.45e-01	0	44	104	748158976	81	28486
2026-01-26 03:01:11.80	218.69	3.33	-54.8	-72.6	3.8	7.43e-01	0	43	104	748158976	81	27633
2026-01-26 03:01:14.82	218.65	3.12	-54.8	-72.6	3.8	7.45e-01	0	44	104	748158976	81	27520
2026-01-26 03:01:17.84	218.61	2.91	-54.7	-72.6	3.8	7.46e-01	0	44	104	748158976	81	27523
2026-01-26 03:01:20.86	218.57	2.70	-54.7	-72.6	3.8	7.43e-01	0	44	104	748158976	81	27430
2026-01-26 03:01:23.89	218.53	2.50	-54.7	-72.6	3.8	7.47e-01	0	43	104	748158976	81	27465
2026-01-26 03:01:26.91	218.49	2.29	-54.7	-72.6	3.8	7.47e-01	0	44	104	748158976	81	27428
2026-01-26 03:01:29.94	218.46	2.09	-54.7	-72.5	3.8	7.45e-01	0	44	104	748158976	81	27336

#Closed at: 2026-01-26 03:01:32
#Recorded file [748 MB]: D:/lorett/data/31041_260126_054845.dat