passes_logs/2026/01/26/R3.2S_Murmansk/R3.2S_Murmansk__20260126_060414_SUOMI_NPP_rec.log

#Pass ID: 20260126_060414_SUOMI NPP
#Satellite: SUOMI NPP
#Configuration: NPP
#almurnet v.1.7.20251203
#Start time: 2026-01-26 06:04:16

#Version: 2.2.20231116
#Station: R3.2S_Murmansk
#Location: 33.079688 lon 68.888172 lat
#TLE: 1 37849U 11061A   26025.95877665  .00000192  00000+0  11229-3 0  9997
#TLE: 2 37849  98.7822 327.9136 0002155  44.9234 315.2116 14.19530109738267

#Time	Az	El	Level	Level2	SNR	BER	BlckErr	Temp	State	Recorded	gain1	gain2
2026-01-26 06:04:16.21	75.60	2.11	-53.9	-68.9	3.8	1.49e+00	0	41	0	0	78	21346
2026-01-26 06:04:20.23	75.35	2.35	-54.1	-69.1	3.8	1.49e+00	0	41	104	0	78	21761
2026-01-26 06:04:24.26	75.09	2.58	-53.9	-68.8	3.8	1.49e+00	0	41	104	0	78	21168
2026-01-26 06:04:28.29	74.84	2.82	-53.6	-68.6	3.8	1.49e+00	0	41	104	0	78	20626
2026-01-26 06:04:32.32	74.57	3.05	-53.0	-67.9	3.8	1.49e+00	0	42	104	0	78	19129
2026-01-26 06:04:36.35	74.31	3.29	-52.1	-66.9	3.8	1.49e+00	0	42	104	0	76	19095
2026-01-26 06:04:40.38	74.04	3.53	-52.0	-67.0	3.8	1.49e+00	0	42	104	0	76	19236
2026-01-26 06:04:44.42	73.76	3.77	-52.0	-66.9	3.8	1.49e+00	0	42	104	0	76	19083
2026-01-26 06:04:48.45	73.48	4.01	-52.0	-66.6	3.8	1.49e+00	0	42	104	0	76	18333
2026-01-26 06:04:52.48	73.19	4.26	-51.9	-64.5	4.0	1.49e+00	0	42	104	0	75	15362
2026-01-26 06:04:56.51	72.90	4.50	-51.9	-65.1	3.8	1.49e+00	0	42	104	0	75	16332
2026-01-26 06:05:00.54	72.60	4.75	-51.3	-59.3	6.4	3.30e-01	0	42	0	3145728	74	8949
2026-01-26 06:05:04.57	72.30	5.00	-50.5	-56.2	9.4	2.12e-02	0	42	0	10485760	73	6626
2026-01-26 06:05:08.61	72.00	5.25	-49.0	-52.4	13.1	1.88e-01	0	42	0	17825792	70	5047
2026-01-26 06:05:12.64	71.68	5.50	-47.4	-49.8	16.0	0.00e+00	0	42	0	23068672	66	4742
2026-01-26 06:05:16.67	71.36	5.76	-47.6	-50.0	15.9	0.00e+00	0	42	0	30408704	66	4851
2026-01-26 06:05:20.71	71.04	6.01	-47.3	-49.7	16.3	0.00e+00	0	42	0	37748736	66	4652
2026-01-26 06:05:24.74	70.71	6.27	-47.4	-49.7	16.4	0.00e+00	0	42	0	45088768	66	4661
2026-01-26 06:05:28.78	70.37	6.53	-47.0	-49.1	16.9	0.00e+00	0	43	0	52428800	66	4383
2026-01-26 06:05:32.81	70.03	6.79	-47.1	-49.3	16.8	0.00e+00	0	43	0	60817408	65	4714
2026-01-26 06:05:36.83	69.68	7.05	-47.4	-49.8	16.3	0.00e+00	0	43	0	68157440	65	4989
2026-01-26 06:05:40.87	69.33	7.31	-47.2	-49.5	16.6	0.00e+00	0	43	0	75497472	65	4825
2026-01-26 06:05:44.90	68.96	7.58	-47.8	-50.3	15.9	0.00e+00	0	43	0	82837504	66	4996
2026-01-26 06:05:48.93	68.60	7.84	-47.6	-50.0	16.2	0.00e+00	0	43	0	91226112	66	4850
2026-01-26 06:05:52.96	68.22	8.11	-47.2	-49.4	16.8	0.00e+00	0	42	0	98566144	66	4502
2026-01-26 06:05:56.99	67.84	8.38	-47.4	-49.8	16.6	0.00e+00	0	43	0	105906176	66	4707
2026-01-26 06:06:01.02	67.44	8.65	-46.9	-48.9	17.2	0.00e+00	0	43	0	113246208	65	4540
2026-01-26 06:06:05.05	67.05	8.92	-46.7	-48.7	17.5	0.00e+00	0	43	0	120586240	65	4410
2026-01-26 06:06:09.08	66.64	9.20	-46.7	-48.7	17.5	0.00e+00	0	43	0	127926272	65	4434
2026-01-26 06:06:13.11	66.23	9.47	-46.7	-48.6	17.6	0.00e+00	0	43	0	136314880	64	4643
2026-01-26 06:06:17.14	65.80	9.75	-46.7	-48.6	17.7	0.00e+00	0	43	0	143654912	64	4614
2026-01-26 06:06:21.16	65.37	10.03	-46.6	-48.4	17.9	0.00e+00	0	43	0	150994944	64	4533
2026-01-26 06:06:25.19	64.94	10.31	-46.7	-48.6	17.7	0.00e+00	0	43	0	158334976	64	4642
2026-01-26 06:06:29.22	64.49	10.59	-46.9	-48.9	17.5	0.00e+00	0	43	0	166723584	64	4776
2026-01-26 06:06:33.25	64.03	10.88	-46.9	-48.9	17.4	0.00e+00	0	43	0	174063616	64	4803
2026-01-26 06:06:37.28	63.57	11.16	-47.0	-49.1	17.3	0.00e+00	0	43	0	181403648	64	4892
2026-01-26 06:06:41.31	63.09	11.45	-46.7	-48.7	17.7	0.00e+00	0	43	0	188743680	64	4659
2026-01-26 06:06:45.33	62.61	11.74	-46.7	-48.5	17.8	0.00e+00	0	43	0	196083712	64	4593
2026-01-26 06:06:49.36	62.11	12.02	-46.1	-47.7	18.6	0.00e+00	0	43	0	204472320	64	4188
2026-01-26 06:06:53.39	61.61	12.32	-46.1	-47.8	18.7	0.00e+00	0	43	0	211812352	63	4473
2026-01-26 06:06:57.42	61.09	12.61	-45.9	-47.5	19.0	0.00e+00	0	43	0	219152384	63	4318
2026-01-26 06:07:01.45	60.57	12.90	-46.2	-47.8	18.7	0.00e+00	0	43	0	226492416	63	4490
2026-01-26 06:07:05.49	60.03	13.19	-45.9	-47.5	19.0	0.00e+00	0	43	0	233832448	63	4337
2026-01-26 06:07:09.52	59.48	13.49	-45.8	-47.3	19.1	0.00e+00	0	43	0	242221056	63	4237
2026-01-26 06:07:13.55	58.92	13.79	-45.8	-47.4	19.1	0.00e+00	0	43	0	249561088	63	4265
2026-01-26 06:07:17.58	58.35	14.08	-45.8	-47.4	19.1	0.00e+00	0	43	0	256901120	63	4276
2026-01-26 06:07:21.62	57.77	14.38	-46.0	-47.7	18.8	0.00e+00	0	43	0	264241152	63	4399
2026-01-26 06:07:25.65	57.17	14.68	-45.6	-47.2	19.3	0.00e+00	0	43	0	271581184	63	4151
2026-01-26 06:07:29.69	56.56	14.98	-46.3	-48.1	18.4	0.00e+00	0	43	0	279969792	63	4634
2026-01-26 06:07:33.71	55.95	15.27	-46.2	-48.0	18.6	0.00e+00	0	43	0	287309824	63	4550
2026-01-26 06:07:37.74	55.32	15.57	-46.2	-47.9	18.7	0.00e+00	0	43	0	294649856	63	4532
2026-01-26 06:07:41.77	54.67	15.87	-46.4	-48.2	18.4	0.00e+00	0	43	0	301989888	63	4662
2026-01-26 06:07:45.79	54.01	16.17	-46.7	-48.7	17.9	0.00e+00	0	43	0	309329920	64	4657
2026-01-26 06:07:49.82	53.34	16.47	-46.7	-48.7	17.9	0.00e+00	0	43	0	317718528	64	4652
2026-01-26 06:07:53.85	52.66	16.77	-46.1	-47.9	18.6	0.00e+00	0	43	0	325058560	64	4245
2026-01-26 06:07:57.88	51.96	17.06	-46.2	-47.9	18.7	0.00e+00	0	43	0	332398592	63	4512
2026-01-26 06:08:01.91	51.25	17.36	-46.1	-47.8	18.9	0.00e+00	0	43	0	339738624	63	4454
2026-01-26 06:08:05.94	50.52	17.66	-46.2	-47.9	18.8	0.00e+00	0	43	0	348127232	63	4507
2026-01-26 06:08:09.97	49.78	17.95	-46.2	-47.9	18.8	0.00e+00	0	43	0	355467264	63	4523
2026-01-26 06:08:14.00	49.02	18.24	-46.4	-48.3	18.4	0.00e+00	0	43	0	362807296	63	4716
2026-01-26 06:08:18.03	48.25	18.53	-45.9	-47.5	19.1	0.00e+00	0	43	0	370147328	63	4310
2026-01-26 06:08:22.07	47.46	18.82	-45.5	-47.0	19.7	0.00e+00	0	43	0	377487360	62	4295
2026-01-26 06:08:26.10	46.66	19.11	-45.5	-47.1	19.6	0.00e+00	0	43	0	384827392	62	4345
2026-01-26 06:08:30.13	45.84	19.39	-45.1	-46.6	19.9	0.00e+00	0	43	0	393216000	62	4144
2026-01-26 06:08:34.16	45.01	19.67	-44.7	-46.0	20.5	0.00e+00	0	43	0	400556032	60	4330
2026-01-26 06:08:38.19	44.16	19.95	-44.6	-46.0	20.5	0.00e+00	0	43	0	407896064	60	4299
2026-01-26 06:08:42.22	43.30	20.22	-44.8	-46.2	20.3	0.00e+00	0	43	0	415236096	60	4402
2026-01-26 06:08:46.25	42.42	20.49	-44.5	-45.8	20.6	0.00e+00	0	43	0	423624704	60	4210
2026-01-26 06:08:50.28	41.53	20.75	-44.4	-45.7	20.7	0.00e+00	0	43	0	430964736	60	4190
2026-01-26 06:08:54.31	40.62	21.01	-44.3	-45.6	20.8	0.00e+00	0	43	0	438304768	60	4109
2026-01-26 06:08:58.34	39.69	21.27	-44.1	-45.4	21.0	0.00e+00	0	43	0	445644800	60	4015
2026-01-26 06:09:02.37	38.75	21.52	-44.3	-45.5	21.2	0.00e+00	0	43	0	452984832	59	4315
2026-01-26 06:09:06.40	37.80	21.76	-44.2	-45.4	21.4	0.00e+00	0	43	0	461373440	59	4290
2026-01-26 06:09:10.43	36.83	22.00	-44.4	-45.7	21.2	0.00e+00	0	43	0	468713472	59	4397
2026-01-26 06:09:14.45	35.85	22.22	-44.1	-45.3	21.4	0.00e+00	0	43	0	476053504	59	4208
2026-01-26 06:09:18.49	34.84	22.45	-44.2	-45.4	21.5	0.00e+00	0	43	0	483393536	59	4244
2026-01-26 06:09:22.52	33.83	22.66	-44.6	-45.9	21.0	0.00e+00	0	43	0	490733568	59	4531
2026-01-26 06:09:26.55	32.80	22.87	-44.2	-45.4	21.4	0.00e+00	0	43	0	499122176	59	4270
2026-01-26 06:09:30.57	31.76	23.07	-44.1	-45.3	21.6	0.00e+00	0	43	0	506462208	59	4223
2026-01-26 06:09:34.60	30.71	23.26	-44.2	-45.4	21.5	0.00e+00	0	43	0	513802240	59	4274
2026-01-26 06:09:38.64	29.64	23.44	-44.0	-45.2	21.7	0.00e+00	0	43	0	521142272	59	4151
2026-01-26 06:09:42.66	28.56	23.61	-43.5	-44.6	22.1	0.00e+00	0	43	0	528482304	58	4132
2026-01-26 06:09:46.69	27.47	23.77	-44.5	-45.7	21.2	0.00e+00	0	43	0	536870912	59	4432
2026-01-26 06:09:50.70	26.37	23.92	-45.6	-47.1	19.7	0.00e+00	0	43	0	544210944	61	4643
2026-01-26 06:09:54.72	25.27	24.06	-45.6	-47.0	19.7	0.00e+00	0	43	0	551550976	62	4332
2026-01-26 06:09:58.75	24.14	24.18	-45.1	-46.4	20.3	0.00e+00	0	43	0	558891008	62	4034
2026-01-26 06:10:02.77	23.02	24.30	-45.2	-46.6	20.2	0.00e+00	0	43	0	566231040	61	4345
2026-01-26 06:10:06.80	21.88	24.40	-45.1	-46.5	20.1	0.00e+00	0	43	0	574619648	61	4333
2026-01-26 06:10:10.83	20.73	24.50	-45.9	-47.5	19.3	0.00e+00	0	43	0	581959680	62	4562
2026-01-26 06:10:14.86	19.58	24.58	-51.3	-55.9	11.2	1.27e-02	0	43	0	589299712	74	6040
2026-01-26 06:10:18.89	18.42	24.65	-47.4	-49.3	17.5	0.00e+00	0	43	0	596639744	66	4493
2026-01-26 06:10:22.92	17.26	24.70	-46.1	-47.6	19.2	0.00e+00	0	43	0	603979776	63	4381
2026-01-26 06:10:26.96	16.09	24.74	-46.2	-47.8	19.0	0.00e+00	0	43	0	612368384	63	4481
2026-01-26 06:10:30.99	14.93	24.77	-45.4	-46.8	19.9	0.00e+00	0	43	0	619708416	62	4232
2026-01-26 06:10:35.01	13.76	24.79	-45.0	-46.4	20.2	0.00e+00	0	43	0	627048448	61	4268
2026-01-26 06:10:39.04	12.59	24.79	-46.0	-47.6	19.2	0.00e+00	0	43	0	634388480	62	4636
2026-01-26 06:10:43.06	11.42	24.78	-45.5	-47.0	19.7	0.00e+00	0	43	0	641728512	62	4302
2026-01-26 06:10:47.10	10.25	24.76	-44.9	-46.2	20.4	0.00e+00	0	43	0	650117120	61	4171
2026-01-26 06:10:51.13	9.08	24.73	-44.5	-45.8	20.8	0.00e+00	0	43	0	657457152	60	4230
2026-01-26 06:10:55.16	7.92	24.68	-44.5	-45.7	20.9	0.00e+00	0	43	0	664797184	60	4177
2026-01-26 06:10:59.18	6.76	24.62	-44.1	-45.3	21.6	0.00e+00	0	43	0	672137216	59	4194
2026-01-26 06:11:03.22	5.60	24.54	-43.7	-44.8	22.0	0.00e+00	0	43	0	680525824	59	3999
2026-01-26 06:11:07.24	4.46	24.46	-43.4	-44.4	22.4	0.00e+00	0	43	0	687865856	58	4041
2026-01-26 06:11:11.27	3.32	24.36	-43.7	-44.8	22.1	0.00e+00	0	43	0	695205888	58	4214
2026-01-26 06:11:15.29	2.18	24.25	-44.2	-45.4	21.6	0.00e+00	0	43	0	702545920	59	4254
2026-01-26 06:11:19.31	1.06	24.13	-44.5	-45.7	21.3	0.00e+00	0	43	0	709885952	59	4417
2026-01-26 06:11:23.33	359.95	24.00	-44.4	-45.6	21.1	0.00e+00	0	43	0	717225984	60	4132
2026-01-26 06:11:27.36	358.84	23.85	-44.3	-45.5	21.1	0.00e+00	0	43	0	725614592	60	4074
2026-01-26 06:11:31.39	357.74	23.70	-44.5	-45.8	20.9	0.00e+00	0	43	0	732954624	60	4206
2026-01-26 06:11:35.41	356.66	23.53	-45.6	-47.1	19.8	0.00e+00	0	43	0	740294656	61	4623
2026-01-26 06:11:39.44	355.59	23.36	-45.6	-47.1	19.8	0.00e+00	0	43	0	747634688	62	4351
2026-01-26 06:11:43.47	354.53	23.18	-45.9	-47.5	19.3	0.00e+00	0	43	0	754974720	62	4569
2026-01-26 06:11:47.50	353.48	22.98	-45.7	-47.2	19.6	0.00e+00	0	43	0	763363328	62	4410
2026-01-26 06:11:51.52	352.45	22.78	-46.2	-47.8	19.0	0.00e+00	0	43	0	770703360	62	4730
2026-01-26 06:11:55.55	351.43	22.57	-45.8	-47.4	19.4	0.00e+00	0	43	0	778043392	62	4494
2026-01-26 06:11:59.57	350.42	22.35	-45.8	-47.4	19.4	0.00e+00	0	43	0	785383424	62	4494
2026-01-26 06:12:03.60	349.43	22.13	-46.6	-48.5	18.3	0.00e+00	0	43	0	792723456	64	4556
2026-01-26 06:12:07.63	348.45	21.90	-45.8	-47.4	19.4	0.00e+00	0	43	0	801112064	63	4245
2026-01-26 06:12:11.66	347.49	21.66	-46.3	-48.0	18.8	0.00e+00	0	43	0	808452096	63	4593
2026-01-26 06:12:15.69	346.54	21.41	-46.9	-48.9	17.8	0.00e+00	0	43	0	815792128	65	4514
2026-01-26 06:12:19.72	345.61	21.16	-45.6	-47.1	19.7	0.00e+00	0	43	0	823132160	63	4129
2026-01-26 06:12:23.76	344.69	20.90	-45.0	-46.4	20.2	0.00e+00	0	43	0	830472192	62	4037
2026-01-26 06:12:27.79	343.79	20.64	-44.9	-46.2	20.3	0.00e+00	0	43	0	838860800	61	4184
2026-01-26 06:12:31.82	342.90	20.38	-44.2	-45.4	21.3	0.00e+00	0	43	0	846200832	59	4271
2026-01-26 06:12:35.85	342.03	20.11	-44.5	-45.8	21.0	0.00e+00	0	43	0	853540864	59	4466
2026-01-26 06:12:39.88	341.18	19.83	-45.1	-46.5	20.0	0.00e+00	0	43	0	860880896	60	4574
2026-01-26 06:12:43.91	340.34	19.55	-45.2	-46.7	19.9	0.00e+00	0	43	0	869269504	61	4432
2026-01-26 06:12:47.95	339.51	19.27	-44.7	-46.1	20.4	0.00e+00	0	43	0	876609536	61	4120
2026-01-26 06:12:51.98	338.70	18.99	-44.4	-45.6	20.8	0.00e+00	0	43	0	883949568	60	4144
2026-01-26 06:12:56.00	337.91	18.70	-44.5	-45.8	20.7	0.00e+00	0	43	0	891289600	60	4221
2026-01-26 06:13:00.03	337.13	18.41	-44.7	-46.1	20.4	0.00e+00	0	43	0	898629632	60	4353
2026-01-26 06:13:04.06	336.37	18.12	-44.9	-46.3	20.3	0.00e+00	0	43	0	907018240	60	4442
2026-01-26 06:13:08.09	335.62	17.83	-45.0	-46.4	20.1	0.00e+00	0	43	0	914358272	61	4277
2026-01-26 06:13:12.11	334.89	17.54	-44.5	-45.8	20.7	0.00e+00	0	43	0	921698304	60	4217
2026-01-26 06:13:16.14	334.17	17.24	-44.1	-45.4	21.1	0.00e+00	0	43	0	929038336	60	4006
2026-01-26 06:13:20.17	333.46	16.94	-44.6	-45.9	20.7	0.00e+00	0	43	0	936378368	60	4252
2026-01-26 06:13:24.20	332.77	16.65	-44.3	-45.5	21.3	0.00e+00	0	43	0	943718400	59	4306
2026-01-26 06:13:28.23	332.09	16.35	-43.9	-45.0	21.7	0.00e+00	0	43	0	952107008	59	4097
2026-01-26 06:13:32.26	331.43	16.05	-44.6	-45.8	21.0	0.00e+00	0	43	0	959447040	59	4471
2026-01-26 06:13:36.29	330.78	15.75	-44.6	-45.9	20.6	0.00e+00	0	43	0	966787072	60	4282
2026-01-26 06:13:40.32	330.14	15.45	-44.3	-45.4	21.3	0.00e+00	0	43	0	974127104	59	4286
2026-01-26 06:13:44.35	329.51	15.16	-44.5	-45.8	21.0	0.00e+00	0	43	0	982515712	59	4443
2026-01-26 06:13:48.38	328.90	14.86	-45.5	-47.0	19.6	0.00e+00	0	43	0	989855744	61	4577
2026-01-26 06:13:52.41	328.30	14.56	-45.1	-46.5	20.0	0.00e+00	0	43	0	997195776	61	4321
2026-01-26 06:13:56.44	327.71	14.26	-44.8	-46.1	20.4	0.00e+00	0	43	0	1004535808	61	4133
2026-01-26 06:14:00.47	327.14	13.97	-44.6	-45.9	20.5	0.00e+00	0	43	0	1011875840	61	4049
2026-01-26 06:14:04.51	326.57	13.67	-45.2	-46.7	19.8	0.00e+00	0	43	0	1020264448	61	4401
2026-01-26 06:14:08.53	326.02	13.38	-46.2	-47.9	18.7	0.00e+00	0	43	0	1027604480	63	4519
2026-01-26 06:14:12.55	325.48	13.08	-45.5	-47.0	19.6	0.00e+00	0	43	0	1034944512	63	4073
2026-01-26 06:14:16.58	324.95	12.79	-44.9	-46.3	20.2	0.00e+00	0	43	0	1042284544	61	4214
2026-01-26 06:14:20.61	324.43	12.50	-45.0	-46.4	20.1	0.00e+00	0	43	0	1049624576	61	4260
2026-01-26 06:14:24.64	323.92	12.21	-45.1	-46.4	20.0	0.00e+00	0	43	0	1058013184	61	4290
2026-01-26 06:14:28.67	323.42	11.92	-45.2	-46.6	19.8	0.00e+00	0	43	0	1065353216	61	4365
2026-01-26 06:14:32.70	322.93	11.63	-45.6	-47.2	19.3	0.00e+00	0	43	0	1072693248	61	4668
2026-01-26 06:14:36.73	322.45	11.34	-46.2	-47.8	18.7	0.00e+00	0	43	0	1080033280	62	4743
2026-01-26 06:14:40.76	321.98	11.06	-46.1	-47.8	18.7	0.00e+00	0	43	0	1087373312	63	4443
2026-01-26 06:14:44.80	321.52	10.77	-46.3	-48.1	18.4	0.00e+00	0	43	0	1095761920	63	4608
2026-01-26 06:14:48.83	321.07	10.49	-46.0	-47.6	18.8	0.00e+00	0	43	0	1103101952	63	4360
2026-01-26 06:14:52.86	320.62	10.21	-45.9	-47.5	18.9	0.00e+00	0	43	0	1110441984	63	4318
2026-01-26 06:14:56.89	320.19	9.93	-46.1	-47.8	18.7	0.00e+00	0	44	0	1117782016	63	4445
2026-01-26 06:15:00.92	319.76	9.65	-46.5	-48.3	18.1	0.00e+00	0	43	0	1126170624	63	4745
2026-01-26 06:15:04.95	319.35	9.37	-46.5	-48.3	18.0	0.00e+00	0	43	0	1133510656	64	4457
2026-01-26 06:15:08.98	318.94	9.10	-46.4	-48.1	18.2	0.00e+00	0	43	0	1140850688	64	4373
2026-01-26 06:15:13.01	318.53	8.83	-46.3	-48.0	18.3	0.00e+00	0	43	0	1148190720	63	4566
2026-01-26 06:15:17.04	318.14	8.55	-46.4	-48.2	18.2	0.00e+00	0	43	0	1155530752	63	4655
2026-01-26 06:15:21.07	317.75	8.28	-46.6	-48.5	17.7	0.00e+00	0	43	0	1163919360	64	4580
2026-01-26 06:15:25.10	317.37	8.01	-47.1	-49.2	17.0	0.00e+00	0	43	0	1171259392	64	4969
2026-01-26 06:15:29.13	317.00	7.75	-47.1	-49.2	17.0	0.00e+00	0	43	0	1178599424	65	4687
2026-01-26 06:15:33.16	316.64	7.48	-47.3	-49.4	16.8	0.00e+00	0	43	0	1185939456	65	4786
2026-01-26 06:15:37.19	316.28	7.22	-47.2	-49.3	16.9	0.00e+00	0	43	0	1193279488	65	4728
2026-01-26 06:15:41.22	315.93	6.96	-47.3	-49.4	16.7	0.00e+00	0	43	0	1201668096	65	4795
2026-01-26 06:15:45.25	315.58	6.70	-47.7	-50.0	16.1	0.00e+00	0	43	0	1209008128	66	4838
2026-01-26 06:15:49.28	315.24	6.44	-47.8	-50.3	15.7	0.00e+00	0	43	0	1216348160	66	5013
2026-01-26 06:15:53.31	314.91	6.18	-48.0	-50.7	15.3	0.00e+00	0	43	0	1223688192	66	5224
2026-01-26 06:15:57.33	314.59	5.93	-47.6	-50.0	15.9	0.00e+00	0	43	0	1231028224	66	4852
2026-01-26 06:16:01.36	314.27	5.67	-46.8	-48.8	17.0	0.00e+00	0	43	0	1239416832	65	4473
2026-01-26 06:16:05.39	313.95	5.42	-46.5	-48.5	17.2	0.00e+00	0	43	0	1246756864	64	4563
2026-01-26 06:16:09.41	313.64	5.17	-46.3	-48.3	17.5	0.00e+00	0	43	0	1254096896	64	4450
2026-01-26 06:16:13.44	313.34	4.92	-52.3	-67.3	3.8	1.49e+00	0	43	104	1260388352	75	21027
2026-01-26 06:16:17.46	313.04	4.67	-52.5	-67.5	3.8	1.49e+00	0	44	104	1260388352	75	21524
2026-01-26 06:16:21.49	312.75	4.43	-52.8	-67.8	3.8	1.49e+00	0	44	104	1260388352	76	21101
2026-01-26 06:16:25.52	312.46	4.18	-53.1	-68.0	3.8	1.49e+00	0	43	104	1260388352	76	21627
2026-01-26 06:16:29.55	312.18	3.94	-53.2	-68.1	3.8	1.49e+00	0	43	104	1260388352	76	21945
2026-01-26 06:16:33.59	311.90	3.70	-53.1	-68.1	3.8	1.49e+00	0	43	104	1260388352	76	21846
2026-01-26 06:16:37.61	311.63	3.46	-53.1	-68.1	3.8	1.49e+00	0	44	104	1260388352	76	21766
2026-01-26 06:16:41.64	311.36	3.22	-53.1	-68.0	3.8	1.49e+00	0	43	104	1260388352	76	21753
2026-01-26 06:16:45.67	311.09	2.98	-53.1	-68.0	3.8	1.49e+00	0	44	104	1260388352	76	21736
2026-01-26 06:16:49.70	310.83	2.75	-53.1	-68.0	3.8	1.49e+00	0	44	104	1260388352	76	21701
2026-01-26 06:16:53.73	310.58	2.51	-53.1	-68.0	3.8	1.49e+00	0	44	104	1260388352	76	21704
2026-01-26 06:16:57.76	310.33	2.28	-53.1	-68.0	3.8	1.49e+00	0	43	104	1260388352	76	21656
2026-01-26 06:17:01.80	310.08	2.05	-53.0	-68.0	3.8	1.49e+00	0	43	104	1260388352	76	21604

#Closed at: 2026-01-26 06:17:03
#Recorded file [1260 MB]: D:/lorett/data/31041_260126_090416.dat