passes_logs/2026/01/26/R3.2S_Murmansk/R3.2S_Murmansk__20260126_094301_NOAA_20_JPSS-1_rec.log

#Pass ID: 20260126_094301_NOAA 20 (JPSS-1)
#Satellite: NOAA 20 (JPSS-1)
#Configuration: NOAA 20
#almurnet v.1.7.20251203
#Start time: 2026-01-26 09:43:02

#Version: 2.2.20231116
#Station: R3.2S_Murmansk
#Location: 33.079688 lon 68.888172 lat
#TLE: 1 43013U 17073A   26025.90277267  .00000170  00000+0  10165-3 0  9997
#TLE: 2 43013  98.7646 326.7276 0001032  23.5492 336.5731 14.19540457424285

#Time	Az	El	Level	Level2	SNR	BER	BlckErr	Temp	State	Recorded	gain1	gain2
2026-01-26 09:43:02.43	156.24	2.05	-48.0	-62.9	3.8	1.49e+00	0	41	0	0	66	21283
2026-01-26 09:43:06.44	156.28	2.31	-48.0	-62.9	3.8	1.49e+00	0	41	104	0	66	21335
2026-01-26 09:43:10.48	156.31	2.57	-48.0	-62.9	3.8	1.49e+00	0	41	104	0	66	21284
2026-01-26 09:43:14.51	156.34	2.84	-48.0	-62.9	3.8	1.49e+00	0	41	104	0	66	21337
2026-01-26 09:43:18.55	156.38	3.11	-48.0	-62.8	3.8	1.49e+00	0	42	104	0	66	21256
2026-01-26 09:43:22.57	156.41	3.38	-48.0	-62.8	3.8	1.49e+00	0	42	104	0	66	21228
2026-01-26 09:43:26.60	156.44	3.65	-48.0	-62.9	3.8	1.49e+00	0	42	104	0	66	21323
2026-01-26 09:43:30.63	156.48	3.92	-48.0	-62.9	3.8	1.49e+00	0	42	104	0	66	21280
2026-01-26 09:43:34.66	156.51	4.20	-48.0	-62.9	3.8	1.49e+00	0	42	104	0	66	21298
2026-01-26 09:43:38.69	156.55	4.48	-48.0	-62.8	3.8	1.49e+00	0	42	104	0	66	21235
2026-01-26 09:43:42.71	156.59	4.77	-48.0	-62.8	3.8	1.49e+00	0	42	104	0	66	21258
2026-01-26 09:43:46.75	156.62	5.06	-48.0	-62.9	3.8	1.49e+00	0	42	104	0	66	21314
2026-01-26 09:43:50.79	156.66	5.35	-48.0	-62.9	3.8	1.49e+00	0	42	104	0	66	21353
2026-01-26 09:43:54.82	156.70	5.64	-48.0	-62.9	3.8	1.49e+00	0	42	104	0	66	21285
2026-01-26 09:43:58.84	156.73	5.94	-48.0	-62.9	3.8	1.49e+00	0	42	104	0	66	21333
2026-01-26 09:44:02.88	156.77	6.24	-48.0	-62.9	3.8	1.49e+00	0	42	104	0	66	21262
2026-01-26 09:44:06.91	156.81	6.54	-48.0	-62.9	3.8	1.49e+00	0	42	104	0	66	21287
2026-01-26 09:44:10.94	156.85	6.85	-48.0	-62.9	3.8	1.49e+00	0	43	104	0	66	21265
2026-01-26 09:44:14.97	156.89	7.16	-48.0	-62.9	3.8	1.49e+00	0	43	104	0	66	21348
2026-01-26 09:44:19.00	156.93	7.48	-48.0	-62.9	3.8	1.49e+00	0	43	104	0	66	21283
2026-01-26 09:44:23.04	156.97	7.80	-48.0	-62.9	3.8	1.49e+00	0	43	104	0	66	21275
2026-01-26 09:44:27.07	157.01	8.12	-48.0	-62.9	3.8	1.49e+00	0	43	104	0	66	21335
2026-01-26 09:44:31.11	157.06	8.45	-48.0	-62.9	3.8	1.49e+00	0	43	104	0	66	21295
2026-01-26 09:44:35.14	157.10	8.78	-48.0	-62.9	3.8	1.49e+00	0	43	104	0	66	21290
2026-01-26 09:44:39.17	157.14	9.12	-48.0	-62.9	3.8	1.49e+00	0	43	104	0	66	21298
2026-01-26 09:44:43.20	157.19	9.46	-48.0	-62.9	3.8	1.49e+00	0	43	104	0	66	21295
2026-01-26 09:44:47.23	157.23	9.80	-48.0	-62.9	3.8	1.49e+00	0	43	104	0	66	21304
2026-01-26 09:44:51.27	157.28	10.15	-48.0	-62.9	3.8	1.49e+00	0	43	104	0	66	21293
2026-01-26 09:44:55.30	157.33	10.51	-48.0	-62.9	3.8	1.49e+00	0	43	104	0	66	21304
2026-01-26 09:44:59.33	157.37	10.87	-48.0	-62.9	3.8	1.49e+00	0	43	104	0	66	21288
2026-01-26 09:45:03.37	157.42	11.24	-48.0	-62.8	3.8	1.49e+00	0	43	104	0	66	21249
2026-01-26 09:45:07.40	157.47	11.61	-48.0	-62.9	3.8	1.49e+00	0	43	104	0	66	21314
2026-01-26 09:45:11.43	157.52	11.99	-48.0	-62.9	3.8	1.49e+00	0	43	104	0	66	21300
2026-01-26 09:45:15.47	157.57	12.37	-48.0	-62.9	3.8	1.49e+00	0	43	104	0	66	21279
2026-01-26 09:45:19.49	157.63	12.76	-48.0	-62.9	3.8	1.49e+00	0	43	104	0	66	21288
2026-01-26 09:45:23.53	157.68	13.16	-48.0	-62.9	3.8	1.49e+00	0	43	104	0	66	21292
2026-01-26 09:45:27.57	157.73	13.56	-48.0	-62.9	3.8	1.49e+00	0	43	104	0	66	21310
2026-01-26 09:45:31.59	157.79	13.97	-48.0	-62.8	3.8	1.49e+00	0	43	104	0	66	21236
2026-01-26 09:45:35.63	157.84	14.38	-48.0	-62.9	3.8	1.49e+00	0	43	104	0	66	21322
2026-01-26 09:45:39.67	157.90	14.81	-48.0	-62.9	3.8	1.49e+00	0	43	104	0	66	21285
2026-01-26 09:45:43.70	157.96	15.24	-48.0	-62.9	3.8	1.49e+00	0	43	104	0	66	21344
2026-01-26 09:45:47.73	158.02	15.68	-48.0	-62.9	3.8	1.49e+00	0	43	104	0	66	21285
2026-01-26 09:45:51.77	158.08	16.12	-48.0	-62.9	3.8	1.49e+00	0	43	104	0	66	21261
2026-01-26 09:45:55.79	158.15	16.58	-48.0	-62.9	3.8	1.49e+00	0	43	104	0	66	21273
2026-01-26 09:45:59.83	158.21	17.04	-48.0	-62.8	3.8	1.49e+00	0	43	104	0	66	21257
2026-01-26 09:46:03.87	158.28	17.52	-48.0	-62.9	3.8	1.49e+00	0	43	104	0	66	21302
2026-01-26 09:46:07.91	158.34	18.00	-48.0	-62.9	3.8	1.49e+00	0	43	104	0	66	21332
2026-01-26 09:46:11.93	158.41	18.49	-48.0	-62.8	3.8	1.49e+00	0	43	104	0	66	21253
2026-01-26 09:46:15.97	158.49	18.99	-48.0	-62.9	3.8	1.49e+00	0	43	104	0	66	21294
2026-01-26 09:46:20.00	158.56	19.50	-48.0	-62.9	3.8	1.49e+00	0	43	104	0	66	21316
2026-01-26 09:46:24.03	158.63	20.02	-48.0	-62.8	3.8	1.49e+00	0	43	104	0	66	21259
2026-01-26 09:46:28.06	158.71	20.56	-48.0	-62.9	3.8	1.49e+00	0	43	104	0	66	21303
2026-01-26 09:46:32.10	158.79	21.10	-48.0	-62.9	3.8	1.49e+00	0	43	104	0	66	21337
2026-01-26 09:46:36.12	158.87	21.66	-48.0	-62.8	3.8	1.49e+00	0	43	104	0	66	21241
2026-01-26 09:46:40.15	158.96	22.23	-48.0	-62.9	3.8	1.49e+00	0	43	104	0	66	21345
2026-01-26 09:46:44.18	159.04	22.81	-48.0	-62.9	3.8	1.49e+00	0	43	104	0	66	21321
2026-01-26 09:46:48.21	159.13	23.41	-48.0	-62.8	3.8	1.49e+00	0	43	104	0	66	21248
2026-01-26 09:46:52.24	159.23	24.02	-48.0	-62.9	3.8	1.49e+00	0	43	104	0	66	21292
2026-01-26 09:46:56.27	159.32	24.64	-48.0	-62.9	3.8	1.49e+00	0	43	104	0	66	21309
2026-01-26 09:47:00.30	159.42	25.28	-48.0	-62.9	3.8	1.49e+00	0	43	104	0	66	21272
2026-01-26 09:47:04.33	159.52	25.94	-48.0	-62.8	3.8	1.49e+00	0	43	104	0	66	21248
2026-01-26 09:47:08.36	159.63	26.61	-48.0	-62.9	3.8	1.49e+00	0	43	104	0	66	21325
2026-01-26 09:47:12.39	159.74	27.30	-48.0	-62.9	3.8	1.49e+00	0	43	104	0	66	21267
2026-01-26 09:47:16.42	159.86	28.00	-48.0	-62.9	3.8	1.49e+00	0	44	104	0	66	21316
2026-01-26 09:47:20.46	159.97	28.73	-48.0	-62.8	3.8	1.49e+00	0	43	104	0	66	21222
2026-01-26 09:47:24.48	160.10	29.47	-48.0	-62.9	3.8	1.49e+00	0	43	104	0	66	21265
2026-01-26 09:47:28.51	160.23	30.23	-48.0	-62.9	3.8	1.49e+00	0	43	104	0	66	21278
2026-01-26 09:47:32.55	160.36	31.02	-48.0	-62.8	3.8	1.49e+00	0	43	104	0	66	21244
2026-01-26 09:47:36.58	160.50	31.83	-48.0	-62.9	3.8	1.49e+00	0	43	104	0	66	21319
2026-01-26 09:47:40.61	160.65	32.65	-48.0	-62.8	3.8	1.49e+00	0	43	104	0	66	21256
2026-01-26 09:47:44.63	160.80	33.50	-48.0	-62.8	3.8	1.49e+00	0	43	104	0	66	21240
2026-01-26 09:47:48.66	160.97	34.38	-48.0	-62.9	3.8	1.49e+00	0	43	104	0	66	21277
2026-01-26 09:47:52.69	161.14	35.28	-48.0	-62.9	3.8	1.49e+00	0	43	104	0	66	21299
2026-01-26 09:47:56.73	161.32	36.21	-48.0	-62.9	3.8	1.49e+00	0	43	104	0	66	21328
2026-01-26 09:48:00.75	161.50	37.16	-48.0	-62.9	3.8	1.49e+00	0	43	104	0	66	21302
2026-01-26 09:48:04.79	161.70	38.15	-48.0	-62.9	3.8	1.49e+00	0	43	104	0	66	21303
2026-01-26 09:48:08.82	161.91	39.16	-48.0	-62.9	3.8	1.49e+00	0	43	104	0	66	21352
2026-01-26 09:48:12.86	162.14	40.20	-48.0	-62.9	3.8	1.49e+00	0	43	104	0	66	21304
2026-01-26 09:48:16.89	162.38	41.27	-48.0	-62.9	3.8	1.49e+00	0	43	104	0	66	21284
2026-01-26 09:48:20.92	162.63	42.38	-48.0	-62.9	3.8	1.49e+00	0	43	104	0	66	21296
2026-01-26 09:48:24.95	162.90	43.52	-48.0	-62.9	3.8	1.49e+00	0	43	104	0	66	21278
2026-01-26 09:48:28.98	163.19	44.69	-48.0	-62.9	3.8	1.49e+00	0	43	104	0	66	21268
2026-01-26 09:48:33.01	163.50	45.89	-48.0	-62.9	3.8	1.49e+00	0	43	104	0	66	21263
2026-01-26 09:48:37.04	163.83	47.14	-48.0	-62.9	3.8	1.49e+00	0	43	104	0	66	21306
2026-01-26 09:48:41.07	164.19	48.42	-48.0	-62.9	3.8	1.49e+00	0	43	104	0	66	21359
2026-01-26 09:48:45.09	164.58	49.73	-48.0	-62.9	3.8	1.49e+00	0	43	104	0	66	21265
2026-01-26 09:48:49.12	165.01	51.08	-48.0	-62.9	3.8	1.49e+00	0	43	104	0	66	21311
2026-01-26 09:48:53.15	165.47	52.48	-48.0	-62.8	3.8	1.49e+00	0	43	104	0	66	21242
2026-01-26 09:48:57.18	165.98	53.91	-48.0	-62.9	3.8	1.49e+00	0	43	104	0	66	21298
2026-01-26 09:49:01.21	166.54	55.38	-48.0	-62.8	3.8	1.49e+00	0	43	104	0	66	21254
2026-01-26 09:49:05.25	167.17	56.89	-48.0	-62.9	3.8	1.49e+00	0	43	104	0	66	21281
2026-01-26 09:49:09.29	167.86	58.44	-48.0	-62.9	3.8	1.49e+00	0	43	104	0	66	21318
2026-01-26 09:49:13.32	168.64	60.02	-48.0	-62.9	3.8	1.49e+00	0	43	104	0	66	21289
2026-01-26 09:49:17.36	169.52	61.64	-48.0	-62.8	3.8	1.49e+00	0	43	104	0	66	21249
2026-01-26 09:49:21.40	170.53	63.30	-48.0	-62.9	3.8	1.49e+00	0	43	104	0	66	21276
2026-01-26 09:49:25.44	171.68	64.99	-48.0	-62.9	3.8	1.49e+00	0	43	104	0	66	21271
2026-01-26 09:49:29.47	173.02	66.70	-48.0	-62.9	3.8	1.49e+00	0	43	104	0	66	21272
2026-01-26 09:49:33.50	174.59	68.43	-48.0	-62.9	3.8	1.49e+00	0	43	104	0	66	21284
2026-01-26 09:49:37.54	176.46	70.18	-48.0	-62.9	3.8	1.49e+00	0	43	104	0	66	21278
2026-01-26 09:49:41.57	178.72	71.94	-48.0	-62.9	3.8	1.49e+00	0	43	104	0	66	21342
2026-01-26 09:49:45.59	181.48	73.69	-48.0	-62.8	3.8	1.49e+00	0	43	104	0	66	21259
2026-01-26 09:49:49.62	184.94	75.43	-48.0	-62.9	3.8	1.49e+00	0	43	104	0	66	21308
2026-01-26 09:49:53.66	189.36	77.12	-48.0	-62.9	3.8	1.49e+00	0	43	104	0	66	21298
2026-01-26 09:49:57.69	195.12	78.73	-48.0	-62.9	3.8	1.49e+00	0	43	104	0	66	21314
2026-01-26 09:50:01.72	202.73	80.21	-48.0	-62.9	3.8	1.49e+00	0	43	104	0	66	21290
2026-01-26 09:50:05.75	212.86	81.47	-48.0	-62.9	3.8	1.49e+00	0	43	104	0	66	21266
2026-01-26 09:50:09.77	225.94	82.39	-48.0	-62.9	3.8	1.49e+00	0	44	104	0	66	21319
2026-01-26 09:50:13.79	241.57	82.83	-48.0	-62.9	3.8	1.49e+00	0	43	104	0	66	21289
2026-01-26 09:50:17.83	257.97	82.70	-48.0	-62.9	3.8	1.49e+00	0	43	104	0	66	21296
2026-01-26 09:50:21.86	272.62	82.02	-48.0	-62.9	3.8	1.49e+00	0	44	104	0	66	21278
2026-01-26 09:50:25.89	284.34	80.93	-48.0	-62.9	3.8	1.49e+00	0	44	104	0	66	21290
2026-01-26 09:50:29.92	293.24	79.56	-48.0	-62.8	3.8	1.49e+00	0	43	104	0	66	21232
2026-01-26 09:50:33.96	299.94	78.01	-48.0	-62.9	3.8	1.49e+00	0	43	104	0	66	21301
2026-01-26 09:50:37.98	305.01	76.36	-48.0	-62.9	3.8	1.49e+00	0	43	104	0	66	21320
2026-01-26 09:50:42.00	308.95	74.65	-48.0	-62.9	3.8	1.49e+00	0	43	104	0	66	21267
2026-01-26 09:50:46.03	312.06	72.91	-48.0	-62.9	3.8	1.49e+00	0	44	104	0	66	21312
2026-01-26 09:50:50.06	314.58	71.16	-48.0	-62.9	3.8	1.49e+00	0	44	104	0	66	21336
2026-01-26 09:50:54.09	316.65	69.40	-48.0	-62.9	3.8	1.49e+00	0	43	104	0	66	21294
2026-01-26 09:50:58.12	318.37	67.66	-48.0	-62.9	3.8	1.49e+00	0	44	104	0	66	21267
2026-01-26 09:51:02.15	319.83	65.94	-48.0	-62.9	3.8	1.49e+00	0	43	104	0	66	21271
2026-01-26 09:51:06.18	321.08	64.25	-48.0	-62.9	3.8	1.49e+00	0	43	104	0	66	21268
2026-01-26 09:51:10.21	322.16	62.58	-48.0	-62.9	3.8	1.49e+00	0	43	104	0	66	21293
2026-01-26 09:51:14.24	323.11	60.95	-48.0	-62.9	3.8	1.49e+00	0	44	104	0	66	21264
2026-01-26 09:51:18.26	323.94	59.35	-48.0	-62.9	3.8	1.49e+00	0	43	104	0	66	21280
2026-01-26 09:51:22.29	324.68	57.79	-48.0	-62.8	3.8	1.49e+00	0	43	104	0	66	21259
2026-01-26 09:51:26.32	325.34	56.27	-48.0	-62.8	3.8	1.49e+00	0	43	104	0	66	21250
2026-01-26 09:51:30.36	325.93	54.77	-48.0	-62.8	3.8	1.49e+00	0	44	104	0	66	21255
2026-01-26 09:51:34.39	326.47	53.33	-48.0	-62.8	3.8	1.49e+00	0	43	104	0	66	21255
2026-01-26 09:51:38.41	326.96	51.92	-48.0	-62.8	3.8	1.49e+00	0	43	104	0	66	21251
2026-01-26 09:51:42.44	327.41	50.55	-48.0	-62.9	3.8	1.49e+00	0	43	104	0	66	21280
2026-01-26 09:51:46.48	327.82	49.21	-48.0	-62.9	3.8	1.49e+00	0	43	104	0	66	21303
2026-01-26 09:51:50.51	328.20	47.91	-48.0	-62.8	3.8	1.49e+00	0	43	104	0	66	21227
2026-01-26 09:51:54.54	328.54	46.65	-48.0	-62.9	3.8	1.49e+00	0	44	104	0	66	21345
2026-01-26 09:51:58.57	328.87	45.43	-48.0	-62.8	3.8	1.49e+00	0	43	104	0	66	21254
2026-01-26 09:52:02.60	329.17	44.24	-48.0	-62.8	3.8	1.49e+00	0	43	104	0	66	21225
2026-01-26 09:52:06.63	329.45	43.09	-48.0	-62.8	3.8	1.49e+00	0	43	104	0	66	21253
2026-01-26 09:52:10.66	329.71	41.97	-47.9	-62.8	3.8	1.49e+00	0	43	104	0	66	21163
2026-01-26 09:52:14.69	329.96	40.88	-47.9	-62.8	3.8	1.49e+00	0	43	104	0	66	21126
2026-01-26 09:52:18.73	330.19	39.82	-47.9	-62.8	3.8	1.49e+00	0	44	104	0	66	21076
2026-01-26 09:52:22.76	330.41	38.80	-48.0	-62.8	3.8	1.49e+00	0	43	104	0	66	21137
2026-01-26 09:52:26.79	330.62	37.80	-48.0	-62.8	3.8	1.49e+00	0	43	104	0	66	21171
2026-01-26 09:52:30.82	330.81	36.84	-47.9	-62.8	3.8	1.49e+00	0	44	104	0	66	21148
2026-01-26 09:52:34.85	331.00	35.90	-48.0	-62.8	3.8	1.49e+00	0	44	104	0	66	21254
2026-01-26 09:52:38.88	331.17	34.99	-47.9	-62.8	3.8	1.49e+00	0	43	104	0	66	21025
2026-01-26 09:52:42.91	331.34	34.10	-47.9	-62.8	3.8	1.49e+00	0	43	104	0	66	21065
2026-01-26 09:52:46.94	331.50	33.24	-47.9	-62.8	3.8	1.49e+00	0	43	104	0	66	21088
2026-01-26 09:52:50.98	331.65	32.39	-47.9	-62.8	3.8	1.49e+00	0	43	104	0	66	21092
2026-01-26 09:52:55.01	331.80	31.58	-48.0	-62.9	3.8	1.49e+00	0	43	104	0	66	21308
2026-01-26 09:52:59.03	331.94	30.79	-47.8	-62.8	3.8	1.49e+00	0	43	104	0	66	21139
2026-01-26 09:53:03.07	332.07	30.01	-47.8	-62.7	3.8	1.49e+00	0	43	104	0	66	20902
2026-01-26 09:53:07.10	332.20	29.26	-47.9	-62.7	3.8	1.49e+00	0	44	104	0	66	20948
2026-01-26 09:53:11.13	332.32	28.52	-47.9	-62.7	3.8	1.49e+00	0	43	104	0	66	20838
2026-01-26 09:53:15.16	332.44	27.81	-47.2	-62.3	3.9	1.49e+00	0	43	104	0	66	20030
2026-01-26 09:53:19.19	332.56	27.11	-47.1	-62.4	3.9	1.49e+00	0	43	104	0	65	21278
2026-01-26 09:53:23.22	332.67	26.43	-47.2	-62.3	3.9	1.49e+00	0	44	104	0	65	21194
2026-01-26 09:53:27.25	332.77	25.77	-47.2	-62.3	3.9	1.49e+00	0	43	104	0	65	21108
2026-01-26 09:53:31.28	332.88	25.12	-47.1	-62.4	3.9	1.49e+00	0	43	104	0	65	21300
2026-01-26 09:53:35.32	332.97	24.49	-48.0	-62.9	3.8	1.49e+00	0	44	104	0	66	21283
2026-01-26 09:53:39.35	333.07	23.88	-48.0	-62.8	3.8	1.49e+00	0	43	104	0	66	21236
2026-01-26 09:53:43.38	333.16	23.27	-48.0	-62.9	3.8	1.49e+00	0	43	104	0	66	21287
2026-01-26 09:53:47.41	333.25	22.69	-48.0	-62.8	3.8	1.49e+00	0	44	104	0	66	21234
2026-01-26 09:53:51.45	333.34	22.11	-48.0	-62.9	3.8	1.49e+00	0	43	104	0	66	21269
2026-01-26 09:53:55.48	333.43	21.55	-48.0	-62.9	3.8	1.49e+00	0	44	104	0	66	21292
2026-01-26 09:53:59.52	333.51	20.99	-48.0	-62.8	3.8	1.49e+00	0	43	104	0	66	21218
2026-01-26 09:54:03.55	333.59	20.46	-48.0	-62.9	3.8	1.49e+00	0	44	104	0	66	21274
2026-01-26 09:54:07.58	333.67	19.93	-48.0	-62.8	3.8	1.49e+00	0	44	104	0	66	21243
2026-01-26 09:54:11.62	333.74	19.41	-48.0	-62.9	3.8	1.49e+00	0	43	104	0	66	21268
2026-01-26 09:54:15.65	333.82	18.91	-48.0	-62.8	3.8	1.49e+00	0	44	104	0	66	21217
2026-01-26 09:54:19.68	333.89	18.41	-48.0	-62.9	3.8	1.49e+00	0	43	104	0	66	21294
2026-01-26 09:54:23.71	333.96	17.92	-48.0	-62.9	3.8	1.49e+00	0	43	104	0	66	21298
2026-01-26 09:54:27.74	334.03	17.45	-48.0	-62.9	3.8	1.49e+00	0	44	104	0	66	21282
2026-01-26 09:54:31.77	334.10	16.98	-48.0	-62.9	3.8	1.49e+00	0	43	104	0	66	21306
2026-01-26 09:54:35.80	334.16	16.52	-48.0	-62.8	3.8	1.49e+00	0	43	104	0	66	21247
2026-01-26 09:54:39.82	334.23	16.07	-48.0	-62.8	3.8	1.49e+00	0	43	104	0	66	21260
2026-01-26 09:54:43.86	334.29	15.63	-48.0	-62.8	3.8	1.49e+00	0	43	104	0	66	21258
2026-01-26 09:54:47.89	334.35	15.20	-48.0	-62.9	3.8	1.49e+00	0	44	104	0	66	21311
2026-01-26 09:54:51.92	334.41	14.77	-48.0	-62.8	3.8	1.49e+00	0	43	104	0	66	21254
2026-01-26 09:54:55.95	334.47	14.35	-48.0	-62.8	3.8	1.49e+00	0	44	104	0	66	21209
2026-01-26 09:54:59.99	334.53	13.94	-48.0	-62.8	3.8	1.49e+00	0	43	104	0	66	21221
2026-01-26 09:55:04.02	334.59	13.53	-48.0	-62.8	3.8	1.49e+00	0	43	104	0	66	21256
2026-01-26 09:55:08.05	334.64	13.13	-48.0	-62.8	3.8	1.49e+00	0	44	104	0	66	21215
2026-01-26 09:55:12.08	334.70	12.74	-48.0	-62.9	3.8	1.49e+00	0	44	104	0	66	21266
2026-01-26 09:55:16.11	334.75	12.36	-48.0	-62.9	3.8	1.49e+00	0	43	104	0	66	21293
2026-01-26 09:55:20.14	334.81	11.98	-48.0	-62.8	3.8	1.49e+00	0	43	104	0	66	21208
2026-01-26 09:55:24.17	334.86	11.60	-48.0	-62.8	3.8	1.49e+00	0	43	104	0	66	21246
2026-01-26 09:55:28.21	334.91	11.23	-48.0	-62.9	3.8	1.49e+00	0	43	104	0	66	21270
2026-01-26 09:55:32.24	334.96	10.87	-48.0	-62.8	3.8	1.49e+00	0	43	104	0	66	21245
2026-01-26 09:55:36.27	335.01	10.51	-48.0	-62.9	3.8	1.49e+00	0	43	104	0	66	21290
2026-01-26 09:55:40.29	335.06	10.16	-48.0	-62.8	3.8	1.49e+00	0	44	104	0	66	21229
2026-01-26 09:55:44.33	335.11	9.81	-48.0	-62.8	3.8	1.49e+00	0	44	104	0	66	21250
2026-01-26 09:55:48.36	335.15	9.47	-48.0	-62.8	3.8	1.49e+00	0	43	104	0	66	21259
2026-01-26 09:55:52.39	335.20	9.13	-48.0	-62.9	3.8	1.49e+00	0	43	104	0	66	21309
2026-01-26 09:55:56.42	335.25	8.80	-48.0	-62.8	3.8	1.49e+00	0	43	104	0	66	21184
2026-01-26 09:56:00.45	335.29	8.47	-48.0	-62.8	3.8	1.49e+00	0	43	104	0	66	21246
2026-01-26 09:56:04.48	335.34	8.14	-48.0	-62.8	3.8	1.49e+00	0	43	104	0	66	21206
2026-01-26 09:56:08.51	335.38	7.82	-48.0	-62.8	3.8	1.49e+00	0	44	104	0	66	21251
2026-01-26 09:56:12.54	335.42	7.51	-48.0	-62.8	3.8	1.49e+00	0	43	104	0	66	21253
2026-01-26 09:56:16.57	335.47	7.19	-48.0	-62.8	3.8	1.49e+00	0	43	104	0	66	21243
2026-01-26 09:56:20.60	335.51	6.88	-48.0	-62.9	3.8	1.49e+00	0	43	104	0	66	21261
2026-01-26 09:56:24.63	335.55	6.58	-48.0	-62.8	3.8	1.49e+00	0	44	104	0	66	21243
2026-01-26 09:56:28.66	335.59	6.28	-48.0	-62.8	3.8	1.49e+00	0	43	104	0	66	21260
2026-01-26 09:56:32.69	335.64	5.98	-48.0	-62.8	3.8	1.49e+00	0	43	104	0	66	21228
2026-01-26 09:56:36.72	335.68	5.68	-48.0	-62.8	3.8	1.49e+00	0	43	104	0	66	21249
2026-01-26 09:56:40.75	335.72	5.39	-48.0	-62.8	3.8	1.49e+00	0	43	104	0	66	21222
2026-01-26 09:56:44.78	335.76	5.10	-48.0	-62.8	3.8	1.49e+00	0	44	104	0	66	21234
2026-01-26 09:56:48.80	335.80	4.82	-48.0	-62.8	3.8	1.49e+00	0	43	104	0	66	21217
2026-01-26 09:56:52.83	335.83	4.53	-48.0	-62.8	3.8	1.49e+00	0	43	104	0	66	21185
2026-01-26 09:56:56.87	335.87	4.25	-48.0	-62.8	3.8	1.49e+00	0	43	104	0	66	21227
2026-01-26 09:57:00.90	335.91	3.98	-48.0	-62.8	3.8	1.49e+00	0	43	104	0	66	21238
2026-01-26 09:57:04.93	335.95	3.70	-48.0	-62.8	3.8	1.49e+00	0	43	104	0	66	21149
2026-01-26 09:57:08.97	335.99	3.43	-48.0	-62.8	3.8	1.49e+00	0	43	104	0	66	21153
2026-01-26 09:57:13.00	336.02	3.16	-48.0	-62.8	3.8	1.49e+00	0	43	104	0	66	21207
2026-01-26 09:57:17.03	336.06	2.90	-48.0	-62.8	3.8	1.49e+00	0	43	104	0	66	21151
2026-01-26 09:57:21.06	336.10	2.63	-48.0	-62.8	3.8	1.49e+00	0	44	104	0	66	21171
2026-01-26 09:57:25.09	336.13	2.37	-48.0	-62.8	3.8	1.49e+00	0	43	104	0	66	21220
2026-01-26 09:57:29.13	336.17	2.11	-48.0	-62.8	3.8	1.49e+00	0	44	104	0	66	21244

#Closed at: 2026-01-26 09:57:31
#Recorded file [0 MB]: D:/lorett/data/31041_260126_124302.dat