passes_logs/2026/01/26/R3.2S_Murmansk/R3.2S_Murmansk__20260126_002200_FENGYUN_3D_rec.log

#Pass ID: 20260126_002200_FENGYUN 3D
#Satellite: FENGYUN 3D
#Configuration: FENGYUN 3D
#almurnet v.1.7.20251203
#Start time: 2026-01-26 00:22:00

#Version: 2.2.20231116
#Station: R3.2S_Murmansk
#Location: 33.079688 lon 68.888172 lat
#TLE: 1 43010U 17072A   26025.50461972  .00000046  00000+0  43592-4 0  9990
#TLE: 2 43010  98.9962 357.4844 0002523  89.7890 270.3575 14.19699798424744

#Time	Az	El	Level	Level2	SNR	BER	BlckErr	Temp	State	Recorded	gain1	gain2
2026-01-26 00:22:00.00	19.36	1.97	-53.7	-65.7	3.8	8.47e-01	0	42	0	0	78	14727
2026-01-26 00:22:04.04	19.65	2.19	-52.3	-64.2	3.8	8.46e-01	0	42	104	0	76	13970
2026-01-26 00:22:08.07	19.95	2.41	-52.1	-63.9	3.8	8.47e-01	0	42	104	0	76	13471
2026-01-26 00:22:12.10	20.25	2.63	-52.1	-63.9	3.8	8.46e-01	0	42	104	0	76	13493
2026-01-26 00:22:16.14	20.56	2.85	-52.1	-63.9	3.8	8.46e-01	0	42	104	0	76	13530
2026-01-26 00:22:20.17	20.87	3.07	-52.0	-63.8	3.8	8.46e-01	0	42	104	0	76	13263
2026-01-26 00:22:24.21	21.19	3.30	-52.0	-63.7	3.8	8.45e-01	0	42	104	0	76	13145
2026-01-26 00:22:28.23	21.51	3.52	-52.1	-63.9	3.8	8.46e-01	0	42	104	0	76	13536
2026-01-26 00:22:32.26	21.83	3.75	-52.0	-63.8	3.8	8.46e-01	0	42	104	0	76	13399
2026-01-26 00:22:36.29	22.16	3.97	-51.9	-62.5	3.8	8.46e-01	0	43	104	0	75	12104
2026-01-26 00:22:40.32	22.49	4.20	-51.5	-59.5	4.5	8.33e-01	0	42	0	0	75	8619
2026-01-26 00:22:44.35	22.83	4.43	-46.7	-48.5	14.4	2.40e-05	0	43	0	18874368	65	4330
2026-01-26 00:22:48.38	23.18	4.66	-43.5	-44.6	18.7	0.00e+00	0	43	0	40894464	58	4117
2026-01-26 00:22:52.41	23.52	4.89	-44.7	-46.0	17.4	0.00e+00	0	43	0	63963136	59	4579
2026-01-26 00:22:56.45	23.88	5.13	-46.0	-47.7	15.5	0.00e+00	0	43	0	87031808	62	4683
2026-01-26 00:23:00.48	24.24	5.36	-47.9	-50.2	12.4	4.78e-01	0	43	0	101711872	68	4440
2026-01-26 00:23:04.51	24.60	5.60	-42.8	-43.8	19.6	0.00e+00	0	43	0	124780544	57	3995
2026-01-26 00:23:08.53	24.97	5.83	-42.6	-43.6	19.9	0.00e+00	0	43	0	146800640	56	4111
2026-01-26 00:23:12.56	25.35	6.07	-42.6	-43.6	19.9	0.00e+00	0	43	0	168820736	56	4142
2026-01-26 00:23:16.59	25.73	6.31	-42.3	-43.2	20.3	0.00e+00	0	43	0	191889408	56	3955
2026-01-26 00:23:20.63	26.12	6.55	-42.3	-43.3	20.3	0.00e+00	0	43	0	214958080	56	3963
2026-01-26 00:23:24.66	26.52	6.79	-42.3	-43.3	20.3	0.00e+00	0	43	0	236978176	56	3991
2026-01-26 00:23:28.69	26.92	7.04	-42.5	-43.4	20.2	0.00e+00	0	43	0	260046848	56	4051
2026-01-26 00:23:32.72	27.32	7.28	-41.9	-42.9	20.6	0.00e+00	0	43	0	283115520	55	4022
2026-01-26 00:23:36.74	27.74	7.53	-41.8	-42.7	20.8	0.00e+00	0	43	0	305135616	55	3954
2026-01-26 00:23:40.77	28.16	7.77	-42.0	-43.0	20.6	0.00e+00	0	43	0	328204288	55	4059
2026-01-26 00:23:44.80	28.58	8.02	-41.9	-42.8	20.7	0.00e+00	0	43	0	350224384	55	4004
2026-01-26 00:23:48.83	29.02	8.27	-41.7	-42.6	21.1	0.00e+00	0	43	0	373293056	55	3874
2026-01-26 00:23:52.86	29.46	8.52	-41.4	-42.3	21.4	0.00e+00	0	43	0	396361728	54	3971
2026-01-26 00:23:56.89	29.91	8.77	-41.3	-42.1	21.5	0.00e+00	0	43	0	418381824	54	3908
2026-01-26 00:24:00.92	30.36	9.02	-41.4	-42.2	21.4	0.00e+00	0	43	0	441450496	54	3952
2026-01-26 00:24:04.95	30.83	9.27	-41.1	-42.0	21.7	0.00e+00	0	43	0	464519168	54	3836
2026-01-26 00:24:08.98	31.30	9.53	-41.2	-42.0	21.7	0.00e+00	0	43	0	486539264	54	3862
2026-01-26 00:24:13.00	31.78	9.78	-41.1	-42.0	21.7	0.00e+00	0	43	0	509607936	54	3853
2026-01-26 00:24:17.04	32.27	10.04	-41.1	-42.0	21.8	0.00e+00	0	43	0	532676608	54	3828
2026-01-26 00:24:21.07	32.76	10.29	-40.6	-41.4	22.3	0.00e+00	0	43	0	554696704	53	3815
2026-01-26 00:24:25.10	33.27	10.55	-40.6	-41.4	22.3	0.00e+00	0	44	0	576716800	53	3804
2026-01-26 00:24:29.13	33.78	10.81	-40.8	-41.6	22.2	0.00e+00	0	44	0	599785472	53	3909
2026-01-26 00:24:33.15	34.30	11.06	-40.9	-41.8	22.0	0.00e+00	0	43	0	622854144	53	3967
2026-01-26 00:24:37.18	34.83	11.32	-40.6	-41.4	22.4	0.00e+00	0	44	0	644874240	53	3802
2026-01-26 00:24:41.21	35.37	11.58	-40.8	-41.6	22.2	0.00e+00	0	43	0	667942912	53	3893
2026-01-26 00:24:45.25	35.92	11.84	-40.6	-41.5	22.3	0.00e+00	0	43	0	691011584	53	3828
2026-01-26 00:24:49.28	36.48	12.11	-40.4	-41.2	22.5	0.00e+00	0	44	0	713031680	52	3951
2026-01-26 00:24:53.32	37.05	12.37	-40.3	-41.1	22.6	0.00e+00	0	43	0	736100352	52	3900
2026-01-26 00:24:57.35	37.62	12.63	-40.2	-41.0	22.7	0.00e+00	0	43	0	759169024	52	3840
2026-01-26 00:25:01.38	38.21	12.89	-40.1	-40.9	22.8	0.00e+00	0	44	0	781189120	52	3816
2026-01-26 00:25:05.40	38.81	13.15	-40.2	-41.0	22.8	0.00e+00	0	43	0	804257792	52	3859
2026-01-26 00:25:09.43	39.42	13.41	-40.0	-40.8	23.0	0.00e+00	0	44	0	827326464	52	3757
2026-01-26 00:25:13.45	40.03	13.67	-40.0	-40.8	23.1	0.00e+00	0	44	0	849346560	51	3969
2026-01-26 00:25:17.47	40.66	13.93	-40.3	-41.1	22.8	0.00e+00	0	44	0	872415232	51	4137
2026-01-26 00:25:21.51	41.30	14.20	-40.4	-41.2	22.8	0.00e+00	0	44	0	895483904	51	4166
2026-01-26 00:25:25.54	41.96	14.46	-40.2	-41.0	22.9	0.00e+00	0	43	0	917504000	51	4092
2026-01-26 00:25:29.58	42.62	14.72	-40.1	-40.9	23.1	0.00e+00	0	43	0	939524096	51	4011
2026-01-26 00:25:33.60	43.29	14.98	-39.7	-40.5	23.4	0.00e+00	0	43	0	962592768	51	3840
2026-01-26 00:25:37.64	43.98	15.23	-39.9	-40.7	23.3	0.00e+00	0	43	0	985661440	51	3941
2026-01-26 00:25:41.67	44.67	15.49	-39.7	-40.5	23.5	0.00e+00	0	43	0	1007681536	51	3833
2026-01-26 00:25:45.70	45.38	15.75	-39.6	-40.3	23.6	0.00e+00	0	43	0	1030750208	51	3775
2026-01-26 00:25:49.72	46.10	16.00	-39.4	-40.2	23.8	0.00e+00	0	44	0	1053818880	50	3925
2026-01-26 00:25:53.76	46.84	16.26	-39.4	-40.2	23.7	0.00e+00	0	44	0	1075838976	50	3934
2026-01-26 00:25:57.79	47.58	16.51	-39.5	-40.2	23.7	0.00e+00	0	44	0	1098907648	50	3953
2026-01-26 00:26:01.82	48.34	16.75	-39.4	-40.2	23.8	0.00e+00	0	43	0	1121976320	50	3933
2026-01-26 00:26:05.85	49.11	17.00	-39.2	-39.9	24.0	0.00e+00	0	43	0	1143996416	50	3796
2026-01-26 00:26:09.89	49.89	17.25	-39.1	-39.9	24.1	0.00e+00	0	44	0	1167065088	50	3781
2026-01-26 00:26:13.91	50.68	17.49	-39.2	-40.0	24.0	0.00e+00	0	44	0	1190133760	50	3828
2026-01-26 00:26:17.94	51.49	17.73	-39.3	-40.0	24.0	0.00e+00	0	44	0	1212153856	50	3859
2026-01-26 00:26:21.97	52.30	17.96	-39.3	-40.0	24.0	0.00e+00	0	44	0	1235222528	50	3841
2026-01-26 00:26:26.02	53.14	18.19	-39.3	-40.1	23.9	0.00e+00	0	44	0	1258291200	50	3876
2026-01-26 00:26:30.04	53.98	18.42	-39.2	-39.9	24.0	0.00e+00	0	43	0	1280311296	50	3812
2026-01-26 00:26:34.06	54.83	18.65	-38.9	-39.6	24.3	0.00e+00	0	43	0	1302331392	49	3910
2026-01-26 00:26:38.09	55.70	18.87	-38.9	-39.7	24.3	0.00e+00	0	44	0	1325400064	49	3926
2026-01-26 00:26:42.11	56.58	19.08	-38.7	-39.4	24.5	0.00e+00	0	43	0	1348468736	49	3820
2026-01-26 00:26:46.14	57.47	19.29	-38.5	-39.2	24.7	0.00e+00	0	44	0	1370488832	49	3728
2026-01-26 00:26:50.17	58.37	19.50	-38.9	-39.7	24.3	0.00e+00	0	43	0	1393557504	49	3921
2026-01-26 00:26:54.20	59.29	19.70	-38.8	-39.5	24.5	0.00e+00	0	44	0	1415577600	49	3843
2026-01-26 00:26:58.23	60.22	19.89	-38.7	-39.4	24.5	0.00e+00	0	44	0	1438646272	49	3807
2026-01-26 00:27:02.26	61.16	20.08	-38.8	-39.5	24.4	0.00e+00	0	43	0	1461714944	49	3854
2026-01-26 00:27:06.30	62.11	20.26	-38.7	-39.4	24.5	0.00e+00	0	43	0	1483735040	49	3808
2026-01-26 00:27:10.32	63.07	20.44	-38.7	-39.4	24.6	0.00e+00	0	43	0	1506803712	49	3800
2026-01-26 00:27:14.36	64.04	20.61	-38.5	-39.2	24.8	0.00e+00	0	44	0	1529872384	48	3928
2026-01-26 00:27:18.40	65.03	20.77	-38.3	-39.0	24.9	0.00e+00	0	43	0	1551892480	48	3847
2026-01-26 00:27:22.42	66.02	20.92	-38.3	-39.0	24.9	0.00e+00	0	44	0	1574961152	48	3831
2026-01-26 00:27:26.44	67.02	21.07	-38.3	-39.0	24.9	0.00e+00	0	44	0	1598029824	48	3863
2026-01-26 00:27:30.47	68.03	21.21	-38.6	-39.3	24.6	0.00e+00	0	43	0	1620049920	48	4001
2026-01-26 00:27:34.50	69.05	21.34	-38.5	-39.3	24.7	0.00e+00	0	44	0	1642070016	48	3966
2026-01-26 00:27:38.53	70.07	21.46	-38.5	-39.2	24.7	0.00e+00	0	44	0	1665138688	48	3933
2026-01-26 00:27:42.55	71.11	21.58	-38.5	-39.2	24.7	0.00e+00	0	43	0	1688207360	48	3945
2026-01-26 00:27:46.58	72.15	21.68	-38.2	-38.9	25.0	0.00e+00	0	44	0	1710227456	48	3789
2026-01-26 00:27:50.60	73.20	21.78	-38.3	-39.0	24.9	0.00e+00	0	44	0	1733296128	48	3841
2026-01-26 00:27:54.63	74.25	21.86	-38.0	-38.7	25.2	0.00e+00	0	44	0	1756364800	48	3716
2026-01-26 00:27:58.66	75.31	21.94	-38.3	-39.0	25.0	0.00e+00	0	44	0	1778384896	48	3831
2026-01-26 00:28:02.67	76.38	22.00	-38.1	-38.8	25.1	0.00e+00	0	44	0	1801453568	48	3753
2026-01-26 00:28:06.70	77.45	22.06	-38.4	-39.1	24.8	0.00e+00	0	43	0	1823473664	48	3893
2026-01-26 00:28:10.72	78.52	22.11	-38.2	-38.9	25.0	0.00e+00	0	44	0	1846542336	48	3788
2026-01-26 00:28:14.74	79.59	22.14	-38.2	-38.9	25.0	0.00e+00	0	43	0	1869611008	48	3805
2026-01-26 00:28:18.77	80.67	22.17	-38.3	-39.0	24.9	0.00e+00	0	43	0	1891631104	48	3847
2026-01-26 00:28:22.80	81.75	22.19	-38.2	-38.9	25.0	0.00e+00	0	43	0	1914699776	48	3783
2026-01-26 00:28:26.83	82.83	22.19	-38.2	-38.9	25.0	0.00e+00	0	43	0	1937768448	48	3817
2026-01-26 00:28:30.86	83.91	22.19	-38.3	-39.0	24.9	0.00e+00	0	44	0	1959788544	48	3845
2026-01-26 00:28:34.89	84.99	22.18	-38.4	-39.1	24.8	0.00e+00	0	44	0	1981808640	48	3908
2026-01-26 00:28:38.92	86.07	22.15	-38.3	-39.0	24.9	0.00e+00	0	44	0	2004877312	48	3853
2026-01-26 00:28:42.94	87.15	22.12	-38.1	-38.8	25.0	0.00e+00	0	44	0	2027945984	48	3776
2026-01-26 00:28:46.97	88.22	22.07	-38.4	-39.1	24.8	0.00e+00	0	44	0	2049966080	48	3912
2026-01-26 00:28:50.99	89.29	22.02	-38.4	-39.2	24.8	0.00e+00	0	44	0	2073034752	48	3914
2026-01-26 00:28:55.02	90.36	21.95	-38.3	-39.0	24.9	0.00e+00	0	44	0	2096103424	48	3853
2026-01-26 00:28:59.05	91.42	21.88	-38.4	-39.1	24.8	0.00e+00	0	43	0	2118123520	48	3873
2026-01-26 00:29:03.09	92.49	21.79	-38.6	-39.3	24.6	0.00e+00	0	43	0	2141192192	48	3998
2026-01-26 00:29:07.13	93.54	21.70	-38.6	-39.4	24.6	0.00e+00	0	43	0	2164260864	48	4013
2026-01-26 00:29:11.16	94.59	21.60	-38.5	-39.2	24.7	0.00e+00	0	44	0	2186280960	48	3946
2026-01-26 00:29:15.19	95.63	21.48	-38.5	-39.2	24.7	0.00e+00	0	44	0	2209349632	48	3953
2026-01-26 00:29:19.23	96.66	21.36	-38.4	-39.1	24.8	0.00e+00	0	44	0	2232418304	48	3884
2026-01-26 00:29:23.26	97.68	21.23	-38.4	-39.2	24.7	0.00e+00	0	44	0	2254438400	48	3921
2026-01-26 00:29:27.29	98.70	21.10	-38.5	-39.2	24.7	0.00e+00	0	44	0	2277507072	48	3951
2026-01-26 00:29:31.32	99.70	20.95	-39.0	-39.7	24.2	0.00e+00	0	43	0	2300575744	48	4192
2026-01-26 00:29:35.36	100.70	20.80	-38.7	-39.4	24.5	0.00e+00	0	44	0	2322595840	48	4047
2026-01-26 00:29:39.39	101.69	20.64	-38.8	-39.5	24.4	0.00e+00	0	44	0	2344615936	48	4095
2026-01-26 00:29:43.43	102.67	20.47	-39.0	-39.7	24.2	0.00e+00	0	44	0	2367684608	48	4183
2026-01-26 00:29:47.45	103.63	20.29	-39.0	-39.7	24.2	0.00e+00	0	43	0	2390753280	48	4189
2026-01-26 00:29:51.48	104.58	20.11	-38.9	-39.7	24.3	0.00e+00	0	43	0	2412773376	48	4153
2026-01-26 00:29:55.51	105.53	19.92	-39.2	-39.9	24.1	0.00e+00	0	44	0	2435842048	48	4271
2026-01-26 00:29:59.54	106.46	19.73	-39.1	-39.8	24.1	0.00e+00	0	43	0	2458910720	48	4226
2026-01-26 00:30:03.57	107.38	19.53	-39.1	-39.8	24.1	0.00e+00	0	44	0	2480930816	48	4234
2026-01-26 00:30:07.60	108.29	19.32	-39.2	-39.9	24.0	0.00e+00	0	43	0	2503999488	49	4046
2026-01-26 00:30:11.63	109.19	19.11	-39.0	-39.7	24.2	0.00e+00	0	43	0	2527068160	49	3924
2026-01-26 00:30:15.67	110.07	18.89	-39.4	-40.2	23.8	0.00e+00	0	44	0	2549088256	49	4158
2026-01-26 00:30:19.70	110.95	18.67	-39.5	-40.3	23.7	0.00e+00	0	44	0	2572156928	49	4216
2026-01-26 00:30:23.74	111.81	18.45	-39.3	-40.1	23.6	0.00e+00	0	44	0	2595225600	49	4104
2026-01-26 00:30:27.78	112.66	18.22	-39.2	-40.0	23.7	0.00e+00	0	43	0	2617245696	49	4064
2026-01-26 00:30:31.81	113.49	17.99	-39.4	-40.3	23.5	0.00e+00	0	43	0	2640314368	49	4195
2026-01-26 00:30:35.84	114.32	17.75	-39.7	-40.5	23.2	0.00e+00	0	44	0	2663383040	50	4096
2026-01-26 00:30:39.87	115.13	17.51	-39.9	-40.8	23.0	0.00e+00	0	43	0	2685403136	50	4202
2026-01-26 00:30:43.91	115.93	17.27	-40.1	-41.0	22.8	0.00e+00	0	44	0	2708471808	51	4063
2026-01-26 00:30:47.94	116.71	17.02	-39.9	-40.8	23.0	0.00e+00	0	43	0	2730491904	51	3963
2026-01-26 00:30:51.97	117.49	16.77	-39.9	-40.8	22.9	0.00e+00	0	44	0	2753560576	51	3961
2026-01-26 00:30:56.01	118.25	16.52	-39.7	-40.5	23.2	0.00e+00	0	44	0	2776629248	51	3850
2026-01-26 00:31:00.04	119.00	16.27	-39.9	-40.7	23.0	0.00e+00	0	44	0	2798649344	51	3953
2026-01-26 00:31:04.07	119.74	16.02	-40.0	-40.8	22.8	0.00e+00	0	44	0	2821718016	51	4004
2026-01-26 00:31:08.10	120.46	15.76	-40.1	-40.9	22.7	0.00e+00	0	44	0	2843738112	51	4051
2026-01-26 00:31:12.13	121.17	15.50	-40.1	-41.0	22.7	0.00e+00	0	44	0	2866806784	51	4070
2026-01-26 00:31:16.16	121.87	15.25	-40.4	-41.3	22.3	0.00e+00	0	44	0	2889875456	51	4223
2026-01-26 00:31:20.19	122.56	14.99	-40.4	-41.2	22.4	0.00e+00	0	44	0	2911895552	51	4182
2026-01-26 00:31:24.23	123.24	14.72	-40.3	-41.2	22.4	0.00e+00	0	44	0	2934964224	51	4147
2026-01-26 00:31:28.25	123.91	14.46	-40.3	-41.1	22.4	0.00e+00	0	44	0	2958032896	51	4144
2026-01-26 00:31:32.29	124.56	14.20	-40.3	-41.1	22.4	0.00e+00	0	43	0	2980052992	51	4144
2026-01-26 00:31:36.31	125.20	13.94	-40.2	-41.0	22.5	0.00e+00	0	44	0	3003121664	51	4090
2026-01-26 00:31:40.34	125.84	13.68	-40.2	-41.1	22.5	0.00e+00	0	44	0	3026190336	51	4100
2026-01-26 00:31:44.37	126.46	13.41	-40.6	-41.5	22.0	0.00e+00	0	44	0	3048210432	51	4316
2026-01-26 00:31:48.41	127.07	13.15	-40.4	-41.3	22.2	0.00e+00	0	44	0	3071279104	51	4225
2026-01-26 00:31:52.44	127.67	12.88	-40.3	-41.2	22.3	0.00e+00	0	44	0	3093299200	51	4169
2026-01-26 00:31:56.47	128.26	12.62	-40.8	-41.7	21.8	0.00e+00	0	44	0	3116367872	52	4149
2026-01-26 00:32:00.50	128.84	12.36	-40.6	-41.5	21.9	0.00e+00	0	44	0	3138387968	52	4078
2026-01-26 00:32:04.53	129.41	12.09	-40.8	-41.6	21.7	0.00e+00	0	44	0	3161456640	52	4144
2026-01-26 00:32:08.55	129.97	11.83	-40.7	-41.6	21.8	0.00e+00	0	44	0	3184525312	52	4118
2026-01-26 00:32:12.59	130.53	11.57	-40.9	-41.8	21.6	0.00e+00	0	44	0	3206545408	52	4222
2026-01-26 00:32:16.63	131.07	11.31	-41.0	-41.9	21.5	0.00e+00	0	44	0	3229614080	52	4262
2026-01-26 00:32:20.66	131.60	11.05	-41.0	-42.0	21.4	0.00e+00	0	44	0	3252682752	52	4295
2026-01-26 00:32:24.70	132.13	10.78	-41.2	-42.1	21.3	0.00e+00	0	44	0	3274702848	52	4359
2026-01-26 00:32:28.73	132.64	10.52	-41.0	-41.9	21.4	0.00e+00	0	43	0	3297771520	52	4278
2026-01-26 00:32:32.76	133.15	10.27	-41.2	-42.2	21.1	0.00e+00	0	44	0	3320840192	53	4150
2026-01-26 00:32:36.79	133.65	10.01	-41.4	-42.4	21.0	0.00e+00	0	43	0	3342860288	53	4257
2026-01-26 00:32:40.83	134.14	9.75	-41.2	-42.1	21.2	0.00e+00	0	44	0	3365928960	53	4126
2026-01-26 00:32:44.87	134.62	9.49	-41.2	-42.1	21.2	0.00e+00	0	44	0	3388997632	53	4110
2026-01-26 00:32:48.89	135.09	9.24	-41.2	-42.1	21.2	0.00e+00	0	44	0	3411017728	53	4107
2026-01-26 00:32:52.93	135.56	8.98	-41.3	-42.2	21.0	0.00e+00	0	44	0	3434086400	53	4189
2026-01-26 00:32:56.96	136.01	8.73	-41.5	-42.4	20.8	0.00e+00	0	44	0	3456106496	53	4278
2026-01-26 00:33:01.00	136.46	8.48	-41.6	-42.6	20.6	0.00e+00	0	44	0	3479175168	53	4355
2026-01-26 00:33:05.03	136.91	8.22	-41.8	-42.9	20.4	0.00e+00	0	44	0	3502243840	54	4243
2026-01-26 00:33:09.05	137.34	7.97	-42.1	-43.1	20.1	0.00e+00	0	44	0	3524263936	55	4129
2026-01-26 00:33:13.09	137.77	7.72	-42.4	-43.4	19.8	0.00e+00	0	44	0	3547332608	55	4273
2026-01-26 00:33:17.13	138.19	7.48	-42.0	-43.0	20.2	0.00e+00	0	44	0	3570401280	55	4074
2026-01-26 00:33:21.16	138.61	7.23	-42.3	-43.3	19.9	0.00e+00	0	44	0	3592421376	55	4233
2026-01-26 00:33:25.19	139.01	6.98	-42.4	-43.4	19.7	0.00e+00	0	44	0	3615490048	55	4291
2026-01-26 00:33:29.22	139.41	6.74	-42.4	-43.5	19.6	0.00e+00	0	44	0	3638558720	55	4314
2026-01-26 00:33:33.25	139.81	6.49	-42.3	-43.4	19.7	0.00e+00	0	43	0	3660578816	55	4268
2026-01-26 00:33:37.29	140.20	6.25	-42.9	-44.0	19.2	0.00e+00	0	43	0	3683647488	56	4307
2026-01-26 00:33:41.32	140.58	6.01	-42.6	-43.7	19.4	0.00e+00	0	44	0	3706716160	56	4183
2026-01-26 00:33:45.35	140.96	5.77	-42.6	-43.7	19.4	0.00e+00	0	44	0	3728736256	56	4154
2026-01-26 00:33:49.39	141.33	5.53	-42.9	-44.1	19.0	0.00e+00	0	44	0	3751804928	57	4123
2026-01-26 00:33:53.41	141.69	5.29	-43.0	-44.1	18.8	0.00e+00	0	44	0	3774873600	57	4140
2026-01-26 00:33:57.45	142.05	5.06	-42.7	-43.9	19.1	0.00e+00	0	44	0	3796893696	57	4020
2026-01-26 00:34:01.48	142.41	4.82	-52.9	-64.8	3.8	8.46e-01	0	44	104	3804233728	76	14985
2026-01-26 00:34:05.51	142.75	4.59	-53.4	-65.3	3.8	8.46e-01	0	44	104	3804233728	77	15003
2026-01-26 00:34:09.55	143.10	4.36	-53.8	-65.7	3.8	8.45e-01	0	44	104	3804233728	78	14755
2026-01-26 00:34:13.58	143.44	4.12	-54.0	-65.9	3.8	8.47e-01	0	44	104	3804233728	78	15152
2026-01-26 00:34:17.61	143.77	3.89	-54.1	-66.0	3.8	8.46e-01	0	44	104	3804233728	78	15378
2026-01-26 00:34:21.63	144.10	3.67	-54.2	-66.1	3.8	8.46e-01	0	44	104	3804233728	78	15509
2026-01-26 00:34:25.67	144.42	3.44	-54.3	-66.2	3.8	8.46e-01	0	44	104	3804233728	79	14803
2026-01-26 00:34:29.71	144.74	3.21	-54.3	-66.2	3.8	8.46e-01	0	44	104	3804233728	79	14794
2026-01-26 00:34:33.74	145.05	2.98	-54.2	-66.1	3.8	8.46e-01	0	44	104	3804233728	79	14699
2026-01-26 00:34:37.78	145.36	2.76	-54.1	-66.0	3.8	8.46e-01	0	44	104	3804233728	79	14473
2026-01-26 00:34:41.81	145.67	2.54	-53.9	-65.9	3.8	8.46e-01	0	44	104	3804233728	79	14231
2026-01-26 00:34:45.85	145.97	2.31	-53.6	-65.5	3.8	8.46e-01	0	44	104	3804233728	79	13695
2026-01-26 00:34:49.88	146.27	2.09	-53.2	-65.1	3.8	8.46e-01	0	44	104	3804233728	78	13840

#Closed at: 2026-01-26 00:34:53
#Recorded file [3804 MB]: D:/lorett/data/31041_260126_032159.dat