passes_logs/2026/01/26/R3.2S_Murmansk/R3.2S_Murmansk__20260126_070214_FENGYUN_3D_rec.log

#Pass ID: 20260126_070214_FENGYUN 3D
#Satellite: FENGYUN 3D
#Configuration: FENGYUN 3D
#almurnet v.1.7.20251203
#Start time: 2026-01-26 07:02:14

#Version: 2.2.20231116
#Station: R3.2S_Murmansk
#Location: 33.079688 lon 68.888172 lat
#TLE: 1 43010U 17072A   26025.99795741 -.00000136  00000+0 -42313-4 0  9999
#TLE: 2 43010  98.9962 357.9855 0002515  89.6991 270.4472 14.19699257424818

#Time	Az	El	Level	Level2	SNR	BER	BlckErr	Temp	State	Recorded	gain1	gain2
2026-01-26 07:02:14.72	59.64	2.02	-54.0	-66.0	3.8	8.48e-01	0	41	0	0	79	14387
2026-01-26 07:02:18.74	59.38	2.25	-54.0	-65.9	3.8	8.47e-01	0	41	104	0	78	15218
2026-01-26 07:02:22.78	59.12	2.49	-54.0	-65.9	3.8	8.45e-01	0	41	104	0	78	15175
2026-01-26 07:02:26.81	58.86	2.72	-53.9	-65.9	3.8	8.46e-01	0	42	104	0	78	15129
2026-01-26 07:02:30.84	58.59	2.95	-54.1	-66.1	3.8	8.46e-01	0	42	104	0	78	15501
2026-01-26 07:02:34.87	58.32	3.19	-54.1	-66.1	3.8	8.46e-01	0	42	104	0	78	15423
2026-01-26 07:02:38.91	58.04	3.43	-53.9	-65.9	3.8	8.45e-01	0	42	104	0	78	15095
2026-01-26 07:02:42.93	57.76	3.66	-53.7	-65.6	3.8	8.47e-01	0	42	104	0	78	14654
2026-01-26 07:02:46.96	57.48	3.90	-53.2	-65.1	3.8	8.47e-01	0	42	104	0	78	13862
2026-01-26 07:02:51.00	57.18	4.15	-52.3	-64.1	3.8	8.47e-01	0	42	104	0	76	13853
2026-01-26 07:02:55.02	56.89	4.39	-51.3	-59.6	4.3	8.28e-01	0	42	0	0	74	9221
2026-01-26 07:02:59.05	56.59	4.63	-49.6	-53.7	8.6	8.85e-02	0	42	0	8388608	71	5578
2026-01-26 07:03:03.08	56.28	4.88	-46.9	-49.0	13.6	2.17e-05	0	43	0	30408704	65	4551
2026-01-26 07:03:07.11	55.97	5.12	-45.8	-47.5	15.3	0.00e+00	0	43	0	53477376	62	4579
2026-01-26 07:03:11.14	55.65	5.37	-51.4	-61.6	3.8	8.31e-01	0	43	104	73400320	73	12264
2026-01-26 07:03:15.17	55.33	5.62	-43.5	-44.6	18.6	0.00e+00	0	43	0	92274688	57	4381
2026-01-26 07:03:19.20	55.00	5.87	-43.3	-44.4	18.8	0.00e+00	0	43	0	115343360	57	4262
2026-01-26 07:03:23.23	54.66	6.13	-43.0	-44.1	19.2	0.00e+00	0	43	0	138412032	57	4108
2026-01-26 07:03:27.26	54.32	6.38	-43.5	-44.7	18.6	0.00e+00	0	43	0	160432128	57	4407
2026-01-26 07:03:31.29	53.97	6.64	-43.0	-44.1	19.3	0.00e+00	0	43	0	183500800	57	4117
2026-01-26 07:03:35.32	53.62	6.89	-43.2	-44.3	19.1	0.00e+00	0	43	0	205520896	57	4207
2026-01-26 07:03:39.35	53.26	7.15	-43.6	-44.8	18.6	0.00e+00	0	43	0	228589568	57	4456
2026-01-26 07:03:43.39	52.89	7.41	-42.8	-43.9	19.6	0.00e+00	0	43	0	251658240	57	4006
2026-01-26 07:03:47.43	52.51	7.68	-42.9	-43.9	19.6	0.00e+00	0	43	0	274726912	57	4018
2026-01-26 07:03:51.46	52.13	7.94	-42.3	-43.2	20.3	0.00e+00	0	43	0	296747008	56	3947
2026-01-26 07:03:55.50	51.74	8.21	-42.7	-43.7	19.9	0.00e+00	0	43	0	319815680	56	4167
2026-01-26 07:03:59.53	51.35	8.47	-42.2	-43.2	20.5	0.00e+00	0	43	0	342884352	56	3933
2026-01-26 07:04:03.56	50.94	8.74	-42.3	-43.3	20.3	0.00e+00	0	43	0	364904448	55	4220
2026-01-26 07:04:07.60	50.53	9.01	-42.2	-43.1	20.4	0.00e+00	0	43	0	387973120	55	4137
2026-01-26 07:04:11.63	50.11	9.28	-42.4	-43.3	20.3	0.00e+00	0	43	0	411041792	55	4233
2026-01-26 07:04:15.67	49.68	9.55	-42.1	-43.0	20.6	0.00e+00	0	43	0	433061888	55	4094
2026-01-26 07:04:19.70	49.24	9.83	-42.1	-43.1	20.6	0.00e+00	0	43	0	456130560	55	4120
2026-01-26 07:04:23.73	48.80	10.10	-42.1	-43.1	20.6	0.00e+00	0	43	0	479199232	55	4099
2026-01-26 07:04:27.76	48.35	10.38	-42.1	-43.0	20.7	0.00e+00	0	43	0	501219328	55	4094
2026-01-26 07:04:31.79	47.88	10.66	-41.7	-42.7	21.1	0.00e+00	0	43	0	523239424	55	3917
2026-01-26 07:04:35.82	47.41	10.94	-41.7	-42.6	21.1	0.00e+00	0	43	0	546308096	55	3903
2026-01-26 07:04:39.85	46.93	11.22	-41.6	-42.5	21.2	0.00e+00	0	43	0	569376768	55	3856
2026-01-26 07:04:43.87	46.44	11.50	-41.7	-42.6	21.2	0.00e+00	0	43	0	591396864	55	3871
2026-01-26 07:04:47.90	45.94	11.78	-41.2	-42.0	21.7	0.00e+00	0	43	0	614465536	54	3851
2026-01-26 07:04:51.93	45.43	12.06	-41.3	-42.2	21.6	0.00e+00	0	43	0	637534208	54	3929
2026-01-26 07:04:55.97	44.91	12.35	-41.3	-42.1	21.6	0.00e+00	0	43	0	659554304	54	3907
2026-01-26 07:05:00.00	44.38	12.63	-41.3	-42.1	21.6	0.00e+00	0	43	0	682622976	54	3904
2026-01-26 07:05:04.03	43.84	12.92	-41.0	-41.9	21.9	0.00e+00	0	43	0	705691648	54	3790
2026-01-26 07:05:08.06	43.29	13.21	-41.0	-41.9	21.9	0.00e+00	0	43	0	727711744	53	4022
2026-01-26 07:05:12.09	42.73	13.49	-40.7	-41.5	22.2	0.00e+00	0	43	0	750780416	53	3866
2026-01-26 07:05:16.13	42.15	13.78	-40.9	-41.7	22.1	0.00e+00	0	43	0	773849088	53	3931
2026-01-26 07:05:20.16	41.56	14.07	-40.8	-41.6	22.2	0.00e+00	0	43	0	795869184	53	3887
2026-01-26 07:05:24.19	40.97	14.36	-40.7	-41.5	22.2	0.00e+00	0	43	0	818937856	53	3868
2026-01-26 07:05:28.22	40.36	14.65	-40.7	-41.5	22.3	0.00e+00	0	43	0	840957952	53	3840
2026-01-26 07:05:32.26	39.73	14.94	-40.6	-41.4	22.4	0.00e+00	0	43	0	864026624	52	4027
2026-01-26 07:05:36.29	39.10	15.23	-40.3	-41.1	22.7	0.00e+00	0	43	0	886046720	52	3908
2026-01-26 07:05:40.33	38.45	15.52	-40.4	-41.2	22.7	0.00e+00	0	43	0	909115392	52	3923
2026-01-26 07:05:44.35	37.79	15.81	-40.3	-41.1	22.8	0.00e+00	0	43	0	932184064	52	3883
2026-01-26 07:05:48.38	37.12	16.10	-40.1	-40.9	23.0	0.00e+00	0	43	0	954204160	52	3792
2026-01-26 07:05:52.42	36.43	16.39	-40.1	-40.9	23.0	0.00e+00	0	43	0	977272832	51	4042
2026-01-26 07:05:56.45	35.73	16.67	-40.3	-41.1	22.9	0.00e+00	0	43	0	1000341504	51	4102
2026-01-26 07:06:00.48	35.02	16.96	-40.2	-41.0	23.0	0.00e+00	0	43	0	1022361600	51	4065
2026-01-26 07:06:04.51	34.29	17.24	-39.8	-40.5	23.4	0.00e+00	0	43	0	1045430272	51	3861
2026-01-26 07:06:08.54	33.55	17.52	-39.9	-40.6	23.4	0.00e+00	0	43	0	1068498944	51	3905
2026-01-26 07:06:12.56	32.80	17.80	-39.6	-40.4	23.6	0.00e+00	0	43	0	1090519040	51	3793
2026-01-26 07:06:16.58	32.03	18.08	-39.5	-40.3	23.7	0.00e+00	0	43	0	1113587712	51	3752
2026-01-26 07:06:20.61	31.24	18.36	-39.5	-40.2	23.8	0.00e+00	0	43	0	1135607808	50	3947
2026-01-26 07:06:24.65	30.44	18.63	-39.4	-40.1	23.9	0.00e+00	0	43	0	1158676480	50	3898
2026-01-26 07:06:28.69	29.63	18.90	-39.3	-40.0	24.0	0.00e+00	0	43	0	1181745152	50	3852
2026-01-26 07:06:32.71	28.80	19.17	-39.4	-40.1	23.9	0.00e+00	0	43	0	1203765248	50	3910
2026-01-26 07:06:36.74	27.96	19.44	-39.1	-39.8	24.2	0.00e+00	0	43	0	1226833920	50	3756
2026-01-26 07:06:40.78	27.10	19.70	-39.1	-39.8	24.2	0.00e+00	0	43	0	1248854016	50	3780
2026-01-26 07:06:44.81	26.23	19.95	-39.1	-39.9	24.1	0.00e+00	0	43	0	1271922688	50	3796
2026-01-26 07:06:48.83	25.34	20.20	-39.0	-39.7	24.3	0.00e+00	0	43	0	1294991360	49	3937
2026-01-26 07:06:52.87	24.44	20.45	-39.1	-39.9	24.2	0.00e+00	0	44	0	1317011456	49	4005
2026-01-26 07:06:56.91	23.52	20.69	-39.0	-39.7	24.3	0.00e+00	0	43	0	1340080128	49	3936
2026-01-26 07:07:00.93	22.59	20.93	-38.9	-39.6	24.3	0.00e+00	0	43	0	1363148800	49	3904
2026-01-26 07:07:04.96	21.65	21.16	-38.8	-39.5	24.5	0.00e+00	0	43	0	1385168896	49	3843
2026-01-26 07:07:08.99	20.69	21.38	-38.8	-39.5	24.5	0.00e+00	0	43	0	1408237568	49	3866
2026-01-26 07:07:13.01	19.72	21.60	-38.9	-39.6	24.4	0.00e+00	0	43	0	1430257664	49	3890
2026-01-26 07:07:17.04	18.73	21.80	-38.7	-39.4	24.6	0.00e+00	0	43	0	1453326336	49	3807
2026-01-26 07:07:21.07	17.73	22.01	-38.5	-39.2	24.8	0.00e+00	0	43	0	1476395008	49	3725
2026-01-26 07:07:25.10	16.72	22.20	-38.5	-39.2	24.8	0.00e+00	0	43	0	1498415104	48	3930
2026-01-26 07:07:29.13	15.69	22.39	-38.3	-39.1	25.0	0.00e+00	0	43	0	1521483776	48	3870
2026-01-26 07:07:33.15	14.66	22.56	-38.4	-39.1	24.9	0.00e+00	0	43	0	1544552448	48	3902
2026-01-26 07:07:37.17	13.61	22.73	-38.4	-39.1	24.9	0.00e+00	0	44	0	1566572544	48	3893
2026-01-26 07:07:41.19	12.56	22.89	-38.2	-38.9	25.1	0.00e+00	0	43	0	1588592640	48	3815
2026-01-26 07:07:45.22	11.48	23.04	-38.4	-39.1	24.9	0.00e+00	0	43	0	1611661312	48	3900
2026-01-26 07:07:49.26	10.40	23.18	-38.5	-39.2	24.8	0.00e+00	0	43	0	1634729984	48	3934
2026-01-26 07:07:53.29	9.31	23.30	-38.4	-39.1	25.0	0.00e+00	0	43	0	1656750080	48	3876
2026-01-26 07:07:57.32	8.21	23.42	-38.2	-38.9	25.1	0.00e+00	0	43	0	1679818752	48	3792
2026-01-26 07:08:01.35	7.11	23.53	-37.7	-38.4	25.1	0.00e+00	0	44	0	1702887424	47	3806
2026-01-26 07:08:05.38	5.99	23.62	-37.6	-38.3	25.2	0.00e+00	0	43	0	1724907520	47	3754
2026-01-26 07:08:09.41	4.87	23.71	-37.7	-38.5	25.1	0.00e+00	0	43	0	1747976192	47	3828
2026-01-26 07:08:13.45	3.74	23.78	-37.9	-38.7	24.9	0.00e+00	0	43	0	1771044864	47	3921
2026-01-26 07:08:17.48	2.61	23.84	-37.8	-38.5	25.0	0.00e+00	0	43	0	1793064960	47	3854
2026-01-26 07:08:21.50	1.48	23.89	-37.7	-38.4	25.1	0.00e+00	0	43	0	1816133632	47	3806
2026-01-26 07:08:25.53	0.34	23.92	-37.5	-38.2	25.3	0.00e+00	0	44	0	1839202304	47	3726
2026-01-26 07:08:29.56	359.20	23.95	-37.6	-38.3	25.2	0.00e+00	0	43	0	1861222400	47	3748
2026-01-26 07:08:33.59	358.06	23.96	-37.7	-38.4	25.1	0.00e+00	0	43	0	1884291072	47	3803
2026-01-26 07:08:37.63	356.91	23.96	-37.6	-38.4	25.2	0.00e+00	0	43	0	1907359744	47	3782
2026-01-26 07:08:41.66	355.77	23.94	-37.6	-38.4	25.2	0.00e+00	0	43	0	1929379840	47	3784
2026-01-26 07:08:45.70	354.63	23.92	-37.6	-38.4	25.2	0.00e+00	0	43	0	1951399936	47	3789
2026-01-26 07:08:49.74	353.49	23.88	-37.5	-38.2	25.3	0.00e+00	0	44	0	1974468608	46	3929
2026-01-26 07:08:53.77	352.36	23.83	-37.5	-38.2	25.2	0.00e+00	0	43	0	1997537280	46	3954
2026-01-26 07:08:57.81	351.22	23.77	-37.6	-38.3	25.2	0.00e+00	0	43	0	2019557376	46	3981
2026-01-26 07:09:01.83	350.10	23.69	-37.5	-38.2	25.3	0.00e+00	0	44	0	2042626048	46	3939
2026-01-26 07:09:05.86	348.98	23.61	-37.5	-38.2	25.3	0.00e+00	0	43	0	2065694720	46	3934
2026-01-26 07:09:09.89	347.87	23.51	-37.7	-38.4	25.1	0.00e+00	0	43	0	2087714816	46	4017
2026-01-26 07:09:13.92	346.76	23.40	-37.6	-38.3	25.2	0.00e+00	0	43	0	2110783488	46	3995
2026-01-26 07:09:17.94	345.67	23.28	-37.9	-38.6	24.9	0.00e+00	0	43	0	2133852160	46	4121
2026-01-26 07:09:21.98	344.58	23.15	-37.7	-38.4	25.1	0.00e+00	0	43	0	2155872256	46	4024
2026-01-26 07:09:26.01	343.50	23.01	-37.9	-38.6	25.0	0.00e+00	0	43	0	2178940928	46	4115
2026-01-26 07:09:30.04	342.43	22.86	-37.7	-38.4	25.2	0.00e+00	0	43	0	2202009600	46	4014
2026-01-26 07:09:34.06	341.37	22.70	-37.7	-38.4	25.1	0.00e+00	0	43	0	2224029696	46	4020
2026-01-26 07:09:38.09	340.32	22.53	-37.7	-38.4	25.1	0.00e+00	0	43	0	2247098368	46	4048
2026-01-26 07:09:42.14	339.28	22.36	-37.7	-38.4	25.1	0.00e+00	0	43	0	2270167040	46	4035
2026-01-26 07:09:46.17	338.26	22.17	-37.8	-38.5	25.0	0.00e+00	0	43	0	2292187136	46	4086
2026-01-26 07:09:50.20	337.25	21.97	-37.9	-38.7	24.9	0.00e+00	0	43	0	2314207232	46	4147
2026-01-26 07:09:54.23	336.25	21.77	-38.1	-38.8	24.8	0.00e+00	0	43	0	2337275904	46	4225
2026-01-26 07:09:58.26	335.27	21.56	-37.9	-38.6	24.9	0.00e+00	0	43	0	2360344576	46	4133
2026-01-26 07:10:02.28	334.30	21.34	-37.9	-38.6	24.9	0.00e+00	0	43	0	2382364672	46	4134
2026-01-26 07:10:06.31	333.34	21.12	-37.9	-38.6	24.9	0.00e+00	0	43	0	2405433344	46	4143
2026-01-26 07:10:10.34	332.40	20.89	-38.0	-38.7	24.9	0.00e+00	0	44	0	2428502016	46	4163
2026-01-26 07:10:14.38	331.47	20.65	-38.3	-39.0	24.6	0.00e+00	0	43	0	2450522112	47	4065
2026-01-26 07:10:18.41	330.55	20.41	-38.6	-39.3	24.3	0.00e+00	0	43	0	2473590784	47	4228
2026-01-26 07:10:22.44	329.66	20.16	-38.4	-39.1	24.4	0.00e+00	0	44	0	2496659456	47	4137
2026-01-26 07:10:26.47	328.77	19.91	-38.4	-39.1	24.4	0.00e+00	0	44	0	2518679552	47	4139
2026-01-26 07:10:30.51	327.90	19.65	-38.5	-39.3	24.3	0.00e+00	0	43	0	2541748224	47	4208
2026-01-26 07:10:34.55	327.04	19.39	-39.3	-40.0	24.1	0.00e+00	0	43	0	2564816896	49	4077
2026-01-26 07:10:38.58	326.20	19.13	-39.3	-40.0	24.1	0.00e+00	0	44	0	2586836992	49	4071
2026-01-26 07:10:42.60	325.38	18.86	-39.3	-40.0	24.1	0.00e+00	0	43	0	2609905664	49	4079
2026-01-26 07:10:46.63	324.57	18.59	-39.2	-39.9	24.2	0.00e+00	0	43	0	2632974336	49	4051
2026-01-26 07:10:50.65	323.77	18.31	-39.2	-40.0	24.2	0.00e+00	0	44	0	2654994432	49	4055
2026-01-26 07:10:54.69	322.99	18.04	-39.1	-39.8	24.3	0.00e+00	0	44	0	2677014528	49	3988
2026-01-26 07:10:58.72	322.22	17.76	-39.3	-40.1	24.0	0.00e+00	0	44	0	2700083200	49	4108
2026-01-26 07:11:02.75	321.47	17.48	-39.3	-40.1	24.1	0.00e+00	0	44	0	2723151872	49	4099
2026-01-26 07:11:06.77	320.73	17.19	-39.3	-40.0	24.1	0.00e+00	0	43	0	2745171968	49	4078
2026-01-26 07:11:10.80	320.01	16.91	-39.2	-39.9	24.1	0.00e+00	0	44	0	2768240640	49	4042
2026-01-26 07:11:14.84	319.29	16.62	-39.3	-40.1	24.0	0.00e+00	0	43	0	2791309312	49	4108
2026-01-26 07:11:18.87	318.60	16.34	-39.6	-40.4	23.7	0.00e+00	0	43	0	2813329408	49	4248
2026-01-26 07:11:22.91	317.91	16.05	-39.8	-40.6	23.5	0.00e+00	0	43	0	2836398080	50	4104
2026-01-26 07:11:26.94	317.24	15.76	-40.0	-40.8	23.3	0.00e+00	0	44	0	2859466752	50	4200
2026-01-26 07:11:30.97	316.58	15.47	-39.9	-40.7	23.4	0.00e+00	0	43	0	2881486848	50	4182
2026-01-26 07:11:35.00	315.94	15.18	-39.9	-40.7	23.4	0.00e+00	0	43	0	2904555520	50	4152
2026-01-26 07:11:39.04	315.30	14.89	-40.0	-40.8	23.3	0.00e+00	0	43	0	2927624192	50	4194
2026-01-26 07:11:43.07	314.68	14.60	-40.0	-40.8	23.2	0.00e+00	0	43	0	2949644288	50	4234
2026-01-26 07:11:47.10	314.07	14.31	-40.3	-41.1	23.0	0.00e+00	0	43	0	2972712960	51	4101
2026-01-26 07:11:51.13	313.48	14.02	-40.3	-41.0	23.0	0.00e+00	0	43	0	2995781632	51	4092
2026-01-26 07:11:55.16	312.89	13.73	-40.3	-41.1	22.9	0.00e+00	0	43	0	3017801728	51	4130
2026-01-26 07:11:59.18	312.32	13.45	-40.5	-41.3	22.8	0.00e+00	0	43	0	3039821824	51	4204
2026-01-26 07:12:03.21	311.76	13.16	-40.7	-41.5	22.5	0.00e+00	0	43	0	3062890496	52	4061
2026-01-26 07:12:07.24	311.21	12.87	-40.6	-41.4	22.5	0.00e+00	0	43	0	3085959168	52	4045
2026-01-26 07:12:11.27	310.67	12.59	-40.7	-41.5	22.5	0.00e+00	0	43	0	3107979264	52	4073
2026-01-26 07:12:15.30	310.14	12.30	-40.7	-41.5	22.4	0.00e+00	0	43	0	3131047936	52	4089
2026-01-26 07:12:19.33	309.63	12.02	-40.8	-41.6	22.3	0.00e+00	0	43	0	3154116608	52	4134
2026-01-26 07:12:23.37	309.12	11.73	-41.0	-41.8	22.1	0.00e+00	0	43	0	3176136704	52	4234
2026-01-26 07:12:27.41	308.62	11.45	-41.1	-42.0	21.9	0.00e+00	0	43	0	3199205376	52	4313
2026-01-26 07:12:31.44	308.13	11.17	-41.0	-41.8	22.1	0.00e+00	0	43	0	3222274048	53	3982
2026-01-26 07:12:35.47	307.65	10.89	-41.3	-42.1	21.8	0.00e+00	0	43	0	3244294144	53	4127
2026-01-26 07:12:39.51	307.18	10.61	-41.4	-42.3	21.6	0.00e+00	0	43	0	3267362816	53	4224
2026-01-26 07:12:43.54	306.72	10.33	-41.5	-42.4	21.4	0.00e+00	0	43	0	3290431488	53	4279
2026-01-26 07:12:47.57	306.26	10.05	-41.5	-42.4	21.4	0.00e+00	0	43	0	3312451584	53	4253
2026-01-26 07:12:51.61	305.82	9.78	-41.4	-42.3	21.5	0.00e+00	0	43	0	3335520256	53	4212
2026-01-26 07:12:55.64	305.39	9.50	-41.4	-42.3	21.5	0.00e+00	0	43	0	3358588928	53	4197
2026-01-26 07:12:59.67	304.96	9.23	-41.9	-42.8	21.0	0.00e+00	0	43	0	3380609024	54	4208
2026-01-26 07:13:03.70	304.54	8.96	-41.9	-42.9	20.9	0.00e+00	0	43	0	3402629120	54	4250
2026-01-26 07:13:07.73	304.13	8.69	-41.8	-42.7	21.0	0.00e+00	0	44	0	3425697792	54	4188
2026-01-26 07:13:11.76	303.73	8.42	-42.0	-42.9	20.8	0.00e+00	0	44	0	3448766464	55	4050
2026-01-26 07:13:15.78	303.33	8.16	-42.3	-43.3	20.4	0.00e+00	0	44	0	3470786560	55	4196
2026-01-26 07:13:19.81	302.95	7.89	-42.5	-43.5	20.0	0.00e+00	0	44	0	3493855232	55	4335
2026-01-26 07:13:23.84	302.57	7.63	-42.2	-43.2	20.3	0.00e+00	0	43	0	3516923904	55	4168
2026-01-26 07:13:27.87	302.19	7.37	-43.0	-44.1	19.4	0.00e+00	0	43	0	3538944000	56	4347
2026-01-26 07:13:31.90	301.83	7.11	-42.5	-43.5	19.9	0.00e+00	0	44	0	3562012672	56	4090
2026-01-26 07:13:35.92	301.47	6.85	-42.5	-43.5	19.9	0.00e+00	0	43	0	3584032768	56	4094
2026-01-26 07:13:39.96	301.11	6.59	-42.8	-43.9	19.5	0.00e+00	0	43	0	3607101440	56	4246
2026-01-26 07:13:43.99	300.76	6.34	-42.7	-43.7	19.6	0.00e+00	0	43	0	3630170112	56	4192
2026-01-26 07:13:48.01	300.43	6.08	-42.8	-43.9	19.5	0.00e+00	0	43	0	3652190208	56	4249
2026-01-26 07:13:52.04	300.09	5.83	-42.7	-43.7	19.6	0.00e+00	0	43	0	3675258880	56	4164
2026-01-26 07:13:56.07	299.76	5.58	-42.9	-43.9	19.4	0.00e+00	0	43	0	3698327552	56	4277
2026-01-26 07:14:00.11	299.44	5.33	-43.2	-44.3	18.9	0.00e+00	0	43	0	3720347648	57	4241
2026-01-26 07:14:04.14	299.12	5.08	-43.2	-44.3	19.1	0.00e+00	0	43	0	3743416320	57	4195
2026-01-26 07:14:08.17	298.81	4.84	-52.4	-64.3	3.8	8.47e-01	0	43	104	3759144960	75	14916
2026-01-26 07:14:12.21	298.50	4.59	-52.8	-64.6	3.8	8.47e-01	0	43	104	3759144960	76	14614
2026-01-26 07:14:16.25	298.20	4.34	-53.1	-65.0	3.8	8.47e-01	0	44	104	3759144960	76	15377
2026-01-26 07:14:20.27	297.91	4.10	-53.2	-65.1	3.8	8.47e-01	0	44	104	3759144960	77	14652
2026-01-26 07:14:24.30	297.62	3.86	-53.2	-65.1	3.8	8.45e-01	0	43	104	3759144960	77	14564
2026-01-26 07:14:28.34	297.33	3.62	-53.1	-65.1	3.8	8.47e-01	0	44	104	3759144960	77	14604
2026-01-26 07:14:32.37	297.05	3.38	-53.1	-65.0	3.8	8.45e-01	0	44	104	3759144960	77	14528
2026-01-26 07:14:36.39	296.77	3.15	-53.1	-65.1	3.8	8.48e-01	0	43	104	3759144960	77	14562
2026-01-26 07:14:40.42	296.50	2.91	-53.1	-65.1	3.8	8.46e-01	0	44	104	3759144960	77	14573
2026-01-26 07:14:44.45	296.23	2.68	-53.1	-65.0	3.8	8.47e-01	0	43	104	3759144960	77	14485
2026-01-26 07:14:48.49	295.97	2.45	-53.0	-65.0	3.8	8.45e-01	0	44	104	3759144960	77	14442
2026-01-26 07:14:52.51	295.71	2.21	-53.1	-65.0	3.8	8.47e-01	0	44	104	3759144960	77	14488
2026-01-26 07:14:56.54	295.46	1.98	-53.1	-65.0	3.8	8.46e-01	0	44	104	3759144960	77	14481

#Closed at: 2026-01-26 07:14:58
#Recorded file [3759 MB]: D:/lorett/data/31041_260126_100214.dat