passes_logs/2026/01/26/R3.2S_Murmansk/R3.2S_Murmansk__20260126_103910_TY-42_rec.log

#Pass ID: 20260126_103910_TY-42
#Satellite: TY-42
#Configuration: TY-42_900M
#almurnet v.1.7.20251203
#Start time: 2026-01-26 10:39:10

#Version: 2.2.20231116
#Station: R3.2S_Murmansk
#Location: 33.079688 lon 68.888172 lat
#TLE: 1 64048U 25103A   26025.90722222  .00008016  00000-0  38191-3 0 09994
#TLE: 2 64048 097.4113 101.1198 0001664 095.7251 298.2114 15.19193032 38479

#Time	Az	El	Level	Level2	SNR	BER	BlckErr	Temp	State	Recorded	gain1	gain2
2026-01-26 10:39:10.05	22.43	1.98	-48.5	-50.6	6.2	0.00e+00	0	50	0	0	68	18511
2026-01-26 10:39:13.06	22.28	2.18	-48.5	-50.6	6.2	0.00e+00	0	50	104	0	68	18582
2026-01-26 10:39:16.08	22.13	2.38	-48.5	-50.6	6.2	0.00e+00	0	50	104	0	68	18488
2026-01-26 10:39:19.11	21.98	2.59	-48.5	-50.6	6.2	0.00e+00	0	50	104	0	68	18513
2026-01-26 10:39:22.13	21.82	2.80	-48.5	-50.6	6.2	0.00e+00	0	50	104	0	68	18524
2026-01-26 10:39:25.16	21.66	3.01	-48.5	-50.6	6.2	0.00e+00	0	51	104	0	68	18555
2026-01-26 10:39:28.19	21.49	3.22	-48.4	-50.6	6.2	0.00e+00	0	51	104	0	68	18460
2026-01-26 10:39:31.21	21.33	3.43	-48.4	-50.6	6.2	0.00e+00	0	51	104	0	68	18442
2026-01-26 10:39:34.23	21.16	3.65	-48.5	-50.6	6.2	0.00e+00	0	51	104	0	68	18456
2026-01-26 10:39:37.26	20.98	3.87	-48.5	-50.7	6.2	0.00e+00	0	51	104	0	68	18619
2026-01-26 10:39:40.29	20.80	4.09	-48.5	-50.6	6.2	0.00e+00	0	52	104	0	68	18538
2026-01-26 10:39:43.32	20.62	4.31	-48.5	-50.6	6.2	0.00e+00	0	52	104	0	68	18541
2026-01-26 10:39:46.34	20.44	4.54	-48.5	-50.6	6.2	0.00e+00	0	52	104	0	68	18463
2026-01-26 10:39:49.37	20.25	4.76	-48.5	-50.6	6.2	0.00e+00	0	52	104	0	68	18502
2026-01-26 10:39:52.39	20.05	4.99	-48.5	-50.6	6.2	0.00e+00	0	52	104	0	68	18449
2026-01-26 10:39:55.41	19.86	5.22	-48.5	-50.6	6.2	0.00e+00	0	52	104	0	68	18449
2026-01-26 10:39:58.44	19.66	5.46	-48.5	-50.6	6.2	0.00e+00	0	52	104	0	68	18556
2026-01-26 10:40:01.46	19.45	5.69	-48.5	-50.6	6.2	0.00e+00	0	52	104	0	68	18509
2026-01-26 10:40:04.48	19.24	5.93	-48.5	-50.6	6.2	0.00e+00	0	52	104	0	68	18550
2026-01-26 10:40:07.51	19.02	6.18	-48.5	-50.6	6.2	0.00e+00	0	52	104	0	68	18504
2026-01-26 10:40:10.53	18.81	6.42	-48.5	-50.6	6.2	0.00e+00	0	53	104	0	68	18465
2026-01-26 10:40:13.55	18.58	6.67	-48.5	-50.6	6.2	0.00e+00	0	53	104	0	68	18539
2026-01-26 10:40:16.57	18.35	6.92	-48.5	-50.6	6.2	0.00e+00	0	53	104	0	68	18535
2026-01-26 10:40:19.60	18.12	7.17	-48.5	-50.6	6.2	0.00e+00	0	53	104	0	68	18546
2026-01-26 10:40:22.62	17.88	7.42	-48.5	-50.6	6.2	0.00e+00	0	53	104	0	68	18554
2026-01-26 10:40:25.64	17.63	7.68	-48.5	-50.6	6.2	0.00e+00	0	53	104	0	68	18530
2026-01-26 10:40:28.67	17.38	7.94	-48.5	-50.7	6.2	0.00e+00	0	53	104	0	68	18609
2026-01-26 10:40:31.70	17.12	8.21	-48.5	-50.6	6.2	0.00e+00	0	53	104	0	68	18528
2026-01-26 10:40:34.73	16.86	8.48	-48.5	-50.6	6.2	0.00e+00	0	53	104	0	68	18556
2026-01-26 10:40:37.75	16.59	8.75	-48.5	-50.6	6.2	0.00e+00	0	53	104	0	68	18517
2026-01-26 10:40:40.77	16.31	9.02	-48.5	-50.6	6.2	0.00e+00	0	53	104	0	68	18530
2026-01-26 10:40:43.79	16.03	9.30	-48.5	-50.7	6.2	0.00e+00	0	53	104	0	68	18607
2026-01-26 10:40:46.82	15.74	9.58	-48.5	-50.6	6.2	0.00e+00	0	54	104	0	68	18545
2026-01-26 10:40:49.84	15.44	9.87	-48.5	-50.6	6.2	0.00e+00	0	54	104	0	68	18537
2026-01-26 10:40:52.87	15.13	10.16	-48.5	-50.7	6.2	0.00e+00	0	54	104	0	68	18616
2026-01-26 10:40:55.89	14.82	10.45	-48.5	-50.7	6.2	0.00e+00	0	54	104	0	68	18607
2026-01-26 10:40:58.91	14.50	10.75	-48.5	-50.6	6.2	0.00e+00	0	53	104	0	68	18555
2026-01-26 10:41:01.94	14.17	11.05	-48.5	-50.6	6.2	0.00e+00	0	53	104	0	68	18537
2026-01-26 10:41:04.97	13.83	11.35	-48.5	-50.6	6.2	0.00e+00	0	54	104	0	68	18566
2026-01-26 10:41:08.00	13.48	11.66	-48.5	-50.7	6.2	0.00e+00	0	54	104	0	68	18607
2026-01-26 10:41:11.02	13.13	11.98	-48.5	-50.6	6.2	0.00e+00	0	54	104	0	68	18575
2026-01-26 10:41:14.04	12.76	12.29	-48.5	-50.6	6.2	0.00e+00	0	54	104	0	68	18568
2026-01-26 10:41:17.06	12.39	12.61	-48.5	-50.6	6.2	0.00e+00	0	54	104	0	68	18582
2026-01-26 10:41:20.09	12.00	12.94	-48.5	-50.6	6.2	0.00e+00	0	54	104	0	68	18552
2026-01-26 10:41:23.11	11.60	13.27	-48.5	-50.6	6.2	0.00e+00	0	54	104	0	68	18547
2026-01-26 10:41:26.13	11.20	13.61	-48.5	-50.6	6.2	0.00e+00	0	54	104	0	68	18558
2026-01-26 10:41:29.15	10.78	13.95	-48.5	-50.7	6.2	0.00e+00	0	54	104	0	68	18643
2026-01-26 10:41:32.18	10.34	14.29	-48.5	-50.6	6.2	0.00e+00	0	54	104	0	68	18601
2026-01-26 10:41:35.20	9.90	14.64	-48.5	-50.7	6.2	0.00e+00	0	54	104	0	68	18637
2026-01-26 10:41:38.23	9.44	15.00	-48.5	-50.6	6.2	0.00e+00	0	54	104	0	68	18567
2026-01-26 10:41:41.24	8.97	15.36	-48.5	-50.6	6.2	0.00e+00	0	54	104	0	68	18588
2026-01-26 10:41:44.26	8.49	15.72	-48.5	-50.6	6.2	0.00e+00	0	54	104	0	68	18594
2026-01-26 10:41:47.28	7.99	16.10	-48.5	-50.6	6.2	0.00e+00	0	54	104	0	68	18574
2026-01-26 10:41:50.30	7.48	16.47	-48.5	-50.7	6.2	0.00e+00	0	54	104	0	68	18610
2026-01-26 10:41:53.32	6.95	16.85	-48.5	-50.6	6.2	0.00e+00	0	54	104	0	68	18561
2026-01-26 10:41:56.34	6.40	17.24	-48.5	-50.6	6.2	0.00e+00	0	54	104	0	68	18538
2026-01-26 10:41:59.37	5.84	17.63	-48.5	-50.6	6.2	0.00e+00	0	54	104	0	68	18584
2026-01-26 10:42:02.39	5.26	18.03	-48.5	-50.6	6.2	0.00e+00	0	54	104	0	68	18581
2026-01-26 10:42:05.41	4.66	18.43	-48.5	-50.6	6.2	0.00e+00	0	54	104	0	68	18537
2026-01-26 10:42:08.43	4.05	18.84	-48.5	-50.6	6.2	0.00e+00	0	54	104	0	68	18596
2026-01-26 10:42:11.45	3.41	19.26	-48.5	-50.7	6.2	0.00e+00	0	54	104	0	68	18621
2026-01-26 10:42:14.48	2.75	19.68	-48.5	-50.7	6.2	0.00e+00	0	54	104	0	68	18605
2026-01-26 10:42:17.50	2.07	20.10	-48.5	-50.6	6.2	0.00e+00	0	54	104	0	68	18534
2026-01-26 10:42:20.53	1.37	20.53	-48.5	-50.6	6.2	0.00e+00	0	54	104	0	68	18580
2026-01-26 10:42:23.56	0.64	20.97	-48.5	-50.6	6.2	0.00e+00	0	54	104	0	68	18557
2026-01-26 10:42:26.58	359.89	21.41	-48.5	-50.7	6.2	0.00e+00	0	54	104	0	68	18628
2026-01-26 10:42:29.61	359.12	21.86	-48.5	-50.6	6.2	0.00e+00	0	54	104	0	68	18567
2026-01-26 10:42:32.63	358.32	22.31	-48.5	-50.7	6.2	0.00e+00	0	54	104	0	68	18621
2026-01-26 10:42:35.66	357.49	22.76	-48.5	-50.6	6.2	0.00e+00	0	54	104	0	68	18531
2026-01-26 10:42:38.69	356.63	23.22	-48.5	-50.6	6.2	0.00e+00	0	54	104	0	68	18602
2026-01-26 10:42:41.72	355.75	23.68	-48.5	-50.6	6.2	0.00e+00	0	54	104	0	68	18534
2026-01-26 10:42:44.74	354.83	24.15	-48.5	-50.7	6.2	0.00e+00	0	54	104	0	68	18605
2026-01-26 10:42:47.76	353.89	24.61	-48.5	-50.7	6.2	0.00e+00	0	54	104	0	68	18613
2026-01-26 10:42:50.78	352.91	25.08	-48.5	-50.6	6.2	0.00e+00	0	54	104	0	68	18587
2026-01-26 10:42:53.81	351.90	25.55	-48.5	-50.6	6.2	0.00e+00	0	54	104	0	68	18585
2026-01-26 10:42:56.83	350.86	26.03	-48.5	-50.6	6.2	0.00e+00	0	54	104	0	68	18550
2026-01-26 10:42:59.85	349.78	26.50	-48.5	-50.6	6.2	0.00e+00	0	54	104	0	68	18552
2026-01-26 10:43:02.87	348.66	26.97	-48.5	-50.6	6.2	0.00e+00	0	54	104	0	68	18567
2026-01-26 10:43:05.90	347.51	27.44	-48.5	-50.6	6.2	0.00e+00	0	54	104	0	68	18587
2026-01-26 10:43:08.93	346.32	27.91	-48.5	-50.6	6.2	0.00e+00	0	54	104	0	68	18564
2026-01-26 10:43:11.95	345.09	28.37	-48.5	-50.6	6.2	0.00e+00	0	54	104	0	68	18598
2026-01-26 10:43:14.97	343.82	28.83	-48.5	-50.6	6.2	0.00e+00	0	54	104	0	68	18576
2026-01-26 10:43:17.99	342.51	29.28	-48.5	-50.6	6.2	0.00e+00	0	54	104	0	68	18538
2026-01-26 10:43:21.01	341.17	29.72	-48.5	-50.6	6.2	0.00e+00	0	54	104	0	68	18559
2026-01-26 10:43:24.04	339.77	30.16	-48.5	-50.6	6.2	0.00e+00	0	54	104	0	68	18552
2026-01-26 10:43:27.06	338.34	30.58	-48.5	-50.6	6.2	0.00e+00	0	54	104	0	68	18540
2026-01-26 10:43:30.08	336.87	30.99	-48.5	-50.6	6.2	0.00e+00	0	54	104	0	68	18546
2026-01-26 10:43:33.09	335.37	31.39	-48.5	-50.6	6.2	0.00e+00	0	54	104	0	68	18577
2026-01-26 10:43:36.11	333.82	31.77	-48.5	-50.7	6.2	0.00e+00	0	54	104	0	68	18637
2026-01-26 10:43:39.14	332.22	32.14	-48.5	-50.6	6.2	0.00e+00	0	54	104	0	68	18557
2026-01-26 10:43:42.17	330.59	32.49	-48.5	-50.6	6.2	0.00e+00	0	55	104	0	68	18562
2026-01-26 10:43:45.18	328.93	32.81	-48.5	-50.6	6.2	0.00e+00	0	54	104	0	68	18593
2026-01-26 10:43:48.21	327.22	33.12	-48.5	-50.6	6.2	0.00e+00	0	55	104	0	68	18561
2026-01-26 10:43:51.23	325.49	33.40	-48.5	-50.6	6.2	0.00e+00	0	54	104	0	68	18595
2026-01-26 10:43:54.25	323.73	33.65	-48.5	-50.6	6.2	0.00e+00	0	54	104	0	68	18572
2026-01-26 10:43:57.28	321.93	33.87	-48.5	-50.6	6.2	0.00e+00	0	54	104	0	68	18468
2026-01-26 10:44:00.30	320.11	34.07	-48.5	-50.6	6.2	0.00e+00	0	54	104	0	68	18590
2026-01-26 10:44:03.33	318.27	34.24	-48.5	-50.6	6.2	0.00e+00	0	54	104	0	68	18475
2026-01-26 10:44:06.35	316.41	34.37	-48.5	-50.6	6.2	0.00e+00	0	54	104	0	68	18556
2026-01-26 10:44:09.37	314.54	34.48	-48.5	-50.6	6.2	0.00e+00	0	54	104	0	68	18590
2026-01-26 10:44:12.39	312.65	34.55	-48.5	-50.6	6.2	0.00e+00	0	54	104	0	68	18585
2026-01-26 10:44:15.41	310.76	34.59	-48.5	-50.6	6.2	0.00e+00	0	54	104	0	68	18588
2026-01-26 10:44:18.44	308.86	34.59	-48.5	-50.6	6.2	0.00e+00	0	55	104	0	68	18582
2026-01-26 10:44:21.47	306.97	34.56	-48.5	-50.6	6.2	0.00e+00	0	55	104	0	68	18596
2026-01-26 10:44:24.48	305.09	34.50	-48.5	-50.6	6.2	0.00e+00	0	54	104	0	68	18540
2026-01-26 10:44:27.51	303.20	34.40	-48.5	-50.6	6.2	0.00e+00	0	55	104	0	68	18540
2026-01-26 10:44:30.54	301.33	34.27	-48.5	-50.6	6.2	0.00e+00	0	54	104	0	68	18573
2026-01-26 10:44:33.56	299.49	34.11	-48.5	-50.6	6.2	0.00e+00	0	54	104	0	68	18572
2026-01-26 10:44:36.59	297.66	33.92	-48.5	-50.6	6.2	0.00e+00	0	54	104	0	68	18594
2026-01-26 10:44:39.61	295.86	33.70	-48.5	-50.6	6.2	0.00e+00	0	54	104	0	68	18560
2026-01-26 10:44:42.63	294.09	33.45	-48.5	-50.7	6.2	0.00e+00	0	54	104	0	68	18628
2026-01-26 10:44:45.65	292.35	33.18	-48.5	-50.6	6.2	0.00e+00	0	54	104	0	68	18584
2026-01-26 10:44:48.67	290.64	32.88	-48.5	-50.6	6.2	0.00e+00	0	54	104	0	68	18594
2026-01-26 10:44:51.70	288.95	32.55	-48.5	-50.7	6.2	0.00e+00	0	54	104	0	68	18617
2026-01-26 10:44:54.72	287.32	32.21	-48.5	-50.7	6.2	0.00e+00	0	55	104	0	68	18609
2026-01-26 10:44:57.74	285.71	31.85	-48.5	-50.6	6.2	0.00e+00	0	54	104	0	68	18559
2026-01-26 10:45:00.77	284.15	31.47	-48.5	-50.6	6.2	0.00e+00	0	54	104	0	68	18532
2026-01-26 10:45:03.79	282.62	31.07	-48.5	-50.6	6.2	0.00e+00	0	54	104	0	68	18577
2026-01-26 10:45:06.81	281.14	30.66	-48.5	-50.7	6.2	0.00e+00	0	54	104	0	68	18630
2026-01-26 10:45:09.83	279.70	30.24	-48.5	-50.6	6.2	0.00e+00	0	54	104	0	68	18593
2026-01-26 10:45:12.86	278.30	29.80	-48.5	-50.6	6.2	0.00e+00	0	54	104	0	68	18588
2026-01-26 10:45:15.88	276.94	29.36	-48.5	-50.7	6.2	0.00e+00	0	54	104	0	68	18676
2026-01-26 10:45:18.91	275.61	28.90	-48.5	-50.7	6.2	0.00e+00	0	55	104	0	68	18606
2026-01-26 10:45:21.94	274.33	28.44	-48.5	-50.6	6.2	0.00e+00	0	54	104	0	68	18578
2026-01-26 10:45:24.97	273.09	27.98	-48.5	-50.6	6.2	0.00e+00	0	54	104	0	68	18592
2026-01-26 10:45:27.99	271.89	27.51	-48.5	-50.6	6.2	0.00e+00	0	55	104	0	68	18572
2026-01-26 10:45:31.01	270.73	27.04	-48.5	-50.7	6.2	0.00e+00	0	55	104	0	68	18625
2026-01-26 10:45:34.04	269.60	26.57	-48.5	-50.6	6.2	0.00e+00	0	54	104	0	68	18586
2026-01-26 10:45:37.07	268.51	26.09	-48.5	-50.6	6.2	0.00e+00	0	54	104	0	68	18575
2026-01-26 10:45:40.09	267.45	25.62	-48.5	-50.6	6.2	0.00e+00	0	54	104	0	68	18506
2026-01-26 10:45:43.11	266.43	25.15	-48.5	-50.7	6.2	0.00e+00	0	55	104	0	68	18642
2026-01-26 10:45:46.13	265.45	24.68	-48.5	-50.7	6.2	0.00e+00	0	55	104	0	68	18636
2026-01-26 10:45:49.16	264.49	24.21	-48.5	-50.7	6.2	0.00e+00	0	55	104	0	68	18605
2026-01-26 10:45:52.18	263.57	23.74	-48.5	-50.7	6.2	0.00e+00	0	55	104	0	68	18616
2026-01-26 10:45:55.21	262.68	23.27	-48.5	-50.7	6.2	0.00e+00	0	55	104	0	68	18629
2026-01-26 10:45:58.23	261.81	22.81	-48.5	-50.7	6.2	0.00e+00	0	55	104	0	68	18655
2026-01-26 10:46:01.25	260.98	22.36	-48.5	-50.6	6.2	0.00e+00	0	55	104	0	68	18576
2026-01-26 10:46:04.27	260.17	21.91	-48.5	-50.7	6.2	0.00e+00	0	55	104	0	68	18611
2026-01-26 10:46:07.29	259.39	21.46	-48.5	-50.7	6.2	0.00e+00	0	55	104	0	68	18651
2026-01-26 10:46:10.32	258.63	21.01	-48.5	-50.7	6.2	0.00e+00	0	55	104	0	68	18650
2026-01-26 10:46:13.34	257.90	20.58	-48.5	-50.7	6.2	0.00e+00	0	55	104	0	68	18636
2026-01-26 10:46:16.37	257.19	20.14	-48.5	-50.7	6.2	0.00e+00	0	55	104	0	68	18633
2026-01-26 10:46:19.39	256.51	19.72	-48.5	-50.7	6.2	0.00e+00	0	55	104	0	68	18629
2026-01-26 10:46:22.41	255.84	19.29	-48.5	-50.7	6.2	0.00e+00	0	54	104	0	68	18642
2026-01-26 10:46:25.43	255.20	18.88	-48.5	-50.7	6.2	0.00e+00	0	55	104	0	68	18639
2026-01-26 10:46:28.45	254.57	18.47	-48.5	-50.7	6.2	0.00e+00	0	54	104	0	68	18622
2026-01-26 10:46:31.48	253.97	18.06	-48.5	-50.6	6.2	0.00e+00	0	55	104	0	68	18549
2026-01-26 10:46:34.51	253.38	17.66	-48.5	-50.7	6.2	0.00e+00	0	55	104	0	68	18636
2026-01-26 10:46:37.53	252.81	17.26	-48.5	-50.6	6.2	0.00e+00	0	54	104	0	68	18592
2026-01-26 10:46:40.55	252.26	16.87	-48.5	-50.7	6.2	0.00e+00	0	54	104	0	68	18632
2026-01-26 10:46:43.57	251.73	16.49	-48.5	-50.6	6.2	0.00e+00	0	55	104	0	68	18599
2026-01-26 10:46:46.60	251.21	16.11	-48.5	-50.7	6.2	0.00e+00	0	55	104	0	68	18637
2026-01-26 10:46:49.62	250.71	15.74	-48.5	-50.7	6.2	0.00e+00	0	55	104	0	68	18628
2026-01-26 10:46:52.65	250.21	15.37	-48.5	-50.7	6.2	0.00e+00	0	54	104	0	68	18709
2026-01-26 10:46:55.66	249.74	15.01	-48.5	-50.7	6.2	0.00e+00	0	54	104	0	68	18615
2026-01-26 10:46:58.69	249.28	14.65	-48.5	-50.7	6.2	0.00e+00	0	54	104	0	68	18608
2026-01-26 10:47:01.72	248.83	14.29	-48.5	-50.6	6.2	0.00e+00	0	55	104	0	68	18569
2026-01-26 10:47:04.74	248.39	13.95	-48.5	-50.7	6.2	0.00e+00	0	55	104	0	68	18607
2026-01-26 10:47:07.76	247.97	13.61	-48.5	-50.7	6.2	0.00e+00	0	54	104	0	68	18621
2026-01-26 10:47:10.77	247.56	13.27	-48.5	-50.6	6.2	0.00e+00	0	55	104	0	68	18581
2026-01-26 10:47:13.80	247.16	12.93	-48.5	-50.6	6.2	0.00e+00	0	55	104	0	68	18506
2026-01-26 10:47:16.82	246.77	12.61	-48.5	-50.6	6.2	0.00e+00	0	55	104	0	68	18557
2026-01-26 10:47:19.84	246.39	12.28	-48.5	-50.7	6.2	0.00e+00	0	54	104	0	68	18655
2026-01-26 10:47:22.86	246.02	11.96	-48.5	-50.7	6.2	0.00e+00	0	55	104	0	68	18626
2026-01-26 10:47:25.88	245.66	11.65	-48.5	-50.6	6.2	0.00e+00	0	55	104	0	68	18598
2026-01-26 10:47:28.90	245.31	11.34	-48.5	-50.6	6.2	0.00e+00	0	55	104	0	68	18576
2026-01-26 10:47:31.93	244.97	11.03	-48.5	-50.6	6.2	0.00e+00	0	55	104	0	68	18593
2026-01-26 10:47:34.96	244.64	10.73	-48.5	-50.7	6.2	0.00e+00	0	54	104	0	68	18628
2026-01-26 10:47:37.98	244.31	10.43	-48.5	-50.7	6.2	0.00e+00	0	55	104	0	68	18637
2026-01-26 10:47:40.99	244.00	10.14	-48.5	-50.6	6.2	0.00e+00	0	55	104	0	68	18552
2026-01-26 10:47:44.02	243.69	9.85	-48.5	-50.6	6.2	0.00e+00	0	55	104	0	68	18576
2026-01-26 10:47:47.05	243.39	9.56	-48.5	-50.7	6.2	0.00e+00	0	55	104	0	68	18613
2026-01-26 10:47:50.06	243.09	9.28	-48.5	-50.7	6.2	0.00e+00	0	55	104	0	68	18646
2026-01-26 10:47:53.08	242.81	9.00	-48.5	-50.7	6.2	0.00e+00	0	55	104	0	68	18649
2026-01-26 10:47:56.09	242.53	8.72	-48.5	-50.7	6.2	0.00e+00	0	55	104	0	68	18622
2026-01-26 10:47:59.11	242.26	8.45	-48.5	-50.7	6.2	0.00e+00	0	54	104	0	68	18655
2026-01-26 10:48:02.14	241.99	8.18	-48.5	-50.7	6.2	0.00e+00	0	55	104	0	68	18676
2026-01-26 10:48:05.17	241.73	7.91	-48.5	-50.6	6.2	0.00e+00	0	55	104	0	68	18567
2026-01-26 10:48:08.20	241.47	7.65	-48.5	-50.7	6.2	0.00e+00	0	55	104	0	68	18620
2026-01-26 10:48:11.23	241.22	7.39	-48.5	-50.6	6.2	0.00e+00	0	55	104	0	68	18563
2026-01-26 10:48:14.25	240.98	7.13	-48.5	-50.6	6.2	0.00e+00	0	55	104	0	68	18557
2026-01-26 10:48:17.27	240.74	6.88	-48.5	-50.7	6.2	0.00e+00	0	55	104	0	68	18605
2026-01-26 10:48:20.29	240.51	6.63	-48.5	-50.7	6.2	0.00e+00	0	55	104	0	68	18631
2026-01-26 10:48:23.32	240.28	6.38	-48.5	-50.7	6.2	0.00e+00	0	55	104	0	68	18644
2026-01-26 10:48:26.35	240.06	6.14	-49.5	-51.6	6.2	0.00e+00	0	54	104	0	69	19665
2026-01-26 10:48:29.37	239.84	5.89	-49.5	-51.7	6.2	0.00e+00	0	55	104	0	69	19711
2026-01-26 10:48:32.39	239.63	5.65	-49.5	-51.6	6.2	0.00e+00	0	55	104	0	69	19609
2026-01-26 10:48:35.42	239.42	5.42	-49.5	-51.6	6.2	0.00e+00	0	55	104	0	69	19689
2026-01-26 10:48:38.44	239.22	5.18	-49.5	-51.6	6.2	0.00e+00	0	55	104	0	69	19672
2026-01-26 10:48:41.46	239.02	4.95	-49.5	-51.6	6.2	0.00e+00	0	55	104	0	69	19612
2026-01-26 10:48:44.48	238.82	4.72	-49.5	-51.6	6.2	0.00e+00	0	55	104	0	69	19691
2026-01-26 10:48:47.50	238.63	4.49	-49.5	-51.6	6.2	0.00e+00	0	55	104	0	69	19646
2026-01-26 10:48:50.53	238.45	4.27	-49.5	-51.6	6.2	0.00e+00	0	55	104	0	69	19674
2026-01-26 10:48:53.55	238.26	4.04	-49.5	-51.6	6.2	0.00e+00	0	54	104	0	69	19594
2026-01-26 10:48:56.58	238.08	3.82	-49.5	-51.6	6.2	0.00e+00	0	55	104	0	69	19701
2026-01-26 10:48:59.60	237.90	3.60	-49.5	-51.6	6.2	0.00e+00	0	55	104	0	69	19618
2026-01-26 10:49:02.61	237.73	3.39	-49.5	-51.7	6.2	0.00e+00	0	54	104	0	69	19706
2026-01-26 10:49:05.64	237.56	3.17	-49.5	-51.6	6.2	0.00e+00	0	55	104	0	69	19664
2026-01-26 10:49:08.67	237.40	2.96	-49.8	-51.9	6.2	0.00e+00	0	55	104	0	70	19226
2026-01-26 10:49:11.69	237.23	2.75	-49.8	-52.0	6.2	0.00e+00	0	54	104	0	70	19319
2026-01-26 10:49:14.71	237.07	2.54	-49.8	-52.0	6.2	0.00e+00	0	55	104	0	70	19268
2026-01-26 10:49:17.73	236.91	2.33	-49.8	-52.0	6.2	0.00e+00	0	55	104	0	70	19297
2026-01-26 10:49:20.75	236.76	2.13	-49.8	-52.0	6.2	0.00e+00	0	55	104	0	70	19340

#Closed at: 2026-01-26 10:49:23
#Recorded file [0 MB]: D:/lorett/data/31041_260126_133909.dat