passes_logs/2026/01/26/R3.2S_Murmansk/R3.2S_Murmansk__20260126_232643_NOAA_20_JPSS-1_rec.log

#Pass ID: 20260126_232643_NOAA 20 (JPSS-1)
#Satellite: NOAA 20 (JPSS-1)
#Configuration: NOAA 20
#almurnet v.1.7.20251203
#Start time: 2026-01-26 23:26:44

#Version: 2.2.20231116
#Station: R3.2S_Murmansk
#Location: 33.079688 lon 68.888172 lat
#TLE: 1 43013U 17073A   26026.46665230  .00000148  00000+0  91302-4 0  9998
#TLE: 2 43013  98.7646 327.2856 0001008  22.9532 337.1688 14.19540616424360

#Time	Az	El	Level	Level2	SNR	BER	BlckErr	Temp	State	Recorded	gain1	gain2
2026-01-26 23:26:44.22	20.75	2.04	-54.2	-69.2	3.8	1.49e+00	0	41	0	0	79	20916
2026-01-26 23:26:48.24	20.90	2.29	-54.2	-69.1	3.8	1.49e+00	0	41	104	0	78	21994
2026-01-26 23:26:52.28	21.06	2.54	-54.3	-69.3	3.8	1.49e+00	0	41	104	0	79	21176
2026-01-26 23:26:56.31	21.22	2.79	-54.3	-69.3	3.8	1.49e+00	0	41	104	0	79	21195
2026-01-26 23:27:00.34	21.39	3.04	-54.3	-69.3	3.8	1.49e+00	0	41	104	0	79	21047
2026-01-26 23:27:04.38	21.55	3.30	-54.2	-69.2	3.8	1.49e+00	0	42	104	0	79	20796
2026-01-26 23:27:08.41	21.72	3.56	-53.9	-68.9	3.8	1.49e+00	0	42	104	0	79	20073
2026-01-26 23:27:12.45	21.89	3.82	-53.3	-68.2	3.8	1.49e+00	0	42	104	0	78	19723
2026-01-26 23:27:16.48	22.07	4.08	-50.9	-56.3	9.7	2.99e-02	0	42	0	2097152	73	6684
2026-01-26 23:27:20.51	22.24	4.35	-49.0	-52.1	14.3	0.00e+00	0	42	0	9437184	69	5167
2026-01-26 23:27:24.55	22.42	4.62	-48.2	-50.7	15.7	0.00e+00	0	42	0	17825792	68	4668
2026-01-26 23:27:28.58	22.61	4.89	-49.5	-52.9	13.4	4.50e-06	0	42	0	25165824	69	5713
2026-01-26 23:27:32.61	22.79	5.16	-49.0	-52.0	14.3	3.34e-03	0	42	0	32505856	70	4821
2026-01-26 23:27:36.64	22.98	5.44	-48.6	-51.1	15.4	4.95e-05	0	42	0	37748736	69	4628
2026-01-26 23:27:40.67	23.17	5.72	-48.2	-50.6	15.9	0.00e+00	0	42	0	45088768	68	4634
2026-01-26 23:27:44.70	23.37	6.00	-48.0	-50.4	16.1	0.00e+00	0	42	0	52428800	67	4762
2026-01-26 23:27:48.72	23.56	6.28	-48.0	-50.4	16.1	0.00e+00	0	42	0	59768832	67	4766
2026-01-26 23:27:52.75	23.77	6.57	-47.7	-49.8	16.7	0.00e+00	0	42	0	67108864	67	4475
2026-01-26 23:27:56.78	23.97	6.86	-47.7	-49.9	16.7	0.00e+00	0	42	0	75497472	67	4515
2026-01-26 23:28:00.81	24.18	7.15	-47.7	-49.8	16.8	0.00e+00	0	42	0	82837504	67	4468
2026-01-26 23:28:04.85	24.40	7.45	-47.6	-49.6	17.1	0.00e+00	0	42	0	90177536	67	4353
2026-01-26 23:28:08.88	24.61	7.75	-47.6	-49.6	17.1	0.00e+00	0	43	0	97517568	66	4645
2026-01-26 23:28:12.91	24.84	8.05	-47.4	-49.4	17.3	0.00e+00	0	43	0	104857600	66	4520
2026-01-26 23:28:16.94	25.06	8.36	-47.0	-48.8	17.9	0.00e+00	0	43	0	113246208	66	4225
2026-01-26 23:28:20.96	25.29	8.66	-47.0	-48.8	18.0	0.00e+00	0	43	0	120586240	65	4461
2026-01-26 23:28:25.00	25.53	8.98	-46.9	-48.7	18.1	0.00e+00	0	43	0	127926272	65	4429
2026-01-26 23:28:29.03	25.77	9.29	-46.9	-48.6	18.2	0.00e+00	0	42	0	135266304	65	4391
2026-01-26 23:28:33.06	26.01	9.61	-46.8	-48.5	18.3	0.00e+00	0	42	0	142606336	65	4318
2026-01-26 23:28:37.09	26.26	9.94	-46.7	-48.4	18.5	0.00e+00	0	43	0	150994944	65	4257
2026-01-26 23:28:41.12	26.51	10.26	-46.6	-48.2	18.7	0.00e+00	0	43	0	158334976	65	4179
2026-01-26 23:28:45.16	26.78	10.60	-46.5	-48.2	18.7	0.00e+00	0	42	0	165675008	64	4397
2026-01-26 23:28:49.19	27.04	10.93	-46.5	-48.1	18.8	0.00e+00	0	42	0	173015040	64	4359
2026-01-26 23:28:53.22	27.31	11.27	-46.5	-48.1	18.8	0.00e+00	0	43	0	181403648	64	4368
2026-01-26 23:28:57.26	27.59	11.62	-46.3	-47.9	19.0	0.00e+00	0	43	0	188743680	64	4256
2026-01-26 23:29:01.30	27.87	11.97	-46.4	-47.9	19.0	0.00e+00	0	43	0	196083712	64	4271
2026-01-26 23:29:05.33	28.16	12.32	-46.2	-47.7	19.3	0.00e+00	0	43	0	203423744	64	4173
2026-01-26 23:29:09.35	28.46	12.68	-46.2	-47.8	19.2	0.00e+00	0	43	0	210763776	64	4196
2026-01-26 23:29:13.38	28.76	13.04	-46.1	-47.6	19.5	0.00e+00	0	43	0	219152384	63	4350
2026-01-26 23:29:17.41	29.07	13.40	-45.9	-47.3	19.8	0.00e+00	0	43	0	226492416	63	4230
2026-01-26 23:29:21.43	29.39	13.77	-46.0	-47.4	19.7	0.00e+00	0	43	0	233832448	63	4259
2026-01-26 23:29:25.46	29.71	14.15	-45.7	-47.1	20.1	0.00e+00	0	43	0	241172480	63	4114
2026-01-26 23:29:29.49	30.05	14.53	-45.7	-47.0	20.1	0.00e+00	0	43	0	248512512	63	4086
2026-01-26 23:29:33.52	30.39	14.92	-45.8	-47.2	19.9	0.00e+00	0	43	0	256901120	63	4182
2026-01-26 23:29:37.55	30.74	15.31	-45.9	-47.3	19.9	0.00e+00	0	43	0	264241152	63	4224
2026-01-26 23:29:41.59	31.10	15.71	-46.0	-47.4	19.8	0.00e+00	0	43	0	271581184	63	4273
2026-01-26 23:29:45.62	31.47	16.11	-46.0	-47.4	19.8	0.00e+00	0	43	0	278921216	63	4273
2026-01-26 23:29:49.66	31.85	16.52	-45.9	-47.3	19.9	0.00e+00	0	43	0	286261248	63	4233
2026-01-26 23:29:53.69	32.23	16.94	-46.1	-47.5	19.8	0.00e+00	0	43	0	294649856	63	4322
2026-01-26 23:29:57.72	32.63	17.36	-46.1	-47.5	19.7	0.00e+00	0	43	0	301989888	63	4336
2026-01-26 23:30:01.76	33.04	17.79	-46.1	-47.5	19.8	0.00e+00	0	43	0	309329920	63	4297
2026-01-26 23:30:05.79	33.46	18.22	-45.8	-47.1	20.2	0.00e+00	0	43	0	316669952	63	4127
2026-01-26 23:30:09.81	33.89	18.66	-45.7	-47.1	20.2	0.00e+00	0	43	0	324009984	63	4111
2026-01-26 23:30:13.84	34.33	19.10	-45.8	-47.1	20.2	0.00e+00	0	43	0	332398592	63	4126
2026-01-26 23:30:17.87	34.79	19.56	-45.9	-47.3	20.0	0.00e+00	0	43	0	339738624	63	4215
2026-01-26 23:30:21.89	35.26	20.01	-46.1	-47.5	19.9	0.00e+00	0	43	0	347078656	63	4298
2026-01-26 23:30:25.91	35.74	20.48	-46.2	-47.6	19.7	0.00e+00	0	43	0	354418688	63	4375
2026-01-26 23:30:29.94	36.24	20.95	-46.2	-47.7	19.7	0.00e+00	0	43	0	362807296	63	4399
2026-01-26 23:30:33.96	36.75	21.43	-46.3	-47.8	19.6	0.00e+00	0	43	0	370147328	63	4458
2026-01-26 23:30:37.99	37.28	21.91	-46.5	-47.9	19.4	0.00e+00	0	43	0	377487360	63	4541
2026-01-26 23:30:42.02	37.82	22.41	-46.4	-47.8	19.6	0.00e+00	0	43	0	384827392	63	4470
2026-01-26 23:30:46.06	38.39	22.91	-46.3	-47.7	19.7	0.00e+00	0	43	0	392167424	63	4418
2026-01-26 23:30:50.09	38.96	23.42	-46.2	-47.6	19.8	0.00e+00	0	43	0	399507456	63	4368
2026-01-26 23:30:54.12	39.56	23.93	-46.2	-47.5	19.9	0.00e+00	0	43	0	407896064	63	4338
2026-01-26 23:30:58.15	40.18	24.45	-46.4	-47.9	19.6	0.00e+00	0	43	0	415236096	63	4505
2026-01-26 23:31:02.18	40.82	24.98	-46.4	-47.8	19.7	0.00e+00	0	43	0	422576128	63	4470
2026-01-26 23:31:06.21	41.48	25.52	-46.5	-47.9	19.5	0.00e+00	0	43	0	429916160	63	4527
2026-01-26 23:31:10.24	42.16	26.06	-46.7	-48.2	19.2	0.00e+00	0	43	0	438304768	64	4423
2026-01-26 23:31:14.28	42.86	26.61	-46.3	-47.7	19.7	0.00e+00	0	43	0	445644800	64	4173
2026-01-26 23:31:18.31	43.59	27.16	-46.2	-47.6	19.9	0.00e+00	0	43	0	452984832	63	4356
2026-01-26 23:31:22.33	44.34	27.73	-46.7	-48.2	19.2	0.00e+00	0	43	0	460324864	64	4441
2026-01-26 23:31:26.37	45.12	28.30	-46.9	-48.4	19.0	0.00e+00	0	43	0	467664896	64	4538
2026-01-26 23:31:30.40	45.93	28.87	-47.1	-48.8	18.7	0.00e+00	0	43	0	476053504	64	4722
2026-01-26 23:31:34.43	46.77	29.45	-47.5	-49.3	18.2	0.00e+00	0	43	0	483393536	65	4711
2026-01-26 23:31:38.45	47.63	30.04	-47.0	-48.6	18.8	0.00e+00	0	43	0	490733568	65	4382
2026-01-26 23:31:42.48	48.53	30.63	-47.6	-49.4	18.1	0.00e+00	0	43	0	498073600	65	4795
2026-01-26 23:31:46.51	49.46	31.23	-47.6	-49.3	18.3	0.00e+00	0	43	0	505413632	66	4460
2026-01-26 23:31:50.53	50.43	31.82	-47.5	-49.2	18.3	0.00e+00	0	43	0	513802240	66	4430
2026-01-26 23:31:54.56	51.43	32.43	-47.0	-48.5	19.0	0.00e+00	0	43	0	521142272	66	4098
2026-01-26 23:31:58.60	52.47	33.03	-46.7	-48.2	19.3	0.00e+00	0	43	0	528482304	65	4180
2026-01-26 23:32:02.63	53.55	33.64	-47.3	-48.9	18.7	0.00e+00	0	43	0	535822336	65	4523
2026-01-26 23:32:06.66	54.66	34.25	-47.0	-48.5	19.0	0.00e+00	0	43	0	543162368	65	4338
2026-01-26 23:32:10.69	55.82	34.86	-46.5	-48.0	19.5	0.00e+00	0	43	0	551550976	65	4067
2026-01-26 23:32:14.73	57.03	35.46	-46.7	-48.2	19.3	0.00e+00	0	43	0	558891008	64	4414
2026-01-26 23:32:18.75	58.27	36.07	-46.7	-48.2	19.3	0.00e+00	0	43	0	566231040	64	4427
2026-01-26 23:32:22.78	59.57	36.67	-46.7	-48.1	19.4	0.00e+00	0	43	0	573571072	64	4380
2026-01-26 23:32:26.80	60.90	37.26	-47.5	-49.2	18.4	0.00e+00	0	43	0	580911104	65	4667
2026-01-26 23:32:30.83	62.29	37.84	-47.1	-48.7	18.9	0.00e+00	0	43	0	589299712	65	4397
2026-01-26 23:32:34.86	63.73	38.42	-48.2	-50.1	17.6	0.00e+00	0	43	0	596639744	66	4889
2026-01-26 23:32:38.90	65.23	38.99	-47.9	-49.7	17.9	0.00e+00	0	43	0	603979776	67	4431
2026-01-26 23:32:42.93	66.77	39.54	-47.6	-49.3	18.4	0.00e+00	0	43	0	611319808	66	4453
2026-01-26 23:32:46.96	68.36	40.08	-47.4	-49.0	18.7	0.00e+00	0	43	0	618659840	66	4320
2026-01-26 23:32:50.99	70.01	40.61	-47.3	-48.9	18.7	0.00e+00	0	43	0	627048448	65	4540
2026-01-26 23:32:55.01	71.70	41.11	-47.8	-49.6	18.1	0.00e+00	0	43	0	634388480	67	4357
2026-01-26 23:32:59.03	73.45	41.59	-48.0	-49.9	17.8	0.00e+00	0	43	0	641728512	66	4779
2026-01-26 23:33:03.05	75.25	42.04	-48.7	-50.8	17.0	0.00e+00	0	43	0	649068544	69	4451
2026-01-26 23:33:07.09	77.10	42.47	-47.7	-49.4	18.4	0.00e+00	0	43	0	656408576	66	4504
2026-01-26 23:33:11.12	79.00	42.88	-48.3	-50.2	17.7	0.00e+00	0	43	0	664797184	68	4398
2026-01-26 23:33:15.15	80.95	43.25	-48.2	-50.0	17.5	0.00e+00	0	43	0	672137216	67	4589
2026-01-26 23:33:19.18	82.94	43.58	-46.9	-48.4	19.3	0.00e+00	0	43	0	679477248	65	4267
2026-01-26 23:33:23.21	84.96	43.89	-46.8	-48.3	19.3	0.00e+00	0	43	0	686817280	64	4456
2026-01-26 23:33:27.24	87.03	44.15	-47.9	-49.8	17.9	0.00e+00	0	43	0	695205888	66	4725
2026-01-26 23:33:31.26	89.12	44.37	-47.7	-49.4	18.2	0.00e+00	0	43	0	702545920	66	4540
2026-01-26 23:33:35.29	91.24	44.56	-47.7	-49.4	18.3	0.00e+00	0	43	0	709885952	66	4503
2026-01-26 23:33:39.32	93.39	44.70	-46.8	-48.3	19.3	0.00e+00	0	43	0	717225984	65	4222
2026-01-26 23:33:43.36	95.55	44.79	-46.4	-47.8	19.8	0.00e+00	0	43	0	724566016	64	4226
2026-01-26 23:33:47.39	97.72	44.85	-46.6	-48.1	19.6	0.00e+00	0	43	0	731906048	64	4347
2026-01-26 23:33:51.41	99.89	44.86	-46.0	-47.2	20.4	0.00e+00	0	43	0	740294656	63	4192
2026-01-26 23:33:55.44	102.07	44.82	-45.8	-47.1	20.6	0.00e+00	0	43	0	747634688	63	4121
2026-01-26 23:33:59.47	104.23	44.74	-46.6	-48.1	19.5	0.00e+00	0	43	0	754974720	64	4353
2026-01-26 23:34:03.50	106.39	44.62	-46.3	-47.7	19.9	0.00e+00	0	43	0	762314752	64	4175
2026-01-26 23:34:07.53	108.52	44.45	-48.0	-49.8	17.9	0.00e+00	0	43	0	770703360	66	4755
2026-01-26 23:34:11.55	110.62	44.24	-47.3	-48.9	18.8	0.00e+00	0	43	0	778043392	66	4277
2026-01-26 23:34:15.58	112.70	43.99	-46.7	-48.1	19.5	0.00e+00	0	43	0	785383424	65	4142
2026-01-26 23:34:19.62	114.75	43.70	-47.6	-49.3	18.3	0.00e+00	0	43	0	792723456	65	4721
2026-01-26 23:34:23.65	116.76	43.38	-47.4	-49.1	18.6	0.00e+00	0	43	0	800063488	65	4631
2026-01-26 23:34:27.69	118.73	43.02	-45.8	-47.1	20.5	0.00e+00	0	43	0	808452096	63	4138
2026-01-26 23:34:31.71	120.65	42.63	-45.3	-46.5	21.1	0.00e+00	0	43	0	815792128	62	4082
2026-01-26 23:34:35.73	122.51	42.21	-45.7	-46.9	20.7	0.00e+00	0	43	0	823132160	62	4285
2026-01-26 23:34:39.77	124.34	41.76	-44.6	-45.7	21.8	0.00e+00	0	43	0	830472192	61	3949
2026-01-26 23:34:43.79	126.11	41.29	-44.1	-45.2	22.3	0.00e+00	0	43	0	837812224	60	3924
2026-01-26 23:34:47.82	127.83	40.79	-44.2	-45.3	22.2	0.00e+00	0	43	0	846200832	60	3982
2026-01-26 23:34:51.85	129.50	40.27	-45.3	-46.5	21.3	0.00e+00	0	43	0	853540864	61	4340
2026-01-26 23:34:55.88	131.12	39.74	-45.3	-46.5	21.1	0.00e+00	0	43	0	860880896	62	4095
2026-01-26 23:34:59.91	132.68	39.19	-45.3	-46.4	21.1	0.00e+00	0	43	0	868220928	62	4047
2026-01-26 23:35:03.94	134.20	38.62	-45.4	-46.6	20.9	0.00e+00	0	43	0	875560960	62	4143
2026-01-26 23:35:07.97	135.66	38.05	-46.9	-48.5	19.1	0.00e+00	0	43	0	883949568	64	4556
2026-01-26 23:35:12.00	137.07	37.46	-45.3	-46.5	21.1	0.00e+00	0	43	0	891289600	62	4066
2026-01-26 23:35:16.03	138.43	36.87	-45.0	-46.1	21.2	0.00e+00	0	43	0	898629632	62	3908
2026-01-26 23:35:20.06	139.75	36.27	-46.9	-48.4	19.1	0.00e+00	0	43	0	905969664	64	4541
2026-01-26 23:35:24.09	141.01	35.66	-45.4	-46.6	20.9	0.00e+00	0	43	0	913309696	62	4138
2026-01-26 23:35:28.12	142.23	35.06	-47.1	-48.7	18.8	0.00e+00	0	43	0	921698304	66	4163
2026-01-26 23:35:32.15	143.41	34.45	-45.1	-46.2	21.3	0.00e+00	0	43	0	929038336	61	4178
2026-01-26 23:35:36.18	144.55	33.84	-47.2	-48.8	18.6	0.00e+00	0	43	0	936378368	66	4229
2026-01-26 23:35:40.21	145.64	33.23	-46.7	-48.2	19.4	0.00e+00	0	43	0	943718400	63	4652
2026-01-26 23:35:44.25	146.70	32.62	-46.5	-48.0	19.3	0.00e+00	0	43	0	952107008	65	4061
2026-01-26 23:35:48.28	147.72	32.01	-45.8	-47.1	20.3	0.00e+00	0	43	0	959447040	62	4373
2026-01-26 23:35:52.32	148.70	31.40	-47.7	-49.5	17.9	0.00e+00	0	43	0	966787072	67	4316
2026-01-26 23:35:56.34	149.64	30.80	-46.2	-47.6	19.8	0.00e+00	0	43	0	974127104	63	4383
2026-01-26 23:36:00.37	150.55	30.21	-49.7	-52.6	14.9	0.00e+00	0	43	0	981467136	70	5160
2026-01-26 23:36:04.40	151.43	29.62	-46.4	-47.9	19.4	0.00e+00	0	43	0	988807168	64	4258
2026-01-26 23:36:08.43	152.28	29.03	-46.6	-48.1	19.3	0.00e+00	0	43	0	997195776	63	4617
2026-01-26 23:36:12.47	153.10	28.45	-46.8	-48.4	18.9	0.00e+00	0	43	0	1004535808	65	4276
2026-01-26 23:36:16.49	153.89	27.88	-46.0	-47.3	19.9	0.00e+00	0	43	0	1011875840	63	4238
2026-01-26 23:36:20.53	154.66	27.31	-46.9	-48.5	18.8	0.00e+00	0	43	0	1019215872	64	4565
2026-01-26 23:36:24.56	155.40	26.75	-45.4	-46.6	20.6	0.00e+00	0	43	0	1027604480	62	4138
2026-01-26 23:36:28.59	156.11	26.19	-44.9	-46.0	21.2	0.00e+00	0	43	0	1034944512	61	4094
2026-01-26 23:36:32.61	156.80	25.65	-46.2	-47.6	19.7	0.00e+00	0	43	0	1042284544	62	4623
2026-01-26 23:36:36.65	157.47	25.10	-45.8	-47.1	20.2	0.00e+00	0	43	0	1049624576	63	4113
2026-01-26 23:36:40.68	158.11	24.57	-45.5	-46.8	20.5	0.00e+00	0	43	0	1056964608	62	4194
2026-01-26 23:36:44.72	158.74	24.04	-45.4	-46.7	20.5	0.00e+00	0	43	0	1065353216	62	4181
2026-01-26 23:36:48.75	159.34	23.52	-46.1	-47.6	19.7	0.00e+00	0	43	0	1072693248	62	4615
2026-01-26 23:36:52.78	159.93	23.01	-46.5	-48.1	19.1	0.00e+00	0	43	0	1080033280	64	4341
2026-01-26 23:36:56.82	160.50	22.51	-45.9	-47.3	19.9	0.00e+00	0	43	0	1087373312	63	4229
2026-01-26 23:37:00.85	161.05	22.01	-45.8	-47.1	20.1	0.00e+00	0	43	0	1094713344	63	4128
2026-01-26 23:37:04.88	161.58	21.52	-46.0	-47.4	19.9	0.00e+00	0	43	0	1103101952	63	4254
2026-01-26 23:37:08.91	162.10	21.03	-45.7	-47.0	20.2	0.00e+00	0	43	0	1110441984	63	4081
2026-01-26 23:37:12.94	162.60	20.56	-45.6	-47.0	20.2	0.00e+00	0	43	0	1117782016	63	4052
2026-01-26 23:37:16.97	163.09	20.09	-45.8	-47.2	20.0	0.00e+00	0	43	0	1125122048	63	4170
2026-01-26 23:37:21.00	163.56	19.62	-46.0	-47.5	19.4	0.00e+00	0	43	0	1132462080	63	4294
2026-01-26 23:37:25.03	164.02	19.17	-46.3	-47.8	19.4	0.00e+00	0	43	0	1140850688	63	4452
2026-01-26 23:37:29.04	164.47	18.72	-46.5	-48.1	19.1	0.00e+00	0	43	0	1148190720	63	4606
2026-01-26 23:37:33.07	164.90	18.28	-46.3	-47.8	19.3	0.00e+00	0	43	0	1155530752	63	4492
2026-01-26 23:37:37.10	165.33	17.84	-46.3	-47.8	19.4	0.00e+00	0	43	0	1162870784	63	4444
2026-01-26 23:37:41.13	165.74	17.41	-46.1	-47.5	19.5	0.00e+00	0	43	0	1171259392	63	4324
2026-01-26 23:37:45.16	166.14	16.98	-46.2	-47.6	19.4	0.00e+00	0	43	0	1178599424	63	4391
2026-01-26 23:37:49.19	166.53	16.56	-46.3	-47.8	19.3	0.00e+00	0	43	0	1185939456	63	4453
2026-01-26 23:37:53.23	166.91	16.15	-46.2	-47.6	19.4	0.00e+00	0	43	0	1193279488	63	4384
2026-01-26 23:37:57.27	167.28	15.74	-45.9	-47.3	19.7	0.00e+00	0	43	0	1200619520	63	4234
2026-01-26 23:38:01.29	167.64	15.34	-46.1	-47.6	19.4	0.00e+00	0	43	0	1209008128	63	4377
2026-01-26 23:38:05.33	167.99	14.95	-46.6	-48.2	18.9	0.00e+00	0	43	0	1216348160	63	4666
2026-01-26 23:38:09.37	168.34	14.55	-46.8	-48.5	18.5	0.00e+00	0	43	0	1223688192	64	4557
2026-01-26 23:38:13.39	168.67	14.17	-46.7	-48.4	18.5	0.00e+00	0	43	0	1231028224	64	4507
2026-01-26 23:38:17.42	169.00	13.79	-46.3	-47.9	19.0	0.00e+00	0	43	0	1238368256	64	4252
2026-01-26 23:38:21.44	169.31	13.42	-46.0	-47.4	19.5	0.00e+00	0	43	0	1246756864	63	4291
2026-01-26 23:38:25.48	169.63	13.05	-45.8	-47.2	19.7	0.00e+00	0	43	0	1254096896	63	4175
2026-01-26 23:38:29.50	169.93	12.68	-46.0	-47.4	19.5	0.00e+00	0	43	0	1261436928	63	4285
2026-01-26 23:38:33.53	170.23	12.32	-46.5	-48.1	18.8	0.00e+00	0	43	0	1268776960	63	4635
2026-01-26 23:38:37.57	170.52	11.96	-47.0	-48.8	18.0	0.00e+00	0	43	0	1276116992	64	4745
2026-01-26 23:38:41.61	170.80	11.61	-47.2	-49.1	17.7	0.00e+00	0	43	0	1284505600	64	4905
2026-01-26 23:38:45.64	171.08	11.27	-47.2	-49.0	17.7	0.00e+00	0	43	0	1291845632	65	4597
2026-01-26 23:38:49.67	171.35	10.92	-47.2	-49.0	17.6	0.00e+00	0	43	0	1299185664	65	4590
2026-01-26 23:38:53.70	171.62	10.58	-47.0	-48.8	17.9	0.00e+00	0	43	0	1306525696	65	4475
2026-01-26 23:38:57.73	171.88	10.25	-46.7	-48.4	18.2	0.00e+00	0	43	0	1314914304	65	4281
2026-01-26 23:39:01.75	172.13	9.92	-46.8	-48.5	18.1	0.00e+00	0	43	0	1322254336	65	4317
2026-01-26 23:39:05.78	172.38	9.60	-46.6	-48.3	18.3	0.00e+00	0	43	0	1329594368	64	4465
2026-01-26 23:39:09.81	172.62	9.27	-46.7	-48.4	18.1	0.00e+00	0	43	0	1336934400	64	4538
2026-01-26 23:39:13.84	172.86	8.95	-47.0	-48.8	17.7	0.00e+00	0	43	0	1344274432	64	4751
2026-01-26 23:39:17.87	173.10	8.64	-47.4	-49.5	17.0	0.00e+00	0	43	0	1351614464	65	4837
2026-01-26 23:39:21.90	173.33	8.33	-47.5	-49.5	17.0	0.00e+00	0	43	0	1360003072	65	4862
2026-01-26 23:39:25.93	173.55	8.02	-47.7	-49.8	16.6	0.00e+00	0	43	0	1367343104	65	5040
2026-01-26 23:39:29.96	173.77	7.71	-47.6	-49.7	16.7	0.00e+00	0	43	0	1374683136	66	4690
2026-01-26 23:39:33.99	173.99	7.41	-47.7	-50.0	16.4	0.00e+00	0	43	0	1382023168	66	4819
2026-01-26 23:39:38.01	174.20	7.12	-47.6	-49.9	16.5	0.00e+00	0	43	0	1389363200	66	4762
2026-01-26 23:39:42.05	174.41	6.82	-47.4	-49.6	16.8	0.00e+00	0	43	0	1397751808	66	4609
2026-01-26 23:39:46.07	174.61	6.53	-47.2	-49.2	17.1	0.00e+00	0	43	0	1405091840	66	4426
2026-01-26 23:39:50.11	174.81	6.24	-47.4	-49.5	16.7	0.00e+00	0	43	0	1412431872	66	4581
2026-01-26 23:39:54.13	175.01	5.95	-47.4	-49.6	16.7	0.00e+00	0	43	0	1419771904	66	4603
2026-01-26 23:39:58.16	175.20	5.67	-47.2	-49.3	16.9	0.00e+00	0	43	0	1428160512	66	4453
2026-01-26 23:40:02.19	175.39	5.39	-47.2	-49.2	16.9	0.00e+00	0	43	0	1435500544	66	4431
2026-01-26 23:40:06.21	175.58	5.11	-47.0	-49.0	17.0	0.00e+00	0	43	0	1442840576	66	4331
2026-01-26 23:40:10.24	175.76	4.84	-53.3	-68.3	3.8	1.49e+00	0	43	104	1445986304	77	21067
2026-01-26 23:40:14.28	175.95	4.56	-53.8	-68.7	3.8	1.49e+00	0	43	104	1445986304	78	21014
2026-01-26 23:40:18.31	176.12	4.29	-54.1	-69.0	3.8	1.49e+00	0	43	104	1445986304	78	21730
2026-01-26 23:40:22.34	176.30	4.03	-54.3	-69.3	3.8	1.49e+00	0	43	104	1445986304	79	21153
2026-01-26 23:40:26.37	176.47	3.76	-54.5	-69.4	3.8	1.49e+00	0	43	104	1445986304	79	21486
2026-01-26 23:40:30.40	176.64	3.50	-54.5	-69.5	3.8	1.49e+00	0	43	104	1445986304	79	21567
2026-01-26 23:40:34.43	176.80	3.24	-54.5	-69.4	3.8	1.49e+00	0	43	104	1445986304	79	21500
2026-01-26 23:40:38.46	176.97	2.98	-54.3	-69.3	3.8	1.49e+00	0	43	104	1445986304	79	21055
2026-01-26 23:40:42.50	177.13	2.72	-54.0	-69.0	3.8	1.49e+00	0	43	104	1445986304	79	20381
2026-01-26 23:40:46.53	177.29	2.47	-53.6	-68.6	3.8	1.49e+00	0	44	104	1445986304	79	19460
2026-01-26 23:40:50.56	177.44	2.22	-53.6	-68.5	3.8	1.49e+00	0	43	104	1445986304	79	19387
2026-01-26 23:40:54.59	177.60	1.97	-53.6	-68.5	3.8	1.49e+00	0	43	104	1445986304	79	19301

#Closed at: 2026-01-26 23:40:55
#Recorded file [1445 MB]: D:/lorett/data/31041_260127_022644.dat