passes_logs/2026/01/26/R3.2S_Murmansk/R3.2S_Murmansk__20260126_210020_JL1KF02B07_rec.log

#Pass ID: 20260126_210020_JL1KF02B07
#Satellite: JL1KF02B07
#Configuration: 01B_900M
#almurnet v.1.7.20251203
#Start time: 2026-01-26 21:00:21

#Version: 2.2.20231116
#Station: R3.2S_Murmansk
#Location: 33.079688 lon 68.888172 lat
#TLE: 1 65939U 25226B   26026.53453942  .00007013  00000+0  44310-3 0  9995
#TLE: 2 65939  97.6523 105.5181 0017771 259.0988 100.8240 15.09238372 16205

#Time	Az	El	Level	Level2	SNR	BER	BlckErr	Temp	State	Recorded	gain1	gain2
2026-01-26 21:00:21.42	212.73	2.04	-54.9	-57.0	6.2	0.00e+00	0	43	0	0	81	18225
2026-01-26 21:00:24.44	213.01	2.22	-54.0	-56.1	6.2	0.00e+00	0	43	104	0	79	18399
2026-01-26 21:00:27.46	213.30	2.40	-53.9	-56.0	6.2	0.00e+00	0	44	104	0	79	18380
2026-01-26 21:00:30.49	213.59	2.58	-53.9	-56.0	6.2	0.00e+00	0	43	104	0	79	18324
2026-01-26 21:00:33.51	213.88	2.76	-53.9	-56.0	6.2	0.00e+00	0	44	104	0	79	18292
2026-01-26 21:00:36.53	214.17	2.95	-53.9	-56.0	6.2	0.00e+00	0	44	104	0	79	18315
2026-01-26 21:00:39.55	214.47	3.13	-53.9	-56.0	6.2	0.00e+00	0	44	104	0	79	18275
2026-01-26 21:00:42.57	214.78	3.32	-53.9	-56.0	6.2	0.00e+00	0	44	104	0	79	18275
2026-01-26 21:00:45.59	215.09	3.50	-53.9	-56.0	6.2	0.00e+00	0	44	104	0	79	18249
2026-01-26 21:00:48.62	215.40	3.69	-53.9	-56.0	6.2	0.00e+00	0	44	104	0	79	18198
2026-01-26 21:00:51.65	215.72	3.88	-53.9	-56.0	6.2	0.00e+00	0	45	104	0	79	18181
2026-01-26 21:00:54.67	216.05	4.07	-53.9	-56.0	6.2	0.00e+00	0	44	104	0	79	18183
2026-01-26 21:00:57.69	216.37	4.26	-53.9	-55.9	6.2	0.00e+00	0	45	104	0	79	18172
2026-01-26 21:01:00.71	216.71	4.45	-53.8	-56.0	6.2	0.00e+00	0	45	104	0	79	18211
2026-01-26 21:01:03.74	217.05	4.64	-53.8	-56.0	6.2	0.00e+00	0	45	104	0	79	18202
2026-01-26 21:01:06.76	217.39	4.83	-53.8	-56.0	6.2	0.00e+00	0	45	104	0	79	18195
2026-01-26 21:01:09.78	217.74	5.03	-53.8	-56.0	6.2	0.00e+00	0	45	104	0	79	18181
2026-01-26 21:01:12.79	218.09	5.22	-53.9	-56.0	6.2	0.00e+00	0	45	104	0	79	18248
2026-01-26 21:01:15.80	218.45	5.42	-53.9	-56.1	6.2	0.00e+00	0	45	104	0	79	18410
2026-01-26 21:01:18.82	218.82	5.61	-54.0	-56.1	6.2	0.00e+00	0	45	104	0	79	18436
2026-01-26 21:01:21.85	219.19	5.81	-53.8	-55.9	6.2	0.00e+00	0	45	104	0	79	18046
2026-01-26 21:01:24.87	219.57	6.01	-53.8	-55.9	6.2	0.00e+00	0	45	104	0	79	18136
2026-01-26 21:01:27.89	219.95	6.21	-53.9	-56.0	6.2	0.00e+00	0	45	104	0	79	18235
2026-01-26 21:01:30.91	220.34	6.41	-53.9	-56.0	6.2	0.00e+00	0	45	104	0	79	18328
2026-01-26 21:01:33.94	220.74	6.61	-53.8	-55.9	6.2	0.00e+00	0	45	104	0	79	18094
2026-01-26 21:01:36.95	221.14	6.82	-53.8	-55.9	6.2	0.00e+00	0	45	104	0	79	18133
2026-01-26 21:01:39.97	221.55	7.02	-53.9	-56.0	6.2	0.00e+00	0	45	104	0	79	18245
2026-01-26 21:01:42.99	221.96	7.22	-53.9	-56.1	6.2	0.00e+00	0	45	104	0	79	18401
2026-01-26 21:01:46.01	222.39	7.43	-53.8	-55.9	6.2	0.00e+00	0	45	104	0	79	18036
2026-01-26 21:01:49.03	222.82	7.64	-53.9	-56.0	6.2	0.00e+00	0	45	104	0	79	18202
2026-01-26 21:01:52.05	223.25	7.84	-53.9	-56.0	6.2	0.00e+00	0	45	104	0	79	18250
2026-01-26 21:01:55.07	223.70	8.05	-53.9	-56.0	6.2	0.00e+00	0	45	104	0	79	18387
2026-01-26 21:01:58.10	224.15	8.26	-53.8	-55.9	6.2	0.00e+00	0	45	104	0	79	18096
2026-01-26 21:02:01.12	224.61	8.47	-53.8	-55.9	6.2	0.00e+00	0	46	104	0	79	18125
2026-01-26 21:02:04.14	225.07	8.69	-53.9	-56.0	6.2	0.00e+00	0	45	104	0	79	18246
2026-01-26 21:02:07.16	225.55	8.90	-52.8	-54.4	6.2	0.00e+00	0	45	104	0	76	18005
2026-01-26 21:02:10.18	226.03	9.11	-51.8	-53.0	6.3	0.00e+00	0	45	104	0	75	16336
2026-01-26 21:02:13.20	226.52	9.32	-53.7	-55.7	6.2	0.00e+00	0	46	104	0	78	18737
2026-01-26 21:02:16.22	227.02	9.54	-52.6	-54.1	6.2	0.00e+00	0	45	104	0	77	16484
2026-01-26 21:02:19.24	227.53	9.75	-52.8	-54.4	6.2	0.00e+00	0	45	104	0	76	18046
2026-01-26 21:02:22.27	228.04	9.97	-40.1	-40.0	13.0	4.79e-03	0	46	0	92274688	52	13720
2026-01-26 21:02:25.29	228.57	10.18	-35.9	-35.8	15.7	7.43e-05	0	46	0	385875968	43	14192
2026-01-26 21:02:28.31	229.10	10.40	-32.7	-32.5	17.7	0.00e+00	0	46	0	721420288	37	13790
2026-01-26 21:02:31.33	229.64	10.62	-29.0	-28.9	17.7	0.00e+00	0	46	0	1065353216	30	13540
2026-01-26 21:02:34.35	230.20	10.83	-28.9	-28.7	17.8	0.00e+00	0	46	0	1409286144	29	14043
2026-01-26 21:02:37.36	230.76	11.05	-28.7	-28.6	17.9	0.00e+00	0	46	0	1744830464	29	13846
2026-01-26 21:02:40.39	231.33	11.27	-28.8	-28.7	17.8	0.00e+00	0	46	0	2080374784	29	13956
2026-01-26 21:02:43.41	231.91	11.49	-28.6	-28.5	17.8	0.00e+00	0	46	0	2415919104	29	13659
2026-01-26 21:02:46.43	232.50	11.70	-28.5	-28.4	17.9	0.00e+00	0	46	0	2768240640	29	13516
2026-01-26 21:02:49.44	233.10	11.92	-28.3	-28.2	18.0	0.00e+00	0	46	0	3103784960	28	14010
2026-01-26 21:02:52.47	233.71	12.14	-28.4	-28.2	17.7	0.00e+00	0	46	0	3439329280	28	14053
2026-01-26 21:02:55.49	234.33	12.36	-28.2	-28.0	17.8	0.00e+00	0	46	0	3783262208	28	13736
2026-01-26 21:02:58.51	234.96	12.57	-28.2	-28.1	17.9	0.00e+00	0	46	0	4118806528	28	13846
2026-01-26 21:03:01.54	235.61	12.79	-28.2	-28.0	17.7	0.00e+00	0	46	0	4462739456	28	13737
2026-01-26 21:03:04.56	236.26	13.01	-28.1	-28.0	17.9	0.00e+00	0	46	0	4806672384	27	14530
2026-01-26 21:03:07.57	236.92	13.22	-28.1	-27.9	17.8	0.00e+00	0	46	0	5142216704	27	14382
2026-01-26 21:03:10.60	237.60	13.44	-28.1	-27.9	17.9	0.00e+00	0	46	0	5477761024	27	14367
2026-01-26 21:03:13.63	238.29	13.65	-28.0	-27.8	17.7	0.00e+00	0	46	0	5830082560	27	14195
2026-01-26 21:03:16.66	238.99	13.86	-27.9	-27.8	18.0	0.00e+00	0	46	0	6165626880	27	14137
2026-01-26 21:03:19.68	239.69	14.07	-27.8	-27.7	18.0	0.00e+00	0	46	0	6501171200	27	13952
2026-01-26 21:03:22.70	240.41	14.28	-27.8	-27.7	17.7	0.00e+00	0	47	0	6836715520	27	13970
2026-01-26 21:03:25.72	241.15	14.49	-27.7	-27.5	18.0	0.00e+00	0	46	0	7189037056	27	13761
2026-01-26 21:03:28.75	241.89	14.70	-27.8	-27.6	17.7	0.00e+00	0	47	0	7524581376	27	13911
2026-01-26 21:03:31.77	242.64	14.90	-27.7	-27.5	17.7	0.00e+00	0	46	0	7868514304	27	13756
2026-01-26 21:03:34.77	243.40	15.10	-27.6	-27.5	17.9	0.00e+00	0	47	0	8204058624	27	13663
2026-01-26 21:03:37.79	244.18	15.30	-27.6	-27.4	17.6	0.00e+00	0	46	0	8539602944	27	13545
2026-01-26 21:03:40.82	244.97	15.50	-27.5	-27.3	17.5	0.00e+00	0	47	0	8875147264	26	14227
2026-01-26 21:03:43.83	245.77	15.69	-27.4	-27.3	17.6	0.00e+00	0	46	0	9227468800	26	14129
2026-01-26 21:03:46.85	246.58	15.89	-27.4	-27.3	17.6	0.00e+00	0	46	0	9563013120	26	14125
2026-01-26 21:03:49.87	247.41	16.07	-27.3	-27.1	17.2	0.00e+00	0	46	0	9898557440	26	13864
2026-01-26 21:03:52.89	248.24	16.26	-27.2	-27.0	17.1	0.00e+00	0	47	0	10234101760	26	13725
2026-01-26 21:03:55.91	249.09	16.44	-27.1	-26.9	17.3	0.00e+00	0	47	0	10578034688	26	13568
2026-01-26 21:03:58.92	249.94	16.62	-27.1	-26.9	17.0	0.00e+00	0	47	0	10921967616	26	13632
2026-01-26 21:04:01.94	250.81	16.79	-27.0	-26.9	17.0	0.00e+00	0	47	0	11265900544	25	14277
2026-01-26 21:04:04.96	251.69	16.96	-27.0	-26.9	17.0	0.00e+00	0	47	0	11601444864	25	14276
2026-01-26 21:04:07.97	252.58	17.12	-27.0	-26.8	16.9	0.00e+00	0	47	0	11936989184	25	14221
2026-01-26 21:04:10.98	253.48	17.28	-26.8	-26.6	16.6	0.00e+00	0	47	0	12272533504	25	13929
2026-01-26 21:04:14.00	254.39	17.44	-26.8	-26.7	16.3	0.00e+00	0	47	0	12608077824	25	13965
2026-01-26 21:04:17.03	255.31	17.59	-26.8	-26.7	16.4	0.00e+00	0	47	0	12960399360	25	13989
2026-01-26 21:04:20.05	256.24	17.73	-26.7	-26.5	16.6	1.90e-06	0	47	0	13295943680	25	13716
2026-01-26 21:04:23.06	257.18	17.87	-26.7	-26.6	16.6	0.00e+00	0	46	0	13631488000	25	13827
2026-01-26 21:04:26.09	258.13	18.00	-26.7	-26.5	16.4	0.00e+00	0	47	0	13975420928	25	13700
2026-01-26 21:04:29.09	259.09	18.12	-26.7	-26.5	16.7	0.00e+00	0	47	0	14310965248	25	13707
2026-01-26 21:04:32.11	260.05	18.24	-26.6	-26.4	16.8	1.90e-06	0	47	0	14646509568	25	13603
2026-01-26 21:04:35.13	261.03	18.36	-26.6	-26.4	17.1	0.00e+00	0	47	0	14998831104	25	13562
2026-01-26 21:04:38.15	262.01	18.46	-26.5	-26.3	17.0	0.00e+00	0	47	0	15334375424	25	13415
2026-01-26 21:04:41.17	263.00	18.56	-26.5	-26.4	17.2	0.00e+00	0	47	0	15669919744	24	14309
2026-01-26 21:04:44.20	264.00	18.65	-26.5	-26.3	17.6	0.00e+00	0	47	0	16005464064	24	14237
2026-01-26 21:04:47.22	265.01	18.74	-26.5	-26.3	17.7	0.00e+00	0	47	0	16357785600	24	14188
2026-01-26 21:04:50.24	266.02	18.81	-26.7	-26.5	17.7	0.00e+00	0	47	0	16693329920	24	14546
2026-01-26 21:04:53.26	267.03	18.88	-26.7	-26.5	17.6	0.00e+00	0	47	0	17037262848	24	14572
2026-01-26 21:04:56.28	268.05	18.94	-26.6	-26.4	18.0	0.00e+00	0	47	0	17372807168	24	14428
2026-01-26 21:04:59.30	269.07	18.99	-26.6	-26.4	18.2	0.00e+00	0	47	0	17708351488	24	14374
2026-01-26 21:05:02.33	270.10	19.04	-26.6	-26.5	18.2	0.00e+00	0	47	0	18060673024	24	14483
2026-01-26 21:05:05.33	271.13	19.07	-26.7	-26.5	18.4	0.00e+00	0	47	0	18396217344	24	14583
2026-01-26 21:05:08.35	272.16	19.10	-26.8	-26.6	18.7	0.00e+00	0	47	0	18731761664	24	14657
2026-01-26 21:05:11.37	273.19	19.12	-26.8	-26.6	18.5	0.00e+00	0	47	0	19067305984	24	14680
2026-01-26 21:05:14.39	274.23	19.13	-26.8	-26.7	18.7	0.00e+00	0	47	0	19402850304	24	14821
2026-01-26 21:05:17.41	275.26	19.13	-26.8	-26.6	18.9	0.00e+00	0	47	0	19746783232	24	14768
2026-01-26 21:05:20.42	276.29	19.13	-26.9	-26.8	19.2	0.00e+00	0	47	0	20082327552	24	14977
2026-01-26 21:05:23.43	277.32	19.12	-26.9	-26.7	19.2	0.00e+00	0	47	0	20434649088	24	14870
2026-01-26 21:05:26.45	278.35	19.09	-26.9	-26.7	19.3	0.00e+00	0	47	0	20770193408	24	14889
2026-01-26 21:05:29.47	279.38	19.06	-27.0	-26.8	19.4	0.00e+00	0	47	0	21105737728	24	15120
2026-01-26 21:05:32.49	280.41	19.02	-27.0	-26.8	19.5	0.00e+00	0	47	0	21441282048	24	15097
2026-01-26 21:05:35.51	281.44	18.98	-27.1	-26.9	19.6	0.00e+00	0	47	0	21776826368	24	15291
2026-01-26 21:05:38.53	282.46	18.92	-27.3	-27.1	19.6	0.00e+00	0	47	0	22129147904	25	14681
2026-01-26 21:05:41.54	283.47	18.86	-27.2	-27.1	19.6	0.00e+00	0	47	0	22464692224	25	14619
2026-01-26 21:05:44.55	284.48	18.79	-27.4	-27.2	19.4	0.00e+00	0	47	0	22800236544	25	14886
2026-01-26 21:05:47.57	285.48	18.71	-27.4	-27.3	19.2	0.00e+00	0	47	0	23144169472	25	14962
2026-01-26 21:05:50.58	286.48	18.62	-27.4	-27.2	19.3	0.00e+00	0	47	0	23479713792	25	14916
2026-01-26 21:05:53.60	287.47	18.53	-27.5	-27.4	19.2	0.00e+00	0	47	0	23815258112	25	15146
2026-01-26 21:05:56.62	288.46	18.43	-27.6	-27.5	19.0	0.00e+00	0	47	0	24167579648	25	15307
2026-01-26 21:05:59.64	289.43	18.32	-27.7	-27.5	18.9	0.00e+00	0	47	0	24503123968	26	14545
2026-01-26 21:06:02.64	290.40	18.21	-27.7	-27.5	18.8	0.00e+00	0	47	0	24838668288	26	14565
2026-01-26 21:06:05.66	291.36	18.09	-27.9	-27.8	18.5	0.00e+00	0	47	0	25174212608	26	14970
2026-01-26 21:06:08.68	292.31	17.96	-28.0	-27.8	18.7	0.00e+00	0	47	0	25518145536	26	15075
2026-01-26 21:06:11.71	293.26	17.83	-28.1	-28.0	18.4	0.00e+00	0	47	0	25853689856	26	15333
2026-01-26 21:06:14.72	294.19	17.69	-28.1	-27.9	18.4	0.00e+00	0	47	0	26197622784	26	15193
2026-01-26 21:06:17.74	295.11	17.54	-28.1	-27.9	18.3	0.00e+00	0	47	0	26541555712	26	15266
2026-01-26 21:06:20.75	296.02	17.39	-27.9	-27.7	18.5	0.00e+00	0	47	0	26877100032	26	14926
2026-01-26 21:06:23.77	296.93	17.24	-28.0	-27.8	18.7	0.00e+00	0	47	0	27212644352	26	15004
2026-01-26 21:06:26.79	297.82	17.08	-28.1	-27.9	18.4	0.00e+00	0	47	0	27548188672	26	15160
2026-01-26 21:06:29.81	298.70	16.91	-28.2	-28.0	18.6	0.00e+00	0	47	0	27892121600	27	14547
2026-01-26 21:06:32.83	299.58	16.74	-28.1	-27.9	18.7	0.00e+00	0	47	0	28236054528	27	14366
2026-01-26 21:06:35.85	300.44	16.57	-28.1	-27.9	18.6	0.00e+00	0	47	0	28571598848	27	14427
2026-01-26 21:06:38.87	301.29	16.39	-28.2	-28.0	18.8	0.00e+00	0	47	0	28915531776	27	14534
2026-01-26 21:06:41.90	302.13	16.21	-28.1	-28.0	18.9	0.00e+00	0	47	0	29251076096	27	14471
2026-01-26 21:06:44.92	302.96	16.03	-28.2	-28.0	18.9	0.00e+00	0	47	0	29603397632	27	14571
2026-01-26 21:06:47.94	303.77	15.84	-28.2	-28.1	18.9	0.00e+00	0	47	0	29938941952	27	14636
2026-01-26 21:06:50.97	304.58	15.65	-28.3	-28.1	18.9	0.00e+00	0	47	0	30274486272	27	14743
2026-01-26 21:06:53.99	305.37	15.45	-28.5	-28.3	18.7	0.00e+00	0	47	0	30610030592	27	15058
2026-01-26 21:06:57.01	306.15	15.26	-28.5	-28.4	18.7	0.00e+00	0	47	0	30945574912	27	15149
2026-01-26 21:07:00.03	306.92	15.06	-28.7	-28.5	18.6	0.00e+00	0	47	0	31297896448	28	14519
2026-01-26 21:07:03.05	307.68	14.86	-28.5	-28.4	18.6	0.00e+00	0	47	0	31633440768	28	14330
2026-01-26 21:07:06.07	308.42	14.65	-28.7	-28.6	18.4	0.00e+00	0	47	0	31968985088	28	14620
2026-01-26 21:07:09.09	309.16	14.45	-28.9	-28.7	18.2	0.00e+00	0	47	0	32312918016	28	14868
2026-01-26 21:07:12.11	309.88	14.24	-28.7	-28.5	18.2	0.00e+00	0	47	0	32648462336	28	14586
2026-01-26 21:07:15.13	310.59	14.03	-54.7	-56.9	6.2	0.00e+00	0	47	104	32807845888	80	19097
2026-01-26 21:07:18.15	311.29	13.82	-54.7	-56.8	6.2	0.00e+00	0	47	104	32807845888	80	18986
2026-01-26 21:07:21.17	311.98	13.61	-54.7	-56.8	6.2	0.00e+00	0	47	104	32807845888	80	19033
2026-01-26 21:07:24.20	312.66	13.40	-54.7	-56.8	6.2	0.00e+00	0	47	104	32807845888	80	18850
2026-01-26 21:07:27.22	313.33	13.19	-54.7	-56.8	6.2	0.00e+00	0	46	104	32807845888	80	18969
2026-01-26 21:07:30.25	313.99	12.97	-54.7	-56.8	6.2	0.00e+00	0	46	104	32807845888	80	18837
2026-01-26 21:07:33.27	314.63	12.76	-54.6	-56.8	6.2	0.00e+00	0	46	104	32807845888	80	18865
2026-01-26 21:07:36.30	315.27	12.54	-54.5	-56.6	6.2	0.00e+00	0	46	104	32807845888	80	18460
2026-01-26 21:07:39.32	315.89	12.33	-54.5	-56.6	6.2	0.00e+00	0	46	104	32807845888	80	18543
2026-01-26 21:07:42.34	316.51	12.11	-54.4	-56.5	6.2	0.00e+00	0	46	104	32807845888	80	18268
2026-01-26 21:07:45.37	317.11	11.90	-54.5	-56.5	6.2	0.00e+00	0	46	104	32807845888	80	18367
2026-01-26 21:07:48.39	317.71	11.68	-54.3	-56.4	6.2	0.00e+00	0	46	104	32807845888	80	18005
2026-01-26 21:07:51.41	318.29	11.47	-54.4	-56.4	6.2	0.00e+00	0	46	104	32807845888	80	18105
2026-01-26 21:07:54.43	318.87	11.25	-54.3	-56.4	6.2	0.00e+00	0	46	104	32807845888	80	17974
2026-01-26 21:07:57.46	319.43	11.03	-54.3	-56.3	6.2	0.00e+00	0	46	104	32807845888	80	17870
2026-01-26 21:08:00.48	319.99	10.82	-54.2	-56.3	6.2	0.00e+00	0	46	104	32807845888	80	17777
2026-01-26 21:08:03.50	320.53	10.60	-54.1	-56.1	6.2	0.00e+00	0	46	104	32807845888	80	17414
2026-01-26 21:08:06.52	321.07	10.39	-54.0	-55.9	6.2	0.00e+00	0	47	104	32807845888	79	18150
2026-01-26 21:08:09.54	321.60	10.17	-53.7	-55.5	6.2	0.00e+00	0	46	104	32807845888	79	17234
2026-01-26 21:08:12.56	322.12	9.96	-53.3	-55.0	6.3	0.00e+00	0	46	104	32807845888	78	17353
2026-01-26 21:08:15.59	322.63	9.75	-53.1	-54.7	6.3	0.00e+00	0	46	104	32807845888	78	16610
2026-01-26 21:08:18.62	323.13	9.53	-52.6	-54.1	6.3	0.00e+00	0	46	104	32807845888	77	16398
2026-01-26 21:08:21.64	323.63	9.32	-53.6	-55.5	6.2	0.00e+00	0	46	104	32807845888	77	19267
2026-01-26 21:08:24.67	324.12	9.11	-51.8	-52.9	6.5	0.00e+00	0	46	104	32807845888	75	16182
2026-01-26 21:08:27.69	324.59	8.90	-51.1	-52.1	6.6	0.00e+00	0	46	104	32807845888	74	15539
2026-01-26 21:08:30.71	325.06	8.69	-53.0	-54.6	6.3	0.00e+00	0	46	104	32807845888	78	16474
2026-01-26 21:08:33.73	325.52	8.48	-50.3	-51.2	6.8	0.00e+00	0	46	104	32807845888	72	15798
2026-01-26 21:08:36.74	325.98	8.27	-49.4	-50.2	7.0	0.00e+00	0	46	104	32807845888	70	15724
2026-01-26 21:08:39.76	326.42	8.06	-50.2	-51.0	6.8	0.00e+00	0	46	104	32807845888	70	17320
2026-01-26 21:08:42.78	326.86	7.86	-48.3	-48.9	7.3	0.00e+00	0	46	104	32807845888	68	15290
2026-01-26 21:08:45.80	327.30	7.65	-53.7	-55.8	6.2	0.00e+00	0	46	104	32807845888	77	20062
2026-01-26 21:08:48.83	327.72	7.45	-47.9	-48.4	7.5	0.00e+00	0	46	104	32807845888	67	15228
2026-01-26 21:08:51.84	328.14	7.24	-46.9	-47.4	7.7	0.00e+00	0	46	104	32807845888	65	15125
2026-01-26 21:08:54.86	328.55	7.04	-48.9	-49.6	7.2	0.00e+00	0	46	104	32807845888	69	15526
2026-01-26 21:08:57.88	328.96	6.84	-46.4	-46.9	7.8	0.00e+00	0	46	104	32807845888	64	15178
2026-01-26 21:09:00.90	329.36	6.64	-45.6	-46.0	8.0	0.00e+00	0	46	0	32807845888	62	15406
2026-01-26 21:09:03.91	329.75	6.44	-48.5	-49.1	7.3	0.00e+00	0	46	104	32807845888	67	16485
2026-01-26 21:09:06.94	330.13	6.24	-45.5	-45.9	8.0	0.00e+00	0	46	0	32807845888	62	15199
2026-01-26 21:09:09.95	330.51	6.04	-53.5	-55.6	6.2	0.00e+00	0	46	104	32807845888	77	19682
2026-01-26 21:09:12.97	330.89	5.85	-44.5	-44.9	8.2	0.00e+00	0	46	0	32807845888	60	15161
2026-01-26 21:09:15.99	331.26	5.65	-46.5	-47.0	7.6	0.00e+00	0	46	104	32807845888	64	15410
2026-01-26 21:09:19.00	331.62	5.46	-45.4	-45.7	8.0	0.00e+00	0	46	104	32807845888	62	14905
2026-01-26 21:09:22.02	331.98	5.26	-43.6	-43.9	8.4	0.00e+00	0	46	0	32807845888	59	14278
2026-01-26 21:09:25.04	332.33	5.07	-43.6	-44.0	8.4	0.00e+00	0	46	0	32807845888	58	15306
2026-01-26 21:09:28.06	332.67	4.88	-54.3	-56.4	6.2	0.00e+00	0	46	104	32807845888	79	19217
2026-01-26 21:09:31.09	333.02	4.68	-54.8	-56.9	6.2	0.00e+00	0	46	104	32807845888	80	19121
2026-01-26 21:09:34.12	333.35	4.49	-54.9	-57.0	6.2	0.00e+00	0	46	104	32807845888	80	19362
2026-01-26 21:09:37.14	333.69	4.31	-54.8	-56.8	6.2	0.00e+00	0	46	104	32807845888	80	19002
2026-01-26 21:09:40.17	334.01	4.12	-54.7	-56.7	6.2	0.00e+00	0	46	104	32807845888	80	18818
2026-01-26 21:09:43.19	334.33	3.93	-54.7	-56.8	6.2	0.00e+00	0	46	104	32807845888	80	18905
2026-01-26 21:09:46.22	334.65	3.74	-54.7	-56.8	6.2	0.00e+00	0	46	104	32807845888	80	18959
2026-01-26 21:09:49.25	334.97	3.56	-54.7	-56.8	6.2	0.00e+00	0	46	104	32807845888	80	18823
2026-01-26 21:09:52.27	335.27	3.37	-54.6	-56.7	6.2	0.00e+00	0	46	104	32807845888	80	18702
2026-01-26 21:09:55.29	335.58	3.19	-54.6	-56.6	6.2	0.00e+00	0	46	104	32807845888	80	18599
2026-01-26 21:09:58.32	335.88	3.01	-54.5	-56.6	6.2	0.00e+00	0	46	104	32807845888	80	18535
2026-01-26 21:10:01.35	336.17	2.83	-54.5	-56.6	6.2	0.00e+00	0	46	104	32807845888	80	18514
2026-01-26 21:10:04.37	336.46	2.65	-54.5	-56.6	6.2	0.00e+00	0	46	104	32807845888	80	18488
2026-01-26 21:10:07.40	336.75	2.47	-54.5	-56.6	6.2	0.00e+00	0	46	104	32807845888	80	18468
2026-01-26 21:10:10.43	337.03	2.29	-54.4	-56.5	6.2	0.00e+00	0	46	104	32807845888	80	18339
2026-01-26 21:10:13.45	337.31	2.11	-54.4	-56.5	6.2	0.00e+00	0	46	104	32807845888	80	18292
2026-01-26 21:10:16.47	337.59	1.93	-54.4	-56.5	6.2	0.00e+00	0	46	104	32807845888	80	18331

#Closed at: 2026-01-26 21:10:17
#Recorded file [32807 MB]: D:/lorett/data/31041_260127_000021.dat