passes_logs/2026/01/26/R3.2S_Murmansk/R3.2S_Murmansk__20260126_012600_NOAA_20_JPSS-1_rec.log

#Pass ID: 20260126_012600_NOAA 20 (JPSS-1)
#Satellite: NOAA 20 (JPSS-1)
#Configuration: NOAA 20
#almurnet v.1.7.20251203
#Start time: 2026-01-26 01:26:00

#Version: 2.2.20231116
#Station: R3.2S_Murmansk
#Location: 33.079688 lon 68.888172 lat
#TLE: 1 43013U 17073A   26025.47986292  .00000161  00000+0  97249-4 0  9993
#TLE: 2 43013  98.7646 326.3091 0001052  24.2709 335.8516 14.19540188424225

#Time	Az	El	Level	Level2	SNR	BER	BlckErr	Temp	State	Recorded	gain1	gain2
2026-01-26 01:26:00.22	27.72	1.97	-53.7	-68.7	3.8	1.49e+00	0	42	0	0	79	19673
2026-01-26 01:26:04.24	27.66	2.22	-52.2	-67.1	3.8	1.49e+00	0	42	104	0	76	19453
2026-01-26 01:26:08.27	27.59	2.48	-52.1	-66.8	3.8	1.49e+00	0	42	104	0	76	18807
2026-01-26 01:26:12.31	27.53	2.74	-52.0	-66.6	3.8	1.49e+00	0	42	104	0	76	18378
2026-01-26 01:26:16.34	27.46	3.01	-52.0	-66.7	3.8	1.49e+00	0	42	104	0	76	18635
2026-01-26 01:26:20.37	27.40	3.27	-52.0	-66.8	3.8	1.49e+00	0	42	104	0	76	18798
2026-01-26 01:26:24.40	27.33	3.54	-51.9	-65.0	3.8	1.49e+00	0	43	104	0	75	16159
2026-01-26 01:26:28.43	27.26	3.81	-51.8	-63.2	4.3	1.37e+00	0	43	0	0	75	13219
2026-01-26 01:26:32.46	27.19	4.09	-51.0	-57.6	8.1	1.01e-01	0	43	0	6291456	74	7295
2026-01-26 01:26:36.49	27.11	4.36	-49.5	-53.4	12.5	1.47e-04	0	43	0	13631488	71	5345
2026-01-26 01:26:40.53	27.04	4.64	-48.4	-51.3	14.7	0.00e+00	0	43	0	22020096	68	5021
2026-01-26 01:26:44.56	26.96	4.93	-48.6	-51.5	14.4	3.00e-06	0	43	0	29360128	68	5159
2026-01-26 01:26:48.59	26.88	5.21	-49.9	-54.2	12.0	0.00e+00	0	43	0	36700160	70	6267
2026-01-26 01:26:52.62	26.80	5.50	-46.8	-48.7	17.3	0.00e+00	0	43	0	41943040	65	4421
2026-01-26 01:26:56.66	26.72	5.79	-46.8	-48.7	17.3	0.00e+00	0	43	0	49283072	65	4434
2026-01-26 01:27:00.69	26.63	6.09	-46.5	-48.4	17.8	0.00e+00	0	43	0	56623104	64	4511
2026-01-26 01:27:04.71	26.55	6.38	-46.1	-47.8	18.3	0.00e+00	0	43	0	63963136	64	4239
2026-01-26 01:27:08.74	26.46	6.68	-46.0	-47.7	18.6	0.00e+00	0	43	0	72351744	63	4403
2026-01-26 01:27:12.77	26.37	6.99	-46.2	-47.8	18.5	0.00e+00	0	43	0	79691776	63	4480
2026-01-26 01:27:16.80	26.27	7.30	-46.3	-48.0	18.4	0.00e+00	0	43	0	87031808	63	4551
2026-01-26 01:27:20.83	26.18	7.61	-45.9	-47.5	18.9	0.00e+00	0	43	0	94371840	63	4331
2026-01-26 01:27:24.86	26.08	7.92	-45.8	-47.3	19.1	0.00e+00	0	43	0	101711872	63	4234
2026-01-26 01:27:28.89	25.98	8.24	-45.7	-47.2	19.2	0.00e+00	0	43	0	109051904	63	4181
2026-01-26 01:27:32.91	25.87	8.57	-45.7	-47.3	19.2	0.00e+00	0	43	0	117440512	63	4197
2026-01-26 01:27:36.94	25.77	8.89	-45.6	-47.0	19.5	0.00e+00	0	43	0	124780544	62	4335
2026-01-26 01:27:40.97	25.66	9.22	-45.5	-46.9	19.6	0.00e+00	0	43	0	132120576	62	4273
2026-01-26 01:27:44.99	25.55	9.56	-45.3	-46.7	19.9	0.00e+00	0	43	0	139460608	62	4159
2026-01-26 01:27:49.01	25.43	9.90	-45.3	-46.7	19.9	0.00e+00	0	43	0	146800640	62	4169
2026-01-26 01:27:53.04	25.31	10.24	-45.2	-46.5	20.1	0.00e+00	0	43	0	155189248	62	4095
2026-01-26 01:27:57.07	25.19	10.59	-45.3	-46.6	20.0	0.00e+00	0	44	0	162529280	62	4128
2026-01-26 01:28:01.09	25.07	10.95	-45.1	-46.4	20.2	0.00e+00	0	43	0	169869312	62	4025
2026-01-26 01:28:05.12	24.94	11.31	-44.9	-46.2	20.5	0.00e+00	0	43	0	177209344	61	4146
2026-01-26 01:28:09.15	24.81	11.67	-44.8	-46.1	20.5	0.00e+00	0	43	0	185597952	61	4141
2026-01-26 01:28:13.17	24.67	12.04	-44.6	-45.9	20.8	0.00e+00	0	43	0	192937984	61	4010
2026-01-26 01:28:17.20	24.53	12.42	-44.5	-45.8	20.9	0.00e+00	0	43	0	200278016	61	3969
2026-01-26 01:28:21.22	24.39	12.80	-44.7	-46.0	20.7	0.00e+00	0	43	0	207618048	61	4065
2026-01-26 01:28:25.25	24.24	13.19	-44.6	-45.8	20.9	0.00e+00	0	43	0	214958080	60	4222
2026-01-26 01:28:29.28	24.09	13.58	-44.4	-45.6	21.2	0.00e+00	0	43	0	222298112	60	4108
2026-01-26 01:28:33.30	23.94	13.98	-44.3	-45.5	21.2	0.00e+00	0	43	0	230686720	60	4088
2026-01-26 01:28:37.32	23.77	14.38	-44.2	-45.4	21.4	0.00e+00	0	43	0	238026752	60	4016
2026-01-26 01:28:41.35	23.61	14.79	-44.3	-45.5	21.3	0.00e+00	0	44	0	245366784	60	4069
2026-01-26 01:28:45.37	23.44	15.21	-44.2	-45.4	21.4	0.00e+00	0	43	0	252706816	60	4018
2026-01-26 01:28:49.40	23.26	15.64	-44.2	-45.4	21.4	0.00e+00	0	43	0	260046848	60	4017
2026-01-26 01:28:53.43	23.08	16.07	-44.3	-45.4	21.4	0.00e+00	0	43	0	268435456	60	4038
2026-01-26 01:28:57.45	22.89	16.51	-44.2	-45.3	21.5	0.00e+00	0	43	0	275775488	60	4003
2026-01-26 01:29:01.47	22.70	16.96	-44.1	-45.2	21.6	0.00e+00	0	43	0	283115520	60	3945
2026-01-26 01:29:05.48	22.50	17.42	-44.1	-45.3	21.6	0.00e+00	0	44	0	290455552	60	3965
2026-01-26 01:29:09.51	22.29	17.88	-44.0	-45.1	21.7	0.00e+00	0	43	0	297795584	60	3912
2026-01-26 01:29:13.54	22.07	18.35	-44.2	-45.3	21.6	0.00e+00	0	43	0	306184192	60	3981
2026-01-26 01:29:17.56	21.85	18.84	-44.0	-45.1	21.8	0.00e+00	0	43	0	313524224	60	3905
2026-01-26 01:29:21.58	21.62	19.33	-44.5	-45.7	21.6	0.00e+00	0	43	0	320864256	59	4393
2026-01-26 01:29:25.61	21.39	19.83	-44.6	-45.7	21.5	0.00e+00	0	44	0	328204288	59	4425
2026-01-26 01:29:29.63	21.14	20.34	-44.4	-45.6	21.5	0.00e+00	0	43	0	336592896	59	4356
2026-01-26 01:29:33.66	20.89	20.86	-44.4	-45.6	21.7	0.00e+00	0	43	0	343932928	59	4350
2026-01-26 01:29:37.69	20.62	21.39	-44.4	-45.6	21.7	0.00e+00	0	44	0	351272960	59	4359
2026-01-26 01:29:41.71	20.35	21.93	-44.2	-45.3	22.0	0.00e+00	0	43	0	358612992	59	4203
2026-01-26 01:29:45.74	20.06	22.48	-44.2	-45.4	22.0	0.00e+00	0	43	0	365953024	59	4246
2026-01-26 01:29:49.77	19.77	23.04	-44.2	-45.3	22.0	0.00e+00	0	43	0	373293056	59	4233
2026-01-26 01:29:53.80	19.46	23.62	-44.5	-45.7	21.7	0.00e+00	0	44	0	381681664	59	4406
2026-01-26 01:29:57.82	19.14	24.21	-44.5	-45.7	21.4	0.00e+00	0	44	0	389021696	60	4147
2026-01-26 01:30:01.85	18.81	24.81	-44.7	-45.9	21.2	0.00e+00	0	44	0	396361728	60	4262
2026-01-26 01:30:05.88	18.46	25.42	-45.0	-46.2	20.9	0.00e+00	0	43	0	403701760	60	4437
2026-01-26 01:30:09.91	18.10	26.04	-45.3	-46.6	20.6	0.00e+00	0	44	0	411041792	61	4347
2026-01-26 01:30:13.94	17.73	26.68	-45.6	-47.0	20.2	0.00e+00	0	43	0	419430400	61	4557
2026-01-26 01:30:17.96	17.34	27.34	-46.3	-47.8	19.5	0.00e+00	0	44	0	426770432	63	4445
2026-01-26 01:30:22.00	16.93	28.00	-46.8	-48.4	18.8	0.00e+00	0	43	0	434110464	64	4509
2026-01-26 01:30:26.03	16.50	28.69	-47.1	-48.7	18.4	0.00e+00	0	43	0	441450496	64	4701
2026-01-26 01:30:30.05	16.06	29.38	-47.3	-49.0	18.2	0.00e+00	0	44	0	449839104	65	4580
2026-01-26 01:30:34.08	15.59	30.10	-47.7	-49.5	17.7	0.00e+00	0	43	0	457179136	65	4868
2026-01-26 01:30:38.10	15.10	30.82	-47.4	-49.2	18.1	0.00e+00	0	44	0	464519168	65	4682
2026-01-26 01:30:42.13	14.59	31.57	-47.6	-49.5	17.9	0.00e+00	0	43	0	471859200	65	4822
2026-01-26 01:30:46.14	14.05	32.33	-47.9	-49.8	17.6	0.00e+00	0	43	0	479199232	66	4720
2026-01-26 01:30:50.17	13.49	33.11	-47.7	-49.6	17.8	0.00e+00	0	43	0	486539264	66	4602
2026-01-26 01:30:54.19	12.90	33.90	-47.8	-49.6	17.7	0.00e+00	0	44	0	494927872	66	4641
2026-01-26 01:30:58.22	12.27	34.71	-48.0	-50.0	17.4	0.00e+00	0	44	0	502267904	66	4823
2026-01-26 01:31:02.24	11.62	35.54	-48.1	-50.1	17.3	0.00e+00	0	43	0	509607936	66	4914
2026-01-26 01:31:06.27	10.93	36.39	-47.7	-49.6	17.8	0.00e+00	0	44	0	516947968	66	4618
2026-01-26 01:31:10.29	10.20	37.25	-47.1	-48.7	18.7	0.00e+00	0	44	0	524288000	66	4172
2026-01-26 01:31:14.33	9.43	38.13	-47.0	-48.6	18.8	0.00e+00	0	44	0	532676608	65	4374
2026-01-26 01:31:18.35	8.61	39.03	-46.8	-48.3	19.1	0.00e+00	0	44	0	540016640	65	4241
2026-01-26 01:31:22.38	7.75	39.95	-46.7	-48.3	19.2	0.00e+00	0	43	0	547356672	65	4204
2026-01-26 01:31:26.40	6.84	40.88	-47.1	-48.7	18.7	0.00e+00	0	43	0	554696704	65	4434
2026-01-26 01:31:30.43	5.87	41.83	-47.4	-49.1	18.3	0.00e+00	0	44	0	563085312	65	4643
2026-01-26 01:31:34.46	4.84	42.79	-47.2	-48.9	18.6	0.00e+00	0	44	0	570425344	65	4518
2026-01-26 01:31:38.49	3.75	43.77	-46.8	-48.3	19.2	0.00e+00	0	44	0	577765376	65	4238
2026-01-26 01:31:42.53	2.58	44.76	-46.6	-48.1	19.4	0.00e+00	0	44	0	585105408	64	4382
2026-01-26 01:31:46.55	1.34	45.76	-46.7	-48.2	19.4	0.00e+00	0	43	0	592445440	64	4407
2026-01-26 01:31:50.59	0.02	46.77	-46.9	-48.5	19.0	0.00e+00	0	43	0	599785472	64	4566
2026-01-26 01:31:54.62	358.60	47.78	-46.6	-48.1	19.5	0.00e+00	0	44	0	608174080	64	4351
2026-01-26 01:31:58.64	357.10	48.80	-46.1	-47.4	20.1	0.00e+00	0	44	0	615514112	64	4025
2026-01-26 01:32:02.65	355.49	49.82	-45.8	-47.1	20.5	0.00e+00	0	43	0	622854144	63	4127
2026-01-26 01:32:06.68	353.77	50.83	-46.1	-47.4	20.3	0.00e+00	0	44	0	630194176	63	4288
2026-01-26 01:32:10.71	351.92	51.84	-45.6	-46.9	20.8	0.00e+00	0	44	0	637534208	63	4009
2026-01-26 01:32:14.74	349.94	52.84	-44.5	-45.6	21.9	0.00e+00	0	43	0	645922816	61	3892
2026-01-26 01:32:18.76	347.83	53.82	-44.5	-45.6	22.0	0.00e+00	0	43	0	653262848	60	4105
2026-01-26 01:32:22.78	345.57	54.77	-44.4	-45.5	22.1	0.00e+00	0	43	0	660602880	60	4075
2026-01-26 01:32:26.81	343.15	55.69	-45.5	-46.8	20.9	0.00e+00	0	43	0	667942912	61	4456
2026-01-26 01:32:30.84	340.57	56.58	-46.8	-48.3	19.4	0.00e+00	0	44	0	676331520	64	4475
2026-01-26 01:32:34.87	337.82	57.42	-47.0	-48.5	19.3	0.00e+00	0	44	0	683671552	64	4583
2026-01-26 01:32:38.91	334.90	58.20	-47.3	-48.9	18.9	0.00e+00	0	43	0	691011584	65	4494
2026-01-26 01:32:42.93	331.82	58.92	-46.7	-48.2	19.5	0.00e+00	0	44	0	698351616	65	4173
2026-01-26 01:32:46.96	328.56	59.57	-46.5	-47.9	19.9	0.00e+00	0	44	0	705691648	63	4515
2026-01-26 01:32:50.99	325.16	60.13	-44.7	-45.8	21.9	0.00e+00	0	43	0	713031680	61	3972
2026-01-26 01:32:55.01	321.61	60.60	-44.8	-45.9	21.7	0.00e+00	0	43	0	721420288	61	4049
2026-01-26 01:32:59.04	317.94	60.97	-44.2	-45.3	22.7	0.00e+00	0	43	0	728760320	59	4205
2026-01-26 01:33:03.06	314.19	61.24	-44.1	-45.1	22.9	0.00e+00	0	44	0	736100352	59	4101
2026-01-26 01:33:07.08	310.36	61.40	-43.3	-44.3	23.6	0.00e+00	0	44	0	743440384	58	3970
2026-01-26 01:33:11.10	306.51	61.45	-42.5	-43.4	24.3	0.00e+00	0	44	0	750780416	57	3796
2026-01-26 01:33:15.13	302.65	61.38	-42.7	-43.6	24.2	0.00e+00	0	43	0	759169024	56	4124
2026-01-26 01:33:19.15	298.84	61.20	-42.8	-43.7	24.1	0.00e+00	0	44	0	766509056	56	4174
2026-01-26 01:33:23.16	295.10	60.92	-43.6	-44.5	23.4	0.00e+00	0	43	0	773849088	57	4334
2026-01-26 01:33:27.19	291.45	60.52	-44.2	-45.2	22.7	0.00e+00	0	44	0	781189120	58	4441
2026-01-26 01:33:31.19	287.95	60.04	-44.6	-45.7	22.1	0.00e+00	0	43	0	788529152	60	4160
2026-01-26 01:33:35.21	284.57	59.46	-44.4	-45.4	22.3	0.00e+00	0	44	0	796917760	60	4037
2026-01-26 01:33:39.24	281.34	58.80	-46.4	-47.8	20.0	0.00e+00	0	43	0	804257792	64	4220
2026-01-26 01:33:43.27	278.28	58.07	-45.8	-47.0	20.8	0.00e+00	0	44	0	811597824	62	4331
2026-01-26 01:33:47.28	275.40	57.28	-46.3	-47.6	20.1	0.00e+00	0	44	0	818937856	64	4145
2026-01-26 01:33:51.31	272.68	56.43	-45.3	-46.5	21.3	0.00e+00	0	44	0	826277888	62	4069
2026-01-26 01:33:55.34	270.12	55.54	-45.2	-46.4	21.3	0.00e+00	0	44	0	834666496	62	4019
2026-01-26 01:33:59.36	267.73	54.61	-45.2	-46.3	21.4	0.00e+00	0	44	0	842006528	61	4241
2026-01-26 01:34:03.39	265.49	53.65	-45.9	-47.2	20.6	0.00e+00	0	44	0	849346560	62	4421
2026-01-26 01:34:07.41	263.40	52.67	-45.3	-46.5	21.3	0.00e+00	0	44	0	856686592	61	4303
2026-01-26 01:34:11.44	261.44	51.67	-46.0	-47.3	20.4	0.00e+00	0	44	0	864026624	63	4230
2026-01-26 01:34:15.47	259.61	50.65	-47.3	-48.9	18.9	0.00e+00	0	44	0	872415232	65	4501
2026-01-26 01:34:19.48	257.91	49.64	-47.7	-49.4	18.4	0.00e+00	0	44	0	879755264	66	4505
2026-01-26 01:34:23.51	256.31	48.61	-48.8	-50.9	16.9	0.00e+00	0	44	0	887095296	68	4793
2026-01-26 01:34:27.54	254.82	47.59	-48.6	-50.6	17.2	0.00e+00	0	44	0	894435328	68	4617
2026-01-26 01:34:31.56	253.42	46.58	-47.5	-49.2	18.5	0.00e+00	0	44	0	901775360	67	4173
2026-01-26 01:34:35.59	252.11	45.57	-47.0	-48.5	19.1	0.00e+00	0	44	0	910163968	66	4090
2026-01-26 01:34:39.62	250.88	44.57	-47.0	-48.5	19.1	0.00e+00	0	44	0	917504000	65	4320
2026-01-26 01:34:43.64	249.73	43.58	-46.7	-48.1	19.5	0.00e+00	0	44	0	924844032	64	4389
2026-01-26 01:34:47.67	248.64	42.60	-47.5	-49.2	18.5	0.00e+00	0	44	0	932184064	65	4659
2026-01-26 01:34:51.70	247.62	41.64	-48.0	-49.9	17.7	0.00e+00	0	44	0	939524096	66	4793
2026-01-26 01:34:55.73	246.66	40.69	-48.5	-50.6	17.1	0.00e+00	0	44	0	947912704	67	4879
2026-01-26 01:34:59.76	245.75	39.76	-48.5	-50.5	17.2	0.00e+00	0	44	0	955252736	68	4571
2026-01-26 01:35:03.79	244.90	38.84	-48.9	-51.0	16.6	0.00e+00	0	44	0	962592768	68	4857
2026-01-26 01:35:07.81	244.09	37.94	-49.0	-51.2	16.5	0.00e+00	0	44	0	969932800	68	4959
2026-01-26 01:35:11.83	243.33	37.06	-49.2	-51.6	16.0	0.00e+00	0	44	0	977272832	69	4923
2026-01-26 01:35:15.86	242.60	36.20	-48.3	-50.3	17.4	0.00e+00	0	44	0	985661440	68	4443
2026-01-26 01:35:19.90	241.91	35.35	-47.9	-49.7	17.8	0.00e+00	0	44	0	993001472	67	4432
2026-01-26 01:35:23.92	241.26	34.52	-47.8	-49.6	18.0	0.00e+00	0	44	0	1000341504	67	4356
2026-01-26 01:35:27.95	240.64	33.71	-47.8	-49.7	17.8	0.00e+00	0	44	0	1007681536	67	4409
2026-01-26 01:35:31.97	240.05	32.92	-47.8	-49.7	17.8	0.00e+00	0	44	0	1015021568	67	4416
2026-01-26 01:35:36.00	239.49	32.14	-47.9	-49.8	17.7	0.00e+00	0	44	0	1023410176	67	4459
2026-01-26 01:35:40.03	238.96	31.38	-47.6	-49.4	18.0	0.00e+00	0	44	0	1030750208	67	4264
2026-01-26 01:35:44.06	238.45	30.64	-48.3	-50.4	17.0	0.00e+00	0	44	0	1038090240	67	4786
2026-01-26 01:35:48.09	237.96	29.91	-48.4	-50.5	16.9	0.00e+00	0	44	0	1045430272	67	4868
2026-01-26 01:35:52.12	237.50	29.20	-47.6	-49.4	18.0	0.00e+00	0	44	0	1052770304	67	4270
2026-01-26 01:35:56.14	237.05	28.50	-47.6	-49.4	18.0	0.00e+00	0	44	0	1061158912	66	4524
2026-01-26 01:36:00.18	236.63	27.82	-47.4	-49.1	18.3	0.00e+00	0	44	0	1068498944	66	4365
2026-01-26 01:36:04.21	236.22	27.15	-47.0	-48.6	18.7	0.00e+00	0	44	0	1075838976	65	4376
2026-01-26 01:36:08.24	235.83	26.50	-46.8	-48.4	18.9	0.00e+00	0	44	0	1083179008	65	4253
2026-01-26 01:36:12.27	235.45	25.86	-46.8	-48.4	18.8	0.00e+00	0	44	0	1090519040	65	4272
2026-01-26 01:36:16.29	235.10	25.24	-46.7	-48.2	19.0	0.00e+00	0	44	0	1098907648	65	4174
2026-01-26 01:36:20.32	234.75	24.63	-46.5	-48.0	19.3	0.00e+00	0	44	0	1106247680	64	4302
2026-01-26 01:36:24.34	234.42	24.03	-46.6	-48.2	19.0	0.00e+00	0	44	0	1113587712	64	4422
2026-01-26 01:36:28.38	234.10	23.44	-47.0	-48.7	18.6	0.00e+00	0	44	0	1120927744	64	4664
2026-01-26 01:36:32.40	233.80	22.87	-46.8	-48.4	18.8	0.00e+00	0	44	0	1128267776	64	4537
2026-01-26 01:36:36.43	233.50	22.30	-46.4	-47.9	19.3	0.00e+00	0	44	0	1136656384	64	4275
2026-01-26 01:36:40.46	233.22	21.75	-46.1	-47.6	19.6	0.00e+00	0	44	0	1143996416	64	4121
2026-01-26 01:36:44.49	232.94	21.21	-46.3	-47.8	19.3	0.00e+00	0	44	0	1151336448	64	4213
2026-01-26 01:36:48.52	232.68	20.68	-46.4	-47.9	19.2	0.00e+00	0	44	0	1158676480	64	4271
2026-01-26 01:36:52.55	232.42	20.16	-46.1	-47.6	19.5	0.00e+00	0	44	0	1166016512	64	4101
2026-01-26 01:36:56.57	232.18	19.65	-45.9	-47.3	19.9	0.00e+00	0	44	0	1174405120	63	4225
2026-01-26 01:37:00.60	231.94	19.15	-46.0	-47.5	19.7	0.00e+00	0	44	0	1181745152	63	4312
2026-01-26 01:37:04.63	231.71	18.66	-46.1	-47.6	19.6	0.00e+00	0	44	0	1189085184	63	4364
2026-01-26 01:37:08.67	231.49	18.18	-46.0	-47.5	19.6	0.00e+00	0	44	0	1196425216	63	4302
2026-01-26 01:37:12.69	231.27	17.71	-45.9	-47.3	19.8	0.00e+00	0	44	0	1203765248	63	4198
2026-01-26 01:37:16.72	231.06	17.24	-45.7	-47.0	20.0	0.00e+00	0	43	0	1212153856	63	4089
2026-01-26 01:37:20.75	230.86	16.79	-45.7	-47.0	20.0	0.00e+00	0	44	0	1219493888	63	4090
2026-01-26 01:37:24.77	230.67	16.34	-46.0	-47.4	19.6	0.00e+00	0	43	0	1226833920	63	4286
2026-01-26 01:37:28.80	230.48	15.90	-46.4	-47.9	19.1	0.00e+00	0	44	0	1234173952	63	4528
2026-01-26 01:37:32.84	230.30	15.47	-46.5	-48.1	18.9	0.00e+00	0	43	0	1242562560	63	4644
2026-01-26 01:37:36.87	230.12	15.04	-46.5	-48.1	18.9	0.00e+00	0	44	0	1249902592	63	4643
2026-01-26 01:37:40.89	229.95	14.62	-46.6	-48.2	18.8	0.00e+00	0	44	0	1257242624	63	4694
2026-01-26 01:37:44.92	229.78	14.21	-46.6	-48.2	18.8	0.00e+00	0	44	0	1264582656	63	4688
2026-01-26 01:37:48.96	229.62	13.80	-46.6	-48.2	18.8	0.00e+00	0	44	0	1271922688	63	4678
2026-01-26 01:37:52.99	229.46	13.40	-46.6	-48.2	18.8	0.00e+00	0	44	0	1279262720	63	4674
2026-01-26 01:37:57.02	229.30	13.01	-46.7	-48.4	18.5	0.00e+00	0	44	0	1287651328	63	4767
2026-01-26 01:38:01.03	229.16	12.63	-46.5	-48.1	18.8	0.00e+00	0	44	0	1294991360	63	4618
2026-01-26 01:38:05.05	229.01	12.25	-46.6	-48.2	18.6	0.00e+00	0	44	0	1302331392	63	4688
2026-01-26 01:38:09.08	228.87	11.87	-46.6	-48.3	18.6	0.00e+00	0	43	0	1309671424	63	4718
2026-01-26 01:38:13.11	228.73	11.50	-46.7	-48.4	18.5	0.00e+00	0	44	0	1317011456	63	4771
2026-01-26 01:38:17.13	228.60	11.14	-46.9	-48.7	18.0	0.00e+00	0	43	0	1325400064	64	4697
2026-01-26 01:38:21.15	228.47	10.78	-47.2	-49.1	17.6	0.00e+00	0	43	0	1332740096	65	4620
2026-01-26 01:38:25.18	228.35	10.43	-47.4	-49.4	17.3	0.00e+00	0	44	0	1340080128	65	4797
2026-01-26 01:38:29.21	228.22	10.08	-47.6	-49.6	17.1	0.00e+00	0	43	0	1347420160	65	4919
2026-01-26 01:38:33.23	228.10	9.73	-47.8	-49.9	16.7	0.00e+00	0	44	0	1355808768	66	4811
2026-01-26 01:38:37.26	227.99	9.39	-47.8	-49.9	16.7	0.00e+00	0	43	0	1363148800	66	4806
2026-01-26 01:38:41.29	227.87	9.06	-47.7	-49.9	16.7	0.00e+00	0	44	0	1370488832	66	4784
2026-01-26 01:38:45.32	227.76	8.73	-47.7	-49.8	16.8	0.00e+00	0	44	0	1377828864	66	4728
2026-01-26 01:38:49.35	227.66	8.40	-47.7	-49.8	16.7	0.00e+00	0	44	0	1385168896	66	4734
2026-01-26 01:38:53.38	227.55	8.08	-47.9	-50.2	16.3	0.00e+00	0	43	0	1392508928	66	4930
2026-01-26 01:38:57.41	227.45	7.76	-47.7	-49.8	16.6	0.00e+00	0	44	0	1400897536	66	4751
2026-01-26 01:39:01.44	227.35	7.44	-47.7	-49.9	16.5	0.00e+00	0	44	0	1408237568	66	4786
2026-01-26 01:39:05.47	227.25	7.13	-47.8	-50.1	16.3	0.00e+00	0	44	0	1415577600	66	4904
2026-01-26 01:39:09.49	227.15	6.82	-47.7	-49.9	16.5	0.00e+00	0	44	0	1422917632	66	4773
2026-01-26 01:39:13.52	227.06	6.52	-47.9	-50.3	16.0	0.00e+00	0	44	0	1431306240	66	4985
2026-01-26 01:39:17.55	226.97	6.22	-47.9	-50.3	15.9	0.00e+00	0	44	0	1438646272	66	5034
2026-01-26 01:39:21.57	226.88	5.92	-48.1	-50.6	15.6	0.00e+00	0	44	0	1445986304	66	5184
2026-01-26 01:39:25.59	226.79	5.63	-48.4	-51.1	15.1	0.00e+00	0	44	0	1453326336	67	5166
2026-01-26 01:39:29.61	226.71	5.34	-48.2	-50.9	15.2	0.00e+00	0	44	0	1460666368	67	5058
2026-01-26 01:39:33.63	226.63	5.05	-48.4	-51.1	15.0	0.00e+00	0	44	0	1469054976	67	5207
2026-01-26 01:39:37.66	226.54	4.76	-53.2	-68.2	3.8	1.49e+00	0	44	104	1470103552	76	22021
2026-01-26 01:39:41.69	226.47	4.48	-53.5	-68.5	3.8	1.49e+00	0	44	104	1470103552	77	21583
2026-01-26 01:39:45.72	226.39	4.20	-53.6	-68.6	3.8	1.49e+00	0	44	104	1470103552	77	21818
2026-01-26 01:39:49.75	226.31	3.93	-53.6	-68.5	3.8	1.49e+00	0	44	104	1470103552	77	21749
2026-01-26 01:39:53.78	226.24	3.65	-53.3	-68.3	3.8	1.49e+00	0	44	104	1470103552	77	21047
2026-01-26 01:39:57.82	226.16	3.38	-53.3	-68.3	3.8	1.49e+00	0	44	104	1470103552	77	21113
2026-01-26 01:40:01.85	226.09	3.11	-53.3	-68.3	3.8	1.49e+00	0	44	104	1470103552	77	21032
2026-01-26 01:40:05.87	226.02	2.85	-53.3	-68.2	3.8	1.49e+00	0	44	104	1470103552	77	20928
2026-01-26 01:40:09.91	225.96	2.58	-53.2	-68.2	3.8	1.49e+00	0	44	104	1470103552	77	20945
2026-01-26 01:40:13.95	225.89	2.32	-53.2	-68.2	3.8	1.49e+00	0	44	104	1470103552	77	20943
2026-01-26 01:40:17.98	225.82	2.06	-53.2	-68.2	3.8	1.49e+00	0	44	104	1470103552	77	20891

#Closed at: 2026-01-26 01:40:20
#Recorded file [1470 MB]: D:/lorett/data/31041_260126_042600.dat