passes_logs/2026/01/26/R3.2S_Murmansk/R3.2S_Murmansk__20260126_034253_FENGYUN_3D_rec.log

#Pass ID: 20260126_034253_FENGYUN 3D
#Satellite: FENGYUN 3D
#Configuration: FENGYUN 3D
#almurnet v.1.7.20251203
#Start time: 2026-01-26 03:42:54

#Version: 2.2.20231116
#Station: R3.2S_Murmansk
#Location: 33.079688 lon 68.888172 lat
#TLE: 1 43010U 17072A   26025.50461972  .00000046  00000+0  43592-4 0  9990
#TLE: 2 43010  98.9962 357.4844 0002523  89.7890 270.3575 14.19699798424744

#Time	Az	El	Level	Level2	SNR	BER	BlckErr	Temp	State	Recorded	gain1	gain2
2026-01-26 03:42:54.87	29.23	2.06	-53.9	-65.9	3.8	8.46e-01	0	41	0	0	78	15066
2026-01-26 03:42:58.90	29.15	2.32	-54.1	-66.0	3.8	8.46e-01	0	42	104	0	78	15371
2026-01-26 03:43:02.93	29.08	2.58	-54.0	-65.9	3.8	8.47e-01	0	42	104	0	78	15149
2026-01-26 03:43:06.97	29.00	2.84	-53.9	-65.8	3.8	8.47e-01	0	42	104	0	78	15006
2026-01-26 03:43:11.00	28.91	3.10	-53.5	-65.4	3.8	8.47e-01	0	42	104	0	78	14352
2026-01-26 03:43:15.03	28.83	3.37	-52.7	-64.4	3.8	8.47e-01	0	42	104	0	77	13424
2026-01-26 03:43:19.06	28.75	3.64	-51.8	-62.2	3.8	8.46e-01	0	42	104	0	75	11685
2026-01-26 03:43:23.09	28.66	3.91	-51.4	-59.2	4.6	8.22e-01	0	42	0	0	74	8777
2026-01-26 03:43:27.12	28.57	4.18	-50.4	-55.4	7.1	1.67e-01	0	42	0	7340032	72	6414
2026-01-26 03:43:31.15	28.48	4.46	-48.5	-51.4	11.4	1.88e-03	0	43	0	30408704	69	4767
2026-01-26 03:43:35.18	28.38	4.74	-47.2	-49.3	13.5	2.74e-05	0	42	0	53477376	66	4471
2026-01-26 03:43:39.22	28.29	5.02	-47.6	-49.9	12.8	1.06e-04	0	43	0	75497472	66	4765
2026-01-26 03:43:43.25	28.19	5.30	-45.2	-46.5	16.3	7.09e-02	0	43	0	90177536	62	4093
2026-01-26 03:43:47.28	28.09	5.59	-44.3	-45.5	17.8	0.00e+00	0	42	0	113246208	59	4332
2026-01-26 03:43:51.31	27.99	5.88	-43.2	-44.3	19.2	0.00e+00	0	43	0	136314880	58	3964
2026-01-26 03:43:55.33	27.88	6.18	-42.9	-43.9	19.6	0.00e+00	0	43	0	158334976	57	4026
2026-01-26 03:43:59.37	27.78	6.48	-42.7	-43.7	19.8	0.00e+00	0	43	0	181403648	57	3940
2026-01-26 03:44:03.40	27.67	6.78	-42.9	-44.0	19.6	0.00e+00	0	43	0	204472320	57	4055
2026-01-26 03:44:07.43	27.55	7.08	-42.7	-43.7	19.9	0.00e+00	0	43	0	226492416	57	3924
2026-01-26 03:44:11.46	27.44	7.39	-43.0	-44.0	19.6	0.00e+00	0	43	0	249561088	57	4097
2026-01-26 03:44:15.50	27.32	7.70	-42.4	-43.4	20.2	0.00e+00	0	43	0	272629760	56	4037
2026-01-26 03:44:19.53	27.20	8.02	-42.5	-43.5	20.2	0.00e+00	0	43	0	294649856	56	4087
2026-01-26 03:44:23.55	27.08	8.33	-42.4	-43.4	20.4	0.00e+00	0	43	0	316669952	56	4005
2026-01-26 03:44:27.58	26.95	8.66	-42.1	-43.0	20.7	0.00e+00	0	43	0	339738624	56	3858
2026-01-26 03:44:31.61	26.82	8.99	-41.9	-42.9	20.8	0.00e+00	0	43	0	362807296	55	4016
2026-01-26 03:44:35.65	26.68	9.32	-41.8	-42.8	20.9	0.00e+00	0	43	0	384827392	55	3965
2026-01-26 03:44:39.68	26.55	9.65	-41.6	-42.6	21.2	0.00e+00	0	43	0	407896064	55	3872
2026-01-26 03:44:43.71	26.41	9.99	-41.7	-42.6	21.1	0.00e+00	0	43	0	430964736	55	3905
2026-01-26 03:44:47.75	26.26	10.34	-41.7	-42.7	21.0	0.00e+00	0	43	0	452984832	55	3950
2026-01-26 03:44:51.78	26.11	10.69	-41.4	-42.4	21.4	0.00e+00	0	43	0	476053504	54	4026
2026-01-26 03:44:55.80	25.96	11.04	-41.5	-42.5	21.3	0.00e+00	0	43	0	499122176	54	4059
2026-01-26 03:44:59.83	25.80	11.40	-41.5	-42.4	21.4	0.00e+00	0	43	0	521142272	54	4016
2026-01-26 03:45:03.86	25.64	11.76	-41.2	-42.0	21.8	0.00e+00	0	43	0	544210944	54	3865
2026-01-26 03:45:07.89	25.48	12.13	-41.1	-42.0	21.9	0.00e+00	0	43	0	567279616	54	3826
2026-01-26 03:45:11.92	25.31	12.51	-41.2	-42.1	21.8	0.00e+00	0	43	0	589299712	54	3870
2026-01-26 03:45:15.96	25.13	12.89	-41.0	-41.8	22.1	0.00e+00	0	43	0	612368384	53	3991
2026-01-26 03:45:19.99	24.95	13.27	-40.9	-41.7	22.2	0.00e+00	0	43	0	635437056	53	3941
2026-01-26 03:45:24.02	24.77	13.67	-40.7	-41.6	22.3	0.00e+00	0	43	0	657457152	53	3884
2026-01-26 03:45:28.05	24.58	14.06	-40.6	-41.5	22.4	0.00e+00	0	43	0	679477248	53	3830
2026-01-26 03:45:32.08	24.38	14.47	-40.7	-41.5	22.4	0.00e+00	0	44	0	702545920	53	3865
2026-01-26 03:45:36.11	24.18	14.88	-40.3	-41.1	22.8	0.00e+00	0	43	0	725614592	52	3875
2026-01-26 03:45:40.14	23.97	15.30	-40.2	-41.0	22.9	0.00e+00	0	43	0	747634688	52	3854
2026-01-26 03:45:44.19	23.75	15.72	-40.0	-40.7	23.2	0.00e+00	0	43	0	770703360	51	3948
2026-01-26 03:45:48.22	23.53	16.15	-40.0	-40.8	23.2	0.00e+00	0	43	0	793772032	51	3984
2026-01-26 03:45:52.26	23.30	16.59	-39.9	-40.7	23.3	0.00e+00	0	43	0	815792128	51	3935
2026-01-26 03:45:56.29	23.07	17.04	-39.7	-40.5	23.5	0.00e+00	0	43	0	838860800	51	3834
2026-01-26 03:46:00.33	22.83	17.50	-39.6	-40.3	23.6	0.00e+00	0	43	0	861929472	51	3771
2026-01-26 03:46:04.36	22.57	17.96	-39.4	-40.1	23.8	0.00e+00	0	43	0	883949568	50	3911
2026-01-26 03:46:08.39	22.31	18.43	-39.4	-40.2	23.8	0.00e+00	0	43	0	907018240	50	3918
2026-01-26 03:46:12.41	22.05	18.90	-39.4	-40.1	23.9	0.00e+00	0	43	0	930086912	50	3911
2026-01-26 03:46:16.45	21.77	19.39	-39.3	-40.0	24.0	0.00e+00	0	44	0	952107008	50	3847
2026-01-26 03:46:20.49	21.48	19.89	-39.3	-40.0	24.0	0.00e+00	0	43	0	975175680	50	3867
2026-01-26 03:46:24.53	21.18	20.40	-39.1	-39.9	24.2	0.00e+00	0	43	0	998244352	50	3795
2026-01-26 03:46:28.56	20.88	20.91	-39.1	-39.8	24.3	0.00e+00	0	43	0	1020264448	50	3755
2026-01-26 03:46:32.59	20.56	21.44	-39.2	-39.9	24.2	0.00e+00	0	43	0	1043333120	50	3798
2026-01-26 03:46:36.63	20.23	21.97	-38.8	-39.5	24.5	0.00e+00	0	43	0	1065353216	49	3854
2026-01-26 03:46:40.65	19.88	22.52	-38.9	-39.6	24.5	0.00e+00	0	43	0	1088421888	49	3895
2026-01-26 03:46:44.68	19.53	23.07	-39.0	-39.7	24.4	0.00e+00	0	44	0	1111490560	49	3937
2026-01-26 03:46:48.71	19.16	23.64	-38.7	-39.4	24.7	0.00e+00	0	43	0	1133510656	49	3805
2026-01-26 03:46:52.74	18.78	24.22	-38.3	-39.0	25.0	0.00e+00	0	43	0	1156579328	48	3837
2026-01-26 03:46:56.77	18.38	24.81	-38.2	-38.9	25.2	0.00e+00	0	43	0	1178599424	48	3793
2026-01-26 03:47:00.80	17.96	25.41	-38.1	-38.8	25.3	0.00e+00	0	43	0	1201668096	48	3739
2026-01-26 03:47:04.83	17.53	26.02	-37.5	-38.2	25.3	0.00e+00	0	43	0	1224736768	47	3724
2026-01-26 03:47:08.87	17.08	26.65	-37.7	-38.4	25.2	0.00e+00	0	44	0	1246756864	47	3795
2026-01-26 03:47:12.90	16.61	27.29	-37.8	-38.5	25.1	0.00e+00	0	43	0	1269825536	47	3842
2026-01-26 03:47:16.93	16.13	27.94	-37.8	-38.5	25.1	0.00e+00	0	43	0	1292894208	47	3860
2026-01-26 03:47:20.96	15.62	28.61	-37.6	-38.3	25.3	0.00e+00	0	43	0	1314914304	47	3756
2026-01-26 03:47:25.00	15.08	29.29	-37.4	-38.1	25.4	0.00e+00	0	43	0	1337982976	46	3886
2026-01-26 03:47:29.03	14.53	29.98	-37.6	-38.4	25.2	0.00e+00	0	43	0	1361051648	46	4009
2026-01-26 03:47:33.06	13.95	30.68	-37.4	-38.1	25.5	0.00e+00	0	43	0	1383071744	46	3877
2026-01-26 03:47:37.09	13.34	31.41	-37.3	-38.0	25.6	0.00e+00	0	43	0	1406140416	46	3835
2026-01-26 03:47:41.12	12.71	32.14	-37.4	-38.1	25.5	0.00e+00	0	43	0	1428160512	46	3875
2026-01-26 03:47:45.15	12.04	32.89	-37.2	-37.9	25.7	0.00e+00	0	44	0	1451229184	46	3791
2026-01-26 03:47:49.18	11.34	33.65	-37.2	-38.0	25.6	0.00e+00	0	43	0	1474297856	46	3828
2026-01-26 03:47:53.21	10.61	34.43	-37.1	-37.8	25.7	0.00e+00	0	43	0	1496317952	46	3775
2026-01-26 03:47:57.25	9.84	35.22	-37.2	-37.9	25.7	0.00e+00	0	44	0	1519386624	46	3799
2026-01-26 03:48:01.28	9.03	36.03	-37.2	-37.9	25.7	0.00e+00	0	44	0	1542455296	46	3800
2026-01-26 03:48:05.31	8.18	36.85	-37.3	-38.0	25.6	0.00e+00	0	44	0	1564475392	46	3867
2026-01-26 03:48:09.35	7.28	37.68	-37.3	-38.0	25.6	0.00e+00	0	43	0	1587544064	46	3864
2026-01-26 03:48:13.37	6.34	38.52	-37.1	-37.8	25.9	0.00e+00	0	43	0	1610612736	46	3745
2026-01-26 03:48:17.40	5.34	39.38	-37.5	-38.2	25.6	0.00e+00	0	44	0	1632632832	46	3921
2026-01-26 03:48:21.43	4.29	40.24	-37.6	-38.3	25.5	0.00e+00	0	44	0	1655701504	46	3969
2026-01-26 03:48:25.46	3.18	41.12	-37.5	-38.2	25.6	0.00e+00	0	43	0	1677721600	46	3923
2026-01-26 03:48:29.49	2.01	42.01	-37.5	-38.2	25.6	0.00e+00	0	43	0	1700790272	46	3918
2026-01-26 03:48:33.53	0.77	42.90	-37.8	-38.5	25.3	0.00e+00	0	43	0	1723858944	46	4080
2026-01-26 03:48:37.56	359.46	43.80	-37.5	-38.2	25.6	0.00e+00	0	44	0	1745879040	46	3927
2026-01-26 03:48:41.58	358.07	44.70	-38.0	-38.7	25.2	0.00e+00	0	44	0	1768947712	46	4181
2026-01-26 03:48:45.61	356.60	45.60	-37.9	-38.6	25.2	0.00e+00	0	44	0	1790967808	46	4131
2026-01-26 03:48:49.65	355.04	46.50	-38.1	-38.8	25.1	0.00e+00	0	44	0	1814036480	47	3974
2026-01-26 03:48:53.68	353.39	47.39	-38.3	-39.0	24.9	0.00e+00	0	44	0	1837105152	47	4093
2026-01-26 03:48:57.72	351.64	48.28	-37.9	-38.6	25.3	0.00e+00	0	43	0	1859125248	47	3904
2026-01-26 03:49:01.75	349.79	49.15	-38.2	-38.9	25.0	0.00e+00	0	43	0	1882193920	47	4044
2026-01-26 03:49:05.77	347.83	50.00	-38.4	-39.1	24.9	0.00e+00	0	44	0	1904214016	47	4124
2026-01-26 03:49:09.79	345.77	50.83	-39.1	-39.9	24.7	0.00e+00	0	43	0	1927282688	48	4243
2026-01-26 03:49:13.81	343.59	51.64	-39.0	-39.7	24.9	0.00e+00	0	43	0	1950351360	49	3935
2026-01-26 03:49:17.84	341.28	52.41	-39.0	-39.7	24.9	0.00e+00	0	43	0	1972371456	49	3923
2026-01-26 03:49:21.87	338.85	53.14	-38.8	-39.5	25.1	0.00e+00	0	44	0	1995440128	49	3861
2026-01-26 03:49:25.90	336.30	53.83	-38.5	-39.2	25.4	0.00e+00	0	43	0	2018508800	48	3915
2026-01-26 03:49:29.95	333.62	54.47	-38.7	-39.4	25.3	0.00e+00	0	43	0	2040528896	48	4007
2026-01-26 03:49:33.98	330.83	55.04	-38.7	-39.4	25.2	0.00e+00	0	43	0	2063597568	48	4022
2026-01-26 03:49:38.01	327.93	55.56	-38.4	-39.1	25.5	0.00e+00	0	43	0	2086666240	48	3877
2026-01-26 03:49:42.02	324.95	56.00	-38.6	-39.3	25.3	0.00e+00	0	43	0	2108686336	48	3996
2026-01-26 03:49:46.05	321.86	56.36	-38.4	-39.1	25.5	0.00e+00	0	44	0	2131755008	48	3890
2026-01-26 03:49:50.08	318.70	56.65	-39.0	-39.7	24.9	0.00e+00	0	43	0	2154823680	48	4189
2026-01-26 03:49:54.12	315.48	56.85	-39.0	-39.7	25.0	0.00e+00	0	43	0	2176843776	48	4154
2026-01-26 03:49:58.14	312.23	56.96	-39.2	-40.0	24.8	0.00e+00	0	43	0	2198863872	49	4055
2026-01-26 03:50:02.17	308.96	56.98	-39.0	-39.7	25.0	0.00e+00	0	44	0	2221932544	49	3950
2026-01-26 03:50:06.20	305.70	56.92	-39.1	-39.8	24.9	0.00e+00	0	43	0	2245001216	49	3999
2026-01-26 03:50:10.22	302.47	56.76	-39.1	-39.8	24.9	0.00e+00	0	44	0	2267021312	49	3974
2026-01-26 03:50:14.24	299.28	56.52	-39.1	-39.8	24.9	0.00e+00	0	43	0	2290089984	49	4002
2026-01-26 03:50:18.27	296.16	56.20	-39.0	-39.7	25.0	0.00e+00	0	44	0	2312110080	49	3927
2026-01-26 03:50:22.30	293.11	55.79	-38.7	-39.4	25.2	0.00e+00	0	43	0	2335178752	49	3817
2026-01-26 03:50:26.33	290.16	55.32	-38.8	-39.5	25.2	0.00e+00	0	43	0	2358247424	49	3839
2026-01-26 03:50:30.37	287.30	54.77	-38.4	-39.1	25.5	0.00e+00	0	43	0	2380267520	48	3894
2026-01-26 03:50:34.39	284.57	54.16	-38.4	-39.1	25.5	0.00e+00	0	44	0	2403336192	48	3890
2026-01-26 03:50:38.42	281.96	53.50	-38.6	-39.2	25.4	0.00e+00	0	43	0	2426404864	48	3956
2026-01-26 03:50:42.45	279.46	52.79	-38.9	-39.6	25.0	0.00e+00	0	44	0	2448424960	48	4140
2026-01-26 03:50:46.49	277.09	52.04	-39.0	-39.7	24.9	0.00e+00	0	43	0	2471493632	48	4193
2026-01-26 03:50:50.52	274.83	51.25	-39.1	-39.8	24.9	0.00e+00	0	43	0	2494562304	48	4217
2026-01-26 03:50:54.55	272.70	50.42	-39.1	-39.8	24.9	0.00e+00	0	44	0	2516582400	48	4222
2026-01-26 03:50:58.58	270.68	49.58	-38.6	-39.4	25.3	0.00e+00	0	44	0	2539651072	48	4005
2026-01-26 03:51:02.61	268.78	48.71	-38.7	-39.4	25.2	0.00e+00	0	43	0	2561671168	48	4031
2026-01-26 03:51:06.64	266.97	47.83	-38.3	-39.0	25.5	0.00e+00	0	44	0	2584739840	48	3859
2026-01-26 03:51:10.67	265.27	46.94	-38.1	-38.8	25.7	0.00e+00	0	44	0	2606759936	48	3753
2026-01-26 03:51:14.70	263.67	46.04	-38.2	-38.9	25.6	0.00e+00	0	43	0	2629828608	48	3814
2026-01-26 03:51:18.73	262.15	45.14	-38.1	-38.8	25.7	0.00e+00	0	43	0	2652897280	48	3745
2026-01-26 03:51:22.76	260.72	44.24	-37.3	-37.9	25.9	0.00e+00	0	44	0	2674917376	46	3812
2026-01-26 03:51:26.79	259.37	43.34	-37.9	-38.6	25.3	0.00e+00	0	44	0	2697986048	46	4134
2026-01-26 03:51:30.82	258.09	42.44	-37.4	-38.1	25.8	0.00e+00	0	44	0	2721054720	46	3881
2026-01-26 03:51:34.85	256.88	41.55	-37.4	-38.1	25.8	0.00e+00	0	43	0	2743074816	46	3875
2026-01-26 03:51:38.88	255.74	40.66	-37.5	-38.2	25.7	0.00e+00	0	44	0	2766143488	46	3940
2026-01-26 03:51:42.91	254.66	39.79	-37.2	-37.9	25.9	0.00e+00	0	43	0	2789212160	46	3814
2026-01-26 03:51:46.93	253.63	38.93	-37.1	-37.8	26.0	0.00e+00	0	43	0	2811232256	46	3741
2026-01-26 03:51:50.96	252.66	38.07	-37.1	-37.8	26.0	0.00e+00	0	44	0	2834300928	46	3774
2026-01-26 03:51:54.99	251.74	37.23	-37.4	-38.1	25.7	0.00e+00	0	44	0	2857369600	46	3905
2026-01-26 03:51:59.02	250.86	36.41	-37.5	-38.2	25.6	0.00e+00	0	44	0	2879389696	46	3921
2026-01-26 03:52:03.05	250.03	35.59	-37.2	-37.9	25.8	0.00e+00	0	43	0	2901409792	46	3804
2026-01-26 03:52:07.08	249.24	34.79	-37.6	-38.3	25.5	0.00e+00	0	44	0	2924478464	46	3987
2026-01-26 03:52:11.10	248.49	34.01	-37.3	-38.0	25.7	0.00e+00	0	44	0	2947547136	46	3849
2026-01-26 03:52:15.13	247.77	33.23	-37.1	-37.8	25.9	0.00e+00	0	44	0	2969567232	46	3775
2026-01-26 03:52:19.16	247.09	32.48	-37.3	-38.0	25.7	0.00e+00	0	44	0	2992635904	46	3864
2026-01-26 03:52:23.18	246.44	31.73	-37.6	-38.3	25.4	0.00e+00	0	44	0	3015704576	46	3987
2026-01-26 03:52:27.22	245.81	31.00	-37.5	-38.2	25.6	0.00e+00	0	44	0	3037724672	46	3923
2026-01-26 03:52:31.24	245.22	30.29	-37.6	-38.3	25.5	0.00e+00	0	44	0	3060793344	46	3963
2026-01-26 03:52:35.27	244.65	29.59	-37.7	-38.5	25.3	0.00e+00	0	44	0	3082813440	46	4052
2026-01-26 03:52:39.29	244.10	28.90	-37.9	-38.6	25.1	0.00e+00	0	44	0	3105882112	46	4115
2026-01-26 03:52:43.31	243.58	28.23	-37.7	-38.4	25.3	0.00e+00	0	44	0	3128950784	46	4039
2026-01-26 03:52:47.32	243.08	27.57	-37.7	-38.4	25.2	0.00e+00	0	44	0	3150970880	46	4032
2026-01-26 03:52:51.36	242.60	26.92	-37.8	-38.5	25.1	0.00e+00	0	44	0	3174039552	46	4096
2026-01-26 03:52:55.38	242.14	26.29	-37.7	-38.5	25.2	0.00e+00	0	43	0	3197108224	46	4057
2026-01-26 03:52:59.41	241.70	25.67	-37.6	-38.3	25.3	0.00e+00	0	44	0	3219128320	46	3987
2026-01-26 03:53:03.44	241.28	25.06	-37.6	-38.3	25.3	0.00e+00	0	44	0	3241148416	46	3991
2026-01-26 03:53:07.47	240.87	24.46	-37.8	-38.5	25.1	0.00e+00	0	44	0	3264217088	46	4095
2026-01-26 03:53:11.51	240.48	23.88	-37.9	-38.6	25.0	0.00e+00	0	44	0	3287285760	46	4145
2026-01-26 03:53:15.54	240.10	23.30	-38.2	-38.9	24.7	0.00e+00	0	44	0	3309305856	46	4280
2026-01-26 03:53:19.57	239.73	22.74	-38.2	-38.9	24.7	0.00e+00	0	44	0	3332374528	47	4038
2026-01-26 03:53:23.60	239.38	22.19	-38.1	-38.8	24.8	0.00e+00	0	44	0	3355443200	47	3980
2026-01-26 03:53:27.63	239.04	21.65	-38.2	-38.9	24.7	0.00e+00	0	43	0	3377463296	47	4039
2026-01-26 03:53:31.66	238.72	21.11	-38.2	-39.0	24.7	0.00e+00	0	43	0	3400531968	47	4052
2026-01-26 03:53:35.69	238.40	20.59	-38.3	-39.1	24.5	0.00e+00	0	43	0	3423600640	47	4113
2026-01-26 03:53:39.71	238.10	20.08	-38.5	-39.2	24.4	0.00e+00	0	44	0	3445620736	47	4168
2026-01-26 03:53:43.74	237.80	19.58	-38.7	-39.4	24.2	0.00e+00	0	44	0	3468689408	47	4275
2026-01-26 03:53:47.77	237.52	19.09	-39.3	-40.0	24.1	0.00e+00	0	44	0	3491758080	49	4082
2026-01-26 03:53:51.81	237.24	18.60	-39.6	-40.4	23.8	0.00e+00	0	44	0	3513778176	49	4249
2026-01-26 03:53:55.83	236.98	18.13	-39.6	-40.4	23.8	0.00e+00	0	44	0	3536846848	49	4272
2026-01-26 03:53:59.86	236.72	17.66	-39.7	-40.4	23.7	0.00e+00	0	43	0	3558866944	49	4286
2026-01-26 03:54:03.89	236.47	17.20	-39.7	-40.4	23.7	0.00e+00	0	43	0	3581935616	50	4049
2026-01-26 03:54:07.93	236.23	16.75	-39.7	-40.4	23.7	0.00e+00	0	44	0	3603955712	50	4051
2026-01-26 03:54:11.96	236.00	16.31	-40.1	-40.8	23.3	0.00e+00	0	43	0	3627024384	50	4228
2026-01-26 03:54:15.99	235.77	15.87	-40.2	-41.0	23.1	0.00e+00	0	44	0	3650093056	51	4080
2026-01-26 03:54:20.03	235.55	15.44	-40.3	-41.1	23.1	0.00e+00	0	43	0	3672113152	51	4122
2026-01-26 03:54:24.06	235.33	15.02	-40.4	-41.2	22.9	0.00e+00	0	44	0	3695181824	51	4183
2026-01-26 03:54:28.09	235.13	14.60	-40.3	-41.1	23.0	0.00e+00	0	43	0	3718250496	51	4136
2026-01-26 03:54:32.13	234.93	14.19	-40.5	-41.2	22.8	0.00e+00	0	43	0	3740270592	51	4193
2026-01-26 03:54:36.17	234.73	13.79	-40.7	-41.5	22.6	0.00e+00	0	43	0	3763339264	51	4305
2026-01-26 03:54:40.20	234.54	13.40	-40.9	-41.8	22.3	0.00e+00	0	44	0	3786407936	52	4201
2026-01-26 03:54:44.24	234.35	13.00	-40.7	-41.5	22.5	0.00e+00	0	44	0	3808428032	52	4097
2026-01-26 03:54:48.27	234.17	12.62	-40.9	-41.7	22.3	0.00e+00	0	44	0	3831496704	52	4173
2026-01-26 03:54:52.30	234.00	12.24	-41.1	-41.9	22.1	0.00e+00	0	44	0	3854565376	52	4286
2026-01-26 03:54:56.33	233.83	11.87	-41.1	-42.0	22.0	0.00e+00	0	44	0	3876585472	52	4309
2026-01-26 03:55:00.37	233.66	11.50	-41.1	-41.9	22.0	0.00e+00	0	44	0	3899654144	53	4046
2026-01-26 03:55:04.40	233.50	11.14	-41.3	-42.2	21.8	0.00e+00	0	44	0	3922722816	53	4168
2026-01-26 03:55:08.43	233.35	10.78	-41.4	-42.3	21.6	0.00e+00	0	43	0	3944742912	53	4217
2026-01-26 03:55:12.46	233.19	10.43	-41.6	-42.5	21.4	0.00e+00	0	44	0	3966763008	53	4312
2026-01-26 03:55:16.50	233.05	10.08	-41.5	-42.4	21.5	0.00e+00	0	44	0	3989831680	53	4285
2026-01-26 03:55:20.54	232.90	9.74	-41.9	-42.8	21.1	0.00e+00	0	44	0	4012900352	54	4202
2026-01-26 03:55:24.58	232.76	9.40	-41.7	-42.7	21.2	0.00e+00	0	44	0	4035969024	54	4149
2026-01-26 03:55:28.61	232.62	9.06	-41.7	-42.6	21.2	0.00e+00	0	44	0	4057989120	54	4137
2026-01-26 03:55:32.65	232.49	8.73	-42.1	-43.1	20.7	0.00e+00	0	43	0	4081057792	54	4346
2026-01-26 03:55:36.69	232.35	8.41	-41.9	-42.8	21.1	0.00e+00	0	44	0	4104126464	54	4201
2026-01-26 03:55:40.73	232.23	8.08	-42.2	-43.2	20.6	0.00e+00	0	44	0	4126146560	55	4157
2026-01-26 03:55:44.77	232.10	7.77	-42.2	-43.2	20.6	0.00e+00	0	44	0	4149215232	55	4159
2026-01-26 03:55:48.80	231.98	7.45	-42.6	-43.6	20.1	0.00e+00	0	44	0	4172283904	55	4379
2026-01-26 03:55:52.83	231.86	7.14	-42.5	-43.4	20.3	0.00e+00	0	44	0	4194304000	55	4280
2026-01-26 03:55:56.86	231.74	6.84	-42.4	-43.3	20.3	0.00e+00	0	44	0	4217372672	55	4229
2026-01-26 03:56:00.89	231.63	6.53	-42.5	-43.5	20.2	0.00e+00	0	44	0	4240441344	56	4080
2026-01-26 03:56:04.93	231.52	6.23	-42.7	-43.7	20.0	0.00e+00	0	44	0	4262461440	56	4156
2026-01-26 03:56:08.95	231.41	5.94	-43.2	-44.2	19.4	0.00e+00	0	44	0	4285530112	56	4441
2026-01-26 03:56:12.99	231.30	5.64	-43.0	-44.1	19.5	0.00e+00	0	43	0	4308598784	57	4121
2026-01-26 03:56:17.03	231.20	5.35	-43.2	-44.3	19.3	0.00e+00	0	44	0	4330618880	57	4201
2026-01-26 03:56:21.07	231.10	5.06	-43.0	-44.0	19.5	0.00e+00	0	44	0	4352638976	57	4095
2026-01-26 03:56:25.10	231.00	4.78	-53.2	-65.2	3.8	8.47e-01	0	44	104	4356833280	76	15633
2026-01-26 03:56:29.13	230.90	4.50	-53.5	-65.4	3.8	8.47e-01	0	44	104	4356833280	77	15188
2026-01-26 03:56:33.17	230.81	4.22	-53.5	-65.5	3.8	8.46e-01	0	44	104	4356833280	77	15310
2026-01-26 03:56:37.20	230.71	3.94	-53.4	-65.3	3.8	8.45e-01	0	44	104	4356833280	77	15039
2026-01-26 03:56:41.24	230.62	3.67	-53.2	-65.2	3.8	8.45e-01	0	44	104	4356833280	77	14714
2026-01-26 03:56:45.27	230.53	3.40	-53.2	-65.2	3.8	8.46e-01	0	44	104	4356833280	77	14754
2026-01-26 03:56:49.31	230.45	3.13	-53.2	-65.2	3.8	8.47e-01	0	44	104	4356833280	77	14722
2026-01-26 03:56:53.34	230.36	2.87	-53.2	-65.1	3.8	8.46e-01	0	44	104	4356833280	77	14646
2026-01-26 03:56:57.37	230.28	2.60	-53.2	-65.1	3.8	8.45e-01	0	44	104	4356833280	77	14640
2026-01-26 03:57:01.39	230.20	2.34	-53.2	-65.1	3.8	8.45e-01	0	44	104	4356833280	77	14653
2026-01-26 03:57:05.43	230.12	2.09	-53.2	-65.1	3.8	8.46e-01	0	44	104	4356833280	77	14598

#Closed at: 2026-01-26 03:57:09
#Recorded file [4356 MB]: D:/lorett/data/31041_260126_064254.dat