passes_logs/2026/01/26/R3.2S_Murmansk/R3.2S_Murmansk__20260126_152529_FENGYUN_3D_rec.log

#Pass ID: 20260126_152529_FENGYUN 3D
#Satellite: FENGYUN 3D
#Configuration: FENGYUN 3D
#almurnet v.1.7.20251203
#Start time: 2026-01-26 15:25:28

#Version: 2.2.20231116
#Station: R3.2S_Murmansk
#Location: 33.079688 lon 68.888172 lat
#TLE: 1 43010U 17072A   26025.99795741 -.00000136  00000+0 -42313-4 0  9999
#TLE: 2 43010  98.9962 357.9855 0002515  89.6991 270.4472 14.19699257424818

#Time	Az	El	Level	Level2	SNR	BER	BlckErr	Temp	State	Recorded	gain1	gain2
2026-01-26 15:25:28.81	253.64	1.98	-54.3	-66.2	3.8	8.46e-01	0	41	0	0	79	14856
2026-01-26 15:25:31.82	253.97	2.10	-54.2	-66.2	3.8	8.46e-01	0	41	104	0	79	14822
2026-01-26 15:25:34.84	254.30	2.22	-54.2	-66.2	3.8	8.46e-01	0	41	104	0	79	14812
2026-01-26 15:25:37.87	254.63	2.34	-54.5	-66.5	3.8	8.45e-01	0	41	104	0	79	15253
2026-01-26 15:25:40.89	254.97	2.46	-54.6	-66.6	3.8	8.46e-01	0	41	104	0	79	15435
2026-01-26 15:25:43.92	255.30	2.57	-54.5	-66.5	3.8	8.45e-01	0	42	104	0	79	15272
2026-01-26 15:25:46.94	255.64	2.69	-54.4	-66.3	3.8	8.47e-01	0	42	104	0	79	15012
2026-01-26 15:25:49.97	255.99	2.81	-54.2	-66.1	3.8	8.47e-01	0	42	104	0	79	14686
2026-01-26 15:25:52.99	256.33	2.93	-53.8	-65.7	3.8	8.46e-01	0	41	104	0	79	14038
2026-01-26 15:25:56.02	256.68	3.05	-53.1	-65.0	3.8	8.46e-01	0	42	104	0	78	13570
2026-01-26 15:25:59.04	257.03	3.16	-52.7	-64.6	3.8	8.45e-01	0	42	104	0	77	13881
2026-01-26 15:26:02.07	257.39	3.28	-52.7	-64.5	3.8	8.46e-01	0	42	104	0	77	13707
2026-01-26 15:26:05.09	257.74	3.39	-52.7	-64.6	3.8	8.47e-01	0	42	104	0	77	13749
2026-01-26 15:26:08.11	258.10	3.51	-52.7	-64.5	3.8	8.47e-01	0	42	104	0	77	13689
2026-01-26 15:26:11.13	258.46	3.63	-52.6	-64.6	3.8	8.46e-01	0	42	104	0	77	13745
2026-01-26 15:26:14.16	258.82	3.74	-52.6	-64.5	3.8	8.45e-01	0	42	104	0	77	13718
2026-01-26 15:26:17.18	259.19	3.86	-52.6	-64.5	3.8	8.46e-01	0	42	104	0	77	13692
2026-01-26 15:26:20.20	259.56	3.97	-52.6	-64.5	3.8	8.45e-01	0	42	104	0	77	13649
2026-01-26 15:26:23.23	259.93	4.08	-52.6	-64.5	3.8	8.45e-01	0	42	104	0	77	13706
2026-01-26 15:26:26.25	260.31	4.20	-52.6	-64.5	3.8	8.47e-01	0	43	104	0	77	13622
2026-01-26 15:26:29.28	260.69	4.31	-52.6	-64.2	3.8	8.45e-01	0	42	104	0	77	13120
2026-01-26 15:26:32.30	261.07	4.42	-52.6	-64.4	3.8	8.47e-01	0	42	104	0	77	13506
2026-01-26 15:26:35.33	261.45	4.53	-52.6	-64.3	3.8	8.46e-01	0	43	104	0	77	13320
2026-01-26 15:26:38.35	261.84	4.64	-52.4	-62.9	3.8	8.47e-01	0	42	104	0	76	12051
2026-01-26 15:26:41.37	262.22	4.75	-52.4	-62.1	4.0	8.44e-01	0	43	104	0	76	10939
2026-01-26 15:26:44.39	262.62	4.86	-50.0	-53.6	9.6	3.05e-02	0	43	0	5242880	72	5209
2026-01-26 15:26:47.41	263.01	4.97	-44.4	-45.6	17.9	0.00e+00	0	43	0	22020096	60	4123
2026-01-26 15:26:50.43	263.41	5.08	-45.0	-46.3	17.3	0.00e+00	0	43	0	38797312	60	4454
2026-01-26 15:26:53.46	263.81	5.19	-44.1	-45.3	18.1	4.39e-04	0	43	0	55574528	60	3965
2026-01-26 15:26:56.48	264.21	5.29	-43.1	-44.1	19.8	0.00e+00	0	43	0	73400320	58	3884
2026-01-26 15:26:59.51	264.62	5.40	-43.5	-44.6	19.3	0.00e+00	0	43	0	90177536	58	4107
2026-01-26 15:27:02.53	265.03	5.50	-43.4	-44.4	19.4	0.00e+00	0	43	0	106954752	58	4039
2026-01-26 15:27:05.55	265.44	5.61	-43.1	-44.2	19.7	0.00e+00	0	43	0	123731968	57	4146
2026-01-26 15:27:08.56	265.85	5.71	-43.0	-44.0	19.8	0.00e+00	0	43	0	140509184	57	4070
2026-01-26 15:27:11.59	266.27	5.81	-43.1	-44.1	19.8	0.00e+00	0	43	0	158334976	57	4131
2026-01-26 15:27:14.61	266.69	5.92	-43.0	-44.0	19.8	0.00e+00	0	43	0	175112192	57	4095
2026-01-26 15:27:17.64	267.11	6.02	-43.1	-44.1	19.7	0.00e+00	0	43	0	191889408	57	4145
2026-01-26 15:27:20.66	267.53	6.12	-43.5	-44.6	19.2	0.00e+00	0	43	0	208666624	57	4374
2026-01-26 15:27:23.68	267.96	6.22	-44.6	-45.8	17.9	0.00e+00	0	43	0	225443840	59	4469
2026-01-26 15:27:26.70	268.39	6.31	-45.1	-46.6	16.7	0.00e+00	0	43	0	243269632	60	4602
2026-01-26 15:27:29.72	268.83	6.41	-45.9	-47.6	15.5	0.00e+00	0	43	0	260046848	62	4604
2026-01-26 15:27:32.75	269.26	6.51	-46.5	-48.3	14.7	0.00e+00	0	43	0	276824064	63	4746
2026-01-26 15:27:35.77	269.70	6.60	-46.0	-47.6	15.6	0.00e+00	0	43	0	293601280	63	4382
2026-01-26 15:27:38.79	270.14	6.70	-45.4	-46.8	16.4	0.00e+00	0	43	0	310378496	62	4234
2026-01-26 15:27:41.81	270.59	6.79	-44.1	-45.3	18.0	0.00e+00	0	43	0	328204288	60	4004
2026-01-26 15:27:44.83	271.04	6.88	-43.9	-45.0	18.8	0.00e+00	0	43	0	344981504	59	4083
2026-01-26 15:27:47.86	271.49	6.97	-43.3	-44.4	19.5	0.00e+00	0	43	0	361758720	58	4012
2026-01-26 15:27:50.89	271.94	7.06	-43.1	-44.2	19.7	0.00e+00	0	43	0	378535936	58	3920
2026-01-26 15:27:53.90	272.40	7.15	-42.9	-43.9	19.9	0.00e+00	0	43	0	395313152	57	4044
2026-01-26 15:27:56.93	272.85	7.24	-42.6	-43.6	20.3	0.00e+00	0	43	0	413138944	57	3869
2026-01-26 15:27:59.95	273.32	7.32	-42.6	-43.6	20.3	0.00e+00	0	43	0	429916160	56	4108
2026-01-26 15:28:02.97	273.78	7.41	-42.7	-43.7	20.2	0.00e+00	0	43	0	446693376	56	4161
2026-01-26 15:28:05.99	274.24	7.49	-42.4	-43.4	20.5	0.00e+00	0	43	0	463470592	56	4027
2026-01-26 15:28:09.02	274.71	7.57	-42.9	-43.9	20.0	0.00e+00	0	43	0	481296384	56	4258
2026-01-26 15:28:12.04	275.18	7.65	-42.7	-43.6	20.2	0.00e+00	0	43	0	498073600	56	4144
2026-01-26 15:28:15.06	275.66	7.73	-42.7	-43.7	20.2	0.00e+00	0	43	0	514850816	56	4179
2026-01-26 15:28:18.07	276.13	7.81	-42.5	-43.5	20.4	0.00e+00	0	43	0	531628032	56	4057
2026-01-26 15:28:21.10	276.61	7.89	-42.6	-43.6	20.2	0.00e+00	0	43	0	548405248	56	4129
2026-01-26 15:28:24.12	277.09	7.96	-42.6	-43.6	20.2	0.00e+00	0	43	0	566231040	56	4120
2026-01-26 15:28:27.14	277.57	8.03	-42.5	-43.5	20.3	0.00e+00	0	43	0	583008256	56	4062
2026-01-26 15:28:30.17	278.06	8.10	-42.5	-43.5	20.4	0.00e+00	0	43	0	599785472	56	4082
2026-01-26 15:28:33.20	278.55	8.18	-42.7	-43.7	20.2	0.00e+00	0	43	0	616562688	56	4153
2026-01-26 15:28:36.22	279.04	8.24	-42.8	-43.9	20.0	0.00e+00	0	43	0	634388480	56	4243
2026-01-26 15:28:39.25	279.53	8.31	-42.6	-43.5	20.4	0.00e+00	0	43	0	651165696	56	4095
2026-01-26 15:28:42.26	280.02	8.38	-42.7	-43.7	20.3	0.00e+00	0	43	0	667942912	56	4155
2026-01-26 15:28:45.29	280.52	8.44	-42.7	-43.6	20.3	0.00e+00	0	43	0	684720128	56	4138
2026-01-26 15:28:48.31	281.02	8.50	-42.8	-43.8	20.2	0.00e+00	0	43	0	702545920	56	4209
2026-01-26 15:28:51.34	281.52	8.56	-42.8	-43.8	20.2	0.00e+00	0	43	0	719323136	56	4230
2026-01-26 15:28:54.35	282.02	8.62	-42.5	-43.5	20.5	0.00e+00	0	43	0	736100352	56	4083
2026-01-26 15:28:57.37	282.52	8.68	-42.4	-43.3	20.6	0.00e+00	0	43	0	752877568	56	3998
2026-01-26 15:29:00.40	283.03	8.73	-42.4	-43.3	20.7	0.00e+00	0	43	0	769654784	56	3993
2026-01-26 15:29:03.42	283.54	8.78	-42.5	-43.5	20.6	0.00e+00	0	43	0	787480576	56	4061
2026-01-26 15:29:06.44	284.05	8.84	-42.6	-43.6	20.5	0.00e+00	0	43	0	804257792	56	4122
2026-01-26 15:29:09.47	284.56	8.89	-42.6	-43.6	20.6	0.00e+00	0	43	0	821035008	56	4101
2026-01-26 15:29:12.49	285.07	8.93	-42.6	-43.5	20.6	0.00e+00	0	43	0	837812224	56	4083
2026-01-26 15:29:15.51	285.59	8.98	-42.5	-43.4	20.8	0.00e+00	0	43	0	854589440	56	4040
2026-01-26 15:29:18.53	286.10	9.02	-42.8	-43.7	20.5	0.00e+00	0	43	0	872415232	56	4182
2026-01-26 15:29:21.55	286.62	9.06	-42.9	-43.9	20.3	0.00e+00	0	43	0	889192448	56	4278
2026-01-26 15:29:24.57	287.14	9.10	-42.6	-43.6	20.6	0.00e+00	0	43	0	905969664	56	4123
2026-01-26 15:29:27.59	287.66	9.14	-42.7	-43.6	20.6	0.00e+00	0	43	0	922746880	56	4139
2026-01-26 15:29:30.62	288.18	9.18	-42.6	-43.5	20.8	0.00e+00	0	43	0	940572672	56	4071
2026-01-26 15:29:33.64	288.70	9.21	-42.6	-43.6	20.7	0.00e+00	0	43	0	957349888	56	4112
2026-01-26 15:29:36.67	289.23	9.24	-42.9	-43.9	20.5	0.00e+00	0	43	0	974127104	56	4259
2026-01-26 15:29:39.69	289.75	9.27	-43.0	-44.0	20.4	0.00e+00	0	43	0	990904320	56	4308
2026-01-26 15:29:42.71	290.28	9.30	-43.0	-43.9	20.5	0.00e+00	0	43	0	1008730112	56	4272
2026-01-26 15:29:45.74	290.81	9.33	-42.9	-43.9	20.6	0.00e+00	0	43	0	1025507328	56	4244
2026-01-26 15:29:48.77	291.33	9.35	-42.7	-43.7	20.8	0.00e+00	0	43	0	1042284544	56	4150
2026-01-26 15:29:51.79	291.86	9.37	-42.7	-43.6	20.8	0.00e+00	0	43	0	1059061760	56	4140
2026-01-26 15:29:54.81	292.39	9.39	-42.8	-43.8	20.6	0.00e+00	0	43	0	1076887552	56	4197
2026-01-26 15:29:57.84	292.92	9.41	-42.4	-43.4	21.0	0.00e+00	0	43	0	1093664768	56	4011
2026-01-26 15:30:00.87	293.45	9.42	-42.7	-43.6	20.8	0.00e+00	0	43	0	1110441984	56	4119
2026-01-26 15:30:03.89	293.98	9.44	-42.7	-43.6	20.7	0.00e+00	0	43	0	1127219200	56	4134
2026-01-26 15:30:06.92	294.52	9.45	-42.8	-43.7	20.6	0.00e+00	0	43	0	1143996416	56	4179
2026-01-26 15:30:09.94	295.05	9.46	-42.5	-43.4	20.9	0.00e+00	0	43	0	1161822208	56	4033
2026-01-26 15:30:12.97	295.58	9.46	-42.2	-43.1	21.1	0.00e+00	0	43	0	1178599424	56	3905
2026-01-26 15:30:15.99	296.11	9.47	-42.2	-43.1	21.2	0.00e+00	0	43	0	1195376640	56	3885
2026-01-26 15:30:19.02	296.64	9.47	-42.3	-43.2	21.1	0.00e+00	0	43	0	1212153856	56	3929
2026-01-26 15:30:22.05	297.18	9.47	-42.4	-43.4	20.8	0.00e+00	0	43	0	1228931072	56	4022
2026-01-26 15:30:25.07	297.71	9.47	-42.4	-43.3	20.9	0.00e+00	0	43	0	1246756864	56	3982
2026-01-26 15:30:28.10	298.24	9.46	-42.4	-43.3	20.9	0.00e+00	0	43	0	1263534080	56	3970
2026-01-26 15:30:31.13	298.77	9.46	-42.5	-43.4	20.8	0.00e+00	0	43	0	1280311296	56	4041
2026-01-26 15:30:34.15	299.30	9.45	-42.7	-43.7	20.6	0.00e+00	0	43	0	1297088512	56	4146
2026-01-26 15:30:37.17	299.84	9.44	-42.4	-43.4	20.8	0.00e+00	0	43	0	1313865728	56	4015
2026-01-26 15:30:40.20	300.37	9.43	-42.3	-43.2	21.0	0.00e+00	0	43	0	1331691520	56	3931
2026-01-26 15:30:43.23	300.90	9.41	-42.3	-43.2	21.0	0.00e+00	0	43	0	1348468736	56	3938
2026-01-26 15:30:46.25	301.43	9.40	-42.4	-43.3	20.9	0.00e+00	0	43	0	1365245952	56	3989
2026-01-26 15:30:49.28	301.96	9.38	-42.3	-43.3	20.9	0.00e+00	0	43	0	1382023168	56	3968
2026-01-26 15:30:52.29	302.48	9.36	-42.3	-43.2	21.0	0.00e+00	0	43	0	1398800384	56	3931
2026-01-26 15:30:55.31	303.01	9.33	-42.5	-43.4	20.8	0.00e+00	0	43	0	1416626176	56	4044
2026-01-26 15:30:58.33	303.54	9.31	-42.6	-43.5	20.6	0.00e+00	0	43	0	1433403392	56	4098
2026-01-26 15:31:01.36	304.06	9.28	-42.7	-43.7	20.5	0.00e+00	0	43	0	1450180608	56	4159
2026-01-26 15:31:04.38	304.59	9.25	-42.5	-43.5	20.6	0.00e+00	0	43	0	1466957824	56	4063
2026-01-26 15:31:07.41	305.11	9.22	-42.5	-43.4	20.7	0.00e+00	0	43	0	1483735040	56	4041
2026-01-26 15:31:10.44	305.63	9.19	-42.4	-43.4	20.8	0.00e+00	0	43	0	1501560832	56	4006
2026-01-26 15:31:13.46	306.15	9.15	-42.3	-43.2	20.9	0.00e+00	0	43	0	1518338048	56	3939
2026-01-26 15:31:16.48	306.67	9.11	-42.2	-43.1	21.0	0.00e+00	0	43	0	1535115264	56	3879
2026-01-26 15:31:19.51	307.19	9.07	-42.4	-43.3	20.8	0.00e+00	0	43	0	1551892480	56	4003
2026-01-26 15:31:22.53	307.71	9.03	-42.5	-43.5	20.6	0.00e+00	0	43	0	1569718272	56	4071
2026-01-26 15:31:25.56	308.23	8.99	-42.4	-43.3	20.7	0.00e+00	0	43	0	1586495488	56	3992
2026-01-26 15:31:28.59	308.74	8.94	-42.3	-43.2	20.8	0.00e+00	0	43	0	1603272704	56	3939
2026-01-26 15:31:31.61	309.25	8.90	-42.3	-43.2	20.8	0.00e+00	0	43	0	1621098496	56	3948
2026-01-26 15:31:34.64	309.77	8.85	-42.5	-43.4	20.6	0.00e+00	0	43	0	1637875712	56	4048
2026-01-26 15:31:37.66	310.27	8.80	-42.5	-43.4	20.6	0.00e+00	0	43	0	1654652928	56	4032
2026-01-26 15:31:40.68	310.78	8.75	-42.5	-43.4	20.6	0.00e+00	0	43	0	1671430144	56	4038
2026-01-26 15:31:43.71	311.29	8.69	-42.4	-43.3	20.7	0.00e+00	0	43	0	1689255936	56	3989
2026-01-26 15:31:46.73	311.79	8.64	-42.6	-43.5	20.5	0.00e+00	0	43	0	1706033152	56	4089
2026-01-26 15:31:49.76	312.29	8.58	-42.5	-43.5	20.5	0.00e+00	0	43	0	1722810368	56	4055
2026-01-26 15:31:52.78	312.79	8.52	-42.5	-43.5	20.5	0.00e+00	0	43	0	1739587584	56	4069
2026-01-26 15:31:55.80	313.29	8.46	-42.6	-43.5	20.4	0.00e+00	0	43	0	1756364800	56	4090
2026-01-26 15:31:58.83	313.79	8.39	-42.5	-43.5	20.5	0.00e+00	0	43	0	1774190592	56	4052
2026-01-26 15:32:01.85	314.28	8.33	-42.6	-43.5	20.4	0.00e+00	0	43	0	1790967808	56	4089
2026-01-26 15:32:04.88	314.77	8.26	-42.6	-43.5	20.4	0.00e+00	0	43	0	1807745024	56	4092
2026-01-26 15:32:07.90	315.26	8.20	-42.7	-43.7	20.3	0.00e+00	0	43	0	1824522240	56	4151
2026-01-26 15:32:10.92	315.75	8.13	-42.7	-43.7	20.2	0.00e+00	0	43	0	1842348032	56	4177
2026-01-26 15:32:13.94	316.23	8.06	-42.7	-43.7	20.2	0.00e+00	0	43	0	1859125248	56	4178
2026-01-26 15:32:16.97	316.72	7.98	-43.0	-44.0	19.9	0.00e+00	0	43	0	1875902464	56	4334
2026-01-26 15:32:19.99	317.20	7.91	-43.0	-44.0	19.9	0.00e+00	0	43	0	1892679680	57	4094
2026-01-26 15:32:23.02	317.67	7.83	-42.9	-43.9	20.0	0.00e+00	0	43	0	1910505472	57	4025
2026-01-26 15:32:26.04	318.15	7.76	-42.8	-43.8	20.1	0.00e+00	0	43	0	1927282688	57	3991
2026-01-26 15:32:29.07	318.62	7.68	-42.9	-43.9	20.0	0.00e+00	0	43	0	1944059904	57	4020
2026-01-26 15:32:32.09	319.09	7.60	-42.8	-43.8	20.1	0.00e+00	0	43	0	1960837120	57	3996
2026-01-26 15:32:35.12	319.56	7.52	-42.8	-43.8	20.2	0.00e+00	0	43	0	1977614336	57	3970
2026-01-26 15:32:38.14	320.03	7.43	-42.8	-43.8	20.2	0.00e+00	0	43	0	1995440128	57	3980
2026-01-26 15:32:41.17	320.49	7.35	-43.1	-44.1	19.9	0.00e+00	0	43	0	2012217344	57	4107
2026-01-26 15:32:44.19	320.95	7.27	-42.8	-43.8	20.1	0.00e+00	0	43	0	2028994560	57	3988
2026-01-26 15:32:47.21	321.41	7.18	-43.0	-44.0	20.0	0.00e+00	0	43	0	2045771776	57	4068
2026-01-26 15:32:50.24	321.86	7.09	-42.8	-43.8	20.1	0.00e+00	0	43	0	2062548992	57	3994
2026-01-26 15:32:53.26	322.31	7.00	-43.2	-44.3	19.6	0.00e+00	0	43	0	2080374784	57	4214
2026-01-26 15:32:56.28	322.76	6.91	-43.4	-44.5	19.4	0.00e+00	0	43	0	2097152000	57	4294
2026-01-26 15:32:59.30	323.21	6.82	-42.8	-43.7	20.1	0.00e+00	0	43	0	2113929216	57	3945
2026-01-26 15:33:02.33	323.66	6.73	-42.9	-43.9	19.9	0.00e+00	0	43	0	2130706432	57	4038
2026-01-26 15:33:05.35	324.10	6.64	-43.0	-44.1	19.8	0.00e+00	0	43	0	2147483648	57	4104
2026-01-26 15:33:08.37	324.53	6.54	-43.3	-44.4	19.5	0.00e+00	0	43	0	2165309440	57	4257
2026-01-26 15:33:11.39	324.97	6.45	-43.2	-44.3	19.5	0.00e+00	0	43	0	2182086656	57	4211
2026-01-26 15:33:14.42	325.40	6.35	-43.3	-44.4	19.4	0.00e+00	0	43	0	2198863872	57	4251
2026-01-26 15:33:17.45	325.84	6.25	-43.3	-44.3	19.5	0.00e+00	0	43	0	2215641088	57	4218
2026-01-26 15:33:20.48	326.26	6.16	-43.4	-44.4	19.4	0.00e+00	0	43	0	2232418304	57	4271
2026-01-26 15:33:23.50	326.69	6.06	-43.0	-44.1	19.7	0.00e+00	0	43	0	2250244096	57	4101
2026-01-26 15:33:26.53	327.11	5.96	-43.1	-44.1	19.7	0.00e+00	0	43	0	2267021312	57	4140
2026-01-26 15:33:29.56	327.53	5.85	-43.3	-44.4	19.4	0.00e+00	0	43	0	2283798528	57	4266
2026-01-26 15:33:32.58	327.95	5.75	-43.3	-44.4	19.4	0.00e+00	0	43	0	2300575744	57	4257
2026-01-26 15:33:35.61	328.36	5.65	-43.1	-44.1	19.6	0.00e+00	0	43	0	2317352960	57	4125
2026-01-26 15:33:38.63	328.77	5.55	-43.3	-44.4	19.3	0.00e+00	0	43	0	2335178752	57	4271
2026-01-26 15:33:41.65	329.18	5.44	-43.4	-44.4	19.3	0.00e+00	0	43	0	2351955968	57	4273
2026-01-26 15:33:44.68	329.59	5.34	-43.5	-44.6	19.2	0.00e+00	0	43	0	2368733184	57	4371
2026-01-26 15:33:47.70	329.99	5.23	-43.8	-44.9	18.8	0.00e+00	0	43	0	2385510400	58	4263
2026-01-26 15:33:50.73	330.39	5.13	-43.7	-44.8	18.8	0.00e+00	0	43	0	2403336192	58	4234
2026-01-26 15:33:53.76	330.79	5.02	-43.9	-45.1	18.7	0.00e+00	0	43	0	2420113408	58	4343
2026-01-26 15:33:56.78	331.18	4.91	-52.9	-64.9	3.8	8.46e-01	0	43	104	2425356288	76	15123
2026-01-26 15:33:59.81	331.57	4.80	-53.3	-65.3	3.8	8.45e-01	0	43	104	2425356288	77	14883
2026-01-26 15:34:02.83	331.96	4.69	-53.4	-65.3	3.8	8.46e-01	0	44	104	2425356288	77	14960
2026-01-26 15:34:05.86	332.35	4.58	-53.2	-65.1	3.8	8.47e-01	0	43	104	2425356288	77	14559
2026-01-26 15:34:08.89	332.73	4.47	-53.3	-65.2	3.8	8.45e-01	0	43	104	2425356288	77	14802
2026-01-26 15:34:11.91	333.11	4.36	-53.4	-65.3	3.8	8.46e-01	0	43	104	2425356288	77	14964
2026-01-26 15:34:14.93	333.49	4.25	-53.4	-65.4	3.8	8.47e-01	0	44	104	2425356288	77	15062
2026-01-26 15:34:17.95	333.86	4.14	-53.4	-65.3	3.8	8.47e-01	0	43	104	2425356288	77	14983
2026-01-26 15:34:20.98	334.23	4.03	-53.4	-65.3	3.8	8.47e-01	0	43	104	2425356288	77	14959
2026-01-26 15:34:24.00	334.60	3.91	-53.3	-65.3	3.8	8.47e-01	0	43	104	2425356288	77	14915
2026-01-26 15:34:27.03	334.97	3.80	-53.3	-65.3	3.8	8.47e-01	0	43	104	2425356288	77	14898
2026-01-26 15:34:30.05	335.33	3.69	-53.3	-65.3	3.8	8.46e-01	0	43	104	2425356288	77	14883
2026-01-26 15:34:33.07	335.69	3.57	-53.3	-65.2	3.8	8.47e-01	0	43	104	2425356288	77	14839
2026-01-26 15:34:36.09	336.05	3.46	-53.3	-65.2	3.8	8.45e-01	0	43	104	2425356288	77	14804
2026-01-26 15:34:39.12	336.41	3.34	-53.3	-65.2	3.8	8.45e-01	0	43	104	2425356288	77	14805
2026-01-26 15:34:42.14	336.76	3.23	-53.3	-65.2	3.8	8.47e-01	0	43	104	2425356288	77	14772
2026-01-26 15:34:45.16	337.11	3.11	-53.3	-65.2	3.8	8.48e-01	0	43	104	2425356288	77	14753
2026-01-26 15:34:48.18	337.46	2.99	-53.3	-65.2	3.8	8.46e-01	0	44	104	2425356288	77	14740
2026-01-26 15:34:51.20	337.80	2.88	-53.3	-65.2	3.8	8.46e-01	0	43	104	2425356288	77	14764
2026-01-26 15:34:54.23	338.15	2.76	-53.2	-65.2	3.8	8.47e-01	0	44	104	2425356288	77	14767
2026-01-26 15:34:57.25	338.49	2.64	-53.2	-65.2	3.8	8.46e-01	0	44	104	2425356288	77	14736
2026-01-26 15:35:00.28	338.82	2.53	-53.2	-65.2	3.8	8.46e-01	0	44	104	2425356288	77	14722
2026-01-26 15:35:03.30	339.16	2.41	-53.2	-65.1	3.8	8.46e-01	0	43	104	2425356288	77	14698
2026-01-26 15:35:06.32	339.49	2.29	-53.2	-65.1	3.8	8.46e-01	0	43	104	2425356288	77	14699
2026-01-26 15:35:09.34	339.82	2.17	-53.2	-65.1	3.8	8.46e-01	0	43	104	2425356288	77	14693
2026-01-26 15:35:12.37	340.15	2.05	-53.2	-65.1	3.8	8.46e-01	0	44	104	2425356288	77	14682
2026-01-26 15:35:15.39	340.47	1.94	-53.2	-65.1	3.8	8.45e-01	0	43	104	2425356288	77	14681

#Closed at: 2026-01-26 15:35:15
#Recorded file [2425 MB]: D:/lorett/data/31041_260126_182528.dat