passes_logs/2026/01/26/R3.2S_Murmansk/R3.2S_Murmansk__20260126_052253_FENGYUN_3D_rec.log

#Pass ID: 20260126_052253_FENGYUN 3D
#Satellite: FENGYUN 3D
#Configuration: FENGYUN 3D
#almurnet v.1.7.20251203
#Start time: 2026-01-26 05:22:54

#Version: 2.2.20231116
#Station: R3.2S_Murmansk
#Location: 33.079688 lon 68.888172 lat
#TLE: 1 43010U 17072A   26025.50461972  .00000046  00000+0  43592-4 0  9990
#TLE: 2 43010  98.9962 357.4844 0002523  89.7890 270.3575 14.19699798424744

#Time	Az	El	Level	Level2	SNR	BER	BlckErr	Temp	State	Recorded	gain1	gain2
2026-01-26 05:22:54.51	40.65	2.09	-54.0	-65.9	3.8	8.46e-01	0	42	0	0	79	14345
2026-01-26 05:22:58.54	40.45	2.33	-54.0	-65.9	3.8	8.47e-01	0	42	104	0	78	15158
2026-01-26 05:23:02.58	40.24	2.57	-54.1	-66.1	3.8	8.45e-01	0	42	104	0	78	15499
2026-01-26 05:23:06.61	40.03	2.82	-54.1	-66.1	3.8	8.46e-01	0	43	104	0	78	15475
2026-01-26 05:23:10.65	39.81	3.06	-54.1	-66.0	3.8	8.47e-01	0	43	104	0	78	15294
2026-01-26 05:23:14.68	39.59	3.31	-53.9	-65.8	3.8	8.46e-01	0	42	104	0	78	14951
2026-01-26 05:23:18.72	39.37	3.56	-53.5	-65.5	3.8	8.45e-01	0	43	104	0	78	14388
2026-01-26 05:23:22.75	39.14	3.81	-52.8	-64.3	3.8	8.45e-01	0	43	104	0	77	13343
2026-01-26 05:23:26.78	38.91	4.07	-51.6	-59.7	4.4	8.28e-01	0	43	0	0	75	8814
2026-01-26 05:23:30.82	38.67	4.32	-51.2	-57.9	5.3	7.69e-01	0	43	0	0	74	7626
2026-01-26 05:23:34.85	38.43	4.58	-49.3	-52.6	10.2	8.83e-03	0	43	0	16777216	70	5204
2026-01-26 05:23:38.88	38.19	4.84	-47.7	-50.1	12.7	6.63e-05	0	43	0	39845888	67	4619
2026-01-26 05:23:42.92	37.94	5.10	-45.0	-46.4	16.8	0.00e+00	0	43	0	62914560	60	4495
2026-01-26 05:23:46.95	37.69	5.37	-46.7	-48.5	14.6	0.00e+00	0	43	0	77594624	63	4861
2026-01-26 05:23:50.99	37.43	5.63	-43.4	-44.6	18.9	0.00e+00	0	43	0	99614720	57	4342
2026-01-26 05:23:55.03	37.16	5.90	-43.2	-44.2	19.3	0.00e+00	0	43	0	122683392	57	4189
2026-01-26 05:23:59.06	36.89	6.17	-43.4	-44.5	19.0	0.00e+00	0	43	0	144703488	57	4323
2026-01-26 05:24:03.09	36.62	6.45	-43.0	-44.1	19.5	0.00e+00	0	43	0	167772160	57	4115
2026-01-26 05:24:07.13	36.34	6.72	-42.8	-43.8	19.9	0.00e+00	0	43	0	190840832	57	3966
2026-01-26 05:24:11.17	36.05	7.00	-42.5	-43.5	20.2	0.00e+00	0	43	0	212860928	56	4068
2026-01-26 05:24:15.21	35.76	7.28	-43.0	-44.1	19.6	0.00e+00	0	43	0	235929600	56	4344
2026-01-26 05:24:19.24	35.46	7.56	-42.6	-43.5	20.2	0.00e+00	0	43	0	258998272	56	4093
2026-01-26 05:24:23.27	35.16	7.84	-42.2	-43.1	20.6	0.00e+00	0	43	0	281018368	56	3903
2026-01-26 05:24:27.30	34.85	8.13	-41.9	-42.8	20.9	0.00e+00	0	43	0	304087040	55	3975
2026-01-26 05:24:31.34	34.53	8.42	-42.0	-42.9	20.8	0.00e+00	0	43	0	327155712	55	4043
2026-01-26 05:24:35.38	34.20	8.71	-42.2	-43.2	20.6	0.00e+00	0	43	0	349175808	55	4149
2026-01-26 05:24:39.42	33.87	9.00	-42.1	-43.0	20.8	0.00e+00	0	43	0	372244480	55	4068
2026-01-26 05:24:43.45	33.54	9.30	-41.8	-42.7	21.1	0.00e+00	0	43	0	395313152	55	3928
2026-01-26 05:24:47.49	33.19	9.60	-41.9	-42.9	20.9	0.00e+00	0	43	0	417333248	55	4012
2026-01-26 05:24:51.52	32.84	9.90	-41.9	-42.8	20.9	0.00e+00	0	43	0	440401920	55	4004
2026-01-26 05:24:55.55	32.48	10.20	-41.6	-42.5	21.3	0.00e+00	0	44	0	463470592	55	3851
2026-01-26 05:24:59.58	32.11	10.51	-41.8	-42.7	21.1	0.00e+00	0	43	0	485490688	55	3951
2026-01-26 05:25:03.62	31.74	10.82	-41.6	-42.5	21.4	0.00e+00	0	43	0	508559360	55	3825
2026-01-26 05:25:07.66	31.35	11.13	-41.7	-42.5	21.4	0.00e+00	0	43	0	530579456	54	4096
2026-01-26 05:25:11.69	30.96	11.45	-41.5	-42.3	21.6	0.00e+00	0	43	0	553648128	54	3994
2026-01-26 05:25:15.73	30.56	11.77	-41.3	-42.2	21.7	0.00e+00	0	43	0	576716800	54	3925
2026-01-26 05:25:19.77	30.14	12.09	-41.0	-41.8	22.1	0.00e+00	0	43	0	598736896	54	3777
2026-01-26 05:25:23.81	29.72	12.41	-41.0	-41.9	22.0	0.00e+00	0	43	0	621805568	53	4019
2026-01-26 05:25:27.84	29.29	12.73	-40.9	-41.7	22.2	0.00e+00	0	44	0	644874240	53	3950
2026-01-26 05:25:31.88	28.85	13.06	-41.1	-41.9	22.0	0.00e+00	0	43	0	666894336	53	4049
2026-01-26 05:25:35.91	28.40	13.39	-40.9	-41.7	22.2	0.00e+00	0	43	0	689963008	53	3939
2026-01-26 05:25:39.95	27.94	13.73	-40.6	-41.4	22.5	0.00e+00	0	43	0	713031680	53	3800
2026-01-26 05:25:43.99	27.47	14.07	-40.7	-41.5	22.5	0.00e+00	0	44	0	735051776	53	3835
2026-01-26 05:25:48.02	26.99	14.40	-40.6	-41.4	22.5	0.00e+00	0	43	0	758120448	53	3819
2026-01-26 05:25:52.06	26.49	14.75	-40.5	-41.3	22.7	0.00e+00	0	43	0	781189120	52	3970
2026-01-26 05:25:56.09	25.99	15.09	-40.2	-40.9	23.0	0.00e+00	0	43	0	803209216	52	3823
2026-01-26 05:26:00.13	25.47	15.44	-40.2	-41.0	23.0	0.00e+00	0	43	0	826277888	52	3854
2026-01-26 05:26:04.17	24.94	15.79	-40.0	-40.8	23.2	0.00e+00	0	43	0	849346560	52	3768
2026-01-26 05:26:08.21	24.39	16.14	-40.1	-40.9	23.1	0.00e+00	0	44	0	871366656	52	3796
2026-01-26 05:26:12.24	23.83	16.49	-40.0	-40.8	23.3	0.00e+00	0	44	0	894435328	51	3974
2026-01-26 05:26:16.28	23.26	16.85	-40.0	-40.7	23.4	0.00e+00	0	44	0	916455424	51	3944
2026-01-26 05:26:20.32	22.68	17.21	-39.8	-40.6	23.5	0.00e+00	0	43	0	939524096	51	3894
2026-01-26 05:26:24.35	22.08	17.57	-39.6	-40.3	23.7	0.00e+00	0	43	0	962592768	51	3779
2026-01-26 05:26:28.39	21.46	17.93	-39.6	-40.3	23.8	0.00e+00	0	44	0	984612864	51	3764
2026-01-26 05:26:32.42	20.83	18.30	-39.6	-40.4	23.7	0.00e+00	0	43	0	1007681536	50	4027
2026-01-26 05:26:36.45	20.19	18.66	-39.3	-40.1	24.0	0.00e+00	0	44	0	1030750208	50	3879
2026-01-26 05:26:40.49	19.53	19.03	-39.2	-39.9	24.2	0.00e+00	0	43	0	1052770304	50	3802
2026-01-26 05:26:44.53	18.85	19.40	-39.2	-39.9	24.2	0.00e+00	0	43	0	1075838976	50	3819
2026-01-26 05:26:48.57	18.15	19.77	-39.0	-39.8	24.3	0.00e+00	0	44	0	1098907648	50	3745
2026-01-26 05:26:52.61	17.44	20.14	-39.1	-39.8	24.3	0.00e+00	0	43	0	1120927744	50	3765
2026-01-26 05:26:56.64	16.71	20.51	-39.3	-40.1	24.1	0.00e+00	0	44	0	1143996416	50	3877
2026-01-26 05:27:00.67	15.97	20.89	-39.3	-40.1	24.1	0.00e+00	0	43	0	1167065088	50	3871
2026-01-26 05:27:04.69	15.20	21.26	-39.1	-39.8	24.3	0.00e+00	0	44	0	1189085184	50	3770
2026-01-26 05:27:08.73	14.42	21.63	-39.0	-39.8	24.4	0.00e+00	0	44	0	1212153856	49	3959
2026-01-26 05:27:12.75	13.61	22.00	-39.0	-39.8	24.4	0.00e+00	0	43	0	1235222528	49	3963
2026-01-26 05:27:16.79	12.79	22.37	-38.8	-39.5	24.6	0.00e+00	0	43	0	1257242624	49	3844
2026-01-26 05:27:20.82	11.94	22.74	-38.8	-39.6	24.6	0.00e+00	0	43	0	1280311296	49	3876
2026-01-26 05:27:24.85	11.08	23.11	-38.2	-38.9	25.2	0.00e+00	0	43	0	1302331392	48	3810
2026-01-26 05:27:28.89	10.19	23.48	-38.6	-39.3	24.8	0.00e+00	0	44	0	1325400064	48	3998
2026-01-26 05:27:32.93	9.28	23.84	-38.5	-39.2	24.9	0.00e+00	0	44	0	1348468736	48	3954
2026-01-26 05:27:36.95	8.36	24.20	-38.1	-38.8	25.3	0.00e+00	0	43	0	1370488832	48	3761
2026-01-26 05:27:40.99	7.41	24.56	-38.1	-38.8	25.3	0.00e+00	0	43	0	1393557504	48	3751
2026-01-26 05:27:45.02	6.44	24.91	-37.7	-38.4	25.4	0.00e+00	0	44	0	1416626176	47	3791
2026-01-26 05:27:49.05	5.44	25.26	-37.7	-38.4	25.1	0.00e+00	0	44	0	1438646272	46	4043
2026-01-26 05:27:53.08	4.43	25.60	-38.1	-38.9	24.7	0.00e+00	0	44	0	1461714944	46	4243
2026-01-26 05:27:57.12	3.39	25.94	-37.8	-38.6	25.0	0.00e+00	0	44	0	1484783616	46	4101
2026-01-26 05:28:01.16	2.32	26.27	-37.9	-38.6	25.0	0.00e+00	0	43	0	1506803712	46	4145
2026-01-26 05:28:05.19	1.24	26.60	-37.7	-38.4	25.2	0.00e+00	0	43	0	1529872384	46	4046
2026-01-26 05:28:09.22	0.13	26.91	-37.3	-38.0	25.5	0.00e+00	0	44	0	1552941056	46	3861
2026-01-26 05:28:13.26	359.00	27.22	-37.4	-38.1	25.5	0.00e+00	0	44	0	1574961152	46	3886
2026-01-26 05:28:17.29	357.85	27.52	-37.7	-38.4	25.2	0.00e+00	0	43	0	1598029824	46	4026
2026-01-26 05:28:21.31	356.69	27.81	-37.7	-38.4	25.2	0.00e+00	0	43	0	1620049920	46	4022
2026-01-26 05:28:25.34	355.50	28.09	-37.5	-38.2	25.4	0.00e+00	0	43	0	1643118592	46	3957
2026-01-26 05:28:29.37	354.28	28.35	-37.4	-38.2	25.5	0.00e+00	0	43	0	1665138688	46	3914
2026-01-26 05:28:33.41	353.05	28.61	-37.3	-38.0	25.6	0.00e+00	0	44	0	1688207360	46	3848
2026-01-26 05:28:37.45	351.79	28.85	-37.1	-37.8	25.8	0.00e+00	0	43	0	1711276032	45	3992
2026-01-26 05:28:41.49	350.52	29.08	-37.4	-38.1	25.5	0.00e+00	0	44	0	1733296128	45	4110
2026-01-26 05:28:45.52	349.23	29.29	-37.2	-37.9	25.7	0.00e+00	0	43	0	1756364800	45	4025
2026-01-26 05:28:49.55	347.92	29.49	-37.3	-38.0	25.6	0.00e+00	0	43	0	1779433472	45	4059
2026-01-26 05:28:53.58	346.60	29.67	-37.3	-38.0	25.6	0.00e+00	0	44	0	1801453568	45	4054
2026-01-26 05:28:57.60	345.27	29.84	-37.1	-37.8	25.8	0.00e+00	0	43	0	1824522240	45	3997
2026-01-26 05:29:01.64	343.92	29.99	-37.1	-37.8	25.8	0.00e+00	0	44	0	1847590912	45	4003
2026-01-26 05:29:05.67	342.56	30.12	-37.1	-37.8	25.8	0.00e+00	0	43	0	1869611008	45	3961
2026-01-26 05:29:09.70	341.19	30.24	-37.3	-38.0	25.7	0.00e+00	0	43	0	1892679680	45	4052
2026-01-26 05:29:13.73	339.81	30.33	-37.0	-37.7	25.9	0.00e+00	0	43	0	1915748352	45	3919
2026-01-26 05:29:17.76	338.42	30.41	-37.0	-37.7	25.9	0.00e+00	0	43	0	1937768448	45	3933
2026-01-26 05:29:21.80	337.02	30.47	-37.1	-37.8	25.9	0.00e+00	0	43	0	1960837120	45	3967
2026-01-26 05:29:25.83	335.62	30.51	-36.9	-37.6	26.0	0.00e+00	0	43	0	1983905792	45	3888
2026-01-26 05:29:29.87	334.22	30.53	-37.1	-37.8	25.9	0.00e+00	0	43	0	2005925888	45	3973
2026-01-26 05:29:33.90	332.81	30.53	-37.2	-37.9	25.8	0.00e+00	0	43	0	2027945984	45	4027
2026-01-26 05:29:37.93	331.41	30.52	-37.2	-37.9	25.8	0.00e+00	0	44	0	2051014656	45	4025
2026-01-26 05:29:41.96	330.01	30.48	-37.0	-37.7	25.9	0.00e+00	0	43	0	2074083328	45	3949
2026-01-26 05:29:46.00	328.61	30.42	-37.0	-37.7	25.9	0.00e+00	0	43	0	2096103424	45	3942
2026-01-26 05:29:50.03	327.22	30.35	-36.9	-37.6	26.0	0.00e+00	0	44	0	2119172096	45	3895
2026-01-26 05:29:54.07	325.84	30.25	-37.0	-37.7	25.9	0.00e+00	0	44	0	2142240768	45	3957
2026-01-26 05:29:58.10	324.46	30.14	-36.9	-37.6	26.1	0.00e+00	0	43	0	2164260864	45	3892
2026-01-26 05:30:02.13	323.10	30.01	-37.1	-37.8	25.9	0.00e+00	0	44	0	2187329536	45	3981
2026-01-26 05:30:06.17	321.75	29.86	-37.1	-37.8	25.8	0.00e+00	0	44	0	2210398208	45	4000
2026-01-26 05:30:10.20	320.41	29.70	-36.8	-37.4	26.1	0.00e+00	0	43	0	2232418304	45	3821
2026-01-26 05:30:14.23	319.08	29.52	-37.2	-37.9	25.8	0.00e+00	0	43	0	2255486976	45	4034
2026-01-26 05:30:18.27	317.77	29.32	-37.5	-38.2	25.5	0.00e+00	0	43	0	2278555648	45	4169
2026-01-26 05:30:22.30	316.48	29.11	-37.6	-38.3	25.4	0.00e+00	0	44	0	2300575744	45	4221
2026-01-26 05:30:26.34	315.20	28.88	-37.2	-37.9	25.8	0.00e+00	0	43	0	2323644416	45	4012
2026-01-26 05:30:30.37	313.94	28.64	-37.3	-38.0	25.7	0.00e+00	0	43	0	2346713088	45	4077
2026-01-26 05:30:34.40	312.71	28.39	-37.3	-38.0	25.7	0.00e+00	0	43	0	2368733184	45	4083
2026-01-26 05:30:38.43	311.49	28.13	-37.5	-38.2	25.5	0.00e+00	0	44	0	2391801856	45	4154
2026-01-26 05:30:42.46	310.29	27.85	-37.2	-37.9	25.8	0.00e+00	0	43	0	2413821952	45	4027
2026-01-26 05:30:46.49	309.12	27.56	-37.3	-38.0	25.7	0.00e+00	0	43	0	2436890624	45	4094
2026-01-26 05:30:50.53	307.96	27.26	-37.4	-38.1	25.6	0.00e+00	0	44	0	2459959296	45	4123
2026-01-26 05:30:54.57	306.83	26.96	-37.5	-38.2	25.5	0.00e+00	0	43	0	2481979392	45	4155
2026-01-26 05:30:58.60	305.72	26.64	-37.7	-38.5	25.3	0.00e+00	0	44	0	2505048064	46	4052
2026-01-26 05:31:02.64	304.62	26.32	-37.8	-38.5	25.3	0.00e+00	0	44	0	2528116736	46	4088
2026-01-26 05:31:06.68	303.56	25.99	-37.8	-38.5	25.3	0.00e+00	0	43	0	2550136832	46	4064
2026-01-26 05:31:10.70	302.52	25.65	-37.7	-38.4	25.4	0.00e+00	0	44	0	2573205504	46	4021
2026-01-26 05:31:14.74	301.49	25.31	-38.0	-38.8	25.0	0.00e+00	0	43	0	2596274176	46	4202
2026-01-26 05:31:18.78	300.49	24.96	-37.8	-38.5	25.3	0.00e+00	0	43	0	2618294272	46	4054
2026-01-26 05:31:22.81	299.52	24.60	-37.9	-38.6	25.2	0.00e+00	0	43	0	2641362944	46	4139
2026-01-26 05:31:26.84	298.56	24.25	-38.0	-38.7	25.1	0.00e+00	0	43	0	2664431616	46	4172
2026-01-26 05:31:30.87	297.63	23.89	-38.0	-38.7	25.1	0.00e+00	0	43	0	2686451712	46	4183
2026-01-26 05:31:34.91	296.72	23.52	-38.4	-39.1	24.7	0.00e+00	0	43	0	2709520384	47	4133
2026-01-26 05:31:38.95	295.82	23.16	-38.4	-39.1	24.7	0.00e+00	0	44	0	2732589056	47	4128
2026-01-26 05:31:42.98	294.95	22.79	-38.5	-39.3	24.6	0.00e+00	0	43	0	2754609152	47	4201
2026-01-26 05:31:47.01	294.11	22.42	-38.5	-39.2	24.6	0.00e+00	0	44	0	2776629248	47	4190
2026-01-26 05:31:51.04	293.28	22.05	-38.5	-39.3	24.6	0.00e+00	0	44	0	2799697920	47	4208
2026-01-26 05:31:55.06	292.47	21.67	-39.0	-39.7	24.7	0.00e+00	0	43	0	2822766592	48	4165
2026-01-26 05:31:59.09	291.68	21.30	-39.1	-39.8	24.6	0.00e+00	0	44	0	2844786688	48	4234
2026-01-26 05:32:03.13	290.91	20.93	-39.0	-39.7	24.7	0.00e+00	0	43	0	2867855360	48	4179
2026-01-26 05:32:07.16	290.16	20.56	-39.0	-39.7	24.7	0.00e+00	0	44	0	2890924032	48	4179
2026-01-26 05:32:11.20	289.42	20.18	-39.1	-39.8	24.6	0.00e+00	0	43	0	2912944128	48	4233
2026-01-26 05:32:15.23	288.71	19.81	-39.3	-40.0	24.4	0.00e+00	0	43	0	2936012800	49	4064
2026-01-26 05:32:19.27	288.01	19.44	-39.4	-40.2	24.2	0.00e+00	0	43	0	2959081472	49	4159
2026-01-26 05:32:23.30	287.33	19.07	-39.2	-40.0	24.4	0.00e+00	0	43	0	2981101568	49	4053
2026-01-26 05:32:27.34	286.66	18.70	-39.3	-40.0	24.4	0.00e+00	0	43	0	3004170240	49	4064
2026-01-26 05:32:31.38	286.01	18.33	-39.7	-40.4	24.0	0.00e+00	0	43	0	3027238912	49	4280
2026-01-26 05:32:35.41	285.38	17.97	-39.8	-40.6	23.8	0.00e+00	0	43	0	3049259008	50	4115
2026-01-26 05:32:39.45	284.76	17.60	-39.9	-40.6	23.8	0.00e+00	0	43	0	3072327680	50	4126
2026-01-26 05:32:43.49	284.16	17.24	-40.0	-40.8	23.6	0.00e+00	0	43	0	3095396352	50	4198
2026-01-26 05:32:47.53	283.57	16.88	-40.1	-40.9	23.5	0.00e+00	0	43	0	3118465024	50	4247
2026-01-26 05:32:51.57	282.99	16.52	-40.3	-41.1	23.3	0.00e+00	0	43	0	3140485120	51	4105
2026-01-26 05:32:55.60	282.43	16.17	-40.4	-41.2	23.1	0.00e+00	0	43	0	3162505216	51	4173
2026-01-26 05:32:59.63	281.89	15.82	-40.3	-41.0	23.3	0.00e+00	0	44	0	3185573888	51	4088
2026-01-26 05:33:03.64	281.36	15.47	-40.6	-41.4	22.9	0.00e+00	0	44	0	3208642560	51	4252
2026-01-26 05:33:07.68	280.83	15.12	-40.5	-41.2	23.1	0.00e+00	0	43	0	3230662656	51	4189
2026-01-26 05:33:11.71	280.32	14.78	-40.6	-41.4	22.9	0.00e+00	0	43	0	3253731328	51	4246
2026-01-26 05:33:15.75	279.83	14.43	-40.7	-41.5	22.7	0.00e+00	0	44	0	3276800000	52	4092
2026-01-26 05:33:19.78	279.34	14.09	-40.9	-41.7	22.5	0.00e+00	0	44	0	3298820096	52	4160
2026-01-26 05:33:23.80	278.87	13.76	-40.8	-41.7	22.5	0.00e+00	0	43	0	3321888768	52	4148
2026-01-26 05:33:27.83	278.40	13.42	-41.3	-42.1	22.1	0.00e+00	0	44	0	3344957440	53	4142
2026-01-26 05:33:31.87	277.95	13.09	-41.0	-41.8	22.4	0.00e+00	0	43	0	3366977536	53	3970
2026-01-26 05:33:35.91	277.51	12.76	-41.0	-41.8	22.4	0.00e+00	0	44	0	3390046208	53	3975
2026-01-26 05:33:39.95	277.07	12.43	-41.2	-42.0	22.1	0.00e+00	0	44	0	3413114880	53	4079
2026-01-26 05:33:43.98	276.65	12.11	-41.4	-42.3	21.9	0.00e+00	0	44	0	3435134976	53	4198
2026-01-26 05:33:48.01	276.24	11.79	-41.3	-42.2	22.0	0.00e+00	0	43	0	3458203648	53	4147
2026-01-26 05:33:52.04	275.83	11.47	-41.3	-42.2	21.9	0.00e+00	0	43	0	3481272320	53	4158
2026-01-26 05:33:56.07	275.44	11.16	-41.4	-42.3	21.8	0.00e+00	0	43	0	3503292416	53	4212
2026-01-26 05:34:00.11	275.05	10.84	-41.6	-42.5	21.6	0.00e+00	0	44	0	3525312512	53	4298
2026-01-26 05:34:04.15	274.67	10.53	-41.6	-42.5	21.6	0.00e+00	0	43	0	3548381184	53	4299
2026-01-26 05:34:08.18	274.30	10.23	-41.5	-42.3	21.7	0.00e+00	0	44	0	3571449856	54	3991
2026-01-26 05:34:12.21	273.94	9.92	-41.7	-42.6	21.4	0.00e+00	0	43	0	3593469952	54	4108
2026-01-26 05:34:16.25	273.58	9.62	-41.7	-42.6	21.3	0.00e+00	0	44	0	3616538624	54	4142
2026-01-26 05:34:20.27	273.23	9.32	-41.6	-42.5	21.4	0.00e+00	0	43	0	3639607296	54	4086
2026-01-26 05:34:24.30	272.89	9.02	-41.7	-42.6	21.4	0.00e+00	0	43	0	3661627392	54	4107
2026-01-26 05:34:28.33	272.56	8.73	-41.9	-42.8	21.1	0.00e+00	0	43	0	3684696064	54	4209
2026-01-26 05:34:32.37	272.23	8.44	-41.9	-42.8	21.1	0.00e+00	0	43	0	3707764736	54	4227
2026-01-26 05:34:36.40	271.92	8.15	-41.8	-42.7	21.1	0.00e+00	0	44	0	3729784832	54	4184
2026-01-26 05:34:40.43	271.60	7.86	-42.4	-43.4	20.4	0.00e+00	0	43	0	3752853504	55	4245
2026-01-26 05:34:44.47	271.30	7.57	-42.5	-43.5	20.2	0.00e+00	0	44	0	3775922176	55	4330
2026-01-26 05:34:48.50	271.00	7.29	-42.8	-43.9	19.9	0.00e+00	0	43	0	3797942272	56	4247
2026-01-26 05:34:52.53	270.70	7.01	-43.2	-44.3	19.3	0.00e+00	0	44	0	3821010944	56	4465
2026-01-26 05:34:56.57	270.41	6.73	-43.4	-44.5	18.9	0.00e+00	0	44	0	3844079616	57	4325
2026-01-26 05:35:00.59	270.13	6.46	-44.0	-45.3	18.2	0.00e+00	0	43	0	3866099712	58	4454
2026-01-26 05:35:04.63	269.85	6.19	-44.4	-45.7	17.4	0.00e+00	0	43	0	3889168384	60	4161
2026-01-26 05:35:08.67	269.58	5.91	-45.1	-46.5	16.5	0.00e+00	0	44	0	3911188480	60	4594
2026-01-26 05:35:12.70	269.31	5.65	-46.1	-47.8	15.1	0.00e+00	0	43	0	3934257152	62	4741
2026-01-26 05:35:16.73	269.05	5.38	-45.9	-47.5	15.4	0.00e+00	0	43	0	3957325824	62	4595
2026-01-26 05:35:20.76	268.79	5.11	-46.2	-47.9	15.0	0.00e+00	0	44	0	3979345920	63	4537
2026-01-26 05:35:24.80	268.54	4.85	-52.5	-64.4	3.8	8.47e-01	0	43	104	3990880256	75	15158
2026-01-26 05:35:28.83	268.30	4.59	-52.6	-64.6	3.8	8.46e-01	0	44	104	3990880256	75	15465
2026-01-26 05:35:32.85	268.05	4.33	-52.9	-64.9	3.8	8.45e-01	0	44	104	3990880256	76	15064
2026-01-26 05:35:36.89	267.81	4.08	-53.1	-65.1	3.8	8.45e-01	0	44	104	3990880256	76	15450
2026-01-26 05:35:40.92	267.58	3.82	-53.3	-65.2	3.8	8.47e-01	0	44	104	3990880256	77	14788
2026-01-26 05:35:44.95	267.35	3.57	-53.3	-65.2	3.8	8.47e-01	0	43	104	3990880256	77	14743
2026-01-26 05:35:48.98	267.13	3.32	-53.2	-65.2	3.8	8.47e-01	0	44	104	3990880256	77	14722
2026-01-26 05:35:53.01	266.91	3.07	-53.2	-65.1	3.8	8.45e-01	0	44	104	3990880256	77	14686
2026-01-26 05:35:57.05	266.69	2.82	-53.2	-65.1	3.8	8.48e-01	0	44	104	3990880256	77	14655
2026-01-26 05:36:01.08	266.47	2.58	-53.2	-65.1	3.8	8.46e-01	0	43	104	3990880256	77	14686
2026-01-26 05:36:05.11	266.26	2.33	-53.2	-65.1	3.8	8.46e-01	0	44	104	3990880256	77	14649
2026-01-26 05:36:09.14	266.06	2.09	-53.2	-65.1	3.8	8.46e-01	0	44	104	3990880256	77	14620

#Closed at: 2026-01-26 05:36:12
#Recorded file [3990 MB]: D:/lorett/data/31041_260126_082254.dat