passes_logs/2026/01/26/R3.2S_Murmansk/R3.2S_Murmansk__20260126_044532_NOAA_20_JPSS-1_rec.log

#Pass ID: 20260126_044532_NOAA 20 (JPSS-1)
#Satellite: NOAA 20 (JPSS-1)
#Configuration: NOAA 20
#almurnet v.1.7.20251203
#Start time: 2026-01-26 04:45:32

#Version: 2.2.20231116
#Station: R3.2S_Murmansk
#Location: 33.079688 lon 68.888172 lat
#TLE: 1 43013U 17073A   26025.47986292  .00000161  00000+0  97249-4 0  9993
#TLE: 2 43013  98.7646 326.3091 0001052  24.2709 335.8516 14.19540188424225

#Time	Az	El	Level	Level2	SNR	BER	BlckErr	Temp	State	Recorded	gain1	gain2
2026-01-26 04:45:32.63	56.36	2.00	-54.0	-69.0	3.8	1.49e+00	0	41	0	0	79	20410
2026-01-26 04:45:35.65	56.17	2.17	-54.2	-69.1	3.8	1.49e+00	0	41	104	0	78	21992
2026-01-26 04:45:38.68	55.97	2.35	-54.2	-69.2	3.8	1.49e+00	0	41	104	0	78	22028
2026-01-26 04:45:41.70	55.77	2.52	-54.1	-69.1	3.8	1.49e+00	0	41	104	0	78	21826
2026-01-26 04:45:44.72	55.57	2.69	-53.9	-68.9	3.8	1.49e+00	0	41	104	0	78	21335
2026-01-26 04:45:47.74	55.37	2.87	-53.8	-68.8	3.8	1.49e+00	0	42	104	0	78	21065
2026-01-26 04:45:50.77	55.17	3.04	-53.5	-68.5	3.8	1.49e+00	0	42	104	0	78	20386
2026-01-26 04:45:53.79	54.96	3.22	-53.2	-68.1	3.8	1.49e+00	0	42	104	0	78	19515
2026-01-26 04:45:56.81	54.75	3.40	-52.2	-67.1	3.8	1.49e+00	0	42	104	0	76	19576
2026-01-26 04:45:59.83	54.54	3.57	-52.1	-67.0	3.8	1.49e+00	0	42	104	0	76	19346
2026-01-26 04:46:02.86	54.32	3.75	-52.1	-67.0	3.8	1.49e+00	0	42	104	0	76	19189
2026-01-26 04:46:05.88	54.11	3.93	-52.1	-67.0	3.8	1.49e+00	0	42	104	0	76	19242
2026-01-26 04:46:08.90	53.89	4.11	-52.0	-66.2	3.8	1.49e+00	0	42	104	0	76	17517
2026-01-26 04:46:11.93	53.66	4.29	-51.9	-64.6	3.8	1.49e+00	0	43	104	0	75	15535
2026-01-26 04:46:14.95	53.44	4.47	-51.9	-65.0	3.8	1.49e+00	0	42	104	0	75	16250
2026-01-26 04:46:17.97	53.21	4.66	-51.8	-63.0	4.3	1.43e+00	11	42	104	0	75	12908
2026-01-26 04:46:20.99	52.97	4.84	-51.3	-59.0	6.7	2.29e-01	0	42	0	5242880	74	8655
2026-01-26 04:46:24.01	52.74	5.02	-50.7	-56.6	9.1	2.86e-02	0	42	0	10485760	73	6915
2026-01-26 04:46:27.04	52.50	5.21	-51.5	-60.7	5.5	2.00e-01	0	43	0	16777216	73	11107
2026-01-26 04:46:30.06	52.26	5.39	-48.2	-50.8	15.2	2.05e-05	0	43	0	19922944	68	4712
2026-01-26 04:46:33.07	52.02	5.58	-48.1	-50.6	15.6	0.00e+00	0	43	0	25165824	68	4618
2026-01-26 04:46:36.10	51.77	5.77	-48.1	-50.6	15.5	0.00e+00	0	43	0	31457280	67	4921
2026-01-26 04:46:39.12	51.51	5.96	-47.8	-50.2	16.0	0.00e+00	0	43	0	36700160	67	4671
2026-01-26 04:46:42.14	51.26	6.14	-47.9	-50.4	15.8	0.00e+00	0	42	0	42991616	67	4781
2026-01-26 04:46:45.16	51.00	6.33	-47.7	-50.0	16.3	0.00e+00	0	43	0	48234496	67	4573
2026-01-26 04:46:48.18	50.74	6.52	-47.8	-50.1	16.2	0.00e+00	0	43	0	53477376	67	4625
2026-01-26 04:46:51.21	50.47	6.72	-47.6	-49.9	16.4	0.00e+00	0	43	0	59768832	67	4503
2026-01-26 04:46:54.23	50.21	6.91	-47.8	-50.1	16.2	0.00e+00	0	43	0	65011712	67	4621
2026-01-26 04:46:57.24	49.93	7.10	-47.8	-50.1	16.2	0.00e+00	0	43	0	71303168	67	4641
2026-01-26 04:47:00.26	49.66	7.29	-47.8	-50.0	16.4	0.00e+00	0	43	0	76546048	67	4581
2026-01-26 04:47:03.27	49.38	7.49	-47.9	-50.2	16.2	0.00e+00	0	43	0	81788928	67	4668
2026-01-26 04:47:06.30	49.09	7.68	-47.8	-50.0	16.4	0.00e+00	0	43	0	88080384	67	4590
2026-01-26 04:47:09.32	48.80	7.88	-47.7	-49.9	16.6	0.00e+00	0	43	0	93323264	67	4513
2026-01-26 04:47:12.33	48.51	8.07	-47.7	-49.9	16.6	0.00e+00	0	43	0	98566144	67	4517
2026-01-26 04:47:15.34	48.22	8.27	-47.6	-49.7	16.8	0.00e+00	0	43	0	104857600	67	4415
2026-01-26 04:47:18.36	47.92	8.47	-47.4	-49.5	17.0	0.00e+00	0	43	0	110100480	66	4575
2026-01-26 04:47:21.38	47.61	8.67	-47.2	-49.2	17.3	0.00e+00	0	43	0	116391936	66	4408
2026-01-26 04:47:24.40	47.30	8.87	-47.1	-49.1	17.4	0.00e+00	0	43	0	121634816	66	4351
2026-01-26 04:47:27.42	46.99	9.07	-47.2	-49.1	17.4	0.00e+00	0	43	0	126877696	66	4361
2026-01-26 04:47:30.44	46.67	9.27	-47.2	-49.2	17.4	0.00e+00	0	43	0	133169152	66	4405
2026-01-26 04:47:33.46	46.35	9.47	-47.2	-49.2	17.4	0.00e+00	0	43	0	138412032	66	4407
2026-01-26 04:47:36.48	46.02	9.68	-47.4	-49.4	17.2	0.00e+00	0	43	0	144703488	66	4513
2026-01-26 04:47:39.50	45.69	9.88	-47.4	-49.4	17.1	0.00e+00	0	43	0	149946368	66	4535
2026-01-26 04:47:42.52	45.35	10.09	-47.5	-49.5	17.1	0.00e+00	0	43	0	155189248	66	4587
2026-01-26 04:47:45.54	45.01	10.29	-47.4	-49.4	17.2	0.00e+00	0	43	0	161480704	66	4543
2026-01-26 04:47:48.55	44.67	10.50	-47.4	-49.3	17.3	0.00e+00	0	43	0	166723584	66	4484
2026-01-26 04:47:51.57	44.32	10.70	-47.2	-49.1	17.5	0.00e+00	0	43	0	173015040	66	4373
2026-01-26 04:47:54.60	43.96	10.91	-47.1	-49.0	17.7	0.00e+00	0	43	0	178257920	66	4312
2026-01-26 04:47:57.62	43.60	11.12	-47.1	-49.0	17.7	0.00e+00	0	43	0	183500800	66	4299
2026-01-26 04:48:00.65	43.23	11.33	-47.0	-48.8	17.9	0.00e+00	0	43	0	189792256	65	4463
2026-01-26 04:48:03.67	42.85	11.54	-46.9	-48.7	17.9	0.00e+00	0	43	0	195035136	65	4438
2026-01-26 04:48:06.69	42.48	11.75	-46.5	-48.2	18.5	0.00e+00	0	43	0	201326592	65	4168
2026-01-26 04:48:09.71	42.09	11.96	-46.7	-48.4	18.4	0.00e+00	0	43	0	206569472	65	4247
2026-01-26 04:48:12.72	41.71	12.17	-46.6	-48.3	18.4	0.00e+00	0	43	0	211812352	65	4234
2026-01-26 04:48:15.74	41.31	12.38	-46.7	-48.4	18.4	0.00e+00	0	43	0	218103808	65	4258
2026-01-26 04:48:18.77	40.91	12.59	-46.7	-48.4	18.3	0.00e+00	0	43	0	223346688	65	4277
2026-01-26 04:48:21.78	40.50	12.80	-46.5	-48.1	18.6	0.00e+00	0	43	0	229638144	64	4384
2026-01-26 04:48:24.80	40.09	13.01	-46.4	-48.0	18.8	0.00e+00	0	43	0	234881024	64	4294
2026-01-26 04:48:27.81	39.67	13.22	-46.2	-47.7	19.1	0.00e+00	0	43	0	240123904	64	4182
2026-01-26 04:48:30.84	39.25	13.44	-46.1	-47.6	19.2	0.00e+00	0	43	0	246415360	64	4126
2026-01-26 04:48:33.86	38.81	13.65	-46.0	-47.5	19.3	0.00e+00	0	43	0	251658240	64	4080
2026-01-26 04:48:36.89	38.37	13.87	-46.0	-47.5	19.3	0.00e+00	0	43	0	257949696	64	4094
2026-01-26 04:48:39.91	37.93	14.08	-46.1	-47.6	19.2	0.00e+00	0	43	0	263192576	64	4136
2026-01-26 04:48:42.93	37.48	14.29	-46.3	-47.9	19.0	0.00e+00	0	43	0	268435456	64	4245
2026-01-26 04:48:45.95	37.02	14.51	-46.3	-47.9	18.9	0.00e+00	0	43	0	274726912	64	4278
2026-01-26 04:48:48.97	36.56	14.72	-46.4	-48.0	18.8	0.00e+00	0	43	0	279969792	64	4338
2026-01-26 04:48:52.00	36.08	14.94	-46.5	-48.2	18.7	0.00e+00	0	43	0	286261248	64	4392
2026-01-26 04:48:55.02	35.61	15.15	-46.7	-48.4	18.5	0.00e+00	0	43	0	291504128	64	4504
2026-01-26 04:48:58.05	35.12	15.36	-46.8	-48.5	18.4	0.00e+00	0	43	0	297795584	64	4551
2026-01-26 04:49:01.07	34.63	15.58	-46.8	-48.5	18.4	0.00e+00	0	43	0	303038464	64	4555
2026-01-26 04:49:04.09	34.13	15.79	-46.7	-48.4	18.5	0.00e+00	0	43	0	308281344	64	4511
2026-01-26 04:49:07.10	33.62	16.00	-46.8	-48.5	18.4	0.00e+00	0	43	0	314572800	64	4568
2026-01-26 04:49:10.13	33.11	16.21	-46.9	-48.6	18.3	0.00e+00	0	43	0	319815680	64	4651
2026-01-26 04:49:13.15	32.59	16.42	-46.8	-48.5	18.4	0.00e+00	0	43	0	326107136	64	4597
2026-01-26 04:49:16.17	32.06	16.63	-46.9	-48.7	18.2	0.00e+00	0	43	0	331350016	64	4670
2026-01-26 04:49:19.19	31.52	16.84	-46.8	-48.5	18.5	0.00e+00	0	43	0	336592896	64	4548
2026-01-26 04:49:22.20	30.98	17.05	-46.8	-48.5	18.5	0.00e+00	0	43	0	342884352	64	4554
2026-01-26 04:49:25.22	30.43	17.26	-46.7	-48.3	18.6	0.00e+00	0	43	0	348127232	64	4466
2026-01-26 04:49:28.25	29.86	17.47	-46.7	-48.3	18.6	0.00e+00	0	43	0	354418688	64	4483
2026-01-26 04:49:31.26	29.30	17.67	-46.6	-48.2	18.7	0.00e+00	0	43	0	359661568	64	4423
2026-01-26 04:49:34.29	28.72	17.88	-46.4	-47.9	19.0	0.00e+00	0	43	0	364904448	64	4277
2026-01-26 04:49:37.31	28.14	18.08	-46.0	-47.5	19.4	0.00e+00	0	43	0	371195904	64	4077
2026-01-26 04:49:40.33	27.55	18.29	-45.7	-47.1	20.0	0.00e+00	0	43	0	376438784	63	4118
2026-01-26 04:49:43.36	26.95	18.49	-45.4	-46.7	20.4	0.00e+00	0	43	0	382730240	62	4153
2026-01-26 04:49:46.37	26.34	18.68	-45.0	-46.3	20.7	0.00e+00	0	43	0	387973120	62	3969
2026-01-26 04:49:49.39	25.72	18.88	-45.0	-46.2	20.8	0.00e+00	0	43	0	393216000	61	4188
2026-01-26 04:49:52.41	25.10	19.08	-45.0	-46.2	20.8	0.00e+00	0	43	0	399507456	61	4186
2026-01-26 04:49:55.43	24.47	19.27	-44.7	-45.9	21.1	0.00e+00	0	43	0	404750336	61	4045
2026-01-26 04:49:58.45	23.83	19.46	-44.7	-45.9	21.1	0.00e+00	0	43	0	411041792	61	4015
2026-01-26 04:50:01.47	23.18	19.65	-44.6	-45.8	21.2	0.00e+00	0	43	0	416284672	61	3999
2026-01-26 04:50:04.49	22.53	19.83	-44.6	-45.7	21.1	0.00e+00	0	43	0	421527552	61	3952
2026-01-26 04:50:07.51	21.86	20.02	-44.3	-45.5	21.5	0.00e+00	0	43	0	427819008	60	4063
2026-01-26 04:50:10.53	21.19	20.20	-44.5	-45.6	21.4	0.00e+00	0	43	0	433061888	60	4141
2026-01-26 04:50:13.54	20.52	20.37	-44.5	-45.6	21.4	0.00e+00	0	44	0	439353344	60	4133
2026-01-26 04:50:16.56	19.83	20.55	-44.4	-45.6	21.4	0.00e+00	0	43	0	444596224	60	4112
2026-01-26 04:50:19.58	19.13	20.72	-44.6	-45.8	21.2	0.00e+00	0	43	0	449839104	60	4214
2026-01-26 04:50:22.61	18.43	20.89	-44.6	-45.8	21.3	0.00e+00	0	43	0	456130560	60	4208
2026-01-26 04:50:25.63	17.72	21.05	-44.6	-45.8	21.3	0.00e+00	0	43	0	461373440	60	4201
2026-01-26 04:50:28.65	17.00	21.21	-44.4	-45.6	21.5	0.00e+00	0	43	0	467664896	60	4110
2026-01-26 04:50:31.67	16.27	21.37	-44.4	-45.5	21.6	0.00e+00	0	43	0	472907776	60	4080
2026-01-26 04:50:34.69	15.54	21.52	-44.1	-45.2	21.8	0.00e+00	0	43	0	478150656	60	3945
2026-01-26 04:50:37.71	14.80	21.67	-44.4	-45.6	21.8	0.00e+00	0	43	0	484442112	59	4346
2026-01-26 04:50:40.73	14.05	21.81	-44.3	-45.5	21.6	0.00e+00	0	43	0	489684992	60	4053
2026-01-26 04:50:43.75	13.30	21.95	-44.3	-45.4	22.0	0.00e+00	0	43	0	495976448	59	4265
2026-01-26 04:50:46.77	12.54	22.09	-44.2	-45.3	22.0	0.00e+00	0	43	0	501219328	59	4241
2026-01-26 04:50:49.80	11.77	22.22	-44.1	-45.2	22.2	0.00e+00	0	43	0	506462208	59	4172
2026-01-26 04:50:52.81	10.99	22.34	-44.2	-45.3	22.1	0.00e+00	0	43	0	512753664	59	4199
2026-01-26 04:50:55.83	10.21	22.46	-44.5	-45.6	21.8	0.00e+00	0	43	0	517996544	59	4360
2026-01-26 04:50:58.85	9.43	22.58	-44.6	-45.7	21.7	0.00e+00	0	43	0	524288000	59	4422
2026-01-26 04:51:01.87	8.64	22.69	-44.5	-45.6	21.8	0.00e+00	0	43	0	529530880	59	4346
2026-01-26 04:51:04.89	7.84	22.79	-44.6	-45.8	21.4	0.00e+00	0	43	0	534773760	60	4210
2026-01-26 04:51:07.91	7.04	22.89	-45.1	-46.3	20.8	0.00e+00	0	43	0	541065216	60	4479
2026-01-26 04:51:10.93	6.23	22.98	-45.3	-46.6	20.6	0.00e+00	0	43	0	546308096	61	4359
2026-01-26 04:51:13.96	5.41	23.07	-45.2	-46.5	20.7	0.00e+00	0	43	0	552599552	61	4308
2026-01-26 04:51:16.98	4.60	23.15	-45.5	-46.8	20.4	0.00e+00	0	43	0	557842432	61	4455
2026-01-26 04:51:20.00	3.77	23.23	-45.5	-46.8	20.4	0.00e+00	0	43	0	563085312	61	4478
2026-01-26 04:51:23.03	2.95	23.29	-45.8	-47.2	20.0	0.00e+00	0	44	0	569376768	62	4416
2026-01-26 04:51:26.05	2.12	23.36	-46.2	-47.6	19.6	0.00e+00	0	43	0	574619648	63	4391
2026-01-26 04:51:29.07	1.29	23.41	-46.2	-47.6	19.6	0.00e+00	0	43	0	580911104	63	4382
2026-01-26 04:51:32.09	0.45	23.46	-46.4	-47.9	19.4	0.00e+00	0	44	0	586153984	63	4509
2026-01-26 04:51:35.11	359.62	23.50	-45.9	-47.2	20.0	0.00e+00	0	43	0	591396864	63	4191
2026-01-26 04:51:38.13	358.78	23.54	-46.0	-47.4	19.9	0.00e+00	0	43	0	597688320	63	4259
2026-01-26 04:51:41.15	357.94	23.57	-45.9	-47.3	19.9	0.00e+00	0	43	0	602931200	63	4223
2026-01-26 04:51:44.17	357.09	23.59	-45.9	-47.3	20.0	0.00e+00	0	43	0	609222656	63	4210
2026-01-26 04:51:47.19	356.25	23.61	-46.1	-47.5	19.8	0.00e+00	0	43	0	614465536	63	4322
2026-01-26 04:51:50.20	355.41	23.62	-45.6	-46.9	20.3	0.00e+00	0	43	0	619708416	63	4023
2026-01-26 04:51:53.23	354.56	23.62	-45.9	-47.3	19.9	0.00e+00	0	43	0	625999872	63	4229
2026-01-26 04:51:56.25	353.72	23.62	-45.9	-47.2	20.0	0.00e+00	0	43	0	631242752	63	4178
2026-01-26 04:51:59.27	352.87	23.61	-45.1	-46.4	20.9	0.00e+00	0	43	0	637534208	62	4005
2026-01-26 04:52:02.29	352.03	23.59	-45.1	-46.4	20.8	0.00e+00	0	44	0	642777088	62	4009
2026-01-26 04:52:05.31	351.19	23.57	-44.9	-46.1	21.1	0.00e+00	0	43	0	648019968	61	4135
2026-01-26 04:52:08.33	350.35	23.54	-44.6	-45.7	21.4	0.00e+00	0	43	0	654311424	61	3946
2026-01-26 04:52:11.36	349.51	23.50	-44.6	-45.8	21.4	0.00e+00	0	44	0	659554304	61	3967
2026-01-26 04:52:14.37	348.67	23.46	-44.0	-45.1	22.0	0.00e+00	0	43	0	665845760	60	3898
2026-01-26 04:52:17.39	347.84	23.41	-44.1	-45.2	22.2	0.00e+00	0	44	0	671088640	59	4160
2026-01-26 04:52:20.40	347.01	23.35	-44.0	-45.1	22.3	0.00e+00	0	43	0	676331520	59	4112
2026-01-26 04:52:23.43	346.18	23.29	-44.0	-45.1	22.3	0.00e+00	0	43	0	682622976	59	4117
2026-01-26 04:52:26.45	345.36	23.22	-43.7	-44.7	22.7	0.00e+00	0	43	0	687865856	59	3931
2026-01-26 04:52:29.47	344.53	23.14	-43.7	-44.8	22.6	0.00e+00	0	43	0	694157312	59	3972
2026-01-26 04:52:32.48	343.72	23.06	-44.0	-45.1	22.3	0.00e+00	0	43	0	699400192	59	4108
2026-01-26 04:52:35.51	342.91	22.97	-44.1	-45.2	22.2	0.00e+00	0	43	0	704643072	59	4175
2026-01-26 04:52:38.53	342.10	22.88	-44.0	-45.1	22.3	0.00e+00	0	43	0	710934528	59	4123
2026-01-26 04:52:41.54	341.30	22.78	-44.4	-45.6	21.9	0.00e+00	0	44	0	716177408	59	4345
2026-01-26 04:52:44.56	340.50	22.68	-44.4	-45.5	21.7	0.00e+00	0	43	0	722468864	60	4064
2026-01-26 04:52:47.58	339.71	22.57	-44.6	-45.7	21.4	0.00e+00	0	43	0	727711744	60	4175
2026-01-26 04:52:50.60	338.93	22.45	-44.7	-45.9	21.2	0.00e+00	0	43	0	732954624	60	4276
2026-01-26 04:52:53.62	338.15	22.33	-44.8	-46.0	21.2	0.00e+00	0	43	0	739246080	60	4296
2026-01-26 04:52:56.63	337.37	22.20	-45.2	-46.4	20.8	0.00e+00	0	43	0	744488960	60	4513
2026-01-26 04:52:59.65	336.61	22.07	-45.3	-46.6	20.6	0.00e+00	0	43	0	750780416	61	4378
2026-01-26 04:53:02.67	335.85	21.94	-45.4	-46.6	20.6	0.00e+00	0	43	0	756023296	61	4383
2026-01-26 04:53:05.69	335.09	21.80	-45.3	-46.6	20.6	0.00e+00	0	43	0	761266176	61	4341
2026-01-26 04:53:08.72	334.34	21.65	-45.5	-46.8	20.4	0.00e+00	0	43	0	767557632	61	4479
2026-01-26 04:53:11.74	333.60	21.51	-45.7	-47.0	20.2	0.00e+00	0	43	0	772800512	61	4598
2026-01-26 04:53:14.76	332.87	21.35	-45.8	-47.2	20.0	0.00e+00	0	43	0	779091968	62	4430
2026-01-26 04:53:17.78	332.15	21.20	-46.0	-47.4	19.7	0.00e+00	0	43	0	784334848	62	4534
2026-01-26 04:53:20.80	331.43	21.03	-45.8	-47.2	20.1	0.00e+00	0	44	0	789577728	62	4395
2026-01-26 04:53:23.81	330.72	20.87	-45.9	-47.3	19.9	0.00e+00	0	43	0	795869184	62	4455
2026-01-26 04:53:26.83	330.02	20.70	-45.7	-47.1	20.1	0.00e+00	0	44	0	801112064	62	4350
2026-01-26 04:53:29.85	329.32	20.53	-45.6	-47.0	20.2	0.00e+00	0	43	0	807403520	62	4314
2026-01-26 04:53:32.87	328.64	20.36	-45.7	-47.0	20.1	0.00e+00	0	43	0	812646400	62	4328
2026-01-26 04:53:35.89	327.96	20.18	-45.6	-46.9	20.3	0.00e+00	0	43	0	817889280	62	4258
2026-01-26 04:53:38.92	327.29	20.00	-45.4	-46.7	20.4	0.00e+00	0	43	0	824180736	62	4186
2026-01-26 04:53:41.94	326.62	19.81	-45.4	-46.7	20.4	0.00e+00	0	43	0	829423616	62	4193
2026-01-26 04:53:44.96	325.97	19.63	-45.2	-46.5	20.6	0.00e+00	0	43	0	835715072	62	4067
2026-01-26 04:53:47.98	325.32	19.44	-45.2	-46.5	20.6	0.00e+00	0	43	0	840957952	62	4084
2026-01-26 04:53:51.00	324.68	19.25	-45.3	-46.6	20.5	0.00e+00	0	43	0	846200832	62	4140
2026-01-26 04:53:54.01	324.05	19.06	-45.3	-46.6	20.5	0.00e+00	0	44	0	852492288	62	4134
2026-01-26 04:53:57.04	323.43	18.86	-45.3	-46.5	20.6	0.00e+00	0	44	0	857735168	62	4091
2026-01-26 04:54:00.06	322.81	18.66	-45.4	-46.7	20.4	0.00e+00	0	44	0	864026624	62	4172
2026-01-26 04:54:03.07	322.21	18.47	-45.5	-46.8	20.3	0.00e+00	0	43	0	869269504	62	4233
2026-01-26 04:54:06.09	321.61	18.27	-45.6	-46.9	20.2	0.00e+00	0	43	0	874512384	62	4264
2026-01-26 04:54:09.11	321.02	18.06	-45.6	-46.9	20.2	0.00e+00	0	43	0	880803840	62	4264
2026-01-26 04:54:12.13	320.44	17.86	-45.5	-46.8	20.3	0.00e+00	0	43	0	886046720	62	4229
2026-01-26 04:54:15.15	319.86	17.66	-45.6	-46.9	20.2	0.00e+00	0	44	0	892338176	62	4275
2026-01-26 04:54:18.17	319.30	17.45	-45.5	-46.9	20.2	0.00e+00	0	43	0	897581056	62	4254
2026-01-26 04:54:21.18	318.74	17.24	-45.4	-46.7	20.4	0.00e+00	0	43	0	902823936	62	4177
2026-01-26 04:54:24.21	318.19	17.03	-45.4	-46.7	20.3	0.00e+00	0	43	0	909115392	62	4188
2026-01-26 04:54:27.23	317.64	16.82	-45.3	-46.6	20.5	0.00e+00	0	44	0	914358272	62	4132
2026-01-26 04:54:30.25	317.11	16.61	-44.9	-46.2	20.8	0.00e+00	0	43	0	920649728	61	4163
2026-01-26 04:54:33.27	316.58	16.40	-44.8	-46.0	21.0	0.00e+00	0	43	0	925892608	61	4081
2026-01-26 04:54:36.28	316.06	16.19	-44.9	-46.2	20.8	0.00e+00	0	43	0	931135488	61	4155
2026-01-26 04:54:39.30	315.55	15.98	-45.0	-46.2	20.8	0.00e+00	0	43	0	937426944	61	4181
2026-01-26 04:54:42.32	315.04	15.77	-44.9	-46.1	20.8	0.00e+00	0	44	0	942669824	61	4141
2026-01-26 04:54:45.34	314.54	15.56	-44.6	-45.8	21.1	0.00e+00	0	43	0	948961280	61	3996
2026-01-26 04:54:48.35	314.05	15.34	-44.6	-45.8	21.2	0.00e+00	0	43	0	954204160	60	4224
2026-01-26 04:54:51.37	313.57	15.13	-44.7	-45.9	21.1	0.00e+00	0	43	0	959447040	60	4266
2026-01-26 04:54:54.39	313.09	14.92	-44.6	-45.8	21.1	0.00e+00	0	43	0	965738496	60	4235
2026-01-26 04:54:57.40	312.62	14.70	-44.6	-45.8	21.1	0.00e+00	0	43	0	970981376	60	4238
2026-01-26 04:55:00.42	312.16	14.49	-44.6	-45.8	21.2	0.00e+00	0	43	0	976224256	60	4202
2026-01-26 04:55:03.43	311.70	14.28	-44.7	-45.9	21.0	0.00e+00	0	44	0	982515712	60	4269
2026-01-26 04:55:06.45	311.25	14.06	-44.8	-46.1	20.9	0.00e+00	0	43	0	987758592	60	4354
2026-01-26 04:55:09.46	310.81	13.85	-44.9	-46.2	20.8	0.00e+00	0	43	0	994050048	60	4404
2026-01-26 04:55:12.48	310.37	13.64	-45.0	-46.3	20.6	0.00e+00	0	43	0	999292928	60	4450
2026-01-26 04:55:15.50	309.94	13.42	-45.2	-46.6	20.3	0.00e+00	0	44	0	1004535808	61	4342
2026-01-26 04:55:18.52	309.51	13.21	-45.3	-46.6	20.3	0.00e+00	0	43	0	1010827264	61	4391
2026-01-26 04:55:21.54	309.09	13.00	-45.5	-46.8	20.1	0.00e+00	0	43	0	1016070144	61	4475
2026-01-26 04:55:24.56	308.68	12.79	-45.3	-46.6	20.2	0.00e+00	0	44	0	1022361600	61	4388
2026-01-26 04:55:27.58	308.27	12.57	-45.2	-46.5	20.4	0.00e+00	0	43	0	1027604480	61	4314
2026-01-26 04:55:30.60	307.87	12.36	-45.4	-46.7	20.2	0.00e+00	0	43	0	1032847360	61	4429
2026-01-26 04:55:33.62	307.48	12.15	-45.6	-47.1	19.8	0.00e+00	0	43	0	1039138816	61	4602
2026-01-26 04:55:36.64	307.09	11.94	-45.7	-47.1	19.8	0.00e+00	0	43	0	1044381696	62	4363
2026-01-26 04:55:39.65	306.71	11.73	-45.8	-47.2	19.6	0.00e+00	0	43	0	1050673152	62	4438
2026-01-26 04:55:42.67	306.33	11.52	-45.8	-47.3	19.6	0.00e+00	0	43	0	1055916032	62	4466
2026-01-26 04:55:45.69	305.96	11.31	-46.0	-47.5	19.4	0.00e+00	0	43	0	1061158912	62	4561
2026-01-26 04:55:48.72	305.59	11.10	-45.9	-47.4	19.5	0.00e+00	0	43	0	1067450368	62	4501
2026-01-26 04:55:51.74	305.23	10.90	-45.9	-47.4	19.4	0.00e+00	0	43	0	1072693248	62	4520
2026-01-26 04:55:54.75	304.87	10.69	-46.1	-47.7	19.1	0.00e+00	0	44	0	1078984704	62	4653
2026-01-26 04:55:57.77	304.52	10.48	-46.3	-47.8	19.0	0.00e+00	0	44	0	1084227584	63	4480
2026-01-26 04:56:00.79	304.17	10.28	-46.3	-47.9	18.9	0.00e+00	0	43	0	1089470464	63	4529
2026-01-26 04:56:03.81	303.83	10.07	-46.4	-48.0	18.7	0.00e+00	0	43	0	1095761920	63	4598
2026-01-26 04:56:06.83	303.50	9.87	-46.2	-47.7	19.0	0.00e+00	0	43	0	1101004800	63	4439
2026-01-26 04:56:09.84	303.17	9.66	-46.2	-47.8	18.9	0.00e+00	0	43	0	1107296256	63	4471
2026-01-26 04:56:12.86	302.84	9.46	-46.3	-47.8	18.9	0.00e+00	0	43	0	1112539136	63	4491
2026-01-26 04:56:15.87	302.52	9.26	-46.6	-48.3	18.4	0.00e+00	0	44	0	1117782016	63	4735
2026-01-26 04:56:18.89	302.20	9.06	-46.8	-48.5	18.0	0.00e+00	0	43	0	1124073472	64	4593
2026-01-26 04:56:21.91	301.89	8.86	-46.9	-48.8	17.8	0.00e+00	0	44	0	1129316352	64	4719
2026-01-26 04:56:24.93	301.58	8.66	-46.9	-48.7	17.9	0.00e+00	0	44	0	1135607808	64	4658
2026-01-26 04:56:27.95	301.27	8.46	-46.9	-48.8	17.8	0.00e+00	0	44	0	1140850688	64	4706
2026-01-26 04:56:30.97	300.97	8.26	-47.0	-48.9	17.6	0.00e+00	0	43	0	1146093568	64	4813
2026-01-26 04:56:33.99	300.68	8.06	-47.2	-49.2	17.3	0.00e+00	0	43	0	1152385024	65	4685
2026-01-26 04:56:37.01	300.38	7.87	-47.2	-49.2	17.3	0.00e+00	0	44	0	1157627904	65	4675
2026-01-26 04:56:40.03	300.10	7.67	-47.2	-49.1	17.3	0.00e+00	0	44	0	1163919360	65	4644
2026-01-26 04:56:43.04	299.81	7.48	-47.3	-49.3	17.2	0.00e+00	0	44	0	1169162240	65	4734
2026-01-26 04:56:46.06	299.53	7.28	-47.2	-49.1	17.3	0.00e+00	0	43	0	1174405120	65	4631
2026-01-26 04:56:49.09	299.26	7.09	-47.2	-49.2	17.2	0.00e+00	0	44	0	1180696576	65	4682
2026-01-26 04:56:52.10	298.98	6.89	-47.5	-49.6	16.8	0.00e+00	0	43	0	1185939456	65	4871
2026-01-26 04:56:55.12	298.72	6.70	-47.5	-49.6	16.7	0.00e+00	0	43	0	1192230912	65	4910
2026-01-26 04:56:58.14	298.45	6.51	-47.8	-50.0	16.4	0.00e+00	0	43	0	1197473792	66	4845
2026-01-26 04:57:01.16	298.19	6.32	-47.7	-49.9	16.5	0.00e+00	0	43	0	1202716672	66	4777
2026-01-26 04:57:04.18	297.93	6.13	-47.9	-50.2	16.0	0.00e+00	0	43	0	1209008128	66	4945
2026-01-26 04:57:07.21	297.67	5.94	-47.7	-49.9	16.4	0.00e+00	0	43	0	1214251008	66	4790
2026-01-26 04:57:10.22	297.42	5.76	-47.8	-50.2	16.0	0.00e+00	0	43	0	1220542464	66	4958
2026-01-26 04:57:13.24	297.18	5.57	-47.8	-50.1	16.1	0.00e+00	0	43	0	1225785344	66	4894
2026-01-26 04:57:16.26	296.93	5.38	-48.1	-50.7	15.5	0.00e+00	0	43	0	1231028224	66	5233
2026-01-26 04:57:19.28	296.69	5.20	-48.1	-50.6	15.5	0.00e+00	0	43	0	1237319680	66	5217
2026-01-26 04:57:22.29	296.45	5.01	-48.2	-50.9	15.2	0.00e+00	0	44	0	1242562560	67	5073
2026-01-26 04:57:25.32	296.22	4.83	-52.8	-67.6	3.8	1.49e+00	0	43	104	1243611136	76	20745
2026-01-26 04:57:28.35	295.98	4.65	-53.0	-68.0	3.8	1.49e+00	0	43	104	1243611136	76	21513
2026-01-26 04:57:31.37	295.75	4.46	-53.2	-68.1	3.8	1.49e+00	0	43	104	1243611136	76	21863
2026-01-26 04:57:34.39	295.53	4.28	-53.2	-68.1	3.8	1.49e+00	0	43	104	1243611136	76	21959
2026-01-26 04:57:37.41	295.31	4.10	-53.1	-68.1	3.8	1.49e+00	0	44	104	1243611136	76	21802
2026-01-26 04:57:40.44	295.08	3.92	-53.1	-68.1	3.8	1.49e+00	0	44	104	1243611136	76	21913
2026-01-26 04:57:43.47	294.87	3.74	-53.1	-68.1	3.8	1.49e+00	0	44	104	1243611136	76	21810
2026-01-26 04:57:46.49	294.65	3.56	-53.1	-68.1	3.8	1.49e+00	0	43	104	1243611136	76	21795
2026-01-26 04:57:49.51	294.44	3.39	-53.1	-68.1	3.8	1.49e+00	0	44	104	1243611136	76	21766
2026-01-26 04:57:52.53	294.23	3.21	-53.1	-68.1	3.8	1.49e+00	0	43	104	1243611136	76	21780
2026-01-26 04:57:55.56	294.02	3.03	-53.1	-68.0	3.8	1.49e+00	0	44	104	1243611136	76	21695
2026-01-26 04:57:58.58	293.82	2.86	-53.1	-68.0	3.8	1.49e+00	0	44	104	1243611136	76	21750
2026-01-26 04:58:01.60	293.62	2.68	-53.1	-68.0	3.8	1.49e+00	0	44	104	1243611136	76	21696
2026-01-26 04:58:04.62	293.42	2.51	-53.1	-68.0	3.8	1.49e+00	0	44	104	1243611136	76	21661
2026-01-26 04:58:07.65	293.22	2.34	-53.0	-68.0	3.8	1.49e+00	0	44	104	1243611136	76	21639
2026-01-26 04:58:10.67	293.02	2.16	-53.0	-68.0	3.8	1.49e+00	0	44	104	1243611136	76	21602

#Closed at: 2026-01-26 04:58:13
#Recorded file [1243 MB]: D:/lorett/data/31041_260126_074532.dat