passes_logs/2026/01/26/R3.2S_Murmansk/R3.2S_Murmansk__20260126_051124_KANOPUS-V_5_rec.log

#Pass ID: 20260126_051124_KANOPUS-V 5
#Satellite: KANOPUS-V 5
#Configuration: KANOPUS-V_8320
#almurnet v.1.7.20251203
#Start time: 2026-01-26 05:11:23

#Version: 2.2.20231116
#Station: R3.2S_Murmansk
#Location: 33.079688 lon 68.888172 lat
#TLE: 1 43876U 18111A   26025.54826615  .00005329  00000+0  22598-3 0  9999
#TLE: 2 43876  97.3674 293.8720 0001834  89.1965 270.9482 15.23539467393070

#Time	Az	El	Level	Level2	SNR	BER	BlckErr	Temp	State	Recorded	gain1	gain2
2026-01-26 05:11:23.84	91.51	1.98	-54.7	-63.6	3.8	7.46e-01	0	42	0	0	80	10304
2026-01-26 05:11:26.85	91.22	2.16	-54.7	-63.5	3.8	7.45e-01	0	42	104	0	80	10269
2026-01-26 05:11:29.88	90.93	2.34	-54.7	-63.5	3.8	7.46e-01	0	42	104	0	80	10256
2026-01-26 05:11:32.90	90.63	2.53	-54.9	-63.7	3.8	7.44e-01	0	42	104	0	80	10473
2026-01-26 05:11:35.92	90.33	2.71	-54.9	-63.7	3.8	7.44e-01	0	42	104	0	80	10463
2026-01-26 05:11:38.95	90.02	2.90	-54.8	-63.6	3.8	7.46e-01	0	42	104	0	80	10375
2026-01-26 05:11:41.97	89.71	3.09	-54.6	-63.5	3.8	7.44e-01	0	42	104	0	80	10177
2026-01-26 05:11:45.00	89.39	3.28	-54.5	-63.3	3.8	7.46e-01	0	42	104	0	80	10039
2026-01-26 05:11:48.02	89.07	3.47	-54.2	-62.9	3.8	7.46e-01	0	42	104	0	80	9590
2026-01-26 05:11:51.04	88.74	3.66	-53.6	-62.4	3.8	7.45e-01	0	42	104	0	79	9555
2026-01-26 05:11:54.07	88.41	3.85	-53.1	-61.9	3.8	7.45e-01	0	42	104	0	78	9506
2026-01-26 05:11:57.09	88.07	4.04	-52.9	-61.8	3.8	7.46e-01	0	42	104	0	77	9957
2026-01-26 05:12:00.11	87.72	4.24	-52.9	-61.7	3.8	7.45e-01	0	43	104	0	77	9902
2026-01-26 05:12:03.14	87.37	4.43	-52.6	-60.5	3.8	7.43e-01	0	43	104	0	77	8600
2026-01-26 05:12:06.17	87.01	4.63	-52.6	-60.2	3.8	7.42e-01	0	43	104	0	76	8858
2026-01-26 05:12:09.19	86.64	4.83	-51.0	-56.0	5.1	7.07e-01	0	43	0	6291456	74	6112
2026-01-26 05:12:12.22	86.27	5.03	-48.9	-52.3	8.0	6.44e-01	0	43	0	52428800	69	5314
2026-01-26 05:12:15.25	85.89	5.23	-52.6	-60.7	3.8	7.45e-01	0	43	104	92274688	75	9871
2026-01-26 05:12:18.28	85.51	5.43	-45.0	-47.4	13.1	6.09e-01	0	43	0	127926272	61	4768
2026-01-26 05:12:21.30	85.12	5.63	-45.1	-47.5	13.0	6.07e-01	0	43	0	174063616	61	4850
2026-01-26 05:12:24.33	84.72	5.83	-44.7	-47.0	13.5	6.08e-01	0	43	0	220200960	61	4566
2026-01-26 05:12:27.35	84.31	6.04	-44.4	-46.6	13.9	6.06e-01	0	43	0	266338304	60	4628
2026-01-26 05:12:30.37	83.90	6.24	-44.5	-46.7	13.9	6.08e-01	0	43	0	312475648	60	4659
2026-01-26 05:12:33.40	83.48	6.45	-44.2	-46.3	14.2	6.07e-01	0	43	0	358612992	60	4467
2026-01-26 05:12:36.42	83.05	6.65	-44.2	-46.2	14.3	6.06e-01	0	43	0	404750336	59	4698
2026-01-26 05:12:39.45	82.61	6.86	-44.2	-46.2	14.3	6.04e-01	0	43	0	452984832	59	4701
2026-01-26 05:12:42.47	82.17	7.07	-43.7	-45.7	14.8	6.06e-01	0	43	0	499122176	59	4396
2026-01-26 05:12:45.49	81.71	7.28	-43.6	-45.6	14.8	6.04e-01	0	44	0	545259520	58	4623
2026-01-26 05:12:48.51	81.25	7.49	-43.9	-46.0	14.5	6.03e-01	0	43	0	591396864	58	4840
2026-01-26 05:12:51.54	80.78	7.70	-43.7	-45.8	14.7	6.05e-01	0	44	0	637534208	58	4746
2026-01-26 05:12:54.56	80.30	7.91	-43.4	-45.5	15.0	6.05e-01	0	44	0	685768704	58	4567
2026-01-26 05:12:57.58	79.81	8.13	-43.7	-45.8	14.8	6.04e-01	0	43	0	729808896	58	4709
2026-01-26 05:13:00.61	79.32	8.34	-43.4	-45.4	15.1	6.03e-01	0	43	0	775946240	58	4543
2026-01-26 05:13:03.63	78.81	8.55	-43.4	-45.4	15.2	6.04e-01	0	43	0	822083584	58	4534
2026-01-26 05:13:06.65	78.30	8.77	-43.1	-45.1	15.4	6.02e-01	0	44	0	870318080	58	4378
2026-01-26 05:13:09.68	77.77	8.99	-43.2	-45.1	15.4	6.06e-01	0	43	0	916455424	58	4390
2026-01-26 05:13:12.71	77.23	9.20	-42.7	-44.6	15.8	6.04e-01	0	44	0	962592768	57	4384
2026-01-26 05:13:15.74	76.68	9.42	-42.6	-44.5	15.9	6.02e-01	0	44	0	1008730112	57	4308
2026-01-26 05:13:18.77	76.13	9.64	-42.6	-44.5	16.0	6.04e-01	0	44	0	1056964608	57	4301
2026-01-26 05:13:21.80	75.56	9.85	-42.6	-44.5	15.9	6.03e-01	0	44	0	1103101952	56	4575
2026-01-26 05:13:24.82	74.98	10.07	-42.5	-44.5	16.0	6.05e-01	0	44	0	1149239296	56	4556
2026-01-26 05:13:27.85	74.39	10.29	-42.5	-44.5	16.0	6.06e-01	0	44	0	1195376640	56	4549
2026-01-26 05:13:30.86	73.80	10.51	-42.6	-44.5	16.1	6.03e-01	0	44	0	1241513984	56	4549
2026-01-26 05:13:33.88	73.19	10.72	-42.5	-44.4	16.1	6.02e-01	0	44	0	1287651328	56	4515
2026-01-26 05:13:36.91	72.57	10.94	-42.3	-44.2	16.3	6.04e-01	0	44	0	1333788672	56	4436
2026-01-26 05:13:39.93	71.93	11.16	-42.1	-44.1	16.5	5.99e-01	0	44	0	1379926016	55	4625
2026-01-26 05:13:42.96	71.29	11.37	-42.0	-44.0	16.6	6.01e-01	0	44	0	1428160512	55	4575
2026-01-26 05:13:45.99	70.63	11.59	-42.1	-44.2	16.5	6.01e-01	0	44	0	1474297856	55	4654
2026-01-26 05:13:49.02	69.96	11.81	-42.1	-44.2	16.4	6.03e-01	0	44	0	1520435200	55	4674
2026-01-26 05:13:52.04	69.28	12.02	-41.9	-43.9	16.7	6.01e-01	0	44	0	1566572544	55	4535
2026-01-26 05:13:55.07	68.59	12.24	-42.3	-44.4	16.3	6.01e-01	0	44	0	1614807040	55	4799
2026-01-26 05:13:58.09	67.88	12.45	-42.2	-44.3	16.5	5.80e-01	0	44	0	1660944384	55	4711
2026-01-26 05:14:01.11	67.16	12.66	-41.8	-43.8	16.9	5.81e-01	0	44	0	1707081728	55	4463
2026-01-26 05:14:04.13	66.43	12.87	-41.6	-43.5	17.1	5.80e-01	0	44	0	1753219072	55	4340
2026-01-26 05:14:07.16	65.69	13.08	-41.5	-43.5	17.1	5.81e-01	0	44	0	1799356416	54	4587
2026-01-26 05:14:10.19	64.93	13.29	-41.4	-43.4	17.2	5.80e-01	0	44	0	1845493760	54	4535
2026-01-26 05:14:13.21	64.16	13.49	-41.2	-43.2	17.4	5.80e-01	0	44	0	1891631104	54	4402
2026-01-26 05:14:16.23	63.38	13.69	-41.2	-43.2	17.4	5.80e-01	0	44	0	1937768448	54	4406
2026-01-26 05:14:19.25	62.59	13.89	-41.2	-43.3	17.2	5.80e-01	0	44	0	1986002944	54	4478
2026-01-26 05:14:22.28	61.78	14.09	-41.4	-43.5	17.1	5.81e-01	0	44	0	2032140288	54	4587
2026-01-26 05:14:25.30	60.96	14.28	-41.4	-43.7	17.0	5.80e-01	0	44	0	2078277632	54	4659
2026-01-26 05:14:28.32	60.13	14.47	-41.4	-43.5	17.1	5.80e-01	0	44	0	2124414976	54	4597
2026-01-26 05:14:31.33	59.29	14.66	-41.2	-43.2	17.3	5.81e-01	0	44	0	2170552320	54	4432
2026-01-26 05:14:34.36	58.43	14.85	-41.1	-43.1	17.5	5.80e-01	0	44	0	2216689664	54	4365
2026-01-26 05:14:37.38	57.56	15.03	-41.0	-43.1	17.5	5.81e-01	0	44	0	2262827008	54	4353
2026-01-26 05:14:40.41	56.67	15.20	-41.1	-43.2	17.4	5.80e-01	0	44	0	2308964352	53	4654
2026-01-26 05:14:43.44	55.77	15.37	-41.2	-43.4	17.3	5.80e-01	0	44	0	2355101696	53	4765
2026-01-26 05:14:46.47	54.86	15.54	-41.0	-43.2	17.5	5.80e-01	0	44	0	2403336192	53	4659
2026-01-26 05:14:49.49	53.94	15.70	-40.8	-43.0	17.5	5.81e-01	0	44	0	2449473536	53	4551
2026-01-26 05:14:52.51	53.01	15.86	-40.8	-43.0	17.5	5.80e-01	0	44	0	2495610880	53	4577
2026-01-26 05:14:55.53	52.07	16.01	-40.9	-43.2	17.4	5.80e-01	0	44	0	2541748224	53	4653
2026-01-26 05:14:58.56	51.11	16.16	-40.9	-43.2	17.4	5.81e-01	0	44	0	2589982720	53	4660
2026-01-26 05:15:01.58	50.15	16.30	-41.0	-43.3	17.3	5.81e-01	0	44	0	2636120064	53	4720
2026-01-26 05:15:04.61	49.17	16.43	-41.2	-43.4	17.2	6.04e-01	0	44	0	2682257408	53	4780
2026-01-26 05:15:07.63	48.18	16.56	-41.0	-43.2	17.4	6.04e-01	0	44	0	2728394752	53	4658
2026-01-26 05:15:10.66	47.18	16.68	-40.9	-43.2	17.4	6.03e-01	0	44	0	2774532096	53	4659
2026-01-26 05:15:13.69	46.18	16.79	-40.8	-42.9	17.5	6.04e-01	0	44	0	2820669440	53	4529
2026-01-26 05:15:16.71	45.17	16.90	-40.9	-43.1	17.5	6.02e-01	0	44	0	2866806784	53	4600
2026-01-26 05:15:19.73	44.14	16.99	-40.9	-43.1	17.4	6.04e-01	0	44	0	2912944128	53	4619
2026-01-26 05:15:22.76	43.11	17.08	-40.9	-43.1	17.4	6.02e-01	0	44	0	2961178624	53	4640
2026-01-26 05:15:25.78	42.08	17.17	-41.0	-43.3	17.3	6.05e-01	0	44	0	3007315968	53	4710
2026-01-26 05:15:28.81	41.03	17.24	-41.0	-43.3	17.3	6.04e-01	0	44	0	3053453312	53	4722
2026-01-26 05:15:31.84	39.98	17.31	-40.8	-43.0	17.5	6.00e-01	0	44	0	3101687808	53	4573
2026-01-26 05:15:34.87	38.93	17.36	-40.9	-43.2	17.4	6.04e-01	0	44	0	3147825152	53	4654
2026-01-26 05:15:37.89	37.87	17.41	-40.9	-43.1	17.4	6.03e-01	0	44	0	3193962496	53	4645
2026-01-26 05:15:40.91	36.81	17.45	-40.9	-43.2	17.3	6.02e-01	0	44	0	3240099840	53	4698
2026-01-26 05:15:43.94	35.75	17.48	-40.8	-43.1	17.5	6.03e-01	0	44	0	3286237184	53	4602
2026-01-26 05:15:46.96	34.68	17.51	-40.9	-43.2	17.4	6.02e-01	0	44	0	3332374528	53	4681
2026-01-26 05:15:49.98	33.62	17.52	-40.9	-43.2	17.3	5.99e-01	0	44	0	3378511872	53	4698
2026-01-26 05:15:53.01	32.55	17.53	-40.9	-43.2	17.4	6.02e-01	0	44	0	3424649216	53	4668
2026-01-26 05:15:56.03	31.48	17.52	-41.0	-43.3	17.3	6.03e-01	0	44	0	3470786560	53	4756
2026-01-26 05:15:59.05	30.41	17.51	-41.1	-43.5	17.2	5.99e-01	0	44	0	3519021056	53	4830
2026-01-26 05:16:02.07	29.35	17.49	-41.1	-43.5	17.3	5.98e-01	0	44	0	3565158400	53	4819
2026-01-26 05:16:05.10	28.28	17.45	-41.1	-43.4	17.2	5.99e-01	0	44	0	3611295744	53	4806
2026-01-26 05:16:08.13	27.22	17.42	-41.0	-43.4	17.1	6.02e-01	0	44	0	3657433088	53	4807
2026-01-26 05:16:11.15	26.17	17.37	-41.2	-43.7	17.0	6.01e-01	0	44	0	3703570432	53	4946
2026-01-26 05:16:14.18	25.11	17.31	-41.3	-43.7	17.0	6.02e-01	0	44	0	3749707776	53	4965
2026-01-26 05:16:17.21	24.06	17.24	-41.1	-43.5	17.2	6.03e-01	0	44	0	3795845120	53	4816
2026-01-26 05:16:20.23	23.02	17.17	-41.2	-43.7	17.0	6.05e-01	0	44	0	3841982464	53	4965
2026-01-26 05:16:23.25	21.99	17.09	-41.2	-43.7	17.1	5.80e-01	0	44	0	3890216960	53	4946
2026-01-26 05:16:26.27	20.96	17.00	-41.2	-43.6	17.2	5.82e-01	0	44	0	3936354304	53	4883
2026-01-26 05:16:29.30	19.94	16.90	-41.2	-43.8	17.0	5.80e-01	0	44	0	3982491648	53	4992
2026-01-26 05:16:32.33	18.92	16.80	-43.0	-43.8	16.9	5.81e-01	0	44	0	4028628992	56	4211
2026-01-26 05:16:35.36	17.92	16.68	-54.0	-62.8	3.8	7.47e-01	0	44	104	4039114752	78	10589
2026-01-26 05:16:38.39	16.92	16.56	-53.9	-62.8	3.8	7.45e-01	0	44	104	4039114752	78	10555
2026-01-26 05:16:41.41	15.94	16.44	-54.0	-62.8	3.8	7.44e-01	0	44	104	4039114752	78	10561
2026-01-26 05:16:44.44	14.96	16.30	-53.9	-62.8	3.8	7.46e-01	0	44	104	4039114752	78	10537
2026-01-26 05:16:47.47	13.99	16.17	-53.9	-62.7	3.8	7.45e-01	0	44	104	4039114752	78	10485
2026-01-26 05:16:50.49	13.04	16.02	-53.9	-62.7	3.8	7.46e-01	0	44	104	4039114752	78	10488
2026-01-26 05:16:53.52	12.10	15.87	-53.9	-62.7	3.8	7.45e-01	0	44	104	4039114752	78	10465
2026-01-26 05:16:56.55	11.16	15.71	-53.9	-62.7	3.8	7.46e-01	0	44	104	4039114752	78	10503
2026-01-26 05:16:59.57	10.24	15.55	-53.9	-62.7	3.8	7.46e-01	0	44	104	4039114752	78	10425
2026-01-26 05:17:02.60	9.33	15.38	-53.8	-62.7	3.8	7.45e-01	0	44	104	4039114752	78	10448
2026-01-26 05:17:05.62	8.44	15.21	-53.8	-62.7	3.8	7.44e-01	0	44	104	4039114752	78	10422
2026-01-26 05:17:08.65	7.56	15.04	-53.8	-62.7	3.8	7.45e-01	0	44	104	4039114752	78	10438
2026-01-26 05:17:11.67	6.69	14.86	-53.8	-62.6	3.8	7.46e-01	0	44	104	4039114752	78	10383
2026-01-26 05:17:14.69	5.83	14.68	-53.8	-62.6	3.8	7.44e-01	0	44	104	4039114752	78	10400
2026-01-26 05:17:17.72	4.98	14.49	-53.8	-62.6	3.8	7.44e-01	0	44	104	4039114752	78	10394
2026-01-26 05:17:20.75	4.15	14.30	-53.8	-62.6	3.8	7.45e-01	0	44	104	4039114752	78	10368
2026-01-26 05:17:23.78	3.33	14.10	-53.8	-62.6	3.8	7.45e-01	0	44	104	4039114752	78	10324
2026-01-26 05:17:26.80	2.53	13.91	-53.7	-62.5	3.8	7.45e-01	0	44	104	4039114752	78	10286
2026-01-26 05:17:29.82	1.73	13.71	-53.7	-62.6	3.8	7.46e-01	0	44	104	4039114752	78	10301
2026-01-26 05:17:32.84	0.95	13.51	-53.8	-62.5	3.8	7.44e-01	0	44	104	4039114752	78	10275
2026-01-26 05:17:35.87	0.19	13.30	-53.7	-62.5	3.8	7.46e-01	0	44	104	4039114752	78	10266
2026-01-26 05:17:38.89	359.43	13.10	-53.7	-62.5	3.8	7.44e-01	0	44	104	4039114752	78	10243
2026-01-26 05:17:41.92	358.69	12.89	-53.7	-62.5	3.8	7.44e-01	0	44	104	4039114752	78	10212
2026-01-26 05:17:44.94	357.96	12.68	-53.7	-62.6	3.8	7.45e-01	0	44	104	4039114752	78	10303
2026-01-26 05:17:47.96	357.25	12.47	-53.7	-62.5	3.8	7.46e-01	0	44	104	4039114752	78	10214
2026-01-26 05:17:50.99	356.54	12.26	-53.6	-62.5	3.8	7.45e-01	0	44	104	4039114752	78	10205
2026-01-26 05:17:54.01	355.85	12.04	-53.6	-62.4	3.8	7.45e-01	0	44	104	4039114752	78	10153
2026-01-26 05:17:57.04	355.17	11.83	-53.6	-62.5	3.8	7.45e-01	0	44	104	4039114752	78	10191
2026-01-26 05:18:00.06	354.51	11.61	-53.6	-62.4	3.8	7.45e-01	0	44	104	4039114752	78	10129
2026-01-26 05:18:03.09	353.85	11.40	-53.6	-62.4	3.8	7.45e-01	0	44	104	4039114752	78	10154
2026-01-26 05:18:06.11	353.21	11.18	-53.5	-62.4	3.8	7.46e-01	0	44	104	4039114752	78	10108
2026-01-26 05:18:09.13	352.58	10.97	-53.6	-62.4	3.8	7.45e-01	0	44	104	4039114752	78	10150
2026-01-26 05:18:12.16	351.96	10.75	-53.5	-62.4	3.8	7.44e-01	0	44	104	4039114752	78	10088
2026-01-26 05:18:15.19	351.35	10.53	-53.5	-62.3	3.8	7.46e-01	0	44	104	4039114752	78	10026
2026-01-26 05:18:18.21	350.75	10.31	-53.5	-62.3	3.8	7.46e-01	0	44	104	4039114752	78	10017
2026-01-26 05:18:21.23	350.16	10.10	-53.5	-62.3	3.8	7.44e-01	0	44	104	4039114752	78	10046
2026-01-26 05:18:24.26	349.59	9.88	-53.5	-62.3	3.8	7.46e-01	0	44	104	4039114752	78	9969
2026-01-26 05:18:27.28	349.02	9.66	-53.4	-62.3	3.8	7.44e-01	0	44	104	4039114752	78	9951
2026-01-26 05:18:30.31	348.47	9.45	-53.4	-62.2	3.8	7.46e-01	0	44	104	4039114752	78	9897
2026-01-26 05:18:33.33	347.92	9.23	-53.4	-62.3	3.8	7.45e-01	0	44	104	4039114752	78	9968
2026-01-26 05:18:36.36	347.39	9.02	-53.4	-62.3	3.8	7.46e-01	0	44	104	4039114752	78	9950
2026-01-26 05:18:39.38	346.87	8.80	-53.4	-62.2	3.8	7.45e-01	0	44	104	4039114752	78	9875
2026-01-26 05:18:42.41	346.35	8.59	-53.3	-62.1	3.8	7.44e-01	0	44	104	4039114752	78	9814
2026-01-26 05:18:45.43	345.85	8.37	-53.3	-62.2	3.8	7.46e-01	0	44	104	4039114752	78	9848
2026-01-26 05:18:48.45	345.35	8.16	-53.3	-62.1	3.8	7.45e-01	0	44	104	4039114752	78	9814
2026-01-26 05:18:51.47	344.86	7.95	-53.3	-62.1	3.8	7.44e-01	0	44	104	4039114752	78	9755
2026-01-26 05:18:54.50	344.39	7.74	-53.2	-62.1	3.8	7.47e-01	0	44	104	4039114752	78	9731
2026-01-26 05:18:57.52	343.92	7.53	-53.2	-62.1	3.8	7.47e-01	0	44	104	4039114752	78	9742
2026-01-26 05:19:00.55	343.46	7.32	-53.3	-62.1	3.8	7.45e-01	0	44	104	4039114752	78	9762
2026-01-26 05:19:03.58	343.00	7.11	-53.2	-62.0	3.8	7.47e-01	0	44	104	4039114752	78	9675
2026-01-26 05:19:06.60	342.56	6.90	-53.1	-61.9	3.8	7.45e-01	0	44	104	4039114752	78	9597
2026-01-26 05:19:09.62	342.13	6.69	-53.1	-61.9	3.8	7.45e-01	0	44	104	4039114752	78	9606
2026-01-26 05:19:12.65	341.70	6.48	-53.2	-62.0	3.8	7.44e-01	0	44	104	4039114752	78	9661
2026-01-26 05:19:15.67	341.28	6.28	-53.1	-61.9	3.8	7.43e-01	0	44	104	4039114752	78	9577
2026-01-26 05:19:18.70	340.87	6.08	-53.0	-61.8	3.8	7.46e-01	0	44	104	4039114752	77	10032
2026-01-26 05:19:21.73	340.46	5.87	-52.9	-61.7	3.8	7.47e-01	0	44	104	4039114752	77	9932
2026-01-26 05:19:24.75	340.06	5.67	-53.0	-61.8	3.8	7.44e-01	0	44	104	4039114752	77	10053
2026-01-26 05:19:27.77	339.67	5.47	-53.0	-61.8	3.8	7.45e-01	0	44	104	4039114752	77	9959
2026-01-26 05:19:30.80	339.29	5.27	-52.9	-61.7	3.8	7.45e-01	0	44	104	4039114752	77	9862
2026-01-26 05:19:33.82	338.91	5.07	-52.8	-61.5	3.8	7.43e-01	0	44	104	4039114752	77	9717
2026-01-26 05:19:36.85	338.54	4.87	-53.6	-62.4	3.8	7.47e-01	0	44	104	4039114752	77	10778
2026-01-26 05:19:39.87	338.18	4.67	-54.1	-62.9	3.8	7.47e-01	0	44	104	4039114752	78	10669
2026-01-26 05:19:42.89	337.82	4.48	-54.3	-63.1	3.8	7.46e-01	0	44	104	4039114752	79	10308
2026-01-26 05:19:45.91	337.47	4.28	-54.2	-63.1	3.8	7.45e-01	0	44	104	4039114752	79	10311
2026-01-26 05:19:48.94	337.13	4.09	-54.0	-62.8	3.8	7.45e-01	0	44	104	4039114752	79	10026
2026-01-26 05:19:51.97	336.79	3.89	-54.1	-63.0	3.8	7.45e-01	0	44	104	4039114752	79	10201
2026-01-26 05:19:54.99	336.46	3.70	-54.1	-63.0	3.8	7.45e-01	0	44	104	4039114752	79	10209
2026-01-26 05:19:58.01	336.13	3.51	-54.1	-62.9	3.8	7.44e-01	0	44	104	4039114752	79	10124
2026-01-26 05:20:01.03	335.81	3.32	-54.1	-62.9	3.8	7.46e-01	0	44	104	4039114752	79	10107
2026-01-26 05:20:04.06	335.49	3.13	-54.0	-62.9	3.8	7.44e-01	0	44	104	4039114752	79	10104
2026-01-26 05:20:07.09	335.18	2.95	-54.0	-62.8	3.8	7.46e-01	0	44	104	4039114752	79	10054
2026-01-26 05:20:10.10	334.88	2.76	-54.0	-62.8	3.8	7.44e-01	0	44	104	4039114752	79	10051
2026-01-26 05:20:13.12	334.58	2.57	-54.0	-62.9	3.8	7.46e-01	0	44	104	4039114752	79	10074
2026-01-26 05:20:16.14	334.28	2.39	-54.0	-62.8	3.8	7.45e-01	0	44	104	4039114752	79	10018
2026-01-26 05:20:19.17	333.99	2.21	-54.0	-62.9	3.8	7.46e-01	0	44	104	4039114752	79	10063
2026-01-26 05:20:22.19	333.70	2.02	-54.0	-62.8	3.8	7.46e-01	0	44	104	4039114752	79	10023
2026-01-26 05:20:25.21	333.42	1.84	-54.0	-62.8	3.8	7.45e-01	0	44	104	4039114752	79	9993

#Closed at: 2026-01-26 05:20:25
#Recorded file [4039 MB]: D:/lorett/data/31041_260126_081123.dat