passes_logs/2026/01/26/R3.2S_Murmansk/R3.2S_Murmansk__20260126_042607_AQUA_rec.log

#Pass ID: 20260126_042607_AQUA
#Satellite: AQUA
#Configuration: AQUA
#almurnet v.1.7.20251203
#Start time: 2026-01-26 04:26:06

#Version: 2.2.20231116
#Station: R3.2S_Murmansk
#Location: 33.079688 lon 68.888172 lat
#TLE: 1 27424U 02022A   26025.50647354  .00001868  00000+0  38363-3 0  9992
#TLE: 2 27424  98.4099 352.1114 0001896  65.7986  47.0097 14.61858879262422

#Time	Az	El	Level	Level2	SNR	BER	BlckErr	Temp	State	Recorded	gain1	gain2
2026-01-26 04:26:06.86	32.66	1.97	-55.4	-73.3	3.8	7.44e-01	0	41	0	0	81	29736
2026-01-26 04:26:09.86	32.50	2.15	-55.5	-73.4	3.8	7.48e-01	0	41	104	0	81	30068
2026-01-26 04:26:12.89	32.34	2.34	-55.6	-73.4	3.8	7.48e-01	0	41	104	0	81	30292
2026-01-26 04:26:15.91	32.17	2.53	-55.6	-73.4	3.8	7.46e-01	0	42	104	0	81	30327
2026-01-26 04:26:18.93	32.00	2.72	-55.5	-73.3	3.8	7.46e-01	0	41	104	0	81	29859
2026-01-26 04:26:21.95	31.82	2.91	-55.4	-73.2	3.8	7.45e-01	0	42	104	0	81	29464
2026-01-26 04:26:24.98	31.65	3.11	-55.2	-73.0	3.8	7.42e-01	0	41	104	0	81	28905
2026-01-26 04:26:28.00	31.47	3.30	-54.9	-72.5	3.8	7.48e-01	0	42	104	0	81	27359
2026-01-26 04:26:31.02	31.29	3.50	-54.2	-71.5	3.8	7.44e-01	0	42	104	0	80	25666
2026-01-26 04:26:34.04	31.10	3.69	-53.6	-70.5	3.8	7.45e-01	0	42	104	0	79	24305
2026-01-26 04:26:37.06	30.91	3.89	-53.6	-70.8	3.8	7.44e-01	0	42	104	0	79	25118
2026-01-26 04:26:40.09	30.72	4.09	-53.3	-65.0	5.4	6.99e-01	0	42	0	0	78	13649
2026-01-26 04:26:43.12	30.53	4.30	-53.0	-62.2	7.6	6.53e-01	183	42	0	4718592	78	9936
2026-01-26 04:26:46.13	30.33	4.50	-53.1	-62.7	7.2	6.58e-01	181	42	0	10485760	78	10499
2026-01-26 04:26:49.16	30.13	4.70	-52.6	-60.0	10.1	6.19e-01	0	42	0	16252928	77	8087
2026-01-26 04:26:52.18	29.93	4.91	-51.7	-56.8	13.3	6.04e-01	0	42	0	22020096	75	6311
2026-01-26 04:26:55.20	29.72	5.11	-49.4	-52.1	17.4	6.01e-01	0	42	0	27787264	70	4900
2026-01-26 04:26:58.23	29.51	5.32	-49.4	-51.9	16.3	6.02e-01	0	42	0	31457280	70	4803
2026-01-26 04:27:01.26	29.30	5.53	-46.0	-47.5	21.7	6.06e-01	0	42	0	37224448	64	4090
2026-01-26 04:27:04.27	29.08	5.74	-45.9	-47.4	22.1	6.02e-01	0	42	0	42991616	63	4282
2026-01-26 04:27:07.29	28.86	5.96	-45.9	-47.5	22.2	6.01e-01	0	42	0	48758784	63	4297
2026-01-26 04:27:10.31	28.64	6.17	-45.6	-47.1	23.2	6.01e-01	0	42	0	54001664	63	4113
2026-01-26 04:27:13.33	28.41	6.39	-45.5	-46.9	23.3	6.03e-01	0	42	0	59768832	63	4031
2026-01-26 04:27:16.35	28.18	6.60	-45.4	-46.8	23.6	6.01e-01	0	42	0	65536000	62	4195
2026-01-26 04:27:19.37	27.94	6.82	-45.3	-46.7	23.6	6.04e-01	0	42	0	71303168	62	4157
2026-01-26 04:27:22.39	27.70	7.04	-45.1	-46.5	24.0	6.04e-01	0	42	0	77070336	62	4075
2026-01-26 04:27:25.41	27.46	7.27	-45.0	-46.3	23.8	6.04e-01	0	42	0	82313216	61	4235
2026-01-26 04:27:28.42	27.21	7.49	-45.0	-46.4	23.7	6.00e-01	0	42	0	88080384	61	4249
2026-01-26 04:27:31.45	26.96	7.71	-44.8	-46.1	24.4	6.05e-01	0	43	0	93847552	61	4126
2026-01-26 04:27:34.47	26.70	7.94	-45.0	-46.3	23.4	6.03e-01	0	43	0	99614720	61	4221
2026-01-26 04:27:37.49	26.44	8.17	-44.7	-46.0	24.5	6.04e-01	0	42	0	105381888	61	4078
2026-01-26 04:27:40.52	26.17	8.40	-44.8	-46.1	24.6	6.05e-01	0	43	0	110624768	61	4145
2026-01-26 04:27:43.54	25.90	8.64	-44.7	-46.0	24.6	6.03e-01	0	43	0	116391936	61	4075
2026-01-26 04:27:46.56	25.62	8.87	-44.8	-46.1	24.2	6.02e-01	0	43	0	122159104	61	4121
2026-01-26 04:27:49.59	25.34	9.11	-44.8	-46.1	23.9	6.04e-01	0	43	0	127926272	61	4099
2026-01-26 04:27:52.61	25.05	9.35	-44.6	-45.9	24.0	6.04e-01	0	43	0	133693440	61	4032
2026-01-26 04:27:55.63	24.76	9.59	-44.4	-45.7	23.2	6.04e-01	0	43	0	138936320	60	4166
2026-01-26 04:27:58.65	24.46	9.83	-44.5	-45.7	22.6	6.02e-01	0	43	0	144703488	60	4179
2026-01-26 04:28:01.66	24.16	10.07	-44.2	-45.5	22.3	6.00e-01	0	43	0	150470656	60	4055
2026-01-26 04:28:04.68	23.85	10.32	-44.3	-45.5	22.8	6.02e-01	0	43	0	156237824	60	4059
2026-01-26 04:28:07.71	23.54	10.56	-44.4	-45.6	23.2	6.04e-01	0	43	0	162004992	60	4117
2026-01-26 04:28:10.72	23.22	10.81	-44.2	-45.5	24.4	6.01e-01	0	43	0	167247872	60	4053
2026-01-26 04:28:13.74	22.89	11.07	-44.2	-45.4	24.6	6.02e-01	0	43	0	173015040	60	4017
2026-01-26 04:28:16.76	22.56	11.32	-44.3	-45.5	24.9	6.03e-01	0	43	0	178782208	60	4084
2026-01-26 04:28:19.78	22.22	11.57	-44.2	-45.4	25.6	6.03e-01	0	43	0	184549376	60	4012
2026-01-26 04:28:22.80	21.87	11.83	-44.1	-45.3	25.7	6.00e-01	0	43	0	190316544	59	4207
2026-01-26 04:28:25.82	21.52	12.09	-44.0	-45.2	25.9	6.05e-01	0	43	0	195559424	59	4148
2026-01-26 04:28:28.83	21.16	12.35	-44.0	-45.2	25.9	6.04e-01	0	43	0	201326592	59	4173
2026-01-26 04:28:31.85	20.79	12.62	-43.9	-45.1	26.0	6.03e-01	0	43	0	207093760	59	4117
2026-01-26 04:28:34.87	20.42	12.88	-44.0	-45.1	25.9	6.04e-01	0	43	0	212860928	59	4140
2026-01-26 04:28:37.89	20.03	13.15	-43.9	-45.0	26.0	6.02e-01	0	43	0	218628096	59	4096
2026-01-26 04:28:40.91	19.64	13.42	-43.8	-44.9	26.1	6.00e-01	0	43	0	223870976	59	4049
2026-01-26 04:28:43.93	19.25	13.69	-43.8	-45.0	26.2	6.03e-01	0	43	0	229638144	59	4054
2026-01-26 04:28:46.94	18.84	13.97	-43.8	-45.0	26.2	6.04e-01	0	43	0	235405312	59	4062
2026-01-26 04:28:49.96	18.43	14.24	-44.0	-45.1	26.0	6.00e-01	0	43	0	241172480	59	4133
2026-01-26 04:28:52.98	18.00	14.52	-43.9	-45.0	26.1	6.03e-01	0	43	0	246939648	59	4093
2026-01-26 04:28:56.00	17.57	14.80	-44.0	-45.2	26.0	6.02e-01	0	43	0	252182528	59	4148
2026-01-26 04:28:59.03	17.13	15.08	-43.9	-45.0	26.1	6.03e-01	0	43	0	257949696	59	4085
2026-01-26 04:29:02.05	16.68	15.37	-43.9	-45.0	26.2	6.06e-01	0	43	0	263716864	59	4089
2026-01-26 04:29:05.07	16.22	15.65	-43.8	-45.0	26.3	6.03e-01	0	43	0	269484032	59	4055
2026-01-26 04:29:08.09	15.75	15.94	-43.8	-44.9	26.2	6.03e-01	0	43	0	275251200	59	4025
2026-01-26 04:29:11.10	15.27	16.23	-43.6	-44.8	26.3	6.03e-01	0	43	0	280494080	59	3961
2026-01-26 04:29:14.11	14.79	16.52	-43.5	-44.6	26.3	6.05e-01	0	43	0	286261248	59	3898
2026-01-26 04:29:17.14	14.29	16.81	-43.7	-44.8	26.0	6.05e-01	0	43	0	292028416	59	3999
2026-01-26 04:29:20.16	13.78	17.11	-43.7	-44.8	25.9	6.04e-01	0	43	0	297795584	59	3994
2026-01-26 04:29:23.18	13.25	17.41	-43.7	-44.8	26.0	6.02e-01	0	43	0	303562752	59	3994
2026-01-26 04:29:26.19	12.72	17.70	-43.7	-44.9	26.0	6.02e-01	0	43	0	308805632	59	4015
2026-01-26 04:29:29.21	12.18	18.00	-43.6	-44.7	26.3	6.04e-01	0	43	0	314572800	59	3938
2026-01-26 04:29:32.24	11.62	18.30	-43.7	-44.9	26.1	6.03e-01	0	43	0	320339968	59	4007
2026-01-26 04:29:35.26	11.05	18.61	-43.8	-44.9	26.0	6.03e-01	0	43	0	326107136	59	4028
2026-01-26 04:29:38.28	10.47	18.91	-43.7	-44.9	26.2	6.04e-01	0	43	0	331874304	59	4012
2026-01-26 04:29:41.30	9.88	19.21	-43.7	-44.8	26.3	6.03e-01	0	43	0	337117184	59	4002
2026-01-26 04:29:44.31	9.28	19.52	-43.6	-44.8	26.5	6.05e-01	0	43	0	342884352	59	3960
2026-01-26 04:29:47.33	8.66	19.83	-43.6	-44.8	26.5	6.04e-01	0	43	0	348651520	59	3971
2026-01-26 04:29:50.35	8.03	20.13	-44.0	-45.2	26.2	6.01e-01	0	43	0	354418688	59	4155
2026-01-26 04:29:53.36	7.38	20.44	-43.8	-45.0	26.3	6.06e-01	0	43	0	360185856	59	4056
2026-01-26 04:29:56.38	6.73	20.75	-44.0	-45.1	26.0	6.03e-01	0	43	0	365428736	59	4142
2026-01-26 04:29:59.41	6.05	21.06	-44.1	-45.2	26.1	5.99e-01	0	43	0	371195904	59	4177
2026-01-26 04:30:02.43	5.36	21.36	-43.8	-44.9	26.1	6.05e-01	0	43	0	376963072	59	4028
2026-01-26 04:30:05.45	4.66	21.67	-43.8	-45.0	26.1	6.01e-01	0	43	0	382730240	59	4063
2026-01-26 04:30:08.46	3.94	21.98	-44.0	-45.1	25.8	6.05e-01	0	43	0	388497408	59	4136
2026-01-26 04:30:11.48	3.21	22.28	-44.1	-45.3	25.7	6.03e-01	0	43	0	393740288	59	4203
2026-01-26 04:30:14.51	2.46	22.59	-44.0	-45.1	25.8	6.01e-01	0	43	0	399507456	59	4142
2026-01-26 04:30:17.53	1.69	22.90	-44.0	-45.2	25.8	6.05e-01	0	43	0	405274624	59	4165
2026-01-26 04:30:20.54	0.92	23.20	-44.1	-45.3	25.8	6.02e-01	0	43	0	411041792	59	4211
2026-01-26 04:30:23.56	0.12	23.50	-44.0	-45.2	25.9	6.02e-01	0	43	0	416284672	59	4147
2026-01-26 04:30:26.58	359.31	23.80	-44.2	-45.3	25.9	6.03e-01	0	43	0	422051840	59	4224
2026-01-26 04:30:29.60	358.48	24.09	-44.0	-45.1	26.1	6.03e-01	0	43	0	427819008	59	4141
2026-01-26 04:30:32.61	357.63	24.39	-44.4	-55.2	3.8	7.45e-01	0	43	104	433061888	59	13134
2026-01-26 04:30:35.63	356.77	24.68	-45.0	-55.6	3.9	7.39e-01	0	43	104	433061888	60	13082
2026-01-26 04:30:38.66	355.89	24.97	-45.5	-56.3	3.7	7.47e-01	0	43	104	433061888	63	11922
2026-01-26 04:30:41.67	355.00	25.25	-46.2	-57.1	3.8	7.47e-01	0	43	104	433061888	63	13082
2026-01-26 04:30:44.70	354.08	25.53	-51.9	-64.6	3.8	7.46e-01	0	43	104	433061888	74	16503
2026-01-26 04:30:47.71	353.15	25.80	-46.5	-57.5	3.7	7.57e-01	0	43	104	433061888	65	12115
2026-01-26 04:30:50.73	352.21	26.07	-49.7	-61.1	3.7	7.51e-01	0	43	104	433061888	69	14672
2026-01-26 04:30:53.75	351.24	26.33	-51.8	-64.2	3.8	7.45e-01	0	43	104	433061888	75	14838
2026-01-26 04:30:56.77	350.26	26.59	-44.3	-55.0	3.9	7.41e-01	0	43	104	433061888	60	12148
2026-01-26 04:30:59.80	349.26	26.84	-46.2	-57.1	3.8	7.45e-01	0	43	104	433061888	63	13075
2026-01-26 04:31:02.82	348.25	27.09	-44.1	-54.7	3.8	7.45e-01	0	43	104	433061888	60	11725
2026-01-26 04:31:05.84	347.22	27.32	-44.1	-54.8	3.8	7.46e-01	0	43	104	433061888	60	11823
2026-01-26 04:31:08.86	346.17	27.55	-54.8	-71.8	3.7	7.41e-01	0	43	104	433061888	80	26574
2026-01-26 04:31:11.88	345.11	27.77	-44.0	-54.6	3.8	7.45e-01	0	43	104	433061888	59	12359
2026-01-26 04:31:14.90	344.04	27.98	-44.7	-55.4	3.8	7.45e-01	0	43	104	433061888	59	13516
2026-01-26 04:31:17.92	342.95	28.18	-44.6	-55.4	3.8	7.48e-01	0	43	104	433061888	61	11980
2026-01-26 04:31:20.94	341.84	28.37	-44.0	-54.5	3.8	7.47e-01	0	43	104	433061888	59	12234
2026-01-26 04:31:23.96	340.72	28.55	-46.1	-56.9	3.8	7.42e-01	0	43	104	433061888	64	12094
2026-01-26 04:31:26.98	339.59	28.72	-44.5	-55.2	3.8	7.42e-01	0	43	104	433061888	59	13172
2026-01-26 04:31:30.01	338.45	28.88	-44.0	-54.6	3.8	7.47e-01	0	44	104	433061888	59	12326
2026-01-26 04:31:33.03	337.29	29.03	-55.0	-72.3	3.8	7.47e-01	0	44	104	433061888	80	28237
2026-01-26 04:31:36.05	336.13	29.17	-44.3	-55.0	3.8	7.42e-01	0	43	104	433061888	60	12104
2026-01-26 04:31:39.08	334.95	29.29	-44.6	-55.3	3.8	7.44e-01	0	43	104	433061888	60	12632
2026-01-26 04:31:42.11	333.76	29.40	-44.5	-55.3	3.8	7.45e-01	0	43	104	433061888	61	11847
2026-01-26 04:31:45.13	332.57	29.50	-44.2	-54.9	3.8	7.44e-01	0	43	104	433061888	60	12015
2026-01-26 04:31:48.15	331.37	29.58	-45.7	-56.4	3.8	7.45e-01	0	43	104	433061888	63	12072
2026-01-26 04:31:51.17	330.16	29.65	-45.0	-55.7	3.8	7.44e-01	0	43	104	433061888	60	13201
2026-01-26 04:31:54.20	328.95	29.71	-44.1	-54.8	3.8	7.46e-01	0	43	104	433061888	60	11871
2026-01-26 04:31:57.22	327.73	29.75	-52.0	-64.6	3.9	7.42e-01	0	44	104	433061888	76	14604
2026-01-26 04:32:00.23	326.52	29.78	-44.7	-55.4	3.8	7.44e-01	0	43	104	433061888	61	12024
2026-01-26 04:32:03.22	325.31	29.80	-51.7	-64.2	3.8	7.43e-01	0	43	104	433061888	75	14855
2026-01-26 04:32:06.24	324.10	29.80	-50.6	-62.5	3.9	7.40e-01	0	43	104	433061888	73	13600
2026-01-26 04:32:09.26	322.88	29.78	-44.3	-54.9	3.8	7.44e-01	0	43	104	433061888	60	11970
2026-01-26 04:32:12.29	321.65	29.76	-46.2	-57.2	3.8	7.43e-01	0	43	104	433061888	64	12383
2026-01-26 04:32:15.31	320.44	29.71	-53.4	-67.3	3.9	7.45e-01	0	44	104	433061888	79	16754
2026-01-26 04:32:18.33	319.23	29.66	-45.1	-55.9	3.8	7.48e-01	0	44	104	433061888	61	12669
2026-01-26 04:32:21.35	318.02	29.59	-54.3	-69.7	3.9	7.44e-01	0	43	104	433061888	80	20953
2026-01-26 04:32:24.37	316.82	29.51	-44.6	-55.4	3.8	7.46e-01	0	43	104	433061888	61	11999
2026-01-26 04:32:27.39	315.63	29.41	-45.0	-55.6	3.8	7.44e-01	0	43	104	433061888	62	11633
2026-01-26 04:32:30.41	314.44	29.30	-45.1	-56.0	3.8	7.45e-01	0	43	104	433061888	61	12883
2026-01-26 04:32:33.44	313.26	29.18	-44.9	-55.5	3.8	7.45e-01	0	44	104	433061888	61	12100
2026-01-26 04:32:36.47	312.09	29.04	-48.7	-60.0	3.8	7.43e-01	0	43	104	433061888	67	14411
2026-01-26 04:32:39.49	310.93	28.90	-45.2	-55.8	3.8	7.46e-01	0	44	104	433061888	61	12524
2026-01-26 04:32:42.51	309.79	28.74	-44.6	-55.2	3.8	7.46e-01	0	43	104	433061888	61	11745
2026-01-26 04:32:45.54	308.65	28.57	-46.5	-57.6	3.9	7.39e-01	0	44	104	433061888	65	12326
2026-01-26 04:32:48.57	307.53	28.39	-45.0	-55.3	3.8	7.45e-01	0	43	104	433061888	61	11898
2026-01-26 04:32:51.59	306.42	28.20	-45.8	-56.6	3.9	7.45e-01	0	43	104	433061888	63	12300
2026-01-26 04:32:54.61	305.33	28.00	-50.9	-63.2	3.8	7.49e-01	0	44	104	433061888	72	15711
2026-01-26 04:32:57.63	304.25	27.79	-44.9	-55.4	3.8	7.45e-01	0	43	104	433061888	61	12060
2026-01-26 04:33:00.65	303.18	27.57	-52.1	-64.3	3.8	7.46e-01	0	44	104	433061888	74	15857
2026-01-26 04:33:03.68	302.13	27.34	-45.8	-56.8	3.9	7.46e-01	0	43	104	433061888	63	12615
2026-01-26 04:33:06.70	301.10	27.11	-45.4	-56.4	3.8	7.43e-01	0	43	104	433061888	62	12757
2026-01-26 04:33:09.73	300.08	26.86	-46.8	-57.9	3.9	7.41e-01	0	44	104	433061888	65	12790
2026-01-26 04:33:12.75	299.08	26.61	-45.7	-56.0	3.8	7.43e-01	0	43	104	433061888	63	11426
2026-01-26 04:33:15.76	298.10	26.36	-47.0	-58.9	3.8	7.46e-01	0	43	104	433061888	66	13543
2026-01-26 04:33:18.79	297.13	26.09	-46.1	-56.6	3.8	7.42e-01	0	43	104	433061888	63	12309
2026-01-26 04:33:21.81	296.18	25.82	-45.9	-56.0	3.8	7.42e-01	0	43	104	433061888	63	11450
2026-01-26 04:33:24.83	295.25	25.55	-52.6	-65.4	3.8	7.44e-01	0	43	104	433061888	75	16901
2026-01-26 04:33:27.86	294.33	25.27	-45.9	-57.0	3.8	7.45e-01	0	43	104	433061888	63	12944
2026-01-26 04:33:30.88	293.43	24.99	-52.3	-65.1	3.8	7.42e-01	0	43	104	433061888	75	16361
2026-01-26 04:33:33.90	292.54	24.70	-50.9	-63.2	3.8	7.43e-01	0	43	104	433061888	73	14793
2026-01-26 04:33:36.93	291.68	24.41	-45.8	-56.8	3.8	7.44e-01	0	43	104	433061888	63	12576
2026-01-26 04:33:39.95	290.83	24.11	-46.2	-56.6	3.9	7.43e-01	0	43	104	433061888	63	12331
2026-01-26 04:33:42.97	289.99	23.82	-47.4	-58.6	3.8	7.47e-01	0	43	104	433061888	65	13863
2026-01-26 04:33:46.00	289.18	23.51	-45.6	-56.5	3.9	7.42e-01	0	43	104	433061888	63	12185
2026-01-26 04:33:49.02	288.38	23.21	-54.6	-70.3	3.8	7.45e-01	0	43	104	433061888	79	23822
2026-01-26 04:33:52.04	287.59	22.91	-45.4	-55.7	3.8	7.43e-01	0	43	104	433061888	62	11720
2026-01-26 04:33:55.07	286.82	22.60	-48.6	-60.5	3.8	7.43e-01	0	43	104	433061888	68	14484
2026-01-26 04:33:58.09	286.07	22.30	-48.5	-59.9	3.9	7.46e-01	0	44	104	433061888	69	12782
2026-01-26 04:34:01.10	285.34	21.99	-45.2	-55.3	3.8	7.44e-01	0	43	104	433061888	62	11255
2026-01-26 04:34:04.13	284.61	21.68	-45.7	-56.9	3.8	7.43e-01	0	43	104	433061888	63	12743
2026-01-26 04:34:07.15	283.91	21.37	-48.5	-60.4	3.8	7.40e-01	0	44	104	433061888	68	14286
2026-01-26 04:34:10.17	283.22	21.06	-45.3	-56.4	3.8	7.44e-01	0	43	104	433061888	62	12693
2026-01-26 04:34:13.20	282.54	20.75	-53.6	-67.8	3.9	7.44e-01	0	44	104	433061888	78	18825
2026-01-26 04:34:16.22	281.88	20.45	-45.2	-55.5	3.8	7.47e-01	0	43	104	433061888	62	11484
2026-01-26 04:34:19.25	281.23	20.14	-46.6	-57.2	3.8	7.44e-01	0	43	104	433061888	65	11740
2026-01-26 04:34:22.27	280.59	19.83	-45.7	-56.1	3.8	7.44e-01	0	43	104	433061888	63	11619
2026-01-26 04:34:25.29	279.97	19.52	-45.3	-56.4	3.8	7.44e-01	0	43	104	433061888	62	12754
2026-01-26 04:34:28.32	279.36	19.21	-45.2	-56.4	3.8	7.44e-01	0	43	104	433061888	62	12792
2026-01-26 04:34:31.34	278.77	18.91	-48.3	-59.9	3.9	7.46e-01	0	43	104	433061888	68	13490
2026-01-26 04:34:34.36	278.18	18.60	-45.2	-55.7	3.8	7.44e-01	0	43	104	433061888	62	11780
2026-01-26 04:34:37.38	277.61	18.30	-49.1	-62.8	4.0	7.43e-01	0	43	104	433061888	70	16720
2026-01-26 04:34:40.40	277.06	18.00	-45.6	-56.7	3.9	7.44e-01	0	43	104	433061888	63	12381
2026-01-26 04:34:43.42	276.51	17.70	-50.0	-62.0	3.8	7.43e-01	0	43	104	433061888	72	13639
2026-01-26 04:34:46.44	275.97	17.40	-45.9	-56.4	3.8	7.45e-01	0	44	104	433061888	62	12798
2026-01-26 04:34:49.46	275.45	17.10	-45.2	-56.3	3.8	7.42e-01	0	44	104	433061888	62	12582
2026-01-26 04:34:52.49	274.94	16.81	-47.9	-59.0	3.8	7.43e-01	0	43	104	433061888	66	13641
2026-01-26 04:34:55.51	274.44	16.51	-47.0	-58.4	3.9	7.43e-01	0	44	104	433061888	66	12776
2026-01-26 04:34:58.53	273.94	16.22	-45.4	-56.0	3.8	7.42e-01	0	43	104	433061888	62	12174
2026-01-26 04:35:01.55	273.46	15.93	-48.6	-60.1	3.8	7.46e-01	0	43	104	433061888	69	13053
2026-01-26 04:35:04.57	272.99	15.64	-45.5	-56.3	3.8	7.45e-01	0	43	104	433061888	63	11881
2026-01-26 04:35:07.59	272.53	15.35	-45.5	-56.4	3.8	7.48e-01	0	44	104	433061888	62	12800
2026-01-26 04:35:10.62	272.08	15.07	-47.5	-58.6	3.8	7.45e-01	0	44	104	433061888	65	13770
2026-01-26 04:35:13.64	271.63	14.79	-45.4	-56.2	3.8	7.45e-01	0	43	104	433061888	62	12478
2026-01-26 04:35:16.67	271.20	14.50	-51.4	-64.0	3.8	7.48e-01	0	43	104	433061888	73	16176
2026-01-26 04:35:19.68	270.78	14.23	-45.5	-56.1	3.8	7.45e-01	0	43	104	433061888	63	11623
2026-01-26 04:35:22.71	270.36	13.95	-48.5	-59.7	3.9	7.43e-01	0	44	104	433061888	67	14008
2026-01-26 04:35:25.73	269.95	13.67	-47.1	-58.2	3.9	7.44e-01	0	43	104	433061888	66	12505
2026-01-26 04:35:28.76	269.55	13.40	-45.3	-56.2	3.8	7.45e-01	0	43	104	433061888	62	12383
2026-01-26 04:35:31.78	269.16	13.13	-46.7	-58.0	3.8	7.45e-01	0	43	104	433061888	64	13618
2026-01-26 04:35:34.80	268.77	12.86	-50.7	-62.7	3.8	7.46e-01	0	43	104	433061888	71	15660
2026-01-26 04:35:37.83	268.39	12.59	-45.3	-56.1	3.8	7.46e-01	0	43	104	433061888	62	12322
2026-01-26 04:35:40.85	268.03	12.33	-52.0	-64.9	3.8	7.45e-01	0	44	104	433061888	74	17041
2026-01-26 04:35:43.87	267.66	12.07	-45.6	-56.5	3.8	7.43e-01	0	43	104	433061888	63	12176
2026-01-26 04:35:46.89	267.31	11.81	-49.6	-61.4	3.9	7.44e-01	0	43	104	433061888	69	15150
2026-01-26 04:35:49.91	266.96	11.55	-46.8	-57.8	3.8	7.44e-01	0	43	104	433061888	65	12562
2026-01-26 04:35:52.94	266.62	11.29	-45.6	-56.4	3.8	7.44e-01	0	44	104	433061888	63	12034
2026-01-26 04:35:55.94	266.29	11.04	-48.4	-59.7	3.9	7.47e-01	0	43	104	433061888	68	13229
2026-01-26 04:35:58.97	265.96	10.79	-52.5	-66.3	3.8	7.43e-01	0	43	104	433061888	75	18861
2026-01-26 04:36:01.99	265.63	10.54	-46.0	-56.9	3.8	7.48e-01	0	43	104	433061888	63	12766
2026-01-26 04:36:05.01	265.32	10.29	-52.4	-65.9	3.8	7.48e-01	0	43	104	433061888	75	18016
2026-01-26 04:36:08.04	265.01	10.04	-46.4	-57.2	3.8	7.46e-01	0	44	104	433061888	64	12517
2026-01-26 04:36:11.06	264.70	9.80	-49.6	-61.4	3.9	7.49e-01	0	43	104	433061888	70	14288
2026-01-26 04:36:14.08	264.40	9.55	-47.7	-59.0	3.8	7.45e-01	0	43	104	433061888	67	12906
2026-01-26 04:36:17.10	264.11	9.31	-46.6	-57.6	3.8	7.49e-01	0	43	104	433061888	65	12329
2026-01-26 04:36:20.13	263.82	9.07	-47.6	-58.9	3.8	7.47e-01	0	43	104	433061888	66	13520
2026-01-26 04:36:23.15	263.54	8.84	-51.8	-65.0	3.9	7.43e-01	0	43	104	433061888	75	16203
2026-01-26 04:36:26.16	263.26	8.60	-45.9	-56.9	3.8	7.45e-01	0	44	104	433061888	63	12799
2026-01-26 04:36:29.19	262.98	8.37	-51.6	-64.6	3.8	7.44e-01	0	44	104	433061888	75	15540
2026-01-26 04:36:32.21	262.72	8.14	-47.1	-58.2	3.9	7.42e-01	0	43	104	433061888	66	12484
2026-01-26 04:36:35.24	262.45	7.91	-47.7	-58.9	3.8	7.46e-01	0	43	104	433061888	66	13519
2026-01-26 04:36:38.26	262.19	7.68	-47.2	-58.5	3.9	7.48e-01	0	43	104	433061888	66	12833
2026-01-26 04:36:41.27	261.94	7.45	-46.4	-57.3	3.8	7.45e-01	0	44	104	433061888	64	12629
2026-01-26 04:36:44.29	261.69	7.23	-47.0	-58.2	3.8	7.44e-01	0	43	104	433061888	66	12516
2026-01-26 04:36:47.31	261.44	7.01	-50.0	-62.2	3.8	7.48e-01	0	43	104	433061888	72	13910
2026-01-26 04:36:50.34	261.20	6.79	-46.8	-57.9	3.8	7.44e-01	0	43	104	433061888	64	13498
2026-01-26 04:36:53.36	260.96	6.57	-50.4	-62.5	3.8	7.44e-01	0	44	104	433061888	72	14512
2026-01-26 04:36:56.39	260.73	6.35	-47.1	-58.2	3.8	7.47e-01	0	43	104	433061888	66	12453
2026-01-26 04:36:59.41	260.50	6.13	-46.8	-57.8	3.8	7.43e-01	0	43	104	433061888	65	12592
2026-01-26 04:37:02.42	260.28	5.92	-46.9	-58.0	3.8	7.46e-01	0	43	104	433061888	65	12891
2026-01-26 04:37:05.44	260.05	5.70	-46.4	-57.5	3.8	7.46e-01	0	43	104	433061888	64	12854
2026-01-26 04:37:08.47	259.83	5.49	-48.5	-60.0	3.8	7.45e-01	0	43	104	433061888	67	14413
2026-01-26 04:37:11.49	259.62	5.28	-48.5	-60.2	3.9	7.47e-01	0	44	104	433061888	69	13167
2026-01-26 04:37:14.51	259.41	5.07	-47.1	-58.3	3.9	7.38e-01	0	43	104	433061888	65	13303
2026-01-26 04:37:17.54	259.20	4.87	-54.2	-72.0	3.8	7.47e-01	0	43	104	433061888	78	30564
2026-01-26 04:37:20.56	259.00	4.66	-54.4	-72.1	3.8	7.47e-01	0	44	104	433061888	79	29282
2026-01-26 04:37:23.58	258.79	4.46	-54.2	-72.0	3.8	7.48e-01	0	44	104	433061888	79	28908
2026-01-26 04:37:26.61	258.60	4.25	-54.5	-72.3	3.8	7.43e-01	0	44	104	433061888	79	29866
2026-01-26 04:37:29.63	258.40	4.05	-54.6	-72.5	3.8	7.46e-01	0	43	104	433061888	79	30551
2026-01-26 04:37:32.65	258.21	3.85	-54.7	-72.5	3.8	7.42e-01	0	44	104	433061888	80	29005
2026-01-26 04:37:35.68	258.02	3.65	-54.8	-72.6	3.8	7.45e-01	0	43	104	433061888	80	29250
2026-01-26 04:37:38.71	257.83	3.45	-54.8	-72.6	3.8	7.45e-01	0	44	104	433061888	80	29132
2026-01-26 04:37:41.74	257.65	3.26	-54.8	-72.6	3.8	7.46e-01	0	44	104	433061888	80	29164
2026-01-26 04:37:44.76	257.47	3.06	-54.7	-72.6	3.8	7.45e-01	0	44	104	433061888	80	29083
2026-01-26 04:37:47.78	257.29	2.87	-54.7	-72.6	3.8	7.45e-01	0	43	104	433061888	80	29063
2026-01-26 04:37:50.80	257.12	2.68	-54.7	-72.5	3.8	7.45e-01	0	44	104	433061888	80	28991
2026-01-26 04:37:53.82	256.94	2.49	-54.7	-72.5	3.8	7.43e-01	0	43	104	433061888	80	29001
2026-01-26 04:37:56.85	256.77	2.29	-54.7	-72.5	3.8	7.46e-01	0	44	104	433061888	80	28946
2026-01-26 04:37:59.87	256.61	2.11	-54.7	-72.5	3.8	7.47e-01	0	44	104	433061888	80	28914

#Closed at: 2026-01-26 04:38:02
#Recorded file [433 MB]: D:/lorett/data/31041_260126_072606.dat