passes_logs/2026/01/26/R3.2S_Murmansk/R3.2S_Murmansk__20260126_214611_NOAA_20_JPSS-1_rec.log

#Pass ID: 20260126_214611_NOAA 20 (JPSS-1)
#Satellite: NOAA 20 (JPSS-1)
#Configuration: NOAA 20
#almurnet v.1.7.20251203
#Start time: 2026-01-26 21:46:11

#Version: 2.2.20231116
#Station: R3.2S_Murmansk
#Location: 33.079688 lon 68.888172 lat
#TLE: 1 43013U 17073A   26026.46665230  .00000148  00000+0  91302-4 0  9998
#TLE: 2 43013  98.7646 327.2856 0001008  22.9532 337.1688 14.19540616424360

#Time	Az	El	Level	Level2	SNR	BER	BlckErr	Temp	State	Recorded	gain1	gain2
2026-01-26 21:46:11.73	18.42	2.03	-54.3	-69.3	3.8	1.49e+00	0	43	0	0	79	21065
2026-01-26 21:46:14.73	18.68	2.18	-54.4	-69.4	3.8	1.49e+00	0	43	104	0	79	21329
2026-01-26 21:46:17.76	18.94	2.33	-54.3	-69.3	3.8	1.49e+00	0	43	104	0	79	21258
2026-01-26 21:46:20.78	19.21	2.48	-54.3	-69.3	3.8	1.49e+00	0	43	104	0	79	21027
2026-01-26 21:46:23.80	19.48	2.63	-54.2	-69.2	3.8	1.49e+00	0	43	104	0	79	20790
2026-01-26 21:46:26.82	19.75	2.78	-54.0	-69.0	3.8	1.49e+00	0	43	104	0	79	20354
2026-01-26 21:46:29.84	20.02	2.93	-53.7	-68.7	3.8	1.49e+00	0	43	104	0	79	19663
2026-01-26 21:46:32.85	20.29	3.09	-53.1	-68.1	3.8	1.49e+00	0	43	104	0	78	19429
2026-01-26 21:46:35.88	20.57	3.24	-52.4	-67.2	3.8	1.49e+00	0	43	104	0	76	19731
2026-01-26 21:46:38.91	20.85	3.39	-52.4	-67.2	3.8	1.49e+00	0	43	104	0	76	19765
2026-01-26 21:46:41.93	21.13	3.55	-52.3	-67.1	3.8	1.49e+00	0	43	104	0	76	19589
2026-01-26 21:46:44.95	21.42	3.70	-52.3	-67.1	3.8	1.49e+00	0	43	104	0	76	19566
2026-01-26 21:46:47.98	21.71	3.85	-52.3	-67.3	3.8	1.49e+00	0	43	104	0	76	19845
2026-01-26 21:46:51.01	22.00	4.01	-52.3	-67.3	3.8	1.49e+00	0	43	104	0	76	19944
2026-01-26 21:46:54.04	22.30	4.16	-52.3	-67.0	3.8	1.49e+00	0	43	104	0	76	19343
2026-01-26 21:46:57.06	22.60	4.32	-52.3	-65.6	3.8	1.49e+00	0	43	104	0	76	16426
2026-01-26 21:47:00.08	22.90	4.47	-52.1	-62.8	4.5	1.26e+00	16	43	0	0	76	11822
2026-01-26 21:47:03.10	23.20	4.63	-51.4	-58.4	7.6	1.15e-01	0	43	0	6291456	74	7996
2026-01-26 21:47:06.13	23.51	4.78	-50.8	-56.1	9.9	9.73e-03	0	43	0	11534336	73	6543
2026-01-26 21:47:09.15	23.82	4.94	-51.2	-57.5	8.5	3.46e-02	0	43	0	17825792	73	7684
2026-01-26 21:47:12.17	24.13	5.10	-47.5	-49.6	16.7	3.03e-03	0	43	0	23068672	67	4368
2026-01-26 21:47:15.19	24.45	5.25	-52.1	-64.6	4.0	1.49e+00	0	43	104	26214400	75	15551
2026-01-26 21:47:18.21	24.77	5.41	-47.4	-49.4	17.0	0.00e+00	0	43	0	30408704	66	4524
2026-01-26 21:47:21.23	25.09	5.56	-47.2	-49.2	17.2	0.00e+00	0	43	0	36700160	66	4404
2026-01-26 21:47:24.24	25.41	5.72	-47.5	-49.6	16.8	0.00e+00	0	43	0	41943040	66	4650
2026-01-26 21:47:27.26	25.74	5.88	-47.6	-49.8	16.7	0.00e+00	0	43	0	48234496	66	4721
2026-01-26 21:47:30.29	26.08	6.04	-47.2	-49.1	17.3	0.00e+00	0	43	0	53477376	66	4389
2026-01-26 21:47:33.31	26.41	6.19	-47.4	-49.5	17.0	0.00e+00	0	43	0	58720256	66	4551
2026-01-26 21:47:36.33	26.75	6.35	-47.2	-49.1	17.4	0.00e+00	0	43	0	65011712	66	4369
2026-01-26 21:47:39.35	27.10	6.51	-47.1	-49.1	17.5	0.00e+00	0	43	0	70254592	66	4346
2026-01-26 21:47:42.37	27.44	6.67	-47.0	-48.9	17.7	0.00e+00	0	43	0	76546048	66	4262
2026-01-26 21:47:45.39	27.79	6.82	-46.9	-48.7	17.8	0.00e+00	0	43	0	81788928	65	4427
2026-01-26 21:47:48.42	28.15	6.98	-46.8	-48.6	18.0	0.00e+00	0	43	0	87031808	65	4347
2026-01-26 21:47:51.44	28.50	7.14	-46.6	-48.4	18.2	0.00e+00	0	43	0	93323264	65	4250
2026-01-26 21:47:54.46	28.87	7.30	-46.7	-48.4	18.2	0.00e+00	0	43	0	98566144	65	4279
2026-01-26 21:47:57.48	29.23	7.46	-46.7	-48.4	18.2	0.00e+00	0	43	0	104857600	65	4288
2026-01-26 21:48:00.50	29.60	7.61	-46.7	-48.4	18.2	0.00e+00	0	43	0	110100480	65	4270
2026-01-26 21:48:03.52	29.97	7.77	-46.6	-48.3	18.3	0.00e+00	0	43	0	115343360	65	4237
2026-01-26 21:48:06.54	30.35	7.93	-46.7	-48.4	18.3	0.00e+00	0	43	0	121634816	65	4251
2026-01-26 21:48:09.56	30.73	8.09	-46.7	-48.4	18.3	0.00e+00	0	43	0	126877696	65	4261
2026-01-26 21:48:12.58	31.12	8.25	-46.8	-48.5	18.2	0.00e+00	0	43	0	133169152	65	4325
2026-01-26 21:48:15.59	31.50	8.40	-46.9	-48.7	18.1	0.00e+00	0	43	0	138412032	65	4409
2026-01-26 21:48:18.61	31.89	8.56	-46.8	-48.6	18.2	0.00e+00	0	43	0	143654912	65	4341
2026-01-26 21:48:21.63	32.29	8.72	-46.6	-48.3	18.5	0.00e+00	0	43	0	149946368	65	4204
2026-01-26 21:48:24.65	32.69	8.88	-46.5	-48.2	18.6	0.00e+00	0	43	0	155189248	65	4160
2026-01-26 21:48:27.66	33.10	9.03	-46.4	-48.1	18.7	0.00e+00	0	43	0	161480704	64	4351
2026-01-26 21:48:30.68	33.51	9.19	-46.4	-48.0	18.8	0.00e+00	0	43	0	166723584	64	4330
2026-01-26 21:48:33.71	33.92	9.35	-46.1	-47.6	19.1	0.00e+00	0	43	0	171966464	64	4138
2026-01-26 21:48:36.73	34.34	9.50	-46.0	-47.5	19.4	0.00e+00	0	43	0	178257920	63	4317
2026-01-26 21:48:39.76	34.76	9.66	-45.9	-47.4	19.5	0.00e+00	0	44	0	183500800	63	4262
2026-01-26 21:48:42.76	35.19	9.81	-45.9	-47.3	19.6	0.00e+00	0	44	0	189792256	63	4233
2026-01-26 21:48:45.78	35.62	9.97	-45.6	-47.0	19.9	0.00e+00	0	44	0	195035136	63	4091
2026-01-26 21:48:48.81	36.05	10.12	-45.6	-46.9	20.0	0.00e+00	0	44	0	200278016	63	4046
2026-01-26 21:48:51.83	36.49	10.28	-45.5	-46.9	20.1	0.00e+00	0	44	0	206569472	63	4012
2026-01-26 21:48:54.85	36.94	10.43	-45.6	-47.0	20.0	0.00e+00	0	44	0	211812352	63	4073
2026-01-26 21:48:57.88	37.39	10.59	-45.7	-47.1	19.8	0.00e+00	0	44	0	218103808	63	4126
2026-01-26 21:49:00.89	37.84	10.74	-45.8	-47.2	19.8	0.00e+00	0	44	0	223346688	63	4149
2026-01-26 21:49:03.91	38.30	10.89	-45.7	-47.1	19.8	0.00e+00	0	44	0	228589568	63	4127
2026-01-26 21:49:06.94	38.76	11.04	-45.7	-47.0	19.9	0.00e+00	0	44	0	234881024	63	4088
2026-01-26 21:49:09.96	39.23	11.19	-45.8	-47.2	19.8	0.00e+00	0	44	0	240123904	63	4162
2026-01-26 21:49:12.98	39.70	11.34	-45.8	-47.2	19.7	0.00e+00	0	44	0	246415360	63	4170
2026-01-26 21:49:16.00	40.18	11.49	-45.6	-47.0	20.0	0.00e+00	0	44	0	251658240	62	4320
2026-01-26 21:49:19.02	40.66	11.64	-45.6	-46.9	20.2	0.00e+00	0	44	0	256901120	62	4280
2026-01-26 21:49:22.05	41.15	11.79	-45.7	-47.1	19.8	0.00e+00	0	44	0	263192576	62	4375
2026-01-26 21:49:25.06	41.63	11.93	-45.9	-47.4	19.8	0.00e+00	0	44	0	268435456	62	4494
2026-01-26 21:49:28.08	42.13	12.08	-45.8	-47.2	19.8	0.00e+00	0	44	0	274726912	62	4425
2026-01-26 21:49:31.10	42.63	12.22	-45.9	-47.3	19.7	0.00e+00	0	44	0	279969792	62	4470
2026-01-26 21:49:34.12	43.13	12.37	-46.1	-47.5	19.6	0.00e+00	0	44	0	285212672	62	4586
2026-01-26 21:49:37.14	43.64	12.51	-46.1	-47.6	19.4	0.00e+00	0	44	0	291504128	63	4362
2026-01-26 21:49:40.16	44.16	12.65	-46.3	-47.8	19.3	0.00e+00	0	44	0	296747008	63	4461
2026-01-26 21:49:43.18	44.68	12.79	-46.6	-48.2	18.9	0.00e+00	0	44	0	303038464	63	4680
2026-01-26 21:49:46.20	45.20	12.93	-46.9	-48.6	18.3	0.00e+00	0	44	0	308281344	64	4611
2026-01-26 21:49:49.23	45.73	13.06	-46.8	-48.5	18.5	0.00e+00	0	44	0	314572800	64	4549
2026-01-26 21:49:52.25	46.27	13.20	-46.9	-48.6	18.4	0.00e+00	0	44	0	319815680	64	4609
2026-01-26 21:49:55.27	46.80	13.33	-46.9	-48.6	18.5	0.00e+00	0	44	0	325058560	64	4604
2026-01-26 21:49:58.29	47.35	13.46	-47.0	-48.6	18.4	0.00e+00	0	44	0	331350016	64	4651
2026-01-26 21:50:01.31	47.89	13.59	-47.3	-49.1	18.0	0.00e+00	0	44	0	336592896	65	4607
2026-01-26 21:50:04.33	48.45	13.72	-47.5	-49.4	17.7	0.00e+00	0	44	0	342884352	65	4792
2026-01-26 21:50:07.35	49.00	13.85	-47.3	-49.2	17.9	0.00e+00	0	44	0	348127232	65	4659
2026-01-26 21:50:10.37	49.57	13.98	-47.3	-49.1	18.0	0.00e+00	0	44	0	353370112	65	4609
2026-01-26 21:50:13.39	50.13	14.10	-47.5	-49.3	17.7	0.00e+00	0	44	0	359661568	65	4757
2026-01-26 21:50:16.42	50.70	14.22	-47.7	-49.6	17.4	0.00e+00	0	44	0	364904448	66	4639
2026-01-26 21:50:19.44	51.28	14.34	-47.9	-50.0	17.3	0.00e+00	0	44	0	371195904	66	4817
2026-01-26 21:50:22.46	51.86	14.46	-47.4	-49.2	17.9	0.00e+00	0	44	0	376438784	66	4399
2026-01-26 21:50:25.48	52.44	14.57	-47.0	-48.7	18.3	0.00e+00	0	44	0	381681664	65	4432
2026-01-26 21:50:28.50	53.03	14.68	-47.0	-48.7	18.4	0.00e+00	0	44	0	387973120	65	4433
2026-01-26 21:50:31.53	53.63	14.80	-46.9	-48.6	18.5	0.00e+00	0	44	0	393216000	65	4342
2026-01-26 21:50:34.55	54.22	14.90	-46.6	-48.2	18.8	0.00e+00	0	44	0	399507456	65	4187
2026-01-26 21:50:37.57	54.83	15.01	-46.2	-47.7	19.3	0.00e+00	0	44	0	404750336	64	4178
2026-01-26 21:50:40.58	55.43	15.11	-46.1	-47.5	19.7	0.00e+00	0	44	0	409993216	63	4316
2026-01-26 21:50:43.61	56.04	15.21	-45.7	-47.1	20.0	0.00e+00	0	44	0	416284672	63	4123
2026-01-26 21:50:46.63	56.65	15.31	-45.7	-47.0	20.1	0.00e+00	0	44	0	421527552	63	4090
2026-01-26 21:50:49.65	57.27	15.41	-45.8	-47.2	20.0	0.00e+00	0	44	0	427819008	63	4158
2026-01-26 21:50:52.66	57.89	15.50	-45.9	-47.4	19.8	0.00e+00	0	44	0	433061888	63	4246
2026-01-26 21:50:55.68	58.52	15.59	-46.1	-47.6	19.6	0.00e+00	0	44	0	438304768	63	4349
2026-01-26 21:50:58.70	59.14	15.68	-46.1	-47.6	19.6	0.00e+00	0	44	0	444596224	63	4356
2026-01-26 21:51:01.72	59.78	15.76	-46.1	-47.5	19.6	0.00e+00	0	44	0	449839104	63	4339
2026-01-26 21:51:04.74	60.41	15.84	-46.4	-48.0	19.2	0.00e+00	0	44	0	456130560	63	4547
2026-01-26 21:51:07.77	61.05	15.92	-46.6	-48.1	19.0	0.00e+00	0	44	0	461373440	63	4651
2026-01-26 21:51:10.80	61.70	15.99	-46.5	-48.0	19.0	0.00e+00	0	44	0	466616320	64	4328
2026-01-26 21:51:13.83	62.35	16.07	-46.3	-47.8	19.3	0.00e+00	0	44	0	472907776	64	4200
2026-01-26 21:51:16.86	63.00	16.13	-46.4	-47.9	19.2	0.00e+00	0	44	0	478150656	64	4272
2026-01-26 21:51:19.88	63.65	16.20	-46.4	-47.9	19.2	0.00e+00	0	44	0	484442112	64	4257
2026-01-26 21:51:22.91	64.30	16.26	-46.4	-48.0	19.2	0.00e+00	0	44	0	489684992	64	4294
2026-01-26 21:51:25.93	64.96	16.32	-46.3	-47.8	19.2	0.00e+00	0	44	0	494927872	64	4234
2026-01-26 21:51:28.95	65.62	16.38	-46.3	-47.8	19.3	0.00e+00	0	45	0	501219328	64	4209
2026-01-26 21:51:31.97	66.28	16.43	-46.1	-47.5	19.7	0.00e+00	0	44	0	506462208	63	4303
2026-01-26 21:51:34.99	66.94	16.47	-46.2	-47.7	19.4	0.00e+00	0	44	0	512753664	63	4407
2026-01-26 21:51:38.01	67.61	16.52	-46.0	-47.5	19.6	0.00e+00	0	44	0	517996544	63	4307
2026-01-26 21:51:41.03	68.28	16.56	-46.3	-47.8	19.4	0.00e+00	0	44	0	524288000	63	4462
2026-01-26 21:51:44.05	68.94	16.60	-46.5	-48.0	19.2	0.00e+00	0	44	0	529530880	63	4569
2026-01-26 21:51:47.06	69.61	16.63	-46.7	-48.3	18.9	0.00e+00	0	44	0	534773760	63	4737
2026-01-26 21:51:50.09	70.29	16.66	-46.4	-47.9	19.3	0.00e+00	0	44	0	541065216	63	4541
2026-01-26 21:51:53.11	70.96	16.69	-46.2	-47.6	19.6	0.00e+00	0	44	0	546308096	63	4378
2026-01-26 21:51:56.13	71.64	16.71	-46.0	-47.4	19.7	0.00e+00	0	44	0	551550976	63	4265
2026-01-26 21:51:59.15	72.31	16.73	-46.2	-47.7	19.4	0.00e+00	0	44	0	557842432	63	4398
2026-01-26 21:52:02.17	72.99	16.74	-46.4	-47.9	19.2	0.00e+00	0	44	0	563085312	63	4538
2026-01-26 21:52:05.19	73.66	16.75	-46.5	-48.0	19.2	0.00e+00	0	44	0	569376768	63	4591
2026-01-26 21:52:08.22	74.34	16.76	-46.0	-47.5	19.7	0.00e+00	0	44	0	574619648	63	4295
2026-01-26 21:52:11.24	75.02	16.76	-45.8	-47.2	19.9	0.00e+00	0	44	0	580911104	63	4166
2026-01-26 21:52:14.26	75.70	16.76	-45.8	-47.2	19.9	0.00e+00	0	44	0	586153984	63	4186
2026-01-26 21:52:17.29	76.38	16.76	-46.0	-47.4	19.7	0.00e+00	0	44	0	591396864	63	4251
2026-01-26 21:52:20.32	77.06	16.75	-46.2	-47.7	19.4	0.00e+00	0	44	0	597688320	63	4403
2026-01-26 21:52:23.33	77.73	16.74	-46.2	-47.7	19.4	0.00e+00	0	44	0	602931200	63	4428
2026-01-26 21:52:26.35	78.41	16.73	-46.1	-47.5	19.6	0.00e+00	0	44	0	609222656	63	4319
2026-01-26 21:52:29.38	79.08	16.71	-45.9	-47.3	19.7	0.00e+00	0	44	0	614465536	63	4212
2026-01-26 21:52:32.40	79.76	16.68	-46.0	-47.4	19.7	0.00e+00	0	44	0	619708416	63	4271
2026-01-26 21:52:35.39	80.43	16.66	-45.8	-47.2	19.9	0.00e+00	0	44	0	625999872	63	4164
2026-01-26 21:52:38.39	81.09	16.63	-45.6	-47.0	20.2	0.00e+00	0	44	0	631242752	63	4067
2026-01-26 21:52:41.38	81.76	16.59	-45.8	-47.2	19.9	0.00e+00	0	44	0	636485632	63	4191
2026-01-26 21:52:44.38	82.42	16.56	-46.0	-47.5	19.7	0.00e+00	0	44	0	642777088	63	4296
2026-01-26 21:52:47.38	83.09	16.51	-45.6	-47.0	20.1	0.00e+00	0	44	0	648019968	63	4055
2026-01-26 21:52:50.40	83.75	16.47	-45.6	-46.9	20.3	0.00e+00	0	44	0	654311424	62	4263
2026-01-26 21:52:53.40	84.41	16.42	-45.4	-46.7	20.3	0.00e+00	0	44	0	659554304	62	4189
2026-01-26 21:52:56.41	85.07	16.37	-45.2	-46.5	20.6	0.00e+00	0	44	0	664797184	62	4066
2026-01-26 21:52:59.40	85.73	16.31	-45.3	-46.6	20.5	0.00e+00	0	44	0	671088640	62	4116
2026-01-26 21:53:02.40	86.38	16.26	-45.4	-46.8	20.3	0.00e+00	0	45	0	676331520	62	4196
2026-01-26 21:53:05.41	87.03	16.19	-45.2	-46.4	20.6	0.00e+00	0	44	0	681574400	62	4049
2026-01-26 21:53:08.43	87.68	16.13	-45.6	-47.0	20.1	0.00e+00	0	44	0	687865856	62	4300
2026-01-26 21:53:11.45	88.33	16.06	-45.7	-47.1	19.9	0.00e+00	0	45	0	693108736	62	4379
2026-01-26 21:53:14.48	88.98	15.99	-45.1	-46.3	20.7	0.00e+00	0	44	0	699400192	62	4004
2026-01-26 21:53:17.50	89.62	15.91	-44.8	-46.0	20.9	0.00e+00	0	44	0	704643072	61	4094
2026-01-26 21:53:20.52	90.26	15.83	-44.5	-45.7	21.2	0.00e+00	0	44	0	709885952	61	3947
2026-01-26 21:53:23.54	90.90	15.75	-44.5	-45.7	21.3	0.00e+00	0	44	0	716177408	60	4171
2026-01-26 21:53:26.55	91.53	15.67	-44.5	-45.7	21.2	0.00e+00	0	44	0	721420288	60	4173
2026-01-26 21:53:29.57	92.16	15.58	-44.9	-46.1	20.8	0.00e+00	0	44	0	727711744	60	4368
2026-01-26 21:53:32.60	92.79	15.49	-44.8	-46.0	20.9	0.00e+00	0	44	0	732954624	60	4331
2026-01-26 21:53:35.62	93.41	15.40	-44.6	-45.8	21.2	0.00e+00	0	45	0	738197504	60	4223
2026-01-26 21:53:38.64	94.03	15.30	-44.3	-45.5	21.4	0.00e+00	0	44	0	744488960	60	4061
2026-01-26 21:53:41.66	94.65	15.20	-44.6	-45.8	21.1	0.00e+00	0	44	0	749731840	60	4229
2026-01-26 21:53:44.69	95.26	15.10	-45.1	-46.4	20.6	0.00e+00	0	44	0	756023296	60	4516
2026-01-26 21:53:47.71	95.87	15.00	-45.1	-46.4	20.5	0.00e+00	0	44	0	761266176	61	4265
2026-01-26 21:53:50.74	96.47	14.89	-45.1	-46.4	20.6	0.00e+00	0	44	0	767557632	61	4263
2026-01-26 21:53:53.76	97.07	14.78	-45.1	-46.4	20.5	0.00e+00	0	45	0	772800512	61	4272
2026-01-26 21:53:56.78	97.66	14.67	-44.9	-46.2	20.8	0.00e+00	0	45	0	778043392	61	4150
2026-01-26 21:53:59.81	98.26	14.55	-45.0	-46.3	20.6	0.00e+00	0	44	0	784334848	61	4220
2026-01-26 21:54:02.83	98.84	14.44	-45.8	-47.3	19.7	0.00e+00	0	44	0	789577728	62	4448
2026-01-26 21:54:05.86	99.42	14.32	-46.5	-48.1	19.0	0.00e+00	0	44	0	795869184	63	4616
2026-01-26 21:54:08.87	100.00	14.20	-46.9	-48.6	18.4	0.00e+00	0	44	0	801112064	64	4627
2026-01-26 21:54:11.89	100.57	14.08	-46.9	-48.7	18.3	0.00e+00	0	44	0	806354944	64	4661
2026-01-26 21:54:14.92	101.14	13.95	-46.8	-48.5	18.3	0.00e+00	0	44	0	812646400	64	4571
2026-01-26 21:54:17.95	101.71	13.83	-46.7	-48.3	18.6	0.00e+00	0	44	0	817889280	64	4473
2026-01-26 21:54:20.96	102.26	13.70	-46.4	-48.0	18.9	0.00e+00	0	44	0	824180736	64	4312
2026-01-26 21:54:23.99	102.82	13.57	-46.5	-48.1	18.8	0.00e+00	0	44	0	829423616	64	4379
2026-01-26 21:54:27.01	103.37	13.44	-46.9	-48.6	18.3	0.00e+00	0	44	0	834666496	64	4614
2026-01-26 21:54:30.03	103.91	13.31	-47.2	-49.1	17.8	0.00e+00	0	44	0	840957952	65	4609
2026-01-26 21:54:33.05	104.45	13.17	-47.2	-49.1	17.8	0.00e+00	0	44	0	846200832	65	4610
2026-01-26 21:54:36.08	104.99	13.03	-46.9	-48.6	18.3	0.00e+00	0	44	0	852492288	65	4351
2026-01-26 21:54:39.09	105.51	12.90	-46.6	-48.2	18.6	0.00e+00	0	44	0	857735168	65	4175
2026-01-26 21:54:42.11	106.04	12.76	-46.8	-48.4	18.5	0.00e+00	0	44	0	862978048	65	4283
2026-01-26 21:54:45.12	106.56	12.62	-46.3	-47.9	18.9	0.00e+00	0	44	0	869269504	64	4270
2026-01-26 21:54:48.15	107.08	12.48	-46.1	-47.6	19.3	0.00e+00	0	44	0	874512384	63	4375
2026-01-26 21:54:51.17	107.59	12.33	-46.2	-47.7	19.1	0.00e+00	0	45	0	880803840	63	4435
2026-01-26 21:54:54.19	108.09	12.19	-46.4	-47.9	19.0	0.00e+00	0	44	0	886046720	63	4526
2026-01-26 21:54:57.21	108.59	12.04	-46.6	-48.2	18.8	0.00e+00	0	44	0	891289600	63	4674
2026-01-26 21:55:00.24	109.09	11.90	-46.6	-48.3	18.6	0.00e+00	0	44	0	897581056	64	4465
2026-01-26 21:55:03.27	109.59	11.75	-46.3	-47.9	19.0	0.00e+00	0	44	0	902823936	64	4256
2026-01-26 21:55:06.29	110.07	11.60	-45.8	-47.2	19.7	0.00e+00	0	44	0	909115392	63	4175
2026-01-26 21:55:09.31	110.55	11.45	-45.4	-46.7	20.1	0.00e+00	0	44	0	914358272	62	4186
2026-01-26 21:55:12.33	111.03	11.30	-45.7	-47.2	19.7	0.00e+00	0	44	0	919601152	62	4404
2026-01-26 21:55:15.36	111.51	11.15	-46.0	-47.5	19.4	0.00e+00	0	44	0	925892608	62	4554
2026-01-26 21:55:18.38	111.97	11.00	-46.0	-47.5	19.4	0.00e+00	0	44	0	931135488	62	4573
2026-01-26 21:55:21.39	112.44	10.85	-45.9	-47.4	19.5	0.00e+00	0	44	0	937426944	62	4523
2026-01-26 21:55:24.41	112.90	10.69	-46.1	-47.6	19.3	0.00e+00	0	44	0	942669824	62	4646
2026-01-26 21:55:27.43	113.35	10.54	-46.0	-47.5	19.4	0.00e+00	0	45	0	947912704	62	4567
2026-01-26 21:55:30.45	113.80	10.38	-45.6	-47.0	19.8	0.00e+00	0	44	0	954204160	62	4311
2026-01-26 21:55:33.48	114.25	10.23	-45.9	-47.3	19.5	0.00e+00	0	44	0	959447040	62	4475
2026-01-26 21:55:36.51	114.69	10.07	-46.3	-48.0	18.9	0.00e+00	0	44	0	965738496	63	4548
2026-01-26 21:55:39.53	115.12	9.92	-46.2	-47.8	19.0	0.00e+00	0	44	0	970981376	63	4474
2026-01-26 21:55:42.56	115.56	9.76	-46.0	-47.6	19.2	0.00e+00	0	44	0	976224256	63	4343
2026-01-26 21:55:45.59	115.99	9.60	-46.1	-47.6	19.2	0.00e+00	0	44	0	982515712	63	4358
2026-01-26 21:55:48.61	116.41	9.45	-46.2	-47.8	18.9	0.00e+00	0	44	0	987758592	63	4464
2026-01-26 21:55:51.63	116.83	9.29	-46.6	-48.3	18.4	0.00e+00	0	44	0	994050048	63	4723
2026-01-26 21:55:54.66	117.24	9.13	-46.1	-47.7	19.0	0.00e+00	0	44	0	999292928	63	4407
2026-01-26 21:55:57.68	117.65	8.97	-46.0	-47.6	19.1	0.00e+00	0	44	0	1004535808	63	4341
2026-01-26 21:56:00.70	118.06	8.81	-46.0	-47.6	19.0	0.00e+00	0	44	0	1010827264	63	4353
2026-01-26 21:56:03.73	118.46	8.65	-46.5	-48.2	18.5	0.00e+00	0	44	0	1016070144	63	4653
2026-01-26 21:56:06.76	118.86	8.49	-46.5	-48.3	18.2	0.00e+00	0	44	0	1022361600	64	4463
2026-01-26 21:56:09.78	119.25	8.34	-46.5	-48.2	18.3	0.00e+00	0	44	0	1027604480	64	4418
2026-01-26 21:56:12.79	119.64	8.18	-46.6	-48.3	18.2	0.00e+00	0	44	0	1032847360	64	4477
2026-01-26 21:56:15.78	120.02	8.02	-46.9	-48.8	17.7	0.00e+00	0	44	0	1039138816	64	4731
2026-01-26 21:56:18.70	120.39	7.87	-46.8	-48.6	17.8	0.00e+00	0	44	0	1044381696	64	4619
2026-01-26 21:56:21.61	120.75	7.71	-46.8	-48.6	17.8	0.00e+00	0	44	0	1049624576	64	4640
2026-01-26 21:56:24.52	121.11	7.56	-46.8	-48.6	17.8	0.00e+00	0	44	0	1054867456	64	4622
2026-01-26 21:56:27.42	121.47	7.41	-47.0	-48.9	17.5	0.00e+00	0	44	0	1061158912	64	4793
2026-01-26 21:56:30.33	121.82	7.25	-47.1	-49.1	17.2	0.00e+00	0	44	0	1066401792	64	4912
2026-01-26 21:56:33.23	122.17	7.10	-47.3	-49.4	16.9	0.00e+00	0	44	0	1071644672	65	4808
2026-01-26 21:56:36.14	122.51	6.95	-47.1	-49.1	17.2	0.00e+00	0	44	0	1076887552	65	4616
2026-01-26 21:56:39.04	122.85	6.79	-47.0	-49.0	17.3	0.00e+00	0	44	0	1082130432	65	4548
2026-01-26 21:56:41.94	123.19	6.64	-46.9	-48.8	17.4	0.00e+00	0	44	0	1088421888	65	4473
2026-01-26 21:56:44.84	123.52	6.49	-47.3	-49.4	16.8	0.00e+00	0	44	0	1093664768	65	4794
2026-01-26 21:56:47.75	123.86	6.33	-47.5	-49.7	16.5	0.00e+00	0	44	0	1098907648	65	4976
2026-01-26 21:56:50.66	124.18	6.18	-47.5	-49.8	16.4	0.00e+00	0	44	0	1104150528	65	4988
2026-01-26 21:56:53.56	124.51	6.03	-47.4	-49.7	16.4	0.00e+00	0	44	0	1109393408	65	4940
2026-01-26 21:56:56.46	124.83	5.88	-47.4	-49.6	16.5	0.00e+00	0	44	0	1115684864	65	4907
2026-01-26 21:56:59.37	125.15	5.72	-47.7	-50.1	15.9	0.00e+00	0	44	0	1120927744	66	4920
2026-01-26 21:57:02.28	125.46	5.57	-47.6	-49.9	16.1	0.00e+00	0	44	0	1126170624	66	4798
2026-01-26 21:57:05.18	125.77	5.42	-47.8	-50.3	15.7	0.00e+00	0	44	0	1131413504	66	5009
2026-01-26 21:57:08.08	126.08	5.27	-47.7	-50.1	15.9	0.00e+00	0	44	0	1136656384	66	4886
2026-01-26 21:57:10.99	126.39	5.12	-47.6	-50.0	16.0	0.00e+00	0	44	0	1142947840	66	4853
2026-01-26 21:57:13.89	126.69	4.97	-52.2	-66.5	3.8	2.85e-01	15	44	0	1148190720	74	20472
2026-01-26 21:57:16.80	126.99	4.81	-53.0	-68.0	3.8	1.49e+00	0	44	104	1148190720	76	21633
2026-01-26 21:57:19.71	127.29	4.66	-53.5	-68.5	3.8	1.49e+00	0	44	104	1148190720	77	21528
2026-01-26 21:57:22.61	127.58	4.51	-53.8	-68.7	3.8	1.49e+00	0	44	104	1148190720	78	20962
2026-01-26 21:57:25.52	127.87	4.36	-54.0	-68.9	3.8	1.49e+00	0	44	104	1148190720	78	21457
2026-01-26 21:57:28.43	128.16	4.21	-54.1	-69.1	3.8	1.49e+00	0	44	104	1148190720	78	21856
2026-01-26 21:57:31.34	128.45	4.06	-54.2	-69.2	3.8	1.49e+00	0	44	104	1148190720	79	20941
2026-01-26 21:57:34.26	128.73	3.91	-54.3	-69.3	3.8	1.49e+00	0	44	104	1148190720	79	21100
2026-01-26 21:57:37.17	129.01	3.76	-54.3	-69.3	3.8	1.49e+00	0	44	104	1148190720	79	21247
2026-01-26 21:57:40.08	129.29	3.61	-54.4	-69.4	3.8	1.49e+00	0	44	104	1148190720	79	21389
2026-01-26 21:57:42.98	129.57	3.46	-54.5	-69.5	3.8	1.49e+00	0	44	104	1148190720	79	21533
2026-01-26 21:57:45.89	129.84	3.32	-54.5	-69.5	3.8	1.49e+00	0	44	104	1148190720	79	21624
2026-01-26 21:57:48.80	130.11	3.17	-54.5	-69.5	3.8	1.49e+00	0	44	104	1148190720	79	21632
2026-01-26 21:57:51.71	130.38	3.02	-54.5	-69.5	3.8	1.49e+00	0	44	104	1148190720	79	21566
2026-01-26 21:57:54.62	130.64	2.87	-54.4	-69.4	3.8	1.49e+00	0	44	104	1148190720	79	21336
2026-01-26 21:57:57.52	130.90	2.72	-54.4	-69.3	3.8	1.49e+00	0	44	104	1148190720	79	21236
2026-01-26 21:58:00.43	131.16	2.58	-54.2	-69.2	3.8	1.49e+00	0	44	104	1148190720	79	20914
2026-01-26 21:58:03.33	131.42	2.43	-54.1	-69.1	3.8	1.49e+00	0	44	104	1148190720	79	20587
2026-01-26 21:58:06.23	131.67	2.28	-53.8	-68.8	3.8	1.49e+00	0	44	104	1148190720	79	19988
2026-01-26 21:58:09.14	131.92	2.14	-53.6	-68.5	3.8	1.49e+00	0	44	104	1148190720	79	19307
2026-01-26 21:58:12.04	132.17	1.99	-53.5	-68.5	3.8	1.49e+00	0	44	104	1148190720	79	19267

#Closed at: 2026-01-26 21:58:13
#Recorded file [1148 MB]: D:/lorett/data/31041_260127_004611.dat