passes_logs/2026/01/26/R3.2S_Murmansk/R3.2S_Murmansk__20260126_121544_NOAA_21_JPSS-2_rec.log

#Pass ID: 20260126_121544_NOAA 21 (JPSS-2)
#Satellite: NOAA 21 (JPSS-2)
#Configuration: NOAA-21
#almurnet v.1.7.20251203
#Start time: 2026-01-26 12:15:44

#Version: 2.2.20231116
#Station: R3.2S_Murmansk
#Location: 33.079688 lon 68.888172 lat
#TLE: 1 54234U 22150A   26025.93791214  .00000195  00000+0  11336-3 0  9990
#TLE: 2 54234  98.7509 326.7059 0000782 212.3040 147.8088 14.19539484166365

#Time	Az	El	Level	Level2	SNR	BER	BlckErr	Temp	State	Recorded	gain1	gain2
2026-01-26 12:15:44.04	221.56	1.98	-54.1	-66.9	3.8	1.49e+00	0	43	0	0	79	16022
2026-01-26 12:15:47.06	221.80	2.14	-54.3	-67.1	3.8	1.49e+00	0	43	104	0	79	16320
2026-01-26 12:15:50.08	222.04	2.30	-54.4	-67.2	3.8	1.49e+00	0	43	104	0	79	16655
2026-01-26 12:15:53.10	222.29	2.46	-54.4	-67.2	3.8	1.49e+00	0	43	104	0	79	16552
2026-01-26 12:15:56.12	222.54	2.61	-54.3	-67.0	3.8	1.49e+00	0	43	104	0	79	16303
2026-01-26 12:15:59.15	222.79	2.78	-54.2	-66.9	3.8	1.49e+00	0	43	104	0	79	16119
2026-01-26 12:16:02.16	223.04	2.94	-54.0	-66.7	3.8	1.49e+00	0	43	104	0	79	15752
2026-01-26 12:16:05.18	223.30	3.10	-53.8	-66.5	3.8	1.49e+00	0	43	104	0	79	15345
2026-01-26 12:16:08.21	223.56	3.26	-53.1	-65.9	3.8	1.49e+00	0	43	104	0	78	15132
2026-01-26 12:16:11.23	223.82	3.42	-52.7	-65.5	3.8	1.49e+00	0	43	104	0	77	15247
2026-01-26 12:16:14.26	224.09	3.58	-52.7	-65.4	3.8	1.49e+00	0	43	104	0	77	15163
2026-01-26 12:16:17.29	224.35	3.75	-52.7	-65.2	3.8	1.49e+00	0	44	104	0	77	14857
2026-01-26 12:16:20.31	224.62	3.91	-52.6	-65.3	3.8	1.49e+00	0	43	104	0	77	15025
2026-01-26 12:16:23.33	224.90	4.07	-52.7	-65.4	3.8	1.49e+00	0	43	104	0	77	15139
2026-01-26 12:16:26.35	225.17	4.24	-52.6	-65.3	3.8	1.49e+00	0	43	104	0	77	14971
2026-01-26 12:16:29.37	225.45	4.40	-52.6	-64.4	3.8	1.49e+00	0	43	104	0	77	13479
2026-01-26 12:16:32.40	225.74	4.57	-52.6	-64.8	3.8	1.49e+00	0	43	104	0	77	14140
2026-01-26 12:16:35.42	226.02	4.73	-51.8	-59.0	5.5	9.66e-01	0	44	104	0	75	8101
2026-01-26 12:16:38.45	226.31	4.90	-48.7	-51.2	13.2	8.46e-05	0	43	0	9437184	69	4663
2026-01-26 12:16:41.48	226.60	5.07	-46.8	-48.5	15.9	0.00e+00	0	43	0	18874368	64	4566
2026-01-26 12:16:44.50	226.90	5.23	-48.5	-50.9	13.5	4.50e-06	0	43	0	27262976	67	5073
2026-01-26 12:16:47.52	227.20	5.40	-46.0	-47.4	16.9	0.00e+00	0	43	0	36700160	63	4279
2026-01-26 12:16:50.53	227.50	5.57	-46.0	-47.4	16.9	0.00e+00	0	43	0	46137344	63	4274
2026-01-26 12:16:53.56	227.80	5.74	-45.6	-47.0	17.3	0.00e+00	0	44	0	56623104	63	4085
2026-01-26 12:16:56.58	228.11	5.91	-45.7	-47.1	17.3	0.00e+00	0	43	0	66060288	63	4124
2026-01-26 12:16:59.60	228.42	6.07	-45.6	-47.0	17.4	0.00e+00	0	43	0	74448896	63	4082
2026-01-26 12:17:02.63	228.74	6.24	-45.6	-47.0	17.4	0.00e+00	0	43	0	83886080	63	4067
2026-01-26 12:17:05.65	229.06	6.41	-45.6	-46.9	17.5	0.00e+00	0	43	0	94371840	62	4257
2026-01-26 12:17:08.68	229.38	6.59	-45.4	-46.7	17.8	0.00e+00	0	44	0	103809024	62	4148
2026-01-26 12:17:11.70	229.70	6.76	-45.2	-46.5	18.0	0.00e+00	0	43	0	113246208	62	4070
2026-01-26 12:17:14.72	230.03	6.93	-45.1	-46.4	18.1	0.00e+00	0	43	0	121634816	62	4024
2026-01-26 12:17:17.74	230.37	7.10	-45.0	-46.2	18.3	0.00e+00	0	43	0	131072000	61	4156
2026-01-26 12:17:20.75	230.70	7.27	-45.3	-46.5	18.0	0.00e+00	0	43	0	141557760	61	4334
2026-01-26 12:17:23.78	231.04	7.44	-44.8	-46.0	18.5	0.00e+00	0	43	0	150994944	61	4079
2026-01-26 12:17:26.79	231.39	7.61	-44.8	-46.0	18.5	0.00e+00	0	44	0	160432128	61	4086
2026-01-26 12:17:29.82	231.74	7.79	-44.7	-45.9	18.6	0.00e+00	0	43	0	168820736	61	4021
2026-01-26 12:17:32.84	232.09	7.96	-44.6	-45.8	18.7	0.00e+00	0	43	0	179306496	61	3962
2026-01-26 12:17:35.87	232.45	8.13	-44.6	-45.7	18.8	0.00e+00	0	44	0	188743680	60	4174
2026-01-26 12:17:38.89	232.81	8.31	-44.7	-45.8	18.7	0.00e+00	0	43	0	198180864	60	4224
2026-01-26 12:17:41.92	233.17	8.48	-44.7	-45.8	18.8	0.00e+00	0	43	0	206569472	60	4222
2026-01-26 12:17:44.93	233.54	8.65	-44.6	-45.8	18.8	0.00e+00	0	43	0	216006656	60	4199
2026-01-26 12:17:47.96	233.92	8.83	-44.4	-45.5	19.1	0.00e+00	0	43	0	226492416	60	4083
2026-01-26 12:17:50.98	234.29	9.00	-44.4	-45.4	19.2	0.00e+00	0	43	0	235929600	60	4047
2026-01-26 12:17:53.99	234.67	9.18	-44.2	-45.2	19.4	0.00e+00	0	43	0	245366784	60	3943
2026-01-26 12:17:57.01	235.06	9.35	-44.4	-45.4	19.5	0.00e+00	0	43	0	254803968	59	4284
2026-01-26 12:18:00.03	235.45	9.53	-44.3	-45.3	19.6	0.00e+00	0	44	0	263192576	59	4237
2026-01-26 12:18:03.06	235.85	9.70	-44.2	-45.3	19.6	0.00e+00	0	44	0	273678336	59	4210
2026-01-26 12:18:06.09	236.25	9.88	-44.1	-45.2	19.7	0.00e+00	0	43	0	283115520	59	4148
2026-01-26 12:18:09.12	236.65	10.05	-44.2	-45.2	19.7	0.00e+00	0	43	0	292552704	59	4181
2026-01-26 12:18:12.14	237.06	10.22	-44.1	-45.1	19.8	0.00e+00	0	43	0	301989888	59	4133
2026-01-26 12:18:15.16	237.48	10.40	-44.2	-45.3	19.6	0.00e+00	0	44	0	311427072	59	4209
2026-01-26 12:18:18.18	237.89	10.57	-44.2	-45.3	19.7	0.00e+00	0	44	0	320864256	59	4205
2026-01-26 12:18:21.20	238.32	10.75	-44.2	-45.2	19.7	0.00e+00	0	44	0	330301440	59	4193
2026-01-26 12:18:24.22	238.75	10.92	-44.2	-45.2	19.8	0.00e+00	0	43	0	339738624	59	4176
2026-01-26 12:18:27.24	239.18	11.10	-44.2	-45.2	19.7	0.00e+00	0	44	0	349175808	59	4190
2026-01-26 12:18:30.27	239.62	11.27	-44.1	-45.1	19.9	0.00e+00	0	43	0	358612992	59	4136
2026-01-26 12:18:33.30	240.06	11.44	-43.9	-45.0	20.0	0.00e+00	0	44	0	368050176	59	4055
2026-01-26 12:18:36.33	240.51	11.62	-44.0	-45.0	20.0	0.00e+00	0	43	0	377487360	59	4080
2026-01-26 12:18:39.35	240.97	11.79	-43.9	-44.9	20.0	0.00e+00	0	44	0	386924544	59	4025
2026-01-26 12:18:42.37	241.42	11.96	-43.9	-44.9	20.1	0.00e+00	0	44	0	396361728	59	4022
2026-01-26 12:18:45.40	241.89	12.14	-44.0	-45.0	20.0	0.00e+00	0	43	0	405798912	59	4079
2026-01-26 12:18:48.42	242.36	12.31	-43.8	-44.8	20.2	0.00e+00	0	44	0	415236096	59	3966
2026-01-26 12:18:51.44	242.83	12.48	-43.8	-44.8	20.2	0.00e+00	0	43	0	424673280	59	3976
2026-01-26 12:18:54.46	243.31	12.65	-43.6	-44.6	20.4	0.00e+00	0	44	0	434110464	59	3895
2026-01-26 12:18:57.48	243.80	12.82	-43.6	-44.6	20.3	0.00e+00	0	43	0	443547648	59	3889
2026-01-26 12:19:00.51	244.29	12.99	-43.8	-44.8	20.2	0.00e+00	0	44	0	452984832	59	3964
2026-01-26 12:19:03.53	244.78	13.16	-43.8	-44.8	20.2	0.00e+00	0	44	0	462422016	59	3987
2026-01-26 12:19:06.55	245.29	13.32	-43.8	-44.8	20.2	0.00e+00	0	44	0	471859200	59	3996
2026-01-26 12:19:09.57	245.79	13.49	-43.8	-44.8	20.2	0.00e+00	0	43	0	481296384	59	3971
2026-01-26 12:19:12.58	246.30	13.65	-43.7	-44.6	20.3	0.00e+00	0	43	0	490733568	59	3913
2026-01-26 12:19:15.60	246.82	13.82	-43.6	-44.6	20.5	0.00e+00	0	43	0	500170752	59	3871
2026-01-26 12:19:18.63	247.35	13.98	-43.5	-44.4	20.6	0.00e+00	0	44	0	509607936	58	4039
2026-01-26 12:19:21.64	247.87	14.15	-43.5	-44.4	20.5	0.00e+00	0	43	0	519045120	58	4051
2026-01-26 12:19:24.66	248.41	14.31	-43.5	-44.4	20.6	0.00e+00	0	43	0	528482304	58	4049
2026-01-26 12:19:27.67	248.95	14.47	-43.6	-44.6	20.4	0.00e+00	0	43	0	537919488	58	4120
2026-01-26 12:19:30.70	249.49	14.63	-43.7	-44.7	20.4	0.00e+00	0	43	0	547356672	58	4162
2026-01-26 12:19:33.72	250.04	14.78	-43.7	-44.7	20.4	0.00e+00	0	44	0	556793856	58	4148
2026-01-26 12:19:36.74	250.60	14.94	-43.6	-44.5	20.6	0.00e+00	0	44	0	566231040	58	4093
2026-01-26 12:19:39.77	251.17	15.09	-43.4	-44.3	20.7	0.00e+00	0	43	0	575668224	58	3998
2026-01-26 12:19:42.79	251.73	15.25	-43.6	-44.5	20.6	0.00e+00	0	43	0	585105408	58	4089
2026-01-26 12:19:45.81	252.31	15.40	-43.7	-44.6	20.5	0.00e+00	0	44	0	594542592	58	4136
2026-01-26 12:19:48.84	252.89	15.55	-43.7	-44.7	20.4	0.00e+00	0	43	0	603979776	58	4168
2026-01-26 12:19:51.86	253.47	15.69	-43.6	-44.6	20.5	0.00e+00	0	43	0	613416960	58	4107
2026-01-26 12:19:54.89	254.07	15.84	-43.4	-44.3	20.8	0.00e+00	0	43	0	622854144	58	3973
2026-01-26 12:19:57.92	254.67	15.98	-43.4	-44.3	20.7	0.00e+00	0	44	0	632291328	58	3991
2026-01-26 12:20:00.93	255.27	16.12	-43.5	-44.5	20.6	0.00e+00	0	43	0	641728512	58	4068
2026-01-26 12:20:03.95	255.87	16.26	-43.4	-44.3	20.8	0.00e+00	0	43	0	651165696	58	3996
2026-01-26 12:20:06.98	256.49	16.40	-43.2	-44.1	21.0	0.00e+00	0	43	0	660602880	58	3880
2026-01-26 12:20:10.01	257.11	16.54	-43.0	-43.9	21.1	0.00e+00	0	44	0	670040064	57	4038
2026-01-26 12:20:13.03	257.73	16.67	-43.2	-44.1	20.9	0.00e+00	0	44	0	679477248	57	4119
2026-01-26 12:20:16.05	258.36	16.80	-43.3	-44.2	20.8	0.00e+00	0	44	0	688914432	57	4181
2026-01-26 12:20:19.07	258.99	16.92	-43.1	-44.1	21.0	0.00e+00	0	44	0	698351616	57	4101
2026-01-26 12:20:22.09	259.63	17.05	-42.9	-43.8	21.1	0.00e+00	0	44	0	707788800	57	4000
2026-01-26 12:20:25.11	260.28	17.17	-43.0	-43.9	21.0	0.00e+00	0	44	0	717225984	57	4036
2026-01-26 12:20:28.13	260.92	17.29	-42.9	-43.8	21.2	0.00e+00	0	44	0	726663168	57	3985
2026-01-26 12:20:31.16	261.58	17.40	-43.0	-43.9	21.1	0.00e+00	0	43	0	736100352	57	4049
2026-01-26 12:20:34.18	262.24	17.51	-42.8	-43.7	21.3	0.00e+00	0	43	0	745537536	57	3924
2026-01-26 12:20:37.20	262.90	17.62	-42.8	-43.6	21.3	0.00e+00	0	44	0	754974720	57	3905
2026-01-26 12:20:40.23	263.57	17.73	-42.8	-43.7	21.2	0.00e+00	0	43	0	764411904	57	3944
2026-01-26 12:20:43.25	264.24	17.83	-42.7	-43.6	21.4	0.00e+00	0	44	0	773849088	57	3885
2026-01-26 12:20:46.28	264.92	17.93	-42.6	-43.5	21.5	0.00e+00	0	44	0	783286272	57	3835
2026-01-26 12:20:49.31	265.61	18.03	-42.6	-43.5	21.5	0.00e+00	0	44	0	792723456	57	3833
2026-01-26 12:20:52.33	266.29	18.12	-42.4	-43.3	21.6	0.00e+00	0	44	0	802160640	56	3971
2026-01-26 12:20:55.36	266.98	18.21	-42.6	-43.4	21.5	0.00e+00	0	43	0	811597824	56	4044
2026-01-26 12:20:58.38	267.68	18.29	-42.4	-43.2	21.7	0.00e+00	0	43	0	821035008	56	3952
2026-01-26 12:21:01.41	268.37	18.37	-42.5	-43.4	21.6	0.00e+00	0	43	0	830472192	56	4022
2026-01-26 12:21:04.43	269.07	18.45	-42.5	-43.4	21.6	0.00e+00	0	44	0	839909376	56	4019
2026-01-26 12:21:07.46	269.78	18.52	-42.5	-43.3	21.7	0.00e+00	0	43	0	849346560	56	3981
2026-01-26 12:21:10.48	270.49	18.59	-42.4	-43.3	21.7	0.00e+00	0	43	0	858783744	56	3964
2026-01-26 12:21:13.50	271.20	18.66	-42.4	-43.2	21.7	0.00e+00	0	43	0	868220928	56	3945
2026-01-26 12:21:16.52	271.91	18.72	-42.6	-43.4	21.6	0.00e+00	0	43	0	877658112	56	4030
2026-01-26 12:21:19.54	272.62	18.78	-42.4	-43.2	21.7	0.00e+00	0	43	0	887095296	56	3948
2026-01-26 12:21:22.56	273.34	18.83	-42.6	-43.5	21.5	0.00e+00	0	44	0	896532480	56	4074
2026-01-26 12:21:25.58	274.06	18.88	-42.8	-43.7	21.4	0.00e+00	0	44	0	905969664	56	4159
2026-01-26 12:21:28.61	274.78	18.92	-42.8	-43.6	21.4	0.00e+00	0	44	0	915406848	56	4134
2026-01-26 12:21:31.63	275.51	18.96	-42.8	-43.7	21.3	0.00e+00	0	44	0	924844032	56	4175
2026-01-26 12:21:34.65	276.23	18.99	-42.9	-43.8	21.3	0.00e+00	0	44	0	934281216	56	4231
2026-01-26 12:21:37.67	276.96	19.02	-42.9	-43.7	21.3	0.00e+00	0	43	0	943718400	56	4184
2026-01-26 12:21:40.70	277.69	19.05	-42.8	-43.7	21.4	0.00e+00	0	43	0	953155584	56	4175
2026-01-26 12:21:43.73	278.42	19.07	-42.8	-43.7	21.4	0.00e+00	0	44	0	962592768	56	4149
2026-01-26 12:21:46.75	279.15	19.09	-43.0	-43.9	21.2	0.00e+00	0	44	0	972029952	56	4245
2026-01-26 12:21:49.78	279.89	19.10	-43.0	-43.9	21.3	0.00e+00	0	43	0	981467136	56	4243
2026-01-26 12:21:52.80	280.62	19.11	-42.8	-43.7	21.4	0.00e+00	0	43	0	990904320	56	4170
2026-01-26 12:21:55.82	281.35	19.11	-43.0	-43.9	21.3	0.00e+00	0	44	0	1000341504	56	4257
2026-01-26 12:21:58.84	282.08	19.11	-42.8	-43.7	21.5	0.00e+00	0	44	0	1009778688	56	4150
2026-01-26 12:22:01.86	282.81	19.11	-42.9	-43.7	21.4	0.00e+00	0	44	0	1019215872	56	4188
2026-01-26 12:22:04.88	283.54	19.10	-42.7	-43.6	21.6	0.00e+00	0	43	0	1028653056	56	4113
2026-01-26 12:22:07.91	284.27	19.08	-42.8	-43.6	21.5	0.00e+00	0	44	0	1038090240	56	4140
2026-01-26 12:22:10.93	285.00	19.06	-43.0	-43.9	21.2	0.00e+00	0	43	0	1047527424	56	4249
2026-01-26 12:22:13.95	285.73	19.04	-42.8	-43.7	21.4	0.00e+00	0	43	0	1056964608	56	4167
2026-01-26 12:22:16.97	286.46	19.01	-43.0	-43.9	21.2	0.00e+00	0	43	0	1066401792	56	4255
2026-01-26 12:22:19.99	287.18	18.98	-40.9	-43.6	21.0	0.00e+00	0	43	0	1075838976	53	4923
2026-01-26 12:22:23.01	287.91	18.94	-42.8	-43.7	21.4	0.00e+00	0	44	0	1085276160	56	4166
2026-01-26 12:22:26.04	288.63	18.90	-43.1	-44.0	21.2	0.00e+00	0	44	0	1094713344	56	4309
2026-01-26 12:22:29.07	289.35	18.85	-43.0	-43.9	21.4	0.00e+00	0	43	0	1104150528	56	4247
2026-01-26 12:22:32.09	290.07	18.80	-43.1	-43.9	21.3	0.00e+00	0	43	0	1113587712	56	4287
2026-01-26 12:22:35.11	290.79	18.75	-43.3	-44.2	21.1	0.00e+00	0	43	0	1123024896	57	4185
2026-01-26 12:22:38.14	291.50	18.69	-43.1	-44.0	21.2	0.00e+00	0	43	0	1132462080	57	4069
2026-01-26 12:22:41.16	292.21	18.63	-43.0	-43.8	21.4	0.00e+00	0	43	0	1142947840	57	4000
2026-01-26 12:22:44.19	292.92	18.56	-43.0	-43.8	21.4	0.00e+00	0	44	0	1151336448	57	4003
2026-01-26 12:22:47.21	293.62	18.49	-43.0	-43.9	21.3	0.00e+00	0	44	0	1160773632	57	4026
2026-01-26 12:22:50.25	294.33	18.41	-43.2	-44.1	21.2	0.00e+00	0	43	0	1171259392	57	4106
2026-01-26 12:22:53.26	295.02	18.34	-43.1	-44.0	21.3	0.00e+00	0	44	0	1180696576	57	4075
2026-01-26 12:22:56.29	295.72	18.25	-43.3	-44.2	21.1	0.00e+00	0	44	0	1190133760	57	4150
2026-01-26 12:22:59.31	296.41	18.17	-43.4	-44.2	21.0	0.00e+00	0	44	0	1198522368	57	4193
2026-01-26 12:23:02.33	297.09	18.08	-43.5	-44.4	20.8	0.00e+00	0	44	0	1207959552	57	4280
2026-01-26 12:23:05.36	297.78	17.98	-43.8	-44.8	20.5	0.00e+00	0	43	0	1218445312	58	4207
2026-01-26 12:23:08.39	298.46	17.89	-43.8	-44.7	20.6	0.00e+00	0	44	0	1227882496	58	4170
2026-01-26 12:23:11.41	299.13	17.79	-43.8	-44.7	20.6	0.00e+00	0	44	0	1237319680	58	4171
2026-01-26 12:23:14.44	299.80	17.68	-43.8	-44.7	20.6	0.00e+00	0	44	0	1245708288	58	4165
2026-01-26 12:23:17.46	300.47	17.57	-43.8	-44.8	20.5	0.00e+00	0	44	0	1256194048	58	4205
2026-01-26 12:23:20.49	301.13	17.46	-43.9	-44.9	20.4	0.00e+00	0	44	0	1265631232	58	4262
2026-01-26 12:23:23.52	301.78	17.35	-44.1	-45.1	20.2	0.00e+00	0	44	0	1275068416	58	4372
2026-01-26 12:23:26.54	302.43	17.23	-44.1	-45.1	20.1	0.00e+00	0	44	0	1284505600	58	4380
2026-01-26 12:23:29.56	303.08	17.12	-44.2	-45.2	20.0	0.00e+00	0	44	0	1293942784	59	4180
2026-01-26 12:23:32.58	303.72	16.99	-44.3	-45.4	19.9	0.00e+00	0	44	0	1303379968	59	4244
2026-01-26 12:23:35.60	304.35	16.87	-44.6	-45.7	19.6	0.00e+00	0	44	0	1312817152	59	4407
2026-01-26 12:23:38.63	304.98	16.74	-44.6	-45.7	19.6	0.00e+00	0	43	0	1322254336	59	4392
2026-01-26 12:23:41.65	305.61	16.61	-44.6	-45.7	19.6	0.00e+00	0	43	0	1331691520	59	4423
2026-01-26 12:23:44.68	306.23	16.48	-44.4	-45.5	19.5	0.00e+00	0	44	0	1341128704	60	4063
2026-01-26 12:23:47.70	306.84	16.34	-44.7	-45.8	19.1	0.00e+00	0	44	0	1350565888	60	4235
2026-01-26 12:23:50.73	307.45	16.21	-44.9	-46.0	19.0	0.00e+00	0	44	0	1360003072	60	4304
2026-01-26 12:23:53.75	308.05	16.07	-44.9	-46.0	19.0	0.00e+00	0	44	0	1369440256	60	4303
2026-01-26 12:23:56.78	308.65	15.92	-44.9	-46.0	19.0	0.00e+00	0	43	0	1378877440	60	4304
2026-01-26 12:23:59.79	309.24	15.78	-45.1	-46.2	18.7	0.00e+00	0	43	0	1388314624	60	4421
2026-01-26 12:24:02.81	309.83	15.64	-45.6	-46.8	18.1	0.00e+00	0	43	0	1397751808	61	4476
2026-01-26 12:24:05.84	310.41	15.49	-45.5	-46.8	18.1	0.00e+00	0	43	0	1407188992	61	4462
2026-01-26 12:24:08.86	310.99	15.34	-45.4	-46.6	18.3	0.00e+00	0	43	0	1416626176	61	4355
2026-01-26 12:24:11.88	311.56	15.19	-45.3	-46.5	18.4	0.00e+00	0	44	0	1426063360	61	4315
2026-01-26 12:24:14.90	312.12	15.04	-45.4	-46.6	18.3	0.00e+00	0	44	0	1435500544	61	4366
2026-01-26 12:24:17.92	312.68	14.88	-45.5	-46.7	18.2	0.00e+00	0	44	0	1444937728	61	4418
2026-01-26 12:24:20.95	313.23	14.73	-45.6	-46.9	18.0	0.00e+00	0	44	0	1454374912	61	4512
2026-01-26 12:24:23.98	313.78	14.57	-45.7	-46.9	17.9	0.00e+00	0	43	0	1463812096	61	4535
2026-01-26 12:24:27.01	314.32	14.41	-45.5	-46.8	18.0	0.00e+00	0	43	0	1473249280	61	4465
2026-01-26 12:24:30.04	314.86	14.25	-45.7	-46.9	17.9	0.00e+00	0	44	0	1482686464	61	4545
2026-01-26 12:24:33.06	315.39	14.09	-45.9	-47.2	17.6	0.00e+00	0	44	0	1492123648	62	4437
2026-01-26 12:24:36.09	315.92	13.93	-45.8	-47.1	17.8	0.00e+00	0	44	0	1501560832	62	4350
2026-01-26 12:24:39.12	316.44	13.76	-45.8	-47.1	17.7	0.00e+00	0	43	0	1510998016	62	4378
2026-01-26 12:24:42.14	316.95	13.60	-45.7	-47.0	17.8	0.00e+00	0	43	0	1520435200	62	4307
2026-01-26 12:24:45.17	317.46	13.43	-45.8	-47.1	17.7	0.00e+00	0	43	0	1529872384	62	4363
2026-01-26 12:24:48.19	317.96	13.27	-46.0	-47.3	17.5	0.00e+00	0	44	0	1539309568	62	4477
2026-01-26 12:24:51.21	318.46	13.10	-46.0	-47.3	17.5	0.00e+00	0	43	0	1548746752	62	4484
2026-01-26 12:24:54.23	318.95	12.93	-46.0	-47.4	17.5	0.00e+00	0	44	0	1558183936	62	4500
2026-01-26 12:24:57.25	319.44	12.77	-45.9	-47.3	17.6	0.00e+00	0	44	0	1567621120	62	4448
2026-01-26 12:25:00.27	319.92	12.60	-45.9	-47.2	17.6	0.00e+00	0	43	0	1577058304	62	4414
2026-01-26 12:25:03.29	320.39	12.43	-45.8	-47.1	17.6	0.00e+00	0	43	0	1586495488	62	4375
2026-01-26 12:25:06.32	320.87	12.26	-46.0	-47.3	17.5	0.00e+00	0	44	0	1595932672	62	4472
2026-01-26 12:25:09.34	321.33	12.09	-46.0	-47.4	17.3	0.00e+00	0	43	0	1605369856	62	4525
2026-01-26 12:25:12.37	321.79	11.92	-46.0	-47.3	17.4	0.00e+00	0	43	0	1614807040	62	4492
2026-01-26 12:25:15.39	322.25	11.74	-46.0	-47.4	17.3	0.00e+00	0	43	0	1624244224	62	4505
2026-01-26 12:25:18.41	322.70	11.57	-45.9	-47.3	17.4	0.00e+00	0	43	0	1633681408	62	4469
2026-01-26 12:25:21.44	323.14	11.40	-45.8	-47.1	17.6	0.00e+00	0	43	0	1643118592	62	4366
2026-01-26 12:25:24.47	323.58	11.23	-45.8	-47.2	17.5	0.00e+00	0	44	0	1652555776	62	4401
2026-01-26 12:25:27.50	324.02	11.05	-45.8	-47.2	17.5	0.00e+00	0	43	0	1661992960	62	4393
2026-01-26 12:25:30.53	324.45	10.88	-45.9	-47.3	17.3	0.00e+00	0	44	0	1671430144	62	4473
2026-01-26 12:25:33.55	324.87	10.71	-46.1	-47.5	17.2	0.00e+00	0	43	0	1680867328	62	4550
2026-01-26 12:25:36.57	325.29	10.53	-46.2	-47.7	17.0	0.00e+00	0	44	0	1690304512	63	4396
2026-01-26 12:25:39.58	325.71	10.36	-46.2	-47.7	16.9	0.00e+00	0	44	0	1699741696	63	4411
2026-01-26 12:25:42.61	326.12	10.19	-46.3	-47.8	16.8	0.00e+00	0	44	0	1709178880	63	4474
2026-01-26 12:25:45.63	326.52	10.02	-46.5	-48.0	16.6	0.00e+00	0	43	0	1718616064	63	4562
2026-01-26 12:25:48.65	326.93	9.84	-46.6	-48.1	16.5	0.00e+00	0	43	0	1728053248	63	4629
2026-01-26 12:25:51.67	327.32	9.67	-46.6	-48.1	16.4	0.00e+00	0	44	0	1737490432	63	4637
2026-01-26 12:25:54.70	327.72	9.49	-46.7	-48.4	16.1	0.00e+00	0	44	0	1746927616	64	4495
2026-01-26 12:25:57.72	328.10	9.32	-46.8	-48.5	15.9	0.00e+00	0	43	0	1756364800	64	4568
2026-01-26 12:26:00.74	328.49	9.15	-46.8	-48.4	16.1	0.00e+00	0	44	0	1765801984	64	4524
2026-01-26 12:26:03.77	328.87	8.98	-46.7	-48.4	16.0	0.00e+00	0	44	0	1775239168	64	4519
2026-01-26 12:26:06.80	329.24	8.80	-46.6	-48.2	16.2	0.00e+00	0	44	0	1784676352	64	4438
2026-01-26 12:26:09.82	329.61	8.63	-46.6	-48.3	16.1	0.00e+00	0	43	0	1794113536	64	4453
2026-01-26 12:26:12.84	329.98	8.46	-46.8	-48.5	15.9	0.00e+00	0	44	0	1803550720	64	4550
2026-01-26 12:26:15.87	330.34	8.28	-46.8	-48.5	15.9	0.00e+00	0	44	0	1812987904	64	4551
2026-01-26 12:26:18.89	330.70	8.11	-46.9	-48.6	15.8	0.00e+00	0	43	0	1822425088	64	4616
2026-01-26 12:26:21.92	331.06	7.94	-47.1	-48.9	15.4	0.00e+00	0	44	0	1831862272	64	4795
2026-01-26 12:26:24.94	331.41	7.77	-47.0	-48.7	15.6	0.00e+00	0	44	0	1841299456	64	4678
2026-01-26 12:26:27.97	331.75	7.60	-47.1	-48.8	15.5	0.00e+00	0	44	0	1850736640	64	4755
2026-01-26 12:26:31.00	332.10	7.43	-47.1	-48.9	15.4	0.00e+00	0	44	0	1860173824	64	4769
2026-01-26 12:26:34.02	332.44	7.26	-47.0	-48.7	15.5	0.00e+00	0	43	0	1869611008	64	4688
2026-01-26 12:26:37.05	332.77	7.09	-47.1	-49.0	15.3	0.00e+00	0	43	0	1880096768	64	4820
2026-01-26 12:26:40.07	333.10	6.92	-47.1	-49.0	15.3	0.00e+00	0	44	0	1888485376	64	4822
2026-01-26 12:26:43.09	333.43	6.75	-46.9	-48.7	15.5	0.00e+00	0	44	0	1897922560	64	4672
2026-01-26 12:26:46.12	333.75	6.58	-47.1	-48.9	15.3	0.00e+00	0	44	0	1907359744	64	4796
2026-01-26 12:26:49.14	334.07	6.41	-47.2	-49.1	15.0	0.00e+00	0	43	0	1916796928	65	4649
2026-01-26 12:26:52.17	334.39	6.24	-47.3	-49.3	14.9	7.00e-07	0	44	0	1927282688	65	4726
2026-01-26 12:26:55.19	334.71	6.07	-47.4	-49.4	14.7	0.00e+00	0	44	0	1935671296	65	4802
2026-01-26 12:26:58.21	335.02	5.90	-47.5	-49.6	14.5	0.00e+00	0	43	0	1945108480	65	4901
2026-01-26 12:27:01.25	335.32	5.74	-47.4	-49.4	14.6	7.00e-07	0	44	0	1955594240	65	4806
2026-01-26 12:27:04.27	335.63	5.57	-47.4	-49.4	14.7	1.50e-06	0	44	0	1965031424	65	4769
2026-01-26 12:27:07.30	335.93	5.40	-47.2	-49.1	14.9	1.50e-06	0	44	0	1974468608	65	4646
2026-01-26 12:27:10.32	336.22	5.24	-47.3	-49.2	14.8	7.00e-07	0	44	0	1982857216	65	4697
2026-01-26 12:27:13.34	336.52	5.07	-47.4	-49.4	14.5	7.00e-07	0	44	0	1992294400	65	4794
2026-01-26 12:27:16.36	336.81	4.91	-53.0	-65.8	3.8	1.49e+00	0	44	104	1996488704	76	16750
2026-01-26 12:27:19.39	337.10	4.74	-53.3	-66.1	3.8	1.49e+00	0	44	104	1996488704	77	16431
2026-01-26 12:27:22.41	337.38	4.58	-53.5	-66.3	3.8	1.49e+00	0	44	104	1996488704	77	16755
2026-01-26 12:27:25.43	337.66	4.41	-53.5	-66.2	3.8	1.49e+00	0	44	104	1996488704	77	16617
2026-01-26 12:27:28.44	337.94	4.25	-53.3	-66.0	3.8	1.49e+00	0	44	104	1996488704	77	16257
2026-01-26 12:27:31.46	338.22	4.09	-53.4	-66.2	3.8	1.49e+00	0	44	104	1996488704	77	16505
2026-01-26 12:27:34.48	338.49	3.93	-53.5	-66.2	3.8	1.49e+00	0	44	104	1996488704	77	16649
2026-01-26 12:27:37.51	338.76	3.76	-53.4	-66.2	3.8	1.49e+00	0	44	104	1996488704	77	16514
2026-01-26 12:27:40.53	339.03	3.60	-53.4	-66.1	3.8	1.49e+00	0	44	104	1996488704	77	16443
2026-01-26 12:27:43.55	339.29	3.44	-53.4	-66.1	3.8	1.49e+00	0	44	104	1996488704	77	16416
2026-01-26 12:27:46.57	339.55	3.28	-53.4	-66.1	3.8	1.49e+00	0	44	104	1996488704	77	16443
2026-01-26 12:27:49.59	339.81	3.12	-53.4	-66.1	3.8	1.49e+00	0	44	104	1996488704	77	16376
2026-01-26 12:27:52.61	340.07	2.96	-53.3	-66.1	3.8	1.49e+00	0	44	104	1996488704	77	16340
2026-01-26 12:27:55.62	340.32	2.80	-53.3	-66.0	3.8	1.49e+00	0	44	104	1996488704	77	16314
2026-01-26 12:27:58.64	340.57	2.64	-53.3	-66.0	3.8	1.49e+00	0	44	104	1996488704	77	16295
2026-01-26 12:28:01.67	340.82	2.49	-53.3	-66.0	3.8	1.49e+00	0	44	104	1996488704	77	16310
2026-01-26 12:28:04.69	341.07	2.33	-53.3	-66.1	3.8	1.49e+00	0	44	104	1996488704	77	16325
2026-01-26 12:28:07.71	341.31	2.17	-53.3	-66.0	3.8	1.49e+00	0	44	104	1996488704	77	16273
2026-01-26 12:28:10.73	341.55	2.01	-53.3	-66.0	3.8	1.49e+00	0	44	104	1996488704	77	16289

#Closed at: 2026-01-26 12:28:12
#Recorded file [1996 MB]: D:/lorett/data/31041_260126_151543.dat