passes_logs/2026/01/26/R3.2S_Murmansk/R3.2S_Murmansk__20260126_115954_FENGYUN_3D_rec.log

#Pass ID: 20260126_115954_FENGYUN 3D
#Satellite: FENGYUN 3D
#Configuration: FENGYUN 3D
#almurnet v.1.7.20251203
#Start time: 2026-01-26 11:59:54

#Version: 2.2.20231116
#Station: R3.2S_Murmansk
#Location: 33.079688 lon 68.888172 lat
#TLE: 1 43010U 17072A   26025.99795741 -.00000136  00000+0 -42313-4 0  9999
#TLE: 2 43010  98.9962 357.9855 0002515  89.6991 270.4472 14.19699257424818

#Time	Az	El	Level	Level2	SNR	BER	BlckErr	Temp	State	Recorded	gain1	gain2
2026-01-26 11:59:54.23	161.53	1.99	-54.1	-66.1	3.8	8.45e-01	0	41	0	0	79	14543
2026-01-26 11:59:58.24	161.59	2.25	-54.1	-66.0	3.8	8.47e-01	0	41	104	0	78	15359
2026-01-26 12:00:02.28	161.65	2.51	-54.1	-66.0	3.8	8.46e-01	0	42	104	0	78	15401
2026-01-26 12:00:06.31	161.71	2.78	-54.2	-66.2	3.8	8.46e-01	0	42	104	0	79	14782
2026-01-26 12:00:10.34	161.77	3.04	-54.1	-66.1	3.8	8.45e-01	0	42	104	0	79	14620
2026-01-26 12:00:14.37	161.84	3.31	-53.9	-65.9	3.8	8.46e-01	0	42	104	0	79	14237
2026-01-26 12:00:18.40	161.90	3.58	-53.7	-65.6	3.8	8.45e-01	0	42	104	0	79	13842
2026-01-26 12:00:22.43	161.97	3.86	-53.3	-65.1	3.8	8.46e-01	0	42	104	0	78	13878
2026-01-26 12:00:26.45	162.03	4.13	-49.3	-52.3	11.0	4.14e-03	0	42	0	5242880	70	5005
2026-01-26 12:00:30.48	162.10	4.41	-45.5	-47.0	16.5	0.00e+00	0	42	0	27262976	63	4056
2026-01-26 12:00:34.51	162.17	4.69	-43.9	-45.1	18.6	0.00e+00	0	42	0	49283072	59	4100
2026-01-26 12:00:38.54	162.24	4.98	-43.9	-45.0	18.6	0.00e+00	0	42	0	72351744	58	4338
2026-01-26 12:00:42.57	162.31	5.27	-44.2	-45.4	18.1	0.00e+00	0	42	0	95420416	60	4031
2026-01-26 12:00:46.60	162.38	5.56	-43.4	-44.5	19.1	0.00e+00	0	43	0	117440512	58	4090
2026-01-26 12:00:50.63	162.45	5.85	-43.1	-44.1	19.6	0.00e+00	0	42	0	140509184	57	4129
2026-01-26 12:00:54.65	162.53	6.15	-42.9	-44.0	19.7	0.00e+00	0	42	0	163577856	57	4073
2026-01-26 12:00:58.68	162.60	6.45	-43.0	-44.0	19.8	0.00e+00	0	43	0	185597952	57	4075
2026-01-26 12:01:02.71	162.68	6.76	-42.7	-43.8	20.0	0.00e+00	0	43	0	208666624	56	4196
2026-01-26 12:01:06.73	162.76	7.07	-42.7	-43.7	20.1	0.00e+00	0	43	0	231735296	56	4186
2026-01-26 12:01:10.76	162.84	7.38	-42.5	-43.5	20.3	0.00e+00	0	43	0	253755392	56	4069
2026-01-26 12:01:14.79	162.92	7.70	-42.3	-43.3	20.4	0.00e+00	0	43	0	276824064	55	4208
2026-01-26 12:01:18.81	163.00	8.01	-42.1	-43.0	20.7	0.00e+00	0	43	0	298844160	55	4095
2026-01-26 12:01:22.84	163.08	8.34	-42.1	-43.1	20.7	0.00e+00	0	43	0	321912832	55	4107
2026-01-26 12:01:26.86	163.17	8.67	-42.0	-43.0	20.8	0.00e+00	0	43	0	344981504	55	4057
2026-01-26 12:01:30.89	163.26	9.00	-42.0	-42.9	20.8	0.00e+00	0	43	0	367001600	55	4051
2026-01-26 12:01:34.92	163.34	9.34	-41.8	-42.8	21.1	0.00e+00	0	43	0	389021696	55	3961
2026-01-26 12:01:38.94	163.43	9.68	-41.9	-42.8	21.0	0.00e+00	0	43	0	412090368	55	4004
2026-01-26 12:01:42.97	163.53	10.02	-41.9	-42.8	21.1	0.00e+00	0	43	0	435159040	55	3975
2026-01-26 12:01:46.99	163.62	10.38	-41.7	-42.6	21.3	0.00e+00	0	43	0	457179136	55	3893
2026-01-26 12:01:51.03	163.72	10.73	-41.7	-42.7	21.3	0.00e+00	0	43	0	480247808	55	3926
2026-01-26 12:01:55.06	163.81	11.09	-41.8	-42.8	21.2	0.00e+00	0	43	0	503316480	55	3972
2026-01-26 12:01:59.09	163.91	11.46	-41.6	-42.5	21.4	0.00e+00	0	43	0	525336576	55	3856
2026-01-26 12:02:03.12	164.02	11.83	-41.6	-42.5	21.4	0.00e+00	0	43	0	548405248	55	3858
2026-01-26 12:02:07.15	164.12	12.21	-41.6	-42.5	21.5	0.00e+00	0	43	0	571473920	54	4064
2026-01-26 12:02:11.18	164.23	12.60	-41.5	-42.4	21.5	0.00e+00	0	43	0	593494016	54	4046
2026-01-26 12:02:15.20	164.34	12.99	-41.3	-42.2	21.8	0.00e+00	0	43	0	616562688	54	3935
2026-01-26 12:02:19.23	164.45	13.38	-41.1	-42.0	21.9	0.00e+00	0	43	0	638582784	54	3847
2026-01-26 12:02:23.25	164.56	13.79	-41.1	-41.9	22.0	0.00e+00	0	43	0	661651456	54	3822
2026-01-26 12:02:27.28	164.68	14.20	-40.9	-41.7	22.2	0.00e+00	0	43	0	684720128	53	3947
2026-01-26 12:02:31.30	164.80	14.61	-40.6	-41.5	22.5	0.00e+00	0	43	0	706740224	53	3838
2026-01-26 12:02:35.32	164.93	15.04	-40.4	-41.2	22.7	0.00e+00	0	43	0	729808896	52	3939
2026-01-26 12:02:39.35	165.05	15.47	-40.1	-40.9	23.0	0.00e+00	0	43	0	751828992	52	3823
2026-01-26 12:02:43.38	165.18	15.91	-40.1	-40.9	23.1	0.00e+00	0	43	0	774897664	51	4040
2026-01-26 12:02:47.41	165.32	16.35	-40.0	-40.8	23.2	0.00e+00	0	43	0	796917760	51	3980
2026-01-26 12:02:51.43	165.45	16.81	-39.8	-40.5	23.5	0.00e+00	0	43	0	819986432	51	3867
2026-01-26 12:02:55.45	165.59	17.27	-39.7	-40.5	23.5	0.00e+00	0	43	0	843055104	51	3835
2026-01-26 12:02:59.47	165.74	17.74	-39.7	-40.4	23.6	0.00e+00	0	43	0	865075200	51	3822
2026-01-26 12:03:03.50	165.89	18.22	-39.4	-40.2	23.8	0.00e+00	0	43	0	888143872	50	3935
2026-01-26 12:03:07.53	166.04	18.71	-39.4	-40.1	23.9	0.00e+00	0	43	0	910163968	50	3911
2026-01-26 12:03:11.55	166.20	19.21	-39.3	-40.1	23.9	0.00e+00	0	43	0	933232640	50	3883
2026-01-26 12:03:15.58	166.36	19.73	-39.1	-39.9	24.1	0.00e+00	0	43	0	956301312	50	3796
2026-01-26 12:03:19.59	166.53	20.24	-39.1	-39.9	24.1	0.00e+00	0	43	0	978321408	50	3784
2026-01-26 12:03:23.62	166.70	20.78	-38.9	-39.6	24.3	0.00e+00	0	43	0	1001390080	49	3907
2026-01-26 12:03:27.64	166.88	21.32	-38.9	-39.6	24.3	0.00e+00	0	44	0	1024458752	49	3902
2026-01-26 12:03:31.66	167.06	21.87	-38.7	-39.5	24.5	0.00e+00	0	43	0	1046478848	49	3828
2026-01-26 12:03:35.68	167.25	22.44	-38.7	-39.4	24.5	0.00e+00	0	43	0	1069547520	49	3806
2026-01-26 12:03:39.71	167.45	23.02	-38.8	-39.5	24.4	0.00e+00	0	43	0	1091567616	49	3861
2026-01-26 12:03:43.74	167.65	23.61	-38.6	-39.4	24.5	0.00e+00	0	43	0	1114636288	49	3799
2026-01-26 12:03:47.77	167.86	24.22	-38.4	-39.2	24.7	0.00e+00	0	43	0	1136656384	48	3927
2026-01-26 12:03:51.80	168.08	24.84	-38.4	-39.1	24.8	0.00e+00	0	44	0	1159725056	48	3905
2026-01-26 12:03:55.82	168.31	25.48	-38.4	-39.1	24.8	0.00e+00	0	43	0	1181745152	48	3900
2026-01-26 12:03:59.84	168.54	26.13	-38.4	-39.1	24.8	0.00e+00	0	43	0	1204813824	48	3899
2026-01-26 12:04:03.88	168.79	26.79	-38.3	-39.1	24.9	0.00e+00	0	43	0	1227882496	48	3873
2026-01-26 12:04:07.91	169.05	27.48	-38.1	-38.8	25.1	0.00e+00	0	43	0	1249902592	48	3761
2026-01-26 12:04:11.94	169.31	28.18	-38.2	-39.0	25.0	0.00e+00	0	43	0	1272971264	48	3833
2026-01-26 12:04:15.97	169.59	28.89	-38.3	-39.0	24.9	0.00e+00	0	44	0	1296039936	48	3864
2026-01-26 12:04:20.00	169.88	29.63	-38.4	-39.2	24.8	0.00e+00	0	43	0	1318060032	48	3931
2026-01-26 12:04:24.03	170.18	30.38	-38.3	-39.1	24.9	0.00e+00	0	43	0	1341128704	48	3886
2026-01-26 12:04:28.05	170.50	31.15	-38.1	-38.8	25.1	0.00e+00	0	44	0	1364197376	48	3759
2026-01-26 12:04:32.08	170.83	31.95	-37.6	-38.4	25.0	0.00e+00	0	44	0	1386217472	46	4005
2026-01-26 12:04:36.11	171.17	32.76	-37.8	-38.6	24.8	0.00e+00	0	43	0	1409286144	46	4119
2026-01-26 12:04:40.14	171.54	33.60	-37.7	-38.5	24.9	0.00e+00	0	44	0	1432354816	46	4076
2026-01-26 12:04:44.18	171.92	34.46	-37.3	-38.0	25.3	0.00e+00	0	44	0	1454374912	46	3841
2026-01-26 12:04:48.20	172.32	35.33	-37.6	-38.3	25.1	0.00e+00	0	44	0	1476395008	46	3999
2026-01-26 12:04:52.22	172.75	36.24	-37.3	-38.0	25.7	0.00e+00	0	43	0	1499463680	46	3853
2026-01-26 12:04:56.26	173.20	37.17	-37.3	-38.0	25.8	0.00e+00	0	43	0	1522532352	46	3835
2026-01-26 12:05:00.30	173.67	38.12	-37.1	-37.8	25.9	0.00e+00	0	43	0	1544552448	46	3768
2026-01-26 12:05:04.32	174.17	39.10	-37.3	-38.0	25.8	0.00e+00	0	43	0	1567621120	46	3848
2026-01-26 12:05:08.35	174.70	40.10	-37.7	-38.4	25.4	0.00e+00	0	43	0	1590689792	46	4008
2026-01-26 12:05:12.37	175.27	41.13	-37.4	-38.1	25.7	0.00e+00	0	43	0	1612709888	46	3881
2026-01-26 12:05:16.41	175.87	42.19	-37.9	-38.7	25.2	0.00e+00	0	44	0	1635778560	46	4150
2026-01-26 12:05:20.44	176.51	43.28	-37.8	-38.5	25.3	0.00e+00	0	44	0	1658847232	46	4098
2026-01-26 12:05:24.47	177.20	44.39	-37.7	-38.4	25.5	0.00e+00	0	43	0	1680867328	46	4007
2026-01-26 12:05:28.49	177.93	45.53	-38.0	-38.7	25.2	0.00e+00	0	43	0	1703936000	46	4171
2026-01-26 12:05:32.53	178.72	46.70	-37.6	-38.3	25.5	0.00e+00	0	43	0	1725956096	46	3984
2026-01-26 12:05:36.55	179.57	47.89	-37.9	-38.6	25.3	0.00e+00	0	44	0	1749024768	46	4138
2026-01-26 12:05:40.58	180.49	49.12	-38.3	-39.1	24.9	0.00e+00	0	43	0	1772093440	47	4108
2026-01-26 12:05:44.61	181.48	50.37	-38.2	-39.0	25.0	0.00e+00	0	44	0	1794113536	47	4059
2026-01-26 12:05:48.64	182.56	51.64	-39.0	-39.8	24.8	0.00e+00	0	44	0	1817182208	48	4195
2026-01-26 12:05:52.66	183.73	52.94	-39.6	-40.3	24.3	0.00e+00	0	44	0	1839202304	49	4241
2026-01-26 12:05:56.69	185.01	54.25	-39.0	-39.7	24.9	0.00e+00	0	43	0	1862270976	49	3926
2026-01-26 12:06:00.72	186.42	55.59	-39.2	-39.9	24.7	0.00e+00	0	43	0	1884291072	49	4049
2026-01-26 12:06:04.76	187.97	56.95	-39.5	-40.3	24.3	0.00e+00	0	43	0	1907359744	49	4220
2026-01-26 12:06:08.79	189.67	58.31	-38.7	-39.4	25.1	0.00e+00	0	43	0	1930428416	49	3809
2026-01-26 12:06:12.82	191.56	59.68	-38.2	-38.9	25.6	0.00e+00	0	44	0	1952448512	48	3792
2026-01-26 12:06:16.84	193.64	61.05	-37.4	-38.1	25.8	0.00e+00	0	43	0	1975517184	46	3901
2026-01-26 12:06:20.87	195.97	62.41	-37.7	-38.5	25.4	0.00e+00	0	43	0	1998585856	46	4067
2026-01-26 12:06:24.89	198.57	63.75	-37.5	-38.3	25.7	0.00e+00	0	43	0	2020605952	46	3962
2026-01-26 12:06:28.91	201.48	65.06	-37.0	-37.7	26.2	0.00e+00	0	44	0	2043674624	46	3704
2026-01-26 12:06:32.95	204.76	66.34	-37.6	-38.3	25.6	0.00e+00	0	43	0	2066743296	46	3987
2026-01-26 12:06:36.97	208.42	67.55	-37.1	-37.7	26.2	0.00e+00	0	43	0	2088763392	46	3731
2026-01-26 12:06:41.01	212.54	68.69	-37.5	-38.2	25.8	0.00e+00	0	43	0	2111832064	45	4164
2026-01-26 12:06:45.03	217.12	69.72	-37.0	-37.7	26.2	0.00e+00	0	43	0	2134900736	45	3944
2026-01-26 12:06:49.07	222.21	70.64	-36.3	-37.0	26.8	0.00e+00	0	43	0	2156920832	44	3846
2026-01-26 12:06:53.09	227.77	71.40	-36.8	-37.5	26.4	0.00e+00	0	43	0	2178940928	44	4088
2026-01-26 12:06:57.12	233.78	71.99	-36.4	-37.1	26.8	0.00e+00	0	43	0	2202009600	44	3892
2026-01-26 12:07:01.15	240.15	72.38	-36.4	-37.0	26.8	0.00e+00	0	43	0	2225078272	44	3856
2026-01-26 12:07:05.18	246.74	72.56	-36.6	-37.3	26.6	0.00e+00	0	44	0	2247098368	44	3977
2026-01-26 12:07:09.21	253.39	72.52	-36.5	-37.2	26.6	0.00e+00	0	43	0	2270167040	44	3942
2026-01-26 12:07:13.24	259.92	72.26	-36.5	-37.2	26.7	0.00e+00	0	44	0	2293235712	44	3931
2026-01-26 12:07:17.27	266.17	71.79	-36.6	-37.3	26.6	0.00e+00	0	43	0	2315255808	44	3969
2026-01-26 12:07:21.30	272.02	71.14	-36.6	-37.3	26.6	0.00e+00	0	43	0	2338324480	44	3995
2026-01-26 12:07:25.33	277.41	70.32	-36.8	-37.5	26.5	0.00e+00	0	44	0	2360344576	44	4068
2026-01-26 12:07:29.35	282.30	69.36	-36.8	-37.5	26.4	0.00e+00	0	43	0	2383413248	44	4071
2026-01-26 12:07:33.39	286.71	68.28	-37.1	-37.8	26.2	0.00e+00	0	43	0	2406481920	45	3994
2026-01-26 12:07:37.43	290.66	67.11	-37.1	-37.7	26.3	0.00e+00	0	44	0	2428502016	45	3956
2026-01-26 12:07:41.45	294.17	65.88	-37.3	-38.0	26.1	0.00e+00	0	43	0	2451570688	45	4060
2026-01-26 12:07:45.48	297.30	64.59	-37.7	-38.4	25.7	0.00e+00	0	43	0	2474639360	45	4259
2026-01-26 12:07:49.51	300.09	63.27	-37.6	-38.3	25.8	0.00e+00	0	43	0	2496659456	46	3968
2026-01-26 12:07:53.54	302.59	61.92	-37.5	-38.2	25.9	0.00e+00	0	43	0	2519728128	46	3937
2026-01-26 12:07:57.57	304.83	60.56	-38.0	-38.7	25.5	0.00e+00	0	44	0	2541748224	46	4146
2026-01-26 12:08:01.61	306.84	59.19	-38.2	-38.9	25.3	0.00e+00	0	43	0	2564816896	47	4023
2026-01-26 12:08:05.65	308.66	57.82	-38.3	-39.0	25.2	0.00e+00	0	43	0	2587885568	47	4087
2026-01-26 12:08:09.68	310.30	56.46	-38.6	-39.4	24.9	0.00e+00	0	44	0	2609905664	47	4248
2026-01-26 12:08:13.71	311.79	55.12	-39.2	-39.9	25.0	0.00e+00	0	43	0	2632974336	48	4265
2026-01-26 12:08:17.75	313.15	53.79	-39.3	-40.0	24.8	0.00e+00	0	43	0	2656043008	49	4086
2026-01-26 12:08:21.78	314.39	52.48	-38.9	-39.6	25.2	0.00e+00	0	43	0	2678063104	49	3888
2026-01-26 12:08:25.81	315.52	51.19	-38.7	-39.4	25.3	0.00e+00	0	43	0	2701131776	49	3811
2026-01-26 12:08:29.84	316.57	49.93	-38.0	-38.7	25.9	0.00e+00	0	43	0	2724200448	48	3710
2026-01-26 12:08:33.87	317.53	48.70	-38.2	-38.9	25.8	0.00e+00	0	43	0	2746220544	48	3784
2026-01-26 12:08:37.89	318.42	47.49	-38.5	-39.2	25.5	0.00e+00	0	43	0	2769289216	48	3949
2026-01-26 12:08:41.91	319.24	46.31	-38.6	-39.3	25.3	0.00e+00	0	43	0	2791309312	48	3996
2026-01-26 12:08:45.93	320.01	45.16	-38.2	-38.9	25.7	0.00e+00	0	43	0	2814377984	48	3799
2026-01-26 12:08:49.96	320.73	44.03	-38.1	-38.7	25.9	0.00e+00	0	44	0	2837446656	48	3728
2026-01-26 12:08:54.00	321.40	42.93	-37.4	-38.1	25.8	0.00e+00	0	44	0	2859466752	46	3907
2026-01-26 12:08:58.04	322.03	41.85	-37.3	-38.0	26.0	0.00e+00	0	43	0	2882535424	46	3831
2026-01-26 12:09:02.07	322.62	40.81	-37.3	-37.9	26.0	0.00e+00	0	44	0	2904555520	46	3824
2026-01-26 12:09:06.10	323.17	39.79	-37.3	-38.0	26.0	0.00e+00	0	44	0	2927624192	46	3832
2026-01-26 12:09:10.13	323.69	38.80	-37.3	-38.0	26.0	0.00e+00	0	43	0	2950692864	46	3832
2026-01-26 12:09:14.17	324.18	37.83	-37.2	-37.9	26.0	0.00e+00	0	44	0	2972712960	46	3810
2026-01-26 12:09:18.20	324.65	36.89	-37.4	-38.1	25.8	0.00e+00	0	44	0	2995781632	46	3913
2026-01-26 12:09:22.24	325.09	35.97	-37.1	-37.8	26.0	0.00e+00	0	44	0	3018850304	46	3757
2026-01-26 12:09:26.27	325.50	35.08	-37.2	-37.9	26.0	0.00e+00	0	43	0	3040870400	46	3797
2026-01-26 12:09:30.29	325.90	34.21	-37.3	-38.0	25.8	0.00e+00	0	43	0	3063939072	46	3854
2026-01-26 12:09:34.32	326.28	33.36	-37.4	-38.1	25.8	0.00e+00	0	44	0	3085959168	46	3872
2026-01-26 12:09:38.35	326.63	32.54	-37.3	-38.0	25.8	0.00e+00	0	43	0	3109027840	46	3865
2026-01-26 12:09:42.38	326.98	31.73	-37.6	-38.3	25.6	0.00e+00	0	44	0	3132096512	46	3974
2026-01-26 12:09:46.41	327.30	30.95	-37.6	-38.3	25.5	0.00e+00	0	43	0	3154116608	46	3985
2026-01-26 12:09:50.45	327.61	30.19	-37.4	-38.1	25.7	0.00e+00	0	44	0	3177185280	46	3869
2026-01-26 12:09:54.48	327.91	29.44	-37.3	-38.0	25.8	0.00e+00	0	43	0	3200253952	46	3834
2026-01-26 12:09:58.50	328.20	28.72	-37.6	-38.3	25.5	0.00e+00	0	44	0	3222274048	46	3975
2026-01-26 12:10:02.53	328.47	28.01	-37.6	-38.3	25.5	0.00e+00	0	44	0	3245342720	46	3982
2026-01-26 12:10:06.57	328.74	27.32	-37.6	-38.3	25.5	0.00e+00	0	44	0	3267362816	46	3971
2026-01-26 12:10:10.60	328.99	26.64	-37.5	-38.2	25.5	0.00e+00	0	43	0	3290431488	46	3931
2026-01-26 12:10:14.63	329.23	25.98	-37.7	-38.4	25.3	0.00e+00	0	44	0	3313500160	46	4028
2026-01-26 12:10:18.66	329.47	25.34	-37.9	-38.7	25.1	0.00e+00	0	44	0	3335520256	46	4148
2026-01-26 12:10:22.70	329.69	24.71	-38.1	-38.8	25.0	0.00e+00	0	43	0	3358588928	46	4225
2026-01-26 12:10:26.73	329.91	24.10	-38.2	-38.9	24.8	0.00e+00	0	44	0	3381657600	47	4045
2026-01-26 12:10:30.76	330.12	23.50	-38.4	-39.2	24.6	0.00e+00	0	44	0	3403677696	47	4147
2026-01-26 12:10:34.79	330.32	22.91	-38.4	-39.1	24.6	0.00e+00	0	43	0	3426746368	47	4130
2026-01-26 12:10:38.82	330.52	22.33	-38.4	-39.2	24.6	0.00e+00	0	44	0	3448766464	47	4153
2026-01-26 12:10:42.85	330.71	21.77	-38.6	-39.3	24.4	0.00e+00	0	43	0	3471835136	47	4222
2026-01-26 12:10:46.88	330.89	21.22	-38.7	-39.5	24.3	0.00e+00	0	43	0	3494903808	47	4292
2026-01-26 12:10:50.90	331.07	20.69	-39.1	-39.8	24.5	0.00e+00	0	43	0	3516923904	48	4227
2026-01-26 12:10:54.93	331.24	20.16	-39.1	-39.8	24.5	0.00e+00	0	44	0	3539992576	48	4218
2026-01-26 12:10:58.96	331.41	19.64	-39.1	-39.8	24.4	0.00e+00	0	44	0	3563061248	48	4230
2026-01-26 12:11:02.99	331.57	19.14	-39.3	-40.0	24.2	0.00e+00	0	43	0	3585081344	49	4091
2026-01-26 12:11:07.02	331.73	18.64	-39.3	-40.0	24.2	0.00e+00	0	43	0	3607101440	49	4096
2026-01-26 12:11:11.05	331.88	18.15	-39.5	-40.2	24.0	0.00e+00	0	44	0	3630170112	49	4190
2026-01-26 12:11:15.08	332.03	17.68	-39.7	-40.5	23.8	0.00e+00	0	44	0	3653238784	50	4059
2026-01-26 12:11:19.10	332.18	17.21	-39.9	-40.7	23.6	0.00e+00	0	44	0	3675258880	50	4177
2026-01-26 12:11:23.13	332.32	16.75	-40.2	-41.0	23.3	0.00e+00	0	43	0	3698327552	50	4322
2026-01-26 12:11:27.15	332.45	16.30	-40.2	-41.0	23.2	0.00e+00	0	44	0	3721396224	51	4089
2026-01-26 12:11:31.18	332.59	15.86	-40.4	-41.2	23.0	0.00e+00	0	44	0	3743416320	51	4189
2026-01-26 12:11:35.21	332.72	15.42	-40.4	-41.2	23.0	0.00e+00	0	43	0	3766484992	51	4183
2026-01-26 12:11:39.24	332.85	15.00	-40.3	-41.1	23.1	0.00e+00	0	43	0	3789553664	51	4122
2026-01-26 12:11:43.25	332.97	14.58	-40.6	-41.4	22.8	0.00e+00	0	43	0	3811573760	51	4262
2026-01-26 12:11:47.28	333.09	14.16	-40.5	-41.3	22.9	0.00e+00	0	44	0	3834642432	51	4195
2026-01-26 12:11:51.31	333.21	13.76	-40.4	-41.2	22.9	0.00e+00	0	43	0	3856662528	51	4172
2026-01-26 12:11:55.32	333.33	13.36	-40.5	-41.3	22.8	0.00e+00	0	43	0	3879731200	51	4199
2026-01-26 12:11:59.35	333.44	12.97	-40.6	-41.3	22.8	0.00e+00	0	43	0	3902799872	51	4238
2026-01-26 12:12:03.39	333.55	12.58	-40.6	-41.4	22.6	0.00e+00	0	44	0	3924819968	52	4028
2026-01-26 12:12:07.41	333.66	12.20	-40.8	-41.6	22.4	0.00e+00	0	44	0	3946840064	52	4121
2026-01-26 12:12:11.43	333.76	11.82	-40.9	-41.7	22.3	0.00e+00	0	44	0	3969908736	52	4176
2026-01-26 12:12:15.45	333.87	11.46	-41.0	-41.9	22.1	0.00e+00	0	43	0	3992977408	52	4252
2026-01-26 12:12:19.48	333.97	11.09	-41.1	-42.0	22.0	0.00e+00	0	44	0	4014997504	52	4302
2026-01-26 12:12:23.50	334.07	10.73	-41.2	-42.1	21.9	0.00e+00	0	44	0	4038066176	53	4123
2026-01-26 12:12:27.52	334.17	10.38	-41.4	-42.2	21.7	0.00e+00	0	44	0	4060086272	53	4192
2026-01-26 12:12:31.54	334.26	10.03	-41.5	-42.3	21.6	0.00e+00	0	43	0	4083154944	53	4242
2026-01-26 12:12:35.57	334.36	9.69	-41.7	-42.6	21.3	0.00e+00	0	44	0	4106223616	53	4381
2026-01-26 12:12:39.60	334.45	9.35	-41.8	-42.8	21.2	0.00e+00	0	43	0	4128243712	54	4205
2026-01-26 12:12:43.62	334.54	9.01	-42.0	-43.0	20.9	0.00e+00	0	44	0	4151312384	54	4293
2026-01-26 12:12:47.65	334.63	8.68	-41.9	-42.8	21.1	0.00e+00	0	44	0	4174381056	54	4208
2026-01-26 12:12:51.68	334.72	8.36	-42.1	-43.0	20.8	0.00e+00	0	44	0	4196401152	54	4316
2026-01-26 12:12:55.70	334.80	8.04	-42.2	-43.2	20.7	0.00e+00	0	44	0	4219469824	55	4148
2026-01-26 12:12:59.73	334.89	7.72	-42.4	-43.4	20.4	0.00e+00	0	44	0	4241489920	55	4256
2026-01-26 12:13:03.75	334.97	7.40	-42.2	-43.1	20.7	0.00e+00	0	44	0	4264558592	55	4130
2026-01-26 12:13:07.79	335.05	7.09	-42.4	-43.4	20.4	0.00e+00	0	43	0	4286578688	55	4254
2026-01-26 12:13:11.83	335.13	6.79	-42.5	-43.4	20.3	0.00e+00	0	44	0	4309647360	55	4286
2026-01-26 12:13:15.87	335.21	6.48	-42.5	-43.5	20.2	0.00e+00	0	44	0	4332716032	55	4311
2026-01-26 12:13:19.89	335.29	6.18	-42.9	-44.0	19.8	0.00e+00	0	44	0	4354736128	56	4292
2026-01-26 12:13:23.93	335.36	5.89	-42.9	-43.9	19.8	0.00e+00	0	44	0	4377804800	56	4278
2026-01-26 12:13:27.95	335.44	5.59	-42.8	-43.8	19.8	0.00e+00	0	44	0	4400873472	56	4232
2026-01-26 12:13:31.99	335.51	5.30	-43.2	-44.3	19.3	0.00e+00	0	43	0	4422893568	57	4221
2026-01-26 12:13:36.02	335.59	5.02	-43.1	-44.2	19.4	0.00e+00	0	44	0	4445962240	57	4151
2026-01-26 12:13:40.05	335.66	4.73	-53.2	-65.2	3.9	8.46e-01	0	44	104	4450156544	77	14734
2026-01-26 12:13:44.08	335.73	4.45	-53.5	-65.4	3.8	8.46e-01	0	44	104	4450156544	77	15216
2026-01-26 12:13:48.10	335.80	4.18	-53.4	-65.4	3.8	8.47e-01	0	44	104	4450156544	77	15071
2026-01-26 12:13:52.13	335.87	3.90	-53.3	-65.3	3.8	8.46e-01	0	44	104	4450156544	77	14899
2026-01-26 12:13:56.15	335.94	3.63	-53.4	-65.3	3.8	8.46e-01	0	44	104	4450156544	77	14973
2026-01-26 12:14:00.18	336.00	3.36	-53.3	-65.3	3.8	8.46e-01	0	44	104	4450156544	77	14899
2026-01-26 12:14:04.21	336.07	3.09	-53.3	-65.3	3.8	8.46e-01	0	44	104	4450156544	77	14886
2026-01-26 12:14:08.23	336.14	2.83	-53.3	-65.2	3.8	8.47e-01	0	44	104	4450156544	77	14871
2026-01-26 12:14:12.27	336.20	2.57	-53.3	-65.3	3.8	8.46e-01	0	44	104	4450156544	77	14893
2026-01-26 12:14:16.29	336.27	2.31	-53.3	-65.2	3.8	8.46e-01	0	44	104	4450156544	77	14840
2026-01-26 12:14:20.33	336.33	2.05	-53.3	-65.2	3.8	8.46e-01	0	44	104	4450156544	77	14822

#Closed at: 2026-01-26 12:14:23
#Recorded file [4450 MB]: D:/lorett/data/31041_260126_145954.dat