passes_logs/2026/01/26/R3.2S_Murmansk/R3.2S_Murmansk__20260126_071337_NOAA_21_JPSS-2_rec.log

#Pass ID: 20260126_071337_NOAA 21 (JPSS-2)
#Satellite: NOAA 21 (JPSS-2)
#Configuration: NOAA-21
#almurnet v.1.7.20251203
#Start time: 2026-01-26 07:15:06

#Version: 2.2.20231116
#Station: R3.2S_Murmansk
#Location: 33.079688 lon 68.888172 lat
#TLE: 1 54234U 22150A   26025.93791214  .00000195  00000+0  11336-3 0  9990
#TLE: 2 54234  98.7509 326.7059 0000782 212.3040 147.8088 14.19539484166365

#Time	Az	El	Level	Level2	SNR	BER	BlckErr	Temp	State	Recorded	gain1	gain2
2026-01-26 07:15:06.20	94.45	7.84	-53.1	-65.0	3.8	8.47e-01	0	42	0	0	77	14484
2026-01-26 07:15:09.21	94.24	8.06	-54.1	-66.8	3.8	1.49e+00	0	44	104	0	78	16844
2026-01-26 07:15:12.23	94.01	8.28	-54.2	-66.9	3.8	1.49e+00	0	43	104	0	78	17080
2026-01-26 07:15:15.25	93.79	8.50	-54.2	-67.0	3.8	1.49e+00	0	43	104	0	79	16253
2026-01-26 07:15:18.27	93.56	8.72	-54.3	-67.0	3.8	1.49e+00	0	44	104	0	79	16305
2026-01-26 07:15:21.29	93.32	8.95	-54.3	-67.1	3.8	1.49e+00	0	44	104	0	79	16432
2026-01-26 07:15:24.31	93.09	9.17	-54.3	-67.1	3.8	1.49e+00	0	44	104	0	79	16343
2026-01-26 07:15:27.33	92.85	9.40	-54.3	-67.0	3.8	1.49e+00	0	43	104	0	79	16234
2026-01-26 07:15:30.35	92.60	9.63	-54.2	-67.0	3.8	1.49e+00	0	44	104	0	79	16244
2026-01-26 07:15:33.37	92.35	9.86	-54.2	-66.9	3.8	1.49e+00	0	44	104	0	79	16122
2026-01-26 07:15:36.40	92.10	10.09	-54.1	-66.9	3.8	1.49e+00	0	44	104	0	79	16011
2026-01-26 07:15:39.43	91.84	10.32	-54.2	-66.9	3.8	1.49e+00	0	44	104	0	79	16073
2026-01-26 07:15:42.45	91.58	10.56	-54.2	-66.9	3.8	1.49e+00	0	44	104	0	79	16071
2026-01-26 07:15:45.48	91.31	10.80	-54.2	-66.9	3.8	1.49e+00	0	44	104	0	79	16080
2026-01-26 07:15:48.50	91.04	11.04	-54.1	-66.8	3.8	1.49e+00	0	44	104	0	79	15922
2026-01-26 07:15:51.52	90.77	11.28	-54.1	-66.8	3.8	1.49e+00	0	43	104	0	79	15858
2026-01-26 07:15:54.54	90.49	11.52	-54.1	-66.8	3.8	1.49e+00	0	44	104	0	79	15905
2026-01-26 07:15:57.57	90.20	11.76	-54.0	-66.8	3.8	1.49e+00	0	44	104	0	79	15867
2026-01-26 07:16:00.59	89.91	12.01	-54.0	-66.8	3.8	1.49e+00	0	43	104	0	79	15866
2026-01-26 07:16:03.62	89.62	12.25	-54.0	-66.8	3.8	1.49e+00	0	44	104	0	79	15819
2026-01-26 07:16:06.64	89.32	12.50	-54.0	-66.8	3.8	1.49e+00	0	44	104	0	79	15791
2026-01-26 07:16:09.67	89.01	12.75	-54.0	-66.8	3.8	1.49e+00	0	44	104	0	79	15787
2026-01-26 07:16:12.68	88.71	13.00	-54.0	-66.7	3.8	1.49e+00	0	44	104	0	79	15757
2026-01-26 07:16:15.71	88.39	13.26	-54.2	-67.0	3.8	1.49e+00	0	43	104	0	79	16128
2026-01-26 07:16:18.72	88.07	13.51	-54.2	-66.9	3.8	1.49e+00	0	44	104	0	79	16124
2026-01-26 07:16:21.75	87.74	13.77	-54.1	-66.9	3.8	1.49e+00	0	43	104	0	79	15969
2026-01-26 07:16:24.78	87.41	14.03	-53.9	-66.7	3.8	1.49e+00	0	43	104	0	79	15679
2026-01-26 07:16:27.79	87.07	14.29	-53.7	-66.5	3.8	1.49e+00	0	43	104	0	79	15265
2026-01-26 07:16:30.81	86.72	14.55	-53.5	-66.2	3.8	1.49e+00	0	43	104	0	79	14868
2026-01-26 07:16:33.83	86.37	14.82	-53.3	-66.0	3.8	1.49e+00	0	43	104	0	78	15368
2026-01-26 07:16:36.85	86.01	15.08	-45.7	-47.0	17.5	0.00e+00	0	44	0	1048576	63	4055
2026-01-26 07:16:39.88	85.65	15.35	-49.0	-51.5	13.4	0.00e+00	0	44	0	9437184	68	5117
2026-01-26 07:16:42.89	85.28	15.62	-43.7	-44.7	19.8	0.00e+00	0	44	0	16777216	59	3932
2026-01-26 07:16:45.92	84.90	15.89	-43.3	-44.3	20.5	0.00e+00	0	44	0	26214400	58	3970
2026-01-26 07:16:48.94	84.51	16.17	-43.1	-44.1	20.7	0.00e+00	0	44	0	35651584	58	3875
2026-01-26 07:16:51.96	84.12	16.44	-43.2	-44.2	20.6	0.00e+00	0	44	0	45088768	57	4146
2026-01-26 07:16:54.98	83.72	16.72	-43.4	-44.4	20.4	0.00e+00	0	44	0	54525952	57	4247
2026-01-26 07:16:58.00	83.31	17.00	-43.2	-44.1	20.6	0.00e+00	0	43	0	63963136	57	4140
2026-01-26 07:17:01.01	82.90	17.28	-43.2	-44.1	20.7	0.00e+00	0	43	0	73400320	57	4124
2026-01-26 07:17:04.04	82.48	17.56	-43.2	-44.1	20.6	0.00e+00	0	44	0	82837504	57	4141
2026-01-26 07:17:07.06	82.04	17.84	-43.1	-44.0	20.7	0.00e+00	0	44	0	92274688	57	4090
2026-01-26 07:17:10.08	81.60	18.13	-43.0	-43.9	20.9	0.00e+00	0	44	0	101711872	57	4026
2026-01-26 07:17:13.10	81.16	18.41	-42.9	-43.8	20.9	0.00e+00	0	43	0	111149056	57	4000
2026-01-26 07:17:16.12	80.70	18.70	-42.6	-43.5	21.2	0.00e+00	0	43	0	120586240	57	3860
2026-01-26 07:17:19.15	80.23	18.99	-42.6	-43.5	21.2	0.00e+00	0	43	0	130023424	57	3855
2026-01-26 07:17:22.16	79.76	19.28	-42.4	-43.3	21.3	0.00e+00	0	43	0	139460608	56	3963
2026-01-26 07:17:25.19	79.27	19.57	-42.5	-43.4	21.3	0.00e+00	0	44	0	148897792	56	4018
2026-01-26 07:17:28.21	78.78	19.86	-42.6	-43.5	21.3	0.00e+00	0	44	0	158334976	56	4072
2026-01-26 07:17:31.23	78.28	20.16	-42.0	-42.9	21.8	0.00e+00	0	43	0	167772160	56	3785
2026-01-26 07:17:34.26	77.76	20.45	-41.9	-42.7	21.8	0.00e+00	0	43	0	177209344	55	3929
2026-01-26 07:17:37.27	77.24	20.75	-41.7	-42.5	22.0	0.00e+00	0	44	0	186646528	55	3860
2026-01-26 07:17:40.29	76.71	21.04	-41.7	-42.5	22.1	0.00e+00	0	44	0	196083712	55	3848
2026-01-26 07:17:43.32	76.16	21.34	-41.9	-42.8	21.9	0.00e+00	0	43	0	205520896	55	3971
2026-01-26 07:17:46.33	75.61	21.64	-41.8	-42.6	22.0	0.00e+00	0	43	0	214958080	55	3897
2026-01-26 07:17:49.35	75.04	21.94	-41.7	-42.5	22.1	0.00e+00	0	44	0	224395264	55	3838
2026-01-26 07:17:52.38	74.47	22.24	-41.8	-42.6	22.0	0.00e+00	0	44	0	233832448	55	3881
2026-01-26 07:17:55.40	73.88	22.54	-41.8	-42.6	22.0	0.00e+00	0	43	0	243269632	55	3908
2026-01-26 07:17:58.42	73.28	22.84	-41.9	-42.7	21.9	0.00e+00	0	43	0	252706816	55	3940
2026-01-26 07:18:01.44	72.67	23.14	-42.1	-43.0	21.7	0.00e+00	0	43	0	262144000	55	4061
2026-01-26 07:18:04.46	72.04	23.44	-42.1	-43.0	21.8	0.00e+00	0	44	0	271581184	55	4053
2026-01-26 07:18:07.48	71.41	23.74	-41.5	-42.3	22.3	0.00e+00	0	43	0	281018368	55	3752
2026-01-26 07:18:10.50	70.76	24.03	-41.6	-42.4	22.1	0.00e+00	0	44	0	290455552	55	3799
2026-01-26 07:18:13.51	70.10	24.33	-41.8	-42.7	22.0	0.00e+00	0	43	0	299892736	55	3919
2026-01-26 07:18:16.53	69.43	24.63	-41.7	-42.5	22.2	0.00e+00	0	44	0	309329920	55	3843
2026-01-26 07:18:19.55	68.74	24.92	-41.7	-42.5	22.1	0.00e+00	0	43	0	318767104	55	3854
2026-01-26 07:18:22.58	68.04	25.22	-42.0	-42.8	21.9	0.00e+00	0	43	0	328204288	55	3969
2026-01-26 07:18:25.60	67.33	25.51	-42.1	-42.9	21.9	0.00e+00	0	44	0	337641472	55	4017
2026-01-26 07:18:28.63	66.60	25.81	-42.4	-43.2	21.5	0.00e+00	0	43	0	347078656	55	4178
2026-01-26 07:18:31.64	65.86	26.09	-42.7	-43.6	21.2	0.00e+00	0	44	0	356515840	55	4352
2026-01-26 07:18:34.66	65.11	26.38	-42.7	-43.6	21.3	0.00e+00	0	43	0	365953024	56	4111
2026-01-26 07:18:37.68	64.34	26.67	-42.6	-43.5	21.5	0.00e+00	0	44	0	375390208	56	4054
2026-01-26 07:18:40.70	63.56	26.95	-42.3	-43.1	21.8	0.00e+00	0	43	0	384827392	56	3902
2026-01-26 07:18:43.72	62.77	27.23	-42.3	-43.1	21.8	0.00e+00	0	43	0	394264576	56	3906
2026-01-26 07:18:46.74	61.96	27.50	-42.5	-43.3	21.6	0.00e+00	0	43	0	403701760	56	3984
2026-01-26 07:18:49.76	61.14	27.77	-42.6	-43.4	21.5	0.00e+00	0	44	0	413138944	56	4032
2026-01-26 07:18:52.78	60.30	28.04	-42.5	-43.3	21.6	0.00e+00	0	44	0	422576128	56	4002
2026-01-26 07:18:55.79	59.45	28.30	-42.4	-43.3	21.6	0.00e+00	0	43	0	432013312	56	3960
2026-01-26 07:18:58.81	58.59	28.56	-42.1	-43.0	21.9	0.00e+00	0	43	0	441450496	56	3831
2026-01-26 07:19:01.84	57.71	28.81	-42.6	-43.5	21.4	0.00e+00	0	43	0	450887680	56	4071
2026-01-26 07:19:04.86	56.81	29.06	-42.8	-43.7	21.3	0.00e+00	0	43	0	460324864	56	4181
2026-01-26 07:19:07.87	55.91	29.30	-42.6	-43.5	21.3	0.00e+00	0	44	0	469762048	56	4077
2026-01-26 07:19:10.89	54.99	29.54	-42.7	-43.6	21.3	0.00e+00	0	43	0	479199232	56	4114
2026-01-26 07:19:13.91	54.06	29.77	-42.2	-43.0	21.9	0.00e+00	0	44	0	488636416	56	3831
2026-01-26 07:19:16.92	53.11	29.99	-42.2	-43.1	21.9	0.00e+00	0	43	0	498073600	56	3871
2026-01-26 07:19:19.94	52.15	30.20	-42.5	-43.4	21.6	0.00e+00	0	43	0	507510784	56	4019
2026-01-26 07:19:22.95	51.18	30.41	-42.8	-43.6	21.3	0.00e+00	0	43	0	516947968	56	4141
2026-01-26 07:19:25.98	50.20	30.61	-43.3	-44.2	20.9	0.00e+00	0	43	0	526385152	57	4171
2026-01-26 07:19:29.00	49.20	30.80	-43.2	-44.1	21.0	0.00e+00	0	43	0	535822336	57	4130
2026-01-26 07:19:32.02	48.19	30.98	-43.0	-43.9	21.1	0.00e+00	0	43	0	545259520	57	4043
2026-01-26 07:19:35.04	47.17	31.16	-43.0	-43.9	21.2	0.00e+00	0	43	0	554696704	57	4040
2026-01-26 07:19:38.06	46.14	31.32	-43.0	-43.8	21.2	0.00e+00	0	43	0	564133888	57	4002
2026-01-26 07:19:41.08	45.10	31.48	-43.3	-44.2	20.9	0.00e+00	0	43	0	573571072	57	4171
2026-01-26 07:19:44.10	44.05	31.62	-43.5	-44.5	20.6	0.00e+00	0	43	0	583008256	57	4312
2026-01-26 07:19:47.12	42.99	31.75	-43.3	-44.3	20.8	0.00e+00	0	44	0	592445440	57	4195
2026-01-26 07:19:50.13	41.93	31.88	-43.0	-43.9	21.1	0.00e+00	0	44	0	601882624	57	4028
2026-01-26 07:19:53.16	40.85	31.99	-43.0	-43.9	21.2	0.00e+00	0	43	0	611319808	57	4022
2026-01-26 07:19:56.18	39.77	32.09	-43.3	-44.2	20.9	0.00e+00	0	43	0	620756992	57	4185
2026-01-26 07:19:59.20	38.68	32.18	-43.2	-44.1	21.0	0.00e+00	0	43	0	630194176	57	4104
2026-01-26 07:20:02.21	37.59	32.26	-43.2	-44.1	21.0	0.00e+00	0	43	0	639631360	57	4127
2026-01-26 07:20:05.22	36.49	32.32	-43.7	-44.7	20.5	0.00e+00	0	43	0	649068544	57	4396
2026-01-26 07:20:08.25	35.38	32.38	-43.5	-44.5	20.7	0.00e+00	0	43	0	658505728	57	4301
2026-01-26 07:20:11.27	34.28	32.42	-43.3	-44.2	20.8	0.00e+00	0	44	0	667942912	57	4193
2026-01-26 07:20:14.29	33.17	32.45	-43.3	-44.2	20.9	0.00e+00	0	43	0	677380096	57	4192
2026-01-26 07:20:17.31	32.06	32.47	-43.7	-44.6	20.5	0.00e+00	0	43	0	686817280	57	4386
2026-01-26 07:20:20.33	30.95	32.48	-43.3	-44.2	20.9	0.00e+00	0	43	0	696254464	57	4173
2026-01-26 07:20:23.36	29.83	32.47	-43.0	-43.9	21.2	0.00e+00	0	44	0	705691648	57	4041
2026-01-26 07:20:26.37	28.72	32.45	-43.1	-44.0	21.0	0.00e+00	0	43	0	715128832	57	4081
2026-01-26 07:20:29.39	27.61	32.42	-43.0	-43.8	21.3	0.00e+00	0	43	0	724566016	57	3998
2026-01-26 07:20:32.42	26.50	32.38	-43.2	-44.1	21.0	0.00e+00	0	44	0	734003200	57	4137
2026-01-26 07:20:35.44	25.40	32.32	-43.2	-44.1	21.1	0.00e+00	0	43	0	743440384	57	4124
2026-01-26 07:20:38.46	24.30	32.26	-43.0	-43.9	21.2	0.00e+00	0	44	0	752877568	57	4033
2026-01-26 07:20:41.49	23.20	32.18	-42.8	-43.7	21.4	0.00e+00	0	43	0	762314752	57	3921
2026-01-26 07:20:44.51	22.12	32.09	-42.8	-43.7	21.4	0.00e+00	0	44	0	771751936	57	3942
2026-01-26 07:20:47.53	21.03	31.99	-43.0	-43.9	21.2	0.00e+00	0	44	0	781189120	57	4034
2026-01-26 07:20:50.56	19.96	31.88	-43.1	-44.0	21.2	0.00e+00	0	44	0	790626304	57	4054
2026-01-26 07:20:53.58	18.89	31.75	-42.9	-43.8	21.2	0.00e+00	0	43	0	800063488	57	3995
2026-01-26 07:20:56.60	17.83	31.62	-43.2	-44.1	20.9	0.00e+00	0	44	0	809500672	57	4114
2026-01-26 07:20:59.61	16.79	31.47	-43.2	-44.1	20.9	0.00e+00	0	43	0	818937856	57	4113
2026-01-26 07:21:02.64	15.74	31.32	-43.0	-43.9	21.2	0.00e+00	0	43	0	828375040	57	4014
2026-01-26 07:21:05.66	14.71	31.16	-43.4	-44.3	20.9	0.00e+00	0	44	0	837812224	57	4229
2026-01-26 07:21:08.69	13.69	30.98	-43.2	-44.1	21.1	0.00e+00	0	43	0	847249408	57	4114
2026-01-26 07:21:11.71	12.68	30.80	-42.6	-43.5	21.6	0.00e+00	0	43	0	856686592	57	3830
2026-01-26 07:21:14.73	11.69	30.61	-43.2	-44.1	21.0	0.00e+00	0	43	0	866123776	57	4120
2026-01-26 07:21:17.76	10.70	30.41	-43.4	-44.3	20.7	0.00e+00	0	43	0	875560960	57	4217
2026-01-26 07:21:20.79	9.73	30.20	-42.7	-43.6	21.5	0.00e+00	0	43	0	884998144	57	3870
2026-01-26 07:21:23.81	8.77	29.99	-42.8	-43.6	21.4	0.00e+00	0	44	0	894435328	57	3906
2026-01-26 07:21:26.83	7.83	29.76	-42.6	-43.5	21.5	0.00e+00	0	43	0	903872512	57	3844
2026-01-26 07:21:29.85	6.89	29.54	-42.1	-42.9	22.0	0.00e+00	0	43	0	913309696	56	3815
2026-01-26 07:21:32.88	5.97	29.30	-42.9	-43.7	21.3	0.00e+00	0	43	0	922746880	56	4187
2026-01-26 07:21:35.90	5.07	29.06	-42.5	-43.3	21.6	0.00e+00	0	43	0	932184064	56	3995
2026-01-26 07:21:38.93	4.17	28.81	-41.7	-42.5	22.3	0.00e+00	0	43	0	941621248	55	3850
2026-01-26 07:21:41.94	3.30	28.56	-42.6	-43.5	21.4	0.00e+00	0	44	0	951058432	55	4326
2026-01-26 07:21:44.96	2.44	28.30	-42.3	-43.1	21.5	0.00e+00	0	43	0	960495616	55	4141
2026-01-26 07:21:47.98	1.59	28.04	-41.9	-42.7	22.1	0.00e+00	0	43	0	969932800	55	3935
2026-01-26 07:21:51.00	0.75	27.77	-42.5	-43.4	21.5	0.00e+00	0	43	0	979369984	55	4267
2026-01-26 07:21:54.02	359.93	27.50	-42.0	-42.8	22.0	0.00e+00	0	43	0	988807168	55	3964
2026-01-26 07:21:57.04	359.12	27.22	-41.2	-41.9	22.7	0.00e+00	0	43	0	998244352	54	3814
2026-01-26 07:22:00.05	358.33	26.95	-42.0	-42.8	22.0	0.00e+00	0	44	0	1007681536	54	4208
2026-01-26 07:22:03.08	357.55	26.66	-42.3	-43.2	21.6	0.00e+00	0	43	0	1017118720	55	4147
2026-01-26 07:22:06.10	356.79	26.38	-41.9	-42.7	21.9	0.00e+00	0	43	0	1026555904	55	3951
2026-01-26 07:22:09.13	356.03	26.09	-42.0	-42.8	21.9	0.00e+00	0	43	0	1035993088	55	3980
2026-01-26 07:22:12.15	355.30	25.80	-42.0	-42.8	21.9	0.00e+00	0	43	0	1045430272	55	3966
2026-01-26 07:22:15.17	354.57	25.51	-42.1	-42.9	21.8	0.00e+00	0	44	0	1054867456	55	4047
2026-01-26 07:22:18.19	353.86	25.22	-42.2	-43.1	21.7	0.00e+00	0	44	0	1064304640	55	4106
2026-01-26 07:22:21.21	353.16	24.93	-42.0	-42.8	21.8	0.00e+00	0	43	0	1073741824	55	3996
2026-01-26 07:22:24.24	352.48	24.63	-42.1	-42.9	21.8	0.00e+00	0	44	0	1083179008	55	4034
2026-01-26 07:22:27.26	351.81	24.33	-42.2	-43.0	21.7	0.00e+00	0	43	0	1092616192	55	4088
2026-01-26 07:22:30.29	351.15	24.03	-42.1	-42.9	21.7	0.00e+00	0	44	0	1102053376	55	4039
2026-01-26 07:22:33.31	350.50	23.74	-42.1	-42.9	21.7	0.00e+00	0	43	0	1111490560	55	4041
2026-01-26 07:22:36.33	349.87	23.44	-42.0	-42.9	21.7	0.00e+00	0	43	0	1120927744	55	4019
2026-01-26 07:22:39.36	349.24	23.14	-42.3	-43.2	21.5	0.00e+00	0	43	0	1130364928	55	4154
2026-01-26 07:22:42.38	348.63	22.84	-42.5	-43.4	21.3	0.00e+00	0	44	0	1139802112	55	4263
2026-01-26 07:22:45.40	348.04	22.54	-42.5	-43.4	21.3	0.00e+00	0	43	0	1149239296	55	4276
2026-01-26 07:22:48.42	347.45	22.24	-42.5	-43.4	21.4	0.00e+00	0	43	0	1159725056	55	4264
2026-01-26 07:22:51.45	346.87	21.94	-42.1	-43.0	21.8	0.00e+00	0	43	0	1168113664	55	4054
2026-01-26 07:22:54.47	346.31	21.64	-41.8	-42.6	22.0	0.00e+00	0	43	0	1177550848	55	3905
2026-01-26 07:22:57.49	345.76	21.35	-42.1	-42.9	21.8	0.00e+00	0	44	0	1186988032	55	4033
2026-01-26 07:23:00.51	345.21	21.05	-42.2	-43.1	21.6	0.00e+00	0	43	0	1197473792	55	4125
2026-01-26 07:23:03.53	344.68	20.75	-42.0	-42.9	21.8	0.00e+00	0	43	0	1206910976	55	4011
2026-01-26 07:23:06.55	344.16	20.46	-41.9	-42.8	21.9	0.00e+00	0	44	0	1215299584	55	3968
2026-01-26 07:23:09.57	343.65	20.16	-41.8	-42.6	22.0	0.00e+00	0	43	0	1224736768	55	3897
2026-01-26 07:23:12.59	343.15	19.87	-41.8	-42.6	21.9	0.00e+00	0	43	0	1234173952	55	3908
2026-01-26 07:23:15.61	342.66	19.58	-41.9	-42.7	21.8	0.00e+00	0	44	0	1244659712	55	3950
2026-01-26 07:23:18.63	342.17	19.29	-41.8	-42.6	21.9	0.00e+00	0	43	0	1254096896	55	3910
2026-01-26 07:23:21.65	341.70	19.00	-41.9	-42.7	21.8	0.00e+00	0	43	0	1262485504	55	3935
2026-01-26 07:23:24.67	341.24	18.71	-42.0	-42.9	21.7	0.00e+00	0	43	0	1271922688	55	4015
2026-01-26 07:23:27.69	340.78	18.42	-42.3	-43.2	21.4	0.00e+00	0	44	0	1281359872	55	4149
2026-01-26 07:23:30.72	340.33	18.14	-42.4	-43.2	21.3	0.00e+00	0	43	0	1291845632	55	4188
2026-01-26 07:23:33.75	339.89	17.85	-42.3	-43.2	21.3	0.00e+00	0	43	0	1301282816	55	4147
2026-01-26 07:23:36.77	339.47	17.57	-42.1	-43.0	21.5	0.00e+00	0	43	0	1309671424	55	4069
2026-01-26 07:23:39.80	339.04	17.29	-42.2	-43.1	21.5	0.00e+00	0	44	0	1319108608	55	4110
2026-01-26 07:23:42.82	338.63	17.01	-42.4	-43.3	21.3	0.00e+00	0	44	0	1329594368	55	4205
2026-01-26 07:23:45.84	338.22	16.73	-42.5	-43.4	21.1	0.00e+00	0	43	0	1339031552	55	4273
2026-01-26 07:23:48.86	337.82	16.46	-42.5	-43.3	21.2	0.00e+00	0	43	0	1348468736	55	4237
2026-01-26 07:23:51.89	337.43	16.18	-42.2	-43.1	21.4	0.00e+00	0	44	0	1356857344	55	4122
2026-01-26 07:23:54.91	337.05	15.91	-42.2	-43.1	21.4	0.00e+00	0	43	0	1367343104	55	4112
2026-01-26 07:23:57.94	336.67	15.64	-42.5	-43.4	21.2	0.00e+00	0	43	0	1376780288	55	4259
2026-01-26 07:24:00.96	336.30	15.37	-42.8	-43.7	21.0	0.00e+00	0	43	0	1386217472	56	4190
2026-01-26 07:24:03.98	335.94	15.10	-43.0	-43.9	20.8	0.00e+00	0	43	0	1395654656	56	4277
2026-01-26 07:24:07.00	335.58	14.83	-42.9	-43.9	20.8	0.00e+00	0	44	0	1404043264	56	4254
2026-01-26 07:24:10.01	335.23	14.57	-42.9	-43.8	20.9	0.00e+00	0	43	0	1414529024	56	4207
2026-01-26 07:24:13.04	334.89	14.31	-42.9	-43.8	20.8	0.00e+00	0	43	0	1423966208	56	4236
2026-01-26 07:24:16.06	334.55	14.05	-43.1	-44.0	20.5	0.00e+00	0	43	0	1433403392	56	4340
2026-01-26 07:24:19.07	334.22	13.79	-43.4	-44.4	20.3	0.00e+00	0	44	0	1442840576	57	4257
2026-01-26 07:24:22.09	333.90	13.53	-43.5	-44.5	20.2	0.00e+00	0	44	0	1451229184	57	4322
2026-01-26 07:24:25.11	333.58	13.28	-43.6	-44.7	20.0	0.00e+00	0	43	0	1461714944	58	4155
2026-01-26 07:24:28.13	333.26	13.03	-43.8	-44.9	19.8	0.00e+00	0	43	0	1471152128	58	4262
2026-01-26 07:24:31.16	332.95	12.77	-43.8	-44.8	19.8	0.00e+00	0	43	0	1480589312	58	4226
2026-01-26 07:24:34.18	332.65	12.52	-43.8	-44.9	19.7	0.00e+00	0	44	0	1490026496	58	4254
2026-01-26 07:24:37.20	332.35	12.28	-43.5	-44.5	20.0	0.00e+00	0	44	0	1498415104	58	4098
2026-01-26 07:24:40.23	332.06	12.03	-43.4	-44.3	20.3	0.00e+00	0	43	0	1508900864	58	3990
2026-01-26 07:24:43.25	331.77	11.78	-43.5	-44.5	20.1	0.00e+00	0	44	0	1518338048	58	4088
2026-01-26 07:24:46.26	331.49	11.54	-43.7	-44.8	19.9	0.00e+00	0	43	0	1527775232	58	4208
2026-01-26 07:24:49.29	331.21	11.30	-44.1	-45.2	19.5	0.00e+00	0	44	0	1537212416	58	4411
2026-01-26 07:24:52.31	330.94	11.06	-44.2	-45.3	19.3	0.00e+00	0	43	0	1546649600	59	4221
2026-01-26 07:24:55.34	330.67	10.82	-44.2	-45.3	19.3	0.00e+00	0	43	0	1556086784	59	4205
2026-01-26 07:24:58.36	330.40	10.59	-44.0	-45.1	19.4	0.00e+00	0	43	0	1565523968	59	4133
2026-01-26 07:25:01.39	330.14	10.35	-43.9	-44.9	19.6	0.00e+00	0	43	0	1574961152	59	4048
2026-01-26 07:25:04.40	329.89	10.12	-43.9	-44.9	19.6	7.00e-07	0	43	0	1584398336	59	4046
2026-01-26 07:25:07.43	329.63	9.89	-44.0	-45.1	19.5	0.00e+00	0	44	0	1593835520	59	4112
2026-01-26 07:25:10.44	329.39	9.66	-44.0	-45.0	19.6	0.00e+00	0	44	0	1603272704	59	4087
2026-01-26 07:25:13.47	329.14	9.43	-44.0	-45.1	19.5	0.00e+00	0	43	0	1612709888	59	4108
2026-01-26 07:25:16.49	328.90	9.20	-44.2	-45.3	19.3	0.00e+00	0	43	0	1622147072	59	4203
2026-01-26 07:25:19.52	328.67	8.98	-44.5	-45.6	18.9	0.00e+00	0	43	0	1631584256	59	4391
2026-01-26 07:25:22.54	328.44	8.75	-44.4	-45.6	18.6	0.00e+00	0	43	0	1641021440	60	4103
2026-01-26 07:25:25.56	328.21	8.53	-44.4	-45.6	18.9	0.00e+00	0	43	0	1650458624	59	4348
2026-01-26 07:25:28.58	327.98	8.31	-44.4	-45.6	18.9	0.00e+00	0	44	0	1659895808	59	4345
2026-01-26 07:25:31.60	327.76	8.09	-44.3	-45.4	19.0	0.00e+00	0	44	0	1669332992	59	4283
2026-01-26 07:25:34.63	327.54	7.87	-44.2	-45.3	19.1	0.00e+00	0	43	0	1678770176	59	4210
2026-01-26 07:25:37.65	327.33	7.66	-44.3	-45.5	18.9	0.00e+00	0	44	0	1688207360	59	4302
2026-01-26 07:25:40.67	327.12	7.44	-44.5	-45.7	18.7	0.00e+00	0	43	0	1697644544	59	4405
2026-01-26 07:25:43.69	326.91	7.23	-44.1	-45.2	18.8	0.00e+00	0	43	0	1707081728	60	3931
2026-01-26 07:25:46.71	326.71	7.02	-44.1	-45.2	18.8	0.00e+00	0	43	0	1716518912	60	3955
2026-01-26 07:25:49.73	326.51	6.81	-44.2	-45.4	18.6	0.00e+00	0	43	0	1725956096	60	4037
2026-01-26 07:25:52.76	326.31	6.60	-44.6	-45.8	18.2	0.00e+00	0	43	0	1735393280	60	4223
2026-01-26 07:25:55.78	326.11	6.39	-44.6	-45.8	18.1	0.00e+00	0	43	0	1744830464	60	4226
2026-01-26 07:25:58.81	325.92	6.18	-44.5	-45.7	18.1	0.00e+00	0	43	0	1754267648	60	4186
2026-01-26 07:26:01.83	325.73	5.98	-45.1	-46.4	17.5	0.00e+00	0	43	0	1763704832	60	4513
2026-01-26 07:26:04.85	325.54	5.77	-44.9	-46.2	17.7	0.00e+00	0	44	0	1773142016	61	4181
2026-01-26 07:26:07.87	325.36	5.57	-44.8	-46.1	17.8	0.00e+00	0	44	0	1782579200	61	4106
2026-01-26 07:26:10.89	325.18	5.37	-44.6	-45.8	18.0	0.00e+00	0	44	0	1792016384	61	3982
2026-01-26 07:26:13.91	325.00	5.17	-44.6	-45.9	17.9	0.00e+00	0	44	0	1801453568	60	4268
2026-01-26 07:26:16.93	324.82	4.97	-52.0	-63.7	3.8	7.38e-01	0	43	104	1809842176	74	14819
2026-01-26 07:26:19.95	324.65	4.77	-48.3	-60.9	3.8	1.49e+00	0	44	104	1809842176	68	15213
2026-01-26 07:26:22.98	324.48	4.58	-48.2	-60.9	3.8	1.49e+00	0	44	104	1809842176	68	15082
2026-01-26 07:26:26.00	324.31	4.38	-48.2	-60.9	3.8	1.49e+00	0	44	104	1809842176	68	15128
2026-01-26 07:26:29.03	324.14	4.19	-48.2	-60.9	3.8	1.49e+00	0	44	104	1809842176	68	15137
2026-01-26 07:26:32.05	323.98	3.99	-48.2	-60.9	3.8	1.49e+00	0	44	104	1809842176	68	15119
2026-01-26 07:26:35.07	323.82	3.80	-48.2	-60.9	3.8	1.49e+00	0	44	104	1809842176	68	15147
2026-01-26 07:26:38.09	323.66	3.61	-48.2	-60.9	3.8	1.49e+00	0	44	104	1809842176	68	15118
2026-01-26 07:26:41.12	323.50	3.42	-48.2	-60.9	3.8	1.49e+00	0	44	104	1809842176	68	15130
2026-01-26 07:26:44.14	323.35	3.23	-48.2	-60.9	3.8	1.49e+00	0	44	104	1809842176	68	15140
2026-01-26 07:26:47.16	323.19	3.04	-48.2	-60.9	3.8	1.49e+00	0	44	104	1809842176	68	15116
2026-01-26 07:26:50.18	323.04	2.86	-48.2	-60.9	3.8	1.49e+00	0	44	104	1809842176	68	15091
2026-01-26 07:26:53.21	322.89	2.67	-48.2	-60.9	3.8	1.49e+00	0	44	104	1809842176	68	15107
2026-01-26 07:26:56.23	322.75	2.49	-48.2	-60.9	3.8	1.49e+00	0	44	104	1809842176	68	15108
2026-01-26 07:26:59.26	322.60	2.30	-48.2	-60.9	3.8	1.49e+00	0	44	104	1809842176	68	15111
2026-01-26 07:27:02.28	322.46	2.12	-48.2	-60.9	3.8	1.49e+00	0	44	104	1809842176	68	15078
2026-01-26 07:27:05.31	322.32	1.94	-48.2	-60.9	3.8	1.49e+00	0	44	104	1809842176	68	15106

#Closed at: 2026-01-26 07:27:05
#Recorded file [1809 MB]: D:/lorett/data/31041_260126_101506.dat