passes_logs/2026/01/26/R3.2S_Murmansk/R3.2S_Murmansk__20260126_134131_FENGYUN_3D_rec.log

#Pass ID: 20260126_134131_FENGYUN 3D
#Satellite: FENGYUN 3D
#Configuration: FENGYUN 3D
#almurnet v.1.7.20251203
#Start time: 2026-01-26 13:41:32

#Version: 2.2.20231116
#Station: R3.2S_Murmansk
#Location: 33.079688 lon 68.888172 lat
#TLE: 1 43010U 17072A   26025.99795741 -.00000136  00000+0 -42313-4 0  9999
#TLE: 2 43010  98.9962 357.9855 0002515  89.6991 270.4472 14.19699257424818

#Time	Az	El	Level	Level2	SNR	BER	BlckErr	Temp	State	Recorded	gain1	gain2
2026-01-26 13:41:32.41	204.49	2.04	-54.1	-66.1	3.8	8.46e-01	0	41	0	0	79	14581
2026-01-26 13:41:36.43	204.74	2.27	-54.4	-66.4	3.8	8.46e-01	0	41	104	0	79	15126
2026-01-26 13:41:40.45	205.00	2.50	-54.4	-66.3	3.8	8.46e-01	0	41	104	0	79	15017
2026-01-26 13:41:44.49	205.27	2.74	-54.2	-66.2	3.8	8.46e-01	0	42	104	0	79	14709
2026-01-26 13:41:48.52	205.53	2.97	-54.0	-65.9	3.8	8.45e-01	0	42	104	0	79	14251
2026-01-26 13:41:52.55	205.81	3.21	-53.6	-65.5	3.8	8.47e-01	0	42	104	0	79	13720
2026-01-26 13:41:56.58	206.08	3.45	-52.7	-64.5	3.8	8.46e-01	0	42	104	0	77	13719
2026-01-26 13:42:00.61	206.36	3.69	-52.7	-64.5	3.8	8.46e-01	0	42	104	0	75	15376
2026-01-26 13:42:04.64	206.65	3.93	-52.7	-64.5	3.8	8.44e-01	0	42	104	0	75	15315
2026-01-26 13:42:08.67	206.94	4.17	-52.5	-63.2	3.8	8.45e-01	0	42	104	0	75	13186
2026-01-26 13:42:12.71	207.23	4.42	-52.6	-64.0	3.8	8.46e-01	0	42	104	0	75	14386
2026-01-26 13:42:16.74	207.53	4.67	-49.7	-52.8	10.6	2.59e-02	0	43	0	8388608	71	5018
2026-01-26 13:42:20.77	207.84	4.91	-45.0	-46.2	17.4	0.00e+00	0	42	0	31457280	62	3953
2026-01-26 13:42:24.80	208.15	5.16	-48.6	-51.2	12.4	0.00e+00	0	43	0	53477376	67	5223
2026-01-26 13:42:28.83	208.46	5.42	-43.7	-44.8	19.1	0.00e+00	0	43	0	76546048	59	3993
2026-01-26 13:42:32.85	208.78	5.67	-43.3	-44.3	19.6	0.00e+00	0	42	0	99614720	58	3992
2026-01-26 13:42:36.88	209.10	5.92	-43.4	-44.5	19.5	0.00e+00	0	42	0	121634816	58	4056
2026-01-26 13:42:40.92	209.43	6.18	-43.2	-44.2	19.8	0.00e+00	0	43	0	144703488	57	4171
2026-01-26 13:42:44.95	209.77	6.44	-43.0	-44.0	20.0	0.00e+00	0	43	0	167772160	57	4094
2026-01-26 13:42:48.98	210.11	6.70	-42.7	-43.8	20.2	0.00e+00	0	43	0	189792256	57	4004
2026-01-26 13:42:53.01	210.46	6.96	-42.7	-43.6	20.5	0.00e+00	0	43	0	212860928	57	3911
2026-01-26 13:42:57.04	210.81	7.23	-42.3	-43.2	20.9	0.00e+00	0	43	0	235929600	56	3956
2026-01-26 13:43:01.07	211.17	7.49	-42.6	-43.5	20.6	0.00e+00	0	43	0	257949696	56	4089
2026-01-26 13:43:05.10	211.54	7.76	-42.4	-43.4	20.8	0.00e+00	0	43	0	281018368	56	4013
2026-01-26 13:43:09.13	211.91	8.03	-42.5	-43.6	20.7	0.00e+00	0	43	0	303038464	56	4099
2026-01-26 13:43:13.15	212.29	8.30	-42.7	-43.7	20.5	0.00e+00	0	43	0	326107136	56	4163
2026-01-26 13:43:17.19	212.67	8.58	-42.3	-43.2	21.1	0.00e+00	0	43	0	348127232	56	3930
2026-01-26 13:43:21.21	213.06	8.85	-42.2	-43.1	21.1	0.00e+00	0	43	0	371195904	56	3894
2026-01-26 13:43:25.24	213.46	9.13	-42.0	-42.9	21.4	0.00e+00	0	43	0	394264576	56	3795
2026-01-26 13:43:29.27	213.87	9.41	-42.1	-43.0	21.2	0.00e+00	0	43	0	416284672	55	4073
2026-01-26 13:43:33.30	214.29	9.69	-42.0	-42.9	21.3	0.00e+00	0	43	0	439353344	55	4032
2026-01-26 13:43:37.33	214.71	9.97	-42.0	-42.9	21.3	0.00e+00	0	43	0	462422016	55	4018
2026-01-26 13:43:41.36	215.14	10.26	-41.5	-42.4	21.9	0.00e+00	0	43	0	484442112	55	3781
2026-01-26 13:43:45.38	215.58	10.54	-41.5	-42.4	21.9	0.00e+00	0	43	0	507510784	55	3801
2026-01-26 13:43:49.41	216.02	10.83	-41.6	-42.4	21.8	0.00e+00	0	43	0	530579456	55	3821
2026-01-26 13:43:53.44	216.48	11.12	-41.4	-42.2	22.1	0.00e+00	0	43	0	552599552	54	3936
2026-01-26 13:43:57.47	216.94	11.42	-41.4	-42.2	22.1	0.00e+00	0	43	0	575668224	54	3948
2026-01-26 13:44:01.48	217.41	11.71	-41.5	-42.4	21.9	0.00e+00	0	43	0	597688320	54	4022
2026-01-26 13:44:05.51	217.90	12.00	-41.4	-42.2	22.1	0.00e+00	0	43	0	620756992	54	3951
2026-01-26 13:44:09.53	218.39	12.30	-41.3	-42.1	22.2	0.00e+00	0	43	0	643825664	54	3911
2026-01-26 13:44:13.57	218.89	12.60	-41.3	-42.1	22.2	0.00e+00	0	43	0	665845760	54	3906
2026-01-26 13:44:17.60	219.40	12.90	-41.1	-41.9	22.4	0.00e+00	0	43	0	687865856	54	3819
2026-01-26 13:44:21.63	219.92	13.21	-40.7	-41.5	22.8	0.00e+00	0	43	0	710934528	53	3844
2026-01-26 13:44:25.67	220.46	13.51	-40.8	-41.6	22.7	0.00e+00	0	43	0	734003200	53	3913
2026-01-26 13:44:29.70	221.00	13.82	-40.9	-41.8	22.6	0.00e+00	0	43	0	756023296	53	3963
2026-01-26 13:44:33.73	221.55	14.13	-40.9	-41.7	22.7	0.00e+00	0	44	0	779091968	53	3928
2026-01-26 13:44:37.76	222.12	14.44	-40.8	-41.6	22.8	0.00e+00	0	43	0	802160640	53	3874
2026-01-26 13:44:41.79	222.69	14.75	-40.5	-41.3	23.0	0.00e+00	0	43	0	824180736	53	3767
2026-01-26 13:44:45.81	223.28	15.06	-40.2	-41.0	23.3	0.00e+00	0	43	0	847249408	52	3833
2026-01-26 13:44:49.84	223.88	15.37	-40.3	-41.1	23.2	0.00e+00	0	43	0	870318080	52	3895
2026-01-26 13:44:53.86	224.49	15.68	-40.2	-40.9	23.4	0.00e+00	0	43	0	892338176	52	3810
2026-01-26 13:44:57.89	225.12	16.00	-40.0	-40.8	23.5	0.00e+00	0	43	0	915406848	52	3763
2026-01-26 13:45:01.91	225.75	16.32	-40.0	-40.8	23.6	0.00e+00	0	43	0	938475520	52	3742
2026-01-26 13:45:05.94	226.41	16.63	-40.1	-40.8	23.6	0.00e+00	0	43	0	960495616	51	4000
2026-01-26 13:45:09.96	227.07	16.95	-40.2	-41.0	23.4	0.00e+00	0	43	0	983564288	51	4087
2026-01-26 13:45:14.00	227.75	17.27	-40.0	-40.8	23.7	0.00e+00	0	43	0	1005584384	51	3963
2026-01-26 13:45:18.03	228.44	17.59	-39.9	-40.6	23.8	0.00e+00	0	43	0	1028653056	51	3897
2026-01-26 13:45:22.06	229.15	17.90	-39.8	-40.6	23.8	0.00e+00	0	43	0	1050673152	51	3880
2026-01-26 13:45:26.09	229.87	18.22	-39.4	-40.1	24.2	0.00e+00	0	43	0	1073741824	50	3911
2026-01-26 13:45:30.12	230.60	18.54	-39.5	-40.3	24.1	0.00e+00	0	43	0	1096810496	50	3959
2026-01-26 13:45:34.15	231.36	18.86	-39.7	-40.4	24.0	0.00e+00	0	43	0	1118830592	50	4029
2026-01-26 13:45:38.18	232.12	19.17	-39.4	-40.1	24.3	0.00e+00	0	43	0	1141899264	50	3891
2026-01-26 13:45:42.21	232.90	19.49	-39.3	-40.1	24.4	0.00e+00	0	43	0	1163919360	50	3869
2026-01-26 13:45:46.23	233.70	19.80	-39.4	-40.1	24.3	0.00e+00	0	43	0	1186988032	50	3900
2026-01-26 13:45:50.26	234.51	20.11	-39.5	-40.2	24.2	0.00e+00	0	43	0	1210056704	50	3956
2026-01-26 13:45:54.29	235.34	20.42	-39.3	-40.0	24.4	0.00e+00	0	43	0	1232076800	50	3854
2026-01-26 13:45:58.32	236.19	20.73	-39.3	-40.0	24.5	0.00e+00	0	43	0	1255145472	50	3832
2026-01-26 13:46:02.35	237.05	21.04	-39.5	-40.2	24.3	0.00e+00	0	43	0	1278214144	50	3935
2026-01-26 13:46:06.37	237.93	21.34	-38.7	-39.4	25.0	0.00e+00	0	43	0	1300234240	49	3794
2026-01-26 13:46:10.39	238.82	21.64	-38.9	-39.7	24.8	0.00e+00	0	43	0	1323302912	49	3919
2026-01-26 13:46:14.41	239.74	21.93	-38.9	-39.6	24.8	0.00e+00	0	43	0	1345323008	49	3890
2026-01-26 13:46:18.44	240.67	22.23	-39.1	-39.8	24.6	0.00e+00	0	44	0	1368391680	49	3995
2026-01-26 13:46:22.47	241.61	22.51	-39.0	-39.8	24.6	0.00e+00	0	43	0	1390411776	49	3974
2026-01-26 13:46:26.49	242.57	22.79	-38.5	-39.2	25.1	0.00e+00	0	43	0	1413480448	48	3943
2026-01-26 13:46:30.52	243.56	23.07	-38.9	-39.6	24.8	0.00e+00	0	43	0	1436549120	48	4132
2026-01-26 13:46:34.55	244.55	23.34	-38.4	-39.1	25.2	0.00e+00	0	43	0	1458569216	48	3874
2026-01-26 13:46:38.57	245.57	23.61	-38.6	-39.3	25.0	0.00e+00	0	43	0	1481637888	48	4001
2026-01-26 13:46:42.60	246.60	23.87	-38.5	-39.2	25.1	0.00e+00	0	43	0	1503657984	48	3938
2026-01-26 13:46:46.64	247.65	24.12	-38.5	-39.2	25.2	0.00e+00	0	43	0	1526726656	48	3921
2026-01-26 13:46:50.67	248.71	24.36	-38.5	-39.1	25.2	0.00e+00	0	43	0	1549795328	48	3912
2026-01-26 13:46:54.70	249.79	24.60	-38.4	-39.1	25.3	0.00e+00	0	44	0	1571815424	48	3880
2026-01-26 13:46:58.73	250.89	24.83	-38.3	-39.0	25.3	0.00e+00	0	43	0	1594884096	48	3861
2026-01-26 13:47:02.75	252.00	25.04	-38.4	-39.1	25.3	0.00e+00	0	43	0	1617952768	48	3907
2026-01-26 13:47:06.78	253.13	25.25	-38.2	-38.9	25.4	0.00e+00	0	43	0	1639972864	48	3808
2026-01-26 13:47:10.81	254.27	25.45	-37.8	-38.5	25.3	0.00e+00	0	43	0	1663041536	47	3856
2026-01-26 13:47:14.84	255.42	25.64	-37.8	-38.5	25.3	0.00e+00	0	43	0	1686110208	47	3859
2026-01-26 13:47:18.86	256.58	25.81	-38.0	-38.7	25.1	0.00e+00	0	43	0	1708130304	47	3927
2026-01-26 13:47:22.89	257.76	25.98	-37.8	-38.5	25.3	0.00e+00	0	43	0	1730150400	47	3865
2026-01-26 13:47:26.91	258.95	26.13	-37.8	-38.5	25.3	0.00e+00	0	43	0	1753219072	47	3855
2026-01-26 13:47:30.94	260.15	26.27	-37.9	-38.7	25.2	0.00e+00	0	43	0	1776287744	47	3918
2026-01-26 13:47:34.97	261.36	26.40	-37.8	-38.5	25.3	0.00e+00	0	43	0	1798307840	47	3847
2026-01-26 13:47:39.00	262.58	26.52	-37.7	-38.4	25.4	0.00e+00	0	43	0	1821376512	47	3800
2026-01-26 13:47:43.03	263.81	26.62	-37.6	-38.3	25.5	0.00e+00	0	43	0	1844445184	46	3984
2026-01-26 13:47:47.06	265.05	26.71	-37.5	-38.2	25.6	0.00e+00	0	43	0	1866465280	46	3941
2026-01-26 13:47:51.09	266.29	26.79	-37.8	-38.5	25.3	0.00e+00	0	44	0	1889533952	46	4072
2026-01-26 13:47:55.12	267.54	26.85	-37.9	-38.6	25.3	0.00e+00	0	43	0	1912602624	46	4113
2026-01-26 13:47:59.15	268.79	26.90	-38.1	-38.8	25.1	0.00e+00	0	43	0	1934622720	46	4215
2026-01-26 13:48:03.18	270.05	26.93	-37.9	-38.6	25.3	0.00e+00	0	43	0	1957691392	46	4120
2026-01-26 13:48:07.21	271.30	26.95	-37.8	-38.5	25.3	0.00e+00	0	43	0	1979711488	46	4076
2026-01-26 13:48:11.24	272.56	26.95	-37.7	-38.4	25.4	0.00e+00	0	44	0	2002780160	46	4027
2026-01-26 13:48:15.26	273.81	26.94	-38.0	-38.7	25.2	0.00e+00	0	43	0	2025848832	46	4165
2026-01-26 13:48:19.29	275.07	26.92	-37.8	-38.5	25.4	0.00e+00	0	44	0	2047868928	46	4081
2026-01-26 13:48:23.32	276.32	26.88	-37.8	-38.5	25.3	0.00e+00	0	43	0	2070937600	46	4097
2026-01-26 13:48:27.36	277.57	26.82	-37.7	-38.4	25.5	0.00e+00	0	43	0	2092957696	46	4015
2026-01-26 13:48:31.39	278.82	26.75	-37.9	-38.6	25.3	0.00e+00	0	44	0	2116026368	46	4105
2026-01-26 13:48:35.42	280.06	26.67	-38.0	-38.7	25.2	0.00e+00	0	43	0	2139095040	46	4186
2026-01-26 13:48:39.45	281.29	26.58	-38.1	-38.9	25.1	0.00e+00	0	44	0	2161115136	47	4010
2026-01-26 13:48:43.48	282.51	26.47	-37.8	-38.5	25.4	0.00e+00	0	43	0	2184183808	47	3856
2026-01-26 13:48:47.51	283.73	26.35	-38.0	-38.7	25.2	0.00e+00	0	43	0	2206203904	47	3935
2026-01-26 13:48:51.55	284.93	26.21	-38.2	-38.9	25.1	0.00e+00	0	43	0	2229272576	47	4029
2026-01-26 13:48:55.58	286.13	26.07	-38.3	-39.0	25.0	0.00e+00	0	44	0	2252341248	47	4087
2026-01-26 13:48:59.60	287.31	25.91	-38.2	-38.9	25.1	0.00e+00	0	44	0	2274361344	47	4030
2026-01-26 13:49:03.63	288.48	25.74	-38.5	-39.2	24.8	0.00e+00	0	43	0	2297430016	47	4185
2026-01-26 13:49:07.65	289.64	25.56	-38.5	-39.2	24.9	0.00e+00	0	43	0	2320498688	47	4158
2026-01-26 13:49:11.69	290.78	25.36	-38.3	-39.0	25.0	0.00e+00	0	43	0	2342518784	47	4091
2026-01-26 13:49:15.72	291.92	25.16	-38.1	-38.8	25.2	0.00e+00	0	43	0	2365587456	47	3993
2026-01-26 13:49:19.75	293.03	24.95	-38.5	-39.3	24.8	0.00e+00	0	43	0	2388656128	47	4206
2026-01-26 13:49:23.79	294.14	24.73	-38.5	-39.2	24.9	0.00e+00	0	43	0	2410676224	47	4164
2026-01-26 13:49:27.82	295.22	24.50	-38.7	-39.4	24.7	0.00e+00	0	43	0	2433744896	47	4275
2026-01-26 13:49:31.84	296.29	24.26	-38.9	-39.6	25.0	0.00e+00	0	44	0	2455764992	48	4127
2026-01-26 13:49:35.88	297.35	24.01	-39.0	-39.7	24.9	0.00e+00	0	43	0	2478833664	48	4177
2026-01-26 13:49:39.90	298.38	23.76	-38.8	-39.5	25.1	0.00e+00	0	44	0	2500853760	48	4062
2026-01-26 13:49:43.93	299.40	23.50	-39.1	-39.9	24.8	0.00e+00	0	43	0	2523922432	48	4250
2026-01-26 13:49:47.96	300.41	23.23	-39.1	-39.8	24.8	0.00e+00	0	43	0	2546991104	49	3995
2026-01-26 13:49:51.99	301.40	22.96	-38.7	-39.4	25.1	0.00e+00	0	43	0	2569011200	49	3817
2026-01-26 13:49:56.01	302.36	22.68	-39.2	-39.9	24.7	0.00e+00	0	43	0	2592079872	49	4026
2026-01-26 13:50:00.03	303.32	22.40	-39.3	-40.0	24.5	0.00e+00	0	43	0	2615148544	49	4098
2026-01-26 13:50:04.06	304.25	22.11	-39.2	-39.9	24.7	0.00e+00	0	44	0	2637168640	49	4023
2026-01-26 13:50:08.10	305.17	21.82	-39.4	-40.1	24.5	0.00e+00	0	43	0	2660237312	49	4110
2026-01-26 13:50:12.13	306.08	21.52	-39.3	-40.0	24.5	0.00e+00	0	43	0	2683305984	49	4092
2026-01-26 13:50:16.17	306.97	21.22	-39.1	-39.9	24.6	0.00e+00	0	43	0	2705326080	49	4006
2026-01-26 13:50:20.20	307.83	20.92	-39.6	-40.3	24.2	0.00e+00	0	43	0	2728394752	49	4242
2026-01-26 13:50:24.23	308.69	20.61	-39.6	-40.3	24.2	0.00e+00	0	44	0	2751463424	49	4211
2026-01-26 13:50:28.26	309.52	20.31	-39.9	-40.7	23.9	0.00e+00	0	44	0	2773483520	50	4175
2026-01-26 13:50:32.30	310.34	20.00	-39.9	-40.7	23.9	0.00e+00	0	44	0	2795503616	50	4160
2026-01-26 13:50:36.33	311.15	19.68	-40.0	-40.8	23.8	0.00e+00	0	44	0	2818572288	50	4211
2026-01-26 13:50:40.36	311.94	19.37	-39.8	-40.5	24.0	0.00e+00	0	43	0	2841640960	50	4068
2026-01-26 13:50:44.39	312.71	19.06	-39.7	-40.4	24.1	0.00e+00	0	43	0	2863661056	50	4024
2026-01-26 13:50:48.41	313.46	18.74	-40.1	-40.9	23.6	0.00e+00	0	43	0	2886729728	50	4279
2026-01-26 13:50:52.45	314.21	18.43	-40.0	-40.8	23.7	0.00e+00	0	43	0	2909798400	50	4211
2026-01-26 13:50:56.48	314.93	18.11	-40.2	-40.9	23.6	0.00e+00	0	44	0	2931818496	50	4274
2026-01-26 13:51:00.51	315.65	17.80	-40.4	-41.2	23.3	0.00e+00	0	43	0	2954887168	51	4168
2026-01-26 13:51:04.55	316.35	17.48	-40.3	-41.1	23.4	0.00e+00	0	43	0	2977955840	51	4116
2026-01-26 13:51:08.58	317.03	17.16	-40.4	-41.2	23.3	0.00e+00	0	43	0	2999975936	51	4147
2026-01-26 13:51:12.61	317.70	16.85	-40.4	-41.2	23.2	0.00e+00	0	44	0	3023044608	51	4185
2026-01-26 13:51:16.65	318.36	16.53	-40.5	-41.3	23.2	0.00e+00	0	44	0	3046113280	51	4221
2026-01-26 13:51:20.67	319.00	16.22	-40.4	-41.1	23.3	0.00e+00	0	43	0	3068133376	51	4139
2026-01-26 13:51:24.70	319.63	15.90	-40.4	-41.2	23.2	0.00e+00	0	43	0	3091202048	51	4159
2026-01-26 13:51:28.73	320.25	15.59	-40.6	-41.5	22.9	0.00e+00	0	44	0	3114270720	52	4052
2026-01-26 13:51:32.76	320.86	15.28	-40.6	-41.4	23.0	0.00e+00	0	44	0	3136290816	52	4011
2026-01-26 13:51:36.78	321.45	14.97	-40.6	-41.4	22.9	0.00e+00	0	44	0	3158310912	52	4045
2026-01-26 13:51:40.81	322.03	14.66	-40.8	-41.6	22.7	0.00e+00	0	43	0	3181379584	52	4122
2026-01-26 13:51:44.84	322.60	14.35	-40.9	-41.7	22.6	0.00e+00	0	44	0	3204448256	52	4159
2026-01-26 13:51:48.87	323.16	14.05	-41.0	-41.8	22.5	0.00e+00	0	43	0	3226468352	52	4207
2026-01-26 13:51:52.90	323.71	13.74	-40.9	-41.7	22.6	0.00e+00	0	44	0	3249537024	52	4151
2026-01-26 13:51:56.93	324.24	13.44	-41.0	-41.8	22.5	0.00e+00	0	43	0	3272605696	52	4219
2026-01-26 13:52:00.97	324.77	13.13	-41.2	-42.1	22.2	0.00e+00	0	43	0	3294625792	53	4110
2026-01-26 13:52:05.00	325.29	12.83	-41.3	-42.2	22.1	0.00e+00	0	44	0	3317694464	53	4163
2026-01-26 13:52:09.03	325.80	12.54	-41.2	-42.1	22.2	0.00e+00	0	43	0	3340763136	53	4108
2026-01-26 13:52:13.06	326.29	12.24	-41.2	-42.0	22.2	0.00e+00	0	44	0	3362783232	53	4091
2026-01-26 13:52:17.10	326.78	11.94	-41.2	-42.0	22.1	0.00e+00	0	43	0	3385851904	53	4097
2026-01-26 13:52:21.13	327.26	11.65	-41.3	-42.1	22.0	0.00e+00	0	44	0	3408920576	53	4143
2026-01-26 13:52:25.16	327.73	11.36	-41.4	-42.3	21.9	0.00e+00	0	44	0	3430940672	53	4206
2026-01-26 13:52:29.20	328.19	11.07	-41.7	-42.6	21.6	0.00e+00	0	44	0	3454009344	54	4108
2026-01-26 13:52:33.23	328.64	10.78	-41.6	-42.5	21.6	0.00e+00	0	43	0	3477078016	54	4081
2026-01-26 13:52:37.25	329.08	10.49	-41.7	-42.6	21.5	0.00e+00	0	43	0	3499098112	54	4135
2026-01-26 13:52:41.27	329.52	10.21	-41.8	-42.6	21.5	0.00e+00	0	43	0	3521118208	54	4141
2026-01-26 13:52:45.29	329.94	9.93	-42.0	-42.9	21.2	0.00e+00	0	44	0	3544186880	54	4272
2026-01-26 13:52:49.32	330.36	9.65	-42.2	-43.2	20.9	0.00e+00	0	44	0	3567255552	55	4158
2026-01-26 13:52:53.35	330.77	9.37	-42.3	-43.3	20.8	0.00e+00	0	44	0	3589275648	55	4197
2026-01-26 13:52:57.38	331.18	9.09	-42.4	-43.3	20.8	0.00e+00	0	44	0	3612344320	55	4230
2026-01-26 13:53:01.40	331.57	8.82	-42.2	-43.1	20.9	0.00e+00	0	43	0	3634364416	55	4120
2026-01-26 13:53:05.43	331.96	8.55	-42.4	-43.4	20.6	0.00e+00	0	44	0	3657433088	55	4265
2026-01-26 13:53:09.47	332.35	8.27	-42.6	-43.6	20.5	0.00e+00	0	44	0	3680501760	55	4341
2026-01-26 13:53:13.49	332.72	8.01	-42.8	-43.8	20.3	0.00e+00	0	44	0	3702521856	56	4209
2026-01-26 13:53:17.52	333.09	7.74	-43.1	-44.2	19.9	0.00e+00	0	43	0	3725590528	56	4399
2026-01-26 13:53:21.56	333.46	7.47	-43.0	-44.1	20.0	0.00e+00	0	43	0	3748659200	56	4344
2026-01-26 13:53:25.58	333.82	7.21	-43.3	-44.3	19.7	0.00e+00	0	43	0	3770679296	57	4227
2026-01-26 13:53:29.61	334.17	6.95	-43.0	-44.0	20.0	0.00e+00	0	43	0	3793747968	57	4053
2026-01-26 13:53:33.65	334.51	6.69	-43.0	-44.0	20.0	0.00e+00	0	43	0	3816816640	57	4061
2026-01-26 13:53:37.68	334.85	6.43	-42.8	-43.8	20.1	0.00e+00	0	44	0	3838836736	57	3992
2026-01-26 13:53:41.71	335.19	6.17	-42.9	-43.9	20.0	0.00e+00	0	44	0	3861905408	57	4020
2026-01-26 13:53:45.73	335.52	5.92	-43.1	-44.1	19.7	9.10e-06	0	43	0	3883925504	57	4133
2026-01-26 13:53:49.77	335.84	5.67	-43.3	-44.3	19.5	0.00e+00	0	44	0	3906994176	57	4225
2026-01-26 13:53:53.80	336.16	5.41	-43.6	-44.6	19.1	0.00e+00	0	44	0	3929014272	57	4382
2026-01-26 13:53:57.82	336.47	5.17	-43.2	-44.3	19.5	0.00e+00	0	43	0	3952082944	57	4211
2026-01-26 13:54:01.86	336.78	4.92	-53.0	-65.0	3.8	8.47e-01	0	44	104	3968860160	76	15243
2026-01-26 13:54:05.89	337.08	4.67	-53.5	-65.5	3.8	8.46e-01	0	44	104	3968860160	77	15230
2026-01-26 13:54:09.92	337.38	4.43	-53.7	-65.6	3.8	8.47e-01	0	44	104	3968860160	77	15526
2026-01-26 13:54:13.95	337.68	4.18	-53.4	-65.3	3.8	8.45e-01	0	44	104	3968860160	77	14997
2026-01-26 13:54:17.98	337.97	3.94	-53.5	-65.5	3.8	8.46e-01	0	44	104	3968860160	77	15257
2026-01-26 13:54:22.00	338.25	3.70	-53.6	-65.5	3.8	8.46e-01	0	44	104	3968860160	77	15380
2026-01-26 13:54:26.03	338.53	3.47	-53.5	-65.4	3.8	8.47e-01	0	43	104	3968860160	77	15221
2026-01-26 13:54:30.06	338.81	3.23	-53.5	-65.4	3.8	8.46e-01	0	44	104	3968860160	77	15178
2026-01-26 13:54:34.09	339.08	3.00	-53.5	-65.4	3.8	8.47e-01	0	44	104	3968860160	77	15140
2026-01-26 13:54:38.12	339.35	2.76	-53.4	-65.4	3.8	8.46e-01	0	44	104	3968860160	77	15116
2026-01-26 13:54:42.16	339.62	2.53	-53.4	-65.4	3.8	8.45e-01	0	44	104	3968860160	77	15053
2026-01-26 13:54:46.19	339.88	2.30	-53.4	-65.4	3.8	8.47e-01	0	44	104	3968860160	77	15055
2026-01-26 13:54:50.22	340.14	2.07	-53.4	-65.4	3.8	8.47e-01	0	44	104	3968860160	77	15052

#Closed at: 2026-01-26 13:54:52
#Recorded file [3968 MB]: D:/lorett/data/31041_260126_164132.dat