passes_logs/2026/01/26/R3.2S_Murmansk/R3.2S_Murmansk__20260126_101958_FENGYUN_3D_rec.log

#Pass ID: 20260126_101958_FENGYUN 3D
#Satellite: FENGYUN 3D
#Configuration: FENGYUN 3D
#almurnet v.1.7.20251203
#Start time: 2026-01-26 10:19:58

#Version: 2.2.20231116
#Station: R3.2S_Murmansk
#Location: 33.079688 lon 68.888172 lat
#TLE: 1 43010U 17072A   26025.99795741 -.00000136  00000+0 -42313-4 0  9999
#TLE: 2 43010  98.9962 357.9855 0002515  89.6991 270.4472 14.19699257424818

#Time	Az	El	Level	Level2	SNR	BER	BlckErr	Temp	State	Recorded	gain1	gain2
2026-01-26 10:19:58.78	122.37	2.03	-47.9	-59.8	3.8	8.46e-01	0	41	0	0	66	14882
2026-01-26 10:20:02.80	122.26	2.28	-47.9	-59.7	3.8	8.46e-01	0	41	104	0	66	14875
2026-01-26 10:20:06.83	122.15	2.54	-47.9	-59.7	3.8	8.47e-01	0	41	104	0	66	14842
2026-01-26 10:20:10.87	122.04	2.80	-47.9	-59.7	3.8	8.46e-01	0	42	104	0	66	14848
2026-01-26 10:20:14.90	121.92	3.06	-47.9	-59.7	3.8	8.46e-01	0	42	104	0	66	14878
2026-01-26 10:20:18.93	121.80	3.32	-47.9	-59.8	3.8	8.46e-01	0	42	104	0	66	14890
2026-01-26 10:20:22.97	121.68	3.59	-47.9	-59.7	3.8	8.47e-01	0	42	104	0	66	14865
2026-01-26 10:20:27.00	121.56	3.86	-47.9	-59.7	3.8	8.45e-01	0	42	104	0	66	14815
2026-01-26 10:20:31.03	121.43	4.13	-47.9	-59.8	3.8	8.46e-01	0	42	104	0	66	14888
2026-01-26 10:20:35.06	121.30	4.41	-47.9	-59.7	3.8	8.47e-01	0	42	104	0	66	14854
2026-01-26 10:20:39.09	121.17	4.68	-47.9	-59.8	3.8	8.47e-01	0	42	104	0	66	14897
2026-01-26 10:20:43.12	121.03	4.96	-47.9	-59.7	3.8	8.46e-01	0	42	104	0	66	14865
2026-01-26 10:20:47.15	120.90	5.24	-47.9	-59.7	3.8	8.47e-01	0	43	104	0	66	14860
2026-01-26 10:20:51.19	120.76	5.53	-47.9	-59.7	3.8	8.46e-01	0	42	104	0	66	14840
2026-01-26 10:20:55.21	120.61	5.82	-47.9	-59.8	3.8	8.46e-01	0	43	104	0	66	14921
2026-01-26 10:20:59.25	120.47	6.11	-47.9	-59.7	3.8	8.46e-01	0	43	104	0	66	14867
2026-01-26 10:21:03.28	120.32	6.40	-47.9	-59.8	3.8	8.46e-01	0	43	104	0	66	14915
2026-01-26 10:21:07.32	120.16	6.70	-47.9	-59.7	3.8	8.45e-01	0	43	104	0	66	14868
2026-01-26 10:21:11.35	120.01	7.00	-47.9	-59.7	3.8	8.45e-01	0	43	104	0	66	14854
2026-01-26 10:21:15.38	119.85	7.31	-47.9	-59.7	3.8	8.45e-01	0	43	104	0	66	14864
2026-01-26 10:21:19.41	119.68	7.61	-47.9	-59.7	3.8	8.46e-01	0	43	104	0	66	14858
2026-01-26 10:21:23.44	119.51	7.93	-47.9	-59.7	3.8	8.46e-01	0	43	104	0	66	14864
2026-01-26 10:21:27.48	119.34	8.24	-47.9	-59.7	3.8	8.46e-01	0	43	104	0	66	14851
2026-01-26 10:21:31.50	119.17	8.56	-47.9	-59.8	3.8	8.47e-01	0	43	104	0	66	14891
2026-01-26 10:21:35.54	118.99	8.88	-47.9	-59.7	3.8	8.46e-01	0	43	104	0	66	14867
2026-01-26 10:21:39.57	118.80	9.21	-47.9	-59.8	3.8	8.47e-01	0	43	104	0	66	14880
2026-01-26 10:21:43.61	118.61	9.54	-47.9	-59.7	3.8	8.45e-01	0	43	104	0	66	14855
2026-01-26 10:21:47.64	118.42	9.87	-47.9	-59.7	3.8	8.47e-01	0	43	104	0	66	14872
2026-01-26 10:21:51.67	118.22	10.21	-47.9	-59.8	3.8	8.46e-01	0	43	104	0	66	14896
2026-01-26 10:21:55.70	118.02	10.55	-47.9	-59.8	3.8	8.47e-01	0	43	104	0	66	14891
2026-01-26 10:21:59.73	117.81	10.90	-47.9	-59.7	3.8	8.46e-01	0	43	104	0	66	14875
2026-01-26 10:22:03.76	117.60	11.25	-47.9	-59.7	3.8	8.47e-01	0	43	104	0	66	14869
2026-01-26 10:22:07.79	117.38	11.61	-47.9	-59.8	3.8	8.46e-01	0	43	104	0	66	14905
2026-01-26 10:22:11.82	117.15	11.97	-47.9	-59.7	3.8	8.46e-01	0	43	104	0	66	14873
2026-01-26 10:22:15.85	116.92	12.34	-47.9	-59.7	3.8	8.48e-01	0	43	104	0	66	14876
2026-01-26 10:22:19.88	116.68	12.71	-47.9	-59.7	3.8	8.46e-01	0	43	104	0	66	14871
2026-01-26 10:22:23.91	116.44	13.09	-47.9	-59.8	3.8	8.46e-01	0	43	104	0	66	14904
2026-01-26 10:22:27.94	116.19	13.47	-47.9	-59.8	3.8	8.46e-01	0	43	104	0	66	14892
2026-01-26 10:22:31.97	115.93	13.85	-47.9	-59.8	3.8	8.46e-01	0	43	104	0	66	14913
2026-01-26 10:22:36.00	115.67	14.25	-47.9	-59.8	3.8	8.47e-01	0	43	104	0	66	14914
2026-01-26 10:22:40.03	115.40	14.65	-47.9	-59.8	3.8	8.46e-01	0	43	104	0	66	14896
2026-01-26 10:22:44.05	115.12	15.05	-47.9	-59.8	3.8	8.47e-01	0	43	104	0	66	14937
2026-01-26 10:22:48.08	114.83	15.46	-47.9	-59.7	3.8	8.46e-01	0	43	104	0	66	14876
2026-01-26 10:22:52.11	114.54	15.88	-47.9	-59.8	3.8	8.47e-01	0	43	104	0	66	14903
2026-01-26 10:22:56.14	114.23	16.30	-47.9	-59.7	3.8	8.46e-01	0	43	104	0	66	14844
2026-01-26 10:23:00.17	113.92	16.73	-47.9	-59.8	3.8	8.46e-01	0	43	104	0	66	14915
2026-01-26 10:23:04.21	113.59	17.17	-47.9	-59.8	3.8	8.46e-01	0	43	104	0	66	14888
2026-01-26 10:23:08.25	113.26	17.61	-47.9	-59.7	3.8	8.47e-01	0	44	104	0	66	14843
2026-01-26 10:23:12.28	112.92	18.07	-47.9	-59.8	3.8	8.45e-01	0	43	104	0	66	14933
2026-01-26 10:23:16.30	112.56	18.52	-47.9	-59.7	3.8	8.47e-01	0	44	104	0	66	14878
2026-01-26 10:23:20.33	112.20	18.99	-47.9	-59.8	3.8	8.47e-01	0	43	104	0	66	14882
2026-01-26 10:23:24.36	111.82	19.46	-47.9	-59.7	3.8	8.46e-01	0	44	104	0	66	14862
2026-01-26 10:23:28.39	111.43	19.94	-47.9	-59.8	3.8	8.46e-01	0	44	104	0	66	14889
2026-01-26 10:23:32.42	111.03	20.43	-47.9	-59.8	3.8	8.47e-01	0	43	104	0	66	14915
2026-01-26 10:23:36.45	110.61	20.93	-47.9	-59.7	3.8	8.46e-01	0	43	104	0	66	14869
2026-01-26 10:23:40.49	110.18	21.43	-47.9	-59.8	3.8	8.45e-01	0	43	104	0	66	14897
2026-01-26 10:23:44.53	109.73	21.95	-47.9	-59.8	3.8	8.47e-01	0	44	104	0	66	14906
2026-01-26 10:23:48.56	109.27	22.47	-47.9	-59.8	3.8	8.46e-01	0	43	104	0	66	14901
2026-01-26 10:23:52.58	108.79	23.00	-47.9	-59.8	3.8	8.46e-01	0	43	104	0	66	14888
2026-01-26 10:23:56.61	108.30	23.54	-47.9	-59.8	3.8	8.46e-01	0	43	104	0	66	14942
2026-01-26 10:24:00.64	107.79	24.09	-47.9	-59.8	3.8	8.46e-01	0	44	104	0	66	14922
2026-01-26 10:24:04.67	107.26	24.65	-47.9	-59.8	3.8	8.45e-01	0	44	104	0	66	14935
2026-01-26 10:24:08.70	106.71	25.21	-47.9	-59.7	3.8	8.45e-01	0	44	104	0	66	14849
2026-01-26 10:24:12.73	106.13	25.79	-47.9	-59.7	3.8	8.45e-01	0	44	104	0	66	14868
2026-01-26 10:24:16.76	105.54	26.38	-47.9	-59.8	3.8	8.45e-01	0	44	104	0	66	14903
2026-01-26 10:24:20.79	104.93	26.97	-47.9	-59.8	3.8	8.46e-01	0	44	104	0	66	14910
2026-01-26 10:24:24.82	104.29	27.58	-47.9	-59.8	3.8	8.47e-01	0	44	104	0	66	14907
2026-01-26 10:24:28.85	103.62	28.19	-47.9	-59.8	3.8	8.45e-01	0	44	104	0	66	14895
2026-01-26 10:24:32.88	102.93	28.81	-47.9	-59.8	3.8	8.45e-01	0	44	104	0	66	14901
2026-01-26 10:24:36.91	102.21	29.44	-47.9	-59.8	3.8	8.46e-01	0	44	104	0	66	14929
2026-01-26 10:24:40.94	101.46	30.09	-47.9	-59.8	3.8	8.46e-01	0	44	104	0	66	14890
2026-01-26 10:24:44.97	100.68	30.74	-47.9	-59.8	3.8	8.46e-01	0	43	104	0	66	14911
2026-01-26 10:24:48.99	99.87	31.39	-47.9	-59.7	3.8	8.46e-01	0	44	104	0	66	14873
2026-01-26 10:24:53.03	99.02	32.06	-47.9	-59.8	3.8	8.47e-01	0	44	104	0	66	14886
2026-01-26 10:24:57.06	98.14	32.73	-47.9	-59.8	3.8	8.46e-01	0	44	104	0	66	14930
2026-01-26 10:25:01.09	97.21	33.41	-47.9	-59.8	3.8	8.45e-01	0	44	104	0	66	14888
2026-01-26 10:25:05.13	96.25	34.10	-47.9	-59.8	3.8	8.46e-01	0	44	104	0	66	14933
2026-01-26 10:25:09.16	95.25	34.80	-47.9	-59.8	3.8	8.46e-01	0	44	104	0	66	14919
2026-01-26 10:25:13.18	94.20	35.49	-47.9	-59.8	3.8	8.46e-01	0	44	104	0	66	14944
2026-01-26 10:25:17.22	93.10	36.19	-47.9	-59.7	3.8	8.46e-01	0	44	104	0	66	14857
2026-01-26 10:25:21.25	91.96	36.90	-47.9	-59.7	3.8	8.47e-01	0	44	104	0	66	14871
2026-01-26 10:25:25.29	90.77	37.61	-47.9	-59.8	3.8	8.48e-01	0	44	104	0	66	14900
2026-01-26 10:25:29.31	89.52	38.31	-47.9	-59.8	3.8	8.47e-01	0	44	104	0	66	14898
2026-01-26 10:25:33.35	88.22	39.02	-47.9	-59.8	3.8	8.45e-01	0	44	104	0	66	14933
2026-01-26 10:25:37.38	86.85	39.72	-47.9	-59.7	3.8	8.47e-01	0	44	104	0	66	14856
2026-01-26 10:25:41.41	85.43	40.41	-47.9	-59.8	3.8	8.46e-01	0	44	104	0	66	14898
2026-01-26 10:25:45.44	83.95	41.10	-47.9	-59.8	3.8	8.46e-01	0	44	104	0	66	14906
2026-01-26 10:25:49.48	82.40	41.78	-47.9	-59.8	3.8	8.46e-01	0	44	104	0	66	14909
2026-01-26 10:25:53.51	80.79	42.45	-47.9	-59.8	3.8	8.45e-01	0	44	104	0	66	14945
2026-01-26 10:25:57.54	79.10	43.10	-47.9	-59.8	3.8	8.46e-01	0	44	104	0	66	14917
2026-01-26 10:26:01.57	77.35	43.73	-47.9	-59.8	3.8	8.45e-01	0	44	104	0	66	14932
2026-01-26 10:26:05.60	75.53	44.34	-47.9	-59.8	3.8	8.46e-01	0	44	104	0	66	14918
2026-01-26 10:26:09.63	73.64	44.92	-47.9	-59.8	3.8	8.45e-01	0	44	104	0	66	14944
2026-01-26 10:26:13.66	71.68	45.48	-47.9	-59.8	3.8	8.47e-01	0	44	104	0	66	14887
2026-01-26 10:26:17.69	69.66	46.01	-47.9	-59.8	3.8	8.46e-01	0	44	104	0	66	14942
2026-01-26 10:26:21.71	67.57	46.50	-47.9	-59.8	3.8	8.46e-01	0	44	104	0	66	14907
2026-01-26 10:26:25.75	65.40	46.96	-47.9	-59.7	3.8	8.45e-01	0	44	104	0	66	14878
2026-01-26 10:26:29.78	63.18	47.37	-47.9	-59.7	3.8	8.46e-01	0	44	104	0	66	14874
2026-01-26 10:26:33.81	60.90	47.74	-47.9	-59.8	3.8	8.46e-01	0	44	104	0	66	14884
2026-01-26 10:26:37.84	58.58	48.06	-47.9	-59.8	3.8	8.47e-01	0	44	104	0	66	14900
2026-01-26 10:26:41.87	56.20	48.33	-47.9	-59.8	3.8	8.47e-01	0	44	104	0	66	14926
2026-01-26 10:26:45.90	53.79	48.54	-47.9	-59.8	3.8	8.46e-01	0	44	104	0	66	14904
2026-01-26 10:26:49.93	51.35	48.71	-47.9	-59.8	3.8	8.46e-01	0	43	104	0	66	14895
2026-01-26 10:26:53.96	48.89	48.81	-47.9	-59.8	3.8	8.45e-01	0	44	104	0	66	14905
2026-01-26 10:26:57.99	46.42	48.86	-47.9	-59.8	3.8	8.47e-01	0	44	104	0	66	14919
2026-01-26 10:27:02.02	43.94	48.85	-47.9	-59.8	3.8	8.46e-01	0	44	104	0	66	14906
2026-01-26 10:27:06.05	41.47	48.78	-47.9	-59.8	3.8	8.47e-01	0	44	104	0	66	14905
2026-01-26 10:27:10.07	39.02	48.66	-47.9	-59.8	3.8	8.46e-01	0	44	104	0	66	14946
2026-01-26 10:27:14.10	36.59	48.48	-47.9	-59.8	3.8	8.46e-01	0	44	104	0	66	14894
2026-01-26 10:27:18.13	34.19	48.25	-47.9	-59.8	3.8	8.46e-01	0	44	104	0	66	14942
2026-01-26 10:27:22.17	31.83	47.96	-47.9	-59.8	3.8	8.46e-01	0	44	104	0	66	14946
2026-01-26 10:27:26.20	29.52	47.63	-47.9	-59.7	3.8	8.47e-01	0	44	104	0	66	14871
2026-01-26 10:27:30.24	27.25	47.24	-47.9	-59.8	3.8	8.46e-01	0	44	104	0	66	14902
2026-01-26 10:27:34.27	25.05	46.82	-47.9	-59.8	3.8	8.47e-01	0	44	104	0	66	14890
2026-01-26 10:27:38.31	22.91	46.35	-47.9	-59.8	3.8	8.47e-01	0	44	104	0	66	14921
2026-01-26 10:27:42.34	20.84	45.85	-47.9	-59.8	3.8	8.46e-01	0	44	104	0	66	14908
2026-01-26 10:27:46.37	18.84	45.31	-47.9	-59.7	3.8	8.46e-01	0	44	104	0	66	14878
2026-01-26 10:27:50.40	16.90	44.74	-47.9	-59.8	3.8	8.46e-01	0	44	104	0	66	14924
2026-01-26 10:27:54.43	15.04	44.15	-47.9	-59.8	3.8	8.46e-01	0	44	104	0	66	14911
2026-01-26 10:27:58.46	13.24	43.53	-47.9	-59.8	3.8	8.46e-01	0	44	104	0	66	14889
2026-01-26 10:28:02.50	11.51	42.90	-47.9	-59.8	3.8	8.46e-01	0	44	104	0	66	14906
2026-01-26 10:28:06.53	9.85	42.24	-47.9	-59.8	3.8	8.46e-01	0	44	104	0	66	14919
2026-01-26 10:28:10.56	8.26	41.57	-47.9	-59.8	3.8	8.46e-01	0	44	104	0	66	14898
2026-01-26 10:28:14.59	6.74	40.89	-47.9	-59.8	3.8	8.46e-01	0	44	104	0	66	14945
2026-01-26 10:28:18.62	5.28	40.20	-47.9	-59.8	3.8	8.47e-01	0	44	104	0	66	14935
2026-01-26 10:28:22.65	3.88	39.51	-47.9	-59.8	3.8	8.46e-01	0	44	104	0	66	14881
2026-01-26 10:28:26.69	2.54	38.81	-47.9	-59.7	3.8	8.47e-01	0	44	104	0	66	14869
2026-01-26 10:28:30.72	1.26	38.10	-47.9	-59.8	3.8	8.45e-01	0	44	104	0	66	14897
2026-01-26 10:28:34.75	0.03	37.40	-47.9	-59.8	3.8	8.47e-01	0	44	104	0	66	14933
2026-01-26 10:28:38.79	358.85	36.69	-47.9	-59.8	3.8	8.47e-01	0	44	104	0	66	14909
2026-01-26 10:28:42.81	357.73	35.99	-47.9	-59.8	3.8	8.46e-01	0	44	104	0	66	14903
2026-01-26 10:28:46.84	356.65	35.30	-47.9	-59.8	3.8	8.46e-01	0	44	104	0	66	14908
2026-01-26 10:28:50.88	355.62	34.60	-47.9	-59.8	3.8	8.46e-01	0	44	104	0	66	14905
2026-01-26 10:28:54.92	354.63	33.91	-47.9	-59.8	3.8	8.45e-01	0	43	104	0	66	14881
2026-01-26 10:28:58.95	353.68	33.22	-47.9	-59.8	3.8	8.46e-01	0	44	104	0	66	14935
2026-01-26 10:29:02.98	352.78	32.55	-47.9	-59.7	3.8	8.47e-01	0	44	104	0	66	14871
2026-01-26 10:29:07.02	351.90	31.88	-48.0	-59.8	3.8	8.46e-01	0	44	104	0	66	14917
2026-01-26 10:29:11.05	351.07	31.22	-47.9	-59.8	3.8	8.46e-01	0	44	104	0	66	14918
2026-01-26 10:29:15.08	350.27	30.56	-47.9	-59.8	3.8	8.46e-01	0	44	104	0	66	14893
2026-01-26 10:29:19.11	349.50	29.92	-47.9	-59.8	3.8	8.46e-01	0	44	104	0	66	14915
2026-01-26 10:29:23.15	348.76	29.28	-47.9	-59.7	3.8	8.48e-01	0	44	104	0	66	14865
2026-01-26 10:29:27.18	348.05	28.65	-47.9	-59.8	3.8	8.46e-01	0	44	104	0	66	14950
2026-01-26 10:29:31.21	347.37	28.03	-47.9	-59.8	3.8	8.46e-01	0	44	104	0	66	14905
2026-01-26 10:29:35.24	346.72	27.42	-48.0	-59.8	3.8	8.46e-01	0	44	104	0	66	14928
2026-01-26 10:29:39.28	346.09	26.82	-48.0	-59.8	3.8	8.47e-01	0	44	104	0	66	14920
2026-01-26 10:29:43.31	345.48	26.23	-48.0	-59.8	3.8	8.46e-01	0	44	104	0	66	14939
2026-01-26 10:29:47.34	344.89	25.65	-47.9	-59.8	3.8	8.45e-01	0	44	104	0	66	14890
2026-01-26 10:29:51.37	344.33	25.08	-47.7	-59.8	3.8	8.46e-01	0	44	104	0	66	14888
2026-01-26 10:29:55.40	343.79	24.52	-47.9	-59.8	3.8	8.46e-01	0	44	104	0	66	14910
2026-01-26 10:29:59.43	343.27	23.96	-47.9	-59.8	3.8	8.47e-01	0	44	104	0	66	14888
2026-01-26 10:30:03.47	342.76	23.42	-47.9	-59.8	3.8	8.47e-01	0	44	104	0	66	14934
2026-01-26 10:30:07.49	342.28	22.88	-47.9	-59.8	3.8	8.46e-01	0	44	104	0	66	14919
2026-01-26 10:30:11.53	341.80	22.35	-47.9	-59.8	3.8	8.45e-01	0	44	104	0	66	14884
2026-01-26 10:30:15.55	341.35	21.84	-47.9	-59.8	3.8	8.47e-01	0	44	104	0	66	14908
2026-01-26 10:30:19.58	340.91	21.33	-47.9	-59.8	3.8	8.45e-01	0	44	104	0	66	14919
2026-01-26 10:30:23.61	340.49	20.83	-47.9	-59.8	3.8	8.46e-01	0	44	104	0	66	14923
2026-01-26 10:30:27.64	340.08	20.33	-47.9	-59.8	3.8	8.47e-01	0	44	104	0	66	14894
2026-01-26 10:30:31.67	339.68	19.85	-48.0	-59.8	3.8	8.46e-01	0	43	104	0	66	14936
2026-01-26 10:30:35.70	339.30	19.37	-48.0	-59.8	3.8	8.48e-01	0	44	104	0	66	14923
2026-01-26 10:30:39.73	338.93	18.90	-47.9	-59.8	3.8	8.48e-01	0	44	104	0	66	14933
2026-01-26 10:30:43.76	338.56	18.44	-47.9	-59.8	3.8	8.46e-01	0	44	104	0	66	14916
2026-01-26 10:30:47.79	338.22	17.98	-48.0	-59.8	3.8	8.46e-01	0	44	104	0	66	14943
2026-01-26 10:30:51.82	337.88	17.54	-47.9	-59.8	3.8	8.46e-01	0	44	104	0	66	14915
2026-01-26 10:30:55.85	337.55	17.10	-47.9	-59.8	3.8	8.46e-01	0	44	104	0	66	14927
2026-01-26 10:30:59.88	337.23	16.66	-47.9	-59.8	3.8	8.45e-01	0	44	104	0	66	14947
2026-01-26 10:31:03.92	336.92	16.23	-47.9	-59.8	3.8	8.46e-01	0	44	104	0	66	14892
2026-01-26 10:31:07.94	336.62	15.81	-48.0	-59.8	3.8	8.46e-01	0	44	104	0	66	14926
2026-01-26 10:31:11.97	336.33	15.40	-48.0	-59.8	3.8	8.46e-01	0	44	104	0	66	14966
2026-01-26 10:31:16.00	336.05	14.99	-48.0	-59.8	3.8	8.45e-01	0	44	104	0	66	14932
2026-01-26 10:31:20.03	335.77	14.59	-47.9	-59.8	3.8	8.45e-01	0	44	104	0	66	14891
2026-01-26 10:31:24.06	335.50	14.19	-47.9	-59.8	3.8	8.45e-01	0	44	104	0	66	14897
2026-01-26 10:31:28.09	335.24	13.80	-48.0	-59.8	3.8	8.46e-01	0	44	104	0	66	14937
2026-01-26 10:31:32.12	334.99	13.42	-47.9	-59.8	3.8	8.47e-01	0	44	104	0	66	14898
2026-01-26 10:31:36.15	334.75	13.04	-47.9	-59.8	3.8	8.44e-01	0	44	104	0	66	14918
2026-01-26 10:31:40.18	334.51	12.67	-47.9	-59.8	3.8	8.47e-01	0	44	104	0	66	14925
2026-01-26 10:31:44.21	334.27	12.30	-47.9	-59.8	3.8	8.45e-01	0	44	104	0	66	14935
2026-01-26 10:31:48.25	334.05	11.93	-47.9	-59.8	3.8	8.46e-01	0	44	104	0	66	14956
2026-01-26 10:31:52.28	333.83	11.57	-47.9	-59.8	3.8	8.46e-01	0	44	104	0	66	14918
2026-01-26 10:31:56.31	333.61	11.22	-47.9	-59.8	3.8	8.47e-01	0	44	104	0	66	14909
2026-01-26 10:32:00.34	333.40	10.87	-47.9	-59.8	3.8	8.46e-01	0	44	104	0	66	14924
2026-01-26 10:32:04.37	333.20	10.52	-47.9	-59.8	3.8	8.47e-01	0	44	104	0	66	14926
2026-01-26 10:32:08.40	333.00	10.18	-47.9	-59.7	3.8	8.46e-01	0	44	104	0	66	14869
2026-01-26 10:32:12.43	332.80	9.85	-47.9	-59.8	3.8	8.47e-01	0	44	104	0	66	14940
2026-01-26 10:32:16.47	332.61	9.51	-48.0	-59.8	3.8	8.46e-01	0	44	104	0	66	14951
2026-01-26 10:32:20.49	332.43	9.18	-47.9	-59.8	3.8	8.47e-01	0	44	104	0	66	14905
2026-01-26 10:32:24.53	332.25	8.86	-48.0	-59.8	3.8	8.46e-01	0	44	104	0	66	14920
2026-01-26 10:32:28.57	332.07	8.54	-47.9	-59.8	3.8	8.46e-01	0	44	104	0	66	14910
2026-01-26 10:32:32.60	331.90	8.22	-47.9	-59.8	3.8	8.46e-01	0	44	104	0	66	14909
2026-01-26 10:32:36.63	331.73	7.91	-47.9	-59.7	3.8	8.47e-01	0	44	104	0	66	14879
2026-01-26 10:32:40.65	331.56	7.60	-48.0	-59.8	3.8	8.46e-01	0	44	104	0	66	14917
2026-01-26 10:32:44.69	331.40	7.29	-48.0	-59.8	3.8	8.46e-01	0	44	104	0	66	14900
2026-01-26 10:32:48.71	331.25	6.99	-47.9	-59.8	3.8	8.46e-01	0	44	104	0	66	14930
2026-01-26 10:32:52.74	331.09	6.69	-48.0	-59.8	3.8	8.46e-01	0	44	104	0	66	14920
2026-01-26 10:32:56.78	330.94	6.40	-48.0	-59.8	3.8	8.45e-01	0	44	104	0	66	14938
2026-01-26 10:33:00.81	330.80	6.10	-47.9	-59.8	3.8	8.46e-01	0	44	104	0	66	14881
2026-01-26 10:33:04.84	330.65	5.81	-48.0	-59.8	3.8	8.46e-01	0	44	104	0	66	14935
2026-01-26 10:33:08.87	330.51	5.53	-47.9	-59.8	3.8	8.47e-01	0	44	104	0	66	14917
2026-01-26 10:33:12.91	330.38	5.24	-47.9	-59.8	3.8	8.47e-01	0	44	104	0	66	14940
2026-01-26 10:33:16.94	330.24	4.96	-48.0	-59.8	3.8	8.48e-01	0	44	104	0	66	14931
2026-01-26 10:33:20.98	330.11	4.68	-48.0	-59.8	3.8	8.47e-01	0	44	104	0	66	14935
2026-01-26 10:33:25.01	329.98	4.41	-47.9	-59.8	3.8	8.46e-01	0	44	104	0	66	14982
2026-01-26 10:33:29.05	329.86	4.13	-47.9	-59.8	3.8	8.46e-01	0	44	104	0	66	14934
2026-01-26 10:33:33.08	329.73	3.86	-47.9	-59.8	3.8	8.45e-01	0	44	104	0	66	14913
2026-01-26 10:33:37.11	329.61	3.59	-47.9	-59.8	3.8	8.46e-01	0	44	104	0	66	14941
2026-01-26 10:33:41.14	329.49	3.33	-48.0	-59.8	3.8	8.46e-01	0	44	104	0	66	14943
2026-01-26 10:33:45.18	329.38	3.06	-47.9	-59.7	3.8	8.46e-01	0	44	104	0	66	14864
2026-01-26 10:33:49.21	329.26	2.80	-47.9	-59.7	3.8	8.47e-01	0	44	104	0	66	14858
2026-01-26 10:33:53.24	329.15	2.55	-47.9	-59.7	3.8	8.46e-01	0	44	104	0	66	14870
2026-01-26 10:33:57.27	329.04	2.29	-48.0	-59.8	3.8	8.46e-01	0	44	104	0	66	14920
2026-01-26 10:34:01.30	328.94	2.04	-47.9	-59.8	3.8	8.46e-01	0	44	104	0	66	14894

#Closed at: 2026-01-26 10:34:04
#Recorded file [0 MB]: D:/lorett/data/31041_260126_131958.dat