passes_logs/2026/01/10/R2M6_AANII_01/R2M6_AANII_01__20260110_012935_NOAA_20_JPSS-1_rec.log

#Pass ID: 20260110_012935_NOAA 20 (JPSS-1)
#Satellite: NOAA 20 (JPSS-1)
#Configuration: NOAA 20
#almurnet v.1.7.20240730
#Start time: 2026-01-10 01:29:36

#Version: 2.2.20231116
#Station: R2M6_AANII_01
#Location: 30.233357 lon 59.946436 lat
#TLE: 1 43013U 17073A   26009.26828276  .00000112  00000+0  74203-4 0  9990
#TLE: 2 43013  98.7631 310.2683 0001700  47.4387 312.6933 14.19534764421920

#Time	Az	El	Level	Level2	SNR	BER	BlckErr	Temp	State	Recorded	gain1	gain2
2026-01-10 01:29:36.68	12.96	7.11	-32.3	-40.8	4.4	1.39e+00	0	39	0	0	24	9597
2026-01-10 01:29:39.68	12.79	7.33	-32.2	-39.5	6.4	2.50e-01	0	40	0	1048576	24	8399
2026-01-10 01:29:42.68	12.62	7.55	-32.1	-39.0	6.9	4.53e-02	0	40	0	7340032	24	7962
2026-01-10 01:29:45.68	12.45	7.77	-32.3	-40.4	6.2	1.22e-01	0	40	0	12582912	24	9100
2026-01-10 01:29:48.68	12.27	7.99	-32.3	-40.1	6.6	3.68e-01	0	40	0	17825792	24	8796
2026-01-10 01:29:51.68	12.09	8.22	-31.9	-38.0	7.8	9.05e-02	0	40	0	24117248	24	7235
2026-01-10 01:29:54.68	11.90	8.44	-32.1	-38.7	7.4	1.52e-01	0	40	0	29360128	24	7734
2026-01-10 01:29:57.67	11.72	8.67	-31.9	-38.1	7.7	9.23e-02	0	40	0	34603008	24	7324
2026-01-10 01:30:00.67	11.53	8.90	-32.4	-40.0	6.0	5.04e-01	0	40	0	40894464	25	8672
2026-01-10 01:30:03.68	11.34	9.13	-31.8	-37.4	8.9	4.16e-02	0	40	0	46137344	23	6898
2026-01-10 01:30:06.69	11.14	9.37	-32.0	-38.2	7.9	9.48e-02	0	40	0	52428800	24	7290
2026-01-10 01:30:09.69	10.94	9.60	-31.8	-37.7	8.6	4.95e-02	0	40	0	57671680	23	7102
2026-01-10 01:30:12.69	10.74	9.84	-31.8	-37.6	8.7	5.59e-02	0	40	0	62914560	23	7012
2026-01-10 01:30:15.70	10.53	10.08	-31.4	-35.9	10.0	1.19e-02	0	40	0	69206016	23	6065
2026-01-10 01:30:18.71	10.32	10.32	-31.7	-37.0	9.5	2.39e-02	0	41	0	74448896	23	6602
2026-01-10 01:30:21.72	10.10	10.57	-32.1	-37.5	9.4	3.02e-02	0	40	0	79691776	24	6729
2026-01-10 01:30:24.72	9.88	10.81	-32.1	-37.6	8.8	3.33e-02	0	41	0	85983232	24	6789
2026-01-10 01:30:27.73	9.66	11.06	-31.8	-36.8	10.2	1.03e-02	0	41	0	91226112	23	6374
2026-01-10 01:30:30.74	9.44	11.31	-31.2	-34.8	11.5	4.12e-03	0	41	0	97517568	23	5477
2026-01-10 01:30:33.75	9.21	11.56	-30.9	-34.3	12.2	2.40e-03	0	41	0	102760448	22	5349
2026-01-10 01:30:36.76	8.97	11.81	-30.8	-34.1	12.3	2.86e-03	0	41	0	108003328	22	5251
2026-01-10 01:30:39.76	8.73	12.07	-30.5	-33.6	12.9	2.65e-03	0	41	0	114294784	21	5170
2026-01-10 01:30:42.76	8.49	12.33	-30.3	-33.8	13.1	2.05e-05	0	41	0	119537664	20	5366
2026-01-10 01:30:45.77	8.24	12.59	-30.4	-34.0	12.8	3.43e-05	0	41	0	124780544	20	5476
2026-01-10 01:30:48.78	7.99	12.85	-30.3	-33.9	12.9	5.26e-05	0	41	0	131072000	20	5418
2026-01-10 01:30:51.78	7.73	13.12	-30.3	-33.9	12.9	4.73e-05	0	41	0	136314880	20	5408
2026-01-10 01:30:54.79	7.47	13.38	-30.3	-33.4	12.8	8.08e-05	0	41	0	142606336	21	5114
2026-01-10 01:30:57.80	7.20	13.65	-30.5	-33.7	12.9	2.52e-03	0	41	0	147849216	21	5219
2026-01-10 01:31:00.78	6.93	13.92	-30.2	-33.5	13.2	2.28e-03	0	41	0	153092096	20	5250
2026-01-10 01:31:03.78	6.66	14.20	-30.3	-33.8	13.0	3.05e-05	0	41	0	159383552	20	5388
2026-01-10 01:31:06.78	6.37	14.47	-30.4	-34.0	12.9	4.11e-05	0	41	0	164626432	20	5450
2026-01-10 01:31:09.78	6.09	14.75	-30.5	-33.8	12.6	6.33e-05	0	41	0	169869312	21	5290
2026-01-10 01:31:12.78	5.79	15.03	-30.5	-33.8	12.7	8.92e-05	0	41	0	176160768	21	5291
2026-01-10 01:31:15.79	5.49	15.32	-30.6	-34.2	12.4	1.53e-04	0	41	0	181403648	21	5429
2026-01-10 01:31:18.79	5.19	15.60	-31.0	-34.6	12.3	2.41e-03	0	41	0	187695104	22	5407
2026-01-10 01:31:21.80	4.88	15.89	-30.6	-33.8	13.2	3.58e-05	0	41	0	192937984	21	5192
2026-01-10 01:31:24.80	4.56	16.18	-30.8	-34.1	13.1	3.20e-05	0	41	0	198180864	21	5313
2026-01-10 01:31:27.79	4.24	16.48	-30.6	-33.7	13.7	4.50e-06	0	41	0	204472320	21	5110
2026-01-10 01:31:30.79	3.90	16.77	-30.4	-33.3	13.8	1.14e-05	0	41	0	209715200	21	5008
2026-01-10 01:31:33.78	3.57	17.07	-30.2	-32.7	14.2	3.00e-06	0	41	0	214958080	21	4782
2026-01-10 01:31:36.79	3.22	17.37	-30.1	-32.9	14.0	7.00e-07	0	41	0	221249536	20	4970
2026-01-10 01:31:39.80	2.87	17.68	-30.5	-32.7	13.9	4.50e-06	0	41	0	226492416	22	4665
2026-01-10 01:31:42.81	2.51	17.99	-30.6	-33.5	13.4	8.30e-06	0	42	0	232783872	21	5067
2026-01-10 01:31:45.81	2.14	18.30	-30.4	-33.2	13.8	7.60e-06	0	41	0	238026752	21	4945
2026-01-10 01:31:48.82	1.77	18.61	-30.7	-33.8	13.6	4.50e-06	0	42	0	243269632	21	5154
2026-01-10 01:31:51.82	1.39	18.92	-30.6	-33.7	13.7	1.50e-06	0	41	0	249561088	21	5097
2026-01-10 01:31:54.81	1.00	19.24	-30.6	-33.5	14.0	2.20e-06	0	41	0	254803968	21	5022
2026-01-10 01:31:57.81	0.60	19.56	-30.5	-33.4	13.8	7.60e-06	0	41	0	260046848	21	5009
2026-01-10 01:32:00.81	0.19	19.88	-30.7	-33.9	13.5	1.29e-05	0	41	0	266338304	21	5182
2026-01-10 01:32:03.81	359.77	20.21	-30.5	-33.0	14.2	7.00e-07	0	41	0	271581184	21	4854
2026-01-10 01:32:06.82	359.34	20.54	-30.6	-33.5	13.6	1.06e-05	0	42	0	276824064	21	5059
2026-01-10 01:32:09.81	358.91	20.87	-30.6	-33.7	13.6	3.80e-06	0	41	0	283115520	21	5109
2026-01-10 01:32:12.82	358.46	21.20	-30.6	-33.8	13.3	1.75e-05	0	41	0	288358400	21	5185
2026-01-10 01:32:15.83	358.01	21.54	-30.9	-34.4	13.3	1.98e-05	0	42	0	294649856	21	5373
2026-01-10 01:32:18.83	357.54	21.88	-30.8	-34.3	13.1	2.97e-05	0	41	0	299892736	21	5360
2026-01-10 01:32:21.82	357.07	22.21	-30.8	-34.1	13.3	2.21e-05	0	42	0	305135616	21	5298
2026-01-10 01:32:24.83	356.58	22.56	-30.8	-34.2	12.8	3.43e-05	0	41	0	311427072	21	5316
2026-01-10 01:32:27.83	356.08	22.90	-30.8	-34.3	13.0	3.28e-05	0	42	0	316669952	21	5378
2026-01-10 01:32:30.83	355.57	23.25	-30.8	-34.2	12.1	4.88e-05	0	41	0	321912832	21	5356
2026-01-10 01:32:33.84	355.05	23.60	-30.9	-34.6	12.0	6.40e-05	0	42	0	328204288	21	5498
2026-01-10 01:32:36.85	354.52	23.96	-31.0	-34.5	12.7	3.28e-05	0	42	0	333447168	21	5437
2026-01-10 01:32:39.86	353.97	24.31	-30.9	-34.4	13.2	3.28e-05	0	42	0	339738624	21	5373
2026-01-10 01:32:42.86	353.41	24.67	-31.0	-34.2	12.4	1.67e-05	0	42	0	344981504	22	5164
2026-01-10 01:32:45.87	352.84	25.03	-30.8	-34.2	13.1	1.90e-05	0	42	0	350224384	21	5301
2026-01-10 01:32:48.88	352.25	25.39	-30.8	-34.1	13.2	6.63e-04	0	42	0	356515840	21	5286
2026-01-10 01:32:51.88	351.65	25.75	-31.0	-34.2	13.2	2.82e-05	0	42	0	361758720	22	5160
2026-01-10 01:32:54.88	351.04	26.11	-31.3	-34.9	12.8	3.58e-05	0	42	0	367001600	22	5418
2026-01-10 01:32:57.88	350.41	26.47	-31.5	-35.0	12.5	4.88e-05	0	42	0	373293056	23	5381
2026-01-10 01:33:00.88	349.77	26.84	-31.6	-35.1	12.3	2.28e-04	0	42	0	378535936	23	5405
2026-01-10 01:33:03.89	349.11	27.20	-31.8	-35.8	12.0	2.08e-04	0	42	0	384827392	23	5704
2026-01-10 01:33:06.89	348.44	27.57	-31.8	-35.9	11.7	4.36e-04	0	42	0	390070272	23	5742
2026-01-10 01:33:09.90	347.75	27.94	-31.8	-36.0	11.7	5.61e-04	0	42	0	395313152	23	5795
2026-01-10 01:33:12.91	347.05	28.30	-32.0	-36.0	11.3	9.90e-04	0	42	0	401604608	24	5708
2026-01-10 01:33:15.92	346.32	28.67	-31.9	-35.8	11.4	9.92e-04	0	42	0	406847488	24	5632
2026-01-10 01:33:18.94	345.58	29.04	-31.8	-35.6	11.3	9.11e-04	0	42	0	412090368	24	5571
2026-01-10 01:33:21.94	344.83	29.40	-32.0	-36.9	10.6	2.38e-03	0	42	0	418381824	23	6316
2026-01-10 01:33:24.95	344.05	29.77	-32.2	-36.8	10.7	1.91e-03	0	42	0	423624704	24	6099
2026-01-10 01:33:27.97	343.26	30.13	-32.5	-37.1	10.2	6.18e-03	0	42	0	429916160	25	6109
2026-01-10 01:33:30.96	342.45	30.49	-32.2	-36.1	10.8	8.56e-03	0	42	0	435159040	25	5615
2026-01-10 01:33:33.97	341.62	30.85	-32.3	-36.9	10.7	4.26e-03	0	42	0	440401920	24	6099
2026-01-10 01:33:36.98	340.77	31.21	-32.4	-37.3	10.6	4.03e-03	0	42	0	446693376	24	6345
2026-01-10 01:33:39.99	339.91	31.57	-32.6	-37.0	9.7	1.21e-02	0	42	0	451936256	26	5968
2026-01-10 01:33:43.00	339.02	31.92	-32.3	-37.0	10.4	3.07e-03	0	42	0	457179136	24	6206
2026-01-10 01:33:46.00	338.12	32.26	-32.3	-36.9	10.7	1.56e-03	0	42	0	463470592	24	6095
2026-01-10 01:33:49.00	337.19	32.60	-32.4	-37.1	10.5	3.55e-03	0	42	0	468713472	24	6245
2026-01-10 01:33:52.00	336.25	32.94	-32.5	-36.9	10.5	4.33e-03	0	42	0	475004928	25	5950
2026-01-10 01:33:55.01	335.29	33.27	-32.9	-37.9	9.1	9.74e-03	0	42	0	480247808	26	6405
2026-01-10 01:33:58.02	334.30	33.60	-32.9	-37.8	9.5	1.81e-02	0	42	0	485490688	26	6347
2026-01-10 01:34:01.01	333.30	33.92	-33.0	-38.3	8.9	2.72e-02	0	42	0	491782144	26	6616
2026-01-10 01:34:04.02	332.28	34.23	-33.1	-39.1	8.2	5.48e-02	0	42	0	497025024	26	7165
2026-01-10 01:34:07.02	331.24	34.54	-33.2	-39.9	7.4	1.01e-01	0	42	0	502267904	26	7707
2026-01-10 01:34:10.02	330.17	34.84	-33.1	-39.1	8.1	7.08e-02	0	42	0	508559360	26	7206
2026-01-10 01:34:13.02	329.09	35.13	-33.1	-39.1	8.2	5.62e-02	0	42	0	513802240	26	7174
2026-01-10 01:34:16.03	327.99	35.41	-33.2	-39.2	8.1	7.22e-02	0	42	0	519045120	26	7208
2026-01-10 01:34:19.03	326.87	35.67	-33.0	-38.4	8.9	4.04e-02	0	42	0	525336576	26	6700
2026-01-10 01:34:22.03	325.73	35.93	-32.8	-38.3	9.4	2.12e-02	0	42	0	530579456	25	6761
2026-01-10 01:34:25.04	324.58	36.18	-31.7	-35.2	11.8	2.43e-03	0	42	0	536870912	24	5362
2026-01-10 01:34:28.05	323.40	36.42	-31.4	-34.7	12.6	1.89e-03	0	42	0	542113792	23	5227
2026-01-10 01:34:31.05	322.21	36.64	-31.8	-35.8	11.9	2.94e-03	0	42	0	547356672	23	5717
2026-01-10 01:34:34.06	321.00	36.85	-31.9	-35.6	11.6	3.52e-03	0	42	0	553648128	24	5524
2026-01-10 01:34:37.07	319.77	37.05	-31.5	-35.1	12.0	2.42e-03	0	42	0	558891008	23	5457
2026-01-10 01:34:40.07	318.54	37.24	-31.6	-35.4	12.0	1.56e-03	0	42	0	564133888	23	5554
2026-01-10 01:34:43.08	317.29	37.41	-31.4	-35.1	11.7	3.07e-04	0	42	0	570425344	23	5483
2026-01-10 01:34:46.09	316.02	37.56	-30.2	-32.7	14.0	1.59e-04	0	42	0	575668224	21	4796
2026-01-10 01:34:49.09	314.75	37.70	-30.0	-33.0	14.7	8.87e-04	0	42	0	581959680	19	5083
2026-01-10 01:34:52.08	313.47	37.82	-29.5	-31.9	15.2	0.00e+00	0	42	0	587202560	19	4742
2026-01-10 01:34:55.08	312.17	37.93	-29.6	-32.2	14.9	1.67e-03	0	42	0	592445440	19	4837
2026-01-10 01:34:58.10	310.86	38.02	-29.6	-32.1	15.0	2.33e-03	0	42	0	598736896	19	4786
2026-01-10 01:35:01.11	309.55	38.09	-29.5	-31.9	15.1	1.33e-03	0	42	0	603979776	19	4725
2026-01-10 01:35:04.11	308.24	38.15	-29.2	-31.7	15.6	2.41e-03	0	42	0	609222656	18	4769
2026-01-10 01:35:07.11	306.92	38.19	-29.7	-32.4	14.8	2.27e-03	0	42	0	615514112	19	4919
2026-01-10 01:35:10.11	305.60	38.21	-30.3	-33.4	13.7	3.80e-06	0	42	0	620756992	20	5153
2026-01-10 01:35:13.11	304.28	38.22	-30.2	-33.3	13.8	3.00e-06	0	42	0	627048448	20	5120
2026-01-10 01:35:16.12	302.96	38.20	-30.1	-33.0	13.9	2.20e-06	0	42	0	632291328	20	5022
2026-01-10 01:35:19.12	301.64	38.17	-30.6	-33.8	13.2	1.68e-03	0	42	0	637534208	21	5212
2026-01-10 01:35:22.11	300.33	38.13	-30.9	-34.7	12.5	1.45e-03	0	42	0	643825664	21	5584
2026-01-10 01:35:25.11	299.01	38.06	-31.2	-35.2	11.8	8.14e-04	0	42	0	649068544	22	5661
2026-01-10 01:35:28.11	297.71	37.98	-31.1	-34.8	12.1	1.12e-03	0	42	0	654311424	22	5503
2026-01-10 01:35:31.11	296.41	37.89	-31.3	-35.3	11.8	3.17e-04	0	42	0	660602880	22	5726
2026-01-10 01:35:34.13	295.11	37.77	-31.5	-35.5	11.2	1.50e-03	0	42	0	665845760	23	5710
2026-01-10 01:35:37.14	293.82	37.64	-31.9	-36.4	10.1	7.29e-03	0	42	0	672137216	24	6026
2026-01-10 01:35:40.14	292.56	37.50	-31.6	-35.7	11.1	2.66e-03	0	42	0	677380096	23	5815
2026-01-10 01:35:43.14	291.30	37.33	-32.0	-36.6	10.1	8.91e-03	0	42	0	682622976	24	6111
2026-01-10 01:35:46.14	290.05	37.16	-31.8	-36.4	10.5	6.61e-03	0	42	0	688914432	23	6156
2026-01-10 01:35:49.16	288.81	36.97	-31.6	-36.1	10.7	3.37e-03	0	42	0	694157312	23	5985
2026-01-10 01:35:52.15	287.60	36.76	-31.5	-35.6	11.1	1.70e-03	0	42	0	699400192	23	5769
2026-01-10 01:35:55.15	286.40	36.55	-31.6	-35.8	11.1	2.85e-03	0	42	0	705691648	23	5842
2026-01-10 01:35:58.17	285.21	36.32	-31.2	-35.2	11.7	4.42e-04	0	42	0	710934528	22	5701
2026-01-10 01:36:01.18	284.04	36.07	-30.3	-32.7	13.4	2.82e-05	0	42	0	716177408	22	4702
2026-01-10 01:36:04.19	282.88	35.82	-30.0	-32.6	14.1	0.00e+00	0	42	0	722468864	20	4901
2026-01-10 01:36:07.20	281.75	35.56	-30.0	-33.1	14.1	1.50e-06	0	42	0	727711744	19	5173
2026-01-10 01:36:10.21	280.63	35.28	-29.7	-32.4	14.6	0.00e+00	0	42	0	734003200	19	4907
2026-01-10 01:36:13.21	279.54	35.00	-30.0	-33.1	14.1	1.50e-06	0	42	0	739246080	19	5184
2026-01-10 01:36:16.22	278.46	34.70	-30.4	-33.7	13.4	4.50e-06	0	42	0	744488960	20	5302
2026-01-10 01:36:19.23	277.40	34.40	-31.0	-34.6	12.0	2.10e-04	0	42	0	750780416	22	5459
2026-01-10 01:36:22.25	276.36	34.09	-30.6	-34.1	12.7	9.99e-05	0	42	0	756023296	21	5336
2026-01-10 01:36:25.25	275.34	33.77	-30.5	-33.7	12.9	7.24e-05	0	42	0	762314752	21	5213
2026-01-10 01:36:28.26	274.34	33.45	-30.6	-33.9	12.8	3.81e-05	0	42	0	767557632	21	5283
2026-01-10 01:36:31.27	273.36	33.12	-30.8	-34.6	12.3	1.93e-04	0	42	0	772800512	21	5560
2026-01-10 01:36:34.28	272.40	32.78	-30.9	-34.5	12.1	3.77e-04	0	42	0	779091968	22	5398
2026-01-10 01:36:37.27	271.47	32.44	-31.0	-34.8	11.8	3.37e-04	0	42	0	784334848	22	5539
2026-01-10 01:36:40.26	270.56	32.10	-31.0	-34.6	11.9	3.06e-04	0	42	0	789577728	22	5470
2026-01-10 01:36:43.27	269.66	31.75	-31.1	-34.8	11.9	3.00e-04	0	42	0	795869184	22	5552
2026-01-10 01:36:46.28	268.78	31.39	-31.4	-35.8	11.1	1.24e-03	0	42	0	801112064	22	6024
2026-01-10 01:36:49.28	267.92	31.04	-31.2	-35.3	11.4	1.03e-03	0	42	0	806354944	22	5763
2026-01-10 01:36:52.29	267.08	30.68	-31.3	-35.7	11.1	1.95e-03	0	42	0	812646400	22	5961
2026-01-10 01:36:55.30	266.25	30.31	-31.3	-35.7	11.2	1.33e-03	0	42	0	817889280	22	5939
2026-01-10 01:36:58.30	265.45	29.95	-31.1	-34.5	11.7	6.57e-04	0	42	0	824180736	23	5325
2026-01-10 01:37:01.31	264.66	29.58	-30.7	-34.2	12.5	1.71e-04	0	42	0	829423616	21	5424
2026-01-10 01:37:04.30	263.90	29.22	-31.1	-34.9	11.9	1.64e-04	0	42	0	834666496	22	5572
2026-01-10 01:37:07.31	263.14	28.85	-30.8	-34.2	12.2	3.35e-04	0	42	0	840957952	22	5285
2026-01-10 01:37:10.31	262.41	28.48	-31.4	-35.2	11.4	9.55e-04	0	42	0	846200832	23	5613
2026-01-10 01:37:13.32	261.69	28.12	-30.4	-33.5	13.2	3.96e-05	0	42	0	851443712	21	5115
2026-01-10 01:37:16.33	260.99	27.75	-30.2	-33.5	13.3	1.67e-05	0	42	0	857735168	20	5243
2026-01-10 01:37:19.34	260.31	27.38	-30.0	-32.3	13.8	3.00e-06	0	42	0	862978048	21	4717
2026-01-10 01:37:22.35	259.64	27.01	-29.8	-32.2	14.2	9.10e-06	0	42	0	869269504	20	4744
2026-01-10 01:37:25.35	258.98	26.64	-30.7	-34.3	12.6	6.02e-05	0	42	0	874512384	21	5427
2026-01-10 01:37:28.35	258.35	26.28	-30.3	-33.2	13.3	2.51e-05	0	42	0	879755264	21	5022
2026-01-10 01:37:31.36	257.72	25.91	-29.5	-31.6	14.6	2.20e-06	0	42	0	886046720	20	4568
2026-01-10 01:37:34.37	257.11	25.55	-29.7	-31.9	14.5	4.50e-06	0	42	0	891289600	20	4662
2026-01-10 01:37:37.37	256.52	25.19	-30.0	-32.7	14.1	1.50e-06	0	42	0	896532480	20	4923
2026-01-10 01:37:40.38	255.93	24.83	-29.8	-32.2	14.3	1.50e-06	0	42	0	902823936	20	4750
2026-01-10 01:37:43.39	255.36	24.47	-29.8	-32.3	14.1	7.00e-07	0	42	0	908066816	20	4802
2026-01-10 01:37:46.39	254.81	24.11	-29.8	-32.2	14.2	1.50e-06	0	42	0	914358272	20	4774
2026-01-10 01:37:49.40	254.27	23.76	-29.8	-32.2	14.2	3.00e-06	0	42	0	919601152	20	4785
2026-01-10 01:37:52.40	253.74	23.40	-31.2	-35.4	11.3	1.54e-04	0	42	0	924844032	22	5856
2026-01-10 01:37:55.40	253.22	23.05	-30.9	-34.9	12.2	3.82e-04	0	42	0	931135488	21	5709
2026-01-10 01:37:58.42	252.71	22.70	-30.2	-32.8	13.5	3.28e-04	0	42	0	936378368	21	4887
2026-01-10 01:38:01.43	252.21	22.36	-30.1	-33.1	13.5	2.14e-04	0	42	0	942669824	20	5097
2026-01-10 01:38:04.44	251.72	22.01	-30.0	-32.9	13.6	2.51e-04	0	42	0	947912704	20	5052
2026-01-10 01:38:07.44	251.25	21.67	-30.6	-34.0	12.4	5.77e-04	0	42	0	953155584	21	5347
2026-01-10 01:38:10.44	250.79	21.33	-30.4	-33.7	12.7	6.82e-04	0	42	0	959447040	21	5241
2026-01-10 01:38:13.45	250.33	21.00	-30.5	-34.3	12.6	8.81e-04	0	42	0	964689920	20	5615
2026-01-10 01:38:16.45	249.89	20.66	-31.2	-35.6	11.2	1.27e-03	0	42	0	969932800	22	5954
2026-01-10 01:38:19.46	249.46	20.33	-31.0	-34.9	11.5	1.57e-03	0	42	0	976224256	22	5645
2026-01-10 01:38:22.45	249.03	20.00	-31.1	-35.2	11.3	1.38e-03	0	42	0	981467136	22	5767
2026-01-10 01:38:25.45	248.62	19.68	-30.8	-34.7	11.8	6.54e-04	0	42	0	987758592	21	5691
2026-01-10 01:38:28.45	248.21	19.36	-30.4	-34.1	12.6	3.33e-04	0	42	0	993001472	20	5524
2026-01-10 01:38:31.46	247.81	19.04	-30.5	-34.3	12.6	2.97e-04	0	42	0	998244352	20	5603
2026-01-10 01:38:34.46	247.42	18.72	-30.6	-34.2	12.2	3.11e-04	0	42	0	1004535808	21	5457
2026-01-10 01:38:37.47	247.04	18.40	-30.6	-34.3	12.1	2.89e-04	0	42	0	1009778688	21	5522
2026-01-10 01:38:40.47	246.67	18.09	-30.6	-34.4	12.0	2.40e-04	0	42	0	1015021568	21	5547
2026-01-10 01:38:43.48	246.30	17.78	-30.4	-34.2	12.5	1.34e-04	0	42	0	1021313024	20	5581
2026-01-10 01:38:46.48	245.94	17.47	-30.7	-34.5	11.8	5.29e-04	0	42	0	1026555904	21	5605
2026-01-10 01:38:49.50	245.59	17.17	-30.7	-34.7	11.8	4.61e-04	0	42	0	1032847360	21	5680
2026-01-10 01:38:52.50	245.25	16.87	-30.6	-34.5	11.9	5.61e-04	0	42	0	1038090240	21	5595
2026-01-10 01:38:55.52	244.91	16.57	-30.4	-34.3	12.3	3.47e-04	0	42	0	1043333120	20	5640
2026-01-10 01:38:58.52	244.58	16.27	-30.2	-33.6	12.7	2.95e-04	0	42	0	1049624576	20	5354
2026-01-10 01:39:01.52	244.25	15.98	-30.5	-34.1	12.1	1.52e-04	0	42	0	1054867456	21	5470
2026-01-10 01:39:04.52	243.94	15.69	-30.5	-34.1	12.1	2.27e-04	0	42	0	1060110336	21	5436
2026-01-10 01:39:07.52	243.63	15.40	-30.5	-34.1	12.0	5.80e-04	0	42	0	1066401792	21	5453
2026-01-10 01:39:10.52	243.32	15.11	-30.5	-34.1	12.0	9.99e-04	0	42	0	1071644672	21	5447
2026-01-10 01:39:13.52	243.02	14.83	-30.5	-34.1	12.1	9.80e-04	0	42	0	1076887552	21	5437
2026-01-10 01:39:16.52	242.73	14.55	-30.2	-33.7	12.6	6.70e-04	0	42	0	1083179008	20	5417
2026-01-10 01:39:19.53	242.44	14.27	-30.5	-34.2	12.0	6.85e-04	0	42	0	1088421888	21	5478
2026-01-10 01:39:22.53	242.16	13.99	-30.3	-34.0	12.4	1.21e-04	0	42	0	1094713344	20	5547
2026-01-10 01:39:25.55	241.88	13.72	-30.4	-34.2	12.1	2.74e-04	0	42	0	1099956224	20	5638
2026-01-10 01:39:28.55	241.61	13.45	-30.9	-35.6	10.8	1.55e-03	0	42	0	1105199104	21	6155
2026-01-10 01:39:31.55	241.34	13.18	-31.1	-35.8	10.4	3.18e-03	0	42	0	1111490560	22	6140
2026-01-10 01:39:34.55	241.08	12.91	-31.3	-36.3	10.0	5.69e-03	0	42	0	1116733440	22	6433
2026-01-10 01:39:37.56	240.82	12.65	-31.2	-36.1	10.1	8.59e-03	0	42	0	1121976320	22	6306
2026-01-10 01:39:40.56	240.57	12.38	-30.9	-35.2	10.7	4.62e-03	0	42	0	1128267776	22	5881
2026-01-10 01:39:43.56	240.33	12.12	-30.8	-35.4	10.9	2.12e-03	0	42	0	1133510656	21	6068
2026-01-10 01:39:46.56	240.08	11.87	-30.9	-35.6	10.7	2.39e-03	0	42	0	1139802112	21	6214
2026-01-10 01:39:49.57	239.84	11.61	-30.6	-34.5	11.4	1.30e-03	0	42	0	1145044992	21	5700
2026-01-10 01:39:52.57	239.61	11.36	-30.6	-34.7	11.3	1.19e-03	0	42	0	1150287872	21	5768
2026-01-10 01:39:55.57	239.38	11.11	-30.6	-34.9	11.1	1.83e-03	0	42	0	1156579328	21	5858
2026-01-10 01:39:58.57	239.15	10.86	-30.7	-35.2	10.8	2.63e-03	0	42	0	1161822208	21	6042
2026-01-10 01:40:01.58	238.93	10.61	-30.8	-35.5	10.6	3.31e-03	0	42	0	1167065088	21	6166
2026-01-10 01:40:04.59	238.71	10.37	-31.0	-35.6	10.1	1.17e-02	0	42	0	1173356544	22	6110
2026-01-10 01:40:07.60	238.49	10.12	-31.3	-36.6	9.4	1.70e-02	0	42	0	1178599424	22	6667
2026-01-10 01:40:10.62	238.28	9.88	-31.0	-35.6	10.1	5.97e-03	0	42	0	1184890880	22	6103
2026-01-10 01:40:13.61	238.07	9.64	-30.9	-36.0	10.2	6.15e-03	0	42	0	1190133760	21	6419
2026-01-10 01:40:16.61	237.87	9.40	-31.5	-37.3	8.2	8.99e-03	0	42	0	1195376640	23	7026
2026-01-10 01:40:19.61	237.67	9.17	-31.5	-37.3	8.3	3.05e-02	0	42	0	1201668096	23	6992
2026-01-10 01:40:22.61	237.47	8.94	-31.5	-36.8	8.5	7.48e-02	0	42	0	1206910976	24	6642
2026-01-10 01:40:25.62	237.28	8.70	-31.2	-35.8	9.5	1.41e-02	0	42	0	1212153856	23	6140
2026-01-10 01:40:28.62	237.09	8.47	-31.8	-38.4	7.7	1.05e-01	0	42	0	1218445312	23	7720
2026-01-10 01:40:31.63	236.90	8.25	-31.4	-36.7	8.7	3.84e-02	0	42	0	1223688192	23	6665
2026-01-10 01:40:34.64	236.71	8.02	-31.8	-38.6	7.3	1.19e-01	0	42	0	1229979648	23	7873
2026-01-10 01:40:37.64	236.53	7.79	-31.5	-37.1	8.4	5.10e-02	0	42	0	1235222528	23	6916
2026-01-10 01:40:40.65	236.35	7.57	-31.2	-36.5	9.1	2.63e-02	0	42	0	1240465408	22	6696
2026-01-10 01:40:43.64	236.17	7.35	-31.1	-36.3	9.2	2.19e-02	0	42	0	1246756864	22	6595
2026-01-10 01:40:46.65	236.00	7.13	-31.2	-36.6	9.0	2.10e-02	0	42	0	1251999744	22	6758
2026-01-10 01:40:49.66	235.83	6.91	-33.3	-47.8	3.8	1.49e+00	0	42	104	1253048320	26	18926

#Closed at: 2026-01-10 01:40:50
#Recorded file [1253 MB]: D:/data/31010_260110_042938.dat