passes_logs/2026/01/10/R2M6_AANII_01/R2M6_AANII_01__20260110_035429_FENGYUN_3E_rec.log

#Pass ID: 20260110_035429_FENGYUN 3E
#Satellite: FENGYUN 3E
#Configuration: FENGYUN 3E
#almurnet v.1.7.20240730
#Start time: 2026-01-10 04:00:09

#Version: 2.2.20231116
#Station: R2M6_AANII_01
#Location: 30.233357 lon 59.946436 lat
#TLE: 1 49008U 21062A   26009.29780149 -.00000002  00000+0  19895-4 0  9997
#TLE: 2 49008  98.7484  14.4929 0001744 148.2300 211.8982 14.19883977234036

#Time	Az	El	Level	Level2	SNR	BER	BlckErr	Temp	State	Recorded	gain1	gain2
2026-01-10 04:00:09.15	90.31	50.40	-33.8	-45.1	3.8	8.46e-01	0	42	0	0	27	13241
2026-01-10 04:00:11.15	91.59	50.51	-34.4	-43.7	3.8	8.47e-01	0	42	104	0	29	10491
2026-01-10 04:00:13.14	92.88	50.60	-34.5	-43.8	3.8	8.45e-01	0	42	104	0	29	10559
2026-01-10 04:00:15.13	94.17	50.68	-34.5	-43.9	3.8	8.46e-01	0	42	104	0	29	10616
2026-01-10 04:00:17.13	95.47	50.75	-34.4	-43.7	3.8	8.45e-01	0	42	104	0	29	10486
2026-01-10 04:00:19.12	96.78	50.80	-34.5	-43.9	3.8	8.46e-01	0	42	104	0	29	10614
2026-01-10 04:00:21.11	98.08	50.83	-34.3	-43.5	3.8	8.46e-01	0	42	104	0	29	10387
2026-01-10 04:00:23.11	99.40	50.85	-34.5	-43.8	3.8	8.45e-01	0	42	104	0	29	10514
2026-01-10 04:00:25.10	100.71	50.85	-34.2	-43.2	3.8	8.45e-01	0	42	104	0	29	10219
2026-01-10 04:00:27.10	102.03	50.84	-34.1	-43.0	3.8	8.46e-01	0	42	104	0	29	10034
2026-01-10 04:00:29.10	103.34	50.82	-34.0	-42.7	3.8	8.45e-01	0	42	104	0	29	9893
2026-01-10 04:00:31.09	104.65	50.77	-33.8	-43.0	3.8	8.47e-01	0	42	104	0	28	10399
2026-01-10 04:00:33.08	105.95	50.71	-33.8	-42.9	3.8	8.47e-01	0	42	104	0	28	10262
2026-01-10 04:00:35.08	107.25	50.64	-33.7	-42.8	3.8	8.46e-01	0	42	104	0	28	10246
2026-01-10 04:00:37.07	108.54	50.55	-33.8	-42.8	3.8	8.47e-01	0	42	104	0	28	10219
2026-01-10 04:00:39.07	109.82	50.45	-33.8	-42.9	3.8	8.46e-01	0	42	104	0	28	10296
2026-01-10 04:00:41.06	111.09	50.33	-33.8	-42.7	3.8	8.44e-01	0	42	104	0	28	10141
2026-01-10 04:00:43.07	112.37	50.20	-33.8	-42.9	3.8	8.46e-01	0	42	104	0	28	10261
2026-01-10 04:00:45.07	113.62	50.05	-33.7	-42.6	3.8	8.45e-01	0	42	104	0	28	10044
2026-01-10 04:00:47.05	114.86	49.90	-33.7	-42.7	3.8	8.46e-01	0	42	104	0	28	10118
2026-01-10 04:00:49.03	116.07	49.72	-33.7	-42.6	3.8	8.47e-01	0	42	104	0	28	10016
2026-01-10 04:00:51.02	117.28	49.54	-33.6	-42.1	3.8	8.45e-01	0	42	104	0	28	9504
2026-01-10 04:00:53.02	118.48	49.34	-33.7	-42.5	3.8	8.45e-01	0	42	104	0	28	9861
2026-01-10 04:00:54.99	119.65	49.13	-33.7	-42.6	3.8	8.45e-01	0	42	104	0	28	10037
2026-01-10 04:00:56.99	120.82	48.91	-33.6	-41.6	3.8	8.45e-01	0	42	104	0	28	9072
2026-01-10 04:00:58.98	121.97	48.68	-32.4	-36.2	4.4	8.39e-01	0	42	104	0	26	5579
2026-01-10 04:01:00.96	123.09	48.44	-24.2	-24.2	17.5	0.00e+00	0	42	0	5242880	9	3598
2026-01-10 04:01:02.95	124.20	48.18	-26.0	-27.0	15.4	0.00e+00	0	42	0	19922944	11	4052
2026-01-10 04:01:04.94	125.30	47.92	-25.9	-25.8	15.5	0.00e+00	0	42	0	34603008	13	3559
2026-01-10 04:01:06.94	126.38	47.65	-25.0	-25.0	16.5	0.00e+00	0	42	0	48234496	11	3568
2026-01-10 04:01:08.91	127.42	47.37	-24.4	-24.7	17.2	0.00e+00	0	42	0	62914560	9	3705
2026-01-10 04:01:10.90	128.46	47.08	-25.0	-25.5	16.6	0.00e+00	0	42	0	77594624	10	3783
2026-01-10 04:01:12.88	129.47	46.79	-24.5	-24.4	17.1	0.00e+00	0	42	0	91226112	10	3547
2026-01-10 04:01:14.87	130.47	46.48	-24.4	-24.7	17.2	0.00e+00	0	42	0	105906176	9	3709
2026-01-10 04:01:16.86	131.45	46.17	-24.4	-24.6	17.2	0.00e+00	0	42	0	120586240	9	3700
2026-01-10 04:01:18.84	132.41	45.86	-24.9	-25.3	16.6	0.00e+00	0	42	0	134217728	10	3744
2026-01-10 04:01:20.83	133.35	45.53	-24.0	-23.8	17.7	0.00e+00	0	42	0	148897792	9	3504
2026-01-10 04:01:22.83	134.28	45.20	-23.0	-22.6	18.7	0.00e+00	0	42	0	163577856	7	3462
2026-01-10 04:01:24.81	135.18	44.87	-22.9	-23.1	18.7	0.00e+00	0	42	0	178257920	6	3659
2026-01-10 04:01:26.80	136.07	44.53	-23.3	-23.9	18.2	0.00e+00	0	42	0	191889408	6	3838
2026-01-10 04:01:28.79	136.93	44.19	-23.4	-24.0	18.2	0.00e+00	0	42	0	206569472	6	3870
2026-01-10 04:01:30.78	137.78	43.84	-23.2	-23.2	18.4	0.00e+00	0	42	0	221249536	7	3579
2026-01-10 04:01:32.76	138.61	43.50	-23.1	-22.8	18.5	0.00e+00	0	42	0	234881024	7	3507
2026-01-10 04:01:34.76	139.42	43.14	-23.0	-22.6	18.4	0.00e+00	0	42	0	249561088	7	3464
2026-01-10 04:01:36.75	140.22	42.78	-23.1	-22.9	18.5	0.00e+00	0	42	0	263192576	7	3523
2026-01-10 04:01:38.73	140.99	42.43	-23.1	-22.9	18.5	0.00e+00	0	42	0	277872640	7	3523
2026-01-10 04:01:40.72	141.76	42.07	-22.8	-22.8	18.8	0.00e+00	0	42	0	292552704	6	3593
2026-01-10 04:01:42.72	142.50	41.70	-22.9	-23.0	18.7	0.00e+00	0	42	0	307232768	6	3629
2026-01-10 04:01:44.70	143.23	41.34	-23.2	-23.5	18.5	0.00e+00	0	42	0	321912832	6	3754
2026-01-10 04:01:46.69	143.94	40.97	-23.3	-23.8	18.3	0.00e+00	0	42	0	335544320	6	3807
2026-01-10 04:01:48.69	144.64	40.60	-23.4	-24.0	18.2	0.00e+00	0	42	0	350224384	6	3858
2026-01-10 04:01:50.69	145.32	40.23	-23.1	-23.4	18.3	0.00e+00	0	42	0	364904448	6	3726
2026-01-10 04:01:52.67	145.99	39.87	-23.0	-23.2	18.5	0.00e+00	0	42	0	378535936	6	3696
2026-01-10 04:01:54.66	146.64	39.50	-23.0	-23.2	18.6	0.00e+00	0	42	0	393216000	6	3680
2026-01-10 04:01:56.66	147.28	39.13	-23.2	-23.5	18.4	0.00e+00	0	42	0	407896064	6	3762
2026-01-10 04:01:58.65	147.90	38.76	-23.2	-23.6	18.3	0.00e+00	0	42	0	421527552	6	3772
2026-01-10 04:02:00.65	148.51	38.39	-22.8	-22.7	18.7	0.00e+00	0	42	0	436207616	6	3577
2026-01-10 04:02:02.63	149.11	38.03	-22.9	-23.0	18.6	0.00e+00	0	42	0	450887680	6	3638
2026-01-10 04:02:04.62	149.69	37.66	-22.8	-22.8	18.7	0.00e+00	0	42	0	465567744	6	3605
2026-01-10 04:02:06.61	150.26	37.29	-23.0	-23.1	18.3	0.00e+00	0	42	0	479199232	6	3652
2026-01-10 04:02:08.60	150.82	36.93	-23.0	-23.2	18.6	0.00e+00	0	42	0	493879296	6	3684
2026-01-10 04:02:10.59	151.36	36.56	-22.9	-22.9	18.7	0.00e+00	0	42	0	507510784	6	3624
2026-01-10 04:02:12.59	151.90	36.20	-23.0	-23.1	18.5	0.00e+00	0	42	0	522190848	6	3672
2026-01-10 04:02:14.59	152.42	35.84	-23.0	-23.3	18.5	0.00e+00	0	42	0	536870912	6	3710
2026-01-10 04:02:16.59	152.94	35.48	-23.1	-23.4	18.5	0.00e+00	0	42	0	551550976	6	3727
2026-01-10 04:02:18.56	153.43	35.12	-22.9	-23.0	18.7	0.00e+00	0	42	0	566231040	6	3641
2026-01-10 04:02:20.55	153.92	34.77	-22.9	-23.0	18.6	0.00e+00	0	42	0	579862528	6	3646
2026-01-10 04:02:22.55	154.40	34.41	-22.7	-22.5	18.9	0.00e+00	0	42	0	594542592	6	3527
2026-01-10 04:02:24.55	154.87	34.05	-22.7	-22.6	18.8	0.00e+00	0	42	0	609222656	6	3555
2026-01-10 04:02:26.54	155.33	33.70	-22.9	-22.9	18.7	0.00e+00	0	42	0	622854144	6	3619
2026-01-10 04:02:28.52	155.78	33.36	-23.2	-23.6	18.4	0.00e+00	0	42	0	637534208	6	3775
2026-01-10 04:02:30.51	156.22	33.01	-23.3	-23.4	18.2	0.00e+00	0	42	0	652214272	7	3628
2026-01-10 04:02:32.50	156.65	32.67	-23.4	-23.6	18.1	0.00e+00	0	42	0	665845760	7	3680
2026-01-10 04:02:34.48	157.07	32.33	-23.4	-23.6	18.1	0.00e+00	0	42	0	680525824	7	3681
2026-01-10 04:02:36.47	157.48	31.99	-22.9	-22.6	18.6	0.00e+00	0	42	0	695205888	7	3450
2026-01-10 04:02:38.45	157.89	31.65	-23.1	-22.9	18.4	0.00e+00	0	42	0	709885952	7	3512
2026-01-10 04:02:40.44	158.29	31.31	-23.1	-23.3	18.4	0.00e+00	0	42	0	723517440	6	3717
2026-01-10 04:02:42.44	158.68	30.98	-22.8	-22.8	18.7	0.00e+00	0	42	0	738197504	6	3591
2026-01-10 04:02:44.42	159.06	30.65	-23.0	-23.2	18.5	0.00e+00	0	42	0	752877568	6	3684
2026-01-10 04:02:46.40	159.43	30.33	-23.4	-24.1	17.9	0.00e+00	0	42	0	766509056	6	3902
2026-01-10 04:02:48.39	159.80	30.00	-23.2	-23.2	18.1	0.00e+00	0	42	0	781189120	7	3590
2026-01-10 04:02:50.38	160.16	29.68	-23.1	-23.0	18.2	0.00e+00	0	42	0	794820608	7	3554
2026-01-10 04:02:52.37	160.51	29.36	-23.2	-23.2	18.2	0.00e+00	0	42	0	809500672	7	3584
2026-01-10 04:02:54.36	160.85	29.04	-23.3	-23.3	18.1	0.00e+00	0	42	0	824180736	7	3602
2026-01-10 04:02:56.35	161.19	28.72	-23.3	-23.2	18.0	0.00e+00	0	42	0	837812224	7	3597
2026-01-10 04:02:58.34	161.53	28.41	-23.2	-23.1	18.2	0.00e+00	0	42	0	852492288	7	3554
2026-01-10 04:03:00.33	161.85	28.10	-23.2	-23.1	18.2	0.00e+00	0	42	0	867172352	7	3557
2026-01-10 04:03:02.32	162.17	27.79	-23.1	-22.9	18.2	0.00e+00	0	42	0	881852416	7	3528
2026-01-10 04:03:04.32	162.49	27.48	-23.0	-22.7	18.3	0.00e+00	0	42	0	896532480	7	3489
2026-01-10 04:03:06.31	162.80	27.18	-23.1	-22.9	18.2	0.00e+00	0	42	0	910163968	7	3525
2026-01-10 04:03:08.31	163.10	26.88	-23.2	-23.1	18.1	0.00e+00	0	42	0	924844032	7	3562
2026-01-10 04:03:10.31	163.40	26.58	-23.3	-23.5	18.0	0.00e+00	0	42	0	939524096	7	3649
2026-01-10 04:03:12.30	163.70	26.28	-23.7	-24.1	17.6	0.00e+00	0	42	0	953155584	7	3799
2026-01-10 04:03:14.28	163.98	25.99	-23.8	-23.9	17.5	0.00e+00	0	42	0	967835648	8	3636
2026-01-10 04:03:16.27	164.26	25.70	-23.6	-23.4	17.7	0.00e+00	0	42	0	982515712	8	3539
2026-01-10 04:03:18.26	164.54	25.41	-23.6	-23.4	17.7	0.00e+00	0	42	0	997195776	8	3540
2026-01-10 04:03:20.25	164.81	25.12	-23.7	-23.6	17.6	0.00e+00	0	42	0	1010827264	8	3584
2026-01-10 04:03:22.24	165.08	24.84	-23.3	-23.4	18.0	0.00e+00	0	42	0	1025507328	7	3637
2026-01-10 04:03:24.23	165.34	24.56	-23.2	-23.1	18.1	0.00e+00	0	42	0	1040187392	7	3577
2026-01-10 04:03:26.22	165.60	24.28	-23.2	-23.1	18.1	0.00e+00	0	42	0	1053818880	7	3571
2026-01-10 04:03:28.22	165.86	24.00	-23.2	-23.0	18.1	0.00e+00	0	42	0	1068498944	7	3556
2026-01-10 04:03:30.22	166.11	23.73	-23.1	-22.9	18.2	0.00e+00	0	42	0	1083179008	7	3526
2026-01-10 04:03:32.21	166.36	23.46	-23.1	-23.0	18.2	0.00e+00	0	42	0	1097859072	7	3545
2026-01-10 04:03:34.20	166.60	23.19	-23.4	-23.7	17.8	0.00e+00	0	42	0	1111490560	7	3691
2026-01-10 04:03:36.19	166.83	22.92	-23.4	-23.6	17.8	0.00e+00	0	42	0	1126170624	7	3690
2026-01-10 04:03:38.18	167.07	22.66	-23.4	-23.5	17.9	0.00e+00	0	42	0	1140850688	7	3651
2026-01-10 04:03:40.18	167.30	22.39	-23.4	-23.5	17.9	0.00e+00	0	42	0	1154482176	7	3655
2026-01-10 04:03:42.17	167.53	22.13	-23.7	-24.2	17.6	0.00e+00	0	42	0	1169162240	7	3803
2026-01-10 04:03:44.16	167.75	21.87	-23.5	-23.9	17.7	0.00e+00	0	42	0	1183842304	7	3735
2026-01-10 04:03:46.14	167.97	21.62	-23.7	-24.1	17.5	0.00e+00	0	42	0	1197473792	7	3798
2026-01-10 04:03:48.14	168.18	21.36	-23.8	-24.5	17.3	0.00e+00	0	42	0	1212153856	7	3877
2026-01-10 04:03:50.13	168.40	21.11	-24.1	-25.0	17.1	0.00e+00	0	42	0	1226833920	7	3997
2026-01-10 04:03:52.14	168.61	20.86	-23.9	-24.7	17.2	0.00e+00	0	42	0	1241513984	7	3941
2026-01-10 04:03:54.12	168.81	20.61	-23.8	-24.4	17.3	0.00e+00	0	42	0	1255145472	7	3868
2026-01-10 04:03:56.11	169.01	20.37	-23.8	-24.4	17.3	0.00e+00	0	42	0	1269825536	7	3867
2026-01-10 04:03:58.11	169.22	20.13	-23.8	-24.3	17.4	0.00e+00	0	42	0	1284505600	7	3846
2026-01-10 04:04:00.10	169.41	19.88	-23.8	-24.5	17.3	0.00e+00	0	42	0	1298137088	7	3887
2026-01-10 04:04:02.12	169.61	19.64	-23.7	-24.2	17.4	0.00e+00	0	42	0	1312817152	7	3813
2026-01-10 04:04:04.12	169.80	19.40	-23.9	-24.5	17.3	0.00e+00	0	42	0	1327497216	7	3884
2026-01-10 04:04:06.10	169.99	19.17	-24.0	-24.7	17.1	0.00e+00	0	42	0	1342177280	7	3944
2026-01-10 04:04:08.10	170.17	18.93	-24.0	-24.8	17.1	0.00e+00	0	42	0	1355808768	7	3957
2026-01-10 04:04:10.09	170.36	18.70	-24.0	-24.8	17.1	0.00e+00	0	42	0	1370488832	7	3964
2026-01-10 04:04:12.09	170.54	18.47	-24.1	-24.6	17.0	0.00e+00	0	42	0	1385168896	8	3805
2026-01-10 04:04:14.07	170.71	18.25	-24.4	-25.1	16.7	0.00e+00	0	42	0	1399848960	8	3927
2026-01-10 04:04:16.05	170.89	18.02	-24.3	-24.9	16.8	0.00e+00	0	43	0	1413480448	8	3878
2026-01-10 04:04:18.03	171.06	17.80	-24.3	-25.0	16.7	0.00e+00	0	42	0	1428160512	8	3904
2026-01-10 04:04:20.02	171.23	17.58	-24.5	-25.3	16.6	0.00e+00	0	42	0	1442840576	8	3974
2026-01-10 04:04:22.02	171.40	17.36	-24.4	-25.2	16.6	0.00e+00	0	43	0	1456472064	8	3954
2026-01-10 04:04:24.02	171.56	17.14	-24.6	-25.0	16.4	0.00e+00	0	42	0	1471152128	9	3806
2026-01-10 04:04:26.01	171.72	16.92	-24.5	-24.9	16.5	0.00e+00	0	42	0	1485832192	9	3773
2026-01-10 04:04:28.00	171.89	16.70	-24.4	-24.8	16.5	0.00e+00	0	42	0	1499463680	9	3740
2026-01-10 04:04:29.98	172.04	16.49	-24.7	-25.4	16.2	0.00e+00	0	42	0	1514143744	9	3882
2026-01-10 04:04:31.97	172.20	16.28	-24.4	-24.8	16.5	0.00e+00	0	43	0	1528823808	9	3742
2026-01-10 04:04:33.97	172.36	16.07	-24.5	-25.0	16.4	0.00e+00	0	43	0	1543503872	9	3790
2026-01-10 04:04:35.96	172.51	15.86	-24.6	-25.2	16.3	0.00e+00	0	42	0	1557135360	9	3844
2026-01-10 04:04:37.95	172.66	15.65	-24.6	-25.1	16.4	0.00e+00	0	42	0	1571815424	9	3818
2026-01-10 04:04:39.95	172.81	15.45	-24.9	-25.7	16.1	0.00e+00	0	42	0	1586495488	9	3964
2026-01-10 04:04:41.94	172.95	15.24	-24.9	-25.9	15.9	0.00e+00	0	42	0	1600126976	9	4014
2026-01-10 04:04:43.95	173.10	15.04	-25.0	-25.6	15.8	0.00e+00	0	42	0	1614807040	10	3836
2026-01-10 04:04:45.93	173.24	14.84	-25.4	-26.3	15.4	0.00e+00	0	43	0	1629487104	10	4010
2026-01-10 04:04:47.91	173.38	14.64	-25.0	-25.6	15.8	0.00e+00	0	43	0	1644167168	10	3835
2026-01-10 04:04:49.90	173.52	14.44	-25.2	-25.8	15.7	0.00e+00	0	42	0	1657798656	10	3895
2026-01-10 04:04:51.90	173.66	14.24	-25.1	-25.6	15.8	0.00e+00	0	42	0	1672478720	10	3844
2026-01-10 04:04:53.89	173.79	14.05	-25.1	-25.8	15.6	0.00e+00	0	42	0	1687158784	10	3896
2026-01-10 04:04:55.88	173.93	13.86	-25.2	-25.8	15.6	0.00e+00	0	42	0	1700790272	10	3894
2026-01-10 04:04:57.87	174.06	13.66	-25.4	-25.8	15.4	0.00e+00	0	42	0	1715470336	11	3787
2026-01-10 04:04:59.87	174.19	13.47	-25.2	-25.4	15.5	0.00e+00	0	42	0	1730150400	11	3698
2026-01-10 04:05:01.87	174.32	13.28	-25.3	-25.8	15.3	0.00e+00	0	42	0	1744830464	11	3773
2026-01-10 04:05:03.85	174.45	13.09	-25.5	-26.2	15.1	0.00e+00	0	42	0	1758461952	11	3875
2026-01-10 04:05:05.83	174.57	12.91	-25.1	-25.3	15.6	0.00e+00	0	42	0	1773142016	11	3671
2026-01-10 04:05:07.82	174.70	12.72	-25.1	-25.3	15.5	0.00e+00	0	42	0	1787822080	11	3668
2026-01-10 04:05:09.81	174.82	12.54	-25.6	-26.3	15.0	0.00e+00	0	42	0	1801453568	11	3900
2026-01-10 04:05:11.80	174.94	12.36	-25.4	-25.9	15.2	0.00e+00	0	42	0	1816133632	11	3798
2026-01-10 04:05:13.78	175.06	12.18	-25.3	-25.7	15.4	0.00e+00	0	42	0	1830813696	11	3756
2026-01-10 04:05:15.75	175.18	12.00	-25.4	-25.9	15.2	0.00e+00	0	42	0	1844445184	11	3806
2026-01-10 04:05:17.75	175.30	11.82	-25.4	-25.9	15.2	0.00e+00	0	42	0	1859125248	11	3801
2026-01-10 04:05:19.74	175.41	11.64	-25.5	-26.1	15.1	0.00e+00	0	42	0	1873805312	11	3853
2026-01-10 04:05:21.73	175.53	11.46	-25.5	-26.2	15.0	0.00e+00	0	42	0	1887436800	11	3881
2026-01-10 04:05:23.74	175.64	11.29	-25.7	-26.6	14.8	0.00e+00	0	42	0	1902116864	11	3984
2026-01-10 04:05:25.74	175.76	11.11	-25.9	-26.9	14.6	0.00e+00	0	42	0	1916796928	11	4069
2026-01-10 04:05:27.73	175.87	10.94	-26.1	-26.9	14.3	1.10e-06	0	42	0	1931476992	12	3951
2026-01-10 04:05:29.73	175.98	10.76	-26.4	-27.6	13.9	4.50e-06	0	42	0	1945108480	12	4143
2026-01-10 04:05:31.74	176.09	10.59	-26.5	-27.4	13.7	6.80e-06	0	42	0	1959788544	13	3999
2026-01-10 04:05:33.74	176.20	10.42	-26.6	-27.5	13.6	3.40e-06	0	42	0	1974468608	13	4016
2026-01-10 04:05:35.74	176.30	10.25	-26.7	-27.8	13.4	1.48e-05	0	42	0	1989148672	13	4095
2026-01-10 04:05:37.74	176.41	10.08	-26.5	-27.4	13.6	3.40e-06	0	42	0	2003828736	13	3991
2026-01-10 04:05:39.74	176.51	9.92	-26.5	-27.4	13.6	4.50e-06	0	42	0	2017460224	13	3994
2026-01-10 04:05:41.74	176.62	9.75	-26.9	-28.3	13.1	1.60e-05	0	42	0	2032140288	13	4213
2026-01-10 04:05:43.74	176.72	9.58	-27.5	-29.1	12.4	9.26e-05	0	42	0	2046820352	14	4347
2026-01-10 04:05:45.75	176.82	9.42	-27.6	-29.0	12.1	2.02e-04	0	42	0	2061500416	15	4210
2026-01-10 04:05:47.76	176.92	9.25	-27.2	-28.6	12.6	1.02e-04	0	42	0	2076180480	14	4208
2026-01-10 04:05:49.76	177.02	9.09	-27.4	-28.9	12.4	1.12e-04	0	42	0	2089811968	14	4297
2026-01-10 04:05:51.76	177.12	8.93	-26.8	-27.7	13.1	1.25e-05	0	42	0	2104492032	14	3963
2026-01-10 04:05:53.77	177.22	8.77	-27.3	-28.7	12.5	3.77e-05	0	42	0	2119172096	14	4236
2026-01-10 04:05:55.77	177.31	8.61	-27.4	-28.5	12.3	1.06e-04	0	42	0	2133852160	15	4081
2026-01-10 04:05:57.77	177.41	8.45	-26.6	-27.2	13.4	1.02e-05	0	42	0	2148532224	14	3852
2026-01-10 04:05:59.76	177.50	8.29	-26.8	-27.6	13.2	1.48e-05	0	42	0	2162163712	14	3943
2026-01-10 04:06:01.77	177.60	8.14	-26.8	-27.7	13.1	1.94e-05	0	42	0	2176843776	14	3960
2026-01-10 04:06:03.78	177.69	7.98	-26.6	-27.1	13.4	1.83e-05	0	42	0	2191523840	14	3809
2026-01-10 04:06:05.78	177.78	7.83	-26.8	-27.6	13.1	1.94e-05	0	42	0	2206203904	14	3938
2026-01-10 04:06:07.78	177.87	7.67	-27.3	-28.7	12.5	1.10e-04	0	42	0	2219835392	14	4234
2026-01-10 04:06:09.79	177.96	7.52	-27.3	-28.8	12.4	3.31e-05	0	42	0	2234515456	14	4253
2026-01-10 04:06:11.79	178.05	7.37	-26.8	-27.7	13.0	4.69e-05	0	43	0	2249195520	14	3963
2026-01-10 04:06:13.80	178.14	7.21	-27.0	-28.1	12.7	1.23e-04	0	42	0	2263875584	14	4064
2026-01-10 04:06:15.80	178.22	7.06	-32.7	-42.3	3.8	8.46e-01	0	42	104	2274361344	25	10828

#Closed at: 2026-01-10 04:06:16
#Recorded file [2274 MB]: D:/data/31010_260110_070100.dat