passes_logs/2026/01/10/R2M6_AANII_01/R2M6_AANII_01__20260110_010847_SUOMI_NPP_rec.log

#Pass ID: 20260110_010847_SUOMI NPP
#Satellite: SUOMI NPP
#Configuration: NPP
#almurnet v.1.7.20240730
#Start time: 2026-01-10 01:08:47

#Version: 2.2.20231116
#Station: R2M6_AANII_01
#Location: 30.233357 lon 59.946436 lat
#TLE: 1 37849U 11061A   26008.83076692  .00000095  00000+0  66074-4 0  9997
#TLE: 2 37849  98.7806 310.9327 0002533  74.3004 285.8451 14.19523607735834

#Time	Az	El	Level	Level2	SNR	BER	BlckErr	Temp	State	Recorded	gain1	gain2
2026-01-10 01:08:47.02	14.78	6.97	-31.4	-35.3	5.2	1.27e+00	0	39	0	0	23	5604
2026-01-10 01:08:50.03	14.67	7.20	-31.4	-35.1	8.8	5.55e-02	0	40	0	1048576	23	5505
2026-01-10 01:08:53.03	14.57	7.42	-31.5	-35.4	8.6	2.89e-02	0	39	0	7340032	23	5628
2026-01-10 01:08:56.04	14.46	7.65	-31.4	-35.0	9.0	3.24e-02	0	40	0	12582912	23	5417
2026-01-10 01:08:59.04	14.35	7.89	-31.9	-36.8	7.9	3.75e-02	0	40	0	17825792	23	6342
2026-01-10 01:09:02.05	14.23	8.12	-31.8	-36.4	8.1	7.58e-02	0	40	0	24117248	23	6060
2026-01-10 01:09:05.06	14.12	8.36	-31.6	-35.6	8.8	4.12e-02	0	40	0	29360128	23	5668
2026-01-10 01:09:08.06	14.00	8.59	-31.9	-36.5	8.0	3.96e-02	0	40	0	35651584	23	6175
2026-01-10 01:09:11.07	13.88	8.83	-32.0	-37.0	7.2	1.02e-01	0	40	0	40894464	24	6355
2026-01-10 01:09:14.08	13.76	9.08	-31.2	-34.3	10.3	5.86e-03	0	40	0	46137344	22	5154
2026-01-10 01:09:17.08	13.64	9.32	-31.0	-33.9	10.5	1.50e-03	0	41	0	52428800	22	4983
2026-01-10 01:09:20.09	13.51	9.57	-31.1	-33.9	10.5	5.60e-03	0	40	0	57671680	22	4985
2026-01-10 01:09:23.10	13.39	9.82	-30.9	-33.9	10.9	2.77e-03	0	41	0	62914560	21	5089
2026-01-10 01:09:26.11	13.26	10.07	-30.5	-32.0	12.0	1.49e-03	0	41	0	69206016	22	4296
2026-01-10 01:09:29.11	13.12	10.33	-29.8	-31.0	13.3	2.62e-04	0	41	0	74448896	20	4142
2026-01-10 01:09:32.11	12.99	10.58	-29.9	-31.5	13.0	4.04e-05	0	41	0	80740352	20	4302
2026-01-10 01:09:35.11	12.85	10.84	-29.7	-31.4	13.4	1.14e-05	0	41	0	85983232	19	4350
2026-01-10 01:09:38.11	12.71	11.10	-29.7	-30.8	13.4	2.67e-05	0	41	0	91226112	20	4099
2026-01-10 01:09:41.12	12.57	11.37	-29.8	-31.0	13.4	9.90e-06	0	41	0	97517568	20	4139
2026-01-10 01:09:44.12	12.42	11.63	-29.7	-31.3	13.5	1.96e-04	0	41	0	102760448	19	4322
2026-01-10 01:09:47.13	12.27	11.90	-29.6	-30.9	13.7	2.07e-04	0	41	0	108003328	19	4217
2026-01-10 01:09:50.12	12.12	12.18	-29.5	-30.8	13.8	2.01e-04	0	41	0	114294784	19	4184
2026-01-10 01:09:53.12	11.97	12.45	-29.5	-30.8	13.9	2.20e-06	0	41	0	119537664	19	4170
2026-01-10 01:09:56.13	11.81	12.73	-29.9	-31.1	13.3	1.14e-05	0	41	0	125829120	20	4177
2026-01-10 01:09:59.14	11.65	13.01	-30.3	-31.7	12.7	5.72e-05	0	41	0	131072000	21	4233
2026-01-10 01:10:02.14	11.48	13.30	-29.8	-30.9	13.8	2.21e-05	0	41	0	136314880	20	4096
2026-01-10 01:10:05.15	11.31	13.58	-29.7	-31.1	14.0	2.20e-06	0	41	0	142606336	19	4234
2026-01-10 01:10:08.15	11.14	13.87	-29.7	-30.7	14.0	1.65e-04	0	41	0	147849216	20	4034
2026-01-10 01:10:11.15	10.96	14.17	-29.4	-29.9	14.6	2.20e-06	0	41	0	153092096	20	3798
2026-01-10 01:10:14.16	10.79	14.47	-30.1	-31.6	13.4	3.80e-06	0	41	0	159383552	20	4269
2026-01-10 01:10:17.17	10.60	14.77	-30.0	-31.4	13.5	2.28e-05	0	41	0	164626432	20	4227
2026-01-10 01:10:20.19	10.41	15.07	-30.3	-31.4	13.4	2.74e-05	0	42	0	170917888	21	4118
2026-01-10 01:10:23.19	10.22	15.38	-30.0	-31.3	13.7	0.00e+00	0	41	0	176160768	20	4179
2026-01-10 01:10:26.19	10.03	15.69	-29.8	-30.7	14.0	7.00e-07	0	41	0	181403648	20	4035
2026-01-10 01:10:29.18	9.83	16.00	-30.0	-30.9	13.7	8.30e-06	0	41	0	187695104	21	3964
2026-01-10 01:10:32.19	9.62	16.32	-29.7	-30.9	14.3	0.00e+00	0	41	0	192937984	19	4163
2026-01-10 01:10:35.18	9.42	16.64	-29.6	-30.3	14.4	7.00e-07	0	41	0	198180864	20	3889
2026-01-10 01:10:38.17	9.20	16.97	-29.5	-30.4	14.7	0.00e+00	0	41	0	204472320	19	4005
2026-01-10 01:10:41.16	8.98	17.30	-29.6	-30.7	14.5	0.00e+00	0	41	0	209715200	19	4076
2026-01-10 01:10:44.16	8.76	17.63	-30.4	-31.7	13.3	9.10e-06	0	41	0	214958080	21	4193
2026-01-10 01:10:47.16	8.53	17.97	-29.9	-31.0	14.1	3.80e-06	0	41	0	221249536	20	4069
2026-01-10 01:10:50.16	8.30	18.31	-30.4	-32.2	13.4	1.44e-05	0	42	0	226492416	20	4469
2026-01-10 01:10:53.16	8.06	18.66	-30.2	-31.7	13.5	3.00e-06	0	42	0	232783872	20	4289
2026-01-10 01:10:56.17	7.81	19.01	-30.0	-31.3	13.9	2.20e-06	0	42	0	238026752	20	4177
2026-01-10 01:10:59.17	7.56	19.36	-29.6	-30.7	14.7	0.00e+00	0	42	0	243269632	19	4090
2026-01-10 01:11:02.16	7.30	19.72	-29.3	-29.9	15.0	1.50e-06	0	42	0	249561088	19	3870
2026-01-10 01:11:05.17	7.04	20.09	-29.4	-30.2	14.7	0.00e+00	0	41	0	254803968	19	3964
2026-01-10 01:11:08.18	6.76	20.46	-29.8	-30.7	14.5	0.00e+00	0	42	0	260046848	20	3984
2026-01-10 01:11:11.19	6.49	20.83	-30.0	-31.3	13.6	1.06e-05	0	42	0	266338304	20	4189
2026-01-10 01:11:14.20	6.20	21.21	-30.4	-32.0	13.0	2.44e-05	0	42	0	271581184	21	4324
2026-01-10 01:11:17.20	5.91	21.60	-30.4	-31.9	13.3	6.10e-06	0	42	0	277872640	21	4253
2026-01-10 01:11:20.21	5.61	21.99	-30.2	-31.3	13.6	2.13e-05	0	42	0	283115520	21	4072
2026-01-10 01:11:23.22	5.30	22.38	-30.4	-31.7	13.6	2.13e-05	0	42	0	288358400	21	4194
2026-01-10 01:11:26.24	4.98	22.78	-29.9	-30.9	14.2	7.00e-07	0	42	0	294649856	20	4034
2026-01-10 01:11:29.24	4.65	23.19	-29.9	-30.9	14.1	2.20e-06	0	42	0	299892736	20	4056
2026-01-10 01:11:32.24	4.32	23.60	-30.4	-31.8	13.6	3.00e-06	0	42	0	305135616	21	4208
2026-01-10 01:11:35.26	3.97	24.02	-30.7	-32.3	13.4	9.90e-06	0	42	0	311427072	21	4345
2026-01-10 01:11:38.25	3.62	24.44	-31.3	-33.4	12.6	5.79e-05	0	42	0	316669952	22	4584
2026-01-10 01:11:41.26	3.26	24.87	-31.1	-33.0	11.6	4.42e-05	0	42	0	322961408	22	4476
2026-01-10 01:11:44.26	2.88	25.30	-30.5	-31.8	12.4	5.41e-05	0	42	0	328204288	21	4201
2026-01-10 01:11:47.26	2.50	25.74	-30.4	-32.0	13.7	5.30e-06	0	42	0	333447168	20	4341
2026-01-10 01:11:50.28	2.10	26.18	-30.6	-32.3	13.1	1.14e-05	0	42	0	339738624	21	4358
2026-01-10 01:11:53.28	1.70	26.63	-30.5	-32.0	13.2	3.20e-05	0	42	0	344981504	21	4293
2026-01-10 01:11:56.29	1.28	27.09	-30.6	-32.2	13.4	1.22e-05	0	42	0	350224384	21	4328
2026-01-10 01:11:59.29	0.84	27.55	-30.6	-32.2	13.5	6.10e-06	0	42	0	356515840	21	4297
2026-01-10 01:12:02.29	0.40	28.02	-30.8	-32.5	13.3	2.50e-03	0	42	0	361758720	21	4420
2026-01-10 01:12:05.30	359.94	28.49	-30.8	-32.8	12.9	2.51e-03	0	42	0	368050176	21	4514
2026-01-10 01:12:08.29	359.47	28.97	-30.3	-32.0	13.7	3.35e-05	0	42	0	373293056	20	4354
2026-01-10 01:12:11.29	358.98	29.46	-30.7	-32.5	12.9	7.17e-05	0	42	0	378535936	21	4446
2026-01-10 01:12:14.30	358.48	29.95	-30.7	-32.6	12.9	4.73e-05	0	42	0	384827392	21	4464
2026-01-10 01:12:17.30	357.96	30.45	-31.2	-33.5	11.9	2.11e-04	0	42	0	390070272	22	4696
2026-01-10 01:12:20.30	357.43	30.95	-31.0	-33.1	12.1	3.21e-04	0	42	0	395313152	22	4554
2026-01-10 01:12:23.30	356.88	31.46	-31.3	-33.9	11.6	2.58e-03	0	42	0	401604608	22	4833
2026-01-10 01:12:26.30	356.31	31.98	-31.8	-34.8	10.7	3.88e-03	0	42	0	406847488	23	5080
2026-01-10 01:12:29.30	355.72	32.50	-32.2	-36.0	9.3	8.50e-03	0	42	0	412090368	24	5526
2026-01-10 01:12:32.31	355.11	33.03	-31.8	-34.8	10.6	6.76e-03	0	42	0	418381824	23	5128
2026-01-10 01:12:35.32	354.48	33.56	-31.8	-35.0	10.4	3.98e-03	0	42	0	423624704	23	5224
2026-01-10 01:12:38.33	353.82	34.10	-31.9	-35.3	10.2	6.25e-03	0	42	0	429916160	23	5342
2026-01-10 01:12:41.33	353.15	34.64	-31.6	-34.4	10.8	1.93e-03	0	42	0	435159040	23	4982
2026-01-10 01:12:44.33	352.45	35.19	-31.7	-34.7	10.5	5.67e-03	0	42	0	440401920	23	5089
2026-01-10 01:12:47.33	351.73	35.74	-31.7	-34.9	10.4	7.51e-03	0	42	0	446693376	23	5163
2026-01-10 01:12:50.34	350.99	36.30	-31.1	-33.5	11.7	2.41e-03	0	42	0	451936256	22	4726
2026-01-10 01:12:53.35	350.21	36.86	-31.3	-33.2	11.6	2.03e-03	0	42	0	457179136	23	4516
2026-01-10 01:12:56.37	349.41	37.43	-32.3	-35.5	9.6	1.29e-02	0	42	0	463470592	25	5170
2026-01-10 01:12:59.36	348.58	38.00	-33.2	-38.6	6.9	3.14e-02	0	42	0	468713472	26	6725
2026-01-10 01:13:02.37	347.72	38.57	-32.9	-36.9	8.5	1.34e-01	0	42	0	475004928	26	5714
2026-01-10 01:13:05.38	346.83	39.14	-31.9	-34.9	10.9	1.88e-03	0	42	0	480247808	23	5094
2026-01-10 01:13:08.39	345.90	39.72	-32.0	-35.0	10.3	1.03e-02	0	42	0	485490688	24	5062
2026-01-10 01:13:11.40	344.95	40.29	-31.8	-34.3	10.8	2.48e-03	0	42	0	491782144	24	4813
2026-01-10 01:13:14.40	343.96	40.86	-31.0	-32.8	12.6	2.50e-03	0	42	0	497025024	22	4443
2026-01-10 01:13:17.41	342.93	41.44	-32.0	-35.1	10.9	3.77e-03	0	42	0	502267904	23	5164
2026-01-10 01:13:20.42	341.86	42.01	-32.3	-36.0	9.7	1.84e-02	0	42	0	508559360	24	5514
2026-01-10 01:13:23.42	340.76	42.58	-31.5	-34.0	11.3	1.34e-03	0	42	0	513802240	23	4787
2026-01-10 01:13:26.43	339.61	43.14	-31.8	-35.0	10.7	3.48e-03	0	42	0	520093696	23	5182
2026-01-10 01:13:29.43	338.43	43.70	-32.5	-36.2	9.3	1.48e-02	0	42	0	525336576	25	5488
2026-01-10 01:13:32.45	337.20	44.26	-32.3	-35.7	10.0	7.39e-03	0	42	0	530579456	24	5354
2026-01-10 01:13:35.45	335.93	44.80	-32.4	-36.1	9.0	3.10e-02	0	42	0	536870912	25	5489
2026-01-10 01:13:38.46	334.61	45.34	-32.2	-35.8	9.7	1.52e-02	0	42	0	542113792	24	5476
2026-01-10 01:13:41.47	333.25	45.87	-31.7	-34.0	10.9	3.81e-03	0	42	0	547356672	24	4726
2026-01-10 01:13:44.48	331.84	46.38	-31.2	-32.9	12.1	6.47e-04	0	42	0	553648128	23	4379
2026-01-10 01:13:47.48	330.39	46.88	-31.9	-35.2	10.3	2.73e-03	0	42	0	558891008	23	5283
2026-01-10 01:13:50.48	328.89	47.37	-31.5	-33.9	11.0	8.41e-03	0	42	0	565182464	23	4773
2026-01-10 01:13:53.50	327.34	47.84	-31.0	-32.9	12.3	6.93e-04	0	42	0	570425344	22	4497
2026-01-10 01:13:56.50	325.75	48.29	-31.1	-32.7	12.0	3.28e-03	0	42	0	575668224	23	4347
2026-01-10 01:13:59.50	324.11	48.72	-30.2	-31.9	13.8	1.34e-03	0	42	0	581959680	20	4344
2026-01-10 01:14:02.51	322.42	49.13	-31.2	-34.0	11.4	2.12e-03	0	42	0	587202560	22	4951
2026-01-10 01:14:05.52	320.69	49.52	-30.7	-32.3	12.7	9.76e-04	0	42	0	592445440	22	4305
2026-01-10 01:14:08.53	318.91	49.87	-30.6	-32.6	12.9	3.50e-05	0	42	0	598736896	21	4518
2026-01-10 01:14:11.54	317.09	50.21	-32.4	-37.4	7.4	3.94e-02	0	42	0	603979776	25	6386
2026-01-10 01:14:14.55	315.24	50.51	-31.5	-34.2	10.7	6.90e-03	0	42	0	610271232	23	4962
2026-01-10 01:14:17.54	313.36	50.78	-31.1	-32.9	11.8	7.67e-04	0	42	0	615514112	23	4434
2026-01-10 01:14:20.53	311.44	51.02	-31.5	-34.7	10.3	1.45e-03	0	42	0	620756992	23	5171
2026-01-10 01:14:23.54	309.49	51.23	-30.6	-32.2	12.3	1.01e-03	0	42	0	627048448	22	4352
2026-01-10 01:14:26.55	307.51	51.40	-30.2	-32.1	13.2	3.71e-04	0	42	0	632291328	20	4473
2026-01-10 01:14:29.55	305.52	51.54	-29.5	-30.6	14.5	0.00e+00	0	42	0	637534208	19	4089
2026-01-10 01:14:32.56	303.50	51.64	-28.3	-28.6	16.2	0.00e+00	0	42	0	643825664	17	3750
2026-01-10 01:14:35.55	301.49	51.70	-27.9	-28.3	16.6	4.07e-04	0	42	0	649068544	16	3754
2026-01-10 01:14:38.54	299.47	51.73	-28.9	-29.6	15.3	4.88e-05	0	42	0	655360000	18	3913
2026-01-10 01:14:41.55	297.43	51.71	-29.9	-31.1	13.7	3.00e-06	0	42	0	660602880	20	4179
2026-01-10 01:14:44.55	295.41	51.67	-29.5	-30.3	14.2	4.50e-06	0	42	0	665845760	20	3943
2026-01-10 01:14:47.56	293.39	51.58	-29.8	-30.8	14.3	5.16e-04	0	42	0	672137216	20	4058
2026-01-10 01:14:50.56	291.38	51.46	-30.0	-31.4	13.6	7.01e-05	0	42	0	677380096	20	4247
2026-01-10 01:14:53.56	289.40	51.30	-29.3	-30.3	14.5	7.00e-07	0	42	0	682622976	19	4019
2026-01-10 01:14:56.56	287.44	51.10	-29.7	-31.1	14.1	1.06e-05	0	42	0	688914432	19	4256
2026-01-10 01:14:59.56	285.51	50.88	-29.6	-30.8	14.5	4.00e-04	0	42	0	694157312	19	4126
2026-01-10 01:15:02.57	283.60	50.62	-31.1	-33.0	11.6	1.96e-03	0	42	0	699400192	23	4488
2026-01-10 01:15:05.56	281.74	50.33	-30.8	-32.5	12.1	1.84e-03	0	42	0	705691648	22	4417
2026-01-10 01:15:08.57	279.91	50.00	-30.4	-32.0	13.2	2.38e-03	0	42	0	710934528	21	4313
2026-01-10 01:15:11.57	278.12	49.65	-30.5	-32.4	12.6	2.10e-03	0	42	0	717225984	21	4463
2026-01-10 01:15:14.56	276.38	49.28	-30.5	-32.5	12.5	1.44e-04	0	42	0	722468864	21	4512
2026-01-10 01:15:17.57	274.67	48.88	-31.4	-34.8	10.5	3.11e-03	0	42	0	727711744	22	5336
2026-01-10 01:15:20.56	273.02	48.46	-30.3	-32.2	13.0	5.37e-04	0	42	0	734003200	20	4494
2026-01-10 01:15:23.56	271.40	48.02	-30.4	-32.5	12.8	1.25e-03	0	42	0	739246080	20	4603
2026-01-10 01:15:26.57	269.83	47.55	-31.0	-33.5	11.5	2.59e-03	0	42	0	744488960	22	4791
2026-01-10 01:15:29.57	268.31	47.07	-30.5	-32.4	12.5	2.36e-03	0	42	0	750780416	21	4474
2026-01-10 01:15:32.59	266.83	46.57	-30.3	-31.8	12.9	4.51e-04	0	42	0	756023296	21	4292
2026-01-10 01:15:35.59	265.41	46.06	-30.6	-32.9	11.9	2.11e-04	0	42	0	762314752	21	4654
2026-01-10 01:15:38.60	264.02	45.54	-31.0	-33.3	11.4	9.06e-04	0	42	0	767557632	22	4725
2026-01-10 01:15:41.62	262.68	45.00	-31.3	-34.3	10.9	1.42e-03	0	42	0	772800512	22	5080
2026-01-10 01:15:44.60	261.40	44.46	-30.8	-32.5	12.2	1.97e-03	0	42	0	779091968	22	4410
2026-01-10 01:15:47.60	260.16	43.91	-29.6	-30.5	14.0	2.06e-03	0	42	0	784334848	20	3965
2026-01-10 01:15:50.61	258.95	43.35	-30.0	-31.4	13.3	2.27e-03	0	42	0	789577728	20	4264
2026-01-10 01:15:53.60	257.79	42.79	-29.7	-30.8	13.7	1.41e-03	0	42	0	795869184	20	4086
2026-01-10 01:15:56.59	256.68	42.22	-30.2	-32.2	12.8	3.96e-05	0	42	0	801112064	20	4530
2026-01-10 01:15:59.59	255.59	41.65	-31.3	-34.0	10.2	3.55e-03	0	42	0	806354944	23	4902
2026-01-10 01:16:02.60	254.55	41.08	-31.4	-34.4	10.4	6.96e-03	0	42	0	812646400	23	5053
2026-01-10 01:16:05.61	253.54	40.50	-31.0	-33.5	11.5	9.31e-04	0	42	0	817889280	22	4758
2026-01-10 01:16:08.60	252.57	39.93	-31.1	-33.8	11.1	2.85e-03	0	42	0	824180736	22	4908
2026-01-10 01:16:11.61	251.63	39.35	-31.5	-34.4	10.4	1.03e-02	0	42	0	829423616	23	5048
2026-01-10 01:16:14.60	250.73	38.78	-32.0	-35.5	9.3	2.08e-02	0	42	0	834666496	24	5419
2026-01-10 01:16:17.61	249.85	38.20	-32.9	-39.4	6.0	1.95e-01	0	42	0	840957952	25	7571
2026-01-10 01:16:20.60	249.01	37.64	-32.9	-39.3	6.1	3.10e-01	0	42	0	846200832	25	7513
2026-01-10 01:16:23.60	248.20	37.07	-33.1	-39.8	5.6	3.45e-01	0	42	0	851443712	26	7794
2026-01-10 01:16:26.60	247.41	36.50	-32.6	-37.6	7.3	1.27e-01	0	42	0	857735168	25	6363
2026-01-10 01:16:29.60	246.65	35.94	-32.4	-36.5	8.1	6.82e-02	0	42	0	862978048	25	5792
2026-01-10 01:16:32.60	245.92	35.39	-32.4	-36.6	8.2	1.11e-01	0	42	0	868220928	25	5809
2026-01-10 01:16:35.60	245.21	34.84	-32.8	-38.3	6.7	1.12e-01	0	42	0	874512384	25	6820
2026-01-10 01:16:38.60	244.52	34.29	-32.9	-38.1	6.6	3.37e-01	0	42	0	879755264	26	6569
2026-01-10 01:16:41.62	243.86	33.74	-32.8	-38.3	6.9	2.33e-01	0	42	0	886046720	25	6792
2026-01-10 01:16:44.61	243.22	33.21	-31.8	-35.3	9.8	1.22e-02	0	42	0	891289600	23	5358
2026-01-10 01:16:47.61	242.60	32.68	-30.8	-32.6	12.1	3.59e-04	0	42	0	896532480	22	4402
2026-01-10 01:16:50.61	242.00	32.15	-30.7	-32.8	12.3	1.02e-04	0	42	0	902823936	21	4581
2026-01-10 01:16:53.61	241.42	31.63	-32.3	-36.8	8.2	2.32e-02	0	42	0	908066816	24	6022
2026-01-10 01:16:56.62	240.86	31.12	-31.1	-33.0	11.3	5.29e-03	0	42	0	913309696	23	4492
2026-01-10 01:16:59.62	240.31	30.61	-29.9	-31.1	13.7	1.90e-05	0	42	0	919601152	20	4131
2026-01-10 01:17:02.64	239.78	30.10	-30.4	-32.4	12.8	2.89e-05	0	42	0	924844032	20	4558
2026-01-10 01:17:05.64	239.27	29.61	-31.5	-34.4	10.2	3.49e-03	0	42	0	931135488	23	5039
2026-01-10 01:17:08.64	238.77	29.12	-31.1	-33.2	11.1	1.83e-03	0	42	0	936378368	23	4563
2026-01-10 01:17:11.64	238.29	28.63	-30.4	-31.9	12.8	3.58e-05	0	42	0	941621248	21	4295
2026-01-10 01:17:14.63	237.83	28.16	-30.2	-31.4	13.0	4.34e-05	0	42	0	947912704	21	4153
2026-01-10 01:17:17.61	237.38	27.69	-30.0	-31.4	13.3	1.22e-05	0	42	0	953155584	20	4246
2026-01-10 01:17:20.61	236.94	27.22	-30.4	-32.1	12.5	6.86e-05	0	42	0	958398464	21	4377
2026-01-10 01:17:23.61	236.52	26.76	-29.6	-30.9	14.1	3.80e-06	0	42	0	964689920	19	4169
2026-01-10 01:17:26.59	236.10	26.31	-30.3	-32.4	12.8	3.66e-05	0	42	0	969932800	20	4565
2026-01-10 01:17:29.60	235.70	25.86	-31.4	-34.6	10.5	3.74e-03	0	42	0	975175680	22	5196
2026-01-10 01:17:32.61	235.31	25.42	-31.2	-34.0	10.8	3.11e-03	0	42	0	981467136	22	4983
2026-01-10 01:17:35.61	234.93	24.98	-30.9	-33.1	11.5	7.42e-04	0	42	0	986710016	22	4608
2026-01-10 01:17:38.60	234.56	24.55	-30.4	-32.0	12.5	1.99e-04	0	42	0	991952896	21	4343
2026-01-10 01:17:41.61	234.20	24.13	-30.2	-32.1	12.8	5.79e-05	0	42	0	998244352	20	4478
2026-01-10 01:17:44.62	233.85	23.70	-30.5	-32.9	12.3	6.94e-05	0	42	0	1003487232	20	4749
2026-01-10 01:17:47.63	233.51	23.29	-31.2	-34.1	10.6	3.11e-03	0	42	0	1009778688	22	5042
2026-01-10 01:17:50.64	233.18	22.88	-30.6	-32.8	11.5	5.42e-04	0	42	0	1015021568	22	4613
2026-01-10 01:17:53.63	232.85	22.48	-30.9	-33.5	11.1	3.10e-03	0	42	0	1020264448	21	4882
2026-01-10 01:17:56.63	232.54	22.08	-31.0	-33.9	10.7	2.00e-03	0	42	0	1026555904	21	5048
2026-01-10 01:17:59.65	232.23	21.69	-31.6	-35.1	9.0	1.07e-02	0	42	0	1031798784	23	5373
2026-01-10 01:18:02.66	231.93	21.30	-31.4	-34.9	9.6	5.04e-03	0	42	0	1038090240	22	5405
2026-01-10 01:18:05.66	231.64	20.91	-31.2	-34.1	10.6	2.19e-03	0	42	0	1043333120	22	5023
2026-01-10 01:18:08.66	231.36	20.54	-30.8	-33.3	11.4	9.92e-04	0	42	0	1048576000	21	4820
2026-01-10 01:18:11.67	231.08	20.16	-30.4	-32.8	12.2	1.15e-04	0	42	0	1054867456	20	4719
2026-01-10 01:18:14.67	230.81	19.80	-30.5	-32.6	12.0	1.01e-04	0	42	0	1060110336	21	4583
2026-01-10 01:18:17.69	230.55	19.43	-30.2	-32.0	12.7	9.23e-05	0	42	0	1065353216	20	4475
2026-01-10 01:18:20.70	230.29	19.07	-30.0	-31.7	12.9	2.37e-03	0	42	0	1071644672	20	4353
2026-01-10 01:18:23.71	230.04	18.72	-30.1	-31.9	12.7	2.16e-03	0	42	0	1076887552	20	4431
2026-01-10 01:18:26.72	229.79	18.37	-30.2	-32.2	12.4	5.18e-05	0	42	0	1083179008	20	4546
2026-01-10 01:18:29.72	229.55	18.02	-30.6	-32.8	11.8	3.71e-04	0	42	0	1088421888	21	4648
2026-01-10 01:18:32.73	229.32	17.68	-31.0	-34.0	10.9	1.47e-03	0	42	0	1093664768	21	5129
2026-01-10 01:18:35.74	229.09	17.34	-30.9	-33.5	10.9	2.22e-03	0	42	0	1099956224	22	4810
2026-01-10 01:18:38.75	228.87	17.01	-30.3	-32.5	12.3	2.60e-03	0	42	0	1105199104	20	4623
2026-01-10 01:18:41.75	228.65	16.68	-30.4	-32.9	12.0	2.50e-03	0	42	0	1110441984	20	4774
2026-01-10 01:18:44.75	228.44	16.35	-29.8	-31.6	13.3	2.54e-03	0	42	0	1116733440	19	4415
2026-01-10 01:18:47.76	228.23	16.03	-29.9	-31.4	13.1	2.58e-03	0	42	0	1121976320	20	4292
2026-01-10 01:18:50.76	228.02	15.72	-30.6	-33.0	11.5	2.99e-03	0	42	0	1128267776	21	4758
2026-01-10 01:18:53.78	227.82	15.40	-31.5	-35.1	9.3	3.29e-03	0	42	0	1133510656	23	5417
2026-01-10 01:18:56.80	227.63	15.09	-31.8	-35.9	8.1	7.89e-02	0	42	0	1138753536	24	5760
2026-01-10 01:18:59.80	227.44	14.78	-32.1	-37.0	7.3	5.84e-02	0	42	0	1145044992	24	6349
2026-01-10 01:19:02.81	227.25	14.48	-31.8	-36.1	8.3	1.05e-02	0	42	0	1150287872	23	5912
2026-01-10 01:19:05.82	227.07	14.18	-31.4	-35.2	9.4	1.63e-02	0	42	0	1155530752	22	5590
2026-01-10 01:19:08.82	226.89	13.88	-31.7	-36.0	8.5	6.61e-02	0	42	0	1161822208	23	5910
2026-01-10 01:19:11.83	226.71	13.59	-31.5	-35.2	9.1	2.90e-02	0	42	0	1167065088	23	5522
2026-01-10 01:19:14.84	226.54	13.30	-31.3	-34.9	9.5	1.78e-02	0	42	0	1173356544	22	5438
2026-01-10 01:19:17.85	226.37	13.01	-32.0	-36.6	7.4	6.88e-02	0	42	0	1178599424	24	6174
2026-01-10 01:19:20.86	226.20	12.73	-31.5	-35.5	8.7	1.20e-01	0	42	0	1183842304	23	5646
2026-01-10 01:19:23.86	226.04	12.45	-32.1	-37.3	6.8	7.43e-02	0	42	0	1190133760	24	6622
2026-01-10 01:19:26.86	225.88	12.17	-31.6	-35.2	8.4	1.99e-01	0	42	0	1195376640	24	5477
2026-01-10 01:19:29.86	225.73	11.90	-31.9	-36.7	7.2	1.08e-01	0	42	0	1200619520	24	6258
2026-01-10 01:19:32.86	225.58	11.63	-32.4	-39.1	5.2	6.83e-01	0	42	0	1206910976	25	7833
2026-01-10 01:19:35.86	225.43	11.36	-32.3	-39.3	5.3	5.52e-01	0	42	0	1212153856	24	8080
2026-01-10 01:19:38.87	225.28	11.09	-32.1	-37.9	6.3	3.44e-01	0	42	0	1218445312	24	7003
2026-01-10 01:19:41.87	225.13	10.83	-31.9	-36.8	6.9	4.16e-01	0	42	0	1223688192	24	6343
2026-01-10 01:19:44.86	224.99	10.57	-31.9	-37.2	7.1	1.89e-01	0	42	0	1228931072	23	6670
2026-01-10 01:19:47.86	224.86	10.31	-31.8	-36.4	7.4	1.16e-01	0	42	0	1235222528	24	6128
2026-01-10 01:19:50.86	224.72	10.06	-31.5	-35.8	8.0	1.42e-01	0	42	0	1240465408	23	5899
2026-01-10 01:19:53.88	224.58	9.80	-31.9	-37.6	6.7	1.65e-01	0	42	0	1245708288	23	6932
2026-01-10 01:19:56.89	224.45	9.55	-31.8	-37.0	7.3	8.16e-02	0	42	0	1251999744	23	6540
2026-01-10 01:19:59.90	224.32	9.30	-32.3	-40.2	4.9	4.76e-01	0	42	0	1257242624	24	8879
2026-01-10 01:20:02.91	224.20	9.06	-31.8	-37.2	7.0	1.65e-01	0	42	0	1263534080	23	6727
2026-01-10 01:20:05.92	224.07	8.81	-32.2	-39.2	5.4	4.87e-01	0	42	0	1268776960	24	8070
2026-01-10 01:20:08.93	223.95	8.57	-32.2	-39.2	5.2	7.41e-01	0	42	0	1274019840	24	8111
2026-01-10 01:20:11.93	223.83	8.33	-32.0	-38.2	5.7	5.06e-01	0	42	0	1280311296	24	7348
2026-01-10 01:20:14.93	223.71	8.09	-31.7	-36.8	7.1	1.59e-01	0	42	0	1285554176	23	6508
2026-01-10 01:20:17.94	223.60	7.86	-31.1	-34.9	8.9	3.50e-02	0	42	0	1290797056	22	5592
2026-01-10 01:20:20.94	223.48	7.62	-31.1	-34.8	9.0	3.20e-02	0	42	0	1297088512	22	5526
2026-01-10 01:20:23.94	223.37	7.39	-31.1	-34.8	8.9	2.84e-02	0	42	0	1302331392	22	5543
2026-01-10 01:20:26.94	223.26	7.16	-31.1	-35.2	8.6	3.28e-02	0	42	0	1308622848	22	5742
2026-01-10 01:20:29.93	223.15	6.94	-33.1	-45.4	3.8	1.49e+00	0	42	104	1310720000	26	14851

#Closed at: 2026-01-10 01:20:30
#Recorded file [1310 MB]: D:/data/31010_260110_040848.dat