passes_logs/2026/01/10/R2M6_AANII_01/R2M6_AANII_01__20260110_005101_AQUA_rec.log

#Pass ID: 20260110_005101_AQUA
#Satellite: AQUA
#Configuration: AQUA
#almurnet v.1.7.20240730
#Start time: 2026-01-10 00:51:15

#Version: 2.2.20231116
#Station: R2M6_AANII_01
#Location: 30.233357 lon 59.946436 lat
#TLE: 1 27424U 02022A   26009.00333547  .00001046  00000+0  21942-3 0  9998
#TLE: 2 27424  98.4075 335.3304 0002025  85.7625 349.1392 14.61808998260011

#Time	Az	El	Level	Level2	SNR	BER	BlckErr	Temp	State	Recorded	gain1	gain2
2026-01-10 00:51:15.65	29.19	8.04	-33.5	-45.8	3.8	1.49e+00	0	42	0	0	26	14897
2026-01-10 00:51:18.63	29.46	8.26	-34.5	-54.0	3.8	7.45e-01	0	42	104	0	29	34139
2026-01-10 00:51:21.61	29.74	8.49	-34.5	-54.0	3.8	7.43e-01	0	42	104	0	29	34079
2026-01-10 00:51:24.60	30.02	8.72	-34.4	-54.0	3.8	7.42e-01	0	42	104	0	29	34057
2026-01-10 00:51:27.58	30.31	8.94	-34.4	-53.9	3.8	7.43e-01	0	42	104	0	29	33894
2026-01-10 00:51:30.56	30.60	9.17	-34.5	-54.0	3.8	7.43e-01	0	42	104	0	29	34142
2026-01-10 00:51:33.55	30.90	9.41	-34.5	-54.0	3.8	7.41e-01	0	42	104	0	29	34122
2026-01-10 00:51:36.54	31.21	9.64	-34.4	-53.9	3.8	7.45e-01	0	42	104	0	29	33934
2026-01-10 00:51:39.54	31.52	9.88	-34.4	-53.9	3.8	7.45e-01	0	42	104	0	29	33863
2026-01-10 00:51:42.52	31.83	10.12	-34.5	-54.0	3.8	7.46e-01	0	42	104	0	29	34199
2026-01-10 00:51:45.53	32.15	10.36	-34.3	-53.7	3.8	7.46e-01	0	42	104	0	29	33559
2026-01-10 00:51:48.52	32.47	10.60	-34.0	-53.5	3.8	7.45e-01	0	42	104	0	28	33960
2026-01-10 00:51:51.50	32.80	10.84	-33.5	-50.4	3.8	7.41e-01	0	42	104	0	28	25204
2026-01-10 00:51:54.48	33.14	11.09	-33.5	-50.5	3.9	7.44e-01	0	42	104	0	28	25302
2026-01-10 00:51:57.47	33.48	11.34	-33.5	-49.2	4.3	7.36e-01	0	42	104	0	28	21991
2026-01-10 00:52:00.47	33.83	11.59	-32.6	-39.3	11.9	6.10e-01	0	42	0	1572864	27	7790
2026-01-10 00:52:03.45	34.18	11.84	-31.0	-34.6	16.6	6.03e-01	0	42	0	6815744	24	5427
2026-01-10 00:52:06.43	34.54	12.09	-30.4	-33.8	17.9	6.02e-01	0	42	0	12582912	22	5294
2026-01-10 00:52:09.42	34.91	12.35	-31.5	-36.5	15.7	6.03e-01	0	42	0	18350080	23	6471
2026-01-10 00:52:12.40	35.28	12.60	-31.5	-36.3	15.5	6.02e-01	0	42	0	23592960	24	6226
2026-01-10 00:52:15.39	35.66	12.86	-31.8	-37.3	14.8	6.03e-01	0	42	0	29360128	24	6800
2026-01-10 00:52:18.37	36.05	13.13	-31.5	-36.3	15.6	6.04e-01	0	42	0	35127296	24	6196
2026-01-10 00:52:21.36	36.44	13.39	-31.7	-36.8	15.3	6.03e-01	0	42	0	40370176	24	6463
2026-01-10 00:52:24.33	36.84	13.65	-31.2	-35.2	16.3	6.04e-01	0	42	0	46137344	24	5665
2026-01-10 00:52:27.32	37.25	13.92	-31.5	-36.8	15.6	6.04e-01	0	42	0	51904512	23	6563
2026-01-10 00:52:30.32	37.67	14.19	-31.3	-35.5	16.2	6.03e-01	0	42	0	57147392	24	5804
2026-01-10 00:52:33.30	38.09	14.46	-31.5	-35.8	16.5	6.03e-01	0	42	0	62914560	24	5956
2026-01-10 00:52:36.28	38.52	14.74	-31.9	-37.7	14.6	6.04e-01	0	42	0	68681728	24	6972
2026-01-10 00:52:39.27	38.97	15.01	-31.8	-36.5	15.1	6.04e-01	0	42	0	73924608	25	6211
2026-01-10 00:52:42.25	39.42	15.29	-30.8	-34.7	17.6	6.04e-01	0	42	0	79691776	22	5644
2026-01-10 00:52:45.24	39.87	15.57	-31.4	-36.2	16.1	6.02e-01	0	42	0	85458944	23	6249
2026-01-10 00:52:48.24	40.34	15.85	-30.9	-34.5	17.3	6.04e-01	0	42	0	90701824	23	5443
2026-01-10 00:52:51.24	40.82	16.14	-31.1	-34.9	16.9	6.05e-01	0	42	0	96468992	23	5635
2026-01-10 00:52:54.24	41.31	16.43	-30.8	-34.2	17.5	6.03e-01	0	42	0	102236160	23	5336
2026-01-10 00:52:57.23	41.81	16.71	-29.8	-32.5	19.2	6.00e-01	0	42	0	107479040	21	4907
2026-01-10 00:53:00.19	42.31	17.00	-30.0	-32.8	19.0	6.02e-01	0	42	0	113246208	21	4997
2026-01-10 00:53:03.20	42.83	17.29	-29.2	-31.3	20.3	6.02e-01	0	42	0	119013376	20	4607
2026-01-10 00:53:06.19	43.36	17.59	-29.8	-32.9	19.3	6.03e-01	0	42	0	124780544	20	5158
2026-01-10 00:53:09.17	43.89	17.88	-29.6	-32.3	19.7	6.05e-01	0	42	0	130023424	20	4938
2026-01-10 00:53:12.16	44.44	18.18	-29.2	-31.4	20.2	6.03e-01	0	42	0	135790592	20	4635
2026-01-10 00:53:15.15	45.00	18.47	-29.4	-31.8	20.1	6.03e-01	0	42	0	141557760	20	4735
2026-01-10 00:53:18.14	45.57	18.77	-29.4	-31.9	20.1	6.02e-01	0	42	0	146800640	20	4769
2026-01-10 00:53:21.11	46.15	19.07	-29.3	-32.0	20.3	6.03e-01	0	42	0	152567808	19	4922
2026-01-10 00:53:24.12	46.75	19.38	-29.3	-32.1	20.3	6.04e-01	0	42	0	158334976	19	4966
2026-01-10 00:53:27.10	47.36	19.68	-29.4	-32.4	20.1	6.05e-01	0	42	0	163577856	19	5050
2026-01-10 00:53:30.07	47.98	19.98	-29.6	-32.7	19.9	6.04e-01	0	42	0	169345024	19	5170
2026-01-10 00:53:33.07	48.61	20.29	-29.5	-32.5	20.0	6.03e-01	0	42	0	175112192	19	5095
2026-01-10 00:53:36.07	49.26	20.59	-29.6	-32.3	19.8	6.02e-01	0	42	0	180355072	20	4914
2026-01-10 00:53:39.07	49.92	20.90	-29.6	-32.2	19.9	6.01e-01	0	42	0	186122240	20	4877
2026-01-10 00:53:42.05	50.59	21.20	-29.9	-32.6	19.7	6.02e-01	0	42	0	191889408	21	4895
2026-01-10 00:53:45.03	51.28	21.51	-29.3	-31.4	20.4	6.00e-01	0	42	0	197132288	20	4612
2026-01-10 00:53:48.02	51.98	21.82	-29.4	-31.8	20.0	6.02e-01	0	42	0	202899456	20	4733
2026-01-10 00:53:51.00	52.69	22.12	-29.4	-32.2	20.2	6.03e-01	0	42	0	208666624	19	4981
2026-01-10 00:53:54.00	53.42	22.43	-29.5	-32.5	20.2	6.03e-01	0	42	0	213909504	19	5070
2026-01-10 00:53:56.98	54.17	22.73	-29.5	-31.9	20.1	6.03e-01	0	42	0	219676672	20	4782
2026-01-10 00:53:59.97	54.93	23.04	-29.5	-32.1	20.0	6.03e-01	0	42	0	225443840	20	4832
2026-01-10 00:54:02.94	55.70	23.34	-29.6	-32.4	19.9	6.02e-01	0	42	0	230686720	20	4924
2026-01-10 00:54:05.92	56.49	23.64	-29.5	-32.1	20.0	6.02e-01	0	42	0	236453888	20	4820
2026-01-10 00:54:08.91	57.29	23.94	-29.7	-32.5	19.8	6.02e-01	0	42	0	242221056	20	4972
2026-01-10 00:54:11.90	58.12	24.24	-29.8	-32.2	19.7	6.04e-01	0	42	0	247463936	21	4769
2026-01-10 00:54:14.88	58.95	24.54	-29.5	-31.4	19.9	6.05e-01	0	42	0	253231104	21	4501
2026-01-10 00:54:17.87	59.81	24.83	-30.3	-33.5	19.1	6.04e-01	0	42	0	258998272	21	5208
2026-01-10 00:54:20.84	60.68	25.12	-29.7	-32.1	20.0	6.04e-01	0	42	0	264241152	21	4720
2026-01-10 00:54:23.82	61.56	25.40	-30.3	-33.5	19.1	6.05e-01	0	42	0	270008320	21	5209
2026-01-10 00:54:26.82	62.47	25.69	-29.2	-31.3	20.6	6.03e-01	0	42	0	275775488	20	4566
2026-01-10 00:54:29.83	63.40	25.97	-29.5	-31.8	20.3	6.05e-01	0	42	0	281542656	20	4740
2026-01-10 00:54:32.83	64.34	26.25	-29.4	-31.7	20.3	6.02e-01	0	42	0	286785536	20	4703
2026-01-10 00:54:35.84	65.30	26.52	-29.6	-32.3	20.1	6.03e-01	0	42	0	292552704	20	4914
2026-01-10 00:54:38.83	66.28	26.78	-29.6	-32.2	20.1	6.05e-01	0	42	0	298319872	20	4856
2026-01-10 00:54:41.84	67.27	27.04	-29.6	-32.2	20.1	6.02e-01	0	42	0	304087040	20	4857
2026-01-10 00:54:44.85	68.28	27.30	-29.6	-31.7	20.1	6.03e-01	0	42	0	309329920	21	4586
2026-01-10 00:54:47.85	69.31	27.54	-30.0	-32.8	19.4	6.03e-01	0	42	0	315097088	21	4940
2026-01-10 00:54:50.87	70.36	27.78	-30.2	-33.3	19.1	6.05e-01	0	42	0	320864256	21	5123
2026-01-10 00:54:53.86	71.41	28.02	-30.4	-33.9	18.7	6.04e-01	0	42	0	326631424	21	5356
2026-01-10 00:54:56.87	72.49	28.24	-30.0	-32.7	19.5	6.03e-01	0	42	0	331874304	21	4928
2026-01-10 00:54:59.88	73.58	28.45	-29.8	-32.1	19.8	6.03e-01	0	42	0	337641472	21	4733
2026-01-10 00:55:02.89	74.69	28.66	-29.4	-31.3	20.3	6.04e-01	0	42	0	343408640	21	4459
2026-01-10 00:55:05.90	75.81	28.86	-29.6	-31.7	20.1	6.03e-01	0	42	0	349175808	21	4582
2026-01-10 00:55:08.90	76.94	29.04	-29.4	-31.6	20.4	6.05e-01	0	42	0	354418688	20	4674
2026-01-10 00:55:11.91	78.09	29.22	-29.3	-31.5	20.4	6.03e-01	0	42	0	360185856	20	4640
2026-01-10 00:55:14.92	79.25	29.38	-29.2	-31.3	20.6	6.03e-01	0	42	0	365953024	20	4573
2026-01-10 00:55:17.93	80.42	29.54	-29.4	-31.3	20.3	6.04e-01	0	42	0	371720192	21	4475
2026-01-10 00:55:20.93	81.60	29.68	-29.6	-32.2	20.2	6.02e-01	0	42	0	376963072	20	4849
2026-01-10 00:55:23.93	82.79	29.81	-29.9	-33.1	19.4	6.03e-01	0	42	0	382730240	20	5184
2026-01-10 00:55:26.94	83.99	29.92	-29.7	-32.6	19.9	6.02e-01	0	42	0	388497408	20	4989
2026-01-10 00:55:29.95	85.20	30.03	-30.0	-32.7	19.4	6.03e-01	0	42	0	394264576	21	4912
2026-01-10 00:55:32.96	86.42	30.12	-30.4	-33.8	18.8	6.02e-01	0	42	0	400031744	21	5318
2026-01-10 00:55:35.97	87.65	30.19	-29.7	-32.0	19.9	6.04e-01	0	42	0	405274624	21	4682
2026-01-10 00:55:38.97	88.88	30.26	-30.7	-34.0	18.3	6.03e-01	0	42	0	411041792	22	5304
2026-01-10 00:55:41.97	90.11	30.31	-30.0	-32.8	19.5	6.03e-01	0	42	0	416808960	21	4944
2026-01-10 00:55:44.97	91.34	30.34	-29.4	-31.8	20.3	6.04e-01	0	42	0	422051840	20	4740
2026-01-10 00:55:47.97	92.58	30.36	-29.2	-31.7	20.7	6.04e-01	0	42	0	427819008	19	4820
2026-01-10 00:55:50.98	93.82	30.37	-29.5	-32.5	20.3	6.03e-01	0	42	0	433586176	19	5069
2026-01-10 00:55:53.98	95.06	30.36	-29.0	-31.2	21.0	6.03e-01	0	42	0	439353344	19	4646
2026-01-10 00:55:56.98	96.30	30.34	-29.0	-31.1	21.0	6.03e-01	0	42	0	444596224	19	4626
2026-01-10 00:56:00.00	97.54	30.31	-29.1	-31.4	20.9	6.03e-01	0	42	0	450363392	19	4713
2026-01-10 00:56:03.00	98.78	30.26	-29.9	-33.0	19.7	6.04e-01	0	42	0	456130560	20	5142
2026-01-10 00:56:06.01	100.01	30.20	-29.3	-31.8	20.7	6.03e-01	0	42	0	461897728	19	4846
2026-01-10 00:56:09.02	101.24	30.12	-28.9	-31.0	21.1	6.02e-01	0	42	0	467140608	19	4572
2026-01-10 00:56:12.02	102.45	30.03	-29.0	-31.3	21.0	6.04e-01	0	42	0	472907776	19	4658
2026-01-10 00:56:15.03	103.67	29.93	-28.9	-30.9	21.2	6.04e-01	0	42	0	478674944	19	4539
2026-01-10 00:56:18.04	104.87	29.81	-29.0	-31.2	21.0	6.02e-01	0	42	0	484442112	19	4644
2026-01-10 00:56:21.04	106.07	29.68	-29.1	-31.4	20.9	6.02e-01	0	42	0	489684992	19	4697
2026-01-10 00:56:24.05	107.25	29.54	-29.0	-31.3	20.8	6.03e-01	0	42	0	495452160	19	4679
2026-01-10 00:56:27.06	108.43	29.39	-29.1	-31.4	20.8	6.02e-01	0	42	0	501219328	19	4722
2026-01-10 00:56:30.06	109.59	29.22	-29.1	-31.5	20.8	6.03e-01	0	42	0	506986496	19	4738
2026-01-10 00:56:33.07	110.74	29.05	-29.3	-32.0	20.5	6.04e-01	0	42	0	512229376	19	4901
2026-01-10 00:56:36.07	111.87	28.86	-28.9	-31.0	21.0	6.03e-01	0	42	0	517996544	19	4586
2026-01-10 00:56:39.07	112.99	28.66	-30.3	-33.6	18.9	6.04e-01	0	42	0	523763712	21	5256
2026-01-10 00:56:42.08	114.10	28.46	-29.8	-32.2	19.7	6.05e-01	0	42	0	529530880	21	4774
2026-01-10 00:56:45.08	115.20	28.24	-29.9	-32.6	19.5	6.03e-01	0	42	0	534773760	21	4888
2026-01-10 00:56:48.08	116.27	28.02	-29.7	-32.0	19.7	6.04e-01	0	42	0	540540928	21	4701
2026-01-10 00:56:51.09	117.34	27.79	-29.3	-32.1	20.3	6.02e-01	0	42	0	546308096	19	4938
2026-01-10 00:56:54.08	118.38	27.55	-29.4	-32.2	20.3	6.06e-01	0	42	0	552075264	19	4985
2026-01-10 00:56:57.09	119.41	27.30	-29.2	-31.4	20.4	6.02e-01	0	42	0	557318144	20	4612
2026-01-10 00:57:00.09	120.43	27.04	-29.3	-32.1	20.3	6.02e-01	0	42	0	563085312	19	4932
2026-01-10 00:57:03.10	121.43	26.78	-29.3	-32.1	20.4	6.03e-01	0	42	0	568852480	19	4928
2026-01-10 00:57:06.10	122.41	26.52	-29.3	-32.0	20.4	6.02e-01	0	42	0	574619648	19	4922
2026-01-10 00:57:09.10	123.37	26.24	-29.5	-32.5	20.0	6.03e-01	0	42	0	579862528	19	5069
2026-01-10 00:57:12.10	124.31	25.97	-29.4	-31.8	20.1	6.03e-01	0	42	0	585629696	20	4740
2026-01-10 00:57:15.11	125.25	25.68	-29.5	-32.0	20.1	6.04e-01	0	42	0	591396864	20	4809
2026-01-10 00:57:18.10	126.16	25.40	-29.4	-31.8	20.1	6.03e-01	0	42	0	596639744	20	4737
2026-01-10 00:57:21.10	127.05	25.11	-29.9	-33.0	19.4	6.03e-01	0	42	0	602406912	20	5162
2026-01-10 00:57:24.10	127.93	24.82	-29.8	-32.7	19.6	6.02e-01	0	42	0	608174080	20	5064
2026-01-10 00:57:27.09	128.79	24.52	-30.7	-34.2	18.0	6.01e-01	0	42	0	613941248	22	5415
2026-01-10 00:57:30.10	129.64	24.22	-29.8	-32.3	19.5	6.03e-01	0	42	0	619184128	21	4810
2026-01-10 00:57:33.10	130.47	23.92	-29.6	-32.4	19.7	6.03e-01	0	42	0	624951296	20	4966
2026-01-10 00:57:36.10	131.28	23.61	-29.7	-32.5	19.6	6.02e-01	0	42	0	630718464	20	5003
2026-01-10 00:57:39.10	132.08	23.31	-29.5	-32.1	19.8	6.03e-01	0	42	0	636485632	20	4868
2026-01-10 00:57:42.11	132.86	23.00	-29.4	-31.8	20.0	6.02e-01	0	42	0	641728512	20	4747
2026-01-10 00:57:45.11	133.63	22.69	-29.6	-32.4	19.6	6.02e-01	0	42	0	647495680	20	4981
2026-01-10 00:57:48.13	134.39	22.38	-30.1	-33.6	18.8	6.03e-01	0	42	0	653262848	20	5413
2026-01-10 00:57:51.13	135.12	22.07	-29.3	-31.7	20.0	6.04e-01	0	42	0	659030016	20	4733
2026-01-10 00:57:54.13	135.84	21.76	-29.3	-31.6	20.1	6.02e-01	0	42	0	664272896	20	4716
2026-01-10 00:57:57.14	136.55	21.45	-29.4	-32.0	19.7	6.04e-01	0	42	0	670040064	20	4849
2026-01-10 00:58:00.16	137.25	21.14	-29.5	-32.8	19.6	6.03e-01	0	42	0	675807232	19	5233
2026-01-10 00:58:03.15	137.92	20.83	-29.5	-32.6	19.8	6.03e-01	0	42	0	681050112	19	5151
2026-01-10 00:58:06.15	138.58	20.52	-29.5	-32.8	19.6	6.04e-01	0	42	0	686817280	19	5237
2026-01-10 00:58:09.15	139.23	20.21	-29.3	-31.7	19.9	6.05e-01	0	42	0	692584448	20	4759
2026-01-10 00:58:12.15	139.87	19.90	-29.5	-32.4	19.4	6.01e-01	0	42	0	698351616	20	4982
2026-01-10 00:58:15.15	140.49	19.60	-29.5	-32.4	19.4	6.03e-01	0	42	0	703594496	20	4982
2026-01-10 00:58:18.15	141.10	19.29	-29.4	-32.6	19.7	6.05e-01	0	42	0	709361664	19	5164
2026-01-10 00:58:21.17	141.71	18.98	-29.4	-32.5	19.7	6.03e-01	0	42	0	715128832	19	5138
2026-01-10 00:58:24.18	142.29	18.68	-29.3	-32.3	19.8	6.04e-01	0	42	0	720896000	19	5064
2026-01-10 00:58:27.18	142.87	18.38	-29.4	-32.4	19.6	6.03e-01	0	42	0	726138880	19	5104
2026-01-10 00:58:30.19	143.43	18.08	-29.3	-32.4	19.6	6.04e-01	0	42	0	731906048	19	5102
2026-01-10 00:58:33.20	143.99	17.78	-29.5	-32.7	19.4	6.02e-01	0	42	0	737673216	19	5217
2026-01-10 00:58:36.21	144.53	17.48	-29.4	-32.6	19.4	6.03e-01	0	42	0	743440384	19	5197
2026-01-10 00:58:39.21	145.06	17.18	-29.5	-32.9	19.3	6.04e-01	0	42	0	749207552	19	5308
2026-01-10 00:58:42.21	145.57	16.89	-29.7	-32.9	18.9	6.04e-01	0	42	0	754450432	20	5210
2026-01-10 00:58:45.22	146.08	16.59	-29.5	-32.4	19.2	6.03e-01	0	42	0	760217600	20	5020
2026-01-10 00:58:48.22	146.58	16.30	-29.3	-32.5	19.4	6.03e-01	0	42	0	765984768	19	5161
2026-01-10 00:58:51.23	147.07	16.01	-29.3	-32.4	19.5	6.04e-01	0	42	0	771227648	19	5133
2026-01-10 00:58:54.22	147.55	15.73	-29.4	-32.7	19.3	6.03e-01	0	42	0	776994816	19	5271
2026-01-10 00:58:57.23	148.02	15.44	-29.6	-32.8	18.8	6.02e-01	0	42	0	782761984	20	5184
2026-01-10 00:59:00.24	148.48	15.16	-29.7	-32.9	18.7	6.04e-01	0	42	0	788529152	20	5244
2026-01-10 00:59:03.25	148.93	14.87	-29.4	-32.6	19.4	6.03e-01	0	42	0	794296320	19	5190
2026-01-10 00:59:06.26	149.38	14.59	-29.4	-32.1	19.2	6.03e-01	0	42	0	799539200	20	4925
2026-01-10 00:59:09.27	149.81	14.32	-29.4	-32.6	19.2	6.02e-01	0	42	0	805306368	19	5236
2026-01-10 00:59:12.29	150.24	14.04	-29.4	-32.6	19.2	6.05e-01	0	42	0	811073536	19	5242
2026-01-10 00:59:15.30	150.66	13.77	-29.7	-33.2	18.4	6.04e-01	0	42	0	816840704	20	5358
2026-01-10 00:59:18.30	151.07	13.50	-29.9	-33.8	17.9	6.05e-01	0	42	0	822083584	20	5641
2026-01-10 00:59:21.30	151.47	13.23	-29.9	-33.7	18.0	6.04e-01	0	42	0	827850752	20	5568
2026-01-10 00:59:24.29	151.87	12.96	-29.6	-32.9	18.6	6.03e-01	0	42	0	833617920	20	5245
2026-01-10 00:59:27.29	152.25	12.70	-29.5	-32.6	18.7	6.02e-01	0	42	0	838860800	20	5136
2026-01-10 00:59:30.30	152.63	12.43	-29.4	-32.5	18.8	6.03e-01	0	42	0	844627968	20	5093
2026-01-10 00:59:33.30	153.01	12.17	-29.4	-32.9	18.9	6.04e-01	0	42	0	850395136	19	5359
2026-01-10 00:59:36.30	153.37	11.92	-29.5	-33.1	18.7	6.05e-01	0	42	0	856162304	19	5467
2026-01-10 00:59:39.30	153.73	11.66	-29.8	-33.3	18.2	6.03e-01	0	42	0	861929472	20	5445
2026-01-10 00:59:42.31	154.09	11.41	-30.0	-34.0	17.7	6.03e-01	0	42	0	867172352	20	5737
2026-01-10 00:59:45.32	154.44	11.15	-29.9	-33.7	18.0	6.05e-01	0	42	0	872939520	20	5574
2026-01-10 00:59:48.33	154.78	10.90	-30.0	-34.1	17.7	6.02e-01	0	42	0	878706688	20	5745
2026-01-10 00:59:51.33	155.11	10.65	-30.3	-33.9	17.1	6.05e-01	0	42	0	883949568	22	5461
2026-01-10 00:59:54.33	155.44	10.41	-29.8	-33.5	18.1	6.02e-01	0	42	0	889716736	20	5499
2026-01-10 00:59:57.33	155.76	10.16	-29.8	-33.5	18.1	6.02e-01	0	42	0	895483904	20	5528
2026-01-10 01:00:00.32	156.08	9.92	-30.0	-33.5	17.8	6.03e-01	0	42	0	901251072	21	5390
2026-01-10 01:00:03.32	156.39	9.68	-31.1	-35.8	16.9	6.04e-01	0	42	0	906493952	22	6164
2026-01-10 01:00:06.32	156.70	9.44	-31.1	-35.8	15.6	6.02e-01	0	42	0	912261120	23	6190
2026-01-10 01:00:09.32	157.00	9.21	-31.5	-36.9	13.7	6.04e-01	0	42	0	918028288	24	6720
2026-01-10 01:00:12.32	157.30	8.97	-31.6	-37.6	14.0	6.05e-01	0	42	0	923795456	24	7187
2026-01-10 01:00:15.33	157.59	8.74	-31.4	-36.7	14.4	6.04e-01	0	42	0	929038336	24	6614
2026-01-10 01:00:18.35	157.88	8.51	-30.4	-33.7	16.8	6.03e-01	0	42	0	934805504	23	5275
2026-01-10 01:00:21.35	158.16	8.28	-30.2	-34.1	17.3	6.03e-01	0	42	0	940572672	21	5643
2026-01-10 01:00:24.35	158.44	8.05	-30.2	-34.1	17.2	6.04e-01	0	42	0	946339840	21	5675
2026-01-10 01:00:27.34	158.71	7.82	-30.2	-34.2	17.2	6.02e-01	0	42	0	951582720	21	5728
2026-01-10 01:00:30.36	158.98	7.60	-30.1	-33.8	17.3	6.03e-01	0	42	0	957349888	21	5551
2026-01-10 01:00:33.36	159.25	7.38	-30.0	-34.4	17.2	6.04e-01	0	42	0	963117056	20	5945
2026-01-10 01:00:36.37	159.51	7.16	-30.4	-35.0	16.3	6.03e-01	0	42	0	968884224	21	6164

#Closed at: 2026-01-10 01:00:38
#Recorded file [970 MB]: D:/data/31010_260110_035159.dat