passes_logs/2026/01/10/R2M6_AANII_01/R2M6_AANII_01__20260110_110141_SUOMI_NPP_rec.log

#Pass ID: 20260110_110141_SUOMI NPP
#Satellite: SUOMI NPP
#Configuration: NPP
#almurnet v.1.7.20240730
#Start time: 2026-01-10 11:01:43

#Version: 2.2.20231116
#Station: R2M6_AANII_01
#Location: 30.233357 lon 59.946436 lat
#TLE: 1 37849U 11061A   26008.83076692  .00000095  00000+0  66074-4 0  9997
#TLE: 2 37849  98.7806 310.9327 0002533  74.3004 285.8451 14.19523607735834

#Time	Az	El	Level	Level2	SNR	BER	BlckErr	Temp	State	Recorded	gain1	gain2
2026-01-10 11:01:43.76	180.24	7.14	-31.1	-35.8	5.0	1.29e+00	0	39	0	0	22	6164
2026-01-10 11:01:46.77	180.37	7.37	-31.0	-34.7	8.2	5.80e-02	0	39	0	1048576	23	5488
2026-01-10 11:01:49.79	180.49	7.60	-30.3	-32.5	10.4	8.68e-03	0	40	0	7340032	22	4626
2026-01-10 11:01:52.82	180.62	7.83	-30.1	-32.3	10.9	2.72e-03	0	40	0	12582912	21	4618
2026-01-10 11:01:55.84	180.75	8.07	-30.0	-31.9	11.2	1.39e-03	0	40	0	18874368	21	4486
2026-01-10 11:01:58.85	180.88	8.30	-29.8	-31.2	11.8	5.41e-04	0	40	0	24117248	21	4238
2026-01-10 11:02:01.87	181.01	8.54	-29.8	-31.7	11.9	3.23e-04	0	40	0	29360128	20	4478
2026-01-10 11:02:04.88	181.15	8.78	-29.7	-31.5	12.0	2.64e-04	0	40	0	35651584	20	4394
2026-01-10 11:02:07.91	181.29	9.03	-29.7	-31.4	12.1	2.62e-04	0	40	0	40894464	20	4353
2026-01-10 11:02:10.92	181.43	9.27	-29.7	-31.4	12.1	3.10e-04	0	40	0	47185920	20	4378
2026-01-10 11:02:13.93	181.57	9.52	-29.8	-31.5	12.1	2.30e-04	0	40	0	52428800	20	4398
2026-01-10 11:02:16.94	181.71	9.77	-29.8	-31.5	12.1	2.78e-04	0	40	0	57671680	20	4390
2026-01-10 11:02:19.96	181.86	10.02	-29.8	-31.7	12.0	1.88e-04	0	40	0	63963136	20	4450
2026-01-10 11:02:22.98	182.01	10.28	-29.6	-31.1	12.5	1.95e-04	0	40	0	69206016	20	4237
2026-01-10 11:02:26.00	182.16	10.54	-29.6	-31.0	12.5	8.39e-05	0	41	0	74448896	20	4229
2026-01-10 11:02:29.01	182.32	10.80	-29.5	-30.7	12.8	6.40e-05	0	40	0	80740352	20	4116
2026-01-10 11:02:32.02	182.47	11.06	-29.3	-30.1	13.2	3.58e-05	0	40	0	85983232	20	3937
2026-01-10 11:02:35.03	182.63	11.32	-29.5	-30.5	12.9	7.62e-05	0	41	0	92274688	20	4072
2026-01-10 11:02:38.04	182.79	11.59	-29.4	-30.4	13.0	3.35e-05	0	41	0	97517568	20	4040
2026-01-10 11:02:41.06	182.96	11.86	-29.6	-30.9	12.7	5.79e-05	0	41	0	102760448	20	4172
2026-01-10 11:02:44.07	183.13	12.14	-29.5	-30.5	13.0	5.18e-05	0	41	0	109051904	20	4056
2026-01-10 11:02:47.09	183.30	12.41	-29.5	-30.7	12.8	3.81e-05	0	41	0	114294784	20	4102
2026-01-10 11:02:50.11	183.47	12.70	-29.5	-30.7	12.8	3.12e-05	0	41	0	120586240	20	4120
2026-01-10 11:02:53.12	183.65	12.98	-29.5	-30.7	12.9	2.89e-05	0	41	0	125829120	20	4097
2026-01-10 11:02:56.14	183.83	13.26	-29.7	-31.0	12.7	5.49e-05	0	41	0	131072000	20	4219
2026-01-10 11:02:59.15	184.01	13.55	-29.9	-31.6	12.3	1.46e-04	0	41	0	137363456	20	4414
2026-01-10 11:03:02.14	184.20	13.84	-29.7	-31.2	12.6	8.69e-05	0	41	0	142606336	20	4254
2026-01-10 11:03:05.16	184.39	14.14	-29.9	-31.7	12.3	2.14e-04	0	41	0	147849216	20	4413
2026-01-10 11:03:08.17	184.58	14.44	-29.5	-30.4	13.1	3.81e-05	0	41	0	154140672	20	4017
2026-01-10 11:03:11.18	184.78	14.74	-29.5	-30.9	13.3	1.44e-05	0	41	0	159383552	19	4253
2026-01-10 11:03:14.20	184.98	15.04	-29.4	-30.8	13.3	1.75e-05	0	41	0	165675008	19	4219
2026-01-10 11:03:17.22	185.19	15.35	-29.4	-30.6	13.5	1.52e-05	0	41	0	170917888	19	4137
2026-01-10 11:03:20.23	185.40	15.67	-29.2	-30.2	13.7	3.00e-06	0	41	0	176160768	19	4024
2026-01-10 11:03:23.25	185.61	15.98	-29.2	-30.2	13.8	3.80e-06	0	41	0	182452224	19	4023
2026-01-10 11:03:26.27	185.83	16.31	-29.0	-29.7	14.1	3.80e-06	0	41	0	187695104	19	3880
2026-01-10 11:03:29.29	186.05	16.63	-29.1	-30.0	13.9	3.80e-06	0	41	0	193986560	19	3972
2026-01-10 11:03:32.30	186.28	16.96	-29.2	-30.1	13.8	3.00e-06	0	41	0	199229440	19	3994
2026-01-10 11:03:35.31	186.51	17.29	-29.1	-30.0	14.0	3.80e-06	0	41	0	204472320	19	3954
2026-01-10 11:03:38.33	186.75	17.63	-29.0	-29.5	14.3	0.00e+00	0	41	0	210763776	19	3827
2026-01-10 11:03:41.35	186.99	17.97	-28.7	-29.3	14.7	0.00e+00	0	41	0	216006656	18	3870
2026-01-10 11:03:44.35	187.24	18.31	-28.6	-29.1	14.9	0.00e+00	0	41	0	222298112	18	3815
2026-01-10 11:03:47.38	187.49	18.66	-28.9	-29.7	14.6	0.00e+00	0	41	0	227540992	18	3964
2026-01-10 11:03:50.39	187.75	19.02	-28.3	-28.3	15.4	0.00e+00	0	41	0	232783872	18	3599
2026-01-10 11:03:53.40	188.02	19.38	-28.2	-28.6	15.6	0.00e+00	0	41	0	239075328	17	3749
2026-01-10 11:03:56.42	188.29	19.74	-28.3	-28.8	15.4	0.00e+00	0	41	0	244318208	17	3807
2026-01-10 11:03:59.43	188.56	20.11	-28.7	-29.8	14.8	0.00e+00	0	41	0	250609664	17	4092
2026-01-10 11:04:02.46	188.85	20.48	-28.8	-30.1	14.6	0.00e+00	0	41	0	255852544	17	4186
2026-01-10 11:04:05.47	189.14	20.86	-29.0	-29.9	14.4	0.00e+00	0	41	0	261095424	18	4027
2026-01-10 11:04:08.49	189.44	21.24	-28.9	-29.8	14.5	1.50e-06	0	41	0	267386880	18	4009
2026-01-10 11:04:11.50	189.74	21.63	-28.8	-29.7	14.7	2.20e-06	0	41	0	272629760	18	3972
2026-01-10 11:04:14.52	190.05	22.02	-28.6	-29.0	15.0	3.00e-06	0	41	0	278921216	18	3791
2026-01-10 11:04:17.54	190.37	22.42	-28.8	-29.6	14.7	2.20e-06	0	41	0	284164096	18	3945
2026-01-10 11:04:20.56	190.70	22.83	-28.4	-28.5	15.4	1.50e-06	0	41	0	289406976	18	3658
2026-01-10 11:04:23.58	191.04	23.24	-28.1	-28.3	15.8	0.00e+00	0	42	0	295698432	17	3684
2026-01-10 11:04:26.59	191.38	23.65	-28.1	-28.2	15.9	0.00e+00	0	41	0	300941312	17	3656
2026-01-10 11:04:29.61	191.74	24.08	-28.1	-28.4	15.8	1.50e-06	0	41	0	306184192	17	3701
2026-01-10 11:04:32.62	192.10	24.50	-28.2	-28.5	15.7	3.00e-06	0	42	0	312475648	17	3730
2026-01-10 11:04:35.63	192.47	24.93	-28.0	-28.4	16.1	7.00e-07	0	41	0	317718528	16	3788
2026-01-10 11:04:38.65	192.86	25.37	-28.0	-28.5	16.1	3.80e-06	0	41	0	324009984	16	3807
2026-01-10 11:04:41.67	193.25	25.82	-28.1	-28.7	16.0	3.80e-06	0	42	0	329252864	16	3870
2026-01-10 11:04:44.69	193.66	26.27	-28.3	-29.2	15.7	0.00e+00	0	42	0	334495744	16	4008
2026-01-10 11:04:47.70	194.07	26.72	-29.0	-30.4	14.7	0.00e+00	0	42	0	340787200	17	4233
2026-01-10 11:04:50.71	194.50	27.19	-29.1	-30.3	14.5	0.00e+00	0	42	0	346030080	18	4112
2026-01-10 11:04:53.73	194.94	27.66	-28.9	-29.6	14.9	0.00e+00	0	42	0	352321536	18	3911
2026-01-10 11:04:56.75	195.39	28.13	-29.2	-30.5	14.4	3.00e-06	0	42	0	357564416	18	4149
2026-01-10 11:04:59.77	195.86	28.62	-29.4	-30.4	14.1	2.20e-06	0	42	0	362807296	19	4051
2026-01-10 11:05:02.77	196.34	29.10	-29.6	-31.0	13.8	5.30e-06	0	42	0	369098752	19	4215
2026-01-10 11:05:05.79	196.83	29.60	-29.9	-31.3	13.2	2.13e-05	0	42	0	374341632	20	4215
2026-01-10 11:05:08.81	197.34	30.10	-31.0	-34.0	11.1	6.96e-04	0	42	0	380633088	21	5076
2026-01-10 11:05:11.83	197.87	30.61	-31.3	-34.3	10.4	4.95e-03	0	42	0	385875968	22	5114
2026-01-10 11:05:14.84	198.41	31.12	-31.0	-33.4	11.1	1.43e-03	0	42	0	391118848	22	4749
2026-01-10 11:05:17.85	198.97	31.64	-31.4	-34.8	10.1	4.79e-03	0	42	0	397410304	22	5309
2026-01-10 11:05:20.87	199.54	32.17	-31.3	-34.1	10.3	5.47e-03	0	42	0	402653184	23	4934
2026-01-10 11:05:23.89	200.14	32.70	-31.0	-32.9	11.1	1.88e-03	0	42	0	408944640	23	4484
2026-01-10 11:05:26.90	200.76	33.24	-30.2	-31.7	12.7	1.04e-04	0	42	0	414187520	21	4252
2026-01-10 11:05:29.91	201.39	33.78	-30.3	-32.2	12.7	1.37e-05	0	42	0	419430400	20	4510
2026-01-10 11:05:32.93	202.05	34.33	-30.2	-32.0	12.9	6.56e-05	0	41	0	425721856	20	4442
2026-01-10 11:05:35.95	202.73	34.89	-30.7	-33.0	11.8	2.90e-04	0	42	0	430964736	21	4698
2026-01-10 11:05:38.96	203.43	35.45	-29.5	-30.0	14.1	5.30e-06	0	42	0	437256192	20	3842
2026-01-10 11:05:41.98	204.16	36.02	-30.2	-31.9	13.0	1.44e-05	0	42	0	442499072	20	4402
2026-01-10 11:05:44.99	204.91	36.59	-30.6	-32.8	12.0	4.44e-04	0	42	0	447741952	21	4594
2026-01-10 11:05:48.01	205.69	37.17	-30.2	-31.5	12.9	5.72e-05	0	42	0	454033408	21	4192
2026-01-10 11:05:51.02	206.49	37.75	-29.3	-29.8	14.4	1.50e-06	0	42	0	459276288	20	3771
2026-01-10 11:05:54.03	207.32	38.33	-28.8	-28.9	15.2	0.00e+00	0	42	0	465567744	19	3631
2026-01-10 11:05:57.05	208.19	38.92	-29.4	-30.7	14.5	0.00e+00	0	42	0	470810624	18	4213
2026-01-10 11:06:00.07	209.09	39.51	-29.7	-31.1	14.0	1.50e-06	0	42	0	476053504	19	4224
2026-01-10 11:06:03.09	210.02	40.10	-29.1	-30.0	14.9	0.00e+00	0	42	0	482344960	18	4011
2026-01-10 11:06:06.10	210.98	40.70	-29.3	-30.6	14.5	0.00e+00	0	42	0	487587840	18	4188
2026-01-10 11:06:09.12	211.98	41.29	-29.4	-30.4	14.4	3.80e-06	0	42	0	493879296	19	4019
2026-01-10 11:06:12.13	213.01	41.89	-30.0	-31.3	13.5	5.30e-06	0	41	0	499122176	20	4204
2026-01-10 11:06:15.14	214.08	42.48	-29.7	-30.7	13.7	6.10e-06	0	42	0	504365056	20	4024
2026-01-10 11:06:18.16	215.19	43.07	-29.5	-30.6	14.3	0.00e+00	0	42	0	510656512	19	4063
2026-01-10 11:06:21.18	216.35	43.66	-30.0	-31.5	13.4	2.51e-05	0	42	0	515899392	20	4276
2026-01-10 11:06:24.19	217.54	44.24	-30.6	-32.7	12.2	1.65e-04	0	42	0	521142272	21	4559
2026-01-10 11:06:27.21	218.79	44.82	-29.8	-30.4	13.6	1.29e-05	0	42	0	527433728	21	3862
2026-01-10 11:06:30.22	220.07	45.39	-30.6	-32.6	12.3	6.40e-05	0	42	0	532676608	21	4530
2026-01-10 11:06:33.24	221.40	45.96	-31.2	-33.8	11.1	1.91e-03	0	42	0	538968064	22	4876
2026-01-10 11:06:36.26	222.78	46.51	-30.5	-31.9	12.5	9.00e-05	0	42	0	544210944	22	4208
2026-01-10 11:06:39.28	224.21	47.06	-30.3	-31.3	12.9	1.70e-04	0	42	0	549453824	22	4019
2026-01-10 11:06:42.30	225.69	47.59	-30.5	-32.2	12.6	4.57e-05	0	42	0	555745280	21	4387
2026-01-10 11:06:45.32	227.22	48.10	-30.4	-32.1	12.7	1.01e-04	0	42	0	560988160	21	4352
2026-01-10 11:06:48.33	228.80	48.60	-29.7	-30.6	14.0	2.20e-06	0	42	0	567279616	20	3991
2026-01-10 11:06:51.35	230.43	49.09	-30.5	-32.7	12.6	7.70e-05	0	42	0	572522496	20	4647
2026-01-10 11:06:54.37	232.11	49.55	-30.4	-32.0	12.8	1.11e-04	0	42	0	577765376	21	4328
2026-01-10 11:06:57.38	233.83	49.99	-30.3	-31.8	12.8	7.01e-05	0	42	0	584056832	21	4270
2026-01-10 11:07:00.40	235.61	50.40	-30.4	-31.9	12.8	6.79e-05	0	42	0	589299712	21	4305
2026-01-10 11:07:03.43	237.44	50.79	-30.9	-33.3	11.9	2.18e-04	0	42	0	595591168	21	4770
2026-01-10 11:07:06.45	239.32	51.16	-31.0	-33.1	11.7	2.31e-04	0	42	0	600834048	22	4589
2026-01-10 11:07:09.47	241.23	51.49	-31.2	-33.8	11.2	7.41e-04	0	42	0	606076928	22	4850
2026-01-10 11:07:12.48	243.18	51.79	-29.4	-29.7	14.5	7.60e-06	0	42	0	612368384	20	3743
2026-01-10 11:07:15.50	245.18	52.06	-29.4	-30.7	14.6	0.00e+00	0	42	0	617611264	18	4192
2026-01-10 11:07:18.52	247.20	52.29	-29.3	-30.5	14.8	0.00e+00	0	42	0	623902720	18	4136
2026-01-10 11:07:21.54	249.26	52.49	-28.7	-29.0	15.6	0.00e+00	0	42	0	629145600	18	3738
2026-01-10 11:07:24.56	251.34	52.65	-29.0	-29.8	15.2	0.00e+00	0	42	0	634388480	18	3936
2026-01-10 11:07:27.58	253.45	52.77	-30.0	-31.4	13.6	9.10e-06	0	42	0	640679936	20	4204
2026-01-10 11:07:30.60	255.56	52.85	-29.4	-30.3	14.6	0.00e+00	0	42	0	645922816	19	3985
2026-01-10 11:07:33.61	257.68	52.90	-30.0	-31.3	13.5	1.98e-05	0	42	0	652214272	20	4179
2026-01-10 11:07:36.63	259.81	52.90	-30.6	-32.5	12.5	9.99e-05	0	42	0	657457152	21	4486
2026-01-10 11:07:39.65	261.93	52.87	-30.3	-31.8	13.0	4.80e-05	0	42	0	662700032	21	4236
2026-01-10 11:07:42.67	264.05	52.79	-29.7	-30.5	14.2	7.00e-07	0	42	0	668991488	20	3941
2026-01-10 11:07:45.68	266.15	52.68	-30.1	-31.0	13.4	2.13e-05	0	42	0	674234368	21	4000
2026-01-10 11:07:48.71	268.24	52.52	-29.0	-29.3	15.2	7.00e-07	0	42	0	680525824	19	3709
2026-01-10 11:07:51.72	270.30	52.34	-28.8	-29.3	15.5	0.00e+00	0	42	0	685768704	18	3806
2026-01-10 11:07:54.74	272.33	52.11	-28.1	-28.1	16.5	0.00e+00	0	42	0	691011584	17	3585
2026-01-10 11:07:57.74	274.31	51.85	-28.4	-28.8	16.0	0.00e+00	0	42	0	697303040	17	3774
2026-01-10 11:08:00.76	276.28	51.56	-28.7	-29.5	15.7	0.00e+00	0	42	0	702545920	17	3955
2026-01-10 11:08:03.78	278.20	51.23	-29.6	-30.8	14.3	0.00e+00	0	42	0	708837376	19	4117
2026-01-10 11:08:06.78	280.07	50.88	-29.1	-29.4	15.2	0.00e+00	0	42	0	714080256	19	3733
2026-01-10 11:08:09.80	281.90	50.50	-29.1	-29.5	15.2	0.00e+00	0	42	0	719323136	19	3761
2026-01-10 11:08:12.81	283.68	50.09	-29.9	-31.1	13.7	4.50e-06	0	42	0	725614592	20	4133
2026-01-10 11:08:15.83	285.42	49.66	-29.1	-29.5	15.1	0.00e+00	0	42	0	730857472	19	3768
2026-01-10 11:08:18.86	287.11	49.20	-29.9	-31.5	13.9	7.00e-07	0	42	0	736100352	19	4337
2026-01-10 11:08:21.88	288.75	48.72	-30.6	-32.4	12.6	6.79e-05	0	42	0	742391808	21	4449
2026-01-10 11:08:24.91	290.35	48.23	-30.8	-32.5	12.2	3.32e-04	0	42	0	747634688	22	4370
2026-01-10 11:08:27.93	291.88	47.71	-31.2	-33.9	11.2	1.23e-03	0	42	0	753926144	22	4909
2026-01-10 11:08:30.94	293.36	47.19	-31.9	-35.5	9.7	8.25e-03	0	42	0	759169024	23	5456
2026-01-10 11:08:33.96	294.80	46.65	-31.7	-34.3	10.2	5.41e-03	0	42	0	765460480	24	4865
2026-01-10 11:08:36.98	296.19	46.10	-33.4	-41.7	4.5	6.61e-01	0	42	0	770703360	26	9384
2026-01-10 11:08:40.00	297.53	45.54	-32.9	-38.6	6.4	2.95e-01	0	42	0	775946240	26	6920
2026-01-10 11:08:43.02	298.83	44.97	-33.4	-42.0	4.4	5.37e-01	0	42	0	782237696	26	9739
2026-01-10 11:08:46.04	300.08	44.40	-33.1	-39.9	5.4	7.77e-01	0	42	0	787480576	26	7840
2026-01-10 11:08:49.06	301.28	43.81	-33.2	-40.3	5.2	4.51e-01	0	42	0	792723456	26	8161
2026-01-10 11:08:52.07	302.44	43.23	-32.3	-35.6	8.4	1.25e-01	0	42	0	799014912	26	5273
2026-01-10 11:08:55.09	303.56	42.64	-30.9	-32.3	12.1	4.17e-04	0	42	0	804257792	23	4235
2026-01-10 11:08:58.10	304.64	42.05	-31.4	-33.8	10.9	2.10e-03	0	42	0	810549248	23	4748
2026-01-10 11:09:01.12	305.68	41.46	-31.4	-34.4	10.8	5.49e-04	0	42	0	815792128	22	5080
2026-01-10 11:09:04.14	306.69	40.87	-32.0	-35.3	9.5	1.72e-02	0	42	0	821035008	24	5292
2026-01-10 11:09:07.15	307.65	40.28	-31.9	-34.9	9.7	5.40e-03	0	42	0	827326464	24	5097
2026-01-10 11:09:10.17	308.59	39.69	-31.9	-34.9	9.5	6.94e-03	0	42	0	832569344	24	5116
2026-01-10 11:09:13.18	309.49	39.10	-30.8	-32.5	12.4	6.40e-05	0	42	0	838860800	22	4357
2026-01-10 11:09:16.20	310.36	38.52	-31.8	-35.4	9.8	8.53e-03	0	42	0	844103680	23	5411
2026-01-10 11:09:19.20	311.19	37.94	-30.1	-31.0	13.6	7.00e-07	0	42	0	849346560	21	3997
2026-01-10 11:09:22.23	312.01	37.36	-31.7	-34.9	10.2	1.98e-03	0	42	0	855638016	23	5195
2026-01-10 11:09:25.25	312.79	36.78	-31.2	-33.2	11.4	2.13e-03	0	42	0	860880896	23	4521
2026-01-10 11:09:28.27	313.55	36.21	-31.0	-32.9	12.0	2.17e-04	0	42	0	867172352	22	4494
2026-01-10 11:09:31.28	314.28	35.65	-32.4	-36.8	8.3	4.16e-02	0	42	0	872415232	24	6029
2026-01-10 11:09:34.29	314.98	35.09	-30.7	-32.2	12.5	6.06e-04	0	42	0	877658112	22	4277
2026-01-10 11:09:37.30	315.67	34.53	-31.0	-33.1	11.7	4.27e-05	0	42	0	883949568	22	4591
2026-01-10 11:09:40.31	316.33	33.98	-32.6	-37.2	7.8	3.57e-02	0	42	0	889192448	25	6125
2026-01-10 11:09:43.34	316.97	33.44	-32.1	-35.3	9.1	6.63e-02	0	42	0	894435328	25	5195
2026-01-10 11:09:46.35	317.59	32.90	-30.8	-32.6	12.1	2.84e-04	0	42	0	900726784	22	4419
2026-01-10 11:09:49.37	318.19	32.37	-31.9	-35.9	9.3	8.53e-03	0	42	0	905969664	23	5663
2026-01-10 11:09:52.39	318.77	31.84	-32.5	-37.2	7.4	1.37e-01	0	42	0	912261120	25	6232
2026-01-10 11:09:55.41	319.33	31.32	-32.3	-36.2	8.2	5.15e-02	0	42	0	917504000	25	5647
2026-01-10 11:09:58.43	319.88	30.81	-31.9	-34.8	9.4	1.75e-02	0	42	0	922746880	25	4998
2026-01-10 11:10:01.44	320.41	30.31	-32.6	-37.6	7.1	8.52e-02	0	42	0	929038336	25	6446
2026-01-10 11:10:04.46	320.92	29.80	-32.8	-38.9	6.2	2.64e-01	0	42	0	934281216	25	7274
2026-01-10 11:10:07.48	321.42	29.31	-32.2	-35.8	8.4	5.24e-02	0	42	0	940572672	25	5492
2026-01-10 11:10:10.51	321.91	28.82	-31.2	-33.3	11.1	2.90e-03	0	42	0	945815552	23	4597
2026-01-10 11:10:13.52	322.37	28.34	-31.3	-33.7	10.9	2.09e-03	0	42	0	951058432	23	4721
2026-01-10 11:10:16.54	322.83	27.87	-31.3	-33.5	11.0	1.58e-03	0	42	0	957349888	23	4668
2026-01-10 11:10:19.56	323.27	27.40	-30.6	-32.1	12.3	2.10e-04	0	42	0	962592768	22	4263
2026-01-10 11:10:22.57	323.70	26.94	-30.0	-30.9	13.4	2.44e-05	0	42	0	968884224	21	3991
2026-01-10 11:10:25.58	324.12	26.48	-29.9	-30.7	13.5	3.00e-06	0	42	0	974127104	21	3928
2026-01-10 11:10:28.60	324.53	26.03	-29.3	-30.0	14.6	0.00e+00	0	42	0	979369984	19	3906
2026-01-10 11:10:31.62	324.93	25.59	-29.4	-30.2	14.5	0.00e+00	0	42	0	985661440	19	3980
2026-01-10 11:10:34.64	325.31	25.15	-30.0	-31.4	13.4	6.10e-06	0	42	0	990904320	20	4222
2026-01-10 11:10:37.66	325.69	24.72	-30.2	-32.0	12.9	3.89e-05	0	42	0	997195776	20	4436
2026-01-10 11:10:40.68	326.06	24.29	-29.6	-30.4	14.0	7.60e-06	0	42	0	1002438656	20	3929
2026-01-10 11:10:43.70	326.41	23.87	-29.5	-30.2	14.1	4.50e-06	0	42	0	1007681536	20	3886
2026-01-10 11:10:46.71	326.76	23.46	-29.9	-31.1	13.5	6.80e-06	0	42	0	1013972992	20	4156
2026-01-10 11:10:49.73	327.10	23.05	-30.5	-32.5	12.3	1.20e-04	0	42	0	1019215872	21	4498
2026-01-10 11:10:52.75	327.43	22.64	-30.8	-33.4	11.5	6.51e-04	0	42	0	1025507328	21	4854
2026-01-10 11:10:55.77	327.75	22.24	-30.5	-32.4	12.2	2.97e-04	0	42	0	1030750208	21	4497
2026-01-10 11:10:58.79	328.07	21.85	-30.1	-31.3	13.0	6.33e-05	0	42	0	1035993088	21	4114
2026-01-10 11:11:01.81	328.38	21.46	-30.2	-31.8	13.1	9.10e-06	0	42	0	1042284544	20	4362
2026-01-10 11:11:04.82	328.68	21.08	-29.9	-31.1	13.5	7.00e-07	0	42	0	1047527424	20	4155
2026-01-10 11:11:07.84	328.97	20.70	-30.2	-32.0	12.8	5.56e-05	0	42	0	1053818880	20	4437
2026-01-10 11:11:10.85	329.26	20.33	-30.7	-32.9	11.8	3.71e-04	0	42	0	1059061760	21	4681
2026-01-10 11:11:13.86	329.54	19.96	-30.9	-33.8	11.2	1.35e-03	0	42	0	1064304640	21	4991
2026-01-10 11:11:16.88	329.81	19.60	-30.7	-33.0	11.8	9.23e-04	0	42	0	1070596096	21	4714
2026-01-10 11:11:19.90	330.08	19.24	-30.2	-31.8	12.5	2.82e-04	0	42	0	1075838976	21	4289
2026-01-10 11:11:22.92	330.34	18.89	-29.6	-30.3	13.8	2.05e-05	0	42	0	1082130432	20	3944
2026-01-10 11:11:25.95	330.60	18.54	-29.5	-30.2	13.9	1.50e-06	0	42	0	1087373312	20	3893
2026-01-10 11:11:28.96	330.85	18.19	-29.6	-30.6	13.6	5.30e-06	0	42	0	1092616192	20	4035
2026-01-10 11:11:31.97	331.09	17.85	-29.8	-31.0	13.3	1.29e-05	0	42	0	1098907648	20	4136
2026-01-10 11:11:34.99	331.33	17.52	-30.2	-32.0	12.7	3.66e-05	0	42	0	1104150528	20	4445
2026-01-10 11:11:38.00	331.57	17.19	-30.2	-32.2	12.6	8.01e-05	0	42	0	1109393408	20	4504
2026-01-10 11:11:41.01	331.80	16.86	-30.2	-32.1	12.7	9.07e-05	0	42	0	1115684864	20	4482
2026-01-10 11:11:44.03	332.02	16.53	-30.1	-31.9	12.8	4.57e-05	0	42	0	1120927744	20	4411
2026-01-10 11:11:47.06	332.24	16.21	-29.9	-31.4	13.1	4.11e-05	0	42	0	1127219200	20	4272
2026-01-10 11:11:50.07	332.46	15.90	-30.0	-31.6	12.9	2.89e-05	0	42	0	1132462080	20	4316
2026-01-10 11:11:53.09	332.67	15.58	-29.4	-29.9	14.0	6.10e-06	0	42	0	1137704960	20	3835
2026-01-10 11:11:56.10	332.88	15.28	-29.5	-30.2	13.9	1.50e-06	0	42	0	1143996416	20	3897
2026-01-10 11:11:59.12	333.09	14.97	-29.4	-30.0	14.0	3.00e-06	0	42	0	1149239296	20	3841
2026-01-10 11:12:02.14	333.29	14.67	-29.5	-30.2	13.8	2.20e-06	0	42	0	1155530752	20	3900
2026-01-10 11:12:05.16	333.48	14.37	-29.8	-31.1	13.2	1.29e-05	0	42	0	1160773632	20	4184
2026-01-10 11:12:08.17	333.68	14.07	-30.0	-31.7	12.8	5.18e-05	0	42	0	1166016512	20	4362
2026-01-10 11:12:11.19	333.87	13.78	-30.3	-32.7	12.0	2.09e-04	0	42	0	1172307968	20	4722
2026-01-10 11:12:14.20	334.05	13.49	-30.6	-32.9	11.6	1.00e-03	0	42	0	1177550848	21	4698
2026-01-10 11:12:17.22	334.24	13.21	-31.0	-33.7	10.6	2.98e-03	0	42	0	1183842304	22	4917
2026-01-10 11:12:20.24	334.42	12.93	-31.1	-34.2	10.2	5.39e-03	0	42	0	1189085184	22	5110
2026-01-10 11:12:23.25	334.59	12.65	-31.2	-34.4	10.0	6.52e-03	0	42	0	1194328064	22	5226
2026-01-10 11:12:26.26	334.77	12.37	-31.0	-33.7	10.5	4.36e-03	0	42	0	1200619520	22	4922
2026-01-10 11:12:29.28	334.94	12.10	-30.8	-33.0	11.1	1.91e-03	0	42	0	1205862400	22	4671
2026-01-10 11:12:32.30	335.11	11.83	-30.5	-32.1	11.7	9.13e-04	0	42	0	1212153856	22	4353
2026-01-10 11:12:35.31	335.27	11.56	-30.3	-31.7	11.9	3.62e-04	0	42	0	1217396736	22	4223
2026-01-10 11:12:38.34	335.43	11.29	-30.2	-31.8	12.2	2.04e-04	0	42	0	1222639616	21	4328
2026-01-10 11:12:41.36	335.59	11.03	-30.0	-31.3	12.4	1.43e-04	0	42	0	1228931072	21	4174
2026-01-10 11:12:44.37	335.75	10.77	-29.9	-31.4	12.7	7.55e-05	0	42	0	1234173952	20	4308
2026-01-10 11:12:47.39	335.90	10.51	-30.0	-31.7	12.5	1.43e-04	0	42	0	1240465408	20	4395
2026-01-10 11:12:50.40	336.06	10.26	-29.5	-30.6	13.2	1.60e-05	0	42	0	1245708288	20	4051
2026-01-10 11:12:53.41	336.21	10.01	-29.6	-30.6	13.1	1.83e-05	0	42	0	1250951168	20	4080
2026-01-10 11:12:56.42	336.35	9.76	-29.5	-30.6	13.1	2.13e-05	0	42	0	1257242624	20	4052
2026-01-10 11:12:59.45	336.50	9.51	-29.6	-30.8	12.9	4.50e-05	0	42	0	1262485504	20	4134
2026-01-10 11:13:02.47	336.64	9.27	-29.8	-31.4	12.5	1.72e-04	0	42	0	1268776960	20	4312
2026-01-10 11:13:05.49	336.78	9.02	-29.9	-31.7	12.3	1.25e-04	0	42	0	1274019840	20	4409
2026-01-10 11:13:08.51	336.92	8.78	-30.2	-32.6	11.8	2.85e-04	0	42	0	1279262720	20	4710
2026-01-10 11:13:11.53	337.06	8.54	-30.2	-32.5	11.6	6.61e-04	0	42	0	1285554176	20	4692
2026-01-10 11:13:14.53	337.19	8.31	-30.2	-32.6	11.7	5.42e-04	0	42	0	1290797056	20	4733
2026-01-10 11:13:17.55	337.33	8.07	-30.3	-32.8	11.4	7.32e-04	0	42	0	1296039936	20	4820
2026-01-10 11:13:20.56	337.46	7.84	-30.6	-33.2	10.9	2.31e-03	0	42	0	1302331392	21	4881
2026-01-10 11:13:23.58	337.59	7.61	-30.8	-34.1	10.2	2.71e-03	0	42	0	1307574272	21	5244
2026-01-10 11:13:26.59	337.71	7.38	-30.7	-33.8	10.4	4.80e-03	0	42	0	1313865728	21	5114
2026-01-10 11:13:29.61	337.84	7.16	-30.8	-34.3	10.0	7.99e-03	0	42	0	1319108608	21	5341
2026-01-10 11:13:32.63	337.96	6.93	-33.3	-45.8	3.8	1.49e+00	0	42	104	1321205760	26	15190

#Closed at: 2026-01-10 11:13:33
#Recorded file [1321 MB]: D:/data/31010_260110_140145.dat