passes_logs/2026/01/10/R2M6_AANII_01/R2M6_AANII_01__20260110_230946_SUOMI_NPP_rec.log

#Pass ID: 20260110_230946_SUOMI NPP
#Satellite: SUOMI NPP
#Configuration: NPP
#almurnet v.1.7.20240730
#Start time: 2026-01-10 23:09:46

#Version: 2.2.20231116
#Station: R2M6_AANII_01
#Location: 30.233357 lon 59.946436 lat
#TLE: 1 37849U 11061A   26009.81756760  .00000113  00000+0  74747-4 0  9994
#TLE: 2 37849  98.7806 311.9110 0002525  72.5604 287.5848 14.19524046735974

#Time	Az	El	Level	Level2	SNR	BER	BlckErr	Temp	State	Recorded	gain1	gain2
2026-01-10 23:09:46.15	26.56	7.00	-31.3	-35.9	5.1	1.24e+00	0	39	0	0	22	6061
2026-01-10 23:09:49.15	26.79	7.20	-32.0	-37.8	6.2	2.69e-01	0	40	0	1048576	24	7011
2026-01-10 23:09:52.17	27.01	7.41	-31.9	-37.4	6.9	1.78e-01	0	40	0	7340032	23	6806
2026-01-10 23:09:55.19	27.25	7.62	-31.3	-35.4	8.9	3.39e-02	0	40	0	12582912	22	5745
2026-01-10 23:09:58.21	27.48	7.83	-30.8	-33.8	10.5	6.19e-03	0	40	0	18874368	21	5124
2026-01-10 23:10:01.22	27.72	8.04	-30.4	-33.0	11.1	1.62e-03	0	40	0	24117248	20	4898
2026-01-10 23:10:04.24	27.96	8.26	-30.3	-32.7	11.5	6.42e-04	0	40	0	29360128	20	4759
2026-01-10 23:10:07.26	28.20	8.47	-30.1	-32.2	12.1	2.17e-04	0	40	0	35651584	20	4574
2026-01-10 23:10:10.27	28.45	8.69	-29.9	-31.6	12.5	2.01e-04	0	40	0	40894464	20	4361
2026-01-10 23:10:13.29	28.70	8.90	-29.8	-31.9	12.7	5.90e-04	0	40	0	46137344	19	4539
2026-01-10 23:10:16.30	28.95	9.12	-30.1	-32.0	12.2	7.63e-04	0	40	0	52428800	20	4523
2026-01-10 23:10:19.31	29.21	9.34	-30.1	-32.2	12.1	1.24e-03	0	40	0	57671680	20	4580
2026-01-10 23:10:22.34	29.48	9.57	-30.1	-32.1	12.2	1.84e-04	0	40	0	63963136	20	4532
2026-01-10 23:10:25.35	29.74	9.79	-29.9	-31.7	12.6	1.76e-04	0	40	0	69206016	20	4384
2026-01-10 23:10:28.37	30.01	10.01	-30.0	-32.1	12.7	1.01e-04	0	41	0	74448896	19	4617
2026-01-10 23:10:31.37	30.28	10.24	-29.8	-31.7	12.9	9.76e-04	0	41	0	80740352	19	4464
2026-01-10 23:10:34.40	30.56	10.47	-29.8	-31.7	13.1	8.44e-04	0	41	0	85983232	19	4472
2026-01-10 23:10:37.41	30.84	10.70	-29.5	-30.9	13.5	7.74e-04	0	41	0	92274688	19	4221
2026-01-10 23:10:40.42	31.13	10.93	-29.7	-31.4	13.2	1.04e-03	0	41	0	97517568	19	4364
2026-01-10 23:10:43.44	31.42	11.16	-29.8	-31.5	13.2	1.08e-03	0	41	0	102760448	19	4407
2026-01-10 23:10:46.46	31.71	11.40	-29.9	-31.8	13.0	9.38e-04	0	41	0	109051904	19	4497
2026-01-10 23:10:49.48	32.01	11.63	-29.9	-31.4	12.9	5.18e-05	0	41	0	114294784	20	4274
2026-01-10 23:10:52.50	32.32	11.87	-29.9	-31.3	13.0	5.18e-05	0	41	0	120586240	20	4253
2026-01-10 23:10:55.51	32.63	12.11	-29.9	-31.5	12.9	6.96e-04	0	41	0	125829120	20	4315
2026-01-10 23:10:58.52	32.94	12.35	-29.9	-31.8	13.1	6.88e-04	0	41	0	131072000	19	4494
2026-01-10 23:11:01.54	33.26	12.59	-29.7	-31.3	13.4	4.87e-04	0	41	0	137363456	19	4318
2026-01-10 23:11:04.56	33.58	12.84	-29.7	-31.4	13.3	2.05e-05	0	41	0	142606336	19	4361
2026-01-10 23:11:07.57	33.91	13.08	-29.8	-31.6	13.4	1.29e-05	0	41	0	148897792	19	4410
2026-01-10 23:11:10.58	34.24	13.33	-30.1	-31.8	12.7	4.11e-05	0	41	0	154140672	20	4415
2026-01-10 23:11:13.59	34.58	13.58	-30.1	-31.9	12.7	5.41e-05	0	41	0	159383552	20	4453
2026-01-10 23:11:16.60	34.93	13.83	-30.2	-32.1	12.6	1.07e-04	0	41	0	165675008	20	4500
2026-01-10 23:11:19.61	35.28	14.08	-30.2	-32.2	12.6	8.69e-05	0	41	0	170917888	20	4529
2026-01-10 23:11:22.63	35.63	14.33	-30.0	-31.2	12.8	1.43e-04	0	41	0	176160768	21	4121
2026-01-10 23:11:25.64	35.99	14.59	-29.9	-31.4	13.1	3.73e-05	0	41	0	182452224	20	4275
2026-01-10 23:11:28.67	36.36	14.85	-30.1	-31.8	12.9	6.02e-05	0	41	0	187695104	20	4384
2026-01-10 23:11:31.68	36.74	15.11	-30.2	-32.1	12.7	7.47e-05	0	41	0	193986560	20	4484
2026-01-10 23:11:34.69	37.12	15.37	-30.3	-32.4	12.5	1.20e-04	0	41	0	199229440	20	4573
2026-01-10 23:11:37.72	37.51	15.63	-30.2	-32.1	12.8	7.93e-05	0	41	0	204472320	20	4486
2026-01-10 23:11:40.74	37.90	15.90	-30.2	-32.1	12.7	4.50e-05	0	41	0	210763776	20	4467
2026-01-10 23:11:43.75	38.30	16.16	-30.1	-31.9	12.8	5.79e-05	0	41	0	216006656	20	4403
2026-01-10 23:11:46.77	38.71	16.43	-30.1	-31.9	12.8	6.25e-05	0	41	0	222298112	20	4422
2026-01-10 23:11:49.79	39.13	16.70	-30.2	-32.0	12.8	5.87e-05	0	41	0	227540992	20	4460
2026-01-10 23:11:52.81	39.55	16.97	-30.0	-31.4	13.2	4.11e-05	0	41	0	232783872	20	4263
2026-01-10 23:11:55.82	39.98	17.24	-29.7	-30.6	13.7	4.50e-06	0	41	0	239075328	20	4014
2026-01-10 23:11:58.83	40.41	17.51	-29.5	-30.3	14.0	6.80e-06	0	41	0	244318208	20	3911
2026-01-10 23:12:01.85	40.86	17.79	-29.5	-30.2	14.1	3.00e-06	0	41	0	250609664	20	3893
2026-01-10 23:12:04.86	41.31	18.07	-29.6	-30.3	14.0	7.00e-07	0	41	0	255852544	20	3924
2026-01-10 23:12:07.88	41.77	18.34	-29.5	-30.5	14.3	7.00e-07	0	41	0	261095424	19	4056
2026-01-10 23:12:10.89	42.24	18.62	-29.4	-30.4	14.3	0.00e+00	0	42	0	267386880	19	4023
2026-01-10 23:12:13.92	42.72	18.91	-29.4	-30.3	14.5	7.00e-07	0	41	0	272629760	19	4008
2026-01-10 23:12:16.92	43.21	19.19	-29.2	-29.9	14.7	0.00e+00	0	42	0	278921216	19	3892
2026-01-10 23:12:19.92	43.70	19.47	-29.4	-30.3	14.5	0.00e+00	0	42	0	284164096	19	3987
2026-01-10 23:12:22.93	44.20	19.75	-29.0	-29.2	15.2	0.00e+00	0	42	0	289406976	19	3706
2026-01-10 23:12:25.94	44.71	20.04	-28.8	-29.2	15.5	0.00e+00	0	42	0	295698432	18	3787
2026-01-10 23:12:28.95	45.24	20.32	-28.7	-29.0	15.6	0.00e+00	0	42	0	300941312	18	3733
2026-01-10 23:12:31.97	45.77	20.61	-28.7	-28.9	15.6	0.00e+00	0	41	0	306184192	18	3719
2026-01-10 23:12:35.00	46.31	20.90	-28.4	-28.4	15.9	0.00e+00	0	42	0	312475648	18	3579
2026-01-10 23:12:38.02	46.87	21.19	-28.8	-29.3	15.4	0.00e+00	0	42	0	317718528	18	3811
2026-01-10 23:12:41.03	47.43	21.48	-29.0	-29.7	15.2	0.00e+00	0	42	0	324009984	18	3913
2026-01-10 23:12:44.05	48.00	21.77	-29.1	-29.9	15.1	0.00e+00	0	42	0	329252864	18	3964
2026-01-10 23:12:47.07	48.58	22.06	-29.1	-29.6	15.0	0.00e+00	0	42	0	334495744	19	3795
2026-01-10 23:12:50.09	49.18	22.35	-29.5	-30.5	14.4	2.20e-06	0	42	0	340787200	19	4044
2026-01-10 23:12:53.10	49.78	22.64	-29.7	-31.0	14.2	0.00e+00	0	42	0	346030080	19	4170
2026-01-10 23:12:56.12	50.40	22.94	-29.4	-30.1	14.7	0.00e+00	0	42	0	352321536	19	3939
2026-01-10 23:12:59.15	51.03	23.23	-29.3	-30.0	14.8	0.00e+00	0	42	0	357564416	19	3898
2026-01-10 23:13:02.16	51.67	23.52	-29.4	-30.2	14.6	7.00e-07	0	42	0	362807296	19	3955
2026-01-10 23:13:05.18	52.32	23.81	-29.5	-30.5	14.3	0.00e+00	0	42	0	369098752	19	4041
2026-01-10 23:13:08.20	52.99	24.10	-29.3	-29.9	14.9	7.00e-07	0	42	0	374341632	19	3878
2026-01-10 23:13:11.22	53.66	24.39	-28.8	-29.4	15.5	0.00e+00	0	42	0	380633088	18	3814
2026-01-10 23:13:14.24	54.35	24.68	-28.8	-29.1	15.7	0.00e+00	0	42	0	385875968	18	3756
2026-01-10 23:13:17.26	55.05	24.97	-29.0	-29.8	15.3	1.44e-05	0	42	0	391118848	18	3928
2026-01-10 23:13:20.26	55.76	25.25	-29.7	-31.1	14.2	0.00e+00	0	42	0	397410304	19	4202
2026-01-10 23:13:23.28	56.49	25.54	-29.5	-30.5	14.6	7.00e-07	0	42	0	402653184	19	4023
2026-01-10 23:13:26.29	57.22	25.82	-29.2	-29.7	15.1	0.00e+00	0	42	0	408944640	19	3807
2026-01-10 23:13:29.31	57.97	26.10	-29.3	-30.0	14.9	0.00e+00	0	42	0	414187520	19	3901
2026-01-10 23:13:32.33	58.74	26.38	-29.2	-29.8	15.0	0.00e+00	0	42	0	419430400	19	3840
2026-01-10 23:13:35.34	59.52	26.66	-29.4	-30.3	14.7	2.82e-05	0	42	0	425721856	19	3976
2026-01-10 23:13:38.36	60.31	26.93	-29.4	-30.1	14.8	5.42e-04	0	42	0	430964736	19	3912
2026-01-10 23:13:41.38	61.11	27.20	-29.3	-30.5	14.9	1.24e-03	0	42	0	437256192	18	4113
2026-01-10 23:13:44.40	61.93	27.47	-29.7	-30.9	14.3	5.93e-04	0	42	0	442499072	19	4138
2026-01-10 23:13:47.41	62.76	27.73	-29.7	-30.5	14.2	3.36e-04	0	42	0	447741952	20	3948
2026-01-10 23:13:50.42	63.60	27.99	-29.5	-30.5	14.7	8.23e-05	0	42	0	454033408	19	4011
2026-01-10 23:13:53.43	64.46	28.24	-29.4	-30.1	14.8	0.00e+00	0	42	0	459276288	19	3920
2026-01-10 23:13:56.44	65.33	28.49	-29.5	-30.5	14.6	7.00e-07	0	42	0	464519168	19	4024
2026-01-10 23:13:59.46	66.22	28.74	-30.0	-31.3	13.8	2.20e-06	0	42	0	470810624	20	4179
2026-01-10 23:14:02.48	67.11	28.98	-30.1	-31.4	13.7	1.22e-05	0	42	0	476053504	20	4210
2026-01-10 23:14:05.49	68.02	29.21	-30.2	-31.8	13.4	6.10e-06	0	42	0	482344960	20	4340
2026-01-10 23:14:08.51	68.95	29.44	-30.7	-32.6	12.6	1.30e-04	0	42	0	487587840	21	4490
2026-01-10 23:14:11.54	69.89	29.67	-30.5	-32.0	13.0	5.34e-05	0	42	0	493879296	21	4294
2026-01-10 23:14:14.55	70.84	29.88	-30.8	-32.9	12.4	9.23e-05	0	42	0	499122176	21	4608
2026-01-10 23:14:17.56	71.80	30.09	-31.3	-33.8	11.5	6.98e-04	0	42	0	504365056	22	4811
2026-01-10 23:14:20.57	72.77	30.29	-31.9	-35.3	10.0	4.98e-03	0	42	0	510656512	23	5324
2026-01-10 23:14:23.59	73.76	30.48	-30.9	-32.8	12.2	2.46e-04	0	42	0	515899392	22	4481
2026-01-10 23:14:26.61	74.76	30.67	-31.3	-33.8	11.5	8.01e-04	0	42	0	522190848	22	4839
2026-01-10 23:14:29.63	75.77	30.85	-31.1	-33.3	11.8	4.81e-04	0	42	0	527433728	22	4657
2026-01-10 23:14:32.65	76.79	31.02	-30.9	-32.8	12.2	2.83e-04	0	42	0	532676608	22	4452
2026-01-10 23:14:35.66	77.82	31.18	-31.0	-33.2	11.9	2.75e-04	0	42	0	538968064	22	4593
2026-01-10 23:14:38.69	78.87	31.33	-31.2	-33.0	11.8	8.57e-04	0	42	0	544210944	23	4447
2026-01-10 23:14:41.69	79.91	31.47	-30.4	-31.3	13.1	4.04e-05	0	42	0	549453824	22	4002
2026-01-10 23:14:44.71	80.97	31.60	-30.0	-30.6	13.9	8.30e-06	0	42	0	555745280	21	3887
2026-01-10 23:14:47.73	82.04	31.72	-30.6	-32.4	12.7	4.73e-05	0	42	0	560988160	21	4437
2026-01-10 23:14:50.74	83.11	31.83	-31.0	-32.9	12.2	3.10e-04	0	42	0	567279616	22	4513
2026-01-10 23:14:53.76	84.19	31.93	-30.4	-31.3	13.1	2.89e-05	0	42	0	572522496	22	3996
2026-01-10 23:14:56.78	85.28	32.02	-30.7	-32.2	12.6	4.57e-05	0	42	0	577765376	22	4254
2026-01-10 23:14:59.79	86.37	32.10	-31.0	-33.0	12.1	3.12e-04	0	42	0	584056832	22	4517
2026-01-10 23:15:02.80	87.47	32.17	-31.2	-33.5	11.8	2.79e-04	0	42	0	589299712	22	4687
2026-01-10 23:15:05.82	88.57	32.22	-30.2	-31.3	13.5	1.14e-05	0	42	0	595591168	21	4068
2026-01-10 23:15:08.83	89.68	32.27	-30.5	-32.0	13.1	2.05e-05	0	42	0	600834048	21	4284
2026-01-10 23:15:11.85	90.79	32.30	-30.6	-32.5	12.7	2.44e-05	0	42	0	606076928	21	4438
2026-01-10 23:15:14.86	91.89	32.32	-30.6	-32.4	12.8	3.66e-05	0	42	0	612368384	21	4434
2026-01-10 23:15:17.88	93.01	32.33	-30.4	-31.9	13.1	3.89e-05	0	42	0	617611264	21	4272
2026-01-10 23:15:20.90	94.12	32.33	-30.6	-32.4	12.8	1.94e-04	0	42	0	623902720	21	4412
2026-01-10 23:15:23.92	95.23	32.32	-29.6	-30.1	14.5	7.00e-07	0	42	0	629145600	20	3841
2026-01-10 23:15:26.93	96.34	32.29	-30.0	-31.2	14.0	3.00e-06	0	42	0	634388480	20	4135
2026-01-10 23:15:29.95	97.45	32.25	-30.6	-32.3	13.0	3.50e-05	0	42	0	640679936	21	4371
2026-01-10 23:15:32.95	98.55	32.21	-30.8	-32.9	12.4	4.42e-05	0	42	0	645922816	21	4578
2026-01-10 23:15:35.97	99.65	32.15	-29.9	-30.4	14.0	1.50e-06	0	42	0	652214272	21	3811
2026-01-10 23:15:38.99	100.75	32.07	-30.5	-32.2	12.9	2.05e-05	0	42	0	657457152	21	4347
2026-01-10 23:15:42.00	101.84	31.99	-30.7	-32.2	12.5	8.46e-05	0	42	0	662700032	22	4269
2026-01-10 23:15:45.01	102.93	31.90	-30.8	-32.3	12.5	2.63e-04	0	42	0	668991488	22	4312
2026-01-10 23:15:48.03	104.01	31.79	-30.8	-32.3	12.5	4.65e-05	0	42	0	674234368	22	4301
2026-01-10 23:15:51.04	105.08	31.68	-31.4	-34.2	11.1	8.75e-04	0	42	0	679477248	22	4962
2026-01-10 23:15:54.05	106.14	31.55	-30.9	-32.6	12.2	2.06e-04	0	42	0	685768704	22	4403
2026-01-10 23:15:57.07	107.20	31.42	-30.9	-32.6	12.3	2.10e-04	0	42	0	691011584	22	4402
2026-01-10 23:16:00.09	108.25	31.27	-30.2	-31.2	13.6	2.20e-06	0	42	0	697303040	21	4039
2026-01-10 23:16:03.09	109.29	31.12	-30.2	-31.3	13.4	1.22e-05	0	42	0	702545920	21	4083
2026-01-10 23:16:06.09	110.31	30.96	-29.8	-30.7	14.2	6.10e-06	0	42	0	707788800	20	3994
2026-01-10 23:16:09.10	111.32	30.78	-30.0	-31.2	13.9	7.00e-07	0	42	0	714080256	20	4146
2026-01-10 23:16:12.12	112.33	30.60	-29.8	-30.6	14.2	9.90e-06	0	42	0	719323136	20	3970
2026-01-10 23:16:15.14	113.33	30.41	-30.0	-31.4	13.7	0.00e+00	0	42	0	725614592	20	4206
2026-01-10 23:16:18.15	114.31	30.21	-30.2	-31.8	13.3	1.98e-05	0	42	0	730857472	20	4330
2026-01-10 23:16:21.17	115.29	30.01	-29.9	-31.1	13.8	3.80e-06	0	42	0	736100352	20	4137
2026-01-10 23:16:24.19	116.25	29.80	-30.7	-32.8	12.4	1.49e-04	0	42	0	742391808	21	4565
2026-01-10 23:16:27.20	117.20	29.58	-30.4	-32.0	12.9	3.96e-05	0	42	0	747634688	21	4318
2026-01-10 23:16:30.22	118.13	29.35	-30.4	-31.9	13.0	4.57e-05	0	42	0	753926144	21	4281
2026-01-10 23:16:33.24	119.06	29.12	-30.5	-32.3	12.7	8.31e-05	0	42	0	759169024	21	4397
2026-01-10 23:16:36.25	119.96	28.88	-30.1	-31.2	13.4	8.30e-06	0	42	0	764411904	21	4067
2026-01-10 23:16:39.27	120.86	28.64	-30.9	-33.2	12.0	1.88e-04	0	42	0	770703360	21	4733
2026-01-10 23:16:42.29	121.74	28.39	-30.3	-31.7	13.1	5.34e-05	0	42	0	775946240	21	4223
2026-01-10 23:16:45.30	122.61	28.14	-30.3	-31.7	13.0	2.51e-05	0	42	0	782237696	21	4230
2026-01-10 23:16:48.32	123.47	27.88	-30.2	-31.5	13.2	1.98e-05	0	42	0	787480576	21	4153
2026-01-10 23:16:51.33	124.31	27.62	-31.1	-33.4	11.5	5.35e-04	0	42	0	792723456	22	4709
2026-01-10 23:16:54.35	125.14	27.35	-31.3	-33.5	11.1	2.39e-03	0	42	0	799014912	23	4668
2026-01-10 23:16:57.37	125.96	27.08	-30.7	-32.2	12.3	2.48e-04	0	42	0	804257792	22	4299
2026-01-10 23:17:00.40	126.76	26.81	-31.7	-35.1	9.9	7.76e-03	0	42	0	810549248	23	5303
2026-01-10 23:17:03.41	127.55	26.53	-30.8	-32.2	11.9	4.69e-04	0	42	0	815792128	23	4222
2026-01-10 23:17:06.44	128.33	26.25	-31.0	-33.6	11.7	2.62e-04	0	42	0	821035008	21	4872
2026-01-10 23:17:09.46	129.09	25.97	-31.2	-33.4	11.1	3.29e-03	0	42	0	827326464	23	4626
2026-01-10 23:17:12.48	129.84	25.68	-30.9	-32.6	11.7	6.03e-04	0	42	0	832569344	23	4332
2026-01-10 23:17:15.50	130.58	25.40	-31.8	-35.6	9.5	1.30e-02	0	42	0	838860800	23	5538
2026-01-10 23:17:18.51	131.30	25.11	-30.9	-32.3	11.8	6.98e-04	0	42	0	844103680	23	4258
2026-01-10 23:17:21.52	132.01	24.82	-31.1	-33.7	11.2	1.09e-03	0	42	0	849346560	22	4829
2026-01-10 23:17:24.54	132.70	24.53	-30.8	-32.1	11.9	8.19e-04	0	42	0	855638016	23	4195
2026-01-10 23:17:27.56	133.39	24.24	-30.3	-31.6	13.0	2.28e-05	0	42	0	860880896	21	4196
2026-01-10 23:17:30.57	134.06	23.95	-31.0	-33.3	11.4	1.09e-03	0	42	0	866123776	22	4709
2026-01-10 23:17:33.59	134.72	23.66	-30.2	-32.2	12.8	6.89e-04	0	42	0	872415232	20	4509
2026-01-10 23:17:36.60	135.37	23.37	-30.6	-32.8	12.1	2.33e-04	0	42	0	877658112	21	4630
2026-01-10 23:17:39.62	136.01	23.07	-31.4	-34.3	10.3	5.93e-03	0	42	0	883949568	23	5013
2026-01-10 23:17:42.63	136.63	22.78	-30.7	-32.5	11.9	9.80e-04	0	42	0	889192448	22	4445
2026-01-10 23:17:45.64	137.24	22.49	-30.0	-31.7	13.1	2.44e-05	0	42	0	894435328	20	4349
2026-01-10 23:17:48.66	137.85	22.19	-29.5	-30.6	14.1	1.46e-04	0	42	0	900726784	19	4088
2026-01-10 23:17:51.67	138.44	21.90	-28.6	-28.9	15.5	2.24e-04	0	42	0	905969664	18	3731
2026-01-10 23:17:54.68	139.02	21.61	-29.5	-30.7	14.0	9.80e-04	0	42	0	912261120	19	4135
2026-01-10 23:17:57.70	139.59	21.32	-30.4	-32.8	12.3	1.53e-03	0	42	0	917504000	20	4715
2026-01-10 23:18:00.72	140.15	21.02	-30.2	-32.1	12.8	1.17e-03	0	42	0	922746880	20	4494
2026-01-10 23:18:03.74	140.70	20.73	-29.7	-31.4	13.6	8.10e-04	0	42	0	929038336	19	4337
2026-01-10 23:18:06.76	141.24	20.44	-29.7	-31.3	13.6	3.80e-06	0	42	0	934281216	19	4315
2026-01-10 23:18:09.77	141.77	20.15	-29.5	-30.6	14.0	1.52e-03	0	42	0	940572672	19	4112
2026-01-10 23:18:12.79	142.29	19.86	-29.4	-30.5	14.1	1.79e-03	0	42	0	945815552	19	4083
2026-01-10 23:18:15.80	142.80	19.58	-29.4	-30.8	14.2	1.51e-03	0	42	0	951058432	18	4261
2026-01-10 23:18:18.82	143.30	19.29	-29.4	-30.4	14.1	1.52e-03	0	42	0	957349888	19	4058
2026-01-10 23:18:21.82	143.79	19.01	-29.6	-31.0	13.7	9.10e-06	0	42	0	962592768	19	4240
2026-01-10 23:18:24.84	144.27	18.72	-29.3	-30.8	14.1	2.20e-06	0	42	0	967835648	18	4270
2026-01-10 23:18:27.85	144.75	18.44	-29.3	-30.7	14.2	0.00e+00	0	42	0	974127104	18	4230
2026-01-10 23:18:30.87	145.22	18.16	-29.3	-30.9	14.0	3.00e-06	0	42	0	979369984	18	4305
2026-01-10 23:18:33.88	145.67	17.88	-29.6	-31.1	13.5	9.90e-06	0	42	0	985661440	19	4274
2026-01-10 23:18:36.90	146.12	17.60	-29.4	-30.5	13.8	5.30e-06	0	42	0	990904320	19	4087
2026-01-10 23:18:39.92	146.57	17.33	-29.4	-30.5	13.9	5.30e-06	0	42	0	996147200	19	4095
2026-01-10 23:18:42.95	147.00	17.05	-29.7	-31.5	13.2	2.21e-05	0	42	0	1002438656	19	4393
2026-01-10 23:18:45.96	147.43	16.78	-30.1	-32.2	12.3	1.49e-04	0	42	0	1007681536	20	4548
2026-01-10 23:18:48.98	147.85	16.50	-30.5	-33.2	11.6	3.71e-04	0	42	0	1013972992	20	4939
2026-01-10 23:18:51.99	148.26	16.23	-29.7	-32.2	11.6	4.26e-04	0	42	0	1019215872	20	4777
2026-01-10 23:18:55.01	148.67	15.97	-30.2	-32.5	12.0	2.46e-04	0	42	0	1024458752	20	4662
2026-01-10 23:18:58.03	149.07	15.70	-30.0	-32.2	12.6	8.16e-05	0	42	0	1030750208	19	4657
2026-01-10 23:19:01.05	149.46	15.43	-30.1	-32.2	12.1	2.42e-03	0	42	0	1035993088	20	4577
2026-01-10 23:19:04.06	149.84	15.17	-30.4	-33.2	11.5	3.44e-03	0	42	0	1042284544	20	4937
2026-01-10 23:19:07.07	150.22	14.91	-30.3	-32.9	11.6	3.57e-03	0	42	0	1047527424	20	4849
2026-01-10 23:19:10.09	150.59	14.65	-30.2	-32.4	11.9	4.72e-04	0	42	0	1052770304	20	4663
2026-01-10 23:19:13.11	150.96	14.39	-29.9	-31.8	12.3	1.08e-04	0	42	0	1059061760	20	4437
2026-01-10 23:19:16.13	151.32	14.13	-30.2	-32.4	11.8	3.97e-04	0	42	0	1064304640	20	4685
2026-01-10 23:19:19.14	151.67	13.87	-30.1	-32.5	11.8	3.42e-03	0	42	0	1070596096	20	4727
2026-01-10 23:19:22.16	152.02	13.62	-30.0	-32.0	12.0	3.13e-03	0	42	0	1075838976	20	4569
2026-01-10 23:19:25.18	152.36	13.37	-30.0	-32.1	12.0	3.00e-03	0	42	0	1081081856	20	4582
2026-01-10 23:19:28.18	152.70	13.12	-29.8	-32.0	12.5	2.53e-03	0	42	0	1087373312	19	4629
2026-01-10 23:19:31.20	153.03	12.87	-29.9	-32.4	12.3	2.83e-03	0	42	0	1092616192	19	4760
2026-01-10 23:19:34.21	153.35	12.62	-29.9	-32.0	12.0	2.23e-04	0	42	0	1098907648	20	4566
2026-01-10 23:19:37.22	153.67	12.38	-30.5	-33.3	10.7	3.05e-03	0	42	0	1104150528	21	4962
2026-01-10 23:19:40.24	153.99	12.14	-30.6	-33.4	10.7	5.92e-03	0	42	0	1109393408	21	4991
2026-01-10 23:19:43.26	154.30	11.89	-30.2	-32.7	11.5	4.13e-03	0	42	0	1115684864	20	4793
2026-01-10 23:19:46.27	154.61	11.65	-30.0	-32.1	12.0	2.60e-03	0	42	0	1120927744	20	4598
2026-01-10 23:19:49.28	154.91	11.42	-30.0	-32.2	11.9	2.94e-03	0	42	0	1126170624	20	4611
2026-01-10 23:19:52.30	155.20	11.18	-29.9	-31.7	12.2	3.00e-04	0	42	0	1132462080	20	4449
2026-01-10 23:19:55.31	155.49	10.94	-30.0	-32.1	12.0	2.99e-04	0	42	0	1137704960	20	4579
2026-01-10 23:19:58.33	155.78	10.71	-30.0	-32.2	11.9	4.26e-04	0	42	0	1143996416	20	4624
2026-01-10 23:20:01.33	156.06	10.48	-29.9	-32.0	12.0	3.19e-04	0	42	0	1149239296	20	4562
2026-01-10 23:20:04.35	156.34	10.25	-29.9	-32.4	12.0	2.23e-04	0	42	0	1154482176	19	4786
2026-01-10 23:20:07.37	156.62	10.02	-29.8	-32.1	12.3	1.74e-04	0	42	0	1160773632	19	4678
2026-01-10 23:20:10.39	156.89	9.79	-29.8	-32.0	12.4	1.40e-04	0	42	0	1166016512	19	4636
2026-01-10 23:20:13.41	157.15	9.56	-29.6	-31.4	12.8	5.34e-05	0	42	0	1172307968	19	4434
2026-01-10 23:20:16.41	157.42	9.34	-29.8	-31.8	12.5	1.59e-04	0	42	0	1177550848	19	4570
2026-01-10 23:20:19.44	157.68	9.12	-30.0	-32.1	11.8	2.29e-04	0	42	0	1182793728	20	4586
2026-01-10 23:20:22.45	157.93	8.90	-29.9	-32.3	12.1	2.04e-04	0	42	0	1189085184	19	4759
2026-01-10 23:20:25.47	158.18	8.68	-30.0	-32.0	11.8	4.01e-04	0	42	0	1194328064	20	4579
2026-01-10 23:20:28.46	158.43	8.46	-30.1	-32.5	11.5	9.04e-04	0	42	0	1200619520	20	4756
2026-01-10 23:20:31.47	158.67	8.24	-30.2	-32.7	11.3	1.00e-03	0	42	0	1205862400	20	4817
2026-01-10 23:20:34.49	158.91	8.03	-30.3	-33.0	11.1	1.38e-03	0	42	0	1211105280	20	4928
2026-01-10 23:20:37.51	159.15	7.81	-30.4	-33.4	10.8	2.90e-03	0	42	0	1217396736	20	5107
2026-01-10 23:20:40.53	159.38	7.60	-30.1	-32.7	11.3	1.52e-03	0	42	0	1222639616	20	4837
2026-01-10 23:20:43.54	159.62	7.39	-30.3	-33.5	10.6	2.06e-03	0	42	0	1227882496	20	5169
2026-01-10 23:20:46.55	159.84	7.18	-30.5	-34.0	10.2	4.85e-03	0	42	0	1234173952	20	5396
2026-01-10 23:20:49.57	160.07	6.97	-32.7	-45.2	3.8	1.49e+00	0	42	104	1237319680	25	15337

#Closed at: 2026-01-10 23:20:50
#Recorded file [1237 MB]: D:/data/31010_260111_020948.dat