passes_logs/2026/01/10/R2M6_AANII_01/R2M6_AANII_01__20260110_020839_FENGYUN_3D_rec.log

#Pass ID: 20260110_020839_FENGYUN 3D
#Satellite: FENGYUN 3D
#Configuration: FENGYUN 3D
#almurnet v.1.7.20240730
#Start time: 2026-01-10 02:08:40

#Version: 2.2.20231116
#Station: R2M6_AANII_01
#Location: 30.233357 lon 59.946436 lat
#TLE: 1 43010U 17072A   26009.29492227  .00000158  00000+0  96483-4 0  9996
#TLE: 2 43010  98.9936 341.0229 0002153 117.3665 242.7729 14.19694440422446

#Time	Az	El	Level	Level2	SNR	BER	BlckErr	Temp	State	Recorded	gain1	gain2
2026-01-10 02:08:40.37	20.11	7.04	-28.3	-30.5	5.6	7.77e-01	0	39	0	0	17	4647
2026-01-10 02:08:43.36	20.17	7.27	-28.1	-29.9	12.0	6.86e-04	0	39	0	5242880	17	4452
2026-01-10 02:08:46.35	20.22	7.50	-27.7	-29.5	12.6	3.48e-04	0	39	0	22020096	16	4442
2026-01-10 02:08:49.36	20.28	7.74	-26.7	-28.2	13.9	4.50e-06	0	40	0	38797312	14	4268
2026-01-10 02:08:52.36	20.34	7.97	-26.0	-27.1	14.8	1.10e-06	0	40	0	55574528	13	4077
2026-01-10 02:08:55.36	20.40	8.21	-26.9	-29.1	13.6	3.40e-06	0	40	0	72351744	13	4656
2026-01-10 02:08:58.37	20.47	8.45	-27.4	-29.3	12.8	1.01e-04	0	40	0	90177536	15	4486
2026-01-10 02:09:01.38	20.53	8.70	-26.3	-27.7	14.6	0.00e+00	0	40	0	106954752	13	4228
2026-01-10 02:09:04.39	20.59	8.94	-26.1	-27.4	14.7	1.10e-06	0	40	0	123731968	13	4151
2026-01-10 02:09:07.40	20.66	9.19	-26.3	-28.1	14.5	0.00e+00	0	40	0	140509184	12	4470
2026-01-10 02:09:10.40	20.72	9.44	-26.0	-27.6	15.0	1.10e-06	0	40	0	157286400	12	4308
2026-01-10 02:09:13.41	20.79	9.70	-25.6	-26.6	15.5	0.00e+00	0	40	0	174063616	12	4041
2026-01-10 02:09:16.43	20.85	9.96	-25.8	-27.2	15.2	2.20e-06	0	40	0	190840832	12	4200
2026-01-10 02:09:19.43	20.92	10.21	-26.3	-28.2	14.6	1.10e-06	0	40	0	208666624	12	4483
2026-01-10 02:09:22.45	20.99	10.48	-25.9	-27.4	15.1	0.00e+00	0	40	0	225443840	12	4256
2026-01-10 02:09:25.47	21.06	10.74	-25.7	-26.9	15.3	0.00e+00	0	41	0	242221056	12	4136
2026-01-10 02:09:28.48	21.13	11.01	-25.7	-26.9	15.4	1.10e-06	0	41	0	258998272	12	4117
2026-01-10 02:09:31.47	21.20	11.28	-25.6	-26.6	15.6	0.00e+00	0	41	0	275775488	12	4054
2026-01-10 02:09:34.48	21.28	11.55	-25.6	-26.7	15.5	0.00e+00	0	41	0	292552704	12	4083
2026-01-10 02:09:37.47	21.35	11.83	-25.6	-26.6	15.6	0.00e+00	0	41	0	309329920	12	4044
2026-01-10 02:09:40.47	21.43	12.11	-25.4	-26.1	16.0	0.00e+00	0	41	0	326107136	12	3913
2026-01-10 02:09:43.47	21.50	12.39	-25.4	-26.2	15.9	0.00e+00	0	41	0	343932928	12	3950
2026-01-10 02:09:46.49	21.58	12.68	-25.6	-26.7	15.6	0.00e+00	0	41	0	360710144	12	4062
2026-01-10 02:09:49.48	21.66	12.97	-25.4	-26.3	15.9	0.00e+00	0	41	0	377487360	12	3964
2026-01-10 02:09:52.50	21.74	13.26	-25.4	-26.2	15.9	0.00e+00	0	41	0	394264576	12	3945
2026-01-10 02:09:55.50	21.82	13.56	-25.4	-26.2	15.9	0.00e+00	0	41	0	411041792	12	3937
2026-01-10 02:09:58.50	21.90	13.85	-25.3	-26.1	16.0	0.00e+00	0	41	0	427819008	12	3905
2026-01-10 02:10:01.50	21.99	14.16	-25.3	-26.4	16.2	0.00e+00	0	41	0	444596224	11	4083
2026-01-10 02:10:04.50	22.07	14.47	-25.3	-26.4	16.2	0.00e+00	0	41	0	461373440	11	4098
2026-01-10 02:10:07.51	22.16	14.78	-25.0	-25.8	16.5	0.00e+00	0	41	0	478150656	11	3934
2026-01-10 02:10:10.51	22.25	15.09	-25.2	-26.1	16.4	0.00e+00	0	41	0	494927872	11	4026
2026-01-10 02:10:13.52	22.34	15.41	-24.9	-26.0	16.7	0.00e+00	0	41	0	512753664	10	4108
2026-01-10 02:10:16.53	22.43	15.74	-24.7	-25.6	16.9	0.00e+00	0	41	0	529530880	10	3989
2026-01-10 02:10:19.53	22.53	16.06	-24.6	-25.3	17.1	0.00e+00	0	41	0	546308096	10	3931
2026-01-10 02:10:22.54	22.62	16.40	-24.5	-25.1	17.2	0.00e+00	0	41	0	563085312	10	3888
2026-01-10 02:10:25.54	22.72	16.73	-24.4	-25.6	17.2	0.00e+00	0	41	0	579862528	9	4094
2026-01-10 02:10:28.56	22.82	17.08	-24.1	-24.8	17.7	0.00e+00	0	41	0	596639744	9	3911
2026-01-10 02:10:31.56	22.92	17.42	-24.1	-24.9	17.6	0.00e+00	0	41	0	613416960	9	3929
2026-01-10 02:10:34.57	23.03	17.78	-23.8	-24.7	18.0	0.00e+00	0	41	0	631242752	8	3982
2026-01-10 02:10:37.58	23.13	18.13	-24.0	-25.1	17.8	0.00e+00	0	41	0	648019968	8	4077
2026-01-10 02:10:40.59	23.24	18.50	-24.4	-25.4	17.3	0.00e+00	0	41	0	664797184	9	4069
2026-01-10 02:10:43.59	23.35	18.86	-24.6	-26.0	17.1	0.00e+00	0	41	0	681574400	9	4210
2026-01-10 02:10:46.60	23.47	19.23	-24.0	-24.6	17.8	0.00e+00	0	41	0	698351616	9	3866
2026-01-10 02:10:49.61	23.58	19.61	-23.9	-24.5	17.9	0.00e+00	0	41	0	715128832	9	3831
2026-01-10 02:10:52.61	23.70	20.00	-23.6	-24.2	18.3	0.00e+00	0	41	0	731906048	8	3875
2026-01-10 02:10:55.62	23.82	20.39	-23.8	-24.6	18.1	0.00e+00	0	41	0	749731840	8	3975
2026-01-10 02:10:58.62	23.94	20.78	-23.7	-24.4	18.2	0.00e+00	0	41	0	766509056	8	3916
2026-01-10 02:11:01.63	24.07	21.19	-23.6	-24.3	18.3	0.00e+00	0	41	0	783286272	8	3905
2026-01-10 02:11:04.63	24.20	21.59	-23.6	-24.3	18.3	0.00e+00	0	41	0	800063488	8	3895
2026-01-10 02:11:07.63	24.33	22.01	-23.4	-23.9	18.6	0.00e+00	0	41	0	816840704	8	3799
2026-01-10 02:11:10.64	24.47	22.43	-23.3	-24.0	18.7	0.00e+00	0	41	0	833617920	7	3937
2026-01-10 02:11:13.62	24.61	22.86	-23.3	-24.1	18.7	0.00e+00	0	41	0	850395136	7	3953
2026-01-10 02:11:16.63	24.75	23.29	-22.8	-23.0	19.2	0.00e+00	0	41	0	867172352	7	3703
2026-01-10 02:11:19.63	24.90	23.74	-22.6	-23.1	19.4	0.00e+00	0	41	0	883949568	6	3833
2026-01-10 02:11:22.64	25.05	24.19	-23.0	-24.0	19.0	0.00e+00	0	41	0	900726784	6	4045
2026-01-10 02:11:25.64	25.20	24.65	-22.8	-23.5	19.3	0.00e+00	0	42	0	918552576	6	3916
2026-01-10 02:11:28.65	25.36	25.11	-22.7	-23.4	19.4	0.00e+00	0	42	0	935329792	6	3903
2026-01-10 02:11:31.67	25.52	25.59	-22.7	-23.3	19.5	0.00e+00	0	41	0	952107008	6	3858
2026-01-10 02:11:34.67	25.69	26.08	-22.9	-23.7	19.2	0.00e+00	0	41	0	968884224	6	3969
2026-01-10 02:11:37.68	25.86	26.57	-22.7	-23.4	19.4	0.00e+00	0	41	0	985661440	6	3900
2026-01-10 02:11:40.69	26.04	27.07	-22.8	-23.6	19.3	0.00e+00	0	41	0	1002438656	6	3930
2026-01-10 02:11:43.70	26.23	27.58	-22.9	-23.9	19.1	0.00e+00	0	42	0	1019215872	6	4003
2026-01-10 02:11:46.71	26.41	28.10	-23.1	-24.1	19.0	0.00e+00	0	42	0	1035993088	6	4061
2026-01-10 02:11:49.71	26.61	28.63	-22.5	-22.8	19.7	0.00e+00	0	42	0	1053818880	6	3759
2026-01-10 02:11:52.73	26.81	29.17	-22.4	-22.8	19.7	0.00e+00	0	41	0	1070596096	6	3743
2026-01-10 02:11:55.73	27.02	29.72	-22.6	-23.2	19.5	0.00e+00	0	41	0	1087373312	6	3832
2026-01-10 02:11:58.73	27.23	30.28	-22.6	-23.1	19.6	0.00e+00	0	42	0	1104150528	6	3812
2026-01-10 02:12:01.74	27.45	30.85	-23.0	-23.9	19.2	0.00e+00	0	42	0	1120927744	6	4002
2026-01-10 02:12:04.75	27.68	31.44	-22.9	-23.7	19.3	0.00e+00	0	42	0	1137704960	6	3967
2026-01-10 02:12:07.76	27.92	32.03	-23.0	-23.9	19.2	0.00e+00	0	42	0	1154482176	6	4018
2026-01-10 02:12:10.77	28.17	32.64	-22.7	-23.4	19.5	0.00e+00	0	42	0	1172307968	6	3881
2026-01-10 02:12:13.77	28.42	33.25	-22.7	-23.5	19.5	0.00e+00	0	42	0	1189085184	6	3905
2026-01-10 02:12:16.77	28.68	33.88	-22.4	-22.8	19.8	0.00e+00	0	42	0	1205862400	6	3752
2026-01-10 02:12:19.78	28.96	34.53	-22.4	-22.8	19.8	0.00e+00	0	42	0	1222639616	6	3762
2026-01-10 02:12:22.78	29.24	35.18	-22.6	-23.2	19.6	0.00e+00	0	42	0	1239416832	6	3849
2026-01-10 02:12:25.79	29.54	35.85	-22.3	-22.5	20.0	0.00e+00	0	42	0	1256194048	6	3684
2026-01-10 02:12:28.79	29.85	36.53	-22.4	-23.1	19.9	0.00e+00	0	42	0	1272971264	5	3936
2026-01-10 02:12:31.79	30.17	37.22	-22.4	-23.2	19.8	0.00e+00	0	42	0	1289748480	5	3961
2026-01-10 02:12:34.80	30.50	37.93	-22.8	-24.0	19.5	0.00e+00	0	42	0	1306525696	5	4148
2026-01-10 02:12:37.79	30.85	38.65	-22.1	-22.6	20.2	0.00e+00	0	42	0	1324351488	5	3801
2026-01-10 02:12:40.79	31.21	39.39	-22.3	-23.0	20.0	0.00e+00	0	42	0	1341128704	5	3898
2026-01-10 02:12:43.80	31.59	40.14	-22.5	-23.5	19.8	0.00e+00	0	42	0	1357905920	5	4018
2026-01-10 02:12:46.80	31.99	40.91	-22.3	-23.1	20.0	0.00e+00	0	42	0	1374683136	5	3917
2026-01-10 02:12:49.79	32.40	41.69	-22.3	-23.0	20.0	0.00e+00	0	42	0	1391460352	5	3891
2026-01-10 02:12:52.79	32.84	42.49	-22.7	-23.7	19.7	0.00e+00	0	42	0	1408237568	5	4080
2026-01-10 02:12:55.79	33.30	43.30	-22.7	-23.8	19.6	0.00e+00	0	41	0	1425014784	5	4096
2026-01-10 02:12:58.80	33.78	44.13	-23.0	-23.9	19.4	0.00e+00	0	42	0	1441792000	6	4002
2026-01-10 02:13:01.81	34.29	44.98	-23.1	-24.1	19.3	0.00e+00	0	42	0	1458569216	6	4051
2026-01-10 02:13:04.81	34.82	45.84	-23.1	-23.6	19.3	0.00e+00	0	42	0	1475346432	7	3818
2026-01-10 02:13:07.82	35.39	46.72	-22.5	-23.0	19.9	0.00e+00	0	42	0	1493172224	6	3792
2026-01-10 02:13:10.83	35.99	47.61	-22.6	-23.1	19.9	0.00e+00	0	42	0	1509949440	6	3804
2026-01-10 02:13:13.82	36.62	48.52	-22.6	-23.1	19.9	0.00e+00	0	42	0	1526726656	6	3819
2026-01-10 02:13:16.84	37.29	49.45	-22.7	-23.2	19.8	0.00e+00	0	42	0	1543503872	6	3839
2026-01-10 02:13:19.84	38.00	50.39	-22.9	-23.7	19.5	0.00e+00	0	42	0	1560281088	6	3965
2026-01-10 02:13:22.84	38.76	51.34	-23.2	-24.4	19.2	0.00e+00	0	42	0	1577058304	6	4122
2026-01-10 02:13:25.85	39.56	52.31	-23.3	-24.5	19.2	0.00e+00	0	42	0	1593835520	6	4154
2026-01-10 02:13:28.85	40.42	53.29	-23.5	-24.4	19.0	0.00e+00	0	42	0	1610612736	7	4008
2026-01-10 02:13:31.86	41.35	54.29	-23.6	-24.2	18.9	0.00e+00	0	42	0	1628438528	8	3853
2026-01-10 02:13:34.87	42.33	55.30	-24.3	-25.6	18.2	0.00e+00	0	42	0	1645215744	8	4212
2026-01-10 02:13:37.87	43.39	56.31	-23.8	-24.6	18.7	0.00e+00	0	42	0	1661992960	8	3941
2026-01-10 02:13:40.88	44.53	57.34	-23.5	-24.0	19.0	0.00e+00	0	42	0	1678770176	8	3797
2026-01-10 02:13:43.88	45.76	58.38	-23.3	-24.0	19.3	0.00e+00	0	42	0	1695547392	7	3916
2026-01-10 02:13:46.88	47.08	59.41	-22.7	-23.3	19.8	0.00e+00	0	42	0	1712324608	6	3859
2026-01-10 02:13:49.90	48.52	60.46	-22.5	-22.9	20.1	0.00e+00	0	41	0	1729101824	6	3758
2026-01-10 02:13:52.89	50.07	61.50	-22.5	-22.9	20.1	0.00e+00	0	42	0	1745879040	6	3770
2026-01-10 02:13:55.90	51.77	62.54	-22.2	-22.8	20.4	0.00e+00	0	42	0	1763704832	5	3862
2026-01-10 02:13:58.90	53.61	63.57	-22.5	-23.5	20.1	0.00e+00	0	42	0	1780482048	5	4014
2026-01-10 02:14:01.90	55.62	64.59	-22.1	-22.6	20.5	0.00e+00	0	42	0	1797259264	5	3807
2026-01-10 02:14:04.91	57.82	65.60	-22.0	-22.3	20.7	0.00e+00	0	42	0	1814036480	5	3738
2026-01-10 02:14:07.93	60.24	66.58	-22.2	-22.7	20.5	0.00e+00	0	42	0	1830813696	5	3837
2026-01-10 02:14:10.93	62.86	67.53	-22.3	-23.0	20.3	0.00e+00	0	42	0	1847590912	5	3889
2026-01-10 02:14:13.93	65.74	68.45	-22.3	-23.4	20.4	0.00e+00	0	42	0	1864368128	4	4107
2026-01-10 02:14:16.94	68.89	69.32	-21.8	-22.5	20.8	0.00e+00	0	42	0	1881145344	4	3884
2026-01-10 02:14:19.95	72.34	70.14	-22.0	-22.9	20.7	0.00e+00	0	42	0	1898971136	4	3982
2026-01-10 02:14:22.96	76.09	70.89	-21.8	-22.4	20.9	0.00e+00	0	42	0	1915748352	4	3867
2026-01-10 02:14:25.97	80.14	71.56	-21.8	-22.9	21.0	0.00e+00	0	42	0	1932525568	3	4103
2026-01-10 02:14:28.98	84.50	72.14	-22.1	-23.0	20.6	0.00e+00	0	42	0	1949302784	4	4020
2026-01-10 02:14:31.98	89.12	72.62	-21.4	-22.1	21.4	0.00e+00	0	42	0	1966080000	3	3905
2026-01-10 02:14:34.98	93.99	72.99	-21.8	-22.8	21.1	0.00e+00	0	42	0	1982857216	3	4076
2026-01-10 02:14:37.98	99.05	73.24	-21.4	-22.1	21.1	0.00e+00	0	42	0	1999634432	3	3932
2026-01-10 02:14:40.99	104.24	73.36	-21.5	-22.4	21.0	0.00e+00	0	42	0	2016411648	3	3981
2026-01-10 02:14:43.99	109.46	73.36	-21.4	-22.1	21.2	0.00e+00	0	42	0	2034237440	3	3920
2026-01-10 02:14:47.01	114.66	73.22	-21.7	-22.8	20.9	0.00e+00	0	42	0	2051014656	3	4077
2026-01-10 02:14:50.02	119.71	72.95	-22.2	-23.5	20.2	0.00e+00	0	42	0	2067791872	4	4141
2026-01-10 02:14:53.02	124.55	72.56	-22.4	-23.3	20.1	0.00e+00	0	42	0	2084569088	5	3990
2026-01-10 02:14:56.02	129.14	72.07	-22.8	-23.5	19.9	0.00e+00	0	42	0	2101346304	6	3921
2026-01-10 02:14:59.02	133.45	71.47	-21.9	-22.2	20.7	0.00e+00	0	42	0	2118123520	5	3716
2026-01-10 02:15:02.02	137.45	70.79	-22.3	-23.5	20.3	0.00e+00	0	42	0	2134900736	4	4154
2026-01-10 02:15:05.01	141.14	70.03	-22.5	-23.5	20.0	0.00e+00	0	42	0	2151677952	5	4033
2026-01-10 02:15:08.01	144.54	69.21	-22.6	-23.7	19.9	0.00e+00	0	42	0	2168455168	5	4074
2026-01-10 02:15:11.02	147.66	68.33	-22.4	-22.9	20.1	0.00e+00	0	42	0	2186280960	6	3773
2026-01-10 02:15:14.03	150.52	67.41	-22.1	-22.7	20.4	0.00e+00	0	42	0	2203058176	5	3840
2026-01-10 02:15:17.04	153.13	66.45	-22.3	-23.1	20.2	0.00e+00	0	42	0	2219835392	5	3950
2026-01-10 02:15:20.04	155.50	65.46	-22.2	-22.9	20.3	0.00e+00	0	42	0	2236612608	5	3894
2026-01-10 02:15:23.04	157.68	64.45	-22.0	-22.3	20.6	0.00e+00	0	42	0	2253389824	5	3753
2026-01-10 02:15:26.03	159.66	63.43	-22.7	-23.9	19.8	0.00e+00	0	42	0	2270167040	5	4132
2026-01-10 02:15:29.04	161.49	62.39	-22.3	-23.0	20.2	0.00e+00	0	42	0	2286944256	5	3917
2026-01-10 02:15:32.05	163.17	61.35	-22.5	-23.4	20.0	0.00e+00	0	42	0	2303721472	5	4017
2026-01-10 02:15:35.06	164.71	60.30	-23.1	-24.2	19.5	0.00e+00	0	42	0	2320498688	6	4071
2026-01-10 02:15:38.08	166.14	59.25	-23.3	-24.1	19.3	0.00e+00	0	42	0	2338324480	7	3948
2026-01-10 02:15:41.08	167.45	58.21	-24.1	-25.3	18.5	0.00e+00	0	42	0	2355101696	8	4126
2026-01-10 02:15:44.07	168.67	57.18	-24.3	-25.8	18.2	0.00e+00	0	42	0	2371878912	8	4262
2026-01-10 02:15:47.09	169.80	56.14	-24.5	-25.7	17.9	3.40e-06	0	42	0	2388656128	9	4132
2026-01-10 02:15:50.10	170.85	55.12	-24.2	-25.1	18.3	3.40e-06	0	42	0	2405433344	9	3966
2026-01-10 02:15:53.11	171.83	54.11	-24.4	-25.5	18.0	0.00e+00	0	42	0	2422210560	9	4076
2026-01-10 02:15:56.11	172.74	53.12	-23.9	-24.4	18.6	3.40e-06	0	42	0	2438987776	9	3798
2026-01-10 02:15:59.12	173.60	52.13	-23.8	-24.2	18.7	0.00e+00	0	42	0	2456813568	9	3770
2026-01-10 02:16:02.14	174.40	51.15	-23.9	-24.8	18.6	0.00e+00	0	42	0	2473590784	8	4021
2026-01-10 02:16:05.15	175.15	50.20	-23.6	-24.2	18.9	0.00e+00	0	42	0	2490368000	8	3880
2026-01-10 02:16:08.15	175.86	49.26	-23.2	-23.9	19.3	0.00e+00	0	42	0	2507145216	7	3893
2026-01-10 02:16:11.16	176.52	48.33	-23.7	-25.0	18.7	1.10e-06	0	42	0	2523922432	7	4174
2026-01-10 02:16:14.17	177.15	47.42	-23.2	-24.0	19.2	0.00e+00	0	42	0	2540699648	7	3927
2026-01-10 02:16:17.17	177.74	46.52	-23.8	-25.2	18.6	0.00e+00	0	42	0	2557476864	7	4215
2026-01-10 02:16:20.19	178.30	45.64	-23.1	-23.8	19.3	0.00e+00	0	42	0	2575302656	7	3875
2026-01-10 02:16:23.19	178.84	44.78	-23.2	-23.9	19.2	0.00e+00	0	42	0	2592079872	7	3914
2026-01-10 02:16:26.19	179.34	43.93	-22.9	-23.3	19.5	0.00e+00	0	42	0	2608857088	7	3777
2026-01-10 02:16:29.19	179.82	43.10	-22.5	-22.9	19.9	0.00e+00	0	42	0	2625634304	6	3781
2026-01-10 02:16:32.20	180.27	42.29	-22.4	-22.8	19.9	0.00e+00	0	42	0	2642411520	6	3752
2026-01-10 02:16:35.21	180.71	41.49	-22.6	-23.1	19.8	0.00e+00	0	42	0	2659188736	6	3829
2026-01-10 02:16:38.21	181.12	40.70	-22.3	-22.6	20.0	0.00e+00	0	42	0	2675965952	6	3724
2026-01-10 02:16:41.21	181.51	39.94	-22.0	-22.5	20.3	0.00e+00	0	42	0	2692743168	5	3797
2026-01-10 02:16:44.21	181.89	39.18	-22.2	-22.8	20.1	0.00e+00	0	42	0	2709520384	5	3859
2026-01-10 02:16:47.22	182.25	38.44	-22.7	-23.8	19.6	0.00e+00	0	42	0	2726297600	5	4113
2026-01-10 02:16:50.22	182.60	37.72	-22.4	-23.3	19.8	0.00e+00	0	42	0	2744123392	5	3980
2026-01-10 02:16:53.23	182.93	37.01	-22.3	-23.1	19.9	0.00e+00	0	42	0	2760900608	5	3951
2026-01-10 02:16:56.23	183.24	36.31	-23.6	-24.7	18.7	0.00e+00	0	42	0	2777677824	7	4105
2026-01-10 02:16:59.23	183.55	35.63	-23.9	-24.8	18.4	0.00e+00	0	42	0	2794455040	8	4026
2026-01-10 02:17:02.25	183.84	34.96	-23.1	-24.3	19.2	0.00e+00	0	42	0	2811232256	6	4112
2026-01-10 02:17:05.24	184.12	34.31	-22.6	-23.2	19.7	0.00e+00	0	42	0	2828009472	6	3860
2026-01-10 02:17:08.25	184.40	33.67	-22.9	-23.2	19.5	0.00e+00	0	42	0	2844786688	7	3760
2026-01-10 02:17:11.26	184.66	33.03	-23.3	-24.2	19.0	0.00e+00	0	42	0	2861563904	7	3974
2026-01-10 02:17:14.26	184.91	32.42	-23.6	-24.2	18.7	0.00e+00	0	42	0	2879389696	8	3882
2026-01-10 02:17:17.27	185.15	31.81	-23.1	-23.8	19.1	0.00e+00	0	42	0	2896166912	7	3898
2026-01-10 02:17:20.27	185.39	31.22	-23.9	-25.4	18.3	0.00e+00	0	42	0	2912944128	7	4279
2026-01-10 02:17:23.27	185.61	30.64	-25.5	-26.9	16.5	0.00e+00	0	42	0	2929721344	11	4219
2026-01-10 02:17:26.28	185.83	30.06	-24.6	-25.8	17.6	0.00e+00	0	42	0	2946498560	9	4154
2026-01-10 02:17:29.30	186.04	29.50	-24.7	-26.2	17.4	0.00e+00	0	42	0	2963275776	9	4263
2026-01-10 02:17:32.30	186.25	28.95	-23.6	-24.3	18.6	0.00e+00	0	42	0	2980052992	8	3900
2026-01-10 02:17:35.31	186.45	28.41	-22.8	-23.2	19.3	0.00e+00	0	42	0	2996830208	7	3752
2026-01-10 02:17:38.31	186.64	27.88	-22.9	-23.8	19.3	0.00e+00	0	42	0	3014656000	6	4003
2026-01-10 02:17:41.32	186.83	27.36	-22.8	-23.6	19.4	0.00e+00	0	42	0	3031433216	6	3960
2026-01-10 02:17:44.33	187.01	26.85	-24.0	-25.1	18.2	0.00e+00	0	42	0	3048210432	8	4095
2026-01-10 02:17:47.35	187.18	26.34	-23.1	-23.8	19.0	0.00e+00	0	42	0	3064987648	7	3895
2026-01-10 02:17:50.35	187.36	25.85	-22.9	-23.3	19.3	0.00e+00	0	42	0	3081764864	7	3775
2026-01-10 02:17:53.35	187.52	25.37	-23.0	-23.5	19.2	0.00e+00	0	42	0	3098542080	7	3816
2026-01-10 02:17:56.35	187.68	24.89	-23.1	-23.8	19.0	0.00e+00	0	42	0	3115319296	7	3875
2026-01-10 02:17:59.36	187.84	24.43	-23.1	-23.8	19.0	0.00e+00	0	42	0	3133145088	7	3889
2026-01-10 02:18:02.36	187.99	23.97	-23.1	-23.8	18.9	0.00e+00	0	42	0	3149922304	7	3894
2026-01-10 02:18:05.38	188.14	23.51	-23.4	-24.5	18.6	0.00e+00	0	42	0	3166699520	7	4059
2026-01-10 02:18:08.38	188.28	23.07	-23.5	-24.7	18.5	0.00e+00	0	42	0	3183476736	7	4113
2026-01-10 02:18:11.39	188.42	22.63	-23.6	-24.7	18.5	0.00e+00	0	42	0	3200253952	7	4121
2026-01-10 02:18:14.39	188.56	22.20	-23.5	-24.7	18.4	0.00e+00	0	42	0	3217031168	7	4119
2026-01-10 02:18:17.40	188.70	21.78	-23.7	-25.0	18.3	0.00e+00	0	42	0	3233808384	7	4194
2026-01-10 02:18:20.40	188.83	21.37	-23.7	-25.1	18.2	0.00e+00	0	42	0	3250585600	7	4205
2026-01-10 02:18:23.41	188.95	20.96	-24.0	-25.2	18.0	0.00e+00	0	42	0	3268411392	8	4120
2026-01-10 02:18:26.41	189.08	20.55	-23.9	-24.8	18.1	0.00e+00	0	42	0	3285188608	8	4033
2026-01-10 02:18:29.42	189.20	20.16	-23.8	-24.8	18.2	0.00e+00	0	42	0	3301965824	8	4015
2026-01-10 02:18:32.45	189.32	19.76	-23.8	-24.8	18.1	0.00e+00	0	42	0	3318743040	8	4024
2026-01-10 02:18:35.46	189.43	19.38	-24.0	-25.2	17.9	0.00e+00	0	42	0	3335520256	8	4107
2026-01-10 02:18:38.46	189.55	19.00	-24.2	-25.5	17.8	0.00e+00	0	42	0	3352297472	8	4200
2026-01-10 02:18:41.46	189.66	18.63	-24.8	-26.4	17.0	0.00e+00	0	42	0	3369074688	9	4318
2026-01-10 02:18:44.46	189.77	18.26	-24.6	-25.9	17.3	0.00e+00	0	42	0	3385851904	9	4187
2026-01-10 02:18:47.47	189.87	17.90	-25.1	-26.6	16.7	0.00e+00	0	42	0	3403677696	10	4241
2026-01-10 02:18:50.47	189.97	17.54	-25.8	-27.6	16.0	0.00e+00	0	42	0	3420454912	11	4405
2026-01-10 02:18:53.48	190.08	17.19	-25.4	-26.2	16.4	0.00e+00	0	42	0	3437232128	12	3933
2026-01-10 02:18:56.47	190.18	16.85	-26.0	-27.9	15.8	0.00e+00	0	42	0	3454009344	11	4500
2026-01-10 02:18:59.47	190.27	16.50	-26.5	-28.1	15.0	0.00e+00	0	42	0	3470786560	13	4317
2026-01-10 02:19:02.48	190.37	16.17	-26.5	-28.2	15.0	0.00e+00	0	42	0	3487563776	13	4363
2026-01-10 02:19:05.48	190.46	15.83	-26.5	-27.6	15.0	0.00e+00	0	42	0	3504340992	14	4082
2026-01-10 02:19:08.50	190.55	15.50	-25.6	-26.7	16.0	0.00e+00	0	42	0	3521118208	12	4059
2026-01-10 02:19:11.50	190.64	15.18	-26.0	-27.5	15.5	0.00e+00	0	42	0	3538944000	12	4281
2026-01-10 02:19:14.51	190.73	14.86	-25.8	-27.0	15.8	0.00e+00	0	42	0	3555721216	12	4149
2026-01-10 02:19:17.51	190.82	14.54	-26.6	-28.3	14.8	0.00e+00	0	42	0	3572498432	13	4393
2026-01-10 02:19:20.53	190.90	14.23	-25.9	-26.7	15.6	0.00e+00	0	42	0	3589275648	13	3978
2026-01-10 02:19:23.53	190.99	13.92	-25.5	-27.0	16.1	0.00e+00	0	42	0	3606052864	11	4241
2026-01-10 02:19:26.53	191.07	13.62	-26.2	-27.8	15.2	0.00e+00	0	42	0	3622830080	12	4377
2026-01-10 02:19:29.53	191.15	13.32	-25.5	-26.3	16.1	0.00e+00	0	42	0	3639607296	12	3982
2026-01-10 02:19:32.53	191.23	13.02	-25.4	-26.3	16.1	0.00e+00	0	42	0	3656384512	12	3967
2026-01-10 02:19:35.53	191.30	12.73	-25.5	-26.5	15.9	0.00e+00	0	42	0	3674210304	12	4009
2026-01-10 02:19:38.54	191.38	12.44	-25.8	-27.1	15.5	0.00e+00	0	42	0	3690987520	12	4185
2026-01-10 02:19:41.55	191.46	12.15	-26.2	-28.0	15.1	0.00e+00	0	42	0	3707764736	12	4433
2026-01-10 02:19:44.56	191.53	11.87	-26.2	-27.4	15.1	0.00e+00	0	42	0	3724541952	13	4150
2026-01-10 02:19:47.57	191.60	11.59	-26.0	-27.4	15.4	0.00e+00	0	42	0	3741319168	12	4269
2026-01-10 02:19:50.58	191.67	11.31	-25.9	-27.4	15.4	0.00e+00	0	42	0	3758096384	12	4261
2026-01-10 02:19:53.58	191.74	11.04	-26.3	-27.7	15.0	0.00e+00	0	42	0	3774873600	13	4223
2026-01-10 02:19:56.60	191.81	10.77	-26.0	-27.0	15.3	0.00e+00	0	42	0	3791650816	13	4057
2026-01-10 02:19:59.61	191.88	10.50	-26.0	-27.1	15.3	0.00e+00	0	42	0	3809476608	13	4065
2026-01-10 02:20:02.61	191.95	10.24	-26.0	-27.1	15.2	0.00e+00	0	42	0	3826253824	13	4087
2026-01-10 02:20:05.63	192.01	9.97	-26.2	-27.4	15.0	0.00e+00	0	42	0	3843031040	13	4169
2026-01-10 02:20:08.65	192.08	9.71	-26.2	-27.4	15.0	0.00e+00	0	42	0	3859808256	13	4165
2026-01-10 02:20:11.66	192.14	9.46	-26.6	-27.9	14.5	1.10e-06	0	42	0	3876585472	14	4171
2026-01-10 02:20:14.67	192.21	9.20	-26.7	-28.2	14.3	5.70e-06	0	42	0	3893362688	14	4261
2026-01-10 02:20:17.67	192.27	8.95	-26.9	-28.5	14.1	5.70e-06	0	42	0	3911188480	14	4360
2026-01-10 02:20:20.67	192.33	8.70	-26.7	-28.1	14.3	5.70e-06	0	42	0	3927965696	14	4247
2026-01-10 02:20:23.68	192.39	8.46	-26.8	-28.3	14.2	2.20e-06	0	42	0	3944742912	14	4297
2026-01-10 02:20:26.68	192.45	8.21	-26.9	-28.7	14.0	3.40e-06	0	42	0	3961520128	14	4398
2026-01-10 02:20:29.68	192.51	7.97	-27.0	-28.9	13.9	8.00e-06	0	42	0	3978297344	14	4457
2026-01-10 02:20:32.69	192.57	7.73	-27.8	-30.3	12.7	3.89e-05	0	42	0	3995074560	15	4796
2026-01-10 02:20:35.70	192.62	7.49	-27.4	-29.4	13.3	5.60e-05	0	42	0	4011851776	15	4488
2026-01-10 02:20:38.71	192.68	7.26	-27.4	-29.3	13.3	3.66e-05	0	42	0	4028628992	15	4464
2026-01-10 02:20:41.72	192.73	7.02	-32.9	-44.3	3.8	7.32e-01	0	42	104	4043309056	25	13398
2026-01-10 02:20:44.72	192.79	6.79	-33.3	-44.7	3.8	8.46e-01	0	42	104	4043309056	26	13416

#Closed at: 2026-01-10 02:20:45
#Recorded file [4043 MB]: D:/data/31010_260110_050842.dat