passes_logs/2026/01/10/R2M6_AANII_01/R2M6_AANII_01__20260110_071533_FENGYUN_3E_rec.log

#Pass ID: 20260110_071533_FENGYUN 3E
#Satellite: FENGYUN 3E
#Configuration: FENGYUN 3E
#almurnet v.1.7.20240730
#Start time: 2026-01-10 07:15:32

#Version: 2.2.20231116
#Station: R2M6_AANII_01
#Location: 30.233357 lon 59.946436 lat
#TLE: 1 49008U 21062A   26009.29780149 -.00000002  00000+0  19895-4 0  9997
#TLE: 2 49008  98.7484  14.4929 0001744 148.2300 211.8982 14.19883977234036

#Time	Az	El	Level	Level2	SNR	BER	BlckErr	Temp	State	Recorded	gain1	gain2
2026-01-10 07:15:32.77	8.29	6.95	-32.5	-38.8	3.9	8.43e-01	0	39	0	0	26	7480
2026-01-10 07:15:34.75	8.06	7.06	-31.5	-35.3	6.2	2.28e-01	0	40	0	0	23	5568
2026-01-10 07:15:36.76	7.82	7.16	-30.9	-33.8	7.3	1.46e-01	0	40	0	13631488	22	5059
2026-01-10 07:15:38.77	7.58	7.27	-30.5	-32.9	7.7	9.95e-02	0	40	0	28311552	22	4745
2026-01-10 07:15:40.77	7.34	7.37	-30.6	-33.5	7.8	8.20e-02	0	40	0	42991616	21	5031
2026-01-10 07:15:42.77	7.10	7.48	-29.8	-31.9	9.1	2.18e-02	0	40	0	57671680	20	4558
2026-01-10 07:15:44.78	6.86	7.59	-29.5	-30.9	10.0	1.66e-02	0	40	0	71303168	20	4228
2026-01-10 07:15:46.79	6.61	7.69	-30.2	-32.3	8.7	2.04e-02	0	40	0	85983232	21	4555
2026-01-10 07:15:48.80	6.36	7.80	-29.1	-30.3	10.7	4.28e-03	0	40	0	100663296	19	4147
2026-01-10 07:15:50.81	6.11	7.90	-28.1	-28.9	12.1	2.64e-04	0	40	0	115343360	17	3965
2026-01-10 07:15:52.82	5.86	8.01	-27.0	-27.4	13.3	2.28e-05	0	40	0	130023424	15	3766
2026-01-10 07:15:54.82	5.61	8.12	-26.8	-27.5	13.5	1.25e-05	0	40	0	143654912	14	3913
2026-01-10 07:15:56.83	5.35	8.22	-26.9	-27.7	13.4	1.37e-05	0	40	0	158334976	14	3944
2026-01-10 07:15:58.82	5.10	8.33	-27.2	-28.4	12.9	4.00e-05	0	40	0	173015040	14	4141
2026-01-10 07:16:00.83	4.84	8.43	-26.6	-27.0	13.8	4.50e-06	0	41	0	187695104	14	3774
2026-01-10 07:16:02.82	4.58	8.54	-27.2	-28.3	13.2	2.17e-05	0	41	0	202375168	14	4098
2026-01-10 07:16:04.82	4.32	8.64	-26.9	-27.7	13.5	1.48e-05	0	40	0	216006656	14	3935
2026-01-10 07:16:06.82	4.05	8.74	-27.0	-27.9	13.2	2.51e-05	0	41	0	230686720	14	4018
2026-01-10 07:16:08.82	3.79	8.85	-26.9	-27.7	13.4	2.40e-05	0	41	0	245366784	14	3956
2026-01-10 07:16:10.84	3.52	8.95	-27.2	-28.5	12.9	1.10e-04	0	41	0	260046848	14	4177
2026-01-10 07:16:12.84	3.25	9.06	-26.9	-27.7	13.3	1.94e-05	0	41	0	273678336	14	3968
2026-01-10 07:16:14.84	2.98	9.16	-26.9	-27.8	13.3	1.48e-05	0	41	0	288358400	14	3971
2026-01-10 07:16:16.84	2.70	9.27	-27.0	-27.8	13.4	1.25e-05	0	41	0	303038464	14	3979
2026-01-10 07:16:18.84	2.43	9.37	-26.6	-27.1	13.8	1.14e-05	0	41	0	317718528	14	3800
2026-01-10 07:16:20.85	2.15	9.47	-26.7	-27.3	13.9	9.10e-06	0	41	0	331350016	14	3833
2026-01-10 07:16:22.84	1.87	9.57	-26.3	-26.9	14.2	1.10e-06	0	41	0	346030080	13	3845
2026-01-10 07:16:24.85	1.59	9.68	-26.5	-27.3	14.0	2.20e-06	0	41	0	360710144	13	3951
2026-01-10 07:16:26.86	1.30	9.78	-26.9	-28.2	13.4	2.17e-05	0	41	0	375390208	13	4194
2026-01-10 07:16:28.87	1.01	9.88	-27.3	-28.6	12.9	3.54e-05	0	41	0	390070272	14	4200
2026-01-10 07:16:30.87	0.73	9.99	-27.1	-28.2	13.1	2.28e-05	0	41	0	404750336	14	4082
2026-01-10 07:16:32.87	0.44	10.09	-27.2	-27.9	13.0	4.46e-05	0	41	0	418381824	15	3892
2026-01-10 07:16:34.88	0.14	10.19	-26.7	-27.3	13.7	5.70e-06	0	41	0	433061888	14	3847
2026-01-10 07:16:36.89	359.85	10.29	-26.7	-27.2	13.8	1.14e-05	0	41	0	447741952	14	3816
2026-01-10 07:16:38.90	359.55	10.39	-26.8	-27.4	13.7	8.00e-06	0	41	0	462422016	14	3872
2026-01-10 07:16:40.89	359.25	10.49	-26.8	-27.4	13.6	9.10e-06	0	41	0	476053504	14	3886
2026-01-10 07:16:42.89	358.95	10.59	-26.8	-27.6	13.6	9.10e-06	0	41	0	490733568	14	3917
2026-01-10 07:16:44.90	358.65	10.69	-27.1	-28.2	13.2	1.83e-05	0	41	0	505413632	14	4083
2026-01-10 07:16:46.91	358.34	10.79	-27.1	-28.2	13.2	4.57e-05	0	41	0	520093696	14	4067
2026-01-10 07:16:48.90	358.04	10.89	-26.9	-27.7	13.5	2.40e-05	0	41	0	534773760	14	3933
2026-01-10 07:16:50.91	357.72	10.99	-26.8	-27.5	13.6	1.14e-05	0	41	0	548405248	14	3889
2026-01-10 07:16:52.92	357.41	11.09	-26.7	-27.1	13.8	5.70e-06	0	41	0	563085312	14	3801
2026-01-10 07:16:54.92	357.10	11.19	-26.7	-27.1	13.8	4.50e-06	0	41	0	577765376	14	3808
2026-01-10 07:16:56.92	356.78	11.28	-27.0	-28.0	13.3	4.23e-05	0	41	0	592445440	14	4022
2026-01-10 07:16:58.93	356.46	11.38	-26.9	-27.7	13.5	3.40e-06	0	42	0	607125504	14	3940
2026-01-10 07:17:00.93	356.14	11.48	-27.1	-28.1	13.4	1.48e-05	0	42	0	621805568	14	4043
2026-01-10 07:17:02.93	355.82	11.57	-27.1	-28.1	13.4	1.48e-05	0	42	0	635437056	14	4040
2026-01-10 07:17:04.94	355.50	11.67	-27.1	-28.2	13.3	2.28e-05	0	41	0	650117120	14	4063
2026-01-10 07:17:06.95	355.17	11.76	-26.7	-27.1	13.9	8.00e-06	0	42	0	664797184	14	3799
2026-01-10 07:17:08.95	354.84	11.86	-26.4	-27.1	14.2	1.10e-06	0	41	0	679477248	13	3885
2026-01-10 07:17:10.94	354.51	11.95	-27.2	-28.4	13.2	2.20e-06	0	41	0	693108736	14	4128
2026-01-10 07:17:12.94	354.18	12.04	-27.3	-28.0	13.3	1.94e-05	0	42	0	707788800	15	3904
2026-01-10 07:17:14.94	353.85	12.14	-26.7	-27.1	14.1	1.10e-06	0	41	0	722468864	14	3789
2026-01-10 07:17:16.94	353.51	12.23	-27.0	-27.9	13.7	4.50e-06	0	41	0	737148928	14	3975
2026-01-10 07:17:18.93	353.17	12.32	-27.0	-27.9	13.7	1.37e-05	0	42	0	750780416	14	3988
2026-01-10 07:17:20.94	352.83	12.41	-26.2	-26.7	14.6	0.00e+00	0	42	0	765460480	13	3781
2026-01-10 07:17:22.94	352.49	12.50	-26.1	-26.4	14.9	0.00e+00	0	42	0	780140544	13	3722
2026-01-10 07:17:24.95	352.14	12.59	-26.2	-26.5	14.6	0.00e+00	0	42	0	794820608	13	3752
2026-01-10 07:17:26.96	351.79	12.68	-26.1	-26.3	14.9	0.00e+00	0	42	0	809500672	13	3701
2026-01-10 07:17:28.95	351.44	12.76	-26.1	-26.3	15.0	0.00e+00	0	42	0	823132160	13	3701
2026-01-10 07:17:30.96	351.09	12.85	-26.3	-26.7	14.8	0.00e+00	0	42	0	837812224	13	3778
2026-01-10 07:17:32.97	350.73	12.94	-26.4	-27.0	14.7	0.00e+00	0	42	0	852492288	13	3854
2026-01-10 07:17:34.97	350.38	13.02	-26.3	-26.7	14.8	0.00e+00	0	42	0	867172352	13	3783
2026-01-10 07:17:36.97	350.02	13.11	-27.0	-28.2	14.0	1.10e-06	0	42	0	881852416	13	4162
2026-01-10 07:17:38.97	349.66	13.19	-26.9	-28.0	14.1	3.40e-06	0	42	0	895483904	13	4096
2026-01-10 07:17:40.97	349.30	13.27	-26.7	-27.1	14.2	0.00e+00	0	42	0	910163968	14	3778
2026-01-10 07:17:42.97	348.93	13.36	-27.0	-27.9	13.7	5.70e-06	0	42	0	924844032	14	3980
2026-01-10 07:17:44.97	348.56	13.44	-26.7	-27.6	14.3	1.10e-06	0	42	0	939524096	13	4003
2026-01-10 07:17:46.97	348.20	13.52	-26.1	-26.4	14.9	1.10e-06	0	42	0	954204160	13	3714
2026-01-10 07:17:48.97	347.83	13.60	-26.2	-26.5	15.0	0.00e+00	0	42	0	967835648	13	3734
2026-01-10 07:17:50.97	347.45	13.67	-25.7	-25.9	15.5	0.00e+00	0	42	0	982515712	12	3688
2026-01-10 07:17:52.98	347.08	13.75	-25.6	-25.8	15.5	0.00e+00	0	42	0	997195776	12	3667
2026-01-10 07:17:54.98	346.70	13.83	-25.6	-25.8	15.4	0.00e+00	0	42	0	1011875840	12	3669
2026-01-10 07:17:56.99	346.32	13.90	-26.1	-26.8	14.9	0.00e+00	0	42	0	1025507328	12	3906
2026-01-10 07:17:59.00	345.94	13.98	-25.8	-26.2	15.2	0.00e+00	0	42	0	1040187392	12	3759
2026-01-10 07:18:01.00	345.56	14.05	-26.0	-26.7	15.0	0.00e+00	0	42	0	1054867456	12	3876
2026-01-10 07:18:03.00	345.17	14.12	-26.1	-26.9	14.8	1.10e-06	0	42	0	1069547520	12	3930
2026-01-10 07:18:05.00	344.78	14.20	-25.6	-25.7	15.4	0.00e+00	0	42	0	1083179008	12	3664
2026-01-10 07:18:07.01	344.39	14.27	-25.4	-25.4	15.5	0.00e+00	0	42	0	1097859072	12	3591
2026-01-10 07:18:09.02	344.00	14.34	-25.6	-25.8	15.3	0.00e+00	0	42	0	1112539136	12	3676
2026-01-10 07:18:11.02	343.61	14.40	-26.4	-27.6	14.3	0.00e+00	0	42	0	1127219200	12	4110
2026-01-10 07:18:13.03	343.22	14.47	-25.6	-25.8	15.4	0.00e+00	0	42	0	1141899264	12	3666
2026-01-10 07:18:15.03	342.82	14.54	-25.5	-25.5	15.5	0.00e+00	0	42	0	1156579328	12	3609
2026-01-10 07:18:17.04	342.42	14.60	-25.5	-25.5	15.5	0.00e+00	0	42	0	1170210816	12	3615
2026-01-10 07:18:19.05	342.02	14.66	-25.5	-25.5	15.5	0.00e+00	0	42	0	1184890880	12	3622
2026-01-10 07:18:21.06	341.62	14.73	-25.5	-26.0	15.5	0.00e+00	0	42	0	1199570944	11	3826
2026-01-10 07:18:23.06	341.22	14.79	-25.4	-25.9	15.6	0.00e+00	0	42	0	1214251008	11	3791
2026-01-10 07:18:25.07	340.81	14.85	-25.3	-25.6	15.8	0.00e+00	0	42	0	1228931072	11	3728
2026-01-10 07:18:27.07	340.40	14.90	-25.3	-25.7	15.8	0.00e+00	0	42	0	1243611136	11	3745
2026-01-10 07:18:29.07	340.00	14.96	-25.2	-25.4	15.8	0.00e+00	0	42	0	1257242624	11	3687
2026-01-10 07:18:31.08	339.59	15.02	-25.2	-25.3	15.9	0.00e+00	0	42	0	1271922688	11	3666
2026-01-10 07:18:33.08	339.18	15.07	-25.2	-25.3	15.8	0.00e+00	0	42	0	1286602752	11	3667
2026-01-10 07:18:35.09	338.76	15.12	-25.3	-25.5	15.9	0.00e+00	0	42	0	1301282816	11	3702
2026-01-10 07:18:37.10	338.35	15.17	-25.4	-25.9	15.6	0.00e+00	0	42	0	1314914304	11	3793
2026-01-10 07:18:39.10	337.93	15.22	-24.8	-25.0	16.3	0.00e+00	0	42	0	1329594368	10	3694
2026-01-10 07:18:41.11	337.51	15.27	-24.9	-25.3	16.2	0.00e+00	0	42	0	1344274432	10	3760
2026-01-10 07:18:43.11	337.10	15.32	-24.7	-24.8	16.4	0.00e+00	0	42	0	1358954496	10	3645
2026-01-10 07:18:45.11	336.68	15.37	-24.8	-25.1	16.2	0.00e+00	0	42	0	1373634560	10	3723
2026-01-10 07:18:47.12	336.26	15.41	-25.0	-25.5	16.0	0.00e+00	0	42	0	1388314624	10	3807
2026-01-10 07:18:49.13	335.83	15.45	-25.1	-25.7	15.9	0.00e+00	0	42	0	1401946112	10	3851
2026-01-10 07:18:51.13	335.41	15.49	-24.9	-25.3	16.1	0.00e+00	0	42	0	1416626176	10	3760
2026-01-10 07:18:53.13	334.99	15.53	-25.3	-26.1	15.7	0.00e+00	0	42	0	1431306240	10	3960
2026-01-10 07:18:55.14	334.56	15.57	-24.9	-24.7	16.2	0.00e+00	0	42	0	1445986304	11	3523
2026-01-10 07:18:57.14	334.13	15.61	-25.0	-25.4	16.1	0.00e+00	0	42	0	1459617792	10	3776
2026-01-10 07:18:59.15	333.70	15.64	-24.7	-24.8	16.4	0.00e+00	0	42	0	1474297856	10	3655
2026-01-10 07:19:01.16	333.27	15.68	-24.6	-24.7	16.5	0.00e+00	0	42	0	1488977920	10	3617
2026-01-10 07:19:03.15	332.85	15.71	-24.8	-24.9	16.4	0.00e+00	0	42	0	1503657984	10	3669
2026-01-10 07:19:05.15	332.42	15.74	-24.6	-24.6	16.5	0.00e+00	0	42	0	1518338048	10	3590
2026-01-10 07:19:07.16	331.98	15.77	-24.8	-25.0	16.3	0.00e+00	0	42	0	1531969536	10	3683
2026-01-10 07:19:09.16	331.55	15.79	-24.8	-25.0	16.3	0.00e+00	0	42	0	1546649600	10	3694
2026-01-10 07:19:11.17	331.12	15.82	-24.7	-24.8	16.5	0.00e+00	0	42	0	1561329664	10	3644
2026-01-10 07:19:13.17	330.68	15.84	-24.7	-24.9	16.4	0.00e+00	0	42	0	1576009728	10	3658
2026-01-10 07:19:15.18	330.25	15.87	-24.6	-24.5	16.5	0.00e+00	0	42	0	1590689792	10	3586
2026-01-10 07:19:17.18	329.81	15.89	-24.5	-24.3	16.6	0.00e+00	0	42	0	1605369856	10	3541
2026-01-10 07:19:19.19	329.38	15.91	-24.7	-25.3	16.3	0.00e+00	0	42	0	1619001344	9	3862
2026-01-10 07:19:21.19	328.94	15.92	-24.5	-24.9	16.6	0.00e+00	0	42	0	1633681408	9	3763
2026-01-10 07:19:23.20	328.50	15.94	-24.6	-25.1	16.4	0.00e+00	0	42	0	1648361472	9	3815
2026-01-10 07:19:25.20	328.07	15.95	-24.8	-25.5	16.2	0.00e+00	0	42	0	1663041536	9	3914
2026-01-10 07:19:27.21	327.63	15.96	-24.6	-25.1	16.4	0.00e+00	0	42	0	1676673024	9	3816
2026-01-10 07:19:29.21	327.19	15.97	-24.6	-25.1	16.4	0.00e+00	0	42	0	1691353088	9	3820
2026-01-10 07:19:31.22	326.75	15.98	-24.4	-24.7	16.6	0.00e+00	0	42	0	1706033152	9	3725
2026-01-10 07:19:33.24	326.31	15.99	-24.5	-24.9	16.5	0.00e+00	0	42	0	1720713216	9	3769
2026-01-10 07:19:35.23	325.87	16.00	-24.6	-25.1	16.4	0.00e+00	0	42	0	1735393280	9	3823
2026-01-10 07:19:37.23	325.44	16.00	-24.8	-25.5	16.2	0.00e+00	0	42	0	1750073344	9	3909
2026-01-10 07:19:39.23	325.00	16.00	-24.8	-25.5	16.2	0.00e+00	0	42	0	1763704832	9	3919
2026-01-10 07:19:41.23	324.56	16.00	-24.7	-25.3	16.3	0.00e+00	0	42	0	1778384896	9	3872
2026-01-10 07:19:43.23	324.12	16.00	-24.7	-25.3	16.3	0.00e+00	0	42	0	1793064960	9	3872
2026-01-10 07:19:45.25	323.68	16.00	-24.7	-25.4	16.3	0.00e+00	0	42	0	1807745024	9	3884
2026-01-10 07:19:47.25	323.24	15.99	-24.9	-25.7	16.1	0.00e+00	0	42	0	1821376512	9	3967
2026-01-10 07:19:49.26	322.80	15.99	-24.8	-25.5	16.2	0.00e+00	0	42	0	1836056576	9	3916
2026-01-10 07:19:51.27	322.36	15.98	-24.8	-25.5	16.2	0.00e+00	0	42	0	1850736640	9	3904
2026-01-10 07:19:53.27	321.92	15.97	-24.7	-25.3	16.2	0.00e+00	0	42	0	1865416704	9	3875
2026-01-10 07:19:55.27	321.49	15.96	-24.4	-24.8	16.6	0.00e+00	0	42	0	1880096768	9	3744
2026-01-10 07:19:57.28	321.05	15.94	-24.5	-24.8	16.5	0.00e+00	0	42	0	1894776832	9	3751
2026-01-10 07:19:59.29	320.61	15.93	-24.5	-24.9	16.5	0.00e+00	0	42	0	1908408320	9	3773
2026-01-10 07:20:01.30	320.17	15.91	-24.6	-25.2	16.4	0.00e+00	0	42	0	1923088384	9	3842
2026-01-10 07:20:03.31	319.73	15.89	-24.5	-24.9	16.6	0.00e+00	0	42	0	1937768448	9	3765
2026-01-10 07:20:05.32	319.30	15.87	-24.8	-25.5	16.3	0.00e+00	0	42	0	1952448512	9	3911
2026-01-10 07:20:07.31	318.86	15.85	-24.9	-25.7	16.3	0.00e+00	0	42	0	1966080000	9	3966
2026-01-10 07:20:09.32	318.43	15.83	-24.6	-24.7	16.6	0.00e+00	0	42	0	1981808640	10	3618
2026-01-10 07:20:11.33	317.99	15.80	-24.6	-24.5	16.6	0.00e+00	0	42	0	1995440128	10	3580
2026-01-10 07:20:13.33	317.56	15.78	-24.6	-24.6	16.7	0.00e+00	0	42	0	2010120192	10	3592
2026-01-10 07:20:15.33	317.13	15.75	-24.6	-24.6	16.6	0.00e+00	0	42	0	2024800256	10	3611
2026-01-10 07:20:17.33	316.70	15.72	-24.7	-24.9	16.5	0.00e+00	0	42	0	2039480320	10	3665
2026-01-10 07:20:19.34	316.27	15.69	-24.9	-25.1	16.2	0.00e+00	0	42	0	2053111808	10	3722
2026-01-10 07:20:21.34	315.84	15.65	-25.1	-25.7	16.0	0.00e+00	0	42	0	2067791872	10	3860
2026-01-10 07:20:23.35	315.41	15.62	-24.8	-25.1	16.3	0.00e+00	0	42	0	2082471936	10	3722
2026-01-10 07:20:25.35	314.98	15.58	-25.1	-25.6	16.0	0.00e+00	0	42	0	2097152000	10	3830
2026-01-10 07:20:27.36	314.55	15.54	-25.2	-25.8	15.8	0.00e+00	0	42	0	2110783488	10	3879
2026-01-10 07:20:29.35	314.13	15.51	-24.8	-25.1	16.4	0.00e+00	0	42	0	2125463552	10	3699
2026-01-10 07:20:31.36	313.70	15.46	-24.8	-25.1	16.3	0.00e+00	0	42	0	2140143616	10	3720
2026-01-10 07:20:33.36	313.28	15.42	-24.9	-25.2	16.2	0.00e+00	0	42	0	2154823680	10	3731
2026-01-10 07:20:35.38	312.86	15.38	-25.2	-25.3	15.9	0.00e+00	0	42	0	2169503744	11	3664
2026-01-10 07:20:37.39	312.43	15.33	-25.2	-25.8	16.0	0.00e+00	0	42	0	2184183808	10	3886
2026-01-10 07:20:39.38	312.02	15.29	-25.0	-25.0	16.2	0.00e+00	0	42	0	2197815296	11	3586
2026-01-10 07:20:41.40	311.60	15.24	-24.9	-24.8	16.2	0.00e+00	0	42	0	2212495360	11	3551
2026-01-10 07:20:43.40	311.18	15.19	-24.9	-25.3	16.2	0.00e+00	0	42	0	2227175424	10	3756
2026-01-10 07:20:45.40	310.77	15.14	-25.2	-25.8	15.9	0.00e+00	0	42	0	2241855488	10	3885
2026-01-10 07:20:47.40	310.35	15.08	-25.1	-25.7	15.8	0.00e+00	0	42	0	2255486976	10	3852
2026-01-10 07:20:49.40	309.94	15.03	-24.9	-24.8	16.1	0.00e+00	0	42	0	2270167040	11	3560
2026-01-10 07:20:51.41	309.53	14.98	-26.0	-27.2	14.9	0.00e+00	0	42	0	2284847104	11	4109
2026-01-10 07:20:53.42	309.12	14.92	-25.8	-26.2	15.1	0.00e+00	0	42	0	2299527168	12	3772
2026-01-10 07:20:55.42	308.71	14.86	-25.3	-25.5	15.8	0.00e+00	0	42	0	2314207232	11	3710
2026-01-10 07:20:57.43	308.30	14.80	-25.8	-26.2	15.1	0.00e+00	0	42	0	2328887296	12	3782
2026-01-10 07:20:59.44	307.90	14.74	-26.2	-26.6	14.6	2.20e-06	0	42	0	2342518784	13	3749
2026-01-10 07:21:01.44	307.50	14.68	-25.7	-26.0	15.3	0.00e+00	0	42	0	2357198848	12	3712
2026-01-10 07:21:03.45	307.09	14.62	-25.5	-25.6	15.5	0.00e+00	0	42	0	2371878912	12	3641
2026-01-10 07:21:05.44	306.70	14.55	-25.9	-26.8	15.2	0.00e+00	0	42	0	2386558976	11	4013
2026-01-10 07:21:07.44	306.30	14.49	-24.9	-24.7	16.2	0.00e+00	0	42	0	2400190464	11	3525
2026-01-10 07:21:09.45	305.90	14.42	-25.0	-25.5	16.1	0.00e+00	0	42	0	2414870528	10	3801
2026-01-10 07:21:11.45	305.51	14.35	-25.1	-25.6	16.0	0.00e+00	0	42	0	2429550592	10	3823
2026-01-10 07:21:13.45	305.12	14.28	-25.2	-25.9	15.8	0.00e+00	0	42	0	2444230656	10	3896
2026-01-10 07:21:15.45	304.73	14.21	-25.2	-26.0	15.7	0.00e+00	0	42	0	2458910720	10	3917
2026-01-10 07:21:17.46	304.34	14.14	-25.1	-25.7	15.8	0.00e+00	0	42	0	2472542208	10	3863
2026-01-10 07:21:19.46	303.95	14.07	-25.1	-25.8	15.8	0.00e+00	0	42	0	2487222272	10	3878
2026-01-10 07:21:21.47	303.57	14.00	-25.2	-25.8	15.7	0.00e+00	0	42	0	2501902336	10	3889
2026-01-10 07:21:23.47	303.19	13.92	-25.0	-25.4	16.0	0.00e+00	0	42	0	2516582400	10	3793
2026-01-10 07:21:25.48	302.80	13.85	-25.0	-25.5	15.9	0.00e+00	0	42	0	2531262464	10	3815
2026-01-10 07:21:27.49	302.42	13.77	-25.0	-25.5	15.9	0.00e+00	0	42	0	2545942528	10	3807
2026-01-10 07:21:29.50	302.05	13.69	-25.7	-26.6	15.1	0.00e+00	0	42	0	2559574016	11	3963
2026-01-10 07:21:31.50	301.67	13.62	-25.7	-26.0	15.0	0.00e+00	0	42	0	2574254080	12	3727
2026-01-10 07:21:33.50	301.30	13.54	-26.3	-26.9	14.3	2.20e-06	0	42	0	2588934144	13	3854
2026-01-10 07:21:35.50	300.93	13.46	-26.3	-26.8	14.3	5.70e-06	0	42	0	2603614208	13	3813
2026-01-10 07:21:37.51	300.56	13.37	-25.6	-25.8	15.1	1.10e-06	0	42	0	2617245696	12	3681
2026-01-10 07:21:39.51	300.19	13.29	-25.5	-26.2	15.2	0.00e+00	0	42	0	2631925760	11	3866
2026-01-10 07:21:41.52	299.83	13.21	-27.6	-28.7	12.7	5.26e-05	0	42	0	2646605824	15	4094
2026-01-10 07:21:43.53	299.46	13.13	-28.3	-29.4	11.7	1.28e-04	0	42	0	2661285888	17	4069
2026-01-10 07:21:45.52	299.10	13.04	-27.4	-28.3	13.0	4.80e-05	0	42	0	2675965952	15	4007
2026-01-10 07:21:47.53	298.74	12.96	-26.2	-26.6	14.4	1.10e-06	0	42	0	2690646016	13	3772
2026-01-10 07:21:49.53	298.39	12.87	-26.3	-26.8	14.4	3.40e-06	0	42	0	2704277504	13	3820
2026-01-10 07:21:51.52	298.04	12.78	-26.1	-26.3	14.6	1.10e-06	0	42	0	2718957568	13	3713
2026-01-10 07:21:53.54	297.68	12.69	-26.3	-26.8	14.4	2.20e-06	0	42	0	2733637632	13	3811
2026-01-10 07:21:55.55	297.33	12.61	-25.9	-26.4	14.8	1.10e-06	0	42	0	2748317696	12	3821
2026-01-10 07:21:57.55	296.98	12.52	-25.6	-25.9	15.1	0.00e+00	0	42	0	2761949184	12	3711
2026-01-10 07:21:59.56	296.64	12.43	-25.7	-25.9	15.0	0.00e+00	0	42	0	2776629248	12	3711
2026-01-10 07:22:01.56	296.29	12.34	-25.6	-25.8	15.0	0.00e+00	0	42	0	2791309312	12	3697
2026-01-10 07:22:03.57	295.95	12.24	-25.5	-25.5	15.2	0.00e+00	0	42	0	2805989376	12	3623
2026-01-10 07:22:05.57	295.61	12.15	-25.7	-26.0	14.9	0.00e+00	0	42	0	2820669440	12	3730
2026-01-10 07:22:07.59	295.27	12.06	-25.4	-25.9	15.2	0.00e+00	0	42	0	2835349504	11	3816
2026-01-10 07:22:09.59	294.94	11.97	-25.6	-26.3	15.0	1.10e-06	0	42	0	2848980992	11	3899
2026-01-10 07:22:11.59	294.60	11.87	-25.5	-26.2	15.1	0.00e+00	0	42	0	2863661056	11	3879
2026-01-10 07:22:13.60	294.27	11.78	-25.5	-26.0	15.2	0.00e+00	0	42	0	2878341120	11	3836
2026-01-10 07:22:15.60	293.94	11.68	-26.3	-27.3	14.2	8.00e-06	0	42	0	2893021184	12	4059
2026-01-10 07:22:17.60	293.62	11.59	-26.1	-27.0	14.4	0.00e+00	0	42	0	2906652672	12	3983
2026-01-10 07:22:19.60	293.30	11.49	-25.9	-26.6	14.5	1.10e-06	0	42	0	2921332736	12	3877
2026-01-10 07:22:21.61	292.97	11.40	-25.7	-26.0	14.8	0.00e+00	0	42	0	2936012800	12	3736
2026-01-10 07:22:23.61	292.65	11.30	-25.8	-26.4	14.6	1.10e-06	0	42	0	2950692864	12	3838
2026-01-10 07:22:25.61	292.33	11.20	-25.7	-26.1	14.7	0.00e+00	0	42	0	2964324352	12	3771
2026-01-10 07:22:27.61	292.02	11.10	-25.8	-26.3	14.6	1.10e-06	0	42	0	2979004416	12	3802
2026-01-10 07:22:29.61	291.71	11.01	-25.7	-26.1	14.6	2.20e-06	0	42	0	2993684480	12	3775
2026-01-10 07:22:31.61	291.40	10.91	-26.0	-26.7	14.3	3.40e-06	0	42	0	3008364544	12	3900
2026-01-10 07:22:33.62	291.09	10.81	-26.1	-26.9	14.2	0.00e+00	0	42	0	3023044608	12	3967
2026-01-10 07:22:35.62	290.78	10.71	-25.9	-26.6	14.3	0.00e+00	0	42	0	3037724672	12	3889
2026-01-10 07:22:37.64	290.47	10.61	-26.1	-27.0	14.1	2.20e-06	0	42	0	3051356160	12	3993
2026-01-10 07:22:39.63	290.17	10.51	-26.1	-26.9	14.1	1.10e-06	0	42	0	3066036224	12	3975
2026-01-10 07:22:41.65	289.87	10.41	-26.4	-27.8	13.6	1.10e-06	0	42	0	3080716288	12	4191
2026-01-10 07:22:43.64	289.57	10.30	-26.3	-27.5	13.8	8.00e-06	0	42	0	3095396352	12	4123
2026-01-10 07:22:45.64	289.27	10.20	-26.2	-26.7	14.0	8.00e-06	0	42	0	3110076416	13	3821
2026-01-10 07:22:47.65	288.98	10.10	-26.6	-27.6	13.4	4.50e-06	0	42	0	3123707904	13	4028
2026-01-10 07:22:49.66	288.68	10.00	-26.3	-27.0	13.8	3.40e-06	0	42	0	3138387968	13	3881
2026-01-10 07:22:51.66	288.39	9.90	-26.2	-26.8	13.9	6.80e-06	0	42	0	3153068032	13	3838
2026-01-10 07:22:53.66	288.11	9.79	-26.2	-26.8	13.9	5.70e-06	0	42	0	3167748096	13	3834
2026-01-10 07:22:55.67	287.82	9.69	-26.3	-26.9	13.8	6.80e-06	0	42	0	3182428160	13	3874
2026-01-10 07:22:57.68	287.53	9.59	-26.3	-27.0	13.8	1.10e-06	0	42	0	3196059648	13	3898
2026-01-10 07:22:59.68	287.25	9.48	-26.6	-27.2	13.4	1.14e-05	0	42	0	3210739712	14	3831
2026-01-10 07:23:01.68	286.97	9.38	-26.4	-26.7	13.7	9.10e-06	0	42	0	3225419776	14	3717
2026-01-10 07:23:03.68	286.69	9.28	-26.6	-27.6	13.4	1.48e-05	0	42	0	3240099840	13	4038
2026-01-10 07:23:05.70	286.42	9.17	-26.2	-26.8	13.8	3.40e-06	0	42	0	3254779904	13	3834
2026-01-10 07:23:07.70	286.14	9.07	-26.0	-26.3	14.0	1.10e-06	0	42	0	3268411392	13	3712
2026-01-10 07:23:09.71	285.87	8.96	-26.2	-26.6	13.8	5.70e-06	0	42	0	3283091456	13	3807
2026-01-10 07:23:11.72	285.60	8.86	-26.5	-27.5	13.2	2.05e-05	0	42	0	3297771520	13	4037
2026-01-10 07:23:13.72	285.33	8.75	-26.5	-27.6	13.2	2.51e-05	0	42	0	3312451584	13	4053
2026-01-10 07:23:15.73	285.06	8.65	-26.8	-28.2	12.8	5.26e-05	0	42	0	3327131648	13	4228
2026-01-10 07:23:17.73	284.80	8.54	-26.5	-27.4	13.3	1.60e-05	0	42	0	3341811712	13	3992
2026-01-10 07:23:19.72	284.54	8.44	-26.3	-27.0	13.5	8.00e-06	0	42	0	3355443200	13	3891
2026-01-10 07:23:21.73	284.28	8.33	-26.4	-27.1	13.4	1.02e-05	0	42	0	3370123264	13	3935
2026-01-10 07:23:23.75	284.02	8.23	-26.1	-26.6	13.7	6.80e-06	0	42	0	3384803328	13	3794
2026-01-10 07:23:25.75	283.76	8.12	-26.2	-26.9	13.6	1.94e-05	0	42	0	3399483392	13	3865
2026-01-10 07:23:27.76	283.50	8.02	-26.3	-27.0	13.4	1.48e-05	0	42	0	3413114880	13	3917
2026-01-10 07:23:29.76	283.25	7.91	-26.3	-27.1	13.4	1.14e-05	0	42	0	3427794944	13	3926
2026-01-10 07:23:31.77	283.00	7.80	-26.5	-27.4	13.2	3.77e-05	0	42	0	3442475008	13	4021
2026-01-10 07:23:33.77	282.75	7.70	-26.4	-27.2	13.3	2.17e-05	0	42	0	3457155072	13	3965
2026-01-10 07:23:35.78	282.50	7.59	-26.4	-27.2	13.3	2.17e-05	0	42	0	3471835136	13	3961
2026-01-10 07:23:37.78	282.26	7.49	-26.4	-27.3	13.2	1.83e-05	0	42	0	3486515200	13	3996
2026-01-10 07:23:39.78	282.01	7.38	-26.5	-27.4	13.2	2.40e-05	0	42	0	3500146688	13	4025
2026-01-10 07:23:41.79	281.77	7.27	-26.5	-27.5	13.1	5.03e-05	0	42	0	3514826752	13	4031
2026-01-10 07:23:43.80	281.53	7.17	-26.5	-27.6	13.0	4.11e-05	0	43	0	3529506816	13	4055
2026-01-10 07:23:45.79	281.29	7.06	-32.3	-41.3	3.8	8.46e-01	0	42	104	3539992576	24	10102
2026-01-10 07:23:47.81	281.05	6.95	-33.3	-43.0	3.8	8.46e-01	0	42	104	3539992576	26	10997

#Closed at: 2026-01-10 07:23:49
#Recorded file [3539 MB]: D:/data/31010_260110_101534.dat