passes_logs/2026/01/10/R2M6_AANII_01/R2M6_AANII_01__20260110_080405_NOAA_20_JPSS-1_rec.log

#Pass ID: 20260110_080405_NOAA 20 (JPSS-1)
#Satellite: NOAA 20 (JPSS-1)
#Configuration: NOAA 20
#almurnet v.1.7.20240730
#Start time: 2026-01-10 08:04:06

#Version: 2.2.20231116
#Station: R2M6_AANII_01
#Location: 30.233357 lon 59.946436 lat
#TLE: 1 43013U 17073A   26009.26828276  .00000112  00000+0  74203-4 0  9990
#TLE: 2 43013  98.7631 310.2683 0001700  47.4387 312.6933 14.19534764421920

#Time	Az	El	Level	Level2	SNR	BER	BlckErr	Temp	State	Recorded	gain1	gain2
2026-01-10 08:04:06.17	90.14	7.06	-31.7	-40.2	4.3	1.40e+00	0	39	0	0	24	9565
2026-01-10 08:04:09.16	89.82	7.24	-31.3	-37.8	7.2	1.32e-01	0	39	0	1048576	23	7569
2026-01-10 08:04:12.16	89.50	7.42	-31.4	-38.1	7.0	1.93e-01	0	40	0	7340032	23	7773
2026-01-10 08:04:15.16	89.17	7.59	-31.0	-35.9	8.8	2.85e-02	0	40	0	12582912	23	6335
2026-01-10 08:04:18.16	88.84	7.77	-30.9	-36.0	9.3	1.78e-02	0	40	0	17825792	22	6481
2026-01-10 08:04:21.17	88.51	7.95	-30.7	-35.3	9.8	9.79e-03	0	40	0	24117248	22	6063
2026-01-10 08:04:24.17	88.17	8.13	-30.8	-35.5	9.7	1.11e-02	0	40	0	29360128	22	6193
2026-01-10 08:04:27.17	87.83	8.31	-30.6	-34.7	10.5	5.26e-03	0	40	0	34603008	22	5756
2026-01-10 08:04:30.17	87.48	8.49	-30.6	-34.5	10.5	3.50e-03	0	40	0	40894464	22	5699
2026-01-10 08:04:33.18	87.13	8.67	-30.7	-34.9	10.2	6.62e-03	0	40	0	46137344	22	5887
2026-01-10 08:04:36.18	86.77	8.85	-30.8	-35.2	10.0	7.39e-03	0	40	0	52428800	22	6027
2026-01-10 08:04:39.19	86.41	9.03	-30.8	-35.4	9.9	7.27e-03	0	40	0	57671680	22	6075
2026-01-10 08:04:42.19	86.04	9.21	-30.5	-34.1	11.0	2.39e-03	0	40	0	62914560	22	5483
2026-01-10 08:04:45.19	85.67	9.40	-30.4	-33.9	11.2	1.76e-03	0	40	0	69206016	22	5376
2026-01-10 08:04:48.19	85.30	9.58	-30.4	-33.8	11.3	1.23e-03	0	41	0	74448896	22	5309
2026-01-10 08:04:51.18	84.92	9.76	-30.3	-33.5	11.5	9.36e-04	0	41	0	79691776	22	5209
2026-01-10 08:04:54.20	84.54	9.94	-30.4	-34.4	11.2	1.60e-03	0	41	0	85983232	21	5685
2026-01-10 08:04:57.20	84.15	10.12	-30.8	-35.1	10.3	7.74e-03	0	41	0	91226112	22	5938
2026-01-10 08:05:00.20	83.75	10.30	-30.6	-34.3	10.9	1.62e-03	0	41	0	97517568	22	5547
2026-01-10 08:05:03.20	83.36	10.48	-30.5	-34.2	11.1	1.86e-03	0	41	0	102760448	22	5479
2026-01-10 08:05:06.21	82.95	10.67	-30.4	-33.8	11.4	1.17e-03	0	41	0	108003328	22	5316
2026-01-10 08:05:09.22	82.54	10.85	-30.4	-33.8	11.4	9.47e-04	0	41	0	114294784	22	5317
2026-01-10 08:05:12.21	82.13	11.03	-30.3	-33.4	11.7	7.67e-04	0	41	0	119537664	22	5143
2026-01-10 08:05:15.21	81.71	11.21	-30.4	-33.8	11.5	8.25e-04	0	41	0	124780544	22	5297
2026-01-10 08:05:18.22	81.28	11.39	-30.4	-33.6	11.6	5.92e-04	0	41	0	131072000	22	5202
2026-01-10 08:05:21.22	80.85	11.57	-30.4	-33.7	11.5	7.35e-04	0	41	0	136314880	22	5270
2026-01-10 08:05:24.23	80.42	11.75	-30.6	-34.5	11.1	1.87e-03	0	41	0	142606336	22	5587
2026-01-10 08:05:27.23	79.98	11.93	-30.7	-34.8	10.8	2.42e-03	0	41	0	147849216	22	5722
2026-01-10 08:05:30.22	79.53	12.11	-30.9	-35.4	10.3	3.55e-03	0	41	0	153092096	22	6014
2026-01-10 08:05:33.23	79.08	12.29	-30.8	-34.8	10.8	2.00e-03	0	41	0	159383552	22	5736
2026-01-10 08:05:36.23	78.62	12.47	-30.6	-34.2	11.2	1.55e-03	0	41	0	164626432	22	5468
2026-01-10 08:05:39.23	78.16	12.65	-30.7	-34.6	11.0	1.83e-03	0	41	0	169869312	22	5630
2026-01-10 08:05:42.23	77.69	12.83	-30.7	-34.7	11.0	2.03e-03	0	41	0	176160768	22	5658
2026-01-10 08:05:45.23	77.22	13.01	-30.8	-34.8	10.9	2.04e-03	0	41	0	181403648	22	5731
2026-01-10 08:05:48.23	76.74	13.18	-30.6	-34.3	11.3	1.44e-03	0	41	0	186646528	22	5470
2026-01-10 08:05:51.23	76.25	13.36	-30.4	-33.6	11.7	8.46e-04	0	41	0	192937984	22	5202
2026-01-10 08:05:54.25	75.75	13.53	-30.3	-33.8	12.0	3.54e-04	0	41	0	198180864	21	5366
2026-01-10 08:05:57.25	75.26	13.71	-30.2	-33.3	12.3	2.05e-04	0	41	0	204472320	21	5173
2026-01-10 08:06:00.26	74.75	13.88	-30.2	-33.4	12.3	1.45e-04	0	41	0	209715200	21	5185
2026-01-10 08:06:03.26	74.24	14.05	-30.2	-33.4	12.3	1.40e-04	0	41	0	214958080	21	5192
2026-01-10 08:06:06.26	73.73	14.23	-30.4	-33.9	11.9	2.65e-04	0	41	0	221249536	21	5425
2026-01-10 08:06:09.26	73.20	14.40	-30.2	-33.3	12.3	2.01e-04	0	41	0	226492416	21	5176
2026-01-10 08:06:12.26	72.68	14.56	-30.3	-33.6	12.2	1.64e-04	0	41	0	231735296	21	5295
2026-01-10 08:06:15.27	72.14	14.73	-29.9	-32.5	12.9	7.78e-05	0	41	0	238026752	21	4857
2026-01-10 08:06:18.27	71.60	14.90	-29.8	-32.7	13.2	2.13e-05	0	42	0	243269632	20	5021
2026-01-10 08:06:21.27	71.06	15.06	-29.6	-32.1	13.6	1.29e-05	0	42	0	249561088	20	4805
2026-01-10 08:06:24.29	70.50	15.23	-29.5	-32.0	13.6	6.10e-06	0	42	0	254803968	20	4785
2026-01-10 08:06:27.29	69.94	15.39	-29.4	-31.7	13.9	5.30e-06	0	41	0	260046848	20	4658
2026-01-10 08:06:30.28	69.38	15.55	-29.6	-32.0	13.7	3.80e-06	0	41	0	266338304	20	4764
2026-01-10 08:06:33.29	68.81	15.71	-29.3	-31.4	14.1	2.20e-06	0	42	0	271581184	20	4569
2026-01-10 08:06:36.30	68.23	15.86	-29.4	-31.6	13.9	4.50e-06	0	42	0	276824064	20	4634
2026-01-10 08:06:39.30	67.65	16.02	-29.7	-32.3	13.5	1.60e-05	0	42	0	283115520	20	4887
2026-01-10 08:06:42.32	67.05	16.17	-29.5	-31.9	13.8	5.30e-06	0	41	0	288358400	20	4734
2026-01-10 08:06:45.33	66.46	16.32	-29.7	-32.4	13.5	1.22e-05	0	42	0	294649856	20	4905
2026-01-10 08:06:48.34	65.85	16.47	-29.7	-32.3	13.6	9.90e-06	0	42	0	299892736	20	4864
2026-01-10 08:06:51.34	65.25	16.61	-29.6	-32.1	13.6	2.20e-06	0	42	0	305135616	20	4811
2026-01-10 08:06:54.34	64.64	16.75	-29.6	-32.1	13.7	4.50e-06	0	42	0	311427072	20	4790
2026-01-10 08:06:57.35	64.02	16.90	-29.5	-31.8	13.9	5.30e-06	0	41	0	316669952	20	4688
2026-01-10 08:07:00.36	63.39	17.03	-29.8	-32.5	13.5	1.60e-05	0	42	0	321912832	20	4940
2026-01-10 08:07:03.36	62.76	17.17	-29.4	-31.6	14.1	1.50e-06	0	41	0	328204288	20	4630
2026-01-10 08:07:06.36	62.12	17.30	-29.6	-32.0	13.8	9.90e-06	0	42	0	333447168	20	4768
2026-01-10 08:07:09.36	61.48	17.43	-29.1	-31.1	14.8	1.50e-06	0	42	0	339738624	19	4562
2026-01-10 08:07:12.37	60.84	17.55	-28.9	-30.7	15.0	7.00e-07	0	42	0	344981504	19	4428
2026-01-10 08:07:15.38	60.18	17.68	-29.1	-31.2	14.7	0.00e+00	0	42	0	350224384	19	4573
2026-01-10 08:07:18.39	59.52	17.80	-28.9	-30.6	15.1	7.00e-07	0	42	0	356515840	19	4408
2026-01-10 08:07:21.38	58.86	17.91	-28.8	-30.4	15.3	0.00e+00	0	42	0	361758720	19	4333
2026-01-10 08:07:24.38	58.20	18.03	-28.9	-31.2	15.1	0.00e+00	0	42	0	367001600	18	4676
2026-01-10 08:07:27.39	57.52	18.14	-29.0	-31.4	14.9	0.00e+00	0	42	0	373293056	18	4755
2026-01-10 08:07:30.40	56.84	18.24	-29.1	-31.8	14.7	0.00e+00	0	42	0	378535936	18	4875
2026-01-10 08:07:33.41	56.16	18.34	-29.1	-31.7	14.8	7.00e-07	0	42	0	384827392	18	4848
2026-01-10 08:07:36.42	55.47	18.44	-29.1	-31.7	14.8	0.00e+00	0	41	0	390070272	18	4850
2026-01-10 08:07:39.43	54.78	18.54	-29.2	-31.9	14.7	0.00e+00	0	42	0	395313152	18	4905
2026-01-10 08:07:42.44	54.08	18.63	-29.3	-31.6	14.5	7.00e-07	0	42	0	401604608	19	4707
2026-01-10 08:07:45.45	53.38	18.71	-29.5	-32.2	14.2	7.00e-07	0	42	0	406847488	19	4919
2026-01-10 08:07:48.45	52.68	18.79	-29.7	-32.7	13.8	2.20e-06	0	42	0	412090368	19	5101
2026-01-10 08:07:51.46	51.97	18.87	-29.7	-32.7	13.9	4.50e-06	0	42	0	418381824	19	5097
2026-01-10 08:07:54.46	51.26	18.94	-29.8	-32.9	13.7	6.10e-06	0	42	0	423624704	19	5177
2026-01-10 08:07:57.47	50.55	19.01	-29.7	-32.6	13.9	3.80e-06	0	42	0	429916160	19	5071
2026-01-10 08:08:00.47	49.83	19.08	-29.9	-33.3	13.5	5.30e-06	0	42	0	435159040	19	5316
2026-01-10 08:08:03.49	49.11	19.14	-30.2	-33.6	12.9	3.05e-05	0	42	0	440401920	20	5335
2026-01-10 08:08:06.49	48.38	19.19	-30.3	-33.9	12.7	7.32e-05	0	42	0	446693376	20	5450
2026-01-10 08:08:09.50	47.66	19.24	-30.3	-34.0	12.7	1.01e-04	0	42	0	451936256	20	5479
2026-01-10 08:08:12.49	46.93	19.29	-30.1	-33.5	12.9	5.26e-05	0	42	0	457179136	20	5297
2026-01-10 08:08:15.50	46.20	19.33	-30.0	-33.2	13.2	2.44e-05	0	42	0	463470592	20	5174
2026-01-10 08:08:18.51	45.47	19.37	-30.4	-34.3	12.4	5.64e-05	0	42	0	468713472	20	5616
2026-01-10 08:08:21.52	44.74	19.40	-30.1	-33.4	13.0	4.19e-05	0	42	0	475004928	20	5262
2026-01-10 08:08:24.53	44.00	19.42	-30.0	-33.1	13.2	2.05e-05	0	42	0	480247808	20	5142
2026-01-10 08:08:27.53	43.27	19.45	-30.0	-33.0	13.3	9.90e-06	0	42	0	485490688	20	5092
2026-01-10 08:08:30.54	42.53	19.46	-29.9	-32.8	13.5	1.52e-05	0	42	0	491782144	20	5020
2026-01-10 08:08:33.54	41.79	19.47	-29.9	-32.7	13.4	1.67e-05	0	42	0	497025024	20	4988
2026-01-10 08:08:36.53	41.06	19.48	-29.8	-32.6	13.5	1.60e-05	0	42	0	502267904	20	4953
2026-01-10 08:08:39.54	40.32	19.48	-29.5	-31.8	14.0	6.80e-06	0	42	0	508559360	20	4684
2026-01-10 08:08:42.55	39.58	19.48	-29.6	-31.9	14.0	3.00e-06	0	42	0	513802240	20	4710
2026-01-10 08:08:45.55	38.85	19.47	-29.5	-31.6	14.2	2.20e-06	0	42	0	520093696	20	4624
2026-01-10 08:08:48.56	38.11	19.46	-29.4	-31.4	14.3	1.50e-06	0	42	0	525336576	20	4562
2026-01-10 08:08:51.56	37.37	19.44	-29.3	-31.3	14.4	0.00e+00	0	41	0	530579456	20	4505
2026-01-10 08:08:54.57	36.64	19.42	-29.3	-31.6	14.6	7.00e-07	0	42	0	536870912	19	4699
2026-01-10 08:08:57.58	35.90	19.39	-29.2	-31.3	14.8	0.00e+00	0	42	0	542113792	19	4616
2026-01-10 08:09:00.58	35.17	19.36	-29.0	-30.9	15.0	0.00e+00	0	42	0	547356672	19	4487
2026-01-10 08:09:03.60	34.44	19.32	-28.9	-30.7	15.1	0.00e+00	0	42	0	553648128	19	4409
2026-01-10 08:09:06.61	33.71	19.28	-28.9	-30.8	15.1	0.00e+00	0	42	0	558891008	19	4434
2026-01-10 08:09:09.61	32.98	19.23	-28.7	-30.7	15.5	0.00e+00	0	42	0	565182464	18	4517
2026-01-10 08:09:12.62	32.26	19.18	-28.7	-30.6	15.5	0.00e+00	0	42	0	570425344	18	4500
2026-01-10 08:09:15.62	31.54	19.12	-29.0	-31.5	15.0	0.00e+00	0	42	0	575668224	18	4763
2026-01-10 08:09:18.63	30.82	19.06	-29.1	-31.7	14.9	0.00e+00	0	42	0	581959680	18	4833
2026-01-10 08:09:21.64	30.10	19.00	-28.9	-31.1	15.2	0.00e+00	0	42	0	587202560	18	4656
2026-01-10 08:09:24.65	29.39	18.93	-29.0	-31.3	15.1	0.00e+00	0	42	0	592445440	18	4725
2026-01-10 08:09:27.66	28.68	18.85	-29.1	-31.7	14.9	0.00e+00	0	42	0	598736896	18	4841
2026-01-10 08:09:30.67	27.97	18.77	-29.2	-31.8	14.8	0.00e+00	0	42	0	603979776	18	4888
2026-01-10 08:09:33.68	27.27	18.69	-29.3	-32.1	14.6	0.00e+00	0	42	0	610271232	18	4997
2026-01-10 08:09:36.69	26.57	18.60	-29.6	-32.5	14.0	3.00e-06	0	42	0	615514112	19	5028
2026-01-10 08:09:39.70	25.88	18.51	-29.7	-32.7	13.9	2.20e-06	0	42	0	620756992	19	5080
2026-01-10 08:09:42.71	25.19	18.42	-29.8	-33.0	13.7	4.50e-06	0	42	0	627048448	19	5186
2026-01-10 08:09:45.72	24.50	18.32	-30.1	-33.4	13.0	3.05e-05	0	42	0	632291328	20	5269
2026-01-10 08:09:48.74	23.82	18.22	-29.8	-32.6	13.5	7.60e-06	0	42	0	638582784	20	4956
2026-01-10 08:09:51.73	23.15	18.11	-30.0	-32.9	13.5	9.10e-06	0	42	0	643825664	20	5050
2026-01-10 08:09:54.72	22.48	18.00	-30.2	-33.6	13.0	2.74e-05	0	42	0	649068544	20	5306
2026-01-10 08:09:57.72	21.81	17.89	-30.3	-33.4	12.8	2.59e-05	0	42	0	655360000	21	5143
2026-01-10 08:10:00.72	21.16	17.77	-30.5	-33.5	12.4	5.89e-04	0	42	0	660602880	22	5053
2026-01-10 08:10:03.73	20.50	17.65	-30.8	-34.4	11.7	3.19e-04	0	42	0	665845760	22	5463
2026-01-10 08:10:06.73	19.85	17.53	-30.4	-33.8	12.4	5.41e-05	0	42	0	672137216	21	5318
2026-01-10 08:10:09.74	19.21	17.40	-30.6	-34.3	12.1	4.25e-04	0	42	0	677380096	21	5498
2026-01-10 08:10:12.75	18.57	17.27	-30.4	-33.6	12.5	3.12e-05	0	42	0	682622976	21	5233
2026-01-10 08:10:15.74	17.94	17.14	-30.3	-33.5	12.6	5.79e-05	0	42	0	688914432	21	5187
2026-01-10 08:10:18.75	17.31	17.00	-30.2	-33.3	12.8	5.95e-05	0	42	0	694157312	21	5113
2026-01-10 08:10:21.76	16.69	16.87	-29.9	-32.4	13.3	1.29e-05	0	42	0	700448768	21	4783
2026-01-10 08:10:24.76	16.07	16.73	-30.0	-32.7	13.1	3.12e-05	0	42	0	705691648	21	4910
2026-01-10 08:10:27.76	15.46	16.58	-30.3	-33.4	12.7	6.56e-05	0	42	0	710934528	21	5145
2026-01-10 08:10:30.76	14.86	16.44	-30.4	-33.8	12.4	9.30e-05	0	42	0	717225984	21	5314
2026-01-10 08:10:33.78	14.26	16.29	-30.7	-34.6	12.0	2.39e-04	0	42	0	722468864	21	5617
2026-01-10 08:10:36.78	13.67	16.14	-30.4	-33.8	12.5	1.53e-04	0	42	0	727711744	21	5299
2026-01-10 08:10:39.79	13.08	15.99	-30.4	-33.7	12.6	1.12e-04	0	42	0	734003200	21	5265
2026-01-10 08:10:42.78	12.50	15.83	-30.4	-33.6	12.6	5.18e-05	0	42	0	739246080	21	5212
2026-01-10 08:10:45.79	11.93	15.68	-30.2	-33.0	12.9	4.27e-05	0	42	0	745537536	21	5015
2026-01-10 08:10:48.80	11.36	15.52	-30.1	-32.8	13.2	2.44e-05	0	42	0	750780416	21	4922
2026-01-10 08:10:51.80	10.80	15.36	-30.1	-32.9	13.1	2.05e-05	0	42	0	756023296	21	4957
2026-01-10 08:10:54.79	10.25	15.20	-30.2	-33.1	12.9	6.10e-05	0	42	0	762314752	21	5046
2026-01-10 08:10:57.79	9.70	15.04	-30.4	-33.7	12.5	8.39e-05	0	42	0	767557632	21	5275
2026-01-10 08:11:00.79	9.16	14.87	-30.6	-34.1	12.2	1.84e-04	0	42	0	772800512	21	5435
2026-01-10 08:11:03.79	8.62	14.71	-30.6	-34.3	12.1	2.15e-04	0	42	0	779091968	21	5509
2026-01-10 08:11:06.80	8.09	14.54	-30.7	-34.6	11.9	1.68e-04	0	42	0	784334848	21	5622
2026-01-10 08:11:09.81	7.56	14.37	-30.3	-33.5	12.6	1.11e-04	0	42	0	789577728	21	5201
2026-01-10 08:11:12.82	7.04	14.20	-30.6	-34.1	12.3	1.90e-04	0	42	0	795869184	21	5433
2026-01-10 08:11:15.82	6.53	14.03	-30.6	-34.5	11.9	7.59e-04	0	42	0	801112064	21	5598
2026-01-10 08:11:18.83	6.02	13.86	-30.4	-33.7	12.4	2.66e-04	0	42	0	807403520	21	5288
2026-01-10 08:11:21.83	5.52	13.68	-30.2	-33.3	12.6	1.22e-04	0	42	0	812646400	21	5127
2026-01-10 08:11:24.84	5.03	13.51	-30.2	-33.2	12.7	5.56e-05	0	42	0	817889280	21	5084
2026-01-10 08:11:27.85	4.54	13.33	-30.1	-32.8	13.0	4.65e-05	0	42	0	824180736	21	4943
2026-01-10 08:11:30.86	4.05	13.16	-30.0	-32.8	13.0	3.05e-05	0	42	0	829423616	21	4930
2026-01-10 08:11:33.87	3.58	12.98	-30.1	-32.9	12.8	5.34e-05	0	42	0	835715072	21	4980
2026-01-10 08:11:36.88	3.11	12.80	-30.1	-33.0	12.7	6.10e-05	0	42	0	840957952	21	5043
2026-01-10 08:11:39.89	2.64	12.62	-30.1	-33.1	12.9	1.04e-04	0	42	0	846200832	21	5033
2026-01-10 08:11:42.90	2.18	12.45	-29.9	-32.3	13.3	2.13e-05	0	42	0	852492288	21	4754
2026-01-10 08:11:45.91	1.72	12.27	-29.8	-32.5	13.5	1.90e-05	0	42	0	857735168	20	4942
2026-01-10 08:11:48.92	1.27	12.09	-30.0	-33.2	13.1	4.42e-05	0	42	0	862978048	20	5203
2026-01-10 08:11:51.93	0.83	11.91	-30.1	-33.5	12.9	4.57e-05	0	42	0	869269504	20	5309
2026-01-10 08:11:54.92	0.40	11.73	-30.1	-33.4	12.9	5.41e-05	0	42	0	874512384	20	5264
2026-01-10 08:11:57.94	359.96	11.55	-29.8	-32.4	13.6	8.30e-06	0	42	0	880803840	20	4899
2026-01-10 08:12:00.93	359.54	11.37	-30.0	-33.2	13.1	2.74e-05	0	42	0	886046720	20	5180
2026-01-10 08:12:03.94	359.11	11.19	-29.9	-32.9	13.1	2.13e-05	0	42	0	891289600	20	5108
2026-01-10 08:12:06.95	358.70	11.01	-30.0	-33.2	12.9	6.79e-05	0	42	0	897581056	20	5215
2026-01-10 08:12:09.97	358.29	10.82	-29.8	-32.6	13.4	1.83e-05	0	42	0	902823936	20	4956
2026-01-10 08:12:12.98	357.88	10.64	-29.8	-32.5	13.4	1.06e-05	0	42	0	908066816	20	4931
2026-01-10 08:12:15.98	357.48	10.46	-29.9	-32.9	13.1	3.05e-05	0	42	0	914358272	20	5083
2026-01-10 08:12:18.99	357.08	10.28	-30.0	-33.3	12.9	6.63e-05	0	42	0	919601152	20	5250
2026-01-10 08:12:21.99	356.69	10.10	-29.9	-33.0	13.0	4.50e-05	0	42	0	925892608	20	5147
2026-01-10 08:12:24.99	356.31	9.92	-29.8	-32.6	13.2	2.59e-05	0	42	0	931135488	20	4975
2026-01-10 08:12:27.99	355.93	9.74	-29.7	-32.5	13.3	1.44e-05	0	42	0	936378368	20	4953
2026-01-10 08:12:30.99	355.55	9.56	-29.8	-32.7	13.1	2.89e-05	0	42	0	942669824	20	5025
2026-01-10 08:12:33.99	355.18	9.38	-29.9	-33.1	12.8	4.42e-05	0	42	0	947912704	20	5197
2026-01-10 08:12:37.00	354.82	9.20	-29.8	-32.8	12.9	8.77e-05	0	42	0	953155584	20	5079
2026-01-10 08:12:40.00	354.46	9.02	-30.2	-33.9	12.4	1.79e-04	0	42	0	959447040	20	5518
2026-01-10 08:12:43.00	354.10	8.84	-30.3	-34.3	12.1	2.23e-04	0	42	0	964689920	20	5651
2026-01-10 08:12:46.01	353.75	8.66	-30.2	-34.0	12.1	2.57e-04	0	42	0	969932800	20	5586
2026-01-10 08:12:49.01	353.40	8.48	-30.4	-34.4	11.9	3.33e-04	0	42	0	976224256	20	5718
2026-01-10 08:12:52.03	353.05	8.30	-30.3	-34.3	12.0	4.66e-04	0	42	0	981467136	20	5695
2026-01-10 08:12:55.04	352.71	8.12	-30.7	-35.0	11.0	1.20e-03	0	42	0	987758592	21	5900
2026-01-10 08:12:58.04	352.38	7.94	-30.6	-34.7	11.1	1.81e-03	0	42	0	993001472	21	5812
2026-01-10 08:13:01.05	352.05	7.76	-30.7	-35.1	10.8	1.81e-03	0	42	0	998244352	21	5989
2026-01-10 08:13:04.05	351.72	7.58	-30.6	-34.8	10.9	2.45e-03	0	42	0	1004535808	21	5879
2026-01-10 08:13:07.06	351.40	7.40	-30.6	-35.1	10.6	2.93e-03	0	42	0	1009778688	21	6042
2026-01-10 08:13:10.07	351.08	7.22	-30.5	-34.6	11.1	1.79e-03	0	42	0	1016070144	21	5759
2026-01-10 08:13:13.08	350.76	7.05	-32.9	-45.9	3.8	1.49e+00	0	42	104	1020264448	25	16088
2026-01-10 08:13:16.08	350.45	6.87	-33.6	-47.8	3.8	1.49e+00	0	42	104	1020264448	27	18358

#Closed at: 2026-01-10 08:13:16
#Recorded file [1020 MB]: D:/data/31010_260110_110408.dat