passes_logs/2026/01/10/R2M6_AANII_01/R2M6_AANII_01__20260110_233022_NOAA_20_JPSS-1_rec.log

#Pass ID: 20260110_233022_NOAA 20 (JPSS-1)
#Satellite: NOAA 20 (JPSS-1)
#Configuration: NOAA 20
#almurnet v.1.7.20240730
#Start time: 2026-01-10 23:30:23

#Version: 2.2.20231116
#Station: R2M6_AANII_01
#Location: 30.233357 lon 59.946436 lat
#TLE: 1 43013U 17073A   26009.69119415  .00000109  00000+0  72598-4 0  9996
#TLE: 2 43013  98.7631 310.6868 0001678  46.7442 313.3874 14.19534878421981

#Time	Az	El	Level	Level2	SNR	BER	BlckErr	Temp	State	Recorded	gain1	gain2
2026-01-10 23:30:23.19	23.26	7.08	-31.1	-37.2	5.1	1.26e+00	0	39	0	0	22	7204
2026-01-10 23:30:26.19	23.41	7.30	-31.4	-38.1	7.5	9.92e-02	0	40	0	1048576	22	7845
2026-01-10 23:30:29.22	23.57	7.52	-31.4	-38.3	7.5	1.03e-01	0	40	0	7340032	22	7937
2026-01-10 23:30:32.23	23.72	7.75	-31.4	-37.9	7.3	1.58e-01	0	40	0	12582912	23	7547
2026-01-10 23:30:35.25	23.88	7.98	-31.0	-36.4	8.9	3.91e-02	0	40	0	18874368	22	6706
2026-01-10 23:30:38.26	24.05	8.20	-30.7	-35.7	9.8	1.14e-02	0	40	0	24117248	21	6428
2026-01-10 23:30:41.27	24.21	8.43	-30.9	-36.7	9.1	1.61e-02	0	40	0	29360128	21	6961
2026-01-10 23:30:44.28	24.38	8.67	-31.1	-36.8	8.6	3.85e-02	0	40	0	35651584	22	6935
2026-01-10 23:30:47.30	24.55	8.90	-30.4	-34.8	10.5	6.07e-03	0	40	0	40894464	21	5932
2026-01-10 23:30:50.32	24.72	9.14	-30.0	-33.9	11.6	1.25e-03	0	40	0	46137344	20	5637
2026-01-10 23:30:53.33	24.90	9.38	-30.2	-34.4	11.3	1.53e-03	0	40	0	52428800	20	5824
2026-01-10 23:30:56.35	25.08	9.62	-29.9	-33.5	11.9	4.61e-04	0	40	0	57671680	20	5459
2026-01-10 23:30:59.36	25.26	9.86	-30.2	-34.3	11.4	8.43e-04	0	40	0	63963136	20	5776
2026-01-10 23:31:02.37	25.44	10.10	-30.2	-34.5	11.3	1.53e-03	0	41	0	69206016	20	5873
2026-01-10 23:31:05.39	25.63	10.35	-30.0	-33.7	11.9	7.59e-04	0	41	0	74448896	20	5531
2026-01-10 23:31:08.41	25.81	10.60	-30.1	-34.0	11.7	1.16e-03	0	41	0	80740352	20	5625
2026-01-10 23:31:11.42	26.01	10.85	-29.8	-33.5	12.4	6.03e-04	0	41	0	85983232	19	5517
2026-01-10 23:31:14.43	26.20	11.11	-29.8	-33.5	12.5	1.22e-04	0	41	0	92274688	19	5499
2026-01-10 23:31:17.44	26.40	11.36	-29.8	-33.4	12.6	8.46e-05	0	41	0	97517568	19	5465
2026-01-10 23:31:20.46	26.60	11.62	-29.6	-33.0	12.8	5.87e-05	0	41	0	102760448	19	5323
2026-01-10 23:31:23.47	26.81	11.88	-29.7	-33.1	12.8	3.32e-04	0	41	0	109051904	19	5336
2026-01-10 23:31:26.49	27.02	12.15	-29.6	-32.9	12.9	3.37e-04	0	41	0	114294784	19	5278
2026-01-10 23:31:29.51	27.23	12.42	-29.6	-33.0	12.9	2.74e-04	0	41	0	120586240	19	5317
2026-01-10 23:31:32.52	27.44	12.68	-29.6	-32.7	13.1	3.81e-05	0	41	0	125829120	19	5200
2026-01-10 23:31:35.54	27.66	12.96	-29.5	-32.6	13.2	1.83e-05	0	41	0	131072000	19	5149
2026-01-10 23:31:38.55	27.89	13.23	-29.4	-32.7	13.5	8.30e-06	0	41	0	137363456	18	5299
2026-01-10 23:31:41.56	28.11	13.51	-29.3	-32.6	13.6	1.06e-05	0	41	0	142606336	18	5226
2026-01-10 23:31:44.56	28.34	13.79	-28.3	-31.4	13.7	1.29e-05	0	41	0	147849216	18	5138
2026-01-10 23:31:47.56	28.58	14.07	-29.4	-32.7	13.0	1.44e-05	0	41	0	154140672	18	5264
2026-01-10 23:31:50.58	28.82	14.35	-29.4	-32.7	13.5	3.58e-05	0	41	0	159383552	18	5287
2026-01-10 23:31:53.60	29.06	14.64	-29.4	-32.7	13.5	1.02e-03	0	41	0	165675008	18	5287
2026-01-10 23:31:56.61	29.31	14.94	-29.5	-32.9	13.5	1.47e-03	0	41	0	170917888	18	5356
2026-01-10 23:31:59.61	29.56	15.23	-29.5	-32.6	13.3	1.15e-03	0	41	0	176160768	19	5130
2026-01-10 23:32:02.62	29.82	15.53	-29.5	-32.5	13.4	1.13e-03	0	41	0	182452224	19	5098
2026-01-10 23:32:05.65	30.09	15.83	-29.5	-32.6	13.4	5.41e-04	0	41	0	187695104	19	5110
2026-01-10 23:32:08.65	30.35	16.13	-29.5	-32.6	13.4	4.06e-04	0	41	0	193986560	19	5109
2026-01-10 23:32:11.67	30.63	16.44	-29.5	-32.6	13.4	5.18e-04	0	41	0	199229440	19	5129
2026-01-10 23:32:14.68	30.91	16.75	-29.5	-32.5	13.5	6.27e-04	0	41	0	204472320	19	5104
2026-01-10 23:32:17.70	31.19	17.07	-29.7	-32.9	13.2	5.12e-04	0	41	0	210763776	19	5252
2026-01-10 23:32:20.71	31.48	17.38	-29.6	-32.7	13.4	5.46e-04	0	41	0	216006656	19	5158
2026-01-10 23:32:23.73	31.78	17.71	-29.7	-33.0	13.2	5.99e-04	0	41	0	221249536	19	5259
2026-01-10 23:32:26.75	32.08	18.03	-29.6	-32.8	13.4	4.94e-04	0	41	0	227540992	19	5190
2026-01-10 23:32:29.77	32.39	18.36	-29.5	-32.4	13.6	6.01e-04	0	41	0	232783872	19	5044
2026-01-10 23:32:32.78	32.70	18.69	-29.4	-32.1	13.9	2.01e-04	0	41	0	239075328	19	4913
2026-01-10 23:32:35.80	33.03	19.03	-29.3	-31.9	14.0	1.81e-04	0	41	0	244318208	19	4846
2026-01-10 23:32:38.81	33.35	19.37	-29.4	-32.7	13.8	2.23e-04	0	41	0	249561088	18	5243
2026-01-10 23:32:41.83	33.69	19.71	-29.5	-32.4	13.7	2.57e-04	0	42	0	255852544	19	5019
2026-01-10 23:32:44.85	34.03	20.06	-29.6	-32.6	13.6	2.39e-04	0	42	0	261095424	19	5091
2026-01-10 23:32:47.86	34.38	20.41	-29.6	-32.7	13.5	1.14e-05	0	42	0	267386880	19	5150
2026-01-10 23:32:50.89	34.74	20.77	-29.7	-32.9	13.4	1.22e-05	0	42	0	272629760	19	5194
2026-01-10 23:32:53.90	35.11	21.13	-29.7	-32.9	13.4	1.44e-05	0	42	0	277872640	19	5212
2026-01-10 23:32:56.92	35.49	21.49	-29.7	-33.0	13.3	1.44e-05	0	42	0	284164096	19	5232
2026-01-10 23:32:59.93	35.87	21.86	-29.8	-33.2	13.3	1.48e-04	0	42	0	289406976	19	5306
2026-01-10 23:33:02.95	36.26	22.23	-29.8	-33.3	13.2	2.11e-04	0	42	0	295698432	19	5357
2026-01-10 23:33:05.97	36.66	22.61	-29.8	-33.3	13.2	2.51e-05	0	42	0	300941312	19	5358
2026-01-10 23:33:08.99	37.08	22.99	-29.8	-33.0	13.4	2.59e-05	0	42	0	306184192	19	5253
2026-01-10 23:33:12.01	37.50	23.37	-29.7	-32.9	13.5	1.90e-05	0	42	0	312475648	19	5193
2026-01-10 23:33:15.01	37.93	23.76	-29.7	-32.8	13.6	8.30e-06	0	42	0	317718528	19	5149
2026-01-10 23:33:18.03	38.37	24.15	-29.6	-32.7	13.7	8.30e-06	0	42	0	324009984	19	5107
2026-01-10 23:33:21.05	38.82	24.55	-29.6	-32.6	13.7	3.00e-06	0	42	0	329252864	19	5085
2026-01-10 23:33:24.06	39.29	24.95	-29.7	-32.8	13.6	5.30e-06	0	42	0	334495744	19	5156
2026-01-10 23:33:27.08	39.76	25.36	-29.9	-33.3	13.3	1.37e-05	0	42	0	340787200	19	5343
2026-01-10 23:33:30.09	40.25	25.77	-29.9	-33.4	13.2	2.67e-05	0	42	0	346030080	19	5369
2026-01-10 23:33:33.11	40.75	26.18	-30.2	-33.9	12.5	8.46e-05	0	42	0	352321536	20	5472
2026-01-10 23:33:36.13	41.27	26.60	-30.2	-33.9	12.5	6.48e-05	0	42	0	357564416	20	5467
2026-01-10 23:33:39.14	41.79	27.02	-30.0	-33.1	13.0	3.96e-05	0	42	0	362807296	20	5170
2026-01-10 23:33:42.16	42.34	27.45	-29.8	-32.6	13.4	9.90e-06	0	42	0	369098752	20	4961
2026-01-10 23:33:45.18	42.89	27.88	-30.0	-33.1	13.1	1.90e-05	0	42	0	374341632	20	5142
2026-01-10 23:33:48.19	43.46	28.31	-30.4	-34.2	12.4	9.91e-05	0	42	0	380633088	20	5587
2026-01-10 23:33:51.21	44.05	28.75	-30.5	-34.2	12.1	3.17e-04	0	42	0	385875968	21	5476
2026-01-10 23:33:54.23	44.65	29.20	-30.6	-34.3	12.0	3.71e-04	0	42	0	391118848	21	5515
2026-01-10 23:33:57.22	45.26	29.64	-30.8	-35.0	11.5	7.70e-04	0	42	0	397410304	21	5840
2026-01-10 23:34:00.24	45.90	30.09	-30.8	-34.8	11.7	6.06e-04	0	42	0	402653184	21	5766
2026-01-10 23:34:03.25	46.55	30.54	-30.7	-34.6	11.8	4.89e-04	0	42	0	408944640	21	5675
2026-01-10 23:34:06.27	47.22	31.00	-30.8	-35.0	11.5	7.29e-04	0	42	0	414187520	21	5833
2026-01-10 23:34:09.28	47.91	31.45	-30.6	-34.4	12.0	3.22e-04	0	42	0	419430400	21	5555
2026-01-10 23:34:12.30	48.62	31.92	-30.6	-34.2	12.1	2.75e-04	0	42	0	425721856	21	5489
2026-01-10 23:34:15.32	49.35	32.38	-30.7	-34.7	11.8	5.28e-04	0	42	0	430964736	21	5711
2026-01-10 23:34:18.33	50.10	32.84	-30.1	-32.8	13.1	3.96e-05	0	42	0	436207616	21	4907
2026-01-10 23:34:21.35	50.87	33.31	-30.0	-33.1	13.2	2.36e-05	0	42	0	442499072	20	5145
2026-01-10 23:34:24.37	51.66	33.78	-30.4	-34.2	12.6	8.85e-05	0	42	0	447741952	20	5563
2026-01-10 23:34:27.39	52.48	34.25	-30.6	-34.3	12.1	6.10e-04	0	42	0	454033408	21	5534
2026-01-10 23:34:30.41	53.32	34.72	-30.2	-33.1	12.9	2.87e-04	0	42	0	459276288	21	5041
2026-01-10 23:34:33.41	54.18	35.19	-29.8	-32.4	13.7	9.10e-06	0	42	0	464519168	20	4887
2026-01-10 23:34:36.42	55.07	35.66	-29.8	-33.1	13.6	2.20e-06	0	42	0	470810624	19	5230
2026-01-10 23:34:39.45	55.99	36.14	-30.0	-33.0	13.4	1.22e-05	0	42	0	476053504	20	5088
2026-01-10 23:34:42.46	56.92	36.60	-30.0	-33.1	13.3	2.59e-05	0	42	0	482344960	20	5124
2026-01-10 23:34:45.47	57.89	37.07	-30.1	-33.3	13.2	5.90e-04	0	42	0	487587840	20	5205
2026-01-10 23:34:48.49	58.89	37.53	-30.4	-34.2	12.5	4.24e-04	0	42	0	492830720	20	5579
2026-01-10 23:34:51.50	59.91	37.99	-30.8	-35.0	11.7	6.00e-04	0	42	0	499122176	21	5803
2026-01-10 23:34:54.52	60.96	38.45	-31.2	-35.6	10.9	1.74e-03	0	42	0	504365056	22	5963
2026-01-10 23:34:57.53	62.04	38.90	-31.3	-35.9	10.7	3.03e-03	0	42	0	510656512	22	6125
2026-01-10 23:35:00.55	63.16	39.35	-31.3	-36.0	10.7	3.27e-03	0	42	0	515899392	22	6154
2026-01-10 23:35:03.56	64.30	39.79	-31.0	-34.9	11.5	1.16e-03	0	42	0	521142272	22	5635
2026-01-10 23:35:06.58	65.47	40.22	-30.9	-34.6	11.7	8.48e-04	0	42	0	527433728	22	5502
2026-01-10 23:35:09.60	66.68	40.65	-30.7	-34.1	12.0	3.42e-04	0	42	0	532676608	22	5287
2026-01-10 23:35:12.62	67.92	41.06	-30.5	-34.0	12.4	2.72e-04	0	42	0	538968064	21	5359
2026-01-10 23:35:15.64	69.18	41.47	-31.3	-36.0	10.7	2.94e-03	0	42	0	544210944	22	6144
2026-01-10 23:35:18.65	70.48	41.86	-31.2	-34.9	11.1	2.78e-03	0	42	0	549453824	23	5548
2026-01-10 23:35:21.67	71.81	42.24	-31.1	-34.7	11.3	9.76e-04	0	42	0	555745280	23	5469
2026-01-10 23:35:24.68	73.17	42.61	-31.6	-36.4	10.0	6.51e-03	0	42	0	560988160	23	6238
2026-01-10 23:35:27.70	74.56	42.96	-31.4	-35.6	10.7	2.87e-03	0	42	0	567279616	23	5851
2026-01-10 23:35:30.72	75.99	43.30	-31.6	-36.4	10.1	6.63e-03	0	42	0	572522496	23	6250
2026-01-10 23:35:33.73	77.44	43.62	-31.6	-36.3	10.1	8.76e-03	0	42	0	577765376	23	6216
2026-01-10 23:35:36.75	78.92	43.92	-31.5	-35.9	10.5	2.76e-03	0	42	0	584056832	23	5974
2026-01-10 23:35:39.76	80.42	44.21	-31.5	-36.1	10.3	3.22e-03	0	42	0	589299712	23	6099
2026-01-10 23:35:42.77	81.95	44.47	-30.9	-34.0	11.8	6.66e-04	0	42	0	594542592	23	5146
2026-01-10 23:35:45.78	83.51	44.71	-30.8	-34.3	12.0	3.39e-04	0	42	0	600834048	22	5380
2026-01-10 23:35:48.79	85.08	44.94	-30.9	-34.6	11.9	7.09e-04	0	42	0	606076928	22	5478
2026-01-10 23:35:51.80	86.68	45.13	-30.6	-33.8	12.4	2.13e-04	0	42	0	612368384	22	5153
2026-01-10 23:35:54.80	88.29	45.31	-30.8	-34.3	11.9	4.13e-04	0	42	0	617611264	22	5395
2026-01-10 23:35:57.81	89.92	45.46	-29.8	-32.0	13.8	1.60e-05	0	42	0	622854144	21	4637
2026-01-10 23:36:00.84	91.58	45.58	-29.9	-32.2	13.8	3.50e-05	0	42	0	629145600	21	4678
2026-01-10 23:36:03.85	93.24	45.69	-30.2	-33.4	13.3	1.67e-05	0	42	0	634388480	20	5232
2026-01-10 23:36:06.87	94.92	45.76	-30.2	-33.4	13.2	4.04e-05	0	42	0	640679936	20	5248
2026-01-10 23:36:09.88	96.59	45.81	-29.9	-32.7	13.8	3.00e-06	0	42	0	645922816	20	4954
2026-01-10 23:36:12.90	98.28	45.83	-29.8	-32.4	13.9	6.80e-06	0	42	0	651165696	20	4850
2026-01-10 23:36:15.92	99.96	45.82	-30.1	-33.4	13.4	1.60e-05	0	42	0	657457152	20	5220
2026-01-10 23:36:18.94	101.65	45.79	-29.9	-32.7	13.7	1.62e-04	0	42	0	662700032	20	4963
2026-01-10 23:36:21.95	103.32	45.73	-30.3	-33.8	13.0	3.58e-05	0	42	0	668991488	20	5380
2026-01-10 23:36:24.96	104.99	45.65	-30.9	-35.1	11.8	4.29e-04	0	42	0	674234368	21	5851
2026-01-10 23:36:27.97	106.64	45.54	-31.8	-37.0	9.6	9.27e-03	0	42	0	679477248	23	6593
2026-01-10 23:36:30.99	108.29	45.40	-31.2	-34.9	11.1	1.91e-03	0	42	0	685768704	23	5536
2026-01-10 23:36:34.00	109.92	45.24	-31.2	-34.8	11.3	7.39e-04	0	42	0	691011584	23	5484
2026-01-10 23:36:37.01	111.53	45.06	-30.7	-33.8	12.3	5.91e-04	0	42	0	696254464	22	5157
2026-01-10 23:36:40.01	113.12	44.85	-31.2	-35.3	11.3	6.11e-04	0	42	0	702545920	22	5816
2026-01-10 23:36:43.01	114.68	44.62	-30.5	-33.3	12.7	5.64e-05	0	42	0	707788800	22	4981
2026-01-10 23:36:46.02	116.23	44.37	-30.6	-33.7	12.4	2.29e-04	0	42	0	714080256	22	5115
2026-01-10 23:36:49.00	117.74	44.10	-29.9	-32.7	13.8	3.80e-06	0	42	0	719323136	20	4957
2026-01-10 23:36:51.99	119.22	43.81	-29.6	-31.9	14.3	3.80e-06	0	42	0	724566016	20	4679
2026-01-10 23:36:54.98	120.68	43.51	-29.5	-32.1	14.5	0.00e+00	0	42	0	730857472	19	4866
2026-01-10 23:36:57.98	122.12	43.18	-29.6	-32.3	14.4	7.00e-07	0	42	0	736100352	19	4911
2026-01-10 23:37:00.99	123.53	42.84	-29.4	-31.9	14.7	7.00e-07	0	42	0	741343232	19	4766
2026-01-10 23:37:04.00	124.91	42.48	-28.8	-30.8	15.6	0.00e+00	0	42	0	747634688	18	4541
2026-01-10 23:37:07.00	126.26	42.11	-29.2	-31.4	14.9	1.50e-06	0	42	0	752877568	19	4608
2026-01-10 23:37:10.02	127.58	41.72	-28.8	-30.8	15.6	0.00e+00	0	42	0	758120448	18	4535
2026-01-10 23:37:13.03	128.87	41.32	-29.1	-31.5	15.1	0.00e+00	0	42	0	764411904	18	4764
2026-01-10 23:37:16.04	130.13	40.91	-29.3	-32.1	14.8	0.00e+00	0	42	0	769654784	18	4980
2026-01-10 23:37:19.06	131.36	40.49	-29.0	-31.4	15.2	0.00e+00	0	42	0	775946240	18	4745
2026-01-10 23:37:22.06	132.55	40.06	-30.2	-33.7	13.1	1.98e-05	0	42	0	781189120	20	5338
2026-01-10 23:37:25.03	133.70	39.63	-29.4	-31.9	14.6	0.00e+00	0	42	0	786432000	19	4796
2026-01-10 23:37:28.05	134.83	39.19	-30.1	-32.7	13.3	8.92e-05	0	42	0	792723456	21	4855
2026-01-10 23:37:31.05	135.93	38.74	-29.8	-33.0	13.9	1.50e-06	0	42	0	797966336	19	5194
2026-01-10 23:37:34.05	137.00	38.29	-29.9	-32.7	13.6	2.28e-05	0	42	0	803209216	20	4972
2026-01-10 23:37:37.05	138.04	37.83	-29.7	-32.7	14.1	7.00e-07	0	42	0	809500672	19	5074
2026-01-10 23:37:40.06	139.06	37.37	-31.1	-35.2	11.2	1.96e-03	0	42	0	814743552	22	5766
2026-01-10 23:37:43.07	140.05	36.90	-29.8	-32.4	13.9	1.50e-06	0	42	0	821035008	20	4877
2026-01-10 23:37:46.09	141.01	36.43	-31.2	-35.4	11.1	2.47e-03	0	42	0	826277888	22	5901
2026-01-10 23:37:49.10	141.94	35.96	-30.1	-32.6	13.4	1.14e-05	0	42	0	831520768	21	4842
2026-01-10 23:37:52.11	142.85	35.49	-31.6	-36.3	10.1	1.84e-03	0	42	0	837812224	23	6234
2026-01-10 23:37:55.12	143.73	35.01	-30.6	-33.8	12.3	7.20e-04	0	42	0	843055104	22	5162
2026-01-10 23:37:58.13	144.59	34.54	-30.9	-35.3	11.6	3.24e-04	0	42	0	848297984	21	5928
2026-01-10 23:38:01.15	145.43	34.07	-31.8	-37.2	9.3	2.10e-02	0	42	0	854589440	23	6721
2026-01-10 23:38:04.16	146.23	33.59	-32.1	-38.0	8.3	4.64e-02	0	42	0	859832320	24	7100
2026-01-10 23:38:07.18	147.02	33.12	-32.5	-39.5	6.9	1.30e-01	0	42	0	866123776	25	8032
2026-01-10 23:38:10.20	147.79	32.65	-32.3	-38.2	7.8	1.22e-01	0	42	0	871366656	25	7155
2026-01-10 23:38:13.23	148.54	32.18	-31.7	-36.9	9.6	1.49e-02	0	42	0	876609536	23	6529
2026-01-10 23:38:16.25	149.26	31.72	-32.8	-41.1	5.8	2.95e-01	0	42	0	882900992	25	9421
2026-01-10 23:38:19.27	149.97	31.25	-32.5	-39.3	6.9	3.67e-01	0	42	0	888143872	25	7882
2026-01-10 23:38:22.28	150.65	30.79	-30.2	-33.1	13.0	1.38e-04	0	42	0	894435328	21	5015
2026-01-10 23:38:25.29	151.32	30.34	-30.7	-34.6	11.9	1.23e-04	0	42	0	899678208	21	5662
2026-01-10 23:38:28.32	151.97	29.88	-31.6	-36.5	9.8	9.72e-03	0	42	0	904921088	23	6327
2026-01-10 23:38:31.33	152.60	29.43	-31.1	-35.4	11.0	2.17e-03	0	42	0	911212544	22	5927
2026-01-10 23:38:34.35	153.21	28.98	-31.2	-35.8	10.7	1.74e-03	0	42	0	916455424	22	6128
2026-01-10 23:38:37.36	153.81	28.54	-31.7	-37.2	9.2	1.53e-02	0	42	0	922746880	23	6778
2026-01-10 23:38:40.37	154.39	28.10	-31.0	-34.6	11.2	8.76e-04	0	42	0	927989760	23	5428
2026-01-10 23:38:43.39	154.95	27.67	-30.0	-33.1	13.2	2.21e-05	0	42	0	933232640	20	5135
2026-01-10 23:38:46.41	155.51	27.23	-30.2	-33.6	12.9	4.57e-05	0	42	0	939524096	20	5331
2026-01-10 23:38:49.43	156.04	26.80	-30.3	-33.4	12.6	1.62e-04	0	42	0	944766976	21	5172
2026-01-10 23:38:52.46	156.57	26.38	-29.8	-32.7	13.5	1.44e-05	0	42	0	951058432	20	4989
2026-01-10 23:38:55.47	157.08	25.96	-30.0	-33.4	13.4	6.80e-06	0	42	0	956301312	19	5380
2026-01-10 23:38:58.48	157.57	25.55	-29.8	-32.9	13.7	6.10e-06	0	42	0	961544192	19	5173
2026-01-10 23:39:01.50	158.06	25.14	-29.9	-32.9	13.2	1.22e-05	0	42	0	967835648	20	5093
2026-01-10 23:39:04.52	158.53	24.73	-30.1	-33.4	12.9	4.65e-05	0	42	0	973078528	20	5253
2026-01-10 23:39:07.53	158.99	24.33	-30.3	-34.0	12.5	1.65e-04	0	42	0	979369984	20	5510
2026-01-10 23:39:10.55	159.44	23.93	-29.8	-33.2	13.4	1.52e-05	0	42	0	984612864	19	5293
2026-01-10 23:39:13.57	159.88	23.53	-29.8	-33.0	13.5	6.10e-06	0	42	0	989855744	19	5211
2026-01-10 23:39:16.58	160.31	23.14	-30.0	-33.1	13.1	2.38e-03	0	42	0	996147200	20	5155
2026-01-10 23:39:19.58	160.72	22.76	-30.1	-33.4	12.8	6.94e-05	0	42	0	1001390080	20	5291
2026-01-10 23:39:22.60	161.13	22.38	-29.9	-33.3	13.3	5.11e-05	0	42	0	1007681536	19	5365
2026-01-10 23:39:25.61	161.53	22.00	-29.6	-32.4	13.9	3.00e-06	0	42	0	1012924416	19	5005
2026-01-10 23:39:28.63	161.92	21.63	-29.6	-32.6	13.7	6.80e-06	0	42	0	1018167296	19	5081
2026-01-10 23:39:31.64	162.30	21.26	-29.7	-32.8	13.6	9.10e-06	0	42	0	1024458752	19	5154
2026-01-10 23:39:34.65	162.67	20.90	-29.7	-33.0	13.5	2.35e-03	0	42	0	1029701632	19	5241
2026-01-10 23:39:37.66	163.03	20.54	-30.0	-33.2	13.0	2.32e-03	0	42	0	1034944512	20	5209
2026-01-10 23:39:40.67	163.39	20.18	-30.1	-33.5	12.7	2.58e-03	0	42	0	1041235968	20	5342
2026-01-10 23:39:43.69	163.73	19.83	-30.2	-34.0	12.3	2.59e-03	0	42	0	1046478848	20	5534
2026-01-10 23:39:46.71	164.07	19.48	-29.9	-33.1	12.9	2.41e-03	0	42	0	1052770304	20	5200
2026-01-10 23:39:49.72	164.41	19.14	-29.9	-33.4	13.2	2.53e-03	0	42	0	1058013184	19	5396
2026-01-10 23:39:52.74	164.73	18.80	-29.8	-33.2	13.3	2.32e-03	0	42	0	1063256064	19	5323
2026-01-10 23:39:55.76	165.05	18.46	-29.8	-33.2	13.3	2.12e-03	0	42	0	1069547520	19	5307
2026-01-10 23:39:58.76	165.36	18.13	-29.9	-33.5	13.1	2.43e-03	0	42	0	1074790400	19	5420
2026-01-10 23:40:01.78	165.67	17.80	-30.0	-33.4	12.7	2.49e-03	0	42	0	1081081856	20	5304
2026-01-10 23:40:04.81	165.97	17.47	-29.9	-33.1	12.9	2.26e-03	0	42	0	1086324736	20	5192
2026-01-10 23:40:07.83	166.26	17.15	-29.8	-33.3	13.2	1.42e-04	0	42	0	1091567616	19	5368
2026-01-10 23:40:10.84	166.55	16.83	-29.8	-33.3	13.2	2.43e-04	0	42	0	1097859072	19	5358
2026-01-10 23:40:13.85	166.83	16.52	-29.6	-32.8	13.5	3.05e-04	0	42	0	1103101952	19	5157
2026-01-10 23:40:16.87	167.11	16.21	-29.8	-33.3	13.1	4.35e-04	0	42	0	1109393408	19	5370
2026-01-10 23:40:19.88	167.38	15.90	-30.0	-33.4	12.6	2.38e-03	0	42	0	1114636288	20	5334
2026-01-10 23:40:22.90	167.64	15.59	-30.0	-33.5	12.5	2.52e-03	0	42	0	1119879168	20	5365
2026-01-10 23:40:25.91	167.90	15.29	-29.9	-33.2	12.7	4.16e-04	0	42	0	1126170624	20	5248
2026-01-10 23:40:28.94	168.16	14.99	-29.8	-33.3	13.0	3.26e-04	0	42	0	1131413504	19	5413
2026-01-10 23:40:31.95	168.41	14.70	-29.7	-32.9	13.3	2.44e-04	0	42	0	1137704960	19	5233
2026-01-10 23:40:34.96	168.65	14.40	-29.5	-32.5	13.5	2.16e-04	0	42	0	1142947840	19	5088
2026-01-10 23:40:37.98	168.89	14.11	-29.8	-33.2	13.1	2.38e-04	0	42	0	1148190720	19	5342
2026-01-10 23:40:40.99	169.13	13.83	-29.9	-33.8	12.7	6.56e-05	0	42	0	1154482176	19	5585
2026-01-10 23:40:44.01	169.36	13.54	-30.2	-34.1	11.4	3.81e-04	0	42	0	1159725056	20	5657
2026-01-10 23:40:47.01	169.59	13.26	-30.2	-34.1	11.9	2.50e-03	0	42	0	1164967936	20	5654
2026-01-10 23:40:50.03	169.81	12.99	-30.4	-34.7	11.6	9.09e-04	0	42	0	1171259392	20	5899
2026-01-10 23:40:53.04	170.03	12.71	-30.3	-34.5	11.6	1.30e-03	0	42	0	1176502272	20	5838
2026-01-10 23:40:56.06	170.25	12.44	-30.3	-34.4	11.7	9.44e-04	0	42	0	1182793728	20	5797
2026-01-10 23:40:59.07	170.46	12.17	-30.2	-34.3	11.8	6.61e-04	0	42	0	1188036608	20	5735
2026-01-10 23:41:02.08	170.67	11.90	-30.1	-33.9	12.1	2.41e-04	0	42	0	1193279488	20	5550
2026-01-10 23:41:05.10	170.88	11.64	-30.1	-33.9	12.1	1.83e-03	0	42	0	1199570944	20	5543
2026-01-10 23:41:08.12	171.08	11.38	-29.9	-33.8	12.6	1.67e-03	0	42	0	1204813824	19	5601
2026-01-10 23:41:11.14	171.28	11.12	-29.9	-33.4	12.4	1.76e-03	0	42	0	1211105280	20	5348
2026-01-10 23:41:14.16	171.47	10.86	-29.9	-33.6	12.6	1.62e-03	0	42	0	1216348160	19	5548
2026-01-10 23:41:17.17	171.67	10.60	-30.1	-33.8	12.0	2.01e-03	0	42	0	1221591040	20	5511
2026-01-10 23:41:20.19	171.86	10.35	-30.0	-33.7	12.1	2.08e-03	0	42	0	1227882496	20	5467
2026-01-10 23:41:23.21	172.04	10.10	-30.1	-33.9	11.8	2.00e-03	0	42	0	1233125376	20	5577
2026-01-10 23:41:26.21	172.22	9.85	-30.3	-34.3	11.4	2.32e-03	0	42	0	1239416832	20	5765
2026-01-10 23:41:29.23	172.40	9.61	-30.4	-34.7	11.3	2.40e-03	0	42	0	1244659712	20	5943
2026-01-10 23:41:32.24	172.58	9.37	-30.4	-34.9	11.1	2.24e-03	0	42	0	1249902592	20	6043
2026-01-10 23:41:35.26	172.76	9.12	-30.6	-35.2	10.6	4.04e-03	0	42	0	1256194048	21	6063
2026-01-10 23:41:38.28	172.93	8.88	-30.7	-35.4	10.4	4.10e-03	0	42	0	1261436928	21	6196
2026-01-10 23:41:41.29	173.10	8.65	-30.8	-35.6	10.1	6.55e-03	0	42	0	1267728384	21	6316
2026-01-10 23:41:44.30	173.26	8.41	-30.4	-35.1	10.9	3.00e-03	0	42	0	1272971264	20	6175
2026-01-10 23:41:47.31	173.43	8.18	-30.3	-34.8	11.1	2.11e-03	0	42	0	1278214144	20	6004
2026-01-10 23:41:50.32	173.59	7.95	-30.3	-34.8	11.1	2.11e-03	0	42	0	1284505600	20	5995
2026-01-10 23:41:53.35	173.75	7.72	-30.2	-34.4	11.4	1.70e-03	0	42	0	1289748480	20	5821
2026-01-10 23:41:56.36	173.90	7.49	-30.3	-34.8	11.0	1.19e-03	0	42	0	1294991360	20	6021
2026-01-10 23:41:59.38	174.06	7.27	-30.2	-34.6	11.1	2.01e-03	0	42	0	1301282816	20	5916
2026-01-10 23:42:02.40	174.21	7.04	-32.7	-47.0	3.8	1.49e+00	0	42	104	1304428544	25	18701

#Closed at: 2026-01-10 23:42:03
#Recorded file [1304 MB]: D:/data/31010_260111_023025.dat