passes_logs/2026/01/10/R2M6_AANII_01/R2M6_AANII_01__20260110_024928_SUOMI_NPP_rec.log

#Pass ID: 20260110_024928_SUOMI NPP
#Satellite: SUOMI NPP
#Configuration: NPP
#almurnet v.1.7.20240730
#Start time: 2026-01-10 02:49:29

#Version: 2.2.20231116
#Station: R2M6_AANII_01
#Location: 30.233357 lon 59.946436 lat
#TLE: 1 37849U 11061A   26008.83076692  .00000095  00000+0  66074-4 0  9997
#TLE: 2 37849  98.7806 310.9327 0002533  74.3004 285.8451 14.19523607735834

#Time	Az	El	Level	Level2	SNR	BER	BlckErr	Temp	State	Recorded	gain1	gain2
2026-01-10 02:49:29.67	8.81	7.07	-32.5	-40.1	4.0	1.46e+00	0	39	0	0	26	8583
2026-01-10 02:49:32.67	8.48	7.24	-32.3	-38.6	4.4	1.37e+00	0	39	104	0	25	7505
2026-01-10 02:49:35.67	8.15	7.41	-32.4	-39.5	5.0	7.07e-01	0	39	0	3145728	25	8144
2026-01-10 02:49:38.68	7.81	7.58	-32.4	-38.8	5.5	5.95e-01	0	40	0	9437184	25	7565
2026-01-10 02:49:41.68	7.47	7.75	-32.2	-37.1	6.8	1.82e-01	0	39	0	14680064	25	6344
2026-01-10 02:49:44.68	7.12	7.93	-32.1	-36.9	6.8	1.59e-01	0	40	0	19922944	25	6278
2026-01-10 02:49:47.69	6.77	8.10	-32.3	-38.0	6.1	1.79e-01	0	40	0	26214400	25	6891
2026-01-10 02:49:50.68	6.41	8.27	-32.1	-36.9	6.9	1.88e-01	0	40	0	31457280	25	6262
2026-01-10 02:49:53.69	6.05	8.44	-31.6	-34.8	9.0	2.58e-02	0	40	0	37748736	24	5210
2026-01-10 02:49:56.68	5.69	8.61	-30.9	-32.9	10.8	2.31e-03	0	40	0	42991616	23	4554
2026-01-10 02:49:59.70	5.32	8.78	-31.1	-33.5	10.3	6.98e-03	0	40	0	48234496	23	4765
2026-01-10 02:50:02.70	4.95	8.96	-31.0	-33.4	10.5	3.06e-03	0	40	0	54525952	23	4749
2026-01-10 02:50:05.70	4.57	9.13	-31.0	-33.4	10.4	4.24e-03	0	40	0	59768832	23	4739
2026-01-10 02:50:08.71	4.19	9.30	-31.3	-34.3	9.9	7.15e-03	0	40	0	65011712	23	5066
2026-01-10 02:50:11.72	3.80	9.47	-31.3	-34.0	10.3	5.12e-03	0	40	0	71303168	23	4925
2026-01-10 02:50:14.72	3.41	9.64	-31.3	-34.1	9.9	7.66e-03	0	40	0	76546048	23	5012
2026-01-10 02:50:17.73	3.01	9.81	-31.0	-33.3	10.6	3.40e-03	0	40	0	82837504	23	4683
2026-01-10 02:50:20.74	2.61	9.99	-31.0	-33.3	10.5	4.63e-03	0	40	0	88080384	23	4697
2026-01-10 02:50:23.75	2.20	10.16	-30.9	-33.4	10.8	1.31e-03	0	41	0	93323264	22	4799
2026-01-10 02:50:26.76	1.79	10.33	-31.2	-34.5	10.2	5.00e-03	0	41	0	99614720	22	5236
2026-01-10 02:50:29.78	1.37	10.50	-30.9	-33.5	10.8	2.68e-03	0	40	0	104857600	22	4854
2026-01-10 02:50:32.79	0.95	10.67	-31.1	-34.2	10.2	5.72e-03	0	41	0	110100480	22	5146
2026-01-10 02:50:35.80	0.52	10.84	-31.1	-33.9	10.6	4.49e-03	0	41	0	116391936	22	4978
2026-01-10 02:50:38.80	0.09	11.01	-30.7	-32.7	11.4	7.07e-04	0	41	0	121634816	22	4549
2026-01-10 02:50:41.80	359.66	11.18	-31.0	-33.4	11.2	1.52e-03	0	41	0	127926272	22	4781
2026-01-10 02:50:44.80	359.21	11.35	-31.3	-34.4	10.6	2.44e-03	0	41	0	133169152	22	5166
2026-01-10 02:50:47.81	358.77	11.52	-31.4	-34.4	10.1	7.18e-03	0	41	0	138412032	23	5064
2026-01-10 02:50:50.81	358.31	11.68	-31.3	-34.1	10.2	2.55e-03	0	41	0	144703488	23	4972
2026-01-10 02:50:53.82	357.86	11.85	-31.2	-33.8	10.4	2.44e-03	0	41	0	149946368	23	4843
2026-01-10 02:50:56.81	357.40	12.02	-31.6	-35.1	9.6	9.02e-03	0	41	0	155189248	23	5365
2026-01-10 02:50:59.81	356.93	12.18	-31.1	-33.4	10.8	2.59e-03	0	41	0	161480704	23	4666
2026-01-10 02:51:02.82	356.45	12.35	-31.3	-34.0	10.6	2.58e-03	0	41	0	166723584	23	4889
2026-01-10 02:51:05.81	355.98	12.51	-31.2	-33.7	10.6	3.48e-03	0	41	0	171966464	23	4811
2026-01-10 02:51:08.82	355.49	12.67	-31.0	-33.0	11.0	2.48e-03	0	41	0	178257920	23	4533
2026-01-10 02:51:11.82	355.00	12.84	-31.1	-33.3	10.8	2.76e-03	0	41	0	183500800	23	4653
2026-01-10 02:51:14.82	354.51	13.00	-31.1	-33.3	10.9	2.30e-03	0	41	0	189792256	23	4647
2026-01-10 02:51:17.83	354.01	13.16	-30.9	-32.7	11.4	1.42e-03	0	41	0	195035136	23	4438
2026-01-10 02:51:20.84	353.50	13.32	-30.6	-32.2	11.9	3.69e-04	0	41	0	200278016	22	4371
2026-01-10 02:51:23.85	352.99	13.47	-30.7	-32.7	11.7	1.02e-03	0	41	0	206569472	22	4509
2026-01-10 02:51:26.86	352.47	13.63	-30.6	-32.4	11.9	5.68e-04	0	41	0	211812352	22	4421
2026-01-10 02:51:29.86	351.95	13.79	-30.4	-31.8	12.2	2.58e-04	0	41	0	217055232	22	4234
2026-01-10 02:51:32.87	351.42	13.94	-30.5	-32.6	12.0	2.79e-04	0	41	0	223346688	21	4593
2026-01-10 02:51:35.88	350.88	14.09	-30.5	-32.4	12.4	2.09e-04	0	41	0	228589568	21	4494
2026-01-10 02:51:38.88	350.34	14.24	-30.0	-31.2	13.2	6.17e-05	0	41	0	234881024	21	4094
2026-01-10 02:51:41.89	349.79	14.39	-30.2	-31.6	12.9	2.89e-05	0	41	0	240123904	21	4223
2026-01-10 02:51:44.90	349.24	14.54	-30.5	-32.6	12.1	1.78e-04	0	41	0	245366784	21	4584
2026-01-10 02:51:47.89	348.69	14.68	-30.3	-32.0	12.5	1.27e-04	0	41	0	251658240	21	4369
2026-01-10 02:51:50.90	348.13	14.83	-30.2	-31.8	12.7	8.39e-05	0	41	0	256901120	21	4302
2026-01-10 02:51:53.92	347.56	14.97	-30.1	-31.5	12.9	7.40e-05	0	41	0	262144000	21	4199
2026-01-10 02:51:56.93	346.98	15.11	-29.8	-30.9	13.7	6.10e-06	0	41	0	268435456	20	4091
2026-01-10 02:51:59.93	346.40	15.24	-29.8	-31.0	13.7	5.30e-06	0	41	0	273678336	20	4121
2026-01-10 02:52:02.93	345.82	15.38	-29.9	-31.3	13.4	1.22e-05	0	41	0	279969792	20	4233
2026-01-10 02:52:05.94	345.23	15.51	-29.9	-31.3	13.4	2.44e-05	0	41	0	285212672	20	4229
2026-01-10 02:52:08.95	344.63	15.64	-30.2	-32.1	12.8	4.19e-05	0	41	0	290455552	20	4491
2026-01-10 02:52:11.96	344.03	15.77	-30.6	-32.8	12.0	2.33e-04	0	41	0	296747008	21	4637
2026-01-10 02:52:14.97	343.43	15.90	-29.9	-30.6	13.5	1.44e-05	0	41	0	301989888	21	3934
2026-01-10 02:52:17.97	342.82	16.02	-29.6	-30.4	14.2	3.00e-06	0	41	0	307232768	20	3945
2026-01-10 02:52:20.96	342.21	16.14	-30.0	-31.4	13.6	1.06e-05	0	42	0	313524224	20	4221
2026-01-10 02:52:23.96	341.59	16.26	-29.5	-30.0	14.5	7.00e-07	0	41	0	318767104	20	3813
2026-01-10 02:52:26.97	340.96	16.37	-29.7	-30.6	14.0	2.20e-06	0	41	0	325058560	20	3995
2026-01-10 02:52:29.98	340.33	16.48	-30.2	-31.8	13.4	1.37e-05	0	41	0	330301440	20	4356
2026-01-10 02:52:32.99	339.69	16.59	-30.6	-32.3	12.6	9.00e-05	0	41	0	335544320	21	4411
2026-01-10 02:52:35.98	339.06	16.69	-30.1	-30.9	13.8	7.60e-06	0	42	0	341835776	21	3967
2026-01-10 02:52:38.98	338.42	16.80	-30.2	-31.3	13.5	1.06e-05	0	42	0	347078656	21	4080
2026-01-10 02:52:41.98	337.77	16.89	-29.2	-29.7	15.2	7.00e-07	0	42	0	352321536	19	3825
2026-01-10 02:52:45.00	337.11	16.99	-29.2	-29.6	15.1	0.00e+00	0	41	0	358612992	19	3808
2026-01-10 02:52:48.00	336.46	17.08	-29.5	-30.4	14.8	0.00e+00	0	42	0	363855872	19	3997
2026-01-10 02:52:51.02	335.79	17.17	-29.4	-30.3	14.9	0.00e+00	0	41	0	370147328	19	3965
2026-01-10 02:52:54.03	335.13	17.25	-29.7	-30.9	14.5	0.00e+00	0	41	0	375390208	19	4148
2026-01-10 02:52:57.04	334.46	17.34	-29.9	-31.5	14.0	1.50e-06	0	41	0	380633088	19	4342
2026-01-10 02:53:00.04	333.79	17.41	-29.8	-31.0	13.7	7.60e-06	0	41	0	386924544	20	4109
2026-01-10 02:53:03.04	333.11	17.49	-29.9	-31.0	13.7	4.50e-06	0	42	0	392167424	20	4124
2026-01-10 02:53:06.06	332.43	17.55	-30.1	-31.8	13.2	1.83e-05	0	41	0	397410304	20	4377
2026-01-10 02:53:09.06	331.75	17.62	-30.2	-31.5	13.1	2.28e-05	0	41	0	403701760	21	4174
2026-01-10 02:53:12.06	331.07	17.68	-29.9	-31.2	13.6	1.75e-05	0	41	0	408944640	20	4158
2026-01-10 02:53:15.06	330.38	17.74	-29.9	-31.1	13.6	1.29e-05	0	41	0	415236096	20	4155
2026-01-10 02:53:18.06	329.70	17.79	-29.8	-30.9	13.7	6.10e-06	0	41	0	420478976	20	4102
2026-01-10 02:53:21.07	329.00	17.84	-29.4	-29.9	14.3	7.00e-07	0	42	0	425721856	20	3813
2026-01-10 02:53:24.07	328.31	17.88	-29.5	-30.1	14.2	0.00e+00	0	41	0	432013312	20	3878
2026-01-10 02:53:27.07	327.61	17.93	-30.2	-32.1	12.9	3.73e-05	0	41	0	437256192	20	4483
2026-01-10 02:53:30.07	326.92	17.96	-30.7	-33.2	11.7	4.97e-04	0	41	0	442499072	21	4778
2026-01-10 02:53:33.08	326.22	17.99	-30.5	-32.6	12.2	2.94e-04	0	41	0	448790528	21	4560
2026-01-10 02:53:36.09	325.51	18.02	-30.3	-31.9	12.6	7.24e-05	0	42	0	454033408	21	4327
2026-01-10 02:53:39.10	324.81	18.04	-30.4	-32.3	12.2	1.58e-04	0	41	0	460324864	21	4478
2026-01-10 02:53:42.10	324.11	18.06	-30.2	-31.6	12.8	4.88e-05	0	41	0	465567744	21	4243
2026-01-10 02:53:45.09	323.41	18.08	-29.7	-30.9	13.6	1.22e-05	0	41	0	470810624	20	4106
2026-01-10 02:53:48.10	322.70	18.09	-29.4	-30.1	14.1	3.80e-06	0	42	0	477102080	20	3888
2026-01-10 02:53:51.10	322.00	18.09	-29.8	-31.5	13.6	3.00e-06	0	42	0	482344960	19	4363
2026-01-10 02:53:54.10	321.30	18.09	-30.0	-31.7	13.1	1.60e-05	0	42	0	487587840	20	4343
2026-01-10 02:53:57.10	320.59	18.09	-30.0	-31.7	13.0	5.26e-05	0	42	0	493879296	20	4377
2026-01-10 02:54:00.09	319.89	18.08	-30.1	-31.7	13.2	2.28e-05	0	42	0	499122176	20	4365
2026-01-10 02:54:03.09	319.19	18.07	-29.9	-31.4	13.3	2.05e-05	0	42	0	504365056	20	4249
2026-01-10 02:54:06.10	318.48	18.05	-30.0	-31.7	13.1	2.89e-05	0	42	0	510656512	20	4340
2026-01-10 02:54:09.10	317.78	18.03	-30.8	-33.3	11.7	1.67e-04	0	41	0	515899392	21	4810
2026-01-10 02:54:12.12	317.08	18.00	-30.5	-32.6	12.1	3.16e-04	0	42	0	522190848	21	4581
2026-01-10 02:54:15.12	316.38	17.97	-30.6	-32.7	12.1	9.46e-05	0	41	0	527433728	21	4614
2026-01-10 02:54:18.11	315.68	17.94	-29.9	-31.0	13.2	1.90e-05	0	42	0	532676608	21	4047
2026-01-10 02:54:21.11	314.99	17.90	-29.6	-30.7	13.6	7.60e-06	0	42	0	538968064	20	4053
2026-01-10 02:54:24.12	314.29	17.86	-29.6	-30.6	13.7	9.90e-06	0	42	0	544210944	20	4030
2026-01-10 02:54:27.13	313.59	17.81	-29.5	-30.7	14.1	7.00e-07	0	42	0	549453824	19	4134
2026-01-10 02:54:30.14	312.90	17.76	-29.5	-30.7	14.1	2.20e-06	0	42	0	555745280	19	4122
2026-01-10 02:54:33.14	312.21	17.70	-29.2	-29.8	14.6	1.50e-06	0	42	0	560988160	19	3893
2026-01-10 02:54:36.14	311.53	17.64	-29.1	-29.6	14.7	2.20e-06	0	42	0	567279616	19	3831
2026-01-10 02:54:39.14	310.85	17.58	-29.0	-29.5	14.8	0.00e+00	0	42	0	572522496	19	3799
2026-01-10 02:54:42.14	310.17	17.51	-29.9	-31.2	13.6	1.06e-05	0	42	0	577765376	20	4164
2026-01-10 02:54:45.16	309.49	17.44	-29.8	-30.9	13.7	8.30e-06	0	42	0	584056832	20	4082
2026-01-10 02:54:48.16	308.82	17.36	-29.7	-30.8	13.7	3.80e-06	0	42	0	589299712	20	4065
2026-01-10 02:54:51.17	308.14	17.28	-29.8	-30.8	13.8	3.80e-06	0	41	0	594542592	20	4070
2026-01-10 02:54:54.18	307.48	17.20	-30.0	-31.6	13.3	6.10e-06	0	41	0	600834048	20	4287
2026-01-10 02:54:57.19	306.81	17.11	-29.9	-31.3	13.5	9.10e-06	0	42	0	606076928	20	4196
2026-01-10 02:55:00.19	306.15	17.02	-30.0	-31.5	13.3	2.28e-05	0	42	0	612368384	20	4293
2026-01-10 02:55:03.19	305.50	16.93	-29.8	-31.1	13.6	1.67e-05	0	42	0	617611264	20	4145
2026-01-10 02:55:06.19	304.85	16.83	-29.8	-30.9	13.4	2.89e-05	0	42	0	622854144	20	4118
2026-01-10 02:55:09.20	304.20	16.73	-30.1	-31.7	13.1	2.97e-05	0	42	0	629145600	20	4343
2026-01-10 02:55:12.20	303.56	16.62	-30.1	-31.8	12.9	4.42e-05	0	42	0	634388480	20	4397
2026-01-10 02:55:15.20	302.93	16.52	-30.4	-32.7	12.3	1.91e-04	0	42	0	639631360	20	4709
2026-01-10 02:55:18.20	302.29	16.41	-30.3	-32.6	12.4	1.21e-04	0	42	0	645922816	20	4647
2026-01-10 02:55:21.21	301.67	16.29	-30.5	-32.5	12.1	2.06e-04	0	42	0	651165696	21	4536
2026-01-10 02:55:24.22	301.04	16.18	-30.3	-32.0	12.4	1.56e-04	0	42	0	657457152	21	4371
2026-01-10 02:55:27.21	300.43	16.06	-30.4	-32.2	12.2	1.47e-04	0	42	0	662700032	21	4458
2026-01-10 02:55:30.22	299.81	15.94	-30.5	-32.5	12.1	2.29e-04	0	42	0	667942912	21	4535
2026-01-10 02:55:33.23	299.20	15.81	-30.0	-31.3	12.8	1.36e-04	0	42	0	674234368	21	4144
2026-01-10 02:55:36.22	298.60	15.69	-29.5	-30.3	13.8	3.80e-06	0	42	0	679477248	20	3945
2026-01-10 02:55:39.23	298.00	15.56	-30.0	-30.9	13.3	9.38e-05	0	42	0	684720128	21	4005
2026-01-10 02:55:42.23	297.41	15.42	-30.1	-31.2	13.1	5.56e-05	0	42	0	691011584	21	4117
2026-01-10 02:55:45.25	296.82	15.29	-30.9	-33.0	11.6	7.10e-04	0	42	0	696254464	22	4609
2026-01-10 02:55:48.25	296.24	15.15	-30.9	-32.9	11.8	1.18e-03	0	42	0	702545920	22	4567
2026-01-10 02:55:51.27	295.66	15.01	-30.1	-31.3	12.8	5.03e-05	0	42	0	707788800	21	4166
2026-01-10 02:55:54.28	295.09	14.87	-30.2	-31.8	12.4	5.64e-05	0	42	0	713031680	21	4328
2026-01-10 02:55:57.28	294.52	14.73	-30.4	-32.3	12.2	2.14e-04	0	42	0	719323136	21	4480
2026-01-10 02:56:00.29	293.96	14.58	-30.2	-31.6	12.5	1.26e-04	0	42	0	724566016	21	4274
2026-01-10 02:56:03.30	293.40	14.44	-29.9	-30.9	13.0	4.42e-05	0	42	0	729808896	21	4061
2026-01-10 02:56:06.31	292.85	14.29	-30.2	-31.7	12.6	7.17e-05	0	42	0	736100352	21	4281
2026-01-10 02:56:09.31	292.31	14.14	-29.8	-30.6	13.3	3.12e-05	0	42	0	741343232	21	3948
2026-01-10 02:56:12.33	291.77	13.98	-29.7	-30.9	13.3	1.52e-05	0	42	0	747634688	20	4123
2026-01-10 02:56:15.34	291.24	13.83	-30.1	-32.0	12.6	6.86e-05	0	42	0	752877568	20	4485
2026-01-10 02:56:18.34	290.71	13.68	-30.0	-31.8	12.7	1.63e-04	0	42	0	758120448	20	4414
2026-01-10 02:56:21.34	290.19	13.52	-29.9	-31.6	12.8	5.03e-05	0	42	0	764411904	20	4357
2026-01-10 02:56:24.33	289.68	13.36	-29.9	-31.5	12.8	9.46e-05	0	42	0	769654784	20	4325
2026-01-10 02:56:27.35	289.16	13.20	-30.4	-32.9	11.8	2.68e-04	0	42	0	774897664	20	4825
2026-01-10 02:56:30.34	288.66	13.05	-31.0	-34.2	10.1	5.40e-03	0	42	0	781189120	22	5171
2026-01-10 02:56:33.34	288.16	12.88	-31.5	-35.2	9.0	2.40e-02	0	42	0	786432000	23	5566
2026-01-10 02:56:36.34	287.67	12.72	-31.2	-34.3	9.7	1.22e-02	0	42	0	792723456	23	5134
2026-01-10 02:56:39.35	287.18	12.56	-31.0	-33.5	10.3	7.47e-03	0	42	0	797966336	23	4803
2026-01-10 02:56:42.35	286.70	12.40	-30.9	-33.3	10.4	5.37e-03	0	42	0	803209216	23	4722
2026-01-10 02:56:45.36	286.22	12.23	-30.4	-32.0	11.7	6.72e-04	0	42	0	809500672	22	4345
2026-01-10 02:56:48.37	285.75	12.06	-30.4	-32.0	11.7	5.57e-04	0	42	0	814743552	22	4339
2026-01-10 02:56:51.38	285.28	11.90	-30.8	-33.4	10.7	2.32e-03	0	42	0	819986432	22	4838
2026-01-10 02:56:54.39	284.82	11.73	-31.0	-33.9	10.5	4.28e-03	0	42	0	826277888	22	5007
2026-01-10 02:56:57.40	284.36	11.56	-30.8	-33.2	11.0	3.28e-03	0	42	0	831520768	22	4741
2026-01-10 02:57:00.41	283.91	11.39	-30.4	-32.1	11.6	5.13e-04	0	42	0	837812224	22	4347
2026-01-10 02:57:03.41	283.47	11.22	-30.3	-32.2	11.8	3.96e-04	0	41	0	843055104	21	4503
2026-01-10 02:57:06.41	283.03	11.06	-30.6	-33.0	11.3	1.23e-03	0	42	0	848297984	21	4761
2026-01-10 02:57:09.40	282.59	10.89	-30.5	-32.9	11.4	8.89e-04	0	42	0	854589440	21	4737
2026-01-10 02:57:12.41	282.16	10.72	-30.7	-33.0	11.0	4.02e-03	0	42	0	859832320	22	4680
2026-01-10 02:57:15.41	281.74	10.55	-30.9	-33.4	10.8	2.40e-03	0	42	0	865075200	22	4804
2026-01-10 02:57:18.42	281.32	10.37	-30.6	-32.6	11.4	1.09e-03	0	42	0	871366656	22	4500
2026-01-10 02:57:21.42	280.90	10.20	-30.4	-31.9	11.9	5.24e-04	0	41	0	876609536	22	4290
2026-01-10 02:57:24.43	280.49	10.03	-29.8	-31.2	12.9	4.11e-05	0	42	0	882900992	20	4227
2026-01-10 02:57:27.44	280.09	9.86	-29.5	-30.5	13.2	3.89e-05	0	42	0	888143872	20	4038
2026-01-10 02:57:30.44	279.69	9.69	-29.5	-30.6	13.2	2.82e-05	0	42	0	893386752	20	4066
2026-01-10 02:57:33.46	279.29	9.51	-30.0	-31.9	12.4	1.79e-04	0	42	0	899678208	20	4481
2026-01-10 02:57:36.46	278.90	9.34	-29.8	-31.2	12.8	5.64e-05	0	42	0	904921088	20	4252
2026-01-10 02:57:39.46	278.51	9.17	-29.7	-31.0	12.9	4.50e-05	0	42	0	910163968	20	4188
2026-01-10 02:57:42.48	278.13	9.00	-29.7	-31.1	12.8	4.27e-05	0	42	0	916455424	20	4224
2026-01-10 02:57:45.48	277.75	8.83	-29.7	-31.0	12.9	3.50e-05	0	42	0	921698304	20	4178
2026-01-10 02:57:48.49	277.38	8.65	-30.1	-32.2	12.0	2.11e-04	0	42	0	927989760	20	4596
2026-01-10 02:57:51.48	277.01	8.48	-29.9	-31.8	12.2	2.18e-04	0	42	0	933232640	20	4452
2026-01-10 02:57:54.47	276.65	8.31	-30.2	-32.7	11.6	4.61e-04	0	42	0	938475520	20	4786
2026-01-10 02:57:57.46	276.29	8.14	-30.1	-32.2	11.9	4.54e-04	0	42	0	944766976	20	4621
2026-01-10 02:58:00.45	275.94	7.97	-30.3	-32.8	11.5	6.56e-04	0	42	0	950009856	20	4837
2026-01-10 02:58:03.45	275.59	7.80	-30.4	-33.2	11.1	1.15e-03	0	42	0	955252736	20	4991
2026-01-10 02:58:06.45	275.24	7.62	-29.9	-31.9	12.1	3.75e-04	0	42	0	961544192	20	4489
2026-01-10 02:58:09.45	274.90	7.45	-29.7	-31.3	12.5	1.46e-04	0	42	0	966787072	20	4314
2026-01-10 02:58:12.46	274.56	7.28	-29.8	-31.6	12.2	1.11e-04	0	42	0	972029952	20	4421
2026-01-10 02:58:15.47	274.23	7.11	-30.0	-32.2	11.7	4.89e-04	0	42	0	978321408	20	4629
2026-01-10 02:58:18.48	273.90	6.94	-33.5	-46.2	3.8	1.49e+00	0	42	104	979369984	26	15551

#Closed at: 2026-01-10 02:58:19
#Recorded file [979 MB]: D:/data/31010_260110_054933.dat