passes_logs/2026/01/10/R2M6_AANII_01/R2M6_AANII_01__20260110_022822_AQUA_rec.log

#Pass ID: 20260110_022822_AQUA
#Satellite: AQUA
#Configuration: AQUA
#almurnet v.1.7.20240730
#Start time: 2026-01-10 02:29:40

#Version: 2.2.20231116
#Station: R2M6_AANII_01
#Location: 30.233357 lon 59.946436 lat
#TLE: 1 27424U 02022A   26009.00333547  .00001046  00000+0  21942-3 0  9998
#TLE: 2 27424  98.4075 335.3304 0002025  85.7625 349.1392 14.61808998260011

#Time	Az	El	Level	Level2	SNR	BER	BlckErr	Temp	State	Recorded	gain1	gain2
2026-01-10 02:29:40.12	11.26	14.25	-33.4	-45.7	3.8	1.49e+00	0	42	0	0	26	14766
2026-01-10 02:29:43.10	11.11	14.58	-34.6	-53.8	3.8	7.44e-01	0	42	104	0	30	32771
2026-01-10 02:29:46.09	10.95	14.92	-34.6	-53.9	3.8	7.45e-01	0	42	104	0	30	32865
2026-01-10 02:29:49.08	10.79	15.26	-34.6	-53.7	3.8	7.44e-01	0	42	104	0	30	32665
2026-01-10 02:29:52.08	10.62	15.61	-34.9	-54.4	3.8	7.43e-01	0	42	104	0	30	33855
2026-01-10 02:29:55.05	10.45	15.96	-34.9	-54.4	3.8	7.44e-01	0	42	104	0	30	33890
2026-01-10 02:29:58.04	10.28	16.32	-34.8	-54.1	3.8	7.47e-01	0	42	104	0	30	33405
2026-01-10 02:30:01.02	10.10	16.68	-34.5	-53.6	3.8	7.46e-01	0	42	104	0	30	32334
2026-01-10 02:30:04.01	9.92	17.05	-34.5	-53.5	3.8	7.49e-01	0	42	104	0	30	32309
2026-01-10 02:30:07.00	9.73	17.42	-34.4	-53.4	3.8	7.45e-01	0	42	104	0	30	32027
2026-01-10 02:30:09.98	9.53	17.80	-34.3	-53.2	3.8	7.47e-01	0	42	104	0	30	31606
2026-01-10 02:30:12.98	9.33	18.19	-34.1	-52.3	3.8	7.46e-01	0	42	104	0	30	29518
2026-01-10 02:30:15.97	9.12	18.58	-33.7	-50.7	3.8	7.46e-01	0	42	104	0	29	25626
2026-01-10 02:30:18.96	8.91	18.98	-33.4	-49.3	3.8	7.44e-01	0	42	104	0	29	22421
2026-01-10 02:30:21.95	8.69	19.39	-33.6	-50.1	3.8	7.44e-01	0	42	104	0	29	24116
2026-01-10 02:30:24.94	8.46	19.80	-33.9	-52.1	3.8	7.46e-01	0	42	104	0	29	29244
2026-01-10 02:30:27.92	8.23	20.22	-33.0	-48.0	3.8	7.45e-01	0	42	104	0	28	20240
2026-01-10 02:30:30.92	7.99	20.65	-31.7	-44.7	3.9	7.41e-01	0	42	104	0	25	16067
2026-01-10 02:30:33.91	7.74	21.09	-31.9	-36.4	15.5	6.02e-01	0	42	0	1572864	25	6075
2026-01-10 02:30:36.89	7.49	21.53	-32.0	-36.6	15.5	5.99e-01	0	42	0	7340032	25	6135
2026-01-10 02:30:39.89	7.23	21.98	-32.2	-37.5	15.1	6.00e-01	0	42	0	13107200	25	6574
2026-01-10 02:30:42.87	6.95	22.44	-32.1	-36.8	15.4	6.03e-01	0	42	0	18350080	25	6219
2026-01-10 02:30:45.85	6.67	22.91	-31.1	-34.2	17.7	6.01e-01	0	42	0	24117248	24	5140
2026-01-10 02:30:48.85	6.38	23.39	-30.4	-32.9	18.8	6.00e-01	0	42	0	29884416	23	4769
2026-01-10 02:30:51.82	6.08	23.87	-30.6	-33.4	18.4	5.99e-01	0	42	0	35127296	23	4966
2026-01-10 02:30:54.82	5.77	24.37	-29.9	-32.1	19.6	6.00e-01	0	42	0	40894464	22	4597
2026-01-10 02:30:57.82	5.45	24.87	-30.0	-32.7	19.4	6.02e-01	0	42	0	46661632	21	4937
2026-01-10 02:31:00.80	5.12	25.39	-29.6	-31.7	20.0	6.00e-01	0	42	0	51904512	21	4601
2026-01-10 02:31:03.81	4.77	25.91	-29.8	-32.2	19.7	5.99e-01	0	42	0	57671680	21	4767
2026-01-10 02:31:06.78	4.42	26.44	-29.7	-31.9	20.0	5.99e-01	0	42	0	63438848	21	4640
2026-01-10 02:31:09.76	4.05	26.99	-29.8	-32.3	19.7	6.00e-01	0	42	0	68681728	21	4788
2026-01-10 02:31:12.75	3.66	27.54	-30.0	-32.7	19.5	6.00e-01	0	42	0	74448896	21	4916
2026-01-10 02:31:15.74	3.26	28.11	-29.7	-31.8	20.2	6.00e-01	0	42	0	80216064	21	4608
2026-01-10 02:31:18.72	2.85	28.68	-29.7	-31.9	20.1	5.99e-01	0	42	0	85458944	21	4631
2026-01-10 02:31:21.72	2.42	29.28	-29.6	-31.7	20.2	6.02e-01	0	42	0	91226112	21	4577
2026-01-10 02:31:24.70	1.97	29.87	-29.2	-31.0	21.0	6.02e-01	0	42	0	96993280	20	4474
2026-01-10 02:31:27.68	1.50	30.48	-29.4	-31.7	20.6	6.01e-01	0	42	0	102236160	20	4663
2026-01-10 02:31:30.67	1.02	31.11	-29.7	-32.3	20.2	6.03e-01	0	42	0	108003328	20	4872
2026-01-10 02:31:33.66	0.51	31.74	-29.7	-32.3	20.3	6.01e-01	0	42	0	113770496	20	4866
2026-01-10 02:31:36.65	359.99	32.39	-30.0	-33.2	19.7	6.02e-01	0	42	0	119013376	20	5190
2026-01-10 02:31:39.62	359.44	33.05	-29.7	-32.3	20.3	6.00e-01	0	42	0	124780544	20	4868
2026-01-10 02:31:42.61	358.86	33.72	-30.3	-33.3	19.3	6.00e-01	0	42	0	130547712	21	5119
2026-01-10 02:31:45.60	358.27	34.41	-29.9	-32.4	19.9	6.00e-01	0	42	0	135790592	21	4783
2026-01-10 02:31:48.61	357.63	35.11	-30.1	-32.8	19.7	6.01e-01	0	42	0	141557760	21	4917
2026-01-10 02:31:51.59	356.98	35.82	-30.1	-32.9	19.7	6.01e-01	0	42	0	147324928	21	4948
2026-01-10 02:31:54.60	356.29	36.55	-30.5	-33.9	19.0	5.99e-01	0	42	0	153092096	21	5345
2026-01-10 02:31:57.59	355.57	37.29	-30.6	-33.7	18.8	6.01e-01	0	42	0	158334976	22	5147
2026-01-10 02:32:00.59	354.81	38.04	-31.2	-34.8	17.9	6.01e-01	0	42	0	164102144	23	5443
2026-01-10 02:32:03.59	354.02	38.81	-30.7	-33.5	18.6	6.01e-01	0	42	0	169869312	23	4958
2026-01-10 02:32:06.59	353.18	39.58	-31.0	-34.3	18.1	6.00e-01	0	42	0	175636480	23	5263
2026-01-10 02:32:09.59	352.31	40.37	-31.3	-35.2	17.6	6.03e-01	0	42	0	180879360	23	5617
2026-01-10 02:32:12.59	351.38	41.17	-31.1	-34.4	18.0	6.00e-01	0	42	0	186646528	23	5299
2026-01-10 02:32:15.60	350.41	41.98	-30.9	-34.0	18.4	5.99e-01	0	41	0	192413696	23	5116
2026-01-10 02:32:18.61	349.38	42.80	-30.7	-33.4	18.5	6.00e-01	0	42	0	198180864	23	4908
2026-01-10 02:32:21.61	348.31	43.63	-30.6	-32.9	19.3	6.05e-01	0	42	0	203423744	23	4707
2026-01-10 02:32:24.61	347.17	44.46	-30.8	-33.5	19.2	6.00e-01	0	42	0	209190912	23	4906
2026-01-10 02:32:27.62	345.97	45.30	-31.1	-34.1	18.9	6.00e-01	0	42	0	214958080	23	5085
2026-01-10 02:32:30.63	344.69	46.15	-31.2	-34.3	19.0	5.99e-01	0	42	0	220725248	23	5148
2026-01-10 02:32:33.64	343.35	46.99	-31.1	-34.1	18.9	6.01e-01	0	42	0	225968128	23	5096
2026-01-10 02:32:36.65	341.93	47.84	-31.1	-34.2	18.9	6.02e-01	0	42	0	231735296	23	5134
2026-01-10 02:32:39.66	340.43	48.68	-31.3	-34.6	18.7	6.01e-01	0	42	0	237502464	23	5275
2026-01-10 02:32:42.68	338.84	49.53	-30.9	-33.6	19.3	6.02e-01	0	42	0	243269632	23	4898
2026-01-10 02:32:45.68	337.17	50.35	-30.7	-33.1	19.7	6.00e-01	0	42	0	248512512	23	4721
2026-01-10 02:32:48.68	335.40	51.17	-30.6	-32.9	19.6	6.02e-01	0	42	0	254279680	23	4684
2026-01-10 02:32:51.68	333.54	51.97	-30.2	-32.6	19.9	6.01e-01	0	42	0	260046848	22	4697
2026-01-10 02:32:54.68	331.57	52.75	-30.1	-32.2	20.0	6.01e-01	0	42	0	265814016	22	4583
2026-01-10 02:32:57.68	329.49	53.51	-30.1	-32.1	20.2	6.01e-01	0	42	0	271056896	22	4552
2026-01-10 02:33:00.68	327.30	54.24	-30.2	-32.4	19.8	6.02e-01	0	42	0	276824064	22	4673
2026-01-10 02:33:03.69	324.99	54.93	-31.0	-34.5	18.7	6.00e-01	0	42	0	282591232	22	5384
2026-01-10 02:33:06.70	322.57	55.59	-30.8	-34.0	18.9	6.00e-01	0	42	0	288358400	22	5215
2026-01-10 02:33:09.69	320.05	56.20	-30.9	-33.7	18.9	6.02e-01	0	42	0	293601280	23	4982
2026-01-10 02:33:12.70	317.40	56.76	-30.5	-33.3	19.4	6.01e-01	0	42	0	299368448	22	4957
2026-01-10 02:33:15.70	314.66	57.27	-30.8	-34.0	18.9	6.01e-01	0	42	0	305135616	22	5212
2026-01-10 02:33:18.71	311.81	57.72	-30.8	-34.1	18.8	6.00e-01	0	42	0	310378496	22	5249
2026-01-10 02:33:21.71	308.87	58.10	-30.8	-34.2	18.6	6.00e-01	0	42	0	316145664	22	5309
2026-01-10 02:33:24.71	305.86	58.41	-31.0	-34.1	18.4	6.00e-01	0	42	0	321912832	23	5169
2026-01-10 02:33:27.72	302.78	58.64	-31.8	-36.2	16.6	6.01e-01	0	42	0	327680000	24	5917
2026-01-10 02:33:30.73	299.65	58.80	-30.9	-34.0	18.2	6.00e-01	0	42	0	333447168	23	5127
2026-01-10 02:33:33.74	296.49	58.88	-31.1	-34.0	18.3	6.02e-01	0	42	0	338690048	24	4983
2026-01-10 02:33:36.75	293.32	58.88	-31.2	-34.6	18.3	6.01e-01	0	42	0	344457216	23	5315
2026-01-10 02:33:39.76	290.16	58.80	-31.0	-33.9	18.7	6.00e-01	0	42	0	350224384	23	5083
2026-01-10 02:33:42.77	287.03	58.64	-31.4	-35.3	17.7	5.99e-01	0	42	0	355991552	23	5638
2026-01-10 02:33:45.78	283.95	58.40	-31.7	-35.6	17.4	5.99e-01	0	42	0	361234432	24	5663
2026-01-10 02:33:48.78	280.94	58.09	-31.0	-34.2	18.5	6.01e-01	0	42	0	367001600	23	5194
2026-01-10 02:33:51.79	277.99	57.71	-30.8	-33.8	18.7	5.98e-01	0	42	0	372768768	23	5060
2026-01-10 02:33:54.80	275.14	57.26	-31.0	-34.2	18.3	6.00e-01	0	42	0	378535936	23	5222
2026-01-10 02:33:57.80	272.39	56.76	-30.3	-32.9	19.2	6.01e-01	0	42	0	383778816	22	4852
2026-01-10 02:34:00.82	269.73	56.19	-30.1	-32.7	19.9	6.01e-01	0	42	0	389545984	21	4887
2026-01-10 02:34:03.82	267.20	55.58	-29.9	-32.3	20.1	6.01e-01	0	42	0	395313152	21	4736
2026-01-10 02:34:06.84	264.77	54.91	-30.6	-33.2	18.9	6.00e-01	0	42	0	401080320	23	4839
2026-01-10 02:34:09.85	262.46	54.21	-30.0	-32.0	19.7	6.02e-01	0	42	0	406323200	22	4535
2026-01-10 02:34:12.86	260.26	53.48	-29.5	-31.9	20.5	6.02e-01	0	42	0	412090368	20	4728
2026-01-10 02:34:15.86	258.19	52.72	-29.3	-31.4	20.7	6.01e-01	0	42	0	417857536	20	4577
2026-01-10 02:34:18.86	256.21	51.94	-29.3	-31.4	20.6	6.00e-01	0	42	0	423624704	20	4584
2026-01-10 02:34:21.86	254.35	51.13	-29.6	-32.1	20.3	6.02e-01	0	42	0	428867584	20	4813
2026-01-10 02:34:24.86	252.58	50.31	-29.7	-32.4	19.9	5.98e-01	0	42	0	434634752	20	4932
2026-01-10 02:34:27.86	250.91	49.48	-29.8	-32.1	20.1	5.97e-01	0	42	0	440401920	21	4693
2026-01-10 02:34:30.86	249.33	48.64	-30.3	-32.9	19.5	6.01e-01	0	42	0	445644800	22	4861
2026-01-10 02:34:33.85	247.83	47.80	-29.6	-31.5	20.5	6.01e-01	0	42	0	451411968	21	4497
2026-01-10 02:34:36.87	246.41	46.95	-29.7	-32.0	19.8	6.01e-01	0	42	0	457179136	21	4683
2026-01-10 02:34:39.87	245.07	46.10	-30.1	-33.0	19.5	6.01e-01	0	42	0	462946304	21	5015
2026-01-10 02:34:42.88	243.80	45.25	-29.9	-32.4	19.7	6.01e-01	0	42	0	468713472	21	4796
2026-01-10 02:34:45.88	242.59	44.41	-29.7	-31.9	19.9	6.00e-01	0	42	0	473956352	21	4666
2026-01-10 02:34:48.89	241.45	43.57	-29.9	-32.4	19.7	6.00e-01	0	42	0	479723520	21	4820
2026-01-10 02:34:51.89	240.37	42.75	-30.9	-34.5	18.4	6.01e-01	0	42	0	485490688	22	5452
2026-01-10 02:34:54.88	239.35	41.93	-31.0	-33.9	17.8	6.00e-01	0	42	0	490733568	24	5026
2026-01-10 02:34:57.89	238.38	41.11	-30.8	-33.7	18.6	6.01e-01	0	42	0	496500736	23	5044
2026-01-10 02:35:00.90	237.45	40.31	-30.6	-33.7	18.5	6.01e-01	0	42	0	502267904	22	5174
2026-01-10 02:35:03.90	236.57	39.52	-30.2	-32.8	19.2	6.03e-01	0	42	0	508035072	22	4831
2026-01-10 02:35:06.92	235.73	38.73	-30.4	-33.4	18.7	6.02e-01	0	42	0	513277952	22	5086
2026-01-10 02:35:09.91	234.93	37.97	-30.8	-34.4	18.1	6.03e-01	0	42	0	519045120	22	5455
2026-01-10 02:35:12.91	234.18	37.22	-30.8	-34.4	18.0	6.00e-01	0	42	0	524812288	22	5477
2026-01-10 02:35:15.93	233.45	36.47	-30.9	-34.7	17.8	5.99e-01	0	42	0	530579456	22	5585
2026-01-10 02:35:18.93	232.76	35.74	-30.9	-34.1	17.8	6.01e-01	0	42	0	535822336	23	5247
2026-01-10 02:35:21.94	232.10	35.02	-31.3	-35.5	17.2	6.04e-01	0	42	0	541589504	23	5828
2026-01-10 02:35:24.95	231.46	34.31	-30.3	-33.2	18.7	6.01e-01	0	42	0	547356672	22	5015
2026-01-10 02:35:27.95	230.86	33.62	-29.9	-32.5	19.4	6.02e-01	0	42	0	553123840	21	4879
2026-01-10 02:35:30.96	230.28	32.94	-29.4	-31.4	20.1	6.00e-01	0	42	0	558366720	21	4514
2026-01-10 02:35:33.97	229.73	32.27	-29.4	-31.8	20.1	6.00e-01	0	42	0	564133888	20	4762
2026-01-10 02:35:36.97	229.20	31.62	-29.3	-31.7	20.2	6.02e-01	0	42	0	569901056	20	4704
2026-01-10 02:35:39.97	228.69	30.98	-29.2	-31.3	20.3	6.01e-01	0	42	0	575668224	20	4579
2026-01-10 02:35:42.97	228.20	30.35	-29.4	-31.8	20.0	6.02e-01	0	42	0	580911104	20	4758
2026-01-10 02:35:45.97	227.73	29.74	-29.1	-31.2	20.4	6.01e-01	0	42	0	586678272	20	4563
2026-01-10 02:35:48.98	227.28	29.13	-29.3	-31.7	20.2	6.00e-01	0	42	0	592445440	20	4709
2026-01-10 02:35:51.97	226.85	28.54	-29.4	-31.8	19.9	6.03e-01	0	42	0	598212608	20	4754
2026-01-10 02:35:54.98	226.43	27.96	-29.3	-31.6	20.1	6.04e-01	0	42	0	603455488	20	4689
2026-01-10 02:35:57.98	226.03	27.39	-29.8	-33.0	19.3	5.99e-01	0	42	0	609222656	20	5203
2026-01-10 02:36:01.00	225.64	26.83	-29.3	-31.7	20.0	6.00e-01	0	42	0	614989824	20	4726
2026-01-10 02:36:04.00	225.27	26.28	-29.5	-32.2	19.7	5.98e-01	0	42	0	620756992	20	4902
2026-01-10 02:36:07.01	224.91	25.74	-29.6	-32.5	19.5	6.00e-01	0	42	0	625999872	20	5011
2026-01-10 02:36:10.03	224.56	25.21	-30.4	-34.2	18.2	6.00e-01	0	42	0	631767040	21	5550
2026-01-10 02:36:13.02	224.23	24.70	-30.3	-33.3	18.3	6.03e-01	0	42	0	637534208	22	5082
2026-01-10 02:36:16.02	223.91	24.19	-29.8	-32.4	19.3	6.01e-01	0	42	0	643301376	21	4863
2026-01-10 02:36:19.02	223.59	23.69	-29.7	-32.3	19.2	6.02e-01	0	42	0	648544256	21	4843
2026-01-10 02:36:22.03	223.29	23.20	-29.5	-31.7	19.7	6.01e-01	0	42	0	654311424	21	4624
2026-01-10 02:36:25.04	223.00	22.72	-29.8	-32.4	19.2	5.99e-01	0	42	0	660078592	21	4892
2026-01-10 02:36:28.04	222.72	22.25	-29.6	-32.1	19.3	5.99e-01	0	42	0	665845760	21	4768
2026-01-10 02:36:31.05	222.44	21.79	-29.8	-32.4	19.2	6.01e-01	0	42	0	671088640	21	4872
2026-01-10 02:36:34.06	222.18	21.34	-29.7	-32.2	19.3	6.02e-01	0	42	0	676855808	21	4809
2026-01-10 02:36:37.07	221.92	20.89	-30.0	-33.0	18.7	6.01e-01	0	42	0	682622976	21	5113
2026-01-10 02:36:40.08	221.67	20.45	-29.8	-32.7	18.9	6.02e-01	0	42	0	688390144	21	4978
2026-01-10 02:36:43.07	221.43	20.02	-29.7	-32.3	19.2	6.01e-01	0	42	0	693633024	21	4841
2026-01-10 02:36:46.08	221.19	19.60	-29.6	-32.0	19.3	6.04e-01	0	42	0	699400192	21	4755
2026-01-10 02:36:49.07	220.97	19.19	-29.6	-32.2	19.2	6.01e-01	0	42	0	705167360	21	4808
2026-01-10 02:36:52.09	220.75	18.78	-30.0	-33.1	18.5	6.00e-01	0	42	0	710934528	21	5131
2026-01-10 02:36:55.10	220.53	18.37	-29.7	-32.4	19.0	6.03e-01	0	42	0	716177408	21	4883
2026-01-10 02:36:58.09	220.32	17.98	-29.6	-32.0	19.2	6.01e-01	0	42	0	721944576	21	4768
2026-01-10 02:37:01.10	220.12	17.59	-29.4	-31.6	19.5	6.00e-01	0	42	0	727711744	21	4618
2026-01-10 02:37:04.11	219.92	17.21	-29.4	-31.5	19.5	6.02e-01	0	42	0	733478912	21	4597
2026-01-10 02:37:07.11	219.73	16.83	-29.7	-32.4	18.9	6.01e-01	0	42	0	738721792	21	4917
2026-01-10 02:37:10.11	219.55	16.46	-29.6	-32.2	19.1	6.01e-01	0	42	0	744488960	21	4820
2026-01-10 02:37:13.11	219.37	16.10	-29.5	-31.9	19.2	6.01e-01	0	42	0	750256128	21	4723
2026-01-10 02:37:16.11	219.19	15.74	-29.6	-32.1	19.0	6.01e-01	0	42	0	755499008	21	4819
2026-01-10 02:37:19.12	219.02	15.39	-30.0	-33.2	18.3	6.02e-01	0	42	0	761266176	21	5212
2026-01-10 02:37:22.12	218.85	15.04	-29.7	-32.5	18.8	6.02e-01	0	42	0	767033344	21	4939
2026-01-10 02:37:25.12	218.69	14.70	-29.8	-32.8	18.6	6.02e-01	0	42	0	772800512	21	5047
2026-01-10 02:37:28.12	218.53	14.36	-29.6	-32.3	18.8	6.00e-01	0	42	0	778567680	21	4879
2026-01-10 02:37:31.12	218.37	14.03	-29.8	-32.6	18.7	6.02e-01	0	42	0	783810560	21	5010
2026-01-10 02:37:34.12	218.22	13.70	-29.6	-32.1	18.9	5.99e-01	0	42	0	789577728	21	4825
2026-01-10 02:37:37.11	218.07	13.38	-29.6	-32.1	18.9	6.01e-01	0	42	0	795344896	21	4836
2026-01-10 02:37:40.11	217.93	13.06	-29.6	-32.1	18.9	6.01e-01	0	42	0	800587776	21	4818
2026-01-10 02:37:43.12	217.79	12.74	-29.4	-32.3	19.1	6.01e-01	0	42	0	806354944	20	4983
2026-01-10 02:37:46.11	217.65	12.44	-29.5	-32.6	18.8	5.99e-01	0	42	0	812122112	20	5105
2026-01-10 02:37:49.12	217.52	12.13	-29.8	-32.9	18.4	6.02e-01	0	42	0	817889280	21	5113
2026-01-10 02:37:52.12	217.39	11.83	-29.8	-32.7	18.5	6.00e-01	0	42	0	823132160	21	5054
2026-01-10 02:37:55.12	217.26	11.53	-30.1	-33.2	17.6	6.01e-01	0	42	0	828899328	22	5159
2026-01-10 02:37:58.13	217.14	11.24	-30.2	-33.6	17.3	6.02e-01	0	42	0	834666496	22	5328
2026-01-10 02:38:01.13	217.01	10.95	-30.1	-33.3	17.6	6.02e-01	0	42	0	840433664	22	5197
2026-01-10 02:38:04.12	216.90	10.66	-29.9	-33.1	18.0	6.00e-01	0	42	0	845676544	21	5226
2026-01-10 02:38:07.13	216.78	10.38	-29.8	-33.0	18.1	6.03e-01	0	42	0	851443712	21	5186
2026-01-10 02:38:10.13	216.66	10.10	-30.2	-33.6	17.5	6.02e-01	0	42	0	857210880	22	5338
2026-01-10 02:38:13.13	216.55	9.82	-29.9	-32.9	17.8	6.01e-01	0	42	0	862453760	22	5050
2026-01-10 02:38:16.14	216.44	9.55	-30.2	-33.5	17.4	6.01e-01	0	42	0	868220928	22	5300
2026-01-10 02:38:19.15	216.34	9.28	-30.3	-33.9	17.1	6.02e-01	0	42	0	873988096	22	5471
2026-01-10 02:38:22.17	216.23	9.01	-30.5	-34.5	16.8	6.00e-01	0	42	0	879755264	22	5715
2026-01-10 02:38:25.17	216.13	8.75	-30.2	-33.7	17.2	6.00e-01	0	42	0	884998144	22	5392
2026-01-10 02:38:28.17	216.03	8.49	-30.1	-33.4	17.3	6.02e-01	0	42	0	890765312	22	5252
2026-01-10 02:38:31.18	215.93	8.23	-30.4	-34.3	16.7	6.02e-01	0	42	0	896532480	22	5664
2026-01-10 02:38:34.17	215.84	7.97	-30.3	-33.9	17.0	6.02e-01	0	42	0	902299648	22	5487
2026-01-10 02:38:37.17	215.74	7.72	-30.1	-33.4	17.2	6.00e-01	0	42	0	907542528	22	5264
2026-01-10 02:38:40.18	215.65	7.47	-30.2	-33.8	16.9	6.00e-01	0	42	0	913309696	22	5442
2026-01-10 02:38:43.18	215.56	7.22	-30.2	-33.9	16.8	6.03e-01	0	42	0	919076864	22	5494
2026-01-10 02:38:46.18	215.47	6.98	-33.6	-53.2	3.8	7.43e-01	0	42	104	921174016	27	34406

#Closed at: 2026-01-10 02:38:47
#Recorded file [921 MB]: D:/data/31010_260110_053032.dat