passes_logs/2026/01/10/R2M6_AANII_01/R2M6_AANII_01__20260110_120124_FENGYUN_3D_rec.log

#Pass ID: 20260110_120124_FENGYUN 3D
#Satellite: FENGYUN 3D
#Configuration: FENGYUN 3D
#almurnet v.1.7.20240730
#Start time: 2026-01-10 12:01:24

#Version: 2.2.20231116
#Station: R2M6_AANII_01
#Location: 30.233357 lon 59.946436 lat
#TLE: 1 43010U 17072A   26009.29492227  .00000158  00000+0  96483-4 0  9996
#TLE: 2 43010  98.9936 341.0229 0002153 117.3665 242.7729 14.19694440422446

#Time	Az	El	Level	Level2	SNR	BER	BlckErr	Temp	State	Recorded	gain1	gain2
2026-01-10 12:01:24.77	149.83	7.02	-28.2	-31.5	5.5	7.84e-01	0	39	0	0	16	5304
2026-01-10 12:01:27.79	149.79	7.25	-29.2	-33.1	8.9	2.84e-02	0	40	0	5242880	18	5647
2026-01-10 12:01:30.80	149.75	7.49	-28.1	-30.6	11.0	3.99e-03	0	40	0	22020096	17	4784
2026-01-10 12:01:33.81	149.71	7.73	-27.3	-29.1	12.3	3.22e-04	0	40	0	38797312	16	4414
2026-01-10 12:01:36.84	149.67	7.97	-26.8	-28.4	12.9	1.10e-04	0	40	0	56623104	15	4314
2026-01-10 12:01:39.86	149.62	8.21	-27.1	-29.1	12.4	1.27e-04	0	40	0	73400320	15	4541
2026-01-10 12:01:42.88	149.58	8.46	-26.4	-27.8	13.7	2.51e-05	0	40	0	90177536	14	4220
2026-01-10 12:01:45.88	149.54	8.70	-26.4	-27.8	13.7	1.71e-05	0	40	0	106954752	14	4207
2026-01-10 12:01:48.90	149.49	8.95	-26.3	-27.5	13.9	5.70e-06	0	40	0	123731968	14	4144
2026-01-10 12:01:51.91	149.45	9.21	-26.4	-28.3	13.7	1.02e-05	0	40	0	140509184	13	4463
2026-01-10 12:01:54.91	149.40	9.46	-26.1	-27.5	14.2	3.40e-06	0	40	0	158334976	13	4229
2026-01-10 12:01:57.94	149.35	9.72	-26.1	-27.5	14.3	3.40e-06	0	40	0	175112192	13	4218
2026-01-10 12:02:00.95	149.30	9.98	-26.0	-27.3	14.5	1.10e-06	0	41	0	191889408	13	4145
2026-01-10 12:02:03.97	149.26	10.24	-26.0	-27.1	14.5	0.00e+00	0	41	0	208666624	13	4103
2026-01-10 12:02:06.98	149.20	10.51	-26.3	-27.9	14.2	1.10e-06	0	41	0	225443840	13	4307
2026-01-10 12:02:10.00	149.15	10.78	-25.8	-26.7	14.9	0.00e+00	0	41	0	243269632	13	3997
2026-01-10 12:02:13.02	149.10	11.05	-25.9	-26.9	14.8	1.10e-06	0	41	0	260046848	13	4041
2026-01-10 12:02:16.04	149.05	11.33	-25.8	-26.7	14.9	0.00e+00	0	41	0	276824064	13	4004
2026-01-10 12:02:19.06	148.99	11.61	-25.8	-27.2	14.9	0.00e+00	0	41	0	293601280	12	4234
2026-01-10 12:02:22.08	148.93	11.89	-25.7	-27.0	15.0	0.00e+00	0	41	0	310378496	12	4184
2026-01-10 12:02:25.09	148.88	12.17	-25.6	-26.9	15.1	0.00e+00	0	41	0	328204288	12	4145
2026-01-10 12:02:28.08	148.82	12.46	-25.6	-26.7	15.3	0.00e+00	0	41	0	344981504	12	4097
2026-01-10 12:02:31.10	148.76	12.75	-25.8	-27.3	14.9	0.00e+00	0	41	0	361758720	12	4252
2026-01-10 12:02:34.12	148.70	13.05	-26.0	-27.6	14.8	0.00e+00	0	41	0	378535936	12	4358
2026-01-10 12:02:37.14	148.63	13.35	-25.8	-27.1	15.1	0.00e+00	0	41	0	395313152	12	4208
2026-01-10 12:02:40.16	148.57	13.65	-25.8	-27.1	15.1	0.00e+00	0	41	0	412090368	12	4221
2026-01-10 12:02:43.18	148.50	13.95	-25.3	-26.2	15.6	0.00e+00	0	41	0	429916160	12	3976
2026-01-10 12:02:46.20	148.44	14.27	-25.2	-26.3	15.9	0.00e+00	0	41	0	446693376	11	4093
2026-01-10 12:02:49.21	148.37	14.58	-25.2	-26.2	16.0	0.00e+00	0	41	0	463470592	11	4082
2026-01-10 12:02:52.23	148.30	14.90	-25.0	-25.9	16.2	0.00e+00	0	41	0	480247808	11	4000
2026-01-10 12:02:55.26	148.22	15.22	-24.9	-25.7	16.4	3.40e-06	0	41	0	497025024	11	3927
2026-01-10 12:02:58.27	148.15	15.55	-24.8	-25.5	16.5	0.00e+00	0	41	0	514850816	11	3884
2026-01-10 12:03:01.28	148.07	15.88	-24.9	-26.1	16.4	3.40e-06	0	41	0	531628032	10	4145
2026-01-10 12:03:04.30	147.99	16.21	-25.0	-26.4	16.3	8.00e-06	0	41	0	548405248	10	4223
2026-01-10 12:03:07.31	147.91	16.55	-24.7	-25.7	16.7	0.00e+00	0	41	0	565182464	10	4030
2026-01-10 12:03:10.33	147.83	16.90	-24.6	-25.5	16.8	0.00e+00	0	41	0	581959680	10	3979
2026-01-10 12:03:13.36	147.75	17.25	-24.6	-25.4	16.9	0.00e+00	0	41	0	598736896	10	3973
2026-01-10 12:03:16.38	147.66	17.60	-24.6	-25.6	16.8	0.00e+00	0	41	0	616562688	10	4003
2026-01-10 12:03:19.38	147.57	17.96	-24.5	-25.2	17.0	0.00e+00	0	41	0	633339904	10	3920
2026-01-10 12:03:22.40	147.48	18.33	-24.4	-25.1	17.1	0.00e+00	0	41	0	650117120	10	3889
2026-01-10 12:03:25.41	147.39	18.70	-24.4	-25.0	17.2	0.00e+00	0	41	0	666894336	10	3875
2026-01-10 12:03:28.43	147.29	19.07	-24.4	-25.2	17.1	0.00e+00	0	42	0	683671552	10	3910
2026-01-10 12:03:31.44	147.19	19.45	-24.2	-25.1	17.4	0.00e+00	0	41	0	700448768	9	4003
2026-01-10 12:03:34.46	147.09	19.84	-24.4	-25.5	17.3	0.00e+00	0	41	0	718274560	9	4087
2026-01-10 12:03:37.48	146.99	20.23	-24.3	-25.4	17.3	0.00e+00	0	42	0	735051776	9	4063
2026-01-10 12:03:40.51	146.88	20.64	-24.3	-25.4	17.3	0.00e+00	0	42	0	751828992	9	4074
2026-01-10 12:03:43.53	146.77	21.04	-24.2	-25.1	17.5	0.00e+00	0	42	0	768606208	9	4004
2026-01-10 12:03:46.55	146.65	21.46	-24.1	-24.8	17.7	0.00e+00	0	42	0	785383424	9	3922
2026-01-10 12:03:49.57	146.54	21.88	-23.8	-24.4	17.9	0.00e+00	0	42	0	803209216	9	3821
2026-01-10 12:03:52.59	146.42	22.30	-23.9	-24.4	17.9	0.00e+00	0	42	0	819986432	9	3840
2026-01-10 12:03:55.61	146.29	22.74	-23.5	-24.1	18.4	0.00e+00	0	42	0	836763648	8	3853
2026-01-10 12:03:58.63	146.16	23.18	-23.4	-23.9	18.5	0.00e+00	0	42	0	853540864	8	3819
2026-01-10 12:04:01.65	146.03	23.63	-23.4	-24.5	18.5	0.00e+00	0	42	0	870318080	7	4052
2026-01-10 12:04:04.66	145.90	24.08	-23.3	-24.1	18.7	0.00e+00	0	42	0	888143872	7	3959
2026-01-10 12:04:07.68	145.76	24.55	-23.4	-24.4	18.4	0.00e+00	0	42	0	904921088	7	4047
2026-01-10 12:04:10.70	145.61	25.02	-23.5	-24.7	18.3	0.00e+00	0	42	0	921698304	7	4115
2026-01-10 12:04:13.72	145.46	25.50	-23.5	-24.7	18.4	0.00e+00	0	42	0	938475520	7	4107
2026-01-10 12:04:16.73	145.31	25.99	-23.1	-23.8	18.9	0.00e+00	0	42	0	955252736	7	3879
2026-01-10 12:04:19.74	145.15	26.48	-23.2	-24.0	18.8	0.00e+00	0	42	0	973078528	7	3935
2026-01-10 12:04:22.76	144.98	26.99	-23.3	-24.1	18.7	0.00e+00	0	42	0	989855744	7	3972
2026-01-10 12:04:25.78	144.81	27.51	-23.1	-23.8	18.9	0.00e+00	0	42	0	1006632960	7	3898
2026-01-10 12:04:28.79	144.64	28.03	-22.9	-23.3	19.2	0.00e+00	0	42	0	1023410176	7	3775
2026-01-10 12:04:31.81	144.45	28.57	-22.8	-23.7	19.2	0.00e+00	0	42	0	1040187392	6	3968
2026-01-10 12:04:34.83	144.27	29.11	-23.2	-24.5	18.8	0.00e+00	0	42	0	1058013184	6	4179
2026-01-10 12:04:37.85	144.07	29.67	-23.2	-24.5	18.8	0.00e+00	0	42	0	1074790400	6	4164
2026-01-10 12:04:40.87	143.87	30.24	-23.0	-24.1	19.1	0.00e+00	0	42	0	1091567616	6	4063
2026-01-10 12:04:43.89	143.65	30.82	-22.8	-23.7	19.3	0.00e+00	0	42	0	1108344832	6	3975
2026-01-10 12:04:46.91	143.43	31.41	-22.8	-23.6	19.4	0.00e+00	0	42	0	1125122048	6	3946
2026-01-10 12:04:49.93	143.21	32.01	-22.8	-23.6	19.3	0.00e+00	0	42	0	1142947840	6	3957
2026-01-10 12:04:52.94	142.97	32.62	-22.4	-22.9	19.7	0.00e+00	0	42	0	1159725056	6	3780
2026-01-10 12:04:55.96	142.72	33.24	-22.7	-23.4	19.5	0.00e+00	0	42	0	1176502272	6	3915
2026-01-10 12:04:58.98	142.47	33.88	-22.7	-23.5	19.4	0.00e+00	0	42	0	1193279488	6	3924
2026-01-10 12:05:01.98	142.20	34.53	-22.8	-23.7	19.4	0.00e+00	0	42	0	1210056704	6	3973
2026-01-10 12:05:05.00	141.92	35.19	-22.5	-23.0	19.7	0.00e+00	0	42	0	1226833920	6	3817
2026-01-10 12:05:08.01	141.63	35.86	-22.4	-22.9	19.8	0.00e+00	0	42	0	1243611136	6	3778
2026-01-10 12:05:11.04	141.33	36.56	-22.6	-23.1	19.7	0.00e+00	0	42	0	1261436928	6	3836
2026-01-10 12:05:14.05	141.01	37.26	-23.0	-24.0	19.2	0.00e+00	0	42	0	1278214144	6	4044
2026-01-10 12:05:17.07	140.68	37.98	-22.6	-23.1	19.7	0.00e+00	0	42	0	1294991360	6	3840
2026-01-10 12:05:20.09	140.34	38.71	-22.5	-22.9	19.8	0.00e+00	0	42	0	1311768576	6	3779
2026-01-10 12:05:23.10	139.97	39.45	-22.9	-23.9	19.3	0.00e+00	0	42	0	1328545792	6	4010
2026-01-10 12:05:26.11	139.59	40.21	-22.9	-23.7	19.4	0.00e+00	0	42	0	1346371584	6	3977
2026-01-10 12:05:29.13	139.19	40.99	-23.0	-23.9	19.3	0.00e+00	0	42	0	1363148800	6	4026
2026-01-10 12:05:32.16	138.77	41.79	-23.0	-23.9	19.3	0.00e+00	0	42	0	1379926016	6	4020
2026-01-10 12:05:35.17	138.33	42.59	-22.5	-22.9	19.8	0.00e+00	0	42	0	1396703232	6	3780
2026-01-10 12:05:38.18	137.87	43.41	-22.4	-22.8	19.9	0.00e+00	0	42	0	1413480448	6	3760
2026-01-10 12:05:41.21	137.38	44.26	-22.7	-23.4	19.6	0.00e+00	0	42	0	1431306240	6	3901
2026-01-10 12:05:44.22	136.86	45.11	-22.9	-23.7	19.5	0.00e+00	0	42	0	1448083456	6	3976
2026-01-10 12:05:47.24	136.31	45.98	-22.7	-23.3	19.7	0.00e+00	0	42	0	1464860672	6	3879
2026-01-10 12:05:50.26	135.73	46.87	-22.7	-23.4	19.7	0.00e+00	0	42	0	1481637888	6	3906
2026-01-10 12:05:53.28	135.12	47.77	-23.3	-24.6	19.1	0.00e+00	0	42	0	1498415104	6	4198
2026-01-10 12:05:56.30	134.47	48.69	-23.9	-25.4	18.5	0.00e+00	0	42	0	1516240896	7	4281
2026-01-10 12:05:59.33	133.77	49.63	-23.9	-24.8	18.6	0.00e+00	0	42	0	1533018112	8	4010
2026-01-10 12:06:02.35	133.04	50.57	-24.0	-25.0	18.5	0.00e+00	0	42	0	1549795328	8	4061
2026-01-10 12:06:05.37	132.25	51.54	-25.1	-26.4	17.3	0.00e+00	0	42	0	1566572544	10	4196
2026-01-10 12:06:08.38	131.41	52.51	-23.5	-24.1	19.0	0.00e+00	0	42	0	1583349760	8	3837
2026-01-10 12:06:11.40	130.52	53.50	-23.9	-24.8	18.6	0.00e+00	0	42	0	1601175552	8	4016
2026-01-10 12:06:14.42	129.56	54.50	-23.4	-24.3	19.1	0.00e+00	0	42	0	1617952768	7	4001
2026-01-10 12:06:17.44	128.52	55.51	-23.7	-24.9	18.7	0.00e+00	0	42	0	1634729984	7	4163
2026-01-10 12:06:20.46	127.41	56.53	-23.8	-25.1	18.7	0.00e+00	0	42	0	1651507200	7	4195
2026-01-10 12:06:23.48	126.22	57.56	-22.9	-23.3	19.6	0.00e+00	0	42	0	1668284416	7	3764
2026-01-10 12:06:26.50	124.92	58.59	-24.2	-25.5	18.3	1.10e-06	0	42	0	1686110208	8	4191
2026-01-10 12:06:29.53	123.52	59.63	-23.8	-24.7	18.7	1.10e-06	0	42	0	1702887424	8	3971
2026-01-10 12:06:32.53	122.02	60.66	-23.5	-23.9	19.1	0.00e+00	0	42	0	1719664640	8	3807
2026-01-10 12:06:35.55	120.38	61.70	-22.9	-23.3	19.7	0.00e+00	0	42	0	1736441856	7	3749
2026-01-10 12:06:38.57	118.59	62.72	-22.6	-23.2	19.9	0.00e+00	0	42	0	1753219072	6	3835
2026-01-10 12:06:41.59	116.64	63.74	-22.6	-23.2	19.9	0.00e+00	0	42	0	1771044864	6	3841
2026-01-10 12:06:44.61	114.52	64.74	-22.5	-23.0	20.0	0.00e+00	0	42	0	1787822080	6	3798
2026-01-10 12:06:47.62	112.21	65.72	-22.4	-23.2	20.1	0.00e+00	0	42	0	1804599296	5	3964
2026-01-10 12:06:50.63	109.69	66.67	-21.8	-22.6	20.7	0.00e+00	0	42	0	1821376512	4	3926
2026-01-10 12:06:53.64	106.93	67.58	-21.7	-22.3	20.8	0.00e+00	0	42	0	1838153728	4	3844
2026-01-10 12:06:56.66	103.92	68.46	-21.6	-22.1	20.9	0.00e+00	0	42	0	1854930944	4	3812
2026-01-10 12:06:59.68	100.63	69.28	-21.3	-21.5	21.2	0.00e+00	0	42	0	1872756736	4	3669
2026-01-10 12:07:02.70	97.07	70.04	-21.7	-22.4	20.8	0.00e+00	0	42	0	1889533952	4	3875
2026-01-10 12:07:05.72	93.21	70.72	-21.8	-22.4	20.8	0.00e+00	0	42	0	1906311168	4	3876
2026-01-10 12:07:08.74	89.08	71.33	-22.0	-22.9	20.5	0.00e+00	0	42	0	1923088384	4	3985
2026-01-10 12:07:11.76	84.67	71.83	-22.1	-23.1	20.4	0.00e+00	0	42	0	1939865600	4	4048
2026-01-10 12:07:14.77	80.04	72.23	-21.8	-22.4	20.9	0.00e+00	0	42	0	1957691392	4	3878
2026-01-10 12:07:17.79	75.20	72.52	-21.8	-22.4	21.0	0.00e+00	0	42	0	1974468608	4	3877
2026-01-10 12:07:20.82	70.22	72.68	-22.3	-23.4	20.5	0.00e+00	0	42	0	1991245824	4	4107
2026-01-10 12:07:23.84	65.18	72.72	-21.7	-22.2	21.1	0.00e+00	0	42	0	2008023040	4	3812
2026-01-10 12:07:26.86	60.17	72.63	-21.6	-21.9	21.2	0.00e+00	0	42	0	2024800256	4	3754
2026-01-10 12:07:29.88	55.25	72.41	-21.9	-22.7	20.8	0.00e+00	0	42	0	2042626048	4	3929
2026-01-10 12:07:32.90	50.48	72.08	-21.4	-21.6	21.3	0.00e+00	0	42	0	2059403264	4	3691
2026-01-10 12:07:35.93	45.92	71.63	-21.4	-21.7	21.3	0.00e+00	0	42	0	2076180480	4	3706
2026-01-10 12:07:38.94	41.64	71.09	-21.8	-22.4	21.0	0.00e+00	0	42	0	2092957696	4	3860
2026-01-10 12:07:41.95	37.63	70.45	-21.6	-22.0	21.2	0.00e+00	0	42	0	2109734912	4	3769
2026-01-10 12:07:44.97	33.90	69.74	-22.1	-23.0	20.7	0.00e+00	0	42	0	2126512128	4	4004
2026-01-10 12:07:47.98	30.47	68.96	-21.3	-21.4	21.5	0.00e+00	0	42	0	2144337920	4	3638
2026-01-10 12:07:51.01	27.29	68.11	-21.8	-22.3	21.0	0.00e+00	0	42	0	2161115136	4	3853
2026-01-10 12:07:54.02	24.39	67.22	-22.3	-23.5	20.4	0.00e+00	0	42	0	2177892352	4	4138
2026-01-10 12:07:57.04	21.72	66.29	-22.2	-22.7	20.6	0.00e+00	0	42	0	2194669568	5	3822
2026-01-10 12:08:00.05	19.29	65.33	-22.0	-22.3	20.8	0.00e+00	0	42	0	2211446784	5	3723
2026-01-10 12:08:03.07	17.06	64.34	-22.1	-22.6	20.6	0.00e+00	0	42	0	2229272576	5	3795
2026-01-10 12:08:06.10	15.01	63.33	-22.8	-24.1	19.9	0.00e+00	0	42	0	2246049792	5	4147
2026-01-10 12:08:09.11	13.14	62.32	-22.6	-23.1	20.2	0.00e+00	0	42	0	2262827008	6	3812
2026-01-10 12:08:12.13	11.41	61.29	-22.4	-22.6	20.4	0.00e+00	0	42	0	2279604224	6	3702
2026-01-10 12:08:15.15	9.83	60.26	-22.5	-23.4	20.3	0.00e+00	0	42	0	2296381440	5	3982
2026-01-10 12:08:18.18	8.36	59.22	-23.2	-24.4	19.5	0.00e+00	0	42	0	2314207232	6	4120
2026-01-10 12:08:21.19	7.01	58.19	-23.6	-24.7	19.1	0.00e+00	0	42	0	2330984448	7	4093
2026-01-10 12:08:24.21	5.76	57.16	-24.0	-25.0	18.7	0.00e+00	0	42	0	2347761664	8	4041
2026-01-10 12:08:27.24	4.60	56.14	-24.2	-25.4	18.5	0.00e+00	0	42	0	2364538880	8	4139
2026-01-10 12:08:30.26	3.53	55.12	-24.0	-25.0	18.7	0.00e+00	0	42	0	2381316096	8	4027
2026-01-10 12:08:33.28	2.53	54.12	-23.6	-24.2	19.1	0.00e+00	0	42	0	2399141888	8	3864
2026-01-10 12:08:36.30	1.59	53.13	-23.5	-24.0	19.2	0.00e+00	0	42	0	2415919104	8	3815
2026-01-10 12:08:39.32	0.72	52.14	-23.2	-23.8	19.5	0.00e+00	0	42	0	2432696320	7	3873
2026-01-10 12:08:42.33	359.91	51.18	-23.3	-24.0	19.3	0.00e+00	0	42	0	2449473536	7	3924
2026-01-10 12:08:45.36	359.14	50.22	-23.3	-24.1	19.3	0.00e+00	0	42	0	2466250752	7	3932
2026-01-10 12:08:48.37	358.43	49.29	-22.6	-23.1	20.0	0.00e+00	0	42	0	2483027968	6	3811
2026-01-10 12:08:51.37	357.76	48.37	-22.7	-23.3	20.0	0.00e+00	0	42	0	2500853760	6	3857
2026-01-10 12:08:54.40	357.12	47.46	-22.6	-23.2	20.0	0.00e+00	0	42	0	2517630976	6	3822
2026-01-10 12:08:57.42	356.53	46.56	-23.1	-24.2	19.6	0.00e+00	0	42	0	2534408192	6	4072
2026-01-10 12:09:00.44	355.96	45.68	-23.0	-23.9	19.7	0.00e+00	0	42	0	2551185408	6	3991
2026-01-10 12:09:03.46	355.43	44.82	-23.0	-24.0	19.6	0.00e+00	0	42	0	2567962624	6	4032
2026-01-10 12:09:06.49	354.92	43.97	-23.2	-24.2	19.5	0.00e+00	0	42	0	2585788416	6	4078
2026-01-10 12:09:09.51	354.44	43.14	-22.2	-22.8	20.4	0.00e+00	0	42	0	2602565632	5	3848
2026-01-10 12:09:12.54	353.99	42.32	-22.3	-23.0	20.3	0.00e+00	0	42	0	2619342848	5	3907
2026-01-10 12:09:15.56	353.55	41.52	-22.3	-23.1	20.3	0.00e+00	0	42	0	2636120064	5	3914
2026-01-10 12:09:18.58	353.14	40.74	-22.6	-23.5	20.1	0.00e+00	0	42	0	2653945856	5	4023
2026-01-10 12:09:21.60	352.75	39.97	-22.8	-23.9	19.8	0.00e+00	0	42	0	2670723072	5	4111
2026-01-10 12:09:24.62	352.38	39.22	-22.6	-23.5	20.1	0.00e+00	0	42	0	2687500288	5	4026
2026-01-10 12:09:27.62	352.03	38.48	-22.3	-23.0	20.3	0.00e+00	0	42	0	2704277504	5	3895
2026-01-10 12:09:30.64	351.69	37.76	-22.4	-23.2	20.2	0.00e+00	0	42	0	2721054720	5	3941
2026-01-10 12:09:33.66	351.37	37.05	-22.3	-22.9	20.3	0.00e+00	0	42	0	2737831936	5	3864
2026-01-10 12:09:36.68	351.06	36.35	-22.5	-23.5	20.0	0.00e+00	0	42	0	2755657728	5	4021
2026-01-10 12:09:39.70	350.76	35.67	-22.6	-23.7	19.9	0.00e+00	0	42	0	2772434944	5	4074
2026-01-10 12:09:42.72	350.47	35.00	-22.5	-23.3	20.1	0.00e+00	0	42	0	2789212160	5	3974
2026-01-10 12:09:45.73	350.20	34.35	-22.3	-23.0	20.2	0.00e+00	0	42	0	2805989376	5	3903
2026-01-10 12:09:48.74	349.94	33.71	-22.8	-23.9	19.8	0.00e+00	0	42	0	2822766592	5	4112
2026-01-10 12:09:51.76	349.69	33.08	-22.6	-23.6	19.9	0.00e+00	0	42	0	2840592384	5	4037
2026-01-10 12:09:54.78	349.45	32.46	-22.7	-23.9	19.8	0.00e+00	0	42	0	2857369600	5	4106
2026-01-10 12:09:57.80	349.22	31.85	-23.1	-24.2	19.4	0.00e+00	0	42	0	2874146816	6	4069
2026-01-10 12:10:00.82	349.00	31.26	-23.3	-24.5	19.2	0.00e+00	0	42	0	2890924032	6	4152
2026-01-10 12:10:03.83	348.78	30.68	-23.1	-24.3	19.3	0.00e+00	0	42	0	2907701248	6	4094
2026-01-10 12:10:06.85	348.58	30.11	-22.9	-23.8	19.5	0.00e+00	0	42	0	2925527040	6	3994
2026-01-10 12:10:09.87	348.38	29.54	-22.8	-23.5	19.6	0.00e+00	0	42	0	2942304256	6	3915
2026-01-10 12:10:12.89	348.19	28.99	-22.7	-23.2	19.8	0.00e+00	0	42	0	2959081472	6	3840
2026-01-10 12:10:15.91	348.00	28.45	-22.6	-23.0	19.9	0.00e+00	0	42	0	2975858688	6	3797
2026-01-10 12:10:18.93	347.82	27.92	-22.8	-23.4	19.6	0.00e+00	0	42	0	2992635904	6	3894
2026-01-10 12:10:21.95	347.65	27.40	-22.7	-23.4	19.6	0.00e+00	0	42	0	3010461696	6	3890
2026-01-10 12:10:24.97	347.48	26.89	-22.9	-23.7	19.5	0.00e+00	0	42	0	3027238912	6	3960
2026-01-10 12:10:27.99	347.32	26.39	-23.0	-24.0	19.4	0.00e+00	0	42	0	3044016128	6	4027
2026-01-10 12:10:31.01	347.17	25.90	-23.0	-23.9	19.4	0.00e+00	0	42	0	3060793344	6	4000
2026-01-10 12:10:34.03	347.01	25.41	-22.9	-23.8	19.4	0.00e+00	0	42	0	3077570560	6	3976
2026-01-10 12:10:37.05	346.87	24.94	-23.0	-24.0	19.3	0.00e+00	0	42	0	3095396352	6	4034
2026-01-10 12:10:40.07	346.73	24.47	-23.3	-24.5	19.0	0.00e+00	0	42	0	3112173568	6	4162
2026-01-10 12:10:43.09	346.59	24.01	-23.4	-24.8	18.9	0.00e+00	0	42	0	3128950784	6	4226
2026-01-10 12:10:46.09	346.46	23.56	-23.9	-25.4	18.3	0.00e+00	0	42	0	3145728000	7	4261
2026-01-10 12:10:49.12	346.33	23.11	-23.6	-24.8	18.6	0.00e+00	0	42	0	3162505216	7	4105
2026-01-10 12:10:52.13	346.21	22.68	-23.7	-25.0	18.4	0.00e+00	0	42	0	3180331008	7	4178
2026-01-10 12:10:55.14	346.09	22.25	-23.7	-25.0	18.4	0.00e+00	0	42	0	3197108224	7	4166
2026-01-10 12:10:58.16	345.97	21.83	-23.7	-24.9	18.5	0.00e+00	0	42	0	3213885440	7	4145
2026-01-10 12:11:01.18	345.85	21.41	-23.7	-24.9	18.4	0.00e+00	0	42	0	3230662656	7	4151
2026-01-10 12:11:04.19	345.74	21.00	-23.7	-24.9	18.5	0.00e+00	0	42	0	3247439872	7	4138
2026-01-10 12:11:07.21	345.64	20.60	-23.7	-25.0	18.4	0.00e+00	0	42	0	3264217088	7	4164
2026-01-10 12:11:10.23	345.53	20.20	-23.8	-25.2	18.3	0.00e+00	0	42	0	3282042880	7	4217
2026-01-10 12:11:13.25	345.43	19.81	-23.7	-25.0	18.3	0.00e+00	0	42	0	3298820096	7	4158
2026-01-10 12:11:16.28	345.33	19.43	-23.7	-24.9	18.4	0.00e+00	0	42	0	3315597312	7	4145
2026-01-10 12:11:19.30	345.24	19.05	-23.8	-25.1	18.2	0.00e+00	0	42	0	3332374528	7	4200
2026-01-10 12:11:22.32	345.14	18.68	-23.9	-25.4	18.1	0.00e+00	0	42	0	3350200320	7	4280
2026-01-10 12:11:25.35	345.05	18.31	-24.5	-25.6	17.5	0.00e+00	0	42	0	3366977536	9	4104
2026-01-10 12:11:28.35	344.96	17.95	-24.6	-25.8	17.4	0.00e+00	0	42	0	3383754752	9	4138
2026-01-10 12:11:31.36	344.88	17.59	-24.5	-25.6	17.5	0.00e+00	0	42	0	3400531968	9	4096
2026-01-10 12:11:34.38	344.80	17.24	-24.5	-25.7	17.4	0.00e+00	0	42	0	3417309184	9	4124
2026-01-10 12:11:37.39	344.71	16.89	-24.7	-26.0	17.2	0.00e+00	0	42	0	3434086400	9	4215
2026-01-10 12:11:40.42	344.63	16.55	-24.9	-26.4	17.0	0.00e+00	0	42	0	3450863616	9	4311
2026-01-10 12:11:43.44	344.56	16.21	-24.9	-26.6	16.9	0.00e+00	0	42	0	3468689408	9	4358
2026-01-10 12:11:46.46	344.48	15.88	-25.0	-26.2	16.8	0.00e+00	0	42	0	3485466624	10	4149
2026-01-10 12:11:49.47	344.41	15.55	-25.1	-26.4	16.7	0.00e+00	0	42	0	3502243840	10	4184
2026-01-10 12:11:52.50	344.34	15.23	-25.1	-26.6	16.6	0.00e+00	0	42	0	3519021056	10	4236
2026-01-10 12:11:55.51	344.27	14.91	-25.2	-26.6	16.6	0.00e+00	0	42	0	3535798272	10	4259
2026-01-10 12:11:58.54	344.20	14.59	-25.3	-26.8	16.5	0.00e+00	0	42	0	3553624064	10	4293
2026-01-10 12:12:01.56	344.13	14.28	-25.3	-26.8	16.5	0.00e+00	0	42	0	3570401280	10	4298
2026-01-10 12:12:04.57	344.07	13.97	-25.3	-26.9	16.4	0.00e+00	0	42	0	3587178496	10	4311
2026-01-10 12:12:07.60	344.01	13.67	-25.4	-27.2	16.2	0.00e+00	0	42	0	3603955712	10	4405
2026-01-10 12:12:10.62	343.94	13.37	-25.6	-27.0	16.0	0.00e+00	0	42	0	3620732928	11	4248
2026-01-10 12:12:13.64	343.88	13.07	-25.7	-27.3	15.9	0.00e+00	0	42	0	3638558720	11	4311
2026-01-10 12:12:16.65	343.83	12.78	-25.7	-27.2	15.9	0.00e+00	0	42	0	3655335936	11	4298
2026-01-10 12:12:19.68	343.77	12.49	-25.6	-27.0	16.0	0.00e+00	0	42	0	3672113152	11	4233
2026-01-10 12:12:22.68	343.71	12.20	-25.5	-26.8	16.1	0.00e+00	0	42	0	3688890368	11	4180
2026-01-10 12:12:25.70	343.66	11.92	-25.6	-27.1	15.9	0.00e+00	0	42	0	3705667584	11	4266
2026-01-10 12:12:28.72	343.60	11.64	-25.7	-27.2	15.8	0.00e+00	0	42	0	3722444800	11	4301
2026-01-10 12:12:31.73	343.55	11.36	-25.7	-27.2	15.7	0.00e+00	0	42	0	3740270592	11	4313
2026-01-10 12:12:34.75	343.50	11.09	-25.7	-27.2	15.7	0.00e+00	0	42	0	3757047808	11	4307
2026-01-10 12:12:37.77	343.45	10.82	-25.7	-27.3	15.7	0.00e+00	0	42	0	3773825024	11	4339
2026-01-10 12:12:40.79	343.40	10.55	-25.9	-27.7	15.5	0.00e+00	0	42	0	3790602240	11	4428
2026-01-10 12:12:43.81	343.36	10.28	-25.9	-27.3	15.3	0.00e+00	0	42	0	3807379456	12	4239
2026-01-10 12:12:46.83	343.31	10.02	-26.2	-28.0	14.9	0.00e+00	0	42	0	3825205248	12	4408
2026-01-10 12:12:49.86	343.26	9.76	-26.5	-28.1	14.5	2.20e-06	0	42	0	3841982464	13	4342
2026-01-10 12:12:52.88	343.22	9.50	-26.5	-28.1	14.5	1.10e-06	0	42	0	3858759680	13	4343
2026-01-10 12:12:55.90	343.18	9.25	-26.9	-29.1	13.8	4.50e-06	0	42	0	3875536896	13	4645
2026-01-10 12:12:58.93	343.13	9.00	-26.3	-27.7	14.7	1.10e-06	0	42	0	3893362688	13	4224
2026-01-10 12:13:01.94	343.09	8.75	-26.3	-27.6	14.7	0.00e+00	0	42	0	3910139904	13	4215
2026-01-10 12:13:04.97	343.05	8.50	-26.4	-28.0	14.4	2.20e-06	0	42	0	3926917120	13	4324
2026-01-10 12:13:07.98	343.01	8.26	-26.5	-28.1	14.4	3.40e-06	0	42	0	3943694336	13	4338
2026-01-10 12:13:10.98	342.97	8.02	-26.4	-28.0	14.4	2.20e-06	0	42	0	3960471552	13	4325
2026-01-10 12:13:14.00	342.93	7.78	-26.6	-28.3	14.2	1.10e-06	0	42	0	3977248768	13	4409
2026-01-10 12:13:17.02	342.90	7.54	-26.6	-28.5	14.1	4.50e-06	0	42	0	3995074560	13	4463
2026-01-10 12:13:20.03	342.86	7.31	-26.7	-28.8	13.9	4.50e-06	0	42	0	4011851776	13	4545
2026-01-10 12:13:23.06	342.83	7.07	-27.0	-28.9	13.6	1.02e-05	0	42	0	4028628992	14	4466
2026-01-10 12:13:26.07	342.79	6.84	-33.3	-44.6	3.8	8.47e-01	0	42	104	4032823296	26	13210

#Closed at: 2026-01-10 12:13:26
#Recorded file [4032 MB]: D:/data/31010_260110_150126.dat