passes_logs/2026/01/10/R2M6_AANII_01/R2M6_AANII_01__20260110_002858_FENGYUN_3D_rec.log

#Pass ID: 20260110_002858_FENGYUN 3D
#Satellite: FENGYUN 3D
#Configuration: FENGYUN 3D
#almurnet v.1.7.20240730
#Start time: 2026-01-10 00:28:58

#Version: 2.2.20231116
#Station: R2M6_AANII_01
#Location: 30.233357 lon 59.946436 lat
#TLE: 1 43010U 17072A   26009.29492227  .00000158  00000+0  96483-4 0  9996
#TLE: 2 43010  98.9936 341.0229 0002153 117.3665 242.7729 14.19694440422446

#Time	Az	El	Level	Level2	SNR	BER	BlckErr	Temp	State	Recorded	gain1	gain2
2026-01-10 00:28:58.58	34.58	7.02	-27.9	-30.0	5.7	7.50e-01	0	39	0	0	16	4561
2026-01-10 00:29:01.58	34.92	7.19	-30.3	-33.9	8.4	2.39e-02	0	40	0	5242880	21	5459
2026-01-10 00:29:04.57	35.26	7.35	-30.7	-35.0	7.7	6.59e-02	0	40	0	22020096	21	5928
2026-01-10 00:29:07.56	35.60	7.52	-29.7	-32.6	9.7	1.02e-02	0	40	0	38797312	20	5015
2026-01-10 00:29:10.56	35.96	7.69	-29.9	-33.6	9.5	1.14e-02	0	40	0	55574528	19	5503
2026-01-10 00:29:13.57	36.31	7.85	-30.0	-33.3	9.3	1.57e-02	0	40	0	72351744	20	5287
2026-01-10 00:29:16.56	36.67	8.02	-29.2	-31.6	10.9	1.49e-03	0	40	0	89128960	19	4737
2026-01-10 00:29:19.56	37.03	8.19	-27.5	-29.3	13.4	2.24e-04	0	40	0	105906176	15	4462
2026-01-10 00:29:22.56	37.39	8.35	-26.7	-28.2	14.4	9.49e-05	0	40	0	123731968	14	4240
2026-01-10 00:29:25.56	37.76	8.52	-27.0	-28.8	14.0	0.00e+00	0	41	0	140509184	14	4418
2026-01-10 00:29:28.56	38.14	8.69	-26.9	-28.4	14.3	1.66e-04	0	40	0	157286400	14	4305
2026-01-10 00:29:31.56	38.52	8.86	-26.5	-27.5	14.8	1.79e-04	0	41	0	174063616	14	4067
2026-01-10 00:29:34.57	38.90	9.03	-26.4	-27.4	14.9	0.00e+00	0	41	0	190840832	14	4037
2026-01-10 00:29:37.58	39.29	9.19	-26.3	-27.6	15.1	1.48e-05	0	41	0	207618048	13	4196
2026-01-10 00:29:40.59	39.68	9.36	-26.2	-27.3	15.2	7.43e-05	0	41	0	224395264	13	4116
2026-01-10 00:29:43.61	40.08	9.53	-26.4	-27.9	14.9	1.67e-04	0	41	0	241172480	13	4268
2026-01-10 00:29:46.61	40.48	9.70	-26.1	-27.2	15.3	5.03e-05	0	41	0	258998272	13	4095
2026-01-10 00:29:49.61	40.88	9.87	-26.1	-27.3	15.3	0.00e+00	0	41	0	275775488	13	4109
2026-01-10 00:29:52.62	41.29	10.03	-26.2	-27.4	15.2	3.77e-05	0	41	0	292552704	13	4137
2026-01-10 00:29:55.62	41.71	10.20	-26.4	-27.8	15.1	1.17e-04	0	41	0	309329920	13	4252
2026-01-10 00:29:58.63	42.13	10.37	-26.1	-27.2	15.3	4.11e-05	0	41	0	326107136	13	4091
2026-01-10 00:30:01.63	42.55	10.54	-26.3	-27.5	15.2	2.63e-05	0	41	0	342884352	13	4167
2026-01-10 00:30:04.64	42.98	10.70	-26.4	-27.8	15.1	0.00e+00	0	41	0	359661568	13	4225
2026-01-10 00:30:07.64	43.41	10.87	-26.6	-28.3	14.8	1.46e-04	0	41	0	376438784	13	4374
2026-01-10 00:30:10.65	43.85	11.04	-25.3	-25.9	15.8	2.86e-05	0	41	0	394264576	12	3886
2026-01-10 00:30:13.65	44.29	11.20	-26.0	-27.3	15.6	1.51e-04	0	41	0	411041792	12	4210
2026-01-10 00:30:16.66	44.74	11.37	-26.0	-27.4	15.6	7.78e-05	0	41	0	427819008	12	4235
2026-01-10 00:30:19.67	45.19	11.54	-26.0	-27.5	15.6	3.67e-04	0	41	0	444596224	12	4266
2026-01-10 00:30:22.67	45.65	11.70	-25.9	-27.1	15.8	1.81e-04	0	41	0	461373440	12	4147
2026-01-10 00:30:25.68	46.11	11.87	-25.7	-26.8	16.0	0.00e+00	0	41	0	478150656	12	4080
2026-01-10 00:30:28.69	46.58	12.03	-25.7	-26.8	16.0	0.00e+00	0	41	0	494927872	12	4071
2026-01-10 00:30:31.69	47.05	12.19	-25.6	-26.6	16.1	1.02e-05	0	42	0	511705088	12	4017
2026-01-10 00:30:34.70	47.53	12.36	-26.1	-27.6	15.6	0.00e+00	0	42	0	529530880	12	4283
2026-01-10 00:30:37.70	48.01	12.52	-25.5	-26.2	16.4	0.00e+00	0	42	0	546308096	12	3932
2026-01-10 00:30:40.70	48.50	12.68	-26.4	-28.2	15.2	3.15e-04	0	41	0	563085312	12	4465
2026-01-10 00:30:43.71	48.99	12.84	-26.2	-27.2	15.5	0.00e+00	0	42	0	579862528	13	4085
2026-01-10 00:30:46.71	49.49	13.00	-25.5	-26.4	16.3	0.00e+00	0	42	0	596639744	12	3970
2026-01-10 00:30:49.72	50.00	13.16	-25.6	-27.0	16.3	2.09e-04	0	42	0	613416960	11	4226
2026-01-10 00:30:52.72	50.50	13.31	-25.4	-26.7	16.5	2.85e-04	0	42	0	630194176	11	4147
2026-01-10 00:30:55.73	51.02	13.47	-25.3	-26.4	16.7	0.00e+00	0	41	0	646971392	11	4075
2026-01-10 00:30:58.74	51.54	13.63	-25.3	-26.3	16.7	0.00e+00	0	42	0	664797184	11	4050
2026-01-10 00:31:01.74	52.06	13.78	-25.4	-26.6	16.6	0.00e+00	0	41	0	681574400	11	4120
2026-01-10 00:31:04.75	52.59	13.93	-25.4	-26.5	16.6	0.00e+00	0	42	0	698351616	11	4099
2026-01-10 00:31:07.75	53.13	14.09	-25.3	-26.4	16.7	0.00e+00	0	42	0	715128832	11	4078
2026-01-10 00:31:10.76	53.67	14.24	-25.5	-26.9	16.4	3.67e-04	0	42	0	731906048	11	4203
2026-01-10 00:31:13.75	54.21	14.39	-25.5	-26.7	16.5	0.00e+00	0	42	0	748683264	11	4148
2026-01-10 00:31:16.76	54.77	14.53	-25.6	-27.1	16.3	0.00e+00	0	42	0	765460480	11	4244
2026-01-10 00:31:19.77	55.32	14.68	-25.1	-25.9	17.0	0.00e+00	0	42	0	782237696	11	3940
2026-01-10 00:31:22.78	55.89	14.82	-25.1	-26.3	17.0	0.00e+00	0	42	0	800063488	10	4166
2026-01-10 00:31:25.80	56.46	14.97	-24.9	-26.0	17.2	0.00e+00	0	42	0	816840704	10	4077
2026-01-10 00:31:28.81	57.03	15.11	-25.0	-26.3	17.1	0.00e+00	0	42	0	833617920	10	4149
2026-01-10 00:31:31.80	57.61	15.25	-25.0	-26.2	17.1	0.00e+00	0	42	0	850395136	10	4117
2026-01-10 00:31:34.82	58.19	15.38	-25.1	-26.3	17.1	0.00e+00	0	42	0	867172352	10	4170
2026-01-10 00:31:37.83	58.78	15.52	-24.9	-26.0	17.2	0.00e+00	0	42	0	883949568	10	4090
2026-01-10 00:31:40.84	59.38	15.65	-25.0	-26.1	17.2	0.00e+00	0	42	0	900726784	10	4107
2026-01-10 00:31:43.85	59.98	15.78	-25.2	-26.6	17.0	0.00e+00	0	42	0	918552576	10	4228
2026-01-10 00:31:46.85	60.58	15.91	-25.2	-26.5	17.0	0.00e+00	0	42	0	935329792	10	4205
2026-01-10 00:31:49.84	61.19	16.04	-24.6	-25.3	17.7	0.00e+00	0	42	0	952107008	10	3909
2026-01-10 00:31:52.84	61.80	16.16	-25.0	-26.2	17.2	0.00e+00	0	42	0	968884224	10	4142
2026-01-10 00:31:55.84	62.42	16.28	-25.8	-26.9	16.2	0.00e+00	0	42	0	985661440	12	4087
2026-01-10 00:31:58.85	63.05	16.40	-25.8	-27.4	16.4	0.00e+00	0	42	0	1002438656	11	4326
2026-01-10 00:32:01.86	63.68	16.52	-25.3	-26.3	16.9	0.00e+00	0	42	0	1019215872	11	4029
2026-01-10 00:32:04.86	64.31	16.63	-25.1	-25.9	17.1	0.00e+00	0	42	0	1035993088	11	3941
2026-01-10 00:32:07.86	64.95	16.74	-24.9	-26.0	17.3	0.00e+00	0	42	0	1052770304	10	4087
2026-01-10 00:32:10.87	65.59	16.85	-24.7	-25.6	17.6	0.00e+00	0	42	0	1069547520	10	3982
2026-01-10 00:32:13.88	66.24	16.95	-24.7	-26.1	17.5	0.00e+00	0	42	0	1087373312	9	4221
2026-01-10 00:32:16.89	66.89	17.05	-24.8	-26.2	17.4	0.00e+00	0	42	0	1104150528	9	4248
2026-01-10 00:32:19.90	67.55	17.15	-24.5	-25.2	17.8	0.00e+00	0	42	0	1120927744	10	3871
2026-01-10 00:32:22.91	68.21	17.25	-24.5	-25.6	17.8	0.00e+00	0	42	0	1137704960	9	4083
2026-01-10 00:32:25.91	68.87	17.34	-24.8	-26.3	17.4	0.00e+00	0	42	0	1154482176	9	4262
2026-01-10 00:32:28.91	69.54	17.43	-24.5	-25.7	17.8	0.00e+00	0	42	0	1171259392	9	4118
2026-01-10 00:32:31.91	70.21	17.51	-24.6	-25.8	17.8	0.00e+00	0	42	0	1188036608	9	4127
2026-01-10 00:32:34.93	70.89	17.59	-24.5	-25.1	17.8	0.00e+00	0	42	0	1205862400	10	3851
2026-01-10 00:32:37.94	71.57	17.67	-24.6	-25.3	17.8	0.00e+00	0	42	0	1222639616	10	3902
2026-01-10 00:32:40.95	72.25	17.74	-24.7	-25.6	17.6	0.00e+00	0	42	0	1239416832	10	3983
2026-01-10 00:32:43.96	72.94	17.82	-24.6	-25.2	17.8	0.00e+00	0	42	0	1256194048	10	3878
2026-01-10 00:32:46.96	73.63	17.88	-24.3	-25.2	17.9	0.00e+00	0	42	0	1272971264	9	4009
2026-01-10 00:32:49.95	74.32	17.94	-24.1	-24.8	18.1	0.00e+00	0	42	0	1289748480	9	3904
2026-01-10 00:32:52.97	75.01	18.00	-24.3	-25.2	17.9	0.00e+00	0	42	0	1306525696	9	4001
2026-01-10 00:32:55.98	75.71	18.06	-24.2	-25.1	17.9	0.00e+00	0	42	0	1324351488	9	3973
2026-01-10 00:32:58.98	76.41	18.11	-24.3	-25.2	17.9	0.00e+00	0	42	0	1341128704	9	4004
2026-01-10 00:33:01.99	77.11	18.16	-24.5	-25.6	17.7	0.00e+00	0	42	0	1357905920	9	4113
2026-01-10 00:33:05.01	77.82	18.20	-24.1	-24.8	18.1	0.00e+00	0	42	0	1374683136	9	3901
2026-01-10 00:33:08.02	78.53	18.24	-24.2	-25.0	18.0	0.00e+00	0	42	0	1391460352	9	3956
2026-01-10 00:33:11.03	79.24	18.27	-24.5	-25.6	17.7	0.00e+00	0	42	0	1408237568	9	4095
2026-01-10 00:33:14.03	79.95	18.30	-24.2	-25.1	18.0	0.00e+00	0	42	0	1425014784	9	3974
2026-01-10 00:33:17.04	80.66	18.33	-24.2	-25.0	18.0	0.00e+00	0	42	0	1441792000	9	3958
2026-01-10 00:33:20.03	81.37	18.35	-24.4	-25.4	17.9	0.00e+00	0	42	0	1459617792	9	4051
2026-01-10 00:33:23.04	82.08	18.37	-24.7	-25.6	17.4	0.00e+00	0	42	0	1476395008	10	3989
2026-01-10 00:33:26.03	82.79	18.38	-24.8	-25.7	17.4	0.00e+00	0	42	0	1493172224	10	4026
2026-01-10 00:33:29.03	83.50	18.39	-25.3	-26.9	16.8	0.00e+00	0	42	0	1509949440	10	4321
2026-01-10 00:33:32.03	84.22	18.40	-24.7	-25.5	17.5	0.00e+00	0	42	0	1526726656	10	3980
2026-01-10 00:33:35.02	84.93	18.40	-24.7	-25.6	17.4	0.00e+00	0	42	0	1543503872	10	4001
2026-01-10 00:33:38.03	85.64	18.39	-24.2	-25.0	18.0	0.00e+00	0	42	0	1560281088	9	3955
2026-01-10 00:33:41.04	86.36	18.39	-24.4	-25.5	17.7	0.00e+00	0	42	0	1577058304	9	4082
2026-01-10 00:33:44.04	87.07	18.37	-23.9	-24.4	18.2	0.00e+00	0	42	0	1593835520	9	3825
2026-01-10 00:33:47.06	87.79	18.36	-24.0	-24.6	18.1	0.00e+00	0	42	0	1610612736	9	3864
2026-01-10 00:33:50.07	88.50	18.34	-24.3	-25.3	17.8	0.00e+00	0	42	0	1628438528	9	4018
2026-01-10 00:33:53.07	89.21	18.31	-24.1	-24.8	18.0	0.00e+00	0	42	0	1645215744	9	3922
2026-01-10 00:33:56.07	89.92	18.28	-24.3	-25.2	17.8	0.00e+00	0	42	0	1661992960	9	4012
2026-01-10 00:33:59.07	90.63	18.25	-24.7	-26.0	17.4	0.00e+00	0	42	0	1678770176	9	4209
2026-01-10 00:34:02.08	91.34	18.21	-24.3	-25.4	17.8	0.00e+00	0	42	0	1695547392	9	4046
2026-01-10 00:34:05.08	92.04	18.17	-24.5	-25.8	17.6	0.00e+00	0	42	0	1712324608	9	4156
2026-01-10 00:34:08.08	92.74	18.12	-24.6	-26.0	17.4	0.00e+00	0	42	0	1729101824	9	4211
2026-01-10 00:34:11.09	93.45	18.07	-24.4	-25.5	17.7	0.00e+00	0	42	0	1745879040	9	4073
2026-01-10 00:34:14.09	94.15	18.02	-24.1	-24.9	18.0	0.00e+00	0	42	0	1763704832	9	3927
2026-01-10 00:34:17.09	94.84	17.96	-24.3	-25.2	17.8	0.00e+00	0	42	0	1780482048	9	4019
2026-01-10 00:34:20.09	95.53	17.90	-24.8	-26.5	17.2	0.00e+00	0	42	0	1797259264	9	4333
2026-01-10 00:34:23.10	96.23	17.83	-24.7	-26.2	17.3	0.00e+00	0	42	0	1814036480	9	4259
2026-01-10 00:34:26.11	96.92	17.76	-24.7	-25.6	17.4	0.00e+00	0	42	0	1830813696	10	3993
2026-01-10 00:34:29.10	97.60	17.69	-24.5	-25.3	17.5	0.00e+00	0	42	0	1847590912	10	3918
2026-01-10 00:34:32.11	98.28	17.61	-25.0	-26.3	17.0	0.00e+00	0	42	0	1864368128	10	4184
2026-01-10 00:34:35.11	98.96	17.53	-25.0	-26.1	17.1	0.00e+00	0	42	0	1881145344	10	4131
2026-01-10 00:34:38.12	99.63	17.45	-25.2	-26.8	16.8	0.00e+00	0	42	0	1897922560	10	4300
2026-01-10 00:34:41.12	100.30	17.36	-24.5	-25.3	17.5	0.00e+00	0	42	0	1914699776	10	3916
2026-01-10 00:34:44.12	100.97	17.27	-24.5	-25.2	17.6	0.00e+00	0	42	0	1931476992	10	3903
2026-01-10 00:34:47.13	101.63	17.17	-24.5	-25.2	17.6	0.00e+00	0	42	0	1949302784	10	3891
2026-01-10 00:34:50.14	102.29	17.07	-24.3	-25.3	17.7	0.00e+00	0	42	0	1966080000	9	4030
2026-01-10 00:34:53.15	102.95	16.97	-24.5	-25.7	17.5	0.00e+00	0	42	0	1982857216	9	4145
2026-01-10 00:34:56.16	103.60	16.87	-25.0	-26.2	17.0	0.00e+00	0	42	0	1999634432	10	4150
2026-01-10 00:34:59.15	104.25	16.76	-25.0	-25.7	17.0	0.00e+00	0	42	0	2016411648	11	3932
2026-01-10 00:35:02.16	104.89	16.65	-25.2	-26.2	16.8	0.00e+00	0	42	0	2033188864	11	4050
2026-01-10 00:35:05.16	105.52	16.54	-25.3	-27.0	16.6	0.00e+00	0	42	0	2049966080	10	4374
2026-01-10 00:35:08.17	106.16	16.42	-25.5	-26.8	16.4	0.00e+00	0	42	0	2066743296	11	4205
2026-01-10 00:35:11.18	106.79	16.30	-25.3	-26.9	16.6	0.00e+00	0	42	0	2084569088	10	4353
2026-01-10 00:35:14.19	107.41	16.18	-25.0	-25.8	17.0	0.00e+00	0	42	0	2101346304	11	3943
2026-01-10 00:35:17.20	108.03	16.06	-24.9	-25.6	17.1	0.00e+00	0	42	0	2118123520	11	3900
2026-01-10 00:35:20.21	108.64	15.93	-25.0	-26.2	17.0	0.00e+00	0	42	0	2134900736	10	4152
2026-01-10 00:35:23.22	109.25	15.80	-25.1	-25.9	16.8	0.00e+00	0	42	0	2151677952	11	3975
2026-01-10 00:35:26.23	109.86	15.67	-24.7	-25.7	17.2	0.00e+00	0	42	0	2169503744	10	4027
2026-01-10 00:35:29.25	110.46	15.54	-24.9	-26.1	17.0	0.00e+00	0	42	0	2186280960	10	4127
2026-01-10 00:35:32.26	111.05	15.40	-25.4	-27.1	16.5	0.00e+00	0	42	0	2203058176	10	4391
2026-01-10 00:35:35.26	111.64	15.26	-25.2	-26.8	16.7	0.00e+00	0	42	0	2219835392	10	4301
2026-01-10 00:35:38.26	112.22	15.12	-25.1	-26.6	16.7	0.00e+00	0	42	0	2236612608	10	4251
2026-01-10 00:35:41.26	112.79	14.98	-25.1	-26.5	16.7	0.00e+00	0	42	0	2253389824	10	4238
2026-01-10 00:35:44.25	113.36	14.84	-25.1	-26.6	16.7	0.00e+00	0	42	0	2270167040	10	4251
2026-01-10 00:35:47.24	113.93	14.70	-25.1	-26.5	16.7	0.00e+00	0	42	0	2286944256	10	4231
2026-01-10 00:35:50.25	114.49	14.55	-25.5	-26.8	16.4	0.00e+00	0	42	0	2303721472	11	4191
2026-01-10 00:35:53.26	115.04	14.40	-26.0	-27.0	15.6	0.00e+00	0	42	0	2320498688	13	4034
2026-01-10 00:35:56.27	115.60	14.25	-25.6	-26.5	16.2	0.00e+00	0	42	0	2338324480	12	4014
2026-01-10 00:35:59.27	116.14	14.10	-25.5	-26.5	16.1	0.00e+00	0	42	0	2355101696	12	4005
2026-01-10 00:36:02.28	116.68	13.95	-25.9	-27.4	15.7	0.00e+00	0	42	0	2371878912	12	4241
2026-01-10 00:36:05.29	117.21	13.79	-26.2	-28.1	15.3	0.00e+00	0	42	0	2388656128	12	4437
2026-01-10 00:36:08.29	117.74	13.64	-25.7	-26.8	15.9	0.00e+00	0	42	0	2405433344	12	4098
2026-01-10 00:36:11.30	118.27	13.48	-25.5	-26.4	16.2	0.00e+00	0	42	0	2422210560	12	3977
2026-01-10 00:36:14.31	118.78	13.32	-25.7	-26.9	15.8	0.00e+00	0	42	0	2438987776	12	4119
2026-01-10 00:36:17.32	119.30	13.16	-25.6	-26.5	16.0	0.00e+00	0	42	0	2455764992	12	4033
2026-01-10 00:36:20.31	119.80	13.00	-26.3	-27.7	15.1	0.00e+00	0	42	0	2473590784	13	4225
2026-01-10 00:36:23.31	120.30	12.84	-26.3	-27.7	15.0	0.00e+00	0	42	0	2490368000	13	4215
2026-01-10 00:36:26.31	120.80	12.68	-25.9	-27.2	15.6	0.00e+00	0	42	0	2507145216	12	4191
2026-01-10 00:36:29.32	121.29	12.52	-26.2	-28.0	15.1	0.00e+00	0	42	0	2523922432	12	4421
2026-01-10 00:36:32.32	121.78	12.35	-26.1	-27.7	15.2	0.00e+00	0	42	0	2540699648	12	4342
2026-01-10 00:36:35.32	122.26	12.19	-26.2	-27.4	15.2	0.00e+00	0	42	0	2557476864	13	4150
2026-01-10 00:36:38.32	122.73	12.03	-26.0	-27.1	15.4	0.00e+00	0	42	0	2574254080	13	4065
2026-01-10 00:36:41.33	123.20	11.86	-26.1	-27.3	15.2	0.00e+00	0	42	0	2591031296	13	4122
2026-01-10 00:36:44.34	123.67	11.69	-26.0	-27.0	15.4	6.98e-05	0	42	0	2608857088	13	4032
2026-01-10 00:36:47.35	124.13	11.53	-26.0	-26.9	15.5	0.00e+00	0	42	0	2625634304	13	4016
2026-01-10 00:36:50.36	124.58	11.36	-26.2	-27.4	15.3	0.00e+00	0	42	0	2642411520	13	4139
2026-01-10 00:36:53.36	125.03	11.19	-26.0	-27.0	15.5	6.98e-05	0	42	0	2659188736	13	4042
2026-01-10 00:36:56.36	125.48	11.03	-26.8	-28.9	14.4	3.40e-06	0	42	0	2675965952	13	4559
2026-01-10 00:36:59.38	125.92	10.86	-26.3	-27.8	15.0	0.00e+00	0	42	0	2692743168	13	4247
2026-01-10 00:37:02.38	126.36	10.69	-26.3	-27.6	15.0	3.36e-04	0	42	0	2709520384	13	4202
2026-01-10 00:37:05.38	126.79	10.52	-26.5	-28.0	14.8	3.11e-04	0	42	0	2726297600	13	4316
2026-01-10 00:37:08.38	127.21	10.35	-26.9	-28.5	14.2	1.80e-04	0	42	0	2744123392	14	4334
2026-01-10 00:37:11.39	127.63	10.18	-26.5	-27.7	14.6	2.01e-04	0	42	0	2760900608	14	4129
2026-01-10 00:37:14.39	128.05	10.01	-26.5	-27.7	14.6	2.52e-04	0	42	0	2777677824	14	4140
2026-01-10 00:37:17.41	128.46	9.84	-26.5	-27.7	14.6	5.60e-05	0	42	0	2794455040	14	4132
2026-01-10 00:37:20.40	128.87	9.67	-26.7	-28.1	14.4	8.01e-05	0	42	0	2811232256	14	4224
2026-01-10 00:37:23.39	129.27	9.50	-26.6	-27.8	14.6	4.23e-05	0	42	0	2828009472	14	4159
2026-01-10 00:37:26.39	129.67	9.33	-26.6	-28.0	14.5	3.40e-06	0	42	0	2844786688	14	4191
2026-01-10 00:37:29.38	130.06	9.17	-27.1	-29.0	13.8	2.20e-06	0	42	0	2861563904	14	4496
2026-01-10 00:37:32.40	130.45	8.99	-26.9	-28.6	14.0	5.70e-06	0	42	0	2878341120	14	4388
2026-01-10 00:37:35.39	130.83	8.83	-27.0	-28.8	13.9	2.40e-05	0	42	0	2895118336	14	4431
2026-01-10 00:37:38.39	131.21	8.66	-27.0	-28.8	13.9	5.60e-05	0	42	0	2911895552	14	4425
2026-01-10 00:37:41.39	131.59	8.49	-26.9	-28.6	13.9	4.50e-06	0	42	0	2929721344	14	4379
2026-01-10 00:37:44.38	131.96	8.32	-27.0	-28.9	13.8	2.14e-04	0	42	0	2946498560	14	4466
2026-01-10 00:37:47.40	132.33	8.15	-27.2	-29.3	13.4	1.15e-04	0	42	0	2963275776	14	4606
2026-01-10 00:37:50.41	132.69	7.98	-27.3	-29.6	13.3	1.02e-05	0	42	0	2980052992	14	4688
2026-01-10 00:37:53.41	133.05	7.81	-27.2	-29.3	13.5	4.50e-06	0	42	0	2996830208	14	4587
2026-01-10 00:37:56.40	133.41	7.64	-26.7	-28.3	14.0	1.51e-04	0	42	0	3013607424	14	4283
2026-01-10 00:37:59.41	133.76	7.47	-26.8	-28.5	13.9	2.76e-04	0	42	0	3030384640	14	4369
2026-01-10 00:38:02.42	134.11	7.30	-27.0	-28.9	13.6	4.50e-06	0	42	0	3047161856	14	4483
2026-01-10 00:38:05.43	134.45	7.13	-27.2	-29.4	13.3	5.37e-04	0	42	0	3063939072	14	4639
2026-01-10 00:38:08.43	134.79	6.97	-33.3	-44.7	3.8	8.46e-01	0	42	104	3069181952	26	13350

#Closed at: 2026-01-10 00:38:08
#Recorded file [3069 MB]: D:/data/31010_260110_032900.dat