passes_logs/2026/01/10/R2M6_AANII_01/R2M6_AANII_01__20260110_094205_NOAA_20_JPSS-1_rec.log

#Pass ID: 20260110_094205_NOAA 20 (JPSS-1)
#Satellite: NOAA 20 (JPSS-1)
#Configuration: NOAA 20
#almurnet v.1.7.20240730
#Start time: 2026-01-10 09:42:05

#Version: 2.2.20231116
#Station: R2M6_AANII_01
#Location: 30.233357 lon 59.946436 lat
#TLE: 1 43013U 17073A   26009.26828276  .00000112  00000+0  74203-4 0  9990
#TLE: 2 43013  98.7631 310.2683 0001700  47.4387 312.6933 14.19534764421920

#Time	Az	El	Level	Level2	SNR	BER	BlckErr	Temp	State	Recorded	gain1	gain2
2026-01-10 09:42:05.98	141.04	7.06	-29.9	-34.1	5.5	1.20e+00	0	39	0	0	21	5798
2026-01-10 09:42:09.00	140.95	7.29	-29.9	-34.4	10.4	3.31e-03	0	40	0	1048576	20	6050
2026-01-10 09:42:12.00	140.86	7.53	-29.7	-33.7	11.0	1.87e-03	0	40	0	7340032	20	5723
2026-01-10 09:42:15.00	140.77	7.76	-29.4	-32.8	11.7	6.16e-04	0	40	0	12582912	20	5311
2026-01-10 09:42:18.00	140.68	8.00	-29.4	-32.7	11.9	3.92e-04	0	40	0	17825792	20	5232
2026-01-10 09:42:21.00	140.58	8.24	-29.6	-33.1	11.7	5.43e-04	0	40	0	24117248	20	5386
2026-01-10 09:42:24.01	140.49	8.48	-29.7	-33.6	11.3	8.57e-04	0	40	0	29360128	20	5628
2026-01-10 09:42:27.02	140.39	8.72	-29.6	-32.9	11.9	4.82e-04	0	40	0	35651584	20	5277
2026-01-10 09:42:30.03	140.29	8.97	-29.5	-32.6	12.2	2.14e-04	0	40	0	40894464	20	5137
2026-01-10 09:42:33.03	140.19	9.22	-29.4	-32.8	12.5	9.91e-05	0	40	0	46137344	19	5296
2026-01-10 09:42:36.03	140.09	9.47	-29.5	-32.9	12.5	1.18e-04	0	40	0	52428800	19	5344
2026-01-10 09:42:39.03	139.98	9.72	-29.4	-32.7	12.7	1.07e-04	0	40	0	57671680	19	5264
2026-01-10 09:42:42.04	139.87	9.98	-29.5	-32.9	12.6	1.05e-04	0	40	0	62914560	19	5329
2026-01-10 09:42:45.04	139.76	10.23	-29.5	-32.9	12.6	9.91e-05	0	41	0	69206016	19	5350
2026-01-10 09:42:48.06	139.65	10.50	-29.4	-32.7	12.7	8.39e-05	0	40	0	74448896	19	5249
2026-01-10 09:42:51.06	139.54	10.76	-29.4	-32.5	13.0	4.42e-05	0	41	0	80740352	19	5164
2026-01-10 09:42:54.06	139.42	11.02	-29.4	-32.4	13.1	2.67e-05	0	41	0	85983232	19	5117
2026-01-10 09:42:57.07	139.31	11.29	-29.3	-32.2	13.2	2.21e-05	0	41	0	91226112	19	5013
2026-01-10 09:43:00.07	139.19	11.57	-29.3	-32.1	13.3	1.83e-05	0	41	0	97517568	19	4998
2026-01-10 09:43:03.07	139.06	11.84	-29.2	-32.0	13.4	1.37e-05	0	41	0	102760448	19	4959
2026-01-10 09:43:06.06	138.94	12.12	-29.3	-32.1	13.3	1.90e-05	0	41	0	108003328	19	4984
2026-01-10 09:43:09.07	138.81	12.40	-29.4	-32.5	13.1	1.90e-05	0	41	0	114294784	19	5117
2026-01-10 09:43:12.08	138.68	12.68	-29.4	-32.5	13.1	3.20e-05	0	41	0	119537664	19	5128
2026-01-10 09:43:15.07	138.55	12.97	-29.5	-32.6	13.1	3.73e-05	0	41	0	124780544	19	5164
2026-01-10 09:43:18.07	138.41	13.26	-29.5	-32.6	13.1	2.97e-05	0	41	0	131072000	19	5173
2026-01-10 09:43:21.07	138.28	13.55	-29.4	-32.5	13.2	2.74e-05	0	41	0	136314880	19	5099
2026-01-10 09:43:24.08	138.13	13.85	-29.4	-32.3	13.4	1.44e-05	0	41	0	142606336	19	5035
2026-01-10 09:43:27.07	137.99	14.15	-29.3	-32.1	13.5	1.06e-05	0	41	0	147849216	19	4952
2026-01-10 09:43:30.06	137.84	14.45	-29.2	-31.7	13.7	5.30e-06	0	41	0	153092096	19	4852
2026-01-10 09:43:33.07	137.69	14.76	-29.3	-32.1	13.5	9.90e-06	0	41	0	159383552	19	4992
2026-01-10 09:43:36.08	137.54	15.07	-29.2	-31.9	13.7	4.50e-06	0	41	0	164626432	19	4891
2026-01-10 09:43:39.09	137.38	15.39	-29.3	-31.9	13.7	6.80e-06	0	41	0	169869312	19	4892
2026-01-10 09:43:42.10	137.22	15.71	-29.5	-32.5	13.4	1.60e-05	0	41	0	176160768	19	5092
2026-01-10 09:43:45.10	137.05	16.03	-29.1	-31.5	14.1	3.00e-06	0	41	0	181403648	19	4741
2026-01-10 09:43:48.10	136.89	16.36	-29.3	-32.0	13.8	4.50e-06	0	41	0	187695104	19	4908
2026-01-10 09:43:51.11	136.71	16.69	-29.4	-32.1	13.7	3.00e-06	0	41	0	192937984	19	4958
2026-01-10 09:43:54.12	136.54	17.02	-29.4	-32.1	13.8	5.30e-06	0	41	0	198180864	19	4939
2026-01-10 09:43:57.12	136.36	17.36	-29.3	-32.0	13.9	1.50e-06	0	41	0	204472320	19	4869
2026-01-10 09:44:00.13	136.17	17.71	-29.4	-32.2	13.8	3.80e-06	0	41	0	209715200	19	4958
2026-01-10 09:44:03.13	135.98	18.06	-29.2	-31.5	14.3	2.20e-06	0	41	0	214958080	19	4719
2026-01-10 09:44:06.13	135.79	18.41	-29.2	-31.5	14.3	0.00e+00	0	41	0	221249536	19	4720
2026-01-10 09:44:09.13	135.59	18.77	-29.2	-31.5	14.4	4.50e-06	0	41	0	226492416	19	4696
2026-01-10 09:44:12.15	135.38	19.14	-29.2	-31.5	14.4	7.00e-07	0	42	0	232783872	19	4687
2026-01-10 09:44:15.15	135.17	19.50	-29.2	-31.4	14.5	1.50e-06	0	41	0	238026752	19	4657
2026-01-10 09:44:18.16	134.96	19.88	-29.3	-31.8	14.3	7.00e-07	0	41	0	243269632	19	4789
2026-01-10 09:44:21.16	134.74	20.26	-29.3	-31.6	14.4	3.80e-06	0	42	0	249561088	19	4735
2026-01-10 09:44:24.16	134.51	20.64	-29.3	-31.7	14.4	5.30e-06	0	42	0	254803968	19	4738
2026-01-10 09:44:27.17	134.28	21.03	-29.2	-31.4	14.6	3.00e-06	0	42	0	260046848	19	4639
2026-01-10 09:44:30.17	134.04	21.42	-29.3	-31.7	14.5	7.00e-07	0	42	0	266338304	19	4734
2026-01-10 09:44:33.18	133.80	21.83	-29.3	-31.6	14.5	0.00e+00	0	42	0	271581184	19	4709
2026-01-10 09:44:36.18	133.55	22.23	-29.3	-31.8	14.4	0.00e+00	0	42	0	277872640	19	4774
2026-01-10 09:44:39.19	133.29	22.65	-29.3	-31.8	14.5	2.20e-06	0	41	0	283115520	19	4768
2026-01-10 09:44:42.20	133.03	23.07	-29.6	-32.3	14.1	3.80e-06	0	42	0	288358400	19	4958
2026-01-10 09:44:45.20	132.75	23.49	-29.7	-32.7	13.9	3.00e-06	0	42	0	294649856	19	5074
2026-01-10 09:44:48.20	132.47	23.92	-29.7	-32.8	13.8	7.00e-07	0	42	0	299892736	19	5145
2026-01-10 09:44:51.20	132.19	24.36	-29.9	-33.2	13.6	1.29e-05	0	41	0	305135616	19	5291
2026-01-10 09:44:54.21	131.89	24.80	-30.0	-33.4	13.5	9.10e-06	0	42	0	311427072	19	5360
2026-01-10 09:44:57.21	131.58	25.25	-30.2	-33.7	13.0	4.11e-05	0	42	0	316669952	20	5349
2026-01-10 09:45:00.21	131.27	25.71	-30.3	-34.0	12.7	8.54e-05	0	41	0	322961408	20	5498
2026-01-10 09:45:03.21	130.94	26.18	-30.5	-33.8	12.5	1.23e-04	0	41	0	328204288	21	5307
2026-01-10 09:45:06.20	130.61	26.65	-30.6	-34.3	12.2	1.87e-04	0	42	0	333447168	21	5481
2026-01-10 09:45:09.21	130.27	27.13	-30.7	-34.3	12.2	1.91e-04	0	42	0	339738624	21	5492
2026-01-10 09:45:12.21	129.91	27.61	-30.7	-34.4	12.2	2.46e-04	0	42	0	344981504	21	5527
2026-01-10 09:45:15.22	129.55	28.11	-31.0	-35.3	11.6	6.40e-04	0	42	0	350224384	21	5917
2026-01-10 09:45:18.22	129.17	28.61	-31.0	-35.0	11.5	9.13e-04	0	42	0	356515840	22	5647
2026-01-10 09:45:21.22	128.78	29.12	-31.0	-34.9	11.6	7.96e-04	0	42	0	361758720	22	5601
2026-01-10 09:45:24.24	128.37	29.64	-31.0	-34.9	11.6	6.63e-04	0	42	0	368050176	22	5632
2026-01-10 09:45:27.24	127.95	30.16	-30.8	-34.2	12.1	3.56e-04	0	42	0	373293056	22	5319
2026-01-10 09:45:30.24	127.52	30.69	-30.7	-33.9	12.3	1.50e-04	0	42	0	378535936	22	5219
2026-01-10 09:45:33.26	127.08	31.24	-30.8	-34.1	12.2	2.87e-04	0	42	0	384827392	22	5297
2026-01-10 09:45:36.26	126.61	31.79	-30.8	-34.2	12.2	1.62e-04	0	42	0	390070272	22	5297
2026-01-10 09:45:39.27	126.14	32.34	-31.0	-34.6	11.9	6.13e-04	0	42	0	395313152	22	5479
2026-01-10 09:45:42.28	125.64	32.91	-30.9	-34.4	12.0	3.51e-04	0	42	0	401604608	22	5396
2026-01-10 09:45:45.28	125.13	33.48	-31.3	-35.6	11.2	1.48e-03	0	42	0	406847488	22	5921
2026-01-10 09:45:48.30	124.59	34.07	-30.9	-34.6	11.9	3.25e-04	0	42	0	413138944	22	5458
2026-01-10 09:45:51.29	124.04	34.65	-31.2	-35.4	11.4	8.88e-04	0	42	0	418381824	22	5835
2026-01-10 09:45:54.30	123.47	35.25	-31.0	-34.7	11.9	3.80e-04	0	42	0	423624704	22	5503
2026-01-10 09:45:57.30	122.88	35.86	-31.2	-35.4	11.4	9.24e-04	0	42	0	429916160	22	5815
2026-01-10 09:46:00.30	122.26	36.47	-31.5	-35.6	10.9	2.22e-03	0	42	0	435159040	23	5824
2026-01-10 09:46:03.31	121.62	37.09	-31.4	-35.5	11.0	2.45e-03	0	42	0	440401920	23	5760
2026-01-10 09:46:06.31	120.95	37.72	-31.4	-35.5	11.0	1.65e-03	0	42	0	446693376	23	5733
2026-01-10 09:46:09.31	120.26	38.36	-31.2	-34.9	11.5	8.46e-04	0	42	0	451936256	23	5473
2026-01-10 09:46:12.32	119.54	39.00	-31.5	-35.8	10.7	2.34e-03	0	42	0	457179136	23	5912
2026-01-10 09:46:15.30	118.80	39.65	-31.5	-35.9	10.8	3.18e-03	0	42	0	463470592	23	5916
2026-01-10 09:46:18.31	118.01	40.30	-31.5	-35.8	10.9	2.10e-03	0	42	0	468713472	23	5874
2026-01-10 09:46:21.32	117.20	40.97	-31.6	-36.2	10.5	4.27e-03	0	42	0	475004928	23	6090
2026-01-10 09:46:24.32	116.35	41.63	-31.2	-34.9	11.4	1.01e-03	0	42	0	480247808	23	5465
2026-01-10 09:46:27.31	115.47	42.30	-30.9	-33.9	12.2	2.26e-04	0	42	0	485490688	23	5070
2026-01-10 09:46:30.32	114.55	42.98	-30.8	-33.6	12.4	1.30e-04	0	42	0	491782144	23	4959
2026-01-10 09:46:33.33	113.58	43.66	-30.6	-33.4	12.9	7.24e-05	0	42	0	497025024	22	4995
2026-01-10 09:46:36.34	112.58	44.34	-31.0	-34.6	12.0	2.75e-04	0	42	0	502267904	22	5452
2026-01-10 09:46:39.35	111.52	45.03	-31.0	-34.5	12.2	1.41e-04	0	42	0	508559360	22	5417
2026-01-10 09:46:42.36	110.43	45.72	-31.2	-35.3	11.6	9.63e-04	0	42	0	513802240	22	5769
2026-01-10 09:46:45.36	109.28	46.40	-31.0	-34.6	12.1	1.92e-04	0	42	0	520093696	22	5438
2026-01-10 09:46:48.37	108.09	47.08	-31.0	-34.6	12.1	2.20e-04	0	42	0	525336576	22	5455
2026-01-10 09:46:51.37	106.84	47.76	-31.6	-35.8	10.9	1.65e-03	0	42	0	530579456	23	5887
2026-01-10 09:46:54.37	105.54	48.43	-31.4	-35.3	11.3	1.49e-03	0	42	0	536870912	23	5638
2026-01-10 09:46:57.38	104.17	49.10	-31.1	-34.2	12.0	4.08e-04	0	42	0	542113792	23	5198
2026-01-10 09:47:00.39	102.74	49.76	-30.6	-33.4	13.0	5.41e-05	0	42	0	547356672	22	4955
2026-01-10 09:47:03.40	101.25	50.41	-30.2	-32.8	13.7	1.06e-05	0	42	0	553648128	21	4859
2026-01-10 09:47:06.41	99.70	51.04	-29.5	-31.5	14.8	0.00e+00	0	42	0	558891008	20	4534
2026-01-10 09:47:09.41	98.09	51.66	-28.9	-30.4	15.8	0.00e+00	0	42	0	565182464	19	4292
2026-01-10 09:47:12.42	96.40	52.27	-29.1	-31.0	15.5	0.00e+00	0	42	0	570425344	19	4467
2026-01-10 09:47:15.43	94.64	52.85	-29.0	-30.7	15.7	0.00e+00	0	42	0	575668224	19	4385
2026-01-10 09:47:18.43	92.81	53.41	-29.2	-31.1	15.5	0.00e+00	0	42	0	581959680	19	4483
2026-01-10 09:47:21.44	90.92	53.95	-29.3	-31.4	15.2	0.00e+00	0	42	0	587202560	19	4586
2026-01-10 09:47:24.44	88.95	54.46	-29.5	-31.9	14.9	0.00e+00	0	42	0	592445440	19	4747
2026-01-10 09:47:27.45	86.91	54.94	-30.1	-33.1	13.8	2.20e-06	0	42	0	598736896	20	5055
2026-01-10 09:47:30.46	84.81	55.39	-30.0	-32.7	14.1	3.80e-06	0	42	0	603979776	20	4913
2026-01-10 09:47:33.47	82.64	55.80	-29.6	-31.6	14.8	0.00e+00	0	42	0	610271232	20	4560
2026-01-10 09:47:36.49	80.40	56.17	-30.0	-32.7	14.1	7.00e-07	0	42	0	615514112	20	4935
2026-01-10 09:47:39.50	78.10	56.50	-29.6	-31.7	14.8	7.00e-07	0	42	0	620756992	20	4580
2026-01-10 09:47:42.50	75.77	56.78	-29.8	-32.1	14.4	0.00e+00	0	42	0	627048448	20	4730
2026-01-10 09:47:45.51	73.38	57.02	-29.4	-31.2	15.0	1.50e-06	0	42	0	632291328	20	4434
2026-01-10 09:47:48.51	70.97	57.22	-29.3	-31.5	15.3	0.00e+00	0	42	0	637534208	19	4615
2026-01-10 09:47:51.52	68.51	57.36	-29.2	-31.2	15.4	0.00e+00	0	42	0	643825664	19	4529
2026-01-10 09:47:54.53	66.04	57.45	-28.9	-30.4	15.9	0.00e+00	0	42	0	649068544	19	4278
2026-01-10 09:47:57.54	63.55	57.49	-29.1	-30.8	15.6	0.00e+00	0	42	0	655360000	19	4413
2026-01-10 09:48:00.54	61.07	57.48	-28.9	-30.4	15.9	0.00e+00	0	42	0	660602880	19	4279
2026-01-10 09:48:03.55	58.58	57.42	-29.0	-30.8	15.7	0.00e+00	0	42	0	665845760	19	4390
2026-01-10 09:48:06.56	56.11	57.31	-28.6	-30.2	16.3	0.00e+00	0	42	0	672137216	18	4325
2026-01-10 09:48:09.57	53.67	57.15	-27.8	-28.9	17.3	0.00e+00	0	42	0	677380096	17	4082
2026-01-10 09:48:12.57	51.27	56.94	-27.9	-29.5	17.2	0.00e+00	0	42	0	682622976	16	4346
2026-01-10 09:48:15.57	48.91	56.68	-27.7	-29.2	17.4	0.00e+00	0	42	0	688914432	16	4257
2026-01-10 09:48:18.58	46.58	56.38	-28.1	-30.1	16.9	0.00e+00	0	42	0	694157312	16	4507
2026-01-10 09:48:21.58	44.33	56.04	-28.7	-31.0	16.0	0.00e+00	0	42	0	700448768	17	4690
2026-01-10 09:48:24.58	42.12	55.66	-29.0	-31.2	15.7	0.00e+00	0	42	0	705691648	18	4643
2026-01-10 09:48:27.59	39.98	55.23	-28.9	-30.9	15.9	0.00e+00	0	42	0	710934528	18	4517
2026-01-10 09:48:30.60	37.90	54.78	-28.9	-30.8	15.9	0.00e+00	0	42	0	717225984	18	4508
2026-01-10 09:48:33.60	35.89	54.29	-28.6	-30.3	16.3	0.00e+00	0	42	0	722468864	18	4350
2026-01-10 09:48:36.61	33.95	53.77	-28.8	-31.2	16.0	0.00e+00	0	42	0	727711744	17	4743
2026-01-10 09:48:39.61	32.09	53.23	-28.3	-30.0	16.7	0.00e+00	0	42	0	734003200	17	4370
2026-01-10 09:48:42.61	30.29	52.66	-29.2	-31.6	15.5	0.00e+00	0	42	0	739246080	18	4753
2026-01-10 09:48:45.62	28.56	52.07	-29.7	-32.5	14.6	2.20e-06	0	42	0	745537536	19	4953
2026-01-10 09:48:48.61	26.91	51.46	-30.4	-33.8	13.5	3.80e-06	0	42	0	750780416	20	5308
2026-01-10 09:48:51.62	25.32	50.84	-30.6	-33.2	13.2	3.20e-05	0	42	0	756023296	22	4895
2026-01-10 09:48:54.63	23.79	50.20	-30.8	-34.0	12.7	2.36e-05	0	42	0	762314752	22	5165
2026-01-10 09:48:57.64	22.33	49.55	-31.6	-35.9	11.0	1.64e-03	0	42	0	767557632	23	5884
2026-01-10 09:49:00.64	20.93	48.89	-31.2	-34.7	11.8	5.81e-04	0	42	0	772800512	23	5374
2026-01-10 09:49:03.65	19.59	48.22	-31.4	-35.1	11.4	8.51e-04	0	42	0	779091968	23	5538
2026-01-10 09:49:06.66	18.30	47.55	-31.3	-34.9	11.5	9.28e-04	0	42	0	784334848	23	5461
2026-01-10 09:49:09.66	17.08	46.87	-31.7	-36.1	10.7	2.55e-03	0	42	0	790626304	23	6004
2026-01-10 09:49:12.66	15.91	46.19	-31.2	-34.5	11.9	5.77e-04	0	42	0	795869184	23	5288
2026-01-10 09:49:15.67	14.78	45.51	-30.9	-33.8	12.3	1.69e-04	0	42	0	801112064	23	5039
2026-01-10 09:49:18.69	13.70	44.82	-30.9	-33.7	12.3	1.40e-04	0	42	0	807403520	23	4995
2026-01-10 09:49:21.70	12.66	44.14	-31.1	-34.2	12.0	2.92e-04	0	42	0	812646400	23	5194
2026-01-10 09:49:24.70	11.68	43.46	-30.9	-33.8	12.3	1.71e-04	0	42	0	817889280	23	5021
2026-01-10 09:49:27.71	10.73	42.79	-30.8	-34.0	12.5	1.14e-04	0	42	0	824180736	22	5198
2026-01-10 09:49:30.73	9.82	42.11	-30.9	-34.4	12.2	2.19e-04	0	42	0	829423616	22	5355
2026-01-10 09:49:33.73	8.95	41.44	-31.1	-34.8	11.9	2.92e-04	0	42	0	835715072	22	5541
2026-01-10 09:49:36.73	8.12	40.78	-31.0	-34.7	12.0	3.49e-04	0	42	0	840957952	22	5494
2026-01-10 09:49:39.73	7.32	40.12	-31.5	-35.6	11.0	1.74e-03	0	42	0	846200832	23	5772
2026-01-10 09:49:42.74	6.55	39.47	-31.7	-36.3	10.5	3.73e-03	0	42	0	852492288	23	6144
2026-01-10 09:49:45.75	5.81	38.83	-31.8	-36.7	10.2	4.57e-03	0	42	0	857735168	23	6314
2026-01-10 09:49:48.74	5.11	38.19	-31.4	-35.5	11.0	1.98e-03	0	42	0	862978048	23	5750
2026-01-10 09:49:51.74	4.43	37.56	-30.9	-33.8	12.2	3.11e-04	0	42	0	869269504	23	5035
2026-01-10 09:49:54.75	3.77	36.94	-31.1	-35.0	11.7	4.54e-04	0	42	0	874512384	22	5635
2026-01-10 09:49:57.75	3.14	36.32	-31.2	-35.3	11.5	9.09e-04	0	42	0	880803840	22	5754
2026-01-10 09:50:00.74	2.54	35.71	-31.2	-35.3	11.5	1.26e-03	0	42	0	886046720	22	5754
2026-01-10 09:50:03.75	1.95	35.11	-31.1	-35.0	11.6	5.96e-04	0	42	0	891289600	22	5648
2026-01-10 09:50:06.75	1.39	34.52	-30.9	-34.4	12.1	3.24e-04	0	42	0	897581056	22	5385
2026-01-10 09:50:09.76	0.85	33.94	-31.2	-35.3	11.5	7.62e-04	0	42	0	902823936	22	5770
2026-01-10 09:50:12.77	0.32	33.36	-31.6	-36.1	10.6	2.84e-03	0	42	0	908066816	23	6023
2026-01-10 09:50:15.77	359.82	32.79	-31.5	-35.9	10.7	3.17e-03	0	42	0	914358272	23	5949
2026-01-10 09:50:18.78	359.33	32.23	-31.0	-34.3	11.8	6.73e-04	0	42	0	919601152	23	5248
2026-01-10 09:50:21.79	358.86	31.68	-31.0	-34.2	11.9	4.55e-04	0	42	0	925892608	23	5186
2026-01-10 09:50:24.79	358.41	31.13	-31.4	-35.4	11.1	1.13e-03	0	42	0	931135488	23	5730
2026-01-10 09:50:27.79	357.97	30.60	-31.2	-34.8	11.5	7.99e-04	0	42	0	936378368	23	5433
2026-01-10 09:50:30.79	357.55	30.07	-31.5	-35.7	10.8	2.24e-03	0	42	0	942669824	23	5865
2026-01-10 09:50:33.79	357.14	29.55	-31.5	-35.6	10.9	2.20e-03	0	42	0	947912704	23	5802
2026-01-10 09:50:36.80	356.74	29.04	-31.2	-34.9	11.4	1.29e-03	0	42	0	953155584	23	5470
2026-01-10 09:50:39.79	356.36	28.54	-31.2	-34.6	11.7	6.00e-04	0	42	0	959447040	23	5361
2026-01-10 09:50:42.79	355.98	28.04	-30.9	-33.9	12.2	2.92e-04	0	42	0	964689920	23	5089
2026-01-10 09:50:45.80	355.62	27.55	-30.8	-33.9	12.5	1.19e-04	0	42	0	970981376	22	5170
2026-01-10 09:50:48.80	355.27	27.07	-30.7	-33.6	12.7	7.78e-05	0	42	0	976224256	22	5078
2026-01-10 09:50:51.80	354.93	26.59	-30.8	-34.2	12.3	1.59e-04	0	42	0	981467136	22	5279
2026-01-10 09:50:54.81	354.60	26.12	-30.7	-33.8	12.5	1.60e-04	0	42	0	987758592	22	5141
2026-01-10 09:50:57.82	354.28	25.66	-30.9	-34.3	12.1	1.56e-04	0	42	0	993001472	22	5332
2026-01-10 09:51:00.83	353.97	25.21	-30.8	-34.0	12.4	1.36e-04	0	42	0	998244352	22	5213
2026-01-10 09:51:03.85	353.67	24.76	-31.0	-34.7	12.0	4.09e-04	0	42	0	1004535808	22	5500
2026-01-10 09:51:06.86	353.38	24.32	-30.8	-34.2	12.4	1.52e-04	0	42	0	1009778688	22	5298
2026-01-10 09:51:09.88	353.10	23.88	-30.8	-34.1	12.4	1.55e-04	0	42	0	1016070144	22	5247
2026-01-10 09:51:12.89	352.82	23.45	-30.7	-33.7	12.6	9.61e-05	0	42	0	1021313024	22	5089
2026-01-10 09:51:15.88	352.55	23.03	-30.6	-33.5	12.8	6.33e-05	0	42	0	1026555904	22	5033
2026-01-10 09:51:18.89	352.29	22.62	-30.6	-33.7	12.5	8.85e-05	0	42	0	1032847360	22	5104
2026-01-10 09:51:21.90	352.04	22.21	-30.6	-33.6	12.5	9.07e-05	0	42	0	1038090240	22	5090
2026-01-10 09:51:24.90	351.79	21.80	-30.5	-33.4	12.6	7.32e-05	0	42	0	1043333120	22	5020
2026-01-10 09:51:27.90	351.55	21.41	-30.7	-33.8	12.5	1.15e-04	0	42	0	1049624576	22	5151
2026-01-10 09:51:30.92	351.32	21.01	-30.5	-33.4	12.7	6.25e-05	0	42	0	1054867456	22	5005
2026-01-10 09:51:33.92	351.09	20.63	-30.5	-33.4	12.5	9.23e-05	0	42	0	1061158912	22	5020
2026-01-10 09:51:36.93	350.87	20.25	-30.3	-33.1	13.1	3.73e-05	0	42	0	1066401792	21	5008
2026-01-10 09:51:39.93	350.65	19.87	-30.3	-33.3	13.1	3.58e-05	0	42	0	1071644672	21	5083
2026-01-10 09:51:42.93	350.44	19.50	-30.1	-32.8	13.4	1.60e-05	0	42	0	1077936128	21	4894
2026-01-10 09:51:45.94	350.24	19.13	-30.2	-32.9	13.4	1.83e-05	0	42	0	1083179008	21	4921
2026-01-10 09:51:48.95	350.04	18.77	-30.5	-33.7	12.9	3.20e-05	0	42	0	1088421888	21	5215
2026-01-10 09:51:51.95	349.84	18.42	-29.9	-32.1	13.9	5.30e-06	0	42	0	1094713344	21	4638
2026-01-10 09:51:54.96	349.65	18.07	-30.0	-32.4	13.5	1.22e-05	0	42	0	1099956224	21	4760
2026-01-10 09:51:57.97	349.46	17.72	-30.0	-32.6	13.4	1.60e-05	0	42	0	1106247680	21	4820
2026-01-10 09:52:00.97	349.28	17.38	-30.2	-33.0	13.1	1.90e-05	0	42	0	1111490560	21	4966
2026-01-10 09:52:03.97	349.11	17.04	-30.4	-33.7	12.7	6.10e-05	0	42	0	1116733440	21	5249
2026-01-10 09:52:06.95	348.93	16.71	-30.5	-33.9	12.5	9.91e-05	0	42	0	1123024896	21	5320
2026-01-10 09:52:09.95	348.76	16.38	-30.5	-33.9	12.5	1.16e-04	0	42	0	1128267776	21	5320
2026-01-10 09:52:12.96	348.60	16.06	-30.4	-33.7	12.5	1.17e-04	0	42	0	1133510656	21	5265
2026-01-10 09:52:15.96	348.44	15.74	-30.3	-33.3	12.6	7.70e-05	0	42	0	1139802112	21	5136
2026-01-10 09:52:18.96	348.28	15.42	-30.4	-33.6	12.4	9.68e-05	0	42	0	1145044992	21	5256
2026-01-10 09:52:21.96	348.13	15.11	-30.6	-34.3	12.0	2.07e-04	0	42	0	1150287872	21	5537
2026-01-10 09:52:24.96	347.98	14.80	-30.8	-34.7	11.8	6.98e-04	0	42	0	1156579328	21	5693
2026-01-10 09:52:27.97	347.83	14.49	-30.6	-33.7	12.3	3.13e-04	0	42	0	1161822208	22	5128
2026-01-10 09:52:30.98	347.68	14.19	-30.7	-34.0	12.3	1.46e-04	0	42	0	1168113664	22	5221
2026-01-10 09:52:33.98	347.54	13.89	-30.8	-34.2	12.0	3.00e-04	0	42	0	1173356544	22	5320
2026-01-10 09:52:36.98	347.41	13.60	-30.5	-33.5	12.4	1.42e-04	0	42	0	1178599424	22	5077
2026-01-10 09:52:39.98	347.27	13.30	-30.8	-34.2	12.0	2.75e-04	0	42	0	1184890880	22	5343
2026-01-10 09:52:42.99	347.14	13.02	-30.9	-34.5	11.8	4.58e-04	0	42	0	1190133760	22	5453
2026-01-10 09:52:45.99	347.01	12.73	-31.0	-35.1	11.2	1.17e-03	0	42	0	1195376640	22	5758
2026-01-10 09:52:48.99	346.88	12.45	-31.0	-35.0	11.2	1.60e-03	0	42	0	1201668096	22	5732
2026-01-10 09:52:52.00	346.76	12.17	-31.2	-35.6	10.7	2.55e-03	0	42	0	1206910976	22	6032
2026-01-10 09:52:55.00	346.64	11.89	-31.5	-36.3	9.7	6.80e-03	0	42	0	1213202432	23	6278
2026-01-10 09:52:58.00	346.52	11.62	-31.2	-35.3	10.6	4.25e-03	0	42	0	1218445312	23	5757
2026-01-10 09:53:01.01	346.40	11.35	-31.0	-34.8	10.7	3.02e-03	0	42	0	1223688192	23	5579
2026-01-10 09:53:04.02	346.29	11.08	-30.9	-34.4	11.0	2.35e-03	0	42	0	1229979648	23	5387
2026-01-10 09:53:07.03	346.17	10.82	-30.9	-34.7	10.7	2.63e-03	0	42	0	1235222528	23	5542
2026-01-10 09:53:10.04	346.06	10.56	-30.9	-34.5	10.7	2.95e-03	0	42	0	1240465408	23	5488
2026-01-10 09:53:13.04	345.96	10.30	-30.8	-34.4	10.8	2.42e-03	0	42	0	1246756864	23	5421
2026-01-10 09:53:16.04	345.85	10.04	-30.9	-34.6	10.5	3.49e-03	0	42	0	1251999744	23	5543
2026-01-10 09:53:19.05	345.75	9.79	-30.9	-34.8	10.4	4.54e-03	0	42	0	1258291200	23	5614
2026-01-10 09:53:22.04	345.65	9.54	-31.0	-35.0	10.2	6.37e-03	0	42	0	1263534080	23	5729
2026-01-10 09:53:25.05	345.55	9.29	-31.1	-35.5	9.8	9.03e-03	0	42	0	1268776960	23	5966
2026-01-10 09:53:28.06	345.45	9.04	-31.0	-35.2	10.0	6.30e-03	0	42	0	1275068416	23	5820
2026-01-10 09:53:31.06	345.35	8.79	-31.0	-35.2	10.0	6.41e-03	0	42	0	1280311296	23	5823
2026-01-10 09:53:34.09	345.26	8.55	-31.1	-35.2	10.4	4.90e-03	0	42	0	1285554176	23	5769
2026-01-10 09:53:37.09	345.16	8.31	-31.2	-35.6	10.0	7.58e-03	0	42	0	1291845632	23	5984
2026-01-10 09:53:40.08	345.07	8.07	-31.1	-35.3	10.1	9.33e-03	0	42	0	1297088512	23	5849
2026-01-10 09:53:43.09	344.98	7.84	-31.2	-35.7	9.9	5.99e-03	0	42	0	1303379968	23	6003
2026-01-10 09:53:46.09	344.90	7.60	-31.1	-35.3	10.0	9.70e-03	0	42	0	1308622848	23	5881
2026-01-10 09:53:49.10	344.81	7.37	-31.4	-36.6	9.1	1.79e-02	0	42	0	1313865728	23	6524
2026-01-10 09:53:52.10	344.73	7.14	-31.3	-36.3	9.4	1.16e-02	0	42	0	1320157184	23	6375
2026-01-10 09:53:55.10	344.64	6.92	-33.6	-47.8	3.8	1.49e+00	0	42	104	1321205760	27	18498

#Closed at: 2026-01-10 09:53:55
#Recorded file [1321 MB]: D:/data/31010_260110_124207.dat