passes_logs/2026/01/10/R2M6_AANII_01/R2M6_AANII_01__20260110_134242_FENGYUN_3D_rec.log

#Pass ID: 20260110_134242_FENGYUN 3D
#Satellite: FENGYUN 3D
#Configuration: FENGYUN 3D
#almurnet v.1.7.20240730
#Start time: 2026-01-10 13:42:41

#Version: 2.2.20231116
#Station: R2M6_AANII_01
#Location: 30.233357 lon 59.946436 lat
#TLE: 1 43010U 17072A   26009.85873963 -.00000290  00000+0 -11536-3 0  9992
#TLE: 2 43010  98.9936 341.5952 0002172 116.8419 243.2979 14.19692971422525

#Time	Az	El	Level	Level2	SNR	BER	BlckErr	Temp	State	Recorded	gain1	gain2
2026-01-10 13:42:41.51	203.88	6.95	-29.5	-32.5	5.2	7.91e-01	0	39	0	0	20	5076
2026-01-10 13:42:44.53	204.13	7.16	-29.5	-33.0	9.1	2.83e-02	0	40	0	5242880	19	5337
2026-01-10 13:42:47.55	204.38	7.36	-29.7	-33.3	8.9	4.28e-02	0	40	0	22020096	19	5478
2026-01-10 13:42:50.57	204.63	7.57	-30.0	-34.2	8.3	4.37e-02	0	40	0	39845888	19	5886
2026-01-10 13:42:53.60	204.89	7.77	-28.9	-31.1	10.5	8.17e-03	0	40	0	56623104	19	4633
2026-01-10 13:42:56.61	205.15	7.98	-27.3	-28.7	13.0	1.27e-04	0	40	0	73400320	16	4202
2026-01-10 13:42:59.63	205.41	8.19	-26.6	-28.1	13.8	1.10e-06	0	40	0	90177536	14	4243
2026-01-10 13:43:02.64	205.68	8.40	-26.8	-28.5	13.6	2.05e-05	0	40	0	106954752	14	4374
2026-01-10 13:43:05.66	205.95	8.61	-26.8	-28.4	13.7	5.70e-06	0	40	0	123731968	14	4322
2026-01-10 13:43:08.68	206.22	8.82	-26.5	-27.8	14.1	6.80e-06	0	40	0	141557760	14	4155
2026-01-10 13:43:11.71	206.50	9.04	-26.3	-27.7	14.4	1.10e-06	0	40	0	158334976	13	4247
2026-01-10 13:43:14.73	206.79	9.25	-26.2	-27.4	14.6	0.00e+00	0	40	0	175112192	13	4171
2026-01-10 13:43:17.76	207.07	9.47	-25.9	-26.9	14.9	0.00e+00	0	40	0	191889408	13	4027
2026-01-10 13:43:20.77	207.36	9.69	-25.9	-26.8	15.0	0.00e+00	0	40	0	209715200	13	3994
2026-01-10 13:43:23.80	207.66	9.91	-26.1	-27.3	14.7	0.00e+00	0	41	0	226492416	13	4119
2026-01-10 13:43:26.81	207.96	10.13	-25.9	-26.8	15.1	0.00e+00	0	41	0	243269632	13	3990
2026-01-10 13:43:29.84	208.26	10.35	-26.0	-27.0	14.9	0.00e+00	0	41	0	260046848	13	4053
2026-01-10 13:43:32.86	208.57	10.58	-25.8	-27.0	15.3	0.00e+00	0	41	0	276824064	12	4152
2026-01-10 13:43:35.87	208.88	10.80	-25.7	-26.8	15.4	0.00e+00	0	41	0	294649856	12	4097
2026-01-10 13:43:38.89	209.20	11.03	-25.9	-27.3	15.1	0.00e+00	0	41	0	311427072	12	4219
2026-01-10 13:43:41.92	209.52	11.25	-25.8	-27.1	15.3	1.10e-06	0	41	0	328204288	12	4177
2026-01-10 13:43:44.94	209.85	11.48	-25.9	-27.2	15.2	1.10e-06	0	41	0	344981504	12	4218
2026-01-10 13:43:47.96	210.18	11.71	-25.8	-27.0	15.3	0.00e+00	0	41	0	361758720	12	4165
2026-01-10 13:43:50.98	210.52	11.94	-26.2	-28.0	14.8	0.00e+00	0	41	0	379584512	12	4439
2026-01-10 13:43:53.99	210.86	12.18	-26.5	-28.0	14.5	0.00e+00	0	41	0	396361728	13	4323
2026-01-10 13:43:57.00	211.21	12.41	-26.3	-27.7	14.7	0.00e+00	0	41	0	413138944	13	4234
2026-01-10 13:44:00.02	211.56	12.64	-27.0	-29.3	13.8	6.80e-06	0	41	0	429916160	13	4689
2026-01-10 13:44:03.04	211.92	12.88	-26.0	-27.1	15.1	0.00e+00	0	41	0	446693376	13	4057
2026-01-10 13:44:06.06	212.28	13.12	-25.9	-27.4	15.2	0.00e+00	0	41	0	463470592	12	4250
2026-01-10 13:44:09.08	212.65	13.36	-25.6	-26.7	15.6	0.00e+00	0	41	0	481296384	12	4061
2026-01-10 13:44:12.10	213.03	13.60	-25.5	-26.3	15.8	4.50e-06	0	41	0	498073600	12	3968
2026-01-10 13:44:15.12	213.41	13.84	-25.5	-26.4	15.8	6.80e-06	0	41	0	514850816	12	3990
2026-01-10 13:44:18.13	213.80	14.08	-25.2	-26.3	16.2	2.20e-06	0	41	0	531628032	11	4061
2026-01-10 13:44:21.15	214.19	14.32	-25.1	-26.1	16.4	0.00e+00	0	41	0	548405248	11	4004
2026-01-10 13:44:24.18	214.59	14.57	-25.0	-25.8	16.5	1.10e-06	0	41	0	566231040	11	3952
2026-01-10 13:44:27.19	215.00	14.82	-25.2	-26.3	16.3	1.10e-06	0	41	0	583008256	11	4066
2026-01-10 13:44:30.22	215.41	15.06	-25.0	-25.7	16.6	0.00e+00	0	41	0	599785472	11	3919
2026-01-10 13:44:33.25	215.83	15.31	-25.0	-25.8	16.6	0.00e+00	0	41	0	616562688	11	3934
2026-01-10 13:44:36.26	216.26	15.56	-24.9	-25.6	16.7	0.00e+00	0	41	0	633339904	11	3892
2026-01-10 13:44:39.28	216.69	15.81	-25.0	-25.8	16.6	0.00e+00	0	41	0	651165696	11	3933
2026-01-10 13:44:42.30	217.13	16.07	-24.6	-25.4	17.1	0.00e+00	0	42	0	667942912	10	3941
2026-01-10 13:44:45.33	217.58	16.32	-24.7	-25.5	17.0	0.00e+00	0	41	0	684720128	10	3966
2026-01-10 13:44:48.34	218.04	16.57	-24.2	-25.1	17.5	0.00e+00	0	41	0	701497344	9	3979
2026-01-10 13:44:51.35	218.50	16.83	-24.3	-25.1	17.5	0.00e+00	0	41	0	718274560	9	3987
2026-01-10 13:44:54.38	218.97	17.08	-24.3	-25.3	17.5	0.00e+00	0	41	0	736100352	9	4014
2026-01-10 13:44:57.40	219.45	17.34	-24.5	-25.7	17.2	0.00e+00	0	42	0	752877568	9	4140
2026-01-10 13:45:00.42	219.93	17.60	-24.6	-25.8	17.2	0.00e+00	0	41	0	769654784	9	4159
2026-01-10 13:45:03.44	220.43	17.86	-24.3	-25.2	17.5	0.00e+00	0	42	0	786432000	9	4014
2026-01-10 13:45:06.45	220.93	18.11	-24.2	-25.0	17.6	0.00e+00	0	41	0	803209216	9	3965
2026-01-10 13:45:09.47	221.44	18.37	-24.0	-24.7	17.8	0.00e+00	0	41	0	821035008	9	3879
2026-01-10 13:45:12.49	221.96	18.63	-24.1	-24.7	17.8	0.00e+00	0	42	0	837812224	9	3883
2026-01-10 13:45:15.51	222.49	18.89	-24.0	-24.5	17.9	0.00e+00	0	42	0	854589440	9	3844
2026-01-10 13:45:18.53	223.03	19.15	-23.9	-24.3	18.1	0.00e+00	0	42	0	871366656	9	3781
2026-01-10 13:45:21.54	223.57	19.41	-23.9	-24.4	18.0	0.00e+00	0	42	0	888143872	9	3805
2026-01-10 13:45:24.55	224.13	19.67	-23.8	-24.6	18.2	0.00e+00	0	42	0	904921088	8	3970
2026-01-10 13:45:27.56	224.69	19.93	-24.0	-25.1	17.9	0.00e+00	0	42	0	922746880	8	4087
2026-01-10 13:45:30.58	225.26	20.19	-23.9	-24.9	18.0	0.00e+00	0	42	0	939524096	8	4034
2026-01-10 13:45:33.59	225.84	20.45	-24.7	-26.0	17.2	0.00e+00	0	41	0	956301312	9	4210
2026-01-10 13:45:36.60	226.44	20.71	-24.7	-26.1	17.2	0.00e+00	0	42	0	973078528	9	4217
2026-01-10 13:45:39.61	227.04	20.97	-24.1	-24.8	17.9	0.00e+00	0	42	0	989855744	9	3895
2026-01-10 13:45:42.63	227.65	21.23	-23.9	-24.3	18.1	0.00e+00	0	42	0	1007681536	9	3788
2026-01-10 13:45:45.65	228.27	21.49	-24.1	-25.3	17.9	0.00e+00	0	42	0	1024458752	8	4135
2026-01-10 13:45:48.67	228.91	21.75	-23.6	-24.3	18.4	0.00e+00	0	42	0	1041235968	8	3888
2026-01-10 13:45:51.69	229.55	22.01	-23.8	-24.7	18.2	0.00e+00	0	42	0	1058013184	8	3994
2026-01-10 13:45:54.71	230.21	22.26	-23.5	-24.0	18.6	0.00e+00	0	42	0	1074790400	8	3812
2026-01-10 13:45:57.73	230.87	22.52	-23.4	-23.9	18.7	0.00e+00	0	42	0	1092616192	8	3792
2026-01-10 13:46:00.75	231.55	22.77	-23.7	-24.5	18.4	0.00e+00	0	42	0	1109393408	8	3927
2026-01-10 13:46:03.78	232.23	23.02	-23.4	-23.8	18.7	0.00e+00	0	42	0	1126170624	8	3767
2026-01-10 13:46:06.80	232.93	23.27	-23.2	-23.9	18.9	0.00e+00	0	42	0	1142947840	7	3915
2026-01-10 13:46:09.82	233.64	23.52	-23.2	-23.8	18.9	0.00e+00	0	42	0	1159725056	7	3884
2026-01-10 13:46:12.83	234.36	23.77	-23.3	-24.0	18.9	0.00e+00	0	42	0	1177550848	7	3933
2026-01-10 13:46:15.84	235.08	24.01	-23.2	-23.8	19.0	0.00e+00	0	42	0	1194328064	7	3872
2026-01-10 13:46:18.87	235.83	24.25	-23.1	-24.1	19.1	0.00e+00	0	42	0	1211105280	6	4069
2026-01-10 13:46:21.89	236.58	24.49	-23.4	-24.4	18.7	0.00e+00	0	42	0	1227882496	7	4023
2026-01-10 13:46:24.90	237.34	24.72	-23.2	-23.9	18.9	0.00e+00	0	42	0	1244659712	7	3909
2026-01-10 13:46:27.91	238.11	24.95	-23.2	-24.0	18.9	0.00e+00	0	42	0	1261436928	7	3915
2026-01-10 13:46:30.94	238.90	25.18	-23.4	-24.3	18.7	0.00e+00	0	42	0	1279262720	7	4007
2026-01-10 13:46:33.95	239.70	25.41	-23.1	-23.6	19.1	0.00e+00	0	42	0	1296039936	7	3838
2026-01-10 13:46:36.98	240.51	25.63	-23.0	-23.4	19.2	0.00e+00	0	42	0	1312817152	7	3785
2026-01-10 13:46:40.00	241.33	25.84	-22.6	-23.2	19.6	0.00e+00	0	42	0	1329594368	6	3834
2026-01-10 13:46:43.02	242.15	26.06	-22.5	-23.0	19.7	0.00e+00	0	42	0	1347420160	6	3797
2026-01-10 13:46:46.04	243.00	26.26	-22.7	-23.3	19.5	0.00e+00	0	42	0	1364197376	6	3855
2026-01-10 13:46:49.06	243.85	26.47	-22.8	-23.6	19.4	0.00e+00	0	42	0	1380974592	6	3935
2026-01-10 13:46:52.07	244.71	26.66	-22.6	-23.1	19.6	0.00e+00	0	42	0	1397751808	6	3818
2026-01-10 13:46:55.09	245.58	26.85	-22.9	-23.7	19.3	0.00e+00	0	42	0	1414529024	6	3966
2026-01-10 13:46:58.11	246.46	27.04	-22.9	-23.7	19.4	0.00e+00	0	42	0	1431306240	6	3968
2026-01-10 13:47:01.14	247.35	27.22	-22.6	-23.0	19.7	0.00e+00	0	42	0	1449132032	6	3804
2026-01-10 13:47:04.15	248.25	27.39	-22.5	-23.0	19.7	0.00e+00	0	42	0	1465909248	6	3791
2026-01-10 13:47:07.15	249.16	27.56	-22.4	-22.7	19.9	0.00e+00	0	42	0	1482686464	6	3732
2026-01-10 13:47:10.18	250.08	27.72	-22.4	-23.1	19.9	0.00e+00	0	42	0	1499463680	5	3937
2026-01-10 13:47:13.20	251.01	27.87	-22.4	-23.1	19.9	0.00e+00	0	42	0	1516240896	5	3933
2026-01-10 13:47:16.22	251.95	28.02	-22.4	-23.1	19.9	0.00e+00	0	42	0	1534066688	5	3926
2026-01-10 13:47:19.22	252.89	28.16	-22.8	-24.1	19.4	0.00e+00	0	42	0	1550843904	5	4175
2026-01-10 13:47:22.24	253.84	28.29	-22.8	-24.1	19.4	0.00e+00	0	42	0	1567621120	5	4165
2026-01-10 13:47:25.25	254.80	28.41	-22.4	-23.3	19.9	1.10e-06	0	42	0	1584398336	5	3960
2026-01-10 13:47:28.27	255.77	28.52	-22.5	-23.3	19.8	0.00e+00	0	42	0	1601175552	5	3982
2026-01-10 13:47:31.29	256.74	28.63	-22.6	-23.7	19.6	1.10e-06	0	42	0	1617952768	5	4074
2026-01-10 13:47:34.30	257.72	28.73	-22.3	-22.9	20.0	1.10e-06	0	42	0	1634729984	5	3887
2026-01-10 13:47:37.33	258.71	28.82	-22.5	-23.4	19.8	0.00e+00	0	42	0	1652555776	5	4002
2026-01-10 13:47:40.35	259.70	28.90	-22.4	-23.1	19.9	0.00e+00	0	42	0	1669332992	5	3927
2026-01-10 13:47:43.36	260.69	28.97	-22.5	-23.4	19.8	0.00e+00	0	42	0	1686110208	5	3993
2026-01-10 13:47:46.38	261.69	29.03	-22.8	-24.2	19.4	0.00e+00	0	42	0	1702887424	5	4185
2026-01-10 13:47:49.40	262.69	29.08	-22.8	-24.0	19.5	0.00e+00	0	42	0	1720713216	5	4130
2026-01-10 13:47:52.43	263.70	29.13	-23.5	-24.6	18.7	0.00e+00	0	42	0	1737490432	7	4054
2026-01-10 13:47:55.44	264.71	29.16	-23.0	-23.5	19.3	3.40e-06	0	42	0	1754267648	7	3797
2026-01-10 13:47:58.46	265.72	29.19	-23.0	-23.5	19.3	0.00e+00	0	42	0	1771044864	7	3807
2026-01-10 13:48:01.48	266.73	29.20	-22.9	-23.7	19.4	0.00e+00	0	42	0	1787822080	6	3967
2026-01-10 13:48:04.50	267.74	29.21	-22.9	-23.8	19.3	0.00e+00	0	42	0	1805647872	6	3985
2026-01-10 13:48:07.52	268.75	29.20	-22.9	-23.8	19.4	0.00e+00	0	42	0	1822425088	6	3980
2026-01-10 13:48:10.54	269.76	29.19	-23.4	-24.9	18.8	0.00e+00	0	42	0	1839202304	6	4250
2026-01-10 13:48:13.56	270.77	29.17	-22.7	-23.4	19.6	0.00e+00	0	42	0	1855979520	6	3887
2026-01-10 13:48:16.58	271.78	29.14	-22.6	-23.1	19.7	0.00e+00	0	42	0	1872756736	6	3803
2026-01-10 13:48:19.60	272.79	29.09	-22.7	-23.3	19.6	0.00e+00	0	42	0	1890582528	6	3856
2026-01-10 13:48:22.62	273.79	29.04	-22.6	-23.1	19.7	0.00e+00	0	42	0	1907359744	6	3811
2026-01-10 13:48:25.64	274.79	28.98	-22.7	-23.2	19.6	0.00e+00	0	42	0	1924136960	6	3852
2026-01-10 13:48:28.66	275.78	28.91	-22.9	-23.8	19.4	0.00e+00	0	42	0	1940914176	6	3988
2026-01-10 13:48:31.68	276.78	28.84	-22.8	-23.6	19.5	0.00e+00	0	42	0	1957691392	6	3925
2026-01-10 13:48:34.69	277.76	28.75	-22.7	-23.3	19.6	0.00e+00	0	42	0	1975517184	6	3871
2026-01-10 13:48:37.71	278.74	28.65	-22.6	-23.1	19.7	0.00e+00	0	42	0	1992294400	6	3818
2026-01-10 13:48:40.73	279.71	28.55	-22.7	-23.4	19.5	0.00e+00	0	42	0	2009071616	6	3900
2026-01-10 13:48:43.75	280.68	28.44	-22.6	-23.1	19.7	0.00e+00	0	42	0	2025848832	6	3827
2026-01-10 13:48:46.76	281.64	28.32	-23.0	-24.1	19.2	0.00e+00	0	42	0	2042626048	6	4046
2026-01-10 13:48:49.78	282.59	28.19	-22.5	-22.8	19.8	0.00e+00	0	42	0	2060451840	6	3759
2026-01-10 13:48:52.81	283.54	28.05	-23.3	-24.6	19.0	0.00e+00	0	42	0	2077229056	6	4173
2026-01-10 13:48:55.84	284.48	27.91	-22.9	-23.3	19.4	0.00e+00	0	42	0	2094006272	7	3756
2026-01-10 13:48:58.86	285.41	27.76	-22.7	-23.4	19.6	0.00e+00	0	42	0	2110783488	6	3873
2026-01-10 13:49:01.89	286.33	27.60	-22.7	-23.4	19.5	0.00e+00	0	42	0	2127560704	6	3896
2026-01-10 13:49:04.91	287.24	27.43	-22.9	-23.7	19.4	0.00e+00	0	42	0	2145386496	6	3953
2026-01-10 13:49:07.92	288.14	27.26	-22.8	-23.5	19.5	0.00e+00	0	42	0	2162163712	6	3912
2026-01-10 13:49:10.94	289.03	27.08	-22.6	-23.1	19.7	0.00e+00	0	42	0	2178940928	6	3825
2026-01-10 13:49:13.95	289.91	26.90	-22.7	-23.4	19.5	0.00e+00	0	42	0	2195718144	6	3896
2026-01-10 13:49:16.97	290.78	26.71	-22.7	-23.4	19.5	0.00e+00	0	42	0	2212495360	6	3896
2026-01-10 13:49:20.00	291.65	26.52	-22.8	-23.5	19.5	0.00e+00	0	42	0	2230321152	6	3919
2026-01-10 13:49:23.02	292.50	26.32	-22.7	-23.2	19.6	0.00e+00	0	42	0	2247098368	6	3846
2026-01-10 13:49:26.03	293.33	26.11	-22.8	-23.6	19.4	0.00e+00	0	42	0	2263875584	6	3937
2026-01-10 13:49:29.05	294.16	25.90	-22.8	-23.5	19.5	0.00e+00	0	42	0	2280652800	6	3902
2026-01-10 13:49:32.07	294.98	25.69	-22.8	-23.5	19.5	0.00e+00	0	42	0	2297430016	6	3909
2026-01-10 13:49:35.08	295.79	25.47	-22.9	-23.6	19.4	0.00e+00	0	42	0	2315255808	6	3943
2026-01-10 13:49:38.09	296.58	25.25	-23.1	-24.2	19.1	0.00e+00	0	42	0	2332033024	6	4090
2026-01-10 13:49:41.11	297.37	25.02	-22.9	-23.8	19.3	0.00e+00	0	42	0	2348810240	6	3980
2026-01-10 13:49:44.13	298.14	24.79	-23.0	-23.9	19.3	0.00e+00	0	42	0	2365587456	6	4002
2026-01-10 13:49:47.16	298.91	24.56	-23.2	-24.3	19.1	0.00e+00	0	42	0	2382364672	6	4113
2026-01-10 13:49:50.18	299.66	24.32	-23.3	-24.6	18.9	0.00e+00	0	42	0	2400190464	6	4180
2026-01-10 13:49:53.19	300.40	24.08	-23.3	-24.6	18.9	0.00e+00	0	42	0	2416967680	6	4184
2026-01-10 13:49:56.19	301.12	23.85	-23.2	-24.3	19.0	0.00e+00	0	42	0	2433744896	6	4108
2026-01-10 13:49:59.21	301.84	23.60	-23.3	-24.7	18.8	0.00e+00	0	42	0	2450522112	6	4200
2026-01-10 13:50:02.24	302.55	23.35	-23.3	-24.6	18.9	0.00e+00	0	42	0	2467299328	6	4165
2026-01-10 13:50:05.25	303.25	23.11	-23.3	-24.6	18.9	0.00e+00	0	42	0	2484076544	6	4177
2026-01-10 13:50:08.27	303.93	22.86	-23.4	-24.8	18.7	0.00e+00	0	42	0	2501902336	6	4231
2026-01-10 13:50:11.28	304.61	22.61	-23.6	-24.7	18.6	0.00e+00	0	42	0	2518679552	7	4084
2026-01-10 13:50:14.30	305.27	22.35	-23.3	-24.2	18.8	0.00e+00	0	42	0	2535456768	7	3969
2026-01-10 13:50:17.31	305.93	22.10	-23.4	-24.3	18.8	0.00e+00	0	42	0	2552233984	7	3982
2026-01-10 13:50:20.33	306.57	21.85	-23.9	-25.4	18.2	0.00e+00	0	42	0	2569011200	7	4285
2026-01-10 13:50:23.36	307.21	21.59	-24.2	-25.4	17.9	0.00e+00	0	42	0	2585788416	8	4172
2026-01-10 13:50:26.37	307.83	21.33	-23.9	-24.8	18.3	0.00e+00	0	42	0	2603614208	8	4013
2026-01-10 13:50:29.37	308.44	21.08	-23.8	-24.6	18.4	0.00e+00	0	42	0	2620391424	8	3951
2026-01-10 13:50:32.39	309.04	20.82	-23.9	-24.8	18.2	0.00e+00	0	42	0	2637168640	8	4011
2026-01-10 13:50:35.41	309.64	20.56	-24.1	-25.2	18.0	0.00e+00	0	42	0	2653945856	8	4107
2026-01-10 13:50:38.42	310.22	20.30	-24.1	-25.3	18.0	0.00e+00	0	42	0	2670723072	8	4135
2026-01-10 13:50:41.45	310.79	20.04	-24.1	-25.4	17.9	0.00e+00	0	42	0	2687500288	8	4143
2026-01-10 13:50:44.46	311.36	19.79	-24.2	-25.5	17.8	0.00e+00	0	42	0	2705326080	8	4186
2026-01-10 13:50:47.48	311.91	19.53	-24.2	-25.5	17.8	0.00e+00	0	42	0	2722103296	8	4170
2026-01-10 13:50:50.50	312.46	19.27	-24.5	-25.6	17.5	0.00e+00	0	42	0	2738880512	9	4099
2026-01-10 13:50:53.52	313.00	19.01	-24.6	-25.9	17.3	0.00e+00	0	42	0	2755657728	9	4182
2026-01-10 13:50:56.54	313.53	18.75	-24.6	-25.8	17.3	0.00e+00	0	42	0	2772434944	9	4156
2026-01-10 13:50:59.56	314.05	18.49	-24.7	-26.1	17.2	0.00e+00	0	42	0	2790260736	9	4226
2026-01-10 13:51:02.57	314.56	18.24	-24.8	-26.2	17.2	0.00e+00	0	42	0	2807037952	9	4265
2026-01-10 13:51:05.59	315.06	17.98	-24.7	-26.2	17.2	0.00e+00	0	42	0	2823815168	9	4246
2026-01-10 13:51:08.61	315.56	17.72	-24.7	-26.1	17.2	0.00e+00	0	42	0	2840592384	9	4227
2026-01-10 13:51:11.63	316.05	17.47	-24.9	-26.4	17.0	0.00e+00	0	42	0	2857369600	9	4317
2026-01-10 13:51:14.65	316.53	17.21	-24.8	-26.2	17.1	0.00e+00	0	42	0	2875195392	9	4249
2026-01-10 13:51:17.67	317.00	16.96	-25.3	-26.8	16.6	0.00e+00	0	42	0	2891972608	10	4293
2026-01-10 13:51:20.68	317.46	16.71	-24.8	-25.9	17.1	0.00e+00	0	42	0	2908749824	10	4067
2026-01-10 13:51:23.71	317.92	16.45	-24.9	-26.1	16.9	0.00e+00	0	42	0	2925527040	10	4108
2026-01-10 13:51:26.72	318.37	16.20	-24.9	-26.1	16.9	0.00e+00	0	42	0	2942304256	10	4114
2026-01-10 13:51:29.74	318.81	15.95	-25.1	-26.4	16.7	0.00e+00	0	42	0	2960130048	10	4189
2026-01-10 13:51:32.77	319.24	15.70	-25.1	-26.6	16.7	0.00e+00	0	42	0	2976907264	10	4233
2026-01-10 13:51:35.79	319.67	15.46	-25.2	-26.8	16.5	0.00e+00	0	42	0	2993684480	10	4291
2026-01-10 13:51:38.81	320.09	15.21	-25.3	-26.8	16.5	0.00e+00	0	42	0	3010461696	10	4288
2026-01-10 13:51:41.84	320.51	14.96	-25.3	-26.9	16.4	0.00e+00	0	42	0	3027238912	10	4325
2026-01-10 13:51:44.85	320.92	14.72	-25.5	-26.8	16.2	0.00e+00	0	42	0	3045064704	11	4175
2026-01-10 13:51:47.85	321.31	14.48	-25.7	-27.3	15.9	0.00e+00	0	42	0	3061841920	11	4314
2026-01-10 13:51:50.86	321.71	14.23	-26.0	-27.9	15.6	0.00e+00	0	42	0	3078619136	11	4499
2026-01-10 13:51:53.87	322.10	13.99	-25.5	-26.4	16.0	0.00e+00	0	42	0	3095396352	12	3987
2026-01-10 13:51:56.90	322.48	13.75	-25.5	-26.4	16.0	0.00e+00	0	42	0	3112173568	12	3969
2026-01-10 13:51:59.91	322.86	13.51	-25.4	-26.2	16.2	0.00e+00	0	42	0	3128950784	12	3924
2026-01-10 13:52:02.93	323.23	13.28	-25.5	-26.2	16.1	0.00e+00	0	42	0	3146776576	12	3940
2026-01-10 13:52:05.95	323.59	13.04	-25.5	-26.4	16.0	0.00e+00	0	42	0	3163553792	12	3984
2026-01-10 13:52:08.98	323.96	12.81	-25.7	-26.8	15.8	0.00e+00	0	42	0	3180331008	12	4084
2026-01-10 13:52:11.99	324.31	12.57	-25.8	-27.0	15.6	0.00e+00	0	42	0	3197108224	12	4133
2026-01-10 13:52:15.02	324.66	12.34	-25.8	-27.0	15.6	0.00e+00	0	42	0	3214934016	12	4150
2026-01-10 13:52:18.04	325.00	12.11	-25.6	-26.7	15.8	0.00e+00	0	42	0	3231711232	12	4049
2026-01-10 13:52:21.06	325.34	11.88	-25.7	-26.8	15.8	0.00e+00	0	42	0	3248488448	12	4079
2026-01-10 13:52:24.07	325.68	11.65	-25.8	-27.1	15.6	0.00e+00	0	42	0	3265265664	12	4157
2026-01-10 13:52:27.09	326.00	11.42	-26.1	-27.8	15.1	0.00e+00	0	42	0	3282042880	12	4349
2026-01-10 13:52:30.11	326.33	11.20	-26.2	-27.9	15.1	1.10e-06	0	42	0	3298820096	12	4374
2026-01-10 13:52:33.13	326.65	10.97	-26.2	-28.0	15.0	0.00e+00	0	42	0	3316645888	12	4411
2026-01-10 13:52:36.15	326.96	10.75	-26.3	-28.1	14.9	0.00e+00	0	42	0	3333423104	12	4443
2026-01-10 13:52:39.17	327.27	10.53	-26.2	-27.9	15.0	0.00e+00	0	42	0	3350200320	12	4398
2026-01-10 13:52:42.19	327.58	10.31	-26.3	-28.2	14.8	0.00e+00	0	42	0	3366977536	12	4473
2026-01-10 13:52:45.21	327.88	10.09	-26.7	-28.7	14.3	1.10e-06	0	42	0	3383754752	13	4498
2026-01-10 13:52:48.23	328.18	9.87	-26.8	-28.8	14.2	3.40e-06	0	42	0	3401580544	13	4546
2026-01-10 13:52:51.25	328.47	9.65	-26.8	-28.4	14.1	8.00e-06	0	42	0	3418357760	14	4324
2026-01-10 13:52:54.28	328.76	9.44	-26.7	-28.0	14.3	0.00e+00	0	42	0	3435134976	14	4210
2026-01-10 13:52:57.30	329.05	9.22	-26.9	-28.7	13.9	3.40e-06	0	42	0	3451912192	14	4395
2026-01-10 13:53:00.32	329.33	9.01	-26.8	-28.4	14.0	3.40e-06	0	42	0	3469737984	14	4329
2026-01-10 13:53:03.33	329.60	8.80	-27.0	-28.8	13.8	6.80e-06	0	42	0	3486515200	14	4443
2026-01-10 13:53:06.34	329.88	8.59	-26.9	-28.6	13.9	8.00e-06	0	42	0	3503292416	14	4374
2026-01-10 13:53:09.36	330.15	8.38	-26.9	-28.6	13.8	1.14e-05	0	42	0	3520069632	14	4371
2026-01-10 13:53:12.38	330.41	8.17	-27.0	-28.8	13.7	1.25e-05	0	42	0	3536846848	14	4446
2026-01-10 13:53:15.39	330.67	7.97	-27.0	-28.9	13.6	1.25e-05	0	42	0	3553624064	14	4470
2026-01-10 13:53:18.41	330.93	7.76	-26.9	-28.6	13.7	2.05e-05	0	42	0	3570401280	14	4376
2026-01-10 13:53:21.42	331.19	7.56	-27.0	-28.7	13.6	9.10e-06	0	42	0	3588227072	14	4418
2026-01-10 13:53:24.45	331.44	7.35	-27.1	-29.1	13.4	1.37e-05	0	42	0	3605004288	14	4514
2026-01-10 13:53:27.46	331.69	7.15	-27.3	-29.7	13.0	9.26e-05	0	42	0	3621781504	14	4701
2026-01-10 13:53:30.48	331.93	6.95	-33.2	-44.4	3.8	8.46e-01	0	42	104	3627024384	26	13110

#Closed at: 2026-01-10 13:53:30
#Recorded file [3627 MB]: D:/data/31010_260110_164243.dat