passes_logs/2026/01/10/R2M6_AANII_01/R2M6_AANII_01__20260110_053452_FENGYUN_3E_rec.log

#Pass ID: 20260110_053452_FENGYUN 3E
#Satellite: FENGYUN 3E
#Configuration: FENGYUN 3E
#almurnet v.1.7.20240730
#Start time: 2026-01-10 05:34:53

#Version: 2.2.20231116
#Station: R2M6_AANII_01
#Location: 30.233357 lon 59.946436 lat
#TLE: 1 49008U 21062A   26009.29780149 -.00000002  00000+0  19895-4 0  9997
#TLE: 2 49008  98.7484  14.4929 0001744 148.2300 211.8982 14.19883977234036

#Time	Az	El	Level	Level2	SNR	BER	BlckErr	Temp	State	Recorded	gain1	gain2
2026-01-10 05:34:53.02	13.71	7.04	-29.2	-31.0	5.3	7.75e-01	0	40	0	0	19	4412
2026-01-10 05:34:56.02	13.57	7.26	-29.7	-32.4	8.7	3.43e-02	0	40	0	6291456	19	4871
2026-01-10 05:34:59.01	13.43	7.48	-29.1	-30.6	9.9	8.08e-03	0	40	0	28311552	19	4290
2026-01-10 05:35:02.01	13.28	7.71	-28.4	-29.4	11.1	2.38e-03	0	40	0	50331648	18	4020
2026-01-10 05:35:05.01	13.13	7.94	-27.4	-27.9	12.6	1.20e-04	0	40	0	71303168	16	3819
2026-01-10 05:35:08.02	12.98	8.17	-26.6	-27.1	13.5	1.02e-05	0	40	0	93323264	14	3802
2026-01-10 05:35:11.02	12.83	8.40	-26.9	-27.8	13.2	1.83e-05	0	40	0	115343360	14	3986
2026-01-10 05:35:14.02	12.67	8.63	-27.8	-29.3	12.2	8.12e-05	0	40	0	136314880	15	4267
2026-01-10 05:35:17.02	12.52	8.86	-27.8	-29.3	12.3	1.05e-04	0	40	0	158334976	15	4274
2026-01-10 05:35:20.04	12.35	9.10	-28.0	-29.2	12.3	2.22e-04	0	41	0	180355072	16	4110
2026-01-10 05:35:23.04	12.19	9.34	-27.8	-28.6	12.6	1.21e-04	0	41	0	202375168	16	3974
2026-01-10 05:35:26.06	12.02	9.58	-27.9	-29.0	12.6	1.42e-04	0	40	0	223346688	16	4071
2026-01-10 05:35:29.04	11.85	9.83	-26.4	-26.5	14.4	0.00e+00	0	41	0	245366784	14	3649
2026-01-10 05:35:32.05	11.68	10.07	-26.9	-27.6	13.8	2.20e-06	0	41	0	267386880	14	3903
2026-01-10 05:35:35.04	11.50	10.32	-26.7	-27.2	14.2	2.20e-06	0	41	0	288358400	14	3801
2026-01-10 05:35:38.04	11.32	10.57	-26.9	-27.6	14.0	2.20e-06	0	41	0	310378496	14	3891
2026-01-10 05:35:41.06	11.14	10.82	-26.7	-27.1	14.1	2.20e-06	0	41	0	332398592	14	3791
2026-01-10 05:35:44.06	10.95	11.08	-26.3	-26.8	14.4	1.10e-06	0	41	0	353370112	13	3813
2026-01-10 05:35:47.06	10.76	11.33	-26.1	-26.3	14.8	0.00e+00	0	41	0	375390208	13	3687
2026-01-10 05:35:50.08	10.57	11.59	-26.2	-26.5	14.7	0.00e+00	0	41	0	397410304	13	3726
2026-01-10 05:35:53.08	10.37	11.85	-26.4	-27.0	14.4	0.00e+00	0	41	0	418381824	13	3873
2026-01-10 05:35:56.09	10.17	12.12	-26.4	-26.9	14.4	1.10e-06	0	41	0	440401920	13	3845
2026-01-10 05:35:59.10	9.97	12.39	-26.3	-26.9	14.4	0.00e+00	0	41	0	462422016	13	3828
2026-01-10 05:36:02.10	9.76	12.66	-26.4	-27.0	14.4	0.00e+00	0	41	0	483393536	13	3862
2026-01-10 05:36:05.10	9.55	12.93	-25.9	-26.3	15.0	0.00e+00	0	41	0	505413632	12	3803
2026-01-10 05:36:08.10	9.33	13.20	-26.0	-26.6	14.9	0.00e+00	0	42	0	527433728	12	3859
2026-01-10 05:36:11.10	9.11	13.48	-25.7	-25.9	15.2	0.00e+00	0	41	0	548405248	12	3704
2026-01-10 05:36:14.10	8.88	13.76	-25.6	-26.3	15.4	0.00e+00	0	41	0	570425344	11	3889
2026-01-10 05:36:17.11	8.65	14.04	-25.7	-26.4	15.3	0.00e+00	0	42	0	592445440	11	3923
2026-01-10 05:36:20.12	8.42	14.33	-25.5	-26.0	15.5	0.00e+00	0	42	0	613416960	11	3830
2026-01-10 05:36:23.11	8.18	14.61	-25.6	-26.1	15.7	0.00e+00	0	42	0	635437056	11	3848
2026-01-10 05:36:26.12	7.93	14.91	-25.6	-26.1	15.7	0.00e+00	0	42	0	657457152	11	3834
2026-01-10 05:36:29.13	7.68	15.20	-25.2	-25.4	16.1	0.00e+00	0	42	0	679477248	11	3666
2026-01-10 05:36:32.12	7.43	15.50	-25.4	-25.8	16.1	0.00e+00	0	41	0	700448768	11	3764
2026-01-10 05:36:35.12	7.17	15.80	-25.3	-25.7	16.0	0.00e+00	0	42	0	722468864	11	3748
2026-01-10 05:36:38.14	6.90	16.10	-25.4	-25.8	16.1	0.00e+00	0	42	0	744488960	11	3752
2026-01-10 05:36:41.15	6.63	16.41	-25.3	-25.6	16.2	0.00e+00	0	42	0	765460480	11	3713
2026-01-10 05:36:44.15	6.35	16.72	-25.3	-25.6	16.2	0.00e+00	0	42	0	787480576	11	3712
2026-01-10 05:36:47.16	6.07	17.03	-25.4	-25.7	16.1	0.00e+00	0	42	0	809500672	11	3737
2026-01-10 05:36:50.17	5.78	17.35	-25.4	-25.7	16.0	0.00e+00	0	42	0	830472192	11	3746
2026-01-10 05:36:53.18	5.48	17.67	-25.6	-26.1	16.0	0.00e+00	0	42	0	852492288	11	3829
2026-01-10 05:36:56.18	5.18	17.99	-24.8	-24.9	16.9	0.00e+00	0	42	0	874512384	10	3660
2026-01-10 05:36:59.19	4.87	18.32	-24.7	-24.7	16.9	0.00e+00	0	42	0	896532480	10	3611
2026-01-10 05:37:02.21	4.55	18.65	-24.4	-24.2	17.3	0.00e+00	0	42	0	917504000	10	3494
2026-01-10 05:37:05.21	4.23	18.98	-24.3	-24.4	17.4	0.00e+00	0	42	0	939524096	9	3636
2026-01-10 05:37:08.22	3.89	19.32	-24.2	-24.8	17.4	0.00e+00	0	42	0	961544192	8	3829
2026-01-10 05:37:11.23	3.55	19.66	-24.1	-24.6	17.5	0.00e+00	0	42	0	983564288	8	3794
2026-01-10 05:37:14.23	3.21	20.01	-24.2	-24.8	17.3	0.00e+00	0	42	0	1004535808	8	3840
2026-01-10 05:37:17.23	2.85	20.36	-23.8	-24.0	17.7	0.00e+00	0	42	0	1026555904	8	3650
2026-01-10 05:37:20.23	2.49	20.71	-23.7	-23.7	17.9	0.00e+00	0	42	0	1047527424	8	3589
2026-01-10 05:37:23.24	2.12	21.06	-23.3	-23.4	18.2	0.00e+00	0	42	0	1069547520	7	3618
2026-01-10 05:37:26.25	1.74	21.42	-23.5	-23.8	18.0	0.00e+00	0	42	0	1091567616	7	3720
2026-01-10 05:37:29.24	1.35	21.78	-23.7	-24.1	17.9	0.00e+00	0	42	0	1112539136	7	3779
2026-01-10 05:37:32.24	0.95	22.15	-24.2	-24.8	17.3	0.00e+00	0	42	0	1134559232	8	3840
2026-01-10 05:37:35.24	0.54	22.52	-23.9	-24.2	17.6	0.00e+00	0	42	0	1156579328	8	3702
2026-01-10 05:37:38.25	0.12	22.90	-23.9	-24.0	17.7	0.00e+00	0	42	0	1177550848	8	3665
2026-01-10 05:37:41.25	359.69	23.27	-23.6	-23.5	18.0	0.00e+00	0	42	0	1199570944	8	3543
2026-01-10 05:37:44.24	359.25	23.65	-23.6	-23.9	18.1	0.00e+00	0	42	0	1221591040	7	3739
2026-01-10 05:37:47.24	358.80	24.04	-23.7	-24.1	17.9	0.00e+00	0	42	0	1242562560	7	3792
2026-01-10 05:37:50.24	358.33	24.43	-24.0	-24.2	17.6	0.00e+00	0	42	0	1264582656	8	3714
2026-01-10 05:37:53.25	357.86	24.82	-24.0	-24.4	17.7	0.00e+00	0	42	0	1286602752	8	3749
2026-01-10 05:37:56.25	357.37	25.22	-24.5	-25.3	17.2	0.00e+00	0	42	0	1307574272	8	3961
2026-01-10 05:37:59.26	356.87	25.62	-24.5	-24.9	17.1	0.00e+00	0	42	0	1329594368	9	3759
2026-01-10 05:38:02.27	356.35	26.02	-24.6	-25.1	17.1	0.00e+00	0	42	0	1351614464	9	3799
2026-01-10 05:38:05.27	355.82	26.43	-24.4	-24.7	17.3	0.00e+00	0	42	0	1372585984	9	3704
2026-01-10 05:38:08.28	355.28	26.84	-24.4	-24.6	17.3	0.00e+00	0	42	0	1394606080	9	3680
2026-01-10 05:38:11.29	354.72	27.26	-24.0	-23.7	17.8	0.00e+00	0	42	0	1416626176	9	3497
2026-01-10 05:38:14.29	354.15	27.67	-23.8	-23.9	18.0	0.00e+00	0	42	0	1438646272	8	3642
2026-01-10 05:38:17.30	353.56	28.10	-23.7	-23.6	18.2	0.00e+00	0	42	0	1459617792	8	3563
2026-01-10 05:38:20.31	352.96	28.52	-23.5	-23.8	18.2	0.00e+00	0	42	0	1481637888	7	3713
2026-01-10 05:38:23.32	352.34	28.95	-23.5	-23.8	18.3	0.00e+00	0	42	0	1503657984	7	3713
2026-01-10 05:38:26.32	351.70	29.38	-23.3	-23.4	18.5	0.00e+00	0	42	0	1524629504	7	3621
2026-01-10 05:38:29.33	351.05	29.81	-23.2	-23.2	18.6	0.00e+00	0	42	0	1546649600	7	3577
2026-01-10 05:38:32.34	350.37	30.24	-23.3	-23.2	18.7	0.00e+00	0	42	0	1568669696	7	3583
2026-01-10 05:38:35.35	349.68	30.68	-23.1	-23.4	18.8	0.00e+00	0	42	0	1589641216	6	3731
2026-01-10 05:38:38.36	348.97	31.12	-23.2	-23.5	18.7	0.00e+00	0	42	0	1611661312	6	3748
2026-01-10 05:38:41.36	348.24	31.56	-23.3	-23.9	18.5	0.00e+00	0	42	0	1633681408	6	3828
2026-01-10 05:38:44.37	347.49	32.00	-23.6	-24.0	18.2	0.00e+00	0	42	0	1654652928	7	3748
2026-01-10 05:38:47.38	346.72	32.44	-23.4	-23.5	18.4	0.00e+00	0	42	0	1676673024	7	3642
2026-01-10 05:38:50.38	345.92	32.88	-23.5	-23.7	18.4	0.00e+00	0	42	0	1698693120	7	3686
2026-01-10 05:38:53.39	345.11	33.32	-23.5	-23.7	18.4	0.00e+00	0	42	0	1720713216	7	3683
2026-01-10 05:38:56.39	344.27	33.77	-23.4	-23.4	18.5	0.00e+00	0	42	0	1741684736	7	3629
2026-01-10 05:38:59.40	343.41	34.21	-22.8	-22.8	19.0	0.00e+00	0	42	0	1763704832	6	3606
2026-01-10 05:39:02.40	342.52	34.64	-22.6	-22.3	19.3	0.00e+00	0	42	0	1785724928	6	3477
2026-01-10 05:39:05.40	341.62	35.08	-22.7	-22.5	19.1	0.00e+00	0	42	0	1806696448	6	3517
2026-01-10 05:39:08.40	340.68	35.52	-23.1	-23.3	18.7	0.00e+00	0	42	0	1828716544	6	3708
2026-01-10 05:39:11.41	339.72	35.95	-23.3	-23.9	18.5	0.00e+00	0	42	0	1850736640	6	3840
2026-01-10 05:39:14.42	338.73	36.38	-23.4	-23.5	18.4	0.00e+00	0	42	0	1871708160	7	3638
2026-01-10 05:39:17.43	337.72	36.80	-23.4	-23.4	18.4	0.00e+00	0	42	0	1893728256	7	3633
2026-01-10 05:39:20.43	336.68	37.22	-23.3	-23.4	18.4	0.00e+00	0	42	0	1915748352	7	3621
2026-01-10 05:39:23.44	335.62	37.63	-23.4	-23.5	18.3	0.00e+00	0	42	0	1937768448	7	3654
2026-01-10 05:39:26.45	334.52	38.04	-23.2	-23.0	18.6	0.00e+00	0	42	0	1958739968	7	3541
2026-01-10 05:39:29.45	333.40	38.44	-23.1	-22.9	18.6	0.00e+00	0	42	0	1980760064	7	3522
2026-01-10 05:39:32.46	332.25	38.83	-22.8	-22.7	19.0	0.00e+00	0	42	0	2002780160	6	3565
2026-01-10 05:39:35.47	331.07	39.21	-23.2	-23.7	18.5	0.00e+00	0	42	0	2023751680	6	3790
2026-01-10 05:39:38.47	329.87	39.58	-23.6	-24.0	18.1	0.00e+00	0	42	0	2045771776	7	3765
2026-01-10 05:39:41.48	328.63	39.95	-23.1	-22.9	18.6	0.00e+00	0	42	0	2067791872	7	3522
2026-01-10 05:39:44.48	327.37	40.29	-22.9	-22.9	18.8	0.00e+00	0	42	0	2089811968	6	3621
2026-01-10 05:39:47.48	326.09	40.63	-23.1	-23.4	18.7	0.00e+00	0	42	0	2110783488	6	3728
2026-01-10 05:39:50.48	324.78	40.95	-23.0	-23.3	18.7	0.00e+00	0	42	0	2132803584	6	3695
2026-01-10 05:39:53.49	323.44	41.26	-23.4	-24.0	18.3	0.00e+00	0	42	0	2153775104	6	3856
2026-01-10 05:39:56.49	322.07	41.55	-23.6	-24.0	18.1	0.00e+00	0	42	0	2175795200	7	3754
2026-01-10 05:39:59.50	320.68	41.83	-23.5	-23.8	18.2	0.00e+00	0	42	0	2197815296	7	3702
2026-01-10 05:40:02.50	319.27	42.09	-23.3	-23.4	18.4	0.00e+00	0	42	0	2218786816	7	3629
2026-01-10 05:40:05.50	317.84	42.33	-23.3	-23.3	18.4	0.00e+00	0	42	0	2240806912	7	3608
2026-01-10 05:40:08.51	316.38	42.55	-23.5	-23.7	18.3	0.00e+00	0	42	0	2262827008	7	3690
2026-01-10 05:40:11.52	314.90	42.75	-23.2	-23.1	18.5	0.00e+00	0	42	0	2283798528	7	3567
2026-01-10 05:40:14.52	313.41	42.93	-23.5	-23.7	18.3	0.00e+00	0	42	0	2305818624	7	3682
2026-01-10 05:40:17.52	311.90	43.09	-23.5	-23.7	18.2	0.00e+00	0	42	0	2327838720	7	3700
2026-01-10 05:40:20.53	310.37	43.22	-23.2	-23.1	18.6	0.00e+00	0	42	0	2349858816	7	3549
2026-01-10 05:40:23.53	308.84	43.34	-23.1	-22.9	18.7	0.00e+00	0	42	0	2370830336	7	3518
2026-01-10 05:40:26.54	307.29	43.43	-23.4	-23.5	18.3	0.00e+00	0	42	0	2392850432	7	3656
2026-01-10 05:40:29.53	305.74	43.50	-23.2	-23.1	18.6	0.00e+00	0	42	0	2414870528	7	3565
2026-01-10 05:40:32.53	304.19	43.54	-23.3	-23.4	18.5	0.00e+00	0	42	0	2435842048	7	3616
2026-01-10 05:40:35.55	302.62	43.56	-23.6	-23.9	18.2	0.00e+00	0	42	0	2457862144	7	3740
2026-01-10 05:40:38.54	301.06	43.56	-23.3	-23.2	18.5	0.00e+00	0	42	0	2479882240	7	3584
2026-01-10 05:40:41.54	299.50	43.53	-23.3	-23.3	18.5	0.00e+00	0	42	0	2500853760	7	3599
2026-01-10 05:40:44.54	297.94	43.48	-23.5	-23.7	18.2	0.00e+00	0	42	0	2522873856	7	3692
2026-01-10 05:40:47.54	296.39	43.41	-23.3	-23.4	18.3	0.00e+00	0	42	0	2544893952	7	3625
2026-01-10 05:40:50.55	294.85	43.31	-22.7	-22.6	19.0	0.00e+00	0	42	0	2565865472	6	3556
2026-01-10 05:40:53.56	293.31	43.19	-23.0	-23.2	18.7	0.00e+00	0	42	0	2587885568	6	3671
2026-01-10 05:40:56.56	291.79	43.05	-22.8	-22.9	18.9	0.00e+00	0	42	0	2609905664	6	3607
2026-01-10 05:40:59.56	290.28	42.88	-23.0	-23.3	18.7	0.00e+00	0	42	0	2630877184	6	3699
2026-01-10 05:41:02.57	288.79	42.70	-22.9	-23.0	18.8	0.00e+00	0	42	0	2652897280	6	3641
2026-01-10 05:41:05.58	287.32	42.49	-22.6	-22.3	19.1	0.00e+00	0	42	0	2674917376	6	3489
2026-01-10 05:41:08.59	285.86	42.26	-22.8	-22.8	18.8	0.00e+00	0	42	0	2695888896	6	3599
2026-01-10 05:41:11.59	284.43	42.02	-22.9	-22.9	18.8	0.00e+00	0	42	0	2717908992	6	3621
2026-01-10 05:41:14.59	283.02	41.75	-22.8	-22.7	18.9	0.00e+00	0	42	0	2739929088	6	3572
2026-01-10 05:41:17.59	281.64	41.47	-22.6	-22.5	19.0	0.00e+00	0	42	0	2760900608	6	3523
2026-01-10 05:41:20.59	280.28	41.17	-22.6	-22.4	19.0	0.00e+00	0	42	0	2782920704	6	3511
2026-01-10 05:41:23.60	278.94	40.86	-23.0	-23.1	18.7	0.00e+00	0	42	0	2804940800	6	3663
2026-01-10 05:41:26.61	277.63	40.53	-23.1	-23.4	18.5	0.00e+00	0	42	0	2825912320	6	3720
2026-01-10 05:41:29.61	276.35	40.19	-23.0	-23.1	18.6	0.00e+00	0	42	0	2847932416	6	3669
2026-01-10 05:41:32.63	275.09	39.84	-23.0	-23.2	18.6	0.00e+00	0	42	0	2869952512	6	3683
2026-01-10 05:41:35.65	273.85	39.47	-23.2	-23.6	18.3	0.00e+00	0	43	0	2891972608	6	3785
2026-01-10 05:41:38.65	272.65	39.10	-23.0	-23.2	18.6	0.00e+00	0	43	0	2912944128	6	3680
2026-01-10 05:41:41.66	271.48	38.71	-23.0	-23.2	18.6	0.00e+00	0	43	0	2934964224	6	3696
2026-01-10 05:41:44.67	270.33	38.31	-22.9	-22.9	18.7	0.00e+00	0	43	0	2956984320	6	3626
2026-01-10 05:41:47.67	269.22	37.91	-22.6	-22.3	19.0	0.00e+00	0	42	0	2977955840	6	3490
2026-01-10 05:41:50.68	268.13	37.50	-22.9	-23.1	18.7	0.00e+00	0	42	0	2999975936	6	3656
2026-01-10 05:41:53.69	267.06	37.08	-23.0	-23.1	18.6	0.00e+00	0	42	0	3021996032	6	3674
2026-01-10 05:41:56.69	266.03	36.66	-22.7	-22.5	18.9	0.00e+00	0	42	0	3044016128	6	3536
2026-01-10 05:41:59.69	265.03	36.24	-22.6	-22.4	19.0	0.00e+00	0	42	0	3064987648	6	3514
2026-01-10 05:42:02.71	264.04	35.80	-22.4	-22.4	19.2	0.00e+00	0	42	0	3087007744	5	3616
2026-01-10 05:42:05.72	263.08	35.37	-22.8	-23.3	18.8	0.00e+00	0	42	0	3109027840	5	3809
2026-01-10 05:42:08.73	262.15	34.93	-22.7	-23.1	18.6	0.00e+00	0	42	0	3131047936	5	3768
2026-01-10 05:42:11.73	261.25	34.49	-22.7	-23.0	18.9	0.00e+00	0	42	0	3152019456	5	3750
2026-01-10 05:42:14.73	260.37	34.05	-22.8	-23.3	18.7	0.00e+00	0	42	0	3174039552	5	3817
2026-01-10 05:42:17.73	259.51	33.61	-23.0	-23.6	18.5	0.00e+00	0	43	0	3196059648	5	3892
2026-01-10 05:42:20.74	258.67	33.16	-23.7	-24.3	17.8	0.00e+00	0	42	0	3217031168	7	3822
2026-01-10 05:42:23.75	257.86	32.72	-23.0	-22.7	18.6	0.00e+00	0	43	0	3239051264	7	3473
2026-01-10 05:42:26.75	257.07	32.28	-23.7	-24.1	17.9	0.00e+00	0	42	0	3260022784	7	3784
2026-01-10 05:42:29.75	256.31	31.83	-23.2	-23.2	18.3	0.00e+00	0	42	0	3282042880	7	3575
2026-01-10 05:42:32.76	255.56	31.39	-22.6	-22.5	19.0	0.00e+00	0	42	0	3304062976	6	3520
2026-01-10 05:42:35.78	254.83	30.95	-22.5	-22.8	19.0	0.00e+00	0	42	0	3326083072	5	3688
2026-01-10 05:42:38.78	254.12	30.51	-23.3	-23.7	18.4	0.00e+00	0	42	0	3347054592	6	3802
2026-01-10 05:42:41.79	253.43	30.07	-23.2	-23.7	18.3	0.00e+00	0	43	0	3369074688	6	3796
2026-01-10 05:42:44.79	252.76	29.64	-23.9	-24.6	17.6	0.00e+00	0	42	0	3391094784	7	3896
2026-01-10 05:42:47.80	252.11	29.20	-23.5	-23.2	18.1	0.00e+00	0	42	0	3412066304	8	3481
2026-01-10 05:42:50.81	251.47	28.77	-23.5	-23.8	18.0	0.00e+00	0	42	0	3434086400	7	3715
2026-01-10 05:42:53.81	250.86	28.34	-23.5	-23.7	18.0	0.00e+00	0	42	0	3456106496	7	3688
2026-01-10 05:42:56.82	250.25	27.92	-25.0	-25.9	16.4	0.00e+00	0	42	0	3477078016	9	3999
2026-01-10 05:42:59.82	249.67	27.50	-24.9	-25.6	16.5	0.00e+00	0	42	0	3499098112	9	3935
2026-01-10 05:43:02.82	249.10	27.08	-24.1	-24.1	17.4	0.00e+00	0	42	0	3521118208	9	3575
2026-01-10 05:43:05.81	248.55	26.67	-23.6	-23.4	18.0	0.00e+00	0	43	0	3542089728	8	3534
2026-01-10 05:43:08.84	248.00	26.25	-23.7	-24.1	17.8	0.00e+00	0	42	0	3564109824	7	3790
2026-01-10 05:43:11.84	247.48	25.84	-23.1	-22.8	18.3	0.00e+00	0	42	0	3586129920	7	3504
2026-01-10 05:43:14.84	246.96	25.44	-23.0	-22.7	18.4	0.00e+00	0	42	0	3608150016	7	3487
2026-01-10 05:43:17.85	246.46	25.04	-23.0	-22.7	18.4	0.00e+00	0	42	0	3629121536	7	3479
2026-01-10 05:43:20.84	245.98	24.64	-23.0	-22.7	18.4	0.00e+00	0	42	0	3651141632	7	3478
2026-01-10 05:43:23.84	245.50	24.25	-23.1	-22.9	18.3	0.00e+00	0	42	0	3673161728	7	3525
2026-01-10 05:43:26.83	245.04	23.86	-23.4	-23.6	17.9	0.00e+00	0	42	0	3694133248	7	3669
2026-01-10 05:43:29.84	244.59	23.47	-23.3	-23.3	18.1	0.00e+00	0	42	0	3716153344	7	3613
2026-01-10 05:43:32.84	244.15	23.09	-23.2	-23.1	18.2	0.00e+00	0	43	0	3738173440	7	3567
2026-01-10 05:43:35.84	243.72	22.71	-23.2	-23.0	18.2	0.00e+00	0	42	0	3759144960	7	3553
2026-01-10 05:43:38.83	243.30	22.34	-23.4	-23.6	17.9	0.00e+00	0	42	0	3781165056	7	3668
2026-01-10 05:43:41.83	242.89	21.97	-23.4	-23.5	17.9	0.00e+00	0	43	0	3802136576	7	3646
2026-01-10 05:43:44.83	242.49	21.60	-23.5	-23.7	17.8	0.00e+00	0	42	0	3824156672	7	3708
2026-01-10 05:43:47.84	242.10	21.24	-23.7	-24.1	17.5	0.00e+00	0	42	0	3846176768	7	3798
2026-01-10 05:43:50.85	241.72	20.88	-23.8	-24.3	17.5	0.00e+00	0	42	0	3867148288	7	3841
2026-01-10 05:43:53.86	241.35	20.52	-23.7	-23.7	17.5	0.00e+00	0	42	0	3889168384	8	3605
2026-01-10 05:43:56.85	240.98	20.17	-23.7	-23.7	17.5	0.00e+00	0	42	0	3911188480	8	3594
2026-01-10 05:43:59.87	240.63	19.82	-23.9	-24.1	17.3	0.00e+00	0	42	0	3933208576	8	3692
2026-01-10 05:44:02.88	240.28	19.47	-24.3	-24.5	16.8	0.00e+00	0	43	0	3954180096	9	3668
2026-01-10 05:44:05.89	239.94	19.13	-24.7	-25.3	16.4	0.00e+00	0	42	0	3976200192	9	3862
2026-01-10 05:44:08.90	239.61	18.79	-24.6	-25.1	16.5	0.00e+00	0	42	0	3998220288	9	3808
2026-01-10 05:44:11.89	239.29	18.46	-24.5	-24.9	16.6	0.00e+00	0	42	0	4019191808	9	3774
2026-01-10 05:44:14.91	238.97	18.13	-24.6	-25.2	16.4	0.00e+00	0	42	0	4041211904	9	3836
2026-01-10 05:44:17.91	238.66	17.80	-24.5	-24.4	16.6	0.00e+00	0	42	0	4063232000	10	3563
2026-01-10 05:44:20.93	238.35	17.48	-24.6	-25.0	16.5	0.00e+00	0	42	0	4085252096	9	3801
2026-01-10 05:44:23.93	238.06	17.16	-25.0	-25.9	15.9	0.00e+00	0	42	0	4106223616	9	4005
2026-01-10 05:44:26.94	237.76	16.84	-24.4	-24.8	16.6	0.00e+00	0	43	0	4128243712	9	3742
2026-01-10 05:44:29.95	237.48	16.53	-24.6	-25.0	16.4	0.00e+00	0	43	0	4150263808	9	3802
2026-01-10 05:44:32.96	237.20	16.22	-24.5	-25.0	16.4	0.00e+00	0	42	0	4171235328	9	3787
2026-01-10 05:44:35.96	236.93	15.91	-24.7	-25.5	16.2	0.00e+00	0	43	0	4193255424	9	3907
2026-01-10 05:44:38.95	236.66	15.61	-25.0	-25.9	15.9	0.00e+00	0	43	0	4215275520	9	4023
2026-01-10 05:44:41.95	236.40	15.31	-25.3	-26.2	15.5	0.00e+00	0	42	0	4236247040	10	3976
2026-01-10 05:44:44.96	236.15	15.01	-25.3	-26.2	15.5	0.00e+00	0	42	0	4258267136	10	3980
2026-01-10 05:44:47.96	235.90	14.71	-25.2	-25.9	15.6	0.00e+00	0	42	0	4280287232	10	3919
2026-01-10 05:44:50.98	235.65	14.42	-25.1	-25.7	15.8	0.00e+00	0	42	0	4302307328	10	3846
2026-01-10 05:44:53.98	235.41	14.13	-25.0	-25.4	15.9	0.00e+00	0	42	0	4323278848	10	3786
2026-01-10 05:44:56.99	235.17	13.85	-25.3	-26.2	15.4	0.00e+00	0	43	0	4345298944	10	3987
2026-01-10 05:45:00.00	234.94	13.56	-25.6	-25.8	15.0	1.10e-06	0	43	0	4366270464	12	3696
2026-01-10 05:45:02.99	234.71	13.28	-25.5	-26.1	15.2	1.10e-06	0	43	0	4388290560	11	3845
2026-01-10 05:45:06.00	234.49	13.01	-25.3	-25.8	15.3	0.00e+00	0	43	0	4410310656	11	3778
2026-01-10 05:45:09.01	234.27	12.73	-25.4	-25.9	15.2	0.00e+00	0	42	0	4431282176	11	3806
2026-01-10 05:45:12.03	234.06	12.46	-25.4	-25.9	15.2	0.00e+00	0	42	0	4453302272	11	3804
2026-01-10 05:45:15.03	233.85	12.19	-25.9	-26.6	14.4	1.10e-06	0	43	0	4475322368	12	3879
2026-01-10 05:45:18.05	233.64	11.92	-26.0	-26.8	14.3	0.00e+00	0	42	0	4497342464	12	3929
2026-01-10 05:45:21.05	233.44	11.66	-25.7	-26.1	14.7	0.00e+00	0	43	0	4518313984	12	3756
2026-01-10 05:45:24.06	233.24	11.39	-25.7	-26.2	14.6	0.00e+00	0	43	0	4540334080	12	3786
2026-01-10 05:45:27.06	233.04	11.14	-25.9	-26.4	14.5	0.00e+00	0	43	0	4562354176	12	3847
2026-01-10 05:45:30.08	232.85	10.88	-25.9	-26.4	14.5	2.20e-06	0	43	0	4584374272	12	3850
2026-01-10 05:45:33.08	232.66	10.62	-25.9	-26.6	14.3	0.00e+00	0	43	0	4605345792	12	3895
2026-01-10 05:45:36.09	232.48	10.37	-26.0	-26.7	14.3	1.10e-06	0	43	0	4627365888	12	3915
2026-01-10 05:45:39.11	232.30	10.12	-26.1	-26.9	14.1	5.70e-06	0	43	0	4649385984	12	3958
2026-01-10 05:45:42.12	232.12	9.87	-26.0	-26.7	14.2	2.20e-06	0	43	0	4670357504	12	3921
2026-01-10 05:45:45.13	231.94	9.62	-26.0	-26.7	14.2	2.20e-06	0	42	0	4692377600	12	3926
2026-01-10 05:45:48.13	231.77	9.38	-26.1	-27.0	14.0	1.10e-06	0	43	0	4714397696	12	3994
2026-01-10 05:45:51.13	231.60	9.14	-26.1	-27.1	14.0	0.00e+00	0	43	0	4736417792	12	4005
2026-01-10 05:45:54.14	231.44	8.90	-26.3	-27.5	13.7	3.40e-06	0	42	0	4757389312	12	4112
2026-01-10 05:45:57.15	231.27	8.66	-26.3	-27.4	13.7	1.02e-05	0	42	0	4779409408	12	4089
2026-01-10 05:46:00.15	231.11	8.43	-26.7	-27.8	13.2	1.14e-05	0	42	0	4801429504	13	4100
2026-01-10 05:46:03.16	230.96	8.19	-26.7	-27.9	13.1	1.02e-05	0	43	0	4822401024	13	4133
2026-01-10 05:46:06.16	230.80	7.96	-26.7	-27.9	13.1	4.11e-05	0	42	0	4844421120	13	4131
2026-01-10 05:46:09.17	230.65	7.73	-26.4	-27.2	13.5	1.60e-05	0	42	0	4866441216	13	3956
2026-01-10 05:46:12.18	230.50	7.50	-26.9	-28.4	12.8	4.00e-05	0	43	0	4888461312	13	4264
2026-01-10 05:46:15.17	230.35	7.28	-26.6	-27.3	13.1	6.06e-05	0	43	0	4909432832	14	3868
2026-01-10 05:46:18.18	230.20	7.06	-32.8	-42.4	3.8	8.46e-01	0	43	104	4925161472	25	10882
2026-01-10 05:46:21.18	230.06	6.83	-33.5	-43.4	3.8	8.46e-01	0	43	104	4925161472	26	11247

#Closed at: 2026-01-10 05:46:21
#Recorded file [4925 MB]: D:/data/31010_260110_083454.dat