passes_logs/2026/01/10/R2M6_AANII_01/R2M6_AANII_01__20260110_040622_AQUA_rec.log

#Pass ID: 20260110_040622_AQUA
#Satellite: AQUA
#Configuration: AQUA
#almurnet v.1.7.20240730
#Start time: 2026-01-10 04:06:27

#Version: 2.2.20231116
#Station: R2M6_AANII_01
#Location: 30.233357 lon 59.946436 lat
#TLE: 1 27424U 02022A   26009.00333547  .00001046  00000+0  21942-3 0  9998
#TLE: 2 27424  98.4075 335.3304 0002025  85.7625 349.1392 14.61808998260011

#Time	Az	El	Level	Level2	SNR	BER	BlckErr	Temp	State	Recorded	gain1	gain2
2026-01-10 04:06:27.10	3.01	7.29	-34.0	-53.2	3.8	7.45e-01	0	42	0	0	29	32603
2026-01-10 04:06:29.10	2.75	7.41	-34.2	-53.6	3.8	7.46e-01	0	42	104	0	29	33335
2026-01-10 04:06:31.10	2.50	7.53	-34.3	-53.6	3.8	7.48e-01	0	42	104	0	29	33493
2026-01-10 04:06:33.11	2.23	7.65	-34.3	-53.8	3.8	7.44e-01	0	42	104	0	29	33762
2026-01-10 04:06:35.11	1.97	7.77	-34.4	-53.8	3.8	7.45e-01	0	42	104	0	29	33769
2026-01-10 04:06:37.11	1.71	7.90	-34.3	-53.8	3.8	7.46e-01	0	42	104	0	29	33731
2026-01-10 04:06:39.12	1.44	8.02	-34.3	-53.8	3.8	7.46e-01	0	42	104	0	29	33778
2026-01-10 04:06:41.12	1.17	8.14	-34.4	-53.9	3.8	7.47e-01	0	42	104	0	29	33862
2026-01-10 04:06:43.11	0.90	8.26	-34.4	-53.9	3.8	7.44e-01	0	42	104	0	29	33993
2026-01-10 04:06:45.11	0.62	8.38	-34.5	-54.0	3.8	7.43e-01	0	42	104	0	29	34229
2026-01-10 04:06:47.11	0.34	8.50	-34.5	-54.0	3.8	7.47e-01	0	42	104	0	29	34194
2026-01-10 04:06:49.12	0.06	8.62	-34.5	-54.0	3.8	7.42e-01	0	42	104	0	29	34136
2026-01-10 04:06:51.13	359.78	8.74	-34.4	-53.9	3.8	7.49e-01	0	42	104	0	29	33919
2026-01-10 04:06:53.13	359.49	8.86	-34.3	-53.7	3.8	7.45e-01	0	42	104	0	29	33518
2026-01-10 04:06:55.14	359.21	8.98	-34.2	-53.4	3.8	7.44e-01	0	42	104	0	29	33019
2026-01-10 04:06:57.13	358.92	9.10	-34.0	-52.9	3.8	7.46e-01	0	42	104	0	29	32016
2026-01-10 04:06:59.13	358.62	9.22	-33.6	-52.2	3.8	7.48e-01	0	42	104	0	29	30607
2026-01-10 04:07:01.13	358.33	9.34	-33.6	-52.2	3.8	7.47e-01	0	42	104	0	29	30784
2026-01-10 04:07:03.13	358.03	9.46	-33.6	-52.2	3.8	7.42e-01	0	42	104	0	29	30712
2026-01-10 04:07:05.14	357.73	9.59	-33.6	-52.2	3.8	7.44e-01	0	42	104	0	29	30768
2026-01-10 04:07:07.15	357.42	9.71	-33.7	-52.5	3.8	7.44e-01	0	42	104	0	29	31222
2026-01-10 04:07:09.16	357.11	9.83	-33.8	-52.6	3.8	7.44e-01	0	42	104	0	29	31236
2026-01-10 04:07:11.16	356.80	9.95	-33.7	-52.3	3.8	7.47e-01	0	42	104	0	29	30725
2026-01-10 04:07:13.16	356.49	10.07	-33.6	-52.2	3.8	7.44e-01	0	42	104	0	29	30418
2026-01-10 04:07:15.17	356.17	10.19	-33.5	-51.0	3.8	7.46e-01	0	42	104	0	29	26941
2026-01-10 04:07:17.17	355.85	10.31	-32.9	-48.1	3.8	7.45e-01	0	42	104	0	28	20662
2026-01-10 04:07:19.18	355.53	10.43	-32.9	-48.5	3.8	7.47e-01	0	42	104	0	27	21672
2026-01-10 04:07:21.19	355.21	10.55	-32.9	-48.7	3.8	7.48e-01	0	42	104	0	27	22028
2026-01-10 04:07:23.19	354.88	10.67	-33.2	-50.2	3.8	7.49e-01	0	42	104	0	27	25551
2026-01-10 04:07:25.20	354.55	10.79	-33.1	-49.8	3.8	7.47e-01	0	42	104	0	27	24561
2026-01-10 04:07:27.21	354.21	10.91	-33.1	-49.6	3.7	7.44e-01	0	42	104	0	27	24126
2026-01-10 04:07:29.21	353.88	11.03	-32.9	-48.4	3.8	7.45e-01	0	42	104	0	27	21533
2026-01-10 04:07:31.21	353.54	11.14	-32.6	-47.4	3.8	7.45e-01	0	42	104	0	27	19580
2026-01-10 04:07:33.21	353.19	11.26	-33.1	-49.4	3.8	7.45e-01	0	42	104	0	27	23339
2026-01-10 04:07:35.22	352.85	11.38	-32.6	-47.2	3.8	7.45e-01	0	42	104	0	27	19362
2026-01-10 04:07:37.24	352.50	11.50	-32.0	-45.3	3.8	7.45e-01	0	42	104	0	26	16730
2026-01-10 04:07:39.24	352.14	11.62	-32.4	-46.7	3.8	7.47e-01	0	42	104	0	26	18672
2026-01-10 04:07:41.24	351.79	11.73	-32.9	-48.9	3.8	7.42e-01	0	42	104	0	26	22656
2026-01-10 04:07:43.25	351.43	11.85	-33.1	-49.1	3.8	7.44e-01	0	42	104	0	27	22700
2026-01-10 04:07:45.26	351.07	11.97	-33.1	-49.0	3.8	7.44e-01	0	42	104	0	27	22476
2026-01-10 04:07:47.25	350.71	12.08	-32.9	-48.2	3.8	7.50e-01	0	42	104	0	27	21036
2026-01-10 04:07:49.25	350.34	12.20	-32.9	-48.4	3.8	7.44e-01	0	42	104	0	27	21378
2026-01-10 04:07:51.26	349.97	12.31	-33.2	-49.6	3.8	7.45e-01	0	42	104	0	27	23770
2026-01-10 04:07:53.27	349.59	12.42	-33.4	-50.6	3.8	7.41e-01	0	42	104	0	27	26074
2026-01-10 04:07:55.28	349.22	12.54	-33.4	-50.4	3.8	7.49e-01	0	42	104	0	27	25513
2026-01-10 04:07:57.29	348.83	12.65	-33.3	-50.2	3.8	7.47e-01	0	42	104	0	27	25093
2026-01-10 04:07:59.29	348.45	12.76	-33.3	-50.1	3.8	7.46e-01	0	42	104	0	27	24781
2026-01-10 04:08:01.29	348.07	12.88	-33.3	-49.8	3.8	7.43e-01	0	42	104	0	27	24080
2026-01-10 04:08:03.30	347.67	12.99	-33.2	-49.5	3.8	7.47e-01	0	42	104	0	27	23506
2026-01-10 04:08:05.30	347.28	13.10	-33.0	-48.5	3.8	7.39e-01	0	42	104	0	27	21611
2026-01-10 04:08:07.30	346.89	13.21	-32.5	-46.5	3.8	7.44e-01	0	42	104	0	27	18002
2026-01-10 04:08:09.31	346.49	13.31	-32.4	-46.6	3.8	7.39e-01	0	42	104	0	26	18458
2026-01-10 04:08:11.31	346.08	13.42	-33.2	-49.4	3.8	7.42e-01	0	42	104	0	27	23075
2026-01-10 04:08:13.32	345.68	13.53	-33.6	-50.9	3.9	7.46e-01	0	42	104	0	28	26419
2026-01-10 04:08:15.33	345.27	13.64	-33.4	-49.6	3.8	7.46e-01	0	42	104	0	28	23182
2026-01-10 04:08:17.32	344.86	13.74	-33.2	-49.1	3.8	7.44e-01	0	42	104	0	27	22477
2026-01-10 04:08:19.33	344.44	13.85	-33.1	-48.6	3.8	7.42e-01	0	42	104	0	27	21421
2026-01-10 04:08:21.33	344.02	13.95	-33.3	-49.7	3.8	7.47e-01	0	42	104	0	27	23779
2026-01-10 04:08:23.33	343.60	14.05	-32.8	-47.8	3.8	7.47e-01	0	42	104	0	27	20265
2026-01-10 04:08:25.34	343.18	14.15	-32.7	-47.4	3.8	7.48e-01	0	42	104	0	27	19500
2026-01-10 04:08:27.35	342.75	14.26	-33.0	-48.0	3.8	7.45e-01	0	42	104	0	27	20331
2026-01-10 04:08:29.36	342.31	14.36	-33.3	-49.1	3.8	7.46e-01	0	42	104	0	27	22402
2026-01-10 04:08:31.36	341.88	14.45	-33.5	-50.3	3.8	7.46e-01	0	42	104	0	27	24936
2026-01-10 04:08:33.36	341.44	14.55	-33.5	-50.3	3.8	7.47e-01	0	42	104	0	27	24971
2026-01-10 04:08:35.36	341.00	14.65	-33.4	-42.0	10.5	6.16e-01	0	42	0	524288	27	9695
2026-01-10 04:08:37.38	340.56	14.74	-33.3	-41.6	10.8	6.13e-01	0	42	0	4194304	27	9265
2026-01-10 04:08:39.37	340.11	14.84	-33.4	-41.8	10.6	6.13e-01	0	42	0	7864320	27	9464
2026-01-10 04:08:41.37	339.66	14.93	-33.3	-40.7	11.7	6.10e-01	0	42	0	11534336	27	8504
2026-01-10 04:08:43.37	339.21	15.02	-32.6	-37.9	13.8	6.04e-01	0	42	0	15204352	27	6621
2026-01-10 04:08:45.39	338.75	15.11	-31.9	-35.8	15.8	5.99e-01	0	42	0	18874368	26	5643
2026-01-10 04:08:47.38	338.30	15.20	-30.9	-33.8	17.7	6.00e-01	0	42	0	22544384	24	5015
2026-01-10 04:08:49.39	337.83	15.28	-30.8	-34.1	17.9	5.98e-01	0	42	0	26738688	23	5236
2026-01-10 04:08:51.39	337.37	15.37	-30.9	-34.2	17.8	6.00e-01	0	42	0	30408704	23	5279
2026-01-10 04:08:53.39	336.90	15.45	-31.1	-34.9	17.2	6.03e-01	0	42	0	34078720	23	5556
2026-01-10 04:08:55.40	336.43	15.54	-30.7	-33.9	17.9	6.02e-01	0	42	0	37748736	23	5151
2026-01-10 04:08:57.41	335.96	15.62	-30.8	-33.8	18.1	6.00e-01	0	42	0	41418752	23	5122
2026-01-10 04:08:59.42	335.48	15.70	-30.7	-33.5	18.4	6.01e-01	0	42	0	45613056	23	4992
2026-01-10 04:09:01.42	335.00	15.77	-30.7	-33.6	18.4	6.02e-01	0	42	0	49283072	23	5012
2026-01-10 04:09:03.42	334.52	15.85	-30.6	-33.2	18.6	6.01e-01	0	42	0	52953088	23	4872
2026-01-10 04:09:05.43	334.04	15.93	-30.3	-32.9	19.1	6.01e-01	0	42	0	56623104	22	4858
2026-01-10 04:09:07.44	333.55	16.00	-30.6	-33.8	18.4	6.01e-01	0	42	0	60293120	22	5232
2026-01-10 04:09:09.44	333.06	16.07	-30.4	-33.5	18.5	6.02e-01	0	42	0	63963136	22	5115
2026-01-10 04:09:11.44	332.57	16.14	-30.4	-33.4	18.5	6.01e-01	0	42	0	67633152	22	5090
2026-01-10 04:09:13.45	332.08	16.21	-30.6	-33.9	18.1	6.02e-01	0	42	0	71827456	22	5292
2026-01-10 04:09:15.44	331.58	16.27	-30.6	-34.0	18.1	5.99e-01	0	42	0	75497472	22	5320
2026-01-10 04:09:17.45	331.08	16.33	-30.2	-32.9	18.8	6.03e-01	0	42	0	79167488	22	4895
2026-01-10 04:09:19.46	330.58	16.40	-30.1	-32.6	18.9	6.02e-01	0	42	0	82837504	22	4816
2026-01-10 04:09:21.48	330.07	16.46	-30.0	-32.3	19.1	6.03e-01	0	42	0	86507520	22	4718
2026-01-10 04:09:23.48	329.57	16.51	-29.9	-32.2	19.2	6.00e-01	0	42	0	90701824	22	4680
2026-01-10 04:09:25.49	329.06	16.57	-30.3	-33.0	18.7	6.02e-01	0	42	0	94371840	22	4956
2026-01-10 04:09:27.49	328.55	16.62	-29.9	-32.2	19.2	6.02e-01	0	42	0	98041856	22	4655
2026-01-10 04:09:29.49	328.04	16.67	-30.1	-32.6	18.9	6.02e-01	0	42	0	101711872	22	4819
2026-01-10 04:09:31.48	327.53	16.72	-30.1	-32.7	18.9	6.00e-01	0	42	0	105381888	22	4830
2026-01-10 04:09:33.48	327.02	16.77	-30.1	-32.6	18.9	6.01e-01	0	42	0	109051904	22	4824
2026-01-10 04:09:35.48	326.50	16.82	-30.2	-32.9	18.7	6.03e-01	0	42	0	113246208	22	4921
2026-01-10 04:09:37.48	325.99	16.86	-30.3	-33.2	18.6	6.01e-01	0	42	0	116916224	22	5012
2026-01-10 04:09:39.48	325.47	16.90	-30.1	-32.6	18.9	6.00e-01	0	42	0	120586240	22	4812
2026-01-10 04:09:41.49	324.94	16.94	-30.2	-32.9	18.9	6.01e-01	0	42	0	124256256	22	4887
2026-01-10 04:09:43.49	324.42	16.97	-30.1	-32.5	19.1	6.00e-01	0	42	0	127926272	22	4763
2026-01-10 04:09:45.48	323.90	17.01	-30.1	-32.5	19.0	6.00e-01	0	42	0	131596288	22	4777
2026-01-10 04:09:47.48	323.38	17.04	-30.1	-32.5	19.1	6.01e-01	0	42	0	135266304	22	4758
2026-01-10 04:09:49.48	322.85	17.07	-30.2	-32.8	18.9	6.01e-01	0	42	0	139460608	22	4870
2026-01-10 04:09:51.48	322.33	17.10	-30.2	-33.0	18.8	6.03e-01	0	42	0	143130624	22	4933
2026-01-10 04:09:53.49	321.80	17.12	-30.3	-33.0	18.8	6.01e-01	0	42	0	146800640	22	4937
2026-01-10 04:09:55.49	321.27	17.14	-30.1	-32.6	19.1	6.00e-01	0	42	0	150470656	22	4801
2026-01-10 04:09:57.50	320.74	17.16	-30.2	-32.8	19.0	6.02e-01	0	42	0	154140672	22	4858
2026-01-10 04:09:59.50	320.21	17.18	-30.3	-33.0	18.9	6.00e-01	0	42	0	158334976	22	4911
2026-01-10 04:10:01.51	319.67	17.20	-30.3	-33.0	18.8	6.02e-01	0	42	0	162004992	22	4933
2026-01-10 04:10:03.51	319.14	17.21	-30.1	-32.6	19.0	6.00e-01	0	42	0	165675008	22	4795
2026-01-10 04:10:05.50	318.61	17.22	-30.1	-32.7	18.9	6.00e-01	0	42	0	169345024	22	4845
2026-01-10 04:10:07.51	318.08	17.23	-29.9	-32.2	19.2	6.01e-01	0	42	0	173015040	22	4660
2026-01-10 04:10:09.52	317.54	17.23	-29.9	-32.5	19.3	6.00e-01	0	42	0	176685056	21	4890
2026-01-10 04:10:11.52	317.01	17.24	-29.8	-32.2	19.4	6.00e-01	0	42	0	180355072	21	4792
2026-01-10 04:10:13.53	316.48	17.24	-29.9	-32.7	19.3	5.99e-01	0	42	0	184549376	21	4945
2026-01-10 04:10:15.52	315.95	17.24	-30.0	-33.0	18.9	6.04e-01	0	42	0	188219392	21	5092
2026-01-10 04:10:17.53	315.41	17.23	-30.2	-33.5	18.7	6.03e-01	0	42	0	191889408	21	5262
2026-01-10 04:10:19.53	314.88	17.23	-30.2	-33.4	18.7	6.00e-01	0	42	0	195559424	21	5205
2026-01-10 04:10:21.53	314.35	17.22	-30.2	-33.5	18.6	6.02e-01	0	42	0	199229440	21	5264
2026-01-10 04:10:23.53	313.82	17.21	-30.0	-32.9	18.9	5.99e-01	0	42	0	202899456	21	5044
2026-01-10 04:10:25.55	313.28	17.19	-29.7	-32.0	19.5	5.99e-01	0	42	0	207093760	21	4728
2026-01-10 04:10:27.55	312.75	17.18	-29.8	-32.3	19.4	6.01e-01	0	42	0	210763776	21	4809
2026-01-10 04:10:29.56	312.22	17.16	-30.1	-33.3	18.8	6.03e-01	0	41	0	214433792	21	5175
2026-01-10 04:10:31.56	311.69	17.14	-30.4	-34.0	18.2	6.02e-01	0	42	0	218103808	21	5478
2026-01-10 04:10:33.55	311.16	17.11	-30.2	-33.1	18.5	6.02e-01	0	42	0	221773824	22	5004
2026-01-10 04:10:35.55	310.63	17.09	-30.6	-34.2	17.8	6.01e-01	0	42	0	225443840	22	5416
2026-01-10 04:10:37.54	310.11	17.06	-30.9	-34.9	17.4	5.99e-01	0	42	0	229113856	22	5736
2026-01-10 04:10:39.55	309.58	17.03	-30.4	-33.6	18.2	6.02e-01	0	42	0	233308160	22	5165
2026-01-10 04:10:41.56	309.06	17.00	-30.1	-32.6	18.8	6.04e-01	0	42	0	236978176	22	4819
2026-01-10 04:10:43.58	308.53	16.96	-30.5	-33.8	18.1	5.99e-01	0	42	0	240648192	22	5290
2026-01-10 04:10:45.58	308.01	16.93	-30.2	-32.9	18.6	6.02e-01	0	42	0	244318208	22	4932
2026-01-10 04:10:47.57	307.49	16.89	-29.6	-31.9	19.6	6.02e-01	0	42	0	247988224	21	4675
2026-01-10 04:10:49.57	306.97	16.85	-29.8	-32.4	19.2	6.02e-01	0	42	0	252182528	21	4863
2026-01-10 04:10:51.56	306.45	16.80	-29.8	-32.4	19.2	5.99e-01	0	42	0	255852544	21	4872
2026-01-10 04:10:53.56	305.94	16.76	-29.8	-32.4	19.1	6.01e-01	0	42	0	259522560	21	4870
2026-01-10 04:10:55.56	305.42	16.71	-30.0	-32.9	18.8	6.02e-01	0	42	0	263192576	21	5054
2026-01-10 04:10:57.56	304.91	16.66	-30.3	-33.7	18.3	6.03e-01	0	42	0	266862592	21	5369
2026-01-10 04:10:59.56	304.40	16.61	-30.4	-34.0	18.2	6.02e-01	0	42	0	270532608	21	5489
2026-01-10 04:11:01.57	303.89	16.55	-29.9	-33.4	18.9	6.03e-01	0	42	0	274202624	20	5331
2026-01-10 04:11:03.58	303.38	16.50	-29.4	-31.7	19.9	6.02e-01	0	42	0	278396928	20	4741
2026-01-10 04:11:05.58	302.88	16.44	-29.5	-31.6	19.7	6.01e-01	0	42	0	282066944	21	4568
2026-01-10 04:11:07.58	302.37	16.38	-29.6	-31.9	19.4	5.99e-01	0	42	0	285736960	21	4669
2026-01-10 04:11:09.58	301.87	16.32	-30.0	-33.0	18.8	6.02e-01	0	42	0	289406976	21	5064
2026-01-10 04:11:11.57	301.38	16.25	-29.9	-32.7	19.2	6.03e-01	0	42	0	293076992	21	4940
2026-01-10 04:11:13.58	300.88	16.19	-29.4	-31.8	20.0	6.01e-01	0	42	0	296747008	20	4740
2026-01-10 04:11:15.59	300.38	16.12	-29.2	-31.4	20.1	6.00e-01	0	42	0	300417024	20	4617
2026-01-10 04:11:17.59	299.89	16.05	-29.7	-32.0	19.4	6.00e-01	0	42	0	304611328	21	4721
2026-01-10 04:11:19.60	299.40	15.98	-29.8	-32.5	19.2	6.00e-01	0	42	0	308281344	21	4902
2026-01-10 04:11:21.60	298.92	15.90	-30.0	-32.9	19.0	6.01e-01	0	42	0	311951360	21	5024
2026-01-10 04:11:23.59	298.44	15.83	-29.4	-31.4	19.7	5.99e-01	0	42	0	315621376	21	4535
2026-01-10 04:11:25.60	297.95	15.75	-30.0	-32.9	18.8	6.00e-01	0	42	0	319291392	21	5046
2026-01-10 04:11:27.59	297.48	15.67	-29.9	-32.7	19.0	6.02e-01	0	42	0	322961408	21	4959
2026-01-10 04:11:29.60	297.00	15.59	-30.0	-32.9	18.8	6.03e-01	0	42	0	327155712	21	5030
2026-01-10 04:11:31.61	296.52	15.51	-30.1	-33.4	18.6	6.04e-01	0	42	0	330825728	21	5246
2026-01-10 04:11:33.61	296.05	15.43	-29.8	-32.4	19.1	6.01e-01	0	42	0	334495744	21	4859
2026-01-10 04:11:35.61	295.59	15.34	-29.7	-32.2	19.2	6.02e-01	0	42	0	338165760	21	4801
2026-01-10 04:11:37.62	295.12	15.26	-30.1	-33.3	18.6	6.00e-01	0	42	0	341835776	21	5193
2026-01-10 04:11:39.62	294.66	15.17	-30.2	-33.6	18.4	6.01e-01	0	42	0	346030080	21	5307
2026-01-10 04:11:41.62	294.20	15.08	-29.8	-32.6	19.0	5.99e-01	0	42	0	349700096	21	4950
2026-01-10 04:11:43.62	293.74	14.99	-29.6	-31.9	19.4	6.02e-01	0	42	0	353370112	21	4713
2026-01-10 04:11:45.62	293.29	14.90	-29.5	-31.8	19.4	6.02e-01	0	42	0	357040128	21	4663
2026-01-10 04:11:47.62	292.84	14.81	-29.9	-32.9	18.7	6.02e-01	0	42	0	360710144	21	5076
2026-01-10 04:11:49.63	292.39	14.71	-29.5	-32.3	19.4	5.99e-01	0	42	0	364380160	20	4954
2026-01-10 04:11:51.63	291.95	14.62	-29.6	-32.5	19.2	6.01e-01	0	42	0	368050176	20	5010
2026-01-10 04:11:53.64	291.51	14.52	-30.1	-33.8	18.4	6.03e-01	0	42	0	372244480	20	5534
2026-01-10 04:11:55.64	291.07	14.42	-29.7	-32.8	19.1	6.01e-01	0	42	0	375914496	20	5131
2026-01-10 04:11:57.65	290.63	14.32	-29.6	-32.6	19.1	6.01e-01	0	42	0	379584512	20	5067
2026-01-10 04:11:59.65	290.20	14.22	-30.2	-33.6	18.2	6.01e-01	0	42	0	383254528	21	5322
2026-01-10 04:12:01.65	289.77	14.12	-29.8	-32.6	18.9	6.02e-01	0	42	0	386924544	21	4942
2026-01-10 04:12:03.65	289.35	14.02	-30.9	-35.2	16.7	6.01e-01	0	42	0	390594560	22	5944
2026-01-10 04:12:05.66	288.92	13.92	-30.3	-33.4	18.0	6.04e-01	0	42	0	394788864	22	5147
2026-01-10 04:12:07.68	288.50	13.81	-30.2	-33.3	17.9	6.03e-01	0	42	0	398458880	22	5142
2026-01-10 04:12:09.68	288.09	13.71	-30.1	-33.6	18.2	6.00e-01	0	42	0	402128896	21	5346
2026-01-10 04:12:11.69	287.67	13.60	-30.9	-35.2	16.6	6.01e-01	0	42	0	405798912	22	5938
2026-01-10 04:12:13.70	287.26	13.49	-30.5	-33.6	17.5	6.03e-01	0	42	0	409468928	23	5124
2026-01-10 04:12:15.69	286.86	13.39	-29.8	-32.5	18.7	6.03e-01	0	42	0	413138944	21	4948
2026-01-10 04:12:17.70	286.45	13.28	-29.8	-33.0	18.8	6.01e-01	0	42	0	417333248	20	5246
2026-01-10 04:12:19.70	286.05	13.17	-29.8	-33.2	18.7	6.00e-01	0	42	0	421003264	20	5293
2026-01-10 04:12:21.70	285.66	13.06	-29.8	-33.2	18.7	6.02e-01	0	42	0	424673280	20	5311
2026-01-10 04:12:23.71	285.26	12.95	-29.5	-32.4	19.1	6.03e-01	0	42	0	428343296	20	4999
2026-01-10 04:12:25.71	284.87	12.83	-29.5	-32.4	19.1	6.01e-01	0	42	0	432013312	20	5028
2026-01-10 04:12:27.71	284.49	12.72	-29.7	-32.7	18.9	5.99e-01	0	42	0	436207616	20	5137
2026-01-10 04:12:29.71	284.10	12.61	-29.5	-32.3	19.2	6.02e-01	0	42	0	439877632	20	4985
2026-01-10 04:12:31.71	283.72	12.50	-29.8	-33.2	18.6	6.02e-01	0	42	0	443547648	20	5316
2026-01-10 04:12:33.71	283.34	12.38	-29.6	-32.6	19.0	6.00e-01	0	42	0	447217664	20	5073
2026-01-10 04:12:35.71	282.97	12.27	-29.7	-32.9	18.8	6.03e-01	0	42	0	450887680	20	5199
2026-01-10 04:12:37.70	282.60	12.15	-29.8	-33.3	18.5	6.02e-01	0	42	0	454557696	20	5347
2026-01-10 04:12:39.71	282.23	12.04	-29.7	-32.9	18.7	6.01e-01	0	42	0	458227712	20	5205
2026-01-10 04:12:41.70	281.87	11.92	-29.8	-33.2	18.6	6.03e-01	0	42	0	462422016	20	5303
2026-01-10 04:12:43.71	281.51	11.81	-29.7	-33.0	18.8	6.01e-01	0	42	0	466092032	20	5232
2026-01-10 04:12:45.72	281.15	11.69	-29.6	-32.5	18.9	6.01e-01	0	42	0	469762048	20	5071
2026-01-10 04:12:47.72	280.79	11.57	-29.9	-33.4	18.5	6.01e-01	0	42	0	473432064	20	5404
2026-01-10 04:12:49.72	280.44	11.46	-29.9	-33.5	18.3	6.03e-01	0	42	0	477102080	20	5464
2026-01-10 04:12:51.72	280.09	11.34	-30.1	-33.6	18.0	6.01e-01	0	42	0	480772096	21	5368
2026-01-10 04:12:53.73	279.74	11.22	-30.1	-33.5	18.0	6.01e-01	0	42	0	484442112	21	5348
2026-01-10 04:12:55.74	279.40	11.10	-30.7	-34.7	17.2	6.01e-01	0	42	0	488636416	22	5713
2026-01-10 04:12:57.75	279.05	10.98	-30.0	-32.8	18.2	6.04e-01	0	42	0	492306432	22	4956
2026-01-10 04:12:59.75	278.72	10.86	-30.1	-33.2	17.9	6.03e-01	0	42	0	495976448	22	5094
2026-01-10 04:13:01.76	278.38	10.74	-30.1	-32.9	18.1	6.02e-01	0	42	0	499646464	22	5014
2026-01-10 04:13:03.76	278.05	10.62	-29.9	-32.9	18.4	6.03e-01	0	42	0	503316480	21	5097
2026-01-10 04:13:05.77	277.72	10.50	-30.0	-33.2	18.3	6.04e-01	0	42	0	507510784	21	5212
2026-01-10 04:13:07.76	277.40	10.38	-29.9	-33.0	18.3	6.02e-01	0	42	0	511180800	21	5148
2026-01-10 04:13:09.77	277.07	10.26	-29.6	-32.3	18.7	6.01e-01	0	42	0	514850816	21	4885
2026-01-10 04:13:11.77	276.75	10.14	-29.8	-32.6	18.5	6.03e-01	0	42	0	518520832	21	4995
2026-01-10 04:13:13.77	276.44	10.02	-29.9	-33.1	18.2	6.01e-01	0	42	0	522190848	21	5172
2026-01-10 04:13:15.78	276.12	9.90	-30.0	-33.4	18.1	6.02e-01	0	42	0	525860864	21	5289
2026-01-10 04:13:17.78	275.81	9.78	-29.9	-33.1	18.2	5.98e-01	0	42	0	530055168	21	5188
2026-01-10 04:13:19.79	275.50	9.66	-30.0	-33.3	18.1	6.04e-01	0	42	0	533725184	21	5254
2026-01-10 04:13:21.78	275.20	9.54	-30.0	-33.4	18.0	6.01e-01	0	42	0	537395200	21	5318
2026-01-10 04:13:23.78	274.90	9.42	-30.0	-33.4	18.0	6.03e-01	0	42	0	541065216	21	5295
2026-01-10 04:13:25.79	274.59	9.29	-29.9	-33.1	18.1	6.01e-01	0	42	0	544735232	21	5176
2026-01-10 04:13:27.79	274.30	9.17	-29.9	-33.2	18.1	5.99e-01	0	42	0	548405248	21	5234
2026-01-10 04:13:29.80	274.00	9.05	-30.1	-33.6	17.7	6.02e-01	0	42	0	552075264	21	5398
2026-01-10 04:13:31.80	273.71	8.93	-30.0	-33.5	17.8	5.99e-01	0	42	0	556269568	21	5352
2026-01-10 04:13:33.81	273.42	8.81	-30.0	-33.2	17.9	6.04e-01	0	42	0	559939584	21	5259
2026-01-10 04:13:35.81	273.13	8.69	-30.0	-33.3	17.9	6.04e-01	0	42	0	563609600	21	5282
2026-01-10 04:13:37.81	272.85	8.57	-30.0	-33.4	17.8	5.98e-01	0	42	0	567279616	21	5348
2026-01-10 04:13:39.82	272.57	8.44	-30.1	-33.8	17.5	6.02e-01	0	42	0	570949632	21	5494
2026-01-10 04:13:41.82	272.29	8.32	-30.2	-33.9	17.5	6.02e-01	0	42	0	575143936	21	5561
2026-01-10 04:13:43.83	272.01	8.20	-30.2	-34.0	17.4	6.00e-01	0	42	0	578813952	21	5592
2026-01-10 04:13:45.83	271.74	8.08	-30.1	-33.9	17.4	6.00e-01	0	42	0	582483968	21	5541
2026-01-10 04:13:47.84	271.46	7.96	-30.0	-33.5	17.7	6.00e-01	0	42	0	586153984	21	5388
2026-01-10 04:13:49.85	271.19	7.84	-30.2	-34.0	17.3	6.01e-01	0	42	0	589824000	21	5609
2026-01-10 04:13:51.85	270.93	7.72	-30.2	-34.0	17.3	6.03e-01	0	42	0	593494016	21	5611
2026-01-10 04:13:53.86	270.66	7.60	-30.2	-34.2	17.2	6.00e-01	0	42	0	597688320	21	5683
2026-01-10 04:13:55.87	270.40	7.48	-30.4	-34.6	16.9	6.00e-01	0	42	0	601358336	21	5878
2026-01-10 04:13:57.88	270.14	7.35	-30.3	-34.4	17.0	5.99e-01	0	42	0	605028352	21	5787
2026-01-10 04:13:59.88	269.88	7.23	-30.5	-35.0	16.6	6.00e-01	0	42	0	608698368	21	6067
2026-01-10 04:14:01.89	269.63	7.11	-30.4	-34.7	16.8	6.01e-01	0	42	0	612368384	21	5907
2026-01-10 04:14:03.89	269.38	6.99	-33.5	-53.1	3.8	7.43e-01	0	42	104	613416960	27	34251

#Closed at: 2026-01-10 04:14:04
#Recorded file [613 MB]: D:/data/31010_260110_070834.dat