passes_logs/2026/01/10/R2M6_AANII_01/R2M6_AANII_01__20260110_085236_NOAA_21_JPSS-2_rec.log

#Pass ID: 20260110_085236_NOAA 21 (JPSS-2)
#Satellite: NOAA 21 (JPSS-2)
#Configuration: NOAA 21
#almurnet v.1.7.20240730
#Start time: 2026-01-10 08:52:38

#Version: 2.2.20231116
#Station: R2M6_AANII_01
#Location: 30.233357 lon 59.946436 lat
#TLE: 1 54234U 22150A   26009.23291724  .00000115  00000+0  75298-4 0  9996
#TLE: 2 54234  98.7494 310.2026 0000856 324.9272  35.1848 14.19533567163994

#Time	Az	El	Level	Level2	SNR	BER	BlckErr	Temp	State	Recorded	gain1	gain2
2026-01-10 08:52:38.48	115.56	7.12	-30.1	-34.2	4.7	1.39e+00	0	39	0	0	21	5802
2026-01-10 08:52:41.48	115.35	7.33	-29.9	-33.4	9.5	1.48e-02	0	39	0	2097152	20	5376
2026-01-10 08:52:44.49	115.13	7.54	-30.1	-33.9	9.2	3.53e-02	0	40	0	12582912	20	5574
2026-01-10 08:52:47.49	114.91	7.75	-29.2	-31.8	11.1	1.74e-03	0	40	0	22020096	19	4865
2026-01-10 08:52:50.49	114.69	7.97	-28.4	-30.2	12.6	9.91e-05	0	39	0	30408704	18	4425
2026-01-10 08:52:53.49	114.46	8.19	-28.3	-29.8	12.9	6.33e-05	0	40	0	39845888	18	4306
2026-01-10 08:52:56.49	114.23	8.40	-28.3	-30.4	12.8	3.96e-05	0	40	0	49283072	17	4562
2026-01-10 08:52:59.50	114.00	8.62	-28.1	-29.8	13.3	2.44e-05	0	40	0	58720256	17	4383
2026-01-10 08:53:02.52	113.76	8.85	-27.9	-29.4	13.5	1.60e-05	0	40	0	68157440	17	4283
2026-01-10 08:53:05.52	113.52	9.07	-28.1	-29.8	13.3	1.83e-05	0	40	0	77594624	17	4371
2026-01-10 08:53:08.52	113.27	9.29	-27.9	-29.2	13.7	6.10e-06	0	40	0	87031808	17	4220
2026-01-10 08:53:11.54	113.02	9.52	-27.9	-29.3	13.6	1.06e-05	0	40	0	96468992	17	4252
2026-01-10 08:53:14.54	112.77	9.75	-27.8	-29.1	13.8	8.30e-06	0	40	0	105906176	17	4169
2026-01-10 08:53:17.56	112.51	9.98	-27.9	-29.4	13.7	1.14e-05	0	40	0	115343360	17	4266
2026-01-10 08:53:20.57	112.25	10.21	-27.7	-29.4	14.0	3.00e-06	0	41	0	124780544	16	4349
2026-01-10 08:53:23.57	111.98	10.44	-27.7	-29.3	14.0	7.00e-07	0	40	0	134217728	16	4320
2026-01-10 08:53:26.58	111.71	10.67	-27.7	-29.2	14.1	2.20e-06	0	41	0	143654912	16	4301
2026-01-10 08:53:29.58	111.44	10.91	-27.7	-29.2	14.1	0.00e+00	0	41	0	153092096	16	4299
2026-01-10 08:53:32.59	111.16	11.14	-27.7	-29.2	14.1	2.20e-06	0	41	0	162529280	16	4315
2026-01-10 08:53:35.60	110.88	11.38	-27.9	-29.8	13.8	3.00e-06	0	41	0	171966464	16	4465
2026-01-10 08:53:38.61	110.59	11.62	-28.3	-30.8	13.3	7.60e-06	0	41	0	181403648	16	4788
2026-01-10 08:53:41.61	110.29	11.86	-27.7	-29.2	14.2	1.50e-06	0	41	0	190840832	16	4301
2026-01-10 08:53:44.61	110.00	12.11	-27.5	-28.8	14.4	0.00e+00	0	41	0	200278016	16	4171
2026-01-10 08:53:47.60	109.69	12.35	-27.5	-28.8	14.5	7.00e-07	0	41	0	209715200	16	4175
2026-01-10 08:53:50.61	109.38	12.60	-27.5	-28.8	14.5	0.00e+00	0	41	0	219152384	16	4186
2026-01-10 08:53:53.61	109.07	12.85	-27.2	-28.5	14.7	0.00e+00	0	41	0	228589568	15	4217
2026-01-10 08:53:56.61	108.75	13.10	-26.9	-28.1	15.1	0.00e+00	0	41	0	236978176	15	4091
2026-01-10 08:53:59.63	108.42	13.35	-27.0	-28.2	14.9	7.00e-07	0	41	0	246415360	15	4136
2026-01-10 08:54:02.63	108.09	13.60	-27.2	-28.7	14.7	0.00e+00	0	41	0	255852544	15	4268
2026-01-10 08:54:05.63	107.76	13.86	-27.1	-28.3	14.9	0.00e+00	0	41	0	265289728	15	4151
2026-01-10 08:54:08.65	107.41	14.11	-27.2	-28.6	14.8	0.00e+00	0	41	0	274726912	15	4243
2026-01-10 08:54:11.66	107.06	14.37	-27.0	-28.1	15.1	0.00e+00	0	41	0	284164096	15	4091
2026-01-10 08:54:14.67	106.71	14.63	-26.9	-27.9	15.2	0.00e+00	0	41	0	293601280	15	4051
2026-01-10 08:54:17.68	106.35	14.89	-26.8	-28.2	15.3	0.00e+00	0	41	0	303038464	14	4231
2026-01-10 08:54:20.68	105.98	15.16	-27.0	-28.7	15.1	0.00e+00	0	41	0	312475648	14	4363
2026-01-10 08:54:23.69	105.60	15.42	-26.9	-28.5	15.2	7.00e-07	0	41	0	321912832	14	4309
2026-01-10 08:54:26.71	105.22	15.69	-26.8	-28.1	15.5	0.00e+00	0	41	0	331350016	14	4201
2026-01-10 08:54:29.70	104.83	15.96	-27.0	-28.7	15.2	7.00e-07	0	41	0	340787200	14	4357
2026-01-10 08:54:32.71	104.44	16.23	-27.2	-28.6	14.9	0.00e+00	0	41	0	350224384	15	4231
2026-01-10 08:54:35.72	104.03	16.50	-27.2	-28.6	14.9	7.00e-07	0	41	0	359661568	15	4217
2026-01-10 08:54:38.73	103.62	16.77	-27.0	-28.2	15.1	0.00e+00	0	41	0	369098752	15	4129
2026-01-10 08:54:41.73	103.20	17.04	-27.2	-28.5	15.0	0.00e+00	0	41	0	378535936	15	4198
2026-01-10 08:54:44.74	102.78	17.32	-27.1	-28.4	15.1	7.00e-07	0	41	0	387973120	15	4160
2026-01-10 08:54:47.75	102.34	17.60	-27.1	-28.3	15.2	0.00e+00	0	41	0	397410304	15	4136
2026-01-10 08:54:50.75	101.90	17.88	-26.9	-27.9	15.4	0.00e+00	0	41	0	406847488	15	4037
2026-01-10 08:54:53.76	101.45	18.16	-27.2	-28.7	15.0	0.00e+00	0	41	0	416284672	15	4246
2026-01-10 08:54:56.77	100.99	18.44	-27.0	-28.1	15.3	0.00e+00	0	41	0	425721856	15	4099
2026-01-10 08:54:59.77	100.52	18.72	-27.6	-29.5	14.5	0.00e+00	0	41	0	435159040	15	4493
2026-01-10 08:55:02.78	100.05	19.00	-26.8	-28.1	15.6	0.00e+00	0	41	0	444596224	14	4180
2026-01-10 08:55:05.79	99.56	19.29	-26.8	-28.2	15.6	0.00e+00	0	42	0	454033408	14	4213
2026-01-10 08:55:08.79	99.07	19.58	-26.9	-28.4	15.4	0.00e+00	0	42	0	463470592	14	4282
2026-01-10 08:55:11.79	98.56	19.86	-27.2	-28.9	15.2	0.00e+00	0	42	0	472907776	14	4428
2026-01-10 08:55:14.80	98.05	20.15	-26.8	-27.7	15.6	0.00e+00	0	42	0	482344960	15	3977
2026-01-10 08:55:17.81	97.52	20.44	-26.4	-27.3	16.1	0.00e+00	0	42	0	490733568	14	3981
2026-01-10 08:55:20.82	96.99	20.73	-26.5	-27.6	16.0	0.00e+00	0	42	0	500170752	14	4047
2026-01-10 08:55:23.82	96.44	21.02	-26.7	-27.8	15.8	0.00e+00	0	41	0	509607936	14	4112
2026-01-10 08:55:26.82	95.89	21.31	-26.2	-27.4	16.3	0.00e+00	0	42	0	519045120	13	4109
2026-01-10 08:55:29.83	95.32	21.60	-26.2	-27.2	16.4	0.00e+00	0	42	0	528482304	13	4063
2026-01-10 08:55:32.83	94.75	21.89	-26.4	-27.7	16.2	0.00e+00	0	42	0	537919488	13	4193
2026-01-10 08:55:35.84	94.16	22.18	-26.5	-27.9	16.1	0.00e+00	0	42	0	547356672	13	4236
2026-01-10 08:55:38.85	93.56	22.47	-26.4	-27.6	16.2	0.00e+00	0	42	0	556793856	13	4169
2026-01-10 08:55:41.85	92.95	22.76	-26.6	-28.2	15.9	0.00e+00	0	42	0	566231040	13	4312
2026-01-10 08:55:44.86	92.33	23.06	-26.9	-28.4	15.7	0.00e+00	0	42	0	575668224	14	4257
2026-01-10 08:55:47.87	91.70	23.35	-25.9	-26.7	16.8	0.00e+00	0	42	0	585105408	13	3923
2026-01-10 08:55:50.88	91.05	23.64	-25.9	-26.5	16.8	0.00e+00	0	41	0	594542592	13	3889
2026-01-10 08:55:53.89	90.39	23.93	-26.4	-27.7	16.2	0.00e+00	0	42	0	603979776	13	4199
2026-01-10 08:55:56.90	89.72	24.22	-27.2	-29.1	15.3	0.00e+00	0	42	0	613416960	14	4460
2026-01-10 08:55:59.90	89.04	24.50	-26.3	-27.5	16.4	0.00e+00	0	42	0	622854144	13	4129
2026-01-10 08:56:02.91	88.34	24.79	-26.8	-28.6	15.8	0.00e+00	0	42	0	632291328	13	4442
2026-01-10 08:56:05.93	87.63	25.07	-26.8	-28.5	15.8	0.00e+00	0	42	0	641728512	13	4404
2026-01-10 08:56:08.93	86.91	25.36	-26.5	-27.9	16.2	0.00e+00	0	42	0	651165696	13	4241
2026-01-10 08:56:11.94	86.18	25.64	-26.6	-28.1	16.1	0.00e+00	0	42	0	660602880	13	4286
2026-01-10 08:56:14.93	85.44	25.91	-26.4	-27.8	16.2	0.00e+00	0	42	0	670040064	13	4201
2026-01-10 08:56:17.94	84.68	26.19	-26.6	-28.2	16.1	0.00e+00	0	42	0	679477248	13	4314
2026-01-10 08:56:20.95	83.90	26.46	-26.7	-28.4	15.9	0.00e+00	0	42	0	688914432	13	4388
2026-01-10 08:56:23.95	83.12	26.73	-26.8	-28.1	15.8	0.00e+00	0	42	0	698351616	14	4173
2026-01-10 08:56:26.96	82.32	27.00	-26.9	-28.2	15.8	0.00e+00	0	42	0	707788800	14	4213
2026-01-10 08:56:29.97	81.50	27.26	-26.8	-28.0	15.9	0.00e+00	0	42	0	716177408	14	4150
2026-01-10 08:56:32.97	80.68	27.52	-26.9	-28.3	15.8	1.50e-06	0	42	0	725614592	14	4235
2026-01-10 08:56:35.99	79.83	27.77	-27.2	-28.9	15.5	3.00e-06	0	42	0	736100352	14	4399
2026-01-10 08:56:39.00	78.98	28.02	-26.9	-27.7	15.9	6.80e-06	0	42	0	744488960	15	3970
2026-01-10 08:56:42.02	78.11	28.26	-26.9	-28.2	15.9	4.50e-06	0	42	0	753926144	14	4195
2026-01-10 08:56:45.03	77.23	28.50	-26.8	-28.2	15.9	3.80e-06	0	42	0	763363328	14	4190
2026-01-10 08:56:48.03	76.34	28.74	-27.0	-28.5	15.7	6.80e-06	0	42	0	772800512	14	4291
2026-01-10 08:56:51.05	75.43	28.96	-26.8	-28.2	15.9	6.10e-06	0	42	0	782237696	14	4197
2026-01-10 08:56:54.05	74.51	29.18	-27.1	-28.7	15.6	6.10e-06	0	42	0	791674880	14	4345
2026-01-10 08:56:57.06	73.58	29.40	-27.2	-29.0	15.5	0.00e+00	0	42	0	801112064	14	4408
2026-01-10 08:57:00.07	72.63	29.61	-27.4	-29.3	15.3	8.30e-06	0	42	0	810549248	14	4516
2026-01-10 08:57:03.08	71.68	29.80	-27.5	-29.1	15.2	0.00e+00	0	42	0	819986432	15	4325
2026-01-10 08:57:06.09	70.71	30.00	-27.6	-29.4	14.9	7.00e-07	0	42	0	829423616	15	4431
2026-01-10 08:57:09.10	69.73	30.18	-27.2	-28.4	15.5	0.00e+00	0	42	0	838860800	15	4156
2026-01-10 08:57:12.12	68.74	30.36	-27.2	-28.5	15.5	0.00e+00	0	42	0	848297984	15	4176
2026-01-10 08:57:15.13	67.73	30.52	-27.2	-28.4	15.6	0.00e+00	0	42	0	857735168	15	4133
2026-01-10 08:57:18.13	66.73	30.68	-27.2	-28.6	15.4	0.00e+00	0	42	0	867172352	15	4189
2026-01-10 08:57:21.13	65.71	30.83	-27.4	-28.9	15.2	0.00e+00	0	42	0	876609536	15	4290
2026-01-10 08:57:24.12	64.69	30.97	-27.7	-29.5	14.9	0.00e+00	0	42	0	886046720	15	4470
2026-01-10 08:57:27.14	63.64	31.10	-27.7	-29.7	14.8	0.00e+00	0	42	0	895483904	15	4509
2026-01-10 08:57:30.13	62.61	31.21	-28.1	-30.0	14.5	7.00e-07	0	42	0	904921088	16	4462
2026-01-10 08:57:33.14	61.55	31.32	-27.8	-29.4	14.9	0.00e+00	0	42	0	914358272	16	4301
2026-01-10 08:57:36.15	60.49	31.42	-27.5	-28.7	15.3	0.00e+00	0	42	0	923795456	16	4103
2026-01-10 08:57:39.15	59.43	31.51	-27.7	-29.0	15.1	7.00e-07	0	42	0	933232640	16	4195
2026-01-10 08:57:42.15	58.36	31.58	-28.1	-30.1	14.5	0.00e+00	0	42	0	942669824	16	4504
2026-01-10 08:57:45.16	57.28	31.65	-27.7	-29.1	15.0	0.00e+00	0	42	0	952107008	16	4234
2026-01-10 08:57:48.17	56.20	31.70	-27.7	-29.0	15.1	0.00e+00	0	42	0	961544192	16	4194
2026-01-10 08:57:51.17	55.12	31.74	-27.8	-29.3	14.9	0.00e+00	0	42	0	969932800	16	4275
2026-01-10 08:57:54.18	54.04	31.77	-27.9	-29.5	14.8	0.00e+00	0	42	0	979369984	16	4326
2026-01-10 08:57:57.19	52.95	31.79	-27.9	-29.5	14.8	0.00e+00	0	42	0	989855744	16	4327
2026-01-10 08:58:00.18	51.87	31.80	-27.9	-29.6	14.8	7.00e-07	0	42	0	998244352	16	4360
2026-01-10 08:58:03.19	50.78	31.79	-27.8	-29.2	15.0	0.00e+00	0	42	0	1007681536	16	4260
2026-01-10 08:58:06.20	49.70	31.78	-27.7	-29.0	15.1	0.00e+00	0	42	0	1017118720	16	4190
2026-01-10 08:58:09.21	48.61	31.75	-27.8	-29.3	14.9	7.00e-07	0	42	0	1026555904	16	4280
2026-01-10 08:58:12.21	47.53	31.71	-27.5	-28.6	15.4	0.00e+00	0	42	0	1035993088	16	4079
2026-01-10 08:58:15.21	46.45	31.66	-28.1	-29.9	14.6	0.00e+00	0	42	0	1045430272	16	4453
2026-01-10 08:58:18.23	45.37	31.60	-27.0	-28.0	15.8	0.00e+00	0	42	0	1054867456	15	4037
2026-01-10 08:58:21.23	44.31	31.52	-27.1	-28.2	15.7	0.00e+00	0	42	0	1064304640	15	4078
2026-01-10 08:58:24.23	43.24	31.44	-27.2	-28.4	15.5	0.00e+00	0	42	0	1073741824	15	4149
2026-01-10 08:58:27.24	42.18	31.35	-27.1	-28.2	15.7	0.00e+00	0	42	0	1083179008	15	4099
2026-01-10 08:58:30.24	41.13	31.24	-27.2	-28.4	15.5	0.00e+00	0	42	0	1092616192	15	4157
2026-01-10 08:58:33.24	40.09	31.12	-27.5	-29.1	15.2	0.00e+00	0	42	0	1102053376	15	4326
2026-01-10 08:58:36.25	39.05	31.00	-27.5	-29.2	15.1	0.00e+00	0	42	0	1111490560	15	4352
2026-01-10 08:58:39.26	38.02	30.86	-27.5	-29.1	15.2	0.00e+00	0	42	0	1120927744	15	4334
2026-01-10 08:58:42.26	37.00	30.72	-26.9	-27.7	16.0	0.00e+00	0	42	0	1130364928	15	3953
2026-01-10 08:58:45.27	35.99	30.56	-27.5	-29.2	15.1	0.00e+00	0	42	0	1139802112	15	4358
2026-01-10 08:58:48.27	34.99	30.40	-27.0	-27.9	15.8	0.00e+00	0	42	0	1149239296	15	4023
2026-01-10 08:58:51.26	34.01	30.22	-26.9	-27.8	15.9	0.00e+00	0	42	0	1158676480	15	3990
2026-01-10 08:58:54.27	33.03	30.04	-27.5	-29.2	15.1	0.00e+00	0	42	0	1168113664	15	4353
2026-01-10 08:58:57.26	32.07	29.85	-27.7	-29.5	14.9	0.00e+00	0	42	0	1176502272	15	4457
2026-01-10 08:59:00.28	31.11	29.66	-28.0	-29.7	14.7	0.00e+00	0	42	0	1186988032	16	4385
2026-01-10 08:59:03.27	30.17	29.45	-28.8	-31.3	13.4	1.06e-05	0	42	0	1195376640	17	4765
2026-01-10 08:59:06.28	29.24	29.24	-29.2	-31.6	13.0	2.67e-05	0	42	0	1204813824	18	4736
2026-01-10 08:59:09.29	28.32	29.02	-28.3	-30.3	14.3	1.50e-06	0	42	0	1214251008	16	4577
2026-01-10 08:59:12.30	27.41	28.80	-28.8	-30.6	13.5	2.44e-05	0	42	0	1223688192	18	4418
2026-01-10 08:59:15.31	26.51	28.57	-28.8	-30.7	13.7	3.00e-06	0	42	0	1233125376	18	4447
2026-01-10 08:59:18.33	25.63	28.33	-28.8	-31.2	13.8	1.06e-05	0	42	0	1242562560	17	4724
2026-01-10 08:59:21.33	24.76	28.09	-29.3	-31.8	13.0	1.29e-05	0	42	0	1251999744	18	4806
2026-01-10 08:59:24.34	23.91	27.84	-27.8	-28.8	14.9	0.00e+00	0	42	0	1261436928	17	4043
2026-01-10 08:59:27.35	23.07	27.59	-26.9	-27.7	15.9	0.00e+00	0	42	0	1270874112	15	3967
2026-01-10 08:59:30.35	22.24	27.33	-26.7	-27.9	16.0	0.00e+00	0	42	0	1280311296	14	4124
2026-01-10 08:59:33.35	21.43	27.07	-26.2	-27.1	16.8	0.00e+00	0	42	0	1289748480	13	4014
2026-01-10 08:59:36.34	20.64	26.81	-25.9	-27.1	17.0	0.00e+00	0	42	0	1299185664	12	4122
2026-01-10 08:59:39.35	19.85	26.54	-26.5	-28.4	16.3	0.00e+00	0	42	0	1308622848	12	4488
2026-01-10 08:59:42.37	19.07	26.27	-26.6	-28.2	16.1	0.00e+00	0	42	0	1318060032	13	4308
2026-01-10 08:59:45.38	18.31	26.00	-26.4	-27.8	16.3	0.00e+00	0	42	0	1327497216	13	4199
2026-01-10 08:59:48.38	17.56	25.72	-26.6	-28.2	16.1	0.00e+00	0	42	0	1336934400	13	4299
2026-01-10 08:59:51.39	16.83	25.44	-26.8	-28.6	15.8	0.00e+00	0	42	0	1346371584	13	4436
2026-01-10 08:59:54.39	16.11	25.16	-26.7	-28.5	15.8	0.00e+00	0	42	0	1355808768	13	4419
2026-01-10 08:59:57.39	15.40	24.88	-26.9	-28.9	15.6	0.00e+00	0	42	0	1365245952	13	4544
2026-01-10 09:00:00.40	14.71	24.60	-26.8	-28.5	15.8	0.00e+00	0	42	0	1374683136	13	4402
2026-01-10 09:00:03.40	14.03	24.31	-26.8	-28.6	15.8	0.00e+00	0	42	0	1384120320	13	4417
2026-01-10 09:00:06.40	13.36	24.03	-27.0	-28.5	15.6	0.00e+00	0	42	0	1393557504	14	4302
2026-01-10 09:00:09.39	12.70	23.74	-27.1	-28.8	15.4	0.00e+00	0	42	0	1401946112	14	4379
2026-01-10 09:00:12.39	12.06	23.45	-26.7	-27.9	15.9	0.00e+00	0	42	0	1411383296	14	4134
2026-01-10 09:00:15.39	11.43	23.16	-27.0	-28.5	15.7	0.00e+00	0	42	0	1420820480	14	4277
2026-01-10 09:00:18.39	10.81	22.88	-26.9	-28.2	16.0	0.00e+00	0	42	0	1430257664	14	4195
2026-01-10 09:00:21.39	10.20	22.59	-26.9	-28.3	15.9	0.00e+00	0	42	0	1439694848	14	4218
2026-01-10 09:00:24.40	9.60	22.30	-26.9	-28.2	15.9	0.00e+00	0	42	0	1449132032	14	4202
2026-01-10 09:00:27.40	9.01	22.01	-26.8	-28.1	16.1	0.00e+00	0	42	0	1458569216	14	4178
2026-01-10 09:00:30.41	8.44	21.72	-27.0	-28.6	15.8	0.00e+00	0	42	0	1468006400	14	4286
2026-01-10 09:00:33.43	7.87	21.42	-27.2	-28.4	15.5	0.00e+00	0	42	0	1477443584	15	4138
2026-01-10 09:00:36.43	7.31	21.14	-27.4	-28.8	15.2	0.00e+00	0	42	0	1486880768	15	4272
2026-01-10 09:00:39.43	6.77	20.85	-27.3	-28.7	15.3	0.00e+00	0	42	0	1496317952	15	4240
2026-01-10 09:00:42.43	6.24	20.56	-27.2	-28.5	15.3	0.00e+00	0	42	0	1505755136	15	4196
2026-01-10 09:00:45.44	5.71	20.27	-26.8	-27.7	15.8	0.00e+00	0	42	0	1515192320	15	3962
2026-01-10 09:00:48.46	5.20	19.98	-26.5	-27.5	16.1	0.00e+00	0	42	0	1524629504	14	4013
2026-01-10 09:00:51.46	4.69	19.70	-26.6	-27.7	16.0	0.00e+00	0	42	0	1534066688	14	4075
2026-01-10 09:00:54.46	4.20	19.41	-27.1	-28.7	15.5	0.00e+00	0	42	0	1543503872	14	4344
2026-01-10 09:00:57.47	3.71	19.13	-26.6	-27.6	16.2	0.00e+00	0	42	0	1552941056	14	4038
2026-01-10 09:01:00.47	3.24	18.85	-26.6	-27.6	16.1	0.00e+00	0	42	0	1562378240	14	4045
2026-01-10 09:01:03.49	2.77	18.56	-26.9	-28.4	15.7	0.00e+00	0	42	0	1571815424	14	4257
2026-01-10 09:01:06.49	2.31	18.28	-27.1	-28.8	15.5	0.00e+00	0	42	0	1581252608	14	4364
2026-01-10 09:01:09.49	1.86	18.01	-27.3	-29.1	15.3	0.00e+00	0	42	0	1590689792	14	4449
2026-01-10 09:01:12.50	1.42	17.73	-27.1	-28.8	15.4	0.00e+00	0	42	0	1600126976	14	4371
2026-01-10 09:01:15.51	0.98	17.45	-27.5	-29.1	15.1	0.00e+00	0	42	0	1608515584	15	4337
2026-01-10 09:01:18.51	0.56	17.18	-27.4	-28.9	15.2	0.00e+00	0	42	0	1617952768	15	4269
2026-01-10 09:01:21.51	0.14	16.90	-27.2	-28.5	15.3	0.00e+00	0	42	0	1627389952	15	4172
2026-01-10 09:01:24.51	359.73	16.63	-27.4	-29.0	15.2	0.00e+00	0	42	0	1636827136	15	4302
2026-01-10 09:01:27.51	359.33	16.36	-27.3	-28.8	15.1	0.00e+00	0	42	0	1646264320	15	4272
2026-01-10 09:01:30.51	358.94	16.09	-27.0	-28.0	15.6	0.00e+00	0	42	0	1655701504	15	4048
2026-01-10 09:01:33.53	358.55	15.82	-27.1	-28.3	15.4	0.00e+00	0	42	0	1665138688	15	4117
2026-01-10 09:01:36.52	358.17	15.56	-27.3	-28.8	15.0	0.00e+00	0	42	0	1674575872	15	4260
2026-01-10 09:01:39.53	357.79	15.30	-27.5	-29.3	14.8	0.00e+00	0	42	0	1684013056	15	4417
2026-01-10 09:01:42.54	357.43	15.03	-27.6	-29.6	14.5	0.00e+00	0	42	0	1693450240	15	4490
2026-01-10 09:01:45.55	357.06	14.77	-27.6	-29.4	14.7	0.00e+00	0	42	0	1702887424	15	4434
2026-01-10 09:01:48.56	356.71	14.51	-27.6	-29.5	14.6	0.00e+00	0	42	0	1712324608	15	4460
2026-01-10 09:01:51.57	356.36	14.25	-27.6	-29.5	14.5	2.20e-06	0	42	0	1721761792	15	4483
2026-01-10 09:01:54.57	356.02	14.00	-28.0	-30.0	14.2	3.00e-06	0	42	0	1731198976	16	4488
2026-01-10 09:01:57.59	355.68	13.74	-28.1	-30.0	14.1	0.00e+00	0	42	0	1740636160	16	4506
2026-01-10 09:02:00.59	355.35	13.49	-28.1	-30.0	14.0	2.20e-06	0	42	0	1750073344	16	4521
2026-01-10 09:02:03.60	355.03	13.24	-28.1	-30.2	13.9	1.50e-06	0	42	0	1759510528	16	4575
2026-01-10 09:02:06.60	354.71	12.99	-28.2	-30.5	13.8	7.60e-06	0	42	0	1768947712	16	4648
2026-01-10 09:02:09.60	354.40	12.74	-28.0	-29.9	14.1	7.00e-07	0	42	0	1778384896	16	4470
2026-01-10 09:02:12.62	354.09	12.50	-28.0	-29.8	14.0	3.00e-06	0	42	0	1787822080	16	4460
2026-01-10 09:02:15.61	353.79	12.25	-27.9	-29.6	14.2	1.50e-06	0	42	0	1797259264	16	4397
2026-01-10 09:02:18.62	353.49	12.01	-28.0	-29.9	14.0	3.80e-06	0	42	0	1806696448	16	4491
2026-01-10 09:02:21.63	353.20	11.77	-28.3	-30.6	13.6	8.30e-06	0	42	0	1816133632	16	4702
2026-01-10 09:02:24.63	352.91	11.53	-28.4	-30.4	13.4	1.52e-05	0	42	0	1825570816	17	4537
2026-01-10 09:02:27.65	352.63	11.29	-28.6	-30.8	13.3	1.60e-05	0	42	0	1833959424	17	4634
2026-01-10 09:02:30.66	352.35	11.05	-28.6	-30.9	13.2	2.44e-05	0	42	0	1843396608	17	4678
2026-01-10 09:02:33.65	352.08	10.82	-28.5	-30.7	13.2	1.83e-05	0	42	0	1852833792	17	4605
2026-01-10 09:02:36.66	351.81	10.59	-28.4	-30.5	13.2	1.90e-05	0	42	0	1862270976	17	4568
2026-01-10 09:02:39.67	351.54	10.35	-28.8	-31.3	13.0	3.28e-05	0	42	0	1871708160	17	4801
2026-01-10 09:02:42.67	351.28	10.12	-28.8	-30.8	12.9	4.65e-05	0	42	0	1881145344	18	4540
2026-01-10 09:02:45.69	351.03	9.89	-28.9	-31.0	12.9	5.03e-05	0	42	0	1890582528	18	4603
2026-01-10 09:02:48.69	350.77	9.67	-29.0	-31.3	12.6	1.69e-04	0	42	0	1900019712	18	4700
2026-01-10 09:02:51.70	350.53	9.44	-28.4	-29.9	13.4	1.29e-05	0	42	0	1909456896	18	4283
2026-01-10 09:02:54.71	350.28	9.22	-28.7	-30.5	13.0	3.96e-05	0	42	0	1918894080	18	4469
2026-01-10 09:02:57.72	350.04	8.99	-28.8	-30.9	12.8	5.56e-05	0	42	0	1928331264	18	4562
2026-01-10 09:03:00.70	349.81	8.78	-28.6	-30.5	13.0	3.35e-05	0	42	0	1937768448	18	4443
2026-01-10 09:03:03.72	349.57	8.56	-29.0	-31.3	12.5	7.78e-05	0	42	0	1947205632	18	4719
2026-01-10 09:03:06.72	349.35	8.34	-28.4	-30.1	13.1	3.43e-05	0	42	0	1956642816	18	4329
2026-01-10 09:03:09.73	349.12	8.12	-28.7	-30.7	12.8	6.25e-05	0	42	0	1966080000	18	4510
2026-01-10 09:03:12.73	348.90	7.91	-28.8	-30.8	12.6	7.85e-05	0	42	0	1975517184	18	4577
2026-01-10 09:03:15.72	348.68	7.69	-28.8	-31.0	12.4	1.46e-04	0	42	0	1984954368	18	4623
2026-01-10 09:03:18.73	348.47	7.48	-28.8	-31.0	12.3	1.80e-04	0	42	0	1994391552	18	4642
2026-01-10 09:03:21.74	348.26	7.27	-28.7	-30.7	12.4	1.05e-04	0	42	0	2003828736	18	4564
2026-01-10 09:03:24.74	348.05	7.06	-32.7	-43.2	3.8	9.52e-01	0	42	104	2012217344	25	11985
2026-01-10 09:03:27.75	347.84	6.85	-33.6	-45.6	3.8	1.49e+00	0	42	104	2012217344	27	14263

#Closed at: 2026-01-10 09:03:28
#Recorded file [2012 MB]: D:/data/31010_260110_115240.dat