passes_logs/2026/01/10/R2M6_AANII_01/R2M6_AANII_01__20260110_152746_FENGYUN_3E_rec.log

#Pass ID: 20260110_152746_FENGYUN 3E
#Satellite: FENGYUN 3E
#Configuration: FENGYUN 3E
#almurnet v.1.7.20240730
#Start time: 2026-01-10 15:27:48

#Version: 2.2.20231116
#Station: R2M6_AANII_01
#Location: 30.233357 lon 59.946436 lat
#TLE: 1 49008U 21062A   26009.86154543 -.00000176  00000+0 -62220-4 0  9996
#TLE: 2 49008  98.7486  15.0498 0001782 147.3871 212.7416 14.19883371234110

#Time	Az	El	Level	Level2	SNR	BER	BlckErr	Temp	State	Recorded	gain1	gain2
2026-01-10 15:27:48.36	187.58	7.13	-27.4	-29.7	5.5	7.64e-01	0	40	0	0	14	4667
2026-01-10 15:27:51.37	187.74	7.36	-27.9	-29.8	10.6	5.76e-03	0	40	0	7340032	16	4472
2026-01-10 15:27:54.39	187.91	7.58	-26.5	-27.4	12.5	1.77e-04	0	40	0	28311552	14	4014
2026-01-10 15:27:57.41	188.07	7.81	-26.2	-27.3	12.9	8.12e-05	0	40	0	50331648	13	4075
2026-01-10 15:28:00.43	188.24	8.04	-25.9	-26.7	13.2	2.28e-05	0	40	0	72351744	13	3929
2026-01-10 15:28:03.45	188.42	8.27	-25.9	-27.2	13.2	1.83e-05	0	40	0	94371840	12	4155
2026-01-10 15:28:06.47	188.59	8.50	-25.6	-26.4	13.7	5.70e-06	0	40	0	116391936	12	3962
2026-01-10 15:28:09.48	188.77	8.73	-25.8	-27.0	13.4	1.60e-05	0	40	0	137363456	12	4100
2026-01-10 15:28:12.49	188.95	8.97	-25.4	-26.3	14.1	4.50e-06	0	40	0	159383552	11	4037
2026-01-10 15:28:15.48	189.13	9.21	-25.5	-26.8	13.9	6.80e-06	0	40	0	181403648	11	4156
2026-01-10 15:28:18.50	189.32	9.45	-25.7	-27.1	13.7	3.40e-06	0	40	0	202375168	11	4240
2026-01-10 15:28:21.52	189.51	9.69	-25.5	-26.7	14.0	2.20e-06	0	40	0	224395264	11	4135
2026-01-10 15:28:24.54	189.70	9.93	-25.7	-27.1	13.7	6.80e-06	0	41	0	246415360	11	4252
2026-01-10 15:28:27.56	189.89	10.18	-25.5	-26.6	14.0	2.20e-06	0	41	0	268435456	11	4123
2026-01-10 15:28:30.58	190.09	10.43	-25.4	-26.5	14.1	1.10e-06	0	41	0	290455552	11	4085
2026-01-10 15:28:33.60	190.29	10.68	-25.2	-26.0	14.5	0.00e+00	0	41	0	311427072	11	3946
2026-01-10 15:28:36.61	190.50	10.93	-25.3	-26.3	14.3	3.40e-06	0	41	0	333447168	11	4036
2026-01-10 15:28:39.63	190.71	11.19	-25.3	-26.3	14.3	2.20e-06	0	41	0	355467264	11	4056
2026-01-10 15:28:42.64	190.92	11.45	-25.3	-26.4	14.2	3.40e-06	0	41	0	377487360	11	4074
2026-01-10 15:28:45.66	191.13	11.71	-25.0	-25.6	14.6	1.10e-06	0	41	0	399507456	11	3883
2026-01-10 15:28:48.68	191.35	11.97	-25.0	-26.3	14.6	0.00e+00	0	41	0	420478976	10	4157
2026-01-10 15:28:51.69	191.57	12.24	-24.9	-26.1	14.7	0.00e+00	0	41	0	442499072	10	4114
2026-01-10 15:28:54.72	191.80	12.51	-24.7	-25.6	15.0	1.10e-06	0	41	0	464519168	10	3983
2026-01-10 15:28:57.74	192.03	12.78	-24.8	-25.7	14.9	0.00e+00	0	41	0	486539264	10	4020
2026-01-10 15:29:00.75	192.27	13.05	-24.8	-25.7	14.9	0.00e+00	0	41	0	507510784	10	4022
2026-01-10 15:29:03.78	192.51	13.33	-24.7	-25.5	15.0	0.00e+00	0	41	0	529530880	10	3969
2026-01-10 15:29:06.80	192.75	13.61	-24.6	-25.7	15.2	0.00e+00	0	41	0	551550976	9	4124
2026-01-10 15:29:09.81	193.00	13.89	-24.2	-24.9	15.6	0.00e+00	0	41	0	573571072	9	3918
2026-01-10 15:29:12.82	193.25	14.17	-24.4	-25.3	15.5	0.00e+00	0	41	0	594542592	9	4002
2026-01-10 15:29:15.85	193.51	14.46	-24.2	-24.9	15.7	0.00e+00	0	41	0	616562688	9	3909
2026-01-10 15:29:18.86	193.77	14.75	-24.3	-25.1	15.6	0.00e+00	0	41	0	638582784	9	3962
2026-01-10 15:29:21.87	194.03	15.04	-24.5	-25.5	15.4	0.00e+00	0	42	0	660602880	9	4061
2026-01-10 15:29:24.89	194.31	15.34	-24.2	-24.9	15.8	0.00e+00	0	41	0	681574400	9	3911
2026-01-10 15:29:27.91	194.58	15.64	-24.2	-25.0	15.7	0.00e+00	0	41	0	703594496	9	3925
2026-01-10 15:29:30.93	194.87	15.94	-24.2	-24.9	15.8	0.00e+00	0	42	0	725614592	9	3910
2026-01-10 15:29:33.95	195.15	16.24	-24.3	-25.2	15.7	0.00e+00	0	41	0	747634688	9	3974
2026-01-10 15:29:36.96	195.45	16.55	-24.0	-24.9	16.0	0.00e+00	0	42	0	769654784	8	4022
2026-01-10 15:29:39.98	195.75	16.86	-23.9	-24.7	16.2	0.00e+00	0	42	0	790626304	8	3962
2026-01-10 15:29:42.99	196.05	17.18	-23.6	-24.1	16.5	0.00e+00	0	42	0	812646400	8	3815
2026-01-10 15:29:46.01	196.36	17.50	-23.5	-23.9	16.5	2.20e-06	0	42	0	834666496	8	3778
2026-01-10 15:29:49.04	196.68	17.82	-23.4	-24.1	16.7	1.10e-06	0	42	0	856686592	7	3922
2026-01-10 15:29:52.05	197.01	18.14	-23.4	-24.2	16.7	0.00e+00	0	42	0	878706688	7	3936
2026-01-10 15:29:55.06	197.34	18.47	-23.2	-23.8	16.9	0.00e+00	0	42	0	899678208	7	3842
2026-01-10 15:29:58.07	197.68	18.80	-23.3	-24.0	16.8	0.00e+00	0	42	0	921698304	7	3877
2026-01-10 15:30:01.09	198.02	19.14	-23.3	-23.9	16.9	0.00e+00	0	42	0	943718400	7	3858
2026-01-10 15:30:04.11	198.38	19.48	-24.0	-25.0	16.1	0.00e+00	0	42	0	965738496	8	4018
2026-01-10 15:30:07.13	198.74	19.82	-23.5	-23.9	16.6	0.00e+00	0	42	0	986710016	8	3775
2026-01-10 15:30:10.15	199.11	20.17	-23.3	-24.0	16.8	0.00e+00	0	42	0	1008730112	7	3908
2026-01-10 15:30:13.16	199.48	20.52	-23.3	-23.9	16.8	0.00e+00	0	42	0	1030750208	7	3890
2026-01-10 15:30:16.17	199.87	20.87	-23.2	-23.8	17.0	0.00e+00	0	42	0	1052770304	7	3858
2026-01-10 15:30:19.19	200.26	21.23	-23.0	-23.8	17.2	0.00e+00	0	42	0	1073741824	6	3957
2026-01-10 15:30:22.21	200.67	21.59	-23.1	-24.0	17.1	0.00e+00	0	42	0	1095761920	6	4001
2026-01-10 15:30:25.22	201.08	21.96	-23.3	-24.6	16.8	0.00e+00	0	42	0	1117782016	6	4149
2026-01-10 15:30:28.24	201.50	22.33	-23.3	-24.4	16.9	0.00e+00	0	42	0	1139802112	6	4110
2026-01-10 15:30:31.25	201.93	22.70	-23.2	-23.8	16.9	0.00e+00	0	42	0	1161822208	7	3862
2026-01-10 15:30:34.28	202.38	23.08	-23.0	-23.4	17.2	0.00e+00	0	42	0	1182793728	7	3764
2026-01-10 15:30:37.30	202.83	23.46	-23.1	-23.6	17.1	0.00e+00	0	42	0	1204813824	7	3798
2026-01-10 15:30:40.32	203.29	23.84	-22.9	-23.7	17.3	0.00e+00	0	42	0	1226833920	6	3934
2026-01-10 15:30:43.33	203.77	24.23	-23.0	-23.8	17.2	0.00e+00	0	42	0	1247805440	6	3962
2026-01-10 15:30:46.35	204.25	24.62	-22.9	-23.7	17.3	0.00e+00	0	42	0	1269825536	6	3946
2026-01-10 15:30:49.36	204.75	25.02	-22.8	-23.5	17.3	0.00e+00	0	42	0	1291845632	6	3902
2026-01-10 15:30:52.37	205.26	25.41	-23.0	-23.8	17.2	0.00e+00	0	42	0	1313865728	6	3978
2026-01-10 15:30:55.39	205.78	25.82	-22.7	-23.3	17.5	0.00e+00	0	42	0	1334837248	6	3852
2026-01-10 15:30:58.41	206.32	26.22	-22.6	-23.1	17.6	0.00e+00	0	42	0	1356857344	6	3817
2026-01-10 15:31:01.44	206.87	26.64	-22.4	-23.2	17.8	0.00e+00	0	42	0	1378877440	5	3935
2026-01-10 15:31:04.46	207.44	27.05	-22.3	-22.8	18.1	0.00e+00	0	42	0	1400897536	5	3834
2026-01-10 15:31:07.48	208.02	27.47	-22.1	-22.4	18.3	0.00e+00	0	42	0	1422917632	5	3721
2026-01-10 15:31:10.49	208.61	27.89	-22.2	-22.6	18.1	0.00e+00	0	42	0	1443889152	5	3789
2026-01-10 15:31:13.52	209.22	28.31	-22.2	-22.7	18.1	0.00e+00	0	42	0	1465909248	5	3802
2026-01-10 15:31:16.55	209.85	28.74	-22.4	-23.1	17.8	0.00e+00	0	42	0	1487929344	5	3918
2026-01-10 15:31:19.56	210.49	29.17	-22.3	-23.0	17.9	0.00e+00	0	42	0	1509949440	5	3899
2026-01-10 15:31:22.59	211.15	29.60	-23.3	-24.0	17.9	0.00e+00	0	42	0	1531969536	6	3873
2026-01-10 15:31:25.61	211.83	30.04	-23.3	-23.5	17.9	0.00e+00	0	42	0	1553989632	7	3649
2026-01-10 15:31:28.62	212.52	30.47	-23.1	-22.9	18.3	0.00e+00	0	42	0	1574961152	7	3522
2026-01-10 15:31:31.65	213.24	30.91	-23.0	-23.1	18.4	0.00e+00	0	42	0	1596981248	6	3678
2026-01-10 15:31:34.67	213.97	31.35	-23.2	-23.6	18.2	0.00e+00	0	42	0	1619001344	6	3785
2026-01-10 15:31:37.68	214.73	31.80	-23.0	-23.1	18.4	0.00e+00	0	42	0	1641021440	6	3676
2026-01-10 15:31:40.70	215.50	32.24	-22.8	-22.7	18.6	0.00e+00	0	42	0	1663041536	6	3575
2026-01-10 15:31:43.72	216.29	32.68	-22.6	-22.5	18.8	0.00e+00	0	42	0	1684013056	6	3530
2026-01-10 15:31:46.74	217.11	33.13	-22.9	-23.1	18.5	0.00e+00	0	42	0	1706033152	6	3661
2026-01-10 15:31:49.76	217.95	33.57	-22.8	-22.7	18.6	0.00e+00	0	42	0	1728053248	6	3581
2026-01-10 15:31:52.78	218.81	34.02	-23.0	-23.3	18.3	0.00e+00	0	42	0	1750073344	6	3701
2026-01-10 15:31:55.79	219.69	34.46	-23.0	-23.2	18.4	0.00e+00	0	42	0	1771044864	6	3679
2026-01-10 15:31:58.81	220.60	34.90	-22.9	-22.9	18.6	0.00e+00	0	42	0	1793064960	6	3628
2026-01-10 15:32:01.82	221.53	35.34	-22.8	-22.8	18.6	0.00e+00	0	42	0	1815085056	6	3609
2026-01-10 15:32:04.83	222.49	35.78	-22.8	-22.8	18.6	0.00e+00	0	42	0	1837105152	6	3613
2026-01-10 15:32:07.85	223.47	36.21	-22.6	-22.4	18.8	0.00e+00	0	42	0	1859125248	6	3505
2026-01-10 15:32:10.86	224.48	36.64	-22.5	-22.3	18.9	0.00e+00	0	42	0	1880096768	6	3482
2026-01-10 15:32:13.87	225.51	37.07	-22.4	-22.0	19.0	0.00e+00	0	42	0	1902116864	6	3422
2026-01-10 15:32:16.89	226.57	37.49	-22.8	-22.7	18.7	0.00e+00	0	42	0	1924136960	6	3585
2026-01-10 15:32:19.90	227.66	37.90	-23.2	-23.6	18.2	0.00e+00	0	42	0	1946157056	6	3771
2026-01-10 15:32:22.93	228.78	38.31	-23.1	-23.5	18.3	0.00e+00	0	42	0	1967128576	6	3756
2026-01-10 15:32:25.94	229.92	38.71	-22.9	-23.1	18.5	0.00e+00	0	42	0	1989148672	6	3666
2026-01-10 15:32:28.96	231.09	39.10	-23.4	-24.0	18.0	0.00e+00	0	42	0	2011168768	6	3878
2026-01-10 15:32:31.97	232.29	39.49	-22.9	-23.0	18.6	0.00e+00	0	42	0	2032140288	6	3641
2026-01-10 15:32:34.99	233.52	39.86	-23.1	-23.5	18.3	0.00e+00	0	42	0	2054160384	6	3751
2026-01-10 15:32:38.00	234.77	40.22	-23.0	-23.3	18.4	0.00e+00	0	42	0	2076180480	6	3700
2026-01-10 15:32:41.00	236.04	40.57	-23.5	-24.2	18.0	0.00e+00	0	42	0	2098200576	6	3912
2026-01-10 15:32:44.02	237.35	40.91	-23.4	-24.0	18.0	0.00e+00	0	42	0	2119172096	6	3866
2026-01-10 15:32:47.04	238.69	41.24	-22.9	-23.1	18.6	0.00e+00	0	42	0	2141192192	6	3657
2026-01-10 15:32:50.06	240.05	41.55	-23.1	-23.5	18.3	0.00e+00	0	42	0	2163212288	6	3745
2026-01-10 15:32:53.07	241.44	41.84	-23.4	-24.0	18.1	0.00e+00	0	42	0	2185232384	6	3873
2026-01-10 15:32:56.09	242.85	42.12	-23.1	-22.9	18.3	0.00e+00	0	42	0	2206203904	7	3520
2026-01-10 15:32:59.12	244.29	42.38	-23.2	-23.2	18.2	0.00e+00	0	42	0	2228224000	7	3584
2026-01-10 15:33:02.13	245.75	42.62	-23.1	-22.9	18.4	0.00e+00	0	42	0	2250244096	7	3524
2026-01-10 15:33:05.15	247.23	42.84	-22.8	-22.8	18.6	0.00e+00	0	42	0	2272264192	6	3602
2026-01-10 15:33:08.17	248.73	43.05	-22.8	-22.8	18.7	0.00e+00	0	42	0	2294284288	6	3608
2026-01-10 15:33:11.17	250.24	43.23	-23.2	-23.6	18.3	0.00e+00	0	42	0	2315255808	6	3785
2026-01-10 15:33:14.19	251.77	43.39	-23.5	-23.8	17.9	0.00e+00	0	42	0	2337275904	7	3725
2026-01-10 15:33:17.20	253.31	43.53	-23.3	-23.5	18.1	2.20e-06	0	42	0	2359296000	7	3644
2026-01-10 15:33:20.22	254.87	43.64	-23.4	-23.6	18.0	1.10e-06	0	42	0	2381316096	7	3668
2026-01-10 15:33:23.24	256.44	43.74	-23.2	-23.2	18.3	2.20e-06	0	42	0	2402287616	7	3578
2026-01-10 15:33:26.26	258.02	43.81	-23.7	-24.1	17.7	0.00e+00	0	42	0	2424307712	7	3795
2026-01-10 15:33:29.28	259.60	43.85	-23.2	-23.2	18.3	2.20e-06	0	42	0	2446327808	7	3584
2026-01-10 15:33:32.31	261.19	43.88	-23.3	-23.3	18.1	1.10e-06	0	42	0	2468347904	7	3618
2026-01-10 15:33:35.33	262.78	43.87	-23.6	-24.1	17.8	1.10e-06	0	42	0	2490368000	7	3774
2026-01-10 15:33:38.34	264.36	43.85	-23.7	-24.1	17.7	0.00e+00	0	42	0	2511339520	7	3792
2026-01-10 15:33:41.36	265.94	43.80	-23.6	-24.0	17.8	0.00e+00	0	42	0	2533359616	7	3769
2026-01-10 15:33:44.38	267.52	43.73	-23.3	-23.4	18.2	0.00e+00	0	42	0	2555379712	7	3634
2026-01-10 15:33:47.41	269.09	43.63	-23.3	-23.3	18.2	0.00e+00	0	42	0	2577399808	7	3611
2026-01-10 15:33:50.42	270.64	43.51	-23.5	-23.9	17.9	0.00e+00	0	42	0	2599419904	7	3733
2026-01-10 15:33:53.45	272.19	43.37	-23.5	-23.8	17.9	0.00e+00	0	42	0	2620391424	7	3729
2026-01-10 15:33:56.47	273.72	43.21	-23.3	-23.4	18.2	0.00e+00	0	42	0	2642411520	7	3632
2026-01-10 15:33:59.49	275.24	43.02	-23.4	-23.7	18.1	0.00e+00	0	42	0	2664431616	7	3690
2026-01-10 15:34:02.50	276.73	42.82	-23.4	-23.6	18.1	0.00e+00	0	42	0	2686451712	7	3674
2026-01-10 15:34:05.51	278.20	42.60	-23.7	-24.2	17.7	0.00e+00	0	42	0	2708471808	7	3814
2026-01-10 15:34:08.51	279.64	42.35	-23.9	-24.6	17.6	0.00e+00	0	42	0	2729443328	7	3905
2026-01-10 15:34:11.52	281.07	42.09	-23.7	-24.1	17.8	0.00e+00	0	42	0	2751463424	7	3780
2026-01-10 15:34:14.54	282.48	41.81	-23.3	-23.4	18.2	0.00e+00	0	42	0	2772434944	7	3626
2026-01-10 15:34:17.57	283.87	41.52	-23.5	-23.7	18.0	0.00e+00	0	42	0	2794455040	7	3693
2026-01-10 15:34:20.59	285.22	41.21	-22.6	-22.4	18.9	0.00e+00	0	42	0	2816475136	6	3502
2026-01-10 15:34:23.60	286.55	40.88	-22.9	-22.9	18.7	0.00e+00	0	42	0	2838495232	6	3628
2026-01-10 15:34:26.62	287.86	40.54	-22.9	-22.9	18.7	0.00e+00	0	42	0	2860515328	6	3625
2026-01-10 15:34:29.63	289.13	40.19	-23.2	-23.6	18.3	0.00e+00	0	42	0	2881486848	6	3779
2026-01-10 15:34:32.65	290.38	39.83	-23.3	-23.9	18.2	0.00e+00	0	42	0	2903506944	6	3839
2026-01-10 15:34:35.67	291.60	39.46	-23.3	-23.9	18.1	0.00e+00	0	42	0	2925527040	6	3855
2026-01-10 15:34:38.69	292.80	39.07	-23.1	-23.5	18.4	0.00e+00	0	42	0	2947547136	6	3749
2026-01-10 15:34:41.70	293.96	38.68	-22.9	-23.0	18.6	0.00e+00	0	42	0	2969567232	6	3636
2026-01-10 15:34:44.71	295.10	38.28	-22.7	-22.6	18.9	0.00e+00	0	42	0	2990538752	6	3549
2026-01-10 15:34:47.73	296.21	37.87	-22.9	-23.1	18.6	0.00e+00	0	42	0	3012558848	6	3654
2026-01-10 15:34:50.75	297.29	37.46	-22.9	-23.0	18.6	0.00e+00	0	42	0	3034578944	6	3646
2026-01-10 15:34:53.76	298.34	37.04	-22.9	-23.1	18.6	0.00e+00	0	42	0	3056599040	6	3657
2026-01-10 15:34:56.78	299.37	36.62	-22.9	-22.9	18.2	0.00e+00	0	42	0	3077570560	6	3627
2026-01-10 15:34:59.79	300.37	36.19	-22.8	-22.8	18.7	0.00e+00	0	42	0	3099590656	6	3589
2026-01-10 15:35:02.81	301.35	35.76	-22.9	-22.9	18.7	0.00e+00	0	42	0	3121610752	6	3617
2026-01-10 15:35:05.83	302.31	35.32	-22.9	-22.9	18.6	0.00e+00	0	42	0	3143630848	6	3627
2026-01-10 15:35:08.83	303.23	34.89	-22.9	-22.9	18.6	0.00e+00	0	42	0	3164602368	6	3621
2026-01-10 15:35:11.86	304.13	34.44	-22.7	-22.7	18.8	0.00e+00	0	42	0	3186622464	6	3566
2026-01-10 15:35:14.87	305.01	34.00	-23.1	-23.3	18.4	0.00e+00	0	42	0	3208642560	6	3718
2026-01-10 15:35:17.89	305.87	33.56	-23.3	-23.9	18.1	0.00e+00	0	42	0	3230662656	6	3857
2026-01-10 15:35:20.91	306.70	33.12	-23.3	-23.8	18.2	0.00e+00	0	42	0	3252682752	6	3831
2026-01-10 15:35:23.93	307.51	32.68	-23.1	-23.4	18.4	0.00e+00	0	42	0	3273654272	6	3719
2026-01-10 15:35:26.95	308.31	32.24	-23.0	-23.2	18.5	0.00e+00	0	42	0	3295674368	6	3687
2026-01-10 15:35:29.96	309.07	31.80	-23.0	-23.2	18.5	0.00e+00	0	42	0	3317694464	6	3694
2026-01-10 15:35:32.99	309.82	31.36	-23.2	-23.7	18.3	0.00e+00	0	42	0	3339714560	6	3796
2026-01-10 15:35:36.00	310.55	30.92	-23.2	-23.6	18.2	0.00e+00	0	42	0	3361734656	6	3784
2026-01-10 15:35:39.01	311.26	30.48	-23.1	-23.5	18.3	0.00e+00	0	42	0	3382706176	6	3744
2026-01-10 15:35:42.03	311.95	30.05	-23.4	-24.0	18.0	0.00e+00	0	42	0	3404726272	6	3872
2026-01-10 15:35:45.04	312.63	29.62	-23.5	-23.7	17.9	0.00e+00	0	42	0	3425697792	7	3703
2026-01-10 15:35:48.07	313.28	29.19	-23.4	-23.6	18.0	0.00e+00	0	42	0	3447717888	7	3679
2026-01-10 15:35:51.10	313.93	28.76	-23.3	-23.3	18.1	0.00e+00	0	42	0	3469737984	7	3612
2026-01-10 15:35:54.11	314.55	28.34	-23.2	-23.1	18.2	0.00e+00	0	42	0	3491758080	7	3569
2026-01-10 15:35:57.13	315.16	27.92	-23.4	-23.5	18.0	0.00e+00	0	42	0	3513778176	7	3645
2026-01-10 15:36:00.13	315.74	27.50	-23.5	-23.7	17.9	0.00e+00	0	42	0	3534749696	7	3693
2026-01-10 15:36:03.15	316.32	27.09	-23.5	-23.8	17.9	0.00e+00	0	42	0	3556769792	7	3728
2026-01-10 15:36:06.16	316.88	26.68	-23.2	-23.1	18.2	0.00e+00	0	42	0	3578789888	7	3564
2026-01-10 15:36:09.17	317.43	26.27	-23.3	-23.4	18.0	0.00e+00	0	42	0	3600809984	7	3632
2026-01-10 15:36:12.20	317.97	25.86	-23.3	-23.3	18.1	0.00e+00	0	42	0	3622830080	7	3610
2026-01-10 15:36:15.21	318.49	25.47	-23.4	-23.5	17.9	0.00e+00	0	42	0	3643801600	7	3660
2026-01-10 15:36:18.22	319.00	25.07	-23.5	-23.7	17.8	0.00e+00	0	42	0	3665821696	7	3688
2026-01-10 15:36:21.25	319.50	24.67	-23.6	-24.1	17.6	0.00e+00	0	42	0	3687841792	7	3782
2026-01-10 15:36:24.27	319.98	24.29	-23.4	-23.6	17.9	0.00e+00	0	42	0	3709861888	7	3679
2026-01-10 15:36:27.29	320.46	23.90	-23.7	-24.2	17.6	0.00e+00	0	42	0	3730833408	7	3802
2026-01-10 15:36:30.30	320.92	23.52	-23.3	-23.3	17.9	0.00e+00	0	42	0	3752853504	7	3615
2026-01-10 15:36:33.33	321.37	23.14	-23.6	-23.9	17.7	0.00e+00	0	42	0	3774873600	7	3735
2026-01-10 15:36:36.33	321.81	22.77	-23.5	-23.9	17.7	0.00e+00	0	42	0	3796893696	7	3734
2026-01-10 15:36:39.36	322.24	22.39	-23.6	-24.0	17.6	0.00e+00	0	42	0	3818913792	7	3761
2026-01-10 15:36:42.38	322.67	22.03	-23.7	-24.2	17.5	0.00e+00	0	42	0	3839885312	7	3808
2026-01-10 15:36:45.39	323.08	21.67	-23.4	-23.6	17.8	0.00e+00	0	42	0	3861905408	7	3681
2026-01-10 15:36:48.41	323.48	21.31	-23.5	-23.9	17.7	0.00e+00	0	42	0	3883925504	7	3734
2026-01-10 15:36:51.43	323.87	20.95	-23.8	-24.4	17.3	0.00e+00	0	42	0	3905945600	7	3870
2026-01-10 15:36:54.43	324.26	20.60	-24.0	-24.7	17.1	0.00e+00	0	42	0	3926917120	7	3941
2026-01-10 15:36:57.44	324.63	20.25	-24.1	-25.0	17.0	0.00e+00	0	42	0	3948937216	7	4004
2026-01-10 15:37:00.44	325.00	19.91	-24.2	-24.7	16.9	0.00e+00	0	42	0	3970957312	8	3819
2026-01-10 15:37:03.46	325.36	19.57	-24.2	-24.7	16.9	0.00e+00	0	42	0	3992977408	8	3834
2026-01-10 15:37:06.48	325.72	19.23	-24.2	-24.7	16.9	0.00e+00	0	42	0	4013948928	8	3834
2026-01-10 15:37:09.50	326.06	18.90	-24.3	-24.9	16.8	0.00e+00	0	42	0	4035969024	8	3878
2026-01-10 15:37:12.52	326.40	18.57	-24.3	-25.0	16.7	0.00e+00	0	42	0	4057989120	8	3897
2026-01-10 15:37:15.54	326.74	18.24	-24.5	-24.8	16.6	0.00e+00	0	42	0	4078960640	9	3750
2026-01-10 15:37:18.56	327.06	17.92	-24.6	-25.1	16.4	0.00e+00	0	42	0	4100980736	9	3829
2026-01-10 15:37:21.59	327.38	17.60	-24.6	-25.1	16.4	0.00e+00	0	42	0	4123000832	9	3814
2026-01-10 15:37:24.61	327.69	17.28	-24.7	-25.3	16.3	0.00e+00	0	42	0	4145020928	9	3860
2026-01-10 15:37:27.63	328.00	16.97	-24.7	-25.4	16.2	0.00e+00	0	42	0	4167041024	9	3900
2026-01-10 15:37:30.64	328.30	16.66	-24.8	-25.6	16.1	0.00e+00	0	42	0	4188012544	9	3935
2026-01-10 15:37:33.66	328.59	16.35	-24.9	-25.7	16.0	0.00e+00	0	42	0	4210032640	9	3969
2026-01-10 15:37:36.69	328.88	16.05	-24.8	-25.6	16.0	0.00e+00	0	42	0	4232052736	9	3945
2026-01-10 15:37:39.71	329.17	15.75	-24.8	-25.6	16.0	0.00e+00	0	42	0	4254072832	9	3945
2026-01-10 15:37:42.73	329.45	15.45	-25.0	-25.9	15.9	0.00e+00	0	42	0	4276092928	9	4022
2026-01-10 15:37:45.75	329.72	15.15	-25.3	-26.2	15.4	0.00e+00	0	42	0	4297064448	10	3980
2026-01-10 15:37:48.77	329.99	14.86	-25.4	-26.3	15.3	0.00e+00	0	42	0	4319084544	10	4016
2026-01-10 15:37:51.79	330.25	14.57	-25.6	-26.4	15.1	0.00e+00	0	42	0	4341104640	11	3923
2026-01-10 15:37:54.81	330.51	14.29	-25.9	-27.0	14.7	1.10e-06	0	42	0	4363124736	11	4077
2026-01-10 15:37:57.83	330.76	14.01	-25.7	-26.6	14.9	0.00e+00	0	42	0	4385144832	11	3972
2026-01-10 15:38:00.83	331.01	13.73	-25.7	-26.5	14.9	0.00e+00	0	42	0	4406116352	11	3963
2026-01-10 15:38:03.84	331.25	13.45	-25.9	-26.9	14.7	0.00e+00	0	42	0	4428136448	11	4064
2026-01-10 15:38:06.86	331.49	13.18	-25.7	-26.6	14.8	0.00e+00	0	42	0	4450156544	11	3979
2026-01-10 15:38:09.86	331.73	12.91	-25.7	-26.5	14.9	0.00e+00	0	42	0	4472176640	11	3969
2026-01-10 15:38:12.87	331.96	12.64	-25.7	-26.4	14.9	1.10e-06	0	42	0	4493148160	11	3940
2026-01-10 15:38:15.89	332.19	12.37	-25.9	-27.0	14.6	0.00e+00	0	42	0	4515168256	11	4090
2026-01-10 15:38:18.91	332.41	12.11	-25.9	-26.9	14.6	0.00e+00	0	42	0	4537188352	11	4061
2026-01-10 15:38:21.93	332.63	11.84	-25.8	-26.8	14.6	1.10e-06	0	42	0	4559208448	11	4033
2026-01-10 15:38:24.95	332.85	11.58	-26.1	-27.3	14.3	0.00e+00	0	42	0	4581228544	11	4180
2026-01-10 15:38:27.96	333.06	11.33	-26.1	-27.0	14.1	3.40e-06	0	42	0	4602200064	12	3993
2026-01-10 15:38:30.99	333.28	11.07	-26.1	-27.0	14.2	2.20e-06	0	42	0	4624220160	12	3982
2026-01-10 15:38:34.00	333.48	10.82	-26.2	-27.2	14.0	1.10e-06	0	42	0	4646240256	12	4044
2026-01-10 15:38:37.02	333.68	10.57	-26.7	-27.8	13.3	1.02e-05	0	42	0	4668260352	13	4104
2026-01-10 15:38:40.05	333.89	10.32	-26.3	-27.0	13.8	4.50e-06	0	42	0	4689231872	13	3885
2026-01-10 15:38:43.06	334.08	10.08	-26.5	-27.4	13.5	6.80e-06	0	42	0	4711251968	13	3993
2026-01-10 15:38:46.08	334.28	9.84	-26.1	-26.4	14.1	1.10e-06	0	42	0	4733272064	13	3756
2026-01-10 15:38:49.09	334.47	9.59	-26.3	-26.9	13.8	3.40e-06	0	42	0	4754243584	13	3866
2026-01-10 15:38:52.11	334.66	9.36	-26.3	-26.9	13.8	6.80e-06	0	42	0	4776263680	13	3859
2026-01-10 15:38:55.13	334.84	9.12	-26.4	-27.2	13.6	1.94e-05	0	42	0	4798283776	13	3939
2026-01-10 15:38:58.16	335.02	8.88	-26.3	-27.0	13.6	1.37e-05	0	42	0	4820303872	13	3906
2026-01-10 15:39:01.18	335.20	8.65	-26.4	-27.2	13.5	1.37e-05	0	42	0	4842323968	13	3935
2026-01-10 15:39:04.19	335.38	8.42	-26.4	-27.2	13.5	1.02e-05	0	42	0	4863295488	13	3946
2026-01-10 15:39:07.21	335.56	8.19	-26.5	-27.4	13.3	1.17e-04	0	42	0	4885315584	13	4014
2026-01-10 15:39:10.24	335.73	7.96	-26.6	-27.7	13.1	4.12e-04	0	42	0	4907335680	13	4077
2026-01-10 15:39:13.25	335.90	7.74	-26.6	-27.7	13.1	7.95e-04	0	42	0	4929355776	13	4088
2026-01-10 15:39:16.27	336.07	7.51	-26.8	-28.2	12.8	8.79e-04	0	42	0	4951375872	13	4215
2026-01-10 15:39:19.29	336.23	7.29	-27.1	-28.7	12.4	5.53e-04	0	42	0	4972347392	13	4372
2026-01-10 15:39:22.30	336.39	7.07	-29.2	-31.5	10.5	1.36e-04	0	42	0	4994367488	17	4691
2026-01-10 15:39:25.32	336.56	6.85	-33.2	-42.9	3.8	8.46e-01	0	42	104	4995416064	26	10937

#Closed at: 2026-01-10 15:39:25
#Recorded file [4995 MB]: D:/data/31010_260110_182750.dat