passes_logs/2026/01/10/R2M6_AANII_01/R2M6_AANII_01__20260110_074417_SUOMI_NPP_rec.log

#Pass ID: 20260110_074417_SUOMI NPP
#Satellite: SUOMI NPP
#Configuration: NPP
#almurnet v.1.7.20240730
#Start time: 2026-01-10 07:44:17

#Version: 2.2.20231116
#Station: R2M6_AANII_01
#Location: 30.233357 lon 59.946436 lat
#TLE: 1 37849U 11061A   26008.83076692  .00000095  00000+0  66074-4 0  9997
#TLE: 2 37849  98.7806 310.9327 0002533  74.3004 285.8451 14.19523607735834

#Time	Az	El	Level	Level2	SNR	BER	BlckErr	Temp	State	Recorded	gain1	gain2
2026-01-10 07:44:17.67	77.38	7.02	-31.8	-37.9	4.3	1.39e+00	0	39	0	0	25	7262
2026-01-10 07:44:19.68	77.14	7.12	-31.5	-36.2	6.8	1.96e-01	0	39	0	0	24	6211
2026-01-10 07:44:21.68	76.90	7.23	-31.5	-36.4	6.7	1.91e-01	0	39	0	3145728	24	6325
2026-01-10 07:44:23.69	76.65	7.33	-31.6	-36.7	6.5	1.55e-01	0	39	0	7340032	24	6484
2026-01-10 07:44:25.70	76.41	7.44	-31.6	-37.0	6.3	2.30e-01	0	39	0	10485760	24	6665
2026-01-10 07:44:27.70	76.16	7.54	-31.4	-35.6	7.3	1.29e-01	0	40	0	14680064	24	5858
2026-01-10 07:44:29.71	75.91	7.64	-31.4	-36.3	7.3	8.39e-02	0	40	0	17825792	23	6292
2026-01-10 07:44:31.71	75.66	7.75	-30.9	-34.1	8.9	5.19e-02	0	39	0	22020096	23	5185
2026-01-10 07:44:33.72	75.40	7.85	-31.1	-34.7	8.5	2.42e-02	0	40	0	26214400	23	5462
2026-01-10 07:44:35.72	75.15	7.96	-31.2	-35.0	8.3	5.95e-02	0	40	0	29360128	23	5606
2026-01-10 07:44:37.73	74.89	8.06	-31.0	-34.5	8.8	3.71e-02	0	40	0	33554432	23	5342
2026-01-10 07:44:39.73	74.63	8.17	-31.0	-34.4	8.8	2.72e-02	0	40	0	36700160	23	5283
2026-01-10 07:44:41.74	74.37	8.27	-31.0	-34.1	9.1	2.82e-02	0	40	0	40894464	23	5167
2026-01-10 07:44:43.74	74.11	8.37	-30.9	-33.8	9.3	1.63e-02	0	40	0	45088768	23	5012
2026-01-10 07:44:45.76	73.84	8.48	-30.9	-33.7	9.4	2.34e-02	0	40	0	48234496	23	4980
2026-01-10 07:44:47.76	73.58	8.58	-31.0	-34.1	9.1	2.19e-02	0	40	0	52428800	23	5179
2026-01-10 07:44:49.76	73.31	8.68	-30.9	-34.0	9.2	2.06e-02	0	40	0	55574528	23	5132
2026-01-10 07:44:51.76	73.04	8.79	-31.0	-34.2	9.1	2.29e-02	0	40	0	59768832	23	5222
2026-01-10 07:44:53.76	72.77	8.89	-31.1	-34.6	8.7	4.71e-02	0	41	0	62914560	23	5403
2026-01-10 07:44:55.76	72.50	8.99	-31.0	-34.1	9.2	1.91e-02	0	40	0	67108864	23	5139
2026-01-10 07:44:57.77	72.22	9.09	-30.9	-34.1	9.6	1.12e-02	0	40	0	71303168	22	5219
2026-01-10 07:44:59.78	71.94	9.20	-30.7	-33.5	10.1	9.91e-03	0	40	0	74448896	22	4959
2026-01-10 07:45:01.78	71.66	9.30	-30.9	-34.2	9.5	1.50e-02	0	40	0	78643200	22	5285
2026-01-10 07:45:03.79	71.38	9.40	-30.7	-33.6	10.0	8.09e-03	0	40	0	81788928	22	5026
2026-01-10 07:45:05.80	71.10	9.50	-30.6	-33.3	10.3	5.49e-03	0	40	0	85983232	22	4894
2026-01-10 07:45:07.80	70.81	9.60	-30.7	-33.4	10.2	5.93e-03	0	40	0	90177536	22	4932
2026-01-10 07:45:09.81	70.52	9.70	-30.8	-33.8	9.8	7.74e-03	0	40	0	93323264	22	5109
2026-01-10 07:45:11.81	70.23	9.80	-30.4	-32.5	10.8	2.85e-03	0	40	0	97517568	22	4591
2026-01-10 07:45:13.82	69.94	9.90	-30.2	-32.4	11.3	1.20e-03	0	41	0	100663296	21	4623
2026-01-10 07:45:15.82	69.65	10.00	-30.3	-32.7	11.0	1.92e-03	0	41	0	104857600	21	4760
2026-01-10 07:45:17.83	69.35	10.10	-30.2	-32.5	11.2	1.40e-03	0	41	0	109051904	21	4665
2026-01-10 07:45:19.83	69.05	10.20	-30.1	-31.9	11.7	5.25e-04	0	41	0	112197632	21	4452
2026-01-10 07:45:21.83	68.75	10.30	-29.9	-31.4	12.1	2.36e-04	0	41	0	116391936	21	4282
2026-01-10 07:45:23.85	68.45	10.40	-29.7	-31.4	12.3	1.92e-04	0	41	0	119537664	20	4357
2026-01-10 07:45:25.85	68.14	10.50	-29.7	-31.4	12.4	2.14e-04	0	41	0	123731968	20	4376
2026-01-10 07:45:27.85	67.84	10.60	-29.8	-31.7	12.3	4.02e-04	0	41	0	126877696	20	4451
2026-01-10 07:45:29.85	67.53	10.69	-29.9	-31.9	12.1	2.36e-04	0	41	0	131072000	20	4551
2026-01-10 07:45:31.85	67.22	10.79	-30.1	-32.6	11.5	6.78e-04	0	41	0	135266304	20	4805
2026-01-10 07:45:33.86	66.91	10.89	-29.9	-31.8	12.3	5.10e-04	0	41	0	138412032	20	4518
2026-01-10 07:45:35.87	66.59	10.98	-30.3	-32.7	11.3	1.66e-03	0	41	0	142606336	21	4730
2026-01-10 07:45:37.88	66.27	11.08	-30.1	-31.9	11.8	2.65e-04	0	41	0	145752064	21	4417
2026-01-10 07:45:39.88	65.95	11.18	-30.1	-31.9	11.8	4.36e-04	0	41	0	149946368	21	4428
2026-01-10 07:45:41.88	65.63	11.27	-29.9	-31.8	12.3	1.56e-04	0	41	0	154140672	20	4475
2026-01-10 07:45:43.88	65.31	11.36	-29.7	-31.2	12.7	5.34e-05	0	41	0	157286400	20	4271
2026-01-10 07:45:45.88	64.99	11.46	-29.5	-30.7	12.9	2.74e-05	0	41	0	161480704	20	4149
2026-01-10 07:45:47.87	64.66	11.55	-29.4	-30.5	13.0	3.73e-05	0	41	0	164626432	20	4089
2026-01-10 07:45:49.87	64.33	11.64	-29.6	-31.1	12.7	8.16e-05	0	41	0	168820736	20	4255
2026-01-10 07:45:51.87	64.00	11.73	-29.8	-31.5	12.7	1.23e-04	0	41	0	171966464	20	4392
2026-01-10 07:45:53.87	63.67	11.82	-29.6	-31.0	12.8	8.85e-05	0	41	0	176160768	20	4242
2026-01-10 07:45:55.87	63.34	11.91	-29.5	-30.6	13.0	3.28e-05	0	41	0	180355072	20	4107
2026-01-10 07:45:57.87	63.00	12.00	-29.4	-30.4	13.1	3.12e-05	0	41	0	183500800	20	4034
2026-01-10 07:45:59.88	62.66	12.09	-29.0	-29.9	13.9	1.50e-06	0	41	0	187695104	19	3966
2026-01-10 07:46:01.88	62.32	12.18	-29.0	-29.9	13.9	2.20e-06	0	41	0	190840832	19	3974
2026-01-10 07:46:03.88	61.97	12.27	-29.4	-31.0	13.2	2.97e-05	0	41	0	195035136	19	4297
2026-01-10 07:46:05.89	61.63	12.36	-29.4	-30.9	13.3	1.67e-05	0	41	0	198180864	19	4268
2026-01-10 07:46:07.89	61.28	12.44	-29.7	-31.8	12.8	2.21e-05	0	41	0	202375168	19	4552
2026-01-10 07:46:09.90	60.93	12.53	-29.8	-31.8	12.7	7.01e-05	0	41	0	206569472	19	4560
2026-01-10 07:46:11.90	60.58	12.62	-29.7	-31.8	12.7	4.27e-05	0	41	0	209715200	19	4559
2026-01-10 07:46:13.90	60.22	12.70	-30.0	-32.5	12.4	9.61e-05	0	41	0	213909504	19	4811
2026-01-10 07:46:15.90	59.87	12.78	-29.9	-31.8	12.3	9.15e-05	0	41	0	217055232	20	4482
2026-01-10 07:46:17.90	59.51	12.87	-29.6	-31.0	12.9	3.66e-05	0	41	0	221249536	20	4214
2026-01-10 07:46:19.90	59.15	12.95	-29.7	-31.1	12.7	5.41e-05	0	41	0	225443840	20	4262
2026-01-10 07:46:21.90	58.79	13.03	-30.0	-31.6	12.1	9.31e-04	0	41	0	228589568	21	4318
2026-01-10 07:46:23.90	58.42	13.11	-30.0	-31.7	12.1	3.31e-04	0	41	0	232783872	21	4356
2026-01-10 07:46:25.92	58.05	13.19	-29.7	-31.1	12.8	5.49e-05	0	41	0	235929600	20	4241
2026-01-10 07:46:27.92	57.69	13.27	-29.9	-31.8	12.4	6.86e-05	0	41	0	240123904	20	4456
2026-01-10 07:46:29.93	57.32	13.34	-29.5	-30.5	13.2	1.67e-05	0	41	0	243269632	20	4071
2026-01-10 07:46:31.93	56.94	13.42	-29.6	-30.9	12.9	4.73e-05	0	41	0	247463936	20	4191
2026-01-10 07:46:33.94	56.57	13.50	-29.5	-30.6	13.1	3.66e-05	0	41	0	251658240	20	4086
2026-01-10 07:46:35.94	56.19	13.57	-29.7	-31.3	12.7	8.01e-05	0	41	0	254803968	20	4301
2026-01-10 07:46:37.95	55.81	13.64	-29.5	-30.7	13.1	3.50e-05	0	41	0	258998272	20	4120
2026-01-10 07:46:39.95	55.44	13.72	-29.6	-30.8	13.1	2.44e-05	0	42	0	262144000	20	4133
2026-01-10 07:46:41.96	55.05	13.79	-29.6	-30.9	13.0	3.89e-05	0	41	0	266338304	20	4180
2026-01-10 07:46:43.97	54.67	13.86	-29.9	-31.7	12.5	1.16e-04	0	41	0	270532608	20	4433
2026-01-10 07:46:45.96	54.28	13.93	-30.4	-32.7	11.4	4.64e-04	0	41	0	273678336	21	4693
2026-01-10 07:46:47.95	53.90	14.00	-30.0	-31.6	12.2	2.76e-04	0	41	0	277872640	21	4312
2026-01-10 07:46:49.96	53.51	14.06	-29.9	-31.1	12.6	1.52e-04	0	41	0	281018368	21	4127
2026-01-10 07:46:51.96	53.12	14.13	-29.6	-30.7	13.2	3.20e-05	0	42	0	285212672	20	4112
2026-01-10 07:46:53.96	52.73	14.19	-28.8	-29.2	14.5	3.43e-05	0	41	0	288358400	19	3767
2026-01-10 07:46:55.97	52.33	14.26	-28.9	-29.4	14.5	6.80e-06	0	42	0	292552704	19	3802
2026-01-10 07:46:57.98	51.94	14.32	-29.9	-31.6	12.6	1.75e-05	0	42	0	296747008	20	4374
2026-01-10 07:46:59.98	51.54	14.38	-29.3	-30.4	13.8	4.50e-06	0	42	0	299892736	19	4088
2026-01-10 07:47:01.99	51.14	14.44	-29.2	-30.2	13.9	3.80e-06	0	41	0	304087040	19	4046
2026-01-10 07:47:03.99	50.74	14.50	-29.4	-30.6	13.8	1.98e-05	0	42	0	307232768	19	4133
2026-01-10 07:47:06.00	50.33	14.56	-29.3	-30.4	13.8	1.06e-05	0	41	0	311427072	19	4099
2026-01-10 07:47:08.00	49.93	14.61	-29.5	-30.9	13.6	9.90e-06	0	42	0	315621376	19	4235
2026-01-10 07:47:10.01	49.53	14.67	-29.8	-31.2	12.9	6.63e-05	0	42	0	318767104	20	4235
2026-01-10 07:47:12.01	49.12	14.72	-29.7	-31.2	12.9	1.31e-04	0	41	0	322961408	20	4238
2026-01-10 07:47:14.02	48.71	14.77	-29.7	-31.1	13.0	3.81e-05	0	41	0	326107136	20	4232
2026-01-10 07:47:16.03	48.30	14.83	-29.7	-31.2	12.9	4.50e-05	0	42	0	330301440	20	4253
2026-01-10 07:47:18.02	47.89	14.87	-29.6	-30.7	13.2	3.66e-05	0	42	0	334495744	20	4108
2026-01-10 07:47:20.03	47.48	14.92	-29.6	-30.8	13.2	2.67e-05	0	41	0	337641472	20	4130
2026-01-10 07:47:22.03	47.06	14.97	-29.6	-30.7	13.2	3.20e-05	0	42	0	341835776	20	4108
2026-01-10 07:47:24.04	46.65	15.02	-29.4	-30.3	13.5	1.60e-05	0	42	0	344981504	20	3990
2026-01-10 07:47:26.04	46.23	15.06	-29.6	-30.8	13.2	2.36e-05	0	42	0	349175808	20	4116
2026-01-10 07:47:28.04	45.81	15.10	-29.6	-30.7	13.2	2.21e-05	0	42	0	352321536	20	4107
2026-01-10 07:47:30.05	45.39	15.14	-29.5	-30.8	13.6	7.00e-07	0	42	0	356515840	19	4215
2026-01-10 07:47:32.05	44.98	15.18	-29.0	-29.7	14.2	6.10e-06	0	42	0	360710144	19	3892
2026-01-10 07:47:34.05	44.55	15.22	-29.2	-30.3	13.9	6.10e-06	0	42	0	363855872	19	4047
2026-01-10 07:47:36.05	44.13	15.26	-29.3	-30.4	13.8	6.80e-06	0	42	0	368050176	19	4094
2026-01-10 07:47:38.05	43.71	15.29	-29.6	-31.3	13.3	8.30e-06	0	42	0	371195904	19	4368
2026-01-10 07:47:40.05	43.29	15.32	-29.7	-31.6	13.1	4.34e-05	0	42	0	375390208	19	4487
2026-01-10 07:47:42.05	42.86	15.36	-30.0	-31.9	12.4	5.49e-05	0	42	0	378535936	20	4479
2026-01-10 07:47:44.05	42.44	15.39	-29.9	-31.8	12.5	4.27e-05	0	41	0	382730240	20	4463
2026-01-10 07:47:46.06	42.01	15.42	-29.8	-31.4	12.7	6.40e-05	0	42	0	386924544	20	4350
2026-01-10 07:47:48.06	41.58	15.44	-29.9	-31.8	12.5	1.25e-04	0	42	0	390070272	20	4453
2026-01-10 07:47:50.06	41.16	15.47	-29.9	-31.7	12.5	1.91e-04	0	41	0	394264576	20	4434
2026-01-10 07:47:52.06	40.73	15.49	-30.3	-32.2	12.0	5.35e-04	0	42	0	397410304	21	4490
2026-01-10 07:47:54.07	40.30	15.52	-29.7	-31.1	13.1	4.65e-05	0	41	0	401604608	20	4222
2026-01-10 07:47:56.07	39.87	15.54	-29.7	-31.0	13.1	4.34e-05	0	42	0	405798912	20	4201
2026-01-10 07:47:58.07	39.44	15.56	-29.5	-30.5	13.5	1.52e-05	0	42	0	408944640	20	4034
2026-01-10 07:48:00.07	39.01	15.57	-29.6	-30.9	13.2	2.21e-05	0	42	0	413138944	20	4147
2026-01-10 07:48:02.09	38.57	15.59	-29.7	-30.9	13.1	4.50e-05	0	42	0	416284672	20	4169
2026-01-10 07:48:04.09	38.14	15.60	-29.4	-30.2	13.6	6.80e-06	0	42	0	420478976	20	3946
2026-01-10 07:48:06.11	37.71	15.62	-29.6	-31.3	13.8	1.50e-06	0	42	0	423624704	19	4343
2026-01-10 07:48:08.11	37.27	15.63	-29.3	-30.5	13.8	3.00e-06	0	42	0	427819008	19	4126
2026-01-10 07:48:10.12	36.84	15.64	-29.8	-31.7	13.1	2.13e-05	0	42	0	432013312	19	4476
2026-01-10 07:48:12.12	36.41	15.64	-29.9	-31.4	13.1	1.05e-04	0	42	0	435159040	20	4294
2026-01-10 07:48:14.12	35.97	15.65	-30.2	-32.5	12.4	3.43e-05	0	42	0	439353344	20	4681
2026-01-10 07:48:16.12	35.54	15.66	-29.8	-31.2	13.0	3.50e-05	0	42	0	442499072	20	4254
2026-01-10 07:48:18.11	35.11	15.66	-29.5	-30.5	13.3	2.67e-05	0	42	0	446693376	20	4033
2026-01-10 07:48:20.11	34.68	15.66	-29.0	-29.6	14.4	7.00e-07	0	42	0	449839104	19	3863
2026-01-10 07:48:22.12	34.24	15.66	-29.0	-29.7	14.3	4.50e-06	0	42	0	454033408	19	3894
2026-01-10 07:48:24.13	33.81	15.66	-29.3	-30.4	13.9	1.14e-05	0	42	0	458227712	19	4105
2026-01-10 07:48:26.13	33.37	15.65	-29.7	-31.4	13.2	3.28e-05	0	42	0	461373440	19	4406
2026-01-10 07:48:28.13	32.94	15.65	-29.8	-31.7	13.0	2.21e-05	0	42	0	465567744	19	4505
2026-01-10 07:48:30.13	32.51	15.64	-30.1	-32.3	12.1	1.52e-04	0	42	0	468713472	20	4629
2026-01-10 07:48:32.13	32.07	15.63	-30.2	-32.5	12.0	2.55e-04	0	42	0	472907776	20	4699
2026-01-10 07:48:34.13	31.64	15.62	-30.5	-32.8	11.6	7.31e-04	0	42	0	477102080	21	4723
2026-01-10 07:48:36.14	31.21	15.61	-30.1	-31.9	12.1	1.98e-04	0	42	0	480247808	21	4389
2026-01-10 07:48:38.15	30.77	15.60	-29.7	-31.1	13.0	3.07e-04	0	42	0	484442112	20	4217
2026-01-10 07:48:40.16	30.34	15.58	-30.4	-32.6	11.6	3.54e-04	0	42	0	487587840	21	4615
2026-01-10 07:48:42.16	29.91	15.56	-29.7	-30.8	13.1	2.51e-05	0	42	0	491782144	20	4126
2026-01-10 07:48:44.16	29.48	15.55	-29.6	-30.8	13.2	2.89e-05	0	42	0	494927872	20	4110
2026-01-10 07:48:46.15	29.05	15.53	-30.0	-31.8	12.7	1.07e-04	0	42	0	499122176	20	4406
2026-01-10 07:48:48.16	28.62	15.50	-29.9	-31.5	12.8	1.46e-04	0	42	0	503316480	20	4321
2026-01-10 07:48:50.16	28.20	15.48	-29.6	-30.7	13.4	1.90e-05	0	42	0	506462208	20	4076
2026-01-10 07:48:52.16	27.77	15.46	-29.4	-30.5	13.9	3.00e-06	0	42	0	510656512	19	4119
2026-01-10 07:48:54.15	27.34	15.43	-29.6	-31.0	13.6	2.20e-06	0	42	0	513802240	19	4249
2026-01-10 07:48:56.15	26.92	15.40	-29.6	-30.5	13.4	2.51e-05	0	42	0	517996544	20	4018
2026-01-10 07:48:58.16	26.49	15.37	-29.2	-30.2	14.1	7.00e-07	0	42	0	521142272	19	4024
2026-01-10 07:49:00.15	26.07	15.34	-29.4	-30.7	13.7	3.80e-06	0	42	0	525336576	19	4160
2026-01-10 07:49:02.16	25.64	15.31	-29.5	-30.8	13.6	3.80e-06	0	42	0	529530880	19	4193
2026-01-10 07:49:04.17	25.22	15.27	-29.5	-30.9	13.6	3.80e-06	0	42	0	532676608	19	4239
2026-01-10 07:49:06.16	24.80	15.24	-29.5	-30.9	13.6	9.10e-06	0	42	0	536870912	19	4226
2026-01-10 07:49:08.16	24.38	15.20	-29.6	-31.2	13.4	1.52e-05	0	42	0	540016640	19	4314
2026-01-10 07:49:10.17	23.96	15.16	-29.7	-31.3	13.3	2.74e-05	0	42	0	544210944	19	4366
2026-01-10 07:49:12.18	23.54	15.12	-29.6	-31.3	13.3	3.73e-05	0	42	0	548405248	19	4343
2026-01-10 07:49:14.19	23.12	15.08	-29.5	-30.3	13.7	1.14e-05	0	42	0	551550976	20	3946
2026-01-10 07:49:16.18	22.71	15.04	-29.3	-30.4	14.0	3.80e-06	0	42	0	555745280	19	4056
2026-01-10 07:49:18.19	22.29	14.99	-29.3	-30.2	14.2	2.20e-06	0	42	0	558891008	19	4002
2026-01-10 07:49:20.18	21.88	14.95	-29.3	-30.2	14.2	1.50e-06	0	42	0	563085312	19	3997
2026-01-10 07:49:22.17	21.47	14.90	-29.1	-29.8	14.4	0.00e+00	0	42	0	567279616	19	3905
2026-01-10 07:49:24.18	21.06	14.85	-29.2	-30.0	14.3	7.00e-07	0	42	0	570425344	19	3943
2026-01-10 07:49:26.18	20.65	14.80	-29.5	-30.7	13.8	3.00e-06	0	42	0	574619648	19	4153
2026-01-10 07:49:28.19	20.24	14.75	-29.5	-30.9	13.7	1.50e-06	0	42	0	577765376	19	4220
2026-01-10 07:49:30.18	19.83	14.70	-29.7	-31.4	13.3	8.30e-06	0	42	0	581959680	19	4382
2026-01-10 07:49:32.18	19.43	14.64	-29.8	-31.8	13.0	2.51e-05	0	42	0	585105408	19	4507
2026-01-10 07:49:34.18	19.03	14.59	-29.9	-31.5	12.8	9.68e-05	0	42	0	589299712	20	4337
2026-01-10 07:49:36.18	18.63	14.53	-30.2	-32.4	12.3	2.01e-04	0	42	0	593494016	20	4638
2026-01-10 07:49:38.19	18.22	14.47	-29.9	-31.5	12.7	8.31e-05	0	42	0	596639744	20	4324
2026-01-10 07:49:40.19	17.82	14.41	-29.9	-31.6	12.7	6.86e-05	0	42	0	600834048	20	4373
2026-01-10 07:49:42.20	17.43	14.35	-29.9	-31.5	12.8	7.93e-05	0	42	0	603979776	20	4316
2026-01-10 07:49:44.20	17.03	14.29	-29.8	-31.1	13.1	4.34e-05	0	42	0	608174080	20	4209
2026-01-10 07:49:46.21	16.64	14.23	-29.8	-31.3	12.9	5.87e-05	0	42	0	611319808	20	4284
2026-01-10 07:49:48.22	16.24	14.16	-29.9	-31.5	12.7	4.73e-05	0	42	0	615514112	20	4336
2026-01-10 07:49:50.22	15.85	14.10	-29.7	-30.9	13.1	2.51e-05	0	42	0	619708416	20	4170
2026-01-10 07:49:52.22	15.46	14.03	-29.5	-30.5	13.5	1.14e-05	0	42	0	622854144	20	4018
2026-01-10 07:49:54.23	15.08	13.96	-29.5	-30.8	13.7	5.30e-06	0	42	0	627048448	19	4203
2026-01-10 07:49:56.23	14.69	13.89	-29.4	-30.5	13.8	5.30e-06	0	42	0	630194176	19	4110
2026-01-10 07:49:58.24	14.31	13.82	-29.5	-30.8	13.6	7.60e-06	0	42	0	634388480	19	4193
2026-01-10 07:50:00.24	13.93	13.75	-29.8	-31.6	13.0	2.67e-05	0	42	0	638582784	19	4461
2026-01-10 07:50:02.25	13.54	13.68	-29.6	-31.3	13.1	4.57e-05	0	42	0	641728512	19	4370
2026-01-10 07:50:04.25	13.17	13.61	-29.8	-31.8	13.0	3.20e-05	0	42	0	645922816	19	4518
2026-01-10 07:50:06.26	12.79	13.53	-30.0	-31.9	12.5	9.38e-05	0	42	0	649068544	20	4477
2026-01-10 07:50:08.26	12.42	13.46	-30.3	-32.8	12.0	2.61e-04	0	42	0	653262848	20	4785
2026-01-10 07:50:10.26	12.05	13.38	-30.3	-32.5	12.2	3.02e-04	0	42	0	656408576	20	4652
2026-01-10 07:50:12.27	11.67	13.31	-30.2	-32.3	12.5	1.25e-04	0	41	0	660602880	20	4568
2026-01-10 07:50:14.27	11.31	13.23	-30.2	-32.1	12.5	1.26e-04	0	42	0	664797184	20	4521
2026-01-10 07:50:16.27	10.94	13.15	-30.2	-32.5	12.2	1.85e-04	0	42	0	667942912	20	4664
2026-01-10 07:50:18.28	10.58	13.07	-30.4	-33.0	11.9	1.80e-04	0	42	0	672137216	20	4842
2026-01-10 07:50:20.29	10.21	12.99	-30.4	-32.8	12.0	2.75e-04	0	42	0	675282944	20	4771
2026-01-10 07:50:22.29	9.85	12.91	-30.7	-33.2	11.5	9.17e-04	0	42	0	679477248	21	4795
2026-01-10 07:50:24.28	9.50	12.83	-30.2	-31.9	12.3	1.58e-04	0	42	0	683671552	21	4345
2026-01-10 07:50:26.28	9.14	12.74	-30.2	-31.8	12.4	1.65e-04	0	42	0	686817280	21	4331
2026-01-10 07:50:28.30	8.79	12.66	-30.3	-32.1	12.2	3.31e-04	0	42	0	691011584	21	4414
2026-01-10 07:50:30.30	8.43	12.58	-30.1	-31.6	12.3	1.72e-04	0	42	0	694157312	21	4278
2026-01-10 07:50:32.31	8.08	12.49	-30.0	-31.2	12.5	1.33e-04	0	42	0	698351616	21	4173
2026-01-10 07:50:34.30	7.74	12.40	-30.1	-31.6	12.3	1.78e-04	0	42	0	701497344	21	4290
2026-01-10 07:50:36.30	7.39	12.32	-29.9	-31.2	12.6	7.93e-05	0	42	0	705691648	21	4158
2026-01-10 07:50:38.30	7.05	12.23	-30.2	-32.1	11.9	3.13e-04	0	42	0	709885952	21	4468
2026-01-10 07:50:40.31	6.71	12.14	-30.2	-32.1	11.9	4.20e-04	0	42	0	713031680	21	4452
2026-01-10 07:50:42.31	6.37	12.05	-30.2	-32.1	12.0	6.26e-04	0	42	0	717225984	21	4452
2026-01-10 07:50:44.31	6.03	11.96	-30.1	-31.7	12.1	3.36e-04	0	42	0	720371712	21	4348
2026-01-10 07:50:46.32	5.70	11.87	-30.0	-31.4	12.3	1.76e-04	0	42	0	724566016	21	4249
2026-01-10 07:50:48.32	5.36	11.78	-30.0	-31.4	12.5	2.07e-04	0	42	0	728760320	21	4228
2026-01-10 07:50:50.32	5.03	11.69	-30.2	-32.1	11.9	2.33e-04	0	42	0	731906048	21	4468
2026-01-10 07:50:52.32	4.70	11.60	-30.7	-33.7	10.7	1.80e-03	0	42	0	736100352	21	5073
2026-01-10 07:50:54.32	4.38	11.51	-31.3	-35.3	9.1	9.83e-03	0	42	0	739246080	22	5708
2026-01-10 07:50:56.32	4.05	11.41	-31.6	-36.3	7.9	5.25e-02	0	42	0	743440384	23	6118
2026-01-10 07:50:58.32	3.73	11.32	-31.5	-35.4	8.5	4.41e-02	0	42	0	746586112	23	5691
2026-01-10 07:51:00.33	3.41	11.23	-31.3	-35.0	8.9	2.63e-02	0	42	0	750780416	23	5470
2026-01-10 07:51:02.33	3.09	11.13	-31.3	-34.8	9.1	1.89e-02	0	42	0	754974720	23	5364
2026-01-10 07:51:04.33	2.78	11.04	-31.4	-34.9	9.2	3.27e-02	0	42	0	758120448	23	5382
2026-01-10 07:51:06.34	2.46	10.94	-31.1	-33.8	10.0	8.85e-03	0	42	0	762314752	23	4911
2026-01-10 07:51:08.35	2.15	10.85	-30.6	-32.8	11.0	2.14e-03	0	42	0	765460480	22	4633
2026-01-10 07:51:10.36	1.84	10.75	-30.5	-32.4	11.2	1.35e-03	0	42	0	769654784	22	4489
2026-01-10 07:51:12.35	1.53	10.65	-30.7	-32.9	11.0	1.54e-03	0	42	0	772800512	22	4666
2026-01-10 07:51:14.35	1.22	10.55	-30.7	-32.9	11.0	2.63e-03	0	42	0	776994816	22	4667
2026-01-10 07:51:16.35	0.92	10.46	-30.7	-32.9	10.9	1.94e-03	0	42	0	781189120	22	4664
2026-01-10 07:51:18.36	0.62	10.36	-30.6	-32.7	11.1	1.60e-03	0	42	0	784334848	22	4562
2026-01-10 07:51:20.35	0.32	10.26	-30.6	-32.5	11.3	1.26e-03	0	42	0	788529152	22	4500
2026-01-10 07:51:22.35	0.02	10.16	-30.5	-32.3	11.6	7.39e-04	0	42	0	791674880	22	4426
2026-01-10 07:51:24.35	359.73	10.06	-30.6	-32.4	11.5	8.76e-04	0	42	0	795869184	22	4466
2026-01-10 07:51:26.36	359.43	9.96	-30.4	-31.9	11.8	4.10e-04	0	42	0	799014912	22	4283
2026-01-10 07:51:28.36	359.14	9.86	-30.4	-32.5	11.8	5.47e-04	0	42	0	803209216	21	4577
2026-01-10 07:51:30.36	358.85	9.76	-30.4	-32.4	11.8	4.03e-04	0	42	0	807403520	21	4536
2026-01-10 07:51:32.36	358.57	9.66	-30.6	-32.8	11.6	6.32e-04	0	42	0	810549248	21	4670
2026-01-10 07:51:34.36	358.28	9.56	-30.8	-33.6	11.2	7.54e-04	0	42	0	814743552	21	4945
2026-01-10 07:51:36.36	358.00	9.46	-30.9	-33.9	11.1	1.69e-03	0	42	0	817889280	21	5049
2026-01-10 07:51:38.36	357.72	9.36	-30.8	-33.7	11.0	2.10e-03	0	42	0	822083584	21	5008
2026-01-10 07:51:40.38	357.44	9.26	-30.6	-33.0	11.4	9.92e-04	0	42	0	826277888	21	4756
2026-01-10 07:51:42.39	357.16	9.16	-30.5	-32.8	11.4	7.19e-04	0	42	0	829423616	21	4716
2026-01-10 07:51:44.40	356.88	9.05	-30.3	-32.5	11.6	7.78e-04	0	42	0	833617920	21	4598
2026-01-10 07:51:46.41	356.61	8.95	-30.5	-33.0	11.0	2.78e-03	0	42	0	836763648	21	4776
2026-01-10 07:51:48.41	356.34	8.85	-30.0	-31.5	12.1	3.74e-04	0	42	0	840957952	21	4265
2026-01-10 07:51:50.42	356.07	8.75	-29.7	-31.0	12.8	9.07e-05	0	42	0	844103680	20	4185
2026-01-10 07:51:52.42	355.80	8.64	-30.0	-31.7	12.8	4.04e-05	0	42	0	848297984	20	4369
2026-01-10 07:51:54.42	355.53	8.54	-30.0	-31.8	12.6	9.91e-05	0	42	0	852492288	20	4422
2026-01-10 07:51:56.42	355.27	8.44	-30.0	-31.8	12.5	6.48e-05	0	42	0	855638016	20	4422
2026-01-10 07:51:58.42	355.01	8.33	-30.2	-32.3	12.4	1.27e-04	0	42	0	859832320	20	4584
2026-01-10 07:52:00.42	354.75	8.23	-30.3	-32.4	12.3	1.36e-04	0	42	0	862978048	20	4618
2026-01-10 07:52:02.43	354.49	8.13	-30.1	-32.0	12.5	1.34e-04	0	42	0	867172352	20	4485
2026-01-10 07:52:04.42	354.24	8.02	-30.0	-31.7	12.9	7.70e-05	0	42	0	871366656	20	4364
2026-01-10 07:52:06.42	353.98	7.92	-29.9	-31.4	12.8	6.71e-05	0	42	0	874512384	20	4306
2026-01-10 07:52:08.42	353.73	7.82	-30.2	-32.4	12.1	2.27e-04	0	42	0	878706688	20	4638
2026-01-10 07:52:10.42	353.48	7.71	-30.4	-32.5	11.8	5.85e-04	0	42	0	881852416	21	4555
2026-01-10 07:52:12.43	353.23	7.61	-30.2	-31.8	12.2	2.00e-04	0	42	0	886046720	21	4344
2026-01-10 07:52:14.43	352.99	7.50	-30.2	-32.0	11.9	4.06e-04	0	42	0	890241024	21	4421
2026-01-10 07:52:16.43	352.74	7.40	-30.2	-32.2	11.7	6.38e-04	0	42	0	893386752	21	4493
2026-01-10 07:52:18.44	352.50	7.30	-30.5	-33.1	10.9	1.06e-03	0	42	0	897581056	21	4862
2026-01-10 07:52:20.44	352.26	7.19	-30.3	-32.5	11.3	1.39e-03	0	42	0	900726784	21	4616
2026-01-10 07:52:22.45	352.01	7.09	-30.3	-32.4	11.4	7.69e-04	0	42	0	904921088	21	4595
2026-01-10 07:52:24.46	351.78	6.98	-33.2	-45.6	3.8	1.49e+00	0	42	104	907018240	26	15013

#Closed at: 2026-01-10 07:52:24
#Recorded file [907 MB]: D:/data/31010_260110_104419.dat