passes_logs/2026/01/10/R2M6_AANII_01/R2M6_AANII_01__20260110_021945_NOAA_21_JPSS-2_rec.log

#Pass ID: 20260110_021945_NOAA 21 (JPSS-2)
#Satellite: NOAA 21 (JPSS-2)
#Configuration: NOAA 21
#almurnet v.1.7.20240730
#Start time: 2026-01-10 02:20:51

#Version: 2.2.20231116
#Station: R2M6_AANII_01
#Location: 30.233357 lon 59.946436 lat
#TLE: 1 54234U 22150A   26009.23291724  .00000115  00000+0  75298-4 0  9996
#TLE: 2 54234  98.7494 310.2026 0000856 324.9272  35.1848 14.19533567163994

#Time	Az	El	Level	Level2	SNR	BER	BlckErr	Temp	State	Recorded	gain1	gain2
2026-01-10 02:20:51.77	3.00	11.31	-33.4	-44.9	3.8	8.45e-01	0	42	0	0	26	13519
2026-01-10 02:20:54.77	2.62	11.52	-34.2	-46.3	3.8	1.49e+00	0	42	104	0	28	14469
2026-01-10 02:20:57.77	2.23	11.72	-34.3	-46.5	3.8	1.49e+00	0	42	104	0	28	14580
2026-01-10 02:21:00.76	1.84	11.92	-34.2	-46.2	3.8	1.49e+00	0	42	104	0	28	14370
2026-01-10 02:21:03.76	1.45	12.12	-34.2	-46.2	3.8	1.49e+00	0	42	104	0	28	14394
2026-01-10 02:21:06.74	1.05	12.33	-34.1	-46.1	3.8	1.49e+00	0	42	104	0	28	14340
2026-01-10 02:21:09.73	0.64	12.53	-34.1	-46.1	3.8	1.49e+00	0	42	104	0	28	14284
2026-01-10 02:21:12.72	0.23	12.73	-34.1	-46.1	3.8	1.49e+00	0	42	104	0	28	14270
2026-01-10 02:21:15.70	359.81	12.94	-34.1	-46.0	3.8	1.49e+00	0	42	104	0	28	14224
2026-01-10 02:21:18.69	359.39	13.14	-34.0	-45.8	3.8	1.49e+00	0	42	104	0	28	14073
2026-01-10 02:21:21.68	358.96	13.35	-33.9	-45.5	3.8	1.49e+00	0	42	104	0	28	13728
2026-01-10 02:21:24.66	358.52	13.55	-33.5	-44.6	3.8	1.49e+00	0	42	104	0	28	12987
2026-01-10 02:21:27.66	358.08	13.75	-33.4	-44.5	3.8	1.49e+00	0	42	104	0	28	12986
2026-01-10 02:21:30.65	357.63	13.96	-33.4	-44.4	3.8	1.49e+00	0	42	104	0	28	12830
2026-01-10 02:21:33.63	357.18	14.16	-33.4	-44.4	3.8	1.49e+00	0	42	104	0	28	12747
2026-01-10 02:21:36.63	356.71	14.37	-33.4	-43.9	3.8	1.49e+00	0	42	104	0	28	12157
2026-01-10 02:21:39.62	356.24	14.57	-33.4	-44.5	3.8	1.49e+00	0	42	104	0	28	12860
2026-01-10 02:21:42.61	355.77	14.77	-32.8	-40.0	4.0	1.48e+00	0	42	104	0	27	8263
2026-01-10 02:21:45.60	355.29	14.98	-31.2	-34.7	8.9	3.25e-02	0	42	0	3145728	23	5428
2026-01-10 02:21:48.60	354.80	15.18	-30.6	-33.4	10.3	7.24e-03	0	42	0	12582912	22	4974
2026-01-10 02:21:51.58	354.31	15.38	-30.6	-33.3	10.3	5.14e-03	0	42	0	22020096	22	4953
2026-01-10 02:21:54.57	353.80	15.58	-30.6	-33.4	10.3	1.07e-02	0	42	0	31457280	22	4977
2026-01-10 02:21:57.55	353.30	15.78	-29.3	-31.4	12.6	1.85e-04	0	42	0	39845888	19	4599
2026-01-10 02:22:00.52	352.79	15.98	-28.5	-30.0	13.8	1.83e-05	0	42	0	49283072	18	4275
2026-01-10 02:22:03.50	352.26	16.18	-28.5	-30.1	13.8	7.60e-06	0	42	0	58720256	18	4285
2026-01-10 02:22:06.47	351.74	16.38	-28.9	-31.3	13.4	4.50e-06	0	42	0	68157440	17	4782
2026-01-10 02:22:09.46	351.20	16.58	-27.6	-28.9	15.1	0.00e+00	0	42	0	77594624	16	4174
2026-01-10 02:22:12.45	350.66	16.77	-27.4	-28.4	15.4	0.00e+00	0	42	0	87031808	16	4036
2026-01-10 02:22:15.44	350.11	16.97	-27.4	-28.4	15.4	0.00e+00	0	42	0	96468992	16	4044
2026-01-10 02:22:18.40	349.55	17.16	-27.8	-29.3	15.1	0.00e+00	0	42	0	105906176	16	4269
2026-01-10 02:22:21.38	348.99	17.36	-27.8	-29.3	15.1	0.00e+00	0	42	0	114294784	16	4254
2026-01-10 02:22:24.37	348.42	17.55	-27.7	-29.1	15.3	0.00e+00	0	42	0	123731968	16	4197
2026-01-10 02:22:27.36	347.84	17.74	-28.2	-30.1	14.8	0.00e+00	0	42	0	133169152	16	4492
2026-01-10 02:22:30.36	347.25	17.93	-28.3	-30.3	14.6	0.00e+00	0	42	0	142606336	16	4537
2026-01-10 02:22:33.35	346.65	18.11	-28.4	-30.2	14.4	0.00e+00	0	42	0	152043520	17	4397
2026-01-10 02:22:36.32	346.05	18.30	-28.8	-30.5	14.2	2.20e-06	0	42	0	161480704	18	4368
2026-01-10 02:22:39.30	345.44	18.48	-28.5	-29.9	14.4	1.50e-06	0	42	0	170917888	18	4197
2026-01-10 02:22:42.30	344.82	18.66	-28.2	-29.5	15.0	0.00e+00	0	42	0	180355072	17	4196
2026-01-10 02:22:45.31	344.19	18.84	-28.2	-29.7	14.7	7.00e-07	0	42	0	189792256	17	4272
2026-01-10 02:22:48.28	343.56	19.02	-27.7	-29.1	15.3	0.00e+00	0	42	0	199229440	16	4207
2026-01-10 02:22:51.26	342.93	19.19	-28.1	-30.0	14.7	0.00e+00	0	42	0	207618048	16	4467
2026-01-10 02:22:54.24	342.28	19.36	-27.9	-29.5	15.0	0.00e+00	0	42	0	217055232	16	4334
2026-01-10 02:22:57.22	341.63	19.53	-28.7	-30.8	14.0	0.00e+00	0	42	0	226492416	17	4613
2026-01-10 02:23:00.21	340.96	19.70	-28.2	-29.6	14.7	0.00e+00	0	42	0	235929600	17	4229
2026-01-10 02:23:03.21	340.29	19.86	-28.0	-29.6	15.1	0.00e+00	0	42	0	245366784	16	4346
2026-01-10 02:23:06.18	339.62	20.02	-27.5	-28.5	15.6	0.00e+00	0	42	0	254803968	16	4044
2026-01-10 02:23:09.17	338.94	20.18	-27.4	-28.3	15.6	0.00e+00	0	42	0	264241152	16	4011
2026-01-10 02:23:12.14	338.25	20.33	-27.5	-29.2	15.2	0.00e+00	0	42	0	273678336	15	4357
2026-01-10 02:23:15.13	337.55	20.48	-27.1	-28.2	15.8	0.00e+00	0	42	0	283115520	15	4080
2026-01-10 02:23:18.13	336.84	20.63	-27.4	-28.8	15.6	0.00e+00	0	42	0	292552704	15	4237
2026-01-10 02:23:21.12	336.13	20.77	-27.2	-28.5	15.8	0.00e+00	0	42	0	300941312	15	4145
2026-01-10 02:23:24.12	335.41	20.91	-27.0	-27.9	16.0	0.00e+00	0	42	0	310378496	15	4000
2026-01-10 02:23:27.10	334.69	21.04	-26.9	-27.7	16.1	0.00e+00	0	42	0	319815680	15	3951
2026-01-10 02:23:30.08	333.96	21.17	-27.0	-28.0	16.0	0.00e+00	0	42	0	329252864	15	4016
2026-01-10 02:23:33.07	333.22	21.30	-26.9	-28.2	16.1	0.00e+00	0	42	0	338690048	14	4193
2026-01-10 02:23:36.05	332.48	21.42	-26.8	-28.0	16.3	0.00e+00	0	42	0	348127232	14	4129
2026-01-10 02:23:39.04	331.73	21.54	-26.9	-28.2	16.1	0.00e+00	0	42	0	357564416	14	4197
2026-01-10 02:23:42.02	330.98	21.65	-27.1	-28.6	15.9	0.00e+00	0	42	0	367001600	14	4295
2026-01-10 02:23:45.00	330.22	21.75	-27.0	-28.6	15.9	0.00e+00	0	42	0	376438784	14	4286
2026-01-10 02:23:47.98	329.46	21.86	-27.3	-29.1	15.7	0.00e+00	0	42	0	385875968	14	4448
2026-01-10 02:23:50.96	328.69	21.95	-27.4	-28.8	15.7	0.00e+00	0	42	0	394264576	15	4228
2026-01-10 02:23:53.96	327.92	22.05	-27.4	-28.8	15.5	0.00e+00	0	42	0	403701760	15	4232
2026-01-10 02:23:56.97	327.13	22.13	-27.0	-28.4	15.9	0.00e+00	0	42	0	413138944	14	4246
2026-01-10 02:23:59.97	326.35	22.21	-26.8	-28.0	16.3	0.00e+00	0	42	0	422576128	14	4124
2026-01-10 02:24:02.95	325.56	22.29	-27.2	-28.9	15.8	0.00e+00	0	42	0	432013312	14	4365
2026-01-10 02:24:05.94	324.77	22.36	-27.2	-28.9	15.8	0.00e+00	0	42	0	441450496	14	4381
2026-01-10 02:24:08.94	323.97	22.42	-27.2	-28.9	15.8	0.00e+00	0	42	0	450887680	14	4368
2026-01-10 02:24:11.93	323.17	22.48	-27.3	-29.1	15.6	0.00e+00	0	42	0	460324864	14	4440
2026-01-10 02:24:14.91	322.37	22.53	-26.9	-28.2	16.2	0.00e+00	0	42	0	469762048	14	4171
2026-01-10 02:24:17.90	321.57	22.58	-27.6	-29.4	15.2	0.00e+00	0	42	0	479199232	15	4405
2026-01-10 02:24:20.87	320.77	22.62	-27.1	-28.2	15.8	0.00e+00	0	42	0	488636416	15	4082
2026-01-10 02:24:23.87	319.96	22.66	-27.2	-28.4	15.7	0.00e+00	0	42	0	498073600	15	4138
2026-01-10 02:24:26.86	319.15	22.69	-26.9	-27.8	16.0	0.00e+00	0	42	0	506462208	15	3993
2026-01-10 02:24:29.85	318.33	22.71	-27.3	-28.6	15.6	0.00e+00	0	42	0	515899392	15	4176
2026-01-10 02:24:32.84	317.52	22.72	-27.3	-28.6	15.6	0.00e+00	0	42	0	525336576	15	4194
2026-01-10 02:24:35.81	316.71	22.73	-26.9	-27.7	16.0	0.00e+00	0	42	0	534773760	15	3961
2026-01-10 02:24:38.80	315.90	22.74	-27.5	-29.0	15.4	0.00e+00	0	42	0	544210944	15	4300
2026-01-10 02:24:41.77	315.09	22.74	-27.6	-28.7	15.6	0.00e+00	0	42	0	553648128	16	4102
2026-01-10 02:24:44.76	314.28	22.73	-27.5	-28.5	15.7	2.20e-06	0	42	0	563085312	16	4034
2026-01-10 02:24:47.75	313.47	22.71	-27.6	-28.8	15.5	0.00e+00	0	42	0	572522496	16	4137
2026-01-10 02:24:50.74	312.65	22.69	-27.5	-28.6	15.6	0.00e+00	0	42	0	581959680	16	4065
2026-01-10 02:24:53.73	311.84	22.67	-27.1	-28.1	15.9	0.00e+00	0	42	0	591396864	15	4059
2026-01-10 02:24:56.74	311.03	22.63	-27.1	-28.2	15.8	0.00e+00	0	42	0	599785472	15	4084
2026-01-10 02:24:59.73	310.22	22.59	-28.4	-30.7	14.6	0.00e+00	0	42	0	609222656	16	4658
2026-01-10 02:25:02.72	309.42	22.55	-27.8	-28.7	15.3	0.00e+00	0	42	0	618659840	17	3986
2026-01-10 02:25:05.72	308.61	22.50	-27.3	-28.2	15.8	0.00e+00	0	42	0	628097024	16	3958
2026-01-10 02:25:08.71	307.81	22.44	-27.4	-28.9	15.5	0.00e+00	0	42	0	637534208	15	4267
2026-01-10 02:25:11.69	307.01	22.38	-27.0	-28.4	16.1	0.00e+00	0	42	0	646971392	14	4237
2026-01-10 02:25:14.69	306.22	22.31	-27.2	-28.9	15.9	0.00e+00	0	42	0	656408576	14	4378
2026-01-10 02:25:17.67	305.43	22.24	-26.9	-28.3	16.1	0.00e+00	0	42	0	665845760	14	4216
2026-01-10 02:25:20.66	304.64	22.16	-26.7	-27.9	16.2	0.00e+00	0	42	0	675282944	14	4110
2026-01-10 02:25:23.65	303.86	22.07	-26.7	-27.9	16.2	0.00e+00	0	42	0	684720128	14	4103
2026-01-10 02:25:26.64	303.08	21.98	-26.7	-27.8	16.2	0.00e+00	0	42	0	694157312	14	4092
2026-01-10 02:25:29.63	302.31	21.88	-26.6	-27.6	16.2	0.00e+00	0	42	0	703594496	14	4051
2026-01-10 02:25:32.62	301.54	21.78	-27.1	-28.6	15.8	0.00e+00	0	42	0	711983104	14	4305
2026-01-10 02:25:35.60	300.78	21.68	-26.9	-28.3	16.0	0.00e+00	0	42	0	721420288	14	4218
2026-01-10 02:25:38.59	300.03	21.57	-26.9	-28.3	15.9	0.00e+00	0	42	0	730857472	14	4210
2026-01-10 02:25:41.56	299.28	21.45	-26.8	-28.1	16.1	0.00e+00	0	42	0	740294656	14	4153
2026-01-10 02:25:44.55	298.53	21.33	-27.0	-28.6	15.9	0.00e+00	0	42	0	749731840	14	4293
2026-01-10 02:25:47.53	297.79	21.21	-27.0	-28.4	15.9	0.00e+00	0	42	0	759169024	14	4254
2026-01-10 02:25:50.53	297.06	21.08	-27.1	-28.7	15.6	0.00e+00	0	42	0	768606208	14	4332
2026-01-10 02:25:53.50	296.33	20.95	-26.8	-28.1	15.9	0.00e+00	0	42	0	778043392	14	4176
2026-01-10 02:25:56.49	295.61	20.81	-27.1	-28.6	15.6	0.00e+00	0	42	0	787480576	14	4321
2026-01-10 02:25:59.48	294.90	20.67	-26.9	-28.4	15.7	0.00e+00	0	42	0	795869184	14	4242
2026-01-10 02:26:02.46	294.19	20.52	-26.9	-28.3	15.8	0.00e+00	0	42	0	805306368	14	4222
2026-01-10 02:26:05.46	293.48	20.37	-26.8	-28.1	15.9	0.00e+00	0	42	0	814743552	14	4165
2026-01-10 02:26:08.44	292.79	20.22	-27.0	-28.5	15.6	0.00e+00	0	42	0	824180736	14	4290
2026-01-10 02:26:11.42	292.11	20.06	-27.1	-28.6	15.7	0.00e+00	0	42	0	833617920	14	4311
2026-01-10 02:26:14.40	291.43	19.90	-27.2	-28.9	15.6	0.00e+00	0	42	0	843055104	14	4391
2026-01-10 02:26:17.38	290.76	19.74	-27.4	-28.9	15.3	0.00e+00	0	42	0	852492288	15	4286
2026-01-10 02:26:20.37	290.09	19.58	-27.4	-28.9	15.3	0.00e+00	0	42	0	861929472	15	4281
2026-01-10 02:26:23.37	289.43	19.41	-27.2	-28.3	15.6	0.00e+00	0	42	0	871366656	15	4120
2026-01-10 02:26:26.35	288.78	19.24	-27.2	-28.5	15.5	0.00e+00	0	42	0	879755264	15	4174
2026-01-10 02:26:29.32	288.14	19.06	-27.7	-29.5	15.0	7.00e-07	0	42	0	889192448	15	4458
2026-01-10 02:26:32.30	287.50	18.89	-28.0	-29.3	14.7	7.00e-07	0	42	0	898629632	17	4173
2026-01-10 02:26:35.29	286.87	18.71	-28.2	-29.7	14.5	0.00e+00	0	42	0	908066816	17	4267
2026-01-10 02:26:38.30	286.24	18.53	-27.9	-28.9	14.9	0.00e+00	0	42	0	917504000	17	4071
2026-01-10 02:26:41.30	285.63	18.34	-27.5	-28.5	15.3	0.00e+00	0	42	0	926941184	16	4074
2026-01-10 02:26:44.31	285.02	18.16	-27.0	-28.0	15.6	0.00e+00	0	42	0	936378368	15	4055
2026-01-10 02:26:47.31	284.41	17.97	-27.0	-28.1	15.6	0.00e+00	0	42	0	945815552	15	4074
2026-01-10 02:26:50.32	283.82	17.78	-27.3	-28.8	15.1	0.00e+00	0	42	0	955252736	15	4257
2026-01-10 02:26:53.33	283.23	17.59	-27.1	-28.3	15.3	0.00e+00	0	42	0	964689920	15	4138
2026-01-10 02:26:56.33	282.65	17.39	-27.2	-28.5	15.3	7.00e-07	0	42	0	974127104	15	4187
2026-01-10 02:26:59.33	282.08	17.20	-27.2	-28.6	15.2	0.00e+00	0	42	0	983564288	15	4206
2026-01-10 02:27:02.33	281.51	17.00	-27.4	-28.9	14.9	7.00e-07	0	42	0	993001472	15	4311
2026-01-10 02:27:05.33	280.95	16.81	-28.2	-30.3	14.1	1.50e-06	0	42	0	1002438656	16	4579
2026-01-10 02:27:08.34	280.40	16.61	-28.1	-30.1	14.2	0.00e+00	0	42	0	1011875840	16	4539
2026-01-10 02:27:11.35	279.86	16.41	-27.7	-29.2	14.7	7.00e-07	0	42	0	1021313024	16	4283
2026-01-10 02:27:14.36	279.32	16.21	-27.7	-29.1	14.7	0.00e+00	0	42	0	1030750208	16	4249
2026-01-10 02:27:17.35	278.79	16.01	-28.1	-29.6	14.2	7.00e-07	0	42	0	1039138816	17	4267
2026-01-10 02:27:20.35	278.27	15.81	-27.6	-28.8	14.9	0.00e+00	0	42	0	1048576000	16	4160
2026-01-10 02:27:23.34	277.76	15.60	-27.1	-28.2	15.5	0.00e+00	0	42	0	1058013184	15	4087
2026-01-10 02:27:26.35	277.25	15.40	-27.6	-29.4	14.8	0.00e+00	0	42	0	1067450368	15	4433
2026-01-10 02:27:29.36	276.75	15.20	-27.3	-28.7	15.0	0.00e+00	0	42	0	1076887552	15	4253
2026-01-10 02:27:32.36	276.26	14.99	-27.3	-28.7	15.0	0.00e+00	0	42	0	1086324736	15	4252
2026-01-10 02:27:35.35	275.77	14.79	-27.3	-28.7	15.0	0.00e+00	0	42	0	1095761920	15	4246
2026-01-10 02:27:38.35	275.29	14.58	-27.9	-30.1	14.1	2.20e-06	0	42	0	1105199104	15	4659
2026-01-10 02:27:41.35	274.82	14.38	-27.8	-29.5	14.3	7.00e-07	0	42	0	1114636288	16	4368
2026-01-10 02:27:44.36	274.35	14.17	-27.9	-29.5	14.3	2.20e-06	0	42	0	1124073472	16	4373
2026-01-10 02:27:47.37	273.89	13.97	-27.4	-28.4	15.0	0.00e+00	0	42	0	1133510656	16	4043
2026-01-10 02:27:50.38	273.43	13.76	-27.3	-28.9	14.8	0.00e+00	0	42	0	1142947840	15	4299
2026-01-10 02:27:53.39	272.98	13.55	-27.1	-28.4	15.0	0.00e+00	0	42	0	1152385024	15	4178
2026-01-10 02:27:56.40	272.54	13.35	-27.4	-29.0	14.7	0.00e+00	0	42	0	1161822208	15	4334
2026-01-10 02:27:59.40	272.11	13.14	-27.4	-28.9	14.7	0.00e+00	0	42	0	1171259392	15	4320
2026-01-10 02:28:02.41	271.68	12.94	-27.7	-29.7	14.2	0.00e+00	0	42	0	1180696576	15	4559
2026-01-10 02:28:05.43	271.25	12.73	-28.3	-30.2	13.5	1.75e-05	0	42	0	1190133760	17	4469
2026-01-10 02:28:08.44	270.83	12.52	-28.6	-30.7	13.3	2.44e-05	0	42	0	1199570944	17	4626
2026-01-10 02:28:11.44	270.42	12.32	-27.9	-29.1	14.2	1.50e-06	0	42	0	1209008128	17	4150
2026-01-10 02:28:14.43	270.02	12.12	-27.7	-29.1	14.5	7.00e-07	0	42	0	1218445312	16	4257
2026-01-10 02:28:17.43	269.62	11.91	-28.4	-30.4	13.5	1.90e-05	0	42	0	1227882496	17	4511
2026-01-10 02:28:20.42	269.23	11.71	-28.7	-31.1	13.0	3.66e-05	0	42	0	1237319680	17	4748
2026-01-10 02:28:23.43	268.84	11.50	-28.5	-30.7	13.1	3.81e-05	0	42	0	1245708288	17	4645
2026-01-10 02:28:26.45	268.45	11.30	-28.6	-31.0	12.9	3.73e-05	0	42	0	1255145472	17	4733
2026-01-10 02:28:29.46	268.07	11.10	-28.5	-30.7	13.1	4.73e-05	0	42	0	1264582656	17	4628
2026-01-10 02:28:32.47	267.70	10.89	-27.9	-29.3	13.9	2.20e-06	0	42	0	1274019840	17	4220
2026-01-10 02:28:35.48	267.33	10.69	-28.3	-30.1	13.4	2.51e-05	0	42	0	1283457024	17	4450
2026-01-10 02:28:38.49	266.97	10.49	-28.5	-30.6	13.1	3.89e-05	0	42	0	1292894208	17	4600
2026-01-10 02:28:41.49	266.61	10.29	-28.6	-31.0	12.8	6.56e-05	0	42	0	1302331392	17	4737
2026-01-10 02:28:44.49	266.26	10.09	-28.7	-31.2	12.7	7.32e-05	0	42	0	1311768576	17	4799
2026-01-10 02:28:47.46	265.91	9.89	-28.5	-30.7	13.0	3.66e-05	0	42	0	1321205760	17	4635
2026-01-10 02:28:50.47	265.57	9.69	-28.7	-31.1	12.7	5.34e-05	0	42	0	1330642944	17	4775
2026-01-10 02:28:53.48	265.23	9.49	-28.4	-30.5	13.1	3.66e-05	0	42	0	1340080128	17	4577
2026-01-10 02:28:56.49	264.90	9.30	-28.4	-30.4	13.1	2.67e-05	0	42	0	1349517312	17	4555
2026-01-10 02:28:59.48	264.57	9.10	-28.5	-30.8	12.9	4.80e-05	0	42	0	1358954496	17	4666
2026-01-10 02:29:02.48	264.24	8.90	-28.8	-31.4	12.5	8.77e-05	0	42	0	1368391680	17	4879
2026-01-10 02:29:05.49	263.92	8.71	-28.9	-31.2	12.2	1.22e-04	0	42	0	1377828864	18	4714
2026-01-10 02:29:08.49	263.61	8.51	-29.1	-31.8	11.9	2.88e-04	0	42	0	1387266048	18	4917
2026-01-10 02:29:11.50	263.30	8.32	-29.6	-32.6	11.0	1.55e-03	0	42	0	1396703232	19	5090
2026-01-10 02:29:14.50	262.99	8.12	-29.9	-32.9	10.3	5.57e-03	0	42	0	1406140416	20	5126
2026-01-10 02:29:17.52	262.69	7.93	-29.5	-32.6	11.0	1.47e-03	0	42	0	1415577600	19	5091
2026-01-10 02:29:20.52	262.39	7.74	-29.5	-32.4	11.1	1.62e-03	0	42	0	1425014784	19	5020
2026-01-10 02:29:23.54	262.09	7.54	-29.3	-31.9	11.3	1.09e-03	0	42	0	1434451968	19	4872
2026-01-10 02:29:26.55	261.80	7.35	-28.8	-31.1	12.2	1.79e-04	0	42	0	1443889152	18	4676
2026-01-10 02:29:29.57	261.51	7.16	-29.1	-31.9	11.6	5.60e-04	0	42	0	1453326336	18	4974
2026-01-10 02:29:32.58	261.23	6.97	-33.1	-45.0	3.8	1.49e+00	0	42	104	1458569216	26	14219

#Closed at: 2026-01-10 02:29:33
#Recorded file [1458 MB]: D:/data/31010_260110_052144.dat