passes_logs/2026/01/10/R2M6_AANII_01/R2M6_AANII_01__20260110_112249_NOAA_20_JPSS-1_rec.log

#Pass ID: 20260110_112249_NOAA 20 (JPSS-1)
#Satellite: NOAA 20 (JPSS-1)
#Configuration: NOAA 20
#almurnet v.1.7.20240730
#Start time: 2026-01-10 11:22:50

#Version: 2.2.20231116
#Station: R2M6_AANII_01
#Location: 30.233357 lon 59.946436 lat
#TLE: 1 43013U 17073A   26009.26828276  .00000112  00000+0  74203-4 0  9990
#TLE: 2 43013  98.7631 310.2683 0001700  47.4387 312.6933 14.19534764421920

#Time	Az	El	Level	Level2	SNR	BER	BlckErr	Temp	State	Recorded	gain1	gain2
2026-01-10 11:22:50.79	194.09	7.10	-31.0	-36.9	5.0	1.24e+00	0	39	0	0	22	7142
2026-01-10 11:22:53.81	194.29	7.31	-31.2	-37.4	7.3	1.40e-01	0	40	0	1048576	23	7334
2026-01-10 11:22:56.82	194.49	7.53	-30.9	-35.7	8.8	4.07e-02	0	40	0	7340032	23	6280
2026-01-10 11:22:59.84	194.69	7.75	-30.8	-35.7	9.4	1.32e-02	0	40	0	12582912	22	6309
2026-01-10 11:23:02.85	194.89	7.97	-30.5	-34.5	10.3	6.16e-03	0	40	0	18874368	22	5729
2026-01-10 11:23:05.87	195.10	8.19	-30.5	-34.5	10.2	5.39e-03	0	40	0	24117248	22	5736
2026-01-10 11:23:08.88	195.31	8.42	-30.3	-34.2	10.3	6.22e-03	0	40	0	29360128	22	5614
2026-01-10 11:23:11.90	195.53	8.64	-30.1	-34.2	10.4	5.00e-03	0	40	0	35651584	21	5757
2026-01-10 11:23:14.91	195.74	8.87	-30.1	-34.1	10.5	4.76e-03	0	40	0	40894464	21	5728
2026-01-10 11:23:17.92	195.96	9.10	-30.1	-34.2	10.3	5.24e-03	0	40	0	46137344	21	5800
2026-01-10 11:23:20.94	196.19	9.33	-30.3	-34.8	10.2	5.14e-03	0	40	0	52428800	21	6025
2026-01-10 11:23:23.96	196.41	9.57	-30.6	-35.2	10.3	5.37e-03	0	41	0	57671680	21	6120
2026-01-10 11:23:26.98	196.65	9.80	-30.5	-34.8	10.7	4.09e-03	0	40	0	63963136	21	5889
2026-01-10 11:23:30.00	196.88	10.04	-30.3	-34.3	11.0	2.04e-03	0	40	0	69206016	21	5679
2026-01-10 11:23:33.02	197.12	10.28	-30.1	-33.6	11.5	1.23e-03	0	41	0	74448896	21	5384
2026-01-10 11:23:36.03	197.36	10.52	-30.0	-33.3	11.7	5.16e-04	0	41	0	80740352	21	5266
2026-01-10 11:23:39.05	197.61	10.76	-29.9	-33.1	11.8	5.24e-04	0	41	0	85983232	21	5189
2026-01-10 11:23:42.06	197.86	11.01	-29.7	-33.0	12.0	2.92e-04	0	41	0	92274688	20	5268
2026-01-10 11:23:45.07	198.11	11.25	-29.8	-33.2	11.8	4.90e-04	0	41	0	97517568	20	5352
2026-01-10 11:23:48.09	198.37	11.50	-29.6	-32.7	12.1	2.68e-04	0	41	0	102760448	20	5170
2026-01-10 11:23:51.11	198.63	11.75	-29.8	-33.2	11.9	4.26e-04	0	41	0	109051904	20	5336
2026-01-10 11:23:54.13	198.90	12.01	-29.9	-33.4	12.0	3.07e-04	0	41	0	114294784	20	5373
2026-01-10 11:23:57.15	199.17	12.26	-29.8	-33.1	12.4	1.24e-04	0	41	0	120586240	20	5231
2026-01-10 11:24:00.18	199.44	12.52	-29.7	-32.7	12.8	8.08e-05	0	41	0	125829120	20	5084
2026-01-10 11:24:03.20	199.72	12.78	-29.7	-32.8	12.7	1.06e-04	0	41	0	131072000	20	5108
2026-01-10 11:24:06.22	200.01	13.04	-29.7	-32.8	12.7	6.71e-05	0	41	0	137363456	20	5094
2026-01-10 11:24:09.24	200.30	13.31	-29.6	-32.3	13.2	3.35e-05	0	41	0	142606336	20	4900
2026-01-10 11:24:12.25	200.59	13.57	-29.7	-32.6	13.0	2.59e-05	0	41	0	148897792	20	5030
2026-01-10 11:24:15.26	200.89	13.84	-29.5	-32.2	13.3	2.44e-05	0	41	0	154140672	20	4864
2026-01-10 11:24:18.28	201.20	14.11	-29.5	-32.1	13.3	2.74e-05	0	41	0	159383552	20	4826
2026-01-10 11:24:21.30	201.51	14.38	-29.6	-32.2	13.2	1.98e-05	0	41	0	165675008	20	4873
2026-01-10 11:24:24.32	201.83	14.66	-29.4	-31.8	13.5	1.44e-05	0	42	0	170917888	20	4728
2026-01-10 11:24:27.33	202.15	14.93	-29.4	-31.7	13.5	1.22e-05	0	41	0	177209344	20	4710
2026-01-10 11:24:30.34	202.47	15.21	-29.3	-31.5	13.7	1.44e-05	0	41	0	182452224	20	4640
2026-01-10 11:24:33.36	202.81	15.50	-29.5	-31.9	13.5	2.21e-05	0	41	0	187695104	20	4760
2026-01-10 11:24:36.38	203.15	15.78	-29.5	-32.0	13.5	2.59e-05	0	41	0	193986560	20	4785
2026-01-10 11:24:39.40	203.50	16.07	-29.5	-31.8	13.6	1.22e-05	0	41	0	199229440	20	4715
2026-01-10 11:24:42.42	203.85	16.36	-29.6	-32.1	13.4	7.60e-06	0	42	0	205520896	20	4840
2026-01-10 11:24:45.43	204.21	16.65	-29.5	-32.0	13.5	9.90e-06	0	41	0	210763776	20	4793
2026-01-10 11:24:48.45	204.57	16.94	-29.6	-32.1	13.5	9.90e-06	0	41	0	216006656	20	4820
2026-01-10 11:24:51.47	204.95	17.24	-29.7	-32.4	13.4	1.44e-05	0	41	0	222298112	20	4908
2026-01-10 11:24:54.49	205.33	17.54	-29.9	-32.9	13.0	3.66e-05	0	41	0	227540992	20	5112
2026-01-10 11:24:57.51	205.72	17.84	-30.0	-33.2	12.8	5.87e-05	0	41	0	233832448	20	5219
2026-01-10 11:25:00.51	206.11	18.14	-30.2	-33.9	12.4	1.87e-04	0	42	0	239075328	20	5490
2026-01-10 11:25:03.54	206.51	18.45	-29.9	-32.9	13.1	4.57e-05	0	42	0	244318208	20	5118
2026-01-10 11:25:06.55	206.92	18.76	-30.0	-33.3	12.8	6.56e-05	0	42	0	250609664	20	5253
2026-01-10 11:25:09.57	207.34	19.07	-30.1	-33.5	12.7	9.91e-05	0	42	0	255852544	20	5347
2026-01-10 11:25:12.59	207.77	19.39	-30.2	-33.9	12.4	1.40e-04	0	42	0	261095424	20	5515
2026-01-10 11:25:15.60	208.21	19.70	-30.4	-34.4	12.1	1.90e-04	0	42	0	267386880	20	5729
2026-01-10 11:25:18.62	208.65	20.02	-30.4	-34.0	12.0	4.41e-04	0	41	0	272629760	21	5422
2026-01-10 11:25:21.64	209.11	20.34	-30.4	-33.7	12.2	1.84e-04	0	42	0	278921216	21	5311
2026-01-10 11:25:24.64	209.57	20.66	-30.4	-33.8	12.2	1.64e-04	0	42	0	284164096	21	5328
2026-01-10 11:25:27.65	210.04	20.99	-30.0	-32.6	13.0	4.65e-05	0	41	0	289406976	21	4883
2026-01-10 11:25:30.66	210.52	21.32	-30.0	-32.7	13.0	3.73e-05	0	42	0	295698432	21	4912
2026-01-10 11:25:33.67	211.02	21.65	-30.1	-33.0	12.8	6.63e-05	0	42	0	300941312	21	5005
2026-01-10 11:25:36.69	211.52	21.98	-29.9	-32.5	13.1	4.11e-05	0	42	0	307232768	21	4842
2026-01-10 11:25:39.71	212.03	22.31	-30.0	-32.5	13.1	2.44e-05	0	42	0	312475648	21	4847
2026-01-10 11:25:42.73	212.56	22.65	-30.1	-32.8	13.0	3.35e-05	0	42	0	317718528	21	4947
2026-01-10 11:25:45.74	213.09	22.99	-30.0	-32.7	13.1	4.19e-05	0	42	0	324009984	21	4909
2026-01-10 11:25:48.76	213.64	23.33	-29.8	-32.2	13.5	9.90e-06	0	42	0	329252864	21	4701
2026-01-10 11:25:51.78	214.20	23.67	-29.8	-32.5	13.5	7.60e-06	0	42	0	335544320	20	4938
2026-01-10 11:25:54.80	214.77	24.02	-29.8	-32.5	13.6	6.80e-06	0	42	0	340787200	20	4914
2026-01-10 11:25:57.82	215.36	24.36	-29.6	-32.0	13.9	7.00e-07	0	42	0	346030080	20	4765
2026-01-10 11:26:00.84	215.96	24.71	-29.6	-32.1	13.9	2.20e-06	0	42	0	352321536	20	4801
2026-01-10 11:26:03.85	216.56	25.06	-29.4	-31.5	14.2	0.00e+00	0	42	0	357564416	20	4595
2026-01-10 11:26:06.87	217.19	25.41	-29.3	-31.8	14.4	1.50e-06	0	42	0	363855872	19	4786
2026-01-10 11:26:09.88	217.82	25.76	-29.4	-31.9	14.4	1.50e-06	0	42	0	369098752	19	4814
2026-01-10 11:26:12.89	218.47	26.11	-29.5	-32.1	14.3	7.00e-07	0	42	0	374341632	19	4866
2026-01-10 11:26:15.91	219.14	26.46	-29.5	-32.2	14.2	0.00e+00	0	42	0	380633088	19	4905
2026-01-10 11:26:18.93	219.82	26.81	-29.8	-33.1	13.7	1.50e-06	0	42	0	385875968	19	5241
2026-01-10 11:26:21.95	220.51	27.17	-29.9	-32.7	13.5	9.90e-06	0	42	0	392167424	20	5002
2026-01-10 11:26:24.97	221.22	27.52	-30.1	-33.4	13.1	2.74e-05	0	42	0	397410304	20	5243
2026-01-10 11:26:27.99	221.95	27.87	-30.1	-33.3	13.2	1.60e-05	0	42	0	402653184	20	5211
2026-01-10 11:26:31.01	222.69	28.23	-30.1	-33.2	13.2	2.97e-05	0	42	0	408944640	20	5185
2026-01-10 11:26:34.03	223.45	28.58	-29.8	-32.5	13.7	1.29e-05	0	42	0	414187520	20	4923
2026-01-10 11:26:37.05	224.22	28.93	-30.1	-33.4	13.1	2.36e-05	0	42	0	420478976	20	5253
2026-01-10 11:26:40.07	225.01	29.28	-30.6	-34.1	12.3	1.22e-04	0	42	0	425721856	21	5437
2026-01-10 11:26:43.09	225.82	29.63	-30.6	-34.1	12.3	2.32e-04	0	42	0	430964736	21	5427
2026-01-10 11:26:46.11	226.64	29.97	-31.0	-34.9	11.5	1.01e-03	0	42	0	437256192	22	5640
2026-01-10 11:26:49.12	227.48	30.32	-30.9	-34.6	11.6	5.78e-04	0	42	0	442499072	22	5532
2026-01-10 11:26:52.14	228.34	30.66	-31.2	-35.4	11.1	1.17e-03	0	42	0	448790528	22	5892
2026-01-10 11:26:55.16	229.22	31.00	-31.7	-37.0	9.6	9.71e-03	0	42	0	454033408	23	6563
2026-01-10 11:26:58.18	230.12	31.33	-32.0	-37.5	8.8	3.16e-02	0	42	0	459276288	24	6763
2026-01-10 11:27:01.19	231.03	31.66	-32.1	-37.7	8.7	3.51e-02	0	42	0	465567744	24	6896
2026-01-10 11:27:04.21	231.96	31.99	-31.9	-36.9	9.3	1.98e-02	0	42	0	470810624	24	6423
2026-01-10 11:27:07.22	232.91	32.31	-32.2	-38.3	8.3	4.59e-02	0	42	0	477102080	24	7227
2026-01-10 11:27:10.25	233.88	32.62	-32.2	-38.4	8.2	5.75e-02	0	42	0	482344960	24	7298
2026-01-10 11:27:13.26	234.86	32.93	-32.1	-37.7	8.7	4.01e-02	0	42	0	487587840	24	6879
2026-01-10 11:27:16.27	235.87	33.24	-32.0	-37.5	8.9	2.85e-02	0	42	0	493879296	24	6734
2026-01-10 11:27:19.29	236.89	33.53	-32.1	-37.9	8.6	4.32e-02	0	42	0	499122176	24	6994
2026-01-10 11:27:22.31	237.93	33.82	-31.7	-36.0	10.0	7.37e-03	0	42	0	505413632	24	5917
2026-01-10 11:27:25.33	238.99	34.11	-31.5	-35.5	10.5	4.86e-03	0	42	0	510656512	24	5681
2026-01-10 11:27:28.33	240.07	34.38	-31.4	-35.0	10.8	2.49e-03	0	42	0	515899392	24	5457
2026-01-10 11:27:31.35	241.16	34.64	-31.2	-35.1	11.2	1.18e-03	0	42	0	522190848	23	5592
2026-01-10 11:27:34.36	242.27	34.90	-31.0	-34.4	11.6	6.54e-04	0	42	0	527433728	23	5287
2026-01-10 11:27:37.38	243.40	35.14	-31.1	-34.6	11.4	1.16e-03	0	42	0	532676608	23	5405
2026-01-10 11:27:40.38	244.54	35.37	-30.2	-33.0	13.3	4.04e-05	0	42	0	538968064	21	4959
2026-01-10 11:27:43.40	245.70	35.60	-30.3	-33.2	13.1	2.97e-05	0	42	0	544210944	21	5047
2026-01-10 11:27:46.42	246.88	35.81	-30.3	-33.2	13.2	2.74e-05	0	42	0	550502400	21	5015
2026-01-10 11:27:49.44	248.08	36.01	-30.4	-33.5	13.0	2.82e-05	0	42	0	555745280	21	5145
2026-01-10 11:27:52.46	249.28	36.19	-30.7	-34.3	12.4	8.16e-05	0	42	0	560988160	21	5473
2026-01-10 11:27:55.47	250.50	36.37	-30.4	-33.5	12.9	4.34e-05	0	42	0	567279616	21	5158
2026-01-10 11:27:58.49	251.73	36.53	-30.1	-32.6	13.6	1.37e-05	0	42	0	572522496	21	4797
2026-01-10 11:28:01.51	252.97	36.67	-30.2	-33.0	13.3	1.29e-05	0	42	0	578813952	21	4944
2026-01-10 11:28:04.52	254.22	36.81	-30.4	-33.5	13.0	5.72e-05	0	42	0	584056832	21	5141
2026-01-10 11:28:07.54	255.48	36.92	-30.9	-34.9	12.0	2.01e-04	0	42	0	589299712	21	5731
2026-01-10 11:28:10.56	256.76	37.02	-31.5	-35.7	10.8	3.07e-03	0	42	0	595591168	23	5875
2026-01-10 11:28:13.58	258.03	37.11	-31.2	-34.9	11.3	1.68e-03	0	42	0	600834048	23	5516
2026-01-10 11:28:16.59	259.31	37.18	-31.4	-35.5	11.0	1.02e-03	0	42	0	607125504	23	5757
2026-01-10 11:28:19.60	260.60	37.24	-32.1	-37.6	8.9	2.12e-02	0	42	0	612368384	24	6807
2026-01-10 11:28:22.62	261.89	37.28	-31.8	-36.4	9.9	1.17e-02	0	42	0	617611264	24	6112
2026-01-10 11:28:25.64	263.19	37.30	-31.7	-36.1	10.1	7.09e-03	0	42	0	623902720	24	5950
2026-01-10 11:28:28.66	264.48	37.31	-31.6	-35.6	10.5	5.40e-03	0	42	0	629145600	24	5716
2026-01-10 11:28:31.67	265.78	37.30	-31.5	-35.4	10.6	3.40e-03	0	42	0	635437056	24	5628
2026-01-10 11:28:34.69	267.07	37.27	-30.7	-33.9	12.3	1.78e-04	0	42	0	640679936	22	5181
2026-01-10 11:28:37.69	268.35	37.23	-31.3	-35.6	11.2	1.03e-03	0	42	0	645922816	22	5936
2026-01-10 11:28:40.71	269.64	37.17	-30.6	-33.5	12.7	1.01e-04	0	42	0	652214272	22	5036
2026-01-10 11:28:43.72	270.92	37.10	-30.5	-33.3	12.8	1.25e-04	0	42	0	657457152	22	4939
2026-01-10 11:28:46.74	272.20	37.01	-31.2	-35.3	11.3	1.11e-03	0	42	0	662700032	22	5798
2026-01-10 11:28:49.76	273.47	36.91	-31.3	-35.7	11.1	1.17e-03	0	42	0	668991488	22	5978
2026-01-10 11:28:52.76	274.72	36.79	-30.9	-34.5	11.9	4.71e-04	0	42	0	674234368	22	5452
2026-01-10 11:28:55.77	275.97	36.66	-31.6	-36.2	10.4	3.38e-03	0	42	0	680525824	23	6086
2026-01-10 11:28:58.79	277.21	36.51	-31.8	-36.9	9.9	1.16e-02	0	42	0	685768704	23	6490
2026-01-10 11:29:01.81	278.43	36.35	-31.1	-34.5	11.6	7.00e-04	0	42	0	691011584	23	5316
2026-01-10 11:29:04.81	279.64	36.18	-31.3	-35.0	11.2	1.41e-03	0	42	0	697303040	23	5567
2026-01-10 11:29:07.83	280.84	35.99	-31.3	-35.3	11.0	1.88e-03	0	42	0	702545920	23	5692
2026-01-10 11:29:10.83	282.03	35.79	-30.9	-33.8	12.0	3.63e-04	0	42	0	708837376	23	5069
2026-01-10 11:29:13.85	283.20	35.58	-30.6	-33.4	12.8	5.49e-05	0	42	0	714080256	22	5000
2026-01-10 11:29:16.86	284.35	35.36	-30.2	-32.9	13.4	3.28e-05	0	42	0	719323136	21	4932
2026-01-10 11:29:19.88	285.50	35.12	-30.1	-32.7	13.5	1.60e-05	0	42	0	725614592	21	4844
2026-01-10 11:29:22.90	286.62	34.88	-29.7	-32.2	14.1	3.00e-06	0	42	0	730857472	20	4774
2026-01-10 11:29:25.91	287.73	34.63	-29.9	-32.6	13.9	4.50e-06	0	42	0	737148928	20	4910
2026-01-10 11:29:28.93	288.82	34.36	-30.1	-33.2	13.4	2.13e-05	0	42	0	742391808	20	5140
2026-01-10 11:29:31.95	289.89	34.09	-30.2	-33.6	13.2	2.36e-05	0	42	0	747634688	20	5278
2026-01-10 11:29:34.95	290.94	33.81	-30.3	-33.2	13.1	3.58e-05	0	42	0	753926144	21	5017
2026-01-10 11:29:37.96	291.98	33.52	-30.3	-33.2	13.2	3.20e-05	0	42	0	759169024	21	5021
2026-01-10 11:29:40.98	293.00	33.23	-31.4	-36.1	10.8	2.23e-03	0	42	0	764411904	22	6200
2026-01-10 11:29:43.99	293.99	32.92	-30.7	-33.9	12.3	1.76e-04	0	42	0	770703360	22	5176
2026-01-10 11:29:47.00	294.97	32.62	-32.0	-37.6	9.2	8.68e-03	0	42	0	775946240	23	6921
2026-01-10 11:29:50.02	295.94	32.30	-30.8	-33.6	12.2	7.15e-04	0	42	0	782237696	23	4983
2026-01-10 11:29:53.03	296.88	31.98	-31.1	-35.2	11.5	5.62e-04	0	42	0	787480576	22	5731
2026-01-10 11:29:56.05	297.81	31.66	-30.6	-33.7	12.5	2.52e-04	0	42	0	792723456	22	5103
2026-01-10 11:29:59.07	298.72	31.33	-30.7	-33.7	12.5	7.47e-05	0	42	0	799014912	22	5117
2026-01-10 11:30:02.09	299.61	31.00	-31.5	-35.7	10.7	3.66e-03	0	42	0	804257792	23	5885
2026-01-10 11:30:05.10	300.48	30.66	-31.1	-34.4	11.6	4.53e-04	0	42	0	810549248	23	5306
2026-01-10 11:30:08.12	301.34	30.32	-31.9	-37.2	9.5	1.60e-02	0	42	0	815792128	23	6687
2026-01-10 11:30:11.13	302.17	29.98	-31.3	-35.2	11.0	1.04e-03	0	42	0	821035008	23	5662
2026-01-10 11:30:14.14	302.99	29.64	-31.8	-37.1	9.6	1.09e-02	0	42	0	827326464	23	6594
2026-01-10 11:30:17.16	303.79	29.29	-31.4	-35.2	10.6	1.12e-02	0	42	0	832569344	24	5558
2026-01-10 11:30:20.19	304.58	28.94	-31.4	-35.6	10.7	1.07e-03	0	42	0	838860800	23	5835
2026-01-10 11:30:23.20	305.35	28.60	-32.2	-38.0	8.5	7.55e-02	0	42	0	844103680	24	7016
2026-01-10 11:30:26.21	306.10	28.25	-30.4	-32.9	12.9	1.01e-04	0	42	0	849346560	22	4833
2026-01-10 11:30:29.22	306.84	27.90	-31.0	-35.0	11.6	3.89e-04	0	42	0	855638016	22	5659
2026-01-10 11:30:32.23	307.56	27.55	-30.5	-33.3	12.7	1.43e-04	0	42	0	860880896	22	4958
2026-01-10 11:30:35.25	308.26	27.20	-30.5	-33.9	12.6	7.24e-05	0	42	0	867172352	21	5312
2026-01-10 11:30:38.27	308.96	26.85	-31.3	-35.9	10.8	2.26e-03	0	42	0	872415232	22	6113
2026-01-10 11:30:41.28	309.63	26.50	-30.5	-33.2	12.8	8.62e-05	0	42	0	877658112	22	4922
2026-01-10 11:30:44.31	310.30	26.15	-30.6	-33.7	12.4	1.44e-04	0	42	0	883949568	22	5141
2026-01-10 11:30:47.33	310.94	25.80	-30.6	-33.6	12.4	3.20e-04	0	42	0	889192448	22	5086
2026-01-10 11:30:50.34	311.58	25.45	-29.0	-30.8	15.2	0.00e+00	0	42	0	895483904	19	4446
2026-01-10 11:30:53.35	312.19	25.10	-29.0	-30.9	15.2	0.00e+00	0	42	0	900726784	19	4468
2026-01-10 11:30:56.37	312.80	24.76	-29.2	-31.4	14.8	0.00e+00	0	42	0	905969664	19	4634
2026-01-10 11:30:59.39	313.40	24.41	-28.6	-30.2	15.8	0.00e+00	0	42	0	912261120	18	4369
2026-01-10 11:31:02.42	313.98	24.07	-28.6	-30.4	15.8	0.00e+00	0	42	0	917504000	18	4405
2026-01-10 11:31:05.43	314.55	23.73	-29.0	-31.2	15.2	0.00e+00	0	42	0	922746880	18	4681
2026-01-10 11:31:08.44	315.11	23.39	-28.5	-30.0	16.0	0.00e+00	0	42	0	929038336	18	4299
2026-01-10 11:31:11.46	315.65	23.05	-28.3	-30.1	16.2	0.00e+00	0	42	0	934281216	17	4427
2026-01-10 11:31:14.47	316.19	22.71	-28.8	-31.3	15.4	0.00e+00	0	42	0	940572672	17	4804
2026-01-10 11:31:17.49	316.71	22.38	-28.8	-31.4	15.3	0.00e+00	0	42	0	945815552	17	4864
2026-01-10 11:31:20.50	317.22	22.05	-28.5	-30.7	15.8	0.00e+00	0	42	0	951058432	17	4628
2026-01-10 11:31:23.51	317.72	21.72	-28.5	-30.8	15.7	0.00e+00	0	42	0	957349888	17	4648
2026-01-10 11:31:26.52	318.21	21.39	-29.2	-32.0	14.7	7.00e-07	0	42	0	962592768	18	4956
2026-01-10 11:31:29.54	318.70	21.07	-29.2	-31.9	14.7	7.00e-07	0	42	0	968884224	18	4928
2026-01-10 11:31:32.57	319.17	20.74	-29.3	-32.2	14.6	0.00e+00	0	42	0	974127104	18	5000
2026-01-10 11:31:35.58	319.63	20.42	-29.3	-32.1	14.6	0.00e+00	0	42	0	979369984	18	4972
2026-01-10 11:31:38.60	320.09	20.10	-29.5	-32.2	14.2	3.00e-06	0	42	0	985661440	19	4909
2026-01-10 11:31:41.62	320.53	19.79	-29.4	-31.9	14.3	2.20e-06	0	42	0	990904320	19	4823
2026-01-10 11:31:44.64	320.97	19.47	-29.1	-31.1	14.8	0.00e+00	0	42	0	997195776	19	4554
2026-01-10 11:31:47.66	321.39	19.16	-29.3	-31.6	14.6	0.00e+00	0	42	0	1002438656	19	4697
2026-01-10 11:31:50.67	321.81	18.85	-29.4	-32.1	14.3	7.00e-07	0	42	0	1007681536	19	4860
2026-01-10 11:31:53.69	322.22	18.54	-29.3	-31.7	14.4	7.00e-07	0	42	0	1013972992	19	4752
2026-01-10 11:31:56.71	322.63	18.24	-29.3	-31.8	14.4	0.00e+00	0	42	0	1019215872	19	4764
2026-01-10 11:31:59.72	323.02	17.94	-29.8	-33.1	13.6	1.50e-06	0	42	0	1025507328	19	5241
2026-01-10 11:32:02.74	323.41	17.64	-30.3	-34.0	12.6	8.77e-05	0	42	0	1030750208	20	5499
2026-01-10 11:32:05.74	323.79	17.34	-30.1	-33.5	12.8	8.31e-05	0	42	0	1035993088	20	5317
2026-01-10 11:32:08.76	324.16	17.05	-29.8	-32.5	13.5	1.90e-05	0	42	0	1042284544	20	4919
2026-01-10 11:32:11.77	324.53	16.76	-29.8	-32.6	13.4	1.52e-05	0	42	0	1047527424	20	4959
2026-01-10 11:32:14.79	324.88	16.47	-30.1	-33.3	12.9	3.96e-05	0	42	0	1053818880	20	5241
2026-01-10 11:32:17.81	325.24	16.18	-30.4	-34.2	12.3	1.76e-04	0	42	0	1059061760	20	5604
2026-01-10 11:32:20.82	325.58	15.90	-30.2	-33.9	12.5	1.31e-04	0	42	0	1064304640	20	5477
2026-01-10 11:32:23.82	325.92	15.62	-30.1	-33.4	12.8	9.38e-05	0	42	0	1070596096	20	5291
2026-01-10 11:32:26.83	326.26	15.34	-29.9	-33.0	13.0	3.28e-05	0	42	0	1075838976	20	5146
2026-01-10 11:32:29.84	326.58	15.06	-30.1	-33.6	12.6	6.56e-05	0	42	0	1081081856	20	5370
2026-01-10 11:32:32.86	326.91	14.78	-30.2	-33.9	12.4	1.98e-04	0	42	0	1087373312	20	5500
2026-01-10 11:32:35.88	327.22	14.51	-30.3	-34.1	12.2	1.59e-04	0	42	0	1092616192	20	5594
2026-01-10 11:32:38.90	327.54	14.24	-30.0	-33.3	12.8	6.40e-05	0	42	0	1098907648	20	5244
2026-01-10 11:32:41.91	327.84	13.97	-29.8	-32.6	13.3	1.98e-05	0	42	0	1104150528	20	4972
2026-01-10 11:32:44.93	328.14	13.71	-29.6	-32.2	13.5	1.60e-05	0	42	0	1109393408	20	4839
2026-01-10 11:32:47.95	328.44	13.44	-29.7	-32.4	13.4	1.60e-05	0	42	0	1115684864	20	4913
2026-01-10 11:32:50.97	328.73	13.18	-29.9	-33.0	12.9	6.40e-05	0	42	0	1120927744	20	5144
2026-01-10 11:32:53.98	329.01	12.92	-30.3	-34.1	12.2	2.45e-04	0	42	0	1127219200	20	5574
2026-01-10 11:32:57.00	329.30	12.66	-30.3	-34.3	12.0	3.56e-04	0	42	0	1132462080	20	5668
2026-01-10 11:33:00.01	329.57	12.41	-30.5	-34.4	11.5	5.39e-04	0	42	0	1137704960	21	5623
2026-01-10 11:33:03.03	329.84	12.15	-30.1	-33.2	12.3	3.57e-04	0	42	0	1143996416	21	5141
2026-01-10 11:33:06.04	330.11	11.90	-29.8	-32.6	13.1	4.80e-05	0	42	0	1149239296	20	5016
2026-01-10 11:33:09.06	330.37	11.65	-29.7	-32.6	13.1	4.88e-05	0	42	0	1155530752	20	5009
2026-01-10 11:33:12.09	330.64	11.41	-30.0	-33.3	12.6	8.31e-05	0	42	0	1160773632	20	5265
2026-01-10 11:33:15.09	330.89	11.16	-30.0	-33.4	12.5	1.19e-04	0	42	0	1166016512	20	5338
2026-01-10 11:33:18.11	331.14	10.92	-30.0	-33.4	12.4	1.39e-04	0	42	0	1172307968	20	5339
2026-01-10 11:33:21.12	331.39	10.68	-30.0	-33.5	12.4	1.91e-04	0	42	0	1177550848	20	5384
2026-01-10 11:33:24.14	331.63	10.44	-30.0	-33.5	12.4	1.91e-04	0	42	0	1183842304	20	5360
2026-01-10 11:33:27.15	331.87	10.20	-30.1	-33.6	12.2	2.24e-04	0	42	0	1189085184	20	5433
2026-01-10 11:33:30.16	332.11	9.97	-30.1	-33.8	12.1	2.58e-04	0	42	0	1194328064	20	5505
2026-01-10 11:33:33.18	332.34	9.73	-30.0	-33.6	12.2	2.82e-04	0	42	0	1200619520	20	5421
2026-01-10 11:33:36.18	332.57	9.50	-30.2	-34.0	12.0	3.49e-04	0	42	0	1205862400	20	5575
2026-01-10 11:33:39.20	332.79	9.27	-30.4	-34.7	11.4	7.71e-04	0	42	0	1211105280	20	5899
2026-01-10 11:33:42.22	333.02	9.04	-30.3	-34.6	11.5	1.03e-03	0	42	0	1217396736	20	5857
2026-01-10 11:33:45.24	333.24	8.82	-30.4	-34.6	11.4	1.06e-03	0	42	0	1222639616	20	5891
2026-01-10 11:33:48.25	333.45	8.59	-30.3	-34.5	11.5	9.16e-04	0	42	0	1228931072	20	5829
2026-01-10 11:33:51.26	333.66	8.37	-30.4	-34.9	11.2	9.10e-04	0	42	0	1234173952	20	5997
2026-01-10 11:33:54.28	333.87	8.15	-30.4	-34.8	11.2	1.20e-03	0	42	0	1239416832	20	5993
2026-01-10 11:33:57.31	334.08	7.93	-30.6	-35.0	10.7	2.16e-03	0	42	0	1245708288	21	5964
2026-01-10 11:34:00.32	334.29	7.71	-30.7	-35.4	10.4	4.15e-03	0	42	0	1250951168	21	6162
2026-01-10 11:34:03.35	334.49	7.49	-30.7	-35.3	10.4	4.75e-03	0	42	0	1257242624	21	6146
2026-01-10 11:34:06.35	334.69	7.28	-30.9	-36.1	9.8	1.09e-02	0	42	0	1262485504	21	6528
2026-01-10 11:34:09.37	334.88	7.06	-32.1	-40.2	6.4	7.01e-03	0	42	0	1267728384	24	9124
2026-01-10 11:34:12.38	335.07	6.85	-33.4	-47.9	3.8	1.49e+00	0	42	104	1267728384	26	19132

#Closed at: 2026-01-10 11:34:13
#Recorded file [1267 MB]: D:/data/31010_260110_142252.dat