passes_logs/2026/01/10/R2M6_AANII_01/R2M6_AANII_01__20260110_102259_FENGYUN_3D_rec.log

#Pass ID: 20260110_102259_FENGYUN 3D
#Satellite: FENGYUN 3D
#Configuration: FENGYUN 3D
#almurnet v.1.7.20240730
#Start time: 2026-01-10 10:23:00

#Version: 2.2.20231116
#Station: R2M6_AANII_01
#Location: 30.233357 lon 59.946436 lat
#TLE: 1 43010U 17072A   26009.29492227  .00000158  00000+0  96483-4 0  9996
#TLE: 2 43010  98.9936 341.0229 0002153 117.3665 242.7729 14.19694440422446

#Time	Az	El	Level	Level2	SNR	BER	BlckErr	Temp	State	Recorded	gain1	gain2
2026-01-10 10:23:00.86	99.09	7.09	-31.0	-42.1	3.8	8.47e-01	0	39	0	0	22	12804
2026-01-10 10:23:03.88	98.80	7.28	-30.8	-41.0	3.8	8.46e-01	0	40	104	0	23	11672
2026-01-10 10:23:06.90	98.52	7.48	-30.5	-40.9	3.8	8.46e-01	0	40	104	0	22	11934
2026-01-10 10:23:09.91	98.23	7.67	-30.3	-40.2	3.8	8.45e-01	0	40	104	0	22	11139
2026-01-10 10:23:12.93	97.93	7.87	-30.5	-40.8	3.8	8.46e-01	0	40	104	0	22	11779
2026-01-10 10:23:15.95	97.63	8.06	-30.6	-41.1	3.8	8.47e-01	0	40	104	0	22	12183
2026-01-10 10:23:18.97	97.33	8.26	-30.6	-41.0	3.8	8.46e-01	0	40	104	0	22	12018
2026-01-10 10:23:22.00	97.02	8.46	-30.5	-41.1	3.8	8.45e-01	0	40	104	0	22	12151
2026-01-10 10:23:25.02	96.71	8.65	-30.4	-40.8	3.8	8.46e-01	0	40	104	0	22	11882
2026-01-10 10:23:28.04	96.39	8.85	-30.4	-40.8	3.8	8.46e-01	0	41	104	0	22	11959
2026-01-10 10:23:31.07	96.07	9.05	-30.4	-40.7	3.8	8.46e-01	0	41	104	0	22	11851
2026-01-10 10:23:34.09	95.75	9.25	-30.3	-40.6	3.8	8.44e-01	0	41	104	0	22	11815
2026-01-10 10:23:37.11	95.42	9.45	-30.2	-40.8	3.8	8.47e-01	0	41	104	0	21	12193
2026-01-10 10:23:40.13	95.08	9.66	-30.3	-39.9	3.8	8.45e-01	0	40	104	0	21	10817
2026-01-10 10:23:43.15	94.74	9.86	-30.4	-38.2	4.2	8.39e-01	0	41	0	0	21	8884
2026-01-10 10:23:46.18	94.40	10.06	-30.7	-37.1	5.1	7.50e-01	0	41	0	0	21	7572
2026-01-10 10:23:49.20	94.05	10.27	-30.6	-35.7	6.4	2.70e-01	0	41	0	13631488	21	6504
2026-01-10 10:23:52.22	93.70	10.47	-31.2	-37.4	5.4	7.21e-01	0	41	0	28311552	22	7298
2026-01-10 10:23:55.24	93.34	10.68	-30.6	-34.8	7.1	1.77e-01	0	41	0	42991616	22	5823
2026-01-10 10:23:58.26	92.97	10.88	-29.6	-32.4	9.5	2.44e-02	0	41	0	59768832	20	4998
2026-01-10 10:24:01.28	92.60	11.09	-27.5	-29.0	13.2	6.20e-04	0	41	0	76546048	16	4290
2026-01-10 10:24:04.30	92.23	11.29	-29.0	-31.8	10.8	2.94e-03	0	41	0	94371840	18	4972
2026-01-10 10:24:07.32	91.85	11.50	-27.9	-29.5	12.5	2.91e-04	0	41	0	111149056	17	4317
2026-01-10 10:24:10.34	91.46	11.71	-28.1	-30.0	12.2	6.12e-04	0	41	0	127926272	17	4468
2026-01-10 10:24:13.36	91.07	11.92	-26.6	-28.0	14.2	9.10e-06	0	41	0	144703488	14	4223
2026-01-10 10:24:16.38	90.67	12.13	-25.6	-26.6	15.5	0.00e+00	0	41	0	161480704	12	4066
2026-01-10 10:24:19.40	90.27	12.33	-25.7	-27.0	15.3	0.00e+00	0	41	0	179306496	12	4168
2026-01-10 10:24:22.42	89.86	12.54	-25.9	-27.5	15.1	0.00e+00	0	41	0	196083712	12	4290
2026-01-10 10:24:25.44	89.45	12.75	-26.0	-27.5	15.1	0.00e+00	0	41	0	212860928	12	4304
2026-01-10 10:24:28.46	89.03	12.96	-25.5	-26.5	15.7	0.00e+00	0	41	0	229638144	12	4044
2026-01-10 10:24:31.49	88.60	13.18	-25.6	-26.6	15.6	0.00e+00	0	41	0	246415360	12	4068
2026-01-10 10:24:34.51	88.16	13.39	-25.9	-27.3	15.3	0.00e+00	0	41	0	264241152	12	4252
2026-01-10 10:24:37.52	87.73	13.60	-25.8	-27.1	15.4	0.00e+00	0	41	0	281018368	12	4180
2026-01-10 10:24:40.54	87.28	13.81	-25.9	-27.3	15.4	0.00e+00	0	41	0	297795584	12	4235
2026-01-10 10:24:43.55	86.83	14.02	-25.5	-26.5	15.7	0.00e+00	0	41	0	314572800	12	4038
2026-01-10 10:24:46.58	86.37	14.23	-25.2	-26.3	16.2	0.00e+00	0	41	0	331350016	11	4078
2026-01-10 10:24:49.60	85.90	14.44	-25.2	-26.4	16.2	0.00e+00	0	41	0	349175808	11	4099
2026-01-10 10:24:52.62	85.43	14.65	-25.2	-26.3	16.2	0.00e+00	0	41	0	365953024	11	4089
2026-01-10 10:24:55.64	84.95	14.86	-25.1	-26.1	16.3	0.00e+00	0	41	0	382730240	11	4038
2026-01-10 10:24:58.67	84.47	15.07	-25.2	-26.2	16.3	0.00e+00	0	41	0	399507456	11	4051
2026-01-10 10:25:01.68	83.97	15.28	-25.3	-26.5	16.1	0.00e+00	0	41	0	416284672	11	4143
2026-01-10 10:25:04.70	83.47	15.49	-25.3	-26.5	16.2	0.00e+00	0	41	0	434110464	11	4125
2026-01-10 10:25:07.72	82.97	15.70	-25.1	-26.1	16.4	0.00e+00	0	41	0	450887680	11	4016
2026-01-10 10:25:10.72	82.46	15.91	-25.1	-26.0	16.5	0.00e+00	0	41	0	467664896	11	4005
2026-01-10 10:25:13.73	81.94	16.12	-25.0	-25.7	16.7	0.00e+00	0	41	0	484442112	11	3930
2026-01-10 10:25:16.75	81.41	16.32	-25.0	-25.8	16.6	0.00e+00	0	41	0	501219328	11	3956
2026-01-10 10:25:19.78	80.87	16.53	-24.8	-25.3	16.9	0.00e+00	0	42	0	519045120	11	3842
2026-01-10 10:25:22.80	80.33	16.74	-24.7	-25.6	17.0	0.00e+00	0	41	0	535822336	10	4005
2026-01-10 10:25:25.82	79.77	16.94	-24.6	-25.5	17.1	0.00e+00	0	41	0	552599552	10	3984
2026-01-10 10:25:28.84	79.21	17.15	-24.8	-25.8	16.9	0.00e+00	0	41	0	569376768	10	4053
2026-01-10 10:25:31.85	78.65	17.35	-24.5	-25.3	17.2	0.00e+00	0	42	0	586153984	10	3928
2026-01-10 10:25:34.87	78.08	17.55	-24.4	-25.1	17.3	0.00e+00	0	42	0	603979776	10	3877
2026-01-10 10:25:37.89	77.49	17.75	-24.6	-25.5	17.1	0.00e+00	0	41	0	620756992	10	3988
2026-01-10 10:25:40.91	76.90	17.95	-24.8	-25.8	16.9	0.00e+00	0	42	0	637534208	10	4063
2026-01-10 10:25:43.93	76.31	18.15	-24.6	-25.5	17.1	0.00e+00	0	42	0	654311424	10	3970
2026-01-10 10:25:46.94	75.70	18.34	-24.6	-25.4	17.1	0.00e+00	0	42	0	671088640	10	3958
2026-01-10 10:25:49.97	75.09	18.53	-24.6	-26.0	17.1	0.00e+00	0	42	0	688914432	9	4234
2026-01-10 10:25:52.98	74.47	18.73	-24.4	-25.6	17.3	0.00e+00	0	42	0	705691648	9	4111
2026-01-10 10:25:56.00	73.84	18.91	-24.4	-25.4	17.4	0.00e+00	0	42	0	722468864	9	4070
2026-01-10 10:25:59.03	73.20	19.10	-24.1	-24.9	17.7	0.00e+00	0	42	0	739246080	9	3955
2026-01-10 10:26:02.04	72.56	19.29	-24.1	-24.9	17.7	0.00e+00	0	41	0	756023296	9	3940
2026-01-10 10:26:05.06	71.90	19.47	-24.0	-24.7	17.8	0.00e+00	0	42	0	772800512	9	3898
2026-01-10 10:26:08.07	71.24	19.65	-24.3	-25.2	17.7	0.00e+00	0	41	0	790626304	9	3987
2026-01-10 10:26:11.09	70.58	19.83	-24.0	-24.5	18.1	0.00e+00	0	42	0	807403520	9	3835
2026-01-10 10:26:14.11	69.90	20.00	-23.9	-24.8	18.2	0.00e+00	0	42	0	824180736	8	4009
2026-01-10 10:26:17.13	69.22	20.17	-23.8	-24.6	18.3	0.00e+00	0	42	0	840957952	8	3961
2026-01-10 10:26:20.15	68.52	20.34	-23.9	-24.9	18.2	0.00e+00	0	42	0	857735168	8	4024
2026-01-10 10:26:23.16	67.83	20.50	-23.7	-24.4	18.4	0.00e+00	0	41	0	875560960	8	3908
2026-01-10 10:26:26.18	67.12	20.66	-23.5	-23.9	18.7	0.00e+00	0	42	0	892338176	8	3802
2026-01-10 10:26:29.20	66.41	20.82	-23.8	-24.6	18.3	0.00e+00	0	42	0	909115392	8	3957
2026-01-10 10:26:32.22	65.68	20.98	-23.7	-24.4	18.4	0.00e+00	0	42	0	925892608	8	3908
2026-01-10 10:26:35.24	64.96	21.13	-24.2	-25.5	17.9	0.00e+00	0	42	0	942669824	8	4175
2026-01-10 10:26:38.26	64.22	21.27	-24.1	-24.7	18.0	0.00e+00	0	42	0	960495616	9	3878
2026-01-10 10:26:41.27	63.48	21.41	-24.4	-25.4	17.7	0.00e+00	0	42	0	977272832	9	4036
2026-01-10 10:26:44.28	62.73	21.55	-23.9	-24.3	18.2	0.00e+00	0	42	0	994050048	9	3780
2026-01-10 10:26:47.30	61.98	21.68	-23.4	-23.8	18.8	0.00e+00	0	42	0	1010827264	8	3762
2026-01-10 10:26:50.33	61.21	21.81	-23.5	-24.1	18.6	0.00e+00	0	42	0	1027604480	8	3832
2026-01-10 10:26:53.35	60.45	21.93	-23.4	-24.2	18.8	0.00e+00	0	42	0	1044381696	7	3982
2026-01-10 10:26:56.37	59.67	22.05	-23.5	-24.6	18.6	0.00e+00	0	42	0	1062207488	7	4057
2026-01-10 10:26:59.39	58.89	22.16	-23.5	-24.6	18.6	0.00e+00	0	42	0	1078984704	7	4064
2026-01-10 10:27:02.40	58.11	22.27	-23.5	-24.5	18.7	0.00e+00	0	42	0	1095761920	7	4041
2026-01-10 10:27:05.42	57.32	22.37	-23.6	-24.7	18.6	0.00e+00	0	42	0	1112539136	7	4081
2026-01-10 10:27:08.43	56.52	22.47	-23.4	-24.2	18.8	0.00e+00	0	42	0	1129316352	7	3969
2026-01-10 10:27:11.45	55.72	22.56	-23.3	-24.2	18.9	0.00e+00	0	42	0	1146093568	7	3961
2026-01-10 10:27:14.48	54.91	22.65	-23.2	-24.0	18.9	0.00e+00	0	42	0	1163919360	7	3916
2026-01-10 10:27:17.49	54.11	22.73	-22.8	-23.5	19.5	0.00e+00	0	42	0	1180696576	6	3901
2026-01-10 10:27:20.52	53.29	22.80	-23.0	-23.9	19.2	0.00e+00	0	42	0	1197473792	6	4015
2026-01-10 10:27:23.53	52.48	22.87	-23.1	-24.2	19.1	0.00e+00	0	42	0	1214251008	6	4078
2026-01-10 10:27:26.54	51.66	22.93	-23.0	-24.0	19.2	0.00e+00	0	42	0	1231028224	6	4030
2026-01-10 10:27:29.56	50.83	22.99	-22.9	-23.8	19.3	0.00e+00	0	42	0	1248854016	6	3980
2026-01-10 10:27:32.58	50.01	23.04	-24.1	-25.3	18.1	0.00e+00	0	42	0	1265631232	8	4119
2026-01-10 10:27:35.61	49.18	23.08	-23.1	-23.8	19.1	0.00e+00	0	42	0	1282408448	7	3864
2026-01-10 10:27:38.63	48.34	23.11	-23.0	-23.5	19.3	0.00e+00	0	42	0	1299185664	7	3793
2026-01-10 10:27:41.65	47.51	23.14	-22.7	-23.4	19.5	0.00e+00	0	42	0	1315962880	6	3892
2026-01-10 10:27:44.66	46.68	23.17	-23.2	-24.3	19.1	0.00e+00	0	42	0	1333788672	6	4103
2026-01-10 10:27:47.67	45.85	23.18	-23.0	-23.9	19.3	0.00e+00	0	42	0	1350565888	6	4010
2026-01-10 10:27:50.70	45.01	23.19	-22.9	-23.8	19.4	0.00e+00	0	42	0	1367343104	6	3971
2026-01-10 10:27:53.71	44.18	23.20	-23.0	-23.9	19.3	0.00e+00	0	42	0	1384120320	6	4005
2026-01-10 10:27:56.74	43.34	23.20	-23.0	-23.9	19.3	0.00e+00	0	42	0	1400897536	6	3994
2026-01-10 10:27:59.76	42.50	23.19	-23.0	-24.0	19.2	0.00e+00	0	42	0	1418723328	6	4024
2026-01-10 10:28:02.78	41.66	23.17	-22.9	-23.7	19.4	0.00e+00	0	42	0	1435500544	6	3948
2026-01-10 10:28:05.79	40.83	23.15	-22.9	-23.8	19.4	0.00e+00	0	42	0	1452277760	6	3988
2026-01-10 10:28:08.82	40.00	23.12	-22.8	-23.6	19.5	0.00e+00	0	42	0	1469054976	6	3926
2026-01-10 10:28:11.83	39.17	23.08	-22.8	-23.4	19.5	0.00e+00	0	42	0	1485832192	6	3898
2026-01-10 10:28:14.84	38.34	23.04	-22.7	-23.4	19.5	0.00e+00	0	42	0	1503657984	6	3885
2026-01-10 10:28:17.86	37.52	22.99	-22.9	-23.7	19.4	0.00e+00	0	42	0	1520435200	6	3952
2026-01-10 10:28:20.88	36.69	22.94	-22.9	-23.8	19.3	0.00e+00	0	42	0	1537212416	6	3971
2026-01-10 10:28:23.91	35.87	22.88	-22.9	-23.7	19.4	0.00e+00	0	42	0	1553989632	6	3960
2026-01-10 10:28:26.94	35.05	22.81	-22.9	-23.8	19.3	0.00e+00	0	42	0	1570766848	6	3980
2026-01-10 10:28:29.95	34.24	22.74	-22.7	-23.3	19.6	0.00e+00	0	42	0	1588592640	6	3868
2026-01-10 10:28:32.97	33.43	22.66	-23.0	-23.9	19.2	0.00e+00	0	42	0	1605369856	6	4007
2026-01-10 10:28:35.99	32.62	22.58	-23.0	-24.0	19.2	0.00e+00	0	42	0	1622147072	6	4036
2026-01-10 10:28:39.01	31.82	22.49	-23.5	-24.6	18.7	0.00e+00	0	42	0	1638924288	7	4063
2026-01-10 10:28:42.02	31.03	22.39	-23.1	-23.6	19.2	0.00e+00	0	42	0	1655701504	7	3836
2026-01-10 10:28:45.05	30.24	22.29	-23.1	-23.7	19.2	0.00e+00	0	42	0	1673527296	7	3857
2026-01-10 10:28:48.07	29.45	22.18	-23.1	-23.6	19.3	0.00e+00	0	42	0	1690304512	7	3819
2026-01-10 10:28:51.08	28.68	22.07	-23.1	-23.6	19.2	0.00e+00	0	42	0	1707081728	7	3824
2026-01-10 10:28:54.09	27.90	21.95	-23.0	-23.4	19.3	0.00e+00	0	42	0	1723858944	7	3789
2026-01-10 10:28:57.11	27.14	21.83	-23.1	-23.6	19.2	0.00e+00	0	42	0	1740636160	7	3834
2026-01-10 10:29:00.13	26.37	21.71	-23.4	-24.2	19.0	0.00e+00	0	42	0	1758461952	7	3966
2026-01-10 10:29:03.13	25.62	21.57	-23.2	-23.9	19.1	0.00e+00	0	42	0	1775239168	7	3892
2026-01-10 10:29:06.15	24.88	21.44	-23.4	-24.3	18.8	0.00e+00	0	42	0	1792016384	7	3997
2026-01-10 10:29:09.16	24.14	21.30	-23.4	-24.3	18.8	0.00e+00	0	42	0	1808793600	7	4001
2026-01-10 10:29:12.18	23.40	21.15	-23.3	-24.0	18.9	0.00e+00	0	42	0	1825570816	7	3931
2026-01-10 10:29:15.19	22.68	21.01	-23.1	-23.8	19.1	0.00e+00	0	42	0	1842348032	7	3862
2026-01-10 10:29:18.21	21.96	20.85	-23.3	-24.1	18.9	0.00e+00	0	42	0	1860173824	7	3937
2026-01-10 10:29:21.23	21.24	20.70	-23.3	-24.0	18.9	0.00e+00	0	42	0	1876951040	7	3924
2026-01-10 10:29:24.24	20.54	20.54	-23.4	-24.3	18.8	0.00e+00	0	42	0	1893728256	7	3984
2026-01-10 10:29:27.25	19.84	20.37	-23.6	-24.7	18.6	0.00e+00	0	42	0	1910505472	7	4095
2026-01-10 10:29:30.27	19.15	20.21	-23.8	-25.1	18.4	0.00e+00	0	42	0	1927282688	7	4187
2026-01-10 10:29:33.29	18.47	20.04	-24.2	-25.4	18.0	0.00e+00	0	42	0	1945108480	8	4159
2026-01-10 10:29:36.31	17.79	19.86	-24.2	-25.5	18.0	0.00e+00	0	42	0	1961885696	8	4163
2026-01-10 10:29:39.33	17.12	19.69	-23.9	-24.3	18.3	0.00e+00	0	42	0	1978662912	9	3787
2026-01-10 10:29:42.34	16.47	19.51	-23.8	-24.7	18.4	0.00e+00	0	42	0	1995440128	8	3969
2026-01-10 10:29:45.36	15.81	19.33	-23.9	-24.9	18.2	0.00e+00	0	42	0	2012217344	8	4036
2026-01-10 10:29:48.37	15.17	19.14	-24.1	-25.3	17.9	0.00e+00	0	42	0	2028994560	8	4139
2026-01-10 10:29:51.39	14.54	18.96	-24.4	-25.9	17.7	0.00e+00	0	42	0	2046820352	8	4292
2026-01-10 10:29:54.41	13.91	18.77	-24.2	-25.0	17.9	0.00e+00	0	42	0	2063597568	9	3949
2026-01-10 10:29:57.43	13.29	18.58	-24.4	-25.3	17.7	0.00e+00	0	42	0	2080374784	9	4027
2026-01-10 10:30:00.44	12.68	18.39	-24.6	-25.8	17.4	0.00e+00	0	42	0	2097152000	9	4137
2026-01-10 10:30:03.47	12.07	18.19	-24.3	-25.2	17.7	0.00e+00	0	42	0	2113929216	9	4000
2026-01-10 10:30:06.49	11.47	17.99	-25.0	-26.1	17.1	0.00e+00	0	42	0	2131755008	10	4121
2026-01-10 10:30:09.51	10.88	17.80	-24.5	-25.1	17.5	0.00e+00	0	42	0	2148532224	10	3875
2026-01-10 10:30:12.53	10.30	17.60	-24.3	-25.3	17.7	0.00e+00	0	42	0	2165309440	9	4022
2026-01-10 10:30:15.55	9.73	17.40	-24.2	-25.1	17.8	0.00e+00	0	42	0	2182086656	9	3966
2026-01-10 10:30:18.57	9.16	17.19	-24.4	-25.4	17.6	0.00e+00	0	42	0	2198863872	9	4037
2026-01-10 10:30:21.59	8.60	16.99	-24.4	-25.4	17.6	0.00e+00	0	42	0	2216689664	9	4046
2026-01-10 10:30:24.61	8.05	16.79	-24.6	-25.9	17.4	0.00e+00	0	42	0	2233466880	9	4184
2026-01-10 10:30:27.63	7.51	16.58	-24.3	-25.2	17.7	0.00e+00	0	42	0	2250244096	9	3984
2026-01-10 10:30:30.65	6.98	16.38	-24.6	-25.8	17.4	0.00e+00	0	42	0	2267021312	9	4138
2026-01-10 10:30:33.67	6.45	16.17	-25.2	-26.7	16.9	0.00e+00	0	42	0	2283798528	10	4275
2026-01-10 10:30:36.69	5.93	15.96	-24.9	-25.6	17.1	0.00e+00	0	42	0	2301624320	11	3874
2026-01-10 10:30:39.70	5.42	15.75	-24.9	-25.9	17.3	0.00e+00	0	42	0	2318401536	10	4044
2026-01-10 10:30:42.72	4.91	15.54	-25.1	-26.3	17.1	0.00e+00	0	42	0	2335178752	10	4157
2026-01-10 10:30:45.74	4.41	15.34	-25.1	-26.5	17.0	0.00e+00	0	42	0	2351955968	10	4199
2026-01-10 10:30:48.75	3.92	15.13	-25.0	-26.3	17.1	0.00e+00	0	42	0	2368733184	10	4137
2026-01-10 10:30:51.77	3.44	14.92	-25.0	-26.3	17.1	0.00e+00	0	42	0	2386558976	10	4146
2026-01-10 10:30:54.79	2.96	14.71	-25.1	-26.5	17.0	0.00e+00	0	42	0	2403336192	10	4199
2026-01-10 10:30:57.81	2.49	14.50	-25.3	-26.8	16.9	0.00e+00	0	42	0	2420113408	10	4286
2026-01-10 10:31:00.83	2.02	14.29	-25.3	-26.9	16.7	0.00e+00	0	42	0	2436890624	10	4320
2026-01-10 10:31:03.85	1.56	14.08	-25.4	-27.1	16.7	0.00e+00	0	42	0	2453667840	10	4364
2026-01-10 10:31:06.86	1.12	13.87	-25.3	-26.4	16.8	0.00e+00	0	42	0	2471493632	11	4080
2026-01-10 10:31:09.88	0.67	13.66	-25.5	-26.7	16.7	0.00e+00	0	42	0	2488270848	11	4145
2026-01-10 10:31:12.90	0.23	13.45	-25.6	-26.9	16.4	0.00e+00	0	42	0	2505048064	11	4199
2026-01-10 10:31:15.92	359.80	13.24	-25.9	-27.7	15.9	0.00e+00	0	42	0	2521825280	11	4430
2026-01-10 10:31:18.94	359.38	13.03	-25.8	-27.4	16.0	0.00e+00	0	42	0	2538602496	11	4350
2026-01-10 10:31:21.96	358.96	12.82	-25.8	-27.0	16.0	0.00e+00	0	42	0	2556428288	12	4110
2026-01-10 10:31:24.99	358.54	12.61	-25.7	-26.7	16.0	0.00e+00	0	42	0	2573205504	12	4057
2026-01-10 10:31:28.02	358.13	12.40	-25.9	-27.1	15.8	0.00e+00	0	42	0	2589982720	12	4167
2026-01-10 10:31:31.04	357.73	12.19	-26.1	-27.7	15.4	3.40e-06	0	42	0	2606759936	12	4313
2026-01-10 10:31:34.05	357.34	11.98	-25.8	-26.5	15.8	0.00e+00	0	42	0	2623537152	13	3900
2026-01-10 10:31:37.07	356.95	11.77	-26.0	-27.5	15.5	0.00e+00	0	42	0	2641362944	12	4261
2026-01-10 10:31:40.09	356.56	11.57	-25.9	-26.6	15.7	0.00e+00	0	42	0	2658140160	13	3936
2026-01-10 10:31:43.10	356.18	11.36	-26.4	-27.7	15.1	0.00e+00	0	42	0	2674917376	13	4216
2026-01-10 10:31:46.11	355.81	11.15	-26.3	-27.7	15.1	0.00e+00	0	42	0	2691694592	13	4209
2026-01-10 10:31:49.13	355.44	10.95	-26.5	-28.1	14.8	0.00e+00	0	42	0	2708471808	13	4329
2026-01-10 10:31:52.14	355.08	10.74	-26.8	-28.6	14.6	1.10e-06	0	42	0	2726297600	13	4465
2026-01-10 10:31:55.17	354.72	10.54	-26.8	-28.8	14.4	0.00e+00	0	42	0	2743074816	13	4532
2026-01-10 10:31:58.19	354.37	10.34	-26.6	-28.2	14.7	0.00e+00	0	42	0	2759852032	13	4357
2026-01-10 10:32:01.20	354.03	10.13	-26.5	-28.2	14.7	0.00e+00	0	42	0	2776629248	13	4342
2026-01-10 10:32:04.22	353.68	9.93	-26.4	-27.9	14.7	1.10e-06	0	42	0	2793406464	13	4280
2026-01-10 10:32:07.24	353.34	9.73	-26.6	-28.3	14.6	0.00e+00	0	42	0	2811232256	13	4367
2026-01-10 10:32:10.26	353.01	9.53	-26.9	-28.4	14.3	4.50e-06	0	42	0	2828009472	14	4301
2026-01-10 10:32:13.28	352.68	9.33	-27.4	-29.7	13.6	1.60e-05	0	42	0	2844786688	14	4692
2026-01-10 10:32:16.29	352.36	9.13	-27.5	-29.4	13.4	3.20e-05	0	42	0	2861563904	15	4467
2026-01-10 10:32:19.31	352.04	8.93	-27.1	-28.3	14.1	3.40e-06	0	42	0	2878341120	15	4164
2026-01-10 10:32:22.33	351.73	8.73	-26.9	-28.5	14.2	2.20e-06	0	42	0	2895118336	14	4325
2026-01-10 10:32:25.33	351.42	8.53	-26.7	-28.1	14.3	1.10e-06	0	42	0	2911895552	14	4236
2026-01-10 10:32:28.35	351.11	8.34	-26.7	-28.1	14.3	1.10e-06	0	42	0	2929721344	14	4234
2026-01-10 10:32:31.36	350.81	8.14	-26.9	-28.5	14.0	2.20e-06	0	42	0	2946498560	14	4341
2026-01-10 10:32:34.38	350.52	7.94	-26.9	-28.6	13.9	6.80e-06	0	42	0	2963275776	14	4370
2026-01-10 10:32:37.40	350.22	7.75	-27.0	-28.8	13.8	3.40e-06	0	42	0	2980052992	14	4427
2026-01-10 10:32:40.42	349.93	7.56	-27.3	-29.5	13.3	3.31e-05	0	42	0	2996830208	14	4652
2026-01-10 10:32:43.44	349.65	7.36	-27.0	-28.8	13.8	3.40e-06	0	42	0	3014656000	14	4423
2026-01-10 10:32:46.46	349.37	7.17	-27.0	-28.7	13.8	6.80e-06	0	42	0	3031433216	14	4409
2026-01-10 10:32:49.48	349.09	6.98	-32.9	-43.9	3.8	8.44e-01	0	42	104	3042967552	25	12849

#Closed at: 2026-01-10 10:32:50
#Recorded file [3042 MB]: D:/data/31010_260110_132342.dat