passes_logs/2026/01/10/R2M6_AANII_01/R2M6_AANII_01__20260110_034908_FENGYUN_3D_rec.log

#Pass ID: 20260110_034908_FENGYUN 3D
#Satellite: FENGYUN 3D
#Configuration: FENGYUN 3D
#almurnet v.1.7.20240730
#Start time: 2026-01-10 03:49:09

#Version: 2.2.20231116
#Station: R2M6_AANII_01
#Location: 30.233357 lon 59.946436 lat
#TLE: 1 43010U 17072A   26009.29492227  .00000158  00000+0  96483-4 0  9996
#TLE: 2 43010  98.9936 341.0229 0002153 117.3665 242.7729 14.19694440422446

#Time	Az	El	Level	Level2	SNR	BER	BlckErr	Temp	State	Recorded	gain1	gain2
2026-01-10 03:49:09.82	12.62	7.09	-30.7	-34.5	5.0	8.04e-01	0	39	0	0	22	5593
2026-01-10 03:49:12.82	12.41	7.30	-31.1	-35.5	7.4	1.03e-01	0	39	0	5242880	22	5963
2026-01-10 03:49:15.82	12.21	7.51	-31.2	-35.2	7.4	1.05e-01	0	39	0	22020096	23	5713
2026-01-10 03:49:18.82	12.00	7.72	-30.1	-32.5	10.2	1.27e-02	0	40	0	38797312	21	4777
2026-01-10 03:49:21.82	11.78	7.94	-27.9	-29.8	13.4	1.14e-05	0	40	0	55574528	16	4446
2026-01-10 03:49:24.83	11.56	8.15	-27.8	-29.5	13.4	1.02e-05	0	40	0	73400320	16	4363
2026-01-10 03:49:27.83	11.34	8.37	-27.8	-29.0	13.7	6.89e-04	0	40	0	90177536	17	4126
2026-01-10 03:49:30.83	11.12	8.59	-29.1	-31.4	12.0	1.81e-04	0	40	0	106954752	18	4706
2026-01-10 03:49:33.84	10.89	8.81	-28.4	-30.2	12.9	1.25e-05	0	40	0	123731968	17	4457
2026-01-10 03:49:36.84	10.66	9.04	-29.0	-31.8	12.0	4.00e-05	0	40	0	140509184	17	4965
2026-01-10 03:49:39.84	10.43	9.26	-29.3	-31.5	11.6	7.11e-04	0	40	0	157286400	19	4638
2026-01-10 03:49:42.85	10.19	9.49	-29.2	-31.1	12.0	3.80e-04	0	40	0	174063616	19	4509
2026-01-10 03:49:45.85	9.94	9.71	-28.7	-30.9	12.6	4.00e-05	0	40	0	190840832	17	4680
2026-01-10 03:49:48.87	9.70	9.94	-29.2	-31.7	12.0	2.17e-05	0	41	0	207618048	18	4798
2026-01-10 03:49:51.88	9.44	10.18	-30.1	-33.1	10.3	2.87e-03	0	41	0	225443840	20	5090
2026-01-10 03:49:54.89	9.19	10.41	-28.5	-30.1	12.8	4.00e-05	0	41	0	242221056	18	4319
2026-01-10 03:49:57.90	8.93	10.64	-29.4	-32.0	11.9	2.66e-04	0	41	0	258998272	18	4898
2026-01-10 03:50:00.90	8.66	10.88	-28.6	-30.1	13.1	2.86e-05	0	41	0	275775488	18	4293
2026-01-10 03:50:03.90	8.40	11.12	-27.5	-28.5	14.7	1.10e-06	0	41	0	292552704	16	4063
2026-01-10 03:50:06.90	8.12	11.35	-26.8	-28.1	15.1	0.00e+00	0	41	0	309329920	14	4195
2026-01-10 03:50:09.90	7.85	11.59	-26.9	-28.2	15.4	0.00e+00	0	41	0	326107136	14	4202
2026-01-10 03:50:12.91	7.56	11.84	-26.7	-27.7	15.6	0.00e+00	0	41	0	342884352	14	4076
2026-01-10 03:50:15.90	7.28	12.08	-26.5	-28.0	15.6	0.00e+00	0	41	0	359661568	13	4248
2026-01-10 03:50:18.91	6.98	12.33	-27.2	-29.0	15.1	0.00e+00	0	41	0	376438784	14	4404
2026-01-10 03:50:21.91	6.69	12.57	-26.4	-27.1	15.9	0.00e+00	0	41	0	394264576	14	3925
2026-01-10 03:50:24.91	6.38	12.82	-26.6	-27.5	15.8	0.00e+00	0	41	0	411041792	14	4007
2026-01-10 03:50:27.92	6.08	13.07	-26.5	-27.3	16.0	0.00e+00	0	41	0	427819008	14	3970
2026-01-10 03:50:30.93	5.76	13.33	-26.4	-27.8	15.8	0.00e+00	0	41	0	444596224	13	4189
2026-01-10 03:50:33.93	5.44	13.58	-26.4	-27.6	16.0	0.00e+00	0	41	0	461373440	13	4154
2026-01-10 03:50:36.94	5.12	13.84	-27.1	-28.7	15.4	0.00e+00	0	41	0	478150656	14	4330
2026-01-10 03:50:39.95	4.79	14.09	-27.0	-27.9	15.6	0.00e+00	0	41	0	494927872	15	3993
2026-01-10 03:50:42.96	4.45	14.36	-26.2	-27.1	16.5	0.00e+00	0	41	0	511705088	13	4012
2026-01-10 03:50:45.95	4.11	14.62	-26.6	-27.5	16.3	0.00e+00	0	41	0	529530880	14	3986
2026-01-10 03:50:48.96	3.76	14.88	-26.8	-28.0	15.7	0.00e+00	0	41	0	546308096	14	4136
2026-01-10 03:50:51.97	3.40	15.14	-25.7	-26.5	17.0	0.00e+00	0	41	0	563085312	12	3980
2026-01-10 03:50:54.99	3.04	15.41	-26.3	-27.3	16.6	0.00e+00	0	41	0	579862528	13	4063
2026-01-10 03:50:57.98	2.67	15.68	-25.8	-26.9	17.2	0.00e+00	0	41	0	596639744	12	4050
2026-01-10 03:51:00.98	2.29	15.95	-26.0	-27.2	17.0	0.00e+00	0	41	0	613416960	12	4150
2026-01-10 03:51:03.99	1.91	16.22	-26.2	-27.7	16.7	0.00e+00	0	41	0	630194176	12	4262
2026-01-10 03:51:07.00	1.52	16.50	-26.3	-27.9	16.2	0.00e+00	0	41	0	646971392	12	4340
2026-01-10 03:51:10.01	1.12	16.77	-25.8	-26.7	16.9	0.00e+00	0	41	0	664797184	12	4019
2026-01-10 03:51:13.02	0.71	17.05	-26.0	-27.1	16.9	0.00e+00	0	41	0	681574400	12	4120
2026-01-10 03:51:16.01	0.30	17.33	-25.7	-26.5	17.2	0.00e+00	0	41	0	698351616	12	3971
2026-01-10 03:51:19.02	359.88	17.61	-25.5	-26.1	17.4	0.00e+00	0	41	0	715128832	12	3861
2026-01-10 03:51:22.03	359.45	17.89	-25.3	-26.2	17.8	0.00e+00	0	41	0	731906048	11	4005
2026-01-10 03:51:25.02	359.02	18.17	-25.4	-26.5	17.7	0.00e+00	0	41	0	748683264	11	4064
2026-01-10 03:51:28.02	358.57	18.46	-25.8	-27.3	17.3	0.00e+00	0	41	0	765460480	11	4269
2026-01-10 03:51:31.04	358.11	18.74	-25.9	-26.9	17.2	0.00e+00	0	41	0	783286272	12	4063
2026-01-10 03:51:34.04	357.65	19.03	-25.5	-26.6	17.5	0.00e+00	0	41	0	800063488	11	4091
2026-01-10 03:51:37.03	357.18	19.32	-24.8	-25.6	18.4	0.00e+00	0	42	0	816840704	10	3959
2026-01-10 03:51:40.03	356.70	19.61	-24.9	-25.9	18.0	1.60e-05	0	42	0	833617920	10	4030
2026-01-10 03:51:43.04	356.21	19.90	-25.0	-26.2	17.7	0.00e+00	0	41	0	850395136	10	4106
2026-01-10 03:51:46.03	355.71	20.19	-24.9	-25.9	17.9	0.00e+00	0	41	0	867172352	10	4042
2026-01-10 03:51:49.03	355.20	20.49	-24.6	-25.3	18.2	0.00e+00	0	42	0	883949568	10	3891
2026-01-10 03:51:52.05	354.68	20.78	-25.0	-26.0	17.8	0.00e+00	0	42	0	900726784	10	4067
2026-01-10 03:51:55.06	354.15	21.08	-25.0	-26.1	18.1	0.00e+00	0	42	0	917504000	10	4081
2026-01-10 03:51:58.07	353.60	21.38	-24.8	-25.7	18.2	0.00e+00	0	41	0	935329792	10	3995
2026-01-10 03:52:01.08	353.05	21.67	-25.4	-26.3	17.9	0.00e+00	0	41	0	952107008	11	4023
2026-01-10 03:52:04.09	352.49	21.97	-24.8	-25.7	18.4	0.00e+00	0	41	0	968884224	10	3975
2026-01-10 03:52:07.10	351.91	22.27	-24.6	-25.2	18.4	0.00e+00	0	42	0	985661440	10	3855
2026-01-10 03:52:10.11	351.32	22.57	-24.3	-25.2	18.8	0.00e+00	0	42	0	1002438656	9	3961
2026-01-10 03:52:13.12	350.73	22.87	-24.5	-25.6	18.7	0.00e+00	0	42	0	1019215872	9	4063
2026-01-10 03:52:16.13	350.12	23.17	-24.6	-25.7	18.6	0.00e+00	0	42	0	1035993088	9	4085
2026-01-10 03:52:19.13	349.50	23.47	-24.8	-25.7	18.5	0.00e+00	0	41	0	1053818880	10	3972
2026-01-10 03:52:22.15	348.86	23.77	-24.2	-24.8	19.2	0.00e+00	0	41	0	1070596096	9	3881
2026-01-10 03:52:25.15	348.22	24.06	-24.3	-25.1	19.0	0.00e+00	0	42	0	1087373312	9	3943
2026-01-10 03:52:28.15	347.56	24.36	-24.4	-25.3	18.8	0.00e+00	0	42	0	1104150528	9	3998
2026-01-10 03:52:31.16	346.89	24.66	-24.1	-24.7	18.9	0.00e+00	0	42	0	1120927744	9	3862
2026-01-10 03:52:34.15	346.21	24.95	-23.6	-24.1	19.4	0.00e+00	0	42	0	1137704960	8	3820
2026-01-10 03:52:37.17	345.51	25.25	-23.6	-24.0	19.7	0.00e+00	0	41	0	1154482176	8	3805
2026-01-10 03:52:40.17	344.80	25.54	-23.6	-24.2	19.5	0.00e+00	0	42	0	1171259392	8	3848
2026-01-10 03:52:43.18	344.07	25.83	-23.5	-23.9	19.5	0.00e+00	0	42	0	1189085184	8	3772
2026-01-10 03:52:46.17	343.34	26.12	-23.7	-24.3	19.4	0.00e+00	0	42	0	1205862400	8	3869
2026-01-10 03:52:49.18	342.59	26.41	-23.2	-23.8	19.7	0.00e+00	0	42	0	1222639616	7	3865
2026-01-10 03:52:52.19	341.82	26.69	-23.3	-24.0	19.6	0.00e+00	0	42	0	1239416832	7	3914
2026-01-10 03:52:55.19	341.05	26.97	-23.5	-24.3	19.4	0.00e+00	0	42	0	1256194048	7	3990
2026-01-10 03:52:58.18	340.26	27.25	-23.5	-24.4	19.4	0.00e+00	0	42	0	1272971264	7	4001
2026-01-10 03:53:01.17	339.46	27.52	-23.2	-23.9	19.6	0.00e+00	0	42	0	1289748480	7	3888
2026-01-10 03:53:04.17	338.64	27.79	-23.1	-23.7	19.6	0.00e+00	0	42	0	1306525696	7	3844
2026-01-10 03:53:07.17	337.80	28.06	-23.2	-23.8	19.5	0.00e+00	0	42	0	1323302912	7	3859
2026-01-10 03:53:10.18	336.95	28.33	-23.2	-23.9	19.5	0.00e+00	0	42	0	1340080128	7	3888
2026-01-10 03:53:13.18	336.09	28.58	-23.1	-23.5	19.7	0.00e+00	0	42	0	1356857344	7	3804
2026-01-10 03:53:16.20	335.21	28.84	-23.0	-23.3	19.8	0.00e+00	0	42	0	1374683136	7	3758
2026-01-10 03:53:19.20	334.32	29.09	-23.0	-23.5	19.7	0.00e+00	0	42	0	1391460352	7	3796
2026-01-10 03:53:22.21	333.42	29.33	-23.2	-23.9	19.5	0.00e+00	0	42	0	1408237568	7	3879
2026-01-10 03:53:25.22	332.50	29.57	-23.2	-23.8	19.6	0.00e+00	0	42	0	1425014784	7	3857
2026-01-10 03:53:28.23	331.56	29.80	-23.1	-23.7	19.6	0.00e+00	0	42	0	1441792000	7	3846
2026-01-10 03:53:31.22	330.62	30.02	-23.3	-24.0	19.4	0.00e+00	0	42	0	1458569216	7	3904
2026-01-10 03:53:34.24	329.66	30.23	-23.1	-23.5	19.6	0.00e+00	0	42	0	1475346432	7	3808
2026-01-10 03:53:37.23	328.69	30.44	-23.2	-23.7	19.6	0.00e+00	0	42	0	1493172224	7	3853
2026-01-10 03:53:40.24	327.71	30.64	-22.8	-23.1	19.9	0.00e+00	0	42	0	1509949440	7	3700
2026-01-10 03:53:43.24	326.71	30.83	-22.6	-23.1	20.1	0.00e+00	0	42	0	1526726656	6	3806
2026-01-10 03:53:46.23	325.71	31.02	-22.7	-23.4	20.0	0.00e+00	0	42	0	1543503872	6	3880
2026-01-10 03:53:49.25	324.69	31.19	-22.6	-23.1	20.2	0.00e+00	0	41	0	1560281088	6	3805
2026-01-10 03:53:52.26	323.66	31.36	-23.7	-25.0	19.0	0.00e+00	0	42	0	1577058304	7	4147
2026-01-10 03:53:55.26	322.62	31.51	-23.2	-23.8	19.7	0.00e+00	0	42	0	1593835520	7	3855
2026-01-10 03:53:58.27	321.57	31.66	-23.0	-23.4	19.8	0.00e+00	0	42	0	1610612736	7	3767
2026-01-10 03:54:01.29	320.50	31.79	-22.5	-22.8	20.3	0.00e+00	0	42	0	1628438528	6	3739
2026-01-10 03:54:04.29	319.43	31.92	-22.2	-22.8	20.5	0.00e+00	0	42	0	1645215744	5	3854
2026-01-10 03:54:07.31	318.35	32.03	-22.4	-23.2	20.3	0.00e+00	0	42	0	1661992960	5	3950
2026-01-10 03:54:10.31	317.27	32.13	-22.5	-23.3	20.2	0.00e+00	0	42	0	1678770176	5	3974
2026-01-10 03:54:13.31	316.18	32.23	-22.2	-22.8	20.4	0.00e+00	0	42	0	1695547392	5	3857
2026-01-10 03:54:16.31	315.09	32.31	-22.3	-23.1	20.4	0.00e+00	0	42	0	1712324608	5	3909
2026-01-10 03:54:19.31	313.99	32.37	-22.4	-23.2	20.3	0.00e+00	0	42	0	1729101824	5	3931
2026-01-10 03:54:22.32	312.88	32.43	-22.3	-22.9	20.4	0.00e+00	0	42	0	1745879040	5	3864
2026-01-10 03:54:25.33	311.77	32.47	-22.2	-22.8	20.5	0.00e+00	0	42	0	1763704832	5	3840
2026-01-10 03:54:28.35	310.66	32.51	-22.4	-23.2	20.2	0.00e+00	0	42	0	1780482048	5	3951
2026-01-10 03:54:31.35	309.55	32.52	-22.3	-22.9	20.4	0.00e+00	0	42	0	1797259264	5	3883
2026-01-10 03:54:34.34	308.44	32.53	-22.2	-22.9	20.4	0.00e+00	0	42	0	1814036480	5	3863
2026-01-10 03:54:37.35	307.32	32.53	-22.0	-22.3	20.7	0.00e+00	0	42	0	1830813696	5	3736
2026-01-10 03:54:40.35	306.21	32.51	-22.2	-22.7	20.4	0.00e+00	0	42	0	1847590912	5	3839
2026-01-10 03:54:43.37	305.09	32.48	-22.2	-22.8	20.4	0.00e+00	0	42	0	1864368128	5	3850
2026-01-10 03:54:46.37	303.98	32.44	-22.6	-23.5	20.0	0.00e+00	0	42	0	1881145344	5	4017
2026-01-10 03:54:49.39	302.87	32.39	-22.1	-22.6	20.5	0.00e+00	0	42	0	1898971136	5	3811
2026-01-10 03:54:52.40	301.77	32.32	-22.1	-22.6	20.5	0.00e+00	0	42	0	1915748352	5	3807
2026-01-10 03:54:55.42	300.66	32.24	-21.8	-22.5	20.8	0.00e+00	0	42	0	1932525568	4	3889
2026-01-10 03:54:58.42	299.57	32.15	-22.3	-23.5	20.3	0.00e+00	0	42	0	1949302784	4	4136
2026-01-10 03:55:01.42	298.49	32.05	-22.3	-23.5	20.2	0.00e+00	0	42	0	1966080000	4	4136
2026-01-10 03:55:04.41	297.42	31.94	-22.5	-23.5	20.1	0.00e+00	0	42	0	1982857216	5	4002
2026-01-10 03:55:07.41	296.35	31.82	-22.4	-23.2	20.2	0.00e+00	0	42	0	1999634432	5	3951
2026-01-10 03:55:10.41	295.29	31.69	-22.0	-22.4	20.6	0.00e+00	0	42	0	2016411648	5	3771
2026-01-10 03:55:13.41	294.23	31.54	-22.1	-22.7	20.5	0.00e+00	0	42	0	2033188864	5	3816
2026-01-10 03:55:16.42	293.19	31.39	-22.1	-22.6	20.5	0.00e+00	0	42	0	2049966080	5	3800
2026-01-10 03:55:19.41	292.16	31.23	-22.1	-22.6	20.4	0.00e+00	0	42	0	2066743296	5	3805
2026-01-10 03:55:22.42	291.13	31.05	-22.3	-23.0	20.2	0.00e+00	0	42	0	2084569088	5	3884
2026-01-10 03:55:25.44	290.12	30.87	-22.4	-23.3	20.1	0.00e+00	0	42	0	2101346304	5	3963
2026-01-10 03:55:28.45	289.12	30.68	-22.2	-22.7	20.4	0.00e+00	0	42	0	2118123520	5	3833
2026-01-10 03:55:31.46	288.13	30.48	-22.4	-23.3	20.1	0.00e+00	0	42	0	2134900736	5	3963
2026-01-10 03:55:34.47	287.15	30.27	-22.3	-22.9	20.2	0.00e+00	0	42	0	2151677952	5	3877
2026-01-10 03:55:37.47	286.19	30.06	-22.6	-23.5	20.0	0.00e+00	0	42	0	2169503744	5	4022
2026-01-10 03:55:40.47	285.24	29.84	-22.6	-23.6	19.9	0.00e+00	0	42	0	2185232384	5	4043
2026-01-10 03:55:43.47	284.30	29.61	-22.5	-23.4	20.0	0.00e+00	0	42	0	2203058176	5	3982
2026-01-10 03:55:46.47	283.38	29.37	-22.5	-23.3	20.1	0.00e+00	0	42	0	2219835392	5	3967
2026-01-10 03:55:49.47	282.47	29.13	-22.6	-23.6	19.9	0.00e+00	0	42	0	2236612608	5	4037
2026-01-10 03:55:52.46	281.58	28.88	-22.6	-23.7	19.9	0.00e+00	0	42	0	2253389824	5	4061
2026-01-10 03:55:55.47	280.70	28.63	-22.9	-24.1	19.6	0.00e+00	0	42	0	2270167040	5	4169
2026-01-10 03:55:58.48	279.83	28.37	-22.7	-23.4	19.8	0.00e+00	0	42	0	2286944256	6	3877
2026-01-10 03:56:01.48	278.97	28.11	-22.6	-23.1	20.0	0.00e+00	0	42	0	2303721472	6	3802
2026-01-10 03:56:04.50	278.13	27.84	-22.8	-23.5	19.8	0.00e+00	0	42	0	2320498688	6	3909
2026-01-10 03:56:07.50	277.30	27.57	-22.9	-23.8	19.6	0.00e+00	0	42	0	2338324480	6	3976
2026-01-10 03:56:10.49	276.50	27.30	-23.1	-24.0	19.4	0.00e+00	0	42	0	2355101696	6	4034
2026-01-10 03:56:13.49	275.70	27.02	-23.4	-24.3	19.1	0.00e+00	0	42	0	2371878912	7	3986
2026-01-10 03:56:16.51	274.91	26.73	-23.7	-24.9	18.8	0.00e+00	0	42	0	2388656128	7	4130
2026-01-10 03:56:19.51	274.14	26.45	-23.6	-24.2	18.9	0.00e+00	0	42	0	2405433344	8	3856
2026-01-10 03:56:22.52	273.38	26.16	-23.0	-23.5	19.5	0.00e+00	0	42	0	2422210560	7	3806
2026-01-10 03:56:25.52	272.64	25.87	-23.4	-24.2	19.1	0.00e+00	0	42	0	2438987776	7	3965
2026-01-10 03:56:28.52	271.91	25.58	-22.9	-23.2	19.5	0.00e+00	0	42	0	2455764992	7	3736
2026-01-10 03:56:31.52	271.20	25.29	-22.8	-23.6	19.6	0.00e+00	0	42	0	2473590784	6	3918
2026-01-10 03:56:34.53	270.50	24.99	-22.9	-23.6	19.6	0.00e+00	0	42	0	2490368000	6	3943
2026-01-10 03:56:37.53	269.81	24.70	-22.9	-23.8	19.5	0.00e+00	0	42	0	2507145216	6	3972
2026-01-10 03:56:40.54	269.13	24.40	-23.1	-24.2	19.3	0.00e+00	0	42	0	2523922432	6	4076
2026-01-10 03:56:43.55	268.47	24.10	-23.5	-24.5	18.8	0.00e+00	0	42	0	2540699648	7	4041
2026-01-10 03:56:46.55	267.82	23.80	-24.2	-25.4	18.2	0.00e+00	0	42	0	2557476864	8	4145
2026-01-10 03:56:49.55	267.18	23.50	-23.3	-23.5	19.1	0.00e+00	0	42	0	2574254080	8	3707
2026-01-10 03:56:52.55	266.55	23.20	-23.4	-24.4	18.9	0.00e+00	0	42	0	2591031296	7	4008
2026-01-10 03:56:55.56	265.94	22.90	-23.5	-24.5	18.8	0.00e+00	0	42	0	2607808512	7	4035
2026-01-10 03:56:58.56	265.34	22.60	-23.4	-24.3	18.9	0.00e+00	0	42	0	2624585728	7	3977
2026-01-10 03:57:01.55	264.75	22.30	-23.4	-24.3	18.9	0.00e+00	0	42	0	2641362944	7	3998
2026-01-10 03:57:04.56	264.17	22.00	-23.6	-24.6	18.7	0.00e+00	0	42	0	2659188736	7	4074
2026-01-10 03:57:07.57	263.60	21.70	-23.7	-24.5	18.6	0.00e+00	0	42	0	2675965952	8	3928
2026-01-10 03:57:10.58	263.04	21.40	-24.0	-25.0	18.3	0.00e+00	0	42	0	2692743168	8	4040
2026-01-10 03:57:13.58	262.50	21.11	-23.4	-23.8	18.9	0.00e+00	0	42	0	2709520384	8	3762
2026-01-10 03:57:16.57	261.96	20.81	-23.4	-23.9	18.9	0.00e+00	0	42	0	2726297600	8	3784
2026-01-10 03:57:19.58	261.44	20.51	-23.5	-24.1	18.8	0.00e+00	0	42	0	2743074816	8	3830
2026-01-10 03:57:22.57	260.92	20.22	-23.8	-24.7	18.5	0.00e+00	0	42	0	2759852032	8	3969
2026-01-10 03:57:25.59	260.42	19.92	-23.9	-24.9	18.3	0.00e+00	0	42	0	2776629248	8	4024
2026-01-10 03:57:28.59	259.92	19.63	-24.4	-25.9	17.8	0.00e+00	0	42	0	2794455040	8	4290
2026-01-10 03:57:31.59	259.43	19.34	-24.7	-25.5	17.6	0.00e+00	0	42	0	2811232256	10	3946
2026-01-10 03:57:34.59	258.96	19.05	-24.5	-25.7	17.7	0.00e+00	0	42	0	2828009472	9	4119
2026-01-10 03:57:37.60	258.49	18.76	-24.6	-25.3	17.6	0.00e+00	0	42	0	2844786688	10	3908
2026-01-10 03:57:40.60	258.03	18.47	-25.1	-26.5	16.9	0.00e+00	0	42	0	2861563904	10	4198
2026-01-10 03:57:43.61	257.58	18.19	-25.7	-27.2	16.3	0.00e+00	0	42	0	2878341120	11	4278
2026-01-10 03:57:46.61	257.14	17.90	-25.4	-26.5	16.6	0.00e+00	0	42	0	2895118336	11	4097
2026-01-10 03:57:49.61	256.71	17.62	-26.1	-27.7	15.5	0.00e+00	0	42	0	2911895552	12	4298
2026-01-10 03:57:52.61	256.28	17.34	-26.0	-26.9	15.8	0.00e+00	0	42	0	2928672768	13	4002
2026-01-10 03:57:55.62	255.86	17.06	-25.0	-25.6	17.1	0.00e+00	0	42	0	2946498560	11	3884
2026-01-10 03:57:58.64	255.45	16.78	-24.9	-25.5	17.1	0.00e+00	0	42	0	2963275776	11	3846
2026-01-10 03:58:01.65	255.05	16.50	-25.2	-26.2	16.8	0.00e+00	0	42	0	2980052992	11	4022
2026-01-10 03:58:04.65	254.65	16.22	-25.1	-25.8	16.9	0.00e+00	0	42	0	2996830208	11	3939
2026-01-10 03:58:07.66	254.27	15.95	-25.0	-25.7	17.0	0.00e+00	0	42	0	3013607424	11	3903
2026-01-10 03:58:10.65	253.89	15.68	-25.1	-25.9	16.8	0.00e+00	0	42	0	3030384640	11	3965
2026-01-10 03:58:13.65	253.52	15.41	-25.2	-26.1	16.7	0.00e+00	0	42	0	3047161856	11	4009
2026-01-10 03:58:16.65	253.15	15.14	-25.5	-26.7	16.4	0.00e+00	0	42	0	3063939072	11	4150
2026-01-10 03:58:19.65	252.79	14.88	-25.2	-26.1	16.7	0.00e+00	0	42	0	3080716288	11	4011
2026-01-10 03:58:22.65	252.44	14.61	-25.3	-26.4	16.5	0.00e+00	0	42	0	3098542080	11	4077
2026-01-10 03:58:25.66	252.09	14.35	-25.2	-26.2	16.6	0.00e+00	0	42	0	3115319296	11	4044
2026-01-10 03:58:28.68	251.75	14.09	-25.5	-26.8	16.3	0.00e+00	0	42	0	3132096512	11	4173
2026-01-10 03:58:31.68	251.41	13.83	-25.3	-26.4	16.5	0.00e+00	0	42	0	3148873728	11	4078
2026-01-10 03:58:34.69	251.08	13.57	-25.3	-26.5	16.4	0.00e+00	0	42	0	3165650944	11	4093
2026-01-10 03:58:37.68	250.76	13.32	-25.6	-27.0	16.1	0.00e+00	0	42	0	3182428160	11	4243
2026-01-10 03:58:40.69	250.44	13.06	-25.7	-27.2	16.0	0.00e+00	0	42	0	3199205376	11	4282
2026-01-10 03:58:43.69	250.13	12.81	-25.6	-27.1	16.0	0.00e+00	0	42	0	3215982592	11	4281
2026-01-10 03:58:46.71	249.82	12.56	-25.6	-26.7	15.9	0.00e+00	0	42	0	3233808384	12	4048
2026-01-10 03:58:49.72	249.52	12.31	-25.9	-27.1	15.6	0.00e+00	0	42	0	3250585600	12	4175
2026-01-10 03:58:52.72	249.23	12.06	-25.9	-27.3	15.5	0.00e+00	0	42	0	3267362816	12	4209
2026-01-10 03:58:55.73	248.94	11.82	-26.1	-27.7	15.3	0.00e+00	0	42	0	3284140032	12	4316
2026-01-10 03:58:58.72	248.65	11.57	-25.8	-27.0	15.6	0.00e+00	0	42	0	3300917248	12	4148
2026-01-10 03:59:01.72	248.37	11.33	-25.8	-26.9	15.7	0.00e+00	0	42	0	3317694464	12	4115
2026-01-10 03:59:04.73	248.09	11.09	-25.8	-27.1	15.6	0.00e+00	0	42	0	3334471680	12	4168
2026-01-10 03:59:07.72	247.82	10.85	-26.2	-27.9	15.1	0.00e+00	0	42	0	3351248896	12	4374
2026-01-10 03:59:10.73	247.55	10.62	-26.2	-27.9	15.1	4.50e-06	0	42	0	3369074688	12	4392
2026-01-10 03:59:13.73	247.29	10.38	-26.1	-27.6	15.2	4.50e-06	0	42	0	3385851904	12	4296
2026-01-10 03:59:16.73	247.03	10.15	-26.3	-27.7	14.9	4.50e-06	0	42	0	3402629120	13	4222
2026-01-10 03:59:19.74	246.78	9.92	-26.4	-27.8	14.8	2.20e-06	0	42	0	3419406336	13	4257
2026-01-10 03:59:22.74	246.53	9.69	-27.7	-29.4	13.2	9.10e-06	0	42	0	3436183552	16	4357
2026-01-10 03:59:25.76	246.28	9.46	-27.4	-28.5	13.7	1.14e-05	0	42	0	3452960768	16	4121
2026-01-10 03:59:28.76	246.04	9.23	-26.8	-27.8	14.2	0.00e+00	0	42	0	3469737984	15	4045
2026-01-10 03:59:31.76	245.80	9.01	-27.1	-28.9	13.8	4.50e-06	0	42	0	3486515200	14	4448
2026-01-10 03:59:34.76	245.56	8.78	-26.8	-28.4	14.1	6.80e-06	0	42	0	3504340992	14	4292
2026-01-10 03:59:37.77	245.33	8.56	-26.8	-28.4	14.1	0.00e+00	0	42	0	3521118208	14	4312
2026-01-10 03:59:40.77	245.10	8.34	-26.6	-27.9	14.4	1.10e-06	0	42	0	3537895424	14	4178
2026-01-10 03:59:43.77	244.88	8.12	-27.1	-29.0	13.6	1.25e-05	0	42	0	3554672640	14	4485
2026-01-10 03:59:46.77	244.66	7.90	-26.8	-28.4	14.0	0.00e+00	0	42	0	3571449856	14	4306
2026-01-10 03:59:49.76	244.44	7.69	-26.7	-28.1	14.2	0.00e+00	0	42	0	3588227072	14	4241
2026-01-10 03:59:52.76	244.23	7.47	-27.0	-28.8	13.7	3.40e-06	0	42	0	3605004288	14	4420
2026-01-10 03:59:55.78	244.02	7.26	-27.1	-29.1	13.5	1.02e-05	0	42	0	3621781504	14	4547
2026-01-10 03:59:58.78	243.81	7.05	-32.7	-42.7	3.8	8.46e-01	0	42	104	3636461568	25	11471
2026-01-10 04:00:01.78	243.61	6.83	-33.6	-44.7	3.8	8.45e-01	0	42	104	3636461568	27	12952

#Closed at: 2026-01-10 04:00:02
#Recorded file [3636 MB]: D:/data/31010_260110_064911.dat