passes_logs/2026/01/10/R2M6_AANII_01/R2M6_AANII_01__20260110_003907_NOAA_21_JPSS-2_rec.log

#Pass ID: 20260110_003907_NOAA 21 (JPSS-2)
#Satellite: NOAA 21 (JPSS-2)
#Configuration: NOAA 21
#almurnet v.1.7.20240730
#Start time: 2026-01-10 00:39:07

#Version: 2.2.20231116
#Station: R2M6_AANII_01
#Location: 30.233357 lon 59.946436 lat
#TLE: 1 54234U 22150A   26009.23291724  .00000115  00000+0  75298-4 0  9996
#TLE: 2 54234  98.7494 310.2026 0000856 324.9272  35.1848 14.19533567163994

#Time	Az	El	Level	Level2	SNR	BER	BlckErr	Temp	State	Recorded	gain1	gain2
2026-01-10 00:39:07.22	16.56	6.96	-30.4	-35.2	4.7	1.34e+00	0	42	0	0	20	6267
2026-01-10 00:39:10.19	16.52	7.19	-31.1	-35.9	7.7	1.01e-01	0	42	0	2097152	22	6245
2026-01-10 00:39:13.18	16.48	7.42	-30.8	-34.7	8.5	9.02e-02	0	42	0	11534336	22	5657
2026-01-10 00:39:16.17	16.44	7.65	-30.2	-33.7	10.0	9.15e-03	0	42	0	20971520	20	5413
2026-01-10 00:39:19.14	16.40	7.89	-30.5	-34.3	9.3	2.24e-02	0	42	0	30408704	21	5546
2026-01-10 00:39:22.13	16.36	8.13	-31.1	-35.6	8.0	6.85e-02	0	42	0	39845888	22	6057
2026-01-10 00:39:25.13	16.31	8.37	-30.9	-35.5	8.4	4.19e-02	0	42	0	49283072	21	6110
2026-01-10 00:39:28.13	16.27	8.61	-30.4	-34.2	9.7	1.09e-02	0	42	0	58720256	20	5608
2026-01-10 00:39:31.11	16.22	8.85	-30.2	-33.0	10.2	9.71e-03	0	42	0	68157440	21	5020
2026-01-10 00:39:34.10	16.18	9.10	-30.0	-33.4	10.9	2.31e-03	0	42	0	77594624	19	5356
2026-01-10 00:39:37.09	16.13	9.35	-29.2	-31.5	12.1	7.43e-04	0	42	0	87031808	19	4661
2026-01-10 00:39:40.07	16.08	9.60	-29.5	-32.3	11.7	7.22e-04	0	42	0	95420416	19	4938
2026-01-10 00:39:43.05	16.03	9.86	-28.7	-30.6	13.0	4.23e-04	0	42	0	104857600	18	4476
2026-01-10 00:39:46.04	15.98	10.11	-29.0	-30.8	12.6	2.87e-04	0	42	0	114294784	19	4437
2026-01-10 00:39:49.03	15.93	10.37	-28.4	-30.4	13.5	3.44e-04	0	42	0	123731968	17	4514
2026-01-10 00:39:52.01	15.88	10.63	-28.6	-30.8	13.2	4.01e-04	0	42	0	133169152	17	4663
2026-01-10 00:39:55.00	15.82	10.90	-28.4	-30.3	13.6	3.50e-04	0	42	0	142606336	17	4482
2026-01-10 00:39:57.99	15.77	11.17	-28.0	-29.4	14.2	3.05e-04	0	42	0	152043520	17	4221
2026-01-10 00:40:00.96	15.71	11.44	-27.9	-29.3	14.2	3.93e-04	0	42	0	161480704	17	4188
2026-01-10 00:40:03.96	15.66	11.71	-28.1	-30.2	14.2	4.43e-04	0	42	0	170917888	16	4541
2026-01-10 00:40:06.95	15.60	11.99	-27.8	-29.9	14.4	4.41e-04	0	42	0	180355072	15	4578
2026-01-10 00:40:09.92	15.54	12.27	-28.4	-30.4	13.7	3.80e-06	0	42	0	189792256	17	4498
2026-01-10 00:40:12.91	15.47	12.55	-27.8	-29.9	14.4	4.08e-04	0	42	0	198180864	15	4600
2026-01-10 00:40:15.89	15.41	12.84	-27.6	-29.3	14.8	4.57e-04	0	42	0	207618048	15	4413
2026-01-10 00:40:18.90	15.35	13.13	-27.4	-29.1	14.9	4.12e-04	0	42	0	217055232	15	4341
2026-01-10 00:40:21.90	15.28	13.42	-27.4	-29.6	14.9	4.89e-04	0	42	0	226492416	14	4592
2026-01-10 00:40:24.89	15.21	13.72	-27.3	-29.1	15.2	0.00e+00	0	42	0	235929600	14	4472
2026-01-10 00:40:27.88	15.14	14.02	-27.2	-28.6	15.3	3.65e-04	0	42	0	245366784	15	4213
2026-01-10 00:40:30.86	15.07	14.33	-27.2	-29.1	15.3	3.14e-04	0	42	0	254803968	14	4457
2026-01-10 00:40:33.85	15.00	14.63	-27.3	-29.3	15.1	0.00e+00	0	42	0	264241152	14	4526
2026-01-10 00:40:36.84	14.92	14.95	-27.5	-29.2	14.9	2.55e-04	0	42	0	273678336	15	4377
2026-01-10 00:40:39.83	14.85	15.26	-27.7	-29.6	14.7	0.00e+00	0	42	0	283115520	15	4485
2026-01-10 00:40:42.81	14.77	15.58	-27.7	-29.6	14.7	3.23e-04	0	42	0	291504128	15	4483
2026-01-10 00:40:45.80	14.69	15.91	-27.7	-29.7	14.8	2.54e-04	0	42	0	300941312	15	4512
2026-01-10 00:40:48.79	14.61	16.24	-27.9	-30.2	14.4	0.00e+00	0	42	0	310378496	15	4666
2026-01-10 00:40:51.77	14.52	16.57	-27.8	-29.8	14.7	2.92e-04	0	42	0	319815680	15	4531
2026-01-10 00:40:54.76	14.44	16.91	-28.1	-30.0	14.5	7.00e-07	0	42	0	329252864	16	4480
2026-01-10 00:40:57.75	14.35	17.25	-27.7	-29.6	14.8	2.56e-04	0	42	0	338690048	15	4477
2026-01-10 00:41:00.74	14.26	17.60	-27.6	-29.4	14.9	2.35e-04	0	42	0	348127232	15	4438
2026-01-10 00:41:03.72	14.16	17.95	-27.6	-29.5	14.9	2.69e-04	0	42	0	357564416	15	4450
2026-01-10 00:41:06.72	14.07	18.31	-27.6	-29.4	14.9	2.25e-04	0	42	0	367001600	15	4433
2026-01-10 00:41:09.70	13.97	18.67	-27.7	-29.6	14.8	0.00e+00	0	42	0	376438784	15	4478
2026-01-10 00:41:12.69	13.87	19.04	-27.5	-29.2	15.1	2.28e-04	0	42	0	385875968	15	4376
2026-01-10 00:41:15.67	13.76	19.41	-27.5	-29.1	15.2	0.00e+00	0	42	0	395313152	15	4346
2026-01-10 00:41:18.65	13.66	19.79	-27.6	-28.8	15.3	1.07e-04	0	42	0	403701760	16	4131
2026-01-10 00:41:21.63	13.55	20.17	-27.6	-29.4	15.2	1.43e-04	0	42	0	413138944	15	4406
2026-01-10 00:41:24.64	13.43	20.56	-27.3	-28.7	15.5	7.00e-07	0	42	0	422576128	15	4221
2026-01-10 00:41:27.63	13.32	20.96	-27.2	-28.5	15.6	8.23e-05	0	42	0	432013312	15	4177
2026-01-10 00:41:30.62	13.20	21.36	-27.5	-29.1	15.3	1.83e-05	0	42	0	441450496	15	4335
2026-01-10 00:41:33.60	13.07	21.77	-27.9	-29.6	14.9	1.78e-04	0	42	0	450887680	16	4345
2026-01-10 00:41:36.58	12.95	22.18	-27.2	-28.9	15.8	1.47e-04	0	42	0	460324864	14	4386
2026-01-10 00:41:39.56	12.82	22.60	-27.2	-28.5	15.7	0.00e+00	0	42	0	469762048	15	4150
2026-01-10 00:41:42.54	12.68	23.03	-28.8	-31.0	14.0	9.61e-05	0	42	0	479199232	17	4661
2026-01-10 00:41:45.53	12.54	23.47	-27.2	-28.4	15.9	1.50e-06	0	42	0	487587840	15	4132
2026-01-10 00:41:48.51	12.40	23.91	-26.3	-27.4	16.9	0.00e+00	0	42	0	497025024	13	4083
2026-01-10 00:41:51.49	12.26	24.36	-26.5	-27.9	16.9	0.00e+00	0	42	0	506462208	13	4201
2026-01-10 00:41:54.47	12.10	24.82	-26.7	-27.8	16.7	0.00e+00	0	42	0	515899392	14	4059
2026-01-10 00:41:57.46	11.95	25.28	-26.9	-28.2	16.4	0.00e+00	0	42	0	525336576	14	4166
2026-01-10 00:42:00.45	11.78	25.76	-27.0	-28.4	16.3	0.00e+00	0	42	0	534773760	14	4246
2026-01-10 00:42:03.42	11.62	26.24	-27.4	-29.4	15.7	0.00e+00	0	42	0	544210944	14	4508
2026-01-10 00:42:06.40	11.45	26.73	-27.5	-29.0	15.6	0.00e+00	0	42	0	553648128	15	4278
2026-01-10 00:42:09.39	11.27	27.23	-27.5	-29.0	15.9	0.00e+00	0	42	0	563085312	15	4273
2026-01-10 00:42:12.36	11.08	27.73	-27.7	-29.4	15.7	0.00e+00	0	42	0	571473920	15	4373
2026-01-10 00:42:15.35	10.89	28.25	-28.5	-30.2	14.7	0.00e+00	0	42	0	580911104	17	4388
2026-01-10 00:42:18.34	10.70	28.78	-28.2	-29.6	15.0	0.00e+00	0	42	0	590348288	17	4220
2026-01-10 00:42:21.33	10.49	29.32	-27.6	-28.7	15.8	0.00e+00	0	42	0	599785472	16	4100
2026-01-10 00:42:24.31	10.28	29.86	-27.5	-29.1	15.9	0.00e+00	0	42	0	609222656	15	4286
2026-01-10 00:42:27.29	10.06	30.42	-27.4	-28.3	16.1	0.00e+00	0	42	0	618659840	16	3983
2026-01-10 00:42:30.28	9.83	30.99	-27.7	-28.8	16.0	0.00e+00	0	42	0	628097024	16	4092
2026-01-10 00:42:33.27	9.60	31.57	-27.6	-28.7	16.0	0.00e+00	0	42	0	637534208	16	4071
2026-01-10 00:42:36.28	9.35	32.16	-27.4	-28.7	16.2	0.00e+00	0	42	0	646971392	15	4198
2026-01-10 00:42:39.28	9.09	32.76	-27.7	-29.4	15.8	0.00e+00	0	42	0	656408576	15	4375
2026-01-10 00:42:42.29	8.82	33.38	-27.8	-29.6	15.5	0.00e+00	0	42	0	665845760	15	4444
2026-01-10 00:42:45.29	8.55	34.01	-28.2	-30.0	15.0	7.00e-07	0	42	0	675282944	16	4440
2026-01-10 00:42:48.31	8.26	34.65	-28.3	-30.2	14.9	0.00e+00	0	42	0	683671552	16	4497
2026-01-10 00:42:51.31	7.95	35.30	-28.4	-30.6	14.6	1.50e-06	0	42	0	693108736	16	4639
2026-01-10 00:42:54.30	7.64	35.97	-28.8	-30.3	14.6	0.00e+00	0	42	0	702545920	18	4288
2026-01-10 00:42:57.31	7.31	36.65	-29.2	-31.3	13.9	3.80e-06	0	42	0	711983104	18	4583
2026-01-10 00:43:00.31	6.97	37.34	-29.4	-31.4	13.6	9.10e-06	0	42	0	721420288	19	4522
2026-01-10 00:43:03.31	6.61	38.04	-29.1	-31.1	14.0	3.80e-06	0	42	0	730857472	18	4538
2026-01-10 00:43:06.32	6.24	38.76	-28.8	-30.6	14.1	7.00e-07	0	42	0	740294656	18	4387
2026-01-10 00:43:09.32	5.85	39.49	-29.3	-31.2	13.7	1.83e-05	0	42	0	749731840	19	4445
2026-01-10 00:43:12.32	5.44	40.24	-29.3	-31.8	13.4	1.75e-05	0	42	0	759169024	18	4767
2026-01-10 00:43:15.30	5.01	40.99	-29.5	-32.0	13.3	2.59e-05	0	42	0	768606208	18	4848
2026-01-10 00:43:18.31	4.56	41.77	-29.7	-32.2	12.8	4.11e-05	0	42	0	778043392	19	4796
2026-01-10 00:43:21.31	4.08	42.56	-29.7	-32.0	13.0	5.95e-05	0	42	0	787480576	19	4728
2026-01-10 00:43:24.30	3.58	43.36	-29.2	-31.4	13.6	4.50e-06	0	42	0	796917760	18	4630
2026-01-10 00:43:27.31	3.06	44.18	-29.2	-31.5	13.5	1.29e-05	0	42	0	806354944	18	4688
2026-01-10 00:43:30.32	2.50	45.02	-29.3	-31.7	13.4	1.29e-05	0	42	0	815792128	18	4732
2026-01-10 00:43:33.32	1.92	45.87	-29.4	-31.3	13.4	9.10e-06	0	42	0	825229312	19	4511
2026-01-10 00:43:36.33	1.30	46.73	-29.1	-31.2	13.7	6.10e-06	0	42	0	834666496	18	4568
2026-01-10 00:43:39.34	0.64	47.61	-28.7	-30.8	14.2	4.50e-06	0	42	0	844103680	17	4577
2026-01-10 00:43:42.34	359.95	48.50	-28.8	-31.0	14.0	1.50e-06	0	42	0	853540864	17	4650
2026-01-10 00:43:45.33	359.21	49.40	-28.8	-31.0	14.1	2.20e-06	0	42	0	862978048	17	4641
2026-01-10 00:43:48.34	358.43	50.32	-28.9	-31.3	13.9	3.80e-06	0	42	0	871366656	17	4725
2026-01-10 00:43:51.33	357.60	51.25	-29.0	-30.9	13.9	8.30e-06	0	42	0	880803840	18	4488
2026-01-10 00:43:54.34	356.71	52.19	-29.0	-31.1	13.9	5.30e-06	0	42	0	890241024	18	4536
2026-01-10 00:43:57.36	355.76	53.15	-28.6	-30.6	14.4	0.00e+00	0	42	0	899678208	17	4502
2026-01-10 00:44:00.36	354.75	54.11	-27.8	-29.6	15.3	0.00e+00	0	42	0	909115392	15	4466
2026-01-10 00:44:03.37	353.67	55.09	-27.6	-29.3	15.5	0.00e+00	0	42	0	918552576	15	4363
2026-01-10 00:44:06.37	352.51	56.06	-27.0	-28.4	16.2	0.00e+00	0	42	0	927989760	14	4239
2026-01-10 00:44:09.37	351.27	57.05	-27.4	-28.8	15.8	0.00e+00	0	42	0	937426944	15	4228
2026-01-10 00:44:12.37	349.93	58.03	-27.4	-28.9	15.8	0.00e+00	0	42	0	946864128	15	4247
2026-01-10 00:44:15.37	348.49	59.02	-26.9	-28.2	16.4	0.00e+00	0	42	0	956301312	14	4180
2026-01-10 00:44:18.38	346.93	60.01	-27.1	-28.5	16.3	0.00e+00	0	42	0	965738496	14	4267
2026-01-10 00:44:21.39	345.24	60.99	-27.2	-28.7	16.3	0.00e+00	0	42	0	975175680	14	4300
2026-01-10 00:44:24.40	343.42	61.96	-26.9	-28.1	16.5	0.00e+00	0	42	0	984612864	14	4150
2026-01-10 00:44:27.41	341.45	62.92	-26.6	-27.9	16.8	0.00e+00	0	42	0	994050048	13	4210
2026-01-10 00:44:30.41	339.32	63.86	-25.8	-26.3	17.6	0.00e+00	0	42	0	1003487232	13	3814
2026-01-10 00:44:33.41	337.01	64.78	-25.9	-27.5	17.6	0.00e+00	0	42	0	1012924416	11	4332
2026-01-10 00:44:36.43	334.50	65.67	-26.3	-27.4	17.1	0.00e+00	0	42	0	1022361600	13	4072
2026-01-10 00:44:39.44	331.78	66.53	-26.6	-28.1	16.8	0.00e+00	0	42	0	1031798784	13	4264
2026-01-10 00:44:42.45	328.84	67.34	-26.0	-27.2	17.4	0.00e+00	0	42	0	1041235968	12	4148
2026-01-10 00:44:45.46	325.68	68.09	-26.4	-28.1	16.9	0.00e+00	0	42	0	1050673152	12	4387
2026-01-10 00:44:48.47	322.27	68.79	-26.2	-27.2	17.1	0.00e+00	0	42	0	1060110336	13	4029
2026-01-10 00:44:51.48	318.62	69.42	-25.9	-26.5	17.5	0.00e+00	0	42	0	1069547520	13	3867
2026-01-10 00:44:54.48	314.76	69.96	-25.8	-26.8	17.6	0.00e+00	0	42	0	1078984704	12	4031
2026-01-10 00:44:57.48	310.68	70.42	-25.8	-27.2	17.7	0.00e+00	0	42	0	1088421888	11	4248
2026-01-10 00:45:00.49	306.40	70.79	-26.0	-27.3	17.3	0.00e+00	0	42	0	1096810496	12	4169
2026-01-10 00:45:03.50	301.97	71.05	-25.7	-26.6	17.7	0.00e+00	0	42	0	1106247680	12	3973
2026-01-10 00:45:06.51	297.44	71.20	-26.4	-27.1	16.8	0.00e+00	0	42	0	1115684864	14	3906
2026-01-10 00:45:09.52	292.86	71.24	-26.1	-27.5	17.2	0.00e+00	0	42	0	1125122048	12	4215
2026-01-10 00:45:12.53	288.28	71.16	-26.0	-26.9	17.1	0.00e+00	0	42	0	1134559232	13	3951
2026-01-10 00:45:15.53	283.79	70.97	-26.0	-27.2	17.4	0.00e+00	0	42	0	1143996416	12	4127
2026-01-10 00:45:18.54	279.40	70.68	-26.1	-26.9	17.2	0.00e+00	0	42	0	1153433600	13	3959
2026-01-10 00:45:21.55	275.18	70.28	-25.9	-27.0	17.4	0.00e+00	0	42	0	1162870784	12	4088
2026-01-10 00:45:24.56	271.16	69.79	-25.8	-26.8	17.5	0.00e+00	0	42	0	1172307968	12	4044
2026-01-10 00:45:27.56	267.37	69.21	-25.7	-27.1	17.7	0.00e+00	0	42	0	1181745152	11	4229
2026-01-10 00:45:30.57	263.80	68.56	-26.3	-27.5	16.8	0.00e+00	0	42	0	1191182336	13	4104
2026-01-10 00:45:33.58	260.47	67.84	-25.9	-27.5	17.5	0.00e+00	0	42	0	1200619520	11	4320
2026-01-10 00:45:36.59	257.37	67.06	-26.3	-27.0	16.5	9.10e-06	0	42	0	1210056704	14	3879
2026-01-10 00:45:39.58	254.53	66.24	-26.4	-27.7	16.7	0.00e+00	0	42	0	1219493888	13	4165
2026-01-10 00:45:42.59	251.88	65.38	-26.8	-28.0	16.3	2.20e-06	0	42	0	1228931072	14	4141
2026-01-10 00:45:45.59	249.44	64.48	-25.0	-25.6	18.4	0.00e+00	0	42	0	1238368256	11	3842
2026-01-10 00:45:48.59	247.19	63.55	-27.8	-29.9	14.9	7.00e-07	0	42	0	1247805440	15	4557
2026-01-10 00:45:51.59	245.11	62.60	-26.5	-27.4	16.5	0.00e+00	0	42	0	1257242624	14	3985
2026-01-10 00:45:54.60	243.19	61.63	-26.7	-28.2	16.3	0.00e+00	0	42	0	1266679808	13	4295
2026-01-10 00:45:57.59	241.42	60.66	-26.2	-27.3	16.8	0.00e+00	0	42	0	1276116992	13	4052
2026-01-10 00:46:00.60	239.78	59.67	-27.5	-29.1	15.3	0.00e+00	0	42	0	1285554176	15	4333
2026-01-10 00:46:03.60	238.26	58.69	-28.3	-29.9	14.5	1.50e-06	0	42	0	1294991360	17	4327
2026-01-10 00:46:06.61	236.84	57.69	-26.5	-27.3	16.5	0.00e+00	0	42	0	1303379968	14	3956
2026-01-10 00:46:09.62	235.53	56.70	-28.6	-30.7	14.0	0.00e+00	0	42	0	1313865728	17	4569
2026-01-10 00:46:12.63	234.31	55.71	-28.9	-30.8	13.7	5.30e-06	0	42	0	1322254336	18	4490
2026-01-10 00:46:15.63	233.18	54.74	-27.9	-28.9	15.0	0.00e+00	0	42	0	1331691520	17	4054
2026-01-10 00:46:18.64	232.11	53.76	-28.9	-31.3	13.7	0.00e+00	0	42	0	1341128704	17	4742
2026-01-10 00:46:21.64	231.12	52.80	-28.7	-30.7	12.8	9.23e-05	0	42	0	1350565888	19	4491
2026-01-10 00:46:24.65	230.19	51.84	-27.8	-29.2	15.1	0.00e+00	0	42	0	1360003072	16	4223
2026-01-10 00:46:27.65	229.33	50.90	-28.2	-30.2	14.6	0.00e+00	0	42	0	1369440256	16	4515
2026-01-10 00:46:30.66	228.51	49.97	-29.2	-31.6	13.0	2.82e-05	0	42	0	1378877440	18	4759
2026-01-10 00:46:33.65	227.74	49.06	-28.6	-30.1	13.5	9.90e-06	0	42	0	1388314624	18	4286
2026-01-10 00:46:36.66	227.02	48.15	-28.9	-30.8	13.6	5.30e-06	0	42	0	1397751808	18	4472
2026-01-10 00:46:39.66	226.34	47.26	-29.7	-31.8	12.2	2.95e-04	0	42	0	1407188992	20	4607
2026-01-10 00:46:42.67	225.69	46.39	-29.6	-32.1	12.5	1.37e-04	0	42	0	1416626176	19	4793
2026-01-10 00:46:45.66	225.08	45.53	-29.8	-32.6	11.8	5.54e-04	0	42	0	1426063360	19	5001
2026-01-10 00:46:48.67	224.51	44.68	-29.1	-30.9	13.1	4.80e-05	0	42	0	1435500544	19	4412
2026-01-10 00:46:51.68	223.96	43.85	-29.1	-30.8	13.1	1.98e-05	0	42	0	1444937728	19	4374
2026-01-10 00:46:54.68	223.44	43.03	-29.1	-31.0	13.1	2.76e-04	0	42	0	1454374912	19	4439
2026-01-10 00:46:57.69	222.95	42.22	-29.8	-32.2	11.9	1.78e-04	0	42	0	1463812096	20	4726
2026-01-10 00:47:00.69	222.48	41.44	-29.1	-30.9	13.2	4.63e-04	0	42	0	1473249280	19	4412
2026-01-10 00:47:03.69	222.03	40.66	-28.1	-29.4	14.6	0.00e+00	0	42	0	1482686464	17	4182
2026-01-10 00:47:06.69	221.61	39.91	-28.1	-29.9	14.7	0.00e+00	0	42	0	1492123648	16	4437
2026-01-10 00:47:09.68	221.20	39.16	-28.8	-30.7	13.6	9.10e-06	0	42	0	1501560832	18	4468
2026-01-10 00:47:12.69	220.82	38.43	-29.5	-31.9	12.6	7.93e-05	0	42	0	1509949440	19	4724
2026-01-10 00:47:15.70	220.44	37.71	-29.1	-30.7	13.3	2.89e-05	0	42	0	1519386624	19	4377
2026-01-10 00:47:18.71	220.09	37.01	-28.2	-29.6	14.6	7.00e-07	0	42	0	1528823808	17	4240
2026-01-10 00:47:21.71	219.75	36.32	-28.3	-29.8	14.4	5.44e-04	0	42	0	1538260992	17	4318
2026-01-10 00:47:24.71	219.43	35.65	-28.1	-29.4	14.7	7.00e-07	0	42	0	1547698176	17	4184
2026-01-10 00:47:27.71	219.12	34.98	-27.6	-28.9	15.2	2.22e-04	0	42	0	1557135360	16	4163
2026-01-10 00:47:30.72	218.82	34.33	-28.2	-30.3	14.4	1.27e-03	0	42	0	1566572544	16	4554
2026-01-10 00:47:33.73	218.53	33.69	-28.7	-30.8	13.8	8.71e-04	0	42	0	1576009728	17	4612
2026-01-10 00:47:36.74	218.25	33.06	-27.7	-29.1	15.1	6.09e-04	0	42	0	1585446912	16	4220
2026-01-10 00:47:39.75	217.99	32.45	-26.5	-27.5	16.4	0.00e+00	0	42	0	1594884096	14	4002
2026-01-10 00:47:42.75	217.73	31.85	-26.8	-28.5	16.0	4.39e-04	0	42	0	1604321280	13	4397
2026-01-10 00:47:45.75	217.49	31.26	-26.9	-28.3	15.9	6.17e-04	0	42	0	1613758464	14	4214
2026-01-10 00:47:48.76	217.25	30.68	-27.3	-29.1	15.4	6.00e-04	0	42	0	1623195648	14	4448
2026-01-10 00:47:51.76	217.02	30.11	-27.5	-29.6	15.1	5.34e-05	0	42	0	1632632832	14	4605
2026-01-10 00:47:54.76	216.81	29.55	-27.5	-29.3	15.0	2.20e-06	0	42	0	1642070016	15	4395
2026-01-10 00:47:57.76	216.59	29.00	-27.6	-29.3	15.0	2.37e-03	0	42	0	1651507200	15	4402
2026-01-10 00:48:00.76	216.39	28.46	-27.5	-29.1	15.0	0.00e+00	0	42	0	1660944384	15	4353
2026-01-10 00:48:03.76	216.19	27.94	-28.3	-30.4	14.3	3.85e-03	0	42	0	1670381568	16	4588
2026-01-10 00:48:06.78	216.00	27.41	-27.6	-29.5	14.8	0.00e+00	0	42	0	1679818752	15	4448
2026-01-10 00:48:09.79	215.81	26.90	-27.4	-28.8	15.2	4.18e-03	0	42	0	1689255936	15	4257
2026-01-10 00:48:12.79	215.64	26.40	-26.3	-27.5	16.4	0.00e+00	0	42	0	1698693120	13	4123
2026-01-10 00:48:15.79	215.46	25.91	-27.1	-28.7	15.5	0.00e+00	0	42	0	1708130304	14	4345
2026-01-10 00:48:18.80	215.30	25.43	-27.0	-28.6	15.6	7.00e-07	0	42	0	1716518912	14	4317
2026-01-10 00:48:21.79	215.13	24.96	-27.7	-29.5	14.8	0.00e+00	0	42	0	1725956096	15	4476
2026-01-10 00:48:24.78	214.98	24.49	-27.9	-30.1	14.5	2.24e-03	0	42	0	1735393280	15	4659
2026-01-10 00:48:27.77	214.83	24.03	-29.1	-31.3	13.0	6.86e-05	0	42	0	1744830464	18	4679
2026-01-10 00:48:30.78	214.68	23.58	-27.4	-29.0	15.0	2.25e-03	0	42	0	1754267648	15	4326
2026-01-10 00:48:33.78	214.54	23.14	-27.8	-30.0	14.5	0.00e+00	0	42	0	1763704832	15	4601
2026-01-10 00:48:36.80	214.40	22.70	-26.8	-28.2	15.8	0.00e+00	0	42	0	1773142016	14	4197
2026-01-10 00:48:39.81	214.26	22.27	-27.2	-28.9	15.3	0.00e+00	0	42	0	1782579200	14	4412
2026-01-10 00:48:42.81	214.13	21.85	-28.0	-29.9	14.4	0.00e+00	0	42	0	1792016384	16	4453
2026-01-10 00:48:45.83	214.00	21.43	-28.7	-30.9	13.5	1.14e-05	0	42	0	1801453568	17	4653
2026-01-10 00:48:48.83	213.88	21.02	-28.3	-30.0	13.9	3.80e-06	0	42	0	1810890752	17	4381
2026-01-10 00:48:51.83	213.76	20.62	-27.0	-28.0	15.5	0.00e+00	0	42	0	1820327936	15	4053
2026-01-10 00:48:54.84	213.64	20.22	-27.0	-28.5	15.5	0.00e+00	0	42	0	1829765120	14	4290
2026-01-10 00:48:57.85	213.52	19.83	-26.7	-28.4	15.9	0.00e+00	0	42	0	1839202304	13	4365
2026-01-10 00:49:00.86	213.41	19.45	-26.7	-27.8	15.8	0.00e+00	0	42	0	1848639488	14	4105
2026-01-10 00:49:03.86	213.31	19.07	-26.7	-28.5	15.7	0.00e+00	0	42	0	1858076672	13	4408
2026-01-10 00:49:06.85	213.20	18.70	-26.8	-28.6	15.6	0.00e+00	0	42	0	1867513856	13	4450
2026-01-10 00:49:09.86	213.10	18.33	-27.0	-28.7	15.3	0.00e+00	0	42	0	1876951040	14	4354
2026-01-10 00:49:12.87	213.00	17.97	-27.1	-28.8	15.3	0.00e+00	0	42	0	1886388224	14	4377
2026-01-10 00:49:15.89	212.90	17.61	-27.2	-29.1	15.1	0.00e+00	0	42	0	1895825408	14	4462
2026-01-10 00:49:18.90	212.81	17.25	-27.2	-29.0	15.1	0.00e+00	0	42	0	1905262592	14	4435
2026-01-10 00:49:21.89	212.71	16.91	-27.3	-29.3	14.9	0.00e+00	0	42	0	1913651200	14	4521
2026-01-10 00:49:24.89	212.62	16.57	-27.3	-29.4	14.8	0.00e+00	0	42	0	1923088384	14	4560
2026-01-10 00:49:27.91	212.54	16.23	-27.4	-29.1	14.7	0.00e+00	0	42	0	1932525568	15	4361
2026-01-10 00:49:30.91	212.45	15.89	-27.5	-29.2	14.7	0.00e+00	0	42	0	1941962752	15	4393
2026-01-10 00:49:33.93	212.37	15.56	-27.4	-29.1	14.7	0.00e+00	0	42	0	1951399936	15	4378
2026-01-10 00:49:36.92	212.28	15.24	-27.8	-29.9	14.3	0.00e+00	0	42	0	1960837120	15	4588
2026-01-10 00:49:39.92	212.20	14.92	-27.5	-29.3	14.5	7.00e-07	0	42	0	1970274304	15	4427
2026-01-10 00:49:42.93	212.13	14.60	-27.8	-29.9	14.2	0.00e+00	0	42	0	1979711488	15	4607
2026-01-10 00:49:45.93	212.05	14.29	-28.3	-30.1	13.7	5.30e-06	0	42	0	1989148672	17	4438
2026-01-10 00:49:48.92	211.98	13.98	-28.5	-31.0	13.4	9.10e-06	0	42	0	1998585856	16	4833
2026-01-10 00:49:51.92	211.90	13.68	-28.3	-30.6	13.6	3.00e-06	0	42	0	2008023040	16	4686
2026-01-10 00:49:54.92	211.83	13.38	-28.1	-30.2	13.8	5.30e-06	0	42	0	2017460224	16	4585
2026-01-10 00:49:57.92	211.76	13.08	-28.5	-30.6	13.3	1.67e-05	0	42	0	2026897408	17	4607
2026-01-10 00:50:00.92	211.70	12.79	-28.0	-29.8	14.0	3.80e-06	0	42	0	2036334592	16	4474
2026-01-10 00:50:03.93	211.63	12.50	-27.7	-29.8	14.1	1.50e-06	0	42	0	2045771776	15	4585
2026-01-10 00:50:06.93	211.56	12.21	-27.9	-30.4	13.7	3.80e-06	0	42	0	2055208960	15	4764
2026-01-10 00:50:09.94	211.50	11.93	-28.1	-29.8	13.6	9.10e-06	0	42	0	2064646144	17	4365
2026-01-10 00:50:12.95	211.44	11.65	-28.0	-29.5	13.9	5.30e-06	0	42	0	2074083328	17	4270
2026-01-10 00:50:15.95	211.38	11.37	-28.1	-29.7	13.7	4.50e-06	0	42	0	2083520512	17	4343
2026-01-10 00:50:18.96	211.32	11.10	-28.2	-30.0	13.5	1.06e-05	0	42	0	2092957696	17	4421
2026-01-10 00:50:21.98	211.26	10.82	-28.5	-30.6	13.1	3.05e-05	0	42	0	2102394880	17	4604
2026-01-10 00:50:24.98	211.20	10.56	-28.6	-31.1	12.8	4.80e-05	0	42	0	2111832064	17	4767
2026-01-10 00:50:27.99	211.15	10.29	-28.4	-30.5	13.1	1.83e-05	0	42	0	2120220672	17	4568
2026-01-10 00:50:31.01	211.09	10.03	-28.8	-30.8	12.6	1.68e-04	0	42	0	2129657856	18	4571
2026-01-10 00:50:34.01	211.04	9.77	-29.4	-32.2	11.3	5.91e-04	0	42	0	2139095040	19	4924
2026-01-10 00:50:37.03	210.98	9.51	-28.7	-31.3	12.5	8.85e-05	0	42	0	2148532224	17	4828
2026-01-10 00:50:40.03	210.93	9.25	-28.6	-31.1	12.7	3.43e-05	0	42	0	2157969408	17	4767
2026-01-10 00:50:43.04	210.88	9.00	-28.1	-30.4	13.4	6.48e-04	0	42	0	2167406592	16	4654
2026-01-10 00:50:46.05	210.83	8.75	-28.3	-30.6	13.2	3.66e-05	0	42	0	2176843776	16	4739
2026-01-10 00:50:49.06	210.78	8.50	-28.3	-30.8	13.1	1.31e-03	0	42	0	2186280960	16	4794
2026-01-10 00:50:52.06	210.74	8.26	-28.4	-30.5	12.9	6.94e-05	0	42	0	2195718144	17	4595
2026-01-10 00:50:55.08	210.69	8.02	-28.4	-31.0	12.9	1.26e-03	0	42	0	2205155328	16	4851
2026-01-10 00:50:58.07	210.64	7.78	-28.5	-30.9	12.6	1.15e-04	0	42	0	2214592512	17	4732
2026-01-10 00:51:01.06	210.60	7.54	-28.4	-31.1	12.8	7.24e-05	0	42	0	2224029696	16	4901
2026-01-10 00:51:04.07	210.56	7.30	-29.0	-32.0	11.9	2.44e-03	0	42	0	2233466880	17	5123
2026-01-10 00:51:07.07	210.51	7.07	-32.9	-44.8	3.8	1.49e+00	0	42	104	2240806912	25	14212

#Closed at: 2026-01-10 00:51:08
#Recorded file [2240 MB]: D:/data/31010_260110_033909.dat