passes_logs/2026/01/10/R2M6_AANII_01/R2M6_AANII_01__20260110_092143_SUOMI_NPP_rec.log

#Pass ID: 20260110_092143_SUOMI NPP
#Satellite: SUOMI NPP
#Configuration: NPP
#almurnet v.1.7.20240730
#Start time: 2026-01-10 09:21:43

#Version: 2.2.20231116
#Station: R2M6_AANII_01
#Location: 30.233357 lon 59.946436 lat
#TLE: 1 37849U 11061A   26008.83076692  .00000095  00000+0  66074-4 0  9997
#TLE: 2 37849  98.7806 310.9327 0002533  74.3004 285.8451 14.19523607735834

#Time	Az	El	Level	Level2	SNR	BER	BlckErr	Temp	State	Recorded	gain1	gain2
2026-01-10 09:21:43.87	128.35	7.05	-31.0	-34.9	5.1	1.29e+00	0	39	0	0	23	5659
2026-01-10 09:21:46.87	128.20	7.27	-30.9	-34.7	8.7	3.11e-02	0	39	0	1048576	22	5571
2026-01-10 09:21:49.86	128.04	7.49	-30.8	-34.2	9.1	2.74e-02	0	39	0	7340032	22	5348
2026-01-10 09:21:52.87	127.89	7.72	-31.1	-35.6	8.1	8.45e-02	0	40	0	12582912	22	6014
2026-01-10 09:21:55.87	127.73	7.95	-31.0	-34.9	8.5	6.82e-02	0	40	0	17825792	22	5673
2026-01-10 09:21:58.89	127.56	8.18	-30.2	-32.6	10.7	4.64e-03	0	40	0	24117248	21	4719
2026-01-10 09:22:01.88	127.40	8.41	-30.0	-32.0	11.2	1.63e-03	0	40	0	29360128	21	4497
2026-01-10 09:22:04.89	127.23	8.65	-30.4	-33.0	10.6	3.91e-03	0	40	0	35651584	21	4870
2026-01-10 09:22:07.90	127.06	8.88	-30.8	-34.4	9.5	9.83e-03	0	40	0	40894464	21	5444
2026-01-10 09:22:10.90	126.89	9.12	-30.3	-32.7	10.9	3.40e-03	0	40	0	46137344	21	4732
2026-01-10 09:22:13.90	126.71	9.36	-30.0	-31.7	11.5	1.24e-03	0	40	0	52428800	21	4392
2026-01-10 09:22:16.90	126.53	9.60	-30.1	-32.1	11.4	6.30e-04	0	40	0	57671680	21	4507
2026-01-10 09:22:19.91	126.35	9.84	-30.4	-33.0	10.7	1.74e-03	0	40	0	62914560	21	4851
2026-01-10 09:22:22.91	126.16	10.09	-30.1	-32.0	11.5	9.37e-04	0	40	0	69206016	21	4459
2026-01-10 09:22:25.91	125.98	10.34	-29.8	-31.1	12.2	3.11e-04	0	40	0	74448896	21	4162
2026-01-10 09:22:28.92	125.78	10.59	-29.8	-31.4	12.3	1.42e-04	0	41	0	80740352	20	4353
2026-01-10 09:22:31.93	125.59	10.84	-30.0	-32.3	11.7	4.46e-04	0	41	0	85983232	20	4661
2026-01-10 09:22:34.94	125.39	11.10	-29.9	-31.9	12.1	3.20e-04	0	41	0	91226112	20	4501
2026-01-10 09:22:37.93	125.18	11.35	-29.9	-31.7	12.2	2.43e-04	0	41	0	97517568	20	4447
2026-01-10 09:22:40.93	124.98	11.61	-30.1	-32.1	11.9	3.91e-04	0	41	0	102760448	20	4579
2026-01-10 09:22:43.94	124.77	11.87	-30.1	-32.3	11.9	4.43e-04	0	41	0	108003328	20	4635
2026-01-10 09:22:46.95	124.55	12.14	-30.0	-32.0	12.2	3.03e-04	0	41	0	114294784	20	4514
2026-01-10 09:22:49.96	124.33	12.41	-29.9	-31.7	12.3	2.32e-04	0	41	0	119537664	20	4428
2026-01-10 09:22:52.96	124.11	12.68	-30.1	-32.2	12.0	3.82e-04	0	41	0	124780544	20	4590
2026-01-10 09:22:55.96	123.88	12.95	-30.0	-32.1	12.0	3.06e-04	0	41	0	131072000	20	4555
2026-01-10 09:22:58.96	123.65	13.22	-30.0	-32.0	12.1	1.69e-04	0	41	0	136314880	20	4515
2026-01-10 09:23:01.97	123.41	13.50	-29.7	-31.1	12.7	7.01e-05	0	41	0	142606336	20	4232
2026-01-10 09:23:04.97	123.17	13.78	-30.1	-32.3	11.9	2.37e-04	0	41	0	147849216	20	4645
2026-01-10 09:23:07.97	122.93	14.06	-30.1	-32.3	12.0	4.14e-04	0	41	0	153092096	20	4614
2026-01-10 09:23:10.97	122.68	14.35	-29.8	-31.2	12.8	6.40e-05	0	41	0	159383552	20	4250
2026-01-10 09:23:13.97	122.42	14.63	-30.1	-32.1	12.2	1.56e-04	0	41	0	164626432	20	4543
2026-01-10 09:23:16.98	122.16	14.92	-30.0	-31.8	12.4	2.98e-04	0	41	0	169869312	20	4448
2026-01-10 09:23:19.98	121.90	15.22	-29.8	-31.2	12.9	3.58e-05	0	41	0	176160768	20	4235
2026-01-10 09:23:22.99	121.63	15.52	-29.7	-30.8	13.1	1.75e-05	0	41	0	181403648	20	4107
2026-01-10 09:23:26.00	121.35	15.82	-29.8	-31.1	13.0	2.44e-05	0	41	0	187695104	20	4210
2026-01-10 09:23:29.00	121.07	16.12	-29.9	-31.6	12.6	4.88e-05	0	41	0	192937984	20	4374
2026-01-10 09:23:32.01	120.78	16.42	-29.9	-31.4	12.8	8.54e-05	0	41	0	198180864	20	4301
2026-01-10 09:23:35.02	120.48	16.73	-29.9	-31.4	12.9	4.42e-05	0	41	0	204472320	20	4292
2026-01-10 09:23:38.03	120.18	17.05	-29.8	-31.2	13.0	4.80e-05	0	41	0	209715200	20	4248
2026-01-10 09:23:41.04	119.87	17.36	-29.5	-30.4	13.5	3.58e-05	0	41	0	214958080	20	3993
2026-01-10 09:23:44.05	119.56	17.68	-29.9	-31.4	12.9	1.67e-05	0	41	0	221249536	20	4299
2026-01-10 09:23:47.06	119.23	18.01	-29.7	-30.8	13.3	3.20e-05	0	41	0	226492416	20	4105
2026-01-10 09:23:50.06	118.91	18.33	-29.8	-31.0	13.2	2.21e-05	0	42	0	232783872	20	4166
2026-01-10 09:23:53.07	118.57	18.66	-29.9	-31.4	13.0	3.66e-05	0	41	0	238026752	20	4273
2026-01-10 09:23:56.06	118.23	18.99	-29.7	-30.8	13.4	3.05e-05	0	41	0	243269632	20	4116
2026-01-10 09:23:59.06	117.88	19.32	-29.8	-31.1	13.2	2.28e-05	0	41	0	249561088	20	4197
2026-01-10 09:24:02.06	117.52	19.66	-29.8	-31.2	13.1	2.51e-05	0	41	0	254803968	20	4223
2026-01-10 09:24:05.06	117.15	20.00	-29.6	-30.7	13.4	1.75e-05	0	41	0	260046848	20	4067
2026-01-10 09:24:08.06	116.78	20.35	-30.1	-32.0	12.6	3.58e-05	0	41	0	266338304	20	4489
2026-01-10 09:24:11.06	116.39	20.70	-30.1	-31.9	12.7	1.26e-04	0	41	0	271581184	20	4445
2026-01-10 09:24:14.06	116.00	21.05	-30.2	-32.2	12.6	2.13e-04	0	42	0	277872640	20	4524
2026-01-10 09:24:17.07	115.60	21.41	-30.3	-32.6	12.2	1.48e-04	0	41	0	283115520	20	4678
2026-01-10 09:24:20.08	115.19	21.77	-30.0	-31.7	12.9	8.46e-05	0	42	0	288358400	20	4362
2026-01-10 09:24:23.09	114.76	22.13	-29.9	-31.5	13.1	2.13e-05	0	41	0	294649856	20	4290
2026-01-10 09:24:26.09	114.33	22.49	-30.3	-32.6	12.4	9.46e-05	0	42	0	299892736	20	4667
2026-01-10 09:24:29.10	113.89	22.87	-30.1	-31.2	12.9	2.20e-04	0	41	0	305135616	21	4127
2026-01-10 09:24:32.10	113.43	23.24	-30.1	-31.3	12.9	3.12e-05	0	42	0	311427072	21	4129
2026-01-10 09:24:35.10	112.97	23.61	-30.2	-31.8	12.5	8.92e-05	0	42	0	316669952	21	4308
2026-01-10 09:24:38.10	112.50	23.99	-30.1	-31.9	12.8	4.73e-05	0	42	0	322961408	20	4441
2026-01-10 09:24:41.10	112.01	24.38	-30.3	-32.4	12.5	9.91e-05	0	42	0	328204288	20	4597
2026-01-10 09:24:44.11	111.51	24.76	-30.1	-31.8	12.9	5.26e-05	0	42	0	333447168	20	4377
2026-01-10 09:24:47.11	110.99	25.15	-29.8	-31.0	13.5	1.37e-05	0	42	0	339738624	20	4120
2026-01-10 09:24:50.11	110.47	25.55	-29.8	-30.9	13.5	8.30e-06	0	42	0	344981504	20	4093
2026-01-10 09:24:53.12	109.93	25.94	-29.3	-30.2	14.3	5.30e-06	0	42	0	350224384	19	4004
2026-01-10 09:24:56.11	109.38	26.34	-30.1	-31.9	12.8	1.22e-05	0	42	0	356515840	20	4445
2026-01-10 09:24:59.12	108.81	26.74	-30.3	-32.6	12.4	2.22e-04	0	42	0	361758720	20	4681
2026-01-10 09:25:02.12	108.23	27.15	-30.7	-33.3	11.6	9.12e-04	0	42	0	367001600	21	4831
2026-01-10 09:25:05.13	107.63	27.56	-30.8	-33.6	11.3	1.08e-03	0	42	0	373293056	21	4967
2026-01-10 09:25:08.14	107.01	27.97	-31.3	-34.9	10.0	5.38e-03	0	42	0	378535936	22	5399
2026-01-10 09:25:11.15	106.38	28.38	-31.1	-33.6	10.7	4.09e-03	0	42	0	384827392	23	4781
2026-01-10 09:25:14.16	105.74	28.80	-31.6	-35.3	9.3	1.71e-02	0	42	0	390070272	23	5523
2026-01-10 09:25:17.17	105.07	29.22	-31.4	-34.4	10.0	7.77e-03	0	42	0	395313152	23	5117
2026-01-10 09:25:20.16	104.39	29.63	-31.6	-35.5	9.2	1.85e-02	0	42	0	401604608	23	5610
2026-01-10 09:25:23.17	103.69	30.05	-31.6	-35.3	9.5	1.98e-02	0	42	0	406847488	23	5478
2026-01-10 09:25:26.17	102.98	30.47	-31.1	-33.4	10.8	2.89e-03	0	42	0	412090368	23	4708
2026-01-10 09:25:29.18	102.24	30.90	-30.6	-32.2	12.1	5.87e-04	0	42	0	418381824	22	4330
2026-01-10 09:25:32.19	101.48	31.32	-30.8	-32.9	11.6	5.54e-04	0	42	0	423624704	22	4594
2026-01-10 09:25:35.20	100.70	31.74	-31.1	-33.9	11.0	1.19e-03	0	42	0	429916160	22	4951
2026-01-10 09:25:38.19	99.91	32.17	-31.1	-34.1	10.6	3.63e-03	0	42	0	435159040	22	5074
2026-01-10 09:25:41.20	99.09	32.59	-31.1	-33.8	11.0	2.72e-03	0	42	0	440401920	22	4930
2026-01-10 09:25:44.21	98.25	33.01	-31.4	-34.8	10.2	4.58e-03	0	42	0	446693376	22	5365
2026-01-10 09:25:47.21	97.39	33.43	-30.6	-32.3	12.0	4.16e-04	0	42	0	451936256	22	4386
2026-01-10 09:25:50.21	96.51	33.85	-30.5	-32.4	12.4	3.83e-04	0	42	0	457179136	21	4511
2026-01-10 09:25:53.22	95.60	34.27	-30.3	-32.0	12.6	3.35e-05	0	42	0	463470592	21	4360
2026-01-10 09:25:56.21	94.67	34.68	-30.1	-31.5	12.9	6.86e-05	0	42	0	468713472	21	4213
2026-01-10 09:25:59.21	93.72	35.09	-31.0	-33.9	10.8	1.83e-03	0	42	0	475004928	22	5021
2026-01-10 09:26:02.21	92.74	35.49	-31.3	-35.0	10.1	6.99e-03	0	42	0	480247808	22	5490
2026-01-10 09:26:05.21	91.74	35.89	-31.8	-36.5	8.4	2.92e-02	0	42	0	485490688	23	6129
2026-01-10 09:26:08.23	90.70	36.29	-32.0	-36.6	8.1	5.18e-02	0	42	0	491782144	24	6068
2026-01-10 09:26:11.22	89.65	36.68	-31.9	-35.8	8.8	2.28e-02	0	42	0	497025024	24	5624
2026-01-10 09:26:14.23	88.57	37.06	-31.5	-34.5	9.8	9.89e-03	0	42	0	502267904	24	5047
2026-01-10 09:26:17.23	87.47	37.44	-30.9	-32.9	11.3	1.42e-03	0	42	0	508559360	23	4513
2026-01-10 09:26:20.24	86.34	37.80	-30.0	-31.3	13.1	5.34e-05	0	42	0	513802240	21	4157
2026-01-10 09:26:23.24	85.18	38.16	-30.6	-32.9	11.9	1.84e-04	0	42	0	520093696	21	4717
2026-01-10 09:26:26.25	84.00	38.51	-30.4	-32.4	12.2	7.18e-04	0	42	0	525336576	21	4558
2026-01-10 09:26:29.26	82.79	38.85	-30.2	-32.0	12.5	7.17e-05	0	42	0	530579456	21	4404
2026-01-10 09:26:32.25	81.56	39.17	-29.7	-31.1	13.4	2.67e-05	0	42	0	536870912	20	4215
2026-01-10 09:26:35.26	80.30	39.49	-29.4	-30.3	14.0	1.22e-05	0	42	0	542113792	20	3956
2026-01-10 09:26:38.25	79.03	39.78	-29.7	-31.5	13.6	1.50e-06	0	42	0	547356672	19	4438
2026-01-10 09:26:41.25	77.73	40.07	-29.2	-30.2	14.4	7.00e-07	0	42	0	553648128	19	4038
2026-01-10 09:26:44.25	76.41	40.34	-29.5	-30.7	14.1	0.00e+00	0	42	0	558891008	19	4165
2026-01-10 09:26:47.25	75.06	40.60	-29.7	-30.9	13.7	3.05e-05	0	42	0	564133888	20	4134
2026-01-10 09:26:50.26	73.69	40.83	-30.3	-32.4	12.6	2.28e-05	0	42	0	570425344	20	4597
2026-01-10 09:26:53.27	72.30	41.06	-29.8	-31.1	13.5	1.60e-05	0	42	0	575668224	20	4199
2026-01-10 09:26:56.26	70.90	41.26	-29.6	-30.6	13.8	4.50e-06	0	42	0	581959680	20	4037
2026-01-10 09:26:59.27	69.48	41.44	-29.5	-30.2	14.1	3.80e-06	0	42	0	587202560	20	3934
2026-01-10 09:27:02.28	68.03	41.61	-29.5	-30.9	14.2	7.00e-07	0	42	0	592445440	19	4214
2026-01-10 09:27:05.29	66.58	41.75	-29.7	-31.3	13.9	1.22e-05	0	42	0	598736896	19	4321
2026-01-10 09:27:08.29	65.12	41.88	-29.3	-30.1	14.7	1.50e-06	0	42	0	603979776	19	3967
2026-01-10 09:27:11.29	63.64	41.98	-29.8	-31.4	13.8	5.30e-06	0	42	0	609222656	19	4329
2026-01-10 09:27:14.29	62.16	42.06	-30.1	-31.8	13.2	1.22e-05	0	42	0	615514112	20	4415
2026-01-10 09:27:17.28	60.68	42.13	-29.7	-31.6	13.6	3.00e-06	0	42	0	620756992	19	4481
2026-01-10 09:27:20.29	59.18	42.16	-29.8	-31.5	13.2	4.19e-05	0	42	0	627048448	20	4389
2026-01-10 09:27:23.29	57.69	42.18	-29.8	-31.7	12.9	3.28e-05	0	42	0	632291328	20	4467
2026-01-10 09:27:26.30	56.19	42.18	-30.2	-32.8	12.2	2.51e-05	0	42	0	637534208	20	4844
2026-01-10 09:27:29.30	54.70	42.15	-31.1	-34.9	10.0	4.38e-03	0	42	0	643825664	22	5559
2026-01-10 09:27:32.30	53.21	42.10	-30.7	-33.1	11.4	1.63e-03	0	42	0	649068544	22	4758
2026-01-10 09:27:35.31	51.72	42.03	-31.7	-36.1	8.8	3.29e-02	0	42	0	654311424	23	5930
2026-01-10 09:27:38.31	50.24	41.94	-31.6	-35.8	8.9	1.38e-02	0	42	0	660602880	23	5839
2026-01-10 09:27:41.31	48.77	41.82	-31.7	-36.3	8.6	6.63e-02	0	42	0	665845760	23	6091
2026-01-10 09:27:44.31	47.32	41.69	-31.4	-35.3	9.4	2.13e-02	0	42	0	671088640	23	5622
2026-01-10 09:27:47.33	45.87	41.54	-31.2	-34.7	9.7	9.63e-03	0	42	0	677380096	23	5385
2026-01-10 09:27:50.34	44.43	41.36	-31.2	-34.4	10.0	1.54e-02	0	42	0	682622976	23	5251
2026-01-10 09:27:53.34	43.02	41.17	-30.8	-33.2	11.4	3.58e-03	0	42	0	688914432	22	4778
2026-01-10 09:27:56.34	41.63	40.96	-30.4	-32.0	12.3	4.28e-04	0	42	0	694157312	22	4312
2026-01-10 09:27:59.34	40.26	40.73	-30.0	-31.2	13.2	3.66e-05	0	42	0	699400192	21	4133
2026-01-10 09:28:02.34	38.90	40.48	-30.2	-31.6	13.2	1.68e-04	0	42	0	705691648	21	4240
2026-01-10 09:28:05.34	37.57	40.22	-29.8	-31.1	13.8	7.60e-06	0	42	0	710934528	20	4184
2026-01-10 09:28:08.35	36.25	39.94	-30.8	-33.3	11.8	4.65e-04	0	42	0	716177408	21	4796
2026-01-10 09:28:11.34	34.97	39.65	-28.4	-28.4	16.0	0.00e+00	0	42	0	722468864	18	3604
2026-01-10 09:28:14.34	33.70	39.35	-28.3	-28.8	16.1	0.00e+00	0	42	0	727711744	17	3786
2026-01-10 09:28:17.34	32.46	39.03	-29.8	-31.5	13.8	7.00e-07	0	42	0	734003200	19	4364
2026-01-10 09:28:20.33	31.25	38.70	-29.3	-30.2	14.5	7.00e-07	0	42	0	739246080	19	4002
2026-01-10 09:28:23.33	30.06	38.36	-28.4	-29.0	15.9	0.00e+00	0	42	0	744488960	17	3862
2026-01-10 09:28:26.33	28.90	38.01	-29.1	-29.8	14.8	3.80e-06	0	42	0	750780416	19	3873
2026-01-10 09:28:29.32	27.76	37.65	-28.7	-29.1	15.7	0.00e+00	0	42	0	756023296	18	3783
2026-01-10 09:28:32.33	26.64	37.28	-29.5	-31.0	14.5	0.00e+00	0	42	0	761266176	18	4315
2026-01-10 09:28:35.33	25.55	36.91	-30.0	-30.9	13.6	1.23e-04	0	42	0	767557632	21	3998
2026-01-10 09:28:38.34	24.49	36.52	-29.9	-31.6	14.0	7.00e-07	0	42	0	772800512	19	4384
2026-01-10 09:28:41.33	23.45	36.13	-29.6	-30.2	14.4	4.50e-06	0	42	0	778043392	20	3896
2026-01-10 09:28:44.33	22.44	35.73	-30.2	-32.0	13.1	7.60e-06	0	42	0	784334848	20	4446
2026-01-10 09:28:47.34	21.45	35.33	-30.7	-33.1	12.0	8.31e-05	0	42	0	789577728	21	4759
2026-01-10 09:28:50.35	20.48	34.93	-30.5	-32.6	12.4	1.08e-04	0	42	0	795869184	21	4538
2026-01-10 09:28:53.37	19.53	34.51	-29.8	-30.4	13.8	3.28e-05	0	42	0	801112064	21	3857
2026-01-10 09:28:56.37	18.62	34.10	-29.9	-31.2	13.6	9.90e-06	0	42	0	806354944	20	4201
2026-01-10 09:28:59.38	17.72	33.68	-31.0	-33.6	11.2	1.77e-03	0	42	0	812646400	22	4865
2026-01-10 09:29:02.38	16.85	33.27	-31.2	-34.1	11.0	2.20e-04	0	42	0	817889280	22	5010
2026-01-10 09:29:05.39	16.00	32.85	-31.8	-35.9	9.2	1.08e-02	0	42	0	823132160	23	5734
2026-01-10 09:29:08.40	15.17	32.43	-32.5	-38.4	6.4	2.48e-01	0	42	0	829423616	25	7086
2026-01-10 09:29:11.41	14.36	32.00	-31.8	-35.2	9.5	1.60e-02	0	42	0	834666496	24	5330
2026-01-10 09:29:14.42	13.58	31.58	-32.2	-36.8	8.1	3.24e-02	0	42	0	840957952	24	6139
2026-01-10 09:29:17.42	12.81	31.16	-31.6	-34.3	10.1	7.67e-03	0	42	0	846200832	24	4926
2026-01-10 09:29:20.43	12.07	30.74	-31.6	-34.4	9.9	8.63e-03	0	42	0	851443712	24	4973
2026-01-10 09:29:23.44	11.34	30.32	-31.8	-35.3	9.3	1.82e-02	0	42	0	857735168	24	5345
2026-01-10 09:29:26.45	10.63	29.90	-31.6	-34.6	9.8	1.39e-02	0	42	0	862978048	24	5058
2026-01-10 09:29:29.45	9.95	29.48	-30.6	-32.1	12.2	1.82e-04	0	42	0	868220928	22	4284
2026-01-10 09:29:32.46	9.28	29.06	-30.9	-33.2	11.5	4.87e-04	0	42	0	874512384	22	4667
2026-01-10 09:29:35.48	8.62	28.65	-30.3	-31.3	12.7	2.14e-04	0	42	0	879755264	22	4041
2026-01-10 09:29:38.49	7.98	28.24	-30.3	-32.0	12.7	6.63e-05	0	42	0	886046720	21	4341
2026-01-10 09:29:41.49	7.37	27.83	-30.8	-33.2	11.9	3.39e-04	0	42	0	891289600	21	4763
2026-01-10 09:29:44.50	6.76	27.42	-30.5	-32.3	12.4	9.99e-05	0	42	0	896532480	21	4459
2026-01-10 09:29:47.50	6.17	27.01	-30.6	-32.7	12.1	1.95e-04	0	42	0	902823936	21	4599
2026-01-10 09:29:50.51	5.60	26.61	-30.2	-31.5	12.9	8.46e-05	0	42	0	908066816	21	4203
2026-01-10 09:29:53.51	5.04	26.21	-29.9	-30.7	13.4	9.10e-06	0	42	0	914358272	21	3935
2026-01-10 09:29:56.50	4.50	25.82	-29.9	-31.2	13.5	1.14e-05	0	42	0	919601152	20	4188
2026-01-10 09:29:59.50	3.97	25.42	-30.4	-32.7	12.5	5.95e-05	0	42	0	924844032	20	4660
2026-01-10 09:30:02.49	3.46	25.04	-30.4	-32.1	12.6	7.93e-05	0	42	0	931135488	21	4367
2026-01-10 09:30:05.49	2.95	24.65	-29.9	-31.1	13.5	1.29e-05	0	42	0	936378368	20	4149
2026-01-10 09:30:08.49	2.46	24.27	-29.8	-31.1	13.6	6.10e-06	0	42	0	941621248	20	4149
2026-01-10 09:30:11.49	1.98	23.89	-30.3	-32.4	12.7	8.16e-05	0	42	0	947912704	20	4585
2026-01-10 09:30:14.49	1.51	23.51	-30.8	-33.3	11.6	1.08e-03	0	42	0	953155584	21	4797
2026-01-10 09:30:17.49	1.06	23.14	-30.8	-33.3	11.6	2.78e-04	0	42	0	958398464	21	4811
2026-01-10 09:30:20.49	0.61	22.77	-31.1	-33.9	10.8	3.29e-03	0	42	0	964689920	22	4958
2026-01-10 09:30:23.49	0.17	22.40	-30.9	-33.0	11.5	9.18e-04	0	42	0	969932800	22	4624
2026-01-10 09:30:26.49	359.75	22.04	-30.2	-31.7	12.6	1.09e-04	0	42	0	975175680	21	4278
2026-01-10 09:30:29.49	359.34	21.68	-29.7	-30.8	13.6	1.06e-05	0	42	0	981467136	20	4071
2026-01-10 09:30:32.49	358.93	21.32	-29.9	-31.3	13.3	2.67e-05	0	42	0	986710016	20	4238
2026-01-10 09:30:35.50	358.53	20.97	-29.7	-30.7	13.6	6.80e-06	0	42	0	993001472	20	4061
2026-01-10 09:30:38.51	358.15	20.62	-30.1	-31.9	12.9	2.44e-05	0	42	0	998244352	20	4417
2026-01-10 09:30:41.51	357.77	20.27	-30.3	-32.4	12.5	1.14e-04	0	42	0	1003487232	20	4606
2026-01-10 09:30:44.51	357.40	19.93	-30.0	-31.5	13.1	2.97e-05	0	42	0	1009778688	20	4299
2026-01-10 09:30:47.51	357.04	19.59	-29.8	-31.1	13.4	2.51e-05	0	42	0	1015021568	20	4168
2026-01-10 09:30:50.52	356.69	19.26	-30.2	-32.2	12.6	7.55e-05	0	42	0	1020264448	20	4534
2026-01-10 09:30:53.52	356.34	18.92	-30.5	-32.6	12.0	2.46e-04	0	42	0	1026555904	21	4586
2026-01-10 09:30:56.51	356.01	18.60	-30.6	-32.9	11.8	5.45e-04	0	42	0	1031798784	21	4690
2026-01-10 09:30:59.50	355.68	18.27	-30.7	-33.2	11.5	9.99e-04	0	42	0	1037041664	21	4810
2026-01-10 09:31:02.50	355.35	17.95	-30.6	-32.9	11.7	5.36e-04	0	42	0	1043333120	21	4698
2026-01-10 09:31:05.51	355.04	17.63	-30.7	-33.1	11.6	6.80e-04	0	42	0	1048576000	21	4762
2026-01-10 09:31:08.51	354.73	17.32	-30.5	-32.5	12.0	3.09e-04	0	42	0	1054867456	21	4549
2026-01-10 09:31:11.51	354.43	17.00	-30.5	-32.7	11.8	2.91e-04	0	42	0	1060110336	21	4619
2026-01-10 09:31:14.52	354.13	16.69	-30.4	-32.3	12.1	2.98e-04	0	42	0	1065353216	21	4488
2026-01-10 09:31:17.52	353.84	16.39	-30.4	-32.4	11.9	3.55e-04	0	42	0	1071644672	21	4540
2026-01-10 09:31:20.54	353.56	16.08	-30.6	-33.0	11.6	5.78e-04	0	42	0	1076887552	21	4740
2026-01-10 09:31:23.53	353.28	15.78	-30.1	-31.4	12.6	1.08e-04	0	42	0	1083179008	21	4205
2026-01-10 09:31:26.53	353.01	15.48	-30.0	-31.2	12.8	4.73e-05	0	42	0	1088421888	21	4115
2026-01-10 09:31:29.53	352.74	15.19	-30.2	-31.6	12.5	1.36e-04	0	42	0	1093664768	21	4274
2026-01-10 09:31:32.54	352.48	14.90	-30.5	-32.7	11.7	4.61e-04	0	42	0	1099956224	21	4637
2026-01-10 09:31:35.53	352.22	14.61	-30.9	-33.9	10.9	1.95e-03	0	42	0	1105199104	21	5086
2026-01-10 09:31:38.53	351.97	14.33	-30.9	-34.0	10.6	3.58e-03	0	42	0	1110441984	21	5164
2026-01-10 09:31:41.53	351.73	14.04	-30.9	-33.5	10.6	3.73e-03	0	42	0	1116733440	22	4885
2026-01-10 09:31:44.54	351.49	13.76	-30.8	-33.2	11.0	1.59e-03	0	42	0	1121976320	22	4722
2026-01-10 09:31:47.54	351.25	13.48	-30.6	-32.5	11.5	8.89e-04	0	42	0	1127219200	22	4495
2026-01-10 09:31:50.54	351.02	13.21	-30.5	-32.2	11.7	1.00e-03	0	42	0	1133510656	22	4367
2026-01-10 09:31:53.55	350.79	12.94	-30.5	-32.6	11.7	4.75e-04	0	42	0	1138753536	21	4611
2026-01-10 09:31:56.56	350.57	12.67	-30.2	-31.9	12.2	2.04e-04	0	42	0	1145044992	21	4357
2026-01-10 09:31:59.57	350.35	12.40	-30.4	-32.4	11.7	3.58e-04	0	42	0	1150287872	21	4552
2026-01-10 09:32:02.57	350.13	12.13	-30.5	-32.9	11.5	9.24e-04	0	42	0	1155530752	21	4733
2026-01-10 09:32:05.59	349.92	11.87	-30.8	-33.5	11.0	2.03e-03	0	42	0	1161822208	21	4959
2026-01-10 09:32:08.59	349.72	11.61	-31.0	-33.9	10.4	3.17e-03	0	42	0	1167065088	22	5026
2026-01-10 09:32:11.60	349.51	11.35	-31.0	-33.9	10.4	4.83e-03	0	42	0	1172307968	22	5001
2026-01-10 09:32:14.59	349.32	11.10	-31.1	-34.3	10.0	9.32e-03	0	42	0	1178599424	22	5196
2026-01-10 09:32:17.59	349.12	10.84	-31.0	-34.0	10.3	4.99e-03	0	42	0	1183842304	22	5075
2026-01-10 09:32:20.60	348.93	10.59	-31.0	-33.8	10.3	5.13e-03	0	42	0	1190133760	22	5020
2026-01-10 09:32:23.61	348.74	10.34	-31.1	-34.3	10.0	4.49e-03	0	42	0	1195376640	22	5198
2026-01-10 09:32:26.60	348.55	10.10	-31.0	-33.9	10.3	6.23e-03	0	42	0	1200619520	22	5021
2026-01-10 09:32:29.61	348.37	9.85	-30.9	-33.8	10.3	5.01e-03	0	42	0	1206910976	22	4985
2026-01-10 09:32:32.62	348.19	9.61	-30.9	-33.9	10.2	6.07e-03	0	42	0	1212153856	22	5045
2026-01-10 09:32:35.62	348.02	9.37	-30.9	-33.8	10.1	6.96e-03	0	42	0	1217396736	22	5042
2026-01-10 09:32:38.61	347.85	9.13	-30.9	-33.8	10.1	7.51e-03	0	42	0	1223688192	22	5014
2026-01-10 09:32:41.61	347.68	8.90	-30.9	-33.6	10.2	5.84e-03	0	42	0	1228931072	22	4967
2026-01-10 09:32:44.63	347.51	8.66	-30.8	-33.5	10.2	6.56e-03	0	42	0	1235222528	22	4931
2026-01-10 09:32:47.64	347.35	8.43	-30.7	-33.2	10.4	5.10e-03	0	42	0	1240465408	22	4811
2026-01-10 09:32:50.64	347.18	8.20	-30.7	-33.3	10.2	5.52e-03	0	42	0	1245708288	22	4872
2026-01-10 09:32:53.63	347.03	7.97	-30.7	-33.5	10.1	4.99e-03	0	42	0	1251999744	22	4937
2026-01-10 09:32:56.63	346.87	7.74	-30.7	-33.2	10.3	6.53e-03	0	42	0	1257242624	22	4838
2026-01-10 09:32:59.65	346.72	7.52	-30.8	-33.7	9.9	9.43e-03	0	42	0	1262485504	22	5048
2026-01-10 09:33:02.65	346.57	7.30	-30.9	-34.2	9.5	1.19e-02	0	42	0	1268776960	22	5247
2026-01-10 09:33:05.65	346.42	7.07	-32.8	-45.0	3.8	4.23e-02	0	42	104	1274019840	25	14725
2026-01-10 09:33:08.65	346.27	6.86	-33.5	-45.7	3.8	1.49e+00	0	42	104	1274019840	27	14706

#Closed at: 2026-01-10 09:33:09
#Recorded file [1274 MB]: D:/data/31010_260110_122145.dat