passes_logs/2026/01/10/R2M6_AANII_01/R2M6_AANII_01__20260110_224021_NOAA_21_JPSS-2_rec.log

#Pass ID: 20260110_224021_NOAA 21 (JPSS-2)
#Satellite: NOAA 21 (JPSS-2)
#Configuration: NOAA 21
#almurnet v.1.7.20240730
#Start time: 2026-01-10 22:40:22

#Version: 2.2.20231116
#Station: R2M6_AANII_01
#Location: 30.233357 lon 59.946436 lat
#TLE: 1 54234U 22150A   26009.79679979  .00000100  00000+0  68070-4 0  9993
#TLE: 2 54234  98.7494 310.7596 0000833 322.2782  37.8335 14.19533646164071

#Time	Az	El	Level	Level2	SNR	BER	BlckErr	Temp	State	Recorded	gain1	gain2
2026-01-10 22:40:22.99	30.72	7.11	-31.1	-37.2	4.3	1.42e+00	0	39	0	0	22	7262
2026-01-10 22:40:26.01	31.02	7.30	-31.5	-37.5	6.0	3.26e-01	0	39	0	3145728	23	7174
2026-01-10 22:40:29.03	31.32	7.48	-31.7	-38.4	5.5	4.33e-01	0	40	0	12582912	23	7776
2026-01-10 22:40:32.06	31.62	7.67	-31.0	-35.6	7.7	1.00e-01	0	40	0	22020096	22	6113
2026-01-10 22:40:35.07	31.93	7.86	-29.9	-33.2	10.1	7.28e-03	0	40	0	31457280	20	5254
2026-01-10 22:40:38.09	32.24	8.05	-29.5	-32.3	11.2	1.39e-03	0	40	0	40894464	19	4984
2026-01-10 22:40:41.10	32.55	8.24	-29.7	-32.8	10.9	2.11e-03	0	40	0	50331648	19	5175
2026-01-10 22:40:44.13	32.87	8.43	-29.0	-31.5	12.1	2.79e-04	0	40	0	59768832	18	4800
2026-01-10 22:40:47.14	33.19	8.62	-28.7	-31.3	12.6	9.46e-05	0	40	0	69206016	17	4851
2026-01-10 22:40:50.15	33.52	8.81	-28.8	-31.5	12.5	1.30e-04	0	40	0	78643200	17	4904
2026-01-10 22:40:53.17	33.85	9.00	-28.5	-30.8	12.9	3.81e-05	0	41	0	88080384	17	4674
2026-01-10 22:40:56.18	34.19	9.20	-28.6	-31.0	12.7	5.26e-05	0	40	0	96468992	17	4743
2026-01-10 22:40:59.20	34.53	9.39	-28.5	-30.6	13.1	5.18e-05	0	41	0	106954752	17	4612
2026-01-10 22:41:02.22	34.87	9.58	-28.3	-30.8	13.3	2.05e-05	0	41	0	116391936	16	4778
2026-01-10 22:41:05.24	35.22	9.78	-28.3	-30.7	13.3	1.29e-05	0	41	0	124780544	16	4752
2026-01-10 22:41:08.26	35.57	9.97	-28.3	-30.7	13.3	2.21e-05	0	41	0	135266304	16	4769
2026-01-10 22:41:11.27	35.93	10.17	-28.3	-30.8	13.3	1.52e-05	0	41	0	143654912	16	4789
2026-01-10 22:41:14.29	36.29	10.37	-28.1	-30.3	13.6	1.06e-05	0	41	0	153092096	16	4617
2026-01-10 22:41:17.31	36.66	10.56	-28.0	-30.1	13.7	9.90e-06	0	41	0	163577856	16	4556
2026-01-10 22:41:20.33	37.03	10.76	-28.1	-30.2	13.7	6.10e-06	0	41	0	171966464	16	4588
2026-01-10 22:41:23.35	37.41	10.96	-28.0	-30.0	13.8	2.13e-05	0	41	0	182452224	16	4526
2026-01-10 22:41:26.37	37.79	11.16	-27.8	-29.5	14.1	3.80e-06	0	41	0	190840832	16	4377
2026-01-10 22:41:29.39	38.17	11.36	-27.7	-29.4	14.2	7.00e-07	0	41	0	200278016	16	4345
2026-01-10 22:41:32.42	38.57	11.56	-27.6	-28.9	14.5	7.00e-07	0	41	0	210763776	16	4209
2026-01-10 22:41:35.43	38.96	11.76	-27.7	-29.3	14.0	2.20e-06	0	41	0	219152384	16	4332
2026-01-10 22:41:38.45	39.36	11.96	-27.7	-29.3	14.3	7.00e-07	0	41	0	229638144	16	4312
2026-01-10 22:41:41.47	39.77	12.16	-27.8	-29.4	14.2	2.74e-05	0	41	0	238026752	16	4349
2026-01-10 22:41:44.49	40.18	12.36	-27.3	-28.9	14.6	7.00e-07	0	41	0	247463936	15	4322
2026-01-10 22:41:47.51	40.60	12.57	-27.6	-29.5	14.3	4.29e-04	0	41	0	257949696	15	4504
2026-01-10 22:41:50.53	41.03	12.77	-27.7	-29.8	14.1	3.80e-06	0	41	0	266338304	15	4585
2026-01-10 22:41:53.54	41.45	12.97	-27.6	-29.6	14.3	2.82e-05	0	41	0	275775488	15	4527
2026-01-10 22:41:56.56	41.89	13.17	-27.5	-29.3	14.5	0.00e+00	0	41	0	285212672	15	4423
2026-01-10 22:41:59.58	42.33	13.38	-27.6	-29.5	14.4	7.00e-07	0	41	0	294649856	15	4494
2026-01-10 22:42:02.59	42.78	13.58	-27.7	-29.7	14.3	7.00e-07	0	41	0	304087040	15	4547
2026-01-10 22:42:05.61	43.23	13.78	-27.3	-28.8	14.8	7.00e-07	0	41	0	313524224	15	4290
2026-01-10 22:42:08.62	43.69	13.99	-27.2	-29.1	14.9	9.03e-04	0	41	0	322961408	14	4488
2026-01-10 22:42:11.63	44.15	14.19	-27.3	-29.4	14.8	0.00e+00	0	41	0	332398592	14	4568
2026-01-10 22:42:14.65	44.62	14.39	-27.4	-29.6	14.7	0.00e+00	0	41	0	341835776	14	4617
2026-01-10 22:42:17.67	45.10	14.60	-27.0	-28.7	15.2	0.00e+00	0	41	0	351272960	14	4366
2026-01-10 22:42:20.68	45.58	14.80	-27.2	-29.0	15.1	0.00e+00	0	42	0	360710144	14	4447
2026-01-10 22:42:23.70	46.07	15.00	-27.3	-29.4	14.9	0.00e+00	0	42	0	370147328	14	4565
2026-01-10 22:42:26.71	46.57	15.20	-27.2	-29.0	15.1	0.00e+00	0	42	0	379584512	14	4448
2026-01-10 22:42:29.72	47.07	15.41	-27.1	-28.7	15.2	0.00e+00	0	42	0	389021696	14	4366
2026-01-10 22:42:32.74	47.58	15.61	-27.1	-28.9	15.2	0.00e+00	0	42	0	398458880	14	4410
2026-01-10 22:42:35.76	48.10	15.81	-27.1	-28.8	15.2	0.00e+00	0	41	0	407896064	14	4386
2026-01-10 22:42:38.77	48.62	16.01	-27.2	-29.0	15.1	0.00e+00	0	42	0	417333248	14	4436
2026-01-10 22:42:41.79	49.15	16.21	-27.1	-28.8	15.2	0.00e+00	0	42	0	426770432	14	4382
2026-01-10 22:42:44.80	49.69	16.41	-27.2	-29.1	15.1	7.00e-07	0	42	0	436207616	14	4473
2026-01-10 22:42:47.82	50.23	16.61	-27.3	-29.2	15.1	1.50e-06	0	42	0	445644800	14	4488
2026-01-10 22:42:50.84	50.78	16.81	-27.3	-29.4	15.0	0.00e+00	0	42	0	455081984	14	4538
2026-01-10 22:42:53.85	51.34	17.01	-27.2	-29.0	15.2	0.00e+00	0	42	0	464519168	14	4445
2026-01-10 22:42:56.87	51.91	17.20	-27.1	-28.8	15.3	0.00e+00	0	42	0	473956352	14	4386
2026-01-10 22:42:59.89	52.48	17.40	-27.4	-29.5	14.9	0.00e+00	0	42	0	483393536	14	4593
2026-01-10 22:43:02.90	53.06	17.59	-27.3	-29.2	15.2	7.35e-04	0	42	0	492830720	14	4496
2026-01-10 22:43:05.91	53.64	17.78	-27.3	-29.2	15.1	1.24e-03	0	42	0	502267904	14	4492
2026-01-10 22:43:08.93	54.24	17.97	-27.3	-29.2	15.2	0.00e+00	0	42	0	511705088	14	4487
2026-01-10 22:43:11.95	54.84	18.16	-27.3	-29.3	15.1	4.84e-04	0	42	0	521142272	14	4513
2026-01-10 22:43:14.97	55.45	18.35	-27.2	-29.0	15.2	8.30e-06	0	42	0	530579456	14	4435
2026-01-10 22:43:17.99	56.07	18.54	-27.2	-29.1	15.2	0.00e+00	0	42	0	540016640	14	4465
2026-01-10 22:43:21.01	56.69	18.72	-27.1	-28.9	15.4	0.00e+00	0	42	0	549453824	14	4400
2026-01-10 22:43:24.03	57.33	18.91	-27.3	-29.2	15.2	4.76e-04	0	42	0	558891008	14	4504
2026-01-10 22:43:27.05	57.97	19.09	-27.2	-29.0	15.3	0.00e+00	0	42	0	568328192	14	4425
2026-01-10 22:43:30.07	58.61	19.27	-27.1	-28.8	15.3	0.00e+00	0	42	0	577765376	14	4382
2026-01-10 22:43:33.09	59.27	19.44	-27.2	-29.1	15.3	0.00e+00	0	42	0	587202560	14	4457
2026-01-10 22:43:36.12	59.93	19.62	-27.2	-29.1	15.3	0.00e+00	0	42	0	596639744	14	4449
2026-01-10 22:43:39.14	60.60	19.79	-27.2	-29.0	15.3	0.00e+00	0	42	0	606076928	14	4415
2026-01-10 22:43:42.15	61.28	19.95	-27.0	-28.5	15.6	0.00e+00	0	42	0	615514112	14	4290
2026-01-10 22:43:45.16	61.96	20.12	-26.9	-28.3	15.7	0.00e+00	0	42	0	624951296	14	4227
2026-01-10 22:43:48.19	62.65	20.28	-26.9	-28.8	15.7	0.00e+00	0	42	0	634388480	13	4487
2026-01-10 22:43:51.21	63.35	20.44	-27.1	-28.8	15.5	0.00e+00	0	42	0	643825664	14	4375
2026-01-10 22:43:54.22	64.05	20.60	-26.7	-28.3	15.9	0.00e+00	0	42	0	653262848	13	4338
2026-01-10 22:43:57.24	64.76	20.75	-26.8	-28.6	15.8	0.00e+00	0	42	0	662700032	13	4426
2026-01-10 22:44:00.25	65.48	20.90	-26.7	-28.4	15.9	0.00e+00	0	42	0	672137216	13	4368
2026-01-10 22:44:03.27	66.21	21.05	-26.6	-28.2	16.0	0.00e+00	0	42	0	681574400	13	4317
2026-01-10 22:44:06.29	66.94	21.19	-26.8	-28.7	15.8	0.00e+00	0	42	0	691011584	13	4453
2026-01-10 22:44:09.31	67.68	21.33	-26.8	-28.5	15.9	0.00e+00	0	42	0	700448768	13	4402
2026-01-10 22:44:12.33	68.42	21.46	-26.5	-27.9	16.2	0.00e+00	0	42	0	709885952	13	4237
2026-01-10 22:44:15.35	69.18	21.59	-26.7	-28.3	16.0	0.00e+00	0	42	0	719323136	13	4335
2026-01-10 22:44:18.36	69.93	21.72	-26.8	-28.6	15.9	0.00e+00	0	42	0	728760320	13	4419
2026-01-10 22:44:21.38	70.70	21.84	-26.7	-28.3	16.0	0.00e+00	0	42	0	738197504	13	4343
2026-01-10 22:44:24.40	71.47	21.95	-26.6	-28.1	16.1	0.00e+00	0	42	0	747634688	13	4286
2026-01-10 22:44:27.42	72.24	22.06	-26.6	-28.1	16.2	0.00e+00	0	42	0	757071872	13	4286
2026-01-10 22:44:30.42	73.02	22.17	-26.6	-28.2	16.1	0.00e+00	0	42	0	766509056	13	4307
2026-01-10 22:44:33.44	73.80	22.27	-26.8	-28.5	15.9	0.00e+00	0	42	0	775946240	13	4402
2026-01-10 22:44:36.46	74.59	22.37	-26.6	-28.1	16.2	0.00e+00	0	42	0	785383424	13	4276
2026-01-10 22:44:39.48	75.39	22.46	-26.6	-28.2	16.1	0.00e+00	0	42	0	794820608	13	4311
2026-01-10 22:44:42.49	76.19	22.55	-26.8	-28.5	15.9	0.00e+00	0	42	0	804257792	13	4408
2026-01-10 22:44:45.51	76.99	22.63	-26.5	-27.9	16.3	0.00e+00	0	42	0	813694976	13	4241
2026-01-10 22:44:48.53	77.80	22.70	-26.5	-27.8	16.3	0.00e+00	0	42	0	823132160	13	4206
2026-01-10 22:44:51.55	78.61	22.77	-26.5	-27.9	16.3	0.00e+00	0	42	0	832569344	13	4238
2026-01-10 22:44:54.56	79.43	22.84	-26.6	-28.1	16.1	0.00e+00	0	42	0	842006528	13	4288
2026-01-10 22:44:57.58	80.25	22.90	-26.7	-28.3	16.0	0.00e+00	0	42	0	851443712	13	4331
2026-01-10 22:45:00.60	81.07	22.95	-26.6	-28.1	16.2	0.00e+00	0	42	0	860880896	13	4291
2026-01-10 22:45:03.62	81.89	22.99	-26.7	-28.4	15.9	0.00e+00	0	42	0	870318080	13	4379
2026-01-10 22:45:06.63	82.72	23.04	-26.6	-28.2	16.1	0.00e+00	0	42	0	879755264	13	4310
2026-01-10 22:45:09.64	83.54	23.07	-26.7	-28.5	16.0	0.00e+00	0	42	0	889192448	13	4396
2026-01-10 22:45:12.65	84.37	23.10	-26.4	-27.8	16.3	0.00e+00	0	42	0	898629632	13	4195
2026-01-10 22:45:15.67	85.20	23.12	-26.4	-27.7	16.4	0.00e+00	0	42	0	908066816	13	4188
2026-01-10 22:45:18.69	86.04	23.14	-26.6	-28.2	16.1	0.00e+00	0	42	0	917504000	13	4317
2026-01-10 22:45:21.70	86.87	23.15	-26.6	-28.1	16.1	0.00e+00	0	42	0	926941184	13	4287
2026-01-10 22:45:24.72	87.70	23.15	-26.7	-28.4	16.0	0.00e+00	0	42	0	936378368	13	4367
2026-01-10 22:45:27.74	88.54	23.15	-26.6	-28.2	16.1	0.00e+00	0	42	0	945815552	13	4319
2026-01-10 22:45:30.75	89.37	23.14	-26.5	-27.9	16.3	0.00e+00	0	42	0	955252736	13	4231
2026-01-10 22:45:33.77	90.20	23.13	-26.4	-27.6	16.4	0.00e+00	0	42	0	964689920	13	4164
2026-01-10 22:45:36.80	91.04	23.11	-26.2	-27.2	16.6	0.00e+00	0	42	0	974127104	13	4045
2026-01-10 22:45:39.83	91.87	23.08	-26.2	-27.3	16.2	0.00e+00	0	42	0	983564288	13	4087
2026-01-10 22:45:42.85	92.70	23.05	-26.3	-27.5	16.5	4.80e-05	0	42	0	993001472	13	4128
2026-01-10 22:45:45.87	93.53	23.01	-26.3	-27.5	16.5	0.00e+00	0	42	0	1002438656	13	4127
2026-01-10 22:45:48.89	94.36	22.96	-26.3	-27.5	16.5	0.00e+00	0	42	0	1011875840	13	4115
2026-01-10 22:45:51.90	95.18	22.91	-26.2	-27.2	16.6	0.00e+00	0	42	0	1021313024	13	4055
2026-01-10 22:45:54.93	96.00	22.85	-26.2	-27.3	16.6	0.00e+00	0	42	0	1030750208	13	4067
2026-01-10 22:45:57.95	96.82	22.79	-26.5	-28.0	16.2	0.00e+00	0	42	0	1040187392	13	4257
2026-01-10 22:46:00.97	97.64	22.72	-26.4	-27.7	16.4	2.13e-05	0	42	0	1049624576	13	4174
2026-01-10 22:46:03.99	98.45	22.65	-26.4	-27.7	16.4	0.00e+00	0	42	0	1059061760	13	4183
2026-01-10 22:46:07.01	99.26	22.57	-26.6	-28.2	16.1	0.00e+00	0	42	0	1068498944	13	4319
2026-01-10 22:46:10.03	100.06	22.48	-26.4	-27.7	16.4	4.04e-05	0	42	0	1077936128	13	4170
2026-01-10 22:46:13.06	100.86	22.39	-26.4	-27.8	16.3	0.00e+00	0	42	0	1087373312	13	4212
2026-01-10 22:46:16.07	101.65	22.30	-26.3	-27.4	16.5	0.00e+00	0	42	0	1096810496	13	4095
2026-01-10 22:46:19.09	102.44	22.20	-26.3	-27.5	16.4	0.00e+00	0	42	0	1106247680	13	4130
2026-01-10 22:46:22.10	103.22	22.09	-26.6	-28.1	16.1	0.00e+00	0	42	0	1115684864	13	4284
2026-01-10 22:46:25.13	104.01	21.98	-26.4	-27.8	16.2	0.00e+00	0	42	0	1125122048	13	4215
2026-01-10 22:46:28.15	104.78	21.86	-26.5	-27.8	16.3	0.00e+00	0	42	0	1134559232	13	4214
2026-01-10 22:46:31.15	105.54	21.74	-26.5	-27.9	16.2	0.00e+00	0	42	0	1143996416	13	4242
2026-01-10 22:46:34.16	106.30	21.62	-26.6	-28.2	16.0	0.00e+00	0	42	0	1153433600	13	4313
2026-01-10 22:46:37.18	107.06	21.49	-26.5	-28.0	16.1	0.00e+00	0	42	0	1162870784	13	4258
2026-01-10 22:46:40.19	107.81	21.36	-26.7	-28.3	15.9	0.00e+00	0	42	0	1172307968	13	4356
2026-01-10 22:46:43.21	108.55	21.22	-26.6	-28.3	16.0	0.00e+00	0	42	0	1181745152	13	4337
2026-01-10 22:46:46.23	109.29	21.08	-26.6	-28.1	16.1	0.00e+00	0	42	0	1191182336	13	4289
2026-01-10 22:46:49.25	110.02	20.93	-26.6	-28.2	16.0	0.00e+00	0	42	0	1200619520	13	4318
2026-01-10 22:46:52.27	110.74	20.78	-26.6	-28.3	15.9	0.00e+00	0	42	0	1210056704	13	4344
2026-01-10 22:46:55.28	111.45	20.63	-26.7	-28.5	15.8	0.00e+00	0	42	0	1219493888	13	4402
2026-01-10 22:46:58.30	112.16	20.47	-26.6	-28.2	15.6	1.40e-04	0	42	0	1228931072	13	4333
2026-01-10 22:47:01.32	112.87	20.31	-26.6	-28.2	16.0	0.00e+00	0	42	0	1238368256	13	4313
2026-01-10 22:47:04.34	113.56	20.15	-26.7	-28.3	15.9	0.00e+00	0	42	0	1247805440	13	4367
2026-01-10 22:47:07.35	114.25	19.98	-26.7	-28.4	15.8	0.00e+00	0	42	0	1257242624	13	4384
2026-01-10 22:47:10.36	114.93	19.82	-26.8	-28.6	15.7	0.00e+00	0	42	0	1266679808	13	4452
2026-01-10 22:47:13.38	115.60	19.64	-26.8	-28.7	15.6	8.08e-05	0	42	0	1276116992	13	4475
2026-01-10 22:47:16.39	116.27	19.47	-26.8	-28.1	15.7	0.00e+00	0	42	0	1285554176	14	4196
2026-01-10 22:47:19.41	116.92	19.29	-27.0	-28.6	15.4	0.00e+00	0	42	0	1294991360	14	4344
2026-01-10 22:47:22.42	117.57	19.12	-27.0	-28.6	15.4	2.20e-06	0	42	0	1304428544	14	4328
2026-01-10 22:47:25.44	118.22	18.93	-27.0	-28.5	15.5	2.05e-05	0	42	0	1313865728	14	4294
2026-01-10 22:47:28.45	118.85	18.75	-26.8	-28.1	15.7	0.00e+00	0	42	0	1323302912	14	4197
2026-01-10 22:47:31.47	119.48	18.57	-26.7	-28.0	15.8	2.36e-05	0	42	0	1332740096	14	4167
2026-01-10 22:47:34.49	120.10	18.38	-26.9	-28.4	15.5	1.06e-05	0	42	0	1342177280	14	4276
2026-01-10 22:47:37.50	120.72	18.19	-27.0	-28.6	15.4	0.00e+00	0	42	0	1351614464	14	4323
2026-01-10 22:47:40.52	121.32	18.00	-26.9	-28.3	15.5	0.00e+00	0	42	0	1361051648	14	4249
2026-01-10 22:47:43.53	121.92	17.81	-26.7	-27.9	15.8	0.00e+00	0	42	0	1369440256	14	4136
2026-01-10 22:47:46.55	122.51	17.61	-26.8	-28.1	15.7	0.00e+00	0	42	0	1379926016	14	4181
2026-01-10 22:47:49.57	123.10	17.42	-26.9	-28.4	15.4	0.00e+00	0	42	0	1389363200	14	4292
2026-01-10 22:47:52.58	123.67	17.22	-27.0	-28.6	15.3	0.00e+00	0	42	0	1397751808	14	4339
2026-01-10 22:47:55.59	124.24	17.02	-26.8	-28.2	15.5	0.00e+00	0	42	0	1407188992	14	4230
2026-01-10 22:47:58.61	124.81	16.82	-27.0	-28.5	15.3	0.00e+00	0	42	0	1416626176	14	4318
2026-01-10 22:48:01.63	125.36	16.62	-27.0	-28.6	15.3	0.00e+00	0	42	0	1426063360	14	4347
2026-01-10 22:48:04.65	125.91	16.42	-27.0	-28.5	15.3	0.00e+00	0	42	0	1436549120	14	4323
2026-01-10 22:48:07.67	126.45	16.22	-27.0	-28.7	15.2	0.00e+00	0	42	0	1444937728	14	4375
2026-01-10 22:48:10.69	126.99	16.02	-26.9	-28.5	15.3	0.00e+00	0	42	0	1454374912	14	4301
2026-01-10 22:48:13.71	127.52	15.82	-27.0	-28.7	15.2	0.00e+00	0	42	0	1463812096	14	4363
2026-01-10 22:48:16.72	128.03	15.61	-27.4	-29.5	14.6	0.00e+00	0	42	0	1473249280	14	4618
2026-01-10 22:48:19.73	128.55	15.41	-27.7	-29.7	14.3	0.00e+00	0	42	0	1482686464	15	4553
2026-01-10 22:48:22.75	129.05	15.21	-27.7	-29.7	14.3	1.50e-06	0	42	0	1492123648	15	4558
2026-01-10 22:48:25.76	129.55	15.00	-27.5	-29.2	14.5	0.00e+00	0	42	0	1501560832	15	4412
2026-01-10 22:48:28.77	130.05	14.80	-27.6	-29.6	14.3	0.00e+00	0	42	0	1510998016	15	4527
2026-01-10 22:48:31.78	130.53	14.59	-27.5	-29.5	14.3	7.00e-07	0	42	0	1520435200	15	4488
2026-01-10 22:48:34.79	131.01	14.39	-27.7	-29.9	14.0	1.50e-06	0	42	0	1529872384	15	4628
2026-01-10 22:48:37.81	131.49	14.18	-27.6	-29.6	14.2	7.00e-07	0	42	0	1539309568	15	4541
2026-01-10 22:48:40.83	131.95	13.98	-27.6	-29.6	14.2	3.80e-06	0	42	0	1548746752	15	4532
2026-01-10 22:48:43.84	132.41	13.77	-27.6	-29.6	14.2	3.00e-06	0	42	0	1558183936	15	4537
2026-01-10 22:48:46.84	132.87	13.57	-27.9	-30.4	13.7	3.00e-06	0	42	0	1567621120	15	4767
2026-01-10 22:48:49.86	133.32	13.36	-28.1	-30.3	13.6	1.06e-05	0	42	0	1577058304	16	4626
2026-01-10 22:48:52.88	133.76	13.16	-28.4	-31.0	13.1	1.83e-05	0	42	0	1586495488	16	4865
2026-01-10 22:48:55.89	134.20	12.95	-28.9	-31.3	12.3	1.75e-04	0	42	0	1595932672	18	4754
2026-01-10 22:48:58.90	134.63	12.75	-28.5	-30.9	12.9	4.19e-05	0	42	0	1605369856	17	4708
2026-01-10 22:49:01.92	135.05	12.55	-28.4	-30.5	13.1	3.28e-05	0	42	0	1614807040	17	4601
2026-01-10 22:49:04.94	135.48	12.34	-28.3	-30.8	13.2	6.10e-06	0	42	0	1624244224	16	4796
2026-01-10 22:49:07.96	135.89	12.14	-28.2	-30.7	13.2	2.36e-05	0	42	0	1633681408	16	4783
2026-01-10 22:49:10.97	136.30	11.94	-28.4	-31.0	13.0	3.89e-05	0	42	0	1643118592	16	4889
2026-01-10 22:49:13.99	136.70	11.73	-28.2	-30.8	13.0	3.43e-05	0	42	0	1652555776	16	4861
2026-01-10 22:49:16.99	137.10	11.53	-28.2	-30.6	13.1	3.50e-05	0	42	0	1661992960	16	4785
2026-01-10 22:49:20.01	137.49	11.33	-28.1	-30.4	13.3	2.44e-05	0	42	0	1671430144	16	4679
2026-01-10 22:49:23.03	137.88	11.13	-28.0	-30.2	13.5	1.14e-05	0	42	0	1680867328	16	4602
2026-01-10 22:49:26.05	138.26	10.93	-28.0	-30.3	13.3	2.13e-05	0	42	0	1690304512	16	4648
2026-01-10 22:49:29.07	138.64	10.73	-28.2	-30.6	13.1	2.28e-05	0	42	0	1699741696	16	4737
2026-01-10 22:49:32.08	139.02	10.53	-28.1	-30.4	13.3	2.59e-05	0	42	0	1709178880	16	4673
2026-01-10 22:49:35.09	139.38	10.33	-28.3	-30.8	13.0	3.96e-05	0	42	0	1718616064	16	4824
2026-01-10 22:49:38.11	139.75	10.13	-28.3	-30.4	12.9	3.89e-05	0	42	0	1728053248	17	4600
2026-01-10 22:49:41.11	140.10	9.93	-28.3	-30.5	12.8	6.25e-05	0	42	0	1737490432	17	4628
2026-01-10 22:49:44.13	140.46	9.73	-28.4	-31.2	12.6	7.85e-05	0	42	0	1746927616	16	4977
2026-01-10 22:49:47.15	140.81	9.54	-28.2	-30.6	13.0	4.11e-05	0	42	0	1756364800	16	4752
2026-01-10 22:49:50.17	141.15	9.34	-28.4	-31.1	12.6	8.85e-05	0	42	0	1765801984	16	4924
2026-01-10 22:49:53.19	141.49	9.14	-27.4	-29.9	12.7	6.79e-05	0	42	0	1775239168	16	4805
2026-01-10 22:49:56.19	141.83	8.95	-28.4	-31.3	12.2	1.78e-04	0	42	0	1784676352	16	5016
2026-01-10 22:49:59.21	142.16	8.76	-28.5	-31.0	12.2	7.92e-04	0	42	0	1794113536	17	4803
2026-01-10 22:50:02.22	142.49	8.56	-28.5	-31.2	11.9	3.52e-04	0	42	0	1803550720	17	4887
2026-01-10 22:50:05.24	142.81	8.37	-28.6	-31.4	11.8	6.06e-04	0	42	0	1812987904	17	4978
2026-01-10 22:50:08.26	143.13	8.18	-28.6	-31.4	11.7	2.25e-03	0	42	0	1822425088	17	4976
2026-01-10 22:50:11.27	143.44	7.99	-28.6	-31.4	11.7	3.28e-03	0	42	0	1831862272	17	4955
2026-01-10 22:50:14.28	143.76	7.80	-28.7	-31.5	11.6	4.39e-03	0	42	0	1841299456	17	5011
2026-01-10 22:50:17.29	144.06	7.61	-28.6	-31.5	11.6	4.21e-03	0	42	0	1850736640	17	4992
2026-01-10 22:50:20.32	144.37	7.42	-28.7	-31.7	11.5	4.80e-03	0	42	0	1860173824	17	5081
2026-01-10 22:50:23.34	144.67	7.23	-28.8	-31.8	11.4	9.06e-04	0	42	0	1869611008	17	5112
2026-01-10 22:50:26.35	144.96	7.04	-32.1	-42.2	4.1	6.41e-03	0	42	0	1879048192	24	11533

#Closed at: 2026-01-10 22:50:27
#Recorded file [1879 MB]: D:/data/31010_260111_014024.dat