passes_logs/2026/01/12/R4.6S_Anadyr/R4.6S_Anadyr__20260112_182042_FENGYUN_3D_rec.log

#Pass ID: 20260112_182042_FENGYUN 3D
#Satellite: FENGYUN 3D
#Configuration: FENGYUN 3D
#almurnet v.1.7.20251203
#Start time: 2026-01-12 18:20:45

#Version: 2.2.20231116
#Station: R4.6S_Anadyr
#Location: 177.4865 lon 64.73178 lat
#TLE: 1 43010U 17072A   26011.62066612  .00000104  00000+0  70810-4 0  9998
#TLE: 2 43010  98.9935 343.3846 0002223 114.2890 245.8518 14.19694405422776

#Time	Az	El	Level	Level2	SNR	BER	BlckErr	Temp	State	Recorded	gain1	gain2
2026-01-12 18:20:45.09	25.85	0.17	-48.3	-59.0	3.3	8.40e-01	0	29	0	0	60	32168
2026-01-12 18:20:49.12	25.71	0.40	-48.4	-60.4	3.6	8.46e-01	0	29	104	0	60	37956
2026-01-12 18:20:53.16	25.56	0.64	-48.0	-60.0	3.6	8.46e-01	0	29	104	0	60	36338
2026-01-12 18:20:57.19	25.41	0.88	-47.2	-59.2	3.6	8.45e-01	0	29	104	0	60	33010
2026-01-12 18:21:01.23	25.26	1.11	-46.7	-58.8	3.6	8.46e-01	0	29	104	0	60	31578
2026-01-12 18:21:05.27	25.10	1.35	-46.7	-58.7	3.6	8.46e-01	0	29	104	0	60	31049
2026-01-12 18:21:09.31	24.94	1.60	-46.7	-58.8	3.6	8.44e-01	0	29	104	0	60	31402
2026-01-12 18:21:13.35	24.78	1.84	-46.7	-58.5	3.5	8.45e-01	0	29	104	0	60	30342
2026-01-12 18:21:17.39	24.62	2.09	-46.7	-58.5	3.6	8.45e-01	0	29	104	0	60	30517
2026-01-12 18:21:21.43	24.45	2.33	-46.7	-58.7	3.6	8.45e-01	0	29	104	0	60	31031
2026-01-12 18:21:25.47	24.28	2.58	-46.6	-58.1	3.5	8.45e-01	0	29	104	0	60	29117
2026-01-12 18:21:29.51	24.11	2.84	-46.6	-58.1	3.5	8.45e-01	0	29	104	0	60	28945
2026-01-12 18:21:33.55	23.93	3.09	-45.8	-51.5	5.6	7.95e-01	0	29	0	0	60	13595
2026-01-12 18:21:37.59	23.75	3.35	-42.2	-44.4	13.4	5.14e-05	0	29	0	22020096	58	6701
2026-01-12 18:21:41.62	23.57	3.60	-44.7	-48.3	8.9	6.95e-02	0	29	0	45088768	60	9433
2026-01-12 18:21:45.66	23.38	3.86	-46.7	-58.7	3.6	8.46e-01	0	29	104	60817408	60	31269
2026-01-12 18:21:49.70	23.19	4.12	-35.2	-36.0	21.8	0.00e+00	0	29	0	76546048	44	5749
2026-01-12 18:21:53.74	23.00	4.39	-35.3	-36.1	21.9	0.00e+00	0	29	0	98566144	44	5780
2026-01-12 18:21:57.78	22.80	4.66	-35.1	-35.9	22.0	0.00e+00	0	29	0	121634816	44	5687
2026-01-12 18:22:01.81	22.60	4.92	-34.9	-35.7	22.3	0.00e+00	0	29	0	144703488	44	5553
2026-01-12 18:22:05.85	22.39	5.19	-35.0	-35.8	22.3	0.00e+00	0	29	0	167772160	42	6252
2026-01-12 18:22:09.89	22.18	5.47	-35.0	-35.7	22.3	0.00e+00	0	29	0	189792256	42	6244
2026-01-12 18:22:13.93	21.97	5.74	-34.9	-35.7	22.4	0.00e+00	0	29	0	212860928	42	6209
2026-01-12 18:22:17.97	21.75	6.02	-35.0	-35.8	22.4	0.00e+00	0	29	0	234881024	42	6282
2026-01-12 18:22:22.01	21.53	6.30	-34.5	-35.3	22.9	0.00e+00	0	29	0	257949696	42	5935
2026-01-12 18:22:26.05	21.30	6.59	-34.4	-35.1	23.1	0.00e+00	0	29	0	281018368	42	5809
2026-01-12 18:22:30.09	21.07	6.88	-34.4	-35.2	23.0	0.00e+00	0	29	0	303038464	42	5855
2026-01-12 18:22:34.13	20.83	7.16	-34.1	-34.8	23.4	0.00e+00	0	29	0	326107136	42	5618
2026-01-12 18:22:38.16	20.58	7.46	-34.0	-34.7	23.5	0.00e+00	0	29	0	349175808	42	5564
2026-01-12 18:22:42.21	20.34	7.75	-33.9	-34.6	23.7	0.00e+00	0	29	0	372244480	42	5493
2026-01-12 18:22:46.25	20.08	8.05	-33.7	-34.5	23.8	0.00e+00	0	29	0	394264576	40	6042
2026-01-12 18:22:50.29	19.82	8.35	-33.8	-34.5	23.7	0.00e+00	0	29	0	417333248	40	6061
2026-01-12 18:22:54.33	19.56	8.65	-33.7	-34.5	23.8	0.00e+00	0	29	0	439353344	40	6041
2026-01-12 18:22:58.37	19.29	8.96	-33.7	-34.4	23.9	0.00e+00	0	29	0	462422016	40	6017
2026-01-12 18:23:02.41	19.01	9.27	-33.7	-34.5	23.9	0.00e+00	0	29	0	485490688	40	6053
2026-01-12 18:23:06.44	18.72	9.58	-33.5	-34.2	24.1	0.00e+00	0	29	0	507510784	40	5878
2026-01-12 18:23:10.48	18.43	9.90	-33.4	-34.1	24.2	0.00e+00	0	29	0	530579456	40	5812
2026-01-12 18:23:14.52	18.14	10.22	-33.3	-34.0	24.3	0.00e+00	0	29	0	553648128	40	5747
2026-01-12 18:23:18.56	17.83	10.54	-33.1	-33.8	24.6	0.00e+00	0	29	0	576716800	40	5612
2026-01-12 18:23:22.60	17.52	10.87	-33.0	-33.7	24.6	0.00e+00	0	29	0	598736896	40	5525
2026-01-12 18:23:26.65	17.20	11.20	-32.9	-33.6	24.8	0.00e+00	0	29	0	621805568	40	5454
2026-01-12 18:23:30.69	16.88	11.54	-32.8	-33.5	24.9	0.00e+00	0	29	0	643825664	40	5383
2026-01-12 18:23:34.73	16.54	11.87	-32.9	-33.6	24.9	0.00e+00	0	29	0	666894336	38	6153
2026-01-12 18:23:38.77	16.20	12.21	-32.6	-33.3	25.1	0.00e+00	0	29	0	689963008	38	5937
2026-01-12 18:23:42.81	15.85	12.56	-32.7	-33.4	24.9	0.00e+00	0	29	0	713031680	38	6021
2026-01-12 18:23:46.85	15.49	12.91	-32.9	-33.6	24.9	0.00e+00	0	29	0	735051776	38	6168
2026-01-12 18:23:50.88	15.12	13.26	-32.5	-33.2	25.2	0.00e+00	0	29	0	758120448	38	5851
2026-01-12 18:23:54.92	14.75	13.62	-32.3	-33.0	25.4	0.00e+00	0	29	0	781189120	38	5732
2026-01-12 18:23:58.96	14.36	13.98	-32.4	-33.1	25.4	0.00e+00	0	29	0	803209216	38	5762
2026-01-12 18:24:03.00	13.96	14.34	-32.4	-33.1	25.4	0.00e+00	0	29	0	826277888	38	5773
2026-01-12 18:24:07.03	13.55	14.71	-32.1	-32.8	25.6	0.00e+00	0	29	0	848297984	38	5590
2026-01-12 18:24:11.07	13.14	15.08	-32.1	-32.7	25.7	0.00e+00	0	29	0	871366656	38	5543
2026-01-12 18:24:15.10	12.71	15.46	-32.0	-32.7	25.8	0.00e+00	0	29	0	894435328	38	5509
2026-01-12 18:24:19.14	12.27	15.84	-31.9	-32.6	25.8	0.00e+00	0	29	0	916455424	38	5470
2026-01-12 18:24:23.18	11.81	16.22	-31.9	-32.6	25.8	0.00e+00	0	29	0	939524096	38	5465
2026-01-12 18:24:27.22	11.35	16.61	-31.7	-32.3	26.1	0.00e+00	0	29	0	962592768	36	5948
2026-01-12 18:24:31.25	10.87	17.01	-31.5	-32.2	26.3	0.00e+00	0	29	0	985661440	36	5831
2026-01-12 18:24:35.29	10.38	17.40	-31.3	-32.0	26.4	0.00e+00	0	29	0	1007681536	36	5708
2026-01-12 18:24:39.33	9.88	17.81	-31.4	-32.0	26.3	0.00e+00	0	29	0	1030750208	36	5725
2026-01-12 18:24:43.37	9.36	18.21	-31.3	-32.0	26.4	0.00e+00	0	29	0	1052770304	36	5718
2026-01-12 18:24:47.41	8.83	18.62	-31.0	-31.7	26.7	0.00e+00	0	29	0	1075838976	36	5504
2026-01-12 18:24:51.45	8.28	19.04	-30.9	-31.6	26.8	0.00e+00	0	29	0	1098907648	36	5454
2026-01-12 18:24:55.48	7.72	19.46	-31.0	-31.6	26.7	0.00e+00	0	29	0	1120927744	36	5498
2026-01-12 18:24:59.52	7.14	19.88	-30.8	-31.5	26.8	0.00e+00	0	29	0	1143996416	36	5383
2026-01-12 18:25:03.56	6.55	20.31	-30.7	-31.4	27.0	0.00e+00	0	29	0	1167065088	34	6001
2026-01-12 18:25:07.60	5.93	20.74	-30.6	-31.3	27.1	0.00e+00	0	29	0	1189085184	34	5900
2026-01-12 18:25:11.63	5.30	21.17	-30.4	-31.0	27.3	0.00e+00	0	29	0	1212153856	34	5716
2026-01-12 18:25:15.67	4.65	21.61	-30.3	-31.0	27.3	0.00e+00	0	29	0	1235222528	34	5698
2026-01-12 18:25:19.71	3.99	22.05	-30.3	-30.9	27.4	0.00e+00	0	29	0	1257242624	34	5678
2026-01-12 18:25:23.74	3.30	22.50	-30.0	-30.6	27.6	0.00e+00	0	29	0	1280311296	34	5472
2026-01-12 18:25:27.78	2.59	22.95	-30.0	-30.7	27.5	0.00e+00	0	29	0	1303379968	34	5525
2026-01-12 18:25:31.82	1.86	23.40	-30.1	-30.7	27.4	0.00e+00	0	29	0	1325400064	34	5551
2026-01-12 18:25:35.86	1.11	23.85	-29.7	-30.3	27.9	0.00e+00	0	29	0	1348468736	32	5964
2026-01-12 18:25:39.90	0.33	24.31	-29.7	-30.3	27.8	0.00e+00	0	29	0	1371537408	32	5936
2026-01-12 18:25:43.93	359.54	24.77	-30.0	-30.7	27.6	0.00e+00	0	29	0	1393557504	32	6177
2026-01-12 18:25:47.97	358.72	25.23	-29.8	-30.4	27.7	0.00e+00	0	29	0	1416626176	32	5999
2026-01-12 18:25:52.01	357.87	25.69	-29.4	-30.0	28.0	0.00e+00	0	29	0	1439694848	32	5757
2026-01-12 18:25:56.05	357.00	26.16	-29.3	-30.0	28.0	0.00e+00	0	29	0	1461714944	32	5706
2026-01-12 18:26:00.08	356.10	26.62	-29.5	-30.2	27.9	0.00e+00	0	28	0	1484783616	32	5831
2026-01-12 18:26:04.12	355.18	27.08	-29.3	-29.9	28.1	0.00e+00	0	28	0	1507852288	32	5676
2026-01-12 18:26:08.16	354.22	27.55	-29.1	-29.7	28.3	0.00e+00	0	29	0	1529872384	32	5563
2026-01-12 18:26:12.20	353.24	28.01	-29.2	-29.9	28.1	0.00e+00	0	29	0	1552941056	32	5641
2026-01-12 18:26:16.24	352.23	28.47	-29.0	-29.6	28.4	0.00e+00	0	28	0	1576009728	32	5489
2026-01-12 18:26:20.27	351.20	28.92	-29.2	-29.9	28.2	0.00e+00	0	28	0	1598029824	32	5652
2026-01-12 18:26:24.31	350.13	29.38	-29.4	-30.0	28.1	0.00e+00	0	28	0	1621098496	32	5737
2026-01-12 18:26:28.35	349.03	29.83	-29.2	-29.8	28.3	0.00e+00	0	28	0	1644167168	32	5605
2026-01-12 18:26:32.39	347.89	30.27	-28.9	-29.5	28.5	0.00e+00	0	28	0	1666187264	32	5435
2026-01-12 18:26:36.43	346.73	30.71	-29.0	-29.6	28.3	0.00e+00	0	28	0	1689255936	32	5494
2026-01-12 18:26:40.46	345.54	31.14	-28.8	-29.4	28.4	0.00e+00	0	28	0	1712324608	32	5372
2026-01-12 18:26:44.50	344.31	31.56	-28.8	-29.4	28.4	0.00e+00	0	28	0	1734344704	30	5977
2026-01-12 18:26:48.54	343.05	31.97	-28.8	-29.4	28.6	0.00e+00	0	28	0	1757413376	30	6024
2026-01-12 18:26:52.58	341.75	32.37	-28.9	-29.6	28.4	0.00e+00	0	28	0	1780482048	30	6110
2026-01-12 18:26:56.62	340.43	32.77	-28.6	-29.2	28.7	0.00e+00	0	28	0	1802502144	30	5887
2026-01-12 18:27:00.66	339.07	33.14	-29.2	-29.8	28.4	0.00e+00	0	28	0	1825570816	30	6267
2026-01-12 18:27:04.70	337.68	33.51	-28.8	-29.4	28.5	0.00e+00	0	28	0	1847590912	30	6033
2026-01-12 18:27:08.74	336.26	33.86	-28.8	-29.5	28.7	0.00e+00	0	29	0	1870659584	30	6034
2026-01-12 18:27:12.77	334.82	34.19	-28.6	-29.2	28.7	0.00e+00	0	28	0	1893728256	30	5881
2026-01-12 18:27:16.81	333.34	34.50	-28.8	-29.4	28.5	0.00e+00	0	28	0	1916796928	30	6017
2026-01-12 18:27:20.85	331.83	34.79	-28.7	-29.2	28.7	0.00e+00	0	28	0	1938817024	30	5891
2026-01-12 18:27:24.89	330.29	35.07	-28.5	-29.1	28.8	0.00e+00	0	28	0	1961885696	30	5828
2026-01-12 18:27:28.92	328.74	35.32	-28.9	-29.5	28.4	0.00e+00	0	28	0	1984954368	30	6046
2026-01-12 18:27:32.96	327.15	35.55	-28.8	-29.4	28.5	0.00e+00	0	28	0	2006974464	30	6003
2026-01-12 18:27:37.00	325.55	35.75	-29.0	-29.6	28.4	0.00e+00	0	28	0	2030043136	30	6154
2026-01-12 18:27:41.04	323.93	35.93	-28.9	-29.5	28.5	0.00e+00	0	28	0	2052063232	30	6098
2026-01-12 18:27:45.07	322.29	36.09	-28.6	-29.2	28.8	0.00e+00	0	28	0	2075131904	30	5854
2026-01-12 18:27:49.11	320.63	36.22	-29.1	-29.8	28.4	0.00e+00	0	28	0	2098200576	30	6263
2026-01-12 18:27:53.15	318.96	36.32	-28.6	-29.2	28.7	0.00e+00	0	28	0	2121269248	30	5860
2026-01-12 18:27:57.20	317.28	36.40	-28.7	-29.3	28.7	0.00e+00	0	28	0	2143289344	30	5947
2026-01-12 18:28:01.23	315.60	36.44	-28.8	-29.4	28.7	0.00e+00	0	28	0	2166358016	30	6019
2026-01-12 18:28:05.27	313.92	36.46	-28.7	-29.3	28.7	0.00e+00	0	28	0	2189426688	30	5913
2026-01-12 18:28:09.31	312.23	36.45	-29.0	-29.6	28.3	0.00e+00	0	28	0	2211446784	30	6160
2026-01-12 18:28:13.35	310.55	36.41	-28.7	-29.3	28.5	0.00e+00	0	28	0	2234515456	30	5923
2026-01-12 18:28:17.39	308.87	36.34	-28.5	-29.1	28.7	0.00e+00	0	28	0	2256535552	30	5812
2026-01-12 18:28:21.43	307.20	36.25	-28.4	-29.1	28.7	0.00e+00	0	28	0	2279604224	30	5784
2026-01-12 18:28:25.47	305.53	36.13	-28.9	-29.5	28.5	0.00e+00	0	28	0	2302672896	30	6060
2026-01-12 18:28:29.51	303.89	35.98	-28.8	-29.5	28.6	0.00e+00	0	28	0	2325741568	30	6068
2026-01-12 18:28:33.56	302.25	35.80	-28.5	-29.0	28.9	0.00e+00	0	28	0	2347761664	30	5745
2026-01-12 18:28:37.59	300.65	35.61	-28.6	-29.2	28.7	0.00e+00	0	28	0	2370830336	30	5842
2026-01-12 18:28:41.63	299.05	35.38	-28.9	-29.6	28.5	0.00e+00	0	28	0	2393899008	30	6160
2026-01-12 18:28:45.67	297.49	35.14	-28.5	-29.1	28.8	0.00e+00	0	28	0	2415919104	30	5804
2026-01-12 18:28:49.71	295.94	34.87	-28.6	-29.3	28.6	0.00e+00	0	28	0	2438987776	30	5933
2026-01-12 18:28:53.74	294.43	34.58	-29.0	-29.6	28.5	0.00e+00	0	28	0	2461007872	30	6124
2026-01-12 18:28:57.78	292.94	34.27	-28.8	-29.3	28.6	0.00e+00	0	28	0	2484076544	30	5959
2026-01-12 18:29:01.82	291.48	33.94	-28.9	-29.4	28.5	0.00e+00	0	28	0	2507145216	30	6009
2026-01-12 18:29:05.86	290.05	33.60	-28.8	-29.4	28.6	0.00e+00	0	28	0	2530213888	30	6032
2026-01-12 18:29:09.90	288.65	33.24	-28.3	-28.9	28.9	0.00e+00	0	28	0	2552233984	30	5682
2026-01-12 18:29:13.94	287.28	32.86	-28.6	-29.2	28.7	0.00e+00	0	28	0	2575302656	30	5874
2026-01-12 18:29:17.97	285.94	32.47	-28.7	-29.4	28.6	0.00e+00	0	28	0	2598371328	30	5980
2026-01-12 18:29:22.01	284.64	32.07	-29.0	-29.5	28.4	0.00e+00	0	28	0	2620391424	30	6086
2026-01-12 18:29:26.05	283.37	31.66	-28.9	-29.4	28.6	0.00e+00	0	28	0	2643460096	30	6029
2026-01-12 18:29:30.09	282.13	31.24	-28.9	-29.5	28.6	0.00e+00	0	28	0	2665480192	30	6055
2026-01-12 18:29:34.13	280.92	30.81	-28.9	-29.5	28.5	0.00e+00	0	28	0	2688548864	30	6055
2026-01-12 18:29:38.16	279.75	30.37	-29.0	-29.6	28.5	0.00e+00	0	28	0	2711617536	30	6141
2026-01-12 18:29:42.20	278.60	29.93	-29.0	-29.6	28.4	0.00e+00	0	28	0	2734686208	30	6122
2026-01-12 18:29:46.24	277.49	29.48	-28.9	-29.6	28.4	0.00e+00	0	28	0	2756706304	30	6152
2026-01-12 18:29:50.28	276.41	29.03	-29.0	-29.6	28.2	0.00e+00	0	28	0	2779774976	30	6115
2026-01-12 18:29:54.32	275.36	28.57	-29.1	-29.6	27.7	0.00e+00	0	28	0	2802843648	30	6164
2026-01-12 18:29:58.35	274.34	28.11	-29.2	-29.8	27.9	0.00e+00	0	28	0	2824863744	30	6311
2026-01-12 18:30:02.39	273.35	27.65	-29.2	-29.7	27.9	0.00e+00	0	28	0	2847932416	30	6233
2026-01-12 18:30:06.43	272.38	27.18	-29.3	-30.0	27.9	0.00e+00	0	28	0	2869952512	30	6429
2026-01-12 18:30:10.46	271.45	26.72	-29.4	-30.0	27.9	0.00e+00	0	28	0	2893021184	30	6396
2026-01-12 18:30:14.50	270.54	26.25	-29.6	-30.3	27.7	0.00e+00	0	28	0	2916089856	30	6631
2026-01-12 18:30:18.54	269.66	25.79	-29.5	-30.0	27.8	0.00e+00	0	28	0	2938109952	30	6445
2026-01-12 18:30:22.58	268.80	25.32	-29.9	-30.5	27.5	0.00e+00	0	28	0	2961178624	32	6052
2026-01-12 18:30:26.62	267.97	24.86	-29.9	-30.5	27.5	0.00e+00	0	28	0	2984247296	32	6061
2026-01-12 18:30:30.66	267.17	24.40	-30.2	-30.7	27.2	0.00e+00	0	28	0	3007315968	32	6228
2026-01-12 18:30:34.70	266.38	23.94	-30.0	-30.7	27.3	0.00e+00	0	28	0	3029336064	32	6197
2026-01-12 18:30:38.74	265.62	23.48	-29.7	-30.4	27.6	0.00e+00	0	28	0	3052404736	32	6002
2026-01-12 18:30:42.77	264.88	23.03	-29.9	-30.5	27.5	0.00e+00	0	28	0	3074424832	32	6037
2026-01-12 18:30:46.81	264.17	22.58	-30.0	-30.7	27.4	0.00e+00	0	28	0	3097493504	32	6199
2026-01-12 18:30:50.85	263.47	22.13	-30.0	-30.6	27.4	0.00e+00	0	28	0	3120562176	32	6118
2026-01-12 18:30:54.89	262.79	21.69	-30.0	-30.7	27.4	0.00e+00	0	28	0	3142582272	32	6227
2026-01-12 18:30:58.93	262.14	21.24	-30.1	-30.8	27.4	0.00e+00	0	28	0	3165650944	32	6260
2026-01-12 18:31:02.96	261.50	20.81	-30.0	-30.5	27.4	0.00e+00	0	28	0	3188719616	32	6081
2026-01-12 18:31:07.00	260.88	20.37	-30.1	-30.8	27.3	0.00e+00	0	28	0	3210739712	32	6249
2026-01-12 18:31:11.03	260.28	19.94	-30.2	-30.8	27.2	0.00e+00	0	28	0	3233808384	32	6284
2026-01-12 18:31:15.07	259.69	19.52	-30.5	-31.1	27.0	0.00e+00	0	28	0	3256877056	32	6476
2026-01-12 18:31:19.11	259.12	19.10	-30.5	-31.0	27.0	0.00e+00	0	28	0	3278897152	34	5756
2026-01-12 18:31:23.15	258.57	18.68	-30.4	-31.0	27.0	0.00e+00	0	28	0	3301965824	34	5711
2026-01-12 18:31:27.18	258.03	18.27	-30.7	-31.4	26.9	0.00e+00	0	28	0	3325034496	34	6011
2026-01-12 18:31:31.22	257.51	17.86	-31.0	-31.5	26.6	0.00e+00	0	28	0	3347054592	34	6103
2026-01-12 18:31:35.26	257.00	17.45	-31.1	-31.7	26.4	0.00e+00	0	28	0	3370123264	34	6210
2026-01-12 18:31:39.30	256.50	17.05	-31.4	-32.0	26.2	0.00e+00	0	28	0	3393191936	34	6421
2026-01-12 18:31:43.33	256.02	16.66	-31.6	-32.2	26.1	0.00e+00	0	28	0	3415212032	34	6567
2026-01-12 18:31:47.37	255.55	16.27	-31.6	-32.3	26.1	0.00e+00	0	28	0	3438280704	36	5929
2026-01-12 18:31:51.41	255.09	15.88	-31.6	-32.2	26.1	0.00e+00	0	28	0	3461349376	36	5843
2026-01-12 18:31:55.46	254.64	15.49	-31.8	-32.4	25.9	0.00e+00	0	28	0	3483369472	36	5966
2026-01-12 18:31:59.49	254.21	15.12	-31.7	-32.3	25.9	0.00e+00	0	28	0	3506438144	36	5928
2026-01-12 18:32:03.53	253.78	14.74	-31.9	-32.5	25.8	0.00e+00	0	28	0	3529506816	36	6057
2026-01-12 18:32:07.57	253.37	14.37	-32.2	-32.7	25.5	0.00e+00	0	28	0	3551526912	36	6242
2026-01-12 18:32:11.60	252.97	14.00	-32.2	-32.8	25.6	0.00e+00	0	28	0	3574595584	36	6250
2026-01-12 18:32:15.63	252.58	13.64	-32.5	-33.1	25.3	0.00e+00	0	28	0	3597664256	36	6538
2026-01-12 18:32:19.67	252.20	13.28	-32.3	-33.0	25.3	0.00e+00	0	28	0	3619684352	36	6391
2026-01-12 18:32:23.72	251.82	12.93	-32.5	-33.1	25.2	0.00e+00	0	28	0	3642753024	38	5786
2026-01-12 18:32:27.76	251.46	12.58	-32.8	-33.4	25.0	0.00e+00	0	28	0	3665821696	38	5982
2026-01-12 18:32:31.80	251.10	12.23	-32.6	-33.2	25.1	0.00e+00	0	28	0	3687841792	38	5873
2026-01-12 18:32:35.83	250.76	11.89	-32.6	-33.2	25.1	0.00e+00	0	28	0	3710910464	38	5867
2026-01-12 18:32:39.87	250.42	11.55	-32.7	-33.5	25.0	0.00e+00	0	28	0	3733979136	38	6063
2026-01-12 18:32:43.91	250.09	11.21	-33.0	-33.7	24.7	0.00e+00	0	28	0	3755999232	38	6230
2026-01-12 18:32:47.95	249.76	10.88	-32.9	-33.5	24.8	0.00e+00	0	28	0	3779067904	38	6063
2026-01-12 18:32:51.98	249.45	10.55	-33.1	-33.8	24.5	0.00e+00	0	28	0	3802136576	38	6254
2026-01-12 18:32:56.03	249.14	10.23	-33.1	-33.8	24.6	0.00e+00	0	28	0	3824156672	38	6300
2026-01-12 18:33:00.07	248.84	9.91	-33.3	-33.9	24.3	0.00e+00	0	28	0	3847225344	38	6358
2026-01-12 18:33:04.11	248.54	9.59	-33.4	-34.2	24.3	0.00e+00	0	28	0	3870294016	38	6558
2026-01-12 18:33:08.15	248.25	9.27	-33.4	-34.1	24.3	0.00e+00	0	28	0	3892314112	38	6511
2026-01-12 18:33:12.19	247.97	8.96	-33.5	-34.1	24.2	0.00e+00	0	28	0	3915382784	38	6498
2026-01-12 18:33:16.23	247.70	8.65	-33.8	-34.6	23.8	0.00e+00	0	28	0	3938451456	40	6140
2026-01-12 18:33:20.26	247.43	8.35	-33.8	-34.4	23.7	0.00e+00	0	28	0	3960471552	40	6008
2026-01-12 18:33:24.30	247.16	8.05	-34.1	-34.9	23.4	0.00e+00	0	28	0	3983540224	40	6342
2026-01-12 18:33:28.34	246.91	7.75	-34.4	-35.1	23.0	0.00e+00	0	28	0	4006608896	40	6492
2026-01-12 18:33:32.38	246.65	7.45	-34.7	-35.4	22.7	0.00e+00	0	28	0	4028628992	42	6014
2026-01-12 18:33:36.42	246.40	7.16	-35.1	-36.0	22.4	0.00e+00	0	28	0	4051697664	42	6394
2026-01-12 18:33:40.46	246.16	6.87	-35.6	-36.4	21.8	0.00e+00	0	27	0	4074766336	42	6722
2026-01-12 18:33:44.50	245.93	6.58	-35.7	-36.6	21.6	0.00e+00	0	28	0	4096786432	42	6884
2026-01-12 18:33:48.54	245.69	6.29	-35.9	-36.7	21.3	0.00e+00	0	28	0	4119855104	44	6186
2026-01-12 18:33:52.57	245.47	6.01	-36.2	-37.2	20.8	0.00e+00	0	28	0	4142923776	44	6559
2026-01-12 18:33:56.61	245.24	5.73	-36.8	-37.7	20.3	0.00e+00	0	27	0	4164943872	46	6221
2026-01-12 18:34:00.65	245.02	5.45	-37.3	-38.2	19.7	0.00e+00	0	27	0	4188012544	46	6579
2026-01-12 18:34:04.68	244.81	5.18	-37.6	-38.6	19.3	0.00e+00	0	28	0	4211081216	46	6876
2026-01-12 18:34:08.72	244.60	4.91	-38.2	-39.4	18.5	0.00e+00	0	28	0	4233101312	48	6739
2026-01-12 18:34:12.76	244.39	4.64	-38.7	-39.8	17.8	0.00e+00	0	28	0	4256169984	48	7054
2026-01-12 18:34:16.80	244.19	4.37	-39.0	-40.3	17.3	0.00e+00	0	28	0	4278190080	50	6690
2026-01-12 18:34:20.84	243.99	4.10	-39.7	-41.0	16.6	0.00e+00	0	27	0	4301258752	52	6442
2026-01-12 18:34:24.87	243.80	3.84	-40.3	-41.8	15.8	0.00e+00	0	27	0	4324327424	52	7080
2026-01-12 18:34:28.91	243.61	3.58	-40.8	-42.5	14.9	1.10e-06	0	28	0	4347396096	54	6812
2026-01-12 18:34:32.95	243.42	3.32	-40.9	-42.7	14.5	1.10e-06	0	27	0	4369416192	54	6971
2026-01-12 18:34:36.99	243.24	3.06	-41.2	-43.0	14.0	1.37e-05	0	28	0	4392484864	54	7252
2026-01-12 18:34:41.03	243.06	2.81	-48.0	-60.0	3.6	8.46e-01	0	28	104	4401922048	60	36336
2026-01-12 18:34:45.07	242.88	2.56	-48.2	-60.4	3.6	8.44e-01	0	28	104	4401922048	60	37834
2026-01-12 18:34:49.12	242.70	2.31	-47.6	-60.3	3.6	8.46e-01	0	28	104	4401922048	60	37382
2026-01-12 18:34:53.16	242.53	2.06	-48.1	-60.2	3.6	8.46e-01	0	28	104	4401922048	60	37127
2026-01-12 18:34:57.20	242.37	1.81	-48.2	-60.3	3.6	8.45e-01	0	28	104	4401922048	60	37402
2026-01-12 18:35:01.24	242.20	1.57	-48.1	-60.3	3.6	8.45e-01	0	28	104	4401922048	60	37323
2026-01-12 18:35:05.28	242.04	1.32	-48.1	-60.2	3.6	8.46e-01	0	28	104	4401922048	60	37060
2026-01-12 18:35:09.31	241.88	1.08	-48.1	-60.2	3.6	8.45e-01	0	28	104	4401922048	60	37069
2026-01-12 18:35:13.35	241.72	0.84	-48.1	-60.2	3.6	8.45e-01	0	28	104	4401922048	60	37114
2026-01-12 18:35:17.39	241.57	0.61	-48.2	-60.3	3.6	8.46e-01	0	28	104	4401922048	60	37235
2026-01-12 18:35:21.42	241.42	0.37	-48.1	-60.3	3.6	8.45e-01	0	28	104	4401922048	60	37296
2026-01-12 18:35:25.46	241.27	0.14	-48.1	-60.3	3.6	8.45e-01	0	27	104	4401922048	60	37264

#Closed at: 2026-01-12 18:35:29
#Recorded file [4401 MB]: D:/lorett/data/35029_260113_062045.dat