passes_logs/2026/01/12/R4.6S_Anadyr/R4.6S_Anadyr__20260112_174134_NOAA_20_JPSS-1_rec.log

#Pass ID: 20260112_174134_NOAA 20 (JPSS-1)
#Satellite: NOAA 20 (JPSS-1)
#Configuration: NOAA 20
#almurnet v.1.7.20251203
#Start time: 2026-01-12 17:41:37

#Version: 2.2.20231116
#Station: R4.6S_Anadyr
#Location: 177.4865 lon 64.73178 lat
#TLE: 1 43013U 17073A   26011.59429536  .00000082  00000+0  59704-4 0  9990
#TLE: 2 43013  98.7632 312.5697 0001637  44.2118 315.9188 14.19535307422256

#Time	Az	El	Level	Level2	SNR	BER	BlckErr	Temp	State	Recorded	gain1	gain2
2026-01-12 17:41:37.60	33.67	0.18	-48.5	-62.3	3.3	1.54e+00	0	28	0	0	60	46845
2026-01-12 17:41:41.64	33.42	0.39	-48.4	-63.6	3.6	1.51e+00	0	29	104	0	60	54554
2026-01-12 17:41:45.68	33.16	0.61	-48.1	-63.3	3.6	1.51e+00	0	29	104	0	60	52713
2026-01-12 17:41:49.72	32.90	0.82	-47.5	-62.8	3.6	1.51e+00	0	29	104	0	60	49816
2026-01-12 17:41:53.75	32.63	1.04	-46.7	-61.8	3.6	1.51e+00	0	29	104	0	60	44541
2026-01-12 17:41:57.79	32.36	1.25	-46.7	-61.8	3.6	1.51e+00	0	29	104	0	60	44494
2026-01-12 17:42:01.83	32.08	1.47	-46.7	-61.8	3.6	1.51e+00	0	29	104	0	60	44712
2026-01-12 17:42:05.87	31.80	1.69	-46.7	-61.9	3.6	1.51e+00	0	29	104	0	60	44795
2026-01-12 17:42:09.90	31.52	1.90	-46.7	-61.8	3.6	1.51e+00	0	29	104	0	60	44448
2026-01-12 17:42:13.94	31.23	2.12	-46.7	-61.6	3.6	1.51e+00	0	29	104	0	60	43657
2026-01-12 17:42:17.98	30.94	2.35	-46.7	-61.9	3.6	1.51e+00	0	29	104	0	60	44736
2026-01-12 17:42:22.02	30.64	2.57	-46.7	-61.7	3.6	1.51e+00	0	29	104	0	60	43868
2026-01-12 17:42:26.06	30.34	2.79	-46.6	-61.4	3.6	1.51e+00	0	29	104	0	60	42444
2026-01-12 17:42:30.10	30.03	3.01	-45.8	-52.3	7.5	2.18e-01	81	30	0	2097152	60	14978
2026-01-12 17:42:34.14	29.72	3.24	-42.5	-44.9	16.0	2.04e-02	0	29	0	10485760	58	7113
2026-01-12 17:42:38.18	29.40	3.46	-43.2	-45.9	14.9	3.12e-05	0	30	0	13631488	60	7160
2026-01-12 17:42:42.21	29.08	3.69	-41.7	-43.7	17.4	0.00e+00	16	30	0	20971520	56	6929
2026-01-12 17:42:46.25	28.75	3.92	-41.3	-43.1	18.1	0.00e+00	18	30	0	28311552	56	6524
2026-01-12 17:42:50.29	28.41	4.15	-41.3	-43.0	18.2	0.00e+00	2	30	0	36700160	56	6457
2026-01-12 17:42:54.33	28.08	4.38	-41.6	-43.4	17.9	0.00e+00	0	30	0	44040192	56	6720
2026-01-12 17:42:58.36	27.73	4.61	-41.2	-42.9	18.4	0.00e+00	0	30	0	51380224	56	6387
2026-01-12 17:43:02.40	27.38	4.84	-41.3	-43.0	18.3	0.00e+00	92	30	0	58720256	56	6460
2026-01-12 17:43:06.43	27.03	5.07	-41.1	-42.8	18.6	0.00e+00	0	30	0	66060288	56	6263
2026-01-12 17:43:10.46	26.66	5.30	-40.9	-42.5	18.9	0.00e+00	0	30	0	74448896	56	6073
2026-01-12 17:43:14.50	26.30	5.54	-40.7	-42.3	19.1	0.00e+00	0	30	0	81788928	54	6623
2026-01-12 17:43:18.54	25.92	5.77	-40.6	-42.2	19.2	0.00e+00	91	30	0	89128960	54	6554
2026-01-12 17:43:22.57	25.54	6.01	-40.4	-41.9	19.5	0.00e+00	2	30	0	96468992	54	6336
2026-01-12 17:43:26.61	25.16	6.25	-40.5	-42.0	19.5	0.00e+00	13	30	0	103809024	54	6410
2026-01-12 17:43:30.65	24.76	6.49	-40.5	-42.0	19.5	0.00e+00	0	30	0	112197632	54	6408
2026-01-12 17:43:34.69	24.36	6.73	-40.5	-42.0	19.5	0.00e+00	91	30	0	119537664	54	6412
2026-01-12 17:43:38.73	23.95	6.97	-40.6	-42.0	19.5	0.00e+00	2	30	0	126877696	54	6452
2026-01-12 17:43:42.77	23.54	7.21	-40.6	-42.1	19.4	0.00e+00	7	30	0	134217728	54	6509
2026-01-12 17:43:46.81	23.12	7.45	-40.7	-42.2	19.4	0.00e+00	0	30	0	142606336	54	6540
2026-01-12 17:43:50.84	22.69	7.69	-40.7	-42.2	19.3	0.00e+00	92	30	0	149946368	54	6601
2026-01-12 17:43:54.88	22.25	7.93	-40.7	-42.2	19.4	0.00e+00	72	30	0	157286400	54	6549
2026-01-12 17:43:58.92	21.81	8.18	-40.4	-41.8	19.6	0.00e+00	5	30	0	164626432	54	6295
2026-01-12 17:44:02.95	21.36	8.42	-40.4	-41.8	19.8	0.00e+00	6	30	0	171966464	54	6271
2026-01-12 17:44:06.99	20.90	8.67	-40.4	-41.8	19.8	0.00e+00	92	30	0	180355072	54	6264
2026-01-12 17:44:11.03	20.43	8.91	-40.4	-41.8	19.9	0.00e+00	63	30	0	187695104	54	6249
2026-01-12 17:44:15.07	19.96	9.16	-40.4	-41.7	19.9	0.00e+00	62	30	0	195035136	54	6241
2026-01-12 17:44:19.10	19.47	9.41	-40.2	-41.6	20.1	0.00e+00	17	30	0	202375168	54	6119
2026-01-12 17:44:23.14	18.98	9.65	-39.9	-41.2	20.5	0.00e+00	58	30	0	210763776	54	5831
2026-01-12 17:44:27.18	18.48	9.90	-39.5	-40.8	20.2	0.00e+00	5	30	0	218103808	52	6249
2026-01-12 17:44:31.22	17.97	10.15	-39.4	-40.7	21.0	0.00e+00	63	30	0	225443840	52	6179
2026-01-12 17:44:35.25	17.45	10.40	-39.5	-40.7	21.0	0.00e+00	92	30	0	232783872	52	6219
2026-01-12 17:44:39.29	16.92	10.65	-39.5	-40.7	20.9	0.00e+00	11	30	0	240123904	52	6231
2026-01-12 17:44:43.33	16.39	10.89	-39.4	-40.6	21.1	0.00e+00	0	30	0	248512512	52	6113
2026-01-12 17:44:47.36	15.84	11.14	-39.2	-40.3	21.4	0.00e+00	21	30	0	255852544	52	5935
2026-01-12 17:44:51.40	15.28	11.39	-39.2	-40.4	21.4	0.00e+00	92	30	0	263192576	52	5981
2026-01-12 17:44:55.44	14.72	11.64	-39.2	-40.4	21.3	0.00e+00	66	30	0	270532608	52	5986
2026-01-12 17:44:59.48	14.14	11.89	-39.0	-40.1	21.6	0.00e+00	0	30	0	278921216	52	5790
2026-01-12 17:45:03.52	13.56	12.13	-39.4	-40.5	21.2	0.00e+00	2	30	0	286261248	52	6100
2026-01-12 17:45:07.55	12.96	12.38	-39.2	-40.4	21.4	0.00e+00	92	30	0	293601280	52	5972
2026-01-12 17:45:11.59	12.36	12.63	-39.2	-40.4	21.4	0.00e+00	0	30	0	300941312	52	5979
2026-01-12 17:45:15.63	11.74	12.87	-39.4	-40.6	21.2	0.00e+00	0	30	0	308281344	52	6123
2026-01-12 17:45:19.67	11.11	13.12	-39.5	-40.7	21.2	0.00e+00	69	30	0	316669952	52	6174
2026-01-12 17:45:23.71	10.47	13.36	-39.6	-40.9	21.0	0.00e+00	90	30	0	324009984	52	6320
2026-01-12 17:45:27.74	9.83	13.60	-39.8	-41.0	20.8	0.00e+00	5	30	0	331350016	52	6418
2026-01-12 17:45:31.78	9.17	13.84	-39.7	-41.0	20.9	0.00e+00	4	30	0	338690048	52	6397
2026-01-12 17:45:35.81	8.50	14.08	-39.5	-40.7	21.2	0.00e+00	2	30	0	346030080	52	6202
2026-01-12 17:45:39.85	7.82	14.32	-39.5	-40.7	21.1	0.00e+00	92	30	0	354418688	52	6235
2026-01-12 17:45:43.89	7.12	14.56	-39.1	-40.3	21.6	0.00e+00	66	30	0	361758720	52	5900
2026-01-12 17:45:47.93	6.42	14.79	-38.8	-39.8	22.0	0.00e+00	1	30	0	369098752	52	5629
2026-01-12 17:45:51.96	5.71	15.02	-38.4	-39.4	22.4	0.00e+00	0	30	0	376438784	50	5995
2026-01-12 17:45:56.00	4.98	15.25	-38.2	-39.2	22.5	0.00e+00	87	30	0	384827392	50	5873
2026-01-12 17:46:00.04	4.24	15.48	-38.0	-39.0	22.8	0.00e+00	60	30	0	392167424	50	5726
2026-01-12 17:46:04.07	3.50	15.70	-37.5	-38.5	23.2	0.00e+00	61	30	0	399507456	48	6048
2026-01-12 17:46:08.11	2.73	15.92	-37.3	-38.2	23.5	0.00e+00	67	30	0	406847488	48	5842
2026-01-12 17:46:12.15	1.96	16.14	-37.4	-38.4	23.5	0.00e+00	91	30	0	414187520	48	5969
2026-01-12 17:46:16.18	1.18	16.35	-36.8	-37.7	24.0	0.00e+00	0	30	0	422576128	46	6190
2026-01-12 17:46:20.22	0.39	16.56	-36.7	-37.5	24.0	0.00e+00	22	30	0	429916160	46	6087
2026-01-12 17:46:24.26	359.58	16.77	-36.7	-37.6	24.1	0.00e+00	90	29	0	437256192	46	6107
2026-01-12 17:46:28.30	358.76	16.97	-36.8	-37.6	24.0	0.00e+00	92	30	0	444596224	46	6161
2026-01-12 17:46:32.33	357.94	17.17	-37.0	-37.8	23.8	0.00e+00	0	30	0	452984832	46	6301
2026-01-12 17:46:36.37	357.10	17.36	-37.1	-38.0	23.7	0.00e+00	0	30	0	460324864	46	6419
2026-01-12 17:46:40.41	356.25	17.55	-37.3	-38.2	23.6	0.00e+00	91	30	0	467664896	46	6543
2026-01-12 17:46:44.45	355.39	17.73	-37.1	-38.0	23.7	0.00e+00	59	29	0	475004928	46	6412
2026-01-12 17:46:48.49	354.52	17.91	-36.8	-37.7	23.9	0.00e+00	0	29	0	482344960	46	6244
2026-01-12 17:46:52.53	353.63	18.08	-36.3	-37.2	24.4	0.00e+00	0	29	0	490733568	46	5843
2026-01-12 17:46:56.57	352.74	18.25	-36.4	-37.3	24.4	0.00e+00	92	29	0	498073600	46	5911
2026-01-12 17:47:00.61	351.84	18.41	-36.5	-37.4	24.3	0.00e+00	0	29	0	505413632	46	5999
2026-01-12 17:47:04.64	350.93	18.56	-36.7	-37.5	24.1	0.00e+00	22	29	0	512753664	46	6095
2026-01-12 17:47:08.68	350.01	18.71	-36.3	-37.1	24.5	0.00e+00	0	29	0	521142272	46	5781
2026-01-12 17:47:12.72	349.08	18.85	-36.3	-37.2	24.5	0.00e+00	92	29	0	528482304	46	5835
2026-01-12 17:47:16.76	348.15	18.98	-36.4	-37.2	24.4	0.00e+00	5	29	0	535822336	46	5892
2026-01-12 17:47:20.79	347.20	19.11	-36.8	-37.6	24.0	0.00e+00	20	29	0	543162368	46	6171
2026-01-12 17:47:24.83	346.25	19.23	-36.8	-37.7	24.0	0.00e+00	0	29	0	550502400	46	6183
2026-01-12 17:47:28.87	345.29	19.34	-36.9	-37.8	23.9	0.00e+00	92	29	0	558891008	46	6280
2026-01-12 17:47:32.90	344.33	19.44	-37.0	-37.9	23.8	0.00e+00	6	29	0	566231040	46	6347
2026-01-12 17:47:36.94	343.35	19.53	-37.6	-38.6	23.2	0.00e+00	0	29	0	573571072	46	6854
2026-01-12 17:47:40.98	342.37	19.62	-37.6	-38.5	23.3	0.00e+00	26	29	0	580911104	46	6816
2026-01-12 17:47:45.01	341.39	19.69	-37.7	-38.6	23.2	0.00e+00	92	29	0	589299712	48	6165
2026-01-12 17:47:49.05	340.40	19.76	-37.9	-38.8	23.0	0.00e+00	59	29	0	596639744	48	6301
2026-01-12 17:47:53.09	339.41	19.82	-38.2	-39.2	22.6	0.00e+00	0	29	0	603979776	48	6612
2026-01-12 17:47:57.12	338.41	19.87	-38.3	-39.4	22.5	0.00e+00	92	29	0	611319808	48	6702
2026-01-12 17:48:01.16	337.41	19.91	-37.7	-38.6	23.2	0.00e+00	89	29	0	618659840	48	6156
2026-01-12 17:48:05.20	336.41	19.94	-38.2	-39.2	22.6	0.00e+00	21	29	0	627048448	48	6609
2026-01-12 17:48:09.24	335.41	19.97	-38.1	-39.0	22.9	0.00e+00	61	29	0	634388480	48	6451
2026-01-12 17:48:13.27	334.41	19.98	-38.2	-39.2	22.6	0.00e+00	92	29	0	641728512	48	6600
2026-01-12 17:48:17.31	333.40	19.99	-38.1	-39.1	22.9	0.00e+00	2	29	0	649068544	48	6471
2026-01-12 17:48:21.34	332.40	19.98	-38.0	-39.0	22.8	0.00e+00	0	29	0	656408576	48	6404
2026-01-12 17:48:25.38	331.39	19.97	-37.7	-38.7	23.1	0.00e+00	0	29	0	664797184	48	6184
2026-01-12 17:48:29.41	330.39	19.94	-37.2	-38.1	23.7	0.00e+00	92	29	0	672137216	48	5789
2026-01-12 17:48:33.45	329.39	19.91	-37.4	-38.3	23.6	0.00e+00	22	29	0	679477248	48	5907
2026-01-12 17:48:37.48	328.39	19.87	-37.3	-38.2	23.7	0.00e+00	0	29	0	686817280	48	5834
2026-01-12 17:48:41.52	327.39	19.82	-36.7	-37.5	24.2	0.00e+00	0	29	0	695205888	46	6090
2026-01-12 17:48:45.56	326.40	19.76	-36.8	-37.7	24.1	0.00e+00	92	29	0	702545920	46	6205
2026-01-12 17:48:49.60	325.41	19.69	-36.6	-37.4	24.4	0.00e+00	0	29	0	709885952	46	5997
2026-01-12 17:48:53.63	324.43	19.61	-36.4	-37.3	24.3	0.00e+00	20	29	0	717225984	46	5915
2026-01-12 17:48:57.67	323.45	19.53	-35.9	-36.7	24.9	0.00e+00	0	29	0	724566016	46	5547
2026-01-12 17:49:01.71	322.47	19.43	-36.0	-36.8	24.8	0.00e+00	90	29	0	732954624	46	5584
2026-01-12 17:49:05.75	321.50	19.33	-36.4	-37.2	24.5	0.00e+00	5	29	0	740294656	46	5887
2026-01-12 17:49:09.79	320.54	19.22	-36.3	-37.1	24.6	0.00e+00	20	29	0	747634688	46	5808
2026-01-12 17:49:13.82	319.59	19.10	-36.7	-37.5	24.3	0.00e+00	6	29	0	754974720	46	6072
2026-01-12 17:49:17.86	318.65	18.98	-37.0	-37.9	23.9	0.00e+00	90	29	0	763363328	46	6322
2026-01-12 17:49:21.90	317.71	18.85	-37.2	-38.1	23.7	0.00e+00	0	29	0	770703360	46	6500
2026-01-12 17:49:25.93	316.78	18.71	-37.5	-38.4	23.5	0.00e+00	2	29	0	778043392	46	6763
2026-01-12 17:49:29.97	315.86	18.56	-38.0	-39.0	22.9	0.00e+00	0	29	0	785383424	48	6400
2026-01-12 17:49:34.01	314.95	18.40	-38.0	-38.9	23.1	0.00e+00	90	29	0	792723456	48	6388
2026-01-12 17:49:38.04	314.05	18.24	-37.6	-38.5	23.1	0.00e+00	19	29	0	801112064	48	6079
2026-01-12 17:49:42.08	313.16	18.08	-37.8	-38.7	23.1	0.00e+00	63	29	0	808452096	48	6235
2026-01-12 17:49:46.12	312.27	17.91	-37.8	-38.7	23.2	0.00e+00	90	29	0	815792128	48	6207
2026-01-12 17:49:50.16	311.40	17.73	-37.8	-38.7	22.9	0.00e+00	49	29	0	823132160	48	6211
2026-01-12 17:49:54.20	310.54	17.54	-37.6	-38.5	23.3	0.00e+00	14	29	0	831520768	48	6091
2026-01-12 17:49:58.24	309.69	17.35	-37.8	-38.7	23.1	0.00e+00	20	29	0	838860800	48	6238
2026-01-12 17:50:02.28	308.85	17.16	-37.9	-38.9	23.0	0.00e+00	92	29	0	846200832	48	6330
2026-01-12 17:50:06.31	308.02	16.96	-38.2	-39.2	22.8	0.00e+00	62	29	0	853540864	48	6560
2026-01-12 17:50:10.35	307.20	16.76	-38.4	-39.4	22.6	0.00e+00	0	29	0	860880896	48	6730
2026-01-12 17:50:14.39	306.40	16.55	-38.3	-39.3	22.6	0.00e+00	0	29	0	869269504	48	6675
2026-01-12 17:50:18.42	305.60	16.34	-38.2	-39.1	22.8	0.00e+00	92	29	0	876609536	48	6539
2026-01-12 17:50:22.46	304.82	16.13	-38.2	-39.1	22.8	0.00e+00	14	29	0	883949568	48	6530
2026-01-12 17:50:26.50	304.05	15.91	-38.5	-39.5	22.4	0.00e+00	0	29	0	891289600	48	6843
2026-01-12 17:50:30.54	303.28	15.69	-38.4	-39.4	22.4	0.00e+00	0	29	0	898629632	48	6726
2026-01-12 17:50:34.57	302.54	15.46	-38.4	-39.3	22.7	0.00e+00	92	28	0	907018240	48	6692
2026-01-12 17:50:38.61	301.80	15.24	-38.3	-39.3	22.6	0.00e+00	0	29	0	914358272	48	6674
2026-01-12 17:50:42.65	301.07	15.01	-38.8	-39.9	22.1	0.00e+00	0	28	0	921698304	50	6318
2026-01-12 17:50:46.68	300.35	14.78	-39.0	-40.1	22.0	0.00e+00	0	28	0	929038336	50	6472
2026-01-12 17:50:50.72	299.65	14.54	-39.1	-40.2	21.8	0.00e+00	92	29	0	937426944	50	6582
2026-01-12 17:50:54.75	298.96	14.31	-39.2	-40.3	21.7	0.00e+00	0	28	0	944766976	50	6630
2026-01-12 17:50:58.79	298.27	14.07	-39.0	-40.1	21.9	0.00e+00	15	28	0	952107008	50	6466
2026-01-12 17:51:02.82	297.60	13.83	-39.1	-40.2	21.8	0.00e+00	0	28	0	959447040	50	6591
2026-01-12 17:51:06.86	296.94	13.59	-39.1	-40.1	21.8	0.00e+00	92	29	0	966787072	50	6528
2026-01-12 17:51:10.89	296.29	13.34	-38.7	-39.7	22.2	0.00e+00	71	29	0	975175680	50	6211
2026-01-12 17:51:14.92	295.66	13.10	-38.5	-39.5	22.4	0.00e+00	0	29	0	982515712	50	6095
2026-01-12 17:51:18.96	295.03	12.86	-38.4	-39.4	22.5	0.00e+00	0	28	0	989855744	50	5992
2026-01-12 17:51:22.99	294.41	12.61	-38.4	-39.4	22.4	0.00e+00	38	28	0	997195776	50	6018
2026-01-12 17:51:27.03	293.80	12.36	-38.3	-39.4	22.5	0.00e+00	70	28	0	1005584384	50	5965
2026-01-12 17:51:31.07	293.21	12.12	-37.8	-38.8	23.1	0.00e+00	65	28	0	1012924416	50	5599
2026-01-12 17:51:35.11	292.62	11.87	-37.7	-38.6	23.1	0.00e+00	83	28	0	1020264448	48	6137
2026-01-12 17:51:39.15	292.04	11.62	-37.7	-38.6	23.1	0.00e+00	2	28	0	1027604480	48	6147
2026-01-12 17:51:43.19	291.48	11.37	-37.6	-38.5	23.2	0.00e+00	2	28	0	1034944512	48	6097
2026-01-12 17:51:47.23	290.92	11.12	-37.2	-38.1	22.9	0.00e+00	5	28	0	1043333120	48	5782
2026-01-12 17:51:51.26	290.37	10.88	-37.2	-38.1	23.5	0.00e+00	91	28	0	1050673152	48	5815
2026-01-12 17:51:55.30	289.83	10.63	-37.5	-38.5	23.2	0.00e+00	0	28	0	1058013184	48	6054
2026-01-12 17:51:59.34	289.30	10.38	-37.5	-38.4	23.2	0.00e+00	0	28	0	1065353216	48	6000
2026-01-12 17:52:03.38	288.78	10.13	-37.6	-38.5	23.2	0.00e+00	0	28	0	1073741824	48	6090
2026-01-12 17:52:07.41	288.27	9.88	-37.8	-38.8	22.8	0.00e+00	92	28	0	1081081856	48	6309
2026-01-12 17:52:11.45	287.77	9.63	-38.3	-39.3	22.5	0.00e+00	0	28	0	1088421888	48	6643
2026-01-12 17:52:15.49	287.27	9.39	-37.9	-38.9	22.8	0.00e+00	0	28	0	1095761920	48	6319
2026-01-12 17:52:19.53	286.79	9.14	-37.8	-38.8	22.9	0.00e+00	0	28	0	1103101952	48	6246
2026-01-12 17:52:23.56	286.31	8.89	-37.9	-38.9	22.6	0.00e+00	92	28	0	1111490560	48	6327
2026-01-12 17:52:27.60	285.84	8.65	-38.3	-39.4	22.3	0.00e+00	0	28	0	1118830592	48	6693
2026-01-12 17:52:31.64	285.38	8.40	-38.6	-39.7	21.9	0.00e+00	68	28	0	1126170624	48	6967
2026-01-12 17:52:35.68	284.93	8.16	-38.6	-39.7	21.9	0.00e+00	0	28	0	1133510656	48	6949
2026-01-12 17:52:39.71	284.49	7.91	-38.8	-39.9	21.6	0.00e+00	91	28	0	1141899264	50	6371
2026-01-12 17:52:43.75	284.05	7.67	-39.3	-40.4	21.3	0.00e+00	0	28	0	1149239296	50	6741
2026-01-12 17:52:47.79	283.62	7.43	-39.3	-40.5	21.0	0.00e+00	12	28	0	1156579328	50	6801
2026-01-12 17:52:51.83	283.19	7.18	-39.5	-40.7	20.8	0.00e+00	0	28	0	1163919360	50	6998
2026-01-12 17:52:55.86	282.78	6.94	-39.6	-40.8	20.7	0.00e+00	90	28	0	1171259392	50	7070
2026-01-12 17:52:59.90	282.37	6.70	-39.7	-40.9	20.6	0.00e+00	76	28	0	1179648000	52	6374
2026-01-12 17:53:03.94	281.97	6.46	-40.0	-41.3	20.2	0.00e+00	0	28	0	1186988032	52	6685
2026-01-12 17:53:07.98	281.57	6.22	-40.0	-41.3	20.3	0.00e+00	70	28	0	1194328064	52	6633
2026-01-12 17:53:12.01	281.18	5.99	-39.9	-41.2	20.3	0.00e+00	12	28	0	1201668096	52	6590
2026-01-12 17:53:16.05	280.80	5.75	-40.1	-41.4	20.1	0.00e+00	69	28	0	1209008128	52	6734
2026-01-12 17:53:20.09	280.43	5.51	-40.4	-41.8	19.6	0.00e+00	0	28	0	1217396736	52	7048
2026-01-12 17:53:24.13	280.06	5.28	-40.5	-42.0	19.4	0.00e+00	88	28	0	1224736768	54	6407
2026-01-12 17:53:28.17	279.69	5.05	-40.8	-42.3	19.0	0.00e+00	13	28	0	1232076800	54	6640
2026-01-12 17:53:32.21	279.33	4.81	-40.6	-42.1	19.3	0.00e+00	0	28	0	1239416832	54	6474
2026-01-12 17:53:36.24	278.98	4.58	-40.7	-42.3	19.0	0.00e+00	10	28	0	1247805440	54	6656
2026-01-12 17:53:40.27	278.64	4.35	-41.0	-42.6	18.5	0.00e+00	91	28	0	1255145472	54	6909
2026-01-12 17:53:44.31	278.30	4.12	-41.2	-42.9	18.3	0.00e+00	0	28	0	1262485504	54	7121
2026-01-12 17:53:48.35	277.96	3.89	-41.4	-43.3	17.8	0.00e+00	0	28	0	1269825536	54	7440
2026-01-12 17:53:52.39	277.63	3.66	-41.6	-43.4	17.7	0.00e+00	5	28	0	1277165568	54	7580
2026-01-12 17:53:56.42	277.31	3.44	-41.2	-43.0	18.1	0.00e+00	90	28	0	1285554176	54	7204
2026-01-12 17:54:00.46	276.99	3.21	-41.4	-43.3	17.7	0.00e+00	70	28	0	1292894208	54	7448
2026-01-12 17:54:04.49	276.68	2.99	-41.4	-43.3	17.6	0.00e+00	70	28	0	1300234240	56	6654
2026-01-12 17:54:08.52	276.37	2.76	-48.3	-63.5	3.6	1.51e+00	0	28	104	1300234240	60	53914
2026-01-12 17:54:12.56	276.06	2.54	-48.4	-63.6	3.6	1.51e+00	0	28	104	1300234240	60	54640
2026-01-12 17:54:16.60	275.76	2.32	-48.2	-63.5	3.6	1.51e+00	0	28	104	1300234240	60	54025
2026-01-12 17:54:20.64	275.47	2.10	-48.3	-63.5	3.6	1.51e+00	0	28	104	1300234240	60	53857
2026-01-12 17:54:24.68	275.18	1.88	-48.3	-63.5	3.6	1.51e+00	0	28	104	1300234240	60	53786
2026-01-12 17:54:28.72	274.89	1.66	-48.3	-63.5	3.6	1.51e+00	0	28	104	1300234240	60	54179
2026-01-12 17:54:32.75	274.61	1.44	-48.3	-63.5	3.6	1.51e+00	0	28	104	1300234240	60	53985
2026-01-12 17:54:36.79	274.33	1.22	-48.3	-63.5	3.6	1.51e+00	0	28	104	1300234240	60	53895
2026-01-12 17:54:40.83	274.06	1.01	-48.3	-63.5	3.6	1.51e+00	0	28	104	1300234240	60	54032
2026-01-12 17:54:44.87	273.79	0.79	-48.3	-63.5	3.6	1.51e+00	0	28	104	1300234240	60	53908
2026-01-12 17:54:48.90	273.52	0.58	-48.4	-63.5	3.6	1.51e+00	0	28	104	1300234240	60	54379
2026-01-12 17:54:52.94	273.26	0.37	-48.3	-63.4	3.6	1.51e+00	0	28	104	1300234240	60	53705
2026-01-12 17:54:56.98	273.00	0.15	-48.3	-63.4	3.6	1.51e+00	0	28	104	1300234240	60	53757
2026-01-12 17:55:01.02	272.75	-0.06	-48.3	-63.5	3.6	1.51e+00	0	28	104	1300234240	60	54007

#Closed at: 2026-01-12 17:55:02
#Recorded file [1300 MB]: D:/lorett/data/35029_260113_054137.dat