passes_logs/2026/01/12/R4.6S_Anadyr/R4.6S_Anadyr__20260112_203843_SUOMI_NPP_rec.log

#Pass ID: 20260112_203843_SUOMI NPP
#Satellite: SUOMI NPP
#Configuration: NPP
#almurnet v.1.7.20251203
#Start time: 2026-01-12 20:38:45

#Version: 2.2.20231116
#Station: R4.6S_Anadyr
#Location: 177.4865 lon 64.73178 lat
#TLE: 1 37849U 11061A   26011.57971124  .00000103  00000+0  69927-4 0  9996
#TLE: 2 37849  98.7807 313.6578 0002518  69.5076 290.6370 14.19524515736228

#Time	Az	El	Level	Level2	SNR	BER	BlckErr	Temp	State	Recorded	gain1	gain2
2026-01-12 20:38:45.64	72.57	0.11	-48.3	-60.0	3.5	8.46e-01	0	24	0	0	60	36186
2026-01-12 20:38:49.68	72.28	0.32	-48.5	-63.6	3.6	1.51e+00	0	25	104	0	60	54910
2026-01-12 20:38:53.71	71.98	0.52	-48.6	-63.7	3.6	1.51e+00	0	26	104	0	60	55269
2026-01-12 20:38:57.76	71.69	0.72	-48.4	-63.6	3.6	1.51e+00	0	26	104	0	60	54441
2026-01-12 20:39:01.79	71.38	0.93	-47.5	-62.7	3.6	1.51e+00	0	26	104	0	60	49591
2026-01-12 20:39:05.83	71.08	1.13	-46.6	-61.9	3.6	1.51e+00	0	26	104	0	60	44964
2026-01-12 20:39:09.87	70.77	1.34	-46.6	-61.9	3.6	1.51e+00	0	26	104	0	60	44949
2026-01-12 20:39:13.91	70.45	1.54	-46.6	-61.9	3.6	1.51e+00	0	26	104	0	60	44751
2026-01-12 20:39:17.95	70.13	1.75	-46.6	-61.9	3.6	1.51e+00	0	26	104	0	60	44827
2026-01-12 20:39:21.99	69.81	1.96	-46.6	-61.8	3.6	1.51e+00	0	26	104	0	60	44396
2026-01-12 20:39:26.03	69.48	2.17	-46.6	-61.4	3.6	1.51e+00	0	26	104	0	60	42332
2026-01-12 20:39:30.07	69.14	2.38	-46.6	-61.7	3.6	1.51e+00	0	26	104	0	60	44190
2026-01-12 20:39:34.11	68.80	2.59	-46.6	-61.5	3.6	1.51e+00	0	26	104	0	60	42889
2026-01-12 20:39:38.15	68.46	2.80	-46.5	-61.5	3.6	1.51e+00	0	26	104	0	60	43093
2026-01-12 20:39:42.19	68.11	3.01	-44.9	-49.8	11.0	8.82e-03	91	26	0	3145728	60	11150
2026-01-12 20:39:46.23	67.75	3.22	-46.6	-61.5	3.6	1.06e+00	0	26	104	9437184	60	42814
2026-01-12 20:39:50.27	67.39	3.43	-41.9	-44.0	16.6	7.00e-07	0	26	0	13631488	56	7240
2026-01-12 20:39:54.30	67.03	3.64	-41.7	-43.6	17.4	0.00e+00	92	26	0	20971520	56	6912
2026-01-12 20:39:58.34	66.66	3.86	-41.1	-42.9	18.0	0.00e+00	92	26	0	29360128	56	6332
2026-01-12 20:40:02.37	66.28	4.07	-41.3	-43.0	18.0	0.00e+00	0	26	0	36700160	56	6447
2026-01-12 20:40:06.41	65.90	4.28	-41.4	-43.2	17.8	0.00e+00	0	26	0	44040192	56	6608
2026-01-12 20:40:10.44	65.51	4.50	-41.4	-43.3	17.9	0.00e+00	79	26	0	51380224	56	6656
2026-01-12 20:40:14.48	65.12	4.71	-41.5	-43.4	17.7	0.00e+00	92	26	0	59768832	56	6712
2026-01-12 20:40:18.52	64.72	4.93	-41.7	-43.7	17.3	0.00e+00	0	26	0	67108864	56	6958
2026-01-12 20:40:22.55	64.31	5.14	-41.4	-43.2	18.0	0.00e+00	31	26	0	74448896	56	6581
2026-01-12 20:40:26.59	63.90	5.36	-41.2	-43.0	18.2	0.00e+00	86	26	0	81788928	56	6449
2026-01-12 20:40:30.63	63.48	5.58	-41.2	-42.9	18.4	7.00e-07	0	26	0	89128960	56	6339
2026-01-12 20:40:34.66	63.06	5.79	-41.2	-42.9	18.3	0.00e+00	0	26	0	97517568	56	6382
2026-01-12 20:40:38.70	62.62	6.01	-40.8	-42.4	18.9	0.00e+00	90	26	0	104857600	56	6031
2026-01-12 20:40:42.74	62.19	6.23	-40.9	-42.6	18.5	0.00e+00	92	26	0	112197632	54	6895
2026-01-12 20:40:46.78	61.74	6.45	-40.8	-42.5	18.8	0.00e+00	0	27	0	119537664	54	6798
2026-01-12 20:40:50.81	61.29	6.66	-40.8	-42.4	18.8	0.00e+00	0	27	0	127926272	54	6753
2026-01-12 20:40:54.85	60.83	6.88	-40.9	-42.6	18.8	0.00e+00	36	27	0	135266304	54	6874
2026-01-12 20:40:58.89	60.36	7.10	-40.4	-41.9	19.4	0.00e+00	80	27	0	142606336	54	6345
2026-01-12 20:41:02.92	59.89	7.32	-40.0	-41.4	19.9	0.00e+00	0	27	0	149946368	54	6024
2026-01-12 20:41:06.96	59.41	7.54	-40.0	-41.4	20.0	0.00e+00	36	27	0	157286400	54	5978
2026-01-12 20:41:11.00	58.92	7.75	-39.9	-41.3	20.0	0.00e+00	45	27	0	165675008	54	5939
2026-01-12 20:41:15.03	58.43	7.97	-39.8	-41.1	20.2	0.00e+00	0	27	0	173015040	52	6496
2026-01-12 20:41:19.07	57.92	8.19	-40.1	-41.5	20.0	0.00e+00	0	27	0	180355072	52	6771
2026-01-12 20:41:23.11	57.41	8.41	-39.9	-41.2	20.1	0.00e+00	91	27	0	187695104	52	6605
2026-01-12 20:41:27.14	56.90	8.62	-40.2	-41.6	19.9	0.00e+00	90	27	0	195035136	52	6862
2026-01-12 20:41:31.18	56.37	8.84	-40.1	-41.4	19.9	0.00e+00	33	27	0	203423744	52	6746
2026-01-12 20:41:35.22	55.83	9.06	-40.2	-41.6	19.9	0.00e+00	0	27	0	210763776	52	6910
2026-01-12 20:41:39.25	55.29	9.27	-39.8	-41.1	20.3	0.00e+00	71	27	0	218103808	52	6534
2026-01-12 20:41:43.29	54.74	9.49	-39.9	-41.2	20.3	0.00e+00	90	27	0	225443840	52	6573
2026-01-12 20:41:47.33	54.18	9.70	-39.7	-40.9	20.6	0.00e+00	0	27	0	233832448	52	6374
2026-01-12 20:41:51.36	53.61	9.91	-40.1	-41.4	20.2	0.00e+00	8	27	0	241172480	52	6743
2026-01-12 20:41:55.40	53.04	10.13	-40.5	-42.0	19.7	0.00e+00	36	27	0	248512512	52	7191
2026-01-12 20:41:59.44	52.45	10.34	-40.5	-42.0	19.6	0.00e+00	0	27	0	255852544	54	6407
2026-01-12 20:42:03.47	51.86	10.55	-39.8	-41.2	20.4	0.00e+00	0	27	0	263192576	54	5833
2026-01-12 20:42:07.51	51.26	10.76	-39.5	-40.7	20.8	0.00e+00	91	27	0	271581184	52	6243
2026-01-12 20:42:11.55	50.65	10.96	-39.1	-40.4	21.1	0.00e+00	46	27	0	278921216	52	5980
2026-01-12 20:42:15.58	50.03	11.17	-38.9	-40.0	21.4	0.00e+00	0	27	0	286261248	50	6454
2026-01-12 20:42:19.62	49.40	11.37	-38.3	-39.4	21.9	0.00e+00	0	27	0	293601280	50	5989
2026-01-12 20:42:23.66	48.76	11.58	-38.1	-39.2	22.1	0.00e+00	66	27	0	301989888	50	5829
2026-01-12 20:42:27.70	48.11	11.78	-38.0	-39.1	22.2	0.00e+00	91	27	0	309329920	50	5770
2026-01-12 20:42:31.73	47.46	11.98	-38.3	-39.4	22.0	0.00e+00	0	27	0	316669952	50	5978
2026-01-12 20:42:35.77	46.79	12.17	-37.7	-38.8	22.4	0.00e+00	0	27	0	324009984	50	5571
2026-01-12 20:42:39.81	46.12	12.37	-37.8	-38.8	22.5	0.00e+00	36	28	0	331350016	48	6247
2026-01-12 20:42:43.84	45.44	12.56	-37.7	-38.7	22.7	0.00e+00	18	28	0	339738624	48	6221
2026-01-12 20:42:47.88	44.75	12.75	-38.2	-39.3	22.1	0.00e+00	0	28	0	347078656	48	6637
2026-01-12 20:42:51.91	44.05	12.94	-37.7	-38.7	22.6	0.00e+00	0	28	0	354418688	48	6220
2026-01-12 20:42:55.95	43.34	13.12	-36.8	-37.8	23.3	0.00e+00	72	28	0	361758720	48	5572
2026-01-12 20:42:59.99	42.62	13.30	-36.9	-37.8	23.2	0.00e+00	0	28	0	370147328	46	6315
2026-01-12 20:43:04.03	41.89	13.48	-37.2	-38.2	23.0	0.00e+00	0	28	0	377487360	46	6574
2026-01-12 20:43:08.07	41.15	13.65	-38.1	-39.1	22.2	0.00e+00	93	28	0	384827392	48	6527
2026-01-12 20:43:12.11	40.41	13.82	-37.8	-38.8	22.5	0.00e+00	90	28	0	392167424	48	6272
2026-01-12 20:43:16.14	39.66	13.99	-38.1	-39.2	22.3	0.00e+00	0	28	0	399507456	48	6583
2026-01-12 20:43:20.18	38.89	14.15	-38.2	-39.3	22.1	0.00e+00	0	28	0	407896064	48	6629
2026-01-12 20:43:24.22	38.12	14.31	-37.5	-38.4	22.8	0.00e+00	90	28	0	415236096	48	6017
2026-01-12 20:43:28.26	37.34	14.47	-37.4	-38.3	23.0	0.00e+00	0	28	0	422576128	48	5956
2026-01-12 20:43:32.30	36.56	14.62	-37.1	-38.1	23.2	0.00e+00	0	28	0	429916160	48	5768
2026-01-12 20:43:36.33	35.76	14.76	-37.5	-38.5	22.8	0.00e+00	36	28	0	437256192	48	6052
2026-01-12 20:43:40.37	34.96	14.91	-37.3	-38.3	22.9	0.00e+00	68	28	0	445644800	48	5918
2026-01-12 20:43:44.41	34.15	15.04	-37.0	-37.9	23.3	0.00e+00	0	28	0	452984832	48	5682
2026-01-12 20:43:48.44	33.33	15.17	-36.9	-37.7	23.3	0.00e+00	0	28	0	460324864	46	6245
2026-01-12 20:43:52.48	32.51	15.30	-36.8	-37.7	23.4	0.00e+00	32	28	0	467664896	46	6215
2026-01-12 20:43:56.52	31.68	15.42	-37.4	-38.4	23.0	0.00e+00	0	28	0	476053504	46	6711
2026-01-12 20:44:00.55	30.84	15.53	-36.9	-37.9	23.3	0.00e+00	0	28	0	483393536	46	6322
2026-01-12 20:44:04.59	29.99	15.64	-37.7	-38.7	22.6	0.00e+00	0	28	0	490733568	48	6187
2026-01-12 20:44:08.63	29.14	15.75	-37.8	-38.9	22.6	0.00e+00	91	28	0	498073600	48	6320
2026-01-12 20:44:12.66	28.29	15.84	-37.7	-38.6	22.7	0.00e+00	0	28	0	505413632	48	6172
2026-01-12 20:44:16.70	27.43	15.93	-37.7	-38.7	22.7	0.00e+00	0	28	0	513802240	48	6192
2026-01-12 20:44:20.73	26.56	16.02	-37.6	-38.5	22.7	0.00e+00	0	28	0	521142272	48	6090
2026-01-12 20:44:24.77	25.69	16.10	-37.1	-38.0	23.2	0.00e+00	92	28	0	528482304	48	5735
2026-01-12 20:44:28.81	24.81	16.17	-37.3	-38.2	22.9	0.00e+00	0	28	0	535822336	48	5866
2026-01-12 20:44:32.85	23.93	16.23	-37.6	-38.6	22.7	0.00e+00	0	28	0	544210944	48	6161
2026-01-12 20:44:36.89	23.05	16.29	-38.0	-39.0	22.3	0.00e+00	34	28	0	551550976	48	6460
2026-01-12 20:44:40.93	22.16	16.35	-38.2	-39.3	22.1	0.00e+00	0	28	0	558891008	48	6671
2026-01-12 20:44:44.96	21.27	16.39	-38.0	-39.0	22.4	0.00e+00	0	28	0	566231040	48	6445
2026-01-12 20:44:49.00	20.38	16.43	-37.6	-38.6	22.6	0.00e+00	0	28	0	573571072	48	6105
2026-01-12 20:44:53.03	19.49	16.46	-37.9	-38.9	22.4	0.00e+00	42	29	0	581959680	48	6386
2026-01-12 20:44:57.07	18.59	16.48	-37.4	-38.4	22.9	0.00e+00	0	29	0	589299712	48	5974
2026-01-12 20:45:01.11	17.69	16.50	-37.7	-38.7	22.5	0.00e+00	0	28	0	596639744	48	6241
2026-01-12 20:45:05.14	16.79	16.51	-37.9	-38.9	22.5	0.00e+00	0	29	0	603979776	48	6352
2026-01-12 20:45:09.18	15.90	16.51	-37.4	-38.4	22.8	0.00e+00	92	29	0	612368384	48	5996
2026-01-12 20:45:13.22	15.00	16.50	-36.9	-37.8	23.2	0.00e+00	0	29	0	619708416	48	5607
2026-01-12 20:45:17.26	14.10	16.49	-37.7	-38.7	22.5	0.00e+00	0	29	0	627048448	48	6236
2026-01-12 20:45:21.29	13.20	16.47	-38.4	-39.4	22.0	0.00e+00	0	29	0	634388480	48	6767
2026-01-12 20:45:25.33	12.31	16.45	-38.5	-39.7	21.8	0.00e+00	70	29	0	641728512	48	6956
2026-01-12 20:45:29.37	11.41	16.41	-37.9	-39.0	22.3	0.00e+00	0	29	0	650117120	48	6396
2026-01-12 20:45:33.41	10.52	16.37	-37.3	-38.3	23.0	0.00e+00	0	29	0	657457152	48	5935
2026-01-12 20:45:37.46	9.63	16.32	-37.8	-38.9	22.5	0.00e+00	81	29	0	664797184	48	6327
2026-01-12 20:45:41.50	8.75	16.27	-37.2	-38.2	23.0	0.00e+00	0	29	0	672137216	48	5866
2026-01-12 20:45:45.53	7.87	16.21	-36.6	-37.5	23.5	0.00e+00	0	29	0	680525824	46	6079
2026-01-12 20:45:49.57	6.99	16.14	-36.8	-37.8	23.3	0.00e+00	0	29	0	687865856	46	6273
2026-01-12 20:45:53.60	6.11	16.07	-37.2	-38.1	23.1	0.00e+00	92	29	0	695205888	46	6515
2026-01-12 20:45:57.64	5.24	15.99	-37.4	-38.4	22.8	0.00e+00	0	29	0	702545920	46	6723
2026-01-12 20:46:01.67	4.38	15.90	-37.5	-38.5	22.7	0.00e+00	0	29	0	709885952	46	6842
2026-01-12 20:46:05.71	3.52	15.81	-36.9	-37.9	23.3	0.00e+00	1	29	0	718274560	46	6363
2026-01-12 20:46:09.75	2.67	15.71	-36.7	-37.6	23.5	0.00e+00	59	29	0	725614592	46	6166
2026-01-12 20:46:13.78	1.82	15.60	-36.9	-37.8	23.4	0.00e+00	0	29	0	732954624	46	6285
2026-01-12 20:46:17.82	0.98	15.49	-37.6	-38.6	22.7	0.00e+00	0	29	0	740294656	46	6872
2026-01-12 20:46:21.86	0.15	15.37	-37.7	-38.7	22.6	0.00e+00	36	29	0	748683264	48	6206
2026-01-12 20:46:25.89	359.32	15.25	-38.3	-39.3	22.1	0.00e+00	0	29	0	756023296	48	6680
2026-01-12 20:46:29.93	358.50	15.12	-38.0	-39.1	22.4	0.00e+00	0	29	0	763363328	48	6494
2026-01-12 20:46:33.97	357.68	14.99	-37.8	-38.8	22.5	0.00e+00	0	29	0	770703360	48	6302
2026-01-12 20:46:38.01	356.88	14.85	-37.5	-38.4	22.8	0.00e+00	91	29	0	778043392	48	6031
2026-01-12 20:46:42.04	356.08	14.71	-37.1	-38.1	23.0	0.00e+00	0	29	0	786432000	48	5778
2026-01-12 20:46:46.08	355.29	14.56	-36.5	-37.4	23.6	0.00e+00	0	29	0	793772032	46	6024
2026-01-12 20:46:50.12	354.51	14.41	-36.8	-37.7	23.3	0.00e+00	0	29	0	801112064	46	6223
2026-01-12 20:46:54.16	353.73	14.25	-37.8	-38.8	22.6	0.00e+00	90	29	0	808452096	46	7030
2026-01-12 20:46:58.19	352.97	14.09	-38.6	-39.8	21.7	0.00e+00	0	29	0	815792128	50	6283
2026-01-12 20:47:02.23	352.21	13.93	-38.7	-39.8	21.6	0.00e+00	0	29	0	824180736	50	6278
2026-01-12 20:47:06.26	351.46	13.76	-38.7	-39.8	21.4	0.00e+00	32	29	0	831520768	50	6316
2026-01-12 20:47:10.30	350.72	13.59	-38.6	-39.7	21.7	0.00e+00	92	29	0	838860800	50	6233
2026-01-12 20:47:14.35	349.99	13.41	-38.1	-39.1	22.1	0.00e+00	0	29	0	846200832	50	5794
2026-01-12 20:47:18.39	349.26	13.23	-38.0	-39.1	22.3	0.00e+00	0	29	0	854589440	50	5786
2026-01-12 20:47:22.42	348.55	13.05	-37.4	-38.4	22.8	0.00e+00	37	29	0	861929472	48	5972
2026-01-12 20:47:26.46	347.85	12.86	-37.8	-38.8	22.4	0.00e+00	0	29	0	869269504	48	6313
2026-01-12 20:47:30.49	347.15	12.68	-38.2	-39.3	22.1	0.00e+00	0	29	0	876609536	48	6628
2026-01-12 20:47:34.53	346.46	12.49	-38.2	-39.3	22.0	0.00e+00	0	29	0	883949568	48	6633
2026-01-12 20:47:38.57	345.79	12.29	-39.0	-40.2	21.2	0.00e+00	37	29	0	892338176	50	6600
2026-01-12 20:47:42.60	345.12	12.10	-41.4	-43.2	18.5	0.00e+00	0	29	0	899678208	54	7422
2026-01-12 20:47:46.65	344.46	11.90	-41.4	-43.2	18.7	0.00e+00	0	30	0	907018240	56	6592
2026-01-12 20:47:50.68	343.81	11.70	-40.3	-41.7	19.9	0.00e+00	0	30	0	914358272	54	6229
2026-01-12 20:47:54.72	343.17	11.50	-39.9	-41.2	20.3	0.00e+00	92	30	0	922746880	54	5867
2026-01-12 20:47:58.75	342.53	11.30	-39.1	-40.3	21.3	0.00e+00	0	29	0	930086912	52	5915
2026-01-12 20:48:02.79	341.91	11.09	-39.3	-40.5	21.1	0.00e+00	0	30	0	937426944	52	6080
2026-01-12 20:48:06.83	341.30	10.89	-39.1	-40.3	21.2	0.00e+00	4	29	0	944766976	52	5947
2026-01-12 20:48:10.87	340.69	10.68	-38.8	-40.1	21.3	0.00e+00	40	30	0	952107008	52	5768
2026-01-12 20:48:14.91	340.09	10.47	-39.0	-40.2	21.2	0.00e+00	0	30	0	960495616	50	6556
2026-01-12 20:48:18.94	339.50	10.26	-39.1	-40.4	21.0	0.00e+00	0	30	0	967835648	50	6705
2026-01-12 20:48:22.98	338.92	10.05	-39.6	-40.9	20.6	0.00e+00	31	30	0	975175680	50	7107
2026-01-12 20:48:27.02	338.35	9.83	-39.3	-40.6	20.8	0.00e+00	0	30	0	982515712	50	6863
2026-01-12 20:48:31.06	337.79	9.62	-39.0	-40.2	21.2	0.00e+00	0	30	0	990904320	50	6551
2026-01-12 20:48:35.09	337.23	9.41	-38.3	-39.5	21.8	0.00e+00	0	30	0	998244352	50	6045
2026-01-12 20:48:39.13	336.69	9.19	-37.9	-38.9	22.3	0.00e+00	90	30	0	1005584384	50	5692
2026-01-12 20:48:43.17	336.15	8.98	-37.9	-38.9	22.2	0.00e+00	4	30	0	1012924416	48	6380
2026-01-12 20:48:47.20	335.62	8.76	-38.1	-39.2	22.0	0.00e+00	0	30	0	1020264448	48	6591
2026-01-12 20:48:51.25	335.10	8.54	-37.9	-38.9	22.1	0.00e+00	28	30	0	1028653056	48	6368
2026-01-12 20:48:55.28	334.58	8.33	-37.9	-39.0	22.2	0.00e+00	87	30	0	1035993088	48	6392
2026-01-12 20:48:59.32	334.08	8.11	-38.3	-39.4	21.7	0.00e+00	0	30	0	1043333120	48	6732
2026-01-12 20:49:03.35	333.58	7.89	-38.4	-39.5	21.7	0.00e+00	0	30	0	1050673152	48	6834
2026-01-12 20:49:07.39	333.09	7.68	-38.7	-39.8	21.4	0.00e+00	31	30	0	1058013184	48	7086
2026-01-12 20:49:11.43	332.60	7.46	-38.9	-40.1	21.1	0.00e+00	0	30	0	1066401792	50	6499
2026-01-12 20:49:15.46	332.13	7.24	-38.8	-39.9	21.2	0.00e+00	0	30	0	1073741824	50	6376
2026-01-12 20:49:19.49	331.66	7.02	-38.1	-39.2	21.9	0.00e+00	0	30	0	1081081856	50	5829
2026-01-12 20:49:23.53	331.20	6.81	-38.1	-39.1	21.9	0.00e+00	59	30	0	1088421888	50	5826
2026-01-12 20:49:27.57	330.74	6.59	-38.5	-39.6	21.4	0.00e+00	0	30	0	1096810496	50	6134
2026-01-12 20:49:31.60	330.30	6.37	-39.3	-40.5	20.6	0.00e+00	0	30	0	1104150528	50	6839
2026-01-12 20:49:35.63	329.86	6.15	-39.4	-40.6	20.6	0.00e+00	0	30	0	1111490560	50	6927
2026-01-12 20:49:39.67	329.42	5.94	-39.2	-40.4	20.8	0.00e+00	92	30	0	1118830592	50	6722
2026-01-12 20:49:43.71	328.99	5.72	-38.8	-40.0	21.2	0.00e+00	0	30	0	1126170624	50	6429
2026-01-12 20:49:47.75	328.57	5.50	-38.4	-39.5	21.5	0.00e+00	0	30	0	1134559232	50	6080
2026-01-12 20:49:51.78	328.16	5.29	-38.8	-40.0	21.1	0.00e+00	27	30	0	1141899264	50	6419
2026-01-12 20:49:55.82	327.75	5.07	-39.6	-40.9	20.1	0.00e+00	0	30	0	1149239296	50	7169
2026-01-12 20:49:59.85	327.35	4.86	-40.2	-41.6	19.5	0.00e+00	0	30	0	1156579328	52	6912
2026-01-12 20:50:03.89	326.95	4.64	-40.2	-41.6	19.5	0.00e+00	0	30	0	1163919360	52	6923
2026-01-12 20:50:07.93	326.56	4.43	-40.1	-41.5	19.6	0.00e+00	26	30	0	1172307968	52	6835
2026-01-12 20:50:11.96	326.18	4.21	-40.3	-41.8	19.5	0.00e+00	0	30	0	1179648000	52	7031
2026-01-12 20:50:16.00	325.80	4.00	-40.7	-42.2	19.0	0.00e+00	0	30	0	1186988032	54	6606
2026-01-12 20:50:20.04	325.43	3.79	-41.2	-43.0	18.1	0.00e+00	0	30	0	1194328064	54	7172
2026-01-12 20:50:24.08	325.06	3.57	-41.6	-43.5	17.6	0.00e+00	17	30	0	1202716672	54	7620
2026-01-12 20:50:28.11	324.70	3.36	-41.0	-42.6	18.3	0.00e+00	28	30	0	1210056704	54	6899
2026-01-12 20:50:32.15	324.34	3.15	-40.6	-42.2	18.7	0.00e+00	0	30	0	1217396736	54	6590
2026-01-12 20:50:36.18	323.99	2.94	-47.6	-62.7	3.6	1.51e+00	0	30	104	1223688192	60	49161
2026-01-12 20:50:40.22	323.65	2.73	-48.5	-63.7	3.6	1.51e+00	0	30	104	1223688192	60	55401
2026-01-12 20:50:44.26	323.30	2.52	-48.6	-63.8	3.6	1.51e+00	0	30	104	1223688192	60	56159
2026-01-12 20:50:48.30	322.97	2.31	-48.2	-63.6	3.6	1.51e+00	0	30	104	1223688192	60	54994
2026-01-12 20:50:52.33	322.64	2.10	-48.4	-63.7	3.5	1.51e+00	0	30	104	1223688192	60	55193
2026-01-12 20:50:56.37	322.31	1.89	-48.5	-63.6	3.6	1.51e+00	0	31	104	1223688192	60	54780
2026-01-12 20:51:00.41	321.99	1.69	-48.4	-63.6	3.6	1.51e+00	0	30	104	1223688192	60	54925
2026-01-12 20:51:04.45	321.67	1.48	-48.5	-63.7	3.6	1.51e+00	0	31	104	1223688192	60	55313
2026-01-12 20:51:08.48	321.36	1.27	-48.4	-63.6	3.6	1.51e+00	0	31	104	1223688192	60	54788
2026-01-12 20:51:12.53	321.05	1.07	-48.4	-63.6	3.6	1.51e+00	0	31	104	1223688192	60	54861
2026-01-12 20:51:16.57	320.75	0.86	-48.4	-63.6	3.6	1.51e+00	0	30	104	1223688192	60	54881
2026-01-12 20:51:20.61	320.45	0.66	-48.4	-63.6	3.6	1.51e+00	0	31	104	1223688192	60	54760
2026-01-12 20:51:24.65	320.16	0.46	-48.4	-63.6	3.6	1.51e+00	0	30	104	1223688192	60	54892
2026-01-12 20:51:28.68	319.87	0.26	-48.4	-63.6	3.6	1.51e+00	0	30	104	1223688192	60	54724
2026-01-12 20:51:32.73	319.58	0.05	-48.4	-63.6	3.6	1.51e+00	0	30	104	1223688192	60	55004

#Closed at: 2026-01-12 20:51:35
#Recorded file [1223 MB]: D:/lorett/data/35029_260113_083845.dat