passes_logs/2026/01/12/R4.6S_Anadyr/R4.6S_Anadyr__20260112_200029_FENGYUN_3D_rec.log

#Pass ID: 20260112_200029_FENGYUN 3D
#Satellite: FENGYUN 3D
#Configuration: FENGYUN 3D
#almurnet v.1.7.20251203
#Start time: 2026-01-12 20:00:33

#Version: 2.2.20231116
#Station: R4.6S_Anadyr
#Location: 177.4865 lon 64.73178 lat
#TLE: 1 43010U 17072A   26011.62066612  .00000104  00000+0  70810-4 0  9998
#TLE: 2 43010  98.9935 343.3846 0002223 114.2890 245.8518 14.19694405422776

#Time	Az	El	Level	Level2	SNR	BER	BlckErr	Temp	State	Recorded	gain1	gain2
2026-01-12 20:00:33.17	36.38	0.18	-48.4	-59.1	3.3	8.39e-01	0	25	0	0	60	32523
2026-01-12 20:00:37.21	36.11	0.39	-48.4	-60.5	3.5	8.45e-01	0	26	104	0	60	38160
2026-01-12 20:00:41.24	35.84	0.60	-48.0	-60.1	3.6	8.45e-01	0	26	104	0	60	36652
2026-01-12 20:00:45.28	35.57	0.81	-47.4	-59.5	3.6	8.46e-01	0	26	104	0	60	33994
2026-01-12 20:00:49.32	35.29	1.02	-46.7	-58.7	3.6	8.44e-01	0	26	104	0	60	31257
2026-01-12 20:00:53.37	35.01	1.24	-46.7	-58.7	3.6	8.46e-01	0	26	104	0	60	31243
2026-01-12 20:00:57.40	34.72	1.45	-46.7	-58.6	3.6	8.45e-01	0	26	104	0	60	30718
2026-01-12 20:01:01.44	34.43	1.67	-46.7	-58.7	3.6	8.45e-01	0	26	104	0	60	31232
2026-01-12 20:01:05.47	34.14	1.88	-46.6	-58.5	3.6	8.46e-01	0	26	104	0	60	30572
2026-01-12 20:01:09.51	33.84	2.10	-46.6	-57.9	3.6	8.46e-01	0	26	104	0	60	28348
2026-01-12 20:01:13.55	33.53	2.31	-46.6	-58.7	3.6	8.46e-01	0	26	104	0	60	30955
2026-01-12 20:01:17.59	33.22	2.53	-46.6	-58.5	3.6	8.47e-01	0	26	104	0	60	30517
2026-01-12 20:01:21.63	32.91	2.75	-46.5	-57.3	3.6	8.44e-01	0	26	104	0	60	26478
2026-01-12 20:01:25.66	32.59	2.97	-44.2	-47.6	9.4	5.08e-02	0	26	0	6291456	60	8660
2026-01-12 20:01:29.70	32.27	3.19	-38.7	-39.9	18.1	6.80e-06	0	26	0	29360128	50	6342
2026-01-12 20:01:33.74	31.94	3.41	-38.7	-39.9	18.0	0.00e+00	0	26	0	40894464	52	5683
2026-01-12 20:01:37.78	31.61	3.64	-36.0	-36.8	21.0	0.00e+00	0	26	0	62914560	46	5629
2026-01-12 20:01:41.81	31.27	3.86	-35.7	-36.6	21.2	0.00e+00	0	26	0	85983232	44	6122
2026-01-12 20:01:45.86	30.92	4.09	-35.8	-36.6	21.2	0.00e+00	0	26	0	108003328	44	6169
2026-01-12 20:01:49.90	30.57	4.31	-35.6	-36.4	21.5	0.00e+00	0	26	0	131072000	44	6016
2026-01-12 20:01:53.94	30.21	4.54	-35.6	-36.5	21.5	0.00e+00	0	26	0	154140672	44	6050
2026-01-12 20:01:57.98	29.85	4.76	-35.6	-36.4	21.6	0.00e+00	0	26	0	176160768	44	6014
2026-01-12 20:02:02.02	29.48	4.99	-35.3	-36.1	21.9	0.00e+00	0	26	0	199229440	44	5816
2026-01-12 20:02:06.05	29.11	5.22	-35.3	-36.1	22.1	0.00e+00	0	26	0	222298112	44	5782
2026-01-12 20:02:10.09	28.73	5.45	-35.1	-35.9	22.3	0.00e+00	0	26	0	245366784	44	5648
2026-01-12 20:02:14.12	28.35	5.68	-35.1	-35.9	22.3	0.00e+00	0	26	0	267386880	44	5637
2026-01-12 20:02:18.16	27.95	5.91	-34.9	-35.7	22.5	0.00e+00	0	26	0	290455552	44	5532
2026-01-12 20:02:22.19	27.55	6.14	-34.9	-35.6	22.6	0.00e+00	0	27	0	312475648	42	6161
2026-01-12 20:02:26.23	27.15	6.37	-34.9	-35.6	22.6	0.00e+00	0	27	0	335544320	42	6166
2026-01-12 20:02:30.27	26.74	6.61	-34.9	-35.7	22.7	0.00e+00	0	27	0	358612992	42	6192
2026-01-12 20:02:34.31	26.32	6.84	-35.0	-35.8	22.5	0.00e+00	0	27	0	380633088	42	6280
2026-01-12 20:02:38.35	25.89	7.07	-34.8	-35.6	22.7	0.00e+00	0	27	0	403701760	42	6155
2026-01-12 20:02:42.38	25.46	7.31	-34.5	-35.3	23.1	0.00e+00	0	27	0	426770432	42	5927
2026-01-12 20:02:46.42	25.02	7.55	-34.5	-35.2	23.2	0.00e+00	0	27	0	448790528	42	5875
2026-01-12 20:02:50.46	24.57	7.78	-34.3	-35.0	23.3	0.00e+00	0	27	0	471859200	42	5726
2026-01-12 20:02:54.50	24.11	8.02	-34.0	-34.7	23.6	0.00e+00	0	27	0	494927872	42	5527
2026-01-12 20:02:58.54	23.65	8.26	-33.7	-34.4	24.0	0.00e+00	0	27	0	516947968	40	5971
2026-01-12 20:03:02.58	23.18	8.49	-33.7	-34.4	24.0	0.00e+00	0	27	0	540016640	40	6009
2026-01-12 20:03:06.61	22.70	8.73	-34.0	-34.7	23.6	0.00e+00	0	27	0	563085312	40	6224
2026-01-12 20:03:10.65	22.21	8.97	-33.9	-34.6	23.8	0.00e+00	0	27	0	585105408	40	6151
2026-01-12 20:03:14.70	21.71	9.21	-33.9	-34.6	23.8	0.00e+00	0	27	0	608174080	40	6163
2026-01-12 20:03:18.73	21.21	9.44	-33.6	-34.3	24.1	0.00e+00	0	27	0	631242752	40	5935
2026-01-12 20:03:22.77	20.70	9.68	-33.6	-34.3	24.1	0.00e+00	0	27	0	653262848	40	5924
2026-01-12 20:03:26.80	20.18	9.92	-33.4	-34.1	24.3	0.00e+00	0	27	0	676331520	40	5770
2026-01-12 20:03:30.84	19.65	10.16	-33.3	-34.0	24.4	0.00e+00	0	27	0	699400192	40	5720
2026-01-12 20:03:34.88	19.11	10.40	-33.2	-33.9	24.5	0.00e+00	0	27	0	721420288	40	5633
2026-01-12 20:03:38.92	18.56	10.64	-33.0	-33.6	24.7	0.00e+00	0	27	0	744488960	40	5497
2026-01-12 20:03:42.96	18.00	10.87	-33.1	-33.8	24.7	0.00e+00	0	27	0	767557632	40	5570
2026-01-12 20:03:47.00	17.43	11.11	-33.3	-34.0	24.4	0.00e+00	0	27	0	789577728	40	5711
2026-01-12 20:03:51.04	16.86	11.35	-33.0	-33.7	24.6	0.00e+00	0	27	0	812646400	40	5544
2026-01-12 20:03:55.07	16.27	11.58	-32.9	-33.6	24.8	0.00e+00	0	28	0	835715072	40	5488
2026-01-12 20:03:59.11	15.68	11.82	-33.1	-33.9	24.6	0.00e+00	0	27	0	857735168	40	5641
2026-01-12 20:04:03.15	15.07	12.06	-32.9	-33.6	24.8	0.00e+00	0	28	0	880803840	40	5462
2026-01-12 20:04:07.17	14.46	12.29	-33.0	-33.7	24.8	0.00e+00	0	28	0	902823936	40	5533
2026-01-12 20:04:11.20	13.83	12.52	-32.7	-33.4	25.0	0.00e+00	0	28	0	925892608	38	5970
2026-01-12 20:04:15.24	13.20	12.75	-32.5	-33.2	25.2	0.00e+00	0	28	0	948961280	38	5859
2026-01-12 20:04:19.28	12.55	12.98	-32.4	-33.1	25.3	0.00e+00	0	28	0	970981376	38	5801
2026-01-12 20:04:23.31	11.90	13.21	-32.3	-33.0	25.5	0.00e+00	0	28	0	994050048	38	5719
2026-01-12 20:04:27.35	11.23	13.44	-32.5	-33.2	25.3	0.00e+00	0	28	0	1017118720	38	5836
2026-01-12 20:04:31.38	10.56	13.66	-32.7	-33.4	25.1	0.00e+00	0	28	0	1039138816	38	6025
2026-01-12 20:04:35.41	9.87	13.88	-32.3	-33.0	25.4	0.00e+00	0	28	0	1062207488	38	5758
2026-01-12 20:04:39.45	9.17	14.11	-32.0	-32.7	25.7	0.00e+00	0	28	0	1085276160	38	5530
2026-01-12 20:04:43.48	8.47	14.32	-31.9	-32.5	25.8	0.00e+00	0	28	0	1107296256	36	6084
2026-01-12 20:04:47.52	7.75	14.54	-32.0	-32.6	25.8	0.00e+00	0	28	0	1130364928	36	6159
2026-01-12 20:04:51.56	7.02	14.75	-32.1	-32.8	25.7	0.00e+00	0	28	0	1153433600	36	6283
2026-01-12 20:04:55.59	6.28	14.96	-31.7	-32.4	26.0	0.00e+00	0	28	0	1175453696	36	5984
2026-01-12 20:04:59.63	5.53	15.17	-31.8	-32.4	26.0	0.00e+00	0	28	0	1198522368	36	6013
2026-01-12 20:05:03.67	4.77	15.37	-32.1	-32.8	25.5	0.00e+00	0	28	0	1221591040	36	6283
2026-01-12 20:05:07.70	4.00	15.57	-31.7	-32.3	26.1	0.00e+00	0	28	0	1243611136	36	5952
2026-01-12 20:05:11.74	3.21	15.77	-31.6	-32.3	26.1	0.00e+00	0	28	0	1266679808	36	5934
2026-01-12 20:05:15.78	2.42	15.96	-31.7	-32.4	26.1	0.00e+00	0	28	0	1288699904	36	6007
2026-01-12 20:05:19.82	1.62	16.15	-31.4	-32.1	26.3	0.00e+00	0	28	0	1311768576	36	5785
2026-01-12 20:05:23.85	0.80	16.34	-31.5	-32.1	26.3	0.00e+00	0	28	0	1334837248	36	5807
2026-01-12 20:05:27.89	359.98	16.52	-31.5	-32.2	26.3	0.00e+00	0	28	0	1357905920	36	5833
2026-01-12 20:05:31.93	359.15	16.69	-31.7	-32.4	26.2	0.00e+00	0	28	0	1379926016	36	5966
2026-01-12 20:05:35.97	358.30	16.86	-31.4	-32.1	26.4	0.00e+00	0	28	0	1402994688	36	5770
2026-01-12 20:05:40.00	357.45	17.03	-31.0	-31.6	26.7	0.00e+00	0	28	0	1426063360	36	5464
2026-01-12 20:05:44.04	356.59	17.19	-31.1	-31.7	26.7	0.00e+00	0	28	0	1448083456	36	5531
2026-01-12 20:05:48.08	355.72	17.34	-31.0	-31.7	26.6	0.00e+00	0	28	0	1471152128	36	5543
2026-01-12 20:05:52.11	354.84	17.49	-30.6	-31.2	27.0	0.00e+00	0	28	0	1493172224	34	5896
2026-01-12 20:05:56.15	353.95	17.63	-30.9	-31.5	26.9	0.00e+00	0	28	0	1516240896	34	6088
2026-01-12 20:06:00.19	353.05	17.76	-31.0	-31.6	26.8	0.00e+00	0	28	0	1539309568	34	6155
2026-01-12 20:06:04.22	352.15	17.89	-31.0	-31.6	26.8	0.00e+00	0	29	0	1561329664	34	6111
2026-01-12 20:06:08.26	351.24	18.01	-30.9	-31.5	26.9	0.00e+00	0	29	0	1584398336	34	6079
2026-01-12 20:06:12.31	350.31	18.13	-30.9	-31.6	26.7	0.00e+00	0	28	0	1607467008	34	6119
2026-01-12 20:06:16.34	349.39	18.23	-30.8	-31.5	26.8	0.00e+00	0	29	0	1630535680	34	6081
2026-01-12 20:06:20.38	348.46	18.33	-30.9	-31.5	26.9	0.00e+00	0	29	0	1652555776	34	6071
2026-01-12 20:06:24.41	347.52	18.42	-30.6	-31.3	27.0	0.00e+00	0	29	0	1675624448	34	5917
2026-01-12 20:06:28.45	346.57	18.51	-30.4	-31.1	27.2	0.00e+00	0	29	0	1697644544	34	5767
2026-01-12 20:06:32.49	345.62	18.59	-30.6	-31.2	27.0	0.00e+00	0	29	0	1720713216	34	5885
2026-01-12 20:06:36.53	344.67	18.65	-30.6	-31.2	27.1	0.00e+00	0	29	0	1743781888	34	5881
2026-01-12 20:06:40.57	343.71	18.72	-30.6	-31.2	27.1	0.00e+00	0	29	0	1765801984	34	5869
2026-01-12 20:06:44.60	342.75	18.77	-30.5	-31.1	27.2	0.00e+00	0	29	0	1788870656	34	5811
2026-01-12 20:06:48.64	341.78	18.81	-30.7	-31.3	27.0	0.00e+00	0	29	0	1811939328	34	5939
2026-01-12 20:06:52.68	340.82	18.85	-30.6	-31.2	27.1	0.00e+00	0	29	0	1833959424	34	5895
2026-01-12 20:06:56.71	339.85	18.87	-30.6	-31.2	27.0	0.00e+00	0	29	0	1857028096	34	5890
2026-01-12 20:07:00.75	338.88	18.89	-30.5	-31.1	27.2	0.00e+00	0	29	0	1880096768	34	5795
2026-01-12 20:07:04.78	337.91	18.90	-30.5	-31.1	27.3	0.00e+00	0	29	0	1902116864	34	5779
2026-01-12 20:07:08.82	336.93	18.90	-30.5	-31.2	27.1	0.00e+00	0	29	0	1925185536	34	5838
2026-01-12 20:07:12.86	335.96	18.90	-30.6	-31.2	27.1	0.00e+00	0	29	0	1948254208	34	5887
2026-01-12 20:07:16.90	334.99	18.88	-30.9	-31.6	26.8	0.00e+00	0	29	0	1970274304	34	6121
2026-01-12 20:07:20.93	334.02	18.86	-30.5	-31.1	27.1	0.00e+00	0	29	0	1993342976	34	5826
2026-01-12 20:07:24.97	333.05	18.82	-30.4	-31.0	27.2	0.00e+00	0	29	0	2016411648	34	5753
2026-01-12 20:07:29.01	332.08	18.78	-30.6	-31.3	27.2	0.00e+00	0	29	0	2038431744	34	5907
2026-01-12 20:07:33.05	331.12	18.73	-30.4	-31.0	27.3	0.00e+00	0	29	0	2061500416	34	5732
2026-01-12 20:07:37.08	330.16	18.68	-30.5	-31.2	27.2	0.00e+00	0	29	0	2084569088	34	5844
2026-01-12 20:07:41.12	329.20	18.61	-30.8	-31.4	26.9	0.00e+00	0	29	0	2106589184	34	6007
2026-01-12 20:07:45.16	328.25	18.54	-30.7	-31.2	27.1	0.00e+00	0	29	0	2129657856	34	5885
2026-01-12 20:07:49.19	327.30	18.45	-30.9	-31.6	26.9	0.00e+00	0	29	0	2152726528	34	6131
2026-01-12 20:07:53.23	326.36	18.36	-30.9	-31.6	26.9	0.00e+00	0	29	0	2174746624	34	6108
2026-01-12 20:07:57.27	325.43	18.27	-31.2	-31.8	26.7	0.00e+00	0	29	0	2197815296	34	6281
2026-01-12 20:08:01.31	324.50	18.16	-31.0	-31.7	26.8	0.00e+00	0	29	0	2220883968	34	6202
2026-01-12 20:08:05.34	323.57	18.05	-31.1	-31.8	26.8	0.00e+00	0	29	0	2242904064	34	6261
2026-01-12 20:08:09.38	322.66	17.93	-30.8	-31.4	27.0	0.00e+00	0	29	0	2265972736	34	5974
2026-01-12 20:08:13.41	321.75	17.80	-30.8	-31.4	26.9	0.00e+00	0	29	0	2287992832	34	5984
2026-01-12 20:08:17.45	320.85	17.67	-30.9	-31.4	26.9	0.00e+00	0	29	0	2311061504	34	6015
2026-01-12 20:08:21.48	319.96	17.53	-31.1	-31.8	26.8	0.00e+00	0	29	0	2334130176	34	6268
2026-01-12 20:08:25.52	319.08	17.39	-31.1	-31.8	26.7	0.00e+00	0	29	0	2356150272	34	6288
2026-01-12 20:08:29.56	318.20	17.24	-30.8	-31.4	27.1	0.00e+00	0	29	0	2379218944	34	5999
2026-01-12 20:08:33.60	317.33	17.08	-31.1	-31.8	26.7	0.00e+00	0	29	0	2402287616	34	6277
2026-01-12 20:08:37.64	316.47	16.92	-31.3	-31.9	26.7	0.00e+00	0	29	0	2425356288	34	6350
2026-01-12 20:08:41.68	315.63	16.75	-31.2	-31.8	26.6	0.00e+00	0	29	0	2447376384	34	6303
2026-01-12 20:08:45.71	314.79	16.57	-31.7	-32.3	26.3	0.00e+00	0	29	0	2470445056	34	6622
2026-01-12 20:08:49.75	313.96	16.40	-31.5	-32.1	26.5	0.00e+00	0	29	0	2492465152	34	6538
2026-01-12 20:08:53.79	313.14	16.21	-31.5	-32.1	26.4	0.00e+00	0	29	0	2515533824	34	6531
2026-01-12 20:08:57.83	312.33	16.02	-31.6	-32.2	26.4	0.00e+00	0	29	0	2538602496	34	6598
2026-01-12 20:09:01.86	311.54	15.83	-31.6	-32.2	26.4	0.00e+00	0	29	0	2560622592	34	6589
2026-01-12 20:09:05.90	310.75	15.64	-31.9	-32.6	26.0	0.00e+00	0	29	0	2583691264	36	6132
2026-01-12 20:09:09.93	309.97	15.44	-31.9	-32.5	26.1	0.00e+00	0	29	0	2606759936	36	6084
2026-01-12 20:09:13.97	309.21	15.23	-32.0	-32.7	26.0	0.00e+00	0	30	0	2628780032	36	6193
2026-01-12 20:09:18.01	308.45	15.03	-31.9	-32.5	25.9	0.00e+00	0	29	0	2651848704	36	6094
2026-01-12 20:09:22.05	307.71	14.82	-32.0	-32.7	25.9	0.00e+00	0	29	0	2674917376	36	6224
2026-01-12 20:09:26.09	306.97	14.61	-32.2	-32.9	25.8	0.00e+00	0	30	0	2696937472	36	6388
2026-01-12 20:09:30.12	306.25	14.39	-32.4	-33.1	25.6	0.00e+00	0	30	0	2720006144	36	6539
2026-01-12 20:09:34.16	305.53	14.17	-32.2	-32.8	25.8	0.00e+00	0	30	0	2743074816	36	6309
2026-01-12 20:09:38.20	304.83	13.95	-32.1	-32.7	25.9	0.00e+00	0	30	0	2765094912	36	6189
2026-01-12 20:09:42.24	304.14	13.73	-32.1	-32.8	25.9	0.00e+00	0	30	0	2788163584	36	6281
2026-01-12 20:09:46.27	303.46	13.50	-32.4	-33.2	25.5	0.00e+00	0	30	0	2811232256	36	6556
2026-01-12 20:09:50.31	302.79	13.28	-32.3	-32.9	25.5	0.00e+00	0	30	0	2833252352	36	6320
2026-01-12 20:09:54.35	302.12	13.05	-32.6	-33.2	24.8	0.00e+00	0	30	0	2856321024	36	6554
2026-01-12 20:09:58.38	301.47	12.82	-32.5	-33.2	25.3	0.00e+00	0	30	0	2878341120	38	5881
2026-01-12 20:10:02.42	300.83	12.59	-32.9	-33.7	24.9	0.00e+00	0	30	0	2901409792	38	6204
2026-01-12 20:10:06.46	300.20	12.35	-32.9	-33.6	25.0	0.00e+00	0	30	0	2924478464	38	6152
2026-01-12 20:10:10.49	299.58	12.12	-33.2	-33.9	24.7	0.00e+00	0	30	0	2947547136	38	6373
2026-01-12 20:10:14.53	298.97	11.89	-33.0	-33.7	25.0	0.00e+00	0	30	0	2969567232	38	6175
2026-01-12 20:10:18.57	298.37	11.65	-33.0	-33.7	24.9	0.00e+00	0	30	0	2992635904	38	6209
2026-01-12 20:10:22.60	297.78	11.41	-33.2	-33.9	24.7	0.00e+00	0	30	0	3015704576	38	6332
2026-01-12 20:10:26.64	297.20	11.18	-33.3	-34.0	24.6	0.00e+00	0	30	0	3037724672	38	6427
2026-01-12 20:10:30.68	296.63	10.94	-33.6	-34.3	24.2	0.00e+00	0	30	0	3060793344	40	5907
2026-01-12 20:10:34.72	296.07	10.70	-33.3	-33.9	24.6	0.00e+00	0	30	0	3082813440	40	5654
2026-01-12 20:10:38.75	295.52	10.46	-33.2	-33.8	24.7	0.00e+00	0	30	0	3105882112	40	5617
2026-01-12 20:10:42.78	294.97	10.23	-33.3	-34.1	24.5	0.00e+00	0	30	0	3128950784	40	5801
2026-01-12 20:10:46.82	294.44	9.99	-33.4	-34.1	24.4	0.00e+00	0	30	0	3150970880	40	5806
2026-01-12 20:10:50.85	293.91	9.75	-33.8	-34.6	24.1	0.00e+00	0	30	0	3174039552	40	6125
2026-01-12 20:10:54.89	293.40	9.51	-33.8	-34.5	24.1	0.00e+00	0	30	0	3197108224	40	6092
2026-01-12 20:10:58.93	292.89	9.27	-34.2	-34.8	23.7	0.00e+00	0	30	0	3219128320	40	6305
2026-01-12 20:11:02.97	292.39	9.03	-34.0	-34.8	23.9	0.00e+00	0	30	0	3242196992	40	6247
2026-01-12 20:11:07.00	291.90	8.79	-34.1	-34.7	23.8	0.00e+00	0	30	0	3265265664	40	6234
2026-01-12 20:11:11.04	291.41	8.55	-34.0	-34.7	23.8	0.00e+00	0	30	0	3287285760	40	6237
2026-01-12 20:11:15.08	290.94	8.32	-33.9	-34.6	23.9	0.00e+00	0	30	0	3310354432	40	6133
2026-01-12 20:11:19.12	290.47	8.08	-34.2	-35.0	23.7	0.00e+00	0	30	0	3333423104	40	6394
2026-01-12 20:11:23.16	290.01	7.84	-34.2	-35.1	23.6	0.00e+00	0	30	0	3355443200	40	6465
2026-01-12 20:11:27.20	289.55	7.60	-34.3	-35.0	23.5	0.00e+00	0	30	0	3378511872	40	6428
2026-01-12 20:11:31.24	289.11	7.37	-34.5	-35.3	23.3	0.00e+00	0	30	0	3401580544	40	6654
2026-01-12 20:11:35.28	288.67	7.13	-34.7	-35.4	23.1	0.00e+00	0	30	0	3423600640	40	6735
2026-01-12 20:11:39.32	288.24	6.90	-34.7	-35.4	23.1	0.00e+00	0	30	0	3446669312	42	5988
2026-01-12 20:11:43.36	287.82	6.66	-34.8	-35.6	22.8	0.00e+00	0	30	0	3469737984	42	6165
2026-01-12 20:11:47.39	287.40	6.43	-35.0	-35.8	22.7	0.00e+00	0	30	0	3491758080	42	6304
2026-01-12 20:11:51.43	286.99	6.20	-34.8	-35.7	22.9	0.00e+00	0	30	0	3514826752	42	6176
2026-01-12 20:11:55.47	286.59	5.96	-34.8	-35.5	22.8	0.00e+00	0	30	0	3537895424	42	6099
2026-01-12 20:11:59.50	286.19	5.73	-35.0	-35.7	22.6	0.00e+00	0	30	0	3559915520	42	6210
2026-01-12 20:12:03.54	285.80	5.50	-35.2	-35.9	22.4	0.00e+00	0	30	0	3582984192	42	6335
2026-01-12 20:12:07.58	285.42	5.27	-35.1	-35.9	22.5	0.00e+00	0	30	0	3606052864	42	6387
2026-01-12 20:12:11.62	285.04	5.04	-35.2	-36.0	22.3	0.00e+00	0	30	0	3628072960	42	6425
2026-01-12 20:12:15.66	284.67	4.82	-35.5	-36.4	22.0	0.00e+00	0	30	0	3651141632	42	6758
2026-01-12 20:12:19.70	284.30	4.59	-35.3	-36.1	22.1	0.00e+00	0	30	0	3674210304	42	6497
2026-01-12 20:12:23.74	283.94	4.36	-35.3	-36.2	22.1	0.00e+00	0	30	0	3696230400	42	6560
2026-01-12 20:12:27.78	283.59	4.13	-35.4	-36.1	22.0	0.00e+00	0	30	0	3719299072	42	6523
2026-01-12 20:12:31.81	283.24	3.91	-35.4	-36.1	21.9	0.00e+00	0	30	0	3742367744	42	6528
2026-01-12 20:12:35.85	282.90	3.69	-35.6	-36.4	21.7	0.00e+00	0	30	0	3764387840	42	6756
2026-01-12 20:12:39.89	282.56	3.46	-35.6	-36.5	21.6	0.00e+00	0	30	0	3787456512	44	6045
2026-01-12 20:12:43.93	282.23	3.24	-36.6	-37.5	20.6	0.00e+00	0	30	0	3810525184	44	6785
2026-01-12 20:12:47.97	281.90	3.02	-35.6	-36.4	21.4	0.00e+00	0	30	0	3832545280	44	6020
2026-01-12 20:12:52.01	281.58	2.80	-48.4	-60.5	3.6	8.46e-01	0	31	104	3835691008	60	38219
2026-01-12 20:12:56.05	281.26	2.58	-48.5	-60.6	3.6	8.45e-01	0	30	104	3835691008	60	38772
2026-01-12 20:13:00.09	280.95	2.36	-48.4	-60.5	3.6	8.46e-01	0	30	104	3835691008	60	38298
2026-01-12 20:13:04.13	280.64	2.14	-48.3	-60.4	3.6	8.45e-01	0	30	104	3835691008	60	37875
2026-01-12 20:13:08.17	280.34	1.92	-48.4	-60.5	3.6	8.45e-01	0	31	104	3835691008	60	38295
2026-01-12 20:13:12.21	280.04	1.71	-48.4	-60.5	3.6	8.45e-01	0	30	104	3835691008	60	38114
2026-01-12 20:13:16.24	279.74	1.49	-48.4	-60.5	3.6	8.46e-01	0	30	104	3835691008	60	38453
2026-01-12 20:13:20.28	279.45	1.28	-48.4	-60.5	3.6	8.44e-01	0	30	104	3835691008	60	38328
2026-01-12 20:13:24.32	279.17	1.07	-48.4	-60.5	3.6	8.45e-01	0	30	104	3835691008	60	38347
2026-01-12 20:13:28.36	278.89	0.85	-48.4	-60.5	3.6	8.46e-01	0	30	104	3835691008	60	38354
2026-01-12 20:13:32.41	278.61	0.64	-48.4	-60.5	3.6	8.45e-01	0	30	104	3835691008	60	38316
2026-01-12 20:13:36.45	278.34	0.43	-48.4	-60.4	3.6	8.45e-01	0	31	104	3835691008	60	38000
2026-01-12 20:13:40.49	278.07	0.22	-48.4	-60.5	3.6	8.46e-01	0	30	104	3835691008	60	38207
2026-01-12 20:13:44.53	277.80	0.01	-48.4	-60.5	3.6	8.46e-01	0	30	104	3835691008	60	38317

#Closed at: 2026-01-12 20:13:46
#Recorded file [3835 MB]: D:/lorett/data/35029_260113_080033.dat