passes_logs/2026/01/12/R4.6S_Anadyr/R4.6S_Anadyr__20260112_190021_SUOMI_NPP_rec.log

#Pass ID: 20260112_190021_SUOMI NPP
#Satellite: SUOMI NPP
#Configuration: NPP
#almurnet v.1.7.20251203
#Start time: 2026-01-12 19:00:23

#Version: 2.2.20231116
#Station: R4.6S_Anadyr
#Location: 177.4865 lon 64.73178 lat
#TLE: 1 37849U 11061A   26011.57971124  .00000103  00000+0  69927-4 0  9996
#TLE: 2 37849  98.7807 313.6578 0002518  69.5076 290.6370 14.19524515736228

#Time	Az	El	Level	Level2	SNR	BER	BlckErr	Temp	State	Recorded	gain1	gain2
2026-01-12 19:00:23.74	46.29	0.11	-48.2	-59.8	3.5	8.45e-01	0	27	0	0	60	35226
2026-01-12 19:00:26.76	46.06	0.26	-48.5	-63.7	3.6	1.51e+00	0	28	104	0	60	55223
2026-01-12 19:00:29.79	45.83	0.41	-48.5	-63.6	3.6	1.51e+00	0	29	104	0	60	54862
2026-01-12 19:00:32.82	45.60	0.56	-48.3	-63.5	3.6	1.51e+00	0	28	104	0	60	53846
2026-01-12 19:00:35.85	45.37	0.71	-48.2	-63.3	3.6	1.51e+00	0	29	104	0	60	53104
2026-01-12 19:00:38.87	45.13	0.86	-47.7	-62.9	3.6	1.51e+00	0	29	104	0	60	50364
2026-01-12 19:00:41.90	44.89	1.01	-46.7	-62.0	3.6	1.51e+00	0	29	104	0	60	45352
2026-01-12 19:00:44.93	44.65	1.16	-46.7	-61.9	3.6	1.51e+00	0	29	104	0	60	45140
2026-01-12 19:00:47.96	44.41	1.31	-46.7	-61.9	3.6	1.51e+00	0	29	104	0	60	45004
2026-01-12 19:00:50.99	44.16	1.46	-46.7	-61.9	3.6	1.51e+00	0	29	104	0	60	44753
2026-01-12 19:00:54.02	43.91	1.61	-46.7	-61.9	3.6	1.51e+00	0	29	104	0	60	44737
2026-01-12 19:00:57.05	43.66	1.76	-46.7	-61.9	3.6	1.51e+00	0	29	104	0	60	45070
2026-01-12 19:01:00.08	43.41	1.91	-46.7	-61.8	3.6	1.51e+00	0	29	104	0	60	44452
2026-01-12 19:01:03.11	43.15	2.06	-46.7	-61.5	3.6	1.51e+00	0	29	104	0	60	42985
2026-01-12 19:01:06.14	42.89	2.21	-46.7	-61.6	3.6	1.51e+00	0	29	104	0	60	43626
2026-01-12 19:01:09.16	42.63	2.37	-46.6	-61.8	3.6	1.51e+00	0	29	104	0	60	44557
2026-01-12 19:01:12.19	42.37	2.52	-46.7	-61.8	3.6	1.51e+00	0	29	104	0	60	44625
2026-01-12 19:01:15.22	42.10	2.67	-46.6	-60.5	3.6	1.51e+00	0	29	104	0	60	38315
2026-01-12 19:01:18.25	41.83	2.82	-46.6	-60.4	3.6	1.51e+00	0	29	104	0	60	37658
2026-01-12 19:01:21.28	41.55	2.98	-45.3	-50.6	9.8	3.49e-02	0	29	0	3145728	60	12303
2026-01-12 19:01:24.31	41.28	3.13	-46.3	-55.4	4.7	1.51e+00	0	29	104	5242880	60	21377
2026-01-12 19:01:27.34	41.00	3.29	-46.5	-60.8	3.6	1.50e+00	0	29	104	7340032	60	39453
2026-01-12 19:01:30.37	40.71	3.44	-42.5	-44.9	16.0	0.00e+00	0	29	0	10485760	58	7151
2026-01-12 19:01:33.39	40.43	3.59	-42.0	-44.1	16.6	0.00e+00	0	29	0	15728640	58	6528
2026-01-12 19:01:36.42	40.14	3.75	-42.1	-44.3	16.6	0.00e+00	0	29	0	20971520	58	6627
2026-01-12 19:01:39.45	39.85	3.90	-41.8	-43.9	17.3	0.00e+00	0	29	0	27262976	56	7103
2026-01-12 19:01:42.48	39.55	4.06	-41.9	-44.0	17.1	0.00e+00	0	29	0	32505856	56	7207
2026-01-12 19:01:45.51	39.25	4.21	-41.8	-43.8	17.3	0.00e+00	0	29	0	38797312	56	7058
2026-01-12 19:01:48.53	38.95	4.37	-41.5	-43.4	17.7	0.00e+00	0	29	0	44040192	56	6768
2026-01-12 19:01:51.56	38.65	4.52	-41.3	-43.2	17.8	0.00e+00	0	29	0	50331648	56	6542
2026-01-12 19:01:54.59	38.34	4.68	-41.4	-43.3	18.0	0.00e+00	0	29	0	55574528	56	6627
2026-01-12 19:01:57.61	38.03	4.83	-41.4	-43.3	17.8	0.00e+00	0	29	0	60817408	56	6667
2026-01-12 19:02:00.65	37.71	4.99	-41.4	-43.2	18.0	0.00e+00	0	29	0	67108864	56	6596
2026-01-12 19:02:03.67	37.39	5.14	-41.4	-43.2	18.0	0.00e+00	0	29	0	72351744	56	6596
2026-01-12 19:02:06.70	37.07	5.30	-41.2	-42.9	18.2	0.00e+00	0	29	0	78643200	56	6370
2026-01-12 19:02:09.73	36.74	5.45	-41.0	-42.7	18.4	0.00e+00	0	29	0	83886080	56	6198
2026-01-12 19:02:12.76	36.42	5.61	-41.4	-43.3	18.1	0.00e+00	0	29	0	90177536	56	6621
2026-01-12 19:02:15.79	36.08	5.76	-41.5	-43.3	18.1	0.00e+00	0	29	0	95420416	56	6651
2026-01-12 19:02:18.82	35.74	5.92	-41.5	-43.4	18.1	0.00e+00	0	29	0	100663296	56	6725
2026-01-12 19:02:21.85	35.40	6.07	-41.2	-42.9	18.4	0.00e+00	0	29	0	106954752	56	6343
2026-01-12 19:02:24.87	35.06	6.23	-41.2	-42.9	18.4	0.00e+00	0	29	0	112197632	56	6356
2026-01-12 19:02:27.90	34.71	6.39	-40.5	-41.9	19.4	0.00e+00	0	29	0	118489088	54	6383
2026-01-12 19:02:30.93	34.36	6.54	-40.0	-41.4	19.7	0.00e+00	0	29	0	123731968	54	6020
2026-01-12 19:02:33.95	34.01	6.70	-40.2	-41.6	19.7	0.00e+00	0	29	0	128974848	54	6134
2026-01-12 19:02:36.98	33.65	6.85	-40.1	-41.5	19.6	0.00e+00	0	29	0	135266304	54	6071
2026-01-12 19:02:40.01	33.28	7.01	-40.0	-41.4	19.7	0.00e+00	0	29	0	140509184	54	6017
2026-01-12 19:02:43.04	32.91	7.16	-40.0	-41.5	19.7	0.00e+00	0	29	0	146800640	54	6060
2026-01-12 19:02:46.06	32.54	7.32	-40.0	-41.4	19.9	0.00e+00	0	29	0	152043520	54	5997
2026-01-12 19:02:49.09	32.17	7.47	-40.1	-41.5	19.9	0.00e+00	0	29	0	157286400	54	6074
2026-01-12 19:02:52.12	31.79	7.62	-40.2	-41.6	19.7	0.00e+00	0	29	0	163577856	54	6168
2026-01-12 19:02:55.15	31.40	7.78	-40.3	-41.8	19.6	0.00e+00	0	29	0	168820736	54	6267
2026-01-12 19:02:58.18	31.01	7.93	-40.3	-41.7	19.6	0.00e+00	0	29	0	175112192	54	6235
2026-01-12 19:03:01.21	30.62	8.08	-40.3	-41.7	19.7	0.00e+00	0	29	0	180355072	54	6231
2026-01-12 19:03:04.24	30.23	8.24	-40.0	-41.4	19.8	0.00e+00	0	29	0	185597952	54	5976
2026-01-12 19:03:07.27	29.82	8.39	-40.2	-41.6	19.8	0.00e+00	0	29	0	191889408	54	6152
2026-01-12 19:03:10.29	29.42	8.54	-39.8	-41.1	20.2	0.00e+00	0	29	0	197132288	52	6510
2026-01-12 19:03:13.32	29.01	8.69	-39.8	-41.1	20.3	0.00e+00	0	29	0	203423744	52	6494
2026-01-12 19:03:16.35	28.60	8.84	-40.0	-41.4	20.1	0.00e+00	0	29	0	208666624	52	6699
2026-01-12 19:03:19.38	28.18	9.00	-40.2	-41.6	19.8	0.00e+00	0	29	0	214958080	52	6915
2026-01-12 19:03:22.41	27.75	9.15	-40.4	-41.9	19.6	0.00e+00	0	29	0	220200960	52	7159
2026-01-12 19:03:25.43	27.33	9.29	-40.5	-42.0	19.4	0.00e+00	0	29	0	225443840	52	7215
2026-01-12 19:03:28.46	26.90	9.44	-40.2	-41.6	19.8	0.00e+00	0	29	0	231735296	52	6916
2026-01-12 19:03:31.49	26.46	9.59	-39.9	-41.2	20.2	0.00e+00	0	29	0	236978176	52	6609
2026-01-12 19:03:34.52	26.02	9.74	-39.6	-40.9	20.5	0.00e+00	0	29	0	243269632	52	6356
2026-01-12 19:03:37.54	25.58	9.88	-39.3	-40.5	20.9	0.00e+00	0	29	0	248512512	52	6083
2026-01-12 19:03:40.58	25.12	10.03	-39.2	-40.4	21.0	0.00e+00	0	29	0	253755392	52	6004
2026-01-12 19:03:43.61	24.67	10.17	-39.2	-40.4	20.9	0.00e+00	0	29	0	260046848	52	6023
2026-01-12 19:03:46.63	24.21	10.32	-38.6	-39.8	21.5	0.00e+00	0	29	0	265289728	50	6271
2026-01-12 19:03:49.66	23.75	10.46	-38.2	-39.2	22.1	0.00e+00	0	29	0	271581184	50	5877
2026-01-12 19:03:52.69	23.28	10.60	-38.1	-39.2	22.0	0.00e+00	0	29	0	276824064	50	5859
2026-01-12 19:03:55.72	22.81	10.74	-38.5	-39.7	21.6	0.00e+00	0	28	0	283115520	50	6201
2026-01-12 19:03:58.74	22.33	10.88	-38.7	-39.8	21.5	0.00e+00	0	29	0	288358400	50	6317
2026-01-12 19:04:01.77	21.85	11.02	-38.4	-39.5	21.6	0.00e+00	0	29	0	293601280	50	6103
2026-01-12 19:04:04.80	21.36	11.16	-38.2	-39.3	22.0	0.00e+00	0	28	0	299892736	50	5943
2026-01-12 19:04:07.82	20.87	11.29	-37.8	-38.8	22.3	0.00e+00	0	29	0	305135616	48	6290
2026-01-12 19:04:10.85	20.38	11.43	-37.3	-38.3	22.7	0.00e+00	0	29	0	311427072	48	5927
2026-01-12 19:04:13.88	19.87	11.56	-37.8	-38.9	22.3	0.00e+00	0	29	0	316669952	48	6319
2026-01-12 19:04:16.90	19.37	11.69	-37.5	-38.5	22.6	0.00e+00	0	29	0	321912832	48	6063
2026-01-12 19:04:19.93	18.86	11.82	-37.7	-38.8	22.4	0.00e+00	0	29	0	328204288	48	6261
2026-01-12 19:04:22.96	18.35	11.95	-37.0	-37.9	23.0	0.00e+00	0	29	0	333447168	48	5693
2026-01-12 19:04:25.99	17.83	12.08	-37.0	-37.9	23.1	0.00e+00	0	29	0	339738624	48	5692
2026-01-12 19:04:29.02	17.30	12.20	-37.2	-38.1	22.9	0.00e+00	0	29	0	344981504	48	5822
2026-01-12 19:04:32.04	16.78	12.33	-37.6	-38.6	22.5	0.00e+00	0	29	0	350224384	48	6144
2026-01-12 19:04:35.07	16.24	12.45	-38.0	-39.0	22.0	0.00e+00	0	29	0	356515840	48	6436
2026-01-12 19:04:38.10	15.71	12.57	-38.1	-39.2	22.1	0.00e+00	0	29	0	361758720	48	6572
2026-01-12 19:04:41.13	15.16	12.69	-38.1	-39.2	22.0	0.00e+00	0	29	0	368050176	48	6551
2026-01-12 19:04:44.15	14.62	12.80	-38.1	-39.2	22.0	0.00e+00	0	29	0	373293056	48	6566
2026-01-12 19:04:47.19	14.07	12.92	-38.3	-39.4	22.0	0.00e+00	0	28	0	379584512	48	6727
2026-01-12 19:04:50.22	13.51	13.03	-37.9	-39.0	22.3	0.00e+00	0	28	0	384827392	48	6409
2026-01-12 19:04:53.25	12.95	13.14	-37.3	-38.3	22.8	0.00e+00	0	28	0	390070272	48	5915
2026-01-12 19:04:56.28	12.39	13.25	-37.3	-38.3	22.8	0.00e+00	0	29	0	396361728	48	5903
2026-01-12 19:04:59.31	11.82	13.35	-37.7	-38.8	22.4	0.00e+00	0	28	0	401604608	48	6250
2026-01-12 19:05:02.33	11.25	13.46	-37.3	-38.2	22.8	0.00e+00	0	28	0	407896064	48	5886
2026-01-12 19:05:05.36	10.68	13.56	-37.6	-38.6	22.7	0.00e+00	0	29	0	413138944	48	6106
2026-01-12 19:05:08.39	10.10	13.65	-38.1	-39.2	22.1	0.00e+00	0	28	0	418381824	48	6561
2026-01-12 19:05:11.42	9.52	13.75	-38.3	-39.5	21.9	0.00e+00	0	28	0	424673280	48	6804
2026-01-12 19:05:14.45	8.93	13.84	-37.8	-38.9	22.4	0.00e+00	0	28	0	429916160	48	6321
2026-01-12 19:05:17.48	8.34	13.93	-36.8	-37.7	23.0	0.00e+00	0	28	0	436207616	48	5563
2026-01-12 19:05:20.51	7.75	14.02	-36.8	-37.7	23.3	0.00e+00	0	28	0	441450496	46	6187
2026-01-12 19:05:23.53	7.15	14.10	-36.8	-37.7	23.3	0.00e+00	0	28	0	447741952	46	6242
2026-01-12 19:05:26.56	6.55	14.19	-36.7	-37.6	23.4	0.00e+00	0	28	0	452984832	46	6124
2026-01-12 19:05:29.59	5.94	14.27	-36.6	-37.5	23.2	0.00e+00	0	28	0	458227712	46	6097
2026-01-12 19:05:32.62	5.34	14.34	-36.8	-37.7	23.3	0.00e+00	0	28	0	464519168	46	6199
2026-01-12 19:05:35.65	4.73	14.41	-38.0	-39.1	22.3	0.00e+00	0	28	0	469762048	48	6479
2026-01-12 19:05:38.68	4.11	14.48	-37.9	-38.9	22.4	0.00e+00	0	28	0	476053504	48	6363
2026-01-12 19:05:41.70	3.50	14.55	-37.8	-38.9	22.2	0.00e+00	0	28	0	481296384	48	6333
2026-01-12 19:05:44.73	2.88	14.61	-38.2	-39.3	22.1	0.00e+00	0	28	0	486539264	48	6644
2026-01-12 19:05:47.76	2.26	14.67	-37.6	-38.6	22.6	0.00e+00	0	28	0	492830720	48	6150
2026-01-12 19:05:50.79	1.63	14.73	-37.7	-38.7	22.6	0.00e+00	0	28	0	498073600	48	6216
2026-01-12 19:05:53.81	1.01	14.79	-37.2	-38.2	23.1	0.00e+00	0	28	0	504365056	48	5830
2026-01-12 19:05:56.84	0.38	14.84	-36.8	-37.7	23.3	0.00e+00	0	28	0	509607936	46	6180
2026-01-12 19:05:59.87	359.75	14.88	-37.1	-38.0	22.9	0.00e+00	0	28	0	515899392	46	6436
2026-01-12 19:06:02.90	359.11	14.93	-37.4	-38.4	22.8	0.00e+00	0	28	0	521142272	46	6696
2026-01-12 19:06:05.93	358.48	14.97	-37.3	-38.2	23.0	0.00e+00	0	28	0	526385152	46	6604
2026-01-12 19:06:08.96	357.84	15.00	-37.5	-38.5	22.8	0.00e+00	0	28	0	532676608	46	6804
2026-01-12 19:06:11.98	357.21	15.04	-37.5	-38.5	22.7	0.00e+00	0	28	0	537919488	46	6847
2026-01-12 19:06:15.01	356.57	15.07	-37.9	-38.9	22.4	0.00e+00	0	28	0	544210944	48	6352
2026-01-12 19:06:18.04	355.93	15.09	-37.8	-38.8	22.5	0.00e+00	0	28	0	549453824	48	6261
2026-01-12 19:06:21.07	355.29	15.12	-37.7	-38.7	22.6	0.00e+00	0	28	0	554696704	48	6236
2026-01-12 19:06:24.09	354.65	15.14	-37.6	-38.6	22.6	0.00e+00	0	28	0	560988160	48	6144
2026-01-12 19:06:27.11	354.00	15.15	-37.5	-38.5	22.6	0.00e+00	0	28	0	566231040	48	6075
2026-01-12 19:06:30.14	353.36	15.16	-37.4	-38.3	22.8	0.00e+00	0	28	0	572522496	48	5964
2026-01-12 19:06:33.17	352.72	15.17	-37.5	-38.5	22.6	0.00e+00	0	28	0	577765376	48	6095
2026-01-12 19:06:36.20	352.07	15.17	-38.0	-39.0	22.4	0.00e+00	0	28	0	583008256	48	6437
2026-01-12 19:06:39.23	351.43	15.18	-37.7	-38.8	22.6	0.00e+00	0	28	0	589299712	48	6256
2026-01-12 19:06:42.25	350.78	15.17	-37.2	-38.2	23.0	0.00e+00	0	28	0	594542592	48	5849
2026-01-12 19:06:45.28	350.14	15.17	-37.1	-38.1	23.1	0.00e+00	0	28	0	600834048	48	5768
2026-01-12 19:06:48.31	349.50	15.16	-37.6	-38.7	22.6	0.00e+00	0	28	0	606076928	48	6202
2026-01-12 19:06:51.34	348.85	15.14	-37.8	-38.8	22.5	0.00e+00	0	28	0	612368384	48	6283
2026-01-12 19:06:54.36	348.21	15.13	-37.9	-39.0	22.4	0.00e+00	0	28	0	617611264	48	6396
2026-01-12 19:06:57.39	347.57	15.10	-38.3	-39.4	21.8	0.00e+00	0	28	0	622854144	48	6752
2026-01-12 19:07:00.42	346.93	15.08	-38.4	-39.5	21.9	0.00e+00	0	28	0	629145600	48	6816
2026-01-12 19:07:03.45	346.29	15.05	-37.8	-38.8	22.4	0.00e+00	0	28	0	634388480	48	6282
2026-01-12 19:07:06.48	345.65	15.02	-37.2	-38.2	23.0	0.00e+00	0	28	0	640679936	48	5867
2026-01-12 19:07:09.50	345.01	14.99	-37.1	-38.1	23.0	0.00e+00	0	28	0	645922816	48	5771
2026-01-12 19:07:12.52	344.38	14.95	-37.6	-38.6	22.7	0.00e+00	0	28	0	651165696	48	6151
2026-01-12 19:07:15.55	343.75	14.90	-37.2	-38.2	22.9	0.00e+00	0	28	0	657457152	48	5864
2026-01-12 19:07:18.58	343.11	14.86	-36.5	-37.4	23.3	0.00e+00	0	28	0	662700032	46	6020
2026-01-12 19:07:21.61	342.48	14.81	-37.0	-37.9	23.0	0.00e+00	0	28	0	668991488	46	6376
2026-01-12 19:07:24.63	341.86	14.76	-37.1	-38.1	23.0	0.00e+00	0	28	0	674234368	46	6474
2026-01-12 19:07:27.66	341.23	14.70	-37.2	-38.2	22.8	0.00e+00	0	28	0	680525824	46	6601
2026-01-12 19:07:30.68	340.61	14.64	-37.6	-38.7	22.2	0.00e+00	0	28	0	685768704	46	6937
2026-01-12 19:07:33.71	339.99	14.58	-38.0	-39.1	22.3	0.00e+00	0	28	0	691011584	48	6531
2026-01-12 19:07:36.74	339.37	14.52	-38.0	-39.1	22.2	0.00e+00	0	28	0	697303040	48	6522
2026-01-12 19:07:39.77	338.76	14.45	-37.6	-38.7	22.6	0.00e+00	0	28	0	702545920	48	6184
2026-01-12 19:07:42.79	338.15	14.38	-37.1	-38.1	22.9	0.00e+00	0	28	0	708837376	48	5809
2026-01-12 19:07:45.82	337.54	14.30	-37.2	-38.2	22.9	0.00e+00	0	28	0	714080256	48	5859
2026-01-12 19:07:48.85	336.93	14.22	-37.3	-38.3	22.9	0.00e+00	0	28	0	719323136	48	5925
2026-01-12 19:07:51.87	336.33	14.14	-37.5	-38.5	22.7	0.00e+00	0	28	0	725614592	48	6051
2026-01-12 19:07:54.90	335.73	14.06	-38.0	-39.1	22.3	0.00e+00	0	28	0	730857472	48	6469
2026-01-12 19:07:57.93	335.14	13.98	-38.0	-39.1	22.3	0.00e+00	0	28	0	737148928	48	6510
2026-01-12 19:08:00.96	334.54	13.89	-38.1	-39.2	22.2	0.00e+00	0	28	0	742391808	48	6558
2026-01-12 19:08:03.99	333.96	13.79	-38.3	-39.4	22.1	0.00e+00	0	28	0	747634688	48	6713
2026-01-12 19:08:07.02	333.37	13.70	-38.0	-39.0	22.3	0.00e+00	0	28	0	753926144	48	6450
2026-01-12 19:08:10.04	332.79	13.60	-37.5	-38.4	22.7	0.00e+00	0	28	0	759169024	48	6030
2026-01-12 19:08:13.07	332.21	13.50	-37.4	-38.4	22.9	0.00e+00	0	28	0	765460480	48	5966
2026-01-12 19:08:16.10	331.64	13.40	-37.5	-38.5	22.7	0.00e+00	0	28	0	770703360	48	6078
2026-01-12 19:08:19.13	331.07	13.30	-37.3	-38.2	23.0	0.00e+00	0	28	0	776994816	48	5887
2026-01-12 19:08:22.16	330.51	13.19	-36.8	-37.7	23.3	0.00e+00	0	28	0	782237696	48	5522
2026-01-12 19:08:25.19	329.94	13.08	-37.0	-37.9	23.1	0.00e+00	0	28	0	787480576	48	5688
2026-01-12 19:08:28.21	329.39	12.97	-37.8	-38.8	22.6	0.00e+00	0	28	0	793772032	48	6272
2026-01-12 19:08:31.24	328.84	12.86	-37.9	-38.9	22.4	0.00e+00	0	28	0	799014912	48	6340
2026-01-12 19:08:34.27	328.29	12.74	-38.4	-39.4	22.0	0.00e+00	0	28	0	805306368	48	6769
2026-01-12 19:08:37.30	327.74	12.63	-38.3	-39.4	21.9	0.00e+00	0	28	0	810549248	48	6726
2026-01-12 19:08:40.33	327.20	12.51	-38.0	-39.0	22.3	0.00e+00	0	28	0	815792128	48	6454
2026-01-12 19:08:43.35	326.67	12.39	-38.2	-39.2	22.1	0.00e+00	0	28	0	822083584	48	6581
2026-01-12 19:08:46.38	326.14	12.26	-38.4	-39.5	21.9	0.00e+00	0	28	0	827326464	48	6792
2026-01-12 19:08:49.41	325.61	12.14	-38.4	-39.4	21.9	0.00e+00	0	28	0	833617920	48	6764
2026-01-12 19:08:52.44	325.09	12.01	-38.5	-39.6	21.8	0.00e+00	0	28	0	838860800	48	6864
2026-01-12 19:08:55.47	324.58	11.89	-38.7	-39.7	21.8	0.00e+00	0	28	0	845152256	48	6995
2026-01-12 19:08:58.50	324.06	11.76	-38.8	-39.8	21.6	0.00e+00	0	28	0	850395136	50	6303
2026-01-12 19:09:01.52	323.56	11.63	-38.3	-39.3	22.0	0.00e+00	0	28	0	855638016	50	5952
2026-01-12 19:09:04.55	323.05	11.49	-38.0	-39.0	22.4	0.00e+00	0	28	0	861929472	48	6421
2026-01-12 19:09:07.58	322.55	11.36	-38.9	-40.0	21.6	0.00e+00	0	28	0	867172352	50	6411
2026-01-12 19:09:10.61	322.06	11.22	-39.8	-41.1	20.6	0.00e+00	0	28	0	873463808	52	6473
2026-01-12 19:09:13.64	321.57	11.09	-39.9	-41.1	20.4	0.00e+00	0	28	0	878706688	52	6529
2026-01-12 19:09:16.67	321.09	10.95	-39.3	-40.4	21.1	0.00e+00	0	28	0	883949568	52	6023
2026-01-12 19:09:19.70	320.61	10.81	-39.5	-40.6	20.9	0.00e+00	0	28	0	890241024	52	6172
2026-01-12 19:09:22.72	320.13	10.67	-40.8	-42.3	19.6	0.00e+00	0	28	0	895483904	54	6627
2026-01-12 19:09:25.75	319.66	10.53	-42.2	-44.1	17.8	0.00e+00	0	28	0	901775360	56	7287
2026-01-12 19:09:28.77	319.20	10.39	-42.2	-44.0	18.0	0.00e+00	0	28	0	907018240	56	7244
2026-01-12 19:09:31.80	318.73	10.24	-41.5	-43.1	18.8	0.00e+00	0	28	0	913309696	56	6483
2026-01-12 19:09:34.83	318.28	10.10	-41.0	-42.5	19.4	0.00e+00	0	28	0	918552576	56	6057
2026-01-12 19:09:37.85	317.83	9.95	-40.4	-41.8	19.9	0.00e+00	0	28	0	923795456	54	6265
2026-01-12 19:09:40.88	317.38	9.81	-40.1	-41.4	20.4	0.00e+00	0	28	0	930086912	54	5968
2026-01-12 19:09:43.91	316.94	9.66	-40.0	-41.3	20.3	0.00e+00	0	28	0	935329792	54	5948
2026-01-12 19:09:46.94	316.50	9.51	-40.0	-41.2	20.3	0.00e+00	0	28	0	941621248	54	5889
2026-01-12 19:09:49.97	316.06	9.37	-39.6	-40.7	20.8	0.00e+00	0	28	0	946864128	52	6243
2026-01-12 19:09:53.00	315.63	9.22	-39.4	-40.6	21.0	0.00e+00	0	28	0	952107008	52	6114
2026-01-12 19:09:56.02	315.21	9.07	-39.2	-40.3	21.1	0.00e+00	0	28	0	958398464	52	5952
2026-01-12 19:09:59.05	314.79	8.92	-39.5	-40.6	20.9	0.00e+00	0	28	0	963641344	52	6164
2026-01-12 19:10:02.08	314.37	8.77	-39.4	-40.6	20.8	0.00e+00	0	28	0	969932800	52	6169
2026-01-12 19:10:05.11	313.96	8.61	-39.7	-40.9	20.6	0.00e+00	0	28	0	975175680	52	6372
2026-01-12 19:10:08.14	313.55	8.46	-39.6	-40.8	20.7	0.00e+00	0	28	0	980418560	52	6310
2026-01-12 19:10:11.17	313.15	8.31	-39.6	-40.8	20.7	0.00e+00	0	28	0	986710016	52	6305
2026-01-12 19:10:14.19	312.75	8.16	-39.3	-40.5	20.9	0.00e+00	0	28	0	991952896	52	6097
2026-01-12 19:10:17.22	312.35	8.01	-39.4	-40.6	20.9	0.00e+00	0	28	0	998244352	52	6116
2026-01-12 19:10:20.25	311.96	7.85	-38.8	-40.0	21.4	0.00e+00	0	28	0	1003487232	52	5700
2026-01-12 19:10:23.28	311.58	7.70	-38.5	-39.6	21.7	0.00e+00	0	28	0	1009778688	50	6137
2026-01-12 19:10:26.31	311.19	7.54	-38.0	-39.1	22.2	0.00e+00	0	28	0	1015021568	50	5772
2026-01-12 19:10:29.33	310.82	7.39	-38.2	-39.3	21.9	0.00e+00	0	28	0	1020264448	50	5927
2026-01-12 19:10:32.36	310.44	7.24	-38.3	-39.3	21.9	0.00e+00	0	28	0	1026555904	50	5957
2026-01-12 19:10:35.39	310.07	7.08	-38.2	-39.2	21.9	0.00e+00	0	28	0	1031798784	50	5893
2026-01-12 19:10:38.41	309.71	6.93	-38.0	-39.0	22.1	0.00e+00	0	28	0	1038090240	50	5722
2026-01-12 19:10:41.44	309.35	6.77	-38.0	-39.0	22.1	0.00e+00	0	28	0	1043333120	50	5741
2026-01-12 19:10:44.46	308.99	6.62	-38.3	-39.4	21.7	0.00e+00	0	28	0	1048576000	50	6016
2026-01-12 19:10:47.49	308.64	6.46	-38.4	-39.5	21.5	0.00e+00	0	28	0	1054867456	50	6042
2026-01-12 19:10:50.52	308.28	6.31	-38.8	-39.9	21.3	0.00e+00	0	28	0	1060110336	50	6382
2026-01-12 19:10:53.55	307.94	6.15	-38.9	-40.1	21.1	0.00e+00	0	28	0	1066401792	50	6513
2026-01-12 19:10:56.58	307.60	5.99	-39.0	-40.1	21.0	0.00e+00	0	28	0	1071644672	50	6536
2026-01-12 19:10:59.61	307.26	5.84	-39.1	-40.3	20.9	0.00e+00	0	28	0	1077936128	50	6650
2026-01-12 19:11:02.63	306.92	5.68	-39.2	-40.4	20.8	0.00e+00	0	28	0	1083179008	50	6727
2026-01-12 19:11:05.66	306.59	5.53	-38.9	-40.1	20.7	0.00e+00	0	28	0	1088421888	50	6499
2026-01-12 19:11:08.69	306.26	5.37	-38.7	-39.9	21.2	0.00e+00	0	28	0	1094713344	50	6323
2026-01-12 19:11:11.72	305.94	5.22	-38.7	-39.9	21.2	0.00e+00	0	28	0	1099956224	50	6337
2026-01-12 19:11:14.75	305.62	5.06	-38.7	-39.8	21.3	0.00e+00	0	28	0	1106247680	50	6310
2026-01-12 19:11:17.78	305.30	4.91	-39.3	-40.6	20.5	0.00e+00	0	28	0	1111490560	50	6883
2026-01-12 19:11:20.81	304.98	4.75	-39.9	-41.3	19.9	0.00e+00	0	28	0	1116733440	52	6641
2026-01-12 19:11:23.83	304.67	4.60	-40.1	-41.5	19.7	0.00e+00	0	28	0	1123024896	52	6796
2026-01-12 19:11:26.86	304.37	4.44	-39.7	-41.1	20.1	0.00e+00	0	28	0	1128267776	52	6490
2026-01-12 19:11:29.89	304.06	4.28	-39.3	-40.5	20.5	0.00e+00	0	28	0	1134559232	52	6093
2026-01-12 19:11:32.92	303.76	4.13	-39.3	-40.6	20.5	0.00e+00	0	28	0	1139802112	52	6155
2026-01-12 19:11:35.95	303.47	3.98	-39.4	-40.7	20.4	0.00e+00	0	28	0	1145044992	52	6179
2026-01-12 19:11:38.97	303.17	3.82	-39.0	-40.2	20.7	0.00e+00	0	28	0	1151336448	52	5862
2026-01-12 19:11:42.00	302.88	3.67	-39.3	-40.6	20.3	0.00e+00	0	28	0	1156579328	52	6104
2026-01-12 19:11:45.03	302.59	3.51	-39.6	-41.0	19.9	0.00e+00	0	28	0	1162870784	52	6422
2026-01-12 19:11:48.06	302.31	3.36	-40.2	-41.7	19.2	0.00e+00	0	28	0	1168113664	52	6990
2026-01-12 19:11:51.09	302.03	3.21	-40.7	-42.3	18.6	0.00e+00	0	28	0	1174405120	54	6678
2026-01-12 19:11:54.11	301.75	3.05	-40.9	-42.6	18.4	0.00e+00	0	28	0	1179648000	54	6869
2026-01-12 19:11:57.14	301.47	2.90	-48.1	-63.2	3.6	1.51e+00	0	28	104	1181745152	60	52160
2026-01-12 19:12:00.17	301.20	2.75	-48.5	-63.6	3.6	1.51e+00	0	28	104	1181745152	60	54993
2026-01-12 19:12:03.20	300.93	2.59	-48.5	-63.7	3.6	1.51e+00	0	28	104	1181745152	60	55472
2026-01-12 19:12:06.23	300.66	2.44	-47.5	-63.6	3.6	1.51e+00	0	28	104	1181745152	60	54880
2026-01-12 19:12:09.26	300.40	2.29	-48.4	-63.5	3.6	1.51e+00	0	28	104	1181745152	60	54165
2026-01-12 19:12:12.29	300.14	2.14	-48.4	-63.6	3.6	1.51e+00	0	28	104	1181745152	60	54768
2026-01-12 19:12:15.32	299.88	1.98	-48.4	-63.6	3.6	1.51e+00	0	28	104	1181745152	60	54789
2026-01-12 19:12:18.35	299.62	1.83	-48.4	-63.6	3.6	1.51e+00	0	28	104	1181745152	60	54547
2026-01-12 19:12:21.38	299.37	1.68	-48.4	-63.6	3.6	1.51e+00	0	28	104	1181745152	60	54545
2026-01-12 19:12:24.41	299.12	1.53	-48.4	-63.6	3.6	1.51e+00	0	28	104	1181745152	60	54565
2026-01-12 19:12:27.44	298.87	1.38	-48.4	-63.5	3.6	1.51e+00	0	28	104	1181745152	60	54131
2026-01-12 19:12:30.48	298.63	1.23	-48.4	-63.5	3.6	1.51e+00	0	28	104	1181745152	60	54350
2026-01-12 19:12:33.51	298.38	1.08	-48.4	-63.6	3.6	1.51e+00	0	28	104	1181745152	60	54564
2026-01-12 19:12:36.54	298.14	0.93	-48.4	-63.5	3.6	1.51e+00	0	28	104	1181745152	60	54327
2026-01-12 19:12:39.56	297.91	0.78	-48.5	-63.6	3.6	1.51e+00	0	28	104	1181745152	60	54655
2026-01-12 19:12:42.59	297.67	0.63	-48.4	-63.6	3.6	1.51e+00	0	28	104	1181745152	60	54705
2026-01-12 19:12:45.62	297.44	0.48	-48.4	-63.5	3.6	1.51e+00	0	28	104	1181745152	60	54173
2026-01-12 19:12:48.65	297.21	0.33	-48.4	-63.6	3.6	1.51e+00	0	28	104	1181745152	60	54443
2026-01-12 19:12:51.68	296.98	0.18	-48.4	-63.6	3.6	1.51e+00	0	28	104	1181745152	60	54489
2026-01-12 19:12:54.70	296.76	0.04	-48.4	-63.5	3.6	1.51e+00	0	28	104	1181745152	60	54294
2026-01-12 19:12:57.73	296.53	-0.11	-48.4	-63.6	3.6	1.51e+00	0	28	104	1181745152	60	54500

#Closed at: 2026-01-12 19:12:57
#Recorded file [1181 MB]: D:/lorett/data/35029_260113_070023.dat