passes_logs/2026/01/12/R4.6S_Anadyr/R4.6S_Anadyr__20260112_140032_SUOMI_NPP_rec.log

#Pass ID: 20260112_140032_SUOMI NPP
#Satellite: SUOMI NPP
#Configuration: NPP
#almurnet v.1.7.20251203
#Start time: 2026-01-12 14:00:34

#Version: 2.2.20231116
#Station: R4.6S_Anadyr
#Location: 177.4865 lon 64.73178 lat
#TLE: 1 37849U 11061A   26011.57971124  .00000103  00000+0  69927-4 0  9996
#TLE: 2 37849  98.7807 313.6578 0002518  69.5076 290.6370 14.19524515736228

#Time	Az	El	Level	Level2	SNR	BER	BlckErr	Temp	State	Recorded	gain1	gain2
2026-01-12 14:00:34.03	19.33	0.09	-48.3	-60.8	3.4	1.52e+00	0	25	0	0	60	38633
2026-01-12 14:00:38.06	19.44	0.33	-48.3	-63.6	3.6	1.51e+00	0	26	104	0	60	54792
2026-01-12 14:00:42.10	19.56	0.57	-48.3	-63.6	3.6	1.51e+00	0	26	104	0	60	54458
2026-01-12 14:00:46.14	19.67	0.81	-47.7	-63.1	3.6	1.51e+00	0	26	104	0	60	51498
2026-01-12 14:00:50.18	19.79	1.05	-46.9	-62.1	3.6	1.51e+00	0	26	104	0	60	46025
2026-01-12 14:00:54.22	19.91	1.30	-46.9	-62.1	3.6	1.51e+00	0	26	104	0	60	45778
2026-01-12 14:00:58.26	20.03	1.54	-46.9	-62.0	3.6	1.51e+00	0	26	104	0	60	45382
2026-01-12 14:01:02.30	20.15	1.79	-46.9	-62.0	3.6	1.51e+00	0	26	104	0	60	45583
2026-01-12 14:01:06.33	20.28	2.04	-46.9	-62.1	3.6	1.51e+00	0	26	104	0	60	45808
2026-01-12 14:01:10.37	20.40	2.29	-46.8	-61.4	3.6	1.51e+00	0	26	104	0	60	42660
2026-01-12 14:01:14.41	20.53	2.55	-46.8	-60.9	3.6	1.51e+00	0	26	104	0	60	40137
2026-01-12 14:01:18.45	20.66	2.80	-46.3	-54.0	6.2	5.63e-01	0	26	0	1048576	60	18174
2026-01-12 14:01:22.49	20.79	3.06	-42.3	-44.7	16.2	0.00e+00	0	26	0	8388608	58	6944
2026-01-12 14:01:26.52	20.93	3.32	-41.3	-43.2	17.7	0.00e+00	0	27	0	15728640	56	6551
2026-01-12 14:01:30.56	21.06	3.59	-43.5	-46.6	14.2	0.00e+00	0	26	0	24117248	58	8692
2026-01-12 14:01:34.60	21.20	3.85	-46.4	-55.8	3.7	0.00e+00	0	26	0	31457280	60	22167
2026-01-12 14:01:38.64	21.34	4.12	-41.5	-43.4	17.6	0.00e+00	0	27	0	34603008	56	6744
2026-01-12 14:01:42.67	21.48	4.39	-41.5	-43.4	17.5	0.00e+00	0	27	0	41943040	56	6752
2026-01-12 14:01:46.71	21.63	4.67	-41.5	-43.4	17.7	0.00e+00	0	27	0	50331648	56	6721
2026-01-12 14:01:50.75	21.78	4.94	-41.5	-43.4	17.8	0.00e+00	0	27	0	57671680	56	6724
2026-01-12 14:01:54.79	21.93	5.22	-41.2	-43.0	18.3	0.00e+00	0	27	0	65011712	56	6402
2026-01-12 14:01:58.83	22.08	5.51	-40.7	-42.3	18.8	0.00e+00	0	27	0	72351744	54	6626
2026-01-12 14:02:02.87	22.23	5.79	-40.2	-41.7	19.3	0.00e+00	0	27	0	79691776	54	6194
2026-01-12 14:02:06.91	22.39	6.08	-40.5	-42.0	19.2	0.00e+00	0	27	0	88080384	54	6422
2026-01-12 14:02:10.95	22.55	6.37	-40.2	-41.6	19.5	0.00e+00	0	27	0	95420416	54	6155
2026-01-12 14:02:14.99	22.71	6.66	-39.7	-41.1	20.0	0.00e+00	0	27	0	102760448	52	6475
2026-01-12 14:02:19.02	22.88	6.96	-39.6	-40.9	20.0	0.00e+00	0	27	0	110100480	52	6357
2026-01-12 14:02:23.06	23.05	7.26	-39.2	-40.4	20.7	0.00e+00	0	27	0	118489088	52	5983
2026-01-12 14:02:27.10	23.22	7.57	-39.2	-40.4	20.7	0.00e+00	0	27	0	125829120	52	6021
2026-01-12 14:02:31.14	23.40	7.88	-39.1	-40.3	20.8	0.00e+00	0	27	0	133169152	52	5954
2026-01-12 14:02:35.17	23.58	8.19	-38.9	-40.0	21.1	0.00e+00	0	27	0	140509184	52	5750
2026-01-12 14:02:39.21	23.76	8.50	-39.0	-40.1	21.1	0.00e+00	0	27	0	147849216	52	5821
2026-01-12 14:02:43.25	23.94	8.82	-38.8	-40.0	21.3	0.00e+00	0	27	0	156237824	50	6400
2026-01-12 14:02:47.29	24.13	9.14	-39.0	-40.1	21.1	0.00e+00	0	27	0	163577856	50	6517
2026-01-12 14:02:51.33	24.33	9.47	-38.8	-40.0	21.2	0.00e+00	0	27	0	170917888	50	6415
2026-01-12 14:02:55.38	24.53	9.80	-38.9	-40.1	21.1	0.00e+00	0	27	0	178257920	50	6492
2026-01-12 14:02:59.42	24.73	10.14	-38.8	-40.0	21.4	0.00e+00	0	27	0	186646528	50	6398
2026-01-12 14:03:03.46	24.93	10.48	-38.6	-39.7	21.6	0.00e+00	0	27	0	193986560	50	6239
2026-01-12 14:03:07.50	25.14	10.82	-38.6	-39.7	21.5	0.00e+00	0	27	0	201326592	50	6199
2026-01-12 14:03:11.54	25.36	11.17	-38.5	-39.6	21.8	0.00e+00	0	27	0	208666624	50	6132
2026-01-12 14:03:15.57	25.58	11.52	-38.5	-39.5	21.8	0.00e+00	0	27	0	216006656	50	6102
2026-01-12 14:03:19.62	25.80	11.88	-38.4	-39.4	21.9	0.00e+00	0	27	0	224395264	50	6021
2026-01-12 14:03:23.65	26.03	12.24	-38.1	-39.2	22.0	0.00e+00	0	27	0	231735296	50	5864
2026-01-12 14:03:27.69	26.27	12.61	-37.9	-38.9	22.3	0.00e+00	0	27	0	239075328	50	5685
2026-01-12 14:03:31.73	26.51	12.99	-37.7	-38.7	22.6	0.00e+00	0	27	0	246415360	48	6188
2026-01-12 14:03:35.77	26.76	13.37	-37.4	-38.3	22.8	0.00e+00	0	27	0	254803968	48	5953
2026-01-12 14:03:39.81	27.01	13.75	-37.2	-38.1	23.0	0.00e+00	0	27	0	262144000	48	5797
2026-01-12 14:03:43.84	27.27	14.14	-36.8	-37.7	23.3	0.00e+00	0	27	0	269484032	48	5543
2026-01-12 14:03:47.88	27.53	14.54	-36.8	-37.7	23.4	0.00e+00	0	27	0	276824064	46	6180
2026-01-12 14:03:51.92	27.80	14.94	-36.6	-37.5	23.5	0.00e+00	0	27	0	284164096	46	6090
2026-01-12 14:03:55.95	28.08	15.35	-36.6	-37.5	23.6	0.00e+00	0	27	0	292552704	46	6041
2026-01-12 14:04:00.00	28.37	15.76	-36.6	-37.5	23.6	0.00e+00	0	27	0	299892736	46	6046
2026-01-12 14:04:04.04	28.66	16.18	-36.7	-37.6	23.5	0.00e+00	0	27	0	307232768	46	6137
2026-01-12 14:04:08.08	28.96	16.61	-36.6	-37.5	23.5	0.00e+00	0	27	0	314572800	46	6098
2026-01-12 14:04:12.11	29.27	17.04	-36.4	-37.3	23.8	0.00e+00	0	27	0	322961408	46	5928
2026-01-12 14:04:16.15	29.59	17.49	-36.2	-37.0	23.9	0.00e+00	0	27	0	330301440	46	5745
2026-01-12 14:04:20.19	29.92	17.94	-36.2	-37.1	23.9	0.00e+00	0	27	0	337641472	46	5793
2026-01-12 14:04:24.22	30.25	18.39	-36.7	-37.7	23.4	0.00e+00	0	27	0	344981504	46	6179
2026-01-12 14:04:28.26	30.60	18.86	-36.8	-37.8	23.5	0.00e+00	0	27	0	352321536	46	6251
2026-01-12 14:04:32.30	30.96	19.33	-36.4	-37.3	23.9	0.00e+00	0	27	0	360710144	46	5924
2026-01-12 14:04:36.34	31.33	19.81	-36.2	-37.1	23.9	0.00e+00	0	27	0	368050176	46	5801
2026-01-12 14:04:40.37	31.70	20.30	-36.0	-36.8	24.1	0.00e+00	0	27	0	375390208	46	5625
2026-01-12 14:04:44.41	32.09	20.80	-36.0	-36.8	24.2	0.00e+00	0	27	0	382730240	46	5623
2026-01-12 14:04:48.45	32.50	21.30	-35.9	-36.8	24.3	0.00e+00	0	27	0	391118848	44	6268
2026-01-12 14:04:52.48	32.91	21.82	-36.2	-37.0	24.0	0.00e+00	0	27	0	398458880	44	6446
2026-01-12 14:04:56.52	33.34	22.34	-36.2	-37.0	24.2	0.00e+00	0	27	0	405798912	44	6450
2026-01-12 14:05:00.56	33.78	22.88	-36.1	-37.0	24.1	0.00e+00	0	27	0	413138944	44	6408
2026-01-12 14:05:04.60	34.24	23.42	-36.2	-37.1	23.9	0.00e+00	0	27	0	420478976	44	6470
2026-01-12 14:05:08.64	34.72	23.97	-36.5	-37.4	23.7	0.00e+00	0	27	0	428867584	44	6705
2026-01-12 14:05:12.68	35.21	24.54	-36.4	-37.3	23.9	0.00e+00	0	27	0	436207616	46	5935
2026-01-12 14:05:16.72	35.71	25.11	-36.9	-37.8	23.5	0.00e+00	0	27	0	443547648	46	6280
2026-01-12 14:05:20.76	36.24	25.69	-36.8	-37.7	23.6	0.00e+00	0	27	0	450887680	46	6204
2026-01-12 14:05:24.80	36.79	26.29	-37.0	-38.0	23.3	0.00e+00	0	27	0	459276288	46	6404
2026-01-12 14:05:28.84	37.35	26.90	-37.4	-38.4	23.3	0.00e+00	0	27	0	466616320	46	6709
2026-01-12 14:05:32.88	37.94	27.51	-37.2	-38.1	23.3	0.00e+00	0	27	0	473956352	46	6482
2026-01-12 14:05:36.92	38.55	28.14	-37.6	-38.5	22.9	0.00e+00	0	27	0	481296384	48	6072
2026-01-12 14:05:40.96	39.18	28.78	-38.7	-39.8	21.9	0.00e+00	0	27	0	488636416	48	7015
2026-01-12 14:05:45.00	39.84	29.43	-39.6	-40.8	21.2	0.00e+00	0	27	0	497025024	52	6278
2026-01-12 14:05:49.04	40.53	30.09	-39.6	-40.8	21.1	0.00e+00	0	27	0	504365056	52	6277
2026-01-12 14:05:53.07	41.24	30.76	-39.3	-40.5	21.5	0.00e+00	0	27	0	511705088	52	6043
2026-01-12 14:05:57.11	41.98	31.44	-38.7	-39.8	22.0	0.00e+00	0	27	0	519045120	52	5576
2026-01-12 14:06:01.15	42.76	32.13	-38.1	-39.1	22.6	0.00e+00	0	27	0	527433728	50	5769
2026-01-12 14:06:05.19	43.56	32.84	-38.5	-39.5	22.1	0.00e+00	0	27	0	534773760	50	6093
2026-01-12 14:06:09.23	44.41	33.55	-37.7	-38.7	23.0	0.00e+00	0	27	0	542113792	48	6182
2026-01-12 14:06:13.27	45.29	34.28	-37.3	-38.2	23.3	0.00e+00	0	27	0	549453824	48	5876
2026-01-12 14:06:17.30	46.20	35.01	-37.7	-38.6	22.9	0.00e+00	0	27	0	556793856	48	6159
2026-01-12 14:06:21.34	47.17	35.75	-37.7	-38.7	22.9	0.00e+00	0	27	0	565182464	48	6181
2026-01-12 14:06:25.38	48.17	36.50	-37.0	-37.8	23.5	0.00e+00	0	27	0	572522496	46	6315
2026-01-12 14:06:29.42	49.22	37.26	-37.2	-38.1	23.6	0.00e+00	0	27	0	579862528	46	6482
2026-01-12 14:06:33.45	50.32	38.03	-36.6	-37.4	24.1	0.00e+00	0	27	0	587202560	46	6030
2026-01-12 14:06:37.49	51.48	38.80	-36.6	-37.5	23.8	0.00e+00	0	27	0	595591168	46	6088
2026-01-12 14:06:41.53	52.69	39.58	-37.4	-38.4	23.2	0.00e+00	0	27	0	602931200	46	6702
2026-01-12 14:06:45.57	53.96	40.35	-37.4	-38.3	23.4	0.00e+00	0	27	0	610271232	46	6643
2026-01-12 14:06:49.60	55.28	41.13	-36.9	-37.8	23.5	0.00e+00	0	27	0	617611264	46	6252
2026-01-12 14:06:53.64	56.68	41.91	-37.8	-38.8	22.9	0.00e+00	0	27	0	624951296	48	6292
2026-01-12 14:06:57.68	58.14	42.69	-37.2	-38.1	23.3	0.00e+00	0	27	0	633339904	48	5818
2026-01-12 14:07:01.72	59.67	43.46	-36.7	-37.6	23.8	0.00e+00	0	27	0	640679936	46	6127
2026-01-12 14:07:05.76	61.28	44.22	-37.0	-38.0	23.4	0.00e+00	0	27	0	648019968	46	6399
2026-01-12 14:07:09.80	62.97	44.97	-37.8	-38.8	22.7	0.00e+00	0	27	0	655360000	48	6257
2026-01-12 14:07:13.83	64.73	45.71	-38.7	-39.9	22.1	0.00e+00	0	27	0	663748608	50	6323
2026-01-12 14:07:17.87	66.58	46.43	-37.6	-38.6	22.8	0.00e+00	0	27	0	671088640	48	6147
2026-01-12 14:07:21.90	68.51	47.13	-36.7	-37.6	23.6	0.00e+00	0	27	0	678428672	46	6147
2026-01-12 14:07:25.95	70.53	47.81	-36.5	-37.3	23.8	0.00e+00	0	27	0	685768704	46	5944
2026-01-12 14:07:29.98	72.63	48.45	-36.8	-37.7	23.6	0.00e+00	0	27	0	693108736	46	6238
2026-01-12 14:07:34.02	74.83	49.06	-37.2	-38.2	23.2	0.00e+00	0	27	0	701497344	46	6549
2026-01-12 14:07:38.06	77.11	49.64	-37.3	-38.2	23.1	0.00e+00	0	27	0	708837376	46	6592
2026-01-12 14:07:42.10	79.47	50.17	-37.8	-38.8	22.6	0.00e+00	0	27	0	716177408	48	6262
2026-01-12 14:07:46.14	81.91	50.66	-39.1	-40.3	21.4	0.00e+00	0	27	0	723517440	50	6647
2026-01-12 14:07:50.18	84.43	51.09	-38.2	-39.3	22.5	0.00e+00	0	27	0	731906048	50	5907
2026-01-12 14:07:54.21	87.01	51.47	-36.9	-37.8	23.5	0.00e+00	0	27	0	739246080	46	6271
2026-01-12 14:07:58.25	89.66	51.79	-36.9	-37.8	23.5	0.00e+00	0	27	0	746586112	46	6288
2026-01-12 14:08:02.29	92.36	52.05	-37.2	-38.2	23.3	0.00e+00	0	27	0	753926144	46	6546
2026-01-12 14:08:06.33	95.11	52.25	-36.7	-37.6	23.5	0.00e+00	0	27	0	761266176	44	6899
2026-01-12 14:08:10.37	97.88	52.37	-37.7	-38.7	22.8	0.00e+00	0	27	0	769654784	46	6937
2026-01-12 14:08:14.41	100.67	52.43	-37.7	-38.7	22.7	0.00e+00	0	27	0	776994816	46	6936
2026-01-12 14:08:18.44	103.46	52.42	-37.6	-38.6	22.8	0.00e+00	0	27	0	784334848	46	6880
2026-01-12 14:08:22.48	106.25	52.35	-37.0	-37.9	23.5	0.00e+00	0	27	0	791674880	48	5643
2026-01-12 14:08:26.52	109.02	52.20	-36.3	-37.3	23.9	0.00e+00	0	27	0	800063488	44	6617
2026-01-12 14:08:30.55	111.75	51.99	-35.8	-36.7	24.4	0.00e+00	0	27	0	807403520	44	6174
2026-01-12 14:08:34.58	114.43	51.71	-36.3	-37.2	23.9	0.00e+00	0	27	0	814743552	44	6593
2026-01-12 14:08:38.62	117.07	51.38	-37.1	-38.1	23.3	0.00e+00	0	27	0	822083584	46	6499
2026-01-12 14:08:42.65	119.63	50.98	-36.1	-37.0	24.1	0.00e+00	0	27	0	829423616	46	5727
2026-01-12 14:08:46.69	122.14	50.53	-35.7	-36.6	24.5	0.00e+00	0	27	0	837812224	44	6119
2026-01-12 14:08:50.73	124.56	50.03	-37.1	-38.0	23.4	0.00e+00	0	27	0	845152256	46	6429
2026-01-12 14:08:54.77	126.91	49.49	-36.9	-37.8	23.6	0.00e+00	0	27	0	852492288	46	6271
2026-01-12 14:08:58.81	129.17	48.90	-37.2	-38.1	23.3	0.00e+00	0	27	0	859832320	46	6488
2026-01-12 14:09:02.84	131.34	48.28	-36.1	-37.0	24.1	0.00e+00	0	27	0	868220928	44	6418
2026-01-12 14:09:06.88	133.43	47.62	-39.3	-40.5	21.3	0.00e+00	0	27	0	875560960	50	6810
2026-01-12 14:09:10.92	135.43	46.94	-40.8	-42.2	19.6	0.00e+00	0	27	0	882900992	52	7419
2026-01-12 14:09:14.96	137.34	46.23	-40.3	-41.6	20.3	0.00e+00	0	27	0	890241024	54	6123
2026-01-12 14:09:19.00	139.17	45.50	-40.4	-41.8	20.2	0.00e+00	0	27	0	897581056	54	6316
2026-01-12 14:09:23.04	140.92	44.76	-42.2	-44.1	18.2	0.00e+00	0	27	0	905969664	56	7283
2026-01-12 14:09:27.08	142.59	44.00	-42.2	-44.0	18.1	0.00e+00	0	27	0	913309696	56	7252
2026-01-12 14:09:31.12	144.18	43.23	-42.0	-43.9	18.2	0.00e+00	0	27	0	920649728	56	7101
2026-01-12 14:09:35.16	145.69	42.45	-41.5	-43.2	19.0	0.00e+00	0	27	0	927989760	58	5846
2026-01-12 14:09:39.19	147.14	41.68	-41.6	-43.3	18.7	0.00e+00	0	27	0	936378368	54	7488
2026-01-12 14:09:43.23	148.52	40.89	-38.9	-39.9	21.9	0.00e+00	0	27	0	943718400	52	5683
2026-01-12 14:09:47.27	149.83	40.11	-40.9	-42.4	19.9	0.00e+00	0	27	0	951058432	54	6756
2026-01-12 14:09:51.30	151.08	39.33	-38.2	-39.2	22.3	0.00e+00	0	27	0	958398464	48	6554
2026-01-12 14:09:55.34	152.28	38.55	-40.1	-41.4	20.6	0.00e+00	0	27	0	965738496	54	6009
2026-01-12 14:09:59.38	153.42	37.78	-38.2	-39.2	22.3	0.00e+00	0	27	0	974127104	48	6588
2026-01-12 14:10:03.42	154.51	37.01	-37.9	-38.9	22.9	0.00e+00	0	27	0	981467136	50	5658
2026-01-12 14:10:07.46	155.55	36.25	-36.6	-37.5	23.7	0.00e+00	0	27	0	988807168	46	6060
2026-01-12 14:10:11.50	156.55	35.50	-37.5	-38.4	23.0	0.00e+00	0	27	0	996147200	48	6014
2026-01-12 14:10:15.55	157.50	34.75	-38.0	-39.0	22.5	0.00e+00	0	27	0	1004535808	48	6410
2026-01-12 14:10:19.59	158.41	34.02	-41.3	-42.9	19.3	0.00e+00	0	27	0	1011875840	54	7143
2026-01-12 14:10:23.62	159.28	33.29	-39.0	-40.1	21.7	0.00e+00	0	27	0	1019215872	52	5798
2026-01-12 14:10:27.67	160.11	32.58	-38.4	-39.4	22.2	0.00e+00	0	27	0	1026555904	48	6743
2026-01-12 14:10:31.71	160.91	31.87	-40.2	-41.6	20.3	0.00e+00	0	27	0	1033895936	52	6850
2026-01-12 14:10:35.75	161.68	31.18	-38.3	-39.3	22.3	0.00e+00	0	27	0	1042284544	50	5939
2026-01-12 14:10:39.79	162.41	30.50	-37.2	-38.0	23.3	0.00e+00	0	27	0	1049624576	48	5756
2026-01-12 14:10:43.82	163.12	29.83	-40.2	-41.5	20.4	0.00e+00	0	27	0	1056964608	52	6804
2026-01-12 14:10:47.86	163.80	29.17	-40.4	-41.8	20.2	0.00e+00	0	27	0	1064304640	54	6263
2026-01-12 14:10:51.90	164.45	28.52	-37.4	-38.3	23.1	0.00e+00	0	27	0	1072693248	48	5934
2026-01-12 14:10:55.94	165.07	27.88	-37.7	-38.7	22.6	0.00e+00	0	27	0	1080033280	48	6212
2026-01-12 14:10:59.97	165.68	27.25	-38.6	-39.8	21.9	0.00e+00	0	27	0	1087373312	50	6261
2026-01-12 14:11:04.01	166.26	26.64	-36.5	-37.4	23.9	0.00e+00	0	27	0	1094713344	46	5990
2026-01-12 14:11:08.05	166.82	26.03	-37.1	-38.0	23.2	0.00e+00	0	27	0	1102053376	46	6425
2026-01-12 14:11:12.09	167.36	25.44	-40.0	-41.3	20.6	0.00e+00	0	27	0	1110441984	52	6683
2026-01-12 14:11:16.13	167.88	24.85	-41.4	-43.1	19.1	0.00e+00	0	27	0	1117782016	54	7292
2026-01-12 14:11:20.17	168.38	24.28	-38.7	-39.8	21.8	0.00e+00	0	27	0	1125122048	52	5617
2026-01-12 14:11:24.21	168.86	23.72	-36.9	-37.8	23.4	0.00e+00	0	27	0	1132462080	48	5613
2026-01-12 14:11:28.24	169.33	23.17	-37.2	-38.1	23.1	0.00e+00	0	27	0	1140850688	48	5800
2026-01-12 14:11:32.28	169.78	22.62	-38.1	-39.1	22.4	0.00e+00	0	27	0	1148190720	48	6521
2026-01-12 14:11:36.32	170.22	22.09	-38.3	-39.4	22.1	0.00e+00	0	27	0	1155530752	48	6743
2026-01-12 14:11:40.35	170.64	21.57	-37.6	-38.6	22.7	0.00e+00	0	27	0	1162870784	48	6156
2026-01-12 14:11:44.39	171.06	21.05	-37.7	-38.7	22.6	0.00e+00	0	27	0	1170210816	48	6207
2026-01-12 14:11:48.43	171.45	20.54	-37.2	-38.1	23.2	0.00e+00	0	27	0	1178599424	48	5821
2026-01-12 14:11:52.47	171.84	20.05	-36.8	-37.8	23.4	0.00e+00	0	27	0	1185939456	48	5576
2026-01-12 14:11:56.51	172.21	19.56	-36.8	-37.8	23.3	0.00e+00	0	27	0	1193279488	46	6285
2026-01-12 14:12:00.55	172.58	19.08	-36.7	-37.7	23.5	0.00e+00	0	27	0	1200619520	46	6187
2026-01-12 14:12:04.58	172.93	18.61	-36.8	-37.7	23.5	0.00e+00	0	27	0	1207959552	46	6185
2026-01-12 14:12:08.63	173.27	18.14	-37.0	-37.9	23.2	0.00e+00	0	27	0	1216348160	46	6343
2026-01-12 14:12:12.66	173.60	17.69	-37.6	-38.6	22.8	0.00e+00	0	27	0	1223688192	46	6866
2026-01-12 14:12:16.70	173.92	17.24	-37.8	-38.8	22.5	0.00e+00	0	27	0	1231028224	48	6306
2026-01-12 14:12:20.74	174.24	16.79	-38.0	-39.1	22.3	0.00e+00	0	27	0	1238368256	48	6515
2026-01-12 14:12:24.78	174.54	16.36	-38.0	-39.1	22.2	0.00e+00	0	27	0	1246756864	48	6475
2026-01-12 14:12:28.81	174.84	15.93	-38.0	-39.1	22.4	0.00e+00	0	27	0	1254096896	48	6492
2026-01-12 14:12:32.86	175.13	15.51	-37.6	-38.6	22.7	0.00e+00	0	27	0	1261436928	48	6123
2026-01-12 14:12:36.89	175.41	15.10	-37.5	-38.4	22.8	0.00e+00	0	27	0	1268776960	48	6031
2026-01-12 14:12:40.93	175.69	14.69	-36.9	-37.8	23.3	0.00e+00	0	27	0	1276116992	48	5622
2026-01-12 14:12:44.97	175.95	14.29	-36.8	-37.7	23.4	0.00e+00	0	27	0	1284505600	46	6195
2026-01-12 14:12:49.01	176.22	13.89	-36.8	-37.7	23.3	0.00e+00	0	27	0	1291845632	46	6235
2026-01-12 14:12:53.05	176.47	13.50	-37.0	-37.9	23.2	0.00e+00	0	27	0	1299185664	46	6341
2026-01-12 14:12:57.08	176.72	13.12	-37.1	-38.0	23.1	0.00e+00	0	27	0	1306525696	46	6449
2026-01-12 14:13:01.12	176.96	12.74	-37.3	-38.2	22.8	0.00e+00	0	27	0	1314914304	46	6599
2026-01-12 14:13:05.16	177.20	12.37	-37.2	-38.1	23.0	0.00e+00	0	27	0	1322254336	46	6523
2026-01-12 14:13:09.20	177.43	12.00	-37.1	-38.0	23.0	0.00e+00	0	27	0	1329594368	46	6449
2026-01-12 14:13:13.24	177.65	11.63	-37.0	-38.0	23.0	0.00e+00	0	27	0	1336934400	46	6407
2026-01-12 14:13:17.28	177.87	11.28	-36.7	-37.6	23.3	0.00e+00	0	27	0	1344274432	46	6114
2026-01-12 14:13:21.32	178.09	10.92	-36.9	-37.8	23.0	0.00e+00	0	27	0	1352663040	46	6294
2026-01-12 14:13:25.36	178.30	10.57	-37.0	-38.0	22.9	0.00e+00	0	27	0	1360003072	46	6396
2026-01-12 14:13:29.40	178.51	10.23	-37.2	-38.2	22.7	0.00e+00	0	27	0	1367343104	46	6573
2026-01-12 14:13:33.44	178.71	9.89	-37.4	-38.4	22.6	0.00e+00	0	27	0	1374683136	46	6719
2026-01-12 14:13:37.48	178.91	9.55	-37.8	-38.8	22.2	0.00e+00	0	27	0	1383071744	48	6300
2026-01-12 14:13:41.52	179.10	9.22	-38.0	-39.1	22.0	0.00e+00	0	27	0	1390411776	48	6506
2026-01-12 14:13:45.56	179.29	8.90	-38.7	-39.8	21.3	0.00e+00	0	27	0	1397751808	48	7045
2026-01-12 14:13:49.60	179.48	8.57	-39.0	-40.2	21.0	0.00e+00	0	27	0	1405091840	50	6544
2026-01-12 14:13:53.64	179.66	8.25	-39.1	-40.3	20.6	0.00e+00	0	27	0	1412431872	50	6667
2026-01-12 14:13:57.68	179.84	7.94	-39.2	-40.5	20.6	0.00e+00	0	27	0	1420820480	50	6770
2026-01-12 14:14:01.70	180.01	7.63	-39.5	-40.8	20.4	0.00e+00	0	27	0	1428160512	50	7030
2026-01-12 14:14:05.74	180.18	7.32	-39.7	-41.0	20.2	0.00e+00	0	27	0	1435500544	52	6455
2026-01-12 14:14:09.78	180.35	7.02	-39.7	-41.1	20.2	0.00e+00	0	27	0	1442840576	52	6492
2026-01-12 14:14:13.82	180.52	6.72	-39.6	-40.9	20.4	0.00e+00	0	27	0	1451229184	52	6345
2026-01-12 14:14:17.86	180.68	6.42	-39.7	-41.0	20.3	0.00e+00	0	27	0	1458569216	52	6461
2026-01-12 14:14:21.90	180.84	6.12	-39.4	-40.7	20.5	0.00e+00	0	27	0	1465909248	52	6177
2026-01-12 14:14:25.94	180.99	5.83	-39.4	-40.7	20.3	0.00e+00	0	27	0	1473249280	52	6201
2026-01-12 14:14:29.97	181.15	5.54	-39.8	-41.2	19.9	0.00e+00	0	27	0	1480589312	52	6572
2026-01-12 14:14:34.01	181.30	5.26	-39.5	-40.7	20.2	0.00e+00	0	27	0	1488977920	52	6239
2026-01-12 14:14:38.06	181.44	4.98	-40.0	-41.4	19.8	0.00e+00	0	27	0	1496317952	52	6750
2026-01-12 14:14:42.10	181.59	4.70	-39.7	-41.1	19.8	0.00e+00	0	27	0	1503657984	52	6493
2026-01-12 14:14:46.14	181.73	4.42	-39.8	-41.1	19.9	0.00e+00	0	27	0	1510998016	52	6532
2026-01-12 14:14:50.18	181.87	4.14	-40.0	-41.5	19.7	0.00e+00	0	27	0	1519386624	52	6780
2026-01-12 14:14:54.22	182.01	3.87	-39.7	-41.0	20.0	0.00e+00	0	27	0	1526726656	52	6454
2026-01-12 14:14:58.26	182.15	3.60	-40.0	-41.4	19.4	0.00e+00	0	27	0	1534066688	52	6737
2026-01-12 14:15:02.30	182.28	3.34	-40.2	-41.7	19.1	0.00e+00	0	27	0	1541406720	52	6978
2026-01-12 14:15:06.34	182.41	3.07	-40.9	-42.6	17.9	0.00e+00	0	27	0	1548746752	54	6883
2026-01-12 14:15:10.38	182.54	2.81	-48.0	-63.2	3.6	1.51e+00	0	27	104	1550843904	60	52524
2026-01-12 14:15:14.42	182.67	2.55	-48.3	-63.5	3.6	1.51e+00	0	27	104	1550843904	60	54146
2026-01-12 14:15:18.46	182.79	2.30	-48.2	-63.5	3.6	1.51e+00	0	27	104	1550843904	60	53970
2026-01-12 14:15:22.50	182.92	2.04	-48.3	-63.4	3.6	1.51e+00	0	27	104	1550843904	60	53661
2026-01-12 14:15:26.54	183.04	1.79	-48.4	-63.5	3.6	1.51e+00	0	27	104	1550843904	60	54086
2026-01-12 14:15:30.58	183.16	1.54	-48.2	-63.4	3.6	1.51e+00	0	27	104	1550843904	60	53549
2026-01-12 14:15:34.62	183.28	1.29	-48.3	-63.4	3.6	1.51e+00	0	27	104	1550843904	60	53656
2026-01-12 14:15:38.66	183.39	1.04	-48.3	-63.4	3.6	1.51e+00	0	27	104	1550843904	60	53491
2026-01-12 14:15:42.70	183.51	0.80	-48.3	-63.5	3.6	1.51e+00	0	27	104	1550843904	60	54050
2026-01-12 14:15:46.74	183.62	0.56	-48.2	-63.4	3.6	1.51e+00	0	27	104	1550843904	60	53368
2026-01-12 14:15:50.78	183.73	0.32	-48.2	-63.4	3.6	1.51e+00	0	27	104	1550843904	60	53499
2026-01-12 14:15:54.82	183.84	0.08	-48.3	-63.5	3.6	1.51e+00	0	27	104	1550843904	60	53953

#Closed at: 2026-01-12 14:15:57
#Recorded file [1550 MB]: D:/lorett/data/35029_260113_020034.dat