passes_logs/2026/01/12/R4.6S_Anadyr/R4.6S_Anadyr__20260112_164024_FENGYUN_3D_rec.log

#Pass ID: 20260112_164024_FENGYUN 3D
#Satellite: FENGYUN 3D
#Configuration: FENGYUN 3D
#almurnet v.1.7.20251203
#Start time: 2026-01-12 16:40:25

#Version: 2.2.20231116
#Station: R4.6S_Anadyr
#Location: 177.4865 lon 64.73178 lat
#TLE: 1 43010U 17072A   26011.62066612  .00000104  00000+0  70810-4 0  9998
#TLE: 2 43010  98.9935 343.3846 0002223 114.2890 245.8518 14.19694405422776

#Time	Az	El	Level	Level2	SNR	BER	BlckErr	Temp	State	Recorded	gain1	gain2
2026-01-12 16:40:25.42	20.79	0.04	-48.4	-63.4	3.5	1.51e+00	0	25	0	0	60	53171
2026-01-12 16:40:29.45	20.83	0.28	-48.4	-60.5	3.6	8.45e-01	0	26	104	0	60	38454
2026-01-12 16:40:33.49	20.86	0.52	-48.3	-60.4	3.6	8.44e-01	0	26	104	0	60	37954
2026-01-12 16:40:37.53	20.90	0.77	-47.8	-59.9	3.6	8.45e-01	0	26	104	0	60	35887
2026-01-12 16:40:41.56	20.93	1.01	-46.8	-58.6	3.6	8.44e-01	0	26	104	0	60	30663
2026-01-12 16:40:45.60	20.97	1.26	-46.7	-58.5	3.6	8.47e-01	0	26	104	0	60	30559
2026-01-12 16:40:49.64	21.01	1.52	-46.7	-58.6	3.6	8.45e-01	0	27	104	0	60	30853
2026-01-12 16:40:53.67	21.04	1.77	-46.8	-58.8	3.6	8.45e-01	0	26	104	0	60	31453
2026-01-12 16:40:57.71	21.08	2.03	-46.7	-58.8	3.6	8.44e-01	0	27	104	0	60	31503
2026-01-12 16:41:01.75	21.12	2.28	-46.5	-56.2	3.6	8.43e-01	0	27	104	0	60	23411
2026-01-12 16:41:05.79	21.15	2.54	-46.3	-53.4	4.0	8.23e-01	0	27	0	0	60	16969
2026-01-12 16:41:09.83	21.19	2.81	-44.2	-47.5	10.0	4.79e-02	0	27	0	8388608	60	8604
2026-01-12 16:41:13.87	21.23	3.07	-39.4	-40.6	17.3	0.00e+00	0	27	0	31457280	52	6164
2026-01-12 16:41:17.91	21.27	3.34	-37.6	-38.7	19.1	0.00e+00	0	27	0	54525952	48	6179
2026-01-12 16:41:21.95	21.31	3.61	-40.5	-42.0	15.9	0.00e+00	0	27	0	77594624	52	7192
2026-01-12 16:41:25.99	21.35	3.89	-46.7	-57.7	3.6	4.19e-01	0	27	104	98566144	60	27804
2026-01-12 16:41:30.03	21.39	4.16	-37.9	-39.0	19.1	0.00e+00	0	27	0	103809024	48	6392
2026-01-12 16:41:34.07	21.43	4.44	-35.9	-36.7	21.3	0.00e+00	0	27	0	126877696	46	5555
2026-01-12 16:41:38.11	21.47	4.73	-35.6	-36.5	21.7	0.00e+00	0	27	0	148897792	44	6055
2026-01-12 16:41:42.15	21.51	5.01	-34.9	-35.7	22.4	0.00e+00	0	27	0	171966464	42	6198
2026-01-12 16:41:46.19	21.55	5.30	-34.6	-35.4	22.7	0.00e+00	0	27	0	195035136	42	6003
2026-01-12 16:41:50.23	21.59	5.59	-34.5	-35.3	22.8	0.00e+00	0	27	0	217055232	42	5929
2026-01-12 16:41:54.26	21.63	5.89	-34.4	-35.2	22.9	0.00e+00	0	27	0	240123904	42	5864
2026-01-12 16:41:58.30	21.68	6.18	-34.5	-35.2	22.9	0.00e+00	0	27	0	263192576	42	5894
2026-01-12 16:42:02.34	21.72	6.49	-34.0	-34.8	23.4	0.00e+00	0	27	0	285212672	42	5587
2026-01-12 16:42:06.38	21.76	6.79	-34.1	-34.8	23.4	0.00e+00	0	27	0	308281344	42	5600
2026-01-12 16:42:10.42	21.81	7.10	-33.9	-34.7	23.6	0.00e+00	0	27	0	331350016	42	5509
2026-01-12 16:42:14.45	21.85	7.41	-33.8	-34.6	23.6	0.00e+00	0	27	0	353370112	42	5463
2026-01-12 16:42:18.49	21.90	7.73	-33.6	-34.4	23.9	0.00e+00	0	27	0	376438784	40	5977
2026-01-12 16:42:22.53	21.94	8.05	-33.5	-34.2	24.0	0.00e+00	0	27	0	399507456	40	5896
2026-01-12 16:42:26.57	21.99	8.37	-33.5	-34.3	24.1	0.00e+00	0	27	0	421527552	40	5901
2026-01-12 16:42:30.62	22.04	8.70	-33.3	-34.0	24.3	0.00e+00	0	27	0	444596224	40	5719
2026-01-12 16:42:34.66	22.09	9.04	-33.3	-34.1	24.2	0.00e+00	0	27	0	467664896	40	5763
2026-01-12 16:42:38.70	22.14	9.38	-33.1	-33.8	24.5	0.00e+00	0	27	0	489684992	40	5627
2026-01-12 16:42:42.73	22.18	9.72	-33.3	-34.0	24.4	0.00e+00	0	27	0	512753664	40	5712
2026-01-12 16:42:46.77	22.24	10.06	-33.1	-33.9	24.5	0.00e+00	0	27	0	535822336	40	5632
2026-01-12 16:42:50.81	22.29	10.42	-33.0	-33.7	24.7	0.00e+00	0	27	0	557842432	40	5554
2026-01-12 16:42:54.84	22.34	10.77	-32.9	-33.6	24.6	0.00e+00	0	27	0	580911104	40	5469
2026-01-12 16:42:58.88	22.39	11.14	-33.1	-33.8	24.6	0.00e+00	0	27	0	603979776	40	5618
2026-01-12 16:43:02.92	22.44	11.50	-33.0	-33.8	24.6	0.00e+00	0	27	0	625999872	40	5573
2026-01-12 16:43:06.96	22.50	11.88	-32.9	-33.7	24.7	0.00e+00	0	27	0	649068544	40	5510
2026-01-12 16:43:11.00	22.55	12.26	-32.8	-33.5	24.8	0.00e+00	0	27	0	672137216	40	5417
2026-01-12 16:43:15.04	22.61	12.64	-32.7	-33.4	25.0	0.00e+00	0	27	0	694157312	38	6004
2026-01-12 16:43:19.08	22.67	13.04	-32.5	-33.2	25.2	0.00e+00	0	27	0	717225984	38	5843
2026-01-12 16:43:23.12	22.73	13.43	-32.3	-32.9	25.4	0.00e+00	0	27	0	740294656	38	5692
2026-01-12 16:43:27.16	22.79	13.84	-32.2	-32.9	25.5	0.00e+00	0	27	0	762314752	38	5645
2026-01-12 16:43:31.19	22.85	14.25	-32.0	-32.7	25.7	0.00e+00	0	27	0	785383424	38	5520
2026-01-12 16:43:35.23	22.91	14.67	-31.9	-32.6	25.7	0.00e+00	0	27	0	808452096	38	5457
2026-01-12 16:43:39.28	22.97	15.10	-31.7	-32.4	25.9	0.00e+00	0	27	0	830472192	36	5993
2026-01-12 16:43:43.31	23.04	15.53	-31.6	-32.2	26.1	0.00e+00	0	27	0	853540864	36	5890
2026-01-12 16:43:47.35	23.10	15.97	-31.3	-31.9	26.3	0.00e+00	0	27	0	876609536	36	5689
2026-01-12 16:43:51.39	23.17	16.42	-31.1	-31.8	26.5	0.00e+00	0	27	0	898629632	36	5568
2026-01-12 16:43:55.43	23.24	16.88	-31.0	-31.7	26.5	0.00e+00	0	27	0	921698304	36	5516
2026-01-12 16:43:59.47	23.31	17.35	-31.3	-31.9	26.4	0.00e+00	0	27	0	944766976	36	5660
2026-01-12 16:44:03.51	23.38	17.82	-31.0	-31.6	26.7	0.00e+00	0	27	0	966787072	36	5494
2026-01-12 16:44:07.55	23.46	18.31	-30.9	-31.6	26.7	0.00e+00	0	27	0	989855744	36	5467
2026-01-12 16:44:11.59	23.54	18.80	-30.8	-31.5	26.8	0.00e+00	0	27	0	1012924416	34	6071
2026-01-12 16:44:15.63	23.61	19.31	-30.7	-31.3	26.9	0.00e+00	0	27	0	1034944512	34	5935
2026-01-12 16:44:19.67	23.69	19.82	-30.7	-31.4	27.0	0.00e+00	0	27	0	1058013184	34	5972
2026-01-12 16:44:23.71	23.78	20.35	-30.5	-31.1	27.1	0.00e+00	0	27	0	1081081856	34	5801
2026-01-12 16:44:27.74	23.86	20.89	-30.3	-30.9	27.3	0.00e+00	0	27	0	1103101952	34	5641
2026-01-12 16:44:31.78	23.95	21.44	-30.2	-30.9	27.4	0.00e+00	0	27	0	1126170624	34	5631
2026-01-12 16:44:35.82	24.04	22.00	-29.9	-30.5	27.6	0.00e+00	0	27	0	1149239296	34	5404
2026-01-12 16:44:39.86	24.13	22.58	-29.8	-30.5	27.7	0.00e+00	0	27	0	1171259392	34	5399
2026-01-12 16:44:43.90	24.23	23.16	-29.9	-30.6	27.6	0.00e+00	0	27	0	1194328064	34	5445
2026-01-12 16:44:47.94	24.32	23.77	-29.8	-30.4	27.7	0.00e+00	0	27	0	1217396736	34	5351
2026-01-12 16:44:51.98	24.43	24.38	-29.7	-30.3	27.8	0.00e+00	0	27	0	1239416832	32	5948
2026-01-12 16:44:56.01	24.53	25.01	-29.6	-30.2	27.9	0.00e+00	0	27	0	1262485504	32	5847
2026-01-12 16:45:00.05	24.64	25.66	-29.3	-29.9	28.1	0.00e+00	0	27	0	1285554176	32	5656
2026-01-12 16:45:04.09	24.75	26.32	-29.3	-29.9	28.2	0.00e+00	0	27	0	1307574272	32	5672
2026-01-12 16:45:08.13	24.87	27.00	-29.1	-29.7	28.3	0.00e+00	0	27	0	1330642944	32	5561
2026-01-12 16:45:12.16	24.99	27.69	-29.3	-29.9	28.2	0.00e+00	0	27	0	1353711616	32	5643
2026-01-12 16:45:16.20	25.11	28.41	-29.5	-30.1	27.9	0.00e+00	0	27	0	1375731712	32	5828
2026-01-12 16:45:20.24	25.25	29.14	-29.5	-30.1	28.0	0.00e+00	0	27	0	1398800384	32	5778
2026-01-12 16:45:24.28	25.38	29.89	-29.5	-30.1	27.9	0.00e+00	0	27	0	1420820480	32	5815
2026-01-12 16:45:28.31	25.52	30.67	-29.5	-30.1	28.0	0.00e+00	0	27	0	1443889152	32	5809
2026-01-12 16:45:32.36	25.67	31.46	-29.3	-29.9	28.2	0.00e+00	0	27	0	1466957824	32	5656
2026-01-12 16:45:36.39	25.83	32.28	-29.2	-29.8	28.2	0.00e+00	0	27	0	1490026496	32	5618
2026-01-12 16:45:40.43	25.99	33.12	-29.1	-29.7	28.4	0.00e+00	0	27	0	1512046592	32	5543
2026-01-12 16:45:44.46	26.16	33.98	-29.0	-29.6	28.5	0.00e+00	0	27	0	1535115264	32	5453
2026-01-12 16:45:48.50	26.34	34.86	-29.1	-29.7	28.4	0.00e+00	0	27	0	1558183936	32	5534
2026-01-12 16:45:52.54	26.52	35.78	-29.0	-29.6	28.5	0.00e+00	0	27	0	1580204032	32	5458
2026-01-12 16:45:56.58	26.72	36.72	-28.5	-29.1	28.8	0.00e+00	0	27	0	1603272704	30	5803
2026-01-12 16:46:00.62	26.93	37.69	-28.4	-29.0	28.8	0.00e+00	0	27	0	1625292800	30	5744
2026-01-12 16:46:04.65	27.15	38.68	-28.6	-29.2	28.8	0.00e+00	0	27	0	1648361472	30	5881
2026-01-12 16:46:08.69	27.38	39.70	-28.9	-29.5	28.5	0.00e+00	0	27	0	1671430144	30	6091
2026-01-12 16:46:12.73	27.63	40.76	-28.6	-29.2	28.8	0.00e+00	0	27	0	1694498816	30	5886
2026-01-12 16:46:16.77	27.89	41.85	-29.2	-29.9	28.3	0.00e+00	0	27	0	1716518912	30	6339
2026-01-12 16:46:20.81	28.17	42.97	-29.2	-29.8	28.4	0.00e+00	0	27	0	1739587584	30	6278
2026-01-12 16:46:24.85	28.48	44.12	-29.2	-29.8	28.3	0.00e+00	0	27	0	1762656256	30	6283
2026-01-12 16:46:28.89	28.80	45.31	-29.4	-30.0	28.2	0.00e+00	0	27	0	1784676352	30	6428
2026-01-12 16:46:32.92	29.14	46.53	-29.7	-30.3	27.8	0.00e+00	0	27	0	1807745024	32	5951
2026-01-12 16:46:36.96	29.52	47.79	-29.1	-29.7	28.4	0.00e+00	0	27	0	1829765120	32	5553
2026-01-12 16:46:41.00	29.92	49.09	-29.2	-29.9	28.3	0.00e+00	0	27	0	1852833792	32	5635
2026-01-12 16:46:45.03	30.36	50.42	-29.7	-30.4	27.9	0.00e+00	0	27	0	1875902464	32	5990
2026-01-12 16:46:49.07	30.84	51.80	-30.1	-30.7	27.7	0.00e+00	0	27	0	1897922560	32	6205
2026-01-12 16:46:53.11	31.36	53.21	-30.3	-31.0	27.5	0.00e+00	0	27	0	1920991232	32	6420
2026-01-12 16:46:57.15	31.94	54.66	-30.2	-30.8	27.5	0.00e+00	0	27	0	1944059904	32	6302
2026-01-12 16:47:01.18	32.57	56.14	-30.5	-31.1	27.3	0.00e+00	0	27	0	1967128576	34	5790
2026-01-12 16:47:05.22	33.28	57.67	-30.3	-30.9	27.6	0.00e+00	0	27	0	1989148672	34	5679
2026-01-12 16:47:09.26	34.07	59.23	-29.4	-30.0	28.0	0.00e+00	0	27	0	2012217344	32	5753
2026-01-12 16:47:13.30	34.97	60.83	-29.3	-29.9	28.2	0.00e+00	0	27	0	2034237440	32	5651
2026-01-12 16:47:17.35	35.98	62.47	-29.1	-29.7	28.5	0.00e+00	0	27	0	2057306112	32	5533
2026-01-12 16:47:21.38	37.13	64.13	-29.1	-29.7	28.4	0.00e+00	0	27	0	2080374784	30	6232
2026-01-12 16:47:25.42	38.47	65.82	-28.4	-29.0	28.9	0.00e+00	0	27	0	2102394880	30	5750
2026-01-12 16:47:29.46	40.03	67.54	-28.6	-29.2	28.7	0.00e+00	0	27	0	2125463552	30	5853
2026-01-12 16:47:33.50	41.87	69.27	-28.6	-29.2	28.7	0.00e+00	0	27	0	2148532224	30	5890
2026-01-12 16:47:37.54	44.08	71.01	-28.3	-28.9	28.9	0.00e+00	0	27	0	2171600896	30	5690
2026-01-12 16:47:41.58	46.75	72.75	-28.4	-29.0	28.9	0.00e+00	0	27	0	2193620992	30	5712
2026-01-12 16:47:45.62	50.06	74.47	-27.9	-28.5	29.3	0.00e+00	0	27	0	2216689664	30	5399
2026-01-12 16:47:49.66	54.21	76.16	-27.2	-27.8	29.6	0.00e+00	0	27	0	2238709760	28	5607
2026-01-12 16:47:53.70	59.52	77.77	-27.4	-28.1	29.4	0.00e+00	0	27	0	2261778432	28	5768
2026-01-12 16:47:57.74	66.43	79.27	-26.4	-27.0	30.1	0.00e+00	0	27	0	2284847104	26	5716
2026-01-12 16:48:01.78	75.44	80.58	-26.6	-27.2	30.1	0.00e+00	0	27	0	2307915776	26	5883
2026-01-12 16:48:05.82	87.02	81.59	-27.1	-27.7	29.8	0.00e+00	0	27	0	2329935872	26	6178
2026-01-12 16:48:09.86	101.08	82.19	-26.7	-27.3	30.0	0.00e+00	0	27	0	2353004544	26	5958
2026-01-12 16:48:13.89	116.38	82.27	-26.7	-27.3	29.9	0.00e+00	0	27	0	2376073216	26	5933
2026-01-12 16:48:17.93	130.99	81.82	-26.4	-27.0	30.1	0.00e+00	0	27	0	2398093312	26	5725
2026-01-12 16:48:21.97	143.36	80.91	-26.2	-26.8	30.3	0.00e+00	0	27	0	2421161984	26	5588
2026-01-12 16:48:26.02	153.13	79.68	-26.8	-27.4	30.0	0.00e+00	0	27	0	2443182080	26	5990
2026-01-12 16:48:30.05	160.58	78.23	-27.3	-27.9	29.7	0.00e+00	0	27	0	2466250752	26	6358
2026-01-12 16:48:34.09	166.32	76.64	-27.1	-27.6	29.8	0.00e+00	0	27	0	2489319424	26	6158
2026-01-12 16:48:38.13	170.78	74.97	-27.4	-28.1	29.5	0.00e+00	0	27	0	2512388096	26	6509
2026-01-12 16:48:42.17	174.31	73.25	-27.7	-28.3	29.3	0.00e+00	0	27	0	2534408192	28	5959
2026-01-12 16:48:46.20	177.15	71.52	-27.9	-28.4	29.2	0.00e+00	0	27	0	2557476864	28	5998
2026-01-12 16:48:50.25	179.49	69.77	-28.2	-28.9	29.0	0.00e+00	0	27	0	2580545536	28	6327
2026-01-12 16:48:54.29	181.43	68.03	-28.3	-28.8	29.0	0.00e+00	0	27	0	2602565632	28	6272
2026-01-12 16:48:58.33	183.06	66.31	-28.3	-28.9	29.0	0.00e+00	0	27	0	2625634304	28	6344
2026-01-12 16:49:02.36	184.46	64.61	-28.7	-29.3	28.6	0.00e+00	0	27	0	2647654400	30	5907
2026-01-12 16:49:06.40	185.66	62.93	-28.8	-29.5	28.5	0.00e+00	0	27	0	2670723072	30	6060
2026-01-12 16:49:10.44	186.72	61.28	-28.9	-29.5	28.6	0.00e+00	0	27	0	2693791744	30	6059
2026-01-12 16:49:14.48	187.64	59.67	-28.7	-29.4	28.7	0.00e+00	0	27	0	2715811840	30	5975
2026-01-12 16:49:18.52	188.46	58.09	-29.2	-29.8	28.3	0.00e+00	0	27	0	2738880512	30	6272
2026-01-12 16:49:22.56	189.19	56.55	-30.1	-30.8	27.7	0.00e+00	0	27	0	2761949184	32	6264
2026-01-12 16:49:26.59	189.85	55.05	-30.5	-31.0	27.2	0.00e+00	0	27	0	2785017856	32	6460
2026-01-12 16:49:30.63	190.44	53.58	-29.6	-30.3	27.9	0.00e+00	0	27	0	2807037952	32	5946
2026-01-12 16:49:34.66	190.98	52.16	-30.1	-30.7	27.7	0.00e+00	0	27	0	2830106624	32	6209
2026-01-12 16:49:38.71	191.47	50.77	-29.4	-29.9	28.2	0.00e+00	0	27	0	2852126720	32	5680
2026-01-12 16:49:42.74	191.92	49.42	-29.2	-29.8	28.3	0.00e+00	0	27	0	2875195392	32	5572
2026-01-12 16:49:46.78	192.33	48.11	-29.0	-29.5	28.5	0.00e+00	0	27	0	2898264064	32	5436
2026-01-12 16:49:50.82	192.71	46.83	-28.7	-29.2	28.7	0.00e+00	0	27	0	2920284160	30	5855
2026-01-12 16:49:54.86	193.06	45.59	-28.9	-29.6	28.6	0.00e+00	0	27	0	2943352832	30	6141
2026-01-12 16:49:58.89	193.39	44.39	-29.4	-30.1	28.1	0.00e+00	0	27	0	2966421504	30	6511
2026-01-12 16:50:02.93	193.70	43.22	-28.8	-29.4	28.5	0.00e+00	0	27	0	2989490176	30	5967
2026-01-12 16:50:06.97	193.98	42.09	-28.6	-29.2	28.7	0.00e+00	0	27	0	3011510272	30	5831
2026-01-12 16:50:11.01	194.25	40.99	-28.6	-29.1	28.7	0.00e+00	0	27	0	3034578944	30	5811
2026-01-12 16:50:15.05	194.50	39.92	-28.6	-29.1	28.8	0.00e+00	0	27	0	3056599040	30	5807
2026-01-12 16:50:19.09	194.74	38.88	-28.6	-29.1	28.7	0.00e+00	0	27	0	3079667712	30	5822
2026-01-12 16:50:23.12	194.96	37.88	-28.5	-29.0	28.8	0.00e+00	0	27	0	3102736384	30	5758
2026-01-12 16:50:27.16	195.17	36.90	-28.2	-28.9	29.1	0.00e+00	0	27	0	3124756480	30	5657
2026-01-12 16:50:31.19	195.37	35.95	-28.4	-29.1	28.8	0.00e+00	0	27	0	3147825152	30	5806
2026-01-12 16:50:35.23	195.56	35.03	-28.6	-29.3	28.8	0.00e+00	0	27	0	3170893824	30	5919
2026-01-12 16:50:39.27	195.74	34.13	-28.7	-29.2	28.7	0.00e+00	0	27	0	3192913920	30	5862
2026-01-12 16:50:43.31	195.91	33.25	-28.6	-29.1	28.7	0.00e+00	0	27	0	3215982592	30	5828
2026-01-12 16:50:47.35	196.07	32.41	-28.9	-29.4	28.4	0.00e+00	0	27	0	3239051264	30	6000
2026-01-12 16:50:51.39	196.23	31.58	-29.0	-29.6	28.3	0.00e+00	0	27	0	3261071360	30	6137
2026-01-12 16:50:55.43	196.38	30.78	-29.1	-29.8	28.4	0.00e+00	0	27	0	3284140032	30	6294
2026-01-12 16:50:59.47	196.52	30.00	-29.2	-29.8	28.2	0.00e+00	0	27	0	3307208704	30	6256
2026-01-12 16:51:03.50	196.66	29.24	-29.3	-30.0	28.2	0.00e+00	0	27	0	3329228800	30	6414
2026-01-12 16:51:07.54	196.79	28.50	-29.3	-30.0	28.2	0.00e+00	0	27	0	3352297472	30	6414
2026-01-12 16:51:11.58	196.91	27.77	-29.1	-29.6	28.4	0.00e+00	0	27	0	3375366144	30	6156
2026-01-12 16:51:15.62	197.03	27.07	-29.0	-29.5	28.4	0.00e+00	0	27	0	3397386240	30	6099
2026-01-12 16:51:19.66	197.15	26.38	-29.1	-29.6	28.5	0.00e+00	0	27	0	3420454912	30	6132
2026-01-12 16:51:23.70	197.26	25.71	-29.4	-29.9	28.2	0.00e+00	0	27	0	3443523584	30	6360
2026-01-12 16:51:27.73	197.37	25.06	-29.5	-30.1	28.0	0.00e+00	0	27	0	3465543680	30	6485
2026-01-12 16:51:31.77	197.47	24.43	-29.5	-30.2	28.0	0.00e+00	0	27	0	3488612352	30	6590
2026-01-12 16:51:35.80	197.57	23.80	-29.4	-29.9	28.1	0.00e+00	0	27	0	3511681024	30	6384
2026-01-12 16:51:39.84	197.67	23.20	-29.5	-30.2	28.0	0.00e+00	0	27	0	3533701120	30	6575
2026-01-12 16:51:43.87	197.76	22.60	-29.4	-30.1	28.1	0.00e+00	0	27	0	3556769792	30	6506
2026-01-12 16:51:47.91	197.86	22.02	-29.6	-30.2	28.0	0.00e+00	0	27	0	3578789888	30	6556
2026-01-12 16:51:51.95	197.94	21.46	-29.8	-30.3	27.8	0.00e+00	0	27	0	3601858560	32	5943
2026-01-12 16:51:55.99	198.03	20.90	-29.9	-30.4	27.7	0.00e+00	0	27	0	3624927232	32	6025
2026-01-12 16:52:00.03	198.11	20.36	-30.4	-31.1	27.2	0.00e+00	0	27	0	3646947328	32	6513
2026-01-12 16:52:04.07	198.19	19.83	-30.3	-31.1	27.3	0.00e+00	0	27	0	3670016000	32	6467
2026-01-12 16:52:08.10	198.27	19.31	-30.4	-31.1	27.2	0.00e+00	0	27	0	3693084672	32	6534
2026-01-12 16:52:12.15	198.35	18.80	-30.6	-31.1	27.2	0.00e+00	0	27	0	3716153344	32	6529
2026-01-12 16:52:16.18	198.42	18.30	-30.7	-31.4	27.0	0.00e+00	0	27	0	3738173440	34	6028
2026-01-12 16:52:20.21	198.50	17.81	-31.0	-31.6	26.8	0.00e+00	0	27	0	3761242112	34	6109
2026-01-12 16:52:24.25	198.57	17.33	-31.2	-31.8	26.5	0.00e+00	0	27	0	3783262208	34	6292
2026-01-12 16:52:28.29	198.64	16.86	-31.3	-32.1	26.4	0.00e+00	0	27	0	3806330880	34	6480
2026-01-12 16:52:32.33	198.70	16.40	-31.6	-32.3	26.3	0.00e+00	0	27	0	3829399552	34	6657
2026-01-12 16:52:36.37	198.77	15.94	-31.6	-32.2	26.1	0.00e+00	0	27	0	3851419648	36	5856
2026-01-12 16:52:40.40	198.83	15.50	-31.7	-32.3	26.1	0.00e+00	0	27	0	3874488320	36	5917
2026-01-12 16:52:44.44	198.90	15.06	-31.9	-32.5	26.0	0.00e+00	0	27	0	3897556992	36	6077
2026-01-12 16:52:48.48	198.96	14.63	-31.9	-32.5	26.0	0.00e+00	0	27	0	3920625664	36	6048
2026-01-12 16:52:52.52	199.02	14.21	-32.0	-32.7	25.9	0.00e+00	0	27	0	3942645760	36	6208
2026-01-12 16:52:56.58	199.08	13.79	-32.2	-32.7	25.7	0.00e+00	0	27	0	3965714432	36	6242
2026-01-12 16:53:00.62	199.13	13.39	-32.1	-32.7	25.6	0.00e+00	0	27	0	3987734528	36	6224
2026-01-12 16:53:04.66	199.19	12.99	-32.3	-33.0	25.6	0.00e+00	0	27	0	4010803200	36	6433
2026-01-12 16:53:08.69	199.24	12.59	-32.4	-33.1	25.5	0.00e+00	0	27	0	4033871872	36	6496
2026-01-12 16:53:12.73	199.30	12.20	-32.4	-33.0	25.5	0.00e+00	0	27	0	4056940544	36	6430
2026-01-12 16:53:16.77	199.35	11.82	-32.5	-33.1	25.3	0.00e+00	0	27	0	4078960640	36	6529
2026-01-12 16:53:20.81	199.40	11.44	-32.5	-33.1	25.3	0.00e+00	0	27	0	4102029312	36	6532
2026-01-12 16:53:24.85	199.45	11.07	-32.6	-33.2	25.2	0.00e+00	0	27	0	4125097984	38	5893
2026-01-12 16:53:28.89	199.50	10.71	-32.9	-33.6	25.0	0.00e+00	0	27	0	4147118080	38	6110
2026-01-12 16:53:32.93	199.55	10.35	-32.9	-33.6	24.9	0.00e+00	0	27	0	4170186752	38	6108
2026-01-12 16:53:36.97	199.60	9.99	-33.1	-33.9	24.9	3.40e-06	0	27	0	4192206848	38	6319
2026-01-12 16:53:41.00	199.65	9.65	-33.1	-33.8	24.7	0.00e+00	0	27	0	4215275520	38	6312
2026-01-12 16:53:45.04	199.70	9.30	-33.2	-33.8	24.6	0.00e+00	0	27	0	4238344192	38	6273
2026-01-12 16:53:49.08	199.74	8.96	-33.3	-34.1	24.6	0.00e+00	0	27	0	4260364288	38	6514
2026-01-12 16:53:53.12	199.79	8.63	-33.5	-34.3	24.3	0.00e+00	0	27	0	4283432960	38	6638
2026-01-12 16:53:57.15	199.83	8.30	-33.4	-34.2	24.4	0.00e+00	0	27	0	4306501632	38	6576
2026-01-12 16:54:01.19	199.88	7.97	-33.5	-34.2	24.3	0.00e+00	0	27	0	4329570304	40	5829
2026-01-12 16:54:05.23	199.92	7.65	-33.6	-34.4	24.1	0.00e+00	0	27	0	4351590400	40	6002
2026-01-12 16:54:09.27	199.96	7.33	-33.9	-34.6	23.8	0.00e+00	0	27	0	4374659072	40	6135
2026-01-12 16:54:13.29	200.00	7.01	-34.1	-34.7	23.7	0.00e+00	0	27	0	4396679168	40	6224
2026-01-12 16:54:17.33	200.04	6.70	-34.1	-34.7	23.6	0.00e+00	0	27	0	4419747840	40	6240
2026-01-12 16:54:21.37	200.08	6.40	-34.1	-34.8	23.5	0.00e+00	0	27	0	4442816512	40	6315
2026-01-12 16:54:25.42	200.12	6.09	-34.3	-35.0	23.4	0.00e+00	0	27	0	4464836608	40	6430
2026-01-12 16:54:29.46	200.16	5.79	-34.4	-35.1	23.2	0.00e+00	0	27	0	4487905280	40	6500
2026-01-12 16:54:33.50	200.20	5.50	-34.4	-35.0	23.3	0.00e+00	0	27	0	4510973952	40	6457
2026-01-12 16:54:37.53	200.24	5.20	-34.3	-35.2	23.1	0.00e+00	0	27	0	4534042624	40	6540
2026-01-12 16:54:41.57	200.28	4.91	-34.8	-35.6	22.7	0.00e+00	0	27	0	4556062720	42	6158
2026-01-12 16:54:45.61	200.32	4.63	-34.9	-35.6	22.6	0.00e+00	0	28	0	4579131392	42	6110
2026-01-12 16:54:49.65	200.35	4.34	-34.9	-35.6	22.4	0.00e+00	0	28	0	4601151488	42	6165
2026-01-12 16:54:53.68	200.39	4.06	-35.6	-36.3	21.9	0.00e+00	0	27	0	4624220160	44	5944
2026-01-12 16:54:57.72	200.42	3.78	-35.6	-36.5	21.7	0.00e+00	0	28	0	4647288832	44	6074
2026-01-12 16:55:01.76	200.46	3.51	-35.5	-36.4	21.7	0.00e+00	0	28	0	4669308928	44	6011
2026-01-12 16:55:05.80	200.49	3.24	-35.5	-36.3	21.5	0.00e+00	0	28	0	4692377600	44	5901
2026-01-12 16:55:09.84	200.53	2.97	-47.3	-59.3	3.6	6.48e-01	0	27	104	4713349120	60	33288
2026-01-12 16:55:13.88	200.56	2.70	-46.8	-60.3	3.6	8.46e-01	0	28	104	4713349120	60	37447
2026-01-12 16:55:17.92	200.60	2.44	-47.5	-60.4	3.6	8.46e-01	0	28	104	4713349120	60	37865
2026-01-12 16:55:21.95	200.63	2.17	-48.1	-60.3	3.6	8.45e-01	0	28	104	4713349120	60	37509
2026-01-12 16:55:25.99	200.66	1.91	-48.3	-60.3	3.6	8.44e-01	0	28	104	4713349120	60	37576
2026-01-12 16:55:30.03	200.70	1.66	-48.3	-60.4	3.6	8.46e-01	0	28	104	4713349120	60	37906
2026-01-12 16:55:34.07	200.73	1.40	-48.2	-60.3	3.6	8.46e-01	0	28	104	4713349120	60	37494
2026-01-12 16:55:38.11	200.76	1.15	-48.3	-60.3	3.6	8.45e-01	0	28	104	4713349120	60	37455
2026-01-12 16:55:42.15	200.79	0.90	-48.2	-60.3	3.6	8.46e-01	0	28	104	4713349120	60	37589
2026-01-12 16:55:46.18	200.82	0.65	-48.3	-60.4	3.6	8.45e-01	0	28	104	4713349120	60	37667
2026-01-12 16:55:50.22	200.85	0.40	-48.3	-60.4	3.6	8.46e-01	0	28	104	4713349120	60	37869
2026-01-12 16:55:54.27	200.89	0.16	-48.3	-60.4	3.6	8.45e-01	0	28	104	4713349120	60	37729
2026-01-12 16:55:58.30	200.92	-0.08	-48.3	-60.4	3.6	8.45e-01	0	28	104	4713349120	60	37758

#Closed at: 2026-01-12 16:55:59
#Recorded file [4713 MB]: D:/lorett/data/35029_260113_044025.dat