passes_logs/2026/01/12/R4.6S_Anadyr/R4.6S_Anadyr__20260112_154057_SUOMI_NPP_rec.log

#Pass ID: 20260112_154057_SUOMI NPP
#Satellite: SUOMI NPP
#Configuration: NPP
#almurnet v.1.7.20251203
#Start time: 2026-01-12 15:41:00

#Version: 2.2.20231116
#Station: R4.6S_Anadyr
#Location: 177.4865 lon 64.73178 lat
#TLE: 1 37849U 11061A   26011.57971124  .00000103  00000+0  69927-4 0  9996
#TLE: 2 37849  98.7807 313.6578 0002518  69.5076 290.6370 14.19524515736228

#Time	Az	El	Level	Level2	SNR	BER	BlckErr	Temp	State	Recorded	gain1	gain2
2026-01-12 15:41:00.82	22.82	0.20	-48.7	-62.5	3.4	1.54e+00	0	28	0	0	60	48007
2026-01-12 15:41:04.86	22.74	0.44	-48.5	-63.6	3.6	1.51e+00	0	28	104	0	60	55003
2026-01-12 15:41:08.90	22.66	0.68	-48.2	-63.4	3.6	1.51e+00	0	28	104	0	60	53161
2026-01-12 15:41:12.93	22.57	0.92	-47.6	-62.8	3.6	1.51e+00	0	28	104	0	60	49802
2026-01-12 15:41:16.97	22.49	1.17	-47.0	-62.1	3.6	1.51e+00	0	29	104	0	60	46058
2026-01-12 15:41:21.01	22.40	1.42	-47.0	-62.0	3.6	1.51e+00	0	28	104	0	60	45578
2026-01-12 15:41:25.05	22.31	1.67	-47.0	-61.8	3.6	1.51e+00	0	29	104	0	60	44247
2026-01-12 15:41:29.09	22.22	1.92	-46.9	-61.9	3.6	1.51e+00	0	29	104	0	60	44994
2026-01-12 15:41:33.13	22.13	2.18	-47.0	-62.0	3.6	1.51e+00	0	29	104	0	60	45567
2026-01-12 15:41:37.17	22.03	2.43	-46.9	-61.1	3.6	1.51e+00	0	29	104	0	60	41083
2026-01-12 15:41:41.21	21.94	2.69	-47.0	-60.6	3.6	1.51e+00	0	29	104	0	60	38662
2026-01-12 15:41:45.24	21.84	2.95	-46.9	-58.9	4.0	1.50e+00	0	29	104	0	60	31681
2026-01-12 15:41:49.28	21.74	3.22	-44.8	-48.9	12.0	2.75e-03	0	29	0	6291456	60	10033
2026-01-12 15:41:53.32	21.64	3.48	-43.1	-45.7	15.3	0.00e+00	0	29	0	13631488	60	6967
2026-01-12 15:41:57.36	21.53	3.75	-42.5	-44.7	17.4	7.60e-06	0	29	0	20971520	60	6222
2026-01-12 15:42:01.40	21.42	4.02	-43.9	-46.9	14.5	2.79e-02	0	29	0	24117248	60	7971
2026-01-12 15:42:05.43	21.31	4.29	-39.6	-41.0	19.9	0.00e+00	0	29	0	31457280	52	6444
2026-01-12 15:42:09.47	21.20	4.57	-39.1	-40.4	20.4	0.00e+00	0	29	0	38797312	52	5983
2026-01-12 15:42:13.50	21.09	4.85	-39.0	-40.3	20.7	0.00e+00	0	29	0	47185920	52	5918
2026-01-12 15:42:17.54	20.97	5.13	-38.8	-40.0	20.9	0.00e+00	0	29	0	54525952	50	6435
2026-01-12 15:42:21.58	20.85	5.42	-38.7	-39.8	21.2	0.00e+00	0	29	0	61865984	50	6317
2026-01-12 15:42:25.61	20.73	5.70	-38.4	-39.6	21.4	0.00e+00	0	29	0	69206016	50	6111
2026-01-12 15:42:29.65	20.60	6.00	-38.3	-39.4	21.7	0.00e+00	0	29	0	76546048	50	6010
2026-01-12 15:42:33.69	20.48	6.29	-38.1	-39.2	21.8	0.00e+00	0	29	0	84934656	50	5882
2026-01-12 15:42:37.73	20.34	6.59	-38.0	-39.0	22.0	0.00e+00	0	29	0	92274688	50	5729
2026-01-12 15:42:41.76	20.21	6.89	-38.1	-39.1	22.0	0.00e+00	0	29	0	99614720	50	5826
2026-01-12 15:42:45.80	20.07	7.19	-37.9	-38.9	22.1	0.00e+00	0	29	0	106954752	48	6375
2026-01-12 15:42:49.84	19.93	7.50	-37.8	-38.8	22.2	0.00e+00	0	29	0	115343360	48	6304
2026-01-12 15:42:53.88	19.79	7.81	-37.6	-38.7	22.3	0.00e+00	0	29	0	122683392	48	6176
2026-01-12 15:42:57.91	19.64	8.12	-37.7	-38.7	22.4	0.00e+00	0	29	0	130023424	48	6196
2026-01-12 15:43:01.95	19.49	8.44	-37.5	-38.5	22.5	0.00e+00	0	30	0	137363456	48	6059
2026-01-12 15:43:05.99	19.34	8.76	-37.6	-38.6	22.5	0.00e+00	0	30	0	144703488	48	6131
2026-01-12 15:43:10.03	19.18	9.09	-37.3	-38.3	22.6	0.00e+00	0	30	0	153092096	48	5930
2026-01-12 15:43:14.07	19.01	9.42	-37.7	-38.7	22.4	0.00e+00	0	30	0	160432128	48	6207
2026-01-12 15:43:18.10	18.85	9.75	-37.6	-38.6	22.1	0.00e+00	0	30	0	167772160	48	6152
2026-01-12 15:43:22.14	18.68	10.09	-37.2	-38.1	22.8	0.00e+00	0	30	0	175112192	48	5828
2026-01-12 15:43:26.18	18.50	10.44	-37.3	-38.2	22.8	0.00e+00	0	30	0	182452224	48	5884
2026-01-12 15:43:30.22	18.32	10.78	-37.2	-38.2	23.0	0.00e+00	0	30	0	190840832	48	5833
2026-01-12 15:43:34.25	18.14	11.13	-37.3	-38.3	22.7	0.00e+00	0	30	0	198180864	48	5953
2026-01-12 15:43:38.29	17.95	11.49	-37.2	-38.2	22.9	0.00e+00	0	30	0	205520896	48	5840
2026-01-12 15:43:42.33	17.75	11.85	-37.0	-37.9	23.2	0.00e+00	0	30	0	212860928	48	5665
2026-01-12 15:43:46.37	17.55	12.22	-36.9	-37.8	23.1	0.00e+00	0	30	0	221249536	48	5596
2026-01-12 15:43:50.41	17.35	12.59	-37.0	-37.9	23.3	0.00e+00	0	30	0	228589568	46	6356
2026-01-12 15:43:54.44	17.14	12.97	-36.8	-37.7	23.5	0.00e+00	0	30	0	235929600	46	6189
2026-01-12 15:43:58.48	16.92	13.35	-36.8	-37.7	23.6	0.00e+00	0	30	0	243269632	46	6210
2026-01-12 15:44:02.52	16.70	13.74	-36.5	-37.3	23.8	0.00e+00	0	30	0	250609664	46	5964
2026-01-12 15:44:06.55	16.47	14.14	-36.5	-37.4	23.6	0.00e+00	0	30	0	258998272	46	6010
2026-01-12 15:44:10.59	16.23	14.54	-36.4	-37.2	23.8	0.00e+00	0	30	0	266338304	46	5870
2026-01-12 15:44:14.63	15.99	14.94	-36.4	-37.2	23.9	0.00e+00	0	30	0	273678336	46	5885
2026-01-12 15:44:18.67	15.74	15.36	-36.2	-37.1	23.9	0.00e+00	0	30	0	281018368	46	5791
2026-01-12 15:44:22.70	15.48	15.78	-36.7	-37.6	23.5	0.00e+00	0	30	0	289406976	46	6132
2026-01-12 15:44:26.73	15.21	16.20	-36.1	-36.9	23.9	0.00e+00	0	30	0	296747008	46	5664
2026-01-12 15:44:30.77	14.94	16.63	-36.4	-37.3	23.9	0.00e+00	0	30	0	304087040	46	5898
2026-01-12 15:44:34.81	14.66	17.08	-36.6	-37.5	23.6	0.00e+00	0	30	0	311427072	46	6080
2026-01-12 15:44:38.85	14.37	17.52	-36.5	-37.4	23.7	0.00e+00	0	30	0	318767104	46	6011
2026-01-12 15:44:42.89	14.07	17.98	-36.7	-37.6	23.7	0.00e+00	0	30	0	327155712	46	6115
2026-01-12 15:44:46.92	13.76	18.44	-36.6	-37.5	23.7	0.00e+00	0	30	0	334495744	46	6059
2026-01-12 15:44:50.96	13.44	18.91	-36.4	-37.2	23.8	0.00e+00	0	30	0	341835776	46	5896
2026-01-12 15:44:55.00	13.10	19.39	-36.2	-37.0	24.1	0.00e+00	0	30	0	349175808	46	5726
2026-01-12 15:44:59.04	12.76	19.88	-36.4	-37.3	23.8	0.00e+00	0	30	0	357564416	46	5920
2026-01-12 15:45:03.07	12.41	20.37	-36.7	-37.6	23.6	0.00e+00	0	30	0	364904448	46	6145
2026-01-12 15:45:07.11	12.04	20.88	-37.1	-38.0	23.2	0.00e+00	0	30	0	372244480	46	6445
2026-01-12 15:45:11.15	11.66	21.39	-37.1	-38.1	23.2	0.00e+00	0	30	0	379584512	46	6476
2026-01-12 15:45:15.19	11.27	21.91	-37.2	-38.1	23.2	0.00e+00	0	30	0	386924544	46	6513
2026-01-12 15:45:19.22	10.87	22.44	-37.3	-38.3	23.1	0.00e+00	0	30	0	395313152	46	6638
2026-01-12 15:45:23.26	10.44	22.99	-37.8	-38.7	22.9	0.00e+00	0	30	0	402653184	48	6244
2026-01-12 15:45:27.30	10.01	23.54	-37.5	-38.4	22.9	0.00e+00	0	30	0	409993216	48	6021
2026-01-12 15:45:31.33	9.56	24.10	-38.2	-39.3	22.4	0.00e+00	0	30	0	417333248	48	6624
2026-01-12 15:45:35.36	9.09	24.67	-38.4	-39.5	22.0	0.00e+00	0	30	0	424673280	48	6808
2026-01-12 15:45:39.40	8.60	25.25	-38.0	-39.1	22.5	0.00e+00	0	30	0	433061888	50	5772
2026-01-12 15:45:43.44	8.09	25.84	-37.5	-38.4	23.0	0.00e+00	0	30	0	440401920	48	6027
2026-01-12 15:45:47.48	7.56	26.45	-38.3	-39.3	22.3	0.00e+00	0	30	0	447741952	48	6634
2026-01-12 15:45:51.52	7.02	27.06	-38.7	-39.8	21.9	0.00e+00	0	30	0	455081984	50	6271
2026-01-12 15:45:55.56	6.44	27.69	-37.8	-38.8	22.7	0.00e+00	0	30	0	463470592	48	6288
2026-01-12 15:45:59.59	5.85	28.32	-38.3	-39.3	22.3	0.00e+00	0	30	0	470810624	48	6644
2026-01-12 15:46:03.63	5.23	28.97	-38.9	-40.0	21.8	0.00e+00	0	30	0	478150656	50	6444
2026-01-12 15:46:07.67	4.59	29.63	-38.9	-40.0	21.6	0.00e+00	0	30	0	485490688	50	6457
2026-01-12 15:46:11.71	3.91	30.30	-38.6	-39.7	22.0	0.00e+00	0	30	0	492830720	50	6205
2026-01-12 15:46:15.75	3.21	30.98	-39.6	-40.8	21.1	0.00e+00	0	30	0	501219328	50	7022
2026-01-12 15:46:19.78	2.48	31.67	-39.7	-40.9	21.0	0.00e+00	0	30	0	508559360	52	6382
2026-01-12 15:46:23.82	1.71	32.38	-41.0	-42.6	19.7	0.00e+00	0	30	0	515899392	54	6903
2026-01-12 15:46:27.86	0.91	33.09	-40.0	-41.4	20.7	0.00e+00	0	30	0	523239424	54	5977
2026-01-12 15:46:31.89	0.07	33.81	-41.7	-43.3	19.1	0.00e+00	0	30	0	531628032	56	6675
2026-01-12 15:46:35.93	359.20	34.55	-40.9	-42.4	19.7	0.00e+00	0	30	0	538968064	56	6016
2026-01-12 15:46:39.97	358.28	35.29	-39.8	-41.1	21.2	0.00e+00	0	30	0	546308096	52	6472
2026-01-12 15:46:44.00	357.32	36.04	-38.6	-39.7	22.0	0.00e+00	0	30	0	553648128	50	6207
2026-01-12 15:46:48.05	356.31	36.80	-39.3	-40.4	21.4	0.00e+00	0	30	0	560988160	50	6739
2026-01-12 15:46:52.08	355.25	37.57	-39.2	-40.4	21.5	0.00e+00	0	30	0	569376768	52	6006
2026-01-12 15:46:56.12	354.14	38.34	-40.0	-41.3	20.8	0.00e+00	0	30	0	576716800	52	6676
2026-01-12 15:47:00.15	352.98	39.12	-39.7	-40.9	21.4	0.00e+00	0	30	0	584056832	52	6327
2026-01-12 15:47:04.19	351.76	39.90	-40.0	-41.4	20.6	0.00e+00	0	30	0	591396864	52	6698
2026-01-12 15:47:08.22	350.48	40.69	-38.4	-39.5	22.2	0.00e+00	0	30	0	598736896	50	6100
2026-01-12 15:47:12.26	349.13	41.47	-38.0	-39.1	22.3	0.00e+00	0	30	0	607125504	48	6495
2026-01-12 15:47:16.30	347.71	42.25	-40.1	-41.5	20.5	0.00e+00	0	30	0	614465536	52	6775
2026-01-12 15:47:20.34	346.23	43.03	-40.2	-41.5	20.4	0.00e+00	0	30	0	621805568	52	6848
2026-01-12 15:47:24.38	344.67	43.80	-40.6	-42.1	19.9	0.00e+00	0	30	0	629145600	52	7302
2026-01-12 15:47:28.41	343.03	44.56	-41.0	-42.8	19.4	0.00e+00	0	30	0	637534208	54	7016
2026-01-12 15:47:32.45	341.32	45.31	-40.6	-42.2	20.0	0.00e+00	0	30	0	644874240	54	6541
2026-01-12 15:47:36.49	339.52	46.04	-40.8	-42.4	19.7	0.00e+00	0	30	0	652214272	54	6753
2026-01-12 15:47:40.53	337.63	46.75	-37.2	-38.1	23.3	0.00e+00	0	30	0	659554304	48	5824
2026-01-12 15:47:44.56	335.66	47.44	-39.7	-40.9	21.2	0.00e+00	0	30	0	666894336	50	7127
2026-01-12 15:47:48.60	333.60	48.10	-38.2	-39.2	22.5	0.00e+00	0	30	0	675282944	50	5893
2026-01-12 15:47:52.64	331.45	48.72	-37.8	-38.9	22.6	0.00e+00	0	30	0	682622976	50	5679
2026-01-12 15:47:56.68	329.22	49.31	-37.4	-38.4	23.0	0.00e+00	0	30	0	689963008	48	5988
2026-01-12 15:48:00.72	326.90	49.86	-37.3	-38.3	23.1	0.00e+00	0	30	0	697303040	48	5953
2026-01-12 15:48:04.75	324.50	50.36	-39.2	-40.4	21.3	0.00e+00	0	30	0	705691648	50	6760
2026-01-12 15:48:08.79	322.02	50.82	-41.3	-43.1	18.8	0.00e+00	0	30	0	713031680	56	6487
2026-01-12 15:48:12.83	319.47	51.21	-37.8	-38.9	22.7	0.00e+00	0	30	0	720371712	48	6328
2026-01-12 15:48:16.87	316.85	51.55	-40.3	-42.0	20.1	0.00e+00	0	30	0	727711744	52	7182
2026-01-12 15:48:20.90	314.19	51.83	-36.5	-37.4	23.8	0.00e+00	0	30	0	735051776	46	6004
2026-01-12 15:48:24.94	311.47	52.04	-35.4	-36.2	24.5	0.00e+00	0	30	0	743440384	44	5876
2026-01-12 15:48:28.98	308.72	52.19	-34.7	-35.5	25.1	0.00e+00	0	30	0	750780416	42	6052
2026-01-12 15:48:33.01	305.96	52.27	-34.8	-35.6	25.2	0.00e+00	0	30	0	758120448	42	6139
2026-01-12 15:48:37.05	303.18	52.27	-36.4	-37.4	23.8	0.00e+00	0	30	0	765460480	44	6721
2026-01-12 15:48:41.08	300.41	52.21	-36.1	-37.0	24.2	0.00e+00	0	30	0	773849088	46	5699
2026-01-12 15:48:45.12	297.66	52.08	-36.9	-37.9	23.3	0.00e+00	0	30	0	781189120	46	6375
2026-01-12 15:48:49.16	294.93	51.88	-36.6	-37.5	23.7	0.00e+00	0	30	0	788529152	46	6063
2026-01-12 15:48:53.20	292.25	51.62	-36.5	-37.5	23.8	0.00e+00	0	30	0	795869184	46	6042
2026-01-12 15:48:57.24	289.62	51.29	-36.1	-37.0	24.2	0.00e+00	0	30	0	803209216	44	6397
2026-01-12 15:49:01.27	287.05	50.91	-37.9	-39.0	22.7	0.00e+00	0	30	0	811597824	48	6411
2026-01-12 15:49:05.31	284.55	50.46	-37.0	-37.9	23.6	0.00e+00	0	30	0	818937856	46	6344
2026-01-12 15:49:09.35	282.13	49.97	-38.1	-39.1	22.7	0.00e+00	0	29	0	826277888	48	6502
2026-01-12 15:49:13.38	279.80	49.43	-40.4	-41.8	20.3	0.00e+00	0	30	0	833617920	52	7031
2026-01-12 15:49:17.42	277.54	48.85	-38.2	-39.2	22.8	0.00e+00	0	30	0	842006528	48	6614
2026-01-12 15:49:21.46	275.37	48.23	-39.1	-40.3	21.7	0.00e+00	0	30	0	849346560	50	6635
2026-01-12 15:49:25.50	273.29	47.58	-38.0	-39.0	22.7	0.00e+00	0	29	0	856686592	50	5736
2026-01-12 15:49:29.54	271.29	46.89	-38.7	-39.8	22.0	0.00e+00	0	30	0	864026624	50	6252
2026-01-12 15:49:33.58	269.38	46.18	-39.9	-41.2	20.8	0.00e+00	0	30	0	871366656	52	6540
2026-01-12 15:49:37.61	267.57	45.46	-39.8	-41.1	21.1	0.00e+00	0	29	0	879755264	52	6502
2026-01-12 15:49:41.65	265.83	44.71	-37.5	-38.4	23.3	0.00e+00	0	29	0	887095296	48	6003
2026-01-12 15:49:45.69	264.17	43.95	-38.9	-40.0	21.8	0.00e+00	0	29	0	894435328	50	6457
2026-01-12 15:49:49.72	262.59	43.18	-38.5	-39.6	22.2	0.00e+00	0	29	0	901775360	50	6121
2026-01-12 15:49:53.76	261.09	42.40	-40.9	-42.3	19.8	0.00e+00	0	29	0	910163968	54	6622
2026-01-12 15:49:57.80	259.66	41.62	-39.8	-41.1	21.2	0.00e+00	0	29	0	917504000	54	5796
2026-01-12 15:50:01.83	258.29	40.84	-39.7	-40.9	21.1	0.00e+00	0	29	0	924844032	52	6355
2026-01-12 15:50:05.87	256.99	40.05	-40.5	-41.8	20.3	0.00e+00	0	29	0	932184064	54	6299
2026-01-12 15:50:09.91	255.76	39.26	-39.6	-40.8	21.2	0.00e+00	0	29	0	939524096	50	7034
2026-01-12 15:50:13.96	254.57	38.48	-42.9	-45.0	17.4	0.00e+00	0	29	0	947912704	58	7198
2026-01-12 15:50:17.99	253.45	37.70	-43.0	-45.1	17.2	0.00e+00	0	29	0	955252736	58	7303
2026-01-12 15:50:22.03	252.38	36.93	-39.6	-40.7	21.6	0.00e+00	0	29	0	962592768	52	6193
2026-01-12 15:50:26.07	251.36	36.17	-37.7	-38.6	23.1	0.00e+00	0	29	0	969932800	48	6117
2026-01-12 15:50:30.10	250.39	35.41	-39.7	-40.8	21.2	0.00e+00	0	29	0	978321408	50	7062
2026-01-12 15:50:34.14	249.46	34.66	-42.1	-43.9	17.7	0.00e+00	0	29	0	985661440	56	7170
2026-01-12 15:50:38.18	248.57	33.93	-41.3	-42.9	19.5	0.00e+00	0	29	0	993001472	56	6333
2026-01-12 15:50:42.22	247.72	33.20	-39.1	-40.2	21.4	0.00e+00	0	29	0	1000341504	50	6580
2026-01-12 15:50:46.25	246.91	32.48	-40.1	-41.3	20.9	0.00e+00	0	29	0	1007681536	52	6672
2026-01-12 15:50:50.29	246.13	31.77	-40.1	-41.3	20.8	0.00e+00	0	29	0	1016070144	54	5931
2026-01-12 15:50:54.33	245.39	31.07	-37.2	-38.1	23.3	0.00e+00	0	29	0	1023410176	48	5818
2026-01-12 15:50:58.37	244.68	30.39	-39.8	-41.0	21.0	0.00e+00	0	29	0	1030750208	50	7181
2026-01-12 15:51:02.41	244.00	29.71	-39.5	-40.7	21.5	0.00e+00	0	29	0	1038090240	52	6218
2026-01-12 15:51:06.45	243.35	29.05	-39.4	-40.6	21.4	0.00e+00	0	29	0	1046478848	52	6151
2026-01-12 15:51:10.48	242.72	28.40	-39.2	-40.3	21.7	0.00e+00	0	29	0	1053818880	50	6624
2026-01-12 15:51:14.52	242.12	27.76	-38.1	-39.1	22.6	0.00e+00	0	29	0	1061158912	50	5798
2026-01-12 15:51:18.56	241.54	27.13	-38.0	-39.0	22.6	0.00e+00	0	29	0	1068498944	50	5749
2026-01-12 15:51:22.60	240.99	26.51	-40.4	-41.7	20.4	0.00e+00	0	29	0	1075838976	52	6966
2026-01-12 15:51:26.63	240.45	25.90	-40.5	-41.8	20.3	0.00e+00	0	29	0	1084227584	54	6295
2026-01-12 15:51:30.67	239.94	25.31	-39.5	-40.7	21.1	0.00e+00	0	29	0	1091567616	52	6233
2026-01-12 15:51:34.71	239.44	24.72	-38.3	-39.3	22.4	0.00e+00	0	29	0	1098907648	50	5919
2026-01-12 15:51:38.75	238.97	24.15	-38.4	-39.5	22.2	0.00e+00	0	29	0	1106247680	50	6062
2026-01-12 15:51:42.79	238.51	23.58	-39.2	-40.4	21.5	0.00e+00	0	29	0	1114636288	50	6718
2026-01-12 15:51:46.82	238.07	23.03	-38.9	-40.0	21.9	0.00e+00	0	29	0	1121976320	50	6400
2026-01-12 15:51:50.86	237.64	22.48	-38.9	-39.9	21.9	0.00e+00	0	29	0	1129316352	50	6366
2026-01-12 15:51:54.90	237.23	21.95	-38.3	-39.3	22.3	0.00e+00	0	29	0	1136656384	50	5949
2026-01-12 15:51:58.94	236.83	21.42	-38.7	-39.8	22.0	0.00e+00	0	29	0	1143996416	50	6264
2026-01-12 15:52:02.97	236.45	20.90	-38.9	-40.0	21.9	0.00e+00	0	29	0	1152385024	50	6399
2026-01-12 15:52:07.01	236.08	20.40	-38.5	-39.5	22.3	0.00e+00	0	29	0	1159725056	50	6036
2026-01-12 15:52:11.05	235.72	19.90	-38.2	-39.1	22.4	0.00e+00	0	29	0	1167065088	50	5816
2026-01-12 15:52:15.08	235.37	19.41	-38.5	-39.5	22.3	0.00e+00	0	29	0	1174405120	50	6065
2026-01-12 15:52:19.12	235.04	18.93	-38.4	-39.4	22.3	0.00e+00	0	29	0	1181745152	50	5965
2026-01-12 15:52:23.16	234.71	18.45	-39.0	-40.1	21.7	0.00e+00	0	29	0	1190133760	50	6501
2026-01-12 15:52:27.20	234.40	17.99	-38.5	-39.6	22.1	0.00e+00	0	29	0	1197473792	50	6119
2026-01-12 15:52:31.24	234.09	17.53	-37.6	-38.5	22.9	0.00e+00	0	29	0	1204813824	48	6064
2026-01-12 15:52:35.27	233.80	17.08	-36.9	-37.7	23.6	0.00e+00	0	29	0	1212153856	48	5551
2026-01-12 15:52:39.31	233.51	16.64	-37.4	-38.3	23.0	0.00e+00	0	29	0	1220542464	48	5954
2026-01-12 15:52:43.34	233.23	16.20	-38.6	-39.7	22.0	0.00e+00	0	29	0	1227882496	48	6958
2026-01-12 15:52:47.38	232.97	15.77	-39.9	-41.1	20.7	0.00e+00	0	29	0	1235222528	52	6523
2026-01-12 15:52:51.42	232.70	15.35	-40.5	-41.9	20.0	0.00e+00	0	29	0	1242562560	52	7132
2026-01-12 15:52:55.45	232.45	14.94	-40.4	-41.8	20.0	0.00e+00	0	29	0	1249902592	52	7015
2026-01-12 15:52:59.49	232.20	14.53	-39.9	-41.1	20.7	0.00e+00	0	29	0	1258291200	52	6515
2026-01-12 15:53:03.52	231.96	14.13	-39.9	-41.1	20.5	0.00e+00	0	29	0	1265631232	52	6501
2026-01-12 15:53:07.56	231.73	13.73	-39.9	-41.2	20.6	0.00e+00	0	28	0	1272971264	52	6542
2026-01-12 15:53:11.60	231.50	13.34	-40.4	-41.7	20.1	0.00e+00	0	29	0	1280311296	52	6991
2026-01-12 15:53:15.64	231.28	12.95	-41.0	-42.4	19.4	0.00e+00	0	29	0	1288699904	54	6761
2026-01-12 15:53:19.67	231.07	12.57	-40.9	-42.3	19.3	0.00e+00	0	29	0	1296039936	54	6681
2026-01-12 15:53:23.72	230.86	12.20	-41.2	-42.7	19.1	0.00e+00	0	28	0	1303379968	54	6983
2026-01-12 15:53:27.75	230.65	11.83	-40.8	-42.3	19.4	0.00e+00	0	28	0	1310720000	54	6637
2026-01-12 15:53:31.79	230.45	11.47	-40.8	-42.2	19.4	0.00e+00	0	29	0	1318060032	54	6589
2026-01-12 15:53:35.83	230.26	11.11	-41.1	-42.6	19.0	0.00e+00	0	28	0	1326448640	54	6904
2026-01-12 15:53:39.87	230.07	10.75	-41.5	-43.2	18.5	0.00e+00	0	28	0	1333788672	54	7369
2026-01-12 15:53:43.90	229.89	10.41	-42.4	-44.3	17.5	0.00e+00	0	29	0	1341128704	56	7487
2026-01-12 15:53:47.94	229.71	10.06	-42.6	-44.7	17.0	0.00e+00	0	28	0	1348468736	58	6945
2026-01-12 15:53:51.98	229.54	9.72	-42.9	-45.1	16.5	0.00e+00	0	28	0	1355808768	58	7332
2026-01-12 15:53:56.02	229.37	9.38	-43.3	-45.7	16.0	0.00e+00	0	28	0	1364197376	58	7834
2026-01-12 15:54:00.05	229.20	9.05	-43.2	-45.5	16.2	0.00e+00	0	28	0	1371537408	58	7625
2026-01-12 15:54:04.09	229.04	8.73	-43.3	-45.6	16.1	0.00e+00	0	28	0	1378877440	58	7739
2026-01-12 15:54:08.13	228.88	8.40	-43.1	-45.4	16.1	0.00e+00	0	28	0	1386217472	58	7558
2026-01-12 15:54:12.17	228.72	8.08	-43.4	-45.8	15.7	0.00e+00	0	28	0	1394606080	58	7933
2026-01-12 15:54:16.21	228.57	7.77	-43.3	-45.8	15.6	0.00e+00	0	28	0	1401946112	58	7910
2026-01-12 15:54:20.24	228.43	7.46	-43.6	-46.3	15.3	0.00e+00	0	28	0	1409286144	60	7444
2026-01-12 15:54:24.28	228.28	7.15	-43.6	-46.3	15.1	0.00e+00	0	28	0	1416626176	60	7437
2026-01-12 15:54:28.31	228.14	6.84	-43.6	-46.4	14.9	0.00e+00	0	28	0	1423966208	60	7556
2026-01-12 15:54:32.35	228.00	6.54	-43.9	-47.0	14.4	0.00e+00	0	28	0	1432354816	60	8099
2026-01-12 15:54:36.39	227.87	6.24	-43.9	-47.0	14.3	7.00e-07	0	29	0	1439694848	60	8046
2026-01-12 15:54:40.43	227.74	5.95	-44.0	-47.3	13.8	6.10e-06	0	28	0	1447034880	60	8415
2026-01-12 15:54:44.47	227.61	5.65	-44.2	-47.6	13.4	1.14e-05	0	28	0	1454374912	60	8718
2026-01-12 15:54:48.51	227.48	5.37	-44.2	-47.7	13.3	2.21e-05	0	29	0	1462763520	60	8759
2026-01-12 15:54:52.54	227.36	5.08	-44.4	-48.2	12.6	7.17e-05	0	28	0	1470103552	60	9310
2026-01-12 15:54:56.58	227.24	4.80	-44.4	-48.4	12.3	1.73e-04	0	28	0	1477443584	60	9465
2026-01-12 15:55:00.61	227.12	4.52	-44.6	-49.1	11.3	5.94e-04	0	28	0	1484783616	60	10290
2026-01-12 15:55:04.65	227.00	4.24	-44.5	-49.1	11.2	1.01e-03	0	28	0	1492123648	60	10293
2026-01-12 15:55:08.69	226.89	3.97	-44.7	-49.8	10.2	2.34e-03	0	29	0	1500512256	60	11126
2026-01-12 15:55:12.72	226.78	3.69	-44.9	-50.5	9.4	1.30e-02	0	28	0	1507852288	60	12056
2026-01-12 15:55:16.76	226.67	3.42	-44.6	-49.9	9.9	8.38e-03	0	28	0	1515192320	60	11357
2026-01-12 15:55:20.80	226.56	3.16	-44.7	-50.4	9.4	1.77e-02	0	29	0	1522532352	60	11932
2026-01-12 15:55:24.84	226.46	2.89	-47.5	-62.9	3.6	1.51e+00	0	29	104	1527775232	60	50388
2026-01-12 15:55:28.88	226.36	2.63	-48.4	-63.6	3.6	1.51e+00	0	28	104	1527775232	60	54886
2026-01-12 15:55:32.92	226.26	2.37	-48.4	-63.6	3.6	1.51e+00	0	29	104	1527775232	60	54860
2026-01-12 15:55:36.95	226.16	2.11	-48.2	-63.5	3.6	1.51e+00	0	28	104	1527775232	60	54045
2026-01-12 15:55:40.99	226.06	1.86	-48.3	-63.5	3.6	1.51e+00	0	28	104	1527775232	60	53935
2026-01-12 15:55:45.03	225.97	1.61	-48.3	-63.5	3.6	1.51e+00	0	28	104	1527775232	60	54182
2026-01-12 15:55:49.07	225.87	1.35	-48.3	-63.5	3.6	1.51e+00	0	28	104	1527775232	60	54269
2026-01-12 15:55:53.10	225.78	1.11	-48.3	-63.5	3.6	1.51e+00	0	28	104	1527775232	60	53935
2026-01-12 15:55:57.14	225.69	0.86	-48.4	-63.6	3.6	1.51e+00	0	28	104	1527775232	60	54524
2026-01-12 15:56:01.18	225.60	0.61	-48.3	-63.5	3.6	1.51e+00	0	28	104	1527775232	60	54077
2026-01-12 15:56:05.22	225.52	0.37	-48.3	-63.5	3.6	1.51e+00	0	28	104	1527775232	60	53955
2026-01-12 15:56:09.25	225.43	0.13	-48.3	-63.5	3.6	1.51e+00	0	28	104	1527775232	60	54056
2026-01-12 15:56:13.30	225.35	-0.11	-48.3	-63.5	3.6	1.51e+00	0	28	104	1527775232	60	54326

#Closed at: 2026-01-12 15:56:13
#Recorded file [1527 MB]: D:/lorett/data/35029_260113_034100.dat