passes_logs/2026/01/12/R4.6S_Anadyr/R4.6S_Anadyr__20260112_232627_NOAA_21_JPSS-2_rec.log

#Pass ID: 20260112_232627_NOAA 21 (JPSS-2)
#Satellite: NOAA 21 (JPSS-2)
#Configuration: NOAA-21
#almurnet v.1.7.20251203
#Start time: 2026-01-12 23:26:31

#Version: 2.2.20231116
#Station: R4.6S_Anadyr
#Location: 177.4865 lon 64.73178 lat
#TLE: 1 54234U 22150A   26012.26378519  .00000063  00000+0  50547-4 0  9993
#TLE: 2 54234  98.7495 313.1967 0000726 309.1075  51.0036 14.19534275164425

#Time	Az	El	Level	Level2	SNR	BER	BlckErr	Temp	State	Recorded	gain1	gain2
2026-01-12 23:26:31.48	137.12	0.26	-48.7	-50.2	5.7	0.00e+00	0	25	0	0	60	39849
2026-01-12 23:26:35.39	137.05	0.50	-48.7	-61.6	3.5	1.51e+00	0	26	104	0	60	42058
2026-01-12 23:26:39.30	136.97	0.73	-48.4	-61.3	3.5	1.52e+00	0	26	104	0	60	40609
2026-01-12 23:26:43.20	136.90	0.97	-47.6	-60.4	3.5	1.52e+00	0	27	104	0	60	36573
2026-01-12 23:26:47.11	136.82	1.21	-46.9	-60.0	3.5	1.52e+00	0	27	104	0	60	34962
2026-01-12 23:26:51.01	136.74	1.45	-46.9	-59.9	3.5	1.52e+00	0	27	104	0	60	34670
2026-01-12 23:26:54.92	136.67	1.70	-46.9	-59.9	3.5	1.52e+00	0	27	104	0	60	34832
2026-01-12 23:26:58.83	136.59	1.95	-46.9	-59.7	3.5	1.52e+00	0	27	104	0	60	33849
2026-01-12 23:27:02.75	136.50	2.20	-46.9	-59.9	3.5	1.51e+00	0	27	104	0	60	34768
2026-01-12 23:27:06.65	136.42	2.45	-46.8	-59.7	3.5	1.52e+00	0	27	104	0	60	34004
2026-01-12 23:27:10.55	136.33	2.70	-46.8	-59.0	3.5	1.51e+00	0	27	104	0	60	31371
2026-01-12 23:27:14.45	136.25	2.95	-46.9	-59.6	3.5	1.52e+00	0	27	104	0	60	33371
2026-01-12 23:27:18.35	136.16	3.21	-46.1	-53.5	6.1	4.77e-01	0	27	104	0	60	16681
2026-01-12 23:27:22.26	136.07	3.47	-42.5	-45.0	14.1	2.20e-06	0	27	0	11534336	58	6992
2026-01-12 23:27:26.17	135.98	3.73	-41.1	-43.0	16.1	0.00e+00	0	27	0	23068672	56	6268
2026-01-12 23:27:30.08	135.88	4.00	-37.9	-39.2	19.9	0.00e+00	0	27	0	26214400	50	5691
2026-01-12 23:27:33.99	135.79	4.27	-37.7	-39.0	20.1	0.00e+00	0	27	0	32505856	48	6245
2026-01-12 23:27:37.90	135.69	4.54	-37.6	-38.8	20.3	0.00e+00	0	27	0	44040192	48	6123
2026-01-12 23:27:41.81	135.59	4.81	-37.5	-38.7	20.4	0.00e+00	0	27	0	56623104	48	6046
2026-01-12 23:27:45.72	135.49	5.08	-37.3	-38.5	20.7	0.00e+00	0	27	0	69206016	48	5890
2026-01-12 23:27:49.63	135.38	5.36	-37.3	-38.4	20.8	0.00e+00	0	27	0	80740352	48	5836
2026-01-12 23:27:53.53	135.27	5.64	-37.3	-38.4	20.9	0.00e+00	0	27	0	93323264	48	5847
2026-01-12 23:27:57.43	135.17	5.93	-37.0	-38.1	21.1	0.00e+00	0	27	0	105906176	48	5637
2026-01-12 23:28:01.34	135.05	6.21	-37.0	-38.1	21.2	0.00e+00	0	27	0	117440512	48	5601
2026-01-12 23:28:05.24	134.94	6.50	-36.9	-38.0	21.3	0.00e+00	0	27	0	130023424	48	5550
2026-01-12 23:28:09.15	134.82	6.79	-36.8	-37.9	21.5	0.00e+00	0	27	0	141557760	46	6180
2026-01-12 23:28:13.05	134.71	7.09	-36.6	-37.6	21.7	0.00e+00	0	27	0	154140672	46	5993
2026-01-12 23:28:16.95	134.58	7.39	-36.4	-37.5	21.8	0.00e+00	0	27	0	166723584	46	5910
2026-01-12 23:28:20.87	134.46	7.69	-36.1	-37.3	22.1	0.00e+00	0	27	0	178257920	46	5759
2026-01-12 23:28:24.77	134.33	8.00	-36.0	-37.1	22.2	0.00e+00	0	27	0	190840832	46	5623
2026-01-12 23:28:28.67	134.20	8.31	-36.1	-37.1	22.3	0.00e+00	0	27	0	203423744	46	5647
2026-01-12 23:28:32.58	134.07	8.62	-35.7	-36.7	22.5	0.00e+00	0	27	0	214958080	44	6064
2026-01-12 23:28:36.49	133.93	8.94	-35.7	-36.7	22.6	0.00e+00	0	27	0	227540992	44	6026
2026-01-12 23:28:40.40	133.79	9.26	-35.5	-36.6	22.8	0.00e+00	0	27	0	240123904	44	5935
2026-01-12 23:28:44.30	133.65	9.59	-35.4	-36.4	22.9	0.00e+00	0	27	0	251658240	44	5842
2026-01-12 23:28:48.21	133.50	9.92	-35.2	-36.2	23.0	0.00e+00	0	27	0	264241152	44	5708
2026-01-12 23:28:52.12	133.35	10.25	-35.2	-36.2	23.1	0.00e+00	0	27	0	276824064	44	5675
2026-01-12 23:28:56.02	133.20	10.59	-34.9	-35.9	23.4	0.00e+00	0	27	0	288358400	44	5476
2026-01-12 23:28:59.93	133.04	10.93	-35.1	-36.1	23.2	0.00e+00	0	27	0	300941312	44	5624
2026-01-12 23:29:03.84	132.88	11.28	-34.9	-35.8	23.4	0.00e+00	0	27	0	312475648	44	5445
2026-01-12 23:29:07.76	132.71	11.63	-34.8	-35.8	23.5	0.00e+00	0	27	0	325058560	42	6079
2026-01-12 23:29:11.65	132.54	11.99	-34.7	-35.6	23.5	0.00e+00	0	27	0	337641472	42	5986
2026-01-12 23:29:15.56	132.37	12.35	-34.7	-35.6	23.6	0.00e+00	0	27	0	349175808	42	5990
2026-01-12 23:29:19.47	132.19	12.72	-34.7	-35.6	23.6	0.00e+00	0	27	0	361758720	42	5975
2026-01-12 23:29:23.38	132.00	13.09	-34.8	-35.7	23.5	0.00e+00	0	27	0	374341632	42	6059
2026-01-12 23:29:27.29	131.81	13.47	-34.7	-35.7	23.6	0.00e+00	0	28	0	385875968	42	6021
2026-01-12 23:29:31.19	131.62	13.85	-34.7	-35.7	23.7	0.00e+00	0	27	0	398458880	42	5997
2026-01-12 23:29:35.09	131.42	14.24	-34.6	-35.6	23.8	0.00e+00	0	28	0	411041792	42	5944
2026-01-12 23:29:38.99	131.22	14.64	-34.7	-35.6	23.8	0.00e+00	0	27	0	422576128	42	5985
2026-01-12 23:29:42.91	131.00	15.04	-34.5	-35.4	23.9	0.00e+00	0	28	0	435159040	42	5851
2026-01-12 23:29:46.81	130.79	15.45	-34.6	-35.5	23.9	0.00e+00	0	28	0	447741952	42	5896
2026-01-12 23:29:50.71	130.56	15.86	-34.5	-35.4	24.0	0.00e+00	0	28	0	459276288	42	5854
2026-01-12 23:29:54.63	130.33	16.28	-34.6	-35.5	24.0	0.00e+00	0	28	0	471859200	42	5909
2026-01-12 23:29:58.53	130.09	16.71	-34.5	-35.5	23.9	0.00e+00	0	28	0	483393536	42	5865
2026-01-12 23:30:02.44	129.85	17.14	-34.6	-35.6	23.7	0.00e+00	0	28	0	495976448	42	5982
2026-01-12 23:30:06.35	129.59	17.59	-34.7	-35.7	23.8	0.00e+00	0	27	0	508559360	42	6015
2026-01-12 23:30:10.25	129.33	18.03	-34.8	-35.8	23.8	0.00e+00	0	27	0	520093696	42	6103
2026-01-12 23:30:14.16	129.07	18.49	-34.8	-35.8	23.9	0.00e+00	0	28	0	532676608	42	6090
2026-01-12 23:30:18.07	128.79	18.96	-34.6	-35.6	24.0	0.00e+00	0	27	0	545259520	42	5942
2026-01-12 23:30:21.98	128.50	19.43	-34.6	-35.5	24.0	0.00e+00	0	27	0	556793856	42	5889
2026-01-12 23:30:25.88	128.21	19.91	-34.2	-35.1	24.2	0.00e+00	0	27	0	569376768	42	5640
2026-01-12 23:30:29.78	127.90	20.40	-34.0	-34.9	24.3	0.00e+00	0	28	0	581959680	42	5518
2026-01-12 23:30:33.69	127.59	20.90	-33.8	-34.7	24.5	0.00e+00	0	28	0	593494016	42	5363
2026-01-12 23:30:37.59	127.26	21.41	-33.4	-34.3	24.7	0.00e+00	0	28	0	606076928	40	5782
2026-01-12 23:30:41.51	126.92	21.93	-33.1	-34.0	25.1	0.00e+00	0	28	0	618659840	40	5585
2026-01-12 23:30:45.41	126.57	22.45	-33.1	-34.1	25.0	0.00e+00	0	28	0	630194176	40	5595
2026-01-12 23:30:49.32	126.21	22.99	-32.8	-33.7	25.3	0.00e+00	0	28	0	642777088	40	5380
2026-01-12 23:30:53.22	125.83	23.53	-33.0	-33.8	25.2	0.00e+00	0	28	0	654311424	40	5465
2026-01-12 23:30:57.14	125.44	24.09	-32.9	-33.8	25.3	0.00e+00	0	27	0	666894336	40	5426
2026-01-12 23:31:01.05	125.04	24.66	-33.1	-33.9	25.2	0.00e+00	0	27	0	679477248	40	5511
2026-01-12 23:31:04.95	124.62	25.24	-33.3	-34.2	25.0	0.00e+00	0	28	0	691011584	40	5669
2026-01-12 23:31:08.87	124.18	25.83	-33.4	-34.4	24.9	0.00e+00	0	28	0	703594496	40	5800
2026-01-12 23:31:12.77	123.73	26.43	-33.8	-34.7	24.7	0.00e+00	0	28	0	716177408	40	6001
2026-01-12 23:31:16.68	123.26	27.04	-34.0	-34.9	24.4	0.00e+00	0	28	0	727711744	40	6186
2026-01-12 23:31:20.58	122.77	27.66	-34.5	-35.4	24.2	0.00e+00	0	27	0	740294656	40	6540
2026-01-12 23:31:24.48	122.26	28.30	-34.8	-35.7	23.9	0.00e+00	0	28	0	752877568	42	6048
2026-01-12 23:31:28.40	121.73	28.95	-34.6	-35.6	24.0	0.00e+00	0	28	0	764411904	42	5932
2026-01-12 23:31:32.30	121.17	29.61	-34.5	-35.4	24.0	0.00e+00	0	28	0	776994816	42	5829
2026-01-12 23:31:36.20	120.60	30.28	-34.4	-35.3	24.2	0.00e+00	0	28	0	789577728	42	5769
2026-01-12 23:31:40.11	119.99	30.96	-34.2	-35.1	24.5	0.00e+00	0	28	0	801112064	42	5618
2026-01-12 23:31:44.03	119.36	31.66	-33.8	-34.7	24.5	0.00e+00	0	28	0	813694976	40	6012
2026-01-12 23:31:47.93	118.71	32.37	-34.2	-35.2	23.9	0.00e+00	0	28	0	825229312	40	6359
2026-01-12 23:31:51.84	118.02	33.10	-34.3	-35.2	24.3	0.00e+00	0	28	0	837812224	40	6419
2026-01-12 23:31:55.75	117.30	33.83	-34.1	-35.0	24.5	0.00e+00	0	28	0	850395136	40	6253
2026-01-12 23:31:59.65	116.54	34.58	-34.9	-35.9	23.7	0.00e+00	0	28	0	861929472	42	6144
2026-01-12 23:32:03.56	115.75	35.34	-35.7	-36.7	23.2	0.00e+00	0	28	0	874512384	42	6741
2026-01-12 23:32:07.47	114.92	36.11	-35.6	-36.6	23.3	0.00e+00	0	28	0	887095296	44	5935
2026-01-12 23:32:11.38	114.05	36.89	-36.0	-37.0	22.8	0.00e+00	0	28	0	898629632	44	6223
2026-01-12 23:32:15.29	113.14	37.69	-36.4	-37.4	22.7	0.00e+00	0	28	0	911212544	44	6524
2026-01-12 23:32:19.20	112.18	38.49	-36.4	-37.4	22.6	0.00e+00	0	27	0	923795456	44	6515
2026-01-12 23:32:23.12	111.17	39.31	-36.6	-37.6	22.4	0.00e+00	0	28	0	935329792	44	6703
2026-01-12 23:32:27.03	110.11	40.13	-36.1	-37.1	22.9	0.00e+00	0	28	0	947912704	44	6307
2026-01-12 23:32:30.94	108.99	40.96	-36.1	-37.1	22.9	0.00e+00	0	28	0	960495616	44	6325
2026-01-12 23:32:34.85	107.81	41.80	-36.4	-37.4	22.5	0.00e+00	0	27	0	972029952	44	6539
2026-01-12 23:32:38.75	106.57	42.64	-36.6	-37.6	22.5	0.00e+00	0	28	0	984612864	46	5956
2026-01-12 23:32:42.67	105.26	43.48	-36.0	-37.0	23.0	0.00e+00	0	28	0	997195776	46	5545
2026-01-12 23:32:46.58	103.88	44.33	-36.7	-37.8	21.9	0.00e+00	0	28	0	1008730112	46	6069
2026-01-12 23:32:50.48	102.43	45.17	-36.5	-37.4	22.7	0.00e+00	0	28	0	1021313024	46	5853
2026-01-12 23:32:54.39	100.90	46.01	-36.8	-37.8	22.2	0.00e+00	0	28	0	1033895936	46	6090
2026-01-12 23:32:58.30	99.28	46.84	-36.6	-37.6	22.5	0.00e+00	0	28	0	1045430272	46	5970
2026-01-12 23:33:02.20	97.58	47.66	-36.7	-37.7	22.4	0.00e+00	0	28	0	1058013184	46	6045
2026-01-12 23:33:06.10	95.78	48.46	-36.5	-37.4	22.7	0.00e+00	0	28	0	1070596096	46	5848
2026-01-12 23:33:10.01	93.89	49.25	-36.6	-37.6	22.2	0.00e+00	0	28	0	1082130432	46	5972
2026-01-12 23:33:13.91	91.90	50.02	-36.4	-37.4	22.7	0.00e+00	0	27	0	1094713344	46	5827
2026-01-12 23:33:17.81	89.81	50.76	-35.6	-36.6	23.3	0.00e+00	0	27	0	1106247680	44	5959
2026-01-12 23:33:21.72	87.61	51.47	-35.4	-36.4	23.3	0.00e+00	0	28	0	1118830592	44	5809
2026-01-12 23:33:25.63	85.31	52.14	-34.6	-35.6	24.2	0.00e+00	0	28	0	1131413504	42	5934
2026-01-12 23:33:29.53	82.91	52.77	-34.4	-35.3	24.3	0.00e+00	0	28	0	1142947840	42	5771
2026-01-12 23:33:33.44	80.40	53.36	-34.5	-35.4	24.2	0.00e+00	0	28	0	1155530752	42	5812
2026-01-12 23:33:37.35	77.79	53.89	-35.3	-36.2	23.5	0.00e+00	0	28	0	1168113664	42	6381
2026-01-12 23:33:41.26	75.09	54.36	-34.7	-35.6	24.0	0.00e+00	0	28	0	1179648000	42	5971
2026-01-12 23:33:45.17	72.31	54.78	-34.4	-35.3	24.2	0.00e+00	0	28	0	1192230912	42	5786
2026-01-12 23:33:49.07	69.45	55.12	-34.2	-35.0	24.6	0.00e+00	0	28	0	1204813824	42	5588
2026-01-12 23:33:52.98	66.53	55.40	-34.6	-35.5	24.1	0.00e+00	0	28	0	1216348160	42	5893
2026-01-12 23:33:56.88	63.56	55.60	-34.6	-35.5	24.1	0.00e+00	0	28	0	1228931072	42	5898
2026-01-12 23:34:00.79	60.55	55.73	-34.3	-35.2	24.3	0.00e+00	0	28	0	1240465408	42	5695
2026-01-12 23:34:04.69	57.53	55.77	-34.9	-35.8	23.9	0.00e+00	0	28	0	1253048320	42	6127
2026-01-12 23:34:08.60	54.51	55.74	-34.5	-35.4	24.3	0.00e+00	0	28	0	1265631232	42	5796
2026-01-12 23:34:12.51	51.49	55.63	-34.6	-35.6	23.6	0.00e+00	0	28	0	1277165568	42	5946
2026-01-12 23:34:16.42	48.51	55.45	-34.8	-35.8	23.9	0.00e+00	0	28	0	1289748480	42	6082
2026-01-12 23:34:20.32	45.58	55.19	-34.2	-35.1	24.4	0.00e+00	0	28	0	1302331392	42	5628
2026-01-12 23:34:24.22	42.72	54.85	-34.9	-35.8	24.0	0.00e+00	0	28	0	1313865728	42	6101
2026-01-12 23:34:28.12	39.93	54.46	-34.3	-35.2	24.5	0.00e+00	0	28	0	1326448640	42	5674
2026-01-12 23:34:32.03	37.21	53.99	-35.1	-36.1	23.7	0.00e+00	0	28	0	1339031552	42	6303
2026-01-12 23:34:35.94	34.59	53.47	-34.9	-35.8	24.0	0.00e+00	0	28	0	1350565888	42	6089
2026-01-12 23:34:39.85	32.06	52.90	-35.1	-36.1	23.7	0.00e+00	0	28	0	1363148800	42	6283
2026-01-12 23:34:43.74	29.65	52.28	-34.4	-35.3	24.1	0.00e+00	0	28	0	1374683136	42	5738
2026-01-12 23:34:47.65	27.33	51.62	-35.1	-36.1	23.8	0.00e+00	0	28	0	1387266048	42	6287
2026-01-12 23:34:51.56	25.11	50.92	-36.0	-37.0	22.3	0.00e+00	0	27	0	1399848960	46	5582
2026-01-12 23:34:55.47	23.00	50.18	-36.1	-37.1	22.8	0.00e+00	0	27	0	1411383296	44	6295
2026-01-12 23:34:59.37	20.99	49.42	-36.6	-37.7	21.9	0.00e+00	0	27	0	1423966208	46	6037
2026-01-12 23:35:03.29	19.08	48.64	-36.0	-36.9	23.0	0.00e+00	0	27	0	1436549120	44	6198
2026-01-12 23:35:07.19	17.27	47.84	-37.3	-38.3	21.8	0.00e+00	0	28	0	1448083456	46	6483
2026-01-12 23:35:11.10	15.55	47.02	-35.5	-36.4	23.5	0.00e+00	0	28	0	1460666368	44	5816
2026-01-12 23:35:15.01	13.92	46.19	-37.3	-38.4	21.9	0.00e+00	0	28	0	1473249280	48	5808
2026-01-12 23:35:18.91	12.37	45.36	-35.3	-36.2	23.6	0.00e+00	0	28	0	1484783616	44	5676
2026-01-12 23:35:22.82	10.91	44.52	-37.5	-38.5	21.6	0.00e+00	0	28	0	1497366528	46	6648
2026-01-12 23:35:26.73	9.51	43.68	-35.4	-36.4	23.4	0.00e+00	0	28	0	1509949440	44	5813
2026-01-12 23:35:30.63	8.20	42.84	-35.8	-36.8	23.2	0.00e+00	0	28	0	1521483776	44	6082
2026-01-12 23:35:34.54	6.95	42.00	-36.2	-37.3	22.4	0.00e+00	0	28	0	1534066688	44	6452
2026-01-12 23:35:38.44	5.76	41.17	-35.2	-36.2	23.3	0.00e+00	0	28	0	1545601024	44	5665
2026-01-12 23:35:42.34	4.64	40.35	-37.7	-38.8	21.4	0.00e+00	0	27	0	1558183936	48	6103
2026-01-12 23:35:46.23	3.57	39.53	-35.9	-36.8	23.2	0.00e+00	0	27	0	1570766848	46	5443
2026-01-12 23:35:50.14	2.55	38.72	-35.4	-36.4	23.5	0.00e+00	0	27	0	1582301184	44	5803
2026-01-12 23:35:54.05	1.59	37.91	-37.3	-38.4	21.8	0.00e+00	0	28	0	1594884096	46	6537
2026-01-12 23:35:57.95	0.67	37.12	-36.1	-37.1	22.9	0.00e+00	0	28	0	1607467008	46	5624
2026-01-12 23:36:01.86	359.79	36.34	-35.2	-36.2	23.5	0.00e+00	0	27	0	1619001344	44	5670
2026-01-12 23:36:05.76	358.96	35.57	-35.3	-36.2	23.5	0.00e+00	0	27	0	1631584256	44	5722
2026-01-12 23:36:09.68	358.16	34.80	-34.4	-35.3	24.3	0.00e+00	0	27	0	1644167168	42	5731
2026-01-12 23:36:13.58	357.40	34.06	-35.1	-36.0	23.6	0.00e+00	0	28	0	1655701504	42	6245
2026-01-12 23:36:17.49	356.67	33.32	-35.0	-36.0	23.8	0.00e+00	0	28	0	1668284416	42	6222
2026-01-12 23:36:21.40	355.98	32.60	-34.8	-35.7	23.9	0.00e+00	0	27	0	1680867328	42	6050
2026-01-12 23:36:25.30	355.32	31.89	-34.2	-35.1	24.4	0.00e+00	0	28	0	1692401664	42	5652
2026-01-12 23:36:29.21	354.69	31.19	-33.9	-34.7	24.6	0.00e+00	0	28	0	1704984576	42	5385
2026-01-12 23:36:33.11	354.08	30.51	-33.7	-34.6	24.8	0.00e+00	0	27	0	1716518912	40	5962
2026-01-12 23:36:37.02	353.50	29.83	-34.4	-35.4	24.1	0.00e+00	0	27	0	1729101824	40	6532
2026-01-12 23:36:40.92	352.94	29.17	-34.8	-35.8	23.8	0.00e+00	0	28	0	1741684736	42	6083
2026-01-12 23:36:44.83	352.41	28.53	-34.3	-35.2	24.3	0.00e+00	0	28	0	1753219072	42	5677
2026-01-12 23:36:48.73	351.90	27.89	-33.7	-34.6	24.7	0.00e+00	0	28	0	1765801984	40	5965
2026-01-12 23:36:52.64	351.40	27.27	-33.4	-34.3	25.0	0.00e+00	0	28	0	1778384896	40	5731
2026-01-12 23:36:56.55	350.93	26.65	-33.5	-34.4	25.0	0.00e+00	0	28	0	1789919232	40	5813
2026-01-12 23:37:00.46	350.48	26.05	-34.0	-34.9	24.6	0.00e+00	0	28	0	1802502144	40	6138
2026-01-12 23:37:04.37	350.04	25.46	-34.0	-34.9	24.6	0.00e+00	0	28	0	1815085056	40	6198
2026-01-12 23:37:08.28	349.62	24.88	-33.7	-34.6	24.7	0.00e+00	0	28	0	1826619392	40	5949
2026-01-12 23:37:12.18	349.21	24.32	-33.7	-34.6	24.8	0.00e+00	0	28	0	1839202304	40	5940
2026-01-12 23:37:16.09	348.82	23.76	-33.3	-34.1	25.0	0.00e+00	0	28	0	1851785216	40	5659
2026-01-12 23:37:20.01	348.44	23.21	-33.5	-34.4	24.9	0.00e+00	0	28	0	1863319552	40	5797
2026-01-12 23:37:23.91	348.08	22.67	-33.7	-34.6	24.7	0.00e+00	0	27	0	1875902464	40	5983
2026-01-12 23:37:27.81	347.73	22.15	-34.0	-34.9	24.5	0.00e+00	0	28	0	1887436800	40	6136
2026-01-12 23:37:31.71	347.39	21.63	-34.0	-34.9	24.4	0.00e+00	0	28	0	1900019712	40	6185
2026-01-12 23:37:35.62	347.06	21.12	-34.0	-35.0	24.4	0.00e+00	0	27	0	1912602624	40	6214
2026-01-12 23:37:39.53	346.75	20.62	-34.0	-34.9	24.5	0.00e+00	0	28	0	1924136960	40	6139
2026-01-12 23:37:43.43	346.44	20.13	-34.1	-35.0	24.3	0.00e+00	0	27	0	1936719872	40	6225
2026-01-12 23:37:47.34	346.15	19.65	-34.0	-34.9	24.3	0.00e+00	0	27	0	1949302784	40	6187
2026-01-12 23:37:51.25	345.86	19.17	-33.9	-34.8	24.3	0.00e+00	0	28	0	1960837120	40	6104
2026-01-12 23:37:55.16	345.58	18.71	-33.8	-34.8	24.3	0.00e+00	0	27	0	1973420032	40	6065
2026-01-12 23:37:59.07	345.31	18.25	-33.9	-34.8	24.4	0.00e+00	0	28	0	1986002944	40	6095
2026-01-12 23:38:02.98	345.05	17.80	-34.0	-34.9	24.4	0.00e+00	0	28	0	1997537280	40	6143
2026-01-12 23:38:06.88	344.80	17.36	-34.2	-35.1	24.2	0.00e+00	0	27	0	2010120192	40	6312
2026-01-12 23:38:10.78	344.56	16.92	-34.6	-35.5	23.9	0.00e+00	0	28	0	2022703104	40	6606
2026-01-12 23:38:14.69	344.32	16.50	-34.8	-35.7	23.8	0.00e+00	0	28	0	2034237440	42	6043
2026-01-12 23:38:18.59	344.09	16.08	-34.9	-35.8	23.6	0.00e+00	0	28	0	2046820352	42	6117
2026-01-12 23:38:22.50	343.87	15.66	-35.0	-36.0	23.5	0.00e+00	0	28	0	2058354688	42	6242
2026-01-12 23:38:26.41	343.65	15.25	-34.9	-35.8	23.6	0.00e+00	0	28	0	2070937600	42	6133
2026-01-12 23:38:30.31	343.44	14.85	-34.8	-35.7	23.7	0.00e+00	0	27	0	2083520512	42	6028
2026-01-12 23:38:34.23	343.24	14.45	-34.9	-35.9	23.5	0.00e+00	0	28	0	2095054848	42	6170
2026-01-12 23:38:38.14	343.04	14.06	-34.8	-35.7	23.6	0.00e+00	0	27	0	2107637760	42	6031
2026-01-12 23:38:42.05	342.84	13.68	-34.8	-35.7	23.6	0.00e+00	0	28	0	2120220672	42	6061
2026-01-12 23:38:45.96	342.65	13.30	-34.9	-35.9	23.5	0.00e+00	0	27	0	2131755008	42	6171
2026-01-12 23:38:49.86	342.47	12.93	-35.1	-36.1	23.4	0.00e+00	0	27	0	2144337920	42	6300
2026-01-12 23:38:53.78	342.29	12.56	-35.2	-36.1	23.3	0.00e+00	0	27	0	2156920832	42	6340
2026-01-12 23:38:57.68	342.12	12.20	-35.5	-36.5	23.0	0.00e+00	0	27	0	2168455168	42	6579
2026-01-12 23:39:01.59	341.95	11.84	-35.7	-36.6	22.9	0.00e+00	0	27	0	2181038080	42	6721
2026-01-12 23:39:05.49	341.79	11.49	-35.5	-36.5	23.1	0.00e+00	0	27	0	2193620992	42	6593
2026-01-12 23:39:09.41	341.63	11.14	-35.4	-36.4	23.1	0.00e+00	0	27	0	2205155328	42	6522
2026-01-12 23:39:13.31	341.47	10.80	-35.5	-36.4	23.0	0.00e+00	0	27	0	2217738240	42	6573
2026-01-12 23:39:17.22	341.32	10.46	-35.5	-36.4	22.9	0.00e+00	0	28	0	2229272576	44	5857
2026-01-12 23:39:21.13	341.17	10.13	-35.7	-36.7	22.7	0.00e+00	0	28	0	2241855488	44	6017
2026-01-12 23:39:25.04	341.02	9.80	-35.6	-36.6	22.8	0.00e+00	0	28	0	2254438400	44	5956
2026-01-12 23:39:28.94	340.88	9.47	-35.8	-36.8	22.5	0.00e+00	0	27	0	2265972736	44	6105
2026-01-12 23:39:32.86	340.75	9.15	-36.0	-37.0	22.4	0.00e+00	0	27	0	2278555648	44	6250
2026-01-12 23:39:36.76	340.61	8.83	-36.2	-37.2	22.2	0.00e+00	0	27	0	2291138560	44	6411
2026-01-12 23:39:40.66	340.48	8.52	-36.4	-37.5	21.9	0.00e+00	0	27	0	2302672896	44	6599
2026-01-12 23:39:44.56	340.35	8.21	-36.6	-37.6	21.7	0.00e+00	0	27	0	2315255808	44	6712
2026-01-12 23:39:48.47	340.23	7.90	-36.7	-37.7	21.6	0.00e+00	0	27	0	2327838720	46	6046
2026-01-12 23:39:52.38	340.11	7.60	-36.8	-37.9	21.6	0.00e+00	0	28	0	2339373056	46	6137
2026-01-12 23:39:56.28	339.99	7.30	-37.0	-38.1	21.3	0.00e+00	0	27	0	2351955968	46	6281
2026-01-12 23:40:00.19	339.87	7.00	-37.3	-38.4	21.0	0.00e+00	0	27	0	2364538880	46	6573
2026-01-12 23:40:04.09	339.76	6.71	-37.3	-38.4	20.9	0.00e+00	0	27	0	2376073216	46	6529
2026-01-12 23:40:08.00	339.65	6.42	-37.1	-38.3	20.9	0.00e+00	0	27	0	2388656128	46	6445
2026-01-12 23:40:11.92	339.54	6.13	-37.2	-38.4	20.8	0.00e+00	0	28	0	2400190464	46	6506
2026-01-12 23:40:15.83	339.43	5.85	-37.4	-38.6	20.5	0.00e+00	0	28	0	2412773376	46	6672
2026-01-12 23:40:19.74	339.33	5.56	-38.0	-39.3	19.6	0.00e+00	0	28	0	2425356288	48	6453
2026-01-12 23:40:23.65	339.22	5.29	-38.7	-40.2	18.3	0.00e+00	0	28	0	2436890624	50	6376
2026-01-12 23:40:27.57	339.12	5.01	-40.0	-41.9	16.1	0.00e+00	0	28	0	2449473536	52	6885
2026-01-12 23:40:31.48	339.03	4.74	-41.4	-44.1	13.3	1.22e-05	0	27	0	2462056448	54	7942
2026-01-12 23:40:35.39	338.93	4.47	-42.7	-46.8	9.6	8.59e-03	0	27	0	2474639360	56	9671
2026-01-12 23:40:39.29	338.84	4.20	-43.3	-49.5	6.1	2.38e-01	0	27	0	2486173696	58	11729
2026-01-12 23:40:43.20	338.75	3.94	-43.6	-53.5	4.1	1.48e+00	0	27	104	2488270848	58	18577
2026-01-12 23:40:47.11	338.66	3.67	-43.7	-56.5	3.5	1.52e+00	0	28	104	2488270848	60	23548
2026-01-12 23:40:51.02	338.57	3.41	-43.7	-56.1	3.5	1.52e+00	0	28	104	2488270848	60	22353
2026-01-12 23:40:54.92	338.49	3.16	-43.6	-56.6	3.5	1.52e+00	0	28	104	2488270848	60	23611
2026-01-12 23:40:58.83	338.40	2.90	-48.0	-60.8	3.5	1.52e+00	0	28	104	2488270848	60	38449
2026-01-12 23:41:02.74	338.32	2.65	-48.7	-61.6	3.5	1.52e+00	0	28	104	2488270848	60	41968
2026-01-12 23:41:06.64	338.24	2.40	-48.8	-61.7	3.5	1.52e+00	0	28	104	2488270848	60	42463
2026-01-12 23:41:10.55	338.16	2.15	-48.6	-61.5	3.5	1.52e+00	0	28	104	2488270848	60	41501
2026-01-12 23:41:14.46	338.08	1.90	-48.7	-61.5	3.5	1.52e+00	0	28	104	2488270848	60	41701
2026-01-12 23:41:18.38	338.01	1.66	-48.6	-61.5	3.5	1.52e+00	0	28	104	2488270848	60	41699
2026-01-12 23:41:22.29	337.93	1.41	-48.6	-61.5	3.5	1.52e+00	0	28	104	2488270848	60	41592
2026-01-12 23:41:26.20	337.86	1.17	-48.6	-61.5	3.5	1.52e+00	0	28	104	2488270848	60	41500
2026-01-12 23:41:30.11	337.79	0.93	-48.7	-61.5	3.5	1.52e+00	0	28	104	2488270848	60	41834
2026-01-12 23:41:34.02	337.72	0.70	-48.7	-61.5	3.5	1.52e+00	0	28	104	2488270848	60	41719
2026-01-12 23:41:37.94	337.65	0.46	-48.7	-61.5	3.5	1.52e+00	0	28	104	2488270848	60	41770
2026-01-12 23:41:41.85	337.58	0.23	-48.6	-61.4	3.5	1.52e+00	0	28	104	2488270848	60	41314
2026-01-12 23:41:45.76	337.52	-0.01	-48.6	-61.5	3.5	1.51e+00	0	28	104	2488270848	60	41596

#Closed at: 2026-01-12 23:41:48
#Recorded file [2488 MB]: D:/lorett/data/35029_260113_112631.dat