passes_logs/2026/01/12/R4.6S_Anadyr/R4.6S_Anadyr__20260112_222522_TY-39_rec.log

#Pass ID: 20260112_222522_TY-39
#Satellite: TY-39
#Configuration: TY-39
#almurnet v.1.7.20251203
#Start time: 2026-01-12 22:25:26

#Version: 2.2.20231116
#Station: R4.6S_Anadyr
#Location: 177.4865 lon 64.73178 lat
#TLE: 1 51832U 22019J   26012.32466558  .00003209  00000-0  15361-3 0  9996
#TLE: 2 51832  97.3649  79.0801 0010062  60.6005 299.6233 15.19628684214124

#Time	Az	El	Level	Level2	SNR	BER	BlckErr	Temp	State	Recorded	gain1	gain2
2026-01-12 22:25:26.68	18.60	0.24	-48.5	-60.9	3.4	1.52e+00	0	25	0	0	60	39131
2026-01-12 22:25:29.71	18.69	0.43	-48.7	-51.2	3.6	0.00e+00	0	27	104	0	60	44321
2026-01-12 22:25:32.74	18.78	0.63	-48.6	-51.1	3.6	0.00e+00	0	27	104	0	60	43869
2026-01-12 22:25:35.76	18.88	0.82	-48.2	-50.7	3.6	0.00e+00	0	27	104	0	60	41753
2026-01-12 22:25:38.79	18.97	1.02	-47.5	-50.0	3.6	0.00e+00	0	27	104	0	60	38664
2026-01-12 22:25:41.82	19.07	1.22	-47.3	-49.8	3.6	0.00e+00	0	27	104	0	60	37940
2026-01-12 22:25:44.85	19.16	1.42	-47.3	-49.8	3.6	0.00e+00	0	28	104	0	60	37864
2026-01-12 22:25:47.88	19.26	1.62	-47.3	-49.7	3.6	0.00e+00	0	28	104	0	60	37626
2026-01-12 22:25:50.91	19.36	1.83	-47.3	-49.8	3.6	0.00e+00	0	28	104	0	60	37665
2026-01-12 22:25:53.94	19.46	2.04	-47.3	-49.7	3.6	0.00e+00	0	28	104	0	60	37556
2026-01-12 22:25:56.96	19.57	2.24	-47.3	-49.8	3.6	0.00e+00	0	28	104	0	60	37647
2026-01-12 22:25:59.99	19.67	2.45	-47.3	-49.8	3.6	0.00e+00	0	28	104	0	60	37654
2026-01-12 22:26:03.02	19.78	2.67	-47.3	-49.7	3.6	0.00e+00	0	28	104	0	60	37485
2026-01-12 22:26:06.05	19.89	2.88	-47.3	-49.7	3.6	0.00e+00	0	28	104	0	60	37351
2026-01-12 22:26:09.08	19.99	3.10	-47.3	-49.7	3.6	0.00e+00	0	28	104	0	60	37490
2026-01-12 22:26:12.10	20.11	3.32	-47.3	-49.7	3.6	0.00e+00	0	28	104	0	60	37550
2026-01-12 22:26:15.13	20.22	3.54	-47.3	-49.7	3.6	0.00e+00	0	28	104	0	60	37512
2026-01-12 22:26:18.17	20.34	3.76	-47.3	-49.7	3.5	0.00e+00	0	28	104	0	60	37487
2026-01-12 22:26:21.19	20.45	3.99	-47.3	-49.7	3.5	0.00e+00	0	28	104	0	60	37625
2026-01-12 22:26:24.22	20.57	4.22	-47.4	-49.9	3.6	0.00e+00	0	28	104	0	60	38217
2026-01-12 22:26:27.25	20.70	4.45	-47.3	-49.8	3.6	0.00e+00	0	28	104	0	60	37641
2026-01-12 22:26:30.28	20.82	4.68	-46.6	-48.7	3.6	1.93e-03	0	28	104	33554432	60	33519
2026-01-12 22:26:33.30	20.94	4.92	-31.1	-31.5	14.4	0.00e+00	0	29	0	176160768	38	16416
2026-01-12 22:26:36.33	21.07	5.16	-30.2	-30.6	14.7	0.00e+00	0	29	0	402653184	36	16606
2026-01-12 22:26:39.36	21.20	5.40	-29.8	-30.2	14.9	0.00e+00	0	29	0	629145600	34	17654
2026-01-12 22:26:42.39	21.34	5.64	-29.1	-29.5	15.4	0.00e+00	0	29	0	855638016	34	16308
2026-01-12 22:26:45.42	21.47	5.89	-28.9	-29.3	15.5	0.00e+00	0	29	0	1082130432	34	16041
2026-01-12 22:26:48.44	21.61	6.14	-28.8	-29.3	15.4	0.00e+00	0	29	0	1317011456	34	15900
2026-01-12 22:26:51.48	21.75	6.40	-28.7	-29.1	15.6	0.00e+00	0	29	0	1535115264	32	17580
2026-01-12 22:26:54.51	21.90	6.65	-28.7	-29.2	15.5	0.00e+00	0	29	0	1769996288	32	17623
2026-01-12 22:26:57.54	22.05	6.92	-28.4	-28.9	15.6	0.00e+00	0	29	0	1996488704	32	17047
2026-01-12 22:27:00.57	22.20	7.18	-28.5	-28.9	15.7	0.00e+00	0	29	0	2222981120	32	17139
2026-01-12 22:27:03.60	22.35	7.45	-28.3	-28.8	15.7	0.00e+00	0	29	0	2449473536	32	16819
2026-01-12 22:27:06.62	22.51	7.72	-28.3	-28.7	15.8	0.00e+00	0	29	0	2675965952	32	16720
2026-01-12 22:27:09.65	22.67	7.99	-28.1	-28.5	15.8	0.00e+00	0	29	0	2902458368	32	16323
2026-01-12 22:27:12.67	22.83	8.27	-28.1	-28.5	15.8	0.00e+00	0	29	0	3128950784	32	16408
2026-01-12 22:27:15.70	23.00	8.55	-27.8	-28.3	15.9	0.00e+00	0	29	0	3355443200	32	15876
2026-01-12 22:27:18.73	23.17	8.84	-27.8	-28.3	15.9	0.00e+00	0	29	0	3581935616	30	17818
2026-01-12 22:27:21.76	23.34	9.13	-27.6	-28.0	16.0	0.00e+00	0	29	0	3808428032	30	17326
2026-01-12 22:27:24.79	23.52	9.43	-27.7	-28.1	15.9	0.00e+00	0	29	0	4043309056	30	17523
2026-01-12 22:27:27.82	23.71	9.73	-27.5	-27.9	16.0	0.00e+00	0	29	0	4261412864	30	17108
2026-01-12 22:27:30.85	23.89	10.04	-27.5	-28.0	16.0	0.00e+00	0	29	0	4496293888	30	17247
2026-01-12 22:27:33.88	24.09	10.35	-27.2	-27.6	16.1	0.00e+00	0	29	0	4722786304	30	16511
2026-01-12 22:27:36.91	24.28	10.66	-27.0	-27.5	16.0	0.00e+00	0	29	0	4949278720	30	16309
2026-01-12 22:27:39.94	24.49	10.98	-27.0	-27.5	16.0	0.00e+00	0	30	0	5175771136	30	16261
2026-01-12 22:27:42.96	24.69	11.31	-26.9	-27.4	16.1	0.00e+00	0	29	0	5402263552	30	16069
2026-01-12 22:27:45.99	24.90	11.64	-26.7	-27.1	16.1	0.00e+00	0	29	0	5628755968	28	17586
2026-01-12 22:27:49.02	25.12	11.97	-26.7	-27.1	16.2	0.00e+00	0	30	0	5855248384	28	17486
2026-01-12 22:27:52.05	25.35	12.32	-26.4	-26.9	16.3	0.00e+00	0	30	0	6081740800	28	17104
2026-01-12 22:27:55.08	25.58	12.67	-26.4	-26.9	16.2	0.00e+00	0	30	0	6308233216	28	17023
2026-01-12 22:27:58.10	25.81	13.02	-26.3	-26.8	16.4	0.00e+00	0	30	0	6534725632	28	16839
2026-01-12 22:28:01.13	26.05	13.38	-26.2	-26.6	16.3	0.00e+00	0	30	0	6761218048	28	16597
2026-01-12 22:28:04.16	26.30	13.75	-26.1	-26.6	16.3	0.00e+00	0	30	0	6987710464	28	16460
2026-01-12 22:28:07.19	26.56	14.13	-26.0	-26.5	16.4	0.00e+00	0	30	0	7214202880	28	16351
2026-01-12 22:28:10.22	26.82	14.51	-25.9	-26.4	16.4	0.00e+00	0	30	0	7449083904	26	18068
2026-01-12 22:28:13.25	27.10	14.90	-26.0	-26.5	16.4	0.00e+00	0	30	0	7675576320	26	18258
2026-01-12 22:28:16.28	27.38	15.30	-25.7	-26.1	16.5	0.00e+00	0	30	0	7902068736	26	17505
2026-01-12 22:28:19.31	27.67	15.71	-25.5	-26.0	16.3	0.00e+00	0	30	0	8128561152	26	17225
2026-01-12 22:28:22.33	27.96	16.12	-25.3	-25.8	16.4	0.00e+00	0	30	0	8355053568	26	16831
2026-01-12 22:28:25.36	28.27	16.54	-25.3	-25.8	16.6	0.00e+00	0	30	0	8581545984	26	16883
2026-01-12 22:28:28.38	28.59	16.98	-25.1	-25.5	16.7	0.00e+00	0	30	0	8808038400	26	16333
2026-01-12 22:28:31.41	28.92	17.42	-24.9	-25.4	16.6	0.00e+00	0	30	0	9034530816	26	16115
2026-01-12 22:28:34.44	29.25	17.87	-25.0	-25.4	16.6	0.00e+00	0	30	0	9261023232	26	16205
2026-01-12 22:28:37.46	29.60	18.33	-24.8	-25.3	16.5	0.00e+00	0	30	0	9487515648	24	17820
2026-01-12 22:28:40.49	29.97	18.80	-24.7	-25.1	16.7	0.00e+00	0	30	0	9714008064	24	17522
2026-01-12 22:28:43.52	30.34	19.28	-24.5	-24.9	16.7	0.00e+00	0	30	0	9940500480	24	17118
2026-01-12 22:28:46.55	30.73	19.78	-24.3	-24.8	16.6	0.00e+00	0	30	0	10175381504	24	16837
2026-01-12 22:28:49.58	31.13	20.28	-24.2	-24.7	16.8	0.00e+00	0	30	0	10393485312	24	16661
2026-01-12 22:28:52.61	31.55	20.80	-24.1	-24.6	16.9	0.00e+00	0	30	0	10628366336	24	16481
2026-01-12 22:28:55.63	31.98	21.33	-23.9	-24.4	16.8	0.00e+00	0	30	0	10846470144	24	16091
2026-01-12 22:28:58.66	32.44	21.87	-23.9	-24.3	16.8	0.00e+00	0	30	0	11081351168	24	16045
2026-01-12 22:29:01.69	32.90	22.42	-23.7	-24.1	16.8	0.00e+00	0	30	0	11307843584	22	17566
2026-01-12 22:29:04.72	33.39	22.99	-23.6	-24.0	16.8	0.00e+00	0	30	0	11534336000	22	17329
2026-01-12 22:29:07.74	33.90	23.57	-23.5	-23.9	16.8	0.00e+00	0	30	0	11760828416	22	17131
2026-01-12 22:29:10.77	34.43	24.17	-23.3	-23.7	16.9	0.00e+00	0	30	0	11987320832	22	16770
2026-01-12 22:29:13.80	34.98	24.78	-23.1	-23.5	16.9	0.00e+00	0	30	0	12213813248	22	16353
2026-01-12 22:29:16.83	35.55	25.41	-23.1	-23.5	16.8	0.00e+00	0	30	0	12440305664	22	16348
2026-01-12 22:29:19.86	36.16	26.05	-22.9	-23.3	17.0	0.00e+00	0	30	0	12666798080	22	16008
2026-01-12 22:29:22.89	36.78	26.71	-22.6	-23.1	16.9	0.00e+00	0	30	0	12893290496	20	17432
2026-01-12 22:29:25.92	37.44	27.38	-22.5	-23.0	16.9	0.00e+00	0	30	0	13119782912	20	17307
2026-01-12 22:29:28.95	38.13	28.07	-22.4	-22.8	17.0	0.00e+00	0	30	0	13354663936	20	16952
2026-01-12 22:29:31.97	38.85	28.78	-22.2	-22.6	17.0	0.00e+00	0	30	0	13572767744	20	16526
2026-01-12 22:29:34.99	39.60	29.50	-22.0	-22.5	17.0	0.00e+00	0	30	0	13807648768	20	16261
2026-01-12 22:29:38.02	40.39	30.24	-21.9	-22.4	17.1	0.00e+00	0	30	0	14034141184	20	16180
2026-01-12 22:29:41.05	41.23	31.00	-21.7	-22.2	17.0	0.00e+00	0	30	0	14260633600	18	17651
2026-01-12 22:29:44.08	42.10	31.78	-21.6	-22.0	17.0	0.00e+00	0	30	0	14487126016	18	17396
2026-01-12 22:29:47.11	43.03	32.58	-21.4	-21.8	17.0	0.00e+00	0	30	0	14713618432	18	16975
2026-01-12 22:29:50.14	44.00	33.39	-21.3	-21.7	17.1	0.00e+00	0	30	0	14940110848	18	16778
2026-01-12 22:29:53.17	45.03	34.22	-21.1	-21.6	17.1	0.00e+00	0	30	0	15166603264	18	16536
2026-01-12 22:29:56.20	46.11	35.07	-21.0	-21.5	17.0	0.00e+00	0	30	0	15393095680	18	16252
2026-01-12 22:29:59.23	47.25	35.93	-20.8	-21.2	17.0	0.00e+00	0	30	0	15619588096	18	15807
2026-01-12 22:30:02.25	48.46	36.80	-20.7	-21.1	17.1	0.00e+00	0	30	0	15846080512	16	17590
2026-01-12 22:30:05.28	49.74	37.69	-20.6	-21.1	17.2	0.00e+00	0	30	0	16072572928	16	17472
2026-01-12 22:30:08.31	51.09	38.59	-20.3	-20.7	17.2	0.00e+00	0	30	0	16299065344	16	16807
2026-01-12 22:30:11.34	52.53	39.50	-20.3	-20.7	17.2	0.00e+00	0	30	0	16525557760	16	16753
2026-01-12 22:30:14.36	54.05	40.41	-20.1	-20.6	17.2	0.00e+00	0	30	0	16760438784	16	16473
2026-01-12 22:30:17.39	55.66	41.34	-20.0	-20.5	17.2	0.00e+00	0	30	0	16978542592	16	16271
2026-01-12 22:30:20.41	57.37	42.26	-19.7	-20.2	17.1	0.00e+00	0	30	0	17213423616	14	17671
2026-01-12 22:30:23.44	59.19	43.18	-19.6	-20.1	17.2	0.00e+00	0	30	0	17439916032	14	17528
2026-01-12 22:30:26.47	61.11	44.09	-19.6	-20.1	17.2	0.00e+00	0	30	0	17666408448	14	17437
2026-01-12 22:30:29.50	63.16	44.99	-19.6	-20.0	17.2	0.00e+00	0	30	0	17892900864	14	17360
2026-01-12 22:30:32.53	65.32	45.87	-19.3	-19.7	17.3	0.00e+00	0	30	0	18119393280	14	16754
2026-01-12 22:30:35.55	67.60	46.72	-19.2	-19.7	17.2	0.00e+00	0	30	0	18345885696	14	16667
2026-01-12 22:30:38.58	70.02	47.55	-19.1	-19.6	17.2	0.00e+00	0	30	0	18572378112	14	16523
2026-01-12 22:30:41.60	72.57	48.33	-19.1	-19.6	17.2	0.00e+00	0	30	0	18798870528	14	16433
2026-01-12 22:30:44.63	75.25	49.07	-19.0	-19.4	17.2	0.00e+00	0	30	0	19025362944	14	16212
2026-01-12 22:30:47.66	78.07	49.75	-18.8	-19.3	17.2	0.00e+00	0	30	0	19251855360	14	15871
2026-01-12 22:30:50.68	81.00	50.37	-18.7	-19.2	17.3	0.00e+00	0	30	0	19478347776	12	17646
2026-01-12 22:30:53.71	84.05	50.92	-18.8	-19.3	17.2	0.00e+00	0	30	0	19704840192	12	17921
2026-01-12 22:30:56.74	87.22	51.39	-18.7	-19.1	17.3	0.00e+00	0	30	0	19931332608	12	17532
2026-01-12 22:30:59.77	90.48	51.77	-18.5	-19.0	17.3	0.00e+00	0	30	0	20157825024	12	17242
2026-01-12 22:31:02.79	93.80	52.06	-18.6	-19.0	17.2	0.00e+00	0	30	0	20384317440	12	17366
2026-01-12 22:31:05.81	97.18	52.25	-18.5	-18.9	17.2	0.00e+00	0	30	0	20619198464	12	17186
2026-01-12 22:31:08.84	100.61	52.34	-18.5	-19.0	17.2	0.00e+00	0	30	0	20845690880	12	17245
2026-01-12 22:31:11.87	104.04	52.33	-18.5	-19.0	17.2	0.00e+00	0	30	0	21072183296	12	17202
2026-01-12 22:31:14.90	107.46	52.22	-18.5	-18.9	17.2	0.00e+00	0	30	0	21298675712	12	17127
2026-01-12 22:31:17.92	110.83	52.00	-18.6	-19.1	17.3	0.00e+00	0	30	0	21525168128	12	17520
2026-01-12 22:31:20.95	114.15	51.69	-18.6	-19.0	17.2	0.00e+00	0	30	0	21751660544	12	17359
2026-01-12 22:31:23.98	117.39	51.29	-18.7	-19.2	17.3	0.00e+00	0	30	0	21978152960	12	17612
2026-01-12 22:31:27.00	120.53	50.80	-18.8	-19.2	17.3	0.00e+00	0	30	0	22204645376	12	17762
2026-01-12 22:31:30.03	123.56	50.24	-18.8	-19.3	17.2	0.00e+00	0	30	0	22431137792	12	17808
2026-01-12 22:31:33.06	126.47	49.60	-18.8	-19.3	17.2	0.00e+00	0	30	0	22657630208	12	17834
2026-01-12 22:31:36.09	129.26	48.90	-18.9	-19.4	17.3	0.00e+00	0	30	0	22884122624	12	18096
2026-01-12 22:31:39.12	131.92	48.15	-19.0	-19.4	17.2	0.00e+00	0	30	0	23110615040	12	18124
2026-01-12 22:31:42.15	134.44	47.35	-19.1	-19.6	17.2	0.00e+00	0	30	0	23345496064	12	18519
2026-01-12 22:31:45.17	136.83	46.52	-19.1	-19.6	17.3	0.00e+00	0	30	0	23563599872	12	18542
2026-01-12 22:31:48.20	139.09	45.66	-19.2	-19.7	17.2	0.00e+00	0	30	0	23798480896	12	18729
2026-01-12 22:31:51.23	141.23	44.77	-19.4	-19.9	17.2	0.00e+00	0	30	0	24016584704	12	19167
2026-01-12 22:31:54.25	143.24	43.87	-19.5	-20.0	17.2	0.00e+00	0	30	0	24251465728	12	19437
2026-01-12 22:31:57.28	145.14	42.95	-19.6	-20.0	17.2	0.00e+00	0	30	0	24477958144	12	19498
2026-01-12 22:32:00.31	146.94	42.03	-19.8	-20.3	17.3	0.00e+00	0	30	0	24704450560	14	17940
2026-01-12 22:32:03.33	148.62	41.11	-20.1	-20.5	17.3	0.00e+00	0	30	0	24930942976	14	18385
2026-01-12 22:32:06.36	150.22	40.18	-20.0	-20.5	17.2	0.00e+00	0	30	0	25157435392	14	18335
2026-01-12 22:32:09.39	151.72	39.27	-20.2	-20.6	17.2	0.00e+00	0	30	0	25383927808	14	18572
2026-01-12 22:32:12.42	153.14	38.36	-20.4	-20.8	17.2	0.00e+00	0	30	0	25610420224	14	19011
2026-01-12 22:32:15.45	154.48	37.46	-20.4	-20.9	17.2	0.00e+00	0	30	0	25836912640	14	19203
2026-01-12 22:32:18.47	155.74	36.57	-20.7	-21.2	17.2	0.00e+00	0	30	0	26063405056	16	17633
2026-01-12 22:32:21.50	156.93	35.70	-20.7	-21.2	17.2	0.00e+00	0	30	0	26289897472	16	17655
2026-01-12 22:32:24.53	158.06	34.84	-21.0	-21.4	17.2	0.00e+00	0	30	0	26516389888	16	18176
2026-01-12 22:32:27.56	159.13	33.99	-21.1	-21.6	17.1	0.00e+00	0	30	0	26742882304	16	18564
2026-01-12 22:32:30.59	160.15	33.17	-21.2	-21.7	17.1	0.00e+00	0	30	0	26977763328	16	18663
2026-01-12 22:32:33.62	161.11	32.35	-21.4	-21.9	17.1	0.00e+00	0	30	0	27204255744	16	19143
2026-01-12 22:32:36.65	162.02	31.56	-21.5	-22.0	17.1	0.00e+00	0	30	0	27430748160	16	19424
2026-01-12 22:32:39.68	162.89	30.79	-21.7	-22.2	17.1	0.00e+00	0	30	0	27657240576	18	17698
2026-01-12 22:32:42.70	163.71	30.03	-21.7	-22.2	17.2	0.00e+00	0	30	0	27883732992	18	17749
2026-01-12 22:32:45.73	164.49	29.29	-22.0	-22.5	17.1	0.00e+00	0	30	0	28110225408	18	18269
2026-01-12 22:32:48.76	165.24	28.57	-22.2	-22.6	17.0	0.00e+00	0	30	0	28336717824	18	18615
2026-01-12 22:32:51.79	165.95	27.86	-22.3	-22.8	17.1	0.00e+00	0	30	0	28563210240	18	18894
2026-01-12 22:32:54.81	166.63	27.17	-22.4	-22.9	17.0	0.00e+00	0	30	0	28789702656	18	19121
2026-01-12 22:32:57.84	167.28	26.50	-22.6	-23.0	17.0	0.00e+00	0	30	0	29016195072	18	19517
2026-01-12 22:33:00.86	167.90	25.85	-22.6	-23.1	17.1	0.00e+00	0	30	0	29242687488	18	19657
2026-01-12 22:33:03.89	168.50	25.21	-22.8	-23.3	17.0	0.00e+00	0	30	0	29469179904	20	17882
2026-01-12 22:33:06.92	169.07	24.58	-23.0	-23.4	17.0	0.00e+00	0	30	0	29695672320	20	18203
2026-01-12 22:33:09.95	169.61	23.97	-23.1	-23.5	17.0	0.00e+00	0	30	0	29930553344	20	18423
2026-01-12 22:33:12.98	170.13	23.38	-23.3	-23.8	16.9	0.00e+00	0	30	0	30148657152	20	18965
2026-01-12 22:33:16.00	170.64	22.80	-23.5	-24.0	16.9	0.00e+00	0	30	0	30383538176	20	19383
2026-01-12 22:33:19.03	171.12	22.24	-23.6	-24.0	16.9	0.00e+00	0	30	0	30601641984	20	19479
2026-01-12 22:33:22.06	171.58	21.68	-23.7	-24.2	16.8	0.00e+00	0	30	0	30836523008	20	19772
2026-01-12 22:33:25.09	172.03	21.14	-23.9	-24.4	16.9	0.00e+00	0	30	0	31063015424	22	18088
2026-01-12 22:33:28.12	172.46	20.62	-24.0	-24.5	16.9	0.00e+00	0	30	0	31289507840	22	18345
2026-01-12 22:33:31.15	172.87	20.10	-24.2	-24.6	16.8	0.00e+00	0	30	0	31516000256	22	18616
2026-01-12 22:33:34.18	173.27	19.60	-24.3	-24.8	16.8	0.00e+00	0	30	0	31742492672	22	18963
2026-01-12 22:33:37.21	173.66	19.11	-24.4	-24.9	16.8	0.00e+00	0	30	0	31968985088	22	19162
2026-01-12 22:33:40.24	174.03	18.62	-24.6	-25.0	16.7	0.00e+00	0	30	0	32195477504	22	19512
2026-01-12 22:33:43.26	174.39	18.16	-24.7	-25.2	16.8	0.00e+00	0	30	0	32421969920	22	19752
2026-01-12 22:33:46.29	174.73	17.70	-24.9	-25.4	16.8	0.00e+00	0	30	0	32648462336	24	18031
2026-01-12 22:33:49.32	175.07	17.25	-24.9	-25.4	16.7	0.00e+00	0	30	0	32874954752	24	18033
2026-01-12 22:33:52.35	175.39	16.80	-25.1	-25.6	16.7	0.00e+00	0	30	0	33109835776	24	18488
2026-01-12 22:33:55.38	175.71	16.37	-25.2	-25.6	16.4	0.00e+00	0	30	0	33327939584	24	18545
2026-01-12 22:33:58.40	176.01	15.95	-25.4	-25.8	16.5	0.00e+00	0	30	0	33562820608	24	19048
2026-01-12 22:34:01.43	176.30	15.54	-25.5	-26.0	16.5	0.00e+00	0	30	0	33789313024	24	19425
2026-01-12 22:34:04.46	176.59	15.13	-25.6	-26.0	16.6	0.00e+00	0	30	0	34015805440	24	19460
2026-01-12 22:34:07.48	176.87	14.74	-25.7	-26.2	16.4	0.00e+00	0	30	0	34242297856	26	17717
2026-01-12 22:34:10.51	177.13	14.35	-25.8	-26.3	16.4	0.00e+00	0	30	0	34468790272	26	17848
2026-01-12 22:34:13.54	177.40	13.97	-25.9	-26.4	16.3	0.00e+00	0	30	0	34695282688	26	18076
2026-01-12 22:34:16.57	177.65	13.59	-26.1	-26.6	16.5	0.00e+00	0	30	0	34921775104	26	18501
2026-01-12 22:34:19.61	177.90	13.22	-26.3	-26.8	16.3	0.00e+00	0	30	0	35148267520	26	18866
2026-01-12 22:34:22.63	178.14	12.86	-26.3	-26.8	16.3	0.00e+00	0	30	0	35374759936	26	18895
2026-01-12 22:34:25.66	178.37	12.51	-26.3	-26.8	16.3	0.00e+00	0	30	0	35601252352	26	18956
2026-01-12 22:34:28.69	178.60	12.16	-26.5	-27.0	16.4	0.00e+00	0	30	0	35827744768	26	19319
2026-01-12 22:34:31.71	178.82	11.82	-26.6	-27.1	16.3	0.00e+00	0	30	0	36054237184	28	17492
2026-01-12 22:34:34.74	179.03	11.48	-26.8	-27.2	16.2	0.00e+00	0	30	0	36280729600	28	17804
2026-01-12 22:34:37.76	179.24	11.15	-26.9	-27.4	16.2	0.00e+00	0	30	0	36515610624	28	18080
2026-01-12 22:34:40.79	179.44	10.83	-27.0	-27.4	16.2	0.00e+00	0	30	0	36742103040	28	18149
2026-01-12 22:34:43.82	179.64	10.51	-27.1	-27.6	16.2	0.00e+00	0	30	0	36968595456	28	18478
2026-01-12 22:34:46.85	179.84	10.19	-27.2	-27.7	16.1	0.00e+00	0	30	0	37195087872	28	18708
2026-01-12 22:34:49.88	180.03	9.88	-27.2	-27.7	16.1	0.00e+00	0	30	0	37421580288	28	18688
2026-01-12 22:34:52.91	180.21	9.58	-27.4	-27.9	16.0	0.00e+00	0	30	0	37648072704	28	19141
2026-01-12 22:34:55.94	180.39	9.28	-27.5	-27.9	16.0	0.00e+00	0	30	0	37874565120	28	19281
2026-01-12 22:34:58.97	180.57	8.98	-47.6	-50.2	3.6	0.00e+00	0	30	104	37899730944	60	39496
2026-01-12 22:35:02.00	180.74	8.69	-47.8	-50.3	3.6	0.00e+00	0	30	104	37899730944	60	40285
2026-01-12 22:35:05.02	180.91	8.41	-47.6	-50.1	3.6	0.00e+00	0	30	104	37899730944	60	39236
2026-01-12 22:35:08.05	181.08	8.12	-47.8	-50.4	3.6	0.00e+00	0	30	104	37899730944	60	40511
2026-01-12 22:35:11.08	181.24	7.84	-47.7	-50.3	3.6	0.00e+00	0	30	104	37899730944	60	40046
2026-01-12 22:35:14.11	181.39	7.57	-47.7	-50.2	3.6	0.00e+00	0	30	104	37899730944	60	39858
2026-01-12 22:35:17.14	181.55	7.30	-47.9	-50.3	3.6	0.00e+00	0	30	104	37899730944	60	40286
2026-01-12 22:35:20.17	181.70	7.03	-47.8	-50.3	3.6	0.00e+00	0	30	104	37899730944	60	39930
2026-01-12 22:35:23.20	181.85	6.77	-47.8	-50.3	3.6	0.00e+00	0	30	104	37899730944	60	40190
2026-01-12 22:35:26.23	181.99	6.51	-48.0	-50.5	3.6	0.00e+00	0	30	104	37899730944	60	40916
2026-01-12 22:35:29.26	182.13	6.25	-47.8	-50.3	3.6	0.00e+00	0	30	104	37899730944	60	39890
2026-01-12 22:35:32.29	182.27	6.00	-47.7	-50.2	3.6	0.00e+00	0	30	104	37899730944	60	39747
2026-01-12 22:35:35.31	182.41	5.75	-47.1	-49.6	3.6	0.00e+00	0	30	104	37899730944	60	37176
2026-01-12 22:35:38.34	182.54	5.50	-47.2	-49.8	3.6	0.00e+00	0	30	104	37899730944	60	37687
2026-01-12 22:35:41.37	182.67	5.25	-47.0	-49.7	3.6	0.00e+00	0	30	104	37899730944	60	37313
2026-01-12 22:35:44.40	182.80	5.01	-47.3	-49.8	3.6	0.00e+00	0	30	104	37899730944	60	37975
2026-01-12 22:35:47.40	182.93	4.78	-47.4	-49.9	3.6	0.00e+00	0	30	104	37899730944	60	38493
2026-01-12 22:35:50.43	183.05	4.54	-47.3	-49.8	3.6	0.00e+00	0	30	104	37899730944	60	37892
2026-01-12 22:35:53.46	183.17	4.31	-47.3	-49.8	3.6	0.00e+00	0	30	104	37899730944	60	37924
2026-01-12 22:35:56.49	183.29	4.07	-46.9	-49.5	3.6	0.00e+00	0	30	104	37899730944	60	36658
2026-01-12 22:35:59.52	183.41	3.85	-46.9	-49.5	3.6	0.00e+00	0	30	104	37899730944	60	36572
2026-01-12 22:36:02.55	183.52	3.62	-47.3	-49.8	3.6	0.00e+00	0	30	104	37899730944	60	37883
2026-01-12 22:36:05.57	183.63	3.40	-47.3	-49.7	3.6	0.00e+00	0	30	104	37899730944	60	37485
2026-01-12 22:36:08.60	183.75	3.18	-47.4	-49.9	3.6	0.00e+00	0	30	104	37899730944	60	38398
2026-01-12 22:36:11.63	183.85	2.96	-47.6	-50.1	3.6	0.00e+00	0	30	104	37899730944	60	39126
2026-01-12 22:36:14.66	183.96	2.74	-48.4	-51.0	3.6	0.00e+00	0	30	104	37899730944	60	43231
2026-01-12 22:36:17.69	184.07	2.53	-48.7	-51.2	3.6	0.00e+00	0	30	104	37899730944	60	44259
2026-01-12 22:36:20.72	184.17	2.31	-48.0	-50.6	3.6	0.00e+00	0	30	104	37899730944	60	41669
2026-01-12 22:36:23.75	184.27	2.10	-48.4	-50.9	3.6	0.00e+00	0	30	104	37899730944	60	43126
2026-01-12 22:36:26.78	184.37	1.89	-48.6	-51.1	3.6	0.00e+00	0	29	104	37899730944	60	43882
2026-01-12 22:36:29.81	184.47	1.69	-48.6	-51.1	3.6	0.00e+00	0	30	104	37899730944	60	43960
2026-01-12 22:36:32.83	184.57	1.48	-48.5	-51.0	3.6	0.00e+00	0	30	104	37899730944	60	43640
2026-01-12 22:36:35.86	184.66	1.28	-48.6	-51.1	3.6	0.00e+00	0	30	104	37899730944	60	43787
2026-01-12 22:36:38.89	184.76	1.08	-48.6	-51.0	3.6	0.00e+00	0	29	104	37899730944	60	43602
2026-01-12 22:36:41.92	184.85	0.88	-48.5	-51.0	3.6	0.00e+00	0	30	104	37899730944	60	43502
2026-01-12 22:36:44.95	184.94	0.68	-48.6	-51.0	3.6	0.00e+00	0	30	104	37899730944	60	43594
2026-01-12 22:36:47.98	185.03	0.49	-48.6	-51.1	3.6	0.00e+00	0	30	104	37899730944	60	43742
2026-01-12 22:36:51.01	185.12	0.29	-48.6	-51.1	3.6	0.00e+00	0	30	104	37899730944	60	43936
2026-01-12 22:36:54.04	185.21	0.10	-48.6	-51.1	3.6	0.00e+00	0	29	104	37899730944	60	43879
2026-01-12 22:36:57.07	185.29	-0.09	-48.6	-51.0	3.6	0.00e+00	0	29	104	37899730944	60	43683

#Closed at: 2026-01-12 22:36:57
#Recorded file [37899 MB]: D:/lorett/data/35029_260113_102526.dat