passes_logs/2026/01/12/R4.6S_Anadyr/R4.6S_Anadyr__20260112_192038_NOAA_20_JPSS-1_rec.log

#Pass ID: 20260112_192038_NOAA 20 (JPSS-1)
#Satellite: NOAA 20 (JPSS-1)
#Configuration: NOAA 20
#almurnet v.1.7.20251203
#Start time: 2026-01-12 19:20:40

#Version: 2.2.20231116
#Station: R4.6S_Anadyr
#Location: 177.4865 lon 64.73178 lat
#TLE: 1 43013U 17073A   26011.59429536  .00000082  00000+0  59704-4 0  9990
#TLE: 2 43013  98.7632 312.5697 0001637  44.2118 315.9188 14.19535307422256

#Time	Az	El	Level	Level2	SNR	BER	BlckErr	Temp	State	Recorded	gain1	gain2
2026-01-12 19:20:40.26	51.84	0.08	-48.4	-63.3	3.5	1.51e+00	0	24	0	0	60	52919
2026-01-12 19:20:43.28	51.61	0.23	-48.5	-63.8	3.6	1.51e+00	0	26	104	0	60	55704
2026-01-12 19:20:46.30	51.38	0.38	-48.5	-63.7	3.6	1.51e+00	0	26	104	0	60	55204
2026-01-12 19:20:49.33	51.14	0.52	-48.4	-63.6	3.6	1.51e+00	0	26	104	0	60	54461
2026-01-12 19:20:52.36	50.91	0.67	-48.3	-63.4	3.6	1.51e+00	0	26	104	0	60	53709
2026-01-12 19:20:55.39	50.67	0.82	-47.9	-63.1	3.5	1.51e+00	0	26	104	0	60	51472
2026-01-12 19:20:58.42	50.43	0.97	-46.8	-62.0	3.6	1.51e+00	0	26	104	0	60	45372
2026-01-12 19:21:01.45	50.18	1.12	-46.8	-62.0	3.6	1.51e+00	0	26	104	0	60	45314
2026-01-12 19:21:04.47	49.94	1.26	-46.8	-62.0	3.6	1.51e+00	0	26	104	0	60	45246
2026-01-12 19:21:07.50	49.69	1.41	-46.8	-61.9	3.6	1.51e+00	0	26	104	0	60	45122
2026-01-12 19:21:10.53	49.43	1.56	-46.8	-61.9	3.6	1.51e+00	0	26	104	0	60	44919
2026-01-12 19:21:13.56	49.18	1.71	-46.7	-61.9	3.6	1.51e+00	0	26	104	0	60	44861
2026-01-12 19:21:16.59	48.92	1.86	-46.7	-61.8	3.6	1.51e+00	0	26	104	0	60	44699
2026-01-12 19:21:19.62	48.66	2.01	-46.7	-61.7	3.6	1.51e+00	0	26	104	0	60	44034
2026-01-12 19:21:22.65	48.40	2.16	-46.7	-61.5	3.6	1.51e+00	0	26	104	0	60	42746
2026-01-12 19:21:25.68	48.13	2.31	-46.7	-61.8	3.6	1.51e+00	0	26	104	0	60	44608
2026-01-12 19:21:28.71	47.86	2.46	-46.7	-61.8	3.6	1.51e+00	0	26	104	0	60	44666
2026-01-12 19:21:31.74	47.59	2.61	-46.7	-61.4	3.6	1.51e+00	0	26	104	0	60	42367
2026-01-12 19:21:34.77	47.32	2.76	-46.7	-61.3	3.6	1.51e+00	0	26	104	0	60	42152
2026-01-12 19:21:37.80	47.04	2.92	-46.2	-55.2	5.7	7.94e-01	0	26	0	0	60	20735
2026-01-12 19:21:40.82	46.76	3.07	-46.2	-53.9	6.0	1.25e-03	0	26	0	5242880	60	17841
2026-01-12 19:21:43.85	46.48	3.22	-42.4	-44.7	16.2	4.68e-04	0	26	0	6291456	58	6942
2026-01-12 19:21:46.88	46.19	3.37	-42.9	-45.5	15.3	0.00e+00	0	27	0	7340032	58	7598
2026-01-12 19:21:49.91	45.90	3.52	-41.9	-44.0	17.1	0.00e+00	0	26	0	12582912	58	6421
2026-01-12 19:21:52.93	45.61	3.67	-42.0	-44.1	17.0	0.00e+00	0	26	0	18874368	58	6529
2026-01-12 19:21:55.96	45.32	3.83	-42.0	-44.0	17.0	0.00e+00	0	26	0	24117248	58	6442
2026-01-12 19:21:58.99	45.02	3.98	-41.9	-43.9	17.2	0.00e+00	0	26	0	30408704	58	6372
2026-01-12 19:22:02.02	44.72	4.13	-41.9	-43.8	17.4	0.00e+00	0	26	0	35651584	58	6313
2026-01-12 19:22:05.05	44.41	4.28	-41.5	-43.3	17.9	0.00e+00	0	26	0	40894464	56	6679
2026-01-12 19:22:08.07	44.10	4.44	-41.7	-43.5	17.8	0.00e+00	0	26	0	47185920	56	6816
2026-01-12 19:22:11.10	43.79	4.59	-41.4	-43.1	18.1	0.00e+00	0	27	0	52428800	56	6522
2026-01-12 19:22:14.13	43.48	4.74	-41.5	-43.3	18.0	0.00e+00	0	27	0	58720256	56	6682
2026-01-12 19:22:17.16	43.16	4.90	-41.3	-43.0	18.4	0.00e+00	0	26	0	63963136	56	6429
2026-01-12 19:22:20.18	42.84	5.05	-41.3	-43.0	18.2	0.00e+00	0	27	0	70254592	56	6421
2026-01-12 19:22:23.21	42.51	5.20	-41.1	-42.8	18.5	0.00e+00	0	27	0	75497472	56	6292
2026-01-12 19:22:26.24	42.18	5.35	-41.0	-42.6	18.9	0.00e+00	0	27	0	80740352	56	6118
2026-01-12 19:22:29.26	41.85	5.51	-40.9	-42.5	19.0	0.00e+00	0	27	0	87031808	56	6039
2026-01-12 19:22:32.29	41.51	5.66	-40.7	-42.3	19.1	0.00e+00	0	27	0	92274688	54	6630
2026-01-12 19:22:35.32	41.17	5.81	-40.6	-42.2	19.3	0.00e+00	0	27	0	98566144	54	6547
2026-01-12 19:22:38.35	40.83	5.97	-40.6	-42.1	19.3	0.00e+00	0	27	0	103809024	54	6524
2026-01-12 19:22:41.37	40.48	6.12	-40.5	-42.0	19.4	0.00e+00	0	26	0	109051904	54	6442
2026-01-12 19:22:44.40	40.13	6.27	-40.7	-42.2	19.2	0.00e+00	0	26	0	115343360	54	6594
2026-01-12 19:22:47.42	39.78	6.42	-40.6	-42.1	19.3	0.00e+00	0	26	0	120586240	54	6493
2026-01-12 19:22:50.45	39.42	6.57	-40.5	-42.0	19.5	0.00e+00	0	26	0	126877696	54	6432
2026-01-12 19:22:53.48	39.06	6.73	-40.5	-42.0	19.5	0.00e+00	0	27	0	132120576	54	6418
2026-01-12 19:22:56.51	38.69	6.88	-40.4	-41.8	19.6	0.00e+00	0	27	0	137363456	54	6285
2026-01-12 19:22:59.53	38.32	7.03	-40.4	-41.9	19.8	0.00e+00	0	27	0	143654912	54	6318
2026-01-12 19:23:02.56	37.95	7.18	-40.3	-41.7	19.9	0.00e+00	0	27	0	148897792	54	6186
2026-01-12 19:23:05.59	37.57	7.33	-40.3	-41.7	19.9	0.00e+00	0	27	0	155189248	54	6181
2026-01-12 19:23:08.62	37.19	7.48	-40.5	-41.9	19.7	0.00e+00	0	27	0	160432128	54	6368
2026-01-12 19:23:11.64	36.80	7.63	-40.3	-41.7	19.9	0.00e+00	0	27	0	166723584	54	6191
2026-01-12 19:23:14.67	36.41	7.78	-40.3	-41.7	20.0	0.00e+00	0	27	0	171966464	54	6191
2026-01-12 19:23:17.70	36.02	7.93	-40.1	-41.4	20.2	0.00e+00	0	27	0	177209344	54	6021
2026-01-12 19:23:20.73	35.62	8.08	-40.1	-41.4	20.2	0.00e+00	0	26	0	183500800	54	6014
2026-01-12 19:23:23.76	35.21	8.23	-39.8	-41.1	20.5	0.00e+00	0	27	0	188743680	54	5802
2026-01-12 19:23:26.79	34.81	8.38	-39.8	-41.1	20.5	0.00e+00	0	27	0	195035136	54	5790
2026-01-12 19:23:29.82	34.40	8.53	-39.9	-41.2	20.5	0.00e+00	0	27	0	200278016	54	5833
2026-01-12 19:23:32.85	33.98	8.68	-39.8	-41.1	20.5	0.00e+00	0	27	0	205520896	54	5777
2026-01-12 19:23:35.87	33.56	8.82	-39.9	-41.1	20.5	0.00e+00	0	27	0	211812352	54	5824
2026-01-12 19:23:38.90	33.14	8.97	-39.8	-41.1	20.5	0.00e+00	0	27	0	217055232	52	6489
2026-01-12 19:23:41.93	32.71	9.11	-39.9	-41.2	20.5	0.00e+00	0	27	0	223346688	52	6583
2026-01-12 19:23:44.96	32.27	9.26	-39.8	-41.1	20.7	0.00e+00	0	27	0	228589568	52	6466
2026-01-12 19:23:47.99	31.84	9.40	-39.8	-41.1	20.6	0.00e+00	0	27	0	234881024	52	6505
2026-01-12 19:23:51.02	31.39	9.55	-39.6	-40.8	20.9	0.00e+00	0	27	0	240123904	52	6278
2026-01-12 19:23:54.05	30.95	9.69	-39.2	-40.4	21.3	0.00e+00	0	27	0	245366784	52	6008
2026-01-12 19:23:57.08	30.50	9.83	-39.2	-40.3	21.3	0.00e+00	0	27	0	251658240	52	5950
2026-01-12 19:24:00.11	30.04	9.97	-39.0	-40.1	21.5	0.00e+00	0	27	0	256901120	52	5825
2026-01-12 19:24:03.14	29.58	10.11	-38.6	-39.7	21.9	0.00e+00	0	27	0	263192576	50	6202
2026-01-12 19:24:06.17	29.12	10.25	-38.5	-39.6	22.0	0.00e+00	0	27	0	268435456	50	6136
2026-01-12 19:24:09.19	28.65	10.39	-38.2	-39.2	22.4	0.00e+00	0	27	0	273678336	50	5888
2026-01-12 19:24:12.22	28.18	10.52	-38.3	-39.3	22.4	0.00e+00	0	27	0	279969792	50	5931
2026-01-12 19:24:15.25	27.70	10.66	-38.2	-39.2	22.4	0.00e+00	0	27	0	285212672	50	5879
2026-01-12 19:24:18.28	27.22	10.79	-38.0	-39.0	22.6	0.00e+00	0	27	0	291504128	50	5753
2026-01-12 19:24:21.30	26.73	10.92	-38.0	-39.0	22.6	0.00e+00	0	27	0	296747008	50	5713
2026-01-12 19:24:24.34	26.24	11.05	-37.8	-38.8	22.7	0.00e+00	0	27	0	303038464	50	5621
2026-01-12 19:24:27.36	25.75	11.18	-37.8	-38.8	22.7	0.00e+00	0	27	0	308281344	48	6308
2026-01-12 19:24:30.39	25.25	11.31	-37.6	-38.6	22.9	0.00e+00	0	27	0	313524224	48	6139
2026-01-12 19:24:33.42	24.74	11.44	-37.4	-38.4	23.1	0.00e+00	0	27	0	319815680	48	5976
2026-01-12 19:24:36.45	24.23	11.57	-37.4	-38.4	23.2	0.00e+00	0	27	0	325058560	48	5977
2026-01-12 19:24:39.48	23.72	11.69	-37.5	-38.5	23.1	0.00e+00	0	27	0	331350016	48	6063
2026-01-12 19:24:42.51	23.20	11.81	-37.6	-38.5	23.0	0.00e+00	0	27	0	336592896	48	6099
2026-01-12 19:24:45.54	22.68	11.93	-37.5	-38.5	23.1	0.00e+00	0	27	0	341835776	48	6067
2026-01-12 19:24:48.57	22.15	12.05	-37.8	-38.8	22.7	0.00e+00	0	27	0	348127232	48	6300
2026-01-12 19:24:51.60	21.62	12.17	-37.7	-38.7	22.9	0.00e+00	0	27	0	353370112	48	6216
2026-01-12 19:24:54.62	21.09	12.28	-37.9	-38.9	22.7	0.00e+00	0	27	0	359661568	48	6381
2026-01-12 19:24:57.65	20.55	12.40	-38.0	-39.0	22.6	0.00e+00	0	27	0	364904448	48	6442
2026-01-12 19:25:00.68	20.01	12.51	-37.8	-38.8	22.9	0.00e+00	0	27	0	371195904	48	6251
2026-01-12 19:25:03.71	19.46	12.62	-37.8	-38.7	22.8	0.00e+00	0	27	0	376438784	48	6221
2026-01-12 19:25:06.73	18.91	12.72	-37.8	-38.8	22.8	0.00e+00	0	27	0	381681664	48	6287
2026-01-12 19:25:09.76	18.35	12.83	-37.8	-38.8	22.9	0.00e+00	0	27	0	387973120	48	6269
2026-01-12 19:25:12.79	17.79	12.93	-37.7	-38.7	23.0	0.00e+00	0	27	0	393216000	48	6183
2026-01-12 19:25:15.82	17.23	13.03	-37.5	-38.5	23.0	0.00e+00	0	27	0	399507456	48	6056
2026-01-12 19:25:18.84	16.66	13.13	-37.7	-38.7	23.0	0.00e+00	0	27	0	404750336	48	6199
2026-01-12 19:25:21.88	16.09	13.22	-37.5	-38.5	23.1	0.00e+00	0	27	0	409993216	48	6045
2026-01-12 19:25:24.91	15.52	13.32	-37.6	-38.6	23.1	0.00e+00	0	27	0	416284672	48	6134
2026-01-12 19:25:27.94	14.94	13.41	-37.4	-38.4	23.2	0.00e+00	0	27	0	421527552	48	5984
2026-01-12 19:25:30.97	14.36	13.49	-37.3	-38.3	23.3	0.00e+00	0	27	0	427819008	48	5921
2026-01-12 19:25:33.99	13.77	13.58	-37.6	-38.5	23.1	0.00e+00	0	27	0	433061888	48	6071
2026-01-12 19:25:37.03	13.18	13.66	-37.3	-38.2	23.4	0.00e+00	0	27	0	439353344	48	5893
2026-01-12 19:25:40.06	12.59	13.74	-37.4	-38.3	23.4	0.00e+00	0	27	0	444596224	48	5955
2026-01-12 19:25:43.08	12.00	13.82	-37.4	-38.4	23.2	0.00e+00	0	27	0	449839104	48	5967
2026-01-12 19:25:46.11	11.40	13.89	-37.6	-38.5	23.2	0.00e+00	0	27	0	456130560	48	6083
2026-01-12 19:25:49.14	10.80	13.96	-37.9	-38.9	22.8	0.00e+00	0	27	0	461373440	48	6324
2026-01-12 19:25:52.17	10.19	14.03	-37.8	-38.8	22.8	0.00e+00	0	27	0	467664896	48	6287
2026-01-12 19:25:55.19	9.59	14.10	-37.9	-38.8	22.8	0.00e+00	0	28	0	472907776	48	6313
2026-01-12 19:25:58.22	8.98	14.16	-38.2	-39.2	22.6	0.00e+00	0	28	0	478150656	48	6554
2026-01-12 19:26:01.25	8.37	14.22	-38.2	-39.2	22.6	0.00e+00	0	27	0	484442112	48	6553
2026-01-12 19:26:04.28	7.75	14.27	-38.5	-39.6	22.2	0.00e+00	0	28	0	489684992	48	6873
2026-01-12 19:26:07.31	7.14	14.33	-38.1	-39.1	22.6	0.00e+00	0	28	0	495976448	48	6482
2026-01-12 19:26:10.34	6.52	14.38	-37.7	-38.7	23.1	0.00e+00	0	28	0	501219328	48	6185
2026-01-12 19:26:13.36	5.90	14.42	-37.8	-38.7	23.0	0.00e+00	0	28	0	506462208	48	6228
2026-01-12 19:26:16.39	5.28	14.47	-37.6	-38.5	23.2	0.00e+00	0	28	0	512753664	48	6075
2026-01-12 19:26:19.42	4.65	14.51	-37.6	-38.5	23.2	0.00e+00	0	28	0	517996544	48	6090
2026-01-12 19:26:22.45	4.02	14.54	-37.8	-38.8	23.0	0.00e+00	0	28	0	524288000	48	6250
2026-01-12 19:26:25.47	3.40	14.58	-37.6	-38.6	23.1	0.00e+00	0	28	0	529530880	48	6118
2026-01-12 19:26:28.50	2.77	14.60	-37.9	-38.9	22.8	0.00e+00	0	28	0	535822336	48	6364
2026-01-12 19:26:31.52	2.14	14.63	-38.0	-39.0	22.8	0.00e+00	0	28	0	541065216	48	6414
2026-01-12 19:26:34.55	1.51	14.65	-37.7	-38.7	23.1	0.00e+00	0	28	0	546308096	48	6210
2026-01-12 19:26:37.58	0.88	14.67	-38.0	-39.0	22.8	0.00e+00	0	28	0	552599552	48	6394
2026-01-12 19:26:40.61	0.25	14.69	-38.0	-39.0	22.9	0.00e+00	0	28	0	557842432	48	6394
2026-01-12 19:26:43.63	359.61	14.70	-37.6	-38.5	23.2	0.00e+00	0	28	0	564133888	48	6102
2026-01-12 19:26:46.66	358.98	14.71	-37.8	-38.7	23.0	0.00e+00	0	28	0	569376768	48	6224
2026-01-12 19:26:49.69	358.35	14.71	-37.6	-38.6	23.2	0.00e+00	0	28	0	574619648	48	6121
2026-01-12 19:26:52.72	357.71	14.72	-37.5	-38.5	23.3	0.00e+00	0	28	0	580911104	48	6060
2026-01-12 19:26:55.74	357.08	14.71	-37.7	-38.7	23.1	0.00e+00	0	28	0	586153984	48	6174
2026-01-12 19:26:58.77	356.45	14.71	-37.7	-38.7	22.9	0.00e+00	0	28	0	592445440	48	6195
2026-01-12 19:27:01.80	355.81	14.70	-37.6	-38.6	23.1	0.00e+00	0	28	0	597688320	48	6141
2026-01-12 19:27:04.82	355.18	14.69	-37.6	-38.5	23.2	0.00e+00	0	28	0	603979776	48	6077
2026-01-12 19:27:07.85	354.55	14.67	-37.9	-38.9	22.9	0.00e+00	0	28	0	609222656	48	6336
2026-01-12 19:27:10.88	353.92	14.65	-38.1	-39.1	22.8	0.00e+00	0	28	0	614465536	48	6481
2026-01-12 19:27:13.90	353.29	14.63	-38.0	-39.0	22.8	0.00e+00	0	28	0	620756992	48	6413
2026-01-12 19:27:16.93	352.66	14.60	-37.8	-38.8	22.9	0.00e+00	0	28	0	625999872	48	6295
2026-01-12 19:27:19.96	352.03	14.57	-37.9	-38.9	22.8	0.00e+00	0	28	0	632291328	48	6364
2026-01-12 19:27:22.99	351.40	14.54	-38.3	-39.3	22.5	0.00e+00	0	28	0	637534208	48	6648
2026-01-12 19:27:26.01	350.78	14.50	-38.5	-39.5	22.3	0.00e+00	0	28	0	642777088	48	6840
2026-01-12 19:27:29.04	350.15	14.46	-38.0	-39.0	22.8	0.00e+00	0	28	0	649068544	48	6423
2026-01-12 19:27:32.07	349.53	14.42	-37.9	-38.9	22.9	0.00e+00	0	28	0	654311424	48	6328
2026-01-12 19:27:35.10	348.91	14.37	-37.8	-38.8	22.9	0.00e+00	0	28	0	660602880	48	6299
2026-01-12 19:27:38.13	348.29	14.32	-37.9	-38.9	22.8	0.00e+00	0	28	0	665845760	48	6381
2026-01-12 19:27:41.15	347.67	14.27	-37.7	-38.7	23.0	0.00e+00	0	28	0	671088640	48	6228
2026-01-12 19:27:44.18	347.06	14.22	-37.6	-38.6	23.0	0.00e+00	0	28	0	677380096	48	6125
2026-01-12 19:27:47.21	346.45	14.16	-37.8	-38.8	22.9	0.00e+00	0	28	0	682622976	48	6270
2026-01-12 19:27:50.24	345.84	14.09	-37.7	-38.7	23.0	0.00e+00	0	28	0	688914432	48	6193
2026-01-12 19:27:53.26	345.23	14.03	-37.7	-38.7	23.0	0.00e+00	0	28	0	694157312	48	6207
2026-01-12 19:27:56.29	344.63	13.96	-37.9	-38.9	22.9	0.00e+00	0	28	0	700448768	48	6351
2026-01-12 19:27:59.32	344.03	13.89	-38.0	-39.1	22.6	0.00e+00	0	28	0	705691648	48	6470
2026-01-12 19:28:02.35	343.43	13.82	-38.0	-39.0	22.8	0.00e+00	0	28	0	710934528	48	6422
2026-01-12 19:28:05.37	342.84	13.74	-38.0	-39.0	22.7	0.00e+00	0	28	0	717225984	48	6429
2026-01-12 19:28:08.40	342.25	13.66	-38.1	-39.1	22.6	0.00e+00	0	28	0	722468864	48	6514
2026-01-12 19:28:11.42	341.66	13.58	-37.9	-39.0	22.8	0.00e+00	0	28	0	728760320	48	6435
2026-01-12 19:28:14.45	341.07	13.49	-38.0	-39.1	22.6	0.00e+00	0	29	0	734003200	48	6497
2026-01-12 19:28:17.47	340.50	13.40	-38.2	-39.3	22.5	0.00e+00	0	28	0	739246080	48	6648
2026-01-12 19:28:20.50	339.92	13.31	-38.2	-39.3	22.5	0.00e+00	0	29	0	745537536	48	6666
2026-01-12 19:28:23.53	339.34	13.22	-38.0	-39.1	22.7	0.00e+00	0	29	0	750780416	48	6484
2026-01-12 19:28:26.55	338.77	13.12	-37.8	-38.8	22.9	0.00e+00	0	28	0	757071872	48	6284
2026-01-12 19:28:29.58	338.21	13.03	-37.9	-38.9	22.6	0.00e+00	0	28	0	762314752	48	6318
2026-01-12 19:28:32.60	337.65	12.93	-37.7	-38.7	22.9	0.00e+00	0	28	0	767557632	48	6237
2026-01-12 19:28:35.63	337.09	12.82	-37.6	-38.5	23.1	0.00e+00	0	29	0	773849088	48	6102
2026-01-12 19:28:38.66	336.53	12.72	-37.7	-38.7	23.0	0.00e+00	0	29	0	779091968	48	6218
2026-01-12 19:28:41.68	335.98	12.61	-37.7	-38.7	23.0	0.00e+00	0	29	0	785383424	48	6223
2026-01-12 19:28:44.71	335.43	12.50	-37.7	-38.7	23.0	0.00e+00	0	29	0	790626304	48	6208
2026-01-12 19:28:47.74	334.89	12.39	-37.7	-38.6	23.0	0.00e+00	0	29	0	796917760	48	6148
2026-01-12 19:28:50.77	334.35	12.28	-37.6	-38.5	23.2	0.00e+00	0	29	0	802160640	48	6087
2026-01-12 19:28:53.80	333.82	12.16	-37.6	-38.6	23.1	0.00e+00	0	29	0	807403520	48	6112
2026-01-12 19:28:56.83	333.29	12.05	-37.7	-38.7	23.1	0.00e+00	0	29	0	813694976	48	6206
2026-01-12 19:28:59.85	332.76	11.93	-38.0	-39.0	22.8	0.00e+00	0	29	0	818937856	48	6397
2026-01-12 19:29:02.87	332.24	11.81	-38.3	-39.3	22.4	0.00e+00	0	29	0	825229312	48	6687
2026-01-12 19:29:05.90	331.72	11.69	-38.6	-39.6	22.2	0.00e+00	0	29	0	830472192	48	6885
2026-01-12 19:29:08.93	331.21	11.56	-38.6	-39.7	22.1	0.00e+00	0	29	0	835715072	48	6978
2026-01-12 19:29:11.95	330.70	11.44	-39.0	-40.1	21.8	0.00e+00	0	29	0	842006528	50	6506
2026-01-12 19:29:14.97	330.20	11.31	-39.2	-40.3	21.5	0.00e+00	0	29	0	847249408	50	6641
2026-01-12 19:29:18.00	329.70	11.18	-39.2	-40.3	21.5	0.00e+00	0	29	0	853540864	50	6691
2026-01-12 19:29:21.03	329.21	11.05	-39.5	-40.7	21.2	0.00e+00	0	29	0	858783744	50	6953
2026-01-12 19:29:24.05	328.72	10.92	-39.7	-40.9	20.9	0.00e+00	0	29	0	864026624	52	6383
2026-01-12 19:29:27.08	328.23	10.79	-39.8	-41.1	20.8	0.00e+00	0	29	0	870318080	52	6475
2026-01-12 19:29:30.11	327.75	10.65	-39.9	-41.2	20.8	0.00e+00	0	29	0	875560960	52	6552
2026-01-12 19:29:33.14	327.27	10.52	-40.0	-41.2	20.7	0.00e+00	0	29	0	881852416	52	6590
2026-01-12 19:29:36.17	326.80	10.38	-40.4	-41.8	20.1	0.00e+00	0	29	0	887095296	52	7032
2026-01-12 19:29:39.20	326.33	10.24	-40.6	-42.0	20.0	0.00e+00	0	29	0	893386752	52	7232
2026-01-12 19:29:42.22	325.87	10.11	-40.7	-42.1	19.9	0.00e+00	0	29	0	898629632	54	6480
2026-01-12 19:29:45.25	325.41	9.97	-40.5	-41.9	20.0	0.00e+00	0	29	0	903872512	54	6347
2026-01-12 19:29:48.28	324.95	9.83	-40.8	-42.2	19.8	0.00e+00	0	29	0	910163968	54	6563
2026-01-12 19:29:51.31	324.50	9.68	-40.9	-42.3	19.5	0.00e+00	0	29	0	915406848	54	6684
2026-01-12 19:29:54.34	324.06	9.54	-40.9	-42.3	19.6	0.00e+00	0	29	0	921698304	54	6667
2026-01-12 19:29:57.36	323.62	9.40	-40.9	-42.3	19.6	0.00e+00	0	29	0	926941184	54	6657
2026-01-12 19:30:00.39	323.18	9.26	-40.7	-42.1	19.8	0.00e+00	0	29	0	932184064	54	6513
2026-01-12 19:30:03.42	322.75	9.11	-40.8	-42.3	19.7	0.00e+00	0	29	0	938475520	54	6642
2026-01-12 19:30:06.45	322.32	8.97	-40.8	-42.3	19.7	0.00e+00	0	29	0	943718400	54	6620
2026-01-12 19:30:09.47	321.89	8.82	-40.7	-42.1	19.7	0.00e+00	0	29	0	950009856	54	6537
2026-01-12 19:30:12.50	321.47	8.67	-40.4	-41.8	20.1	0.00e+00	0	29	0	955252736	54	6273
2026-01-12 19:30:15.53	321.06	8.53	-40.4	-41.8	20.1	0.00e+00	0	29	0	961544192	54	6269
2026-01-12 19:30:18.55	320.65	8.38	-40.5	-41.8	20.0	0.00e+00	0	29	0	966787072	54	6300
2026-01-12 19:30:21.58	320.24	8.23	-40.3	-41.6	20.2	0.00e+00	0	29	0	972029952	54	6136
2026-01-12 19:30:24.61	319.84	8.08	-40.4	-41.7	20.2	0.00e+00	0	29	0	978321408	54	6214
2026-01-12 19:30:27.64	319.44	7.93	-39.8	-41.1	20.7	0.00e+00	0	29	0	983564288	54	5790
2026-01-12 19:30:30.66	319.05	7.78	-39.8	-41.0	20.8	0.00e+00	0	29	0	989855744	52	6444
2026-01-12 19:30:33.69	318.66	7.63	-39.7	-40.9	20.9	0.00e+00	0	29	0	995098624	52	6370
2026-01-12 19:30:36.72	318.27	7.48	-39.4	-40.6	21.1	0.00e+00	0	29	0	1000341504	52	6158
2026-01-12 19:30:39.75	317.89	7.33	-39.4	-40.6	21.1	0.00e+00	0	29	0	1006632960	52	6130
2026-01-12 19:30:42.77	317.51	7.18	-39.1	-40.3	21.4	0.00e+00	0	29	0	1011875840	52	5916
2026-01-12 19:30:45.81	317.13	7.03	-39.0	-40.2	21.5	0.00e+00	0	29	0	1018167296	52	5833
2026-01-12 19:30:48.84	316.76	6.88	-39.0	-40.1	21.5	0.00e+00	0	29	0	1023410176	52	5792
2026-01-12 19:30:51.87	316.40	6.72	-38.7	-39.8	21.7	0.00e+00	0	29	0	1028653056	50	6286
2026-01-12 19:30:54.89	316.04	6.57	-38.6	-39.6	21.9	0.00e+00	0	29	0	1034944512	50	6170
2026-01-12 19:30:57.92	315.68	6.42	-38.7	-39.8	21.8	0.00e+00	0	29	0	1040187392	50	6289
2026-01-12 19:31:00.95	315.32	6.27	-38.9	-40.0	21.6	0.00e+00	0	29	0	1046478848	50	6423
2026-01-12 19:31:03.98	314.97	6.12	-38.8	-39.9	21.6	0.00e+00	0	29	0	1051721728	50	6363
2026-01-12 19:31:07.00	314.63	5.96	-38.9	-40.0	21.5	0.00e+00	0	29	0	1058013184	50	6441
2026-01-12 19:31:10.03	314.28	5.81	-39.0	-40.1	21.4	0.00e+00	0	29	0	1063256064	50	6499
2026-01-12 19:31:13.05	313.94	5.66	-38.9	-40.0	21.5	0.00e+00	0	29	0	1068498944	50	6441
2026-01-12 19:31:16.08	313.61	5.51	-39.0	-40.2	21.2	0.00e+00	0	29	0	1074790400	50	6563
2026-01-12 19:31:19.11	313.28	5.35	-39.1	-40.3	21.3	0.00e+00	0	29	0	1080033280	50	6651
2026-01-12 19:31:22.14	312.95	5.20	-39.3	-40.5	21.0	0.00e+00	0	29	0	1086324736	50	6791
2026-01-12 19:31:25.17	312.62	5.05	-39.6	-40.9	20.6	0.00e+00	0	29	0	1091567616	50	7117
2026-01-12 19:31:28.20	312.30	4.89	-39.7	-41.0	20.5	0.00e+00	0	29	0	1096810496	52	6399
2026-01-12 19:31:31.23	311.98	4.74	-39.3	-40.6	20.8	0.00e+00	0	29	0	1103101952	52	6105
2026-01-12 19:31:34.25	311.67	4.59	-39.4	-40.6	20.8	0.00e+00	0	29	0	1108344832	52	6124
2026-01-12 19:31:37.28	311.35	4.44	-39.4	-40.6	20.8	0.00e+00	0	30	0	1114636288	52	6164
2026-01-12 19:31:40.31	311.05	4.28	-39.7	-41.0	20.4	0.00e+00	0	30	0	1119879168	52	6428
2026-01-12 19:31:43.34	310.74	4.13	-40.0	-41.3	20.0	0.00e+00	0	30	0	1126170624	52	6668
2026-01-12 19:31:46.37	310.44	3.98	-40.2	-41.6	19.8	0.00e+00	0	30	0	1131413504	52	6861
2026-01-12 19:31:49.39	310.14	3.83	-40.6	-42.1	19.3	0.00e+00	0	30	0	1136656384	52	7332
2026-01-12 19:31:52.42	309.85	3.67	-40.3	-41.8	19.5	0.00e+00	0	30	0	1142947840	52	7022
2026-01-12 19:31:55.45	309.55	3.52	-40.4	-41.9	19.3	0.00e+00	0	30	0	1148190720	52	7121
2026-01-12 19:31:58.48	309.26	3.37	-40.6	-42.2	19.0	0.00e+00	0	30	0	1154482176	54	6551
2026-01-12 19:32:01.51	308.98	3.22	-40.7	-42.3	18.9	0.00e+00	0	29	0	1159725056	54	6631
2026-01-12 19:32:04.53	308.70	3.07	-40.8	-42.4	18.9	0.00e+00	0	30	0	1164967936	54	6719
2026-01-12 19:32:07.56	308.42	2.92	-48.2	-63.4	3.6	1.51e+00	0	30	104	1167065088	60	53559
2026-01-12 19:32:10.59	308.14	2.76	-48.5	-63.7	3.6	1.51e+00	0	30	104	1167065088	60	55495
2026-01-12 19:32:13.62	307.86	2.61	-48.5	-63.7	3.6	1.51e+00	0	30	104	1167065088	60	55534
2026-01-12 19:32:16.65	307.59	2.46	-48.1	-63.6	3.6	1.51e+00	0	30	104	1167065088	60	54818
2026-01-12 19:32:19.68	307.32	2.31	-48.3	-63.5	3.6	1.51e+00	0	30	104	1167065088	60	54369
2026-01-12 19:32:22.70	307.06	2.16	-48.5	-63.6	3.6	1.51e+00	0	30	104	1167065088	60	54736
2026-01-12 19:32:25.73	306.80	2.01	-48.4	-63.6	3.6	1.51e+00	0	30	104	1167065088	60	54727
2026-01-12 19:32:28.76	306.54	1.86	-48.4	-63.6	3.6	1.51e+00	0	30	104	1167065088	60	54746
2026-01-12 19:32:31.79	306.28	1.71	-48.5	-63.6	3.6	1.51e+00	0	30	104	1167065088	60	54653
2026-01-12 19:32:34.82	306.02	1.56	-48.4	-63.6	3.6	1.51e+00	0	30	104	1167065088	60	54952
2026-01-12 19:32:37.85	305.77	1.41	-48.4	-63.6	3.6	1.51e+00	0	30	104	1167065088	60	54950
2026-01-12 19:32:40.88	305.52	1.26	-48.4	-63.6	3.6	1.51e+00	0	30	104	1167065088	60	54573
2026-01-12 19:32:43.90	305.28	1.12	-48.4	-63.6	3.6	1.51e+00	0	30	104	1167065088	60	54822
2026-01-12 19:32:46.93	305.03	0.97	-48.4	-63.6	3.6	1.51e+00	0	30	104	1167065088	60	54690
2026-01-12 19:32:49.96	304.79	0.82	-48.4	-63.5	3.6	1.51e+00	0	30	104	1167065088	60	54187
2026-01-12 19:32:52.99	304.55	0.67	-48.4	-63.6	3.6	1.51e+00	0	30	104	1167065088	60	54862
2026-01-12 19:32:56.02	304.32	0.52	-48.4	-63.6	3.6	1.51e+00	0	30	104	1167065088	60	54478
2026-01-12 19:32:59.05	304.08	0.38	-48.4	-63.6	3.6	1.51e+00	0	30	104	1167065088	60	54542
2026-01-12 19:33:02.08	303.85	0.23	-48.4	-63.6	3.6	1.51e+00	0	30	104	1167065088	60	54916
2026-01-12 19:33:05.10	303.62	0.08	-48.4	-63.7	3.6	1.51e+00	0	30	104	1167065088	60	55033
2026-01-12 19:33:08.13	303.39	-0.06	-48.5	-63.6	3.6	1.51e+00	0	30	104	1167065088	60	54816

#Closed at: 2026-01-12 19:33:08
#Recorded file [1167 MB]: D:/lorett/data/35029_260113_072040.dat