passes_logs/2026/01/12/R4.6S_Anadyr/R4.6S_Anadyr__20260112_205850_NOAA_20_JPSS-1_rec.log

#Pass ID: 20260112_205850_NOAA 20 (JPSS-1)
#Satellite: NOAA 20 (JPSS-1)
#Configuration: NOAA 20
#almurnet v.1.7.20251203
#Start time: 2026-01-12 20:58:53

#Version: 2.2.20231116
#Station: R4.6S_Anadyr
#Location: 177.4865 lon 64.73178 lat
#TLE: 1 43013U 17073A   26011.59429536  .00000082  00000+0  59704-4 0  9990
#TLE: 2 43013  98.7632 312.5697 0001637  44.2118 315.9188 14.19535307422256

#Time	Az	El	Level	Level2	SNR	BER	BlckErr	Temp	State	Recorded	gain1	gain2
2026-01-12 20:58:53.99	80.62	0.18	-48.4	-62.3	3.3	1.54e+00	0	27	0	0	60	46877
2026-01-12 20:58:58.03	80.35	0.39	-48.3	-63.6	3.6	1.51e+00	0	27	104	0	60	54853
2026-01-12 20:59:02.07	80.07	0.60	-48.1	-63.6	3.6	1.51e+00	0	27	104	0	60	54610
2026-01-12 20:59:06.11	79.79	0.81	-45.7	-63.0	3.6	1.51e+00	0	27	104	0	60	51079
2026-01-12 20:59:10.14	79.50	1.02	-46.1	-61.9	3.6	1.51e+00	0	27	104	0	60	44862
2026-01-12 20:59:14.18	79.21	1.23	-46.1	-61.9	3.6	1.51e+00	0	28	104	0	60	44994
2026-01-12 20:59:18.22	78.91	1.44	-46.1	-61.9	3.6	1.51e+00	0	27	104	0	60	44955
2026-01-12 20:59:22.26	78.61	1.65	-46.1	-61.9	3.6	1.51e+00	0	27	104	0	60	44954
2026-01-12 20:59:26.30	78.31	1.87	-46.1	-61.9	3.6	1.51e+00	0	27	104	0	60	44892
2026-01-12 20:59:30.34	78.00	2.08	-46.1	-61.5	3.6	1.51e+00	0	28	104	0	60	42940
2026-01-12 20:59:34.38	77.69	2.30	-46.1	-61.9	3.6	1.51e+00	0	28	104	0	60	45130
2026-01-12 20:59:38.42	77.37	2.51	-46.1	-61.8	3.6	1.51e+00	0	28	104	0	60	44693
2026-01-12 20:59:42.46	77.05	2.73	-46.1	-61.0	3.6	1.51e+00	0	28	104	0	60	40708
2026-01-12 20:59:46.50	76.72	2.95	-45.4	-52.8	7.4	2.74e-01	92	28	0	1048576	60	15809
2026-01-12 20:59:50.54	76.39	3.17	-45.7	-53.3	5.3	1.26e-02	92	28	0	8388608	60	16800
2026-01-12 20:59:54.57	76.05	3.38	-45.0	-52.6	5.4	1.51e+00	0	28	104	10485760	60	15462
2026-01-12 20:59:58.61	75.71	3.60	-41.6	-43.7	17.4	0.00e+00	92	28	0	15728640	56	6990
2026-01-12 21:00:02.65	75.36	3.83	-42.0	-44.1	17.0	0.00e+00	92	28	0	23068672	56	7296
2026-01-12 21:00:06.69	75.00	4.05	-41.5	-43.4	17.7	0.00e+00	92	28	0	30408704	56	6745
2026-01-12 21:00:10.72	74.64	4.27	-41.4	-43.2	18.1	0.00e+00	49	28	0	38797312	56	6561
2026-01-12 21:00:14.76	74.28	4.49	-41.4	-43.2	18.1	0.00e+00	91	28	0	46137344	56	6579
2026-01-12 21:00:18.80	73.91	4.72	-41.3	-43.1	18.1	0.00e+00	92	28	0	53477376	56	6501
2026-01-12 21:00:22.84	73.53	4.94	-41.4	-43.2	18.2	0.00e+00	92	28	0	60817408	56	6542
2026-01-12 21:00:26.88	73.15	5.17	-41.3	-43.0	18.3	0.00e+00	0	28	0	68157440	56	6433
2026-01-12 21:00:30.92	72.76	5.39	-41.3	-43.1	18.3	0.00e+00	92	28	0	76546048	56	6477
2026-01-12 21:00:34.96	72.36	5.62	-41.3	-43.1	18.3	0.00e+00	90	28	0	83886080	56	6473
2026-01-12 21:00:38.99	71.96	5.85	-41.4	-43.1	18.4	0.00e+00	90	28	0	91226112	56	6506
2026-01-12 21:00:43.03	71.55	6.08	-41.2	-43.0	18.4	0.00e+00	0	28	0	98566144	56	6458
2026-01-12 21:00:47.07	71.14	6.30	-41.2	-42.9	18.6	0.00e+00	90	28	0	106954752	56	6339
2026-01-12 21:00:51.10	70.71	6.53	-41.2	-42.8	18.7	0.00e+00	92	28	0	114294784	56	6279
2026-01-12 21:00:55.14	70.29	6.76	-41.0	-42.6	18.9	0.00e+00	91	28	0	121634816	56	6162
2026-01-12 21:00:59.18	69.85	6.99	-40.9	-42.5	19.1	0.00e+00	6	28	0	128974848	56	6044
2026-01-12 21:01:03.21	69.41	7.22	-40.9	-42.4	19.2	0.00e+00	90	28	0	136314880	56	5999
2026-01-12 21:01:07.25	68.96	7.46	-40.3	-41.7	19.8	0.00e+00	92	28	0	144703488	54	6185
2026-01-12 21:01:11.29	68.50	7.69	-40.2	-41.5	20.0	0.00e+00	0	28	0	152043520	54	6079
2026-01-12 21:01:15.33	68.03	7.92	-40.0	-41.4	20.1	0.00e+00	0	28	0	159383552	54	5987
2026-01-12 21:01:19.37	67.56	8.15	-40.0	-41.4	20.2	0.00e+00	92	28	0	166723584	54	5995
2026-01-12 21:01:23.41	67.08	8.38	-40.2	-41.5	20.1	0.00e+00	92	28	0	175112192	54	6091
2026-01-12 21:01:27.45	66.59	8.62	-39.8	-41.1	20.5	0.00e+00	10	28	0	182452224	52	6477
2026-01-12 21:01:31.48	66.10	8.85	-39.6	-40.8	20.8	0.00e+00	0	28	0	189792256	52	6281
2026-01-12 21:01:35.51	65.59	9.08	-39.7	-41.0	20.7	0.00e+00	92	28	0	197132288	52	6392
2026-01-12 21:01:39.55	65.08	9.31	-39.9	-41.2	20.5	0.00e+00	92	28	0	204472320	52	6546
2026-01-12 21:01:43.59	64.56	9.55	-40.1	-41.5	20.2	0.00e+00	35	28	0	212860928	52	6827
2026-01-12 21:01:47.63	64.03	9.78	-39.8	-41.1	20.7	0.00e+00	89	28	0	220200960	52	6479
2026-01-12 21:01:51.67	63.49	10.01	-39.7	-41.0	20.7	0.00e+00	90	28	0	227540992	52	6407
2026-01-12 21:01:55.71	62.94	10.24	-39.6	-40.9	20.9	0.00e+00	0	28	0	234881024	52	6331
2026-01-12 21:01:59.75	62.39	10.48	-39.6	-40.8	20.9	0.00e+00	45	28	0	242221056	52	6259
2026-01-12 21:02:03.79	61.82	10.71	-39.4	-40.7	21.1	0.00e+00	92	28	0	250609664	52	6183
2026-01-12 21:02:07.82	61.25	10.94	-39.4	-40.6	21.2	0.00e+00	92	28	0	257949696	52	6169
2026-01-12 21:02:11.86	60.66	11.17	-39.7	-40.9	20.9	0.00e+00	2	28	0	265289728	52	6384
2026-01-12 21:02:15.90	60.07	11.40	-39.8	-41.0	20.8	0.00e+00	2	28	0	272629760	52	6464
2026-01-12 21:02:19.94	59.47	11.62	-39.5	-40.7	21.2	0.00e+00	92	28	0	281018368	52	6198
2026-01-12 21:02:23.97	58.86	11.85	-39.6	-40.8	21.1	0.00e+00	92	28	0	288358400	52	6315
2026-01-12 21:02:28.01	58.23	12.08	-39.8	-41.1	20.7	0.00e+00	32	28	0	295698432	52	6476
2026-01-12 21:02:32.05	57.60	12.30	-39.6	-40.8	21.1	0.00e+00	2	28	0	303038464	52	6304
2026-01-12 21:02:36.09	56.96	12.52	-39.4	-40.5	21.4	0.00e+00	92	28	0	310378496	52	6084
2026-01-12 21:02:40.12	56.31	12.74	-39.1	-40.2	21.6	0.00e+00	92	28	0	318767104	52	5891
2026-01-12 21:02:44.16	55.65	12.96	-38.7	-39.7	22.1	0.00e+00	52	28	0	326107136	50	6223
2026-01-12 21:02:48.20	54.98	13.18	-38.6	-39.6	22.2	0.00e+00	18	28	0	333447168	50	6167
2026-01-12 21:02:52.24	54.30	13.40	-38.2	-39.2	22.6	0.00e+00	92	28	0	340787200	50	5874
2026-01-12 21:02:56.27	53.61	13.61	-38.4	-39.4	22.5	0.00e+00	92	28	0	349175808	50	6027
2026-01-12 21:03:00.31	52.91	13.82	-38.1	-39.1	22.7	0.00e+00	0	28	0	356515840	50	5784
2026-01-12 21:03:04.34	52.20	14.03	-38.1	-39.1	22.8	0.00e+00	0	28	0	363855872	50	5795
2026-01-12 21:03:08.38	51.48	14.24	-37.6	-38.5	23.2	0.00e+00	92	28	0	371195904	48	6066
2026-01-12 21:03:12.42	50.74	14.44	-37.3	-38.2	23.6	0.00e+00	21	28	0	378535936	48	5868
2026-01-12 21:03:16.46	50.00	14.64	-37.1	-38.0	23.6	0.00e+00	0	28	0	386924544	48	5707
2026-01-12 21:03:20.50	49.25	14.84	-37.3	-38.2	23.5	0.00e+00	85	28	0	394264576	48	5872
2026-01-12 21:03:24.54	48.49	15.03	-37.3	-38.2	23.5	0.00e+00	92	28	0	401604608	48	5891
2026-01-12 21:03:28.57	47.72	15.22	-37.6	-38.5	23.3	0.00e+00	50	28	0	408944640	48	6071
2026-01-12 21:03:32.61	46.93	15.41	-37.7	-38.7	23.1	0.00e+00	7	28	0	417333248	48	6179
2026-01-12 21:03:36.65	46.14	15.59	-37.4	-38.3	23.5	0.00e+00	92	28	0	424673280	48	5955
2026-01-12 21:03:40.69	45.34	15.77	-37.4	-38.3	23.4	0.00e+00	92	28	0	432013312	48	5950
2026-01-12 21:03:44.73	44.53	15.94	-37.2	-38.1	23.6	0.00e+00	53	28	0	439353344	48	5807
2026-01-12 21:03:48.76	43.71	16.11	-37.3	-38.2	23.8	0.00e+00	31	28	0	446693376	48	5882
2026-01-12 21:03:52.80	42.88	16.27	-37.4	-38.3	23.6	0.00e+00	92	28	0	455081984	48	5924
2026-01-12 21:03:56.84	42.04	16.43	-37.6	-38.6	23.3	0.00e+00	92	28	0	462422016	48	6126
2026-01-12 21:04:00.88	41.20	16.58	-37.1	-38.0	23.7	0.00e+00	0	28	0	469762048	48	5748
2026-01-12 21:04:04.92	40.34	16.73	-36.7	-37.5	24.1	0.00e+00	39	28	0	477102080	46	6084
2026-01-12 21:04:08.96	39.48	16.87	-36.7	-37.5	24.2	0.00e+00	92	28	0	485490688	46	6083
2026-01-12 21:04:13.00	38.61	17.01	-37.0	-37.9	23.8	0.00e+00	30	27	0	492830720	46	6368
2026-01-12 21:04:17.03	37.73	17.14	-37.0	-37.8	23.9	0.00e+00	0	27	0	500170752	46	6316
2026-01-12 21:04:21.07	36.84	17.26	-37.0	-37.9	23.9	0.00e+00	2	28	0	507510784	46	6347
2026-01-12 21:04:25.11	35.95	17.38	-37.0	-37.9	23.8	0.00e+00	92	28	0	514850816	46	6370
2026-01-12 21:04:29.14	35.05	17.49	-37.2	-38.1	23.7	0.00e+00	0	28	0	523239424	46	6472
2026-01-12 21:04:33.19	34.14	17.59	-37.6	-38.6	23.3	0.00e+00	29	28	0	530579456	46	6855
2026-01-12 21:04:37.22	33.22	17.68	-37.8	-38.8	23.1	0.00e+00	89	28	0	537919488	48	6249
2026-01-12 21:04:41.26	32.31	17.77	-37.6	-38.5	23.5	0.00e+00	25	28	0	545259520	48	6048
2026-01-12 21:04:45.30	31.38	17.86	-37.6	-38.5	23.1	0.00e+00	0	28	0	552599552	48	6092
2026-01-12 21:04:49.34	30.45	17.93	-37.7	-38.7	23.2	0.00e+00	0	28	0	560988160	48	6196
2026-01-12 21:04:53.37	29.52	18.00	-38.2	-39.2	22.7	0.00e+00	92	28	0	568328192	48	6562
2026-01-12 21:04:57.41	28.58	18.05	-38.2	-39.2	22.7	0.00e+00	53	28	0	575668224	48	6553
2026-01-12 21:05:01.45	27.64	18.11	-38.4	-39.5	22.5	0.00e+00	6	28	0	583008256	48	6780
2026-01-12 21:05:05.49	26.70	18.15	-38.5	-39.5	22.5	0.00e+00	5	28	0	591396864	48	6845
2026-01-12 21:05:09.52	25.75	18.18	-38.0	-39.0	22.8	0.00e+00	90	28	0	598736896	48	6440
2026-01-12 21:05:13.56	24.81	18.21	-38.1	-39.1	22.8	0.00e+00	6	27	0	606076928	48	6499
2026-01-12 21:05:17.60	23.86	18.23	-38.0	-38.9	23.0	0.00e+00	50	28	0	613416960	48	6377
2026-01-12 21:05:21.64	22.91	18.24	-38.3	-39.3	22.6	0.00e+00	9	28	0	620756992	48	6644
2026-01-12 21:05:25.67	21.96	18.24	-37.7	-38.7	23.1	0.00e+00	92	27	0	629145600	48	6196
2026-01-12 21:05:29.71	21.01	18.24	-37.8	-38.7	23.1	0.00e+00	50	28	0	636485632	48	6217
2026-01-12 21:05:33.75	20.06	18.22	-37.5	-38.4	23.4	0.00e+00	0	28	0	643825664	48	6027
2026-01-12 21:05:37.78	19.11	18.20	-37.5	-38.4	23.4	0.00e+00	31	27	0	651165696	48	5988
2026-01-12 21:05:41.82	18.16	18.17	-37.2	-38.1	23.7	0.00e+00	92	27	0	659554304	48	5813
2026-01-12 21:05:45.86	17.22	18.13	-37.2	-38.0	23.7	0.00e+00	0	27	0	666894336	48	5754
2026-01-12 21:05:49.90	16.28	18.09	-37.1	-38.0	23.8	0.00e+00	0	27	0	674234368	48	5700
2026-01-12 21:05:53.93	15.34	18.03	-36.8	-37.7	24.0	0.00e+00	0	28	0	681574400	46	6193
2026-01-12 21:05:57.97	14.40	17.97	-36.7	-37.6	24.1	0.00e+00	91	27	0	688914432	46	6122
2026-01-12 21:06:02.01	13.47	17.90	-36.3	-37.1	24.4	0.00e+00	31	28	0	697303040	46	5805
2026-01-12 21:06:06.05	12.54	17.82	-36.7	-37.5	24.2	0.00e+00	30	27	0	704643072	46	6095
2026-01-12 21:06:10.08	11.63	17.74	-36.9	-37.8	24.0	0.00e+00	2	27	0	711983104	46	6274
2026-01-12 21:06:14.12	10.71	17.65	-36.8	-37.7	24.0	0.00e+00	92	27	0	719323136	46	6214
2026-01-12 21:06:18.16	9.80	17.55	-37.0	-37.9	23.8	0.00e+00	2	27	0	727711744	46	6379
2026-01-12 21:06:22.19	8.90	17.45	-37.3	-38.2	23.6	0.00e+00	36	27	0	735051776	46	6598
2026-01-12 21:06:26.23	8.00	17.33	-37.6	-38.5	23.2	0.00e+00	44	27	0	742391808	46	6840
2026-01-12 21:06:30.27	7.11	17.21	-37.5	-38.4	23.4	0.00e+00	91	28	0	749731840	46	6747
2026-01-12 21:06:34.31	6.22	17.09	-37.9	-38.8	23.0	0.00e+00	2	28	0	757071872	48	6308
2026-01-12 21:06:38.35	5.35	16.96	-37.7	-38.7	23.1	0.00e+00	48	27	0	765460480	48	6197
2026-01-12 21:06:42.38	4.48	16.82	-37.5	-38.5	23.3	0.00e+00	48	27	0	772800512	48	6041
2026-01-12 21:06:46.42	3.62	16.68	-37.4	-38.4	23.4	0.00e+00	5	28	0	780140544	48	5970
2026-01-12 21:06:50.45	2.77	16.53	-37.5	-38.5	23.3	0.00e+00	0	27	0	787480576	48	6042
2026-01-12 21:06:54.49	1.93	16.37	-37.7	-38.6	23.1	0.00e+00	0	27	0	795869184	48	6171
2026-01-12 21:06:58.53	1.10	16.21	-37.6	-38.5	23.3	0.00e+00	92	27	0	803209216	48	6102
2026-01-12 21:07:02.56	0.27	16.05	-37.4	-38.3	23.4	0.00e+00	38	27	0	810549248	48	5937
2026-01-12 21:07:06.60	359.46	15.88	-37.8	-38.8	23.1	0.00e+00	38	28	0	817889280	48	6267
2026-01-12 21:07:10.63	358.66	15.70	-37.9	-38.9	23.0	0.00e+00	4	27	0	825229312	48	6345
2026-01-12 21:07:14.67	357.86	15.52	-38.0	-39.0	22.8	0.00e+00	90	27	0	833617920	48	6415
2026-01-12 21:07:18.71	357.07	15.34	-38.2	-39.2	22.6	0.00e+00	6	27	0	840957952	48	6596
2026-01-12 21:07:22.74	356.30	15.15	-38.2	-39.2	22.7	0.00e+00	44	27	0	848297984	48	6566
2026-01-12 21:07:26.78	355.53	14.96	-38.3	-39.3	22.6	0.00e+00	44	27	0	855638016	48	6653
2026-01-12 21:07:30.82	354.77	14.77	-38.3	-39.4	22.5	0.00e+00	91	27	0	864026624	48	6704
2026-01-12 21:07:34.85	354.03	14.57	-38.7	-39.8	22.1	0.00e+00	34	27	0	871366656	48	7034
2026-01-12 21:07:38.89	353.29	14.37	-38.9	-40.0	21.9	0.00e+00	0	27	0	878706688	50	6419
2026-01-12 21:07:42.93	352.57	14.17	-38.6	-39.6	22.2	0.00e+00	0	27	0	886046720	50	6157
2026-01-12 21:07:46.96	351.85	13.96	-38.9	-40.0	21.8	0.00e+00	90	27	0	893386752	50	6431
2026-01-12 21:07:51.00	351.15	13.75	-39.4	-40.5	21.3	0.00e+00	44	27	0	901775360	50	6845
2026-01-12 21:07:55.04	350.45	13.54	-39.3	-40.5	21.3	0.00e+00	2	27	0	909115392	50	6828
2026-01-12 21:07:59.08	349.76	13.33	-39.5	-40.7	21.2	0.00e+00	0	27	0	916455424	50	6947
2026-01-12 21:08:03.11	349.09	13.11	-39.5	-40.8	21.1	0.00e+00	0	27	0	923795456	50	7022
2026-01-12 21:08:07.15	348.42	12.89	-39.5	-40.7	21.2	0.00e+00	48	27	0	931135488	50	6943
2026-01-12 21:08:11.19	347.77	12.67	-39.4	-40.6	21.3	0.00e+00	0	27	0	939524096	50	6876
2026-01-12 21:08:15.22	347.12	12.45	-39.6	-40.8	21.1	0.00e+00	91	27	0	946864128	50	7015
2026-01-12 21:08:19.25	346.49	12.23	-39.1	-40.3	21.6	0.00e+00	39	27	0	954204160	50	6635
2026-01-12 21:08:23.29	345.86	12.00	-38.9	-40.0	21.7	0.00e+00	0	27	0	961544192	50	6460
2026-01-12 21:08:27.33	345.25	11.78	-38.6	-39.7	22.1	0.00e+00	0	27	0	969932800	50	6198
2026-01-12 21:08:31.36	344.64	11.55	-38.6	-39.7	22.0	0.00e+00	80	27	0	977272832	50	6221
2026-01-12 21:08:35.40	344.05	11.32	-38.6	-39.7	22.1	0.00e+00	0	27	0	984612864	50	6215
2026-01-12 21:08:39.44	343.46	11.09	-38.6	-39.7	22.0	0.00e+00	5	27	0	991952896	50	6235
2026-01-12 21:08:43.48	342.88	10.86	-38.2	-39.2	22.5	0.00e+00	5	27	0	999292928	50	5886
2026-01-12 21:08:47.51	342.31	10.63	-38.1	-39.1	22.6	0.00e+00	92	27	0	1007681536	50	5787
2026-01-12 21:08:51.55	341.75	10.40	-38.1	-39.2	22.5	0.00e+00	0	27	0	1015021568	50	5847
2026-01-12 21:08:55.59	341.20	10.17	-38.0	-39.0	22.8	0.00e+00	41	27	0	1022361600	50	5750
2026-01-12 21:08:59.62	340.66	9.94	-37.4	-38.5	23.0	0.00e+00	5	27	0	1029701632	48	6039
2026-01-12 21:09:03.66	340.12	9.71	-37.8	-38.9	22.6	0.00e+00	90	27	0	1038090240	48	6351
2026-01-12 21:09:07.70	339.60	9.48	-37.8	-38.9	22.6	0.00e+00	0	27	0	1045430272	48	6360
2026-01-12 21:09:11.74	339.08	9.24	-37.9	-38.9	22.6	0.00e+00	0	27	0	1052770304	48	6387
2026-01-12 21:09:15.78	338.57	9.01	-38.2	-39.3	22.3	0.00e+00	40	27	0	1060110336	48	6628
2026-01-12 21:09:19.82	338.07	8.78	-38.3	-39.4	22.1	0.00e+00	90	27	0	1067450368	48	6767
2026-01-12 21:09:23.86	337.58	8.55	-38.2	-39.3	22.3	0.00e+00	0	27	0	1075838976	48	6663
2026-01-12 21:09:27.89	337.10	8.31	-38.4	-39.5	22.1	0.00e+00	0	27	0	1083179008	48	6815
2026-01-12 21:09:31.93	336.62	8.08	-38.3	-39.4	22.1	0.00e+00	0	27	0	1090519040	48	6704
2026-01-12 21:09:35.97	336.16	7.85	-38.6	-39.8	21.7	0.00e+00	92	27	0	1097859072	48	7014
2026-01-12 21:09:40.00	335.70	7.62	-39.0	-40.2	21.4	0.00e+00	39	27	0	1105199104	50	6545
2026-01-12 21:09:44.04	335.24	7.39	-39.2	-40.4	21.2	0.00e+00	43	27	0	1113587712	50	6742
2026-01-12 21:09:48.07	334.80	7.16	-39.3	-40.5	20.9	0.00e+00	0	27	0	1120927744	50	6811
2026-01-12 21:09:52.11	334.36	6.93	-39.5	-40.8	20.6	0.00e+00	92	27	0	1128267776	50	7058
2026-01-12 21:09:56.15	333.93	6.70	-39.9	-41.2	20.3	0.00e+00	0	27	0	1135607808	52	6590
2026-01-12 21:10:00.19	333.50	6.47	-39.7	-41.0	20.4	0.00e+00	45	27	0	1143996416	52	6461
2026-01-12 21:10:04.23	333.09	6.24	-39.7	-41.0	20.4	0.00e+00	90	27	0	1151336448	52	6453
2026-01-12 21:10:08.27	332.68	6.01	-40.1	-41.5	19.9	0.00e+00	10	27	0	1158676480	52	6843
2026-01-12 21:10:12.30	332.27	5.79	-40.3	-41.7	19.7	0.00e+00	2	27	0	1166016512	52	6972
2026-01-12 21:10:16.34	331.87	5.56	-40.3	-41.8	19.6	0.00e+00	42	27	0	1173356544	52	7036
2026-01-12 21:10:20.38	331.48	5.33	-40.3	-41.8	19.6	0.00e+00	92	27	0	1181745152	52	7060
2026-01-12 21:10:24.42	331.10	5.11	-40.6	-42.1	19.2	0.00e+00	5	27	0	1189085184	52	7296
2026-01-12 21:10:28.45	330.72	4.88	-40.6	-42.2	19.1	0.00e+00	6	27	0	1196425216	54	6558
2026-01-12 21:10:32.49	330.35	4.66	-41.0	-42.7	18.6	0.00e+00	0	27	0	1203765248	54	6932
2026-01-12 21:10:36.53	329.98	4.44	-41.0	-42.6	18.6	0.00e+00	92	27	0	1212153856	54	6878
2026-01-12 21:10:40.57	329.62	4.21	-40.8	-42.4	18.8	0.00e+00	44	27	0	1219493888	54	6751
2026-01-12 21:10:44.61	329.26	3.99	-40.9	-42.6	18.6	0.00e+00	47	27	0	1226833920	54	6850
2026-01-12 21:10:48.64	328.91	3.77	-41.1	-42.9	18.3	0.00e+00	4	27	0	1234173952	54	7093
2026-01-12 21:10:52.68	328.57	3.55	-41.4	-43.2	17.8	0.00e+00	92	27	0	1241513984	54	7384
2026-01-12 21:10:56.72	328.23	3.33	-41.7	-43.6	17.3	0.00e+00	41	27	0	1249902592	54	7741
2026-01-12 21:11:00.76	327.89	3.11	-41.8	-43.8	17.1	0.00e+00	41	27	0	1257242624	56	7085
2026-01-12 21:11:04.79	327.56	2.89	-48.1	-63.2	3.6	1.51e+00	0	27	104	1260388352	60	52523
2026-01-12 21:11:08.83	327.24	2.68	-48.6	-63.7	3.6	1.51e+00	0	27	104	1260388352	60	55615
2026-01-12 21:11:12.87	326.92	2.46	-48.2	-63.7	3.6	1.51e+00	0	27	104	1260388352	60	55182
2026-01-12 21:11:16.91	326.61	2.24	-48.3	-63.5	3.6	1.51e+00	0	27	104	1260388352	60	54183
2026-01-12 21:11:20.94	326.30	2.03	-48.4	-63.6	3.6	1.51e+00	0	27	104	1260388352	60	54915
2026-01-12 21:11:24.98	325.99	1.82	-48.4	-63.6	3.6	1.51e+00	0	27	104	1260388352	60	54855
2026-01-12 21:11:29.02	325.69	1.60	-48.4	-63.6	3.6	1.51e+00	0	27	104	1260388352	60	54554
2026-01-12 21:11:33.06	325.40	1.39	-48.4	-63.6	3.6	1.51e+00	0	27	104	1260388352	60	54713
2026-01-12 21:11:37.10	325.10	1.18	-48.3	-63.6	3.6	1.51e+00	0	27	104	1260388352	60	54478
2026-01-12 21:11:41.14	324.82	0.97	-48.4	-63.6	3.6	1.51e+00	0	27	104	1260388352	60	54702
2026-01-12 21:11:45.17	324.54	0.76	-48.4	-63.6	3.6	1.51e+00	0	27	104	1260388352	60	54681
2026-01-12 21:11:49.21	324.26	0.55	-48.4	-63.6	3.6	1.51e+00	0	27	104	1260388352	60	54530
2026-01-12 21:11:53.25	323.98	0.34	-48.4	-63.6	3.6	1.51e+00	0	27	104	1260388352	60	54776
2026-01-12 21:11:57.28	323.71	0.14	-48.4	-63.6	3.6	1.51e+00	0	27	104	1260388352	60	54526
2026-01-12 21:12:01.32	323.45	-0.07	-48.4	-63.6	3.6	1.51e+00	0	27	104	1260388352	60	54513

#Closed at: 2026-01-12 21:12:02
#Recorded file [1260 MB]: D:/lorett/data/35029_260113_085853.dat