passes_logs/2026/01/12/R4.6S_Anadyr/R4.6S_Anadyr__20260112_223655_TY-42_rec.log

#Pass ID: 20260112_223655_TY-42
#Satellite: TY-42
#Configuration: TY-42_900M
#almurnet v.1.7.20251203
#Start time: 2026-01-12 22:37:30

#Version: 2.2.20231116
#Station: R4.6S_Anadyr
#Location: 177.4865 lon 64.73178 lat
#TLE: 1 64048U 25103A   26012.66797454  .00008010  00000-0  38191-3 0 09996
#TLE: 2 64048 097.4120 088.1293 0001877 092.3162 302.2280 15.19166642 36461

#Time	Az	El	Level	Level2	SNR	BER	BlckErr	Temp	State	Recorded	gain1	gain2
2026-01-12 22:37:30.99	21.35	2.23	-48.6	-49.9	3.4	0.00e+00	0	29	0	0	60	38221
2026-01-12 22:37:34.01	21.52	2.43	-47.5	-50.0	6.1	0.00e+00	0	29	104	0	60	38637
2026-01-12 22:37:37.04	21.70	2.64	-47.5	-49.9	6.1	0.00e+00	0	29	104	0	60	38495
2026-01-12 22:37:40.07	21.88	2.84	-47.5	-50.0	6.1	0.00e+00	0	29	104	0	60	38515
2026-01-12 22:37:43.09	22.06	3.05	-47.5	-49.9	6.1	0.00e+00	0	29	104	0	60	38377
2026-01-12 22:37:46.12	22.24	3.26	-47.5	-49.9	6.1	0.00e+00	0	29	104	0	60	38458
2026-01-12 22:37:49.15	22.43	3.47	-47.5	-49.9	6.1	0.00e+00	0	29	104	0	60	38430
2026-01-12 22:37:52.18	22.62	3.69	-28.8	-29.3	15.1	4.16e-02	0	29	0	142606336	34	15875
2026-01-12 22:37:55.20	22.82	3.90	-29.1	-29.5	15.0	3.12e-03	0	29	0	486539264	32	18297
2026-01-12 22:37:58.24	23.02	4.12	-32.4	-32.7	13.9	5.14e-03	0	29	0	822083584	44	13241
2026-01-12 22:38:01.27	23.22	4.34	-40.2	-40.8	9.4	0.00e+00	1956	29	104	889192448	58	14992
2026-01-12 22:38:04.29	23.43	4.57	-32.2	-32.6	13.5	0.00e+00	4142	29	104	1023410176	40	16428
2026-01-12 22:38:07.32	23.64	4.79	-32.1	-32.4	13.8	3.20e-02	0	29	0	1358954496	38	18098
2026-01-12 22:38:10.35	23.85	5.02	-29.1	-29.5	15.1	2.30e-02	0	29	0	1694498816	34	16292
2026-01-12 22:38:13.38	24.07	5.25	-27.5	-27.8	15.7	4.24e-03	0	29	0	2038431744	30	16949
2026-01-12 22:38:16.41	24.29	5.48	-27.5	-27.9	15.8	8.50e-04	0	29	0	2382364672	30	17136
2026-01-12 22:38:19.44	24.52	5.71	-27.3	-27.6	16.0	7.41e-04	0	29	0	2717908992	30	16615
2026-01-12 22:38:22.46	24.74	5.95	-26.8	-27.2	16.2	3.98e-04	0	29	0	3061841920	30	15816
2026-01-12 22:38:25.49	24.98	6.19	-27.0	-27.4	16.1	3.60e-04	0	29	0	3397386240	28	18152
2026-01-12 22:38:28.52	25.22	6.43	-27.0	-27.4	16.1	3.71e-04	0	30	0	3741319168	28	18088
2026-01-12 22:38:31.55	25.46	6.67	-27.1	-27.5	16.1	4.69e-04	0	30	0	4085252096	28	18270
2026-01-12 22:38:34.58	25.71	6.92	-26.7	-27.0	16.2	3.11e-04	0	30	0	4429185024	28	17396
2026-01-12 22:38:37.60	25.96	7.17	-26.5	-26.9	16.3	2.18e-04	0	30	0	4764729344	28	17108
2026-01-12 22:38:40.63	26.22	7.42	-26.4	-26.8	16.3	1.80e-04	0	30	0	5108662272	28	16945
2026-01-12 22:38:43.66	26.49	7.68	-26.4	-26.7	16.3	1.42e-04	0	30	0	5452595200	28	16800
2026-01-12 22:38:46.69	26.76	7.94	-26.1	-26.5	16.4	1.42e-04	0	30	0	5788139520	28	16311
2026-01-12 22:38:49.71	27.03	8.20	-26.4	-26.8	16.4	1.31e-04	0	30	0	6132072448	28	16952
2026-01-12 22:38:52.74	27.32	8.47	-26.2	-26.6	16.4	1.14e-04	0	30	0	6467616768	28	16434
2026-01-12 22:38:55.77	27.60	8.73	-25.7	-26.1	16.5	3.26e-05	0	30	0	6811549696	26	17550
2026-01-12 22:38:58.80	27.90	9.01	-25.5	-25.9	16.6	1.63e-05	0	30	0	7155482624	26	17159
2026-01-12 22:39:01.83	28.20	9.28	-25.4	-25.8	16.6	1.63e-05	0	30	0	7491026944	26	16894
2026-01-12 22:39:04.86	28.51	9.56	-25.3	-25.7	16.6	2.17e-05	0	30	0	7834959872	26	16697
2026-01-12 22:39:07.89	28.82	9.84	-25.3	-25.7	16.6	3.81e-05	0	30	0	8170504192	26	16671
2026-01-12 22:39:10.91	29.14	10.13	-25.0	-25.4	16.6	2.72e-05	0	30	0	8514437120	26	16201
2026-01-12 22:39:13.94	29.47	10.42	-25.1	-25.5	16.6	8.17e-05	0	30	0	8849981440	26	16264
2026-01-12 22:39:16.97	29.81	10.71	-24.9	-25.3	16.7	2.72e-05	0	30	0	9193914368	26	16038
2026-01-12 22:39:19.99	30.15	11.01	-24.9	-25.3	16.7	1.08e-05	0	30	0	9529458688	26	15918
2026-01-12 22:39:23.02	30.50	11.31	-24.7	-25.1	16.8	2.17e-05	0	30	0	9873391616	24	17453
2026-01-12 22:39:26.05	30.87	11.62	-24.6	-25.0	16.8	2.17e-05	0	30	0	10217324544	24	17245
2026-01-12 22:39:29.08	31.24	11.93	-24.4	-24.8	16.8	0.00e+00	0	30	0	10552868864	24	16873
2026-01-12 22:39:32.10	31.62	12.24	-24.1	-24.5	16.9	0.00e+00	0	30	0	10896801792	24	16360
2026-01-12 22:39:35.13	32.01	12.56	-23.9	-24.3	17.0	5.40e-06	0	30	0	11240734720	24	15968
2026-01-12 22:39:38.15	32.40	12.88	-23.9	-24.3	16.9	0.00e+00	0	30	0	11584667648	24	15960
2026-01-12 22:39:41.18	32.81	13.21	-23.8	-24.2	17.0	0.00e+00	0	30	0	11920211968	22	17791
2026-01-12 22:39:44.21	33.24	13.54	-23.7	-24.1	16.9	0.00e+00	0	30	0	12264144896	22	17540
2026-01-12 22:39:47.24	33.67	13.88	-23.9	-24.3	16.9	5.40e-06	0	30	0	12599689216	22	17880
2026-01-12 22:39:50.26	34.11	14.22	-23.6	-24.0	16.9	0.00e+00	0	30	0	12943622144	22	17371
2026-01-12 22:39:53.29	34.57	14.57	-23.7	-24.1	17.0	0.00e+00	0	30	0	13279166464	22	17488
2026-01-12 22:39:56.32	35.03	14.92	-23.5	-23.9	17.0	0.00e+00	0	30	0	13623099392	22	17039
2026-01-12 22:39:59.35	35.51	15.28	-23.2	-23.6	17.0	0.00e+00	0	30	0	13958643712	22	16507
2026-01-12 22:40:02.38	36.01	15.64	-23.0	-23.4	17.1	0.00e+00	0	30	0	14302576640	22	16161
2026-01-12 22:40:05.41	36.52	16.01	-23.0	-23.5	17.1	0.00e+00	0	30	0	14646509568	22	16256
2026-01-12 22:40:08.44	37.04	16.38	-22.6	-23.0	17.2	0.00e+00	0	30	0	14982053888	20	17369
2026-01-12 22:40:11.47	37.58	16.76	-22.7	-23.1	16.9	0.00e+00	0	30	0	15325986816	20	17520
2026-01-12 22:40:14.49	38.13	17.14	-22.4	-22.9	17.0	0.00e+00	0	30	0	15661531136	20	17044
2026-01-12 22:40:17.49	38.69	17.53	-22.3	-22.7	17.2	0.00e+00	0	30	0	16005464064	20	16708
2026-01-12 22:40:20.44	39.26	17.91	-22.1	-22.5	17.2	0.00e+00	0	30	0	16332619776	20	16387
2026-01-12 22:40:23.36	39.85	18.30	-22.0	-22.5	17.1	0.00e+00	0	30	0	16668164096	20	16309
2026-01-12 22:40:26.30	40.45	18.69	-21.9	-22.3	17.2	0.00e+00	0	30	0	16995319808	20	16007
2026-01-12 22:40:29.23	41.07	19.09	-21.7	-22.1	17.2	0.00e+00	0	30	0	17322475520	18	17487
2026-01-12 22:40:32.16	41.70	19.49	-21.5	-22.0	17.3	0.00e+00	0	30	0	17658019840	18	17274
2026-01-12 22:40:35.09	42.36	19.90	-21.2	-21.7	17.3	0.00e+00	0	30	0	17985175552	18	16665
2026-01-12 22:40:38.03	43.04	20.31	-21.2	-21.7	17.3	0.00e+00	0	30	0	18312331264	18	16649
2026-01-12 22:40:40.96	43.74	20.73	-21.1	-21.5	17.3	0.00e+00	0	30	0	18647875584	18	16371
2026-01-12 22:40:43.90	44.46	21.15	-21.3	-21.8	17.2	0.00e+00	0	30	0	18975031296	18	16854
2026-01-12 22:40:46.83	45.20	21.58	-21.2	-21.6	17.4	0.00e+00	0	30	0	19302187008	18	16562
2026-01-12 22:40:49.77	45.97	22.01	-20.7	-21.2	17.4	0.00e+00	0	30	0	19637731328	16	17670
2026-01-12 22:40:52.70	46.75	22.45	-20.3	-20.8	17.4	0.00e+00	0	30	0	19964887040	16	16822
2026-01-12 22:40:55.63	47.57	22.89	-20.1	-20.6	17.5	0.00e+00	0	30	0	20292042752	16	16438
2026-01-12 22:40:58.56	48.41	23.33	-19.9	-20.4	17.4	0.00e+00	0	30	0	20627587072	16	16139
2026-01-12 22:41:01.49	49.27	23.78	-19.8	-20.3	17.4	0.00e+00	0	30	0	20954742784	14	17809
2026-01-12 22:41:04.42	50.17	24.23	-19.6	-20.1	17.5	0.00e+00	0	30	0	21281898496	14	17405
2026-01-12 22:41:07.35	51.09	24.69	-19.3	-19.8	17.5	0.00e+00	0	30	0	21617442816	14	16859
2026-01-12 22:41:10.28	52.04	25.14	-19.4	-19.9	17.5	0.00e+00	0	30	0	21944598528	14	17025
2026-01-12 22:41:13.21	53.02	25.60	-19.1	-19.6	17.6	0.00e+00	0	30	0	22271754240	14	16486
2026-01-12 22:41:16.15	54.04	26.06	-18.9	-19.4	17.5	0.00e+00	0	30	0	22598909952	14	16150
2026-01-12 22:41:19.08	55.09	26.52	-18.8	-19.3	17.4	0.00e+00	0	30	0	22934454272	12	17813
2026-01-12 22:41:22.01	56.17	26.98	-18.5	-19.0	17.6	0.00e+00	0	30	0	23261609984	12	17223
2026-01-12 22:41:24.94	57.28	27.44	-18.4	-18.9	17.6	0.00e+00	0	30	0	23588765696	12	17049
2026-01-12 22:41:27.87	58.43	27.90	-18.3	-18.7	17.6	0.00e+00	0	30	0	23924310016	12	16789
2026-01-12 22:41:30.80	59.62	28.35	-18.0	-18.5	17.6	0.00e+00	0	30	0	24251465728	12	16249
2026-01-12 22:41:33.73	60.84	28.80	-18.0	-18.5	17.5	0.00e+00	0	30	0	24578621440	12	16326
2026-01-12 22:41:36.66	62.10	29.25	-17.8	-18.3	17.6	0.00e+00	0	30	0	24914165760	12	16004
2026-01-12 22:41:39.59	63.40	29.69	-17.8	-18.3	17.6	0.00e+00	0	30	0	25241321472	10	17871
2026-01-12 22:41:42.52	64.74	30.12	-17.7	-18.2	17.6	0.00e+00	0	30	0	25568477184	10	17642
2026-01-12 22:41:45.45	66.11	30.54	-17.5	-18.0	17.6	0.00e+00	0	30	0	25904021504	10	17304
2026-01-12 22:41:48.38	67.52	30.96	-17.3	-17.8	17.7	0.00e+00	0	30	0	26231177216	10	16868
2026-01-12 22:41:51.32	68.98	31.36	-17.2	-17.7	17.6	0.00e+00	0	30	0	26558332928	10	16641
2026-01-12 22:41:54.25	70.47	31.75	-17.2	-17.7	17.6	0.00e+00	0	30	0	26885488640	10	16683
2026-01-12 22:41:57.18	72.00	32.12	-17.1	-17.5	17.6	0.00e+00	0	30	0	27221032960	10	16409
2026-01-12 22:42:00.12	73.57	32.48	-16.9	-17.4	17.6	0.00e+00	0	30	0	27548188672	10	16142
2026-01-12 22:42:03.05	75.17	32.82	-16.8	-17.3	17.6	0.00e+00	0	30	0	27883732992	10	15884
2026-01-12 22:42:05.99	76.81	33.14	-16.8	-17.3	17.6	0.00e+00	0	30	0	28210888704	8	17844
2026-01-12 22:42:08.92	78.48	33.44	-16.6	-17.0	17.6	0.00e+00	0	30	0	28538044416	8	17371
2026-01-12 22:42:11.85	80.19	33.72	-16.5	-16.9	17.6	0.00e+00	0	30	0	28865200128	8	17175
2026-01-12 22:42:14.78	81.92	33.97	-16.6	-17.1	17.5	0.00e+00	0	30	0	29200744448	8	17427
2026-01-12 22:42:17.72	83.68	34.20	-16.4	-16.8	17.5	0.00e+00	0	30	0	29527900160	8	16968
2026-01-12 22:42:20.65	85.47	34.40	-16.3	-16.8	17.5	0.00e+00	0	30	0	29863444480	8	16818
2026-01-12 22:42:23.59	87.28	34.57	-16.2	-16.7	17.4	0.00e+00	0	30	0	30190600192	8	16672
2026-01-12 22:42:26.52	89.11	34.72	-16.2	-16.7	17.5	0.00e+00	0	30	0	30517755904	8	16631
2026-01-12 22:42:29.45	90.95	34.83	-16.3	-16.8	17.5	0.00e+00	0	30	0	30844911616	8	16815
2026-01-12 22:42:32.38	92.80	34.91	-16.2	-16.7	17.4	0.00e+00	0	30	0	31180455936	8	16696
2026-01-12 22:42:35.31	94.66	34.96	-16.4	-16.8	17.4	0.00e+00	0	30	0	31507611648	8	16886
2026-01-12 22:42:38.24	96.52	34.98	-16.3	-16.8	17.3	0.00e+00	0	30	0	31834767360	8	16833
2026-01-12 22:42:41.17	98.39	34.96	-16.4	-16.8	17.3	0.00e+00	0	30	0	32170311680	8	16960
2026-01-12 22:42:44.10	100.25	34.92	-16.4	-16.8	17.3	0.00e+00	0	30	0	32497467392	8	16876
2026-01-12 22:42:47.02	102.10	34.84	-16.4	-16.8	17.3	0.00e+00	0	30	0	32824623104	8	16966
2026-01-12 22:42:49.95	103.94	34.73	-16.4	-16.8	17.3	0.00e+00	0	30	0	33151778816	8	16976
2026-01-12 22:42:52.88	105.77	34.60	-16.5	-16.9	17.3	0.00e+00	0	30	0	33487323136	8	17178
2026-01-12 22:42:55.80	107.58	34.43	-16.6	-17.0	17.3	0.00e+00	0	30	0	33814478848	8	17341
2026-01-12 22:42:58.73	109.37	34.23	-16.5	-16.9	17.4	0.00e+00	0	30	0	34141634560	8	17066
2026-01-12 22:43:01.66	111.13	34.01	-16.8	-17.2	17.4	0.00e+00	0	30	0	34477178880	8	17691
2026-01-12 22:43:04.58	112.87	33.76	-16.7	-17.1	17.4	0.00e+00	0	30	0	34804334592	8	17565
2026-01-12 22:43:07.51	114.58	33.49	-16.7	-17.1	17.5	0.00e+00	0	30	0	35131490304	8	17533
2026-01-12 22:43:10.45	116.26	33.19	-16.8	-17.2	17.5	0.00e+00	0	30	0	35458646016	8	17714
2026-01-12 22:43:13.38	117.91	32.87	-17.1	-17.5	17.5	0.00e+00	0	30	0	35794190336	8	18399
2026-01-12 22:43:16.31	119.52	32.53	-16.9	-17.3	17.6	0.00e+00	0	30	0	36121346048	8	17967
2026-01-12 22:43:19.24	121.10	32.17	-17.0	-17.4	17.6	0.00e+00	0	30	0	36448501760	8	18130
2026-01-12 22:43:22.17	122.64	31.80	-17.2	-17.6	17.7	0.00e+00	0	30	0	36784046080	8	18519
2026-01-12 22:43:25.10	124.14	31.41	-17.2	-17.6	17.7	0.00e+00	0	30	0	37111201792	8	18508
2026-01-12 22:43:28.03	125.60	31.01	-17.4	-17.8	17.8	0.00e+00	0	30	0	37438357504	8	18966
2026-01-12 22:43:30.96	127.02	30.60	-17.2	-17.7	17.8	0.00e+00	0	30	0	37773901824	8	18656
2026-01-12 22:43:33.90	128.41	30.17	-17.3	-17.8	17.9	0.00e+00	0	30	0	38092668928	8	18902
2026-01-12 22:43:36.84	129.77	29.74	-17.4	-17.9	17.9	0.00e+00	0	30	0	38428213248	8	19130
2026-01-12 22:43:39.77	131.07	29.30	-17.5	-18.0	18.0	0.00e+00	0	30	0	38763757568	8	19320
2026-01-12 22:43:42.70	132.34	28.85	-17.7	-18.1	18.0	0.00e+00	0	30	0	39090913280	10	17596
2026-01-12 22:43:45.63	133.58	28.40	-17.9	-18.3	17.9	0.00e+00	0	30	0	39418068992	10	18002
2026-01-12 22:43:48.56	134.77	27.94	-18.1	-18.6	17.9	0.00e+00	0	30	0	39753613312	10	18489
2026-01-12 22:43:51.49	135.93	27.48	-18.2	-18.6	17.9	0.00e+00	0	30	0	40080769024	10	18645
2026-01-12 22:43:54.43	137.06	27.02	-18.2	-18.6	17.8	0.00e+00	0	30	0	40407924736	10	18603
2026-01-12 22:43:57.36	138.15	26.55	-18.3	-18.7	17.8	0.00e+00	0	30	0	40743469056	10	18770
2026-01-12 22:44:00.30	139.21	26.09	-18.5	-18.9	17.7	0.00e+00	0	30	0	41070624768	10	19243
2026-01-12 22:44:03.23	140.23	25.63	-18.7	-19.2	17.7	0.00e+00	0	30	0	41397780480	12	17626
2026-01-12 22:44:06.16	141.22	25.17	-18.8	-19.3	17.7	0.00e+00	0	30	0	41733324800	12	17930
2026-01-12 22:44:09.10	142.18	24.71	-19.0	-19.5	17.6	0.00e+00	0	30	0	42060480512	12	18277
2026-01-12 22:44:12.03	143.11	24.25	-19.1	-19.5	17.6	0.00e+00	0	30	0	42387636224	12	18384
2026-01-12 22:44:14.96	144.02	23.79	-19.3	-19.8	17.6	0.00e+00	0	30	0	42723180544	12	18973
2026-01-12 22:44:17.89	144.89	23.34	-19.4	-19.9	17.5	0.00e+00	0	30	0	43050336256	12	19206
2026-01-12 22:44:20.83	145.74	22.89	-19.5	-20.0	17.5	0.00e+00	0	30	0	43377491968	12	19471
2026-01-12 22:44:23.76	146.56	22.45	-19.8	-20.3	17.5	0.00e+00	0	30	0	43713036288	14	17822
2026-01-12 22:44:26.69	147.35	22.01	-20.0	-20.5	17.4	0.00e+00	0	30	0	44040192000	14	18249
2026-01-12 22:44:29.62	148.12	21.57	-20.2	-20.7	17.5	0.00e+00	0	30	0	44367347712	14	18669
2026-01-12 22:44:32.55	148.87	21.14	-20.2	-20.7	17.4	0.00e+00	0	30	0	44702892032	14	18697
2026-01-12 22:44:35.49	149.59	20.72	-20.3	-20.7	17.4	0.00e+00	0	30	0	45030047744	14	18853
2026-01-12 22:44:38.41	150.29	20.30	-20.4	-20.9	17.4	0.00e+00	0	30	0	45357203456	14	19129
2026-01-12 22:44:41.35	150.98	19.88	-20.5	-21.0	17.4	0.00e+00	0	30	0	45692747776	14	19319
2026-01-12 22:44:44.29	151.64	19.47	-20.6	-21.0	17.3	0.00e+00	0	30	0	46019903488	14	19414
2026-01-12 22:44:47.22	152.28	19.06	-20.5	-21.0	17.3	0.00e+00	0	30	0	46347059200	16	17294
2026-01-12 22:44:50.15	152.90	18.66	-20.9	-21.3	17.3	0.00e+00	0	30	0	46682603520	16	17977
2026-01-12 22:44:53.08	153.51	18.27	-21.9	-22.3	17.2	0.00e+00	0	30	0	47009759232	18	17982
2026-01-12 22:44:56.02	154.10	17.87	-24.3	-24.8	16.8	0.00e+00	0	30	0	47336914944	22	18949
2026-01-12 22:44:58.95	154.67	17.49	-26.4	-26.9	16.2	3.26e-05	0	30	0	47672459264	26	19146
2026-01-12 22:45:01.89	155.23	17.11	-26.3	-26.8	16.3	2.94e-04	0	30	0	47999614976	26	18925
2026-01-12 22:45:04.82	155.76	16.73	-25.6	-26.0	16.6	1.47e-04	0	30	0	48326770688	26	17270
2026-01-12 22:45:07.75	156.29	16.36	-23.4	-23.9	17.0	4.35e-05	0	30	0	48662315008	22	17073
2026-01-12 22:45:10.69	156.80	16.00	-23.0	-23.4	17.1	0.00e+00	0	30	0	48989470720	22	16206
2026-01-12 22:45:13.62	157.30	15.64	-22.7	-23.1	17.1	0.00e+00	0	30	0	49316626432	20	17567
2026-01-12 22:45:16.55	157.78	15.29	-22.0	-22.4	17.2	0.00e+00	0	30	0	49652170752	20	16230
2026-01-12 22:45:19.48	158.25	14.94	-48.4	-50.9	6.1	0.00e+00	0	30	104	49937383424	60	42895
2026-01-12 22:45:22.43	158.71	14.59	-48.4	-50.9	6.1	0.00e+00	0	30	104	49937383424	60	43007
2026-01-12 22:45:25.36	159.15	14.25	-48.4	-50.9	6.1	0.00e+00	0	30	104	49937383424	60	42879
2026-01-12 22:45:28.29	159.59	13.92	-48.4	-50.8	6.1	0.00e+00	0	30	104	49937383424	60	42606
2026-01-12 22:45:31.22	160.01	13.59	-48.4	-50.9	6.1	0.00e+00	0	30	104	49937383424	60	43006
2026-01-12 22:45:34.15	160.42	13.26	-48.3	-50.7	6.1	0.00e+00	0	30	104	49937383424	60	42211
2026-01-12 22:45:37.08	160.83	12.94	-48.2	-50.7	6.1	0.00e+00	0	30	104	49937383424	60	41978
2026-01-12 22:45:40.01	161.22	12.62	-47.9	-50.4	6.1	0.00e+00	0	30	104	49937383424	60	40596
2026-01-12 22:45:42.94	161.60	12.31	-48.3	-50.8	6.1	0.00e+00	0	30	104	49937383424	60	42528
2026-01-12 22:45:45.87	161.97	12.00	-48.1	-50.5	6.1	0.00e+00	0	30	104	49937383424	60	41236
2026-01-12 22:45:48.80	162.34	11.70	-47.9	-50.4	6.1	0.00e+00	0	30	104	49937383424	60	40655
2026-01-12 22:45:51.73	162.69	11.40	-48.3	-50.8	6.1	0.00e+00	0	30	104	49937383424	60	42274
2026-01-12 22:45:54.67	163.04	11.10	-48.2	-50.6	6.1	0.00e+00	0	30	104	49937383424	60	41697
2026-01-12 22:45:57.59	163.38	10.81	-48.2	-50.7	6.1	0.00e+00	0	30	104	49937383424	60	42120
2026-01-12 22:46:00.52	163.71	10.52	-48.1	-50.6	6.1	0.00e+00	0	30	104	49937383424	60	41737
2026-01-12 22:46:03.46	164.04	10.23	-48.2	-50.7	6.1	0.00e+00	0	30	104	49937383424	60	41787
2026-01-12 22:46:06.39	164.35	9.95	-48.1	-50.6	6.1	0.00e+00	0	30	104	49937383424	60	41474
2026-01-12 22:46:09.33	164.66	9.68	-48.0	-50.5	6.1	0.00e+00	0	30	104	49937383424	60	41082
2026-01-12 22:46:12.26	164.97	9.40	-48.2	-50.7	6.1	0.00e+00	0	30	104	49937383424	60	41877
2026-01-12 22:46:15.18	165.26	9.13	-48.2	-50.7	6.1	0.00e+00	0	30	104	49937383424	60	42198
2026-01-12 22:46:18.11	165.55	8.86	-48.1	-50.6	6.1	0.00e+00	0	30	104	49937383424	60	41351
2026-01-12 22:46:21.04	165.83	8.60	-48.2	-50.6	6.1	0.00e+00	0	30	104	49937383424	60	41685
2026-01-12 22:46:23.97	166.11	8.34	-48.0	-50.5	6.1	0.00e+00	0	30	104	49937383424	60	41161
2026-01-12 22:46:26.90	166.38	8.08	-48.1	-50.6	6.1	0.00e+00	0	30	104	49937383424	60	41373
2026-01-12 22:46:29.83	166.65	7.83	-47.9	-50.3	6.1	0.00e+00	0	30	104	49937383424	60	40134
2026-01-12 22:46:32.75	166.91	7.57	-48.0	-50.5	6.1	0.00e+00	0	30	104	49937383424	60	41202
2026-01-12 22:46:35.68	167.17	7.32	-47.9	-50.4	6.1	0.00e+00	0	30	104	49937383424	60	40748
2026-01-12 22:46:38.61	167.42	7.08	-48.1	-50.6	6.1	0.00e+00	0	30	104	49937383424	60	41446
2026-01-12 22:46:41.55	167.66	6.83	-47.8	-50.3	6.1	0.00e+00	0	30	104	49937383424	60	40151
2026-01-12 22:46:44.48	167.90	6.59	-47.9	-50.4	6.1	0.00e+00	0	30	104	49937383424	60	40427
2026-01-12 22:46:47.41	168.14	6.35	-48.0	-50.5	6.1	0.00e+00	0	30	104	49937383424	60	40820
2026-01-12 22:46:50.34	168.37	6.12	-47.8	-50.3	6.1	0.00e+00	0	30	104	49937383424	60	40039
2026-01-12 22:46:53.27	168.60	5.89	-47.9	-50.4	6.1	0.00e+00	0	30	104	49937383424	60	40544
2026-01-12 22:46:56.21	168.82	5.65	-47.9	-50.4	6.1	0.00e+00	0	30	104	49937383424	60	40382
2026-01-12 22:46:59.14	169.04	5.43	-47.9	-50.4	6.1	0.00e+00	0	30	104	49937383424	60	40609
2026-01-12 22:47:02.07	169.26	5.20	-47.7	-50.2	6.1	0.00e+00	0	30	104	49937383424	60	39555
2026-01-12 22:47:05.00	169.47	4.98	-47.8	-50.3	6.1	0.00e+00	0	30	104	49937383424	60	40112
2026-01-12 22:47:07.94	169.67	4.75	-47.7	-50.2	6.1	0.00e+00	0	29	104	49937383424	60	39842
2026-01-12 22:47:10.86	169.88	4.53	-47.8	-50.3	6.1	0.00e+00	0	30	104	49937383424	60	40135
2026-01-12 22:47:13.79	170.08	4.32	-47.5	-50.0	6.1	0.00e+00	0	30	104	49937383424	60	38737
2026-01-12 22:47:16.73	170.27	4.10	-47.7	-50.2	6.1	0.00e+00	0	30	104	49937383424	60	39615
2026-01-12 22:47:19.67	170.47	3.89	-47.5	-50.0	6.1	0.00e+00	0	30	104	49937383424	60	38826
2026-01-12 22:47:22.60	170.66	3.68	-47.5	-50.0	6.1	0.00e+00	0	30	104	49937383424	60	38822
2026-01-12 22:47:25.53	170.84	3.47	-47.5	-49.9	6.1	0.00e+00	0	30	104	49937383424	60	38259
2026-01-12 22:47:28.47	171.03	3.26	-47.4	-49.9	6.1	0.00e+00	0	29	104	49937383424	60	38155
2026-01-12 22:47:31.40	171.21	3.05	-47.5	-50.0	6.1	0.00e+00	0	29	104	49937383424	60	38736
2026-01-12 22:47:34.33	171.38	2.85	-48.2	-50.7	6.1	0.00e+00	0	30	104	49937383424	60	42180
2026-01-12 22:47:37.26	171.56	2.65	-48.8	-51.3	6.1	0.00e+00	0	30	104	49937383424	60	44803
2026-01-12 22:47:40.19	171.73	2.45	-48.8	-51.3	6.1	0.00e+00	0	30	104	49937383424	60	45210
2026-01-12 22:47:43.13	171.90	2.25	-48.9	-51.3	6.1	0.00e+00	0	29	104	49937383424	60	45242
2026-01-12 22:47:46.06	172.06	2.05	-48.7	-51.2	6.1	0.00e+00	0	29	104	49937383424	60	44678
2026-01-12 22:47:48.99	172.23	1.86	-48.8	-51.3	6.1	0.00e+00	0	29	104	49937383424	60	45053
2026-01-12 22:47:51.92	172.39	1.66	-48.8	-51.2	6.1	0.00e+00	0	29	104	49937383424	60	44719
2026-01-12 22:47:54.85	172.55	1.47	-48.8	-51.2	6.1	0.00e+00	0	30	104	49937383424	60	44650
2026-01-12 22:47:57.78	172.70	1.28	-48.7	-51.2	6.1	0.00e+00	0	30	104	49937383424	60	44581
2026-01-12 22:48:00.72	172.85	1.09	-48.8	-51.2	6.1	0.00e+00	0	29	104	49937383424	60	44725
2026-01-12 22:48:03.65	173.01	0.90	-48.7	-51.2	6.1	0.00e+00	0	30	104	49937383424	60	44697
2026-01-12 22:48:06.58	173.15	0.72	-48.7	-51.2	6.1	0.00e+00	0	29	104	49937383424	60	44554
2026-01-12 22:48:09.52	173.30	0.53	-48.8	-51.3	6.1	0.00e+00	0	30	104	49937383424	60	44771
2026-01-12 22:48:12.45	173.45	0.35	-48.7	-51.2	6.1	0.00e+00	0	29	104	49937383424	60	44698
2026-01-12 22:48:15.38	173.59	0.16	-48.7	-51.3	6.1	0.00e+00	0	29	104	49937383424	60	44831
2026-01-12 22:48:18.32	173.73	-0.02	-48.8	-51.2	6.1	0.00e+00	0	30	104	49937383424	60	44685

#Closed at: 2026-01-12 22:48:19
#Recorded file [49937 MB]: D:/lorett/data/35029_260113_103730.dat