passes_logs/2026/01/12/R4.6S_Anadyr/R4.6S_Anadyr__20260112_172102_SUOMI_NPP_rec.log

#Pass ID: 20260112_172102_SUOMI NPP
#Satellite: SUOMI NPP
#Configuration: NPP
#almurnet v.1.7.20251203
#Start time: 2026-01-12 17:21:04

#Version: 2.2.20231116
#Station: R4.6S_Anadyr
#Location: 177.4865 lon 64.73178 lat
#TLE: 1 37849U 11061A   26011.57971124  .00000103  00000+0  69927-4 0  9996
#TLE: 2 37849  98.7807 313.6578 0002518  69.5076 290.6370 14.19524515736228

#Time	Az	El	Level	Level2	SNR	BER	BlckErr	Temp	State	Recorded	gain1	gain2
2026-01-12 17:21:04.13	30.78	0.11	-48.2	-59.9	3.5	8.45e-01	0	25	0	0	60	35717
2026-01-12 17:21:08.16	30.55	0.33	-48.4	-63.6	3.6	1.51e+00	0	26	104	0	60	54862
2026-01-12 17:21:12.20	30.32	0.55	-48.4	-63.6	3.6	1.51e+00	0	26	104	0	60	54486
2026-01-12 17:21:16.24	30.09	0.77	-48.0	-63.1	3.6	1.51e+00	0	26	104	0	60	51751
2026-01-12 17:21:20.28	29.85	0.99	-47.2	-62.4	3.6	1.51e+00	0	26	104	0	60	47544
2026-01-12 17:21:24.31	29.61	1.21	-46.7	-61.8	3.6	1.51e+00	0	27	104	0	60	44688
2026-01-12 17:21:28.36	29.36	1.44	-46.7	-61.8	3.6	1.51e+00	0	26	104	0	60	44500
2026-01-12 17:21:32.40	29.11	1.66	-46.7	-61.9	3.6	1.51e+00	0	27	104	0	60	44821
2026-01-12 17:21:36.43	28.85	1.89	-46.7	-61.9	3.6	1.51e+00	0	27	104	0	60	44884
2026-01-12 17:21:40.47	28.60	2.11	-46.7	-61.7	3.6	1.51e+00	0	27	104	0	60	43776
2026-01-12 17:21:44.51	28.33	2.34	-46.7	-61.8	3.6	1.51e+00	0	27	104	0	60	44623
2026-01-12 17:21:48.55	28.07	2.57	-46.7	-61.8	3.6	1.51e+00	0	27	104	0	60	44693
2026-01-12 17:21:52.59	27.79	2.80	-46.7	-61.2	3.6	1.51e+00	0	27	104	0	60	41284
2026-01-12 17:21:56.63	27.52	3.04	-46.7	-61.2	3.6	1.51e+00	0	27	104	0	60	41325
2026-01-12 17:22:00.67	27.24	3.27	-45.5	-51.2	9.1	4.02e-02	0	27	0	3145728	60	13171
2026-01-12 17:22:04.70	26.95	3.51	-46.7	-61.7	3.6	2.95e-03	0	27	104	7340032	60	43884
2026-01-12 17:22:08.74	26.66	3.74	-41.6	-43.6	17.3	0.00e+00	0	27	0	10485760	56	6892
2026-01-12 17:22:12.77	26.36	3.98	-41.0	-42.8	18.0	0.00e+00	0	27	0	18874368	56	6270
2026-01-12 17:22:16.81	26.06	4.22	-41.1	-42.9	18.0	0.00e+00	36	27	0	26214400	56	6365
2026-01-12 17:22:20.85	25.76	4.46	-41.1	-42.9	18.2	0.00e+00	60	27	0	33554432	56	6344
2026-01-12 17:22:24.89	25.45	4.70	-40.7	-42.4	18.6	0.00e+00	0	27	0	40894464	54	6706
2026-01-12 17:22:28.93	25.13	4.95	-40.8	-42.5	18.6	0.00e+00	0	27	0	49283072	54	6812
2026-01-12 17:22:32.96	24.81	5.19	-40.6	-42.2	18.8	0.00e+00	35	27	0	56623104	54	6547
2026-01-12 17:22:37.00	24.48	5.44	-40.3	-41.9	19.1	0.00e+00	0	27	0	63963136	54	6328
2026-01-12 17:22:41.03	24.15	5.68	-40.2	-41.7	19.3	0.00e+00	0	27	0	71303168	54	6198
2026-01-12 17:22:45.06	23.81	5.93	-40.1	-41.5	19.5	0.00e+00	0	27	0	78643200	54	6068
2026-01-12 17:22:49.10	23.46	6.18	-40.1	-41.5	19.7	0.00e+00	92	27	0	87031808	54	6064
2026-01-12 17:22:53.13	23.11	6.43	-40.3	-41.8	19.3	0.00e+00	0	27	0	94371840	54	6252
2026-01-12 17:22:57.17	22.75	6.69	-40.2	-41.6	19.5	0.00e+00	33	27	0	101711872	54	6171
2026-01-12 17:23:01.21	22.38	6.94	-40.5	-42.0	19.2	0.00e+00	0	27	0	109051904	54	6418
2026-01-12 17:23:05.25	22.01	7.20	-40.5	-42.1	19.1	0.00e+00	71	27	0	117440512	54	6478
2026-01-12 17:23:09.28	21.63	7.46	-40.4	-41.9	19.2	0.00e+00	0	27	0	124780544	54	6374
2026-01-12 17:23:13.32	21.25	7.71	-40.1	-41.5	19.7	0.00e+00	0	27	0	132120576	54	6055
2026-01-12 17:23:17.36	20.85	7.97	-39.8	-41.1	20.2	0.00e+00	27	27	0	139460608	52	6488
2026-01-12 17:23:21.39	20.45	8.24	-39.5	-40.8	20.4	0.00e+00	0	27	0	146800640	52	6286
2026-01-12 17:23:25.43	20.05	8.50	-39.2	-40.4	20.7	0.00e+00	0	27	0	155189248	52	6010
2026-01-12 17:23:29.47	19.63	8.76	-39.1	-40.3	20.8	0.00e+00	0	27	0	162529280	52	5926
2026-01-12 17:23:33.51	19.21	9.03	-39.1	-40.3	20.9	0.00e+00	51	27	0	169869312	52	5928
2026-01-12 17:23:37.54	18.78	9.29	-39.3	-40.5	20.8	0.00e+00	0	27	0	177209344	52	6085
2026-01-12 17:23:41.58	18.34	9.56	-39.4	-40.7	20.7	0.00e+00	0	27	0	184549376	52	6200
2026-01-12 17:23:45.62	17.89	9.83	-39.4	-40.6	20.8	0.00e+00	0	27	0	192937984	52	6140
2026-01-12 17:23:49.66	17.43	10.10	-39.4	-40.7	20.6	0.00e+00	54	27	0	200278016	52	6239
2026-01-12 17:23:53.70	16.96	10.37	-39.8	-41.1	20.4	0.00e+00	0	27	0	207618048	52	6483
2026-01-12 17:23:57.73	16.49	10.64	-39.4	-40.7	20.3	0.00e+00	0	27	0	214958080	52	6184
2026-01-12 17:24:01.77	16.01	10.92	-39.4	-40.6	20.8	0.00e+00	33	27	0	223346688	52	6121
2026-01-12 17:24:05.81	15.51	11.19	-39.7	-41.0	20.6	0.00e+00	92	27	0	230686720	52	6402
2026-01-12 17:24:09.84	15.01	11.47	-38.7	-39.8	21.4	0.00e+00	0	27	0	238026752	50	6311
2026-01-12 17:24:13.88	14.50	11.74	-38.8	-40.0	21.4	0.00e+00	0	27	0	245366784	50	6405
2026-01-12 17:24:17.92	13.97	12.02	-38.9	-40.0	21.3	0.00e+00	27	27	0	252706816	50	6444
2026-01-12 17:24:21.96	13.44	12.30	-38.5	-39.6	21.7	0.00e+00	0	27	0	261095424	50	6139
2026-01-12 17:24:26.00	12.90	12.58	-38.5	-39.6	21.7	0.00e+00	0	27	0	268435456	50	6106
2026-01-12 17:24:30.04	12.34	12.86	-38.4	-39.5	21.8	0.00e+00	0	27	0	275775488	50	6055
2026-01-12 17:24:34.08	11.78	13.14	-38.1	-39.1	22.1	0.00e+00	6	27	0	283115520	50	5811
2026-01-12 17:24:38.11	11.20	13.42	-38.3	-39.5	21.9	0.00e+00	0	27	0	291504128	50	6039
2026-01-12 17:24:42.15	10.62	13.70	-38.0	-39.1	22.0	0.00e+00	0	27	0	298844160	50	5772
2026-01-12 17:24:46.19	10.02	13.98	-38.8	-40.0	21.0	0.00e+00	0	27	0	306184192	50	6418
2026-01-12 17:24:50.22	9.41	14.26	-38.7	-39.8	21.6	0.00e+00	59	27	0	313524224	50	6273
2026-01-12 17:24:54.26	8.78	14.54	-38.6	-39.7	21.7	0.00e+00	0	27	0	320864256	50	6221
2026-01-12 17:24:58.30	8.15	14.82	-38.5	-39.6	21.7	0.00e+00	0	27	0	329252864	50	6146
2026-01-12 17:25:02.33	7.50	15.10	-38.5	-39.6	21.6	0.00e+00	0	27	0	336592896	50	6163
2026-01-12 17:25:06.37	6.85	15.37	-39.1	-40.2	21.3	0.00e+00	40	27	0	343932928	50	6612
2026-01-12 17:25:10.41	6.17	15.65	-38.6	-39.7	21.8	0.00e+00	0	27	0	351272960	50	6176
2026-01-12 17:25:14.44	5.49	15.93	-39.1	-40.3	21.3	0.00e+00	0	27	0	358612992	50	6656
2026-01-12 17:25:18.48	4.79	16.21	-39.0	-40.2	21.5	0.00e+00	39	27	0	367001600	50	6545
2026-01-12 17:25:22.52	4.08	16.48	-38.9	-40.2	21.3	0.00e+00	0	27	0	374341632	50	6547
2026-01-12 17:25:26.55	3.36	16.75	-38.5	-39.6	21.9	0.00e+00	0	27	0	381681664	50	6128
2026-01-12 17:25:30.59	2.62	17.03	-39.5	-40.7	20.8	0.00e+00	0	27	0	389021696	50	6995
2026-01-12 17:25:34.63	1.87	17.29	-38.9	-40.1	21.5	0.00e+00	82	27	0	397410304	50	6476
2026-01-12 17:25:38.66	1.11	17.56	-38.3	-39.4	21.9	0.00e+00	0	27	0	404750336	50	6023
2026-01-12 17:25:42.70	0.33	17.83	-37.9	-38.9	22.4	0.00e+00	0	27	0	412090368	50	5680
2026-01-12 17:25:46.74	359.53	18.09	-37.7	-38.7	22.6	0.00e+00	0	27	0	419430400	48	6243
2026-01-12 17:25:50.78	358.73	18.35	-37.0	-37.9	23.2	0.00e+00	56	27	0	426770432	48	5659
2026-01-12 17:25:54.81	357.91	18.60	-36.6	-37.5	23.5	0.00e+00	0	27	0	435159040	46	6084
2026-01-12 17:25:58.85	357.07	18.86	-36.9	-37.9	23.2	0.00e+00	0	27	0	442499072	46	6332
2026-01-12 17:26:02.89	356.23	19.10	-36.6	-37.5	23.5	0.00e+00	25	27	0	449839104	46	6089
2026-01-12 17:26:06.92	355.37	19.35	-36.5	-37.4	23.7	0.00e+00	0	27	0	457179136	46	6007
2026-01-12 17:26:10.96	354.49	19.59	-36.7	-37.6	23.4	0.00e+00	0	27	0	465567744	46	6172
2026-01-12 17:26:15.00	353.60	19.82	-36.8	-37.7	23.4	0.00e+00	0	27	0	472907776	46	6215
2026-01-12 17:26:19.04	352.69	20.05	-36.1	-37.1	23.9	0.00e+00	42	27	0	480247808	46	5769
2026-01-12 17:26:23.07	351.78	20.27	-36.4	-37.3	23.8	0.00e+00	0	27	0	487587840	46	5918
2026-01-12 17:26:27.11	350.85	20.49	-36.4	-37.3	23.7	0.00e+00	0	27	0	494927872	46	5912
2026-01-12 17:26:31.15	349.90	20.70	-36.0	-36.8	24.1	0.00e+00	30	27	0	503316480	46	5617
2026-01-12 17:26:35.19	348.94	20.91	-36.2	-37.1	23.9	0.00e+00	90	27	0	510656512	46	5778
2026-01-12 17:26:39.23	347.97	21.11	-35.6	-36.4	24.4	0.00e+00	0	27	0	517996544	44	6001
2026-01-12 17:26:43.27	346.99	21.30	-36.2	-37.0	23.9	0.00e+00	0	27	0	525336576	44	6439
2026-01-12 17:26:47.31	346.00	21.48	-35.5	-36.3	24.4	0.00e+00	0	27	0	533725184	44	5955
2026-01-12 17:26:51.34	344.99	21.65	-36.2	-37.1	23.9	0.00e+00	90	27	0	541065216	44	6485
2026-01-12 17:26:55.38	343.97	21.82	-35.9	-36.8	24.2	0.00e+00	0	27	0	548405248	44	6248
2026-01-12 17:26:59.42	342.94	21.98	-36.2	-37.0	23.9	0.00e+00	0	27	0	555745280	44	6459
2026-01-12 17:27:03.46	341.90	22.13	-35.6	-36.4	24.4	0.00e+00	33	27	0	563085312	44	6006
2026-01-12 17:27:07.49	340.86	22.27	-36.6	-37.5	23.7	0.00e+00	0	27	0	571473920	44	6771
2026-01-12 17:27:11.53	339.80	22.39	-37.7	-38.7	22.7	0.00e+00	0	27	0	578813952	46	7006
2026-01-12 17:27:15.57	338.73	22.51	-38.6	-39.7	21.8	0.00e+00	0	27	0	586153984	50	6213
2026-01-12 17:27:19.60	337.66	22.62	-37.6	-38.6	22.6	0.00e+00	74	27	0	593494016	48	6167
2026-01-12 17:27:23.63	336.58	22.72	-37.6	-38.6	22.7	0.00e+00	0	27	0	600834048	48	6140
2026-01-12 17:27:27.67	335.49	22.81	-37.0	-37.9	23.3	0.00e+00	0	27	0	609222656	48	5687
2026-01-12 17:27:31.71	334.40	22.89	-38.0	-39.0	22.2	0.00e+00	8	27	0	616562688	48	6456
2026-01-12 17:27:35.75	333.30	22.95	-37.2	-38.2	23.1	0.00e+00	49	27	0	623902720	48	5836
2026-01-12 17:27:39.79	332.19	23.01	-38.2	-39.3	22.1	0.00e+00	0	27	0	631242752	48	6659
2026-01-12 17:27:43.82	331.09	23.05	-38.1	-39.1	22.4	0.00e+00	0	27	0	639631360	48	6523
2026-01-12 17:27:47.86	329.98	23.09	-39.4	-40.7	21.1	0.00e+00	40	27	0	646971392	50	6935
2026-01-12 17:27:51.90	328.86	23.11	-39.4	-40.6	21.1	0.00e+00	0	27	0	654311424	52	6162
2026-01-12 17:27:55.93	327.75	23.11	-37.3	-38.2	23.3	0.00e+00	0	27	0	661651456	48	5856
2026-01-12 17:27:59.97	326.64	23.11	-37.7	-38.7	22.8	0.00e+00	0	27	0	668991488	48	6206
2026-01-12 17:28:04.01	325.53	23.10	-37.0	-37.9	23.3	0.00e+00	66	27	0	677380096	48	5672
2026-01-12 17:28:08.05	324.41	23.07	-37.4	-38.3	23.0	0.00e+00	0	27	0	684720128	48	5947
2026-01-12 17:28:12.08	323.31	23.03	-37.4	-38.3	23.0	0.00e+00	0	27	0	692060160	48	5964
2026-01-12 17:28:16.12	322.20	22.99	-36.7	-37.6	23.7	0.00e+00	0	27	0	699400192	48	5441
2026-01-12 17:28:20.17	321.10	22.92	-37.1	-38.1	23.2	0.00e+00	90	27	0	707788800	46	6502
2026-01-12 17:28:24.20	320.00	22.85	-36.7	-37.6	23.7	0.00e+00	0	27	0	715128832	46	6118
2026-01-12 17:28:28.24	318.91	22.77	-36.2	-37.1	24.1	0.00e+00	0	27	0	722468864	46	5765
2026-01-12 17:28:32.28	317.82	22.68	-35.2	-36.0	24.7	0.00e+00	16	27	0	729808896	44	5718
2026-01-12 17:28:36.32	316.74	22.57	-35.9	-36.7	24.3	0.00e+00	68	27	0	737148928	44	6219
2026-01-12 17:28:40.36	315.67	22.46	-36.3	-37.2	24.0	0.00e+00	0	27	0	745537536	44	6544
2026-01-12 17:28:44.39	314.61	22.33	-36.0	-36.8	24.2	0.00e+00	0	27	0	752877568	44	6300
2026-01-12 17:28:48.42	313.56	22.20	-36.1	-36.9	24.1	0.00e+00	31	27	0	760217600	44	6358
2026-01-12 17:28:52.46	312.51	22.06	-37.0	-37.9	23.4	0.00e+00	0	27	0	767557632	46	6344
2026-01-12 17:28:56.50	311.47	21.90	-36.6	-37.4	23.9	0.00e+00	0	27	0	775946240	46	6012
2026-01-12 17:29:00.54	310.45	21.74	-37.1	-38.0	23.3	0.00e+00	0	27	0	783286272	46	6460
2026-01-12 17:29:04.58	309.43	21.57	-37.9	-38.9	22.5	0.00e+00	92	27	0	790626304	48	6374
2026-01-12 17:29:08.61	308.43	21.39	-38.4	-39.4	22.3	0.00e+00	0	27	0	797966336	48	6699
2026-01-12 17:29:12.65	307.44	21.21	-38.2	-39.2	22.4	0.00e+00	0	27	0	805306368	48	6592
2026-01-12 17:29:16.69	306.46	21.01	-38.6	-39.6	22.1	0.00e+00	0	27	0	813694976	48	6926
2026-01-12 17:29:20.73	305.50	20.81	-37.6	-38.5	22.9	0.00e+00	90	27	0	821035008	48	6090
2026-01-12 17:29:24.76	304.55	20.60	-37.0	-37.9	23.3	0.00e+00	0	27	0	828375040	48	5652
2026-01-12 17:29:28.80	303.61	20.39	-37.1	-38.0	23.3	0.00e+00	0	27	0	835715072	46	6458
2026-01-12 17:29:32.84	302.68	20.17	-38.0	-38.9	22.4	0.00e+00	41	27	0	844103680	48	6376
2026-01-12 17:29:36.88	301.77	19.94	-38.1	-39.1	22.4	0.00e+00	0	27	0	851443712	48	6503
2026-01-12 17:29:40.92	300.87	19.71	-39.3	-40.5	21.1	0.00e+00	0	27	0	858783744	50	6785
2026-01-12 17:29:44.95	299.98	19.47	-40.2	-41.6	20.4	0.00e+00	0	27	0	866123776	54	6140
2026-01-12 17:29:48.99	299.11	19.23	-38.7	-39.8	22.0	0.00e+00	39	27	0	873463808	50	6316
2026-01-12 17:29:53.03	298.25	18.98	-37.2	-38.1	23.3	0.00e+00	0	27	0	881852416	48	5778
2026-01-12 17:29:57.06	297.41	18.73	-36.8	-37.6	23.6	0.00e+00	0	27	0	889192448	48	5500
2026-01-12 17:30:01.09	296.58	18.48	-36.5	-37.3	23.8	0.00e+00	0	27	0	896532480	46	5941
2026-01-12 17:30:05.13	295.77	18.22	-36.2	-37.0	24.1	0.00e+00	90	27	0	903872512	46	5721
2026-01-12 17:30:09.17	294.97	17.96	-37.8	-38.8	22.8	0.00e+00	0	27	0	912261120	48	6258
2026-01-12 17:30:13.20	294.18	17.70	-38.7	-39.8	21.8	0.00e+00	0	27	0	919601152	48	7074
2026-01-12 17:30:17.24	293.41	17.43	-37.9	-38.8	22.6	0.00e+00	0	27	0	926941184	48	6315
2026-01-12 17:30:21.28	292.64	17.16	-37.2	-38.1	23.3	0.00e+00	91	27	0	934281216	48	5794
2026-01-12 17:30:25.31	291.90	16.89	-36.8	-37.7	23.5	0.00e+00	0	27	0	941621248	46	6187
2026-01-12 17:30:29.35	291.17	16.62	-37.9	-38.9	22.7	0.00e+00	0	27	0	950009856	48	6323
2026-01-12 17:30:33.39	290.45	16.34	-37.6	-38.5	22.8	0.00e+00	44	27	0	957349888	48	6094
2026-01-12 17:30:37.43	289.74	16.07	-37.4	-38.4	22.9	0.00e+00	0	27	0	964689920	48	5999
2026-01-12 17:30:41.47	289.05	15.79	-37.6	-38.6	22.8	0.00e+00	0	27	0	972029952	48	6128
2026-01-12 17:30:45.50	288.37	15.51	-37.4	-38.4	22.9	0.00e+00	0	27	0	980418560	48	5990
2026-01-12 17:30:49.54	287.70	15.23	-36.8	-37.7	23.4	0.00e+00	70	27	0	987758592	46	6211
2026-01-12 17:30:53.58	287.04	14.95	-37.0	-37.9	23.4	0.00e+00	0	27	0	995098624	46	6387
2026-01-12 17:30:57.62	286.40	14.67	-36.1	-36.9	24.1	0.00e+00	0	27	0	1002438656	46	5660
2026-01-12 17:31:01.65	285.77	14.39	-36.2	-37.0	23.9	0.00e+00	0	27	0	1009778688	46	5740
2026-01-12 17:31:05.69	285.15	14.11	-36.7	-37.5	23.5	0.00e+00	73	27	0	1018167296	46	6101
2026-01-12 17:31:09.73	284.54	13.83	-37.2	-38.1	23.2	0.00e+00	0	27	0	1025507328	46	6497
2026-01-12 17:31:13.76	283.95	13.55	-36.9	-37.8	23.3	0.00e+00	0	27	0	1032847360	46	6277
2026-01-12 17:31:17.80	283.37	13.27	-36.5	-37.4	23.6	0.00e+00	12	27	0	1040187392	46	5974
2026-01-12 17:31:21.83	282.79	12.99	-37.0	-38.0	23.2	0.00e+00	0	27	0	1047527424	46	6395
2026-01-12 17:31:25.87	282.23	12.71	-37.7	-38.6	22.6	0.00e+00	0	27	0	1055916032	46	6925
2026-01-12 17:31:29.91	281.68	12.43	-37.8	-38.8	22.0	0.00e+00	0	27	0	1063256064	48	6256
2026-01-12 17:31:33.95	281.14	12.15	-37.2	-38.1	23.1	0.00e+00	92	27	0	1070596096	48	5823
2026-01-12 17:31:37.99	280.61	11.87	-36.3	-37.1	23.9	0.00e+00	0	27	0	1077936128	46	5806
2026-01-12 17:31:42.02	280.09	11.60	-37.2	-38.1	23.2	0.00e+00	0	27	0	1086324736	46	6484
2026-01-12 17:31:46.07	279.58	11.32	-38.2	-39.2	22.2	0.00e+00	0	27	0	1093664768	48	6591
2026-01-12 17:31:50.10	279.08	11.04	-37.8	-38.7	22.5	0.00e+00	91	27	0	1101004800	48	6245
2026-01-12 17:31:54.14	278.59	10.77	-37.4	-38.4	22.8	0.00e+00	0	27	0	1108344832	48	5996
2026-01-12 17:31:58.18	278.11	10.50	-37.7	-38.7	22.6	0.00e+00	0	27	0	1115684864	48	6199
2026-01-12 17:32:02.22	277.63	10.22	-37.8	-38.7	22.4	0.00e+00	0	27	0	1124073472	48	6243
2026-01-12 17:32:06.25	277.17	9.95	-38.2	-39.2	22.1	0.00e+00	79	27	0	1131413504	48	6571
2026-01-12 17:32:10.29	276.71	9.68	-38.9	-40.1	21.3	0.00e+00	0	27	0	1138753536	50	6489
2026-01-12 17:32:14.34	276.27	9.41	-38.7	-39.8	21.6	0.00e+00	0	27	0	1146093568	50	6268
2026-01-12 17:32:18.37	275.83	9.15	-38.5	-39.7	21.6	0.00e+00	48	27	0	1154482176	50	6174
2026-01-12 17:32:22.41	275.40	8.88	-39.5	-40.7	20.7	0.00e+00	0	27	0	1161822208	50	6975
2026-01-12 17:32:26.44	274.98	8.61	-40.0	-41.3	20.2	0.00e+00	0	27	0	1169162240	52	6643
2026-01-12 17:32:30.48	274.56	8.35	-39.4	-40.5	20.8	0.00e+00	0	27	0	1176502272	52	6096
2026-01-12 17:32:34.52	274.16	8.09	-38.7	-39.7	21.5	0.00e+00	62	27	0	1183842304	50	6245
2026-01-12 17:32:38.56	273.76	7.83	-38.7	-39.8	21.4	0.00e+00	0	27	0	1192230912	50	6282
2026-01-12 17:32:42.59	273.37	7.57	-38.9	-40.0	21.3	0.00e+00	0	27	0	1199570944	50	6423
2026-01-12 17:32:46.63	272.98	7.31	-39.0	-40.1	21.2	0.00e+00	0	27	0	1206910976	50	6521
2026-01-12 17:32:50.67	272.60	7.05	-38.9	-40.1	21.2	0.00e+00	91	27	0	1214251008	50	6479
2026-01-12 17:32:54.71	272.23	6.80	-38.8	-39.9	21.3	0.00e+00	0	27	0	1222639616	50	6357
2026-01-12 17:32:58.75	271.87	6.54	-38.7	-39.8	21.3	0.00e+00	0	27	0	1229979648	50	6269
2026-01-12 17:33:02.79	271.51	6.29	-39.2	-40.4	20.7	0.00e+00	26	27	0	1237319680	50	6698
2026-01-12 17:33:06.82	271.16	6.04	-39.7	-41.0	20.1	0.00e+00	69	27	0	1244659712	50	7196
2026-01-12 17:33:10.85	270.81	5.79	-40.3	-41.7	19.6	0.00e+00	0	27	0	1251999744	52	6988
2026-01-12 17:33:14.89	270.47	5.54	-40.8	-42.4	18.9	0.00e+00	0	27	0	1260388352	54	6720
2026-01-12 17:33:18.94	270.14	5.29	-41.2	-42.9	18.3	0.00e+00	27	27	0	1267728384	54	7131
2026-01-12 17:33:22.97	269.81	5.05	-41.2	-42.8	18.4	0.00e+00	0	27	0	1275068416	54	7076
2026-01-12 17:33:27.01	269.49	4.80	-41.0	-42.6	18.5	0.00e+00	0	27	0	1282408448	54	6876
2026-01-12 17:33:31.04	269.17	4.56	-41.2	-42.8	18.3	0.00e+00	0	27	0	1290797056	54	7079
2026-01-12 17:33:35.08	268.86	4.32	-41.2	-43.0	18.2	0.00e+00	44	27	0	1298137088	54	7200
2026-01-12 17:33:39.11	268.56	4.08	-41.5	-43.4	17.6	0.00e+00	0	27	0	1305477120	54	7538
2026-01-12 17:33:43.15	268.26	3.84	-42.0	-44.1	16.9	0.00e+00	5	27	0	1312817152	56	7299
2026-01-12 17:33:47.19	267.96	3.60	-42.1	-44.2	16.9	0.00e+00	0	27	0	1320157184	56	7339
2026-01-12 17:33:51.23	267.67	3.36	-41.7	-43.6	17.4	0.00e+00	92	27	0	1328545792	56	6898
2026-01-12 17:33:55.27	267.38	3.13	-40.7	-42.3	18.4	0.00e+00	0	27	0	1335885824	54	6655
2026-01-12 17:33:59.31	267.10	2.89	-48.0	-63.2	3.6	1.51e+00	0	27	104	1340080128	60	52071
2026-01-12 17:34:03.34	266.83	2.66	-48.4	-63.6	3.6	1.51e+00	0	27	104	1340080128	60	54569
2026-01-12 17:34:07.38	266.55	2.43	-48.3	-63.6	3.6	1.51e+00	0	27	104	1340080128	60	54464
2026-01-12 17:34:11.42	266.29	2.20	-48.3	-63.4	3.6	1.51e+00	0	27	104	1340080128	60	53680
2026-01-12 17:34:15.46	266.02	1.97	-48.3	-63.5	3.6	1.51e+00	0	27	104	1340080128	60	53941
2026-01-12 17:34:19.49	265.76	1.75	-48.3	-63.4	3.6	1.51e+00	0	28	104	1340080128	60	53721
2026-01-12 17:34:23.53	265.51	1.52	-48.3	-63.4	3.6	1.51e+00	0	28	104	1340080128	60	53771
2026-01-12 17:34:27.57	265.26	1.30	-48.3	-63.5	3.6	1.51e+00	0	28	104	1340080128	60	53831
2026-01-12 17:34:31.61	265.01	1.07	-48.3	-63.4	3.6	1.51e+00	0	28	104	1340080128	60	53762
2026-01-12 17:34:35.65	264.77	0.85	-48.3	-63.5	3.6	1.51e+00	0	28	104	1340080128	60	53789
2026-01-12 17:34:39.69	264.53	0.63	-48.3	-63.5	3.6	1.51e+00	0	28	104	1340080128	60	53826
2026-01-12 17:34:43.73	264.29	0.41	-48.3	-63.5	3.6	1.51e+00	0	28	104	1340080128	60	53830
2026-01-12 17:34:47.77	264.06	0.19	-48.3	-63.5	3.6	1.51e+00	0	28	104	1340080128	60	54049
2026-01-12 17:34:51.80	263.83	-0.03	-48.3	-63.4	3.6	1.51e+00	0	28	104	1340080128	60	53666

#Closed at: 2026-01-12 17:34:53
#Recorded file [1340 MB]: D:/lorett/data/35029_260113_052104.dat