passes_logs/2026/01/12/R4.6S_Anadyr/R4.6S_Anadyr__20260112_235555_SUOMI_NPP_rec.log

#Pass ID: 20260112_235555_SUOMI NPP
#Satellite: SUOMI NPP
#Configuration: NPP
#almurnet v.1.7.20251203
#Start time: 2026-01-12 23:55:57

#Version: 2.2.20231116
#Station: R4.6S_Anadyr
#Location: 177.4865 lon 64.73178 lat
#TLE: 1 37849U 11061A   26012.28456845  .00000093  00000+0  65163-4 0  9999
#TLE: 2 37849  98.7807 314.3566 0002508  68.3553 291.7890 14.19524725736322

#Time	Az	El	Level	Level2	SNR	BER	BlckErr	Temp	State	Recorded	gain1	gain2
2026-01-12 23:55:57.81	147.37	0.13	-48.6	-61.1	3.5	1.52e+00	0	28	0	0	60	39964
2026-01-12 23:56:01.72	147.34	0.37	-48.8	-64.0	3.6	1.51e+00	0	29	104	0	60	57570
2026-01-12 23:56:05.62	147.31	0.61	-48.7	-63.9	3.6	1.51e+00	0	29	104	0	60	56784
2026-01-12 23:56:09.52	147.29	0.84	-48.3	-63.5	3.6	1.51e+00	0	29	104	0	60	53908
2026-01-12 23:56:13.43	147.26	1.09	-46.7	-62.0	3.6	1.51e+00	0	29	104	0	60	45677
2026-01-12 23:56:17.34	147.23	1.33	-46.8	-62.0	3.6	1.51e+00	0	29	104	0	60	45419
2026-01-12 23:56:21.26	147.20	1.58	-46.8	-61.9	3.6	1.51e+00	0	29	104	0	60	44759
2026-01-12 23:56:25.16	147.17	1.83	-46.8	-61.7	3.6	1.51e+00	0	29	104	0	60	44022
2026-01-12 23:56:29.07	147.14	2.08	-46.8	-61.7	3.6	1.51e+00	0	29	104	0	60	44175
2026-01-12 23:56:32.98	147.11	2.33	-46.8	-61.8	3.6	1.51e+00	0	29	104	0	60	44441
2026-01-12 23:56:36.89	147.08	2.58	-46.8	-61.8	3.6	1.51e+00	0	29	104	0	60	44543
2026-01-12 23:56:40.80	147.04	2.84	-46.8	-62.0	3.6	1.51e+00	0	30	104	0	60	45431
2026-01-12 23:56:44.72	147.01	3.10	-46.7	-60.6	3.6	1.51e+00	0	29	104	0	60	38537
2026-01-12 23:56:48.63	146.97	3.36	-46.0	-52.9	7.2	1.85e-01	93	30	0	3145728	60	15884
2026-01-12 23:56:52.53	146.94	3.63	-44.3	-48.0	12.8	1.33e-04	91	29	0	10485760	60	9038
2026-01-12 23:56:56.44	146.90	3.90	-44.9	-49.9	9.9	0.00e+00	92	29	0	17825792	60	11289
2026-01-12 23:57:00.35	146.87	4.16	-42.2	-44.1	17.2	2.35e-02	0	29	0	17825792	60	5806
2026-01-12 23:57:04.26	146.83	4.44	-41.5	-43.3	17.8	0.00e+00	0	29	0	25165824	56	6654
2026-01-12 23:57:08.17	146.79	4.71	-40.7	-42.4	18.7	0.00e+00	93	29	0	32505856	56	5971
2026-01-12 23:57:12.08	146.75	4.99	-40.3	-41.8	19.4	0.00e+00	82	29	0	39845888	54	6302
2026-01-12 23:57:15.98	146.71	5.27	-40.3	-41.8	19.3	0.00e+00	92	29	0	47185920	54	6274
2026-01-12 23:57:19.89	146.67	5.56	-39.9	-41.3	19.9	0.00e+00	0	30	0	54525952	54	5941
2026-01-12 23:57:23.80	146.62	5.84	-39.8	-41.2	20.1	0.00e+00	0	29	0	61865984	52	6585
2026-01-12 23:57:27.71	146.58	6.13	-39.9	-41.3	20.0	0.00e+00	92	29	0	69206016	52	6666
2026-01-12 23:57:31.62	146.53	6.43	-40.0	-41.4	20.0	0.00e+00	94	29	0	76546048	52	6765
2026-01-12 23:57:35.53	146.49	6.72	-39.9	-41.3	20.1	0.00e+00	91	29	0	83886080	52	6686
2026-01-12 23:57:39.44	146.44	7.02	-39.4	-40.7	20.6	0.00e+00	0	30	0	91226112	52	6200
2026-01-12 23:57:43.35	146.39	7.33	-39.1	-40.3	21.0	0.00e+00	0	30	0	98566144	52	5921
2026-01-12 23:57:47.26	146.34	7.64	-39.3	-40.5	20.8	0.00e+00	89	29	0	105906176	52	6066
2026-01-12 23:57:51.17	146.29	7.95	-39.3	-40.6	20.8	0.00e+00	91	29	0	113246208	52	6118
2026-01-12 23:57:55.08	146.24	8.26	-39.3	-40.6	21.0	0.00e+00	92	29	0	120586240	52	6120
2026-01-12 23:57:58.99	146.18	8.58	-38.9	-40.1	21.4	0.00e+00	0	29	0	127926272	52	5773
2026-01-12 23:58:02.89	146.12	8.90	-38.6	-39.7	21.7	0.00e+00	0	30	0	135266304	50	6226
2026-01-12 23:58:06.80	146.07	9.23	-38.6	-39.6	21.8	0.00e+00	89	29	0	142606336	50	6169
2026-01-12 23:58:10.71	146.01	9.56	-38.6	-39.7	21.7	0.00e+00	80	29	0	149946368	50	6189
2026-01-12 23:58:14.62	145.95	9.90	-38.6	-39.7	21.7	0.00e+00	92	29	0	157286400	50	6199
2026-01-12 23:58:18.53	145.89	10.24	-38.2	-39.2	22.2	0.00e+00	0	29	0	164626432	50	5867
2026-01-12 23:58:22.44	145.82	10.59	-38.0	-39.0	22.4	0.00e+00	0	29	0	171966464	50	5705
2026-01-12 23:58:26.35	145.76	10.94	-38.0	-39.1	22.3	0.00e+00	93	29	0	179306496	50	5777
2026-01-12 23:58:30.26	145.69	11.29	-37.8	-38.8	22.5	0.00e+00	92	29	0	186646528	50	5599
2026-01-12 23:58:34.16	145.62	11.65	-37.8	-38.8	22.4	0.00e+00	92	29	0	193986560	48	6313
2026-01-12 23:58:38.07	145.55	12.02	-37.3	-38.2	23.0	0.00e+00	0	29	0	201326592	48	5850
2026-01-12 23:58:41.98	145.47	12.39	-37.2	-38.1	23.0	0.00e+00	0	29	0	208666624	48	5823
2026-01-12 23:58:45.87	145.40	12.77	-37.0	-38.0	23.3	0.00e+00	92	29	0	216006656	48	5696
2026-01-12 23:58:49.78	145.32	13.15	-37.0	-37.9	23.3	0.00e+00	84	29	0	223346688	48	5672
2026-01-12 23:58:53.69	145.24	13.54	-36.9	-37.8	23.5	0.00e+00	92	29	0	230686720	48	5581
2026-01-12 23:58:57.60	145.15	13.93	-36.8	-37.7	23.5	0.00e+00	0	29	0	238026752	46	6211
2026-01-12 23:59:01.51	145.07	14.34	-36.5	-37.4	23.7	0.00e+00	0	29	0	245366784	46	6001
2026-01-12 23:59:05.41	144.98	14.74	-36.7	-37.5	23.7	0.00e+00	29	29	0	252706816	46	6099
2026-01-12 23:59:09.33	144.89	15.16	-36.4	-37.3	23.9	0.00e+00	90	29	0	260046848	46	5914
2026-01-12 23:59:13.23	144.79	15.58	-36.5	-37.3	23.9	0.00e+00	92	29	0	267386880	46	5928
2026-01-12 23:59:17.14	144.69	16.01	-36.3	-37.2	23.9	0.00e+00	91	29	0	274726912	46	5849
2026-01-12 23:59:21.05	144.59	16.45	-36.1	-36.9	24.1	0.00e+00	0	29	0	282066944	46	5678
2026-01-12 23:59:24.95	144.49	16.90	-36.2	-37.1	24.1	0.00e+00	35	29	0	289406976	46	5788
2026-01-12 23:59:28.86	144.38	17.35	-36.3	-37.2	24.0	0.00e+00	90	29	0	296747008	46	5864
2026-01-12 23:59:32.77	144.27	17.81	-36.8	-37.7	23.6	0.00e+00	91	29	0	304087040	46	6181
2026-01-12 23:59:36.67	144.16	18.28	-36.5	-37.4	23.9	0.00e+00	91	29	0	311427072	46	6000
2026-01-12 23:59:40.58	144.04	18.76	-36.4	-37.3	24.0	0.00e+00	0	29	0	318767104	46	5919
2026-01-12 23:59:44.50	143.91	19.25	-36.6	-37.4	23.9	0.00e+00	0	29	0	326107136	46	6025
2026-01-12 23:59:48.41	143.78	19.75	-36.3	-37.2	24.0	0.00e+00	92	29	0	333447168	46	5836
2026-01-12 23:59:52.32	143.65	20.26	-36.3	-37.2	24.1	0.00e+00	91	29	0	340787200	46	5836
2026-01-12 23:59:56.22	143.51	20.78	-36.1	-36.9	24.3	0.00e+00	92	29	0	348127232	46	5650
2026-01-13 00:00:00.13	143.37	21.31	-36.2	-37.0	24.3	0.00e+00	0	29	0	355467264	46	5727
2026-01-13 00:00:04.04	143.22	21.85	-36.2	-37.0	24.3	0.00e+00	15	29	0	362807296	46	5732
2026-01-13 00:00:07.94	143.07	22.40	-36.2	-37.0	24.2	0.00e+00	93	29	0	370147328	46	5748
2026-01-13 00:00:11.86	142.91	22.97	-36.4	-37.3	24.0	0.00e+00	93	29	0	377487360	46	5938
2026-01-13 00:00:15.76	142.74	23.54	-36.0	-36.8	24.4	0.00e+00	92	29	0	384827392	46	5625
2026-01-13 00:00:19.67	142.57	24.13	-36.0	-36.8	24.4	0.00e+00	0	29	0	392167424	46	5592
2026-01-13 00:00:23.57	142.39	24.74	-36.6	-37.5	23.9	0.00e+00	0	29	0	399507456	46	6093
2026-01-13 00:00:27.48	142.20	25.35	-37.1	-38.0	23.5	0.00e+00	89	29	0	406847488	46	6397
2026-01-13 00:00:31.38	142.00	25.98	-37.2	-38.1	23.5	0.00e+00	91	29	0	414187520	46	6502
2026-01-13 00:00:35.29	141.80	26.63	-37.4	-38.4	23.4	0.00e+00	91	29	0	421527552	46	6698
2026-01-13 00:00:39.20	141.59	27.29	-38.2	-39.2	22.6	0.00e+00	0	29	0	428867584	48	6600
2026-01-13 00:00:43.12	141.36	27.97	-38.9	-39.9	22.1	0.00e+00	0	29	0	436207616	50	6389
2026-01-13 00:00:47.03	141.13	28.66	-38.5	-39.6	22.3	0.00e+00	91	29	0	443547648	50	6133
2026-01-13 00:00:50.93	140.88	29.37	-38.4	-39.4	22.4	0.00e+00	91	29	0	450887680	50	6014
2026-01-13 00:00:54.84	140.63	30.10	-39.3	-40.4	21.6	0.00e+00	92	29	0	458227712	50	6764
2026-01-13 00:00:58.75	140.36	30.85	-38.7	-39.7	22.3	0.00e+00	0	29	0	465567744	50	6195
2026-01-13 00:01:02.66	140.07	31.61	-39.4	-40.5	21.5	0.00e+00	33	29	0	472907776	50	6792
2026-01-13 00:01:06.57	139.78	32.40	-40.3	-41.6	20.7	0.00e+00	92	29	0	480247808	52	6865
2026-01-13 00:01:10.47	139.46	33.20	-39.7	-40.7	21.4	0.00e+00	90	29	0	486539264	52	6230
2026-01-13 00:01:14.38	139.14	34.03	-40.3	-41.5	20.8	0.00e+00	91	29	0	494927872	54	6088
2026-01-13 00:01:18.28	138.79	34.88	-40.4	-41.6	20.8	0.00e+00	0	29	0	502267904	54	6146
2026-01-13 00:01:22.19	138.42	35.74	-40.2	-41.4	21.1	0.00e+00	33	29	0	508559360	52	6731
2026-01-13 00:01:26.10	138.03	36.64	-40.8	-42.2	20.2	0.00e+00	92	29	0	515899392	54	6544
2026-01-13 00:01:30.01	137.62	37.55	-39.6	-40.8	21.5	0.00e+00	51	29	0	523239424	52	6252
2026-01-13 00:01:33.92	137.19	38.49	-39.4	-40.4	21.8	0.00e+00	93	29	0	530579456	52	6002
2026-01-13 00:01:37.83	136.73	39.46	-40.1	-41.4	20.9	0.00e+00	0	29	0	537919488	52	6694
2026-01-13 00:01:41.73	136.24	40.45	-39.7	-40.8	21.3	0.00e+00	0	29	0	545259520	52	6311
2026-01-13 00:01:45.65	135.71	41.46	-39.9	-41.1	21.2	0.00e+00	94	29	0	552599552	52	6465
2026-01-13 00:01:49.56	135.15	42.50	-40.0	-41.2	21.1	0.00e+00	71	29	0	559939584	52	6574
2026-01-13 00:01:53.47	134.55	43.57	-40.2	-41.5	20.9	0.00e+00	90	29	0	567279616	52	6790
2026-01-13 00:01:57.38	133.91	44.67	-39.9	-41.2	21.3	0.00e+00	0	29	0	574619648	52	6579
2026-01-13 00:02:01.29	133.23	45.79	-38.2	-39.2	22.5	0.00e+00	0	29	0	581959680	50	5844
2026-01-13 00:02:05.20	132.49	46.93	-39.1	-40.2	21.8	0.00e+00	93	29	0	589299712	50	6603
2026-01-13 00:02:09.11	131.69	48.11	-37.5	-38.4	23.4	0.00e+00	92	29	0	596639744	48	5975
2026-01-13 00:02:13.02	130.83	49.31	-38.2	-39.2	22.8	0.00e+00	94	29	0	603979776	48	6566
2026-01-13 00:02:16.93	129.89	50.53	-38.1	-39.1	22.7	0.00e+00	0	29	0	611319808	48	6509
2026-01-13 00:02:20.84	128.88	51.78	-37.2	-38.1	23.6	0.00e+00	0	29	0	618659840	48	5792
2026-01-13 00:02:24.75	127.77	53.05	-37.1	-38.0	23.7	0.00e+00	52	29	0	625999872	48	5700
2026-01-13 00:02:28.66	126.57	54.34	-37.7	-38.7	23.1	0.00e+00	92	29	0	633339904	46	6950
2026-01-13 00:02:32.57	125.24	55.65	-37.6	-38.6	23.4	0.00e+00	91	29	0	640679936	48	6130
2026-01-13 00:02:36.48	123.79	56.98	-38.4	-39.4	22.7	0.00e+00	0	29	0	648019968	48	6720
2026-01-13 00:02:40.38	122.19	58.31	-38.4	-39.4	22.4	0.00e+00	0	29	0	655360000	50	5997
2026-01-13 00:02:44.30	120.41	59.66	-38.4	-39.4	22.4	0.00e+00	90	29	0	662700032	50	6033
2026-01-13 00:02:48.21	118.44	61.01	-38.9	-40.0	22.0	0.00e+00	70	28	0	670040064	50	6425
2026-01-13 00:02:52.12	116.24	62.34	-37.4	-38.4	23.3	0.00e+00	93	28	0	677380096	48	5978
2026-01-13 00:02:56.03	113.79	63.67	-35.0	-35.7	25.2	0.00e+00	0	29	0	684720128	44	5545
2026-01-13 00:02:59.93	111.05	64.97	-36.0	-36.8	24.4	0.00e+00	0	28	0	692060160	44	6275
2026-01-13 00:03:03.84	107.98	66.23	-38.8	-39.9	22.0	0.00e+00	39	29	0	699400192	48	7124
2026-01-13 00:03:07.75	104.53	67.44	-41.7	-43.3	18.9	0.00e+00	90	29	0	706740224	54	7508
2026-01-13 00:03:11.66	100.66	68.58	-39.6	-40.7	21.4	0.00e+00	91	28	0	714080256	52	6215
2026-01-13 00:03:15.56	96.35	69.64	-39.3	-40.4	21.8	0.00e+00	0	29	0	721420288	52	5982
2026-01-13 00:03:19.46	91.56	70.58	-38.8	-39.8	21.8	0.00e+00	0	28	0	728760320	52	5618
2026-01-13 00:03:23.37	86.27	71.39	-38.9	-40.0	22.2	0.00e+00	88	29	0	736100352	50	6392
2026-01-13 00:03:27.28	80.52	72.04	-41.1	-42.5	19.9	0.00e+00	93	29	0	743440384	54	6796
2026-01-13 00:03:31.18	74.40	72.51	-40.9	-42.3	20.3	0.00e+00	92	29	0	750780416	56	5909
2026-01-13 00:03:35.09	67.97	72.78	-40.0	-41.3	20.9	0.00e+00	0	29	0	758120448	54	5924
2026-01-13 00:03:39.01	61.41	72.84	-38.7	-39.8	22.3	0.00e+00	0	29	0	765460480	52	5567
2026-01-13 00:03:42.91	54.91	72.69	-37.2	-38.1	23.6	0.00e+00	0	28	0	772800512	48	5820
2026-01-13 00:03:46.83	48.58	72.33	-39.2	-40.3	21.8	0.00e+00	91	29	0	780140544	50	6648
2026-01-13 00:03:50.74	42.61	71.77	-39.1	-40.2	21.9	0.00e+00	91	28	0	787480576	50	6552
2026-01-13 00:03:54.65	37.06	71.05	-40.7	-42.0	20.3	0.00e+00	0	28	0	794820608	52	7208
2026-01-13 00:03:58.56	31.99	70.17	-42.9	-44.9	17.7	0.00e+00	0	28	0	802160640	58	7140
2026-01-13 00:04:02.47	27.41	69.18	-41.2	-42.7	19.8	0.00e+00	8	28	0	809500672	56	6218
2026-01-13 00:04:06.38	23.30	68.08	-37.9	-38.8	22.6	0.00e+00	80	28	0	816840704	50	5597
2026-01-13 00:04:10.28	19.64	66.91	-36.9	-37.8	23.7	0.00e+00	93	28	0	824180736	48	5585
2026-01-13 00:04:14.20	16.36	65.67	-36.8	-37.6	24.0	0.00e+00	0	28	0	831520768	46	6159
2026-01-13 00:04:18.12	13.43	64.39	-35.7	-36.5	24.5	0.00e+00	0	28	0	838860800	44	6060
2026-01-13 00:04:22.03	10.83	63.08	-37.8	-38.8	23.1	0.00e+00	90	28	0	846200832	46	7035
2026-01-13 00:04:25.93	8.51	61.76	-38.4	-39.4	22.6	0.00e+00	40	29	0	853540864	50	6012
2026-01-13 00:04:29.85	6.42	60.41	-38.2	-39.1	22.7	0.00e+00	92	28	0	860880896	50	5822
2026-01-13 00:04:33.75	4.55	59.07	-37.9	-38.8	23.0	0.00e+00	0	28	0	868220928	48	6292
2026-01-13 00:04:37.65	2.86	57.74	-37.9	-38.9	23.0	0.00e+00	0	28	0	875560960	50	5642
2026-01-13 00:04:41.57	1.32	56.41	-36.5	-37.3	23.9	0.00e+00	0	28	0	882900992	44	6670
2026-01-13 00:04:45.47	359.93	55.09	-38.3	-39.3	22.1	0.00e+00	67	28	0	890241024	48	6692
2026-01-13 00:04:49.39	358.66	53.79	-37.8	-38.7	23.1	0.00e+00	90	28	0	897581056	50	5543
2026-01-13 00:04:53.29	357.51	52.52	-35.6	-36.4	24.7	0.00e+00	0	28	0	904921088	44	5991
2026-01-13 00:04:57.20	356.44	51.26	-36.5	-37.4	24.0	0.00e+00	0	28	0	912261120	46	5976
2026-01-13 00:05:01.11	355.47	50.03	-39.2	-40.3	21.5	0.00e+00	0	28	0	919601152	50	6642
2026-01-13 00:05:05.02	354.57	48.82	-40.7	-42.0	20.4	0.00e+00	75	28	0	926941184	52	7239
2026-01-13 00:05:08.93	353.74	47.63	-41.7	-43.3	19.4	0.00e+00	92	28	0	934281216	54	7468
2026-01-13 00:05:12.82	352.97	46.48	-38.6	-39.7	22.4	0.00e+00	0	28	0	941621248	52	5506
2026-01-13 00:05:16.74	352.26	45.34	-39.0	-40.1	22.2	0.00e+00	0	28	0	948961280	50	6489
2026-01-13 00:05:20.64	351.60	44.24	-39.3	-40.3	21.8	0.00e+00	0	28	0	956301312	52	5955
2026-01-13 00:05:24.55	350.98	43.16	-41.1	-42.5	19.9	0.00e+00	36	28	0	963641344	54	6816
2026-01-13 00:05:28.46	350.40	42.11	-40.8	-42.2	20.6	0.00e+00	72	28	0	970981376	54	6552
2026-01-13 00:05:32.36	349.86	41.09	-39.7	-41.0	21.4	0.00e+00	0	28	0	978321408	52	6393
2026-01-13 00:05:36.27	349.35	40.09	-43.0	-45.2	17.5	0.00e+00	0	28	0	985661440	60	6558
2026-01-13 00:05:40.18	348.87	39.11	-39.7	-40.9	21.4	0.00e+00	0	28	0	993001472	54	5646
2026-01-13 00:05:44.09	348.42	38.16	-37.5	-38.4	23.3	0.00e+00	92	28	0	1000341504	48	6018
2026-01-13 00:05:48.01	348.00	37.23	-40.8	-42.2	20.1	0.00e+00	91	28	0	1007681536	52	7392
2026-01-13 00:05:51.92	347.60	36.33	-40.2	-41.5	20.7	0.00e+00	0	28	0	1015021568	54	6101
2026-01-13 00:05:55.83	347.22	35.45	-41.0	-42.4	19.9	0.00e+00	0	28	0	1022361600	54	6739
2026-01-13 00:05:59.74	346.87	34.59	-40.9	-42.3	20.1	0.00e+00	0	28	0	1029701632	54	6680
2026-01-13 00:06:03.65	346.53	33.75	-38.9	-39.9	22.3	0.00e+00	62	28	0	1037041664	52	5684
2026-01-13 00:06:07.55	346.21	32.94	-38.3	-39.2	22.4	0.00e+00	90	28	0	1044381696	50	5882
2026-01-13 00:06:11.46	345.91	32.15	-39.9	-41.0	21.2	0.00e+00	0	28	0	1051721728	52	6429
2026-01-13 00:06:15.36	345.62	31.38	-42.1	-43.7	18.9	0.00e+00	0	28	0	1059061760	56	6937
2026-01-13 00:06:19.27	345.34	30.62	-39.3	-40.4	21.8	0.00e+00	0	28	0	1066401792	52	5976
2026-01-13 00:06:23.18	345.08	29.88	-38.5	-39.5	22.5	0.00e+00	77	28	0	1073741824	50	6052
2026-01-13 00:06:27.09	344.83	29.17	-38.8	-39.8	22.1	0.00e+00	3	28	0	1081081856	50	6284
2026-01-13 00:06:30.99	344.59	28.47	-38.1	-39.0	22.8	0.00e+00	0	28	0	1088421888	50	5750
2026-01-13 00:06:34.89	344.36	27.78	-38.1	-39.1	22.5	0.00e+00	0	28	0	1095761920	50	5814
2026-01-13 00:06:38.80	344.15	27.11	-39.8	-41.0	21.2	0.00e+00	0	28	0	1103101952	52	6447
2026-01-13 00:06:42.71	343.94	26.46	-38.5	-39.6	22.4	0.00e+00	29	28	0	1110441984	50	6111
2026-01-13 00:06:46.63	343.74	25.82	-37.2	-38.1	23.5	0.00e+00	0	28	0	1117782016	48	5795
2026-01-13 00:06:50.53	343.55	25.20	-37.7	-38.7	23.0	0.00e+00	0	28	0	1125122048	48	6184
2026-01-13 00:06:54.43	343.37	24.59	-37.8	-38.7	22.9	0.00e+00	0	28	0	1132462080	48	6227
2026-01-13 00:06:58.34	343.19	24.00	-37.6	-38.5	23.1	0.00e+00	0	28	0	1139802112	48	6063
2026-01-13 00:07:02.25	343.02	23.41	-37.8	-38.8	23.0	0.00e+00	68	28	0	1147142144	48	6261
2026-01-13 00:07:06.17	342.86	22.84	-38.5	-39.5	22.3	0.00e+00	68	28	0	1154482176	48	6821
2026-01-13 00:07:10.07	342.70	22.28	-38.3	-39.3	22.4	0.00e+00	0	28	0	1160773632	48	6689
2026-01-13 00:07:13.99	342.55	21.74	-38.4	-39.4	22.4	0.00e+00	0	28	0	1169162240	48	6723
2026-01-13 00:07:17.90	342.41	21.20	-38.5	-39.5	22.3	0.00e+00	0	28	0	1176502272	50	6100
2026-01-13 00:07:21.81	342.27	20.68	-38.9	-39.9	21.9	0.00e+00	32	28	0	1183842304	50	6387
2026-01-13 00:07:25.71	342.14	20.16	-38.4	-39.4	22.4	0.00e+00	91	28	0	1190133760	50	6004
2026-01-13 00:07:29.63	342.01	19.66	-38.1	-39.0	22.7	0.00e+00	0	28	0	1198522368	50	5759
2026-01-13 00:07:33.54	341.88	19.17	-37.6	-38.6	23.0	0.00e+00	0	28	0	1205862400	48	6117
2026-01-13 00:07:37.45	341.77	18.68	-37.7	-38.6	23.0	0.00e+00	0	28	0	1212153856	48	6153
2026-01-13 00:07:41.36	341.65	18.21	-38.2	-39.2	22.4	0.00e+00	57	28	0	1219493888	48	6595
2026-01-13 00:07:45.27	341.54	17.74	-38.8	-39.9	21.8	0.00e+00	91	28	0	1226833920	50	6370
2026-01-13 00:07:49.19	341.43	17.28	-39.9	-41.1	20.8	0.00e+00	0	28	0	1234173952	52	6521
2026-01-13 00:07:53.11	341.33	16.83	-40.2	-41.5	20.6	0.00e+00	0	28	0	1241513984	52	6788
2026-01-13 00:07:57.02	341.23	16.39	-39.9	-41.2	20.7	0.00e+00	0	28	0	1248854016	52	6599
2026-01-13 00:08:00.93	341.13	15.96	-40.0	-41.4	20.5	0.00e+00	30	28	0	1257242624	52	6697
2026-01-13 00:08:04.83	341.04	15.53	-40.3	-41.8	20.5	0.00e+00	91	28	0	1263534080	52	7026
2026-01-13 00:08:08.73	340.94	15.12	-40.2	-41.6	20.4	0.00e+00	0	28	0	1270874112	52	6875
2026-01-13 00:08:12.64	340.86	14.70	-40.6	-42.1	19.8	0.00e+00	0	28	0	1278214144	52	7334
2026-01-13 00:08:16.55	340.77	14.30	-40.5	-41.9	20.1	0.00e+00	0	28	0	1285554176	52	7163
2026-01-13 00:08:20.46	340.69	13.90	-40.2	-41.6	20.4	0.00e+00	49	28	0	1292894208	52	6904
2026-01-13 00:08:24.37	340.61	13.51	-40.2	-41.6	20.3	0.00e+00	92	28	0	1300234240	52	6913
2026-01-13 00:08:28.28	340.53	13.12	-39.8	-41.0	20.9	0.00e+00	0	28	0	1307574272	52	6448
2026-01-13 00:08:32.18	340.46	12.75	-39.5	-40.7	21.2	0.00e+00	0	28	0	1314914304	52	6204
2026-01-13 00:08:36.09	340.38	12.37	-39.0	-40.2	21.6	0.00e+00	0	28	0	1322254336	52	5840
2026-01-13 00:08:40.00	340.31	12.00	-39.0	-40.1	21.5	0.00e+00	0	28	0	1329594368	52	5820
2026-01-13 00:08:43.91	340.25	11.64	-39.5	-40.7	21.2	0.00e+00	88	28	0	1336934400	52	6192
2026-01-13 00:08:47.82	340.18	11.28	-39.1	-40.2	21.4	0.00e+00	0	28	0	1344274432	52	5882
2026-01-13 00:08:51.73	340.12	10.93	-39.4	-40.5	21.1	0.00e+00	0	28	0	1351614464	52	6102
2026-01-13 00:08:55.64	340.05	10.58	-39.5	-40.7	21.0	0.00e+00	0	28	0	1358954496	52	6221
2026-01-13 00:08:59.55	339.99	10.24	-39.6	-40.8	20.9	0.00e+00	43	28	0	1366294528	52	6313
2026-01-13 00:09:03.45	339.93	9.90	-39.4	-40.5	21.1	0.00e+00	91	28	0	1373634560	52	6090
2026-01-13 00:09:07.36	339.88	9.57	-39.5	-40.6	21.0	0.00e+00	0	28	0	1380974592	52	6167
2026-01-13 00:09:11.27	339.82	9.24	-39.4	-40.6	21.1	0.00e+00	0	28	0	1388314624	52	6106
2026-01-13 00:09:15.17	339.77	8.91	-39.4	-40.6	21.0	0.00e+00	0	28	0	1395654656	52	6159
2026-01-13 00:09:19.08	339.72	8.59	-39.4	-40.6	21.0	0.00e+00	0	28	0	1402994688	52	6110
2026-01-13 00:09:22.99	339.66	8.28	-39.4	-40.6	20.9	0.00e+00	7	28	0	1410334720	52	6129
2026-01-13 00:09:26.90	339.62	7.96	-39.7	-40.9	20.7	0.00e+00	0	28	0	1417674752	52	6351
2026-01-13 00:09:30.81	339.57	7.65	-39.8	-41.0	20.5	0.00e+00	0	28	0	1425014784	52	6437
2026-01-13 00:09:34.71	339.52	7.35	-40.0	-41.3	20.2	0.00e+00	0	28	0	1432354816	52	6685
2026-01-13 00:09:38.62	339.48	7.05	-40.2	-41.5	19.9	0.00e+00	17	28	0	1439694848	52	6827
2026-01-13 00:09:42.54	339.43	6.75	-40.4	-41.8	19.7	0.00e+00	59	28	0	1447034880	52	7070
2026-01-13 00:09:46.44	339.39	6.45	-40.4	-41.9	19.5	0.00e+00	0	28	0	1454374912	52	7097
2026-01-13 00:09:50.34	339.35	6.16	-40.4	-41.9	19.6	0.00e+00	0	28	0	1461714944	52	7118
2026-01-13 00:09:54.25	339.31	5.88	-40.8	-42.3	19.2	0.00e+00	0	28	0	1469054976	54	6672
2026-01-13 00:09:58.16	339.27	5.59	-41.0	-42.7	18.4	0.00e+00	0	28	0	1476395008	54	6957
2026-01-13 00:10:02.07	339.23	5.31	-41.9	-44.1	16.9	0.00e+00	0	28	0	1483735040	56	7265
2026-01-13 00:10:05.98	339.19	5.03	-42.8	-45.9	14.4	0.00e+00	0	28	0	1491075072	58	7979
2026-01-13 00:10:09.89	339.16	4.75	-43.4	-47.8	11.4	8.92e-04	0	28	0	1498415104	58	9992
2026-01-13 00:10:13.81	339.12	4.48	-43.9	-51.0	7.2	9.56e-02	0	28	0	1505755136	60	12762
2026-01-13 00:10:17.71	339.09	4.21	-43.9	-53.6	4.2	7.92e-01	0	28	0	1513095168	60	17316
2026-01-13 00:10:21.62	339.05	3.94	-43.8	-57.5	3.6	1.50e+00	0	28	104	1515192320	60	27025
2026-01-13 00:10:25.52	339.02	3.67	-43.7	-58.5	3.6	1.51e+00	0	28	104	1515192320	60	30544
2026-01-13 00:10:29.44	338.99	3.41	-43.9	-58.7	3.6	1.51e+00	0	28	104	1515192320	60	31151
2026-01-13 00:10:33.35	338.96	3.15	-43.8	-59.1	3.6	1.51e+00	0	28	104	1515192320	60	32478
2026-01-13 00:10:37.26	338.93	2.89	-48.0	-63.1	3.6	1.51e+00	0	28	104	1515192320	60	51822
2026-01-13 00:10:41.16	338.90	2.64	-48.7	-63.9	3.6	1.51e+00	0	28	104	1515192320	60	56627
2026-01-13 00:10:45.07	338.87	2.38	-48.7	-64.0	3.6	1.51e+00	0	28	104	1515192320	60	57203
2026-01-13 00:10:48.97	338.85	2.13	-48.6	-63.9	3.6	1.51e+00	0	28	104	1515192320	60	56407
2026-01-13 00:10:52.89	338.82	1.88	-48.7	-63.9	3.6	1.51e+00	0	28	104	1515192320	60	56478
2026-01-13 00:10:56.80	338.79	1.64	-48.7	-63.9	3.6	1.51e+00	0	28	104	1515192320	60	56723
2026-01-13 00:11:00.70	338.77	1.39	-48.7	-63.8	3.6	1.51e+00	0	28	104	1515192320	60	56065
2026-01-13 00:11:04.60	338.74	1.15	-48.7	-63.9	3.6	1.51e+00	0	28	104	1515192320	60	56682
2026-01-13 00:11:08.52	338.72	0.91	-48.7	-63.8	3.6	1.51e+00	0	28	104	1515192320	60	56256
2026-01-13 00:11:12.43	338.70	0.67	-48.7	-63.9	3.6	1.51e+00	0	28	104	1515192320	60	56518
2026-01-13 00:11:16.33	338.67	0.43	-48.7	-63.8	3.6	1.51e+00	0	28	104	1515192320	60	56127
2026-01-13 00:11:20.24	338.65	0.20	-48.7	-63.9	3.6	1.51e+00	0	28	104	1515192320	60	56457
2026-01-13 00:11:24.15	338.63	-0.04	-48.6	-63.8	3.6	1.51e+00	0	28	104	1515192320	60	56079

#Closed at: 2026-01-13 00:11:24
#Recorded file [1515 MB]: D:/lorett/data/35029_260113_115557.dat