passes_logs/2026/01/12/R4.6S_Anadyr/R4.6S_Anadyr__20260112_115031_NOAA_21_JPSS-2_rec.log

#Pass ID: 20260112_115031_NOAA 21 (JPSS-2)
#Satellite: NOAA 21 (JPSS-2)
#Configuration: NOAA-21
#almurnet v.1.7.20251203
#Start time: 2026-01-12 11:50:38

#Version: 2.2.20231116
#Station: R4.6S_Anadyr
#Location: 177.4865 lon 64.73178 lat
#TLE: 1 54234U 22150A   26011.55893233  .00000075  00000+0  56634-4 0  9995
#TLE: 2 54234  98.7494 312.5004 0000755 313.1908  46.9205 14.19534095164321

#Time	Az	El	Level	Level2	SNR	BER	BlckErr	Temp	State	Recorded	gain1	gain2
2026-01-12 11:50:38.00	20.36	0.28	-48.7	-49.7	5.5	0.00e+00	0	25	0	0	60	37288
2026-01-12 11:50:41.02	20.63	0.41	-48.6	-61.4	3.5	1.52e+00	0	27	104	0	60	41346
2026-01-12 11:50:44.05	20.91	0.54	-48.5	-61.4	3.5	1.52e+00	0	27	104	0	60	41132
2026-01-12 11:50:47.08	21.18	0.67	-47.9	-60.8	3.5	1.52e+00	0	27	104	0	60	38545
2026-01-12 11:50:50.11	21.46	0.80	-47.3	-60.1	3.5	1.52e+00	0	27	104	0	60	35683
2026-01-12 11:50:53.14	21.74	0.93	-46.8	-59.6	3.5	1.52e+00	0	27	104	0	60	33636
2026-01-12 11:50:56.16	22.03	1.06	-46.8	-59.6	3.5	1.51e+00	0	27	104	0	60	33500
2026-01-12 11:50:59.19	22.31	1.19	-46.9	-59.7	3.5	1.52e+00	0	27	104	0	60	33988
2026-01-12 11:51:02.22	22.60	1.33	-47.0	-59.8	3.5	1.52e+00	0	28	104	0	60	34432
2026-01-12 11:51:05.25	22.89	1.46	-46.9	-59.7	3.5	1.52e+00	0	28	104	0	60	33869
2026-01-12 11:51:08.28	23.18	1.59	-46.8	-59.5	3.5	1.52e+00	0	28	104	0	60	33312
2026-01-12 11:51:11.31	23.48	1.72	-46.9	-59.6	3.5	1.52e+00	0	28	104	0	60	33600
2026-01-12 11:51:14.33	23.78	1.85	-47.0	-59.8	3.5	1.52e+00	0	28	104	0	60	34182
2026-01-12 11:51:17.36	24.08	1.98	-46.7	-59.5	3.5	1.52e+00	0	28	104	0	60	33279
2026-01-12 11:51:20.39	24.38	2.11	-47.0	-59.7	3.5	1.52e+00	0	28	104	0	60	33948
2026-01-12 11:51:23.42	24.68	2.24	-46.8	-59.5	3.5	1.52e+00	0	28	104	0	60	33326
2026-01-12 11:51:26.45	24.99	2.38	-46.8	-59.6	3.5	1.51e+00	0	28	104	0	60	33480
2026-01-12 11:51:29.47	25.30	2.51	-46.7	-58.4	3.5	1.51e+00	0	28	104	0	60	29034
2026-01-12 11:51:32.50	25.62	2.64	-46.5	-56.4	4.2	1.50e+00	0	28	104	0	60	23121
2026-01-12 11:51:35.53	25.93	2.77	-42.7	-45.2	14.1	5.30e-06	0	28	0	8388608	58	7154
2026-01-12 11:51:38.56	26.25	2.90	-39.6	-41.1	17.8	0.00e+00	0	28	0	17825792	52	6314
2026-01-12 11:51:41.59	26.57	3.03	-46.8	-56.3	3.6	0.00e+00	0	28	104	27262976	56	28968
2026-01-12 11:51:44.62	26.89	3.16	-39.5	-40.9	18.9	0.00e+00	0	28	0	30408704	54	5511
2026-01-12 11:51:47.65	27.22	3.29	-38.3	-39.9	18.5	0.00e+00	0	28	104	33554432	50	6137
2026-01-12 11:51:50.67	27.55	3.42	-38.5	-39.8	19.3	0.00e+00	0	28	0	41943040	48	6843
2026-01-12 11:51:53.70	27.88	3.55	-38.5	-39.8	19.5	0.00e+00	0	28	0	51380224	50	6072
2026-01-12 11:51:56.73	28.22	3.68	-37.8	-39.1	19.8	0.00e+00	0	28	0	60817408	48	6279
2026-01-12 11:51:59.76	28.56	3.81	-37.9	-39.2	19.8	0.00e+00	0	28	0	70254592	48	6372
2026-01-12 11:52:02.79	28.90	3.94	-37.8	-39.0	19.9	0.00e+00	0	28	0	79691776	48	6268
2026-01-12 11:52:05.82	29.24	4.07	-37.9	-39.1	20.0	0.00e+00	0	28	0	89128960	48	6332
2026-01-12 11:52:08.85	29.59	4.20	-38.1	-39.3	20.1	0.00e+00	0	28	0	98566144	50	5747
2026-01-12 11:52:11.88	29.94	4.33	-37.8	-39.0	20.0	0.00e+00	0	28	0	108003328	50	5548
2026-01-12 11:52:14.91	30.29	4.46	-38.1	-39.3	20.0	0.00e+00	0	28	0	117440512	48	6498
2026-01-12 11:52:17.94	30.64	4.59	-37.7	-38.9	20.0	0.00e+00	0	29	0	126877696	48	6190
2026-01-12 11:52:20.97	31.00	4.72	-37.8	-39.0	20.0	0.00e+00	0	29	0	137363456	48	6216
2026-01-12 11:52:24.00	31.36	4.85	-37.0	-38.1	20.9	0.00e+00	0	29	0	145752064	48	5606
2026-01-12 11:52:27.04	31.73	4.98	-37.2	-38.4	20.7	0.00e+00	0	29	0	156237824	48	5795
2026-01-12 11:52:30.06	32.10	5.10	-37.3	-38.5	20.7	0.00e+00	0	29	0	165675008	48	5887
2026-01-12 11:52:33.09	32.47	5.23	-37.5	-38.6	20.6	0.00e+00	0	29	0	175112192	48	5971
2026-01-12 11:52:36.12	32.84	5.36	-37.2	-38.3	20.7	0.00e+00	0	29	0	184549376	48	5767
2026-01-12 11:52:39.15	33.22	5.48	-37.0	-38.2	20.8	0.00e+00	0	29	0	193986560	48	5661
2026-01-12 11:52:42.18	33.60	5.61	-37.1	-38.2	20.9	0.00e+00	0	29	0	203423744	48	5700
2026-01-12 11:52:45.21	33.98	5.74	-37.1	-38.2	21.1	0.00e+00	0	29	0	212860928	48	5681
2026-01-12 11:52:48.23	34.37	5.86	-37.0	-38.0	21.2	0.00e+00	0	29	0	222298112	48	5593
2026-01-12 11:52:51.26	34.76	5.99	-37.1	-38.2	21.0	0.00e+00	0	29	0	231735296	48	5681
2026-01-12 11:52:54.29	35.15	6.11	-37.0	-38.1	21.3	0.00e+00	0	29	0	241172480	48	5611
2026-01-12 11:52:57.32	35.55	6.24	-37.0	-38.0	21.3	0.00e+00	0	29	0	250609664	46	6277
2026-01-12 11:53:00.35	35.95	6.36	-36.8	-37.9	21.5	0.00e+00	0	29	0	260046848	46	6175
2026-01-12 11:53:03.38	36.35	6.48	-37.4	-38.5	21.0	0.00e+00	0	29	0	269484032	46	6592
2026-01-12 11:53:06.41	36.75	6.60	-36.7	-37.8	21.4	0.00e+00	0	29	0	278921216	46	6102
2026-01-12 11:53:09.43	37.16	6.72	-36.8	-37.9	21.3	0.00e+00	0	29	0	288358400	46	6167
2026-01-12 11:53:12.46	37.58	6.85	-36.6	-37.7	21.5	0.00e+00	0	29	0	297795584	46	6034
2026-01-12 11:53:15.49	37.99	6.97	-36.9	-38.0	21.2	0.00e+00	0	29	0	307232768	46	6232
2026-01-12 11:53:18.52	38.41	7.09	-36.6	-37.6	21.5	0.00e+00	0	29	0	316669952	46	5990
2026-01-12 11:53:21.55	38.83	7.20	-36.6	-37.7	21.6	0.00e+00	0	29	0	326107136	46	6001
2026-01-12 11:53:24.58	39.26	7.32	-36.6	-37.7	21.8	0.00e+00	0	29	0	335544320	46	6016
2026-01-12 11:53:27.61	39.69	7.44	-36.5	-37.5	21.5	0.00e+00	0	29	0	344981504	46	5920
2026-01-12 11:53:30.63	40.12	7.56	-36.6	-37.7	21.6	0.00e+00	0	29	0	354418688	46	6033
2026-01-12 11:53:33.67	40.56	7.67	-36.2	-37.2	21.9	0.00e+00	0	29	0	363855872	46	5688
2026-01-12 11:53:36.69	40.99	7.79	-36.5	-37.5	22.1	0.00e+00	0	29	0	373293056	46	5894
2026-01-12 11:53:39.72	41.44	7.90	-36.1	-37.1	22.1	0.00e+00	0	29	0	382730240	46	5657
2026-01-12 11:53:42.75	41.88	8.01	-36.4	-37.4	22.1	0.00e+00	0	29	0	392167424	46	5818
2026-01-12 11:53:45.78	42.33	8.12	-35.9	-36.9	22.3	0.00e+00	0	29	0	401604608	46	5530
2026-01-12 11:53:48.81	42.78	8.23	-36.0	-37.1	22.1	0.00e+00	0	29	0	411041792	46	5599
2026-01-12 11:53:51.84	43.24	8.34	-35.8	-36.8	22.2	0.00e+00	0	29	0	420478976	44	6085
2026-01-12 11:53:54.87	43.70	8.45	-35.9	-36.9	22.2	0.00e+00	0	29	0	429916160	44	6157
2026-01-12 11:53:57.90	44.16	8.56	-35.9	-36.9	22.1	0.00e+00	0	29	0	439353344	44	6152
2026-01-12 11:54:00.93	44.63	8.67	-36.0	-37.0	22.1	0.00e+00	0	29	0	448790528	44	6263
2026-01-12 11:54:03.96	45.10	8.77	-35.8	-36.8	22.3	0.00e+00	0	29	0	458227712	44	6066
2026-01-12 11:54:06.99	45.57	8.88	-35.7	-36.7	22.3	0.00e+00	0	29	0	467664896	44	6043
2026-01-12 11:54:10.02	46.04	8.98	-35.9	-36.9	22.2	0.00e+00	0	29	0	478150656	44	6168
2026-01-12 11:54:13.03	46.52	9.08	-35.8	-36.8	22.3	0.00e+00	0	29	0	486539264	44	6102
2026-01-12 11:54:16.06	47.00	9.18	-35.8	-36.8	22.2	0.00e+00	0	30	0	497025024	44	6118
2026-01-12 11:54:19.10	47.49	9.28	-35.6	-36.6	22.5	0.00e+00	0	29	0	505413632	44	5946
2026-01-12 11:54:22.12	47.97	9.38	-35.8	-36.8	22.3	0.00e+00	0	30	0	515899392	44	6094
2026-01-12 11:54:25.15	48.47	9.47	-36.0	-37.0	22.1	0.00e+00	0	30	0	525336576	44	6218
2026-01-12 11:54:28.18	48.96	9.57	-35.8	-36.8	22.2	0.00e+00	0	30	0	534773760	44	6131
2026-01-12 11:54:31.21	49.46	9.66	-36.0	-37.0	22.2	0.00e+00	0	30	0	544210944	44	6250
2026-01-12 11:54:34.24	49.96	9.75	-35.7	-36.7	22.4	0.00e+00	0	30	0	553648128	44	6032
2026-01-12 11:54:37.27	50.46	9.84	-35.6	-36.6	22.5	0.00e+00	0	30	0	563085312	44	5994
2026-01-12 11:54:40.30	50.97	9.93	-35.6	-36.6	22.5	0.00e+00	0	30	0	572522496	44	5975
2026-01-12 11:54:43.32	51.48	10.02	-35.5	-36.5	22.6	0.00e+00	0	30	0	581959680	44	5921
2026-01-12 11:54:46.36	51.99	10.10	-35.6	-36.6	22.5	0.00e+00	0	30	0	591396864	44	5973
2026-01-12 11:54:49.38	52.51	10.19	-35.7	-36.7	22.4	0.00e+00	0	30	0	600834048	44	6062
2026-01-12 11:54:52.41	53.03	10.27	-35.5	-36.5	22.5	0.00e+00	0	30	0	610271232	44	5893
2026-01-12 11:54:55.44	53.55	10.35	-35.5	-36.5	22.5	0.00e+00	0	30	0	619708416	44	5919
2026-01-12 11:54:58.48	54.07	10.42	-35.6	-36.6	22.5	0.00e+00	0	30	0	629145600	44	5940
2026-01-12 11:55:01.51	54.60	10.50	-35.5	-36.5	22.6	0.00e+00	0	30	0	638582784	44	5863
2026-01-12 11:55:04.54	55.13	10.57	-35.7	-36.7	22.4	0.00e+00	0	30	0	648019968	44	6017
2026-01-12 11:55:07.57	55.66	10.65	-35.8	-36.8	22.3	0.00e+00	0	30	0	657457152	44	6086
2026-01-12 11:55:10.60	56.20	10.72	-35.8	-36.8	22.4	0.00e+00	0	30	0	666894336	44	6120
2026-01-12 11:55:13.63	56.73	10.79	-35.4	-36.4	22.6	0.00e+00	0	30	0	676331520	44	5836
2026-01-12 11:55:16.67	57.27	10.85	-35.4	-36.4	22.6	0.00e+00	0	30	0	685768704	44	5851
2026-01-12 11:55:19.70	57.82	10.92	-35.7	-36.7	22.4	0.00e+00	0	30	0	695205888	44	6031
2026-01-12 11:55:22.73	58.36	10.98	-35.5	-36.5	22.6	0.00e+00	0	30	0	704643072	44	5882
2026-01-12 11:55:25.76	58.91	11.04	-35.7	-36.7	22.5	0.00e+00	0	30	0	714080256	44	6006
2026-01-12 11:55:28.79	59.45	11.10	-35.8	-36.8	22.2	0.00e+00	0	30	0	723517440	44	6096
2026-01-12 11:55:31.82	60.01	11.15	-35.9	-37.0	22.1	0.00e+00	0	30	0	732954624	44	6241
2026-01-12 11:55:34.86	60.56	11.20	-35.3	-36.3	22.7	0.00e+00	0	30	0	742391808	44	5745
2026-01-12 11:55:37.88	61.11	11.26	-35.2	-36.2	22.7	0.00e+00	0	30	0	751828992	44	5707
2026-01-12 11:55:40.91	61.67	11.30	-35.1	-36.1	22.8	0.00e+00	0	30	0	761266176	44	5603
2026-01-12 11:55:43.94	62.23	11.35	-35.5	-36.5	22.6	0.00e+00	0	30	0	770703360	44	5902
2026-01-12 11:55:46.97	62.79	11.39	-35.3	-36.3	22.8	0.00e+00	0	30	0	780140544	44	5739
2026-01-12 11:55:50.00	63.35	11.44	-35.3	-36.3	22.7	0.00e+00	0	30	0	789577728	44	5736
2026-01-12 11:55:53.03	63.91	11.48	-35.5	-36.5	22.6	0.00e+00	0	30	0	799014912	44	5876
2026-01-12 11:55:56.06	64.48	11.51	-35.5	-36.5	22.6	0.00e+00	0	30	0	808452096	44	5879
2026-01-12 11:55:59.08	65.04	11.55	-35.2	-36.2	22.9	0.00e+00	0	30	0	818937856	44	5718
2026-01-12 11:56:02.11	65.61	11.58	-35.0	-35.9	23.1	0.00e+00	0	30	0	828375040	44	5516
2026-01-12 11:56:05.14	66.18	11.61	-35.0	-35.9	23.0	0.00e+00	0	30	0	837812224	44	5525
2026-01-12 11:56:08.17	66.74	11.64	-34.9	-35.9	23.0	0.00e+00	0	30	0	847249408	44	5476
2026-01-12 11:56:11.20	67.32	11.66	-35.0	-36.0	22.9	0.00e+00	0	30	0	856686592	44	5572
2026-01-12 11:56:14.23	67.89	11.68	-34.9	-35.8	22.9	0.00e+00	0	30	0	866123776	44	5466
2026-01-12 11:56:17.26	68.46	11.70	-35.0	-36.0	22.9	0.00e+00	0	30	0	875560960	44	5539
2026-01-12 11:56:20.30	69.03	11.72	-35.0	-36.0	23.0	0.00e+00	0	30	0	884998144	44	5545
2026-01-12 11:56:23.32	69.60	11.73	-35.0	-36.0	22.9	0.00e+00	0	30	0	894435328	44	5559
2026-01-12 11:56:26.36	70.18	11.74	-34.9	-35.9	23.0	0.00e+00	0	30	0	903872512	44	5470
2026-01-12 11:56:29.39	70.76	11.75	-34.8	-35.8	23.1	0.00e+00	0	30	0	913309696	44	5408
2026-01-12 11:56:32.42	71.33	11.76	-34.9	-35.9	23.1	0.00e+00	0	30	0	922746880	44	5476
2026-01-12 11:56:35.45	71.91	11.77	-35.1	-36.1	22.9	0.00e+00	0	30	0	932184064	44	5622
2026-01-12 11:56:38.48	72.48	11.77	-35.0	-36.0	23.0	0.00e+00	0	30	0	941621248	44	5574
2026-01-12 11:56:41.51	73.06	11.77	-35.1	-36.1	22.9	0.00e+00	0	30	0	951058432	44	5602
2026-01-12 11:56:44.54	73.63	11.76	-35.1	-36.1	22.9	0.00e+00	0	30	0	960495616	44	5640
2026-01-12 11:56:47.57	74.21	11.76	-34.9	-36.0	23.0	0.00e+00	0	30	0	969932800	44	5539
2026-01-12 11:56:50.60	74.78	11.75	-35.1	-36.3	22.8	0.00e+00	0	30	0	979369984	44	5744
2026-01-12 11:56:53.63	75.35	11.74	-35.2	-36.3	22.7	0.00e+00	0	30	0	988807168	44	5786
2026-01-12 11:56:56.66	75.93	11.72	-35.1	-36.2	23.0	0.00e+00	0	30	0	998244352	44	5683
2026-01-12 11:56:59.69	76.50	11.71	-34.9	-36.0	23.0	0.00e+00	0	30	0	1007681536	44	5535
2026-01-12 11:57:02.72	77.07	11.69	-35.1	-36.1	22.9	0.00e+00	0	30	0	1017118720	44	5647
2026-01-12 11:57:05.75	77.65	11.66	-35.1	-36.1	22.9	0.00e+00	0	30	0	1026555904	44	5599
2026-01-12 11:57:08.78	78.22	11.64	-35.1	-36.1	22.9	0.00e+00	0	30	0	1035993088	44	5626
2026-01-12 11:57:11.81	78.79	11.61	-35.1	-36.1	22.9	0.00e+00	0	30	0	1045430272	44	5628
2026-01-12 11:57:14.84	79.36	11.59	-35.0	-35.9	23.0	0.00e+00	0	30	0	1054867456	44	5507
2026-01-12 11:57:17.87	79.93	11.55	-35.1	-36.1	22.9	0.00e+00	0	30	0	1064304640	44	5613
2026-01-12 11:57:20.91	80.49	11.52	-35.1	-36.1	22.9	0.00e+00	0	30	0	1073741824	44	5625
2026-01-12 11:57:23.94	81.06	11.48	-35.3	-36.3	22.8	0.00e+00	0	30	0	1083179008	44	5762
2026-01-12 11:57:26.96	81.62	11.44	-35.1	-36.1	22.9	0.00e+00	0	30	0	1092616192	44	5625
2026-01-12 11:57:29.99	82.19	11.40	-35.3	-36.3	22.8	0.00e+00	0	31	0	1102053376	44	5733
2026-01-12 11:57:33.02	82.75	11.36	-35.2	-36.2	22.7	0.00e+00	0	30	0	1112539136	44	5716
2026-01-12 11:57:36.06	83.31	11.31	-35.1	-36.1	22.8	0.00e+00	0	31	0	1120927744	44	5606
2026-01-12 11:57:39.09	83.87	11.26	-35.0	-36.0	22.9	0.00e+00	0	31	0	1131413504	44	5574
2026-01-12 11:57:42.12	84.42	11.21	-35.1	-36.1	23.0	0.00e+00	0	30	0	1140850688	44	5626
2026-01-12 11:57:45.15	84.98	11.16	-35.2	-36.2	22.9	0.00e+00	0	30	0	1150287872	44	5680
2026-01-12 11:57:48.18	85.53	11.11	-35.1	-36.1	22.8	0.00e+00	0	31	0	1159725056	44	5651
2026-01-12 11:57:51.21	86.08	11.05	-35.2	-36.2	22.8	0.00e+00	0	30	0	1169162240	44	5673
2026-01-12 11:57:54.24	86.63	10.99	-35.1	-36.2	22.8	0.00e+00	0	31	0	1178599424	44	5671
2026-01-12 11:57:57.27	87.17	10.93	-35.2	-36.2	22.8	0.00e+00	0	31	0	1188036608	44	5684
2026-01-12 11:58:00.30	87.72	10.86	-35.1	-36.1	22.9	0.00e+00	0	31	0	1197473792	44	5598
2026-01-12 11:58:03.33	88.26	10.80	-35.2	-36.2	22.9	0.00e+00	0	31	0	1206910976	44	5718
2026-01-12 11:58:06.36	88.80	10.73	-35.4	-36.5	22.6	0.00e+00	0	31	0	1216348160	44	5865
2026-01-12 11:58:09.39	89.33	10.66	-35.3	-36.3	22.8	0.00e+00	0	31	0	1225785344	44	5749
2026-01-12 11:58:12.42	89.87	10.59	-35.1	-36.1	23.0	0.00e+00	0	31	0	1235222528	44	5657
2026-01-12 11:58:15.45	90.40	10.51	-35.0	-36.2	22.9	0.00e+00	0	31	0	1244659712	44	5672
2026-01-12 11:58:18.48	90.93	10.44	-35.2	-36.4	22.7	0.00e+00	0	31	0	1254096896	44	5803
2026-01-12 11:58:21.51	91.46	10.36	-35.4	-36.4	22.8	0.00e+00	0	31	0	1263534080	44	5817
2026-01-12 11:58:24.54	91.98	10.28	-35.2	-36.2	22.9	0.00e+00	0	31	0	1272971264	44	5688
2026-01-12 11:58:27.57	92.50	10.20	-35.3	-36.3	22.7	0.00e+00	0	31	0	1282408448	44	5757
2026-01-12 11:58:30.60	93.02	10.11	-35.4	-36.3	22.6	0.00e+00	0	31	0	1291845632	44	5787
2026-01-12 11:58:33.63	93.53	10.03	-35.3	-36.3	22.6	0.00e+00	0	31	0	1301282816	44	5770
2026-01-12 11:58:36.66	94.05	9.94	-35.5	-36.6	22.5	0.00e+00	0	31	0	1310720000	44	5929
2026-01-12 11:58:39.69	94.56	9.85	-35.5	-36.5	22.6	0.00e+00	0	31	0	1320157184	44	5878
2026-01-12 11:58:42.72	95.06	9.76	-35.2	-36.2	22.7	0.00e+00	0	31	0	1329594368	44	5681
2026-01-12 11:58:45.75	95.57	9.67	-35.3	-36.3	22.7	0.00e+00	0	31	0	1339031552	44	5774
2026-01-12 11:58:48.78	96.07	9.58	-35.3	-36.3	22.7	0.00e+00	0	31	0	1348468736	44	5741
2026-01-12 11:58:51.81	96.56	9.48	-35.5	-36.6	22.6	0.00e+00	0	31	0	1357905920	44	5938
2026-01-12 11:58:54.85	97.06	9.39	-35.4	-36.6	22.4	0.00e+00	0	31	0	1367343104	44	5935
2026-01-12 11:58:57.87	97.55	9.29	-35.5	-36.6	22.3	0.00e+00	0	31	0	1376780288	44	5956
2026-01-12 11:59:00.91	98.04	9.19	-35.4	-36.5	22.5	0.00e+00	0	31	0	1386217472	44	5890
2026-01-12 11:59:03.93	98.52	9.09	-35.4	-36.6	22.4	0.00e+00	0	31	0	1395654656	44	5953
2026-01-12 11:59:06.96	99.00	8.99	-35.8	-36.9	22.1	0.00e+00	0	31	0	1406140416	44	6148
2026-01-12 11:59:10.00	99.48	8.88	-35.8	-36.9	22.1	0.00e+00	0	31	0	1414529024	44	6166
2026-01-12 11:59:13.03	99.96	8.78	-36.2	-37.2	21.8	0.00e+00	0	31	0	1425014784	44	6419
2026-01-12 11:59:16.06	100.43	8.67	-36.0	-37.0	22.0	0.00e+00	0	31	0	1433403392	44	6258
2026-01-12 11:59:19.08	100.89	8.56	-35.9	-36.9	22.1	0.00e+00	0	31	0	1443889152	44	6198
2026-01-12 11:59:22.11	101.36	8.46	-35.6	-36.6	22.3	0.00e+00	0	31	0	1453326336	44	5967
2026-01-12 11:59:25.15	101.82	8.35	-35.9	-37.0	22.0	0.00e+00	0	31	0	1462763520	44	6249
2026-01-12 11:59:28.18	102.28	8.24	-35.8	-37.2	21.7	0.00e+00	0	31	0	1472200704	44	6374
2026-01-12 11:59:31.21	102.74	8.12	-35.8	-37.3	21.7	0.00e+00	0	31	0	1481637888	44	6490
2026-01-12 11:59:34.23	103.19	8.01	-35.8	-37.3	21.8	0.00e+00	0	31	0	1491075072	44	6434
2026-01-12 11:59:37.26	103.63	7.90	-36.1	-37.3	21.7	0.00e+00	0	31	0	1500512256	44	6427
2026-01-12 11:59:40.29	104.08	7.78	-36.1	-37.2	21.8	0.00e+00	0	31	0	1509949440	44	6400
2026-01-12 11:59:43.32	104.52	7.67	-36.1	-37.2	21.6	0.00e+00	0	31	0	1519386624	44	6423
2026-01-12 11:59:46.35	104.96	7.55	-36.2	-37.3	21.7	0.00e+00	0	31	0	1528823808	44	6443
2026-01-12 11:59:49.38	105.39	7.43	-36.1	-37.2	21.7	0.00e+00	0	31	0	1538260992	44	6389
2026-01-12 11:59:52.41	105.82	7.32	-36.3	-37.5	21.5	0.00e+00	0	31	0	1547698176	44	6574
2026-01-12 11:59:55.44	106.25	7.20	-36.3	-37.4	21.6	0.00e+00	0	31	0	1557135360	44	6562
2026-01-12 11:59:58.46	106.68	7.08	-35.9	-37.3	21.7	0.00e+00	0	31	0	1566572544	44	6433
2026-01-12 12:00:01.49	107.10	6.96	-36.2	-37.4	21.7	0.00e+00	0	31	0	1576009728	44	6510
2026-01-12 12:00:04.52	107.51	6.84	-36.3	-37.5	21.6	0.00e+00	0	31	0	1585446912	44	6575
2026-01-12 12:00:07.55	107.93	6.71	-36.5	-37.6	21.3	0.00e+00	0	31	0	1594884096	44	6725
2026-01-12 12:00:10.58	108.34	6.59	-36.7	-37.9	21.2	0.00e+00	0	31	0	1604321280	44	6904
2026-01-12 12:00:13.61	108.75	6.47	-36.6	-37.7	21.3	0.00e+00	0	31	0	1613758464	44	6787
2026-01-12 12:00:16.63	109.15	6.35	-36.9	-38.2	20.8	0.00e+00	0	31	0	1623195648	46	6360
2026-01-12 12:00:19.67	109.56	6.22	-36.8	-37.9	21.2	0.00e+00	0	31	0	1632632832	46	6195
2026-01-12 12:00:22.69	109.95	6.10	-36.4	-37.7	21.2	0.00e+00	0	31	0	1642070016	46	6011
2026-01-12 12:00:25.73	110.35	5.97	-36.7	-37.8	21.1	0.00e+00	0	31	0	1651507200	46	6119
2026-01-12 12:00:28.76	110.74	5.84	-36.8	-37.9	21.0	0.00e+00	0	31	0	1660944384	46	6173
2026-01-12 12:00:31.79	111.13	5.72	-36.8	-37.9	21.0	0.00e+00	0	31	0	1670381568	46	6177
2026-01-12 12:00:34.82	111.51	5.59	-36.9	-38.0	20.9	0.00e+00	0	31	0	1679818752	46	6263
2026-01-12 12:00:37.85	111.90	5.46	-36.6	-37.8	21.1	0.00e+00	0	31	0	1689255936	46	6101
2026-01-12 12:00:40.88	112.27	5.34	-36.7	-37.8	21.1	0.00e+00	0	31	0	1698693120	46	6116
2026-01-12 12:00:43.91	112.65	5.21	-36.6	-37.8	21.0	0.00e+00	0	31	0	1708130304	46	6067
2026-01-12 12:00:46.94	113.02	5.08	-36.6	-37.7	21.0	0.00e+00	0	31	0	1717567488	46	6061
2026-01-12 12:00:49.96	113.39	4.95	-36.9	-38.2	20.6	0.00e+00	0	31	0	1727004672	46	6380
2026-01-12 12:00:52.99	113.76	4.82	-37.0	-38.2	20.7	0.00e+00	0	31	0	1736441856	46	6352
2026-01-12 12:00:56.02	114.12	4.69	-37.0	-38.2	20.5	0.00e+00	0	30	0	1745879040	46	6411
2026-01-12 12:00:59.05	114.48	4.56	-37.2	-38.4	20.3	0.00e+00	0	31	0	1755316224	46	6519
2026-01-12 12:01:02.08	114.84	4.43	-37.1	-38.4	20.4	0.00e+00	0	31	0	1765801984	46	6533
2026-01-12 12:01:05.11	115.19	4.30	-37.0	-38.3	20.4	0.00e+00	0	31	0	1775239168	46	6490
2026-01-12 12:01:08.14	115.54	4.17	-36.8	-38.3	20.4	0.00e+00	0	31	0	1784676352	46	6472
2026-01-12 12:01:11.17	115.89	4.04	-37.0	-38.4	20.3	0.00e+00	0	31	0	1794113536	46	6542
2026-01-12 12:01:14.20	116.23	3.91	-37.0	-38.2	20.4	0.00e+00	0	31	0	1803550720	48	5666
2026-01-12 12:01:17.23	116.58	3.78	-37.6	-39.0	19.5	0.00e+00	0	31	0	1812987904	48	6273
2026-01-12 12:01:20.26	116.92	3.64	-37.6	-39.0	19.6	0.00e+00	0	30	0	1822425088	48	6209
2026-01-12 12:01:23.29	117.25	3.51	-37.7	-39.1	19.5	0.00e+00	0	31	0	1831862272	48	6298
2026-01-12 12:01:26.33	117.59	3.38	-37.7	-39.2	19.3	0.00e+00	0	30	0	1841299456	48	6353
2026-01-12 12:01:29.35	117.92	3.25	-37.8	-39.2	19.3	0.00e+00	0	31	0	1850736640	48	6398
2026-01-12 12:01:32.38	118.24	3.12	-37.9	-39.2	19.3	0.00e+00	0	30	0	1860173824	48	6400
2026-01-12 12:01:35.41	118.57	2.98	-38.5	-40.0	12.2	0.00e+00	0	30	0	1869611008	48	6963
2026-01-12 12:01:38.44	118.89	2.85	-47.1	-60.8	3.5	1.52e+00	0	30	104	1869611008	60	38383
2026-01-12 12:01:41.47	119.21	2.72	-48.1	-61.1	3.5	1.52e+00	0	31	104	1869611008	60	39977
2026-01-12 12:01:44.50	119.53	2.59	-48.3	-61.2	3.5	1.51e+00	0	31	104	1869611008	60	40297
2026-01-12 12:01:47.53	119.84	2.45	-48.4	-61.1	3.5	1.51e+00	0	31	104	1869611008	60	40032
2026-01-12 12:01:50.55	120.15	2.32	-48.2	-61.2	3.5	1.51e+00	0	31	104	1869611008	60	40214
2026-01-12 12:01:53.59	120.46	2.19	-48.4	-61.2	3.5	1.52e+00	0	30	104	1869611008	60	40450
2026-01-12 12:01:56.62	120.77	2.06	-48.4	-61.2	3.5	1.52e+00	0	31	104	1869611008	60	40405
2026-01-12 12:01:59.65	121.07	1.92	-48.3	-61.2	3.5	1.51e+00	0	30	104	1869611008	60	40123
2026-01-12 12:02:02.67	121.37	1.79	-48.4	-61.2	3.5	1.52e+00	0	31	104	1869611008	60	40456
2026-01-12 12:02:05.70	121.67	1.66	-48.4	-61.3	3.5	1.52e+00	0	30	104	1869611008	60	40668
2026-01-12 12:02:08.73	121.96	1.53	-48.4	-61.3	3.5	1.52e+00	0	30	104	1869611008	60	40643
2026-01-12 12:02:11.76	122.26	1.39	-48.7	-61.5	3.5	1.52e+00	0	30	104	1869611008	60	41883
2026-01-12 12:02:14.79	122.55	1.26	-48.4	-61.2	3.5	1.52e+00	0	30	104	1869611008	60	40515
2026-01-12 12:02:17.82	122.84	1.13	-48.5	-61.4	3.5	1.52e+00	0	30	104	1869611008	60	41149
2026-01-12 12:02:20.85	123.12	0.99	-48.5	-61.3	3.5	1.51e+00	0	30	104	1869611008	60	40823
2026-01-12 12:02:23.88	123.40	0.86	-48.5	-61.3	3.5	1.52e+00	0	31	104	1869611008	60	40848
2026-01-12 12:02:26.91	123.69	0.73	-48.7	-61.6	3.5	1.52e+00	0	30	104	1869611008	60	42098
2026-01-12 12:02:29.93	123.96	0.60	-48.6	-61.4	3.5	1.52e+00	0	30	104	1869611008	60	41173
2026-01-12 12:02:32.96	124.24	0.46	-48.6	-61.4	3.5	1.52e+00	0	30	104	1869611008	60	41415
2026-01-12 12:02:35.99	124.51	0.33	-48.6	-61.4	3.5	1.52e+00	0	30	104	1869611008	60	41309
2026-01-12 12:02:39.02	124.78	0.20	-48.6	-61.4	3.5	1.52e+00	0	30	104	1869611008	60	41302
2026-01-12 12:02:42.05	125.05	0.07	-48.9	-61.7	3.5	1.51e+00	0	30	104	1869611008	60	42779

#Closed at: 2026-01-12 12:02:45
#Recorded file [1869 MB]: D:/lorett/data/35029_260112_235037.dat