passes_logs/2026/01/12/R4.6S_Anadyr/R4.6S_Anadyr__20260112_151119_NOAA_21_JPSS-2_rec.log

#Pass ID: 20260112_151119_NOAA 21 (JPSS-2)
#Satellite: NOAA 21 (JPSS-2)
#Configuration: NOAA-21
#almurnet v.1.7.20251203
#Start time: 2026-01-12 15:11:21

#Version: 2.2.20231116
#Station: R4.6S_Anadyr
#Location: 177.4865 lon 64.73178 lat
#TLE: 1 54234U 22150A   26011.55893233  .00000075  00000+0  56634-4 0  9995
#TLE: 2 54234  98.7494 312.5004 0000755 313.1908  46.9205 14.19534095164321

#Time	Az	El	Level	Level2	SNR	BER	BlckErr	Temp	State	Recorded	gain1	gain2
2026-01-12 15:11:21.47	21.57	0.15	-48.4	-63.3	3.5	1.51e+00	0	27	0	0	60	52639
2026-01-12 15:11:25.50	21.53	0.39	-48.7	-61.5	3.5	1.51e+00	0	29	104	0	60	41721
2026-01-12 15:11:29.54	21.50	0.63	-48.6	-61.4	3.5	1.52e+00	0	29	104	0	60	41414
2026-01-12 15:11:33.58	21.46	0.88	-48.3	-61.2	3.5	1.52e+00	0	29	104	0	60	40209
2026-01-12 15:11:37.62	21.42	1.13	-47.1	-59.9	3.5	1.52e+00	0	29	104	0	60	34586
2026-01-12 15:11:41.66	21.38	1.38	-47.2	-59.8	3.5	1.52e+00	0	29	104	0	60	34491
2026-01-12 15:11:45.70	21.34	1.63	-47.3	-59.7	3.5	1.52e+00	0	29	104	0	60	34074
2026-01-12 15:11:49.74	21.30	1.88	-47.1	-59.8	3.5	1.52e+00	0	29	104	0	60	34274
2026-01-12 15:11:53.78	21.26	2.14	-47.0	-59.7	3.5	1.52e+00	0	29	104	0	60	34098
2026-01-12 15:11:57.82	21.22	2.40	-46.9	-59.1	3.5	1.52e+00	0	29	104	0	60	31711
2026-01-12 15:12:01.85	21.17	2.66	-46.9	-57.9	3.5	1.50e+00	0	29	104	0	60	27688
2026-01-12 15:12:05.89	21.13	2.92	-46.7	-56.9	3.6	1.51e+00	0	29	104	0	60	24580
2026-01-12 15:12:09.93	21.08	3.19	-44.0	-47.3	12.1	1.82e-03	123	29	0	5242880	60	8091
2026-01-12 15:12:13.97	21.03	3.46	-41.2	-43.0	16.1	0.00e+00	123	29	0	17825792	56	6255
2026-01-12 15:12:18.01	20.99	3.73	-41.9	-43.9	15.2	0.00e+00	122	29	0	30408704	56	6955
2026-01-12 15:12:22.05	20.94	4.01	-46.8	-58.3	3.6	1.53e+00	0	29	104	35651584	60	28922
2026-01-12 15:12:26.08	20.88	4.28	-40.5	-42.1	17.2	0.00e+00	120	29	0	41943040	54	6319
2026-01-12 15:12:30.12	20.83	4.56	-38.6	-39.9	19.2	0.00e+00	122	29	0	54525952	50	6190
2026-01-12 15:12:34.16	20.78	4.84	-38.4	-39.7	19.8	0.00e+00	122	29	0	67108864	50	6007
2026-01-12 15:12:38.20	20.72	5.13	-37.9	-39.1	19.9	0.00e+00	120	29	0	79691776	50	5639
2026-01-12 15:12:42.23	20.67	5.42	-38.1	-39.3	19.8	0.00e+00	120	29	0	92274688	48	6443
2026-01-12 15:12:46.27	20.61	5.71	-37.6	-38.7	20.3	0.00e+00	123	29	0	104857600	48	6050
2026-01-12 15:12:50.31	20.55	6.01	-37.4	-38.5	20.8	0.00e+00	123	29	0	117440512	48	5902
2026-01-12 15:12:54.34	20.49	6.30	-37.0	-38.1	21.1	0.00e+00	123	29	0	130023424	46	6315
2026-01-12 15:12:58.38	20.42	6.61	-37.1	-38.2	21.1	0.00e+00	122	29	0	142606336	46	6379
2026-01-12 15:13:02.42	20.36	6.91	-36.5	-37.6	21.6	0.00e+00	121	29	0	155189248	46	5970
2026-01-12 15:13:06.46	20.29	7.22	-36.4	-37.4	21.7	0.00e+00	123	29	0	167772160	46	5822
2026-01-12 15:13:10.49	20.23	7.53	-36.3	-37.3	21.9	0.00e+00	123	29	0	180355072	46	5767
2026-01-12 15:13:14.53	20.16	7.85	-36.2	-37.2	21.9	0.00e+00	123	29	0	193986560	46	5704
2026-01-12 15:13:18.56	20.08	8.17	-36.1	-37.1	22.0	0.00e+00	123	29	0	205520896	46	5645
2026-01-12 15:13:22.60	20.01	8.50	-35.9	-36.9	22.2	0.00e+00	122	29	0	219152384	46	5502
2026-01-12 15:13:26.64	19.93	8.82	-36.0	-37.0	22.3	0.00e+00	120	29	0	231735296	46	5545
2026-01-12 15:13:30.68	19.86	9.16	-35.6	-36.6	22.6	0.00e+00	123	29	0	244318208	44	5965
2026-01-12 15:13:34.72	19.78	9.50	-35.5	-36.5	22.6	0.00e+00	120	29	0	256901120	44	5891
2026-01-12 15:13:38.76	19.69	9.84	-35.4	-36.4	22.6	0.00e+00	120	29	0	269484032	44	5848
2026-01-12 15:13:42.80	19.61	10.19	-35.2	-36.2	22.9	0.00e+00	120	29	0	282066944	44	5696
2026-01-12 15:13:46.84	19.52	10.54	-35.2	-36.1	22.9	0.00e+00	122	29	0	294649856	44	5652
2026-01-12 15:13:50.88	19.43	10.89	-35.1	-36.0	23.2	0.00e+00	123	29	0	307232768	44	5592
2026-01-12 15:13:54.92	19.34	11.26	-34.9	-35.8	23.3	0.00e+00	122	29	0	319815680	44	5453
2026-01-12 15:13:58.96	19.24	11.62	-35.0	-35.9	23.2	0.00e+00	120	29	0	332398592	44	5515
2026-01-12 15:14:02.98	19.15	11.99	-35.0	-36.0	23.3	0.00e+00	123	29	0	344981504	44	5550
2026-01-12 15:14:07.01	19.05	12.37	-34.7	-35.6	23.5	0.00e+00	122	29	0	357564416	42	5954
2026-01-12 15:14:11.05	18.94	12.76	-34.7	-35.6	23.6	0.00e+00	123	29	0	370147328	42	5987
2026-01-12 15:14:15.09	18.83	13.15	-34.7	-35.7	23.6	0.00e+00	123	29	0	382730240	42	6011
2026-01-12 15:14:19.14	18.72	13.55	-34.5	-35.4	23.7	0.00e+00	122	29	0	395313152	42	5856
2026-01-12 15:14:23.18	18.61	13.95	-34.6	-35.5	23.6	0.00e+00	123	29	0	407896064	42	5920
2026-01-12 15:14:27.22	18.49	14.36	-34.6	-35.6	23.6	0.00e+00	123	29	0	420478976	42	5948
2026-01-12 15:14:31.26	18.37	14.77	-34.5	-35.4	23.7	0.00e+00	123	29	0	433061888	42	5842
2026-01-12 15:14:35.30	18.24	15.20	-34.5	-35.4	23.8	0.00e+00	123	29	0	445644800	42	5824
2026-01-12 15:14:39.33	18.11	15.63	-34.4	-35.4	23.8	0.00e+00	123	29	0	458227712	42	5795
2026-01-12 15:14:43.37	17.98	16.07	-34.7	-35.6	23.6	0.00e+00	122	29	0	470810624	42	5965
2026-01-12 15:14:47.41	17.84	16.51	-34.4	-35.3	23.8	0.00e+00	123	29	0	483393536	42	5780
2026-01-12 15:14:51.45	17.70	16.97	-34.5	-35.4	23.8	0.00e+00	122	29	0	495976448	42	5849
2026-01-12 15:14:55.49	17.55	17.43	-34.4	-35.4	23.8	0.00e+00	122	29	0	508559360	42	5795
2026-01-12 15:14:59.52	17.40	17.90	-34.5	-35.4	23.8	0.00e+00	123	29	0	521142272	42	5818
2026-01-12 15:15:03.56	17.24	18.38	-34.4	-35.3	23.9	0.00e+00	120	29	0	533725184	42	5781
2026-01-12 15:15:07.60	17.07	18.87	-34.5	-35.4	23.8	0.00e+00	123	29	0	546308096	42	5836
2026-01-12 15:15:11.64	16.90	19.37	-34.5	-35.4	23.8	0.00e+00	123	29	0	559939584	42	5851
2026-01-12 15:15:15.68	16.73	19.88	-34.3	-35.2	23.9	0.00e+00	122	29	0	572522496	42	5686
2026-01-12 15:15:19.71	16.54	20.40	-34.0	-35.0	24.0	0.00e+00	121	29	0	585105408	42	5534
2026-01-12 15:15:23.75	16.35	20.93	-33.8	-34.7	24.2	0.00e+00	123	29	0	597688320	42	5383
2026-01-12 15:15:27.78	16.16	21.47	-33.8	-34.7	24.2	0.00e+00	123	29	0	610271232	40	6055
2026-01-12 15:15:31.81	15.95	22.02	-33.4	-34.3	24.5	0.00e+00	120	29	0	622854144	40	5759
2026-01-12 15:15:35.85	15.74	22.59	-33.1	-34.0	24.9	0.00e+00	122	29	0	635437056	40	5537
2026-01-12 15:15:39.89	15.52	23.17	-32.9	-33.8	25.1	0.00e+00	123	29	0	648019968	40	5447
2026-01-12 15:15:43.92	15.29	23.75	-32.7	-33.5	25.3	0.00e+00	122	29	0	660602880	38	5922
2026-01-12 15:15:47.96	15.05	24.36	-32.7	-33.6	25.2	0.00e+00	122	29	0	673185792	38	5957
2026-01-12 15:15:52.00	14.80	24.97	-33.0	-33.8	25.1	0.00e+00	123	29	0	685768704	38	6125
2026-01-12 15:15:56.04	14.53	25.60	-33.3	-34.2	24.8	0.00e+00	122	29	0	698351616	38	6367
2026-01-12 15:16:00.07	14.26	26.25	-33.7	-34.6	24.6	0.00e+00	123	29	0	710934528	38	6700
2026-01-12 15:16:04.11	13.98	26.91	-33.9	-34.8	24.6	0.00e+00	122	29	0	723517440	40	6082
2026-01-12 15:16:08.15	13.68	27.58	-33.9	-34.7	24.5	0.00e+00	122	29	0	736100352	40	6061
2026-01-12 15:16:12.19	13.37	28.28	-34.1	-35.0	24.3	0.00e+00	122	29	0	748683264	40	6213
2026-01-12 15:16:16.22	13.05	28.98	-34.4	-35.3	24.0	0.00e+00	122	29	0	761266176	40	6475
2026-01-12 15:16:20.26	12.70	29.71	-34.2	-35.1	24.0	0.00e+00	122	29	0	773849088	40	6320
2026-01-12 15:16:24.29	12.35	30.45	-33.7	-34.7	24.3	0.00e+00	123	29	0	786432000	40	6001
2026-01-12 15:16:28.33	11.97	31.21	-33.9	-34.8	24.3	0.00e+00	122	29	0	799014912	40	6079
2026-01-12 15:16:32.37	11.58	31.99	-33.8	-34.7	24.3	0.00e+00	122	29	0	811597824	40	6052
2026-01-12 15:16:36.40	11.16	32.79	-34.3	-35.2	23.8	0.00e+00	122	29	0	824180736	40	6406
2026-01-12 15:16:40.44	10.73	33.61	-34.4	-35.3	24.0	0.00e+00	122	29	0	836763648	40	6492
2026-01-12 15:16:44.47	10.27	34.45	-34.6	-35.5	23.8	0.00e+00	122	29	0	849346560	40	6618
2026-01-12 15:16:48.52	9.78	35.31	-35.0	-35.9	23.5	0.00e+00	123	29	0	861929472	42	6170
2026-01-12 15:16:52.55	9.27	36.19	-35.7	-36.7	22.8	0.00e+00	122	29	0	874512384	44	6045
2026-01-12 15:16:56.59	8.73	37.10	-36.1	-37.1	22.6	0.00e+00	123	29	0	887095296	44	6335
2026-01-12 15:17:00.63	8.15	38.02	-36.0	-37.0	22.6	0.00e+00	123	29	0	899678208	44	6240
2026-01-12 15:17:04.66	7.54	38.97	-36.2	-37.2	22.3	0.00e+00	122	29	0	912261120	44	6419
2026-01-12 15:17:08.69	6.90	39.94	-36.5	-37.5	22.2	0.00e+00	123	29	0	924844032	44	6642
2026-01-12 15:17:12.73	6.21	40.93	-35.6	-36.6	23.2	0.00e+00	123	29	0	937426944	44	5941
2026-01-12 15:17:16.76	5.48	41.95	-35.7	-36.6	23.1	0.00e+00	122	29	0	950009856	44	5969
2026-01-12 15:17:20.79	4.69	42.99	-36.4	-37.4	22.1	0.00e+00	122	29	0	962592768	44	6536
2026-01-12 15:17:24.82	3.86	44.05	-37.0	-38.0	22.2	0.00e+00	123	29	0	975175680	46	6252
2026-01-12 15:17:28.86	2.96	45.14	-37.4	-38.4	21.6	0.00e+00	123	29	0	987758592	46	6566
2026-01-12 15:17:32.90	2.00	46.24	-36.8	-37.9	22.1	0.00e+00	122	29	0	1001390080	46	6144
2026-01-12 15:17:36.94	0.96	47.37	-36.7	-37.7	22.4	0.00e+00	120	29	0	1013972992	46	6028
2026-01-12 15:17:40.97	359.85	48.52	-35.6	-36.5	23.1	0.00e+00	123	29	0	1026555904	44	5920
2026-01-12 15:17:45.01	358.65	49.68	-35.7	-36.7	22.9	0.00e+00	122	29	0	1039138816	44	6031
2026-01-12 15:17:49.04	357.36	50.86	-35.6	-36.6	22.9	0.00e+00	123	29	0	1051721728	44	5973
2026-01-12 15:17:53.08	355.95	52.06	-35.8	-36.8	22.6	0.00e+00	122	29	0	1064304640	44	6109
2026-01-12 15:17:57.11	354.43	53.26	-35.6	-36.6	23.1	0.00e+00	122	29	0	1076887552	44	5963
2026-01-12 15:18:01.15	352.77	54.47	-35.2	-36.2	23.4	0.00e+00	120	29	0	1089470464	44	5668
2026-01-12 15:18:05.19	350.96	55.68	-34.1	-34.9	24.5	0.00e+00	123	29	0	1102053376	42	5529
2026-01-12 15:18:09.22	348.99	56.89	-34.1	-35.0	24.2	0.00e+00	123	29	0	1114636288	40	6238
2026-01-12 15:18:13.25	346.84	58.09	-33.4	-34.3	24.5	0.00e+00	123	29	0	1127219200	40	5753
2026-01-12 15:18:17.29	344.49	59.27	-33.6	-34.5	24.6	0.00e+00	123	28	0	1139802112	40	5878
2026-01-12 15:18:21.33	341.91	60.43	-33.0	-33.9	25.0	0.00e+00	122	29	0	1152385024	40	5506
2026-01-12 15:18:25.37	339.09	61.55	-33.3	-34.2	24.9	0.00e+00	123	29	0	1164967936	40	5711
2026-01-12 15:18:29.41	336.01	62.62	-32.7	-33.5	25.2	0.00e+00	123	29	0	1177550848	38	5900
2026-01-12 15:18:33.45	332.64	63.63	-32.4	-33.3	25.1	0.00e+00	123	29	0	1190133760	38	5730
2026-01-12 15:18:37.49	328.99	64.56	-33.0	-33.9	24.9	0.00e+00	123	29	0	1202716672	38	6171
2026-01-12 15:18:41.53	325.03	65.41	-32.4	-33.3	25.4	0.00e+00	123	29	0	1215299584	38	5752
2026-01-12 15:18:45.56	320.80	66.14	-33.2	-34.1	24.8	0.00e+00	120	29	0	1227882496	38	6307
2026-01-12 15:18:49.60	316.27	66.76	-33.0	-33.8	25.1	0.00e+00	120	29	0	1240465408	38	6128
2026-01-12 15:18:53.64	311.51	67.24	-32.1	-32.9	25.8	0.00e+00	123	28	0	1253048320	38	5510
2026-01-12 15:18:57.68	306.56	67.57	-32.3	-33.1	25.7	0.00e+00	123	28	0	1265631232	38	5659
2026-01-12 15:19:01.71	301.49	67.75	-32.4	-33.2	25.6	0.00e+00	123	28	0	1278214144	38	5709
2026-01-12 15:19:05.75	296.37	67.76	-32.7	-33.6	25.2	0.00e+00	122	28	0	1290797056	38	5954
2026-01-12 15:19:09.78	291.29	67.61	-33.1	-34.0	25.1	0.00e+00	123	29	0	1303379968	38	6237
2026-01-12 15:19:13.82	286.31	67.29	-32.5	-33.4	25.0	0.00e+00	122	29	0	1315962880	38	5808
2026-01-12 15:19:17.87	281.50	66.83	-33.2	-34.0	24.9	0.00e+00	120	29	0	1328545792	38	6258
2026-01-12 15:19:21.90	276.96	66.23	-32.8	-33.6	25.4	0.00e+00	123	28	0	1341128704	38	5984
2026-01-12 15:19:25.93	272.68	65.51	-32.3	-33.1	25.6	0.00e+00	123	28	0	1353711616	38	5645
2026-01-12 15:19:29.98	268.67	64.67	-33.6	-34.6	24.4	0.00e+00	122	28	0	1366294528	38	6668
2026-01-12 15:19:34.02	264.98	63.75	-34.0	-34.9	24.5	0.00e+00	123	28	0	1378877440	40	6163
2026-01-12 15:19:38.05	261.58	62.75	-32.5	-33.4	25.4	0.00e+00	123	29	0	1391460352	38	5824
2026-01-12 15:19:42.08	258.47	61.68	-33.8	-34.7	24.7	0.00e+00	122	28	0	1405091840	40	6046
2026-01-12 15:19:46.12	255.61	60.57	-34.3	-35.2	24.2	0.00e+00	122	28	0	1416626176	40	6401
2026-01-12 15:19:50.17	252.99	59.41	-32.7	-33.6	24.4	0.00e+00	123	28	0	1430257664	38	5928
2026-01-12 15:19:54.20	250.61	58.23	-34.2	-35.2	23.7	0.00e+00	123	28	0	1442840576	40	6375
2026-01-12 15:19:58.23	248.43	57.03	-33.8	-34.7	24.6	0.00e+00	122	28	0	1455423488	42	5357
2026-01-12 15:20:02.27	246.44	55.82	-34.4	-35.3	24.1	0.00e+00	123	28	0	1468006400	40	6486
2026-01-12 15:20:06.31	244.60	54.60	-33.2	-34.1	24.3	0.00e+00	122	28	0	1480589312	40	5610
2026-01-12 15:20:10.34	242.93	53.39	-35.6	-36.6	23.0	0.00e+00	120	28	0	1493172224	44	5954
2026-01-12 15:20:14.38	241.38	52.18	-35.6	-36.6	22.9	0.00e+00	120	28	0	1505755136	44	5948
2026-01-12 15:20:18.42	239.96	50.98	-34.8	-35.7	23.4	0.00e+00	122	28	0	1518338048	42	6010
2026-01-12 15:20:22.46	238.65	49.79	-34.8	-35.7	22.9	0.00e+00	120	28	0	1530920960	42	6037
2026-01-12 15:20:26.49	237.43	48.62	-35.3	-36.3	22.4	0.00e+00	120	28	0	1543503872	42	6460
2026-01-12 15:20:30.53	236.31	47.47	-37.1	-38.2	21.6	0.00e+00	122	28	0	1556086784	46	6422
2026-01-12 15:20:34.57	235.26	46.34	-36.9	-38.0	22.1	0.00e+00	123	28	0	1568669696	48	5573
2026-01-12 15:20:38.61	234.29	45.22	-35.5	-36.5	23.2	0.00e+00	123	28	0	1581252608	44	5894
2026-01-12 15:20:42.65	233.38	44.13	-35.4	-36.4	23.2	0.00e+00	122	28	0	1593835520	44	5843
2026-01-12 15:20:46.68	232.54	43.06	-37.4	-38.6	21.3	0.00e+00	123	28	0	1606418432	46	6692
2026-01-12 15:20:50.72	231.75	42.01	-35.5	-36.5	23.2	0.00e+00	122	28	0	1619001344	44	5880
2026-01-12 15:20:54.76	231.00	40.99	-35.8	-36.9	22.4	0.00e+00	123	28	0	1631584256	44	6147
2026-01-12 15:20:58.79	230.31	39.99	-35.7	-36.8	22.7	0.00e+00	122	28	0	1644167168	44	6067
2026-01-12 15:21:02.83	229.66	39.01	-36.6	-37.7	22.2	0.00e+00	122	28	0	1656750080	44	6743
2026-01-12 15:21:06.87	229.04	38.06	-35.9	-36.9	22.9	0.00e+00	123	28	0	1669332992	44	6173
2026-01-12 15:21:10.90	228.46	37.13	-36.2	-37.3	22.6	0.00e+00	122	28	0	1681915904	44	6424
2026-01-12 15:21:14.94	227.91	36.22	-35.7	-36.8	22.6	0.00e+00	123	28	0	1694498816	44	6078
2026-01-12 15:21:18.97	227.39	35.33	-35.7	-36.7	22.6	0.00e+00	122	28	0	1707081728	44	6053
2026-01-12 15:21:23.00	226.91	34.47	-35.1	-36.0	23.6	0.00e+00	122	28	0	1719664640	44	5587
2026-01-12 15:21:27.04	226.44	33.62	-35.0	-36.0	23.5	0.00e+00	122	28	0	1732247552	44	5583
2026-01-12 15:21:31.07	226.00	32.80	-35.5	-36.5	23.1	0.00e+00	123	28	0	1744830464	44	5884
2026-01-12 15:21:35.11	225.58	32.00	-34.8	-35.8	23.4	0.00e+00	120	28	0	1757413376	44	5423
2026-01-12 15:21:39.15	225.18	31.21	-34.4	-35.3	23.7	0.00e+00	122	28	0	1769996288	42	5779
2026-01-12 15:21:43.19	224.80	30.45	-34.0	-34.9	24.3	0.00e+00	120	28	0	1782579200	42	5515
2026-01-12 15:21:47.22	224.44	29.70	-33.5	-34.4	24.7	0.00e+00	123	28	0	1795162112	40	5825
2026-01-12 15:21:51.26	224.10	28.97	-33.6	-34.5	24.6	0.00e+00	123	28	0	1807745024	40	5873
2026-01-12 15:21:55.29	223.77	28.26	-34.0	-34.9	24.4	0.00e+00	122	28	0	1821376512	40	6169
2026-01-12 15:21:59.33	223.46	27.56	-34.4	-35.3	24.0	0.00e+00	122	28	0	1833959424	40	6475
2026-01-12 15:22:03.37	223.16	26.88	-34.2	-35.1	24.1	0.00e+00	122	28	0	1846542336	40	6313
2026-01-12 15:22:07.40	222.87	26.22	-33.7	-34.6	24.4	0.00e+00	122	28	0	1859125248	40	5983
2026-01-12 15:22:11.44	222.59	25.57	-33.3	-34.1	24.7	0.00e+00	123	28	0	1871708160	40	5656
2026-01-12 15:22:15.47	222.33	24.94	-33.2	-34.1	24.9	0.00e+00	122	28	0	1884291072	40	5609
2026-01-12 15:22:19.51	222.08	24.32	-33.4	-34.3	24.7	0.00e+00	123	28	0	1896873984	40	5731
2026-01-12 15:22:23.55	221.83	23.71	-33.5	-34.4	23.5	0.00e+00	123	28	0	1909456896	40	5840
2026-01-12 15:22:27.58	221.60	23.12	-33.6	-34.5	24.6	0.00e+00	120	28	0	1922039808	40	5864
2026-01-12 15:22:31.62	221.37	22.54	-33.7	-34.6	24.5	0.00e+00	123	28	0	1934622720	40	5976
2026-01-12 15:22:35.66	221.16	21.97	-33.7	-34.6	24.5	0.00e+00	120	28	0	1947205632	40	5968
2026-01-12 15:22:39.69	220.95	21.42	-33.7	-34.5	24.6	0.00e+00	123	28	0	1959788544	40	5923
2026-01-12 15:22:43.73	220.75	20.88	-33.7	-34.6	24.6	0.00e+00	123	28	0	1972371456	40	5977
2026-01-12 15:22:47.77	220.56	20.34	-33.8	-34.7	24.5	0.00e+00	123	28	0	1984954368	40	6039
2026-01-12 15:22:51.81	220.37	19.82	-34.1	-35.0	24.2	0.00e+00	122	28	0	1997537280	40	6274
2026-01-12 15:22:55.84	220.19	19.31	-33.9	-34.8	24.4	0.00e+00	123	28	0	2010120192	40	6130
2026-01-12 15:22:59.88	220.02	18.81	-34.2	-35.1	24.1	0.00e+00	123	28	0	2022703104	40	6328
2026-01-12 15:23:03.92	219.85	18.31	-34.2	-35.2	24.0	0.00e+00	122	28	0	2035286016	40	6375
2026-01-12 15:23:07.96	219.69	17.83	-34.3	-35.2	24.0	0.00e+00	122	28	0	2047868928	40	6391
2026-01-12 15:23:11.99	219.53	17.36	-34.4	-35.3	24.0	0.00e+00	123	28	0	2060451840	40	6480
2026-01-12 15:23:16.03	219.38	16.89	-34.6	-35.6	23.7	0.00e+00	123	28	0	2073034752	40	6670
2026-01-12 15:23:20.07	219.24	16.44	-35.0	-36.0	23.4	0.00e+00	122	28	0	2085617664	42	6223
2026-01-12 15:23:24.11	219.10	15.99	-35.2	-36.2	23.2	0.00e+00	123	28	0	2098200576	42	6356
2026-01-12 15:23:28.14	218.96	15.55	-35.2	-36.2	23.2	0.00e+00	122	28	0	2110783488	42	6365
2026-01-12 15:23:32.19	218.83	15.11	-35.1	-36.0	23.3	0.00e+00	120	28	0	2123366400	42	6239
2026-01-12 15:23:36.22	218.70	14.69	-35.1	-36.0	23.3	0.00e+00	123	28	0	2135949312	42	6274
2026-01-12 15:23:40.26	218.57	14.27	-35.0	-35.9	23.4	0.00e+00	123	28	0	2148532224	42	6190
2026-01-12 15:23:44.30	218.45	13.86	-35.0	-36.0	23.3	0.00e+00	122	28	0	2161115136	42	6226
2026-01-12 15:23:48.34	218.33	13.46	-35.2	-36.1	23.2	0.00e+00	123	28	0	2173698048	42	6328
2026-01-12 15:23:52.38	218.22	13.06	-35.1	-36.1	23.2	0.00e+00	122	28	0	2187329536	42	6285
2026-01-12 15:23:56.41	218.11	12.67	-35.0	-36.0	23.3	0.00e+00	123	28	0	2198863872	42	6233
2026-01-12 15:24:00.45	218.00	12.28	-35.2	-36.1	23.3	0.00e+00	123	28	0	2211446784	42	6315
2026-01-12 15:24:04.49	217.90	11.90	-35.2	-36.2	23.2	0.00e+00	120	28	0	2225078272	42	6390
2026-01-12 15:24:08.53	217.80	11.53	-35.2	-36.2	23.1	0.00e+00	121	28	0	2237661184	42	6388
2026-01-12 15:24:12.57	217.70	11.16	-35.3	-36.3	23.1	0.00e+00	123	28	0	2250244096	42	6424
2026-01-12 15:24:16.60	217.60	10.79	-35.3	-36.3	22.9	0.00e+00	122	28	0	2262827008	42	6447
2026-01-12 15:24:20.64	217.51	10.44	-35.4	-36.4	22.8	0.00e+00	121	28	0	2275409920	42	6541
2026-01-12 15:24:24.68	217.42	10.08	-35.6	-36.5	22.7	0.00e+00	123	28	0	2287992832	44	5926
2026-01-12 15:24:28.72	217.33	9.73	-35.8	-36.8	22.4	0.00e+00	122	28	0	2300575744	44	6072
2026-01-12 15:24:32.75	217.25	9.39	-35.5	-36.5	22.7	0.00e+00	122	28	0	2313158656	44	5874
2026-01-12 15:24:36.79	217.16	9.05	-35.6	-36.6	22.5	0.00e+00	123	28	0	2325741568	44	5955
2026-01-12 15:24:40.83	217.08	8.72	-35.6	-36.6	22.4	0.00e+00	120	28	0	2338324480	44	5978
2026-01-12 15:24:44.87	217.00	8.39	-33.3	-36.6	19.0	1.91e-02	120	28	0	2350907392	38	8453
2026-01-12 15:24:48.90	216.93	8.06	-35.7	-36.7	22.2	0.00e+00	123	28	0	2363490304	44	6034
2026-01-12 15:24:52.94	216.85	7.74	-35.9	-36.9	22.0	0.00e+00	123	28	0	2376073216	44	6205
2026-01-12 15:24:56.97	216.78	7.42	-35.9	-36.9	22.1	0.00e+00	123	28	0	2388656128	44	6180
2026-01-12 15:25:01.01	216.71	7.11	-36.2	-37.2	21.7	0.00e+00	120	28	0	2401239040	44	6389
2026-01-12 15:25:05.04	216.64	6.80	-36.2	-37.2	21.7	0.00e+00	123	28	0	2413821952	44	6411
2026-01-12 15:25:09.08	216.57	6.49	-36.4	-37.4	21.5	0.00e+00	123	28	0	2426404864	44	6550
2026-01-12 15:25:13.12	216.50	6.19	-36.4	-37.5	21.5	0.00e+00	123	28	0	2438987776	44	6577
2026-01-12 15:25:17.16	216.44	5.89	-36.6	-37.6	21.2	0.00e+00	122	28	0	2451570688	44	6705
2026-01-12 15:25:21.19	216.37	5.60	-36.9	-38.0	21.0	0.00e+00	123	28	0	2464153600	46	6220
2026-01-12 15:25:25.23	216.31	5.30	-36.9	-38.0	21.1	0.00e+00	122	28	0	2476736512	46	6212
2026-01-12 15:25:29.26	216.25	5.01	-37.1	-38.3	20.8	0.00e+00	123	28	0	2489319424	46	6435
2026-01-12 15:25:33.31	216.19	4.73	-37.1	-38.2	20.8	0.00e+00	121	28	0	2501902336	46	6411
2026-01-12 15:25:37.34	216.14	4.44	-37.0	-38.1	20.8	0.00e+00	120	28	0	2514485248	46	6342
2026-01-12 15:25:41.38	216.08	4.16	-37.4	-38.5	20.4	0.00e+00	122	28	0	2527068160	48	5917
2026-01-12 15:25:45.43	216.02	3.88	-37.6	-38.7	20.0	0.00e+00	123	28	0	2539651072	48	6064
2026-01-12 15:25:49.47	215.97	3.61	-37.8	-39.1	19.9	0.00e+00	122	28	0	2552233984	48	6286
2026-01-12 15:25:53.50	215.92	3.34	-37.8	-39.0	19.8	0.00e+00	122	28	0	2564816896	48	6256
2026-01-12 15:25:57.53	215.87	3.07	-38.2	-39.5	19.3	0.00e+00	122	28	0	2577399808	48	6602
2026-01-12 15:26:01.57	215.82	2.80	-48.2	-61.1	3.5	1.51e+00	0	28	104	2580545536	60	40020
2026-01-12 15:26:05.61	215.77	2.53	-48.4	-61.3	3.5	1.52e+00	0	28	104	2580545536	60	40850
2026-01-12 15:26:09.65	215.72	2.27	-48.2	-61.2	3.5	1.52e+00	0	28	104	2580545536	60	40269
2026-01-12 15:26:13.69	215.67	2.01	-48.3	-61.1	3.5	1.52e+00	0	28	104	2580545536	60	40045
2026-01-12 15:26:17.72	215.63	1.76	-48.4	-61.3	3.5	1.52e+00	0	28	104	2580545536	60	40570
2026-01-12 15:26:21.77	215.58	1.50	-48.4	-61.2	3.5	1.52e+00	0	28	104	2580545536	60	40522
2026-01-12 15:26:25.80	215.54	1.25	-48.4	-61.3	3.5	1.51e+00	0	28	104	2580545536	60	40569
2026-01-12 15:26:29.84	215.50	1.00	-48.4	-61.2	3.5	1.52e+00	0	28	104	2580545536	60	40477
2026-01-12 15:26:33.88	215.45	0.75	-48.3	-61.2	3.5	1.52e+00	0	28	104	2580545536	60	40232
2026-01-12 15:26:37.92	215.41	0.50	-48.6	-61.5	3.5	1.52e+00	0	28	104	2580545536	60	41483
2026-01-12 15:26:41.96	215.37	0.26	-48.4	-61.3	3.5	1.52e+00	0	28	104	2580545536	60	40860
2026-01-12 15:26:46.00	215.33	0.01	-48.7	-61.5	3.5	1.51e+00	0	28	104	2580545536	60	41887

#Closed at: 2026-01-12 15:26:46
#Recorded file [2580 MB]: D:/lorett/data/35029_260113_031121.dat