passes_logs/2026/01/12/R4.6S_Anadyr/R4.6S_Anadyr__20260112_122007_SUOMI_NPP_rec.log

#Pass ID: 20260112_122007_SUOMI NPP
#Satellite: SUOMI NPP
#Configuration: NPP
#almurnet v.1.7.20251203
#Start time: 2026-01-12 12:20:10

#Version: 2.2.20231116
#Station: R4.6S_Anadyr
#Location: 177.4865 lon 64.73178 lat
#TLE: 1 37849U 11061A   26011.57971124  .00000103  00000+0  69927-4 0  9996
#TLE: 2 37849  98.7807 313.6578 0002518  69.5076 290.6370 14.19524515736228

#Time	Az	El	Level	Level2	SNR	BER	BlckErr	Temp	State	Recorded	gain1	gain2
2026-01-12 12:20:10.65	19.42	0.13	-48.5	-61.1	3.5	1.52e+00	0	25	0	0	60	39762
2026-01-12 12:20:14.69	19.73	0.32	-48.6	-63.8	3.6	1.51e+00	0	26	104	0	60	55852
2026-01-12 12:20:18.73	20.05	0.52	-48.4	-63.6	3.6	1.51e+00	0	26	104	0	60	54650
2026-01-12 12:20:22.77	20.37	0.71	-48.1	-63.2	3.6	1.51e+00	0	26	104	0	60	52386
2026-01-12 12:20:26.81	20.70	0.91	-47.0	-62.1	3.6	1.51e+00	0	26	104	0	60	45887
2026-01-12 12:20:30.85	21.03	1.10	-46.6	-61.9	3.6	1.51e+00	0	26	104	0	60	44978
2026-01-12 12:20:34.89	21.36	1.30	-46.7	-61.8	3.6	1.51e+00	0	26	104	0	60	44539
2026-01-12 12:20:38.93	21.70	1.49	-46.7	-61.9	3.6	1.51e+00	0	26	104	0	60	45090
2026-01-12 12:20:42.97	22.04	1.69	-46.7	-61.9	3.6	1.51e+00	0	26	104	0	60	45008
2026-01-12 12:20:47.01	22.39	1.89	-46.7	-61.8	3.6	1.51e+00	0	27	104	0	60	44603
2026-01-12 12:20:51.05	22.74	2.09	-46.7	-61.8	3.6	1.51e+00	0	27	104	0	60	44676
2026-01-12 12:20:55.09	23.10	2.29	-46.6	-61.7	3.6	1.51e+00	0	27	104	0	60	44001
2026-01-12 12:20:59.13	23.46	2.48	-46.6	-60.2	3.6	1.51e+00	0	27	104	0	60	36899
2026-01-12 12:21:03.17	23.82	2.68	-43.8	-47.2	13.5	3.05e-05	0	27	0	5242880	60	8289
2026-01-12 12:21:07.21	24.19	2.89	-42.2	-44.6	16.2	0.00e+00	0	27	0	12582912	58	6881
2026-01-12 12:21:11.25	24.56	3.09	-42.8	-45.4	15.4	0.00e+00	0	27	0	19922944	58	7579
2026-01-12 12:21:15.29	24.94	3.29	-44.5	-48.3	13.0	1.14e+00	0	27	104	23068672	60	9350
2026-01-12 12:21:19.33	25.33	3.49	-41.1	-42.8	18.2	0.00e+00	0	27	0	29360128	56	6314
2026-01-12 12:21:23.37	25.72	3.69	-40.5	-42.1	18.8	0.00e+00	0	27	0	37748736	54	6534
2026-01-12 12:21:27.41	26.11	3.89	-39.6	-40.9	19.9	0.00e+00	0	27	0	45088768	52	6383
2026-01-12 12:21:31.45	26.51	4.10	-39.5	-40.8	20.2	0.00e+00	0	27	0	52428800	52	6270
2026-01-12 12:21:35.48	26.91	4.30	-39.7	-41.0	19.9	0.00e+00	0	27	0	59768832	52	6464
2026-01-12 12:21:39.52	27.32	4.50	-39.8	-41.2	19.8	0.00e+00	0	27	0	67108864	52	6582
2026-01-12 12:21:43.56	27.74	4.71	-40.0	-41.5	19.6	0.00e+00	0	27	0	75497472	52	6778
2026-01-12 12:21:47.60	28.16	4.91	-40.2	-41.7	19.4	0.00e+00	0	27	0	82837504	52	6950
2026-01-12 12:21:51.63	28.59	5.12	-39.7	-41.1	20.0	0.00e+00	0	27	0	90177536	52	6467
2026-01-12 12:21:55.67	29.02	5.32	-39.7	-41.1	19.9	0.00e+00	0	27	0	97517568	52	6495
2026-01-12 12:21:59.70	29.46	5.53	-39.4	-40.7	20.3	0.00e+00	0	27	0	104857600	52	6220
2026-01-12 12:22:03.74	29.90	5.74	-39.1	-40.4	20.7	0.00e+00	0	27	0	113246208	52	5971
2026-01-12 12:22:07.78	30.35	5.94	-39.3	-40.5	20.6	0.00e+00	0	27	0	120586240	52	6071
2026-01-12 12:22:11.82	30.81	6.15	-39.2	-40.5	20.6	0.00e+00	0	27	0	127926272	50	6770
2026-01-12 12:22:15.86	31.27	6.35	-39.3	-40.6	20.5	0.00e+00	0	27	0	135266304	50	6854
2026-01-12 12:22:19.90	31.74	6.56	-38.7	-39.8	21.3	0.00e+00	0	27	0	143654912	50	6292
2026-01-12 12:22:23.94	32.22	6.77	-38.5	-39.7	21.3	0.00e+00	0	27	0	150994944	50	6184
2026-01-12 12:22:27.97	32.70	6.97	-38.7	-39.8	20.9	0.00e+00	0	27	0	158334976	50	6291
2026-01-12 12:22:32.02	33.19	7.18	-38.7	-39.9	21.3	0.00e+00	0	27	0	165675008	50	6337
2026-01-12 12:22:36.05	33.68	7.39	-38.8	-40.0	21.2	0.00e+00	0	27	0	173015040	50	6398
2026-01-12 12:22:40.09	34.18	7.59	-39.0	-40.2	21.0	0.00e+00	0	27	0	181403648	50	6593
2026-01-12 12:22:44.13	34.69	7.80	-38.8	-40.0	21.3	0.00e+00	0	27	0	188743680	50	6408
2026-01-12 12:22:48.17	35.21	8.01	-38.8	-39.9	21.2	0.00e+00	0	27	0	196083712	50	6380
2026-01-12 12:22:52.20	35.73	8.21	-38.8	-40.0	21.2	0.00e+00	0	27	0	203423744	50	6425
2026-01-12 12:22:56.24	36.26	8.42	-38.3	-39.4	21.7	0.00e+00	0	27	0	211812352	50	5973
2026-01-12 12:23:00.28	36.80	8.62	-38.1	-39.1	22.1	0.00e+00	0	27	0	219152384	50	5813
2026-01-12 12:23:04.31	37.34	8.83	-38.0	-39.1	22.1	0.00e+00	0	27	0	226492416	50	5799
2026-01-12 12:23:08.34	37.89	9.03	-37.7	-38.7	22.3	0.00e+00	0	27	0	233832448	48	6244
2026-01-12 12:23:12.38	38.45	9.23	-37.0	-38.0	23.0	0.00e+00	0	27	0	241172480	48	5702
2026-01-12 12:23:16.42	39.02	9.44	-37.4	-38.3	22.7	0.00e+00	0	27	0	249561088	48	5963
2026-01-12 12:23:20.46	39.59	9.64	-37.8	-38.8	22.3	0.00e+00	0	27	0	256901120	48	6287
2026-01-12 12:23:24.49	40.17	9.84	-37.4	-38.4	22.6	0.00e+00	0	27	0	264241152	48	5986
2026-01-12 12:23:28.53	40.76	10.04	-37.5	-38.5	22.6	0.00e+00	0	27	0	271581184	48	6088
2026-01-12 12:23:32.56	41.36	10.24	-37.7	-38.7	22.4	0.00e+00	0	27	0	279969792	48	6236
2026-01-12 12:23:36.60	41.96	10.44	-37.7	-38.7	22.4	0.00e+00	0	27	0	287309824	48	6220
2026-01-12 12:23:40.64	42.58	10.63	-37.5	-38.5	22.5	0.00e+00	0	27	0	294649856	48	6060
2026-01-12 12:23:44.68	43.20	10.83	-37.6	-38.7	22.5	0.00e+00	0	27	0	301989888	48	6182
2026-01-12 12:23:48.72	43.83	11.02	-37.4	-38.4	22.7	0.00e+00	0	27	0	309329920	48	5978
2026-01-12 12:23:52.75	44.47	11.21	-37.7	-38.7	22.5	0.00e+00	0	27	0	317718528	48	6216
2026-01-12 12:23:56.79	45.11	11.41	-38.1	-39.2	22.0	0.00e+00	0	27	0	325058560	48	6551
2026-01-12 12:24:00.83	45.77	11.59	-37.6	-38.6	22.5	0.00e+00	0	27	0	332398592	48	6159
2026-01-12 12:24:04.86	46.43	11.78	-37.9	-39.0	22.2	0.00e+00	0	27	0	339738624	48	6403
2026-01-12 12:24:08.90	47.10	11.97	-38.1	-39.2	22.1	0.00e+00	0	27	0	348127232	48	6606
2026-01-12 12:24:12.94	47.78	12.15	-38.3	-39.4	21.9	0.00e+00	0	27	0	355467264	48	6737
2026-01-12 12:24:16.98	48.47	12.33	-38.2	-39.2	22.0	0.00e+00	0	27	0	362807296	48	6606
2026-01-12 12:24:21.02	49.16	12.51	-38.3	-39.4	21.9	0.00e+00	0	27	0	370147328	48	6696
2026-01-12 12:24:25.05	49.86	12.68	-38.8	-40.0	21.5	0.00e+00	0	27	0	377487360	50	6423
2026-01-12 12:24:29.09	50.57	12.86	-38.9	-40.0	21.5	0.00e+00	0	27	0	385875968	50	6461
2026-01-12 12:24:33.13	51.29	13.03	-39.0	-40.2	21.3	0.00e+00	0	27	0	393216000	50	6547
2026-01-12 12:24:37.17	52.02	13.19	-39.5	-40.7	20.7	0.00e+00	0	27	0	400556032	50	6950
2026-01-12 12:24:41.21	52.76	13.36	-39.5	-40.7	20.9	0.00e+00	0	27	0	407896064	50	6947
2026-01-12 12:24:45.25	53.50	13.52	-39.9	-41.2	20.4	0.00e+00	0	27	0	416284672	52	6581
2026-01-12 12:24:49.29	54.25	13.68	-39.5	-40.7	21.0	0.00e+00	0	27	0	423624704	52	6236
2026-01-12 12:24:53.33	55.01	13.83	-39.5	-40.7	20.9	0.00e+00	0	27	0	430964736	52	6200
2026-01-12 12:24:57.37	55.78	13.98	-39.7	-41.0	20.5	0.00e+00	0	27	0	438304768	52	6420
2026-01-12 12:25:01.41	56.55	14.13	-39.3	-40.5	21.1	0.00e+00	0	27	0	445644800	52	6091
2026-01-12 12:25:05.44	57.33	14.27	-38.9	-40.0	21.4	0.00e+00	0	27	0	454033408	52	5756
2026-01-12 12:25:09.48	58.12	14.41	-37.9	-38.9	22.5	0.00e+00	0	27	0	461373440	48	6342
2026-01-12 12:25:13.52	58.92	14.54	-37.4	-38.3	23.0	0.00e+00	0	27	0	468713472	48	5947
2026-01-12 12:25:17.56	59.72	14.67	-37.4	-38.4	22.9	0.00e+00	0	27	0	476053504	48	5966
2026-01-12 12:25:21.60	60.53	14.80	-37.8	-38.8	21.8	0.00e+00	0	27	0	484442112	48	6277
2026-01-12 12:25:25.64	61.35	14.92	-37.4	-38.4	22.7	0.00e+00	0	27	0	491782144	48	5974
2026-01-12 12:25:29.68	62.17	15.04	-38.1	-39.2	22.2	0.00e+00	0	27	0	499122176	48	6561
2026-01-12 12:25:33.72	63.00	15.15	-37.7	-38.7	22.6	0.00e+00	0	27	0	506462208	48	6212
2026-01-12 12:25:37.76	63.84	15.25	-37.7	-38.7	22.6	0.00e+00	0	27	0	513802240	48	6197
2026-01-12 12:25:41.80	64.68	15.35	-38.1	-39.2	22.2	0.00e+00	0	27	0	522190848	48	6552
2026-01-12 12:25:45.83	65.52	15.45	-38.5	-39.6	21.8	0.00e+00	0	27	0	529530880	48	6903
2026-01-12 12:25:49.87	66.38	15.54	-39.2	-40.3	21.3	0.00e+00	0	27	0	536870912	50	6686
2026-01-12 12:25:53.91	67.23	15.62	-37.2	-38.2	23.0	0.00e+00	0	27	0	544210944	48	5843
2026-01-12 12:25:57.95	68.09	15.70	-38.2	-39.5	22.0	0.00e+00	0	27	0	552599552	48	6789
2026-01-12 12:26:01.99	68.96	15.77	-37.1	-38.1	23.0	0.00e+00	0	27	0	559939584	48	5823
2026-01-12 12:26:06.02	69.83	15.84	-37.6	-38.6	22.7	0.00e+00	0	27	0	567279616	48	6139
2026-01-12 12:26:10.06	70.70	15.90	-37.5	-38.4	22.8	0.00e+00	0	27	0	574619648	48	6015
2026-01-12 12:26:14.10	71.57	15.95	-38.4	-39.5	21.6	0.00e+00	0	27	0	581959680	48	6834
2026-01-12 12:26:18.14	72.45	16.00	-38.3	-39.3	22.1	0.00e+00	0	27	0	590348288	48	6658
2026-01-12 12:26:22.18	73.34	16.04	-39.0	-40.1	21.5	0.00e+00	0	27	0	597688320	50	6523
2026-01-12 12:26:26.22	74.22	16.08	-38.5	-39.7	21.8	0.00e+00	0	27	0	605028352	50	6194
2026-01-12 12:26:30.25	75.10	16.10	-38.2	-39.3	22.0	0.00e+00	0	27	0	612368384	50	5928
2026-01-12 12:26:34.29	75.99	16.13	-37.9	-38.9	22.4	0.00e+00	0	27	0	620756992	50	5671
2026-01-12 12:26:38.33	76.88	16.14	-38.1	-39.2	22.2	0.00e+00	0	27	0	628097024	48	6559
2026-01-12 12:26:42.37	77.77	16.15	-37.0	-38.0	23.2	0.00e+00	0	27	0	635437056	48	5724
2026-01-12 12:26:46.41	78.66	16.15	-37.7	-38.8	22.5	0.00e+00	0	27	0	642777088	48	6257
2026-01-12 12:26:50.44	79.55	16.15	-37.4	-38.4	22.8	0.00e+00	0	27	0	650117120	48	6004
2026-01-12 12:26:54.48	80.44	16.14	-37.9	-39.0	22.3	0.00e+00	0	27	0	658505728	48	6449
2026-01-12 12:26:58.51	81.32	16.12	-37.5	-38.5	22.8	0.00e+00	0	27	0	665845760	48	6038
2026-01-12 12:27:02.55	82.21	16.10	-37.5	-38.5	22.6	0.00e+00	0	27	0	673185792	48	6101
2026-01-12 12:27:06.59	83.10	16.07	-38.4	-39.5	21.9	0.00e+00	0	27	0	680525824	48	6776
2026-01-12 12:27:10.63	83.98	16.04	-37.4	-38.5	22.8	0.00e+00	0	27	0	688914432	48	6034
2026-01-12 12:27:14.67	84.87	15.99	-37.3	-38.4	22.9	0.00e+00	0	27	0	696254464	48	5994
2026-01-12 12:27:18.71	85.75	15.95	-37.7	-38.8	22.5	0.00e+00	0	27	0	703594496	48	6273
2026-01-12 12:27:22.75	86.62	15.89	-37.8	-38.8	22.6	0.00e+00	0	27	0	710934528	48	6272
2026-01-12 12:27:26.79	87.50	15.83	-37.6	-38.6	22.6	0.00e+00	0	27	0	718274560	48	6162
2026-01-12 12:27:30.82	88.36	15.76	-36.8	-37.8	23.3	0.00e+00	0	27	0	726663168	48	5584
2026-01-12 12:27:34.86	89.23	15.69	-36.8	-37.7	23.3	0.00e+00	0	27	0	734003200	46	6213
2026-01-12 12:27:38.90	90.09	15.61	-36.7	-37.6	23.4	0.00e+00	0	27	0	741343232	46	6159
2026-01-12 12:27:42.93	90.95	15.53	-37.3	-38.4	22.9	0.00e+00	0	27	0	748683264	46	6720
2026-01-12 12:27:46.98	91.80	15.44	-36.9	-37.9	23.1	0.00e+00	0	27	0	757071872	46	6335
2026-01-12 12:27:51.01	92.65	15.34	-37.1	-38.1	23.0	0.00e+00	0	27	0	764411904	46	6501
2026-01-12 12:27:55.05	93.49	15.24	-36.7	-37.7	23.3	0.00e+00	0	27	0	771751936	46	6176
2026-01-12 12:27:59.09	94.33	15.13	-36.2	-37.2	23.6	0.00e+00	0	27	0	779091968	46	5851
2026-01-12 12:28:03.13	95.16	15.02	-36.4	-37.3	23.7	0.00e+00	0	27	0	786432000	46	5915
2026-01-12 12:28:07.17	95.98	14.90	-36.7	-37.6	23.3	0.00e+00	0	27	0	794820608	46	6133
2026-01-12 12:28:11.20	96.80	14.78	-36.9	-37.8	23.3	0.00e+00	0	27	0	802160640	46	6273
2026-01-12 12:28:15.24	97.61	14.66	-36.8	-37.8	23.4	0.00e+00	0	27	0	809500672	46	6297
2026-01-12 12:28:19.28	98.42	14.53	-36.6	-37.5	23.4	0.00e+00	0	27	0	816840704	46	6074
2026-01-12 12:28:23.32	99.22	14.39	-36.5	-37.4	23.5	0.00e+00	0	27	0	825229312	46	6031
2026-01-12 12:28:27.35	100.00	14.25	-37.0	-37.9	23.1	0.00e+00	0	27	0	832569344	46	6376
2026-01-12 12:28:31.39	100.79	14.11	-36.9	-37.9	23.2	0.00e+00	0	27	0	839909376	46	6322
2026-01-12 12:28:35.43	101.56	13.96	-37.7	-38.8	22.3	0.00e+00	0	27	0	847249408	48	6256
2026-01-12 12:28:39.47	102.33	13.81	-38.1	-39.3	22.0	0.00e+00	0	27	0	854589440	48	6664
2026-01-12 12:28:43.51	103.09	13.65	-37.7	-38.9	22.4	0.00e+00	0	27	0	862978048	48	6344
2026-01-12 12:28:47.55	103.85	13.49	-38.2	-39.4	22.0	0.00e+00	0	27	0	870318080	48	6693
2026-01-12 12:28:51.58	104.59	13.33	-38.4	-39.6	21.5	0.00e+00	0	27	0	877658112	48	6919
2026-01-12 12:28:55.62	105.33	13.16	-38.3	-39.3	21.8	0.00e+00	0	27	0	884998144	48	6677
2026-01-12 12:28:59.66	106.06	13.00	-38.4	-39.8	21.6	0.00e+00	0	27	0	892338176	48	7019
2026-01-12 12:29:03.70	106.78	12.82	-39.1	-40.5	20.9	0.00e+00	0	27	0	900726784	50	6844
2026-01-12 12:29:07.74	107.49	12.65	-39.2	-40.6	20.7	0.00e+00	0	27	0	908066816	50	6881
2026-01-12 12:29:11.77	108.20	12.47	-38.4	-39.5	21.8	0.00e+00	0	27	0	915406848	50	6057
2026-01-12 12:29:15.81	108.89	12.29	-38.3	-39.4	21.9	0.00e+00	0	27	0	922746880	50	6027
2026-01-12 12:29:19.85	109.58	12.11	-38.8	-40.0	21.2	0.00e+00	0	27	0	931135488	50	6392
2026-01-12 12:29:23.89	110.26	11.93	-38.9	-40.1	21.3	0.00e+00	0	27	0	938475520	50	6483
2026-01-12 12:29:27.93	110.93	11.74	-38.9	-40.3	21.1	0.00e+00	0	27	0	945815552	50	6684
2026-01-12 12:29:31.96	111.60	11.55	-38.8	-39.9	21.2	0.00e+00	0	27	0	953155584	50	6385
2026-01-12 12:29:36.00	112.25	11.36	-38.4	-39.9	21.4	0.00e+00	0	27	0	960495616	50	6324
2026-01-12 12:29:40.04	112.90	11.17	-38.2	-39.4	21.7	0.00e+00	0	27	0	968884224	50	6025
2026-01-12 12:29:44.08	113.54	10.97	-37.9	-39.0	22.1	0.00e+00	0	27	0	976224256	50	5704
2026-01-12 12:29:48.11	114.17	10.78	-38.0	-39.1	22.1	0.00e+00	0	27	0	983564288	50	5801
2026-01-12 12:29:52.15	114.79	10.58	-37.9	-39.0	22.1	0.00e+00	0	27	0	990904320	50	5704
2026-01-12 12:29:56.19	115.41	10.38	-37.7	-38.7	22.3	0.00e+00	0	27	0	999292928	48	6209
2026-01-12 12:30:00.23	116.01	10.18	-38.0	-39.1	22.1	0.00e+00	0	27	0	1006632960	48	6504
2026-01-12 12:30:04.26	116.61	9.98	-37.9	-38.9	22.2	0.00e+00	0	27	0	1013972992	48	6387
2026-01-12 12:30:08.30	117.20	9.78	-37.4	-38.4	22.6	0.00e+00	0	27	0	1021313024	48	5967
2026-01-12 12:30:12.34	117.79	9.58	-37.1	-38.1	22.8	0.00e+00	0	27	0	1028653056	48	5822
2026-01-12 12:30:16.37	118.36	9.37	-37.6	-38.7	22.4	0.00e+00	0	27	0	1037041664	48	6174
2026-01-12 12:30:20.41	118.93	9.17	-38.2	-39.3	21.8	0.00e+00	0	27	0	1044381696	48	6622
2026-01-12 12:30:24.45	119.49	8.96	-38.3	-39.5	21.7	0.00e+00	0	27	0	1051721728	48	6779
2026-01-12 12:30:28.49	120.04	8.76	-38.2	-39.3	21.6	0.00e+00	0	27	0	1059061760	48	6647
2026-01-12 12:30:32.52	120.58	8.55	-37.5	-38.5	22.4	0.00e+00	0	27	0	1067450368	48	6089
2026-01-12 12:30:36.56	121.12	8.34	-37.8	-38.9	22.1	0.00e+00	0	27	0	1074790400	48	6346
2026-01-12 12:30:40.60	121.65	8.14	-38.6	-39.7	21.5	0.00e+00	0	27	0	1082130432	48	6963
2026-01-12 12:30:44.63	122.17	7.93	-38.5	-39.6	21.5	0.00e+00	0	27	0	1089470464	50	6126
2026-01-12 12:30:48.68	122.69	7.72	-38.5	-39.7	21.4	0.00e+00	0	27	0	1096810496	50	6211
2026-01-12 12:30:52.71	123.20	7.51	-39.0	-40.2	20.8	0.00e+00	0	27	0	1105199104	50	6606
2026-01-12 12:30:56.76	123.70	7.31	-39.1	-40.4	20.7	0.00e+00	0	27	0	1112539136	50	6749
2026-01-12 12:31:00.79	124.20	7.10	-39.3	-40.5	20.5	0.00e+00	0	27	0	1119879168	50	6847
2026-01-12 12:31:04.83	124.69	6.89	-39.5	-40.9	20.2	0.00e+00	0	27	0	1127219200	52	6388
2026-01-12 12:31:08.86	125.17	6.68	-39.5	-41.0	20.1	0.00e+00	0	27	0	1134559232	52	6412
2026-01-12 12:31:12.90	125.64	6.47	-39.1	-40.5	20.5	0.00e+00	0	27	0	1142947840	52	6068
2026-01-12 12:31:16.94	126.11	6.26	-39.0	-40.3	20.7	0.00e+00	0	27	0	1150287872	52	5932
2026-01-12 12:31:20.98	126.57	6.05	-39.8	-41.2	19.9	0.00e+00	0	27	0	1157627904	52	6599
2026-01-12 12:31:25.02	127.03	5.85	-40.6	-42.2	18.9	0.00e+00	0	27	0	1164967936	52	7383
2026-01-12 12:31:29.05	127.48	5.64	-40.0	-41.4	19.6	0.00e+00	0	27	0	1173356544	54	6030
2026-01-12 12:31:33.09	127.92	5.43	-39.6	-41.0	20.1	0.00e+00	0	27	0	1180696576	52	6404
2026-01-12 12:31:37.13	128.36	5.22	-40.0	-41.4	19.7	0.00e+00	0	27	0	1188036608	52	6729
2026-01-12 12:31:41.16	128.79	5.02	-40.1	-41.6	19.3	0.00e+00	0	27	0	1195376640	52	6914
2026-01-12 12:31:45.20	129.21	4.81	-40.0	-41.5	19.5	0.00e+00	0	27	0	1202716672	52	6824
2026-01-12 12:31:49.24	129.63	4.60	-40.0	-41.5	19.4	0.00e+00	0	27	0	1211105280	52	6813
2026-01-12 12:31:53.28	130.05	4.40	-40.7	-42.4	18.5	0.00e+00	0	27	0	1218445312	52	7555
2026-01-12 12:31:57.31	130.46	4.19	-41.1	-43.1	17.9	0.00e+00	0	27	0	1225785344	54	7322
2026-01-12 12:32:01.35	130.86	3.99	-40.6	-42.6	18.3	0.00e+00	0	27	0	1233125376	54	6911
2026-01-12 12:32:05.39	131.26	3.78	-40.2	-42.0	18.7	0.00e+00	0	27	0	1241513984	54	6412
2026-01-12 12:32:09.43	131.65	3.58	-40.4	-42.2	18.5	0.00e+00	0	27	0	1248854016	54	6552
2026-01-12 12:32:13.47	132.04	3.37	-40.4	-42.1	18.6	0.00e+00	0	27	0	1256194048	54	6524
2026-01-12 12:32:17.51	132.42	3.17	-40.9	-42.8	17.7	0.00e+00	0	27	0	1263534080	54	7059
2026-01-12 12:32:21.55	132.80	2.96	-47.0	-62.6	3.6	1.51e+00	0	27	104	1269825536	60	48483
2026-01-12 12:32:25.59	133.17	2.76	-48.2	-63.4	3.6	1.51e+00	0	27	104	1269825536	60	53725
2026-01-12 12:32:29.63	133.54	2.56	-48.4	-63.6	3.6	1.51e+00	0	27	104	1269825536	60	54574
2026-01-12 12:32:33.67	133.90	2.36	-48.4	-63.5	3.6	1.51e+00	0	27	104	1269825536	60	54280
2026-01-12 12:32:37.71	134.26	2.16	-48.4	-63.6	3.6	1.51e+00	0	27	104	1269825536	60	54451
2026-01-12 12:32:41.74	134.61	1.96	-48.5	-63.6	3.6	1.51e+00	0	27	104	1269825536	60	54937
2026-01-12 12:32:45.78	134.96	1.76	-48.4	-63.6	3.6	1.51e+00	0	27	104	1269825536	60	54665
2026-01-12 12:32:49.83	135.31	1.56	-48.4	-63.6	3.6	1.51e+00	0	27	104	1269825536	60	54552
2026-01-12 12:32:53.87	135.65	1.36	-48.4	-63.6	3.6	1.51e+00	0	27	104	1269825536	60	54837
2026-01-12 12:32:57.90	135.99	1.16	-48.4	-63.5	3.6	1.51e+00	0	27	104	1269825536	60	54351
2026-01-12 12:33:01.94	136.32	0.96	-48.4	-63.6	3.6	1.51e+00	0	27	104	1269825536	60	54658
2026-01-12 12:33:05.98	136.64	0.77	-48.5	-63.7	3.5	1.51e+00	0	27	104	1269825536	60	55225
2026-01-12 12:33:10.03	136.97	0.57	-48.4	-63.6	3.6	1.51e+00	0	27	104	1269825536	60	54538
2026-01-12 12:33:14.07	137.29	0.37	-48.4	-63.6	3.6	1.51e+00	0	27	104	1269825536	60	54831
2026-01-12 12:33:18.11	137.60	0.18	-48.5	-63.7	3.6	1.51e+00	0	27	104	1269825536	60	55188
2026-01-12 12:33:22.14	137.92	-0.02	-48.4	-63.6	3.6	1.51e+00	0	27	104	1269825536	60	54480

#Closed at: 2026-01-12 12:33:24
#Recorded file [1269 MB]: D:/lorett/data/35029_260113_002010.dat