passes_logs/2026/01/12/R4.6S_Anadyr/R4.6S_Anadyr__20260112_160138_NOAA_20_JPSS-1_rec.log

#Pass ID: 20260112_160138_NOAA 20 (JPSS-1)
#Satellite: NOAA 20 (JPSS-1)
#Configuration: NOAA 20
#almurnet v.1.7.20251203
#Start time: 2026-01-12 16:01:39

#Version: 2.2.20231116
#Station: R4.6S_Anadyr
#Location: 177.4865 lon 64.73178 lat
#TLE: 1 43013U 17073A   26011.59429536  .00000082  00000+0  59704-4 0  9990
#TLE: 2 43013  98.7632 312.5697 0001637  44.2118 315.9188 14.19535307422256

#Time	Az	El	Level	Level2	SNR	BER	BlckErr	Temp	State	Recorded	gain1	gain2
2026-01-12 16:01:39.19	24.33	0.05	-48.4	-63.3	3.6	1.51e+00	0	25	0	0	60	52755
2026-01-12 16:01:43.22	24.21	0.29	-48.6	-63.8	3.6	1.51e+00	0	26	104	0	60	55753
2026-01-12 16:01:47.26	24.09	0.52	-48.4	-63.6	3.6	1.51e+00	0	26	104	0	60	54626
2026-01-12 16:01:51.30	23.96	0.76	-48.0	-63.2	3.6	1.51e+00	0	27	104	0	60	52290
2026-01-12 16:01:55.34	23.83	1.00	-47.1	-62.3	3.6	1.51e+00	0	26	104	0	60	46941
2026-01-12 16:01:59.38	23.70	1.24	-46.9	-62.0	3.6	1.51e+00	0	26	104	0	60	45495
2026-01-12 16:02:03.42	23.56	1.49	-46.9	-62.0	3.6	1.51e+00	0	27	104	0	60	45399
2026-01-12 16:02:07.46	23.43	1.73	-46.8	-61.9	3.6	1.51e+00	0	27	104	0	60	44847
2026-01-12 16:02:11.50	23.29	1.98	-46.9	-61.7	3.6	1.51e+00	0	27	104	0	60	44096
2026-01-12 16:02:15.54	23.15	2.23	-46.9	-62.1	3.6	1.51e+00	0	27	104	0	60	46100
2026-01-12 16:02:19.58	23.00	2.48	-46.9	-61.6	3.6	1.51e+00	0	27	104	0	60	43541
2026-01-12 16:02:23.61	22.86	2.74	-46.9	-61.0	3.6	1.51e+00	0	27	104	0	60	40570
2026-01-12 16:02:27.65	22.71	2.99	-46.9	-60.6	3.6	1.51e+00	0	27	104	0	60	38879
2026-01-12 16:02:31.69	22.55	3.25	-45.1	-49.7	11.0	1.14e-02	0	27	0	5242880	60	11048
2026-01-12 16:02:35.72	22.40	3.51	-43.8	-46.9	14.2	5.30e-06	0	27	0	12582912	60	7958
2026-01-12 16:02:39.76	22.24	3.78	-47.0	-62.0	3.6	1.10e-01	0	27	104	19922944	60	45407
2026-01-12 16:02:43.80	22.08	4.04	-41.3	-43.2	17.9	0.00e+00	0	27	0	23068672	56	6542
2026-01-12 16:02:47.84	21.91	4.31	-40.1	-41.5	19.6	0.00e+00	0	27	0	31457280	54	6066
2026-01-12 16:02:51.87	21.74	4.58	-39.9	-41.3	19.8	0.00e+00	0	27	0	38797312	52	6666
2026-01-12 16:02:55.91	21.57	4.85	-39.7	-41.0	20.3	0.00e+00	0	27	0	46137344	52	6398
2026-01-12 16:02:59.95	21.39	5.13	-39.7	-41.0	20.4	0.00e+00	0	27	0	53477376	52	6403
2026-01-12 16:03:03.99	21.22	5.40	-39.6	-40.9	20.6	0.00e+00	0	27	0	61865984	52	6325
2026-01-12 16:03:08.03	21.03	5.68	-39.7	-41.0	20.4	0.00e+00	0	27	0	69206016	52	6408
2026-01-12 16:03:12.07	20.84	5.97	-40.0	-41.3	20.2	0.00e+00	0	27	0	76546048	52	6655
2026-01-12 16:03:16.10	20.65	6.25	-39.7	-41.0	20.6	0.00e+00	0	27	0	83886080	52	6428
2026-01-12 16:03:20.14	20.46	6.54	-39.6	-40.8	20.7	0.00e+00	0	27	0	91226112	52	6279
2026-01-12 16:03:24.18	20.26	6.83	-39.3	-40.5	21.0	0.00e+00	0	27	0	99614720	52	6039
2026-01-12 16:03:28.22	20.05	7.13	-39.3	-40.5	21.0	0.00e+00	0	27	0	106954752	52	6060
2026-01-12 16:03:32.25	19.85	7.42	-39.3	-40.5	21.0	0.00e+00	0	27	0	114294784	52	6083
2026-01-12 16:03:36.29	19.63	7.72	-39.2	-40.4	21.2	0.00e+00	0	27	0	121634816	52	5966
2026-01-12 16:03:40.32	19.42	8.03	-39.1	-40.3	21.2	0.00e+00	0	27	0	130023424	52	5937
2026-01-12 16:03:44.36	19.19	8.33	-39.2	-40.4	21.4	0.00e+00	0	27	0	137363456	52	5996
2026-01-12 16:03:48.40	18.96	8.64	-38.9	-40.1	21.6	0.00e+00	0	27	0	144703488	52	5772
2026-01-12 16:03:52.44	18.73	8.96	-38.9	-40.0	21.7	0.00e+00	0	27	0	152043520	52	5736
2026-01-12 16:03:56.47	18.49	9.27	-38.6	-39.7	21.9	0.00e+00	0	27	0	159383552	50	6215
2026-01-12 16:04:00.51	18.25	9.60	-38.6	-39.7	22.0	0.00e+00	0	27	0	167772160	50	6175
2026-01-12 16:04:04.55	18.00	9.92	-38.3	-39.3	22.3	0.00e+00	0	27	0	175112192	50	5953
2026-01-12 16:04:08.59	17.74	10.25	-38.1	-39.2	22.4	0.00e+00	0	27	0	182452224	50	5859
2026-01-12 16:04:12.62	17.48	10.58	-38.2	-39.2	22.4	0.00e+00	0	27	0	189792256	50	5854
2026-01-12 16:04:16.66	17.21	10.92	-38.2	-39.2	22.5	0.00e+00	0	27	0	198180864	50	5836
2026-01-12 16:04:20.70	16.94	11.26	-38.1	-39.1	22.6	0.00e+00	0	27	0	205520896	50	5786
2026-01-12 16:04:24.73	16.65	11.60	-38.0	-39.0	22.7	0.00e+00	0	27	0	212860928	50	5730
2026-01-12 16:04:28.77	16.37	11.95	-38.1	-39.1	22.5	0.00e+00	0	27	0	220200960	50	5790
2026-01-12 16:04:32.80	16.07	12.30	-38.0	-38.9	22.7	0.00e+00	0	27	0	227540992	50	5693
2026-01-12 16:04:36.84	15.77	12.65	-38.0	-39.0	22.7	0.00e+00	0	27	0	235929600	50	5760
2026-01-12 16:04:40.88	15.45	13.01	-37.9	-38.8	22.9	0.00e+00	0	27	0	243269632	50	5619
2026-01-12 16:04:44.92	15.13	13.38	-37.8	-38.8	22.9	0.00e+00	0	27	0	250609664	50	5571
2026-01-12 16:04:48.95	14.80	13.75	-37.7	-38.7	23.0	0.00e+00	0	27	0	257949696	50	5533
2026-01-12 16:04:52.99	14.47	14.12	-37.9	-38.9	22.9	0.00e+00	0	27	0	265289728	48	6343
2026-01-12 16:04:57.03	14.12	14.50	-37.7	-38.7	22.9	0.00e+00	0	27	0	273678336	48	6206
2026-01-12 16:05:01.06	13.77	14.89	-37.8	-38.7	22.9	0.00e+00	0	27	0	281018368	48	6235
2026-01-12 16:05:05.10	13.40	15.28	-37.7	-38.6	23.0	0.00e+00	0	27	0	288358400	48	6136
2026-01-12 16:05:09.13	13.02	15.67	-37.8	-38.7	23.1	0.00e+00	0	27	0	295698432	48	6245
2026-01-12 16:05:13.17	12.64	16.07	-37.6	-38.5	23.2	0.00e+00	0	27	0	304087040	48	6063
2026-01-12 16:05:17.21	12.24	16.47	-37.6	-38.6	23.2	0.00e+00	0	27	0	311427072	48	6129
2026-01-12 16:05:21.25	11.83	16.88	-37.8	-38.8	23.0	0.00e+00	0	27	0	318767104	48	6285
2026-01-12 16:05:25.28	11.41	17.30	-38.1	-39.1	22.7	0.00e+00	0	27	0	326107136	48	6490
2026-01-12 16:05:29.32	10.98	17.72	-37.8	-38.8	23.0	0.00e+00	0	27	0	333447168	48	6253
2026-01-12 16:05:33.36	10.54	18.15	-37.8	-38.8	23.1	0.00e+00	0	27	0	341835776	48	6250
2026-01-12 16:05:37.39	10.08	18.58	-37.9	-38.8	23.0	0.00e+00	0	27	0	349175808	48	6310
2026-01-12 16:05:41.43	9.61	19.01	-37.9	-38.8	23.0	0.00e+00	0	27	0	356515840	48	6312
2026-01-12 16:05:45.47	9.12	19.46	-37.8	-38.7	23.1	0.00e+00	0	27	0	363855872	48	6234
2026-01-12 16:05:49.51	8.62	19.91	-37.8	-38.8	23.1	0.00e+00	0	27	0	372244480	48	6248
2026-01-12 16:05:53.55	8.10	20.36	-37.7	-38.7	23.1	0.00e+00	0	27	0	379584512	48	6177
2026-01-12 16:05:57.58	7.57	20.82	-37.9	-38.8	23.0	0.00e+00	0	27	0	386924544	48	6317
2026-01-12 16:06:01.62	7.02	21.29	-37.8	-38.7	23.1	0.00e+00	0	27	0	394264576	48	6239
2026-01-12 16:06:05.66	6.46	21.76	-37.9	-38.9	23.0	0.00e+00	0	27	0	401604608	48	6330
2026-01-12 16:06:09.70	5.87	22.24	-38.0	-39.0	22.9	0.00e+00	0	27	0	409993216	48	6416
2026-01-12 16:06:13.73	5.27	22.72	-37.7	-38.7	23.2	0.00e+00	0	27	0	417333248	48	6225
2026-01-12 16:06:17.76	4.65	23.21	-38.0	-39.0	23.0	0.00e+00	0	27	0	424673280	48	6397
2026-01-12 16:06:21.80	4.01	23.70	-37.9	-38.8	23.2	0.00e+00	0	27	0	432013312	48	6280
2026-01-12 16:06:25.83	3.34	24.20	-37.8	-38.8	23.1	0.00e+00	0	27	0	439353344	48	6254
2026-01-12 16:06:29.87	2.66	24.71	-37.8	-38.7	23.1	0.00e+00	0	27	0	447741952	48	6231
2026-01-12 16:06:33.91	1.95	25.22	-38.1	-39.1	22.8	0.00e+00	0	27	0	455081984	48	6472
2026-01-12 16:06:37.95	1.21	25.73	-38.0	-38.9	23.0	0.00e+00	0	27	0	462422016	48	6380
2026-01-12 16:06:41.99	0.46	26.25	-37.9	-38.9	22.6	0.00e+00	0	27	0	469762048	48	6355
2026-01-12 16:06:46.03	359.67	26.78	-38.4	-39.5	22.5	0.00e+00	0	27	0	478150656	48	6787
2026-01-12 16:06:50.07	358.86	27.31	-39.0	-40.1	22.0	0.00e+00	0	27	0	485490688	50	6532
2026-01-12 16:06:54.11	358.02	27.84	-39.4	-40.5	21.7	0.00e+00	0	27	0	492830720	50	6804
2026-01-12 16:06:58.15	357.16	28.37	-40.0	-41.3	20.9	0.00e+00	0	27	0	500170752	52	6633
2026-01-12 16:07:02.19	356.26	28.91	-40.9	-42.4	19.8	0.00e+00	0	27	0	507510784	54	6700
2026-01-12 16:07:06.23	355.33	29.45	-41.1	-42.5	19.8	0.00e+00	0	27	0	515899392	54	6775
2026-01-12 16:07:10.26	354.37	29.99	-41.1	-42.5	19.8	0.00e+00	0	27	0	523239424	54	6796
2026-01-12 16:07:14.30	353.38	30.54	-40.4	-41.8	20.5	0.00e+00	0	27	0	530579456	54	6264
2026-01-12 16:07:18.34	352.35	31.08	-40.5	-42.0	20.2	0.00e+00	0	27	0	537919488	54	6398
2026-01-12 16:07:22.37	351.29	31.62	-40.8	-42.2	20.1	0.00e+00	0	27	0	546308096	54	6541
2026-01-12 16:07:26.41	350.19	32.16	-41.0	-42.6	19.6	0.00e+00	0	27	0	553648128	54	6858
2026-01-12 16:07:30.45	349.05	32.70	-40.8	-42.4	19.9	0.00e+00	0	27	0	560988160	54	6724
2026-01-12 16:07:34.48	347.88	33.23	-39.4	-40.6	21.7	0.00e+00	0	27	0	568328192	52	6110
2026-01-12 16:07:38.52	346.66	33.76	-39.1	-40.2	22.1	0.00e+00	0	27	0	575668224	52	5840
2026-01-12 16:07:42.55	345.41	34.28	-39.4	-40.5	21.7	0.00e+00	0	27	0	584056832	52	6082
2026-01-12 16:07:46.59	344.11	34.80	-39.9	-41.0	21.3	0.00e+00	0	27	0	591396864	52	6464
2026-01-12 16:07:50.63	342.77	35.30	-39.8	-41.0	21.3	0.00e+00	0	27	0	598736896	52	6403
2026-01-12 16:07:54.67	341.39	35.80	-39.9	-41.2	21.0	0.00e+00	0	27	0	606076928	52	6543
2026-01-12 16:07:58.70	339.97	36.28	-40.4	-41.7	20.6	0.00e+00	0	27	0	614465536	52	6974
2026-01-12 16:08:02.74	338.51	36.75	-40.7	-42.0	20.4	0.00e+00	0	27	0	621805568	54	6418
2026-01-12 16:08:06.78	337.00	37.21	-40.1	-41.3	21.0	0.00e+00	0	27	0	629145600	54	5897
2026-01-12 16:08:10.81	335.45	37.64	-39.9	-41.1	21.2	0.00e+00	0	27	0	636485632	52	6520
2026-01-12 16:08:14.84	333.86	38.06	-39.4	-40.5	21.7	0.00e+00	0	27	0	643825664	52	6043
2026-01-12 16:08:18.88	332.23	38.46	-38.5	-39.5	22.6	0.00e+00	0	27	0	652214272	50	6099
2026-01-12 16:08:22.91	330.56	38.83	-38.3	-39.3	22.8	0.00e+00	0	27	0	659554304	50	5915
2026-01-12 16:08:26.95	328.85	39.18	-38.3	-39.3	22.9	0.00e+00	0	27	0	666894336	50	5944
2026-01-12 16:08:30.99	327.11	39.51	-37.9	-38.8	23.3	0.00e+00	0	27	0	674234368	50	5590
2026-01-12 16:08:35.03	325.33	39.80	-37.3	-38.2	23.8	0.00e+00	0	27	0	681574400	48	5883
2026-01-12 16:08:39.06	323.52	40.07	-37.3	-38.2	23.8	0.00e+00	0	27	0	689963008	48	5859
2026-01-12 16:08:43.10	321.68	40.30	-37.0	-37.9	24.0	0.00e+00	0	27	0	697303040	48	5668
2026-01-12 16:08:47.14	319.81	40.50	-36.8	-37.7	24.3	0.00e+00	0	27	0	704643072	48	5510
2026-01-12 16:08:51.18	317.93	40.67	-36.8	-37.7	24.2	0.00e+00	0	27	0	711983104	46	6190
2026-01-12 16:08:55.21	316.03	40.80	-37.0	-37.9	24.2	0.00e+00	0	27	0	720371712	46	6358
2026-01-12 16:08:59.25	314.11	40.90	-37.1	-37.9	24.1	0.00e+00	0	27	0	727711744	46	6390
2026-01-12 16:09:03.29	312.18	40.96	-37.2	-38.1	24.0	0.00e+00	0	27	0	735051776	46	6467
2026-01-12 16:09:07.32	310.25	40.98	-38.2	-39.2	22.9	0.00e+00	0	27	0	742391808	48	6542
2026-01-12 16:09:11.36	308.32	40.97	-38.7	-39.7	22.4	0.00e+00	0	27	0	749731840	50	6199
2026-01-12 16:09:15.40	306.39	40.92	-38.9	-39.9	22.3	0.00e+00	0	27	0	758120448	50	6386
2026-01-12 16:09:19.43	304.47	40.83	-40.5	-41.8	20.5	0.00e+00	0	27	0	765460480	52	7015
2026-01-12 16:09:23.46	302.57	40.71	-39.9	-41.1	21.2	0.00e+00	0	27	0	772800512	52	6498
2026-01-12 16:09:27.50	300.67	40.55	-41.7	-43.2	19.3	0.00e+00	0	27	0	780140544	54	7378
2026-01-12 16:09:31.53	298.80	40.36	-42.0	-43.6	19.2	0.00e+00	0	27	0	788529152	56	6905
2026-01-12 16:09:35.57	296.96	40.13	-41.2	-42.6	19.9	0.00e+00	0	27	0	795869184	56	6115
2026-01-12 16:09:39.61	295.13	39.88	-41.0	-42.4	20.1	0.00e+00	0	27	0	803209216	56	5970
2026-01-12 16:09:43.64	293.35	39.59	-39.2	-40.3	22.1	0.00e+00	0	27	0	810549248	52	5908
2026-01-12 16:09:47.68	291.59	39.28	-37.9	-38.8	23.4	0.00e+00	0	27	0	817889280	50	5609
2026-01-12 16:09:51.72	289.86	38.93	-37.2	-38.1	24.0	0.00e+00	0	27	0	826277888	48	5793
2026-01-12 16:09:55.75	288.18	38.56	-36.2	-37.0	24.9	0.00e+00	0	27	0	833617920	46	5733
2026-01-12 16:09:59.79	286.54	38.17	-36.4	-37.2	24.4	0.00e+00	0	27	0	840957952	46	5876
2026-01-12 16:10:03.82	284.93	37.76	-36.6	-37.4	24.6	0.00e+00	0	27	0	848297984	46	6033
2026-01-12 16:10:07.86	283.37	37.33	-36.4	-37.2	24.7	0.00e+00	0	27	0	856686592	46	5892
2026-01-12 16:10:11.90	281.84	36.88	-37.0	-37.8	24.2	0.00e+00	0	27	0	864026624	46	6316
2026-01-12 16:10:15.94	280.36	36.41	-37.0	-37.8	24.1	0.00e+00	0	27	0	871366656	46	6317
2026-01-12 16:10:19.97	278.93	35.93	-37.8	-38.8	23.5	0.00e+00	0	27	0	878706688	48	6253
2026-01-12 16:10:24.01	277.53	35.44	-37.2	-38.0	24.0	0.00e+00	0	27	0	886046720	48	5747
2026-01-12 16:10:28.05	276.18	34.93	-37.6	-38.5	23.6	0.00e+00	0	27	0	894435328	48	6090
2026-01-12 16:10:32.09	274.87	34.42	-37.9	-38.8	23.3	0.00e+00	0	27	0	901775360	48	6283
2026-01-12 16:10:36.12	273.60	33.89	-38.4	-39.4	22.7	0.00e+00	0	27	0	909115392	48	6721
2026-01-12 16:10:40.16	272.37	33.37	-39.3	-40.4	22.0	0.00e+00	0	27	0	916455424	50	6725
2026-01-12 16:10:44.19	271.18	32.83	-39.5	-40.7	21.8	0.00e+00	0	27	0	923795456	50	6936
2026-01-12 16:10:48.23	270.03	32.29	-40.0	-41.2	21.2	0.00e+00	0	27	0	932184064	52	6580
2026-01-12 16:10:52.27	268.92	31.75	-40.0	-41.1	21.2	0.00e+00	0	27	0	939524096	52	6516
2026-01-12 16:10:56.31	267.84	31.21	-40.1	-41.3	21.1	0.00e+00	0	27	0	946864128	52	6683
2026-01-12 16:11:00.34	266.80	30.67	-39.6	-40.7	21.6	0.00e+00	0	27	0	954204160	52	6235
2026-01-12 16:11:04.38	265.80	30.12	-39.6	-40.7	21.6	0.00e+00	0	27	0	962592768	52	6228
2026-01-12 16:11:08.41	264.83	29.58	-39.2	-40.3	22.0	0.00e+00	0	27	0	969932800	52	5907
2026-01-12 16:11:12.45	263.89	29.04	-38.6	-39.6	22.5	0.00e+00	0	27	0	977272832	50	6156
2026-01-12 16:11:16.49	262.98	28.50	-38.6	-39.5	22.6	0.00e+00	0	27	0	984612864	50	6099
2026-01-12 16:11:20.53	262.10	27.96	-38.3	-39.3	22.8	0.00e+00	0	27	0	991952896	50	5897
2026-01-12 16:11:24.57	261.25	27.42	-38.6	-39.6	22.6	0.00e+00	0	27	0	1000341504	50	6123
2026-01-12 16:11:28.60	260.43	26.89	-38.3	-39.3	22.9	0.00e+00	0	27	0	1007681536	50	5952
2026-01-12 16:11:32.64	259.64	26.37	-38.1	-39.0	23.1	0.00e+00	0	27	0	1015021568	50	5728
2026-01-12 16:11:36.68	258.87	25.84	-37.8	-38.8	23.3	0.00e+00	0	27	0	1022361600	50	5587
2026-01-12 16:11:40.72	258.13	25.32	-37.8	-38.7	23.3	0.00e+00	0	27	0	1030750208	50	5558
2026-01-12 16:11:44.75	257.41	24.81	-38.2	-39.2	22.9	0.00e+00	0	27	0	1038090240	50	5866
2026-01-12 16:11:48.79	256.72	24.30	-38.5	-39.4	22.7	0.00e+00	0	27	0	1045430272	50	6025
2026-01-12 16:11:52.82	256.05	23.80	-38.5	-39.5	22.7	0.00e+00	0	27	0	1052770304	50	6053
2026-01-12 16:11:56.86	255.39	23.30	-38.9	-40.0	22.3	0.00e+00	0	27	0	1060110336	50	6415
2026-01-12 16:12:00.89	254.77	22.81	-39.0	-40.0	22.0	0.00e+00	0	27	0	1068498944	50	6427
2026-01-12 16:12:04.93	254.15	22.33	-38.8	-39.9	22.3	0.00e+00	0	27	0	1075838976	50	6329
2026-01-12 16:12:08.97	253.56	21.84	-39.0	-40.1	21.9	0.00e+00	0	27	0	1083179008	50	6496
2026-01-12 16:12:13.01	252.99	21.37	-38.9	-40.0	22.2	0.00e+00	0	27	0	1090519040	50	6402
2026-01-12 16:12:17.04	252.43	20.90	-39.1	-40.2	21.9	0.00e+00	0	27	0	1097859072	50	6589
2026-01-12 16:12:21.08	251.89	20.44	-39.1	-40.2	22.0	0.00e+00	0	27	0	1106247680	50	6541
2026-01-12 16:12:25.11	251.37	19.98	-39.1	-40.1	22.1	0.00e+00	0	27	0	1113587712	50	6526
2026-01-12 16:12:29.15	250.86	19.53	-38.9	-39.9	22.2	0.00e+00	0	27	0	1120927744	50	6353
2026-01-12 16:12:33.18	250.37	19.08	-38.6	-39.6	22.4	0.00e+00	0	27	0	1128267776	50	6116
2026-01-12 16:12:37.22	249.89	18.64	-38.7	-39.7	22.3	0.00e+00	0	27	0	1136656384	50	6195
2026-01-12 16:12:41.26	249.43	18.21	-38.9	-40.0	22.0	0.00e+00	0	27	0	1143996416	50	6412
2026-01-12 16:12:45.29	248.98	17.78	-38.9	-39.9	22.1	0.00e+00	0	27	0	1151336448	50	6368
2026-01-12 16:12:49.33	248.54	17.36	-39.1	-40.2	21.9	0.00e+00	0	27	0	1158676480	50	6591
2026-01-12 16:12:53.37	248.11	16.94	-38.5	-39.6	22.5	0.00e+00	0	27	0	1166016512	50	6106
2026-01-12 16:12:57.40	247.70	16.53	-38.6	-39.6	22.4	0.00e+00	0	27	0	1174405120	50	6163
2026-01-12 16:13:01.44	247.30	16.12	-38.4	-39.4	22.6	0.00e+00	0	27	0	1181745152	50	5996
2026-01-12 16:13:05.48	246.91	15.72	-38.4	-39.4	22.5	0.00e+00	0	27	0	1189085184	50	6001
2026-01-12 16:13:09.52	246.53	15.32	-38.7	-39.8	22.2	0.00e+00	0	28	0	1196425216	50	6248
2026-01-12 16:13:13.56	246.15	14.93	-39.0	-40.1	21.9	0.00e+00	0	27	0	1204813824	50	6495
2026-01-12 16:13:17.59	245.79	14.54	-39.0	-40.1	21.9	0.00e+00	0	27	0	1212153856	50	6494
2026-01-12 16:13:21.63	245.44	14.16	-39.1	-40.2	21.8	0.00e+00	0	28	0	1219493888	50	6544
2026-01-12 16:13:25.67	245.10	13.78	-39.2	-40.3	21.7	0.00e+00	0	28	0	1226833920	50	6661
2026-01-12 16:13:29.71	244.77	13.41	-39.2	-40.4	21.6	0.00e+00	0	28	0	1234173952	50	6709
2026-01-12 16:13:33.75	244.44	13.04	-39.5	-40.6	21.4	0.00e+00	0	28	0	1242562560	50	6887
2026-01-12 16:13:37.79	244.12	12.68	-39.9	-41.1	20.8	0.00e+00	0	28	0	1249902592	52	6537
2026-01-12 16:13:41.82	243.82	12.32	-40.3	-41.6	20.4	0.00e+00	0	28	0	1257242624	52	6860
2026-01-12 16:13:45.86	243.51	11.97	-40.7	-42.1	19.8	0.00e+00	0	28	0	1264582656	52	7287
2026-01-12 16:13:49.90	243.22	11.62	-40.8	-42.3	19.6	0.00e+00	0	28	0	1272971264	54	6634
2026-01-12 16:13:53.93	242.93	11.27	-41.0	-42.5	19.3	0.00e+00	0	28	0	1280311296	54	6795
2026-01-12 16:13:57.97	242.65	10.93	-41.3	-42.9	18.8	0.00e+00	0	28	0	1287651328	54	7152
2026-01-12 16:14:01.97	242.38	10.60	-42.0	-43.8	18.0	0.00e+00	0	28	0	1294991360	56	7019
2026-01-12 16:14:06.01	242.12	10.26	-42.1	-44.0	17.7	0.00e+00	0	28	0	1302331392	56	7193
2026-01-12 16:14:10.04	241.86	9.94	-42.5	-44.4	17.3	0.00e+00	0	28	0	1310720000	56	7592
2026-01-12 16:14:14.08	241.60	9.61	-42.9	-45.1	16.6	0.00e+00	0	28	0	1318060032	58	7317
2026-01-12 16:14:18.12	241.35	9.29	-43.0	-45.4	16.3	0.00e+00	0	28	0	1325400064	58	7515
2026-01-12 16:14:22.16	241.11	8.97	-43.3	-45.8	15.7	0.00e+00	0	28	0	1332740096	58	7914
2026-01-12 16:14:26.19	240.87	8.65	-43.9	-46.7	14.9	0.00e+00	0	28	0	1340080128	60	7808
2026-01-12 16:14:30.23	240.64	8.34	-44.2	-47.4	14.1	1.50e-06	0	28	0	1348468736	60	8479
2026-01-12 16:14:34.27	240.41	8.03	-44.7	-48.3	13.0	2.59e-05	0	28	0	1355808768	60	9448
2026-01-12 16:14:38.30	240.19	7.73	-45.0	-49.0	12.3	1.43e-04	0	28	0	1363148800	60	10224
2026-01-12 16:14:42.34	239.97	7.43	-45.4	-49.8	11.3	1.08e-03	0	28	0	1370488832	60	11164
2026-01-12 16:14:46.38	239.76	7.13	-45.6	-50.6	10.3	4.23e-03	0	28	0	1378877440	60	12206
2026-01-12 16:14:50.41	239.55	6.83	-45.9	-51.6	9.1	1.46e-02	0	28	0	1386217472	60	13812
2026-01-12 16:14:54.46	239.35	6.54	-46.1	-52.3	8.2	4.76e-02	0	28	0	1393557504	60	14958
2026-01-12 16:14:58.50	239.15	6.25	-46.3	-53.1	7.2	1.05e-01	0	28	0	1400897536	60	16265
2026-01-12 16:15:02.53	238.95	5.96	-46.4	-53.9	6.3	2.24e-01	0	29	0	1408237568	60	17813
2026-01-12 16:15:06.58	238.76	5.68	-46.5	-54.7	5.3	4.29e-01	0	28	0	1416626176	60	19613
2026-01-12 16:15:10.62	238.58	5.40	-46.6	-55.4	4.7	6.97e-01	0	29	0	1423966208	60	21242
2026-01-12 16:15:14.66	238.39	5.12	-46.6	-56.4	4.1	9.31e-01	14	29	0	1431306240	60	23882
2026-01-12 16:15:18.70	238.21	4.84	-46.6	-57.0	3.8	1.39e+00	0	29	0	1435500544	60	25687
2026-01-12 16:15:22.74	238.03	4.57	-46.6	-59.2	3.8	1.50e+00	0	29	104	1435500544	60	33154
2026-01-12 16:15:26.77	237.86	4.30	-46.6	-59.8	3.6	1.50e+00	0	29	104	1435500544	60	35284
2026-01-12 16:15:30.81	237.69	4.03	-46.6	-60.7	3.6	1.51e+00	0	29	104	1435500544	60	38969
2026-01-12 16:15:34.85	237.53	3.76	-46.2	-61.2	3.6	1.51e+00	0	29	104	1435500544	60	41735
2026-01-12 16:15:38.88	237.36	3.50	-46.1	-61.2	3.6	1.51e+00	0	29	104	1435500544	60	41398
2026-01-12 16:15:42.92	237.20	3.24	-46.0	-61.1	3.6	1.51e+00	0	29	104	1435500544	60	41194
2026-01-12 16:15:46.96	237.05	2.98	-46.9	-62.1	3.6	1.51e+00	0	29	104	1435500544	60	45849
2026-01-12 16:15:51.00	236.89	2.72	-48.4	-63.6	3.6	1.51e+00	0	29	104	1435500544	60	54766
2026-01-12 16:15:55.04	236.74	2.46	-48.4	-63.6	3.6	1.51e+00	0	29	104	1435500544	60	54907
2026-01-12 16:15:59.07	236.59	2.21	-48.3	-63.5	3.6	1.51e+00	0	29	104	1435500544	60	54260
2026-01-12 16:16:03.11	236.45	1.96	-48.2	-63.5	3.6	1.51e+00	0	29	104	1435500544	60	54018
2026-01-12 16:16:07.15	236.30	1.71	-48.3	-63.5	3.6	1.51e+00	0	29	104	1435500544	60	54127
2026-01-12 16:16:11.19	236.16	1.47	-48.3	-63.5	3.6	1.51e+00	0	29	104	1435500544	60	54171
2026-01-12 16:16:15.23	236.03	1.22	-48.3	-63.5	3.6	1.51e+00	0	29	104	1435500544	60	53989
2026-01-12 16:16:19.26	235.89	0.98	-48.3	-63.5	3.6	1.51e+00	0	29	104	1435500544	60	54205
2026-01-12 16:16:23.30	235.76	0.74	-48.3	-63.5	3.6	1.51e+00	0	29	104	1435500544	60	54002
2026-01-12 16:16:27.34	235.63	0.50	-48.3	-63.5	3.6	1.51e+00	0	29	104	1435500544	60	54213
2026-01-12 16:16:31.38	235.50	0.26	-48.4	-63.6	3.6	1.51e+00	0	29	104	1435500544	60	54431
2026-01-12 16:16:35.42	235.37	0.02	-48.4	-63.6	3.6	1.51e+00	0	29	104	1435500544	60	54451

#Closed at: 2026-01-12 16:16:38
#Recorded file [1435 MB]: D:/lorett/data/35029_260113_040139.dat