passes_logs/2026/01/12/R4.6S_Anadyr/R4.6S_Anadyr__20260112_081116_TY-42_rec.log

#Pass ID: 20260112_081116_TY-42
#Satellite: TY-42
#Configuration: TY-42_900M
#almurnet v.1.7.20251203
#Start time: 2026-01-12 08:11:49

#Version: 2.2.20231116
#Station: R4.6S_Anadyr
#Location: 177.4865 lon 64.73178 lat
#TLE: 1 64048U 25103A   26011.68099537  .00008011  00000-0  38191-3 0 09995
#TLE: 2 64048 097.4120 087.1608 0001830 092.1753 308.0209 15.19172866 36317

#Time	Az	El	Level	Level2	SNR	BER	BlckErr	Temp	State	Recorded	gain1	gain2
2026-01-12 08:11:49.39	123.70	2.06	-48.4	-60.0	3.5	8.46e-01	0	25	0	0	60	36167
2026-01-12 08:11:52.42	123.52	2.26	-47.1	-49.5	6.1	0.00e+00	0	26	104	0	60	36680
2026-01-12 08:11:55.44	123.32	2.46	-47.1	-49.5	6.1	0.00e+00	0	26	104	0	60	36717
2026-01-12 08:11:58.47	123.13	2.67	-47.1	-49.6	6.1	0.00e+00	0	27	104	0	60	36785
2026-01-12 08:12:01.50	122.93	2.87	-47.1	-49.5	6.1	0.00e+00	0	27	104	0	60	36610
2026-01-12 08:12:04.53	122.73	3.08	-47.1	-49.5	6.1	0.00e+00	0	27	104	0	60	36765
2026-01-12 08:12:07.56	122.52	3.29	-47.0	-49.5	6.1	0.00e+00	0	27	104	0	60	36628
2026-01-12 08:12:10.58	122.31	3.50	-47.0	-49.5	6.0	0.00e+00	0	27	104	0	60	36527
2026-01-12 08:12:13.61	122.09	3.72	-47.0	-49.5	6.1	0.00e+00	0	27	104	0	60	36401
2026-01-12 08:12:16.64	121.87	3.93	-47.0	-49.5	6.1	0.00e+00	0	27	104	0	60	36570
2026-01-12 08:12:19.67	121.65	4.15	-47.0	-49.5	6.1	0.00e+00	0	27	104	0	60	36459
2026-01-12 08:12:22.69	121.42	4.37	-47.0	-49.5	6.1	0.00e+00	0	27	104	0	60	36428
2026-01-12 08:12:25.72	121.19	4.59	-47.0	-49.5	6.1	0.00e+00	0	27	104	0	60	36373
2026-01-12 08:12:28.75	120.95	4.81	-47.1	-49.6	6.1	0.00e+00	0	27	104	0	60	37167
2026-01-12 08:12:31.78	120.71	5.04	-47.1	-49.6	6.1	0.00e+00	0	28	104	0	60	36850
2026-01-12 08:12:34.81	120.46	5.26	-47.3	-49.7	6.1	0.00e+00	0	28	104	0	60	37629
2026-01-12 08:12:37.84	120.21	5.49	-47.2	-49.6	6.1	0.00e+00	0	28	104	0	60	37139
2026-01-12 08:12:40.87	119.95	5.73	-28.9	-29.4	15.1	0.00e+00	0	28	0	16777216	32	18141
2026-01-12 08:12:43.89	119.69	5.96	-27.8	-28.3	15.8	2.91e-02	0	28	0	150994944	32	15919
2026-01-12 08:12:46.92	119.42	6.20	-27.7	-28.2	15.8	8.77e-04	0	28	0	494927872	30	17731
2026-01-12 08:12:49.95	119.15	6.43	-27.1	-27.6	15.9	9.05e-04	0	28	0	830472192	30	16573
2026-01-12 08:12:52.98	118.87	6.68	-27.3	-27.8	15.7	9.97e-04	0	28	0	1174405120	30	16988
2026-01-12 08:12:56.01	118.59	6.92	-27.1	-27.6	16.0	9.75e-04	0	28	0	1518338048	30	16540
2026-01-12 08:12:59.04	118.29	7.17	-26.9	-27.4	16.2	4.03e-04	0	28	0	1853882368	30	16152
2026-01-12 08:13:02.05	118.00	7.41	-27.0	-27.6	16.1	2.72e-04	0	28	0	2189426688	30	16463
2026-01-12 08:13:05.08	117.69	7.66	-26.6	-27.1	16.2	4.03e-04	0	29	0	2533359616	28	17509
2026-01-12 08:13:08.10	117.38	7.92	-26.7	-27.2	16.2	2.62e-04	0	29	0	2868903936	28	17731
2026-01-12 08:13:11.13	117.06	8.17	-26.4	-26.9	16.2	1.25e-04	0	29	0	3212836864	28	17186
2026-01-12 08:13:14.16	116.74	8.43	-26.4	-27.0	16.2	1.74e-04	0	29	0	3556769792	28	17253
2026-01-12 08:13:17.18	116.40	8.69	-26.4	-26.9	16.3	1.58e-04	0	29	0	3892314112	28	17106
2026-01-12 08:13:20.21	116.06	8.96	-25.8	-26.4	16.5	1.85e-04	0	29	0	4236247040	26	18097
2026-01-12 08:13:23.24	115.71	9.23	-25.8	-26.4	16.5	8.71e-05	0	29	0	4580179968	26	18065
2026-01-12 08:13:26.27	115.36	9.50	-25.5	-26.0	16.5	7.08e-05	0	29	0	4924112896	26	17375
2026-01-12 08:13:29.29	114.99	9.77	-25.5	-26.1	16.4	7.08e-05	0	29	0	5259657216	26	17512
2026-01-12 08:13:32.32	114.62	10.05	-25.3	-25.8	16.6	4.90e-05	0	29	0	5603590144	26	16966
2026-01-12 08:13:35.34	114.23	10.33	-25.1	-25.6	16.6	2.72e-05	0	29	0	5939134464	26	16503
2026-01-12 08:13:38.37	113.84	10.61	-25.0	-25.5	16.6	2.72e-05	0	29	0	6283067392	26	16353
2026-01-12 08:13:41.40	113.44	10.90	-24.7	-25.3	16.7	2.72e-05	0	29	0	6618611712	24	17870
2026-01-12 08:13:44.43	113.03	11.19	-24.5	-25.1	16.7	5.40e-06	0	29	0	6962544640	24	17446
2026-01-12 08:13:47.45	112.61	11.48	-24.5	-25.0	16.8	0.00e+00	0	29	0	7298088960	24	17298
2026-01-12 08:13:50.48	112.17	11.78	-24.3	-24.8	16.8	5.40e-06	0	29	0	7642021888	24	16926
2026-01-12 08:13:53.51	111.73	12.08	-24.2	-24.8	16.8	5.40e-06	0	29	0	7985954816	24	16821
2026-01-12 08:13:56.54	111.27	12.38	-24.1	-24.6	16.9	1.08e-05	0	29	0	8321499136	24	16541
2026-01-12 08:13:59.56	110.81	12.68	-23.8	-24.3	17.0	0.00e+00	0	29	0	8665432064	24	15898
2026-01-12 08:14:02.59	110.33	12.99	-23.6	-24.1	17.0	0.00e+00	0	29	0	9000976384	22	17475
2026-01-12 08:14:05.62	109.84	13.31	-23.5	-24.0	17.0	0.00e+00	0	29	0	9344909312	22	17348
2026-01-12 08:14:08.65	109.34	13.62	-23.5	-24.0	17.0	0.00e+00	0	29	0	9688842240	22	17240
2026-01-12 08:14:11.68	108.82	13.94	-23.3	-23.8	17.1	0.00e+00	0	29	0	10024386560	22	16906
2026-01-12 08:14:14.71	108.29	14.27	-23.1	-23.6	17.1	0.00e+00	0	29	0	10368319488	22	16453
2026-01-12 08:14:17.74	107.74	14.59	-23.0	-23.5	17.2	0.00e+00	0	29	0	10712252416	22	16346
2026-01-12 08:14:20.77	107.18	14.92	-23.0	-23.5	17.2	0.00e+00	0	29	0	11047796736	22	16280
2026-01-12 08:14:23.79	106.61	15.26	-22.7	-23.1	17.4	0.00e+00	0	29	0	11391729664	20	17581
2026-01-12 08:14:26.82	106.02	15.59	-22.7	-23.2	17.3	0.00e+00	0	30	0	11735662592	20	17640
2026-01-12 08:14:29.85	105.41	15.93	-22.7	-23.1	17.4	0.00e+00	0	29	0	12071206912	20	17587
2026-01-12 08:14:32.87	104.79	16.28	-22.6	-23.0	17.5	0.00e+00	0	30	0	12415139840	20	17370
2026-01-12 08:14:35.90	104.15	16.62	-22.3	-22.7	17.4	0.00e+00	0	30	0	12750684160	20	16776
2026-01-12 08:14:38.93	103.49	16.97	-22.2	-22.6	17.5	0.00e+00	0	30	0	13094617088	20	16552
2026-01-12 08:14:41.96	102.82	17.33	-22.2	-22.7	17.5	0.00e+00	0	30	0	13438550016	20	16715
2026-01-12 08:14:44.99	102.12	17.68	-22.0	-22.5	17.5	0.00e+00	0	30	0	13774094336	20	16312
2026-01-12 08:14:48.02	101.41	18.04	-21.8	-22.2	17.5	0.00e+00	0	30	0	14118027264	20	15855
2026-01-12 08:14:51.05	100.67	18.40	-21.5	-22.0	17.5	0.00e+00	0	30	0	14453571584	18	17269
2026-01-12 08:14:54.08	99.92	18.76	-21.5	-22.0	17.5	0.00e+00	0	30	0	14797504512	18	17218
2026-01-12 08:14:57.11	99.14	19.13	-21.3	-21.8	17.5	0.00e+00	0	30	0	15141437440	18	16884
2026-01-12 08:15:00.14	98.35	19.49	-20.9	-21.4	17.4	0.00e+00	0	30	0	15476981760	18	16095
2026-01-12 08:15:03.16	97.53	19.86	-20.8	-21.3	17.5	0.00e+00	0	30	0	15820914688	18	15919
2026-01-12 08:15:06.19	96.69	20.23	-20.7	-21.2	17.5	0.00e+00	0	30	0	16156459008	16	17745
2026-01-12 08:15:09.22	95.82	20.60	-20.6	-21.1	17.5	0.00e+00	0	30	0	16500391936	16	17424
2026-01-12 08:15:12.24	94.93	20.97	-20.4	-20.9	17.6	0.00e+00	0	30	0	16835936256	16	17075
2026-01-12 08:15:15.27	94.02	21.34	-20.5	-21.0	17.5	0.00e+00	0	30	0	17179869184	16	17284
2026-01-12 08:15:18.29	93.08	21.71	-20.3	-20.7	17.4	0.00e+00	0	30	0	17523802112	16	16762
2026-01-12 08:15:21.32	92.11	22.07	-20.0	-20.5	17.5	0.00e+00	0	30	0	17867735040	16	16295
2026-01-12 08:15:24.34	91.13	22.44	-20.0	-20.5	17.6	0.00e+00	0	30	0	18203279360	16	16296
2026-01-12 08:15:27.37	90.11	22.80	-19.9	-20.3	17.5	0.00e+00	0	30	0	18547212288	16	16003
2026-01-12 08:15:30.40	89.06	23.17	-19.6	-20.0	17.5	0.00e+00	0	30	0	18882756608	14	17343
2026-01-12 08:15:33.43	87.99	23.53	-19.6	-20.1	17.6	0.00e+00	0	30	0	19226689536	14	17496
2026-01-12 08:15:36.46	86.89	23.88	-19.4	-19.9	17.6	0.00e+00	0	30	0	19570622464	14	17082
2026-01-12 08:15:39.49	85.76	24.23	-19.5	-20.0	17.6	0.00e+00	0	30	0	19906166784	14	17224
2026-01-12 08:15:42.52	84.60	24.57	-19.5	-20.0	17.6	0.00e+00	0	30	0	20250099712	14	17235
2026-01-12 08:15:45.54	83.42	24.91	-19.3	-19.7	17.6	0.00e+00	0	30	0	20585644032	14	16786
2026-01-12 08:15:48.57	82.21	25.24	-19.2	-19.6	17.4	0.00e+00	0	30	0	20929576960	14	16509
2026-01-12 08:15:51.60	80.97	25.56	-19.0	-19.5	17.5	0.00e+00	0	30	0	21265121280	14	16258
2026-01-12 08:15:54.63	79.70	25.88	-19.0	-19.5	17.5	0.00e+00	0	30	0	21609054208	14	16249
2026-01-12 08:15:57.65	78.40	26.18	-18.9	-19.3	17.6	0.00e+00	0	30	0	21944598528	14	15975
2026-01-12 08:16:00.69	77.08	26.47	-18.8	-19.3	17.6	0.00e+00	0	30	0	22288531456	14	15873
2026-01-12 08:16:03.71	75.73	26.75	-18.8	-19.2	17.3	0.00e+00	0	30	0	22632464384	12	17777
2026-01-12 08:16:06.74	74.35	27.01	-18.4	-18.9	17.5	0.00e+00	0	30	0	22968008704	12	17061
2026-01-12 08:16:09.77	72.95	27.27	-18.7	-19.1	17.5	0.00e+00	0	30	0	23311941632	12	17511
2026-01-12 08:16:12.79	71.54	27.50	-18.4	-18.8	17.4	0.00e+00	0	30	0	23655874560	12	16995
2026-01-12 08:16:15.82	70.09	27.72	-18.4	-18.8	17.4	0.00e+00	0	30	0	23991418880	12	16899
2026-01-12 08:16:18.85	68.62	27.93	-18.3	-18.7	17.3	0.00e+00	0	30	0	24335351808	12	16710
2026-01-12 08:16:21.88	67.13	28.11	-18.3	-18.7	17.3	0.00e+00	0	30	0	24679284736	12	16774
2026-01-12 08:16:24.91	65.63	28.28	-18.3	-18.8	17.3	0.00e+00	0	30	0	25014829056	12	16913
2026-01-12 08:16:27.94	64.11	28.43	-18.2	-18.7	17.2	0.00e+00	0	30	0	25358761984	12	16689
2026-01-12 08:16:30.97	62.57	28.55	-18.3	-18.7	17.1	0.00e+00	0	30	0	25702694912	12	16785
2026-01-12 08:16:34.00	61.03	28.66	-18.2	-18.6	17.0	0.00e+00	0	30	0	26038239232	12	16586
2026-01-12 08:16:37.02	59.47	28.75	-18.3	-18.7	17.1	0.00e+00	0	30	0	26382172160	12	16685
2026-01-12 08:16:40.05	57.91	28.81	-18.1	-18.6	17.1	0.00e+00	0	30	0	26717716480	12	16450
2026-01-12 08:16:43.08	56.34	28.85	-18.3	-18.7	17.2	0.00e+00	0	30	0	27061649408	12	16749
2026-01-12 08:16:46.11	54.77	28.87	-18.2	-18.6	17.0	0.00e+00	0	30	0	27405582336	12	16513
2026-01-12 08:16:49.14	53.19	28.87	-18.3	-18.8	17.1	0.00e+00	0	30	0	27741126656	12	16866
2026-01-12 08:16:52.17	51.62	28.84	-18.2	-18.7	17.2	0.00e+00	0	30	0	28085059584	12	16698
2026-01-12 08:16:55.19	50.06	28.79	-18.3	-18.7	17.3	0.00e+00	0	30	0	28420603904	12	16796
2026-01-12 08:16:58.21	48.50	28.72	-18.2	-18.7	17.3	0.00e+00	0	30	0	28764536832	12	16744
2026-01-12 08:17:01.23	46.95	28.63	-18.3	-18.8	17.4	0.00e+00	0	30	0	29100081152	12	16988
2026-01-12 08:17:04.26	45.41	28.52	-18.3	-18.8	17.4	0.00e+00	0	30	0	29444014080	12	16940
2026-01-12 08:17:07.29	43.88	28.39	-18.3	-18.8	17.4	0.00e+00	0	30	0	29779558400	12	16969
2026-01-12 08:17:10.32	42.37	28.23	-46.5	-49.2	6.1	0.00e+00	0	30	104	30106714112	60	35414
2026-01-12 08:17:13.34	40.87	28.06	-48.3	-50.8	6.1	0.00e+00	0	30	104	30106714112	60	42628
2026-01-12 08:17:16.36	39.40	27.87	-48.3	-50.8	6.1	0.00e+00	0	30	104	30106714112	60	42588
2026-01-12 08:17:19.39	37.94	27.66	-48.0	-50.5	6.1	0.00e+00	0	30	104	30106714112	60	41213
2026-01-12 08:17:22.42	36.51	27.44	-48.3	-50.8	6.1	0.00e+00	0	30	104	30106714112	60	42502
2026-01-12 08:17:25.45	35.09	27.20	-48.1	-50.7	6.1	0.00e+00	0	30	104	30106714112	60	41924
2026-01-12 08:17:28.47	33.71	26.94	-48.5	-51.0	6.1	0.00e+00	0	29	104	30106714112	60	43503
2026-01-12 08:17:31.50	32.34	26.67	-48.4	-50.9	6.1	0.00e+00	0	30	104	30106714112	60	42967
2026-01-12 08:17:34.54	31.00	26.39	-48.5	-51.0	6.1	0.00e+00	0	30	104	30106714112	60	43246
2026-01-12 08:17:37.57	29.69	26.10	-48.3	-50.8	6.1	0.00e+00	0	30	104	30106714112	60	42707
2026-01-12 08:17:40.60	28.40	25.79	-48.4	-50.9	6.1	0.00e+00	0	30	104	30106714112	60	42994
2026-01-12 08:17:43.62	27.15	25.48	-48.5	-51.0	6.1	0.00e+00	0	30	104	30106714112	60	43375
2026-01-12 08:17:46.65	25.92	25.16	-48.1	-50.7	6.1	0.00e+00	0	29	104	30106714112	60	41806
2026-01-12 08:17:49.68	24.72	24.83	-48.3	-50.8	6.1	0.00e+00	0	30	104	30106714112	60	42601
2026-01-12 08:17:52.70	23.55	24.49	-48.4	-50.9	6.1	0.00e+00	0	29	104	30106714112	60	42868
2026-01-12 08:17:55.73	22.40	24.14	-48.2	-50.7	6.1	0.00e+00	0	29	104	30106714112	60	42038
2026-01-12 08:17:58.76	21.29	23.79	-48.4	-50.9	6.1	0.00e+00	0	29	104	30106714112	60	42724
2026-01-12 08:18:01.78	20.20	23.44	-48.4	-50.8	6.1	0.00e+00	0	30	104	30106714112	60	42605
2026-01-12 08:18:04.81	19.14	23.08	-48.3	-50.8	6.1	0.00e+00	0	29	104	30106714112	60	42619
2026-01-12 08:18:07.84	18.11	22.72	-48.4	-50.9	6.1	0.00e+00	0	29	104	30106714112	60	42759
2026-01-12 08:18:10.86	17.10	22.36	-48.4	-50.8	6.1	0.00e+00	0	29	104	30106714112	60	42668
2026-01-12 08:18:13.89	16.12	21.99	-48.3	-50.8	6.1	0.00e+00	0	29	104	30106714112	60	42624
2026-01-12 08:18:16.91	15.17	21.63	-48.4	-50.8	6.1	0.00e+00	0	29	104	30106714112	60	42708
2026-01-12 08:18:19.94	14.24	21.26	-48.2	-50.7	6.1	0.00e+00	0	29	104	30106714112	60	42162
2026-01-12 08:18:22.96	13.34	20.89	-48.3	-50.8	6.1	0.00e+00	0	29	104	30106714112	60	42695
2026-01-12 08:18:25.99	12.46	20.52	-48.3	-50.8	6.1	0.00e+00	0	29	104	30106714112	60	42402
2026-01-12 08:18:29.02	11.60	20.16	-48.3	-50.8	6.1	0.00e+00	0	29	104	30106714112	60	42490
2026-01-12 08:18:32.04	10.77	19.79	-48.4	-50.9	6.1	0.00e+00	0	29	104	30106714112	60	42770
2026-01-12 08:18:35.07	9.96	19.42	-48.3	-50.8	6.1	0.00e+00	0	29	104	30106714112	60	42376
2026-01-12 08:18:38.10	9.18	19.06	-48.3	-50.8	6.0	0.00e+00	0	29	104	30106714112	60	42270
2026-01-12 08:18:41.13	8.41	18.70	-48.2	-50.7	6.1	0.00e+00	0	29	104	30106714112	60	42115
2026-01-12 08:18:44.16	7.66	18.34	-48.2	-50.7	6.1	0.00e+00	0	29	104	30106714112	60	42017
2026-01-12 08:18:47.19	6.94	17.98	-48.3	-50.7	6.1	0.00e+00	0	29	104	30106714112	60	42089
2026-01-12 08:18:50.21	6.24	17.63	-48.1	-50.6	6.1	0.00e+00	0	29	104	30106714112	60	41652
2026-01-12 08:18:53.24	5.55	17.27	-48.0	-50.6	6.1	0.00e+00	0	29	104	30106714112	60	41327
2026-01-12 08:18:56.27	4.88	16.92	-48.2	-50.7	6.1	0.00e+00	0	29	104	30106714112	60	41814
2026-01-12 08:18:59.30	4.23	16.58	-48.2	-50.7	6.1	0.00e+00	0	29	104	30106714112	60	42085
2026-01-12 08:19:02.32	3.60	16.23	-48.2	-50.7	6.1	0.00e+00	0	29	104	30106714112	60	41820
2026-01-12 08:19:05.35	2.99	15.89	-48.1	-50.6	6.1	0.00e+00	0	29	104	30106714112	60	41535
2026-01-12 08:19:08.38	2.39	15.55	-48.2	-50.7	6.1	0.00e+00	0	29	104	30106714112	60	42083
2026-01-12 08:19:11.41	1.81	15.22	-48.2	-50.7	6.1	0.00e+00	0	29	104	30106714112	60	41893
2026-01-12 08:19:14.44	1.24	14.89	-48.0	-50.5	6.1	0.00e+00	0	29	104	30106714112	60	40951
2026-01-12 08:19:17.47	0.69	14.56	-48.0	-50.5	6.1	0.00e+00	0	29	104	30106714112	60	41093
2026-01-12 08:19:20.49	0.15	14.24	-48.1	-50.6	6.1	0.00e+00	0	29	104	30106714112	60	41567
2026-01-12 08:19:23.52	359.62	13.91	-48.1	-50.6	6.1	0.00e+00	0	29	104	30106714112	60	41468
2026-01-12 08:19:26.55	359.11	13.60	-48.1	-50.5	6.1	0.00e+00	0	29	104	30106714112	60	41250
2026-01-12 08:19:29.57	358.62	13.28	-48.1	-50.6	6.1	0.00e+00	0	29	104	30106714112	60	41286
2026-01-12 08:19:32.60	358.13	12.97	-48.0	-50.6	6.1	0.00e+00	0	29	104	30106714112	60	41371
2026-01-12 08:19:35.62	357.66	12.67	-48.1	-50.5	6.1	0.00e+00	0	29	104	30106714112	60	41014
2026-01-12 08:19:38.65	357.20	12.36	-48.0	-50.5	6.1	0.00e+00	0	29	104	30106714112	60	40829
2026-01-12 08:19:41.68	356.75	12.06	-48.0	-50.5	6.1	0.00e+00	0	29	104	30106714112	60	41098
2026-01-12 08:19:44.71	356.31	11.76	-48.0	-50.5	6.1	0.00e+00	0	29	104	30106714112	60	40795
2026-01-12 08:19:47.73	355.89	11.47	-48.0	-50.5	6.1	0.00e+00	0	29	104	30106714112	60	41031
2026-01-12 08:19:50.76	355.47	11.18	-48.0	-50.4	6.1	0.00e+00	0	29	104	30106714112	60	40739
2026-01-12 08:19:53.79	355.06	10.89	-47.9	-50.4	6.1	0.00e+00	0	29	104	30106714112	60	40474
2026-01-12 08:19:56.81	354.67	10.61	-47.9	-50.3	6.1	0.00e+00	0	29	104	30106714112	60	40251
2026-01-12 08:19:59.84	354.28	10.33	-47.9	-50.4	6.1	0.00e+00	0	29	104	30106714112	60	40351
2026-01-12 08:20:02.87	353.90	10.05	-47.8	-50.3	6.1	0.00e+00	0	29	104	30106714112	60	40238
2026-01-12 08:20:05.89	353.53	9.77	-47.8	-50.3	6.1	0.00e+00	0	29	104	30106714112	60	40074
2026-01-12 08:20:08.92	353.17	9.50	-47.8	-50.3	6.1	0.00e+00	0	29	104	30106714112	60	39880
2026-01-12 08:20:11.95	352.82	9.23	-47.9	-50.4	6.1	0.00e+00	0	29	104	30106714112	60	40748
2026-01-12 08:20:14.97	352.48	8.97	-47.9	-50.3	6.1	0.00e+00	0	29	104	30106714112	60	40293
2026-01-12 08:20:18.00	352.14	8.70	-47.7	-50.2	6.1	0.00e+00	0	29	104	30106714112	60	39774
2026-01-12 08:20:21.03	351.81	8.44	-47.6	-50.1	6.1	0.00e+00	0	29	104	30106714112	60	39185
2026-01-12 08:20:24.05	351.49	8.19	-47.7	-50.2	6.1	0.00e+00	0	29	104	30106714112	60	39805
2026-01-12 08:20:27.08	351.17	7.93	-47.7	-50.2	6.1	0.00e+00	0	29	104	30106714112	60	39651
2026-01-12 08:20:30.11	350.87	7.68	-47.7	-50.2	6.1	0.00e+00	0	29	104	30106714112	60	39421
2026-01-12 08:20:33.13	350.57	7.43	-47.6	-50.0	6.1	0.00e+00	0	29	104	30106714112	60	38882
2026-01-12 08:20:36.16	350.27	7.18	-47.7	-50.2	6.1	0.00e+00	0	29	104	30106714112	60	39811
2026-01-12 08:20:39.19	349.98	6.94	-47.8	-50.3	6.1	0.00e+00	0	29	104	30106714112	60	39910
2026-01-12 08:20:42.21	349.70	6.70	-47.6	-50.2	6.1	0.00e+00	0	29	104	30106714112	60	39498
2026-01-12 08:20:45.25	349.43	6.46	-47.4	-49.9	6.1	0.00e+00	0	29	104	30106714112	60	38244
2026-01-12 08:20:48.27	349.16	6.22	-47.7	-50.2	6.1	0.00e+00	0	29	104	30106714112	60	39719
2026-01-12 08:20:51.30	348.89	5.98	-47.7	-50.2	6.1	0.00e+00	0	29	104	30106714112	60	39440
2026-01-12 08:20:54.33	348.63	5.75	-47.4	-49.9	6.1	0.00e+00	0	29	104	30106714112	60	38447
2026-01-12 08:20:57.36	348.38	5.52	-47.3	-49.8	6.1	0.00e+00	0	29	104	30106714112	60	37748
2026-01-12 08:21:00.39	348.13	5.29	-47.2	-49.8	6.1	0.00e+00	0	29	104	30106714112	60	37719
2026-01-12 08:21:03.42	347.89	5.07	-47.3	-49.8	6.1	0.00e+00	0	29	104	30106714112	60	37951
2026-01-12 08:21:06.45	347.65	4.84	-46.5	-49.0	6.1	0.00e+00	0	29	104	30106714112	60	34469
2026-01-12 08:21:09.48	347.42	4.62	-46.3	-48.8	6.1	0.00e+00	0	29	104	30106714112	60	33602
2026-01-12 08:21:12.49	347.19	4.40	-44.3	-46.9	6.1	0.00e+00	0	29	104	30106714112	60	27030
2026-01-12 08:21:15.52	346.97	4.18	-43.9	-46.4	6.1	0.00e+00	0	29	104	30106714112	60	25697
2026-01-12 08:21:18.55	346.75	3.97	-44.6	-47.1	6.1	0.00e+00	0	29	104	30106714112	60	27871
2026-01-12 08:21:21.57	346.53	3.76	-44.1	-46.6	6.1	0.00e+00	0	29	104	30106714112	60	26097
2026-01-12 08:21:24.60	346.32	3.54	-43.6	-46.1	6.1	0.00e+00	0	29	104	30106714112	60	24663
2026-01-12 08:21:27.63	346.11	3.33	-43.9	-46.4	6.1	0.00e+00	0	29	104	30106714112	60	25528
2026-01-12 08:21:30.66	345.91	3.12	-44.0	-46.5	6.1	0.00e+00	0	29	104	30106714112	60	25915
2026-01-12 08:21:33.69	345.71	2.92	-47.3	-49.8	6.1	0.00e+00	0	29	104	30106714112	60	37879
2026-01-12 08:21:36.71	345.51	2.71	-48.4	-50.9	6.1	0.00e+00	0	29	104	30106714112	60	42898
2026-01-12 08:21:39.74	345.32	2.51	-48.6	-51.1	6.1	0.00e+00	0	29	104	30106714112	60	43779
2026-01-12 08:21:42.76	345.13	2.31	-48.3	-50.8	6.1	0.00e+00	0	29	104	30106714112	60	42461
2026-01-12 08:21:45.79	344.95	2.11	-48.2	-50.8	6.1	0.00e+00	0	29	104	30106714112	60	42278
2026-01-12 08:21:48.82	344.76	1.91	-48.5	-51.0	6.1	0.00e+00	0	29	104	30106714112	60	43408
2026-01-12 08:21:51.84	344.59	1.71	-48.5	-51.0	6.1	0.00e+00	0	29	104	30106714112	60	43240
2026-01-12 08:21:54.87	344.41	1.52	-48.5	-51.0	6.1	0.00e+00	0	29	104	30106714112	60	43578
2026-01-12 08:21:57.90	344.24	1.32	-48.5	-51.0	6.1	0.00e+00	0	29	104	30106714112	60	43332
2026-01-12 08:22:00.93	344.07	1.13	-48.6	-51.1	6.1	0.00e+00	0	29	104	30106714112	60	43773
2026-01-12 08:22:03.96	343.90	0.94	-48.7	-51.1	6.1	0.00e+00	0	29	104	30106714112	60	43846
2026-01-12 08:22:06.99	343.74	0.75	-48.5	-51.0	6.1	0.00e+00	0	29	104	30106714112	60	43322
2026-01-12 08:22:10.02	343.58	0.56	-48.5	-51.1	6.1	0.00e+00	0	29	104	30106714112	60	43712
2026-01-12 08:22:13.04	343.42	0.37	-48.8	-51.2	6.1	0.00e+00	0	29	104	30106714112	60	44613
2026-01-12 08:22:16.07	343.26	0.19	-48.6	-51.1	6.1	0.00e+00	0	29	104	30106714112	60	43765
2026-01-12 08:22:19.10	343.11	0.00	-48.7	-51.1	6.1	0.00e+00	0	29	104	30106714112	60	44113

#Closed at: 2026-01-12 08:22:20
#Recorded file [30106 MB]: D:/lorett/data/35029_260112_201149.dat