passes_logs/2026/01/12/R4.6S_Anadyr/R4.6S_Anadyr__20260112_032921_AQUA_rec.log

#Pass ID: 20260112_032921_AQUA
#Satellite: AQUA
#Configuration: AQUA
#almurnet v.1.7.20251203
#Start time: 2026-01-12 03:29:23

#Version: 2.2.20231116
#Station: R4.6S_Anadyr
#Location: 177.4865 lon 64.73178 lat
#TLE: 1 27424U 02022A   26011.60158398  .00001056  00000+0  22133-3 0  9990
#TLE: 2 27424  98.4078 337.9720 0002034  82.3051 337.8743 14.61815760260390

#Time	Az	El	Level	Level2	SNR	BER	BlckErr	Temp	State	Recorded	gain1	gain2
2026-01-12 03:29:23.31	198.11	0.10	-48.4	-60.0	3.5	8.46e-01	0	26	0	0	60	36336
2026-01-12 03:29:27.34	198.35	0.33	-48.7	-66.6	3.5	3.04e+01	0	27	104	0	60	81853
2026-01-12 03:29:31.38	198.59	0.56	-48.8	-66.7	3.5	3.04e+01	0	28	104	0	60	83234
2026-01-12 03:29:35.43	198.83	0.80	-48.4	-66.4	3.5	3.04e+01	0	27	104	0	60	80038
2026-01-12 03:29:39.47	199.08	1.03	-47.9	-65.8	3.5	3.04e+01	0	28	104	0	60	74942
2026-01-12 03:29:43.52	199.33	1.27	-47.6	-65.4	3.5	3.04e+01	0	28	104	0	60	71279
2026-01-12 03:29:47.56	199.59	1.51	-47.6	-64.7	3.5	3.04e+01	0	28	104	0	60	66215
2026-01-12 03:29:51.60	199.85	1.75	-47.6	-65.4	3.5	3.04e+01	0	28	104	0	60	71484
2026-01-12 03:29:55.63	200.11	1.99	-47.6	-65.4	3.5	3.04e+01	0	28	104	0	60	72062
2026-01-12 03:29:59.67	200.38	2.23	-47.5	-65.2	3.5	3.04e+01	0	28	104	0	60	69826
2026-01-12 03:30:03.72	200.66	2.48	-47.5	-65.2	3.5	3.04e+01	0	28	104	0	60	70035
2026-01-12 03:30:07.76	200.93	2.73	-47.5	-64.5	3.5	3.04e+01	0	28	104	0	60	64296
2026-01-12 03:30:11.80	201.22	2.98	-47.4	-61.7	4.3	3.04e+01	0	28	104	0	60	46837
2026-01-12 03:30:15.84	201.51	3.23	-43.6	-46.8	18.1	3.04e+01	88	28	0	2621440	60	8385
2026-01-12 03:30:19.88	201.80	3.48	-39.2	-40.9	23.8	3.04e+01	92	28	0	9961472	54	6057
2026-01-12 03:30:23.92	202.10	3.74	-38.3	-40.1	22.7	3.04e+01	91	28	104	15728640	54	5514
2026-01-12 03:30:27.96	202.41	4.00	-39.2	-40.8	24.1	3.04e+01	92	28	0	22544384	54	5989
2026-01-12 03:30:32.00	202.72	4.26	-39.4	-41.1	23.9	3.04e+01	91	28	0	30408704	54	6176
2026-01-12 03:30:36.04	203.03	4.52	-37.8	-39.2	25.8	3.04e+01	91	28	0	37748736	50	6259
2026-01-12 03:30:40.07	203.35	4.78	-37.6	-39.0	25.9	3.04e+01	92	28	0	45613056	50	6131
2026-01-12 03:30:44.11	203.68	5.05	-37.4	-38.8	26.2	3.04e+01	92	28	0	52953088	50	5935
2026-01-12 03:30:48.14	204.02	5.32	-37.4	-38.9	26.2	3.04e+01	92	28	0	60293120	50	6002
2026-01-12 03:30:52.18	204.36	5.59	-37.3	-38.7	26.4	3.04e+01	92	28	0	68157440	50	5924
2026-01-12 03:30:56.22	204.71	5.86	-37.3	-38.7	26.4	3.04e+01	91	28	0	75497472	50	5892
2026-01-12 03:31:00.26	205.06	6.14	-37.2	-38.6	26.5	3.04e+01	90	28	0	83361792	50	5815
2026-01-12 03:31:04.30	205.42	6.42	-37.2	-38.6	26.6	3.04e+01	90	28	0	90701824	50	5841
2026-01-12 03:31:08.34	205.79	6.70	-37.0	-38.4	26.8	3.04e+01	92	28	0	98566144	50	5666
2026-01-12 03:31:12.38	206.17	6.98	-37.0	-38.3	26.8	3.04e+01	92	28	0	105906176	50	5658
2026-01-12 03:31:16.41	206.55	7.27	-36.8	-38.2	27.0	3.04e+01	92	28	0	113246208	48	6216
2026-01-12 03:31:20.45	206.95	7.56	-36.8	-38.1	27.0	3.04e+01	92	28	0	121110528	48	6176
2026-01-12 03:31:24.50	207.35	7.85	-36.6	-37.9	27.3	3.04e+01	92	28	0	128450560	48	6025
2026-01-12 03:31:28.54	207.76	8.14	-36.4	-37.8	27.5	3.04e+01	92	28	0	136314880	48	5933
2026-01-12 03:31:32.58	208.18	8.44	-36.6	-37.9	27.4	3.04e+01	92	28	0	143654912	48	6018
2026-01-12 03:31:36.62	208.60	8.74	-36.6	-37.9	27.4	3.04e+01	92	28	0	151519232	48	6008
2026-01-12 03:31:40.66	209.04	9.04	-36.2	-37.5	27.8	3.04e+01	91	28	0	158859264	48	5756
2026-01-12 03:31:44.70	209.49	9.34	-36.3	-37.6	27.7	3.04e+01	91	28	0	166723584	48	5797
2026-01-12 03:31:48.73	209.94	9.65	-36.0	-37.3	28.0	3.04e+01	92	28	0	174063616	48	5630
2026-01-12 03:31:52.77	210.41	9.96	-36.0	-37.3	28.0	3.04e+01	90	28	0	181927936	48	5623
2026-01-12 03:31:56.81	210.88	10.27	-36.0	-37.3	28.0	3.04e+01	92	28	0	189267968	48	5608
2026-01-12 03:32:00.85	211.37	10.59	-35.8	-37.1	28.2	3.04e+01	92	28	0	196608000	46	6168
2026-01-12 03:32:04.90	211.87	10.91	-35.6	-36.9	28.4	3.04e+01	90	28	0	204472320	46	6013
2026-01-12 03:32:08.93	212.38	11.23	-35.7	-37.0	28.4	3.04e+01	92	28	0	211812352	46	6094
2026-01-12 03:32:12.97	212.90	11.55	-35.7	-37.0	28.3	3.04e+01	92	28	0	219676672	46	6095
2026-01-12 03:32:17.01	213.44	11.88	-35.6	-36.8	28.5	3.04e+01	90	28	0	227016704	46	5979
2026-01-12 03:32:21.05	213.98	12.21	-35.5	-36.7	28.5	3.04e+01	92	28	0	234881024	46	5924
2026-01-12 03:32:25.09	214.54	12.54	-35.5	-36.8	28.6	3.04e+01	92	28	0	242221056	46	5946
2026-01-12 03:32:29.13	215.11	12.88	-35.3	-36.6	28.7	3.04e+01	90	28	0	250085376	46	5855
2026-01-12 03:32:33.18	215.70	13.22	-35.4	-36.7	28.7	3.04e+01	88	28	0	257425408	46	5892
2026-01-12 03:32:37.22	216.30	13.56	-35.3	-36.6	28.7	3.04e+01	89	28	0	264765440	46	5792
2026-01-12 03:32:41.25	216.92	13.90	-35.3	-36.6	28.7	3.04e+01	92	28	0	272629760	46	5797
2026-01-12 03:32:45.30	217.55	14.25	-35.1	-36.4	29.0	3.04e+01	91	28	0	279969792	46	5670
2026-01-12 03:32:49.33	218.19	14.59	-35.1	-36.3	29.0	3.04e+01	91	28	0	287834112	46	5653
2026-01-12 03:32:53.37	218.85	14.94	-35.1	-36.4	29.0	3.04e+01	92	28	0	295174144	46	5677
2026-01-12 03:32:57.42	219.53	15.30	-35.2	-36.4	29.0	3.04e+01	92	28	0	303038464	46	5695
2026-01-12 03:33:01.46	220.23	15.65	-35.1	-36.3	29.0	3.04e+01	92	28	0	310378496	46	5648
2026-01-12 03:33:05.50	220.94	16.01	-34.9	-36.1	29.2	3.04e+01	92	28	0	318242816	44	6170
2026-01-12 03:33:09.54	221.67	16.36	-34.9	-36.1	29.2	3.04e+01	92	29	0	325582848	44	6146
2026-01-12 03:33:13.58	222.41	16.72	-34.9	-36.1	29.1	3.04e+01	91	29	0	333447168	44	6203
2026-01-12 03:33:17.62	223.18	17.08	-34.8	-36.0	29.3	3.04e+01	91	29	0	340787200	44	6119
2026-01-12 03:33:21.66	223.97	17.45	-34.9	-36.1	29.2	3.04e+01	91	29	0	348127232	44	6174
2026-01-12 03:33:25.70	224.77	17.81	-35.0	-36.3	29.1	3.04e+01	92	29	0	355991552	44	6284
2026-01-12 03:33:29.74	225.60	18.17	-34.9	-36.1	29.3	3.04e+01	92	28	0	363331584	44	6163
2026-01-12 03:33:33.78	226.44	18.54	-35.0	-36.2	29.1	3.04e+01	89	28	0	371195904	44	6242
2026-01-12 03:33:37.81	227.31	18.90	-34.8	-36.0	29.3	3.04e+01	88	28	0	378535936	44	6113
2026-01-12 03:33:41.85	228.20	19.26	-34.8	-36.0	29.3	3.04e+01	91	28	0	386400256	44	6113
2026-01-12 03:33:45.89	229.11	19.62	-34.8	-36.0	29.3	3.04e+01	91	28	0	393740288	44	6073
2026-01-12 03:33:49.93	230.04	19.98	-35.0	-36.1	29.2	3.04e+01	90	29	0	401604608	44	6204
2026-01-12 03:33:53.97	231.00	20.34	-35.1	-36.3	29.1	3.04e+01	91	28	0	408944640	44	6291
2026-01-12 03:33:58.00	231.97	20.70	-35.0	-36.2	29.1	3.04e+01	90	29	0	416284672	44	6274
2026-01-12 03:34:02.04	232.98	21.05	-35.1	-36.3	29.1	3.04e+01	90	28	0	424148992	44	6316
2026-01-12 03:34:06.08	234.00	21.41	-35.1	-36.3	29.0	3.04e+01	92	29	0	431489024	44	6330
2026-01-12 03:34:10.12	235.05	21.75	-35.0	-36.2	29.1	3.04e+01	90	29	0	439353344	44	6256
2026-01-12 03:34:14.17	236.13	22.10	-35.0	-36.2	29.2	3.04e+01	92	28	0	446693376	44	6218
2026-01-12 03:34:18.21	237.23	22.43	-35.2	-36.5	28.9	3.04e+01	89	29	0	454557696	44	6428
2026-01-12 03:34:22.25	238.35	22.77	-35.2	-36.4	29.0	3.04e+01	90	28	0	461897728	44	6414
2026-01-12 03:34:26.29	239.50	23.09	-35.4	-36.6	28.8	3.04e+01	91	28	0	469762048	44	6530
2026-01-12 03:34:30.33	240.68	23.41	-35.3	-36.6	28.9	3.04e+01	92	29	0	477102080	44	6510
2026-01-12 03:34:34.37	241.87	23.72	-35.2	-36.5	29.0	3.04e+01	92	29	0	484442112	44	6426
2026-01-12 03:34:38.41	243.09	24.02	-35.4	-36.6	28.9	3.04e+01	90	29	0	492306432	44	6523
2026-01-12 03:34:42.44	244.33	24.31	-35.3	-36.6	28.9	3.04e+01	90	29	0	499646464	44	6501
2026-01-12 03:34:46.48	245.60	24.59	-35.2	-36.4	29.0	3.04e+01	90	29	0	507510784	44	6390
2026-01-12 03:34:50.52	246.89	24.87	-35.2	-36.4	29.0	3.04e+01	90	28	0	514850816	44	6388
2026-01-12 03:34:54.56	248.21	25.12	-35.4	-36.6	28.9	3.04e+01	92	29	0	522715136	44	6521
2026-01-12 03:34:58.60	249.54	25.37	-35.2	-36.4	29.0	3.04e+01	92	29	0	530055168	44	6403
2026-01-12 03:35:02.64	250.90	25.60	-35.3	-36.6	28.9	3.04e+01	92	28	0	537919488	44	6519
2026-01-12 03:35:06.68	252.27	25.82	-35.3	-36.5	28.9	3.04e+01	89	28	0	545259520	44	6495
2026-01-12 03:35:10.72	253.67	26.02	-35.4	-36.6	28.9	3.04e+01	90	28	0	552599552	44	6525
2026-01-12 03:35:14.75	255.08	26.21	-35.5	-36.7	28.9	3.04e+01	91	28	0	560463872	44	6603
2026-01-12 03:35:18.78	256.50	26.38	-35.1	-36.3	29.1	3.04e+01	90	28	0	567803904	44	6315
2026-01-12 03:35:22.81	257.94	26.53	-35.0	-36.3	29.1	3.04e+01	90	28	0	575668224	44	6286
2026-01-12 03:35:26.85	259.39	26.66	-34.9	-36.1	29.2	3.04e+01	90	29	0	583008256	44	6200
2026-01-12 03:35:30.89	260.86	26.78	-34.9	-36.1	29.3	3.04e+01	92	29	0	590872576	44	6190
2026-01-12 03:35:34.93	262.34	26.88	-34.9	-36.1	29.3	3.04e+01	92	29	0	598212608	44	6201
2026-01-12 03:35:38.96	263.82	26.95	-34.8	-36.0	29.4	3.04e+01	92	29	0	605552640	44	6077
2026-01-12 03:35:43.00	265.31	27.01	-34.8	-36.0	29.3	3.04e+01	90	29	0	613416960	44	6113
2026-01-12 03:35:46.97	266.78	27.05	-34.8	-36.0	29.4	3.04e+01	91	29	0	621281280	44	6099
2026-01-12 03:35:51.01	268.28	27.07	-35.0	-36.2	29.2	3.04e+01	91	29	0	628621312	44	6240
2026-01-12 03:35:55.05	269.78	27.07	-34.6	-35.7	29.6	3.04e+01	91	29	0	636485632	44	5925
2026-01-12 03:35:59.09	271.28	27.05	-34.5	-35.7	29.6	3.04e+01	92	29	0	643825664	44	5899
2026-01-12 03:36:03.13	272.77	27.01	-34.6	-35.8	29.5	3.04e+01	90	28	0	651689984	44	5972
2026-01-12 03:36:07.17	274.26	26.95	-34.5	-35.7	29.5	3.04e+01	92	29	0	659030016	44	5911
2026-01-12 03:36:11.22	275.75	26.86	-34.5	-35.7	29.6	3.04e+01	90	28	0	666894336	44	5921
2026-01-12 03:36:15.25	277.22	26.76	-34.5	-35.7	29.5	3.04e+01	92	28	0	674234368	44	5901
2026-01-12 03:36:19.29	278.68	26.65	-34.4	-35.5	29.7	3.04e+01	92	28	0	681574400	44	5781
2026-01-12 03:36:23.33	280.13	26.51	-34.5	-35.7	29.6	3.04e+01	92	29	0	689438720	44	5891
2026-01-12 03:36:27.36	281.57	26.35	-34.3	-35.5	29.7	3.04e+01	91	29	0	696778752	44	5759
2026-01-12 03:36:31.40	282.99	26.18	-34.3	-35.5	29.8	3.04e+01	92	29	0	704643072	44	5729
2026-01-12 03:36:35.44	284.39	25.99	-34.5	-35.7	29.6	3.04e+01	92	28	0	711983104	44	5890
2026-01-12 03:36:39.47	285.78	25.79	-34.4	-35.6	29.7	3.04e+01	92	29	0	719847424	44	5805
2026-01-12 03:36:43.52	287.15	25.57	-34.6	-35.8	29.5	3.04e+01	92	29	0	727187456	44	5974
2026-01-12 03:36:47.56	288.50	25.34	-34.1	-35.3	29.9	3.04e+01	92	29	0	735051776	44	5633
2026-01-12 03:36:51.60	289.83	25.09	-34.5	-35.7	29.6	3.04e+01	91	29	0	742391808	44	5895
2026-01-12 03:36:55.64	291.13	24.83	-34.3	-35.5	29.8	3.04e+01	92	28	0	749731840	44	5735
2026-01-12 03:36:59.67	292.42	24.56	-34.5	-35.7	29.6	3.04e+01	56	28	0	757596160	44	5870
2026-01-12 03:37:03.71	293.68	24.28	-34.2	-35.4	29.8	3.04e+01	58	29	0	764936192	44	5714
2026-01-12 03:37:07.75	294.91	23.99	-34.4	-35.6	29.7	3.04e+01	44	29	0	772800512	44	5827
2026-01-12 03:37:11.79	296.13	23.69	-34.3	-35.5	29.7	3.04e+01	62	29	0	780140544	44	5730
2026-01-12 03:37:15.83	297.32	23.38	-34.3	-35.4	29.8	3.04e+01	53	29	0	788004864	44	5725
2026-01-12 03:37:19.86	298.48	23.06	-34.2	-35.4	29.8	3.04e+01	62	28	0	795344896	44	5698
2026-01-12 03:37:23.90	299.62	22.74	-34.2	-35.4	29.8	3.04e+01	45	29	0	802684928	44	5686
2026-01-12 03:37:27.94	300.73	22.41	-34.1	-35.3	29.9	3.04e+01	59	29	0	810549248	44	5608
2026-01-12 03:37:31.98	301.83	22.07	-34.2	-35.4	29.8	3.04e+01	46	29	0	817889280	44	5724
2026-01-12 03:37:36.01	302.89	21.73	-34.1	-35.3	29.8	3.04e+01	60	28	0	825753600	44	5606
2026-01-12 03:37:40.05	303.93	21.38	-34.1	-35.3	29.8	3.04e+01	45	28	0	833093632	44	5625
2026-01-12 03:37:44.09	304.95	21.04	-34.0	-35.2	29.9	3.04e+01	58	29	0	840957952	44	5583
2026-01-12 03:37:48.12	305.95	20.68	-33.9	-35.1	29.9	3.04e+01	48	28	0	848297984	42	6195
2026-01-12 03:37:52.16	306.92	20.33	-34.1	-35.3	29.9	3.04e+01	59	28	0	856162304	42	6287
2026-01-12 03:37:56.20	307.87	19.97	-33.9	-35.1	30.1	3.04e+01	59	28	0	863502336	42	6145
2026-01-12 03:38:00.24	308.80	19.61	-33.9	-35.1	30.1	3.04e+01	60	29	0	870842368	42	6148
2026-01-12 03:38:04.28	309.70	19.25	-34.1	-35.3	29.8	3.04e+01	58	28	0	878706688	42	6314
2026-01-12 03:38:08.32	310.58	18.89	-34.2	-35.5	29.7	3.04e+01	62	28	0	886046720	42	6424
2026-01-12 03:38:12.36	311.44	18.53	-33.9	-35.1	30.0	3.04e+01	58	28	0	893911040	42	6193
2026-01-12 03:38:16.40	312.28	18.17	-33.9	-35.1	30.0	3.04e+01	57	28	0	901251072	42	6138
2026-01-12 03:38:20.44	313.10	17.81	-33.8	-35.0	30.0	3.04e+01	61	29	0	909115392	42	6096
2026-01-12 03:38:24.47	313.90	17.45	-33.9	-35.1	29.9	3.04e+01	58	28	0	916455424	42	6190
2026-01-12 03:38:28.51	314.68	17.09	-33.9	-35.1	30.0	3.04e+01	60	28	0	924319744	42	6136
2026-01-12 03:38:32.54	315.44	16.74	-33.9	-35.1	30.0	3.04e+01	60	28	0	931659776	42	6140
2026-01-12 03:38:36.58	316.19	16.38	-33.9	-35.0	30.0	3.04e+01	61	29	0	938999808	42	6119
2026-01-12 03:38:40.62	316.91	16.02	-34.1	-35.3	29.8	3.04e+01	59	29	0	946864128	42	6320
2026-01-12 03:38:44.66	317.62	15.67	-34.0	-35.2	29.8	3.04e+01	58	29	0	954204160	42	6217
2026-01-12 03:38:48.70	318.31	15.32	-33.9	-35.1	30.0	3.04e+01	55	29	0	962068480	42	6165
2026-01-12 03:38:52.73	318.98	14.97	-34.1	-35.3	29.7	3.04e+01	59	29	0	969408512	42	6294
2026-01-12 03:38:56.77	319.64	14.62	-34.1	-35.3	29.7	3.04e+01	62	29	0	977272832	42	6319
2026-01-12 03:39:00.81	320.28	14.28	-34.2	-35.4	29.5	3.04e+01	59	28	0	984612864	42	6421
2026-01-12 03:39:04.84	320.91	13.94	-34.1	-35.3	29.8	3.04e+01	61	28	0	991952896	42	6304
2026-01-12 03:39:08.88	321.52	13.60	-34.6	-35.8	29.4	3.04e+01	54	28	0	999817216	42	6667
2026-01-12 03:39:12.92	322.12	13.26	-34.3	-35.5	29.5	3.04e+01	44	28	0	1007157248	42	6476
2026-01-12 03:39:16.95	322.70	12.93	-34.4	-35.6	29.4	3.04e+01	55	28	0	1015021568	42	6562
2026-01-12 03:39:20.99	323.27	12.59	-34.2	-35.4	29.6	3.04e+01	49	28	0	1022361600	42	6371
2026-01-12 03:39:25.03	323.83	12.26	-34.4	-35.6	29.4	3.04e+01	60	29	0	1030225920	42	6530
2026-01-12 03:39:29.07	324.37	11.94	-34.7	-35.9	29.2	3.04e+01	55	28	0	1037565952	42	6760
2026-01-12 03:39:33.10	324.90	11.61	-34.8	-36.0	29.0	3.04e+01	61	28	0	1045430272	42	6855
2026-01-12 03:39:37.14	325.42	11.29	-34.7	-35.9	29.0	3.04e+01	54	28	0	1052770304	42	6786
2026-01-12 03:39:41.18	325.93	10.97	-34.6	-35.8	29.2	3.04e+01	60	28	0	1060110336	42	6698
2026-01-12 03:39:45.22	326.43	10.66	-34.7	-35.9	29.0	3.04e+01	45	28	0	1067974656	42	6746
2026-01-12 03:39:49.26	326.91	10.34	-34.9	-36.1	28.8	3.04e+01	60	29	0	1075314688	44	6187
2026-01-12 03:39:53.29	327.39	10.03	-35.0	-36.3	28.7	3.04e+01	44	28	0	1083179008	44	6280
2026-01-12 03:39:57.32	327.85	9.73	-35.0	-36.3	28.6	3.04e+01	61	29	0	1090519040	44	6297
2026-01-12 03:40:01.36	328.31	9.42	-35.2	-36.4	28.5	3.04e+01	44	28	0	1098383360	44	6392
2026-01-12 03:40:05.40	328.75	9.12	-35.8	-46.0	3.4	3.04e+01	0	28	104	1101529088	44	19297
2026-01-12 03:40:09.43	329.19	8.82	-46.8	-61.9	3.5	3.04e+01	0	29	104	1101529088	60	48022
2026-01-12 03:40:13.47	329.61	8.52	-36.6	-46.8	3.6	3.04e+01	0	29	104	1101529088	48	16787
2026-01-12 03:40:17.50	330.03	8.23	-37.0	-47.3	3.9	3.04e+01	0	29	104	1101529088	50	15771
2026-01-12 03:40:21.54	330.44	7.94	-39.0	-49.5	3.5	3.04e+01	0	28	104	1101529088	54	16303
2026-01-12 03:40:25.58	330.84	7.65	-42.6	-53.9	3.5	3.04e+01	0	28	104	1101529088	60	19067
2026-01-12 03:40:29.61	331.23	7.36	-38.5	-49.0	3.5	3.04e+01	0	29	104	1101529088	54	15292
2026-01-12 03:40:33.65	331.62	7.08	-36.3	-46.6	3.5	3.04e+01	0	29	104	1101529088	48	16467
2026-01-12 03:40:37.69	332.00	6.80	-36.6	-46.8	3.5	3.04e+01	0	28	104	1101529088	48	16827
2026-01-12 03:40:41.72	332.36	6.52	-36.6	-46.9	3.5	3.04e+01	0	29	104	1101529088	48	16901
2026-01-12 03:40:45.75	332.73	6.25	-46.9	-64.4	3.5	3.04e+01	0	29	104	1101529088	60	64228
2026-01-12 03:40:49.79	333.08	5.97	-39.7	-50.2	3.5	3.04e+01	0	29	104	1101529088	54	17612
2026-01-12 03:40:53.83	333.43	5.70	-42.0	-53.8	3.6	3.04e+01	0	29	104	1101529088	56	23856
2026-01-12 03:40:57.87	333.77	5.43	-41.2	-52.6	3.5	3.04e+01	0	29	104	1101529088	56	20558
2026-01-12 03:41:01.90	334.11	5.16	-43.4	-56.4	3.5	3.04e+01	0	29	104	1101529088	60	25511
2026-01-12 03:41:05.94	334.44	4.90	-43.1	-57.5	3.5	3.04e+01	0	29	104	1101529088	60	28986
2026-01-12 03:41:09.98	334.76	4.64	-43.4	-59.2	3.5	3.04e+01	0	29	104	1101529088	60	35263
2026-01-12 03:41:14.02	335.08	4.38	-43.9	-60.9	3.5	3.04e+01	0	29	104	1101529088	60	42588
2026-01-12 03:41:18.06	335.39	4.12	-43.9	-61.4	3.5	3.04e+01	0	29	104	1101529088	60	45346
2026-01-12 03:41:22.09	335.70	3.86	-43.8	-61.7	3.5	3.04e+01	0	29	104	1101529088	60	46787
2026-01-12 03:41:26.13	336.00	3.61	-43.7	-61.7	3.5	3.04e+01	0	29	104	1101529088	60	46905
2026-01-12 03:41:30.17	336.30	3.36	-43.8	-61.7	3.5	3.04e+01	0	29	104	1101529088	60	46710
2026-01-12 03:41:34.21	336.59	3.11	-43.8	-61.8	3.5	3.04e+01	0	29	104	1101529088	60	47279
2026-01-12 03:41:38.25	336.87	2.86	-48.4	-66.3	3.5	3.04e+01	0	29	104	1101529088	60	79243
2026-01-12 03:41:42.29	337.15	2.61	-48.9	-66.7	3.5	3.04e+01	0	29	104	1101529088	60	83182
2026-01-12 03:41:46.33	337.43	2.37	-48.5	-66.7	3.5	3.04e+01	0	29	104	1101529088	60	83233
2026-01-12 03:41:50.37	337.70	2.13	-48.5	-66.6	3.5	3.04e+01	0	29	104	1101529088	60	81952
2026-01-12 03:41:54.41	337.97	1.89	-48.7	-66.6	3.5	3.04e+01	0	29	104	1101529088	60	82345
2026-01-12 03:41:58.45	338.23	1.65	-48.7	-66.6	3.5	3.04e+01	0	29	104	1101529088	60	82450
2026-01-12 03:42:02.48	338.49	1.41	-48.7	-66.6	3.5	3.04e+01	0	29	104	1101529088	60	82073
2026-01-12 03:42:06.53	338.75	1.18	-48.7	-66.6	3.5	3.04e+01	0	29	104	1101529088	60	82081
2026-01-12 03:42:10.57	339.00	0.94	-48.7	-66.6	3.5	3.04e+01	0	29	104	1101529088	60	81853
2026-01-12 03:42:14.60	339.24	0.71	-48.7	-66.6	3.5	3.04e+01	0	29	104	1101529088	60	81854
2026-01-12 03:42:18.64	339.49	0.48	-48.7	-66.6	3.5	3.04e+01	0	29	104	1101529088	60	82075
2026-01-12 03:42:22.68	339.72	0.25	-48.7	-66.6	3.5	3.04e+01	0	29	104	1101529088	60	82013
2026-01-12 03:42:26.72	339.96	0.03	-48.7	-66.5	3.5	3.04e+01	0	29	104	1101529088	60	81662

#Closed at: 2026-01-12 03:42:29
#Recorded file [1101 MB]: D:/lorett/data/35029_260112_152923.dat