passes_logs/2026/01/12/R4.6S_Anadyr/R4.6S_Anadyr__20260112_124049_NOAA_20_JPSS-1_rec.log

#Pass ID: 20260112_124049_NOAA 20 (JPSS-1)
#Satellite: NOAA 20 (JPSS-1)
#Configuration: NOAA 20
#almurnet v.1.7.20251203
#Start time: 2026-01-12 12:40:50

#Version: 2.2.20231116
#Station: R4.6S_Anadyr
#Location: 177.4865 lon 64.73178 lat
#TLE: 1 43013U 17073A   26011.59429536  .00000082  00000+0  59704-4 0  9990
#TLE: 2 43013  98.7632 312.5697 0001637  44.2118 315.9188 14.19535307422256

#Time	Az	El	Level	Level2	SNR	BER	BlckErr	Temp	State	Recorded	gain1	gain2
2026-01-12 12:40:50.66	18.86	0.07	-48.4	-63.3	3.5	1.51e+00	0	24	0	0	60	52651
2026-01-12 12:40:54.70	19.13	0.28	-48.7	-63.9	3.6	1.51e+00	0	25	104	0	60	56847
2026-01-12 12:40:58.73	19.39	0.49	-48.8	-64.0	3.6	1.51e+00	0	26	104	0	60	57035
2026-01-12 12:41:02.77	19.66	0.70	-48.2	-63.4	3.6	1.51e+00	0	26	104	0	60	53384
2026-01-12 12:41:06.81	19.94	0.91	-47.2	-62.2	3.6	1.51e+00	0	26	104	0	60	46702
2026-01-12 12:41:10.85	20.22	1.12	-47.0	-62.1	3.6	1.51e+00	0	26	104	0	60	45937
2026-01-12 12:41:14.89	20.50	1.33	-46.8	-61.9	3.6	1.51e+00	0	26	104	0	60	45154
2026-01-12 12:41:18.93	20.78	1.55	-47.2	-62.4	3.6	1.51e+00	0	26	104	0	60	47494
2026-01-12 12:41:22.97	21.07	1.76	-47.0	-62.1	3.6	1.51e+00	0	26	104	0	60	45778
2026-01-12 12:41:27.01	21.37	1.98	-46.9	-61.9	3.6	1.51e+00	0	26	104	0	60	45192
2026-01-12 12:41:31.04	21.66	2.20	-46.8	-61.8	3.6	1.51e+00	0	26	104	0	60	44509
2026-01-12 12:41:35.08	21.96	2.42	-46.8	-60.8	3.6	1.51e+00	0	26	104	0	60	39676
2026-01-12 12:41:39.11	22.27	2.63	-44.8	-48.8	12.0	1.18e-02	0	27	0	3145728	60	9981
2026-01-12 12:41:43.15	22.58	2.86	-41.1	-42.8	18.4	0.00e+00	0	26	0	11534336	56	6314
2026-01-12 12:41:47.19	22.89	3.08	-43.6	-46.6	14.0	0.00e+00	0	26	0	18874368	58	8667
2026-01-12 12:41:51.23	23.21	3.30	-45.5	-50.5	10.8	7.33e-01	0	27	104	23068672	60	12172
2026-01-12 12:41:55.27	23.54	3.52	-42.9	-45.4	16.6	0.00e+00	0	27	0	24117248	58	7511
2026-01-12 12:41:59.31	23.86	3.75	-43.0	-45.5	15.2	0.00e+00	0	27	0	32505856	58	7665
2026-01-12 12:42:03.36	24.20	3.98	-43.2	-45.8	15.7	0.00e+00	0	27	0	39845888	58	7904
2026-01-12 12:42:07.40	24.54	4.20	-42.5	-44.7	16.7	0.00e+00	0	27	0	47185920	58	6928
2026-01-12 12:42:11.44	24.88	4.43	-41.4	-43.1	18.6	0.00e+00	0	27	0	54525952	56	6465
2026-01-12 12:42:15.47	25.22	4.66	-40.7	-42.3	19.1	0.00e+00	0	27	0	62914560	54	6628
2026-01-12 12:42:19.51	25.58	4.89	-41.2	-42.9	18.7	0.00e+00	0	27	0	70254592	54	7106
2026-01-12 12:42:23.55	25.94	5.13	-40.9	-42.5	19.0	0.00e+00	0	27	0	77594624	56	6041
2026-01-12 12:42:27.59	26.30	5.36	-41.0	-42.5	19.1	0.00e+00	0	27	0	84934656	56	6073
2026-01-12 12:42:31.63	26.67	5.59	-40.8	-42.3	19.5	0.00e+00	0	27	0	92274688	56	5935
2026-01-12 12:42:35.66	27.04	5.83	-40.6	-42.1	19.7	0.00e+00	0	27	0	100663296	54	6471
2026-01-12 12:42:39.70	27.42	6.07	-40.6	-42.0	19.7	0.00e+00	0	27	0	108003328	54	6407
2026-01-12 12:42:43.74	27.81	6.30	-40.2	-41.5	20.1	0.00e+00	0	27	0	115343360	54	6068
2026-01-12 12:42:47.78	28.20	6.54	-40.3	-41.6	20.1	0.00e+00	0	27	0	122683392	54	6166
2026-01-12 12:42:51.82	28.60	6.78	-40.3	-41.6	20.2	0.00e+00	0	27	0	130023424	54	6129
2026-01-12 12:42:55.86	29.01	7.03	-39.9	-41.2	20.4	0.00e+00	0	27	0	138412032	54	5888
2026-01-12 12:42:59.89	29.42	7.27	-39.8	-41.0	20.8	0.00e+00	0	27	0	145752064	54	5748
2026-01-12 12:43:03.93	29.84	7.51	-39.9	-41.2	20.7	0.00e+00	0	27	0	153092096	52	6577
2026-01-12 12:43:07.97	30.26	7.76	-39.7	-40.9	20.9	0.00e+00	0	27	0	160432128	52	6368
2026-01-12 12:43:12.01	30.69	8.00	-39.4	-40.6	21.0	0.00e+00	0	27	0	168820736	52	6143
2026-01-12 12:43:16.05	31.13	8.25	-39.4	-40.5	21.3	0.00e+00	0	27	0	176160768	52	6099
2026-01-12 12:43:20.09	31.58	8.50	-39.3	-40.5	21.4	0.00e+00	0	28	0	183500800	52	6052
2026-01-12 12:43:24.12	32.03	8.74	-39.3	-40.5	21.4	0.00e+00	0	28	0	190840832	52	6047
2026-01-12 12:43:28.16	32.49	8.99	-39.3	-40.5	21.3	0.00e+00	0	28	0	198180864	52	6063
2026-01-12 12:43:32.20	32.96	9.25	-39.3	-40.4	21.4	0.00e+00	0	28	0	206569472	52	6027
2026-01-12 12:43:36.24	33.43	9.50	-39.4	-40.6	21.3	0.00e+00	0	28	0	213909504	52	6127
2026-01-12 12:43:40.27	33.92	9.75	-39.4	-40.5	21.4	0.00e+00	0	28	0	221249536	52	6080
2026-01-12 12:43:44.31	34.41	10.00	-39.0	-40.0	22.0	0.00e+00	0	28	0	228589568	52	5753
2026-01-12 12:43:48.35	34.91	10.26	-38.6	-39.6	22.3	0.00e+00	0	28	0	236978176	50	6170
2026-01-12 12:43:52.39	35.42	10.51	-38.6	-39.6	22.3	0.00e+00	0	28	0	244318208	50	6165
2026-01-12 12:43:56.44	35.94	10.77	-38.6	-39.6	22.3	0.00e+00	0	28	0	251658240	50	6112
2026-01-12 12:44:00.48	36.46	11.02	-38.6	-39.6	22.4	0.00e+00	0	28	0	258998272	50	6128
2026-01-12 12:44:04.52	37.00	11.28	-38.8	-39.8	22.2	0.00e+00	0	28	0	266338304	50	6316
2026-01-12 12:44:08.56	37.54	11.54	-38.7	-39.8	22.2	0.00e+00	0	28	0	274726912	50	6283
2026-01-12 12:44:12.60	38.10	11.79	-38.6	-39.7	22.0	0.00e+00	0	28	0	282066944	50	6177
2026-01-12 12:44:16.64	38.66	12.05	-38.4	-39.4	22.4	0.00e+00	0	28	0	289406976	50	6017
2026-01-12 12:44:20.68	39.23	12.31	-38.5	-39.6	22.2	0.00e+00	0	28	0	296747008	50	6131
2026-01-12 12:44:24.72	39.81	12.57	-38.4	-39.4	22.4	0.00e+00	0	28	0	305135616	50	6012
2026-01-12 12:44:28.76	40.41	12.83	-38.1	-39.1	22.7	0.00e+00	0	28	0	312475648	50	5764
2026-01-12 12:44:32.80	41.01	13.09	-37.9	-38.9	22.9	0.00e+00	0	28	0	319815680	50	5640
2026-01-12 12:44:36.84	41.62	13.34	-38.3	-39.3	22.6	0.00e+00	0	28	0	327155712	50	5926
2026-01-12 12:44:40.88	42.24	13.60	-38.2	-39.2	22.8	0.00e+00	0	28	0	335544320	50	5830
2026-01-12 12:44:44.92	42.88	13.86	-38.3	-39.4	22.5	0.00e+00	0	28	0	342884352	50	5966
2026-01-12 12:44:48.96	43.52	14.12	-38.2	-39.2	22.6	0.00e+00	0	28	0	350224384	50	5858
2026-01-12 12:44:53.00	44.18	14.37	-38.3	-39.2	22.6	0.00e+00	0	28	0	357564416	50	5885
2026-01-12 12:44:57.03	44.84	14.63	-38.1	-39.1	22.8	0.00e+00	0	28	0	364904448	50	5813
2026-01-12 12:45:01.07	45.52	14.88	-37.9	-38.8	23.0	0.00e+00	0	28	0	373293056	50	5614
2026-01-12 12:45:05.10	46.21	15.14	-37.3	-38.2	23.6	0.00e+00	0	29	0	380633088	48	5875
2026-01-12 12:45:09.14	46.91	15.39	-36.9	-37.8	23.9	0.00e+00	0	28	0	387973120	48	5572
2026-01-12 12:45:13.18	47.62	15.64	-36.8	-37.7	24.1	0.00e+00	0	28	0	395313152	46	6183
2026-01-12 12:45:17.22	48.34	15.89	-36.7	-37.6	24.1	0.00e+00	0	29	0	402653184	46	6124
2026-01-12 12:45:21.26	49.08	16.14	-36.8	-37.7	24.0	0.00e+00	0	29	0	411041792	46	6195
2026-01-12 12:45:25.30	49.83	16.38	-36.9	-37.7	24.0	0.00e+00	0	29	0	418381824	46	6240
2026-01-12 12:45:29.34	50.58	16.63	-36.8	-37.7	24.0	0.00e+00	0	29	0	425721856	46	6207
2026-01-12 12:45:33.37	51.35	16.87	-37.1	-37.9	23.8	0.00e+00	0	29	0	433061888	46	6388
2026-01-12 12:45:37.41	52.14	17.11	-37.4	-38.3	23.6	0.00e+00	0	29	0	441450496	46	6667
2026-01-12 12:45:41.45	52.93	17.34	-37.4	-38.3	23.5	0.00e+00	0	29	0	448790528	46	6633
2026-01-12 12:45:45.48	53.74	17.58	-37.6	-38.5	23.4	0.00e+00	0	29	0	456130560	46	6843
2026-01-12 12:45:49.53	54.56	17.81	-37.8	-38.8	23.1	0.00e+00	0	29	0	463470592	48	6269
2026-01-12 12:45:53.56	55.39	18.03	-38.0	-39.0	23.0	0.00e+00	0	29	0	470810624	48	6395
2026-01-12 12:45:57.60	56.23	18.25	-38.5	-39.5	22.4	0.00e+00	0	29	0	479199232	48	6795
2026-01-12 12:46:01.64	57.09	18.47	-38.8	-39.9	22.1	0.00e+00	0	29	0	486539264	50	6351
2026-01-12 12:46:05.68	57.96	18.68	-38.9	-40.0	22.0	0.00e+00	0	29	0	493879296	50	6398
2026-01-12 12:46:09.72	58.84	18.89	-39.2	-40.3	21.7	0.00e+00	0	29	0	501219328	50	6671
2026-01-12 12:46:13.75	59.73	19.10	-38.8	-39.9	22.1	0.00e+00	0	29	0	509607936	50	6375
2026-01-12 12:46:17.79	60.63	19.30	-38.6	-39.6	22.3	0.00e+00	0	29	0	516947968	50	6159
2026-01-12 12:46:21.83	61.55	19.49	-38.8	-39.9	22.2	0.00e+00	0	29	0	524288000	50	6341
2026-01-12 12:46:25.86	62.47	19.68	-38.4	-39.5	22.4	0.00e+00	0	29	0	531628032	50	6097
2026-01-12 12:46:29.90	63.41	19.86	-38.2	-39.3	22.5	0.00e+00	0	29	0	538968064	50	5944
2026-01-12 12:46:33.94	64.36	20.03	-38.1	-39.1	22.8	0.00e+00	0	29	0	547356672	50	5817
2026-01-12 12:46:37.98	65.31	20.20	-38.4	-39.4	22.6	0.00e+00	0	29	0	554696704	50	6033
2026-01-12 12:46:42.02	66.28	20.37	-38.3	-39.3	22.7	0.00e+00	0	29	0	562036736	50	5924
2026-01-12 12:46:46.06	67.26	20.52	-37.8	-38.8	23.2	0.00e+00	0	29	0	569376768	50	5584
2026-01-12 12:46:50.10	68.25	20.67	-37.8	-38.8	23.1	0.00e+00	0	29	0	577765376	50	5584
2026-01-12 12:46:54.13	69.25	20.81	-37.7	-38.6	23.2	0.00e+00	0	29	0	585105408	48	6169
2026-01-12 12:46:58.17	70.25	20.94	-37.7	-38.6	23.3	0.00e+00	0	29	0	592445440	48	6134
2026-01-12 12:47:02.21	71.27	21.06	-37.4	-38.3	23.6	0.00e+00	0	29	0	599785472	48	5951
2026-01-12 12:47:06.25	72.29	21.18	-37.6	-38.6	23.3	0.00e+00	0	29	0	607125504	48	6106
2026-01-12 12:47:10.29	73.32	21.28	-37.8	-38.7	23.2	0.00e+00	0	29	0	615514112	48	6224
2026-01-12 12:47:14.33	74.35	21.38	-38.4	-39.5	22.6	0.00e+00	0	29	0	622854144	48	6780
2026-01-12 12:47:18.37	75.39	21.47	-38.6	-39.6	22.4	0.00e+00	0	29	0	630194176	50	6171
2026-01-12 12:47:22.41	76.44	21.55	-37.5	-38.4	23.5	0.00e+00	0	29	0	637534208	48	6027
2026-01-12 12:47:26.45	77.50	21.62	-38.1	-39.1	22.7	0.00e+00	0	29	0	645922816	48	6511
2026-01-12 12:47:30.49	78.55	21.68	-38.4	-39.4	22.6	0.00e+00	0	29	0	653262848	48	6765
2026-01-12 12:47:34.53	79.61	21.73	-37.9	-39.1	22.9	0.00e+00	0	29	0	660602880	48	6520
2026-01-12 12:47:38.57	80.68	21.77	-38.2	-39.2	22.8	0.00e+00	0	29	0	667942912	48	6602
2026-01-12 12:47:42.61	81.74	21.80	-38.2	-39.2	22.8	0.00e+00	0	29	0	675282944	48	6605
2026-01-12 12:47:46.65	82.81	21.82	-37.5	-38.4	23.4	0.00e+00	0	29	0	683671552	48	6012
2026-01-12 12:47:50.69	83.88	21.83	-37.3	-38.3	23.6	0.00e+00	0	29	0	691011584	48	5934
2026-01-12 12:47:54.73	84.95	21.84	-38.2	-39.2	22.7	0.00e+00	0	29	0	698351616	48	6579
2026-01-12 12:47:58.77	86.02	21.83	-38.5	-39.5	22.5	0.00e+00	0	29	0	705691648	48	6810
2026-01-12 12:48:02.81	87.09	21.81	-38.3	-39.4	22.6	0.00e+00	0	29	0	714080256	48	6707
2026-01-12 12:48:06.85	88.16	21.78	-38.0	-38.9	23.2	0.00e+00	0	29	0	721420288	48	6363
2026-01-12 12:48:10.89	89.23	21.74	-38.6	-39.6	22.4	0.00e+00	0	29	0	728760320	48	6920
2026-01-12 12:48:14.93	90.29	21.69	-38.2	-39.2	22.8	0.00e+00	0	29	0	736100352	48	6560
2026-01-12 12:48:18.97	91.35	21.63	-38.2	-39.2	22.5	0.00e+00	0	29	0	743440384	48	6598
2026-01-12 12:48:23.01	92.40	21.56	-37.6	-38.5	23.4	0.00e+00	0	30	0	751828992	48	6084
2026-01-12 12:48:27.05	93.45	21.49	-37.5	-38.4	23.4	0.00e+00	0	30	0	759169024	48	6020
2026-01-12 12:48:31.09	94.50	21.40	-37.3	-38.2	23.6	0.00e+00	0	30	0	766509056	48	5880
2026-01-12 12:48:35.13	95.54	21.30	-37.7	-38.6	23.3	0.00e+00	0	30	0	773849088	48	6173
2026-01-12 12:48:39.17	96.57	21.20	-37.3	-38.3	23.6	0.00e+00	0	29	0	782237696	48	5953
2026-01-12 12:48:43.21	97.59	21.08	-36.7	-37.6	24.2	0.00e+00	0	30	0	789577728	46	6133
2026-01-12 12:48:47.25	98.61	20.96	-36.3	-37.1	24.6	0.00e+00	0	30	0	796917760	46	5808
2026-01-12 12:48:51.29	99.62	20.83	-36.8	-37.7	24.0	0.00e+00	0	30	0	804257792	46	6190
2026-01-12 12:48:55.33	100.62	20.69	-36.7	-37.6	24.2	0.00e+00	0	30	0	812646400	46	6143
2026-01-12 12:48:59.37	101.62	20.54	-36.2	-37.1	24.7	0.00e+00	0	30	0	819986432	46	5783
2026-01-12 12:49:03.41	102.60	20.39	-36.1	-36.9	24.7	0.00e+00	0	30	0	827326464	46	5653
2026-01-12 12:49:07.44	103.57	20.23	-35.5	-36.3	25.2	0.00e+00	0	30	0	834666496	44	5935
2026-01-12 12:49:11.48	104.53	20.06	-35.9	-36.8	24.8	0.00e+00	0	30	0	842006528	44	6275
2026-01-12 12:49:15.52	105.48	19.89	-36.6	-37.5	24.1	0.00e+00	0	30	0	850395136	44	6806
2026-01-12 12:49:19.55	106.42	19.71	-36.7	-37.5	24.3	0.00e+00	0	30	0	857735168	46	6095
2026-01-12 12:49:23.59	107.36	19.52	-36.3	-37.1	24.5	0.00e+00	0	30	0	865075200	46	5826
2026-01-12 12:49:27.63	108.27	19.32	-36.7	-37.5	24.0	0.00e+00	0	30	0	872415232	46	6081
2026-01-12 12:49:31.67	109.18	19.12	-37.7	-38.6	23.2	0.00e+00	0	30	0	879755264	46	6910
2026-01-12 12:49:35.71	110.08	18.92	-38.0	-39.0	23.0	0.00e+00	0	30	0	888143872	48	6400
2026-01-12 12:49:39.74	110.96	18.71	-37.6	-38.7	23.1	0.00e+00	0	30	0	895483904	48	6222
2026-01-12 12:49:43.78	111.84	18.50	-37.2	-38.1	23.6	0.00e+00	0	30	0	902823936	48	5822
2026-01-12 12:49:47.82	112.70	18.28	-37.5	-38.5	23.3	0.00e+00	0	30	0	910163968	48	6057
2026-01-12 12:49:51.86	113.55	18.06	-38.0	-39.0	22.9	0.00e+00	0	30	0	918552576	48	6421
2026-01-12 12:49:55.89	114.38	17.83	-37.7	-38.6	23.2	0.00e+00	0	30	0	925892608	48	6173
2026-01-12 12:49:59.93	115.21	17.60	-37.2	-38.1	23.6	0.00e+00	0	30	0	933232640	48	5801
2026-01-12 12:50:03.97	116.02	17.37	-37.4	-38.4	23.4	0.00e+00	0	30	0	940572672	48	5966
2026-01-12 12:50:08.00	116.82	17.13	-37.1	-38.1	23.6	0.00e+00	0	30	0	947912704	48	5815
2026-01-12 12:50:12.05	117.61	16.89	-37.8	-38.8	22.8	0.00e+00	0	30	0	956301312	48	6304
2026-01-12 12:50:16.09	118.38	16.65	-38.0	-38.9	22.8	0.00e+00	0	30	0	963641344	48	6387
2026-01-12 12:50:20.12	119.15	16.40	-37.7	-38.6	23.1	0.00e+00	0	30	0	970981376	48	6173
2026-01-12 12:50:24.16	119.90	16.15	-37.4	-38.3	23.4	0.00e+00	0	30	0	978321408	48	5943
2026-01-12 12:50:28.19	120.64	15.91	-37.2	-38.1	23.4	0.00e+00	0	30	0	986710016	48	5789
2026-01-12 12:50:32.23	121.36	15.65	-38.1	-39.2	22.7	0.00e+00	0	30	0	994050048	48	6547
2026-01-12 12:50:36.27	122.08	15.40	-37.4	-38.4	23.3	0.00e+00	0	30	0	1001390080	48	6000
2026-01-12 12:50:40.31	122.79	15.15	-37.8	-38.8	23.0	0.00e+00	0	30	0	1008730112	48	6253
2026-01-12 12:50:44.35	123.48	14.89	-37.6	-38.6	23.1	0.00e+00	0	30	0	1016070144	48	6133
2026-01-12 12:50:48.39	124.16	14.63	-37.2	-38.1	23.6	0.00e+00	0	30	0	1024458752	48	5781
2026-01-12 12:50:52.42	124.83	14.38	-38.3	-39.4	22.5	0.00e+00	0	30	0	1031798784	48	6698
2026-01-12 12:50:56.45	125.49	14.12	-38.0	-39.0	22.7	0.00e+00	0	30	0	1039138816	48	6460
2026-01-12 12:51:00.49	126.13	13.86	-37.9	-38.8	22.9	0.00e+00	0	30	0	1046478848	48	6299
2026-01-12 12:51:04.52	126.77	13.60	-38.3	-39.4	22.4	0.00e+00	0	30	0	1054867456	48	6702
2026-01-12 12:51:08.56	127.40	13.34	-37.7	-38.7	23.0	0.00e+00	0	30	0	1062207488	48	6189
2026-01-12 12:51:12.60	128.01	13.08	-38.0	-39.0	22.7	0.00e+00	0	30	0	1069547520	48	6427
2026-01-12 12:51:16.64	128.62	12.82	-38.3	-39.3	22.4	0.00e+00	0	30	0	1076887552	48	6667
2026-01-12 12:51:20.67	129.21	12.56	-38.0	-39.0	22.6	0.00e+00	0	30	0	1084227584	48	6405
2026-01-12 12:51:24.71	129.80	12.30	-38.1	-39.2	22.5	0.00e+00	0	30	0	1092616192	48	6548
2026-01-12 12:51:28.75	130.37	12.04	-38.5	-39.5	22.2	0.00e+00	0	30	0	1099956224	48	6809
2026-01-12 12:51:32.79	130.94	11.78	-38.3	-39.3	22.4	0.00e+00	0	30	0	1107296256	48	6655
2026-01-12 12:51:36.82	131.49	11.52	-38.8	-39.9	21.8	0.00e+00	0	30	0	1114636288	50	6361
2026-01-12 12:51:40.86	132.04	11.26	-39.1	-40.3	21.4	0.00e+00	0	30	0	1123024896	50	6657
2026-01-12 12:51:44.90	132.58	11.00	-38.8	-39.9	21.9	0.00e+00	0	30	0	1130364928	50	6347
2026-01-12 12:51:48.94	133.11	10.74	-38.2	-39.2	22.4	0.00e+00	0	30	0	1137704960	50	5886
2026-01-12 12:51:52.97	133.63	10.49	-38.3	-39.3	22.3	0.00e+00	0	30	0	1145044992	50	5957
2026-01-12 12:51:57.01	134.14	10.23	-38.5	-39.6	22.0	0.00e+00	0	30	0	1152385024	50	6137
2026-01-12 12:52:01.05	134.64	9.97	-39.0	-40.1	21.5	0.00e+00	0	30	0	1160773632	50	6526
2026-01-12 12:52:05.09	135.13	9.72	-39.2	-40.5	21.2	0.00e+00	0	30	0	1168113664	50	6779
2026-01-12 12:52:09.12	135.62	9.46	-39.4	-40.6	21.0	0.00e+00	0	30	0	1175453696	50	6853
2026-01-12 12:52:13.16	136.09	9.21	-39.0	-40.1	21.4	0.00e+00	0	30	0	1182793728	50	6539
2026-01-12 12:52:17.20	136.56	8.96	-39.1	-40.3	21.2	0.00e+00	0	30	0	1191182336	50	6666
2026-01-12 12:52:21.24	137.03	8.71	-39.3	-40.5	21.1	0.00e+00	0	30	0	1198522368	50	6799
2026-01-12 12:52:25.28	137.48	8.45	-39.7	-40.9	20.6	0.00e+00	0	30	0	1205862400	50	7132
2026-01-12 12:52:29.32	137.93	8.20	-39.9	-41.3	20.3	0.00e+00	0	30	0	1213202432	52	6631
2026-01-12 12:52:33.35	138.37	7.96	-40.3	-41.9	19.7	0.00e+00	0	30	0	1220542464	52	7094
2026-01-12 12:52:37.39	138.80	7.71	-40.7	-42.2	19.1	0.00e+00	0	30	0	1228931072	52	7411
2026-01-12 12:52:41.43	139.22	7.46	-41.2	-43.0	17.6	0.00e+00	0	30	0	1236271104	54	7251
2026-01-12 12:52:45.47	139.64	7.22	-41.9	-44.2	15.3	7.00e-07	0	30	0	1243611136	56	7366
2026-01-12 12:52:49.51	140.06	6.97	-42.8	-45.8	14.3	2.52e-03	0	30	0	1250951168	58	7914
2026-01-12 12:52:53.55	140.46	6.73	-43.4	-47.2	12.1	6.71e-02	0	30	0	1258291200	58	9268
2026-01-12 12:52:57.58	140.86	6.49	-43.6	-48.6	10.9	1.04e-02	0	30	0	1266679808	58	10880
2026-01-12 12:53:01.62	141.25	6.24	-44.1	-49.0	8.6	1.16e-01	0	30	0	1274019840	60	10160
2026-01-12 12:53:05.65	141.64	6.00	-44.4	-49.3	10.4	1.59e-02	0	30	0	1281359872	60	10569
2026-01-12 12:53:09.69	142.02	5.77	-43.5	-48.2	10.2	9.08e-03	0	30	0	1288699904	60	9270
2026-01-12 12:53:13.73	142.39	5.53	-42.8	-46.8	13.3	2.47e-04	0	30	0	1297088512	60	7910
2026-01-12 12:53:17.77	142.76	5.29	-42.0	-44.7	15.6	1.50e-06	0	30	0	1304428544	58	7004
2026-01-12 12:53:21.80	143.12	5.06	-41.8	-44.1	16.4	0.00e+00	0	30	0	1311768576	56	7334
2026-01-12 12:53:25.84	143.48	4.82	-41.7	-43.9	16.5	0.00e+00	0	30	0	1319108608	56	7122
2026-01-12 12:53:29.88	143.83	4.59	-41.7	-44.0	16.7	0.00e+00	0	30	0	1326448640	56	7216
2026-01-12 12:53:33.92	144.18	4.36	-42.0	-44.3	16.3	0.00e+00	0	30	0	1334837248	56	7500
2026-01-12 12:53:37.96	144.52	4.12	-42.1	-44.8	15.7	0.00e+00	0	30	0	1342177280	56	7891
2026-01-12 12:53:41.99	144.86	3.90	-42.0	-44.4	16.1	0.00e+00	0	30	0	1349517312	56	7553
2026-01-12 12:53:46.02	145.19	3.67	-41.9	-44.2	16.3	0.00e+00	0	30	0	1356857344	56	7420
2026-01-12 12:53:50.06	145.52	3.44	-42.2	-44.7	15.7	0.00e+00	0	30	0	1365245952	56	7832
2026-01-12 12:53:54.10	145.84	3.21	-42.0	-44.6	15.8	0.00e+00	0	30	0	1372585984	56	7730
2026-01-12 12:53:58.13	146.16	2.99	-45.5	-61.4	3.6	1.51e+00	0	30	104	1378877440	60	42603
2026-01-12 12:54:02.17	146.47	2.77	-48.2	-63.4	3.6	1.51e+00	0	30	104	1378877440	60	53324
2026-01-12 12:54:06.21	146.78	2.54	-47.7	-63.6	3.6	1.51e+00	0	30	104	1378877440	60	54623
2026-01-12 12:54:10.24	147.08	2.32	-48.4	-63.6	3.6	1.51e+00	0	30	104	1378877440	60	54773
2026-01-12 12:54:14.28	147.38	2.10	-48.4	-63.6	3.6	1.51e+00	0	30	104	1378877440	60	54500
2026-01-12 12:54:18.32	147.68	1.88	-48.5	-63.7	3.6	1.51e+00	0	30	104	1378877440	60	55273
2026-01-12 12:54:22.36	147.97	1.66	-48.5	-63.6	3.6	1.51e+00	0	30	104	1378877440	60	55021
2026-01-12 12:54:26.40	148.25	1.45	-48.5	-63.7	3.6	1.51e+00	0	30	104	1378877440	60	55334
2026-01-12 12:54:30.44	148.54	1.23	-48.4	-63.6	3.6	1.51e+00	0	30	104	1378877440	60	54510
2026-01-12 12:54:34.48	148.82	1.01	-48.5	-63.7	3.6	1.51e+00	0	30	104	1378877440	60	55098
2026-01-12 12:54:38.53	149.09	0.80	-48.5	-63.7	3.6	1.51e+00	0	30	104	1378877440	60	55618
2026-01-12 12:54:42.57	149.37	0.59	-48.5	-63.7	3.6	1.51e+00	0	30	104	1378877440	60	55490
2026-01-12 12:54:46.61	149.63	0.37	-48.6	-63.8	3.6	1.51e+00	0	30	104	1378877440	60	55858
2026-01-12 12:54:50.65	149.90	0.16	-48.5	-63.7	3.6	1.51e+00	0	30	104	1378877440	60	55300
2026-01-12 12:54:54.69	150.16	-0.05	-48.4	-63.7	3.6	1.51e+00	0	30	104	1378877440	60	55052

#Closed at: 2026-01-12 12:54:54
#Recorded file [1378 MB]: D:/lorett/data/35029_260113_004050.dat