passes_logs/2026/01/12/R4.6S_Anadyr/R4.6S_Anadyr__20260112_043703_FENGYUN_3D_rec.log

#Pass ID: 20260112_043703_FENGYUN 3D
#Satellite: FENGYUN 3D
#Configuration: FENGYUN 3D
#almurnet v.1.7.20251203
#Start time: 2026-01-12 04:37:05

#Version: 2.2.20231116
#Station: R4.6S_Anadyr
#Location: 177.4865 lon 64.73178 lat
#TLE: 1 43010U 17072A   26011.62066612  .00000104  00000+0  70810-4 0  9998
#TLE: 2 43010  98.9935 343.3846 0002223 114.2890 245.8518 14.19694405422776

#Time	Az	El	Level	Level2	SNR	BER	BlckErr	Temp	State	Recorded	gain1	gain2
2026-01-12 04:37:05.06	218.29	0.09	-48.6	-66.4	3.5	3.04e+01	0	24	0	0	60	80422
2026-01-12 04:37:09.10	218.59	0.29	-48.4	-60.4	3.6	8.45e-01	0	25	104	0	60	37966
2026-01-12 04:37:13.13	218.89	0.49	-48.4	-60.5	3.6	8.45e-01	0	26	104	0	60	38463
2026-01-12 04:37:17.17	219.20	0.69	-47.8	-60.5	3.6	8.44e-01	0	26	104	0	60	38084
2026-01-12 04:37:21.21	219.51	0.89	-47.6	-59.7	3.6	8.45e-01	0	26	104	0	60	35010
2026-01-12 04:37:25.25	219.83	1.09	-44.9	-56.3	3.6	8.45e-01	0	26	104	0	60	23567
2026-01-12 04:37:29.29	220.15	1.30	-44.9	-56.2	3.6	8.44e-01	0	26	104	0	60	23288
2026-01-12 04:37:33.33	220.47	1.50	-44.8	-56.2	3.6	8.44e-01	0	26	104	0	60	23435
2026-01-12 04:37:37.37	220.80	1.71	-44.8	-56.2	3.6	8.45e-01	0	26	104	0	60	23442
2026-01-12 04:37:41.41	221.13	1.91	-44.8	-56.2	3.6	8.44e-01	0	26	104	0	60	23330
2026-01-12 04:37:45.45	221.47	2.12	-44.8	-56.1	3.6	8.44e-01	0	26	104	0	60	23140
2026-01-12 04:37:49.49	221.81	2.32	-44.8	-56.1	3.6	8.44e-01	0	26	104	0	60	23079
2026-01-12 04:37:53.52	222.16	2.53	-44.8	-55.7	3.6	8.44e-01	0	26	104	0	60	21984
2026-01-12 04:37:57.57	222.51	2.74	-41.6	-44.4	11.1	6.36e-03	0	26	0	9437184	58	6726
2026-01-12 04:38:01.60	222.87	2.95	-38.9	-40.5	15.0	0.00e+00	0	26	0	32505856	52	6057
2026-01-12 04:38:05.64	223.23	3.16	-41.0	-43.4	10.8	0.00e+00	0	26	0	47185920	52	8488
2026-01-12 04:38:09.68	223.59	3.37	-38.0	-39.3	16.4	0.00e+00	0	26	0	57671680	50	5958
2026-01-12 04:38:13.71	223.96	3.58	-38.1	-39.4	16.4	0.00e+00	0	26	0	79691776	48	6716
2026-01-12 04:38:17.75	224.34	3.79	-38.1	-39.3	16.9	0.00e+00	0	26	0	102760448	48	6685
2026-01-12 04:38:21.79	224.72	4.00	-38.2	-39.5	17.1	0.00e+00	0	26	0	125829120	48	6784
2026-01-12 04:38:25.82	225.11	4.22	-38.3	-39.6	16.5	0.00e+00	0	26	0	147849216	48	6885
2026-01-12 04:38:29.86	225.50	4.43	-38.6	-40.1	15.7	0.00e+00	0	26	0	170917888	48	7282
2026-01-12 04:38:33.90	225.90	4.64	-38.7	-40.1	16.0	1.10e-06	0	27	0	193986560	50	6493
2026-01-12 04:38:37.94	226.30	4.86	-38.8	-40.4	15.4	0.00e+00	0	26	0	217055232	50	6700
2026-01-12 04:38:41.98	226.71	5.08	-39.0	-40.4	16.5	0.00e+00	0	27	0	239075328	50	6712
2026-01-12 04:38:46.02	227.12	5.29	-39.2	-40.5	17.0	0.00e+00	0	26	0	262144000	50	6780
2026-01-12 04:38:50.06	227.54	5.51	-39.6	-41.0	16.7	0.00e+00	0	26	0	284164096	50	7191
2026-01-12 04:38:54.10	227.97	5.73	-40.1	-41.7	15.8	0.00e+00	0	27	0	307232768	52	6931
2026-01-12 04:38:58.13	228.40	5.94	-39.9	-41.2	16.4	0.00e+00	0	27	0	330301440	52	6611
2026-01-12 04:39:02.17	228.84	6.16	-40.0	-41.4	16.7	0.00e+00	0	27	0	352321536	52	6738
2026-01-12 04:39:06.21	229.29	6.38	-40.1	-41.5	16.6	0.00e+00	0	27	0	375390208	52	6781
2026-01-12 04:39:10.24	229.74	6.60	-40.1	-41.5	16.5	0.00e+00	0	27	0	398458880	52	6806
2026-01-12 04:39:14.28	230.20	6.82	-40.4	-41.7	16.3	0.00e+00	0	27	0	421527552	52	7001
2026-01-12 04:39:18.32	230.66	7.04	-40.6	-42.0	16.4	0.00e+00	0	27	0	443547648	52	7226
2026-01-12 04:39:22.36	231.14	7.26	-40.6	-42.1	16.3	0.00e+00	0	27	0	466616320	54	6478
2026-01-12 04:39:26.40	231.61	7.48	-40.2	-41.6	16.7	0.00e+00	0	27	0	488636416	54	6159
2026-01-12 04:39:30.44	232.10	7.70	-40.1	-41.4	17.0	0.00e+00	0	27	0	511705088	54	6026
2026-01-12 04:39:34.48	232.59	7.92	-40.2	-41.6	16.9	0.00e+00	0	27	0	534773760	54	6110
2026-01-12 04:39:38.51	233.09	8.14	-40.4	-41.7	16.8	0.00e+00	0	27	0	556793856	54	6220
2026-01-12 04:39:42.54	233.60	8.36	-40.2	-41.5	17.0	0.00e+00	0	27	0	579862528	54	6074
2026-01-12 04:39:46.58	234.11	8.58	-39.8	-41.1	17.3	0.00e+00	0	27	0	602931200	54	5776
2026-01-12 04:39:50.62	234.64	8.80	-39.7	-40.9	17.7	0.00e+00	0	27	0	624951296	52	6370
2026-01-12 04:39:54.66	235.17	9.02	-39.3	-40.5	18.1	0.00e+00	0	27	0	648019968	52	6075
2026-01-12 04:39:58.69	235.70	9.24	-39.1	-40.2	18.4	0.00e+00	0	27	0	671088640	52	5887
2026-01-12 04:40:02.73	236.25	9.46	-38.6	-39.6	19.0	0.00e+00	0	27	0	693108736	50	6154
2026-01-12 04:40:06.77	236.80	9.68	-38.1	-39.1	19.5	0.00e+00	0	27	0	716177408	50	5815
2026-01-12 04:40:10.81	237.37	9.90	-37.2	-38.0	20.6	0.00e+00	0	27	0	739246080	48	5755
2026-01-12 04:40:14.84	237.94	10.11	-37.1	-38.0	20.6	0.00e+00	0	27	0	761266176	48	5737
2026-01-12 04:40:18.88	238.51	10.33	-36.9	-37.8	20.8	0.00e+00	0	27	0	784334848	48	5614
2026-01-12 04:40:22.92	239.10	10.55	-36.3	-37.1	21.4	0.00e+00	0	27	0	807403520	46	5810
2026-01-12 04:40:26.96	239.70	10.77	-35.8	-36.6	21.9	0.00e+00	0	27	0	829423616	46	5501
2026-01-12 04:40:30.99	240.30	10.98	-35.4	-36.2	22.2	0.00e+00	0	27	0	852492288	44	5863
2026-01-12 04:40:35.03	240.91	11.20	-34.9	-35.7	22.8	0.00e+00	0	27	0	875560960	44	5523
2026-01-12 04:40:39.07	241.53	11.41	-34.4	-35.2	23.3	0.00e+00	0	27	0	897581056	42	5860
2026-01-12 04:40:43.11	242.16	11.62	-33.8	-34.4	23.9	0.00e+00	0	27	0	920649728	40	6033
2026-01-12 04:40:47.15	242.80	11.83	-33.5	-34.2	24.3	0.00e+00	0	27	0	943718400	40	5851
2026-01-12 04:40:51.19	243.45	12.04	-33.2	-33.9	24.6	0.00e+00	0	27	0	965738496	40	5657
2026-01-12 04:40:55.23	244.11	12.25	-33.0	-33.7	24.8	0.00e+00	0	27	0	988807168	40	5546
2026-01-12 04:40:59.26	244.77	12.46	-32.7	-33.4	25.2	0.00e+00	0	27	0	1011875840	38	6018
2026-01-12 04:41:03.30	245.45	12.66	-32.4	-33.0	25.5	0.00e+00	0	27	0	1033895936	38	5732
2026-01-12 04:41:07.34	246.13	12.87	-32.3	-32.9	25.5	0.00e+00	0	27	0	1056964608	38	5672
2026-01-12 04:41:11.38	246.82	13.07	-32.6	-33.2	25.5	0.00e+00	0	27	0	1080033280	38	5888
2026-01-12 04:41:15.42	247.52	13.27	-32.3	-32.9	25.6	0.00e+00	0	27	0	1102053376	38	5685
2026-01-12 04:41:19.46	248.24	13.46	-32.2	-32.9	25.6	0.00e+00	0	27	0	1125122048	38	5685
2026-01-12 04:41:23.50	248.96	13.66	-32.1	-32.8	25.6	0.00e+00	0	27	0	1148190720	38	5571
2026-01-12 04:41:27.54	249.69	13.85	-32.2	-32.8	25.6	0.00e+00	0	27	0	1170210816	38	5615
2026-01-12 04:41:31.58	250.42	14.04	-32.1	-32.8	25.7	0.00e+00	0	27	0	1193279488	38	5595
2026-01-12 04:41:35.61	251.17	14.22	-32.1	-32.8	25.7	0.00e+00	0	27	0	1216348160	38	5576
2026-01-12 04:41:39.65	251.93	14.40	-31.8	-32.5	26.0	0.00e+00	0	27	0	1238368256	38	5396
2026-01-12 04:41:43.69	252.69	14.58	-31.7	-32.4	26.0	0.00e+00	0	27	0	1261436928	36	5968
2026-01-12 04:41:47.73	253.47	14.76	-31.8	-32.5	26.0	0.00e+00	0	27	0	1284505600	36	6075
2026-01-12 04:41:51.77	254.25	14.93	-31.8	-32.4	26.1	0.00e+00	0	27	0	1306525696	36	6012
2026-01-12 04:41:55.81	255.04	15.10	-31.9	-32.5	26.0	0.00e+00	0	27	0	1329594368	36	6061
2026-01-12 04:41:59.85	255.84	15.26	-31.9	-32.6	26.0	0.00e+00	0	27	0	1352663040	36	6109
2026-01-12 04:42:03.89	256.65	15.42	-31.9	-32.6	25.9	0.00e+00	0	27	0	1374683136	36	6117
2026-01-12 04:42:07.93	257.47	15.58	-31.7	-32.3	26.1	0.00e+00	0	27	0	1397751808	36	5947
2026-01-12 04:42:11.96	258.29	15.73	-31.8	-32.4	26.1	0.00e+00	0	27	0	1420820480	36	6012
2026-01-12 04:42:16.00	259.13	15.87	-31.7	-32.4	26.1	0.00e+00	0	27	0	1442840576	36	5986
2026-01-12 04:42:20.04	259.97	16.01	-31.5	-32.1	26.3	0.00e+00	0	27	0	1465909248	36	5801
2026-01-12 04:42:24.08	260.82	16.15	-31.4	-32.0	26.4	0.00e+00	0	27	0	1488977920	36	5749
2026-01-12 04:42:28.12	261.67	16.28	-31.5	-32.1	26.4	0.00e+00	0	27	0	1510998016	36	5785
2026-01-12 04:42:32.16	262.53	16.41	-31.4	-32.0	26.4	0.00e+00	0	27	0	1534066688	36	5760
2026-01-12 04:42:36.20	263.40	16.53	-31.3	-31.9	26.4	0.00e+00	0	27	0	1557135360	36	5691
2026-01-12 04:42:40.24	264.28	16.64	-31.5	-32.1	26.3	0.00e+00	0	27	0	1579155456	36	5812
2026-01-12 04:42:44.28	265.16	16.75	-31.7	-32.4	26.3	2.20e-06	0	27	0	1602224128	36	5972
2026-01-12 04:42:48.32	266.05	16.85	-31.4	-32.0	26.4	0.00e+00	0	27	0	1625292800	36	5741
2026-01-12 04:42:52.36	266.95	16.95	-31.6	-32.3	26.2	0.00e+00	0	27	0	1647312896	36	5909
2026-01-12 04:42:56.40	267.85	17.04	-31.3	-31.9	26.4	0.00e+00	0	27	0	1670381568	36	5648
2026-01-12 04:43:00.43	268.75	17.12	-31.1	-31.8	26.7	0.00e+00	0	27	0	1693450240	36	5583
2026-01-12 04:43:04.47	269.66	17.19	-31.4	-32.0	26.4	0.00e+00	0	27	0	1715470336	36	5750
2026-01-12 04:43:08.51	270.57	17.26	-31.2	-31.9	26.5	0.00e+00	0	27	0	1738539008	36	5636
2026-01-12 04:43:12.55	271.49	17.33	-31.2	-31.9	26.6	0.00e+00	0	27	0	1761607680	36	5648
2026-01-12 04:43:16.59	272.41	17.38	-31.3	-31.9	26.5	0.00e+00	0	27	0	1783627776	36	5674
2026-01-12 04:43:20.63	273.33	17.43	-31.0	-31.7	26.7	0.00e+00	0	27	0	1806696448	36	5536
2026-01-12 04:43:24.67	274.26	17.47	-31.2	-31.8	26.6	0.00e+00	0	27	0	1829765120	36	5603
2026-01-12 04:43:28.71	275.19	17.51	-31.0	-31.5	26.8	0.00e+00	0	27	0	1851785216	36	5436
2026-01-12 04:43:32.75	276.12	17.54	-31.1	-31.7	26.7	0.00e+00	0	27	0	1874853888	36	5560
2026-01-12 04:43:36.78	277.05	17.56	-31.0	-31.6	26.7	0.00e+00	0	27	0	1897922560	36	5498
2026-01-12 04:43:40.82	277.98	17.57	-31.1	-31.7	26.6	0.00e+00	0	27	0	1919942656	36	5550
2026-01-12 04:43:44.86	278.92	17.58	-31.0	-31.7	26.6	0.00e+00	0	27	0	1943011328	36	5510
2026-01-12 04:43:48.90	279.85	17.58	-31.2	-31.9	26.6	0.00e+00	0	27	0	1966080000	36	5638
2026-01-12 04:43:52.94	280.78	17.57	-31.1	-31.7	26.6	0.00e+00	0	27	0	1988100096	36	5561
2026-01-12 04:43:56.98	281.72	17.55	-31.3	-31.9	26.4	0.00e+00	0	27	0	2011168768	36	5667
2026-01-12 04:44:01.02	282.65	17.53	-31.4	-32.0	26.3	0.00e+00	0	27	0	2034237440	36	5756
2026-01-12 04:44:05.05	283.57	17.50	-31.3	-32.0	26.4	0.00e+00	0	27	0	2056257536	36	5718
2026-01-12 04:44:09.09	284.50	17.46	-31.1	-31.7	26.6	0.00e+00	0	27	0	2079326208	36	5544
2026-01-12 04:44:13.13	285.43	17.41	-31.0	-31.5	26.7	0.00e+00	0	27	0	2102394880	36	5432
2026-01-12 04:44:17.17	286.35	17.36	-31.3	-31.9	26.5	0.00e+00	0	27	0	2124414976	36	5672
2026-01-12 04:44:21.20	287.26	17.30	-31.5	-32.1	26.4	0.00e+00	0	27	0	2147483648	36	5770
2026-01-12 04:44:25.24	288.18	17.24	-31.4	-32.0	26.4	0.00e+00	0	27	0	2170552320	36	5754
2026-01-12 04:44:29.28	289.09	17.17	-31.4	-31.9	26.4	0.00e+00	0	27	0	2192572416	36	5672
2026-01-12 04:44:33.32	290.00	17.09	-31.6	-32.3	26.2	0.00e+00	0	27	0	2215641088	36	5913
2026-01-12 04:44:37.35	290.89	17.00	-31.8	-32.5	26.1	0.00e+00	0	27	0	2238709760	36	6044
2026-01-12 04:44:41.39	291.79	16.91	-31.7	-32.4	26.2	0.00e+00	0	27	0	2260729856	36	5965
2026-01-12 04:44:45.43	292.68	16.81	-31.4	-32.0	26.3	0.00e+00	0	27	0	2283798528	36	5737
2026-01-12 04:44:49.47	293.57	16.71	-31.5	-32.2	26.3	0.00e+00	0	27	0	2305818624	36	5837
2026-01-12 04:44:53.51	294.44	16.60	-31.9	-32.6	26.0	0.00e+00	0	27	0	2328887296	36	6135
2026-01-12 04:44:57.54	295.31	16.48	-31.9	-32.6	25.9	0.00e+00	0	27	0	2351955968	36	6157
2026-01-12 04:45:01.58	296.18	16.36	-31.8	-32.4	26.1	0.00e+00	0	27	0	2375024640	36	5996
2026-01-12 04:45:05.62	297.04	16.24	-31.7	-32.4	26.2	0.00e+00	0	27	0	2397044736	36	5992
2026-01-12 04:45:09.66	297.89	16.10	-31.7	-32.4	26.1	0.00e+00	0	27	0	2420113408	36	5993
2026-01-12 04:45:13.69	298.73	15.97	-31.7	-32.3	26.1	0.00e+00	0	27	0	2443182080	36	5963
2026-01-12 04:45:17.73	299.57	15.83	-31.7	-32.3	26.2	0.00e+00	0	27	0	2465202176	36	5951
2026-01-12 04:45:21.77	300.39	15.68	-31.8	-32.4	26.2	0.00e+00	0	27	0	2488270848	36	6014
2026-01-12 04:45:25.82	301.22	15.53	-32.0	-32.6	26.0	0.00e+00	0	27	0	2510290944	36	6146
2026-01-12 04:45:29.85	302.03	15.37	-32.2	-32.8	25.8	0.00e+00	0	27	0	2533359616	36	6306
2026-01-12 04:45:33.89	302.83	15.21	-32.1	-32.8	25.8	0.00e+00	0	27	0	2556428288	36	6250
2026-01-12 04:45:37.93	303.62	15.05	-32.1	-32.8	25.9	0.00e+00	0	27	0	2579496960	36	6317
2026-01-12 04:45:41.97	304.41	14.88	-32.3	-32.9	25.7	0.00e+00	0	27	0	2601517056	36	6359
2026-01-12 04:45:46.00	305.19	14.71	-32.1	-32.7	25.8	0.00e+00	0	27	0	2624585728	36	6243
2026-01-12 04:45:50.04	305.95	14.53	-32.2	-32.8	25.8	0.00e+00	0	27	0	2647654400	36	6280
2026-01-12 04:45:54.08	306.71	14.35	-32.1	-32.7	25.8	0.00e+00	0	27	0	2669674496	36	6229
2026-01-12 04:45:58.12	307.46	14.17	-32.3	-32.9	25.7	0.00e+00	0	27	0	2692743168	36	6323
2026-01-12 04:46:02.15	308.20	13.98	-32.4	-33.2	25.6	0.00e+00	0	27	0	2714763264	36	6554
2026-01-12 04:46:06.19	308.94	13.80	-32.4	-33.0	25.5	0.00e+00	0	27	0	2737831936	36	6447
2026-01-12 04:46:10.23	309.66	13.61	-32.6	-33.2	25.5	0.00e+00	0	27	0	2760900608	36	6591
2026-01-12 04:46:14.27	310.38	13.41	-32.5	-33.3	25.4	0.00e+00	0	27	0	2782920704	36	6622
2026-01-12 04:46:18.31	311.08	13.22	-32.7	-33.4	25.2	0.00e+00	0	27	0	2805989376	38	5975
2026-01-12 04:46:22.35	311.78	13.02	-32.6	-33.3	25.3	0.00e+00	0	27	0	2829058048	38	5941
2026-01-12 04:46:26.38	312.46	12.82	-32.7	-33.4	25.2	0.00e+00	0	27	0	2852126720	38	5992
2026-01-12 04:46:30.42	313.14	12.62	-32.8	-33.6	25.1	0.00e+00	0	27	0	2874146816	38	6120
2026-01-12 04:46:34.46	313.81	12.41	-32.8	-33.5	25.2	0.00e+00	0	27	0	2897215488	38	6039
2026-01-12 04:46:38.50	314.47	12.21	-33.0	-33.7	25.1	0.00e+00	0	27	0	2919235584	38	6217
2026-01-12 04:46:42.54	315.12	12.00	-33.0	-33.7	25.0	0.00e+00	0	27	0	2942304256	38	6183
2026-01-12 04:46:46.58	315.76	11.79	-32.9	-33.5	25.1	0.00e+00	0	27	0	2965372928	38	6088
2026-01-12 04:46:50.62	316.40	11.58	-32.8	-33.5	25.0	0.00e+00	0	27	0	2987393024	38	6051
2026-01-12 04:46:54.66	317.02	11.37	-33.2	-33.8	24.6	0.00e+00	0	27	0	3010461696	38	6271
2026-01-12 04:46:58.69	317.64	11.16	-33.4	-34.0	24.5	0.00e+00	0	27	0	3033530368	38	6453
2026-01-12 04:47:02.73	318.24	10.94	-33.3	-34.0	24.5	0.00e+00	0	27	0	3056599040	38	6399
2026-01-12 04:47:06.77	318.84	10.73	-33.3	-33.9	24.7	0.00e+00	0	27	0	3078619136	38	6386
2026-01-12 04:47:10.80	319.43	10.52	-33.5	-34.3	24.5	0.00e+00	0	27	0	3101687808	38	6644
2026-01-12 04:47:14.84	320.02	10.30	-33.7	-34.3	24.3	0.00e+00	0	27	0	3123707904	38	6692
2026-01-12 04:47:18.88	320.59	10.08	-33.7	-34.4	24.2	0.00e+00	0	27	0	3146776576	40	5995
2026-01-12 04:47:22.92	321.16	9.87	-33.6	-34.3	24.4	0.00e+00	0	27	0	3169845248	40	5900
2026-01-12 04:47:26.96	321.71	9.65	-33.8	-34.6	24.2	0.00e+00	0	27	0	3191865344	40	6116
2026-01-12 04:47:30.99	322.26	9.43	-34.2	-35.0	23.8	0.00e+00	0	27	0	3214934016	40	6395
2026-01-12 04:47:35.03	322.80	9.21	-33.7	-34.3	24.2	0.00e+00	0	27	0	3238002688	40	5952
2026-01-12 04:47:39.07	323.34	8.99	-33.7	-34.5	24.1	0.00e+00	0	27	0	3260022784	40	6065
2026-01-12 04:47:43.11	323.86	8.78	-33.7	-34.5	24.1	0.00e+00	0	27	0	3283091456	40	6063
2026-01-12 04:47:47.15	324.38	8.56	-33.9	-34.6	23.9	0.00e+00	0	27	0	3306160128	40	6115
2026-01-12 04:47:51.18	324.89	8.34	-34.2	-34.8	23.6	0.00e+00	0	27	0	3328180224	40	6289
2026-01-12 04:47:55.23	325.40	8.12	-34.3	-35.1	23.5	0.00e+00	0	27	0	3351248896	40	6510
2026-01-12 04:47:59.26	325.90	7.90	-34.5	-35.2	23.3	0.00e+00	0	27	0	3374317568	40	6557
2026-01-12 04:48:03.30	326.39	7.68	-34.6	-35.4	23.1	0.00e+00	0	27	0	3396337664	42	5984
2026-01-12 04:48:07.34	326.87	7.47	-34.6	-35.3	23.2	0.00e+00	0	27	0	3419406336	42	5901
2026-01-12 04:48:11.38	327.35	7.25	-34.5	-35.3	23.2	0.00e+00	0	27	0	3442475008	42	5933
2026-01-12 04:48:15.42	327.81	7.03	-34.7	-35.5	22.9	0.00e+00	0	27	0	3464495104	42	6092
2026-01-12 04:48:19.45	328.28	6.81	-34.9	-35.6	22.7	0.00e+00	0	27	0	3487563776	42	6146
2026-01-12 04:48:23.49	328.73	6.60	-34.9	-35.7	22.8	0.00e+00	0	27	0	3510632448	42	6227
2026-01-12 04:48:27.53	329.18	6.38	-34.9	-35.6	22.7	0.00e+00	0	27	0	3532652544	42	6147
2026-01-12 04:48:31.56	329.62	6.16	-35.2	-35.9	22.3	0.00e+00	0	27	0	3555721216	42	6383
2026-01-12 04:48:35.60	330.06	5.95	-34.9	-35.7	22.7	0.00e+00	0	27	0	3578789888	42	6206
2026-01-12 04:48:39.64	330.49	5.73	-35.1	-35.8	22.5	0.00e+00	0	27	0	3600809984	42	6267
2026-01-12 04:48:43.67	330.92	5.52	-35.1	-35.9	22.5	0.00e+00	0	27	0	3623878656	42	6351
2026-01-12 04:48:47.71	331.34	5.30	-34.9	-35.6	22.5	0.00e+00	0	27	0	3646947328	42	6158
2026-01-12 04:48:51.74	331.75	5.09	-35.2	-36.0	22.1	0.00e+00	0	27	0	3668967424	42	6396
2026-01-12 04:48:55.78	332.16	4.88	-35.9	-36.7	20.9	0.00e+00	0	27	0	3692036096	44	6210
2026-01-12 04:48:59.82	332.56	4.66	-37.8	-38.9	17.7	0.00e+00	0	27	0	3714056192	48	6380
2026-01-12 04:49:03.85	332.95	4.45	-41.1	-43.8	11.1	1.10e-03	0	27	0	3737124864	54	7924
2026-01-12 04:49:07.90	333.35	4.24	-42.8	-48.7	4.8	7.15e-01	0	27	0	3758096384	58	11081
2026-01-12 04:49:11.93	333.73	4.03	-43.1	-53.7	3.6	8.44e-01	0	27	104	3759144960	58	19706
2026-01-12 04:49:15.97	334.11	3.82	-43.2	-55.0	3.6	8.45e-01	0	27	104	3759144960	58	22767
2026-01-12 04:49:20.01	334.49	3.61	-43.3	-55.3	3.6	8.46e-01	0	27	104	3759144960	58	23542
2026-01-12 04:49:24.03	334.85	3.40	-43.3	-55.3	3.6	8.44e-01	0	27	104	3759144960	58	23531
2026-01-12 04:49:28.07	335.22	3.19	-43.2	-55.3	3.6	8.46e-01	0	27	104	3759144960	58	23645
2026-01-12 04:49:32.11	335.58	2.99	-46.8	-58.9	3.6	8.46e-01	0	27	104	3759144960	60	31792
2026-01-12 04:49:36.15	335.94	2.78	-48.4	-60.5	3.6	8.46e-01	0	27	104	3759144960	60	38245
2026-01-12 04:49:40.19	336.29	2.57	-48.5	-60.6	3.6	8.45e-01	0	27	104	3759144960	60	38822
2026-01-12 04:49:44.23	336.63	2.37	-48.1	-60.5	3.6	8.45e-01	0	27	104	3759144960	60	38121
2026-01-12 04:49:48.27	336.98	2.16	-48.4	-60.6	3.6	8.46e-01	0	27	104	3759144960	60	38570
2026-01-12 04:49:52.31	337.31	1.96	-48.4	-60.5	3.6	8.46e-01	0	27	104	3759144960	60	38434
2026-01-12 04:49:56.35	337.65	1.75	-48.4	-60.5	3.6	8.45e-01	0	27	104	3759144960	60	38278
2026-01-12 04:50:00.39	337.98	1.55	-48.4	-60.5	3.6	8.46e-01	0	27	104	3759144960	60	38291
2026-01-12 04:50:04.43	338.30	1.35	-48.4	-60.5	3.6	8.46e-01	0	27	104	3759144960	60	38435
2026-01-12 04:50:08.47	338.62	1.15	-48.4	-60.5	3.6	8.45e-01	0	27	104	3759144960	60	38437
2026-01-12 04:50:12.50	338.94	0.95	-48.4	-60.5	3.6	8.45e-01	0	27	104	3759144960	60	38384
2026-01-12 04:50:16.54	339.25	0.75	-48.4	-60.5	3.6	8.45e-01	0	27	104	3759144960	60	38084
2026-01-12 04:50:20.58	339.56	0.55	-48.4	-60.5	3.6	8.45e-01	0	27	104	3759144960	60	38221
2026-01-12 04:50:24.62	339.87	0.35	-48.4	-60.5	3.6	8.45e-01	0	27	104	3759144960	60	38133
2026-01-12 04:50:28.65	340.17	0.15	-48.4	-60.5	3.6	8.44e-01	0	27	104	3759144960	60	38073
2026-01-12 04:50:32.69	340.47	-0.04	-48.4	-60.4	3.6	8.45e-01	0	27	104	3759144960	60	37937

#Closed at: 2026-01-12 04:50:33
#Recorded file [3759 MB]: D:/lorett/data/35029_260112_163705.dat