passes_logs/2026/01/12/R4.6S_Anadyr/R4.6S_Anadyr__20260112_214742_NOAA_21_JPSS-2_rec.log

#Pass ID: 20260112_214742_NOAA 21 (JPSS-2)
#Satellite: NOAA 21 (JPSS-2)
#Configuration: NOAA-21
#almurnet v.1.7.20251203
#Start time: 2026-01-12 21:47:47

#Version: 2.2.20231116
#Station: R4.6S_Anadyr
#Location: 177.4865 lon 64.73178 lat
#TLE: 1 54234U 22150A   26011.55893233  .00000075  00000+0  56634-4 0  9995
#TLE: 2 54234  98.7494 312.5004 0000755 313.1908  46.9205 14.19534095164321

#Time	Az	El	Level	Level2	SNR	BER	BlckErr	Temp	State	Recorded	gain1	gain2
2026-01-12 21:47:47.58	98.22	0.27	-48.6	-50.2	5.7	0.00e+00	0	25	0	0	60	39574
2026-01-12 21:47:51.62	97.99	0.49	-48.6	-61.4	3.5	1.52e+00	0	27	104	0	60	41322
2026-01-12 21:47:55.66	97.76	0.71	-48.0	-61.2	3.5	1.52e+00	0	27	104	0	60	40497
2026-01-12 21:47:59.70	97.53	0.93	-47.8	-60.8	3.5	1.52e+00	0	27	104	0	60	38267
2026-01-12 21:48:03.73	97.29	1.16	-46.3	-59.5	3.5	1.52e+00	0	27	104	0	60	33270
2026-01-12 21:48:07.77	97.05	1.38	-46.4	-59.5	3.5	1.52e+00	0	27	104	0	60	33324
2026-01-12 21:48:11.82	96.80	1.61	-46.3	-59.6	3.5	1.52e+00	0	27	104	0	60	33351
2026-01-12 21:48:15.85	96.56	1.84	-46.4	-59.6	3.5	1.52e+00	0	27	104	0	60	33498
2026-01-12 21:48:19.89	96.30	2.07	-46.4	-59.3	3.5	1.52e+00	0	27	104	0	60	32317
2026-01-12 21:48:23.92	96.05	2.30	-46.4	-59.3	3.5	1.52e+00	0	27	104	0	60	32381
2026-01-12 21:48:27.97	95.79	2.53	-46.4	-59.5	3.5	1.52e+00	0	27	104	0	60	33169
2026-01-12 21:48:32.00	95.52	2.77	-46.4	-59.0	3.5	1.51e+00	0	27	104	0	60	31140
2026-01-12 21:48:36.04	95.25	3.00	-46.4	-59.3	3.5	1.52e+00	0	27	104	0	60	32376
2026-01-12 21:48:40.07	94.98	3.24	-43.4	-46.6	12.1	1.20e-03	123	27	0	6291456	60	7494
2026-01-12 21:48:44.11	94.70	3.48	-39.9	-42.7	16.3	4.79e-01	123	27	104	13631488	54	6736
2026-01-12 21:48:48.15	94.41	3.72	-41.3	-43.6	15.3	0.00e+00	123	27	0	17825792	56	6662
2026-01-12 21:48:52.19	94.12	3.96	-40.9	-43.2	15.6	0.00e+00	122	27	0	30408704	54	7175
2026-01-12 21:48:56.23	93.83	4.20	-40.1	-42.1	16.7	0.00e+00	125	27	0	42991616	52	7103
2026-01-12 21:49:00.27	93.53	4.44	-37.6	-38.8	20.1	0.00e+00	122	27	0	55574528	48	6131
2026-01-12 21:49:04.31	93.23	4.69	-37.4	-38.6	20.3	0.00e+00	120	27	0	68157440	48	5971
2026-01-12 21:49:08.35	92.92	4.93	-37.2	-38.7	20.3	0.00e+00	123	27	0	80740352	48	6001
2026-01-12 21:49:12.39	92.60	5.18	-36.9	-38.4	20.6	0.00e+00	123	27	0	93323264	48	5806
2026-01-12 21:49:16.43	92.28	5.43	-37.1	-38.4	20.6	0.00e+00	120	27	0	105906176	48	5832
2026-01-12 21:49:20.47	91.95	5.68	-36.9	-38.2	20.9	0.00e+00	122	27	0	118489088	48	5662
2026-01-12 21:49:24.52	91.62	5.94	-37.0	-38.1	20.8	0.00e+00	122	27	0	132120576	48	5619
2026-01-12 21:49:28.56	91.28	6.19	-36.8	-38.0	21.0	0.00e+00	123	27	0	144703488	46	6222
2026-01-12 21:49:32.60	90.94	6.45	-36.4	-37.8	21.3	0.00e+00	122	27	0	157286400	46	6076
2026-01-12 21:49:36.64	90.59	6.71	-36.6	-37.7	21.3	0.00e+00	123	27	0	169869312	46	6024
2026-01-12 21:49:40.69	90.23	6.96	-36.4	-37.5	21.5	0.00e+00	123	28	0	182452224	46	5901
2026-01-12 21:49:44.73	89.87	7.23	-36.2	-37.3	21.7	0.00e+00	121	27	0	195035136	46	5743
2026-01-12 21:49:48.77	89.49	7.49	-36.0	-37.1	22.0	0.00e+00	122	28	0	207618048	46	5606
2026-01-12 21:49:52.81	89.12	7.75	-35.8	-36.8	22.3	0.00e+00	123	27	0	220200960	46	5450
2026-01-12 21:49:56.85	88.73	8.02	-35.9	-37.0	22.1	0.00e+00	123	27	0	232783872	44	6208
2026-01-12 21:50:00.89	88.34	8.28	-35.6	-36.6	22.4	0.00e+00	122	27	0	245366784	44	5976
2026-01-12 21:50:04.92	87.94	8.55	-35.5	-36.5	22.5	0.00e+00	122	27	0	257949696	44	5899
2026-01-12 21:50:08.96	87.53	8.82	-35.3	-36.3	22.7	0.00e+00	123	27	0	270532608	44	5767
2026-01-12 21:50:13.00	87.12	9.09	-35.2	-36.2	22.9	0.00e+00	122	27	0	283115520	44	5672
2026-01-12 21:50:17.05	86.69	9.36	-35.3	-36.3	22.8	0.00e+00	123	27	0	295698432	44	5739
2026-01-12 21:50:21.09	86.26	9.64	-35.0	-36.1	23.0	0.00e+00	122	27	0	308281344	44	5595
2026-01-12 21:50:25.13	85.82	9.91	-35.0	-36.1	23.0	0.00e+00	120	28	0	320864256	44	5608
2026-01-12 21:50:29.17	85.38	10.19	-35.1	-36.1	22.9	0.00e+00	121	27	0	333447168	44	5615
2026-01-12 21:50:33.22	84.92	10.47	-34.9	-35.9	23.1	0.00e+00	120	28	0	346030080	44	5495
2026-01-12 21:50:37.26	84.45	10.75	-34.9	-35.9	23.1	0.00e+00	122	28	0	358612992	44	5481
2026-01-12 21:50:41.30	83.98	11.03	-34.8	-35.7	23.3	0.00e+00	123	27	0	371195904	42	6037
2026-01-12 21:50:45.34	83.49	11.31	-34.8	-35.8	23.2	0.00e+00	123	28	0	383778816	42	6076
2026-01-12 21:50:49.38	83.00	11.59	-34.8	-35.8	23.3	0.00e+00	123	27	0	396361728	42	6078
2026-01-12 21:50:53.41	82.49	11.88	-34.7	-35.6	23.4	0.00e+00	122	28	0	408944640	42	5961
2026-01-12 21:50:57.46	81.98	12.16	-34.4	-35.4	23.6	0.00e+00	123	28	0	422576128	42	5820
2026-01-12 21:51:01.50	81.45	12.45	-34.6	-35.5	23.4	0.00e+00	123	28	0	435159040	42	5904
2026-01-12 21:51:05.54	80.92	12.74	-34.6	-35.6	23.6	0.00e+00	122	28	0	447741952	42	5944
2026-01-12 21:51:09.58	80.37	13.03	-34.4	-35.3	23.7	0.00e+00	120	28	0	460324864	42	5768
2026-01-12 21:51:13.62	79.82	13.31	-34.5	-35.5	23.5	0.00e+00	123	27	0	472907776	42	5892
2026-01-12 21:51:17.66	79.25	13.60	-34.7	-35.7	23.4	0.00e+00	122	28	0	485490688	42	5996
2026-01-12 21:51:21.70	78.67	13.89	-34.4	-35.3	23.9	0.00e+00	123	28	0	498073600	42	5739
2026-01-12 21:51:25.74	78.08	14.18	-34.5	-35.5	23.6	0.00e+00	123	28	0	510656512	42	5879
2026-01-12 21:51:29.78	77.48	14.48	-34.6	-35.5	23.6	0.00e+00	120	28	0	523239424	42	5879
2026-01-12 21:51:33.82	76.86	14.77	-34.6	-35.5	23.6	0.00e+00	123	28	0	535822336	42	5889
2026-01-12 21:51:37.86	76.24	15.06	-34.7	-35.6	23.6	0.00e+00	122	28	0	548405248	42	5959
2026-01-12 21:51:41.91	75.59	15.35	-34.7	-35.6	23.6	0.00e+00	122	28	0	560988160	42	5971
2026-01-12 21:51:45.95	74.94	15.64	-34.7	-35.7	23.5	0.00e+00	122	28	0	573571072	42	5999
2026-01-12 21:51:49.99	74.28	15.93	-34.7	-35.7	23.5	0.00e+00	122	28	0	586153984	42	5995
2026-01-12 21:51:54.03	73.60	16.22	-34.4	-35.4	23.8	0.00e+00	122	27	0	598736896	42	5820
2026-01-12 21:51:58.07	72.91	16.51	-34.6	-35.5	23.7	0.00e+00	123	28	0	611319808	42	5891
2026-01-12 21:52:02.11	72.20	16.80	-34.3	-35.2	24.0	0.00e+00	121	28	0	623902720	42	5698
2026-01-12 21:52:06.15	71.48	17.09	-34.1	-35.0	24.1	0.00e+00	122	28	0	636485632	42	5558
2026-01-12 21:52:10.19	70.75	17.37	-34.0	-34.9	24.1	0.00e+00	120	28	0	649068544	42	5489
2026-01-12 21:52:14.23	70.00	17.66	-33.9	-34.8	24.2	0.00e+00	123	28	0	661651456	42	5446
2026-01-12 21:52:18.27	69.24	17.94	-34.2	-35.1	24.0	0.00e+00	122	27	0	674234368	42	5627
2026-01-12 21:52:22.31	68.46	18.22	-34.4	-35.4	23.8	0.00e+00	122	27	0	686817280	42	5793
2026-01-12 21:52:26.35	67.67	18.50	-34.5	-35.4	23.8	0.00e+00	123	28	0	700448768	42	5819
2026-01-12 21:52:30.39	66.87	18.77	-34.5	-35.4	23.9	0.00e+00	123	28	0	711983104	42	5827
2026-01-12 21:52:34.43	66.05	19.04	-34.2	-35.1	24.1	0.00e+00	122	28	0	724566016	42	5623
2026-01-12 21:52:38.47	65.21	19.31	-34.0	-34.9	24.3	0.00e+00	120	28	0	738197504	42	5484
2026-01-12 21:52:42.51	64.36	19.58	-33.7	-34.5	24.4	0.00e+00	122	28	0	750780416	40	5923
2026-01-12 21:52:46.55	63.50	19.84	-33.7	-34.6	24.4	0.00e+00	123	28	0	763363328	40	5991
2026-01-12 21:52:50.59	62.62	20.09	-33.7	-34.6	24.4	0.00e+00	120	28	0	775946240	40	5951
2026-01-12 21:52:54.63	61.73	20.35	-33.6	-34.5	24.6	0.00e+00	116	28	0	788529152	40	5871
2026-01-12 21:52:58.68	60.82	20.59	-33.5	-34.4	24.6	0.00e+00	122	28	0	801112064	40	5838
2026-01-12 21:53:02.72	59.89	20.84	-33.6	-34.5	24.6	0.00e+00	123	28	0	813694976	40	5873
2026-01-12 21:53:06.76	58.95	21.07	-33.5	-34.4	24.5	0.00e+00	122	28	0	826277888	40	5843
2026-01-12 21:53:10.80	58.00	21.30	-33.8	-34.7	24.3	0.00e+00	123	27	0	838860800	40	6022
2026-01-12 21:53:14.83	57.04	21.52	-33.7	-34.6	24.5	0.00e+00	120	27	0	851443712	40	5994
2026-01-12 21:53:18.87	56.06	21.74	-33.8	-34.7	24.4	0.00e+00	123	27	0	864026624	40	6055
2026-01-12 21:53:22.91	55.06	21.95	-33.7	-34.6	24.5	0.00e+00	123	28	0	876609536	40	5941
2026-01-12 21:53:26.95	54.06	22.15	-33.4	-34.3	24.8	0.00e+00	123	28	0	889192448	40	5747
2026-01-12 21:53:30.99	53.04	22.34	-33.5	-34.4	24.6	0.00e+00	123	28	0	901775360	40	5822
2026-01-12 21:53:35.03	52.00	22.53	-33.5	-34.3	24.7	0.00e+00	122	27	0	914358272	40	5786
2026-01-12 21:53:39.08	50.96	22.71	-33.7	-34.6	24.6	0.00e+00	122	28	0	926941184	40	5932
2026-01-12 21:53:43.11	49.90	22.87	-33.8	-34.7	24.5	0.00e+00	122	28	0	939524096	40	6017
2026-01-12 21:53:47.15	48.84	23.03	-33.7	-34.5	24.7	0.00e+00	123	28	0	952107008	40	5917
2026-01-12 21:53:51.19	47.76	23.18	-33.5	-34.4	24.7	0.00e+00	120	27	0	964689920	40	5808
2026-01-12 21:53:55.23	46.67	23.31	-33.6	-34.5	24.6	0.00e+00	122	28	0	977272832	40	5913
2026-01-12 21:53:59.28	45.57	23.44	-33.5	-34.4	24.7	0.00e+00	123	27	0	989855744	40	5816
2026-01-12 21:54:03.32	44.47	23.55	-33.4	-34.3	24.8	0.00e+00	122	28	0	1002438656	40	5767
2026-01-12 21:54:07.36	43.35	23.66	-33.2	-34.1	25.0	0.00e+00	122	28	0	1016070144	40	5604
2026-01-12 21:54:11.40	42.23	23.75	-33.4	-34.3	24.7	0.00e+00	122	27	0	1028653056	40	5731
2026-01-12 21:54:15.44	41.11	23.83	-33.6	-34.4	24.6	0.00e+00	123	28	0	1041235968	40	5845
2026-01-12 21:54:19.48	39.97	23.90	-33.4	-34.3	24.8	0.00e+00	120	27	0	1053818880	40	5741
2026-01-12 21:54:23.52	38.84	23.96	-33.4	-34.3	24.8	0.00e+00	120	28	0	1066401792	40	5770
2026-01-12 21:54:27.55	37.70	24.01	-33.5	-34.4	24.7	0.00e+00	124	28	0	1078984704	40	5806
2026-01-12 21:54:31.59	36.56	24.04	-33.6	-34.5	24.6	0.00e+00	123	27	0	1091567616	40	5860
2026-01-12 21:54:35.63	35.41	24.06	-33.6	-34.5	24.7	0.00e+00	123	28	0	1104150528	40	5877
2026-01-12 21:54:39.68	34.26	24.07	-33.8	-34.7	24.5	0.00e+00	123	28	0	1116733440	40	6054
2026-01-12 21:54:43.72	33.12	24.06	-33.7	-34.6	24.7	0.00e+00	122	27	0	1129316352	40	5931
2026-01-12 21:54:47.76	31.97	24.05	-33.5	-34.4	24.7	0.00e+00	123	28	0	1141899264	40	5817
2026-01-12 21:54:51.80	30.83	24.02	-33.4	-34.3	24.8	0.00e+00	122	28	0	1154482176	40	5735
2026-01-12 21:54:55.84	29.69	23.98	-33.1	-34.0	25.0	0.00e+00	123	28	0	1167065088	40	5541
2026-01-12 21:54:59.88	28.55	23.92	-33.1	-34.0	24.9	0.00e+00	123	28	0	1179648000	40	5541
2026-01-12 21:55:03.92	27.42	23.86	-33.2	-34.1	24.9	0.00e+00	122	28	0	1192230912	40	5596
2026-01-12 21:55:07.96	26.29	23.78	-33.2	-34.1	24.9	0.00e+00	122	28	0	1204813824	40	5626
2026-01-12 21:55:12.00	25.17	23.69	-33.3	-34.1	24.9	0.00e+00	122	27	0	1217396736	40	5655
2026-01-12 21:55:16.04	24.06	23.59	-33.4	-34.3	24.8	0.00e+00	120	28	0	1229979648	40	5755
2026-01-12 21:55:20.08	22.95	23.48	-33.5	-34.4	24.7	0.00e+00	123	28	0	1242562560	40	5814
2026-01-12 21:55:24.12	21.85	23.36	-33.1	-34.0	25.0	0.00e+00	120	28	0	1255145472	40	5552
2026-01-12 21:55:28.16	20.76	23.22	-33.4	-34.3	24.7	0.00e+00	120	28	0	1267728384	40	5734
2026-01-12 21:55:32.21	19.68	23.08	-33.6	-34.5	24.5	0.00e+00	122	28	0	1280311296	40	5866
2026-01-12 21:55:36.25	18.61	22.92	-33.4	-34.3	24.7	0.00e+00	122	28	0	1292894208	40	5736
2026-01-12 21:55:40.29	17.55	22.76	-33.5	-34.5	24.5	0.00e+00	123	27	0	1305477120	40	5860
2026-01-12 21:55:44.33	16.51	22.59	-33.7	-34.6	24.4	0.00e+00	123	28	0	1318060032	40	5968
2026-01-12 21:55:48.37	15.47	22.41	-33.6	-34.5	24.5	0.00e+00	123	28	0	1331691520	40	5897
2026-01-12 21:55:52.41	14.45	22.22	-33.6	-34.4	24.4	0.00e+00	122	28	0	1344274432	40	5853
2026-01-12 21:55:56.45	13.44	22.02	-33.7	-34.6	24.3	0.00e+00	123	28	0	1356857344	40	5940
2026-01-12 21:56:00.49	12.44	21.81	-33.7	-34.5	24.6	0.00e+00	122	28	0	1369440256	40	5922
2026-01-12 21:56:04.53	11.46	21.60	-33.7	-34.6	24.5	0.00e+00	123	27	0	1382023168	40	5988
2026-01-12 21:56:08.57	10.49	21.38	-33.5	-34.5	24.3	0.00e+00	123	28	0	1394606080	40	5865
2026-01-12 21:56:12.61	9.54	21.15	-33.7	-34.6	24.5	0.00e+00	123	27	0	1407188992	40	5931
2026-01-12 21:56:16.65	8.60	20.92	-33.6	-34.5	24.7	0.00e+00	122	28	0	1419771904	40	5891
2026-01-12 21:56:20.69	7.67	20.68	-33.6	-34.5	24.6	0.00e+00	122	28	0	1432354816	40	5915
2026-01-12 21:56:24.73	6.76	20.43	-33.9	-34.8	24.2	0.00e+00	122	28	0	1444937728	40	6124
2026-01-12 21:56:28.77	5.87	20.18	-33.3	-34.2	24.7	0.00e+00	123	28	0	1457520640	40	5697
2026-01-12 21:56:32.81	4.98	19.93	-33.5	-34.4	24.6	0.00e+00	123	28	0	1470103552	40	5839
2026-01-12 21:56:36.86	4.12	19.67	-33.9	-34.8	24.3	0.00e+00	118	28	0	1482686464	40	6093
2026-01-12 21:56:40.90	3.26	19.41	-34.0	-34.9	24.2	0.00e+00	123	28	0	1495269376	40	6191
2026-01-12 21:56:44.93	2.43	19.14	-33.8	-34.7	24.2	0.00e+00	122	27	0	1507852288	40	6054
2026-01-12 21:56:48.97	1.61	18.87	-33.5	-34.4	24.6	0.00e+00	123	27	0	1520435200	40	5842
2026-01-12 21:56:53.02	0.80	18.60	-33.8	-34.8	24.4	0.00e+00	123	27	0	1533018112	40	6075
2026-01-12 21:56:57.06	0.00	18.32	-34.0	-35.0	24.0	0.00e+00	122	28	0	1545601024	40	6213
2026-01-12 21:57:01.10	359.23	18.04	-33.9	-34.8	24.2	0.00e+00	122	28	0	1558183936	40	6088
2026-01-12 21:57:05.15	358.46	17.76	-33.9	-34.8	24.4	0.00e+00	123	28	0	1570766848	40	6065
2026-01-12 21:57:09.19	357.71	17.48	-33.6	-34.5	24.5	0.00e+00	123	28	0	1583349760	40	5862
2026-01-12 21:57:13.23	356.98	17.19	-33.4	-34.3	24.7	0.00e+00	122	27	0	1595932672	40	5759
2026-01-12 21:57:17.27	356.26	16.91	-33.8	-34.7	24.4	0.00e+00	123	28	0	1608515584	40	6017
2026-01-12 21:57:21.31	355.55	16.62	-33.9	-34.8	24.3	0.00e+00	122	28	0	1622147072	40	6118
2026-01-12 21:57:25.35	354.85	16.33	-34.0	-34.9	24.1	0.00e+00	122	28	0	1634729984	40	6181
2026-01-12 21:57:29.39	354.17	16.04	-34.2	-35.1	24.0	0.00e+00	122	28	0	1647312896	40	6309
2026-01-12 21:57:33.43	353.51	15.75	-34.1	-35.0	24.1	0.00e+00	123	28	0	1659895808	40	6253
2026-01-12 21:57:37.48	352.85	15.46	-34.4	-35.4	23.8	0.00e+00	123	28	0	1672478720	40	6510
2026-01-12 21:57:41.52	352.21	15.17	-34.6	-35.5	23.7	0.00e+00	122	28	0	1685061632	40	6637
2026-01-12 21:57:45.55	351.58	14.88	-34.5	-35.4	23.8	0.00e+00	120	27	0	1697644544	40	6541
2026-01-12 21:57:49.59	350.97	14.59	-34.4	-35.3	23.8	0.00e+00	123	28	0	1710227456	40	6481
2026-01-12 21:57:53.63	350.36	14.30	-34.8	-35.8	23.6	0.00e+00	123	28	0	1722810368	42	6090
2026-01-12 21:57:57.67	349.77	14.01	-34.7	-35.7	23.4	0.00e+00	122	28	0	1735393280	42	6006
2026-01-12 21:58:01.71	349.19	13.72	-34.5	-35.4	23.6	0.00e+00	123	27	0	1747976192	42	5846
2026-01-12 21:58:05.75	348.62	13.43	-35.0	-35.9	23.3	0.00e+00	123	27	0	1760559104	42	6205
2026-01-12 21:58:09.79	348.07	13.14	-35.6	-36.7	22.7	0.00e+00	123	27	0	1773142016	42	6738
2026-01-12 21:58:13.83	347.52	12.86	-35.3	-36.3	22.8	0.00e+00	123	27	0	1785724928	42	6479
2026-01-12 21:58:17.87	346.98	12.57	-34.9	-35.9	23.3	0.00e+00	123	27	0	1798307840	42	6145
2026-01-12 21:58:21.91	346.46	12.28	-35.2	-36.2	23.1	0.00e+00	122	27	0	1810890752	42	6359
2026-01-12 21:58:25.96	345.94	12.00	-35.6	-36.6	22.7	0.00e+00	123	27	0	1823473664	42	6715
2026-01-12 21:58:30.00	345.44	11.71	-35.4	-36.5	22.8	0.00e+00	116	27	0	1836056576	42	6598
2026-01-12 21:58:34.04	344.94	11.43	-35.0	-36.0	23.2	0.00e+00	123	27	0	1848639488	42	6225
2026-01-12 21:58:38.08	344.46	11.15	-35.1	-36.1	23.1	0.00e+00	123	27	0	1861222400	42	6337
2026-01-12 21:58:42.12	343.98	10.87	-35.6	-36.6	22.7	0.00e+00	122	27	0	1873805312	42	6707
2026-01-12 21:58:46.16	343.52	10.59	-35.7	-36.8	22.3	0.00e+00	122	27	0	1886388224	44	6113
2026-01-12 21:58:50.20	343.06	10.31	-35.3	-36.4	22.5	0.00e+00	123	27	0	1898971136	44	5819
2026-01-12 21:58:54.24	342.61	10.04	-35.0	-36.1	23.0	0.00e+00	123	27	0	1911554048	44	5609
2026-01-12 21:58:58.28	342.17	9.76	-35.4	-36.4	22.8	0.00e+00	121	27	0	1924136960	44	5847
2026-01-12 21:59:02.32	341.74	9.49	-36.0	-37.2	22.2	0.00e+00	122	27	0	1937768448	44	6374
2026-01-12 21:59:06.36	341.31	9.22	-36.4	-37.6	21.7	0.00e+00	122	27	0	1950351360	44	6668
2026-01-12 21:59:10.40	340.90	8.94	-36.1	-37.3	21.8	0.00e+00	123	27	0	1962934272	44	6435
2026-01-12 21:59:14.45	340.49	8.67	-35.7	-36.8	22.2	0.00e+00	122	27	0	1975517184	44	6126
2026-01-12 21:59:18.49	340.09	8.41	-35.8	-36.9	22.2	0.00e+00	123	27	0	1988100096	44	6204
2026-01-12 21:59:22.53	339.70	8.14	-36.1	-37.2	22.1	0.00e+00	123	27	0	2000683008	44	6371
2026-01-12 21:59:26.57	339.32	7.87	-36.5	-37.7	21.6	0.00e+00	123	27	0	2013265920	44	6771
2026-01-12 21:59:30.60	338.94	7.61	-37.0	-38.2	21.2	0.00e+00	122	27	0	2025848832	46	6355
2026-01-12 21:59:34.64	338.57	7.35	-36.6	-37.7	21.4	0.00e+00	123	27	0	2038431744	46	6042
2026-01-12 21:59:38.68	338.20	7.09	-36.5	-37.7	21.5	0.00e+00	122	27	0	2051014656	46	5998
2026-01-12 21:59:42.72	337.85	6.83	-36.5	-37.6	21.5	0.00e+00	122	27	0	2063597568	46	5967
2026-01-12 21:59:46.76	337.50	6.57	-36.6	-37.7	21.4	0.00e+00	122	27	0	2076180480	46	6051
2026-01-12 21:59:50.80	337.15	6.32	-36.7	-37.8	21.2	1.50e-06	122	27	0	2088763392	46	6114
2026-01-12 21:59:54.84	336.82	6.06	-37.2	-38.3	20.6	0.00e+00	122	27	0	2101346304	46	6482
2026-01-12 21:59:58.88	336.48	5.81	-38.0	-39.3	19.3	0.00e+00	123	27	0	2113929216	48	6451
2026-01-12 22:00:02.92	336.16	5.56	-39.1	-40.7	17.3	0.00e+00	123	27	0	2126512128	50	6798
2026-01-12 22:00:06.96	335.84	5.31	-40.5	-42.6	14.6	0.00e+00	123	27	0	2139095040	52	7543
2026-01-12 22:00:11.01	335.52	5.06	-41.8	-45.2	10.9	1.50e-03	123	27	0	2151677952	54	8990
2026-01-12 22:00:15.04	335.21	4.81	-42.8	-48.4	6.3	1.79e-01	123	27	0	2164260864	58	10415
2026-01-12 22:00:19.09	334.91	4.57	-43.2	-52.6	4.2	1.43e+00	0	27	104	2166358016	58	16793
2026-01-12 22:00:23.12	334.61	4.33	-43.4	-56.1	3.5	1.52e+00	0	27	104	2166358016	58	25004
2026-01-12 22:00:27.16	334.32	4.08	-43.5	-54.9	3.5	1.51e+00	0	28	104	2166358016	58	21976
2026-01-12 22:00:31.20	334.03	3.84	-43.3	-55.6	3.5	1.51e+00	0	28	104	2166358016	58	23657
2026-01-12 22:00:35.23	333.75	3.60	-43.4	-55.8	3.5	1.52e+00	0	28	104	2166358016	58	24185
2026-01-12 22:00:39.27	333.47	3.37	-43.5	-55.8	3.5	1.52e+00	0	28	104	2166358016	58	24293
2026-01-12 22:00:43.31	333.20	3.13	-43.4	-56.1	3.5	1.52e+00	0	28	104	2166358016	58	25116
2026-01-12 22:00:47.35	332.93	2.89	-47.9	-60.8	3.5	1.52e+00	0	28	104	2166358016	60	38270
2026-01-12 22:00:51.39	332.66	2.66	-48.5	-61.4	3.5	1.51e+00	0	28	104	2166358016	60	41075
2026-01-12 22:00:55.42	332.41	2.43	-48.4	-61.4	3.5	1.52e+00	0	28	104	2166358016	60	41258
2026-01-12 22:00:59.47	332.15	2.20	-48.4	-61.3	3.5	1.52e+00	0	27	104	2166358016	60	40704
2026-01-12 22:01:03.50	331.90	1.97	-48.5	-61.3	3.5	1.52e+00	0	27	104	2166358016	60	40918
2026-01-12 22:01:07.54	331.65	1.74	-48.5	-61.3	3.5	1.52e+00	0	28	104	2166358016	60	40652
2026-01-12 22:01:11.58	331.41	1.51	-48.5	-61.3	3.5	1.52e+00	0	27	104	2166358016	60	40608
2026-01-12 22:01:15.62	331.17	1.28	-48.5	-61.3	3.5	1.52e+00	0	27	104	2166358016	60	40972
2026-01-12 22:01:19.66	330.93	1.06	-48.5	-61.3	3.5	1.52e+00	0	28	104	2166358016	60	40731
2026-01-12 22:01:23.70	330.70	0.84	-48.5	-61.3	3.5	1.52e+00	0	28	104	2166358016	60	40893
2026-01-12 22:01:27.74	330.47	0.61	-48.5	-61.4	3.5	1.52e+00	0	28	104	2166358016	60	41041
2026-01-12 22:01:31.78	330.25	0.39	-48.5	-61.3	3.5	1.52e+00	0	28	104	2166358016	60	40766
2026-01-12 22:01:35.82	330.03	0.17	-48.5	-61.3	3.5	1.52e+00	0	28	104	2166358016	60	40636

#Closed at: 2026-01-12 22:01:39
#Recorded file [2166 MB]: D:/lorett/data/35029_260113_094747.dat