passes_logs/2026/01/12/R4.6S_Anadyr/R4.6S_Anadyr__20260112_133051_NOAA_21_JPSS-2_rec.log

#Pass ID: 20260112_133051_NOAA 21 (JPSS-2)
#Satellite: NOAA 21 (JPSS-2)
#Configuration: NOAA-21
#almurnet v.1.7.20251203
#Start time: 2026-01-12 13:30:52

#Version: 2.2.20231116
#Station: R4.6S_Anadyr
#Location: 177.4865 lon 64.73178 lat
#TLE: 1 54234U 22150A   26011.55893233  .00000075  00000+0  56634-4 0  9995
#TLE: 2 54234  98.7494 312.5004 0000755 313.1908  46.9205 14.19534095164321

#Time	Az	El	Level	Level2	SNR	BER	BlckErr	Temp	State	Recorded	gain1	gain2
2026-01-12 13:30:52.91	18.86	0.06	-48.8	-63.6	3.5	1.51e+00	0	27	0	0	60	54929
2026-01-12 13:30:56.94	19.02	0.29	-49.0	-61.9	3.5	1.52e+00	0	29	104	0	60	43607
2026-01-12 13:31:00.99	19.19	0.52	-48.4	-61.3	3.5	1.52e+00	0	29	104	0	60	40955
2026-01-12 13:31:05.02	19.35	0.75	-48.0	-60.9	3.5	1.52e+00	0	29	104	0	60	38880
2026-01-12 13:31:09.06	19.52	0.98	-47.1	-59.9	3.5	1.52e+00	0	29	104	0	60	34700
2026-01-12 13:31:13.10	19.70	1.22	-47.0	-59.8	3.5	1.52e+00	0	29	104	0	60	34296
2026-01-12 13:31:17.14	19.87	1.46	-47.0	-59.7	3.5	1.51e+00	0	29	104	0	60	33840
2026-01-12 13:31:21.17	20.05	1.70	-47.0	-59.7	3.5	1.52e+00	0	29	104	0	60	33759
2026-01-12 13:31:25.21	20.23	1.94	-47.1	-59.8	3.5	1.52e+00	0	29	104	0	60	34463
2026-01-12 13:31:29.25	20.41	2.18	-47.1	-59.8	3.5	1.52e+00	0	29	104	0	60	34384
2026-01-12 13:31:33.28	20.59	2.43	-46.9	-58.6	3.5	1.51e+00	0	29	104	0	60	29823
2026-01-12 13:31:37.32	20.78	2.68	-46.6	-55.9	3.7	1.51e+00	0	29	104	0	60	21964
2026-01-12 13:31:41.36	20.97	2.92	-41.4	-43.3	16.0	0.00e+00	122	30	0	9437184	56	6429
2026-01-12 13:31:45.40	21.16	3.18	-37.7	-38.9	20.1	0.00e+00	123	30	0	22020096	48	6193
2026-01-12 13:31:49.43	21.36	3.43	-40.6	-42.3	16.6	0.00e+00	123	30	0	34603008	52	7280
2026-01-12 13:31:53.47	21.56	3.68	-39.8	-41.5	16.3	0.00e+00	120	30	0	47185920	48	8280
2026-01-12 13:31:57.51	21.76	3.94	-38.8	-40.1	19.2	0.00e+00	120	30	0	53477376	50	6328
2026-01-12 13:32:01.55	21.97	4.20	-37.8	-39.1	20.1	0.00e+00	122	30	0	66060288	48	6281
2026-01-12 13:32:05.59	22.18	4.46	-37.6	-38.8	20.2	0.00e+00	123	30	0	78643200	48	6106
2026-01-12 13:32:09.63	22.39	4.73	-37.9	-39.1	20.0	0.00e+00	122	30	0	91226112	48	6315
2026-01-12 13:32:13.67	22.61	5.00	-37.2	-38.3	20.8	0.00e+00	123	30	0	103809024	48	5777
2026-01-12 13:32:17.71	22.82	5.26	-37.1	-38.3	20.9	0.00e+00	123	30	0	116391936	48	5746
2026-01-12 13:32:21.75	23.05	5.54	-37.1	-38.2	21.0	0.00e+00	123	30	0	128974848	48	5666
2026-01-12 13:32:25.79	23.28	5.81	-37.0	-38.2	21.0	0.00e+00	123	30	0	141557760	48	5662
2026-01-12 13:32:29.84	23.51	6.09	-36.8	-37.9	21.2	0.00e+00	123	30	0	155189248	46	6190
2026-01-12 13:32:33.87	23.74	6.37	-36.8	-37.9	21.4	0.00e+00	123	30	0	167772160	46	6147
2026-01-12 13:32:37.91	23.98	6.65	-36.8	-37.8	21.4	0.00e+00	122	30	0	180355072	46	6133
2026-01-12 13:32:41.96	24.23	6.93	-36.8	-37.8	21.4	0.00e+00	122	30	0	192937984	46	6117
2026-01-12 13:32:45.99	24.47	7.22	-36.4	-37.4	21.8	0.00e+00	122	30	0	205520896	46	5857
2026-01-12 13:32:50.03	24.73	7.51	-36.1	-37.1	22.1	0.00e+00	120	30	0	218103808	46	5619
2026-01-12 13:32:54.08	24.99	7.80	-36.1	-37.1	22.1	0.00e+00	120	30	0	230686720	46	5643
2026-01-12 13:32:58.12	25.25	8.10	-36.0	-37.0	22.3	0.00e+00	123	30	0	243269632	46	5543
2026-01-12 13:33:02.16	25.52	8.40	-36.0	-37.0	22.4	0.00e+00	122	30	0	255852544	46	5560
2026-01-12 13:33:06.21	25.79	8.70	-35.8	-36.8	22.4	0.00e+00	122	30	0	268435456	46	5450
2026-01-12 13:33:10.25	26.07	9.01	-35.6	-36.6	22.6	0.00e+00	123	30	0	281018368	44	5985
2026-01-12 13:33:14.29	26.35	9.32	-35.8	-36.9	22.4	0.00e+00	123	30	0	293601280	44	6137
2026-01-12 13:33:18.33	26.64	9.63	-35.8	-36.8	22.5	0.00e+00	121	30	0	306184192	44	6102
2026-01-12 13:33:22.37	26.94	9.94	-35.3	-36.3	22.9	0.00e+00	122	30	0	318767104	44	5736
2026-01-12 13:33:26.42	27.24	10.26	-35.5	-36.5	22.8	0.00e+00	122	30	0	331350016	44	5880
2026-01-12 13:33:30.46	27.54	10.59	-35.4	-36.4	22.9	0.00e+00	122	30	0	343932928	44	5817
2026-01-12 13:33:34.50	27.86	10.91	-35.5	-36.5	22.8	0.00e+00	122	30	0	356515840	44	5895
2026-01-12 13:33:38.54	28.18	11.24	-35.2	-36.2	23.0	0.00e+00	123	30	0	369098752	44	5703
2026-01-12 13:33:42.58	28.51	11.58	-35.2	-36.1	23.2	0.00e+00	123	30	0	381681664	44	5640
2026-01-12 13:33:46.61	28.84	11.91	-34.9	-35.9	23.3	0.00e+00	123	30	0	394264576	44	5495
2026-01-12 13:33:50.65	29.18	12.25	-34.8	-35.8	23.4	0.00e+00	123	30	0	406847488	42	6083
2026-01-12 13:33:54.70	29.53	12.60	-34.7	-35.7	23.6	0.00e+00	122	31	0	419430400	42	6002
2026-01-12 13:33:58.74	29.89	12.95	-34.8	-35.7	23.7	0.00e+00	122	31	0	432013312	42	6046
2026-01-12 13:34:02.78	30.26	13.30	-34.9	-35.8	23.4	0.00e+00	123	30	0	445644800	42	6121
2026-01-12 13:34:06.82	30.63	13.66	-34.5	-35.4	23.8	0.00e+00	122	30	0	458227712	42	5857
2026-01-12 13:34:10.87	31.01	14.02	-34.6	-35.6	23.8	0.00e+00	123	30	0	470810624	42	5944
2026-01-12 13:34:14.91	31.40	14.39	-34.6	-35.5	23.8	0.00e+00	123	30	0	483393536	42	5911
2026-01-12 13:34:18.95	31.81	14.76	-34.5	-35.4	23.8	0.00e+00	120	30	0	495976448	42	5834
2026-01-12 13:34:22.99	32.22	15.13	-34.6	-35.6	23.7	0.00e+00	120	30	0	508559360	42	5938
2026-01-12 13:34:27.03	32.64	15.51	-34.6	-35.5	23.7	0.00e+00	123	30	0	521142272	42	5885
2026-01-12 13:34:31.07	33.07	15.89	-34.6	-35.5	23.7	0.00e+00	123	30	0	533725184	42	5910
2026-01-12 13:34:35.11	33.51	16.28	-34.5	-35.4	23.8	0.00e+00	122	30	0	546308096	42	5848
2026-01-12 13:34:39.15	33.96	16.67	-34.7	-35.7	23.7	0.00e+00	123	30	0	558891008	42	6015
2026-01-12 13:34:43.19	34.43	17.07	-34.6	-35.5	23.8	0.00e+00	122	30	0	571473920	42	5920
2026-01-12 13:34:47.23	34.90	17.47	-34.9	-35.8	23.5	0.00e+00	120	30	0	584056832	42	6096
2026-01-12 13:34:51.27	35.39	17.88	-34.7	-35.7	23.7	0.00e+00	122	30	0	596639744	42	6011
2026-01-12 13:34:55.31	35.89	18.29	-34.9	-35.8	23.6	0.00e+00	120	30	0	609222656	42	6134
2026-01-12 13:34:59.35	36.41	18.71	-34.7	-35.6	23.8	0.00e+00	122	30	0	621805568	42	5965
2026-01-12 13:35:03.39	36.94	19.13	-34.5	-35.4	23.8	0.00e+00	123	30	0	634388480	42	5849
2026-01-12 13:35:07.43	37.48	19.56	-34.5	-35.4	23.9	0.00e+00	123	30	0	646971392	42	5825
2026-01-12 13:35:11.47	38.04	19.99	-34.3	-35.2	24.1	0.00e+00	120	30	0	659554304	42	5700
2026-01-12 13:35:15.51	38.61	20.43	-34.2	-35.1	24.2	0.00e+00	123	30	0	672137216	42	5629
2026-01-12 13:35:19.55	39.20	20.87	-34.1	-35.0	24.2	0.00e+00	123	30	0	684720128	42	5550
2026-01-12 13:35:23.59	39.81	21.32	-33.9	-34.8	24.4	0.00e+00	122	30	0	697303040	42	5437
2026-01-12 13:35:27.63	40.43	21.77	-33.8	-34.7	24.5	0.00e+00	122	30	0	709885952	40	6004
2026-01-12 13:35:31.67	41.07	22.22	-33.5	-34.4	24.6	0.00e+00	123	30	0	722468864	40	5804
2026-01-12 13:35:35.71	41.73	22.68	-33.3	-34.1	24.9	0.00e+00	120	30	0	735051776	40	5653
2026-01-12 13:35:39.75	42.41	23.15	-33.2	-34.1	24.8	0.00e+00	122	30	0	747634688	40	5612
2026-01-12 13:35:43.79	43.11	23.62	-33.3	-34.2	24.8	0.00e+00	123	30	0	761266176	40	5689
2026-01-12 13:35:47.74	43.82	24.08	-33.2	-34.0	24.9	0.00e+00	123	30	0	773849088	40	5575
2026-01-12 13:35:51.78	44.56	24.56	-33.4	-34.2	24.7	0.00e+00	123	30	0	786432000	40	5719
2026-01-12 13:35:55.82	45.32	25.04	-33.4	-34.2	24.7	0.00e+00	123	30	0	799014912	40	5710
2026-01-12 13:35:59.86	46.11	25.53	-33.4	-34.3	24.8	0.00e+00	123	30	0	811597824	40	5755
2026-01-12 13:36:03.90	46.92	26.01	-33.2	-34.0	25.0	0.00e+00	122	30	0	824180736	40	5574
2026-01-12 13:36:07.94	47.76	26.50	-33.7	-34.6	24.6	0.00e+00	121	30	0	836763648	40	5949
2026-01-12 13:36:11.99	48.62	27.00	-34.0	-34.9	24.2	0.00e+00	123	30	0	849346560	40	6179
2026-01-12 13:36:16.03	49.51	27.50	-34.1	-35.0	24.2	0.00e+00	123	30	0	861929472	40	6212
2026-01-12 13:36:20.07	50.43	27.99	-34.1	-35.1	24.1	0.00e+00	122	30	0	874512384	40	6289
2026-01-12 13:36:24.11	51.37	28.49	-33.7	-34.6	24.4	0.00e+00	123	30	0	887095296	40	5952
2026-01-12 13:36:28.15	52.34	28.99	-33.9	-34.8	24.4	0.00e+00	123	30	0	899678208	40	6073
2026-01-12 13:36:32.19	53.35	29.49	-33.4	-34.3	24.7	0.00e+00	120	30	0	912261120	40	5753
2026-01-12 13:36:36.23	54.38	29.99	-33.7	-34.6	24.4	0.00e+00	123	30	0	924844032	40	5993
2026-01-12 13:36:40.28	55.45	30.48	-33.6	-34.4	24.7	0.00e+00	120	30	0	937426944	40	5857
2026-01-12 13:36:44.32	56.55	30.98	-33.7	-34.5	24.6	0.00e+00	120	30	0	950009856	40	5918
2026-01-12 13:36:48.36	57.68	31.47	-33.9	-34.8	24.3	0.00e+00	120	30	0	962592768	40	6090
2026-01-12 13:36:52.40	58.85	31.95	-34.1	-35.0	24.3	0.00e+00	123	30	0	975175680	40	6237
2026-01-12 13:36:56.44	60.05	32.44	-34.5	-35.4	23.9	0.00e+00	123	30	0	987758592	40	6533
2026-01-12 13:37:00.48	61.28	32.91	-34.8	-35.8	23.7	0.00e+00	123	30	0	1000341504	42	6066
2026-01-12 13:37:04.52	62.55	33.38	-35.3	-36.2	23.4	0.00e+00	122	30	0	1012924416	42	6379
2026-01-12 13:37:08.56	63.86	33.84	-35.3	-36.3	23.3	0.00e+00	120	30	0	1025507328	42	6463
2026-01-12 13:37:12.60	65.21	34.29	-35.1	-36.0	23.6	0.00e+00	123	30	0	1038090240	42	6275
2026-01-12 13:37:16.63	66.59	34.72	-35.4	-36.4	23.2	0.00e+00	123	30	0	1051721728	42	6547
2026-01-12 13:37:20.68	68.01	35.15	-35.1	-36.0	23.4	0.00e+00	120	30	0	1064304640	42	6272
2026-01-12 13:37:24.72	69.46	35.56	-35.3	-36.2	23.2	0.00e+00	122	30	0	1076887552	42	6419
2026-01-12 13:37:28.76	70.95	35.95	-34.9	-35.8	23.6	0.00e+00	122	30	0	1089470464	42	6102
2026-01-12 13:37:32.80	72.48	36.33	-35.5	-36.5	22.9	0.00e+00	122	30	0	1102053376	42	6597
2026-01-12 13:37:36.84	74.04	36.69	-35.2	-36.2	23.3	0.00e+00	120	30	0	1114636288	42	6355
2026-01-12 13:37:40.88	75.63	37.03	-35.5	-36.5	23.2	0.00e+00	123	30	0	1127219200	42	6588
2026-01-12 13:37:44.92	77.26	37.35	-35.6	-36.6	23.0	0.00e+00	123	30	0	1139802112	42	6695
2026-01-12 13:37:48.96	78.91	37.64	-36.1	-37.1	22.6	0.00e+00	123	30	0	1152385024	44	6314
2026-01-12 13:37:53.00	80.60	37.91	-36.2	-37.2	22.5	0.00e+00	123	30	0	1164967936	44	6375
2026-01-12 13:37:57.04	82.31	38.16	-36.3	-37.3	22.5	0.00e+00	122	30	0	1177550848	44	6452
2026-01-12 13:38:01.08	84.05	38.38	-36.1	-37.1	22.6	0.00e+00	122	30	0	1190133760	44	6309
2026-01-12 13:38:05.12	85.81	38.57	-35.9	-36.9	22.7	0.00e+00	123	30	0	1202716672	44	6172
2026-01-12 13:38:09.17	87.59	38.73	-35.9	-36.9	22.9	0.00e+00	123	30	0	1215299584	44	6146
2026-01-12 13:38:13.21	89.38	38.86	-35.8	-36.8	22.9	0.00e+00	123	30	0	1227882496	44	6117
2026-01-12 13:38:17.25	91.19	38.96	-35.7	-36.8	22.9	0.00e+00	122	30	0	1240465408	44	6072
2026-01-12 13:38:21.29	93.00	39.03	-35.8	-36.7	22.8	0.00e+00	122	30	0	1253048320	44	6061
2026-01-12 13:38:25.33	94.82	39.06	-36.0	-37.0	22.8	0.00e+00	123	29	0	1265631232	44	6232
2026-01-12 13:38:29.37	96.65	39.07	-36.2	-37.3	22.6	0.00e+00	123	29	0	1278214144	44	6432
2026-01-12 13:38:33.41	98.47	39.04	-35.9	-36.9	22.8	0.00e+00	123	30	0	1290797056	44	6139
2026-01-12 13:38:37.46	100.29	38.98	-36.2	-37.2	22.6	0.00e+00	122	30	0	1303379968	44	6408
2026-01-12 13:38:41.50	102.10	38.89	-35.8	-36.8	22.9	0.00e+00	123	29	0	1315962880	44	6090
2026-01-12 13:38:45.54	103.90	38.77	-35.9	-36.9	22.7	0.00e+00	122	30	0	1328545792	44	6194
2026-01-12 13:38:49.59	105.69	38.62	-35.6	-36.6	23.1	0.00e+00	123	29	0	1342177280	44	5963
2026-01-12 13:38:53.63	107.46	38.44	-35.9	-36.8	23.0	0.00e+00	123	29	0	1354760192	44	6122
2026-01-12 13:38:57.67	109.20	38.23	-35.6	-36.7	23.0	0.00e+00	121	30	0	1367343104	44	6012
2026-01-12 13:39:01.71	110.92	37.99	-35.8	-36.7	23.0	0.00e+00	122	29	0	1379926016	44	6059
2026-01-12 13:39:05.75	112.62	37.73	-35.4	-36.4	23.0	0.00e+00	123	29	0	1392508928	44	5795
2026-01-12 13:39:09.79	114.29	37.44	-35.9	-36.9	22.8	0.00e+00	122	29	0	1405091840	44	6177
2026-01-12 13:39:13.83	115.93	37.13	-35.6	-36.5	23.1	0.00e+00	123	29	0	1417674752	44	5925
2026-01-12 13:39:17.87	117.54	36.79	-34.9	-35.9	23.7	0.00e+00	123	29	0	1430257664	44	5476
2026-01-12 13:39:21.91	119.11	36.44	-34.8	-35.8	23.6	0.00e+00	123	29	0	1442840576	42	6073
2026-01-12 13:39:25.95	120.65	36.06	-35.1	-36.1	23.4	0.00e+00	120	29	0	1455423488	42	6287
2026-01-12 13:39:30.00	122.16	35.67	-34.9	-35.8	23.6	0.00e+00	123	29	0	1468006400	42	6128
2026-01-12 13:39:34.04	123.63	35.26	-34.7	-35.7	23.6	0.00e+00	123	29	0	1480589312	42	6007
2026-01-12 13:39:38.08	125.06	34.84	-34.6	-35.5	23.9	0.00e+00	122	29	0	1493172224	42	5878
2026-01-12 13:39:42.13	126.46	34.40	-34.8	-35.8	23.7	0.00e+00	123	29	0	1505755136	42	6084
2026-01-12 13:39:46.16	127.82	33.96	-34.9	-35.8	23.7	0.00e+00	123	29	0	1518338048	42	6131
2026-01-12 13:39:50.21	129.14	33.50	-34.9	-35.9	23.7	0.00e+00	123	29	0	1530920960	42	6164
2026-01-12 13:39:54.25	130.43	33.03	-34.5	-35.5	24.1	0.00e+00	122	29	0	1543503872	42	5864
2026-01-12 13:39:58.29	131.68	32.55	-34.3	-35.2	24.1	0.00e+00	120	29	0	1556086784	42	5715
2026-01-12 13:40:02.33	132.89	32.07	-34.2	-35.1	24.2	0.00e+00	120	29	0	1568669696	42	5628
2026-01-12 13:40:06.37	134.07	31.58	-34.4	-35.4	24.1	0.00e+00	120	29	0	1581252608	42	5804
2026-01-12 13:40:10.41	135.22	31.09	-34.6	-35.5	23.8	0.00e+00	120	29	0	1593835520	42	5919
2026-01-12 13:40:14.46	136.33	30.59	-34.7	-35.6	23.8	0.00e+00	122	29	0	1606418432	42	5961
2026-01-12 13:40:18.49	137.41	30.10	-34.8	-35.7	23.6	0.00e+00	120	29	0	1620049920	42	6046
2026-01-12 13:40:22.53	138.45	29.60	-34.4	-35.3	24.1	0.00e+00	122	29	0	1632632832	42	5780
2026-01-12 13:40:26.57	139.47	29.09	-34.3	-35.2	24.2	0.00e+00	122	29	0	1644167168	42	5706
2026-01-12 13:40:30.61	140.45	28.59	-33.9	-34.9	24.5	0.00e+00	120	29	0	1657798656	42	5469
2026-01-12 13:40:34.65	141.41	28.09	-33.7	-34.6	24.5	0.00e+00	123	29	0	1670381568	40	5974
2026-01-12 13:40:38.69	142.33	27.59	-33.5	-34.4	24.7	0.00e+00	122	29	0	1682964480	40	5813
2026-01-12 13:40:42.73	143.23	27.09	-33.2	-34.1	24.8	0.00e+00	123	29	0	1695547392	40	5655
2026-01-12 13:40:46.77	144.10	26.59	-33.2	-34.1	24.8	0.00e+00	120	29	0	1708130304	40	5623
2026-01-12 13:40:50.81	144.95	26.10	-33.2	-34.1	24.9	0.00e+00	120	29	0	1720713216	40	5606
2026-01-12 13:40:54.85	145.77	25.61	-33.3	-34.2	24.6	0.00e+00	124	29	0	1733296128	40	5686
2026-01-12 13:40:58.89	146.57	25.12	-33.4	-34.3	24.6	0.00e+00	124	29	0	1745879040	40	5770
2026-01-12 13:41:02.93	147.34	24.63	-33.3	-34.2	24.9	0.00e+00	120	29	0	1758461952	40	5669
2026-01-12 13:41:06.97	148.09	24.15	-33.2	-34.1	24.8	0.00e+00	123	29	0	1771044864	40	5614
2026-01-12 13:41:11.01	148.81	23.67	-33.5	-34.4	24.6	0.00e+00	123	29	0	1783627776	40	5830
2026-01-12 13:41:15.05	149.52	23.20	-34.1	-35.0	24.0	0.00e+00	120	29	0	1796210688	40	6265
2026-01-12 13:41:19.09	150.21	22.73	-34.0	-35.0	24.3	0.00e+00	120	29	0	1808793600	40	6206
2026-01-12 13:41:23.13	150.87	22.27	-34.1	-35.0	24.2	0.00e+00	123	29	0	1821376512	40	6220
2026-01-12 13:41:27.16	151.52	21.81	-34.1	-35.0	24.2	0.00e+00	122	29	0	1833959424	40	6258
2026-01-12 13:41:31.20	152.15	21.35	-33.8	-34.7	24.3	0.00e+00	120	29	0	1846542336	40	6023
2026-01-12 13:41:35.24	152.76	20.90	-33.7	-34.6	24.4	0.00e+00	121	29	0	1859125248	40	5977
2026-01-12 13:41:39.28	153.35	20.46	-33.8	-34.7	24.3	0.00e+00	120	29	0	1871708160	40	6043
2026-01-12 13:41:43.32	153.93	20.02	-34.0	-34.9	24.2	0.00e+00	123	29	0	1884291072	40	6163
2026-01-12 13:41:47.37	154.50	19.58	-34.4	-35.3	23.7	0.00e+00	120	29	0	1896873984	40	6455
2026-01-12 13:41:51.40	155.04	19.15	-35.0	-35.9	23.1	0.00e+00	123	29	0	1909456896	42	6199
2026-01-12 13:41:55.44	155.57	18.72	-35.3	-36.2	22.9	0.00e+00	123	29	0	1922039808	42	6420
2026-01-12 13:41:59.48	156.09	18.30	-34.8	-35.8	23.3	0.00e+00	123	29	0	1935671296	42	6081
2026-01-12 13:42:03.52	156.60	17.89	-34.0	-35.0	24.0	0.00e+00	123	29	0	1947205632	42	5531
2026-01-12 13:42:07.56	157.09	17.47	-33.8	-34.8	24.2	0.00e+00	122	29	0	1959788544	42	5405
2026-01-12 13:42:11.60	157.57	17.07	-34.0	-35.0	24.0	0.00e+00	122	29	0	1973420032	42	5541
2026-01-12 13:42:15.64	158.04	16.67	-34.3	-35.2	23.9	0.00e+00	123	29	0	1986002944	42	5708
2026-01-12 13:42:19.68	158.49	16.27	-34.6	-35.5	23.7	0.00e+00	120	29	0	1998585856	42	5923
2026-01-12 13:42:23.73	158.94	15.88	-34.8	-35.7	23.6	0.00e+00	123	29	0	2011168768	42	6035
2026-01-12 13:42:27.77	159.37	15.49	-34.9	-35.8	23.4	0.00e+00	122	29	0	2023751680	42	6112
2026-01-12 13:42:31.81	159.79	15.11	-34.8	-35.7	23.4	0.00e+00	123	29	0	2036334592	42	6045
2026-01-12 13:42:35.84	160.20	14.73	-34.6	-35.5	23.5	0.00e+00	123	29	0	2048917504	42	5912
2026-01-12 13:42:39.88	160.60	14.36	-34.7	-35.6	23.4	0.00e+00	120	29	0	2061500416	42	5979
2026-01-12 13:42:43.92	161.00	13.99	-34.7	-35.6	23.5	0.00e+00	121	29	0	2074083328	42	5991
2026-01-12 13:42:47.96	161.38	13.62	-34.7	-35.6	23.6	0.00e+00	123	29	0	2086666240	42	5968
2026-01-12 13:42:52.00	161.76	13.26	-34.9	-35.8	23.4	0.00e+00	122	29	0	2099249152	42	6125
2026-01-12 13:42:56.04	162.12	12.91	-35.1	-36.1	23.2	0.00e+00	123	29	0	2111832064	42	6294
2026-01-12 13:43:00.08	162.48	12.55	-35.4	-36.3	22.9	0.00e+00	121	29	0	2124414976	42	6490
2026-01-12 13:43:04.12	162.83	12.21	-35.5	-36.5	22.7	0.00e+00	123	29	0	2136997888	42	6627
2026-01-12 13:43:08.16	163.17	11.86	-35.5	-36.5	22.6	0.00e+00	123	29	0	2149580800	42	6615
2026-01-12 13:43:12.20	163.51	11.52	-35.5	-36.5	22.5	0.00e+00	123	29	0	2162163712	42	6611
2026-01-12 13:43:16.25	163.83	11.19	-35.4	-36.4	22.6	0.00e+00	123	29	0	2174746624	42	6525
2026-01-12 13:43:20.28	164.15	10.85	-35.4	-36.4	22.7	0.00e+00	122	29	0	2187329536	42	6553
2026-01-12 13:43:24.33	164.47	10.53	-35.5	-36.5	22.6	0.00e+00	122	29	0	2199912448	42	6634
2026-01-12 13:43:28.37	164.77	10.20	-35.4	-36.4	22.8	0.00e+00	122	29	0	2212495360	42	6504
2026-01-12 13:43:32.41	165.08	9.88	-35.4	-36.4	22.7	0.00e+00	123	29	0	2225078272	42	6536
2026-01-12 13:43:36.44	165.37	9.56	-35.6	-36.6	22.6	0.00e+00	123	29	0	2237661184	42	6674
2026-01-12 13:43:40.48	165.66	9.25	-35.7	-36.7	22.5	0.00e+00	123	29	0	2251292672	44	6046
2026-01-12 13:43:44.52	165.94	8.94	-36.0	-37.0	22.1	0.00e+00	122	29	0	2262827008	44	6233
2026-01-12 13:43:48.56	166.22	8.63	-36.1	-37.1	22.1	0.00e+00	122	29	0	2275409920	44	6340
2026-01-12 13:43:52.60	166.49	8.32	-36.0	-37.1	21.9	0.00e+00	122	29	0	2289041408	44	6309
2026-01-12 13:43:56.64	166.76	8.02	-36.1	-37.2	21.8	0.00e+00	122	29	0	2301624320	44	6389
2026-01-12 13:44:00.68	167.02	7.72	-36.3	-37.3	21.6	0.00e+00	123	29	0	2314207232	44	6498
2026-01-12 13:44:04.72	167.27	7.43	-36.3	-37.4	21.7	0.00e+00	123	29	0	2326790144	44	6550
2026-01-12 13:44:08.76	167.52	7.13	-36.5	-37.5	21.5	0.00e+00	122	29	0	2339373056	44	6646
2026-01-12 13:44:12.80	167.77	6.84	-36.5	-37.5	21.5	0.00e+00	122	29	0	2351955968	44	6639
2026-01-12 13:44:16.84	168.01	6.56	-36.4	-37.4	21.6	0.00e+00	123	29	0	2364538880	44	6559
2026-01-12 13:44:20.89	168.25	6.27	-36.4	-37.5	21.5	0.00e+00	120	29	0	2377121792	44	6579
2026-01-12 13:44:24.93	168.49	5.99	-36.5	-37.6	21.3	0.00e+00	122	29	0	2389704704	44	6660
2026-01-12 13:44:28.96	168.71	5.71	-36.7	-37.8	21.1	0.00e+00	123	29	0	2402287616	46	6132
2026-01-12 13:44:33.00	168.94	5.44	-37.0	-38.1	20.9	0.00e+00	122	29	0	2414870528	46	6319
2026-01-12 13:44:37.04	169.16	5.16	-37.1	-38.3	20.7	0.00e+00	122	29	0	2427453440	46	6469
2026-01-12 13:44:41.08	169.38	4.89	-37.8	-39.0	19.9	0.00e+00	123	29	0	2440036352	48	6262
2026-01-12 13:44:45.13	169.59	4.62	-37.4	-38.6	20.1	0.00e+00	120	29	0	2452619264	48	5936
2026-01-12 13:44:49.16	169.80	4.36	-37.6	-38.8	20.0	0.00e+00	122	29	0	2465202176	48	6069
2026-01-12 13:44:53.20	170.01	4.09	-37.7	-38.9	19.8	0.00e+00	122	29	0	2477785088	48	6196
2026-01-12 13:44:57.24	170.21	3.83	-38.0	-39.3	19.5	0.00e+00	122	29	0	2490368000	48	6437
2026-01-12 13:45:01.28	170.41	3.57	-38.5	-39.9	18.7	0.00e+00	120	29	0	2502950912	50	6160
2026-01-12 13:45:05.32	170.61	3.31	-38.9	-40.3	18.6	0.00e+00	123	29	0	2515533824	50	6446
2026-01-12 13:45:09.37	170.80	3.06	-38.5	-39.8	18.9	0.00e+00	122	29	0	2528116736	50	6117
2026-01-12 13:45:13.41	170.99	2.80	-48.1	-60.9	3.5	1.52e+00	0	29	104	2532311040	60	39096
2026-01-12 13:45:17.45	171.18	2.55	-48.4	-61.2	3.5	1.52e+00	0	29	104	2532311040	60	40497
2026-01-12 13:45:21.48	171.37	2.31	-48.3	-61.2	3.5	1.52e+00	0	29	104	2532311040	60	40256
2026-01-12 13:45:25.52	171.55	2.06	-48.2	-61.1	3.5	1.52e+00	0	29	104	2532311040	60	39947
2026-01-12 13:45:29.56	171.73	1.81	-48.3	-61.2	3.5	1.52e+00	0	29	104	2532311040	60	40266
2026-01-12 13:45:33.61	171.90	1.57	-48.3	-61.2	3.5	1.52e+00	0	29	104	2532311040	60	40206
2026-01-12 13:45:37.65	172.08	1.33	-48.3	-61.1	3.5	1.51e+00	0	29	104	2532311040	60	39900
2026-01-12 13:45:41.69	172.25	1.09	-48.3	-61.2	3.5	1.52e+00	0	29	104	2532311040	60	40201
2026-01-12 13:45:45.73	172.42	0.85	-48.3	-61.1	3.5	1.52e+00	0	29	104	2532311040	60	40042
2026-01-12 13:45:49.77	172.58	0.61	-48.3	-61.1	3.5	1.51e+00	0	29	104	2532311040	60	40011
2026-01-12 13:45:53.81	172.75	0.38	-48.3	-61.2	3.5	1.51e+00	0	29	104	2532311040	60	40200
2026-01-12 13:45:57.85	172.91	0.15	-48.3	-61.2	3.5	1.52e+00	0	29	104	2532311040	60	40195
2026-01-12 13:46:01.89	173.07	-0.09	-48.4	-61.2	3.5	1.52e+00	0	29	104	2532311040	60	40494

#Closed at: 2026-01-12 13:46:03
#Recorded file [2532 MB]: D:/lorett/data/35029_260113_013052.dat