passes_logs/2026/01/12/R4.6S_Anadyr/R4.6S_Anadyr__20260112_025442_FENGYUN_3D_rec.log

#Pass ID: 20260112_025442_FENGYUN 3D
#Satellite: FENGYUN 3D
#Configuration: FENGYUN 3D
#almurnet v.1.7.20251203
#Start time: 2026-01-12 02:54:46

#Version: 2.2.20231116
#Station: R4.6S_Anadyr
#Location: 177.4865 lon 64.73178 lat
#TLE: 1 43010U 17072A   26011.62066612  .00000104  00000+0  70810-4 0  9998
#TLE: 2 43010  98.9935 343.3846 0002223 114.2890 245.8518 14.19694405422776

#Time	Az	El	Level	Level2	SNR	BER	BlckErr	Temp	State	Recorded	gain1	gain2
2026-01-12 02:54:46.59	172.74	0.24	-45.0	-45.9	5.5	0.00e+00	0	26	0	0	60	24244
2026-01-12 02:54:50.62	172.84	0.48	-48.5	-60.5	3.6	8.46e-01	0	27	104	0	60	38413
2026-01-12 02:54:54.66	172.94	0.72	-48.4	-60.5	3.6	8.45e-01	0	27	104	0	60	38292
2026-01-12 02:54:58.70	173.04	0.97	-48.0	-60.1	3.6	8.45e-01	0	27	104	0	60	36488
2026-01-12 02:55:02.74	173.14	1.21	-47.0	-59.0	3.6	8.46e-01	0	27	104	0	60	32325
2026-01-12 02:55:06.77	173.24	1.46	-47.0	-58.8	3.6	8.45e-01	0	27	104	0	60	31407
2026-01-12 02:55:10.81	173.34	1.71	-46.9	-58.2	3.6	8.46e-01	0	27	104	0	60	29509
2026-01-12 02:55:14.85	173.45	1.97	-47.0	-58.9	3.6	8.45e-01	0	28	104	0	60	31854
2026-01-12 02:55:18.89	173.55	2.22	-47.0	-59.1	3.6	8.45e-01	0	27	104	0	60	32403
2026-01-12 02:55:22.93	173.66	2.48	-46.9	-58.2	3.6	8.45e-01	0	28	104	0	60	29358
2026-01-12 02:55:26.97	173.77	2.74	-46.9	-58.4	3.6	8.45e-01	0	28	104	0	60	30221
2026-01-12 02:55:31.01	173.88	3.01	-44.3	-47.4	10.4	2.71e-02	0	28	0	4194304	60	8496
2026-01-12 02:55:35.05	174.00	3.27	-37.9	-38.9	19.3	0.00e+00	0	28	0	26214400	50	5644
2026-01-12 02:55:39.09	174.11	3.54	-35.6	-36.4	21.5	0.00e+00	0	28	0	49283072	44	6018
2026-01-12 02:55:43.13	174.23	3.81	-39.3	-40.6	17.6	0.00e+00	0	28	0	72351744	52	6104
2026-01-12 02:55:47.17	174.35	4.08	-36.8	-37.8	20.4	0.00e+00	0	28	0	88080384	48	5577
2026-01-12 02:55:51.21	174.47	4.36	-35.5	-36.4	21.9	0.00e+00	0	28	0	111149056	44	5971
2026-01-12 02:55:55.25	174.59	4.64	-34.8	-35.5	22.5	0.00e+00	0	28	0	133169152	42	6097
2026-01-12 02:55:59.28	174.72	4.92	-34.7	-35.5	22.7	0.00e+00	0	28	0	156237824	42	6045
2026-01-12 02:56:03.32	174.85	5.20	-34.7	-35.5	22.7	0.00e+00	0	28	0	178257920	42	6076
2026-01-12 02:56:07.36	174.98	5.49	-34.4	-35.2	23.1	0.00e+00	0	28	0	201326592	42	5854
2026-01-12 02:56:11.39	175.11	5.78	-34.3	-35.1	23.3	0.00e+00	0	28	0	224395264	42	5781
2026-01-12 02:56:15.43	175.24	6.07	-34.2	-34.9	23.4	0.00e+00	0	28	0	246415360	42	5673
2026-01-12 02:56:19.47	175.38	6.37	-34.1	-34.9	23.4	0.00e+00	0	28	0	269484032	42	5642
2026-01-12 02:56:23.51	175.52	6.67	-33.7	-34.4	24.0	0.00e+00	0	28	0	292552704	42	5345
2026-01-12 02:56:27.55	175.66	6.97	-33.6	-34.4	23.9	0.00e+00	0	28	0	315621376	40	5974
2026-01-12 02:56:31.59	175.81	7.28	-33.6	-34.3	24.0	0.00e+00	0	28	0	337641472	40	5939
2026-01-12 02:56:35.63	175.96	7.59	-33.7	-34.4	24.0	0.00e+00	0	28	0	360710144	40	6018
2026-01-12 02:56:39.67	176.11	7.90	-33.6	-34.3	24.2	0.00e+00	0	28	0	382730240	40	5920
2026-01-12 02:56:43.71	176.26	8.22	-33.3	-33.9	24.3	0.00e+00	0	28	0	405798912	40	5689
2026-01-12 02:56:47.74	176.42	8.54	-33.1	-33.8	24.5	0.00e+00	0	28	0	428867584	40	5607
2026-01-12 02:56:51.78	176.58	8.87	-33.0	-33.7	24.7	0.00e+00	0	28	0	450887680	40	5541
2026-01-12 02:56:55.82	176.74	9.20	-33.0	-33.7	24.7	0.00e+00	0	28	0	473956352	40	5537
2026-01-12 02:56:59.86	176.91	9.53	-33.0	-33.7	24.8	0.00e+00	0	28	0	497025024	40	5522
2026-01-12 02:57:03.89	177.08	9.87	-32.7	-33.4	25.0	0.00e+00	0	28	0	519045120	38	5993
2026-01-12 02:57:07.94	177.25	10.21	-32.9	-33.6	24.9	0.00e+00	0	28	0	542113792	38	6122
2026-01-12 02:57:11.98	177.43	10.56	-32.7	-33.4	25.0	0.00e+00	0	28	0	565182464	38	6016
2026-01-12 02:57:16.02	177.61	10.91	-32.8	-33.5	25.0	0.00e+00	0	28	0	587202560	38	6060
2026-01-12 02:57:20.05	177.80	11.27	-32.7	-33.4	25.1	0.00e+00	0	28	0	610271232	38	6003
2026-01-12 02:57:24.09	177.99	11.63	-32.8	-33.4	25.1	0.00e+00	0	28	0	633339904	38	6027
2026-01-12 02:57:28.13	178.18	12.00	-32.6	-33.2	25.4	0.00e+00	0	28	0	655360000	38	5870
2026-01-12 02:57:32.16	178.38	12.37	-32.6	-33.3	25.2	0.00e+00	0	28	0	678428672	38	5912
2026-01-12 02:57:36.20	178.59	12.75	-32.5	-33.2	25.4	0.00e+00	0	28	0	701497344	38	5841
2026-01-12 02:57:40.24	178.80	13.13	-32.1	-32.8	25.7	0.00e+00	0	28	0	723517440	38	5603
2026-01-12 02:57:44.28	179.01	13.52	-31.9	-32.6	25.9	0.00e+00	0	28	0	746586112	38	5460
2026-01-12 02:57:48.32	179.23	13.92	-31.9	-32.5	26.0	0.00e+00	0	28	0	769654784	38	5421
2026-01-12 02:57:52.36	179.45	14.32	-31.7	-32.4	26.2	0.00e+00	0	28	0	791674880	36	5990
2026-01-12 02:57:56.40	179.69	14.73	-31.7	-32.4	26.2	0.00e+00	0	28	0	814743552	36	5980
2026-01-12 02:58:00.44	179.92	15.15	-31.6	-32.3	26.2	0.00e+00	0	28	0	837812224	36	5913
2026-01-12 02:58:04.48	180.17	15.57	-31.5	-32.2	26.4	0.00e+00	0	28	0	859832320	36	5830
2026-01-12 02:58:08.52	180.42	16.00	-31.4	-32.0	26.6	0.00e+00	0	28	0	882900992	36	5749
2026-01-12 02:58:12.56	180.67	16.43	-31.0	-31.7	26.8	0.00e+00	0	28	0	905969664	36	5531
2026-01-12 02:58:16.60	180.94	16.88	-30.9	-31.5	26.9	0.00e+00	0	28	0	927989760	36	5418
2026-01-12 02:58:20.64	181.21	17.33	-31.1	-31.7	26.7	0.00e+00	0	28	0	951058432	36	5544
2026-01-12 02:58:24.68	181.49	17.79	-30.8	-31.4	27.0	0.00e+00	0	28	0	974127104	36	5368
2026-01-12 02:58:28.72	181.78	18.25	-30.6	-31.2	27.3	0.00e+00	0	28	0	996147200	34	5896
2026-01-12 02:58:32.75	182.07	18.73	-30.4	-31.1	27.3	0.00e+00	0	28	0	1019215872	34	5785
2026-01-12 02:58:36.79	182.38	19.21	-30.4	-31.1	27.3	0.00e+00	0	28	0	1042284544	34	5764
2026-01-12 02:58:40.83	182.69	19.71	-30.5	-31.2	27.3	0.00e+00	0	28	0	1064304640	34	5845
2026-01-12 02:58:44.87	183.02	20.21	-30.5	-31.1	27.4	0.00e+00	0	28	0	1087373312	34	5817
2026-01-12 02:58:48.91	183.35	20.72	-30.5	-31.2	27.2	0.00e+00	0	28	0	1110441984	34	5850
2026-01-12 02:58:52.95	183.70	21.24	-30.5	-31.2	27.3	0.00e+00	0	28	0	1132462080	34	5853
2026-01-12 02:58:56.98	184.05	21.77	-30.4	-31.0	27.4	0.00e+00	0	28	0	1155530752	34	5735
2026-01-12 02:59:01.02	184.42	22.31	-29.8	-30.4	27.8	0.00e+00	0	28	0	1178599424	32	5972
2026-01-12 02:59:05.06	184.80	22.86	-29.7	-30.3	28.0	0.00e+00	0	28	0	1200619520	32	5928
2026-01-12 02:59:09.10	185.20	23.43	-29.7	-30.3	28.0	0.00e+00	0	28	0	1223688192	32	5948
2026-01-12 02:59:13.13	185.61	24.00	-29.6	-30.3	28.0	0.00e+00	0	28	0	1246756864	32	5907
2026-01-12 02:59:17.17	186.03	24.58	-29.5	-30.1	28.0	0.00e+00	0	28	0	1268776960	32	5815
2026-01-12 02:59:21.21	186.47	25.18	-29.5	-30.1	28.1	0.00e+00	0	28	0	1291845632	32	5797
2026-01-12 02:59:25.24	186.92	25.79	-29.4	-30.0	28.2	0.00e+00	0	28	0	1314914304	32	5745
2026-01-12 02:59:29.27	187.39	26.41	-29.3	-29.9	28.2	0.00e+00	0	28	0	1336934400	32	5667
2026-01-12 02:59:33.31	187.89	27.04	-29.5	-30.1	28.2	0.00e+00	0	28	0	1360003072	32	5782
2026-01-12 02:59:37.35	188.40	27.69	-29.3	-30.0	28.3	0.00e+00	0	28	0	1382023168	32	5707
2026-01-12 02:59:41.39	188.93	28.35	-29.4	-30.0	28.3	0.00e+00	0	28	0	1405091840	32	5739
2026-01-12 02:59:45.43	189.48	29.02	-29.4	-30.0	28.2	0.00e+00	0	28	0	1428160512	32	5756
2026-01-12 02:59:49.46	190.06	29.71	-29.3	-29.9	28.3	0.00e+00	0	28	0	1451229184	32	5684
2026-01-12 02:59:53.50	190.66	30.41	-29.3	-29.9	28.3	0.00e+00	0	28	0	1473249280	32	5689
2026-01-12 02:59:57.54	191.28	31.12	-29.1	-29.7	28.4	0.00e+00	0	28	0	1496317952	32	5517
2026-01-12 03:00:01.58	191.94	31.85	-29.2	-29.8	28.4	0.00e+00	0	28	0	1519386624	32	5603
2026-01-12 03:00:05.62	192.62	32.59	-29.2	-29.8	28.4	0.00e+00	0	28	0	1541406720	32	5583
2026-01-12 03:00:09.65	193.33	33.34	-29.0	-29.7	28.6	0.00e+00	0	28	0	1564475392	32	5503
2026-01-12 03:00:13.69	194.08	34.11	-29.0	-29.7	28.6	0.00e+00	0	28	0	1586495488	32	5521
2026-01-12 03:00:17.73	194.87	34.90	-29.1	-29.7	28.6	0.00e+00	0	28	0	1609564160	32	5526
2026-01-12 03:00:21.77	195.69	35.70	-29.0	-29.6	28.5	0.00e+00	0	28	0	1632632832	32	5497
2026-01-12 03:00:25.80	196.55	36.51	-28.9	-29.5	28.7	0.00e+00	0	28	0	1654652928	30	6083
2026-01-12 03:00:29.85	197.46	37.33	-28.8	-29.5	28.7	0.00e+00	0	28	0	1677721600	30	6036
2026-01-12 03:00:33.88	198.41	38.17	-28.6	-29.2	28.9	0.00e+00	0	28	0	1700790272	30	5845
2026-01-12 03:00:37.92	199.41	39.02	-28.8	-29.4	28.6	0.00e+00	0	28	0	1723858944	30	6030
2026-01-12 03:00:41.96	200.47	39.88	-28.8	-29.4	28.7	0.00e+00	0	28	0	1745879040	30	6008
2026-01-12 03:00:46.00	201.58	40.75	-28.7	-29.3	28.8	0.00e+00	0	28	0	1768947712	30	5919
2026-01-12 03:00:50.03	202.75	41.63	-28.9	-29.5	28.7	0.00e+00	0	28	0	1790967808	30	6071
2026-01-12 03:00:54.07	203.99	42.52	-29.1	-29.8	28.5	0.00e+00	0	28	0	1814036480	30	6249
2026-01-12 03:00:58.11	205.30	43.41	-29.2	-29.9	28.4	0.00e+00	0	29	0	1837105152	30	6318
2026-01-12 03:01:02.15	206.68	44.31	-29.2	-29.8	28.4	0.00e+00	0	28	0	1859125248	30	6280
2026-01-12 03:01:06.19	208.14	45.21	-29.4	-30.0	28.3	0.00e+00	0	28	0	1882193920	30	6399
2026-01-12 03:01:10.23	209.68	46.10	-29.3	-29.9	28.4	0.00e+00	0	28	0	1905262592	30	6343
2026-01-12 03:01:14.27	211.32	47.00	-29.8	-30.4	27.9	0.00e+00	0	28	0	1928331264	32	6032
2026-01-12 03:01:18.31	213.05	47.88	-29.1	-29.7	28.5	0.00e+00	0	28	0	1950351360	32	5525
2026-01-12 03:01:22.35	214.87	48.76	-29.7	-30.3	28.0	0.00e+00	0	28	0	1973420032	32	5957
2026-01-12 03:01:26.38	216.80	49.62	-29.4	-30.0	28.3	0.00e+00	0	28	0	1995440128	32	5723
2026-01-12 03:01:30.42	218.84	50.46	-29.7	-30.3	28.1	0.00e+00	0	28	0	2018508800	32	5942
2026-01-12 03:01:34.46	221.00	51.27	-29.6	-30.1	28.1	0.00e+00	0	28	0	2041577472	32	5819
2026-01-12 03:01:38.48	223.26	52.05	-30.0	-30.6	27.8	0.00e+00	0	28	0	2063597568	32	6161
2026-01-12 03:01:42.51	225.65	52.80	-29.8	-30.3	28.0	0.00e+00	0	28	0	2086666240	32	5956
2026-01-12 03:01:46.55	228.16	53.51	-29.9	-30.5	27.9	0.00e+00	0	28	0	2109734912	32	6071
2026-01-12 03:01:50.59	230.79	54.17	-30.1	-30.7	27.8	0.00e+00	0	28	0	2131755008	32	6214
2026-01-12 03:01:54.63	233.54	54.77	-30.4	-31.0	27.6	0.00e+00	0	29	0	2154823680	32	6464
2026-01-12 03:01:58.67	236.40	55.31	-30.2	-30.8	27.6	0.00e+00	0	28	0	2177892352	32	6285
2026-01-12 03:02:02.71	239.36	55.79	-30.2	-30.8	27.7	0.00e+00	0	28	0	2199912448	32	6254
2026-01-12 03:02:06.74	242.42	56.19	-30.0	-30.7	27.7	0.00e+00	0	28	0	2222981120	32	6195
2026-01-12 03:02:10.77	245.55	56.52	-30.2	-30.9	27.6	0.00e+00	0	29	0	2246049792	32	6326
2026-01-12 03:02:14.81	248.75	56.76	-30.5	-31.1	27.4	0.00e+00	0	28	0	2268069888	32	6512
2026-01-12 03:02:18.84	251.99	56.92	-30.3	-31.0	27.5	0.00e+00	0	29	0	2291138560	34	5704
2026-01-12 03:02:22.88	255.27	56.99	-30.5	-31.1	27.4	0.00e+00	0	29	0	2314207232	34	5778
2026-01-12 03:02:26.92	258.55	56.97	-30.3	-30.9	27.5	0.00e+00	0	29	0	2336227328	34	5672
2026-01-12 03:02:30.96	261.82	56.86	-30.2	-30.8	27.5	0.00e+00	0	28	0	2359296000	34	5630
2026-01-12 03:02:35.00	265.05	56.67	-30.2	-30.9	27.6	0.00e+00	0	28	0	2381316096	34	5639
2026-01-12 03:02:39.04	268.23	56.39	-30.3	-31.0	27.5	0.00e+00	0	29	0	2404384768	34	5712
2026-01-12 03:02:43.07	271.32	56.04	-30.1	-30.8	27.7	0.00e+00	0	29	0	2427453440	34	5616
2026-01-12 03:02:47.11	274.34	55.60	-30.1	-30.7	27.7	0.00e+00	0	29	0	2450522112	34	5550
2026-01-12 03:02:51.14	277.26	55.10	-30.7	-31.2	27.3	0.00e+00	0	29	0	2472542208	34	5894
2026-01-12 03:02:55.19	280.08	54.53	-30.5	-31.1	27.5	0.00e+00	0	29	0	2495610880	34	5775
2026-01-12 03:02:59.22	282.77	53.91	-30.2	-30.9	27.7	0.00e+00	0	28	0	2518679552	34	5646
2026-01-12 03:03:03.26	285.35	53.23	-30.0	-30.6	27.9	0.00e+00	0	28	0	2540699648	34	5478
2026-01-12 03:03:07.30	287.81	52.51	-30.4	-30.9	27.5	0.00e+00	0	28	0	2563768320	34	5684
2026-01-12 03:03:11.34	290.15	51.75	-29.8	-30.4	28.0	0.00e+00	0	29	0	2585788416	34	5335
2026-01-12 03:03:15.38	292.37	50.95	-29.7	-30.3	28.0	0.00e+00	0	28	0	2608857088	32	5952
2026-01-12 03:03:19.42	294.47	50.13	-29.7	-30.3	27.9	0.00e+00	0	28	0	2631925760	32	5923
2026-01-12 03:03:23.46	296.46	49.28	-29.8	-30.4	28.0	0.00e+00	0	28	0	2654994432	32	5999
2026-01-12 03:03:27.49	298.34	48.42	-29.6	-30.2	28.1	0.00e+00	0	28	0	2677014528	32	5850
2026-01-12 03:03:31.53	300.13	47.54	-29.6	-30.3	28.1	0.00e+00	0	28	0	2700083200	32	5909
2026-01-12 03:03:35.57	301.81	46.65	-29.4	-30.0	28.3	0.00e+00	0	28	0	2723151872	32	5723
2026-01-12 03:03:39.61	303.41	45.76	-29.6	-30.3	27.9	0.00e+00	0	29	0	2745171968	32	5936
2026-01-12 03:03:43.65	304.91	44.87	-29.5	-30.2	28.3	0.00e+00	0	28	0	2768240640	32	5831
2026-01-12 03:03:47.69	306.34	43.97	-29.1	-29.6	28.3	0.00e+00	0	28	0	2790260736	32	5480
2026-01-12 03:03:51.73	307.69	43.08	-29.2	-29.8	28.2	0.00e+00	0	29	0	2813329408	32	5568
2026-01-12 03:03:55.78	308.97	42.19	-29.1	-29.7	28.4	0.00e+00	0	28	0	2836398080	32	5553
2026-01-12 03:03:59.81	310.17	41.31	-29.3	-29.8	28.3	0.00e+00	0	29	0	2859466752	32	5614
2026-01-12 03:04:03.85	311.32	40.44	-29.2	-29.9	28.4	0.00e+00	0	28	0	2881486848	32	5665
2026-01-12 03:04:07.89	312.41	39.57	-29.1	-29.8	28.5	0.00e+00	0	28	0	2904555520	32	5599
2026-01-12 03:04:11.93	313.44	38.72	-29.4	-29.9	28.2	0.00e+00	0	28	0	2927624192	32	5684
2026-01-12 03:04:15.97	314.42	37.88	-29.2	-29.8	28.4	0.00e+00	0	28	0	2949644288	32	5613
2026-01-12 03:04:20.01	315.35	37.05	-29.0	-29.7	28.5	0.00e+00	0	29	0	2972712960	32	5518
2026-01-12 03:04:24.05	316.24	36.23	-28.8	-29.5	28.7	0.00e+00	0	28	0	2994733056	32	5381
2026-01-12 03:04:28.08	317.08	35.43	-28.8	-29.5	28.7	0.00e+00	0	28	0	3017801728	30	6066
2026-01-12 03:04:32.12	317.89	34.64	-29.2	-29.7	28.3	0.00e+00	0	29	0	3040870400	30	6228
2026-01-12 03:04:36.16	318.66	33.87	-28.9	-29.6	28.5	0.00e+00	0	28	0	3063939072	30	6166
2026-01-12 03:04:40.20	319.39	33.11	-29.0	-29.6	28.4	0.00e+00	0	28	0	3085959168	30	6115
2026-01-12 03:04:44.23	320.09	32.36	-29.2	-29.7	28.4	0.00e+00	0	29	0	3109027840	30	6241
2026-01-12 03:04:48.27	320.77	31.63	-29.6	-30.2	28.0	0.00e+00	0	29	0	3132096512	30	6612
2026-01-12 03:04:52.31	321.41	30.91	-29.3	-30.0	28.2	0.00e+00	0	29	0	3154116608	32	5731
2026-01-12 03:04:56.36	322.03	30.20	-29.4	-30.0	28.2	0.00e+00	0	28	0	3177185280	32	5699
2026-01-12 03:05:00.40	322.62	29.51	-29.5	-30.1	28.1	0.00e+00	0	28	0	3199205376	32	5802
2026-01-12 03:05:04.43	323.18	28.83	-29.4	-30.0	28.1	0.00e+00	0	28	0	3222274048	32	5725
2026-01-12 03:05:08.47	323.73	28.17	-29.5	-30.1	28.2	0.00e+00	0	29	0	3245342720	32	5827
2026-01-12 03:05:12.51	324.25	27.52	-29.4	-30.1	28.2	0.00e+00	0	29	0	3268411392	32	5771
2026-01-12 03:05:16.54	324.75	26.88	-29.4	-30.0	28.1	0.00e+00	0	29	0	3290431488	32	5700
2026-01-12 03:05:20.58	325.24	26.25	-29.6	-30.1	27.9	0.00e+00	0	29	0	3313500160	32	5819
2026-01-12 03:05:24.62	325.71	25.64	-29.5	-30.2	28.1	0.00e+00	0	29	0	3336568832	32	5855
2026-01-12 03:05:28.66	326.15	25.04	-29.8	-30.3	27.9	0.00e+00	0	28	0	3358588928	32	5941
2026-01-12 03:05:32.70	326.59	24.45	-29.8	-30.3	27.9	0.00e+00	0	28	0	3381657600	32	5935
2026-01-12 03:05:36.73	327.01	23.87	-30.0	-30.5	27.7	0.00e+00	0	28	0	3403677696	32	6092
2026-01-12 03:05:40.78	327.41	23.30	-30.1	-30.6	27.7	0.00e+00	0	28	0	3426746368	32	6149
2026-01-12 03:05:44.82	327.80	22.75	-30.0	-30.7	27.7	0.00e+00	0	28	0	3449815040	32	6232
2026-01-12 03:05:48.85	328.18	22.20	-30.1	-30.7	27.6	0.00e+00	0	28	0	3472883712	32	6212
2026-01-12 03:05:52.90	328.55	21.67	-30.3	-31.1	27.4	0.00e+00	0	29	0	3494903808	32	6470
2026-01-12 03:05:56.94	328.90	21.14	-30.4	-31.0	27.3	0.00e+00	0	29	0	3517972480	32	6417
2026-01-12 03:06:00.97	329.24	20.63	-30.6	-31.3	27.2	0.00e+00	0	29	0	3541041152	32	6653
2026-01-12 03:06:05.01	329.57	20.12	-30.8	-31.5	27.0	0.00e+00	0	28	0	3563061248	34	6056
2026-01-12 03:06:09.05	329.90	19.63	-31.0	-31.5	26.9	0.00e+00	0	28	0	3586129920	34	6100
2026-01-12 03:06:13.08	330.21	19.14	-30.9	-31.6	26.9	0.00e+00	0	29	0	3608150016	34	6128
2026-01-12 03:06:17.12	330.51	18.66	-30.7	-31.4	27.1	0.00e+00	0	28	0	3631218688	34	6006
2026-01-12 03:06:21.16	330.80	18.19	-30.8	-31.5	27.0	0.00e+00	0	29	0	3654287360	34	6084
2026-01-12 03:06:25.20	331.09	17.73	-31.1	-31.7	26.7	0.00e+00	0	28	0	3676307456	34	6210
2026-01-12 03:06:29.24	331.37	17.27	-31.5	-32.0	26.4	0.00e+00	0	28	0	3699376128	34	6456
2026-01-12 03:06:33.28	331.64	16.83	-31.9	-32.5	26.0	0.00e+00	0	28	0	3722444800	36	6044
2026-01-12 03:06:37.32	331.90	16.39	-32.0	-32.7	25.9	0.00e+00	0	28	0	3745513472	36	6176
2026-01-12 03:06:41.36	332.16	15.96	-32.3	-32.9	25.7	0.00e+00	0	28	0	3767533568	36	6329
2026-01-12 03:06:45.40	332.41	15.53	-32.5	-33.1	25.5	0.00e+00	0	28	0	3790602240	36	6515
2026-01-12 03:06:49.43	332.65	15.12	-32.3	-32.9	25.7	0.00e+00	0	28	0	3812622336	36	6360
2026-01-12 03:06:53.47	332.89	14.70	-32.5	-33.1	25.4	0.00e+00	0	28	0	3835691008	36	6502
2026-01-12 03:06:57.51	333.12	14.30	-32.5	-33.1	25.4	0.00e+00	0	28	0	3858759680	36	6539
2026-01-12 03:07:01.54	333.34	13.90	-32.5	-33.3	25.4	0.00e+00	0	28	0	3880779776	38	5925
2026-01-12 03:07:05.58	333.56	13.51	-32.6	-33.4	25.2	0.00e+00	0	29	0	3903848448	38	5975
2026-01-12 03:07:09.62	333.78	13.12	-32.6	-33.4	25.2	0.00e+00	0	28	0	3926917120	38	5994
2026-01-12 03:07:13.66	333.99	12.74	-32.6	-33.4	25.3	0.00e+00	0	28	0	3949985792	38	5970
2026-01-12 03:07:17.70	334.19	12.37	-32.8	-33.4	25.1	0.00e+00	0	28	0	3972005888	38	6008
2026-01-12 03:07:21.73	334.39	12.00	-32.7	-33.3	25.2	0.00e+00	0	28	0	3995074560	38	5937
2026-01-12 03:07:25.77	334.59	11.64	-32.8	-33.4	25.0	0.00e+00	0	28	0	4017094656	38	5995
2026-01-12 03:07:29.80	334.78	11.28	-32.9	-33.7	24.9	0.00e+00	0	28	0	4040163328	38	6183
2026-01-12 03:07:33.84	334.97	10.92	-33.0	-33.8	24.8	0.00e+00	0	28	0	4063232000	38	6262
2026-01-12 03:07:37.87	335.15	10.57	-33.2	-33.8	24.7	0.00e+00	0	28	0	4085252096	38	6303
2026-01-12 03:07:41.91	335.33	10.23	-33.5	-34.2	24.4	0.00e+00	0	28	0	4108320768	38	6563
2026-01-12 03:07:45.95	335.50	9.89	-33.5	-34.1	24.3	0.00e+00	0	29	0	4131389440	38	6510
2026-01-12 03:07:49.98	335.68	9.55	-33.6	-34.3	24.1	0.00e+00	0	29	0	4153409536	38	6634
2026-01-12 03:07:54.02	335.84	9.22	-33.5	-34.2	24.1	0.00e+00	0	28	0	4176478208	40	5839
2026-01-12 03:07:58.06	336.01	8.90	-33.8	-34.6	23.9	0.00e+00	0	29	0	4199546880	40	6164
2026-01-12 03:08:02.09	336.17	8.57	-33.7	-34.5	24.0	0.00e+00	0	28	0	4221566976	40	6062
2026-01-12 03:08:06.12	336.33	8.25	-33.8	-34.6	23.8	0.00e+00	0	28	0	4244635648	40	6165
2026-01-12 03:08:10.16	336.49	7.94	-34.0	-34.7	23.7	0.00e+00	0	28	0	4267704320	40	6175
2026-01-12 03:08:14.20	336.64	7.63	-34.1	-34.9	23.6	0.00e+00	0	28	0	4289724416	40	6335
2026-01-12 03:08:18.24	336.79	7.32	-34.2	-34.9	23.4	0.00e+00	0	28	0	4312793088	40	6369
2026-01-12 03:08:22.28	336.94	7.01	-34.2	-34.9	23.3	0.00e+00	0	28	0	4335861760	40	6387
2026-01-12 03:08:26.31	337.08	6.71	-34.4	-35.2	23.1	0.00e+00	0	29	0	4357881856	40	6586
2026-01-12 03:08:30.35	337.22	6.42	-34.4	-35.2	23.1	0.00e+00	0	28	0	4380950528	40	6610
2026-01-12 03:08:34.39	337.36	6.12	-34.6	-35.3	22.7	0.00e+00	0	28	0	4402970624	42	5927
2026-01-12 03:08:38.43	337.50	5.83	-34.8	-35.6	22.2	0.00e+00	0	28	0	4426039296	42	6143
2026-01-12 03:08:42.47	337.63	5.54	-35.5	-36.3	21.3	0.00e+00	0	28	0	4449107968	42	6672
2026-01-12 03:08:46.50	337.77	5.26	-36.6	-37.6	19.6	0.00e+00	0	28	0	4471128064	44	6907
2026-01-12 03:08:50.54	337.90	4.98	-37.9	-39.0	17.5	0.00e+00	0	29	0	4494196736	48	6452
2026-01-12 03:08:54.58	338.03	4.70	-39.5	-41.2	14.9	0.00e+00	0	28	0	4517265408	50	7383
2026-01-12 03:08:58.61	338.15	4.42	-41.3	-44.0	11.3	8.88e-04	0	28	0	4540334080	54	8115
2026-01-12 03:09:02.65	338.28	4.15	-42.7	-47.1	7.2	1.05e-01	0	28	0	4562354176	56	10332
2026-01-12 03:09:06.68	338.40	3.88	-43.2	-50.2	4.0	8.14e-01	0	29	0	4574937088	58	13064
2026-01-12 03:09:10.72	338.52	3.61	-43.4	-54.1	3.6	8.45e-01	0	29	104	4574937088	58	20669
2026-01-12 03:09:14.76	338.64	3.34	-43.4	-55.3	3.6	8.46e-01	0	29	104	4574937088	58	23684
2026-01-12 03:09:18.80	338.75	3.08	-43.4	-55.4	3.6	8.45e-01	0	29	104	4574937088	58	23922
2026-01-12 03:09:22.84	338.87	2.82	-47.9	-60.1	3.6	8.47e-01	0	29	104	4574937088	60	36410
2026-01-12 03:09:26.88	338.98	2.56	-48.5	-60.6	3.6	8.46e-01	0	29	104	4574937088	60	38792
2026-01-12 03:09:30.92	339.10	2.30	-47.5	-60.6	3.6	8.46e-01	0	29	104	4574937088	60	38526
2026-01-12 03:09:34.96	339.21	2.05	-48.3	-60.4	3.6	8.45e-01	0	29	104	4574937088	60	38024
2026-01-12 03:09:39.00	339.31	1.80	-48.4	-60.5	3.6	8.45e-01	0	29	104	4574937088	60	38446
2026-01-12 03:09:43.04	339.42	1.55	-48.4	-60.5	3.6	8.44e-01	0	29	104	4574937088	60	38324
2026-01-12 03:09:47.08	339.53	1.30	-48.4	-60.5	3.6	8.46e-01	0	29	104	4574937088	60	38357
2026-01-12 03:09:51.12	339.63	1.05	-48.4	-60.5	3.6	8.45e-01	0	29	104	4574937088	60	38209
2026-01-12 03:09:55.16	339.73	0.81	-48.4	-60.5	3.6	8.44e-01	0	29	104	4574937088	60	38241
2026-01-12 03:09:59.20	339.84	0.57	-48.4	-60.5	3.6	8.45e-01	0	29	104	4574937088	60	38263
2026-01-12 03:10:03.24	339.94	0.33	-48.4	-60.5	3.6	8.45e-01	0	29	104	4574937088	60	38319
2026-01-12 03:10:07.28	340.04	0.09	-48.4	-60.5	3.6	8.44e-01	0	29	104	4574937088	60	38330

#Closed at: 2026-01-12 03:10:11
#Recorded file [4574 MB]: D:/lorett/data/35029_260112_145446.dat