passes_logs/2026/01/12/R4.6S_Anadyr/R4.6S_Anadyr__20260112_142116_NOAA_20_JPSS-1_rec.log

#Pass ID: 20260112_142116_NOAA 20 (JPSS-1)
#Satellite: NOAA 20 (JPSS-1)
#Configuration: NOAA 20
#almurnet v.1.7.20251203
#Start time: 2026-01-12 14:21:17

#Version: 2.2.20231116
#Station: R4.6S_Anadyr
#Location: 177.4865 lon 64.73178 lat
#TLE: 1 43013U 17073A   26011.59429536  .00000082  00000+0  59704-4 0  9990
#TLE: 2 43013  98.7632 312.5697 0001637  44.2118 315.9188 14.19535307422256

#Time	Az	El	Level	Level2	SNR	BER	BlckErr	Temp	State	Recorded	gain1	gain2
2026-01-12 14:21:17.95	19.85	0.10	-48.3	-63.2	3.5	1.51e+00	0	27	0	0	60	52350
2026-01-12 14:21:21.99	19.91	0.34	-48.3	-63.6	3.6	1.51e+00	0	28	104	0	60	54574
2026-01-12 14:21:26.03	19.97	0.58	-48.3	-63.5	3.6	1.51e+00	0	28	104	0	60	54150
2026-01-12 14:21:30.07	20.04	0.82	-47.7	-63.0	3.6	1.51e+00	0	28	104	0	60	50808
2026-01-12 14:21:34.11	20.10	1.07	-46.8	-62.0	3.6	1.51e+00	0	28	104	0	60	45274
2026-01-12 14:21:38.15	20.17	1.32	-46.9	-62.0	3.6	1.51e+00	0	28	104	0	60	45260
2026-01-12 14:21:42.18	20.23	1.57	-46.8	-61.9	3.6	1.51e+00	0	29	104	0	60	44902
2026-01-12 14:21:46.22	20.30	1.82	-46.8	-62.0	3.6	1.51e+00	0	29	104	0	60	45658
2026-01-12 14:21:50.26	20.37	2.08	-46.8	-62.0	3.6	1.51e+00	0	29	104	0	60	45426
2026-01-12 14:21:54.30	20.43	2.34	-46.8	-60.6	3.6	1.51e+00	0	29	104	0	60	38542
2026-01-12 14:21:58.34	20.50	2.60	-46.7	-59.3	3.8	1.49e+00	0	29	104	0	60	33443
2026-01-12 14:22:02.38	20.57	2.86	-46.0	-52.7	7.5	2.27e-01	0	29	0	3145728	60	15629
2026-01-12 14:22:06.41	20.64	3.12	-42.9	-45.4	15.7	0.00e+00	0	29	0	10485760	60	6748
2026-01-12 14:22:10.45	20.72	3.39	-41.1	-42.9	18.2	0.00e+00	0	29	0	18874368	56	6333
2026-01-12 14:22:14.49	20.79	3.66	-42.9	-45.4	15.6	0.00e+00	0	29	0	26214400	56	8448
2026-01-12 14:22:18.53	20.86	3.93	-44.2	-47.7	12.6	1.15e-02	0	29	0	33554432	60	8807
2026-01-12 14:22:22.57	20.94	4.21	-40.6	-42.2	18.9	0.00e+00	0	29	104	35651584	54	6552
2026-01-12 14:22:26.61	21.01	4.49	-39.9	-41.2	20.0	0.00e+00	0	29	0	42991616	54	5888
2026-01-12 14:22:30.65	21.09	4.77	-39.9	-41.3	20.0	0.00e+00	0	29	0	50331648	52	6641
2026-01-12 14:22:34.69	21.17	5.05	-39.6	-40.9	20.4	0.00e+00	0	29	0	57671680	52	6347
2026-01-12 14:22:38.73	21.25	5.34	-39.3	-40.5	20.8	0.00e+00	0	29	0	65011712	52	6082
2026-01-12 14:22:42.77	21.33	5.63	-39.1	-40.3	20.9	0.00e+00	0	29	0	73400320	52	5908
2026-01-12 14:22:46.81	21.41	5.92	-39.2	-40.4	21.0	0.00e+00	0	29	0	80740352	52	6030
2026-01-12 14:22:50.85	21.49	6.22	-39.1	-40.3	21.1	0.00e+00	0	29	0	88080384	52	5963
2026-01-12 14:22:54.89	21.58	6.52	-38.9	-40.0	21.3	0.00e+00	0	29	0	95420416	50	6448
2026-01-12 14:22:58.92	21.66	6.82	-38.9	-40.0	21.6	0.00e+00	0	29	0	102760448	50	6433
2026-01-12 14:23:02.96	21.75	7.13	-38.6	-39.7	21.8	0.00e+00	0	29	0	111149056	50	6199
2026-01-12 14:23:07.00	21.84	7.44	-38.4	-39.4	22.0	0.00e+00	0	29	0	118489088	50	6029
2026-01-12 14:23:11.04	21.93	7.75	-38.4	-39.5	22.0	0.00e+00	0	29	0	125829120	50	6060
2026-01-12 14:23:15.08	22.02	8.07	-38.3	-39.4	22.1	0.00e+00	0	29	0	133169152	50	5968
2026-01-12 14:23:19.12	22.12	8.39	-38.5	-39.6	22.0	0.00e+00	0	29	0	141557760	50	6136
2026-01-12 14:23:23.16	22.21	8.72	-38.3	-39.3	22.2	0.00e+00	0	29	0	148897792	50	5915
2026-01-12 14:23:27.20	22.31	9.05	-38.0	-39.0	22.5	0.00e+00	0	29	0	156237824	50	5747
2026-01-12 14:23:31.24	22.41	9.39	-38.3	-39.3	22.3	0.00e+00	0	29	0	163577856	50	5962
2026-01-12 14:23:35.28	22.51	9.73	-38.0	-39.0	22.7	0.00e+00	0	30	0	170917888	50	5696
2026-01-12 14:23:39.32	22.61	10.07	-37.9	-38.9	22.7	0.00e+00	0	29	0	179306496	50	5651
2026-01-12 14:23:43.36	22.72	10.42	-37.7	-38.6	23.0	0.00e+00	0	30	0	186646528	48	6163
2026-01-12 14:23:47.40	22.82	10.78	-37.8	-38.8	22.9	0.00e+00	0	30	0	193986560	48	6248
2026-01-12 14:23:51.44	22.93	11.14	-37.7	-38.7	23.0	0.00e+00	0	30	0	201326592	48	6202
2026-01-12 14:23:55.48	23.04	11.50	-37.6	-38.6	22.9	0.00e+00	0	30	0	209715200	48	6111
2026-01-12 14:23:59.51	23.16	11.87	-37.4	-38.3	23.3	0.00e+00	0	30	0	217055232	48	5920
2026-01-12 14:24:03.55	23.27	12.25	-37.5	-38.4	23.3	0.00e+00	0	30	0	224395264	48	5992
2026-01-12 14:24:07.59	23.39	12.63	-37.6	-38.6	23.2	0.00e+00	0	30	0	231735296	48	6111
2026-01-12 14:24:11.63	23.51	13.01	-37.6	-38.6	23.2	0.00e+00	0	30	0	239075328	48	6108
2026-01-12 14:24:15.67	23.64	13.41	-37.6	-38.5	23.2	0.00e+00	0	30	0	247463936	48	6067
2026-01-12 14:24:19.71	23.76	13.81	-37.5	-38.4	23.2	0.00e+00	0	30	0	254803968	48	6025
2026-01-12 14:24:23.75	23.89	14.22	-37.6	-38.5	23.2	0.00e+00	0	30	0	262144000	48	6083
2026-01-12 14:24:27.79	24.03	14.63	-37.6	-38.5	23.2	0.00e+00	0	30	0	269484032	48	6068
2026-01-12 14:24:31.83	24.16	15.05	-37.6	-38.6	23.3	0.00e+00	0	30	0	277872640	48	6106
2026-01-12 14:24:35.87	24.30	15.48	-37.7	-38.7	23.1	0.00e+00	0	30	0	285212672	48	6205
2026-01-12 14:24:39.91	24.45	15.91	-37.8	-38.8	23.0	0.00e+00	0	30	0	292552704	48	6265
2026-01-12 14:24:43.94	24.59	16.36	-37.8	-38.7	23.1	0.00e+00	0	30	0	299892736	48	6244
2026-01-12 14:24:47.98	24.75	16.81	-38.0	-39.0	22.9	0.00e+00	0	30	0	307232768	48	6399
2026-01-12 14:24:52.02	24.90	17.27	-38.2	-39.2	22.9	0.00e+00	0	30	0	315621376	48	6562
2026-01-12 14:24:56.06	25.06	17.73	-38.2	-39.2	22.6	0.00e+00	0	30	0	322961408	48	6578
2026-01-12 14:25:00.10	25.22	18.21	-38.1	-39.1	22.8	0.00e+00	0	30	0	330301440	48	6500
2026-01-12 14:25:04.13	25.39	18.70	-38.2	-39.1	22.8	0.00e+00	0	30	0	337641472	48	6526
2026-01-12 14:25:08.17	25.57	19.19	-38.1	-39.1	22.9	0.00e+00	0	30	0	346030080	48	6480
2026-01-12 14:25:12.21	25.75	19.70	-38.3	-39.3	22.7	0.00e+00	0	30	0	353370112	48	6629
2026-01-12 14:25:16.25	25.93	20.22	-38.1	-39.1	22.9	0.00e+00	0	30	0	360710144	48	6477
2026-01-12 14:25:20.29	26.12	20.74	-38.3	-39.2	22.8	0.00e+00	0	30	0	368050176	48	6599
2026-01-12 14:25:24.33	26.32	21.28	-38.3	-39.3	22.7	0.00e+00	0	30	0	375390208	48	6626
2026-01-12 14:25:28.36	26.52	21.83	-38.2	-39.2	22.8	0.00e+00	0	30	0	383778816	48	6580
2026-01-12 14:25:32.41	26.73	22.39	-38.1	-39.0	23.0	0.00e+00	0	30	0	391118848	48	6460
2026-01-12 14:25:36.45	26.94	22.97	-37.9	-38.8	23.2	0.00e+00	0	30	0	398458880	48	6299
2026-01-12 14:25:40.49	27.17	23.55	-37.9	-38.8	23.1	0.00e+00	0	30	0	405798912	48	6282
2026-01-12 14:25:44.52	27.40	24.15	-37.8	-38.7	23.3	0.00e+00	0	30	0	414187520	48	6214
2026-01-12 14:25:48.56	27.64	24.76	-37.8	-38.7	23.3	0.00e+00	0	30	0	421527552	48	6215
2026-01-12 14:25:52.60	27.89	25.39	-37.9	-38.8	23.1	0.00e+00	0	30	0	428867584	48	6310
2026-01-12 14:25:56.64	28.15	26.03	-38.0	-39.0	23.1	0.00e+00	0	30	0	436207616	48	6405
2026-01-12 14:26:00.68	28.42	26.69	-38.0	-39.0	23.1	0.00e+00	0	30	0	443547648	48	6413
2026-01-12 14:26:04.72	28.70	27.37	-37.8	-38.7	23.4	0.00e+00	0	30	0	451936256	48	6237
2026-01-12 14:26:08.75	28.99	28.05	-37.5	-38.4	23.6	0.00e+00	0	30	0	459276288	48	6031
2026-01-12 14:26:12.79	29.29	28.76	-38.3	-39.3	23.0	0.00e+00	0	30	0	466616320	48	6621
2026-01-12 14:26:16.83	29.61	29.48	-38.5	-39.5	22.7	0.00e+00	0	30	0	473956352	48	6826
2026-01-12 14:26:20.87	29.94	30.23	-39.1	-40.1	22.0	0.00e+00	0	30	0	482344960	50	6527
2026-01-12 14:26:24.90	30.28	30.98	-39.5	-40.6	21.6	0.00e+00	0	30	0	489684992	50	6925
2026-01-12 14:26:28.94	30.64	31.76	-40.0	-41.2	21.2	0.00e+00	0	30	0	497025024	52	6548
2026-01-12 14:26:32.98	31.02	32.56	-39.8	-41.0	21.4	0.00e+00	0	30	0	504365056	52	6433
2026-01-12 14:26:37.02	31.42	33.39	-39.4	-40.5	21.9	0.00e+00	0	30	0	511705088	52	6075
2026-01-12 14:26:41.05	31.83	34.23	-39.1	-40.1	22.1	0.00e+00	0	30	0	520093696	52	5793
2026-01-12 14:26:45.09	32.27	35.09	-39.6	-40.8	21.6	0.00e+00	0	30	0	527433728	52	6249
2026-01-12 14:26:49.13	32.73	35.98	-39.5	-40.6	21.8	0.00e+00	0	30	0	534773760	52	6130
2026-01-12 14:26:53.17	33.22	36.89	-40.3	-41.5	21.1	0.00e+00	0	30	0	542113792	52	6815
2026-01-12 14:26:57.20	33.73	37.82	-40.6	-41.9	20.6	0.00e+00	0	30	0	549453824	52	7095
2026-01-12 14:27:01.24	34.27	38.77	-41.0	-42.4	20.0	0.00e+00	0	30	0	557842432	54	6719
2026-01-12 14:27:05.27	34.84	39.75	-41.5	-43.0	19.4	0.00e+00	0	30	0	565182464	54	7219
2026-01-12 14:27:09.31	35.45	40.76	-41.3	-42.8	19.7	0.00e+00	0	30	0	572522496	54	7012
2026-01-12 14:27:13.35	36.10	41.79	-41.2	-42.7	19.8	0.00e+00	0	30	0	579862528	54	6929
2026-01-12 14:27:17.39	36.79	42.85	-40.2	-41.4	21.1	0.00e+00	0	30	0	588251136	54	5982
2026-01-12 14:27:21.43	37.53	43.94	-40.2	-41.4	21.1	0.00e+00	0	30	0	595591168	54	6011
2026-01-12 14:27:25.46	38.32	45.04	-40.5	-41.7	20.8	0.00e+00	0	30	0	602931200	54	6233
2026-01-12 14:27:29.50	39.16	46.18	-40.1	-41.3	21.3	0.00e+00	0	30	0	610271232	52	6662
2026-01-12 14:27:33.54	40.07	47.34	-40.5	-41.8	20.9	0.00e+00	0	30	0	618659840	52	7010
2026-01-12 14:27:37.57	41.05	48.52	-39.9	-41.1	21.3	0.00e+00	0	30	0	625999872	52	6511
2026-01-12 14:27:41.60	42.10	49.73	-38.6	-39.6	22.6	0.00e+00	0	30	0	633339904	52	5502
2026-01-12 14:27:45.64	43.24	50.96	-37.2	-38.1	24.1	0.00e+00	0	30	0	640679936	48	5780
2026-01-12 14:27:49.68	44.48	52.21	-36.0	-36.8	25.3	0.00e+00	0	30	0	648019968	46	5579
2026-01-12 14:27:53.72	45.83	53.48	-34.3	-35.0	26.5	0.00e+00	0	30	0	656408576	42	5731
2026-01-12 14:27:57.76	47.30	54.77	-35.2	-36.0	25.9	0.00e+00	0	30	0	663748608	42	6396
2026-01-12 14:28:01.79	48.90	56.06	-36.5	-37.3	24.7	0.00e+00	0	30	0	671088640	44	6642
2026-01-12 14:28:05.83	50.67	57.36	-37.7	-38.6	23.4	0.00e+00	0	30	0	678428672	46	6864
2026-01-12 14:28:09.86	52.60	58.67	-37.5	-38.3	23.8	0.00e+00	0	30	0	685768704	48	5956
2026-01-12 14:28:13.90	54.74	59.97	-36.2	-37.0	25.0	0.00e+00	0	30	0	694157312	46	5728
2026-01-12 14:28:17.94	57.10	61.26	-36.1	-36.8	25.0	0.00e+00	0	30	0	701497344	46	5624
2026-01-12 14:28:21.97	59.71	62.52	-35.8	-36.6	25.3	0.00e+00	0	30	0	708837376	44	6142
2026-01-12 14:28:26.01	62.61	63.76	-37.5	-38.3	23.8	0.00e+00	0	30	0	716177408	46	6691
2026-01-12 14:28:30.05	65.83	64.95	-37.1	-38.0	23.9	0.00e+00	0	30	0	724566016	46	6424
2026-01-12 14:28:34.09	69.40	66.08	-37.8	-38.7	23.5	0.00e+00	0	30	0	731906048	48	6234
2026-01-12 14:28:38.13	73.34	67.14	-38.1	-39.1	23.4	0.00e+00	0	30	0	739246080	48	6476
2026-01-12 14:28:42.16	77.67	68.10	-39.2	-40.3	22.2	0.00e+00	0	30	0	746586112	50	6627
2026-01-12 14:28:46.19	82.40	68.94	-38.9	-39.9	22.4	0.00e+00	0	30	0	753926144	50	6342
2026-01-12 14:28:50.24	87.54	69.64	-38.9	-39.9	22.7	0.00e+00	0	30	0	762314752	52	5658
2026-01-12 14:28:54.27	93.01	70.19	-39.2	-40.3	22.0	0.00e+00	0	30	0	769654784	52	5905
2026-01-12 14:28:58.31	98.77	70.56	-37.3	-38.1	24.4	0.00e+00	0	30	0	776994816	48	5789
2026-01-12 14:29:02.35	104.71	70.74	-37.0	-37.9	24.3	0.00e+00	0	30	0	784334848	48	5664
2026-01-12 14:29:06.39	110.70	70.73	-37.1	-38.0	23.2	0.00e+00	0	30	0	792723456	46	6419
2026-01-12 14:29:10.42	116.61	70.52	-37.6	-38.5	23.5	0.00e+00	0	29	0	800063488	48	6082
2026-01-12 14:29:14.46	122.34	70.13	-39.6	-40.7	21.5	0.00e+00	0	29	0	807403520	50	6954
2026-01-12 14:29:18.51	127.80	69.56	-40.1	-41.3	21.0	0.00e+00	0	29	0	814743552	52	6658
2026-01-12 14:29:22.54	132.88	68.84	-39.0	-40.0	22.3	0.00e+00	0	29	0	822083584	50	6447
2026-01-12 14:29:26.58	137.57	67.98	-38.8	-39.8	22.4	0.00e+00	0	29	0	830472192	50	6290
2026-01-12 14:29:30.62	141.86	67.01	-39.0	-40.0	22.1	0.00e+00	0	29	0	837812224	50	6436
2026-01-12 14:29:34.65	145.75	65.94	-39.8	-40.9	21.3	0.00e+00	0	29	0	845152256	52	6359
2026-01-12 14:29:38.68	149.27	64.80	-38.9	-40.0	22.3	0.00e+00	0	29	0	852492288	52	5726
2026-01-12 14:29:42.72	152.45	63.60	-35.4	-36.1	25.5	0.00e+00	0	29	0	860880896	44	5826
2026-01-12 14:29:46.75	155.31	62.36	-34.3	-35.0	26.7	0.00e+00	0	29	0	868220928	42	5731
2026-01-12 14:29:50.79	157.89	61.09	-33.7	-34.4	26.8	0.00e+00	0	29	0	875560960	40	6018
2026-01-12 14:29:54.83	160.23	59.79	-34.4	-35.1	26.5	0.00e+00	0	29	0	882900992	42	5795
2026-01-12 14:29:58.87	162.34	58.48	-36.7	-37.6	24.5	0.00e+00	0	29	0	890241024	48	5468
2026-01-12 14:30:02.91	164.26	57.17	-38.9	-39.9	22.4	0.00e+00	0	29	0	898629632	48	7170
2026-01-12 14:30:06.94	166.00	55.87	-34.2	-34.9	26.7	0.00e+00	0	29	0	905969664	42	5643
2026-01-12 14:30:10.98	167.59	54.57	-34.7	-35.5	26.2	0.00e+00	0	29	0	913309696	44	5393
2026-01-12 14:30:15.02	169.05	53.28	-35.1	-35.8	25.8	0.00e+00	0	29	0	920649728	42	6311
2026-01-12 14:30:19.05	170.38	52.02	-33.4	-34.1	27.3	0.00e+00	0	29	0	927989760	40	5808
2026-01-12 14:30:23.09	171.60	50.76	-37.1	-38.0	24.1	0.00e+00	0	29	0	936378368	46	6400
2026-01-12 14:30:27.13	172.73	49.53	-37.1	-38.0	24.1	0.00e+00	0	29	0	943718400	48	5719
2026-01-12 14:30:31.17	173.78	48.32	-41.7	-43.3	19.3	0.00e+00	0	29	0	951058432	56	6663
2026-01-12 14:30:35.21	174.75	47.13	-39.4	-40.5	22.1	0.00e+00	0	29	0	958398464	52	6068
2026-01-12 14:30:39.25	175.65	45.97	-40.3	-41.6	20.9	0.00e+00	0	29	0	966787072	52	6908
2026-01-12 14:30:43.28	176.48	44.84	-38.3	-39.3	22.8	0.00e+00	0	29	0	974127104	50	5911
2026-01-12 14:30:47.32	177.26	43.73	-37.4	-38.3	23.9	0.00e+00	0	29	0	981467136	46	6652
2026-01-12 14:30:51.36	177.99	42.64	-37.4	-38.4	23.8	0.00e+00	0	29	0	988807168	48	5969
2026-01-12 14:30:55.39	178.68	41.59	-35.4	-36.1	25.6	0.00e+00	0	29	0	996147200	44	5801
2026-01-12 14:30:59.43	179.32	40.56	-39.5	-40.6	21.6	0.00e+00	0	29	0	1004535808	50	6908
2026-01-12 14:31:03.46	179.92	39.55	-38.0	-38.9	23.4	0.00e+00	0	29	0	1011875840	50	5671
2026-01-12 14:31:07.50	180.49	38.57	-36.9	-37.7	24.2	0.00e+00	0	29	0	1019215872	46	6238
2026-01-12 14:31:11.54	181.03	37.61	-38.6	-39.6	22.6	0.00e+00	0	29	0	1026555904	48	6921
2026-01-12 14:31:15.57	181.54	36.68	-37.3	-38.2	23.9	0.00e+00	0	29	0	1034944512	48	5875
2026-01-12 14:31:19.61	182.02	35.77	-37.0	-37.9	24.2	0.00e+00	0	29	0	1042284544	48	5644
2026-01-12 14:31:23.65	182.48	34.88	-37.7	-38.6	23.4	0.00e+00	0	29	0	1049624576	48	6114
2026-01-12 14:31:27.68	182.91	34.02	-38.7	-39.7	22.5	0.00e+00	0	29	0	1056964608	48	6989
2026-01-12 14:31:31.72	183.32	33.18	-39.0	-40.1	22.2	0.00e+00	0	29	0	1064304640	50	6476
2026-01-12 14:31:35.75	183.72	32.36	-38.8	-39.8	22.5	0.00e+00	0	29	0	1072693248	50	6272
2026-01-12 14:31:39.78	184.09	31.56	-39.2	-40.2	22.1	0.00e+00	0	29	0	1080033280	50	6590
2026-01-12 14:31:43.82	184.45	30.78	-39.4	-40.5	21.7	0.00e+00	0	29	0	1087373312	50	6784
2026-01-12 14:31:47.86	184.79	30.02	-39.9	-41.1	21.2	0.00e+00	0	29	0	1094713344	52	6531
2026-01-12 14:31:51.90	185.12	29.28	-39.1	-40.1	22.1	0.00e+00	0	29	0	1102053376	52	5818
2026-01-12 14:31:55.94	185.43	28.56	-37.9	-38.8	23.3	0.00e+00	0	29	0	1110441984	50	5612
2026-01-12 14:31:59.98	185.73	27.85	-36.8	-37.7	24.3	0.00e+00	0	29	0	1117782016	48	5515
2026-01-12 14:32:04.01	186.02	27.16	-36.9	-37.7	24.2	0.00e+00	0	29	0	1125122048	46	6243
2026-01-12 14:32:08.04	186.29	26.49	-37.1	-37.9	24.0	0.00e+00	0	29	0	1132462080	46	6386
2026-01-12 14:32:12.08	186.56	25.83	-37.2	-38.1	23.9	0.00e+00	0	29	0	1140850688	46	6513
2026-01-12 14:32:16.11	186.81	25.19	-36.6	-37.5	24.5	0.00e+00	0	29	0	1148190720	46	6036
2026-01-12 14:32:20.14	187.06	24.57	-36.2	-37.0	24.8	0.00e+00	0	29	0	1155530752	46	5753
2026-01-12 14:32:24.18	187.30	23.95	-36.0	-36.8	25.1	0.00e+00	0	29	0	1162870784	46	5622
2026-01-12 14:32:28.22	187.53	23.35	-35.8	-36.7	25.0	0.00e+00	0	29	0	1170210816	46	5527
2026-01-12 14:32:32.25	187.75	22.77	-35.9	-36.7	25.0	0.00e+00	0	28	0	1178599424	46	5541
2026-01-12 14:32:36.29	187.96	22.19	-35.9	-36.7	24.9	0.00e+00	0	29	0	1185939456	44	6200
2026-01-12 14:32:40.33	188.17	21.63	-36.3	-37.1	24.7	0.00e+00	0	29	0	1193279488	44	6528
2026-01-12 14:32:44.37	188.37	21.08	-36.0	-36.9	24.8	0.00e+00	0	29	0	1200619520	44	6320
2026-01-12 14:32:48.40	188.56	20.55	-36.1	-37.0	24.8	0.00e+00	0	29	0	1207959552	44	6396
2026-01-12 14:32:52.44	188.75	20.02	-36.0	-36.8	25.0	0.00e+00	0	29	0	1216348160	44	6264
2026-01-12 14:32:56.47	188.93	19.50	-36.2	-37.0	24.7	0.00e+00	0	29	0	1223688192	44	6403
2026-01-12 14:33:00.51	189.10	19.00	-36.3	-37.1	24.6	0.00e+00	0	29	0	1231028224	44	6532
2026-01-12 14:33:04.55	189.28	18.50	-36.7	-37.5	24.3	0.00e+00	0	29	0	1238368256	44	6821
2026-01-12 14:33:08.58	189.44	18.02	-37.0	-37.8	24.1	0.00e+00	0	29	0	1246756864	46	6293
2026-01-12 14:33:12.62	189.60	17.54	-37.1	-38.0	23.9	0.00e+00	0	29	0	1254096896	46	6393
2026-01-12 14:33:16.65	189.76	17.07	-37.3	-38.2	23.8	0.00e+00	0	29	0	1261436928	46	6562
2026-01-12 14:33:20.69	189.91	16.61	-37.3	-38.2	23.7	0.00e+00	0	29	0	1268776960	46	6555
2026-01-12 14:33:24.73	190.06	16.16	-37.4	-38.4	23.4	0.00e+00	0	29	0	1276116992	46	6708
2026-01-12 14:33:28.76	190.20	15.72	-37.4	-38.3	23.6	0.00e+00	0	29	0	1284505600	46	6680
2026-01-12 14:33:32.80	190.34	15.28	-37.7	-38.6	23.3	0.00e+00	0	28	0	1291845632	48	6171
2026-01-12 14:33:36.83	190.48	14.85	-37.8	-38.7	23.2	0.00e+00	0	29	0	1299185664	48	6215
2026-01-12 14:33:40.87	190.61	14.43	-37.6	-38.5	23.3	0.00e+00	0	29	0	1306525696	48	6094
2026-01-12 14:33:44.91	190.74	14.02	-37.7	-38.6	23.2	0.00e+00	0	29	0	1314914304	48	6149
2026-01-12 14:33:48.94	190.87	13.61	-37.6	-38.6	23.2	0.00e+00	0	28	0	1322254336	48	6107
2026-01-12 14:33:52.98	190.99	13.21	-37.6	-38.5	23.3	0.00e+00	0	29	0	1329594368	48	6096
2026-01-12 14:33:57.02	191.12	12.82	-37.7	-38.7	23.3	0.00e+00	0	29	0	1336934400	48	6203
2026-01-12 14:34:01.06	191.23	12.43	-37.6	-38.6	23.2	0.00e+00	0	29	0	1344274432	48	6118
2026-01-12 14:34:05.10	191.35	12.05	-37.7	-38.6	23.2	0.00e+00	0	28	0	1352663040	48	6142
2026-01-12 14:34:09.13	191.46	11.67	-37.5	-38.4	23.3	0.00e+00	0	29	0	1360003072	48	6016
2026-01-12 14:34:13.17	191.57	11.30	-37.7	-38.6	23.1	0.00e+00	0	28	0	1367343104	48	6146
2026-01-12 14:34:17.20	191.68	10.94	-37.7	-38.7	23.0	0.00e+00	0	29	0	1374683136	48	6203
2026-01-12 14:34:21.24	191.79	10.58	-37.8	-38.8	23.0	0.00e+00	0	28	0	1383071744	48	6268
2026-01-12 14:34:25.28	191.89	10.22	-37.9	-38.9	22.9	0.00e+00	0	28	0	1390411776	48	6330
2026-01-12 14:34:29.31	191.99	9.88	-38.0	-38.9	22.9	0.00e+00	0	28	0	1397751808	48	6374
2026-01-12 14:34:33.35	192.09	9.53	-38.0	-39.0	22.8	0.00e+00	0	28	0	1405091840	48	6429
2026-01-12 14:34:37.39	192.19	9.19	-38.2	-39.2	22.6	0.00e+00	0	28	0	1412431872	48	6609
2026-01-12 14:34:41.42	192.28	8.86	-38.3	-39.3	22.5	0.00e+00	0	28	0	1420820480	48	6634
2026-01-12 14:34:45.46	192.38	8.52	-38.1	-39.1	22.6	0.00e+00	0	28	0	1428160512	48	6532
2026-01-12 14:34:49.50	192.47	8.20	-38.3	-39.4	22.4	0.00e+00	0	28	0	1435500544	48	6700
2026-01-12 14:34:53.54	192.56	7.87	-38.6	-39.7	22.0	0.00e+00	0	28	0	1442840576	50	6191
2026-01-12 14:34:57.58	192.65	7.56	-38.4	-39.4	22.3	0.00e+00	0	28	0	1451229184	50	6022
2026-01-12 14:35:01.61	192.73	7.24	-38.9	-40.0	21.7	0.00e+00	0	28	0	1458569216	50	6419
2026-01-12 14:35:05.64	192.82	6.93	-38.7	-39.7	21.9	0.00e+00	0	28	0	1465909248	50	6236
2026-01-12 14:35:09.68	192.90	6.62	-38.8	-39.9	21.8	0.00e+00	0	28	0	1473249280	50	6390
2026-01-12 14:35:13.71	192.99	6.32	-38.8	-40.0	21.6	0.00e+00	0	28	0	1480589312	50	6412
2026-01-12 14:35:17.75	193.07	6.02	-39.1	-40.2	21.4	0.00e+00	0	28	0	1488977920	50	6574
2026-01-12 14:35:21.79	193.15	5.72	-39.0	-40.1	21.4	0.00e+00	0	28	0	1496317952	50	6529
2026-01-12 14:35:25.82	193.22	5.43	-39.4	-40.6	21.0	0.00e+00	0	28	0	1503657984	50	6855
2026-01-12 14:35:29.86	193.30	5.14	-39.3	-40.5	21.1	0.00e+00	0	28	0	1510998016	50	6784
2026-01-12 14:35:33.90	193.38	4.85	-39.7	-41.0	20.5	0.00e+00	0	28	0	1518338048	50	7210
2026-01-12 14:35:37.93	193.45	4.57	-39.3	-40.6	20.8	0.00e+00	0	28	0	1526726656	52	6111
2026-01-12 14:35:41.97	193.52	4.29	-39.7	-40.9	20.5	0.00e+00	0	28	0	1534066688	52	6365
2026-01-12 14:35:45.98	193.60	4.01	-39.8	-41.1	20.1	0.00e+00	0	28	0	1541406720	52	6500
2026-01-12 14:35:50.02	193.67	3.73	-40.1	-41.4	20.1	0.00e+00	0	28	0	1548746752	52	6740
2026-01-12 14:35:54.06	193.74	3.46	-39.8	-41.1	20.0	0.00e+00	0	28	0	1557135360	52	6535
2026-01-12 14:35:58.10	193.80	3.19	-40.1	-41.5	19.8	0.00e+00	0	28	0	1564475392	52	6830
2026-01-12 14:36:02.14	193.87	2.92	-47.8	-63.2	3.6	1.51e+00	0	28	104	1568669696	60	51996
2026-01-12 14:36:06.18	193.94	2.66	-48.2	-63.6	3.6	1.51e+00	0	28	104	1568669696	60	54869
2026-01-12 14:36:10.22	194.01	2.40	-47.9	-63.6	3.6	1.51e+00	0	28	104	1568669696	60	54748
2026-01-12 14:36:14.26	194.07	2.14	-48.3	-63.5	3.6	1.51e+00	0	28	104	1568669696	60	54087
2026-01-12 14:36:18.30	194.13	1.88	-48.4	-63.6	3.6	1.51e+00	0	28	104	1568669696	60	54597
2026-01-12 14:36:22.34	194.20	1.62	-48.4	-63.6	3.6	1.51e+00	0	28	104	1568669696	60	54719
2026-01-12 14:36:26.38	194.26	1.37	-48.4	-63.6	3.6	1.51e+00	0	28	104	1568669696	60	54777
2026-01-12 14:36:30.41	194.32	1.12	-48.4	-63.6	3.6	1.51e+00	0	28	104	1568669696	60	54842
2026-01-12 14:36:34.45	194.38	0.87	-48.5	-63.7	3.6	1.51e+00	0	28	104	1568669696	60	55108
2026-01-12 14:36:38.49	194.44	0.62	-48.5	-63.7	3.6	1.51e+00	0	28	104	1568669696	60	55037
2026-01-12 14:36:42.53	194.50	0.38	-48.5	-63.6	3.6	1.51e+00	0	28	104	1568669696	60	55002
2026-01-12 14:36:46.57	194.56	0.13	-48.5	-63.7	3.6	1.51e+00	0	28	104	1568669696	60	55297

#Closed at: 2026-01-12 14:36:50
#Recorded file [1568 MB]: D:/lorett/data/35029_260113_022117.dat