passes_logs/2025/01/13/LEX_Murmansk/LEX_Murmansk__20250113_160616_NOAA_19_rec.log

#Pass ID: 20250113_160616_NOAA 19
#Satellite: NOAA 19
#Configuration: NOAA 19
#Start time: 2025-01-13 16:06:11.731361

#LorettStation: 1.0.0 05.05.2024
#Station: LEX_Murmansk
#Location: 33.156738 lon 68.926811 lat
#TLE: 1 33591U 09005A   25013.16337215  .00000276  00000+0  17136-3 0  9999
#TLE: 2 33591  99.0200  76.9116 0014532  62.4730 297.7917 14.13258019821287

#Time	Az	El	Level	SNR
2025-01-13 16:06:23.864466	104.4	16.2	-90.8	1.7
2025-01-13 16:06:25.021826	104.3	16.3	-90.8	3.5
2025-01-13 16:06:26.178968	104.2	16.4	-91.0	2.2
2025-01-13 16:06:27.331768	104.1	16.6	-90.6	1.2
2025-01-13 16:06:28.490791	104.0	16.7	-90.9	6.4
2025-01-13 16:06:29.644453	103.8	16.8	-91.0	7.7
2025-01-13 16:06:30.807648	103.7	16.9	-91.1	4.4
2025-01-13 16:06:31.969762	103.6	17.0	-90.9	4.6
2025-01-13 16:06:33.129013	103.5	17.2	-90.7	5.3
2025-01-13 16:06:34.283782	103.4	17.3	-90.6	2.4
2025-01-13 16:06:35.436082	103.3	17.4	-91.2	7.4
2025-01-13 16:06:36.598197	103.2	17.5	-91.5	7.0
2025-01-13 16:06:37.747104	103.0	17.6	-91.1	5.9
2025-01-13 16:06:38.906081	102.9	17.8	-91.3	4.0
2025-01-13 16:06:40.062922	102.8	17.9	-90.6	1.2
2025-01-13 16:06:41.226653	102.7	18.0	-90.7	4.1
2025-01-13 16:06:42.389437	102.6	18.1	-90.9	3.2
2025-01-13 16:06:43.552121	102.4	18.3	-91.2	2.1
2025-01-13 16:06:44.710967	102.3	18.4	-91.2	3.8
2025-01-13 16:06:45.867530	102.2	18.5	-91.2	3.4
2025-01-13 16:06:47.032397	102.1	18.6	-91.1	6.7
2025-01-13 16:06:48.193643	101.9	18.8	-91.1	3.5
2025-01-13 16:06:49.361408	101.8	18.9	-91.2	3.2
2025-01-13 16:06:50.516500	101.7	19.0	-91.3	3.6
2025-01-13 16:06:51.676346	101.5	19.1	-90.6	5.6
2025-01-13 16:06:52.837638	101.4	19.3	-91.0	6.9
2025-01-13 16:06:54.000603	101.3	19.4	-90.7	6.4
2025-01-13 16:06:55.151069	101.1	19.5	-90.6	6.4
2025-01-13 16:06:56.304927	101.0	19.7	-90.8	5.3
2025-01-13 16:06:57.462668	100.9	19.8	-90.7	3.1
2025-01-13 16:06:58.622656	100.7	19.9	-90.7	1.8
2025-01-13 16:06:59.783480	100.6	20.1	-90.6	2.6
2025-01-13 16:07:00.925641	100.5	20.2	-90.8	3.2
2025-01-13 16:07:02.075248	100.3	20.3	-90.3	5.2
2025-01-13 16:07:03.236530	100.2	20.5	-90.3	10.2
2025-01-13 16:07:04.396424	100.0	20.6	-90.5	10.0
2025-01-13 16:07:05.554428	99.9	20.7	-90.3	10.2
2025-01-13 16:07:06.717010	99.7	20.9	-90.8	6.7
2025-01-13 16:07:07.881595	99.6	21.0	-90.6	7.0
2025-01-13 16:07:09.038713	99.4	21.1	-90.5	7.3
2025-01-13 16:07:10.198159	99.3	21.3	-90.5	9.9
2025-01-13 16:07:11.355518	99.1	21.4	-90.6	9.6
2025-01-13 16:07:12.511508	99.0	21.5	-90.4	7.2
2025-01-13 16:07:13.673296	98.8	21.7	-90.5	5.4
2025-01-13 16:07:14.832467	98.7	21.8	-90.2	3.3
2025-01-13 16:07:15.983897	98.5	22.0	-90.3	2.7
2025-01-13 16:07:17.144108	98.4	22.1	-90.6	4.4
2025-01-13 16:07:18.299784	98.2	22.2	-90.4	1.9
2025-01-13 16:07:19.461329	98.0	22.4	-90.4	6.0
2025-01-13 16:07:20.621756	97.9	22.5	-90.6	7.9
2025-01-13 16:07:21.786746	97.7	22.7	-90.7	8.0
2025-01-13 16:07:22.949952	97.5	22.8	-90.5	7.4
2025-01-13 16:07:24.106560	97.4	22.9	-90.6	5.8
2025-01-13 16:07:25.265785	97.2	23.1	-90.5	2.2
2025-01-13 16:07:26.424931	97.0	23.2	-90.7	0.7
2025-01-13 16:07:27.584411	96.9	23.4	-90.5	5.7
2025-01-13 16:07:28.747319	96.7	23.5	-90.7	5.1
2025-01-13 16:07:29.897078	96.5	23.7	-90.1	4.9
2025-01-13 16:07:31.055076	96.3	23.8	-89.9	4.0
2025-01-13 16:07:32.211380	96.2	24.0	-90.7	2.4
2025-01-13 16:07:33.388154	96.0	24.1	-90.4	2.2
2025-01-13 16:07:34.546278	95.8	24.2	-90.0	3.9
2025-01-13 16:07:35.702253	95.6	24.4	-90.6	3.4
2025-01-13 16:07:36.863355	95.4	24.5	-90.4	1.3
2025-01-13 16:07:38.021006	95.2	24.7	-90.5	3.0
2025-01-13 16:07:39.177618	95.0	24.8	-90.3	2.1
2025-01-13 16:07:40.336060	94.9	25.0	-90.5	2.7
2025-01-13 16:07:41.495126	94.7	25.1	-91.1	5.1
2025-01-13 16:07:42.653044	94.5	25.3	-90.9	4.5
2025-01-13 16:07:43.808764	94.3	25.4	-91.2	3.7
2025-01-13 16:07:44.977400	94.1	25.6	-91.2	3.6
2025-01-13 16:07:46.130173	93.9	25.7	-91.2	2.7
2025-01-13 16:07:47.289043	93.7	25.9	-91.2	2.7
2025-01-13 16:07:48.450398	93.5	26.1	-91.3	8.4
2025-01-13 16:07:49.604607	93.3	26.2	-90.8	6.0
2025-01-13 16:07:50.760068	93.1	26.4	-91.4	7.2
2025-01-13 16:07:51.915583	92.8	26.5	-91.0	3.0
2025-01-13 16:07:53.074948	92.6	26.7	-90.7	1.3
2025-01-13 16:07:54.236867	92.4	26.8	-91.1	4.3
2025-01-13 16:07:55.400412	92.2	27.0	-91.2	3.2
2025-01-13 16:07:56.558609	92.0	27.1	-90.8	4.0
2025-01-13 16:07:57.716360	91.8	27.3	-90.7	2.9
2025-01-13 16:07:58.874334	91.5	27.4	-90.8	4.6
2025-01-13 16:08:00.038545	91.3	27.6	-90.7	4.9
2025-01-13 16:08:01.183896	91.1	27.8	-90.5	7.5
2025-01-13 16:08:02.345351	90.8	27.9	-90.6	2.5
2025-01-13 16:08:03.507273	90.6	28.1	-91.0	5.5
2025-01-13 16:08:04.660765	90.4	28.2	-90.4	6.5
2025-01-13 16:08:05.814074	90.1	28.4	-90.8	4.6
2025-01-13 16:08:06.978379	89.9	28.6	-91.0	7.2
2025-01-13 16:08:08.138084	89.7	28.7	-90.6	10.3
2025-01-13 16:08:09.300598	89.4	28.9	-90.5	11.8
2025-01-13 16:08:10.470590	89.2	29.0	-90.7	9.1
2025-01-13 16:08:11.627546	88.9	29.2	-90.4	6.9
2025-01-13 16:08:12.781993	88.7	29.4	-91.2	3.7
2025-01-13 16:08:13.946445	88.4	29.5	-91.3	3.7
2025-01-13 16:08:15.104306	88.2	29.7	-90.8	4.0
2025-01-13 16:08:16.263516	87.9	29.8	-90.6	1.4
2025-01-13 16:08:17.424862	87.6	30.0	-90.7	7.7
2025-01-13 16:08:18.580252	87.4	30.2	-90.5	9.9
2025-01-13 16:08:19.741165	87.1	30.3	-90.7	13.0
2025-01-13 16:08:20.902496	86.8	30.5	-90.2	14.0
2025-01-13 16:08:22.069256	86.6	30.7	-90.5	15.7
2025-01-13 16:08:23.229972	86.3	30.8	-90.1	9.2
2025-01-13 16:08:24.393763	86.0	31.0	-89.9	9.7
2025-01-13 16:08:25.550261	85.7	31.1	-90.1	9.0
2025-01-13 16:08:26.708038	85.4	31.3	-90.4	8.0
2025-01-13 16:08:27.859013	85.1	31.5	-90.1	10.1
2025-01-13 16:08:29.018965	84.9	31.6	-90.3	11.2
2025-01-13 16:08:30.173469	84.6	31.8	-90.1	12.4
2025-01-13 16:08:31.349971	84.3	32.0	-90.0	11.5
2025-01-13 16:08:32.500733	84.0	32.1	-90.3	10.9
2025-01-13 16:08:33.665013	83.7	32.3	-89.7	6.0
2025-01-13 16:08:34.828679	83.3	32.5	-90.5	2.9
2025-01-13 16:08:35.988392	83.0	32.6	-90.3	3.7
2025-01-13 16:08:37.152264	82.7	32.8	-90.5	3.8
2025-01-13 16:08:38.317122	82.4	32.9	-90.2	4.4
2025-01-13 16:08:39.474143	82.1	33.1	-90.2	9.1
2025-01-13 16:08:40.637797	81.8	33.3	-90.7	12.6
2025-01-13 16:08:41.798050	81.4	33.4	-90.3	14.9
2025-01-13 16:08:42.956116	81.1	33.6	-90.6	16.4
2025-01-13 16:08:44.109729	80.8	33.8	-90.1	15.7
2025-01-13 16:08:45.273697	80.5	33.9	-90.0	13.3
2025-01-13 16:08:46.433675	80.1	34.1	-90.5	11.2
2025-01-13 16:08:47.592808	79.8	34.2	-90.5	12.2
2025-01-13 16:08:48.750723	79.4	34.4	-90.9	7.7
2025-01-13 16:08:49.909612	79.1	34.6	-90.6	8.2
2025-01-13 16:08:51.076592	78.7	34.7	-90.6	12.9
2025-01-13 16:08:52.235141	78.4	34.9	-89.9	11.6
2025-01-13 16:08:53.397364	78.0	35.1	-90.4	13.0
2025-01-13 16:08:54.552858	77.6	35.2	-90.7	15.2
2025-01-13 16:08:55.703461	77.3	35.4	-90.3	12.7
2025-01-13 16:08:56.864444	76.9	35.5	-90.8	7.1
2025-01-13 16:08:58.025886	76.5	35.7	-90.5	8.3
2025-01-13 16:08:59.189409	76.2	35.8	-90.7	3.9
2025-01-13 16:09:00.342132	75.8	36.0	-90.6	3.7
2025-01-13 16:09:01.496853	75.4	36.1	-90.3	6.0
2025-01-13 16:09:02.665532	75.0	36.3	-91.1	5.3
2025-01-13 16:09:03.820351	74.6	36.5	-90.8	5.1
2025-01-13 16:09:04.978957	74.2	36.6	-90.7	9.3
2025-01-13 16:09:06.136916	73.8	36.8	-91.0	13.0
2025-01-13 16:09:07.299653	73.4	36.9	-90.8	16.2
2025-01-13 16:09:08.458462	73.0	37.1	-91.3	16.9
2025-01-13 16:09:09.619391	72.6	37.2	-91.6	17.1
2025-01-13 16:09:10.778542	72.2	37.4	-91.8	13.8
2025-01-13 16:09:11.938399	71.8	37.5	-91.1	12.7
2025-01-13 16:09:13.099944	71.3	37.7	-90.5	8.3
2025-01-13 16:09:14.259371	70.9	37.8	-90.7	6.1
2025-01-13 16:09:15.415256	70.5	37.9	-91.0	8.6
2025-01-13 16:09:16.575588	70.1	38.1	-90.9	10.6
2025-01-13 16:09:17.735524	69.6	38.2	-90.7	9.8
2025-01-13 16:09:18.894686	69.2	38.4	-91.0	13.1
2025-01-13 16:09:20.057772	68.7	38.5	-90.7	17.2
2025-01-13 16:09:21.217286	68.3	38.6	-91.0	17.0
2025-01-13 16:09:22.385136	67.8	38.8	-90.6	16.1
2025-01-13 16:09:23.543673	67.4	38.9	-90.8	13.5
2025-01-13 16:09:24.709194	66.9	39.0	-90.3	9.8
2025-01-13 16:09:25.858858	66.5	39.2	-90.9	8.2
2025-01-13 16:09:27.009969	66.0	39.3	-90.2	6.0
2025-01-13 16:09:28.167777	65.5	39.4	-90.3	3.3
2025-01-13 16:09:29.328067	65.1	39.6	-91.0	3.2
2025-01-13 16:09:30.489205	64.6	39.7	-91.0	5.6
2025-01-13 16:09:31.654998	64.1	39.8	-91.5	5.2
2025-01-13 16:09:32.815721	63.6	39.9	-91.3	4.1
2025-01-13 16:09:33.970087	63.1	40.0	-91.4	8.4
2025-01-13 16:09:35.132245	62.6	40.2	-91.4	10.4
2025-01-13 16:09:36.292270	62.1	40.3	-91.2	10.1
2025-01-13 16:09:37.461262	61.6	40.4	-90.6	15.3
2025-01-13 16:09:38.619268	61.1	40.5	-90.6	17.6
2025-01-13 16:09:39.783780	60.6	40.6	-90.6	17.6
2025-01-13 16:09:40.943099	60.1	40.7	-90.6	17.5
2025-01-13 16:09:42.110781	59.6	40.8	-90.7	13.5
2025-01-13 16:09:43.272602	59.1	40.9	-91.1	9.2
2025-01-13 16:09:44.439488	58.5	41.0	-90.9	9.7
2025-01-13 16:09:45.598552	58.0	41.1	-90.6	9.4
2025-01-13 16:09:46.760857	57.5	41.2	-90.4	5.9
2025-01-13 16:09:47.925395	57.0	41.3	-90.5	8.9
2025-01-13 16:09:49.081249	56.4	41.4	-90.7	9.7
2025-01-13 16:09:50.251789	55.9	41.5	-90.5	7.6
2025-01-13 16:09:51.411304	55.4	41.5	-90.4	9.3
2025-01-13 16:09:52.575203	54.8	41.6	-91.1	13.8
2025-01-13 16:09:53.731814	54.3	41.7	-91.4	13.6
2025-01-13 16:09:54.877732	53.7	41.8	-91.7	14.2
2025-01-13 16:09:56.028757	53.2	41.8	-91.2	17.1
2025-01-13 16:09:57.191232	52.6	41.9	-91.2	18.2
2025-01-13 16:09:58.345417	52.1	42.0	-91.5	16.5
2025-01-13 16:09:59.510339	51.5	42.0	-91.2	17.6
2025-01-13 16:10:00.657182	51.0	42.1	-90.8	15.4
2025-01-13 16:10:01.821148	50.4	42.2	-91.2	15.1
2025-01-13 16:10:02.979720	49.9	42.2	-91.4	13.8
2025-01-13 16:10:04.137160	49.3	42.3	-91.2	14.0
2025-01-13 16:10:05.297941	48.7	42.3	-91.3	9.8
2025-01-13 16:10:06.458933	48.2	42.4	-91.5	10.0
2025-01-13 16:10:07.619804	47.6	42.4	-91.5	8.7
2025-01-13 16:10:08.773642	47.0	42.4	-91.3	5.1
2025-01-13 16:10:09.933607	46.5	42.5	-91.2	7.1
2025-01-13 16:10:11.099387	45.9	42.5	-91.1	5.4
2025-01-13 16:10:12.258191	45.3	42.5	-91.2	4.9
2025-01-13 16:10:13.415984	44.8	42.6	-91.2	5.8
2025-01-13 16:10:14.579132	44.2	42.6	-91.4	6.8
2025-01-13 16:10:15.740763	43.6	42.6	-91.3	3.7
2025-01-13 16:10:16.900039	43.0	42.6	-91.4	9.3
2025-01-13 16:10:18.062746	42.5	42.6	-91.0	9.2
2025-01-13 16:10:19.220009	41.9	42.6	-90.6	9.2
2025-01-13 16:10:20.378975	41.3	42.7	-90.6	9.2
2025-01-13 16:10:21.536924	40.7	42.7	-90.7	10.3
2025-01-13 16:10:22.689659	40.2	42.7	-90.8	13.3
2025-01-13 16:10:23.845764	39.6	42.7	-90.7	13.4
2025-01-13 16:10:25.008421	39.0	42.7	-90.2	14.5
2025-01-13 16:10:26.161121	38.4	42.6	-91.1	12.0
2025-01-13 16:10:27.325123	37.8	42.6	-91.5	12.9
2025-01-13 16:10:28.483172	37.3	42.6	-90.9	16.6
2025-01-13 16:10:29.637324	36.7	42.6	-90.8	16.7
2025-01-13 16:10:30.794291	36.1	42.6	-91.1	14.3
2025-01-13 16:10:31.956518	35.6	42.5	-90.8	17.3
2025-01-13 16:10:33.111570	35.0	42.5	-90.9	14.2
2025-01-13 16:10:34.268694	34.4	42.5	-91.0	15.4
2025-01-13 16:10:35.430447	33.8	42.4	-91.2	15.0
2025-01-13 16:10:36.586550	33.3	42.4	-91.2	16.9
2025-01-13 16:10:37.746715	32.7	42.4	-91.1	15.7
2025-01-13 16:10:38.906205	32.1	42.3	-91.2	16.4
2025-01-13 16:10:40.064715	31.6	42.3	-91.5	16.1
2025-01-13 16:10:41.222591	31.0	42.2	-91.0	12.2
2025-01-13 16:10:42.389564	30.5	42.2	-91.0	13.2
2025-01-13 16:10:43.544473	29.9	42.1	-90.8	13.3
2025-01-13 16:10:44.705387	29.3	42.1	-91.1	14.2
2025-01-13 16:10:45.866794	28.8	42.0	-90.5	11.1
2025-01-13 16:10:47.027601	28.2	41.9	-90.4	14.8
2025-01-13 16:10:48.183547	27.7	41.9	-90.4	12.9
2025-01-13 16:10:49.346688	27.1	41.8	-90.5	11.0
2025-01-13 16:10:50.506794	26.6	41.7	-90.9	13.4
2025-01-13 16:10:51.671012	26.1	41.6	-91.4	11.9
2025-01-13 16:10:52.830538	25.5	41.5	-90.9	11.1
2025-01-13 16:10:53.990497	25.0	41.5	-91.2	13.2
2025-01-13 16:10:55.147796	24.4	41.4	-91.1	12.2
2025-01-13 16:10:56.299508	23.9	41.3	-91.1	9.6
2025-01-13 16:10:57.455399	23.4	41.2	-90.8	12.2
2025-01-13 16:10:58.616995	22.9	41.1	-90.7	13.1
2025-01-13 16:10:59.773756	22.3	41.0	-91.0	10.2
2025-01-13 16:11:00.923454	21.8	40.9	-91.0	10.3
2025-01-13 16:11:02.083109	21.3	40.8	-90.9	11.7
2025-01-13 16:11:03.246717	20.8	40.7	-90.8	9.1
2025-01-13 16:11:04.402682	20.3	40.6	-90.8	8.1
2025-01-13 16:11:05.558250	19.8	40.5	-91.5	10.7
2025-01-13 16:11:06.712490	19.3	40.4	-91.2	9.0
2025-01-13 16:11:07.868683	18.8	40.3	-91.4	8.4
2025-01-13 16:11:09.022600	18.3	40.2	-91.4	14.6
2025-01-13 16:11:10.180364	17.8	40.1	-91.0	10.7
2025-01-13 16:11:11.334008	17.3	39.9	-90.9	11.1
2025-01-13 16:11:12.504797	16.8	39.8	-91.1	10.5
2025-01-13 16:11:13.658354	16.4	39.7	-91.4	9.9
2025-01-13 16:11:14.834450	15.9	39.6	-91.0	8.0
2025-01-13 16:11:15.991833	15.4	39.4	-91.2	11.4
2025-01-13 16:11:17.153347	14.9	39.3	-91.3	11.1
2025-01-13 16:11:18.313370	14.5	39.2	-91.1	6.2
2025-01-13 16:11:19.476586	14.0	39.1	-91.2	7.3
2025-01-13 16:11:20.628527	13.5	38.9	-91.4	11.2
2025-01-13 16:11:21.790503	13.1	38.8	-91.4	11.5
2025-01-13 16:11:22.957613	12.6	38.7	-91.2	13.5
2025-01-13 16:11:24.117805	12.2	38.5	-91.2	13.9
2025-01-13 16:11:25.277223	11.7	38.4	-91.1	13.2
2025-01-13 16:11:26.431162	11.3	38.2	-90.6	12.4
2025-01-13 16:11:27.594717	10.9	38.1	-90.4	11.3
2025-01-13 16:11:28.758499	10.4	38.0	-90.9	11.8
2025-01-13 16:11:29.914396	10.0	37.8	-91.0	12.1
2025-01-13 16:11:31.068106	9.6	37.7	-91.3	13.5
2025-01-13 16:11:32.227254	9.2	37.5	-91.3	13.2
2025-01-13 16:11:33.385995	8.7	37.4	-91.0	15.8
2025-01-13 16:11:34.547199	8.3	37.2	-91.4	13.5
2025-01-13 16:11:35.705208	7.9	37.1	-91.5	14.8
2025-01-13 16:11:36.864280	7.5	36.9	-91.6	14.2
2025-01-13 16:11:38.022614	7.1	36.8	-91.3	13.6
2025-01-13 16:11:39.189334	6.7	36.6	-90.9	11.1
2025-01-13 16:11:40.346297	6.3	36.5	-91.2	10.7
2025-01-13 16:11:41.510724	5.9	36.3	-91.3	13.4
2025-01-13 16:11:42.671311	5.5	36.2	-91.4	14.4
2025-01-13 16:11:43.835738	5.1	36.0	-91.2	10.6
2025-01-13 16:11:44.999578	4.8	35.9	-91.1	11.9
2025-01-13 16:11:46.157742	4.4	35.7	-91.2	10.3
2025-01-13 16:11:47.311236	4.0	35.6	-91.5	8.3
2025-01-13 16:11:48.464749	3.7	35.4	-91.2	7.3
2025-01-13 16:11:49.620991	3.3	35.2	-91.6	7.9
2025-01-13 16:11:50.776128	2.9	35.1	-91.5	5.4
2025-01-13 16:11:51.939299	2.6	34.9	-91.4	3.3
2025-01-13 16:11:53.096295	2.2	34.8	-91.2	4.3
2025-01-13 16:11:54.259741	1.9	34.6	-91.1	2.8
2025-01-13 16:11:55.414256	1.5	34.4	-91.5	4.7
2025-01-13 16:11:56.559991	1.2	34.3	-91.5	6.7
2025-01-13 16:11:57.722541	0.8	34.1	-91.1	3.7
2025-01-13 16:11:58.875786	0.5	34.0	-91.4	5.1
2025-01-13 16:12:00.034004	0.2	33.8	-91.4	7.3
2025-01-13 16:12:01.178553	359.8	33.6	-91.2	6.7
2025-01-13 16:12:02.351849	359.5	33.5	-91.6	6.4
2025-01-13 16:12:03.512784	359.2	33.3	-91.4	11.5
2025-01-13 16:12:04.671943	358.9	33.2	-91.6	8.5
2025-01-13 16:12:05.835010	358.5	33.0	-91.7	8.6
2025-01-13 16:12:06.986161	358.2	32.8	-90.8	12.9
2025-01-13 16:12:08.146894	357.9	32.7	-91.4	12.7
2025-01-13 16:12:09.304910	357.6	32.5	-91.5	9.1
2025-01-13 16:12:10.463423	357.3	32.3	-91.7	11.2
2025-01-13 16:12:11.626350	357.0	32.2	-91.6	7.7
2025-01-13 16:12:12.784645	356.7	32.0	-91.4	9.1
2025-01-13 16:12:13.945909	356.4	31.9	-91.5	10.2
2025-01-13 16:12:15.105236	356.1	31.7	-91.4	8.5
2025-01-13 16:12:16.262277	355.8	31.5	-91.6	5.8
2025-01-13 16:12:17.424119	355.5	31.4	-91.6	4.6
2025-01-13 16:12:18.586445	355.2	31.2	-91.5	2.3
2025-01-13 16:12:19.745996	355.0	31.0	-91.7	1.8
2025-01-13 16:12:20.898454	354.7	30.9	-91.7	3.6
2025-01-13 16:12:22.053213	354.4	30.7	-91.2	5.6
2025-01-13 16:12:23.216590	354.1	30.5	-91.7	2.7
2025-01-13 16:12:24.386888	353.9	30.4	-91.6	3.3
2025-01-13 16:12:25.543753	353.6	30.2	-91.8	4.3
2025-01-13 16:12:26.712663	353.3	30.1	-91.5	6.0
2025-01-13 16:12:27.868518	353.1	29.9	-91.7	3.4
2025-01-13 16:12:29.024199	352.8	29.7	-91.9	9.0
2025-01-13 16:12:30.190239	352.6	29.6	-91.3	4.7
2025-01-13 16:12:31.351745	352.3	29.4	-91.6	5.0
2025-01-13 16:12:32.516128	352.0	29.3	-91.3	7.6
2025-01-13 16:12:33.675883	351.8	29.1	-91.6	6.4
2025-01-13 16:12:34.836039	351.6	28.9	-91.6	7.7
2025-01-13 16:12:35.999395	351.3	28.8	-91.4	8.6
2025-01-13 16:12:37.150973	351.1	28.6	-91.8	10.4
2025-01-13 16:12:38.313481	350.8	28.5	-91.5	8.8
2025-01-13 16:12:39.483404	350.6	28.3	-92.0	4.6
2025-01-13 16:12:40.640710	350.4	28.1	-91.8	3.1
2025-01-13 16:12:41.802385	350.1	28.0	-91.4	5.7
2025-01-13 16:12:42.965807	349.9	27.8	-91.9	4.1
2025-01-13 16:12:44.124530	349.7	27.7	-91.7	4.0
2025-01-13 16:12:45.287829	349.4	27.5	-91.4	3.0
2025-01-13 16:12:46.451287	349.2	27.4	-91.5	3.9
2025-01-13 16:12:47.603870	349.0	27.2	-91.5	6.2
2025-01-13 16:12:48.758739	348.8	27.0	-91.5	4.0
2025-01-13 16:12:49.919400	348.6	26.9	-91.6	9.6
2025-01-13 16:12:51.077306	348.3	26.7	-91.5	5.6
2025-01-13 16:12:52.248988	348.1	26.6	-91.3	6.8
2025-01-13 16:12:53.406331	347.9	26.4	-91.1	5.2
2025-01-13 16:12:54.570601	347.7	26.3	-91.3	7.2
2025-01-13 16:12:55.726377	347.5	26.1	-91.4	14.3
2025-01-13 16:12:56.888326	347.3	26.0	-91.4	8.6
2025-01-13 16:12:58.051274	347.1	25.8	-91.5	3.5
2025-01-13 16:12:59.207277	346.9	25.7	-91.6	4.5
2025-01-13 16:13:00.357665	346.7	25.5	-91.4	6.1
2025-01-13 16:13:01.512288	346.5	25.4	-91.6	4.2
2025-01-13 16:13:02.673367	346.3	25.2	-91.7	4.0
2025-01-13 16:13:03.843589	346.1	25.1	-91.6	1.9
2025-01-13 16:13:05.003133	345.9	24.9	-92.0	1.0
2025-01-13 16:13:06.168879	345.7	24.8	-91.8	2.3
2025-01-13 16:13:07.327629	345.5	24.6	-91.7	3.1
2025-01-13 16:13:08.488605	345.4	24.5	-91.4	5.6
2025-01-13 16:13:09.649621	345.2	24.3	-91.6	6.7
2025-01-13 16:13:10.809800	345.0	24.2	-91.5	6.4
2025-01-13 16:13:11.971684	344.8	24.0	-91.5	8.6
2025-01-13 16:13:13.131239	344.6	23.9	-91.8	6.4
2025-01-13 16:13:14.289552	344.5	23.7	-91.1	8.1
2025-01-13 16:13:15.452027	344.3	23.6	-91.5	3.7
2025-01-13 16:13:16.613066	344.1	23.4	-91.9	8.1
2025-01-13 16:13:17.769689	343.9	23.3	-91.4	4.8
2025-01-13 16:13:18.940030	343.8	23.2	-91.5	6.3
2025-01-13 16:13:20.101223	343.6	23.0	-91.2	3.3
2025-01-13 16:13:21.256774	343.4	22.9	-91.1	2.8
2025-01-13 16:13:22.419604	343.3	22.7	-90.7	4.2
2025-01-13 16:13:23.576364	343.1	22.6	-91.2	1.9
2025-01-13 16:13:24.742965	342.9	22.4	-91.7	4.3
2025-01-13 16:13:25.904324	342.8	22.3	-91.8	4.4
2025-01-13 16:13:27.064576	342.6	22.2	-91.8	3.3
2025-01-13 16:13:28.223910	342.5	22.0	-91.6	7.1
2025-01-13 16:13:29.382696	342.3	21.9	-91.7	4.6
2025-01-13 16:13:30.537305	342.1	21.8	-91.9	6.8
2025-01-13 16:13:31.698964	342.0	21.6	-90.9	2.6
2025-01-13 16:13:32.855023	341.8	21.5	-91.4	7.7
2025-01-13 16:13:34.018547	341.7	21.3	-91.1	7.3
2025-01-13 16:13:35.176457	341.5	21.2	-91.2	2.6
2025-01-13 16:13:36.341464	341.4	21.1	-91.2	3.0
2025-01-13 16:13:37.492572	341.2	20.9	-91.6	1.8
2025-01-13 16:13:38.629472	341.1	20.8	-91.0	2.3
2025-01-13 16:13:39.770870	341.0	20.7	-91.3	0.9
2025-01-13 16:13:40.933941	340.8	20.5	-91.0	3.6
2025-01-13 16:13:42.085903	340.7	20.4	-91.5	3.6
2025-01-13 16:13:43.244860	340.5	20.3	-91.0	0.9
2025-01-13 16:13:44.403379	340.4	20.1	-91.6	3.8
2025-01-13 16:13:45.565141	340.3	20.0	-91.5	3.2
2025-01-13 16:13:46.718241	340.1	19.9	-91.4	3.6
2025-01-13 16:13:47.875557	340.0	19.7	-91.6	3.6
2025-01-13 16:13:49.031591	339.9	19.6	-91.9	2.1
2025-01-13 16:13:50.192075	339.7	19.5	-91.9	4.1
2025-01-13 16:13:51.353782	339.6	19.4	-91.5	2.6
2025-01-13 16:13:52.510728	339.5	19.2	-91.8	0.3
2025-01-13 16:13:53.673855	339.3	19.1	-91.4	2.5
2025-01-13 16:13:54.829876	339.2	19.0	-91.3	2.3
2025-01-13 16:13:55.987638	339.1	18.9	-91.0	1.1
2025-01-13 16:13:57.146626	338.9	18.7	-90.8	4.4
2025-01-13 16:13:58.303945	338.8	18.6	-91.4	3.1
2025-01-13 16:13:59.467371	338.7	18.5	-91.0	2.2
2025-01-13 16:14:00.607238	338.6	18.3	-91.7	4.1
2025-01-13 16:14:01.767633	338.4	18.2	-91.9	3.7
2025-01-13 16:14:02.922488	338.3	18.1	-91.6	3.6
2025-01-13 16:14:04.085118	338.2	18.0	-91.6	7.4
2025-01-13 16:14:05.235366	338.1	17.9	-91.9	8.1
2025-01-13 16:14:06.395355	338.0	17.7	-91.5	5.3
2025-01-13 16:14:07.560805	337.9	17.6	-91.9	3.4
2025-01-13 16:14:08.715484	337.7	17.5	-91.7	4.6
2025-01-13 16:14:09.865663	337.6	17.4	-90.8	0.1
2025-01-13 16:14:11.027725	337.5	17.2	-90.6	0.1
2025-01-13 16:14:12.179695	337.4	17.1	-91.0	3.8
2025-01-13 16:14:13.340288	337.3	17.0	-90.5	2.9
2025-01-13 16:14:14.500240	337.2	16.9	-90.4	1.9
2025-01-13 16:14:15.656067	337.1	16.8	-91.4	2.5
2025-01-13 16:14:16.812320	336.9	16.7	-91.6	1.7
2025-01-13 16:14:17.963036	336.8	16.5	-91.7	1.8
2025-01-13 16:14:19.118968	336.7	16.4	-91.0	2.6
2025-01-13 16:14:20.283878	336.6	16.3	-91.5	2.8
2025-01-13 16:14:21.439770	336.5	16.2	-91.4	0.5
2025-01-13 16:14:22.604749	336.4	16.1	-91.8	2.2
2025-01-13 16:14:23.761356	336.3	16.0	-91.4	1.4
2025-01-13 16:14:24.920590	336.2	15.8	-91.5	2.2
2025-01-13 16:14:26.074446	336.1	15.7	-91.3	1.7
2025-01-13 16:14:27.235884	336.0	15.6	-91.2	5.0
2025-01-13 16:14:28.394723	335.9	15.5	-91.5	2.3
2025-01-13 16:14:29.560211	335.8	15.4	-91.8	2.3
2025-01-13 16:14:30.719246	335.7	15.3	-90.6	1.8
2025-01-13 16:14:31.878327	335.6	15.2	-90.7	3.4
2025-01-13 16:14:33.040036	335.5	15.0	-90.3	2.1
2025-01-13 16:14:34.194041	335.4	14.9	-90.4	1.7
2025-01-13 16:14:35.350455	335.3	14.8	-90.6	1.1
2025-01-13 16:14:36.509899	335.2	14.7	-90.5	1.7
2025-01-13 16:14:37.663716	335.1	14.6	-91.0	0.2
#Closed at: 2025-01-13 16:06:16.652097