passes_logs/2025/01/13/LEX_Murmansk/LEX_Murmansk__20250113_142721_NOAA_19_rec.log

#Pass ID: 20250113_142721_NOAA 19
#Satellite: NOAA 19
#Configuration: NOAA 19
#Start time: 2025-01-13 14:27:16.213614

#LorettStation: 1.0.0 05.05.2024
#Station: LEX_Murmansk
#Location: 33.156738 lon 68.926811 lat
#TLE: 1 33591U 09005A   25013.16337215  .00000276  00000+0  17136-3 0  9999
#TLE: 2 33591  99.0200  76.9116 0014532  62.4730 297.7917 14.13258019821287

#Time	Az	El	Level	SNR
2025-01-13 14:27:28.499942	61.8	16.0	-90.9	0.9
2025-01-13 14:27:29.667086	61.7	16.1	-91.0	2.0
2025-01-13 14:27:30.824587	61.5	16.2	-90.6	5.1
2025-01-13 14:27:31.983582	61.3	16.2	-91.0	4.8
2025-01-13 14:27:33.148212	61.1	16.3	-90.7	6.1
2025-01-13 14:27:34.306146	61.0	16.4	-91.5	10.1
2025-01-13 14:27:35.467017	60.8	16.5	-91.7	6.6
2025-01-13 14:27:36.634758	60.6	16.6	-91.5	2.1
2025-01-13 14:27:37.796734	60.4	16.7	-91.5	3.3
2025-01-13 14:27:38.959165	60.2	16.8	-91.2	4.4
2025-01-13 14:27:40.125851	60.0	16.9	-91.3	7.5
2025-01-13 14:27:41.285948	59.8	17.0	-91.4	8.7
2025-01-13 14:27:42.449330	59.7	17.1	-91.6	9.3
2025-01-13 14:27:43.609590	59.5	17.2	-91.7	11.0
2025-01-13 14:27:44.774015	59.3	17.3	-91.5	5.5
2025-01-13 14:27:45.936893	59.1	17.4	-91.5	4.0
2025-01-13 14:27:47.105883	58.9	17.4	-91.2	3.1
2025-01-13 14:27:48.263375	58.7	17.5	-90.9	0.6
2025-01-13 14:27:49.421013	58.5	17.6	-91.3	3.4
2025-01-13 14:27:50.585579	58.3	17.7	-91.3	3.5
2025-01-13 14:27:51.742632	58.1	17.8	-91.3	4.4
2025-01-13 14:27:52.908871	57.9	17.9	-91.6	7.8
2025-01-13 14:27:54.059643	57.7	18.0	-91.4	9.1
2025-01-13 14:27:55.223490	57.5	18.1	-91.1	12.3
2025-01-13 14:27:56.383047	57.3	18.2	-91.5	9.5
2025-01-13 14:27:57.549872	57.1	18.3	-91.6	8.5
2025-01-13 14:27:58.710457	56.9	18.4	-91.5	4.1
2025-01-13 14:27:59.873198	56.7	18.5	-90.9	5.0
2025-01-13 14:28:01.015899	56.5	18.5	-90.7	7.8
2025-01-13 14:28:02.174417	56.3	18.6	-90.9	10.6
2025-01-13 14:28:03.334779	56.1	18.7	-91.0	8.7
2025-01-13 14:28:04.499413	55.9	18.8	-90.7	9.2
2025-01-13 14:28:05.663264	55.6	18.9	-91.0	6.8
2025-01-13 14:28:06.841757	55.4	19.0	-91.5	5.6
2025-01-13 14:28:08.007594	55.2	19.1	-91.3	6.5
2025-01-13 14:28:09.161877	55.0	19.2	-90.8	5.5
2025-01-13 14:28:10.323840	54.8	19.3	-90.9	1.5
2025-01-13 14:28:11.485988	54.6	19.4	-90.9	2.2
2025-01-13 14:28:12.650143	54.3	19.5	-90.7	6.1
2025-01-13 14:28:13.813986	54.1	19.6	-90.5	3.8
2025-01-13 14:28:14.980276	53.9	19.7	-90.8	7.9
2025-01-13 14:28:16.140531	53.7	19.7	-90.3	10.9
2025-01-13 14:28:17.303531	53.4	19.8	-90.7	11.4
2025-01-13 14:28:18.467903	53.2	19.9	-91.1	10.6
2025-01-13 14:28:19.629104	53.0	20.0	-90.9	8.0
2025-01-13 14:28:20.789866	52.8	20.1	-91.1	4.1
2025-01-13 14:28:21.954271	52.5	20.2	-91.0	4.7
2025-01-13 14:28:23.120034	52.3	20.3	-90.9	5.3
2025-01-13 14:28:24.278184	52.1	20.4	-90.3	6.1
2025-01-13 14:28:25.442866	51.8	20.5	-90.8	7.7
2025-01-13 14:28:26.601150	51.6	20.6	-90.4	8.6
2025-01-13 14:28:27.765446	51.3	20.6	-91.0	10.2
2025-01-13 14:28:28.930020	51.1	20.7	-90.9	8.4
2025-01-13 14:28:30.092670	50.9	20.8	-91.3	5.5
2025-01-13 14:28:31.254632	50.6	20.9	-90.9	2.5
2025-01-13 14:28:32.418082	50.4	21.0	-91.3	2.1
2025-01-13 14:28:33.582323	50.1	21.1	-91.5	4.1
2025-01-13 14:28:34.729901	49.9	21.2	-91.6	2.0
2025-01-13 14:28:35.884119	49.6	21.3	-91.2	3.4
2025-01-13 14:28:37.051330	49.4	21.3	-90.9	5.4
2025-01-13 14:28:38.217763	49.1	21.4	-91.2	7.4
2025-01-13 14:28:39.381428	48.9	21.5	-91.2	8.4
2025-01-13 14:28:40.543045	48.6	21.6	-90.9	9.1
2025-01-13 14:28:41.707088	48.4	21.7	-90.9	10.8
2025-01-13 14:28:42.874667	48.1	21.8	-90.7	7.9
2025-01-13 14:28:44.038727	47.9	21.9	-91.1	9.3
2025-01-13 14:28:45.206379	47.6	22.0	-91.0	5.9
2025-01-13 14:28:46.370552	47.3	22.0	-91.1	5.1
2025-01-13 14:28:47.534279	47.1	22.1	-90.9	5.6
2025-01-13 14:28:48.696101	46.8	22.2	-91.1	6.9
2025-01-13 14:28:49.856076	46.5	22.3	-91.0	8.5
2025-01-13 14:28:51.013148	46.3	22.4	-91.1	7.3
2025-01-13 14:28:52.173074	46.0	22.5	-91.0	7.4
2025-01-13 14:28:53.335160	45.7	22.5	-91.3	6.7
2025-01-13 14:28:54.493779	45.5	22.6	-91.6	8.0
2025-01-13 14:28:55.654143	45.2	22.7	-91.4	7.3
2025-01-13 14:28:56.817199	44.9	22.8	-91.6	4.2
2025-01-13 14:28:57.989110	44.6	22.9	-91.9	4.4
2025-01-13 14:28:59.156276	44.4	22.9	-91.5	4.6
2025-01-13 14:29:00.319210	44.1	23.0	-91.6	0.7
2025-01-13 14:29:01.474360	43.8	23.1	-91.7	6.3
2025-01-13 14:29:02.635707	43.5	23.2	-91.7	8.8
2025-01-13 14:29:03.796971	43.2	23.3	-91.7	6.2
2025-01-13 14:29:04.960651	43.0	23.3	-91.5	8.3
2025-01-13 14:29:06.127265	42.7	23.4	-91.4	9.4
2025-01-13 14:29:07.290126	42.4	23.5	-91.6	9.0
2025-01-13 14:29:08.458415	42.1	23.6	-91.9	11.3
2025-01-13 14:29:09.620852	41.8	23.6	-91.9	9.1
2025-01-13 14:29:10.781171	41.5	23.7	-92.1	8.2
2025-01-13 14:29:11.962902	41.2	23.8	-91.8	6.4
2025-01-13 14:29:13.126757	40.9	23.9	-91.5	6.8
2025-01-13 14:29:14.293329	40.6	23.9	-91.5	3.4
2025-01-13 14:29:15.456043	40.3	24.0	-91.9	6.4
2025-01-13 14:29:16.619643	40.0	24.1	-91.9	9.3
2025-01-13 14:29:17.783061	39.7	24.2	-91.7	8.9
2025-01-13 14:29:18.940706	39.4	24.2	-91.8	8.7
2025-01-13 14:29:20.106484	39.1	24.3	-91.7	9.2
2025-01-13 14:29:21.264778	38.8	24.4	-91.6	10.9
2025-01-13 14:29:22.432716	38.5	24.4	-91.7	11.0
2025-01-13 14:29:23.597329	38.2	24.5	-91.4	10.5
2025-01-13 14:29:24.757768	37.9	24.6	-91.6	8.3
2025-01-13 14:29:25.921875	37.6	24.6	-91.7	7.0
2025-01-13 14:29:27.084710	37.3	24.7	-91.4	4.4
2025-01-13 14:29:28.245880	37.0	24.8	-91.5	1.5
2025-01-13 14:29:29.407448	36.7	24.8	-91.6	1.1
2025-01-13 14:29:30.567124	36.4	24.9	-91.7	3.1
2025-01-13 14:29:31.724994	36.0	24.9	-91.9	1.8
2025-01-13 14:29:32.887880	35.7	25.0	-91.9	6.9
2025-01-13 14:29:34.047245	35.4	25.1	-89.3	2.8
2025-01-13 14:29:35.214453	35.1	25.1	-91.5	4.5
2025-01-13 14:29:36.370895	34.8	25.2	-91.5	7.7
2025-01-13 14:29:37.539011	34.5	25.2	-91.7	7.8
2025-01-13 14:29:38.699622	34.1	25.3	-92.0	8.3
2025-01-13 14:29:39.859031	33.8	25.4	-91.8	9.7
2025-01-13 14:29:41.020673	33.5	25.4	-91.7	10.8
2025-01-13 14:29:42.186258	33.2	25.5	-91.4	9.3
2025-01-13 14:29:43.354444	32.8	25.5	-91.8	5.6
2025-01-13 14:29:44.523412	32.5	25.6	-91.9	6.6
2025-01-13 14:29:45.686940	32.2	25.6	-92.0	4.7
2025-01-13 14:29:46.855015	31.8	25.7	-91.8	5.1
2025-01-13 14:29:48.028115	31.5	25.7	-91.8	5.7
2025-01-13 14:29:49.189461	31.2	25.8	-91.8	4.6
2025-01-13 14:29:50.320638	30.9	25.8	-91.6	6.2
2025-01-13 14:29:51.472123	30.5	25.9	-91.8	8.3
2025-01-13 14:29:52.635989	30.2	25.9	-91.9	10.3
2025-01-13 14:29:53.800434	29.9	26.0	-92.1	10.6
2025-01-13 14:29:54.960077	29.5	26.0	-91.7	11.3
2025-01-13 14:29:56.122319	29.2	26.0	-91.7	9.0
2025-01-13 14:29:57.291670	28.8	26.1	-91.4	6.5
2025-01-13 14:29:58.458983	28.5	26.1	-91.5	9.5
2025-01-13 14:29:59.621668	28.2	26.2	-91.8	11.5
2025-01-13 14:30:00.765626	27.8	26.2	-91.6	8.9
2025-01-13 14:30:01.927772	27.5	26.2	-91.3	7.4
2025-01-13 14:30:03.092337	27.1	26.3	-91.3	8.2
2025-01-13 14:30:04.254306	26.8	26.3	-91.3	3.8
2025-01-13 14:30:05.420906	26.4	26.4	-91.9	4.2
2025-01-13 14:30:06.584506	26.1	26.4	-92.2	4.8
2025-01-13 14:30:07.745655	25.8	26.4	-92.2	1.7
2025-01-13 14:30:08.907919	25.4	26.4	-92.0	3.4
2025-01-13 14:30:10.063700	25.1	26.5	-91.8	6.1
2025-01-13 14:30:11.222649	24.7	26.5	-92.0	4.0
2025-01-13 14:30:12.389850	24.4	26.5	-91.4	4.3
2025-01-13 14:30:13.553306	24.0	26.6	-91.7	5.8
2025-01-13 14:30:14.715369	23.7	26.6	-91.6	3.4
2025-01-13 14:30:15.882076	23.3	26.6	-91.7	5.8
2025-01-13 14:30:17.039512	23.0	26.6	-91.8	7.4
2025-01-13 14:30:18.207624	22.6	26.7	-92.2	8.1
2025-01-13 14:30:19.368753	22.3	26.7	-91.8	6.0
2025-01-13 14:30:20.534726	21.9	26.7	-92.0	8.4
2025-01-13 14:30:21.698180	21.6	26.7	-91.9	11.9
2025-01-13 14:30:22.863693	21.2	26.7	-92.0	10.1
2025-01-13 14:30:24.026104	20.8	26.7	-91.9	10.6
2025-01-13 14:30:25.184282	20.5	26.8	-91.8	8.0
2025-01-13 14:30:26.348044	20.1	26.8	-91.5	7.8
2025-01-13 14:30:27.511568	19.8	26.8	-91.7	6.4
2025-01-13 14:30:28.675908	19.4	26.8	-92.0	4.0
2025-01-13 14:30:29.836280	19.1	26.8	-91.8	6.3
2025-01-13 14:30:30.997110	18.7	26.8	-92.2	6.1
2025-01-13 14:30:32.158041	18.4	26.8	-91.8	4.7
2025-01-13 14:30:33.324900	18.0	26.8	-91.8	4.8
2025-01-13 14:30:34.480313	17.7	26.8	-92.1	3.8
2025-01-13 14:30:35.648371	17.3	26.8	-91.3	3.7
2025-01-13 14:30:36.800140	17.0	26.8	-91.8	3.1
2025-01-13 14:30:37.966359	16.6	26.8	-91.0	2.2
2025-01-13 14:30:39.131922	16.2	26.8	-91.6	4.8
2025-01-13 14:30:40.295114	15.9	26.8	-91.9	2.5
2025-01-13 14:30:41.458888	15.5	26.8	-91.6	5.3
2025-01-13 14:30:42.625253	15.2	26.8	-91.6	6.0
2025-01-13 14:30:43.791961	14.8	26.8	-91.0	3.3
2025-01-13 14:30:44.953927	14.5	26.8	-91.1	5.2
2025-01-13 14:30:46.117710	14.1	26.8	-91.6	3.6
2025-01-13 14:30:47.280554	13.7	26.8	-91.2	4.2
2025-01-13 14:30:48.439524	13.4	26.8	-91.3	4.4
2025-01-13 14:30:49.606405	13.0	26.8	-91.1	4.8
2025-01-13 14:30:50.773774	12.7	26.8	-91.6	3.1
2025-01-13 14:30:51.937489	12.3	26.8	-91.6	4.5
2025-01-13 14:30:53.117042	12.0	26.7	-91.8	3.9
2025-01-13 14:30:54.282280	11.6	26.7	-91.8	3.1
2025-01-13 14:30:55.450619	11.3	26.7	-91.7	7.2
2025-01-13 14:30:56.613263	10.9	26.7	-91.9	6.2
2025-01-13 14:30:57.779074	10.6	26.7	-92.2	8.5
2025-01-13 14:30:58.935589	10.2	26.7	-91.6	12.7
2025-01-13 14:31:00.102791	9.9	26.6	-91.7	8.1
2025-01-13 14:31:01.244792	9.5	26.6	-91.5	11.2
2025-01-13 14:31:02.410057	9.2	26.6	-91.9	8.0
2025-01-13 14:31:03.570299	8.8	26.6	-91.7	10.0
2025-01-13 14:31:04.737217	8.5	26.5	-91.9	7.9
2025-01-13 14:31:05.899727	8.1	26.5	-91.9	9.6
2025-01-13 14:31:07.064018	7.8	26.5	-91.7	9.4
2025-01-13 14:31:08.228099	7.4	26.4	-91.7	6.2
2025-01-13 14:31:09.391820	7.1	26.4	-91.7	4.7
2025-01-13 14:31:10.558090	6.7	26.4	-91.9	6.1
2025-01-13 14:31:11.717710	6.4	26.4	-91.8	5.6
2025-01-13 14:31:12.877292	6.0	26.3	-92.0	7.3
2025-01-13 14:31:14.032977	5.7	26.3	-92.0	6.5
2025-01-13 14:31:15.193501	5.4	26.2	-91.4	4.6
2025-01-13 14:31:16.356063	5.0	26.2	-91.8	4.8
2025-01-13 14:31:17.517652	4.7	26.2	-92.2	6.6
2025-01-13 14:31:18.673254	4.3	26.1	-91.7	6.2
2025-01-13 14:31:19.837821	4.0	26.1	-91.6	6.8
2025-01-13 14:31:20.996233	3.7	26.0	-91.8	7.8
2025-01-13 14:31:22.159991	3.3	26.0	-91.8	8.8
2025-01-13 14:31:23.319423	3.0	26.0	-91.8	6.4
2025-01-13 14:31:24.483503	2.6	25.9	-92.0	7.3
2025-01-13 14:31:25.655156	2.3	25.9	-92.1	6.8
2025-01-13 14:31:26.808160	2.0	25.8	-89.3	3.3
2025-01-13 14:31:27.969328	1.6	25.8	-91.8	5.7
2025-01-13 14:31:29.130327	1.3	25.7	-91.7	6.5
2025-01-13 14:31:30.292245	1.0	25.7	-91.8	7.5
2025-01-13 14:31:31.449382	0.7	25.6	-91.7	9.7
2025-01-13 14:31:32.609666	0.3	25.6	-91.7	10.0
2025-01-13 14:31:33.759099	0.0	25.5	-91.9	7.4
2025-01-13 14:31:34.920930	359.7	25.5	-92.1	9.0
2025-01-13 14:31:36.085072	359.4	25.4	-91.8	9.4
2025-01-13 14:31:37.250533	359.0	25.4	-91.8	8.4
2025-01-13 14:31:38.412472	358.7	25.3	-91.6	8.5
2025-01-13 14:31:39.575833	358.4	25.2	-91.9	9.3
2025-01-13 14:31:40.738749	358.1	25.2	-91.7	7.5
2025-01-13 14:31:41.897681	357.7	25.1	-91.8	8.3
2025-01-13 14:31:43.064175	357.4	25.1	-92.0	9.6
2025-01-13 14:31:44.220608	357.1	25.0	-91.5	7.9
2025-01-13 14:31:45.384285	356.8	25.0	-91.6	10.2
2025-01-13 14:31:46.549141	356.5	24.9	-92.0	12.9
2025-01-13 14:31:47.709635	356.2	24.8	-92.1	11.7
2025-01-13 14:31:48.869165	355.9	24.8	-92.2	13.6
2025-01-13 14:31:50.029232	355.5	24.7	-92.2	13.6
2025-01-13 14:31:51.188712	355.2	24.6	-91.9	11.8
2025-01-13 14:31:52.350093	354.9	24.6	-91.6	11.4
2025-01-13 14:31:53.513629	354.6	24.5	-91.1	11.4
2025-01-13 14:31:54.675393	354.3	24.4	-91.8	10.3
2025-01-13 14:31:55.841988	354.0	24.4	-91.9	13.7
2025-01-13 14:31:56.999717	353.7	24.3	-92.1	13.0
2025-01-13 14:31:58.163440	353.4	24.2	-91.9	16.8
2025-01-13 14:31:59.322314	353.1	24.2	-91.7	14.8
2025-01-13 14:32:00.470405	352.8	24.1	-92.1	14.3
2025-01-13 14:32:01.633318	352.5	24.0	-91.8	13.4
2025-01-13 14:32:02.794696	352.2	23.9	-91.4	10.9
2025-01-13 14:32:03.952103	351.9	23.9	-91.9	12.2
2025-01-13 14:32:05.115549	351.6	23.8	-91.7	13.6
2025-01-13 14:32:06.276432	351.3	23.7	-91.6	10.0
2025-01-13 14:32:07.440951	351.1	23.7	-91.5	9.5
2025-01-13 14:32:08.597173	350.8	23.6	-92.1	9.7
2025-01-13 14:32:09.757021	350.5	23.5	-92.0	9.5
2025-01-13 14:32:10.915644	350.2	23.4	-91.6	9.6
2025-01-13 14:32:12.078087	349.9	23.3	-91.5	10.1
2025-01-13 14:32:13.237469	349.6	23.3	-91.4	9.6
2025-01-13 14:32:14.402055	349.3	23.2	-90.5	8.4
2025-01-13 14:32:15.565361	349.1	23.1	-91.7	6.9
2025-01-13 14:32:16.731181	348.8	23.0	-90.7	5.0
2025-01-13 14:32:17.892585	348.5	23.0	-92.0	6.8
2025-01-13 14:32:19.054141	348.2	22.9	-92.0	4.1
2025-01-13 14:32:20.221182	348.0	22.8	-91.5	4.2
2025-01-13 14:32:21.374015	347.7	22.7	-91.8	3.0
2025-01-13 14:32:22.537599	347.4	22.6	-91.9	4.9
2025-01-13 14:32:23.704906	347.1	22.6	-91.7	4.1
2025-01-13 14:32:24.869601	346.9	22.5	-91.6	2.8
2025-01-13 14:32:26.029635	346.6	22.4	-91.6	5.1
2025-01-13 14:32:27.201303	346.3	22.3	-91.6	1.1
2025-01-13 14:32:28.366014	346.1	22.2	-92.0	3.1
2025-01-13 14:32:29.532522	345.8	22.1	-91.7	4.9
2025-01-13 14:32:30.698252	345.5	22.1	-91.5	3.0
2025-01-13 14:32:31.862593	345.3	22.0	-91.7	3.5
2025-01-13 14:32:33.030580	345.0	21.9	-91.8	6.1
2025-01-13 14:32:34.194543	344.8	21.8	-91.8	6.4
2025-01-13 14:32:35.358791	344.5	21.7	-91.6	3.6
2025-01-13 14:32:36.528633	344.3	21.6	-91.5	8.5
2025-01-13 14:32:37.686678	344.0	21.5	-91.9	7.5
2025-01-13 14:32:38.860178	343.7	21.5	-92.0	7.6
2025-01-13 14:32:40.019935	343.5	21.4	-91.4	9.6
2025-01-13 14:32:41.184067	343.2	21.3	-91.4	10.5
2025-01-13 14:32:42.343604	343.0	21.2	-91.3	9.7
2025-01-13 14:32:43.509035	342.8	21.1	-91.9	9.2
2025-01-13 14:32:44.672139	342.5	21.0	-91.1	9.0
2025-01-13 14:32:45.839831	342.3	20.9	-92.1	10.6
2025-01-13 14:32:47.005093	342.0	20.8	-91.9	10.8
2025-01-13 14:32:48.166308	341.8	20.8	-91.3	6.1
2025-01-13 14:32:49.334551	341.5	20.7	-91.5	10.7
2025-01-13 14:32:50.498985	341.3	20.6	-92.1	7.0
2025-01-13 14:32:51.657726	341.1	20.5	-91.6	5.5
2025-01-13 14:32:52.820997	340.8	20.4	-92.0	2.2
2025-01-13 14:32:53.985176	340.6	20.3	-92.2	3.8
2025-01-13 14:32:55.147716	340.4	20.2	-92.2	2.8
2025-01-13 14:32:56.307578	340.1	20.1	-92.1	3.1
2025-01-13 14:32:57.475518	339.9	20.0	-91.9	3.4
2025-01-13 14:32:58.636189	339.7	19.9	-91.6	2.0
2025-01-13 14:32:59.798765	339.4	19.9	-91.8	3.2
2025-01-13 14:33:00.948467	339.2	19.8	-90.8	2.6
2025-01-13 14:33:02.105089	339.0	19.7	-91.3	2.1
2025-01-13 14:33:03.268783	338.8	19.6	-91.9	1.9
2025-01-13 14:33:04.434806	338.6	19.5	-92.0	1.2
2025-01-13 14:33:05.597013	338.3	19.4	-90.9	2.4
2025-01-13 14:33:06.762536	338.1	19.3	-91.8	4.5
2025-01-13 14:33:07.926753	337.9	19.2	-91.7	2.7
2025-01-13 14:33:09.080492	337.7	19.1	-91.3	3.8
2025-01-13 14:33:10.240596	337.5	19.0	-91.9	2.5
2025-01-13 14:33:11.404181	337.3	18.9	-92.0	6.4
2025-01-13 14:33:12.559395	337.0	18.9	-91.9	6.0
2025-01-13 14:33:13.723062	336.8	18.8	-91.6	7.3
2025-01-13 14:33:14.887043	336.6	18.7	-92.0	8.2
2025-01-13 14:33:16.049640	336.4	18.6	-92.0	6.5
2025-01-13 14:33:17.210686	336.2	18.5	-91.9	5.5
2025-01-13 14:33:18.374614	336.0	18.4	-91.5	4.9
2025-01-13 14:33:19.539268	335.8	18.3	-91.6	4.6
2025-01-13 14:33:20.702020	335.6	18.2	-91.0	3.8
2025-01-13 14:33:21.858349	335.4	18.1	-91.2	4.0
2025-01-13 14:33:23.022259	335.2	18.0	-91.0	2.7
2025-01-13 14:33:24.189249	335.0	17.9	-91.6	2.1
2025-01-13 14:33:25.350025	334.8	17.8	-92.1	2.0
2025-01-13 14:33:26.512363	334.6	17.7	-91.3	1.2
2025-01-13 14:33:27.679231	334.4	17.7	-91.9	3.8
2025-01-13 14:33:28.844201	334.2	17.6	-91.8	3.3
2025-01-13 14:33:30.007601	334.0	17.5	-92.0	0.7
2025-01-13 14:33:31.172829	333.8	17.4	-91.3	3.0
2025-01-13 14:33:32.333149	333.6	17.3	-91.5	1.0
2025-01-13 14:33:33.499176	333.4	17.2	-91.7	0.7
2025-01-13 14:33:34.662141	333.2	17.1	-91.6	2.6
2025-01-13 14:33:35.823441	333.1	17.0	-91.8	1.8
2025-01-13 14:33:36.984752	332.9	16.9	-91.9	3.7
2025-01-13 14:33:38.140134	332.7	16.8	-91.6	3.9
2025-01-13 14:33:39.311768	332.5	16.7	-91.8	4.1
2025-01-13 14:33:40.478707	332.3	16.6	-91.8	4.7
2025-01-13 14:33:41.640293	332.1	16.6	-91.1	4.8
2025-01-13 14:33:42.803304	332.0	16.5	-91.1	3.8
2025-01-13 14:33:43.965759	331.8	16.4	-90.8	2.0
2025-01-13 14:33:45.129822	331.6	16.3	-90.6	3.1
2025-01-13 14:33:46.293549	331.4	16.2	-90.9	2.6
2025-01-13 14:33:47.458041	331.2	16.1	-90.9	1.8
2025-01-13 14:33:48.620753	331.1	16.0	-92.4	3.7
2025-01-13 14:33:49.781797	330.9	15.9	-92.1	3.1
2025-01-13 14:33:50.946497	330.7	15.8	-91.9	2.7
2025-01-13 14:33:52.103068	330.5	15.7	-92.0	4.1
2025-01-13 14:33:53.371692	330.4	15.6	-92.0	3.1
2025-01-13 14:33:54.531636	330.2	15.5	-92.1	4.5
2025-01-13 14:33:55.686992	330.0	15.4	-91.9	2.7
2025-01-13 14:33:56.853088	329.9	15.4	-92.3	6.9
2025-01-13 14:33:58.016525	329.7	15.3	-92.0	2.5
2025-01-13 14:33:59.182001	329.5	15.2	-91.9	2.3
2025-01-13 14:34:00.333191	329.4	15.1	-91.9	6.9
2025-01-13 14:34:01.490191	329.2	15.0	-92.2	4.1
2025-01-13 14:34:02.649214	329.0	14.9	-92.3	6.3
2025-01-13 14:34:03.814870	328.9	14.8	-92.3	5.4
2025-01-13 14:34:04.977235	328.7	14.7	-92.0	3.4
2025-01-13 14:34:06.145354	328.6	14.6	-91.4	4.0
2025-01-13 14:34:07.288277	328.4	14.5	-91.4	4.0
#Closed at: 2025-01-13 14:27:21.270968