passes_logs/2025/01/13/LEX_Murmansk/LEX_Murmansk__20250113_192815_NOAA_19_rec.log

#Pass ID: 20250113_192815_NOAA 19
#Satellite: NOAA 19
#Configuration: NOAA 19
#Start time: 2025-01-13 19:28:10.944333

#LorettStation: 1.0.0 05.05.2024
#Station: LEX_Murmansk
#Location: 33.156738 lon 68.926811 lat
#TLE: 1 33591U 09005A   25013.16337215  .00000276  00000+0  17136-3 0  9999
#TLE: 2 33591  99.0200  76.9116 0014532  62.4730 297.7917 14.13258019821287

#Time	Az	El	Level	SNR
2025-01-13 19:28:23.185645	210.9	16.1	-92.4	1.1
2025-01-13 19:28:24.339662	211.0	16.2	-92.5	1.8
2025-01-13 19:28:25.490503	211.2	16.3	-92.3	2.6
2025-01-13 19:28:26.644386	211.4	16.4	-92.4	2.2
2025-01-13 19:28:27.800696	211.5	16.5	-92.5	2.2
2025-01-13 19:28:28.957392	211.7	16.6	-92.4	6.2
2025-01-13 19:28:30.111868	211.8	16.7	-92.5	2.7
2025-01-13 19:28:31.263087	212.0	16.8	-92.3	1.4
2025-01-13 19:28:32.412900	212.1	16.9	-92.7	3.3
2025-01-13 19:28:33.564439	212.3	17.0	-92.5	5.8
2025-01-13 19:28:34.718424	212.4	17.1	-92.4	5.1
2025-01-13 19:28:35.873177	212.6	17.2	-92.7	5.2
2025-01-13 19:28:37.020552	212.8	17.3	-92.9	1.9
2025-01-13 19:28:38.144892	212.9	17.4	-92.4	3.7
2025-01-13 19:28:39.265534	213.1	17.5	-92.3	3.4
2025-01-13 19:28:40.389771	213.2	17.7	-92.5	3.1
2025-01-13 19:28:41.510237	213.4	17.8	-92.7	2.5
2025-01-13 19:28:42.631975	213.6	17.9	-92.6	4.5
2025-01-13 19:28:43.752183	213.7	18.0	-92.5	3.8
2025-01-13 19:28:44.872598	213.9	18.1	-92.7	5.0
2025-01-13 19:28:45.998566	214.0	18.2	-92.6	8.6
2025-01-13 19:28:47.129235	214.2	18.3	-92.3	7.8
2025-01-13 19:28:48.288122	214.4	18.4	-92.2	4.1
2025-01-13 19:28:49.436939	214.6	18.5	-92.5	7.5
2025-01-13 19:28:50.589230	214.7	18.6	-92.7	7.7
2025-01-13 19:28:51.736276	214.9	18.7	-92.7	5.3
2025-01-13 19:28:52.890619	215.1	18.8	-92.8	6.6
2025-01-13 19:28:54.043567	215.3	18.9	-92.7	8.4
2025-01-13 19:28:55.194859	215.4	19.0	-92.2	8.7
2025-01-13 19:28:56.346520	215.6	19.2	-92.0	5.8
2025-01-13 19:28:57.499553	215.8	19.3	-91.9	4.9
2025-01-13 19:28:58.642618	216.0	19.4	-91.4	4.5
2025-01-13 19:28:59.774298	216.2	19.5	-92.9	0.8
2025-01-13 19:29:00.918714	216.4	19.6	-92.5	3.6
2025-01-13 19:29:02.057393	216.5	19.7	-92.9	5.8
2025-01-13 19:29:03.215447	216.7	19.8	-92.5	6.0
2025-01-13 19:29:04.365010	216.9	19.9	-92.5	9.9
2025-01-13 19:29:05.516726	217.1	20.0	-92.6	10.4
2025-01-13 19:29:06.665503	217.3	20.1	-92.7	9.6
2025-01-13 19:29:07.816529	217.5	20.3	-92.5	7.4
2025-01-13 19:29:08.965893	217.7	20.4	-92.7	8.6
2025-01-13 19:29:10.119781	217.9	20.5	-92.3	7.2
2025-01-13 19:29:11.278402	218.1	20.6	-92.2	4.0
2025-01-13 19:29:12.431457	218.3	20.7	-92.6	10.3
2025-01-13 19:29:13.591190	218.5	20.8	-92.7	9.9
2025-01-13 19:29:14.745289	218.7	20.9	-92.6	11.2
2025-01-13 19:29:15.893407	218.9	21.1	-92.7	6.6
2025-01-13 19:29:17.044485	219.1	21.2	-92.8	6.4
2025-01-13 19:29:18.193987	219.3	21.3	-92.4	4.4
2025-01-13 19:29:19.350663	219.5	21.4	-92.3	1.6
2025-01-13 19:29:20.503331	219.7	21.5	-92.8	1.3
2025-01-13 19:29:21.651836	219.9	21.6	-93.0	3.2
2025-01-13 19:29:22.806815	220.1	21.7	-93.0	7.3
2025-01-13 19:29:23.957066	220.3	21.8	-92.6	10.2
2025-01-13 19:29:25.107599	220.6	22.0	-92.6	13.7
2025-01-13 19:29:26.258753	220.8	22.1	-92.5	12.7
2025-01-13 19:29:27.410556	221.0	22.2	-92.5	13.5
2025-01-13 19:29:28.564950	221.2	22.3	-93.1	10.9
2025-01-13 19:29:29.720762	221.4	22.4	-92.7	5.0
2025-01-13 19:29:30.872364	221.7	22.5	-92.2	6.6
2025-01-13 19:29:32.019407	221.9	22.6	-92.6	9.3
2025-01-13 19:29:33.166489	222.1	22.8	-92.8	11.4
2025-01-13 19:29:34.327657	222.3	22.9	-92.4	12.8
2025-01-13 19:29:35.479924	222.6	23.0	-92.8	10.9
2025-01-13 19:29:36.635930	222.8	23.1	-92.8	12.2
2025-01-13 19:29:37.787110	223.0	23.2	-92.3	5.7
2025-01-13 19:29:38.934688	223.3	23.3	-92.5	6.7
2025-01-13 19:29:40.089601	223.5	23.5	-92.3	4.7
2025-01-13 19:29:41.247927	223.7	23.6	-92.7	2.8
2025-01-13 19:29:42.399870	224.0	23.7	-92.6	2.3
2025-01-13 19:29:43.557995	224.2	23.8	-93.0	4.5
2025-01-13 19:29:44.715603	224.5	23.9	-92.7	7.9
2025-01-13 19:29:45.868761	224.7	24.0	-92.4	9.2
2025-01-13 19:29:47.022176	224.9	24.1	-92.6	11.1
2025-01-13 19:29:48.175823	225.2	24.3	-92.5	10.2
2025-01-13 19:29:49.333119	225.4	24.4	-92.4	7.1
2025-01-13 19:29:50.482722	225.7	24.5	-92.6	9.4
2025-01-13 19:29:51.633314	226.0	24.6	-92.8	6.0
2025-01-13 19:29:52.785779	226.2	24.7	-92.5	2.0
2025-01-13 19:29:53.941994	226.5	24.8	-92.4	5.9
2025-01-13 19:29:55.097013	226.7	24.9	-92.7	3.7
2025-01-13 19:29:56.239442	227.0	25.1	-92.2	5.8
2025-01-13 19:29:57.379808	227.2	25.2	-92.2	5.0
2025-01-13 19:29:58.539770	227.5	25.3	-92.6	4.9
2025-01-13 19:29:59.698121	227.8	25.4	-91.7	3.1
2025-01-13 19:30:00.841525	228.0	25.5	-92.1	2.4
2025-01-13 19:30:01.970715	228.3	25.6	-91.9	2.2
2025-01-13 19:30:03.111381	228.6	25.7	-91.9	0.9
2025-01-13 19:30:04.262863	228.8	25.9	-92.6	1.2
2025-01-13 19:30:05.414186	229.1	26.0	-92.4	1.9
2025-01-13 19:30:06.559747	229.4	26.1	-92.6	1.8
2025-01-13 19:30:07.714568	229.7	26.2	-92.6	2.8
2025-01-13 19:30:08.874356	230.0	26.3	-92.8	2.2
2025-01-13 19:30:10.032665	230.2	26.4	-92.7	2.0
2025-01-13 19:30:11.188106	230.5	26.5	-92.4	3.0
2025-01-13 19:30:12.344181	230.8	26.6	-92.8	3.2
2025-01-13 19:30:13.496402	231.1	26.8	-92.9	2.7
2025-01-13 19:30:14.658933	231.4	26.9	-92.5	3.4
2025-01-13 19:30:15.805901	231.7	27.0	-92.4	0.4
2025-01-13 19:30:16.963996	232.0	27.1	-92.5	5.2
2025-01-13 19:30:18.122484	232.3	27.2	-92.4	3.0
2025-01-13 19:30:19.272726	232.6	27.3	-92.6	5.5
2025-01-13 19:30:20.421582	232.9	27.4	-92.6	9.0
2025-01-13 19:30:21.574228	233.2	27.5	-92.8	10.1
2025-01-13 19:30:22.732196	233.5	27.6	-92.3	6.8
2025-01-13 19:30:23.884224	233.8	27.7	-92.3	4.0
2025-01-13 19:30:25.039297	234.1	27.8	-92.4	4.0
2025-01-13 19:30:26.192754	234.4	28.0	-92.5	1.7
2025-01-13 19:30:27.342758	234.7	28.1	-92.4	1.6
2025-01-13 19:30:28.503720	235.1	28.2	-92.7	3.2
2025-01-13 19:30:29.652441	235.4	28.3	-92.8	3.5
2025-01-13 19:30:30.802842	235.7	28.4	-92.6	2.8
2025-01-13 19:30:31.956075	236.0	28.5	-92.6	5.2
2025-01-13 19:30:33.104817	236.3	28.6	-92.6	6.9
2025-01-13 19:30:34.260271	236.7	28.7	-92.7	6.6
2025-01-13 19:30:35.409911	237.0	28.8	-92.9	9.8
2025-01-13 19:30:36.561921	237.3	28.9	-92.6	10.2
2025-01-13 19:30:37.726399	237.6	29.0	-92.4	8.1
2025-01-13 19:30:38.878363	238.0	29.1	-92.5	9.4
2025-01-13 19:30:40.031183	238.3	29.2	-92.7	8.2
2025-01-13 19:30:41.178307	238.6	29.3	-92.7	6.4
2025-01-13 19:30:42.328879	239.0	29.4	-92.7	5.8
2025-01-13 19:30:43.484598	239.3	29.5	-93.2	9.7
2025-01-13 19:30:44.633641	239.7	29.6	-92.5	8.6
2025-01-13 19:30:45.789762	240.0	29.7	-92.5	2.6
2025-01-13 19:30:46.946552	240.4	29.8	-92.8	11.1
2025-01-13 19:30:48.094867	240.7	29.9	-93.1	12.5
2025-01-13 19:30:49.243453	241.1	30.0	-92.5	11.9
2025-01-13 19:30:50.392688	241.4	30.1	-92.7	9.9
2025-01-13 19:30:51.545698	241.8	30.1	-92.8	12.9
2025-01-13 19:30:52.708459	242.1	30.2	-92.7	13.0
2025-01-13 19:30:53.862154	242.5	30.3	-92.8	13.0
2025-01-13 19:30:55.019107	242.9	30.4	-92.9	9.3
2025-01-13 19:30:56.173757	243.2	30.5	-92.7	6.1
2025-01-13 19:30:57.329888	243.6	30.6	-92.5	5.3
2025-01-13 19:30:58.473829	244.0	30.7	-92.6	7.2
2025-01-13 19:30:59.629304	244.3	30.8	-92.5	9.1
2025-01-13 19:31:00.765784	244.7	30.8	-92.8	6.3
2025-01-13 19:31:01.921836	245.1	30.9	-92.7	4.2
2025-01-13 19:31:03.077629	245.4	31.0	-92.5	16.3
2025-01-13 19:31:04.228534	245.8	31.1	-92.3	12.0
2025-01-13 19:31:05.391979	246.2	31.2	-92.5	17.7
2025-01-13 19:31:06.537864	246.6	31.3	-92.7	12.0
2025-01-13 19:31:07.691627	247.0	31.3	-92.7	19.6
2025-01-13 19:31:08.847999	247.3	31.4	-92.8	17.1
2025-01-13 19:31:10.000396	247.7	31.5	-92.6	21.7
2025-01-13 19:31:11.162661	248.1	31.6	-92.6	19.4
2025-01-13 19:31:12.319778	248.5	31.6	-92.5	16.4
2025-01-13 19:31:13.469743	248.9	31.7	-92.8	12.4
2025-01-13 19:31:14.626510	249.3	31.8	-93.1	19.9
2025-01-13 19:31:15.784648	249.7	31.8	-92.6	5.8
2025-01-13 19:31:16.936656	250.1	31.9	-92.6	9.6
2025-01-13 19:31:18.085616	250.5	32.0	-92.7	13.8
2025-01-13 19:31:19.247480	250.9	32.0	-92.6	8.7
2025-01-13 19:31:20.399381	251.3	32.1	-92.6	16.0
2025-01-13 19:31:21.541970	251.7	32.2	-92.9	11.0
2025-01-13 19:31:22.699872	252.1	32.2	-92.6	15.6
2025-01-13 19:31:23.852776	252.5	32.3	-92.3	8.2
2025-01-13 19:31:25.004381	252.9	32.3	-92.7	19.9
2025-01-13 19:31:26.162623	253.3	32.4	-92.5	20.4
2025-01-13 19:31:27.325467	253.7	32.5	-92.4	21.4
2025-01-13 19:31:28.485127	254.1	32.5	-92.8	19.7
2025-01-13 19:31:29.643024	254.5	32.6	-92.6	10.2
2025-01-13 19:31:30.802573	255.0	32.6	-92.5	8.1
2025-01-13 19:31:31.961501	255.4	32.7	-92.5	14.8
2025-01-13 19:31:33.115196	255.8	32.7	-92.5	8.5
2025-01-13 19:31:34.271736	256.2	32.8	-92.3	3.6
2025-01-13 19:31:35.428656	256.6	32.8	-92.8	5.4
2025-01-13 19:31:36.583596	257.0	32.8	-92.8	9.5
2025-01-13 19:31:37.736297	257.5	32.9	-92.2	4.1
2025-01-13 19:31:38.888612	257.9	32.9	-92.3	12.2
2025-01-13 19:31:40.043266	258.3	33.0	-92.4	9.3
2025-01-13 19:31:41.193168	258.7	33.0	-92.7	6.7
2025-01-13 19:31:42.340217	259.1	33.0	-92.5	5.8
2025-01-13 19:31:43.489380	259.6	33.1	-92.3	15.4
2025-01-13 19:31:44.646492	260.0	33.1	-92.4	6.1
2025-01-13 19:31:45.793443	260.4	33.1	-92.8	11.8
2025-01-13 19:31:46.942820	260.8	33.1	-93.1	12.4
2025-01-13 19:31:48.098879	261.3	33.2	-92.6	13.2
2025-01-13 19:31:49.259269	261.7	33.2	-92.9	12.6
2025-01-13 19:31:50.414255	262.1	33.2	-93.3	11.2
2025-01-13 19:31:51.563313	262.6	33.2	-92.5	14.4
2025-01-13 19:31:52.717206	263.0	33.3	-92.9	20.7
2025-01-13 19:31:53.875304	263.4	33.3	-92.8	15.5
2025-01-13 19:31:55.031075	263.9	33.3	-92.6	18.4
2025-01-13 19:31:56.185682	264.3	33.3	-92.7	9.3
2025-01-13 19:31:57.337297	264.7	33.3	-91.9	7.5
2025-01-13 19:31:58.495186	265.2	33.3	-92.1	12.9
2025-01-13 19:31:59.645446	265.6	33.3	-91.8	10.3
2025-01-13 19:32:00.788968	266.0	33.3	-91.9	8.4
2025-01-13 19:32:01.949187	266.4	33.3	-92.9	6.3
2025-01-13 19:32:03.101311	266.9	33.3	-93.0	9.7
2025-01-13 19:32:04.258946	267.3	33.3	-92.8	4.9
2025-01-13 19:32:05.414679	267.7	33.3	-92.7	7.8
2025-01-13 19:32:06.579424	268.2	33.3	-92.6	10.3
2025-01-13 19:32:07.725980	268.6	33.3	-92.4	4.1
2025-01-13 19:32:08.877423	269.0	33.3	-92.4	9.1
2025-01-13 19:32:10.030234	269.5	33.3	-92.4	6.8
2025-01-13 19:32:11.184170	269.9	33.3	-92.1	5.2
2025-01-13 19:32:12.336463	270.3	33.3	-92.1	6.6
2025-01-13 19:32:13.494813	270.8	33.3	-92.4	9.5
2025-01-13 19:32:14.648588	271.2	33.3	-92.7	12.8
2025-01-13 19:32:15.799064	271.6	33.3	-92.4	1.8
2025-01-13 19:32:16.945327	272.1	33.2	-92.6	7.1
2025-01-13 19:32:18.090835	272.5	33.2	-92.8	10.1
2025-01-13 19:32:19.246328	272.9	33.2	-92.8	5.8
2025-01-13 19:32:20.395114	273.3	33.2	-92.5	4.6
2025-01-13 19:32:21.549529	273.8	33.1	-92.4	8.2
2025-01-13 19:32:22.698346	274.2	33.1	-92.7	6.2
2025-01-13 19:32:23.859029	274.6	33.1	-92.8	6.3
2025-01-13 19:32:25.000716	275.0	33.1	-92.8	8.5
2025-01-13 19:32:26.158019	275.5	33.0	-92.6	6.9
2025-01-13 19:32:27.306908	275.9	33.0	-92.3	4.2
2025-01-13 19:32:28.453732	276.3	33.0	-92.6	6.8
2025-01-13 19:32:29.606745	276.7	32.9	-92.8	6.9
2025-01-13 19:32:30.758714	277.1	32.9	-92.7	5.9
2025-01-13 19:32:31.905272	277.6	32.8	-92.6	3.7
2025-01-13 19:32:33.055470	278.0	32.8	-92.7	7.4
2025-01-13 19:32:34.211749	278.4	32.8	-92.4	6.9
2025-01-13 19:32:35.363586	278.8	32.7	-92.7	6.1
2025-01-13 19:32:36.511394	279.2	32.7	-92.4	10.1
2025-01-13 19:32:37.667832	279.6	32.6	-92.5	7.0
2025-01-13 19:32:38.827172	280.1	32.6	-93.0	5.3
2025-01-13 19:32:39.977459	280.5	32.5	-92.6	5.2
2025-01-13 19:32:41.129730	280.9	32.5	-92.7	6.3
2025-01-13 19:32:42.282409	281.3	32.4	-92.4	10.4
2025-01-13 19:32:43.434630	281.7	32.4	-92.8	11.0
2025-01-13 19:32:44.586081	282.1	32.3	-92.4	12.2
2025-01-13 19:32:45.736112	282.5	32.2	-92.8	7.1
2025-01-13 19:32:46.887909	282.9	32.2	-92.6	5.4
2025-01-13 19:32:48.051064	283.3	32.1	-92.4	5.9
2025-01-13 19:32:49.199685	283.7	32.1	-92.6	12.3
2025-01-13 19:32:50.353316	284.1	32.0	-92.8	9.7
2025-01-13 19:32:51.504334	284.5	31.9	-92.5	4.0
2025-01-13 19:32:52.657761	284.9	31.9	-92.5	7.7
2025-01-13 19:32:53.813260	285.3	31.8	-92.8	6.9
2025-01-13 19:32:54.969548	285.7	31.7	-92.6	9.1
2025-01-13 19:32:56.124090	286.1	31.7	-92.6	12.8
2025-01-13 19:32:57.271630	286.5	31.6	-92.6	10.3
2025-01-13 19:32:58.426019	286.8	31.5	-93.1	5.0
2025-01-13 19:32:59.578079	287.2	31.4	-92.5	10.3
2025-01-13 19:33:00.719804	287.6	31.4	-92.8	10.1
2025-01-13 19:33:01.871312	288.0	31.3	-92.6	10.2
2025-01-13 19:33:03.024397	288.4	31.2	-92.6	11.0
2025-01-13 19:33:04.179562	288.7	31.1	-92.2	9.0
2025-01-13 19:33:05.341118	289.1	31.0	-92.4	11.8
2025-01-13 19:33:06.496156	289.5	31.0	-92.9	7.3
2025-01-13 19:33:07.649932	289.9	30.9	-92.5	4.4
2025-01-13 19:33:08.804692	290.2	30.8	-92.7	6.6
2025-01-13 19:33:09.962120	290.6	30.7	-92.7	11.7
2025-01-13 19:33:11.114181	291.0	30.6	-92.7	7.8
2025-01-13 19:33:12.262508	291.3	30.5	-92.5	10.1
2025-01-13 19:33:13.413024	291.7	30.4	-93.0	9.7
2025-01-13 19:33:14.567339	292.1	30.4	-92.7	6.8
2025-01-13 19:33:15.717638	292.4	30.3	-92.7	6.0
2025-01-13 19:33:16.868483	292.8	30.2	-92.8	5.0
2025-01-13 19:33:18.024218	293.1	30.1	-93.0	1.8
2025-01-13 19:33:19.173012	293.5	30.0	-92.3	5.8
2025-01-13 19:33:20.323827	293.8	29.9	-92.5	12.7
2025-01-13 19:33:21.478802	294.2	29.8	-92.6	7.9
2025-01-13 19:33:22.636079	294.5	29.7	-92.5	8.6
2025-01-13 19:33:23.789478	294.9	29.6	-92.6	9.9
2025-01-13 19:33:24.949214	295.2	29.5	-92.4	9.3
2025-01-13 19:33:26.111232	295.6	29.4	-92.4	3.6
2025-01-13 19:33:27.266881	295.9	29.3	-92.8	3.8
2025-01-13 19:33:28.417710	296.2	29.2	-92.3	3.7
2025-01-13 19:33:29.576249	296.6	29.1	-92.7	5.6
2025-01-13 19:33:30.732207	296.9	29.0	-92.7	5.9
2025-01-13 19:33:31.884210	297.2	28.9	-92.7	3.5
2025-01-13 19:33:33.037378	297.6	28.8	-92.6	5.3
2025-01-13 19:33:34.186517	297.9	28.7	-92.4	6.5
2025-01-13 19:33:35.336380	298.2	28.6	-92.6	3.6
2025-01-13 19:33:36.493250	298.6	28.5	-92.9	8.6
2025-01-13 19:33:37.645431	298.9	28.4	-92.8	5.5
2025-01-13 19:33:38.806570	299.2	28.3	-92.5	2.1
2025-01-13 19:33:39.953320	299.5	28.2	-92.5	7.7
2025-01-13 19:33:41.099822	299.8	28.1	-92.0	5.4
2025-01-13 19:33:42.261068	300.1	28.0	-92.6	3.3
2025-01-13 19:33:43.410973	300.4	27.9	-92.7	7.2
2025-01-13 19:33:44.558565	300.8	27.8	-92.7	10.9
2025-01-13 19:33:45.719217	301.1	27.7	-92.4	3.1
2025-01-13 19:33:46.874330	301.4	27.6	-92.4	4.6
2025-01-13 19:33:48.026984	301.7	27.5	-92.5	10.3
2025-01-13 19:33:49.185239	302.0	27.4	-92.2	7.6
2025-01-13 19:33:50.339071	302.3	27.2	-92.7	6.3
2025-01-13 19:33:51.489744	302.6	27.1	-92.7	13.5
2025-01-13 19:33:52.637036	302.9	27.0	-92.7	4.6
2025-01-13 19:33:53.794097	303.2	26.9	-92.6	5.4
2025-01-13 19:33:54.946509	303.4	26.8	-92.6	10.6
2025-01-13 19:33:56.109491	303.7	26.7	-92.8	9.0
2025-01-13 19:33:57.262784	304.0	26.6	-92.3	10.1
2025-01-13 19:33:58.414675	304.3	26.5	-92.4	11.6
2025-01-13 19:33:59.574375	304.6	26.4	-92.1	9.6
2025-01-13 19:34:00.717162	304.9	26.2	-92.5	7.9
2025-01-13 19:34:01.870566	305.1	26.1	-92.4	8.5
2025-01-13 19:34:03.027578	305.4	26.0	-92.8	13.9
2025-01-13 19:34:04.177553	305.7	25.9	-92.7	9.2
2025-01-13 19:34:05.329232	306.0	25.8	-93.0	9.1
2025-01-13 19:34:06.482597	306.2	25.7	-93.1	14.1
2025-01-13 19:34:07.636060	306.5	25.6	-93.3	11.6
2025-01-13 19:34:08.796375	306.8	25.5	-93.1	6.8
2025-01-13 19:34:09.951411	307.0	25.3	-92.7	8.9
2025-01-13 19:34:11.106046	307.3	25.2	-92.8	8.3
2025-01-13 19:34:12.250282	307.6	25.1	-92.6	6.9
2025-01-13 19:34:13.405259	307.8	25.0	-92.9	6.9
2025-01-13 19:34:14.560614	308.1	24.9	-93.0	8.6
2025-01-13 19:34:15.713570	308.3	24.8	-93.1	2.6
2025-01-13 19:34:16.868432	308.6	24.7	-93.0	10.0
2025-01-13 19:34:18.019086	308.9	24.6	-92.8	7.1
2025-01-13 19:34:19.171025	309.1	24.4	-92.6	2.5
2025-01-13 19:34:20.323196	309.4	24.3	-92.8	6.7
2025-01-13 19:34:21.475298	309.6	24.2	-92.9	9.0
2025-01-13 19:34:22.635687	309.8	24.1	-92.7	10.9
2025-01-13 19:34:23.790101	310.1	24.0	-93.0	6.5
2025-01-13 19:34:24.944658	310.3	23.9	-92.8	6.5
2025-01-13 19:34:26.100777	310.6	23.8	-92.6	8.9
2025-01-13 19:34:27.249575	310.8	23.6	-92.5	13.0
2025-01-13 19:34:28.398585	311.1	23.5	-92.6	10.3
2025-01-13 19:34:29.559045	311.3	23.4	-92.8	7.8
2025-01-13 19:34:30.711864	311.5	23.3	-92.7	3.0
2025-01-13 19:34:31.864114	311.8	23.2	-92.9	4.5
2025-01-13 19:34:33.012642	312.0	23.1	-92.8	5.8
2025-01-13 19:34:34.171285	312.2	23.0	-92.6	1.1
2025-01-13 19:34:35.326730	312.4	22.8	-92.5	4.1
2025-01-13 19:34:36.481471	312.7	22.7	-92.2	3.8
2025-01-13 19:34:37.628970	312.9	22.6	-92.5	2.5
2025-01-13 19:34:38.793068	313.1	22.5	-92.7	2.3
2025-01-13 19:34:39.944548	313.3	22.4	-92.7	0.8
2025-01-13 19:34:41.100677	313.6	22.3	-92.6	2.0
2025-01-13 19:34:42.254628	313.8	22.2	-92.6	0.6
2025-01-13 19:34:43.404786	314.0	22.0	-92.6	5.4
2025-01-13 19:34:44.549797	314.2	21.9	-92.8	4.1
2025-01-13 19:34:45.702180	314.4	21.8	-92.6	3.7
2025-01-13 19:34:46.854361	314.6	21.7	-92.9	2.1
2025-01-13 19:34:48.003893	314.8	21.6	-92.5	5.9
2025-01-13 19:34:49.169678	315.0	21.5	-92.4	4.3
2025-01-13 19:34:50.323541	315.3	21.4	-92.6	4.2
2025-01-13 19:34:51.482635	315.5	21.2	-92.7	7.8
2025-01-13 19:34:52.635462	315.7	21.1	-92.7	5.5
2025-01-13 19:34:53.791910	315.9	21.0	-92.8	6.8
2025-01-13 19:34:54.944942	316.1	20.9	-92.6	8.8
2025-01-13 19:34:56.099821	316.3	20.8	-92.5	5.8
2025-01-13 19:34:57.252341	316.5	20.7	-92.6	3.6
2025-01-13 19:34:58.403093	316.7	20.6	-92.8	3.7
2025-01-13 19:34:59.559733	316.9	20.5	-92.4	4.2
2025-01-13 19:35:00.699937	317.1	20.4	-92.7	2.7
2025-01-13 19:35:01.862240	317.3	20.2	-92.7	2.2
2025-01-13 19:35:03.018591	317.4	20.1	-92.5	3.8
2025-01-13 19:35:04.170298	317.6	20.0	-92.4	2.9
2025-01-13 19:35:05.319896	317.8	19.9	-92.1	1.8
2025-01-13 19:35:06.474287	318.0	19.8	-92.4	0.5
2025-01-13 19:35:07.623506	318.2	19.7	-92.4	1.9
2025-01-13 19:35:08.779638	318.4	19.6	-92.4	5.4
2025-01-13 19:35:09.930898	318.6	19.5	-92.4	7.8
2025-01-13 19:35:11.084213	318.7	19.4	-91.9	4.0
2025-01-13 19:35:12.239332	318.9	19.2	-91.8	4.6
2025-01-13 19:35:13.389758	319.1	19.1	-91.8	4.0
2025-01-13 19:35:14.538742	319.3	19.0	-91.8	3.7
2025-01-13 19:35:15.683779	319.5	18.9	-92.6	3.6
2025-01-13 19:35:16.836375	319.6	18.8	-92.8	3.3
2025-01-13 19:35:17.986212	319.8	18.7	-92.5	1.3
2025-01-13 19:35:19.143543	320.0	18.6	-92.5	1.1
2025-01-13 19:35:20.300399	320.2	18.5	-92.4	1.6
2025-01-13 19:35:21.464417	320.3	18.4	-92.6	1.2
2025-01-13 19:35:22.617238	320.5	18.3	-92.7	2.7
2025-01-13 19:35:23.779949	320.7	18.2	-92.5	2.6
2025-01-13 19:35:24.929521	320.8	18.1	-92.6	3.7
2025-01-13 19:35:26.089952	321.0	17.9	-92.4	2.7
2025-01-13 19:35:27.247795	321.2	17.8	-92.5	4.0
2025-01-13 19:35:28.402055	321.3	17.7	-92.6	4.2
2025-01-13 19:35:29.552794	321.5	17.6	-92.6	3.7
2025-01-13 19:35:30.711765	321.7	17.5	-92.6	1.5
2025-01-13 19:35:31.861542	321.8	17.4	-92.2	4.9
2025-01-13 19:35:33.011783	322.0	17.3	-92.5	5.1
2025-01-13 19:35:34.167957	322.2	17.2	-92.3	4.4
2025-01-13 19:35:35.331394	322.3	17.1	-92.4	2.5
2025-01-13 19:35:36.482388	322.5	17.0	-92.3	1.5
2025-01-13 19:35:37.628292	322.6	16.9	-92.9	2.6
2025-01-13 19:35:38.782202	322.8	16.8	-92.2	2.0
2025-01-13 19:35:39.934046	322.9	16.7	-92.6	2.9
2025-01-13 19:35:41.098651	323.1	16.6	-92.3	2.6
2025-01-13 19:35:42.254635	323.2	16.5	-92.3	4.2
2025-01-13 19:35:43.402531	323.4	16.4	-92.4	4.3
2025-01-13 19:35:44.556981	323.5	16.3	-92.6	4.6
2025-01-13 19:35:45.714109	323.7	16.2	-92.7	4.7
2025-01-13 19:35:46.868563	323.8	16.1	-92.5	4.4
2025-01-13 19:35:48.018670	324.0	16.0	-92.4	3.2
2025-01-13 19:35:49.172330	324.1	15.9	-92.1	3.9
2025-01-13 19:35:50.324679	324.3	15.8	-92.3	1.7
2025-01-13 19:35:51.478973	324.4	15.7	-92.5	1.4
2025-01-13 19:35:52.637092	324.6	15.6	-92.4	5.5
2025-01-13 19:35:53.783334	324.7	15.5	-92.7	1.5
2025-01-13 19:35:54.936959	324.9	15.4	-92.3	1.2
2025-01-13 19:35:56.099280	325.0	15.3	-92.2	1.5
2025-01-13 19:35:57.357570	325.1	15.1	-92.4	1.6
2025-01-13 19:35:58.510622	325.3	15.0	-92.7	1.8
2025-01-13 19:35:59.658572	325.4	14.9	-92.6	3.8
2025-01-13 19:36:00.803452	325.6	14.8	-92.4	1.9
2025-01-13 19:36:01.953605	325.7	14.7	-92.4	5.5
2025-01-13 19:36:03.105780	325.8	14.6	-92.6	3.4
2025-01-13 19:36:04.254912	326.0	14.5	-92.7	8.7
#Closed at: 2025-01-13 19:28:15.968364