passes_logs/2025/01/13/LEX_Murmansk/LEX_Murmansk__20250113_145339_NOAA_18_rec.log

#Pass ID: 20250113_145339_NOAA 18
#Satellite: NOAA 18
#Configuration: NOAA 18
#Start time: 2025-01-13 14:53:35.071210

#LorettStation: 1.0.0 05.05.2024
#Station: LEX_Murmansk
#Location: 33.156738 lon 68.926811 lat
#TLE: 1 28654U 05018A   25013.18075893  .00000305  00000+0  18557-3 0  9997
#TLE: 2 28654  98.8571  94.2532 0014276 184.2703 175.8350 14.13484936 12921

#Time	Az	El	Level	SNR
2025-01-13 14:53:47.181356	47.3	15.9	-91.7	5.8
2025-01-13 14:53:48.348201	47.1	16.0	-91.8	5.3
2025-01-13 14:53:49.501817	46.9	16.0	-91.9	4.3
2025-01-13 14:53:50.667433	46.7	16.1	-92.0	4.0
2025-01-13 14:53:51.830106	46.5	16.2	-92.0	5.5
2025-01-13 14:53:52.991221	46.4	16.3	-91.9	6.4
2025-01-13 14:53:54.158044	46.2	16.4	-91.4	6.1
2025-01-13 14:53:55.323566	46.0	16.5	-91.4	4.9
2025-01-13 14:53:56.486574	45.8	16.5	-91.4	6.0
2025-01-13 14:53:57.642622	45.6	16.6	-91.8	6.0
2025-01-13 14:53:58.812426	45.4	16.7	-91.8	6.7
2025-01-13 14:53:59.959243	45.2	16.8	-91.4	6.9
2025-01-13 14:54:01.106767	45.0	16.9	-91.3	7.6
2025-01-13 14:54:02.270253	44.8	17.0	-91.5	6.4
2025-01-13 14:54:03.429063	44.6	17.0	-91.6	8.4
2025-01-13 14:54:04.591294	44.4	17.1	-91.4	7.2
2025-01-13 14:54:05.760856	44.2	17.2	-91.5	10.0
2025-01-13 14:54:06.917255	44.0	17.3	-91.6	4.6
2025-01-13 14:54:08.076703	43.8	17.4	-91.5	5.3
2025-01-13 14:54:09.237347	43.6	17.5	-91.7	6.0
2025-01-13 14:54:10.401049	43.4	17.5	-91.5	4.7
2025-01-13 14:54:11.560282	43.2	17.6	-91.9	4.1
2025-01-13 14:54:12.727102	43.0	17.7	-92.3	5.0
2025-01-13 14:54:13.891191	42.8	17.8	-92.2	6.0
2025-01-13 14:54:15.057442	42.5	17.9	-92.0	8.2
2025-01-13 14:54:16.221464	42.3	18.0	-91.9	6.6
2025-01-13 14:54:17.380512	42.1	18.0	-91.5	5.5
2025-01-13 14:54:18.546928	41.9	18.1	-92.1	5.4
2025-01-13 14:54:19.707480	41.7	18.2	-91.9	8.0
2025-01-13 14:54:20.870239	41.5	18.3	-91.9	8.9
2025-01-13 14:54:22.029233	41.3	18.4	-92.1	7.0
2025-01-13 14:54:23.189315	41.0	18.4	-92.2	7.7
2025-01-13 14:54:24.351193	40.8	18.5	-92.1	10.1
2025-01-13 14:54:25.514986	40.6	18.6	-92.4	10.3
2025-01-13 14:54:26.669879	40.4	18.7	-92.3	10.2
2025-01-13 14:54:27.836535	40.2	18.8	-92.5	9.6
2025-01-13 14:54:28.995006	39.9	18.8	-92.5	8.6
2025-01-13 14:54:30.152814	39.7	18.9	-92.0	7.4
2025-01-13 14:54:31.317549	39.5	19.0	-92.0	10.8
2025-01-13 14:54:32.484722	39.3	19.1	-92.5	5.2
2025-01-13 14:54:33.648624	39.0	19.2	-92.4	7.4
2025-01-13 14:54:34.812963	38.8	19.2	-92.1	10.0
2025-01-13 14:54:35.979820	38.6	19.3	-92.2	7.3
2025-01-13 14:54:37.132541	38.3	19.4	-91.8	8.0
2025-01-13 14:54:38.293128	38.1	19.5	-91.9	9.3
2025-01-13 14:54:39.454487	37.9	19.6	-92.1	11.2
2025-01-13 14:54:40.617336	37.6	19.6	-91.7	9.3
2025-01-13 14:54:41.776630	37.4	19.7	-92.0	13.4
2025-01-13 14:54:42.936829	37.2	19.8	-92.1	10.3
2025-01-13 14:54:44.099882	36.9	19.9	-92.0	11.2
2025-01-13 14:54:45.268625	36.7	19.9	-91.9	13.5
2025-01-13 14:54:46.431177	36.4	20.0	-92.4	8.7
2025-01-13 14:54:47.594500	36.2	20.1	-92.2	9.2
2025-01-13 14:54:48.755297	35.9	20.2	-92.0	10.4
2025-01-13 14:54:49.916239	35.7	20.2	-92.0	10.5
2025-01-13 14:54:51.084661	35.4	20.3	-91.9	8.9
2025-01-13 14:54:52.245542	35.2	20.4	-91.8	8.4
2025-01-13 14:54:53.410758	34.9	20.5	-91.6	9.2
2025-01-13 14:54:54.574495	34.7	20.5	-92.2	8.2
2025-01-13 14:54:55.739491	34.4	20.6	-92.2	11.4
2025-01-13 14:54:56.895837	34.2	20.7	-92.4	7.3
2025-01-13 14:54:58.052106	33.9	20.8	-92.0	3.8
2025-01-13 14:54:59.218510	33.7	20.8	-92.1	9.1
2025-01-13 14:55:00.366660	33.4	20.9	-92.0	10.0
2025-01-13 14:55:01.522419	33.2	21.0	-91.8	5.5
2025-01-13 14:55:02.689236	32.9	21.0	-92.1	11.7
2025-01-13 14:55:03.850124	32.6	21.1	-91.9	12.5
2025-01-13 14:55:05.014476	32.4	21.2	-91.9	14.0
2025-01-13 14:55:06.179157	32.1	21.3	-91.4	13.2
2025-01-13 14:55:07.337724	31.9	21.3	-92.0	14.2
2025-01-13 14:55:08.501622	31.6	21.4	-91.7	12.0
2025-01-13 14:55:09.662298	31.3	21.5	-91.9	12.7
2025-01-13 14:55:10.823919	31.1	21.5	-91.9	13.9
2025-01-13 14:55:11.981771	30.8	21.6	-92.0	8.4
2025-01-13 14:55:13.144973	30.5	21.7	-91.8	13.3
2025-01-13 14:55:14.306818	30.2	21.7	-91.6	14.2
2025-01-13 14:55:15.468079	30.0	21.8	-92.1	11.1
2025-01-13 14:55:16.628249	29.7	21.9	-90.8	14.0
2025-01-13 14:55:17.787396	29.4	21.9	-90.8	16.9
2025-01-13 14:55:18.950591	29.2	22.0	-91.2	12.4
2025-01-13 14:55:20.113666	28.9	22.0	-91.0	11.4
2025-01-13 14:55:21.275585	28.6	22.1	-91.1	12.1
2025-01-13 14:55:22.436988	28.3	22.2	-91.4	10.1
2025-01-13 14:55:23.601729	28.0	22.2	-92.7	7.9
2025-01-13 14:55:24.763873	27.8	22.3	-92.3	13.0
2025-01-13 14:55:25.930309	27.5	22.4	-92.1	6.3
2025-01-13 14:55:27.086434	27.2	22.4	-91.7	7.3
2025-01-13 14:55:28.246233	26.9	22.5	-92.0	11.9
2025-01-13 14:55:29.409698	26.6	22.5	-91.9	9.4
2025-01-13 14:55:30.572698	26.3	22.6	-91.9	8.9
2025-01-13 14:55:31.732461	26.0	22.6	-92.1	15.1
2025-01-13 14:55:32.896384	25.8	22.7	-91.8	9.9
2025-01-13 14:55:34.063416	25.5	22.8	-91.7	10.8
2025-01-13 14:55:35.223602	25.2	22.8	-91.8	14.0
2025-01-13 14:55:36.390604	24.9	22.9	-92.0	14.0
2025-01-13 14:55:37.549568	24.6	22.9	-92.3	14.1
2025-01-13 14:55:38.710514	24.3	23.0	-92.2	16.0
2025-01-13 14:55:39.873283	24.0	23.0	-92.1	14.9
2025-01-13 14:55:41.034364	23.7	23.1	-92.1	12.4
2025-01-13 14:55:42.188552	23.4	23.1	-91.9	15.0
2025-01-13 14:55:43.351093	23.1	23.2	-92.0	17.2
2025-01-13 14:55:44.503918	22.8	23.2	-91.8	9.6
2025-01-13 14:55:45.671595	22.5	23.3	-91.8	15.5
2025-01-13 14:55:46.836365	22.2	23.3	-91.8	14.7
2025-01-13 14:55:47.997266	21.9	23.4	-92.0	10.9
2025-01-13 14:55:49.163686	21.6	23.4	-91.7	13.0
2025-01-13 14:55:50.322699	21.3	23.5	-91.4	14.9
2025-01-13 14:55:51.489313	21.0	23.5	-92.0	15.0
2025-01-13 14:55:52.657491	20.7	23.6	-92.3	15.6
2025-01-13 14:55:53.823566	20.4	23.6	-91.9	13.4
2025-01-13 14:55:54.984516	20.1	23.6	-91.9	12.2
2025-01-13 14:55:56.148379	19.8	23.7	-91.7	12.9
2025-01-13 14:55:57.300257	19.5	23.7	-92.0	13.0
2025-01-13 14:55:58.459049	19.1	23.8	-91.8	10.5
2025-01-13 14:55:59.623721	18.8	23.8	-91.8	9.3
2025-01-13 14:56:00.774348	18.5	23.8	-92.5	13.4
2025-01-13 14:56:01.933825	18.2	23.9	-92.2	7.0
2025-01-13 14:56:03.100258	17.9	23.9	-91.9	6.8
2025-01-13 14:56:04.259926	17.6	24.0	-92.0	12.3
2025-01-13 14:56:05.417832	17.3	24.0	-92.1	6.4
2025-01-13 14:56:06.583010	17.0	24.0	-92.4	6.1
2025-01-13 14:56:07.743541	16.6	24.1	-92.2	13.2
2025-01-13 14:56:08.908996	16.3	24.1	-92.0	8.5
2025-01-13 14:56:10.072238	16.0	24.1	-92.0	7.3
2025-01-13 14:56:11.236253	15.7	24.1	-90.6	11.1
2025-01-13 14:56:12.392794	15.4	24.2	-90.9	9.1
2025-01-13 14:56:13.555961	15.1	24.2	-91.5	10.9
2025-01-13 14:56:14.720014	14.7	24.2	-91.7	9.4
2025-01-13 14:56:15.891167	14.4	24.3	-91.7	11.2
2025-01-13 14:56:17.055969	14.1	24.3	-91.2	12.3
2025-01-13 14:56:18.219235	13.8	24.3	-90.9	12.6
2025-01-13 14:56:19.379506	13.5	24.3	-90.1	10.6
2025-01-13 14:56:20.542833	13.1	24.4	-90.9	8.0
2025-01-13 14:56:21.705304	12.8	24.4	-90.6	11.0
2025-01-13 14:56:22.868987	12.5	24.4	-91.1	10.4
2025-01-13 14:56:24.034727	12.2	24.4	-90.9	9.0
2025-01-13 14:56:25.199058	11.8	24.4	-91.3	10.1
2025-01-13 14:56:26.364364	11.5	24.5	-90.7	7.2
2025-01-13 14:56:27.522961	11.2	24.5	-91.1	6.1
2025-01-13 14:56:28.685542	10.9	24.5	-90.9	8.1
2025-01-13 14:56:29.848627	10.5	24.5	-90.8	5.2
2025-01-13 14:56:31.011867	10.2	24.5	-90.9	5.6
2025-01-13 14:56:32.178706	9.9	24.5	-91.6	7.2
2025-01-13 14:56:33.343148	9.6	24.5	-92.0	8.1
2025-01-13 14:56:34.504380	9.2	24.5	-92.0	6.7
2025-01-13 14:56:35.666914	8.9	24.6	-91.3	10.4
2025-01-13 14:56:36.827146	8.6	24.6	-91.2	11.5
2025-01-13 14:56:37.990359	8.2	24.6	-91.0	8.5
2025-01-13 14:56:39.154722	7.9	24.6	-90.8	9.0
2025-01-13 14:56:40.319358	7.6	24.6	-90.8	10.3
2025-01-13 14:56:41.482489	7.3	24.6	-91.4	9.8
2025-01-13 14:56:42.649195	6.9	24.6	-91.3	8.4
2025-01-13 14:56:43.812247	6.6	24.6	-91.3	12.0
2025-01-13 14:56:44.976209	6.3	24.6	-91.2	10.7
2025-01-13 14:56:46.139337	6.0	24.6	-90.8	10.7
2025-01-13 14:56:47.302423	5.6	24.6	-90.9	11.7
2025-01-13 14:56:48.455401	5.3	24.6	-90.8	11.3
2025-01-13 14:56:49.618488	5.0	24.6	-91.2	11.2
2025-01-13 14:56:50.779415	4.6	24.6	-90.8	13.7
2025-01-13 14:56:51.942924	4.3	24.6	-92.2	11.4
2025-01-13 14:56:53.109556	4.0	24.6	-91.7	10.8
2025-01-13 14:56:54.269077	3.7	24.6	-91.8	13.4
2025-01-13 14:56:55.430560	3.3	24.6	-91.5	8.5
2025-01-13 14:56:56.589429	3.0	24.6	-92.0	9.8
2025-01-13 14:56:57.748158	2.7	24.5	-91.0	12.8
2025-01-13 14:56:58.913262	2.4	24.5	-91.0	9.9
2025-01-13 14:57:00.074878	2.0	24.5	-90.9	8.0
2025-01-13 14:57:01.220542	1.7	24.5	-91.4	12.7
2025-01-13 14:57:02.388756	1.4	24.5	-91.3	10.0
2025-01-13 14:57:03.549899	1.1	24.5	-91.0	7.6
2025-01-13 14:57:04.711223	0.7	24.5	-91.1	12.9
2025-01-13 14:57:05.880798	0.4	24.4	-91.4	12.7
2025-01-13 14:57:07.041195	0.1	24.4	-91.0	7.6
2025-01-13 14:57:08.202405	359.8	24.4	-91.0	13.2
2025-01-13 14:57:09.363478	359.4	24.4	-90.8	11.3
2025-01-13 14:57:10.528907	359.1	24.4	-91.7	7.5
2025-01-13 14:57:11.690509	358.8	24.3	-90.9	13.8
2025-01-13 14:57:12.850758	358.5	24.3	-91.6	16.0
2025-01-13 14:57:14.014132	358.1	24.3	-91.5	8.5
2025-01-13 14:57:15.181932	357.8	24.3	-90.5	13.5
2025-01-13 14:57:16.349250	357.5	24.3	-90.3	15.1
2025-01-13 14:57:17.509908	357.2	24.2	-90.9	10.0
2025-01-13 14:57:18.683595	356.9	24.2	-91.5	14.9
2025-01-13 14:57:19.837805	356.5	24.2	-91.1	14.8
2025-01-13 14:57:21.001056	356.2	24.1	-91.5	9.3
2025-01-13 14:57:22.162364	355.9	24.1	-92.1	13.4
2025-01-13 14:57:23.334613	355.6	24.1	-91.7	13.3
2025-01-13 14:57:24.502476	355.3	24.0	-92.4	9.3
2025-01-13 14:57:25.662491	355.0	24.0	-91.2	13.4
2025-01-13 14:57:26.837090	354.6	24.0	-91.3	15.8
2025-01-13 14:57:27.995122	354.3	23.9	-91.5	11.2
2025-01-13 14:57:29.168741	354.0	23.9	-91.3	15.1
2025-01-13 14:57:30.338470	353.7	23.9	-90.3	14.8
2025-01-13 14:57:31.499562	353.4	23.8	-91.1	11.2
2025-01-13 14:57:32.659745	353.1	23.8	-91.2	15.3
2025-01-13 14:57:33.822146	352.8	23.8	-91.5	15.2
2025-01-13 14:57:34.981861	352.4	23.7	-91.3	10.8
2025-01-13 14:57:36.145137	352.1	23.7	-91.0	13.0
2025-01-13 14:57:37.307976	351.8	23.6	-92.3	14.0
2025-01-13 14:57:38.468846	351.5	23.6	-92.2	10.8
2025-01-13 14:57:39.636533	351.2	23.5	-92.4	12.9
2025-01-13 14:57:40.799952	350.9	23.5	-92.3	14.0
2025-01-13 14:57:41.964233	350.6	23.5	-92.5	12.6
2025-01-13 14:57:43.132006	350.3	23.4	-92.3	12.8
2025-01-13 14:57:44.295584	350.0	23.4	-92.4	15.9
2025-01-13 14:57:45.461938	349.7	23.3	-92.5	9.0
2025-01-13 14:57:46.626266	349.4	23.3	-92.2	10.5
2025-01-13 14:57:47.786133	349.1	23.2	-92.6	14.9
2025-01-13 14:57:48.947549	348.8	23.2	-91.2	9.7
2025-01-13 14:57:50.107727	348.5	23.1	-91.6	8.4
2025-01-13 14:57:51.274236	348.2	23.1	-91.2	10.7
2025-01-13 14:57:52.433464	347.9	23.0	-91.4	8.4
2025-01-13 14:57:53.599358	347.6	23.0	-91.5	7.6
2025-01-13 14:57:54.762859	347.3	22.9	-91.1	9.3
2025-01-13 14:57:55.929076	347.0	22.8	-92.6	7.2
2025-01-13 14:57:57.088169	346.7	22.8	-92.2	5.2
2025-01-13 14:57:58.245091	346.4	22.7	-92.1	9.9
2025-01-13 14:57:59.408894	346.1	22.7	-92.2	7.6
2025-01-13 14:58:00.557727	345.8	22.6	-92.5	8.2
2025-01-13 14:58:01.717029	345.6	22.6	-92.3	13.3
2025-01-13 14:58:02.883960	345.3	22.5	-92.2	8.0
2025-01-13 14:58:04.047467	345.0	22.4	-92.3	10.0
2025-01-13 14:58:05.210636	344.7	22.4	-92.0	13.3
2025-01-13 14:58:06.380389	344.4	22.3	-92.0	12.3
2025-01-13 14:58:07.537478	344.1	22.3	-92.4	6.0
2025-01-13 14:58:08.692734	343.9	22.2	-92.3	13.6
2025-01-13 14:58:09.854565	343.6	22.1	-92.4	13.2
2025-01-13 14:58:11.015928	343.3	22.1	-90.6	9.1
2025-01-13 14:58:12.168176	343.0	22.0	-91.0	10.0
2025-01-13 14:58:13.332104	342.7	22.0	-90.9	10.3
2025-01-13 14:58:14.496066	342.5	21.9	-90.9	9.6
2025-01-13 14:58:15.662395	342.2	21.8	-91.6	10.9
2025-01-13 14:58:16.823068	341.9	21.8	-90.9	12.3
2025-01-13 14:58:17.984688	341.6	21.7	-91.7	5.3
2025-01-13 14:58:19.146881	341.4	21.6	-91.0	9.6
2025-01-13 14:58:20.306790	341.1	21.6	-91.3	14.0
2025-01-13 14:58:21.467617	340.8	21.5	-91.5	5.8
2025-01-13 14:58:22.628077	340.6	21.4	-91.1	8.7
2025-01-13 14:58:23.790127	340.3	21.4	-91.4	13.5
2025-01-13 14:58:24.942655	340.0	21.3	-91.4	7.4
2025-01-13 14:58:26.106162	339.8	21.2	-91.3	6.6
2025-01-13 14:58:27.270418	339.5	21.1	-91.5	10.0
2025-01-13 14:58:28.432330	339.2	21.1	-92.2	8.2
2025-01-13 14:58:29.596318	339.0	21.0	-92.4	9.3
2025-01-13 14:58:30.756533	338.7	20.9	-91.9	11.7
2025-01-13 14:58:31.919560	338.5	20.9	-92.0	7.6
2025-01-13 14:58:33.082646	338.2	20.8	-91.8	7.7
2025-01-13 14:58:34.247093	337.9	20.7	-91.9	11.9
2025-01-13 14:58:35.406965	337.7	20.6	-92.4	9.2
2025-01-13 14:58:36.555509	337.4	20.6	-92.3	9.0
2025-01-13 14:58:37.723441	337.2	20.5	-92.3	7.4
2025-01-13 14:58:38.880720	336.9	20.4	-92.4	6.3
2025-01-13 14:58:40.047759	336.7	20.4	-92.3	9.1
2025-01-13 14:58:41.211766	336.4	20.3	-92.2	7.2
2025-01-13 14:58:42.372765	336.2	20.2	-92.2	7.1
2025-01-13 14:58:43.540087	335.9	20.1	-92.7	7.6
2025-01-13 14:58:44.701033	335.7	20.0	-92.5	7.8
2025-01-13 14:58:45.864193	335.5	20.0	-92.5	5.9
2025-01-13 14:58:47.028611	335.2	19.9	-92.7	6.5
2025-01-13 14:58:48.188611	335.0	19.8	-92.1	6.9
2025-01-13 14:58:49.352257	334.7	19.7	-92.1	6.6
2025-01-13 14:58:50.522329	334.5	19.7	-92.5	4.4
2025-01-13 14:58:51.684474	334.2	19.6	-92.8	9.3
2025-01-13 14:58:52.855464	334.0	19.5	-92.4	8.4
2025-01-13 14:58:54.022638	333.8	19.4	-92.1	6.4
2025-01-13 14:58:55.184972	333.5	19.3	-91.9	10.7
2025-01-13 14:58:56.351038	333.3	19.3	-92.1	11.8
2025-01-13 14:58:57.505906	333.1	19.2	-92.6	8.0
2025-01-13 14:58:58.661825	332.8	19.1	-92.2	9.6
2025-01-13 14:58:59.823682	332.6	19.0	-92.5	7.7
2025-01-13 14:59:00.971138	332.4	19.0	-92.2	6.1
2025-01-13 14:59:02.132992	332.2	18.9	-92.1	6.8
2025-01-13 14:59:03.300957	331.9	18.8	-92.1	7.6
2025-01-13 14:59:04.461372	331.7	18.7	-91.9	5.2
2025-01-13 14:59:05.618017	331.5	18.6	-92.3	5.7
2025-01-13 14:59:06.781139	331.3	18.6	-92.6	7.2
2025-01-13 14:59:07.954283	331.0	18.5	-92.5	4.4
2025-01-13 14:59:09.113322	330.8	18.4	-92.3	6.4
2025-01-13 14:59:10.274676	330.6	18.3	-92.0	5.7
2025-01-13 14:59:11.436311	330.4	18.2	-92.3	7.3
2025-01-13 14:59:12.595120	330.2	18.1	-92.6	5.5
2025-01-13 14:59:13.761939	330.0	18.1	-92.4	10.1
2025-01-13 14:59:14.923171	329.7	18.0	-92.3	6.9
2025-01-13 14:59:16.090345	329.5	17.9	-92.3	3.8
2025-01-13 14:59:17.253549	329.3	17.8	-91.9	3.5
2025-01-13 14:59:18.408791	329.1	17.7	-91.9	3.9
2025-01-13 14:59:19.572530	328.9	17.7	-92.2	5.6
2025-01-13 14:59:20.735749	328.7	17.6	-92.4	4.3
2025-01-13 14:59:21.900146	328.5	17.5	-92.5	3.1
2025-01-13 14:59:23.060911	328.3	17.4	-92.5	3.8
2025-01-13 14:59:24.224986	328.1	17.3	-92.2	4.7
2025-01-13 14:59:25.387648	327.9	17.2	-92.2	5.3
2025-01-13 14:59:26.552842	327.7	17.2	-92.1	2.6
2025-01-13 14:59:27.721801	327.5	17.1	-92.2	7.8
2025-01-13 14:59:28.884232	327.3	17.0	-92.6	6.3
2025-01-13 14:59:30.047693	327.1	16.9	-92.1	4.3
2025-01-13 14:59:31.211080	326.9	16.8	-92.1	6.2
2025-01-13 14:59:32.380488	326.7	16.7	-92.2	7.7
2025-01-13 14:59:33.549756	326.5	16.6	-92.4	6.0
2025-01-13 14:59:34.713626	326.3	16.6	-92.4	5.8
2025-01-13 14:59:35.878685	326.1	16.5	-92.4	7.0
2025-01-13 14:59:37.037094	325.9	16.4	-92.1	7.3
2025-01-13 14:59:38.203303	325.7	16.3	-91.8	6.2
2025-01-13 14:59:39.361803	325.5	16.2	-92.1	2.9
2025-01-13 14:59:40.524990	325.3	16.1	-92.8	4.2
2025-01-13 14:59:41.691909	325.1	16.1	-92.7	4.3
2025-01-13 14:59:42.854763	324.9	16.0	-92.8	5.2
2025-01-13 14:59:44.013372	324.7	15.9	-92.6	7.0
2025-01-13 14:59:45.181319	324.6	15.8	-92.2	9.5
2025-01-13 14:59:46.341909	324.4	15.7	-92.5	6.5
2025-01-13 14:59:47.509180	324.2	15.6	-92.3	7.3
2025-01-13 14:59:48.665432	324.0	15.6	-92.4	5.2
2025-01-13 14:59:49.826877	323.8	15.5	-92.1	8.5
2025-01-13 14:59:50.984060	323.6	15.4	-92.5	5.2
2025-01-13 14:59:52.139196	323.5	15.3	-92.3	5.6
2025-01-13 14:59:53.296682	323.3	15.2	-92.2	9.3
2025-01-13 14:59:54.464214	323.1	15.1	-92.5	4.0
2025-01-13 14:59:55.624651	322.9	15.0	-91.4	6.5
2025-01-13 14:59:56.789557	322.8	15.0	-91.3	10.7
2025-01-13 14:59:57.950337	322.6	14.9	-91.3	5.2
2025-01-13 14:59:59.101927	322.4	14.8	-92.0	6.1
2025-01-13 15:00:00.254550	322.2	14.7	-92.2	7.0
2025-01-13 15:00:01.394057	322.1	14.6	-92.1	7.2
#Closed at: 2025-01-13 14:53:39.997914