passes_logs/2025/01/13/LEX_Murmansk/LEX_Murmansk__20250113_163230_NOAA_18_rec.log

#Pass ID: 20250113_163230_NOAA 18
#Satellite: NOAA 18
#Configuration: NOAA 18
#Start time: 2025-01-13 16:32:25.830140

#LorettStation: 1.0.0 05.05.2024
#Station: LEX_Murmansk
#Location: 33.156738 lon 68.926811 lat
#TLE: 1 28654U 05018A   25013.18075893  .00000305  00000+0  18557-3 0  9997
#TLE: 2 28654  98.8571  94.2532 0014276 184.2703 175.8350 14.13484936 12921

#Time	Az	El	Level	SNR
2025-01-13 16:32:38.038441	84.5	16.1	-91.1	4.2
2025-01-13 16:32:39.205660	84.4	16.2	-90.8	12.7
2025-01-13 16:32:40.369305	84.3	16.3	-90.9	4.7
2025-01-13 16:32:41.534353	84.1	16.4	-91.1	6.1
2025-01-13 16:32:42.690177	84.0	16.5	-90.3	16.5
2025-01-13 16:32:43.856082	83.8	16.6	-90.3	9.8
2025-01-13 16:32:45.021010	83.7	16.7	-90.3	13.6
2025-01-13 16:32:46.183750	83.5	16.8	-90.2	13.8
2025-01-13 16:32:47.347058	83.4	16.9	-90.0	9.2
2025-01-13 16:32:48.510037	83.2	17.0	-90.1	8.9
2025-01-13 16:32:49.677747	83.1	17.1	-90.6	6.1
2025-01-13 16:32:50.842838	82.9	17.2	-90.8	8.6
2025-01-13 16:32:52.001410	82.8	17.4	-90.7	7.6
2025-01-13 16:32:53.160637	82.6	17.5	-90.4	8.1
2025-01-13 16:32:54.325161	82.4	17.6	-90.5	15.3
2025-01-13 16:32:55.490112	82.3	17.7	-91.1	4.4
2025-01-13 16:32:56.654311	82.1	17.8	-90.5	5.3
2025-01-13 16:32:57.818482	82.0	17.9	-91.8	9.0
2025-01-13 16:32:58.982832	81.8	18.0	-92.4	4.1
2025-01-13 16:33:00.144697	81.6	18.1	-91.8	10.4
2025-01-13 16:33:01.294875	81.5	18.2	-91.7	8.6
2025-01-13 16:33:02.454325	81.3	18.3	-92.2	14.8
2025-01-13 16:33:03.617936	81.2	18.4	-92.3	9.1
2025-01-13 16:33:04.782833	81.0	18.5	-92.4	12.0
2025-01-13 16:33:05.945220	80.8	18.7	-92.1	7.6
2025-01-13 16:33:07.111484	80.6	18.8	-92.1	11.5
2025-01-13 16:33:08.275337	80.5	18.9	-91.8	11.9
2025-01-13 16:33:09.436547	80.3	19.0	-92.3	12.1
2025-01-13 16:33:10.603247	80.1	19.1	-92.4	14.2
2025-01-13 16:33:11.766369	80.0	19.2	-92.3	17.1
2025-01-13 16:33:12.926352	79.8	19.3	-92.1	9.5
2025-01-13 16:33:14.089862	79.6	19.4	-92.1	7.5
2025-01-13 16:33:15.251330	79.4	19.5	-91.8	8.3
2025-01-13 16:33:16.413729	79.2	19.7	-92.1	11.7
2025-01-13 16:33:17.578783	79.1	19.8	-91.1	7.1
2025-01-13 16:33:18.747066	78.9	19.9	-91.2	14.0
2025-01-13 16:33:19.906877	78.7	20.0	-91.4	11.7
2025-01-13 16:33:21.066584	78.5	20.1	-91.2	13.3
2025-01-13 16:33:22.224496	78.3	20.2	-91.5	16.4
2025-01-13 16:33:23.385295	78.1	20.3	-90.7	11.0
2025-01-13 16:33:24.549531	77.9	20.4	-92.4	11.0
2025-01-13 16:33:25.715985	77.7	20.6	-92.3	12.4
2025-01-13 16:33:26.874655	77.6	20.7	-92.3	17.1
2025-01-13 16:33:28.042129	77.4	20.8	-92.3	13.5
2025-01-13 16:33:29.203193	77.2	20.9	-90.3	14.2
2025-01-13 16:33:30.365348	77.0	21.0	-90.5	12.8
2025-01-13 16:33:31.533320	76.8	21.1	-91.3	10.8
2025-01-13 16:33:32.685252	76.6	21.2	-91.0	13.2
2025-01-13 16:33:33.849269	76.4	21.4	-91.4	15.1
2025-01-13 16:33:35.011475	76.2	21.5	-90.2	5.5
2025-01-13 16:33:36.170973	76.0	21.6	-91.5	9.7
2025-01-13 16:33:37.335473	75.8	21.7	-91.3	14.7
2025-01-13 16:33:38.498908	75.5	21.8	-90.6	6.2
2025-01-13 16:33:39.662945	75.3	21.9	-91.7	10.7
2025-01-13 16:33:40.831636	75.1	22.0	-90.9	12.0
2025-01-13 16:33:41.998347	74.9	22.2	-91.5	16.5
2025-01-13 16:33:43.153334	74.7	22.3	-90.7	10.0
2025-01-13 16:33:44.314518	74.5	22.4	-90.8	15.3
2025-01-13 16:33:45.476092	74.3	22.5	-90.9	8.7
2025-01-13 16:33:46.639834	74.0	22.6	-90.9	10.0
2025-01-13 16:33:47.802418	73.8	22.7	-91.2	12.6
2025-01-13 16:33:48.970616	73.6	22.8	-91.5	8.9
2025-01-13 16:33:50.133296	73.4	23.0	-90.1	13.1
2025-01-13 16:33:51.297475	73.2	23.1	-90.2	12.1
2025-01-13 16:33:52.454153	72.9	23.2	-90.8	6.7
2025-01-13 16:33:53.608917	72.7	23.3	-90.3	7.7
2025-01-13 16:33:54.772590	72.5	23.4	-91.0	8.6
2025-01-13 16:33:55.934154	72.2	23.5	-90.7	8.2
2025-01-13 16:33:57.093674	72.0	23.7	-91.2	6.5
2025-01-13 16:33:58.261813	71.8	23.8	-90.3	10.7
2025-01-13 16:33:59.422827	71.5	23.9	-92.0	9.7
2025-01-13 16:34:00.568307	71.3	24.0	-91.4	7.7
2025-01-13 16:34:01.735823	71.0	24.1	-90.5	11.9
2025-01-13 16:34:02.885766	70.8	24.2	-91.1	14.1
2025-01-13 16:34:04.042755	70.6	24.3	-91.5	6.1
2025-01-13 16:34:05.203581	70.3	24.5	-90.7	11.2
2025-01-13 16:34:06.363553	70.1	24.6	-92.1	6.9
2025-01-13 16:34:07.534975	69.8	24.7	-92.5	4.8
2025-01-13 16:34:08.700886	69.6	24.8	-92.5	8.8
2025-01-13 16:34:09.863129	69.3	24.9	-91.4	10.5
2025-01-13 16:34:11.024610	69.1	25.0	-90.7	7.9
2025-01-13 16:34:12.180931	68.8	25.1	-91.5	9.9
2025-01-13 16:34:13.338482	68.5	25.3	-91.4	6.3
2025-01-13 16:34:14.495996	68.3	25.4	-90.4	4.2
2025-01-13 16:34:15.655028	68.0	25.5	-90.8	4.3
2025-01-13 16:34:16.813974	67.8	25.6	-92.4	8.6
2025-01-13 16:34:17.975231	67.5	25.7	-92.1	6.2
2025-01-13 16:34:19.144519	67.2	25.8	-92.3	4.4
2025-01-13 16:34:20.303201	66.9	25.9	-92.3	5.2
2025-01-13 16:34:21.460119	66.7	26.1	-92.5	1.9
2025-01-13 16:34:22.627562	66.4	26.2	-92.5	4.8
2025-01-13 16:34:23.790820	66.1	26.3	-91.8	3.2
2025-01-13 16:34:24.953112	65.8	26.4	-91.5	6.0
2025-01-13 16:34:26.118482	65.6	26.5	-91.1	4.5
2025-01-13 16:34:27.282047	65.3	26.6	-91.4	7.6
2025-01-13 16:34:28.442552	65.0	26.7	-91.6	5.8
2025-01-13 16:34:29.606377	64.7	26.8	-91.0	7.2
2025-01-13 16:34:30.767662	64.4	26.9	-90.7	5.4
2025-01-13 16:34:31.930045	64.1	27.1	-91.5	5.5
2025-01-13 16:34:33.083674	63.8	27.2	-91.6	4.9
2025-01-13 16:34:34.250425	63.5	27.3	-92.3	5.4
2025-01-13 16:34:35.410128	63.2	27.4	-92.3	5.7
2025-01-13 16:34:36.571219	63.0	27.5	-91.4	5.9
2025-01-13 16:34:37.731840	62.7	27.6	-92.4	8.2
2025-01-13 16:34:38.890823	62.3	27.7	-92.8	10.5
2025-01-13 16:34:40.055330	62.0	27.8	-92.5	3.4
2025-01-13 16:34:41.221323	61.7	27.9	-92.3	5.0
2025-01-13 16:34:42.380827	61.4	28.0	-92.5	4.0
2025-01-13 16:34:43.542482	61.1	28.1	-92.5	5.2
2025-01-13 16:34:44.701249	60.8	28.2	-92.2	5.7
2025-01-13 16:34:45.864410	60.5	28.3	-92.3	6.9
2025-01-13 16:34:47.027307	60.2	28.4	-92.3	5.0
2025-01-13 16:34:48.190301	59.9	28.5	-92.5	5.9
2025-01-13 16:34:49.356269	59.5	28.6	-92.8	5.4
2025-01-13 16:34:50.511368	59.2	28.8	-93.0	7.1
2025-01-13 16:34:51.673833	58.9	28.9	-92.7	6.5
2025-01-13 16:34:52.834031	58.6	29.0	-92.7	11.1
2025-01-13 16:34:53.992186	58.2	29.1	-92.8	9.0
2025-01-13 16:34:55.156312	57.9	29.1	-92.6	5.0
2025-01-13 16:34:56.320621	57.6	29.2	-92.5	7.9
2025-01-13 16:34:57.481831	57.2	29.3	-92.5	7.0
2025-01-13 16:34:58.648954	56.9	29.4	-92.5	5.6
2025-01-13 16:34:59.811774	56.5	29.5	-92.7	8.9
2025-01-13 16:35:00.960583	56.2	29.6	-92.7	11.6
2025-01-13 16:35:02.128011	55.9	29.7	-92.1	12.7
2025-01-13 16:35:03.284261	55.5	29.8	-92.2	12.7
2025-01-13 16:35:04.449642	55.2	29.9	-92.5	12.8
2025-01-13 16:35:05.612358	54.8	30.0	-92.4	12.4
2025-01-13 16:35:06.776751	54.5	30.1	-92.5	11.0
2025-01-13 16:35:07.937121	54.1	30.2	-92.6	6.5
2025-01-13 16:35:09.095849	53.8	30.3	-92.2	7.5
2025-01-13 16:35:10.259016	53.4	30.4	-92.8	13.3
2025-01-13 16:35:11.421638	53.0	30.4	-92.6	7.1
2025-01-13 16:35:12.577331	52.7	30.5	-92.2	7.5
2025-01-13 16:35:13.732212	52.3	30.6	-92.5	12.0
2025-01-13 16:35:14.894576	52.0	30.7	-92.5	11.6
2025-01-13 16:35:16.054690	51.6	30.8	-92.5	9.8
2025-01-13 16:35:17.216881	51.2	30.9	-92.4	12.7
2025-01-13 16:35:18.391058	50.8	30.9	-92.1	15.3
2025-01-13 16:35:19.562170	50.5	31.0	-92.2	14.3
2025-01-13 16:35:20.720191	50.1	31.1	-92.3	15.5
2025-01-13 16:35:21.884319	49.7	31.2	-91.3	15.5
2025-01-13 16:35:23.045357	49.3	31.3	-91.3	17.1
2025-01-13 16:35:24.207233	49.0	31.3	-91.1	15.7
2025-01-13 16:35:25.366556	48.6	31.4	-91.4	16.1
2025-01-13 16:35:26.533083	48.2	31.5	-91.6	12.4
2025-01-13 16:35:27.695799	47.8	31.5	-91.6	12.1
2025-01-13 16:35:28.857434	47.4	31.6	-92.5	15.4
2025-01-13 16:35:30.022665	47.0	31.7	-92.5	9.9
2025-01-13 16:35:31.184807	46.6	31.7	-92.4	13.3
2025-01-13 16:35:32.355905	46.3	31.8	-92.4	13.2
2025-01-13 16:35:33.509889	45.9	31.9	-92.1	12.6
2025-01-13 16:35:34.672619	45.5	31.9	-92.0	14.4
2025-01-13 16:35:35.823649	45.1	32.0	-92.6	22.7
2025-01-13 16:35:36.987987	44.7	32.1	-92.5	17.8
2025-01-13 16:35:38.150453	44.3	32.1	-92.3	15.1
2025-01-13 16:35:39.310938	43.9	32.2	-92.2	8.3
2025-01-13 16:35:40.472006	43.5	32.2	-92.5	16.5
2025-01-13 16:35:41.639532	43.1	32.3	-92.9	15.3
2025-01-13 16:35:42.793179	42.7	32.3	-93.0	15.4
2025-01-13 16:35:43.960944	42.3	32.4	-92.9	13.6
2025-01-13 16:35:45.119753	41.9	32.4	-92.5	11.5
2025-01-13 16:35:46.281641	41.5	32.5	-92.3	17.1
2025-01-13 16:35:47.441070	41.0	32.5	-92.7	14.1
2025-01-13 16:35:48.600134	40.6	32.6	-92.8	8.4
2025-01-13 16:35:49.756026	40.2	32.6	-92.7	15.7
2025-01-13 16:35:50.920060	39.8	32.6	-92.7	8.7
2025-01-13 16:35:52.077276	39.4	32.7	-92.8	7.9
2025-01-13 16:35:53.237531	39.0	32.7	-92.3	14.0
2025-01-13 16:35:54.402873	38.6	32.8	-92.7	10.0
2025-01-13 16:35:55.561594	38.2	32.8	-92.7	11.3
2025-01-13 16:35:56.728218	37.7	32.8	-92.5	18.2
2025-01-13 16:35:57.886893	37.3	32.9	-92.4	17.0
2025-01-13 16:35:59.051747	36.9	32.9	-92.2	12.6
2025-01-13 16:36:00.203296	36.5	32.9	-92.4	15.1
2025-01-13 16:36:01.353243	36.1	32.9	-92.6	17.6
2025-01-13 16:36:02.513335	35.6	33.0	-92.9	13.7
2025-01-13 16:36:03.676137	35.2	33.0	-92.8	12.7
2025-01-13 16:36:04.837793	34.8	33.0	-92.4	14.4
2025-01-13 16:36:06.000232	34.4	33.0	-92.6	16.3
2025-01-13 16:36:07.163374	34.0	33.0	-92.4	15.2
2025-01-13 16:36:08.329598	33.5	33.0	-92.1	18.4
2025-01-13 16:36:09.490302	33.1	33.1	-92.3	13.5
2025-01-13 16:36:10.650944	32.7	33.1	-91.5	14.5
2025-01-13 16:36:11.813651	32.3	33.1	-91.5	18.8
2025-01-13 16:36:12.976131	31.8	33.1	-91.9	12.2
2025-01-13 16:36:14.139824	31.4	33.1	-91.7	13.5
2025-01-13 16:36:15.297305	31.0	33.1	-90.6	13.1
2025-01-13 16:36:16.472755	30.6	33.1	-91.4	11.6
2025-01-13 16:36:17.635985	30.1	33.1	-91.0	9.3
2025-01-13 16:36:18.799641	29.7	33.1	-91.2	11.2
2025-01-13 16:36:19.963965	29.3	33.1	-91.6	7.2
2025-01-13 16:36:21.132806	28.9	33.1	-91.5	8.2
2025-01-13 16:36:22.300418	28.4	33.1	-91.5	13.2
2025-01-13 16:36:23.456709	28.0	33.1	-91.7	7.6
2025-01-13 16:36:24.621117	27.6	33.1	-91.5	9.2
2025-01-13 16:36:25.785181	27.2	33.1	-90.7	13.6
2025-01-13 16:36:26.945176	26.7	33.0	-92.6	9.7
2025-01-13 16:36:28.105687	26.3	33.0	-92.1	9.0
2025-01-13 16:36:29.269239	25.9	33.0	-91.8	13.2
2025-01-13 16:36:30.430715	25.5	33.0	-92.1	7.0
2025-01-13 16:36:31.590974	25.0	33.0	-91.9	8.8
2025-01-13 16:36:32.759980	24.6	32.9	-92.4	13.0
2025-01-13 16:36:33.915949	24.2	32.9	-92.5	13.7
2025-01-13 16:36:35.075516	23.8	32.9	-92.7	12.0
2025-01-13 16:36:36.238040	23.4	32.9	-92.4	12.8
2025-01-13 16:36:37.397928	22.9	32.8	-92.2	16.0
2025-01-13 16:36:38.564347	22.5	32.8	-92.7	6.4
2025-01-13 16:36:39.724735	22.1	32.8	-92.8	8.5
2025-01-13 16:36:40.889372	21.7	32.7	-92.8	16.1
2025-01-13 16:36:42.050368	21.3	32.7	-92.7	8.6
2025-01-13 16:36:43.207314	20.9	32.7	-92.5	8.3
2025-01-13 16:36:44.374037	20.4	32.6	-92.7	17.5
2025-01-13 16:36:45.534462	20.0	32.6	-92.7	12.2
2025-01-13 16:36:46.698562	19.6	32.5	-92.6	11.6
2025-01-13 16:36:47.865239	19.2	32.5	-92.3	12.9
2025-01-13 16:36:49.028888	18.8	32.5	-92.6	12.6
2025-01-13 16:36:50.189795	18.4	32.4	-91.7	9.5
2025-01-13 16:36:51.349214	18.0	32.4	-90.5	11.7
2025-01-13 16:36:52.512119	17.6	32.3	-91.0	10.3
2025-01-13 16:36:53.670215	17.2	32.3	-91.1	5.5
2025-01-13 16:36:54.826737	16.8	32.2	-91.0	15.3
2025-01-13 16:36:55.982863	16.4	32.1	-91.1	7.3
2025-01-13 16:36:57.148821	16.0	32.1	-90.0	10.3
2025-01-13 16:36:58.309423	15.6	32.0	-90.3	13.1
2025-01-13 16:36:59.474441	15.2	32.0	-91.5	11.4
2025-01-13 16:37:00.620985	14.8	31.9	-91.6	11.9
2025-01-13 16:37:01.785095	14.4	31.8	-91.9	13.8
2025-01-13 16:37:02.946294	14.0	31.8	-91.5	10.4
2025-01-13 16:37:04.096421	13.6	31.7	-91.4	11.4
2025-01-13 16:37:05.260497	13.2	31.6	-91.5	11.9
2025-01-13 16:37:06.419489	12.8	31.6	-91.8	14.9
2025-01-13 16:37:07.588524	12.4	31.5	-91.1	11.2
2025-01-13 16:37:08.749559	12.1	31.4	-91.5	8.2
2025-01-13 16:37:09.909232	11.7	31.4	-91.4	7.6
2025-01-13 16:37:11.065902	11.3	31.3	-91.5	9.4
2025-01-13 16:37:12.227145	10.9	31.2	-91.7	13.4
2025-01-13 16:37:13.380970	10.5	31.1	-90.8	14.0
2025-01-13 16:37:14.542609	10.2	31.1	-91.1	14.8
2025-01-13 16:37:15.702705	9.8	31.0	-91.8	16.5
2025-01-13 16:37:16.866178	9.4	30.9	-91.7	14.5
2025-01-13 16:37:18.025749	9.1	30.8	-91.6	13.7
2025-01-13 16:37:19.194478	8.7	30.7	-90.6	8.3
2025-01-13 16:37:20.359211	8.3	30.7	-91.3	15.5
2025-01-13 16:37:21.519619	8.0	30.6	-91.1	8.1
2025-01-13 16:37:22.688358	7.6	30.5	-91.8	13.1
2025-01-13 16:37:23.849008	7.2	30.4	-91.5	10.1
2025-01-13 16:37:25.006964	6.9	30.3	-91.5	12.7
2025-01-13 16:37:26.163513	6.5	30.2	-90.9	10.7
2025-01-13 16:37:27.321783	6.2	30.1	-90.7	12.0
2025-01-13 16:37:28.479728	5.8	30.1	-91.3	10.8
2025-01-13 16:37:29.645100	5.5	30.0	-91.9	11.7
2025-01-13 16:37:30.814996	5.1	29.9	-92.0	12.5
2025-01-13 16:37:31.982894	4.8	29.8	-91.4	12.5
2025-01-13 16:37:33.150272	4.4	29.7	-90.4	7.4
2025-01-13 16:37:34.312813	4.1	29.6	-90.7	14.1
2025-01-13 16:37:35.474229	3.7	29.5	-92.7	9.8
2025-01-13 16:37:36.643301	3.4	29.4	-91.7	7.8
2025-01-13 16:37:37.802091	3.0	29.3	-91.8	6.8
2025-01-13 16:37:38.970283	2.7	29.2	-91.6	8.4
2025-01-13 16:37:40.146436	2.4	29.1	-91.2	7.6
2025-01-13 16:37:41.305793	2.0	29.0	-90.4	9.9
2025-01-13 16:37:42.464849	1.7	28.9	-91.5	7.6
2025-01-13 16:37:43.622325	1.4	28.8	-91.7	7.4
2025-01-13 16:37:44.790538	1.1	28.7	-91.6	9.6
2025-01-13 16:37:45.955506	0.7	28.6	-91.7	6.3
2025-01-13 16:37:47.118831	0.4	28.5	-91.7	3.4
2025-01-13 16:37:48.287122	0.1	28.4	-91.4	8.3
2025-01-13 16:37:49.449087	359.8	28.3	-91.1	6.4
2025-01-13 16:37:50.616672	359.5	28.2	-91.6	7.2
2025-01-13 16:37:51.773920	359.2	28.1	-91.7	9.6
2025-01-13 16:37:52.938924	358.8	28.0	-91.8	7.8
2025-01-13 16:37:54.094213	358.5	27.9	-91.8	6.1
2025-01-13 16:37:55.255540	358.2	27.8	-91.5	4.2
2025-01-13 16:37:56.423064	357.9	27.6	-91.8	6.2
2025-01-13 16:37:57.587845	357.6	27.5	-91.3	7.0
2025-01-13 16:37:58.750248	357.3	27.4	-92.0	9.2
2025-01-13 16:37:59.908631	357.0	27.3	-91.8	6.9
2025-01-13 16:38:01.056272	356.7	27.2	-91.3	6.3
2025-01-13 16:38:02.206806	356.4	27.1	-90.9	6.8
2025-01-13 16:38:03.369868	356.1	27.0	-91.0	6.1
2025-01-13 16:38:04.531421	355.9	26.9	-91.6	6.4
2025-01-13 16:38:05.692894	355.6	26.8	-91.1	7.8
2025-01-13 16:38:06.853245	355.3	26.7	-91.4	13.3
2025-01-13 16:38:08.018449	355.0	26.6	-91.5	6.7
2025-01-13 16:38:09.176456	354.7	26.4	-91.6	9.5
2025-01-13 16:38:10.339887	354.4	26.3	-90.9	13.5
2025-01-13 16:38:11.503640	354.2	26.2	-91.0	12.9
2025-01-13 16:38:12.665793	353.9	26.1	-92.6	12.2
2025-01-13 16:38:13.826335	353.6	26.0	-91.2	12.2
2025-01-13 16:38:14.998378	353.3	25.9	-91.4	12.4
2025-01-13 16:38:16.155411	353.1	25.8	-90.8	14.1
2025-01-13 16:38:17.310891	352.8	25.7	-90.2	16.2
2025-01-13 16:38:18.471710	352.5	25.5	-91.0	6.9
2025-01-13 16:38:19.634143	352.3	25.4	-90.9	10.6
2025-01-13 16:38:20.791985	352.0	25.3	-91.1	14.0
2025-01-13 16:38:21.959153	351.7	25.2	-91.1	7.1
2025-01-13 16:38:23.123570	351.5	25.1	-91.2	7.2
2025-01-13 16:38:24.282613	351.2	25.0	-91.3	11.7
2025-01-13 16:38:25.444003	351.0	24.9	-91.1	6.4
2025-01-13 16:38:26.605054	350.7	24.7	-90.7	9.9
2025-01-13 16:38:27.772504	350.5	24.6	-91.6	10.4
2025-01-13 16:38:28.931744	350.2	24.5	-91.1	5.5
2025-01-13 16:38:30.096565	350.0	24.4	-91.3	9.4
2025-01-13 16:38:31.252402	349.7	24.3	-91.4	10.9
2025-01-13 16:38:32.411624	349.5	24.2	-91.6	11.6
2025-01-13 16:38:33.569598	349.2	24.0	-91.5	9.6
2025-01-13 16:38:34.729228	349.0	23.9	-90.9	7.4
2025-01-13 16:38:35.890764	348.8	23.8	-92.3	15.8
2025-01-13 16:38:37.058167	348.5	23.7	-92.0	14.0
2025-01-13 16:38:38.219442	348.3	23.6	-92.0	10.8
2025-01-13 16:38:39.386345	348.1	23.5	-92.4	10.1
2025-01-13 16:38:40.543707	347.8	23.4	-92.6	13.6
2025-01-13 16:38:41.700815	347.6	23.2	-92.3	10.9
2025-01-13 16:38:42.865216	347.4	23.1	-90.8	12.7
2025-01-13 16:38:44.025294	347.1	23.0	-90.8	7.6
2025-01-13 16:38:45.190378	346.9	22.9	-91.2	10.9
2025-01-13 16:38:46.353743	346.7	22.8	-90.7	6.6
2025-01-13 16:38:47.514581	346.5	22.7	-91.7	5.9
2025-01-13 16:38:48.683049	346.2	22.5	-91.4	5.7
2025-01-13 16:38:49.836741	346.0	22.4	-90.9	5.4
2025-01-13 16:38:51.002792	345.8	22.3	-91.3	6.7
2025-01-13 16:38:52.165686	345.6	22.2	-90.6	6.7
2025-01-13 16:38:53.323248	345.4	22.1	-91.3	5.4
2025-01-13 16:38:54.485466	345.2	22.0	-91.4	7.6
2025-01-13 16:38:55.644553	345.0	21.9	-91.0	6.9
2025-01-13 16:38:56.808083	344.8	21.7	-90.9	13.5
2025-01-13 16:38:57.972118	344.5	21.6	-90.7	11.3
2025-01-13 16:38:59.135144	344.3	21.5	-90.8	6.4
2025-01-13 16:39:00.290129	344.1	21.4	-90.5	7.9
2025-01-13 16:39:01.425177	343.9	21.3	-90.4	6.4
2025-01-13 16:39:02.585205	343.7	21.2	-91.3	5.8
2025-01-13 16:39:03.745279	343.5	21.1	-91.2	8.0
2025-01-13 16:39:04.908639	343.3	20.9	-92.5	10.7
2025-01-13 16:39:06.072660	343.1	20.8	-90.6	9.1
2025-01-13 16:39:07.239010	343.0	20.7	-90.5	6.3
2025-01-13 16:39:08.400952	342.8	20.6	-90.7	5.4
2025-01-13 16:39:09.558472	342.6	20.5	-91.3	5.4
2025-01-13 16:39:10.723492	342.4	20.4	-91.0	10.3
2025-01-13 16:39:11.885735	342.2	20.3	-91.3	5.9
2025-01-13 16:39:13.051835	342.0	20.1	-90.8	5.2
2025-01-13 16:39:14.210224	341.8	20.0	-90.3	6.6
2025-01-13 16:39:15.375918	341.6	19.9	-90.6	3.9
2025-01-13 16:39:16.534808	341.4	19.8	-90.9	4.7
2025-01-13 16:39:17.697166	341.3	19.7	-91.1	6.0
2025-01-13 16:39:18.853947	341.1	19.6	-91.3	4.5
2025-01-13 16:39:20.015691	340.9	19.5	-91.4	3.6
2025-01-13 16:39:21.174563	340.7	19.4	-90.3	3.6
2025-01-13 16:39:22.343887	340.5	19.2	-92.1	5.0
2025-01-13 16:39:23.509315	340.4	19.1	-92.5	4.0
2025-01-13 16:39:24.668846	340.2	19.0	-92.2	6.9
2025-01-13 16:39:25.842258	340.0	18.9	-92.6	4.8
2025-01-13 16:39:27.003910	339.8	18.8	-92.3	4.4
2025-01-13 16:39:28.171249	339.7	18.7	-92.2	3.0
2025-01-13 16:39:29.336232	339.5	18.6	-91.9	5.3
2025-01-13 16:39:30.494553	339.3	18.5	-92.4	4.1
2025-01-13 16:39:31.658481	339.2	18.4	-92.5	4.9
2025-01-13 16:39:32.819684	339.0	18.2	-92.8	7.3
2025-01-13 16:39:33.977790	338.8	18.1	-92.8	4.9
2025-01-13 16:39:35.140274	338.7	18.0	-92.2	5.2
2025-01-13 16:39:36.308614	338.5	17.9	-92.2	7.0
2025-01-13 16:39:37.470155	338.3	17.8	-92.4	3.6
2025-01-13 16:39:38.634817	338.2	17.7	-92.5	3.8
2025-01-13 16:39:39.795216	338.0	17.6	-92.3	6.2
2025-01-13 16:39:40.949896	337.9	17.5	-92.6	4.5
2025-01-13 16:39:42.112167	337.7	17.4	-92.3	3.5
2025-01-13 16:39:43.271007	337.6	17.3	-92.1	4.5
2025-01-13 16:39:44.432264	337.4	17.2	-92.2	5.1
2025-01-13 16:39:45.596358	337.3	17.1	-92.0	2.8
2025-01-13 16:39:46.759591	337.1	16.9	-92.4	2.1
2025-01-13 16:39:47.919217	337.0	16.8	-92.6	2.9
2025-01-13 16:39:49.090516	336.8	16.7	-92.5	5.5
2025-01-13 16:39:50.251208	336.7	16.6	-92.4	3.7
2025-01-13 16:39:51.414951	336.5	16.5	-92.6	5.0
2025-01-13 16:39:52.573058	336.4	16.4	-92.6	3.6
2025-01-13 16:39:53.738538	336.2	16.3	-92.5	6.0
2025-01-13 16:39:54.892571	336.1	16.2	-92.7	3.3
2025-01-13 16:39:56.047463	335.9	16.1	-92.5	4.6
2025-01-13 16:39:57.210325	335.8	16.0	-92.6	6.9
2025-01-13 16:39:58.378504	335.6	15.9	-92.1	5.8
2025-01-13 16:39:59.545364	335.5	15.8	-92.1	4.9
2025-01-13 16:40:00.683499	335.4	15.7	-92.5	4.2
2025-01-13 16:40:01.841390	335.2	15.6	-92.6	3.6
2025-01-13 16:40:03.001867	335.1	15.5	-92.7	3.6
2025-01-13 16:40:04.157798	334.9	15.4	-92.4	4.0
2025-01-13 16:40:05.317884	334.8	15.3	-92.0	4.7
2025-01-13 16:40:06.482184	334.7	15.2	-92.7	4.7
2025-01-13 16:40:07.643725	334.5	15.1	-92.8	5.3
2025-01-13 16:40:08.805174	334.4	15.0	-93.1	5.7
2025-01-13 16:40:09.969521	334.3	14.9	-93.1	4.5
2025-01-13 16:40:11.128677	334.1	14.8	-92.6	2.9
2025-01-13 16:40:12.291597	334.0	14.7	-91.0	4.8
2025-01-13 16:40:13.443236	333.9	14.6	-91.3	4.7
#Closed at: 2025-01-13 16:32:30.820697