passes_logs/2025/01/13/LEX_Murmansk/LEX_Murmansk__20250113_131359_NOAA_18_rec.log

#Pass ID: 20250113_131359_NOAA 18
#Satellite: NOAA 18
#Configuration: NOAA 18
#Start time: 2025-01-13 13:13:54.389680

#LorettStation: 1.0.0 05.05.2024
#Station: LEX_Murmansk
#Location: 33.156738 lon 68.926811 lat
#TLE: 1 28654U 05018A   25013.18075893  .00000305  00000+0  18557-3 0  9997
#TLE: 2 28654  98.8571  94.2532 0014276 184.2703 175.8350 14.13484936 12921

#Time	Az	El	Level	SNR
2025-01-13 13:14:06.579213	27.7	16.0	-90.8	4.1
2025-01-13 13:14:07.750289	27.5	16.1	-91.3	4.5
2025-01-13 13:14:08.907987	27.4	16.1	-91.0	5.7
2025-01-13 13:14:10.067701	27.2	16.2	-90.7	3.8
2025-01-13 13:14:11.224253	27.0	16.3	-90.4	7.9
2025-01-13 13:14:12.385716	26.8	16.4	-90.8	7.4
2025-01-13 13:14:13.544993	26.7	16.5	-91.0	5.9
2025-01-13 13:14:14.709702	26.5	16.6	-90.9	9.2
2025-01-13 13:14:15.870248	26.3	16.7	-91.0	8.2
2025-01-13 13:14:17.028771	26.1	16.8	-90.9	5.8
2025-01-13 13:14:18.189821	26.0	16.9	-90.7	7.1
2025-01-13 13:14:19.352857	25.8	17.0	-90.7	8.8
2025-01-13 13:14:20.512111	25.6	17.1	-90.7	5.3
2025-01-13 13:14:21.676780	25.4	17.2	-90.7	4.4
2025-01-13 13:14:22.839089	25.2	17.3	-90.7	3.5
2025-01-13 13:14:23.994063	25.0	17.3	-91.0	4.9
2025-01-13 13:14:25.155217	24.9	17.4	-90.8	7.0
2025-01-13 13:14:26.312019	24.7	17.5	-90.7	8.4
2025-01-13 13:14:27.473163	24.5	17.6	-90.8	6.9
2025-01-13 13:14:28.639461	24.3	17.7	-90.9	9.1
2025-01-13 13:14:29.798791	24.1	17.8	-90.7	9.5
2025-01-13 13:14:30.963733	23.9	17.9	-90.8	8.5
2025-01-13 13:14:32.127879	23.7	18.0	-90.8	8.9
2025-01-13 13:14:33.286606	23.5	18.1	-90.7	12.0
2025-01-13 13:14:34.454519	23.3	18.2	-90.8	11.2
2025-01-13 13:14:35.621554	23.1	18.3	-90.9	11.4
2025-01-13 13:14:36.780761	22.9	18.4	-91.0	8.9
2025-01-13 13:14:37.944594	22.7	18.5	-90.9	12.2
2025-01-13 13:14:39.107912	22.5	18.6	-90.7	8.6
2025-01-13 13:14:40.275894	22.3	18.6	-90.7	7.9
2025-01-13 13:14:41.437995	22.1	18.7	-91.0	7.8
2025-01-13 13:14:42.599919	21.9	18.8	-91.3	4.7
2025-01-13 13:14:43.760036	21.7	18.9	-91.3	8.1
2025-01-13 13:14:44.918026	21.5	19.0	-90.8	4.5
2025-01-13 13:14:46.081010	21.3	19.1	-91.1	7.6
2025-01-13 13:14:47.244951	21.1	19.2	-90.9	11.0
2025-01-13 13:14:48.409486	20.8	19.3	-90.7	13.3
2025-01-13 13:14:49.573358	20.6	19.4	-90.9	11.6
2025-01-13 13:14:50.734654	20.4	19.5	-91.0	13.6
2025-01-13 13:14:51.899644	20.2	19.6	-91.1	11.6
2025-01-13 13:14:53.066459	20.0	19.7	-90.9	8.9
2025-01-13 13:14:54.229726	19.8	19.8	-91.0	11.9
2025-01-13 13:14:55.399506	19.5	19.8	-91.1	10.1
2025-01-13 13:14:56.563736	19.3	19.9	-91.1	9.6
2025-01-13 13:14:57.724082	19.1	20.0	-91.0	10.6
2025-01-13 13:14:58.883673	18.9	20.1	-90.4	9.5
2025-01-13 13:15:00.046410	18.7	20.2	-90.3	9.6
2025-01-13 13:15:01.192971	18.4	20.3	-90.8	9.7
2025-01-13 13:15:02.351830	18.2	20.4	-90.7	8.9
2025-01-13 13:15:03.513223	18.0	20.5	-91.2	5.4
2025-01-13 13:15:04.675916	17.7	20.6	-91.1	9.0
2025-01-13 13:15:05.837279	17.5	20.7	-90.9	9.2
2025-01-13 13:15:07.002905	17.3	20.8	-91.1	5.1
2025-01-13 13:15:08.163511	17.0	20.8	-90.8	8.3
2025-01-13 13:15:09.326018	16.8	20.9	-90.8	8.7
2025-01-13 13:15:10.487684	16.6	21.0	-90.8	7.5
2025-01-13 13:15:11.652136	16.3	21.1	-90.9	9.4
2025-01-13 13:15:12.809438	16.1	21.2	-90.5	8.7
2025-01-13 13:15:13.972217	15.8	21.3	-91.0	5.2
2025-01-13 13:15:15.131810	15.6	21.4	-91.0	9.0
2025-01-13 13:15:16.300177	15.4	21.5	-91.1	6.6
2025-01-13 13:15:17.459109	15.1	21.6	-91.3	6.0
2025-01-13 13:15:18.622350	14.9	21.6	-91.5	7.1
2025-01-13 13:15:19.782119	14.6	21.7	-91.2	9.4
2025-01-13 13:15:20.949071	14.4	21.8	-90.9	7.9
2025-01-13 13:15:22.108184	14.1	21.9	-91.1	8.3
2025-01-13 13:15:23.267674	13.9	22.0	-91.0	12.3
2025-01-13 13:15:24.426986	13.6	22.1	-91.2	10.6
2025-01-13 13:15:25.593746	13.4	22.2	-91.1	8.5
2025-01-13 13:15:26.755185	13.1	22.3	-90.9	10.9
2025-01-13 13:15:27.923656	12.8	22.3	-91.0	9.8
2025-01-13 13:15:29.083124	12.6	22.4	-90.6	7.5
2025-01-13 13:15:30.242936	12.3	22.5	-90.9	13.3
2025-01-13 13:15:31.404355	12.0	22.6	-91.3	8.2
2025-01-13 13:15:32.564370	11.8	22.7	-91.3	9.3
2025-01-13 13:15:33.725359	11.5	22.8	-90.8	11.1
2025-01-13 13:15:34.883753	11.3	22.8	-90.8	12.2
2025-01-13 13:15:36.046935	11.0	22.9	-91.3	14.0
2025-01-13 13:15:37.204440	10.7	23.0	-91.1	15.2
2025-01-13 13:15:38.376902	10.4	23.1	-90.9	15.2
2025-01-13 13:15:39.534196	10.2	23.2	-91.1	13.0
2025-01-13 13:15:40.698595	9.9	23.3	-91.0	14.8
2025-01-13 13:15:41.857985	9.6	23.3	-91.1	15.5
2025-01-13 13:15:43.019162	9.3	23.4	-91.0	8.7
2025-01-13 13:15:44.181534	9.1	23.5	-90.7	12.3
2025-01-13 13:15:45.338663	8.8	23.6	-90.6	10.7
2025-01-13 13:15:46.502393	8.5	23.7	-91.0	12.2
2025-01-13 13:15:47.666127	8.2	23.7	-91.0	10.0
2025-01-13 13:15:48.828457	7.9	23.8	-90.9	13.7
2025-01-13 13:15:49.991548	7.6	23.9	-91.1	12.3
2025-01-13 13:15:51.154668	7.4	24.0	-91.0	12.1
2025-01-13 13:15:52.309394	7.1	24.0	-91.1	12.1
2025-01-13 13:15:53.471958	6.8	24.1	-91.3	10.7
2025-01-13 13:15:54.629632	6.5	24.2	-91.2	7.8
2025-01-13 13:15:55.802921	6.2	24.3	-91.0	10.8
2025-01-13 13:15:56.963124	5.9	24.3	-91.1	4.7
2025-01-13 13:15:58.125545	5.6	24.4	-90.7	6.8
2025-01-13 13:15:59.290977	5.3	24.5	-90.8	10.3
2025-01-13 13:16:00.443317	5.0	24.6	-90.9	7.2
2025-01-13 13:16:01.605790	4.7	24.6	-90.9	11.0
2025-01-13 13:16:02.765007	4.4	24.7	-90.9	12.7
2025-01-13 13:16:03.931192	4.1	24.8	-91.0	12.3
2025-01-13 13:16:05.095741	3.8	24.8	-90.7	13.2
2025-01-13 13:16:06.265265	3.5	24.9	-90.8	11.1
2025-01-13 13:16:07.428139	3.2	25.0	-91.3	11.2
2025-01-13 13:16:08.587557	2.9	25.0	-91.3	12.1
2025-01-13 13:16:09.751050	2.6	25.1	-91.1	12.7
2025-01-13 13:16:10.909838	2.2	25.2	-91.2	10.0
2025-01-13 13:16:12.069529	1.9	25.2	-90.7	8.6
2025-01-13 13:16:13.218828	1.6	25.3	-90.9	10.2
2025-01-13 13:16:14.383889	1.3	25.4	-90.8	12.4
2025-01-13 13:16:15.538192	1.0	25.4	-91.3	9.6
2025-01-13 13:16:16.700046	0.7	25.5	-91.1	12.3
2025-01-13 13:16:17.859795	0.4	25.5	-90.9	13.9
2025-01-13 13:16:19.025284	0.0	25.6	-91.0	11.0
2025-01-13 13:16:20.188158	359.7	25.7	-90.8	13.9
2025-01-13 13:16:21.354660	359.4	25.7	-90.6	11.9
2025-01-13 13:16:22.511034	359.1	25.8	-91.0	10.2
2025-01-13 13:16:23.669364	358.8	25.8	-90.8	10.2
2025-01-13 13:16:24.834095	358.4	25.9	-90.2	10.0
2025-01-13 13:16:25.996296	358.1	25.9	-90.2	7.1
2025-01-13 13:16:27.156996	357.8	26.0	-90.0	7.2
2025-01-13 13:16:28.311984	357.4	26.0	-90.3	11.2
2025-01-13 13:16:29.475593	357.1	26.1	-89.9	6.0
2025-01-13 13:16:30.636271	356.8	26.1	-89.7	5.4
2025-01-13 13:16:31.802182	356.5	26.2	-91.1	12.8
2025-01-13 13:16:32.961578	356.1	26.2	-91.2	6.5
2025-01-13 13:16:34.127184	355.8	26.3	-91.2	6.9
2025-01-13 13:16:35.289489	355.4	26.3	-90.9	10.9
2025-01-13 13:16:36.454340	355.1	26.4	-91.2	8.1
2025-01-13 13:16:37.615574	354.8	26.4	-91.0	9.8
2025-01-13 13:16:38.778931	354.4	26.5	-89.8	12.3
2025-01-13 13:16:39.945545	354.1	26.5	-90.2	9.8
2025-01-13 13:16:41.106175	353.8	26.5	-89.8	11.2
2025-01-13 13:16:42.271802	353.4	26.6	-90.2	8.6
2025-01-13 13:16:43.423035	353.1	26.6	-89.8	11.1
2025-01-13 13:16:44.582626	352.7	26.7	-90.1	8.9
2025-01-13 13:16:45.738750	352.4	26.7	-90.0	7.9
2025-01-13 13:16:46.905579	352.0	26.7	-90.1	5.9
2025-01-13 13:16:48.063369	351.7	26.8	-90.2	5.9
2025-01-13 13:16:49.227311	351.4	26.8	-90.3	9.7
2025-01-13 13:16:50.390355	351.0	26.8	-88.5	7.6
2025-01-13 13:16:51.553116	350.7	26.9	-90.2	6.1
2025-01-13 13:16:52.716437	350.3	26.9	-90.5	5.3
2025-01-13 13:16:53.876351	350.0	26.9	-90.6	7.7
2025-01-13 13:16:55.046084	349.6	27.0	-91.1	7.8
2025-01-13 13:16:56.206993	349.3	27.0	-91.1	8.8
2025-01-13 13:16:57.372038	348.9	27.0	-90.8	8.2
2025-01-13 13:16:58.534625	348.6	27.0	-90.3	5.4
2025-01-13 13:16:59.694983	348.2	27.1	-90.6	9.1
2025-01-13 13:17:00.842925	347.9	27.1	-90.3	8.7
2025-01-13 13:17:02.007522	347.5	27.1	-89.9	8.8
2025-01-13 13:17:03.160818	347.2	27.1	-89.9	7.7
2025-01-13 13:17:04.325817	346.8	27.1	-89.9	6.3
2025-01-13 13:17:05.492026	346.5	27.2	-90.5	7.0
2025-01-13 13:17:06.652531	346.1	27.2	-90.4	9.2
2025-01-13 13:17:07.815438	345.7	27.2	-89.9	10.3
2025-01-13 13:17:08.976762	345.4	27.2	-90.4	9.4
2025-01-13 13:17:10.145010	345.0	27.2	-91.2	12.2
2025-01-13 13:17:11.306855	344.7	27.2	-91.2	13.9
2025-01-13 13:17:12.467670	344.3	27.2	-91.4	9.7
2025-01-13 13:17:13.625882	344.0	27.2	-91.3	8.2
2025-01-13 13:17:14.787017	343.6	27.3	-91.4	12.7
2025-01-13 13:17:15.951599	343.3	27.3	-91.0	8.0
2025-01-13 13:17:17.118098	342.9	27.3	-91.0	6.7
2025-01-13 13:17:18.281620	342.5	27.3	-90.7	8.6
2025-01-13 13:17:19.447450	342.2	27.3	-90.5	6.1
2025-01-13 13:17:20.616652	341.8	27.3	-90.4	3.3
2025-01-13 13:17:21.775200	341.5	27.3	-90.6	5.3
2025-01-13 13:17:22.932993	341.1	27.3	-90.7	4.8
2025-01-13 13:17:24.088539	340.8	27.3	-90.3	4.8
2025-01-13 13:17:25.253642	340.4	27.3	-90.0	6.4
2025-01-13 13:17:26.416091	340.0	27.3	-90.1	5.8
2025-01-13 13:17:27.581954	339.7	27.3	-90.0	4.8
2025-01-13 13:17:28.741019	339.3	27.2	-90.4	7.3
2025-01-13 13:17:29.899727	339.0	27.2	-90.7	5.9
2025-01-13 13:17:31.060402	338.6	27.2	-91.2	7.0
2025-01-13 13:17:32.226970	338.3	27.2	-90.9	5.7
2025-01-13 13:17:33.379254	337.9	27.2	-91.1	10.5
2025-01-13 13:17:34.541365	337.6	27.2	-89.7	6.5
2025-01-13 13:17:35.702114	337.2	27.2	-90.4	5.3
2025-01-13 13:17:36.863278	336.9	27.2	-89.9	10.3
2025-01-13 13:17:38.026601	336.5	27.1	-90.2	9.4
2025-01-13 13:17:39.189795	336.1	27.1	-90.1	8.5
2025-01-13 13:17:40.354817	335.8	27.1	-89.8	8.7
2025-01-13 13:17:41.511839	335.4	27.1	-90.0	8.0
2025-01-13 13:17:42.666462	335.1	27.1	-90.0	7.0
2025-01-13 13:17:43.821655	334.7	27.0	-90.2	8.4
2025-01-13 13:17:44.970061	334.4	27.0	-90.4	11.5
2025-01-13 13:17:46.130548	334.0	27.0	-90.7	12.3
2025-01-13 13:17:47.292033	333.7	27.0	-90.5	9.7
2025-01-13 13:17:48.449843	333.3	26.9	-91.0	9.6
2025-01-13 13:17:49.613083	333.0	26.9	-91.1	10.1
2025-01-13 13:17:50.777106	332.6	26.9	-91.3	8.4
2025-01-13 13:17:51.935670	332.3	26.8	-91.2	5.9
2025-01-13 13:17:53.092704	332.0	26.8	-91.1	8.0
2025-01-13 13:17:54.251732	331.6	26.8	-91.0	6.3
2025-01-13 13:17:55.413279	331.3	26.7	-91.2	9.8
2025-01-13 13:17:56.576460	330.9	26.7	-91.4	9.4
2025-01-13 13:17:57.736597	330.6	26.7	-91.1	13.1
2025-01-13 13:17:58.902747	330.2	26.6	-91.5	8.4
2025-01-13 13:18:00.061958	329.9	26.6	-90.8	7.1
2025-01-13 13:18:01.204654	329.5	26.6	-89.9	10.3
2025-01-13 13:18:02.362741	329.2	26.5	-89.9	8.2
2025-01-13 13:18:03.525366	328.9	26.5	-90.4	10.8
2025-01-13 13:18:04.686311	328.5	26.4	-90.5	9.6
2025-01-13 13:18:05.850094	328.2	26.4	-90.6	11.2
2025-01-13 13:18:07.016534	327.9	26.3	-89.9	10.5
2025-01-13 13:18:08.169794	327.5	26.3	-90.3	9.6
2025-01-13 13:18:09.332848	327.2	26.2	-90.6	10.5
2025-01-13 13:18:10.487344	326.9	26.2	-90.1	11.9
2025-01-13 13:18:11.653646	326.5	26.2	-89.8	8.0
2025-01-13 13:18:12.816934	326.2	26.1	-89.9	10.1
2025-01-13 13:18:13.974456	325.9	26.1	-90.7	8.8
2025-01-13 13:18:15.126900	325.5	26.0	-89.9	11.5
2025-01-13 13:18:16.286524	325.2	25.9	-89.7	9.1
2025-01-13 13:18:17.446413	324.9	25.9	-90.6	7.5
2025-01-13 13:18:18.608083	324.5	25.8	-90.5	9.3
2025-01-13 13:18:19.767779	324.2	25.8	-90.6	13.2
2025-01-13 13:18:20.931496	323.9	25.7	-90.7	11.4
2025-01-13 13:18:22.090668	323.6	25.7	-91.3	12.5
2025-01-13 13:18:23.247641	323.3	25.6	-91.3	11.0
2025-01-13 13:18:24.405360	322.9	25.5	-91.6	9.5
2025-01-13 13:18:25.568538	322.6	25.5	-90.7	8.2
2025-01-13 13:18:26.728790	322.3	25.4	-90.8	8.7
2025-01-13 13:18:27.901335	322.0	25.4	-90.3	7.8
2025-01-13 13:18:29.060096	321.7	25.3	-90.3	7.8
2025-01-13 13:18:30.226466	321.3	25.2	-90.4	10.8
2025-01-13 13:18:31.392550	321.0	25.2	-89.9	9.8
2025-01-13 13:18:32.555572	320.7	25.1	-90.0	11.3
2025-01-13 13:18:33.711746	320.4	25.0	-90.8	13.3
2025-01-13 13:18:34.873056	320.1	25.0	-90.7	12.7
2025-01-13 13:18:36.039711	319.8	24.9	-90.8	12.0
2025-01-13 13:18:37.202383	319.5	24.8	-90.2	12.3
2025-01-13 13:18:38.366600	319.2	24.8	-90.6	10.6
2025-01-13 13:18:39.532220	318.9	24.7	-90.5	11.4
2025-01-13 13:18:40.689457	318.6	24.6	-90.5	9.3
2025-01-13 13:18:41.850594	318.3	24.6	-90.4	12.2
2025-01-13 13:18:43.008909	318.0	24.5	-90.6	10.3
2025-01-13 13:18:44.169418	317.7	24.4	-90.6	11.1
2025-01-13 13:18:45.327551	317.4	24.3	-90.2	12.1
2025-01-13 13:18:46.483833	317.1	24.3	-90.7	7.5
2025-01-13 13:18:47.642416	316.8	24.2	-91.4	13.9
2025-01-13 13:18:48.807633	316.5	24.1	-91.5	15.5
2025-01-13 13:18:49.970583	316.2	24.0	-91.4	13.0
2025-01-13 13:18:51.133157	315.9	24.0	-91.2	10.9
2025-01-13 13:18:52.296758	315.6	23.9	-91.2	13.0
2025-01-13 13:18:53.459767	315.3	23.8	-91.3	9.4
2025-01-13 13:18:54.627927	315.0	23.7	-91.4	7.6
2025-01-13 13:18:55.788699	314.8	23.7	-90.8	11.4
2025-01-13 13:18:56.958612	314.5	23.6	-90.4	9.0
2025-01-13 13:18:58.114587	314.2	23.5	-90.2	8.0
2025-01-13 13:18:59.271356	313.9	23.4	-90.2	10.2
2025-01-13 13:19:00.421129	313.6	23.3	-90.8	7.2
2025-01-13 13:19:01.582181	313.4	23.3	-91.4	7.6
2025-01-13 13:19:02.743471	313.1	23.2	-91.4	10.4
2025-01-13 13:19:03.899652	312.8	23.1	-91.3	8.6
2025-01-13 13:19:05.060739	312.5	23.0	-91.5	8.4
2025-01-13 13:19:06.223516	312.3	22.9	-90.6	7.1
2025-01-13 13:19:07.385528	312.0	22.9	-90.6	11.8
2025-01-13 13:19:08.546254	311.7	22.8	-90.6	8.7
2025-01-13 13:19:09.714209	311.4	22.7	-90.7	7.3
2025-01-13 13:19:10.878443	311.2	22.6	-90.6	12.3
2025-01-13 13:19:12.038500	310.9	22.5	-90.3	7.4
2025-01-13 13:19:13.196207	310.7	22.4	-90.3	9.5
2025-01-13 13:19:14.359176	310.4	22.3	-89.9	9.2
2025-01-13 13:19:15.522382	310.1	22.3	-90.0	7.1
2025-01-13 13:19:16.693005	309.9	22.2	-91.4	7.9
2025-01-13 13:19:17.855495	309.6	22.1	-91.6	5.9
2025-01-13 13:19:19.020115	309.4	22.0	-91.4	10.6
2025-01-13 13:19:20.187421	309.1	21.9	-90.0	7.0
2025-01-13 13:19:21.344216	308.8	21.8	-90.1	9.7
2025-01-13 13:19:22.501695	308.6	21.7	-90.4	7.1
2025-01-13 13:19:23.661581	308.3	21.6	-90.6	9.9
2025-01-13 13:19:24.818937	308.1	21.6	-88.6	5.1
2025-01-13 13:19:25.981626	307.8	21.5	-88.6	8.3
2025-01-13 13:19:27.149104	307.6	21.4	-88.1	6.5
2025-01-13 13:19:28.311758	307.4	21.3	-87.5	8.7
2025-01-13 13:19:29.477775	307.1	21.2	-88.0	5.5
2025-01-13 13:19:30.639492	306.9	21.1	-87.9	6.3
2025-01-13 13:19:31.798350	306.6	21.0	-89.4	6.4
2025-01-13 13:19:32.956663	306.4	20.9	-88.2	5.3
2025-01-13 13:19:34.115018	306.2	20.8	-87.5	7.9
2025-01-13 13:19:35.273717	305.9	20.8	-87.9	9.7
2025-01-13 13:19:36.440874	305.7	20.7	-88.6	7.0
2025-01-13 13:19:37.602643	305.4	20.6	-88.2	8.5
2025-01-13 13:19:38.755243	305.2	20.5	-89.4	7.9
2025-01-13 13:19:39.919744	305.0	20.4	-89.1	5.4
2025-01-13 13:19:41.075118	304.8	20.3	-89.2	4.9
2025-01-13 13:19:42.239444	304.5	20.2	-89.1	8.6
2025-01-13 13:19:43.400988	304.3	20.1	-89.0	3.8
2025-01-13 13:19:44.557581	304.1	20.0	-89.2	6.9
2025-01-13 13:19:45.721212	303.9	19.9	-88.8	4.3
2025-01-13 13:19:46.875335	303.6	19.8	-89.4	7.9
2025-01-13 13:19:48.023369	303.4	19.7	-89.3	4.0
2025-01-13 13:19:49.187737	303.2	19.7	-89.0	4.6
2025-01-13 13:19:50.346318	303.0	19.6	-89.1	7.0
2025-01-13 13:19:51.510007	302.8	19.5	-89.2	5.5
2025-01-13 13:19:52.673167	302.5	19.4	-88.6	6.7
2025-01-13 13:19:53.831165	302.3	19.3	-88.4	7.2
2025-01-13 13:19:54.992278	302.1	19.2	-89.3	7.7
2025-01-13 13:19:56.152057	301.9	19.1	-88.7	7.2
2025-01-13 13:19:57.309728	301.7	19.0	-89.0	6.4
2025-01-13 13:19:58.476064	301.5	18.9	-89.2	7.4
2025-01-13 13:19:59.636742	301.3	18.8	-89.2	5.2
2025-01-13 13:20:00.783476	301.1	18.7	-89.0	6.8
2025-01-13 13:20:01.935211	300.9	18.6	-88.7	3.6
2025-01-13 13:20:03.094890	300.7	18.5	-88.6	5.9
2025-01-13 13:20:04.254540	300.5	18.4	-89.2	5.6
2025-01-13 13:20:05.415958	300.3	18.4	-89.3	5.7
2025-01-13 13:20:06.577388	300.1	18.3	-89.2	5.3
2025-01-13 13:20:07.741622	299.9	18.2	-89.0	7.2
2025-01-13 13:20:08.905251	299.7	18.1	-88.4	3.8
2025-01-13 13:20:10.064736	299.5	18.0	-88.6	6.3
2025-01-13 13:20:11.232311	299.3	17.9	-88.5	5.8
2025-01-13 13:20:12.387918	299.1	17.8	-88.4	6.4
2025-01-13 13:20:13.550136	298.9	17.7	-88.4	3.8
2025-01-13 13:20:14.707491	298.7	17.6	-88.1	8.8
2025-01-13 13:20:15.869367	298.5	17.5	-88.5	5.4
2025-01-13 13:20:17.027800	298.3	17.4	-89.0	5.8
2025-01-13 13:20:18.187391	298.1	17.3	-88.5	8.3
2025-01-13 13:20:19.346927	297.9	17.2	-88.4	5.4
2025-01-13 13:20:20.511132	297.7	17.1	-88.6	5.7
2025-01-13 13:20:21.666172	297.6	17.0	-88.5	6.2
2025-01-13 13:20:22.831628	297.4	17.0	-88.4	5.2
2025-01-13 13:20:23.988785	297.2	16.9	-88.8	6.7
2025-01-13 13:20:25.146725	297.0	16.8	-89.0	4.6
2025-01-13 13:20:26.306145	296.8	16.7	-88.2	5.2
2025-01-13 13:20:27.466716	296.6	16.6	-88.7	5.5
2025-01-13 13:20:28.626495	296.5	16.5	-88.4	6.1
2025-01-13 13:20:29.789384	296.3	16.4	-88.5	9.4
2025-01-13 13:20:30.947919	296.1	16.3	-88.0	5.1
2025-01-13 13:20:32.111912	295.9	16.2	-88.1	5.3
2025-01-13 13:20:33.270701	295.8	16.1	-87.8	4.1
2025-01-13 13:20:34.422590	295.6	16.0	-88.4	5.2
2025-01-13 13:20:35.586471	295.4	15.9	-88.2	8.5
2025-01-13 13:20:36.746223	295.3	15.8	-89.0	7.3
2025-01-13 13:20:37.909777	295.1	15.7	-88.6	4.8
2025-01-13 13:20:39.067160	294.9	15.7	-88.7	5.3
2025-01-13 13:20:40.225972	294.7	15.6	-89.5	6.3
2025-01-13 13:20:41.390223	294.6	15.5	-89.5	4.2
2025-01-13 13:20:42.567461	294.4	15.4	-89.4	5.6
2025-01-13 13:20:43.733312	294.2	15.3	-88.8	8.1
2025-01-13 13:20:44.892633	294.1	15.2	-87.6	6.4
2025-01-13 13:20:46.051068	293.9	15.1	-88.2	5.4
2025-01-13 13:20:47.214193	293.8	15.0	-87.8	6.5
2025-01-13 13:20:48.379283	293.6	14.9	-89.1	4.5
2025-01-13 13:20:49.537214	293.4	14.8	-89.6	5.9
2025-01-13 13:20:50.700881	293.3	14.7	-88.5	5.7
2025-01-13 13:20:51.860390	293.1	14.6	-88.7	6.2
#Closed at: 2025-01-13 13:13:59.387720