passes_logs/2025/01/13/LEX_Murmansk/LEX_Murmansk__20250113_110749_NOAA_19_rec.log

#Pass ID: 20250113_110749_NOAA 19
#Satellite: NOAA 19
#Configuration: NOAA 19
#Start time: 2025-01-13 11:07:44.449053

#LorettStation: 1.0.0 05.05.2024
#Station: LEX_Murmansk
#Location: 33.156738 lon 68.926811 lat
#TLE: 1 33591U 09005A   25013.16337215  .00000276  00000+0  17136-3 0  9999
#TLE: 2 33591  99.0200  76.9116 0014532  62.4730 297.7917 14.13258019821287

#Time	Az	El	Level	SNR
2025-01-13 11:08:08.809736	22.7	17.3	-91.0	1.9
2025-01-13 11:08:10.085412	22.5	17.4	-90.4	7.2
2025-01-13 11:08:11.251107	22.4	17.5	-90.3	5.9
2025-01-13 11:08:12.407925	22.2	17.6	-90.8	9.7
2025-01-13 11:08:13.572354	22.1	17.7	-90.7	6.0
2025-01-13 11:08:14.734291	21.9	17.8	-90.4	4.7
2025-01-13 11:08:15.901714	21.8	17.9	-90.6	3.5
2025-01-13 11:08:17.065469	21.6	18.1	-90.3	2.1
2025-01-13 11:08:18.225888	21.5	18.2	-90.4	1.7
2025-01-13 11:08:19.392611	21.3	18.3	-90.9	3.7
2025-01-13 11:08:20.555298	21.1	18.4	-90.9	5.1
2025-01-13 11:08:21.719724	21.0	18.5	-91.1	4.2
2025-01-13 11:08:22.883086	20.8	18.6	-90.9	6.5
2025-01-13 11:08:24.048457	20.7	18.7	-90.9	2.3
2025-01-13 11:08:25.210971	20.5	18.9	-90.6	6.7
2025-01-13 11:08:26.371753	20.3	19.0	-90.9	9.1
2025-01-13 11:08:27.532686	20.2	19.1	-91.0	6.2
2025-01-13 11:08:28.697193	20.0	19.2	-90.4	5.1
2025-01-13 11:08:29.862101	19.8	19.3	-90.7	9.3
2025-01-13 11:08:31.030158	19.7	19.4	-90.4	7.3
2025-01-13 11:08:32.188368	19.5	19.6	-90.2	7.3
2025-01-13 11:08:33.347435	19.3	19.7	-90.6	2.9
2025-01-13 11:08:34.510677	19.1	19.8	-90.7	3.0
2025-01-13 11:08:35.673295	19.0	19.9	-91.1	2.9
2025-01-13 11:08:36.841349	18.8	20.0	-90.9	1.8
2025-01-13 11:08:38.001788	18.6	20.1	-90.8	4.7
2025-01-13 11:08:39.165752	18.4	20.3	-90.7	3.8
2025-01-13 11:08:40.320652	18.2	20.4	-91.1	7.4
2025-01-13 11:08:41.479234	18.1	20.5	-91.1	4.0
2025-01-13 11:08:42.639627	17.9	20.6	-91.1	6.6
2025-01-13 11:08:43.803854	17.7	20.7	-91.1	7.3
2025-01-13 11:08:44.972371	17.5	20.9	-91.2	5.8
2025-01-13 11:08:46.142470	17.3	21.0	-90.5	5.8
2025-01-13 11:08:47.301719	17.1	21.1	-91.3	4.9
2025-01-13 11:08:48.463187	16.9	21.2	-91.3	9.9
2025-01-13 11:08:49.643614	16.7	21.3	-91.0	8.4
2025-01-13 11:08:50.800174	16.5	21.5	-91.0	6.0
2025-01-13 11:08:51.961290	16.4	21.6	-91.2	5.5
2025-01-13 11:08:53.121269	16.2	21.7	-91.3	3.1
2025-01-13 11:08:54.292928	16.0	21.8	-91.2	1.7
2025-01-13 11:08:55.458498	15.8	21.9	-91.0	2.2
2025-01-13 11:08:56.620088	15.5	22.1	-91.3	1.9
2025-01-13 11:08:57.778960	15.3	22.2	-91.3	3.3
2025-01-13 11:08:58.934741	15.1	22.3	-91.5	4.3
2025-01-13 11:09:00.103628	14.9	22.4	-90.9	4.6
2025-01-13 11:09:01.276269	14.7	22.6	-90.9	4.3
2025-01-13 11:09:02.438354	14.5	22.7	-91.0	9.8
2025-01-13 11:09:03.599726	14.3	22.8	-91.3	9.1
2025-01-13 11:09:04.763274	14.1	22.9	-90.8	4.6
2025-01-13 11:09:05.922364	13.9	23.1	-90.9	6.7
2025-01-13 11:09:07.087925	13.7	23.2	-90.9	8.1
2025-01-13 11:09:08.247327	13.4	23.3	-91.3	8.5
2025-01-13 11:09:09.412726	13.2	23.4	-91.1	10.6
2025-01-13 11:09:10.568642	13.0	23.5	-91.3	11.8
2025-01-13 11:09:11.729356	12.8	23.7	-91.2	11.6
2025-01-13 11:09:12.893195	12.5	23.8	-91.3	7.0
2025-01-13 11:09:14.058220	12.3	23.9	-91.0	4.4
2025-01-13 11:09:15.222228	12.1	24.0	-90.8	2.8
2025-01-13 11:09:16.388439	11.8	24.2	-91.0	2.0
2025-01-13 11:09:17.550536	11.6	24.3	-91.3	3.9
2025-01-13 11:09:18.710834	11.4	24.4	-91.2	2.8
2025-01-13 11:09:19.870177	11.1	24.5	-91.2	4.0
2025-01-13 11:09:21.033587	10.9	24.7	-91.1	5.0
2025-01-13 11:09:22.193208	10.7	24.8	-91.2	4.7
2025-01-13 11:09:23.357617	10.4	24.9	-91.2	6.0
2025-01-13 11:09:24.521863	10.2	25.0	-91.5	4.9
2025-01-13 11:09:25.682567	9.9	25.2	-91.3	3.3
2025-01-13 11:09:26.843804	9.7	25.3	-91.3	3.2
2025-01-13 11:09:28.008386	9.4	25.4	-91.0	6.3
2025-01-13 11:09:29.170534	9.2	25.5	-91.0	6.1
2025-01-13 11:09:30.337167	8.9	25.7	-90.9	5.6
2025-01-13 11:09:31.497200	8.7	25.8	-90.9	9.8
2025-01-13 11:09:32.659413	8.4	25.9	-90.8	10.8
2025-01-13 11:09:33.825675	8.1	26.0	-91.2	7.9
2025-01-13 11:09:34.984733	7.9	26.1	-91.2	7.1
2025-01-13 11:09:36.146417	7.6	26.3	-91.2	5.9
2025-01-13 11:09:37.321370	7.3	26.4	-90.9	2.4
2025-01-13 11:09:38.462822	7.1	26.5	-91.2	2.4
2025-01-13 11:09:39.612067	6.8	26.6	-91.1	2.7
2025-01-13 11:09:40.765594	6.5	26.8	-91.3	1.3
2025-01-13 11:09:41.909662	6.3	26.9	-91.4	4.0
2025-01-13 11:09:43.048700	6.0	27.0	-91.3	8.0
2025-01-13 11:09:44.205408	5.7	27.1	-91.0	8.5
2025-01-13 11:09:45.358674	5.4	27.2	-91.3	7.9
2025-01-13 11:09:46.523753	5.1	27.4	-91.1	8.0
2025-01-13 11:09:47.685408	4.9	27.5	-90.7	5.8
2025-01-13 11:09:48.839015	4.6	27.6	-90.6	4.1
2025-01-13 11:09:49.996568	4.3	27.7	-90.1	6.6
2025-01-13 11:09:51.163891	4.0	27.9	-90.6	5.7
2025-01-13 11:09:52.313633	3.7	28.0	-90.5	4.1
2025-01-13 11:09:53.471287	3.4	28.1	-90.9	8.9
2025-01-13 11:09:54.630825	3.1	28.2	-90.7	8.1
2025-01-13 11:09:55.793487	2.8	28.3	-91.2	7.6
2025-01-13 11:09:56.953141	2.5	28.4	-91.1	8.0
2025-01-13 11:09:58.119332	2.2	28.6	-90.9	7.9
2025-01-13 11:09:59.274504	1.9	28.7	-90.9	5.0
2025-01-13 11:10:00.429831	1.6	28.8	-91.1	3.9
2025-01-13 11:10:01.577913	1.3	28.9	-91.3	4.4
2025-01-13 11:10:02.740222	0.9	29.0	-91.4	1.9
2025-01-13 11:10:03.903680	0.6	29.2	-91.3	3.8
2025-01-13 11:10:05.067165	0.3	29.3	-91.4	3.6
2025-01-13 11:10:06.228086	360.0	29.4	-91.0	4.1
2025-01-13 11:10:07.392511	359.7	29.5	-91.2	4.4
2025-01-13 11:10:08.555696	359.3	29.6	-91.2	5.1
2025-01-13 11:10:09.720906	359.0	29.7	-91.4	1.7
2025-01-13 11:10:10.885218	358.7	29.8	-91.6	3.7
2025-01-13 11:10:12.038037	358.3	29.9	-91.4	6.2
2025-01-13 11:10:13.191805	358.0	30.1	-90.9	5.9
2025-01-13 11:10:14.356188	357.7	30.2	-91.2	3.9
2025-01-13 11:10:15.523776	357.3	30.3	-91.4	5.7
2025-01-13 11:10:16.683682	357.0	30.4	-91.3	4.7
2025-01-13 11:10:17.848748	356.6	30.5	-91.3	1.8
2025-01-13 11:10:19.004109	356.3	30.6	-91.2	3.5
2025-01-13 11:10:20.172085	355.9	30.7	-91.0	8.0
2025-01-13 11:10:21.337342	355.6	30.8	-91.2	5.1
2025-01-13 11:10:22.495547	355.2	30.9	-91.2	7.3
2025-01-13 11:10:23.662807	354.9	31.0	-91.2	6.4
2025-01-13 11:10:24.823895	354.5	31.1	-90.9	7.5
2025-01-13 11:10:25.986272	354.1	31.2	-91.1	3.6
2025-01-13 11:10:27.150401	353.8	31.3	-91.2	3.4
2025-01-13 11:10:28.317642	353.4	31.4	-91.1	2.8
2025-01-13 11:10:29.480705	353.0	31.5	-91.5	4.3
2025-01-13 11:10:30.641052	352.7	31.6	-91.3	2.2
2025-01-13 11:10:31.800112	352.3	31.7	-91.0	2.0
2025-01-13 11:10:32.965711	351.9	31.8	-91.2	3.0
2025-01-13 11:10:34.129763	351.5	31.9	-90.9	7.4
2025-01-13 11:10:35.289072	351.2	32.0	-90.9	5.0
2025-01-13 11:10:36.456488	350.8	32.1	-91.2	6.8
2025-01-13 11:10:37.620008	350.4	32.2	-91.5	6.8
2025-01-13 11:10:38.786905	350.0	32.3	-91.5	2.2
2025-01-13 11:10:39.949566	349.6	32.4	-91.6	8.6
2025-01-13 11:10:41.106255	349.2	32.5	-91.3	6.1
2025-01-13 11:10:42.269476	348.8	32.6	-90.9	2.7
2025-01-13 11:10:43.432844	348.4	32.6	-91.0	8.3
2025-01-13 11:10:44.595355	348.0	32.7	-91.1	8.6
2025-01-13 11:10:45.759766	347.6	32.8	-91.0	5.3
2025-01-13 11:10:46.923128	347.2	32.9	-90.8	4.1
2025-01-13 11:10:48.084296	346.8	33.0	-90.8	4.8
2025-01-13 11:10:49.247110	346.4	33.1	-90.3	5.2
2025-01-13 11:10:50.413626	346.0	33.1	-90.7	6.1
2025-01-13 11:10:51.580825	345.6	33.2	-90.6	9.1
2025-01-13 11:10:52.745061	345.2	33.3	-90.9	8.9
2025-01-13 11:10:53.913236	344.8	33.4	-90.6	14.0
2025-01-13 11:10:55.076951	344.4	33.4	-90.5	10.5
2025-01-13 11:10:56.234937	343.9	33.5	-90.7	8.9
2025-01-13 11:10:57.398554	343.5	33.6	-90.1	11.8
2025-01-13 11:10:58.559000	343.1	33.6	-90.7	11.0
2025-01-13 11:10:59.725507	342.7	33.7	-90.8	9.2
2025-01-13 11:11:00.875062	342.3	33.8	-90.3	8.4
2025-01-13 11:11:02.034524	341.8	33.8	-90.5	5.8
2025-01-13 11:11:03.194348	341.4	33.9	-90.3	1.8
2025-01-13 11:11:04.358627	341.0	33.9	-91.3	3.9
2025-01-13 11:11:05.522027	340.5	34.0	-91.6	5.2
2025-01-13 11:11:06.685055	340.1	34.0	-91.4	1.4
2025-01-13 11:11:07.849039	339.7	34.1	-91.4	3.0
2025-01-13 11:11:09.012169	339.2	34.2	-91.3	5.8
2025-01-13 11:11:10.178479	338.8	34.2	-91.2	2.5
2025-01-13 11:11:11.341633	338.4	34.2	-91.1	3.3
2025-01-13 11:11:12.501883	337.9	34.3	-91.2	5.8
2025-01-13 11:11:13.666677	337.5	34.3	-90.9	6.5
2025-01-13 11:11:14.830051	337.0	34.4	-91.1	9.0
2025-01-13 11:11:15.993679	336.6	34.4	-91.1	12.6
2025-01-13 11:11:17.158503	336.2	34.5	-91.2	8.8
2025-01-13 11:11:18.321030	335.7	34.5	-91.0	13.5
2025-01-13 11:11:19.479400	335.3	34.5	-91.4	16.0
2025-01-13 11:11:20.642693	334.8	34.6	-91.2	17.1
2025-01-13 11:11:21.803005	334.4	34.6	-91.1	16.0
2025-01-13 11:11:22.977426	333.9	34.6	-91.1	12.0
2025-01-13 11:11:24.141707	333.5	34.6	-90.9	10.6
2025-01-13 11:11:25.304208	333.0	34.7	-90.8	4.7
2025-01-13 11:11:26.465251	332.6	34.7	-91.0	8.6
2025-01-13 11:11:27.626526	332.1	34.7	-91.3	10.4
2025-01-13 11:11:28.803495	331.7	34.7	-90.6	4.1
2025-01-13 11:11:29.968844	331.2	34.7	-90.8	6.8
2025-01-13 11:11:31.130532	330.8	34.8	-90.1	7.0
2025-01-13 11:11:32.290809	330.3	34.8	-90.7	4.4
2025-01-13 11:11:33.453775	329.9	34.8	-90.8	7.6
2025-01-13 11:11:34.619063	329.4	34.8	-90.6	11.0
2025-01-13 11:11:35.784566	329.0	34.8	-91.6	5.6
2025-01-13 11:11:36.951392	328.5	34.8	-91.4	7.5
2025-01-13 11:11:38.113902	328.0	34.8	-91.3	8.1
2025-01-13 11:11:39.278650	327.6	34.8	-90.8	5.3
2025-01-13 11:11:40.443646	327.1	34.8	-90.3	7.9
2025-01-13 11:11:41.603923	326.7	34.8	-90.5	6.6
2025-01-13 11:11:42.756881	326.2	34.8	-90.9	8.5
2025-01-13 11:11:43.915973	325.8	34.8	-90.6	8.5
2025-01-13 11:11:45.082152	325.3	34.8	-90.6	10.9
2025-01-13 11:11:46.245803	324.9	34.8	-90.5	9.2
2025-01-13 11:11:47.408235	324.4	34.7	-90.9	11.1
2025-01-13 11:11:48.570100	324.0	34.7	-91.1	14.2
2025-01-13 11:11:49.739009	323.5	34.7	-91.1	14.0
2025-01-13 11:11:50.895934	323.1	34.7	-90.7	10.8
2025-01-13 11:11:52.059035	322.6	34.7	-90.6	11.8
2025-01-13 11:11:53.223255	322.2	34.6	-90.4	11.9
2025-01-13 11:11:54.394844	321.7	34.6	-90.7	10.0
2025-01-13 11:11:55.559384	321.3	34.6	-90.8	12.9
2025-01-13 11:11:56.724403	320.8	34.6	-91.0	14.7
2025-01-13 11:11:57.891866	320.4	34.5	-91.0	13.3
2025-01-13 11:11:59.056854	319.9	34.5	-90.9	10.9
2025-01-13 11:12:00.220623	319.5	34.5	-90.7	12.4
2025-01-13 11:12:01.377617	319.0	34.4	-91.0	15.7
2025-01-13 11:12:02.533390	318.6	34.4	-90.9	7.4
2025-01-13 11:12:03.696622	318.2	34.3	-91.1	11.8
2025-01-13 11:12:04.858457	317.7	34.3	-90.9	3.3
2025-01-13 11:12:06.018778	317.3	34.2	-91.0	14.2
2025-01-13 11:12:07.182352	316.8	34.2	-91.0	11.8
2025-01-13 11:12:08.345261	316.4	34.1	-91.1	9.9
2025-01-13 11:12:09.509464	316.0	34.1	-90.9	8.1
2025-01-13 11:12:10.669037	315.5	34.0	-91.4	8.6
2025-01-13 11:12:11.835767	315.1	34.0	-90.9	11.5
2025-01-13 11:12:12.995929	314.7	33.9	-91.2	9.5
2025-01-13 11:12:14.167685	314.3	33.9	-90.7	9.4
2025-01-13 11:12:15.330758	313.8	33.8	-90.7	10.3
2025-01-13 11:12:16.495004	313.4	33.8	-90.9	10.5
2025-01-13 11:12:17.657911	313.0	33.7	-91.3	8.6
2025-01-13 11:12:18.814378	312.6	33.6	-91.2	7.3
2025-01-13 11:12:19.979630	312.1	33.6	-91.3	5.3
2025-01-13 11:12:21.139790	311.7	33.5	-91.1	9.5
2025-01-13 11:12:22.298821	311.3	33.4	-91.2	8.1
2025-01-13 11:12:23.462713	310.9	33.3	-91.3	7.9
2025-01-13 11:12:24.622267	310.5	33.3	-91.4	13.8
2025-01-13 11:12:25.785079	310.1	33.2	-91.4	9.0
2025-01-13 11:12:26.948307	309.6	33.1	-91.4	8.0
2025-01-13 11:12:28.112860	309.2	33.0	-90.8	11.0
2025-01-13 11:12:29.275401	308.8	33.0	-91.0	9.0
2025-01-13 11:12:30.436496	308.4	32.9	-91.2	9.4
2025-01-13 11:12:31.601136	308.0	32.8	-91.1	7.7
2025-01-13 11:12:32.761607	307.6	32.7	-91.2	7.2
2025-01-13 11:12:33.923236	307.2	32.6	-91.3	11.0
2025-01-13 11:12:35.090061	306.8	32.6	-91.5	6.9
2025-01-13 11:12:36.255775	306.4	32.5	-91.3	6.5
2025-01-13 11:12:37.422688	306.0	32.4	-91.3	5.7
2025-01-13 11:12:38.580854	305.7	32.3	-91.3	9.9
2025-01-13 11:12:39.745666	305.3	32.2	-91.1	10.2
2025-01-13 11:12:40.897225	304.9	32.1	-91.5	7.6
2025-01-13 11:12:42.062987	304.5	32.0	-91.3	10.6
2025-01-13 11:12:43.218140	304.1	31.9	-91.3	8.1
2025-01-13 11:12:44.381913	303.8	31.8	-91.4	16.9
2025-01-13 11:12:45.545100	303.4	31.7	-91.2	6.5
2025-01-13 11:12:46.705846	303.0	31.6	-91.1	11.4
2025-01-13 11:12:47.865042	302.6	31.5	-91.5	8.2
2025-01-13 11:12:49.029398	302.3	31.4	-91.4	9.5
2025-01-13 11:12:50.193176	301.9	31.3	-91.0	9.9
2025-01-13 11:12:51.354746	301.5	31.2	-91.0	13.3
2025-01-13 11:12:52.511402	301.2	31.1	-91.1	10.9
2025-01-13 11:12:53.672587	300.8	31.0	-90.9	14.9
2025-01-13 11:12:54.834188	300.5	30.9	-91.4	11.5
2025-01-13 11:12:56.002995	300.1	30.8	-91.3	11.9
2025-01-13 11:12:57.171388	299.7	30.7	-91.3	10.0
2025-01-13 11:12:58.329030	299.4	30.6	-91.2	7.7
2025-01-13 11:12:59.491538	299.0	30.5	-91.2	5.5
2025-01-13 11:13:00.638088	298.7	30.4	-91.4	12.3
2025-01-13 11:13:01.797681	298.4	30.3	-91.3	9.9
2025-01-13 11:13:02.956358	298.0	30.2	-91.1	8.1
2025-01-13 11:13:04.116496	297.7	30.1	-91.0	6.3
2025-01-13 11:13:05.286595	297.3	29.9	-90.9	7.8
2025-01-13 11:13:06.451870	297.0	29.8	-90.9	7.5
2025-01-13 11:13:07.618923	296.7	29.7	-91.2	4.5
2025-01-13 11:13:08.781621	296.3	29.6	-90.8	5.5
2025-01-13 11:13:09.947032	296.0	29.5	-91.2	2.2
2025-01-13 11:13:11.102720	295.7	29.4	-91.2	3.7
2025-01-13 11:13:12.271934	295.4	29.3	-91.1	3.4
2025-01-13 11:13:13.423393	295.0	29.1	-90.8	5.3
2025-01-13 11:13:14.585983	294.7	29.0	-91.2	0.7
2025-01-13 11:13:15.746019	294.4	28.9	-91.6	3.6
2025-01-13 11:13:16.913644	294.1	28.8	-91.5	3.2
2025-01-13 11:13:18.077149	293.8	28.7	-89.3	0.8
2025-01-13 11:13:19.239736	293.5	28.6	-91.1	2.7
2025-01-13 11:13:20.407292	293.2	28.4	-90.2	2.9
2025-01-13 11:13:21.566264	292.9	28.3	-90.7	7.7
2025-01-13 11:13:22.726886	292.6	28.2	-90.8	5.3
2025-01-13 11:13:23.890195	292.3	28.1	-91.1	6.2
2025-01-13 11:13:25.053532	292.0	28.0	-91.0	7.2
2025-01-13 11:13:26.215571	291.7	27.8	-91.2	5.0
2025-01-13 11:13:27.377410	291.4	27.7	-91.3	6.6
2025-01-13 11:13:28.543198	291.1	27.6	-91.4	10.1
2025-01-13 11:13:29.707650	290.8	27.5	-91.2	7.2
2025-01-13 11:13:30.845620	290.5	27.4	-90.9	7.4
2025-01-13 11:13:32.007049	290.2	27.2	-91.0	8.7
2025-01-13 11:13:33.167383	290.0	27.1	-90.6	10.1
2025-01-13 11:13:34.325981	289.7	27.0	-90.6	6.8
2025-01-13 11:13:35.494824	289.4	26.9	-90.8	7.6
2025-01-13 11:13:36.649837	289.1	26.8	-91.3	13.6
2025-01-13 11:13:37.813207	288.8	26.6	-91.3	9.0
2025-01-13 11:13:38.976482	288.6	26.5	-91.3	5.4
2025-01-13 11:13:40.136462	288.3	26.4	-90.9	6.1
2025-01-13 11:13:41.307680	288.0	26.3	-90.8	7.5
2025-01-13 11:13:42.468582	287.8	26.1	-91.0	5.3
2025-01-13 11:13:43.627404	287.5	26.0	-91.0	8.4
2025-01-13 11:13:44.795697	287.3	25.9	-91.0	3.6
2025-01-13 11:13:45.958400	287.0	25.8	-91.0	4.9
2025-01-13 11:13:47.124963	286.7	25.6	-91.1	3.2
2025-01-13 11:13:48.288926	286.5	25.5	-91.2	3.5
2025-01-13 11:13:49.452611	286.2	25.4	-91.3	3.3
2025-01-13 11:13:50.620785	286.0	25.3	-90.9	3.2
2025-01-13 11:13:51.779845	285.7	25.1	-91.2	6.3
2025-01-13 11:13:52.937663	285.5	25.0	-91.0	6.4
2025-01-13 11:13:54.097481	285.2	24.9	-90.8	5.9
2025-01-13 11:13:55.261656	285.0	24.8	-90.5	8.3
2025-01-13 11:13:56.420627	284.8	24.6	-90.8	5.1
2025-01-13 11:13:57.585930	284.5	24.5	-90.7	6.5
2025-01-13 11:13:58.747811	284.3	24.4	-90.7	11.3
2025-01-13 11:13:59.909678	284.0	24.3	-90.8	9.2
2025-01-13 11:14:01.056375	283.8	24.2	-90.6	8.2
2025-01-13 11:14:02.225009	283.6	24.0	-90.7	5.1
2025-01-13 11:14:03.386388	283.3	23.9	-90.9	1.9
2025-01-13 11:14:04.545061	283.1	23.8	-90.8	5.4
2025-01-13 11:14:05.711225	282.9	23.7	-91.0	6.2
2025-01-13 11:14:06.870369	282.7	23.5	-90.8	4.7
2025-01-13 11:14:08.034077	282.4	23.4	-91.0	6.1
2025-01-13 11:14:09.191884	282.2	23.3	-91.2	2.9
2025-01-13 11:14:10.352066	282.0	23.2	-91.2	4.8
2025-01-13 11:14:11.510910	281.8	23.0	-91.5	5.5
2025-01-13 11:14:12.673180	281.6	22.9	-91.6	3.4
2025-01-13 11:14:13.836226	281.4	22.8	-91.4	2.0
2025-01-13 11:14:15.008484	281.1	22.7	-91.3	3.1
2025-01-13 11:14:16.171620	280.9	22.6	-91.0	5.1
2025-01-13 11:14:17.326317	280.7	22.4	-91.2	7.8
2025-01-13 11:14:18.487566	280.5	22.3	-91.2	7.4
2025-01-13 11:14:19.651942	280.3	22.2	-91.2	10.2
2025-01-13 11:14:20.818631	280.1	22.1	-91.4	11.1
2025-01-13 11:14:21.981778	279.9	21.9	-91.4	7.4
2025-01-13 11:14:23.139735	279.7	21.8	-91.0	9.3
2025-01-13 11:14:24.303906	279.5	21.7	-91.4	6.8
2025-01-13 11:14:25.470776	279.3	21.6	-91.5	6.9
2025-01-13 11:14:26.635734	279.1	21.5	-91.4	5.1
2025-01-13 11:14:27.799165	278.9	21.3	-91.1	3.8
2025-01-13 11:14:28.961673	278.7	21.2	-91.3	4.8
2025-01-13 11:14:30.124780	278.5	21.1	-91.3	3.7
2025-01-13 11:14:31.289602	278.3	21.0	-91.3	4.9
2025-01-13 11:14:32.447822	278.2	20.9	-91.1	3.5
2025-01-13 11:14:33.602174	278.0	20.7	-90.9	4.3
2025-01-13 11:14:34.763115	277.8	20.6	-91.3	3.4
2025-01-13 11:14:35.930839	277.6	20.5	-91.6	4.4
2025-01-13 11:14:37.092470	277.4	20.4	-91.2	4.1
2025-01-13 11:14:38.268674	277.2	20.3	-91.0	5.8
2025-01-13 11:14:39.432619	277.1	20.1	-91.1	4.3
2025-01-13 11:14:40.596511	276.9	20.0	-91.4	5.8
2025-01-13 11:14:41.753333	276.7	19.9	-91.3	4.3
2025-01-13 11:14:42.910540	276.5	19.8	-91.3	5.0
2025-01-13 11:14:44.075741	276.4	19.7	-91.0	6.8
2025-01-13 11:14:45.236215	276.2	19.6	-91.3	4.2
2025-01-13 11:14:46.400531	276.0	19.4	-91.3	3.4
2025-01-13 11:14:47.560219	275.8	19.3	-91.6	5.7
2025-01-13 11:14:48.723054	275.7	19.2	-91.5	1.8
2025-01-13 11:14:49.892200	275.5	19.1	-91.3	3.2
2025-01-13 11:14:51.051611	275.3	19.0	-91.3	3.5
2025-01-13 11:14:52.218958	275.2	18.9	-91.1	1.9
2025-01-13 11:14:53.378755	275.0	18.7	-91.0	2.3
2025-01-13 11:14:54.544613	274.8	18.6	-90.8	2.3
2025-01-13 11:14:55.707287	274.7	18.5	-91.0	1.0
2025-01-13 11:14:56.866103	274.5	18.4	-91.1	3.5
2025-01-13 11:14:58.038275	274.4	18.3	-91.3	8.1
2025-01-13 11:14:59.192472	274.2	18.2	-91.2	3.7
2025-01-13 11:15:00.338751	274.0	18.1	-90.8	4.8
2025-01-13 11:15:01.500223	273.9	17.9	-91.3	5.5
2025-01-13 11:15:02.663539	273.7	17.8	-91.3	5.9
2025-01-13 11:15:03.823540	273.6	17.7	-91.0	7.7
2025-01-13 11:15:04.991398	273.4	17.6	-91.1	4.6
2025-01-13 11:15:06.156707	273.3	17.5	-90.8	4.0
2025-01-13 11:15:07.320954	273.1	17.4	-90.5	5.0
2025-01-13 11:15:08.485515	273.0	17.3	-91.2	3.9
2025-01-13 11:15:09.653311	272.8	17.2	-90.8	6.6
2025-01-13 11:15:10.816877	272.7	17.1	-90.6	5.4
2025-01-13 11:15:11.981462	272.5	16.9	-90.8	5.5
2025-01-13 11:15:13.136454	272.4	16.8	-90.9	5.9
2025-01-13 11:15:14.296503	272.3	16.7	-91.0	8.2
2025-01-13 11:15:15.459866	272.1	16.6	-91.4	7.3
2025-01-13 11:15:16.624286	272.0	16.5	-91.3	5.7
2025-01-13 11:15:17.788517	271.8	16.4	-91.2	9.7
2025-01-13 11:15:18.945800	271.7	16.3	-91.4	5.7
2025-01-13 11:15:20.108190	271.6	16.2	-91.3	6.9
2025-01-13 11:15:21.268373	271.4	16.1	-91.2	8.1
2025-01-13 11:15:22.436238	271.3	16.0	-91.3	2.8
2025-01-13 11:15:23.598392	271.1	15.9	-91.2	2.4
2025-01-13 11:15:24.761419	271.0	15.8	-91.0	10.5
2025-01-13 11:15:25.926264	270.9	15.6	-91.0	3.6
2025-01-13 11:15:27.086877	270.8	15.5	-90.7	2.7
2025-01-13 11:15:28.248940	270.6	15.4	-90.7	7.5
2025-01-13 11:15:29.410523	270.5	15.3	-91.1	3.5
2025-01-13 11:15:30.576146	270.4	15.2	-91.3	4.9
2025-01-13 11:15:31.734640	270.2	15.1	-91.3	8.4
2025-01-13 11:15:32.897776	270.1	15.0	-91.4	6.4
2025-01-13 11:15:34.059355	270.0	14.9	-91.0	4.2
2025-01-13 11:15:35.225011	269.9	14.8	-90.8	4.7
2025-01-13 11:15:36.384788	269.7	14.7	-91.0	5.0
2025-01-13 11:15:37.541654	269.6	14.6	-91.3	5.9
#Closed at: 2025-01-13 11:07:49.545932