passes_logs/2025/01/13/LEX_Murmansk/LEX_Murmansk__20250113_124806_NOAA_19_rec.log

#Pass ID: 20250113_124806_NOAA 19
#Satellite: NOAA 19
#Configuration: NOAA 19
#Start time: 2025-01-13 12:48:01.441788

#LorettStation: 1.0.0 05.05.2024
#Station: LEX_Murmansk
#Location: 33.156738 lon 68.926811 lat
#TLE: 1 33591U 09005A   25013.16337215  .00000276  00000+0  17136-3 0  9999
#TLE: 2 33591  99.0200  76.9116 0014532  62.4730 297.7917 14.13258019821287

#Time	Az	El	Level	SNR
2025-01-13 12:48:13.657758	34.1	15.9	-90.7	1.5
2025-01-13 12:48:14.806686	34.0	16.0	-91.0	4.2
2025-01-13 12:48:15.951358	33.8	16.1	-90.8	3.0
2025-01-13 12:48:17.105649	33.6	16.2	-90.5	6.2
2025-01-13 12:48:18.254850	33.4	16.2	-90.7	4.7
2025-01-13 12:48:19.401630	33.2	16.3	-90.8	5.9
2025-01-13 12:48:20.549386	33.0	16.4	-90.5	4.3
2025-01-13 12:48:21.697379	32.8	16.5	-91.0	3.2
2025-01-13 12:48:22.838347	32.6	16.6	-90.9	3.0
2025-01-13 12:48:23.990843	32.4	16.7	-90.6	2.1
2025-01-13 12:48:25.136354	32.3	16.8	-90.8	3.5
2025-01-13 12:48:26.282664	32.1	16.8	-91.0	0.8
2025-01-13 12:48:27.431375	31.9	16.9	-90.8	3.6
2025-01-13 12:48:28.587141	31.7	17.0	-90.6	3.6
2025-01-13 12:48:29.740222	31.5	17.1	-91.1	0.8
2025-01-13 12:48:30.890364	31.3	17.2	-91.3	4.1
2025-01-13 12:48:32.037413	31.1	17.3	-90.9	3.6
2025-01-13 12:48:33.183549	30.9	17.3	-90.8	3.8
2025-01-13 12:48:34.337716	30.7	17.4	-90.8	1.9
2025-01-13 12:48:35.484435	30.5	17.5	-91.0	4.7
2025-01-13 12:48:36.630433	30.3	17.6	-91.1	4.5
2025-01-13 12:48:37.773621	30.1	17.7	-90.8	4.4
2025-01-13 12:48:38.920604	29.9	17.8	-91.0	6.6
2025-01-13 12:48:40.070461	29.6	17.9	-90.7	6.4
2025-01-13 12:48:41.219619	29.4	17.9	-90.8	3.6
2025-01-13 12:48:42.367720	29.2	18.0	-90.7	4.0
2025-01-13 12:48:43.515363	29.0	18.1	-91.1	3.7
2025-01-13 12:48:44.662267	28.8	18.2	-90.8	2.9
2025-01-13 12:48:45.816405	28.6	18.3	-90.7	2.3
2025-01-13 12:48:46.960116	28.4	18.4	-91.0	3.6
2025-01-13 12:48:48.111755	28.2	18.4	-90.6	3.9
2025-01-13 12:48:49.258976	27.9	18.5	-91.1	4.9
2025-01-13 12:48:50.408795	27.7	18.6	-91.0	4.6
2025-01-13 12:48:51.560754	27.5	18.7	-91.2	6.8
2025-01-13 12:48:52.710824	27.3	18.8	-91.0	4.8
2025-01-13 12:48:53.854983	27.1	18.8	-90.9	4.5
2025-01-13 12:48:55.004123	26.8	18.9	-91.1	5.4
2025-01-13 12:48:56.147854	26.6	19.0	-90.9	5.7
2025-01-13 12:48:57.297792	26.4	19.1	-90.9	4.2
2025-01-13 12:48:58.448404	26.2	19.2	-90.9	3.3
2025-01-13 12:48:59.599806	25.9	19.3	-90.8	8.8
2025-01-13 12:49:00.736880	25.7	19.3	-90.7	7.1
2025-01-13 12:49:01.878989	25.5	19.4	-90.9	12.7
2025-01-13 12:49:03.030999	25.2	19.5	-91.2	12.7
2025-01-13 12:49:04.176599	25.0	19.6	-90.6	9.3
2025-01-13 12:49:05.323791	24.8	19.7	-90.9	4.8
2025-01-13 12:49:06.468243	24.5	19.7	-91.1	1.7
2025-01-13 12:49:07.618880	24.3	19.8	-90.8	2.8
2025-01-13 12:49:08.768807	24.1	19.9	-91.0	2.8
2025-01-13 12:49:09.913141	23.8	20.0	-91.1	3.4
2025-01-13 12:49:11.063069	23.6	20.1	-90.7	3.9
2025-01-13 12:49:12.214344	23.4	20.1	-90.8	2.5
2025-01-13 12:49:13.362942	23.1	20.2	-90.8	4.9
2025-01-13 12:49:14.514108	22.9	20.3	-91.1	6.6
2025-01-13 12:49:15.663211	22.6	20.4	-91.2	7.3
2025-01-13 12:49:16.811969	22.4	20.4	-91.0	10.5
2025-01-13 12:49:17.953891	22.1	20.5	-91.0	9.4
2025-01-13 12:49:19.102770	21.9	20.6	-91.3	9.8
2025-01-13 12:49:20.245086	21.6	20.7	-90.7	6.3
2025-01-13 12:49:21.389474	21.4	20.7	-91.0	4.6
2025-01-13 12:49:22.543696	21.1	20.8	-91.4	6.7
2025-01-13 12:49:23.676121	20.9	20.9	-91.1	5.7
2025-01-13 12:49:24.825984	20.6	21.0	-91.2	4.3
2025-01-13 12:49:25.968172	20.4	21.0	-90.9	5.1
2025-01-13 12:49:27.112804	20.1	21.1	-90.8	8.2
2025-01-13 12:49:28.261625	19.9	21.2	-90.9	7.5
2025-01-13 12:49:29.414109	19.6	21.3	-90.7	7.8
2025-01-13 12:49:30.566233	19.3	21.3	-90.8	7.3
2025-01-13 12:49:31.711810	19.1	21.4	-90.9	4.9
2025-01-13 12:49:32.857093	18.8	21.5	-90.8	2.9
2025-01-13 12:49:34.006730	18.5	21.6	-90.8	2.3
2025-01-13 12:49:35.152834	18.3	21.6	-90.8	2.6
2025-01-13 12:49:36.297959	18.0	21.7	-90.8	0.8
2025-01-13 12:49:37.446268	17.7	21.8	-91.0	2.6
2025-01-13 12:49:38.601771	17.5	21.8	-90.9	5.1
2025-01-13 12:49:39.755685	17.2	21.9	-90.8	4.1
2025-01-13 12:49:40.904153	16.9	22.0	-91.1	7.4
2025-01-13 12:49:42.052596	16.6	22.0	-91.3	9.1
2025-01-13 12:49:43.193630	16.4	22.1	-91.1	8.6
2025-01-13 12:49:44.344283	16.1	22.2	-91.0	7.9
2025-01-13 12:49:45.496196	15.8	22.2	-91.3	6.8
2025-01-13 12:49:46.634111	15.5	22.3	-91.1	4.8
2025-01-13 12:49:47.782107	15.3	22.4	-91.3	3.8
2025-01-13 12:49:48.937232	15.0	22.4	-91.3	6.0
2025-01-13 12:49:50.082747	14.7	22.5	-91.0	5.9
2025-01-13 12:49:51.229061	14.4	22.6	-91.2	4.7
2025-01-13 12:49:52.373535	14.1	22.6	-91.1	5.2
2025-01-13 12:49:53.520252	13.9	22.7	-91.3	6.8
2025-01-13 12:49:54.668060	13.6	22.7	-91.2	9.8
2025-01-13 12:49:55.797855	13.3	22.8	-91.1	7.4
2025-01-13 12:49:56.918162	13.0	22.9	-91.0	9.8
2025-01-13 12:49:58.038588	12.7	22.9	-91.3	12.9
2025-01-13 12:49:59.159328	12.4	23.0	-90.8	11.9
2025-01-13 12:50:00.279514	12.2	23.0	-90.8	7.8
2025-01-13 12:50:01.399518	11.9	23.1	-90.9	10.1
2025-01-13 12:50:02.519912	11.6	23.2	-91.1	8.0
2025-01-13 12:50:03.644326	11.3	23.2	-91.2	8.3
2025-01-13 12:50:04.778420	11.0	23.3	-91.2	3.8
2025-01-13 12:50:05.923305	10.7	23.3	-90.9	5.7
2025-01-13 12:50:07.070404	10.4	23.4	-91.1	4.6
2025-01-13 12:50:08.223734	10.1	23.4	-90.9	2.7
2025-01-13 12:50:09.369822	9.8	23.5	-91.0	3.7
2025-01-13 12:50:10.515719	9.5	23.5	-90.8	4.7
2025-01-13 12:50:11.666114	9.2	23.6	-90.9	6.4
2025-01-13 12:50:12.814947	8.9	23.6	-90.8	6.5
2025-01-13 12:50:13.964669	8.6	23.7	-91.1	8.2
2025-01-13 12:50:15.113147	8.3	23.7	-90.8	8.7
2025-01-13 12:50:16.265367	8.0	23.8	-90.9	11.4
2025-01-13 12:50:17.409869	7.7	23.8	-91.2	14.4
2025-01-13 12:50:18.555254	7.4	23.9	-90.9	12.1
2025-01-13 12:50:19.701493	7.1	23.9	-91.0	9.3
2025-01-13 12:50:20.849218	6.8	24.0	-91.0	7.7
2025-01-13 12:50:22.004047	6.4	24.0	-90.4	6.6
2025-01-13 12:50:23.153122	6.1	24.1	-90.9	7.2
2025-01-13 12:50:24.305049	5.8	24.1	-90.5	5.1
2025-01-13 12:50:25.450857	5.5	24.1	-91.4	5.7
2025-01-13 12:50:26.595497	5.2	24.2	-91.0	6.9
2025-01-13 12:50:27.743104	4.9	24.2	-91.1	3.9
2025-01-13 12:50:28.889625	4.6	24.3	-91.1	3.7
2025-01-13 12:50:30.037136	4.2	24.3	-91.1	6.4
2025-01-13 12:50:31.189009	3.9	24.3	-90.4	7.3
2025-01-13 12:50:32.342898	3.6	24.4	-90.9	10.1
2025-01-13 12:50:33.485959	3.3	24.4	-90.5	11.5
2025-01-13 12:50:34.628992	3.0	24.4	-90.7	14.2
2025-01-13 12:50:35.772874	2.7	24.5	-90.6	12.0
2025-01-13 12:50:36.929488	2.3	24.5	-91.3	13.5
2025-01-13 12:50:38.082542	2.0	24.5	-90.9	10.4
2025-01-13 12:50:39.238301	1.7	24.6	-90.7	5.8
2025-01-13 12:50:40.392499	1.4	24.6	-90.9	7.2
2025-01-13 12:50:41.541577	1.0	24.6	-90.8	6.9
2025-01-13 12:50:42.691782	0.7	24.6	-90.9	7.3
2025-01-13 12:50:43.842981	0.4	24.7	-91.3	6.3
2025-01-13 12:50:44.986285	0.1	24.7	-90.5	6.8
2025-01-13 12:50:46.135333	359.7	24.7	-90.7	5.9
2025-01-13 12:50:47.279070	359.4	24.7	-90.7	3.6
2025-01-13 12:50:48.426257	359.1	24.8	-90.7	5.0
2025-01-13 12:50:49.570260	358.8	24.8	-91.1	5.6
2025-01-13 12:50:50.717793	358.4	24.8	-91.4	3.0
2025-01-13 12:50:51.867678	358.1	24.8	-91.1	5.5
2025-01-13 12:50:53.029714	357.8	24.9	-90.9	5.7
2025-01-13 12:50:54.176341	357.5	24.9	-91.1	4.2
2025-01-13 12:50:55.318171	357.1	24.9	-90.5	4.1
2025-01-13 12:50:56.470365	356.8	24.9	-90.9	7.2
2025-01-13 12:50:57.614889	356.5	24.9	-91.2	9.5
2025-01-13 12:50:58.765056	356.1	24.9	-90.9	9.4
2025-01-13 12:50:59.912325	355.8	24.9	-91.1	12.0
2025-01-13 12:51:01.049283	355.5	25.0	-91.2	13.7
2025-01-13 12:51:02.201129	355.2	25.0	-91.0	12.5
2025-01-13 12:51:03.347808	354.8	25.0	-91.1	14.3
2025-01-13 12:51:04.501000	354.5	25.0	-90.9	14.6
2025-01-13 12:51:05.645256	354.2	25.0	-91.3	10.6
2025-01-13 12:51:06.791626	353.8	25.0	-91.1	11.3
2025-01-13 12:51:07.938299	353.5	25.0	-90.9	11.1
2025-01-13 12:51:09.082823	353.2	25.0	-90.8	11.9
2025-01-13 12:51:10.236434	352.8	25.0	-91.1	10.7
2025-01-13 12:51:11.379387	352.5	25.0	-90.1	10.4
2025-01-13 12:51:12.528718	352.2	25.0	-90.7	7.1
2025-01-13 12:51:13.682581	351.8	25.0	-91.3	9.3
2025-01-13 12:51:14.834441	351.5	25.0	-91.2	6.4
2025-01-13 12:51:15.983783	351.2	25.0	-91.0	9.6
2025-01-13 12:51:17.128199	350.9	25.0	-90.8	7.3
2025-01-13 12:51:18.277581	350.5	25.0	-91.0	6.7
2025-01-13 12:51:19.426379	350.2	25.0	-90.9	6.5
2025-01-13 12:51:20.576035	349.9	25.0	-90.8	8.0
2025-01-13 12:51:21.724731	349.5	25.0	-90.9	2.7
2025-01-13 12:51:22.871631	349.2	25.0	-90.4	2.2
2025-01-13 12:51:24.019028	348.9	25.0	-90.8	5.9
2025-01-13 12:51:25.168530	348.5	25.0	-90.8	3.3
2025-01-13 12:51:26.315856	348.2	24.9	-90.9	2.8
2025-01-13 12:51:27.460959	347.9	24.9	-90.8	3.9
2025-01-13 12:51:28.608230	347.5	24.9	-90.7	5.8
2025-01-13 12:51:29.753052	347.2	24.9	-91.1	4.5
2025-01-13 12:51:30.903004	346.9	24.9	-90.8	4.5
2025-01-13 12:51:32.048668	346.6	24.9	-91.2	7.6
2025-01-13 12:51:33.195070	346.2	24.9	-90.7	5.2
2025-01-13 12:51:34.338711	345.9	24.8	-90.3	5.0
2025-01-13 12:51:35.486946	345.6	24.8	-90.7	5.5
2025-01-13 12:51:36.637555	345.3	24.8	-91.2	8.6
2025-01-13 12:51:37.782573	344.9	24.8	-90.4	6.4
2025-01-13 12:51:38.927317	344.6	24.7	-90.4	4.3
2025-01-13 12:51:40.073704	344.3	24.7	-90.9	5.4
2025-01-13 12:51:41.229667	344.0	24.7	-90.7	7.6
2025-01-13 12:51:42.373122	343.6	24.7	-90.8	6.4
2025-01-13 12:51:43.515726	343.3	24.6	-90.9	7.1
2025-01-13 12:51:44.664129	343.0	24.6	-91.0	9.6
2025-01-13 12:51:45.812296	342.7	24.6	-91.0	10.6
2025-01-13 12:51:46.964069	342.3	24.6	-91.1	7.9
2025-01-13 12:51:48.112190	342.0	24.5	-90.7	9.6
2025-01-13 12:51:49.267628	341.7	24.5	-90.8	11.4
2025-01-13 12:51:50.413511	341.4	24.5	-90.7	7.3
2025-01-13 12:51:51.559889	341.1	24.4	-90.8	9.3
2025-01-13 12:51:52.709639	340.7	24.4	-91.1	8.9
2025-01-13 12:51:53.863141	340.4	24.4	-91.0	5.8
2025-01-13 12:51:55.004562	340.1	24.3	-90.7	8.7
2025-01-13 12:51:56.149423	339.8	24.3	-90.8	7.8
2025-01-13 12:51:57.291405	339.5	24.3	-90.6	8.9
2025-01-13 12:51:58.442585	339.2	24.2	-90.3	8.9
2025-01-13 12:51:59.590440	338.8	24.2	-90.3	7.7
2025-01-13 12:52:00.729876	338.5	24.1	-90.7	7.3
2025-01-13 12:52:01.876256	338.2	24.1	-91.0	7.3
2025-01-13 12:52:03.018444	337.9	24.1	-90.6	7.6
2025-01-13 12:52:04.172942	337.6	24.0	-89.9	7.3
2025-01-13 12:52:05.322130	337.3	24.0	-90.6	9.4
2025-01-13 12:52:06.472866	337.0	23.9	-91.2	9.5
2025-01-13 12:52:07.621394	336.7	23.9	-91.1	7.6
2025-01-13 12:52:08.766384	336.4	23.8	-90.7	9.7
2025-01-13 12:52:09.914522	336.1	23.8	-91.2	10.4
2025-01-13 12:52:11.069413	335.7	23.7	-90.8	7.4
2025-01-13 12:52:12.223084	335.4	23.7	-90.9	7.4
2025-01-13 12:52:13.371767	335.1	23.6	-90.8	7.8
2025-01-13 12:52:14.522102	334.8	23.6	-91.0	11.1
2025-01-13 12:52:15.669872	334.5	23.5	-91.0	7.7
2025-01-13 12:52:16.814673	334.2	23.5	-91.3	7.1
2025-01-13 12:52:17.958072	333.9	23.4	-90.8	7.4
2025-01-13 12:52:19.102834	333.6	23.4	-91.2	9.5
2025-01-13 12:52:20.257255	333.3	23.3	-91.1	9.5
2025-01-13 12:52:21.402408	333.0	23.3	-91.3	10.9
2025-01-13 12:52:22.552904	332.7	23.2	-91.2	11.2
2025-01-13 12:52:23.701505	332.5	23.2	-91.2	11.2
2025-01-13 12:52:24.847640	332.2	23.1	-91.0	9.3
2025-01-13 12:52:25.998864	331.9	23.0	-91.1	9.0
2025-01-13 12:52:27.141319	331.6	23.0	-91.1	7.0
2025-01-13 12:52:28.301393	331.3	22.9	-90.9	7.9
2025-01-13 12:52:29.451441	331.0	22.9	-90.7	7.7
2025-01-13 12:52:30.601407	330.7	22.8	-90.9	8.2
2025-01-13 12:52:31.749304	330.4	22.7	-91.2	7.6
2025-01-13 12:52:32.897636	330.1	22.7	-91.2	8.7
2025-01-13 12:52:34.054319	329.8	22.6	-91.1	6.5
2025-01-13 12:52:35.196337	329.6	22.6	-90.7	4.7
2025-01-13 12:52:36.348466	329.3	22.5	-90.8	4.1
2025-01-13 12:52:37.494862	329.0	22.4	-90.9	6.7
2025-01-13 12:52:38.643372	328.7	22.4	-91.1	4.1
2025-01-13 12:52:39.793192	328.4	22.3	-91.0	4.4
2025-01-13 12:52:40.941699	328.2	22.2	-91.2	5.9
2025-01-13 12:52:42.093990	327.9	22.2	-90.7	3.2
2025-01-13 12:52:43.244892	327.6	22.1	-90.7	5.6
2025-01-13 12:52:44.394006	327.3	22.0	-91.0	2.0
2025-01-13 12:52:45.541030	327.1	22.0	-91.2	3.4
2025-01-13 12:52:46.689966	326.8	21.9	-91.0	1.1
2025-01-13 12:52:47.836651	326.5	21.8	-90.8	2.7
2025-01-13 12:52:48.981610	326.3	21.8	-91.3	4.4
2025-01-13 12:52:50.132605	326.0	21.7	-91.0	4.9
2025-01-13 12:52:51.283608	325.7	21.6	-90.4	4.4
2025-01-13 12:52:52.432180	325.5	21.5	-90.6	4.3
2025-01-13 12:52:53.580317	325.2	21.5	-90.4	5.1
2025-01-13 12:52:54.735008	324.9	21.4	-90.9	3.7
2025-01-13 12:52:55.880445	324.7	21.3	-91.1	2.9
2025-01-13 12:52:57.021450	324.4	21.3	-90.9	3.0
2025-01-13 12:52:58.168022	324.1	21.2	-90.8	3.6
2025-01-13 12:52:59.310887	323.9	21.1	-90.4	2.6
2025-01-13 12:53:00.451978	323.6	21.0	-90.9	2.7
2025-01-13 12:53:01.597376	323.4	21.0	-91.1	2.2
2025-01-13 12:53:02.748225	323.1	20.9	-91.0	0.7
2025-01-13 12:53:03.902470	322.9	20.8	-91.2	4.3
2025-01-13 12:53:05.055918	322.6	20.7	-91.1	4.7
2025-01-13 12:53:06.200991	322.4	20.7	-91.2	3.7
2025-01-13 12:53:07.347947	322.1	20.6	-90.8	2.6
2025-01-13 12:53:08.499097	321.9	20.5	-91.0	5.6
2025-01-13 12:53:09.645714	321.6	20.4	-90.7	4.7
2025-01-13 12:53:10.794253	321.4	20.4	-90.9	3.7
2025-01-13 12:53:11.941559	321.1	20.3	-90.5	5.0
2025-01-13 12:53:13.085986	320.9	20.2	-91.2	1.1
2025-01-13 12:53:14.227517	320.7	20.1	-90.9	2.7
2025-01-13 12:53:15.371103	320.4	20.0	-91.1	1.9
2025-01-13 12:53:16.523947	320.2	20.0	-90.9	4.1
2025-01-13 12:53:17.667435	319.9	19.9	-91.2	5.4
2025-01-13 12:53:18.809915	319.7	19.8	-91.2	3.8
2025-01-13 12:53:19.958017	319.5	19.7	-91.0	2.0
2025-01-13 12:53:21.109652	319.2	19.6	-91.0	3.6
2025-01-13 12:53:22.264759	319.0	19.6	-90.9	5.7
2025-01-13 12:53:23.415514	318.8	19.5	-91.1	4.5
2025-01-13 12:53:24.564671	318.5	19.4	-91.2	5.0
2025-01-13 12:53:25.717285	318.3	19.3	-91.4	1.7
2025-01-13 12:53:26.863321	318.1	19.2	-91.1	2.8
2025-01-13 12:53:28.024524	317.8	19.2	-91.0	3.4
2025-01-13 12:53:29.169073	317.6	19.1	-90.8	3.2
2025-01-13 12:53:30.314736	317.4	19.0	-91.0	3.4
2025-01-13 12:53:31.461060	317.2	18.9	-91.1	4.5
2025-01-13 12:53:32.608799	316.9	18.8	-91.2	3.6
2025-01-13 12:53:33.760499	316.7	18.8	-91.0	3.0
2025-01-13 12:53:34.908131	316.5	18.7	-91.4	0.7
2025-01-13 12:53:36.058607	316.3	18.6	-91.0	3.3
2025-01-13 12:53:37.203343	316.1	18.5	-91.1	2.5
2025-01-13 12:53:38.349695	315.9	18.4	-91.1	3.6
2025-01-13 12:53:39.499682	315.6	18.3	-90.8	3.0
2025-01-13 12:53:40.644202	315.4	18.3	-91.3	3.9
2025-01-13 12:53:41.783885	315.2	18.2	-91.1	5.7
2025-01-13 12:53:42.929662	315.0	18.1	-90.4	3.7
2025-01-13 12:53:44.078476	314.8	18.0	-91.1	2.9
2025-01-13 12:53:45.230865	314.6	17.9	-90.6	4.2
2025-01-13 12:53:46.382801	314.4	17.8	-90.8	1.9
2025-01-13 12:53:47.525501	314.2	17.8	-90.6	4.7
2025-01-13 12:53:48.669328	314.0	17.7	-91.0	8.7
2025-01-13 12:53:49.816804	313.8	17.6	-91.0	4.7
2025-01-13 12:53:50.966708	313.6	17.5	-91.1	2.4
2025-01-13 12:53:52.111361	313.4	17.4	-90.7	3.9
2025-01-13 12:53:53.259184	313.2	17.3	-91.0	2.8
2025-01-13 12:53:54.408581	313.0	17.3	-91.0	2.4
2025-01-13 12:53:55.555545	312.8	17.2	-91.4	4.2
2025-01-13 12:53:56.702951	312.6	17.1	-91.0	2.9
2025-01-13 12:53:57.850411	312.4	17.0	-91.2	3.4
2025-01-13 12:53:58.999014	312.2	16.9	-91.0	1.9
2025-01-13 12:54:00.143265	312.0	16.8	-91.3	3.8
2025-01-13 12:54:01.284829	311.8	16.8	-90.9	3.0
2025-01-13 12:54:02.431363	311.6	16.7	-91.4	2.9
2025-01-13 12:54:03.578299	311.4	16.6	-91.2	4.5
2025-01-13 12:54:04.723664	311.2	16.5	-90.6	2.6
2025-01-13 12:54:05.871290	311.0	16.4	-91.2	4.5
2025-01-13 12:54:07.013793	310.8	16.3	-91.6	4.9
2025-01-13 12:54:08.161733	310.6	16.2	-90.7	8.1
2025-01-13 12:54:09.306684	310.5	16.2	-90.7	3.2
2025-01-13 12:54:10.454743	310.3	16.1	-91.5	8.6
2025-01-13 12:54:11.606681	310.1	16.0	-91.0	2.5
2025-01-13 12:54:12.751179	309.9	15.9	-91.4	6.3
2025-01-13 12:54:13.900581	309.7	15.8	-91.0	13.3
2025-01-13 12:54:15.046894	309.5	15.7	-91.1	6.5
2025-01-13 12:54:16.192126	309.4	15.6	-91.0	6.6
2025-01-13 12:54:17.338590	309.2	15.6	-91.2	4.8
2025-01-13 12:54:18.486421	309.0	15.5	-91.0	5.4
2025-01-13 12:54:19.633797	308.8	15.4	-90.8	2.0
2025-01-13 12:54:20.778605	308.7	15.3	-91.2	4.1
2025-01-13 12:54:21.926138	308.5	15.2	-91.2	3.2
2025-01-13 12:54:23.078259	308.3	15.1	-90.9	4.1
2025-01-13 12:54:24.227316	308.1	15.1	-90.9	3.9
2025-01-13 12:54:25.373870	308.0	15.0	-90.9	4.3
2025-01-13 12:54:26.518582	307.8	14.9	-90.9	3.6
2025-01-13 12:54:27.664274	307.6	14.8	-90.7	5.8
2025-01-13 12:54:28.815684	307.5	14.7	-90.7	2.0
2025-01-13 12:54:29.962950	307.3	14.6	-91.2	4.4
#Closed at: 2025-01-13 12:48:06.478420