passes_logs/2025/01/13/LEX_Murmansk/LEX_Murmansk__20250113_113324_NOAA_18_rec.log

#Pass ID: 20250113_113324_NOAA 18
#Satellite: NOAA 18
#Configuration: NOAA 18
#Start time: 2025-01-13 11:33:19.823060

#LorettStation: 1.0.0 05.05.2024
#Station: LEX_Murmansk
#Location: 33.156738 lon 68.926811 lat
#TLE: 1 28654U 05018A   25013.18075893  .00000305  00000+0  18557-3 0  9997
#TLE: 2 28654  98.8571  94.2532 0014276 184.2703 175.8350 14.13484936 12921

#Time	Az	El	Level	SNR
2025-01-13 11:33:32.105745	23.0	16.2	-90.4	2.5
2025-01-13 11:33:33.266822	22.9	16.3	-90.6	2.7
2025-01-13 11:33:34.428445	22.8	16.4	-90.9	3.7
2025-01-13 11:33:35.586664	22.7	16.6	-89.8	2.8
2025-01-13 11:33:36.748096	22.6	16.7	-90.2	4.0
2025-01-13 11:33:37.918929	22.5	16.8	-90.5	5.8
2025-01-13 11:33:39.088762	22.4	16.9	-90.2	4.8
2025-01-13 11:33:40.242955	22.3	17.0	-89.9	3.8
2025-01-13 11:33:41.407594	22.2	17.2	-89.9	6.6
2025-01-13 11:33:42.573452	22.1	17.3	-90.2	3.9
2025-01-13 11:33:43.740482	21.9	17.4	-90.2	3.6
2025-01-13 11:33:44.902827	21.8	17.5	-90.0	4.6
2025-01-13 11:33:46.068102	21.7	17.7	-90.1	3.2
2025-01-13 11:33:47.230710	21.6	17.8	-90.1	3.5
2025-01-13 11:33:48.391827	21.5	17.9	-89.7	4.5
2025-01-13 11:33:49.554149	21.4	18.0	-90.2	5.7
2025-01-13 11:33:50.714308	21.3	18.2	-90.0	10.9
2025-01-13 11:33:51.882654	21.2	18.3	-89.8	10.0
2025-01-13 11:33:53.042335	21.1	18.4	-90.3	10.1
2025-01-13 11:33:54.210104	20.9	18.5	-89.8	10.1
2025-01-13 11:33:55.367703	20.8	18.7	-90.1	7.4
2025-01-13 11:33:56.529553	20.7	18.8	-89.8	10.6
2025-01-13 11:33:57.684488	20.6	18.9	-91.1	12.9
2025-01-13 11:33:58.846437	20.5	19.0	-91.2	10.9
2025-01-13 11:34:00.002623	20.3	19.2	-90.8	12.2
2025-01-13 11:34:01.151714	20.2	19.3	-90.8	8.9
2025-01-13 11:34:02.307023	20.1	19.4	-90.6	11.5
2025-01-13 11:34:03.468944	20.0	19.6	-91.3	5.8
2025-01-13 11:34:04.629750	19.9	19.7	-91.1	5.4
2025-01-13 11:34:05.785234	19.7	19.8	-91.2	9.5
2025-01-13 11:34:06.949087	19.6	20.0	-91.3	7.8
2025-01-13 11:34:08.105666	19.5	20.1	-91.0	9.3
2025-01-13 11:34:09.269113	19.3	20.2	-91.0	8.5
2025-01-13 11:34:10.431449	19.2	20.3	-91.2	9.6
2025-01-13 11:34:11.592514	19.1	20.5	-91.1	8.6
2025-01-13 11:34:12.755953	18.9	20.6	-91.2	9.3
2025-01-13 11:34:13.922547	18.8	20.8	-91.0	8.4
2025-01-13 11:34:15.086021	18.7	20.9	-90.7	7.1
2025-01-13 11:34:16.251379	18.5	21.0	-90.8	11.0
2025-01-13 11:34:17.409464	18.4	21.2	-91.2	9.9
2025-01-13 11:34:18.563107	18.3	21.3	-91.4	8.0
2025-01-13 11:34:19.739497	18.1	21.4	-90.8	9.1
2025-01-13 11:34:20.895559	18.0	21.6	-91.1	6.5
2025-01-13 11:34:22.059096	17.8	21.7	-91.2	3.8
2025-01-13 11:34:23.223802	17.7	21.9	-90.9	9.3
2025-01-13 11:34:24.386127	17.5	22.0	-91.2	9.0
2025-01-13 11:34:25.553075	17.4	22.1	-91.1	8.9
2025-01-13 11:34:26.714034	17.2	22.3	-91.0	12.1
2025-01-13 11:34:27.870864	17.1	22.4	-91.2	11.8
2025-01-13 11:34:29.033637	16.9	22.6	-91.2	8.5
2025-01-13 11:34:30.194577	16.8	22.7	-91.2	11.7
2025-01-13 11:34:31.355191	16.6	22.9	-90.8	13.7
2025-01-13 11:34:32.511326	16.5	23.0	-91.1	10.8
2025-01-13 11:34:33.674319	16.3	23.1	-91.3	13.5
2025-01-13 11:34:34.837419	16.2	23.3	-91.4	8.5
2025-01-13 11:34:35.997594	16.0	23.4	-91.3	6.7
2025-01-13 11:34:37.157457	15.8	23.6	-90.9	10.1
2025-01-13 11:34:38.324633	15.7	23.7	-91.0	10.6
2025-01-13 11:34:39.495624	15.5	23.9	-90.3	6.5
2025-01-13 11:34:40.649085	15.4	24.0	-90.1	7.2
2025-01-13 11:34:41.812204	15.2	24.2	-90.3	9.4
2025-01-13 11:34:42.971804	15.0	24.3	-90.4	10.6
2025-01-13 11:34:44.139523	14.8	24.5	-90.1	12.5
2025-01-13 11:34:45.302870	14.7	24.6	-90.2	11.8
2025-01-13 11:34:46.468568	14.5	24.8	-90.7	8.4
2025-01-13 11:34:47.628243	14.3	24.9	-90.3	8.9
2025-01-13 11:34:48.791006	14.1	25.1	-90.5	9.0
2025-01-13 11:34:49.950929	14.0	25.2	-90.6	7.8
2025-01-13 11:34:51.115771	13.8	25.4	-90.7	9.9
2025-01-13 11:34:52.277683	13.6	25.5	-91.1	11.7
2025-01-13 11:34:53.437392	13.4	25.7	-91.3	11.1
2025-01-13 11:34:54.593849	13.2	25.8	-91.2	9.8
2025-01-13 11:34:55.752258	13.0	26.0	-91.3	9.9
2025-01-13 11:34:56.915766	12.8	26.2	-91.3	6.7
2025-01-13 11:34:58.076029	12.7	26.3	-91.0	5.0
2025-01-13 11:34:59.241078	12.5	26.5	-90.9	7.5
2025-01-13 11:35:00.405933	12.3	26.6	-91.3	5.8
2025-01-13 11:35:01.564092	12.1	26.8	-91.2	7.7
2025-01-13 11:35:02.726447	11.9	26.9	-91.1	7.6
2025-01-13 11:35:03.891439	11.7	27.1	-90.3	9.1
2025-01-13 11:35:05.049771	11.5	27.3	-90.2	9.7
2025-01-13 11:35:06.204656	11.2	27.4	-90.1	9.1
2025-01-13 11:35:07.367489	11.0	27.6	-90.3	7.2
2025-01-13 11:35:08.526724	10.8	27.7	-90.3	5.9
2025-01-13 11:35:09.693883	10.6	27.9	-90.6	10.2
2025-01-13 11:35:10.858239	10.4	28.1	-90.6	6.7
2025-01-13 11:35:12.022351	10.2	28.2	-90.5	8.4
2025-01-13 11:35:13.190081	10.0	28.4	-90.2	5.1
2025-01-13 11:35:14.352487	9.7	28.6	-90.4	7.0
2025-01-13 11:35:15.515288	9.5	28.7	-90.8	5.5
2025-01-13 11:35:16.678493	9.3	28.9	-90.6	5.0
2025-01-13 11:35:17.838069	9.0	29.1	-90.7	4.2
2025-01-13 11:35:19.000449	8.8	29.2	-90.4	4.7
2025-01-13 11:35:20.163156	8.6	29.4	-90.3	5.5
2025-01-13 11:35:21.322518	8.3	29.6	-91.3	8.6
2025-01-13 11:35:22.486460	8.1	29.7	-91.5	9.6
2025-01-13 11:35:23.648530	7.9	29.9	-91.3	10.4
2025-01-13 11:35:24.814832	7.6	30.1	-91.3	14.0
2025-01-13 11:35:25.979131	7.4	30.2	-89.1	7.1
2025-01-13 11:35:27.146091	7.1	30.4	-90.9	7.6
2025-01-13 11:35:28.305140	6.9	30.6	-91.0	8.3
2025-01-13 11:35:29.467872	6.6	30.7	-91.1	7.5
2025-01-13 11:35:30.629391	6.4	30.9	-90.4	10.2
2025-01-13 11:35:31.792677	6.1	31.1	-90.4	12.0
2025-01-13 11:35:32.956862	5.8	31.2	-90.7	12.7
2025-01-13 11:35:34.113557	5.6	31.4	-90.8	11.1
2025-01-13 11:35:35.278192	5.3	31.6	-90.4	11.3
2025-01-13 11:35:36.441976	5.0	31.8	-90.8	7.5
2025-01-13 11:35:37.609704	4.7	31.9	-91.0	6.0
2025-01-13 11:35:38.767794	4.5	32.1	-90.7	11.5
2025-01-13 11:35:39.931096	4.2	32.3	-90.3	6.5
2025-01-13 11:35:41.094401	3.9	32.4	-89.7	8.4
2025-01-13 11:35:42.255113	3.6	32.6	-90.1	11.9
2025-01-13 11:35:43.405669	3.3	32.8	-90.2	13.6
2025-01-13 11:35:44.573777	3.0	33.0	-89.9	15.4
2025-01-13 11:35:45.740045	2.7	33.1	-90.1	14.5
2025-01-13 11:35:46.901962	2.4	33.3	-91.2	14.2
2025-01-13 11:35:48.062709	2.1	33.5	-91.3	11.2
2025-01-13 11:35:49.225449	1.8	33.6	-91.3	13.8
2025-01-13 11:35:50.389122	1.5	33.8	-91.5	14.0
2025-01-13 11:35:51.555078	1.2	34.0	-91.4	10.5
2025-01-13 11:35:52.722178	0.9	34.2	-91.4	12.9
2025-01-13 11:35:53.885234	0.6	34.3	-91.3	12.7
2025-01-13 11:35:55.055193	0.2	34.5	-91.3	12.6
2025-01-13 11:35:56.220134	359.9	34.7	-91.3	13.0
2025-01-13 11:35:57.380911	359.6	34.9	-91.3	12.3
2025-01-13 11:35:58.551645	359.3	35.0	-91.4	8.8
2025-01-13 11:35:59.716239	358.9	35.2	-91.0	14.3
2025-01-13 11:36:00.864270	358.6	35.4	-91.4	13.1
2025-01-13 11:36:02.027825	358.2	35.5	-91.3	7.8
2025-01-13 11:36:03.190051	357.9	35.7	-91.0	14.2
2025-01-13 11:36:04.354689	357.5	35.9	-91.0	12.7
2025-01-13 11:36:05.517689	357.2	36.0	-91.4	14.9
2025-01-13 11:36:06.682809	356.8	36.2	-91.7	15.3
2025-01-13 11:36:07.843003	356.5	36.4	-91.7	16.1
2025-01-13 11:36:09.002725	356.1	36.6	-90.2	13.7
2025-01-13 11:36:10.162716	355.7	36.7	-91.1	11.2
2025-01-13 11:36:11.329963	355.3	36.9	-91.3	12.6
2025-01-13 11:36:12.493949	355.0	37.1	-91.5	9.1
2025-01-13 11:36:13.653459	354.6	37.2	-91.4	11.6
2025-01-13 11:36:14.820104	354.2	37.4	-91.4	15.5
2025-01-13 11:36:15.989341	353.8	37.6	-90.5	12.8
2025-01-13 11:36:17.147683	353.4	37.7	-90.1	15.9
2025-01-13 11:36:18.305432	353.0	37.9	-90.1	17.4
2025-01-13 11:36:19.463247	352.6	38.1	-90.0	16.3
2025-01-13 11:36:20.617109	352.2	38.2	-90.5	14.9
2025-01-13 11:36:21.783818	351.8	38.4	-90.6	15.8
2025-01-13 11:36:22.946013	351.4	38.5	-90.4	11.1
2025-01-13 11:36:24.112998	351.0	38.7	-90.3	9.8
2025-01-13 11:36:25.273123	350.5	38.9	-89.9	16.1
2025-01-13 11:36:26.439686	350.1	39.0	-90.4	6.7
2025-01-13 11:36:27.603920	349.7	39.2	-90.2	9.3
2025-01-13 11:36:28.761357	349.2	39.3	-90.6	14.1
2025-01-13 11:36:29.927917	348.8	39.5	-90.5	11.4
2025-01-13 11:36:31.092929	348.4	39.6	-89.9	11.4
2025-01-13 11:36:32.257297	347.9	39.8	-90.1	15.0
2025-01-13 11:36:33.416505	347.5	39.9	-90.2	15.8
2025-01-13 11:36:34.581667	347.0	40.1	-91.3	17.5
2025-01-13 11:36:35.740054	346.5	40.2	-90.9	17.7
2025-01-13 11:36:36.907628	346.1	40.4	-91.0	14.6
2025-01-13 11:36:38.069112	345.6	40.5	-91.1	15.7
2025-01-13 11:36:39.229487	345.1	40.7	-91.0	18.7
2025-01-13 11:36:40.393216	344.7	40.8	-91.0	15.6
2025-01-13 11:36:41.558227	344.2	40.9	-91.1	12.5
2025-01-13 11:36:42.720974	343.7	41.1	-91.0	19.4
2025-01-13 11:36:43.884302	343.2	41.2	-91.3	19.3
2025-01-13 11:36:45.050583	342.7	41.3	-90.4	15.5
2025-01-13 11:36:46.214700	342.2	41.5	-90.4	16.7
2025-01-13 11:36:47.382221	341.7	41.6	-90.3	17.8
2025-01-13 11:36:48.539161	341.2	41.7	-90.4	19.7
2025-01-13 11:36:49.707562	340.7	41.9	-90.2	16.6
2025-01-13 11:36:50.869968	340.2	42.0	-90.2	19.3
2025-01-13 11:36:52.033655	339.7	42.1	-90.3	16.9
2025-01-13 11:36:53.200146	339.1	42.2	-89.5	13.9
2025-01-13 11:36:54.360759	338.6	42.3	-90.1	15.6
2025-01-13 11:36:55.526554	338.1	42.4	-90.6	10.5
2025-01-13 11:36:56.686442	337.5	42.6	-90.3	16.5
2025-01-13 11:36:57.848712	337.0	42.7	-90.5	17.4
2025-01-13 11:36:59.012491	336.5	42.8	-90.3	8.2
2025-01-13 11:37:00.167730	335.9	42.9	-90.4	15.2
2025-01-13 11:37:01.316974	335.4	43.0	-90.2	17.7
2025-01-13 11:37:02.477800	334.8	43.1	-91.2	9.5
2025-01-13 11:37:03.637362	334.3	43.2	-91.1	12.6
2025-01-13 11:37:04.804585	333.7	43.3	-90.9	16.6
2025-01-13 11:37:05.966256	333.2	43.3	-90.8	14.3
2025-01-13 11:37:07.124819	332.6	43.4	-90.4	13.0
2025-01-13 11:37:08.285701	332.0	43.5	-90.5	19.4
2025-01-13 11:37:09.449939	331.5	43.6	-90.8	17.7
2025-01-13 11:37:10.615358	330.9	43.7	-90.7	19.3
2025-01-13 11:37:11.769284	330.3	43.8	-91.6	20.1
2025-01-13 11:37:12.928965	329.7	43.8	-91.4	18.6
2025-01-13 11:37:14.090484	329.1	43.9	-91.3	16.5
2025-01-13 11:37:15.250491	328.6	44.0	-91.0	18.2
2025-01-13 11:37:16.414336	328.0	44.0	-91.0	13.7
2025-01-13 11:37:17.567290	327.4	44.1	-91.3	11.4
2025-01-13 11:37:18.687797	326.8	44.1	-91.0	16.5
2025-01-13 11:37:19.826016	326.2	44.2	-90.9	12.0
2025-01-13 11:37:20.995273	325.6	44.2	-91.1	9.2
2025-01-13 11:37:22.161302	325.1	44.3	-91.1	11.1
2025-01-13 11:37:23.328385	324.5	44.3	-91.1	17.0
2025-01-13 11:37:24.492608	323.9	44.4	-91.2	9.6
2025-01-13 11:37:25.663134	323.2	44.4	-91.3	18.2
2025-01-13 11:37:26.824448	322.6	44.4	-91.2	17.5
2025-01-13 11:37:27.987350	322.0	44.5	-91.4	15.9
2025-01-13 11:37:29.169427	321.4	44.5	-91.1	20.2
2025-01-13 11:37:30.329736	320.8	44.5	-91.2	19.3
2025-01-13 11:37:31.498967	320.2	44.5	-91.4	17.0
2025-01-13 11:37:32.667365	319.6	44.5	-91.6	18.1
2025-01-13 11:37:33.832271	319.0	44.5	-91.7	15.0
2025-01-13 11:37:34.995862	318.4	44.5	-91.6	15.7
2025-01-13 11:37:36.153922	317.8	44.5	-91.0	12.8
2025-01-13 11:37:37.318555	317.2	44.5	-90.8	18.5
2025-01-13 11:37:38.479642	316.6	44.5	-91.0	16.0
2025-01-13 11:37:39.642498	316.0	44.5	-91.2	17.4
2025-01-13 11:37:40.799837	315.4	44.5	-91.2	19.5
2025-01-13 11:37:41.963950	314.8	44.5	-90.6	12.2
2025-01-13 11:37:43.124444	314.1	44.5	-90.8	8.5
2025-01-13 11:37:44.287533	313.5	44.5	-90.6	13.8
2025-01-13 11:37:45.446888	312.9	44.4	-90.9	12.3
2025-01-13 11:37:46.611504	312.3	44.4	-91.3	11.0
2025-01-13 11:37:47.776656	311.7	44.4	-91.2	15.1
2025-01-13 11:37:48.933706	311.1	44.3	-91.4	12.7
2025-01-13 11:37:50.093681	310.5	44.3	-91.4	8.8
2025-01-13 11:37:51.254549	309.9	44.3	-91.1	15.8
2025-01-13 11:37:52.426636	309.3	44.2	-90.8	7.4
2025-01-13 11:37:53.589671	308.7	44.2	-90.8	8.3
2025-01-13 11:37:54.752963	308.2	44.1	-90.8	12.2
2025-01-13 11:37:55.912705	307.6	44.1	-90.6	10.0
2025-01-13 11:37:57.078363	307.0	44.0	-91.1	5.6
2025-01-13 11:37:58.242915	306.4	43.9	-90.9	13.6
2025-01-13 11:37:59.399884	305.8	43.9	-90.7	12.8
2025-01-13 11:38:00.548880	305.2	43.8	-90.8	5.9
2025-01-13 11:38:01.707054	304.7	43.7	-90.8	14.0
2025-01-13 11:38:02.876160	304.1	43.6	-91.5	18.0
2025-01-13 11:38:04.035227	303.5	43.6	-91.1	9.6
2025-01-13 11:38:05.198540	302.9	43.5	-90.8	11.4
2025-01-13 11:38:06.356726	302.4	43.4	-90.8	16.7
2025-01-13 11:38:07.535012	301.8	43.3	-90.8	8.7
2025-01-13 11:38:08.694716	301.2	43.2	-91.0	15.9
2025-01-13 11:38:09.857294	300.7	43.1	-90.8	16.7
2025-01-13 11:38:11.024181	300.1	43.0	-90.7	7.0
2025-01-13 11:38:12.186745	299.6	42.9	-90.7	13.6
2025-01-13 11:38:13.348654	299.0	42.8	-90.8	17.7
2025-01-13 11:38:14.511830	298.5	42.7	-90.9	8.3
2025-01-13 11:38:15.690125	297.9	42.6	-90.8	17.7
2025-01-13 11:38:16.858451	297.4	42.5	-90.8	16.7
2025-01-13 11:38:18.017513	296.9	42.4	-90.8	7.4
2025-01-13 11:38:19.181470	296.3	42.3	-90.5	19.9
2025-01-13 11:38:20.344269	295.8	42.1	-90.9	20.9
2025-01-13 11:38:21.509528	295.3	42.0	-91.5	8.6
2025-01-13 11:38:22.673630	294.8	41.9	-91.5	16.8
2025-01-13 11:38:23.832264	294.3	41.8	-91.3	20.0
2025-01-13 11:38:24.994405	293.7	41.7	-91.5	12.9
2025-01-13 11:38:26.156677	293.2	41.5	-91.1	14.3
2025-01-13 11:38:27.319421	292.7	41.4	-91.1	13.2
2025-01-13 11:38:28.476229	292.2	41.3	-91.6	8.5
2025-01-13 11:38:29.631494	291.7	41.1	-91.5	12.1
2025-01-13 11:38:30.791898	291.3	41.0	-91.5	21.0
2025-01-13 11:38:31.955505	290.8	40.9	-91.7	8.3
2025-01-13 11:38:33.119477	290.3	40.7	-91.1	10.8
2025-01-13 11:38:34.285425	289.8	40.6	-90.9	21.7
2025-01-13 11:38:35.450085	289.3	40.4	-91.4	8.3
2025-01-13 11:38:36.608633	288.9	40.3	-91.4	13.0
2025-01-13 11:38:37.771918	288.4	40.1	-91.4	19.8
2025-01-13 11:38:38.930601	287.9	40.0	-91.4	8.5
2025-01-13 11:38:40.093722	287.5	39.8	-91.1	7.1
2025-01-13 11:38:41.259430	287.0	39.7	-91.3	14.4
2025-01-13 11:38:42.422486	286.6	39.5	-91.4	16.7
2025-01-13 11:38:43.586012	286.1	39.4	-91.2	14.1
2025-01-13 11:38:44.753837	285.7	39.2	-91.2	18.4
2025-01-13 11:38:45.917601	285.3	39.1	-91.4	16.1
2025-01-13 11:38:47.079338	284.8	38.9	-91.0	17.4
2025-01-13 11:38:48.238906	284.4	38.8	-91.1	13.7
2025-01-13 11:38:49.402377	284.0	38.6	-91.1	11.6
2025-01-13 11:38:50.563372	283.6	38.4	-91.1	20.9
2025-01-13 11:38:51.720025	283.2	38.3	-91.7	16.1
2025-01-13 11:38:52.880630	282.8	38.1	-91.6	14.2
2025-01-13 11:38:54.051631	282.3	37.9	-91.6	14.3
2025-01-13 11:38:55.212665	281.9	37.8	-91.2	11.2
2025-01-13 11:38:56.372778	281.5	37.6	-91.4	14.0
2025-01-13 11:38:57.536129	281.1	37.4	-91.3	13.5
2025-01-13 11:38:58.699181	280.8	37.3	-91.2	14.8
2025-01-13 11:38:59.856795	280.4	37.1	-91.3	17.6
2025-01-13 11:39:00.978354	280.0	37.0	-91.5	15.7
2025-01-13 11:39:02.114439	279.6	36.8	-91.4	13.3
2025-01-13 11:39:03.255743	279.3	36.6	-91.0	18.3
2025-01-13 11:39:04.406592	278.9	36.5	-91.1	11.4
2025-01-13 11:39:05.558557	278.5	36.3	-91.6	11.2
2025-01-13 11:39:06.711179	278.2	36.1	-91.4	12.5
2025-01-13 11:39:07.857483	277.8	35.9	-91.4	14.0
2025-01-13 11:39:09.003884	277.5	35.8	-91.6	11.8
2025-01-13 11:39:10.138928	277.1	35.6	-91.3	13.1
2025-01-13 11:39:11.274916	276.8	35.4	-91.3	17.4
2025-01-13 11:39:12.416961	276.4	35.3	-91.4	10.3
2025-01-13 11:39:13.542197	276.1	35.1	-91.2	6.7
2025-01-13 11:39:14.701631	275.8	34.9	-91.1	11.0
2025-01-13 11:39:15.859957	275.4	34.8	-91.7	14.2
2025-01-13 11:39:17.021821	275.1	34.6	-91.4	10.3
2025-01-13 11:39:18.181459	274.8	34.4	-90.8	14.0
2025-01-13 11:39:19.341780	274.5	34.2	-90.7	16.0
2025-01-13 11:39:20.513669	274.1	34.1	-91.1	10.3
2025-01-13 11:39:21.674915	273.8	33.9	-91.1	10.0
2025-01-13 11:39:22.842939	273.5	33.7	-90.5	11.8
2025-01-13 11:39:24.010080	273.2	33.5	-91.0	10.5
2025-01-13 11:39:25.171629	272.9	33.4	-90.7	15.2
2025-01-13 11:39:26.339449	272.6	33.2	-91.0	13.9
2025-01-13 11:39:27.502432	272.3	33.0	-91.3	14.0
2025-01-13 11:39:28.661546	272.0	32.8	-91.4	13.6
2025-01-13 11:39:29.818529	271.7	32.7	-91.2	14.4
2025-01-13 11:39:30.978448	271.4	32.5	-91.3	10.7
2025-01-13 11:39:32.145760	271.1	32.3	-91.1	12.5
2025-01-13 11:39:33.306191	270.8	32.2	-90.9	12.3
2025-01-13 11:39:34.473448	270.6	32.0	-91.1	10.9
2025-01-13 11:39:35.636548	270.3	31.8	-91.0	8.9
2025-01-13 11:39:36.802631	270.0	31.6	-91.2	11.7
2025-01-13 11:39:37.963849	269.7	31.5	-91.3	9.9
2025-01-13 11:39:39.122470	269.5	31.3	-91.4	6.9
2025-01-13 11:39:40.286655	269.2	31.1	-91.0	9.1
2025-01-13 11:39:41.445449	268.9	31.0	-91.3	6.3
2025-01-13 11:39:42.611991	268.7	30.8	-91.4	6.8
2025-01-13 11:39:43.759322	268.4	30.6	-91.6	4.8
2025-01-13 11:39:44.921211	268.2	30.4	-91.5	7.5
2025-01-13 11:39:46.087365	267.9	30.3	-91.2	4.8
2025-01-13 11:39:47.255685	267.7	30.1	-91.2	6.9
2025-01-13 11:39:48.419843	267.4	29.9	-91.2	4.5
2025-01-13 11:39:49.577823	267.2	29.8	-91.3	6.7
2025-01-13 11:39:50.737744	266.9	29.6	-90.6	10.2
2025-01-13 11:39:51.901287	266.7	29.4	-90.2	8.6
2025-01-13 11:39:53.056793	266.4	29.3	-90.7	9.8
2025-01-13 11:39:54.221134	266.2	29.1	-90.7	6.8
2025-01-13 11:39:55.383936	266.0	28.9	-90.6	8.9
2025-01-13 11:39:56.547229	265.7	28.8	-90.6	6.6
2025-01-13 11:39:57.712980	265.5	28.6	-90.6	8.5
2025-01-13 11:39:58.879580	265.3	28.4	-90.8	7.5
2025-01-13 11:40:00.036835	265.1	28.3	-91.1	5.8
2025-01-13 11:40:01.179382	264.8	28.1	-90.5	7.6
2025-01-13 11:40:02.342708	264.6	27.9	-90.4	7.1
2025-01-13 11:40:03.498745	264.4	27.8	-90.8	5.9
2025-01-13 11:40:04.662753	264.2	27.6	-90.7	6.9
2025-01-13 11:40:05.825886	264.0	27.4	-90.4	6.5
2025-01-13 11:40:06.993734	263.8	27.3	-90.5	4.3
2025-01-13 11:40:08.154458	263.6	27.1	-90.2	10.4
2025-01-13 11:40:09.313899	263.4	27.0	-90.8	11.6
2025-01-13 11:40:10.478918	263.2	26.8	-91.1	10.4
2025-01-13 11:40:11.649303	263.0	26.6	-90.4	12.7
2025-01-13 11:40:12.806424	262.8	26.5	-91.1	11.5
2025-01-13 11:40:13.978917	262.6	26.3	-91.2	11.1
2025-01-13 11:40:15.146517	262.4	26.2	-91.2	9.7
2025-01-13 11:40:16.306418	262.2	26.0	-91.6	9.1
2025-01-13 11:40:17.477057	262.0	25.9	-90.7	9.6
2025-01-13 11:40:18.642373	261.8	25.7	-90.8	9.8
2025-01-13 11:40:19.809943	261.6	25.5	-91.1	11.6
2025-01-13 11:40:20.978842	261.4	25.4	-91.1	8.8
2025-01-13 11:40:22.137927	261.2	25.2	-91.1	11.1
2025-01-13 11:40:23.307640	261.0	25.1	-91.3	15.6
2025-01-13 11:40:24.470406	260.9	24.9	-91.1	10.6
2025-01-13 11:40:25.632881	260.7	24.8	-91.2	9.5
2025-01-13 11:40:26.796509	260.5	24.6	-91.4	13.4
2025-01-13 11:40:27.956742	260.3	24.5	-91.2	15.5
2025-01-13 11:40:29.113947	260.2	24.3	-91.0	16.5
2025-01-13 11:40:30.278003	260.0	24.2	-91.0	17.2
2025-01-13 11:40:31.444794	259.8	24.0	-91.2	16.5
2025-01-13 11:40:32.604225	259.6	23.9	-91.5	15.8
2025-01-13 11:40:33.771023	259.5	23.7	-91.3	15.0
2025-01-13 11:40:34.933687	259.3	23.6	-91.4	13.6
2025-01-13 11:40:36.096187	259.1	23.4	-91.0	10.2
2025-01-13 11:40:37.259689	259.0	23.3	-91.3	13.9
2025-01-13 11:40:38.420443	258.8	23.1	-91.3	9.3
2025-01-13 11:40:39.587099	258.7	23.0	-91.3	8.9
2025-01-13 11:40:40.743988	258.5	22.8	-91.3	15.8
2025-01-13 11:40:41.906927	258.4	22.7	-91.2	9.2
2025-01-13 11:40:43.070249	258.2	22.5	-91.0	8.9
2025-01-13 11:40:44.236331	258.0	22.4	-91.3	15.6
2025-01-13 11:40:45.390597	257.9	22.2	-91.2	11.9
2025-01-13 11:40:46.567877	257.7	22.1	-91.2	9.7
2025-01-13 11:40:47.732958	257.6	22.0	-91.4	12.1
2025-01-13 11:40:48.895607	257.4	21.8	-91.3	10.4
2025-01-13 11:40:50.059598	257.3	21.7	-90.8	11.8
2025-01-13 11:40:51.221122	257.2	21.5	-90.8	12.1
2025-01-13 11:40:52.382425	257.0	21.4	-91.1	8.6
2025-01-13 11:40:53.546435	256.9	21.3	-90.9	9.5
2025-01-13 11:40:54.716499	256.7	21.1	-91.1	9.1
2025-01-13 11:40:55.879331	256.6	21.0	-91.2	9.2
2025-01-13 11:40:57.043117	256.4	20.8	-91.2	7.3
2025-01-13 11:40:58.205335	256.3	20.7	-91.1	8.8
2025-01-13 11:40:59.363480	256.2	20.6	-91.2	10.6
2025-01-13 11:41:00.509151	256.0	20.4	-91.5	7.2
2025-01-13 11:41:01.668236	255.9	20.3	-90.4	4.9
2025-01-13 11:41:02.831347	255.8	20.2	-90.7	3.6
2025-01-13 11:41:03.999348	255.6	20.0	-90.6	6.6
2025-01-13 11:41:05.163285	255.5	19.9	-90.4	5.9
2025-01-13 11:41:06.326317	255.4	19.8	-90.3	5.7
2025-01-13 11:41:07.494352	255.3	19.6	-90.4	5.7
2025-01-13 11:41:08.652372	255.1	19.5	-90.4	9.6
2025-01-13 11:41:09.813610	255.0	19.4	-90.4	7.5
2025-01-13 11:41:10.975853	254.9	19.2	-90.3	4.0
2025-01-13 11:41:12.142769	254.8	19.1	-90.6	6.5
2025-01-13 11:41:13.304821	254.6	19.0	-90.6	8.4
2025-01-13 11:41:14.454846	254.5	18.8	-90.6	4.6
2025-01-13 11:41:15.591668	254.4	18.7	-90.7	5.2
2025-01-13 11:41:16.734352	254.3	18.6	-90.8	6.5
2025-01-13 11:41:17.897340	254.2	18.5	-90.7	5.3
2025-01-13 11:41:19.061207	254.0	18.3	-90.9	5.5
2025-01-13 11:41:20.230238	253.9	18.2	-90.9	8.4
2025-01-13 11:41:21.393703	253.8	18.1	-90.6	11.2
2025-01-13 11:41:22.552974	253.7	18.0	-90.7	9.0
2025-01-13 11:41:23.712018	253.6	17.8	-90.9	9.0
2025-01-13 11:41:24.873857	253.5	17.7	-90.5	9.6
2025-01-13 11:41:26.038298	253.4	17.6	-90.5	7.7
2025-01-13 11:41:27.198795	253.2	17.5	-90.2	8.1
2025-01-13 11:41:28.363645	253.1	17.3	-90.8	9.1
2025-01-13 11:41:29.518192	253.0	17.2	-91.2	9.1
2025-01-13 11:41:30.680565	252.9	17.1	-91.5	11.2
2025-01-13 11:41:31.847078	252.8	17.0	-91.4	10.7
2025-01-13 11:41:33.010491	252.7	16.8	-91.6	10.4
2025-01-13 11:41:34.174417	252.6	16.7	-91.3	10.9
2025-01-13 11:41:35.337950	252.5	16.6	-91.1	11.6
2025-01-13 11:41:36.501276	252.4	16.5	-91.2	11.3
2025-01-13 11:41:37.664292	252.3	16.4	-91.1	11.9
2025-01-13 11:41:38.831229	252.2	16.2	-91.1	9.1
2025-01-13 11:41:39.991180	252.1	16.1	-91.1	8.9
2025-01-13 11:41:41.163403	252.0	16.0	-91.2	9.3
2025-01-13 11:41:42.331046	251.9	15.9	-91.1	9.6
2025-01-13 11:41:43.495376	251.8	15.8	-90.9	7.5
2025-01-13 11:41:44.659387	251.7	15.7	-91.1	9.1
2025-01-13 11:41:45.811196	251.6	15.5	-91.3	10.8
2025-01-13 11:41:46.977425	251.5	15.4	-91.1	9.6
2025-01-13 11:41:48.145990	251.4	15.3	-91.0	10.0
2025-01-13 11:41:49.305914	251.3	15.2	-90.9	8.5
2025-01-13 11:41:50.460523	251.2	15.1	-91.1	13.3
2025-01-13 11:41:51.627420	251.1	15.0	-91.2	12.7
2025-01-13 11:41:52.786932	251.0	14.9	-91.4	9.4
2025-01-13 11:41:53.938132	250.9	14.7	-91.0	10.8
2025-01-13 11:41:55.099756	250.8	14.6	-90.9	7.0
2025-01-13 11:41:56.256151	250.8	14.5	-91.0	9.7
#Closed at: 2025-01-13 11:33:24.896925