passes_logs/2026/01/14/XPeterburg/XPeterburg__20260114_123112_FENGYUN_3D_rec.log

#Pass ID: 20260114_123112_FENGYUN 3D
#Satellite: FENGYUN 3D
#Configuration: FENGYUN 3D
#Start time: 2026-01-14 12:31:05

#Version: 1.5.20200625
#Station: XPeterburg
#Location: 30.318091 lon 59.932769 lat
#TLE: 1 43010U 17072A   26013.94640698 -.00000044  00000+0  88349-6 0  9999
#TLE: 2 43010  98.9934 345.7464 0002313 110.9627 249.1796 14.19695403423100

#Time	Az	El	Level	Level2	SNR	BER	Gain	Gain2
2026-01-14 12:31:05.94	178.74	67.38	-38.6	-41.0	3.3	8392570	95	3250
2026-01-14 12:31:06.34	178.89	67.56	-37.9	-41.0	3.7	8409347	92	3526
2026-01-14 12:31:06.74	179.05	67.73	-37.9	-40.2	3.6	8389308	92	3203
2026-01-14 12:31:07.15	179.21	67.91	-37.9	-41.5	3.8	8386585	92	3711
2026-01-14 12:31:07.55	179.37	68.08	-38.1	-40.2	3.5	8391025	93	3153
2026-01-14 12:31:07.95	179.54	68.25	-38.1	-42.0	3.6	8397960	93	3830
2026-01-14 12:31:08.35	179.70	68.43	-38.1	-40.2	3.5	8437076	93	3155
2026-01-14 12:31:08.75	179.87	68.60	-37.8	-40.7	3.7	8384239	93	3434
2026-01-14 12:31:09.16	180.05	68.78	-37.2	-38.1	4.1	8403705	92	2741
2026-01-14 12:31:09.56	180.22	68.95	-36.3	-36.2	5.0	7792716	91	2421
2026-01-14 12:31:09.96	180.40	69.13	-35.0	-34.8	6.4	5288658	88	2386
2026-01-14 12:31:10.36	180.58	69.30	-33.7	-33.6	7.9	2341953	85	2411
2026-01-14 12:31:10.76	180.77	69.48	-32.6	-32.3	9.3	415363	83	2364
2026-01-14 12:31:11.17	180.96	69.66	-31.8	-31.1	10.5	153282	82	2263
2026-01-14 12:31:11.57	181.16	69.83	-31.0	-30.5	11.5	55492	80	2307
2026-01-14 12:31:11.97	181.35	70.01	-30.2	-29.7	12.4	5939	78	2324
2026-01-14 12:31:12.37	181.55	70.18	-29.4	-28.6	13.3	1636	77	2250
2026-01-14 12:31:12.77	181.75	70.36	-28.8	-28.0	14.0	148	76	2232
2026-01-14 12:31:13.18	181.97	70.54	-28.3	-27.5	14.3	0	75	2234
2026-01-14 12:31:13.58	182.18	70.71	-28.5	-27.7	14.3	11	75	2266
2026-01-14 12:31:13.98	182.39	70.89	-28.7	-28.3	14.1	22	75	2354
2026-01-14 12:31:14.38	182.61	71.06	-28.9	-28.6	13.9	68	75	2394
2026-01-14 12:31:14.78	182.83	71.24	-28.9	-28.8	13.9	57	75	2408
2026-01-14 12:31:15.18	183.06	71.42	-28.9	-28.7	14.0	57	75	2395
2026-01-14 12:31:15.59	183.30	71.60	-28.8	-28.5	14.1	68	75	2376
2026-01-14 12:31:15.99	183.54	71.77	-28.8	-28.5	14.0	22	75	2367
2026-01-14 12:31:16.39	183.78	71.95	-28.7	-28.3	14.1	45	75	2339
2026-01-14 12:31:16.79	184.03	72.12	-28.6	-28.0	14.2	57	75	2306
2026-01-14 12:31:17.19	184.28	72.30	-28.6	-28.1	14.1	22	75	2308
2026-01-14 12:31:17.60	184.55	72.48	-28.6	-28.1	14.0	22	75	2308
2026-01-14 12:31:18.00	184.81	72.65	-28.7	-28.2	13.9	45	75	2328
2026-01-14 12:31:18.40	185.08	72.83	-28.8	-28.4	13.8	57	75	2345
2026-01-14 12:31:18.80	185.35	73.00	-28.9	-28.5	13.7	80	75	2366
2026-01-14 12:31:19.20	185.63	73.18	-28.8	-28.4	13.8	102	75	2354
2026-01-14 12:31:19.61	185.93	73.36	-28.8	-28.3	14.0	102	75	2339
2026-01-14 12:31:20.01	186.22	73.53	-28.7	-28.2	14.1	57	75	2326
2026-01-14 12:31:20.41	186.52	73.71	-28.6	-28.0	14.2	34	75	2298
2026-01-14 12:31:20.81	186.83	73.88	-28.6	-28.0	14.4	45	75	2293
2026-01-14 12:31:21.22	187.15	74.06	-28.6	-28.0	14.4	57	75	2300
2026-01-14 12:31:21.62	187.47	74.24	-28.7	-28.3	14.3	22	75	2332
2026-01-14 12:31:22.02	187.80	74.41	-28.9	-28.6	14.2	0	75	2384
2026-01-14 12:31:22.42	188.14	74.58	-29.0	-28.9	14.1	34	75	2417
2026-01-14 12:31:22.82	188.48	74.76	-29.2	-29.2	13.9	68	75	2461
2026-01-14 12:31:23.23	188.84	74.93	-29.3	-29.4	13.8	34	75	2500
2026-01-14 12:31:23.63	189.21	75.11	-29.2	-29.3	13.8	80	75	2491
2026-01-14 12:31:24.03	189.58	75.28	-29.2	-29.3	13.9	68	75	2485
2026-01-14 12:31:24.44	189.96	75.46	-29.1	-29.0	14.1	34	75	2445
2026-01-14 12:31:24.84	190.35	75.63	-29.1	-29.1	14.1	11	75	2450
2026-01-14 12:31:25.24	190.75	75.80	-29.2	-29.2	14.1	34	75	2479
2026-01-14 12:31:25.64	191.16	75.97	-29.7	-29.8	13.7	57	76	2486
2026-01-14 12:31:26.04	191.58	76.14	-29.6	-29.7	13.9	102	76	2482
2026-01-14 12:31:26.45	192.02	76.31	-29.9	-30.2	13.6	57	76	2555
2026-01-14 12:31:26.85	192.46	76.48	-29.5	-29.5	14.0	125	76	2450
2026-01-14 12:31:27.25	192.91	76.65	-29.7	-29.9	13.9	68	76	2515
2026-01-14 12:31:27.65	193.38	76.82	-29.6	-29.7	13.9	80	76	2478
2026-01-14 12:31:28.05	193.85	76.98	-29.6	-29.6	14.0	80	76	2466
2026-01-14 12:31:28.45	194.34	77.15	-29.6	-29.6	14.0	80	76	2461
2026-01-14 12:31:28.86	194.86	77.32	-29.4	-29.2	14.2	22	76	2404
2026-01-14 12:31:29.26	195.37	77.49	-29.7	-29.8	13.9	68	76	2490
2026-01-14 12:31:29.66	195.90	77.65	-29.4	-29.2	14.1	34	76	2402
2026-01-14 12:31:30.06	196.45	77.81	-29.4	-29.2	14.1	34	76	2403
2026-01-14 12:31:30.47	197.02	77.98	-29.3	-28.9	14.1	0	76	2362
2026-01-14 12:31:30.87	197.60	78.14	-29.3	-29.0	14.0	57	76	2365
2026-01-14 12:31:31.27	198.19	78.30	-29.2	-28.7	14.1	57	76	2322
2026-01-14 12:31:31.67	198.80	78.46	-29.4	-29.1	13.9	34	76	2389
2026-01-14 12:31:32.07	199.42	78.62	-29.6	-29.6	13.6	57	76	2450
2026-01-14 12:31:32.48	200.08	78.78	-29.6	-29.5	13.6	148	76	2445
2026-01-14 12:31:32.88	200.75	78.93	-29.7	-29.8	13.6	217	76	2487
2026-01-14 12:31:33.28	201.43	79.09	-29.8	-30.0	13.5	183	76	2511
2026-01-14 12:31:33.68	202.13	79.24	-29.8	-30.1	13.5	148	76	2535
2026-01-14 12:31:34.08	202.85	79.39	-29.8	-30.0	13.6	148	76	2519
2026-01-14 12:31:34.49	203.61	79.54	-29.8	-30.0	13.5	171	76	2524
2026-01-14 12:31:34.89	204.38	79.69	-29.6	-29.5	13.9	57	76	2444
2026-01-14 12:31:35.29	205.17	79.84	-29.5	-29.3	14.0	80	76	2421
2026-01-14 12:31:35.69	205.98	79.98	-29.7	-29.7	13.8	68	76	2476
2026-01-14 12:31:36.10	206.84	80.13	-29.6	-29.7	13.9	57	76	2463
2026-01-14 12:31:36.50	207.70	80.27	-29.6	-29.5	14.0	68	76	2446
2026-01-14 12:31:36.90	208.58	80.41	-29.7	-29.8	13.8	125	76	2487
2026-01-14 12:31:37.30	209.49	80.54	-29.8	-29.9	13.8	22	76	2506
2026-01-14 12:31:37.70	210.43	80.68	-30.0	-30.4	13.6	102	76	2574
2026-01-14 12:31:38.11	211.42	80.81	-30.0	-30.0	13.5	160	77	2442
2026-01-14 12:31:38.51	212.42	80.94	-30.1	-30.1	13.5	217	77	2461
2026-01-14 12:31:38.91	213.44	81.07	-30.1	-30.1	13.4	228	77	2465
2026-01-14 12:31:39.31	214.49	81.19	-30.0	-29.8	13.7	114	77	2419
2026-01-14 12:31:39.72	215.60	81.31	-30.1	-30.1	13.6	171	77	2454
2026-01-14 12:31:40.12	216.72	81.43	-30.0	-29.9	13.6	183	77	2434
2026-01-14 12:31:40.52	217.86	81.54	-30.1	-30.0	13.7	125	77	2433
2026-01-14 12:31:40.92	219.04	81.65	-30.1	-30.0	13.6	148	77	2446
2026-01-14 12:31:41.33	220.27	81.76	-30.1	-30.0	13.7	148	77	2449
2026-01-14 12:31:41.73	221.51	81.87	-30.3	-30.5	13.4	160	77	2511
2026-01-14 12:31:42.13	222.78	81.96	-30.2	-30.4	13.4	114	77	2496
2026-01-14 12:31:42.53	224.08	82.06	-30.6	-30.6	13.0	331	78	2472
2026-01-14 12:31:42.94	225.45	82.15	-30.7	-30.9	12.9	560	78	2514
2026-01-14 12:31:43.34	226.81	82.24	-30.9	-31.4	12.7	949	78	2584
2026-01-14 12:31:43.74	228.21	82.32	-30.8	-31.1	12.7	1396	78	2539
2026-01-14 12:31:44.14	229.63	82.40	-30.9	-31.2	12.8	1350	78	2547
2026-01-14 12:31:44.55	231.12	82.48	-30.8	-30.9	12.9	858	78	2511
2026-01-14 12:31:44.95	232.61	82.54	-30.7	-30.9	12.9	801	78	2499
2026-01-14 12:31:45.35	234.11	82.61	-30.8	-31.0	12.8	938	78	2524
2026-01-14 12:31:45.75	235.65	82.66	-30.9	-31.2	12.7	801	78	2549
2026-01-14 12:31:46.15	237.20	82.72	-30.9	-31.3	12.7	1064	78	2560
2026-01-14 12:31:46.56	238.82	82.77	-31.0	-30.9	12.6	1476	79	2441
2026-01-14 12:31:46.96	240.42	82.81	-30.9	-30.8	12.6	1419	79	2424
2026-01-14 12:31:47.36	242.04	82.84	-31.2	-31.4	12.3	1716	79	2509
2026-01-14 12:31:47.76	243.67	82.87	-30.8	-30.4	12.8	1968	79	2367
2026-01-14 12:31:48.16	245.31	82.90	-31.1	-31.2	12.3	1705	79	2481
2026-01-14 12:31:48.57	247.01	82.92	-30.9	-30.8	12.6	1659	79	2426
2026-01-14 12:31:48.97	248.67	82.93	-30.8	-30.5	12.7	1625	79	2384
2026-01-14 12:31:49.37	250.34	82.94	-31.0	-30.9	12.6	1625	79	2433
2026-01-14 12:31:49.77	252.01	82.94	-30.7	-30.4	12.7	1132	79	2360
2026-01-14 12:31:50.18	253.72	82.93	-30.5	-30.4	13.3	823	78	2440
2026-01-14 12:31:50.58	255.38	82.92	-30.6	-30.6	13.1	492	78	2452
2026-01-14 12:31:50.98	257.04	82.91	-30.2	-29.8	13.6	194	78	2354
2026-01-14 12:31:51.38	258.69	82.88	-30.1	-29.5	13.7	194	78	2306
2026-01-14 12:31:51.79	260.36	82.85	-30.6	-30.6	13.2	240	78	2465
2026-01-14 12:31:52.19	261.98	82.82	-30.2	-29.7	13.5	366	78	2332
2026-01-14 12:31:52.59	263.59	82.78	-30.4	-30.3	13.4	366	78	2430
2026-01-14 12:31:52.99	265.17	82.73	-30.3	-30.0	13.5	297	78	2370
2026-01-14 12:31:53.39	266.74	82.68	-30.1	-29.6	13.8	102	78	2322
2026-01-14 12:31:53.80	268.32	82.63	-30.0	-29.3	13.9	68	78	2282
2026-01-14 12:31:54.20	269.83	82.56	-29.7	-29.3	14.2	45	77	2350
2026-01-14 12:31:54.60	271.32	82.50	-29.9	-29.7	14.0	45	77	2401
2026-01-14 12:31:55.00	272.79	82.43	-29.8	-29.5	14.0	34	77	2376
2026-01-14 12:31:55.40	274.22	82.35	-29.9	-29.7	13.9	45	77	2401
2026-01-14 12:31:55.81	275.66	82.27	-29.7	-29.3	14.1	68	77	2354
2026-01-14 12:31:56.21	277.03	82.18	-29.6	-29.2	14.2	11	77	2330
2026-01-14 12:31:56.61	278.38	82.09	-29.5	-28.8	14.4	22	77	2280
2026-01-14 12:31:57.01	279.69	82.00	-29.3	-28.6	14.5	22	77	2246
2026-01-14 12:31:57.42	281.00	81.90	-29.3	-29.0	14.6	11	76	2368
2026-01-14 12:31:57.82	282.25	81.80	-29.1	-28.6	14.8	0	76	2315
2026-01-14 12:31:58.22	283.47	81.69	-29.1	-28.5	14.9	11	76	2295
2026-01-14 12:31:58.62	284.65	81.58	-28.6	-27.9	15.2	11	75	2280
2026-01-14 12:31:59.03	285.83	81.47	-28.5	-27.9	15.2	11	75	2279
2026-01-14 12:31:59.43	286.96	81.35	-28.3	-27.3	15.5	11	75	2210
2026-01-14 12:31:59.83	288.05	81.23	-28.5	-27.8	15.3	0	75	2269
2026-01-14 12:32:00.23	289.11	81.11	-28.6	-28.0	15.2	0	75	2296
2026-01-14 12:32:00.63	290.14	80.98	-28.7	-28.1	15.1	0	75	2319
2026-01-14 12:32:01.04	291.17	80.85	-28.8	-28.5	14.8	0	75	2373
2026-01-14 12:32:01.44	292.15	80.72	-28.6	-28.0	15.0	11	75	2307
2026-01-14 12:32:01.84	293.10	80.59	-28.4	-27.7	15.2	0	75	2255
2026-01-14 12:32:02.24	294.02	80.46	-28.2	-27.3	15.4	11	75	2204
2026-01-14 12:32:02.64	294.91	80.32	-28.1	-27.5	15.7	0	74	2301
2026-01-14 12:32:03.05	295.80	80.18	-28.5	-28.2	15.4	0	74	2393
2026-01-14 12:32:03.45	296.64	80.03	-28.3	-28.0	15.4	0	74	2365
2026-01-14 12:32:03.85	297.46	79.89	-28.4	-28.2	15.3	0	74	2397
2026-01-14 12:32:04.25	298.26	79.74	-28.7	-28.7	15.0	0	74	2469
2026-01-14 12:32:04.65	299.03	79.60	-28.5	-28.4	15.2	0	74	2430
2026-01-14 12:32:05.06	299.80	79.44	-28.6	-28.6	15.1	0	74	2463
2026-01-14 12:32:05.46	300.53	79.29	-28.5	-28.4	15.2	0	74	2433
2026-01-14 12:32:05.86	301.24	79.14	-28.3	-28.0	15.5	0	74	2373
2026-01-14 12:32:06.26	301.93	78.99	-28.5	-28.4	15.3	0	74	2435
2026-01-14 12:32:06.66	302.60	78.83	-28.5	-28.4	15.2	0	74	2434
2026-01-14 12:32:07.07	303.26	78.67	-28.5	-28.4	15.2	0	74	2428
2026-01-14 12:32:07.47	303.89	78.52	-28.6	-28.6	15.1	0	74	2465
2026-01-14 12:32:07.87	304.51	78.36	-28.6	-28.5	15.2	0	74	2452
2026-01-14 12:32:08.27	305.11	78.20	-28.4	-28.2	15.4	0	74	2404
2026-01-14 12:32:08.68	305.70	78.03	-28.4	-28.3	15.4	0	74	2419
2026-01-14 12:32:09.08	306.27	77.87	-28.5	-28.3	15.3	0	74	2415
2026-01-14 12:32:09.48	306.82	77.71	-28.2	-27.8	15.6	0	74	2345
2026-01-14 12:32:09.88	307.35	77.55	-28.3	-28.0	15.5	0	74	2375
2026-01-14 12:32:10.29	307.88	77.38	-28.3	-28.0	15.5	0	74	2375
2026-01-14 12:32:10.69	308.39	77.21	-28.2	-27.7	15.6	0	74	2326
2026-01-14 12:32:11.09	308.88	77.05	-28.5	-28.4	15.2	0	74	2425
2026-01-14 12:32:11.49	309.36	76.88	-28.6	-28.7	15.0	0	74	2463
2026-01-14 12:32:11.89	309.83	76.71	-28.5	-28.3	15.1	0	74	2409
2026-01-14 12:32:12.29	310.29	76.54	-28.5	-28.4	15.1	0	74	2419
2026-01-14 12:32:12.70	310.74	76.37	-28.8	-29.0	14.7	11	74	2510
2026-01-14 12:32:13.10	311.18	76.20	-28.9	-28.7	14.5	0	75	2403
2026-01-14 12:32:13.50	311.60	76.03	-28.9	-28.6	14.5	0	75	2379
2026-01-14 12:32:13.90	312.01	75.86	-28.7	-28.2	14.6	0	75	2326
2026-01-14 12:32:14.31	312.42	75.69	-28.6	-28.1	14.7	11	75	2305
2026-01-14 12:32:14.71	312.81	75.52	-28.5	-27.8	14.8	22	75	2275
2026-01-14 12:32:15.11	313.20	75.34	-28.6	-27.9	14.7	0	75	2285
2026-01-14 12:32:15.51	313.57	75.17	-28.6	-27.9	14.6	34	75	2278
2026-01-14 12:32:15.92	313.94	75.00	-28.5	-27.9	14.6	0	75	2276
2026-01-14 12:32:16.32	314.30	74.82	-28.7	-28.2	14.5	0	75	2319
2026-01-14 12:32:16.72	314.64	74.65	-29.1	-28.9	14.0	11	75	2419
2026-01-14 12:32:17.12	314.98	74.48	-29.2	-29.2	13.9	34	75	2464
2026-01-14 12:32:17.52	315.31	74.30	-29.5	-29.8	13.7	91	75	2563
2026-01-14 12:32:17.93	315.65	74.13	-29.9	-30.3	13.4	125	76	2562
2026-01-14 12:32:18.33	315.96	73.95	-30.0	-30.3	13.5	183	76	2566
2026-01-14 12:32:18.73	316.27	73.78	-30.1	-30.0	13.4	171	77	2455
2026-01-14 12:32:19.13	316.57	73.60	-30.2	-30.4	13.2	286	77	2513
2026-01-14 12:32:19.53	316.87	73.43	-30.1	-30.2	13.3	286	77	2487
2026-01-14 12:32:19.93	317.16	73.25	-30.2	-30.2	13.3	274	77	2487
2026-01-14 12:32:20.34	317.45	73.07	-30.3	-30.6	13.0	652	77	2536
2026-01-14 12:32:20.74	317.73	72.90	-30.3	-30.4	13.1	389	77	2513
2026-01-14 12:32:21.14	318.00	72.72	-30.3	-30.5	13.0	503	77	2529
2026-01-14 12:32:21.55	318.27	72.55	-30.0	-30.0	13.2	446	77	2442
2026-01-14 12:32:21.95	318.53	72.37	-30.0	-29.9	13.2	320	77	2419
2026-01-14 12:32:22.35	318.78	72.19	-30.1	-30.2	13.1	331	77	2463
2026-01-14 12:32:22.75	319.03	72.02	-30.3	-30.6	12.9	446	77	2532
2026-01-14 12:32:23.15	319.28	71.84	-30.8	-31.1	12.3	755	78	2536
2026-01-14 12:32:23.56	319.52	71.66	-30.9	-31.3	12.1	3295	78	2569
2026-01-14 12:32:23.96	319.76	71.49	-30.9	-30.9	11.9	5493	79	2442
2026-01-14 12:32:24.36	319.99	71.31	-30.9	-30.9	11.9	6729	79	2440
2026-01-14 12:32:24.76	320.21	71.14	-31.1	-31.2	11.7	10688	79	2484
2026-01-14 12:32:25.17	320.44	70.96	-31.0	-31.1	11.9	8182	79	2469
2026-01-14 12:32:25.57	320.65	70.78	-31.3	-31.1	11.8	7049	80	2411
2026-01-14 12:32:25.97	320.87	70.61	-31.6	-31.8	11.4	9681	80	2509
2026-01-14 12:32:26.37	321.08	70.43	-32.7	-33.1	10.0	7907	82	2575
2026-01-14 12:32:26.77	321.28	70.26	-36.4	-38.1	5.3	1621135	89	2969

#Closed at: 2026-01-14 12:32:27