passes_logs/2026/01/14/XPeterburg/XPeterburg__20260114_190121_FENGYUN_3F_rec.log

#Pass ID: 20260114_190121_FENGYUN 3F
#Satellite: FENGYUN 3F
#Configuration: FENGYUN 3F
#Start time: 2026-01-14 19:01:17

#Version: 1.5.20200625
#Station: XPeterburg
#Location: 30.318091 lon 59.932769 lat
#TLE: 1 57490U 23111A   26013.93542985  .00000049  00000+0  43690-4 0  9998
#TLE: 2 57490  98.7035  86.7025 0001232 115.6620 244.4684 14.19903231126976

#Time	Az	El	Level	Level2	SNR	BER	Gain	Gain2
2026-01-14 19:01:17.98	134.42	68.41	-39.0	-41.1	3.3	8390258	96	6269
2026-01-14 19:01:18.39	134.20	68.58	-38.6	-41.9	3.5	8445510	94	7218
2026-01-14 19:01:18.79	133.98	68.75	-38.5	-40.7	3.3	8388130	94	6365
2026-01-14 19:01:19.19	133.76	68.92	-38.4	-41.5	3.6	8436092	94	7009
2026-01-14 19:01:19.59	133.53	69.08	-38.2	-39.8	3.3	8422210	94	5875
2026-01-14 19:01:19.99	133.30	69.25	-38.1	-40.9	3.6	8421752	94	6750
2026-01-14 19:01:20.40	133.06	69.42	-38.0	-38.9	3.5	8400604	94	5502
2026-01-14 19:01:20.80	132.82	69.59	-37.9	-40.0	3.6	8413410	94	6275
2026-01-14 19:01:21.20	132.58	69.76	-37.9	-39.1	3.6	8405937	93	5667
2026-01-14 19:01:21.60	132.33	69.92	-37.6	-38.2	3.7	8361923	93	5295
2026-01-14 19:01:22.00	132.08	70.09	-37.5	-38.0	3.8	8337673	93	5217
2026-01-14 19:01:22.41	131.81	70.26	-37.6	-39.7	3.7	8357505	93	6287
2026-01-14 19:01:22.81	131.55	70.43	-37.8	-39.2	3.6	8432018	93	5794
2026-01-14 19:01:23.21	131.28	70.60	-37.7	-40.0	3.7	8371513	93	6430
2026-01-14 19:01:23.61	131.01	70.76	-37.5	-38.1	3.9	8387901	93	5321
2026-01-14 19:01:24.02	130.73	70.94	-37.4	-37.5	3.9	8280200	93	5009
2026-01-14 19:01:24.42	130.44	71.10	-37.5	-38.0	3.8	8292915	93	5216
2026-01-14 19:01:24.82	130.16	71.27	-37.6	-39.8	3.7	8332283	93	6324
2026-01-14 19:01:25.22	129.86	71.43	-37.2	-37.8	4.1	8342857	92	5287
2026-01-14 19:01:25.62	129.56	71.60	-36.8	-36.9	4.5	8093765	91	5011
2026-01-14 19:01:26.03	129.25	71.77	-36.4	-36.1	4.9	7673103	91	4703
2026-01-14 19:01:26.43	128.94	71.94	-36.4	-36.0	4.9	7507106	91	4685
2026-01-14 19:01:26.83	128.62	72.10	-36.5	-36.1	4.8	7592491	91	4693
2026-01-14 19:01:27.23	128.30	72.27	-36.5	-36.1	4.8	7487239	91	4701
2026-01-14 19:01:27.63	127.97	72.43	-36.3	-35.7	4.9	7463207	91	4562
2026-01-14 19:01:28.04	127.63	72.60	-36.1	-35.7	4.9	7461765	90	4707
2026-01-14 19:01:28.44	127.28	72.76	-36.3	-36.2	4.7	7477489	90	4841
2026-01-14 19:01:28.84	126.93	72.93	-36.6	-36.8	4.4	7803577	90	5038
2026-01-14 19:01:29.24	126.57	73.09	-36.6	-36.7	4.4	7974369	90	4985
2026-01-14 19:01:29.65	126.20	73.26	-36.4	-36.1	4.6	7861553	90	4772
2026-01-14 19:01:30.05	125.83	73.42	-36.1	-35.6	4.8	7675701	90	4613
2026-01-14 19:01:30.45	125.45	73.58	-36.2	-35.7	4.8	7493190	90	4666
2026-01-14 19:01:30.85	125.06	73.74	-36.6	-36.8	4.4	7794982	90	5018
2026-01-14 19:01:31.25	124.66	73.90	-36.8	-37.4	4.2	8151466	90	5252
2026-01-14 19:01:31.66	124.25	74.07	-36.8	-37.4	4.2	8165176	90	5241
2026-01-14 19:01:32.06	123.84	74.23	-36.5	-36.7	4.6	8006687	90	5002
2026-01-14 19:01:32.46	123.41	74.39	-36.3	-36.2	4.7	7862068	90	4852
2026-01-14 19:01:32.86	122.98	74.55	-36.4	-36.4	4.8	7717643	90	4911
2026-01-14 19:01:33.26	122.54	74.70	-36.5	-36.7	4.7	7680862	90	5028
2026-01-14 19:01:33.67	122.08	74.86	-36.7	-37.2	4.5	7735176	90	5194
2026-01-14 19:01:34.07	121.62	75.02	-37.0	-38.0	4.3	8008598	90	5509
2026-01-14 19:01:34.47	121.15	75.18	-37.5	-38.3	4.0	8199691	92	5398
2026-01-14 19:01:34.87	120.67	75.33	-37.5	-38.4	4.0	8246795	92	5415
2026-01-14 19:01:35.27	120.18	75.49	-37.7	-38.7	3.9	8267166	92	5553
2026-01-14 19:01:35.68	119.66	75.64	-37.7	-38.8	3.9	8303112	92	5576
2026-01-14 19:01:36.08	119.15	75.79	-37.8	-40.4	3.7	8314899	92	6652
2026-01-14 19:01:36.48	118.62	75.95	-37.8	-39.5	3.9	8383769	92	5972
2026-01-14 19:01:36.88	118.09	76.10	-37.8	-39.1	3.8	8299255	92	5705
2026-01-14 19:01:37.29	117.52	76.25	-37.7	-40.1	3.8	8332569	92	6480
2026-01-14 19:01:37.69	116.96	76.40	-37.5	-38.3	4.0	8279491	92	5355
2026-01-14 19:01:38.09	116.39	76.54	-37.1	-37.1	4.4	8054489	92	4901
2026-01-14 19:01:38.49	115.80	76.69	-36.9	-36.4	4.7	7782302	92	4673
2026-01-14 19:01:38.89	115.20	76.83	-37.2	-37.1	4.4	7837051	92	4914
2026-01-14 19:01:39.30	114.57	76.98	-37.6	-38.4	4.0	8128967	92	5405
2026-01-14 19:01:39.70	113.94	77.12	-38.3	-41.2	3.7	8352870	93	6888
2026-01-14 19:01:40.10	113.30	77.26	-38.4	-40.2	3.5	8392765	93	6084
2026-01-14 19:01:40.50	112.64	77.40	-38.4	-41.4	3.6	8372875	93	6969
2026-01-14 19:01:40.91	111.95	77.54	-38.5	-40.1	3.5	8428390	94	5940
2026-01-14 19:01:41.31	111.26	77.68	-38.7	-42.1	3.6	8375839	94	7248
2026-01-14 19:01:41.71	110.55	77.81	-38.6	-40.6	3.5	8439685	94	6204
2026-01-14 19:01:42.11	109.83	77.94	-38.3	-39.4	3.5	8386436	94	5562
2026-01-14 19:01:42.51	109.10	78.07	-38.3	-40.0	3.7	8437843	94	5932
2026-01-14 19:01:42.91	108.34	78.20	-38.4	-39.5	3.5	8374431	94	5607
2026-01-14 19:01:43.32	107.55	78.33	-38.7	-41.1	3.5	8433780	94	6549
2026-01-14 19:01:43.72	106.77	78.46	-38.4	-39.5	3.5	8385108	94	5624
2026-01-14 19:01:44.12	105.96	78.58	-38.2	-40.1	3.8	8412071	94	6134
2026-01-14 19:01:44.52	105.14	78.70	-38.1	-38.7	3.6	8374763	94	5282
2026-01-14 19:01:44.93	104.28	78.82	-37.9	-39.4	3.7	8397102	94	5852
2026-01-14 19:01:45.33	103.42	78.94	-37.5	-37.5	4.0	8299495	93	4886
2026-01-14 19:01:45.73	102.54	79.05	-37.3	-36.9	4.2	8131027	93	4684
2026-01-14 19:01:46.13	101.64	79.16	-37.6	-37.7	4.0	8146854	93	4963
2026-01-14 19:01:46.53	100.73	79.27	-38.0	-38.7	3.7	8285293	93	5355
2026-01-14 19:01:46.94	99.77	79.38	-38.1	-39.7	3.9	8419349	93	5943
2026-01-14 19:01:47.34	98.82	79.48	-37.6	-37.6	4.0	8270393	93	4930
2026-01-14 19:01:47.74	97.84	79.58	-37.4	-37.0	4.2	8212451	93	4695
2026-01-14 19:01:48.14	96.85	79.67	-37.3	-37.4	4.2	8101844	92	4959
2026-01-14 19:01:48.54	95.84	79.77	-37.7	-38.4	3.9	8234310	92	5320
2026-01-14 19:01:48.95	94.79	79.86	-37.8	-40.1	3.7	8393177	92	6404
2026-01-14 19:01:49.35	93.74	79.95	-37.6	-38.3	4.0	8358169	92	5294
2026-01-14 19:01:49.75	92.68	80.03	-37.3	-37.4	4.3	8212497	92	4963
2026-01-14 19:01:50.15	91.59	80.11	-37.4	-37.5	4.2	8147174	92	5008
2026-01-14 19:01:50.55	90.49	80.19	-37.4	-37.6	4.2	8148593	92	5028
2026-01-14 19:01:50.96	89.35	80.26	-36.9	-36.3	4.6	8103836	92	4593
2026-01-14 19:01:51.36	88.21	80.33	-36.8	-36.1	4.7	7735542	92	4559
2026-01-14 19:01:51.76	87.06	80.40	-37.0	-36.6	4.5	7818225	92	4704
2026-01-14 19:01:52.16	85.89	80.46	-37.5	-38.0	4.0	8157497	92	5193
2026-01-14 19:01:52.56	84.71	80.52	-37.3	-37.5	4.2	8207324	92	4984
2026-01-14 19:01:52.96	83.51	80.57	-37.1	-36.9	4.4	8045333	92	4788
2026-01-14 19:01:53.37	82.27	80.62	-37.0	-36.7	4.5	7877025	92	4729
2026-01-14 19:01:53.77	81.05	80.67	-37.5	-37.8	4.2	8036235	92	5115
2026-01-14 19:01:54.17	79.81	80.71	-37.9	-39.0	3.8	8283519	92	5594
2026-01-14 19:01:54.57	78.57	80.75	-38.1	-40.5	3.7	8331768	93	6468
2026-01-14 19:01:54.97	77.31	80.78	-38.1	-39.1	3.8	8393302	93	5558
2026-01-14 19:01:55.38	76.02	80.81	-37.6	-37.6	4.1	8256946	93	4910
2026-01-14 19:01:55.78	74.75	80.83	-37.6	-37.5	4.1	8225395	93	4885
2026-01-14 19:01:56.18	73.47	80.85	-37.5	-37.2	4.2	8156352	93	4794
2026-01-14 19:01:56.58	72.19	80.87	-37.2	-37.1	4.4	8116115	92	4858
2026-01-14 19:01:56.99	70.87	80.88	-37.2	-37.0	4.4	8016963	92	4834
2026-01-14 19:01:57.39	69.58	80.88	-37.4	-37.7	4.1	8098205	92	5092
2026-01-14 19:01:57.79	68.29	80.88	-37.9	-40.5	3.7	8319454	92	6590
2026-01-14 19:01:58.19	67.01	80.88	-37.9	-39.3	3.8	8414920	92	5813
2026-01-14 19:01:58.59	65.72	80.87	-37.7	-38.6	3.8	8336700	92	5457
2026-01-14 19:01:59.00	64.41	80.86	-37.5	-38.2	3.9	8270290	92	5288
2026-01-14 19:01:59.40	63.13	80.84	-37.6	-39.9	3.8	8322578	92	6361
2026-01-14 19:01:59.80	61.85	80.82	-37.6	-38.8	3.9	8395648	92	5657
2026-01-14 19:02:00.20	60.59	80.79	-37.4	-37.8	4.1	8289653	92	5163
2026-01-14 19:02:00.60	59.33	80.76	-37.4	-37.8	4.0	8222156	92	5152
2026-01-14 19:02:01.01	58.05	80.73	-37.4	-37.9	4.0	8199028	92	5204
2026-01-14 19:02:01.41	56.81	80.69	-37.7	-38.6	3.8	8271251	92	5465
2026-01-14 19:02:01.81	55.58	80.64	-37.8	-40.3	3.7	8358032	92	6599
2026-01-14 19:02:02.21	54.36	80.60	-37.7	-38.6	3.8	8352687	92	5481
2026-01-14 19:02:02.61	53.16	80.54	-37.5	-38.2	4.0	8270999	92	5298
2026-01-14 19:02:03.02	51.94	80.49	-37.8	-39.0	3.7	8313400	92	5632
2026-01-14 19:02:03.42	50.77	80.43	-38.1	-40.3	3.7	8394287	93	6307
2026-01-14 19:02:03.82	49.61	80.36	-38.3	-39.7	3.6	8368274	93	5799
2026-01-14 19:02:04.22	48.47	80.30	-38.0	-40.1	3.8	8430496	93	6270
2026-01-14 19:02:04.62	47.34	80.22	-38.1	-39.3	3.6	8368423	93	5602
2026-01-14 19:02:05.02	46.23	80.15	-38.3	-41.1	3.6	8399105	93	6823
2026-01-14 19:02:05.43	45.11	80.07	-38.4	-40.0	3.5	8386322	93	5933
2026-01-14 19:02:05.83	44.04	79.99	-38.5	-41.5	3.6	8399997	94	6919
2026-01-14 19:02:06.23	42.98	79.90	-38.6	-40.1	3.4	8403408	94	5897
2026-01-14 19:02:06.63	41.95	79.81	-38.4	-41.0	3.6	8428493	94	6638
2026-01-14 19:02:07.04	40.90	79.72	-38.1	-38.6	3.6	8425598	94	5198
2026-01-14 19:02:07.44	39.91	79.62	-38.1	-40.1	3.6	8360000	94	6163
2026-01-14 19:02:07.84	38.93	79.52	-38.5	-39.7	3.4	8422210	94	5712
2026-01-14 19:02:08.24	37.97	79.42	-38.7	-41.8	3.6	8406967	94	7096
2026-01-14 19:02:08.64	37.02	79.32	-38.5	-40.0	3.4	8439445	94	5874
2026-01-14 19:02:09.05	36.08	79.21	-38.2	-40.3	3.6	8398464	94	6264
2026-01-14 19:02:09.45	35.17	79.10	-38.1	-39.1	3.6	8414737	94	5523
2026-01-14 19:02:09.85	34.29	78.99	-38.0	-38.3	3.6	8368331	94	5108
2026-01-14 19:02:10.25	33.42	78.87	-37.8	-38.4	3.7	8411361	94	5277
2026-01-14 19:02:10.65	32.57	78.76	-37.6	-37.8	3.8	8365047	93	5001
2026-01-14 19:02:11.06	31.72	78.63	-37.9	-38.7	3.6	8345706	93	5387
2026-01-14 19:02:11.46	30.91	78.51	-38.3	-41.3	3.6	8391197	93	6922
2026-01-14 19:02:11.86	30.11	78.39	-38.3	-39.9	3.5	8413352	93	5937
2026-01-14 19:02:12.26	29.33	78.26	-38.3	-41.2	3.6	8391769	93	6897
2026-01-14 19:02:12.67	28.55	78.13	-38.2	-39.6	3.6	8436401	93	5807
2026-01-14 19:02:13.07	27.81	78.00	-38.2	-41.0	3.6	8379512	93	6789
2026-01-14 19:02:13.47	27.08	77.87	-38.2	-40.1	3.5	8418502	93	6114
2026-01-14 19:02:13.87	26.37	77.74	-38.1	-39.5	3.5	8386974	93	5730
2026-01-14 19:02:14.28	25.66	77.60	-38.0	-39.7	3.7	8433128	93	5992
2026-01-14 19:02:14.68	24.98	77.46	-38.1	-39.6	3.5	8379867	93	5816
2026-01-14 19:02:15.08	24.32	77.33	-38.1	-40.2	3.6	8425804	93	6261
2026-01-14 19:02:15.48	23.67	77.19	-38.0	-39.3	3.5	8374580	93	5693
2026-01-14 19:02:15.88	23.03	77.05	-37.9	-39.7	3.8	8409519	93	6053
2026-01-14 19:02:16.29	22.39	76.90	-37.9	-38.9	3.6	8366878	93	5529
2026-01-14 19:02:16.69	21.79	76.76	-38.0	-40.5	3.8	8422222	93	6550
2026-01-14 19:02:17.09	21.19	76.61	-38.1	-39.4	3.5	8374557	93	5750
2026-01-14 19:02:17.49	20.61	76.47	-37.9	-40.3	3.7	8379947	93	6500
2026-01-14 19:02:17.89	20.05	76.32	-37.7	-38.5	3.7	8386310	93	5400
2026-01-14 19:02:18.30	19.48	76.17	-37.7	-39.9	3.7	8367919	93	6295
2026-01-14 19:02:18.70	18.94	76.02	-37.6	-38.0	3.9	8349987	93	5194
2026-01-14 19:02:19.10	18.41	75.87	-37.5	-37.9	3.9	8305503	93	5123
2026-01-14 19:02:19.50	17.89	75.71	-37.4	-37.6	3.9	8307826	93	5021
2026-01-14 19:02:19.90	17.38	75.56	-37.4	-37.5	4.0	8248294	93	4967
2026-01-14 19:02:20.31	16.87	75.41	-37.6	-39.3	3.7	8297138	93	6029
2026-01-14 19:02:20.71	16.39	75.25	-37.8	-39.1	3.7	8379592	93	5709
2026-01-14 19:02:21.11	15.91	75.10	-37.7	-38.5	3.7	8362243	93	5362
2026-01-14 19:02:21.51	15.45	74.94	-37.6	-38.6	3.9	8425334	93	5525
2026-01-14 19:02:21.91	14.99	74.78	-37.4	-37.6	3.9	8306499	93	5013
2026-01-14 19:02:22.32	14.54	74.62	-37.5	-37.9	3.8	8308559	93	5135
2026-01-14 19:02:22.72	14.10	74.46	-37.8	-40.1	3.7	8338176	93	6428
2026-01-14 19:02:23.12	13.68	74.31	-37.7	-38.5	3.7	8395214	93	5384
2026-01-14 19:02:23.52	13.26	74.15	-37.3	-38.7	3.8	8339618	93	5747
2026-01-14 19:02:23.92	12.85	73.99	-36.9	-36.8	4.2	8241291	92	4864
2026-01-14 19:02:24.33	12.44	73.82	-36.5	-35.8	4.6	8108848	91	4579
2026-01-14 19:02:24.73	12.05	73.66	-35.8	-34.9	4.9	7692775	90	4413
2026-01-14 19:02:25.13	11.67	73.50	-35.7	-35.1	5.1	7364170	89	4588
2026-01-14 19:02:25.53	11.29	73.34	-35.9	-35.5	4.9	7289119	89	4716
2026-01-14 19:02:25.93	10.92	73.18	-36.4	-36.7	4.5	7775573	89	5095
2026-01-14 19:02:26.34	10.55	73.01	-36.8	-37.3	4.1	8002555	90	5251
2026-01-14 19:02:26.74	10.20	72.84	-37.2	-37.9	3.9	8266273	91	5314
2026-01-14 19:02:27.14	9.85	72.68	-37.3	-38.2	3.9	8285625	91	5420
2026-01-14 19:02:27.54	9.52	72.52	-37.6	-39.9	3.7	8353649	92	6443
2026-01-14 19:02:27.94	9.18	72.35	-37.9	-39.6	3.6	8409656	92	6039
2026-01-14 19:02:28.35	8.85	72.18	-38.0	-41.0	3.6	8377979	93	6952
2026-01-14 19:02:28.75	8.53	72.02	-38.0	-39.9	3.6	8429660	93	6132
2026-01-14 19:02:29.15	8.22	71.85	-38.0	-39.5	3.5	8392272	93	5876
2026-01-14 19:02:29.55	7.91	71.69	-37.9	-39.8	3.7	8429283	93	6114
2026-01-14 19:02:29.96	7.60	71.52	-37.7	-38.6	3.6	8388427	93	5446
2026-01-14 19:02:30.36	7.30	71.35	-37.4	-38.5	4.0	8420539	93	5569
2026-01-14 19:02:30.76	7.01	71.19	-37.3	-37.2	4.0	8276378	93	4878
2026-01-14 19:02:31.16	6.73	71.02	-37.3	-37.7	3.9	8287021	92	5195
2026-01-14 19:02:31.56	6.45	70.85	-37.7	-40.3	3.7	8325782	92	6628
2026-01-14 19:02:31.97	6.17	70.68	-38.0	-39.4	3.5	8394081	93	5749
2026-01-14 19:02:32.37	5.90	70.52	-38.9	-43.3	3.6	8393486	94	8234
2026-01-14 19:02:32.77	5.63	70.35	-39.0	-42.3	3.3	8414257	94	7215

#Closed at: 2026-01-14 19:02:33