passes_logs/2026/01/14/XPeterburg/XPeterburg__20260114_023834_FENGYUN_3D_rec.log

#Pass ID: 20260114_023834_FENGYUN 3D
#Satellite: FENGYUN 3D
#Configuration: FENGYUN 3D
#Start time: 2026-01-14 02:38:30

#Version: 1.5.20200625
#Station: XPeterburg
#Location: 30.318091 lon 59.932769 lat
#TLE: 1 43010U 17072A   26011.97305084  .00000235  00000+0  13268-3 0  9993
#TLE: 2 43010  98.9935 343.7425 0002238 114.1623 245.9787 14.19695178422825

#Time	Az	El	Level	Level2	SNR	BER	Gain	Gain2
2026-01-14 02:38:30.51	0.04	68.50	-38.7	-41.4	3.3	8391117	95	3353
2026-01-14 02:38:30.91	359.85	68.67	-37.3	-39.3	4.0	8410388	92	3113
2026-01-14 02:38:31.31	359.65	68.85	-36.7	-37.1	4.4	8248592	91	2580
2026-01-14 02:38:31.71	359.45	69.02	-35.6	-35.4	5.4	7867332	89	2419
2026-01-14 02:38:32.11	359.24	69.19	-34.5	-34.1	6.8	2964580	87	2351
2026-01-14 02:38:32.52	359.03	69.36	-33.2	-32.4	8.3	1448513	85	2235
2026-01-14 02:38:32.92	358.82	69.53	-32.2	-31.9	9.6	616081	82	2359
2026-01-14 02:38:33.32	358.60	69.70	-31.2	-30.8	11.0	73963	80	2336
2026-01-14 02:38:33.72	358.38	69.88	-30.2	-29.6	12.1	20519	78	2294
2026-01-14 02:38:34.12	358.15	70.05	-29.3	-28.4	13.0	984	77	2206
2026-01-14 02:38:34.53	357.92	70.22	-28.8	-27.7	13.8	286	76	2181
2026-01-14 02:38:34.93	357.69	70.39	-28.2	-27.7	14.2	125	74	2302
2026-01-14 02:38:35.33	357.45	70.56	-28.3	-27.7	14.2	34	74	2303
2026-01-14 02:38:35.73	357.21	70.74	-28.2	-27.5	14.2	45	74	2271
2026-01-14 02:38:36.13	356.96	70.91	-28.1	-27.4	14.2	34	74	2263
2026-01-14 02:38:36.54	356.70	71.08	-28.3	-27.7	14.1	11	74	2304
2026-01-14 02:38:36.94	356.44	71.25	-28.2	-27.6	14.2	22	74	2293
2026-01-14 02:38:37.34	356.18	71.42	-28.2	-27.6	14.2	11	74	2298
2026-01-14 02:38:37.74	355.91	71.59	-28.3	-27.7	14.2	0	74	2308
2026-01-14 02:38:38.14	355.64	71.77	-28.4	-27.9	14.1	11	74	2329
2026-01-14 02:38:38.54	355.36	71.94	-28.3	-27.8	14.1	0	74	2319
2026-01-14 02:38:38.95	355.07	72.11	-28.3	-27.9	14.2	11	74	2324
2026-01-14 02:38:39.35	354.78	72.28	-28.2	-27.5	14.5	22	74	2276
2026-01-14 02:38:39.75	354.49	72.45	-28.2	-27.6	14.5	11	74	2297
2026-01-14 02:38:40.15	354.19	72.62	-28.3	-27.7	14.5	11	74	2310
2026-01-14 02:38:40.56	353.87	72.79	-28.4	-28.1	14.4	22	74	2360
2026-01-14 02:38:40.96	353.56	72.96	-28.5	-28.3	14.2	11	74	2398
2026-01-14 02:38:41.36	353.24	73.13	-28.5	-28.2	14.3	34	74	2371
2026-01-14 02:38:41.76	352.91	73.30	-28.4	-28.1	14.4	11	74	2360
2026-01-14 02:38:42.16	352.57	73.47	-28.3	-27.7	14.5	0	74	2311
2026-01-14 02:38:42.57	352.22	73.64	-28.3	-27.7	14.6	11	74	2307
2026-01-14 02:38:42.97	351.87	73.81	-28.3	-27.9	14.6	22	74	2334
2026-01-14 02:38:43.37	351.51	73.98	-28.4	-28.0	14.5	0	74	2342
2026-01-14 02:38:43.77	351.15	74.15	-28.4	-28.1	14.5	22	74	2361
2026-01-14 02:38:44.17	350.77	74.31	-28.5	-28.2	14.4	45	74	2382
2026-01-14 02:38:44.57	350.39	74.48	-28.4	-28.0	14.5	22	74	2346
2026-01-14 02:38:44.98	349.99	74.65	-28.2	-27.5	14.8	0	74	2283
2026-01-14 02:38:45.38	349.59	74.81	-28.0	-27.1	15.0	11	74	2224
2026-01-14 02:38:45.78	349.18	74.98	-27.7	-27.0	15.3	0	73	2278
2026-01-14 02:38:46.18	348.76	75.14	-27.6	-26.8	15.4	0	73	2250
2026-01-14 02:38:46.58	348.33	75.31	-27.5	-26.7	15.4	0	73	2244
2026-01-14 02:38:46.99	347.89	75.47	-27.6	-26.8	15.3	0	73	2256
2026-01-14 02:38:47.39	347.44	75.64	-27.6	-26.9	15.3	0	73	2260
2026-01-14 02:38:47.79	346.98	75.80	-27.5	-26.7	15.4	11	73	2242
2026-01-14 02:38:48.19	346.51	75.96	-27.4	-26.5	15.5	0	73	2208
2026-01-14 02:38:48.59	346.02	76.12	-27.3	-26.7	15.7	0	72	2308
2026-01-14 02:38:48.99	345.53	76.28	-27.2	-26.6	15.8	0	72	2292
2026-01-14 02:38:49.40	345.01	76.44	-27.2	-26.6	15.8	0	72	2286
2026-01-14 02:38:49.80	344.49	76.60	-27.1	-26.4	16.0	0	72	2261
2026-01-14 02:38:50.20	343.96	76.76	-27.2	-26.5	16.0	0	72	2279
2026-01-14 02:38:50.60	343.42	76.91	-27.2	-26.5	16.0	0	72	2278
2026-01-14 02:38:51.01	342.85	77.07	-27.1	-26.4	16.2	0	72	2270
2026-01-14 02:38:51.41	342.27	77.22	-27.2	-26.6	16.1	0	72	2286
2026-01-14 02:38:51.81	341.69	77.38	-27.1	-26.3	16.3	0	72	2251
2026-01-14 02:38:52.21	341.09	77.53	-26.9	-25.9	16.5	0	72	2199
2026-01-14 02:38:52.61	340.47	77.68	-26.8	-25.8	16.6	0	72	2190
2026-01-14 02:38:53.02	339.82	77.83	-26.6	-25.8	16.7	0	71	2258
2026-01-14 02:38:53.42	339.18	77.98	-26.4	-25.5	16.8	0	71	2213
2026-01-14 02:38:53.82	338.51	78.13	-26.5	-25.6	16.8	0	71	2224
2026-01-14 02:38:54.22	337.83	78.27	-26.4	-25.5	16.8	0	71	2223
2026-01-14 02:38:54.62	337.13	78.41	-26.3	-25.4	16.9	0	71	2198
2026-01-14 02:38:55.02	336.41	78.56	-26.4	-25.5	16.8	0	71	2213
2026-01-14 02:38:55.43	335.66	78.70	-26.3	-25.4	16.9	0	71	2199
2026-01-14 02:38:55.83	334.91	78.84	-26.3	-25.7	17.0	0	70	2310
2026-01-14 02:38:56.23	334.13	78.97	-26.2	-25.6	17.1	0	70	2294
2026-01-14 02:38:56.63	333.34	79.11	-26.1	-25.4	17.3	0	70	2260
2026-01-14 02:38:57.03	332.53	79.24	-26.0	-25.2	17.4	0	70	2236
2026-01-14 02:38:57.44	331.67	79.37	-26.0	-25.2	17.4	0	70	2236
2026-01-14 02:38:57.84	330.82	79.50	-26.0	-25.2	17.4	0	70	2248
2026-01-14 02:38:58.24	329.94	79.63	-26.0	-25.1	17.3	0	70	2229
2026-01-14 02:38:58.64	329.04	79.75	-25.9	-25.0	17.4	0	70	2216
2026-01-14 02:38:59.04	328.12	79.87	-25.9	-24.9	17.3	0	70	2201
2026-01-14 02:38:59.44	327.18	79.99	-25.8	-24.8	17.3	0	70	2186
2026-01-14 02:38:59.85	326.19	80.11	-25.7	-25.0	17.4	0	69	2277
2026-01-14 02:39:00.25	325.20	80.22	-25.6	-24.8	17.5	0	69	2246
2026-01-14 02:39:00.65	324.19	80.33	-25.5	-24.7	17.5	0	69	2239
2026-01-14 02:39:01.05	323.15	80.44	-25.6	-24.8	17.4	0	69	2244
2026-01-14 02:39:01.46	322.07	80.54	-25.7	-25.0	17.3	0	69	2276
2026-01-14 02:39:01.86	320.98	80.64	-25.8	-25.2	17.2	0	69	2303
2026-01-14 02:39:02.26	319.88	80.74	-25.9	-25.5	17.1	0	69	2339
2026-01-14 02:39:02.66	318.74	80.83	-26.0	-25.5	17.1	0	69	2347
2026-01-14 02:39:03.06	317.59	80.92	-26.0	-25.5	17.1	0	69	2346
2026-01-14 02:39:03.46	316.41	81.01	-26.0	-25.6	17.0	0	69	2356
2026-01-14 02:39:03.87	315.19	81.10	-25.9	-25.4	17.1	0	69	2322
2026-01-14 02:39:04.27	313.96	81.17	-26.0	-25.5	17.0	0	69	2343
2026-01-14 02:39:04.67	312.72	81.25	-26.0	-25.5	17.0	0	69	2337
2026-01-14 02:39:05.07	311.45	81.32	-26.0	-25.6	17.0	0	69	2355
2026-01-14 02:39:05.47	310.17	81.39	-26.2	-25.9	16.8	0	69	2395
2026-01-14 02:39:05.88	308.83	81.45	-26.3	-26.1	16.7	0	69	2423
2026-01-14 02:39:06.28	307.51	81.51	-26.4	-26.4	16.6	0	69	2456
2026-01-14 02:39:06.68	306.17	81.56	-26.6	-26.2	16.5	0	70	2369
2026-01-14 02:39:07.08	304.81	81.61	-26.6	-26.4	16.5	0	70	2388
2026-01-14 02:39:07.48	303.43	81.65	-26.9	-26.8	16.2	0	70	2454
2026-01-14 02:39:07.88	302.05	81.69	-26.8	-26.8	16.3	0	70	2449
2026-01-14 02:39:08.29	300.61	81.73	-27.0	-26.7	16.0	0	71	2366
2026-01-14 02:39:08.69	299.20	81.75	-26.9	-26.4	16.1	0	71	2327
2026-01-14 02:39:09.09	297.78	81.78	-27.1	-26.8	15.9	0	71	2384
2026-01-14 02:39:09.49	296.36	81.80	-27.1	-26.9	15.8	0	71	2391
2026-01-14 02:39:09.89	294.92	81.81	-27.3	-27.3	15.7	0	71	2446
2026-01-14 02:39:10.29	293.49	81.82	-27.4	-27.5	15.6	0	71	2478
2026-01-14 02:39:10.70	292.01	81.82	-27.8	-27.7	15.4	0	72	2438
2026-01-14 02:39:11.10	290.57	81.82	-27.8	-27.7	15.4	0	72	2435
2026-01-14 02:39:11.50	289.13	81.82	-28.0	-28.1	15.2	0	72	2499
2026-01-14 02:39:11.90	287.70	81.80	-27.9	-27.3	15.2	11	73	2317
2026-01-14 02:39:12.30	286.27	81.79	-28.0	-27.7	15.1	0	73	2366
2026-01-14 02:39:12.70	284.84	81.76	-28.1	-27.9	14.9	11	73	2402
2026-01-14 02:39:13.11	283.39	81.74	-28.3	-28.3	14.7	0	73	2457
2026-01-14 02:39:13.51	281.99	81.71	-28.6	-28.4	14.4	0	74	2407
2026-01-14 02:39:13.91	280.60	81.67	-28.7	-28.6	14.4	22	74	2429
2026-01-14 02:39:14.31	279.22	81.63	-28.9	-28.6	14.1	22	75	2353
2026-01-14 02:39:14.71	277.85	81.58	-28.8	-28.3	14.2	34	75	2317
2026-01-14 02:39:15.12	276.47	81.53	-28.8	-28.3	14.2	34	75	2320
2026-01-14 02:39:15.52	275.14	81.47	-29.0	-28.6	14.0	0	75	2365
2026-01-14 02:39:15.92	273.83	81.41	-29.1	-28.9	13.8	68	75	2399
2026-01-14 02:39:16.32	272.53	81.35	-29.2	-29.1	13.7	45	75	2429
2026-01-14 02:39:16.72	271.26	81.28	-29.3	-29.2	13.6	125	75	2451
2026-01-14 02:39:17.12	270.01	81.20	-29.3	-29.2	13.6	171	75	2448
2026-01-14 02:39:17.53	268.75	81.13	-29.2	-29.2	13.6	205	75	2441
2026-01-14 02:39:17.93	267.54	81.04	-29.3	-29.3	13.5	114	75	2457
2026-01-14 02:39:18.33	266.35	80.96	-29.5	-29.7	13.3	160	75	2514
2026-01-14 02:39:18.73	265.19	80.87	-29.8	-29.8	13.1	297	76	2471
2026-01-14 02:39:19.13	264.05	80.78	-29.9	-30.0	13.0	423	76	2496
2026-01-14 02:39:19.54	262.90	80.68	-30.0	-30.2	12.9	526	76	2517
2026-01-14 02:39:19.94	261.81	80.58	-30.0	-29.7	12.8	801	77	2375
2026-01-14 02:39:20.34	260.74	80.48	-29.9	-29.6	12.8	881	77	2358
2026-01-14 02:39:20.74	259.70	80.37	-29.8	-29.3	13.0	915	77	2320
2026-01-14 02:39:21.14	258.68	80.26	-29.7	-29.1	13.0	720	77	2294
2026-01-14 02:39:21.54	257.68	80.15	-29.8	-29.2	13.0	434	77	2317
2026-01-14 02:39:21.95	256.68	80.03	-30.0	-29.6	12.8	835	77	2362
2026-01-14 02:39:22.35	255.73	79.92	-30.1	-29.9	12.6	972	77	2410
2026-01-14 02:39:22.75	254.80	79.80	-30.2	-30.1	12.5	1110	77	2432
2026-01-14 02:39:23.15	253.89	79.67	-30.3	-30.3	12.4	2071	77	2468
2026-01-14 02:39:23.56	252.98	79.55	-30.4	-30.5	12.3	2323	77	2498
2026-01-14 02:39:23.96	252.12	79.42	-30.3	-30.3	12.4	2758	77	2476
2026-01-14 02:39:24.36	251.27	79.29	-30.3	-30.4	12.3	2620	77	2491
2026-01-14 02:39:24.76	250.45	79.16	-30.3	-30.5	12.3	2872	77	2494
2026-01-14 02:39:25.16	249.65	79.02	-30.3	-30.4	12.4	2735	77	2488
2026-01-14 02:39:25.56	248.87	78.89	-30.3	-30.4	12.4	2231	77	2489
2026-01-14 02:39:25.97	248.09	78.75	-30.1	-30.0	12.6	1922	77	2432
2026-01-14 02:39:26.37	247.35	78.61	-30.0	-29.9	12.7	1544	77	2408
2026-01-14 02:39:26.77	246.62	78.47	-29.9	-29.6	12.9	1224	77	2369
2026-01-14 02:39:27.17	245.92	78.33	-29.8	-29.4	13.0	675	77	2344
2026-01-14 02:39:27.58	245.21	78.18	-29.8	-29.4	13.0	617	77	2336
2026-01-14 02:39:27.98	244.54	78.03	-29.8	-29.3	13.0	606	77	2334
2026-01-14 02:39:28.38	243.88	77.88	-29.8	-29.3	13.1	537	77	2329
2026-01-14 02:39:28.78	243.25	77.74	-29.9	-29.6	12.9	617	77	2374
2026-01-14 02:39:29.18	242.62	77.59	-29.9	-29.6	12.9	869	77	2363
2026-01-14 02:39:29.58	242.02	77.43	-29.9	-29.6	12.9	812	77	2367
2026-01-14 02:39:29.99	241.41	77.28	-29.9	-29.6	12.9	732	77	2376
2026-01-14 02:39:30.39	240.83	77.12	-29.8	-29.4	13.0	823	77	2352
2026-01-14 02:39:30.79	240.27	76.97	-29.9	-29.5	12.9	743	77	2369
2026-01-14 02:39:31.19	239.72	76.81	-29.9	-29.7	12.8	892	77	2392
2026-01-14 02:39:31.59	239.18	76.66	-30.0	-29.9	12.7	1098	77	2418
2026-01-14 02:39:31.99	238.66	76.50	-30.1	-30.2	12.5	1407	77	2469
2026-01-14 02:39:32.39	238.15	76.34	-30.3	-30.6	12.4	2197	77	2527
2026-01-14 02:39:32.80	237.64	76.18	-30.5	-30.9	12.1	2792	77	2576
2026-01-14 02:39:33.20	237.15	76.02	-30.3	-30.4	12.4	2861	77	2500
2026-01-14 02:39:33.60	236.67	75.86	-30.3	-30.4	12.4	2517	77	2501
2026-01-14 02:39:34.00	236.21	75.70	-30.2	-30.2	12.6	2277	77	2464
2026-01-14 02:39:34.40	235.76	75.53	-30.2	-30.2	12.6	1670	77	2455
2026-01-14 02:39:34.81	235.30	75.37	-30.1	-30.0	12.6	1407	77	2441
2026-01-14 02:39:35.21	234.87	75.20	-30.1	-30.1	12.5	1705	77	2445
2026-01-14 02:39:35.61	234.45	75.04	-30.3	-30.3	12.3	2197	77	2472
2026-01-14 02:39:36.01	234.03	74.87	-30.4	-30.6	12.1	3124	77	2530
2026-01-14 02:39:36.41	233.63	74.71	-30.5	-30.7	12.0	3513	77	2531
2026-01-14 02:39:36.82	233.22	74.54	-30.4	-30.6	12.0	3787	77	2519
2026-01-14 02:39:37.22	232.84	74.37	-30.3	-30.3	12.2	4383	77	2468
2026-01-14 02:39:37.62	232.46	74.20	-30.2	-30.1	12.2	3044	77	2431
2026-01-14 02:39:38.02	232.09	74.04	-30.1	-30.0	12.2	3192	77	2418
2026-01-14 02:39:38.42	231.73	73.87	-30.2	-30.2	12.1	3570	77	2451
2026-01-14 02:39:38.82	231.38	73.70	-30.3	-30.3	11.9	4966	77	2477
2026-01-14 02:39:39.23	231.02	73.53	-30.4	-30.6	11.8	5550	77	2520
2026-01-14 02:39:39.63	230.69	73.36	-30.4	-30.1	11.8	7347	78	2379
2026-01-14 02:39:40.03	230.36	73.19	-30.5	-30.2	11.8	7862	78	2394
2026-01-14 02:39:40.43	230.03	73.02	-30.5	-30.4	11.8	8605	78	2414
2026-01-14 02:39:40.83	229.71	72.85	-30.6	-30.5	11.8	8216	78	2433
2026-01-14 02:39:41.24	229.40	72.68	-30.7	-30.8	11.7	7816	78	2481
2026-01-14 02:39:41.64	229.09	72.51	-31.0	-31.3	11.4	8628	78	2570
2026-01-14 02:39:42.04	228.79	72.34	-31.1	-31.1	11.3	13137	79	2466
2026-01-14 02:39:42.44	228.50	72.17	-31.2	-31.3	11.2	19878	79	2506
2026-01-14 02:39:42.84	228.21	72.00	-31.0	-31.1	11.4	18218	79	2479
2026-01-14 02:39:43.25	227.93	71.82	-31.1	-31.1	11.4	13710	79	2477
2026-01-14 02:39:43.65	227.65	71.65	-31.0	-30.9	11.5	12783	79	2453
2026-01-14 02:39:44.05	227.38	71.48	-30.8	-30.6	11.7	11329	79	2398
2026-01-14 02:39:44.45	227.12	71.31	-30.7	-30.4	11.7	7976	79	2368
2026-01-14 02:39:44.86	226.85	71.13	-30.8	-30.6	11.5	8171	79	2388
2026-01-14 02:39:45.26	226.60	70.96	-30.8	-30.6	11.5	7690	79	2397
2026-01-14 02:39:45.66	226.35	70.79	-31.0	-30.9	11.2	10265	79	2440
2026-01-14 02:39:46.06	226.11	70.62	-33.3	-34.0	9.4	24147	82	2666
2026-01-14 02:39:46.46	225.87	70.45	-38.4	-44.1	3.6	7094799	93	4712

#Closed at: 2026-01-14 02:39:46