passes_logs/2026/01/14/XPeterburg/XPeterburg__20260114_090844_FENGYUN_3F_rec.log

#Pass ID: 20260114_090844_FENGYUN 3F
#Satellite: FENGYUN 3F
#Configuration: FENGYUN 3F
#Start time: 2026-01-14 09:08:38

#Version: 1.5.20200625
#Station: XPeterburg
#Location: 30.318091 lon 59.932769 lat
#TLE: 1 57490U 23111A   26011.96235235  .00000064  00000+0  50583-4 0  9992
#TLE: 2 57490  98.7038  84.7621 0001189 116.6105 243.5193 14.19902966126697

#Time	Az	El	Level	Level2	SNR	BER	Gain	Gain2
2026-01-14 09:08:38.93	27.38	67.54	-39.4	-41.9	3.3	8390636	96	6588
2026-01-14 09:08:39.33	27.46	67.72	-39.4	-42.9	3.5	8454769	96	7378
2026-01-14 09:08:39.73	27.55	67.90	-39.4	-41.8	3.3	8389629	96	6516
2026-01-14 09:08:40.14	27.63	68.08	-39.3	-42.7	3.6	8448589	97	7215
2026-01-14 09:08:40.54	27.72	68.26	-39.3	-41.3	3.3	8436779	97	6142
2026-01-14 09:08:40.94	27.80	68.44	-39.3	-42.6	3.6	8413570	97	7219
2026-01-14 09:08:41.34	27.89	68.63	-39.4	-41.4	3.3	8428470	97	6154
2026-01-14 09:08:41.75	27.98	68.81	-39.3	-42.5	3.6	8356979	97	7159
2026-01-14 09:08:42.15	28.07	68.99	-39.3	-41.3	3.3	8449413	97	6164
2026-01-14 09:08:42.55	28.16	69.17	-39.3	-42.6	3.6	8389263	97	7192
2026-01-14 09:08:42.95	28.26	69.36	-39.2	-41.6	3.4	8443233	96	6527
2026-01-14 09:08:43.35	28.35	69.54	-39.1	-41.0	3.3	8401302	96	6114
2026-01-14 09:08:43.75	28.45	69.72	-39.1	-41.5	3.4	8424625	96	6542
2026-01-14 09:08:44.16	28.55	69.91	-39.1	-41.0	3.3	8406143	96	6127
2026-01-14 09:08:44.56	28.65	70.09	-38.9	-41.2	3.5	8444526	96	6399
2026-01-14 09:08:44.96	28.76	70.28	-38.6	-39.7	3.3	8396175	95	5611
2026-01-14 09:08:45.36	28.86	70.46	-37.9	-39.6	3.8	8422943	94	5967
2026-01-14 09:08:45.76	28.97	70.64	-37.8	-38.2	3.7	8393692	94	5132
2026-01-14 09:08:46.17	29.08	70.83	-37.9	-40.0	3.6	8392868	94	6228
2026-01-14 09:08:46.57	29.19	71.02	-38.2	-39.2	3.5	8391975	94	5531
2026-01-14 09:08:46.97	29.31	71.20	-37.9	-39.9	3.6	8426136	94	6181
2026-01-14 09:08:47.37	29.42	71.39	-37.5	-37.7	3.9	8311351	93	5049
2026-01-14 09:08:47.77	29.54	71.57	-37.4	-37.6	4.0	8292228	93	5024
2026-01-14 09:08:48.18	29.67	71.76	-37.7	-38.4	3.7	8304359	93	5339
2026-01-14 09:08:48.58	29.79	71.95	-37.8	-39.3	3.9	8415527	93	5852
2026-01-14 09:08:48.98	29.92	72.14	-37.7	-38.2	3.7	8342582	93	5218
2026-01-14 09:08:49.38	30.05	72.32	-37.5	-39.0	3.8	8313068	93	5833
2026-01-14 09:08:49.78	30.18	72.51	-37.4	-37.4	4.0	8301841	93	4905
2026-01-14 09:08:50.18	30.32	72.70	-37.4	-37.6	4.0	8196853	92	5031
2026-01-14 09:08:50.59	30.46	72.89	-37.5	-37.9	3.9	8241577	92	5145
2026-01-14 09:08:50.99	30.60	73.07	-37.8	-40.1	3.7	8306980	92	6430
2026-01-14 09:08:51.39	30.75	73.26	-38.0	-39.4	3.7	8399024	92	5797
2026-01-14 09:08:51.79	30.90	73.45	-37.7	-39.9	3.7	8343166	92	6355
2026-01-14 09:08:52.19	31.05	73.64	-37.5	-38.5	4.0	8349723	92	5479
2026-01-14 09:08:52.60	31.21	73.83	-37.9	-39.1	3.7	8291473	92	5651
2026-01-14 09:08:53.00	31.37	74.02	-38.4	-40.6	3.6	8422313	93	6377
2026-01-14 09:08:53.40	31.53	74.21	-38.2	-39.4	3.6	8379753	93	5649
2026-01-14 09:08:53.80	31.70	74.40	-37.3	-37.7	4.3	8378494	93	5160
2026-01-14 09:08:54.20	31.87	74.59	-36.9	-36.3	4.6	8118289	92	4634
2026-01-14 09:08:54.61	32.06	74.78	-37.4	-37.9	4.0	7928306	92	5215
2026-01-14 09:08:55.01	32.24	74.97	-38.1	-40.7	3.7	8334743	93	6662
2026-01-14 09:08:55.41	32.42	75.16	-38.0	-39.2	3.7	8383918	93	5665
2026-01-14 09:08:55.81	32.61	75.35	-37.7	-38.3	4.0	8285453	93	5239
2026-01-14 09:08:56.21	32.81	75.54	-37.9	-38.9	3.8	8255847	93	5493
2026-01-14 09:08:56.62	33.02	75.73	-38.3	-41.6	3.6	8384033	93	7185
2026-01-14 09:08:57.02	33.23	75.92	-38.5	-40.3	3.4	8397113	94	6060
2026-01-14 09:08:57.42	33.44	76.11	-38.4	-41.4	3.6	8418182	94	6930
2026-01-14 09:08:57.82	33.66	76.30	-38.2	-39.3	3.6	8371662	94	5621
2026-01-14 09:08:58.23	33.89	76.49	-38.3	-40.9	3.6	8363262	94	6697
2026-01-14 09:08:58.63	34.12	76.68	-38.3	-39.4	3.6	8396152	94	5644
2026-01-14 09:08:59.03	34.36	76.87	-38.3	-41.1	3.6	8377590	94	6782
2026-01-14 09:08:59.43	34.61	77.06	-38.5	-40.5	3.4	8399242	94	6149
2026-01-14 09:08:59.83	34.86	77.25	-38.6	-41.8	3.6	8390235	94	7103
2026-01-14 09:09:00.24	35.13	77.45	-38.3	-39.7	3.6	8428871	94	5787
2026-01-14 09:09:00.64	35.40	77.64	-38.2	-40.5	3.6	8356189	94	6379
2026-01-14 09:09:01.04	35.68	77.83	-38.5	-40.1	3.6	8417793	94	5970
2026-01-14 09:09:01.44	35.97	78.02	-38.6	-40.2	3.4	8399631	94	5871
2026-01-14 09:09:01.84	36.27	78.21	-38.5	-40.2	3.6	8441196	94	5973
2026-01-14 09:09:02.25	36.58	78.40	-38.3	-39.1	3.5	8371845	94	5386
2026-01-14 09:09:02.65	36.90	78.59	-38.6	-40.7	3.6	8431777	94	6259
2026-01-14 09:09:03.05	37.23	78.78	-38.9	-40.8	3.3	8409427	94	6101
2026-01-14 09:09:03.45	37.57	78.97	-38.9	-41.8	3.6	8414932	94	6922
2026-01-14 09:09:03.85	37.92	79.16	-38.9	-40.7	3.3	8395317	94	6062
2026-01-14 09:09:04.25	38.29	79.35	-39.0	-42.5	3.6	8425712	94	7360
2026-01-14 09:09:04.66	38.67	79.54	-39.5	-42.0	3.3	8407836	95	6555
2026-01-14 09:09:05.06	39.07	79.73	-39.6	-43.2	3.6	8406692	96	7480
2026-01-14 09:09:05.46	39.48	79.92	-39.5	-41.4	3.3	8426708	96	6153
2026-01-14 09:09:05.86	39.90	80.11	-39.3	-42.3	3.6	8398715	96	6976
2026-01-14 09:09:06.26	40.34	80.29	-39.2	-41.0	3.3	8407665	96	6034
2026-01-14 09:09:06.67	40.81	80.49	-39.3	-42.5	3.6	8388816	96	7167
2026-01-14 09:09:07.07	41.29	80.67	-39.2	-41.1	3.4	8436481	96	6161
2026-01-14 09:09:07.47	41.78	80.86	-39.0	-41.7	3.6	8396072	96	6724
2026-01-14 09:09:07.87	42.30	81.04	-38.9	-40.2	3.4	8429603	96	5686
2026-01-14 09:09:08.27	42.84	81.23	-38.9	-41.6	3.6	8387409	96	6658
2026-01-14 09:09:08.68	43.42	81.42	-38.8	-40.1	3.5	8432441	96	5712
2026-01-14 09:09:09.08	44.01	81.60	-38.8	-39.9	3.5	8392032	95	5596
2026-01-14 09:09:09.48	44.62	81.78	-38.9	-40.9	3.5	8432235	95	6179
2026-01-14 09:09:09.88	45.26	81.97	-39.3	-41.5	3.3	8391689	95	6347
2026-01-14 09:09:10.28	45.94	82.15	-39.4	-42.8	3.5	8417175	95	7339
2026-01-14 09:09:10.69	46.66	82.33	-39.5	-42.3	3.3	8414726	95	6790
2026-01-14 09:09:11.09	47.40	82.51	-39.4	-43.2	3.6	8427497	96	7588
2026-01-14 09:09:11.49	48.18	82.69	-39.4	-41.6	3.3	8406532	96	6369
2026-01-14 09:09:11.89	48.99	82.86	-39.4	-42.5	3.6	8393188	97	7053
2026-01-14 09:09:12.29	49.85	83.04	-39.1	-40.6	3.3	8433483	96	5857
2026-01-14 09:09:12.70	50.77	83.22	-39.0	-41.7	3.6	8397468	96	6743
2026-01-14 09:09:13.10	51.72	83.39	-38.8	-40.0	3.4	8429729	96	5606
2026-01-14 09:09:13.50	52.72	83.56	-38.4	-40.5	3.7	8403293	95	6241
2026-01-14 09:09:13.90	53.78	83.73	-38.3	-39.1	3.7	8418273	95	5344
2026-01-14 09:09:14.30	54.89	83.89	-38.8	-41.7	3.6	8368217	95	6901
2026-01-14 09:09:14.71	56.10	84.06	-39.2	-42.1	3.4	8433414	95	6834
2026-01-14 09:09:15.11	57.34	84.22	-39.0	-41.1	3.3	8384960	95	6225
2026-01-14 09:09:15.51	58.65	84.38	-39.0	-41.3	3.4	8435588	95	6472
2026-01-14 09:09:15.91	60.04	84.54	-39.2	-41.7	3.3	8388027	95	6543
2026-01-14 09:09:16.31	61.51	84.69	-39.4	-43.0	3.5	8435817	95	7431
2026-01-14 09:09:16.72	63.11	84.84	-39.1	-41.3	3.3	8395935	95	6281
2026-01-14 09:09:17.12	64.76	84.98	-38.8	-41.2	3.7	8400478	95	6502
2026-01-14 09:09:17.52	66.51	85.12	-38.6	-39.7	3.5	8392044	95	5592
2026-01-14 09:09:17.92	68.35	85.26	-38.9	-41.9	3.6	8415229	95	6912
2026-01-14 09:09:18.32	70.31	85.39	-38.7	-40.0	3.5	8400970	95	5712
2026-01-14 09:09:18.73	72.43	85.52	-38.5	-40.7	3.7	8431823	95	6323
2026-01-14 09:09:19.13	74.61	85.63	-38.5	-39.3	3.6	8399265	95	5402
2026-01-14 09:09:19.53	76.92	85.75	-38.7	-41.2	3.6	8371593	95	6545
2026-01-14 09:09:19.93	79.34	85.85	-38.6	-39.6	3.6	8388633	95	5518
2026-01-14 09:09:20.33	81.88	85.95	-38.8	-41.5	3.6	8410663	95	6742
2026-01-14 09:09:20.74	84.61	86.04	-38.9	-40.6	3.5	8425884	95	5977
2026-01-14 09:09:21.14	87.39	86.12	-38.8	-41.6	3.6	8375896	95	6737
2026-01-14 09:09:21.54	90.28	86.19	-39.1	-41.0	3.5	8415046	95	6158
2026-01-14 09:09:21.94	93.27	86.25	-39.3	-42.9	3.6	8389869	95	7480
2026-01-14 09:09:22.34	96.35	86.30	-39.5	-42.1	3.4	8425815	96	6656
2026-01-14 09:09:22.74	99.51	86.33	-39.5	-41.9	3.3	8390888	96	6432
2026-01-14 09:09:23.15	102.80	86.36	-39.5	-42.2	3.4	8445190	96	6739
2026-01-14 09:09:23.55	106.04	86.38	-39.5	-41.7	3.3	8396839	96	6318
2026-01-14 09:09:23.95	109.31	86.38	-39.4	-42.4	3.5	8448669	96	6915
2026-01-14 09:09:24.35	112.57	86.37	-39.2	-40.6	3.3	8403373	96	5801
2026-01-14 09:09:24.75	115.80	86.35	-38.9	-40.9	3.7	8417335	96	6205
2026-01-14 09:09:25.16	119.07	86.32	-39.0	-40.2	3.4	8383975	96	5591
2026-01-14 09:09:25.56	122.20	86.28	-39.3	-42.6	3.6	8438243	96	7199
2026-01-14 09:09:25.96	125.25	86.22	-39.3	-41.0	3.3	8412242	96	5976
2026-01-14 09:09:26.36	128.20	86.16	-38.8	-40.9	3.6	8407939	96	6261
2026-01-14 09:09:26.76	131.05	86.09	-38.8	-39.7	3.6	8396438	95	5479
2026-01-14 09:09:27.17	133.85	86.00	-39.2	-42.7	3.6	8414497	95	7304
2026-01-14 09:09:27.57	136.47	85.91	-39.4	-41.8	3.3	8441070	95	6522
2026-01-14 09:09:27.97	138.97	85.81	-39.2	-42.6	3.6	8391185	95	7262
2026-01-14 09:09:28.37	141.34	85.70	-39.1	-41.0	3.4	8443359	95	6074
2026-01-14 09:09:28.78	143.65	85.59	-39.3	-42.9	3.6	8393474	95	7460
2026-01-14 09:09:29.18	145.79	85.47	-39.1	-40.6	3.4	8364635	96	5838
2026-01-14 09:09:29.58	147.81	85.34	-38.7	-41.0	3.6	8397560	95	6416
2026-01-14 09:09:29.98	149.73	85.21	-38.5	-39.4	3.8	8420608	95	5489
2026-01-14 09:09:30.38	151.54	85.07	-38.8	-39.9	3.5	8361190	95	5592
2026-01-14 09:09:30.79	153.29	84.92	-38.8	-40.5	3.6	8427360	95	6016
2026-01-14 09:09:31.19	154.90	84.78	-38.5	-39.0	3.7	8380496	95	5195
2026-01-14 09:09:31.59	156.42	84.63	-38.6	-39.2	3.7	8342903	95	5303
2026-01-14 09:09:31.99	157.86	84.47	-38.6	-39.9	3.7	8423080	95	5714
2026-01-14 09:09:32.39	159.22	84.32	-38.4	-38.5	3.7	8357894	95	5030
2026-01-14 09:09:32.80	160.53	84.15	-38.0	-38.3	3.9	8272773	94	5057
2026-01-14 09:09:33.20	161.75	83.99	-38.5	-41.1	3.6	8320907	94	6660
2026-01-14 09:09:33.60	162.90	83.83	-38.9	-41.0	3.4	8420162	94	6303
2026-01-14 09:09:34.00	163.99	83.66	-39.0	-42.5	3.6	8380908	94	7395
2026-01-14 09:09:34.40	165.02	83.49	-38.8	-40.7	3.4	8415206	94	6129
2026-01-14 09:09:34.81	166.03	83.32	-38.8	-42.0	3.6	8378677	94	7139
2026-01-14 09:09:35.21	166.96	83.14	-39.2	-41.7	3.4	8437602	95	6573
2026-01-14 09:09:35.61	167.84	82.97	-39.0	-40.6	3.3	8393955	95	5905
2026-01-14 09:09:36.01	168.68	82.79	-38.6	-39.8	3.7	8412689	95	5671
2026-01-14 09:09:36.41	169.48	82.62	-38.3	-38.6	3.7	8370059	95	5091
2026-01-14 09:09:36.82	170.26	82.43	-38.8	-39.9	3.5	8353591	95	5633
2026-01-14 09:09:37.22	170.99	82.25	-38.8	-41.6	3.6	8401393	95	6747
2026-01-14 09:09:37.62	171.68	82.07	-38.7	-39.9	3.5	8414726	95	5648
2026-01-14 09:09:38.02	172.34	81.89	-38.6	-40.7	3.7	8397445	95	6267
2026-01-14 09:09:38.42	172.97	81.71	-38.5	-39.1	3.6	8419441	95	5295
2026-01-14 09:09:38.83	173.59	81.52	-38.6	-40.7	3.6	8349140	95	6299
2026-01-14 09:09:39.23	174.17	81.34	-38.5	-39.2	3.7	8408981	95	5363
2026-01-14 09:09:39.63	174.73	81.15	-38.5	-40.4	3.6	8378929	95	6149
2026-01-14 09:09:40.03	175.26	80.97	-38.4	-39.0	3.7	8418502	95	5276
2026-01-14 09:09:40.44	175.78	80.78	-38.2	-38.7	3.6	8339515	94	5226
2026-01-14 09:09:40.84	176.27	80.59	-38.3	-39.6	3.7	8420448	94	5736
2026-01-14 09:09:41.24	176.74	80.40	-38.5	-39.7	3.5	8371959	94	5637
2026-01-14 09:09:41.64	177.19	80.22	-38.5	-40.6	3.6	8433013	94	6285
2026-01-14 09:09:42.04	177.62	80.03	-38.3	-39.1	3.5	8388336	94	5373
2026-01-14 09:09:42.45	178.05	79.84	-38.5	-40.7	3.7	8417415	94	6376
2026-01-14 09:09:42.85	178.45	79.65	-38.7	-40.1	3.4	8398464	94	5796
2026-01-14 09:09:43.25	178.84	79.46	-38.8	-41.8	3.6	8443004	94	7012
2026-01-14 09:09:43.65	179.21	79.27	-38.5	-39.7	3.4	8445716	94	5638
2026-01-14 09:09:44.05	179.57	79.08	-38.2	-40.2	3.6	8397411	94	6146
2026-01-14 09:09:44.46	179.93	78.89	-38.2	-38.7	3.6	8404163	94	5210
2026-01-14 09:09:44.86	180.26	78.70	-38.5	-41.1	3.6	8402561	94	6615
2026-01-14 09:09:45.26	180.59	78.51	-38.6	-40.1	3.4	8434604	94	5853
2026-01-14 09:09:45.66	180.90	78.32	-38.3	-40.4	3.6	8374225	94	6300
2026-01-14 09:09:46.07	181.21	78.12	-38.1	-38.6	3.7	8416786	94	5225
2026-01-14 09:09:46.47	181.51	77.93	-37.8	-37.8	3.7	8352756	94	4888
2026-01-14 09:09:46.87	181.79	77.74	-37.8	-37.7	3.7	8342205	94	4847
2026-01-14 09:09:47.27	182.07	77.55	-37.8	-37.5	3.7	8350330	94	4795
2026-01-14 09:09:47.67	182.33	77.36	-37.6	-37.6	3.9	8313194	93	4910
2026-01-14 09:09:48.08	182.60	77.17	-37.7	-37.8	3.8	8286952	93	4998
2026-01-14 09:09:48.48	182.85	76.98	-37.8	-39.7	3.7	8328025	93	6125
2026-01-14 09:09:48.88	183.09	76.79	-37.7	-38.5	3.8	8413146	93	5357
2026-01-14 09:09:49.28	183.33	76.60	-37.5	-37.5	3.9	8305767	93	4918
2026-01-14 09:09:49.69	183.56	76.40	-37.7	-38.0	3.8	8284641	93	5123
2026-01-14 09:09:50.09	183.79	76.21	-37.8	-39.8	3.7	8350708	93	6213
2026-01-14 09:09:50.49	184.00	76.02	-37.7	-38.5	3.8	8350582	93	5381
2026-01-14 09:09:50.89	184.22	75.83	-37.6	-38.0	3.9	8311614	93	5144
2026-01-14 09:09:51.29	184.42	75.64	-37.5	-37.7	4.0	8259372	93	5073
2026-01-14 09:09:51.70	184.62	75.45	-37.5	-37.7	4.0	8258045	93	5081
2026-01-14 09:09:52.10	184.82	75.26	-37.0	-37.1	4.3	8153743	92	4953
2026-01-14 09:09:52.50	185.01	75.07	-36.6	-36.5	4.7	7944900	91	4868
2026-01-14 09:09:52.90	185.19	74.88	-36.3	-35.8	5.1	7408081	91	4611
2026-01-14 09:09:53.30	185.37	74.69	-36.6	-36.4	4.8	7406066	91	4799
2026-01-14 09:09:53.71	185.55	74.49	-36.7	-36.5	4.7	7688198	91	4847
2026-01-14 09:09:54.11	185.72	74.31	-36.6	-36.4	4.7	7686641	91	4811
2026-01-14 09:09:54.51	185.89	74.12	-36.7	-36.6	4.6	7714668	91	4849
2026-01-14 09:09:54.91	186.05	73.93	-36.7	-36.7	4.5	7833881	91	4921
2026-01-14 09:09:55.31	186.21	73.74	-37.0	-37.5	4.2	8056915	91	5180
2026-01-14 09:09:55.71	186.36	73.55	-36.9	-37.3	4.3	8146625	91	5106
2026-01-14 09:09:56.12	186.52	73.36	-36.9	-37.0	4.3	8108905	91	4998
2026-01-14 09:09:56.52	186.67	73.17	-36.8	-36.7	4.4	8043514	91	4875
2026-01-14 09:09:56.92	186.81	72.98	-36.9	-37.0	4.3	8046077	91	4983
2026-01-14 09:09:57.32	186.95	72.79	-36.9	-37.2	4.3	8093593	91	5060
2026-01-14 09:09:57.73	187.09	72.60	-37.0	-37.3	4.2	8114318	91	5109
2026-01-14 09:09:58.13	187.23	72.41	-37.0	-37.3	4.2	8154201	91	5114
2026-01-14 09:09:58.53	187.36	72.23	-36.9	-37.1	4.3	8148708	91	5034
2026-01-14 09:09:58.93	187.49	72.04	-37.0	-37.4	4.2	8122547	91	5140
2026-01-14 09:09:59.33	187.61	71.85	-37.1	-37.7	4.1	8172409	91	5268
2026-01-14 09:09:59.73	187.74	71.67	-37.2	-37.9	4.0	8239551	91	5331
2026-01-14 09:10:00.14	187.86	71.48	-37.2	-37.9	4.0	8263046	91	5338
2026-01-14 09:10:00.54	187.98	71.29	-37.0	-37.5	4.1	8247402	91	5177
2026-01-14 09:10:00.94	188.09	71.11	-37.0	-37.4	4.1	8188854	91	5142
2026-01-14 09:10:01.34	188.21	70.92	-37.1	-37.5	4.0	8222316	91	5164
2026-01-14 09:10:01.74	188.32	70.74	-37.1	-37.7	3.9	8259841	91	5243
2026-01-14 09:10:02.15	188.43	70.55	-37.4	-38.5	3.8	8299186	91	5549

#Closed at: 2026-01-14 09:10:02