passes_logs/2026/01/05/R3.2S_Murmansk/R3.2S_Murmansk__20260105_022924_AQUA_rec.log

#Pass ID: 20260105_022924_AQUA
#Satellite: AQUA
#Configuration: AQUA
#almurnet v.1.7.20251203
#Start time: 2026-01-05 02:29:24

#Version: 2.2.20231116
#Station: R3.2S_Murmansk
#Location: 33.079688 lon 68.888172 lat
#TLE: 1 27424U 02022A   26003.93831470  .00001925  00000+0  39553-3 0  9995
#TLE: 2 27424  98.4067 330.1809 0002003  92.1713 343.8415 14.61796291259276

#Time	Az	El	Level	Level2	SNR	BER	BlckErr	Temp	State	Recorded	gain1	gain2
2026-01-05 02:29:24.43	24.08	1.97	-58.0	-77.3	3.8	7.47e-01	0	25	0	0	85	32115
2026-01-05 02:29:28.42	24.07	2.24	-57.8	-77.0	3.8	7.46e-01	0	25	104	0	83	34841
2026-01-05 02:29:32.41	24.06	2.51	-57.8	-76.9	3.8	7.50e-01	0	26	104	0	83	34394
2026-01-05 02:29:36.39	24.05	2.78	-57.8	-77.0	3.8	7.46e-01	0	26	104	0	83	34861
2026-01-05 02:29:40.40	24.04	3.05	-57.8	-76.6	3.8	7.46e-01	0	26	104	0	83	32931
2026-01-05 02:29:44.41	24.03	3.33	-57.7	-73.4	3.9	7.43e-01	0	26	104	0	83	22999
2026-01-05 02:29:48.40	24.02	3.61	-57.6	-71.7	4.8	7.12e-01	0	26	0	0	83	18946
2026-01-05 02:29:52.40	24.01	3.89	-57.7	-72.3	4.6	7.23e-01	0	26	104	0	83	20289
2026-01-05 02:29:56.41	23.99	4.18	-57.7	-73.3	4.3	7.31e-01	0	26	104	0	83	22705
2026-01-05 02:30:00.41	23.98	4.47	-57.4	-67.9	7.4	6.47e-01	85	27	0	2621440	83	12097
2026-01-05 02:30:04.40	23.97	4.76	-56.7	-63.7	10.8	6.11e-01	0	26	0	9961472	82	7980
2026-01-05 02:30:08.40	23.95	5.06	-56.8	-64.0	10.9	6.07e-01	0	27	0	17301504	82	8187
2026-01-05 02:30:12.40	23.94	5.36	-54.1	-57.3	14.4	6.00e-01	0	27	0	25165824	77	5071
2026-01-05 02:30:16.39	23.92	5.66	-53.0	-55.7	14.8	6.02e-01	0	27	0	32505856	75	4731
2026-01-05 02:30:20.37	23.90	5.97	-51.7	-53.9	15.1	6.01e-01	0	27	0	39845888	72	4582
2026-01-05 02:30:24.36	23.88	6.28	-51.1	-53.2	15.2	6.02e-01	0	27	0	47185920	71	4448
2026-01-05 02:30:28.34	23.86	6.60	-51.1	-53.1	15.2	6.00e-01	0	27	0	55050240	71	4424
2026-01-05 02:30:32.33	23.84	6.92	-51.0	-52.9	15.3	6.01e-01	0	27	0	62390272	71	4340
2026-01-05 02:30:36.33	23.82	7.25	-50.9	-52.8	15.4	6.03e-01	0	27	0	69730304	71	4272
2026-01-05 02:30:40.32	23.80	7.58	-50.8	-52.8	15.2	6.01e-01	0	27	0	77070336	70	4497
2026-01-05 02:30:44.32	23.78	7.91	-50.8	-52.7	15.3	6.02e-01	0	27	0	84934656	70	4442
2026-01-05 02:30:48.31	23.75	8.25	-50.7	-52.5	15.3	6.01e-01	0	27	0	92274688	70	4376
2026-01-05 02:30:52.29	23.73	8.60	-50.5	-52.4	15.4	6.00e-01	0	27	0	99614720	70	4294
2026-01-05 02:30:56.28	23.70	8.95	-50.5	-52.3	15.4	6.00e-01	0	27	0	107479040	70	4265
2026-01-05 02:31:00.28	23.68	9.30	-50.4	-52.2	15.3	6.04e-01	0	27	0	114819072	69	4475
2026-01-05 02:31:04.28	23.65	9.67	-50.4	-52.2	15.3	6.02e-01	0	27	0	122159104	69	4449
2026-01-05 02:31:08.27	23.62	10.03	-50.2	-52.0	15.3	6.00e-01	0	27	0	129499136	69	4377
2026-01-05 02:31:12.27	23.59	10.41	-50.3	-52.1	15.3	6.01e-01	0	27	0	137363456	69	4410
2026-01-05 02:31:16.27	23.56	10.79	-50.2	-51.9	15.4	6.02e-01	0	27	0	144703488	69	4312
2026-01-05 02:31:20.27	23.52	11.18	-50.0	-51.7	15.4	6.02e-01	0	27	0	152043520	69	4236
2026-01-05 02:31:24.26	23.49	11.57	-50.0	-51.7	15.4	6.03e-01	0	27	0	159383552	69	4230
2026-01-05 02:31:28.24	23.45	11.97	-49.9	-51.6	15.4	6.01e-01	0	27	0	167247872	69	4192
2026-01-05 02:31:32.23	23.41	12.38	-49.8	-51.5	15.3	6.02e-01	0	27	0	174587904	68	4363
2026-01-05 02:31:36.22	23.37	12.80	-49.7	-51.3	15.4	6.01e-01	0	27	0	181927936	68	4275
2026-01-05 02:31:40.21	23.33	13.22	-49.6	-51.3	15.4	5.99e-01	0	27	0	189792256	68	4265
2026-01-05 02:31:44.20	23.29	13.65	-49.6	-51.2	15.4	6.02e-01	0	28	0	197132288	68	4230
2026-01-05 02:31:48.20	23.24	14.10	-49.6	-51.2	15.4	6.01e-01	0	27	0	204472320	68	4226
2026-01-05 02:31:52.19	23.19	14.55	-49.6	-51.2	15.5	6.02e-01	0	28	0	211812352	68	4215
2026-01-05 02:31:56.20	23.14	15.01	-49.6	-51.3	15.4	6.02e-01	0	27	0	219676672	68	4253
2026-01-05 02:32:00.17	23.09	15.48	-49.5	-51.1	15.5	6.00e-01	0	27	0	227016704	68	4155
2026-01-05 02:32:04.16	23.04	15.95	-49.3	-50.9	15.4	6.01e-01	0	28	0	234356736	67	4317
2026-01-05 02:32:08.16	22.98	16.45	-49.2	-50.8	15.4	6.02e-01	0	27	0	241696768	67	4255
2026-01-05 02:32:12.17	22.92	16.95	-49.2	-50.7	15.4	6.02e-01	0	27	0	249561088	67	4241
2026-01-05 02:32:16.16	22.86	17.46	-49.3	-50.9	15.4	6.02e-01	0	27	0	256901120	67	4296
2026-01-05 02:32:20.14	22.79	17.99	-49.5	-51.1	15.4	6.02e-01	0	27	0	264241152	67	4392
2026-01-05 02:32:24.13	22.73	18.52	-49.5	-51.2	15.3	6.02e-01	0	28	0	272105472	67	4452
2026-01-05 02:32:28.12	22.65	19.08	-49.7	-51.4	15.3	5.99e-01	0	28	0	279445504	67	4550
2026-01-05 02:32:32.11	22.58	19.64	-49.7	-51.3	15.3	6.00e-01	0	27	0	286785536	67	4531
2026-01-05 02:32:36.10	22.50	20.22	-49.6	-51.2	15.3	6.03e-01	0	28	0	294125568	67	4460
2026-01-05 02:32:40.08	22.42	20.81	-49.8	-51.4	15.3	6.03e-01	0	27	0	301989888	67	4589
2026-01-05 02:32:44.07	22.33	21.42	-49.9	-51.5	15.3	5.99e-01	0	28	0	309329920	67	4625
2026-01-05 02:32:48.07	22.24	22.05	-49.9	-51.6	15.3	6.01e-01	0	27	0	316669952	67	4655
2026-01-05 02:32:52.08	22.15	22.70	-50.0	-51.6	15.2	6.00e-01	0	27	0	324009984	67	4697
2026-01-05 02:32:56.08	22.05	23.36	-49.9	-51.5	15.3	6.00e-01	0	27	0	331874304	67	4651
2026-01-05 02:33:00.08	21.94	24.04	-49.7	-51.4	15.3	6.01e-01	0	28	0	339214336	67	4551
2026-01-05 02:33:04.08	21.83	24.74	-49.9	-51.6	15.3	5.99e-01	0	28	0	347078656	67	4667
2026-01-05 02:33:08.08	21.71	25.46	-50.0	-51.6	15.2	6.02e-01	0	27	0	354418688	67	4703
2026-01-05 02:33:12.09	21.58	26.21	-49.8	-51.4	15.3	6.00e-01	0	28	0	361758720	67	4571
2026-01-05 02:33:16.07	21.45	26.97	-49.5	-51.1	15.4	6.01e-01	0	28	0	369098752	67	4421
2026-01-05 02:33:20.07	21.31	27.76	-49.4	-51.0	15.4	6.02e-01	0	28	0	376963072	67	4345
2026-01-05 02:33:24.05	21.17	28.58	-49.7	-51.3	15.3	5.99e-01	0	27	0	384303104	67	4537
2026-01-05 02:33:28.05	21.01	29.42	-49.4	-50.9	15.4	6.02e-01	0	28	0	391643136	67	4340
2026-01-05 02:33:32.02	20.84	30.28	-49.4	-50.9	15.4	6.01e-01	0	28	0	398983168	67	4319
2026-01-05 02:33:36.00	20.67	31.17	-49.3	-50.8	15.4	6.01e-01	0	28	0	406847488	67	4288
2026-01-05 02:33:39.99	20.48	32.10	-49.3	-50.8	15.4	6.00e-01	0	28	0	414187520	67	4264
2026-01-05 02:33:44.00	20.28	33.06	-49.8	-51.4	15.3	6.03e-01	0	28	0	421527552	67	4553
2026-01-05 02:33:48.00	20.06	34.05	-49.7	-51.3	15.3	5.99e-01	0	27	0	429391872	67	4504
2026-01-05 02:33:52.00	19.83	35.08	-50.3	-51.9	15.3	6.00e-01	0	27	0	436731904	68	4585
2026-01-05 02:33:56.01	19.59	36.15	-50.9	-52.6	15.2	6.01e-01	0	28	0	444071936	69	4676
2026-01-05 02:34:00.00	19.32	37.25	-51.0	-52.8	15.2	6.02e-01	0	28	0	451936256	69	4781
2026-01-05 02:34:03.99	19.04	38.39	-51.5	-53.3	15.2	6.02e-01	0	28	0	459276288	71	4526
2026-01-05 02:34:07.99	18.73	39.57	-51.3	-53.1	15.3	6.03e-01	0	27	0	466616320	71	4431
2026-01-05 02:34:12.01	18.39	40.80	-51.2	-53.0	15.4	6.01e-01	0	28	0	473956352	71	4345
2026-01-05 02:34:16.02	18.03	42.07	-51.1	-52.8	15.4	6.00e-01	0	28	0	481820672	71	4290
2026-01-05 02:34:20.00	17.63	43.38	-50.5	-52.2	15.5	6.05e-01	0	28	0	489160704	70	4196
2026-01-05 02:34:24.00	17.20	44.75	-50.0	-51.6	15.5	6.01e-01	0	28	0	496500736	69	4152
2026-01-05 02:34:27.99	16.73	46.16	-50.3	-51.9	15.4	5.97e-01	0	28	0	504365056	69	4301
2026-01-05 02:34:31.96	16.22	47.61	-50.4	-52.0	15.4	6.00e-01	0	27	0	511705088	69	4382
2026-01-05 02:34:35.95	15.64	49.12	-50.3	-51.9	15.4	6.05e-01	0	28	0	519045120	69	4310
2026-01-05 02:34:39.97	15.00	50.69	-49.9	-51.5	15.4	5.99e-01	0	28	0	526385152	68	4346
2026-01-05 02:34:43.96	14.30	52.31	-49.6	-51.1	15.5	6.00e-01	0	28	0	534249472	68	4170
2026-01-05 02:34:47.95	13.50	53.98	-49.2	-50.7	15.5	6.00e-01	0	28	0	541589504	67	4216
2026-01-05 02:34:51.94	12.60	55.70	-49.4	-51.0	15.4	6.00e-01	0	28	0	548929536	67	4346
2026-01-05 02:34:55.93	11.58	57.47	-50.4	-52.0	15.3	6.00e-01	0	28	0	556269568	68	4635
2026-01-05 02:34:59.94	10.41	59.30	-51.0	-52.7	15.2	6.00e-01	0	28	0	564133888	69	4714
2026-01-05 02:35:03.94	9.06	61.17	-51.6	-53.3	15.2	6.03e-01	0	27	0	571473920	71	4545
2026-01-05 02:35:07.91	7.50	63.06	-51.7	-53.6	15.2	6.01e-01	0	28	0	578813952	71	4663
2026-01-05 02:35:11.90	5.65	65.00	-52.5	-54.5	15.1	6.00e-01	0	28	0	586678272	72	4910
2026-01-05 02:35:15.92	3.42	66.98	-54.0	-56.4	14.8	6.01e-01	0	28	0	594018304	75	5117
2026-01-05 02:35:19.92	0.74	68.95	-54.0	-56.3	15.0	6.02e-01	0	28	0	601358336	76	4814
2026-01-05 02:35:23.91	357.47	70.91	-53.4	-55.6	15.0	6.01e-01	0	28	0	609222656	75	4687
2026-01-05 02:35:27.91	353.38	72.85	-53.6	-55.9	14.9	5.99e-01	0	28	0	616562688	74	5108
2026-01-05 02:35:31.88	348.26	74.69	-54.0	-56.3	15.1	5.99e-01	0	28	0	623902720	77	4496
2026-01-05 02:35:35.85	341.71	76.41	-52.4	-54.3	15.4	6.01e-01	0	28	0	631242752	74	4255
2026-01-05 02:35:39.83	333.31	77.93	-52.3	-54.2	15.1	6.00e-01	0	27	0	638582784	72	4739
2026-01-05 02:35:43.82	322.67	79.15	-52.0	-53.8	15.2	6.02e-01	0	28	0	646447104	72	4531
2026-01-05 02:35:47.82	309.83	79.91	-51.6	-53.3	15.4	6.01e-01	0	28	0	653787136	72	4274
2026-01-05 02:35:51.81	295.69	80.12	-51.3	-53.0	15.4	6.02e-01	0	28	0	661127168	71	4353
2026-01-05 02:35:55.80	281.82	79.73	-52.4	-54.3	15.1	6.01e-01	0	28	0	668467200	72	4766
2026-01-05 02:35:59.80	269.59	78.81	-51.7	-53.4	15.3	6.01e-01	0	28	0	676331520	72	4340
2026-01-05 02:36:03.78	259.68	77.49	-53.1	-55.1	15.1	6.00e-01	0	28	0	683671552	74	4680
2026-01-05 02:36:07.78	251.85	75.89	-53.5	-55.7	15.0	5.99e-01	0	27	0	691011584	75	4719
2026-01-05 02:36:11.78	245.75	74.11	-53.7	-55.9	15.1	6.04e-01	0	28	0	698875904	76	4569
2026-01-05 02:36:15.78	240.97	72.22	-53.9	-56.1	14.9	6.01e-01	0	28	0	706215936	75	4968
2026-01-05 02:36:19.77	237.18	70.27	-55.3	-58.1	14.6	6.01e-01	0	28	0	713555968	79	4937
2026-01-05 02:36:23.77	234.11	68.30	-55.4	-58.2	14.7	6.03e-01	0	28	0	721420288	80	4757
2026-01-05 02:36:27.76	231.60	66.32	-55.3	-58.0	14.6	6.01e-01	0	28	0	728760320	79	4910
2026-01-05 02:36:31.75	229.51	64.37	-54.0	-56.3	15.0	6.04e-01	0	28	0	736100352	76	4788
2026-01-05 02:36:35.74	227.76	62.43	-52.8	-54.8	15.2	6.02e-01	0	28	0	743440384	74	4505
2026-01-05 02:36:39.72	226.27	60.54	-51.7	-53.5	15.4	6.02e-01	0	28	0	751304704	72	4365
2026-01-05 02:36:43.71	224.98	58.69	-51.1	-52.8	15.4	6.03e-01	0	28	0	758644736	71	4254
2026-01-05 02:36:47.69	223.86	56.88	-50.5	-52.0	15.5	6.04e-01	0	28	0	765984768	70	4135
2026-01-05 02:36:51.68	222.88	55.12	-49.9	-51.5	15.4	6.02e-01	0	28	0	773324800	68	4372
2026-01-05 02:36:55.68	222.02	53.41	-49.2	-50.6	15.5	6.00e-01	0	28	0	781189120	67	4172
2026-01-05 02:36:59.66	221.25	51.76	-49.5	-51.0	15.4	6.00e-01	0	28	0	788529152	67	4359
2026-01-05 02:37:03.66	220.56	50.15	-50.0	-51.6	15.3	6.00e-01	0	28	0	795869184	67	4664
2026-01-05 02:37:07.65	219.95	48.60	-50.6	-52.3	15.3	6.00e-01	0	28	0	803733504	69	4523
2026-01-05 02:37:11.64	219.39	47.10	-50.1	-51.7	15.5	6.01e-01	0	28	0	811073536	69	4214
2026-01-05 02:37:15.63	218.89	45.66	-50.2	-51.8	15.4	6.01e-01	0	28	0	818413568	69	4262
2026-01-05 02:37:19.62	218.43	44.26	-49.9	-51.5	15.5	6.01e-01	0	28	0	825753600	69	4107
2026-01-05 02:37:23.61	218.01	42.91	-50.6	-52.2	15.3	6.00e-01	0	28	0	833617920	69	4489
2026-01-05 02:37:27.59	217.63	41.61	-51.0	-52.6	15.2	6.01e-01	0	28	0	840957952	69	4705
2026-01-05 02:37:31.58	217.27	40.35	-51.4	-53.2	15.2	5.99e-01	0	28	0	848297984	70	4715
2026-01-05 02:37:35.56	216.95	39.14	-51.7	-53.5	15.2	6.01e-01	0	28	0	855638016	71	4641
2026-01-05 02:37:39.56	216.65	37.97	-51.5	-53.2	15.3	6.00e-01	0	28	0	863502336	71	4491
2026-01-05 02:37:43.54	216.37	36.85	-51.5	-53.3	15.3	6.00e-01	0	28	0	870842368	71	4507
2026-01-05 02:37:47.54	216.11	35.75	-51.2	-52.9	15.4	6.01e-01	0	28	0	878182400	71	4311
2026-01-05 02:37:51.52	215.87	34.70	-50.8	-52.4	15.4	6.03e-01	0	28	0	885522432	70	4340
2026-01-05 02:37:55.51	215.64	33.68	-50.0	-51.6	15.5	5.99e-01	0	28	0	893386752	69	4155
2026-01-05 02:37:59.51	215.43	32.70	-49.7	-51.3	15.4	6.03e-01	0	28	0	900726784	68	4266
2026-01-05 02:38:03.52	215.23	31.74	-49.8	-51.4	15.4	6.02e-01	0	28	0	908066816	68	4328
2026-01-05 02:38:07.52	215.04	30.82	-49.6	-51.2	15.5	6.01e-01	0	28	0	915931136	68	4197
2026-01-05 02:38:11.51	214.87	29.93	-49.5	-51.0	15.5	5.99e-01	0	28	0	923271168	68	4130
2026-01-05 02:38:15.50	214.70	29.07	-49.3	-50.8	15.4	6.03e-01	0	28	0	930611200	67	4273
2026-01-05 02:38:19.50	214.55	28.24	-49.6	-51.1	15.4	6.01e-01	0	28	0	938475520	67	4421
2026-01-05 02:38:23.51	214.40	27.42	-49.9	-51.4	15.3	6.02e-01	0	28	0	945815552	67	4596
2026-01-05 02:38:27.51	214.26	26.64	-49.9	-51.5	15.3	6.01e-01	0	28	0	953155584	67	4649
2026-01-05 02:38:31.50	214.13	25.88	-50.1	-51.7	15.3	6.02e-01	0	28	0	960495616	68	4485
2026-01-05 02:38:35.47	214.01	25.15	-50.2	-51.8	15.3	6.00e-01	0	28	0	968359936	68	4537
2026-01-05 02:38:39.47	213.89	24.43	-50.2	-51.9	15.3	6.02e-01	0	28	0	975699968	68	4564
2026-01-05 02:38:43.45	213.78	23.73	-50.4	-52.1	15.3	5.99e-01	0	28	0	983040000	68	4681
2026-01-05 02:38:47.44	213.67	23.06	-50.4	-52.0	15.3	6.02e-01	0	28	0	990380032	68	4643
2026-01-05 02:38:51.43	213.57	22.40	-50.3	-52.0	15.3	6.00e-01	0	28	0	998244352	68	4629
2026-01-05 02:38:55.42	213.48	21.76	-50.4	-52.1	15.2	6.06e-01	0	28	0	1005584384	68	4652
2026-01-05 02:38:59.42	213.39	21.14	-50.2	-51.9	15.3	6.03e-01	0	28	0	1012924416	68	4565
2026-01-05 02:39:03.43	213.30	20.53	-50.2	-51.9	15.3	6.02e-01	0	28	0	1020788736	68	4571
2026-01-05 02:39:07.41	213.22	19.94	-50.1	-51.8	15.3	6.01e-01	0	28	0	1028128768	68	4501
2026-01-05 02:39:11.41	213.14	19.36	-50.1	-51.7	15.3	6.01e-01	0	28	0	1035468800	68	4465
2026-01-05 02:39:15.40	213.06	18.80	-50.2	-51.9	15.3	6.01e-01	0	28	0	1042808832	68	4548
2026-01-05 02:39:19.39	212.99	18.25	-50.2	-51.8	15.3	5.99e-01	0	28	0	1050673152	68	4534
2026-01-05 02:39:23.38	212.92	17.72	-50.0	-51.7	15.3	6.03e-01	0	28	0	1058013184	68	4447
2026-01-05 02:39:27.38	212.86	17.19	-50.1	-51.8	15.3	6.01e-01	0	28	0	1065353216	68	4500
2026-01-05 02:39:31.38	212.79	16.68	-50.0	-51.7	15.3	6.00e-01	0	28	0	1072693248	68	4448
2026-01-05 02:39:35.37	212.73	16.18	-50.0	-51.7	15.3	5.99e-01	0	28	0	1080557568	68	4467
2026-01-05 02:39:39.38	212.68	15.69	-50.1	-51.7	15.3	6.01e-01	0	28	0	1087897600	68	4490
2026-01-05 02:39:43.34	212.62	15.22	-50.1	-51.8	15.3	6.02e-01	0	28	0	1095237632	68	4504
2026-01-05 02:39:47.33	212.57	14.75	-50.0	-51.7	15.3	6.01e-01	0	28	0	1103101952	68	4472
2026-01-05 02:39:51.33	212.52	14.29	-50.0	-51.7	15.3	6.01e-01	0	28	0	1110441984	68	4477
2026-01-05 02:39:55.34	212.47	13.84	-50.1	-51.8	15.3	6.01e-01	0	28	0	1117782016	68	4505
2026-01-05 02:39:59.33	212.42	13.40	-50.3	-52.0	15.3	6.03e-01	0	28	0	1125122048	68	4643
2026-01-05 02:40:03.32	212.38	12.97	-50.3	-52.0	15.3	6.01e-01	0	28	0	1132986368	68	4639
2026-01-05 02:40:07.33	212.33	12.55	-50.3	-52.0	15.3	6.00e-01	0	28	0	1140326400	68	4620
2026-01-05 02:40:11.34	212.29	12.13	-50.3	-52.0	15.2	6.02e-01	0	28	0	1147666432	68	4644
2026-01-05 02:40:15.33	212.25	11.72	-50.3	-52.1	15.2	6.01e-01	0	28	0	1155530752	68	4654
2026-01-05 02:40:19.33	212.21	11.32	-50.3	-52.1	15.2	6.01e-01	0	28	0	1162870784	68	4659
2026-01-05 02:40:23.33	212.18	10.93	-50.2	-52.0	15.3	6.01e-01	0	28	0	1170210816	68	4614
2026-01-05 02:40:27.32	212.14	10.54	-50.2	-52.0	15.3	6.02e-01	0	28	0	1178075136	68	4607
2026-01-05 02:40:31.32	212.11	10.16	-50.3	-52.1	15.2	6.00e-01	0	28	0	1185415168	68	4657
2026-01-05 02:40:35.32	212.07	9.79	-50.4	-52.2	15.2	6.00e-01	0	28	0	1192755200	68	4711
2026-01-05 02:40:39.30	212.04	9.42	-50.4	-52.2	15.2	6.02e-01	0	28	0	1200095232	68	4748
2026-01-05 02:40:43.30	212.01	9.06	-50.5	-52.3	15.3	6.02e-01	0	28	0	1207959552	69	4532
2026-01-05 02:40:47.28	211.98	8.71	-50.6	-52.4	15.2	6.04e-01	0	28	0	1215299584	69	4589
2026-01-05 02:40:51.26	211.96	8.36	-50.7	-52.5	15.2	6.02e-01	0	28	0	1222639616	69	4645
2026-01-05 02:40:55.26	211.93	8.02	-50.8	-52.6	15.2	6.03e-01	0	28	0	1230503936	69	4690
2026-01-05 02:40:59.25	211.90	7.68	-50.9	-52.8	15.1	5.99e-01	0	28	0	1237843968	69	4801
2026-01-05 02:41:03.26	211.88	7.34	-50.9	-52.8	15.1	6.01e-01	0	28	0	1245184000	69	4793
2026-01-05 02:41:07.23	211.85	7.01	-51.0	-52.9	15.1	6.01e-01	0	28	0	1252524032	69	4850
2026-01-05 02:41:11.23	211.83	6.69	-51.0	-53.0	15.2	6.01e-01	0	28	0	1260388352	70	4621
2026-01-05 02:41:15.22	211.81	6.37	-51.2	-53.2	15.1	6.03e-01	0	28	0	1267728384	70	4708
2026-01-05 02:41:19.20	211.79	6.05	-51.2	-53.2	15.1	6.01e-01	0	28	0	1275068416	70	4731
2026-01-05 02:41:23.18	211.77	5.74	-51.4	-53.5	15.0	6.01e-01	0	28	0	1282408448	70	4892
2026-01-05 02:41:27.18	211.75	5.44	-51.3	-53.3	15.0	6.02e-01	0	28	0	1290272768	70	4798
2026-01-05 02:41:31.19	211.73	5.13	-51.4	-53.5	15.0	6.01e-01	0	28	0	1297612800	70	4912
2026-01-05 02:41:35.16	211.71	4.83	-59.4	-78.8	3.8	7.47e-01	0	28	104	1300758528	86	35784
2026-01-05 02:41:39.16	211.69	4.54	-59.8	-79.2	3.8	7.48e-01	0	28	104	1300758528	87	35463
2026-01-05 02:41:43.15	211.68	4.24	-60.1	-79.5	3.8	7.46e-01	0	28	104	1300758528	87	36542
2026-01-05 02:41:47.13	211.66	3.96	-60.3	-79.6	3.8	7.44e-01	0	28	104	1300758528	88	35186
2026-01-05 02:41:51.11	211.64	3.67	-60.4	-79.8	3.8	7.46e-01	0	28	104	1300758528	88	35726
2026-01-05 02:41:55.12	211.63	3.39	-60.5	-79.9	3.8	7.47e-01	0	28	104	1300758528	88	36326
2026-01-05 02:41:59.12	211.61	3.11	-60.4	-79.8	3.8	7.47e-01	0	28	104	1300758528	88	35838
2026-01-05 02:42:03.11	211.60	2.83	-60.4	-79.8	3.8	7.46e-01	0	28	104	1300758528	88	35709
2026-01-05 02:42:07.09	211.59	2.56	-60.3	-79.7	3.8	7.46e-01	0	28	104	1300758528	88	35591
2026-01-05 02:42:11.07	211.57	2.29	-60.3	-79.7	3.8	7.43e-01	0	28	104	1300758528	88	35489
2026-01-05 02:42:15.06	211.56	2.02	-60.3	-79.7	3.8	7.47e-01	0	28	104	1300758528	88	35355

#Closed at: 2026-01-05 02:42:17
#Recorded file [1300 MB]: D:/lorett/data/31004_260105_052924.dat