passes_logs/2026/01/05/R3.2S_Murmansk/R3.2S_Murmansk__20260105_102228_TY-42_rec.log

#Pass ID: 20260105_102228_TY-42
#Satellite: TY-42
#Configuration: TY-42_900M
#almurnet v.1.7.20251203
#Start time: 2026-01-05 10:22:29

#Version: 2.2.20231116
#Station: R3.2S_Murmansk
#Location: 33.079688 lon 68.888172 lat
#TLE: 1 64048U 25103A   26004.62913194  .00008006  00000-0  38191-3 0 09999
#TLE: 2 64048 097.4104 080.2420 0001638 091.3072 286.8001 15.19153636 35244

#Time	Az	El	Level	Level2	SNR	BER	BlckErr	Temp	State	Recorded	gain1	gain2
2026-01-05 10:22:29.13	21.80	2.07	-57.9	-61.1	6.1	0.00e+00	0	32	0	0	82	21100
2026-01-05 10:22:32.11	21.69	2.27	-57.9	-61.2	6.2	0.00e+00	0	32	104	0	83	19935
2026-01-05 10:22:35.07	21.57	2.48	-57.9	-61.2	6.2	0.00e+00	0	32	104	0	83	19991
2026-01-05 10:22:38.03	21.45	2.68	-57.9	-61.1	6.2	0.00e+00	0	32	104	0	83	19929
2026-01-05 10:22:40.99	21.33	2.89	-57.9	-61.1	6.1	0.00e+00	0	32	104	0	82	21056
2026-01-05 10:22:43.96	21.21	3.10	-57.9	-61.1	6.1	0.00e+00	0	32	104	0	82	20987
2026-01-05 10:22:46.93	21.08	3.32	-57.8	-61.1	6.2	0.00e+00	0	33	104	0	82	20912
2026-01-05 10:22:49.90	20.96	3.53	-57.9	-61.1	6.1	0.00e+00	0	33	104	0	82	21071
2026-01-05 10:22:52.85	20.83	3.75	-57.9	-61.2	6.2	0.00e+00	0	33	104	0	82	21122
2026-01-05 10:22:55.81	20.69	3.96	-57.9	-61.2	6.2	0.00e+00	0	33	104	0	82	21172
2026-01-05 10:22:58.78	20.56	4.19	-57.9	-61.2	6.1	0.00e+00	0	33	104	0	82	21132
2026-01-05 10:23:01.74	20.42	4.41	-57.9	-61.2	6.2	0.00e+00	0	33	104	0	82	21146
2026-01-05 10:23:04.71	20.28	4.64	-57.9	-61.2	6.2	0.00e+00	0	34	104	0	82	21146
2026-01-05 10:23:07.68	20.13	4.86	-57.9	-61.2	6.1	0.00e+00	0	34	104	0	82	21226
2026-01-05 10:23:10.64	19.98	5.09	-58.1	-61.3	6.1	0.00e+00	0	34	104	0	82	21583
2026-01-05 10:23:13.63	19.83	5.33	-58.0	-61.3	6.2	0.00e+00	0	34	104	0	82	21382
2026-01-05 10:23:16.61	19.68	5.57	-58.0	-61.2	6.2	0.00e+00	0	34	104	0	82	21298
2026-01-05 10:23:19.58	19.52	5.80	-58.0	-61.3	6.2	0.00e+00	0	34	104	0	82	21421
2026-01-05 10:23:22.57	19.35	6.05	-58.0	-61.3	6.2	0.00e+00	0	34	104	0	82	21479
2026-01-05 10:23:25.54	19.19	6.29	-58.1	-61.3	6.2	0.00e+00	0	34	104	0	82	21527
2026-01-05 10:23:28.53	19.02	6.54	-58.1	-61.4	6.1	0.00e+00	0	34	104	0	82	21701
2026-01-05 10:23:31.52	18.84	6.79	-58.1	-61.4	6.2	0.00e+00	0	35	104	0	82	21680
2026-01-05 10:23:34.49	18.67	7.04	-58.2	-61.4	6.2	0.00e+00	0	35	104	0	82	21829
2026-01-05 10:23:37.47	18.49	7.30	-58.2	-61.4	6.2	0.00e+00	0	35	104	0	82	21808
2026-01-05 10:23:40.44	18.30	7.56	-58.2	-61.5	6.2	0.00e+00	0	35	104	0	82	21912
2026-01-05 10:23:43.42	18.11	7.82	-58.2	-61.5	6.2	0.00e+00	0	35	104	0	82	21880
2026-01-05 10:23:46.40	17.91	8.09	-58.3	-61.5	6.2	0.00e+00	0	35	104	0	82	22109
2026-01-05 10:23:49.38	17.71	8.36	-58.3	-61.5	6.2	0.00e+00	0	35	104	0	82	22059
2026-01-05 10:23:52.36	17.51	8.64	-58.4	-61.6	6.2	0.00e+00	0	35	104	0	82	22275
2026-01-05 10:23:55.34	17.30	8.91	-48.8	-49.4	9.8	0.00e+00	5511	37	0	25165824	64	15340
2026-01-05 10:23:58.32	17.08	9.20	-46.4	-47.1	10.8	1.83e-01	0	37	0	360710144	60	14856
2026-01-05 10:24:01.31	16.86	9.48	-45.0	-45.4	11.5	1.24e-01	0	37	0	696254464	57	14459
2026-01-05 10:24:04.29	16.64	9.77	-43.2	-43.5	12.1	3.61e-02	0	37	0	1031798784	53	14731
2026-01-05 10:24:07.27	16.40	10.06	-42.6	-43.0	12.2	1.24e-02	0	37	0	1367343104	52	14642
2026-01-05 10:24:10.25	16.16	10.36	-42.2	-42.6	12.3	1.02e-02	0	37	0	1702887424	51	14822
2026-01-05 10:24:13.24	15.92	10.67	-42.0	-42.4	12.4	6.99e-03	0	37	0	2038431744	51	14483
2026-01-05 10:24:16.22	15.67	10.97	-42.1	-42.4	12.4	5.81e-03	0	37	0	2373976064	51	14591
2026-01-05 10:24:19.20	15.41	11.28	-41.9	-42.2	12.5	5.47e-03	0	37	0	2709520384	51	14200
2026-01-05 10:24:22.17	15.14	11.60	-41.7	-42.0	12.5	4.88e-03	0	38	0	3045064704	50	14756
2026-01-05 10:24:25.15	14.87	11.92	-41.6	-42.0	12.5	4.67e-03	0	38	0	3380609024	50	14674
2026-01-05 10:24:28.13	14.59	12.25	-41.4	-41.7	12.5	4.73e-03	0	38	0	3716153344	49	15044
2026-01-05 10:24:31.12	14.30	12.58	-41.1	-41.5	12.6	3.70e-03	0	38	0	4051697664	49	14619
2026-01-05 10:24:34.12	14.00	12.92	-40.8	-41.1	12.6	2.46e-03	0	38	0	4387241984	48	14858
2026-01-05 10:24:37.10	13.70	13.26	-40.5	-40.8	12.6	2.67e-03	0	38	0	4722786304	48	14388
2026-01-05 10:24:40.09	13.38	13.61	-39.6	-40.0	12.5	3.20e-03	0	38	0	5066719232	46	14635
2026-01-05 10:24:43.07	13.06	13.96	-39.4	-39.7	12.7	3.57e-03	0	38	0	5393874944	45	15027
2026-01-05 10:24:46.05	12.73	14.32	-39.4	-39.7	12.7	1.72e-03	0	38	0	5729419264	45	15105
2026-01-05 10:24:49.03	12.38	14.68	-39.7	-40.0	12.6	1.49e-03	0	38	0	6064963584	45	15585
2026-01-05 10:24:52.00	12.03	15.06	-39.5	-39.8	12.6	2.10e-03	0	38	0	6400507904	45	15289
2026-01-05 10:24:54.98	11.67	15.43	-39.3	-39.6	12.6	2.40e-03	0	39	0	6736052224	45	14917
2026-01-05 10:24:57.95	11.29	15.82	-39.2	-39.5	12.6	2.59e-03	0	38	0	7071596544	45	14667
2026-01-05 10:25:00.93	10.90	16.21	-38.6	-38.9	12.7	2.18e-03	0	39	0	7407140864	44	14594
2026-01-05 10:25:03.90	10.50	16.61	-38.3	-38.7	12.8	1.28e-03	0	39	0	7742685184	43	14962
2026-01-05 10:25:06.87	10.09	17.01	-38.0	-38.3	13.0	9.01e-04	0	39	0	8069840896	43	14356
2026-01-05 10:25:09.85	9.66	17.42	-37.7	-38.0	13.0	6.01e-04	0	39	0	8413773824	42	14716
2026-01-05 10:25:12.82	9.22	17.84	-37.4	-37.7	13.1	3.29e-04	0	39	0	8740929536	42	14227
2026-01-05 10:25:15.79	8.77	18.27	-37.2	-37.5	13.0	2.24e-04	0	39	0	9076473856	41	14641
2026-01-05 10:25:18.77	8.30	18.70	-37.1	-37.4	13.1	1.95e-04	0	39	0	9412018176	41	14497
2026-01-05 10:25:21.74	7.81	19.15	-36.8	-37.1	13.1	1.19e-04	0	39	0	9747562496	40	14888
2026-01-05 10:25:24.73	7.31	19.60	-36.7	-37.0	13.1	5.72e-05	0	39	0	10083106816	40	14690
2026-01-05 10:25:27.71	6.78	20.06	-36.4	-36.7	13.1	4.29e-05	0	39	0	10418651136	39	14996
2026-01-05 10:25:30.67	6.25	20.52	-36.2	-36.5	13.2	2.86e-05	0	39	0	10745806848	39	14640
2026-01-05 10:25:33.66	5.68	21.00	-36.0	-36.3	13.2	1.43e-05	0	39	0	11089739776	39	14392
2026-01-05 10:25:36.65	5.10	21.49	-35.8	-36.0	13.2	2.38e-05	0	39	0	11425284096	38	14746
2026-01-05 10:25:39.63	4.50	21.99	-35.7	-36.0	13.2	1.90e-05	0	39	0	11760828416	38	14727
2026-01-05 10:25:42.62	3.87	22.49	-35.6	-35.9	13.3	1.43e-05	0	39	0	12096372736	38	14458
2026-01-05 10:25:45.60	3.22	23.00	-35.3	-35.5	13.3	4.70e-06	0	39	0	12431917056	37	14763
2026-01-05 10:25:48.59	2.54	23.53	-35.2	-35.4	13.3	4.70e-06	0	39	0	12767461376	37	14602
2026-01-05 10:25:51.58	1.84	24.06	-35.2	-35.4	13.4	4.70e-06	0	39	0	13103005696	37	14579
2026-01-05 10:25:54.57	1.11	24.60	-35.1	-35.3	13.4	9.50e-06	0	39	0	13438550016	37	14383
2026-01-05 10:25:57.56	0.35	25.15	-35.0	-35.2	13.5	2.38e-05	0	39	0	13774094336	37	14232
2026-01-05 10:26:00.55	359.55	25.71	-34.7	-34.9	13.5	4.70e-06	0	39	0	14109638656	36	14568
2026-01-05 10:26:03.53	358.73	26.28	-34.5	-34.8	13.5	0.00e+00	0	39	0	14445182976	36	14327
2026-01-05 10:26:06.51	357.88	26.85	-34.5	-34.7	13.5	4.70e-06	0	39	0	14780727296	36	14212
2026-01-05 10:26:09.51	356.99	27.44	-31.8	-32.0	13.4	0.00e+00	0	39	0	15124660224	30	14739
2026-01-05 10:26:12.49	356.06	28.03	-31.4	-31.7	13.5	4.70e-06	0	39	0	15460204544	30	14120
2026-01-05 10:26:15.47	355.10	28.62	-31.1	-31.4	13.5	9.50e-06	0	39	0	15787360256	29	14488
2026-01-05 10:26:18.46	354.09	29.23	-31.2	-31.4	13.5	0.00e+00	0	39	0	16131293184	29	14562
2026-01-05 10:26:21.43	353.04	29.84	-31.0	-31.2	13.5	0.00e+00	0	39	0	16458448896	29	14239
2026-01-05 10:26:24.40	351.96	30.45	-30.6	-30.8	13.5	0.00e+00	0	39	0	16793993216	28	14436
2026-01-05 10:26:27.38	350.82	31.07	-30.5	-30.7	13.5	0.00e+00	0	39	0	17129537536	28	14259
2026-01-05 10:26:30.37	349.63	31.69	-30.4	-30.7	13.5	0.00e+00	0	39	0	17465081856	27	14948
2026-01-05 10:26:33.35	348.39	32.32	-30.3	-30.6	13.5	0.00e+00	0	39	0	17800626176	27	14799
2026-01-05 10:26:36.35	347.09	32.95	-30.0	-30.3	13.6	0.00e+00	0	39	0	18144559104	27	14366
2026-01-05 10:26:39.33	345.75	33.57	-29.8	-30.1	13.5	0.00e+00	0	39	0	18471714816	26	14807
2026-01-05 10:26:42.31	344.35	34.19	-29.8	-30.0	13.5	0.00e+00	0	39	0	18807259136	26	14755
2026-01-05 10:26:45.29	342.89	34.80	-29.7	-29.9	13.5	0.00e+00	0	39	0	19151192064	26	14580
2026-01-05 10:26:48.27	341.37	35.41	-29.5	-29.7	13.6	0.00e+00	0	39	0	19478347776	26	14253
2026-01-05 10:26:51.25	339.79	36.01	-29.5	-29.7	13.6	0.00e+00	0	39	0	19813892096	26	14195
2026-01-05 10:26:54.24	338.14	36.60	-29.2	-29.5	13.5	0.00e+00	0	39	0	20157825024	25	14632
2026-01-05 10:26:57.22	336.44	37.17	-29.0	-29.3	13.6	0.00e+00	0	39	0	20484980736	25	14315
2026-01-05 10:27:00.21	334.66	37.73	-28.9	-29.2	13.6	0.00e+00	0	39	0	20820525056	25	14147
2026-01-05 10:27:03.21	332.82	38.27	-28.8	-29.1	13.5	0.00e+00	0	39	0	21164457984	24	14783
2026-01-05 10:27:06.19	330.92	38.78	-28.7	-29.0	13.6	0.00e+00	0	39	0	21500002304	24	14684
2026-01-05 10:27:09.18	328.95	39.26	-28.7	-28.9	13.6	0.00e+00	0	39	0	21827158016	24	14509
2026-01-05 10:27:12.16	326.93	39.71	-28.6	-28.8	13.6	0.00e+00	0	39	0	22171090944	24	14417
2026-01-05 10:27:15.14	324.85	40.13	-28.5	-28.7	13.6	0.00e+00	0	39	0	22506635264	24	14234
2026-01-05 10:27:18.10	322.74	40.51	-28.5	-28.7	13.6	0.00e+00	0	39	0	22842179584	24	14259
2026-01-05 10:27:21.08	320.55	40.85	-28.3	-28.5	13.5	0.00e+00	0	40	0	23169335296	23	14707
2026-01-05 10:27:24.08	318.31	41.15	-28.3	-28.5	13.5	0.00e+00	0	39	0	23504879616	23	14715
2026-01-05 10:27:27.05	316.05	41.41	-28.1	-28.3	13.6	0.00e+00	0	39	0	23848812544	23	14430
2026-01-05 10:27:30.04	313.74	41.61	-28.2	-28.5	13.5	0.00e+00	0	39	0	24184356864	23	14632
2026-01-05 10:27:33.03	311.40	41.77	-28.2	-28.5	13.5	0.00e+00	0	40	0	24511512576	23	14664
2026-01-05 10:27:36.01	309.05	41.87	-28.1	-28.3	13.6	0.00e+00	0	40	0	24855445504	23	14428
2026-01-05 10:27:38.99	306.69	41.92	-27.9	-28.1	13.6	0.00e+00	0	40	0	25190989824	22	14924
2026-01-05 10:27:41.95	304.33	41.92	-27.8	-28.0	13.6	0.00e+00	0	40	0	25518145536	22	14743
2026-01-05 10:27:44.94	301.96	41.86	-27.8	-28.1	13.6	0.00e+00	0	39	0	25862078464	22	14901
2026-01-05 10:27:47.92	299.61	41.75	-27.9	-28.2	13.6	0.00e+00	0	40	0	26189234176	22	15029
2026-01-05 10:27:50.89	297.29	41.60	-28.1	-28.4	13.5	0.00e+00	0	40	0	26524778496	22	15342
2026-01-05 10:27:53.87	294.99	41.39	-28.1	-28.4	13.5	0.00e+00	0	39	0	26860322816	22	15336
2026-01-05 10:27:56.85	292.72	41.13	-28.2	-28.5	13.5	0.00e+00	0	40	0	27195867136	22	15494
2026-01-05 10:27:59.84	290.49	40.83	-28.3	-28.6	13.5	0.00e+00	0	40	0	27531411456	22	15672
2026-01-05 10:28:02.82	288.30	40.48	-28.3	-28.6	13.5	0.00e+00	0	40	0	27866955776	22	15690
2026-01-05 10:28:05.80	286.17	40.10	-28.2	-28.5	13.5	0.00e+00	0	40	0	28202500096	22	15577
2026-01-05 10:28:08.79	284.09	39.67	-28.3	-28.5	13.5	0.00e+00	0	39	0	28538044416	22	15646
2026-01-05 10:28:11.77	282.07	39.22	-28.3	-28.6	13.5	0.00e+00	0	39	0	28873588736	22	15780
2026-01-05 10:28:14.76	280.11	38.73	-28.5	-28.8	13.5	0.00e+00	0	39	0	29209133056	22	16030
2026-01-05 10:28:17.73	278.22	38.22	-28.7	-28.9	13.6	0.00e+00	0	40	0	29544677376	23	15416
2026-01-05 10:28:20.72	276.38	37.68	-28.7	-28.9	13.6	0.00e+00	0	40	0	29880221696	23	15438
2026-01-05 10:28:23.70	274.61	37.12	-28.9	-29.1	13.6	0.00e+00	0	40	0	30215766016	23	15806
2026-01-05 10:28:26.66	272.92	36.55	-29.0	-29.2	13.6	4.70e-06	0	40	0	30551310336	23	16015
2026-01-05 10:28:29.63	271.29	35.96	-29.2	-29.4	13.7	0.00e+00	0	39	0	30878466048	24	15449
2026-01-05 10:28:32.62	269.70	35.36	-29.3	-29.6	13.7	0.00e+00	0	40	0	31222398976	24	15691
2026-01-05 10:28:35.60	268.18	34.75	-29.4	-29.7	13.6	0.00e+00	0	40	0	31557943296	24	15922
2026-01-05 10:28:38.58	266.72	34.13	-29.6	-29.9	13.7	0.00e+00	0	40	0	31885099008	24	16229
2026-01-05 10:28:41.55	265.33	33.51	-29.8	-30.1	13.7	0.00e+00	0	40	0	32229031936	25	15683
2026-01-05 10:28:44.51	263.99	32.89	-29.9	-30.2	13.6	1.43e-05	0	40	0	32556187648	25	15878
2026-01-05 10:28:47.49	262.70	32.26	-30.1	-30.4	13.7	4.76e-05	0	40	0	32891731968	26	15368
2026-01-05 10:28:50.48	261.46	31.63	-30.4	-30.7	13.6	4.76e-05	0	40	0	33227276288	26	15882
2026-01-05 10:28:53.46	260.28	31.01	-60.0	-63.2	6.2	9.05e-05	0	39	104	33436991488	85	22587
2026-01-05 10:28:56.43	259.14	30.39	-60.0	-63.3	6.2	9.05e-05	0	39	104	33436991488	85	22632
2026-01-05 10:28:59.41	258.05	29.77	-59.9	-63.2	6.2	1.43e-05	0	39	104	33436991488	85	22485
2026-01-05 10:29:02.38	257.01	29.16	-59.9	-63.2	6.2	1.43e-05	0	39	104	33436991488	85	22389
2026-01-05 10:29:05.37	256.00	28.55	-59.9	-63.2	6.2	1.43e-05	0	39	104	33436991488	85	22387
2026-01-05 10:29:08.35	255.03	27.95	-59.9	-63.1	6.2	1.43e-05	0	39	104	33436991488	85	22231
2026-01-05 10:29:11.31	254.11	27.37	-59.8	-63.1	6.2	1.43e-05	0	39	104	33436991488	85	22144
2026-01-05 10:29:14.28	253.22	26.78	-59.8	-63.1	6.2	1.43e-05	0	38	104	33436991488	85	22217
2026-01-05 10:29:17.26	252.37	26.21	-59.8	-63.1	6.2	1.43e-05	0	38	104	33436991488	85	22132
2026-01-05 10:29:20.24	251.55	25.64	-59.8	-63.0	6.2	0.00e+00	0	38	104	33436991488	85	21985
2026-01-05 10:29:23.22	250.76	25.08	-59.7	-63.0	6.2	0.00e+00	0	38	104	33436991488	85	21904
2026-01-05 10:29:26.18	250.01	24.54	-59.7	-63.0	6.2	0.00e+00	0	38	104	33436991488	85	21955
2026-01-05 10:29:29.15	249.28	24.00	-59.7	-63.0	6.1	0.00e+00	0	38	104	33436991488	85	21857
2026-01-05 10:29:32.13	248.58	23.46	-59.7	-62.9	6.2	0.00e+00	0	38	104	33436991488	85	21786
2026-01-05 10:29:35.10	247.90	22.94	-59.7	-62.9	6.2	0.00e+00	0	38	104	33436991488	85	21718
2026-01-05 10:29:38.09	247.25	22.43	-59.6	-62.9	6.2	0.00e+00	0	38	104	33436991488	85	21767
2026-01-05 10:29:41.06	246.62	21.92	-59.6	-62.9	6.2	0.00e+00	0	38	104	33436991488	85	21623
2026-01-05 10:29:44.04	246.02	21.43	-59.6	-62.8	6.2	0.00e+00	0	38	104	33436991488	85	21549
2026-01-05 10:29:47.02	245.43	20.94	-59.6	-62.8	6.2	0.00e+00	0	38	104	33436991488	85	21598
2026-01-05 10:29:50.00	244.87	20.46	-59.6	-62.8	6.2	0.00e+00	0	38	104	33436991488	85	21502
2026-01-05 10:29:52.99	244.33	19.99	-59.5	-62.8	6.2	0.00e+00	0	38	104	33436991488	85	21476
2026-01-05 10:29:55.96	243.80	19.53	-59.5	-62.8	6.2	0.00e+00	0	38	104	33436991488	85	21416
2026-01-05 10:29:58.94	243.30	19.07	-59.5	-62.7	6.2	0.00e+00	0	38	104	33436991488	85	21283
2026-01-05 10:30:01.91	242.81	18.63	-59.5	-62.7	6.2	0.00e+00	0	38	104	33436991488	85	21253
2026-01-05 10:30:04.89	242.33	18.19	-59.4	-62.7	6.2	0.00e+00	0	38	104	33436991488	85	21178
2026-01-05 10:30:07.87	241.88	17.76	-59.4	-62.7	6.2	0.00e+00	0	38	104	33436991488	85	21166
2026-01-05 10:30:10.84	241.44	17.34	-59.4	-62.6	6.2	0.00e+00	0	38	104	33436991488	85	21047
2026-01-05 10:30:13.81	241.01	16.93	-59.4	-62.6	6.2	0.00e+00	0	38	104	33436991488	85	21027
2026-01-05 10:30:16.79	240.59	16.52	-59.3	-62.6	6.2	0.00e+00	0	38	104	33436991488	85	20943
2026-01-05 10:30:19.76	240.19	16.13	-59.3	-62.6	6.2	0.00e+00	0	37	104	33436991488	85	20890
2026-01-05 10:30:22.73	239.81	15.74	-59.3	-62.6	6.2	0.00e+00	0	37	104	33436991488	85	20903
2026-01-05 10:30:25.70	239.43	15.35	-59.3	-62.5	6.2	0.00e+00	0	37	104	33436991488	85	20723
2026-01-05 10:30:28.67	239.06	14.97	-59.3	-62.5	6.2	0.00e+00	0	37	104	33436991488	85	20688
2026-01-05 10:30:31.64	238.71	14.60	-59.2	-62.5	6.2	0.00e+00	0	37	104	33436991488	85	20761
2026-01-05 10:30:34.62	238.36	14.24	-59.2	-62.5	6.2	0.00e+00	0	37	104	33436991488	85	20707
2026-01-05 10:30:37.61	238.03	13.87	-59.2	-62.4	6.2	0.00e+00	0	37	104	33436991488	85	20577
2026-01-05 10:30:40.59	237.70	13.52	-59.2	-62.4	6.2	0.00e+00	0	37	104	33436991488	85	20606
2026-01-05 10:30:43.57	237.39	13.17	-59.2	-62.4	6.2	0.00e+00	0	37	104	33436991488	85	20517
2026-01-05 10:30:46.55	237.08	12.83	-59.2	-62.4	6.2	0.00e+00	0	37	104	33436991488	85	20501
2026-01-05 10:30:49.53	236.78	12.49	-59.1	-62.4	6.2	0.00e+00	0	37	104	33436991488	85	20444
2026-01-05 10:30:52.51	236.49	12.16	-59.1	-62.4	6.2	0.00e+00	0	37	104	33436991488	85	20400
2026-01-05 10:30:55.50	236.21	11.83	-59.1	-62.4	6.2	0.00e+00	0	37	104	33436991488	85	20398
2026-01-05 10:30:58.49	235.94	11.51	-59.1	-62.3	6.2	0.00e+00	0	37	104	33436991488	85	20295
2026-01-05 10:31:01.45	235.67	11.19	-59.0	-62.3	6.1	0.00e+00	0	37	104	33436991488	85	20178
2026-01-05 10:31:04.42	235.41	10.88	-59.0	-62.2	6.2	0.00e+00	0	37	104	33436991488	85	20051
2026-01-05 10:31:07.40	235.16	10.57	-59.0	-62.3	6.2	0.00e+00	0	37	104	33436991488	85	20245
2026-01-05 10:31:10.39	234.91	10.27	-58.9	-62.2	6.2	0.00e+00	0	37	104	33436991488	85	20009
2026-01-05 10:31:13.37	234.67	9.97	-58.9	-62.2	6.2	0.00e+00	0	37	104	33436991488	85	20021
2026-01-05 10:31:16.37	234.44	9.68	-58.9	-62.1	6.1	0.00e+00	0	37	104	33436991488	84	21043
2026-01-05 10:31:19.34	234.21	9.39	-58.9	-62.1	6.2	0.00e+00	0	37	104	33436991488	84	21068
2026-01-05 10:31:22.32	233.99	9.10	-58.8	-62.1	6.2	0.00e+00	0	37	104	33436991488	84	20888
2026-01-05 10:31:25.28	233.77	8.82	-58.7	-62.0	6.1	0.00e+00	0	37	104	33436991488	84	20702
2026-01-05 10:31:28.25	233.56	8.54	-58.8	-62.0	6.2	0.00e+00	0	37	104	33436991488	84	20778
2026-01-05 10:31:31.23	233.35	8.27	-58.8	-62.0	6.2	0.00e+00	0	37	104	33436991488	84	20737
2026-01-05 10:31:34.20	233.15	8.00	-58.8	-62.1	6.2	0.00e+00	0	37	104	33436991488	84	20957
2026-01-05 10:31:37.17	232.96	7.73	-58.7	-61.9	6.2	0.00e+00	0	37	104	33436991488	84	20616
2026-01-05 10:31:40.15	232.76	7.47	-58.7	-61.9	6.2	0.00e+00	0	37	104	33436991488	84	20616
2026-01-05 10:31:43.13	232.57	7.21	-58.7	-61.9	6.2	0.00e+00	0	37	104	33436991488	84	20521
2026-01-05 10:31:46.11	232.39	6.95	-58.5	-61.8	6.2	0.00e+00	0	37	104	33436991488	84	20226
2026-01-05 10:31:49.10	232.21	6.69	-58.5	-61.7	6.2	0.00e+00	0	37	104	33436991488	84	20115
2026-01-05 10:31:52.10	232.03	6.44	-58.5	-61.8	6.2	0.00e+00	0	37	104	33436991488	84	20174
2026-01-05 10:31:55.07	231.86	6.19	-58.5	-61.8	6.2	0.00e+00	0	37	104	33436991488	84	20217
2026-01-05 10:31:58.05	231.70	5.95	-58.2	-61.4	6.2	0.00e+00	0	37	104	33436991488	83	20568
2026-01-05 10:32:01.03	231.53	5.70	-58.2	-61.4	6.2	0.00e+00	0	37	104	33436991488	83	20536
2026-01-05 10:32:04.01	231.37	5.46	-58.2	-61.5	6.1	0.00e+00	0	37	104	33436991488	83	20750
2026-01-05 10:32:06.99	231.22	5.23	-58.2	-61.5	6.2	0.00e+00	0	37	104	33436991488	83	20762
2026-01-05 10:32:09.97	231.06	4.99	-58.3	-61.6	6.2	0.00e+00	0	37	104	33436991488	83	20917
2026-01-05 10:32:12.96	230.91	4.76	-59.5	-62.8	6.2	0.00e+00	0	37	104	33436991488	84	22746
2026-01-05 10:32:15.95	230.76	4.53	-60.0	-63.2	6.2	0.00e+00	0	37	104	33436991488	85	22493
2026-01-05 10:32:18.95	230.62	4.30	-60.3	-63.5	6.2	0.00e+00	0	37	104	33436991488	86	22084
2026-01-05 10:32:21.94	230.48	4.08	-60.4	-63.6	6.2	0.00e+00	0	37	104	33436991488	86	22303
2026-01-05 10:32:24.93	230.34	3.85	-60.5	-63.7	6.2	0.00e+00	0	37	104	33436991488	86	22482
2026-01-05 10:32:27.93	230.20	3.63	-60.5	-63.8	6.1	0.00e+00	0	37	104	33436991488	86	22765
2026-01-05 10:32:30.92	230.07	3.41	-60.7	-63.9	6.2	0.00e+00	0	37	104	33436991488	87	21744
2026-01-05 10:32:33.91	229.94	3.19	-60.6	-63.9	6.2	0.00e+00	0	37	104	33436991488	87	21672
2026-01-05 10:32:36.88	229.81	2.98	-60.5	-63.8	6.2	0.00e+00	0	37	104	33436991488	87	21455
2026-01-05 10:32:39.85	229.69	2.77	-60.5	-63.7	6.2	0.00e+00	0	37	104	33436991488	87	21265
2026-01-05 10:32:42.82	229.56	2.56	-60.4	-63.7	6.2	0.00e+00	0	37	104	33436991488	87	21223
2026-01-05 10:32:45.80	229.44	2.35	-60.4	-63.7	6.2	0.00e+00	0	37	104	33436991488	87	21180
2026-01-05 10:32:48.78	229.33	2.15	-60.4	-63.6	6.2	0.00e+00	0	37	104	33436991488	87	21110
2026-01-05 10:32:51.76	229.21	1.94	-60.4	-63.6	6.2	0.00e+00	0	37	104	33436991488	87	21045

#Closed at: 2026-01-05 10:32:51
#Recorded file [33436 MB]: D:/lorett/data/31004_260105_132228.dat