passes_logs/2026/01/05/R3.2S_Murmansk/R3.2S_Murmansk__20260105_111746_NOAA_20_JPSS-1_rec.log

#Pass ID: 20260105_111746_NOAA 20 (JPSS-1)
#Satellite: NOAA 20 (JPSS-1)
#Configuration: NOAA 20
#almurnet v.1.7.20251203
#Start time: 2026-01-05 11:17:48

#Version: 2.2.20231116
#Station: R3.2S_Murmansk
#Location: 33.079688 lon 68.888172 lat
#TLE: 1 43013U 17073A   26004.47528369  .00000132  00000+0  83671-4 0  9999
#TLE: 2 43013  98.7626 305.5264 0001854  54.5883 305.5466 14.19533142421242

#Time	Az	El	Level	Level2	SNR	BER	BlckErr	Temp	State	Recorded	gain1	gain2
2026-01-05 11:17:48.24	195.95	2.11	-58.3	-74.3	3.8	1.49e+00	0	25	0	0	81	24441
2026-01-05 11:17:52.18	196.16	2.35	-58.3	-74.3	3.8	1.49e+00	0	25	104	0	81	24637
2026-01-05 11:17:56.13	196.38	2.59	-58.3	-74.3	3.8	1.49e+00	0	25	104	0	81	24635
2026-01-05 11:18:00.09	196.60	2.83	-58.3	-74.2	3.8	1.49e+00	0	25	104	0	81	24397
2026-01-05 11:18:04.03	196.82	3.07	-58.3	-74.2	3.8	1.49e+00	0	25	104	0	81	24150
2026-01-05 11:18:07.98	197.04	3.31	-58.3	-74.2	3.8	1.49e+00	0	26	104	0	81	24275
2026-01-05 11:18:11.93	197.27	3.55	-58.3	-74.0	3.8	1.49e+00	0	26	104	0	81	23793
2026-01-05 11:18:15.88	197.51	3.80	-58.3	-74.3	3.8	1.49e+00	0	26	104	0	81	24547
2026-01-05 11:18:19.83	197.74	4.05	-58.3	-73.6	3.8	1.49e+00	0	26	104	0	81	22630
2026-01-05 11:18:23.80	197.98	4.30	-58.2	-72.3	3.8	1.49e+00	0	26	104	0	81	19451
2026-01-05 11:18:27.76	198.23	4.55	-58.2	-72.5	3.8	1.49e+00	0	26	104	0	81	20005
2026-01-05 11:18:31.72	198.48	4.81	-58.1	-69.5	4.6	1.02e+00	0	26	0	1048576	81	14179
2026-01-05 11:18:35.67	198.73	5.06	-58.0	-67.8	5.5	4.91e-01	0	26	0	8388608	81	11663
2026-01-05 11:18:39.63	198.99	5.32	-57.3	-64.1	4.9	1.49e+00	0	26	104	12582912	81	7618
2026-01-05 11:18:43.61	199.25	5.59	-55.3	-58.7	12.5	1.50e-06	0	26	0	18874368	77	5124
2026-01-05 11:18:47.58	199.52	5.85	-55.1	-58.2	12.7	0.00e+00	0	26	0	26214400	76	5155
2026-01-05 11:18:51.53	199.79	6.11	-55.0	-58.0	12.9	0.00e+00	0	26	0	33554432	76	5032
2026-01-05 11:18:55.49	200.06	6.38	-54.9	-57.9	13.0	0.00e+00	0	26	0	40894464	76	4936
2026-01-05 11:18:59.46	200.34	6.65	-54.7	-57.6	13.0	0.00e+00	0	26	0	48234496	75	5064
2026-01-05 11:19:03.42	200.63	6.92	-58.2	-70.6	4.6	5.79e-01	22	26	0	55574528	81	16065
2026-01-05 11:19:07.39	200.92	7.20	-58.1	-69.9	4.5	1.18e+00	4	27	0	61865984	81	14724
2026-01-05 11:19:11.37	201.22	7.48	-58.4	-72.5	3.9	1.49e+00	0	27	104	63963136	81	20046
2026-01-05 11:19:15.37	201.52	7.76	-58.3	-71.7	4.0	1.47e+00	0	26	104	63963136	81	18156
2026-01-05 11:19:19.33	201.83	8.04	-58.5	-72.5	3.8	1.49e+00	0	27	104	63963136	82	18903
2026-01-05 11:19:23.29	202.14	8.33	-58.4	-71.4	4.1	1.44e+00	0	26	0	63963136	82	16564
2026-01-05 11:19:27.29	202.46	8.62	-58.4	-70.6	4.3	1.31e+00	21	27	0	63963136	82	15156
2026-01-05 11:19:31.23	202.78	8.90	-58.5	-72.5	3.8	1.49e+00	0	27	104	63963136	82	18898
2026-01-05 11:19:35.20	203.11	9.20	-58.4	-70.6	4.3	1.37e+00	51	27	0	63963136	82	15196
2026-01-05 11:19:39.17	203.45	9.49	-58.4	-68.8	5.2	6.20e-01	0	27	0	71303168	82	12259
2026-01-05 11:19:43.15	203.80	9.79	-58.5	-71.1	4.2	1.44e+00	0	27	0	71303168	82	16117
2026-01-05 11:19:47.11	204.15	10.09	-58.4	-69.3	4.9	8.62e-01	0	27	0	75497472	82	13030
2026-01-05 11:19:51.10	204.51	10.40	-58.6	-71.4	4.2	9.46e-01	0	27	0	82837504	82	16507
2026-01-05 11:19:55.08	204.87	10.70	-58.6	-71.0	4.2	1.41e+00	0	27	0	82837504	82	15880
2026-01-05 11:19:59.05	205.24	11.01	-58.4	-68.8	5.2	5.92e-01	0	27	0	89128960	82	12235
2026-01-05 11:20:03.03	205.63	11.32	-58.8	-74.0	3.8	1.49e+00	0	27	104	94371840	82	22400
2026-01-05 11:20:07.01	206.01	11.64	-58.6	-69.9	4.6	1.06e+00	0	27	0	96468992	82	14042
2026-01-05 11:20:10.99	206.41	11.96	-58.5	-68.1	5.6	4.35e-01	0	27	0	103809024	82	11380
2026-01-05 11:20:14.96	206.82	12.28	-58.9	-72.4	4.0	1.46e+00	0	27	0	108003328	82	18730
2026-01-05 11:20:18.95	207.23	12.61	-58.7	-70.4	4.5	1.07e+00	1	27	0	113246208	82	14800
2026-01-05 11:20:22.94	207.65	12.93	-58.8	-70.5	4.5	7.85e-01	5	27	0	120586240	82	14925
2026-01-05 11:20:26.91	208.09	13.26	-58.8	-70.7	4.4	1.42e+00	41	27	0	121634816	83	14495
2026-01-05 11:20:30.88	208.53	13.60	-58.7	-70.1	4.6	9.00e-01	0	27	0	128974848	83	13460
2026-01-05 11:20:34.86	208.98	13.93	-58.9	-71.1	4.3	6.88e-01	13	27	0	136314880	83	15224
2026-01-05 11:20:38.82	209.44	14.27	-58.8	-70.3	4.6	9.58e-01	0	27	0	139460608	83	13836
2026-01-05 11:20:42.80	209.91	14.62	-58.6	-68.6	5.4	4.98e-01	0	27	0	146800640	83	11334
2026-01-05 11:20:46.79	210.39	14.96	-59.1	-74.2	3.8	1.43e+00	0	27	104	153092096	83	21568
2026-01-05 11:20:50.77	210.88	15.31	-58.8	-70.5	4.5	1.20e+00	0	27	0	156237824	83	14110
2026-01-05 11:20:54.76	211.39	15.67	-58.7	-68.5	5.5	4.92e-01	0	27	0	163577856	83	11166
2026-01-05 11:20:58.74	211.90	16.02	-59.1	-73.8	3.8	1.49e+00	0	27	104	167772160	83	20612
2026-01-05 11:21:02.70	212.43	16.38	-58.8	-69.1	5.1	5.78e-01	0	27	0	173015040	83	12076
2026-01-05 11:21:06.67	212.97	16.74	-58.8	-68.7	5.4	3.73e-01	0	27	0	180355072	83	11477
2026-01-05 11:21:10.64	213.52	17.10	-59.0	-70.2	4.6	1.49e+00	0	27	104	182452224	83	13650
2026-01-05 11:21:14.60	214.08	17.47	-58.7	-68.0	5.9	3.71e-01	0	27	0	189792256	83	10549
2026-01-05 11:21:18.58	214.66	17.84	-58.9	-68.8	5.5	2.58e-01	0	27	0	197132288	83	11671
2026-01-05 11:21:22.54	215.25	18.21	-58.9	-69.2	5.2	5.71e-01	0	27	0	199229440	83	12162
2026-01-05 11:21:26.52	215.86	18.58	-58.7	-67.4	6.3	2.34e-01	0	27	0	206569472	83	9896
2026-01-05 11:21:30.50	216.48	18.96	-59.2	-72.8	4.0	1.14e+00	0	27	0	213909504	83	18489
2026-01-05 11:21:34.47	217.12	19.34	-58.8	-68.6	5.6	4.33e-01	0	27	0	217055232	83	11294
2026-01-05 11:21:38.43	217.77	19.72	-58.5	-66.3	7.2	1.13e-01	0	27	0	224395264	83	8718
2026-01-05 11:21:42.39	218.43	20.11	-59.2	-73.2	3.9	1.49e+00	0	27	104	229638144	83	19343
2026-01-05 11:21:46.36	219.12	20.49	-58.8	-68.1	5.9	2.95e-01	0	27	0	234881024	83	10699
2026-01-05 11:21:50.33	219.82	20.88	-58.3	-65.2	8.2	3.86e-02	0	27	0	242221056	83	7632
2026-01-05 11:21:54.29	220.53	21.27	-58.2	-64.6	8.7	1.55e-02	0	27	0	249561088	83	7192
2026-01-05 11:21:58.26	221.27	21.66	-58.1	-64.2	9.1	9.80e-03	0	27	0	256901120	82	7205
2026-01-05 11:22:02.22	222.02	22.05	-58.0	-63.7	9.5	5.65e-03	0	27	0	264241152	82	6868
2026-01-05 11:22:06.21	222.80	22.45	-57.6	-62.6	10.4	1.08e-03	0	27	0	271581184	81	6350
2026-01-05 11:22:10.18	223.59	22.84	-54.7	-57.2	13.7	0.00e+00	0	27	0	278921216	76	4553
2026-01-05 11:22:14.16	224.40	23.24	-51.7	-53.3	14.9	0.00e+00	0	27	0	287309824	70	4116
2026-01-05 11:22:18.13	225.23	23.63	-50.3	-51.7	15.0	0.00e+00	0	27	0	294649856	67	4088
2026-01-05 11:22:22.09	226.08	24.03	-50.4	-51.8	14.9	0.00e+00	0	27	0	301989888	66	4375
2026-01-05 11:22:26.08	226.96	24.42	-50.7	-52.2	14.8	0.00e+00	0	27	0	309329920	66	4548
2026-01-05 11:22:30.06	227.86	24.82	-50.7	-52.1	14.8	0.00e+00	0	27	0	316669952	66	4528
2026-01-05 11:22:34.02	228.78	25.21	-51.2	-52.7	14.7	0.00e+00	0	27	0	324009984	67	4594
2026-01-05 11:22:37.99	229.72	25.60	-51.4	-53.0	14.6	0.00e+00	0	27	0	331350016	67	4712
2026-01-05 11:22:41.95	230.68	25.98	-52.0	-53.7	14.6	0.00e+00	0	27	0	338690048	69	4583
2026-01-05 11:22:45.92	231.66	26.37	-52.1	-53.8	14.6	0.00e+00	0	27	0	346030080	69	4646
2026-01-05 11:22:49.89	232.67	26.75	-52.7	-54.5	14.3	0.00e+00	0	27	0	353370112	70	4731
2026-01-05 11:22:53.84	233.70	27.12	-53.0	-54.9	14.3	0.00e+00	0	27	0	361758720	71	4686
2026-01-05 11:22:57.80	234.75	27.49	-52.8	-54.6	14.4	0.00e+00	0	27	0	369098752	71	4512
2026-01-05 11:23:01.78	235.84	27.86	-53.1	-55.0	14.2	0.00e+00	0	27	0	376438784	71	4727
2026-01-05 11:23:05.76	236.94	28.22	-54.1	-56.4	13.8	0.00e+00	0	27	0	383778816	73	4939
2026-01-05 11:23:09.73	238.07	28.57	-54.6	-56.9	13.7	0.00e+00	0	27	0	391118848	74	4982
2026-01-05 11:23:13.70	239.23	28.91	-55.4	-58.2	13.1	0.00e+00	0	27	0	398458880	75	5427
2026-01-05 11:23:17.65	240.40	29.25	-55.5	-58.3	13.1	0.00e+00	0	27	0	405798912	76	5214
2026-01-05 11:23:21.62	241.60	29.58	-55.4	-58.2	13.2	0.00e+00	0	27	0	413138944	76	5120
2026-01-05 11:23:25.60	242.83	29.89	-55.7	-58.6	13.0	0.00e+00	0	27	0	420478976	76	5391
2026-01-05 11:23:29.58	244.08	30.20	-54.8	-57.2	13.8	0.00e+00	0	27	0	427819008	76	4561
2026-01-05 11:23:33.55	245.35	30.49	-54.2	-56.3	14.0	0.00e+00	0	27	0	436207616	74	4646
2026-01-05 11:23:37.51	246.64	30.77	-54.4	-56.7	13.8	0.00e+00	0	27	0	443547648	74	4820
2026-01-05 11:23:41.48	247.96	31.04	-53.9	-55.9	14.2	0.00e+00	0	27	0	450887680	74	4432
2026-01-05 11:23:45.45	249.29	31.30	-54.6	-57.0	13.7	0.00e+00	0	27	0	458227712	74	5031
2026-01-05 11:23:49.43	250.65	31.54	-55.3	-58.0	13.2	0.00e+00	0	27	0	465567744	75	5310
2026-01-05 11:23:53.39	252.02	31.76	-54.6	-57.0	13.8	0.00e+00	0	27	0	472907776	75	4739
2026-01-05 11:23:57.38	253.42	31.97	-54.5	-56.8	13.9	0.00e+00	0	27	0	480247808	75	4638
2026-01-05 11:24:01.35	254.83	32.15	-54.6	-56.9	13.8	0.00e+00	0	27	0	487587840	75	4674
2026-01-05 11:24:05.33	256.26	32.33	-54.6	-56.9	13.8	0.00e+00	0	27	0	494927872	75	4694
2026-01-05 11:24:09.30	257.70	32.48	-54.8	-57.2	13.7	0.00e+00	0	27	0	502267904	75	4817
2026-01-05 11:24:13.27	259.15	32.61	-54.3	-56.5	14.0	0.00e+00	0	27	0	510656512	75	4475
2026-01-05 11:24:17.24	260.62	32.73	-54.4	-56.6	13.9	0.00e+00	0	27	0	517996544	74	4791
2026-01-05 11:24:21.21	262.09	32.82	-54.7	-57.0	13.6	0.00e+00	0	27	0	525336576	74	5027
2026-01-05 11:24:25.18	263.57	32.89	-55.0	-57.5	13.5	0.00e+00	0	27	0	532676608	75	4998
2026-01-05 11:24:29.13	265.04	32.95	-55.0	-57.5	13.5	0.00e+00	0	27	0	540016640	75	5027
2026-01-05 11:24:33.11	266.54	32.98	-54.4	-56.6	14.0	0.00e+00	0	27	0	547356672	75	4532
2026-01-05 11:24:37.09	268.03	32.99	-54.5	-56.8	13.9	0.00e+00	0	27	0	554696704	75	4647
2026-01-05 11:24:41.07	269.52	32.98	-54.2	-56.4	14.1	0.00e+00	0	27	0	562036736	75	4406
2026-01-05 11:24:45.04	271.01	32.95	-55.0	-57.4	13.6	0.00e+00	0	27	0	569376768	75	4964
2026-01-05 11:24:49.00	272.49	32.89	-54.5	-56.8	13.9	0.00e+00	0	27	0	576716800	75	4611
2026-01-05 11:24:52.98	273.97	32.82	-53.7	-55.7	14.2	0.00e+00	0	27	0	585105408	73	4568
2026-01-05 11:24:56.97	275.45	32.73	-54.9	-57.3	13.6	0.00e+00	0	27	0	592445440	74	5191
2026-01-05 11:25:00.93	276.91	32.61	-55.1	-57.7	13.5	0.00e+00	0	27	0	599785472	75	5117
2026-01-05 11:25:04.91	278.36	32.48	-55.1	-57.7	13.4	0.00e+00	0	27	0	607125504	75	5125
2026-01-05 11:25:08.88	279.80	32.33	-55.3	-57.9	13.4	0.00e+00	0	27	0	614465536	75	5250
2026-01-05 11:25:12.87	281.23	32.15	-55.7	-58.5	13.1	0.00e+00	0	27	0	621805568	76	5286
2026-01-05 11:25:16.85	282.64	31.97	-55.9	-58.8	13.0	0.00e+00	0	27	0	629145600	77	5211
2026-01-05 11:25:20.82	284.03	31.76	-55.4	-58.0	13.5	0.00e+00	0	27	0	636485632	77	4718
2026-01-05 11:25:24.79	285.40	31.54	-54.2	-56.3	14.1	0.00e+00	0	27	0	643825664	75	4386
2026-01-05 11:25:28.78	286.76	31.30	-54.5	-56.8	13.8	0.00e+00	0	27	0	652214272	74	4905
2026-01-05 11:25:32.76	288.10	31.04	-54.7	-57.0	13.7	0.00e+00	0	27	0	659554304	74	5011
2026-01-05 11:25:36.74	289.42	30.78	-54.4	-56.7	13.9	0.00e+00	0	27	0	666894336	74	4824
2026-01-05 11:25:40.73	290.71	30.49	-54.1	-56.2	14.1	0.00e+00	0	27	0	674234368	74	4583
2026-01-05 11:25:44.70	291.98	30.20	-55.0	-57.4	13.6	0.00e+00	0	27	0	681574400	75	4981
2026-01-05 11:25:48.66	293.22	29.90	-55.0	-57.5	13.6	0.00e+00	0	27	0	688914432	75	4995
2026-01-05 11:25:52.63	294.44	29.58	-54.4	-56.5	14.1	0.00e+00	0	27	0	696254464	75	4491
2026-01-05 11:25:56.60	295.64	29.26	-54.6	-57.0	13.8	0.00e+00	0	27	0	703594496	75	4718
2026-01-05 11:26:00.57	296.82	28.92	-54.9	-57.4	13.6	0.00e+00	0	27	0	710934528	75	4948
2026-01-05 11:26:04.55	297.97	28.58	-54.9	-57.4	13.6	0.00e+00	0	27	0	719323136	75	4960
2026-01-05 11:26:08.51	299.09	28.23	-54.3	-56.5	14.1	0.00e+00	0	27	0	726663168	75	4486
2026-01-05 11:26:12.47	300.19	27.87	-53.3	-55.2	14.5	0.00e+00	0	27	0	734003200	73	4299
2026-01-05 11:26:16.45	301.27	27.51	-53.4	-55.3	14.3	0.00e+00	0	27	0	741343232	72	4615
2026-01-05 11:26:20.42	302.32	27.14	-54.2	-56.4	13.9	0.00e+00	0	27	0	748683264	73	4951
2026-01-05 11:26:24.39	303.35	26.76	-54.1	-56.2	14.1	0.00e+00	0	27	0	756023296	74	4559
2026-01-05 11:26:28.36	304.36	26.39	-53.0	-54.8	14.5	0.00e+00	0	27	0	763363328	72	4388
2026-01-05 11:26:32.33	305.34	26.00	-53.1	-55.0	14.4	0.00e+00	0	27	0	770703360	72	4468
2026-01-05 11:26:36.30	306.30	25.62	-53.6	-55.6	14.2	0.00e+00	0	27	0	778043392	72	4772
2026-01-05 11:26:40.27	307.24	25.23	-55.1	-57.7	13.4	0.00e+00	0	27	0	785383424	75	5140
2026-01-05 11:26:44.23	308.15	24.84	-53.4	-55.3	14.4	0.00e+00	0	27	0	792723456	73	4357
2026-01-05 11:26:48.19	309.04	24.46	-53.5	-55.5	14.2	0.00e+00	0	27	0	801112064	73	4476
2026-01-05 11:26:52.16	309.91	24.06	-52.4	-54.1	14.7	0.00e+00	0	27	0	808452096	71	4284
2026-01-05 11:26:56.12	310.76	23.67	-53.5	-55.5	14.2	0.00e+00	0	27	0	815792128	72	4735
2026-01-05 11:27:00.09	311.59	23.28	-52.7	-54.5	14.6	0.00e+00	0	27	0	823132160	72	4209
2026-01-05 11:27:04.07	312.40	22.89	-53.8	-55.9	14.0	0.00e+00	0	27	0	830472192	72	4960
2026-01-05 11:27:08.05	313.19	22.49	-52.9	-54.7	14.6	0.00e+00	0	27	0	837812224	72	4293
2026-01-05 11:27:12.02	313.96	22.10	-52.6	-54.4	14.5	0.00e+00	0	27	0	845152256	71	4425
2026-01-05 11:27:15.98	314.71	21.71	-52.1	-53.8	14.7	0.00e+00	0	27	0	852492288	70	4363
2026-01-05 11:27:19.95	315.45	21.32	-52.5	-54.3	14.5	0.00e+00	0	27	0	859832320	70	4610
2026-01-05 11:27:23.93	316.16	20.94	-52.4	-54.1	14.5	0.00e+00	0	27	0	867172352	70	4528
2026-01-05 11:27:27.90	316.86	20.55	-51.8	-53.4	14.8	0.00e+00	0	27	0	875560960	70	4160
2026-01-05 11:27:31.85	317.54	20.17	-51.7	-53.3	14.7	0.00e+00	0	27	0	882900992	69	4376
2026-01-05 11:27:35.82	318.21	19.79	-51.5	-53.0	14.9	0.00e+00	0	27	0	890241024	69	4228
2026-01-05 11:27:39.79	318.86	19.41	-51.4	-52.9	14.9	0.00e+00	0	27	0	897581056	69	4193
2026-01-05 11:27:43.77	319.49	19.03	-51.9	-53.5	14.6	0.00e+00	0	27	0	904921088	69	4486
2026-01-05 11:27:47.73	320.11	18.65	-52.0	-53.7	14.6	0.00e+00	0	27	0	912261120	69	4555
2026-01-05 11:27:51.70	320.72	18.28	-51.6	-53.2	14.8	0.00e+00	0	27	0	919601152	69	4311
2026-01-05 11:27:55.65	321.30	17.91	-51.7	-53.3	14.7	0.00e+00	0	27	0	926941184	69	4345
2026-01-05 11:27:59.62	321.88	17.55	-52.1	-53.8	14.5	0.00e+00	0	27	0	934281216	69	4602
2026-01-05 11:28:03.60	322.45	17.18	-52.2	-53.9	14.5	0.00e+00	0	27	0	941621248	69	4687
2026-01-05 11:28:07.58	323.00	16.82	-52.2	-53.9	14.5	0.00e+00	0	27	0	948961280	69	4693
2026-01-05 11:28:11.56	323.54	16.46	-52.5	-54.4	14.4	0.00e+00	0	27	0	957349888	70	4652
2026-01-05 11:28:15.55	324.07	16.10	-52.5	-54.3	14.4	0.00e+00	0	27	0	964689920	70	4638
2026-01-05 11:28:19.51	324.58	15.75	-52.7	-54.6	14.3	0.00e+00	0	27	0	972029952	70	4773
2026-01-05 11:28:23.48	325.08	15.40	-53.1	-55.0	14.2	0.00e+00	0	27	0	979369984	71	4752
2026-01-05 11:28:27.46	325.57	15.06	-53.4	-55.5	14.0	0.00e+00	0	27	0	986710016	71	5005
2026-01-05 11:28:31.43	326.06	14.71	-53.5	-55.6	14.0	0.00e+00	0	27	0	994050048	72	4806
2026-01-05 11:28:35.40	326.53	14.37	-53.3	-55.4	14.1	0.00e+00	0	27	0	1001390080	72	4692
2026-01-05 11:28:39.37	326.99	14.04	-53.0	-55.0	14.3	0.00e+00	0	27	0	1008730112	72	4459
2026-01-05 11:28:43.34	327.44	13.70	-52.9	-54.8	14.4	0.00e+00	0	27	0	1017118720	72	4359
2026-01-05 11:28:47.29	327.88	13.37	-53.2	-55.3	14.1	0.00e+00	0	27	0	1024458752	72	4634
2026-01-05 11:28:51.26	328.31	13.04	-53.4	-55.5	14.0	0.00e+00	0	27	0	1031798784	72	4729
2026-01-05 11:28:55.23	328.73	12.72	-52.9	-54.9	14.3	0.00e+00	0	27	0	1039138816	72	4415
2026-01-05 11:28:59.20	329.14	12.40	-52.6	-54.4	14.4	0.00e+00	0	27	0	1046478848	71	4434
2026-01-05 11:29:03.13	329.54	12.08	-52.6	-54.5	14.3	0.00e+00	0	27	0	1053818880	71	4481
2026-01-05 11:29:07.10	329.94	11.76	-53.1	-55.1	14.1	0.00e+00	0	27	0	1061158912	71	4814
2026-01-05 11:29:11.08	330.33	11.45	-53.2	-55.3	14.0	0.00e+00	0	27	0	1068498944	71	4916
2026-01-05 11:29:15.04	330.71	11.14	-53.0	-55.1	14.1	0.00e+00	0	27	0	1075838976	71	4763
2026-01-05 11:29:19.02	331.09	10.83	-52.7	-54.6	14.3	0.00e+00	0	27	0	1083179008	71	4543
2026-01-05 11:29:23.01	331.45	10.53	-52.7	-54.7	14.3	0.00e+00	0	27	0	1090519040	71	4556
2026-01-05 11:29:27.00	331.82	10.22	-53.0	-55.1	14.1	0.00e+00	0	27	0	1098907648	71	4770
2026-01-05 11:29:30.98	332.17	9.92	-53.2	-55.4	13.9	0.00e+00	0	27	0	1106247680	71	4930
2026-01-05 11:29:34.97	332.52	9.63	-53.1	-55.3	14.0	0.00e+00	0	27	0	1113587712	71	4882
2026-01-05 11:29:38.95	332.86	9.33	-52.9	-54.9	14.1	0.00e+00	0	27	0	1120927744	71	4699
2026-01-05 11:29:42.93	333.19	9.04	-52.8	-54.9	14.1	0.00e+00	0	27	0	1128267776	71	4660
2026-01-05 11:29:46.90	333.52	8.75	-52.8	-54.8	14.1	0.00e+00	0	27	0	1135607808	71	4645
2026-01-05 11:29:50.88	333.84	8.46	-53.1	-55.3	13.9	0.00e+00	0	27	0	1142947840	71	4871
2026-01-05 11:29:54.86	334.15	8.18	-53.4	-55.7	13.8	0.00e+00	0	27	0	1150287872	72	4839
2026-01-05 11:29:58.83	334.46	7.90	-53.5	-55.8	13.8	0.00e+00	0	27	0	1157627904	72	4888
2026-01-05 11:30:02.80	334.77	7.62	-53.5	-55.9	13.7	0.00e+00	0	27	0	1166016512	72	4944
2026-01-05 11:30:06.77	335.06	7.34	-53.5	-55.9	13.7	0.00e+00	0	27	0	1173356544	72	4954
2026-01-05 11:30:10.75	335.36	7.07	-53.3	-55.6	13.8	0.00e+00	0	27	0	1180696576	72	4779
2026-01-05 11:30:14.73	335.65	6.80	-53.5	-55.9	13.6	0.00e+00	0	27	0	1188036608	72	4962
2026-01-05 11:30:18.71	335.93	6.53	-53.6	-56.1	13.5	0.00e+00	0	27	0	1195376640	72	5064
2026-01-05 11:30:22.68	336.21	6.26	-53.7	-56.2	13.4	0.00e+00	0	27	0	1202716672	72	5145
2026-01-05 11:30:26.65	336.48	6.00	-53.9	-56.5	13.3	0.00e+00	0	27	0	1210056704	72	5295
2026-01-05 11:30:30.63	336.75	5.73	-54.0	-56.8	13.2	0.00e+00	0	27	0	1217396736	73	5181
2026-01-05 11:30:34.60	337.01	5.47	-54.0	-56.8	13.1	0.00e+00	0	27	0	1224736768	73	5196
2026-01-05 11:30:38.58	337.28	5.21	-54.0	-56.9	13.1	0.00e+00	0	27	0	1232076800	73	5224
2026-01-05 11:30:42.56	337.53	4.96	-59.0	-74.9	3.9	9.57e-01	0	27	104	1239416832	83	23317
2026-01-05 11:30:46.54	337.78	4.70	-60.5	-76.8	3.8	1.49e+00	0	27	104	1239416832	86	24600
2026-01-05 11:30:50.52	338.03	4.45	-60.9	-76.9	3.8	1.49e+00	0	27	104	1239416832	86	24954
2026-01-05 11:30:54.51	338.28	4.20	-61.0	-77.1	3.8	1.49e+00	0	27	104	1239416832	87	23905
2026-01-05 11:30:58.47	338.52	3.95	-61.1	-77.1	3.8	1.49e+00	0	27	104	1239416832	87	24024
2026-01-05 11:31:02.44	338.75	3.70	-61.1	-77.2	3.8	1.49e+00	0	27	104	1239416832	87	24200
2026-01-05 11:31:06.42	338.99	3.46	-61.0	-77.1	3.8	1.49e+00	0	27	104	1239416832	87	23970
2026-01-05 11:31:10.40	339.22	3.22	-60.9	-77.0	3.8	1.49e+00	0	27	104	1239416832	87	23786
2026-01-05 11:31:14.37	339.44	2.98	-60.9	-76.9	3.8	1.49e+00	0	27	104	1239416832	87	23510
2026-01-05 11:31:18.33	339.67	2.74	-60.8	-76.9	3.8	1.49e+00	0	27	104	1239416832	87	23408
2026-01-05 11:31:22.31	339.89	2.50	-60.8	-76.8	3.8	1.49e+00	0	27	104	1239416832	87	23289
2026-01-05 11:31:26.28	340.10	2.26	-60.8	-76.8	3.8	1.49e+00	0	27	104	1239416832	87	23295
2026-01-05 11:31:30.25	340.31	2.03	-60.7	-76.8	3.8	1.49e+00	0	27	104	1239416832	87	23214

#Closed at: 2026-01-05 11:31:32
#Recorded file [1239 MB]: D:/lorett/data/31004_260105_141748.dat