passes_logs/2026/01/05/R3.2S_Murmansk/R3.2S_Murmansk__20260105_025936_NOAA_20_JPSS-1_rec.log

#Pass ID: 20260105_025936_NOAA 20 (JPSS-1)
#Satellite: NOAA 20 (JPSS-1)
#Configuration: NOAA 20
#almurnet v.1.7.20251203
#Start time: 2026-01-05 02:59:37

#Version: 2.2.20231116
#Station: R3.2S_Murmansk
#Location: 33.079688 lon 68.888172 lat
#TLE: 1 43013U 17073A   26004.47528369  .00000132  00000+0  83671-4 0  9999
#TLE: 2 43013  98.7626 305.5264 0001854  54.5883 305.5466 14.19533142421242

#Time	Az	El	Level	Level2	SNR	BER	BlckErr	Temp	State	Recorded	gain1	gain2
2026-01-05 02:59:37.56	37.54	2.09	-58.2	-74.2	3.8	1.49e+00	0	26	0	0	83	21587
2026-01-05 02:59:41.56	37.35	2.33	-58.2	-74.1	3.8	1.49e+00	0	26	104	0	81	24111
2026-01-05 02:59:45.57	37.16	2.57	-58.2	-74.1	3.8	1.49e+00	0	26	104	0	81	24094
2026-01-05 02:59:49.56	36.96	2.82	-58.1	-74.1	3.8	1.49e+00	0	26	104	0	81	23869
2026-01-05 02:59:53.56	36.76	3.06	-58.2	-74.0	3.8	1.49e+00	0	26	104	0	81	23706
2026-01-05 02:59:57.57	36.56	3.31	-58.2	-74.1	3.8	1.49e+00	0	26	104	0	81	23992
2026-01-05 03:00:01.56	36.35	3.56	-58.1	-74.1	3.8	1.49e+00	0	26	104	0	81	24092
2026-01-05 03:00:05.53	36.14	3.81	-58.1	-74.0	3.8	1.49e+00	0	26	104	0	81	23683
2026-01-05 03:00:09.52	35.93	4.07	-58.1	-73.2	3.8	1.49e+00	0	26	104	0	81	21523
2026-01-05 03:00:13.51	35.71	4.32	-58.1	-72.6	3.8	1.49e+00	0	27	104	0	81	20197
2026-01-05 03:00:17.49	35.49	4.58	-57.9	-69.8	4.4	1.31e+00	59	27	0	0	81	14602
2026-01-05 03:00:21.47	35.26	4.84	-57.3	-64.8	7.5	9.01e-02	0	27	0	7340032	81	8195
2026-01-05 03:00:25.47	35.03	5.10	-56.1	-60.4	11.1	1.84e-03	0	27	0	14680064	78	5917
2026-01-05 03:00:29.44	34.80	5.37	-55.2	-58.7	12.2	3.80e-06	0	27	0	22020096	76	5424
2026-01-05 03:00:33.44	34.56	5.63	-54.4	-57.4	13.0	0.00e+00	0	27	0	29360128	75	4945
2026-01-05 03:00:37.46	34.31	5.90	-54.3	-57.1	13.2	0.00e+00	0	27	0	37748736	75	4808
2026-01-05 03:00:41.45	34.06	6.17	-54.3	-57.0	13.3	0.00e+00	0	27	0	45088768	75	4759
2026-01-05 03:00:45.43	33.81	6.45	-54.2	-56.9	13.3	0.00e+00	0	27	0	52428800	74	4951
2026-01-05 03:00:49.43	33.55	6.72	-54.1	-56.7	13.4	0.00e+00	0	27	0	59768832	74	4863
2026-01-05 03:00:53.44	33.28	7.00	-54.1	-56.6	13.5	0.00e+00	0	27	0	67108864	74	4810
2026-01-05 03:00:57.45	33.01	7.28	-54.1	-56.7	13.4	0.00e+00	0	27	0	74448896	74	4869
2026-01-05 03:01:01.45	32.73	7.57	-54.1	-56.7	13.5	0.00e+00	0	27	0	81788928	74	4832
2026-01-05 03:01:05.45	32.45	7.85	-54.1	-56.7	13.5	0.00e+00	0	27	0	90177536	74	4840
2026-01-05 03:01:09.44	32.16	8.14	-54.2	-56.8	13.5	0.00e+00	0	27	0	97517568	74	4874
2026-01-05 03:01:13.44	31.87	8.43	-54.1	-56.7	13.5	0.00e+00	0	27	0	104857600	74	4835
2026-01-05 03:01:17.43	31.57	8.73	-54.0	-56.5	13.6	0.00e+00	0	27	0	112197632	74	4745
2026-01-05 03:01:21.41	31.26	9.02	-54.1	-56.6	13.6	0.00e+00	0	27	0	119537664	74	4762
2026-01-05 03:01:25.38	30.95	9.32	-54.1	-56.7	13.6	0.00e+00	0	27	0	126877696	74	4825
2026-01-05 03:01:29.39	30.63	9.62	-54.0	-56.5	13.7	0.00e+00	0	27	0	134217728	74	4706
2026-01-05 03:01:33.38	30.30	9.92	-53.8	-56.1	13.8	0.00e+00	0	27	0	142606336	74	4529
2026-01-05 03:01:37.39	29.97	10.23	-53.7	-55.9	13.8	0.00e+00	0	27	0	149946368	73	4701
2026-01-05 03:01:41.37	29.63	10.54	-53.6	-55.8	13.9	0.00e+00	0	27	0	157286400	73	4619
2026-01-05 03:01:45.37	29.28	10.86	-53.4	-55.5	14.1	0.00e+00	0	27	0	164626432	73	4487
2026-01-05 03:01:49.37	28.92	11.17	-53.4	-55.6	14.0	0.00e+00	0	27	0	171966464	73	4532
2026-01-05 03:01:53.36	28.56	11.49	-53.2	-55.3	14.2	0.00e+00	0	27	0	179306496	73	4377
2026-01-05 03:01:57.36	28.18	11.81	-53.3	-55.3	14.2	0.00e+00	0	28	0	187695104	73	4387
2026-01-05 03:02:01.37	27.80	12.14	-53.4	-55.5	14.1	0.00e+00	0	27	0	195035136	73	4452
2026-01-05 03:02:05.37	27.41	12.47	-53.4	-55.5	14.1	0.00e+00	0	27	0	202375168	73	4482
2026-01-05 03:02:09.35	27.01	12.79	-53.2	-55.3	14.2	0.00e+00	0	27	0	209715200	73	4372
2026-01-05 03:02:13.36	26.60	13.13	-53.3	-55.3	14.1	0.00e+00	0	27	0	217055232	72	4636
2026-01-05 03:02:17.34	26.18	13.47	-53.0	-55.0	14.3	0.00e+00	0	27	0	224395264	72	4448
2026-01-05 03:02:21.32	25.75	13.80	-53.0	-55.0	14.3	0.00e+00	0	28	0	231735296	72	4444
2026-01-05 03:02:25.31	25.31	14.15	-53.0	-55.0	14.3	0.00e+00	0	27	0	239075328	72	4450
2026-01-05 03:02:29.30	24.86	14.49	-53.0	-55.0	14.3	0.00e+00	0	27	0	247463936	72	4476
2026-01-05 03:02:33.28	24.40	14.84	-53.1	-55.1	14.2	0.00e+00	0	27	0	254803968	72	4535
2026-01-05 03:02:37.27	23.93	15.19	-53.3	-55.4	14.1	0.00e+00	0	27	0	262144000	72	4672
2026-01-05 03:02:41.28	23.44	15.55	-53.5	-55.7	14.0	0.00e+00	0	28	0	269484032	72	4817
2026-01-05 03:02:45.25	22.95	15.91	-53.4	-55.5	14.1	0.00e+00	0	28	0	276824064	72	4750
2026-01-05 03:02:49.26	22.44	16.27	-53.3	-55.3	14.2	0.00e+00	0	28	0	284164096	72	4632
2026-01-05 03:02:53.25	21.92	16.63	-53.4	-55.4	14.1	0.00e+00	0	28	0	291504128	72	4675
2026-01-05 03:02:57.23	21.39	17.00	-53.5	-55.6	14.0	0.00e+00	0	28	0	299892736	72	4814
2026-01-05 03:03:01.22	20.84	17.37	-53.5	-55.6	14.0	0.00e+00	0	28	0	307232768	72	4801
2026-01-05 03:03:05.22	20.28	17.74	-53.5	-55.6	14.1	0.00e+00	0	28	0	314572800	72	4763
2026-01-05 03:03:09.23	19.70	18.12	-53.2	-55.1	14.3	0.00e+00	0	28	0	321912832	72	4535
2026-01-05 03:03:13.21	19.11	18.50	-53.2	-55.2	14.3	0.00e+00	0	28	0	329252864	72	4552
2026-01-05 03:03:17.20	18.50	18.88	-53.0	-54.9	14.3	0.00e+00	0	28	0	336592896	72	4441
2026-01-05 03:03:21.19	17.88	19.26	-52.9	-54.7	14.5	0.00e+00	0	28	0	343932928	72	4331
2026-01-05 03:03:25.18	17.24	19.64	-52.9	-54.8	14.4	0.00e+00	0	28	0	352321536	72	4344
2026-01-05 03:03:29.17	16.59	20.03	-52.8	-54.7	14.5	0.00e+00	0	28	0	359661568	72	4308
2026-01-05 03:03:33.18	15.91	20.42	-52.8	-54.6	14.6	0.00e+00	0	28	0	367001600	72	4263
2026-01-05 03:03:37.20	15.22	20.82	-52.7	-54.5	14.6	0.00e+00	0	28	0	374341632	72	4223
2026-01-05 03:03:41.20	14.51	21.21	-52.8	-54.6	14.6	0.00e+00	0	28	0	381681664	72	4275
2026-01-05 03:03:45.20	13.78	21.61	-53.0	-54.9	14.4	0.00e+00	0	28	0	389021696	72	4401
2026-01-05 03:03:49.16	13.04	22.00	-53.1	-55.0	14.4	0.00e+00	0	28	0	396361728	72	4468
2026-01-05 03:03:53.16	12.28	22.40	-53.3	-55.3	14.2	0.00e+00	0	28	0	404750336	72	4631
2026-01-05 03:03:57.16	11.49	22.79	-53.5	-55.5	14.2	0.00e+00	0	28	0	412090368	72	4711
2026-01-05 03:04:01.16	10.68	23.19	-53.4	-55.3	14.2	0.00e+00	0	28	0	419430400	72	4632
2026-01-05 03:04:05.15	9.86	23.59	-53.3	-55.2	14.3	0.00e+00	0	28	0	426770432	72	4593
2026-01-05 03:04:09.13	9.01	23.98	-53.1	-55.0	14.4	0.00e+00	0	28	0	434110464	72	4470
2026-01-05 03:04:13.11	8.14	24.37	-53.1	-54.9	14.4	0.00e+00	0	28	0	441450496	72	4427
2026-01-05 03:04:17.10	7.25	24.77	-52.8	-54.5	14.6	0.00e+00	0	28	0	448790528	72	4240
2026-01-05 03:04:21.08	6.34	25.16	-52.6	-54.4	14.6	0.00e+00	0	28	0	456130560	71	4412
2026-01-05 03:04:25.07	5.40	25.55	-52.6	-54.4	14.5	0.00e+00	0	28	0	464519168	71	4416
2026-01-05 03:04:29.07	4.44	25.93	-52.6	-54.3	14.6	0.00e+00	0	28	0	471859200	71	4365
2026-01-05 03:04:33.06	3.45	26.31	-52.7	-54.5	14.5	0.00e+00	0	28	0	479199232	71	4480
2026-01-05 03:04:37.07	2.44	26.69	-52.6	-54.3	14.6	0.00e+00	0	28	0	486539264	71	4370
2026-01-05 03:04:41.09	1.40	27.07	-53.0	-54.9	14.4	0.00e+00	0	28	0	493879296	71	4669
2026-01-05 03:04:45.08	0.34	27.44	-53.6	-55.6	14.2	0.00e+00	0	28	0	501219328	72	4764
2026-01-05 03:04:49.06	359.26	27.80	-53.8	-55.9	14.0	0.00e+00	0	28	0	508559360	72	4938
2026-01-05 03:04:53.06	358.15	28.15	-54.2	-56.5	13.8	0.00e+00	0	28	0	516947968	73	4986
2026-01-05 03:04:57.05	357.01	28.50	-54.7	-57.0	13.7	0.00e+00	0	28	0	524288000	74	5027
2026-01-05 03:05:01.05	355.85	28.83	-54.7	-57.1	13.6	0.00e+00	0	28	0	531628032	74	5085
2026-01-05 03:05:05.05	354.67	29.16	-55.3	-57.9	13.3	0.00e+00	0	28	0	538968064	75	5276
2026-01-05 03:05:09.05	353.46	29.48	-55.0	-57.5	13.5	0.00e+00	0	28	0	546308096	75	5014
2026-01-05 03:05:13.05	352.23	29.79	-54.7	-57.0	13.8	0.00e+00	0	28	0	553648128	75	4752
2026-01-05 03:05:17.05	350.97	30.08	-54.5	-56.8	13.9	0.00e+00	0	28	0	562036736	75	4621
2026-01-05 03:05:21.04	349.70	30.36	-54.2	-56.3	14.2	0.00e+00	0	28	0	569376768	75	4385
2026-01-05 03:05:25.04	348.39	30.63	-54.2	-56.3	14.0	0.00e+00	0	28	0	576716800	74	4626
2026-01-05 03:05:29.03	347.08	30.89	-54.4	-56.6	13.9	0.00e+00	0	28	0	584056832	74	4780
2026-01-05 03:05:33.02	345.74	31.12	-54.4	-56.5	13.9	0.00e+00	0	28	0	591396864	74	4757
2026-01-05 03:05:37.01	344.38	31.34	-54.7	-56.9	13.7	0.00e+00	0	28	0	598736896	74	4978
2026-01-05 03:05:40.99	343.00	31.55	-54.8	-57.2	13.7	0.00e+00	0	28	0	606076928	74	5118
2026-01-05 03:05:45.00	341.60	31.74	-54.6	-56.8	13.8	0.00e+00	0	28	0	613416960	74	4901
2026-01-05 03:05:49.00	340.19	31.91	-54.4	-56.6	13.9	0.00e+00	0	28	0	621805568	74	4794
2026-01-05 03:05:52.99	338.76	32.06	-54.0	-56.0	14.3	0.00e+00	0	28	0	629145600	74	4455
2026-01-05 03:05:56.99	337.32	32.19	-53.6	-55.5	14.4	0.00e+00	0	28	0	636485632	73	4466
2026-01-05 03:06:00.98	335.88	32.30	-54.0	-56.0	14.1	0.00e+00	0	28	0	643825664	73	4724
2026-01-05 03:06:05.00	334.41	32.39	-54.3	-56.4	14.0	0.00e+00	0	28	0	651165696	73	4937
2026-01-05 03:06:08.99	332.95	32.45	-54.6	-56.8	13.8	0.00e+00	0	28	0	658505728	74	4925
2026-01-05 03:06:12.99	331.47	32.50	-54.7	-57.0	13.8	0.00e+00	0	28	0	666894336	74	4988
2026-01-05 03:06:16.98	330.00	32.53	-54.7	-57.0	13.8	0.00e+00	0	28	0	674234368	74	5007
2026-01-05 03:06:20.96	328.53	32.53	-54.9	-57.3	13.7	0.00e+00	0	28	0	681574400	75	4903
2026-01-05 03:06:24.94	327.06	32.51	-54.6	-56.8	14.0	0.00e+00	0	28	0	688914432	75	4621
2026-01-05 03:06:28.92	325.60	32.48	-54.2	-56.3	14.1	0.00e+00	0	27	0	696254464	74	4614
2026-01-05 03:06:32.92	324.13	32.42	-54.9	-57.3	13.7	0.00e+00	0	28	0	703594496	75	4903
2026-01-05 03:06:36.91	322.67	32.33	-54.6	-56.8	14.0	0.00e+00	0	28	0	710934528	75	4631
2026-01-05 03:06:40.91	321.21	32.23	-54.7	-57.0	13.8	0.00e+00	0	28	0	718274560	75	4738
2026-01-05 03:06:44.91	319.77	32.11	-54.7	-56.9	13.9	0.00e+00	0	28	0	726663168	75	4666
2026-01-05 03:06:48.92	318.33	31.97	-54.4	-56.5	14.1	0.00e+00	0	28	0	734003200	75	4477
2026-01-05 03:06:52.92	316.91	31.81	-54.8	-57.1	13.8	0.00e+00	0	28	0	741343232	75	4793
2026-01-05 03:06:56.92	315.50	31.63	-54.7	-56.9	13.9	0.00e+00	0	28	0	748683264	75	4694
2026-01-05 03:07:00.92	314.11	31.43	-54.9	-57.2	13.8	0.00e+00	0	28	0	756023296	75	4854
2026-01-05 03:07:04.92	312.74	31.21	-55.1	-57.5	13.6	0.00e+00	0	28	0	763363328	75	5040
2026-01-05 03:07:08.92	311.39	30.98	-54.7	-56.9	13.9	0.00e+00	0	28	0	771751936	75	4690
2026-01-05 03:07:12.91	310.06	30.73	-55.3	-57.8	13.5	0.00e+00	0	28	0	779091968	75	5194
2026-01-05 03:07:16.89	308.76	30.47	-55.0	-57.4	13.7	0.00e+00	0	28	0	786432000	75	4972
2026-01-05 03:07:20.88	307.47	30.20	-55.2	-57.7	13.6	0.00e+00	0	28	0	793772032	75	5147
2026-01-05 03:07:24.87	306.21	29.91	-55.0	-57.3	13.7	0.00e+00	0	28	0	801112064	75	4926
2026-01-05 03:07:28.86	304.97	29.60	-54.8	-57.1	13.8	0.00e+00	0	28	0	808452096	75	4794
2026-01-05 03:07:32.85	303.75	29.29	-54.6	-56.8	14.0	0.00e+00	0	28	0	815792128	75	4650
2026-01-05 03:07:36.85	302.55	28.97	-54.6	-56.7	14.0	0.00e+00	0	28	0	823132160	75	4589
2026-01-05 03:07:40.84	301.39	28.63	-54.3	-56.3	14.2	0.00e+00	0	28	0	831520768	75	4364
2026-01-05 03:07:44.86	300.23	28.29	-54.5	-56.7	14.0	0.00e+00	0	28	0	838860800	75	4570
2026-01-05 03:07:48.84	299.12	27.94	-54.4	-56.6	14.1	0.00e+00	0	28	0	846200832	75	4504
2026-01-05 03:07:52.83	298.02	27.58	-54.0	-56.0	14.3	0.00e+00	0	28	0	853540864	74	4471
2026-01-05 03:07:56.81	296.95	27.21	-54.0	-56.0	14.3	0.00e+00	0	28	0	860880896	74	4464
2026-01-05 03:08:00.82	295.90	26.84	-53.6	-55.5	14.4	0.00e+00	0	28	0	868220928	73	4493
2026-01-05 03:08:04.83	294.88	26.46	-53.6	-55.5	14.4	0.00e+00	0	28	0	876609536	73	4477
2026-01-05 03:08:08.83	293.88	26.08	-53.1	-54.9	14.5	0.00e+00	0	28	0	883949568	72	4404
2026-01-05 03:08:12.85	292.90	25.69	-52.6	-54.3	14.7	0.00e+00	0	28	0	891289600	71	4372
2026-01-05 03:08:16.86	291.94	25.30	-52.1	-53.7	14.8	0.00e+00	0	28	0	898629632	70	4300
2026-01-05 03:08:20.83	291.02	24.91	-51.9	-53.5	14.8	0.00e+00	0	28	0	905969664	70	4204
2026-01-05 03:08:24.82	290.12	24.52	-51.9	-53.4	14.9	0.00e+00	0	28	0	913309696	70	4186
2026-01-05 03:08:28.79	289.25	24.13	-51.5	-53.0	14.9	0.00e+00	0	28	0	920649728	69	4205
2026-01-05 03:08:32.80	288.38	23.73	-51.6	-53.1	14.9	0.00e+00	0	28	0	929038336	69	4254
2026-01-05 03:08:36.80	287.55	23.33	-51.0	-52.4	15.0	0.00e+00	0	28	0	936378368	68	4186
2026-01-05 03:08:40.80	286.73	22.94	-51.0	-52.4	15.0	0.00e+00	0	28	0	943718400	68	4162
2026-01-05 03:08:44.80	285.93	22.54	-51.2	-52.6	14.9	0.00e+00	0	28	0	951058432	68	4285
2026-01-05 03:08:48.80	285.16	22.14	-51.4	-52.9	14.8	0.00e+00	0	28	0	958398464	68	4438
2026-01-05 03:08:52.80	284.40	21.74	-51.7	-53.3	14.7	0.00e+00	0	28	0	965738496	68	4606
2026-01-05 03:08:56.79	283.66	21.35	-51.5	-53.1	14.8	0.00e+00	0	28	0	973078528	68	4500
2026-01-05 03:09:00.79	282.95	20.95	-51.8	-53.3	14.7	0.00e+00	0	28	0	981467136	68	4639
2026-01-05 03:09:04.78	282.25	20.56	-52.2	-53.9	14.6	0.00e+00	0	28	0	988807168	69	4656
2026-01-05 03:09:08.78	281.57	20.17	-52.2	-53.8	14.6	0.00e+00	0	28	0	996147200	69	4641
2026-01-05 03:09:12.78	280.90	19.78	-52.5	-54.2	14.6	0.00e+00	0	28	0	1003487232	70	4558
2026-01-05 03:09:16.78	280.26	19.39	-52.5	-54.2	14.6	0.00e+00	0	28	0	1010827264	70	4555
2026-01-05 03:09:20.77	279.63	19.01	-52.5	-54.2	14.5	0.00e+00	0	28	0	1018167296	70	4594
2026-01-05 03:09:24.77	279.01	18.62	-52.8	-54.6	14.4	0.00e+00	0	28	0	1025507328	70	4802
2026-01-05 03:09:28.75	278.41	18.25	-52.8	-54.6	14.4	0.00e+00	0	28	0	1033895936	70	4782
2026-01-05 03:09:32.75	277.83	17.87	-53.1	-54.9	14.4	0.00e+00	0	27	0	1041235968	71	4691
2026-01-05 03:09:36.74	277.26	17.49	-53.3	-55.3	14.2	0.00e+00	0	28	0	1048576000	71	4900
2026-01-05 03:09:40.75	276.70	17.12	-53.1	-55.0	14.4	0.00e+00	0	28	0	1055916032	72	4480
2026-01-05 03:09:44.76	276.16	16.75	-53.4	-55.4	14.2	0.00e+00	0	28	0	1063256064	72	4684
2026-01-05 03:09:48.76	275.63	16.38	-53.7	-55.8	14.0	0.00e+00	0	28	0	1070596096	72	4910
2026-01-05 03:09:52.76	275.12	16.02	-53.4	-55.3	14.2	0.00e+00	0	28	0	1077936128	72	4644
2026-01-05 03:09:56.77	274.61	15.66	-53.5	-55.5	14.2	0.00e+00	0	28	0	1086324736	72	4731
2026-01-05 03:10:00.75	274.12	15.30	-53.9	-56.0	13.9	0.00e+00	0	28	0	1093664768	72	5020
2026-01-05 03:10:04.75	273.64	14.95	-53.9	-56.0	14.0	0.00e+00	0	28	0	1101004800	73	4749
2026-01-05 03:10:08.76	273.17	14.59	-53.6	-55.6	14.2	0.00e+00	0	28	0	1108344832	73	4501
2026-01-05 03:10:12.75	272.72	14.25	-53.6	-55.6	14.2	0.00e+00	0	28	0	1115684864	73	4518
2026-01-05 03:10:16.75	272.27	13.90	-53.8	-55.9	14.1	0.00e+00	0	28	0	1123024896	73	4664
2026-01-05 03:10:20.75	271.84	13.56	-53.8	-55.9	14.1	0.00e+00	0	28	0	1131413504	73	4666
2026-01-05 03:10:24.74	271.41	13.22	-53.8	-55.9	14.0	0.00e+00	0	28	0	1138753536	73	4675
2026-01-05 03:10:28.71	271.00	12.89	-53.9	-56.1	14.0	0.00e+00	0	28	0	1146093568	73	4773
2026-01-05 03:10:32.72	270.60	12.55	-54.0	-56.2	13.9	0.00e+00	0	28	0	1153433600	73	4868
2026-01-05 03:10:36.70	270.20	12.23	-54.0	-56.2	13.8	0.00e+00	0	28	0	1160773632	73	4847
2026-01-05 03:10:40.70	269.81	11.90	-54.1	-56.4	13.8	0.00e+00	0	28	0	1168113664	73	4944
2026-01-05 03:10:44.69	269.44	11.58	-54.2	-56.6	13.7	0.00e+00	0	28	0	1175453696	73	5056
2026-01-05 03:10:48.69	269.07	11.26	-54.1	-56.5	13.7	0.00e+00	0	28	0	1183842304	73	5001
2026-01-05 03:10:52.69	268.70	10.94	-54.2	-56.6	13.6	0.00e+00	0	28	0	1191182336	73	5048
2026-01-05 03:10:56.68	268.35	10.63	-54.7	-57.5	13.1	0.00e+00	0	28	0	1198522368	74	5305
2026-01-05 03:11:00.68	268.00	10.31	-55.1	-58.1	12.8	0.00e+00	0	28	0	1205862400	75	5369
2026-01-05 03:11:04.68	267.66	10.00	-55.2	-58.4	12.6	0.00e+00	0	28	0	1213202432	75	5559
2026-01-05 03:11:08.68	267.33	9.70	-55.6	-59.1	12.2	0.00e+00	0	28	0	1220542464	76	5678
2026-01-05 03:11:12.67	267.01	9.40	-55.7	-59.1	12.3	0.00e+00	0	28	0	1227882496	76	5705
2026-01-05 03:11:16.68	266.69	9.09	-55.0	-57.9	13.0	0.00e+00	0	28	0	1236271104	76	4962
2026-01-05 03:11:20.68	266.38	8.80	-54.6	-57.2	13.4	0.00e+00	0	28	0	1243611136	75	4844
2026-01-05 03:11:24.68	266.08	8.50	-54.6	-57.2	13.4	0.00e+00	0	28	0	1250951168	75	4847
2026-01-05 03:11:28.66	265.78	8.21	-54.6	-57.2	13.4	0.00e+00	0	28	0	1258291200	75	4864
2026-01-05 03:11:32.64	265.49	7.92	-54.6	-57.3	13.3	0.00e+00	0	28	0	1265631232	75	4895
2026-01-05 03:11:36.65	265.20	7.63	-54.9	-57.7	13.1	0.00e+00	0	28	0	1272971264	75	5137
2026-01-05 03:11:40.65	264.92	7.35	-55.0	-58.0	12.9	0.00e+00	0	28	0	1280311296	75	5289
2026-01-05 03:11:44.64	264.65	7.07	-55.1	-58.1	12.8	0.00e+00	0	28	0	1288699904	75	5354
2026-01-05 03:11:48.63	264.38	6.79	-55.0	-58.0	12.8	0.00e+00	0	28	0	1296039936	75	5338
2026-01-05 03:11:52.62	264.12	6.51	-55.1	-58.1	12.8	0.00e+00	0	28	0	1303379968	75	5380
2026-01-05 03:11:56.62	263.86	6.24	-55.2	-58.4	12.6	0.00e+00	0	28	0	1310720000	75	5571
2026-01-05 03:12:00.62	263.60	5.96	-55.3	-58.6	12.4	0.00e+00	0	28	0	1318060032	75	5708
2026-01-05 03:12:04.62	263.36	5.69	-55.7	-59.2	12.1	0.00e+00	0	28	0	1325400064	76	5755
2026-01-05 03:12:08.60	263.11	5.43	-55.6	-59.1	12.2	7.00e-07	0	28	0	1332740096	76	5681
2026-01-05 03:12:12.60	262.87	5.16	-55.6	-59.1	12.1	0.00e+00	0	28	0	1341128704	76	5721
2026-01-05 03:12:16.60	262.64	4.90	-59.2	-75.2	3.8	1.48e+00	0	28	104	1346371584	83	24309
2026-01-05 03:12:20.61	262.41	4.64	-60.2	-76.3	3.8	1.49e+00	0	28	104	1346371584	85	24426
2026-01-05 03:12:24.61	262.18	4.38	-60.7	-76.7	3.8	1.49e+00	0	28	104	1346371584	86	24410
2026-01-05 03:12:28.60	261.96	4.12	-61.0	-77.0	3.8	1.49e+00	0	28	104	1346371584	87	23747
2026-01-05 03:12:32.59	261.74	3.86	-61.2	-77.2	3.8	1.49e+00	0	28	104	1346371584	87	24338
2026-01-05 03:12:36.57	261.53	3.61	-61.2	-77.3	3.8	1.49e+00	0	28	104	1346371584	87	24536
2026-01-05 03:12:40.57	261.32	3.36	-61.1	-77.1	3.8	1.49e+00	0	28	104	1346371584	87	24121
2026-01-05 03:12:44.56	261.12	3.11	-61.0	-77.1	3.8	1.49e+00	0	28	104	1346371584	87	23935
2026-01-05 03:12:48.55	260.91	2.86	-61.0	-77.1	3.8	1.49e+00	0	28	104	1346371584	87	23869
2026-01-05 03:12:52.55	260.71	2.62	-60.9	-77.0	3.8	1.49e+00	0	28	104	1346371584	87	23717
2026-01-05 03:12:56.55	260.52	2.37	-60.9	-77.0	3.8	1.49e+00	0	28	104	1346371584	87	23589
2026-01-05 03:13:00.55	260.33	2.13	-60.8	-76.9	3.8	1.49e+00	0	28	104	1346371584	87	23410

#Closed at: 2026-01-05 03:13:04
#Recorded file [1346 MB]: D:/lorett/data/31004_260105_055937.dat