passes_logs/2026/01/05/R3.2S_Murmansk/R3.2S_Murmansk__20260105_105635_SUOMI_NPP_rec.log

#Pass ID: 20260105_105635_SUOMI NPP
#Satellite: SUOMI NPP
#Configuration: NPP
#almurnet v.1.7.20251203
#Start time: 2026-01-05 10:56:36

#Version: 2.2.20231116
#Station: R3.2S_Murmansk
#Location: 33.079688 lon 68.888172 lat
#TLE: 1 37849U 11061A   26003.96724563  .00000164  00000+0  98899-4 0  9990
#TLE: 2 37849  98.7800 306.1116 0002573  82.3190 277.8279 14.19522066735141

#Time	Az	El	Level	Level2	SNR	BER	BlckErr	Temp	State	Recorded	gain1	gain2
2026-01-05 10:56:36.84	185.02	2.10	-58.2	-74.3	3.8	1.49e+00	0	25	0	0	81	24476
2026-01-05 10:56:40.81	185.18	2.35	-58.1	-74.3	3.8	1.49e+00	0	25	104	0	81	24472
2026-01-05 10:56:44.76	185.35	2.60	-58.2	-74.1	3.8	1.49e+00	0	25	104	0	81	24014
2026-01-05 10:56:48.73	185.52	2.85	-58.2	-74.2	3.8	1.49e+00	0	25	104	0	81	24190
2026-01-05 10:56:52.70	185.69	3.10	-58.1	-74.2	3.8	1.49e+00	0	26	104	0	81	24275
2026-01-05 10:56:56.67	185.87	3.35	-58.2	-74.2	3.8	1.49e+00	0	25	104	0	81	24144
2026-01-05 10:57:00.62	186.04	3.61	-58.2	-74.3	3.8	1.49e+00	0	26	104	0	81	24526
2026-01-05 10:57:04.56	186.22	3.86	-58.1	-72.7	3.8	1.49e+00	0	26	104	0	81	20396
2026-01-05 10:57:08.50	186.40	4.12	-58.0	-70.2	4.3	1.31e+00	92	26	0	0	81	15272
2026-01-05 10:57:12.45	186.59	4.38	-57.9	-69.0	4.8	7.52e-01	0	26	0	7340032	80	14090
2026-01-05 10:57:16.39	186.78	4.64	-57.6	-66.7	6.1	2.67e-01	0	26	0	14680064	80	10831
2026-01-05 10:57:20.34	186.97	4.91	-57.3	-64.5	7.8	5.26e-02	0	26	0	22020096	80	8463
2026-01-05 10:57:24.32	187.17	5.18	-58.1	-73.6	3.8	1.49e+00	0	26	104	28311552	81	22610
2026-01-05 10:57:28.28	187.37	5.45	-54.9	-58.2	12.6	0.00e+00	0	26	0	33554432	76	5115
2026-01-05 10:57:32.26	187.57	5.73	-54.6	-57.7	12.8	0.00e+00	0	26	0	41943040	75	5122
2026-01-05 10:57:36.24	187.78	6.00	-54.7	-57.7	12.7	0.00e+00	0	26	0	49283072	74	5458
2026-01-05 10:57:40.21	187.99	6.28	-54.8	-57.9	12.7	0.00e+00	0	26	0	56623104	74	5547
2026-01-05 10:57:44.19	188.20	6.57	-54.7	-57.8	12.8	0.00e+00	0	26	0	63963136	74	5478
2026-01-05 10:57:48.15	188.42	6.85	-54.7	-57.7	12.8	0.00e+00	0	26	0	71303168	74	5419
2026-01-05 10:57:52.12	188.64	7.14	-54.4	-57.3	13.1	0.00e+00	0	26	0	78643200	74	5183
2026-01-05 10:57:56.08	188.87	7.43	-54.5	-57.3	13.1	0.00e+00	0	26	0	85983232	74	5202
2026-01-05 10:58:00.03	189.10	7.73	-54.1	-56.7	13.4	0.00e+00	0	27	0	93323264	74	4857
2026-01-05 10:58:04.00	189.33	8.02	-54.0	-56.6	13.5	0.00e+00	0	26	0	100663296	74	4785
2026-01-05 10:58:07.96	189.57	8.32	-53.7	-56.1	13.8	0.00e+00	0	27	0	108003328	74	4524
2026-01-05 10:58:11.92	189.82	8.63	-53.5	-55.8	13.8	0.00e+00	0	27	0	115343360	73	4625
2026-01-05 10:58:15.89	190.07	8.93	-53.6	-55.8	13.8	0.00e+00	0	27	0	123731968	73	4648
2026-01-05 10:58:19.85	190.32	9.24	-53.4	-55.7	13.9	0.00e+00	0	27	0	131072000	73	4555
2026-01-05 10:58:23.81	190.58	9.56	-53.6	-55.9	13.8	0.00e+00	0	27	0	138412032	73	4659
2026-01-05 10:58:27.79	190.84	9.87	-53.7	-56.0	13.7	0.00e+00	0	27	0	145752064	73	4758
2026-01-05 10:58:31.76	191.11	10.20	-53.6	-55.9	13.8	0.00e+00	0	27	0	153092096	73	4704
2026-01-05 10:58:35.73	191.39	10.52	-53.4	-55.7	14.0	0.00e+00	0	27	0	160432128	73	4556
2026-01-05 10:58:39.69	191.67	10.85	-53.2	-55.4	14.1	0.00e+00	0	27	0	167772160	73	4406
2026-01-05 10:58:43.67	191.96	11.18	-53.0	-55.1	14.1	0.00e+00	0	27	0	175112192	72	4502
2026-01-05 10:58:47.62	192.25	11.52	-52.7	-54.7	14.2	0.00e+00	0	27	0	182452224	71	4591
2026-01-05 10:58:51.58	192.55	11.86	-52.6	-54.6	14.3	0.00e+00	0	27	0	189792256	71	4497
2026-01-05 10:58:55.56	192.86	12.20	-52.5	-54.3	14.4	0.00e+00	0	27	0	197132288	71	4389
2026-01-05 10:58:59.52	193.17	12.55	-52.5	-54.3	14.4	0.00e+00	0	27	0	205520896	71	4389
2026-01-05 10:59:03.49	193.49	12.90	-52.3	-54.1	14.4	0.00e+00	0	27	0	212860928	70	4536
2026-01-05 10:59:07.45	193.82	13.26	-52.0	-53.8	14.5	0.00e+00	0	27	0	220200960	70	4368
2026-01-05 10:59:11.42	194.16	13.62	-52.1	-53.8	14.5	0.00e+00	0	27	0	227540992	70	4371
2026-01-05 10:59:15.37	194.50	13.99	-52.0	-53.7	14.6	0.00e+00	0	27	0	234881024	70	4319
2026-01-05 10:59:19.33	194.85	14.36	-52.0	-53.7	14.6	0.00e+00	0	27	0	242221056	70	4317
2026-01-05 10:59:23.29	195.21	14.73	-52.1	-53.9	14.5	0.00e+00	0	27	0	249561088	70	4402
2026-01-05 10:59:27.25	195.58	15.11	-52.1	-53.9	14.5	0.00e+00	0	27	0	256901120	70	4392
2026-01-05 10:59:31.23	195.96	15.50	-52.2	-54.0	14.5	0.00e+00	0	27	0	264241152	70	4443
2026-01-05 10:59:35.20	196.35	15.89	-52.3	-54.1	14.4	0.00e+00	0	27	0	271581184	70	4543
2026-01-05 10:59:39.15	196.75	16.28	-52.5	-54.4	14.3	0.00e+00	0	27	0	278921216	70	4665
2026-01-05 10:59:43.11	197.16	16.68	-52.5	-54.3	14.3	0.00e+00	0	27	0	287309824	70	4650
2026-01-05 10:59:47.09	197.58	17.09	-52.6	-54.5	14.2	0.00e+00	0	27	0	294649856	70	4734
2026-01-05 10:59:51.06	198.01	17.50	-52.7	-54.6	14.2	0.00e+00	0	27	0	301989888	70	4772
2026-01-05 10:59:55.04	198.45	17.92	-52.8	-54.8	14.2	0.00e+00	0	27	0	309329920	71	4599
2026-01-05 10:59:59.01	198.90	18.34	-52.8	-54.7	14.3	0.00e+00	0	27	0	316669952	71	4570
2026-01-05 11:00:02.96	199.37	18.77	-52.6	-54.5	14.4	0.00e+00	0	27	0	324009984	71	4455
2026-01-05 11:00:06.90	199.84	19.20	-52.6	-54.4	14.4	0.00e+00	0	27	0	331350016	71	4411
2026-01-05 11:00:10.87	200.34	19.64	-52.6	-54.4	14.4	0.00e+00	0	27	0	338690048	71	4427
2026-01-05 11:00:14.83	200.84	20.08	-53.2	-55.2	14.2	0.00e+00	0	27	0	346030080	72	4551
2026-01-05 11:00:18.78	201.36	20.53	-52.8	-54.7	14.4	0.00e+00	0	27	0	353370112	72	4304
2026-01-05 11:00:22.74	201.89	20.99	-52.6	-54.5	14.4	0.00e+00	0	27	0	360710144	71	4444
2026-01-05 11:00:26.71	202.45	21.45	-52.8	-54.7	14.3	0.00e+00	0	27	0	368050176	71	4558
2026-01-05 11:00:30.67	203.01	21.92	-52.7	-54.5	14.4	0.00e+00	0	27	0	376438784	71	4475
2026-01-05 11:00:34.65	203.60	22.40	-52.7	-54.6	14.4	0.00e+00	0	27	0	383778816	71	4494
2026-01-05 11:00:38.62	204.20	22.88	-52.8	-54.7	14.3	0.00e+00	0	27	0	391118848	71	4558
2026-01-05 11:00:42.59	204.82	23.36	-52.7	-54.6	14.3	0.00e+00	0	27	0	398458880	71	4519
2026-01-05 11:00:46.56	205.46	23.86	-52.7	-54.6	14.3	0.00e+00	0	27	0	405798912	71	4528
2026-01-05 11:00:50.54	206.12	24.36	-52.9	-54.8	14.3	0.00e+00	0	27	0	413138944	71	4642
2026-01-05 11:00:54.53	206.81	24.86	-52.5	-54.3	14.5	0.00e+00	0	27	0	420478976	71	4383
2026-01-05 11:00:58.48	207.51	25.37	-52.5	-54.3	14.5	0.00e+00	0	27	0	427819008	71	4359
2026-01-05 11:01:02.45	208.23	25.88	-53.2	-55.2	14.1	0.00e+00	0	27	0	435159040	71	4833
2026-01-05 11:01:06.41	208.98	26.40	-53.0	-54.9	14.3	0.00e+00	0	27	0	442499072	72	4437
2026-01-05 11:01:10.37	209.75	26.93	-52.3	-54.1	14.6	0.00e+00	0	27	0	450887680	71	4256
2026-01-05 11:01:14.34	210.54	27.46	-52.7	-54.5	14.3	0.00e+00	0	27	0	458227712	70	4746
2026-01-05 11:01:18.31	211.37	27.99	-52.8	-54.6	14.3	0.00e+00	0	27	0	465567744	71	4507
2026-01-05 11:01:22.26	212.22	28.53	-53.1	-55.0	14.2	0.00e+00	0	27	0	472907776	71	4734
2026-01-05 11:01:26.22	213.09	29.07	-53.2	-55.1	14.1	0.00e+00	0	27	0	480247808	71	4806
2026-01-05 11:01:30.18	214.00	29.61	-54.3	-56.6	13.7	0.00e+00	0	27	0	487587840	73	5070
2026-01-05 11:01:34.15	214.94	30.16	-53.9	-56.0	14.1	0.00e+00	0	27	0	494927872	74	4459
2026-01-05 11:01:38.10	215.90	30.70	-53.7	-55.8	14.1	0.00e+00	0	27	0	502267904	73	4605
2026-01-05 11:01:42.07	216.91	31.25	-53.3	-55.3	14.3	0.00e+00	0	27	0	509607936	73	4366
2026-01-05 11:01:46.04	217.95	31.80	-53.3	-55.2	14.1	0.00e+00	0	27	0	516947968	72	4590
2026-01-05 11:01:50.00	219.02	32.35	-53.9	-56.1	13.9	0.00e+00	0	27	0	524288000	73	4787
2026-01-05 11:01:53.98	220.13	32.90	-53.7	-55.7	14.1	0.00e+00	0	27	0	531628032	73	4597
2026-01-05 11:01:57.94	221.27	33.45	-53.7	-55.7	14.1	0.00e+00	0	27	0	540016640	73	4583
2026-01-05 11:02:01.92	222.46	33.99	-54.6	-57.0	13.6	0.00e+00	0	27	0	547356672	74	5037
2026-01-05 11:02:05.88	223.68	34.53	-54.5	-56.8	13.8	0.00e+00	0	27	0	554696704	75	4651
2026-01-05 11:02:09.84	224.94	35.07	-54.4	-56.8	13.6	0.00e+00	0	27	0	562036736	74	4884
2026-01-05 11:02:13.79	226.24	35.59	-54.1	-56.3	13.8	0.00e+00	0	27	0	569376768	73	4874
2026-01-05 11:02:17.76	227.59	36.11	-55.9	-58.9	12.7	0.00e+00	0	27	0	576716800	77	5262
2026-01-05 11:02:21.73	228.98	36.62	-55.5	-58.3	13.2	0.00e+00	0	27	0	584056832	77	4877
2026-01-05 11:02:25.70	230.41	37.12	-55.7	-58.6	12.9	0.00e+00	0	27	0	591396864	76	5382
2026-01-05 11:02:29.67	231.88	37.61	-55.9	-58.9	12.9	7.00e-07	0	27	0	598736896	78	4961
2026-01-05 11:02:33.63	233.40	38.08	-54.8	-57.2	13.6	0.00e+00	0	27	0	606076928	75	4818
2026-01-05 11:02:37.61	234.96	38.53	-55.7	-58.6	13.0	0.00e+00	0	27	0	614465536	77	5077
2026-01-05 11:02:41.57	236.56	38.97	-53.4	-55.4	14.3	0.00e+00	0	27	0	621805568	73	4411
2026-01-05 11:02:45.53	238.21	39.38	-55.9	-59.0	12.8	0.00e+00	0	27	0	629145600	77	5305
2026-01-05 11:02:49.50	239.89	39.78	-53.7	-55.7	14.1	0.00e+00	0	27	0	636485632	73	4574
2026-01-05 11:02:53.49	241.63	40.15	-54.3	-56.6	13.8	0.00e+00	0	27	0	643825664	73	5045
2026-01-05 11:02:57.47	243.40	40.50	-54.2	-56.4	13.9	0.00e+00	0	27	0	651165696	74	4677
2026-01-05 11:03:01.44	245.20	40.82	-53.9	-56.0	13.9	0.00e+00	0	27	0	658505728	72	5032
2026-01-05 11:03:05.41	247.03	41.10	-54.9	-57.3	13.7	0.00e+00	0	27	0	665845760	76	4614
2026-01-05 11:03:09.37	248.89	41.36	-54.5	-56.7	13.8	0.00e+00	0	27	0	673185792	75	4582
2026-01-05 11:03:13.34	250.79	41.59	-56.0	-59.2	12.8	0.00e+00	0	27	0	680525824	78	5109
2026-01-05 11:03:17.32	252.71	41.78	-56.6	-60.1	12.2	7.00e-07	0	27	0	688914432	78	5678
2026-01-05 11:03:21.30	254.65	41.94	-56.0	-59.0	12.9	0.00e+00	0	27	0	696254464	78	5034
2026-01-05 11:03:25.28	256.61	42.06	-55.6	-58.3	13.2	0.00e+00	0	27	0	703594496	77	4901
2026-01-05 11:03:29.25	258.57	42.15	-56.2	-59.3	12.6	0.00e+00	0	27	0	710934528	77	5484
2026-01-05 11:03:33.24	260.56	42.19	-56.8	-60.4	12.1	7.00e-07	0	27	0	718274560	78	5873
2026-01-05 11:03:37.22	262.54	42.20	-56.2	-59.3	12.7	0.00e+00	0	27	0	725614592	78	5188
2026-01-05 11:03:41.20	264.52	42.18	-54.3	-56.5	14.0	0.00e+00	0	27	0	732954624	75	4471
2026-01-05 11:03:45.20	266.51	42.11	-55.2	-57.6	13.5	0.00e+00	0	27	0	740294656	76	4808
2026-01-05 11:03:49.18	268.47	42.01	-55.7	-58.5	13.1	0.00e+00	0	27	0	747634688	76	5333
2026-01-05 11:03:53.16	270.42	41.88	-55.0	-57.5	13.5	0.00e+00	0	27	0	756023296	75	5007
2026-01-05 11:03:57.16	272.37	41.70	-55.0	-57.4	13.6	0.00e+00	0	27	0	763363328	76	4684
2026-01-05 11:04:01.15	274.28	41.49	-54.8	-57.1	13.8	0.00e+00	0	27	0	770703360	76	4537
2026-01-05 11:04:05.11	276.16	41.25	-55.8	-58.7	13.0	0.00e+00	0	27	0	778043392	77	5139
2026-01-05 11:04:09.07	278.00	40.98	-56.0	-59.1	12.8	0.00e+00	0	27	0	785383424	77	5349
2026-01-05 11:04:13.05	279.82	40.68	-55.3	-57.9	13.5	0.00e+00	0	27	0	792723456	77	4692
2026-01-05 11:04:17.05	281.62	40.35	-54.0	-56.1	14.1	0.00e+00	0	27	0	800063488	74	4500
2026-01-05 11:04:21.03	283.37	39.99	-53.3	-55.2	14.4	0.00e+00	0	27	0	807403520	73	4328
2026-01-05 11:04:25.02	285.08	39.61	-52.1	-54.0	14.6	0.00e+00	0	27	0	815792128	70	4449
2026-01-05 11:04:29.00	286.75	39.21	-52.5	-54.2	14.5	0.00e+00	0	27	0	823132160	70	4565
2026-01-05 11:04:32.97	288.38	38.78	-50.6	-52.0	14.9	0.00e+00	0	27	0	830472192	67	4221
2026-01-05 11:04:36.95	289.96	38.34	-49.9	-51.2	15.1	0.00e+00	0	27	0	837812224	66	4086
2026-01-05 11:04:40.94	291.51	37.87	-50.7	-52.1	14.9	0.00e+00	0	27	0	845152256	67	4272
2026-01-05 11:04:44.92	293.01	37.40	-49.4	-50.7	15.0	0.00e+00	0	27	0	852492288	64	4319
2026-01-05 11:04:48.90	294.47	36.91	-50.1	-51.5	14.9	0.00e+00	0	27	0	859832320	65	4455
2026-01-05 11:04:52.88	295.88	36.40	-50.2	-51.5	14.8	0.00e+00	0	27	0	867172352	65	4482
2026-01-05 11:04:56.85	297.25	35.89	-50.4	-51.8	14.8	0.00e+00	0	27	0	875560960	66	4389
2026-01-05 11:05:00.85	298.58	35.36	-51.7	-53.3	14.6	0.00e+00	0	27	0	882900992	68	4634
2026-01-05 11:05:04.83	299.87	34.83	-53.7	-55.7	14.0	0.00e+00	0	27	0	890241024	72	4826
2026-01-05 11:05:08.80	301.11	34.30	-53.2	-55.1	14.3	0.00e+00	0	27	0	897581056	72	4524
2026-01-05 11:05:12.78	302.31	33.76	-52.9	-54.7	14.5	0.00e+00	0	27	0	904921088	72	4327
2026-01-05 11:05:16.75	303.48	33.21	-55.6	-58.4	13.1	0.00e+00	0	27	0	912261120	76	5249
2026-01-05 11:05:20.73	304.60	32.67	-55.0	-57.4	13.7	0.00e+00	0	27	0	919601152	76	4659
2026-01-05 11:05:24.71	305.70	32.12	-56.3	-59.6	12.6	0.00e+00	0	27	0	926941184	78	5361
2026-01-05 11:05:28.68	306.75	31.57	-53.7	-55.7	14.3	0.00e+00	0	27	0	934281216	74	4324
2026-01-05 11:05:32.65	307.77	31.02	-56.0	-59.2	12.8	0.00e+00	0	27	0	942669824	77	5412
2026-01-05 11:05:36.62	308.75	30.48	-53.8	-55.8	14.2	0.00e+00	0	27	0	950009856	74	4374
2026-01-05 11:05:40.59	309.71	29.93	-56.9	-60.6	11.9	2.20e-06	0	27	0	957349888	79	5721
2026-01-05 11:05:44.56	310.63	29.39	-52.9	-54.6	14.5	0.00e+00	0	27	0	964689920	72	4275
2026-01-05 11:05:48.54	311.53	28.85	-54.0	-56.2	13.9	0.00e+00	0	27	0	972029952	73	4860
2026-01-05 11:05:52.50	312.39	28.31	-53.8	-55.9	14.1	0.00e+00	0	27	0	979369984	74	4436
2026-01-05 11:05:56.48	313.22	27.78	-51.3	-52.8	14.9	0.00e+00	0	27	0	986710016	69	4137
2026-01-05 11:06:00.45	314.03	27.25	-53.2	-55.2	14.2	0.00e+00	0	27	0	994050048	71	4837
2026-01-05 11:06:04.43	314.82	26.72	-50.3	-51.6	15.0	0.00e+00	0	27	0	1001390080	67	4048
2026-01-05 11:06:08.41	315.58	26.20	-51.9	-53.5	14.5	0.00e+00	0	27	0	1008730112	68	4742
2026-01-05 11:06:12.37	316.31	25.69	-51.7	-53.3	14.7	0.00e+00	0	27	0	1017118720	69	4341
2026-01-05 11:06:16.35	317.03	25.18	-50.5	-51.9	15.0	0.00e+00	0	27	0	1024458752	67	4173
2026-01-05 11:06:20.31	317.72	24.67	-50.7	-52.2	14.9	0.00e+00	0	27	0	1031798784	67	4311
2026-01-05 11:06:24.28	318.39	24.17	-50.6	-52.0	14.9	0.00e+00	0	27	0	1039138816	67	4206
2026-01-05 11:06:28.24	319.03	23.68	-51.0	-52.5	14.7	0.00e+00	0	27	0	1046478848	67	4448
2026-01-05 11:06:32.22	319.66	23.19	-51.7	-53.3	14.6	0.00e+00	0	27	0	1053818880	68	4636
2026-01-05 11:06:36.19	320.28	22.71	-51.4	-52.9	14.7	0.00e+00	0	27	0	1061158912	68	4414
2026-01-05 11:06:40.15	320.87	22.24	-51.4	-53.0	14.7	0.00e+00	0	27	0	1068498944	68	4465
2026-01-05 11:06:44.12	321.44	21.77	-51.2	-52.7	14.8	0.00e+00	0	27	0	1075838976	68	4323
2026-01-05 11:06:48.10	322.00	21.30	-51.8	-53.4	14.6	0.00e+00	0	27	0	1083179008	69	4395
2026-01-05 11:06:52.08	322.55	20.84	-53.0	-54.9	14.2	0.00e+00	0	27	0	1091567616	71	4691
2026-01-05 11:06:56.06	323.08	20.39	-53.1	-55.0	14.2	0.00e+00	0	27	0	1098907648	71	4731
2026-01-05 11:07:00.04	323.59	19.94	-52.3	-54.0	14.6	0.00e+00	0	27	0	1106247680	71	4232
2026-01-05 11:07:04.00	324.09	19.50	-52.5	-54.3	14.4	0.00e+00	0	27	0	1113587712	70	4609
2026-01-05 11:07:07.98	324.58	19.07	-52.7	-54.5	14.3	0.00e+00	0	27	0	1120927744	70	4746
2026-01-05 11:07:11.95	325.05	18.64	-52.6	-54.4	14.3	0.00e+00	0	27	0	1128267776	70	4683
2026-01-05 11:07:15.90	325.51	18.22	-52.0	-53.7	14.6	0.00e+00	0	27	0	1135607808	70	4302
2026-01-05 11:07:19.86	325.96	17.80	-52.3	-54.1	14.5	0.00e+00	0	27	0	1142947840	70	4519
2026-01-05 11:07:23.83	326.39	17.39	-52.4	-54.2	14.4	0.00e+00	0	27	0	1150287872	70	4566
2026-01-05 11:07:27.81	326.82	16.98	-52.5	-54.3	14.3	0.00e+00	0	27	0	1157627904	70	4640
2026-01-05 11:07:31.79	327.24	16.58	-52.1	-53.8	14.5	0.00e+00	0	27	0	1166016512	70	4355
2026-01-05 11:07:35.76	327.64	16.18	-52.1	-53.8	14.5	0.00e+00	0	27	0	1173356544	70	4386
2026-01-05 11:07:39.73	328.04	15.79	-52.6	-54.4	14.3	0.00e+00	0	27	0	1180696576	70	4690
2026-01-05 11:07:43.70	328.42	15.40	-53.3	-55.4	14.0	0.00e+00	0	27	0	1188036608	71	4955
2026-01-05 11:07:47.68	328.80	15.02	-53.3	-55.4	14.0	0.00e+00	0	27	0	1195376640	72	4678
2026-01-05 11:07:51.64	329.16	14.65	-53.2	-55.2	14.1	0.00e+00	0	27	0	1202716672	72	4574
2026-01-05 11:07:55.62	329.52	14.27	-52.8	-54.7	14.4	0.00e+00	0	27	0	1210056704	72	4307
2026-01-05 11:07:59.60	329.87	13.91	-52.9	-54.8	14.3	0.00e+00	0	27	0	1217396736	72	4376
2026-01-05 11:08:03.59	330.21	13.54	-53.0	-55.1	14.2	0.00e+00	0	27	0	1224736768	72	4494
2026-01-05 11:08:07.54	330.55	13.19	-52.9	-54.9	14.2	0.00e+00	0	27	0	1233125376	72	4437
2026-01-05 11:08:11.53	330.87	12.83	-52.8	-54.8	14.2	0.00e+00	0	27	0	1240465408	71	4616
2026-01-05 11:08:15.50	331.19	12.48	-52.8	-54.8	14.2	0.00e+00	0	27	0	1247805440	71	4647
2026-01-05 11:08:19.45	331.50	12.14	-52.8	-54.8	14.2	0.00e+00	0	27	0	1255145472	71	4614
2026-01-05 11:08:23.42	331.81	11.80	-52.7	-54.7	14.2	0.00e+00	0	27	0	1262485504	71	4569
2026-01-05 11:08:27.38	332.11	11.46	-52.8	-54.8	14.1	0.00e+00	0	27	0	1269825536	71	4645
2026-01-05 11:08:31.35	332.40	11.13	-53.0	-55.1	14.0	0.00e+00	0	27	0	1277165568	71	4782
2026-01-05 11:08:35.31	332.69	10.80	-53.3	-55.5	13.8	0.00e+00	0	27	0	1284505600	71	5006
2026-01-05 11:08:39.28	332.97	10.47	-53.5	-55.8	13.7	0.00e+00	0	27	0	1291845632	72	4918
2026-01-05 11:08:43.25	333.24	10.15	-53.6	-55.9	13.7	0.00e+00	0	27	0	1299185664	72	4957
2026-01-05 11:08:47.23	333.51	9.83	-53.7	-56.1	13.6	0.00e+00	0	27	0	1306525696	72	5042
2026-01-05 11:08:51.19	333.77	9.52	-53.6	-56.0	13.6	0.00e+00	0	27	0	1314914304	72	5004
2026-01-05 11:08:55.17	334.03	9.21	-53.6	-56.0	13.6	0.00e+00	0	27	0	1322254336	72	5007
2026-01-05 11:08:59.15	334.29	8.90	-53.6	-56.0	13.6	0.00e+00	0	27	0	1329594368	72	4990
2026-01-05 11:09:03.13	334.54	8.60	-53.7	-56.1	13.5	0.00e+00	0	27	0	1336934400	72	5084
2026-01-05 11:09:07.09	334.78	8.30	-53.9	-56.4	13.4	0.00e+00	0	27	0	1344274432	72	5239
2026-01-05 11:09:11.07	335.02	8.00	-54.1	-56.7	13.3	0.00e+00	0	27	0	1351614464	73	5127
2026-01-05 11:09:15.05	335.26	7.70	-54.1	-56.8	13.2	0.00e+00	0	27	0	1358954496	73	5209
2026-01-05 11:09:19.00	335.48	7.41	-54.2	-56.9	13.2	0.00e+00	0	27	0	1366294528	73	5234
2026-01-05 11:09:22.96	335.71	7.12	-54.5	-57.4	12.9	0.00e+00	0	27	0	1373634560	74	5267
2026-01-05 11:09:26.91	335.93	6.84	-54.6	-57.7	12.8	0.00e+00	0	27	0	1380974592	74	5426
2026-01-05 11:09:30.88	336.15	6.56	-54.5	-57.5	12.8	0.00e+00	0	27	0	1388314624	74	5335
2026-01-05 11:09:34.85	336.37	6.28	-54.5	-57.5	12.9	0.00e+00	0	27	0	1396703232	74	5297
2026-01-05 11:09:38.83	336.58	6.00	-54.3	-57.3	12.9	0.00e+00	0	27	0	1404043264	74	5162
2026-01-05 11:09:42.81	336.79	5.72	-54.4	-57.3	12.8	0.00e+00	0	27	0	1411383296	73	5514
2026-01-05 11:09:46.80	336.99	5.45	-54.2	-57.0	12.9	0.00e+00	0	27	0	1418723328	73	5333
2026-01-05 11:09:50.77	337.19	5.18	-54.1	-57.0	12.9	0.00e+00	0	27	0	1426063360	73	5310
2026-01-05 11:09:54.74	337.39	4.91	-59.0	-75.0	3.8	1.49e+00	0	27	104	1432354816	83	23719
2026-01-05 11:09:58.71	337.58	4.65	-60.4	-76.4	3.8	1.49e+00	0	27	104	1432354816	85	24909
2026-01-05 11:10:02.70	337.77	4.38	-60.8	-76.9	3.8	1.49e+00	0	27	104	1432354816	86	24772
2026-01-05 11:10:06.66	337.96	4.13	-61.0	-77.0	3.8	1.49e+00	0	27	104	1432354816	87	23683
2026-01-05 11:10:10.64	338.15	3.87	-61.0	-77.1	3.8	1.49e+00	0	27	104	1432354816	87	23873
2026-01-05 11:10:14.62	338.33	3.61	-61.1	-77.1	3.8	1.49e+00	0	27	104	1432354816	87	24015
2026-01-05 11:10:18.57	338.51	3.36	-61.0	-77.0	3.8	1.49e+00	0	27	104	1432354816	87	23818
2026-01-05 11:10:22.52	338.68	3.11	-60.9	-77.0	3.8	1.49e+00	0	28	104	1432354816	87	23705
2026-01-05 11:10:26.48	338.86	2.86	-60.9	-76.9	3.8	1.49e+00	0	27	104	1432354816	87	23564
2026-01-05 11:10:30.42	339.03	2.61	-60.8	-76.9	3.8	1.49e+00	0	27	104	1432354816	87	23490
2026-01-05 11:10:34.36	339.19	2.37	-60.8	-76.9	3.8	1.49e+00	0	27	104	1432354816	87	23393
2026-01-05 11:10:38.33	339.36	2.13	-60.8	-76.8	3.8	1.49e+00	0	27	104	1432354816	87	23308

#Closed at: 2026-01-05 11:10:42
#Recorded file [1432 MB]: D:/lorett/data/31004_260105_135636.dat