passes_logs/2026/01/05/R3.2S_Murmansk/R3.2S_Murmansk__20260105_115650_FENGYUN_3D_rec.log

#Pass ID: 20260105_115650_FENGYUN 3D
#Satellite: FENGYUN 3D
#Configuration: FENGYUN 3D
#almurnet v.1.7.20251203
#Start time: 2026-01-05 11:56:50

#Version: 2.2.20231116
#Station: R3.2S_Murmansk
#Location: 33.079688 lon 68.888172 lat
#TLE: 1 43010U 17072A   26004.50247883 -.00000063  00000+0 -78815-5 0  9998
#TLE: 2 43010  98.9915 336.1565 0001968 126.3752 233.7605 14.19691805421760

#Time	Az	El	Level	Level2	SNR	BER	BlckErr	Temp	State	Recorded	gain1	gain2
2026-01-05 11:56:50.66	161.30	2.04	-58.1	-70.8	3.8	8.46e-01	0	25	0	0	81	16346
2026-01-05 11:56:54.65	161.36	2.30	-58.1	-71.0	3.8	8.45e-01	0	25	104	0	81	16790
2026-01-05 11:56:58.62	161.42	2.56	-58.1	-70.7	3.8	8.46e-01	0	25	104	0	81	16283
2026-01-05 11:57:02.60	161.48	2.82	-58.1	-70.8	3.8	8.45e-01	0	25	104	0	81	16457
2026-01-05 11:57:06.57	161.54	3.08	-58.1	-70.5	3.8	8.45e-01	0	25	104	0	81	15886
2026-01-05 11:57:10.56	161.60	3.34	-57.6	-66.3	4.6	8.13e-01	0	25	0	0	81	9796
2026-01-05 11:57:14.55	161.66	3.61	-56.8	-62.7	6.8	2.02e-01	0	26	0	13631488	80	6810
2026-01-05 11:57:18.53	161.73	3.88	-55.9	-60.3	8.8	1.75e-02	0	26	0	35651584	78	5811
2026-01-05 11:57:22.51	161.79	4.16	-55.0	-58.4	10.3	1.44e-03	0	26	0	58720256	76	5238
2026-01-05 11:57:26.49	161.86	4.43	-54.1	-57.0	11.3	8.58e-05	0	26	0	80740352	74	4994
2026-01-05 11:57:30.47	161.92	4.71	-54.2	-57.1	11.2	4.46e-05	0	26	0	102760448	74	5071
2026-01-05 11:57:34.43	161.99	4.99	-55.6	-59.6	9.2	6.80e-03	0	26	0	125829120	76	6057
2026-01-05 11:57:38.41	162.06	5.28	-57.9	-69.0	3.8	8.39e-01	0	26	104	143654912	81	13321
2026-01-05 11:57:42.39	162.13	5.57	-50.0	-51.7	14.0	0.00e+00	0	26	0	159383552	66	4307
2026-01-05 11:57:46.38	162.20	5.86	-49.5	-51.1	14.2	0.00e+00	0	26	0	182452224	65	4270
2026-01-05 11:57:50.37	162.27	6.15	-49.4	-50.9	14.3	0.00e+00	0	26	0	204472320	65	4171
2026-01-05 11:57:54.33	162.34	6.45	-49.2	-50.7	14.3	0.00e+00	0	26	0	226492416	64	4301
2026-01-05 11:57:58.31	162.42	6.75	-49.0	-50.5	14.4	0.00e+00	0	26	0	249561088	64	4196
2026-01-05 11:58:02.27	162.49	7.05	-49.1	-50.6	14.3	0.00e+00	0	26	0	271581184	64	4246
2026-01-05 11:58:06.25	162.57	7.36	-48.9	-50.3	14.5	0.00e+00	0	26	0	293601280	64	4137
2026-01-05 11:58:10.22	162.65	7.67	-48.9	-50.3	14.5	0.00e+00	0	26	0	316669952	64	4128
2026-01-05 11:58:14.20	162.72	7.99	-48.7	-50.1	14.6	0.00e+00	0	27	0	338690048	64	4016
2026-01-05 11:58:18.19	162.81	8.31	-48.6	-50.0	14.5	0.00e+00	0	26	0	360710144	63	4238
2026-01-05 11:58:22.20	162.89	8.64	-48.5	-49.9	14.6	0.00e+00	0	26	0	383778816	63	4168
2026-01-05 11:58:26.16	162.97	8.96	-48.5	-49.9	14.6	0.00e+00	0	27	0	405798912	63	4185
2026-01-05 11:58:30.14	163.06	9.29	-48.4	-49.8	14.6	0.00e+00	0	26	0	427819008	63	4134
2026-01-05 11:58:34.11	163.14	9.63	-48.3	-49.7	14.7	0.00e+00	0	26	0	450887680	63	4052
2026-01-05 11:58:38.09	163.23	9.97	-48.3	-49.7	14.7	0.00e+00	0	27	0	472907776	63	4069
2026-01-05 11:58:42.05	163.32	10.32	-48.3	-49.7	14.7	0.00e+00	0	27	0	494927872	63	4059
2026-01-05 11:58:46.00	163.42	10.67	-48.2	-49.6	14.6	0.00e+00	0	27	0	516947968	62	4277
2026-01-05 11:58:49.96	163.51	11.02	-48.2	-49.6	14.6	0.00e+00	0	27	0	540016640	62	4243
2026-01-05 11:58:53.93	163.61	11.38	-48.2	-49.6	14.6	0.00e+00	0	27	0	562036736	62	4246
2026-01-05 11:58:57.91	163.70	11.75	-48.1	-49.5	14.7	0.00e+00	0	27	0	584056832	62	4222
2026-01-05 11:59:01.89	163.80	12.12	-47.9	-49.3	14.8	0.00e+00	0	27	0	607125504	62	4118
2026-01-05 11:59:05.85	163.91	12.50	-47.9	-49.2	14.8	0.00e+00	0	27	0	629145600	62	4093
2026-01-05 11:59:09.84	164.01	12.88	-47.9	-49.2	14.8	0.00e+00	0	27	0	651165696	62	4095
2026-01-05 11:59:13.84	164.12	13.27	-47.7	-49.1	14.9	0.00e+00	0	27	0	674234368	62	4010
2026-01-05 11:59:17.83	164.23	13.67	-47.6	-49.0	14.8	0.00e+00	0	27	0	696254464	61	4194
2026-01-05 11:59:21.81	164.34	14.07	-47.3	-48.6	14.9	0.00e+00	0	27	0	719323136	61	4050
2026-01-05 11:59:25.79	164.46	14.48	-47.2	-48.5	15.0	0.00e+00	0	27	0	741343232	61	3998
2026-01-05 11:59:29.76	164.58	14.90	-47.0	-48.3	14.9	0.00e+00	0	27	0	763363328	60	4142
2026-01-05 11:59:33.74	164.70	15.32	-46.8	-48.1	15.0	0.00e+00	0	27	0	786432000	60	4036
2026-01-05 11:59:37.71	164.82	15.75	-46.8	-48.1	15.0	0.00e+00	0	27	0	808452096	60	4009
2026-01-05 11:59:41.68	164.95	16.19	-46.9	-48.1	14.9	0.00e+00	0	27	0	830472192	59	4284
2026-01-05 11:59:45.65	165.08	16.63	-46.9	-48.1	14.9	0.00e+00	0	27	0	852492288	59	4283
2026-01-05 11:59:49.63	165.21	17.09	-46.7	-47.9	15.0	0.00e+00	0	27	0	875560960	59	4182
2026-01-05 11:59:53.62	165.35	17.55	-46.6	-47.8	15.0	0.00e+00	0	27	0	897581056	59	4143
2026-01-05 11:59:57.60	165.49	18.03	-46.5	-47.7	15.1	0.00e+00	0	27	0	920649728	59	4072
2026-01-05 12:00:01.59	165.64	18.51	-46.3	-47.5	15.1	0.00e+00	0	27	0	942669824	59	3999
2026-01-05 12:00:05.57	165.79	19.00	-46.4	-47.6	15.1	0.00e+00	0	27	0	964689920	59	4033
2026-01-05 12:00:09.56	165.94	19.50	-46.1	-47.3	15.1	0.00e+00	0	27	0	987758592	58	4130
2026-01-05 12:00:13.53	166.10	20.01	-46.0	-47.2	15.1	0.00e+00	0	27	0	1009778688	58	4081
2026-01-05 12:00:17.51	166.27	20.53	-45.9	-47.1	15.1	0.00e+00	0	27	0	1031798784	58	4048
2026-01-05 12:00:21.50	166.44	21.06	-46.0	-47.2	15.1	0.00e+00	0	27	0	1054867456	58	4085
2026-01-05 12:00:25.48	166.61	21.61	-45.8	-47.0	15.2	0.00e+00	0	27	0	1076887552	58	3987
2026-01-05 12:00:29.47	166.79	22.16	-45.9	-47.1	15.1	0.00e+00	0	27	0	1099956224	58	4012
2026-01-05 12:00:33.46	166.98	22.73	-45.7	-46.9	15.2	0.00e+00	0	27	0	1121976320	58	3948
2026-01-05 12:00:37.43	167.17	23.31	-45.6	-46.8	15.1	0.00e+00	0	27	0	1143996416	57	4115
2026-01-05 12:00:41.42	167.37	23.90	-45.4	-46.6	15.2	0.00e+00	0	27	0	1167065088	57	4038
2026-01-05 12:00:45.39	167.58	24.51	-45.3	-46.5	15.2	0.00e+00	0	27	0	1189085184	57	3999
2026-01-05 12:00:49.37	167.79	25.13	-45.2	-46.4	15.3	0.00e+00	0	27	0	1211105280	57	3949
2026-01-05 12:00:53.38	168.02	25.77	-45.4	-46.6	15.2	0.00e+00	0	27	0	1234173952	57	4018
2026-01-05 12:00:57.38	168.25	26.42	-45.5	-46.7	15.2	0.00e+00	0	27	0	1256194048	57	4091
2026-01-05 12:01:01.38	168.49	27.09	-45.2	-46.4	15.3	0.00e+00	0	27	0	1279262720	57	3948
2026-01-05 12:01:05.38	168.74	27.77	-45.1	-46.2	15.2	0.00e+00	0	27	0	1301282816	56	4093
2026-01-05 12:01:09.39	169.01	28.47	-45.2	-46.3	15.2	0.00e+00	0	27	0	1324351488	56	4141
2026-01-05 12:01:13.39	169.28	29.19	-45.3	-46.5	15.1	0.00e+00	0	27	0	1346371584	56	4211
2026-01-05 12:01:17.39	169.56	29.93	-45.4	-46.6	15.1	0.00e+00	0	27	0	1369440256	56	4282
2026-01-05 12:01:21.38	169.86	30.68	-45.2	-46.4	15.1	0.00e+00	0	27	0	1391460352	56	4174
2026-01-05 12:01:25.39	170.17	31.46	-44.7	-45.9	15.3	0.00e+00	0	27	0	1414529024	56	3914
2026-01-05 12:01:29.39	170.50	32.26	-44.6	-45.8	15.2	0.00e+00	0	27	0	1436549120	55	4103
2026-01-05 12:01:33.40	170.84	33.08	-44.9	-46.1	15.1	0.00e+00	0	27	0	1458569216	55	4288
2026-01-05 12:01:37.42	171.20	33.92	-44.6	-45.7	15.2	0.00e+00	0	27	0	1481637888	55	4083
2026-01-05 12:01:41.45	171.58	34.78	-44.3	-45.4	15.2	0.00e+00	0	27	0	1504706560	54	4189
2026-01-05 12:01:45.48	171.98	35.67	-44.6	-45.6	15.1	0.00e+00	0	27	0	1526726656	54	4280
2026-01-05 12:01:49.50	172.40	36.59	-44.6	-45.6	15.1	0.00e+00	0	27	0	1549795328	54	4272
2026-01-05 12:01:53.52	172.85	37.52	-44.4	-45.4	15.1	0.00e+00	0	27	0	1572864000	54	4178
2026-01-05 12:01:57.54	173.32	38.48	-44.4	-45.4	15.1	0.00e+00	0	27	0	1594884096	54	4179
2026-01-05 12:02:01.56	173.82	39.47	-44.8	-45.8	15.1	0.00e+00	0	27	0	1616904192	54	4389
2026-01-05 12:02:05.57	174.34	40.48	-44.8	-45.9	15.1	0.00e+00	0	27	0	1639972864	55	4161
2026-01-05 12:02:09.59	174.91	41.52	-44.8	-45.9	15.1	0.00e+00	0	27	0	1663041536	55	4149
2026-01-05 12:02:13.60	175.50	42.58	-45.1	-46.2	15.1	0.00e+00	0	27	0	1685061632	55	4297
2026-01-05 12:02:17.62	176.14	43.68	-45.3	-46.4	15.1	0.00e+00	0	27	0	1708130304	55	4396
2026-01-05 12:02:21.64	176.82	44.80	-45.3	-46.3	15.1	0.00e+00	0	27	0	1730150400	55	4391
2026-01-05 12:02:25.66	177.56	45.95	-45.3	-46.3	15.1	0.00e+00	0	27	0	1753219072	56	4115
2026-01-05 12:02:29.68	178.35	47.13	-45.0	-46.1	15.2	0.00e+00	0	27	0	1775239168	56	4006
2026-01-05 12:02:33.69	179.19	48.33	-45.4	-46.4	15.1	0.00e+00	0	27	0	1798307840	56	4167
2026-01-05 12:02:37.71	180.11	49.57	-45.8	-46.8	15.0	0.00e+00	0	27	0	1821376512	56	4387
2026-01-05 12:02:41.73	181.10	50.83	-45.8	-46.9	15.0	0.00e+00	0	27	0	1843396608	56	4430
2026-01-05 12:02:45.76	182.18	52.12	-46.4	-47.5	15.1	0.00e+00	0	27	0	1866465280	58	4208
2026-01-05 12:02:49.78	183.36	53.42	-46.2	-47.2	15.1	0.00e+00	0	27	0	1888485376	58	4096
2026-01-05 12:02:53.79	184.65	54.75	-46.2	-47.3	15.1	0.00e+00	0	27	0	1911554048	58	4115
2026-01-05 12:02:57.81	186.06	56.10	-46.5	-47.6	15.0	0.00e+00	0	27	0	1933574144	58	4255
2026-01-05 12:03:01.83	187.61	57.46	-46.4	-47.5	15.1	0.00e+00	0	27	0	1956642816	58	4215
2026-01-05 12:03:05.84	189.33	58.83	-45.9	-46.9	15.1	0.00e+00	0	27	0	1978662912	57	4185
2026-01-05 12:03:09.85	191.23	60.21	-45.6	-46.7	15.1	0.00e+00	0	27	0	2001731584	56	4310
2026-01-05 12:03:13.88	193.35	61.59	-44.9	-45.9	15.3	0.00e+00	0	27	0	2024800256	56	3943
2026-01-05 12:03:17.90	195.72	62.96	-45.2	-46.2	15.2	0.00e+00	0	27	0	2046820352	56	4095
2026-01-05 12:03:21.91	198.36	64.31	-44.7	-45.7	15.3	0.00e+00	0	27	0	2069889024	56	3848
2026-01-05 12:03:25.93	201.34	65.63	-44.5	-45.5	15.2	0.00e+00	0	27	0	2091909120	55	3985
2026-01-05 12:03:29.94	204.67	66.91	-44.5	-45.6	15.2	0.00e+00	0	27	0	2114977792	55	4011
2026-01-05 12:03:33.96	208.43	68.12	-44.5	-45.5	15.2	0.00e+00	0	27	0	2136997888	55	3972
2026-01-05 12:03:37.98	212.66	69.25	-44.3	-45.3	15.3	0.00e+00	0	27	0	2160066560	55	3909
2026-01-05 12:03:42.01	217.39	70.29	-44.3	-45.3	15.2	0.00e+00	0	27	0	2182086656	54	4134
2026-01-05 12:03:46.03	222.64	71.19	-43.9	-44.9	15.3	0.00e+00	0	27	0	2205155328	54	3921
2026-01-05 12:03:50.03	228.36	71.93	-44.0	-45.0	15.3	0.00e+00	0	27	0	2228224000	54	3982
2026-01-05 12:03:54.06	234.58	72.50	-44.0	-45.0	15.3	0.00e+00	0	27	0	2250244096	54	3978
2026-01-05 12:03:58.08	241.14	72.86	-43.6	-44.6	15.2	0.00e+00	0	27	0	2273312768	53	4035
2026-01-05 12:04:02.10	247.90	73.00	-44.0	-45.0	15.2	0.00e+00	0	27	0	2295332864	53	4217
2026-01-05 12:04:06.10	254.65	72.91	-43.6	-44.6	15.2	0.00e+00	0	27	0	2318401536	53	4015
2026-01-05 12:04:10.11	261.26	72.60	-43.8	-44.9	15.2	0.00e+00	0	27	0	2340421632	53	4147
2026-01-05 12:04:14.13	267.56	72.09	-43.9	-44.9	15.2	0.00e+00	0	27	0	2363490304	53	4177
2026-01-05 12:04:18.15	273.43	71.39	-43.7	-44.7	15.2	0.00e+00	0	27	0	2385510400	53	4085
2026-01-05 12:04:22.16	278.79	70.52	-44.1	-45.1	15.2	0.00e+00	0	27	0	2408579072	53	4264
2026-01-05 12:04:26.19	283.65	69.52	-44.3	-45.3	15.2	0.00e+00	0	27	0	2430599168	53	4383
2026-01-05 12:04:30.19	287.97	68.42	-44.6	-45.7	15.1	0.00e+00	0	27	0	2453667840	54	4315
2026-01-05 12:04:34.21	291.84	67.22	-44.4	-45.4	15.2	0.00e+00	0	27	0	2475687936	54	4157
2026-01-05 12:04:38.23	295.28	65.96	-44.7	-45.7	15.1	0.00e+00	0	27	0	2498756608	54	4335
2026-01-05 12:04:42.24	298.34	64.66	-44.9	-45.9	15.2	0.00e+00	0	27	0	2521825280	55	4175
2026-01-05 12:04:46.25	301.06	63.32	-45.0	-46.0	15.1	0.00e+00	0	27	0	2543845376	55	4241
2026-01-05 12:04:50.26	303.48	61.96	-44.8	-45.8	15.2	0.00e+00	0	27	0	2566914048	55	4128
2026-01-05 12:04:54.27	305.66	60.59	-45.3	-46.3	15.1	0.00e+00	0	27	0	2588934144	55	4370
2026-01-05 12:04:58.28	307.61	59.21	-45.4	-46.4	15.1	0.00e+00	0	27	0	2612002816	56	4189
2026-01-05 12:05:02.30	309.37	57.84	-45.9	-46.9	15.1	0.00e+00	0	27	0	2634022912	56	4438
2026-01-05 12:05:06.32	310.97	56.48	-46.2	-47.3	15.0	0.00e+00	0	27	0	2657091584	57	4367
2026-01-05 12:05:10.32	312.41	55.13	-46.3	-47.3	15.0	0.00e+00	0	27	0	2679111680	57	4379
2026-01-05 12:05:14.33	313.72	53.80	-46.2	-47.3	15.0	0.00e+00	0	27	0	2702180352	57	4378
2026-01-05 12:05:18.33	314.92	52.50	-46.1	-47.1	15.1	0.00e+00	0	27	0	2724200448	57	4259
2026-01-05 12:05:22.35	316.02	51.21	-46.0	-47.0	15.1	0.00e+00	0	27	0	2747269120	57	4231
2026-01-05 12:05:26.37	317.04	49.95	-45.4	-46.5	15.2	0.00e+00	0	27	0	2769289216	57	3960
2026-01-05 12:05:30.39	317.98	48.71	-45.7	-46.7	15.2	0.00e+00	0	27	0	2792357888	57	4094
2026-01-05 12:05:34.42	318.85	47.50	-46.0	-47.1	15.1	0.00e+00	0	27	0	2815426560	57	4259
2026-01-05 12:05:38.43	319.65	46.32	-45.6	-46.6	15.2	0.00e+00	0	27	0	2837446656	57	4033
2026-01-05 12:05:42.44	320.39	45.17	-45.5	-46.6	15.2	0.00e+00	0	27	0	2859466752	57	4011
2026-01-05 12:05:46.45	321.09	44.04	-45.4	-46.4	15.3	0.00e+00	0	27	0	2882535424	57	3920
2026-01-05 12:05:50.46	321.74	42.94	-45.3	-46.3	15.1	0.00e+00	0	27	0	2905604096	56	4145
2026-01-05 12:05:54.47	322.35	41.88	-45.1	-46.1	15.2	0.00e+00	0	27	0	2927624192	56	4024
2026-01-05 12:05:58.48	322.92	40.83	-44.9	-45.9	15.3	0.00e+00	0	27	0	2950692864	56	3951
2026-01-05 12:06:02.50	323.45	39.82	-44.9	-45.9	15.3	0.00e+00	0	27	0	2972712960	56	3931
2026-01-05 12:06:06.52	323.96	38.82	-44.8	-45.8	15.3	0.00e+00	0	27	0	2995781632	56	3880
2026-01-05 12:06:10.55	324.44	37.86	-44.9	-46.0	15.3	0.00e+00	0	27	0	3017801728	56	3967
2026-01-05 12:06:14.57	324.89	36.92	-44.9	-46.0	15.2	0.00e+00	0	27	0	3040870400	56	3972
2026-01-05 12:06:18.58	325.32	36.00	-44.7	-45.7	15.3	0.00e+00	0	27	0	3062890496	56	3855
2026-01-05 12:06:22.58	325.72	35.11	-45.0	-46.0	15.2	0.00e+00	0	27	0	3085959168	56	3987
2026-01-05 12:06:26.57	326.11	34.25	-44.9	-46.0	15.2	0.00e+00	0	27	0	3107979264	56	3968
2026-01-05 12:06:30.56	326.47	33.41	-44.9	-45.9	15.2	0.00e+00	0	27	0	3131047936	56	3946
2026-01-05 12:06:34.55	326.82	32.59	-45.0	-46.1	15.2	0.00e+00	0	27	0	3153068032	56	4011
2026-01-05 12:06:38.53	327.15	31.80	-45.1	-46.2	15.2	0.00e+00	0	27	0	3175088128	56	4056
2026-01-05 12:06:42.53	327.47	31.02	-45.2	-46.2	15.2	0.00e+00	0	27	0	3198156800	56	4094
2026-01-05 12:06:46.51	327.77	30.26	-45.0	-46.0	15.2	0.00e+00	0	27	0	3220176896	56	3977
2026-01-05 12:06:50.49	328.06	29.52	-44.9	-45.9	15.2	0.00e+00	0	27	0	3243245568	56	3943
2026-01-05 12:06:54.48	328.33	28.80	-45.0	-46.0	15.2	0.00e+00	0	27	0	3265265664	56	3981
2026-01-05 12:06:58.47	328.60	28.10	-45.1	-46.1	15.2	0.00e+00	0	27	0	3287285760	56	4044
2026-01-05 12:07:02.47	328.85	27.41	-45.1	-46.1	15.2	0.00e+00	0	27	0	3310354432	56	4025
2026-01-05 12:07:06.45	329.10	26.74	-45.3	-46.3	15.1	0.00e+00	0	27	0	3332374528	56	4117
2026-01-05 12:07:10.45	329.34	26.09	-45.3	-46.3	15.1	0.00e+00	0	27	0	3355443200	56	4127
2026-01-05 12:07:14.45	329.56	25.44	-45.5	-46.6	15.1	0.00e+00	0	27	0	3377463296	56	4259
2026-01-05 12:07:18.42	329.78	24.82	-45.8	-46.9	15.0	0.00e+00	0	27	0	3399483392	56	4416
2026-01-05 12:07:22.42	330.00	24.21	-45.8	-46.9	15.1	0.00e+00	0	27	0	3422552064	57	4168
2026-01-05 12:07:26.42	330.20	23.61	-45.9	-47.0	15.1	0.00e+00	0	27	0	3444572160	57	4203
2026-01-05 12:07:30.41	330.40	23.03	-46.0	-47.0	15.0	0.00e+00	0	27	0	3467640832	57	4227
2026-01-05 12:07:34.42	330.59	22.45	-46.0	-47.1	15.0	0.00e+00	0	27	0	3489660928	57	4261
2026-01-05 12:07:38.40	330.77	21.90	-46.1	-47.1	15.0	0.00e+00	0	27	0	3512729600	57	4285
2026-01-05 12:07:42.37	330.95	21.35	-46.1	-47.2	15.0	0.00e+00	0	27	0	3534749696	57	4295
2026-01-05 12:07:46.35	331.12	20.82	-46.2	-47.3	15.0	0.00e+00	0	27	0	3556769792	57	4375
2026-01-05 12:07:50.33	331.29	20.30	-46.2	-47.3	15.0	0.00e+00	0	27	0	3579838464	57	4371
2026-01-05 12:07:54.31	331.45	19.78	-46.4	-47.5	14.9	0.00e+00	0	27	0	3601858560	57	4481
2026-01-05 12:07:58.28	331.61	19.28	-46.5	-47.6	15.0	0.00e+00	0	27	0	3623878656	58	4259
2026-01-05 12:08:02.24	331.76	18.79	-46.6	-47.7	15.0	0.00e+00	0	27	0	3645898752	58	4318
2026-01-05 12:08:06.22	331.91	18.31	-46.8	-47.9	14.9	0.00e+00	0	27	0	3668967424	58	4427
2026-01-05 12:08:10.20	332.06	17.83	-47.1	-48.2	14.9	0.00e+00	0	27	0	3690987520	59	4325
2026-01-05 12:08:14.18	332.20	17.37	-47.3	-48.4	14.8	0.00e+00	0	27	0	3714056192	59	4434
2026-01-05 12:08:18.15	332.34	16.91	-47.1	-48.2	15.0	0.00e+00	0	27	0	3736076288	60	4074
2026-01-05 12:08:22.14	332.47	16.46	-47.1	-48.2	15.0	0.00e+00	0	27	0	3758096384	60	4074
2026-01-05 12:08:26.11	332.60	16.02	-47.1	-48.2	15.0	0.00e+00	0	27	0	3781165056	60	4087
2026-01-05 12:08:30.07	332.73	15.59	-47.2	-48.3	14.9	0.00e+00	0	27	0	3803185152	60	4110
2026-01-05 12:08:34.05	332.85	15.17	-47.1	-48.2	15.0	0.00e+00	0	27	0	3825205248	60	4060
2026-01-05 12:08:38.02	332.97	14.75	-47.2	-48.3	14.9	0.00e+00	0	28	0	3847225344	60	4120
2026-01-05 12:08:42.01	333.09	14.34	-47.1	-48.2	14.9	0.00e+00	0	27	0	3870294016	60	4092
2026-01-05 12:08:45.99	333.21	13.93	-47.2	-48.3	14.9	0.00e+00	0	27	0	3892314112	60	4124
2026-01-05 12:08:49.97	333.32	13.54	-47.2	-48.4	14.9	0.00e+00	0	27	0	3915382784	60	4150
2026-01-05 12:08:53.97	333.43	13.14	-47.4	-48.5	14.8	0.00e+00	0	27	0	3937402880	60	4236
2026-01-05 12:08:57.96	333.54	12.76	-47.5	-48.6	14.8	0.00e+00	0	27	0	3959422976	60	4277
2026-01-05 12:09:01.96	333.65	12.38	-47.5	-48.7	14.8	0.00e+00	0	28	0	3982491648	60	4310
2026-01-05 12:09:05.96	333.75	12.00	-47.7	-48.9	14.7	0.00e+00	0	27	0	4004511744	60	4408
2026-01-05 12:09:09.95	333.85	11.63	-47.8	-49.0	14.7	0.00e+00	0	27	0	4027580416	60	4481
2026-01-05 12:09:13.95	333.95	11.27	-48.0	-49.2	14.7	0.00e+00	0	27	0	4049600512	61	4328
2026-01-05 12:09:17.95	334.05	10.91	-48.1	-49.3	14.6	0.00e+00	0	27	0	4072669184	61	4377
2026-01-05 12:09:21.95	334.15	10.56	-48.3	-49.5	14.6	0.00e+00	0	28	0	4094689280	61	4482
2026-01-05 12:09:25.97	334.24	10.20	-48.4	-49.7	14.6	0.00e+00	0	27	0	4117757952	62	4332
2026-01-05 12:09:29.98	334.33	9.86	-48.4	-49.7	14.6	0.00e+00	0	27	0	4139778048	62	4319
2026-01-05 12:09:33.98	334.42	9.52	-48.5	-49.8	14.6	0.00e+00	0	27	0	4162846720	62	4359
2026-01-05 12:09:37.98	334.51	9.19	-48.6	-50.0	14.5	0.00e+00	0	27	0	4184866816	62	4447
2026-01-05 12:09:41.99	334.60	8.85	-48.6	-49.9	14.5	0.00e+00	0	27	0	4206886912	62	4441
2026-01-05 12:09:46.00	334.69	8.53	-48.8	-50.1	14.4	0.00e+00	0	27	0	4229955584	62	4534
2026-01-05 12:09:50.01	334.77	8.20	-48.8	-50.1	14.5	0.00e+00	0	27	0	4253024256	63	4277
2026-01-05 12:09:54.01	334.85	7.89	-48.8	-50.2	14.5	0.00e+00	0	27	0	4275044352	63	4300
2026-01-05 12:09:58.02	334.93	7.57	-49.0	-50.3	14.4	0.00e+00	0	27	0	4298113024	63	4380
2026-01-05 12:10:02.03	335.01	7.26	-49.2	-50.6	14.3	0.00e+00	0	27	0	4320133120	63	4498
2026-01-05 12:10:06.04	335.09	6.95	-49.2	-50.6	14.3	0.00e+00	0	27	0	4343201792	63	4500
2026-01-05 12:10:10.05	335.17	6.65	-49.0	-50.4	14.3	0.00e+00	0	27	0	4365221888	63	4415
2026-01-05 12:10:14.08	335.25	6.35	-49.4	-50.8	14.2	0.00e+00	0	27	0	4388290560	64	4360
2026-01-05 12:10:18.10	335.32	6.05	-49.4	-50.8	14.1	0.00e+00	0	27	0	4410310656	63	4625
2026-01-05 12:10:22.10	335.40	5.76	-49.6	-51.1	14.1	0.00e+00	0	27	0	4433379328	64	4511
2026-01-05 12:10:26.11	335.47	5.47	-49.5	-50.9	14.1	0.00e+00	0	27	0	4455399424	64	4438
2026-01-05 12:10:30.13	335.54	5.18	-49.6	-51.0	14.1	0.00e+00	0	27	0	4478468096	64	4481
2026-01-05 12:10:34.15	335.61	4.90	-59.3	-72.2	3.8	8.46e-01	0	27	104	4494196736	83	17220
2026-01-05 12:10:38.14	335.68	4.62	-51.8	-57.9	3.8	8.45e-01	0	28	104	4494196736	70	7008
2026-01-05 12:10:42.13	335.75	4.34	-60.9	-73.9	3.8	8.46e-01	0	27	104	4494196736	86	17633
2026-01-05 12:10:46.12	335.82	4.07	-61.0	-74.0	3.8	8.46e-01	0	27	104	4494196736	87	16887
2026-01-05 12:10:50.11	335.89	3.80	-61.1	-74.1	3.8	8.46e-01	0	28	104	4494196736	87	17073
2026-01-05 12:10:54.10	335.95	3.53	-61.1	-74.2	3.8	8.46e-01	0	27	104	4494196736	87	17105
2026-01-05 12:10:58.08	336.02	3.26	-61.0	-74.1	3.8	8.45e-01	0	28	104	4494196736	87	16900
2026-01-05 12:11:02.06	336.08	3.00	-60.9	-74.0	3.8	8.44e-01	0	28	104	4494196736	87	16870
2026-01-05 12:11:06.04	336.15	2.74	-60.9	-74.0	3.8	8.47e-01	0	27	104	4494196736	87	16734
2026-01-05 12:11:10.02	336.21	2.48	-60.9	-73.9	3.8	8.48e-01	0	28	104	4494196736	87	16684
2026-01-05 12:11:14.00	336.27	2.22	-60.8	-73.9	3.8	8.45e-01	0	27	104	4494196736	87	16624
2026-01-05 12:11:17.99	336.33	1.97	-60.8	-73.9	3.8	8.47e-01	0	27	104	4494196736	87	16604

#Closed at: 2026-01-05 12:11:20
#Recorded file [4494 MB]: D:/lorett/data/31004_260105_145650.dat