passes_logs/2026/01/05/R3.2S_Murmansk/R3.2S_Murmansk__20260105_235219_AQUA_rec.log

#Pass ID: 20260105_235219_AQUA
#Satellite: AQUA
#Configuration: AQUA
#almurnet v.1.7.20251203
#Start time: 2026-01-05 23:52:19

#Version: 2.2.20231116
#Station: R3.2S_Murmansk
#Location: 33.079688 lon 68.888172 lat
#TLE: 1 27424U 02022A   26004.96787593  .00001598  00000+0  32997-3 0  9996
#TLE: 2 27424  98.4069 331.2279 0002002  90.2377   0.6092 14.61798176259425

#Time	Az	El	Level	Level2	SNR	BER	BlckErr	Temp	State	Recorded	gain1	gain2
2026-01-05 23:52:19.16	21.18	2.00	-57.7	-76.8	3.8	7.49e-01	0	24	0	0	84	31993
2026-01-05 23:52:22.16	21.44	2.16	-57.4	-76.4	3.8	7.48e-01	0	24	104	0	82	34290
2026-01-05 23:52:25.15	21.71	2.33	-57.4	-76.7	3.8	7.48e-01	0	24	104	0	82	35458
2026-01-05 23:52:28.15	21.98	2.49	-57.5	-76.8	3.8	7.45e-01	0	25	104	0	82	35844
2026-01-05 23:52:31.15	22.25	2.65	-57.4	-76.5	3.8	7.47e-01	0	25	104	0	82	34727
2026-01-05 23:52:34.15	22.53	2.82	-57.4	-76.2	3.8	7.47e-01	0	25	104	0	82	33346
2026-01-05 23:52:37.15	22.81	2.99	-57.5	-76.7	3.8	7.47e-01	0	25	104	0	82	35492
2026-01-05 23:52:40.15	23.09	3.15	-57.5	-76.5	3.8	7.44e-01	0	25	104	0	82	34634
2026-01-05 23:52:43.15	23.37	3.32	-57.5	-76.6	3.8	7.44e-01	0	25	104	0	82	35126
2026-01-05 23:52:46.15	23.66	3.49	-57.4	-74.9	3.9	7.43e-01	0	25	104	0	82	28965
2026-01-05 23:52:49.16	23.96	3.65	-57.4	-74.2	3.8	7.42e-01	0	25	104	0	82	26503
2026-01-05 23:52:52.16	24.25	3.82	-57.4	-72.7	4.4	7.28e-01	0	25	104	0	82	22266
2026-01-05 23:52:55.17	24.55	3.99	-57.1	-67.5	7.5	6.47e-01	87	26	0	1048576	82	12320
2026-01-05 23:52:58.17	24.86	4.16	-56.9	-66.4	8.4	6.34e-01	0	26	0	6815744	82	10894
2026-01-05 23:53:01.16	25.16	4.33	-55.9	-61.7	12.1	6.06e-01	0	25	0	12058624	81	6662
2026-01-05 23:53:04.16	25.47	4.50	-53.8	-57.1	14.3	6.02e-01	0	25	0	17825792	76	5226
2026-01-05 23:53:07.16	25.79	4.68	-52.1	-54.6	15.0	6.03e-01	0	25	0	23592960	73	4678
2026-01-05 23:53:10.16	26.11	4.85	-53.5	-56.8	14.2	6.04e-01	0	26	0	29360128	74	5682
2026-01-05 23:53:13.17	26.43	5.02	-55.7	-61.1	12.3	6.06e-01	0	26	0	34603008	79	7035
2026-01-05 23:53:16.16	26.76	5.19	-56.8	-65.5	8.9	6.25e-01	0	26	0	40370176	81	10297
2026-01-05 23:53:19.14	27.08	5.37	-53.0	-55.8	14.8	6.03e-01	0	26	0	46137344	75	4814
2026-01-05 23:53:22.14	27.42	5.54	-52.0	-54.3	15.1	6.05e-01	0	26	0	51380224	73	4538
2026-01-05 23:53:25.15	27.76	5.72	-51.9	-54.2	15.0	6.04e-01	0	26	0	57147392	72	4734
2026-01-05 23:53:28.14	28.10	5.89	-51.7	-54.0	15.1	6.04e-01	0	26	0	62914560	72	4612
2026-01-05 23:53:31.14	28.45	6.07	-51.7	-54.0	15.1	6.05e-01	0	26	0	68681728	72	4617
2026-01-05 23:53:34.14	28.80	6.24	-51.9	-54.2	15.0	6.04e-01	0	26	0	73924608	72	4729
2026-01-05 23:53:37.14	29.16	6.42	-51.8	-54.0	15.1	6.02e-01	0	26	0	79691776	72	4621
2026-01-05 23:53:40.15	29.52	6.60	-51.7	-53.9	15.1	6.05e-01	0	26	0	85458944	72	4586
2026-01-05 23:53:43.14	29.88	6.78	-51.7	-53.9	15.2	6.02e-01	0	26	0	91226112	72	4554
2026-01-05 23:53:46.14	30.25	6.95	-51.3	-53.4	15.2	6.01e-01	0	26	0	96468992	71	4561
2026-01-05 23:53:49.15	30.63	7.13	-51.4	-53.6	15.1	6.01e-01	0	26	0	102236160	71	4655
2026-01-05 23:53:52.16	31.01	7.31	-51.5	-53.6	15.1	6.03e-01	0	26	0	108003328	71	4658
2026-01-05 23:53:55.16	31.39	7.49	-51.3	-53.4	15.2	6.04e-01	0	26	0	113770496	71	4560
2026-01-05 23:53:58.18	31.79	7.67	-51.3	-53.4	15.2	6.02e-01	0	26	0	119013376	71	4552
2026-01-05 23:54:01.17	32.18	7.85	-51.3	-53.3	15.2	6.05e-01	0	26	0	124780544	71	4539
2026-01-05 23:54:04.16	32.58	8.03	-51.1	-53.1	15.3	6.03e-01	0	26	0	130547712	71	4438
2026-01-05 23:54:07.15	32.98	8.21	-51.2	-53.2	15.3	6.06e-01	0	26	0	135790592	71	4488
2026-01-05 23:54:10.14	33.39	8.40	-51.1	-53.1	15.3	6.04e-01	0	26	0	141557760	71	4404
2026-01-05 23:54:13.12	33.80	8.58	-50.9	-52.9	15.2	6.02e-01	0	26	0	147324928	70	4547
2026-01-05 23:54:16.11	34.22	8.76	-51.0	-53.0	15.2	6.03e-01	0	26	0	153092096	70	4605
2026-01-05 23:54:19.10	34.65	8.94	-50.8	-52.7	15.3	6.03e-01	0	26	0	158334976	70	4487
2026-01-05 23:54:22.09	35.08	9.12	-50.7	-52.6	15.3	6.03e-01	0	26	0	164102144	70	4436
2026-01-05 23:54:25.08	35.52	9.30	-51.1	-53.1	15.2	6.02e-01	0	26	0	169869312	70	4659
2026-01-05 23:54:28.07	35.96	9.48	-50.7	-52.5	15.3	6.04e-01	0	26	0	175112192	70	4386
2026-01-05 23:54:31.08	36.41	9.67	-50.7	-52.6	15.3	6.07e-01	0	26	0	180879360	70	4399
2026-01-05 23:54:34.07	36.86	9.85	-50.8	-52.6	15.3	6.04e-01	0	26	0	186646528	70	4441
2026-01-05 23:54:37.06	37.32	10.03	-50.6	-52.5	15.4	6.04e-01	0	26	0	191889408	70	4369
2026-01-05 23:54:40.05	37.79	10.21	-50.6	-52.5	15.4	6.04e-01	0	26	0	197656576	70	4344
2026-01-05 23:54:43.05	38.26	10.40	-50.7	-52.6	15.3	6.03e-01	0	26	0	203423744	70	4411
2026-01-05 23:54:46.06	38.75	10.58	-50.7	-52.5	15.3	6.02e-01	0	26	0	209190912	70	4374
2026-01-05 23:54:49.05	39.23	10.76	-50.4	-52.2	15.4	6.02e-01	0	26	0	214433792	70	4205
2026-01-05 23:54:52.03	39.72	10.94	-50.5	-52.3	15.3	6.02e-01	0	26	0	220200960	69	4514
2026-01-05 23:54:55.04	40.22	11.12	-50.3	-52.1	15.3	6.01e-01	0	26	0	225968128	69	4415
2026-01-05 23:54:58.03	40.72	11.31	-50.4	-52.2	15.3	6.04e-01	0	26	0	231211008	69	4444
2026-01-05 23:55:01.02	41.23	11.49	-50.3	-52.1	15.3	6.03e-01	0	26	0	236978176	69	4425
2026-01-05 23:55:04.02	41.75	11.67	-50.4	-52.3	15.3	6.04e-01	0	26	0	242745344	69	4508
2026-01-05 23:55:07.02	42.28	11.85	-50.3	-52.1	15.3	6.03e-01	0	26	0	248512512	69	4405
2026-01-05 23:55:10.02	42.81	12.03	-50.0	-51.7	15.4	6.01e-01	0	26	0	253755392	69	4235
2026-01-05 23:55:13.01	43.35	12.20	-50.1	-51.8	15.4	6.03e-01	0	26	0	259522560	69	4291
2026-01-05 23:55:16.00	43.89	12.38	-50.1	-51.8	15.4	6.02e-01	0	26	0	265289728	69	4285
2026-01-05 23:55:18.98	44.44	12.56	-50.0	-51.7	15.4	6.04e-01	0	26	0	270532608	69	4240
2026-01-05 23:55:21.97	45.00	12.73	-50.2	-52.0	15.4	6.02e-01	0	26	0	276299776	69	4345
2026-01-05 23:55:24.96	45.56	12.91	-50.0	-51.8	15.4	6.04e-01	0	26	0	282066944	69	4250
2026-01-05 23:55:27.96	46.14	13.08	-49.8	-51.6	15.3	6.04e-01	0	26	0	287834112	68	4393
2026-01-05 23:55:30.96	46.72	13.26	-49.8	-51.5	15.4	6.04e-01	0	26	0	293076992	68	4372
2026-01-05 23:55:33.95	47.30	13.43	-49.9	-51.7	15.3	6.05e-01	0	26	0	298844160	68	4444
2026-01-05 23:55:36.94	47.90	13.60	-50.0	-51.8	15.3	6.03e-01	0	26	0	304611328	68	4501
2026-01-05 23:55:39.93	48.50	13.77	-49.8	-51.5	15.4	6.05e-01	0	26	0	309854208	68	4374
2026-01-05 23:55:42.90	49.10	13.93	-49.7	-51.4	15.4	6.04e-01	0	26	0	315621376	68	4312
2026-01-05 23:55:45.89	49.72	14.10	-49.9	-51.6	15.4	6.04e-01	0	26	0	321388544	68	4405
2026-01-05 23:55:48.89	50.34	14.27	-49.8	-51.5	15.4	5.99e-01	0	26	0	326631424	68	4391
2026-01-05 23:55:51.87	50.97	14.43	-49.8	-51.5	15.4	6.03e-01	0	26	0	332398592	68	4347
2026-01-05 23:55:54.87	51.61	14.59	-49.7	-51.4	15.4	6.03e-01	0	26	0	338165760	68	4328
2026-01-05 23:55:57.88	52.25	14.75	-49.8	-51.5	15.4	6.03e-01	0	26	0	343408640	68	4363
2026-01-05 23:56:00.87	52.90	14.90	-49.7	-51.4	15.4	6.02e-01	0	26	0	349175808	68	4331
2026-01-05 23:56:03.87	53.56	15.06	-49.8	-51.5	15.4	6.03e-01	0	26	0	354942976	68	4342
2026-01-05 23:56:06.85	54.23	15.21	-49.7	-51.3	15.4	6.07e-01	0	26	0	360185856	68	4273
2026-01-05 23:56:09.84	54.90	15.36	-49.7	-51.4	15.4	6.03e-01	0	26	0	365953024	68	4329
2026-01-05 23:56:12.83	55.58	15.51	-49.8	-51.5	15.4	6.04e-01	0	26	0	371720192	68	4369
2026-01-05 23:56:15.83	56.27	15.65	-49.7	-51.3	15.4	6.03e-01	0	26	0	377487360	68	4276
2026-01-05 23:56:18.82	56.96	15.79	-49.7	-51.4	15.4	6.04e-01	0	26	0	382730240	68	4305
2026-01-05 23:56:21.81	57.66	15.93	-49.7	-51.4	15.4	6.03e-01	0	26	0	388497408	68	4298
2026-01-05 23:56:24.81	58.37	16.07	-49.7	-51.3	15.4	6.04e-01	0	26	0	394264576	68	4279
2026-01-05 23:56:27.79	59.08	16.20	-49.7	-51.4	15.4	6.05e-01	0	26	0	399507456	68	4317
2026-01-05 23:56:30.77	59.79	16.33	-49.7	-51.4	15.4	6.02e-01	0	26	0	405274624	68	4313
2026-01-05 23:56:33.76	60.52	16.46	-49.7	-51.3	15.4	6.03e-01	0	26	0	411041792	68	4274
2026-01-05 23:56:36.75	61.25	16.58	-49.7	-51.4	15.4	6.04e-01	0	26	0	416284672	68	4313
2026-01-05 23:56:39.75	61.99	16.70	-49.8	-51.5	15.4	6.04e-01	0	26	0	422051840	68	4370
2026-01-05 23:56:42.73	62.74	16.81	-49.8	-51.5	15.4	6.03e-01	0	26	0	427819008	68	4356
2026-01-05 23:56:45.71	63.48	16.92	-49.7	-51.3	15.4	6.02e-01	0	27	0	433586176	68	4283
2026-01-05 23:56:48.71	64.24	17.03	-49.6	-51.3	15.5	6.04e-01	0	26	0	438829056	68	4253
2026-01-05 23:56:51.72	65.01	17.13	-49.7	-51.3	15.4	6.02e-01	0	26	0	444596224	68	4280
2026-01-05 23:56:54.71	65.78	17.23	-49.6	-51.3	15.4	6.05e-01	0	26	0	450363392	68	4262
2026-01-05 23:56:57.71	66.55	17.33	-49.6	-51.3	15.4	6.04e-01	0	26	0	455606272	68	4256
2026-01-05 23:57:00.70	67.33	17.42	-49.8	-51.4	15.4	6.03e-01	0	26	0	461373440	68	4338
2026-01-05 23:57:03.70	68.11	17.50	-49.7	-51.4	15.4	6.04e-01	0	26	0	467140608	68	4309
2026-01-05 23:57:06.68	68.90	17.58	-49.8	-51.5	15.4	6.04e-01	0	26	0	472907776	68	4355
2026-01-05 23:57:09.67	69.69	17.66	-49.8	-51.5	15.4	6.03e-01	0	26	0	478150656	68	4356
2026-01-05 23:57:12.66	70.48	17.73	-49.8	-51.4	15.4	6.01e-01	0	26	0	483917824	68	4331
2026-01-05 23:57:15.64	71.28	17.80	-49.7	-51.3	15.4	6.01e-01	0	26	0	489684992	68	4280
2026-01-05 23:57:18.63	72.08	17.86	-49.6	-51.3	15.4	6.03e-01	0	26	0	494927872	68	4256
2026-01-05 23:57:21.63	72.89	17.92	-49.7	-51.4	15.4	6.03e-01	0	26	0	500695040	68	4330
2026-01-05 23:57:24.61	73.69	17.97	-49.7	-51.3	15.4	6.02e-01	0	26	0	506462208	68	4280
2026-01-05 23:57:27.60	74.50	18.01	-49.9	-51.6	15.3	6.05e-01	0	26	0	511705088	68	4407
2026-01-05 23:57:30.60	75.32	18.05	-49.7	-51.3	15.4	6.03e-01	0	26	0	517472256	68	4284
2026-01-05 23:57:33.58	76.13	18.09	-49.7	-51.4	15.4	6.04e-01	0	26	0	523239424	68	4304
2026-01-05 23:57:36.57	76.95	18.12	-49.7	-51.3	15.4	6.03e-01	0	26	0	528482304	68	4281
2026-01-05 23:57:39.56	77.77	18.14	-49.7	-51.3	15.4	6.03e-01	0	26	0	534249472	68	4280
2026-01-05 23:57:42.55	78.59	18.16	-49.6	-51.3	15.5	6.03e-01	0	26	0	540016640	68	4244
2026-01-05 23:57:45.54	79.41	18.18	-49.6	-51.3	15.5	6.05e-01	0	26	0	545259520	68	4244
2026-01-05 23:57:48.54	80.24	18.19	-49.6	-51.2	15.5	6.04e-01	0	26	0	551026688	68	4222
2026-01-05 23:57:51.54	81.06	18.19	-49.7	-51.4	15.4	6.04e-01	0	26	0	556793856	68	4325
2026-01-05 23:57:54.53	81.89	18.19	-49.7	-51.3	15.4	6.03e-01	0	26	0	562561024	68	4282
2026-01-05 23:57:57.52	82.71	18.18	-49.8	-51.5	15.4	6.03e-01	0	26	0	567803904	68	4364
2026-01-05 23:58:00.51	83.53	18.17	-49.8	-51.5	15.4	6.04e-01	0	26	0	573571072	68	4342
2026-01-05 23:58:03.50	84.35	18.15	-49.7	-51.3	15.4	6.04e-01	0	26	0	579338240	68	4286
2026-01-05 23:58:06.48	85.17	18.12	-49.7	-51.3	15.4	6.04e-01	0	26	0	584581120	68	4280
2026-01-05 23:58:09.47	85.99	18.09	-49.6	-51.2	15.5	6.03e-01	0	26	0	590348288	68	4217
2026-01-05 23:58:12.45	86.80	18.06	-49.6	-51.2	15.5	6.03e-01	0	26	0	596115456	68	4215
2026-01-05 23:58:15.42	87.61	18.02	-49.5	-51.1	15.5	6.02e-01	0	26	0	601358336	68	4167
2026-01-05 23:58:18.41	88.42	17.97	-49.6	-51.3	15.5	6.03e-01	0	26	0	607125504	68	4252
2026-01-05 23:58:21.41	89.24	17.92	-49.5	-51.1	15.5	6.05e-01	0	26	0	612892672	68	4193
2026-01-05 23:58:24.39	90.04	17.86	-49.5	-51.1	15.5	6.03e-01	0	26	0	618135552	68	4183
2026-01-05 23:58:27.37	90.84	17.80	-49.5	-51.1	15.5	6.04e-01	0	26	0	623902720	68	4190
2026-01-05 23:58:30.36	91.64	17.74	-49.5	-51.2	15.5	6.02e-01	0	26	0	629669888	68	4201
2026-01-05 23:58:33.36	92.44	17.67	-49.5	-51.2	15.5	6.05e-01	0	26	0	635437056	68	4204
2026-01-05 23:58:36.34	93.23	17.59	-49.6	-51.2	15.5	6.03e-01	0	26	0	640679936	68	4232
2026-01-05 23:58:39.34	94.02	17.51	-49.6	-51.3	15.5	6.05e-01	0	26	0	646447104	68	4260
2026-01-05 23:58:42.34	94.81	17.42	-49.5	-51.1	15.5	6.02e-01	0	26	0	652214272	68	4177
2026-01-05 23:58:45.34	95.59	17.33	-49.5	-51.1	15.5	6.03e-01	0	26	0	657457152	68	4165
2026-01-05 23:58:48.34	96.37	17.24	-49.6	-51.2	15.4	6.05e-01	0	26	0	663224320	68	4230
2026-01-05 23:58:51.34	97.14	17.14	-49.6	-51.2	15.5	6.03e-01	0	26	0	668991488	68	4237
2026-01-05 23:58:54.33	97.90	17.04	-49.5	-51.1	15.5	6.03e-01	0	26	0	674234368	68	4170
2026-01-05 23:58:57.34	98.67	16.93	-49.5	-51.2	15.5	6.03e-01	0	26	0	680001536	68	4209
2026-01-05 23:59:00.33	99.42	16.82	-49.5	-51.1	15.5	6.03e-01	0	26	0	685768704	68	4164
2026-01-05 23:59:03.33	100.17	16.70	-49.5	-51.1	15.5	6.01e-01	0	27	0	691535872	68	4193
2026-01-05 23:59:06.32	100.91	16.58	-49.5	-51.1	15.5	6.02e-01	0	26	0	696778752	68	4193
2026-01-05 23:59:09.32	101.65	16.46	-49.4	-51.1	15.5	6.04e-01	0	26	0	702545920	68	4153
2026-01-05 23:59:12.31	102.38	16.33	-49.5	-51.1	15.5	6.05e-01	0	26	0	708313088	68	4186
2026-01-05 23:59:15.31	103.10	16.20	-49.5	-51.2	15.5	6.05e-01	0	26	0	714080256	68	4212
2026-01-05 23:59:18.30	103.82	16.07	-49.6	-51.3	15.4	6.01e-01	0	26	0	719323136	68	4244
2026-01-05 23:59:21.30	104.53	15.93	-49.4	-51.0	15.5	6.05e-01	0	26	0	725090304	68	4130
2026-01-05 23:59:24.30	105.23	15.79	-49.6	-51.3	15.3	6.02e-01	0	26	0	730857472	67	4497
2026-01-05 23:59:27.30	105.93	15.65	-49.5	-51.2	15.3	6.05e-01	0	26	0	736100352	67	4459
2026-01-05 23:59:30.30	106.62	15.51	-49.4	-51.1	15.4	6.02e-01	0	26	0	741867520	67	4401
2026-01-05 23:59:33.30	107.31	15.36	-49.4	-51.1	15.4	6.03e-01	0	26	0	747634688	67	4406
2026-01-05 23:59:36.30	107.98	15.21	-49.4	-51.1	15.3	6.05e-01	0	26	0	753401856	67	4416
2026-01-05 23:59:39.30	108.65	15.05	-49.4	-51.1	15.4	6.05e-01	0	26	0	758644736	67	4404
2026-01-05 23:59:42.30	109.32	14.90	-49.5	-51.1	15.4	6.02e-01	0	26	0	764411904	67	4441
2026-01-05 23:59:45.30	109.97	14.74	-49.5	-51.1	15.4	6.03e-01	0	26	0	770179072	67	4428
2026-01-05 23:59:48.29	110.62	14.58	-49.5	-51.2	15.3	6.03e-01	0	26	0	775421952	67	4449
2026-01-05 23:59:51.28	111.26	14.42	-49.6	-51.3	15.3	6.01e-01	0	26	0	781189120	67	4498
2026-01-05 23:59:54.29	111.89	14.26	-49.6	-51.2	15.3	6.04e-01	0	26	0	786956288	67	4479
2026-01-05 23:59:57.29	112.52	14.09	-49.6	-51.3	15.3	6.02e-01	0	26	0	792723456	67	4495
2026-01-06 00:00:00.28	113.14	13.92	-49.6	-51.3	15.3	6.03e-01	0	26	0	797966336	67	4515
2026-01-06 00:00:03.28	113.75	13.75	-49.5	-51.2	15.3	6.04e-01	0	26	0	803733504	67	4454
2026-01-06 00:00:06.28	114.35	13.58	-49.5	-51.2	15.3	6.02e-01	0	26	0	809500672	67	4482
2026-01-06 00:00:09.29	114.95	13.41	-49.7	-51.3	15.3	6.02e-01	0	26	0	815267840	67	4541
2026-01-06 00:00:12.29	115.54	13.24	-49.7	-51.4	15.3	6.05e-01	0	26	0	820510720	67	4574
2026-01-06 00:00:15.29	116.13	13.06	-49.7	-51.4	15.3	6.04e-01	0	26	0	826277888	67	4571
2026-01-06 00:00:18.28	116.70	12.89	-49.7	-51.4	15.3	6.03e-01	0	26	0	832045056	67	4570
2026-01-06 00:00:21.27	117.27	12.71	-49.7	-51.4	15.3	6.02e-01	0	26	0	837287936	67	4596
2026-01-06 00:00:24.26	117.83	12.53	-49.8	-51.6	15.2	6.04e-01	0	26	0	843055104	67	4657
2026-01-06 00:00:27.26	118.38	12.36	-49.7	-51.4	15.3	6.05e-01	0	26	0	848822272	67	4589
2026-01-06 00:00:30.24	118.93	12.18	-49.8	-51.5	15.2	6.04e-01	0	26	0	854065152	67	4629
2026-01-06 00:00:33.23	119.47	12.00	-49.8	-51.5	15.2	6.03e-01	0	26	0	859832320	67	4638
2026-01-06 00:00:36.23	120.00	11.82	-49.9	-51.6	15.2	6.03e-01	0	27	0	865599488	67	4682
2026-01-06 00:00:39.24	120.53	11.64	-49.9	-51.7	15.2	6.03e-01	0	26	0	871366656	67	4722
2026-01-06 00:00:42.24	121.05	11.45	-49.9	-51.7	15.2	6.03e-01	0	26	0	876609536	67	4715
2026-01-06 00:00:45.23	121.56	11.27	-49.9	-51.6	15.2	6.03e-01	0	26	0	882376704	67	4705
2026-01-06 00:00:48.22	122.07	11.09	-49.9	-51.7	15.2	6.02e-01	0	26	0	888143872	67	4744
2026-01-06 00:00:51.22	122.57	10.91	-49.9	-51.7	15.2	6.03e-01	0	26	0	893911040	67	4733
2026-01-06 00:00:54.21	123.06	10.72	-49.9	-51.6	15.2	6.03e-01	0	26	0	899153920	67	4702
2026-01-06 00:00:57.21	123.55	10.54	-49.9	-51.7	15.2	6.02e-01	0	26	0	904921088	67	4727
2026-01-06 00:01:00.20	124.03	10.36	-50.2	-52.0	15.2	6.04e-01	0	26	0	910688256	68	4630
2026-01-06 00:01:03.20	124.51	10.17	-50.3	-52.1	15.2	6.03e-01	0	26	0	915931136	68	4705
2026-01-06 00:01:06.20	124.97	9.99	-50.3	-52.2	15.1	6.03e-01	0	26	0	921698304	68	4706
2026-01-06 00:01:09.19	125.44	9.80	-50.1	-52.0	15.2	6.05e-01	0	26	0	927465472	68	4606
2026-01-06 00:01:12.16	125.89	9.62	-50.2	-52.0	15.2	6.02e-01	0	26	0	932708352	68	4624
2026-01-06 00:01:15.16	126.34	9.44	-50.1	-51.9	15.2	6.03e-01	0	26	0	938475520	68	4586
2026-01-06 00:01:18.16	126.78	9.25	-50.3	-52.2	15.2	6.05e-01	0	26	0	944242688	68	4734
2026-01-06 00:01:21.15	127.22	9.07	-50.3	-52.1	15.2	6.03e-01	0	26	0	949485568	68	4702
2026-01-06 00:01:24.14	127.65	8.89	-50.4	-52.3	15.1	6.06e-01	0	26	0	955252736	68	4810
2026-01-06 00:01:27.12	128.08	8.71	-50.5	-52.4	15.1	6.01e-01	0	26	0	961019904	68	4869
2026-01-06 00:01:30.10	128.50	8.52	-50.5	-52.4	15.1	6.05e-01	0	27	0	966262784	68	4839
2026-01-06 00:01:33.09	128.91	8.34	-50.3	-52.2	15.1	6.03e-01	0	26	0	972029952	68	4737
2026-01-06 00:01:36.08	129.32	8.16	-50.5	-52.5	15.1	6.03e-01	0	26	0	977797120	68	4872
2026-01-06 00:01:39.09	129.73	7.98	-50.5	-52.4	15.1	6.04e-01	0	26	0	983564288	68	4834
2026-01-06 00:01:42.09	130.13	7.79	-50.6	-52.6	15.0	6.04e-01	0	26	0	988807168	68	4946
2026-01-06 00:01:45.08	130.53	7.61	-50.6	-52.6	15.2	6.04e-01	0	26	0	994574336	69	4676
2026-01-06 00:01:48.09	130.92	7.43	-50.8	-52.8	15.1	6.02e-01	0	26	0	1000341504	69	4765
2026-01-06 00:01:51.09	131.30	7.25	-50.7	-52.8	15.1	6.04e-01	0	26	0	1006108672	69	4773
2026-01-06 00:01:54.08	131.68	7.07	-50.8	-52.9	15.0	6.06e-01	0	26	0	1011351552	69	4825
2026-01-06 00:01:57.08	132.06	6.89	-50.8	-52.9	15.0	6.05e-01	0	26	0	1017118720	69	4827
2026-01-06 00:02:00.07	132.43	6.71	-50.7	-52.7	15.1	6.04e-01	0	26	0	1022885888	69	4743
2026-01-06 00:02:03.05	132.79	6.53	-50.8	-52.8	15.1	6.01e-01	0	26	0	1028128768	69	4810
2026-01-06 00:02:06.03	133.15	6.35	-50.8	-52.9	15.1	6.04e-01	0	26	0	1033895936	69	4822
2026-01-06 00:02:09.03	133.51	6.18	-50.9	-53.0	15.0	6.02e-01	0	26	0	1039663104	69	4913
2026-01-06 00:02:12.02	133.86	6.00	-51.0	-53.2	14.9	6.02e-01	0	26	0	1045430272	69	4994
2026-01-06 00:02:15.00	134.20	5.82	-51.1	-53.3	15.1	6.04e-01	0	26	0	1050673152	70	4765
2026-01-06 00:02:18.00	134.55	5.65	-51.2	-53.4	15.0	6.02e-01	0	26	0	1056440320	70	4866
2026-01-06 00:02:21.00	134.89	5.47	-51.4	-53.6	14.9	6.02e-01	0	26	0	1062207488	70	4975
2026-01-06 00:02:23.99	135.22	5.29	-51.2	-53.5	14.9	6.05e-01	0	26	0	1067450368	70	4894
2026-01-06 00:02:26.97	135.55	5.12	-51.3	-53.6	14.9	6.01e-01	0	27	0	1073217536	70	4929
2026-01-06 00:02:29.96	135.87	4.95	-57.4	-69.1	7.4	6.46e-01	58	26	0	1078984704	82	14872
2026-01-06 00:02:32.96	136.20	4.77	-58.8	-78.1	3.8	7.45e-01	0	26	104	1078984704	85	35177
2026-01-06 00:02:35.96	136.51	4.60	-59.2	-78.6	3.8	7.47e-01	0	26	104	1078984704	86	34929
2026-01-06 00:02:38.96	136.83	4.43	-59.5	-78.8	3.8	7.46e-01	0	27	104	1078984704	86	36028
2026-01-06 00:02:41.96	137.14	4.25	-59.6	-79.0	3.9	7.45e-01	0	26	104	1078984704	87	34760
2026-01-06 00:02:44.96	137.45	4.08	-59.8	-79.1	3.8	7.46e-01	0	26	104	1078984704	87	35240
2026-01-06 00:02:47.98	137.75	3.91	-59.9	-79.3	3.8	7.47e-01	0	26	104	1078984704	87	35878
2026-01-06 00:02:50.99	138.05	3.74	-60.0	-79.4	3.8	7.46e-01	0	27	104	1078984704	87	36280
2026-01-06 00:02:53.99	138.35	3.57	-60.0	-79.4	3.8	7.46e-01	0	27	104	1078984704	87	36284
2026-01-06 00:02:56.97	138.64	3.40	-60.0	-79.4	3.8	7.47e-01	0	27	104	1078984704	87	36114
2026-01-06 00:02:59.95	138.93	3.23	-59.9	-79.3	3.8	7.49e-01	0	27	104	1078984704	87	35901
2026-01-06 00:03:02.95	139.21	3.07	-59.9	-79.3	3.8	7.46e-01	0	26	104	1078984704	87	35878
2026-01-06 00:03:05.94	139.49	2.90	-59.9	-79.3	3.8	7.47e-01	0	27	104	1078984704	87	35796
2026-01-06 00:03:08.94	139.77	2.73	-59.9	-79.3	3.8	7.46e-01	0	27	104	1078984704	87	35728
2026-01-06 00:03:11.93	140.05	2.57	-59.9	-79.2	3.8	7.47e-01	0	27	104	1078984704	87	35681
2026-01-06 00:03:14.92	140.32	2.40	-59.8	-79.2	3.8	7.46e-01	0	27	104	1078984704	87	35581
2026-01-06 00:03:17.93	140.59	2.24	-59.8	-79.2	3.8	7.48e-01	0	27	104	1078984704	87	35533
2026-01-06 00:03:20.91	140.85	2.07	-59.8	-79.2	3.8	7.50e-01	0	27	104	1078984704	87	35554
2026-01-06 00:03:23.90	141.11	1.91	-59.8	-79.2	3.9	7.45e-01	0	27	104	1078984704	87	35516

#Closed at: 2026-01-06 00:03:24
#Recorded file [1078 MB]: D:/lorett/data/31004_260106_025218.dat