passes_logs/2026/01/05/R3.2S_Murmansk/R3.2S_Murmansk__20260105_015927_FENGYUN_3D_rec.log

#Pass ID: 20260105_015927_FENGYUN 3D
#Satellite: FENGYUN 3D
#Configuration: FENGYUN 3D
#almurnet v.1.7.20251203
#Start time: 2026-01-05 01:59:29

#Version: 2.2.20231116
#Station: R3.2S_Murmansk
#Location: 33.079688 lon 68.888172 lat
#TLE: 1 43010U 17072A   26004.50247883 -.00000063  00000+0 -78815-5 0  9998
#TLE: 2 43010  98.9915 336.1565 0001968 126.3752 233.7605 14.19691805421760

#Time	Az	El	Level	Level2	SNR	BER	BlckErr	Temp	State	Recorded	gain1	gain2
2026-01-05 01:59:29.08	22.64	2.13	-58.2	-70.5	3.8	8.46e-01	0	26	0	0	83	14074
2026-01-05 01:59:33.07	22.74	2.38	-58.2	-70.7	3.8	8.45e-01	0	26	104	0	81	16268
2026-01-05 01:59:37.07	22.84	2.63	-58.1	-69.6	3.8	8.45e-01	0	26	104	0	81	14263
2026-01-05 01:59:41.05	22.95	2.89	-58.0	-68.1	4.1	8.40e-01	0	26	0	0	81	12014
2026-01-05 01:59:45.04	23.05	3.15	-57.8	-67.0	4.4	8.25e-01	0	26	0	0	81	10601
2026-01-05 01:59:49.03	23.16	3.41	-57.7	-66.0	4.8	7.98e-01	0	26	0	0	81	9430
2026-01-05 01:59:53.01	23.27	3.67	-56.7	-62.0	7.5	1.24e-01	0	27	0	14680064	80	6282
2026-01-05 01:59:57.01	23.38	3.94	-55.0	-58.2	10.6	8.80e-04	0	27	0	36700160	76	5133
2026-01-05 02:00:01.01	23.49	4.21	-54.3	-57.1	11.3	6.29e-05	0	27	0	59768832	75	4771
2026-01-05 02:00:05.01	23.61	4.48	-54.7	-57.8	10.8	2.68e-04	0	27	0	81788928	75	5180
2026-01-05 02:00:08.99	23.72	4.76	-55.8	-59.9	9.1	5.44e-03	0	27	0	104857600	76	6253
2026-01-05 02:00:12.98	23.84	5.03	-56.6	-61.7	7.7	5.93e-02	0	27	0	126877696	78	6816
2026-01-05 02:00:16.98	23.96	5.32	-53.0	-55.2	12.5	5.29e-04	0	27	0	144703488	72	4562
2026-01-05 02:00:20.98	24.08	5.60	-51.7	-53.6	13.4	0.00e+00	0	27	0	163577856	70	4245
2026-01-05 02:00:24.96	24.21	5.88	-50.5	-52.1	14.0	0.00e+00	0	27	0	185597952	67	4246
2026-01-05 02:00:28.94	24.33	6.17	-50.4	-51.9	14.0	0.00e+00	0	27	0	208666624	67	4179
2026-01-05 02:00:32.95	24.46	6.47	-49.8	-51.2	14.3	0.00e+00	0	27	0	230686720	66	4066
2026-01-05 02:00:36.95	24.59	6.76	-49.3	-50.6	14.5	0.00e+00	0	27	0	253755392	65	4049
2026-01-05 02:00:40.94	24.72	7.06	-49.2	-50.5	14.4	0.00e+00	0	27	0	275775488	64	4227
2026-01-05 02:00:44.93	24.86	7.36	-48.8	-50.1	14.6	0.00e+00	0	27	0	297795584	64	4023
2026-01-05 02:00:48.92	25.00	7.67	-48.7	-50.0	14.5	0.00e+00	0	27	0	320864256	63	4216
2026-01-05 02:00:52.92	25.14	7.98	-48.7	-49.9	14.6	0.00e+00	0	27	0	342884352	63	4188
2026-01-05 02:00:56.91	25.28	8.29	-48.6	-49.9	14.6	0.00e+00	0	27	0	365953024	63	4156
2026-01-05 02:01:00.91	25.42	8.61	-48.7	-49.9	14.6	0.00e+00	0	27	0	387973120	63	4185
2026-01-05 02:01:04.92	25.57	8.93	-48.6	-49.9	14.7	0.00e+00	0	27	0	411041792	63	4146
2026-01-05 02:01:08.92	25.72	9.26	-48.7	-50.0	14.6	0.00e+00	0	28	0	433061888	63	4207
2026-01-05 02:01:12.92	25.88	9.59	-48.7	-50.0	14.6	0.00e+00	0	27	0	455081984	63	4228
2026-01-05 02:01:16.91	26.04	9.92	-48.6	-49.9	14.7	0.00e+00	0	28	0	478150656	63	4174
2026-01-05 02:01:20.90	26.20	10.26	-48.6	-49.8	14.7	0.00e+00	0	27	0	500170752	63	4138
2026-01-05 02:01:24.91	26.36	10.61	-48.5	-49.8	14.7	0.00e+00	0	27	0	523239424	63	4116
2026-01-05 02:01:28.92	26.53	10.95	-48.2	-49.4	14.9	0.00e+00	0	28	0	545259520	63	3949
2026-01-05 02:01:32.93	26.70	11.31	-47.9	-49.1	14.9	0.00e+00	0	27	0	568328192	62	4036
2026-01-05 02:01:36.91	26.87	11.66	-47.8	-49.0	14.9	0.00e+00	0	28	0	590348288	62	3976
2026-01-05 02:01:40.92	27.05	12.03	-47.8	-48.9	15.0	0.00e+00	0	28	0	613416960	62	3945
2026-01-05 02:01:44.90	27.23	12.39	-47.7	-48.9	15.0	0.00e+00	0	27	0	635437056	62	3943
2026-01-05 02:01:48.88	27.42	12.77	-47.8	-49.0	14.9	0.00e+00	0	28	0	658505728	62	3971
2026-01-05 02:01:52.87	27.61	13.14	-47.7	-48.8	15.0	0.00e+00	0	28	0	680525824	62	3911
2026-01-05 02:01:56.87	27.81	13.53	-47.7	-48.9	14.8	0.00e+00	0	28	0	702545920	61	4178
2026-01-05 02:02:00.87	28.01	13.92	-47.5	-48.6	14.9	0.00e+00	0	28	0	725614592	61	4040
2026-01-05 02:02:04.86	28.21	14.32	-47.4	-48.6	15.0	0.00e+00	0	27	0	747634688	61	4005
2026-01-05 02:02:08.86	28.42	14.72	-47.2	-48.3	15.1	0.00e+00	0	28	0	770703360	61	3903
2026-01-05 02:02:12.85	28.64	15.13	-47.1	-48.2	15.0	0.00e+00	0	28	0	792723456	60	4072
2026-01-05 02:02:16.85	28.86	15.54	-47.1	-48.2	15.0	0.00e+00	0	28	0	814743552	60	4069
2026-01-05 02:02:20.85	29.09	15.97	-47.1	-48.2	15.0	0.00e+00	0	28	0	837812224	60	4080
2026-01-05 02:02:24.84	29.32	16.40	-46.9	-48.0	15.1	0.00e+00	0	28	0	859832320	60	3988
2026-01-05 02:02:28.84	29.56	16.83	-47.0	-48.1	14.9	0.00e+00	0	28	0	882900992	59	4270
2026-01-05 02:02:32.82	29.80	17.28	-47.0	-48.1	14.9	0.00e+00	0	28	0	904921088	59	4284
2026-01-05 02:02:36.83	30.06	17.73	-46.8	-48.0	15.0	0.00e+00	0	28	0	927989760	59	4199
2026-01-05 02:02:40.82	30.32	18.19	-46.8	-47.9	15.0	0.00e+00	0	28	0	950009856	59	4165
2026-01-05 02:02:44.80	30.58	18.66	-46.7	-47.8	15.1	0.00e+00	0	28	0	972029952	59	4114
2026-01-05 02:02:48.78	30.86	19.13	-46.5	-47.6	15.1	0.00e+00	0	28	0	995098624	59	4012
2026-01-05 02:02:52.76	31.14	19.62	-46.4	-47.5	15.1	0.00e+00	0	28	0	1017118720	59	3995
2026-01-05 02:02:56.75	31.43	20.11	-46.6	-47.7	15.1	0.00e+00	0	28	0	1040187392	59	4060
2026-01-05 02:03:00.76	31.73	20.62	-46.4	-47.5	15.2	0.00e+00	0	28	0	1062207488	59	3981
2026-01-05 02:03:04.76	32.04	21.13	-46.2	-47.3	15.2	0.00e+00	0	28	0	1084227584	59	3890
2026-01-05 02:03:08.75	32.36	21.66	-46.1	-47.1	15.2	0.00e+00	0	28	0	1107296256	58	4049
2026-01-05 02:03:12.75	32.70	22.19	-46.0	-47.1	15.2	0.00e+00	0	28	0	1129316352	58	4014
2026-01-05 02:03:16.75	33.04	22.74	-46.0	-47.1	15.2	0.00e+00	0	28	0	1152385024	58	4006
2026-01-05 02:03:20.74	33.39	23.29	-46.0	-47.1	15.2	0.00e+00	0	28	0	1174405120	58	4021
2026-01-05 02:03:24.73	33.76	23.86	-46.0	-47.0	15.2	0.00e+00	0	28	0	1197473792	58	4000
2026-01-05 02:03:28.73	34.14	24.44	-45.8	-46.8	15.3	0.00e+00	0	28	0	1219493888	58	3904
2026-01-05 02:03:32.74	34.53	25.03	-45.3	-46.4	15.3	0.00e+00	0	28	0	1242562560	57	3917
2026-01-05 02:03:36.72	34.94	25.63	-45.2	-46.2	15.3	0.00e+00	0	28	0	1264582656	57	3866
2026-01-05 02:03:40.70	35.36	26.24	-45.5	-46.5	15.2	0.00e+00	0	28	0	1286602752	57	3996
2026-01-05 02:03:44.70	35.80	26.87	-45.3	-46.3	15.3	0.00e+00	0	28	0	1309671424	57	3904
2026-01-05 02:03:48.68	36.25	27.51	-45.3	-46.4	15.3	0.00e+00	0	28	0	1331691520	57	3926
2026-01-05 02:03:52.66	36.72	28.16	-45.4	-46.4	15.3	0.00e+00	0	28	0	1353711616	57	3949
2026-01-05 02:03:56.65	37.21	28.83	-45.4	-46.5	15.3	0.00e+00	0	28	0	1376780288	57	3962
2026-01-05 02:04:00.65	37.73	29.51	-45.3	-46.3	15.3	0.00e+00	0	28	0	1398800384	57	3889
2026-01-05 02:04:04.64	38.26	30.20	-44.9	-45.9	15.3	0.00e+00	0	28	0	1421869056	56	3951
2026-01-05 02:04:08.64	38.82	30.91	-45.3	-46.4	15.2	0.00e+00	0	28	0	1443889152	56	4146
2026-01-05 02:04:12.65	39.40	31.64	-45.3	-46.3	15.2	0.00e+00	0	28	0	1466957824	56	4143
2026-01-05 02:04:16.57	40.00	32.37	-45.1	-46.1	15.2	0.00e+00	0	28	0	1488977920	56	4036
2026-01-05 02:04:20.57	40.63	33.13	-45.0	-46.1	15.2	0.00e+00	0	28	0	1512046592	56	4006
2026-01-05 02:04:24.55	41.30	33.89	-45.2	-46.2	15.2	0.00e+00	0	28	0	1534066688	56	4069
2026-01-05 02:04:28.54	41.99	34.68	-45.0	-46.0	15.3	0.00e+00	0	28	0	1556086784	56	3974
2026-01-05 02:04:32.54	42.72	35.48	-45.1	-46.1	15.2	0.00e+00	0	28	0	1579155456	56	4047
2026-01-05 02:04:36.55	43.49	36.30	-44.9	-45.9	15.3	0.00e+00	0	28	0	1601175552	56	3940
2026-01-05 02:04:40.53	44.30	37.13	-44.9	-45.9	15.3	0.00e+00	0	28	0	1624244224	56	3949
2026-01-05 02:04:44.51	45.14	37.98	-44.4	-45.4	15.3	0.00e+00	0	28	0	1646264320	55	3946
2026-01-05 02:04:48.50	46.03	38.84	-44.7	-45.8	15.2	0.00e+00	0	28	0	1668284416	55	4105
2026-01-05 02:04:52.49	46.97	39.71	-44.8	-45.8	15.2	0.00e+00	0	28	0	1691353088	55	4123
2026-01-05 02:04:56.48	47.96	40.60	-44.9	-45.9	15.2	0.00e+00	0	28	0	1713373184	55	4187
2026-01-05 02:05:00.48	49.01	41.51	-45.0	-46.0	15.1	0.00e+00	0	28	0	1736441856	55	4233
2026-01-05 02:05:04.47	50.11	42.42	-44.9	-46.0	15.2	0.00e+00	0	28	0	1758461952	55	4198
2026-01-05 02:05:08.47	51.29	43.35	-45.1	-46.1	15.1	0.00e+00	0	28	0	1781530624	55	4271
2026-01-05 02:05:12.47	52.53	44.28	-45.1	-46.1	15.1	0.00e+00	0	28	0	1803550720	55	4278
2026-01-05 02:05:16.48	53.84	45.23	-46.0	-47.1	15.1	0.00e+00	0	28	0	1825570816	57	4249
2026-01-05 02:05:20.48	55.24	46.18	-45.6	-46.6	15.2	0.00e+00	0	28	0	1848639488	57	4046
2026-01-05 02:05:24.49	56.72	47.13	-45.7	-46.8	15.2	0.00e+00	0	28	0	1870659584	57	4118
2026-01-05 02:05:28.49	58.30	48.08	-45.3	-46.3	15.3	0.00e+00	0	28	0	1893728256	57	3906
2026-01-05 02:05:32.50	59.97	49.03	-45.7	-46.8	15.2	0.00e+00	0	28	0	1916796928	57	4102
2026-01-05 02:05:36.49	61.75	49.97	-45.7	-46.7	15.2	0.00e+00	0	28	0	1938817024	57	4098
2026-01-05 02:05:40.49	63.64	50.90	-45.8	-46.9	15.1	0.00e+00	0	28	0	1960837120	57	4147
2026-01-05 02:05:44.48	65.64	51.81	-45.8	-46.8	15.1	0.00e+00	0	28	0	1983905792	57	4128
2026-01-05 02:05:48.48	67.77	52.71	-45.6	-46.6	15.2	0.00e+00	0	28	0	2005925888	57	4048
2026-01-05 02:05:52.45	70.01	53.57	-46.4	-47.5	15.1	0.00e+00	0	28	0	2028994560	58	4212
2026-01-05 02:05:56.44	72.41	54.40	-46.2	-47.3	15.1	0.00e+00	0	28	0	2051014656	58	4127
2026-01-05 02:06:00.43	74.94	55.20	-46.2	-47.2	15.1	0.00e+00	0	28	0	2073034752	58	4079
2026-01-05 02:06:04.42	77.61	55.95	-46.4	-47.5	15.1	0.00e+00	0	28	0	2096103424	58	4226
2026-01-05 02:06:08.41	80.42	56.64	-46.3	-47.4	15.1	0.00e+00	0	28	0	2118123520	58	4158
2026-01-05 02:06:12.41	83.38	57.28	-46.3	-47.4	15.1	0.00e+00	0	28	0	2141192192	58	4179
2026-01-05 02:06:16.41	86.47	57.84	-46.3	-47.4	15.1	0.00e+00	0	28	0	2163212288	58	4166
2026-01-05 02:06:20.41	89.68	58.33	-46.0	-47.0	15.2	0.00e+00	0	28	0	2186280960	58	3978
2026-01-05 02:06:24.41	93.01	58.74	-45.7	-46.8	15.2	0.00e+00	0	28	0	2208301056	57	4109
2026-01-05 02:06:28.39	96.41	59.06	-46.0	-47.1	15.1	0.00e+00	0	28	0	2230321152	57	4249
2026-01-05 02:06:32.39	99.90	59.29	-45.7	-46.8	15.3	0.00e+00	0	28	0	2253389824	58	3873
2026-01-05 02:06:36.38	103.43	59.42	-45.9	-47.0	15.2	0.00e+00	0	28	0	2275409920	58	3971
2026-01-05 02:06:40.37	106.98	59.45	-46.0	-47.1	15.2	0.00e+00	0	28	0	2298478592	58	4012
2026-01-05 02:06:44.37	110.53	59.39	-45.9	-47.0	15.2	0.00e+00	0	28	0	2320498688	58	3959
2026-01-05 02:06:48.35	114.04	59.23	-46.0	-47.0	15.2	0.00e+00	0	28	0	2342518784	58	4004
2026-01-05 02:06:52.34	117.50	58.97	-46.1	-47.2	15.2	0.00e+00	0	28	0	2365587456	58	4061
2026-01-05 02:06:56.34	120.89	58.62	-46.4	-47.5	15.1	0.00e+00	0	28	0	2387607552	58	4233
2026-01-05 02:07:00.33	124.18	58.18	-46.3	-47.4	15.1	0.00e+00	0	28	0	2410676224	58	4158
2026-01-05 02:07:04.32	127.35	57.66	-46.8	-47.9	15.0	0.00e+00	0	28	0	2432696320	58	4405
2026-01-05 02:07:08.32	130.40	57.07	-46.4	-47.5	15.1	0.00e+00	0	28	0	2454716416	58	4232
2026-01-05 02:07:12.32	133.31	56.41	-46.6	-47.7	15.1	0.00e+00	0	28	0	2477785088	58	4295
2026-01-05 02:07:16.31	136.08	55.70	-46.4	-47.5	15.2	0.00e+00	0	28	0	2499805184	59	3963
2026-01-05 02:07:20.33	138.73	54.93	-46.1	-47.2	15.2	0.00e+00	0	28	0	2522873856	58	4058
2026-01-05 02:07:24.32	141.22	54.12	-46.4	-47.4	15.1	0.00e+00	0	28	0	2544893952	58	4190
2026-01-05 02:07:28.32	143.57	53.27	-46.6	-47.7	15.1	0.00e+00	0	28	0	2567962624	58	4326
2026-01-05 02:07:32.34	145.80	52.38	-46.6	-47.7	15.0	0.00e+00	0	28	0	2589982720	58	4298
2026-01-05 02:07:36.34	147.89	51.48	-46.2	-47.3	15.1	0.00e+00	0	28	0	2613051392	58	4111
2026-01-05 02:07:40.34	149.86	50.56	-46.1	-47.2	15.2	0.00e+00	0	28	0	2635071488	58	4057
2026-01-05 02:07:44.33	151.71	49.62	-45.8	-46.8	15.3	0.00e+00	0	28	0	2658140160	58	3912
2026-01-05 02:07:48.32	153.45	48.67	-45.9	-46.9	15.2	0.00e+00	0	28	0	2680160256	57	4189
2026-01-05 02:07:52.31	155.08	47.72	-45.3	-46.3	15.3	0.00e+00	0	28	0	2703228928	57	3880
2026-01-05 02:07:56.28	156.61	46.78	-45.5	-46.6	15.2	0.00e+00	0	28	0	2725249024	57	4006
2026-01-05 02:08:00.27	158.06	45.82	-45.7	-46.7	15.2	0.00e+00	0	28	0	2747269120	57	4079
2026-01-05 02:08:04.26	159.43	44.88	-45.5	-46.5	15.2	0.00e+00	0	28	0	2770337792	57	4002
2026-01-05 02:08:08.26	160.72	43.93	-45.6	-46.6	15.2	0.00e+00	0	28	0	2792357888	57	4023
2026-01-05 02:08:12.27	161.94	42.99	-45.3	-46.4	15.3	0.00e+00	0	28	0	2815426560	57	3921
2026-01-05 02:08:16.27	163.09	42.07	-45.4	-46.5	15.3	0.00e+00	0	28	0	2837446656	57	3972
2026-01-05 02:08:20.26	164.18	41.15	-45.5	-46.5	15.2	0.00e+00	0	28	0	2859466752	57	3983
2026-01-05 02:08:24.25	165.21	40.25	-45.0	-46.0	15.3	0.00e+00	0	28	0	2882535424	56	4004
2026-01-05 02:08:28.25	166.18	39.36	-45.1	-46.1	15.2	0.00e+00	0	28	0	2904555520	56	4032
2026-01-05 02:08:32.23	167.10	38.49	-45.1	-46.1	15.2	0.00e+00	0	28	0	2927624192	56	4029
2026-01-05 02:08:36.23	167.98	37.63	-44.8	-45.8	15.3	0.00e+00	0	28	0	2949644288	56	3907
2026-01-05 02:08:40.23	168.81	36.78	-45.0	-46.0	15.3	0.00e+00	0	28	0	2971664384	56	4004
2026-01-05 02:08:44.22	169.61	35.95	-45.1	-46.1	15.2	0.00e+00	0	28	0	2994733056	56	4051
2026-01-05 02:08:48.22	170.36	35.13	-45.1	-46.1	15.2	0.00e+00	0	28	0	3016753152	56	4024
2026-01-05 02:08:52.20	171.08	34.34	-45.0	-46.1	15.2	0.00e+00	0	28	0	3039821824	56	4014
2026-01-05 02:08:56.20	171.76	33.55	-44.8	-45.9	15.3	0.00e+00	0	28	0	3061841920	56	3948
2026-01-05 02:09:00.18	172.42	32.79	-44.9	-46.1	15.3	0.00e+00	0	28	0	3084910592	56	4017
2026-01-05 02:09:04.17	173.04	32.03	-45.0	-46.2	15.2	0.00e+00	0	28	0	3106930688	56	4082
2026-01-05 02:09:08.17	173.64	31.29	-45.0	-46.2	15.2	0.00e+00	0	28	0	3128950784	56	4073
2026-01-05 02:09:12.16	174.21	30.57	-45.0	-46.3	15.2	0.00e+00	0	28	0	3152019456	56	4099
2026-01-05 02:09:16.16	174.76	29.86	-45.1	-46.3	15.2	0.00e+00	0	28	0	3174039552	56	4140
2026-01-05 02:09:20.16	175.29	29.17	-45.1	-46.3	15.2	0.00e+00	0	28	0	3197108224	56	4145
2026-01-05 02:09:24.17	175.79	28.49	-45.3	-46.5	15.1	0.00e+00	0	28	0	3219128320	56	4223
2026-01-05 02:09:28.17	176.28	27.82	-45.3	-46.5	15.1	0.00e+00	0	28	0	3242196992	56	4213
2026-01-05 02:09:32.17	176.75	27.17	-45.0	-46.2	15.2	0.00e+00	0	28	0	3264217088	56	4066
2026-01-05 02:09:36.15	177.19	26.53	-45.0	-46.1	15.2	0.00e+00	0	28	0	3287285760	56	4042
2026-01-05 02:09:40.14	177.62	25.91	-45.2	-46.4	15.1	0.00e+00	0	28	0	3309305856	56	4177
2026-01-05 02:09:44.13	178.04	25.30	-45.4	-46.6	15.1	0.00e+00	0	28	0	3331325952	56	4291
2026-01-05 02:09:48.11	178.44	24.70	-45.5	-46.8	15.0	0.00e+00	0	28	0	3354394624	56	4343
2026-01-05 02:09:52.10	178.82	24.11	-45.5	-46.8	15.0	0.00e+00	0	28	0	3376414720	56	4341
2026-01-05 02:09:56.09	179.20	23.54	-45.5	-46.7	15.1	0.00e+00	0	28	0	3398434816	56	4328
2026-01-05 02:10:00.09	179.56	22.97	-45.6	-46.9	15.0	0.00e+00	0	28	0	3421503488	56	4398
2026-01-05 02:10:04.07	179.90	22.42	-45.7	-47.0	15.0	0.00e+00	0	28	0	3443523584	56	4449
2026-01-05 02:10:08.05	180.24	21.88	-45.9	-47.2	15.0	0.00e+00	0	28	0	3466592256	57	4302
2026-01-05 02:10:12.06	180.57	21.35	-46.1	-47.3	15.0	0.00e+00	0	28	0	3488612352	57	4378
2026-01-05 02:10:16.06	180.88	20.82	-46.2	-47.4	14.9	0.00e+00	0	28	0	3511681024	57	4430
2026-01-05 02:10:20.08	181.19	20.31	-46.3	-47.6	14.9	0.00e+00	0	28	0	3533701120	57	4512
2026-01-05 02:10:24.07	181.49	19.81	-46.5	-47.8	14.9	0.00e+00	0	28	0	3556769792	58	4348
2026-01-05 02:10:28.06	181.77	19.31	-46.8	-48.1	14.8	0.00e+00	0	28	0	3578789888	58	4535
2026-01-05 02:10:32.07	182.05	18.83	-46.7	-48.1	14.8	0.00e+00	0	28	0	3600809984	58	4497
2026-01-05 02:10:36.07	182.32	18.35	-46.7	-48.0	14.9	0.00e+00	0	28	0	3623878656	58	4488
2026-01-05 02:10:40.07	182.59	17.88	-46.8	-48.1	14.8	0.00e+00	0	28	0	3645898752	58	4509
2026-01-05 02:10:44.08	182.84	17.42	-46.8	-48.1	14.9	0.00e+00	0	28	0	3668967424	58	4508
2026-01-05 02:10:48.07	183.09	16.97	-46.8	-48.1	14.8	0.00e+00	0	28	0	3690987520	58	4538
2026-01-05 02:10:52.06	183.33	16.53	-47.1	-48.4	14.8	0.00e+00	0	28	0	3714056192	59	4409
2026-01-05 02:10:56.05	183.57	16.09	-47.4	-48.7	14.7	0.00e+00	0	28	0	3736076288	59	4567
2026-01-05 02:11:00.03	183.80	15.67	-47.1	-48.3	14.9	0.00e+00	0	28	0	3758096384	60	4145
2026-01-05 02:11:04.01	184.02	15.25	-47.2	-48.5	14.9	0.00e+00	0	28	0	3781165056	60	4223
2026-01-05 02:11:08.00	184.23	14.83	-47.2	-48.4	14.9	0.00e+00	0	28	0	3803185152	60	4192
2026-01-05 02:11:12.01	184.45	14.42	-47.2	-48.5	14.9	0.00e+00	0	28	0	3826253824	60	4230
2026-01-05 02:11:16.00	184.65	14.02	-47.3	-48.5	14.9	0.00e+00	0	28	0	3848273920	60	4241
2026-01-05 02:11:20.00	184.85	13.63	-47.4	-48.7	14.8	0.00e+00	0	28	0	3871342592	60	4326
2026-01-05 02:11:24.00	185.05	13.24	-47.4	-48.7	14.8	0.00e+00	0	28	0	3893362688	60	4298
2026-01-05 02:11:27.99	185.24	12.85	-47.6	-48.9	14.7	0.00e+00	0	28	0	3915382784	60	4397
2026-01-05 02:11:31.98	185.43	12.48	-47.6	-49.0	14.7	0.00e+00	0	28	0	3938451456	60	4445
2026-01-05 02:11:35.99	185.61	12.10	-47.9	-49.3	14.6	0.00e+00	0	28	0	3960471552	60	4600
2026-01-05 02:11:39.98	185.79	11.74	-48.0	-49.3	14.6	0.00e+00	0	28	0	3983540224	61	4389
2026-01-05 02:11:43.98	185.97	11.37	-48.1	-49.5	14.6	0.00e+00	0	28	0	4005560320	61	4471
2026-01-05 02:11:47.98	186.14	11.02	-48.0	-49.4	14.6	0.00e+00	0	28	0	4028628992	61	4420
2026-01-05 02:11:51.97	186.30	10.67	-48.2	-49.6	14.5	0.00e+00	0	28	0	4050649088	61	4502
2026-01-05 02:11:55.96	186.47	10.32	-48.3	-49.6	14.5	0.00e+00	0	28	0	4073717760	61	4544
2026-01-05 02:11:59.93	186.63	9.98	-48.3	-49.7	14.5	0.00e+00	0	28	0	4095737856	61	4577
2026-01-05 02:12:03.92	186.78	9.64	-48.5	-49.8	14.5	0.00e+00	0	28	0	4117757952	62	4384
2026-01-05 02:12:07.90	186.94	9.31	-48.5	-49.9	14.5	0.00e+00	0	28	0	4139778048	62	4423
2026-01-05 02:12:11.88	187.09	8.98	-48.5	-50.0	14.5	0.00e+00	0	28	0	4162846720	62	4445
2026-01-05 02:12:15.88	187.23	8.66	-48.7	-50.1	14.4	0.00e+00	0	28	0	4184866816	62	4540
2026-01-05 02:12:19.88	187.38	8.34	-48.9	-50.3	14.4	0.00e+00	0	28	0	4207935488	63	4381
2026-01-05 02:12:23.87	187.52	8.02	-48.9	-50.4	14.4	0.00e+00	0	28	0	4229955584	63	4393
2026-01-05 02:12:27.88	187.66	7.71	-49.2	-50.7	14.2	0.00e+00	0	28	0	4253024256	63	4564
2026-01-05 02:12:31.89	187.80	7.40	-49.2	-50.7	14.2	0.00e+00	0	28	0	4275044352	63	4558
2026-01-05 02:12:35.89	187.93	7.09	-49.3	-50.8	14.2	0.00e+00	0	28	0	4298113024	63	4624
2026-01-05 02:12:39.88	188.06	6.79	-49.3	-50.8	14.2	0.00e+00	0	28	0	4320133120	63	4640
2026-01-05 02:12:43.88	188.19	6.49	-49.4	-51.0	14.2	0.00e+00	0	28	0	4342153216	64	4451
2026-01-05 02:12:47.90	188.32	6.19	-49.6	-51.1	14.1	0.00e+00	0	28	0	4365221888	64	4540
2026-01-05 02:12:51.90	188.44	5.90	-49.6	-51.2	14.1	0.00e+00	0	28	0	4387241984	64	4554
2026-01-05 02:12:55.88	188.56	5.61	-49.6	-51.2	14.1	0.00e+00	0	28	0	4410310656	64	4551
2026-01-05 02:12:59.87	188.68	5.32	-49.8	-51.5	13.9	0.00e+00	0	28	0	4432330752	64	4709
2026-01-05 02:13:03.86	188.80	5.04	-49.6	-51.3	14.0	0.00e+00	0	28	0	4455399424	64	4610
2026-01-05 02:13:07.85	188.92	4.76	-59.9	-72.9	3.8	8.46e-01	0	28	104	4459593728	84	17606
2026-01-05 02:13:11.85	189.03	4.48	-60.3	-73.4	3.8	8.46e-01	0	28	104	4459593728	85	17593
2026-01-05 02:13:15.84	189.14	4.21	-60.6	-73.7	3.8	8.45e-01	0	28	104	4459593728	86	17124
2026-01-05 02:13:19.83	189.25	3.94	-60.8	-73.8	3.8	8.45e-01	0	28	104	4459593728	86	17464
2026-01-05 02:13:23.84	189.36	3.67	-60.9	-74.0	3.9	8.46e-01	0	28	104	4459593728	86	17704
2026-01-05 02:13:27.83	189.47	3.40	-60.9	-74.0	3.8	8.46e-01	0	28	104	4459593728	87	16746
2026-01-05 02:13:31.82	189.57	3.14	-60.9	-74.0	3.8	8.45e-01	0	28	104	4459593728	87	16711
2026-01-05 02:13:35.81	189.68	2.88	-60.8	-73.9	3.8	8.46e-01	0	28	104	4459593728	87	16551
2026-01-05 02:13:39.79	189.78	2.62	-60.8	-73.9	3.8	8.46e-01	0	28	104	4459593728	87	16542
2026-01-05 02:13:43.78	189.88	2.36	-60.8	-73.8	3.8	8.46e-01	0	28	104	4459593728	87	16478
2026-01-05 02:13:47.78	189.98	2.11	-60.8	-73.8	3.8	8.46e-01	0	28	104	4459593728	87	16469

#Closed at: 2026-01-05 02:13:49
#Recorded file [4459 MB]: D:/lorett/data/31004_260105_045928.dat