passes_logs/2026/01/05/R3.2S_Murmansk/R3.2S_Murmansk__20260105_123925_SUOMI_NPP_rec.log

#Pass ID: 20260105_123925_SUOMI NPP
#Satellite: SUOMI NPP
#Configuration: NPP
#almurnet v.1.7.20251203
#Start time: 2026-01-05 12:39:27

#Version: 2.2.20231116
#Station: R3.2S_Murmansk
#Location: 33.079688 lon 68.888172 lat
#TLE: 1 37849U 11061A   26003.96724563  .00000164  00000+0  98899-4 0  9990
#TLE: 2 37849  98.7800 306.1116 0002573  82.3190 277.8279 14.19522066735141

#Time	Az	El	Level	Level2	SNR	BER	BlckErr	Temp	State	Recorded	gain1	gain2
2026-01-05 12:39:27.05	230.88	2.07	-58.5	-74.5	3.8	1.49e+00	0	25	0	0	83	22367
2026-01-05 12:39:30.04	231.15	2.22	-58.3	-74.5	3.8	1.49e+00	0	25	104	0	82	23692
2026-01-05 12:39:33.05	231.42	2.36	-58.5	-74.5	3.8	1.49e+00	0	25	104	0	82	23667
2026-01-05 12:39:36.04	231.69	2.51	-58.5	-74.5	3.8	1.49e+00	0	25	104	0	82	23624
2026-01-05 12:39:39.04	231.97	2.66	-58.5	-74.4	3.8	1.49e+00	0	25	104	0	82	23491
2026-01-05 12:39:42.02	232.24	2.81	-58.5	-74.4	3.8	1.49e+00	0	25	104	0	82	23466
2026-01-05 12:39:45.02	232.52	2.96	-58.5	-74.5	3.8	1.49e+00	0	25	104	0	82	23584
2026-01-05 12:39:48.00	232.81	3.10	-58.5	-74.5	3.8	1.49e+00	0	25	104	0	82	23627
2026-01-05 12:39:51.00	233.09	3.25	-58.5	-74.5	3.8	1.49e+00	0	25	104	0	82	23626
2026-01-05 12:39:54.00	233.38	3.40	-58.5	-74.3	3.8	1.49e+00	0	26	104	0	82	23065
2026-01-05 12:39:57.00	233.67	3.55	-58.5	-74.4	3.8	1.49e+00	0	26	104	0	82	23487
2026-01-05 12:40:00.01	233.97	3.70	-58.5	-74.5	3.8	1.49e+00	0	25	104	0	82	23697
2026-01-05 12:40:03.02	234.27	3.85	-58.5	-74.3	3.8	1.49e+00	0	26	104	0	82	23202
2026-01-05 12:40:06.02	234.57	4.01	-58.5	-74.1	3.8	1.49e+00	0	26	104	0	82	22693
2026-01-05 12:40:09.01	234.87	4.16	-58.5	-74.1	3.8	1.49e+00	0	26	104	0	82	22709
2026-01-05 12:40:12.01	235.18	4.31	-58.5	-73.9	3.8	1.49e+00	0	26	104	0	82	22184
2026-01-05 12:40:15.02	235.49	4.46	-58.5	-74.4	3.8	1.49e+00	0	26	104	0	82	23504
2026-01-05 12:40:18.01	235.80	4.61	-58.4	-72.9	3.8	1.49e+00	0	26	104	0	82	19746
2026-01-05 12:40:20.99	236.12	4.76	-58.3	-71.3	4.1	1.43e+00	0	26	0	0	82	16404
2026-01-05 12:40:24.00	236.44	4.91	-58.0	-67.0	6.0	3.66e-01	0	26	0	3145728	82	10033
2026-01-05 12:40:27.00	236.76	5.06	-56.5	-61.4	10.6	2.72e-03	0	26	0	8388608	79	6211
2026-01-05 12:40:30.00	237.08	5.21	-57.7	-65.0	7.5	3.27e-03	0	26	0	11534336	80	8959
2026-01-05 12:40:33.00	237.41	5.37	-53.6	-56.0	13.6	0.00e+00	0	26	0	16777216	73	4728
2026-01-05 12:40:36.01	237.74	5.52	-53.7	-56.1	13.6	0.00e+00	0	26	0	23068672	73	4804
2026-01-05 12:40:39.01	238.08	5.67	-53.6	-56.1	13.6	0.00e+00	0	26	0	28311552	73	4776
2026-01-05 12:40:42.00	238.42	5.82	-53.9	-56.5	13.4	0.00e+00	0	26	0	33554432	73	4995
2026-01-05 12:40:45.00	238.76	5.97	-53.9	-56.4	13.5	0.00e+00	0	26	0	39845888	73	4961
2026-01-05 12:40:48.00	239.11	6.13	-53.7	-56.4	13.4	0.00e+00	0	26	0	45088768	73	4981
2026-01-05 12:40:50.99	239.45	6.28	-53.8	-56.3	13.5	0.00e+00	0	26	0	50331648	73	4882
2026-01-05 12:40:53.99	239.81	6.43	-53.6	-56.0	13.7	0.00e+00	0	26	0	56623104	73	4746
2026-01-05 12:40:56.99	240.16	6.58	-53.7	-56.2	13.6	0.00e+00	0	26	0	61865984	73	4830
2026-01-05 12:41:00.01	240.52	6.74	-53.6	-56.0	13.7	0.00e+00	0	26	0	68157440	73	4755
2026-01-05 12:41:03.01	240.89	6.89	-53.6	-56.0	13.7	0.00e+00	0	26	0	73400320	73	4727
2026-01-05 12:41:06.00	241.25	7.04	-53.5	-55.9	13.7	0.00e+00	0	26	0	78643200	73	4664
2026-01-05 12:41:09.00	241.62	7.19	-53.4	-55.7	13.9	0.00e+00	0	27	0	84934656	73	4566
2026-01-05 12:41:12.00	242.00	7.34	-53.1	-55.2	14.0	0.00e+00	0	26	0	90177536	72	4588
2026-01-05 12:41:14.99	242.37	7.50	-53.0	-55.1	14.1	0.00e+00	0	27	0	95420416	72	4534
2026-01-05 12:41:17.97	242.75	7.65	-53.2	-55.4	13.9	0.00e+00	0	27	0	101711872	72	4705
2026-01-05 12:41:20.97	243.14	7.80	-53.4	-55.6	13.8	0.00e+00	0	26	0	106954752	72	4813
2026-01-05 12:41:23.97	243.53	7.95	-53.3	-55.6	13.9	0.00e+00	0	26	0	112197632	72	4761
2026-01-05 12:41:26.97	243.92	8.10	-53.2	-55.3	14.0	0.00e+00	0	26	0	118489088	72	4649
2026-01-05 12:41:29.97	244.32	8.25	-53.3	-55.5	13.9	0.00e+00	0	27	0	123731968	72	4710
2026-01-05 12:41:32.97	244.72	8.40	-53.4	-55.7	13.8	0.00e+00	0	27	0	128974848	72	4818
2026-01-05 12:41:35.96	245.12	8.55	-53.3	-55.5	13.9	0.00e+00	0	26	0	135266304	72	4758
2026-01-05 12:41:38.95	245.53	8.70	-53.5	-55.8	13.8	0.00e+00	0	27	0	140509184	72	4916
2026-01-05 12:41:41.94	245.94	8.85	-53.4	-55.6	13.9	0.00e+00	0	27	0	145752064	72	4777
2026-01-05 12:41:44.93	246.36	9.00	-53.3	-55.5	13.9	0.00e+00	0	26	0	152043520	72	4711
2026-01-05 12:41:47.92	246.78	9.15	-53.1	-55.2	14.1	0.00e+00	0	27	0	157286400	72	4581
2026-01-05 12:41:50.90	247.20	9.29	-52.9	-55.0	14.2	0.00e+00	0	27	0	163577856	72	4457
2026-01-05 12:41:53.90	247.63	9.44	-52.7	-54.6	14.3	0.00e+00	0	27	0	168820736	71	4524
2026-01-05 12:41:56.89	248.07	9.59	-52.6	-54.5	14.3	0.00e+00	0	27	0	174063616	71	4475
2026-01-05 12:41:59.87	248.50	9.73	-52.2	-54.1	14.5	0.00e+00	0	27	0	180355072	71	4256
2026-01-05 12:42:02.87	248.94	9.88	-52.0	-53.8	14.5	0.00e+00	0	27	0	185597952	70	4345
2026-01-05 12:42:05.86	249.39	10.02	-52.0	-53.8	14.5	0.00e+00	0	27	0	190840832	70	4341
2026-01-05 12:42:08.86	249.84	10.17	-52.3	-54.2	14.3	0.00e+00	0	27	0	197132288	70	4579
2026-01-05 12:42:11.84	250.29	10.31	-52.4	-54.3	14.3	0.00e+00	0	27	0	202375168	70	4608
2026-01-05 12:42:14.83	250.75	10.45	-52.3	-54.1	14.3	0.00e+00	0	27	0	207618048	70	4539
2026-01-05 12:42:17.83	251.22	10.60	-52.2	-54.0	14.4	0.00e+00	0	27	0	213909504	70	4479
2026-01-05 12:42:20.82	251.68	10.74	-52.2	-54.1	14.4	0.00e+00	0	27	0	219152384	70	4513
2026-01-05 12:42:23.82	252.16	10.88	-52.4	-54.3	14.3	0.00e+00	0	27	0	224395264	70	4647
2026-01-05 12:42:26.82	252.63	11.02	-52.4	-54.3	14.3	0.00e+00	0	27	0	230686720	70	4642
2026-01-05 12:42:29.81	253.11	11.16	-52.4	-54.3	14.3	0.00e+00	0	27	0	235929600	70	4611
2026-01-05 12:42:32.80	253.60	11.29	-52.5	-54.4	14.2	0.00e+00	0	27	0	241172480	70	4689
2026-01-05 12:42:35.79	254.09	11.43	-52.5	-54.4	14.2	0.00e+00	0	27	0	247463936	70	4697
2026-01-05 12:42:38.79	254.58	11.57	-52.1	-53.9	14.5	0.00e+00	0	27	0	252706816	70	4432
2026-01-05 12:42:41.79	255.08	11.70	-52.4	-54.2	14.3	0.00e+00	0	27	0	257949696	70	4593
2026-01-05 12:42:44.78	255.58	11.83	-52.8	-54.7	14.1	0.00e+00	0	27	0	264241152	70	4864
2026-01-05 12:42:47.77	256.09	11.96	-52.7	-54.6	14.1	0.00e+00	0	27	0	269484032	70	4805
2026-01-05 12:42:50.74	256.59	12.09	-52.7	-54.7	14.1	0.00e+00	0	26	0	274726912	70	4841
2026-01-05 12:42:53.73	257.11	12.22	-52.7	-54.6	14.2	0.00e+00	0	27	0	281018368	70	4805
2026-01-05 12:42:56.72	257.63	12.35	-53.0	-55.0	14.1	0.00e+00	0	27	0	286261248	71	4737
2026-01-05 12:42:59.70	258.15	12.48	-52.8	-54.8	14.2	0.00e+00	0	27	0	292552704	71	4636
2026-01-05 12:43:02.68	258.68	12.60	-52.8	-54.7	14.3	0.00e+00	0	27	0	297795584	71	4590
2026-01-05 12:43:05.70	259.21	12.72	-52.9	-54.9	14.2	0.00e+00	0	27	0	303038464	71	4671
2026-01-05 12:43:08.70	259.75	12.85	-52.9	-54.9	14.1	0.00e+00	0	27	0	309329920	71	4696
2026-01-05 12:43:11.71	260.30	12.97	-53.3	-55.5	13.9	0.00e+00	0	27	0	314572800	71	5009
2026-01-05 12:43:14.73	260.85	13.08	-53.5	-55.7	13.9	0.00e+00	0	27	0	319815680	72	4826
2026-01-05 12:43:17.73	261.40	13.20	-53.4	-55.6	13.9	0.00e+00	0	27	0	326107136	72	4780
2026-01-05 12:43:20.73	261.95	13.32	-53.6	-55.8	13.8	0.00e+00	0	27	0	331350016	72	4910
2026-01-05 12:43:23.72	262.51	13.43	-53.9	-56.2	13.7	0.00e+00	0	27	0	336592896	73	4853
2026-01-05 12:43:26.73	263.08	13.54	-53.8	-56.1	13.8	0.00e+00	0	27	0	342884352	73	4798
2026-01-05 12:43:29.71	263.64	13.65	-54.0	-56.4	13.6	0.00e+00	0	27	0	348127232	73	4953
2026-01-05 12:43:32.72	264.21	13.75	-54.2	-56.6	13.5	0.00e+00	0	27	0	354418688	73	5059
2026-01-05 12:43:35.71	264.79	13.86	-54.0	-56.3	13.7	0.00e+00	0	27	0	359661568	73	4888
2026-01-05 12:43:38.72	265.37	13.96	-53.9	-56.2	13.7	0.00e+00	0	27	0	364904448	73	4817
2026-01-05 12:43:41.71	265.95	14.06	-54.3	-56.8	13.5	0.00e+00	0	27	0	371195904	73	5191
2026-01-05 12:43:44.70	266.53	14.15	-53.9	-56.3	13.7	0.00e+00	0	27	0	376438784	73	4882
2026-01-05 12:43:47.70	267.12	14.25	-54.0	-56.3	13.7	0.00e+00	0	27	0	381681664	73	4894
2026-01-05 12:43:50.70	267.72	14.34	-53.5	-55.6	14.1	0.00e+00	0	27	0	387973120	73	4529
2026-01-05 12:43:53.71	268.32	14.43	-52.9	-54.8	14.3	0.00e+00	0	27	0	393216000	72	4367
2026-01-05 12:43:56.71	268.92	14.52	-52.5	-54.3	14.4	0.00e+00	0	27	0	399507456	71	4373
2026-01-05 12:43:59.72	269.52	14.60	-52.5	-54.4	14.4	0.00e+00	0	27	0	404750336	71	4413
2026-01-05 12:44:02.73	270.13	14.69	-52.3	-54.1	14.5	0.00e+00	0	27	0	409993216	71	4290
2026-01-05 12:44:05.73	270.74	14.77	-52.7	-54.6	14.3	0.00e+00	0	27	0	416284672	71	4497
2026-01-05 12:44:08.74	271.36	14.84	-52.7	-54.5	14.3	0.00e+00	0	27	0	421527552	71	4487
2026-01-05 12:44:11.76	271.98	14.92	-52.4	-54.2	14.5	0.00e+00	0	27	0	426770432	71	4304
2026-01-05 12:44:14.76	272.60	14.99	-53.0	-55.0	14.1	0.00e+00	0	27	0	433061888	71	4736
2026-01-05 12:44:17.77	273.23	15.06	-52.8	-54.8	14.2	0.00e+00	0	27	0	438304768	71	4615
2026-01-05 12:44:20.78	273.85	15.12	-52.6	-54.5	14.4	0.00e+00	0	27	0	444596224	71	4443
2026-01-05 12:44:23.79	274.48	15.18	-53.0	-55.0	14.2	0.00e+00	0	27	0	449839104	71	4725
2026-01-05 12:44:26.78	275.11	15.24	-53.3	-55.4	14.0	0.00e+00	0	27	0	455081984	71	4931
2026-01-05 12:44:29.78	275.74	15.30	-53.3	-55.3	14.0	0.00e+00	0	27	0	461373440	71	4917
2026-01-05 12:44:32.78	276.38	15.35	-54.3	-56.7	13.6	0.00e+00	0	27	0	466616320	73	5153
2026-01-05 12:44:35.79	277.02	15.40	-53.6	-55.7	14.1	0.00e+00	0	27	0	471859200	73	4562
2026-01-05 12:44:38.77	277.65	15.45	-52.7	-54.6	14.5	0.00e+00	0	27	0	478150656	72	4271
2026-01-05 12:44:41.75	278.29	15.49	-53.2	-55.2	14.2	0.00e+00	0	27	0	483393536	72	4577
2026-01-05 12:44:44.74	278.93	15.53	-53.3	-55.3	14.1	0.00e+00	0	27	0	488636416	72	4630
2026-01-05 12:44:47.72	279.57	15.56	-52.5	-54.3	14.5	0.00e+00	0	27	0	494927872	71	4363
2026-01-05 12:44:50.71	280.21	15.60	-52.7	-54.6	14.3	0.00e+00	0	27	0	500170752	71	4518
2026-01-05 12:44:53.69	280.85	15.63	-52.6	-54.4	14.4	0.00e+00	0	27	0	505413632	71	4400
2026-01-05 12:44:56.67	281.50	15.65	-52.8	-54.7	14.3	0.00e+00	0	27	0	511705088	71	4557
2026-01-05 12:44:59.66	282.14	15.67	-53.4	-55.5	14.1	0.00e+00	0	27	0	516947968	72	4708
2026-01-05 12:45:02.66	282.79	15.69	-53.2	-55.1	14.2	0.00e+00	0	27	0	522190848	72	4533
2026-01-05 12:45:05.64	283.44	15.71	-53.4	-55.5	14.1	0.00e+00	0	27	0	528482304	72	4718
2026-01-05 12:45:08.64	284.09	15.72	-53.8	-56.0	13.8	0.00e+00	0	27	0	533725184	72	5010
2026-01-05 12:45:11.62	284.74	15.73	-53.5	-55.6	14.1	0.00e+00	0	27	0	538968064	73	4517
2026-01-05 12:45:14.62	285.39	15.74	-53.5	-55.6	14.1	0.00e+00	0	27	0	545259520	73	4520
2026-01-05 12:45:17.61	286.04	15.74	-53.5	-55.5	14.2	0.00e+00	0	27	0	550502400	73	4465
2026-01-05 12:45:20.60	286.69	15.74	-53.3	-55.3	14.2	0.00e+00	0	27	0	556793856	72	4628
2026-01-05 12:45:23.60	287.34	15.73	-53.4	-55.4	14.1	0.00e+00	0	27	0	562036736	72	4677
2026-01-05 12:45:26.60	287.99	15.72	-52.8	-54.6	14.5	0.00e+00	0	27	0	567279616	72	4265
2026-01-05 12:45:29.58	288.64	15.71	-52.7	-54.6	14.4	0.00e+00	0	27	0	573571072	71	4507
2026-01-05 12:45:32.57	289.29	15.70	-53.1	-55.1	14.1	0.00e+00	0	27	0	578813952	71	4793
2026-01-05 12:45:35.57	289.94	15.68	-52.7	-54.6	14.4	0.00e+00	0	27	0	584056832	71	4507
2026-01-05 12:45:38.57	290.58	15.66	-52.9	-54.9	14.3	0.00e+00	0	27	0	590348288	71	4652
2026-01-05 12:45:41.57	291.23	15.63	-52.9	-54.8	14.3	0.00e+00	0	27	0	595591168	71	4633
2026-01-05 12:45:44.56	291.88	15.60	-52.4	-54.2	14.5	0.00e+00	0	27	0	600834048	71	4321
2026-01-05 12:45:47.57	292.52	15.57	-52.2	-54.0	14.5	0.00e+00	0	27	0	607125504	70	4442
2026-01-05 12:45:50.55	293.16	15.54	-52.9	-54.8	14.2	0.00e+00	0	27	0	612368384	70	4887
2026-01-05 12:45:53.55	293.80	15.50	-53.0	-54.9	14.2	0.00e+00	0	27	0	617611264	71	4695
2026-01-05 12:45:56.55	294.44	15.46	-52.4	-54.2	14.5	0.00e+00	0	27	0	623902720	71	4311
2026-01-05 12:45:59.53	295.08	15.41	-52.5	-54.3	14.4	0.00e+00	0	27	0	629145600	71	4371
2026-01-05 12:46:02.54	295.72	15.36	-52.8	-54.6	14.3	0.00e+00	0	27	0	634388480	71	4545
2026-01-05 12:46:05.55	296.35	15.31	-52.9	-54.9	14.2	0.00e+00	0	27	0	640679936	71	4656
2026-01-05 12:46:08.55	296.99	15.25	-53.1	-55.1	14.2	0.00e+00	0	27	0	645922816	71	4794
2026-01-05 12:46:11.54	297.61	15.20	-52.7	-54.6	14.4	0.00e+00	0	27	0	652214272	71	4498
2026-01-05 12:46:14.54	298.24	15.14	-52.4	-54.2	14.5	0.00e+00	0	27	0	657457152	71	4296
2026-01-05 12:46:17.55	298.87	15.07	-51.6	-53.2	14.7	0.00e+00	0	27	0	662700032	69	4329
2026-01-05 12:46:20.56	299.49	15.00	-51.7	-53.3	14.6	0.00e+00	0	27	0	668991488	69	4356
2026-01-05 12:46:23.56	300.11	14.93	-51.5	-53.1	14.7	0.00e+00	0	27	0	674234368	69	4247
2026-01-05 12:46:26.57	300.73	14.86	-51.5	-53.1	14.7	0.00e+00	0	27	0	679477248	69	4256
2026-01-05 12:46:29.56	301.34	14.79	-52.2	-53.9	14.4	0.00e+00	0	27	0	685768704	69	4686
2026-01-05 12:46:32.55	301.95	14.71	-52.2	-53.9	14.4	0.00e+00	0	27	0	691011584	69	4697
2026-01-05 12:46:35.54	302.55	14.63	-52.2	-54.0	14.4	0.00e+00	0	27	0	696254464	69	4716
2026-01-05 12:46:38.52	303.15	14.54	-52.3	-54.1	14.3	0.00e+00	0	27	0	702545920	69	4796
2026-01-05 12:46:41.51	303.75	14.46	-51.9	-53.6	14.5	0.00e+00	0	27	0	707788800	69	4521
2026-01-05 12:46:44.49	304.34	14.37	-51.5	-53.1	14.7	0.00e+00	0	27	0	713031680	69	4260
2026-01-05 12:46:47.47	304.93	14.28	-51.3	-52.9	14.8	0.00e+00	0	27	0	719323136	69	4166
2026-01-05 12:46:50.45	305.52	14.19	-51.3	-52.9	14.6	0.00e+00	0	27	0	724566016	68	4425
2026-01-05 12:46:53.43	306.10	14.09	-51.5	-53.2	14.6	0.00e+00	0	27	0	729808896	68	4559
2026-01-05 12:46:56.41	306.68	13.99	-51.6	-53.3	14.5	0.00e+00	0	27	0	736100352	68	4616
2026-01-05 12:46:59.39	307.25	13.89	-51.7	-53.4	14.5	0.00e+00	0	27	0	741343232	68	4683
2026-01-05 12:47:02.39	307.83	13.79	-51.9	-53.6	14.5	0.00e+00	0	27	0	746586112	69	4506
2026-01-05 12:47:05.38	308.40	13.69	-51.7	-53.4	14.6	0.00e+00	0	27	0	752877568	69	4394
2026-01-05 12:47:08.38	308.96	13.58	-51.8	-53.5	14.6	0.00e+00	0	27	0	758120448	69	4473
2026-01-05 12:47:11.39	309.53	13.47	-51.8	-53.5	14.5	0.00e+00	0	27	0	764411904	69	4471
2026-01-05 12:47:14.39	310.09	13.36	-51.9	-53.5	14.5	0.00e+00	0	27	0	769654784	69	4491
2026-01-05 12:47:17.38	310.64	13.24	-52.0	-53.7	14.4	0.00e+00	0	27	0	774897664	69	4594
2026-01-05 12:47:20.38	311.19	13.13	-52.3	-54.1	14.3	0.00e+00	0	27	0	781189120	69	4811
2026-01-05 12:47:23.39	311.74	13.01	-52.5	-54.4	14.3	0.00e+00	0	27	0	786432000	70	4672
2026-01-05 12:47:26.40	312.28	12.89	-52.7	-54.6	14.2	0.00e+00	0	27	0	791674880	70	4767
2026-01-05 12:47:29.40	312.82	12.77	-52.8	-54.7	14.1	0.00e+00	0	27	0	797966336	70	4852
2026-01-05 12:47:32.40	313.35	12.65	-53.3	-55.4	13.9	0.00e+00	0	27	0	803209216	71	4939
2026-01-05 12:47:35.39	313.88	12.53	-53.4	-55.5	14.0	0.00e+00	0	27	0	808452096	72	4744
2026-01-05 12:47:38.40	314.41	12.40	-53.4	-55.5	14.0	0.00e+00	0	27	0	814743552	72	4731
2026-01-05 12:47:41.40	314.93	12.28	-53.8	-56.1	13.7	0.00e+00	0	27	0	819986432	72	5047
2026-01-05 12:47:44.41	315.45	12.15	-53.3	-55.4	14.0	0.00e+00	0	27	0	826277888	72	4694
2026-01-05 12:47:47.41	315.96	12.02	-52.9	-54.9	14.1	0.00e+00	0	27	0	831520768	71	4661
2026-01-05 12:47:50.39	316.46	11.89	-53.3	-55.4	13.9	0.00e+00	0	27	0	836763648	71	4929
2026-01-05 12:47:53.39	316.97	11.76	-53.8	-56.1	13.7	0.00e+00	0	27	0	843055104	72	5049
2026-01-05 12:47:56.39	317.46	11.62	-54.1	-56.5	13.5	0.00e+00	0	27	0	848297984	73	5019
2026-01-05 12:47:59.38	317.96	11.49	-54.2	-56.7	13.4	0.00e+00	0	27	0	853540864	73	5153
2026-01-05 12:48:02.37	318.45	11.35	-54.0	-56.4	13.6	0.00e+00	0	27	0	859832320	73	4950
2026-01-05 12:48:05.37	318.93	11.22	-53.5	-55.7	13.9	0.00e+00	0	27	0	865075200	73	4587
2026-01-05 12:48:08.36	319.41	11.08	-53.5	-55.8	13.9	0.00e+00	0	27	0	870318080	73	4602
2026-01-05 12:48:11.35	319.89	10.94	-53.6	-55.8	13.9	0.00e+00	0	27	0	876609536	73	4628
2026-01-05 12:48:14.34	320.36	10.80	-53.5	-55.7	13.9	0.00e+00	0	27	0	881852416	73	4579
2026-01-05 12:48:17.32	320.82	10.66	-53.2	-55.2	14.0	0.00e+00	0	27	0	887095296	72	4594
2026-01-05 12:48:20.32	321.29	10.52	-53.3	-55.4	14.0	0.00e+00	0	27	0	893386752	72	4676
2026-01-05 12:48:23.30	321.74	10.38	-53.8	-56.2	13.5	0.00e+00	0	27	0	898629632	72	5125
2026-01-05 12:48:26.29	322.20	10.24	-53.8	-56.2	13.6	0.00e+00	0	27	0	903872512	73	4852
2026-01-05 12:48:29.28	322.64	10.10	-53.9	-56.3	13.6	0.00e+00	0	27	0	910163968	73	4922
2026-01-05 12:48:32.28	323.09	9.95	-53.7	-56.0	13.7	0.00e+00	0	27	0	915406848	73	4726
2026-01-05 12:48:35.28	323.53	9.81	-53.3	-55.5	13.9	0.00e+00	0	27	0	921698304	72	4742
2026-01-05 12:48:38.27	323.97	9.66	-52.9	-54.9	14.1	0.00e+00	0	27	0	926941184	72	4440
2026-01-05 12:48:41.26	324.40	9.52	-52.8	-54.9	14.2	0.00e+00	0	27	0	932184064	72	4403
2026-01-05 12:48:44.26	324.83	9.37	-52.9	-54.9	14.1	0.00e+00	0	27	0	938475520	71	4692
2026-01-05 12:48:47.24	325.26	9.22	-53.0	-55.2	14.0	0.00e+00	0	27	0	943718400	71	4828
2026-01-05 12:48:50.23	325.68	9.08	-53.1	-55.2	13.9	0.00e+00	0	27	0	948961280	71	4841
2026-01-05 12:48:53.22	326.09	8.93	-52.9	-54.9	14.0	0.00e+00	0	27	0	955252736	71	4697
2026-01-05 12:48:56.22	326.51	8.78	-52.8	-54.8	14.1	0.00e+00	0	27	0	960495616	71	4648
2026-01-05 12:48:59.20	326.91	8.63	-52.9	-55.0	14.0	0.00e+00	0	27	0	965738496	71	4758
2026-01-05 12:49:02.20	327.32	8.49	-53.0	-55.2	13.9	0.00e+00	0	27	0	972029952	71	4850
2026-01-05 12:49:05.19	327.72	8.34	-53.0	-55.2	13.9	0.00e+00	0	27	0	977272832	71	4848
2026-01-05 12:49:08.18	328.11	8.19	-52.8	-54.9	14.0	0.00e+00	0	27	0	982515712	71	4689
2026-01-05 12:49:11.16	328.50	8.04	-52.8	-54.9	14.0	0.00e+00	0	27	0	988807168	71	4705
2026-01-05 12:49:14.15	328.89	7.89	-53.1	-55.3	13.8	0.00e+00	0	27	0	994050048	71	4923
2026-01-05 12:49:17.15	329.28	7.74	-53.2	-55.4	13.7	0.00e+00	0	27	0	1000341504	71	4982
2026-01-05 12:49:20.14	329.66	7.59	-53.3	-55.5	13.6	0.00e+00	0	27	0	1005584384	71	5040
2026-01-05 12:49:23.13	330.04	7.44	-53.1	-55.4	13.8	0.00e+00	0	27	0	1010827264	71	4933
2026-01-05 12:49:26.13	330.41	7.29	-53.1	-55.4	13.8	0.00e+00	0	27	0	1017118720	71	4951
2026-01-05 12:49:29.13	330.78	7.14	-53.4	-55.7	13.6	0.00e+00	0	27	0	1022361600	71	5143
2026-01-05 12:49:32.12	331.15	6.99	-53.3	-55.7	13.6	0.00e+00	0	27	0	1027604480	71	5114
2026-01-05 12:49:35.12	331.51	6.84	-53.2	-55.4	13.7	0.00e+00	0	27	0	1033895936	71	4975
2026-01-05 12:49:38.12	331.87	6.69	-53.1	-55.3	13.8	0.00e+00	0	27	0	1039138816	71	4883
2026-01-05 12:49:41.12	332.23	6.54	-53.1	-55.3	13.7	0.00e+00	0	27	0	1044381696	71	4924
2026-01-05 12:49:44.13	332.58	6.38	-53.2	-55.5	13.7	0.00e+00	0	27	0	1050673152	71	5028
2026-01-05 12:49:47.12	332.93	6.23	-53.2	-55.6	13.6	0.00e+00	0	27	0	1055916032	71	5057
2026-01-05 12:49:50.10	333.28	6.08	-53.4	-55.8	13.5	0.00e+00	0	27	0	1061158912	71	5165
2026-01-05 12:49:53.11	333.62	5.93	-53.6	-56.1	13.4	0.00e+00	0	27	0	1067450368	72	5055
2026-01-05 12:49:56.09	333.96	5.78	-53.7	-56.3	13.3	0.00e+00	0	27	0	1072693248	72	5191
2026-01-05 12:49:59.10	334.29	5.63	-54.0	-56.7	13.1	0.00e+00	0	27	0	1078984704	73	5137
2026-01-05 12:50:02.10	334.63	5.48	-54.0	-56.9	13.0	0.00e+00	0	27	0	1084227584	73	5227
2026-01-05 12:50:05.10	334.96	5.33	-54.0	-56.8	13.0	0.00e+00	0	27	0	1089470464	73	5184
2026-01-05 12:50:08.09	335.28	5.18	-53.9	-56.7	13.0	0.00e+00	0	27	0	1095761920	73	5156
2026-01-05 12:50:11.08	335.60	5.03	-54.3	-57.3	12.7	0.00e+00	0	27	0	1101004800	73	5527
2026-01-05 12:50:14.08	335.92	4.88	-59.8	-75.8	3.8	1.49e+00	0	27	104	1103101952	84	24609
2026-01-05 12:50:17.08	336.24	4.73	-60.5	-76.5	3.8	1.49e+00	0	27	104	1103101952	86	23767
2026-01-05 12:50:20.09	336.55	4.58	-60.8	-76.8	3.8	1.49e+00	0	27	104	1103101952	86	24674
2026-01-05 12:50:23.10	336.87	4.43	-60.9	-77.0	3.8	1.49e+00	0	27	104	1103101952	87	23692
2026-01-05 12:50:26.10	337.17	4.28	-61.0	-77.0	3.8	1.49e+00	0	27	104	1103101952	87	23836
2026-01-05 12:50:29.09	337.48	4.13	-61.0	-77.1	3.8	1.49e+00	0	27	104	1103101952	87	23974
2026-01-05 12:50:32.09	337.78	3.98	-61.1	-77.1	3.8	1.49e+00	0	27	104	1103101952	87	24051
2026-01-05 12:50:35.09	338.08	3.83	-61.0	-77.0	3.8	1.49e+00	0	27	104	1103101952	87	23849
2026-01-05 12:50:38.10	338.38	3.68	-60.9	-77.0	3.8	1.49e+00	0	27	104	1103101952	87	23689
2026-01-05 12:50:41.10	338.67	3.53	-60.9	-77.0	3.8	1.49e+00	0	27	104	1103101952	87	23603
2026-01-05 12:50:44.11	338.96	3.38	-60.9	-76.9	3.8	1.49e+00	0	27	104	1103101952	87	23482
2026-01-05 12:50:47.10	339.25	3.24	-60.8	-76.9	3.8	1.49e+00	0	27	104	1103101952	87	23381
2026-01-05 12:50:50.10	339.53	3.09	-60.8	-76.9	3.8	1.49e+00	0	27	104	1103101952	87	23427
2026-01-05 12:50:53.10	339.81	2.94	-60.8	-76.8	3.8	1.49e+00	0	27	104	1103101952	87	23293
2026-01-05 12:50:56.09	340.09	2.79	-60.8	-76.8	3.8	1.49e+00	0	27	104	1103101952	87	23238
2026-01-05 12:50:59.09	340.37	2.65	-60.8	-76.8	3.8	1.49e+00	0	27	104	1103101952	87	23205
2026-01-05 12:51:02.09	340.64	2.50	-60.7	-76.8	3.8	1.49e+00	0	27	104	1103101952	87	23151
2026-01-05 12:51:05.09	340.91	2.35	-60.7	-76.8	3.8	1.49e+00	0	27	104	1103101952	87	23140
2026-01-05 12:51:08.09	341.18	2.21	-60.7	-76.8	3.8	1.49e+00	0	27	104	1103101952	87	23083
2026-01-05 12:51:11.09	341.45	2.06	-60.7	-76.8	3.8	1.49e+00	0	27	104	1103101952	87	23051
2026-01-05 12:51:14.09	341.72	1.91	-60.7	-76.7	3.8	1.49e+00	0	27	104	1103101952	87	23016

#Closed at: 2026-01-05 12:51:14
#Recorded file [1103 MB]: D:/lorett/data/31004_260105_153926.dat