passes_logs/2026/01/05/R3.2S_Murmansk/R3.2S_Murmansk__20260105_232012_NOAA_20_JPSS-1_rec.log

#Pass ID: 20260105_232012_NOAA 20 (JPSS-1)
#Satellite: NOAA 20 (JPSS-1)
#Configuration: NOAA 20
#almurnet v.1.7.20251203
#Start time: 2026-01-05 23:20:11

#Version: 2.2.20231116
#Station: R3.2S_Murmansk
#Location: 33.079688 lon 68.888172 lat
#TLE: 1 43013U 17073A   26005.46207808  .00000128  00000+0  81791-4 0  9997
#TLE: 2 43013  98.7627 306.5027 0001826  53.0458 307.0885 14.19533487421381

#Time	Az	El	Level	Level2	SNR	BER	BlckErr	Temp	State	Recorded	gain1	gain2
2026-01-05 23:20:11.89	20.48	1.99	-58.2	-74.1	3.8	1.49e+00	0	24	0	0	83	21414
2026-01-05 23:20:15.86	20.65	2.23	-58.2	-73.6	3.8	1.49e+00	0	24	104	0	81	22669
2026-01-05 23:20:19.85	20.82	2.48	-58.1	-73.0	3.8	1.49e+00	0	25	104	0	81	21119
2026-01-05 23:20:23.82	20.99	2.73	-58.1	-73.0	3.8	1.49e+00	0	25	104	0	81	21110
2026-01-05 23:20:27.80	21.16	2.97	-58.1	-72.2	3.8	1.49e+00	0	25	104	0	81	19261
2026-01-05 23:20:31.80	21.34	3.23	-58.0	-70.2	4.3	1.37e+00	29	25	0	0	81	15385
2026-01-05 23:20:35.78	21.52	3.48	-57.9	-69.0	4.8	7.65e-01	0	25	0	6291456	81	13339
2026-01-05 23:20:39.76	21.70	3.73	-57.9	-68.4	5.1	5.97e-01	0	25	0	13631488	81	12385
2026-01-05 23:20:43.75	21.88	3.99	-57.3	-64.4	7.9	7.41e-02	0	25	0	20971520	81	7882
2026-01-05 23:20:47.74	22.07	4.25	-56.2	-60.9	10.8	4.42e-04	0	25	0	29360128	79	5916
2026-01-05 23:20:51.74	22.26	4.52	-55.5	-59.4	11.8	8.30e-06	0	25	0	36700160	77	5585
2026-01-05 23:20:55.72	22.45	4.78	-56.2	-61.1	10.6	1.27e-04	0	25	0	44040192	77	6735
2026-01-05 23:20:59.72	22.65	5.05	-57.2	-64.3	8.0	3.11e-02	0	25	0	51380224	79	8732
2026-01-05 23:21:03.72	22.85	5.32	-56.4	-61.2	10.7	3.52e-01	0	26	0	58720256	79	6062
2026-01-05 23:21:07.71	23.06	5.59	-55.3	-58.7	12.5	0.00e+00	0	26	0	66060288	77	5149
2026-01-05 23:21:11.71	23.26	5.87	-54.8	-57.9	12.9	0.00e+00	0	26	0	73400320	76	4947
2026-01-05 23:21:15.71	23.48	6.14	-54.5	-57.5	13.1	0.00e+00	0	26	0	80740352	75	5001
2026-01-05 23:21:19.70	23.69	6.42	-54.4	-57.2	13.3	0.00e+00	0	26	0	89128960	75	4847
2026-01-05 23:21:23.68	23.91	6.71	-54.4	-57.2	13.3	0.00e+00	0	26	0	96468992	75	4864
2026-01-05 23:21:27.66	24.13	6.99	-54.4	-57.2	13.3	0.00e+00	0	26	0	103809024	75	4863
2026-01-05 23:21:31.65	24.35	7.28	-54.5	-57.3	13.2	0.00e+00	0	26	0	111149056	75	4914
2026-01-05 23:21:35.62	24.58	7.57	-54.4	-57.2	13.3	0.00e+00	0	26	0	118489088	75	4838
2026-01-05 23:21:39.61	24.82	7.86	-54.4	-57.2	13.4	0.00e+00	0	26	0	125829120	75	4835
2026-01-05 23:21:43.58	25.06	8.16	-54.4	-57.1	13.4	0.00e+00	0	26	0	133169152	75	4761
2026-01-05 23:21:47.55	25.30	8.46	-54.3	-57.0	13.5	0.00e+00	0	26	0	140509184	75	4732
2026-01-05 23:21:51.54	25.55	8.76	-54.3	-56.9	13.6	0.00e+00	0	26	0	147849216	75	4683
2026-01-05 23:21:55.52	25.80	9.07	-54.1	-56.6	13.6	0.00e+00	0	26	0	156237824	74	4805
2026-01-05 23:21:59.53	26.06	9.38	-54.0	-56.4	13.7	0.00e+00	0	26	0	163577856	74	4679
2026-01-05 23:22:03.52	26.32	9.70	-54.0	-56.4	13.7	0.00e+00	0	26	0	170917888	74	4674
2026-01-05 23:22:07.52	26.59	10.02	-53.8	-56.1	13.9	0.00e+00	0	26	0	178257920	74	4522
2026-01-05 23:22:11.52	26.87	10.34	-53.8	-56.1	13.9	0.00e+00	0	26	0	185597952	74	4514
2026-01-05 23:22:15.52	27.15	10.66	-53.6	-55.8	14.0	0.00e+00	0	26	0	192937984	73	4647
2026-01-05 23:22:19.50	27.43	10.99	-53.5	-55.7	14.0	0.00e+00	0	26	0	200278016	73	4572
2026-01-05 23:22:23.49	27.72	11.32	-53.4	-55.5	14.1	0.00e+00	0	26	0	208666624	73	4479
2026-01-05 23:22:27.47	28.02	11.66	-53.4	-55.6	14.1	0.00e+00	0	26	0	216006656	73	4517
2026-01-05 23:22:31.45	28.32	12.00	-53.2	-55.3	14.3	0.00e+00	0	26	0	223346688	73	4349
2026-01-05 23:22:35.44	28.64	12.34	-53.0	-55.0	14.3	0.00e+00	0	26	0	230686720	72	4459
2026-01-05 23:22:39.41	28.95	12.69	-52.9	-54.9	14.3	0.00e+00	0	26	0	238026752	72	4427
2026-01-05 23:22:43.41	29.28	13.05	-52.9	-54.9	14.3	0.00e+00	0	26	0	245366784	72	4429
2026-01-05 23:22:47.39	29.61	13.40	-52.9	-54.9	14.3	0.00e+00	0	26	0	252706816	72	4435
2026-01-05 23:22:51.39	29.95	13.77	-53.0	-55.0	14.3	0.00e+00	0	26	0	260046848	72	4457
2026-01-05 23:22:55.38	30.30	14.13	-52.9	-54.9	14.4	0.00e+00	0	26	0	268435456	72	4400
2026-01-05 23:22:59.37	30.66	14.50	-53.0	-55.0	14.3	0.00e+00	0	26	0	275775488	72	4457
2026-01-05 23:23:03.37	31.02	14.88	-52.9	-54.8	14.4	0.00e+00	0	26	0	283115520	72	4384
2026-01-05 23:23:07.38	31.40	15.26	-52.7	-54.6	14.5	0.00e+00	0	26	0	290455552	72	4286
2026-01-05 23:23:11.36	31.78	15.65	-52.6	-54.5	14.4	0.00e+00	0	26	0	297795584	71	4473
2026-01-05 23:23:15.35	32.18	16.04	-52.4	-54.2	14.6	0.00e+00	0	26	0	305135616	71	4318
2026-01-05 23:23:19.35	32.58	16.44	-52.7	-54.5	14.4	0.00e+00	0	26	0	312475648	71	4484
2026-01-05 23:23:23.33	32.99	16.84	-52.8	-54.8	14.3	0.00e+00	0	26	0	320864256	71	4609
2026-01-05 23:23:27.33	33.42	17.25	-52.8	-54.8	14.3	0.00e+00	0	26	0	328204288	71	4609
2026-01-05 23:23:31.31	33.85	17.66	-52.9	-54.9	14.3	0.00e+00	0	27	0	335544320	71	4659
2026-01-05 23:23:35.30	34.30	18.07	-53.0	-55.0	14.2	0.00e+00	0	26	0	342884352	71	4751
2026-01-05 23:23:39.29	34.76	18.50	-53.1	-55.0	14.2	0.00e+00	0	26	0	350224384	71	4756
2026-01-05 23:23:43.28	35.23	18.93	-53.1	-55.1	14.2	0.00e+00	0	26	0	357564416	71	4798
2026-01-05 23:23:47.27	35.71	19.36	-53.1	-55.1	14.2	0.00e+00	0	26	0	364904448	71	4800
2026-01-05 23:23:51.26	36.21	19.80	-53.3	-55.4	14.1	0.00e+00	0	26	0	372244480	71	4937
2026-01-05 23:23:55.25	36.72	20.25	-53.3	-55.3	14.1	0.00e+00	0	27	0	380633088	71	4901
2026-01-05 23:23:59.25	37.25	20.70	-53.3	-55.4	14.2	0.00e+00	0	27	0	387973120	72	4657
2026-01-05 23:24:03.24	37.80	21.16	-53.4	-55.5	14.1	0.00e+00	0	26	0	395313152	72	4744
2026-01-05 23:24:07.24	38.35	21.62	-53.5	-55.5	14.1	0.00e+00	0	26	0	402653184	72	4754
2026-01-05 23:24:11.25	38.93	22.10	-53.5	-55.6	14.1	0.00e+00	0	26	0	409993216	72	4790
2026-01-05 23:24:15.23	39.52	22.57	-53.2	-55.2	14.3	0.00e+00	0	26	0	417333248	72	4576
2026-01-05 23:24:19.21	40.13	23.05	-53.2	-55.2	14.3	0.00e+00	0	27	0	424673280	72	4581
2026-01-05 23:24:23.21	40.76	23.54	-53.1	-55.0	14.4	0.00e+00	0	27	0	433061888	72	4469
2026-01-05 23:24:27.19	41.40	24.03	-52.9	-54.7	14.5	0.00e+00	0	27	0	440401920	72	4334
2026-01-05 23:24:31.19	42.07	24.53	-52.9	-54.8	14.5	0.00e+00	0	27	0	447741952	72	4386
2026-01-05 23:24:35.18	42.76	25.03	-53.0	-55.0	14.4	0.00e+00	0	26	0	455081984	72	4457
2026-01-05 23:24:39.15	43.47	25.54	-52.5	-54.7	14.4	0.00e+00	0	27	0	462422016	70	4857
2026-01-05 23:24:43.12	44.20	26.05	-53.1	-55.0	14.3	0.00e+00	0	27	0	469762048	71	4747
2026-01-05 23:24:47.11	44.95	26.57	-53.4	-55.5	14.2	0.00e+00	0	27	0	477102080	72	4725
2026-01-05 23:24:51.11	45.74	27.10	-53.1	-55.0	14.4	0.00e+00	0	26	0	485490688	72	4468
2026-01-05 23:24:55.11	46.55	27.63	-53.8	-56.0	13.9	0.00e+00	0	27	0	492830720	72	5019
2026-01-05 23:24:59.10	47.38	28.16	-53.8	-56.0	14.1	0.00e+00	0	27	0	500170752	73	4706
2026-01-05 23:25:03.10	48.24	28.70	-53.5	-55.6	14.3	0.00e+00	0	27	0	507510784	73	4499
2026-01-05 23:25:07.08	49.13	29.24	-54.0	-56.2	13.9	0.00e+00	0	27	0	514850816	73	4868
2026-01-05 23:25:11.06	50.05	29.78	-53.8	-55.9	14.1	0.00e+00	0	26	0	522190848	73	4700
2026-01-05 23:25:15.05	51.00	30.33	-53.9	-56.1	14.0	0.00e+00	0	27	0	529530880	73	4787
2026-01-05 23:25:19.05	51.98	30.88	-53.8	-55.9	14.1	0.00e+00	0	27	0	537919488	73	4691
2026-01-05 23:25:23.05	53.00	31.43	-54.0	-56.1	14.0	0.00e+00	0	27	0	545259520	73	4806
2026-01-05 23:25:27.04	54.05	31.98	-54.2	-56.5	13.8	0.00e+00	0	27	0	552599552	73	5034
2026-01-05 23:25:31.02	55.13	32.53	-54.7	-57.2	13.5	0.00e+00	0	27	0	559939584	74	5132
2026-01-05 23:25:35.01	56.26	33.07	-54.9	-57.5	13.5	0.00e+00	0	26	0	567279616	75	5027
2026-01-05 23:25:39.00	57.42	33.62	-55.1	-57.8	13.3	0.00e+00	0	27	0	574619648	75	5183
2026-01-05 23:25:42.99	58.62	34.16	-55.4	-58.2	13.2	0.00e+00	0	26	0	581959680	76	5156
2026-01-05 23:25:46.98	59.85	34.70	-55.8	-58.9	12.8	7.00e-07	0	26	0	589299712	76	5561
2026-01-05 23:25:50.97	61.13	35.23	-55.4	-58.2	13.2	0.00e+00	0	26	0	597688320	76	5106
2026-01-05 23:25:54.98	62.46	35.75	-55.4	-58.2	13.3	0.00e+00	0	27	0	605028352	76	5106
2026-01-05 23:25:58.96	63.82	36.27	-55.8	-58.9	12.8	0.00e+00	0	26	0	612368384	76	5539
2026-01-05 23:26:02.94	65.22	36.77	-55.0	-57.6	13.5	0.00e+00	0	26	0	619708416	76	4778
2026-01-05 23:26:06.94	66.68	37.27	-55.9	-58.9	12.8	0.00e+00	0	27	0	627048448	76	5570
2026-01-05 23:26:10.92	68.16	37.74	-54.5	-56.9	13.9	0.00e+00	0	26	0	634388480	75	4672
2026-01-05 23:26:14.92	69.70	38.21	-54.4	-56.6	13.9	0.00e+00	0	26	0	641728512	74	4813
2026-01-05 23:26:18.92	71.28	38.66	-55.4	-58.2	13.3	0.00e+00	0	26	0	650117120	76	5113
2026-01-05 23:26:22.91	72.91	39.09	-55.3	-58.0	13.4	0.00e+00	0	27	0	657457152	76	5017
2026-01-05 23:26:26.89	74.56	39.49	-55.6	-58.4	13.2	0.00e+00	0	27	0	664797184	77	4964
2026-01-05 23:26:30.88	76.27	39.88	-55.2	-57.8	13.5	0.00e+00	0	26	0	672137216	77	4641
2026-01-05 23:26:34.86	78.01	40.24	-54.5	-56.9	13.8	0.00e+00	0	26	0	679477248	75	4674
2026-01-05 23:26:38.84	79.78	40.57	-54.1	-56.3	14.1	0.00e+00	0	27	0	686817280	74	4621
2026-01-05 23:26:42.83	81.60	40.88	-54.3	-56.6	13.8	0.00e+00	0	27	0	694157312	74	4802
2026-01-05 23:26:46.82	83.45	41.15	-54.9	-57.4	13.5	0.00e+00	0	26	0	701497344	75	4983
2026-01-05 23:26:50.82	85.33	41.40	-55.4	-58.2	13.2	0.00e+00	0	26	0	709885952	75	5414
2026-01-05 23:26:54.82	87.24	41.61	-55.5	-58.3	13.2	0.00e+00	0	27	0	717225984	76	5180
2026-01-05 23:26:58.80	89.16	41.79	-55.4	-58.2	13.3	0.00e+00	0	26	0	724566016	76	5102
2026-01-05 23:27:02.80	91.11	41.93	-54.8	-57.3	13.6	0.00e+00	0	27	0	731906048	75	4898
2026-01-05 23:27:06.79	93.07	42.04	-54.2	-56.4	14.0	0.00e+00	0	27	0	739246080	74	4687
2026-01-05 23:27:10.78	95.05	42.11	-54.9	-57.5	13.5	0.00e+00	0	26	0	746586112	75	5007
2026-01-05 23:27:14.77	97.03	42.14	-54.3	-56.6	14.0	0.00e+00	0	26	0	753926144	75	4518
2026-01-05 23:27:18.76	99.01	42.14	-53.0	-54.9	14.5	0.00e+00	0	27	0	762314752	72	4406
2026-01-05 23:27:22.76	100.99	42.10	-53.5	-55.4	14.2	0.00e+00	0	26	0	769654784	72	4703
2026-01-05 23:27:26.74	102.96	42.02	-53.5	-55.5	14.2	0.00e+00	0	27	0	776994816	72	4740
2026-01-05 23:27:30.74	104.92	41.90	-54.0	-56.1	14.1	0.00e+00	0	26	0	784334848	74	4528
2026-01-05 23:27:34.73	106.87	41.75	-54.7	-57.1	13.6	0.00e+00	0	26	0	791674880	74	5069
2026-01-05 23:27:38.73	108.80	41.56	-55.2	-57.9	13.3	0.00e+00	0	26	0	799014912	75	5221
2026-01-05 23:27:42.71	110.69	41.34	-55.2	-57.8	13.5	0.00e+00	0	26	0	806354944	76	4881
2026-01-05 23:27:46.70	112.56	41.09	-55.1	-57.7	13.5	0.00e+00	0	26	0	814743552	76	4852
2026-01-05 23:27:50.68	114.40	40.81	-54.7	-57.1	13.7	0.00e+00	0	27	0	822083584	75	4812
2026-01-05 23:27:54.68	116.22	40.49	-54.4	-56.7	13.7	0.00e+00	0	26	0	829423616	73	5105
2026-01-05 23:27:58.67	117.99	40.15	-53.3	-55.3	14.4	0.00e+00	0	27	0	836763648	73	4354
2026-01-05 23:28:02.66	119.73	39.78	-53.0	-54.8	14.5	0.00e+00	0	27	0	844103680	72	4380
2026-01-05 23:28:06.65	121.42	39.39	-52.8	-54.6	14.5	0.00e+00	0	27	0	851443712	71	4496
2026-01-05 23:28:10.62	123.07	38.98	-51.8	-53.4	14.9	0.00e+00	0	27	0	858783744	70	4179
2026-01-05 23:28:14.62	124.69	38.55	-51.7	-53.3	14.9	0.00e+00	0	26	0	866123776	70	4104
2026-01-05 23:28:18.61	126.26	38.09	-52.1	-53.8	14.6	0.00e+00	0	27	0	874512384	69	4613
2026-01-05 23:28:22.61	127.79	37.62	-51.4	-53.0	14.9	0.00e+00	0	27	0	881852416	69	4206
2026-01-05 23:28:26.60	129.28	37.14	-51.8	-53.5	14.7	0.00e+00	0	26	0	889192448	69	4454
2026-01-05 23:28:30.59	130.72	36.64	-52.1	-53.8	14.6	0.00e+00	0	27	0	896532480	69	4627
2026-01-05 23:28:34.58	132.12	36.13	-52.7	-54.5	14.4	0.00e+00	0	27	0	903872512	70	4755
2026-01-05 23:28:38.56	133.47	35.61	-52.4	-54.1	14.5	0.00e+00	0	27	0	911212544	70	4544
2026-01-05 23:28:42.54	134.78	35.09	-52.3	-54.0	14.6	0.00e+00	0	27	0	918552576	70	4465
2026-01-05 23:28:46.54	136.05	34.55	-53.3	-55.3	14.2	0.00e+00	0	26	0	926941184	71	4888
2026-01-05 23:28:50.52	137.28	34.01	-52.6	-54.3	14.6	0.00e+00	0	27	0	934281216	71	4383
2026-01-05 23:28:54.52	138.48	33.46	-55.1	-57.8	13.3	0.00e+00	0	27	0	941621248	75	5168
2026-01-05 23:28:58.51	139.63	32.92	-53.8	-56.0	14.2	0.00e+00	0	26	0	948961280	74	4444
2026-01-05 23:29:02.50	140.75	32.37	-54.7	-57.2	13.6	0.00e+00	0	26	0	956301312	75	4832
2026-01-05 23:29:06.50	141.83	31.81	-52.7	-54.6	14.5	0.00e+00	0	27	0	963641344	71	4500
2026-01-05 23:29:10.49	142.87	31.26	-54.5	-56.9	13.7	0.00e+00	0	27	0	970981376	75	4703
2026-01-05 23:29:14.48	143.88	30.71	-52.3	-54.0	14.7	0.00e+00	0	26	0	978321408	71	4227
2026-01-05 23:29:18.47	144.86	30.16	-54.3	-56.7	13.7	0.00e+00	0	26	0	986710016	74	4842
2026-01-05 23:29:22.48	145.81	29.61	-52.2	-53.8	14.8	0.00e+00	0	26	0	994050048	71	4133
2026-01-05 23:29:26.48	146.72	29.06	-54.5	-57.0	13.6	0.00e+00	0	26	0	1001390080	74	5016
2026-01-05 23:29:30.48	147.61	28.52	-52.2	-53.9	14.7	0.00e+00	0	27	0	1008730112	71	4176
2026-01-05 23:29:34.47	148.46	27.98	-52.9	-54.8	14.2	0.00e+00	0	26	0	1016070144	70	4895
2026-01-05 23:29:38.47	149.29	27.44	-52.9	-54.7	14.5	0.00e+00	0	26	0	1023410176	72	4324
2026-01-05 23:29:42.45	150.09	26.91	-51.8	-53.5	14.8	0.00e+00	0	27	0	1030750208	70	4196
2026-01-05 23:29:46.44	150.87	26.39	-52.9	-54.9	14.3	0.00e+00	0	26	0	1039138816	71	4654
2026-01-05 23:29:50.44	151.62	25.87	-51.2	-53.1	14.9	0.00e+00	0	27	0	1046478848	69	4253
2026-01-05 23:29:54.43	152.35	25.35	-51.9	-53.5	14.6	0.00e+00	0	27	0	1053818880	69	4483
2026-01-05 23:29:58.43	153.06	24.84	-52.8	-54.7	14.3	0.00e+00	0	26	0	1061158912	70	4827
2026-01-05 23:30:02.44	153.74	24.33	-52.3	-54.1	14.5	0.00e+00	0	26	0	1068498944	70	4507
2026-01-05 23:30:06.42	154.40	23.83	-51.9	-53.6	14.7	0.00e+00	0	26	0	1075838976	70	4274
2026-01-05 23:30:10.41	155.05	23.34	-52.1	-53.8	14.6	0.00e+00	0	27	0	1083179008	70	4370
2026-01-05 23:30:14.38	155.67	22.85	-52.3	-54.1	14.5	0.00e+00	0	27	0	1091567616	70	4508
2026-01-05 23:30:18.37	156.27	22.37	-52.2	-54.0	14.6	0.00e+00	0	27	0	1098907648	70	4465
2026-01-05 23:30:22.37	156.86	21.89	-52.4	-54.1	14.5	0.00e+00	0	27	0	1106247680	70	4541
2026-01-05 23:30:26.37	157.43	21.42	-52.8	-54.7	14.3	0.00e+00	0	27	0	1113587712	70	4827
2026-01-05 23:30:30.36	157.98	20.96	-53.1	-55.0	14.2	0.00e+00	0	26	0	1120927744	71	4758
2026-01-05 23:30:34.35	158.52	20.50	-52.9	-54.9	14.3	0.00e+00	0	26	0	1128267776	71	4656
2026-01-05 23:30:38.32	159.04	20.05	-52.5	-54.3	14.5	0.00e+00	0	26	0	1135607808	71	4375
2026-01-05 23:30:42.30	159.55	19.60	-52.8	-54.7	14.4	0.00e+00	0	27	0	1143996416	71	4567
2026-01-05 23:30:46.30	160.04	19.16	-52.9	-54.8	14.3	0.00e+00	0	26	0	1151336448	71	4625
2026-01-05 23:30:50.28	160.52	18.73	-52.6	-54.5	14.4	0.00e+00	0	26	0	1158676480	71	4452
2026-01-05 23:30:54.27	160.99	18.30	-52.3	-54.1	14.6	0.00e+00	0	26	0	1166016512	71	4274
2026-01-05 23:30:58.26	161.45	17.88	-52.7	-54.6	14.4	0.00e+00	0	26	0	1173356544	71	4541
2026-01-05 23:31:02.25	161.89	17.46	-53.1	-55.2	14.0	0.00e+00	0	27	0	1180696576	71	4856
2026-01-05 23:31:06.26	162.32	17.04	-53.4	-55.6	13.9	0.00e+00	0	27	0	1188036608	71	5057
2026-01-05 23:31:10.26	162.74	16.63	-53.2	-55.3	14.1	0.00e+00	0	26	0	1195376640	72	4639
2026-01-05 23:31:14.26	163.15	16.23	-53.1	-55.1	14.2	0.00e+00	0	27	0	1203765248	72	4528
2026-01-05 23:31:18.25	163.55	15.83	-53.0	-55.0	14.3	0.00e+00	0	27	0	1211105280	72	4442
2026-01-05 23:31:22.25	163.94	15.44	-53.0	-54.9	14.3	0.00e+00	0	27	0	1218445312	72	4433
2026-01-05 23:31:26.23	164.32	15.06	-52.9	-54.9	14.3	0.00e+00	0	27	0	1225785344	72	4438
2026-01-05 23:31:30.23	164.70	14.67	-53.1	-55.1	14.2	0.00e+00	0	27	0	1233125376	72	4517
2026-01-05 23:31:34.23	165.06	14.30	-53.3	-55.4	14.1	0.00e+00	0	26	0	1240465408	72	4655
2026-01-05 23:31:38.20	165.41	13.93	-53.2	-55.2	14.1	0.00e+00	0	27	0	1247805440	72	4598
2026-01-05 23:31:42.18	165.75	13.56	-53.3	-55.5	14.0	0.00e+00	0	26	0	1256194048	72	4722
2026-01-05 23:31:46.16	166.09	13.20	-53.6	-55.9	13.8	0.00e+00	0	27	0	1263534080	72	4945
2026-01-05 23:31:50.15	166.42	12.84	-53.8	-56.1	13.7	0.00e+00	0	27	0	1270874112	72	5073
2026-01-05 23:31:54.12	166.74	12.49	-53.8	-56.2	13.6	0.00e+00	0	26	0	1278214144	72	5120
2026-01-05 23:31:58.14	167.06	12.14	-53.7	-56.0	13.7	0.00e+00	0	26	0	1285554176	72	5007
2026-01-05 23:32:02.13	167.36	11.79	-53.4	-55.5	14.0	0.00e+00	0	26	0	1292894208	72	4758
2026-01-05 23:32:06.11	167.66	11.45	-53.3	-55.5	14.0	0.00e+00	0	27	0	1300234240	72	4713
2026-01-05 23:32:10.11	167.96	11.11	-53.2	-55.3	14.1	0.00e+00	0	26	0	1308622848	72	4646
2026-01-05 23:32:14.09	168.25	10.78	-53.5	-55.7	13.8	0.00e+00	0	26	0	1315962880	72	4856
2026-01-05 23:32:18.08	168.53	10.45	-53.8	-56.2	13.6	0.00e+00	0	27	0	1323302912	72	5109
2026-01-05 23:32:22.09	168.81	10.13	-54.2	-56.8	13.4	0.00e+00	0	27	0	1330642944	73	5166
2026-01-05 23:32:26.08	169.08	9.80	-54.3	-57.0	13.3	0.00e+00	0	26	0	1337982976	73	5324
2026-01-05 23:32:30.07	169.34	9.49	-54.6	-57.5	13.1	0.00e+00	0	27	0	1345323008	74	5302
2026-01-05 23:32:34.07	169.60	9.17	-54.4	-57.2	13.3	0.00e+00	0	27	0	1352663040	74	5102
2026-01-05 23:32:38.05	169.86	8.86	-54.2	-56.8	13.4	0.00e+00	0	27	0	1360003072	74	4908
2026-01-05 23:32:42.04	170.11	8.55	-54.0	-56.6	13.5	0.00e+00	0	27	0	1368391680	74	4765
2026-01-05 23:32:45.99	170.35	8.25	-54.0	-56.5	13.6	0.00e+00	0	27	0	1375731712	74	4737
2026-01-05 23:32:49.97	170.59	7.95	-53.9	-56.4	13.6	0.00e+00	0	27	0	1383071744	74	4700
2026-01-05 23:32:53.96	170.82	7.65	-54.0	-56.6	13.5	0.00e+00	0	27	0	1390411776	74	4793
2026-01-05 23:32:57.96	171.06	7.36	-54.1	-56.8	13.4	0.00e+00	0	27	0	1397751808	74	4881
2026-01-05 23:33:01.94	171.28	7.07	-54.3	-57.1	13.2	0.00e+00	0	27	0	1405091840	74	5076
2026-01-05 23:33:05.95	171.50	6.78	-54.5	-57.4	13.0	0.00e+00	0	27	0	1412431872	74	5253
2026-01-05 23:33:09.93	171.72	6.49	-54.5	-57.5	12.9	0.00e+00	0	26	0	1419771904	74	5323
2026-01-05 23:33:13.92	171.94	6.21	-54.7	-57.8	12.8	0.00e+00	0	27	0	1428160512	74	5489
2026-01-05 23:33:17.94	172.15	5.93	-54.9	-58.2	12.5	0.00e+00	0	26	0	1435500544	74	5746
2026-01-05 23:33:21.93	172.36	5.65	-54.8	-58.1	12.5	0.00e+00	0	27	0	1442840576	74	5659
2026-01-05 23:33:25.93	172.56	5.37	-54.8	-58.1	12.5	0.00e+00	0	27	0	1450180608	74	5661
2026-01-05 23:33:29.93	172.76	5.10	-54.6	-57.8	12.6	0.00e+00	0	27	0	1457520640	74	5522
2026-01-05 23:33:33.92	172.96	4.83	-59.2	-75.2	3.8	1.49e+00	0	27	104	1461714944	83	24361
2026-01-05 23:33:37.91	173.15	4.56	-59.9	-76.0	3.8	1.49e+00	0	27	104	1461714944	84	25024
2026-01-05 23:33:41.89	173.34	4.30	-60.2	-76.3	3.8	1.49e+00	0	27	104	1461714944	85	24549
2026-01-05 23:33:45.88	173.53	4.03	-60.4	-76.4	3.8	1.49e+00	0	27	104	1461714944	85	24932
2026-01-05 23:33:49.86	173.71	3.77	-60.4	-76.5	3.8	1.49e+00	0	27	104	1461714944	85	25175
2026-01-05 23:33:53.84	173.89	3.52	-60.5	-76.6	3.8	1.49e+00	0	27	104	1461714944	86	23931
2026-01-05 23:33:57.85	174.07	3.26	-60.4	-76.5	3.8	1.49e+00	0	27	104	1461714944	86	23824
2026-01-05 23:34:01.84	174.24	3.01	-60.4	-76.5	3.8	1.49e+00	0	27	104	1461714944	86	23726
2026-01-05 23:34:05.84	174.42	2.75	-60.4	-76.5	3.8	1.49e+00	0	27	104	1461714944	86	23700
2026-01-05 23:34:09.85	174.59	2.50	-60.4	-76.4	3.8	1.49e+00	0	27	104	1461714944	86	23575
2026-01-05 23:34:13.83	174.75	2.25	-60.4	-76.5	3.8	1.49e+00	0	27	104	1461714944	86	23609
2026-01-05 23:34:17.84	174.92	2.01	-60.4	-76.4	3.8	1.49e+00	0	27	104	1461714944	86	23565

#Closed at: 2026-01-05 23:34:20
#Recorded file [1461 MB]: D:/lorett/data/31004_260106_022011.dat