passes_logs/2026/01/05/R3.2S_Murmansk/R3.2S_Murmansk__20260105_011929_NOAA_20_JPSS-1_rec.log

#Pass ID: 20260105_011929_NOAA 20 (JPSS-1)
#Satellite: NOAA 20 (JPSS-1)
#Configuration: NOAA 20
#almurnet v.1.7.20251203
#Start time: 2026-01-05 01:19:29

#Version: 2.2.20231116
#Station: R3.2S_Murmansk
#Location: 33.079688 lon 68.888172 lat
#TLE: 1 43013U 17073A   26004.47528369  .00000132  00000+0  83671-4 0  9999
#TLE: 2 43013  98.7626 305.5264 0001854  54.5883 305.5466 14.19533142421242

#Time	Az	El	Level	Level2	SNR	BER	BlckErr	Temp	State	Recorded	gain1	gain2
2026-01-05 01:19:29.40	27.21	1.98	-58.2	-74.2	3.8	1.49e+00	0	26	104	0	81	24213
2026-01-05 01:19:33.45	27.16	2.24	-58.2	-74.2	3.8	1.49e+00	0	26	104	0	81	24194
2026-01-05 01:19:37.49	27.11	2.50	-58.2	-74.2	3.8	1.49e+00	0	26	104	0	81	24205
2026-01-05 01:19:41.48	27.06	2.76	-58.2	-74.1	3.8	1.49e+00	0	26	104	0	81	24044
2026-01-05 01:19:45.48	27.00	3.02	-58.2	-74.1	3.8	1.49e+00	0	26	104	0	81	24017
2026-01-05 01:19:49.47	26.95	3.28	-58.2	-74.1	3.8	1.49e+00	0	26	104	0	81	24038
2026-01-05 01:19:53.45	26.89	3.55	-58.2	-73.5	3.8	1.49e+00	0	26	104	0	81	22269
2026-01-05 01:19:57.44	26.83	3.82	-58.1	-72.7	3.8	1.49e+00	0	26	104	0	81	20475
2026-01-05 01:20:01.45	26.77	4.09	-58.2	-73.1	3.8	1.49e+00	0	27	104	0	81	21341
2026-01-05 01:20:05.44	26.71	4.37	-58.1	-73.4	3.8	1.49e+00	0	27	104	0	81	22023
2026-01-05 01:20:09.44	26.65	4.64	-58.0	-70.4	4.2	1.38e+00	0	27	0	0	81	15634
2026-01-05 01:20:13.43	26.58	4.92	-57.8	-67.4	5.6	4.41e-01	0	27	0	6291456	81	11079
2026-01-05 01:20:17.42	26.52	5.21	-58.0	-68.2	5.0	1.49e+00	1	27	104	10485760	82	11454
2026-01-05 01:20:21.41	26.45	5.49	-56.5	-61.6	10.2	9.95e-03	0	27	0	14680064	79	6372
2026-01-05 01:20:25.42	26.38	5.78	-54.5	-57.5	13.0	0.00e+00	0	27	0	22020096	75	4992
2026-01-05 01:20:29.41	26.31	6.08	-54.3	-57.1	13.3	0.00e+00	0	27	0	29360128	75	4768
2026-01-05 01:20:33.41	26.23	6.37	-54.1	-56.7	13.4	0.00e+00	0	27	0	37748736	74	4828
2026-01-05 01:20:37.41	26.16	6.67	-54.1	-56.6	13.5	0.00e+00	0	27	0	45088768	74	4804
2026-01-05 01:20:41.37	26.08	6.97	-53.9	-56.4	13.6	0.00e+00	0	27	0	52428800	74	4672
2026-01-05 01:20:45.36	26.00	7.28	-53.8	-56.3	13.7	0.00e+00	0	27	0	59768832	74	4605
2026-01-05 01:20:49.36	25.92	7.59	-53.8	-56.2	13.8	0.00e+00	0	27	0	67108864	74	4547
2026-01-05 01:20:53.36	25.84	7.90	-53.7	-56.1	13.9	0.00e+00	0	27	0	74448896	74	4495
2026-01-05 01:20:57.35	25.76	8.22	-53.5	-55.8	13.9	0.00e+00	0	27	0	81788928	73	4632
2026-01-05 01:21:01.36	25.67	8.54	-53.4	-55.6	14.0	0.00e+00	0	27	0	90177536	73	4515
2026-01-05 01:21:05.37	25.58	8.87	-53.3	-55.5	14.1	0.00e+00	0	27	0	97517568	73	4449
2026-01-05 01:21:09.37	25.49	9.20	-53.2	-55.3	14.1	0.00e+00	0	28	0	104857600	72	4617
2026-01-05 01:21:13.36	25.39	9.53	-53.1	-55.2	14.1	0.00e+00	0	27	0	112197632	72	4550
2026-01-05 01:21:17.36	25.29	9.87	-53.0	-55.0	14.2	0.00e+00	0	27	0	119537664	72	4485
2026-01-05 01:21:21.37	25.19	10.22	-53.0	-55.0	14.2	0.00e+00	0	27	0	126877696	72	4485
2026-01-05 01:21:25.36	25.09	10.56	-52.8	-54.7	14.4	0.00e+00	0	27	0	134217728	72	4339
2026-01-05 01:21:29.36	24.99	10.92	-52.6	-54.5	14.4	0.00e+00	0	27	0	142606336	71	4488
2026-01-05 01:21:33.36	24.88	11.28	-52.5	-54.4	14.4	0.00e+00	0	28	0	149946368	71	4432
2026-01-05 01:21:37.36	24.77	11.64	-52.5	-54.3	14.5	0.00e+00	0	27	0	157286400	71	4384
2026-01-05 01:21:41.36	24.65	12.01	-52.5	-54.3	14.5	0.00e+00	0	27	0	164626432	71	4381
2026-01-05 01:21:45.34	24.53	12.38	-52.5	-54.4	14.5	0.00e+00	0	27	0	171966464	71	4405
2026-01-05 01:21:49.33	24.41	12.76	-52.3	-54.1	14.6	0.00e+00	0	28	0	179306496	71	4269
2026-01-05 01:21:53.32	24.29	13.14	-52.3	-54.1	14.6	0.00e+00	0	28	0	186646528	71	4246
2026-01-05 01:21:57.33	24.16	13.54	-52.1	-53.9	14.6	0.00e+00	0	28	0	195035136	70	4399
2026-01-05 01:22:01.33	24.02	13.93	-52.1	-53.8	14.6	0.00e+00	0	28	0	202375168	70	4352
2026-01-05 01:22:05.33	23.89	14.34	-52.0	-53.7	14.6	0.00e+00	0	28	0	209715200	70	4314
2026-01-05 01:22:09.33	23.74	14.75	-51.9	-53.6	14.7	0.00e+00	0	27	0	217055232	70	4259
2026-01-05 01:22:13.32	23.60	15.17	-51.9	-53.6	14.7	0.00e+00	0	28	0	224395264	70	4257
2026-01-05 01:22:17.30	23.45	15.59	-51.8	-53.5	14.7	0.00e+00	0	28	0	231735296	70	4205
2026-01-05 01:22:21.31	23.29	16.02	-51.6	-53.2	14.7	0.00e+00	0	28	0	239075328	69	4319
2026-01-05 01:22:25.31	23.13	16.46	-51.6	-53.2	14.7	0.00e+00	0	28	0	247463936	69	4305
2026-01-05 01:22:29.31	22.97	16.91	-51.5	-53.1	14.8	0.00e+00	0	28	0	254803968	69	4273
2026-01-05 01:22:33.31	22.80	17.37	-51.4	-52.9	14.9	0.00e+00	0	28	0	262144000	69	4181
2026-01-05 01:22:37.30	22.62	17.83	-51.3	-52.8	14.9	0.00e+00	0	28	0	269484032	69	4140
2026-01-05 01:22:41.30	22.44	18.30	-51.4	-52.9	14.9	0.00e+00	0	28	0	276824064	69	4191
2026-01-05 01:22:45.29	22.25	18.78	-51.4	-52.9	14.9	0.00e+00	0	28	0	284164096	69	4182
2026-01-05 01:22:49.27	22.05	19.27	-51.3	-52.9	14.9	0.00e+00	0	28	0	291504128	69	4147
2026-01-05 01:22:53.25	21.85	19.77	-51.3	-52.9	14.9	0.00e+00	0	28	0	299892736	69	4150
2026-01-05 01:22:57.24	21.64	20.28	-51.2	-52.7	15.0	0.00e+00	0	28	0	307232768	69	4087
2026-01-05 01:23:01.24	21.42	20.80	-51.3	-52.9	14.9	0.00e+00	0	28	0	314572800	69	4158
2026-01-05 01:23:05.24	21.20	21.33	-51.1	-52.6	14.9	0.00e+00	0	28	0	321912832	68	4278
2026-01-05 01:23:09.23	20.96	21.87	-51.3	-52.8	14.8	0.00e+00	0	28	0	329252864	68	4368
2026-01-05 01:23:13.23	20.72	22.42	-51.1	-52.6	14.9	0.00e+00	0	28	0	336592896	68	4278
2026-01-05 01:23:17.22	20.47	22.98	-51.2	-52.7	14.9	0.00e+00	0	28	0	343932928	68	4300
2026-01-05 01:23:21.22	20.20	23.56	-51.4	-52.9	14.8	0.00e+00	0	28	0	352321536	68	4432
2026-01-05 01:23:25.22	19.93	24.15	-51.5	-53.1	14.7	0.00e+00	0	28	0	359661568	68	4494
2026-01-05 01:23:29.21	19.65	24.75	-51.7	-53.3	14.6	0.00e+00	0	28	0	367001600	68	4650
2026-01-05 01:23:33.22	19.35	25.36	-52.1	-53.8	14.6	0.00e+00	0	28	0	374341632	69	4613
2026-01-05 01:23:37.21	19.04	25.99	-52.4	-54.1	14.5	0.00e+00	0	28	0	381681664	70	4543
2026-01-05 01:23:41.21	18.72	26.63	-52.8	-54.6	14.4	0.00e+00	0	28	0	389021696	70	4802
2026-01-05 01:23:45.19	18.38	27.29	-53.4	-55.3	14.2	0.00e+00	0	28	0	396361728	71	4906
2026-01-05 01:23:49.20	18.03	27.96	-54.0	-56.2	14.0	0.00e+00	0	28	0	404750336	73	4840
2026-01-05 01:23:53.18	17.67	28.64	-54.5	-56.9	13.7	0.00e+00	0	28	0	412090368	74	4929
2026-01-05 01:23:57.19	17.28	29.35	-54.4	-56.7	13.8	0.00e+00	0	28	0	419430400	74	4839
2026-01-05 01:24:01.17	16.88	30.06	-54.6	-56.9	13.7	0.00e+00	0	28	0	426770432	74	4945
2026-01-05 01:24:05.16	16.46	30.80	-54.8	-57.2	13.6	0.00e+00	0	28	0	434110464	74	5148
2026-01-05 01:24:09.17	16.02	31.55	-55.1	-57.7	13.5	0.00e+00	0	28	0	441450496	75	5122
2026-01-05 01:24:13.17	15.56	32.32	-55.6	-58.3	13.2	0.00e+00	0	28	0	449839104	76	5218
2026-01-05 01:24:17.17	15.07	33.11	-55.7	-58.5	13.1	0.00e+00	0	28	0	457179136	76	5327
2026-01-05 01:24:21.14	14.56	33.91	-55.6	-58.3	13.2	0.00e+00	0	28	0	464519168	76	5205
2026-01-05 01:24:25.13	14.02	34.74	-55.6	-58.3	13.2	0.00e+00	0	28	0	471859200	76	5193
2026-01-05 01:24:29.13	13.45	35.58	-55.8	-58.6	13.1	0.00e+00	0	28	0	479199232	76	5361
2026-01-05 01:24:33.14	12.85	36.45	-55.9	-58.7	13.1	0.00e+00	0	28	0	486539264	77	5125
2026-01-05 01:24:37.14	12.22	37.33	-55.9	-58.8	13.1	0.00e+00	0	28	0	493879296	77	5163
2026-01-05 01:24:41.13	11.55	38.23	-55.5	-58.1	13.5	0.00e+00	0	28	0	501219328	77	4792
2026-01-05 01:24:45.12	10.84	39.16	-55.2	-57.7	13.7	0.00e+00	0	28	0	509607936	76	4825
2026-01-05 01:24:49.10	10.10	40.10	-54.8	-57.1	13.9	0.00e+00	0	28	0	516947968	76	4497
2026-01-05 01:24:53.09	9.30	41.06	-54.1	-56.2	14.2	0.00e+00	0	28	0	524288000	74	4576
2026-01-05 01:24:57.06	8.46	42.03	-54.0	-56.0	14.2	0.00e+00	0	28	0	531628032	74	4454
2026-01-05 01:25:01.05	7.56	43.03	-53.8	-55.8	14.2	0.00e+00	0	28	0	538968064	73	4627
2026-01-05 01:25:05.06	6.59	44.05	-53.4	-55.2	14.5	0.00e+00	0	28	0	546308096	73	4331
2026-01-05 01:25:09.06	5.57	45.09	-53.6	-55.4	14.4	0.00e+00	0	28	0	553648128	73	4440
2026-01-05 01:25:13.07	4.46	46.15	-53.3	-55.0	14.6	0.00e+00	0	28	0	562036736	73	4234
2026-01-05 01:25:17.05	3.29	47.21	-53.1	-54.8	14.5	0.00e+00	0	28	0	569376768	72	4381
2026-01-05 01:25:21.04	2.04	48.29	-53.0	-54.7	14.6	0.00e+00	0	28	0	576716800	72	4337
2026-01-05 01:25:25.03	0.69	49.38	-53.0	-54.7	14.6	0.00e+00	0	28	0	584056832	72	4336
2026-01-05 01:25:29.02	359.23	50.48	-52.9	-54.6	14.7	0.00e+00	0	28	0	591396864	72	4262
2026-01-05 01:25:33.02	357.67	51.59	-52.5	-54.1	14.8	0.00e+00	0	28	0	598736896	71	4290
2026-01-05 01:25:37.02	355.98	52.69	-52.6	-54.2	14.7	0.00e+00	0	28	0	606076928	71	4325
2026-01-05 01:25:41.02	354.16	53.80	-52.3	-53.8	14.8	0.00e+00	0	28	0	614465536	70	4373
2026-01-05 01:25:45.01	352.20	54.89	-52.9	-54.7	14.5	0.00e+00	0	28	0	621805568	71	4593
2026-01-05 01:25:48.99	350.08	55.97	-53.9	-55.9	14.3	0.00e+00	0	28	0	629145600	73	4665
2026-01-05 01:25:52.98	347.79	57.03	-54.1	-56.0	14.3	0.00e+00	0	28	0	636485632	74	4479
2026-01-05 01:25:56.95	345.34	58.05	-54.0	-55.9	14.4	0.00e+00	0	28	0	643825664	74	4395
2026-01-05 01:26:00.92	342.68	59.04	-54.4	-56.4	14.2	0.00e+00	0	28	0	651165696	74	4691
2026-01-05 01:26:04.93	339.80	60.00	-53.1	-54.8	14.6	0.00e+00	0	28	0	658505728	72	4347
2026-01-05 01:26:08.93	336.70	60.89	-53.1	-54.8	14.6	0.00e+00	0	28	0	665845760	72	4365
2026-01-05 01:26:12.92	333.40	61.72	-51.5	-52.9	15.0	0.00e+00	0	28	0	674234368	69	4178
2026-01-05 01:26:16.94	329.85	62.47	-50.9	-52.2	15.1	0.00e+00	0	28	0	681574400	68	4075
2026-01-05 01:26:20.95	326.09	63.12	-50.7	-52.1	15.0	0.00e+00	0	28	0	688914432	67	4256
2026-01-05 01:26:24.95	322.15	63.68	-51.2	-52.6	14.9	0.00e+00	0	28	0	696254464	67	4531
2026-01-05 01:26:28.94	318.05	64.12	-51.3	-52.7	15.0	0.00e+00	0	28	0	703594496	68	4330
2026-01-05 01:26:32.93	313.81	64.43	-51.5	-52.9	14.9	0.00e+00	0	28	0	710934528	68	4424
2026-01-05 01:26:36.92	309.47	64.62	-50.9	-52.2	15.2	0.00e+00	0	28	0	719323136	68	4082
2026-01-05 01:26:40.92	305.08	64.68	-50.8	-52.1	15.2	0.00e+00	0	28	0	726663168	68	4020
2026-01-05 01:26:44.91	300.69	64.60	-50.8	-52.2	15.0	0.00e+00	0	28	0	734003200	67	4310
2026-01-05 01:26:48.89	296.38	64.39	-51.7	-53.2	14.8	0.00e+00	0	28	0	741343232	68	4587
2026-01-05 01:26:52.89	292.14	64.06	-51.5	-53.0	14.9	0.00e+00	0	28	0	748683264	68	4448
2026-01-05 01:26:56.87	288.07	63.60	-51.5	-52.9	15.0	0.00e+00	0	28	0	756023296	69	4192
2026-01-05 01:27:00.84	284.18	63.04	-50.8	-52.1	15.2	0.00e+00	0	28	0	763363328	68	4021
2026-01-05 01:27:04.84	280.46	62.37	-50.5	-51.8	15.1	0.00e+00	0	28	0	770703360	67	4112
2026-01-05 01:27:08.83	276.97	61.61	-51.2	-52.6	14.9	0.00e+00	0	28	0	779091968	67	4531
2026-01-05 01:27:12.80	273.70	60.78	-53.2	-54.9	14.5	0.00e+00	0	28	0	786432000	71	4670
2026-01-05 01:27:16.79	270.64	59.88	-53.9	-55.7	14.3	0.00e+00	0	28	0	793772032	72	4856
2026-01-05 01:27:20.78	267.79	58.92	-55.9	-58.5	13.4	0.00e+00	0	28	0	801112064	77	5037
2026-01-05 01:27:24.76	265.15	57.93	-55.3	-57.6	13.9	0.00e+00	0	28	0	808452096	77	4530
2026-01-05 01:27:28.74	262.71	56.89	-55.1	-57.3	14.0	0.00e+00	0	28	0	815792128	76	4618
2026-01-05 01:27:32.73	260.44	55.83	-53.6	-55.5	14.5	0.00e+00	0	28	0	823132160	73	4443
2026-01-05 01:27:36.73	258.33	54.74	-53.2	-54.9	14.7	0.00e+00	0	28	0	830472192	73	4171
2026-01-05 01:27:40.72	256.39	53.64	-52.8	-54.5	14.7	0.00e+00	0	28	0	838860800	71	4460
2026-01-05 01:27:44.72	254.58	52.54	-54.0	-55.9	14.3	0.00e+00	0	28	0	846200832	73	4696
2026-01-05 01:27:48.71	252.91	51.43	-54.1	-56.1	14.2	0.00e+00	0	28	0	853540864	73	4776
2026-01-05 01:27:52.70	251.36	50.32	-55.2	-57.5	13.7	0.00e+00	0	28	0	860880896	75	5020
2026-01-05 01:27:56.68	249.92	49.23	-54.5	-56.6	14.2	0.00e+00	0	28	0	868220928	75	4497
2026-01-05 01:28:00.67	248.58	48.13	-54.4	-56.5	14.2	0.00e+00	0	28	0	875560960	75	4474
2026-01-05 01:28:04.67	247.33	47.05	-53.8	-55.8	14.4	0.00e+00	0	28	0	882900992	74	4342
2026-01-05 01:28:08.66	246.17	45.98	-54.0	-56.0	14.2	0.00e+00	0	28	0	891289600	73	4729
2026-01-05 01:28:12.66	245.08	44.93	-53.9	-55.8	14.3	0.00e+00	0	28	0	898629632	73	4620
2026-01-05 01:28:16.65	244.06	43.90	-54.5	-56.7	14.0	0.00e+00	0	28	0	905969664	74	4838
2026-01-05 01:28:20.65	243.10	42.87	-55.1	-57.5	13.7	0.00e+00	0	28	0	913309696	75	4997
2026-01-05 01:28:24.65	242.20	41.87	-55.2	-57.6	13.7	0.00e+00	0	28	0	920649728	75	5043
2026-01-05 01:28:28.63	241.36	40.90	-56.3	-59.3	12.9	0.00e+00	0	28	0	927989760	77	5474
2026-01-05 01:28:32.63	240.57	39.93	-57.0	-60.5	12.3	0.00e+00	0	28	0	935329792	79	5614
2026-01-05 01:28:36.62	239.83	38.99	-57.0	-60.5	12.3	0.00e+00	0	28	0	943718400	79	5595
2026-01-05 01:28:40.63	239.12	38.07	-56.7	-60.0	12.6	7.00e-07	0	28	0	951058432	79	5287
2026-01-05 01:28:44.63	238.45	37.16	-55.5	-58.1	13.5	0.00e+00	0	28	0	958398464	77	4774
2026-01-05 01:28:48.63	237.82	36.28	-54.9	-57.1	13.9	0.00e+00	0	28	0	965738496	76	4534
2026-01-05 01:28:52.63	237.23	35.41	-54.0	-56.0	14.3	0.00e+00	0	28	0	973078528	74	4488
2026-01-05 01:28:56.63	236.66	34.57	-54.8	-57.0	13.8	0.00e+00	0	28	0	980418560	74	5035
2026-01-05 01:29:00.63	236.12	33.74	-54.7	-57.0	13.8	0.00e+00	0	28	0	988807168	74	5000
2026-01-05 01:29:04.61	235.62	32.94	-54.7	-56.9	13.8	0.00e+00	0	28	0	996147200	74	4980
2026-01-05 01:29:08.61	235.13	32.15	-55.5	-58.2	13.4	0.00e+00	0	28	0	1003487232	76	5103
2026-01-05 01:29:12.59	234.67	31.39	-55.3	-57.9	13.5	0.00e+00	0	28	0	1010827264	76	4934
2026-01-05 01:29:16.60	234.23	30.63	-55.0	-57.3	13.8	0.00e+00	0	28	0	1018167296	76	4614
2026-01-05 01:29:20.59	233.81	29.90	-55.0	-57.3	13.8	0.00e+00	0	28	0	1025507328	76	4616
2026-01-05 01:29:24.59	233.41	29.18	-55.5	-58.1	13.4	0.00e+00	0	28	0	1032847360	76	5092
2026-01-05 01:29:28.57	233.03	28.48	-55.6	-58.3	13.3	0.00e+00	0	28	0	1040187392	76	5211
2026-01-05 01:29:32.57	232.66	27.80	-55.1	-57.6	13.7	0.00e+00	0	28	0	1048576000	76	4774
2026-01-05 01:29:36.57	232.31	27.13	-54.4	-56.6	14.1	0.00e+00	0	28	0	1055916032	75	4499
2026-01-05 01:29:40.57	231.98	26.47	-54.5	-56.8	14.0	0.00e+00	0	28	0	1063256064	75	4609
2026-01-05 01:29:44.57	231.66	25.83	-54.7	-57.0	13.9	0.00e+00	0	28	0	1070596096	75	4731
2026-01-05 01:29:48.57	231.35	25.20	-54.4	-56.6	14.0	0.00e+00	0	28	0	1077936128	75	4525
2026-01-05 01:29:52.55	231.05	24.59	-54.3	-56.5	14.1	0.00e+00	0	28	0	1085276160	75	4461
2026-01-05 01:29:56.53	230.77	23.99	-54.5	-56.8	14.0	0.00e+00	0	28	0	1092616192	75	4601
2026-01-05 01:30:00.51	230.50	23.41	-54.3	-56.6	14.0	0.00e+00	0	28	0	1101004800	75	4500
2026-01-05 01:30:04.48	230.24	22.84	-54.0	-56.1	14.2	0.00e+00	0	28	0	1108344832	74	4506
2026-01-05 01:30:08.48	229.98	22.27	-53.3	-55.2	14.5	0.00e+00	0	28	0	1115684864	73	4325
2026-01-05 01:30:12.47	229.74	21.72	-53.3	-55.2	14.4	0.00e+00	0	28	0	1123024896	72	4552
2026-01-05 01:30:16.46	229.50	21.18	-53.3	-55.2	14.4	0.00e+00	0	28	0	1130364928	72	4547
2026-01-05 01:30:20.47	229.28	20.65	-53.4	-55.4	14.3	0.00e+00	0	28	0	1137704960	72	4664
2026-01-05 01:30:24.47	229.06	20.13	-53.5	-55.4	14.2	0.00e+00	0	28	0	1145044992	72	4702
2026-01-05 01:30:28.47	228.85	19.62	-53.4	-55.3	14.3	0.00e+00	0	28	0	1153433600	72	4634
2026-01-05 01:30:32.47	228.64	19.12	-53.4	-55.4	14.3	0.00e+00	0	28	0	1160773632	72	4657
2026-01-05 01:30:36.46	228.45	18.63	-53.7	-55.8	14.1	0.00e+00	0	28	0	1168113664	72	4889
2026-01-05 01:30:40.49	228.26	18.15	-53.7	-55.8	14.1	0.00e+00	0	28	0	1175453696	72	4875
2026-01-05 01:30:44.48	228.07	17.67	-53.5	-55.6	14.2	0.00e+00	0	28	0	1182793728	72	4769
2026-01-05 01:30:48.48	227.89	17.21	-53.4	-55.4	14.2	0.00e+00	0	28	0	1190133760	72	4667
2026-01-05 01:30:52.45	227.72	16.76	-53.3	-55.3	14.3	0.00e+00	0	28	0	1198522368	72	4616
2026-01-05 01:30:56.43	227.56	16.31	-53.4	-55.4	14.2	0.00e+00	0	28	0	1205862400	72	4689
2026-01-05 01:31:00.42	227.40	15.88	-53.7	-55.7	14.0	0.00e+00	0	28	0	1213202432	72	4862
2026-01-05 01:31:04.40	227.24	15.45	-53.7	-55.9	14.0	0.00e+00	0	28	0	1220542464	72	4929
2026-01-05 01:31:08.40	227.09	15.02	-53.9	-56.0	13.9	0.00e+00	0	28	0	1227882496	72	5027
2026-01-05 01:31:12.39	226.94	14.60	-53.8	-55.9	14.1	0.00e+00	0	28	0	1235222528	73	4695
2026-01-05 01:31:16.37	226.80	14.19	-53.9	-56.1	14.0	0.00e+00	0	28	0	1242562560	73	4764
2026-01-05 01:31:20.37	226.66	13.79	-54.0	-56.2	13.9	0.00e+00	0	28	0	1249902592	73	4823
2026-01-05 01:31:24.37	226.53	13.39	-53.9	-56.1	14.0	0.00e+00	0	28	0	1258291200	73	4773
2026-01-05 01:31:28.37	226.39	13.00	-54.1	-56.4	13.8	0.00e+00	0	28	0	1265631232	73	4964
2026-01-05 01:31:32.35	226.27	12.62	-54.2	-56.6	13.7	0.00e+00	0	28	0	1272971264	73	5044
2026-01-05 01:31:36.35	226.14	12.24	-54.2	-56.6	13.7	0.00e+00	0	28	0	1280311296	73	5056
2026-01-05 01:31:40.35	226.02	11.86	-54.3	-56.7	13.6	0.00e+00	0	28	0	1287651328	73	5151
2026-01-05 01:31:44.35	225.91	11.49	-54.3	-56.7	13.6	0.00e+00	0	28	0	1294991360	73	5108
2026-01-05 01:31:48.34	225.79	11.13	-54.4	-56.9	13.5	0.00e+00	0	28	0	1302331392	73	5224
2026-01-05 01:31:52.34	225.68	10.77	-54.4	-56.9	13.6	0.00e+00	0	28	0	1310720000	74	4973
2026-01-05 01:31:56.34	225.58	10.42	-54.6	-57.2	13.4	0.00e+00	0	28	0	1318060032	74	5109
2026-01-05 01:32:00.32	225.47	10.07	-54.6	-57.3	13.4	0.00e+00	0	28	0	1325400064	74	5170
2026-01-05 01:32:04.30	225.37	9.73	-54.8	-57.5	13.2	0.00e+00	0	28	0	1332740096	74	5327
2026-01-05 01:32:08.30	225.27	9.39	-54.8	-57.5	13.3	0.00e+00	0	28	0	1340080128	75	4999
2026-01-05 01:32:12.30	225.18	9.06	-54.8	-57.5	13.3	0.00e+00	0	28	0	1347420160	75	4990
2026-01-05 01:32:16.30	225.08	8.73	-54.8	-57.6	13.2	0.00e+00	0	28	0	1354760192	75	5054
2026-01-05 01:32:20.30	224.99	8.40	-54.8	-57.5	13.3	0.00e+00	0	28	0	1363148800	75	5014
2026-01-05 01:32:24.29	224.90	8.08	-54.8	-57.5	13.2	0.00e+00	0	28	0	1370488832	75	5035
2026-01-05 01:32:28.28	224.81	7.77	-54.6	-57.3	13.3	0.00e+00	0	28	0	1377828864	75	4906
2026-01-05 01:32:32.26	224.73	7.45	-54.7	-57.5	13.2	0.00e+00	0	28	0	1385168896	75	4999
2026-01-05 01:32:36.26	224.65	7.14	-54.7	-57.4	13.2	0.00e+00	0	28	0	1392508928	75	4969
2026-01-05 01:32:40.26	224.56	6.84	-54.7	-57.5	13.2	0.00e+00	0	28	0	1399848960	75	5038
2026-01-05 01:32:44.24	224.49	6.53	-54.8	-57.7	13.0	0.00e+00	0	28	0	1407188992	75	5151
2026-01-05 01:32:48.23	224.41	6.24	-54.8	-57.8	12.9	0.00e+00	0	28	0	1414529024	75	5189
2026-01-05 01:32:52.23	224.33	5.94	-55.0	-58.1	12.7	0.00e+00	0	28	0	1422917632	75	5377
2026-01-05 01:32:56.22	224.26	5.65	-55.2	-58.5	12.4	0.00e+00	0	28	0	1430257664	75	5637
2026-01-05 01:33:00.21	224.19	5.36	-55.2	-58.6	12.4	0.00e+00	0	28	0	1437597696	75	5701
2026-01-05 01:33:04.19	224.12	5.07	-55.3	-58.7	12.3	1.50e-06	0	28	0	1444937728	75	5757
2026-01-05 01:33:08.18	224.05	4.79	-60.0	-76.0	3.8	1.49e+00	0	28	104	1448083456	85	23683
2026-01-05 01:33:12.16	223.98	4.51	-60.4	-76.5	3.8	1.49e+00	0	28	104	1448083456	85	25084
2026-01-05 01:33:16.15	223.92	4.23	-60.7	-76.8	3.8	1.49e+00	0	28	104	1448083456	86	24464
2026-01-05 01:33:20.15	223.85	3.96	-60.8	-76.9	3.8	1.49e+00	0	28	104	1448083456	86	24709
2026-01-05 01:33:24.14	223.79	3.69	-60.9	-77.0	3.8	1.49e+00	0	28	104	1448083456	86	25030
2026-01-05 01:33:28.15	223.73	3.42	-61.0	-77.1	3.8	1.49e+00	0	28	104	1448083456	87	23967
2026-01-05 01:33:32.15	223.67	3.15	-60.9	-77.0	3.8	1.49e+00	0	28	104	1448083456	87	23705
2026-01-05 01:33:36.15	223.61	2.88	-60.9	-77.0	3.8	1.49e+00	0	28	104	1448083456	87	23596
2026-01-05 01:33:40.14	223.55	2.62	-60.8	-76.9	3.8	1.49e+00	0	28	104	1448083456	87	23377
2026-01-05 01:33:44.15	223.50	2.36	-60.8	-76.8	3.8	1.49e+00	0	28	104	1448083456	87	23306
2026-01-05 01:33:48.16	223.44	2.10	-60.8	-76.8	3.8	1.49e+00	0	28	104	1448083456	87	23294

#Closed at: 2026-01-05 01:33:49
#Recorded file [1448 MB]: D:/lorett/data/31004_260105_041929.dat