passes_logs/2026/01/05/R3.2S_Murmansk/R3.2S_Murmansk__20260105_040651_AQUA_rec.log

#Pass ID: 20260105_040651_AQUA
#Satellite: AQUA
#Configuration: AQUA
#almurnet v.1.7.20251203
#Start time: 2026-01-05 04:06:52

#Version: 2.2.20231116
#Station: R3.2S_Murmansk
#Location: 33.079688 lon 68.888172 lat
#TLE: 1 27424U 02022A   26003.93831470  .00001925  00000+0  39553-3 0  9995
#TLE: 2 27424  98.4067 330.1809 0002003  92.1713 343.8415 14.61796291259276

#Time	Az	El	Level	Level2	SNR	BER	BlckErr	Temp	State	Recorded	gain1	gain2
2026-01-05 04:06:52.87	30.87	2.08	-57.8	-77.1	3.8	7.47e-01	0	25	0	0	84	33231
2026-01-05 04:06:55.85	30.72	2.27	-57.5	-76.9	3.8	7.44e-01	0	25	104	0	82	36469
2026-01-05 04:06:58.84	30.58	2.46	-57.5	-76.9	3.8	7.44e-01	0	26	104	0	82	36428
2026-01-05 04:07:01.83	30.43	2.65	-57.5	-76.9	3.8	7.48e-01	0	26	104	0	82	36342
2026-01-05 04:07:04.84	30.28	2.85	-57.5	-76.9	3.8	7.43e-01	0	26	104	0	82	36358
2026-01-05 04:07:07.83	30.12	3.04	-57.5	-76.9	3.8	7.47e-01	0	26	104	0	82	36429
2026-01-05 04:07:10.83	29.97	3.24	-57.5	-76.9	3.8	7.47e-01	0	26	104	0	82	36297
2026-01-05 04:07:13.84	29.81	3.43	-57.5	-76.9	3.8	7.42e-01	0	26	104	0	82	36148
2026-01-05 04:07:16.83	29.64	3.63	-57.5	-76.9	3.8	7.49e-01	0	26	104	0	82	36264
2026-01-05 04:07:19.82	29.48	3.83	-57.5	-76.9	3.8	7.46e-01	0	26	104	0	82	36347
2026-01-05 04:07:22.83	29.31	4.03	-57.5	-76.9	3.8	7.45e-01	0	26	104	0	82	36112
2026-01-05 04:07:25.83	29.14	4.24	-57.5	-76.9	3.8	7.46e-01	0	26	104	0	82	36269
2026-01-05 04:07:28.83	28.97	4.44	-57.4	-76.4	3.8	7.45e-01	0	26	104	0	82	34411
2026-01-05 04:07:31.83	28.80	4.65	-57.3	-75.4	3.8	7.45e-01	0	26	104	0	82	30387
2026-01-05 04:07:34.83	28.62	4.85	-56.9	-73.4	3.8	7.44e-01	0	26	104	0	82	24135
2026-01-05 04:07:37.84	28.44	5.06	-57.0	-73.3	3.8	7.46e-01	0	26	104	0	82	23923
2026-01-05 04:07:40.84	28.25	5.27	-57.7	-76.0	3.8	7.48e-01	0	26	104	0	83	30979
2026-01-05 04:07:43.83	28.06	5.49	-53.6	-66.1	3.9	7.46e-01	0	26	104	0	76	14818
2026-01-05 04:07:46.83	27.87	5.70	-55.5	-69.1	3.9	7.48e-01	0	27	104	0	78	18566
2026-01-05 04:07:49.81	27.68	5.91	-53.2	-65.4	3.8	7.46e-01	0	27	104	0	75	14393
2026-01-05 04:07:52.79	27.49	6.13	-52.2	-64.1	3.8	7.44e-01	0	27	104	0	73	14031
2026-01-05 04:07:55.78	27.29	6.35	-57.3	-74.5	3.8	7.48e-01	0	27	104	0	82	27509
2026-01-05 04:07:58.76	27.08	6.57	-53.5	-65.8	3.8	7.49e-01	0	27	104	0	76	14342
2026-01-05 04:08:01.76	26.88	6.79	-52.0	-63.9	3.8	7.44e-01	0	27	104	0	73	13604
2026-01-05 04:08:04.74	26.67	7.01	-54.8	-67.5	3.9	7.45e-01	0	27	104	0	78	15478
2026-01-05 04:08:07.74	26.45	7.24	-53.0	-65.1	3.9	7.44e-01	0	27	104	0	75	13920
2026-01-05 04:08:10.73	26.23	7.46	-56.5	-71.0	3.8	7.45e-01	0	27	104	0	82	18515
2026-01-05 04:08:13.73	26.01	7.69	-53.6	-65.9	3.9	7.46e-01	0	27	104	0	76	14499
2026-01-05 04:08:16.73	25.78	7.93	-52.1	-63.9	3.9	7.48e-01	0	27	104	0	73	13637
2026-01-05 04:08:19.73	25.55	8.16	-57.6	-74.2	3.8	7.47e-01	0	27	104	0	82	26501
2026-01-05 04:08:22.73	25.32	8.40	-54.7	-67.6	3.9	7.45e-01	0	27	104	0	78	15633
2026-01-05 04:08:25.73	25.08	8.63	-57.9	-75.0	3.7	7.48e-01	0	27	104	0	83	27465
2026-01-05 04:08:28.73	24.83	8.87	-57.9	-75.5	3.8	7.46e-01	0	27	104	0	83	29195
2026-01-05 04:08:31.73	24.58	9.11	-52.3	-64.1	3.8	7.47e-01	0	27	104	0	73	14030
2026-01-05 04:08:34.74	24.33	9.36	-54.8	-67.6	3.8	7.47e-01	0	27	104	0	77	16552
2026-01-05 04:08:37.75	24.07	9.61	-57.1	-72.4	3.8	7.48e-01	0	27	104	0	81	22902
2026-01-05 04:08:40.75	23.81	9.85	-52.0	-63.7	3.9	7.45e-01	0	27	104	0	73	13330
2026-01-05 04:08:43.75	23.54	10.10	-57.4	-73.4	3.8	7.44e-01	0	27	104	0	82	24243
2026-01-05 04:08:46.75	23.26	10.36	-52.1	-63.9	3.9	7.45e-01	0	27	104	0	73	13611
2026-01-05 04:08:49.76	22.98	10.61	-50.8	-62.3	3.9	7.46e-01	0	27	104	0	70	13543
2026-01-05 04:08:52.74	22.70	10.87	-54.0	-66.4	3.9	7.47e-01	0	27	104	0	77	14430
2026-01-05 04:08:55.73	22.41	11.13	-51.7	-63.4	3.9	7.45e-01	0	27	104	0	72	13644
2026-01-05 04:08:58.71	22.12	11.39	-56.5	-70.6	3.9	7.44e-01	0	27	104	0	82	17653
2026-01-05 04:09:01.71	21.81	11.65	-53.7	-65.8	3.9	7.43e-01	0	27	104	0	76	14347
2026-01-05 04:09:04.70	21.51	11.92	-52.2	-64.0	3.9	7.47e-01	0	27	104	0	73	13802
2026-01-05 04:09:07.69	21.19	12.18	-57.6	-73.4	3.8	7.48e-01	0	27	104	0	82	24299
2026-01-05 04:09:10.69	20.87	12.46	-53.1	-65.0	3.9	7.40e-01	0	27	104	0	75	13871
2026-01-05 04:09:13.68	20.55	12.73	-57.5	-73.0	3.8	7.49e-01	0	27	104	0	82	23183
2026-01-05 04:09:16.68	20.21	13.01	-58.0	-74.9	3.8	7.48e-01	0	27	104	0	83	27260
2026-01-05 04:09:19.67	19.87	13.28	-52.3	-64.0	3.9	7.46e-01	0	27	104	0	73	13843
2026-01-05 04:09:22.68	19.52	13.57	-53.9	-66.1	3.8	7.45e-01	0	27	104	0	75	15621
2026-01-05 04:09:25.67	19.17	13.85	-56.6	-70.6	3.8	7.49e-01	0	27	104	0	80	19732
2026-01-05 04:09:28.68	18.80	14.14	-50.8	-62.3	3.9	7.43e-01	0	27	104	0	70	13447
2026-01-05 04:09:31.67	18.43	14.43	-57.1	-71.8	3.8	7.46e-01	0	27	104	0	81	21473
2026-01-05 04:09:34.67	18.05	14.72	-51.8	-63.4	3.9	7.44e-01	0	27	104	0	72	13699
2026-01-05 04:09:37.67	17.66	15.01	-50.7	-62.2	3.9	7.44e-01	0	27	104	0	70	13283
2026-01-05 04:09:40.66	17.27	15.31	-52.9	-64.9	3.9	7.45e-01	0	27	104	0	75	13634
2026-01-05 04:09:43.67	16.86	15.61	-50.3	-61.7	3.8	7.46e-01	0	27	104	0	69	13268
2026-01-05 04:09:46.66	16.45	15.91	-56.7	-70.7	3.9	7.50e-01	0	27	104	0	82	17867
2026-01-05 04:09:49.66	16.02	16.22	-53.6	-65.7	3.9	7.49e-01	0	27	104	0	76	14118
2026-01-05 04:09:52.66	15.59	16.53	-51.2	-62.8	3.8	7.45e-01	0	27	104	0	71	13421
2026-01-05 04:09:55.64	15.15	16.83	-57.7	-73.3	3.8	7.46e-01	0	27	104	0	83	22701
2026-01-05 04:09:58.63	14.70	17.15	-52.5	-64.3	3.9	7.48e-01	0	27	104	0	74	13541
2026-01-05 04:10:01.62	14.24	17.46	-56.3	-70.0	3.8	7.45e-01	0	27	104	0	80	18405
2026-01-05 04:10:04.61	13.76	17.78	-58.2	-74.4	3.8	7.47e-01	0	27	104	0	84	24383
2026-01-05 04:10:07.61	13.28	18.10	-51.5	-63.1	3.9	7.45e-01	0	27	104	0	72	13141
2026-01-05 04:10:10.61	12.78	18.43	-53.1	-65.0	3.9	7.47e-01	0	27	104	0	73	15451
2026-01-05 04:10:13.61	12.27	18.75	-55.5	-68.3	3.8	7.45e-01	0	27	104	0	78	16923
2026-01-05 04:10:16.62	11.75	19.08	-49.9	-61.2	3.9	7.46e-01	0	27	104	0	69	12614
2026-01-05 04:10:19.63	11.22	19.41	-57.2	-71.8	3.8	7.47e-01	0	27	104	0	82	20221
2026-01-05 04:10:22.63	10.67	19.75	-51.5	-63.0	3.8	7.51e-01	0	27	104	0	71	13746
2026-01-05 04:10:25.64	10.11	20.08	-50.7	-62.1	3.9	7.46e-01	0	27	104	0	70	13124
2026-01-05 04:10:28.64	9.54	20.42	-54.0	-66.2	3.9	7.45e-01	0	27	104	0	77	14092
2026-01-05 04:10:31.64	8.96	20.76	-50.6	-61.9	3.8	7.46e-01	0	27	104	0	70	12894
2026-01-05 04:10:34.64	8.36	21.10	-57.0	-71.3	3.8	7.44e-01	0	27	104	0	83	17940
2026-01-05 04:10:37.64	7.75	21.45	-53.7	-65.6	3.9	7.45e-01	0	27	104	0	76	13894
2026-01-05 04:10:40.63	7.12	21.79	-50.4	-61.8	3.9	7.47e-01	0	27	104	0	70	12737
2026-01-05 04:10:43.62	6.48	22.14	-57.4	-71.9	3.8	7.48e-01	0	27	104	0	82	20454
2026-01-05 04:10:46.63	5.82	22.49	-52.7	-64.5	3.9	7.44e-01	0	27	104	0	74	13758
2026-01-05 04:10:49.63	5.15	22.84	-51.8	-63.4	3.8	7.48e-01	0	27	104	0	72	13592
2026-01-05 04:10:52.62	4.46	23.18	-54.2	-66.2	3.9	7.47e-01	0	27	104	0	77	14158
2026-01-05 04:10:55.60	3.76	23.53	-50.6	-62.0	3.8	7.46e-01	0	27	104	0	70	13038
2026-01-05 04:10:58.58	3.04	23.88	-52.2	-63.8	3.9	7.46e-01	0	27	104	0	73	13541
2026-01-05 04:11:01.57	2.30	24.23	-55.7	-68.8	3.8	7.46e-01	0	27	104	0	79	17049
2026-01-05 04:11:04.56	1.54	24.58	-50.5	-61.9	3.8	7.43e-01	0	27	104	0	70	12904
2026-01-05 04:11:07.55	0.77	24.93	-57.3	-71.4	3.8	7.49e-01	0	27	104	0	82	19366
2026-01-05 04:11:10.55	359.97	25.28	-50.9	-62.3	3.8	7.47e-01	0	27	104	0	70	13474
2026-01-05 04:11:13.54	359.16	25.63	-50.4	-61.7	3.8	7.44e-01	0	27	104	0	69	13318
2026-01-05 04:11:16.54	358.33	25.98	-56.6	-70.2	3.9	7.42e-01	0	27	104	0	82	16848
2026-01-05 04:11:19.54	357.47	26.33	-50.9	-62.4	3.9	7.45e-01	0	27	104	0	71	12853
2026-01-05 04:11:22.54	356.60	26.67	-52.2	-63.8	3.8	7.45e-01	0	27	104	0	73	13478
2026-01-05 04:11:25.53	355.71	27.01	-55.0	-67.3	3.8	7.48e-01	0	27	104	0	77	16047
2026-01-05 04:11:28.52	354.80	27.35	-49.8	-61.1	3.8	7.43e-01	0	27	104	0	68	13207
2026-01-05 04:11:31.52	353.87	27.69	-57.8	-72.5	3.8	7.44e-01	0	28	104	0	83	20704
2026-01-05 04:11:34.52	352.92	28.02	-53.9	-65.9	3.9	7.45e-01	0	27	104	0	77	13627
2026-01-05 04:11:37.53	351.94	28.34	-53.4	-65.3	3.8	7.45e-01	0	27	104	0	74	15122
2026-01-05 04:11:40.51	350.95	28.66	-56.7	-70.1	3.9	7.42e-01	0	27	104	0	82	16612
2026-01-05 04:11:43.52	349.93	28.98	-50.0	-61.3	3.8	7.47e-01	0	27	104	0	69	12793
2026-01-05 04:11:46.52	348.90	29.29	-51.8	-63.2	3.8	7.46e-01	0	27	104	0	72	13302
2026-01-05 04:11:49.51	347.84	29.59	-54.3	-66.6	3.8	7.44e-01	0	28	104	0	76	15607
2026-01-05 04:11:52.49	346.77	29.89	-49.6	-60.8	3.9	7.46e-01	0	27	104	0	68	12762
2026-01-05 04:11:55.48	345.68	30.17	-57.5	-71.4	3.8	7.47e-01	0	27	104	0	82	19347
2026-01-05 04:11:58.46	344.57	30.45	-54.6	-66.8	3.9	7.44e-01	0	27	104	0	78	14240
2026-01-05 04:12:01.44	343.44	30.72	-52.9	-64.7	3.8	7.43e-01	0	27	104	0	73	14932
2026-01-05 04:12:04.45	342.27	30.98	-58.7	-74.3	3.8	7.47e-01	0	27	104	0	86	21326
2026-01-05 04:12:07.44	341.10	31.22	-49.9	-61.1	3.8	7.46e-01	0	28	104	0	69	12493
2026-01-05 04:12:10.43	339.91	31.46	-51.6	-63.0	3.9	7.45e-01	0	28	104	0	70	14610
2026-01-05 04:12:13.43	338.70	31.69	-53.5	-65.3	3.8	7.46e-01	0	28	104	0	74	15080
2026-01-05 04:12:16.43	337.47	31.90	-49.9	-61.2	3.8	7.42e-01	0	27	104	0	68	13285
2026-01-05 04:12:19.44	336.22	32.10	-57.5	-71.3	3.8	7.47e-01	0	28	104	0	82	19079
2026-01-05 04:12:22.46	334.94	32.29	-50.2	-61.4	3.8	7.48e-01	0	27	104	0	69	12848
2026-01-05 04:12:25.47	333.66	32.46	-50.1	-61.3	3.8	7.49e-01	0	28	104	0	68	13492
2026-01-05 04:12:28.47	332.37	32.61	-56.9	-70.6	3.9	7.41e-01	0	27	104	0	83	16534
2026-01-05 04:12:31.48	331.07	32.75	-50.0	-61.2	3.8	7.45e-01	0	27	104	0	69	12578
2026-01-05 04:12:34.46	329.76	32.88	-54.8	-67.2	3.9	7.43e-01	0	27	104	0	79	14128
2026-01-05 04:12:37.45	328.44	32.99	-54.0	-65.9	3.8	7.49e-01	0	28	104	0	75	15257
2026-01-05 04:12:40.46	327.11	33.08	-50.2	-61.4	3.8	7.47e-01	0	27	104	0	69	12955
2026-01-05 04:12:43.46	325.77	33.15	-57.9	-72.2	3.8	7.49e-01	0	27	104	0	83	19966
2026-01-05 04:12:46.46	324.42	33.21	-50.6	-61.8	3.8	7.44e-01	0	27	104	0	70	12798
2026-01-05 04:12:49.47	323.07	33.25	-50.4	-61.7	3.8	7.43e-01	0	27	104	0	70	12604
2026-01-05 04:12:52.46	321.72	33.27	-58.1	-72.8	3.9	7.42e-01	0	27	104	0	85	18955
2026-01-05 04:12:55.46	320.37	33.28	-49.6	-52.0	5.0	7.04e-01	92	28	104	0	68	4600
2026-01-05 04:12:58.44	319.03	33.27	-49.7	-51.2	15.4	6.03e-01	0	28	0	4718592	68	4220
2026-01-05 04:13:01.43	317.68	33.23	-49.9	-51.5	15.4	6.01e-01	0	27	0	10485760	68	4352
2026-01-05 04:13:04.42	316.34	33.19	-49.6	-51.0	15.5	6.02e-01	0	28	0	16252928	68	4145
2026-01-05 04:13:07.40	315.00	33.12	-49.7	-51.3	15.4	6.03e-01	0	27	0	21495808	68	4246
2026-01-05 04:13:10.41	313.66	33.04	-50.4	-52.0	15.3	6.02e-01	0	28	0	27262976	68	4645
2026-01-05 04:13:13.40	312.34	32.94	-50.0	-51.5	15.4	6.01e-01	0	27	0	33030144	68	4387
2026-01-05 04:13:16.40	311.02	32.82	-49.6	-51.1	15.4	6.03e-01	0	27	0	38273024	68	4190
2026-01-05 04:13:19.40	309.71	32.69	-50.1	-51.8	15.3	6.02e-01	0	27	0	44040192	68	4498
2026-01-05 04:13:22.39	308.41	32.55	-49.7	-51.2	15.5	6.02e-01	0	28	0	49807360	68	4215
2026-01-05 04:13:25.39	307.13	32.38	-49.9	-51.5	15.4	6.03e-01	0	28	0	55574528	68	4344
2026-01-05 04:13:28.38	305.86	32.21	-50.0	-51.6	15.3	6.03e-01	0	28	0	60817408	68	4396
2026-01-05 04:13:31.38	304.60	32.01	-50.6	-52.3	15.2	6.04e-01	0	27	0	66584576	68	4782
2026-01-05 04:13:34.38	303.36	31.81	-50.0	-51.6	15.4	6.03e-01	0	28	0	72351744	68	4411
2026-01-05 04:13:37.37	302.14	31.59	-50.1	-51.6	15.4	6.00e-01	0	27	0	77594624	69	4186
2026-01-05 04:13:40.37	300.93	31.36	-50.7	-52.4	15.2	6.03e-01	0	28	0	83361792	69	4582
2026-01-05 04:13:43.38	299.74	31.12	-49.9	-51.4	15.4	6.04e-01	0	27	0	89128960	68	4327
2026-01-05 04:13:46.37	298.57	30.86	-50.5	-52.1	15.2	6.03e-01	0	27	0	94896128	68	4705
2026-01-05 04:13:49.36	297.43	30.60	-50.9	-52.7	15.2	6.01e-01	0	27	0	100139008	69	4726
2026-01-05 04:13:52.36	296.30	30.33	-50.5	-52.2	15.3	6.02e-01	0	27	0	105906176	69	4452
2026-01-05 04:13:55.35	295.19	30.04	-50.1	-51.7	15.4	6.02e-01	0	27	0	111673344	69	4217
2026-01-05 04:13:58.35	294.10	29.75	-50.5	-52.1	15.4	6.02e-01	0	27	0	116916224	69	4436
2026-01-05 04:14:01.33	293.03	29.45	-50.6	-52.2	15.2	6.02e-01	0	27	0	122683392	68	4757
2026-01-05 04:14:04.33	291.98	29.15	-50.0	-51.6	15.5	6.03e-01	0	27	0	128450560	69	4169
2026-01-05 04:14:07.32	290.96	28.84	-50.5	-52.2	15.3	6.02e-01	0	27	0	134217728	69	4452
2026-01-05 04:14:10.31	289.95	28.52	-50.4	-52.0	15.4	6.04e-01	0	27	0	139460608	69	4367
2026-01-05 04:14:13.32	288.96	28.19	-49.8	-51.3	15.4	6.02e-01	0	27	0	145227776	68	4260
2026-01-05 04:14:16.32	287.99	27.86	-51.2	-53.0	15.2	6.00e-01	0	27	0	150994944	70	4651
2026-01-05 04:14:19.32	287.05	27.53	-49.9	-51.5	15.5	6.03e-01	0	27	0	156237824	69	4114
2026-01-05 04:14:22.32	286.12	27.19	-50.9	-52.6	15.2	6.03e-01	0	27	0	162004992	69	4700
2026-01-05 04:14:25.33	285.21	26.85	-50.7	-52.3	15.3	6.02e-01	0	27	0	167772160	70	4281
2026-01-05 04:14:28.32	284.33	26.51	-50.1	-51.6	15.5	6.02e-01	0	27	0	173539328	69	4189
2026-01-05 04:14:31.33	283.46	26.16	-51.1	-52.9	15.1	6.04e-01	0	27	0	178782208	69	4834
2026-01-05 04:14:34.33	282.62	25.81	-51.4	-53.3	15.2	6.02e-01	0	27	0	184549376	70	4795
2026-01-05 04:14:37.33	281.79	25.46	-51.8	-53.8	15.1	6.03e-01	0	27	0	190316544	71	4770
2026-01-05 04:14:40.31	280.99	25.11	-51.7	-53.7	15.1	6.02e-01	0	28	0	195559424	71	4735
2026-01-05 04:14:43.30	280.20	24.76	-51.3	-53.2	15.2	6.02e-01	0	27	0	201326592	70	4716
2026-01-05 04:14:46.30	279.43	24.41	-51.1	-53.0	15.2	6.04e-01	0	27	0	207093760	70	4619
2026-01-05 04:14:49.30	278.68	24.06	-51.5	-53.3	15.1	6.00e-01	0	27	0	212860928	70	4814
2026-01-05 04:14:52.30	277.94	23.70	-50.2	-51.8	15.4	6.01e-01	0	27	0	218103808	69	4254
2026-01-05 04:14:55.29	277.23	23.35	-50.4	-52.0	15.4	6.03e-01	0	28	0	223870976	69	4370
2026-01-05 04:14:58.30	276.52	23.00	-50.9	-52.6	15.2	6.03e-01	0	27	0	229638144	69	4695
2026-01-05 04:15:01.30	275.84	22.65	-50.6	-52.2	15.3	6.02e-01	0	27	0	234881024	69	4488
2026-01-05 04:15:04.29	275.17	22.30	-50.7	-52.4	15.2	6.04e-01	0	28	0	240648192	69	4567
2026-01-05 04:15:07.29	274.52	21.95	-50.8	-52.5	15.2	6.00e-01	0	28	0	246415360	69	4641
2026-01-05 04:15:10.27	273.89	21.61	-50.3	-52.0	15.3	6.03e-01	0	27	0	252182528	69	4364
2026-01-05 04:15:13.27	273.26	21.26	-50.7	-52.5	15.3	6.02e-01	0	27	0	257425408	69	4603
2026-01-05 04:15:16.26	272.66	20.92	-50.6	-52.3	15.3	6.03e-01	0	27	0	263192576	69	4543
2026-01-05 04:15:19.25	272.07	20.58	-50.5	-52.2	15.3	6.04e-01	0	27	0	268959744	69	4486
2026-01-05 04:15:22.25	271.49	20.24	-50.6	-52.4	15.3	6.03e-01	0	28	0	274202624	69	4556
2026-01-05 04:15:25.25	270.92	19.90	-50.4	-52.1	15.3	6.03e-01	0	28	0	279969792	69	4409
2026-01-05 04:15:28.26	270.36	19.56	-50.5	-52.2	15.3	6.04e-01	0	27	0	285736960	69	4449
2026-01-05 04:15:31.26	269.82	19.23	-50.5	-52.2	15.3	6.03e-01	0	28	0	291504128	69	4469
2026-01-05 04:15:34.25	269.30	18.90	-50.6	-52.3	15.3	6.01e-01	0	27	0	296747008	69	4505
2026-01-05 04:15:37.25	268.78	18.57	-50.2	-51.8	15.4	6.01e-01	0	28	0	302514176	69	4274
2026-01-05 04:15:40.26	268.27	18.24	-50.4	-52.2	15.3	6.02e-01	0	27	0	308281344	69	4444
2026-01-05 04:15:43.27	267.78	17.92	-50.5	-52.2	15.3	6.01e-01	0	27	0	314048512	69	4444
2026-01-05 04:15:46.27	267.30	17.60	-50.3	-52.0	15.3	6.03e-01	0	27	0	319291392	69	4373
2026-01-05 04:15:49.27	266.83	17.28	-50.2	-51.8	15.4	6.04e-01	0	28	0	325058560	69	4275
2026-01-05 04:15:52.26	266.37	16.96	-50.3	-52.0	15.4	6.03e-01	0	28	0	330825728	69	4341
2026-01-05 04:15:55.24	265.92	16.65	-50.4	-52.1	15.3	6.01e-01	0	27	0	336068608	69	4401
2026-01-05 04:15:58.24	265.48	16.34	-50.2	-51.8	15.4	6.03e-01	0	28	0	341835776	69	4266
2026-01-05 04:16:01.22	265.05	16.04	-50.2	-51.9	15.3	6.01e-01	0	28	0	347602944	69	4318
2026-01-05 04:16:04.22	264.63	15.73	-50.3	-52.0	15.3	6.02e-01	0	27	0	353370112	69	4373
2026-01-05 04:16:07.20	264.22	15.43	-50.4	-52.1	15.3	6.04e-01	0	27	0	358612992	69	4409
2026-01-05 04:16:10.19	263.82	15.13	-50.5	-52.2	15.3	6.03e-01	0	27	0	364380160	69	4452
2026-01-05 04:16:13.18	263.43	14.84	-50.4	-52.1	15.3	6.03e-01	0	28	0	370147328	69	4408
2026-01-05 04:16:16.17	263.04	14.54	-50.3	-52.0	15.3	6.01e-01	0	28	0	375390208	69	4365
2026-01-05 04:16:19.16	262.67	14.25	-50.3	-52.0	15.4	6.04e-01	0	28	0	381157376	69	4364
2026-01-05 04:16:22.15	262.30	13.96	-50.6	-52.3	15.3	6.02e-01	0	28	0	386924544	69	4533
2026-01-05 04:16:25.16	261.94	13.68	-50.6	-52.4	15.2	6.01e-01	0	28	0	392167424	69	4574
2026-01-05 04:16:28.16	261.58	13.39	-50.6	-52.3	15.3	6.05e-01	0	27	0	397934592	69	4536
2026-01-05 04:16:31.15	261.24	13.11	-50.3	-52.0	15.3	6.04e-01	0	27	0	403701760	69	4349
2026-01-05 04:16:34.16	260.90	12.83	-50.6	-52.3	15.3	6.04e-01	0	27	0	409468928	69	4513
2026-01-05 04:16:37.16	260.56	12.56	-50.7	-52.4	15.2	6.04e-01	0	27	0	414711808	69	4594
2026-01-05 04:16:40.16	260.24	12.28	-50.7	-52.4	15.3	6.03e-01	0	27	0	420478976	69	4597
2026-01-05 04:16:43.16	259.92	12.01	-50.5	-52.3	15.3	6.03e-01	0	28	0	426246144	69	4501
2026-01-05 04:16:46.16	259.60	11.74	-50.5	-52.3	15.3	6.02e-01	0	28	0	432013312	69	4511
2026-01-05 04:16:49.16	259.30	11.48	-50.6	-52.4	15.2	6.02e-01	0	28	0	437256192	69	4579
2026-01-05 04:16:52.17	258.99	11.21	-50.6	-52.3	15.3	6.00e-01	0	27	0	443023360	69	4535
2026-01-05 04:16:55.18	258.70	10.95	-50.7	-52.5	15.2	6.02e-01	0	28	0	448790528	69	4625
2026-01-05 04:16:58.18	258.41	10.69	-50.8	-52.6	15.2	6.03e-01	0	27	0	454557696	69	4668
2026-01-05 04:17:01.16	258.13	10.44	-50.9	-52.7	15.2	6.03e-01	0	27	0	459800576	69	4739
2026-01-05 04:17:04.15	257.85	10.18	-50.8	-52.7	15.2	6.01e-01	0	28	0	465567744	69	4716
2026-01-05 04:17:07.14	257.58	9.93	-50.9	-52.7	15.1	6.03e-01	0	28	0	471334912	69	4740
2026-01-05 04:17:10.12	257.31	9.69	-50.9	-52.8	15.1	6.03e-01	0	28	0	476577792	69	4787
2026-01-05 04:17:13.11	257.05	9.44	-50.9	-52.8	15.2	6.01e-01	0	27	0	482344960	69	4788
2026-01-05 04:17:16.10	256.79	9.19	-51.0	-52.9	15.1	6.02e-01	0	28	0	488112128	69	4850
2026-01-05 04:17:19.11	256.54	8.95	-51.0	-52.9	15.1	6.04e-01	0	27	0	493355008	69	4827
2026-01-05 04:17:22.09	256.29	8.71	-51.2	-53.1	15.2	6.04e-01	0	28	0	499122176	70	4694
2026-01-05 04:17:25.08	256.05	8.47	-51.2	-53.1	15.1	6.02e-01	0	28	0	504889344	70	4692
2026-01-05 04:17:28.08	255.81	8.23	-51.3	-53.3	15.1	6.02e-01	0	28	0	510132224	70	4762
2026-01-05 04:17:31.09	255.57	8.00	-51.1	-53.0	15.1	6.02e-01	0	28	0	515899392	70	4649
2026-01-05 04:17:34.08	255.34	7.77	-51.3	-53.2	15.1	6.03e-01	0	28	0	521666560	70	4752
2026-01-05 04:17:37.08	255.12	7.54	-51.4	-53.4	15.1	6.04e-01	0	28	0	527433728	70	4821
2026-01-05 04:17:40.08	254.89	7.31	-51.4	-53.4	15.1	6.00e-01	0	28	0	532676608	70	4816
2026-01-05 04:17:43.08	254.68	7.08	-51.4	-53.4	15.0	6.04e-01	0	28	0	538443776	70	4837
2026-01-05 04:17:46.07	254.46	6.85	-51.4	-53.4	15.0	6.03e-01	0	28	0	544210944	70	4864
2026-01-05 04:17:49.07	254.25	6.63	-51.5	-53.5	15.0	6.03e-01	0	28	0	549978112	70	4913
2026-01-05 04:17:52.06	254.04	6.41	-51.6	-53.6	15.0	6.01e-01	0	28	0	555220992	70	4980
2026-01-05 04:17:55.06	253.84	6.19	-51.6	-53.6	15.1	6.01e-01	0	28	0	560988160	71	4703
2026-01-05 04:17:58.05	253.64	5.97	-51.8	-54.0	14.9	6.06e-01	0	28	0	566755328	71	4872
2026-01-05 04:18:01.05	253.44	5.75	-51.7	-53.8	15.0	6.03e-01	0	28	0	571998208	71	4799
2026-01-05 04:18:04.04	253.25	5.54	-51.7	-53.8	15.0	6.03e-01	0	28	0	577765376	71	4795
2026-01-05 04:18:07.03	253.06	5.33	-51.7	-53.9	15.0	6.04e-01	0	27	0	583532544	71	4828
2026-01-05 04:18:10.03	252.87	5.12	-51.7	-53.8	15.0	6.02e-01	0	28	0	588775424	71	4813
2026-01-05 04:18:13.02	252.69	4.91	-59.0	-78.4	3.8	7.48e-01	0	27	104	592445440	85	36234
2026-01-05 04:18:16.02	252.51	4.70	-59.6	-79.0	3.8	7.49e-01	0	28	104	592445440	86	36760
2026-01-05 04:18:19.02	252.33	4.49	-60.0	-79.4	3.8	7.44e-01	0	28	104	592445440	87	36121
2026-01-05 04:18:22.01	252.15	4.29	-60.2	-79.6	3.8	7.45e-01	0	27	104	592445440	88	35261
2026-01-05 04:18:25.02	251.98	4.08	-60.4	-79.8	3.8	7.47e-01	0	28	104	592445440	88	35779
2026-01-05 04:18:28.01	251.81	3.88	-60.5	-79.9	3.8	7.44e-01	0	28	104	592445440	88	36266
2026-01-05 04:18:31.01	251.64	3.68	-60.5	-79.9	3.8	7.46e-01	0	28	104	592445440	88	36244
2026-01-05 04:18:34.00	251.48	3.48	-60.5	-79.9	3.8	7.47e-01	0	28	104	592445440	88	36341
2026-01-05 04:18:36.99	251.32	3.28	-60.5	-79.9	3.8	7.46e-01	0	28	104	592445440	88	36118
2026-01-05 04:18:39.99	251.16	3.08	-60.4	-79.8	3.8	7.45e-01	0	28	104	592445440	88	35851
2026-01-05 04:18:42.99	251.00	2.89	-60.4	-79.8	3.8	7.46e-01	0	28	104	592445440	88	35710
2026-01-05 04:18:45.98	250.85	2.69	-60.4	-79.7	3.8	7.46e-01	0	28	104	592445440	88	35623
2026-01-05 04:18:48.96	250.69	2.50	-60.3	-79.7	3.8	7.49e-01	0	28	104	592445440	88	35484
2026-01-05 04:18:51.96	250.54	2.31	-60.3	-79.7	3.8	7.45e-01	0	28	104	592445440	88	35525
2026-01-05 04:18:54.96	250.40	2.12	-60.3	-79.7	3.8	7.48e-01	0	28	104	592445440	88	35413

#Closed at: 2026-01-05 04:18:57
#Recorded file [592 MB]: D:/lorett/data/31004_260105_070652.dat