passes_logs/2026/01/05/R3.2S_Murmansk/R3.2S_Murmansk__20260105_211853_SUOMI_NPP_rec.log

#Pass ID: 20260105_211853_SUOMI NPP
#Satellite: SUOMI NPP
#Configuration: NPP
#almurnet v.1.7.20251203
#Start time: 2026-01-05 21:18:54

#Version: 2.2.20231116
#Station: R3.2S_Murmansk
#Location: 33.079688 lon 68.888172 lat
#TLE: 1 37849U 11061A   26004.95404768  .00000136  00000+0  85334-4 0  9991
#TLE: 2 37849  98.7801 307.0898 0002575  80.6707 279.4760 14.19522289735281

#Time	Az	El	Level	Level2	SNR	BER	BlckErr	Temp	State	Recorded	gain1	gain2
2026-01-05 21:18:54.56	18.66	2.05	-57.9	-73.9	3.8	1.49e+00	0	25	0	0	82	22018
2026-01-05 21:18:57.56	18.96	2.18	-57.8	-73.7	3.8	1.49e+00	0	25	104	0	80	24337
2026-01-05 21:19:00.58	19.26	2.31	-57.8	-73.7	3.8	1.49e+00	0	25	104	0	80	24239
2026-01-05 21:19:03.59	19.57	2.44	-57.8	-73.7	3.8	1.49e+00	0	25	104	0	80	24367
2026-01-05 21:19:06.60	19.88	2.57	-57.8	-73.8	3.8	1.49e+00	0	25	104	0	80	24531
2026-01-05 21:19:09.61	20.19	2.71	-57.8	-73.7	3.8	1.49e+00	0	25	104	0	80	24336
2026-01-05 21:19:12.60	20.50	2.84	-57.9	-73.8	3.8	1.49e+00	0	25	104	0	80	24444
2026-01-05 21:19:15.62	20.82	2.97	-57.8	-73.8	3.8	1.49e+00	0	25	104	0	80	24582
2026-01-05 21:19:18.63	21.14	3.10	-57.8	-73.8	3.8	1.49e+00	0	25	104	0	80	24654
2026-01-05 21:19:21.64	21.46	3.23	-57.8	-73.8	3.8	1.49e+00	0	25	104	0	80	24613
2026-01-05 21:19:24.64	21.78	3.36	-57.9	-73.7	3.8	1.49e+00	0	25	104	0	80	24338
2026-01-05 21:19:27.64	22.11	3.49	-57.9	-73.8	3.8	1.49e+00	0	25	104	0	80	24612
2026-01-05 21:19:30.64	22.44	3.62	-57.9	-73.9	3.8	1.49e+00	0	26	104	0	80	24700
2026-01-05 21:19:33.66	22.77	3.76	-57.9	-73.8	3.8	1.49e+00	0	26	104	0	80	24526
2026-01-05 21:19:36.68	23.11	3.89	-57.9	-73.7	3.8	1.49e+00	0	26	104	0	80	24360
2026-01-05 21:19:39.69	23.44	4.02	-57.9	-73.6	3.8	1.49e+00	0	26	104	0	80	23917
2026-01-05 21:19:42.69	23.78	4.15	-57.8	-73.8	3.8	1.49e+00	0	26	104	0	80	24457
2026-01-05 21:19:45.71	24.13	4.28	-57.8	-72.7	3.8	1.49e+00	0	26	104	0	80	21538
2026-01-05 21:19:48.73	24.48	4.41	-57.8	-71.7	3.9	1.48e+00	0	26	104	0	80	19261
2026-01-05 21:19:51.74	24.83	4.54	-57.3	-66.0	6.3	4.01e-01	0	26	0	2097152	80	9952
2026-01-05 21:19:54.74	25.18	4.67	-55.5	-59.9	11.2	2.62e-04	0	26	0	7340032	77	5902
2026-01-05 21:19:57.76	25.54	4.80	-55.0	-58.9	11.8	7.00e-07	0	26	0	13631488	76	5574
2026-01-05 21:20:00.78	25.90	4.93	-55.8	-60.7	10.4	3.10e-04	0	26	0	18874368	76	6875
2026-01-05 21:20:03.80	26.26	5.06	-56.4	-62.2	9.5	1.04e-02	0	26	0	25165824	78	7223
2026-01-05 21:20:06.81	26.63	5.19	-57.0	-65.9	6.2	1.73e-01	0	26	0	30408704	80	9854
2026-01-05 21:20:09.82	26.99	5.31	-54.2	-57.4	12.8	0.00e+00	0	26	0	35651584	74	5238
2026-01-05 21:20:12.83	27.37	5.44	-53.9	-56.8	13.1	0.00e+00	0	26	0	41943040	73	5209
2026-01-05 21:20:15.83	27.74	5.57	-54.2	-57.3	12.8	0.00e+00	0	26	0	47185920	73	5502
2026-01-05 21:20:18.83	28.11	5.70	-54.1	-57.1	12.9	0.00e+00	0	26	0	53477376	73	5392
2026-01-05 21:20:21.83	28.49	5.82	-53.9	-56.8	13.1	0.00e+00	0	26	0	58720256	73	5206
2026-01-05 21:20:24.83	28.88	5.95	-53.6	-56.3	13.4	0.00e+00	0	26	0	63963136	73	4919
2026-01-05 21:20:27.84	29.26	6.07	-53.9	-56.8	13.2	0.00e+00	0	26	0	70254592	73	5195
2026-01-05 21:20:30.84	29.65	6.20	-53.8	-56.8	13.1	0.00e+00	0	26	0	75497472	73	5180
2026-01-05 21:20:33.85	30.05	6.32	-53.9	-56.9	13.1	0.00e+00	0	26	0	80740352	73	5221
2026-01-05 21:20:36.85	30.44	6.45	-53.7	-56.6	13.2	0.00e+00	0	26	0	87031808	73	5068
2026-01-05 21:20:39.86	30.84	6.57	-53.6	-56.3	13.4	0.00e+00	0	26	0	92274688	73	4902
2026-01-05 21:20:42.86	31.24	6.69	-53.7	-56.6	13.3	0.00e+00	0	26	0	98566144	73	5048
2026-01-05 21:20:45.86	31.65	6.82	-53.7	-56.5	13.3	0.00e+00	0	26	0	103809024	73	4999
2026-01-05 21:20:48.88	32.06	6.94	-53.7	-56.6	13.3	0.00e+00	0	26	0	109051904	73	5057
2026-01-05 21:20:51.88	32.47	7.06	-53.4	-56.0	13.6	0.00e+00	0	26	0	115343360	73	4758
2026-01-05 21:20:54.89	32.89	7.18	-53.6	-56.4	13.4	0.00e+00	0	26	0	120586240	73	4932
2026-01-05 21:20:57.88	33.31	7.30	-53.7	-56.6	13.3	0.00e+00	0	26	0	125829120	73	5069
2026-01-05 21:21:00.88	33.73	7.42	-53.8	-56.7	13.3	0.00e+00	0	26	0	132120576	73	5105
2026-01-05 21:21:03.89	34.16	7.54	-53.5	-56.2	13.5	0.00e+00	0	26	0	137363456	73	4834
2026-01-05 21:21:06.89	34.58	7.66	-53.6	-56.3	13.5	0.00e+00	0	26	0	142606336	73	4900
2026-01-05 21:21:09.89	35.02	7.77	-53.8	-56.6	13.3	0.00e+00	0	27	0	148897792	73	5089
2026-01-05 21:21:12.89	35.45	7.89	-53.9	-56.8	13.1	0.00e+00	0	26	0	154140672	73	5217
2026-01-05 21:21:15.91	35.89	8.00	-53.9	-56.9	13.1	0.00e+00	0	26	0	160432128	73	5255
2026-01-05 21:21:18.91	36.33	8.12	-53.5	-56.3	13.5	0.00e+00	0	26	0	165675008	73	4876
2026-01-05 21:21:21.93	36.78	8.23	-53.4	-56.0	13.6	0.00e+00	0	26	0	170917888	73	4734
2026-01-05 21:21:24.94	37.23	8.34	-53.7	-56.4	13.4	0.00e+00	0	26	0	177209344	73	4974
2026-01-05 21:21:27.95	37.69	8.46	-53.7	-56.4	13.4	0.00e+00	0	26	0	182452224	73	4971
2026-01-05 21:21:30.95	38.14	8.57	-53.9	-56.7	13.3	0.00e+00	0	26	0	187695104	73	5158
2026-01-05 21:21:33.96	38.60	8.67	-54.0	-56.8	13.2	0.00e+00	0	27	0	193986560	73	5215
2026-01-05 21:21:36.96	39.06	8.78	-53.9	-56.8	13.2	0.00e+00	0	27	0	199229440	73	5216
2026-01-05 21:21:39.96	39.53	8.89	-54.0	-57.0	13.1	0.00e+00	0	26	0	205520896	73	5295
2026-01-05 21:21:42.97	40.00	9.00	-53.9	-56.8	13.2	0.00e+00	0	26	0	210763776	73	5201
2026-01-05 21:21:45.97	40.47	9.10	-53.8	-56.6	13.3	0.00e+00	0	27	0	216006656	73	5081
2026-01-05 21:21:48.98	40.95	9.20	-53.7	-56.4	13.4	0.00e+00	0	27	0	222298112	73	4960
2026-01-05 21:21:51.99	41.43	9.30	-53.7	-56.4	13.5	0.00e+00	0	27	0	227540992	73	4981
2026-01-05 21:21:55.00	41.91	9.41	-53.8	-56.6	13.3	0.00e+00	0	27	0	232783872	73	5069
2026-01-05 21:21:58.01	42.40	9.51	-53.9	-56.7	13.3	0.00e+00	0	27	0	239075328	73	5156
2026-01-05 21:22:01.02	42.89	9.60	-53.6	-56.3	13.5	0.00e+00	0	26	0	244318208	73	4926
2026-01-05 21:22:04.02	43.38	9.70	-53.2	-55.7	13.8	0.00e+00	0	27	0	250609664	73	4579
2026-01-05 21:22:07.03	43.87	9.79	-53.1	-55.5	13.8	0.00e+00	0	26	0	255852544	72	4752
2026-01-05 21:22:10.04	44.37	9.89	-53.4	-56.1	13.5	0.00e+00	0	27	0	261095424	72	5083
2026-01-05 21:22:13.05	44.87	9.98	-53.7	-56.5	13.3	0.00e+00	0	27	0	267386880	72	5337
2026-01-05 21:22:16.05	45.38	10.07	-53.7	-56.5	13.3	0.00e+00	0	27	0	272629760	72	5332
2026-01-05 21:22:19.07	45.89	10.16	-53.7	-56.5	13.4	0.00e+00	0	26	0	278921216	72	5284
2026-01-05 21:22:22.07	46.40	10.25	-53.4	-56.1	13.5	0.00e+00	0	27	0	284164096	72	5050
2026-01-05 21:22:25.07	46.91	10.33	-53.3	-55.9	13.6	0.00e+00	0	26	0	289406976	72	4969
2026-01-05 21:22:28.08	47.43	10.42	-53.1	-55.6	13.8	0.00e+00	0	27	0	295698432	72	4775
2026-01-05 21:22:31.08	47.94	10.50	-53.4	-55.9	13.7	0.00e+00	0	27	0	300941312	72	4980
2026-01-05 21:22:34.10	48.47	10.58	-53.8	-56.7	13.3	0.00e+00	0	27	0	306184192	72	5414
2026-01-05 21:22:37.11	48.99	10.66	-54.0	-56.8	13.3	0.00e+00	0	27	0	312475648	73	5213
2026-01-05 21:22:40.11	49.52	10.73	-53.4	-55.9	13.8	0.00e+00	0	26	0	317718528	73	4678
2026-01-05 21:22:43.13	50.05	10.81	-53.2	-55.7	13.8	0.00e+00	0	27	0	324009984	72	4820
2026-01-05 21:22:46.14	50.59	10.88	-53.6	-56.2	13.5	0.00e+00	0	27	0	329252864	72	5124
2026-01-05 21:22:49.15	51.12	10.95	-53.3	-55.7	13.8	0.00e+00	0	27	0	334495744	72	4832
2026-01-05 21:22:52.15	51.66	11.02	-52.8	-55.0	14.1	0.00e+00	0	27	0	340787200	72	4464
2026-01-05 21:22:55.16	52.20	11.09	-53.3	-55.7	13.7	0.00e+00	0	27	0	346030080	72	4857
2026-01-05 21:22:58.17	52.74	11.15	-53.4	-55.9	13.7	0.00e+00	0	27	0	351272960	72	4951
2026-01-05 21:23:01.18	53.29	11.21	-53.5	-55.9	13.6	0.00e+00	0	27	0	357564416	72	4983
2026-01-05 21:23:04.18	53.83	11.27	-54.0	-56.7	13.3	0.00e+00	0	27	0	362807296	73	5134
2026-01-05 21:23:07.18	54.38	11.33	-54.5	-57.7	12.9	0.00e+00	0	27	0	369098752	74	5413
2026-01-05 21:23:10.20	54.94	11.39	-53.8	-56.4	13.6	0.00e+00	0	27	0	374341632	74	4669
2026-01-05 21:23:13.22	55.49	11.44	-53.5	-56.1	13.7	0.00e+00	0	27	0	379584512	73	4760
2026-01-05 21:23:16.22	56.05	11.49	-54.0	-56.9	13.2	0.00e+00	0	27	0	385875968	73	5233
2026-01-05 21:23:19.24	56.61	11.54	-54.1	-57.0	13.2	0.00e+00	0	26	0	391118848	73	5328
2026-01-05 21:23:22.24	57.16	11.59	-54.2	-57.2	13.0	0.00e+00	0	27	0	396361728	73	5448
2026-01-05 21:23:25.25	57.73	11.63	-54.9	-58.4	12.4	0.00e+00	0	27	0	402653184	74	5898
2026-01-05 21:23:28.26	58.29	11.67	-54.9	-58.5	12.4	0.00e+00	0	27	0	407896064	75	5615
2026-01-05 21:23:31.26	58.85	11.71	-54.2	-57.2	13.3	0.00e+00	0	27	0	414187520	75	4855
2026-01-05 21:23:34.26	59.42	11.75	-53.8	-56.6	13.5	0.00e+00	0	27	0	419430400	74	4763
2026-01-05 21:23:37.28	59.99	11.79	-53.9	-56.7	13.4	0.00e+00	0	27	0	424673280	74	4869
2026-01-05 21:23:40.28	60.55	11.82	-53.5	-56.1	13.7	0.00e+00	0	27	0	430964736	73	4774
2026-01-05 21:23:43.28	61.12	11.85	-53.0	-55.3	13.9	0.00e+00	0	27	0	436207616	72	4645
2026-01-05 21:23:46.28	61.69	11.87	-53.1	-55.5	13.9	0.00e+00	0	26	0	441450496	72	4733
2026-01-05 21:23:49.29	62.26	11.90	-52.9	-55.4	13.9	0.00e+00	0	26	0	447741952	72	4654
2026-01-05 21:23:52.31	62.84	11.92	-52.8	-55.2	14.1	0.00e+00	0	27	0	452984832	72	4556
2026-01-05 21:23:55.31	63.41	11.94	-53.1	-55.5	13.9	0.00e+00	0	27	0	459276288	72	4737
2026-01-05 21:23:58.32	63.98	11.96	-53.0	-55.4	13.9	0.00e+00	0	27	0	464519168	72	4701
2026-01-05 21:24:01.33	64.56	11.97	-52.8	-55.1	14.1	0.00e+00	0	27	0	469762048	72	4513
2026-01-05 21:24:04.33	65.13	11.98	-53.1	-55.5	13.8	0.00e+00	0	26	0	476053504	72	4758
2026-01-05 21:24:07.34	65.71	11.99	-52.9	-55.3	14.0	0.00e+00	0	27	0	481296384	72	4600
2026-01-05 21:24:10.34	66.28	12.00	-52.7	-54.9	14.1	0.00e+00	0	26	0	486539264	71	4676
2026-01-05 21:24:13.35	66.86	12.01	-52.8	-55.1	13.9	0.00e+00	0	27	0	492830720	71	4783
2026-01-05 21:24:16.35	67.43	12.01	-52.8	-55.1	14.0	0.00e+00	0	27	0	498073600	71	4784
2026-01-05 21:24:19.37	68.01	12.01	-52.7	-54.9	14.1	0.00e+00	0	27	0	504365056	71	4697
2026-01-05 21:24:22.36	68.58	12.00	-52.9	-55.3	13.9	0.00e+00	0	27	0	509607936	71	4904
2026-01-05 21:24:25.37	69.16	12.00	-53.0	-55.5	13.8	0.00e+00	0	27	0	514850816	71	4991
2026-01-05 21:24:28.39	69.74	11.99	-52.4	-54.6	14.2	0.00e+00	0	27	0	521142272	71	4505
2026-01-05 21:24:31.38	70.31	11.98	-52.1	-54.2	14.3	0.00e+00	0	26	0	526385152	70	4585
2026-01-05 21:24:34.38	70.88	11.96	-52.4	-54.6	14.1	0.00e+00	0	27	0	531628032	70	4767
2026-01-05 21:24:37.39	71.46	11.95	-52.2	-54.3	14.2	0.00e+00	0	27	0	537919488	70	4646
2026-01-05 21:24:40.38	72.03	11.93	-52.0	-54.1	14.3	0.00e+00	0	26	0	543162368	70	4519
2026-01-05 21:24:43.40	72.61	11.91	-52.5	-54.7	14.1	0.00e+00	0	26	0	549453824	70	4862
2026-01-05 21:24:46.41	73.18	11.88	-52.5	-54.6	14.1	0.00e+00	0	26	0	554696704	70	4798
2026-01-05 21:24:49.41	73.75	11.85	-52.2	-54.3	14.2	0.00e+00	0	26	0	559939584	70	4613
2026-01-05 21:24:52.41	74.32	11.83	-52.2	-54.3	14.3	0.00e+00	0	27	0	566231040	70	4605
2026-01-05 21:24:55.41	74.88	11.79	-52.5	-54.7	14.1	0.00e+00	0	27	0	571473920	70	4826
2026-01-05 21:24:58.43	75.45	11.76	-52.4	-54.5	14.1	0.00e+00	0	27	0	576716800	70	4752
2026-01-05 21:25:01.44	76.02	11.72	-52.1	-54.2	14.3	0.00e+00	0	27	0	583008256	70	4587
2026-01-05 21:25:04.44	76.59	11.68	-52.3	-54.4	14.2	0.00e+00	0	27	0	588251136	70	4654
2026-01-05 21:25:07.45	77.15	11.64	-52.2	-54.3	14.2	0.00e+00	0	27	0	594542592	70	4609
2026-01-05 21:25:10.45	77.71	11.60	-52.1	-54.1	14.3	0.00e+00	0	27	0	599785472	70	4527
2026-01-05 21:25:13.46	78.27	11.55	-52.3	-54.4	14.2	0.00e+00	0	27	0	605028352	70	4673
2026-01-05 21:25:16.46	78.83	11.50	-52.4	-54.5	14.1	0.00e+00	0	27	0	611319808	70	4728
2026-01-05 21:25:19.48	79.39	11.45	-52.3	-54.4	14.2	0.00e+00	0	27	0	616562688	70	4665
2026-01-05 21:25:22.48	79.94	11.40	-52.1	-54.1	14.3	0.00e+00	0	27	0	621805568	70	4538
2026-01-05 21:25:25.49	80.50	11.35	-51.9	-53.8	14.4	0.00e+00	0	27	0	628097024	70	4370
2026-01-05 21:25:28.50	81.05	11.29	-51.8	-53.7	14.5	0.00e+00	0	27	0	633339904	70	4308
2026-01-05 21:25:31.50	81.60	11.23	-51.8	-53.7	14.5	0.00e+00	0	27	0	639631360	70	4293
2026-01-05 21:25:34.51	82.14	11.17	-51.6	-53.5	14.5	0.00e+00	0	27	0	644874240	69	4456
2026-01-05 21:25:37.50	82.68	11.10	-51.8	-53.7	14.4	0.00e+00	0	27	0	650117120	69	4579
2026-01-05 21:25:40.49	83.22	11.04	-51.9	-53.9	14.3	0.00e+00	0	26	0	656408576	69	4669
2026-01-05 21:25:43.50	83.76	10.97	-51.7	-53.6	14.4	0.00e+00	0	27	0	661651456	69	4511
2026-01-05 21:25:46.51	84.30	10.90	-51.6	-53.6	14.4	0.00e+00	0	27	0	667942912	69	4494
2026-01-05 21:25:49.51	84.83	10.83	-52.1	-54.1	14.2	0.00e+00	0	26	0	673185792	69	4771
2026-01-05 21:25:52.50	85.36	10.75	-51.7	-53.7	14.4	0.00e+00	0	27	0	678428672	69	4561
2026-01-05 21:25:55.50	85.89	10.68	-51.6	-53.5	14.4	0.00e+00	0	26	0	684720128	69	4471
2026-01-05 21:25:58.50	86.42	10.60	-51.5	-53.3	14.5	0.00e+00	0	27	0	689963008	69	4390
2026-01-05 21:26:01.52	86.95	10.52	-51.6	-53.5	14.5	0.00e+00	0	26	0	695205888	69	4475
2026-01-05 21:26:04.53	87.47	10.44	-51.8	-53.7	14.4	0.00e+00	0	26	0	701497344	69	4571
2026-01-05 21:26:07.54	87.99	10.35	-51.9	-53.9	14.3	0.00e+00	0	27	0	706740224	69	4658
2026-01-05 21:26:10.54	88.50	10.27	-52.1	-54.2	14.1	0.00e+00	0	26	0	711983104	69	4828
2026-01-05 21:26:13.55	89.01	10.18	-52.5	-54.7	14.0	0.00e+00	0	26	0	718274560	70	4862
2026-01-05 21:26:16.57	89.53	10.09	-53.0	-55.4	13.8	0.00e+00	0	26	0	723517440	71	4949
2026-01-05 21:26:19.58	90.03	10.00	-52.9	-55.2	13.9	0.00e+00	0	26	0	729808896	71	4861
2026-01-05 21:26:22.59	90.54	9.91	-52.8	-55.2	13.9	0.00e+00	0	26	0	735051776	71	4855
2026-01-05 21:26:25.60	91.04	9.81	-52.6	-54.9	14.0	0.00e+00	0	26	0	740294656	71	4659
2026-01-05 21:26:28.61	91.54	9.72	-52.9	-55.3	13.8	0.00e+00	0	26	0	746586112	71	4888
2026-01-05 21:26:31.62	92.03	9.62	-53.3	-55.9	13.5	0.00e+00	0	26	0	751828992	71	5265
2026-01-05 21:26:34.61	92.52	9.52	-53.6	-56.5	13.2	0.00e+00	0	26	0	757071872	72	5322
2026-01-05 21:26:37.63	93.01	9.42	-53.3	-56.0	13.5	0.00e+00	0	26	0	763363328	72	5029
2026-01-05 21:26:40.64	93.50	9.32	-53.3	-56.0	13.5	0.00e+00	0	26	0	768606208	72	5030
2026-01-05 21:26:43.64	93.98	9.22	-53.8	-56.9	13.0	0.00e+00	0	26	0	774897664	72	5540
2026-01-05 21:26:46.64	94.46	9.12	-53.7	-56.6	13.2	0.00e+00	0	27	0	780140544	73	5097
2026-01-05 21:26:49.64	94.93	9.01	-53.6	-56.5	13.3	0.00e+00	0	26	0	785383424	73	4995
2026-01-05 21:26:52.65	95.40	8.91	-53.6	-56.5	13.3	0.00e+00	0	27	0	791674880	73	5003
2026-01-05 21:26:55.65	95.87	8.80	-54.0	-57.1	13.0	0.00e+00	0	26	0	796917760	73	5346
2026-01-05 21:26:58.65	96.33	8.69	-53.8	-56.8	13.2	0.00e+00	0	27	0	802160640	73	5167
2026-01-05 21:27:01.67	96.80	8.58	-53.9	-57.0	13.0	0.00e+00	0	26	0	808452096	73	5281
2026-01-05 21:27:04.68	97.26	8.47	-54.0	-57.2	12.9	0.00e+00	0	26	0	813694976	73	5430
2026-01-05 21:27:07.69	97.71	8.36	-54.1	-57.4	12.7	0.00e+00	0	26	0	819986432	73	5579
2026-01-05 21:27:10.69	98.16	8.25	-54.0	-57.2	12.8	0.00e+00	0	27	0	825229312	73	5463
2026-01-05 21:27:13.70	98.61	8.13	-53.7	-56.8	13.1	0.00e+00	0	27	0	830472192	73	5195
2026-01-05 21:27:16.72	99.06	8.02	-53.6	-56.6	13.3	0.00e+00	0	27	0	836763648	73	5056
2026-01-05 21:27:19.74	99.50	7.90	-53.4	-55.9	13.7	0.00e+00	0	27	0	842006528	73	4652
2026-01-05 21:27:22.75	99.94	7.79	-53.3	-55.6	13.8	0.00e+00	0	27	0	848297984	73	4545
2026-01-05 21:27:25.76	100.38	7.67	-53.6	-56.1	13.5	0.00e+00	0	27	0	853540864	73	4789
2026-01-05 21:27:28.76	100.81	7.55	-54.0	-56.8	13.1	0.00e+00	0	26	0	858783744	73	5174
2026-01-05 21:27:31.76	101.24	7.43	-54.0	-56.8	13.2	0.00e+00	0	27	0	865075200	73	5169
2026-01-05 21:27:34.75	101.66	7.31	-53.9	-56.6	13.2	0.00e+00	0	26	0	870318080	73	5051
2026-01-05 21:27:37.75	102.08	7.19	-53.6	-56.2	13.5	0.00e+00	0	26	0	875560960	73	4849
2026-01-05 21:27:40.75	102.50	7.07	-53.8	-56.5	13.3	0.00e+00	0	27	0	881852416	73	4997
2026-01-05 21:27:43.76	102.91	6.95	-53.6	-56.2	13.5	0.00e+00	0	26	0	887095296	73	4840
2026-01-05 21:27:46.76	103.32	6.83	-53.4	-55.9	13.6	0.00e+00	0	26	0	893386752	73	4693
2026-01-05 21:27:49.75	103.73	6.70	-53.1	-55.5	13.7	0.00e+00	0	27	0	898629632	72	4712
2026-01-05 21:27:52.72	104.13	6.58	-53.2	-55.6	13.7	0.00e+00	0	26	0	903872512	72	4793
2026-01-05 21:27:55.72	104.53	6.46	-53.4	-55.9	13.5	0.00e+00	0	26	0	910163968	72	4936
2026-01-05 21:27:58.71	104.93	6.33	-53.1	-55.4	13.7	0.00e+00	0	26	0	915406848	72	4696
2026-01-05 21:28:01.71	105.32	6.21	-53.1	-55.4	13.7	0.00e+00	0	26	0	920649728	72	4701
2026-01-05 21:28:04.69	105.71	6.08	-53.0	-55.3	13.9	0.00e+00	0	27	0	926941184	72	4602
2026-01-05 21:28:07.69	106.10	5.95	-53.2	-55.6	13.7	0.00e+00	0	27	0	932184064	72	4811
2026-01-05 21:28:10.69	106.48	5.83	-53.5	-56.1	13.4	0.00e+00	0	26	0	937426944	72	5074
2026-01-05 21:28:13.70	106.86	5.70	-53.6	-56.2	13.3	0.00e+00	0	27	0	943718400	72	5115
2026-01-05 21:28:16.69	107.24	5.57	-53.6	-56.2	13.3	0.00e+00	0	26	0	948961280	72	5142
2026-01-05 21:28:19.69	107.62	5.45	-53.7	-56.4	13.2	0.00e+00	0	26	0	954204160	72	5270
2026-01-05 21:28:22.70	107.99	5.32	-53.9	-56.7	13.2	0.00e+00	0	26	0	960495616	73	5129
2026-01-05 21:28:25.70	108.36	5.19	-53.6	-56.3	13.4	0.00e+00	0	27	0	965738496	73	4909
2026-01-05 21:28:28.71	108.72	5.06	-53.5	-56.2	13.4	0.00e+00	0	26	0	970981376	73	4825
2026-01-05 21:28:31.71	109.09	4.93	-58.7	-74.6	3.8	1.49e+00	0	26	104	975175680	82	24088
2026-01-05 21:28:34.70	109.45	4.80	-59.3	-75.3	3.8	1.49e+00	0	27	104	975175680	83	24597
2026-01-05 21:28:37.71	109.80	4.67	-59.7	-75.7	3.8	1.49e+00	0	27	104	975175680	84	24333
2026-01-05 21:28:40.71	110.16	4.54	-59.9	-75.9	3.8	1.49e+00	0	26	104	975175680	84	24891
2026-01-05 21:28:43.69	110.50	4.41	-60.0	-76.1	3.8	1.49e+00	0	27	104	975175680	85	23899
2026-01-05 21:28:46.69	110.85	4.28	-60.1	-76.2	3.8	1.49e+00	0	27	104	975175680	85	24228
2026-01-05 21:28:49.67	111.19	4.15	-60.2	-76.3	3.8	1.49e+00	0	27	104	975175680	85	24529
2026-01-05 21:28:52.66	111.53	4.02	-60.3	-76.4	3.8	1.49e+00	0	27	104	975175680	85	24894
2026-01-05 21:28:55.65	111.87	3.89	-60.4	-76.5	3.8	1.49e+00	0	27	104	975175680	85	25083
2026-01-05 21:28:58.65	112.21	3.76	-60.5	-76.6	3.8	1.49e+00	0	27	104	975175680	86	23938
2026-01-05 21:29:01.63	112.54	3.62	-60.5	-76.6	3.8	1.49e+00	0	27	104	975175680	86	23988
2026-01-05 21:29:04.62	112.87	3.49	-60.5	-76.5	3.8	1.49e+00	0	27	104	975175680	86	23845
2026-01-05 21:29:07.62	113.20	3.36	-60.5	-76.5	3.8	1.49e+00	0	27	104	975175680	86	23781
2026-01-05 21:29:10.61	113.52	3.23	-60.4	-76.5	3.8	1.49e+00	0	27	104	975175680	86	23715
2026-01-05 21:29:13.61	113.84	3.10	-60.4	-76.5	3.8	1.49e+00	0	27	104	975175680	86	23650
2026-01-05 21:29:16.60	114.16	2.97	-60.4	-76.5	3.8	1.49e+00	0	27	104	975175680	86	23609
2026-01-05 21:29:19.60	114.47	2.83	-60.4	-76.4	3.8	1.49e+00	0	27	104	975175680	86	23570
2026-01-05 21:29:22.59	114.79	2.70	-60.4	-76.4	3.8	1.49e+00	0	27	104	975175680	86	23568
2026-01-05 21:29:25.59	115.10	2.57	-60.3	-76.4	3.8	1.49e+00	0	27	104	975175680	86	23448
2026-01-05 21:29:28.59	115.41	2.44	-60.3	-76.4	3.8	1.49e+00	0	27	104	975175680	86	23390
2026-01-05 21:29:31.58	115.71	2.31	-60.3	-76.4	3.8	1.49e+00	0	27	104	975175680	86	23417
2026-01-05 21:29:34.58	116.01	2.17	-60.3	-76.4	3.8	1.49e+00	0	27	104	975175680	86	23361
2026-01-05 21:29:37.58	116.31	2.04	-60.3	-76.4	3.8	1.49e+00	0	27	104	975175680	86	23315
2026-01-05 21:29:40.58	116.61	1.91	-60.3	-76.4	3.8	1.49e+00	0	27	104	975175680	86	23354

#Closed at: 2026-01-05 21:29:41
#Recorded file [975 MB]: D:/lorett/data/31004_260106_001854.dat