passes_logs/2026/01/05/R3.2S_Murmansk/R3.2S_Murmansk__20260105_054350_AQUA_rec.log

#Pass ID: 20260105_054350_AQUA
#Satellite: AQUA
#Configuration: AQUA
#almurnet v.1.7.20251203
#Start time: 2026-01-05 05:43:52

#Version: 2.2.20231116
#Station: R3.2S_Murmansk
#Location: 33.079688 lon 68.888172 lat
#TLE: 1 27424U 02022A   26003.93831470  .00001925  00000+0  39553-3 0  9995
#TLE: 2 27424  98.4067 330.1809 0002003  92.1713 343.8415 14.61796291259276

#Time	Az	El	Level	Level2	SNR	BER	BlckErr	Temp	State	Recorded	gain1	gain2
2026-01-05 05:43:52.16	43.72	2.11	-57.8	-77.2	3.8	7.46e-01	0	25	0	0	84	33378
2026-01-05 05:43:55.12	43.50	2.28	-57.5	-76.9	3.8	7.46e-01	0	25	104	0	82	36450
2026-01-05 05:43:58.09	43.27	2.45	-57.6	-77.0	3.8	7.43e-01	0	25	104	0	82	36630
2026-01-05 05:44:01.06	43.03	2.63	-57.6	-76.9	3.8	7.47e-01	0	26	104	0	82	36496
2026-01-05 05:44:04.03	42.80	2.80	-57.6	-76.9	3.8	7.48e-01	0	25	104	0	82	36421
2026-01-05 05:44:07.00	42.56	2.98	-57.6	-76.7	3.8	7.46e-01	0	25	104	0	82	35661
2026-01-05 05:44:09.98	42.32	3.15	-57.6	-76.7	3.8	7.48e-01	0	26	104	0	82	35388
2026-01-05 05:44:12.96	42.07	3.33	-57.6	-76.9	3.8	7.46e-01	0	26	104	0	82	36323
2026-01-05 05:44:15.93	41.82	3.51	-57.6	-76.9	3.8	7.49e-01	0	26	104	0	82	36516
2026-01-05 05:44:18.89	41.57	3.69	-57.6	-76.9	3.8	7.47e-01	0	26	104	0	82	36437
2026-01-05 05:44:21.86	41.31	3.86	-57.6	-76.9	3.8	7.52e-01	0	26	104	0	82	36508
2026-01-05 05:44:24.82	41.06	4.04	-57.5	-76.9	3.8	7.52e-01	0	26	104	0	82	36445
2026-01-05 05:44:27.80	40.79	4.23	-57.5	-76.8	3.8	7.43e-01	0	26	104	0	82	35943
2026-01-05 05:44:30.77	40.52	4.41	-57.6	-77.0	3.8	7.45e-01	0	26	104	0	82	36563
2026-01-05 05:44:33.75	40.25	4.59	-57.5	-76.1	3.8	7.49e-01	0	26	104	0	82	33278
2026-01-05 05:44:36.72	39.98	4.77	-57.0	-73.7	3.8	7.43e-01	0	26	104	0	82	25132
2026-01-05 05:44:39.70	39.70	4.96	-55.9	-70.3	3.8	7.45e-01	0	26	104	0	81	17955
2026-01-05 05:44:42.68	39.41	5.14	-57.1	-73.6	3.8	7.45e-01	0	26	104	0	82	24728
2026-01-05 05:44:45.64	39.13	5.33	-56.0	-70.5	3.8	7.45e-01	0	26	104	0	79	20569
2026-01-05 05:44:48.62	38.84	5.51	-51.8	-63.6	3.8	7.48e-01	0	26	104	0	72	14030
2026-01-05 05:44:51.57	38.54	5.70	-55.7	-69.8	3.8	7.47e-01	0	26	104	0	79	19153
2026-01-05 05:44:54.55	38.24	5.89	-51.8	-63.7	3.8	7.41e-01	0	26	104	0	72	14085
2026-01-05 05:44:57.51	37.94	6.08	-51.2	-62.8	3.9	7.46e-01	0	27	104	0	71	13550
2026-01-05 05:45:00.49	37.63	6.27	-55.8	-70.0	3.9	7.44e-01	0	27	104	0	81	17455
2026-01-05 05:45:03.49	37.31	6.46	-52.4	-64.4	3.8	7.49e-01	0	27	104	0	73	14499
2026-01-05 05:45:06.46	37.00	6.65	-56.6	-71.8	4.0	7.44e-01	0	26	104	0	82	20248
2026-01-05 05:45:09.44	36.67	6.84	-55.5	-69.2	3.9	7.48e-01	0	27	104	0	80	16881
2026-01-05 05:45:12.42	36.35	7.03	-51.0	-62.7	3.8	7.46e-01	0	27	104	0	71	13278
2026-01-05 05:45:15.37	36.02	7.23	-53.9	-66.5	3.8	7.45e-01	0	27	104	0	75	16422
2026-01-05 05:45:18.34	35.68	7.42	-51.2	-62.9	3.8	7.48e-01	0	27	104	0	71	13573
2026-01-05 05:45:21.31	35.34	7.62	-50.9	-62.5	3.8	7.45e-01	0	27	104	0	70	13732
2026-01-05 05:45:24.28	34.99	7.81	-56.7	-71.9	3.9	7.46e-01	0	27	104	0	81	21723
2026-01-05 05:45:27.26	34.64	8.01	-52.3	-64.1	3.9	7.46e-01	0	27	104	0	73	14037
2026-01-05 05:45:30.24	34.28	8.21	-57.6	-74.9	3.9	7.42e-01	0	27	104	0	83	27352
2026-01-05 05:45:33.22	33.91	8.40	-57.3	-73.8	3.9	7.47e-01	0	27	104	0	83	24031
2026-01-05 05:45:36.20	33.54	8.60	-51.7	-63.4	3.8	7.46e-01	0	26	104	0	72	13709
2026-01-05 05:45:39.18	33.17	8.80	-54.0	-66.5	3.8	7.46e-01	0	27	104	0	75	16503
2026-01-05 05:45:42.15	32.79	9.00	-56.6	-71.6	3.9	7.46e-01	0	27	104	0	81	20832
2026-01-05 05:45:45.13	32.40	9.20	-51.1	-62.8	3.9	7.48e-01	0	27	104	0	71	13447
2026-01-05 05:45:48.10	32.01	9.40	-56.9	-72.3	3.8	7.44e-01	0	27	104	0	81	22751
2026-01-05 05:45:51.07	31.61	9.61	-51.0	-62.6	3.8	7.47e-01	0	27	104	0	71	13170
2026-01-05 05:45:54.04	31.21	9.81	-50.4	-61.9	3.8	7.43e-01	0	27	104	0	70	12834
2026-01-05 05:45:57.01	30.79	10.01	-50.6	-62.1	3.8	7.45e-01	0	27	104	0	70	13201
2026-01-05 05:45:59.98	30.38	10.21	-50.4	-61.8	3.8	7.46e-01	0	27	104	0	70	12796
2026-01-05 05:46:02.95	29.95	10.42	-53.3	-65.5	3.8	7.43e-01	0	27	104	0	74	15485
2026-01-05 05:46:05.93	29.52	10.62	-56.9	-71.8	3.9	7.48e-01	0	27	104	0	81	21481
2026-01-05 05:46:08.89	29.09	10.82	-50.7	-62.3	3.8	7.44e-01	0	27	104	0	70	13435
2026-01-05 05:46:11.88	28.64	11.03	-57.1	-72.3	3.8	7.44e-01	0	27	104	0	81	22776
2026-01-05 05:46:14.86	28.19	11.24	-51.0	-62.5	3.8	7.43e-01	0	27	104	0	71	13079
2026-01-05 05:46:17.83	27.73	11.44	-55.9	-69.6	3.8	7.47e-01	0	27	104	0	79	18541
2026-01-05 05:46:20.80	27.27	11.65	-57.4	-72.9	3.8	7.47e-01	0	27	104	0	82	23016
2026-01-05 05:46:23.77	26.80	11.85	-51.3	-63.0	3.9	7.46e-01	0	27	104	0	71	13771
2026-01-05 05:46:26.74	26.32	12.06	-52.2	-64.1	3.8	7.44e-01	0	27	104	0	72	14873
2026-01-05 05:46:29.72	25.83	12.26	-55.7	-69.3	3.9	7.49e-01	0	27	104	0	79	18093
2026-01-05 05:46:32.70	25.34	12.47	-50.7	-62.2	3.9	7.42e-01	0	27	104	0	70	13332
2026-01-05 05:46:35.68	24.83	12.67	-55.7	-69.1	3.8	7.45e-01	0	27	104	0	79	17659
2026-01-05 05:46:38.66	24.32	12.88	-51.2	-62.8	3.9	7.47e-01	0	27	104	0	71	13419
2026-01-05 05:46:41.64	23.81	13.08	-50.2	-61.7	3.9	7.45e-01	0	27	104	0	69	13273
2026-01-05 05:46:44.63	23.28	13.29	-52.9	-64.9	3.9	7.46e-01	0	27	104	0	75	13726
2026-01-05 05:46:47.60	22.74	13.49	-50.6	-62.1	3.9	7.46e-01	0	27	104	0	70	13238
2026-01-05 05:46:50.58	22.20	13.70	-50.1	-61.5	3.9	7.49e-01	0	27	104	0	69	13063
2026-01-05 05:46:53.57	21.65	13.90	-54.0	-66.2	3.8	7.44e-01	0	27	104	0	75	15928
2026-01-05 05:46:56.57	21.09	14.11	-49.8	-61.2	3.8	7.44e-01	0	27	104	0	68	13264
2026-01-05 05:46:59.55	20.52	14.31	-54.9	-67.6	3.9	7.48e-01	0	27	104	0	77	16545
2026-01-05 05:47:02.53	19.94	14.51	-52.9	-64.9	3.8	7.46e-01	0	27	104	0	75	13716
2026-01-05 05:47:05.51	19.36	14.71	-52.4	-64.2	3.9	7.47e-01	0	27	104	0	72	14990
2026-01-05 05:47:08.49	18.77	14.91	-54.6	-67.1	3.9	7.39e-01	0	27	104	0	78	14825
2026-01-05 05:47:11.48	18.16	15.11	-50.1	-61.5	3.9	7.52e-01	0	27	104	0	69	13064
2026-01-05 05:47:14.45	17.56	15.31	-50.0	-61.4	3.9	7.43e-01	0	27	104	0	69	12910
2026-01-05 05:47:17.42	16.94	15.50	-51.7	-63.1	3.8	7.44e-01	0	27	104	0	70	14763
2026-01-05 05:47:20.40	16.31	15.69	-49.9	-61.3	3.9	7.48e-01	0	27	104	0	69	12692
2026-01-05 05:47:23.36	15.68	15.89	-52.9	-64.7	3.8	7.48e-01	0	27	104	0	73	15004
2026-01-05 05:47:26.36	15.03	16.08	-54.6	-67.2	3.9	7.47e-01	0	27	104	0	78	15006
2026-01-05 05:47:29.34	14.38	16.27	-50.2	-61.5	3.8	7.42e-01	0	27	104	0	69	13034
2026-01-05 05:47:32.33	13.71	16.45	-56.7	-70.8	3.9	7.43e-01	0	27	104	0	82	18079
2026-01-05 05:47:35.32	13.04	16.64	-50.2	-61.6	3.8	7.45e-01	0	27	104	0	69	13127
2026-01-05 05:47:38.31	12.35	16.82	-53.4	-65.4	3.9	7.44e-01	0	27	104	0	76	13720
2026-01-05 05:47:41.30	11.66	17.00	-50.1	-61.4	3.8	7.47e-01	0	27	104	0	69	12902
2026-01-05 05:47:44.30	10.96	17.18	-50.1	-61.5	3.8	7.49e-01	0	27	104	0	69	13011
2026-01-05 05:47:47.29	10.25	17.35	-52.3	-64.0	3.8	7.45e-01	0	27	104	0	72	14552
2026-01-05 05:47:50.30	9.53	17.52	-55.5	-68.6	3.9	7.45e-01	0	27	104	0	80	15645
2026-01-05 05:47:53.29	8.80	17.69	-50.7	-62.1	3.9	7.47e-01	0	27	104	0	69	14030
2026-01-05 05:47:56.28	8.06	17.86	-57.2	-71.8	3.9	7.45e-01	0	27	104	0	83	18981
2026-01-05 05:47:59.27	7.32	18.02	-50.5	-62.0	3.9	7.43e-01	0	27	104	0	70	12972
2026-01-05 05:48:02.27	6.56	18.18	-54.9	-67.5	3.9	7.46e-01	0	27	104	0	78	15563
2026-01-05 05:48:05.26	5.80	18.33	-50.0	-61.3	3.9	7.46e-01	0	27	104	0	69	12767
2026-01-05 05:48:08.26	5.03	18.48	-50.0	-61.3	3.9	7.45e-01	0	27	104	0	69	12786
2026-01-05 05:48:11.24	4.26	18.62	-52.2	-64.1	3.8	7.44e-01	0	27	104	0	72	14717
2026-01-05 05:48:14.22	3.48	18.76	-55.8	-69.0	3.9	7.46e-01	0	27	104	0	80	16400
2026-01-05 05:48:17.21	2.68	18.90	-50.0	-61.4	3.8	7.46e-01	0	27	104	0	69	12860
2026-01-05 05:48:20.19	1.89	19.03	-57.7	-73.3	3.9	7.45e-01	0	27	104	0	83	22532
2026-01-05 05:48:23.15	1.09	19.16	-50.5	-61.9	3.9	7.43e-01	0	27	104	0	70	12880
2026-01-05 05:48:26.11	0.28	19.28	-55.4	-68.3	3.8	7.47e-01	0	27	104	0	78	16958
2026-01-05 05:48:29.09	359.46	19.39	-50.6	-62.0	3.8	7.46e-01	0	27	104	0	70	13090
2026-01-05 05:48:32.08	358.63	19.51	-50.2	-61.5	3.9	7.46e-01	0	27	104	0	69	13108
2026-01-05 05:48:35.07	357.80	19.61	-51.9	-63.6	3.9	7.45e-01	0	27	104	0	71	14749
2026-01-05 05:48:38.06	356.96	19.71	-56.4	-70.1	3.8	7.45e-01	0	27	104	0	80	18635
2026-01-05 05:48:41.04	356.12	19.81	-50.4	-61.8	3.9	7.46e-01	0	27	104	0	69	13460
2026-01-05 05:48:44.03	355.27	19.89	-58.0	-74.4	3.8	7.44e-01	0	27	104	0	83	25632
2026-01-05 05:48:47.02	354.41	19.98	-50.4	-61.8	3.8	7.43e-01	0	27	104	0	70	12683
2026-01-05 05:48:50.00	353.55	20.05	-55.5	-68.4	3.8	7.45e-01	0	27	104	0	78	17179
2026-01-05 05:48:53.00	352.68	20.12	-51.5	-63.1	3.9	7.45e-01	0	27	104	0	72	13222
2026-01-05 05:48:55.99	351.81	20.19	-50.8	-62.2	3.9	7.46e-01	0	27	104	0	70	13385
2026-01-05 05:48:58.97	350.94	20.24	-52.0	-63.6	3.8	7.45e-01	0	27	104	0	71	14825
2026-01-05 05:49:01.94	350.07	20.29	-56.5	-70.2	3.8	7.47e-01	0	27	104	0	80	18831
2026-01-05 05:49:04.93	349.20	20.34	-50.5	-61.9	3.8	7.50e-01	0	27	104	0	70	12923
2026-01-05 05:49:07.91	348.32	20.37	-58.4	-74.9	3.9	7.51e-01	0	27	104	0	84	25597
2026-01-05 05:49:10.88	347.44	20.40	-50.7	-62.1	3.9	7.46e-01	0	27	104	0	70	13250
2026-01-05 05:49:13.85	346.56	20.43	-55.2	-68.0	3.8	7.46e-01	0	27	104	0	78	16325
2026-01-05 05:49:16.82	345.68	20.44	-51.7	-63.2	3.9	7.48e-01	0	27	104	0	72	13382
2026-01-05 05:49:19.79	344.80	20.45	-50.8	-62.1	3.8	7.44e-01	0	27	104	0	70	13209
2026-01-05 05:49:22.76	343.92	20.46	-51.5	-63.0	3.8	7.47e-01	0	27	104	0	71	13859
2026-01-05 05:49:25.73	343.04	20.45	-55.7	-68.8	3.8	7.49e-01	0	27	104	0	79	17063
2026-01-05 05:49:28.70	342.15	20.44	-50.7	-62.1	3.9	7.46e-01	0	27	104	0	70	13183
2026-01-05 05:49:31.65	341.28	20.42	-57.9	-73.4	3.8	7.51e-01	0	27	104	0	83	22856
2026-01-05 05:49:34.64	340.40	20.40	-52.0	-63.6	3.9	7.44e-01	0	27	104	0	73	13157
2026-01-05 05:49:37.62	339.51	20.37	-53.0	-64.8	3.8	7.50e-01	0	27	104	0	73	15089
2026-01-05 05:49:40.60	338.64	20.33	-53.0	-64.9	3.9	7.49e-01	0	27	104	0	75	13577
2026-01-05 05:49:43.57	337.76	20.28	-50.7	-62.2	3.9	7.47e-01	0	28	104	0	70	13310
2026-01-05 05:49:46.55	336.89	20.23	-51.2	-62.6	3.8	7.47e-01	0	27	104	0	71	13250
2026-01-05 05:49:49.51	336.03	20.17	-53.4	-65.5	3.8	7.46e-01	0	27	104	0	74	15414
2026-01-05 05:49:52.47	335.17	20.11	-50.7	-62.1	3.8	7.44e-01	0	27	104	0	70	13222
2026-01-05 05:49:55.44	334.31	20.04	-55.2	-67.6	3.8	7.44e-01	0	27	104	0	77	16678
2026-01-05 05:49:58.40	333.46	19.96	-54.4	-66.8	3.9	7.48e-01	0	27	104	0	78	14266
2026-01-05 05:50:01.38	332.60	19.88	-51.7	-63.4	3.8	7.45e-01	0	27	104	0	71	14481
2026-01-05 05:50:04.37	331.75	19.79	-56.8	-71.3	3.9	7.42e-01	0	27	104	0	83	18016
2026-01-05 05:50:07.35	330.91	19.69	-50.7	-61.8	3.9	7.43e-01	0	27	104	0	70	12769
2026-01-05 05:50:10.32	330.08	19.59	-52.2	-63.5	3.8	7.43e-01	0	27	104	0	73	12979
2026-01-05 05:50:13.29	329.25	19.49	-50.7	-61.9	3.9	7.44e-01	0	27	104	0	70	12825
2026-01-05 05:50:16.25	328.43	19.38	-50.6	-62.1	3.8	7.47e-01	0	27	104	0	70	13188
2026-01-05 05:50:19.22	327.62	19.26	-52.6	-64.6	3.9	7.45e-01	0	27	104	0	72	15630
2026-01-05 05:50:22.19	326.81	19.14	-56.1	-70.0	3.9	7.42e-01	0	27	104	0	81	17378
2026-01-05 05:50:25.15	326.01	19.01	-51.1	-63.3	3.8	7.46e-01	0	27	104	0	71	14277
2026-01-05 05:50:28.11	325.22	18.88	-58.4	-74.9	3.8	7.48e-01	0	27	104	0	84	25644
2026-01-05 05:50:31.08	324.43	18.74	-51.0	-61.8	3.8	7.45e-01	0	27	104	0	71	12051
2026-01-05 05:50:34.05	323.65	18.60	-54.7	-66.7	3.9	7.43e-01	0	27	104	0	77	15042
2026-01-05 05:50:37.01	322.88	18.46	-51.1	-63.2	3.8	7.45e-01	0	27	104	0	71	14116
2026-01-05 05:50:39.98	322.12	18.31	-51.2	-62.8	3.8	7.43e-01	0	27	104	0	71	13498
2026-01-05 05:50:42.96	321.36	18.16	-50.8	-52.7	15.1	6.06e-01	0	27	0	3145728	69	4731
2026-01-05 05:50:45.93	320.61	18.00	-50.4	-52.1	15.2	6.03e-01	0	27	0	8388608	68	4691
2026-01-05 05:50:48.91	319.87	17.84	-49.6	-51.2	15.5	6.03e-01	0	27	0	14155776	68	4201
2026-01-05 05:50:51.87	319.14	17.68	-50.0	-51.7	15.3	6.02e-01	0	27	0	19922944	68	4444
2026-01-05 05:50:54.86	318.41	17.51	-49.9	-51.5	15.4	6.03e-01	0	27	0	25165824	68	4359
2026-01-05 05:50:57.84	317.70	17.34	-50.1	-51.8	15.3	6.04e-01	0	27	0	30932992	68	4545
2026-01-05 05:51:00.82	316.99	17.16	-50.1	-51.8	15.3	6.03e-01	0	27	0	36700160	68	4523
2026-01-05 05:51:03.78	316.30	16.99	-49.8	-51.5	15.4	6.04e-01	0	27	0	41943040	68	4344
2026-01-05 05:51:06.75	315.61	16.81	-50.3	-52.1	15.2	6.02e-01	0	27	0	47710208	68	4663
2026-01-05 05:51:09.72	314.93	16.63	-49.6	-51.2	15.3	6.05e-01	0	27	0	52953088	67	4469
2026-01-05 05:51:12.69	314.26	16.44	-49.9	-51.5	15.3	6.03e-01	0	27	0	58720256	68	4381
2026-01-05 05:51:15.66	313.60	16.26	-50.4	-52.1	15.2	6.04e-01	0	27	0	64487424	68	4684
2026-01-05 05:51:18.63	312.95	16.07	-49.9	-51.6	15.3	6.04e-01	0	27	0	69730304	68	4414
2026-01-05 05:51:21.61	312.30	15.88	-50.1	-51.8	15.3	6.03e-01	0	27	0	75497472	68	4531
2026-01-05 05:51:24.59	311.67	15.69	-50.7	-52.6	15.2	6.04e-01	0	27	0	80740352	69	4682
2026-01-05 05:51:27.56	311.04	15.49	-50.3	-52.0	15.3	6.04e-01	0	27	0	86507520	69	4378
2026-01-05 05:51:30.53	310.42	15.30	-50.3	-52.1	15.3	6.03e-01	0	27	0	92274688	69	4404
2026-01-05 05:51:33.51	309.81	15.10	-49.9	-51.6	15.5	6.02e-01	0	27	0	98041856	69	4173
2026-01-05 05:51:36.47	309.21	14.90	-50.0	-51.7	15.4	6.03e-01	0	27	0	103284736	69	4220
2026-01-05 05:51:39.44	308.62	14.70	-49.9	-51.6	15.3	6.05e-01	0	27	0	109051904	68	4417
2026-01-05 05:51:42.40	308.04	14.50	-50.2	-51.9	15.2	6.04e-01	0	27	0	114294784	68	4593
2026-01-05 05:51:45.38	307.46	14.30	-50.0	-51.7	15.2	6.02e-01	0	27	0	120061952	67	4728
2026-01-05 05:51:48.36	306.90	14.10	-49.9	-51.6	15.2	6.05e-01	0	27	0	125829120	67	4672
2026-01-05 05:51:51.33	306.34	13.90	-50.0	-51.7	15.2	6.04e-01	0	27	0	131072000	67	4740
2026-01-05 05:51:54.30	305.79	13.69	-50.0	-51.7	15.2	6.03e-01	0	27	0	136839168	67	4730
2026-01-05 05:51:57.27	305.25	13.49	-50.0	-51.7	15.2	6.04e-01	0	27	0	142082048	67	4717
2026-01-05 05:52:00.23	304.72	13.29	-49.9	-51.5	15.3	6.05e-01	0	27	0	147849216	68	4384
2026-01-05 05:52:03.21	304.19	13.08	-50.1	-51.8	15.3	6.02e-01	0	27	0	153616384	68	4537
2026-01-05 05:52:06.18	303.67	12.88	-50.0	-51.6	15.3	6.05e-01	0	27	0	158859264	68	4434
2026-01-05 05:52:09.15	303.16	12.67	-50.2	-51.9	15.2	6.03e-01	0	27	0	164626432	68	4592
2026-01-05 05:52:12.14	302.66	12.46	-50.2	-51.9	15.2	6.05e-01	0	27	0	170393600	68	4575
2026-01-05 05:52:15.11	302.16	12.26	-50.1	-51.8	15.3	6.04e-01	0	27	0	175636480	68	4509
2026-01-05 05:52:18.06	301.68	12.05	-50.3	-52.1	15.2	6.05e-01	0	27	0	181403648	68	4666
2026-01-05 05:52:21.03	301.20	11.85	-50.6	-52.4	15.1	6.04e-01	0	27	0	186646528	68	4847
2026-01-05 05:52:24.01	300.72	11.64	-50.4	-52.1	15.3	6.04e-01	0	27	0	192413696	69	4425
2026-01-05 05:52:26.99	300.26	11.44	-50.4	-52.2	15.3	6.02e-01	0	27	0	198180864	69	4453
2026-01-05 05:52:29.97	299.80	11.23	-50.4	-52.2	15.3	6.03e-01	0	27	0	203423744	69	4481
2026-01-05 05:52:32.95	299.35	11.02	-50.4	-52.2	15.3	6.04e-01	0	27	0	209190912	69	4474
2026-01-05 05:52:35.92	298.90	10.82	-50.6	-52.5	15.2	6.03e-01	0	27	0	214958080	69	4618
2026-01-05 05:52:38.88	298.47	10.62	-50.5	-52.3	15.3	6.03e-01	0	27	0	220200960	69	4494
2026-01-05 05:52:41.83	298.04	10.41	-50.6	-52.4	15.2	6.05e-01	0	27	0	225968128	69	4581
2026-01-05 05:52:44.81	297.61	10.21	-50.5	-52.3	15.2	6.05e-01	0	27	0	231211008	69	4503
2026-01-05 05:52:47.79	297.19	10.01	-50.8	-52.6	15.2	6.04e-01	0	27	0	236978176	69	4695
2026-01-05 05:52:50.77	296.78	9.80	-50.7	-52.6	15.2	6.05e-01	0	27	0	242745344	69	4666
2026-01-05 05:52:53.75	296.37	9.60	-50.5	-52.3	15.2	6.05e-01	0	27	0	247988224	69	4516
2026-01-05 05:52:56.72	295.97	9.40	-50.9	-52.9	15.1	6.04e-01	0	27	0	253755392	69	4818
2026-01-05 05:52:59.71	295.58	9.20	-50.7	-52.6	15.2	6.04e-01	0	27	0	259522560	69	4673
2026-01-05 05:53:02.68	295.19	9.00	-50.7	-52.5	15.2	6.03e-01	0	27	0	264765440	69	4650
2026-01-05 05:53:05.66	294.81	8.79	-51.0	-52.9	15.1	6.05e-01	0	27	0	270532608	69	4855
2026-01-05 05:53:08.65	294.43	8.59	-51.0	-52.9	15.2	6.05e-01	0	27	0	276299776	70	4596
2026-01-05 05:53:11.63	294.06	8.39	-50.8	-52.7	15.2	6.05e-01	0	27	0	281542656	70	4468
2026-01-05 05:53:14.60	293.70	8.20	-51.2	-53.1	15.1	6.03e-01	0	27	0	287309824	70	4695
2026-01-05 05:53:17.59	293.34	8.00	-51.2	-53.1	15.1	6.01e-01	0	27	0	293076992	70	4704
2026-01-05 05:53:20.57	292.98	7.80	-51.1	-53.0	15.1	6.03e-01	0	27	0	298319872	70	4645
2026-01-05 05:53:23.55	292.63	7.61	-51.1	-53.0	15.1	6.01e-01	0	27	0	304087040	70	4634
2026-01-05 05:53:26.55	292.29	7.41	-51.3	-53.3	15.1	6.03e-01	0	27	0	309854208	70	4799
2026-01-05 05:53:29.53	291.95	7.21	-51.6	-53.7	15.0	6.01e-01	0	28	0	315097088	70	5006
2026-01-05 05:53:32.51	291.61	7.02	-51.5	-53.5	15.0	6.03e-01	0	27	0	320864256	70	4919
2026-01-05 05:53:35.49	291.28	6.83	-51.3	-53.3	15.1	6.03e-01	0	27	0	326631424	70	4788
2026-01-05 05:53:38.48	290.96	6.63	-51.4	-53.5	15.0	6.05e-01	0	27	0	331874304	70	4882
2026-01-05 05:53:41.46	290.64	6.44	-51.5	-53.6	15.0	6.05e-01	0	27	0	337641472	70	4952
2026-01-05 05:53:44.45	290.32	6.25	-51.6	-53.7	14.9	6.03e-01	0	27	0	343408640	70	5037
2026-01-05 05:53:47.45	290.01	6.06	-51.6	-53.7	15.0	6.05e-01	0	27	0	348651520	71	4741
2026-01-05 05:53:50.44	289.70	5.87	-51.5	-53.7	15.1	6.04e-01	0	27	0	354418688	71	4711
2026-01-05 05:53:53.43	289.40	5.68	-51.8	-54.1	14.9	6.03e-01	0	27	0	360185856	71	4945
2026-01-05 05:53:56.41	289.11	5.49	-51.9	-54.2	14.9	6.04e-01	0	27	0	365953024	71	4984
2026-01-05 05:53:59.41	288.81	5.30	-51.9	-54.3	14.9	6.04e-01	0	28	0	371195904	71	5055
2026-01-05 05:54:02.40	288.52	5.12	-51.9	-54.1	14.9	6.02e-01	0	27	0	376963072	71	4979
2026-01-05 05:54:05.38	288.24	4.93	-56.2	-77.4	3.8	7.48e-01	0	27	104	381681664	80	43008
2026-01-05 05:54:08.35	287.96	4.75	-59.4	-78.8	3.8	7.47e-01	0	27	104	381681664	86	35955
2026-01-05 05:54:11.33	287.68	4.56	-59.8	-79.2	3.8	7.45e-01	0	27	104	381681664	87	35464
2026-01-05 05:54:14.31	287.41	4.38	-60.1	-79.4	3.8	7.46e-01	0	27	104	381681664	87	36453
2026-01-05 05:54:17.28	287.14	4.20	-60.3	-79.7	3.8	7.42e-01	0	27	104	381681664	88	35337
2026-01-05 05:54:20.27	286.88	4.02	-60.4	-79.8	3.8	7.45e-01	0	27	104	381681664	88	35835
2026-01-05 05:54:23.26	286.62	3.83	-60.5	-79.9	3.8	7.45e-01	0	28	104	381681664	88	36132
2026-01-05 05:54:26.25	286.36	3.65	-60.5	-79.9	3.8	7.47e-01	0	28	104	381681664	88	36313
2026-01-05 05:54:29.23	286.10	3.48	-60.5	-79.9	3.8	7.42e-01	0	28	104	381681664	88	36340
2026-01-05 05:54:32.21	285.85	3.30	-60.5	-79.9	3.8	7.46e-01	0	28	104	381681664	88	36211
2026-01-05 05:54:35.17	285.61	3.12	-60.4	-79.8	3.8	7.44e-01	0	28	104	381681664	88	35779
2026-01-05 05:54:38.12	285.37	2.95	-60.3	-79.7	3.8	7.45e-01	0	27	104	381681664	88	35594
2026-01-05 05:54:41.10	285.13	2.77	-60.3	-79.7	3.8	7.47e-01	0	27	104	381681664	88	35366
2026-01-05 05:54:44.09	284.89	2.60	-60.3	-79.7	3.8	7.47e-01	0	27	104	381681664	88	35319
2026-01-05 05:54:47.06	284.66	2.42	-60.2	-79.6	3.8	7.45e-01	0	28	104	381681664	88	35240
2026-01-05 05:54:50.05	284.42	2.25	-60.2	-79.6	3.8	7.48e-01	0	27	104	381681664	88	35074
2026-01-05 05:54:53.04	284.20	2.07	-60.2	-79.6	3.8	7.48e-01	0	27	104	381681664	88	35088
2026-01-05 05:54:56.01	283.97	1.90	-60.2	-79.6	3.8	7.45e-01	0	28	104	381681664	88	34916

#Closed at: 2026-01-05 05:54:57
#Recorded file [381 MB]: D:/lorett/data/31004_260105_084351.dat