passes_logs/2026/01/05/R3.2S_Murmansk/R3.2S_Murmansk__20260105_043906_NOAA_20_JPSS-1_rec.log

#Pass ID: 20260105_043906_NOAA 20 (JPSS-1)
#Satellite: NOAA 20 (JPSS-1)
#Configuration: NOAA 20
#almurnet v.1.7.20251203
#Start time: 2026-01-05 04:39:06

#Version: 2.2.20231116
#Station: R3.2S_Murmansk
#Location: 33.079688 lon 68.888172 lat
#TLE: 1 43013U 17073A   26004.47528369  .00000132  00000+0  83671-4 0  9999
#TLE: 2 43013  98.7626 305.5264 0001854  54.5883 305.5466 14.19533142421242

#Time	Az	El	Level	Level2	SNR	BER	BlckErr	Temp	State	Recorded	gain1	gain2
2026-01-05 04:39:06.47	54.96	2.02	-58.1	-74.1	3.8	1.49e+00	0	25	0	0	82	22596
2026-01-05 04:39:10.48	54.70	2.25	-58.1	-74.1	3.8	1.49e+00	0	25	104	0	81	23878
2026-01-05 04:39:14.47	54.45	2.48	-58.1	-74.0	3.8	1.49e+00	0	25	104	0	81	23836
2026-01-05 04:39:18.48	54.18	2.71	-58.1	-74.0	3.8	1.49e+00	0	25	104	0	81	23820
2026-01-05 04:39:22.48	53.92	2.94	-58.1	-74.0	3.8	1.49e+00	0	26	104	0	81	23755
2026-01-05 04:39:26.47	53.64	3.17	-58.1	-74.0	3.8	1.49e+00	0	26	104	0	81	23753
2026-01-05 04:39:30.46	53.37	3.41	-58.1	-74.1	3.8	1.49e+00	0	26	104	0	81	23954
2026-01-05 04:39:34.45	53.09	3.64	-58.1	-74.0	3.8	1.49e+00	0	26	104	0	81	23786
2026-01-05 04:39:38.41	52.81	3.88	-58.1	-74.0	3.8	1.49e+00	0	26	104	0	81	23825
2026-01-05 04:39:42.37	52.52	4.11	-58.1	-74.0	3.8	1.49e+00	0	26	104	0	81	23662
2026-01-05 04:39:46.36	52.23	4.35	-58.1	-74.0	3.8	1.49e+00	0	26	104	0	81	23716
2026-01-05 04:39:50.34	51.93	4.59	-58.1	-73.4	3.8	1.49e+00	0	26	104	0	81	22152
2026-01-05 04:39:54.34	51.62	4.83	-57.9	-70.5	4.2	1.42e+00	0	26	0	0	81	15875
2026-01-05 04:39:58.37	51.31	5.08	-57.9	-68.6	5.0	4.21e-01	0	26	0	6291456	81	12730
2026-01-05 04:40:02.39	50.99	5.33	-58.0	-69.8	4.0	1.48e+00	0	26	104	7340032	81	14694
2026-01-05 04:40:06.41	50.67	5.57	-55.4	-59.1	12.0	2.05e-05	0	26	0	13631488	77	5371
2026-01-05 04:40:10.40	50.34	5.82	-54.9	-58.1	12.6	0.00e+00	0	27	0	20971520	76	5087
2026-01-05 04:40:14.38	50.01	6.07	-54.7	-57.7	12.9	0.00e+00	0	27	0	28311552	76	4855
2026-01-05 04:40:18.35	49.67	6.32	-54.5	-57.5	13.0	0.00e+00	0	27	0	35651584	75	4996
2026-01-05 04:40:22.34	49.33	6.57	-54.4	-57.3	13.1	0.00e+00	0	27	0	42991616	75	4874
2026-01-05 04:40:26.33	48.98	6.83	-54.4	-57.3	13.1	0.00e+00	0	27	0	51380224	75	4918
2026-01-05 04:40:30.31	48.62	7.08	-54.4	-57.3	13.1	0.00e+00	0	27	0	58720256	75	4912
2026-01-05 04:40:34.28	48.26	7.33	-54.4	-57.3	13.1	0.00e+00	0	27	0	66060288	75	4887
2026-01-05 04:40:38.25	47.89	7.59	-54.6	-57.5	13.0	0.00e+00	0	27	0	73400320	75	5013
2026-01-05 04:40:42.22	47.51	7.85	-54.5	-57.3	13.1	0.00e+00	0	27	0	80740352	75	4922
2026-01-05 04:40:46.18	47.13	8.11	-54.4	-57.2	13.2	0.00e+00	0	27	0	88080384	75	4829
2026-01-05 04:40:50.14	46.74	8.37	-54.3	-57.0	13.4	0.00e+00	0	27	0	95420416	75	4712
2026-01-05 04:40:54.10	46.35	8.63	-54.1	-56.7	13.4	0.00e+00	0	27	0	102760448	74	4858
2026-01-05 04:40:58.06	45.94	8.89	-54.0	-56.5	13.6	0.00e+00	0	27	0	110100480	74	4742
2026-01-05 04:41:02.03	45.53	9.16	-54.0	-56.5	13.6	0.00e+00	0	27	0	117440512	74	4724
2026-01-05 04:41:05.98	45.11	9.42	-54.0	-56.5	13.6	0.00e+00	0	27	0	124780544	74	4720
2026-01-05 04:41:09.94	44.69	9.69	-54.1	-56.6	13.5	0.00e+00	0	27	0	133169152	74	4778
2026-01-05 04:41:13.92	44.25	9.96	-54.2	-56.9	13.4	0.00e+00	0	27	0	140509184	74	4930
2026-01-05 04:41:17.89	43.80	10.23	-54.2	-56.8	13.5	0.00e+00	0	27	0	147849216	74	4875
2026-01-05 04:41:21.86	43.35	10.50	-54.1	-56.7	13.5	0.00e+00	0	27	0	155189248	74	4838
2026-01-05 04:41:25.84	42.89	10.77	-54.2	-56.8	13.5	0.00e+00	0	27	0	162529280	74	4898
2026-01-05 04:41:29.81	42.42	11.05	-54.1	-56.6	13.6	0.00e+00	0	27	0	169869312	74	4772
2026-01-05 04:41:33.77	41.94	11.32	-53.9	-56.4	13.7	0.00e+00	0	27	0	177209344	74	4660
2026-01-05 04:41:37.75	41.45	11.60	-53.8	-56.2	13.8	0.00e+00	0	27	0	184549376	74	4551
2026-01-05 04:41:41.71	40.95	11.87	-53.6	-55.9	13.9	0.00e+00	0	27	0	191889408	73	4680
2026-01-05 04:41:45.68	40.44	12.15	-53.6	-55.8	13.9	0.00e+00	0	27	0	199229440	73	4648
2026-01-05 04:41:49.66	39.92	12.43	-53.5	-55.8	13.9	0.00e+00	0	27	0	207618048	73	4620
2026-01-05 04:41:53.65	39.39	12.71	-53.6	-55.8	13.9	0.00e+00	0	27	0	214958080	73	4626
2026-01-05 04:41:57.62	38.85	12.99	-53.4	-55.5	14.1	0.00e+00	0	27	0	222298112	73	4484
2026-01-05 04:42:01.62	38.30	13.28	-53.3	-55.4	14.2	0.00e+00	0	27	0	229638144	73	4411
2026-01-05 04:42:05.60	37.74	13.56	-53.1	-55.2	14.2	0.00e+00	0	27	0	236978176	72	4561
2026-01-05 04:42:09.60	37.16	13.84	-52.9	-54.9	14.3	0.00e+00	0	27	0	244318208	72	4413
2026-01-05 04:42:13.58	36.58	14.12	-53.1	-55.1	14.2	0.00e+00	0	27	0	251658240	72	4519
2026-01-05 04:42:17.57	35.98	14.41	-53.2	-55.3	14.1	0.00e+00	0	27	0	260046848	72	4610
2026-01-05 04:42:21.56	35.37	14.69	-53.3	-55.4	14.1	0.00e+00	0	27	0	267386880	72	4680
2026-01-05 04:42:25.56	34.75	14.98	-53.4	-55.6	14.0	0.00e+00	0	27	0	274726912	72	4776
2026-01-05 04:42:29.56	34.12	15.26	-53.6	-55.8	13.9	0.00e+00	0	27	0	282066944	72	4895
2026-01-05 04:42:33.56	33.47	15.55	-53.7	-56.0	13.8	0.00e+00	0	27	0	289406976	72	5028
2026-01-05 04:42:37.54	32.81	15.83	-53.6	-55.8	13.8	0.00e+00	0	27	0	296747008	72	4915
2026-01-05 04:42:41.52	32.15	16.11	-53.6	-55.8	13.9	0.00e+00	0	27	0	304087040	72	4896
2026-01-05 04:42:45.49	31.47	16.39	-53.7	-55.9	13.8	0.00e+00	0	27	0	311427072	72	4963
2026-01-05 04:42:49.46	30.77	16.67	-53.8	-56.1	13.8	0.00e+00	0	27	0	318767104	72	5052
2026-01-05 04:42:53.45	30.06	16.95	-53.7	-55.9	13.8	0.00e+00	0	27	0	327155712	72	4940
2026-01-05 04:42:57.43	29.34	17.22	-53.9	-56.2	13.7	0.00e+00	0	27	0	334495744	72	5119
2026-01-05 04:43:01.42	28.60	17.50	-53.7	-55.8	13.9	0.00e+00	0	27	0	341835776	72	4923
2026-01-05 04:43:05.41	27.85	17.78	-53.6	-55.7	13.9	0.00e+00	0	27	0	349175808	72	4850
2026-01-05 04:43:09.40	27.09	18.05	-53.2	-55.3	14.1	0.00e+00	0	27	0	356515840	72	4619
2026-01-05 04:43:13.40	26.31	18.32	-52.8	-54.8	14.4	0.00e+00	0	27	0	363855872	72	4345
2026-01-05 04:43:17.39	25.52	18.58	-52.4	-54.2	14.5	0.00e+00	0	28	0	371195904	71	4316
2026-01-05 04:43:21.38	24.71	18.85	-52.0	-53.8	14.6	0.00e+00	0	27	0	379584512	70	4342
2026-01-05 04:43:25.36	23.89	19.11	-51.9	-53.5	14.7	0.00e+00	0	27	0	386924544	70	4237
2026-01-05 04:43:29.36	23.06	19.37	-51.6	-53.3	14.7	0.00e+00	0	27	0	394264576	69	4358
2026-01-05 04:43:33.33	22.21	19.62	-51.7	-53.3	14.7	0.00e+00	0	28	0	401604608	69	4382
2026-01-05 04:43:37.32	21.35	19.87	-51.5	-53.0	14.8	0.00e+00	0	27	0	408944640	69	4241
2026-01-05 04:43:41.29	20.47	20.11	-51.4	-53.0	14.8	0.00e+00	0	27	0	416284672	69	4222
2026-01-05 04:43:45.28	19.58	20.35	-51.4	-53.0	14.8	0.00e+00	0	27	0	423624704	69	4218
2026-01-05 04:43:49.27	18.68	20.58	-51.5	-53.1	14.7	0.00e+00	0	27	0	432013312	69	4289
2026-01-05 04:43:53.25	17.76	20.81	-51.7	-53.3	14.7	0.00e+00	0	27	0	439353344	69	4361
2026-01-05 04:43:57.23	16.83	21.03	-51.7	-53.3	14.7	0.00e+00	0	27	0	446693376	69	4381
2026-01-05 04:44:01.22	15.88	21.25	-51.7	-53.3	14.7	0.00e+00	0	28	0	454033408	69	4380
2026-01-05 04:44:05.24	14.92	21.46	-51.4	-52.9	14.9	0.00e+00	0	27	0	461373440	69	4175
2026-01-05 04:44:09.24	13.94	21.67	-51.1	-52.6	14.8	0.00e+00	0	27	0	468713472	68	4273
2026-01-05 04:44:13.24	12.95	21.86	-51.2	-52.7	14.8	0.00e+00	0	27	0	476053504	68	4326
2026-01-05 04:44:17.23	11.95	22.05	-51.0	-52.5	14.9	0.00e+00	0	27	0	483393536	68	4198
2026-01-05 04:44:21.22	10.94	22.23	-50.8	-52.3	15.0	0.00e+00	0	27	0	491782144	68	4123
2026-01-05 04:44:25.22	9.92	22.40	-50.8	-52.3	15.0	0.00e+00	0	27	0	499122176	68	4116
2026-01-05 04:44:29.21	8.89	22.56	-51.1	-52.7	14.8	0.00e+00	0	27	0	506462208	68	4298
2026-01-05 04:44:33.21	7.84	22.72	-51.3	-52.9	14.7	0.00e+00	0	27	0	513802240	68	4395
2026-01-05 04:44:37.20	6.79	22.86	-51.4	-52.9	14.7	0.00e+00	0	27	0	521142272	68	4430
2026-01-05 04:44:41.19	5.72	22.99	-52.1	-53.8	14.5	0.00e+00	0	27	0	528482304	69	4645
2026-01-05 04:44:45.18	4.65	23.12	-52.3	-54.0	14.4	0.00e+00	0	27	0	535822336	69	4759
2026-01-05 04:44:49.16	3.58	23.23	-52.5	-54.3	14.4	0.00e+00	0	27	0	544210944	70	4624
2026-01-05 04:44:53.14	2.49	23.33	-52.6	-54.4	14.4	0.00e+00	0	27	0	551550976	70	4652
2026-01-05 04:44:57.12	1.40	23.42	-52.8	-54.7	14.4	0.00e+00	0	27	0	558891008	71	4584
2026-01-05 04:45:01.11	0.30	23.51	-53.2	-55.2	14.2	0.00e+00	0	27	0	566231040	71	4847
2026-01-05 04:45:05.10	359.19	23.58	-53.2	-55.2	14.2	0.00e+00	0	27	0	573571072	71	4818
2026-01-05 04:45:09.10	358.08	23.63	-53.1	-55.0	14.2	0.00e+00	0	27	0	580911104	71	4744
2026-01-05 04:45:13.10	356.96	23.68	-52.9	-54.7	14.4	0.00e+00	0	27	0	588251136	71	4578
2026-01-05 04:45:17.09	355.84	23.72	-53.0	-54.9	14.3	0.00e+00	0	28	0	596639744	71	4696
2026-01-05 04:45:21.09	354.72	23.74	-52.7	-54.6	14.4	0.00e+00	0	27	0	603979776	71	4499
2026-01-05 04:45:25.09	353.60	23.75	-52.9	-54.7	14.4	0.00e+00	0	27	0	611319808	71	4573
2026-01-05 04:45:29.08	352.48	23.75	-52.7	-54.5	14.5	0.00e+00	0	28	0	618659840	71	4482
2026-01-05 04:45:33.07	351.36	23.74	-52.3	-54.0	14.7	0.00e+00	0	27	0	625999872	71	4231
2026-01-05 04:45:37.06	350.24	23.71	-52.0	-53.6	14.7	0.00e+00	0	28	0	633339904	70	4281
2026-01-05 04:45:41.06	349.12	23.68	-51.7	-53.3	14.9	0.00e+00	0	27	0	640679936	70	4119
2026-01-05 04:45:45.05	348.00	23.63	-51.5	-53.1	14.8	0.00e+00	0	27	0	648019968	69	4246
2026-01-05 04:45:49.04	346.89	23.57	-51.1	-52.6	14.9	0.00e+00	0	28	0	656408576	68	4247
2026-01-05 04:45:53.00	345.80	23.50	-51.1	-52.5	14.9	0.00e+00	0	28	0	663748608	68	4241
2026-01-05 04:45:56.99	344.70	23.42	-50.9	-52.4	15.0	0.00e+00	0	27	0	671088640	68	4148
2026-01-05 04:46:00.99	343.60	23.32	-50.3	-51.7	15.0	0.00e+00	0	27	0	678428672	67	4087
2026-01-05 04:46:04.99	342.51	23.22	-50.7	-52.1	14.9	0.00e+00	0	27	0	685768704	67	4265
2026-01-05 04:46:08.98	341.43	23.10	-50.9	-52.4	14.8	0.00e+00	0	28	0	693108736	67	4411
2026-01-05 04:46:12.97	340.36	22.98	-50.9	-52.4	14.8	0.00e+00	0	27	0	700448768	67	4413
2026-01-05 04:46:16.96	339.30	22.84	-51.1	-52.6	14.7	0.00e+00	0	27	0	708837376	67	4538
2026-01-05 04:46:20.95	338.25	22.70	-51.9	-53.5	14.6	0.00e+00	0	28	0	716177408	68	4724
2026-01-05 04:46:24.95	337.20	22.54	-52.0	-53.7	14.6	0.00e+00	0	27	0	723517440	69	4571
2026-01-05 04:46:28.93	336.17	22.38	-52.0	-53.7	14.6	0.00e+00	0	27	0	730857472	69	4577
2026-01-05 04:46:32.92	335.15	22.21	-52.4	-54.1	14.4	0.00e+00	0	28	0	738197504	69	4793
2026-01-05 04:46:36.91	334.14	22.03	-52.6	-54.3	14.4	0.00e+00	0	28	0	745537536	70	4634
2026-01-05 04:46:40.89	333.15	21.84	-52.7	-54.6	14.4	0.00e+00	0	28	0	752877568	70	4762
2026-01-05 04:46:44.89	332.16	21.64	-52.7	-54.6	14.3	0.00e+00	0	27	0	761266176	70	4766
2026-01-05 04:46:48.89	331.19	21.44	-52.9	-54.7	14.3	3.00e-06	0	28	0	768606208	70	4863
2026-01-05 04:46:52.87	330.23	21.23	-52.6	-54.4	14.5	0.00e+00	0	28	0	775946240	71	4410
2026-01-05 04:46:56.88	329.28	21.01	-53.0	-54.9	14.3	0.00e+00	0	28	0	783286272	71	4680
2026-01-05 04:47:00.85	328.35	20.79	-52.8	-54.6	14.4	0.00e+00	0	28	0	790626304	71	4508
2026-01-05 04:47:04.85	327.43	20.56	-52.7	-54.6	14.4	0.00e+00	0	28	0	797966336	71	4503
2026-01-05 04:47:08.84	326.53	20.32	-52.5	-54.3	14.6	0.00e+00	0	28	0	805306368	71	4349
2026-01-05 04:47:12.82	325.64	20.08	-52.3	-54.0	14.7	0.00e+00	0	27	0	812646400	71	4221
2026-01-05 04:47:16.83	324.76	19.84	-52.4	-54.1	14.6	0.00e+00	0	27	0	821035008	71	4267
2026-01-05 04:47:20.82	323.90	19.59	-52.4	-54.1	14.6	0.00e+00	0	28	0	828375040	71	4277
2026-01-05 04:47:24.82	323.05	19.33	-52.5	-54.2	14.6	0.00e+00	0	27	0	835715072	71	4325
2026-01-05 04:47:28.82	322.21	19.08	-52.4	-54.2	14.6	0.00e+00	0	28	0	843055104	71	4299
2026-01-05 04:47:32.80	321.40	18.82	-52.4	-54.1	14.6	0.00e+00	0	28	0	850395136	71	4286
2026-01-05 04:47:36.79	320.59	18.55	-52.6	-54.4	14.5	0.00e+00	0	27	0	857735168	71	4440
2026-01-05 04:47:40.79	319.80	18.28	-52.6	-54.4	14.5	0.00e+00	0	27	0	865075200	71	4432
2026-01-05 04:47:44.78	319.02	18.01	-52.7	-54.5	14.4	0.00e+00	0	28	0	873463808	71	4464
2026-01-05 04:47:48.76	318.26	17.74	-52.6	-54.4	14.5	0.00e+00	0	27	0	880803840	71	4398
2026-01-05 04:47:52.75	317.51	17.47	-52.6	-54.3	14.5	0.00e+00	0	28	0	888143872	71	4384
2026-01-05 04:47:56.73	316.78	17.19	-52.4	-54.2	14.6	0.00e+00	0	27	0	895483904	71	4302
2026-01-05 04:48:00.73	316.05	16.91	-52.3	-54.0	14.7	0.00e+00	0	28	0	902823936	71	4229
2026-01-05 04:48:04.71	315.35	16.64	-52.0	-53.6	14.7	0.00e+00	0	27	0	910163968	70	4277
2026-01-05 04:48:08.71	314.65	16.35	-52.0	-53.6	14.7	0.00e+00	0	27	0	917504000	70	4274
2026-01-05 04:48:12.71	313.97	16.07	-52.0	-53.6	14.7	0.00e+00	0	27	0	925892608	70	4282
2026-01-05 04:48:16.71	313.30	15.79	-51.9	-53.6	14.7	0.00e+00	0	27	0	933232640	70	4266
2026-01-05 04:48:20.69	312.64	15.51	-51.6	-53.2	14.7	0.00e+00	0	27	0	940572672	69	4339
2026-01-05 04:48:24.67	312.00	15.22	-51.6	-53.2	14.7	0.00e+00	0	27	0	947912704	69	4328
2026-01-05 04:48:28.66	311.37	14.94	-51.7	-53.3	14.7	0.00e+00	0	28	0	955252736	69	4357
2026-01-05 04:48:32.64	310.75	14.66	-51.7	-53.3	14.7	0.00e+00	0	28	0	962592768	69	4391
2026-01-05 04:48:36.63	310.14	14.37	-51.7	-53.4	14.6	0.00e+00	0	28	0	969932800	69	4413
2026-01-05 04:48:40.63	309.55	14.09	-51.8	-53.5	14.6	0.00e+00	0	28	0	977272832	69	4445
2026-01-05 04:48:44.63	308.96	13.80	-52.0	-53.8	14.5	0.00e+00	0	27	0	985661440	69	4604
2026-01-05 04:48:48.63	308.39	13.52	-52.3	-54.1	14.4	0.00e+00	0	28	0	993001472	69	4797
2026-01-05 04:48:52.61	307.83	13.24	-52.4	-54.3	14.4	0.00e+00	0	27	0	1000341504	70	4617
2026-01-05 04:48:56.59	307.28	12.96	-52.3	-54.1	14.5	0.00e+00	0	28	0	1007681536	70	4508
2026-01-05 04:49:00.58	306.74	12.68	-52.2	-54.0	14.5	0.00e+00	0	28	0	1015021568	70	4464
2026-01-05 04:49:04.55	306.21	12.40	-52.5	-54.3	14.3	0.00e+00	0	28	0	1022361600	70	4640
2026-01-05 04:49:08.52	305.69	12.12	-52.6	-54.5	14.3	0.00e+00	0	28	0	1029701632	70	4713
2026-01-05 04:49:12.53	305.18	11.84	-52.8	-54.7	14.2	0.00e+00	0	27	0	1038090240	70	4852
2026-01-05 04:49:16.51	304.68	11.56	-52.8	-54.8	14.2	0.00e+00	0	27	0	1045430272	70	4876
2026-01-05 04:49:20.50	304.19	11.28	-52.8	-54.7	14.1	0.00e+00	0	28	0	1052770304	70	4852
2026-01-05 04:49:24.51	303.71	11.00	-52.9	-55.0	14.2	0.00e+00	0	28	0	1060110336	71	4709
2026-01-05 04:49:28.49	303.24	10.73	-53.1	-55.2	14.0	0.00e+00	0	28	0	1067450368	71	4850
2026-01-05 04:49:32.50	302.77	10.46	-53.2	-55.3	14.0	0.00e+00	0	27	0	1074790400	71	4891
2026-01-05 04:49:36.49	302.32	10.18	-53.1	-55.2	14.0	0.00e+00	0	27	0	1082130432	71	4854
2026-01-05 04:49:40.48	301.87	9.91	-53.1	-55.2	14.0	0.00e+00	0	27	0	1089470464	71	4845
2026-01-05 04:49:44.47	301.43	9.64	-53.3	-55.5	13.9	0.00e+00	0	27	0	1097859072	71	5005
2026-01-05 04:49:48.44	301.01	9.37	-53.5	-55.8	13.8	0.00e+00	0	28	0	1105199104	72	4884
2026-01-05 04:49:52.42	300.59	9.11	-53.6	-56.0	13.7	0.00e+00	0	27	0	1112539136	72	4986
2026-01-05 04:49:56.41	300.17	8.84	-53.7	-56.0	13.7	0.00e+00	0	28	0	1119879168	72	5006
2026-01-05 04:50:00.40	299.77	8.58	-53.9	-56.3	13.5	0.00e+00	0	28	0	1127219200	72	5188
2026-01-05 04:50:04.38	299.37	8.31	-54.0	-56.5	13.5	0.00e+00	0	28	0	1134559232	73	5014
2026-01-05 04:50:08.35	298.98	8.05	-54.1	-56.7	13.3	0.00e+00	0	27	0	1141899264	73	5158
2026-01-05 04:50:12.35	298.60	7.79	-54.1	-56.8	13.3	0.00e+00	0	28	0	1149239296	73	5166
2026-01-05 04:50:16.34	298.22	7.53	-54.1	-56.7	13.4	0.00e+00	0	27	0	1157627904	73	5101
2026-01-05 04:50:20.34	297.85	7.28	-54.1	-56.8	13.3	0.00e+00	0	27	0	1164967936	73	5160
2026-01-05 04:50:24.34	297.49	7.02	-54.3	-57.0	13.2	0.00e+00	0	27	0	1172307968	73	5316
2026-01-05 04:50:28.32	297.13	6.76	-54.5	-57.3	13.0	0.00e+00	0	28	0	1179648000	74	5198
2026-01-05 04:50:32.32	296.78	6.51	-54.6	-57.5	12.9	0.00e+00	0	28	0	1186988032	74	5314
2026-01-05 04:50:36.31	296.44	6.26	-54.6	-57.6	12.9	0.00e+00	0	28	0	1194328064	74	5347
2026-01-05 04:50:40.30	296.10	6.01	-54.6	-57.6	12.8	0.00e+00	0	28	0	1201668096	74	5378
2026-01-05 04:50:44.30	295.77	5.76	-54.7	-57.8	12.7	0.00e+00	0	28	0	1210056704	74	5495
2026-01-05 04:50:48.29	295.44	5.51	-54.7	-57.9	12.6	0.00e+00	0	28	0	1217396736	74	5563
2026-01-05 04:50:52.26	295.12	5.27	-55.0	-58.3	12.4	0.00e+00	0	28	0	1224736768	75	5516
2026-01-05 04:50:56.25	294.81	5.02	-55.0	-58.4	12.3	0.00e+00	0	27	0	1232076800	75	5572
2026-01-05 04:51:00.24	294.50	4.78	-59.9	-75.9	3.8	1.49e+00	0	27	104	1233125376	84	24826
2026-01-05 04:51:04.22	294.20	4.54	-60.6	-76.6	3.8	1.49e+00	0	28	104	1233125376	86	24094
2026-01-05 04:51:08.21	293.90	4.30	-60.9	-77.1	3.8	1.49e+00	0	28	104	1233125376	87	23895
2026-01-05 04:51:12.19	293.61	4.06	-61.1	-77.1	3.8	1.49e+00	0	28	104	1233125376	87	24109
2026-01-05 04:51:16.19	293.32	3.82	-61.2	-77.3	3.8	1.49e+00	0	28	104	1233125376	87	24474
2026-01-05 04:51:20.20	293.03	3.58	-61.2	-77.2	3.8	1.49e+00	0	28	104	1233125376	87	24394
2026-01-05 04:51:24.20	292.75	3.35	-61.1	-77.2	3.8	1.49e+00	0	28	104	1233125376	87	24189
2026-01-05 04:51:28.21	292.48	3.11	-61.0	-77.1	3.8	1.49e+00	0	28	104	1233125376	87	23860
2026-01-05 04:51:32.21	292.21	2.88	-60.9	-77.0	3.8	1.49e+00	0	28	104	1233125376	87	23634
2026-01-05 04:51:36.22	291.94	2.65	-60.9	-77.0	3.8	1.49e+00	0	28	104	1233125376	87	23623
2026-01-05 04:51:40.22	291.68	2.42	-60.9	-76.9	3.8	1.49e+00	0	28	104	1233125376	87	23485
2026-01-05 04:51:44.23	291.42	2.19	-60.8	-76.9	3.8	1.49e+00	0	28	104	1233125376	87	23384

#Closed at: 2026-01-05 04:51:47
#Recorded file [1233 MB]: D:/lorett/data/31004_260105_073906.dat