passes_logs/2026/01/05/R3.2S_Murmansk/R3.2S_Murmansk__20260105_093630_NOAA_20_JPSS-1_rec.log

#Pass ID: 20260105_093630_NOAA 20 (JPSS-1)
#Satellite: NOAA 20 (JPSS-1)
#Configuration: NOAA 20
#almurnet v.1.7.20251203
#Start time: 2026-01-05 09:36:30

#Version: 2.2.20231116
#Station: R3.2S_Murmansk
#Location: 33.079688 lon 68.888172 lat
#TLE: 1 43013U 17073A   26004.47528369  .00000132  00000+0  83671-4 0  9999
#TLE: 2 43013  98.7626 305.5264 0001854  54.5883 305.5466 14.19533142421242

#Time	Az	El	Level	Level2	SNR	BER	BlckErr	Temp	State	Recorded	gain1	gain2
2026-01-05 09:36:30.91	153.74	2.03	-58.2	-74.2	3.8	1.49e+00	0	25	0	0	82	22832
2026-01-05 09:36:34.86	153.76	2.29	-58.2	-74.1	3.8	1.49e+00	0	25	104	0	81	23871
2026-01-05 09:36:38.80	153.78	2.54	-58.2	-74.0	3.8	1.49e+00	0	25	104	0	81	23783
2026-01-05 09:36:42.77	153.81	2.80	-58.2	-73.9	3.8	1.49e+00	0	26	104	0	81	23575
2026-01-05 09:36:46.71	153.83	3.06	-58.2	-74.1	3.8	1.49e+00	0	26	104	0	81	23973
2026-01-05 09:36:50.66	153.85	3.33	-58.1	-73.5	3.8	1.49e+00	0	26	104	0	81	22397
2026-01-05 09:36:54.62	153.87	3.60	-58.0	-70.6	4.2	1.42e+00	0	26	0	0	81	16007
2026-01-05 09:36:58.58	153.89	3.87	-57.8	-67.8	5.4	5.45e-01	0	26	0	5242880	81	11551
2026-01-05 09:37:02.53	153.91	4.14	-57.4	-65.1	7.2	1.00e-01	0	26	0	12582912	81	8549
2026-01-05 09:37:06.48	153.93	4.42	-56.6	-62.1	9.7	3.91e-03	0	26	0	20971520	79	6790
2026-01-05 09:37:10.45	153.96	4.70	-56.1	-60.7	10.8	1.91e-04	0	26	0	28311552	78	6115
2026-01-05 09:37:14.40	153.98	4.98	-56.2	-61.0	10.6	3.26e-04	0	26	0	35651584	78	6303
2026-01-05 09:37:18.37	154.00	5.26	-55.3	-59.0	12.2	7.00e-07	0	27	0	42991616	77	5286
2026-01-05 09:37:22.36	154.02	5.55	-55.1	-58.6	12.3	0.00e+00	0	26	0	50331648	76	5367
2026-01-05 09:37:26.33	154.05	5.84	-55.2	-58.8	12.2	0.00e+00	0	27	0	57671680	76	5496
2026-01-05 09:37:30.31	154.07	6.14	-55.1	-58.5	12.5	0.00e+00	0	26	0	65011712	76	5291
2026-01-05 09:37:34.29	154.09	6.44	-55.1	-58.3	12.6	0.00e+00	0	27	0	72351744	76	5212
2026-01-05 09:37:38.25	154.12	6.74	-55.1	-58.4	12.6	0.00e+00	0	26	0	79691776	76	5223
2026-01-05 09:37:42.22	154.14	7.05	-55.0	-58.2	12.7	0.00e+00	0	27	0	87031808	76	5109
2026-01-05 09:37:46.18	154.16	7.36	-54.9	-58.0	12.9	0.00e+00	0	27	0	95420416	76	4998
2026-01-05 09:37:50.15	154.19	7.67	-54.8	-57.8	13.0	0.00e+00	0	27	0	102760448	76	4887
2026-01-05 09:37:54.11	154.21	7.99	-54.8	-57.8	13.0	0.00e+00	0	27	0	110100480	76	4892
2026-01-05 09:37:58.08	154.24	8.31	-54.8	-57.7	13.1	0.00e+00	0	27	0	117440512	76	4841
2026-01-05 09:38:02.05	154.26	8.63	-54.7	-57.6	13.2	0.00e+00	0	27	0	124780544	76	4770
2026-01-05 09:38:06.02	154.29	8.96	-54.8	-57.7	13.1	0.00e+00	0	27	0	132120576	76	4841
2026-01-05 09:38:09.99	154.31	9.30	-54.5	-57.3	13.3	0.00e+00	0	27	0	139460608	75	4899
2026-01-05 09:38:13.97	154.34	9.64	-54.4	-57.2	13.3	0.00e+00	0	27	0	146800640	75	4823
2026-01-05 09:38:17.94	154.36	9.98	-54.3	-57.0	13.5	0.00e+00	0	27	0	154140672	75	4712
2026-01-05 09:38:21.92	154.39	10.33	-54.3	-56.9	13.5	0.00e+00	0	27	0	161480704	75	4655
2026-01-05 09:38:25.89	154.42	10.68	-54.2	-56.8	13.5	0.00e+00	0	27	0	169869312	74	4874
2026-01-05 09:38:29.87	154.44	11.04	-54.1	-56.6	13.6	0.00e+00	0	27	0	177209344	74	4761
2026-01-05 09:38:33.85	154.47	11.40	-53.9	-56.4	13.7	0.00e+00	0	27	0	184549376	74	4662
2026-01-05 09:38:37.83	154.50	11.78	-53.9	-56.3	13.7	0.00e+00	0	27	0	191889408	74	4641
2026-01-05 09:38:41.81	154.53	12.15	-53.8	-56.1	13.9	0.00e+00	0	27	0	199229440	74	4535
2026-01-05 09:38:45.80	154.55	12.53	-53.8	-56.1	13.9	0.00e+00	0	27	0	206569472	74	4530
2026-01-05 09:38:49.78	154.58	12.92	-53.5	-55.7	14.0	0.00e+00	0	27	0	213909504	73	4596
2026-01-05 09:38:53.74	154.61	13.31	-53.5	-55.7	14.0	0.00e+00	0	27	0	221249536	73	4590
2026-01-05 09:38:57.72	154.64	13.71	-53.4	-55.5	14.1	0.00e+00	0	27	0	228589568	73	4470
2026-01-05 09:39:01.69	154.67	14.12	-53.3	-55.4	14.2	0.00e+00	0	27	0	236978176	73	4436
2026-01-05 09:39:05.64	154.70	14.53	-53.3	-55.3	14.2	0.00e+00	0	27	0	244318208	73	4383
2026-01-05 09:39:09.61	154.73	14.95	-53.1	-55.1	14.2	0.00e+00	0	27	0	251658240	72	4505
2026-01-05 09:39:13.59	154.76	15.38	-53.0	-55.0	14.3	0.00e+00	0	27	0	258998272	72	4466
2026-01-05 09:39:17.56	154.80	15.82	-52.9	-54.9	14.3	0.00e+00	0	27	0	266338304	72	4404
2026-01-05 09:39:21.54	154.83	16.26	-52.8	-54.7	14.4	0.00e+00	0	27	0	273678336	72	4307
2026-01-05 09:39:25.53	154.86	16.71	-52.6	-54.5	14.4	0.00e+00	0	27	0	281018368	71	4446
2026-01-05 09:39:29.53	154.89	17.18	-52.6	-54.4	14.4	0.00e+00	0	27	0	288358400	71	4433
2026-01-05 09:39:33.48	154.93	17.64	-52.6	-54.4	14.4	0.00e+00	0	27	0	295698432	71	4429
2026-01-05 09:39:37.45	154.96	18.12	-52.5	-54.3	14.5	0.00e+00	0	27	0	303038464	71	4368
2026-01-05 09:39:41.42	155.00	18.61	-52.4	-54.3	14.5	0.00e+00	0	27	0	311427072	71	4345
2026-01-05 09:39:45.39	155.03	19.11	-52.4	-54.2	14.6	0.00e+00	0	27	0	318767104	71	4301
2026-01-05 09:39:49.37	155.07	19.61	-52.4	-54.2	14.6	0.00e+00	0	27	0	326107136	71	4312
2026-01-05 09:39:53.35	155.11	20.13	-52.1	-53.9	14.6	0.00e+00	0	27	0	333447168	70	4397
2026-01-05 09:39:57.32	155.15	20.66	-52.2	-54.0	14.5	0.00e+00	0	27	0	340787200	70	4454
2026-01-05 09:40:01.29	155.19	21.20	-52.1	-53.8	14.6	0.00e+00	0	27	0	348127232	70	4360
2026-01-05 09:40:05.27	155.23	21.76	-52.0	-53.7	14.7	0.00e+00	0	27	0	355467264	70	4327
2026-01-05 09:40:09.24	155.27	22.32	-52.1	-53.8	14.6	0.00e+00	0	27	0	362807296	70	4385
2026-01-05 09:40:13.20	155.31	22.90	-52.1	-53.8	14.6	0.00e+00	0	27	0	370147328	70	4345
2026-01-05 09:40:17.17	155.35	23.49	-52.2	-53.9	14.6	0.00e+00	0	27	0	378535936	70	4405
2026-01-05 09:40:21.15	155.40	24.09	-52.1	-53.8	14.6	0.00e+00	0	27	0	385875968	70	4379
2026-01-05 09:40:25.11	155.44	24.71	-52.1	-53.8	14.6	0.00e+00	0	27	0	393216000	70	4375
2026-01-05 09:40:29.06	155.49	25.34	-52.4	-54.1	14.5	0.00e+00	0	27	0	400556032	70	4529
2026-01-05 09:40:33.03	155.53	25.99	-52.5	-54.2	14.5	0.00e+00	0	27	0	407896064	70	4581
2026-01-05 09:40:37.03	155.58	26.66	-52.7	-54.5	14.4	0.00e+00	0	27	0	415236096	70	4719
2026-01-05 09:40:41.00	155.63	27.34	-53.1	-55.0	14.2	0.00e+00	0	27	0	422576128	71	4747
2026-01-05 09:40:44.98	155.69	28.04	-53.7	-55.9	14.0	0.00e+00	0	27	0	429916160	72	4927
2026-01-05 09:40:48.96	155.74	28.76	-54.3	-56.7	13.6	0.00e+00	0	27	0	437256192	73	5126
2026-01-05 09:40:52.94	155.80	29.50	-54.9	-57.4	13.5	0.00e+00	0	27	0	444596224	75	4982
2026-01-05 09:40:56.91	155.85	30.26	-55.1	-57.7	13.3	0.00e+00	0	27	0	452984832	75	5131
2026-01-05 09:41:00.89	155.91	31.04	-55.1	-57.7	13.3	0.00e+00	0	27	0	460324864	75	5128
2026-01-05 09:41:04.85	155.98	31.83	-55.0	-57.6	13.4	0.00e+00	0	27	0	467664896	75	5093
2026-01-05 09:41:08.83	156.04	32.65	-54.9	-57.4	13.5	0.00e+00	0	27	0	475004928	75	4961
2026-01-05 09:41:12.77	156.11	33.49	-54.2	-56.5	14.0	0.00e+00	0	27	0	482344960	75	4465
2026-01-05 09:41:16.74	156.18	34.36	-53.2	-55.1	14.3	0.00e+00	0	27	0	489684992	72	4506
2026-01-05 09:41:20.70	156.25	35.25	-52.5	-54.3	14.6	0.00e+00	0	27	0	497025024	71	4360
2026-01-05 09:41:24.66	156.33	36.16	-52.1	-53.8	14.7	0.00e+00	0	27	0	504365056	70	4354
2026-01-05 09:41:28.64	156.41	37.11	-51.8	-53.4	14.8	0.00e+00	0	27	0	511705088	70	4190
2026-01-05 09:41:32.62	156.49	38.08	-51.2	-52.7	14.8	0.00e+00	0	27	0	519045120	68	4302
2026-01-05 09:41:36.58	156.58	39.08	-51.2	-52.6	14.9	0.00e+00	0	27	0	527433728	68	4291
2026-01-05 09:41:40.57	156.67	40.11	-51.0	-52.5	14.9	0.00e+00	0	27	0	534773760	68	4196
2026-01-05 09:41:44.54	156.77	41.17	-50.9	-52.3	15.0	0.00e+00	0	27	0	542113792	68	4131
2026-01-05 09:41:48.50	156.87	42.26	-51.2	-52.7	14.8	0.00e+00	0	27	0	549453824	68	4310
2026-01-05 09:41:52.47	156.98	43.39	-52.0	-53.6	14.5	0.00e+00	0	27	0	556793856	69	4526
2026-01-05 09:41:56.47	157.10	44.56	-52.8	-54.6	14.4	0.00e+00	0	27	0	564133888	70	4786
2026-01-05 09:42:00.46	157.23	45.76	-53.9	-56.0	14.0	0.00e+00	0	27	0	571473920	72	5023
2026-01-05 09:42:04.42	157.36	46.99	-54.5	-56.8	13.8	0.00e+00	0	27	0	578813952	74	4906
2026-01-05 09:42:08.39	157.50	48.26	-54.3	-56.4	14.0	0.00e+00	0	27	0	586153984	74	4702
2026-01-05 09:42:12.36	157.66	49.57	-54.8	-57.3	13.6	0.00e+00	0	27	0	594542592	75	4883
2026-01-05 09:42:16.32	157.82	50.91	-53.2	-55.1	14.5	0.00e+00	0	27	0	601882624	73	4247
2026-01-05 09:42:20.28	158.01	52.29	-51.0	-52.4	15.0	0.00e+00	0	27	0	609222656	68	4187
2026-01-05 09:42:24.25	158.20	53.71	-50.2	-51.6	15.0	0.00e+00	0	27	0	616562688	66	4273
2026-01-05 09:42:28.23	158.42	55.18	-50.8	-52.2	14.8	0.00e+00	0	27	0	623902720	66	4576
2026-01-05 09:42:32.20	158.66	56.69	-52.4	-54.0	14.5	0.00e+00	0	27	0	631242752	69	4750
2026-01-05 09:42:36.18	158.93	58.24	-53.1	-54.9	14.3	0.00e+00	0	27	0	638582784	71	4705
2026-01-05 09:42:40.17	159.23	59.84	-52.1	-53.7	14.8	0.00e+00	0	27	0	645922816	70	4305
2026-01-05 09:42:44.15	159.56	61.47	-50.4	-51.8	15.1	0.00e+00	0	27	0	653262848	67	4109
2026-01-05 09:42:48.10	159.94	63.13	-49.7	-50.9	15.1	0.00e+00	0	27	0	660602880	65	4190
2026-01-05 09:42:52.09	160.38	64.85	-52.5	-54.2	14.5	0.00e+00	0	27	0	668991488	70	4573
2026-01-05 09:42:56.07	160.89	66.60	-52.9	-54.7	14.5	0.00e+00	0	27	0	676331520	71	4550
2026-01-05 09:43:00.05	161.49	68.39	-54.2	-56.3	14.0	0.00e+00	0	27	0	683671552	73	4903
2026-01-05 09:43:04.02	162.20	70.21	-52.8	-54.5	14.7	0.00e+00	0	27	0	691011584	72	4209
2026-01-05 09:43:07.98	163.06	72.05	-53.6	-55.6	14.2	0.00e+00	0	27	0	698351616	72	4764
2026-01-05 09:43:11.95	164.13	73.92	-54.1	-56.2	14.0	0.00e+00	0	27	0	705691648	73	4848
2026-01-05 09:43:15.93	165.50	75.83	-54.3	-56.4	14.1	0.00e+00	0	27	0	713031680	74	4688
2026-01-05 09:43:19.89	167.30	77.73	-53.6	-55.5	14.4	0.00e+00	0	27	0	720371712	73	4452
2026-01-05 09:43:23.87	169.79	79.66	-51.6	-53.1	15.0	0.00e+00	0	27	0	727711744	69	4269
2026-01-05 09:43:27.85	173.43	81.57	-53.6	-55.6	14.3	0.00e+00	0	27	0	735051776	72	4760
2026-01-05 09:43:31.83	179.22	83.45	-54.7	-56.9	14.0	0.00e+00	0	27	0	743440384	76	4424
2026-01-05 09:43:35.79	189.42	85.22	-53.2	-54.9	14.5	0.00e+00	0	27	0	750780416	72	4427
2026-01-05 09:43:39.78	210.08	86.68	-53.8	-55.7	14.2	0.00e+00	0	27	0	758120448	72	4835
2026-01-05 09:43:43.76	248.11	87.26	-53.4	-55.3	14.5	0.00e+00	0	27	0	765460480	73	4348
2026-01-05 09:43:47.74	283.67	86.49	-53.7	-55.6	14.3	0.00e+00	0	27	0	772800512	73	4536
2026-01-05 09:43:51.72	302.02	84.95	-52.1	-53.7	14.8	0.00e+00	0	27	0	780140544	70	4292
2026-01-05 09:43:55.67	311.25	83.17	-55.1	-57.4	13.7	0.00e+00	0	27	0	787480576	75	4983
2026-01-05 09:43:59.65	316.60	81.28	-53.9	-55.8	14.4	0.00e+00	0	27	0	794820608	74	4386
2026-01-05 09:44:03.63	320.02	79.37	-52.6	-54.3	14.6	0.00e+00	0	27	0	802160640	70	4608
2026-01-05 09:44:07.62	322.39	77.44	-56.1	-58.9	13.1	0.00e+00	0	27	0	810549248	77	5265
2026-01-05 09:44:11.59	324.11	75.53	-55.6	-58.2	13.6	0.00e+00	0	27	0	817889280	77	4833
2026-01-05 09:44:15.55	325.41	73.64	-53.1	-54.8	14.7	0.00e+00	0	27	0	825229312	72	4386
2026-01-05 09:44:19.49	326.44	71.79	-52.3	-53.8	14.9	0.00e+00	0	27	0	832569344	71	4137
2026-01-05 09:44:23.45	327.28	69.95	-54.3	-56.3	14.0	0.00e+00	0	27	0	839909376	73	4925
2026-01-05 09:44:27.41	327.97	68.15	-57.0	-60.4	12.3	0.00e+00	0	27	0	847249408	79	5539
2026-01-05 09:44:31.37	328.55	66.38	-54.0	-55.9	14.3	0.00e+00	0	27	0	854589440	74	4439
2026-01-05 09:44:35.34	329.04	64.64	-52.9	-54.6	14.7	0.00e+00	0	27	0	861929472	72	4279
2026-01-05 09:44:39.31	329.47	62.94	-50.9	-52.3	15.0	0.00e+00	0	27	0	869269504	68	4105
2026-01-05 09:44:43.28	329.85	61.28	-51.1	-52.5	14.9	0.00e+00	0	27	0	876609536	67	4477
2026-01-05 09:44:47.24	330.18	59.66	-53.4	-55.1	14.6	0.00e+00	0	27	0	883949568	73	4285
2026-01-05 09:44:51.23	330.47	58.08	-55.1	-57.5	13.6	0.00e+00	0	28	0	892338176	75	5023
2026-01-05 09:44:55.20	330.74	56.54	-53.9	-55.8	14.4	0.00e+00	0	27	0	899678208	74	4374
2026-01-05 09:44:59.17	330.97	55.04	-52.1	-53.6	14.9	0.00e+00	0	27	0	907018240	70	4257
2026-01-05 09:45:03.14	331.19	53.58	-52.6	-54.3	14.5	0.00e+00	0	27	0	914358272	70	4633
2026-01-05 09:45:07.11	331.39	52.17	-53.4	-55.2	14.4	0.00e+00	0	27	0	921698304	71	4833
2026-01-05 09:45:11.07	331.56	50.79	-55.4	-57.9	13.5	0.00e+00	0	27	0	929038336	75	5251
2026-01-05 09:45:15.05	331.73	49.45	-54.8	-57.0	14.0	0.00e+00	0	27	0	936378368	76	4453
2026-01-05 09:45:19.00	331.88	48.16	-58.1	-63.2	10.1	3.27e-02	0	27	0	943718400	82	6465
2026-01-05 09:45:22.95	332.03	46.91	-54.5	-56.6	14.1	0.00e+00	0	27	0	951058432	75	4528
2026-01-05 09:45:26.93	332.16	45.68	-55.7	-58.3	13.3	0.00e+00	0	27	0	958398464	76	5195
2026-01-05 09:45:30.92	332.29	44.49	-53.4	-55.3	14.5	0.00e+00	0	27	0	966787072	73	4369
2026-01-05 09:45:34.89	332.40	43.33	-51.6	-53.0	14.9	0.00e+00	0	27	0	974127104	69	4222
2026-01-05 09:45:38.86	332.51	42.21	-53.6	-55.6	14.2	0.00e+00	0	27	0	981467136	72	4763
2026-01-05 09:45:42.83	332.62	41.13	-53.2	-55.0	14.6	0.00e+00	0	27	0	988807168	73	4234
2026-01-05 09:45:46.79	332.71	40.08	-51.9	-53.5	14.8	0.00e+00	0	27	0	996147200	70	4194
2026-01-05 09:45:50.77	332.81	39.05	-54.7	-57.0	13.7	0.00e+00	0	27	0	1003487232	74	5025
2026-01-05 09:45:54.75	332.90	38.05	-56.8	-60.4	12.2	0.00e+00	0	28	0	1010827264	78	5866
2026-01-05 09:45:58.71	332.98	37.09	-55.2	-57.7	13.7	0.00e+00	0	27	0	1018167296	77	4549
2026-01-05 09:46:02.70	333.06	36.15	-54.2	-56.2	14.1	0.00e+00	0	28	0	1025507328	74	4592
2026-01-05 09:46:06.69	333.14	35.23	-54.8	-57.1	13.7	0.00e+00	0	27	0	1033895936	74	5056
2026-01-05 09:46:10.66	333.21	34.35	-57.7	-62.1	11.1	2.44e-05	0	27	0	1041235968	80	6419
2026-01-05 09:46:14.62	333.28	33.49	-57.6	-62.0	11.2	8.16e-05	0	28	0	1048576000	81	5934
2026-01-05 09:46:18.57	333.35	32.65	-56.0	-58.9	13.1	0.00e+00	0	28	0	1055916032	78	4937
2026-01-05 09:46:22.54	333.42	31.84	-55.4	-58.0	13.5	0.00e+00	0	28	0	1063256064	77	4739
2026-01-05 09:46:26.51	333.48	31.05	-55.6	-58.3	13.3	0.00e+00	0	28	0	1070596096	77	4888
2026-01-05 09:46:30.48	333.54	30.27	-55.9	-58.8	13.0	0.00e+00	0	28	0	1077936128	77	5202
2026-01-05 09:46:34.47	333.60	29.52	-55.7	-58.4	13.2	0.00e+00	0	27	0	1085276160	77	4983
2026-01-05 09:46:38.45	333.66	28.78	-55.0	-57.4	13.7	0.00e+00	0	28	0	1092616192	76	4688
2026-01-05 09:46:42.41	333.71	28.07	-54.0	-56.1	14.1	0.00e+00	0	28	0	1099956224	74	4506
2026-01-05 09:46:46.37	333.76	27.38	-53.3	-55.2	14.4	0.00e+00	0	27	0	1108344832	73	4330
2026-01-05 09:46:50.33	333.82	26.70	-52.9	-54.6	14.6	0.00e+00	0	27	0	1115684864	72	4276
2026-01-05 09:46:54.31	333.87	26.04	-52.9	-54.7	14.5	0.00e+00	0	27	0	1123024896	72	4323
2026-01-05 09:46:58.26	333.91	25.40	-53.0	-54.9	14.5	0.00e+00	0	27	0	1130364928	72	4409
2026-01-05 09:47:02.23	333.96	24.77	-52.8	-54.6	14.6	0.00e+00	0	28	0	1137704960	72	4274
2026-01-05 09:47:06.19	334.01	24.15	-52.2	-53.8	14.6	0.00e+00	0	27	0	1145044992	70	4390
2026-01-05 09:47:10.17	334.05	23.55	-51.8	-53.4	14.8	0.00e+00	0	27	0	1152385024	70	4157
2026-01-05 09:47:14.14	334.10	22.96	-51.5	-53.0	14.9	0.00e+00	0	27	0	1159725056	69	4216
2026-01-05 09:47:18.11	334.14	22.39	-51.6	-53.1	14.8	0.00e+00	0	27	0	1167065088	69	4266
2026-01-05 09:47:22.08	334.18	21.82	-51.7	-53.3	14.7	0.00e+00	0	27	0	1174405120	69	4349
2026-01-05 09:47:26.02	334.23	21.28	-51.9	-53.5	14.7	0.00e+00	0	27	0	1181745152	69	4462
2026-01-05 09:47:30.01	334.27	20.74	-52.2	-53.8	14.5	0.00e+00	0	27	0	1190133760	69	4648
2026-01-05 09:47:33.98	334.31	20.21	-52.1	-53.8	14.5	0.00e+00	0	27	0	1197473792	69	4621
2026-01-05 09:47:37.95	334.35	19.70	-52.3	-54.0	14.4	0.00e+00	0	27	0	1204813824	69	4750
2026-01-05 09:47:41.93	334.38	19.19	-52.5	-54.2	14.5	0.00e+00	0	27	0	1212153856	70	4593
2026-01-05 09:47:45.90	334.42	18.69	-52.5	-54.3	14.5	0.00e+00	0	27	0	1219493888	70	4599
2026-01-05 09:47:49.87	334.46	18.21	-52.7	-54.5	14.3	0.00e+00	0	28	0	1226833920	70	4732
2026-01-05 09:47:53.84	334.50	17.73	-52.7	-54.5	14.3	0.00e+00	0	28	0	1234173952	70	4735
2026-01-05 09:47:57.82	334.53	17.26	-52.7	-54.6	14.3	0.00e+00	0	27	0	1241513984	70	4783
2026-01-05 09:48:01.81	334.57	16.80	-52.7	-54.5	14.3	0.00e+00	0	27	0	1248854016	70	4748
2026-01-05 09:48:05.79	334.60	16.35	-52.5	-54.4	14.4	0.00e+00	0	28	0	1256194048	70	4662
2026-01-05 09:48:09.76	334.64	15.91	-52.6	-54.5	14.3	0.00e+00	0	27	0	1264582656	70	4719
2026-01-05 09:48:13.72	334.67	15.48	-52.4	-54.2	14.4	0.00e+00	0	27	0	1271922688	70	4584
2026-01-05 09:48:17.69	334.70	15.05	-52.6	-54.4	14.3	0.00e+00	0	28	0	1279262720	70	4672
2026-01-05 09:48:21.66	334.74	14.63	-52.3	-54.1	14.5	0.00e+00	0	27	0	1286602752	70	4515
2026-01-05 09:48:25.62	334.77	14.22	-52.5	-54.3	14.4	0.00e+00	0	27	0	1293942784	70	4618
2026-01-05 09:48:29.59	334.80	13.82	-52.4	-54.3	14.4	0.00e+00	0	27	0	1301282816	70	4599
2026-01-05 09:48:33.56	334.83	13.42	-52.7	-54.6	14.2	0.00e+00	0	27	0	1308622848	70	4784
2026-01-05 09:48:37.54	334.86	13.03	-52.6	-54.5	14.3	0.00e+00	0	27	0	1315962880	70	4723
2026-01-05 09:48:41.53	334.89	12.64	-52.8	-54.7	14.2	0.00e+00	0	27	0	1323302912	70	4835
2026-01-05 09:48:45.48	334.92	12.26	-52.8	-54.8	14.2	0.00e+00	0	28	0	1330642944	70	4883
2026-01-05 09:48:49.46	334.95	11.89	-52.9	-54.9	14.2	0.00e+00	0	28	0	1339031552	71	4699
2026-01-05 09:48:53.41	334.98	11.52	-53.0	-55.1	14.1	0.00e+00	0	28	0	1346371584	71	4763
2026-01-05 09:48:57.39	335.01	11.16	-53.0	-55.1	14.1	0.00e+00	0	27	0	1353711616	71	4788
2026-01-05 09:49:01.36	335.04	10.80	-53.0	-55.1	14.1	0.00e+00	0	28	0	1361051648	71	4790
2026-01-05 09:49:05.34	335.07	10.45	-53.3	-55.4	13.9	0.00e+00	0	28	0	1368391680	71	4981
2026-01-05 09:49:09.31	335.10	10.10	-53.2	-55.4	13.9	0.00e+00	0	27	0	1375731712	71	4928
2026-01-05 09:49:13.29	335.13	9.76	-53.1	-55.3	14.0	0.00e+00	0	27	0	1383071744	71	4873
2026-01-05 09:49:17.26	335.16	9.42	-53.1	-55.2	14.0	0.00e+00	0	28	0	1390411776	71	4854
2026-01-05 09:49:21.21	335.18	9.09	-53.0	-55.1	14.0	0.00e+00	0	27	0	1397751808	71	4786
2026-01-05 09:49:25.17	335.21	8.76	-53.2	-55.3	13.9	0.00e+00	0	27	0	1405091840	71	4907
2026-01-05 09:49:29.12	335.24	8.44	-53.0	-55.1	14.0	0.00e+00	0	28	0	1413480448	71	4811
2026-01-05 09:49:33.08	335.27	8.12	-53.1	-55.3	13.9	0.00e+00	0	27	0	1420820480	71	4888
2026-01-05 09:49:37.06	335.29	7.80	-53.1	-55.3	13.9	0.00e+00	0	27	0	1428160512	71	4917
2026-01-05 09:49:41.03	335.32	7.49	-53.1	-55.3	13.9	0.00e+00	0	28	0	1435500544	71	4875
2026-01-05 09:49:44.99	335.35	7.18	-53.1	-55.2	13.9	0.00e+00	0	27	0	1442840576	71	4867
2026-01-05 09:49:48.93	335.37	6.88	-53.1	-55.3	13.9	0.00e+00	0	27	0	1450180608	71	4900
2026-01-05 09:49:52.90	335.40	6.58	-52.9	-55.1	14.0	0.00e+00	0	28	0	1457520640	71	4773
2026-01-05 09:49:56.87	335.42	6.28	-53.2	-55.5	13.7	0.00e+00	0	27	0	1464860672	71	5017
2026-01-05 09:50:00.84	335.45	5.99	-53.1	-55.4	13.8	0.00e+00	0	27	0	1472200704	71	4949
2026-01-05 09:50:04.83	335.48	5.69	-53.2	-55.6	13.6	0.00e+00	0	27	0	1479540736	71	5058
2026-01-05 09:50:08.80	335.50	5.40	-53.3	-55.7	13.6	0.00e+00	0	28	0	1486880768	72	4856
2026-01-05 09:50:12.76	335.53	5.12	-53.3	-55.8	13.6	0.00e+00	0	27	0	1494220800	72	4884
2026-01-05 09:50:16.73	335.55	4.84	-59.7	-75.7	3.8	1.49e+00	0	28	104	1498415104	84	24276
2026-01-05 09:50:20.75	335.58	4.56	-60.5	-76.5	3.8	1.49e+00	0	27	104	1498415104	86	23766
2026-01-05 09:50:24.76	335.60	4.28	-60.8	-76.9	3.8	1.49e+00	0	28	104	1498415104	86	24726
2026-01-05 09:50:28.76	335.63	4.00	-61.0	-77.0	3.8	1.49e+00	0	27	104	1498415104	87	23712
2026-01-05 09:50:32.76	335.65	3.73	-61.1	-77.1	3.8	1.49e+00	0	28	104	1498415104	87	24077
2026-01-05 09:50:36.77	335.68	3.46	-61.0	-77.1	3.8	1.49e+00	0	28	104	1498415104	87	24001
2026-01-05 09:50:40.73	335.70	3.19	-60.9	-77.0	3.8	1.49e+00	0	28	104	1498415104	87	23742
2026-01-05 09:50:44.70	335.73	2.93	-60.9	-77.0	3.8	1.49e+00	0	27	104	1498415104	87	23602
2026-01-05 09:50:48.66	335.75	2.67	-60.9	-76.9	3.8	1.49e+00	0	28	104	1498415104	87	23509
2026-01-05 09:50:52.62	335.78	2.42	-60.8	-76.9	3.8	1.49e+00	0	28	104	1498415104	87	23439
2026-01-05 09:50:56.61	335.80	2.16	-60.8	-76.9	3.8	1.49e+00	0	28	104	1498415104	87	23312

#Closed at: 2026-01-05 09:51:00
#Recorded file [1498 MB]: D:/lorett/data/31004_260105_123630.dat