passes_logs/2026/01/05/R3.2S_Murmansk/R3.2S_Murmansk__20260105_061758_NOAA_20_JPSS-1_rec.log

#Pass ID: 20260105_061758_NOAA 20 (JPSS-1)
#Satellite: NOAA 20 (JPSS-1)
#Configuration: NOAA 20
#almurnet v.1.7.20251203
#Start time: 2026-01-05 06:18:00

#Version: 2.2.20231116
#Station: R3.2S_Murmansk
#Location: 33.079688 lon 68.888172 lat
#TLE: 1 43013U 17073A   26004.47528369  .00000132  00000+0  83671-4 0  9999
#TLE: 2 43013  98.7626 305.5264 0001854  54.5883 305.5466 14.19533142421242

#Time	Az	El	Level	Level2	SNR	BER	BlckErr	Temp	State	Recorded	gain1	gain2
2026-01-05 06:18:00.24	81.21	2.09	-58.1	-74.1	3.8	1.49e+00	0	25	0	0	82	22647
2026-01-05 06:18:04.23	80.98	2.32	-58.1	-74.1	3.8	1.49e+00	0	25	104	0	81	23933
2026-01-05 06:18:08.22	80.74	2.55	-58.1	-74.0	3.8	1.49e+00	0	26	104	0	81	23797
2026-01-05 06:18:12.21	80.49	2.79	-58.1	-74.0	3.8	1.49e+00	0	26	104	0	81	23800
2026-01-05 06:18:16.19	80.24	3.02	-58.1	-74.1	3.8	1.49e+00	0	26	104	0	81	23937
2026-01-05 06:18:20.18	79.99	3.26	-58.1	-74.1	3.8	1.49e+00	0	26	104	0	81	23878
2026-01-05 06:18:24.18	79.73	3.50	-58.1	-74.0	3.8	1.49e+00	0	26	104	0	81	23813
2026-01-05 06:18:28.19	79.46	3.74	-58.1	-74.0	3.8	1.49e+00	0	26	104	0	81	23738
2026-01-05 06:18:32.19	79.20	3.99	-58.1	-74.0	3.8	1.49e+00	0	26	104	0	81	23758
2026-01-05 06:18:36.20	78.92	4.23	-58.1	-73.7	3.8	1.49e+00	0	26	104	0	81	22955
2026-01-05 06:18:40.20	78.65	4.48	-58.0	-71.6	3.8	1.49e+00	0	26	104	0	81	18090
2026-01-05 06:18:44.20	78.36	4.73	-57.7	-68.1	5.1	6.96e-01	0	27	0	3145728	81	12044
2026-01-05 06:18:48.20	78.08	4.98	-57.2	-64.8	7.5	8.36e-02	0	27	0	10485760	81	8218
2026-01-05 06:18:52.18	77.78	5.23	-57.8	-69.3	4.5	6.14e-01	27	27	0	17825792	80	14622
2026-01-05 06:18:56.17	77.49	5.48	-55.0	-58.5	12.3	1.50e-06	0	27	0	25165824	76	5296
2026-01-05 06:19:00.16	77.18	5.73	-54.5	-57.5	12.9	0.00e+00	0	27	0	33554432	75	4993
2026-01-05 06:19:04.15	76.88	5.99	-54.5	-57.5	13.0	0.00e+00	0	27	0	40894464	75	5001
2026-01-05 06:19:08.11	76.56	6.24	-54.4	-57.3	13.1	0.00e+00	0	27	0	48234496	75	4919
2026-01-05 06:19:12.09	76.25	6.50	-54.4	-57.3	13.1	0.00e+00	0	27	0	55574528	75	4902
2026-01-05 06:19:16.07	75.92	6.76	-54.4	-57.2	13.2	0.00e+00	0	27	0	62914560	75	4855
2026-01-05 06:19:20.07	75.59	7.03	-54.4	-57.3	13.1	0.00e+00	0	27	0	70254592	75	4894
2026-01-05 06:19:24.05	75.25	7.29	-54.4	-57.3	13.1	0.00e+00	0	27	0	77594624	75	4898
2026-01-05 06:19:28.04	74.91	7.56	-54.5	-57.3	13.2	0.00e+00	0	27	0	84934656	75	4900
2026-01-05 06:19:32.04	74.55	7.82	-54.4	-57.1	13.3	0.00e+00	0	27	0	93323264	75	4811
2026-01-05 06:19:36.04	74.19	8.09	-54.3	-57.0	13.4	0.00e+00	0	27	0	100663296	75	4719
2026-01-05 06:19:40.03	73.83	8.37	-54.2	-56.8	13.5	0.00e+00	0	27	0	108003328	75	4636
2026-01-05 06:19:44.01	73.46	8.64	-54.3	-57.0	13.3	0.00e+00	0	27	0	115343360	74	5009
2026-01-05 06:19:48.00	73.08	8.91	-54.4	-57.1	13.3	0.00e+00	0	27	0	122683392	74	5062
2026-01-05 06:19:52.00	72.69	9.19	-54.2	-56.8	13.4	0.00e+00	0	27	0	130023424	74	4902
2026-01-05 06:19:55.99	72.30	9.47	-54.2	-56.9	13.4	0.00e+00	0	27	0	137363456	74	4949
2026-01-05 06:19:59.99	71.89	9.75	-54.2	-56.9	13.4	0.00e+00	0	27	0	145752064	74	4937
2026-01-05 06:20:03.98	71.48	10.03	-53.4	-56.6	13.6	0.00e+00	0	27	0	153092096	73	5042
2026-01-05 06:20:07.96	71.07	10.32	-53.9	-56.3	13.5	0.00e+00	0	27	0	160432128	72	5206
2026-01-05 06:20:11.95	70.64	10.60	-53.7	-56.1	13.6	0.00e+00	0	27	0	167772160	72	5084
2026-01-05 06:20:15.93	70.20	10.89	-53.8	-56.1	13.6	0.00e+00	0	27	0	175112192	72	5090
2026-01-05 06:20:19.91	69.76	11.18	-53.7	-56.1	13.6	0.00e+00	0	27	0	182452224	72	5093
2026-01-05 06:20:23.89	69.31	11.47	-53.9	-56.3	13.6	0.00e+00	0	27	0	189792256	72	5176
2026-01-05 06:20:27.87	68.85	11.76	-53.9	-56.3	13.7	0.00e+00	0	27	0	197132288	73	4889
2026-01-05 06:20:31.85	68.37	12.05	-53.8	-56.1	13.8	0.00e+00	0	27	0	205520896	73	4804
2026-01-05 06:20:35.84	67.89	12.35	-53.7	-56.0	13.8	0.00e+00	0	27	0	212860928	73	4749
2026-01-05 06:20:39.83	67.40	12.64	-53.6	-55.9	13.9	0.00e+00	0	27	0	220200960	73	4673
2026-01-05 06:20:43.83	66.90	12.94	-53.6	-55.8	13.9	0.00e+00	0	27	0	227540992	73	4629
2026-01-05 06:20:47.82	66.38	13.24	-53.5	-55.7	14.0	0.00e+00	0	27	0	234881024	73	4572
2026-01-05 06:20:51.83	65.86	13.55	-53.4	-55.5	14.1	0.00e+00	0	27	0	242221056	73	4477
2026-01-05 06:20:55.83	65.32	13.85	-53.3	-55.3	14.2	0.00e+00	0	27	0	249561088	73	4389
2026-01-05 06:20:59.83	64.77	14.15	-53.3	-55.5	14.1	0.00e+00	0	27	0	257949696	73	4456
2026-01-05 06:21:03.82	64.21	14.46	-53.3	-55.4	14.2	0.00e+00	0	27	0	265289728	73	4398
2026-01-05 06:21:07.81	63.64	14.76	-53.1	-55.2	14.1	0.00e+00	0	27	0	272629760	72	4565
2026-01-05 06:21:11.81	63.06	15.07	-53.1	-55.1	14.2	0.00e+00	0	27	0	279969792	72	4535
2026-01-05 06:21:15.79	62.47	15.38	-52.9	-54.9	14.3	0.00e+00	0	27	0	287309824	72	4422
2026-01-05 06:21:19.78	61.86	15.69	-53.0	-55.0	14.3	0.00e+00	0	27	0	294649856	72	4452
2026-01-05 06:21:23.78	61.24	16.00	-53.2	-55.2	14.1	0.00e+00	0	27	0	301989888	72	4591
2026-01-05 06:21:27.76	60.61	16.30	-53.2	-55.2	14.1	0.00e+00	0	27	0	310378496	72	4594
2026-01-05 06:21:31.75	59.96	16.61	-53.2	-55.2	14.2	0.00e+00	0	27	0	317718528	72	4574
2026-01-05 06:21:35.75	59.30	16.92	-53.3	-55.4	14.1	0.00e+00	0	27	0	325058560	72	4674
2026-01-05 06:21:39.74	58.63	17.23	-53.2	-55.2	14.2	0.00e+00	0	27	0	332398592	72	4595
2026-01-05 06:21:43.74	57.94	17.54	-53.3	-55.3	14.1	0.00e+00	0	27	0	339738624	72	4640
2026-01-05 06:21:47.74	57.23	17.85	-53.4	-55.5	14.0	0.00e+00	0	27	0	347078656	72	4743
2026-01-05 06:21:51.75	56.51	18.16	-53.5	-55.6	14.0	0.00e+00	0	27	0	354418688	72	4802
2026-01-05 06:21:55.74	55.78	18.47	-53.4	-55.5	14.0	0.00e+00	0	27	0	362807296	72	4752
2026-01-05 06:21:59.72	55.04	18.77	-53.1	-55.1	14.2	0.00e+00	0	27	0	370147328	72	4521
2026-01-05 06:22:03.72	54.27	19.08	-53.1	-55.0	14.2	0.00e+00	0	27	0	377487360	72	4486
2026-01-05 06:22:07.71	53.49	19.38	-52.9	-54.9	14.3	0.00e+00	0	27	0	384827392	72	4400
2026-01-05 06:22:11.70	52.70	19.68	-52.8	-54.7	14.4	0.00e+00	0	27	0	392167424	72	4298
2026-01-05 06:22:15.69	51.89	19.98	-52.5	-54.3	14.5	0.00e+00	0	27	0	399507456	71	4359
2026-01-05 06:22:19.64	51.07	20.27	-52.0	-53.8	14.6	0.00e+00	0	27	0	406847488	70	4343
2026-01-05 06:22:23.64	50.23	20.57	-51.7	-53.4	14.7	0.00e+00	0	27	0	414187520	70	4160
2026-01-05 06:22:27.62	49.37	20.85	-51.4	-53.0	14.8	0.00e+00	0	27	0	422576128	69	4198
2026-01-05 06:22:31.62	48.50	21.14	-51.5	-53.1	14.8	0.00e+00	0	27	0	429916160	69	4258
2026-01-05 06:22:35.64	47.60	21.42	-51.3	-52.8	14.9	0.00e+00	0	27	0	437256192	69	4130
2026-01-05 06:22:39.64	46.69	21.70	-51.2	-52.8	14.9	0.00e+00	0	27	0	444596224	69	4111
2026-01-05 06:22:43.64	45.77	21.98	-51.2	-52.7	14.8	0.00e+00	0	27	0	451936256	68	4335
2026-01-05 06:22:47.63	44.83	22.24	-51.1	-52.6	14.9	0.00e+00	0	27	0	459276288	68	4263
2026-01-05 06:22:51.63	43.87	22.50	-51.4	-52.9	14.7	0.00e+00	0	28	0	466616320	68	4436
2026-01-05 06:22:55.62	42.90	22.76	-51.5	-53.1	14.6	0.00e+00	0	27	0	475004928	68	4528
2026-01-05 06:22:59.61	41.91	23.01	-51.5	-53.0	14.7	0.00e+00	0	27	0	482344960	68	4491
2026-01-05 06:23:03.60	40.90	23.25	-51.5	-53.1	14.6	0.00e+00	0	28	0	489684992	68	4522
2026-01-05 06:23:07.60	39.88	23.48	-51.3	-52.8	14.7	0.00e+00	0	27	0	497025024	68	4381
2026-01-05 06:23:11.58	38.85	23.71	-51.2	-52.7	14.8	0.00e+00	0	27	0	504365056	68	4328
2026-01-05 06:23:15.57	37.80	23.93	-51.1	-52.7	14.8	0.00e+00	0	27	0	511705088	68	4300
2026-01-05 06:23:19.56	36.74	24.14	-51.0	-52.5	14.9	0.00e+00	0	27	0	519045120	68	4219
2026-01-05 06:23:23.54	35.66	24.34	-50.9	-52.3	15.0	0.00e+00	0	27	0	527433728	68	4137
2026-01-05 06:23:27.54	34.57	24.53	-51.4	-52.9	14.7	0.00e+00	0	27	0	534773760	68	4425
2026-01-05 06:23:31.53	33.46	24.71	-51.5	-53.1	14.7	0.00e+00	0	27	0	542113792	68	4544
2026-01-05 06:23:35.53	32.34	24.88	-51.5	-53.1	14.6	0.00e+00	0	28	0	549453824	68	4532
2026-01-05 06:23:39.53	31.21	25.03	-52.1	-53.8	14.5	0.00e+00	0	27	0	556793856	69	4602
2026-01-05 06:23:43.53	30.07	25.18	-52.5	-54.3	14.4	0.00e+00	0	27	0	564133888	70	4614
2026-01-05 06:23:47.52	28.92	25.32	-52.5	-54.3	14.4	0.00e+00	0	27	0	571473920	70	4636
2026-01-05 06:23:51.51	27.76	25.44	-52.7	-54.5	14.3	0.00e+00	0	27	0	579862528	70	4724
2026-01-05 06:23:55.50	26.59	25.55	-52.8	-54.7	14.3	0.00e+00	0	27	0	587202560	70	4832
2026-01-05 06:23:59.50	25.42	25.65	-52.8	-54.7	14.2	0.00e+00	0	27	0	594542592	70	4861
2026-01-05 06:24:03.51	24.23	25.73	-53.1	-55.1	14.2	0.00e+00	0	27	0	601882624	71	4768
2026-01-05 06:24:07.50	23.04	25.80	-53.1	-55.0	14.2	0.00e+00	0	27	0	609222656	71	4723
2026-01-05 06:24:11.50	21.84	25.86	-53.1	-55.0	14.2	0.00e+00	0	27	0	616562688	71	4719
2026-01-05 06:24:15.49	20.65	25.90	-53.3	-55.2	14.3	0.00e+00	0	28	0	623902720	72	4582
2026-01-05 06:24:19.48	19.45	25.94	-53.0	-54.9	14.5	0.00e+00	0	27	0	632291328	72	4399
2026-01-05 06:24:23.47	18.25	25.95	-52.7	-54.5	14.4	0.00e+00	0	27	0	639631360	71	4458
2026-01-05 06:24:27.47	17.04	25.95	-52.5	-54.2	14.6	0.00e+00	0	27	0	646971392	71	4328
2026-01-05 06:24:31.47	15.84	25.94	-52.0	-53.7	14.7	0.00e+00	0	28	0	654311424	70	4305
2026-01-05 06:24:35.49	14.63	25.92	-51.8	-53.5	14.8	0.00e+00	0	28	0	661651456	70	4205
2026-01-05 06:24:39.49	13.43	25.88	-51.6	-53.3	14.8	0.00e+00	0	28	0	668991488	69	4341
2026-01-05 06:24:43.48	12.23	25.83	-51.3	-52.9	14.9	0.00e+00	0	27	0	676331520	69	4148
2026-01-05 06:24:47.47	11.04	25.76	-51.0	-52.5	14.9	0.00e+00	0	27	0	684720128	68	4228
2026-01-05 06:24:51.46	9.86	25.68	-51.1	-52.5	14.9	0.00e+00	0	27	0	692060160	68	4240
2026-01-05 06:24:55.44	8.68	25.59	-50.9	-52.4	15.0	0.00e+00	0	27	0	699400192	68	4156
2026-01-05 06:24:59.43	7.51	25.48	-51.1	-52.6	14.8	0.00e+00	0	27	0	706740224	68	4284
2026-01-05 06:25:03.43	6.35	25.37	-51.4	-52.9	14.7	0.00e+00	0	28	0	714080256	68	4440
2026-01-05 06:25:07.44	5.19	25.23	-51.4	-52.9	14.7	0.00e+00	0	27	0	721420288	68	4424
2026-01-05 06:25:11.43	4.05	25.09	-51.7	-53.3	14.6	0.00e+00	0	27	0	728760320	68	4614
2026-01-05 06:25:15.41	2.92	24.94	-51.9	-53.5	14.7	0.00e+00	0	28	0	737148928	69	4452
2026-01-05 06:25:19.39	1.80	24.77	-52.0	-53.7	14.6	0.00e+00	0	27	0	744488960	69	4582
2026-01-05 06:25:23.38	0.69	24.60	-52.6	-54.3	14.4	0.00e+00	0	27	0	751828992	70	4650
2026-01-05 06:25:27.36	359.60	24.41	-52.6	-54.3	14.4	0.00e+00	0	27	0	759169024	70	4648
2026-01-05 06:25:31.34	358.52	24.22	-52.7	-54.5	14.3	0.00e+00	0	28	0	766509056	70	4752
2026-01-05 06:25:35.32	357.45	24.01	-53.1	-55.0	14.2	0.00e+00	0	28	0	773849088	71	4755
2026-01-05 06:25:39.32	356.40	23.80	-53.0	-54.8	14.3	0.00e+00	0	28	0	781189120	71	4651
2026-01-05 06:25:43.33	355.35	23.58	-52.7	-54.5	14.5	0.00e+00	0	27	0	788529152	71	4472
2026-01-05 06:25:47.32	354.33	23.35	-53.0	-54.9	14.3	0.00e+00	0	28	0	796917760	71	4703
2026-01-05 06:25:51.32	353.32	23.11	-53.0	-54.9	14.3	0.00e+00	0	28	0	804257792	71	4679
2026-01-05 06:25:55.31	352.33	22.86	-53.0	-54.9	14.3	0.00e+00	0	28	0	811597824	71	4653
2026-01-05 06:25:59.29	351.35	22.61	-52.7	-54.5	14.4	0.00e+00	0	27	0	818937856	71	4482
2026-01-05 06:26:03.29	350.39	22.35	-52.5	-54.2	14.6	0.00e+00	0	28	0	826277888	71	4332
2026-01-05 06:26:07.28	349.44	22.09	-52.2	-54.0	14.7	0.00e+00	0	27	0	833617920	71	4196
2026-01-05 06:26:11.28	348.51	21.81	-52.0	-53.6	14.7	0.00e+00	0	27	0	840957952	70	4281
2026-01-05 06:26:15.26	347.60	21.54	-52.0	-53.7	14.7	0.00e+00	0	28	0	849346560	70	4312
2026-01-05 06:26:19.24	346.71	21.26	-51.8	-53.5	14.8	0.00e+00	0	28	0	856686592	70	4199
2026-01-05 06:26:23.23	345.83	20.98	-51.9	-53.6	14.7	0.00e+00	0	28	0	864026624	70	4264
2026-01-05 06:26:27.21	344.97	20.69	-52.0	-53.6	14.7	0.00e+00	0	27	0	871366656	70	4281
2026-01-05 06:26:31.20	344.12	20.40	-52.1	-53.8	14.6	0.00e+00	0	27	0	878706688	70	4375
2026-01-05 06:26:35.19	343.29	20.11	-51.8	-53.4	14.8	0.00e+00	0	28	0	886046720	70	4163
2026-01-05 06:26:39.18	342.48	19.81	-51.5	-53.1	14.8	0.00e+00	0	27	0	893386752	69	4245
2026-01-05 06:26:43.17	341.68	19.51	-51.5	-53.0	14.8	0.00e+00	0	27	0	901775360	69	4242
2026-01-05 06:26:47.17	340.89	19.21	-51.2	-52.8	14.9	2.20e-06	0	27	0	909115392	69	4105
2026-01-05 06:26:51.16	340.13	18.91	-51.1	-52.6	14.8	0.00e+00	0	27	0	916455424	68	4265
2026-01-05 06:26:55.15	339.37	18.60	-51.1	-52.6	14.9	0.00e+00	0	27	0	923795456	68	4260
2026-01-05 06:26:59.14	338.64	18.29	-51.0	-52.5	14.9	0.00e+00	0	28	0	931135488	68	4236
2026-01-05 06:27:03.13	337.92	17.99	-50.9	-52.3	14.9	0.00e+00	0	28	0	938475520	68	4140
2026-01-05 06:27:07.13	337.21	17.68	-50.9	-52.3	14.9	4.50e-06	0	27	0	945815552	68	4145
2026-01-05 06:27:11.11	336.52	17.37	-51.1	-52.6	14.8	0.00e+00	0	28	0	953155584	68	4280
2026-01-05 06:27:15.09	335.84	17.06	-51.1	-52.6	14.8	1.50e-06	0	27	0	961544192	68	4273
2026-01-05 06:27:19.08	335.17	16.75	-51.3	-52.8	14.8	0.00e+00	0	28	0	968884224	68	4375
2026-01-05 06:27:23.06	334.53	16.45	-51.3	-52.8	14.8	0.00e+00	0	28	0	976224256	68	4384
2026-01-05 06:27:27.04	333.89	16.14	-51.5	-53.1	14.6	0.00e+00	0	27	0	983564288	68	4533
2026-01-05 06:27:31.01	333.27	15.83	-51.9	-53.6	14.6	0.00e+00	0	28	0	990904320	69	4525
2026-01-05 06:27:35.00	332.66	15.52	-52.1	-53.9	14.5	3.80e-06	0	28	0	998244352	69	4659
2026-01-05 06:27:39.01	332.06	15.21	-52.0	-53.7	14.5	0.00e+00	0	28	0	1005584384	69	4589
2026-01-05 06:27:43.01	331.47	14.91	-52.1	-53.9	14.4	4.50e-06	0	27	0	1013972992	69	4661
2026-01-05 06:27:46.98	330.90	14.60	-52.2	-54.0	14.4	7.00e-07	0	27	0	1021313024	69	4727
2026-01-05 06:27:50.96	330.34	14.30	-52.3	-54.1	14.4	0.00e+00	0	27	0	1028653056	69	4763
2026-01-05 06:27:54.96	329.79	13.99	-52.4	-54.2	14.4	0.00e+00	0	28	0	1035993088	70	4575
2026-01-05 06:27:58.96	329.25	13.69	-52.5	-54.4	14.3	0.00e+00	0	27	0	1043333120	70	4658
2026-01-05 06:28:02.94	328.72	13.39	-52.6	-54.4	14.3	0.00e+00	0	27	0	1050673152	70	4691
2026-01-05 06:28:06.94	328.20	13.09	-52.8	-54.7	14.2	0.00e+00	0	28	0	1058013184	70	4844
2026-01-05 06:28:10.94	327.70	12.79	-52.7	-54.7	14.2	4.50e-06	0	28	0	1065353216	70	4840
2026-01-05 06:28:14.92	327.20	12.49	-52.7	-54.7	14.2	0.00e+00	0	28	0	1073741824	70	4838
2026-01-05 06:28:18.90	326.72	12.20	-52.8	-54.7	14.2	1.14e-05	0	27	0	1081081856	70	4860
2026-01-05 06:28:22.88	326.24	11.91	-53.0	-55.0	14.1	0.00e+00	0	28	0	1088421888	71	4742
2026-01-05 06:28:26.87	325.78	11.61	-53.2	-55.4	14.0	0.00e+00	0	28	0	1095761920	71	4931
2026-01-05 06:28:30.87	325.32	11.32	-53.3	-55.5	13.9	0.00e+00	0	27	0	1103101952	71	5016
2026-01-05 06:28:34.86	324.87	11.03	-53.5	-55.8	13.8	0.00e+00	0	27	0	1110441984	72	4881
2026-01-05 06:28:38.84	324.43	10.75	-53.7	-55.9	13.8	0.00e+00	0	28	0	1117782016	72	4981
2026-01-05 06:28:42.81	324.01	10.46	-53.8	-56.1	13.7	0.00e+00	0	28	0	1125122048	72	5062
2026-01-05 06:28:46.79	323.59	10.18	-53.7	-56.1	13.7	0.00e+00	0	27	0	1133510656	72	5056
2026-01-05 06:28:50.78	323.17	9.90	-53.7	-56.0	13.7	0.00e+00	0	28	0	1140850688	72	4998
2026-01-05 06:28:54.78	322.77	9.61	-53.7	-56.1	13.7	0.00e+00	0	28	0	1148190720	72	5053
2026-01-05 06:28:58.77	322.37	9.33	-53.7	-56.0	13.7	0.00e+00	0	28	0	1155530752	72	5020
2026-01-05 06:29:02.76	321.98	9.06	-53.7	-56.1	13.6	0.00e+00	0	28	0	1162870784	72	5055
2026-01-05 06:29:06.74	321.60	8.78	-54.0	-56.4	13.5	0.00e+00	0	27	0	1170210816	73	4979
2026-01-05 06:29:10.74	321.23	8.51	-54.1	-56.6	13.4	0.00e+00	0	28	0	1177550848	73	5084
2026-01-05 06:29:14.72	320.86	8.24	-54.1	-56.8	13.2	0.00e+00	0	27	0	1185939456	73	5168
2026-01-05 06:29:18.70	320.50	7.97	-54.3	-57.0	13.2	0.00e+00	0	28	0	1193279488	73	5285
2026-01-05 06:29:22.69	320.15	7.70	-54.4	-57.2	13.1	0.00e+00	0	28	0	1200619520	73	5413
2026-01-05 06:29:26.67	319.80	7.43	-54.5	-57.3	13.1	0.00e+00	0	28	0	1207959552	74	5202
2026-01-05 06:29:30.64	319.47	7.17	-54.5	-57.4	13.0	0.00e+00	0	28	0	1215299584	74	5269
2026-01-05 06:29:34.62	319.13	6.91	-54.6	-57.5	12.9	0.00e+00	0	28	0	1222639616	74	5307
2026-01-05 06:29:38.61	318.81	6.65	-54.3	-57.1	13.2	0.00e+00	0	27	0	1229979648	74	5086
2026-01-05 06:29:42.59	318.49	6.39	-54.4	-57.3	13.1	0.00e+00	0	28	0	1237319680	74	5175
2026-01-05 06:29:46.59	318.17	6.13	-54.5	-57.5	12.9	0.00e+00	0	28	0	1244659712	74	5288
2026-01-05 06:29:50.58	317.86	5.87	-54.6	-57.7	12.8	7.00e-07	0	28	0	1253048320	74	5424
2026-01-05 06:29:54.58	317.56	5.62	-54.7	-57.9	12.6	0.00e+00	0	28	0	1260388352	74	5568
2026-01-05 06:29:58.56	317.26	5.37	-54.8	-58.1	12.5	0.00e+00	0	27	0	1267728384	74	5675
2026-01-05 06:30:02.55	316.96	5.12	-54.8	-58.1	12.5	0.00e+00	0	28	0	1275068416	75	5396
2026-01-05 06:30:06.54	316.68	4.87	-59.3	-75.3	3.8	1.49e+00	0	28	104	1279262720	83	24461
2026-01-05 06:30:10.54	316.39	4.62	-60.4	-76.4	3.8	1.49e+00	0	28	104	1279262720	85	24965
2026-01-05 06:30:14.54	316.11	4.37	-60.9	-76.9	3.8	1.49e+00	0	28	104	1279262720	86	24836
2026-01-05 06:30:18.54	315.84	4.13	-61.1	-77.2	3.8	1.49e+00	0	28	104	1279262720	87	24198
2026-01-05 06:30:22.54	315.57	3.88	-61.2	-77.3	3.8	1.49e+00	0	28	104	1279262720	87	24530
2026-01-05 06:30:26.53	315.31	3.64	-61.1	-77.2	3.8	1.49e+00	0	28	104	1279262720	87	24336
2026-01-05 06:30:30.54	315.05	3.40	-61.0	-77.1	3.9	1.49e+00	0	28	104	1279262720	87	24009
2026-01-05 06:30:34.51	314.79	3.16	-61.0	-77.1	3.8	1.49e+00	0	28	104	1279262720	87	23968
2026-01-05 06:30:38.52	314.54	2.92	-61.0	-77.0	3.8	1.49e+00	0	28	104	1279262720	87	23772
2026-01-05 06:30:42.52	314.30	2.69	-60.9	-77.0	3.8	1.49e+00	0	28	104	1279262720	87	23781
2026-01-05 06:30:46.52	314.05	2.45	-60.9	-77.0	3.8	1.49e+00	0	28	104	1279262720	87	23704
2026-01-05 06:30:50.52	313.82	2.22	-60.9	-77.0	3.8	1.49e+00	0	28	104	1279262720	87	23664
2026-01-05 06:30:54.53	313.58	1.99	-60.8	-76.9	3.8	1.49e+00	0	28	104	1279262720	87	23487

#Closed at: 2026-01-05 06:30:56
#Recorded file [1279 MB]: D:/lorett/data/31004_260105_091800.dat