passes_logs/2026/01/05/R3.2S_Murmansk/R3.2S_Murmansk__20260105_033949_FENGYUN_3D_rec.log

#Pass ID: 20260105_033949_FENGYUN 3D
#Satellite: FENGYUN 3D
#Configuration: FENGYUN 3D
#almurnet v.1.7.20251203
#Start time: 2026-01-05 03:39:49

#Version: 2.2.20231116
#Station: R3.2S_Murmansk
#Location: 33.079688 lon 68.888172 lat
#TLE: 1 43010U 17072A   26004.50247883 -.00000063  00000+0 -78815-5 0  9998
#TLE: 2 43010  98.9915 336.1565 0001968 126.3752 233.7605 14.19691805421760

#Time	Az	El	Level	Level2	SNR	BER	BlckErr	Temp	State	Recorded	gain1	gain2
2026-01-05 03:39:49.49	29.20	1.98	-58.1	-71.1	3.8	8.46e-01	0	25	0	0	82	16014
2026-01-05 03:39:53.48	29.13	2.23	-58.1	-71.1	3.8	8.46e-01	0	26	104	0	81	16927
2026-01-05 03:39:57.48	29.05	2.48	-58.1	-71.1	3.8	8.46e-01	0	26	104	0	81	16950
2026-01-05 03:40:01.48	28.97	2.74	-58.1	-71.0	3.8	8.44e-01	0	26	104	0	81	16837
2026-01-05 03:40:05.48	28.89	3.00	-58.1	-71.0	3.8	8.45e-01	0	26	104	0	81	16813
2026-01-05 03:40:09.48	28.81	3.27	-58.0	-70.1	3.8	8.45e-01	0	26	104	0	81	15071
2026-01-05 03:40:13.47	28.73	3.53	-57.9	-68.6	3.8	8.43e-01	0	26	104	0	81	12681
2026-01-05 03:40:17.45	28.64	3.80	-57.8	-68.4	3.9	8.41e-01	0	26	104	0	81	12379
2026-01-05 03:40:21.46	28.56	4.07	-58.0	-70.4	3.8	8.46e-01	0	26	104	0	81	15611
2026-01-05 03:40:25.48	28.47	4.34	-57.6	-66.3	4.6	8.27e-01	0	27	0	0	81	9743
2026-01-05 03:40:29.48	28.38	4.62	-56.2	-60.9	8.2	4.47e-02	0	27	0	16777216	79	5892
2026-01-05 03:40:33.48	28.29	4.90	-55.0	-58.4	10.2	1.59e-03	0	27	0	38797312	76	5275
2026-01-05 03:40:37.47	28.19	5.18	-54.0	-56.7	11.5	0.00e+00	0	27	0	60817408	72	5433
2026-01-05 03:40:41.47	28.09	5.46	-51.3	-53.0	13.6	0.00e+00	0	27	0	83886080	69	4199
2026-01-05 03:40:45.45	27.99	5.75	-49.7	-51.2	14.3	0.00e+00	0	27	0	105906176	66	4055
2026-01-05 03:40:49.45	27.89	6.04	-49.8	-51.2	14.3	0.00e+00	0	27	0	128974848	66	4066
2026-01-05 03:40:53.45	27.79	6.34	-49.6	-51.0	14.3	0.00e+00	0	27	0	150994944	65	4209
2026-01-05 03:40:57.45	27.68	6.63	-49.5	-50.9	14.3	0.00e+00	0	27	0	174063616	65	4158
2026-01-05 03:41:01.44	27.57	6.93	-49.5	-50.9	14.3	0.00e+00	0	27	0	196083712	65	4164
2026-01-05 03:41:05.44	27.46	7.24	-49.4	-50.8	14.4	0.00e+00	0	27	0	219152384	65	4109
2026-01-05 03:41:09.43	27.35	7.54	-49.2	-50.6	14.5	0.00e+00	0	27	0	241172480	65	4014
2026-01-05 03:41:13.41	27.23	7.85	-49.4	-50.7	14.5	0.00e+00	0	27	0	263192576	65	4079
2026-01-05 03:41:17.39	27.11	8.16	-49.1	-50.5	14.5	0.00e+00	0	27	0	286261248	64	4210
2026-01-05 03:41:21.39	26.99	8.48	-49.0	-50.3	14.6	0.00e+00	0	27	0	308281344	64	4106
2026-01-05 03:41:25.37	26.86	8.80	-48.8	-50.1	14.6	0.00e+00	0	27	0	330301440	64	4034
2026-01-05 03:41:29.36	26.73	9.13	-48.7	-50.0	14.7	0.00e+00	0	27	0	353370112	64	3966
2026-01-05 03:41:33.35	26.60	9.46	-48.7	-50.0	14.6	0.00e+00	0	27	0	375390208	63	4222
2026-01-05 03:41:37.36	26.46	9.79	-48.6	-49.9	14.7	0.00e+00	0	27	0	398458880	63	4159
2026-01-05 03:41:41.36	26.32	10.13	-48.5	-49.8	14.7	0.00e+00	0	27	0	420478976	63	4118
2026-01-05 03:41:45.36	26.18	10.48	-48.6	-49.8	14.7	0.00e+00	0	27	0	443547648	63	4131
2026-01-05 03:41:49.36	26.03	10.83	-48.6	-49.8	14.7	0.00e+00	0	27	0	465567744	63	4135
2026-01-05 03:41:53.36	25.88	11.18	-48.5	-49.7	14.7	0.00e+00	0	27	0	488636416	63	4080
2026-01-05 03:41:57.36	25.73	11.54	-48.2	-49.5	14.9	0.00e+00	0	27	0	510656512	63	3966
2026-01-05 03:42:01.35	25.57	11.90	-48.1	-49.3	14.8	0.00e+00	0	27	0	533725184	62	4131
2026-01-05 03:42:05.35	25.40	12.27	-48.1	-49.3	14.8	0.00e+00	0	27	0	555745280	62	4132
2026-01-05 03:42:09.34	25.23	12.64	-48.0	-49.2	14.8	0.00e+00	0	27	0	577765376	62	4064
2026-01-05 03:42:13.32	25.06	13.02	-47.8	-49.0	14.9	0.00e+00	0	27	0	600834048	62	3995
2026-01-05 03:42:17.31	24.88	13.40	-47.7	-48.9	15.0	0.00e+00	0	27	0	622854144	62	3937
2026-01-05 03:42:21.30	24.70	13.79	-47.9	-49.1	14.9	0.00e+00	0	27	0	645922816	62	4023
2026-01-05 03:42:25.29	24.51	14.19	-47.4	-48.6	15.0	0.00e+00	0	27	0	667942912	61	4020
2026-01-05 03:42:29.28	24.32	14.59	-47.3	-48.5	15.0	0.00e+00	0	27	0	689963008	61	3986
2026-01-05 03:42:33.28	24.12	15.00	-47.3	-48.4	15.0	0.00e+00	0	27	0	713031680	61	3953
2026-01-05 03:42:37.29	23.91	15.42	-47.0	-48.1	15.0	0.00e+00	0	27	0	735051776	60	4027
2026-01-05 03:42:41.28	23.70	15.84	-46.9	-48.0	15.0	0.00e+00	0	27	0	758120448	60	3978
2026-01-05 03:42:45.26	23.48	16.27	-46.8	-47.9	15.1	0.00e+00	0	27	0	780140544	60	3945
2026-01-05 03:42:49.26	23.25	16.70	-46.8	-47.9	15.1	0.00e+00	0	27	0	803209216	60	3938
2026-01-05 03:42:53.27	23.02	17.15	-47.2	-48.4	14.9	0.00e+00	0	27	0	825229312	59	4395
2026-01-05 03:42:57.27	22.78	17.60	-46.9	-48.1	14.9	0.00e+00	0	28	0	847249408	59	4253
2026-01-05 03:43:01.26	22.53	18.06	-46.7	-47.8	15.0	0.00e+00	0	27	0	870318080	59	4141
2026-01-05 03:43:05.27	22.27	18.53	-46.7	-47.8	15.0	0.00e+00	0	28	0	892338176	59	4133
2026-01-05 03:43:09.26	22.01	19.01	-46.7	-47.8	15.0	0.00e+00	0	27	0	915406848	59	4124
2026-01-05 03:43:13.25	21.73	19.49	-46.6	-47.7	15.1	0.00e+00	0	27	0	937426944	59	4084
2026-01-05 03:43:17.24	21.45	19.98	-46.5	-47.6	15.1	0.00e+00	0	27	0	960495616	59	4041
2026-01-05 03:43:21.23	21.16	20.49	-46.5	-47.6	15.1	0.00e+00	0	28	0	982515712	59	4031
2026-01-05 03:43:25.21	20.86	21.00	-46.4	-47.5	15.1	0.00e+00	0	28	0	1004535808	59	3970
2026-01-05 03:43:29.21	20.54	21.52	-46.3	-47.4	15.2	0.00e+00	0	27	0	1027604480	59	3928
2026-01-05 03:43:33.21	20.21	22.05	-46.3	-47.4	15.2	0.00e+00	0	28	0	1049624576	59	3915
2026-01-05 03:43:37.19	19.88	22.59	-46.2	-47.3	15.2	0.00e+00	0	28	0	1072693248	59	3906
2026-01-05 03:43:41.19	19.53	23.14	-46.0	-47.1	15.1	0.00e+00	0	27	0	1094713344	58	4038
2026-01-05 03:43:45.20	19.16	23.71	-45.9	-47.0	15.2	0.00e+00	0	28	0	1117782016	58	3965
2026-01-05 03:43:49.20	18.78	24.29	-45.8	-46.8	15.3	0.00e+00	0	28	0	1139802112	58	3902
2026-01-05 03:43:53.18	18.39	24.87	-45.4	-46.5	15.2	0.00e+00	0	28	0	1161822208	57	3969
2026-01-05 03:43:57.18	17.98	25.47	-45.5	-46.5	15.2	0.00e+00	0	28	0	1184890880	57	4000
2026-01-05 03:44:01.19	17.56	26.08	-45.3	-46.3	15.3	0.00e+00	0	28	0	1206910976	57	3909
2026-01-05 03:44:05.20	17.11	26.71	-45.3	-46.3	15.3	0.00e+00	0	27	0	1229979648	57	3899
2026-01-05 03:44:09.21	16.65	27.34	-45.5	-46.5	15.2	0.00e+00	0	27	0	1251999744	57	3988
2026-01-05 03:44:13.20	16.17	27.99	-45.3	-46.4	15.3	0.00e+00	0	28	0	1275068416	57	3937
2026-01-05 03:44:17.20	15.67	28.65	-45.3	-46.3	15.3	0.00e+00	0	27	0	1297088512	57	3899
2026-01-05 03:44:21.20	15.14	29.33	-45.2	-46.2	15.2	0.00e+00	0	27	0	1320157184	56	4097
2026-01-05 03:44:25.19	14.60	30.01	-45.3	-46.3	15.1	0.00e+00	0	27	0	1342177280	56	4144
2026-01-05 03:44:29.18	14.03	30.71	-45.0	-46.0	15.2	0.00e+00	0	28	0	1365245952	56	3972
2026-01-05 03:44:33.19	13.43	31.43	-45.0	-46.0	15.2	0.00e+00	0	27	0	1387266048	56	3978
2026-01-05 03:44:37.21	12.80	32.17	-45.1	-46.2	15.2	0.00e+00	0	27	0	1410334720	56	4068
2026-01-05 03:44:41.19	12.15	32.91	-45.1	-46.1	15.2	0.00e+00	0	28	0	1432354816	56	4035
2026-01-05 03:44:45.20	11.46	33.67	-45.0	-46.1	15.2	0.00e+00	0	28	0	1455423488	56	4012
2026-01-05 03:44:49.20	10.74	34.44	-45.0	-46.0	15.2	0.00e+00	0	28	0	1477443584	56	4000
2026-01-05 03:44:53.19	9.98	35.23	-45.0	-46.0	15.2	0.00e+00	0	28	0	1499463680	56	3996
2026-01-05 03:44:57.20	9.18	36.03	-45.0	-46.0	15.3	0.00e+00	0	28	0	1522532352	56	3973
2026-01-05 03:45:01.19	8.35	36.84	-45.1	-46.1	15.2	0.00e+00	0	28	0	1544552448	56	4044
2026-01-05 03:45:05.20	7.47	37.67	-45.2	-46.2	15.2	0.00e+00	0	28	0	1567621120	56	4098
2026-01-05 03:45:09.21	6.54	38.51	-45.1	-46.1	15.2	0.00e+00	0	28	0	1589641216	56	4013
2026-01-05 03:45:13.20	5.56	39.36	-45.3	-46.4	15.1	0.00e+00	0	28	0	1612709888	56	4167
2026-01-05 03:45:17.21	4.53	40.23	-45.4	-46.4	15.1	0.00e+00	0	28	0	1634729984	56	4168
2026-01-05 03:45:21.19	3.44	41.10	-45.4	-46.4	15.1	0.00e+00	0	28	0	1657798656	56	4191
2026-01-05 03:45:25.20	2.29	41.98	-45.4	-46.4	15.1	0.00e+00	0	28	0	1679818752	56	4190
2026-01-05 03:45:29.18	1.08	42.87	-45.5	-46.5	15.1	0.00e+00	0	28	0	1701838848	56	4223
2026-01-05 03:45:33.17	359.80	43.76	-45.4	-46.5	15.1	0.00e+00	0	28	0	1724907520	56	4198
2026-01-05 03:45:37.18	358.43	44.66	-45.7	-46.8	15.1	0.00e+00	0	28	0	1746927616	56	4368
2026-01-05 03:45:41.17	356.99	45.56	-45.8	-46.9	15.1	0.00e+00	0	28	0	1769996288	56	4399
2026-01-05 03:45:45.16	355.47	46.46	-45.8	-46.9	15.1	0.00e+00	0	28	0	1792016384	57	4160
2026-01-05 03:45:49.16	353.85	47.35	-46.3	-47.4	15.0	0.00e+00	0	28	0	1815085056	57	4426
2026-01-05 03:45:53.17	352.13	48.24	-46.1	-47.2	15.1	0.00e+00	0	28	0	1837105152	57	4307
2026-01-05 03:45:57.17	350.32	49.11	-46.3	-47.3	15.1	0.00e+00	0	28	0	1860173824	57	4370
2026-01-05 03:46:01.19	348.39	49.98	-46.7	-47.8	15.0	0.00e+00	0	28	0	1882193920	58	4351
2026-01-05 03:46:05.19	346.36	50.82	-46.7	-47.8	15.0	0.00e+00	0	28	0	1905262592	58	4356
2026-01-05 03:46:09.18	344.21	51.63	-46.7	-47.7	15.0	0.00e+00	0	28	0	1927282688	58	4340
2026-01-05 03:46:13.19	341.94	52.41	-46.6	-47.7	15.0	0.00e+00	0	28	0	1950351360	58	4324
2026-01-05 03:46:17.17	339.56	53.15	-46.5	-47.5	15.1	0.00e+00	0	28	0	1972371456	58	4226
2026-01-05 03:46:21.16	337.06	53.85	-46.0	-47.0	15.2	0.00e+00	0	28	0	1994391552	58	3990
2026-01-05 03:46:25.15	334.43	54.50	-46.3	-47.4	15.1	0.00e+00	0	28	0	2017460224	58	4164
2026-01-05 03:46:29.15	331.69	55.10	-46.2	-47.2	15.1	0.00e+00	0	28	0	2039480320	58	4096
2026-01-05 03:46:33.14	328.83	55.63	-45.9	-47.0	15.2	0.00e+00	0	28	0	2062548992	58	3975
2026-01-05 03:46:37.12	325.88	56.09	-46.6	-47.7	15.0	0.00e+00	0	28	0	2084569088	58	4295
2026-01-05 03:46:41.12	322.82	56.48	-46.1	-47.2	15.2	0.00e+00	0	28	0	2106589184	58	4072
2026-01-05 03:46:45.12	319.68	56.80	-46.6	-47.7	15.0	0.00e+00	0	28	0	2129657856	58	4311
2026-01-05 03:46:49.11	316.49	57.02	-46.2	-47.2	15.1	0.00e+00	0	28	0	2151677952	58	4098
2026-01-05 03:46:53.12	313.24	57.17	-46.8	-47.9	15.0	0.00e+00	0	28	0	2174746624	58	4438
2026-01-05 03:46:57.13	309.96	57.22	-46.5	-47.6	15.1	0.00e+00	0	28	0	2196766720	58	4250
2026-01-05 03:47:01.13	306.69	57.18	-46.5	-47.6	15.1	0.00e+00	0	28	0	2219835392	58	4268
2026-01-05 03:47:05.12	303.45	57.06	-46.5	-47.5	15.1	0.00e+00	0	28	0	2241855488	58	4241
2026-01-05 03:47:09.12	300.23	56.85	-46.5	-47.5	15.1	0.00e+00	0	28	0	2263875584	58	4240
2026-01-05 03:47:13.12	297.08	56.55	-46.6	-47.7	15.1	0.00e+00	0	28	0	2286944256	58	4326
2026-01-05 03:47:17.12	294.00	56.18	-46.6	-47.7	15.0	0.00e+00	0	28	0	2308964352	58	4295
2026-01-05 03:47:21.11	291.02	55.73	-46.4	-47.4	15.1	0.00e+00	0	28	0	2332033024	58	4188
2026-01-05 03:47:25.10	288.14	55.21	-46.4	-47.4	15.1	0.00e+00	0	28	0	2354053120	58	4192
2026-01-05 03:47:29.09	285.37	54.62	-46.0	-47.1	15.2	0.00e+00	0	28	0	2377121792	58	4015
2026-01-05 03:47:33.09	282.72	53.98	-46.3	-47.3	15.1	0.00e+00	0	28	0	2399141888	58	4142
2026-01-05 03:47:37.09	280.18	53.29	-46.3	-47.4	15.1	0.00e+00	0	28	0	2422210560	58	4150
2026-01-05 03:47:41.10	277.76	52.55	-46.0	-47.0	15.2	0.00e+00	0	28	0	2444230656	58	3975
2026-01-05 03:47:45.09	275.47	51.78	-46.4	-47.5	15.1	0.00e+00	0	28	0	2467299328	58	4202
2026-01-05 03:47:49.07	273.30	50.97	-46.5	-47.6	15.1	0.00e+00	0	28	0	2489319424	58	4282
2026-01-05 03:47:53.07	271.25	50.14	-46.1	-47.1	15.2	0.00e+00	0	28	0	2511339520	58	4033
2026-01-05 03:47:57.07	269.30	49.28	-46.2	-47.2	15.2	0.00e+00	0	28	0	2534408192	58	4098
2026-01-05 03:48:01.07	267.46	48.40	-46.0	-47.0	15.2	0.00e+00	0	28	0	2556428288	58	4000
2026-01-05 03:48:05.08	265.72	47.52	-45.6	-46.6	15.2	0.00e+00	0	28	0	2579496960	57	4022
2026-01-05 03:48:09.07	264.08	46.62	-45.8	-46.8	15.1	0.00e+00	0	28	0	2601517056	57	4140
2026-01-05 03:48:13.07	262.54	45.72	-45.6	-46.6	15.2	0.00e+00	0	28	0	2624585728	57	4033
2026-01-05 03:48:17.06	261.08	44.82	-45.1	-46.1	15.2	0.00e+00	0	28	0	2646605824	56	4030
2026-01-05 03:48:21.05	259.70	43.92	-45.7	-46.8	15.1	0.00e+00	0	28	0	2668625920	56	4362
2026-01-05 03:48:25.05	258.40	43.02	-45.2	-46.2	15.2	0.00e+00	0	28	0	2691694592	56	4076
2026-01-05 03:48:29.03	257.17	42.13	-45.3	-46.3	15.2	0.00e+00	0	28	0	2713714688	56	4116
2026-01-05 03:48:33.03	256.00	41.25	-45.1	-46.1	15.2	0.00e+00	0	28	0	2736783360	56	4050
2026-01-05 03:48:37.03	254.90	40.37	-45.2	-46.2	15.2	0.00e+00	0	28	0	2758803456	56	4076
2026-01-05 03:48:41.03	253.85	39.50	-45.0	-46.0	15.3	0.00e+00	0	28	0	2781872128	56	3969
2026-01-05 03:48:45.03	252.86	38.64	-45.0	-46.0	15.2	0.00e+00	0	28	0	2803892224	56	3996
2026-01-05 03:48:49.04	251.92	37.80	-45.3	-46.3	15.2	0.00e+00	0	28	0	2826960896	56	4132
2026-01-05 03:48:53.05	251.03	36.96	-45.1	-46.2	15.2	0.00e+00	0	28	0	2848980992	56	4057
2026-01-05 03:48:57.04	250.18	36.15	-45.0	-46.0	15.2	0.00e+00	0	28	0	2872049664	56	3975
2026-01-05 03:49:01.04	249.38	35.34	-45.3	-46.3	15.2	0.00e+00	0	28	0	2894069760	56	4118
2026-01-05 03:49:05.03	248.61	34.55	-45.2	-46.3	15.2	0.00e+00	0	28	0	2916089856	56	4103
2026-01-05 03:49:09.02	247.88	33.77	-45.2	-46.2	15.2	0.00e+00	0	28	0	2939158528	56	4089
2026-01-05 03:49:13.02	247.19	33.01	-45.0	-46.1	15.2	0.00e+00	0	28	0	2961178624	56	4006
2026-01-05 03:49:17.01	246.53	32.26	-45.4	-46.5	15.1	0.00e+00	0	28	0	2984247296	56	4213
2026-01-05 03:49:21.00	245.89	31.53	-45.3	-46.4	15.2	0.00e+00	0	28	0	3006267392	56	4148
2026-01-05 03:49:24.98	245.29	30.81	-45.3	-46.3	15.2	0.00e+00	0	27	0	3028287488	56	4131
2026-01-05 03:49:28.99	244.71	30.10	-45.4	-46.4	15.1	0.00e+00	0	28	0	3051356160	56	4176
2026-01-05 03:49:32.97	244.16	29.41	-45.5	-46.5	15.1	0.00e+00	0	28	0	3073376256	56	4233
2026-01-05 03:49:36.97	243.63	28.73	-45.5	-46.6	15.1	0.00e+00	0	28	0	3096444928	56	4263
2026-01-05 03:49:40.97	243.12	28.06	-45.5	-46.6	15.1	0.00e+00	0	28	0	3118465024	56	4250
2026-01-05 03:49:44.98	242.63	27.41	-45.6	-46.7	15.1	0.00e+00	0	28	0	3141533696	56	4295
2026-01-05 03:49:48.98	242.17	26.77	-45.5	-46.5	15.1	0.00e+00	0	28	0	3163553792	56	4236
2026-01-05 03:49:52.99	241.72	26.14	-45.4	-46.5	15.1	0.00e+00	0	28	0	3186622464	56	4208
2026-01-05 03:49:56.99	241.29	25.52	-45.4	-46.5	15.1	0.00e+00	0	28	0	3208642560	56	4197
2026-01-05 03:50:00.98	240.87	24.92	-45.5	-46.6	15.1	0.00e+00	0	28	0	3230662656	56	4260
2026-01-05 03:50:04.99	240.47	24.33	-45.7	-46.7	15.1	0.00e+00	0	28	0	3253731328	56	4314
2026-01-05 03:50:08.99	240.09	23.75	-45.8	-46.9	15.1	0.00e+00	0	28	0	3276800000	56	4392
2026-01-05 03:50:12.99	239.72	23.18	-45.8	-46.8	15.1	0.00e+00	0	28	0	3298820096	57	4136
2026-01-05 03:50:16.99	239.37	22.63	-45.7	-46.8	15.1	0.00e+00	0	28	0	3320840192	57	4125
2026-01-05 03:50:20.97	239.02	22.08	-45.8	-46.8	15.1	0.00e+00	0	28	0	3343908864	57	4123
2026-01-05 03:50:24.97	238.69	21.55	-45.9	-47.0	15.1	0.00e+00	0	28	0	3365928960	57	4222
2026-01-05 03:50:28.95	238.38	21.02	-45.9	-47.0	15.1	0.00e+00	0	28	0	3388997632	57	4224
2026-01-05 03:50:32.94	238.07	20.51	-46.1	-47.1	15.1	0.00e+00	0	28	0	3411017728	57	4285
2026-01-05 03:50:36.92	237.77	20.00	-46.2	-47.3	15.0	0.00e+00	0	28	0	3433037824	57	4362
2026-01-05 03:50:40.91	237.49	19.51	-46.5	-47.6	15.0	0.00e+00	0	28	0	3456106496	58	4248
2026-01-05 03:50:44.91	237.21	19.02	-46.7	-47.8	15.0	0.00e+00	0	28	0	3478126592	58	4388
2026-01-05 03:50:48.91	236.94	18.54	-46.9	-48.0	15.0	0.00e+00	0	28	0	3501195264	59	4241
2026-01-05 03:50:52.89	236.68	18.07	-47.0	-48.1	15.0	0.00e+00	0	28	0	3523215360	59	4278
2026-01-05 03:50:56.89	236.43	17.61	-46.9	-48.0	15.0	0.00e+00	0	28	0	3545235456	59	4230
2026-01-05 03:51:00.90	236.18	17.15	-47.0	-48.1	15.0	0.00e+00	0	28	0	3568304128	59	4254
2026-01-05 03:51:04.90	235.94	16.70	-47.1	-48.2	14.9	0.00e+00	0	28	0	3590324224	59	4340
2026-01-05 03:51:08.90	235.72	16.26	-47.0	-48.2	15.0	0.00e+00	0	28	0	3613392896	60	4054
2026-01-05 03:51:12.91	235.49	15.83	-47.2	-48.3	15.0	0.00e+00	0	28	0	3635412992	60	4118
2026-01-05 03:51:16.90	235.28	15.41	-47.3	-48.4	14.9	0.00e+00	0	28	0	3658481664	60	4182
2026-01-05 03:51:20.91	235.07	14.99	-47.3	-48.4	14.9	0.00e+00	0	28	0	3680501760	60	4193
2026-01-05 03:51:24.88	234.86	14.58	-47.4	-48.6	14.9	0.00e+00	0	28	0	3702521856	60	4244
2026-01-05 03:51:28.87	234.67	14.17	-47.4	-48.6	14.9	0.00e+00	0	28	0	3725590528	60	4256
2026-01-05 03:51:32.85	234.48	13.78	-47.5	-48.6	14.9	0.00e+00	0	28	0	3747610624	60	4272
2026-01-05 03:51:36.82	234.29	13.39	-47.6	-48.8	14.8	0.00e+00	0	28	0	3769630720	60	4354
2026-01-05 03:51:40.82	234.11	13.00	-47.8	-49.0	14.7	0.00e+00	0	28	0	3792699392	60	4459
2026-01-05 03:51:44.81	233.93	12.62	-47.9	-49.0	14.7	0.00e+00	0	28	0	3814719488	60	4492
2026-01-05 03:51:48.80	233.76	12.24	-48.0	-49.2	14.8	0.00e+00	0	28	0	3837788160	61	4330
2026-01-05 03:51:52.81	233.59	11.87	-48.1	-49.3	14.7	0.00e+00	0	28	0	3859808256	61	4349
2026-01-05 03:51:56.81	233.43	11.51	-48.1	-49.3	14.7	0.00e+00	0	28	0	3882876928	61	4388
2026-01-05 03:52:00.81	233.27	11.15	-48.3	-49.5	14.6	0.00e+00	0	28	0	3904897024	61	4487
2026-01-05 03:52:04.80	233.12	10.79	-48.4	-49.6	14.7	0.00e+00	0	28	0	3927965696	62	4264
2026-01-05 03:52:08.79	232.97	10.45	-48.6	-49.8	14.6	0.00e+00	0	28	0	3949985792	62	4373
2026-01-05 03:52:12.78	232.82	10.10	-48.6	-49.8	14.6	0.00e+00	0	28	0	3972005888	62	4370
2026-01-05 03:52:16.77	232.68	9.76	-48.7	-49.9	14.6	0.00e+00	0	28	0	3995074560	62	4441
2026-01-05 03:52:20.77	232.54	9.42	-48.7	-50.0	14.5	0.00e+00	0	28	0	4017094656	62	4470
2026-01-05 03:52:24.75	232.41	9.09	-48.8	-50.1	14.5	0.00e+00	0	28	0	4040163328	62	4535
2026-01-05 03:52:28.73	232.27	8.77	-48.9	-50.2	14.5	0.00e+00	0	28	0	4062183424	63	4311
2026-01-05 03:52:32.73	232.14	8.44	-49.1	-50.4	14.5	0.00e+00	0	28	0	4084203520	63	4397
2026-01-05 03:52:36.71	232.02	8.13	-49.1	-50.4	14.4	0.00e+00	0	28	0	4107272192	63	4418
2026-01-05 03:52:40.71	231.90	7.81	-49.2	-50.5	14.4	0.00e+00	0	28	0	4129292288	63	4488
2026-01-05 03:52:44.72	231.78	7.50	-49.3	-50.7	14.3	0.00e+00	0	28	0	4152360960	63	4568
2026-01-05 03:52:48.72	231.66	7.19	-49.4	-50.7	14.4	0.00e+00	0	28	0	4174381056	64	4330
2026-01-05 03:52:52.71	231.54	6.88	-49.3	-50.7	14.4	0.00e+00	0	28	0	4197449728	64	4305
2026-01-05 03:52:56.71	231.43	6.58	-49.4	-50.8	14.3	0.00e+00	0	28	0	4219469824	64	4356
2026-01-05 03:53:00.69	231.32	6.29	-49.4	-50.8	14.3	0.00e+00	0	28	0	4242538496	64	4356
2026-01-05 03:53:04.70	231.21	5.99	-49.6	-51.0	14.2	0.00e+00	0	28	0	4264558592	64	4465
2026-01-05 03:53:08.69	231.11	5.70	-49.6	-51.1	14.2	0.00e+00	0	28	0	4286578688	64	4507
2026-01-05 03:53:12.69	231.01	5.41	-49.8	-51.2	14.1	0.00e+00	0	28	0	4309647360	64	4592
2026-01-05 03:53:16.70	230.91	5.12	-49.7	-51.1	14.1	0.00e+00	0	28	0	4331667456	64	4535
2026-01-05 03:53:20.67	230.81	4.84	-59.9	-72.9	3.8	8.45e-01	0	28	104	4343201792	84	17551
2026-01-05 03:53:24.66	230.71	4.56	-60.4	-73.4	3.8	8.45e-01	0	28	104	4343201792	85	17604
2026-01-05 03:53:28.65	230.62	4.29	-60.7	-73.8	3.8	8.45e-01	0	28	104	4343201792	86	17311
2026-01-05 03:53:32.61	230.53	4.02	-60.8	-73.9	3.8	8.45e-01	0	28	104	4343201792	86	17499
2026-01-05 03:53:36.61	230.44	3.74	-60.9	-73.9	3.8	8.46e-01	0	28	104	4343201792	86	17662
2026-01-05 03:53:40.59	230.35	3.48	-61.0	-74.1	3.8	8.45e-01	0	28	104	4343201792	87	16994
2026-01-05 03:53:44.58	230.27	3.21	-60.8	-74.0	3.8	8.47e-01	0	28	104	4343201792	87	16754
2026-01-05 03:53:48.58	230.18	2.95	-60.9	-74.0	3.8	8.45e-01	0	28	104	4343201792	87	16726
2026-01-05 03:53:52.57	230.10	2.69	-60.7	-73.9	3.8	8.45e-01	0	28	104	4343201792	87	16623
2026-01-05 03:53:56.56	230.02	2.43	-60.7	-73.9	3.8	8.46e-01	0	28	104	4343201792	87	16559
2026-01-05 03:54:00.55	229.94	2.17	-60.7	-73.8	3.8	8.44e-01	0	28	104	4343201792	87	16460

#Closed at: 2026-01-05 03:54:03
#Recorded file [4343 MB]: D:/lorett/data/31004_260105_063949.dat