passes_logs/2026/01/05/R3.2S_Murmansk/R3.2S_Murmansk__20260105_152223_FENGYUN_3D_rec.log

#Pass ID: 20260105_152223_FENGYUN 3D
#Satellite: FENGYUN 3D
#Configuration: FENGYUN 3D
#almurnet v.1.7.20251203
#Start time: 2026-01-05 15:22:24

#Version: 2.2.20231116
#Station: R3.2S_Murmansk
#Location: 33.079688 lon 68.888172 lat
#TLE: 1 43010U 17072A   26005.27772741  .00000192  00000+0  11272-3 0  9992
#TLE: 2 43010  98.9919 336.9437 0001997 125.0511 235.0852 14.19692734421874

#Time	Az	El	Level	Level2	SNR	BER	BlckErr	Temp	State	Recorded	gain1	gain2
2026-01-05 15:22:24.27	253.45	2.04	-58.5	-71.5	3.8	8.46e-01	0	25	0	0	83	15778
2026-01-05 15:22:27.28	253.77	2.16	-58.4	-71.4	3.8	8.45e-01	0	25	104	0	82	16606
2026-01-05 15:22:30.26	254.10	2.28	-58.5	-71.4	3.8	8.45e-01	0	25	104	0	82	16669
2026-01-05 15:22:33.27	254.43	2.40	-58.5	-71.5	3.8	8.45e-01	0	25	104	0	82	16705
2026-01-05 15:22:36.27	254.76	2.51	-58.5	-71.4	3.8	8.46e-01	0	25	104	0	82	16682
2026-01-05 15:22:39.27	255.10	2.63	-58.5	-71.4	3.8	8.45e-01	0	25	104	0	82	16680
2026-01-05 15:22:42.27	255.43	2.75	-58.5	-71.4	3.8	8.46e-01	0	25	104	0	82	16660
2026-01-05 15:22:45.25	255.77	2.87	-58.5	-71.4	3.8	8.44e-01	0	25	104	0	82	16676
2026-01-05 15:22:48.23	256.11	2.98	-58.5	-71.4	3.8	8.45e-01	0	25	104	0	82	16587
2026-01-05 15:22:51.22	256.46	3.10	-58.4	-71.3	3.8	8.47e-01	0	25	104	0	82	16439
2026-01-05 15:22:54.19	256.80	3.21	-58.4	-71.4	3.8	8.45e-01	0	26	104	0	82	16557
2026-01-05 15:22:57.18	257.15	3.33	-58.4	-71.4	3.8	8.46e-01	0	26	104	0	82	16622
2026-01-05 15:23:00.18	257.50	3.45	-58.5	-71.4	3.8	8.47e-01	0	26	104	0	82	16648
2026-01-05 15:23:03.17	257.86	3.56	-58.4	-71.2	3.8	8.45e-01	0	26	104	0	82	16231
2026-01-05 15:23:06.15	258.21	3.67	-58.4	-71.3	3.8	8.47e-01	0	26	104	0	82	16336
2026-01-05 15:23:09.15	258.57	3.79	-58.4	-71.4	3.8	8.46e-01	0	26	104	0	82	16584
2026-01-05 15:23:12.15	258.94	3.90	-58.4	-71.4	3.8	8.45e-01	0	26	104	0	82	16598
2026-01-05 15:23:15.15	259.30	4.02	-58.4	-71.0	3.8	8.47e-01	0	26	104	0	82	15842
2026-01-05 15:23:18.14	259.67	4.13	-58.5	-71.4	3.8	8.45e-01	0	26	104	0	82	16508
2026-01-05 15:23:21.13	260.04	4.24	-58.5	-71.4	3.8	8.47e-01	0	26	104	0	82	16546
2026-01-05 15:23:24.13	260.42	4.35	-58.4	-70.7	3.8	8.44e-01	0	26	104	0	82	15375
2026-01-05 15:23:27.13	260.79	4.46	-58.4	-70.9	3.8	8.45e-01	0	26	104	0	82	15638
2026-01-05 15:23:30.14	261.18	4.58	-58.4	-70.2	3.8	8.45e-01	0	26	104	0	82	14393
2026-01-05 15:23:33.15	261.56	4.69	-58.5	-71.4	3.8	8.46e-01	0	26	104	0	82	16518
2026-01-05 15:23:36.15	261.95	4.80	-58.0	-67.1	4.4	8.31e-01	0	26	0	0	82	10089
2026-01-05 15:23:39.15	262.33	4.91	-57.6	-64.8	5.5	7.36e-01	0	26	0	0	81	8213
2026-01-05 15:23:42.13	262.72	5.01	-54.2	-56.9	11.5	5.95e-05	0	26	0	16777216	74	4949
2026-01-05 15:23:45.13	263.12	5.12	-51.6	-53.4	13.5	0.00e+00	0	26	0	32505856	69	4427
2026-01-05 15:23:48.12	263.51	5.23	-49.6	-51.0	14.3	0.00e+00	0	26	0	48234496	65	4215
2026-01-05 15:23:51.11	263.91	5.33	-49.6	-51.0	14.3	0.00e+00	0	26	0	65011712	65	4220
2026-01-05 15:23:54.11	264.31	5.44	-49.5	-50.9	14.3	0.00e+00	0	26	0	81788928	65	4189
2026-01-05 15:23:57.10	264.72	5.54	-49.5	-50.9	14.3	0.00e+00	0	26	0	98566144	65	4187
2026-01-05 15:24:00.09	265.12	5.65	-49.3	-50.6	14.5	0.00e+00	0	26	0	115343360	65	4047
2026-01-05 15:24:03.08	265.53	5.75	-49.2	-50.6	14.3	0.00e+00	0	27	0	132120576	64	4267
2026-01-05 15:24:06.09	265.95	5.85	-49.1	-50.4	14.4	0.00e+00	0	27	0	148897792	64	4180
2026-01-05 15:24:09.10	266.36	5.96	-49.1	-50.5	14.4	0.00e+00	0	27	0	166723584	64	4200
2026-01-05 15:24:12.09	266.78	6.06	-49.1	-50.5	14.4	0.00e+00	0	26	0	183500800	64	4228
2026-01-05 15:24:15.08	267.20	6.16	-48.8	-50.2	14.5	0.00e+00	0	27	0	200278016	64	4054
2026-01-05 15:24:18.07	267.63	6.26	-49.6	-51.0	14.1	0.00e+00	0	27	0	217055232	64	4471
2026-01-05 15:24:21.08	268.05	6.35	-50.8	-52.5	13.6	0.00e+00	0	26	0	233832448	67	4492
2026-01-05 15:24:24.06	268.48	6.45	-51.7	-53.6	13.1	0.00e+00	0	27	0	250609664	68	4768
2026-01-05 15:24:27.07	268.92	6.55	-52.1	-54.2	12.8	0.00e+00	0	27	0	267386880	69	4842
2026-01-05 15:24:30.06	269.35	6.64	-52.3	-54.4	12.7	0.00e+00	0	27	0	284164096	69	4975
2026-01-05 15:24:33.06	269.79	6.74	-51.9	-53.8	13.1	0.00e+00	0	27	0	300941312	69	4634
2026-01-05 15:24:36.04	270.23	6.83	-50.4	-51.9	14.0	0.00e+00	0	27	0	317718528	67	4174
2026-01-05 15:24:39.04	270.67	6.92	-49.4	-50.9	14.3	0.00e+00	0	27	0	334495744	65	4149
2026-01-05 15:24:42.04	271.12	7.01	-49.7	-51.1	14.2	0.00e+00	0	26	0	351272960	65	4277
2026-01-05 15:24:45.02	271.56	7.10	-49.5	-50.9	14.4	0.00e+00	0	27	0	368050176	65	4155
2026-01-05 15:24:48.01	272.01	7.19	-49.1	-50.4	14.5	0.00e+00	0	27	0	384827392	64	4183
2026-01-05 15:24:51.00	272.47	7.28	-48.8	-50.1	14.6	0.00e+00	0	26	0	401604608	64	4036
2026-01-05 15:24:53.99	272.92	7.36	-48.8	-50.1	14.5	0.00e+00	0	27	0	418381824	63	4266
2026-01-05 15:24:56.98	273.38	7.45	-48.6	-49.9	14.6	0.00e+00	0	27	0	435159040	63	4171
2026-01-05 15:24:59.97	273.84	7.53	-48.6	-49.9	14.6	0.00e+00	0	26	0	451936256	63	4164
2026-01-05 15:25:02.97	274.30	7.61	-48.8	-50.1	14.5	0.00e+00	0	27	0	468713472	63	4265
2026-01-05 15:25:05.97	274.77	7.69	-48.9	-50.2	14.5	0.00e+00	0	27	0	486539264	63	4303
2026-01-05 15:25:08.97	275.24	7.77	-48.7	-50.0	14.6	0.00e+00	0	27	0	503316480	63	4221
2026-01-05 15:25:11.96	275.71	7.85	-48.7	-50.0	14.6	0.00e+00	0	27	0	520093696	63	4234
2026-01-05 15:25:14.95	276.18	7.93	-48.8	-50.1	14.5	0.00e+00	0	26	0	536870912	63	4247
2026-01-05 15:25:17.95	276.66	8.00	-48.8	-50.2	14.5	0.00e+00	0	27	0	553648128	63	4295
2026-01-05 15:25:20.94	277.14	8.08	-48.8	-50.1	14.5	0.00e+00	0	27	0	570425344	63	4255
2026-01-05 15:25:23.93	277.62	8.15	-48.8	-50.1	14.5	0.00e+00	0	27	0	587202560	63	4270
2026-01-05 15:25:26.91	278.10	8.22	-48.8	-50.1	14.5	0.00e+00	0	27	0	603979776	63	4264
2026-01-05 15:25:29.91	278.58	8.29	-48.9	-50.2	14.5	0.00e+00	0	27	0	620756992	63	4325
2026-01-05 15:25:32.91	279.07	8.35	-48.8	-50.1	14.6	0.00e+00	0	26	0	637534208	63	4286
2026-01-05 15:25:35.89	279.56	8.42	-48.8	-50.1	14.6	0.00e+00	0	27	0	654311424	63	4259
2026-01-05 15:25:38.89	280.05	8.48	-48.9	-50.2	14.5	0.00e+00	0	27	0	671088640	63	4298
2026-01-05 15:25:41.89	280.54	8.55	-48.9	-50.3	14.5	0.00e+00	0	27	0	687865856	63	4345
2026-01-05 15:25:44.89	281.04	8.61	-49.0	-50.3	14.5	0.00e+00	0	27	0	704643072	63	4362
2026-01-05 15:25:47.90	281.54	8.67	-48.9	-50.2	14.5	0.00e+00	0	27	0	722468864	63	4307
2026-01-05 15:25:50.88	282.04	8.73	-48.7	-50.0	14.6	0.00e+00	0	27	0	739246080	63	4228
2026-01-05 15:25:53.86	282.54	8.78	-48.7	-50.0	14.6	0.00e+00	0	27	0	754974720	63	4197
2026-01-05 15:25:56.85	283.04	8.83	-48.7	-49.9	14.6	0.00e+00	0	27	0	772800512	63	4190
2026-01-05 15:25:59.84	283.54	8.89	-48.7	-50.0	14.7	0.00e+00	0	27	0	789577728	63	4197
2026-01-05 15:26:02.84	284.05	8.94	-48.7	-50.0	14.6	0.00e+00	0	27	0	806354944	63	4219
2026-01-05 15:26:05.82	284.56	8.99	-48.7	-49.9	14.6	0.00e+00	0	27	0	823132160	63	4186
2026-01-05 15:26:08.82	285.07	9.03	-48.5	-49.7	14.7	0.00e+00	0	27	0	839909376	63	4076
2026-01-05 15:26:11.82	285.58	9.08	-48.6	-49.9	14.7	0.00e+00	0	27	0	856686592	63	4158
2026-01-05 15:26:14.82	286.09	9.12	-48.9	-50.2	14.5	0.00e+00	0	27	0	873463808	63	4318
2026-01-05 15:26:17.82	286.61	9.16	-49.0	-50.3	14.5	0.00e+00	0	27	0	890241024	63	4350
2026-01-05 15:26:20.82	287.12	9.20	-48.8	-50.1	14.6	0.00e+00	0	27	0	907018240	63	4285
2026-01-05 15:26:23.82	287.64	9.24	-48.8	-50.1	14.6	0.00e+00	0	27	0	923795456	63	4263
2026-01-05 15:26:26.81	288.16	9.27	-48.7	-50.0	14.6	0.00e+00	0	27	0	940572672	63	4199
2026-01-05 15:26:29.81	288.68	9.31	-48.9	-50.2	14.5	0.00e+00	0	27	0	957349888	63	4334
2026-01-05 15:26:32.80	289.20	9.34	-49.0	-50.3	14.5	0.00e+00	0	27	0	974127104	63	4361
2026-01-05 15:26:35.80	289.72	9.37	-49.0	-50.3	14.5	0.00e+00	0	27	0	990904320	63	4343
2026-01-05 15:26:38.79	290.24	9.39	-48.8	-50.1	14.6	0.00e+00	0	27	0	1008730112	63	4265
2026-01-05 15:26:41.79	290.76	9.42	-48.9	-50.1	14.6	0.00e+00	0	27	0	1025507328	63	4284
2026-01-05 15:26:44.79	291.29	9.44	-48.8	-50.1	14.6	0.00e+00	0	27	0	1042284544	63	4277
2026-01-05 15:26:47.78	291.81	9.46	-48.7	-50.0	14.6	0.00e+00	0	27	0	1059061760	63	4231
2026-01-05 15:26:50.76	292.34	9.48	-48.7	-50.0	14.6	0.00e+00	0	27	0	1075838976	63	4196
2026-01-05 15:26:53.75	292.86	9.50	-48.7	-50.0	14.6	0.00e+00	0	27	0	1092616192	63	4203
2026-01-05 15:26:56.74	293.39	9.51	-48.9	-50.2	14.6	2.28e-04	0	27	0	1109393408	63	4317
2026-01-05 15:26:59.74	293.91	9.53	-48.9	-50.2	14.5	0.00e+00	0	27	0	1126170624	63	4325
2026-01-05 15:27:02.72	294.44	9.54	-48.9	-50.2	14.6	0.00e+00	0	27	0	1142947840	63	4306
2026-01-05 15:27:05.71	294.97	9.55	-48.8	-50.1	14.6	0.00e+00	0	27	0	1159725056	63	4255
2026-01-05 15:27:08.71	295.49	9.55	-48.6	-49.8	14.7	0.00e+00	0	27	0	1176502272	63	4144
2026-01-05 15:27:11.70	296.02	9.56	-48.5	-49.8	14.7	0.00e+00	0	27	0	1193279488	63	4101
2026-01-05 15:27:14.70	296.55	9.56	-48.6	-49.8	14.7	0.00e+00	0	27	0	1210056704	63	4141
2026-01-05 15:27:17.70	297.08	9.56	-48.7	-50.0	14.6	0.00e+00	0	27	0	1226833920	63	4211
2026-01-05 15:27:20.70	297.61	9.56	-48.6	-49.9	14.6	0.00e+00	0	27	0	1243611136	63	4159
2026-01-05 15:27:23.68	298.13	9.55	-48.5	-49.8	14.7	0.00e+00	0	27	0	1260388352	63	4123
2026-01-05 15:27:26.67	298.66	9.55	-48.8	-50.1	14.6	0.00e+00	0	27	0	1278214144	63	4255
2026-01-05 15:27:29.67	299.19	9.54	-48.9	-50.2	14.5	0.00e+00	0	27	0	1294991360	63	4306
2026-01-05 15:27:32.66	299.72	9.53	-48.7	-50.0	14.6	0.00e+00	0	27	0	1310720000	63	4223
2026-01-05 15:27:35.64	300.24	9.51	-48.7	-50.0	14.6	0.00e+00	0	27	0	1328545792	63	4212
2026-01-05 15:27:38.64	300.77	9.50	-48.6	-49.9	14.6	0.00e+00	0	27	0	1345323008	63	4175
2026-01-05 15:27:41.63	301.29	9.48	-48.7	-50.0	14.6	0.00e+00	0	27	0	1362100224	63	4216
2026-01-05 15:27:44.62	301.82	9.46	-48.7	-49.9	14.6	0.00e+00	0	27	0	1378877440	63	4184
2026-01-05 15:27:47.60	302.34	9.44	-48.6	-49.9	14.6	0.00e+00	0	27	0	1395654656	63	4168
2026-01-05 15:27:50.60	302.86	9.42	-48.7	-50.0	14.6	0.00e+00	0	27	0	1412431872	63	4227
2026-01-05 15:27:53.59	303.38	9.39	-48.9	-50.2	14.5	0.00e+00	0	27	0	1429209088	63	4320
2026-01-05 15:27:56.57	303.90	9.37	-48.9	-50.2	14.5	0.00e+00	0	27	0	1445986304	63	4335
2026-01-05 15:27:59.56	304.42	9.34	-48.9	-50.2	14.5	0.00e+00	0	27	0	1462763520	63	4296
2026-01-05 15:28:02.55	304.94	9.31	-48.7	-50.0	14.6	0.00e+00	0	27	0	1479540736	63	4231
2026-01-05 15:28:05.54	305.46	9.28	-48.7	-50.0	14.6	0.00e+00	0	27	0	1496317952	63	4211
2026-01-05 15:28:08.54	305.98	9.24	-48.5	-49.8	14.7	0.00e+00	0	27	0	1513095168	63	4110
2026-01-05 15:28:11.53	306.49	9.20	-48.5	-49.7	14.7	0.00e+00	0	27	0	1529872384	63	4070
2026-01-05 15:28:14.55	307.01	9.16	-48.6	-49.8	14.7	0.00e+00	0	27	0	1546649600	63	4135
2026-01-05 15:28:17.53	307.52	9.12	-48.8	-50.1	14.6	0.00e+00	0	27	0	1563426816	63	4251
2026-01-05 15:28:20.54	308.04	9.08	-48.9	-50.2	14.5	0.00e+00	0	27	0	1580204032	63	4293
2026-01-05 15:28:23.55	308.55	9.04	-48.5	-49.8	14.7	0.00e+00	0	27	0	1596981248	63	4118
2026-01-05 15:28:26.53	309.06	8.99	-48.6	-49.8	14.6	0.00e+00	0	27	0	1614807040	63	4145
2026-01-05 15:28:29.52	309.56	8.94	-48.7	-50.0	14.6	0.00e+00	0	27	0	1631584256	63	4194
2026-01-05 15:28:32.52	310.07	8.89	-48.7	-49.9	14.6	0.00e+00	0	27	0	1648361472	63	4186
2026-01-05 15:28:35.50	310.57	8.84	-48.7	-50.0	14.6	0.00e+00	0	27	0	1665138688	63	4214
2026-01-05 15:28:38.48	311.07	8.79	-48.7	-50.0	14.5	0.00e+00	0	27	0	1681915904	63	4231
2026-01-05 15:28:41.47	311.57	8.73	-48.6	-49.9	14.6	0.00e+00	0	27	0	1698693120	63	4178
2026-01-05 15:28:44.46	312.07	8.67	-48.8	-50.1	14.5	0.00e+00	0	27	0	1715470336	63	4269
2026-01-05 15:28:47.45	312.56	8.61	-48.9	-50.2	14.5	0.00e+00	0	27	0	1732247552	63	4305
2026-01-05 15:28:50.45	313.06	8.55	-48.8	-50.1	14.5	0.00e+00	0	27	0	1749024768	63	4291
2026-01-05 15:28:53.43	313.55	8.49	-48.7	-50.0	14.6	0.00e+00	0	27	0	1765801984	63	4197
2026-01-05 15:28:56.41	314.04	8.43	-48.7	-50.0	14.6	0.00e+00	0	27	0	1782579200	63	4211
2026-01-05 15:28:59.39	314.52	8.36	-48.7	-50.0	14.6	0.00e+00	0	27	0	1799356416	63	4225
2026-01-05 15:29:02.37	315.01	8.30	-48.8	-50.1	14.5	0.00e+00	0	27	0	1816133632	63	4262
2026-01-05 15:29:05.36	315.49	8.23	-48.8	-50.2	14.5	0.00e+00	0	27	0	1832910848	63	4298
2026-01-05 15:29:08.37	315.97	8.16	-48.8	-50.2	14.5	0.00e+00	0	27	0	1849688064	63	4297
2026-01-05 15:29:11.37	316.45	8.08	-49.0	-50.3	14.4	0.00e+00	0	27	0	1866465280	63	4390
2026-01-05 15:29:14.35	316.93	8.01	-49.0	-50.4	14.4	0.00e+00	0	27	0	1883242496	63	4400
2026-01-05 15:29:17.35	317.40	7.94	-49.1	-50.4	14.4	0.00e+00	0	27	0	1900019712	63	4427
2026-01-05 15:29:20.33	317.87	7.86	-49.0	-50.4	14.4	0.00e+00	0	27	0	1916796928	63	4399
2026-01-05 15:29:23.32	318.34	7.78	-49.0	-50.4	14.4	0.00e+00	0	27	0	1933574144	63	4395
2026-01-05 15:29:26.32	318.81	7.71	-49.0	-50.4	14.4	0.00e+00	0	27	0	1950351360	63	4408
2026-01-05 15:29:29.32	319.28	7.62	-48.9	-50.2	14.4	0.00e+00	0	27	0	1967128576	63	4330
2026-01-05 15:29:32.32	319.74	7.54	-48.9	-50.2	14.4	0.00e+00	0	27	0	1984954368	63	4331
2026-01-05 15:29:35.33	320.20	7.46	-48.9	-50.2	14.4	0.00e+00	0	27	0	2001731584	63	4324
2026-01-05 15:29:38.33	320.66	7.38	-49.1	-50.4	14.4	0.00e+00	0	27	0	2018508800	63	4425
2026-01-05 15:29:41.32	321.12	7.29	-49.0	-50.4	14.4	0.00e+00	0	27	0	2035286016	63	4402
2026-01-05 15:29:44.34	321.57	7.20	-49.1	-50.5	14.3	0.00e+00	0	27	0	2052063232	63	4480
2026-01-05 15:29:47.34	322.02	7.12	-49.3	-50.6	14.2	0.00e+00	0	27	0	2068840448	63	4543
2026-01-05 15:29:50.34	322.47	7.03	-49.3	-50.7	14.2	0.00e+00	0	27	0	2085617664	63	4572
2026-01-05 15:29:53.33	322.92	6.94	-49.3	-50.7	14.2	0.00e+00	0	27	0	2102394880	63	4594
2026-01-05 15:29:56.32	323.36	6.84	-49.4	-50.8	14.2	0.00e+00	0	27	0	2119172096	63	4608
2026-01-05 15:29:59.31	323.79	6.75	-49.1	-50.4	14.3	0.00e+00	0	27	0	2135949312	63	4424
2026-01-05 15:30:02.30	324.23	6.66	-49.3	-50.7	14.2	0.00e+00	0	27	0	2152726528	63	4558
2026-01-05 15:30:05.30	324.66	6.57	-49.5	-50.9	14.2	0.00e+00	0	27	0	2169503744	64	4413
2026-01-05 15:30:08.30	325.10	6.47	-49.4	-50.8	14.2	0.00e+00	0	27	0	2186280960	64	4367
2026-01-05 15:30:11.29	325.52	6.37	-49.3	-50.7	14.3	0.00e+00	0	27	0	2203058176	64	4338
2026-01-05 15:30:14.29	325.95	6.28	-49.3	-50.7	14.3	0.00e+00	0	27	0	2220883968	64	4326
2026-01-05 15:30:17.28	326.37	6.18	-49.3	-50.7	14.3	0.00e+00	0	27	0	2237661184	64	4334
2026-01-05 15:30:20.28	326.79	6.08	-49.4	-50.8	14.2	0.00e+00	0	27	0	2254438400	64	4362
2026-01-05 15:30:23.28	327.21	5.98	-49.3	-50.7	14.2	0.00e+00	0	27	0	2271215616	64	4335
2026-01-05 15:30:26.28	327.63	5.88	-49.4	-50.9	14.1	0.00e+00	0	27	0	2287992832	64	4414
2026-01-05 15:30:29.27	328.04	5.78	-49.3	-50.7	14.2	0.00e+00	0	27	0	2304770048	64	4337
2026-01-05 15:30:32.27	328.45	5.67	-49.3	-50.7	14.2	0.00e+00	0	27	0	2321547264	64	4304
2026-01-05 15:30:35.26	328.85	5.57	-49.5	-51.0	14.1	0.00e+00	0	27	0	2338324480	64	4455
2026-01-05 15:30:38.25	329.26	5.47	-49.6	-51.1	14.1	0.00e+00	0	27	0	2355101696	64	4513
2026-01-05 15:30:41.25	329.66	5.36	-49.9	-51.5	14.0	0.00e+00	0	27	0	2371878912	65	4442
2026-01-05 15:30:44.25	330.06	5.26	-49.8	-51.3	14.0	0.00e+00	0	27	0	2388656128	65	4365
2026-01-05 15:30:47.24	330.45	5.15	-49.7	-51.1	14.1	0.00e+00	0	27	0	2405433344	65	4289
2026-01-05 15:30:50.24	330.84	5.04	-49.6	-51.1	14.1	0.00e+00	0	27	0	2422210560	65	4270
2026-01-05 15:30:53.24	331.23	4.93	-59.2	-72.1	3.8	8.46e-01	0	27	104	2432696320	83	17043
2026-01-05 15:30:56.22	331.62	4.83	-60.2	-73.2	3.8	8.47e-01	0	27	104	2432696320	85	17262
2026-01-05 15:30:59.20	332.00	4.72	-60.6	-73.6	3.8	8.46e-01	0	27	104	2432696320	86	16999
2026-01-05 15:31:02.19	332.38	4.61	-60.8	-73.8	3.8	8.46e-01	0	27	104	2432696320	86	17467
2026-01-05 15:31:05.19	332.76	4.50	-60.9	-74.0	3.8	8.45e-01	0	27	104	2432696320	86	17702
2026-01-05 15:31:08.18	333.14	4.39	-61.0	-74.0	3.8	8.47e-01	0	27	104	2432696320	87	16833
2026-01-05 15:31:11.17	333.51	4.28	-61.0	-74.1	3.8	8.47e-01	0	27	104	2432696320	87	16902
2026-01-05 15:31:14.16	333.88	4.17	-60.9	-74.0	3.8	8.45e-01	0	27	104	2432696320	87	16762
2026-01-05 15:31:17.17	334.25	4.06	-60.8	-73.9	3.8	8.45e-01	0	27	104	2432696320	87	16633
2026-01-05 15:31:20.18	334.62	3.94	-60.8	-73.9	3.8	8.45e-01	0	27	104	2432696320	87	16551
2026-01-05 15:31:23.18	334.98	3.83	-60.8	-73.8	3.8	8.46e-01	0	27	104	2432696320	87	16485
2026-01-05 15:31:26.16	335.34	3.72	-60.7	-73.8	3.8	8.46e-01	0	27	104	2432696320	87	16427
2026-01-05 15:31:29.17	335.70	3.60	-60.7	-73.8	3.8	8.44e-01	0	27	104	2432696320	87	16391
2026-01-05 15:31:32.17	336.05	3.49	-60.7	-73.8	3.8	8.45e-01	0	27	104	2432696320	87	16321
2026-01-05 15:31:35.17	336.40	3.37	-60.7	-73.7	3.8	8.45e-01	0	27	104	2432696320	87	16286
2026-01-05 15:31:38.17	336.75	3.26	-60.6	-73.7	3.8	8.45e-01	0	27	104	2432696320	87	16246
2026-01-05 15:31:41.16	337.10	3.14	-60.6	-73.7	3.8	8.45e-01	0	27	104	2432696320	87	16235
2026-01-05 15:31:44.16	337.44	3.03	-60.6	-73.7	3.8	8.45e-01	0	27	104	2432696320	87	16187
2026-01-05 15:31:47.16	337.79	2.91	-60.6	-73.6	3.8	8.46e-01	0	27	104	2432696320	87	16115
2026-01-05 15:31:50.17	338.13	2.79	-60.6	-73.7	3.8	8.46e-01	0	27	104	2432696320	87	16201
2026-01-05 15:31:53.17	338.46	2.68	-60.6	-73.6	3.8	8.44e-01	0	27	104	2432696320	87	16082
2026-01-05 15:31:56.17	338.80	2.56	-60.6	-73.6	3.8	8.45e-01	0	27	104	2432696320	87	16112
2026-01-05 15:31:59.16	339.13	2.44	-60.6	-73.6	3.8	8.44e-01	0	27	104	2432696320	87	16076
2026-01-05 15:32:02.15	339.46	2.33	-60.5	-73.6	3.8	8.45e-01	0	27	104	2432696320	87	16033
2026-01-05 15:32:05.15	339.78	2.21	-60.5	-73.6	3.8	8.46e-01	0	27	104	2432696320	87	16050
2026-01-05 15:32:08.15	340.11	2.09	-60.5	-73.6	3.8	8.46e-01	0	27	104	2432696320	87	16034

#Closed at: 2026-01-05 15:32:11
#Recorded file [2432 MB]: D:/lorett/data/31004_260105_182224.dat