passes_logs/2026/01/05/R3.2S_Murmansk/R3.2S_Murmansk__20260105_075649_NOAA_20_JPSS-1_rec.log

#Pass ID: 20260105_075649_NOAA 20 (JPSS-1)
#Satellite: NOAA 20 (JPSS-1)
#Configuration: NOAA 20
#almurnet v.1.7.20251203
#Start time: 2026-01-05 07:56:48

#Version: 2.2.20231116
#Station: R3.2S_Murmansk
#Location: 33.079688 lon 68.888172 lat
#TLE: 1 43013U 17073A   26004.47528369  .00000132  00000+0  83671-4 0  9999
#TLE: 2 43013  98.7626 305.5264 0001854  54.5883 305.5466 14.19533142421242

#Time	Az	El	Level	Level2	SNR	BER	BlckErr	Temp	State	Recorded	gain1	gain2
2026-01-05 07:56:48.45	115.23	1.96	-58.2	-74.2	3.8	1.49e+00	0	25	0	0	83	21682
2026-01-05 07:56:52.40	115.09	2.21	-58.2	-74.2	3.8	1.49e+00	0	25	104	0	81	24157
2026-01-05 07:56:56.39	114.95	2.46	-58.2	-74.2	3.8	1.49e+00	0	25	104	0	81	24143
2026-01-05 07:57:00.37	114.81	2.71	-58.2	-74.0	3.8	1.49e+00	0	26	104	0	81	23849
2026-01-05 07:57:04.36	114.66	2.96	-58.2	-73.9	3.8	1.49e+00	0	26	104	0	81	23369
2026-01-05 07:57:08.35	114.51	3.22	-58.2	-74.0	3.8	1.49e+00	0	26	104	0	81	23596
2026-01-05 07:57:12.33	114.36	3.48	-58.2	-73.9	3.8	1.49e+00	0	26	104	0	81	23551
2026-01-05 07:57:16.33	114.20	3.74	-58.2	-74.1	3.8	1.49e+00	0	26	104	0	81	24070
2026-01-05 07:57:20.30	114.05	4.00	-58.1	-71.9	3.8	1.49e+00	0	26	104	0	81	18594
2026-01-05 07:57:24.29	113.89	4.27	-57.8	-67.8	5.3	6.33e-01	0	26	0	3145728	81	11581
2026-01-05 07:57:28.27	113.72	4.54	-57.2	-64.4	7.8	9.15e-02	0	26	0	11534336	81	7896
2026-01-05 07:57:32.23	113.56	4.81	-55.9	-60.3	11.2	3.56e-04	0	26	0	18874368	78	5838
2026-01-05 07:57:36.20	113.38	5.08	-54.7	-57.9	12.7	0.00e+00	0	26	0	26214400	76	4967
2026-01-05 07:57:40.17	113.21	5.35	-56.9	-62.2	9.9	8.23e-03	0	26	0	33554432	79	6844
2026-01-05 07:57:44.15	113.03	5.63	-58.1	-68.2	5.3	5.51e-01	0	26	0	40894464	81	12207
2026-01-05 07:57:48.12	112.85	5.91	-56.3	-60.7	11.2	3.84e-04	0	26	0	48234496	79	5754
2026-01-05 07:57:52.11	112.67	6.19	-58.5	-73.3	3.8	9.87e-01	0	27	104	53477376	82	20544
2026-01-05 07:57:56.07	112.48	6.48	-56.2	-60.4	11.3	3.58e-05	0	26	0	58720256	78	5887
2026-01-05 07:58:00.04	112.29	6.77	-56.1	-60.3	11.5	4.80e-05	0	26	0	66060288	78	5808
2026-01-05 07:58:04.01	112.09	7.06	-55.9	-59.8	11.8	1.37e-05	0	27	0	74448896	78	5481
2026-01-05 07:58:07.97	111.89	7.35	-55.9	-59.7	11.8	2.20e-06	0	27	0	81788928	77	5771
2026-01-05 07:58:11.94	111.69	7.65	-55.9	-59.6	11.9	1.50e-06	0	27	0	89128960	77	5704
2026-01-05 07:58:15.91	111.48	7.95	-55.2	-58.3	12.8	0.00e+00	0	27	0	96468992	77	4921
2026-01-05 07:58:19.87	111.26	8.25	-54.1	-56.6	13.6	0.00e+00	0	27	0	103809024	74	4780
2026-01-05 07:58:23.83	111.04	8.56	-54.2	-56.8	13.4	0.00e+00	0	27	0	111149056	74	4892
2026-01-05 07:58:27.79	110.82	8.87	-54.0	-56.6	13.6	0.00e+00	0	27	0	118489088	74	4769
2026-01-05 07:58:31.76	110.59	9.18	-53.9	-56.3	13.7	0.00e+00	0	27	0	125829120	74	4616
2026-01-05 07:58:35.71	110.36	9.50	-54.0	-56.5	13.6	0.00e+00	0	27	0	133169152	74	4722
2026-01-05 07:58:39.68	110.12	9.82	-53.4	-55.6	14.0	0.00e+00	0	27	0	140509184	73	4516
2026-01-05 07:58:43.66	109.87	10.14	-53.4	-55.6	14.0	0.00e+00	0	27	0	147849216	73	4530
2026-01-05 07:58:47.63	109.62	10.47	-53.1	-55.1	14.1	0.00e+00	0	27	0	155189248	72	4539
2026-01-05 07:58:51.60	109.36	10.80	-53.1	-55.1	14.2	0.00e+00	0	27	0	163577856	72	4532
2026-01-05 07:58:55.57	109.10	11.14	-53.0	-55.0	14.2	0.00e+00	0	27	0	170917888	72	4487
2026-01-05 07:58:59.52	108.83	11.47	-52.9	-54.9	14.3	0.00e+00	0	27	0	178257920	72	4436
2026-01-05 07:59:03.50	108.56	11.82	-53.0	-55.0	14.2	0.00e+00	0	27	0	185597952	72	4453
2026-01-05 07:59:07.47	108.27	12.17	-52.9	-55.0	14.2	0.00e+00	0	27	0	192937984	72	4450
2026-01-05 07:59:11.43	107.98	12.52	-53.1	-55.1	14.2	0.00e+00	0	27	0	200278016	72	4537
2026-01-05 07:59:15.42	107.68	12.88	-53.2	-55.4	14.1	0.00e+00	0	27	0	207618048	72	4653
2026-01-05 07:59:19.39	107.38	13.24	-53.4	-55.6	14.0	0.00e+00	0	27	0	214958080	72	4770
2026-01-05 07:59:23.36	107.06	13.61	-53.7	-56.0	13.8	0.00e+00	0	27	0	222298112	72	5016
2026-01-05 07:59:27.34	106.74	13.98	-54.0	-56.5	13.6	0.00e+00	0	27	0	229638144	73	4993
2026-01-05 07:59:31.30	106.41	14.35	-54.6	-57.2	13.3	0.00e+00	0	27	0	238026752	74	5158
2026-01-05 07:59:35.27	106.07	14.73	-54.7	-57.4	13.2	0.00e+00	0	27	0	245366784	74	5260
2026-01-05 07:59:39.22	105.73	15.11	-55.2	-58.2	12.8	0.00e+00	0	27	0	252706816	75	5449
2026-01-05 07:59:43.21	105.37	15.51	-55.9	-59.3	12.2	0.00e+00	0	27	0	260046848	76	5832
2026-01-05 07:59:47.18	105.00	15.90	-56.2	-59.9	11.9	3.80e-06	0	27	0	267386880	77	5915
2026-01-05 07:59:51.13	104.63	16.30	-56.6	-60.8	11.4	2.59e-05	0	27	0	274726912	78	6155
2026-01-05 07:59:55.12	104.24	16.71	-57.1	-61.8	10.7	1.14e-04	0	27	0	282066944	79	6502
2026-01-05 07:59:59.09	103.84	17.12	-57.3	-62.5	10.2	9.18e-04	0	27	0	289406976	80	6671
2026-01-05 08:00:03.07	103.43	17.54	-57.7	-63.7	9.2	6.60e-03	0	27	0	296747008	80	7664
2026-01-05 08:00:07.04	103.00	17.96	-58.0	-64.8	8.3	2.34e-02	0	27	0	304087040	81	8193
2026-01-05 08:00:11.01	102.57	18.39	-58.3	-65.6	7.6	6.33e-02	0	27	0	312475648	81	9002
2026-01-05 08:00:14.99	102.12	18.82	-59.3	-74.6	3.8	1.44e+00	0	27	104	318767104	83	22564
2026-01-05 08:00:18.95	101.66	19.26	-59.2	-74.1	3.8	1.49e+00	0	27	104	318767104	83	21365
2026-01-05 08:00:22.95	101.18	19.71	-59.2	-74.7	3.8	1.49e+00	0	27	104	318767104	83	22819
2026-01-05 08:00:26.92	100.69	20.16	-59.2	-73.7	3.8	1.49e+00	0	27	104	318767104	83	20489
2026-01-05 08:00:30.88	100.19	20.61	-59.3	-74.7	3.8	1.49e+00	0	27	104	318767104	83	22842
2026-01-05 08:00:34.85	99.67	21.08	-59.3	-73.9	3.8	1.49e+00	0	27	104	318767104	83	20998
2026-01-05 08:00:38.80	99.14	21.54	-59.3	-74.7	3.8	1.49e+00	0	27	104	318767104	83	22871
2026-01-05 08:00:42.78	98.58	22.02	-59.2	-74.2	3.8	1.49e+00	0	27	104	318767104	83	21517
2026-01-05 08:00:46.74	98.01	22.50	-59.2	-74.0	3.8	1.49e+00	0	27	104	318767104	83	21197
2026-01-05 08:00:50.71	97.43	22.99	-59.2	-73.8	3.8	1.49e+00	0	27	104	318767104	83	20679
2026-01-05 08:00:54.67	96.82	23.48	-59.3	-75.0	3.8	1.49e+00	0	27	104	318767104	83	23776
2026-01-05 08:00:58.65	96.19	23.98	-59.3	-74.0	3.8	1.49e+00	0	28	104	318767104	83	21044
2026-01-05 08:01:02.61	95.54	24.48	-59.3	-74.1	3.8	1.49e+00	0	27	104	318767104	83	21417
2026-01-05 08:01:06.57	94.88	24.99	-59.3	-73.7	3.8	1.49e+00	0	27	104	318767104	83	20362
2026-01-05 08:01:10.53	94.18	25.50	-59.3	-74.1	3.8	1.49e+00	0	28	104	318767104	83	21409
2026-01-05 08:01:14.50	93.47	26.02	-59.4	-74.4	3.8	1.49e+00	0	27	104	318767104	83	22051
2026-01-05 08:01:18.45	92.73	26.55	-59.3	-74.3	3.8	1.49e+00	0	27	104	318767104	83	21925
2026-01-05 08:01:22.43	91.97	27.08	-59.4	-75.2	3.8	1.49e+00	0	27	104	318767104	83	24214
2026-01-05 08:01:26.41	91.17	27.61	-59.3	-74.9	3.8	1.49e+00	0	27	104	318767104	83	23352
2026-01-05 08:01:30.39	90.35	28.15	-59.3	-75.1	3.8	1.49e+00	0	27	104	318767104	83	23891
2026-01-05 08:01:34.35	89.51	28.69	-59.3	-75.2	3.8	1.49e+00	0	27	104	318767104	83	24174
2026-01-05 08:01:38.32	88.63	29.24	-59.2	-74.8	3.8	1.49e+00	0	27	104	318767104	83	23217
2026-01-05 08:01:42.27	87.73	29.79	-59.2	-74.1	3.8	1.49e+00	0	27	104	318767104	83	21417
2026-01-05 08:01:46.25	86.79	30.34	-59.0	-69.7	5.1	7.00e-01	0	27	0	319815680	83	12851
2026-01-05 08:01:50.20	85.82	30.89	-58.4	-65.9	7.6	1.28e-01	0	27	0	327155712	83	8298
2026-01-05 08:01:54.16	84.81	31.44	-58.5	-65.9	7.6	1.19e-01	0	27	0	334495744	83	8352
2026-01-05 08:01:58.12	83.78	31.99	-56.9	-61.2	11.3	3.43e-05	0	27	0	341835776	79	6078
2026-01-05 08:02:02.08	82.70	32.54	-57.1	-61.5	11.1	9.30e-05	0	27	0	349175808	79	6300
2026-01-05 08:02:06.05	81.59	33.09	-54.5	-57.0	13.5	0.00e+00	0	27	0	356515840	75	4743
2026-01-05 08:02:10.01	80.44	33.64	-54.0	-56.3	13.9	0.00e+00	0	27	0	363855872	74	4615
2026-01-05 08:02:13.99	79.24	34.18	-55.5	-58.4	12.8	0.00e+00	0	27	0	371195904	76	5251
2026-01-05 08:02:17.95	78.01	34.72	-54.7	-57.3	13.5	0.00e+00	0	27	0	379584512	75	4884
2026-01-05 08:02:21.92	76.73	35.25	-56.1	-59.5	12.3	0.00e+00	0	27	0	386924544	77	5636
2026-01-05 08:02:25.90	75.41	35.78	-55.4	-58.3	13.0	0.00e+00	0	27	0	394264576	76	5197
2026-01-05 08:02:29.86	74.06	36.29	-55.7	-58.8	12.8	0.00e+00	0	27	0	401604608	76	5487
2026-01-05 08:02:33.82	72.66	36.79	-56.2	-59.5	12.4	0.00e+00	0	27	0	408944640	77	5656
2026-01-05 08:02:37.79	71.21	37.28	-56.3	-59.7	12.2	0.00e+00	0	27	0	416284672	77	5759
2026-01-05 08:02:41.77	69.72	37.76	-56.6	-60.4	11.9	2.20e-06	0	27	0	423624704	78	5869
2026-01-05 08:02:45.73	68.19	38.21	-56.9	-61.0	11.6	6.80e-06	0	27	0	430964736	79	5927
2026-01-05 08:02:49.69	66.62	38.65	-56.9	-61.0	11.6	6.10e-06	0	27	0	438304768	79	5931
2026-01-05 08:02:53.66	65.00	39.08	-57.4	-62.1	10.8	1.31e-04	0	27	0	445644800	80	6360
2026-01-05 08:02:57.62	63.34	39.47	-57.9	-63.3	9.9	1.31e-03	0	27	0	454033408	80	7337
2026-01-05 08:03:01.58	61.64	39.85	-58.2	-64.2	9.2	5.88e-03	0	27	0	461373440	81	7632
2026-01-05 08:03:05.54	59.91	40.20	-58.2	-64.2	9.1	8.06e-03	0	27	0	468713472	81	7659
2026-01-05 08:03:09.54	58.12	40.52	-58.4	-65.0	8.5	1.55e-02	0	28	0	476053504	82	7980
2026-01-05 08:03:13.52	56.30	40.82	-58.8	-66.4	7.3	7.03e-02	0	27	0	483393536	82	9371
2026-01-05 08:03:17.50	54.46	41.08	-58.9	-67.0	6.8	1.07e-01	0	28	0	490733568	82	10024
2026-01-05 08:03:21.46	52.59	41.31	-58.9	-66.8	7.0	9.54e-02	0	27	0	498073600	82	9806
2026-01-05 08:03:25.42	50.70	41.50	-59.0	-67.5	6.5	1.69e-01	0	28	0	505413632	83	10033
2026-01-05 08:03:29.39	48.79	41.66	-59.0	-67.9	6.2	2.23e-01	0	28	0	512753664	83	10469
2026-01-05 08:03:33.36	46.85	41.79	-59.6	-72.2	4.2	1.38e+00	0	28	0	517996544	84	16243
2026-01-05 08:03:37.33	44.91	41.88	-56.8	-60.5	12.0	3.02e-03	0	27	0	525336576	80	5324
2026-01-05 08:03:41.30	42.96	41.93	-55.2	-57.9	13.3	0.00e+00	0	28	0	532676608	76	4962
2026-01-05 08:03:45.28	40.99	41.94	-55.8	-58.8	12.9	0.00e+00	0	27	0	540016640	76	5528
2026-01-05 08:03:49.25	39.04	41.91	-55.8	-58.7	12.9	0.00e+00	0	28	0	547356672	77	5157
2026-01-05 08:03:53.21	37.09	41.85	-56.0	-59.1	12.8	0.00e+00	0	28	0	554696704	77	5343
2026-01-05 08:03:57.17	35.16	41.75	-56.9	-60.8	11.8	1.50e-06	0	28	0	562036736	79	5805
2026-01-05 08:04:01.14	33.23	41.62	-60.0	-76.0	3.8	3.16e-01	0	27	104	567279616	85	23793
2026-01-05 08:04:05.15	31.30	41.44	-60.5	-76.5	3.8	1.49e+00	0	28	104	567279616	86	23703
2026-01-05 08:04:09.17	29.39	41.23	-60.6	-76.7	3.8	1.49e+00	0	28	104	567279616	86	24177
2026-01-05 08:04:13.14	27.53	40.99	-60.6	-76.7	3.8	1.49e+00	0	27	104	567279616	86	24227
2026-01-05 08:04:17.12	25.70	40.72	-60.6	-76.7	3.8	1.49e+00	0	27	104	567279616	86	24315
2026-01-05 08:04:21.11	23.89	40.41	-60.6	-76.7	3.8	1.49e+00	0	27	104	567279616	86	24187
2026-01-05 08:04:25.07	22.14	40.08	-60.6	-76.7	3.8	1.49e+00	0	27	104	567279616	86	24236
2026-01-05 08:04:29.03	20.42	39.72	-60.6	-76.6	3.8	1.49e+00	0	27	104	567279616	86	24000
2026-01-05 08:04:33.01	18.73	39.34	-60.5	-76.6	3.8	1.49e+00	0	28	104	567279616	86	23963
2026-01-05 08:04:36.99	17.08	38.93	-60.5	-76.5	3.8	1.49e+00	0	28	104	567279616	86	23841
2026-01-05 08:04:40.95	15.48	38.51	-60.5	-76.5	3.8	1.49e+00	0	27	104	567279616	86	23824
2026-01-05 08:04:44.93	13.92	38.06	-60.7	-76.8	3.8	1.49e+00	0	28	104	567279616	86	24505
2026-01-05 08:04:48.94	12.39	37.59	-60.8	-76.8	3.8	1.49e+00	0	28	104	567279616	86	24635
2026-01-05 08:04:52.95	10.90	37.11	-60.7	-76.8	3.8	1.49e+00	0	28	104	567279616	86	24471
2026-01-05 08:04:56.94	9.47	36.61	-60.6	-75.9	3.9	1.49e+00	0	28	104	567279616	86	22217
2026-01-05 08:05:00.91	8.08	36.10	-60.0	-69.8	5.6	2.60e-04	0	27	0	573571072	85	11634
2026-01-05 08:05:04.89	6.74	35.59	-53.7	-55.6	14.4	6.59e-02	0	28	0	580911104	74	4287
2026-01-05 08:05:08.87	5.44	35.06	-53.9	-55.9	14.2	0.00e+00	0	28	0	588251136	73	4658
2026-01-05 08:05:12.83	4.19	34.53	-53.9	-55.8	14.2	0.00e+00	0	28	0	595591168	73	4634
2026-01-05 08:05:16.80	2.97	33.99	-54.2	-56.4	14.0	0.00e+00	0	27	0	602931200	73	4940
2026-01-05 08:05:20.76	1.80	33.45	-54.6	-56.8	13.8	0.00e+00	0	28	0	610271232	74	4911
2026-01-05 08:05:24.71	0.67	32.90	-55.2	-57.8	13.4	0.00e+00	0	27	0	617611264	75	5163
2026-01-05 08:05:28.68	359.57	32.35	-55.5	-58.0	13.5	0.00e+00	0	27	0	624951296	76	5038
2026-01-05 08:05:32.65	358.51	31.80	-55.4	-58.0	13.5	0.00e+00	0	27	0	632291328	76	4991
2026-01-05 08:05:36.61	357.49	31.25	-55.6	-58.2	13.4	0.00e+00	0	28	0	639631360	76	5136
2026-01-05 08:05:40.57	356.50	30.70	-55.2	-57.6	13.6	0.00e+00	0	28	0	648019968	76	4813
2026-01-05 08:05:44.54	355.54	30.15	-55.0	-57.4	13.7	0.00e+00	0	28	0	655360000	76	4689
2026-01-05 08:05:48.49	354.62	29.61	-54.6	-56.8	14.0	0.00e+00	0	28	0	662700032	75	4645
2026-01-05 08:05:52.45	353.73	29.06	-54.0	-56.0	14.2	0.00e+00	0	27	0	670040064	74	4465
2026-01-05 08:05:56.41	352.87	28.52	-53.9	-55.9	14.3	0.00e+00	0	27	0	677380096	74	4404
2026-01-05 08:06:00.37	352.04	27.98	-53.6	-55.6	14.3	0.00e+00	0	27	0	684720128	73	4526
2026-01-05 08:06:04.35	351.23	27.44	-53.4	-55.3	14.4	0.00e+00	0	28	0	692060160	73	4342
2026-01-05 08:06:08.30	350.46	26.92	-53.5	-55.5	14.3	0.00e+00	0	27	0	699400192	73	4451
2026-01-05 08:06:12.27	349.70	26.39	-53.7	-55.6	14.2	0.00e+00	0	27	0	706740224	73	4533
2026-01-05 08:06:16.23	348.97	25.87	-53.3	-55.2	14.4	0.00e+00	0	27	0	714080256	73	4339
2026-01-05 08:06:20.18	348.27	25.35	-53.7	-55.7	14.2	0.00e+00	0	27	0	721420288	73	4578
2026-01-05 08:06:24.13	347.60	24.84	-53.9	-55.9	14.1	0.00e+00	0	28	0	728760320	73	4702
2026-01-05 08:06:28.10	346.94	24.34	-53.8	-55.8	14.1	0.00e+00	0	27	0	736100352	73	4645
2026-01-05 08:06:32.16	346.28	23.83	-53.8	-55.9	14.1	0.00e+00	0	27	0	744488960	73	4666
2026-01-05 08:06:36.11	345.67	23.33	-53.5	-55.5	14.3	0.00e+00	0	27	0	751828992	73	4484
2026-01-05 08:06:40.06	345.07	22.85	-53.4	-55.3	14.4	0.00e+00	0	27	0	759169024	73	4360
2026-01-05 08:06:44.03	344.49	22.36	-53.6	-55.6	14.2	0.00e+00	0	27	0	766509056	73	4537
2026-01-05 08:06:47.99	343.93	21.89	-53.7	-55.8	14.1	0.00e+00	0	27	0	773849088	73	4615
2026-01-05 08:06:51.95	343.39	21.42	-53.6	-55.6	14.2	0.00e+00	0	27	0	781189120	73	4517
2026-01-05 08:06:55.91	342.86	20.95	-53.4	-55.4	14.3	0.00e+00	0	27	0	788529152	73	4430
2026-01-05 08:06:59.87	342.35	20.50	-53.3	-55.3	14.4	0.00e+00	0	28	0	795869184	73	4365
2026-01-05 08:07:03.84	341.86	20.04	-53.5	-55.5	14.2	0.00e+00	0	27	0	803209216	73	4474
2026-01-05 08:07:07.81	341.37	19.59	-53.5	-55.5	14.2	0.00e+00	0	28	0	810549248	73	4463
2026-01-05 08:07:11.79	340.91	19.15	-53.4	-55.4	14.3	0.00e+00	0	27	0	818937856	73	4421
2026-01-05 08:07:15.78	340.45	18.71	-53.2	-55.2	14.4	0.00e+00	0	27	0	826277888	73	4305
2026-01-05 08:07:19.74	340.01	18.28	-53.3	-55.3	14.3	0.00e+00	0	28	0	833617920	72	4604
2026-01-05 08:07:23.71	339.58	17.86	-53.4	-55.4	14.1	0.00e+00	0	28	0	840957952	72	4684
2026-01-05 08:07:27.69	339.16	17.44	-53.7	-55.8	13.9	0.00e+00	0	27	0	848297984	72	4922
2026-01-05 08:07:31.66	338.76	17.03	-53.6	-55.8	14.0	0.00e+00	0	28	0	855638016	72	4877
2026-01-05 08:07:35.63	338.37	16.62	-53.5	-55.6	14.0	0.00e+00	0	27	0	862978048	72	4798
2026-01-05 08:07:39.60	337.99	16.22	-53.6	-55.8	14.0	0.00e+00	0	27	0	870318080	72	4883
2026-01-05 08:07:43.57	337.61	15.82	-53.6	-55.7	13.9	0.00e+00	0	28	0	877658112	72	4865
2026-01-05 08:07:47.55	337.25	15.42	-53.7	-55.9	13.9	0.00e+00	0	27	0	884998144	72	4931
2026-01-05 08:07:51.52	336.90	15.04	-53.7	-55.9	13.9	0.00e+00	0	27	0	893386752	72	4939
2026-01-05 08:07:55.48	336.56	14.66	-53.8	-55.9	13.9	0.00e+00	0	28	0	900726784	72	4978
2026-01-05 08:07:59.44	336.22	14.28	-53.9	-56.1	13.8	0.00e+00	0	28	0	908066816	72	5083
2026-01-05 08:08:03.41	335.90	13.91	-53.9	-56.2	13.9	0.00e+00	0	27	0	915406848	73	4825
2026-01-05 08:08:07.37	335.58	13.54	-54.1	-56.5	13.7	0.00e+00	0	27	0	922746880	73	4990
2026-01-05 08:08:11.33	335.28	13.18	-54.1	-56.5	13.6	0.00e+00	0	27	0	930086912	73	5006
2026-01-05 08:08:15.30	334.98	12.82	-54.2	-56.5	13.6	0.00e+00	0	27	0	937426944	73	5038
2026-01-05 08:08:19.28	334.68	12.46	-54.0	-56.4	13.7	0.00e+00	0	27	0	944766976	73	4945
2026-01-05 08:08:23.24	334.40	12.11	-54.1	-56.4	13.7	0.00e+00	0	27	0	952107008	73	4974
2026-01-05 08:08:27.22	334.12	11.77	-54.1	-56.4	13.7	0.00e+00	0	28	0	959447040	73	4975
2026-01-05 08:08:31.20	333.84	11.43	-54.2	-56.7	13.5	0.00e+00	0	28	0	967835648	73	5122
2026-01-05 08:08:35.19	333.58	11.09	-54.3	-56.8	13.4	0.00e+00	0	28	0	975175680	73	5195
2026-01-05 08:08:39.16	333.32	10.75	-54.5	-57.1	13.3	0.00e+00	0	27	0	982515712	74	5094
2026-01-05 08:08:43.13	333.07	10.42	-54.5	-57.1	13.3	0.00e+00	0	28	0	989855744	74	5089
2026-01-05 08:08:47.10	332.82	10.10	-54.5	-57.2	13.3	0.00e+00	0	27	0	997195776	74	5112
2026-01-05 08:08:51.07	332.58	9.77	-54.5	-57.1	13.3	0.00e+00	0	27	0	1004535808	74	5087
2026-01-05 08:08:55.04	332.34	9.46	-54.4	-57.0	13.4	0.00e+00	0	28	0	1011875840	74	5015
2026-01-05 08:08:59.01	332.11	9.14	-54.5	-57.2	13.2	0.00e+00	0	27	0	1019215872	74	5139
2026-01-05 08:09:02.98	331.89	8.83	-54.4	-57.1	13.3	0.00e+00	0	28	0	1026555904	74	5066
2026-01-05 08:09:06.95	331.67	8.52	-54.4	-57.1	13.3	0.00e+00	0	27	0	1033895936	74	5042
2026-01-05 08:09:10.93	331.45	8.22	-54.5	-57.3	13.2	0.00e+00	0	28	0	1042284544	74	5169
2026-01-05 08:09:14.91	331.24	7.91	-54.5	-57.3	13.1	0.00e+00	0	28	0	1049624576	74	5201
2026-01-05 08:09:18.88	331.03	7.61	-54.6	-57.5	13.0	0.00e+00	0	27	0	1056964608	74	5313
2026-01-05 08:09:22.85	330.83	7.32	-54.6	-57.5	13.0	0.00e+00	0	27	0	1064304640	74	5327
2026-01-05 08:09:26.83	330.64	7.03	-54.6	-57.6	12.9	0.00e+00	0	28	0	1071644672	74	5352
2026-01-05 08:09:30.80	330.44	6.74	-54.8	-57.8	12.8	0.00e+00	0	27	0	1078984704	74	5511
2026-01-05 08:09:34.79	330.25	6.45	-54.8	-57.9	12.7	0.00e+00	0	28	0	1086324736	74	5569
2026-01-05 08:09:38.77	330.07	6.16	-54.8	-58.0	12.6	0.00e+00	0	27	0	1093664768	74	5608
2026-01-05 08:09:42.75	329.89	5.88	-54.9	-58.2	12.5	0.00e+00	0	28	0	1101004800	74	5731
2026-01-05 08:09:46.72	329.71	5.60	-55.0	-58.3	12.4	0.00e+00	0	28	0	1109393408	75	5506
2026-01-05 08:09:50.70	329.54	5.33	-55.0	-58.3	12.4	0.00e+00	0	28	0	1116733440	75	5516
2026-01-05 08:09:54.67	329.37	5.05	-55.0	-58.5	12.3	7.00e-07	0	28	0	1124073472	75	5609
2026-01-05 08:09:58.67	329.20	4.78	-59.9	-75.9	3.8	1.49e+00	0	28	104	1126170624	84	24801
2026-01-05 08:10:02.64	329.04	4.51	-60.6	-76.7	3.8	1.49e+00	0	28	104	1126170624	86	24163
2026-01-05 08:10:06.63	328.88	4.25	-60.9	-77.0	3.8	1.49e+00	0	28	104	1126170624	87	23693
2026-01-05 08:10:10.62	328.72	3.98	-61.0	-77.1	3.8	1.49e+00	0	27	104	1126170624	87	24075
2026-01-05 08:10:14.59	328.56	3.72	-61.1	-77.2	3.8	1.49e+00	0	28	104	1126170624	87	24159
2026-01-05 08:10:18.56	328.41	3.46	-61.0	-77.1	3.8	1.49e+00	0	27	104	1126170624	87	23960
2026-01-05 08:10:22.54	328.27	3.21	-61.0	-77.0	3.8	1.49e+00	0	28	104	1126170624	87	23792
2026-01-05 08:10:26.51	328.12	2.95	-60.9	-77.0	3.8	1.49e+00	0	28	104	1126170624	87	23647
2026-01-05 08:10:30.48	327.98	2.70	-60.9	-77.0	3.8	1.49e+00	0	27	104	1126170624	87	23624
2026-01-05 08:10:34.46	327.84	2.45	-60.9	-76.9	3.8	1.49e+00	0	28	104	1126170624	87	23531
2026-01-05 08:10:38.44	327.70	2.20	-60.8	-76.9	3.8	1.49e+00	0	27	104	1126170624	87	23502

#Closed at: 2026-01-05 08:10:41
#Recorded file [1126 MB]: D:/lorett/data/31004_260105_105648.dat