passes_logs/2026/01/05/R3.2S_Murmansk/R3.2S_Murmansk__20260105_213940_NOAA_20_JPSS-1_rec.log

#Pass ID: 20260105_213940_NOAA 20 (JPSS-1)
#Satellite: NOAA 20 (JPSS-1)
#Configuration: NOAA 20
#almurnet v.1.7.20251203
#Start time: 2026-01-05 21:39:42

#Version: 2.2.20231116
#Station: R3.2S_Murmansk
#Location: 33.079688 lon 68.888172 lat
#TLE: 1 43013U 17073A   26005.46207808  .00000128  00000+0  81791-4 0  9997
#TLE: 2 43013  98.7627 306.5027 0001826  53.0458 307.0885 14.19533487421381

#Time	Az	El	Level	Level2	SNR	BER	BlckErr	Temp	State	Recorded	gain1	gain2
2026-01-05 21:39:42.04	18.55	2.10	-58.2	-74.2	3.8	1.49e+00	0	25	0	0	83	21718
2026-01-05 21:39:45.04	18.82	2.25	-58.2	-74.1	3.8	1.49e+00	0	25	104	0	81	24027
2026-01-05 21:39:48.04	19.09	2.39	-58.2	-74.1	3.8	1.49e+00	0	26	104	0	81	24082
2026-01-05 21:39:51.03	19.36	2.54	-58.2	-74.2	3.8	1.49e+00	0	25	104	0	81	24228
2026-01-05 21:39:54.03	19.63	2.69	-58.2	-74.1	3.8	1.49e+00	0	26	104	0	81	24125
2026-01-05 21:39:57.01	19.91	2.83	-58.2	-74.2	3.8	1.49e+00	0	26	104	0	81	24137
2026-01-05 21:40:00.01	20.19	2.98	-58.2	-74.1	3.8	1.49e+00	0	26	104	0	81	23987
2026-01-05 21:40:02.99	20.47	3.13	-58.2	-74.2	3.8	1.49e+00	0	26	104	0	81	24177
2026-01-05 21:40:05.99	20.75	3.27	-58.1	-74.1	3.8	1.49e+00	0	26	104	0	81	23935
2026-01-05 21:40:08.79	21.02	3.41	-58.2	-74.1	3.8	1.49e+00	0	26	104	0	81	24006
2026-01-05 21:40:11.92	21.33	3.57	-58.2	-74.1	3.8	1.49e+00	0	26	104	0	81	23931
2026-01-05 21:40:14.78	21.61	3.71	-58.1	-73.4	3.8	1.49e+00	0	26	104	0	81	22111
2026-01-05 21:40:17.93	21.92	3.87	-58.1	-73.3	3.8	1.49e+00	0	26	104	0	81	21910
2026-01-05 21:40:20.79	22.20	4.01	-58.1	-72.3	3.8	1.49e+00	0	26	104	0	81	19535
2026-01-05 21:40:23.95	22.52	4.16	-58.0	-69.9	4.4	1.35e+00	80	26	0	0	81	14773
2026-01-05 21:40:26.81	22.81	4.31	-57.8	-68.2	5.1	7.00e-01	0	26	0	5242880	81	12129
2026-01-05 21:40:29.95	23.14	4.46	-56.7	-62.3	9.6	9.89e-03	0	26	0	11534336	80	6558
2026-01-05 21:40:32.81	23.43	4.61	-54.7	-57.9	12.7	0.00e+00	0	26	0	16777216	76	4946
2026-01-05 21:40:35.95	23.76	4.76	-54.5	-57.7	12.8	0.00e+00	0	26	0	22020096	75	5119
2026-01-05 21:40:38.80	24.06	4.91	-55.8	-60.2	11.2	1.22e-05	0	26	0	28311552	76	6426
2026-01-05 21:40:41.94	24.40	5.06	-56.8	-62.8	9.1	6.72e-03	0	26	0	33554432	78	7789
2026-01-05 21:40:44.79	24.71	5.21	-57.1	-64.4	7.8	9.35e-02	0	26	0	38797312	80	8294
2026-01-05 21:40:47.92	25.05	5.36	-54.6	-57.7	12.8	0.00e+00	0	26	0	45088768	75	5151
2026-01-05 21:40:50.77	25.36	5.51	-54.3	-57.1	13.2	0.00e+00	0	26	0	50331648	75	4813
2026-01-05 21:40:53.91	25.71	5.66	-53.9	-56.6	13.4	0.00e+00	0	26	0	56623104	74	4772
2026-01-05 21:40:56.75	26.03	5.81	-53.8	-56.4	13.5	0.00e+00	0	26	0	61865984	74	4695
2026-01-05 21:40:59.88	26.38	5.96	-53.6	-56.2	13.6	0.00e+00	0	26	0	67108864	73	4815
2026-01-05 21:41:02.73	26.71	6.11	-53.5	-56.0	13.7	0.00e+00	0	26	0	72351744	73	4716
2026-01-05 21:41:05.87	27.07	6.27	-53.8	-56.4	13.5	0.00e+00	0	26	0	78643200	73	4981
2026-01-05 21:41:08.72	27.40	6.41	-53.7	-56.2	13.6	0.00e+00	0	26	0	83886080	73	4853
2026-01-05 21:41:11.86	27.77	6.57	-53.7	-56.3	13.6	0.00e+00	0	26	0	90177536	73	4876
2026-01-05 21:41:14.72	28.12	6.71	-53.5	-55.9	13.8	0.00e+00	0	26	0	95420416	73	4663
2026-01-05 21:41:17.87	28.49	6.87	-53.5	-56.0	13.7	0.00e+00	0	26	0	100663296	73	4717
2026-01-05 21:41:20.73	28.84	7.01	-53.5	-55.8	13.8	0.00e+00	0	26	0	106954752	73	4644
2026-01-05 21:41:23.86	29.23	7.17	-53.7	-56.2	13.6	0.00e+00	0	26	0	112197632	73	4864
2026-01-05 21:41:26.72	29.58	7.31	-53.8	-56.3	13.6	0.00e+00	0	26	0	117440512	73	4920
2026-01-05 21:41:29.86	29.97	7.47	-53.8	-56.3	13.6	0.00e+00	0	26	0	123731968	73	4875
2026-01-05 21:41:32.71	30.33	7.61	-53.6	-56.0	13.7	0.00e+00	0	26	0	128974848	73	4729
2026-01-05 21:41:35.83	30.73	7.77	-53.5	-55.9	13.8	0.00e+00	0	26	0	135266304	73	4665
2026-01-05 21:41:38.68	31.10	7.91	-53.4	-55.7	13.9	0.00e+00	0	26	0	140509184	73	4585
2026-01-05 21:41:41.81	31.50	8.07	-53.4	-55.7	13.9	0.00e+00	0	26	0	145752064	73	4565
2026-01-05 21:41:44.67	31.88	8.21	-53.2	-55.5	14.1	0.00e+00	0	26	0	150994944	73	4460
2026-01-05 21:41:47.78	32.29	8.37	-53.3	-55.5	14.0	0.00e+00	0	26	0	157286400	73	4456
2026-01-05 21:41:50.64	32.68	8.51	-53.0	-55.2	14.1	0.00e+00	0	26	0	162529280	72	4568
2026-01-05 21:41:53.77	33.10	8.66	-52.9	-55.0	14.2	0.00e+00	0	26	0	168820736	72	4479
2026-01-05 21:41:56.63	33.49	8.80	-52.9	-55.0	14.2	0.00e+00	0	26	0	174063616	72	4467
2026-01-05 21:41:59.77	33.92	8.96	-52.6	-54.7	14.2	0.00e+00	0	27	0	179306496	71	4561
2026-01-05 21:42:02.63	34.32	9.10	-52.8	-54.9	14.2	0.00e+00	0	26	0	184549376	71	4656
2026-01-05 21:42:05.77	34.76	9.25	-52.5	-54.5	14.3	0.00e+00	0	26	0	190840832	71	4458
2026-01-05 21:42:08.63	35.17	9.39	-52.7	-54.7	14.2	0.00e+00	0	26	0	196083712	71	4560
2026-01-05 21:42:11.78	35.62	9.55	-52.7	-54.7	14.2	0.00e+00	0	26	0	202375168	71	4574
2026-01-05 21:42:14.63	36.04	9.69	-52.6	-54.6	14.3	0.00e+00	0	26	0	207618048	71	4524
2026-01-05 21:42:17.76	36.49	9.84	-52.6	-54.6	14.3	0.00e+00	0	26	0	213909504	71	4508
2026-01-05 21:42:20.62	36.92	9.98	-52.5	-54.5	14.3	0.00e+00	0	26	0	219152384	71	4460
2026-01-05 21:42:23.76	37.38	10.13	-52.6	-54.6	14.3	0.00e+00	0	27	0	224395264	71	4533
2026-01-05 21:42:26.62	37.81	10.26	-52.8	-54.8	14.2	0.00e+00	0	26	0	229638144	71	4629
2026-01-05 21:42:29.76	38.29	10.41	-52.6	-54.7	14.3	0.00e+00	0	26	0	235929600	71	4550
2026-01-05 21:42:32.61	38.73	10.55	-52.6	-54.6	14.3	0.00e+00	0	26	0	241172480	71	4512
2026-01-05 21:42:35.75	39.21	10.69	-52.7	-54.7	14.2	0.00e+00	0	26	0	247463936	71	4552
2026-01-05 21:42:38.61	39.66	10.83	-52.9	-54.9	14.1	0.00e+00	0	27	0	252706816	71	4683
2026-01-05 21:42:41.74	40.15	10.97	-52.7	-54.8	14.2	0.00e+00	0	27	0	257949696	71	4603
2026-01-05 21:42:44.58	40.61	11.10	-52.7	-54.8	14.2	0.00e+00	0	26	0	263192576	71	4599
2026-01-05 21:42:47.72	41.11	11.25	-52.9	-54.9	14.2	0.00e+00	0	26	0	269484032	71	4705
2026-01-05 21:42:50.57	41.57	11.38	-53.0	-55.2	14.0	0.00e+00	0	26	0	274726912	71	4820
2026-01-05 21:42:53.70	42.08	11.52	-53.1	-55.2	14.0	0.00e+00	0	26	0	281018368	71	4850
2026-01-05 21:42:56.54	42.55	11.64	-53.1	-55.2	14.0	0.00e+00	0	26	0	286261248	71	4848
2026-01-05 21:42:59.67	43.07	11.78	-53.2	-55.4	13.9	0.00e+00	0	27	0	291504128	71	4948
2026-01-05 21:43:02.50	43.55	11.91	-53.4	-55.6	13.8	0.00e+00	0	27	0	297795584	71	5066
2026-01-05 21:43:05.63	44.08	12.04	-53.6	-55.9	13.8	0.00e+00	0	26	0	303038464	72	4932
2026-01-05 21:43:08.48	44.56	12.16	-53.5	-55.8	13.8	0.00e+00	0	27	0	308281344	72	4910
2026-01-05 21:43:11.62	45.11	12.30	-53.5	-55.8	13.8	0.00e+00	0	27	0	314572800	72	4884
2026-01-05 21:43:14.46	45.60	12.42	-53.6	-55.9	13.8	0.00e+00	0	27	0	319815680	72	4960
2026-01-05 21:43:17.59	46.15	12.55	-53.8	-56.2	13.6	0.00e+00	0	26	0	326107136	72	5110
2026-01-05 21:43:20.43	46.65	12.66	-54.0	-56.4	13.6	0.00e+00	0	27	0	331350016	73	4965
2026-01-05 21:43:23.57	47.21	12.79	-53.8	-56.2	13.7	0.00e+00	0	27	0	336592896	73	4841
2026-01-05 21:43:26.43	47.72	12.90	-53.6	-55.9	13.9	0.00e+00	0	26	0	341835776	73	4675
2026-01-05 21:43:29.56	48.28	13.03	-53.8	-56.1	13.8	0.00e+00	0	27	0	348127232	73	4784
2026-01-05 21:43:32.41	48.80	13.14	-54.1	-56.6	13.5	0.00e+00	0	27	0	353370112	73	5093
2026-01-05 21:43:35.55	49.38	13.26	-54.2	-56.8	13.4	0.00e+00	0	26	0	359661568	73	5189
2026-01-05 21:43:38.41	49.91	13.37	-54.1	-56.6	13.5	0.00e+00	0	27	0	364904448	73	5069
2026-01-05 21:43:41.56	50.50	13.48	-53.8	-56.1	13.8	0.00e+00	0	26	0	370147328	73	4791
2026-01-05 21:43:44.42	51.03	13.59	-53.8	-56.1	13.8	0.00e+00	0	26	0	376438784	73	4798
2026-01-05 21:43:47.55	51.62	13.70	-53.9	-56.3	13.7	0.00e+00	0	26	0	381681664	73	4892
2026-01-05 21:43:50.41	52.17	13.80	-53.9	-56.2	13.8	0.00e+00	0	27	0	386924544	73	4861
2026-01-05 21:43:53.54	52.77	13.90	-53.7	-55.9	13.9	0.00e+00	0	26	0	393216000	73	4699
2026-01-05 21:43:56.39	53.32	14.00	-53.5	-55.6	14.1	0.00e+00	0	27	0	398458880	73	4545
2026-01-05 21:43:59.51	53.92	14.10	-53.1	-55.1	14.2	0.00e+00	0	26	0	404750336	72	4526
2026-01-05 21:44:02.36	54.48	14.19	-52.8	-54.8	14.4	0.00e+00	0	27	0	409993216	72	4346
2026-01-05 21:44:05.48	55.09	14.29	-52.8	-54.7	14.4	0.00e+00	0	26	0	415236096	72	4326
2026-01-05 21:44:08.34	55.66	14.38	-52.9	-54.9	14.2	0.00e+00	0	27	0	420478976	71	4669
2026-01-05 21:44:11.47	56.28	14.47	-52.8	-54.8	14.3	0.00e+00	0	26	0	426770432	71	4642
2026-01-05 21:44:14.30	56.85	14.55	-52.8	-54.8	14.2	0.00e+00	0	27	0	432013312	71	4638
2026-01-05 21:44:17.42	57.47	14.64	-52.6	-54.5	14.4	0.00e+00	0	26	0	438304768	71	4468
2026-01-05 21:44:20.28	58.05	14.71	-52.8	-54.7	14.3	0.00e+00	0	26	0	443547648	71	4587
2026-01-05 21:44:23.42	58.69	14.79	-53.2	-55.3	14.0	0.00e+00	0	27	0	448790528	71	4874
2026-01-05 21:44:26.26	59.27	14.86	-53.5	-55.7	13.9	0.00e+00	0	27	0	454033408	72	4846
2026-01-05 21:44:29.37	59.91	14.94	-53.4	-55.6	14.0	0.00e+00	0	27	0	460324864	72	4809
2026-01-05 21:44:32.22	60.50	15.01	-53.4	-55.5	14.0	0.00e+00	0	27	0	465567744	72	4747
2026-01-05 21:44:35.33	61.14	15.07	-53.4	-55.5	14.0	0.00e+00	0	27	0	471859200	72	4734
2026-01-05 21:44:38.18	61.74	15.13	-53.5	-55.8	13.8	0.00e+00	0	27	0	477102080	72	4884
2026-01-05 21:44:41.30	62.39	15.20	-53.5	-55.8	13.9	0.00e+00	0	26	0	482344960	72	4887
2026-01-05 21:44:44.14	62.98	15.25	-53.3	-55.5	14.0	0.00e+00	0	27	0	487587840	72	4728
2026-01-05 21:44:47.26	63.64	15.31	-53.2	-55.3	14.1	0.00e+00	0	27	0	493879296	72	4642
2026-01-05 21:44:50.12	64.24	15.36	-53.2	-55.3	14.1	0.00e+00	0	27	0	499122176	72	4601
2026-01-05 21:44:53.26	64.91	15.41	-53.1	-55.2	14.2	0.00e+00	0	26	0	505413632	72	4567
2026-01-05 21:44:56.11	65.51	15.45	-53.1	-55.1	14.2	0.00e+00	0	26	0	510656512	72	4537
2026-01-05 21:44:59.26	66.19	15.49	-52.9	-54.9	14.3	0.00e+00	0	27	0	515899392	72	4423
2026-01-05 21:45:02.11	66.80	15.53	-53.0	-55.0	14.3	0.00e+00	0	27	0	521142272	72	4461
2026-01-05 21:45:05.27	67.47	15.57	-53.1	-55.1	14.2	0.00e+00	0	27	0	527433728	72	4544
2026-01-05 21:45:08.13	68.09	15.60	-53.2	-55.2	14.1	0.00e+00	0	27	0	532676608	72	4595
2026-01-05 21:45:11.28	68.76	15.63	-53.1	-55.1	14.3	0.00e+00	0	27	0	538968064	72	4514
2026-01-05 21:45:14.14	69.38	15.65	-52.9	-54.9	14.4	0.00e+00	0	27	0	544210944	72	4393
2026-01-05 21:45:17.30	70.06	15.67	-52.9	-54.9	14.3	0.00e+00	0	27	0	550502400	72	4431
2026-01-05 21:45:20.16	70.68	15.69	-52.9	-54.9	14.3	0.00e+00	0	27	0	555745280	72	4418
2026-01-05 21:45:23.28	71.36	15.71	-53.0	-55.1	14.2	0.00e+00	0	27	0	560988160	72	4496
2026-01-05 21:45:26.15	71.98	15.72	-53.0	-55.1	14.2	0.00e+00	0	27	0	566231040	72	4513
2026-01-05 21:45:29.28	72.66	15.73	-52.4	-54.3	14.5	0.00e+00	0	27	0	572522496	71	4369
2026-01-05 21:45:32.13	73.27	15.73	-52.5	-54.4	14.4	0.00e+00	0	27	0	577765376	71	4394
2026-01-05 21:45:35.26	73.95	15.73	-52.6	-54.5	14.4	0.00e+00	0	27	0	584056832	71	4452
2026-01-05 21:45:38.11	74.57	15.73	-52.7	-54.7	14.3	0.00e+00	0	26	0	589299712	71	4555
2026-01-05 21:45:41.25	75.25	15.72	-52.8	-54.8	14.3	0.00e+00	0	27	0	594542592	71	4600
2026-01-05 21:45:44.10	75.87	15.71	-52.6	-54.5	14.4	0.00e+00	0	27	0	599785472	71	4466
2026-01-05 21:45:47.22	76.55	15.70	-52.6	-54.5	14.4	0.00e+00	0	27	0	606076928	71	4455
2026-01-05 21:45:50.08	77.17	15.68	-52.5	-54.3	14.5	0.00e+00	0	27	0	611319808	71	4379
2026-01-05 21:45:53.22	77.84	15.66	-52.6	-54.4	14.4	0.00e+00	0	27	0	617611264	71	4439
2026-01-05 21:45:56.07	78.46	15.64	-52.8	-54.7	14.3	0.00e+00	0	27	0	622854144	71	4587
2026-01-05 21:45:59.20	79.13	15.61	-52.7	-54.6	14.3	0.00e+00	0	27	0	628097024	71	4532
2026-01-05 21:46:02.05	79.75	15.58	-52.5	-54.4	14.4	0.00e+00	0	27	0	634388480	71	4395
2026-01-05 21:46:05.21	80.43	15.55	-52.5	-54.5	14.4	0.00e+00	0	27	0	639631360	71	4442
2026-01-05 21:46:08.06	81.04	15.52	-52.4	-54.3	14.5	0.00e+00	0	27	0	644874240	71	4367
2026-01-05 21:46:11.20	81.71	15.47	-52.4	-54.2	14.5	0.00e+00	0	27	0	651165696	71	4328
2026-01-05 21:46:14.06	82.32	15.43	-52.1	-53.9	14.5	0.00e+00	0	27	0	656408576	70	4431
2026-01-05 21:46:17.20	82.98	15.38	-52.4	-54.2	14.4	0.00e+00	0	27	0	662700032	70	4576
2026-01-05 21:46:20.05	83.59	15.34	-52.5	-54.4	14.3	0.00e+00	0	27	0	667942912	70	4658
2026-01-05 21:46:23.19	84.25	15.28	-52.4	-54.2	14.4	0.00e+00	0	27	0	673185792	70	4592
2026-01-05 21:46:26.06	84.86	15.23	-52.2	-54.0	14.5	0.00e+00	0	26	0	679477248	70	4479
2026-01-05 21:46:29.20	85.51	15.17	-52.0	-53.7	14.6	0.00e+00	0	27	0	684720128	70	4340
2026-01-05 21:46:32.06	86.11	15.11	-52.1	-53.9	14.5	0.00e+00	0	26	0	689963008	70	4418
2026-01-05 21:46:35.20	86.76	15.04	-52.3	-54.1	14.4	0.00e+00	0	27	0	696254464	70	4543
2026-01-05 21:46:38.07	87.36	14.97	-52.0	-53.8	14.6	0.00e+00	0	26	0	701497344	70	4344
2026-01-05 21:46:41.20	88.00	14.90	-51.7	-53.4	14.7	0.00e+00	0	26	0	707788800	70	4171
2026-01-05 21:46:44.05	88.59	14.83	-51.4	-53.1	14.8	0.00e+00	0	27	0	713031680	69	4251
2026-01-05 21:46:47.18	89.23	14.75	-51.5	-53.2	14.7	0.00e+00	0	27	0	718274560	69	4325
2026-01-05 21:46:50.02	89.81	14.67	-51.7	-53.4	14.6	0.00e+00	0	27	0	723517440	69	4411
2026-01-05 21:46:53.16	90.44	14.59	-51.9	-53.7	14.5	0.00e+00	0	27	0	729808896	69	4564
2026-01-05 21:46:56.01	91.01	14.51	-52.0	-53.8	14.5	0.00e+00	0	26	0	735051776	69	4601
2026-01-05 21:46:59.15	91.64	14.42	-51.6	-53.3	14.7	0.00e+00	0	27	0	741343232	69	4367
2026-01-05 21:47:02.01	92.21	14.33	-51.5	-53.2	14.7	0.00e+00	0	27	0	746586112	69	4309
2026-01-05 21:47:05.13	92.83	14.23	-51.5	-53.2	14.7	0.00e+00	0	27	0	751828992	69	4309
2026-01-05 21:47:07.97	93.38	14.14	-51.8	-53.6	14.5	0.00e+00	0	27	0	757071872	69	4523
2026-01-05 21:47:11.11	94.00	14.04	-52.1	-54.0	14.4	0.00e+00	0	27	0	763363328	69	4723
2026-01-05 21:47:13.96	94.55	13.95	-52.3	-54.2	14.3	0.00e+00	0	27	0	768606208	69	4819
2026-01-05 21:47:17.08	95.15	13.84	-52.2	-54.1	14.3	0.00e+00	0	27	0	774897664	69	4770
2026-01-05 21:47:19.94	95.70	13.74	-52.4	-54.3	14.2	0.00e+00	0	27	0	780140544	69	4881
2026-01-05 21:47:23.08	96.30	13.63	-52.3	-54.2	14.3	0.00e+00	0	27	0	785383424	69	4816
2026-01-05 21:47:25.93	96.83	13.53	-52.5	-54.4	14.3	0.00e+00	0	27	0	791674880	70	4673
2026-01-05 21:47:29.06	97.42	13.41	-52.9	-55.0	14.0	0.00e+00	0	27	0	796917760	70	4997
2026-01-05 21:47:31.92	97.95	13.31	-53.6	-55.9	13.8	0.00e+00	0	26	0	802160640	72	4949
2026-01-05 21:47:35.05	98.53	13.19	-54.0	-56.5	13.6	0.00e+00	0	26	0	808452096	73	4995
2026-01-05 21:47:37.90	99.05	13.08	-54.1	-56.6	13.5	0.00e+00	0	27	0	813694976	73	5072
2026-01-05 21:47:41.04	99.62	12.95	-54.3	-57.0	13.3	0.00e+00	0	27	0	819986432	73	5287
2026-01-05 21:47:43.88	100.14	12.84	-54.0	-56.6	13.5	0.00e+00	0	27	0	825229312	73	5044
2026-01-05 21:47:47.02	100.70	12.71	-53.6	-56.0	13.9	0.00e+00	0	26	0	830472192	73	4707
2026-01-05 21:47:49.87	101.21	12.60	-53.5	-55.8	13.9	0.00e+00	0	26	0	835715072	73	4628
2026-01-05 21:47:53.01	101.76	12.47	-53.8	-56.2	13.7	0.00e+00	0	27	0	842006528	73	4842
2026-01-05 21:47:55.86	102.26	12.35	-54.2	-56.8	13.4	0.00e+00	0	27	0	847249408	73	5168
2026-01-05 21:47:59.00	102.80	12.21	-54.4	-57.1	13.2	0.00e+00	0	26	0	853540864	73	5345
2026-01-05 21:48:01.85	103.29	12.09	-54.1	-56.6	13.5	0.00e+00	0	27	0	858783744	73	5060
2026-01-05 21:48:04.99	103.83	11.95	-53.8	-56.1	13.8	0.00e+00	0	27	0	864026624	73	4801
2026-01-05 21:48:07.84	104.31	11.83	-53.9	-56.4	13.6	0.00e+00	0	27	0	870318080	73	4927
2026-01-05 21:48:10.98	104.84	11.69	-53.6	-55.9	13.9	0.00e+00	0	27	0	875560960	73	4672
2026-01-05 21:48:13.82	105.31	11.56	-53.3	-55.5	14.1	0.00e+00	0	27	0	880803840	73	4470
2026-01-05 21:48:16.94	105.82	11.42	-53.0	-55.1	14.2	0.00e+00	0	26	0	887095296	72	4506
2026-01-05 21:48:19.79	106.29	11.29	-53.3	-55.5	14.0	0.00e+00	0	27	0	892338176	72	4733
2026-01-05 21:48:22.92	106.79	11.15	-53.6	-55.9	13.8	0.00e+00	0	27	0	898629632	72	4933
2026-01-05 21:48:25.78	107.25	11.02	-53.6	-55.9	13.8	0.00e+00	0	27	0	903872512	72	4928
2026-01-05 21:48:28.92	107.75	10.87	-53.6	-55.8	13.8	0.00e+00	0	27	0	909115392	72	4923
2026-01-05 21:48:31.78	108.20	10.74	-53.4	-55.7	13.9	0.00e+00	0	27	0	914358272	72	4842
2026-01-05 21:48:34.92	108.69	10.59	-52.6	-54.6	14.3	0.00e+00	0	27	0	920649728	71	4518
2026-01-05 21:48:37.78	109.13	10.45	-52.6	-54.5	14.3	0.00e+00	0	27	0	925892608	71	4485
2026-01-05 21:48:40.92	109.61	10.30	-52.9	-54.9	14.1	0.00e+00	0	27	0	932184064	71	4699
2026-01-05 21:48:43.77	110.04	10.17	-53.1	-55.2	14.0	0.00e+00	0	27	0	937426944	71	4870
2026-01-05 21:48:46.91	110.52	10.01	-53.0	-55.1	14.0	0.00e+00	0	27	0	942669824	71	4777
2026-01-05 21:48:49.75	110.94	9.88	-52.9	-54.9	14.1	0.00e+00	0	27	0	947912704	71	4694
2026-01-05 21:48:52.89	111.40	9.72	-53.0	-55.2	14.0	0.00e+00	0	27	0	954204160	71	4817
2026-01-05 21:48:55.74	111.82	9.59	-53.0	-55.2	14.0	0.00e+00	0	27	0	959447040	71	4823
2026-01-05 21:48:58.88	112.27	9.43	-52.9	-55.1	14.0	0.00e+00	0	27	0	965738496	71	4767
2026-01-05 21:49:01.73	112.68	9.29	-52.8	-54.9	14.1	0.00e+00	0	27	0	970981376	71	4681
2026-01-05 21:49:04.85	113.12	9.14	-52.9	-55.0	14.0	0.00e+00	0	26	0	976224256	71	4755
2026-01-05 21:49:07.69	113.52	9.00	-53.1	-55.3	13.9	0.00e+00	0	27	0	982515712	71	4912
2026-01-05 21:49:10.83	113.95	8.84	-52.9	-55.1	14.0	0.00e+00	0	27	0	987758592	71	4769
2026-01-05 21:49:13.68	114.35	8.70	-52.8	-55.0	14.1	0.00e+00	0	27	0	993001472	71	4714
2026-01-05 21:49:16.82	114.78	8.54	-52.9	-55.0	14.0	0.00e+00	0	27	0	999292928	71	4754
2026-01-05 21:49:19.67	115.16	8.40	-53.3	-55.7	13.7	0.00e+00	0	26	0	1004535808	71	5120
2026-01-05 21:49:22.81	115.58	8.24	-53.3	-55.7	13.7	0.00e+00	0	27	0	1010827264	71	5105
2026-01-05 21:49:25.65	115.96	8.10	-52.9	-55.1	14.0	0.00e+00	0	27	0	1016070144	71	4798
2026-01-05 21:49:28.78	116.37	7.94	-53.0	-55.2	13.9	0.00e+00	0	27	0	1021313024	71	4858
2026-01-05 21:49:31.64	116.74	7.80	-53.1	-55.5	13.7	0.00e+00	0	27	0	1026555904	71	4989
2026-01-05 21:49:34.78	117.14	7.64	-53.4	-55.8	13.6	0.00e+00	0	27	0	1032847360	71	5199
2026-01-05 21:49:37.63	117.50	7.50	-53.5	-56.0	13.5	0.00e+00	0	27	0	1038090240	72	4998
2026-01-05 21:49:40.78	117.90	7.34	-53.4	-55.8	13.6	0.00e+00	0	26	0	1044381696	72	4893
2026-01-05 21:49:43.63	118.25	7.19	-53.4	-55.8	13.6	0.00e+00	0	27	0	1049624576	72	4924
2026-01-05 21:49:46.77	118.64	7.03	-53.6	-56.3	13.4	0.00e+00	0	27	0	1054867456	72	5168
2026-01-05 21:49:49.63	118.99	6.89	-53.7	-56.4	13.3	0.00e+00	0	27	0	1061158912	72	5222
2026-01-05 21:49:52.77	119.37	6.73	-53.7	-56.4	13.3	0.00e+00	0	27	0	1066401792	72	5231
2026-01-05 21:49:55.61	119.71	6.59	-53.7	-56.4	13.2	0.00e+00	0	27	0	1071644672	72	5263
2026-01-05 21:49:58.74	120.08	6.43	-53.9	-56.6	13.1	0.00e+00	0	27	0	1077936128	72	5385
2026-01-05 21:50:01.59	120.42	6.28	-54.0	-56.9	13.0	0.00e+00	0	27	0	1083179008	73	5233
2026-01-05 21:50:04.73	120.78	6.12	-54.1	-57.1	12.9	0.00e+00	0	27	0	1089470464	73	5364
2026-01-05 21:50:07.57	121.11	5.98	-54.0	-56.9	13.0	0.00e+00	0	27	0	1094713344	73	5245
2026-01-05 21:50:10.69	121.46	5.82	-53.8	-56.6	13.2	0.00e+00	0	27	0	1099956224	73	5064
2026-01-05 21:50:13.55	121.79	5.68	-53.7	-56.4	13.2	0.00e+00	0	27	0	1105199104	73	4972
2026-01-05 21:50:16.68	122.14	5.52	-53.9	-56.9	13.0	0.00e+00	0	27	0	1111490560	73	5224
2026-01-05 21:50:19.53	122.45	5.37	-54.2	-57.3	12.7	7.00e-07	0	27	0	1116733440	73	5523
2026-01-05 21:50:22.65	122.79	5.22	-54.1	-57.3	12.7	0.00e+00	0	27	0	1123024896	73	5473
2026-01-05 21:50:25.51	123.10	5.07	-54.2	-57.4	12.5	0.00e+00	0	27	0	1128267776	73	5592
2026-01-05 21:50:28.65	123.44	4.91	-58.7	-74.7	3.8	1.49e+00	0	27	104	1130364928	82	24202
2026-01-05 21:50:31.51	123.74	4.77	-59.3	-75.4	3.8	1.49e+00	0	27	104	1130364928	83	24701
2026-01-05 21:50:34.64	124.07	4.61	-59.8	-75.9	3.8	1.49e+00	0	27	104	1130364928	84	24751
2026-01-05 21:50:37.49	124.37	4.47	-60.0	-76.1	3.8	1.49e+00	0	27	104	1130364928	85	23978
2026-01-05 21:50:40.64	124.70	4.31	-60.2	-76.3	3.8	1.49e+00	0	27	104	1130364928	85	24506
2026-01-05 21:50:43.49	124.99	4.17	-60.4	-76.5	3.8	1.49e+00	0	27	104	1130364928	85	25012
2026-01-05 21:50:46.62	125.30	4.01	-60.5	-76.6	3.8	1.49e+00	0	27	104	1130364928	86	23933
2026-01-05 21:50:49.48	125.59	3.87	-60.6	-76.6	3.8	1.49e+00	0	27	104	1130364928	86	24070
2026-01-05 21:50:52.62	125.90	3.71	-60.6	-76.7	3.8	1.49e+00	0	27	104	1130364928	86	24189
2026-01-05 21:50:55.46	126.18	3.57	-60.6	-76.7	3.8	1.49e+00	0	27	104	1130364928	86	24137
2026-01-05 21:50:58.60	126.49	3.41	-60.5	-76.6	3.8	1.49e+00	0	27	104	1130364928	86	23972
2026-01-05 21:51:01.44	126.76	3.27	-60.5	-76.6	3.8	1.49e+00	0	27	104	1130364928	86	24003
2026-01-05 21:51:04.59	127.06	3.11	-60.5	-76.6	3.8	1.49e+00	0	27	104	1130364928	86	23905
2026-01-05 21:51:07.45	127.33	2.97	-60.5	-76.6	3.8	1.49e+00	0	27	104	1130364928	86	23884
2026-01-05 21:51:10.59	127.63	2.81	-60.4	-76.5	3.8	1.49e+00	0	27	104	1130364928	86	23755
2026-01-05 21:51:13.43	127.89	2.67	-60.4	-76.5	3.8	1.49e+00	0	27	104	1130364928	86	23717
2026-01-05 21:51:16.55	128.18	2.52	-60.4	-76.5	3.8	1.49e+00	0	27	104	1130364928	86	23649
2026-01-05 21:51:19.41	128.44	2.38	-60.4	-76.5	3.8	1.49e+00	0	27	104	1130364928	86	23593
2026-01-05 21:51:22.53	128.72	2.22	-60.4	-76.5	3.8	1.49e+00	0	27	104	1130364928	86	23628
2026-01-05 21:51:25.38	128.97	2.08	-60.4	-76.5	3.8	1.49e+00	0	27	104	1130364928	86	23683
2026-01-05 21:51:28.52	129.25	1.93	-60.4	-76.5	3.8	1.49e+00	0	27	104	1130364928	86	23583

#Closed at: 2026-01-05 21:51:29
#Recorded file [1130 MB]: D:/lorett/data/31004_260106_003941.dat