passes_logs/2026/01/05/R3.2S_Murmansk/R3.2S_Murmansk__20260105_065910_FENGYUN_3D_rec.log

#Pass ID: 20260105_065910_FENGYUN 3D
#Satellite: FENGYUN 3D
#Configuration: FENGYUN 3D
#almurnet v.1.7.20251203
#Start time: 2026-01-05 06:59:12

#Version: 2.2.20231116
#Station: R3.2S_Murmansk
#Location: 33.079688 lon 68.888172 lat
#TLE: 1 43010U 17072A   26004.50247883 -.00000063  00000+0 -78815-5 0  9998
#TLE: 2 43010  98.9915 336.1565 0001968 126.3752 233.7605 14.19691805421760

#Time	Az	El	Level	Level2	SNR	BER	BlckErr	Temp	State	Recorded	gain1	gain2
2026-01-05 06:59:12.24	59.44	2.09	-58.1	-71.1	3.8	8.45e-01	0	25	0	0	82	15977
2026-01-05 06:59:16.23	59.18	2.32	-58.1	-71.0	3.8	8.46e-01	0	25	104	0	81	16873
2026-01-05 06:59:20.22	58.93	2.55	-58.1	-71.0	3.8	8.45e-01	0	26	104	0	81	16796
2026-01-05 06:59:24.19	58.67	2.78	-58.1	-71.0	3.8	8.45e-01	0	26	104	0	81	16813
2026-01-05 06:59:28.18	58.40	3.01	-58.1	-71.0	3.8	8.46e-01	0	26	104	0	81	16822
2026-01-05 06:59:32.18	58.13	3.25	-58.1	-71.1	3.8	8.46e-01	0	26	104	0	81	16984
2026-01-05 06:59:36.17	57.85	3.48	-58.1	-70.9	3.8	8.46e-01	0	26	104	0	81	16521
2026-01-05 06:59:40.18	57.57	3.72	-58.1	-71.0	3.8	8.46e-01	0	26	104	0	81	16823
2026-01-05 06:59:44.15	57.29	3.96	-58.1	-70.9	3.8	8.44e-01	0	26	104	0	81	16597
2026-01-05 06:59:48.14	57.00	4.19	-58.1	-71.0	3.8	8.45e-01	0	26	104	0	81	16798
2026-01-05 06:59:52.13	56.71	4.43	-57.9	-68.7	3.8	8.45e-01	0	26	104	0	81	12903
2026-01-05 06:59:56.13	56.41	4.68	-57.3	-64.4	5.5	6.75e-01	0	27	0	0	81	7877
2026-01-05 07:00:00.11	56.10	4.92	-55.5	-59.4	9.5	7.88e-03	0	27	0	23068672	77	5553
2026-01-05 07:00:04.12	55.79	5.17	-56.8	-62.4	6.9	6.54e-02	0	27	0	45088768	78	7429
2026-01-05 07:00:08.10	55.48	5.41	-50.4	-52.0	13.9	0.00e+00	0	27	0	67108864	67	4198
2026-01-05 07:00:12.08	55.16	5.66	-49.5	-51.0	14.2	0.00e+00	0	27	0	90177536	65	4201
2026-01-05 07:00:16.07	54.83	5.91	-49.6	-51.1	14.2	0.00e+00	0	27	0	112197632	65	4267
2026-01-05 07:00:20.07	54.50	6.16	-49.5	-51.0	14.2	0.00e+00	0	27	0	135266304	65	4217
2026-01-05 07:00:24.07	54.16	6.41	-49.6	-51.1	14.2	0.00e+00	0	27	0	157286400	65	4253
2026-01-05 07:00:28.06	53.81	6.66	-49.5	-50.9	14.3	0.00e+00	0	27	0	179306496	65	4181
2026-01-05 07:00:32.06	53.46	6.92	-49.7	-51.1	14.2	0.00e+00	0	27	0	202375168	65	4276
2026-01-05 07:00:36.06	53.10	7.18	-49.5	-50.9	14.3	0.00e+00	0	27	0	224395264	65	4174
2026-01-05 07:00:40.06	52.74	7.43	-49.4	-50.8	14.4	0.00e+00	0	27	0	247463936	65	4113
2026-01-05 07:00:44.07	52.37	7.70	-49.3	-50.6	14.5	0.00e+00	0	27	0	269484032	65	4040
2026-01-05 07:00:48.07	51.99	7.96	-49.1	-50.4	14.4	0.00e+00	0	27	0	292552704	64	4177
2026-01-05 07:00:52.07	51.60	8.22	-48.9	-50.2	14.5	0.00e+00	0	27	0	314572800	64	4086
2026-01-05 07:00:56.08	51.21	8.49	-48.8	-50.1	14.6	0.00e+00	0	27	0	337641472	64	4019
2026-01-05 07:01:00.09	50.81	8.75	-48.9	-50.2	14.6	0.00e+00	0	27	0	359661568	64	4081
2026-01-05 07:01:04.06	50.40	9.02	-48.9	-50.2	14.5	0.00e+00	0	27	0	382730240	63	4311
2026-01-05 07:01:08.03	49.99	9.28	-48.7	-50.0	14.6	0.00e+00	0	27	0	404750336	63	4223
2026-01-05 07:01:12.02	49.57	9.55	-48.7	-49.9	14.6	0.00e+00	0	27	0	426770432	63	4192
2026-01-05 07:01:15.99	49.14	9.82	-48.8	-50.1	14.5	0.00e+00	0	27	0	449839104	63	4275
2026-01-05 07:01:19.95	48.70	10.09	-48.7	-50.0	14.6	0.00e+00	0	27	0	471859200	63	4225
2026-01-05 07:01:23.94	48.25	10.37	-48.5	-49.8	14.7	0.00e+00	0	27	0	493879296	63	4129
2026-01-05 07:01:27.92	47.80	10.64	-48.4	-49.6	14.7	0.00e+00	0	27	0	516947968	63	4034
2026-01-05 07:01:31.90	47.33	10.92	-48.3	-49.6	14.8	0.00e+00	0	27	0	538968064	63	4022
2026-01-05 07:01:35.87	46.86	11.19	-48.2	-49.5	14.7	0.00e+00	0	27	0	560988160	62	4202
2026-01-05 07:01:39.84	46.38	11.47	-48.1	-49.3	14.7	0.00e+00	0	27	0	584056832	62	4128
2026-01-05 07:01:43.82	45.89	11.75	-48.0	-49.3	14.8	0.00e+00	0	27	0	606076928	62	4101
2026-01-05 07:01:47.81	45.38	12.03	-47.9	-49.1	14.8	0.00e+00	0	27	0	628097024	62	4027
2026-01-05 07:01:51.80	44.87	12.31	-48.0	-49.2	14.8	0.00e+00	0	27	0	651165696	62	4080
2026-01-05 07:01:55.81	44.35	12.59	-47.8	-49.1	14.9	0.00e+00	0	27	0	673185792	62	4005
2026-01-05 07:01:59.80	43.81	12.88	-47.9	-49.1	14.9	0.00e+00	0	27	0	696254464	62	4011
2026-01-05 07:02:03.79	43.27	13.16	-47.6	-48.7	14.9	0.00e+00	0	27	0	718274560	61	4096
2026-01-05 07:02:07.78	42.71	13.45	-47.4	-48.6	14.9	0.00e+00	0	27	0	740294656	61	4035
2026-01-05 07:02:11.77	42.15	13.73	-47.4	-48.5	14.9	0.00e+00	0	27	0	763363328	61	3996
2026-01-05 07:02:15.77	41.57	14.02	-47.3	-48.5	15.0	0.00e+00	0	27	0	785383424	61	3965
2026-01-05 07:02:19.75	40.98	14.30	-47.4	-48.6	14.9	0.00e+00	0	27	0	808452096	61	4010
2026-01-05 07:02:23.73	40.38	14.59	-47.3	-48.4	15.0	0.00e+00	0	28	0	830472192	61	3941
2026-01-05 07:02:27.72	39.77	14.87	-47.0	-48.1	15.0	0.00e+00	0	28	0	852492288	60	4039
2026-01-05 07:02:31.70	39.15	15.16	-46.9	-48.0	15.0	0.00e+00	0	27	0	875560960	60	3994
2026-01-05 07:02:35.66	38.52	15.44	-47.0	-48.1	15.0	0.00e+00	0	28	0	897581056	60	4026
2026-01-05 07:02:39.63	37.87	15.73	-47.1	-48.3	14.9	0.00e+00	0	27	0	919601152	60	4101
2026-01-05 07:02:43.62	37.21	16.01	-47.0	-48.1	15.0	0.00e+00	0	27	0	942669824	60	4040
2026-01-05 07:02:47.62	36.53	16.30	-46.8	-48.0	15.1	0.00e+00	0	27	0	964689920	60	3964
2026-01-05 07:02:51.59	35.85	16.58	-46.9	-48.1	15.0	0.00e+00	0	28	0	987758592	60	4013
2026-01-05 07:02:55.56	35.15	16.86	-46.8	-48.0	15.0	0.00e+00	0	27	0	1009778688	60	3972
2026-01-05 07:02:59.54	34.44	17.15	-47.0	-48.2	14.9	0.00e+00	0	28	0	1031798784	59	4319
2026-01-05 07:03:03.51	33.71	17.42	-46.9	-48.1	14.9	0.00e+00	0	28	0	1053818880	59	4252
2026-01-05 07:03:07.49	32.97	17.70	-46.8	-47.9	15.0	0.00e+00	0	27	0	1076887552	59	4173
2026-01-05 07:03:11.47	32.22	17.98	-46.6	-47.7	15.1	0.00e+00	0	28	0	1098907648	59	4071
2026-01-05 07:03:15.43	31.45	18.25	-46.8	-47.9	15.0	0.00e+00	0	28	0	1120927744	59	4167
2026-01-05 07:03:19.40	30.67	18.52	-46.6	-47.7	15.0	0.00e+00	0	28	0	1143996416	59	4085
2026-01-05 07:03:23.39	29.88	18.79	-46.4	-47.5	15.1	0.00e+00	0	27	0	1166016512	59	3965
2026-01-05 07:03:27.35	29.07	19.06	-46.6	-47.7	15.1	0.00e+00	0	28	0	1188036608	59	4060
2026-01-05 07:03:31.32	28.25	19.32	-46.3	-47.4	15.2	0.00e+00	0	28	0	1211105280	59	3942
2026-01-05 07:03:35.28	27.41	19.57	-46.3	-47.4	15.2	0.00e+00	0	28	0	1233125376	59	3933
2026-01-05 07:03:39.27	26.56	19.83	-46.3	-47.5	15.1	0.00e+00	0	28	0	1255145472	59	3961
2026-01-05 07:03:43.26	25.69	20.08	-46.2	-47.2	15.1	0.00e+00	0	28	0	1278214144	58	4095
2026-01-05 07:03:47.25	24.80	20.33	-46.2	-47.3	15.1	0.00e+00	0	27	0	1300234240	58	4108
2026-01-05 07:03:51.25	23.90	20.57	-46.3	-47.4	15.0	0.00e+00	0	27	0	1323302912	58	4188
2026-01-05 07:03:55.26	22.98	20.81	-49.5	-50.8	14.4	0.00e+00	0	28	0	1345323008	64	4391
2026-01-05 07:03:59.25	22.06	21.04	-60.2	-73.3	3.8	8.46e-01	0	28	104	1349517312	85	17307
2026-01-05 07:04:03.21	21.12	21.26	-60.6	-73.6	3.8	8.45e-01	0	28	104	1349517312	86	16942
2026-01-05 07:04:07.19	20.17	21.48	-60.8	-73.9	3.8	8.46e-01	0	28	104	1349517312	86	17514
2026-01-05 07:04:11.16	19.21	21.69	-61.0	-74.0	3.9	8.46e-01	0	28	104	1349517312	87	16810
2026-01-05 07:04:15.14	18.23	21.89	-60.9	-74.0	3.8	8.44e-01	0	28	104	1349517312	87	16762
2026-01-05 07:04:19.13	17.23	22.09	-60.9	-73.9	3.8	8.46e-01	0	28	104	1349517312	87	16666
2026-01-05 07:04:23.13	16.23	22.28	-60.8	-73.9	3.8	8.44e-01	0	28	104	1349517312	87	16632
2026-01-05 07:04:27.10	15.21	22.46	-60.8	-73.9	3.8	8.46e-01	0	28	104	1349517312	87	16524
2026-01-05 07:04:31.08	14.18	22.63	-60.8	-73.9	3.8	8.47e-01	0	28	104	1349517312	87	16518
2026-01-05 07:04:35.05	13.15	22.79	-60.8	-73.8	3.8	8.46e-01	0	28	104	1349517312	87	16431
2026-01-05 07:04:39.06	12.09	22.95	-60.7	-73.8	3.8	8.47e-01	0	28	104	1349517312	87	16463
2026-01-05 07:04:43.05	11.03	23.09	-60.7	-73.8	3.8	8.46e-01	0	28	104	1349517312	87	16402
2026-01-05 07:04:47.06	9.95	23.23	-60.7	-73.8	3.8	8.46e-01	0	28	104	1349517312	87	16364
2026-01-05 07:04:51.06	8.86	23.35	-60.7	-73.7	3.8	8.45e-01	0	28	104	1349517312	87	16274
2026-01-05 07:04:55.05	7.77	23.46	-60.7	-73.7	3.8	8.46e-01	0	28	104	1349517312	87	16267
2026-01-05 07:04:59.05	6.67	23.57	-60.6	-73.7	3.8	8.46e-01	0	28	104	1349517312	87	16185
2026-01-05 07:05:03.05	5.57	23.66	-60.6	-73.7	3.8	8.45e-01	0	28	104	1349517312	87	16245
2026-01-05 07:05:07.05	4.45	23.74	-60.6	-73.7	3.8	8.45e-01	0	28	104	1349517312	87	16197
2026-01-05 07:05:11.04	3.34	23.81	-60.6	-73.7	3.8	8.45e-01	0	28	104	1349517312	87	16153
2026-01-05 07:05:15.01	2.22	23.86	-60.6	-73.7	3.8	8.46e-01	0	28	104	1349517312	87	16135
2026-01-05 07:05:19.01	1.10	23.91	-60.6	-73.7	3.8	8.46e-01	0	28	104	1349517312	87	16150
2026-01-05 07:05:22.98	359.98	23.94	-60.6	-73.7	3.8	8.46e-01	0	28	104	1349517312	87	16180
2026-01-05 07:05:26.98	358.84	23.96	-60.6	-73.7	3.9	8.45e-01	0	28	104	1349517312	87	16161
2026-01-05 07:05:30.97	357.71	23.97	-60.6	-73.6	3.8	8.44e-01	0	28	104	1349517312	87	16125
2026-01-05 07:05:34.95	356.59	23.97	-60.5	-73.6	3.8	8.46e-01	0	28	104	1349517312	87	16020
2026-01-05 07:05:38.93	355.46	23.95	-60.5	-73.6	3.8	8.46e-01	0	28	104	1349517312	87	16019
2026-01-05 07:05:42.93	354.33	23.92	-60.6	-73.6	3.8	8.45e-01	0	28	104	1349517312	87	16079
2026-01-05 07:05:46.92	353.21	23.89	-60.5	-73.6	3.8	8.45e-01	0	28	104	1349517312	87	16044
2026-01-05 07:05:50.90	352.09	23.83	-60.5	-73.6	3.8	8.46e-01	0	28	104	1349517312	87	15975
2026-01-05 07:05:54.87	350.97	23.77	-60.5	-73.6	3.8	8.46e-01	0	28	104	1349517312	87	15954
2026-01-05 07:05:58.85	349.86	23.70	-60.5	-73.6	3.8	8.46e-01	0	28	104	1349517312	87	16025
2026-01-05 07:06:02.83	348.76	23.61	-60.5	-73.6	3.8	8.44e-01	0	28	104	1349517312	87	15978
2026-01-05 07:06:06.84	347.65	23.51	-60.5	-73.6	3.8	8.47e-01	0	28	104	1349517312	87	16042
2026-01-05 07:06:10.84	346.56	23.41	-60.7	-73.8	3.8	8.45e-01	0	28	104	1349517312	87	16385
2026-01-05 07:06:14.84	345.47	23.29	-60.6	-73.7	3.8	8.45e-01	0	28	104	1349517312	87	16199
2026-01-05 07:06:18.85	344.38	23.16	-60.6	-73.7	3.8	8.45e-01	0	28	104	1349517312	87	16162
2026-01-05 07:06:22.83	343.32	23.02	-60.6	-73.6	3.8	8.46e-01	0	28	104	1349517312	87	16086
2026-01-05 07:06:26.82	342.26	22.87	-60.5	-73.6	3.8	8.46e-01	0	28	104	1349517312	87	16087
2026-01-05 07:06:30.81	341.21	22.71	-60.5	-73.6	3.8	8.46e-01	0	28	104	1349517312	87	16059
2026-01-05 07:06:34.78	340.18	22.54	-60.5	-73.6	3.8	8.46e-01	0	28	104	1349517312	87	16025
2026-01-05 07:06:38.77	339.16	22.37	-76.6	-90.7	3.9	8.45e-01	0	28	104	1349517312	99	57745
2026-01-05 07:06:42.78	338.14	22.18	-60.5	-73.5	3.8	8.46e-01	0	28	104	1349517312	87	15910
2026-01-05 07:06:46.76	337.14	21.99	-60.7	-73.7	3.8	8.45e-01	0	28	104	1349517312	87	16232
2026-01-05 07:06:50.76	336.15	21.79	-60.7	-73.8	3.8	8.45e-01	0	28	104	1349517312	87	16377
2026-01-05 07:06:54.75	335.18	21.58	-60.7	-73.8	3.8	8.45e-01	0	28	104	1349517312	87	16359
2026-01-05 07:06:58.75	334.21	21.36	-60.6	-73.7	3.8	8.46e-01	0	28	104	1349517312	87	16214
2026-01-05 07:07:02.73	333.27	21.14	-60.6	-73.6	3.8	8.46e-01	0	28	104	1349517312	87	16052
2026-01-05 07:07:06.72	332.33	20.91	-60.5	-73.6	3.8	8.44e-01	0	28	104	1349517312	87	16024
2026-01-05 07:07:10.70	331.42	20.68	-60.5	-73.6	3.8	8.46e-01	0	28	104	1349517312	87	15983
2026-01-05 07:07:14.66	330.52	20.44	-60.5	-73.5	3.8	8.45e-01	0	28	104	1349517312	87	15915
2026-01-05 07:07:18.65	329.62	20.20	-60.8	-73.9	3.8	8.45e-01	0	28	104	1349517312	87	16583
2026-01-05 07:07:22.64	328.75	19.95	-60.9	-73.9	3.8	8.46e-01	0	28	104	1349517312	87	16676
2026-01-05 07:07:26.64	327.88	19.69	-60.9	-73.9	3.9	8.44e-01	0	28	104	1349517312	87	16606
2026-01-05 07:07:30.64	327.03	19.44	-60.6	-73.6	3.8	8.46e-01	0	28	104	1349517312	87	16105
2026-01-05 07:07:34.62	326.20	19.18	-48.8	-50.0	14.8	0.00e+00	0	28	0	1352663040	63	4197
2026-01-05 07:07:38.59	325.38	18.91	-46.8	-47.9	15.2	0.00e+00	0	28	0	1374683136	60	3928
2026-01-05 07:07:42.56	324.58	18.65	-47.0	-48.1	15.0	0.00e+00	0	28	0	1397751808	59	4256
2026-01-05 07:07:46.55	323.79	18.37	-46.8	-47.9	15.0	0.00e+00	0	28	0	1419771904	59	4164
2026-01-05 07:07:50.53	323.02	18.10	-46.9	-48.0	15.0	0.00e+00	0	28	0	1442840576	59	4241
2026-01-05 07:07:54.50	322.26	17.83	-47.0	-48.1	15.0	0.00e+00	0	28	0	1464860672	59	4260
2026-01-05 07:07:58.47	321.51	17.55	-46.9	-48.0	15.0	0.00e+00	0	28	0	1486880768	59	4204
2026-01-05 07:08:02.47	320.78	17.27	-46.9	-48.0	15.0	0.00e+00	0	28	0	1509949440	59	4212
2026-01-05 07:08:06.45	320.06	16.99	-46.8	-47.9	15.0	0.00e+00	0	28	0	1531969536	59	4176
2026-01-05 07:08:10.43	319.35	16.71	-46.9	-48.0	15.0	0.00e+00	0	28	0	1553989632	59	4203
2026-01-05 07:08:14.41	318.66	16.42	-47.0	-48.1	15.0	0.00e+00	0	28	0	1576009728	59	4286
2026-01-05 07:08:18.41	317.98	16.14	-47.3	-48.5	14.9	0.00e+00	0	28	0	1599078400	59	4452
2026-01-05 07:08:22.39	317.31	15.85	-47.1	-48.2	15.0	0.00e+00	0	28	0	1621098496	60	4063
2026-01-05 07:08:26.40	316.65	15.57	-47.0	-48.1	15.0	0.00e+00	0	28	0	1644167168	60	4012
2026-01-05 07:08:30.41	316.01	15.28	-46.9	-48.0	15.1	0.00e+00	0	28	0	1666187264	60	3995
2026-01-05 07:08:34.41	315.38	14.99	-47.0	-48.1	15.0	0.00e+00	0	28	0	1689255936	60	4029
2026-01-05 07:08:38.41	314.76	14.70	-47.1	-48.2	15.0	0.00e+00	0	28	0	1711276032	60	4085
2026-01-05 07:08:42.43	314.15	14.42	-47.2	-48.4	14.9	0.00e+00	0	28	0	1734344704	60	4163
2026-01-05 07:08:46.45	313.55	14.13	-47.1	-48.3	14.9	0.00e+00	0	28	0	1756364800	60	4099
2026-01-05 07:08:50.42	312.97	13.84	-47.2	-48.4	14.9	0.00e+00	0	28	0	1779433472	60	4157
2026-01-05 07:08:54.39	312.40	13.56	-47.3	-48.4	14.9	0.00e+00	0	28	0	1801453568	60	4184
2026-01-05 07:08:58.39	311.84	13.27	-47.4	-48.5	14.8	0.00e+00	0	28	0	1823473664	60	4241
2026-01-05 07:09:02.38	311.29	12.99	-47.7	-48.9	14.7	0.00e+00	0	28	0	1846542336	60	4424
2026-01-05 07:09:06.37	310.75	12.70	-47.5	-48.7	14.8	0.00e+00	0	28	0	1868562432	60	4297
2026-01-05 07:09:10.36	310.23	12.42	-47.7	-48.9	14.7	0.00e+00	0	28	0	1891631104	60	4400
2026-01-05 07:09:14.36	309.71	12.14	-47.7	-48.9	14.7	0.00e+00	0	28	0	1913651200	60	4399
2026-01-05 07:09:18.34	309.20	11.86	-47.8	-49.0	14.7	0.00e+00	0	28	0	1935671296	60	4442
2026-01-05 07:09:22.33	308.70	11.58	-47.8	-49.0	14.8	0.00e+00	0	28	0	1958739968	61	4235
2026-01-05 07:09:26.31	308.22	11.30	-47.8	-49.0	14.8	0.00e+00	0	28	0	1980760064	61	4208
2026-01-05 07:09:30.28	307.74	11.02	-47.9	-49.1	14.7	0.00e+00	0	28	0	2003828736	61	4277
2026-01-05 07:09:34.25	307.27	10.75	-48.2	-49.4	14.6	0.00e+00	0	28	0	2025848832	61	4431
2026-01-05 07:09:38.24	306.81	10.47	-48.3	-49.6	14.6	0.00e+00	0	28	0	2047868928	61	4502
2026-01-05 07:09:42.21	306.36	10.20	-48.3	-49.6	14.7	0.00e+00	0	28	0	2069889024	62	4251
2026-01-05 07:09:46.21	305.92	9.93	-48.3	-49.5	14.7	0.00e+00	0	28	0	2092957696	62	4230
2026-01-05 07:09:50.21	305.48	9.65	-48.3	-49.5	14.7	0.00e+00	0	28	0	2114977792	62	4217
2026-01-05 07:09:54.19	305.06	9.38	-48.3	-49.5	14.6	0.00e+00	0	28	0	2138046464	62	4234
2026-01-05 07:09:58.18	304.64	9.11	-48.6	-49.9	14.5	0.00e+00	0	28	0	2160066560	62	4423
2026-01-05 07:10:02.17	304.23	8.85	-48.6	-49.9	14.5	0.00e+00	0	28	0	2182086656	62	4418
2026-01-05 07:10:06.17	303.82	8.58	-48.6	-49.9	14.5	0.00e+00	0	28	0	2205155328	62	4419
2026-01-05 07:10:10.16	303.43	8.32	-48.7	-50.0	14.5	0.00e+00	0	28	0	2227175424	62	4458
2026-01-05 07:10:14.15	303.04	8.05	-48.8	-50.1	14.4	0.00e+00	0	28	0	2250244096	62	4545
2026-01-05 07:10:18.15	302.66	7.79	-48.7	-50.0	14.4	0.00e+00	0	28	0	2272264192	62	4450
2026-01-05 07:10:22.14	302.29	7.53	-48.8	-50.2	14.4	0.00e+00	0	28	0	2295332864	62	4547
2026-01-05 07:10:26.12	301.92	7.27	-49.0	-50.4	14.3	0.00e+00	0	28	0	2317352960	63	4425
2026-01-05 07:10:30.10	301.56	7.02	-49.1	-50.5	14.3	0.00e+00	0	28	0	2339373056	63	4469
2026-01-05 07:10:34.09	301.21	6.76	-49.1	-50.5	14.3	0.00e+00	0	28	0	2362441728	63	4453
2026-01-05 07:10:38.07	300.86	6.51	-49.2	-50.6	14.2	0.00e+00	0	28	0	2384461824	63	4528
2026-01-05 07:10:42.06	300.52	6.25	-49.1	-50.5	14.3	0.00e+00	0	28	0	2406481920	63	4447
2026-01-05 07:10:46.04	300.18	6.00	-49.1	-50.4	14.3	0.00e+00	0	28	0	2429550592	63	4435
2026-01-05 07:10:50.04	299.85	5.75	-49.3	-50.7	14.2	0.00e+00	0	28	0	2451570688	63	4566
2026-01-05 07:10:54.03	299.53	5.51	-49.2	-50.7	14.3	0.00e+00	0	28	0	2474639360	64	4292
2026-01-05 07:10:58.02	299.21	5.26	-49.1	-50.5	14.3	0.00e+00	0	28	0	2496659456	64	4233
2026-01-05 07:11:02.01	298.90	5.01	-49.3	-50.7	14.2	0.00e+00	0	28	0	2518679552	64	4338
2026-01-05 07:11:06.01	298.59	4.77	-59.7	-72.7	3.8	8.46e-01	0	28	104	2524971008	84	17242
2026-01-05 07:11:10.00	298.29	4.53	-60.5	-73.6	3.8	8.46e-01	0	28	104	2524971008	86	16939
2026-01-05 07:11:14.00	297.99	4.28	-60.9	-74.0	3.8	8.45e-01	0	28	104	2524971008	86	17685
2026-01-05 07:11:17.99	297.70	4.04	-61.1	-74.1	3.8	8.46e-01	0	28	104	2524971008	87	16932
2026-01-05 07:11:21.98	297.42	3.81	-61.2	-74.3	3.8	8.46e-01	0	28	104	2524971008	87	17294
2026-01-05 07:11:25.96	297.13	3.57	-61.2	-74.3	3.8	8.45e-01	0	28	104	2524971008	87	17331
2026-01-05 07:11:29.94	296.86	3.34	-61.1	-74.2	3.8	8.47e-01	0	28	104	2524971008	87	17176
2026-01-05 07:11:33.94	296.59	3.10	-61.0	-74.1	3.8	8.45e-01	0	28	104	2524971008	87	16990
2026-01-05 07:11:37.92	296.32	2.87	-60.9	-74.0	3.8	8.45e-01	0	28	104	2524971008	87	16843
2026-01-05 07:11:41.93	296.05	2.64	-60.9	-74.0	3.8	8.45e-01	0	28	104	2524971008	87	16718
2026-01-05 07:11:45.93	295.79	2.41	-60.9	-74.0	3.9	8.46e-01	0	28	104	2524971008	87	16732
2026-01-05 07:11:49.92	295.54	2.18	-60.9	-73.9	3.8	8.45e-01	0	28	104	2524971008	87	16663

#Closed at: 2026-01-05 07:11:53
#Recorded file [2524 MB]: D:/lorett/data/31004_260105_095912.dat