passes_logs/2026/01/05/R3.2S_Murmansk/R3.2S_Murmansk__20260105_222944_NOAA_21_JPSS-2_rec.log

#Pass ID: 20260105_222944_NOAA 21 (JPSS-2)
#Satellite: NOAA 21 (JPSS-2)
#Configuration: NOAA-21
#almurnet v.1.7.20251203
#Start time: 2026-01-05 22:29:43

#Version: 2.2.20231116
#Station: R3.2S_Murmansk
#Location: 33.079688 lon 68.888172 lat
#TLE: 1 54234U 22150A   26005.42670836  .00000142  00000+0  88292-4 0  9996
#TLE: 2 54234  98.7490 306.4427 0001045 340.6622  19.4514 14.19532269163451

#Time	Az	El	Level	Level2	SNR	BER	BlckErr	Temp	State	Recorded	gain1	gain2
2026-01-05 22:29:43.97	18.93	1.99	-58.1	-71.8	3.8	1.49e+00	0	24	0	0	82	17444
2026-01-05 22:29:47.97	19.19	2.21	-58.1	-71.8	3.8	1.49e+00	0	24	104	0	81	18427
2026-01-05 22:29:51.97	19.46	2.44	-58.1	-71.8	3.8	1.49e+00	0	24	104	0	81	18409
2026-01-05 22:29:55.99	19.73	2.67	-58.1	-71.7	3.8	1.49e+00	0	25	104	0	81	18147
2026-01-05 22:30:00.00	20.00	2.90	-58.1	-71.3	3.8	1.49e+00	0	25	104	0	81	17414
2026-01-05 22:30:04.02	20.28	3.13	-58.0	-70.3	3.9	1.49e+00	0	25	104	0	81	15443
2026-01-05 22:30:08.00	20.56	3.36	-58.0	-69.7	3.9	1.49e+00	0	25	104	0	81	14457
2026-01-05 22:30:12.00	20.85	3.59	-57.6	-66.6	4.2	9.21e-01	0	25	104	0	81	10139
2026-01-05 22:30:15.99	21.14	3.82	-57.4	-64.9	5.7	3.57e-01	0	25	0	11534336	81	8323
2026-01-05 22:30:19.99	21.43	4.06	-56.8	-62.5	7.5	7.54e-02	0	25	0	24117248	80	6680
2026-01-05 22:30:23.98	21.73	4.30	-54.0	-56.7	12.0	4.50e-06	0	25	0	35651584	74	4844
2026-01-05 22:30:27.99	22.03	4.54	-52.4	-54.5	13.2	0.00e+00	0	25	0	48234496	71	4467
2026-01-05 22:30:31.98	22.34	4.78	-53.3	-55.7	12.4	0.00e+00	0	26	0	60817408	71	5120
2026-01-05 22:30:35.98	22.65	5.02	-56.0	-60.4	9.3	4.70e-03	0	25	0	73400320	77	6228
2026-01-05 22:30:39.97	22.97	5.26	-55.6	-59.5	10.0	1.65e-03	0	26	0	85983232	77	5636
2026-01-05 22:30:43.97	23.29	5.51	-52.7	-54.7	13.1	0.00e+00	0	25	0	98566144	71	4598
2026-01-05 22:30:47.97	23.62	5.75	-51.9	-53.7	13.7	0.00e+00	0	26	0	111149056	70	4314
2026-01-05 22:30:51.97	23.95	6.00	-51.4	-53.0	13.9	0.00e+00	0	26	0	123731968	69	4238
2026-01-05 22:30:55.97	24.29	6.25	-51.4	-53.1	13.9	0.00e+00	0	26	0	136314880	69	4259
2026-01-05 22:30:59.97	24.63	6.50	-51.2	-52.8	13.9	0.00e+00	0	26	0	148897792	68	4380
2026-01-05 22:31:03.96	24.98	6.75	-51.0	-52.6	14.1	0.00e+00	0	26	0	161480704	68	4253
2026-01-05 22:31:07.96	25.34	7.01	-50.9	-52.4	14.2	0.00e+00	0	26	0	173015040	68	4188
2026-01-05 22:31:11.95	25.70	7.26	-50.8	-52.4	14.2	0.00e+00	0	26	0	185597952	68	4151
2026-01-05 22:31:15.95	26.07	7.52	-50.6	-52.2	14.1	0.00e+00	0	26	0	198180864	67	4311
2026-01-05 22:31:19.95	26.44	7.78	-50.5	-51.9	14.2	0.00e+00	0	26	0	210763776	67	4193
2026-01-05 22:31:23.96	26.82	8.04	-50.6	-52.2	14.1	0.00e+00	0	26	0	223346688	67	4302
2026-01-05 22:31:27.97	27.21	8.30	-50.5	-51.9	14.2	0.00e+00	0	26	0	235929600	67	4192
2026-01-05 22:31:31.97	27.60	8.57	-50.4	-51.9	14.3	0.00e+00	0	26	0	248512512	67	4168
2026-01-05 22:31:35.96	28.00	8.83	-50.4	-51.8	14.3	0.00e+00	0	26	0	261095424	67	4141
2026-01-05 22:31:39.95	28.41	9.10	-50.2	-51.7	14.3	0.00e+00	0	26	0	273678336	66	4320
2026-01-05 22:31:43.94	28.82	9.37	-50.2	-51.6	14.3	0.00e+00	0	26	0	286261248	66	4256
2026-01-05 22:31:47.94	29.24	9.64	-50.1	-51.5	14.4	0.00e+00	0	26	0	298844160	66	4214
2026-01-05 22:31:51.94	29.67	9.91	-50.1	-51.5	14.4	0.00e+00	0	26	0	311427072	66	4206
2026-01-05 22:31:55.93	30.10	10.19	-49.9	-51.2	14.5	0.00e+00	0	26	0	324009984	66	4098
2026-01-05 22:31:59.95	30.55	10.46	-49.9	-51.3	14.5	0.00e+00	0	26	0	335544320	66	4107
2026-01-05 22:32:03.94	31.00	10.74	-49.6	-50.9	14.5	0.00e+00	0	26	0	348127232	65	4184
2026-01-05 22:32:07.95	31.46	11.02	-49.7	-51.0	14.5	0.00e+00	0	26	0	360710144	65	4233
2026-01-05 22:32:11.96	31.94	11.30	-49.6	-51.0	14.5	0.00e+00	0	26	0	373293056	65	4202
2026-01-05 22:32:15.95	32.41	11.58	-49.5	-50.9	14.6	0.00e+00	0	26	0	385875968	65	4149
2026-01-05 22:32:19.96	32.90	11.87	-49.5	-50.8	14.6	0.00e+00	0	26	0	398458880	65	4122
2026-01-05 22:32:23.95	33.40	12.15	-49.2	-50.5	14.6	0.00e+00	0	26	0	411041792	64	4200
2026-01-05 22:32:27.95	33.90	12.44	-49.3	-50.6	14.5	0.00e+00	0	26	0	423624704	64	4288
2026-01-05 22:32:31.95	34.42	12.73	-49.3	-50.6	14.5	0.00e+00	0	26	0	436207616	64	4271
2026-01-05 22:32:35.95	34.94	13.02	-49.3	-50.6	14.6	0.00e+00	0	26	0	448790528	64	4261
2026-01-05 22:32:39.96	35.48	13.31	-49.0	-50.3	14.7	0.00e+00	0	26	0	461373440	64	4106
2026-01-05 22:32:43.97	36.02	13.60	-49.1	-50.3	14.6	0.00e+00	0	26	0	473956352	64	4133
2026-01-05 22:32:47.98	36.58	13.90	-49.3	-50.6	14.6	0.00e+00	0	26	0	486539264	64	4246
2026-01-05 22:32:51.98	37.15	14.19	-49.2	-50.5	14.6	0.00e+00	0	26	0	499122176	64	4212
2026-01-05 22:32:55.98	37.72	14.49	-49.2	-50.4	14.6	0.00e+00	0	26	0	510656512	64	4192
2026-01-05 22:33:00.00	38.32	14.78	-49.4	-50.7	14.5	0.00e+00	0	26	0	523239424	64	4323
2026-01-05 22:33:03.97	38.91	15.08	-46.3	-51.2	14.6	0.00e+00	0	26	0	535822336	58	6454
2026-01-05 22:33:07.95	39.52	15.37	-49.2	-50.6	14.5	0.00e+00	0	26	0	548405248	63	4506
2026-01-05 22:33:11.94	40.14	15.67	-49.2	-50.5	14.5	0.00e+00	0	26	0	560988160	63	4477
2026-01-05 22:33:15.93	40.78	15.97	-49.5	-50.8	14.5	0.00e+00	0	26	0	573571072	64	4352
2026-01-05 22:33:19.93	41.42	16.27	-49.4	-50.7	14.5	0.00e+00	0	26	0	586153984	64	4327
2026-01-05 22:33:23.90	42.08	16.57	-49.3	-50.6	14.6	0.00e+00	0	26	0	598736896	64	4280
2026-01-05 22:33:27.91	42.75	16.87	-49.7	-51.0	14.4	0.00e+00	0	26	0	611319808	64	4482
2026-01-05 22:33:31.90	43.44	17.17	-49.5	-50.9	14.5	0.00e+00	0	26	0	622854144	64	4400
2026-01-05 22:33:35.89	44.14	17.46	-49.4	-50.6	14.6	0.00e+00	0	26	0	635437056	64	4289
2026-01-05 22:33:39.86	44.85	17.76	-49.4	-50.7	14.5	0.00e+00	0	26	0	648019968	64	4307
2026-01-05 22:33:43.85	45.57	18.06	-49.3	-50.6	14.6	0.00e+00	0	26	0	660602880	64	4250
2026-01-05 22:33:47.82	46.31	18.35	-49.1	-50.4	14.6	0.00e+00	0	26	0	673185792	64	4157
2026-01-05 22:33:51.80	47.06	18.65	-49.2	-50.4	14.6	0.00e+00	0	26	0	685768704	64	4168
2026-01-05 22:33:55.79	47.83	18.94	-49.0	-50.3	14.7	0.00e+00	0	26	0	698351616	64	4112
2026-01-05 22:33:59.77	48.61	19.23	-49.0	-50.2	14.7	0.00e+00	0	26	0	710934528	64	4083
2026-01-05 22:34:03.75	49.40	19.52	-49.1	-50.3	14.7	0.00e+00	0	26	0	722468864	64	4142
2026-01-05 22:34:07.74	50.21	19.81	-49.2	-50.4	14.6	0.00e+00	0	26	0	735051776	64	4173
2026-01-05 22:34:11.72	51.04	20.10	-49.2	-50.5	14.6	0.00e+00	0	26	0	747634688	64	4207
2026-01-05 22:34:15.69	51.87	20.38	-49.2	-50.5	14.6	0.00e+00	0	26	0	760217600	64	4198
2026-01-05 22:34:19.67	52.73	20.66	-49.1	-50.3	14.7	0.00e+00	0	26	0	772800512	64	4128
2026-01-05 22:34:23.65	53.60	20.93	-49.1	-50.3	14.7	0.00e+00	0	26	0	785383424	64	4136
2026-01-05 22:34:27.63	54.48	21.21	-48.8	-50.1	14.8	0.00e+00	0	26	0	797966336	64	4008
2026-01-05 22:34:31.61	55.38	21.48	-49.0	-50.3	14.7	0.00e+00	0	26	0	809500672	64	4103
2026-01-05 22:34:35.59	56.30	21.74	-48.9	-50.1	14.8	0.00e+00	0	26	0	822083584	64	4021
2026-01-05 22:34:39.57	57.23	22.00	-48.3	-49.5	14.9	0.00e+00	0	26	0	834666496	63	3988
2026-01-05 22:34:43.56	58.18	22.26	-48.7	-49.9	14.7	0.00e+00	0	26	0	847249408	63	4168
2026-01-05 22:34:47.53	59.14	22.50	-48.7	-50.0	14.7	0.00e+00	0	26	0	859832320	63	4195
2026-01-05 22:34:51.53	60.12	22.75	-48.7	-49.9	14.7	0.00e+00	0	26	0	872415232	63	4181
2026-01-05 22:34:55.52	61.11	22.99	-48.7	-49.9	14.7	0.00e+00	0	26	0	884998144	63	4159
2026-01-05 22:34:59.49	62.12	23.22	-48.8	-50.0	14.7	0.00e+00	0	26	0	897581056	63	4228
2026-01-05 22:35:03.46	63.14	23.44	-48.9	-50.1	14.7	0.00e+00	0	26	0	909115392	63	4267
2026-01-05 22:35:07.46	64.18	23.66	-48.8	-50.0	14.7	0.00e+00	0	26	0	921698304	63	4241
2026-01-05 22:35:11.43	65.22	23.86	-49.0	-50.3	14.6	0.00e+00	0	26	0	934281216	63	4348
2026-01-05 22:35:15.42	66.29	24.06	-49.0	-50.2	14.6	0.00e+00	0	26	0	946864128	63	4336
2026-01-05 22:35:19.39	67.36	24.25	-48.9	-50.1	14.6	0.00e+00	0	26	0	959447040	63	4280
2026-01-05 22:35:23.36	68.44	24.44	-49.0	-50.2	14.6	0.00e+00	0	26	0	972029952	63	4311
2026-01-05 22:35:27.33	69.54	24.61	-48.8	-50.0	14.7	0.00e+00	0	26	0	984612864	63	4215
2026-01-05 22:35:31.33	70.66	24.77	-48.7	-49.9	14.7	0.00e+00	0	26	0	996147200	63	4148
2026-01-05 22:35:35.31	71.78	24.92	-48.8	-50.0	14.7	0.00e+00	0	26	0	1008730112	63	4212
2026-01-05 22:35:39.30	72.92	25.06	-48.9	-50.1	14.7	0.00e+00	0	26	0	1021313024	63	4254
2026-01-05 22:35:43.29	74.06	25.19	-48.7	-49.9	14.7	0.00e+00	0	26	0	1033895936	63	4155
2026-01-05 22:35:47.28	75.22	25.31	-48.4	-49.6	14.8	0.00e+00	0	26	0	1046478848	63	4033
2026-01-05 22:35:51.26	76.38	25.42	-48.4	-49.6	14.8	0.00e+00	0	26	0	1059061760	63	4038
2026-01-05 22:35:55.24	77.54	25.52	-48.4	-49.6	14.8	0.00e+00	0	26	0	1071644672	63	4015
2026-01-05 22:35:59.23	78.72	25.60	-48.4	-49.6	14.8	0.00e+00	0	26	0	1084227584	63	4005
2026-01-05 22:36:03.20	79.90	25.67	-48.4	-49.6	14.8	0.00e+00	0	26	0	1095761920	63	4035
2026-01-05 22:36:07.19	81.09	25.73	-48.5	-49.7	14.8	0.00e+00	0	26	0	1108344832	63	4073
2026-01-05 22:36:11.18	82.28	25.78	-48.5	-49.6	14.8	0.00e+00	0	26	0	1120927744	63	4044
2026-01-05 22:36:15.18	83.47	25.81	-48.3	-49.5	14.9	0.00e+00	0	26	0	1133510656	63	3967
2026-01-05 22:36:19.15	84.66	25.83	-48.4	-49.6	14.9	0.00e+00	0	26	0	1146093568	63	4013
2026-01-05 22:36:23.11	85.85	25.84	-48.4	-49.6	14.8	0.00e+00	0	26	0	1158676480	63	4009
2026-01-05 22:36:27.09	87.05	25.83	-48.0	-49.1	14.9	0.00e+00	0	26	0	1171259392	62	4049
2026-01-05 22:36:31.07	88.24	25.81	-48.3	-49.4	14.8	0.00e+00	0	26	0	1183842304	62	4192
2026-01-05 22:36:35.05	89.43	25.78	-48.2	-49.3	14.8	0.00e+00	0	26	0	1195376640	62	4132
2026-01-05 22:36:39.02	90.62	25.74	-48.5	-49.7	14.7	0.00e+00	0	26	0	1207959552	62	4310
2026-01-05 22:36:43.00	91.81	25.68	-48.6	-49.8	14.7	0.00e+00	0	26	0	1220542464	62	4355
2026-01-05 22:36:46.98	92.99	25.61	-48.5	-49.6	14.7	0.00e+00	0	26	0	1233125376	62	4281
2026-01-05 22:36:50.98	94.17	25.53	-48.3	-49.4	14.8	0.00e+00	0	26	0	1245708288	62	4187
2026-01-05 22:36:54.96	95.34	25.43	-48.5	-49.6	14.7	0.00e+00	0	26	0	1258291200	62	4291
2026-01-05 22:36:58.95	96.50	25.33	-48.5	-49.7	14.7	0.00e+00	0	27	0	1270874112	62	4303
2026-01-05 22:37:02.93	97.66	25.21	-48.5	-49.7	14.7	0.00e+00	0	27	0	1282408448	62	4339
2026-01-05 22:37:06.92	98.81	25.08	-48.7	-49.9	14.6	0.00e+00	0	26	0	1294991360	62	4408
2026-01-05 22:37:10.91	99.95	24.94	-48.5	-49.7	14.7	0.00e+00	0	27	0	1307574272	62	4293
2026-01-05 22:37:14.90	101.07	24.79	-48.7	-49.9	14.6	0.00e+00	0	26	0	1320157184	62	4419
2026-01-05 22:37:18.90	102.19	24.62	-48.8	-50.0	14.7	0.00e+00	0	26	0	1332740096	63	4203
2026-01-05 22:37:22.90	103.30	24.45	-48.9	-50.1	14.7	0.00e+00	0	26	0	1345323008	63	4268
2026-01-05 22:37:26.89	104.40	24.27	-48.7	-49.9	14.7	0.00e+00	0	27	0	1357905920	63	4168
2026-01-05 22:37:30.89	105.48	24.08	-48.6	-49.8	14.8	0.00e+00	0	27	0	1370488832	63	4099
2026-01-05 22:37:34.89	106.55	23.88	-48.7	-49.9	14.7	0.00e+00	0	26	0	1383071744	63	4158
2026-01-05 22:37:38.88	107.61	23.67	-48.8	-50.0	14.7	0.00e+00	0	26	0	1395654656	63	4230
2026-01-05 22:37:42.89	108.66	23.45	-48.6	-49.8	14.8	0.00e+00	0	27	0	1408237568	63	4108
2026-01-05 22:37:46.90	109.69	23.23	-48.5	-49.7	14.8	0.00e+00	0	26	0	1419771904	63	4055
2026-01-05 22:37:50.90	110.70	22.99	-48.6	-49.8	14.8	0.00e+00	0	26	0	1432354816	63	4120
2026-01-05 22:37:54.91	111.71	22.75	-48.8	-50.0	14.7	0.00e+00	0	27	0	1444937728	63	4237
2026-01-05 22:37:58.90	112.69	22.51	-48.9	-50.1	14.7	0.00e+00	0	27	0	1457520640	63	4249
2026-01-05 22:38:02.90	113.66	22.26	-48.5	-49.7	14.8	0.00e+00	0	26	0	1470103552	63	4080
2026-01-05 22:38:06.89	114.61	22.00	-48.7	-49.9	14.7	0.00e+00	0	26	0	1482686464	63	4182
2026-01-05 22:38:10.87	115.55	21.74	-48.9	-50.1	14.7	0.00e+00	0	26	0	1495269376	63	4267
2026-01-05 22:38:14.85	116.47	21.48	-48.8	-50.1	14.7	0.00e+00	0	26	0	1507852288	63	4251
2026-01-05 22:38:18.83	117.37	21.21	-48.6	-49.8	14.7	0.00e+00	0	26	0	1520435200	63	4126
2026-01-05 22:38:22.81	118.26	20.93	-48.8	-50.0	14.7	0.00e+00	0	27	0	1531969536	63	4238
2026-01-05 22:38:26.80	119.13	20.65	-48.8	-50.1	14.6	0.00e+00	0	27	0	1544552448	63	4257
2026-01-05 22:38:30.77	119.99	20.37	-48.8	-50.0	14.7	0.00e+00	0	26	0	1557135360	63	4224
2026-01-05 22:38:34.77	120.84	20.09	-49.0	-50.3	14.6	0.00e+00	0	27	0	1569718272	63	4344
2026-01-05 22:38:38.76	121.67	19.80	-48.8	-50.0	14.7	0.00e+00	0	26	0	1582301184	63	4216
2026-01-05 22:38:42.73	122.48	19.51	-48.8	-50.0	14.7	0.00e+00	0	27	0	1594884096	63	4226
2026-01-05 22:38:46.72	123.28	19.22	-48.9	-50.1	14.6	0.00e+00	0	26	0	1607467008	63	4279
2026-01-05 22:38:50.69	124.06	18.92	-48.8	-50.0	14.6	0.00e+00	0	26	0	1620049920	63	4229
2026-01-05 22:38:54.66	124.82	18.63	-48.9	-50.2	14.6	0.00e+00	0	26	0	1631584256	63	4292
2026-01-05 22:38:58.63	125.58	18.33	-48.9	-50.1	14.6	0.00e+00	0	26	0	1644167168	63	4272
2026-01-05 22:39:02.62	126.32	18.04	-48.9	-50.2	14.6	0.00e+00	0	26	0	1656750080	63	4306
2026-01-05 22:39:06.59	127.04	17.74	-49.0	-50.3	14.6	0.00e+00	0	26	0	1669332992	63	4348
2026-01-05 22:39:10.58	127.76	17.44	-49.3	-50.6	14.4	0.00e+00	0	26	0	1681915904	63	4529
2026-01-05 22:39:14.57	128.46	17.14	-49.2	-50.5	14.5	0.00e+00	0	26	0	1694498816	63	4454
2026-01-05 22:39:18.54	129.14	16.84	-49.2	-50.5	14.5	0.00e+00	0	26	0	1707081728	63	4461
2026-01-05 22:39:22.51	129.81	16.54	-49.4	-50.7	14.5	0.00e+00	0	26	0	1718616064	64	4329
2026-01-05 22:39:26.48	130.47	16.24	-49.2	-50.5	14.5	0.00e+00	0	26	0	1731198976	64	4224
2026-01-05 22:39:30.47	131.12	15.94	-49.4	-50.7	14.5	0.00e+00	0	27	0	1743781888	64	4301
2026-01-05 22:39:34.45	131.75	15.64	-49.5	-50.9	14.4	0.00e+00	0	26	0	1756364800	64	4394
2026-01-05 22:39:38.44	132.38	15.34	-49.7	-51.1	14.3	0.00e+00	0	26	0	1768947712	64	4503
2026-01-05 22:39:42.42	132.99	15.04	-49.4	-50.8	14.4	0.00e+00	0	26	0	1781530624	64	4349
2026-01-05 22:39:46.40	133.59	14.75	-49.5	-50.9	14.4	0.00e+00	0	26	0	1794113536	64	4393
2026-01-05 22:39:50.38	134.17	14.45	-49.4	-50.8	14.4	0.00e+00	0	26	0	1805647872	64	4348
2026-01-05 22:39:54.36	134.75	14.15	-49.6	-51.0	14.3	0.00e+00	0	26	0	1818230784	64	4461
2026-01-05 22:39:58.34	135.32	13.86	-49.8	-51.2	14.4	0.00e+00	0	27	0	1830813696	65	4330
2026-01-05 22:40:02.32	135.87	13.56	-49.8	-51.2	14.3	0.00e+00	0	26	0	1843396608	65	4322
2026-01-05 22:40:06.31	136.42	13.27	-49.9	-51.3	14.3	0.00e+00	0	26	0	1855979520	65	4342
2026-01-05 22:40:10.27	136.95	12.98	-49.8	-51.2	14.3	0.00e+00	0	26	0	1868562432	65	4330
2026-01-05 22:40:14.25	137.47	12.69	-50.0	-51.4	14.3	0.00e+00	0	26	0	1881145344	65	4429
2026-01-05 22:40:18.19	137.98	12.41	-50.0	-51.4	14.3	0.00e+00	0	27	0	1892679680	65	4440
2026-01-05 22:40:22.18	138.49	12.12	-50.1	-51.5	14.2	0.00e+00	0	26	0	1905262592	65	4484
2026-01-05 22:40:26.16	138.98	11.83	-50.3	-51.7	14.1	0.00e+00	0	26	0	1917845504	65	4590
2026-01-05 22:40:30.13	139.47	11.55	-50.1	-51.6	14.2	0.00e+00	0	26	0	1930428416	65	4512
2026-01-05 22:40:34.12	139.94	11.26	-50.0	-51.4	14.3	0.00e+00	0	26	0	1943011328	65	4399
2026-01-05 22:40:38.10	140.41	10.98	-50.1	-51.6	14.2	0.00e+00	0	26	0	1955594240	65	4517
2026-01-05 22:40:42.10	140.88	10.70	-50.5	-52.0	14.1	0.00e+00	0	27	0	1968177152	66	4447
2026-01-05 22:40:46.09	141.33	10.42	-50.4	-51.9	14.1	0.00e+00	0	26	0	1980760064	66	4430
2026-01-05 22:40:50.06	141.77	10.15	-50.4	-51.9	14.1	0.00e+00	0	27	0	1992294400	66	4435
2026-01-05 22:40:54.03	142.20	9.87	-50.5	-52.0	14.1	0.00e+00	0	26	0	2004877312	66	4476
2026-01-05 22:40:58.02	142.63	9.60	-50.5	-52.0	14.0	0.00e+00	0	26	0	2017460224	66	4475
2026-01-05 22:41:02.00	143.05	9.33	-50.6	-52.2	14.0	0.00e+00	0	26	0	2030043136	66	4559
2026-01-05 22:41:05.97	143.47	9.06	-50.7	-52.3	13.9	0.00e+00	0	26	0	2042626048	66	4639
2026-01-05 22:41:09.94	143.87	8.79	-50.8	-52.4	13.9	0.00e+00	0	26	0	2055208960	66	4683
2026-01-05 22:41:13.92	144.27	8.52	-50.9	-52.5	13.9	0.00e+00	0	26	0	2066743296	67	4482
2026-01-05 22:41:17.91	144.66	8.26	-50.9	-52.5	13.9	0.00e+00	0	26	0	2079326208	67	4461
2026-01-05 22:41:21.89	145.05	7.99	-50.9	-52.6	13.8	0.00e+00	0	27	0	2091909120	67	4514
2026-01-05 22:41:25.87	145.42	7.73	-51.0	-52.7	13.7	0.00e+00	0	27	0	2104492032	67	4580
2026-01-05 22:41:29.83	145.79	7.47	-51.3	-53.0	13.6	0.00e+00	0	27	0	2117074944	67	4749
2026-01-05 22:41:33.82	146.16	7.21	-51.1	-52.8	13.7	0.00e+00	0	27	0	2129657856	67	4635
2026-01-05 22:41:37.80	146.52	6.96	-51.3	-53.0	13.6	0.00e+00	0	26	0	2142240768	67	4744
2026-01-05 22:41:41.77	146.87	6.70	-51.6	-53.4	13.5	0.00e+00	0	26	0	2153775104	68	4687
2026-01-05 22:41:45.75	147.22	6.45	-51.6	-53.5	13.5	0.00e+00	0	27	0	2166358016	68	4718
2026-01-05 22:41:49.73	147.56	6.20	-51.8	-53.7	13.3	0.00e+00	0	27	0	2178940928	68	4825
2026-01-05 22:41:53.70	147.90	5.95	-51.5	-53.4	13.5	0.00e+00	0	26	0	2191523840	68	4653
2026-01-05 22:41:57.68	148.23	5.70	-51.5	-53.3	13.5	0.00e+00	0	27	0	2204106752	68	4641
2026-01-05 22:42:01.65	148.55	5.45	-51.6	-53.4	13.4	0.00e+00	0	26	0	2216689664	68	4697
2026-01-05 22:42:05.65	148.88	5.20	-51.5	-53.3	13.5	0.00e+00	0	27	0	2229272576	68	4645
2026-01-05 22:42:09.65	149.19	4.96	-58.6	-72.2	3.8	1.49e+00	0	26	104	2238709760	82	18129
2026-01-05 22:42:13.67	149.51	4.71	-59.6	-73.5	3.8	1.49e+00	0	27	104	2238709760	84	18739
2026-01-05 22:42:17.65	149.81	4.47	-60.0	-73.8	3.8	1.49e+00	0	27	104	2238709760	85	18432
2026-01-05 22:42:21.61	150.11	4.24	-60.2	-74.1	3.8	1.49e+00	0	27	104	2238709760	85	18986
2026-01-05 22:42:25.58	150.41	4.00	-60.5	-74.3	3.8	1.49e+00	0	27	104	2238709760	86	18496
2026-01-05 22:42:29.59	150.70	3.76	-60.6	-74.4	3.8	1.49e+00	0	27	104	2238709760	86	18655
2026-01-05 22:42:33.60	150.99	3.52	-60.5	-74.4	3.8	1.49e+00	0	27	104	2238709760	86	18527
2026-01-05 22:42:37.60	151.28	3.29	-60.5	-74.3	3.8	1.49e+00	0	27	104	2238709760	86	18418
2026-01-05 22:42:41.59	151.56	3.06	-60.4	-74.3	3.8	1.49e+00	0	27	104	2238709760	86	18376
2026-01-05 22:42:45.58	151.83	2.82	-60.4	-74.2	3.8	1.49e+00	0	27	104	2238709760	86	18273
2026-01-05 22:42:49.58	152.11	2.59	-60.4	-74.2	3.8	1.49e+00	0	27	104	2238709760	86	18223
2026-01-05 22:42:53.59	152.37	2.36	-60.4	-74.2	3.8	1.49e+00	0	27	104	2238709760	86	18194
2026-01-05 22:42:57.59	152.64	2.14	-60.4	-74.2	3.8	1.49e+00	0	27	104	2238709760	86	18207

#Closed at: 2026-01-05 22:43:01
#Recorded file [2238 MB]: D:/lorett/data/31004_260106_012943.dat