passes_logs/2026/01/05/R3.2S_Murmansk/R3.2S_Murmansk__20260105_084619_NOAA_21_JPSS-2_rec.log

#Pass ID: 20260105_084619_NOAA 21 (JPSS-2)
#Satellite: NOAA 21 (JPSS-2)
#Configuration: NOAA-21
#almurnet v.1.7.20251203
#Start time: 2026-01-05 08:51:13

#Version: 2.2.20231116
#Station: R3.2S_Murmansk
#Location: 33.079688 lon 68.888172 lat
#TLE: 1 54234U 22150A   26004.43991293  .00000169  00000+0  10108-3 0  9998
#TLE: 2 54234  98.7489 305.4680 0001107 344.3033  15.8108 14.19531967163313

#Time	Az	El	Level	Level2	SNR	BER	BlckErr	Temp	State	Recorded	gain1	gain2
2026-01-05 08:51:13.11	118.49	34.24	-60.7	-73.8	3.8	8.45e-01	0	27	0	0	87	16398
2026-01-05 08:51:16.11	118.01	34.85	-60.8	-74.6	3.8	1.49e+00	0	27	104	0	86	19051
2026-01-05 08:51:19.12	117.50	35.47	-60.6	-74.4	3.8	1.49e+00	0	27	104	0	86	18699
2026-01-05 08:51:22.13	116.98	36.10	-60.4	-74.3	3.8	1.49e+00	0	27	104	0	86	18394
2026-01-05 08:51:25.14	116.44	36.74	-60.3	-74.1	3.8	1.49e+00	0	28	104	0	86	18025
2026-01-05 08:51:28.13	115.88	37.39	-60.3	-74.1	3.8	1.49e+00	0	27	104	0	86	17968
2026-01-05 08:51:31.11	115.30	38.04	-60.3	-74.1	3.8	1.49e+00	0	27	104	0	86	18020
2026-01-05 08:51:34.09	114.69	38.70	-60.2	-74.1	3.8	1.49e+00	0	27	104	0	86	17946
2026-01-05 08:51:37.07	114.06	39.37	-60.3	-74.0	3.8	1.49e+00	0	27	104	0	86	17830
2026-01-05 08:51:40.06	113.40	40.06	-60.2	-74.0	3.8	1.49e+00	0	27	104	0	86	17851
2026-01-05 08:51:43.04	112.71	40.75	-60.2	-74.0	3.8	1.49e+00	0	28	104	0	86	17814
2026-01-05 08:51:46.02	111.99	41.44	-60.2	-74.1	3.8	1.49e+00	0	28	104	0	86	17923
2026-01-05 08:51:49.01	111.24	42.15	-60.2	-74.0	3.8	1.49e+00	0	28	104	0	86	17798
2026-01-05 08:51:52.00	110.45	42.87	-60.2	-73.9	3.8	1.49e+00	0	28	104	0	86	17612
2026-01-05 08:51:54.98	109.63	43.59	-60.2	-73.8	3.8	1.49e+00	0	27	104	0	86	17413
2026-01-05 08:51:57.96	108.77	44.31	-60.2	-73.8	3.8	1.49e+00	0	28	104	0	86	17479
2026-01-05 08:52:00.94	107.87	45.05	-60.2	-73.8	3.8	1.49e+00	0	28	104	0	86	17288
2026-01-05 08:52:03.91	106.93	45.78	-59.3	-66.6	5.9	6.21e-01	0	28	0	0	85	8027
2026-01-05 08:52:06.90	105.94	46.53	-52.7	-54.3	14.0	0.00e+00	0	28	0	9437184	72	4117
2026-01-05 08:52:09.88	104.90	47.27	-54.3	-56.4	13.1	0.00e+00	0	28	0	18874368	73	4935
2026-01-05 08:52:12.85	103.82	48.02	-51.9	-53.4	14.2	0.00e+00	0	27	0	27262976	70	4167
2026-01-05 08:52:15.81	102.68	48.76	-51.6	-53.0	14.3	0.00e+00	0	28	0	36700160	69	4206
2026-01-05 08:52:18.80	101.48	49.51	-51.6	-53.1	14.2	0.00e+00	0	27	0	46137344	69	4244
2026-01-05 08:52:21.77	100.22	50.26	-51.1	-52.5	14.4	0.00e+00	0	27	0	55574528	68	4200
2026-01-05 08:52:24.76	98.89	51.00	-51.5	-53.0	14.2	0.00e+00	0	27	0	65011712	68	4458
2026-01-05 08:52:27.74	97.50	51.74	-51.4	-52.8	14.3	0.00e+00	0	28	0	74448896	68	4360
2026-01-05 08:52:30.73	96.03	52.47	-50.9	-52.3	14.5	0.00e+00	0	27	0	83886080	68	4117
2026-01-05 08:52:33.71	94.50	53.19	-50.7	-52.0	14.6	0.00e+00	0	28	0	93323264	68	3991
2026-01-05 08:52:36.69	92.88	53.90	-50.1	-51.4	14.6	0.00e+00	0	27	0	102760448	66	4171
2026-01-05 08:52:39.67	91.19	54.60	-49.8	-51.0	14.7	0.00e+00	0	27	0	111149056	66	3985
2026-01-05 08:52:42.66	89.40	55.28	-50.4	-51.7	14.4	0.00e+00	0	27	0	120586240	66	4307
2026-01-05 08:52:45.66	87.52	55.94	-49.9	-51.2	14.7	0.00e+00	0	27	0	130023424	66	4075
2026-01-05 08:52:48.64	85.57	56.57	-49.4	-50.6	14.8	0.00e+00	0	27	0	139460608	65	4021
2026-01-05 08:52:51.62	83.53	57.17	-49.4	-50.6	14.8	0.00e+00	0	27	0	148897792	65	4005
2026-01-05 08:52:54.60	81.39	57.75	-49.3	-50.5	14.8	0.00e+00	0	27	0	158334976	65	3974
2026-01-05 08:52:57.58	79.17	58.29	-49.1	-50.3	14.8	0.00e+00	0	27	0	167772160	64	4112
2026-01-05 08:53:00.57	76.84	58.79	-48.4	-49.5	14.9	0.00e+00	0	27	0	177209344	63	3993
2026-01-05 08:53:03.55	74.44	59.26	-48.1	-49.2	14.9	0.00e+00	0	27	0	186646528	62	4092
2026-01-05 08:53:06.53	71.96	59.67	-48.4	-49.5	14.8	0.00e+00	0	27	0	195035136	62	4206
2026-01-05 08:53:09.51	69.40	60.04	-48.6	-49.7	14.7	0.00e+00	0	27	0	204472320	62	4327
2026-01-05 08:53:12.50	66.76	60.36	-48.6	-49.8	14.7	0.00e+00	0	27	0	213909504	62	4364
2026-01-05 08:53:15.48	64.08	60.62	-48.5	-49.7	14.8	0.00e+00	0	27	0	223346688	62	4292
2026-01-05 08:53:18.46	61.34	60.83	-48.6	-49.7	14.7	0.00e+00	0	27	0	232783872	62	4337
2026-01-05 08:53:21.45	58.55	60.98	-48.7	-49.8	14.7	0.00e+00	0	28	0	242221056	62	4388
2026-01-05 08:53:24.44	55.73	61.07	-48.5	-49.6	14.8	0.00e+00	0	27	0	251658240	62	4259
2026-01-05 08:53:27.41	52.92	61.10	-48.3	-49.4	14.9	0.00e+00	0	27	0	261095424	62	4162
2026-01-05 08:53:30.40	50.10	61.06	-49.0	-50.1	14.7	0.00e+00	0	27	0	270532608	63	4270
2026-01-05 08:53:33.38	47.29	60.97	-49.0	-50.2	14.7	0.00e+00	0	27	0	279969792	63	4296
2026-01-05 08:53:36.36	44.52	60.82	-49.2	-50.4	14.8	0.00e+00	0	27	0	288358400	64	4166
2026-01-05 08:53:39.34	41.78	60.61	-49.5	-50.7	14.6	0.00e+00	0	27	0	297795584	64	4319
2026-01-05 08:53:42.34	39.08	60.34	-49.5	-50.7	14.6	0.00e+00	0	27	0	307232768	64	4311
2026-01-05 08:53:45.32	36.46	60.01	-49.1	-50.3	14.8	0.00e+00	0	28	0	316669952	64	4106
2026-01-05 08:53:48.31	33.90	59.64	-49.3	-50.5	14.7	0.00e+00	0	27	0	326107136	64	4204
2026-01-05 08:53:51.28	31.44	59.22	-49.9	-51.2	14.5	0.00e+00	0	27	0	335544320	65	4292
2026-01-05 08:53:54.27	29.04	58.75	-49.3	-50.4	14.8	0.00e+00	0	27	0	344981504	65	3952
2026-01-05 08:53:57.23	26.75	58.25	-50.1	-51.4	14.5	0.00e+00	0	27	0	354418688	65	4427
2026-01-05 08:54:00.21	24.53	57.71	-49.3	-50.4	14.9	0.00e+00	0	27	0	362807296	65	3957
2026-01-05 08:54:03.18	22.41	57.14	-50.4	-51.7	14.4	0.00e+00	0	27	0	372244480	65	4579
2026-01-05 08:54:06.16	20.38	56.53	-50.2	-51.5	14.6	0.00e+00	0	27	0	381681664	67	3992
2026-01-05 08:54:09.15	18.43	55.90	-50.9	-52.3	14.3	0.00e+00	0	28	0	391118848	66	4623
2026-01-05 08:54:12.13	16.57	55.24	-50.8	-52.2	14.6	0.00e+00	0	27	0	400556032	68	4052
2026-01-05 08:54:15.11	14.80	54.56	-49.9	-51.1	14.7	0.00e+00	0	27	0	409993216	66	4049
2026-01-05 08:54:18.09	13.11	53.87	-51.2	-52.6	14.2	0.00e+00	0	27	0	419430400	67	4533
2026-01-05 08:54:21.07	11.50	53.16	-50.0	-51.2	14.7	0.00e+00	0	27	0	428867584	66	4095
2026-01-05 08:54:24.07	9.96	52.44	-51.2	-52.6	14.2	0.00e+00	0	27	0	438304768	67	4544
2026-01-05 08:54:27.05	8.51	51.71	-51.4	-52.8	14.3	0.00e+00	0	27	0	446693376	68	4371
2026-01-05 08:54:30.06	7.11	50.96	-50.0	-51.2	14.6	0.00e+00	0	27	0	456130560	66	4072
2026-01-05 08:54:33.04	5.79	50.22	-53.6	-55.5	13.4	0.00e+00	0	28	0	465567744	72	4753
2026-01-05 08:54:36.02	4.54	49.48	-52.9	-54.6	13.8	0.00e+00	0	27	0	475004928	72	4278
2026-01-05 08:54:39.00	3.35	48.73	-50.8	-52.1	14.6	0.00e+00	0	27	0	484442112	68	4029
2026-01-05 08:54:42.00	2.20	47.98	-53.0	-54.7	13.7	0.00e+00	0	27	0	493879296	71	4573
2026-01-05 08:54:44.97	1.12	47.24	-52.4	-54.0	13.9	0.00e+00	0	27	0	503316480	71	4216
2026-01-05 08:54:47.96	0.09	46.49	-52.0	-53.5	14.1	0.00e+00	0	28	0	512753664	70	4222
2026-01-05 08:54:50.94	359.11	45.75	-52.9	-54.6	13.7	0.00e+00	0	27	0	522190848	71	4511
2026-01-05 08:54:53.91	358.17	45.02	-54.8	-57.2	12.6	0.00e+00	0	28	0	531628032	75	4839
2026-01-05 08:54:56.90	357.27	44.28	-52.5	-54.0	14.0	0.00e+00	0	28	0	540016640	71	4213
2026-01-05 08:54:59.87	356.42	43.56	-51.9	-53.4	14.0	0.00e+00	0	28	0	549453824	69	4398
2026-01-05 08:55:02.85	355.60	42.85	-52.9	-54.6	13.8	0.00e+00	0	27	0	558891008	71	4527
2026-01-05 08:55:05.82	354.83	42.14	-52.8	-54.5	13.8	0.00e+00	0	27	0	568328192	71	4454
2026-01-05 08:55:08.81	354.08	41.43	-51.4	-52.8	14.3	0.00e+00	0	28	0	577765376	69	4116
2026-01-05 08:55:11.80	353.36	40.74	-49.9	-51.2	14.6	0.00e+00	0	27	0	587202560	66	4053
2026-01-05 08:55:14.79	352.67	40.05	-51.0	-52.3	14.2	0.00e+00	0	27	0	596639744	67	4390
2026-01-05 08:55:17.76	352.02	39.37	-51.3	-52.7	14.2	0.00e+00	0	27	0	605028352	67	4565
2026-01-05 08:55:20.76	351.39	38.70	-51.2	-52.6	14.2	0.00e+00	0	28	0	614465536	67	4523
2026-01-05 08:55:23.74	350.78	38.04	-51.1	-52.5	14.2	0.00e+00	0	28	0	623902720	67	4492
2026-01-05 08:55:26.73	350.20	37.39	-49.8	-51.1	14.7	0.00e+00	0	27	0	633339904	66	4011
2026-01-05 08:55:29.69	349.65	36.75	-50.1	-51.4	14.6	0.00e+00	0	27	0	642777088	66	4160
2026-01-05 08:55:32.68	349.12	36.12	-50.9	-52.3	14.3	0.00e+00	0	27	0	652214272	67	4378
2026-01-05 08:55:35.68	348.60	35.49	-50.6	-51.9	14.4	0.00e+00	0	27	0	661651456	67	4188
2026-01-05 08:55:38.66	348.11	34.88	-50.2	-51.5	14.7	0.00e+00	0	27	0	671088640	67	3959
2026-01-05 08:55:41.65	347.63	34.27	-50.0	-51.2	14.6	0.00e+00	0	27	0	680525824	66	4086
2026-01-05 08:55:44.64	347.17	33.68	-49.9	-51.1	14.7	0.00e+00	0	27	0	689963008	66	4048
2026-01-05 08:55:47.63	346.73	33.09	-49.6	-50.8	14.7	0.00e+00	0	27	0	699400192	65	4108
2026-01-05 08:55:50.63	346.30	32.51	-49.6	-50.8	14.7	0.00e+00	0	27	0	708837376	65	4122
2026-01-05 08:55:53.60	345.89	31.95	-49.6	-50.9	14.6	0.00e+00	0	27	0	717225984	65	4150
2026-01-05 08:55:56.58	345.49	31.39	-49.3	-50.5	14.8	0.00e+00	0	27	0	726663168	65	3977
2026-01-05 08:55:59.55	345.11	30.85	-49.0	-50.2	14.8	0.00e+00	0	27	0	736100352	64	4068
2026-01-05 08:56:02.53	344.74	30.31	-49.3	-50.5	14.7	0.00e+00	0	27	0	745537536	64	4228
2026-01-05 08:56:05.52	344.38	29.77	-49.8	-51.1	14.5	0.00e+00	0	27	0	754974720	64	4519
2026-01-05 08:56:08.50	344.04	29.25	-49.9	-51.2	14.5	0.00e+00	0	27	0	764411904	65	4331
2026-01-05 08:56:11.48	343.71	28.74	-49.7	-51.0	14.6	0.00e+00	0	27	0	773849088	65	4194
2026-01-05 08:56:14.48	343.38	28.23	-49.7	-50.9	14.6	0.00e+00	0	27	0	783286272	65	4188
2026-01-05 08:56:17.45	343.07	27.73	-49.2	-50.4	14.8	0.00e+00	0	27	0	791674880	65	3956
2026-01-05 08:56:20.42	342.77	27.24	-48.9	-50.1	14.8	0.00e+00	0	27	0	801112064	64	4017
2026-01-05 08:56:23.42	342.47	26.76	-48.8	-50.0	14.7	0.00e+00	0	27	0	810549248	63	4221
2026-01-05 08:56:26.39	342.19	26.29	-48.8	-50.0	14.8	0.00e+00	0	27	0	819986432	63	4205
2026-01-05 08:56:29.38	341.91	25.82	-48.8	-50.0	14.7	0.00e+00	0	27	0	829423616	63	4204
2026-01-05 08:56:32.35	341.64	25.36	-48.8	-50.0	14.7	0.00e+00	0	27	0	838860800	63	4231
2026-01-05 08:56:35.33	341.38	24.91	-48.6	-49.7	14.8	0.00e+00	0	27	0	848297984	63	4095
2026-01-05 08:56:38.31	341.13	24.46	-48.7	-49.8	14.8	0.00e+00	0	27	0	857735168	63	4138
2026-01-05 08:56:41.28	340.89	24.02	-48.8	-50.0	14.7	0.00e+00	0	27	0	866123776	63	4200
2026-01-05 08:56:44.25	340.65	23.59	-49.2	-50.4	14.6	0.00e+00	0	27	0	875560960	63	4416
2026-01-05 08:56:47.24	340.42	23.17	-49.3	-50.5	14.6	0.00e+00	0	27	0	884998144	63	4461
2026-01-05 08:56:50.23	340.19	22.75	-49.2	-50.5	14.6	0.00e+00	0	27	0	894435328	63	4456
2026-01-05 08:56:53.21	339.98	22.33	-49.2	-50.5	14.6	0.00e+00	0	27	0	903872512	63	4452
2026-01-05 08:56:56.20	339.76	21.92	-49.3	-50.6	14.5	0.00e+00	0	27	0	913309696	63	4513
2026-01-05 08:56:59.18	339.56	21.52	-49.2	-50.4	14.6	0.00e+00	0	27	0	922746880	63	4426
2026-01-05 08:57:02.15	339.36	21.13	-49.1	-50.3	14.6	0.00e+00	0	27	0	932184064	63	4389
2026-01-05 08:57:05.13	339.16	20.74	-49.0	-50.2	14.7	0.00e+00	0	27	0	941621248	63	4296
2026-01-05 08:57:08.10	338.97	20.36	-48.9	-50.1	14.7	0.00e+00	0	27	0	950009856	63	4273
2026-01-05 08:57:11.08	338.78	19.98	-49.0	-50.3	14.6	0.00e+00	0	27	0	959447040	63	4353
2026-01-05 08:57:14.05	338.60	19.61	-49.2	-50.4	14.6	0.00e+00	0	27	0	968884224	63	4409
2026-01-05 08:57:17.03	338.43	19.24	-49.4	-50.6	14.5	0.00e+00	0	27	0	978321408	63	4541
2026-01-05 08:57:20.02	338.26	18.88	-49.5	-50.8	14.5	0.00e+00	0	27	0	987758592	64	4361
2026-01-05 08:57:22.99	338.09	18.52	-49.6	-50.8	14.5	0.00e+00	0	27	0	997195776	64	4383
2026-01-05 08:57:25.97	337.92	18.17	-49.6	-50.9	14.5	0.00e+00	0	27	0	1006632960	64	4437
2026-01-05 08:57:28.96	337.76	17.82	-49.7	-51.0	14.5	0.00e+00	0	27	0	1015021568	64	4447
2026-01-05 08:57:31.94	337.61	17.48	-49.6	-50.9	14.5	0.00e+00	0	27	0	1024458752	64	4438
2026-01-05 08:57:34.92	337.46	17.14	-49.7	-51.0	14.4	0.00e+00	0	27	0	1033895936	64	4465
2026-01-05 08:57:37.89	337.31	16.80	-49.8	-51.2	14.4	0.00e+00	0	27	0	1043333120	64	4552
2026-01-05 08:57:40.87	337.16	16.47	-50.0	-51.3	14.4	0.00e+00	0	27	0	1052770304	65	4363
2026-01-05 08:57:43.87	337.02	16.15	-49.9	-51.3	14.4	0.00e+00	0	27	0	1062207488	65	4359
2026-01-05 08:57:46.85	336.88	15.82	-50.0	-51.4	14.4	0.00e+00	0	27	0	1071644672	65	4400
2026-01-05 08:57:49.84	336.75	15.50	-50.2	-51.6	14.3	0.00e+00	0	27	0	1081081856	65	4495
2026-01-05 08:57:52.82	336.62	15.19	-50.0	-51.4	14.4	0.00e+00	0	27	0	1090519040	65	4417
2026-01-05 08:57:55.79	336.49	14.88	-49.9	-51.3	14.4	0.00e+00	0	27	0	1098907648	65	4343
2026-01-05 08:57:58.78	336.36	14.57	-49.9	-51.2	14.4	0.00e+00	0	27	0	1108344832	65	4340
2026-01-05 08:58:01.76	336.24	14.27	-49.9	-51.3	14.4	0.00e+00	0	27	0	1117782016	65	4348
2026-01-05 08:58:04.72	336.12	13.97	-49.8	-51.1	14.5	0.00e+00	0	27	0	1127219200	65	4270
2026-01-05 08:58:07.69	336.00	13.68	-49.9	-51.2	14.4	0.00e+00	0	27	0	1136656384	65	4302
2026-01-05 08:58:10.68	335.89	13.39	-49.9	-51.2	14.4	0.00e+00	0	27	0	1146093568	65	4323
2026-01-05 08:58:13.66	335.77	13.10	-50.0	-51.3	14.4	0.00e+00	0	27	0	1155530752	65	4375
2026-01-05 08:58:16.63	335.66	12.81	-49.9	-51.3	14.4	0.00e+00	0	27	0	1164967936	65	4367
2026-01-05 08:58:19.62	335.55	12.53	-50.0	-51.4	14.3	0.00e+00	0	27	0	1174405120	65	4394
2026-01-05 08:58:22.59	335.45	12.25	-50.0	-51.4	14.3	0.00e+00	0	27	0	1182793728	65	4401
2026-01-05 08:58:25.58	335.34	11.97	-50.1	-51.5	14.3	0.00e+00	0	27	0	1192230912	65	4460
2026-01-05 08:58:28.55	335.24	11.70	-50.1	-51.5	14.2	0.00e+00	0	27	0	1201668096	65	4473
2026-01-05 08:58:31.53	335.14	11.43	-50.1	-51.5	14.2	0.00e+00	0	27	0	1211105280	65	4477
2026-01-05 08:58:34.51	335.05	11.16	-50.2	-51.6	14.2	0.00e+00	0	27	0	1220542464	65	4537
2026-01-05 08:58:37.49	334.95	10.90	-50.2	-51.7	14.2	0.00e+00	0	28	0	1229979648	65	4548
2026-01-05 08:58:40.48	334.86	10.64	-50.4	-51.8	14.2	0.00e+00	0	27	0	1239416832	66	4365
2026-01-05 08:58:43.46	334.77	10.38	-50.5	-52.0	14.2	0.00e+00	0	27	0	1248854016	66	4448
2026-01-05 08:58:46.44	334.68	10.12	-50.5	-51.9	14.2	0.00e+00	0	27	0	1257242624	66	4429
2026-01-05 08:58:49.42	334.59	9.87	-50.5	-51.9	14.2	0.00e+00	0	27	0	1266679808	66	4419
2026-01-05 08:58:52.42	334.50	9.61	-50.4	-51.8	14.2	0.00e+00	0	27	0	1276116992	66	4379
2026-01-05 08:58:55.40	334.42	9.36	-50.6	-52.0	14.1	0.00e+00	0	27	0	1285554176	66	4493
2026-01-05 08:58:58.39	334.33	9.12	-50.6	-52.1	14.1	0.00e+00	0	27	0	1294991360	66	4508
2026-01-05 08:59:01.36	334.25	8.87	-50.6	-52.1	14.1	0.00e+00	0	27	0	1304428544	66	4523
2026-01-05 08:59:04.34	334.17	8.63	-50.7	-52.2	14.0	0.00e+00	0	27	0	1313865728	66	4574
2026-01-05 08:59:07.31	334.09	8.39	-50.6	-52.1	14.0	0.00e+00	0	27	0	1323302912	66	4522
2026-01-05 08:59:10.30	334.02	8.15	-50.7	-52.2	14.0	0.00e+00	0	27	0	1332740096	66	4586
2026-01-05 08:59:13.28	333.94	7.92	-49.9	-52.3	14.1	0.00e+00	0	27	0	1341128704	66	4609
2026-01-05 08:59:16.26	333.87	7.68	-50.7	-52.2	14.0	0.00e+00	0	27	0	1350565888	66	4579
2026-01-05 08:59:19.26	333.79	7.45	-50.7	-52.2	13.9	0.00e+00	0	28	0	1360003072	66	4598
2026-01-05 08:59:22.23	333.72	7.22	-50.8	-52.3	14.0	0.00e+00	0	27	0	1369440256	67	4384
2026-01-05 08:59:25.21	333.65	7.00	-50.9	-52.5	13.9	0.00e+00	0	27	0	1378877440	67	4444
2026-01-05 08:59:28.19	333.58	6.77	-50.9	-52.5	13.9	0.00e+00	0	27	0	1388314624	67	4482
2026-01-05 08:59:31.18	333.52	6.55	-50.9	-52.5	13.9	0.00e+00	0	27	0	1397751808	67	4464
2026-01-05 08:59:34.15	333.45	6.33	-51.1	-52.7	13.8	0.00e+00	0	27	0	1407188992	67	4555
2026-01-05 08:59:37.14	333.38	6.10	-51.1	-52.8	13.8	0.00e+00	0	27	0	1416626176	67	4613
2026-01-05 08:59:40.13	333.32	5.89	-51.2	-52.8	13.7	0.00e+00	0	27	0	1425014784	67	4651
2026-01-05 08:59:43.13	333.26	5.67	-51.4	-53.1	13.6	0.00e+00	0	27	0	1434451968	67	4770
2026-01-05 08:59:46.11	333.19	5.45	-51.5	-53.2	13.6	0.00e+00	0	27	0	1443889152	68	4589
2026-01-05 08:59:49.09	333.13	5.24	-51.6	-53.3	13.6	0.00e+00	0	27	0	1453326336	68	4632
2026-01-05 08:59:52.08	333.07	5.03	-51.8	-53.6	13.4	0.00e+00	0	27	0	1462763520	68	4784
2026-01-05 08:59:55.09	333.02	4.82	-59.7	-73.5	3.8	1.49e+00	0	27	104	1465909248	84	18903
2026-01-05 08:59:58.11	332.96	4.61	-60.3	-74.1	3.8	1.49e+00	0	27	104	1465909248	85	19148
2026-01-05 09:00:01.11	332.90	4.40	-60.7	-74.5	3.8	1.49e+00	0	28	104	1465909248	86	18797
2026-01-05 09:00:04.12	332.84	4.19	-60.8	-74.7	3.8	1.49e+00	0	27	104	1465909248	86	19197
2026-01-05 09:00:07.14	332.79	3.99	-60.9	-74.8	3.8	1.49e+00	0	28	104	1465909248	87	18394
2026-01-05 09:00:10.15	332.73	3.78	-61.0	-74.8	3.8	1.49e+00	0	27	104	1465909248	87	18500
2026-01-05 09:00:13.15	332.68	3.58	-61.1	-74.9	3.8	1.49e+00	0	28	104	1465909248	87	18669
2026-01-05 09:00:16.16	332.63	3.38	-61.0	-74.9	3.8	1.49e+00	0	28	104	1465909248	87	18550
2026-01-05 09:00:19.15	332.58	3.18	-61.0	-74.8	3.8	1.49e+00	0	28	104	1465909248	87	18463
2026-01-05 09:00:22.14	332.53	2.99	-60.9	-74.8	3.8	1.49e+00	0	27	104	1465909248	87	18412
2026-01-05 09:00:25.11	332.48	2.79	-60.9	-74.8	3.8	1.49e+00	0	28	104	1465909248	87	18370
2026-01-05 09:00:28.09	332.43	2.60	-60.9	-74.7	3.8	1.49e+00	0	28	104	1465909248	87	18293
2026-01-05 09:00:31.08	332.38	2.41	-60.9	-74.7	3.8	1.49e+00	0	28	104	1465909248	87	18285
2026-01-05 09:00:34.05	332.33	2.22	-60.9	-74.7	3.8	1.49e+00	0	28	104	1465909248	87	18233
2026-01-05 09:00:37.03	332.29	2.03	-60.8	-74.7	3.8	1.49e+00	0	28	104	1465909248	87	18158

#Closed at: 2026-01-05 09:00:39
#Recorded file [1465 MB]: D:/lorett/data/31004_260105_115112.dat