passes_logs/2026/01/05/R3.2S_Murmansk/R3.2S_Murmansk__20260105_051949_FENGYUN_3D_rec.log

#Pass ID: 20260105_051949_FENGYUN 3D
#Satellite: FENGYUN 3D
#Configuration: FENGYUN 3D
#almurnet v.1.7.20251203
#Start time: 2026-01-05 05:19:48

#Version: 2.2.20231116
#Station: R3.2S_Murmansk
#Location: 33.079688 lon 68.888172 lat
#TLE: 1 43010U 17072A   26004.50247883 -.00000063  00000+0 -78815-5 0  9998
#TLE: 2 43010  98.9915 336.1565 0001968 126.3752 233.7605 14.19691805421760

#Time	Az	El	Level	Level2	SNR	BER	BlckErr	Temp	State	Recorded	gain1	gain2
2026-01-05 05:19:48.59	40.67	1.96	-58.1	-71.1	3.8	8.45e-01	0	25	0	0	82	15988
2026-01-05 05:19:52.57	40.47	2.20	-58.1	-71.1	3.8	8.45e-01	0	25	104	0	81	16906
2026-01-05 05:19:56.58	40.27	2.44	-58.1	-71.0	3.8	8.45e-01	0	25	104	0	81	16877
2026-01-05 05:20:00.57	40.06	2.68	-58.1	-71.0	3.8	8.45e-01	0	26	104	0	81	16853
2026-01-05 05:20:04.57	39.85	2.93	-58.1	-71.0	3.8	8.45e-01	0	25	104	0	81	16790
2026-01-05 05:20:08.56	39.64	3.17	-58.1	-70.8	3.8	8.46e-01	0	26	104	0	81	16426
2026-01-05 05:20:12.56	39.42	3.42	-58.1	-70.9	3.8	8.46e-01	0	26	104	0	81	16663
2026-01-05 05:20:16.56	39.20	3.67	-58.1	-71.1	3.8	8.46e-01	0	26	104	0	81	16900
2026-01-05 05:20:20.56	38.97	3.92	-58.0	-71.0	3.8	8.46e-01	0	26	104	0	81	16759
2026-01-05 05:20:24.56	38.74	4.17	-58.0	-69.9	3.8	8.45e-01	0	26	104	0	81	14813
2026-01-05 05:20:28.56	38.51	4.43	-57.8	-68.3	4.0	8.43e-01	0	26	104	0	81	12266
2026-01-05 05:20:32.55	38.27	4.68	-57.2	-64.2	5.6	7.13e-01	0	26	0	0	81	7715
2026-01-05 05:20:36.52	38.03	4.94	-55.4	-59.2	9.6	6.63e-03	0	26	0	22020096	77	5434
2026-01-05 05:20:40.51	37.78	5.20	-54.9	-58.2	10.4	4.00e-02	0	26	0	45088768	76	5129
2026-01-05 05:20:44.49	37.53	5.46	-50.0	-51.5	14.0	0.00e+00	0	26	0	67108864	66	4231
2026-01-05 05:20:48.48	37.27	5.72	-49.6	-51.1	14.2	0.00e+00	0	26	0	89128960	65	4248
2026-01-05 05:20:52.47	37.01	5.99	-49.5	-51.0	14.2	0.00e+00	0	26	0	112197632	65	4209
2026-01-05 05:20:56.45	36.74	6.26	-49.5	-50.9	14.3	0.00e+00	0	26	0	134217728	65	4186
2026-01-05 05:21:00.45	36.47	6.53	-49.4	-50.8	14.3	0.00e+00	0	27	0	157286400	65	4120
2026-01-05 05:21:04.44	36.19	6.80	-49.4	-50.8	14.3	0.00e+00	0	27	0	179306496	65	4132
2026-01-05 05:21:08.46	35.90	7.08	-49.1	-50.5	14.4	0.00e+00	0	27	0	202375168	64	4221
2026-01-05 05:21:12.45	35.61	7.35	-49.1	-50.5	14.4	0.00e+00	0	27	0	224395264	64	4208
2026-01-05 05:21:16.44	35.32	7.63	-49.0	-50.3	14.5	0.00e+00	0	27	0	247463936	64	4128
2026-01-05 05:21:20.43	35.02	7.91	-48.9	-50.2	14.5	0.00e+00	0	27	0	269484032	64	4089
2026-01-05 05:21:24.43	34.71	8.20	-48.9	-50.2	14.5	0.00e+00	0	27	0	291504128	64	4095
2026-01-05 05:21:28.44	34.39	8.49	-48.8	-50.1	14.6	0.00e+00	0	27	0	314572800	64	4040
2026-01-05 05:21:32.43	34.07	8.78	-48.8	-50.1	14.6	0.00e+00	0	27	0	336592896	64	4009
2026-01-05 05:21:36.41	33.74	9.07	-48.8	-50.1	14.6	0.00e+00	0	27	0	359661568	64	4030
2026-01-05 05:21:40.40	33.41	9.36	-48.8	-50.1	14.6	0.00e+00	0	27	0	381681664	64	4006
2026-01-05 05:21:44.37	33.07	9.65	-48.6	-49.9	14.6	0.00e+00	0	27	0	403701760	63	4159
2026-01-05 05:21:48.33	32.72	9.95	-48.5	-49.8	14.7	0.00e+00	0	27	0	426770432	63	4115
2026-01-05 05:21:52.28	32.37	10.25	-48.6	-49.9	14.6	0.00e+00	0	27	0	448790528	63	4171
2026-01-05 05:21:56.25	32.01	10.55	-48.5	-49.7	14.7	0.00e+00	0	27	0	470810624	63	4089
2026-01-05 05:22:00.21	31.64	10.86	-48.4	-49.6	14.8	0.00e+00	0	27	0	492830720	63	4039
2026-01-05 05:22:04.18	31.26	11.16	-48.2	-49.5	14.7	0.00e+00	0	27	0	514850816	62	4202
2026-01-05 05:22:08.14	30.88	11.47	-48.2	-49.4	14.7	0.00e+00	0	27	0	537919488	62	4171
2026-01-05 05:22:12.11	30.48	11.79	-48.1	-49.3	14.8	0.00e+00	0	27	0	559939584	62	4140
2026-01-05 05:22:16.09	30.08	12.10	-47.9	-49.2	14.8	0.00e+00	0	27	0	583008256	62	4059
2026-01-05 05:22:20.05	29.67	12.42	-47.8	-49.0	14.9	0.00e+00	0	27	0	605028352	62	3992
2026-01-05 05:22:24.03	29.24	12.74	-47.9	-49.1	14.9	0.00e+00	0	27	0	627048448	62	4015
2026-01-05 05:22:28.02	28.81	13.06	-47.9	-49.1	14.8	0.00e+00	0	27	0	649068544	62	4039
2026-01-05 05:22:31.99	28.37	13.39	-47.8	-49.0	14.9	0.00e+00	0	27	0	672137216	62	3971
2026-01-05 05:22:35.94	27.92	13.72	-47.5	-48.7	14.9	0.00e+00	0	27	0	694157312	61	4053
2026-01-05 05:22:39.88	27.46	14.05	-47.6	-48.7	14.9	0.00e+00	0	27	0	716177408	61	4087
2026-01-05 05:22:43.83	26.99	14.38	-47.4	-48.6	14.9	0.00e+00	0	27	0	738197504	61	4023
2026-01-05 05:22:47.81	26.51	14.71	-47.4	-48.5	15.0	0.00e+00	0	27	0	761266176	61	3989
2026-01-05 05:22:51.79	26.01	15.05	-47.3	-48.5	15.0	0.00e+00	0	27	0	783286272	61	3967
2026-01-05 05:22:55.77	25.50	15.40	-46.9	-48.0	15.0	0.00e+00	0	27	0	805306368	60	4003
2026-01-05 05:22:59.75	24.98	15.74	-46.9	-48.0	15.0	0.00e+00	0	27	0	828375040	60	3979
2026-01-05 05:23:03.72	24.45	16.09	-47.0	-48.2	15.0	0.00e+00	0	27	0	850395136	60	4056
2026-01-05 05:23:07.71	23.90	16.44	-46.9	-48.1	15.0	0.00e+00	0	27	0	872415232	60	4007
2026-01-05 05:23:11.71	23.34	16.79	-46.8	-47.9	15.1	0.00e+00	0	27	0	895483904	60	3943
2026-01-05 05:23:15.70	22.77	17.14	-47.0	-48.1	14.9	0.00e+00	0	27	0	917504000	59	4271
2026-01-05 05:23:19.70	22.18	17.50	-47.0	-48.1	14.9	0.00e+00	0	27	0	940572672	59	4275
2026-01-05 05:23:23.70	21.57	17.86	-46.9	-48.1	14.9	0.00e+00	0	27	0	962592768	59	4256
2026-01-05 05:23:27.69	20.95	18.22	-46.8	-47.9	15.0	0.00e+00	0	27	0	985661440	59	4175
2026-01-05 05:23:31.67	20.32	18.58	-46.7	-47.8	15.0	0.00e+00	0	27	0	1007681536	59	4140
2026-01-05 05:23:35.66	19.67	18.95	-46.5	-47.6	15.1	0.00e+00	0	27	0	1029701632	59	4020
2026-01-05 05:23:39.66	19.01	19.31	-46.4	-47.5	15.1	0.00e+00	0	27	0	1052770304	59	3979
2026-01-05 05:23:43.64	18.33	19.68	-46.6	-47.7	15.1	0.00e+00	0	27	0	1074790400	59	4068
2026-01-05 05:23:47.60	17.64	20.04	-46.4	-47.5	15.1	0.00e+00	0	27	0	1096810496	59	3991
2026-01-05 05:23:51.58	16.93	20.41	-46.5	-47.6	15.1	0.00e+00	0	27	0	1119879168	59	4013
2026-01-05 05:23:55.53	16.20	20.78	-46.7	-47.8	15.0	0.00e+00	0	27	0	1141899264	59	4136
2026-01-05 05:23:59.51	15.45	21.14	-46.4	-47.5	15.1	0.00e+00	0	27	0	1163919360	59	3998
2026-01-05 05:24:03.49	14.69	21.51	-46.4	-47.5	15.1	0.00e+00	0	27	0	1186988032	59	4004
2026-01-05 05:24:07.45	13.90	21.88	-46.3	-47.4	15.2	0.00e+00	0	27	0	1209008128	59	3942
2026-01-05 05:24:11.43	13.10	22.25	-46.1	-47.1	15.1	0.00e+00	0	27	0	1231028224	58	4046
2026-01-05 05:24:15.41	12.28	22.61	-46.1	-47.2	15.1	0.00e+00	0	27	0	1254096896	58	4063
2026-01-05 05:24:19.39	11.43	22.98	-45.8	-46.8	15.2	0.00e+00	0	27	0	1276116992	58	3899
2026-01-05 05:24:23.37	10.57	23.34	-45.7	-46.7	15.1	0.00e+00	0	27	0	1298137088	57	4076
2026-01-05 05:24:27.34	9.69	23.70	-45.9	-47.0	15.0	0.00e+00	0	27	0	1321205760	57	4213
2026-01-05 05:24:31.30	8.79	24.06	-45.5	-46.6	15.2	0.00e+00	0	27	0	1343225856	57	4009
2026-01-05 05:24:35.28	7.86	24.41	-45.5	-46.5	15.2	0.00e+00	0	27	0	1365245952	57	3994
2026-01-05 05:24:39.25	6.92	24.76	-45.4	-46.5	15.2	0.00e+00	0	27	0	1387266048	57	3964
2026-01-05 05:24:43.22	5.95	25.11	-45.3	-46.3	15.3	0.00e+00	0	27	0	1410334720	57	3893
2026-01-05 05:24:47.19	4.96	25.45	-45.6	-46.7	15.2	0.00e+00	0	27	0	1432354816	57	4052
2026-01-05 05:24:51.17	3.95	25.79	-45.4	-46.5	15.2	0.00e+00	0	27	0	1454374912	57	3971
2026-01-05 05:24:55.14	2.92	26.12	-45.4	-46.4	15.2	0.00e+00	0	27	0	1477443584	57	3933
2026-01-05 05:24:59.12	1.86	26.45	-45.8	-46.8	15.1	0.00e+00	0	27	0	1499463680	57	4135
2026-01-05 05:25:03.10	0.78	26.77	-45.4	-46.4	15.2	0.00e+00	0	27	0	1521483776	57	3941
2026-01-05 05:25:07.09	359.68	27.08	-45.1	-46.1	15.2	0.00e+00	0	27	0	1544552448	56	4036
2026-01-05 05:25:11.07	358.56	27.38	-45.0	-46.1	15.2	0.00e+00	0	27	0	1566572544	56	4014
2026-01-05 05:25:15.07	357.41	27.67	-45.3	-46.3	15.1	0.00e+00	0	27	0	1589641216	56	4136
2026-01-05 05:25:19.06	356.24	27.96	-45.3	-46.3	15.1	0.00e+00	0	27	0	1611661312	56	4143
2026-01-05 05:25:23.06	355.05	28.23	-45.1	-46.1	15.2	0.00e+00	0	27	0	1633681408	56	4049
2026-01-05 05:25:27.05	353.85	28.49	-45.3	-46.3	15.1	0.00e+00	0	27	0	1656750080	56	4135
2026-01-05 05:25:31.05	352.62	28.74	-44.8	-45.8	15.3	0.00e+00	0	27	0	1678770176	56	3906
2026-01-05 05:25:35.05	351.37	28.98	-45.0	-46.1	15.2	0.00e+00	0	27	0	1701838848	56	4014
2026-01-05 05:25:39.05	350.10	29.20	-45.1	-46.1	15.2	0.00e+00	0	27	0	1723858944	56	4028
2026-01-05 05:25:43.04	348.82	29.41	-45.0	-46.0	15.2	0.00e+00	0	27	0	1746927616	56	3999
2026-01-05 05:25:47.01	347.53	29.60	-45.0	-46.0	15.2	0.00e+00	0	27	0	1768947712	56	3985
2026-01-05 05:25:51.00	346.21	29.78	-45.1	-46.1	15.2	0.00e+00	0	27	0	1790967808	56	4044
2026-01-05 05:25:54.96	344.90	29.94	-44.8	-45.8	15.3	0.00e+00	0	27	0	1814036480	56	3888
2026-01-05 05:25:58.95	343.56	30.09	-44.9	-45.9	15.2	0.00e+00	0	27	0	1836056576	56	3957
2026-01-05 05:26:02.91	342.22	30.22	-45.1	-46.1	15.2	0.00e+00	0	27	0	1858076672	56	4050
2026-01-05 05:26:06.90	340.85	30.33	-44.9	-45.9	15.3	0.00e+00	0	27	0	1881145344	56	3916
2026-01-05 05:26:10.89	339.48	30.42	-44.9	-45.9	15.3	0.00e+00	0	27	0	1903165440	56	3947
2026-01-05 05:26:14.89	338.10	30.50	-44.8	-45.7	15.3	0.00e+00	0	27	0	1926234112	56	3868
2026-01-05 05:26:18.86	336.73	30.55	-44.8	-45.8	15.3	0.00e+00	0	27	0	1948254208	56	3877
2026-01-05 05:26:22.83	335.35	30.59	-44.7	-45.7	15.3	0.00e+00	0	27	0	1970274304	56	3855
2026-01-05 05:26:26.78	333.97	30.61	-45.0	-46.0	15.2	0.00e+00	0	27	0	1992294400	56	3975
2026-01-05 05:26:30.75	332.59	30.61	-44.9	-45.9	15.3	0.00e+00	0	27	0	2015363072	56	3956
2026-01-05 05:26:34.71	331.21	30.59	-44.8	-45.9	15.3	0.00e+00	0	27	0	2037383168	56	3922
2026-01-05 05:26:38.69	329.82	30.55	-44.8	-45.8	15.3	0.00e+00	0	27	0	2059403264	56	3906
2026-01-05 05:26:42.64	328.45	30.50	-44.8	-45.9	15.3	0.00e+00	0	27	0	2081423360	56	3916
2026-01-05 05:26:46.61	327.08	30.42	-44.9	-45.9	15.3	0.00e+00	0	28	0	2104492032	56	3924
2026-01-05 05:26:50.59	325.71	30.33	-44.9	-45.9	15.3	0.00e+00	0	27	0	2126512128	56	3926
2026-01-05 05:26:54.56	324.36	30.22	-44.7	-45.7	15.3	0.00e+00	0	27	0	2148532224	56	3841
2026-01-05 05:26:58.52	323.01	30.09	-44.9	-45.9	15.3	0.00e+00	0	27	0	2170552320	56	3950
2026-01-05 05:27:02.48	321.68	29.95	-45.0	-46.0	15.2	0.00e+00	0	27	0	2193620992	56	3977
2026-01-05 05:27:06.46	320.36	29.78	-44.8	-45.8	15.3	0.00e+00	0	27	0	2215641088	56	3892
2026-01-05 05:27:10.44	319.05	29.61	-45.0	-46.0	15.2	0.00e+00	0	27	0	2238709760	56	3999
2026-01-05 05:27:14.41	317.75	29.41	-45.4	-46.4	15.1	0.00e+00	0	27	0	2260729856	56	4175
2026-01-05 05:27:18.38	316.48	29.21	-45.5	-46.5	15.1	0.00e+00	0	28	0	2282749952	56	4240
2026-01-05 05:27:22.33	315.22	28.98	-45.1	-46.1	15.2	0.00e+00	0	27	0	2304770048	56	4047
2026-01-05 05:27:26.28	313.99	28.75	-45.1	-46.1	15.2	0.00e+00	0	27	0	2327838720	56	4050
2026-01-05 05:27:30.24	312.77	28.50	-45.2	-46.2	15.2	0.00e+00	0	27	0	2349858816	56	4074
2026-01-05 05:27:34.19	311.57	28.25	-45.4	-46.4	15.1	0.00e+00	0	27	0	2371878912	56	4172
2026-01-05 05:27:38.15	310.39	27.98	-45.0	-46.1	15.2	0.00e+00	0	27	0	2393899008	56	4010
2026-01-05 05:27:42.11	309.23	27.69	-45.1	-46.1	15.2	0.00e+00	0	27	0	2415919104	56	4038
2026-01-05 05:27:46.06	308.09	27.40	-45.2	-46.3	15.2	0.00e+00	0	27	0	2438987776	56	4114
2026-01-05 05:27:50.01	306.97	27.10	-45.2	-46.2	15.2	0.00e+00	0	28	0	2461007872	56	4068
2026-01-05 05:27:53.98	305.87	26.80	-45.6	-46.7	15.1	0.00e+00	0	27	0	2483027968	56	4299
2026-01-05 05:27:57.92	304.80	26.48	-45.6	-46.6	15.1	0.00e+00	0	27	0	2505048064	56	4285
2026-01-05 05:28:01.87	303.75	26.16	-45.6	-46.7	15.1	0.00e+00	0	27	0	2527068160	56	4324
2026-01-05 05:28:05.83	302.71	25.83	-45.4	-46.4	15.1	0.00e+00	0	28	0	2550136832	56	4176
2026-01-05 05:28:09.80	301.70	25.49	-45.8	-46.9	15.1	0.00e+00	0	27	0	2572156928	56	4407
2026-01-05 05:28:13.76	300.71	25.15	-45.5	-46.5	15.1	0.00e+00	0	27	0	2594177024	56	4238
2026-01-05 05:28:17.73	299.74	24.80	-45.5	-46.6	15.1	0.00e+00	0	27	0	2616197120	56	4253
2026-01-05 05:28:21.68	298.79	24.45	-45.8	-46.8	15.1	0.00e+00	0	28	0	2639265792	56	4375
2026-01-05 05:28:25.63	297.87	24.10	-45.8	-46.9	15.0	0.00e+00	0	27	0	2661285888	56	4395
2026-01-05 05:28:29.58	296.97	23.74	-46.1	-47.1	15.1	0.00e+00	0	27	0	2683305984	57	4290
2026-01-05 05:28:33.54	296.08	23.38	-46.3	-47.4	15.0	0.00e+00	0	27	0	2705326080	57	4398
2026-01-05 05:28:37.49	295.22	23.02	-46.2	-47.3	15.0	0.00e+00	0	27	0	2728394752	57	4341
2026-01-05 05:28:41.44	294.38	22.66	-46.3	-47.4	15.0	0.00e+00	0	27	0	2750414848	57	4401
2026-01-05 05:28:45.39	293.55	22.30	-46.3	-47.4	15.0	0.00e+00	0	27	0	2772434944	57	4414
2026-01-05 05:28:49.34	292.75	21.93	-46.3	-47.3	15.0	0.00e+00	0	27	0	2794455040	57	4380
2026-01-05 05:28:53.29	291.97	21.57	-46.5	-47.6	15.0	0.00e+00	0	27	0	2816475136	58	4286
2026-01-05 05:28:57.24	291.20	21.20	-46.3	-47.3	15.1	0.00e+00	0	27	0	2838495232	58	4142
2026-01-05 05:29:01.18	290.45	20.83	-46.4	-47.5	15.0	0.00e+00	0	27	0	2860515328	58	4221
2026-01-05 05:29:05.14	289.72	20.47	-46.3	-47.4	15.1	0.00e+00	0	27	0	2883584000	58	4161
2026-01-05 05:29:09.09	289.01	20.10	-46.4	-47.5	15.0	0.00e+00	0	28	0	2905604096	58	4232
2026-01-05 05:29:13.05	288.31	19.74	-46.5	-47.6	15.0	0.00e+00	0	27	0	2927624192	58	4277
2026-01-05 05:29:17.02	287.63	19.37	-46.6	-47.8	15.0	0.00e+00	0	27	0	2949644288	58	4345
2026-01-05 05:29:20.97	286.97	19.01	-46.6	-47.6	15.0	0.00e+00	0	27	0	2972712960	58	4291
2026-01-05 05:29:24.92	286.32	18.65	-46.7	-47.9	14.9	0.00e+00	0	27	0	2994733056	58	4398
2026-01-05 05:29:28.88	285.69	18.28	-47.0	-48.2	15.0	0.00e+00	0	27	0	3016753152	59	4299
2026-01-05 05:29:32.84	285.07	17.93	-47.1	-48.2	14.9	0.00e+00	0	27	0	3038773248	59	4331
2026-01-05 05:29:36.79	284.47	17.57	-47.2	-48.3	14.9	0.00e+00	0	27	0	3061841920	59	4386
2026-01-05 05:29:40.73	283.88	17.22	-47.3	-48.5	14.9	0.00e+00	0	27	0	3083862016	59	4452
2026-01-05 05:29:44.71	283.30	16.86	-47.0	-48.1	15.1	0.00e+00	0	27	0	3105882112	60	4007
2026-01-05 05:29:48.66	282.74	16.51	-47.2	-48.4	15.0	0.00e+00	0	27	0	3127902208	60	4162
2026-01-05 05:29:52.64	282.19	16.16	-47.1	-48.2	15.0	0.00e+00	0	27	0	3150970880	60	4095
2026-01-05 05:29:56.61	281.65	15.81	-47.2	-48.3	15.0	0.00e+00	0	27	0	3172990976	60	4121
2026-01-05 05:30:00.56	281.13	15.47	-47.4	-48.5	14.9	0.00e+00	0	28	0	3195011072	60	4240
2026-01-05 05:30:04.53	280.62	15.13	-47.2	-48.3	14.9	0.00e+00	0	27	0	3217031168	60	4128
2026-01-05 05:30:08.51	280.12	14.79	-47.6	-48.8	14.8	0.00e+00	0	27	0	3240099840	60	4343
2026-01-05 05:30:12.48	279.63	14.45	-47.8	-49.0	14.8	0.00e+00	0	27	0	3262119936	60	4450
2026-01-05 05:30:16.47	279.15	14.11	-47.7	-48.8	14.8	0.00e+00	0	27	0	3284140032	60	4379
2026-01-05 05:30:20.45	278.68	13.78	-47.8	-49.0	14.7	0.00e+00	0	27	0	3307208704	60	4442
2026-01-05 05:30:24.44	278.22	13.45	-47.9	-49.1	14.8	0.00e+00	0	27	0	3329228800	61	4284
2026-01-05 05:30:28.42	277.78	13.12	-47.8	-48.9	14.8	0.00e+00	0	27	0	3351248896	61	4177
2026-01-05 05:30:32.40	277.34	12.79	-47.9	-49.1	14.8	0.00e+00	0	27	0	3374317568	61	4246
2026-01-05 05:30:36.40	276.91	12.47	-48.1	-49.3	14.7	0.00e+00	0	27	0	3396337664	61	4367
2026-01-05 05:30:40.39	276.49	12.15	-48.2	-49.4	14.7	0.00e+00	0	28	0	3419406336	61	4427
2026-01-05 05:30:44.39	276.08	11.83	-48.2	-49.4	14.7	0.00e+00	0	27	0	3441426432	61	4429
2026-01-05 05:30:48.37	275.68	11.51	-48.4	-49.6	14.7	0.00e+00	0	28	0	3463446528	62	4266
2026-01-05 05:30:52.37	275.29	11.20	-48.5	-49.7	14.7	0.00e+00	0	28	0	3486515200	62	4323
2026-01-05 05:30:56.35	274.91	10.89	-48.5	-49.8	14.6	0.00e+00	0	28	0	3508535296	62	4353
2026-01-05 05:31:00.29	274.53	10.59	-48.6	-49.8	14.6	0.00e+00	0	28	0	3531603968	62	4363
2026-01-05 05:31:04.28	274.17	10.28	-48.5	-49.8	14.6	0.00e+00	0	28	0	3553624064	62	4349
2026-01-05 05:31:08.28	273.81	9.98	-48.6	-49.8	14.6	0.00e+00	0	28	0	3575644160	62	4357
2026-01-05 05:31:12.28	273.45	9.68	-48.6	-49.9	14.6	0.00e+00	0	28	0	3598712832	62	4395
2026-01-05 05:31:16.28	273.11	9.38	-48.7	-50.0	14.5	0.00e+00	0	28	0	3620732928	62	4463
2026-01-05 05:31:20.27	272.77	9.09	-48.8	-50.1	14.6	0.00e+00	0	28	0	3643801600	63	4252
2026-01-05 05:31:24.27	272.44	8.79	-48.9	-50.2	14.6	0.00e+00	0	28	0	3665821696	63	4304
2026-01-05 05:31:28.26	272.12	8.50	-49.0	-50.2	14.5	0.00e+00	0	28	0	3687841792	63	4334
2026-01-05 05:31:32.25	271.80	8.22	-49.0	-50.2	14.5	0.00e+00	0	28	0	3710910464	63	4340
2026-01-05 05:31:36.25	271.49	7.93	-49.2	-50.5	14.4	0.00e+00	0	28	0	3732930560	63	4480
2026-01-05 05:31:40.24	271.19	7.65	-49.7	-51.1	14.2	0.00e+00	0	28	0	3755999232	64	4521
2026-01-05 05:31:44.22	270.89	7.37	-49.7	-51.1	14.2	0.00e+00	0	28	0	3778019328	64	4520
2026-01-05 05:31:48.20	270.60	7.09	-49.6	-51.0	14.2	0.00e+00	0	28	0	3801088000	64	4451
2026-01-05 05:31:52.17	270.31	6.82	-50.0	-51.5	14.0	0.00e+00	0	28	0	3823108096	65	4493
2026-01-05 05:31:56.15	270.03	6.54	-50.8	-52.4	13.7	0.00e+00	0	28	0	3845128192	66	4694
2026-01-05 05:32:00.14	269.76	6.27	-52.3	-54.3	12.9	0.00e+00	0	28	0	3868196864	69	4878
2026-01-05 05:32:04.11	269.49	6.01	-52.6	-54.7	12.7	0.00e+00	0	28	0	3890216960	70	4852
2026-01-05 05:32:08.10	269.22	5.74	-52.2	-54.1	13.1	0.00e+00	0	28	0	3912237056	70	4516
2026-01-05 05:32:12.08	268.96	5.47	-52.4	-54.4	12.9	0.00e+00	0	28	0	3934257152	70	4681
2026-01-05 05:32:16.06	268.71	5.21	-53.0	-55.2	12.4	1.10e-06	0	28	0	3957325824	71	4844
2026-01-05 05:32:20.05	268.46	4.95	-58.7	-71.0	3.8	3.62e-01	0	28	104	3978297344	82	15845
2026-01-05 05:32:24.05	268.21	4.69	-60.1	-73.1	3.8	8.45e-01	0	27	104	3978297344	85	17079
2026-01-05 05:32:28.04	267.97	4.44	-60.6	-73.6	3.8	8.45e-01	0	28	104	3978297344	86	17010
2026-01-05 05:32:32.03	267.73	4.18	-61.0	-74.0	3.8	8.46e-01	0	28	104	3978297344	87	16791
2026-01-05 05:32:36.03	267.50	3.93	-61.1	-74.2	3.8	8.44e-01	0	28	104	3978297344	87	17209
2026-01-05 05:32:40.01	267.27	3.68	-61.3	-74.3	3.8	8.46e-01	0	28	104	3978297344	87	17471
2026-01-05 05:32:44.00	267.05	3.43	-61.2	-74.2	3.8	8.46e-01	0	28	104	3978297344	87	17257
2026-01-05 05:32:47.99	266.83	3.18	-61.1	-74.1	3.8	8.45e-01	0	28	104	3978297344	87	17020
2026-01-05 05:32:51.96	266.61	2.94	-61.0	-74.1	3.8	8.45e-01	0	28	104	3978297344	87	16960
2026-01-05 05:32:55.95	266.40	2.69	-61.0	-74.0	3.9	8.45e-01	0	28	104	3978297344	87	16878
2026-01-05 05:32:59.92	266.19	2.45	-60.9	-74.0	3.8	8.45e-01	0	28	104	3978297344	87	16710
2026-01-05 05:33:03.89	265.98	2.21	-60.9	-74.0	3.8	8.45e-01	0	28	104	3978297344	87	16704
2026-01-05 05:33:07.86	265.78	1.98	-60.9	-73.9	3.8	8.46e-01	0	28	104	3978297344	87	16653

#Closed at: 2026-01-05 05:33:09
#Recorded file [3978 MB]: D:/lorett/data/31004_260105_081948.dat