passes_logs/2026/01/05/R3.2S_Murmansk/R3.2S_Murmansk__20260105_091546_SUOMI_NPP_rec.log

#Pass ID: 20260105_091546_SUOMI NPP
#Satellite: SUOMI NPP
#Configuration: NPP
#almurnet v.1.7.20251203
#Start time: 2026-01-05 09:15:46

#Version: 2.2.20231116
#Station: R3.2S_Murmansk
#Location: 33.079688 lon 68.888172 lat
#TLE: 1 37849U 11061A   26003.96724563  .00000164  00000+0  98899-4 0  9990
#TLE: 2 37849  98.7800 306.1116 0002573  82.3190 277.8279 14.19522066735141

#Time	Az	El	Level	Level2	SNR	BER	BlckErr	Temp	State	Recorded	gain1	gain2
2026-01-05 09:15:46.79	143.78	2.04	-58.1	-74.1	3.8	1.49e+00	0	25	0	0	82	22605
2026-01-05 09:15:50.76	143.76	2.29	-58.0	-74.0	3.8	1.49e+00	0	25	104	0	81	23847
2026-01-05 09:15:54.73	143.74	2.55	-58.1	-74.1	3.8	1.49e+00	0	25	104	0	81	23892
2026-01-05 09:15:58.71	143.71	2.81	-58.0	-74.0	3.8	1.49e+00	0	26	104	0	81	23582
2026-01-05 09:16:02.66	143.69	3.07	-58.0	-73.4	3.8	1.49e+00	0	26	104	0	81	22131
2026-01-05 09:16:06.62	143.66	3.34	-57.9	-71.3	3.9	1.48e+00	0	26	104	0	81	17449
2026-01-05 09:16:10.58	143.63	3.61	-57.7	-68.4	5.0	6.71e-01	0	26	0	3145728	81	12432
2026-01-05 09:16:14.53	143.61	3.88	-57.2	-64.8	7.4	1.12e-01	0	26	0	10485760	81	8238
2026-01-05 09:16:18.49	143.58	4.15	-56.3	-61.6	10.1	1.54e-03	0	26	0	18874368	79	6362
2026-01-05 09:16:22.45	143.55	4.43	-55.2	-59.0	12.0	2.20e-06	0	26	0	26214400	77	5305
2026-01-05 09:16:26.42	143.52	4.71	-55.1	-58.8	12.0	2.20e-06	0	26	0	33554432	76	5521
2026-01-05 09:16:30.38	143.49	4.99	-55.9	-60.4	10.8	6.56e-05	0	26	0	40894464	76	6642
2026-01-05 09:16:34.34	143.46	5.27	-57.7	-68.8	4.1	1.26e+00	0	26	104	47185920	80	13770
2026-01-05 09:16:38.33	143.43	5.56	-54.2	-57.1	13.0	0.00e+00	0	26	0	53477376	74	5056
2026-01-05 09:16:42.30	143.39	5.85	-54.1	-57.0	13.1	0.00e+00	0	26	0	60817408	74	5008
2026-01-05 09:16:46.27	143.36	6.15	-53.9	-56.6	13.4	0.00e+00	0	26	0	68157440	74	4766
2026-01-05 09:16:50.28	143.32	6.45	-53.9	-56.5	13.4	0.00e+00	0	26	0	75497472	74	4758
2026-01-05 09:16:54.27	143.29	6.75	-53.9	-56.5	13.5	0.00e+00	0	26	0	82837504	74	4734
2026-01-05 09:16:58.25	143.25	7.06	-53.9	-56.5	13.5	0.00e+00	0	26	0	90177536	74	4731
2026-01-05 09:17:02.24	143.21	7.37	-53.6	-56.1	13.6	0.00e+00	0	27	0	97517568	73	4802
2026-01-05 09:17:06.19	143.17	7.68	-53.5	-55.9	13.7	0.00e+00	0	27	0	105906176	73	4654
2026-01-05 09:17:10.17	143.13	8.00	-53.4	-55.7	13.8	0.00e+00	0	27	0	113246208	73	4591
2026-01-05 09:17:14.12	143.09	8.32	-53.2	-55.5	13.9	0.00e+00	0	26	0	120586240	73	4458
2026-01-05 09:17:18.07	143.05	8.64	-53.2	-55.5	13.9	0.00e+00	0	27	0	127926272	73	4469
2026-01-05 09:17:22.04	143.00	8.97	-53.3	-55.6	13.9	0.00e+00	0	27	0	135266304	73	4505
2026-01-05 09:17:26.00	142.96	9.31	-53.0	-55.1	14.1	0.00e+00	0	27	0	142606336	72	4518
2026-01-05 09:17:29.93	142.91	9.64	-52.9	-55.0	14.1	0.00e+00	0	27	0	149946368	72	4477
2026-01-05 09:17:33.88	142.87	9.98	-53.0	-55.1	14.1	0.00e+00	0	27	0	157286400	72	4508
2026-01-05 09:17:37.82	142.82	10.33	-53.0	-55.1	14.1	0.00e+00	0	27	0	164626432	72	4511
2026-01-05 09:17:41.77	142.77	10.68	-53.1	-55.4	14.0	0.00e+00	0	27	0	171966464	72	4656
2026-01-05 09:17:45.72	142.71	11.03	-52.9	-54.9	14.2	0.00e+00	0	27	0	179306496	72	4434
2026-01-05 09:17:49.66	142.66	11.39	-52.8	-54.8	14.1	0.00e+00	0	27	0	186646528	71	4630
2026-01-05 09:17:53.60	142.60	11.76	-52.6	-54.6	14.2	0.00e+00	0	27	0	193986560	71	4537
2026-01-05 09:17:57.55	142.55	12.13	-52.5	-54.5	14.3	0.00e+00	0	27	0	201326592	71	4452
2026-01-05 09:18:01.50	142.49	12.51	-52.6	-54.6	14.2	0.00e+00	0	27	0	208666624	71	4530
2026-01-05 09:18:05.44	142.43	12.89	-52.5	-54.4	14.3	0.00e+00	0	27	0	216006656	71	4428
2026-01-05 09:18:09.40	142.36	13.28	-52.4	-54.4	14.3	0.00e+00	0	27	0	224395264	71	4410
2026-01-05 09:18:13.34	142.30	13.67	-52.5	-54.4	14.3	0.00e+00	0	27	0	231735296	71	4436
2026-01-05 09:18:17.29	142.23	14.08	-52.4	-54.4	14.3	0.00e+00	0	27	0	239075328	71	4413
2026-01-05 09:18:21.25	142.16	14.49	-52.1	-54.4	14.3	0.00e+00	0	27	0	246415360	70	4675
2026-01-05 09:18:25.22	142.09	14.90	-51.8	-54.0	14.5	0.00e+00	0	27	0	253755392	70	4446
2026-01-05 09:18:29.18	142.01	15.33	-51.7	-53.9	14.4	0.00e+00	0	27	0	261095424	69	4656
2026-01-05 09:18:33.15	141.94	15.76	-51.5	-53.5	14.5	0.00e+00	0	27	0	268435456	69	4470
2026-01-05 09:18:37.10	141.86	16.20	-51.3	-53.3	14.5	0.00e+00	0	27	0	275775488	68	4617
2026-01-05 09:18:41.08	141.77	16.65	-51.1	-53.1	14.6	0.00e+00	0	27	0	283115520	68	4520
2026-01-05 09:18:45.05	141.69	17.11	-51.3	-53.2	14.6	0.00e+00	0	27	0	290455552	68	4573
2026-01-05 09:18:49.02	141.60	17.57	-51.4	-53.3	14.5	0.00e+00	0	27	0	297795584	68	4647
2026-01-05 09:18:52.98	141.51	18.04	-51.4	-53.3	14.5	0.00e+00	0	27	0	305135616	68	4643
2026-01-05 09:18:56.96	141.41	18.53	-51.3	-53.2	14.5	0.00e+00	0	27	0	313524224	68	4593
2026-01-05 09:19:00.93	141.31	19.02	-51.2	-53.1	14.6	0.00e+00	0	27	0	320864256	68	4501
2026-01-05 09:19:04.90	141.21	19.53	-51.3	-53.2	14.6	0.00e+00	0	27	0	328204288	68	4598
2026-01-05 09:19:08.88	141.10	20.04	-51.3	-53.1	14.6	0.00e+00	0	27	0	335544320	68	4545
2026-01-05 09:19:12.84	140.99	20.56	-51.6	-53.5	14.4	0.00e+00	0	27	0	342884352	68	4759
2026-01-05 09:19:16.81	140.88	21.10	-51.3	-53.2	14.6	0.00e+00	0	27	0	350224384	68	4585
2026-01-05 09:19:20.79	140.76	21.65	-51.2	-53.1	14.6	0.00e+00	0	27	0	357564416	68	4509
2026-01-05 09:19:24.76	140.63	22.20	-51.1	-53.0	14.7	0.00e+00	0	27	0	364904448	68	4451
2026-01-05 09:19:28.73	140.50	22.78	-51.3	-53.2	14.6	0.00e+00	0	27	0	372244480	68	4547
2026-01-05 09:19:32.69	140.37	23.36	-51.3	-53.1	14.6	0.00e+00	0	27	0	380633088	68	4509
2026-01-05 09:19:36.66	140.23	23.95	-51.3	-53.1	14.6	0.00e+00	0	27	0	387973120	68	4545
2026-01-05 09:19:40.64	140.08	24.57	-51.6	-53.5	14.5	0.00e+00	0	27	0	395313152	68	4749
2026-01-05 09:19:44.59	139.93	25.19	-52.3	-54.4	14.2	0.00e+00	0	27	0	402653184	69	4956
2026-01-05 09:19:48.56	139.77	25.83	-52.0	-54.0	14.4	0.00e+00	0	27	0	409993216	69	4723
2026-01-05 09:19:52.51	139.60	26.48	-51.6	-53.5	14.6	0.00e+00	0	27	0	417333248	69	4462
2026-01-05 09:19:56.48	139.43	27.15	-51.7	-53.5	14.6	0.00e+00	0	27	0	424673280	69	4459
2026-01-05 09:20:00.45	139.25	27.84	-52.2	-54.2	14.4	0.00e+00	0	27	0	432013312	70	4559
2026-01-05 09:20:04.41	139.06	28.54	-52.0	-53.9	14.6	0.00e+00	0	27	0	439353344	70	4401
2026-01-05 09:20:08.40	138.85	29.27	-52.2	-54.2	14.5	0.00e+00	0	27	0	446693376	70	4574
2026-01-05 09:20:12.38	138.64	30.01	-53.0	-55.2	14.1	0.00e+00	0	27	0	454033408	71	4835
2026-01-05 09:20:16.36	138.42	30.77	-52.8	-54.9	14.4	0.00e+00	0	27	0	462422016	72	4432
2026-01-05 09:20:20.34	138.19	31.56	-53.1	-55.4	14.2	0.00e+00	0	27	0	469762048	72	4656
2026-01-05 09:20:24.30	137.94	32.35	-54.2	-56.9	13.5	0.00e+00	0	27	0	477102080	73	5270
2026-01-05 09:20:28.27	137.68	33.18	-54.3	-57.0	13.6	0.00e+00	0	27	0	484442112	74	4984
2026-01-05 09:20:32.22	137.41	34.02	-54.6	-57.7	13.2	0.00e+00	0	27	0	491782144	74	5441
2026-01-05 09:20:36.19	137.12	34.88	-54.3	-57.3	13.5	0.00e+00	0	27	0	499122176	75	4924
2026-01-05 09:20:40.16	136.82	35.77	-53.8	-56.5	13.7	0.00e+00	0	27	0	506462208	73	5017
2026-01-05 09:20:44.14	136.50	36.69	-54.4	-57.8	13.2	0.00e+00	0	27	0	513802240	74	5504
2026-01-05 09:20:48.11	136.15	37.63	-52.8	-55.1	14.2	0.00e+00	0	27	0	521142272	71	4784
2026-01-05 09:20:52.08	135.79	38.60	-52.4	-54.6	14.3	0.00e+00	0	27	0	528482304	70	4776
2026-01-05 09:20:56.04	135.40	39.59	-53.4	-56.1	13.9	0.00e+00	0	27	0	536870912	72	5057
2026-01-05 09:21:00.00	134.99	40.61	-53.0	-55.5	14.2	0.00e+00	0	27	0	544210944	72	4711
2026-01-05 09:21:03.98	134.55	41.66	-53.6	-56.6	13.6	0.00e+00	0	27	0	551550976	72	5361
2026-01-05 09:21:07.94	134.08	42.73	-53.6	-56.9	13.4	0.00e+00	0	27	0	558891008	72	5536
2026-01-05 09:21:11.92	133.57	43.84	-54.1	-57.9	13.0	0.00e+00	0	27	0	566231040	73	5861
2026-01-05 09:21:15.91	133.02	44.98	-53.2	-56.2	13.8	0.00e+00	0	27	0	573571072	72	5114
2026-01-05 09:21:19.90	132.43	46.15	-52.3	-54.7	14.3	0.00e+00	0	27	0	580911104	70	4855
2026-01-05 09:21:23.88	131.80	47.35	-53.5	-56.5	13.7	0.00e+00	0	27	0	588251136	72	5284
2026-01-05 09:21:27.85	131.11	48.58	-53.0	-55.4	14.1	0.00e+00	0	27	0	595591168	71	4978
2026-01-05 09:21:31.81	130.37	49.84	-51.8	-53.7	14.7	0.00e+00	0	27	0	602931200	70	4335
2026-01-05 09:21:35.77	129.56	51.12	-51.9	-54.0	14.6	0.00e+00	0	27	0	611319808	70	4477
2026-01-05 09:21:39.73	128.68	52.43	-52.5	-55.0	14.2	0.00e+00	0	27	0	618659840	70	4995
2026-01-05 09:21:43.69	127.71	53.77	-52.1	-54.1	14.5	0.00e+00	0	27	0	625999872	70	4501
2026-01-05 09:21:47.65	126.65	55.14	-52.8	-55.4	14.0	0.00e+00	0	27	0	633339904	71	4974
2026-01-05 09:21:51.60	125.48	56.53	-50.5	-52.3	14.8	0.00e+00	0	27	0	640679936	67	4341
2026-01-05 09:21:55.57	124.18	57.95	-52.1	-54.4	14.2	0.00e+00	0	27	0	648019968	69	4935
2026-01-05 09:21:59.54	122.73	59.38	-53.0	-55.4	14.2	0.00e+00	0	27	0	655360000	71	4930
2026-01-05 09:22:03.51	121.11	60.83	-52.9	-55.0	14.3	0.00e+00	0	27	0	662700032	72	4480
2026-01-05 09:22:07.48	119.29	62.30	-51.6	-53.4	14.7	0.00e+00	0	27	0	670040064	69	4427
2026-01-05 09:22:11.45	117.23	63.76	-51.2	-53.0	14.6	0.00e+00	0	27	0	677380096	67	4737
2026-01-05 09:22:15.41	114.90	65.22	-51.2	-52.9	14.6	0.00e+00	0	27	0	684720128	67	4689
2026-01-05 09:22:19.35	112.27	66.65	-53.2	-55.4	14.3	0.00e+00	0	27	0	692060160	72	4671
2026-01-05 09:22:23.31	109.23	68.06	-53.7	-56.2	13.9	0.00e+00	0	27	0	700448768	72	5107
2026-01-05 09:22:27.25	105.77	69.42	-55.7	-59.3	12.6	0.00e+00	0	27	0	707788800	76	5791
2026-01-05 09:22:31.20	101.78	70.73	-54.2	-56.9	13.6	0.00e+00	0	27	0	715128832	74	4975
2026-01-05 09:22:35.17	97.16	71.95	-53.1	-55.2	14.3	0.00e+00	0	27	0	722468864	72	4598
2026-01-05 09:22:39.14	91.87	73.06	-51.7	-53.4	14.6	0.00e+00	0	27	0	729808896	69	4426
2026-01-05 09:22:43.10	85.87	74.01	-53.2	-55.3	14.1	0.00e+00	0	27	0	737148928	71	4917
2026-01-05 09:22:47.06	79.15	74.79	-53.4	-55.5	14.2	0.00e+00	0	27	0	744488960	72	4719
2026-01-05 09:22:51.03	71.77	75.34	-54.9	-57.6	13.6	0.00e+00	0	27	0	751828992	76	4763
2026-01-05 09:22:55.00	63.93	75.65	-53.5	-55.6	14.3	0.00e+00	0	27	0	759169024	73	4544
2026-01-05 09:22:58.97	55.89	75.68	-54.4	-57.0	13.8	0.00e+00	0	27	0	766509056	75	4724
2026-01-05 09:23:02.93	47.99	75.45	-52.6	-54.5	14.5	0.00e+00	0	27	0	773849088	71	4483
2026-01-05 09:23:06.88	40.51	74.96	-54.7	-57.4	13.6	0.00e+00	0	27	0	781189120	75	4944
2026-01-05 09:23:10.86	33.57	74.24	-52.9	-54.7	14.4	0.00e+00	0	27	0	789577728	71	4559
2026-01-05 09:23:14.84	27.35	73.32	-55.6	-58.5	13.3	0.00e+00	0	27	0	796917760	77	5020
2026-01-05 09:23:18.80	21.89	72.26	-56.0	-59.4	12.8	0.00e+00	0	27	0	804257792	77	5554
2026-01-05 09:23:22.75	17.13	71.07	-55.2	-58.3	13.1	0.00e+00	0	27	0	811597824	76	5183
2026-01-05 09:23:26.70	12.98	69.79	-53.7	-55.8	14.2	0.00e+00	0	27	0	818937856	73	4636
2026-01-05 09:23:30.68	9.36	68.43	-53.7	-56.0	14.0	0.00e+00	0	27	0	826277888	73	4757
2026-01-05 09:23:34.63	6.22	67.03	-54.5	-57.4	13.5	0.00e+00	0	27	0	833617920	74	5220
2026-01-05 09:23:38.58	3.49	65.60	-52.5	-54.5	14.5	0.00e+00	0	27	0	840957952	71	4468
2026-01-05 09:23:42.54	1.08	64.15	-50.7	-52.4	14.9	0.00e+00	0	27	0	848297984	68	4176
2026-01-05 09:23:46.49	358.97	62.70	-51.8	-53.6	14.5	0.00e+00	0	27	0	855638016	68	4787
2026-01-05 09:23:50.47	357.09	61.23	-52.7	-54.6	14.4	0.00e+00	0	27	0	862978048	70	4789
2026-01-05 09:23:54.47	355.41	59.77	-54.6	-57.3	13.5	0.00e+00	0	27	0	871366656	74	5166
2026-01-05 09:23:58.44	353.92	58.33	-52.7	-54.7	14.4	0.00e+00	0	27	0	878706688	71	4572
2026-01-05 09:24:02.41	352.58	56.91	-52.5	-54.7	14.4	0.00e+00	0	27	0	886046720	71	4574
2026-01-05 09:24:06.38	351.38	55.52	-52.5	-54.7	14.4	0.00e+00	0	27	0	893386752	71	4594
2026-01-05 09:24:10.36	350.28	54.14	-52.2	-54.3	14.5	0.00e+00	0	27	0	900726784	70	4623
2026-01-05 09:24:14.32	349.30	52.79	-52.0	-54.2	14.4	0.00e+00	0	27	0	908066816	69	4829
2026-01-05 09:24:18.29	348.39	51.47	-54.7	-58.3	12.9	0.00e+00	0	27	0	915406848	74	5833
2026-01-05 09:24:22.25	347.57	50.19	-53.3	-55.6	14.1	0.00e+00	0	27	0	922746880	73	4540
2026-01-05 09:24:26.24	346.81	48.92	-53.8	-56.5	13.8	0.00e+00	0	27	0	930086912	73	4992
2026-01-05 09:24:30.21	346.11	47.69	-54.5	-57.4	13.3	0.00e+00	0	28	0	937426944	74	5269
2026-01-05 09:24:34.19	345.46	46.48	-55.1	-58.3	13.0	0.00e+00	0	27	0	945815552	75	5481
2026-01-05 09:24:38.16	344.87	45.31	-53.4	-55.6	14.2	0.00e+00	0	27	0	953155584	73	4535
2026-01-05 09:24:42.14	344.31	44.17	-54.4	-57.3	13.5	0.00e+00	0	27	0	960495616	74	5170
2026-01-05 09:24:46.11	343.80	43.06	-54.4	-57.3	13.5	0.00e+00	0	27	0	967835648	75	4873
2026-01-05 09:24:50.07	343.32	41.98	-54.8	-58.0	13.3	0.00e+00	0	28	0	975175680	74	5594
2026-01-05 09:24:54.05	342.87	40.93	-53.5	-55.9	14.1	0.00e+00	0	27	0	982515712	73	4675
2026-01-05 09:24:58.02	342.46	39.90	-53.6	-56.0	13.9	0.00e+00	0	27	0	989855744	72	4998
2026-01-05 09:25:02.00	342.06	38.90	-54.3	-57.2	13.4	0.00e+00	0	28	0	997195776	73	5451
2026-01-05 09:25:05.98	341.69	37.93	-53.1	-55.4	14.1	0.00e+00	0	27	0	1004535808	72	4689
2026-01-05 09:25:09.96	341.34	36.98	-53.1	-55.4	14.1	0.00e+00	0	27	0	1012924416	72	4690
2026-01-05 09:25:13.94	341.02	36.06	-53.9	-56.6	13.6	0.00e+00	0	27	0	1020264448	73	5086
2026-01-05 09:25:17.91	340.71	35.17	-54.8	-57.9	13.2	0.00e+00	0	27	0	1027604480	75	5254
2026-01-05 09:25:21.88	340.42	34.30	-53.5	-56.0	14.0	0.00e+00	0	28	0	1034944512	73	4710
2026-01-05 09:25:25.85	340.14	33.45	-53.5	-55.8	14.0	0.00e+00	0	27	0	1042284544	72	4903
2026-01-05 09:25:29.82	339.88	32.62	-53.8	-56.2	13.9	0.00e+00	0	27	0	1049624576	73	4829
2026-01-05 09:25:33.79	339.64	31.82	-54.1	-56.5	13.8	0.00e+00	0	27	0	1056964608	73	5037
2026-01-05 09:25:37.75	339.40	31.04	-54.3	-56.8	13.8	0.00e+00	0	27	0	1064304640	74	4885
2026-01-05 09:25:41.72	339.18	30.28	-54.2	-56.8	13.7	0.00e+00	0	27	0	1071644672	74	4882
2026-01-05 09:25:45.69	338.97	29.53	-54.6	-57.5	13.3	0.00e+00	0	27	0	1078984704	74	5291
2026-01-05 09:25:49.67	338.76	28.80	-53.7	-56.0	14.0	0.00e+00	0	27	0	1087373312	74	4468
2026-01-05 09:25:53.63	338.57	28.10	-53.0	-55.0	14.2	0.00e+00	0	27	0	1094713344	72	4489
2026-01-05 09:25:57.61	338.39	27.41	-53.2	-55.3	14.2	0.00e+00	0	27	0	1102053376	72	4651
2026-01-05 09:26:01.59	338.21	26.73	-53.0	-55.1	14.3	0.00e+00	0	27	0	1109393408	72	4504
2026-01-05 09:26:05.55	338.05	26.08	-52.5	-54.4	14.5	0.00e+00	0	27	0	1116733440	71	4439
2026-01-05 09:26:09.52	337.89	25.44	-52.4	-54.4	14.5	0.00e+00	0	27	0	1124073472	71	4404
2026-01-05 09:26:13.50	337.73	24.81	-52.6	-54.6	14.3	0.00e+00	0	27	0	1131413504	71	4545
2026-01-05 09:26:17.48	337.59	24.19	-53.0	-55.2	14.0	0.00e+00	0	27	0	1138753536	71	4863
2026-01-05 09:26:21.46	337.44	23.59	-53.9	-56.5	13.6	0.00e+00	0	27	0	1146093568	72	5289
2026-01-05 09:26:25.42	337.31	23.01	-53.9	-56.5	13.6	0.00e+00	0	27	0	1153433600	73	4990
2026-01-05 09:26:29.39	337.18	22.44	-53.2	-55.4	14.2	0.00e+00	0	27	0	1161822208	73	4429
2026-01-05 09:26:33.38	337.06	21.87	-52.3	-54.3	14.5	0.00e+00	0	27	0	1169162240	71	4346
2026-01-05 09:26:37.35	336.94	21.33	-52.0	-53.9	14.4	0.00e+00	0	27	0	1176502272	69	4655
2026-01-05 09:26:41.34	336.82	20.79	-52.1	-54.0	14.4	0.00e+00	0	27	0	1183842304	69	4745
2026-01-05 09:26:45.31	336.71	20.26	-52.2	-54.2	14.3	0.00e+00	0	27	0	1191182336	69	4830
2026-01-05 09:26:49.28	336.61	19.75	-51.9	-53.9	14.4	0.00e+00	0	27	0	1198522368	69	4679
2026-01-05 09:26:53.25	336.51	19.24	-51.8	-53.7	14.5	0.00e+00	0	28	0	1205862400	69	4564
2026-01-05 09:26:57.22	336.41	18.75	-52.4	-54.6	14.2	0.00e+00	0	28	0	1213202432	70	4773
2026-01-05 09:27:01.18	336.31	18.26	-53.3	-55.8	13.8	0.00e+00	0	27	0	1220542464	71	5187
2026-01-05 09:27:05.15	336.22	17.79	-54.5	-57.6	13.0	0.00e+00	0	27	0	1228931072	74	5386
2026-01-05 09:27:09.11	336.14	17.32	-54.8	-58.2	12.8	0.00e+00	0	27	0	1236271104	75	5457
2026-01-05 09:27:13.09	336.05	16.86	-54.9	-58.3	12.7	0.00e+00	0	27	0	1243611136	75	5488
2026-01-05 09:27:17.08	335.97	16.41	-54.7	-57.9	12.9	0.00e+00	0	27	0	1250951168	75	5276
2026-01-05 09:27:21.04	335.89	15.97	-54.5	-57.6	13.1	0.00e+00	0	27	0	1258291200	75	5080
2026-01-05 09:27:25.01	335.81	15.54	-54.6	-57.8	13.0	0.00e+00	0	27	0	1265631232	75	5198
2026-01-05 09:27:28.99	335.74	15.11	-54.4	-57.5	13.2	0.00e+00	0	28	0	1272971264	75	4999
2026-01-05 09:27:32.96	335.67	14.69	-54.4	-57.5	13.2	0.00e+00	0	27	0	1280311296	75	5011
2026-01-05 09:27:36.92	335.60	14.28	-54.0	-56.9	13.5	0.00e+00	0	27	0	1287651328	74	4928
2026-01-05 09:27:40.89	335.54	13.88	-53.7	-56.4	13.6	0.00e+00	0	28	0	1294991360	73	4958
2026-01-05 09:27:44.86	335.47	13.48	-53.2	-55.7	13.8	0.00e+00	0	27	0	1303379968	72	4847
2026-01-05 09:27:48.83	335.41	13.09	-53.0	-55.5	13.9	0.00e+00	0	27	0	1310720000	72	4722
2026-01-05 09:27:52.78	335.35	12.70	-53.0	-55.4	13.9	0.00e+00	0	27	0	1318060032	72	4703
2026-01-05 09:27:56.75	335.29	12.32	-53.2	-55.8	13.8	0.00e+00	0	27	0	1325400064	72	4881
2026-01-05 09:28:00.68	335.24	11.95	-53.2	-55.8	13.8	0.00e+00	0	27	0	1332740096	72	4884
2026-01-05 09:28:04.66	335.18	11.58	-53.3	-55.8	13.7	0.00e+00	0	27	0	1340080128	72	4921
2026-01-05 09:28:08.63	335.13	11.22	-53.3	-56.0	13.6	0.00e+00	0	27	0	1347420160	71	5290
2026-01-05 09:28:12.61	335.08	10.86	-53.3	-55.9	13.7	0.00e+00	0	27	0	1354760192	72	4957
2026-01-05 09:28:16.59	335.03	10.51	-53.4	-56.0	13.6	0.00e+00	0	27	0	1362100224	72	5031
2026-01-05 09:28:20.57	334.98	10.16	-53.3	-55.8	13.7	0.00e+00	0	27	0	1369440256	72	4916
2026-01-05 09:28:24.54	334.94	9.82	-53.4	-56.0	13.6	0.00e+00	0	27	0	1377828864	72	5011
2026-01-05 09:28:28.51	334.89	9.48	-53.3	-55.9	13.6	0.00e+00	0	27	0	1385168896	71	5226
2026-01-05 09:28:32.49	334.85	9.14	-53.4	-56.0	13.5	0.00e+00	0	27	0	1392508928	71	5287
2026-01-05 09:28:36.45	334.81	8.82	-53.3	-55.9	13.6	0.00e+00	0	27	0	1399848960	72	4950
2026-01-05 09:28:40.43	334.77	8.49	-53.5	-56.1	13.5	0.00e+00	0	28	0	1407188992	72	5082
2026-01-05 09:28:44.40	334.73	8.17	-53.5	-56.1	13.5	0.00e+00	0	27	0	1414529024	72	5073
2026-01-05 09:28:48.37	334.69	7.85	-53.6	-56.4	13.4	0.00e+00	0	27	0	1421869056	72	5237
2026-01-05 09:28:52.34	334.65	7.54	-53.6	-56.4	13.4	0.00e+00	0	28	0	1429209088	72	5224
2026-01-05 09:28:56.30	334.62	7.23	-53.8	-56.6	13.2	0.00e+00	0	27	0	1436549120	72	5389
2026-01-05 09:29:00.28	334.58	6.92	-53.8	-56.6	13.2	0.00e+00	0	27	0	1443889152	72	5390
2026-01-05 09:29:04.25	334.55	6.62	-54.0	-57.0	13.0	0.00e+00	0	27	0	1451229184	73	5291
2026-01-05 09:29:08.23	334.52	6.32	-53.9	-56.9	13.1	0.00e+00	0	27	0	1459617792	73	5240
2026-01-05 09:29:12.22	334.49	6.03	-54.1	-57.1	12.9	0.00e+00	0	27	0	1466957824	73	5380
2026-01-05 09:29:16.19	334.46	5.73	-53.9	-57.0	12.9	0.00e+00	0	28	0	1474297856	73	5327
2026-01-05 09:29:20.17	334.43	5.45	-53.8	-56.9	12.9	0.00e+00	0	28	0	1481637888	73	5271
2026-01-05 09:29:24.15	334.40	5.16	-53.7	-56.9	12.7	0.00e+00	0	27	0	1488977920	72	5582
2026-01-05 09:29:28.12	334.37	4.88	-59.3	-75.3	3.8	1.49e+00	0	28	104	1494220800	83	24432
2026-01-05 09:29:32.10	334.34	4.60	-60.4	-76.4	3.8	1.49e+00	0	28	104	1494220800	85	24960
2026-01-05 09:29:36.08	334.32	4.32	-60.8	-76.9	3.8	1.49e+00	0	28	104	1494220800	86	24729
2026-01-05 09:29:40.04	334.29	4.05	-61.0	-77.1	3.8	1.49e+00	0	28	104	1494220800	87	23887
2026-01-05 09:29:44.04	334.27	3.77	-61.1	-77.1	3.8	1.49e+00	0	28	104	1494220800	87	24066
2026-01-05 09:29:48.00	334.24	3.51	-61.1	-77.2	3.8	1.49e+00	0	28	104	1494220800	87	24139
2026-01-05 09:29:51.96	334.22	3.24	-61.0	-77.1	3.8	1.49e+00	0	28	104	1494220800	87	23934
2026-01-05 09:29:55.91	334.20	2.98	-60.9	-77.0	3.8	1.49e+00	0	28	104	1494220800	87	23711
2026-01-05 09:29:59.86	334.18	2.72	-60.9	-76.9	3.8	1.49e+00	0	27	104	1494220800	87	23575
2026-01-05 09:30:03.82	334.16	2.46	-60.8	-76.9	3.8	1.49e+00	0	28	104	1494220800	87	23454
2026-01-05 09:30:07.77	334.14	2.21	-60.8	-76.9	3.8	1.49e+00	0	28	104	1494220800	87	23451
2026-01-05 09:30:11.73	334.12	1.95	-60.8	-76.8	3.8	1.49e+00	0	28	104	1494220800	87	23306

#Closed at: 2026-01-05 09:30:13
#Recorded file [1494 MB]: D:/lorett/data/31004_260105_121546.dat