passes_logs/2026/01/05/R3.2S_Murmansk/R3.2S_Murmansk__20260105_072008_AQUA_rec.log

#Pass ID: 20260105_072008_AQUA
#Satellite: AQUA
#Configuration: AQUA
#almurnet v.1.7.20251203
#Start time: 2026-01-05 07:20:40

#Version: 2.2.20231116
#Station: R3.2S_Murmansk
#Location: 33.079688 lon 68.888172 lat
#TLE: 1 27424U 02022A   26003.93831470  .00001925  00000+0  39553-3 0  9995
#TLE: 2 27424  98.4067 330.1809 0002003  92.1713 343.8415 14.61796291259276

#Time	Az	El	Level	Level2	SNR	BER	BlckErr	Temp	State	Recorded	gain1	gain2
2026-01-05 07:20:40.49	63.10	3.87	-60.9	-74.7	3.8	1.49e+00	0	27	0	0	87	18302
2026-01-05 07:20:43.47	62.82	4.04	-60.4	-79.8	3.8	7.45e-01	0	28	104	0	88	35742
2026-01-05 07:20:46.44	62.54	4.22	-60.2	-79.6	3.8	7.45e-01	0	28	104	0	88	34939
2026-01-05 07:20:49.41	62.26	4.40	-59.9	-79.3	3.8	7.49e-01	0	28	104	0	88	33833
2026-01-05 07:20:52.37	61.98	4.57	-59.8	-79.2	3.8	7.45e-01	0	28	104	0	88	33362
2026-01-05 07:20:55.32	61.69	4.75	-59.4	-78.8	3.8	7.46e-01	0	27	104	0	88	32020
2026-01-05 07:20:58.29	61.39	4.93	-58.6	-77.9	3.8	7.45e-01	0	28	104	0	86	32513
2026-01-05 07:21:01.24	61.10	5.11	-58.5	-77.9	3.8	7.42e-01	0	28	104	0	86	32270
2026-01-05 07:21:04.22	60.79	5.29	-58.5	-77.8	3.8	7.47e-01	0	28	104	0	86	32153
2026-01-05 07:21:07.19	60.49	5.47	-58.5	-77.4	3.8	7.43e-01	0	28	104	0	86	30522
2026-01-05 07:21:10.14	60.18	5.65	-58.5	-77.3	3.8	7.44e-01	0	28	104	0	86	30309
2026-01-05 07:21:13.09	59.86	5.83	-58.4	-77.4	3.8	7.47e-01	0	27	104	0	86	30441
2026-01-05 07:21:16.05	59.54	6.02	-58.4	-77.6	3.8	7.49e-01	0	28	104	0	86	31346
2026-01-05 07:21:19.04	59.22	6.20	-58.4	-77.6	3.8	7.45e-01	0	28	104	0	86	31216
2026-01-05 07:21:22.02	58.89	6.39	-58.4	-76.4	3.9	7.42e-01	0	28	104	0	86	27354
2026-01-05 07:21:24.99	58.55	6.57	-58.3	-76.3	3.8	7.46e-01	0	28	104	0	85	28352
2026-01-05 07:21:27.97	58.21	6.76	-58.3	-73.9	4.3	7.34e-01	0	28	104	0	85	21627
2026-01-05 07:21:30.95	57.87	6.94	-57.5	-65.2	10.2	6.15e-01	0	28	0	3670016	84	8385
2026-01-05 07:21:33.91	57.52	7.13	-55.6	-59.9	13.5	6.03e-01	0	28	0	9437184	80	5742
2026-01-05 07:21:36.88	57.17	7.32	-53.7	-56.4	14.6	6.04e-01	0	28	0	15204352	76	4863
2026-01-05 07:21:39.85	56.81	7.50	-51.4	-53.4	15.3	6.03e-01	0	28	0	20447232	72	4313
2026-01-05 07:21:42.82	56.44	7.69	-51.0	-53.0	15.2	6.05e-01	0	28	0	26214400	71	4356
2026-01-05 07:21:45.79	56.07	7.88	-50.7	-52.6	15.3	6.01e-01	0	28	0	31457280	70	4405
2026-01-05 07:21:48.76	55.70	8.07	-51.1	-62.7	3.8	7.45e-01	0	28	104	36175872	70	14085
2026-01-05 07:21:51.74	55.32	8.26	-52.5	-64.5	3.9	7.51e-01	0	28	104	36175872	72	15415
2026-01-05 07:21:54.72	54.93	8.45	-51.5	-63.2	3.8	7.48e-01	0	28	104	36175872	72	13312
2026-01-05 07:21:57.70	54.54	8.64	-51.4	-63.1	3.8	7.46e-01	0	28	104	36175872	71	13936
2026-01-05 07:22:00.68	54.14	8.83	-55.9	-69.5	3.7	7.46e-01	0	28	104	36175872	79	18429
2026-01-05 07:22:03.66	53.74	9.03	-52.9	-64.9	3.8	7.45e-01	0	28	104	36175872	75	13674
2026-01-05 07:22:06.64	53.33	9.22	-55.9	-69.4	3.8	7.44e-01	0	28	104	36175872	79	18300
2026-01-05 07:22:09.63	52.91	9.41	-56.3	-70.0	3.8	7.49e-01	0	28	104	36175872	81	17420
2026-01-05 07:22:12.59	52.49	9.60	-50.9	-62.4	3.8	7.47e-01	0	28	104	36175872	71	12948
2026-01-05 07:22:15.55	52.06	9.80	-52.2	-63.9	3.9	7.50e-01	0	28	104	36175872	71	15252
2026-01-05 07:22:18.51	51.63	9.99	-52.9	-64.9	3.9	7.45e-01	0	28	104	36175872	75	13691
2026-01-05 07:22:21.46	51.19	10.18	-50.9	-62.4	3.8	7.42e-01	0	28	104	36175872	71	12953
2026-01-05 07:22:24.40	50.75	10.37	-53.6	-65.8	3.8	7.50e-01	0	28	104	36175872	74	16093
2026-01-05 07:22:27.36	50.30	10.56	-50.8	-62.2	3.8	7.45e-01	0	28	104	36175872	70	13319
2026-01-05 07:22:30.35	49.84	10.76	-50.5	-61.9	3.8	7.46e-01	0	28	104	36175872	69	13638
2026-01-05 07:22:33.31	49.38	10.95	-56.0	-69.7	3.9	7.44e-01	0	28	104	36175872	81	16738
2026-01-05 07:22:36.29	48.90	11.14	-51.3	-62.8	3.8	7.45e-01	0	28	104	36175872	71	13538
2026-01-05 07:22:39.24	48.43	11.33	-57.3	-72.7	3.9	7.46e-01	0	28	104	36175872	83	21147
2026-01-05 07:22:42.22	47.94	11.53	-56.9	-71.8	3.9	7.43e-01	0	28	104	36175872	82	20166
2026-01-05 07:22:45.16	47.45	11.72	-51.1	-62.5	3.8	7.45e-01	0	28	104	36175872	70	13782
2026-01-05 07:22:48.11	46.95	11.91	-53.8	-66.1	3.8	7.47e-01	0	28	104	36175872	75	15753
2026-01-05 07:22:51.06	46.45	12.10	-57.2	-72.6	3.8	7.44e-01	0	28	104	36175872	82	22069
2026-01-05 07:22:54.01	45.94	12.29	-51.3	-62.9	3.8	7.46e-01	0	27	104	36175872	71	13647
2026-01-05 07:22:56.98	45.42	12.48	-50.5	-61.9	3.8	7.44e-01	0	28	104	36175872	70	12945
2026-01-05 07:22:59.94	44.89	12.67	-50.3	-61.7	3.9	7.45e-01	0	28	104	36175872	69	13377
2026-01-05 07:23:02.91	44.35	12.86	-50.3	-61.6	3.8	7.49e-01	0	28	104	36175872	69	13256
2026-01-05 07:23:05.90	43.80	13.05	-50.1	-61.4	3.8	7.46e-01	0	28	104	36175872	69	12908
2026-01-05 07:23:08.87	43.25	13.23	-50.1	-61.5	3.8	7.43e-01	0	28	104	36175872	69	13051
2026-01-05 07:23:11.83	42.69	13.42	-50.0	-61.4	3.8	7.45e-01	0	28	104	36175872	69	12943
2026-01-05 07:23:14.81	42.12	13.61	-49.9	-61.3	3.9	7.46e-01	0	27	104	36175872	69	12733
2026-01-05 07:23:17.79	41.55	13.79	-50.0	-61.4	3.8	7.45e-01	0	27	104	36175872	69	12829
2026-01-05 07:23:20.76	40.96	13.97	-50.0	-61.4	3.8	7.44e-01	0	28	104	36175872	69	12872
2026-01-05 07:23:23.72	40.38	14.16	-50.1	-61.6	3.8	7.45e-01	0	28	104	36175872	69	13130
2026-01-05 07:23:26.69	39.78	14.34	-53.4	-65.6	3.9	7.44e-01	0	28	104	36175872	76	13916
2026-01-05 07:23:29.67	39.17	14.52	-51.0	-62.4	3.8	7.47e-01	0	27	104	36175872	71	12932
2026-01-05 07:23:32.65	38.55	14.69	-51.0	-62.4	3.8	7.44e-01	0	27	104	36175872	69	14474
2026-01-05 07:23:35.61	37.93	14.87	-55.0	-67.5	3.8	7.45e-01	0	28	104	36175872	77	16469
2026-01-05 07:23:38.59	37.30	15.04	-50.1	-61.4	3.8	7.45e-01	0	28	104	36175872	69	12942
2026-01-05 07:23:41.57	36.66	15.21	-49.9	-61.4	3.9	7.44e-01	0	28	104	36175872	69	12858
2026-01-05 07:23:44.53	36.02	15.38	-49.9	-61.2	3.9	7.46e-01	0	28	104	36175872	68	13311
2026-01-05 07:23:47.51	35.36	15.55	-50.9	-62.5	3.8	7.48e-01	0	28	104	36175872	69	14550
2026-01-05 07:23:50.47	34.70	15.72	-52.3	-64.2	3.8	7.42e-01	0	28	104	36175872	72	14900
2026-01-05 07:23:53.45	34.03	15.88	-50.1	-61.5	3.9	7.47e-01	0	28	104	36175872	69	12960
2026-01-05 07:23:56.41	33.35	16.04	-49.9	-61.2	3.9	7.43e-01	0	28	104	36175872	68	13334
2026-01-05 07:23:59.37	32.67	16.19	-53.0	-65.0	3.8	7.48e-01	0	28	104	36175872	73	15413
2026-01-05 07:24:02.33	31.98	16.35	-56.0	-69.5	3.9	7.46e-01	0	28	104	36175872	81	16365
2026-01-05 07:24:05.29	31.28	16.50	-50.1	-61.4	3.8	7.47e-01	0	28	104	36175872	69	12863
2026-01-05 07:24:08.24	30.58	16.64	-50.0	-61.4	3.8	7.49e-01	0	28	104	36175872	69	12854
2026-01-05 07:24:11.20	29.87	16.79	-56.7	-70.8	3.9	7.43e-01	0	28	104	36175872	82	17915
2026-01-05 07:24:14.15	29.15	16.93	-50.2	-61.6	3.8	7.46e-01	0	28	104	36175872	69	13193
2026-01-05 07:24:17.12	28.42	17.07	-50.1	-61.4	3.9	7.47e-01	0	28	104	36175872	69	12857
2026-01-05 07:24:20.09	27.68	17.20	-57.3	-72.2	3.8	7.46e-01	0	28	104	36175872	82	21179
2026-01-05 07:24:23.05	26.94	17.33	-50.4	-61.7	3.9	7.46e-01	0	27	104	36175872	70	12658
2026-01-05 07:24:26.00	26.20	17.45	-50.2	-61.5	3.9	7.50e-01	0	28	104	36175872	69	13096
2026-01-05 07:24:28.97	25.44	17.57	-50.1	-61.4	3.9	7.46e-01	0	28	104	36175872	69	12917
2026-01-05 07:24:31.96	24.67	17.69	-50.2	-61.6	3.8	7.45e-01	0	28	104	36175872	69	13152
2026-01-05 07:24:34.95	23.89	17.81	-50.7	-62.2	3.9	7.43e-01	0	28	104	36175872	70	13271
2026-01-05 07:24:37.95	23.11	17.92	-50.1	-61.5	3.8	7.42e-01	0	28	104	36175872	69	12972
2026-01-05 07:24:40.94	22.32	18.02	-52.6	-64.3	3.9	7.47e-01	0	28	104	36175872	74	13548
2026-01-05 07:24:43.94	21.53	18.12	-56.8	-70.9	3.8	7.45e-01	0	28	104	36175872	81	19241
2026-01-05 07:24:46.93	20.73	18.21	-50.8	-62.3	3.9	7.49e-01	0	28	104	36175872	70	13505
2026-01-05 07:24:49.92	19.93	18.30	-57.4	-72.3	3.8	7.47e-01	0	28	104	36175872	82	21441
2026-01-05 07:24:52.90	19.12	18.39	-50.6	-62.1	3.8	7.41e-01	0	28	104	36175872	70	13190
2026-01-05 07:24:55.90	18.31	18.46	-55.3	-68.1	3.8	7.45e-01	0	28	104	36175872	78	16633
2026-01-05 07:24:58.89	17.49	18.54	-51.2	-62.7	3.8	7.45e-01	0	27	104	36175872	71	13300
2026-01-05 07:25:01.87	16.67	18.60	-50.8	-62.2	3.8	7.42e-01	0	28	104	36175872	70	13310
2026-01-05 07:25:04.85	15.85	18.66	-51.8	-63.4	3.8	7.45e-01	0	28	104	36175872	71	14436
2026-01-05 07:25:07.84	15.02	18.72	-56.5	-70.1	3.8	7.47e-01	0	28	104	36175872	80	18687
2026-01-05 07:25:10.84	14.19	18.77	-50.2	-61.6	3.8	7.45e-01	0	27	104	36175872	69	13134
2026-01-05 07:25:13.82	13.36	18.81	-57.4	-72.3	3.9	7.45e-01	0	28	104	36175872	82	21438
2026-01-05 07:25:16.80	12.53	18.85	-51.2	-62.7	3.9	7.45e-01	0	28	104	36175872	71	13312
2026-01-05 07:25:19.79	11.69	18.88	-53.5	-65.5	3.8	7.43e-01	0	27	104	36175872	74	15527
2026-01-05 07:25:22.77	10.85	18.91	-51.8	-63.2	3.8	7.45e-01	0	28	104	36175872	72	13271
2026-01-05 07:25:25.76	10.01	18.93	-50.7	-62.1	3.8	7.49e-01	0	28	104	36175872	70	13156
2026-01-05 07:25:28.76	9.17	18.94	-51.4	-62.9	3.8	7.46e-01	0	28	104	36175872	70	14459
2026-01-05 07:25:31.76	8.32	18.95	-56.1	-69.3	3.8	7.47e-01	0	28	104	36175872	79	18043
2026-01-05 07:25:34.75	7.48	18.95	-50.8	-62.3	3.9	7.47e-01	0	28	104	36175872	70	13423
2026-01-05 07:25:37.75	6.63	18.95	-57.3	-72.1	3.7	7.47e-01	0	28	104	36175872	82	20871
2026-01-05 07:25:40.74	5.79	18.94	-51.6	-63.1	3.9	7.42e-01	0	28	104	36175872	72	13242
2026-01-05 07:25:43.72	4.95	18.92	-54.8	-67.4	3.9	7.43e-01	0	28	104	36175872	77	16289
2026-01-05 07:25:46.70	4.11	18.90	-52.3	-63.7	3.8	7.45e-01	0	28	104	36175872	73	13338
2026-01-05 07:25:49.69	3.27	18.87	-50.9	-62.4	3.8	7.43e-01	0	28	104	36175872	70	13650
2026-01-05 07:25:52.68	2.44	18.83	-50.9	-62.3	3.8	7.46e-01	0	28	104	36175872	70	13551
2026-01-05 07:25:55.66	1.60	18.79	-55.1	-67.6	3.8	7.49e-01	0	28	104	36175872	77	16645
2026-01-05 07:25:58.63	0.78	18.75	-50.7	-62.0	3.8	7.45e-01	0	27	104	36175872	70	13091
2026-01-05 07:26:01.62	359.95	18.69	-56.6	-70.4	3.8	7.52e-01	0	28	104	36175872	80	19351
2026-01-05 07:26:04.59	359.13	18.63	-52.5	-64.3	3.9	7.46e-01	0	28	104	36175872	74	13442
2026-01-05 07:26:07.58	358.31	18.57	-51.5	-63.0	3.8	7.47e-01	0	28	104	36175872	70	14577
2026-01-05 07:26:10.57	357.49	18.50	-54.1	-66.4	3.9	7.44e-01	0	28	104	36175872	77	14471
2026-01-05 07:26:13.56	356.67	18.42	-50.7	-62.0	3.9	7.38e-01	0	28	104	36175872	70	13024
2026-01-05 07:26:16.56	355.86	18.34	-50.7	-62.2	3.8	7.48e-01	0	28	104	36175872	70	13385
2026-01-05 07:26:19.55	355.06	18.26	-53.5	-65.4	3.9	7.45e-01	0	28	104	36175872	74	15353
2026-01-05 07:26:22.54	354.26	18.17	-50.6	-62.0	3.9	7.46e-01	0	28	104	36175872	70	12987
2026-01-05 07:26:25.54	353.46	18.07	-55.6	-68.5	3.8	7.47e-01	0	28	104	36175872	78	17286
2026-01-05 07:26:28.51	352.67	17.97	-52.8	-64.3	3.9	7.44e-01	0	28	104	36175872	74	13492
2026-01-05 07:26:31.50	351.89	17.86	-51.4	-63.2	3.8	7.44e-01	0	28	104	36175872	70	14953
2026-01-05 07:26:34.50	351.11	17.75	-54.8	-67.2	3.9	7.45e-01	0	28	104	36175872	78	14918
2026-01-05 07:26:37.48	350.34	17.63	-50.9	-62.6	3.9	7.41e-01	0	28	104	36175872	70	13942
2026-01-05 07:26:40.47	349.58	17.51	-52.0	-63.9	3.9	7.45e-01	0	28	104	36175872	73	13646
2026-01-05 07:26:43.46	348.82	17.39	-51.9	-63.6	3.8	7.44e-01	0	28	104	36175872	71	14827
2026-01-05 07:26:46.45	348.07	17.26	-51.0	-62.7	3.9	7.44e-01	0	28	104	36175872	70	14126
2026-01-05 07:26:49.43	347.32	17.13	-54.0	-66.1	3.8	7.44e-01	0	28	104	36175872	75	15639
2026-01-05 07:26:52.40	346.59	16.99	-53.9	-66.1	3.8	7.46e-01	0	28	104	36175872	77	13994
2026-01-05 07:26:55.39	345.86	16.85	-51.4	-62.3	3.8	7.46e-01	0	28	104	36175872	70	13495
2026-01-05 07:26:58.38	345.14	16.71	-56.4	-69.6	3.9	7.40e-01	0	28	104	36175872	82	15693
2026-01-05 07:27:01.32	344.44	16.56	-50.5	-61.7	3.9	7.45e-01	0	28	104	36175872	70	12589
2026-01-05 07:27:04.31	343.73	16.41	-53.5	-65.6	3.9	7.48e-01	0	28	104	36175872	76	13963
2026-01-05 07:27:07.31	343.02	16.26	-50.4	-61.8	3.9	7.44e-01	0	28	104	36175872	70	12785
2026-01-05 07:27:10.30	342.33	16.10	-50.5	-61.7	3.8	7.48e-01	0	28	104	36175872	70	12520
2026-01-05 07:27:13.29	341.65	15.94	-52.2	-63.9	3.9	7.48e-01	0	28	104	36175872	72	14384
2026-01-05 07:27:16.28	340.97	15.78	-55.3	-68.1	3.9	7.45e-01	0	28	104	36175872	79	15582
2026-01-05 07:27:19.28	340.30	15.62	-50.7	-62.0	3.9	7.44e-01	0	28	104	36175872	70	13090
2026-01-05 07:27:22.27	339.64	15.45	-57.0	-71.6	3.9	7.44e-01	0	28	104	36175872	83	18603
2026-01-05 07:27:25.25	338.99	15.28	-50.5	-62.5	3.8	7.47e-01	0	28	104	36175872	70	13742
2026-01-05 07:27:28.23	338.34	15.11	-53.6	-65.9	3.9	7.43e-01	0	28	104	36175872	75	15381
2026-01-05 07:27:31.23	337.70	14.93	-50.9	-62.5	3.8	7.46e-01	0	28	104	36175872	71	13040
2026-01-05 07:27:34.23	337.07	14.76	-50.6	-61.4	3.9	7.49e-01	0	28	104	36175872	70	12123
2026-01-05 07:27:37.22	336.45	14.58	-51.9	-63.6	3.8	7.47e-01	0	28	104	36175872	71	14782
2026-01-05 07:27:40.23	335.84	14.40	-55.6	-69.2	3.9	7.43e-01	0	28	104	36175872	80	16865
2026-01-05 07:27:43.22	335.23	14.22	-51.0	-62.2	3.8	7.45e-01	0	28	104	36175872	70	13277
2026-01-05 07:27:46.22	334.63	14.04	-57.3	-72.2	3.9	7.45e-01	0	28	104	36175872	83	19855
2026-01-05 07:27:49.22	334.04	13.85	-50.8	-63.1	3.9	7.45e-01	0	28	104	36175872	70	14751
2026-01-05 07:27:52.22	333.46	13.66	-53.3	-65.1	3.8	7.45e-01	0	28	104	36175872	76	13114
2026-01-05 07:27:55.22	332.88	13.48	-51.0	-62.3	3.8	7.43e-01	0	28	104	36175872	71	12810
2026-01-05 07:27:58.22	332.32	13.29	-50.6	-62.0	3.8	7.46e-01	0	28	104	36175872	70	12977
2026-01-05 07:28:01.21	331.76	13.10	-52.3	-64.2	3.8	7.46e-01	0	28	104	36175872	72	14942
2026-01-05 07:28:04.20	331.21	12.91	-55.5	-68.6	3.9	7.43e-01	0	28	104	36175872	80	15660
2026-01-05 07:28:07.20	330.67	12.72	-50.8	-62.6	3.8	7.44e-01	0	28	104	36175872	70	14013
2026-01-05 07:28:10.20	330.13	12.53	-57.2	-72.2	3.9	7.43e-01	0	28	104	36175872	82	21155
2026-01-05 07:28:13.18	329.60	12.34	-51.1	-62.5	3.9	7.44e-01	0	28	104	36175872	71	12999
2026-01-05 07:28:16.16	329.09	12.15	-54.2	-57.9	4.9	7.06e-01	0	28	104	36175872	77	5425
2026-01-05 07:28:19.14	328.58	11.96	-51.0	-52.9	15.3	6.00e-01	0	28	0	40370176	71	4325
2026-01-05 07:28:22.14	328.07	11.76	-50.5	-52.4	15.4	5.99e-01	0	28	0	46137344	70	4292
2026-01-05 07:28:25.13	327.57	11.57	-50.3	-52.1	15.4	6.01e-01	0	27	0	51904512	69	4427
2026-01-05 07:28:28.12	327.08	11.37	-50.4	-52.3	15.2	6.02e-01	0	28	0	57147392	69	4499
2026-01-05 07:28:31.11	326.60	11.18	-50.6	-52.4	15.2	6.01e-01	0	28	0	62914560	69	4592
2026-01-05 07:28:34.09	326.12	10.99	-50.7	-52.6	15.2	6.02e-01	0	28	0	68681728	69	4658
2026-01-05 07:28:37.08	325.65	10.79	-50.5	-52.4	15.2	6.01e-01	0	28	0	73924608	69	4581
2026-01-05 07:28:40.08	325.19	10.60	-50.7	-52.6	15.2	6.02e-01	0	28	0	79691776	69	4673
2026-01-05 07:28:43.08	324.73	10.40	-50.8	-52.7	15.1	6.00e-01	0	27	0	85458944	69	4727
2026-01-05 07:28:46.07	324.28	10.21	-50.4	-52.2	15.3	6.02e-01	0	27	0	91226112	69	4469
2026-01-05 07:28:49.05	323.84	10.02	-50.3	-52.0	15.3	6.02e-01	0	28	0	96468992	69	4370
2026-01-05 07:28:52.04	323.40	9.82	-50.4	-52.2	15.3	6.00e-01	0	27	0	102236160	69	4450
2026-01-05 07:28:55.02	322.97	9.63	-50.7	-52.5	15.3	5.98e-01	0	28	0	108003328	70	4376
2026-01-05 07:28:58.01	322.55	9.44	-50.9	-52.9	15.2	6.01e-01	0	27	0	113246208	70	4564
2026-01-05 07:29:00.98	322.14	9.24	-50.9	-52.9	15.1	6.01e-01	0	28	0	119013376	69	4860
2026-01-05 07:29:03.95	321.73	9.05	-50.6	-52.5	15.2	5.99e-01	0	27	0	124780544	69	4623
2026-01-05 07:29:06.95	321.32	8.86	-50.3	-52.1	15.3	6.03e-01	0	27	0	130023424	69	4392
2026-01-05 07:29:09.94	320.92	8.67	-51.0	-53.0	15.0	6.00e-01	0	27	0	135790592	69	4885
2026-01-05 07:29:12.93	320.53	8.48	-51.0	-52.9	15.0	6.04e-01	0	28	0	141557760	69	4864
2026-01-05 07:29:15.93	320.14	8.28	-51.0	-52.9	15.2	6.01e-01	0	27	0	146800640	70	4559
2026-01-05 07:29:18.92	319.75	8.09	-51.4	-53.5	15.0	6.01e-01	0	27	0	152567808	70	4921
2026-01-05 07:29:21.91	319.38	7.90	-50.8	-52.7	15.2	6.04e-01	0	28	0	158334976	70	4453
2026-01-05 07:29:24.89	319.01	7.71	-51.0	-53.1	15.1	6.02e-01	0	28	0	163577856	70	4653
2026-01-05 07:29:27.87	318.64	7.52	-50.8	-52.8	15.2	6.02e-01	0	28	0	169345024	70	4516
2026-01-05 07:29:30.85	318.28	7.34	-51.1	-53.1	15.1	5.99e-01	0	27	0	175112192	70	4691
2026-01-05 07:29:33.85	317.92	7.15	-51.2	-53.3	15.1	6.01e-01	0	27	0	180879360	70	4767
2026-01-05 07:29:36.83	317.57	6.96	-51.2	-53.2	15.0	6.01e-01	0	27	0	186122240	70	4743
2026-01-05 07:29:39.82	317.23	6.77	-51.0	-53.0	15.1	6.01e-01	0	27	0	191889408	70	4649
2026-01-05 07:29:42.80	316.89	6.59	-51.1	-53.2	15.1	6.03e-01	0	28	0	197656576	70	4726
2026-01-05 07:29:45.77	316.55	6.40	-51.2	-53.2	15.1	6.02e-01	0	27	0	202899456	70	4759
2026-01-05 07:29:48.76	316.22	6.22	-51.3	-53.4	15.0	5.99e-01	0	27	0	208666624	70	4857
2026-01-05 07:29:51.74	315.90	6.03	-51.1	-53.2	15.1	6.02e-01	0	27	0	214433792	70	4706
2026-01-05 07:29:54.73	315.57	5.85	-51.4	-53.6	15.0	5.99e-01	0	27	0	219676672	70	4974
2026-01-05 07:29:57.73	315.26	5.66	-51.2	-53.4	15.0	6.03e-01	0	27	0	225443840	70	4820
2026-01-05 07:30:00.73	314.94	5.48	-51.2	-53.4	15.0	6.01e-01	0	27	0	231211008	70	4827
2026-01-05 07:30:03.72	314.63	5.30	-51.6	-53.8	14.8	6.03e-01	0	27	0	236453888	70	5082
2026-01-05 07:30:06.69	314.33	5.12	-51.5	-53.7	15.0	6.02e-01	0	27	0	242221056	71	4744
2026-01-05 07:30:09.70	314.03	4.93	-58.5	-77.1	3.9	7.47e-01	0	28	104	246415360	84	33219
2026-01-05 07:30:12.70	313.73	4.75	-59.5	-78.9	3.8	7.47e-01	0	28	104	246415360	86	36173
2026-01-05 07:30:15.69	313.44	4.57	-60.0	-79.4	3.8	7.47e-01	0	28	104	246415360	87	36208
2026-01-05 07:30:18.69	313.15	4.39	-60.4	-79.7	3.8	7.45e-01	0	28	104	246415360	88	35529
2026-01-05 07:30:21.71	312.86	4.21	-60.6	-80.0	3.8	7.45e-01	0	28	104	246415360	88	36584
2026-01-05 07:30:24.72	312.58	4.04	-60.7	-80.1	3.8	7.45e-01	0	28	104	246415360	89	34935
2026-01-05 07:30:27.72	312.31	3.86	-60.7	-80.1	3.8	7.45e-01	0	28	104	246415360	89	35139
2026-01-05 07:30:30.73	312.03	3.68	-60.7	-80.1	3.8	7.49e-01	0	28	104	246415360	89	34933
2026-01-05 07:30:33.74	311.76	3.50	-60.6	-80.0	3.8	7.48e-01	0	28	104	246415360	89	34613
2026-01-05 07:30:36.73	311.50	3.33	-60.5	-79.9	3.8	7.44e-01	0	28	104	246415360	89	34429
2026-01-05 07:30:39.75	311.23	3.15	-60.5	-79.9	3.8	7.51e-01	0	28	104	246415360	89	34232
2026-01-05 07:30:42.76	310.97	2.98	-60.5	-79.9	3.8	7.48e-01	0	28	104	246415360	89	34115
2026-01-05 07:30:45.77	310.72	2.81	-60.5	-79.9	3.8	7.46e-01	0	28	104	246415360	89	34140
2026-01-05 07:30:48.77	310.46	2.63	-60.5	-79.8	3.8	7.48e-01	0	28	104	246415360	89	34028
2026-01-05 07:30:51.77	310.22	2.46	-60.4	-79.8	3.9	7.48e-01	0	28	104	246415360	89	34028
2026-01-05 07:30:54.78	309.97	2.29	-60.4	-79.8	3.8	7.49e-01	0	28	104	246415360	89	33913
2026-01-05 07:30:57.78	309.73	2.12	-60.4	-79.8	3.8	7.49e-01	0	28	104	246415360	89	33733
2026-01-05 07:31:00.77	309.49	1.95	-60.4	-79.8	3.8	7.43e-01	0	28	104	246415360	89	33751

#Closed at: 2026-01-05 07:31:01
#Recorded file [246 MB]: D:/lorett/data/31004_260105_102040.dat