passes_logs/2026/01/05/R3.2S_Murmansk/R3.2S_Murmansk__20260105_225922_SUOMI_NPP_rec.log

#Pass ID: 20260105_225922_SUOMI NPP
#Satellite: SUOMI NPP
#Configuration: NPP
#almurnet v.1.7.20251203
#Start time: 2026-01-05 22:59:24

#Version: 2.2.20231116
#Station: R3.2S_Murmansk
#Location: 33.079688 lon 68.888172 lat
#TLE: 1 37849U 11061A   26004.95404768  .00000136  00000+0  85334-4 0  9991
#TLE: 2 37849  98.7801 307.0898 0002575  80.6707 279.4760 14.19522289735281

#Time	Az	El	Level	Level2	SNR	BER	BlckErr	Temp	State	Recorded	gain1	gain2
2026-01-05 22:59:24.34	19.79	2.10	-58.2	-74.1	3.8	1.49e+00	0	24	0	0	82	22746
2026-01-05 22:59:28.33	20.01	2.33	-58.1	-73.9	3.8	1.49e+00	0	24	104	0	81	23512
2026-01-05 22:59:32.32	20.23	2.57	-58.1	-73.6	3.8	1.49e+00	0	25	104	0	81	22677
2026-01-05 22:59:36.31	20.45	2.81	-58.1	-73.1	3.8	1.49e+00	0	25	104	0	81	21320
2026-01-05 22:59:40.29	20.68	3.05	-58.1	-72.8	3.8	1.49e+00	0	25	104	0	81	20607
2026-01-05 22:59:44.27	20.91	3.29	-58.0	-71.3	4.0	1.48e+00	0	25	0	0	81	17478
2026-01-05 22:59:48.24	21.14	3.54	-57.8	-68.7	4.8	7.36e-01	0	25	0	4194304	81	12942
2026-01-05 22:59:52.22	21.37	3.78	-57.7	-68.2	5.1	5.96e-01	0	25	0	11534336	81	12096
2026-01-05 22:59:56.20	21.61	4.03	-57.2	-64.9	7.4	1.14e-01	0	25	0	18874368	81	8273
2026-01-05 23:00:00.18	21.86	4.28	-55.5	-60.0	11.4	3.04e-04	0	25	0	26214400	77	5933
2026-01-05 23:00:04.16	22.10	4.53	-55.0	-58.9	12.1	7.00e-07	0	25	0	33554432	76	5546
2026-01-05 23:00:08.13	22.35	4.78	-55.7	-60.2	11.1	4.19e-05	0	25	0	40894464	76	6435
2026-01-05 23:00:12.12	22.61	5.04	-57.1	-64.5	7.8	2.49e-02	0	26	0	48234496	79	8867
2026-01-05 23:00:16.11	22.87	5.30	-55.3	-59.2	12.0	6.56e-05	0	26	0	55574528	77	5409
2026-01-05 23:00:20.10	23.13	5.56	-54.9	-58.4	12.5	0.00e+00	0	25	0	62914560	76	5226
2026-01-05 23:00:24.08	23.40	5.82	-54.6	-57.9	12.7	0.00e+00	0	25	0	71303168	75	5257
2026-01-05 23:00:28.07	23.68	6.08	-54.3	-57.4	13.0	0.00e+00	0	26	0	78643200	75	4970
2026-01-05 23:00:32.06	23.95	6.35	-54.2	-57.2	13.0	0.00e+00	0	26	0	85983232	74	5147
2026-01-05 23:00:36.03	24.24	6.62	-53.9	-56.8	13.3	0.00e+00	0	26	0	93323264	74	4898
2026-01-05 23:00:40.02	24.52	6.89	-54.0	-57.0	13.2	0.00e+00	0	26	0	100663296	74	4996
2026-01-05 23:00:44.00	24.82	7.16	-53.9	-56.8	13.2	0.00e+00	0	26	0	108003328	73	5204
2026-01-05 23:00:47.98	25.11	7.43	-53.5	-56.2	13.5	0.00e+00	0	26	0	115343360	73	4861
2026-01-05 23:00:51.94	25.41	7.71	-53.4	-56.0	13.7	0.00e+00	0	26	0	122683392	73	4711
2026-01-05 23:00:55.92	25.72	7.99	-53.1	-55.6	13.8	0.00e+00	0	26	0	131072000	72	4761
2026-01-05 23:00:59.89	26.03	8.27	-53.1	-55.5	13.9	0.00e+00	0	26	0	138412032	72	4725
2026-01-05 23:01:03.87	26.35	8.56	-53.0	-55.4	13.9	0.00e+00	0	26	0	145752064	72	4682
2026-01-05 23:01:07.84	26.68	8.84	-52.8	-55.1	14.1	0.00e+00	0	26	0	153092096	72	4522
2026-01-05 23:01:11.83	27.01	9.13	-52.7	-54.9	14.0	0.00e+00	0	26	0	160432128	71	4682
2026-01-05 23:01:15.81	27.35	9.42	-52.6	-54.8	14.1	0.00e+00	0	26	0	167772160	71	4645
2026-01-05 23:01:19.79	27.69	9.72	-52.4	-54.6	14.2	0.00e+00	0	26	0	175112192	71	4523
2026-01-05 23:01:23.77	28.04	10.02	-52.8	-55.2	14.0	0.00e+00	0	26	0	182452224	71	4818
2026-01-05 23:01:27.74	28.40	10.32	-52.6	-54.8	14.1	0.00e+00	0	26	0	189792256	71	4651
2026-01-05 23:01:31.73	28.77	10.62	-52.7	-54.9	14.1	0.00e+00	0	26	0	198180864	71	4703
2026-01-05 23:01:35.71	29.14	10.93	-52.4	-54.6	14.3	0.00e+00	0	26	0	205520896	71	4508
2026-01-05 23:01:39.69	29.52	11.24	-52.2	-54.3	14.2	0.00e+00	0	26	0	212860928	70	4641
2026-01-05 23:01:43.65	29.90	11.55	-52.0	-54.0	14.4	0.00e+00	0	26	0	220200960	70	4476
2026-01-05 23:01:47.63	30.30	11.86	-52.1	-54.2	14.3	0.00e+00	0	26	0	227540992	70	4551
2026-01-05 23:01:51.60	30.70	12.18	-52.2	-54.3	14.3	0.00e+00	0	26	0	234881024	70	4612
2026-01-05 23:01:55.58	31.11	12.50	-52.1	-54.3	14.2	0.00e+00	0	26	0	242221056	70	4604
2026-01-05 23:01:59.57	31.53	12.82	-52.3	-54.4	14.2	0.00e+00	0	26	0	249561088	70	4701
2026-01-05 23:02:03.54	31.96	13.15	-52.3	-54.5	14.2	0.00e+00	0	26	0	256901120	70	4750
2026-01-05 23:02:07.51	32.40	13.48	-52.1	-54.2	14.3	0.00e+00	0	26	0	265289728	70	4578
2026-01-05 23:02:11.48	32.84	13.81	-52.0	-54.1	14.4	0.00e+00	0	26	0	272629760	70	4503
2026-01-05 23:02:15.47	33.30	14.14	-52.2	-54.3	14.3	0.00e+00	0	26	0	279969792	70	4646
2026-01-05 23:02:19.47	33.77	14.48	-52.6	-54.9	14.0	0.00e+00	0	26	0	287309824	70	4943
2026-01-05 23:02:23.47	34.25	14.83	-52.6	-55.0	14.0	0.00e+00	0	26	0	294649856	70	5000
2026-01-05 23:02:27.46	34.74	15.17	-52.5	-54.8	14.1	0.00e+00	0	26	0	301989888	70	4874
2026-01-05 23:02:31.43	35.24	15.52	-52.5	-54.8	14.0	0.00e+00	0	26	0	309329920	70	4917
2026-01-05 23:02:35.41	35.75	15.87	-52.8	-55.3	13.9	0.00e+00	0	26	0	316669952	70	5177
2026-01-05 23:02:39.40	36.28	16.22	-52.8	-55.2	14.0	0.00e+00	0	26	0	325058560	71	4843
2026-01-05 23:02:43.38	36.81	16.58	-52.8	-55.2	14.0	0.00e+00	0	26	0	332398592	71	4816
2026-01-05 23:02:47.38	37.36	16.94	-52.6	-54.8	14.2	0.00e+00	0	26	0	339738624	71	4607
2026-01-05 23:02:51.38	37.92	17.30	-52.2	-54.3	14.5	0.00e+00	0	26	0	347078656	71	4367
2026-01-05 23:02:55.36	38.50	17.67	-52.0	-54.0	14.4	0.00e+00	0	26	0	354418688	70	4488
2026-01-05 23:02:59.35	39.09	18.04	-52.0	-53.9	14.5	0.00e+00	0	26	0	361758720	70	4438
2026-01-05 23:03:03.34	39.69	18.41	-51.8	-53.7	14.6	0.00e+00	0	26	0	369098752	70	4337
2026-01-05 23:03:07.35	40.31	18.78	-52.0	-54.0	14.5	0.00e+00	0	26	0	377487360	70	4451
2026-01-05 23:03:11.34	40.94	19.16	-51.9	-54.0	14.6	0.00e+00	0	26	0	384827392	70	4455
2026-01-05 23:03:15.32	41.59	19.54	-51.6	-53.7	14.5	0.00e+00	0	26	0	392167424	69	4562
2026-01-05 23:03:19.32	42.25	19.92	-51.7	-53.6	14.5	0.00e+00	0	26	0	399507456	69	4544
2026-01-05 23:03:23.32	42.93	20.30	-51.5	-53.3	14.6	0.00e+00	0	26	0	406847488	69	4379
2026-01-05 23:03:27.31	43.63	20.69	-51.5	-53.3	14.6	0.00e+00	0	26	0	414187520	69	4389
2026-01-05 23:03:31.29	44.34	21.07	-51.3	-53.1	14.8	0.00e+00	0	26	0	421527552	69	4247
2026-01-05 23:03:35.28	45.07	21.46	-51.2	-52.9	14.7	0.00e+00	0	26	0	428867584	68	4430
2026-01-05 23:03:39.27	45.82	21.85	-50.8	-52.5	14.9	0.00e+00	0	26	0	437256192	68	4207
2026-01-05 23:03:43.27	46.59	22.24	-50.4	-52.0	14.9	0.00e+00	0	26	0	444596224	67	4218
2026-01-05 23:03:47.29	47.38	22.64	-50.8	-52.5	14.7	0.00e+00	0	26	0	451936256	67	4459
2026-01-05 23:03:51.29	48.19	23.03	-51.3	-53.1	14.5	0.00e+00	0	26	0	459276288	67	4811
2026-01-05 23:03:55.30	49.02	23.42	-51.5	-53.4	14.5	0.00e+00	0	26	0	466616320	68	4661
2026-01-05 23:03:59.30	49.87	23.82	-51.4	-53.2	14.6	0.00e+00	0	26	0	473956352	68	4579
2026-01-05 23:04:03.27	50.73	24.20	-51.4	-53.3	14.6	0.00e+00	0	26	0	482344960	68	4607
2026-01-05 23:04:07.25	51.62	24.59	-51.5	-53.3	14.5	0.00e+00	0	26	0	489684992	68	4648
2026-01-05 23:04:11.24	52.53	24.98	-51.2	-53.0	14.7	0.00e+00	0	26	0	497025024	68	4477
2026-01-05 23:04:15.25	53.47	25.37	-51.1	-52.9	14.7	0.00e+00	0	26	0	504365056	68	4422
2026-01-05 23:04:19.25	54.42	25.76	-51.7	-53.6	14.4	0.00e+00	0	26	0	511705088	68	4791
2026-01-05 23:04:23.25	55.40	26.14	-52.3	-54.4	14.3	0.00e+00	0	26	0	519045120	70	4670
2026-01-05 23:04:27.26	56.41	26.52	-51.9	-53.8	14.6	0.00e+00	0	26	0	526385152	70	4363
2026-01-05 23:04:31.27	57.44	26.89	-51.8	-53.7	14.6	0.00e+00	0	26	0	534773760	70	4314
2026-01-05 23:04:35.26	58.49	27.26	-52.4	-54.5	14.3	0.00e+00	0	26	0	542113792	70	4732
2026-01-05 23:04:39.28	59.57	27.63	-52.4	-54.4	14.3	0.00e+00	0	26	0	549453824	70	4679
2026-01-05 23:04:43.29	60.68	27.99	-52.4	-54.5	14.3	0.00e+00	0	26	0	556793856	70	4736
2026-01-05 23:04:47.31	61.81	28.34	-52.3	-54.3	14.4	0.00e+00	0	27	0	564133888	70	4634
2026-01-05 23:04:51.30	62.95	28.69	-52.1	-54.0	14.5	0.00e+00	0	27	0	571473920	70	4469
2026-01-05 23:04:55.30	64.12	29.02	-52.6	-54.7	14.2	0.00e+00	0	26	0	579862528	70	4866
2026-01-05 23:04:59.30	65.32	29.35	-52.8	-54.9	14.1	0.00e+00	0	26	0	587202560	70	4946
2026-01-05 23:05:03.32	66.55	29.67	-53.0	-55.2	14.3	0.00e+00	0	27	0	594542592	72	4565
2026-01-05 23:05:07.32	67.79	29.97	-53.8	-56.3	13.7	0.00e+00	0	26	0	601882624	72	5202
2026-01-05 23:05:11.33	69.07	30.27	-52.8	-54.9	14.4	0.00e+00	0	27	0	609222656	72	4400
2026-01-05 23:05:15.35	70.36	30.55	-54.0	-56.6	13.6	0.00e+00	0	26	0	616562688	73	5059
2026-01-05 23:05:19.37	71.68	30.82	-54.6	-57.6	13.2	0.00e+00	0	26	0	624951296	74	5349
2026-01-05 23:05:23.39	73.02	31.08	-54.1	-56.8	13.6	0.00e+00	0	26	0	632291328	74	4908
2026-01-05 23:05:27.41	74.38	31.32	-54.0	-56.7	13.7	0.00e+00	0	26	0	639631360	74	4835
2026-01-05 23:05:31.41	75.76	31.55	-53.4	-55.8	14.0	0.00e+00	0	26	0	646971392	73	4645
2026-01-05 23:05:35.41	77.15	31.75	-53.3	-55.6	14.1	0.00e+00	0	27	0	654311424	72	4762
2026-01-05 23:05:39.43	78.56	31.95	-53.9	-56.6	13.6	0.00e+00	0	26	0	661651456	73	5077
2026-01-05 23:05:43.44	79.99	32.12	-53.3	-55.6	14.2	0.00e+00	0	26	0	670040064	73	4502
2026-01-05 23:05:47.44	81.43	32.27	-53.6	-56.2	13.7	0.00e+00	0	26	0	677380096	72	5106
2026-01-05 23:05:51.44	82.88	32.41	-53.6	-56.2	13.8	0.00e+00	0	26	0	684720128	73	4817
2026-01-05 23:05:55.41	84.34	32.52	-52.8	-55.0	14.3	0.00e+00	0	26	0	692060160	72	4442
2026-01-05 23:05:59.41	85.81	32.62	-53.4	-55.9	13.8	0.00e+00	0	26	0	699400192	72	4972
2026-01-05 23:06:03.41	87.29	32.69	-53.3	-55.8	13.9	0.00e+00	0	27	0	706740224	72	4879
2026-01-05 23:06:07.39	88.77	32.75	-53.3	-55.8	13.9	0.00e+00	0	26	0	715128832	72	4900
2026-01-05 23:06:11.37	90.25	32.78	-53.4	-55.9	13.8	0.00e+00	0	27	0	722468864	72	4958
2026-01-05 23:06:15.37	91.74	32.79	-54.0	-56.8	13.5	0.00e+00	0	26	0	729808896	73	5179
2026-01-05 23:06:19.36	93.23	32.79	-53.5	-56.1	13.9	0.00e+00	0	26	0	737148928	73	4773
2026-01-05 23:06:23.36	94.72	32.76	-51.8	-53.7	14.6	0.00e+00	0	26	0	744488960	70	4300
2026-01-05 23:06:27.36	96.21	32.71	-53.3	-55.6	13.9	0.00e+00	0	26	0	751828992	71	5056
2026-01-05 23:06:31.36	97.69	32.63	-53.6	-56.1	13.8	0.00e+00	0	27	0	759169024	72	5052
2026-01-05 23:06:35.35	99.17	32.54	-52.8	-55.0	14.3	0.00e+00	0	27	0	766509056	72	4470
2026-01-05 23:06:39.34	100.63	32.43	-53.4	-55.9	13.8	0.00e+00	0	27	0	774897664	72	4975
2026-01-05 23:06:43.34	102.08	32.30	-53.2	-55.6	14.0	0.00e+00	0	26	0	782237696	72	4801
2026-01-05 23:06:47.34	103.53	32.15	-52.4	-54.4	14.4	0.00e+00	0	26	0	789577728	71	4413
2026-01-05 23:06:51.34	104.96	31.98	-54.3	-57.0	13.5	0.00e+00	0	27	0	796917760	74	5041
2026-01-05 23:06:55.33	106.37	31.79	-53.0	-55.2	14.2	0.00e+00	0	27	0	804257792	72	4593
2026-01-05 23:06:59.32	107.76	31.59	-52.5	-54.5	14.4	0.00e+00	0	27	0	811597824	71	4444
2026-01-05 23:07:03.29	109.13	31.37	-52.6	-54.6	14.2	0.00e+00	0	27	0	818937856	70	4778
2026-01-05 23:07:07.27	110.48	31.13	-52.5	-54.4	14.3	0.00e+00	0	26	0	827326464	70	4696
2026-01-05 23:07:11.24	111.82	30.88	-52.0	-53.7	14.6	0.00e+00	0	27	0	834666496	70	4334
2026-01-05 23:07:15.22	113.13	30.62	-52.8	-54.9	14.2	0.00e+00	0	26	0	842006528	71	4686
2026-01-05 23:07:19.22	114.43	30.34	-52.0	-53.7	14.6	0.00e+00	0	26	0	849346560	70	4340
2026-01-05 23:07:23.22	115.70	30.04	-53.2	-55.4	14.0	0.00e+00	0	26	0	856686592	71	4963
2026-01-05 23:07:27.21	116.95	29.74	-52.2	-54.1	14.4	0.00e+00	0	26	0	864026624	70	4545
2026-01-05 23:07:31.20	118.18	29.42	-53.1	-55.4	14.1	0.00e+00	0	27	0	871366656	72	4663
2026-01-05 23:07:35.19	119.38	29.10	-53.2	-55.5	13.9	0.00e+00	0	27	0	879755264	71	5019
2026-01-05 23:07:39.17	120.56	28.77	-53.0	-55.3	14.1	0.00e+00	0	27	0	887095296	72	4626
2026-01-05 23:07:43.15	121.71	28.42	-52.8	-54.9	14.3	0.00e+00	0	26	0	894435328	72	4440
2026-01-05 23:07:47.15	122.85	28.07	-52.8	-55.0	14.1	0.00e+00	0	27	0	901775360	71	4745
2026-01-05 23:07:51.14	123.95	27.71	-54.5	-57.7	13.0	0.00e+00	0	26	0	909115392	74	5416
2026-01-05 23:07:55.12	125.03	27.35	-53.3	-55.8	14.0	0.00e+00	0	27	0	916455424	73	4632
2026-01-05 23:07:59.10	126.09	26.98	-54.4	-57.5	13.2	0.00e+00	0	27	0	923795456	75	5004
2026-01-05 23:08:03.08	127.12	26.61	-53.7	-56.4	13.6	0.00e+00	0	26	0	931135488	73	4969
2026-01-05 23:08:07.07	128.13	26.23	-54.1	-57.0	13.3	0.00e+00	0	26	0	938475520	73	5310
2026-01-05 23:08:11.04	129.12	25.85	-54.9	-58.0	13.0	0.00e+00	0	26	0	946864128	74	5619
2026-01-05 23:08:15.04	130.08	25.46	-54.9	-58.2	13.0	0.00e+00	0	26	0	954204160	76	5123
2026-01-05 23:08:19.03	131.03	25.07	-54.2	-57.1	13.3	0.00e+00	0	26	0	961544192	73	5367
2026-01-05 23:08:23.01	131.94	24.69	-53.3	-55.8	13.9	0.00e+00	0	27	0	968884224	73	4619
2026-01-05 23:08:27.01	132.84	24.29	-53.3	-55.8	13.8	0.00e+00	0	26	0	976224256	72	4925
2026-01-05 23:08:31.01	133.72	23.90	-52.7	-55.2	14.1	0.00e+00	0	26	0	983564288	72	4586
2026-01-05 23:08:35.00	134.58	23.51	-53.6	-56.2	13.7	0.00e+00	0	26	0	990904320	72	5103
2026-01-05 23:08:39.00	135.41	23.11	-54.4	-57.3	13.2	0.00e+00	0	27	0	999292928	74	5176
2026-01-05 23:08:43.01	136.23	22.71	-53.1	-55.5	14.0	0.00e+00	0	27	0	1006632960	72	4718
2026-01-05 23:08:47.01	137.03	22.32	-51.6	-53.5	14.6	0.00e+00	0	27	0	1013972992	69	4469
2026-01-05 23:08:51.02	137.81	21.93	-51.4	-53.2	14.5	0.00e+00	0	26	0	1021313024	68	4567
2026-01-05 23:08:55.03	138.57	21.53	-53.1	-55.4	14.0	0.00e+00	0	27	0	1028653056	71	4955
2026-01-05 23:08:59.02	139.30	21.14	-52.7	-54.8	14.2	0.00e+00	0	27	0	1035993088	71	4646
2026-01-05 23:09:03.02	140.03	20.75	-52.0	-53.9	14.5	0.00e+00	0	26	0	1044381696	70	4395
2026-01-05 23:09:06.99	140.72	20.36	-51.8	-53.7	14.6	0.00e+00	0	27	0	1051721728	70	4329
2026-01-05 23:09:10.98	141.41	19.98	-51.8	-53.7	14.6	0.00e+00	0	27	0	1059061760	70	4302
2026-01-05 23:09:14.97	142.08	19.60	-51.6	-53.5	14.5	0.00e+00	0	27	0	1066401792	69	4471
2026-01-05 23:09:18.95	142.73	19.21	-51.9	-53.9	14.3	0.00e+00	0	27	0	1073741824	69	4700
2026-01-05 23:09:22.94	143.37	18.84	-51.5	-53.4	14.6	0.00e+00	0	26	0	1081081856	69	4406
2026-01-05 23:09:26.94	143.99	18.46	-50.9	-52.6	14.8	0.00e+00	0	27	0	1088421888	68	4246
2026-01-05 23:09:30.92	144.60	18.08	-51.2	-53.0	14.6	0.00e+00	0	27	0	1095761920	68	4469
2026-01-05 23:09:34.93	145.19	17.71	-51.5	-53.4	14.5	0.00e+00	0	26	0	1104150528	68	4667
2026-01-05 23:09:38.92	145.77	17.34	-51.7	-53.6	14.4	0.00e+00	0	27	0	1111490560	68	4766
2026-01-05 23:09:42.92	146.34	16.98	-52.5	-54.7	14.1	0.00e+00	0	26	0	1118830592	70	4818
2026-01-05 23:09:46.91	146.89	16.61	-53.0	-55.4	13.9	0.00e+00	0	27	0	1126170624	71	4940
2026-01-05 23:09:50.91	147.43	16.25	-53.2	-55.7	13.7	0.00e+00	0	26	0	1133510656	71	5127
2026-01-05 23:09:54.89	147.96	15.90	-52.4	-54.6	14.2	0.00e+00	0	26	0	1140850688	71	4518
2026-01-05 23:09:58.89	148.48	15.54	-52.5	-54.7	14.2	0.00e+00	0	26	0	1148190720	71	4575
2026-01-05 23:10:02.86	148.98	15.19	-53.1	-55.1	14.0	0.00e+00	0	27	0	1156579328	71	4807
2026-01-05 23:10:06.86	149.47	14.84	-53.1	-55.2	14.0	0.00e+00	0	27	0	1163919360	71	4831
2026-01-05 23:10:10.85	149.95	14.50	-52.2	-54.1	14.5	0.00e+00	0	27	0	1171259392	71	4259
2026-01-05 23:10:14.84	150.42	14.16	-52.3	-54.1	14.4	0.00e+00	0	27	0	1178599424	70	4521
2026-01-05 23:10:18.83	150.89	13.82	-52.8	-54.8	14.1	0.00e+00	0	27	0	1185939456	70	4894
2026-01-05 23:10:22.86	151.34	13.48	-52.9	-55.1	14.1	0.00e+00	0	27	0	1193279488	71	4760
2026-01-05 23:10:26.82	151.78	13.15	-52.6	-54.6	14.2	0.00e+00	0	27	0	1200619520	71	4507
2026-01-05 23:10:30.81	152.21	12.82	-52.5	-54.4	14.4	0.00e+00	0	27	0	1207959552	71	4403
2026-01-05 23:10:34.80	152.63	12.49	-52.6	-54.6	14.2	0.00e+00	0	27	0	1216348160	71	4538
2026-01-05 23:10:38.80	153.05	12.17	-53.1	-55.3	13.9	0.00e+00	0	27	0	1223688192	71	4872
2026-01-05 23:10:42.78	153.45	11.85	-53.0	-55.1	14.0	0.00e+00	0	27	0	1231028224	71	4812
2026-01-05 23:10:46.77	153.85	11.53	-52.9	-55.0	14.0	0.00e+00	0	27	0	1238368256	71	4709
2026-01-05 23:10:50.78	154.24	11.21	-52.8	-54.8	14.1	0.00e+00	0	27	0	1245708288	71	4644
2026-01-05 23:10:54.75	154.62	10.90	-52.8	-54.9	14.1	0.00e+00	0	27	0	1253048320	71	4678
2026-01-05 23:10:58.76	155.00	10.59	-52.8	-54.9	14.0	0.00e+00	0	27	0	1260388352	71	4700
2026-01-05 23:11:02.75	155.36	10.29	-52.8	-54.9	14.1	0.00e+00	0	26	0	1268776960	71	4671
2026-01-05 23:11:06.74	155.72	9.98	-52.5	-54.5	14.3	0.00e+00	0	27	0	1276116992	71	4447
2026-01-05 23:11:10.73	156.07	9.68	-52.4	-54.3	14.3	0.00e+00	0	26	0	1283457024	71	4390
2026-01-05 23:11:14.71	156.42	9.38	-52.3	-54.3	14.3	0.00e+00	0	27	0	1290797056	71	4358
2026-01-05 23:11:18.70	156.76	9.09	-52.5	-54.5	14.2	0.00e+00	0	27	0	1298137088	71	4486
2026-01-05 23:11:22.68	157.09	8.80	-52.8	-54.9	14.0	0.00e+00	0	27	0	1305477120	71	4702
2026-01-05 23:11:26.66	157.41	8.51	-53.1	-55.3	13.8	0.00e+00	0	26	0	1312817152	71	4919
2026-01-05 23:11:30.64	157.73	8.22	-53.2	-55.5	13.7	0.00e+00	0	27	0	1320157184	71	5000
2026-01-05 23:11:34.64	158.05	7.94	-53.3	-55.6	13.7	0.00e+00	0	27	0	1328545792	71	5063
2026-01-05 23:11:38.61	158.35	7.65	-53.3	-55.6	13.6	0.00e+00	0	27	0	1335885824	71	5080
2026-01-05 23:11:42.59	158.66	7.38	-53.7	-56.3	13.4	0.00e+00	0	26	0	1343225856	72	5181
2026-01-05 23:11:46.60	158.95	7.10	-53.8	-56.4	13.3	0.00e+00	0	27	0	1350565888	72	5261
2026-01-05 23:11:50.59	159.25	6.82	-54.2	-57.1	13.0	0.00e+00	0	27	0	1357905920	73	5379
2026-01-05 23:11:54.58	159.53	6.55	-54.4	-57.4	12.9	0.00e+00	0	27	0	1365245952	74	5270
2026-01-05 23:11:58.58	159.82	6.28	-54.7	-57.8	12.6	0.00e+00	0	27	0	1372585984	74	5514
2026-01-05 23:12:02.57	160.09	6.01	-54.6	-57.7	12.7	0.00e+00	0	27	0	1379926016	74	5419
2026-01-05 23:12:06.57	160.37	5.74	-54.5	-57.6	12.7	0.00e+00	0	26	0	1388314624	74	5382
2026-01-05 23:12:10.53	160.63	5.48	-54.5	-57.6	12.7	0.00e+00	0	27	0	1395654656	74	5380
2026-01-05 23:12:14.52	160.89	5.22	-54.7	-58.0	12.4	7.00e-07	0	26	0	1402994688	74	5640
2026-01-05 23:12:18.50	161.15	4.96	-58.7	-74.7	3.8	1.49e+00	0	27	104	1409286144	82	24136
2026-01-05 23:12:22.50	161.41	4.70	-59.7	-75.8	3.8	1.49e+00	0	27	104	1409286144	84	24518
2026-01-05 23:12:26.48	161.66	4.45	-60.1	-76.1	3.8	1.49e+00	0	27	104	1409286144	85	24111
2026-01-05 23:12:30.48	161.90	4.19	-60.3	-76.4	3.8	1.49e+00	0	27	104	1409286144	85	24783
2026-01-05 23:12:34.47	162.15	3.94	-60.5	-76.6	3.8	1.49e+00	0	27	104	1409286144	86	23882
2026-01-05 23:12:38.47	162.39	3.69	-60.5	-76.6	3.8	1.49e+00	0	27	104	1409286144	86	24013
2026-01-05 23:12:42.46	162.62	3.44	-60.5	-76.6	3.8	1.49e+00	0	27	104	1409286144	86	23892
2026-01-05 23:12:46.46	162.85	3.20	-60.4	-76.5	3.8	1.49e+00	0	27	104	1409286144	86	23805
2026-01-05 23:12:50.44	163.08	2.95	-60.4	-76.5	3.8	1.49e+00	0	27	104	1409286144	86	23750
2026-01-05 23:12:54.44	163.30	2.71	-60.4	-76.5	3.8	1.49e+00	0	27	104	1409286144	86	23644
2026-01-05 23:12:58.44	163.52	2.47	-60.4	-76.5	3.8	1.49e+00	0	27	104	1409286144	86	23614
2026-01-05 23:13:02.43	163.74	2.23	-60.4	-76.4	3.9	1.49e+00	0	27	104	1409286144	86	23579
2026-01-05 23:13:06.43	163.96	1.99	-60.3	-76.4	3.8	1.49e+00	0	27	104	1409286144	86	23545

#Closed at: 2026-01-05 23:13:08
#Recorded file [1409 MB]: D:/lorett/data/31004_260106_015924.dat