passes_logs/2026/01/05/R3.2S_Murmansk/R3.2S_Murmansk__20260105_002906_NOAA_21_JPSS-2_rec.log

#Pass ID: 20260105_002906_NOAA 21 (JPSS-2)
#Satellite: NOAA 21 (JPSS-2)
#Configuration: NOAA-21
#almurnet v.1.7.20251203
#Start time: 2026-01-05 00:29:07

#Version: 2.2.20231116
#Station: R3.2S_Murmansk
#Location: 33.079688 lon 68.888172 lat
#TLE: 1 54234U 22150A   26004.43991293  .00000169  00000+0  10108-3 0  9998
#TLE: 2 54234  98.7489 305.4680 0001107 344.3033  15.8108 14.19531967163313

#Time	Az	El	Level	Level2	SNR	BER	BlckErr	Temp	State	Recorded	gain1	gain2
2026-01-05 00:29:07.34	23.76	2.04	-58.4	-72.2	3.8	1.49e+00	0	26	0	0	83	17195
2026-01-05 00:29:11.33	23.79	2.30	-58.4	-72.1	3.8	1.49e+00	0	26	104	0	81	19103
2026-01-05 00:29:15.32	23.83	2.55	-58.4	-72.1	3.8	1.49e+00	0	26	104	0	81	19164
2026-01-05 00:29:19.32	23.86	2.82	-58.4	-72.0	3.8	1.49e+00	0	26	104	0	81	18861
2026-01-05 00:29:23.31	23.90	3.08	-58.3	-71.1	3.8	1.49e+00	0	26	104	0	81	17067
2026-01-05 00:29:27.31	23.94	3.34	-58.2	-70.1	3.9	1.48e+00	0	26	104	0	81	15127
2026-01-05 00:29:31.29	23.98	3.61	-58.3	-71.1	3.8	1.49e+00	0	26	104	0	81	16976
2026-01-05 00:29:35.29	24.01	3.88	-58.4	-72.0	3.8	1.49e+00	0	27	104	0	81	18842
2026-01-05 00:29:39.29	24.05	4.16	-58.3	-70.8	3.8	1.49e+00	0	27	104	0	81	16337
2026-01-05 00:29:43.30	24.09	4.43	-58.0	-68.0	4.0	1.26e+00	0	27	104	0	81	11918
2026-01-05 00:29:47.30	24.13	4.71	-57.7	-65.5	5.6	4.05e-01	0	27	0	8388608	81	8904
2026-01-05 00:29:51.30	24.17	4.99	-57.5	-64.4	6.2	2.23e-01	0	27	0	20971520	81	7878
2026-01-05 00:29:55.29	24.21	5.28	-57.9	-66.8	4.7	1.48e+00	2	27	104	31457280	81	10339
2026-01-05 00:29:59.30	24.25	5.57	-55.6	-59.2	10.5	7.22e-04	0	27	0	40894464	77	5421
2026-01-05 00:30:03.29	24.29	5.86	-54.7	-57.6	11.6	1.14e-05	0	27	0	53477376	75	5085
2026-01-05 00:30:07.27	24.33	6.15	-53.5	-55.7	12.8	0.00e+00	0	27	0	66060288	73	4587
2026-01-05 00:30:11.27	24.37	6.45	-52.2	-54.0	13.7	0.00e+00	0	27	0	78643200	71	4218
2026-01-05 00:30:15.26	24.42	6.75	-51.7	-53.4	13.8	0.00e+00	0	27	0	91226112	69	4438
2026-01-05 00:30:19.27	24.46	7.06	-51.4	-53.0	14.0	0.00e+00	0	27	0	103809024	69	4232
2026-01-05 00:30:23.25	24.50	7.36	-51.3	-52.9	14.0	0.00e+00	0	27	0	116391936	69	4179
2026-01-05 00:30:27.26	24.55	7.68	-51.4	-53.0	14.0	0.00e+00	0	27	0	127926272	69	4202
2026-01-05 00:30:31.25	24.59	7.99	-51.2	-52.8	14.2	0.00e+00	0	27	0	140509184	69	4099
2026-01-05 00:30:35.25	24.64	8.31	-51.2	-52.7	14.1	0.00e+00	0	27	0	153092096	68	4333
2026-01-05 00:30:39.25	24.68	8.64	-51.0	-52.5	14.2	0.00e+00	0	27	0	165675008	68	4238
2026-01-05 00:30:43.23	24.73	8.97	-50.9	-52.4	14.3	0.00e+00	0	27	0	178257920	68	4165
2026-01-05 00:30:47.24	24.78	9.30	-51.0	-52.4	14.2	0.00e+00	0	27	0	190840832	68	4187
2026-01-05 00:30:51.25	24.82	9.64	-50.9	-52.4	14.3	0.00e+00	0	28	0	203423744	68	4163
2026-01-05 00:30:55.23	24.87	9.98	-50.5	-51.9	14.3	0.00e+00	0	27	0	216006656	67	4187
2026-01-05 00:30:59.23	24.92	10.33	-50.4	-51.8	14.4	0.00e+00	0	27	0	228589568	67	4109
2026-01-05 00:31:03.22	24.97	10.68	-50.3	-51.7	14.5	0.00e+00	0	28	0	241172480	67	4053
2026-01-05 00:31:07.23	25.02	11.04	-50.1	-51.5	14.5	0.00e+00	0	28	0	253755392	66	4195
2026-01-05 00:31:11.22	25.07	11.40	-49.9	-51.3	14.5	0.00e+00	0	28	0	265289728	66	4100
2026-01-05 00:31:15.21	25.13	11.77	-49.8	-51.1	14.6	0.00e+00	0	28	0	277872640	66	4032
2026-01-05 00:31:19.20	25.18	12.14	-49.7	-51.0	14.6	0.00e+00	0	28	0	290455552	66	3999
2026-01-05 00:31:23.19	25.23	12.52	-49.6	-50.9	14.6	0.00e+00	0	28	0	303038464	65	4166
2026-01-05 00:31:27.18	25.29	12.90	-49.6	-50.9	14.6	0.00e+00	0	28	0	315621376	65	4148
2026-01-05 00:31:31.18	25.34	13.29	-49.4	-50.7	14.7	0.00e+00	0	28	0	328204288	65	4062
2026-01-05 00:31:35.18	25.40	13.69	-49.3	-50.6	14.7	0.00e+00	0	28	0	340787200	65	4025
2026-01-05 00:31:39.18	25.46	14.10	-49.3	-50.5	14.8	0.00e+00	0	28	0	353370112	65	4002
2026-01-05 00:31:43.17	25.52	14.51	-49.2	-50.4	14.7	0.00e+00	0	28	0	365953024	64	4166
2026-01-05 00:31:47.17	25.58	14.93	-49.1	-50.3	14.7	0.00e+00	0	28	0	378535936	64	4128
2026-01-05 00:31:51.18	25.64	15.35	-49.2	-50.4	14.7	0.00e+00	0	28	0	390070272	64	4172
2026-01-05 00:31:55.17	25.70	15.79	-49.2	-50.5	14.7	0.00e+00	0	28	0	402653184	64	4212
2026-01-05 00:31:59.18	25.77	16.23	-49.5	-50.7	14.6	0.00e+00	0	28	0	415236096	64	4323
2026-01-05 00:32:03.17	25.83	16.68	-49.5	-50.8	14.6	0.00e+00	0	28	0	427819008	64	4376
2026-01-05 00:32:07.16	25.90	17.13	-49.5	-50.8	14.6	0.00e+00	0	28	0	440401920	64	4356
2026-01-05 00:32:11.17	25.97	17.60	-49.4	-50.6	14.6	0.00e+00	0	28	0	452984832	64	4288
2026-01-05 00:32:15.17	26.04	18.08	-49.4	-50.6	14.6	0.00e+00	0	28	0	465567744	64	4285
2026-01-05 00:32:19.17	26.11	18.56	-49.3	-50.6	14.7	0.00e+00	0	28	0	478150656	64	4243
2026-01-05 00:32:23.18	26.19	19.06	-49.3	-50.6	14.7	0.00e+00	0	28	0	490733568	64	4258
2026-01-05 00:32:27.16	26.26	19.56	-49.3	-50.5	14.7	0.00e+00	0	28	0	503316480	64	4234
2026-01-05 00:32:31.14	26.34	20.07	-49.1	-50.3	14.7	0.00e+00	0	28	0	515899392	64	4135
2026-01-05 00:32:35.12	26.42	20.60	-48.9	-50.1	14.8	0.00e+00	0	28	0	527433728	64	4044
2026-01-05 00:32:39.10	26.50	21.13	-48.9	-50.1	14.9	0.00e+00	0	28	0	540016640	64	4008
2026-01-05 00:32:43.08	26.59	21.68	-48.7	-49.9	14.8	0.00e+00	0	28	0	552599552	63	4149
2026-01-05 00:32:47.07	26.67	22.24	-48.6	-49.8	14.8	0.00e+00	0	28	0	565182464	63	4104
2026-01-05 00:32:51.06	26.76	22.81	-48.2	-49.3	15.0	0.00e+00	0	28	0	577765376	63	3910
2026-01-05 00:32:55.06	26.85	23.39	-48.2	-49.4	15.0	0.00e+00	0	28	0	590348288	63	3930
2026-01-05 00:32:59.06	26.95	23.99	-48.2	-49.3	15.0	0.00e+00	0	28	0	602931200	63	3899
2026-01-05 00:33:03.05	27.05	24.61	-48.4	-49.5	14.8	0.00e+00	0	28	0	615514112	62	4228
2026-01-05 00:33:07.05	27.15	25.24	-48.6	-49.8	14.8	0.00e+00	0	28	0	628097024	62	4358
2026-01-05 00:33:11.05	27.25	25.88	-49.0	-50.2	14.7	0.00e+00	0	28	0	640679936	63	4323
2026-01-05 00:33:15.06	27.36	26.54	-49.2	-50.5	14.7	0.00e+00	0	28	0	653262848	63	4442
2026-01-05 00:33:19.03	27.47	27.21	-49.3	-50.6	14.6	0.00e+00	0	28	0	664797184	63	4495
2026-01-05 00:33:23.05	27.59	27.91	-49.5	-50.7	14.6	0.00e+00	0	28	0	677380096	64	4311
2026-01-05 00:33:27.04	27.71	28.62	-49.6	-50.9	14.6	0.00e+00	0	28	0	689963008	64	4415
2026-01-05 00:33:31.02	27.84	29.34	-49.6	-50.8	14.6	0.00e+00	0	28	0	702545920	64	4370
2026-01-05 00:33:35.01	27.97	30.09	-49.5	-50.7	14.7	0.00e+00	0	28	0	715128832	64	4329
2026-01-05 00:33:38.98	28.10	30.85	-49.1	-50.3	14.8	0.00e+00	0	28	0	727711744	64	4133
2026-01-05 00:33:42.98	28.25	31.64	-48.8	-50.0	14.9	0.00e+00	0	28	0	740294656	64	3980
2026-01-05 00:33:46.97	28.40	32.45	-48.7	-49.9	14.8	0.00e+00	0	28	0	752877568	63	4148
2026-01-05 00:33:50.97	28.55	33.29	-49.1	-50.3	14.7	0.00e+00	0	28	0	765460480	63	4367
2026-01-05 00:33:54.97	28.71	34.14	-49.7	-51.0	14.6	0.00e+00	0	28	0	776994816	64	4451
2026-01-05 00:33:58.93	28.88	35.01	-50.5	-51.8	14.4	0.00e+00	0	28	0	789577728	66	4390
2026-01-05 00:34:02.92	29.06	35.92	-50.9	-52.2	14.4	0.00e+00	0	28	0	802160640	67	4326
2026-01-05 00:34:06.91	29.25	36.85	-50.9	-52.3	14.4	0.00e+00	0	28	0	814743552	67	4364
2026-01-05 00:34:10.92	29.45	37.81	-50.7	-52.4	14.4	0.00e+00	0	28	0	827326464	67	4424
2026-01-05 00:34:14.91	29.66	38.79	-50.7	-52.4	14.4	0.00e+00	0	28	0	839909376	67	4426
2026-01-05 00:34:18.92	29.88	39.81	-50.8	-52.2	14.4	0.00e+00	0	28	0	852492288	67	4311
2026-01-05 00:34:22.92	30.12	40.86	-51.7	-53.1	14.2	0.00e+00	0	28	0	864026624	68	4542
2026-01-05 00:34:26.91	30.37	41.93	-52.7	-54.4	13.8	0.00e+00	0	28	0	876609536	70	4691
2026-01-05 00:34:30.90	30.64	43.04	-52.8	-54.4	13.8	0.00e+00	0	28	0	889192448	70	4694
2026-01-05 00:34:34.89	30.92	44.18	-52.9	-54.6	13.7	0.00e+00	0	28	0	901775360	70	4777
2026-01-05 00:34:38.88	31.23	45.35	-52.9	-54.7	13.8	0.00e+00	0	28	0	914358272	71	4546
2026-01-05 00:34:42.87	31.56	46.55	-52.5	-54.2	14.0	0.00e+00	0	28	0	926941184	71	4303
2026-01-05 00:34:46.88	31.91	47.80	-51.9	-53.4	14.3	0.00e+00	0	28	0	939524096	70	4169
2026-01-05 00:34:50.86	32.29	49.08	-51.4	-52.9	14.4	0.00e+00	0	28	0	952107008	69	4155
2026-01-05 00:34:54.86	32.71	50.39	-50.9	-52.2	14.6	0.00e+00	0	28	0	964689920	68	4065
2026-01-05 00:34:58.85	33.16	51.75	-50.7	-52.0	14.5	0.00e+00	0	28	0	977272832	67	4228
2026-01-05 00:35:02.84	33.65	53.13	-50.9	-52.3	14.4	0.00e+00	0	28	0	988807168	67	4342
2026-01-05 00:35:06.82	34.19	54.56	-50.2	-51.5	14.6	0.00e+00	0	28	0	1001390080	66	4225
2026-01-05 00:35:10.81	34.79	56.02	-49.5	-50.7	14.8	0.00e+00	0	28	0	1013972992	65	4054
2026-01-05 00:35:14.81	35.45	57.52	-49.9	-51.1	14.6	0.00e+00	0	28	0	1026555904	65	4275
2026-01-05 00:35:18.80	36.19	59.06	-49.2	-50.4	14.9	0.00e+00	0	28	0	1039138816	65	3921
2026-01-05 00:35:22.79	37.02	60.63	-48.4	-49.5	15.0	0.00e+00	0	28	0	1051721728	63	3994
2026-01-05 00:35:26.79	37.96	62.24	-48.4	-49.5	15.0	0.00e+00	0	28	0	1064304640	63	4004
2026-01-05 00:35:30.79	39.03	63.89	-47.9	-49.0	15.0	0.00e+00	0	28	0	1076887552	62	3965
2026-01-05 00:35:34.79	40.26	65.56	-47.7	-48.8	15.0	0.00e+00	0	28	0	1089470464	61	4120
2026-01-05 00:35:38.78	41.70	67.25	-48.3	-49.4	14.8	0.00e+00	0	28	0	1101004800	61	4409
2026-01-05 00:35:42.78	43.38	68.96	-47.9	-49.0	14.9	0.00e+00	0	28	0	1113587712	61	4201
2026-01-05 00:35:46.77	45.39	70.68	-47.7	-48.8	15.0	0.00e+00	0	28	0	1126170624	61	4104
2026-01-05 00:35:50.77	47.82	72.41	-48.2	-49.3	14.9	0.00e+00	0	28	0	1138753536	61	4370
2026-01-05 00:35:54.77	50.81	74.14	-47.4	-48.4	15.1	0.00e+00	0	28	0	1151336448	61	3953
2026-01-05 00:35:58.74	54.52	75.82	-47.7	-48.7	14.9	0.00e+00	0	28	0	1163919360	61	4090
2026-01-05 00:36:02.73	59.27	77.45	-48.4	-49.6	14.9	0.00e+00	0	28	0	1176502272	62	4255
2026-01-05 00:36:06.72	65.43	79.00	-47.4	-48.4	15.1	0.00e+00	0	28	0	1189085184	61	3938
2026-01-05 00:36:10.72	73.56	80.39	-48.2	-49.3	14.9	0.00e+00	0	28	0	1201668096	61	4365
2026-01-05 00:36:14.73	84.23	81.55	-48.6	-49.7	14.8	0.00e+00	0	28	0	1214251008	62	4311
2026-01-05 00:36:18.73	97.65	82.34	-47.5	-48.5	15.1	0.00e+00	0	28	0	1226833920	61	3995
2026-01-05 00:36:22.73	113.11	82.63	-48.7	-49.8	14.8	0.00e+00	0	28	0	1238368256	62	4364
2026-01-05 00:36:26.74	128.71	82.38	-48.7	-49.8	14.9	0.00e+00	0	28	0	1250951168	63	4131
2026-01-05 00:36:30.72	142.28	81.63	-48.1	-49.2	15.0	0.00e+00	0	28	0	1263534080	62	4069
2026-01-05 00:36:34.69	153.09	80.51	-47.9	-48.9	15.1	0.00e+00	0	28	0	1276116992	62	3945
2026-01-05 00:36:38.68	161.41	79.14	-48.3	-49.4	14.9	0.00e+00	0	28	0	1288699904	62	4162
2026-01-05 00:36:42.66	167.73	77.61	-48.6	-49.7	14.8	0.00e+00	0	28	0	1301282816	62	4326
2026-01-05 00:36:46.66	172.61	75.97	-48.1	-49.2	15.0	0.00e+00	0	28	0	1313865728	62	4086
2026-01-05 00:36:50.64	176.41	74.29	-49.1	-50.2	14.8	0.00e+00	0	28	0	1326448640	63	4325
2026-01-05 00:36:54.62	179.45	72.58	-48.2	-49.3	15.0	0.00e+00	0	28	0	1339031552	62	4115
2026-01-05 00:36:58.63	181.94	70.84	-48.2	-49.3	14.9	0.00e+00	0	28	0	1350565888	62	4129
2026-01-05 00:37:02.62	183.98	69.11	-49.0	-50.2	14.8	0.00e+00	0	28	0	1363148800	63	4316
2026-01-05 00:37:06.62	185.69	67.39	-48.2	-49.3	15.1	0.00e+00	0	28	0	1375731712	63	3886
2026-01-05 00:37:10.63	187.15	65.69	-49.0	-50.1	14.7	0.00e+00	0	28	0	1388314624	63	4269
2026-01-05 00:37:14.63	188.41	64.01	-47.7	-48.7	15.0	0.00e+00	0	28	0	1400897536	61	4072
2026-01-05 00:37:18.62	189.49	62.37	-49.8	-51.1	14.4	0.00e+00	0	28	0	1413480448	64	4516
2026-01-05 00:37:22.62	190.44	60.75	-48.8	-49.9	14.8	0.00e+00	0	28	0	1426063360	64	3926
2026-01-05 00:37:26.62	191.28	59.17	-48.8	-49.9	14.9	0.00e+00	0	28	0	1438646272	63	4189
2026-01-05 00:37:30.62	192.03	57.62	-49.3	-50.5	14.5	0.00e+00	0	28	0	1451229184	63	4456
2026-01-05 00:37:34.61	192.70	56.12	-49.2	-50.3	14.6	0.00e+00	0	28	0	1463812096	63	4386
2026-01-05 00:37:38.59	193.30	54.65	-50.9	-52.2	14.4	0.00e+00	0	28	0	1476395008	66	4595
2026-01-05 00:37:42.57	193.84	53.22	-50.3	-51.6	14.7	0.00e+00	0	28	0	1487929344	67	4026
2026-01-05 00:37:46.56	194.34	51.83	-51.3	-52.7	14.3	0.00e+00	0	28	0	1500512256	67	4580
2026-01-05 00:37:50.54	194.79	50.47	-52.2	-53.7	14.2	0.00e+00	0	28	0	1513095168	71	4079
2026-01-05 00:37:54.53	195.20	49.15	-52.3	-53.9	13.9	0.00e+00	0	28	0	1525678080	69	4681
2026-01-05 00:37:58.52	195.59	47.86	-51.7	-53.1	14.2	0.00e+00	0	28	0	1538260992	69	4286
2026-01-05 00:38:02.53	195.95	46.61	-53.0	-54.7	13.8	0.00e+00	0	28	0	1550843904	71	4597
2026-01-05 00:38:06.53	196.28	45.39	-52.6	-54.1	14.0	0.00e+00	0	28	0	1563426816	71	4278
2026-01-05 00:38:10.51	196.58	44.22	-52.7	-54.3	13.8	0.00e+00	0	28	0	1576009728	70	4649
2026-01-05 00:38:14.51	196.87	43.07	-52.9	-54.7	13.7	0.00e+00	0	28	0	1588592640	71	4547
2026-01-05 00:38:18.51	197.14	41.96	-51.5	-52.9	14.3	0.00e+00	0	28	0	1601175552	69	4188
2026-01-05 00:38:22.50	197.39	40.88	-52.3	-53.8	13.9	0.00e+00	0	28	0	1613758464	69	4649
2026-01-05 00:38:26.50	197.62	39.83	-51.9	-53.4	14.3	0.00e+00	0	28	0	1625292800	70	4154
2026-01-05 00:38:30.49	197.85	38.81	-52.1	-53.6	14.2	0.00e+00	0	28	0	1637875712	70	4263
2026-01-05 00:38:34.48	198.06	37.82	-51.0	-52.4	14.5	0.00e+00	0	28	0	1650458624	68	4160
2026-01-05 00:38:38.46	198.26	36.86	-50.2	-51.5	14.7	0.00e+00	0	28	0	1663041536	67	3977
2026-01-05 00:38:42.45	198.44	35.93	-50.4	-51.7	14.5	0.00e+00	0	28	0	1675624448	66	4292
2026-01-05 00:38:46.44	198.62	35.02	-50.5	-51.8	14.5	0.00e+00	0	28	0	1688207360	66	4366
2026-01-05 00:38:50.45	198.79	34.13	-50.9	-52.2	14.4	0.00e+00	0	28	0	1700790272	66	4590
2026-01-05 00:38:54.42	198.96	33.27	-50.6	-51.9	14.4	0.00e+00	0	28	0	1713373184	66	4427
2026-01-05 00:38:58.43	199.11	32.44	-49.8	-51.1	14.7	0.00e+00	0	28	0	1724907520	66	4020
2026-01-05 00:39:02.42	199.26	31.62	-49.5	-50.7	14.8	0.00e+00	0	28	0	1737490432	65	4074
2026-01-05 00:39:06.42	199.40	30.83	-49.9	-51.2	14.6	0.00e+00	0	28	0	1750073344	65	4296
2026-01-05 00:39:10.42	199.54	30.06	-50.1	-51.5	14.5	0.00e+00	0	28	0	1762656256	65	4442
2026-01-05 00:39:14.41	199.67	29.31	-50.0	-51.3	14.6	0.00e+00	0	28	0	1775239168	65	4349
2026-01-05 00:39:18.41	199.79	28.57	-50.1	-51.4	14.5	0.00e+00	0	28	0	1787822080	65	4407
2026-01-05 00:39:22.42	199.91	27.86	-49.8	-51.1	14.6	0.00e+00	0	28	0	1800404992	65	4268
2026-01-05 00:39:26.41	200.03	27.16	-49.3	-50.5	14.9	0.00e+00	0	28	0	1812987904	65	3962
2026-01-05 00:39:30.41	200.14	26.48	-48.8	-50.0	14.9	0.00e+00	0	28	0	1825570816	64	3976
2026-01-05 00:39:34.39	200.25	25.82	-48.6	-49.7	14.9	0.00e+00	0	28	0	1838153728	63	4094
2026-01-05 00:39:38.38	200.35	25.18	-48.7	-49.9	14.8	0.00e+00	0	28	0	1850736640	63	4152
2026-01-05 00:39:42.37	200.45	24.55	-49.0	-50.2	14.7	0.00e+00	0	28	0	1862270976	63	4334
2026-01-05 00:39:46.36	200.55	23.93	-48.9	-50.1	14.8	0.00e+00	0	28	0	1874853888	63	4269
2026-01-05 00:39:50.34	200.64	23.33	-48.9	-50.1	14.8	0.00e+00	0	28	0	1887436800	63	4257
2026-01-05 00:39:54.33	200.73	22.75	-49.0	-50.2	14.7	0.00e+00	0	28	0	1900019712	63	4303
2026-01-05 00:39:58.34	200.82	22.17	-49.2	-50.4	14.6	0.00e+00	0	28	0	1912602624	63	4433
2026-01-05 00:40:02.33	200.91	21.61	-59.5	-70.8	3.9	1.47e+00	0	28	104	1919942656	84	13727
2026-01-05 00:40:06.35	200.99	21.05	-59.7	-73.3	3.8	1.49e+00	0	28	104	1919942656	84	18324
2026-01-05 00:40:10.34	201.07	20.52	-59.6	-71.4	3.8	1.48e+00	0	28	104	1919942656	84	14796
2026-01-05 00:40:14.34	201.15	19.99	-59.6	-71.8	3.8	1.49e+00	0	28	104	1919942656	84	15579
2026-01-05 00:40:18.34	201.22	19.47	-59.5	-71.7	3.9	1.49e+00	0	28	104	1919942656	84	15279
2026-01-05 00:40:22.33	201.30	18.97	-59.6	-73.2	3.8	1.49e+00	0	28	104	1919942656	84	18183
2026-01-05 00:40:26.33	201.37	18.47	-59.4	-71.3	3.9	1.48e+00	0	28	104	1919942656	84	14685
2026-01-05 00:40:30.33	201.44	17.98	-59.6	-73.3	3.8	1.49e+00	0	28	104	1919942656	84	18332
2026-01-05 00:40:34.34	201.51	17.51	-59.4	-71.5	3.9	1.49e+00	0	28	104	1919942656	84	14971
2026-01-05 00:40:38.33	201.58	17.04	-59.5	-73.2	3.8	1.49e+00	0	28	104	1919942656	84	18100
2026-01-05 00:40:42.32	201.64	16.58	-59.4	-71.5	3.9	1.49e+00	0	28	104	1919942656	84	14898
2026-01-05 00:40:46.32	201.71	16.13	-59.5	-73.2	3.8	1.49e+00	0	28	104	1919942656	84	18151
2026-01-05 00:40:50.31	201.77	15.69	-59.3	-71.6	3.9	1.49e+00	0	28	104	1919942656	84	15190
2026-01-05 00:40:54.30	201.83	15.25	-59.4	-73.1	3.8	1.49e+00	0	28	104	1919942656	84	18076
2026-01-05 00:40:58.30	201.89	14.83	-59.3	-71.4	3.8	1.48e+00	0	28	104	1919942656	84	14791
2026-01-05 00:41:02.30	201.95	14.41	-59.4	-73.1	3.8	1.49e+00	0	28	104	1919942656	84	18070
2026-01-05 00:41:06.30	202.01	13.99	-59.2	-71.8	3.9	1.49e+00	0	28	104	1919942656	84	15527
2026-01-05 00:41:10.31	202.06	13.59	-59.2	-72.0	3.8	1.49e+00	0	28	104	1919942656	84	15888
2026-01-05 00:41:14.30	202.12	13.19	-59.2	-71.7	3.8	1.49e+00	0	28	104	1919942656	84	15350
2026-01-05 00:41:18.29	202.17	12.80	-59.2	-72.9	3.8	1.49e+00	0	29	104	1919942656	84	17566
2026-01-05 00:41:22.28	202.22	12.41	-59.1	-71.1	3.9	1.49e+00	0	28	104	1919942656	84	14226
2026-01-05 00:41:26.29	202.28	12.03	-59.1	-72.8	3.8	1.49e+00	0	28	104	1919942656	84	17334
2026-01-05 00:41:30.28	202.33	11.66	-59.1	-71.9	3.8	1.49e+00	0	28	104	1919942656	84	15718
2026-01-05 00:41:34.27	202.38	11.29	-59.1	-71.8	3.8	1.49e+00	0	28	104	1919942656	84	15420
2026-01-05 00:41:38.27	202.43	10.92	-59.0	-71.3	3.9	1.49e+00	0	28	104	1919942656	84	14679
2026-01-05 00:41:42.27	202.47	10.57	-59.0	-72.7	3.8	1.49e+00	0	28	104	1919942656	84	17111
2026-01-05 00:41:46.25	202.52	10.21	-59.0	-72.1	3.8	1.49e+00	0	28	104	1919942656	84	15971
2026-01-05 00:41:50.24	202.57	9.87	-58.9	-71.9	3.8	1.49e+00	0	28	104	1919942656	84	15682
2026-01-05 00:41:54.23	202.61	9.52	-58.9	-71.5	3.9	1.49e+00	0	28	104	1919942656	84	14936
2026-01-05 00:41:58.22	202.66	9.19	-58.9	-72.5	3.8	1.49e+00	0	28	104	1919942656	84	16736
2026-01-05 00:42:02.22	202.70	8.85	-58.8	-72.1	3.8	1.49e+00	0	29	104	1919942656	84	15992
2026-01-05 00:42:06.23	202.75	8.52	-58.8	-72.3	3.8	1.49e+00	0	28	104	1919942656	84	16359
2026-01-05 00:42:10.24	202.79	8.19	-58.5	-71.5	3.8	1.49e+00	0	28	104	1919942656	83	15786
2026-01-05 00:42:14.25	202.83	7.87	-58.4	-71.3	3.8	1.49e+00	0	28	104	1919942656	83	15556
2026-01-05 00:42:18.23	202.87	7.56	-58.4	-72.1	3.8	1.49e+00	0	28	104	1919942656	83	16920
2026-01-05 00:42:22.22	202.91	7.24	-58.3	-72.0	3.8	1.49e+00	0	28	104	1919942656	83	16709
2026-01-05 00:42:26.23	202.96	6.93	-58.2	-71.9	3.8	1.49e+00	0	28	104	1919942656	82	17536
2026-01-05 00:42:30.22	203.00	6.63	-58.1	-71.8	3.8	1.49e+00	0	28	104	1919942656	82	17390
2026-01-05 00:42:34.21	203.04	6.33	-58.0	-71.7	3.8	1.49e+00	0	28	104	1919942656	82	17258
2026-01-05 00:42:38.20	203.07	6.03	-57.9	-71.6	3.8	1.49e+00	0	28	104	1919942656	82	16943
2026-01-05 00:42:42.19	203.11	5.73	-57.8	-71.5	3.8	1.49e+00	0	28	104	1919942656	82	16719
2026-01-05 00:42:46.17	203.15	5.44	-57.6	-71.3	3.8	1.49e+00	0	28	104	1919942656	81	17359
2026-01-05 00:42:50.16	203.19	5.15	-57.3	-71.2	3.8	1.49e+00	0	28	104	1919942656	81	17198
2026-01-05 00:42:54.15	203.22	4.87	-59.0	-72.7	3.9	1.49e+00	0	28	104	1919942656	83	18289
2026-01-05 00:42:58.15	203.26	4.59	-60.0	-73.8	3.8	1.49e+00	0	28	104	1919942656	85	18513
2026-01-05 00:43:02.14	203.30	4.31	-60.5	-74.3	3.8	1.49e+00	0	28	104	1919942656	86	18372
2026-01-05 00:43:06.13	203.33	4.03	-60.5	-74.3	3.8	1.49e+00	0	28	104	1919942656	86	18458
2026-01-05 00:43:10.13	203.37	3.76	-60.6	-74.4	3.8	1.49e+00	0	28	104	1919942656	86	18654
2026-01-05 00:43:14.13	203.40	3.48	-60.6	-74.4	3.8	1.49e+00	0	28	104	1919942656	86	18689
2026-01-05 00:43:18.13	203.44	3.21	-60.6	-74.5	3.8	1.49e+00	0	29	104	1919942656	86	18813
2026-01-05 00:43:22.13	203.47	2.95	-60.8	-74.6	3.8	1.49e+00	0	28	104	1919942656	86	19134
2026-01-05 00:43:26.14	203.51	2.68	-60.9	-74.8	3.8	1.49e+00	0	28	104	1919942656	87	18421
2026-01-05 00:43:30.14	203.54	2.42	-60.9	-74.7	3.8	1.49e+00	0	29	104	1919942656	87	18196
2026-01-05 00:43:34.14	203.57	2.16	-60.9	-74.8	3.8	1.49e+00	0	29	104	1919942656	87	18370

#Closed at: 2026-01-05 00:43:37
#Recorded file [1919 MB]: D:/lorett/data/31004_260105_032907.dat