passes_logs/2026/01/05/R3.2S_Murmansk/R3.2S_Murmansk__20260105_133826_FENGYUN_3D_rec.log

#Pass ID: 20260105_133826_FENGYUN 3D
#Satellite: FENGYUN 3D
#Configuration: FENGYUN 3D
#almurnet v.1.7.20251203
#Start time: 2026-01-05 13:38:28

#Version: 2.2.20231116
#Station: R3.2S_Murmansk
#Location: 33.079688 lon 68.888172 lat
#TLE: 1 43010U 17072A   26004.50247883 -.00000063  00000+0 -78815-5 0  9998
#TLE: 2 43010  98.9915 336.1565 0001968 126.3752 233.7605 14.19691805421760

#Time	Az	El	Level	Level2	SNR	BER	BlckErr	Temp	State	Recorded	gain1	gain2
2026-01-05 13:38:28.49	204.27	2.10	-58.4	-71.3	3.8	8.45e-01	0	25	0	0	83	15410
2026-01-05 13:38:32.45	204.53	2.33	-58.3	-71.2	3.8	8.46e-01	0	25	104	0	81	17128
2026-01-05 13:38:36.43	204.78	2.56	-58.3	-71.1	3.8	8.45e-01	0	25	104	0	81	16959
2026-01-05 13:38:40.40	205.04	2.79	-58.4	-71.3	3.8	8.45e-01	0	25	104	0	81	17444
2026-01-05 13:38:44.38	205.31	3.02	-58.4	-71.3	3.8	8.46e-01	0	25	104	0	81	17329
2026-01-05 13:38:48.34	205.57	3.26	-58.3	-70.7	3.8	8.45e-01	0	26	104	0	81	16312
2026-01-05 13:38:52.30	205.84	3.49	-58.3	-70.8	3.8	8.46e-01	0	26	104	0	81	16444
2026-01-05 13:38:56.27	206.12	3.73	-58.3	-70.2	3.8	8.45e-01	0	26	104	0	81	15380
2026-01-05 13:39:00.24	206.40	3.97	-58.3	-70.9	3.8	8.47e-01	0	26	104	0	81	16613
2026-01-05 13:39:04.20	206.68	4.21	-58.3	-69.9	3.8	8.45e-01	0	26	104	0	81	14867
2026-01-05 13:39:08.18	206.97	4.45	-58.0	-67.3	4.3	8.31e-01	0	26	0	0	81	10921
2026-01-05 13:39:12.15	207.27	4.69	-58.2	-69.2	3.8	8.44e-01	0	26	104	0	81	13590
2026-01-05 13:39:16.10	207.56	4.94	-57.6	-64.7	5.5	6.60e-01	0	26	0	0	81	8162
2026-01-05 13:39:20.06	207.87	5.18	-58.1	-68.5	3.9	8.45e-01	0	26	104	16777216	81	12568
2026-01-05 13:39:24.06	208.18	5.43	-50.8	-52.4	14.0	0.00e+00	0	26	0	34603008	68	4165
2026-01-05 13:39:28.04	208.49	5.68	-49.6	-51.0	14.3	0.00e+00	0	26	0	56623104	65	4228
2026-01-05 13:39:32.02	208.81	5.94	-49.4	-50.8	14.4	0.00e+00	0	26	0	79691776	65	4120
2026-01-05 13:39:35.99	209.13	6.19	-49.6	-51.0	14.3	0.00e+00	0	27	0	101711872	65	4232
2026-01-05 13:39:39.97	209.46	6.45	-49.6	-51.0	14.3	0.00e+00	0	26	0	123731968	65	4224
2026-01-05 13:39:43.98	209.80	6.71	-49.3	-50.7	14.5	0.00e+00	0	26	0	146800640	65	4078
2026-01-05 13:39:47.98	210.14	6.97	-48.9	-50.2	14.6	0.00e+00	0	26	0	168820736	64	4086
2026-01-05 13:39:51.96	210.49	7.23	-48.8	-50.0	14.7	0.00e+00	0	27	0	191889408	64	3999
2026-01-05 13:39:55.95	210.84	7.49	-48.9	-50.1	14.6	0.00e+00	0	26	0	213909504	64	4051
2026-01-05 13:39:59.93	211.20	7.76	-48.8	-50.1	14.7	0.00e+00	0	27	0	235929600	64	4006
2026-01-05 13:40:03.90	211.56	8.02	-48.8	-50.1	14.7	0.00e+00	0	27	0	258998272	64	4006
2026-01-05 13:40:07.87	211.93	8.29	-48.8	-50.1	14.7	0.00e+00	0	27	0	281018368	64	4016
2026-01-05 13:40:11.83	212.31	8.56	-48.8	-50.1	14.7	0.00e+00	0	27	0	303038464	64	4035
2026-01-05 13:40:15.77	212.69	8.83	-48.7	-50.0	14.7	0.00e+00	0	27	0	325058560	64	3987
2026-01-05 13:40:19.74	213.08	9.10	-48.5	-49.8	14.7	0.00e+00	0	27	0	348127232	63	4123
2026-01-05 13:40:23.71	213.48	9.38	-48.5	-49.7	14.7	0.00e+00	0	27	0	370147328	63	4098
2026-01-05 13:40:27.70	213.89	9.66	-48.5	-49.7	14.8	0.00e+00	0	27	0	393216000	63	4075
2026-01-05 13:40:31.70	214.30	9.94	-48.4	-49.6	14.8	0.00e+00	0	27	0	415236096	63	4042
2026-01-05 13:40:35.68	214.72	10.22	-48.2	-49.4	14.9	0.00e+00	0	27	0	437256192	63	3934
2026-01-05 13:40:39.64	215.15	10.50	-48.1	-49.3	14.8	0.00e+00	0	27	0	459276288	62	4141
2026-01-05 13:40:43.57	215.58	10.78	-48.1	-49.3	14.8	0.00e+00	0	27	0	482344960	62	4103
2026-01-05 13:40:47.54	216.03	11.07	-47.9	-49.1	14.9	0.00e+00	0	27	0	504365056	62	4038
2026-01-05 13:40:51.52	216.48	11.36	-47.9	-49.0	14.9	0.00e+00	0	27	0	526385152	62	4002
2026-01-05 13:40:55.52	216.95	11.65	-47.9	-49.1	14.9	0.00e+00	0	27	0	549453824	62	4027
2026-01-05 13:40:59.50	217.42	11.95	-48.0	-49.2	14.9	0.00e+00	0	27	0	571473920	62	4072
2026-01-05 13:41:03.49	217.90	12.24	-47.9	-49.1	14.9	0.00e+00	0	27	0	593494016	62	4006
2026-01-05 13:41:07.46	218.39	12.54	-47.9	-49.0	14.9	0.00e+00	0	27	0	616562688	62	3994
2026-01-05 13:41:11.42	218.89	12.83	-47.9	-49.1	14.9	0.00e+00	0	27	0	638582784	62	4043
2026-01-05 13:41:15.38	219.39	13.13	-47.5	-48.6	15.0	0.00e+00	0	27	0	660602880	61	4035
2026-01-05 13:41:19.34	219.91	13.43	-47.1	-48.3	14.9	0.00e+00	0	27	0	683671552	60	4099
2026-01-05 13:41:23.30	220.44	13.74	-47.4	-48.6	14.8	0.00e+00	0	27	0	705691648	60	4276
2026-01-05 13:41:27.28	220.98	14.04	-47.3	-48.4	14.9	0.00e+00	0	27	0	727711744	60	4173
2026-01-05 13:41:31.25	221.53	14.35	-47.2	-48.4	14.9	0.00e+00	0	27	0	750780416	60	4154
2026-01-05 13:41:35.21	222.09	14.65	-47.2	-48.3	14.9	0.00e+00	0	27	0	772800512	60	4127
2026-01-05 13:41:39.19	222.66	14.96	-46.8	-48.0	15.1	0.00e+00	0	27	0	794820608	60	3963
2026-01-05 13:41:43.17	223.25	15.27	-46.9	-48.0	15.1	0.00e+00	0	27	0	816840704	60	3971
2026-01-05 13:41:47.12	223.84	15.58	-46.9	-48.0	15.1	0.00e+00	0	27	0	839909376	60	3989
2026-01-05 13:41:51.09	224.45	15.89	-47.0	-48.1	14.9	0.00e+00	0	27	0	861929472	59	4290
2026-01-05 13:41:55.03	225.06	16.20	-47.0	-48.2	14.9	0.00e+00	0	27	0	883949568	59	4299
2026-01-05 13:41:58.98	225.69	16.51	-47.0	-48.2	14.9	0.00e+00	0	27	0	905969664	59	4298
2026-01-05 13:42:02.95	226.34	16.83	-46.9	-48.1	14.9	0.00e+00	0	27	0	929038336	59	4255
2026-01-05 13:42:06.92	227.00	17.14	-47.0	-48.2	14.9	0.00e+00	0	27	0	951058432	59	4304
2026-01-05 13:42:10.88	227.67	17.46	-46.8	-47.9	15.0	0.00e+00	0	27	0	973078528	59	4187
2026-01-05 13:42:14.84	228.35	17.77	-46.8	-48.0	15.0	0.00e+00	0	27	0	995098624	59	4198
2026-01-05 13:42:18.80	229.05	18.09	-46.7	-47.8	15.0	0.00e+00	0	27	0	1018167296	59	4119
2026-01-05 13:42:22.76	229.76	18.40	-46.5	-47.6	15.1	0.00e+00	0	27	0	1040187392	59	4022
2026-01-05 13:42:26.71	230.48	18.71	-46.5	-47.6	15.1	0.00e+00	0	27	0	1062207488	59	4035
2026-01-05 13:42:30.68	231.23	19.03	-46.5	-47.6	15.1	0.00e+00	0	27	0	1084227584	59	4032
2026-01-05 13:42:34.67	231.99	19.34	-46.4	-47.5	15.1	0.00e+00	0	27	0	1107296256	59	3970
2026-01-05 13:42:38.63	232.76	19.65	-46.3	-47.4	15.2	0.00e+00	0	27	0	1129316352	59	3935
2026-01-05 13:42:42.60	233.55	19.97	-46.3	-47.4	15.2	0.00e+00	0	27	0	1151336448	59	3934
2026-01-05 13:42:46.55	234.35	20.27	-46.3	-47.4	15.2	0.00e+00	0	27	0	1173356544	59	3953
2026-01-05 13:42:50.52	235.17	20.58	-46.1	-47.2	15.1	0.00e+00	0	27	0	1196425216	58	4086
2026-01-05 13:42:54.50	236.01	20.89	-46.1	-47.2	15.1	0.00e+00	0	27	0	1218445312	58	4086
2026-01-05 13:42:58.45	236.86	21.19	-46.3	-47.4	15.1	0.00e+00	0	27	0	1240465408	58	4161
2026-01-05 13:43:02.43	237.73	21.49	-45.7	-46.8	15.3	0.00e+00	0	27	0	1262485504	58	3875
2026-01-05 13:43:06.40	238.61	21.79	-45.9	-46.9	15.2	0.00e+00	0	27	0	1285554176	58	3946
2026-01-05 13:43:10.36	239.51	22.08	-45.8	-46.9	15.2	0.00e+00	0	27	0	1307574272	58	3922
2026-01-05 13:43:14.34	240.44	22.37	-45.9	-47.0	15.2	0.00e+00	0	27	0	1329594368	58	3969
2026-01-05 13:43:18.30	241.37	22.66	-46.1	-47.2	15.1	0.00e+00	0	27	0	1352663040	58	4056
2026-01-05 13:43:22.26	242.32	22.94	-45.6	-46.6	15.2	0.00e+00	0	27	0	1374683136	57	4040
2026-01-05 13:43:26.23	243.29	23.21	-45.9	-47.0	15.1	0.00e+00	0	27	0	1396703232	57	4227
2026-01-05 13:43:30.21	244.28	23.48	-45.5	-46.5	15.2	0.00e+00	0	27	0	1419771904	57	3983
2026-01-05 13:43:34.17	245.27	23.75	-45.5	-46.5	15.2	0.00e+00	0	27	0	1441792000	57	4001
2026-01-05 13:43:38.13	246.29	24.00	-45.2	-46.3	15.3	0.00e+00	0	27	0	1463812096	57	3877
2026-01-05 13:43:42.11	247.33	24.25	-45.3	-46.3	15.1	0.00e+00	0	27	0	1485832192	56	4130
2026-01-05 13:43:46.09	248.38	24.50	-45.4	-46.4	15.1	0.00e+00	0	27	0	1508900864	56	4172
2026-01-05 13:43:50.06	249.45	24.73	-45.2	-46.3	15.2	0.00e+00	0	27	0	1530920960	56	4102
2026-01-05 13:43:54.02	250.53	24.96	-45.2	-46.2	15.2	0.00e+00	0	27	0	1552941056	56	4086
2026-01-05 13:43:57.99	251.62	25.18	-45.2	-46.3	15.2	0.00e+00	0	27	0	1574961152	56	4114
2026-01-05 13:44:01.94	252.73	25.38	-45.1	-46.2	15.2	0.00e+00	0	27	0	1598029824	56	4061
2026-01-05 13:44:05.92	253.86	25.58	-44.9	-45.9	15.3	0.00e+00	0	27	0	1620049920	56	3951
2026-01-05 13:44:09.91	255.00	25.77	-45.1	-46.2	15.2	0.00e+00	0	27	0	1643118592	56	4053
2026-01-05 13:44:13.90	256.16	25.95	-45.2	-46.2	15.2	0.00e+00	0	27	0	1665138688	56	4077
2026-01-05 13:44:17.87	257.32	26.12	-45.2	-46.2	15.2	0.00e+00	0	27	0	1687158784	56	4071
2026-01-05 13:44:21.84	258.50	26.28	-45.1	-46.2	15.2	0.00e+00	0	27	0	1709178880	56	4077
2026-01-05 13:44:25.80	259.68	26.42	-45.1	-46.2	15.2	0.00e+00	0	27	0	1732247552	56	4064
2026-01-05 13:44:29.76	260.87	26.55	-45.2	-46.3	15.2	0.00e+00	0	27	0	1754267648	56	4111
2026-01-05 13:44:33.73	262.08	26.67	-45.1	-46.2	15.2	0.00e+00	0	27	0	1776287744	56	4066
2026-01-05 13:44:37.69	263.29	26.77	-44.9	-46.0	15.2	0.00e+00	0	27	0	1799356416	56	3966
2026-01-05 13:44:41.67	264.51	26.87	-44.8	-45.8	15.3	0.00e+00	0	27	0	1821376512	56	3873
2026-01-05 13:44:45.62	265.74	26.95	-45.2	-46.2	15.2	0.00e+00	0	27	0	1843396608	56	4088
2026-01-05 13:44:49.60	266.97	27.01	-45.1	-46.2	15.2	0.00e+00	0	27	0	1866465280	56	4065
2026-01-05 13:44:53.55	268.20	27.06	-45.4	-46.5	15.1	0.00e+00	0	27	0	1888485376	56	4200
2026-01-05 13:44:57.52	269.44	27.10	-45.2	-46.3	15.2	0.00e+00	0	27	0	1910505472	56	4103
2026-01-05 13:45:01.47	270.68	27.13	-45.2	-46.3	15.2	0.00e+00	0	27	0	1932525568	56	4103
2026-01-05 13:45:05.42	271.92	27.13	-45.0	-46.0	15.2	0.00e+00	0	27	0	1954545664	56	3990
2026-01-05 13:45:09.40	273.16	27.13	-45.2	-46.3	15.2	0.00e+00	0	27	0	1977614336	56	4105
2026-01-05 13:45:13.37	274.41	27.11	-45.3	-46.3	15.1	0.00e+00	0	27	0	1999634432	56	4130
2026-01-05 13:45:17.32	275.64	27.08	-45.1	-46.2	15.2	0.00e+00	0	27	0	2021654528	56	4070
2026-01-05 13:45:21.26	276.87	27.03	-45.2	-46.2	15.2	0.00e+00	0	27	0	2043674624	56	4078
2026-01-05 13:45:25.21	278.10	26.97	-45.1	-46.1	15.2	0.00e+00	0	27	0	2066743296	56	4049
2026-01-05 13:45:29.18	279.33	26.90	-45.4	-46.5	15.1	0.00e+00	0	27	0	2088763392	56	4211
2026-01-05 13:45:33.14	280.55	26.81	-45.5	-46.6	15.1	0.00e+00	0	27	0	2110783488	56	4244
2026-01-05 13:45:37.09	281.76	26.71	-45.3	-46.4	15.1	0.00e+00	0	27	0	2132803584	56	4152
2026-01-05 13:45:41.07	282.97	26.59	-45.2	-46.2	15.2	0.00e+00	0	27	0	2155872256	56	4068
2026-01-05 13:45:45.05	284.17	26.47	-45.4	-46.4	15.1	0.00e+00	0	27	0	2177892352	56	4187
2026-01-05 13:45:49.01	285.35	26.33	-45.5	-46.6	15.1	0.00e+00	0	27	0	2199912448	56	4243
2026-01-05 13:45:52.98	286.53	26.18	-45.5	-46.5	15.1	0.00e+00	0	27	0	2221932544	56	4232
2026-01-05 13:45:56.94	287.69	26.01	-45.5	-46.6	15.1	0.00e+00	0	27	0	2245001216	56	4268
2026-01-05 13:46:00.89	288.84	25.84	-45.8	-46.9	15.0	0.00e+00	0	27	0	2267021312	56	4406
2026-01-05 13:46:04.85	289.98	25.66	-45.6	-46.7	15.1	0.00e+00	0	27	0	2289041408	56	4312
2026-01-05 13:46:08.83	291.11	25.46	-45.5	-46.6	15.1	0.00e+00	0	27	0	2311061504	56	4261
2026-01-05 13:46:12.81	292.23	25.26	-45.6	-46.7	15.1	0.00e+00	0	27	0	2334130176	56	4293
2026-01-05 13:46:16.78	293.33	25.04	-45.9	-47.0	15.1	0.00e+00	0	27	0	2356150272	57	4216
2026-01-05 13:46:20.74	294.41	24.82	-45.8	-46.8	15.1	0.00e+00	0	27	0	2378170368	57	4142
2026-01-05 13:46:24.67	295.47	24.59	-45.9	-47.0	15.1	0.00e+00	0	27	0	2400190464	57	4222
2026-01-05 13:46:28.63	296.52	24.35	-45.7	-46.8	15.1	0.00e+00	0	27	0	2423259136	57	4110
2026-01-05 13:46:32.58	297.55	24.11	-45.9	-46.9	15.1	0.00e+00	0	27	0	2445279232	57	4184
2026-01-05 13:46:36.53	298.57	23.86	-46.0	-47.1	15.1	0.00e+00	0	27	0	2467299328	57	4258
2026-01-05 13:46:40.48	299.57	23.60	-46.2	-47.3	15.0	0.00e+00	0	27	0	2489319424	57	4353
2026-01-05 13:46:44.45	300.56	23.33	-45.9	-47.0	15.1	0.00e+00	0	27	0	2512388096	57	4210
2026-01-05 13:46:48.42	301.53	23.06	-45.9	-47.0	15.1	0.00e+00	0	27	0	2534408192	57	4199
2026-01-05 13:46:52.39	302.49	22.78	-46.2	-47.3	15.0	0.00e+00	0	27	0	2556428288	57	4390
2026-01-05 13:46:56.36	303.42	22.50	-46.3	-47.4	15.0	0.00e+00	0	27	0	2578448384	57	4441
2026-01-05 13:47:00.32	304.35	22.21	-46.3	-47.4	15.0	0.00e+00	0	27	0	2601517056	57	4400
2026-01-05 13:47:04.27	305.25	21.92	-46.3	-47.4	15.0	0.00e+00	0	27	0	2623537152	57	4394
2026-01-05 13:47:08.25	306.14	21.63	-46.3	-47.4	15.1	0.00e+00	0	27	0	2645557248	58	4169
2026-01-05 13:47:12.23	307.01	21.33	-46.1	-47.2	15.1	0.00e+00	0	27	0	2668625920	58	4057
2026-01-05 13:47:16.21	307.87	21.03	-46.5	-47.6	15.0	0.00e+00	0	27	0	2690646016	58	4271
2026-01-05 13:47:20.17	308.71	20.73	-46.7	-47.8	15.0	0.00e+00	0	27	0	2712666112	58	4367
2026-01-05 13:47:24.12	309.53	20.42	-46.7	-47.8	14.9	0.00e+00	0	27	0	2734686208	58	4389
2026-01-05 13:47:28.07	310.34	20.12	-47.0	-48.2	14.9	0.00e+00	0	27	0	2757754880	59	4305
2026-01-05 13:47:32.01	311.12	19.81	-47.1	-48.2	14.9	0.00e+00	0	27	0	2779774976	59	4323
2026-01-05 13:47:35.97	311.90	19.50	-46.7	-47.8	15.1	0.00e+00	0	27	0	2801795072	59	4105
2026-01-05 13:47:39.93	312.66	19.19	-46.7	-47.9	15.0	0.00e+00	0	27	0	2823815168	59	4147
2026-01-05 13:47:43.90	313.41	18.88	-47.2	-48.3	14.9	0.00e+00	0	27	0	2846883840	59	4381
2026-01-05 13:47:47.88	314.14	18.57	-47.2	-48.3	14.9	0.00e+00	0	27	0	2868903936	59	4379
2026-01-05 13:47:51.85	314.86	18.25	-47.2	-48.4	14.9	0.00e+00	0	27	0	2890924032	59	4410
2026-01-05 13:47:55.84	315.57	17.94	-47.2	-48.4	14.9	0.00e+00	0	27	0	2913992704	59	4410
2026-01-05 13:47:59.83	316.26	17.62	-47.4	-48.5	14.8	0.00e+00	0	27	0	2936012800	59	4487
2026-01-05 13:48:03.82	316.94	17.31	-47.1	-48.2	15.0	0.00e+00	0	27	0	2958032896	60	4098
2026-01-05 13:48:07.79	317.60	16.99	-47.0	-48.1	15.0	0.00e+00	0	27	0	2981101568	60	4037
2026-01-05 13:48:11.77	318.25	16.68	-47.0	-48.1	15.0	0.00e+00	0	27	0	3003121664	60	4044
2026-01-05 13:48:15.75	318.89	16.37	-47.1	-48.2	15.0	0.00e+00	0	27	0	3025141760	60	4079
2026-01-05 13:48:19.70	319.51	16.06	-47.1	-48.2	15.0	0.00e+00	0	27	0	3048210432	60	4098
2026-01-05 13:48:23.64	320.12	15.75	-47.3	-48.5	14.9	0.00e+00	0	27	0	3070230528	60	4196
2026-01-05 13:48:27.59	320.71	15.44	-47.1	-48.2	15.0	0.00e+00	0	27	0	3092250624	60	4062
2026-01-05 13:48:31.55	321.30	15.14	-47.3	-48.5	14.9	0.00e+00	0	27	0	3114270720	60	4206
2026-01-05 13:48:35.50	321.87	14.83	-47.5	-48.7	14.8	0.00e+00	0	27	0	3136290816	60	4321
2026-01-05 13:48:39.48	322.44	14.53	-47.6	-48.7	14.8	0.00e+00	0	27	0	3159359488	60	4337
2026-01-05 13:48:43.45	322.99	14.22	-47.7	-48.9	14.8	0.00e+00	0	27	0	3181379584	60	4400
2026-01-05 13:48:47.42	323.54	13.92	-47.6	-48.7	14.8	0.00e+00	0	27	0	3203399680	60	4331
2026-01-05 13:48:51.37	324.06	13.62	-47.6	-48.8	14.8	0.00e+00	0	27	0	3225419776	60	4341
2026-01-05 13:48:55.34	324.59	13.32	-47.8	-49.0	14.7	0.00e+00	0	27	0	3248488448	60	4465
2026-01-05 13:48:59.31	325.10	13.02	-48.0	-49.2	14.7	0.00e+00	0	27	0	3270508544	61	4336
2026-01-05 13:49:03.28	325.60	12.72	-48.0	-49.3	14.7	0.00e+00	0	27	0	3292528640	61	4346
2026-01-05 13:49:07.26	326.09	12.43	-48.0	-49.2	14.7	0.00e+00	0	27	0	3315597312	61	4296
2026-01-05 13:49:11.21	326.58	12.14	-47.8	-48.9	14.8	0.00e+00	0	27	0	3337617408	61	4185
2026-01-05 13:49:15.17	327.05	11.85	-47.9	-49.1	14.8	0.00e+00	0	27	0	3359637504	61	4251
2026-01-05 13:49:19.15	327.51	11.56	-47.9	-49.1	14.7	0.00e+00	0	27	0	3382706176	61	4261
2026-01-05 13:49:23.11	327.97	11.27	-48.1	-49.3	14.7	0.00e+00	0	27	0	3404726272	61	4364
2026-01-05 13:49:27.08	328.42	10.98	-48.3	-49.6	14.6	0.00e+00	0	27	0	3426746368	61	4522
2026-01-05 13:49:31.04	328.86	10.70	-48.4	-49.7	14.5	0.00e+00	0	27	0	3448766464	61	4551
2026-01-05 13:49:35.01	329.29	10.42	-48.3	-49.6	14.6	0.00e+00	0	27	0	3471835136	61	4497
2026-01-05 13:49:38.98	329.71	10.14	-48.6	-49.9	14.5	0.00e+00	0	27	0	3493855232	62	4396
2026-01-05 13:49:42.95	330.13	9.86	-48.6	-49.9	14.5	0.00e+00	0	27	0	3515875328	62	4420
2026-01-05 13:49:46.92	330.54	9.58	-48.7	-50.0	14.5	0.00e+00	0	27	0	3537895424	62	4455
2026-01-05 13:49:50.90	330.94	9.31	-48.7	-50.0	14.5	0.00e+00	0	27	0	3560964096	62	4443
2026-01-05 13:49:54.87	331.34	9.04	-48.7	-50.0	14.4	0.00e+00	0	27	0	3582984192	62	4474
2026-01-05 13:49:58.84	331.72	8.77	-48.9	-50.3	14.5	0.00e+00	0	27	0	3605004288	63	4349
2026-01-05 13:50:02.81	332.10	8.50	-49.2	-50.6	14.3	0.00e+00	0	27	0	3628072960	63	4510
2026-01-05 13:50:06.77	332.48	8.23	-49.3	-50.7	14.3	0.00e+00	0	27	0	3650093056	63	4565
2026-01-05 13:50:10.74	332.85	7.96	-49.3	-50.7	14.3	0.00e+00	0	27	0	3672113152	63	4570
2026-01-05 13:50:14.71	333.21	7.70	-49.3	-50.7	14.3	0.00e+00	0	28	0	3694133248	64	4308
2026-01-05 13:50:18.66	333.56	7.44	-49.2	-50.5	14.4	0.00e+00	0	27	0	3717201920	64	4232
2026-01-05 13:50:22.64	333.91	7.18	-49.3	-50.7	14.3	0.00e+00	0	27	0	3739222016	64	4313
2026-01-05 13:50:26.60	334.25	6.92	-49.4	-50.8	14.2	0.00e+00	0	27	0	3761242112	64	4374
2026-01-05 13:50:30.55	334.59	6.67	-49.4	-50.8	14.3	0.00e+00	0	27	0	3784310784	64	4351
2026-01-05 13:50:34.50	334.92	6.41	-49.6	-51.0	14.1	0.00e+00	0	27	0	3806330880	64	4473
2026-01-05 13:50:38.47	335.25	6.16	-49.3	-50.7	14.2	0.00e+00	0	27	0	3828350976	64	4336
2026-01-05 13:50:42.45	335.57	5.91	-49.4	-50.8	14.2	0.00e+00	0	27	0	3850371072	64	4387
2026-01-05 13:50:46.41	335.89	5.66	-49.4	-50.8	14.2	0.00e+00	0	27	0	3873439744	64	4373
2026-01-05 13:50:50.38	336.20	5.41	-49.5	-50.9	14.1	0.00e+00	0	27	0	3895459840	64	4435
2026-01-05 13:50:54.37	336.51	5.17	-49.6	-51.1	14.0	0.00e+00	0	27	0	3917479936	64	4512
2026-01-05 13:50:58.36	336.81	4.92	-58.8	-71.6	3.8	8.41e-01	0	27	104	3937402880	82	17014
2026-01-05 13:51:02.31	337.11	4.68	-43.2	-48.9	3.8	8.46e-01	0	27	104	3937402880	52	7027
2026-01-05 13:51:06.30	337.40	4.44	-60.8	-73.8	3.8	8.46e-01	0	27	104	3937402880	86	17478
2026-01-05 13:51:10.26	337.69	4.20	-60.9	-74.0	3.8	8.47e-01	0	27	104	3937402880	87	16774
2026-01-05 13:51:14.23	337.97	3.96	-61.0	-74.1	3.8	8.46e-01	0	27	104	3937402880	87	16892
2026-01-05 13:51:18.20	338.25	3.72	-61.0	-74.1	3.8	8.46e-01	0	27	104	3937402880	87	16995
2026-01-05 13:51:22.16	338.53	3.49	-60.9	-74.0	3.8	8.46e-01	0	27	104	3937402880	87	16814
2026-01-05 13:51:26.13	338.80	3.26	-60.9	-74.0	3.8	8.46e-01	0	27	104	3937402880	87	16748
2026-01-05 13:51:30.10	339.07	3.02	-60.8	-73.9	3.8	8.45e-01	0	27	104	3937402880	87	16668
2026-01-05 13:51:34.07	339.33	2.79	-60.8	-73.9	3.8	8.45e-01	0	27	104	3937402880	87	16581
2026-01-05 13:51:38.08	339.59	2.56	-60.8	-73.9	3.8	8.45e-01	0	27	104	3937402880	87	16525
2026-01-05 13:51:42.06	339.85	2.33	-60.7	-73.8	3.8	8.45e-01	0	27	104	3937402880	87	16422
2026-01-05 13:51:46.05	340.11	2.11	-60.7	-73.8	3.8	8.46e-01	0	27	104	3937402880	87	16391

#Closed at: 2026-01-05 13:51:48
#Recorded file [3937 MB]: D:/lorett/data/31004_260105_163828.dat