passes_logs/2026/01/05/R3.2S_Murmansk/R3.2S_Murmansk__20260105_130113_NOAA_20_JPSS-1_rec.log

#Pass ID: 20260105_130113_NOAA 20 (JPSS-1)
#Satellite: NOAA 20 (JPSS-1)
#Configuration: NOAA 20
#almurnet v.1.7.20251203
#Start time: 2026-01-05 13:01:14

#Version: 2.2.20231116
#Station: R3.2S_Murmansk
#Location: 33.079688 lon 68.888172 lat
#TLE: 1 43013U 17073A   26004.47528369  .00000132  00000+0  83671-4 0  9999
#TLE: 2 43013  98.7626 305.5264 0001854  54.5883 305.5466 14.19533142421242

#Time	Az	El	Level	Level2	SNR	BER	BlckErr	Temp	State	Recorded	gain1	gain2
2026-01-05 13:01:14.37	243.46	2.05	-58.7	-74.7	3.8	1.49e+00	0	25	0	0	84	21631
2026-01-05 13:01:17.35	243.75	2.18	-58.5	-74.5	3.8	1.49e+00	0	25	104	0	82	23761
2026-01-05 13:01:20.35	244.06	2.31	-58.5	-74.5	3.8	1.49e+00	0	25	104	0	82	23752
2026-01-05 13:01:23.34	244.36	2.44	-58.5	-74.5	3.8	1.49e+00	0	25	104	0	82	23700
2026-01-05 13:01:26.33	244.67	2.58	-58.5	-74.5	3.8	1.49e+00	0	25	104	0	82	23603
2026-01-05 13:01:29.33	244.98	2.71	-58.5	-74.5	3.8	1.49e+00	0	25	104	0	82	23617
2026-01-05 13:01:32.33	245.29	2.84	-58.5	-74.4	3.8	1.49e+00	0	25	104	0	82	23573
2026-01-05 13:01:35.33	245.61	2.98	-58.5	-74.5	3.8	1.49e+00	0	25	104	0	82	23719
2026-01-05 13:01:38.33	245.92	3.11	-58.5	-74.5	3.8	1.49e+00	0	25	104	0	82	23598
2026-01-05 13:01:41.33	246.25	3.24	-58.5	-74.4	3.8	1.49e+00	0	25	104	0	82	23465
2026-01-05 13:01:44.33	246.57	3.37	-58.5	-74.4	3.8	1.49e+00	0	26	104	0	82	23521
2026-01-05 13:01:47.32	246.90	3.50	-58.5	-74.5	3.8	1.49e+00	0	25	104	0	82	23675
2026-01-05 13:01:50.31	247.22	3.64	-58.5	-74.5	3.8	1.49e+00	0	26	104	0	82	23608
2026-01-05 13:01:53.31	247.56	3.77	-58.5	-74.2	3.8	1.49e+00	0	26	104	0	82	22977
2026-01-05 13:01:56.30	247.89	3.90	-58.5	-74.4	3.8	1.49e+00	0	26	104	0	82	23349
2026-01-05 13:01:59.31	248.23	4.03	-58.5	-74.5	3.8	1.49e+00	0	26	104	0	82	23640
2026-01-05 13:02:02.31	248.57	4.16	-58.5	-74.3	3.9	1.49e+00	0	26	104	0	82	23109
2026-01-05 13:02:05.32	248.92	4.30	-58.5	-74.2	3.8	1.49e+00	0	26	104	0	82	22843
2026-01-05 13:02:08.31	249.26	4.43	-58.5	-73.9	3.8	1.49e+00	0	26	104	0	82	22256
2026-01-05 13:02:11.32	249.61	4.56	-58.5	-74.2	3.8	1.49e+00	0	26	104	0	82	22904
2026-01-05 13:02:14.32	249.97	4.69	-58.5	-73.4	3.8	1.49e+00	0	26	104	0	82	21005
2026-01-05 13:02:17.31	250.32	4.82	-58.3	-70.5	4.3	1.38e+00	92	26	0	0	82	14885
2026-01-05 13:02:20.30	250.68	4.95	-57.8	-66.1	6.6	3.16e-01	0	26	0	5242880	82	9069
2026-01-05 13:02:23.28	251.04	5.08	-57.0	-62.7	9.6	1.13e-03	0	26	0	10485760	79	7237
2026-01-05 13:02:26.26	251.40	5.21	-57.8	-66.5	6.1	1.01e+00	0	26	0	15728640	81	9981
2026-01-05 13:02:29.27	251.77	5.34	-54.3	-57.0	13.3	0.00e+00	0	26	0	22020096	74	5004
2026-01-05 13:02:32.25	252.14	5.47	-53.9	-56.5	13.6	0.00e+00	0	26	0	27262976	74	4711
2026-01-05 13:02:35.25	252.52	5.59	-53.8	-56.3	13.7	0.00e+00	0	26	0	32505856	74	4615
2026-01-05 13:02:38.23	252.89	5.72	-53.9	-56.5	13.6	0.00e+00	0	26	0	38797312	74	4725
2026-01-05 13:02:41.24	253.27	5.85	-53.8	-56.3	13.7	0.00e+00	0	26	0	44040192	74	4612
2026-01-05 13:02:44.23	253.66	5.98	-53.8	-56.3	13.7	0.00e+00	0	26	0	50331648	74	4606
2026-01-05 13:02:47.22	254.04	6.10	-53.8	-56.2	13.7	0.00e+00	0	26	0	55574528	74	4579
2026-01-05 13:02:50.22	254.43	6.23	-53.8	-56.2	13.7	0.00e+00	0	26	0	60817408	74	4580
2026-01-05 13:02:53.21	254.83	6.36	-53.6	-56.0	13.7	0.00e+00	0	26	0	67108864	73	4729
2026-01-05 13:02:56.22	255.22	6.48	-53.6	-55.9	13.8	0.00e+00	0	26	0	72351744	73	4688
2026-01-05 13:02:59.23	255.63	6.61	-53.6	-55.9	13.8	0.00e+00	0	26	0	77594624	73	4701
2026-01-05 13:03:02.22	256.03	6.73	-53.5	-55.9	13.8	0.00e+00	0	26	0	83886080	73	4666
2026-01-05 13:03:05.22	256.44	6.85	-53.7	-56.1	13.7	0.00e+00	0	26	0	89128960	73	4770
2026-01-05 13:03:08.23	256.85	6.98	-53.5	-55.9	13.8	0.00e+00	0	26	0	94371840	73	4660
2026-01-05 13:03:11.22	257.26	7.10	-53.5	-55.8	13.9	0.00e+00	0	26	0	100663296	73	4619
2026-01-05 13:03:14.21	257.68	7.22	-53.4	-55.6	14.0	0.00e+00	0	26	0	105906176	73	4534
2026-01-05 13:03:17.20	258.09	7.34	-53.6	-55.9	13.8	0.00e+00	0	26	0	111149056	73	4694
2026-01-05 13:03:20.19	258.52	7.46	-53.6	-55.9	13.8	0.00e+00	0	26	0	117440512	73	4680
2026-01-05 13:03:23.19	258.94	7.58	-53.6	-55.9	13.8	0.00e+00	0	26	0	122683392	73	4686
2026-01-05 13:03:26.18	259.37	7.70	-53.6	-56.0	13.8	0.00e+00	0	27	0	128974848	73	4728
2026-01-05 13:03:29.18	259.81	7.82	-53.7	-56.0	13.8	0.00e+00	0	26	0	134217728	73	4733
2026-01-05 13:03:32.19	260.25	7.94	-53.7	-56.1	13.7	0.00e+00	0	27	0	139460608	73	4785
2026-01-05 13:03:35.19	260.69	8.05	-53.7	-56.1	13.8	0.00e+00	0	26	0	145752064	73	4772
2026-01-05 13:03:38.19	261.13	8.17	-53.7	-56.1	13.8	0.00e+00	0	26	0	150994944	73	4777
2026-01-05 13:03:41.19	261.58	8.28	-53.7	-56.1	13.8	0.00e+00	0	27	0	156237824	73	4771
2026-01-05 13:03:44.19	262.03	8.40	-53.7	-56.1	13.8	0.00e+00	0	26	0	162529280	73	4761
2026-01-05 13:03:47.18	262.48	8.51	-53.7	-56.1	13.8	0.00e+00	0	26	0	167772160	73	4778
2026-01-05 13:03:50.16	262.94	8.62	-53.8	-56.1	13.7	0.00e+00	0	26	0	173015040	73	4807
2026-01-05 13:03:53.15	263.39	8.73	-53.9	-56.3	13.6	0.00e+00	0	27	0	179306496	73	4913
2026-01-05 13:03:56.14	263.86	8.84	-53.7	-56.1	13.8	0.00e+00	0	27	0	184549376	73	4787
2026-01-05 13:03:59.13	264.32	8.94	-53.7	-56.1	13.8	0.00e+00	0	27	0	190840832	73	4787
2026-01-05 13:04:02.12	264.79	9.05	-53.8	-56.2	13.8	0.00e+00	0	27	0	196083712	73	4822
2026-01-05 13:04:05.10	265.26	9.16	-53.8	-56.1	13.7	0.00e+00	0	27	0	201326592	73	4808
2026-01-05 13:04:08.09	265.74	9.26	-53.6	-55.9	13.9	0.00e+00	0	27	0	207618048	73	4676
2026-01-05 13:04:11.08	266.22	9.36	-53.6	-55.9	13.9	0.00e+00	0	27	0	212860928	73	4682
2026-01-05 13:04:14.08	266.70	9.46	-54.3	-57.0	13.2	0.00e+00	0	26	0	218103808	73	5333
2026-01-05 13:04:17.07	267.19	9.56	-55.3	-58.9	12.1	0.00e+00	0	26	0	224395264	75	5912
2026-01-05 13:04:20.05	267.67	9.66	-55.0	-58.5	12.3	1.50e-06	0	27	0	229638144	75	5603
2026-01-05 13:04:23.03	268.16	9.76	-55.6	-59.6	11.5	7.60e-06	0	27	0	234881024	76	6016
2026-01-05 13:04:26.03	268.66	9.85	-55.9	-60.3	11.1	1.14e-04	0	27	0	241172480	77	6167
2026-01-05 13:04:29.03	269.16	9.95	-55.4	-59.0	12.2	7.00e-07	0	27	0	246415360	77	5310
2026-01-05 13:04:32.01	269.66	10.04	-54.8	-57.9	12.9	0.00e+00	0	27	0	251658240	76	4931
2026-01-05 13:04:35.02	270.17	10.13	-55.3	-58.7	12.4	0.00e+00	0	27	0	257949696	76	5417
2026-01-05 13:04:38.02	270.68	10.22	-54.3	-56.9	13.5	0.00e+00	0	27	0	263192576	75	4698
2026-01-05 13:04:41.03	271.19	10.31	-53.9	-56.3	13.8	0.00e+00	0	27	0	268435456	74	4625
2026-01-05 13:04:44.03	271.70	10.40	-53.7	-56.0	13.8	0.00e+00	0	27	0	274726912	73	4728
2026-01-05 13:04:47.03	272.22	10.48	-53.8	-56.2	13.8	0.00e+00	0	27	0	279969792	73	4844
2026-01-05 13:04:50.02	272.74	10.56	-53.8	-56.2	13.8	0.00e+00	0	27	0	286261248	73	4840
2026-01-05 13:04:53.01	273.26	10.64	-53.9	-56.2	13.7	0.00e+00	0	27	0	291504128	73	4849
2026-01-05 13:04:56.02	273.79	10.72	-54.2	-56.6	13.6	0.00e+00	0	27	0	296747008	73	5089
2026-01-05 13:04:59.02	274.32	10.80	-54.1	-56.5	13.6	0.00e+00	0	27	0	303038464	73	5024
2026-01-05 13:05:02.02	274.85	10.88	-53.9	-56.2	13.7	0.00e+00	0	27	0	308281344	73	4851
2026-01-05 13:05:05.02	275.38	10.95	-53.7	-56.0	13.9	0.00e+00	0	27	0	313524224	73	4726
2026-01-05 13:05:08.02	275.92	11.02	-53.8	-56.1	13.8	0.00e+00	0	27	0	319815680	73	4780
2026-01-05 13:05:10.99	276.45	11.09	-53.8	-56.0	13.9	0.00e+00	0	27	0	325058560	73	4753
2026-01-05 13:05:13.99	277.00	11.16	-53.9	-56.2	13.8	0.00e+00	0	27	0	330301440	73	4858
2026-01-05 13:05:16.97	277.54	11.22	-53.7	-56.0	13.9	0.00e+00	0	27	0	336592896	73	4730
2026-01-05 13:05:19.96	278.08	11.28	-53.6	-55.8	14.0	0.00e+00	0	27	0	341835776	73	4608
2026-01-05 13:05:22.94	278.62	11.34	-53.4	-55.5	14.1	0.00e+00	0	27	0	347078656	73	4488
2026-01-05 13:05:25.93	279.17	11.40	-53.3	-55.4	14.2	0.00e+00	0	27	0	353370112	73	4406
2026-01-05 13:05:28.92	279.72	11.46	-53.6	-55.7	14.1	0.00e+00	0	27	0	358612992	73	4583
2026-01-05 13:05:31.92	280.28	11.51	-53.8	-56.0	13.9	0.00e+00	0	27	0	363855872	73	4735
2026-01-05 13:05:34.91	280.83	11.57	-53.9	-56.2	13.8	0.00e+00	0	27	0	370147328	73	4835
2026-01-05 13:05:37.92	281.39	11.62	-54.0	-56.3	13.8	0.00e+00	0	27	0	375390208	73	4900
2026-01-05 13:05:40.92	281.95	11.66	-54.1	-56.4	13.7	0.00e+00	0	27	0	380633088	73	4980
2026-01-05 13:05:43.92	282.51	11.71	-54.3	-56.8	13.6	0.00e+00	0	27	0	386924544	73	5167
2026-01-05 13:05:46.91	283.08	11.75	-54.5	-57.1	13.4	0.00e+00	0	27	0	392167424	74	5043
2026-01-05 13:05:49.91	283.64	11.79	-54.5	-57.0	13.5	0.00e+00	0	27	0	398458880	74	4996
2026-01-05 13:05:52.92	284.21	11.83	-54.5	-56.9	13.5	0.00e+00	0	27	0	403701760	74	4983
2026-01-05 13:05:55.91	284.77	11.86	-54.6	-57.2	13.4	0.00e+00	0	27	0	408944640	74	5139
2026-01-05 13:05:58.92	285.34	11.90	-54.7	-57.3	13.3	0.00e+00	0	27	0	415236096	74	5199
2026-01-05 13:06:01.92	285.91	11.93	-54.7	-57.3	13.3	0.00e+00	0	27	0	420478976	74	5184
2026-01-05 13:06:04.91	286.48	11.95	-54.6	-57.1	13.5	0.00e+00	0	27	0	425721856	74	5088
2026-01-05 13:06:07.90	287.05	11.98	-54.6	-57.1	13.5	0.00e+00	0	27	0	432013312	74	5096
2026-01-05 13:06:10.88	287.62	12.00	-54.3	-56.7	13.7	0.00e+00	0	27	0	437256192	74	4857
2026-01-05 13:06:13.88	288.20	12.02	-54.3	-56.7	13.7	0.00e+00	0	27	0	442499072	74	4870
2026-01-05 13:06:16.87	288.77	12.04	-54.4	-56.8	13.6	0.00e+00	0	27	0	448790528	74	4923
2026-01-05 13:06:19.84	289.34	12.05	-54.1	-56.4	13.8	0.00e+00	0	27	0	454033408	74	4658
2026-01-05 13:06:22.83	289.91	12.07	-54.1	-56.3	13.9	0.00e+00	0	27	0	459276288	74	4649
2026-01-05 13:06:25.81	290.48	12.08	-54.2	-56.6	13.8	0.00e+00	0	27	0	465567744	74	4788
2026-01-05 13:06:28.81	291.06	12.08	-54.2	-56.6	13.8	0.00e+00	0	27	0	470810624	74	4785
2026-01-05 13:06:31.81	291.63	12.09	-54.0	-56.3	13.9	0.00e+00	0	27	0	476053504	74	4633
2026-01-05 13:06:34.78	292.20	12.09	-53.8	-56.0	14.1	0.00e+00	0	27	0	482344960	74	4468
2026-01-05 13:06:37.78	292.78	12.09	-53.8	-55.9	14.1	0.00e+00	0	27	0	487587840	74	4429
2026-01-05 13:06:40.77	293.36	12.09	-53.6	-55.7	14.1	0.00e+00	0	27	0	493879296	73	4549
2026-01-05 13:06:43.78	293.93	12.08	-53.4	-55.4	14.2	0.00e+00	0	27	0	499122176	73	4429
2026-01-05 13:06:46.77	294.51	12.07	-53.1	-55.1	14.3	0.00e+00	0	27	0	504365056	72	4526
2026-01-05 13:06:49.75	295.08	12.06	-53.2	-55.2	14.2	0.00e+00	0	27	0	510656512	72	4586
2026-01-05 13:06:52.75	295.65	12.05	-53.1	-55.1	14.3	0.00e+00	0	27	0	515899392	72	4523
2026-01-05 13:06:55.75	296.23	12.04	-52.9	-54.8	14.4	0.00e+00	0	27	0	521142272	72	4381
2026-01-05 13:06:58.74	296.80	12.02	-52.7	-54.6	14.5	0.00e+00	0	27	0	527433728	72	4281
2026-01-05 13:07:01.73	297.37	12.00	-52.9	-54.8	14.4	0.00e+00	0	27	0	532676608	72	4378
2026-01-05 13:07:04.75	297.95	11.97	-52.8	-54.7	14.5	0.00e+00	0	27	0	537919488	72	4298
2026-01-05 13:07:07.74	298.52	11.95	-53.0	-54.9	14.3	0.00e+00	0	27	0	544210944	72	4412
2026-01-05 13:07:10.74	299.09	11.92	-52.5	-54.4	14.5	0.00e+00	0	27	0	549453824	71	4414
2026-01-05 13:07:13.72	299.65	11.89	-52.6	-54.4	14.4	0.00e+00	0	27	0	554696704	71	4435
2026-01-05 13:07:16.71	300.22	11.85	-52.8	-54.7	14.3	0.00e+00	0	27	0	560988160	71	4572
2026-01-05 13:07:19.69	300.78	11.82	-52.8	-54.7	14.3	0.00e+00	0	27	0	566231040	71	4588
2026-01-05 13:07:22.68	301.34	11.78	-52.9	-54.9	14.2	0.00e+00	0	27	0	571473920	71	4667
2026-01-05 13:07:25.67	301.90	11.74	-52.9	-54.8	14.2	0.00e+00	0	27	0	577765376	71	4629
2026-01-05 13:07:28.64	302.46	11.70	-52.9	-54.8	14.3	0.00e+00	0	27	0	583008256	71	4637
2026-01-05 13:07:31.61	303.01	11.65	-52.8	-54.8	14.3	0.00e+00	0	27	0	588251136	71	4615
2026-01-05 13:07:34.61	303.57	11.60	-52.9	-54.8	14.2	0.00e+00	0	27	0	594542592	71	4650
2026-01-05 13:07:37.53	304.11	11.55	-53.1	-55.2	14.1	0.00e+00	0	27	0	599785472	71	4835
2026-01-05 13:07:40.52	304.67	11.50	-53.2	-55.2	14.1	0.00e+00	0	27	0	605028352	71	4843
2026-01-05 13:07:43.51	305.22	11.45	-53.0	-55.0	14.2	0.00e+00	0	27	0	611319808	71	4753
2026-01-05 13:07:46.51	305.77	11.39	-52.7	-54.6	14.3	0.00e+00	0	27	0	616562688	71	4540
2026-01-05 13:07:49.47	306.31	11.33	-52.7	-54.6	14.3	0.00e+00	0	27	0	622854144	71	4523
2026-01-05 13:07:52.46	306.85	11.27	-52.7	-54.6	14.3	0.00e+00	0	27	0	628097024	71	4533
2026-01-05 13:07:55.46	307.40	11.21	-52.7	-54.6	14.4	0.00e+00	0	27	0	633339904	71	4497
2026-01-05 13:07:58.43	307.93	11.14	-52.6	-54.5	14.4	0.00e+00	0	27	0	639631360	71	4483
2026-01-05 13:08:01.43	308.47	11.08	-52.7	-54.6	14.4	0.00e+00	0	27	0	644874240	71	4503
2026-01-05 13:08:04.43	309.01	11.01	-52.6	-54.5	14.4	0.00e+00	0	27	0	650117120	71	4454
2026-01-05 13:08:07.42	309.54	10.94	-52.6	-54.4	14.4	0.00e+00	0	27	0	656408576	71	4435
2026-01-05 13:08:10.40	310.07	10.86	-52.6	-54.5	14.4	0.00e+00	0	27	0	661651456	71	4448
2026-01-05 13:08:13.40	310.60	10.79	-52.6	-54.4	14.4	0.00e+00	0	27	0	666894336	71	4438
2026-01-05 13:08:16.39	311.13	10.71	-52.6	-54.5	14.4	0.00e+00	0	27	0	673185792	71	4479
2026-01-05 13:08:19.38	311.65	10.63	-52.6	-54.6	14.4	0.00e+00	0	27	0	678428672	71	4496
2026-01-05 13:08:22.38	312.17	10.55	-52.7	-54.6	14.3	0.00e+00	0	27	0	683671552	71	4544
2026-01-05 13:08:25.37	312.69	10.47	-52.5	-54.5	14.4	0.00e+00	0	27	0	689963008	71	4444
2026-01-05 13:08:28.37	313.20	10.38	-52.5	-54.4	14.4	0.00e+00	0	27	0	695205888	71	4411
2026-01-05 13:08:31.36	313.71	10.30	-52.6	-54.5	14.3	0.00e+00	0	27	0	700448768	71	4473
2026-01-05 13:08:34.36	314.22	10.21	-52.8	-54.8	14.2	0.00e+00	0	27	0	706740224	71	4601
2026-01-05 13:08:37.36	314.73	10.12	-52.9	-54.9	14.2	0.00e+00	0	27	0	711983104	71	4674
2026-01-05 13:08:40.37	315.23	10.03	-52.9	-54.9	14.2	0.00e+00	0	27	0	718274560	71	4662
2026-01-05 13:08:43.38	315.74	9.94	-53.0	-55.0	14.1	0.00e+00	0	27	0	723517440	71	4753
2026-01-05 13:08:46.38	316.23	9.84	-53.0	-55.1	14.1	0.00e+00	0	27	0	728760320	71	4777
2026-01-05 13:08:49.38	316.73	9.75	-53.2	-55.4	13.9	0.00e+00	0	27	0	735051776	71	4952
2026-01-05 13:08:52.37	317.22	9.65	-53.7	-56.0	13.7	0.00e+00	0	27	0	740294656	72	5007
2026-01-05 13:08:55.36	317.70	9.55	-54.0	-56.5	13.5	0.00e+00	0	27	0	745537536	73	5012
2026-01-05 13:08:58.36	318.19	9.45	-54.4	-57.1	13.2	0.00e+00	0	27	0	751828992	73	5362
2026-01-05 13:09:01.35	318.67	9.35	-54.3	-57.0	13.4	0.00e+00	0	27	0	757071872	74	4999
2026-01-05 13:09:04.35	319.14	9.25	-54.1	-56.6	13.5	0.00e+00	0	27	0	762314752	74	4808
2026-01-05 13:09:07.36	319.62	9.14	-54.3	-56.9	13.4	0.00e+00	0	27	0	768606208	74	4979
2026-01-05 13:09:10.35	320.09	9.04	-54.4	-57.1	13.3	0.00e+00	0	27	0	773849088	74	5077
2026-01-05 13:09:13.36	320.56	8.93	-54.4	-57.2	13.3	0.00e+00	0	27	0	780140544	74	5113
2026-01-05 13:09:16.36	321.03	8.83	-54.8	-57.7	12.9	0.00e+00	0	27	0	785383424	74	5421
2026-01-05 13:09:19.37	321.49	8.72	-55.2	-58.4	12.6	0.00e+00	0	27	0	790626304	75	5567
2026-01-05 13:09:22.36	321.95	8.61	-55.3	-58.6	12.4	7.00e-07	0	27	0	796917760	75	5714
2026-01-05 13:09:25.35	322.40	8.50	-55.3	-58.7	12.4	7.00e-07	0	27	0	802160640	75	5747
2026-01-05 13:09:28.34	322.85	8.39	-55.0	-58.1	12.7	0.00e+00	0	27	0	807403520	75	5383
2026-01-05 13:09:31.33	323.30	8.27	-54.9	-58.0	12.8	0.00e+00	0	27	0	813694976	75	5313
2026-01-05 13:09:34.31	323.74	8.16	-55.0	-58.1	12.8	0.00e+00	0	27	0	818937856	75	5344
2026-01-05 13:09:37.30	324.18	8.05	-55.0	-58.1	12.7	0.00e+00	0	27	0	824180736	75	5380
2026-01-05 13:09:40.30	324.62	7.93	-55.2	-58.5	12.5	0.00e+00	0	27	0	830472192	75	5611
2026-01-05 13:09:43.29	325.05	7.81	-55.1	-58.4	12.5	0.00e+00	0	27	0	835715072	75	5540
2026-01-05 13:09:46.28	325.48	7.70	-54.7	-57.7	13.0	0.00e+00	0	27	0	840957952	75	5101
2026-01-05 13:09:49.27	325.91	7.58	-54.6	-57.5	13.0	0.00e+00	0	27	0	847249408	75	5032
2026-01-05 13:09:52.26	326.33	7.46	-54.8	-57.9	12.8	0.00e+00	0	27	0	852492288	75	5223
2026-01-05 13:09:55.26	326.75	7.34	-55.1	-58.4	12.5	0.00e+00	0	27	0	857735168	75	5537
2026-01-05 13:09:58.25	327.17	7.22	-54.9	-58.0	12.7	0.00e+00	0	27	0	864026624	75	5300
2026-01-05 13:10:01.26	327.59	7.10	-54.6	-57.5	13.0	0.00e+00	0	27	0	869269504	75	5036
2026-01-05 13:10:04.27	328.00	6.98	-54.1	-56.8	13.4	0.00e+00	0	27	0	875560960	74	4877
2026-01-05 13:10:07.27	328.41	6.86	-54.3	-57.2	13.2	0.00e+00	0	27	0	880803840	74	5111
2026-01-05 13:10:10.27	328.81	6.73	-54.3	-57.2	13.1	0.00e+00	0	27	0	886046720	74	5102
2026-01-05 13:10:13.28	329.21	6.61	-54.3	-57.2	13.1	0.00e+00	0	27	0	892338176	74	5107
2026-01-05 13:10:16.29	329.61	6.49	-54.3	-57.1	13.2	0.00e+00	0	27	0	897581056	74	5052
2026-01-05 13:10:19.31	330.01	6.36	-54.4	-57.3	13.0	0.00e+00	0	27	0	902823936	74	5177
2026-01-05 13:10:22.29	330.40	6.24	-54.4	-57.2	13.0	0.00e+00	0	27	0	909115392	74	5159
2026-01-05 13:10:25.30	330.79	6.11	-54.0	-56.7	13.4	0.00e+00	0	27	0	914358272	74	4826
2026-01-05 13:10:28.30	331.18	5.98	-53.9	-56.5	13.5	0.00e+00	0	27	0	919601152	74	4731
2026-01-05 13:10:31.30	331.56	5.86	-53.8	-56.3	13.5	0.00e+00	0	27	0	925892608	74	4642
2026-01-05 13:10:34.29	331.94	5.73	-53.6	-56.2	13.5	0.00e+00	0	27	0	931135488	73	4815
2026-01-05 13:10:37.28	332.31	5.60	-53.6	-56.2	13.5	0.00e+00	0	27	0	937426944	73	4817
2026-01-05 13:10:40.28	332.68	5.48	-53.5	-56.0	13.6	0.00e+00	0	27	0	942669824	73	4721
2026-01-05 13:10:43.28	333.05	5.35	-53.6	-56.1	13.5	0.00e+00	0	27	0	947912704	73	4776
2026-01-05 13:10:46.28	333.42	5.22	-53.7	-56.3	13.4	0.00e+00	0	27	0	954204160	73	4899
2026-01-05 13:10:49.29	333.79	5.09	-53.9	-56.6	13.2	0.00e+00	0	27	0	959447040	73	5064
2026-01-05 13:10:52.28	334.14	4.96	-58.8	-74.1	3.8	4.76e-01	0	27	104	964689920	82	22736
2026-01-05 13:10:55.28	334.50	4.83	-60.1	-76.2	3.8	1.49e+00	0	27	104	964689920	85	24135
2026-01-05 13:10:58.29	334.86	4.70	-60.6	-76.7	3.8	1.49e+00	0	27	104	964689920	86	24267
2026-01-05 13:11:01.30	335.21	4.57	-60.8	-76.9	3.8	1.49e+00	0	27	104	964689920	86	24853
2026-01-05 13:11:04.29	335.56	4.44	-60.9	-77.0	3.8	1.49e+00	0	27	104	964689920	87	23673
2026-01-05 13:11:07.29	335.90	4.31	-61.0	-77.1	3.8	1.49e+00	0	27	104	964689920	87	23878
2026-01-05 13:11:10.29	336.25	4.18	-61.0	-77.1	3.8	1.49e+00	0	27	104	964689920	87	23976
2026-01-05 13:11:13.28	336.58	4.05	-61.0	-77.1	3.8	1.49e+00	0	27	104	964689920	87	23985
2026-01-05 13:11:16.28	336.92	3.92	-60.9	-77.0	3.8	1.49e+00	0	27	104	964689920	87	23752
2026-01-05 13:11:19.30	337.26	3.79	-60.9	-76.9	3.8	1.49e+00	0	27	104	964689920	87	23564
2026-01-05 13:11:22.31	337.59	3.66	-60.9	-76.9	3.8	1.49e+00	0	27	104	964689920	87	23469
2026-01-05 13:11:25.30	337.92	3.53	-60.8	-76.9	3.8	1.49e+00	0	27	104	964689920	87	23386
2026-01-05 13:11:28.30	338.24	3.40	-60.8	-76.8	3.8	1.49e+00	0	27	104	964689920	87	23287
2026-01-05 13:11:31.28	338.56	3.27	-60.8	-76.8	3.8	1.49e+00	0	27	104	964689920	87	23229
2026-01-05 13:11:34.28	338.88	3.14	-60.8	-76.8	3.8	1.49e+00	0	27	104	964689920	87	23206
2026-01-05 13:11:37.27	339.20	3.00	-60.7	-76.8	3.8	1.49e+00	0	27	104	964689920	87	23161
2026-01-05 13:11:40.25	339.51	2.87	-60.7	-76.8	3.8	1.49e+00	0	27	104	964689920	87	23124
2026-01-05 13:11:43.26	339.82	2.74	-60.7	-76.7	3.8	1.49e+00	0	27	104	964689920	87	23030
2026-01-05 13:11:46.27	340.14	2.61	-60.7	-76.7	3.8	1.49e+00	0	27	104	964689920	87	23020
2026-01-05 13:11:49.29	340.44	2.48	-60.7	-76.7	3.8	1.49e+00	0	27	104	964689920	87	22982
2026-01-05 13:11:52.29	340.75	2.35	-60.7	-76.7	3.8	1.49e+00	0	27	104	964689920	87	22999
2026-01-05 13:11:55.30	341.05	2.21	-60.7	-76.7	3.8	1.49e+00	0	27	104	964689920	87	22977
2026-01-05 13:11:58.30	341.35	2.08	-60.6	-76.7	3.8	1.49e+00	0	27	104	964689920	87	22917

#Closed at: 2026-01-05 13:12:01
#Recorded file [964 MB]: D:/lorett/data/31004_260105_160114.dat