passes_logs/2026/01/05/R3.2S_Murmansk/R3.2S_Murmansk__20260105_005842_SUOMI_NPP_rec.log

#Pass ID: 20260105_005842_SUOMI NPP
#Satellite: SUOMI NPP
#Configuration: NPP
#almurnet v.1.7.20251203
#Start time: 2026-01-05 00:58:44

#Version: 2.2.20231116
#Station: R3.2S_Murmansk
#Location: 33.079688 lon 68.888172 lat
#TLE: 1 37849U 11061A   26003.96724563  .00000164  00000+0  98899-4 0  9990
#TLE: 2 37849  98.7800 306.1116 0002573  82.3190 277.8279 14.19522066735141

#Time	Az	El	Level	Level2	SNR	BER	BlckErr	Temp	State	Recorded	gain1	gain2
2026-01-05 00:58:44.95	25.41	2.15	-58.2	-74.2	3.8	1.49e+00	0	26	0	0	83	21699
2026-01-05 00:58:48.93	25.40	2.41	-58.2	-74.2	3.8	1.49e+00	0	26	104	0	81	24205
2026-01-05 00:58:52.94	25.39	2.67	-58.2	-74.2	3.8	1.49e+00	0	26	104	0	81	24205
2026-01-05 00:58:56.92	25.38	2.93	-58.2	-74.1	3.8	1.49e+00	0	26	104	0	81	23951
2026-01-05 00:59:00.92	25.37	3.20	-58.2	-73.8	3.8	1.49e+00	0	26	104	0	81	23090
2026-01-05 00:59:04.91	25.36	3.46	-58.2	-73.8	3.8	1.49e+00	0	26	104	0	81	23172
2026-01-05 00:59:08.91	25.35	3.73	-58.2	-73.9	3.8	1.49e+00	0	26	104	0	81	23356
2026-01-05 00:59:12.91	25.34	4.01	-58.2	-73.9	3.8	1.49e+00	0	26	104	0	81	23455
2026-01-05 00:59:16.90	25.33	4.28	-58.1	-72.2	3.8	1.49e+00	0	26	104	0	81	19276
2026-01-05 00:59:20.90	25.32	4.56	-57.9	-69.9	4.4	1.31e+00	84	27	0	0	81	14836
2026-01-05 00:59:24.89	25.30	4.84	-57.8	-68.7	4.8	7.85e-01	0	27	0	7340032	81	12943
2026-01-05 00:59:28.90	25.29	5.13	-58.3	-71.9	3.9	1.11e+00	0	27	104	14680064	81	18559
2026-01-05 00:59:32.89	25.27	5.41	-57.9	-70.3	4.3	1.53e-01	67	27	0	17825792	80	16475
2026-01-05 00:59:36.89	25.26	5.70	-56.1	-61.1	10.7	6.59e-04	0	27	0	25165824	78	6390
2026-01-05 00:59:40.89	25.24	6.00	-55.4	-59.5	11.8	1.44e-05	0	27	0	32505856	77	5637
2026-01-05 00:59:44.88	25.23	6.29	-55.4	-59.5	11.9	7.00e-07	0	27	0	39845888	77	5618
2026-01-05 00:59:48.89	25.21	6.60	-55.0	-58.8	12.3	2.20e-06	0	27	0	48234496	76	5477
2026-01-05 00:59:52.89	25.19	6.90	-55.0	-58.7	12.4	0.00e+00	0	27	0	55574528	76	5440
2026-01-05 00:59:56.89	25.17	7.21	-54.8	-58.4	12.6	0.00e+00	0	27	0	62914560	76	5249
2026-01-05 01:00:00.88	25.16	7.52	-54.8	-58.4	12.6	0.00e+00	0	27	0	70254592	76	5223
2026-01-05 01:00:04.88	25.14	7.83	-54.9	-58.5	12.5	0.00e+00	0	27	0	77594624	76	5333
2026-01-05 01:00:08.85	25.11	8.15	-54.6	-57.9	12.8	0.00e+00	0	27	0	84934656	75	5274
2026-01-05 01:00:12.83	25.09	8.47	-54.5	-57.8	12.9	0.00e+00	0	27	0	92274688	75	5218
2026-01-05 01:00:16.84	25.07	8.80	-54.5	-57.9	12.9	0.00e+00	0	27	0	99614720	75	5243
2026-01-05 01:00:20.83	25.05	9.13	-54.4	-57.6	13.0	0.00e+00	0	27	0	108003328	75	5050
2026-01-05 01:00:24.84	25.02	9.47	-54.4	-57.5	13.1	0.00e+00	0	27	0	115343360	75	5019
2026-01-05 01:00:28.83	25.00	9.81	-54.2	-57.2	13.2	0.00e+00	0	27	0	122683392	74	5147
2026-01-05 01:00:32.82	24.97	10.16	-54.1	-57.0	13.3	0.00e+00	0	27	0	130023424	74	5032
2026-01-05 01:00:36.82	24.94	10.51	-54.0	-56.9	13.4	0.00e+00	0	27	0	137363456	74	4966
2026-01-05 01:00:40.81	24.91	10.86	-53.8	-56.5	13.5	0.00e+00	0	27	0	144703488	74	4757
2026-01-05 01:00:44.80	24.88	11.22	-53.8	-56.6	13.6	0.00e+00	0	28	0	152043520	74	4764
2026-01-05 01:00:48.79	24.85	11.59	-53.8	-56.6	13.6	0.00e+00	0	27	0	160432128	74	4763
2026-01-05 01:00:52.78	24.82	11.96	-53.6	-56.2	13.7	0.00e+00	0	27	0	167772160	73	4853
2026-01-05 01:00:56.78	24.79	12.34	-53.5	-56.0	13.8	0.00e+00	0	28	0	175112192	73	4711
2026-01-05 01:01:00.77	24.75	12.72	-53.3	-55.8	13.9	0.00e+00	0	28	0	182452224	73	4609
2026-01-05 01:01:04.78	24.72	13.11	-53.2	-55.6	13.9	0.00e+00	0	28	0	189792256	72	4783
2026-01-05 01:01:08.77	24.68	13.51	-53.1	-55.5	14.0	0.00e+00	0	27	0	197132288	72	4722
2026-01-05 01:01:12.75	24.64	13.91	-53.1	-55.4	14.0	0.00e+00	0	28	0	204472320	72	4677
2026-01-05 01:01:16.75	24.60	14.32	-52.7	-54.9	14.2	0.00e+00	0	28	0	212860928	72	4429
2026-01-05 01:01:20.76	24.56	14.73	-52.7	-54.9	14.2	0.00e+00	0	28	0	220200960	72	4439
2026-01-05 01:01:24.74	24.52	15.15	-52.4	-54.6	14.3	0.00e+00	0	28	0	227540992	71	4518
2026-01-05 01:01:28.74	24.47	15.59	-52.4	-54.5	14.3	0.00e+00	0	28	0	234881024	71	4479
2026-01-05 01:01:32.74	24.42	16.02	-52.3	-54.5	14.3	0.00e+00	0	28	0	242221056	71	4459
2026-01-05 01:01:36.74	24.37	16.47	-52.2	-54.3	14.3	0.00e+00	0	28	0	249561088	70	4631
2026-01-05 01:01:40.74	24.32	16.93	-52.2	-54.3	14.3	0.00e+00	0	28	0	257949696	70	4648
2026-01-05 01:01:44.74	24.27	17.39	-52.3	-54.5	14.2	0.00e+00	0	27	0	265289728	70	4709
2026-01-05 01:01:48.74	24.21	17.86	-52.2	-54.4	14.3	0.00e+00	0	28	0	272629760	70	4663
2026-01-05 01:01:52.73	24.15	18.34	-52.2	-54.3	14.3	0.00e+00	0	28	0	279969792	70	4642
2026-01-05 01:01:56.74	24.09	18.84	-52.1	-54.2	14.3	0.00e+00	0	28	0	287309824	70	4570
2026-01-05 01:02:00.74	24.03	19.34	-52.2	-54.4	14.3	0.00e+00	0	28	0	294649856	70	4675
2026-01-05 01:02:04.73	23.97	19.85	-52.2	-54.4	14.3	0.00e+00	0	28	0	301989888	70	4655
2026-01-05 01:02:08.72	23.90	20.37	-52.4	-54.7	14.1	0.00e+00	0	28	0	309329920	70	4846
2026-01-05 01:02:12.70	23.83	20.90	-52.3	-54.6	14.2	0.00e+00	0	28	0	317718528	70	4813
2026-01-05 01:02:16.69	23.75	21.44	-52.2	-54.5	14.2	0.00e+00	0	28	0	325058560	70	4728
2026-01-05 01:02:20.68	23.67	22.00	-52.4	-54.6	14.2	0.00e+00	0	27	0	332398592	70	4795
2026-01-05 01:02:24.67	23.59	22.57	-52.5	-54.7	14.2	0.00e+00	0	28	0	339738624	70	4848
2026-01-05 01:02:28.65	23.51	23.15	-52.5	-54.6	14.2	0.00e+00	0	28	0	347078656	70	4814
2026-01-05 01:02:32.64	23.42	23.74	-52.3	-54.3	14.3	0.00e+00	0	28	0	354418688	70	4630
2026-01-05 01:02:36.64	23.33	24.35	-52.2	-54.2	14.4	0.00e+00	0	28	0	361758720	70	4580
2026-01-05 01:02:40.64	23.23	24.98	-52.1	-54.0	14.5	0.00e+00	0	28	0	370147328	70	4486
2026-01-05 01:02:44.63	23.13	25.61	-52.0	-53.9	14.6	0.00e+00	0	28	0	377487360	70	4393
2026-01-05 01:02:48.60	23.02	26.26	-51.9	-53.8	14.6	0.00e+00	0	28	0	384827392	70	4349
2026-01-05 01:02:52.60	22.91	26.93	-52.4	-54.3	14.4	0.00e+00	0	28	0	392167424	70	4637
2026-01-05 01:02:56.60	22.79	27.62	-52.9	-55.1	14.2	0.00e+00	0	28	0	399507456	71	4763
2026-01-05 01:03:00.60	22.67	28.33	-52.8	-55.0	14.2	0.00e+00	0	28	0	406847488	71	4711
2026-01-05 01:03:04.59	22.54	29.05	-52.7	-54.9	14.2	0.00e+00	0	28	0	414187520	71	4661
2026-01-05 01:03:08.58	22.40	29.79	-53.4	-55.8	14.0	0.00e+00	0	28	0	422576128	72	4880
2026-01-05 01:03:12.56	22.26	30.55	-53.5	-55.7	14.0	0.00e+00	0	28	0	429916160	72	4839
2026-01-05 01:03:16.55	22.11	31.33	-54.4	-56.9	13.6	0.00e+00	0	28	0	437256192	73	5270
2026-01-05 01:03:20.52	21.95	32.12	-55.4	-58.5	12.9	0.00e+00	0	28	0	444596224	76	5330
2026-01-05 01:03:24.49	21.78	32.94	-55.3	-58.5	13.0	0.00e+00	0	28	0	451936256	76	5296
2026-01-05 01:03:28.49	21.60	33.79	-55.2	-58.4	13.0	0.00e+00	0	28	0	459276288	76	5238
2026-01-05 01:03:32.47	21.42	34.66	-54.4	-57.1	13.6	0.00e+00	0	28	0	466616320	75	4787
2026-01-05 01:03:36.48	21.21	35.55	-52.5	-54.5	14.4	0.00e+00	0	28	0	473956352	71	4490
2026-01-05 01:03:40.49	21.00	36.48	-52.0	-53.9	14.6	0.00e+00	0	28	0	482344960	70	4408
2026-01-05 01:03:44.49	20.77	37.43	-50.8	-52.4	14.9	0.00e+00	0	28	0	489684992	68	4186
2026-01-05 01:03:48.49	20.53	38.40	-51.4	-53.2	14.6	0.00e+00	0	28	0	497025024	68	4559
2026-01-05 01:03:52.49	20.28	39.41	-51.7	-53.6	14.6	0.00e+00	0	28	0	504365056	69	4514
2026-01-05 01:03:56.50	20.00	40.44	-52.2	-54.3	14.3	0.00e+00	0	28	0	511705088	69	4893
2026-01-05 01:04:00.51	19.70	41.51	-52.7	-55.1	14.1	0.00e+00	0	28	0	519045120	70	5062
2026-01-05 01:04:04.51	19.39	42.60	-52.9	-55.4	14.0	0.00e+00	0	28	0	527433728	71	4948
2026-01-05 01:04:08.52	19.05	43.73	-53.7	-56.3	13.8	0.00e+00	0	28	0	534773760	73	4923
2026-01-05 01:04:12.49	18.68	44.88	-53.0	-55.2	14.3	0.00e+00	0	28	0	542113792	72	4582
2026-01-05 01:04:16.49	18.29	46.07	-53.0	-55.3	14.1	0.00e+00	0	28	0	549453824	71	4920
2026-01-05 01:04:20.47	17.86	47.29	-53.7	-56.8	13.4	0.00e+00	0	28	0	556793856	72	5487
2026-01-05 01:04:24.45	17.40	48.54	-54.1	-57.1	13.5	0.00e+00	0	28	0	564133888	74	5065
2026-01-05 01:04:28.43	16.90	49.83	-53.1	-55.7	14.0	0.00e+00	0	28	0	571473920	72	4856
2026-01-05 01:04:32.42	16.35	51.16	-52.2	-54.5	14.4	0.00e+00	0	28	0	578813952	70	4711
2026-01-05 01:04:36.41	15.74	52.52	-51.4	-53.2	14.6	0.00e+00	0	28	0	587202560	68	4576
2026-01-05 01:04:40.40	15.08	53.92	-52.1	-54.2	14.4	0.00e+00	0	28	0	594542592	70	4577
2026-01-05 01:04:44.40	14.34	55.36	-52.1	-54.1	14.5	0.00e+00	0	28	0	601882624	69	4770
2026-01-05 01:04:48.41	13.52	56.83	-52.4	-54.3	14.5	0.00e+00	0	28	0	609222656	70	4625
2026-01-05 01:04:52.42	12.60	58.34	-53.0	-55.0	14.3	0.00e+00	0	28	0	616562688	71	4707
2026-01-05 01:04:56.41	11.58	59.87	-52.1	-54.0	14.5	0.00e+00	0	28	0	623902720	70	4450
2026-01-05 01:05:00.42	10.41	61.43	-52.6	-54.9	14.3	0.00e+00	0	28	0	632291328	71	4681
2026-01-05 01:05:04.43	9.09	63.03	-50.7	-52.3	15.0	0.00e+00	0	28	0	639631360	68	4116
2026-01-05 01:05:08.44	7.57	64.64	-50.7	-52.4	14.8	0.00e+00	0	28	0	646971392	67	4420
2026-01-05 01:05:12.45	5.82	66.27	-53.0	-55.3	14.3	0.00e+00	0	28	0	654311424	71	4889
2026-01-05 01:05:16.43	3.79	67.90	-53.2	-55.3	14.2	0.00e+00	0	28	0	661651456	71	4884
2026-01-05 01:05:20.43	1.40	69.54	-52.9	-55.0	14.3	0.00e+00	0	28	0	668991488	71	4754
2026-01-05 01:05:24.41	358.57	71.15	-51.7	-53.4	14.8	0.00e+00	0	28	0	676331520	70	4173
2026-01-05 01:05:28.41	355.15	72.75	-51.5	-53.1	14.7	0.00e+00	0	28	0	684720128	68	4544
2026-01-05 01:05:32.39	351.03	74.29	-53.9	-56.4	13.9	0.00e+00	0	28	0	692060160	72	5229
2026-01-05 01:05:36.41	345.94	75.77	-55.3	-58.2	13.4	0.00e+00	0	28	0	699400192	76	5101
2026-01-05 01:05:40.41	339.71	77.12	-55.0	-57.6	13.7	0.00e+00	0	28	0	706740224	76	4763
2026-01-05 01:05:44.42	332.06	78.30	-53.9	-56.0	14.1	0.00e+00	0	28	0	714080256	73	4745
2026-01-05 01:05:48.43	322.84	79.24	-56.0	-59.2	13.1	0.00e+00	0	28	0	721420288	77	5410
2026-01-05 01:05:52.42	312.21	79.86	-57.4	-61.8	11.3	3.80e-06	0	28	0	729808896	79	6554
2026-01-05 01:05:56.43	300.57	80.10	-56.9	-60.6	12.3	0.00e+00	0	28	0	737148928	79	5688
2026-01-05 01:06:00.42	288.90	79.93	-55.2	-58.0	13.5	0.00e+00	0	28	0	744488960	76	4998
2026-01-05 01:06:04.42	278.03	79.37	-55.0	-57.7	13.6	0.00e+00	0	28	0	751828992	75	5153
2026-01-05 01:06:08.41	268.59	78.49	-55.4	-58.3	13.4	0.00e+00	0	28	0	759169024	76	5198
2026-01-05 01:06:12.41	260.69	77.34	-56.1	-59.6	12.6	7.00e-07	0	28	0	766509056	77	5660
2026-01-05 01:06:16.40	254.24	76.02	-56.8	-60.6	12.1	5.30e-06	0	28	0	773849088	80	5377
2026-01-05 01:06:20.38	249.00	74.58	-53.2	-55.0	14.5	0.00e+00	0	28	0	782237696	72	4464
2026-01-05 01:06:24.36	244.72	73.04	-51.4	-52.8	15.0	0.00e+00	0	28	0	789577728	69	4136
2026-01-05 01:06:28.34	241.20	71.46	-52.9	-54.7	14.5	0.00e+00	0	28	0	796917760	71	4572
2026-01-05 01:06:32.34	238.25	69.84	-53.0	-55.1	14.3	0.00e+00	0	28	0	804257792	71	4778
2026-01-05 01:06:36.33	235.78	68.20	-53.6	-56.2	13.9	0.00e+00	0	28	0	811597824	72	5110
2026-01-05 01:06:40.33	233.68	66.56	-51.7	-53.5	14.7	0.00e+00	0	28	0	818937856	69	4464
2026-01-05 01:06:44.32	231.89	64.94	-53.3	-55.5	14.2	0.00e+00	0	28	0	826277888	71	5039
2026-01-05 01:06:48.32	230.33	63.32	-55.7	-59.4	12.7	0.00e+00	0	28	0	833617920	76	5916
2026-01-05 01:06:52.32	228.98	61.72	-54.4	-57.1	13.8	0.00e+00	0	28	0	842006528	75	4794
2026-01-05 01:06:56.32	227.79	60.15	-51.1	-52.7	14.9	0.00e+00	0	28	0	849346560	68	4297
2026-01-05 01:07:00.31	226.74	58.61	-51.9	-53.6	14.7	0.00e+00	0	28	0	856686592	69	4513
2026-01-05 01:07:04.29	225.80	57.11	-51.3	-52.9	14.8	0.00e+00	0	28	0	864026624	68	4412
2026-01-05 01:07:08.29	224.97	55.63	-53.8	-56.4	13.7	0.00e+00	0	28	0	871366656	72	5256
2026-01-05 01:07:12.28	224.21	54.18	-52.9	-55.2	14.3	0.00e+00	0	28	0	878706688	71	4830
2026-01-05 01:07:16.28	223.53	52.77	-52.4	-54.5	14.4	0.00e+00	0	28	0	887095296	70	4729
2026-01-05 01:07:20.26	222.92	51.40	-53.1	-55.4	14.1	0.00e+00	0	28	0	894435328	71	4965
2026-01-05 01:07:24.22	222.36	50.08	-54.0	-56.7	13.7	0.00e+00	0	28	0	901775360	73	5133
2026-01-05 01:07:28.21	221.84	48.77	-54.2	-56.9	13.6	0.00e+00	0	28	0	909115392	73	5238
2026-01-05 01:07:32.20	221.37	47.51	-55.3	-58.5	12.9	0.00e+00	0	28	0	916455424	76	5304
2026-01-05 01:07:36.19	220.93	46.27	-54.8	-57.6	13.4	0.00e+00	0	28	0	923795456	74	5372
2026-01-05 01:07:40.17	220.53	45.08	-53.6	-55.9	14.0	0.00e+00	0	28	0	931135488	72	4946
2026-01-05 01:07:44.18	220.16	43.91	-54.3	-57.1	13.6	0.00e+00	0	28	0	938475520	74	5051
2026-01-05 01:07:48.17	219.81	42.77	-55.8	-59.6	12.5	0.00e+00	0	28	0	945815552	76	6034
2026-01-05 01:07:52.17	219.49	41.67	-53.8	-56.2	14.1	0.00e+00	0	28	0	954204160	74	4551
2026-01-05 01:07:56.17	219.19	40.60	-54.3	-57.0	13.7	0.00e+00	0	28	0	961544192	74	5023
2026-01-05 01:08:00.15	218.91	39.56	-55.2	-58.8	12.7	0.00e+00	0	28	0	968884224	75	5836
2026-01-05 01:08:04.16	218.65	38.55	-52.6	-54.7	14.4	0.00e+00	0	28	0	976224256	71	4572
2026-01-05 01:08:08.17	218.40	37.56	-53.5	-55.9	14.0	0.00e+00	0	28	0	983564288	72	4956
2026-01-05 01:08:12.18	218.17	36.60	-54.3	-57.1	13.5	0.00e+00	0	28	0	990904320	74	5074
2026-01-05 01:08:16.18	217.96	35.67	-55.2	-58.6	12.8	0.00e+00	0	28	0	999292928	75	5697
2026-01-05 01:08:20.14	217.75	34.78	-54.1	-56.8	13.7	0.00e+00	0	28	0	1006632960	74	4903
2026-01-05 01:08:24.15	217.56	33.90	-53.5	-55.8	14.1	0.00e+00	0	28	0	1013972992	73	4609
2026-01-05 01:08:28.12	217.38	33.05	-54.0	-56.4	13.9	0.00e+00	0	28	0	1021313024	73	4969
2026-01-05 01:08:32.12	217.21	32.22	-54.5	-57.1	13.6	0.00e+00	0	28	0	1028653056	74	5084
2026-01-05 01:08:36.10	217.05	31.41	-54.4	-57.0	13.7	0.00e+00	0	28	0	1035993088	74	4995
2026-01-05 01:08:40.09	216.89	30.63	-54.4	-56.9	13.8	0.00e+00	0	28	0	1043333120	75	4694
2026-01-05 01:08:44.10	216.74	29.86	-54.5	-57.2	13.6	0.00e+00	0	28	0	1051721728	75	4834
2026-01-05 01:08:48.08	216.61	29.11	-53.9	-56.3	13.9	0.00e+00	0	28	0	1059061760	74	4627
2026-01-05 01:08:52.08	216.47	28.38	-52.9	-54.9	14.4	0.00e+00	0	28	0	1066401792	72	4421
2026-01-05 01:08:56.08	216.35	27.67	-53.2	-55.3	14.2	0.00e+00	0	28	0	1073741824	72	4636
2026-01-05 01:09:00.08	216.23	26.98	-53.1	-55.2	14.3	0.00e+00	0	28	0	1081081856	72	4557
2026-01-05 01:09:04.08	216.11	26.31	-52.4	-54.3	14.5	0.00e+00	0	28	0	1088421888	71	4349
2026-01-05 01:09:08.07	216.00	25.65	-52.2	-54.1	14.5	0.00e+00	0	28	0	1095761920	70	4502
2026-01-05 01:09:12.08	215.90	25.00	-52.5	-54.4	14.4	0.00e+00	0	28	0	1104150528	70	4703
2026-01-05 01:09:16.09	215.80	24.37	-52.7	-54.8	14.2	0.00e+00	0	28	0	1111490560	70	4877
2026-01-05 01:09:20.09	215.70	23.76	-53.8	-55.9	14.0	0.00e+00	0	28	0	1118830592	72	4970
2026-01-05 01:09:24.08	215.61	23.16	-54.2	-56.5	13.9	0.00e+00	0	28	0	1126170624	74	4727
2026-01-05 01:09:28.05	215.53	22.58	-54.0	-56.1	14.1	0.00e+00	0	28	0	1133510656	74	4506
2026-01-05 01:09:32.04	215.44	22.01	-52.8	-54.5	14.5	0.00e+00	0	28	0	1140850688	72	4233
2026-01-05 01:09:36.02	215.36	21.45	-52.2	-53.8	14.7	0.00e+00	0	28	0	1148190720	71	4132
2026-01-05 01:09:40.01	215.29	20.91	-52.6	-54.4	14.4	0.00e+00	0	28	0	1155530752	70	4677
2026-01-05 01:09:44.01	215.21	20.37	-52.7	-54.5	14.4	0.00e+00	0	28	0	1163919360	70	4745
2026-01-05 01:09:48.02	215.14	19.84	-52.1	-53.7	14.6	0.00e+00	0	28	0	1171259392	70	4326
2026-01-05 01:09:52.02	215.07	19.33	-52.3	-53.9	14.6	0.00e+00	0	28	0	1178599424	70	4434
2026-01-05 01:09:56.02	215.01	18.82	-52.4	-54.1	14.5	0.00e+00	0	28	0	1185939456	70	4507
2026-01-05 01:10:00.01	214.95	18.33	-53.5	-55.5	14.1	0.00e+00	0	28	0	1193279488	72	4749
2026-01-05 01:10:04.00	214.89	17.85	-54.5	-56.8	13.6	0.00e+00	0	28	0	1200619520	74	4918
2026-01-05 01:10:07.99	214.83	17.37	-54.8	-57.3	13.5	0.00e+00	0	28	0	1209008128	75	4918
2026-01-05 01:10:11.97	214.77	16.91	-54.9	-57.5	13.4	0.00e+00	0	28	0	1216348160	75	5010
2026-01-05 01:10:15.97	214.72	16.45	-54.8	-57.3	13.4	0.00e+00	0	28	0	1223688192	75	4908
2026-01-05 01:10:19.96	214.67	16.00	-54.9	-57.6	13.4	0.00e+00	0	28	0	1231028224	75	5042
2026-01-05 01:10:23.95	214.62	15.56	-54.9	-57.5	13.4	0.00e+00	0	28	0	1238368256	75	5017
2026-01-05 01:10:27.95	214.57	15.13	-55.3	-58.2	13.0	0.00e+00	0	28	0	1245708288	75	5436
2026-01-05 01:10:31.93	214.52	14.70	-55.3	-58.3	12.9	0.00e+00	0	28	0	1253048320	75	5468
2026-01-05 01:10:35.91	214.48	14.29	-55.2	-58.0	13.2	0.00e+00	0	28	0	1260388352	76	5008
2026-01-05 01:10:39.91	214.44	13.88	-55.0	-57.7	13.4	0.00e+00	0	28	0	1268776960	76	4815
2026-01-05 01:10:43.90	214.40	13.47	-54.4	-56.8	13.7	0.00e+00	0	28	0	1276116992	75	4642
2026-01-05 01:10:47.88	214.36	13.08	-54.2	-56.6	13.7	0.00e+00	0	28	0	1283457024	74	4779
2026-01-05 01:10:51.88	214.32	12.68	-53.9	-56.2	13.9	0.00e+00	0	28	0	1290797056	74	4581
2026-01-05 01:10:55.87	214.28	12.30	-53.9	-56.1	13.9	0.00e+00	0	28	0	1298137088	74	4529
2026-01-05 01:10:59.87	214.24	11.92	-54.1	-56.4	13.8	0.00e+00	0	28	0	1305477120	74	4671
2026-01-05 01:11:03.86	214.21	11.55	-54.1	-56.5	13.7	0.00e+00	0	28	0	1312817152	74	4734
2026-01-05 01:11:07.87	214.18	11.18	-54.3	-56.7	13.6	0.00e+00	0	28	0	1321205760	74	4838
2026-01-05 01:11:11.85	214.14	10.82	-54.2	-56.7	13.6	0.00e+00	0	28	0	1328545792	74	4817
2026-01-05 01:11:15.85	214.11	10.46	-54.3	-56.7	13.6	0.00e+00	0	28	0	1335885824	74	4854
2026-01-05 01:11:19.85	214.08	10.11	-54.0	-56.4	13.7	0.00e+00	0	28	0	1343225856	74	4680
2026-01-05 01:11:23.84	214.05	9.76	-54.2	-56.6	13.6	0.00e+00	0	28	0	1350565888	74	4786
2026-01-05 01:11:27.82	214.03	9.42	-54.0	-56.3	13.8	0.00e+00	0	28	0	1357905920	74	4628
2026-01-05 01:11:31.80	214.00	9.08	-54.1	-56.6	13.6	0.00e+00	0	28	0	1365245952	74	4776
2026-01-05 01:11:35.81	213.97	8.75	-54.1	-56.5	13.6	0.00e+00	0	28	0	1373634560	74	4743
2026-01-05 01:11:39.79	213.95	8.42	-54.1	-56.6	13.6	0.00e+00	0	28	0	1380974592	74	4791
2026-01-05 01:11:43.78	213.92	8.10	-54.1	-56.6	13.6	0.00e+00	0	28	0	1388314624	74	4791
2026-01-05 01:11:47.78	213.90	7.78	-54.2	-56.7	13.5	0.00e+00	0	28	0	1395654656	74	4828
2026-01-05 01:11:51.77	213.88	7.46	-54.3	-56.9	13.4	0.00e+00	0	28	0	1402994688	74	4970
2026-01-05 01:11:55.78	213.86	7.15	-54.4	-57.0	13.3	0.00e+00	0	28	0	1410334720	74	5031
2026-01-05 01:11:59.77	213.83	6.84	-54.5	-57.3	13.1	0.00e+00	0	28	0	1417674752	74	5161
2026-01-05 01:12:03.77	213.81	6.53	-54.5	-57.2	13.2	0.00e+00	0	28	0	1426063360	74	5140
2026-01-05 01:12:07.75	213.79	6.23	-54.6	-57.5	13.0	0.00e+00	0	28	0	1433403392	74	5294
2026-01-05 01:12:11.76	213.77	5.93	-54.7	-57.6	12.9	0.00e+00	0	28	0	1440743424	74	5374
2026-01-05 01:12:15.76	213.76	5.64	-54.8	-57.8	12.8	0.00e+00	0	28	0	1448083456	75	5184
2026-01-05 01:12:19.74	213.74	5.35	-54.7	-57.7	12.8	0.00e+00	0	28	0	1455423488	75	5151
2026-01-05 01:12:23.73	213.72	5.06	-54.9	-58.0	12.6	0.00e+00	0	28	0	1462763520	75	5329
2026-01-05 01:12:27.71	213.70	4.78	-60.0	-76.0	3.8	1.49e+00	0	28	104	1464860672	85	23791
2026-01-05 01:12:31.67	213.69	4.50	-60.4	-76.4	3.8	1.49e+00	0	28	104	1464860672	85	24807
2026-01-05 01:12:35.65	213.67	4.22	-60.6	-76.7	3.8	1.49e+00	0	28	104	1464860672	86	24246
2026-01-05 01:12:39.63	213.66	3.94	-60.8	-76.8	3.8	1.49e+00	0	28	104	1464860672	86	24628
2026-01-05 01:12:43.63	213.64	3.67	-60.9	-76.9	3.8	1.49e+00	0	28	104	1464860672	86	24974
2026-01-05 01:12:47.64	213.63	3.40	-61.0	-77.0	3.8	1.49e+00	0	28	104	1464860672	87	23790
2026-01-05 01:12:51.63	213.62	3.13	-60.9	-77.0	3.8	1.49e+00	0	28	104	1464860672	87	23601
2026-01-05 01:12:55.62	213.60	2.86	-60.9	-76.9	3.8	1.49e+00	0	28	104	1464860672	87	23472
2026-01-05 01:12:59.62	213.59	2.60	-60.8	-76.9	3.8	1.49e+00	0	28	104	1464860672	87	23383
2026-01-05 01:13:03.61	213.58	2.34	-60.8	-76.9	3.8	1.49e+00	0	28	104	1464860672	87	23324
2026-01-05 01:13:07.61	213.57	2.08	-60.8	-76.8	3.8	1.49e+00	0	28	104	1464860672	87	23273

#Closed at: 2026-01-05 01:13:11
#Recorded file [1464 MB]: D:/lorett/data/31004_260105_035844.dat