passes_logs/2026/01/05/R3.2S_Murmansk/R3.2S_Murmansk__20260105_194124_TY-42_rec.log

#Pass ID: 20260105_194124_TY-42
#Satellite: TY-42
#Configuration: TY-42_900M
#almurnet v.1.7.20251203
#Start time: 2026-01-05 19:41:26

#Version: 2.2.20231116
#Station: R3.2S_Murmansk
#Location: 33.079688 lon 68.888172 lat
#TLE: 1 64048U 25103A   26005.68684028  .00008011  00000-0  38191-3 0 09993
#TLE: 2 64048 097.4106 081.2795 0001725 092.4682 306.5290 15.19173644 35407

#Time	Az	El	Level	Level2	SNR	BER	BlckErr	Temp	State	Recorded	gain1	gain2
2026-01-05 19:41:26.70	181.79	2.28	-57.8	-61.0	6.1	0.00e+00	0	31	0	0	82	20775
2026-01-05 19:41:29.70	181.93	2.49	-57.8	-61.0	6.2	0.00e+00	0	31	104	0	82	20758
2026-01-05 19:41:32.69	182.07	2.69	-57.8	-61.0	6.2	0.00e+00	0	31	104	0	82	20771
2026-01-05 19:41:35.69	182.22	2.91	-57.8	-61.0	6.1	0.00e+00	0	32	104	0	82	20792
2026-01-05 19:41:38.68	182.37	3.12	-57.8	-61.0	6.2	0.00e+00	0	32	104	0	82	20826
2026-01-05 19:41:41.68	182.52	3.33	-57.8	-61.0	6.1	0.00e+00	0	32	104	0	82	20796
2026-01-05 19:41:44.68	182.67	3.55	-57.8	-61.1	6.1	0.00e+00	0	32	104	0	82	20874
2026-01-05 19:41:47.68	182.83	3.77	-57.8	-61.1	6.1	0.00e+00	0	32	104	0	82	20912
2026-01-05 19:41:50.68	182.99	3.99	-57.8	-61.1	6.2	0.00e+00	0	32	104	0	82	20917
2026-01-05 19:41:53.66	183.15	4.21	-57.8	-61.1	6.2	0.00e+00	0	32	104	0	82	20934
2026-01-05 19:41:56.66	183.32	4.44	-57.8	-61.1	6.2	0.00e+00	0	33	104	0	82	20931
2026-01-05 19:41:59.65	183.49	4.66	-57.8	-61.1	6.2	0.00e+00	0	33	104	0	82	20932
2026-01-05 19:42:02.64	183.66	4.89	-57.9	-61.1	6.2	0.00e+00	0	33	104	0	82	20963
2026-01-05 19:42:05.63	183.83	5.13	-57.9	-61.2	6.2	0.00e+00	0	33	104	0	82	21132
2026-01-05 19:42:08.63	184.01	5.36	-58.0	-61.2	6.1	0.00e+00	0	33	104	0	82	21302
2026-01-05 19:42:11.62	184.19	5.60	-58.0	-61.2	6.1	0.00e+00	0	33	104	0	82	21230
2026-01-05 19:42:14.61	184.38	5.84	-57.9	-61.1	6.2	0.00e+00	0	33	104	0	82	21024
2026-01-05 19:42:17.59	184.57	6.08	-58.0	-61.2	6.2	0.00e+00	0	33	104	0	82	21237
2026-01-05 19:42:20.59	184.76	6.33	-58.1	-61.4	6.1	0.00e+00	0	33	104	0	82	21665
2026-01-05 19:42:23.59	184.96	6.58	-58.0	-61.3	6.2	0.00e+00	0	33	104	0	82	21491
2026-01-05 19:42:26.58	185.16	6.83	-58.0	-61.2	6.1	0.00e+00	0	33	104	0	82	21354
2026-01-05 19:42:29.59	185.36	7.09	-58.1	-61.3	6.2	0.00e+00	0	33	104	0	82	21602
2026-01-05 19:42:32.59	185.57	7.34	-58.2	-61.5	6.2	0.00e+00	0	34	104	0	82	21889
2026-01-05 19:42:35.58	185.78	7.61	-44.8	-45.1	10.1	0.00e+00	0	34	104	0	57	14063
2026-01-05 19:42:38.58	186.00	7.87	-42.4	-42.7	12.3	1.26e-02	0	35	0	276824064	52	14138
2026-01-05 19:42:41.59	186.23	8.14	-42.1	-42.4	12.3	5.68e-02	0	35	0	612368384	51	14553
2026-01-05 19:42:44.58	186.45	8.41	-42.0	-42.3	12.4	7.43e-03	0	35	0	947912704	51	14302
2026-01-05 19:42:47.57	186.69	8.69	-41.7	-42.0	12.4	6.02e-03	0	35	0	1291845632	50	14759
2026-01-05 19:42:50.58	186.92	8.97	-41.6	-41.9	12.5	4.47e-03	0	35	0	1627389952	50	14552
2026-01-05 19:42:53.57	187.17	9.25	-41.5	-41.8	12.5	3.70e-03	0	36	0	1962934272	50	14333
2026-01-05 19:42:56.58	187.42	9.54	-41.3	-41.6	12.4	3.45e-03	0	36	0	2298478592	49	14918
2026-01-05 19:42:59.57	187.67	9.83	-41.2	-41.5	12.4	4.21e-03	0	36	0	2642411520	49	14668
2026-01-05 19:43:02.57	187.93	10.13	-41.4	-41.7	12.4	4.21e-03	0	36	0	2977955840	49	15044
2026-01-05 19:43:05.57	188.20	10.43	-41.0	-41.3	12.5	3.53e-03	0	36	0	3313500160	49	14290
2026-01-05 19:43:08.56	188.47	10.73	-40.9	-41.1	12.6	3.70e-03	0	37	0	3649044480	49	14111
2026-01-05 19:43:11.56	188.75	11.04	-40.8	-41.0	12.6	2.84e-03	0	36	0	3984588800	48	14752
2026-01-05 19:43:14.55	189.04	11.35	-40.7	-40.9	12.6	2.68e-03	0	37	0	4320133120	48	14555
2026-01-05 19:43:17.55	189.34	11.67	-40.5	-40.7	12.7	1.80e-03	0	37	0	4655677440	48	14248
2026-01-05 19:43:20.54	189.64	11.99	-40.5	-40.8	12.7	1.91e-03	0	37	0	4999610368	48	14383
2026-01-05 19:43:23.55	189.95	12.32	-39.3	-39.6	12.6	1.69e-03	0	37	0	5335154688	45	14911
2026-01-05 19:43:26.56	190.27	12.66	-39.4	-39.7	12.6	1.95e-03	0	37	0	5679087616	45	14951
2026-01-05 19:43:29.56	190.60	13.00	-39.3	-39.6	12.6	1.81e-03	0	37	0	6014631936	45	14813
2026-01-05 19:43:32.57	190.93	13.34	-39.2	-39.5	12.7	1.88e-03	0	37	0	6350176256	45	14699
2026-01-05 19:43:35.58	191.28	13.69	-38.9	-39.1	12.8	1.35e-03	0	37	0	6685720576	45	14089
2026-01-05 19:43:38.58	191.63	14.05	-38.7	-39.0	12.8	1.21e-03	0	37	0	7029653504	44	14710
2026-01-05 19:43:41.56	192.00	14.41	-38.7	-39.0	12.8	1.06e-03	0	37	0	7365197824	44	14655
2026-01-05 19:43:44.56	192.37	14.78	-38.5	-38.8	12.9	1.21e-03	0	38	0	7700742144	44	14356
2026-01-05 19:43:47.56	192.76	15.15	-38.5	-38.8	12.9	6.72e-04	0	38	0	8036286464	44	14306
2026-01-05 19:43:50.55	193.15	15.53	-38.5	-38.7	12.9	6.68e-04	0	38	0	8380219392	44	14259
2026-01-05 19:43:53.56	193.56	15.92	-38.3	-38.5	12.9	5.86e-04	0	38	0	8715763712	43	14766
2026-01-05 19:43:56.55	193.98	16.32	-38.1	-38.4	12.9	4.43e-04	0	38	0	9042919424	43	14498
2026-01-05 19:43:59.53	194.41	16.71	-37.9	-38.2	13.0	4.20e-04	0	38	0	9386852352	43	14162
2026-01-05 19:44:02.52	194.86	17.12	-37.7	-37.9	13.0	2.57e-04	0	38	0	9722396672	42	14577
2026-01-05 19:44:05.50	195.32	17.54	-37.4	-37.7	13.1	2.19e-04	0	38	0	10057940992	42	14120
2026-01-05 19:44:08.49	195.79	17.96	-37.5	-37.8	13.1	2.19e-04	0	38	0	10393485312	42	14291
2026-01-05 19:44:11.48	196.28	18.39	-37.5	-37.8	13.1	1.62e-04	0	38	0	10729029632	42	14289
2026-01-05 19:44:14.46	196.78	18.82	-37.0	-37.3	13.1	1.62e-04	0	38	0	11064573952	41	14363
2026-01-05 19:44:17.44	197.30	19.27	-36.9	-37.2	13.1	1.52e-04	0	38	0	11400118272	41	14202
2026-01-05 19:44:20.42	197.84	19.72	-36.9	-37.2	13.1	1.19e-04	0	38	0	11735662592	40	14955
2026-01-05 19:44:23.41	198.39	20.18	-36.8	-37.0	13.1	1.19e-04	0	38	0	12071206912	40	14693
2026-01-05 19:44:26.40	198.97	20.65	-36.6	-36.9	13.2	8.58e-05	0	38	0	12406751232	40	14475
2026-01-05 19:44:29.38	199.56	21.13	-36.4	-36.7	13.2	3.81e-05	0	38	0	12742295552	40	14217
2026-01-05 19:44:32.37	200.18	21.62	-36.2	-36.5	13.2	6.67e-05	0	38	0	13077839872	39	14662
2026-01-05 19:44:35.34	200.82	22.11	-36.0	-36.3	13.2	5.72e-05	0	38	0	13413384192	39	14375
2026-01-05 19:44:38.34	201.48	22.62	-36.0	-36.2	13.2	2.38e-05	0	38	0	13748928512	39	14250
2026-01-05 19:44:41.31	202.16	23.13	-35.8	-36.0	13.2	4.29e-05	0	38	0	14084472832	38	14734
2026-01-05 19:44:44.30	202.87	23.65	-35.6	-35.8	13.2	3.33e-05	0	38	0	14420017152	38	14419
2026-01-05 19:44:47.29	203.61	24.18	-35.4	-35.6	13.3	3.33e-05	0	38	0	14755561472	38	14102
2026-01-05 19:44:50.27	204.37	24.72	-35.2	-35.5	13.3	3.81e-05	0	38	0	15091105792	37	14661
2026-01-05 19:44:53.25	205.16	25.26	-34.9	-35.2	13.3	1.90e-05	0	38	0	15426650112	37	14154
2026-01-05 19:44:56.22	205.98	25.82	-34.8	-35.1	13.3	9.50e-06	0	38	0	15762194432	36	14792
2026-01-05 19:44:59.21	206.84	26.38	-34.5	-34.8	13.3	4.70e-06	0	38	0	16097738752	36	14334
2026-01-05 19:45:02.18	207.73	26.95	-34.4	-34.7	13.4	4.70e-06	0	38	0	16433283072	36	14137
2026-01-05 19:45:05.14	208.64	27.52	-31.7	-32.0	13.3	2.38e-05	0	38	0	16760438784	30	14611
2026-01-05 19:45:08.12	209.60	28.11	-31.4	-31.7	13.3	2.38e-05	0	38	0	17104371712	30	14124
2026-01-05 19:45:11.09	210.60	28.70	-31.3	-31.6	13.3	1.43e-05	0	38	0	17431527424	29	14779
2026-01-05 19:45:14.08	211.64	29.30	-31.1	-31.4	13.3	4.70e-06	0	38	0	17767071744	29	14462
2026-01-05 19:45:17.07	212.72	29.91	-30.9	-31.1	13.4	4.70e-06	0	38	0	18111004672	29	14103
2026-01-05 19:45:20.05	213.85	30.52	-30.5	-30.7	13.4	4.70e-06	0	39	0	18438160384	28	14235
2026-01-05 19:45:23.02	215.02	31.13	-30.4	-30.6	13.3	1.90e-05	0	38	0	18773704704	27	14940
2026-01-05 19:45:26.00	216.24	31.74	-30.1	-30.4	13.4	4.70e-06	0	38	0	19109249024	27	14466
2026-01-05 19:45:28.97	217.50	32.35	-30.0	-30.3	13.4	4.70e-06	0	39	0	19444793344	27	14319
2026-01-05 19:45:31.95	218.82	32.97	-29.7	-30.0	13.4	0.00e+00	0	38	0	19780337664	26	14711
2026-01-05 19:45:34.94	220.20	33.58	-29.7	-29.9	13.4	0.00e+00	0	39	0	20115881984	26	14567
2026-01-05 19:45:37.92	221.63	34.19	-29.5	-29.8	13.5	4.70e-06	0	39	0	20451426304	26	14325
2026-01-05 19:45:40.90	223.12	34.80	-29.5	-29.8	13.5	0.00e+00	0	39	0	20786970624	26	14319
2026-01-05 19:45:43.87	224.66	35.39	-29.3	-29.6	13.5	0.00e+00	0	39	0	21122514944	25	14795
2026-01-05 19:45:46.87	226.27	35.98	-29.1	-29.3	13.5	0.00e+00	0	39	0	21458059264	25	14419
2026-01-05 19:45:49.85	227.94	36.55	-29.0	-29.2	13.5	0.00e+00	0	39	0	21793603584	25	14244
2026-01-05 19:45:52.85	229.68	37.11	-28.8	-29.1	13.5	0.00e+00	0	39	0	22137536512	24	14866
2026-01-05 19:45:55.85	231.48	37.66	-28.7	-28.9	13.5	0.00e+00	0	39	0	22473080832	24	14605
2026-01-05 19:45:58.84	233.34	38.18	-28.6	-28.8	13.5	0.00e+00	0	39	0	22800236544	24	14377
2026-01-05 19:46:01.82	235.25	38.67	-28.5	-28.7	13.6	0.00e+00	0	39	0	23144169472	24	14256
2026-01-05 19:46:04.81	237.23	39.14	-28.3	-28.5	13.5	0.00e+00	0	39	0	23479713792	23	14744
2026-01-05 19:46:07.81	239.27	39.58	-28.3	-28.6	13.5	0.00e+00	0	39	0	23815258112	23	14789
2026-01-05 19:46:10.78	241.35	39.98	-28.0	-28.3	13.6	0.00e+00	0	39	0	24150802432	23	14326
2026-01-05 19:46:13.78	243.50	40.35	-27.9	-28.2	13.6	4.70e-06	0	39	0	24486346752	23	14176
2026-01-05 19:46:16.76	245.69	40.67	-27.8	-28.1	13.5	0.00e+00	0	39	0	24821891072	22	14831
2026-01-05 19:46:19.75	247.92	40.96	-27.8	-28.0	13.5	0.00e+00	0	39	0	25157435392	22	14742
2026-01-05 19:46:22.75	250.20	41.19	-27.8	-28.1	13.5	0.00e+00	0	39	0	25492979712	22	14846
2026-01-05 19:46:25.75	252.51	41.39	-27.9	-28.2	13.5	0.00e+00	0	39	0	25828524032	22	14957
2026-01-05 19:46:28.75	254.85	41.53	-27.8	-28.1	13.5	0.00e+00	0	39	0	26172456960	22	14868
2026-01-05 19:46:31.74	257.19	41.62	-27.9	-28.1	13.5	4.70e-06	0	39	0	26508001280	22	14931
2026-01-05 19:46:34.74	259.56	41.66	-27.9	-28.1	13.5	0.00e+00	0	39	0	26843545600	22	14916
2026-01-05 19:46:37.73	261.91	41.65	-27.9	-28.2	13.5	0.00e+00	0	39	0	27179089920	22	15037
2026-01-05 19:46:40.73	264.27	41.59	-27.9	-28.2	13.5	0.00e+00	0	39	0	27514634240	22	14948
2026-01-05 19:46:43.72	266.61	41.47	-28.1	-28.3	13.4	0.00e+00	0	39	0	27858567168	22	15259
2026-01-05 19:46:46.72	268.94	41.31	-28.0	-28.3	13.4	4.70e-06	0	39	0	28194111488	22	15159
2026-01-05 19:46:49.70	271.22	41.10	-27.8	-28.1	13.5	0.00e+00	0	39	0	28521267200	22	14844
2026-01-05 19:46:52.67	273.46	40.84	-27.9	-28.2	13.5	0.00e+00	0	39	0	28865200128	22	14985
2026-01-05 19:46:55.66	275.67	40.54	-28.1	-28.4	13.5	0.00e+00	0	39	0	29200744448	22	15373
2026-01-05 19:46:58.66	277.85	40.19	-28.3	-28.6	13.4	0.00e+00	0	39	0	29536288768	22	15706
2026-01-05 19:47:01.63	279.95	39.81	-28.5	-28.7	13.4	0.00e+00	0	39	0	29871833088	22	15993
2026-01-05 19:47:04.62	282.01	39.40	-28.6	-28.8	13.4	0.00e+00	0	39	0	30207377408	22	16181
2026-01-05 19:47:07.61	284.02	38.95	-28.6	-28.8	13.4	0.00e+00	0	39	0	30542921728	22	16180
2026-01-05 19:47:10.59	285.97	38.47	-28.7	-29.0	13.4	0.00e+00	0	39	0	30878466048	23	15560
2026-01-05 19:47:13.56	287.84	37.97	-28.7	-29.0	13.5	0.00e+00	0	39	0	31214010368	23	15529
2026-01-05 19:47:16.55	289.67	37.44	-28.8	-29.1	13.5	0.00e+00	0	39	0	31549554688	23	15694
2026-01-05 19:47:19.52	291.42	36.90	-28.9	-29.1	13.6	0.00e+00	0	39	0	31885099008	23	15791
2026-01-05 19:47:22.50	293.12	36.34	-29.1	-29.3	13.5	0.00e+00	0	39	0	32220643328	23	16197
2026-01-05 19:47:25.49	294.77	35.76	-29.2	-29.5	13.5	0.00e+00	0	39	0	32556187648	24	15595
2026-01-05 19:47:28.47	296.34	35.17	-29.3	-29.6	13.6	0.00e+00	0	39	0	32891731968	24	15766
2026-01-05 19:47:31.46	297.87	34.57	-29.5	-29.8	13.5	0.00e+00	0	39	0	33227276288	24	16137
2026-01-05 19:47:34.44	299.33	33.97	-29.7	-29.9	13.5	0.00e+00	0	39	0	33562820608	25	15438
2026-01-05 19:47:37.41	300.72	33.36	-29.7	-29.9	13.5	0.00e+00	0	39	0	33898364928	25	15452
2026-01-05 19:47:40.41	302.08	32.75	-29.8	-30.1	13.5	0.00e+00	0	39	0	34233909248	25	15781
2026-01-05 19:47:43.41	303.39	32.13	-30.0	-30.3	13.5	0.00e+00	0	39	0	34569453568	25	16164
2026-01-05 19:47:46.39	304.63	31.52	-30.2	-30.5	13.5	0.00e+00	0	39	0	34904997888	26	15546
2026-01-05 19:47:49.37	305.83	30.91	-30.4	-30.7	13.5	0.00e+00	0	39	0	35240542208	26	15877
2026-01-05 19:47:52.36	306.98	30.30	-30.6	-30.8	13.4	0.00e+00	0	39	0	35576086528	26	16180
2026-01-05 19:47:55.35	308.09	29.69	-30.7	-31.0	13.4	4.70e-06	0	39	0	35911630848	27	15571
2026-01-05 19:47:58.34	309.15	29.09	-31.0	-31.3	13.4	1.43e-05	0	39	0	36247175168	27	16058
2026-01-05 19:48:01.32	310.17	28.50	-31.2	-31.5	13.3	9.50e-06	0	39	0	36582719488	28	15592
2026-01-05 19:48:04.32	311.16	27.91	-31.4	-31.7	13.3	2.86e-05	0	39	0	36926652416	28	15924
2026-01-05 19:48:07.30	312.10	27.33	-31.5	-31.8	13.3	1.43e-05	0	39	0	37262196736	28	16019
2026-01-05 19:48:10.29	313.01	26.75	-31.6	-31.9	13.3	1.43e-05	0	39	0	37589352448	29	15412
2026-01-05 19:48:13.28	313.88	26.19	-31.9	-32.1	13.3	3.81e-05	0	39	0	37933285376	29	15815
2026-01-05 19:48:16.25	314.71	25.63	-31.9	-32.2	13.3	1.90e-05	0	39	0	38260441088	29	15936
2026-01-05 19:48:19.23	315.52	25.08	-32.3	-32.5	13.2	6.67e-05	0	39	0	38595985408	30	15630
2026-01-05 19:48:22.22	316.30	24.54	-32.5	-32.8	13.2	6.67e-05	0	39	0	38939918336	30	16043
2026-01-05 19:48:25.21	317.05	24.01	-32.7	-33.0	13.2	5.72e-05	0	39	0	39275462656	31	15539
2026-01-05 19:48:28.20	317.78	23.48	-32.9	-33.1	13.2	1.00e-04	0	39	0	39611006976	31	15793
2026-01-05 19:48:31.19	318.48	22.97	-33.1	-33.3	13.2	1.00e-04	0	39	0	39946551296	31	16193
2026-01-05 19:48:34.18	319.15	22.46	-33.2	-33.5	13.2	1.62e-04	0	39	0	40282095616	32	15487
2026-01-05 19:48:37.17	319.80	21.96	-33.3	-33.6	13.2	1.76e-04	0	39	0	40617639936	32	15717
2026-01-05 19:48:40.17	320.43	21.47	-33.2	-33.5	13.2	1.14e-04	0	39	0	40953184256	32	15560
2026-01-05 19:48:43.15	321.03	20.99	-33.4	-33.7	13.2	1.81e-04	0	39	0	41288728576	32	15913
2026-01-05 19:48:46.13	321.62	20.52	-33.6	-33.8	13.2	9.06e-04	0	39	0	41624272896	32	16183
2026-01-05 19:48:49.13	322.19	20.06	-33.8	-34.1	13.1	1.01e-03	0	39	0	41959817216	33	15713
2026-01-05 19:48:52.12	322.73	19.60	-33.9	-34.2	13.1	1.00e-03	0	39	0	42303750144	33	15914
2026-01-05 19:48:55.12	323.27	19.15	-34.1	-34.4	13.1	1.06e-03	0	39	0	42639294464	33	16236
2026-01-05 19:48:58.11	323.78	18.71	-34.2	-34.5	13.1	1.27e-03	0	39	0	42974838784	34	15554
2026-01-05 19:49:01.11	324.28	18.28	-34.5	-34.7	13.1	1.11e-03	0	39	0	43310383104	34	15996
2026-01-05 19:49:04.10	324.76	17.85	-34.5	-34.8	13.1	1.38e-03	0	39	0	43645927424	34	16119
2026-01-05 19:49:07.07	325.22	17.44	-34.8	-35.1	13.0	1.85e-03	0	39	0	43981471744	35	15675
2026-01-05 19:49:10.05	325.67	17.03	-34.9	-35.2	13.0	1.92e-03	0	39	0	44317016064	35	15946
2026-01-05 19:49:13.05	326.11	16.63	-35.1	-35.3	13.0	1.98e-03	0	39	0	44652560384	35	16192
2026-01-05 19:49:16.05	326.54	16.23	-37.6	-37.9	13.1	1.87e-03	0	39	0	44988104704	41	15373
2026-01-05 19:49:19.05	326.96	15.84	-37.5	-37.8	13.1	7.34e-04	0	39	0	45323649024	41	15215
2026-01-05 19:49:22.03	327.36	15.46	-37.8	-38.1	13.1	6.29e-04	0	39	0	45667581952	41	15680
2026-01-05 19:49:25.04	327.75	15.08	-38.0	-38.3	13.1	7.87e-04	0	39	0	46003126272	41	16078
2026-01-05 19:49:28.05	328.13	14.71	-38.1	-38.3	13.0	1.03e-03	0	39	0	46338670592	41	16184
2026-01-05 19:49:31.03	328.50	14.35	-38.2	-38.5	13.1	1.02e-03	0	39	0	46674214912	42	15496
2026-01-05 19:49:34.04	328.86	13.99	-38.4	-38.6	13.0	1.26e-03	0	39	0	47009759232	42	15818
2026-01-05 19:49:37.04	329.21	13.64	-38.4	-38.7	13.0	1.26e-03	0	39	0	47353692160	42	15912
2026-01-05 19:49:40.04	329.55	13.29	-38.4	-38.7	13.0	1.26e-03	0	39	0	47689236480	42	15956
2026-01-05 19:49:43.05	329.89	12.95	-38.6	-38.9	13.0	1.65e-03	0	39	0	48024780800	43	15334
2026-01-05 19:49:46.05	330.21	12.62	-38.7	-39.1	12.9	2.30e-03	0	39	0	48368713728	43	15656
2026-01-05 19:49:49.05	330.52	12.29	-39.0	-39.3	12.9	2.97e-03	0	40	0	48704258048	43	16041
2026-01-05 19:49:52.05	330.83	11.96	-39.1	-39.4	12.8	3.79e-03	0	40	0	49048190976	44	15421
2026-01-05 19:49:55.06	331.13	11.64	-39.3	-39.6	12.8	4.53e-03	0	39	0	49383735296	44	15688
2026-01-05 19:49:58.05	331.42	11.33	-39.4	-39.7	12.8	4.40e-03	0	40	0	49719279616	44	15878
2026-01-05 19:50:01.06	331.71	11.01	-39.6	-39.9	12.8	4.48e-03	0	39	0	50054823936	45	15434
2026-01-05 19:50:04.07	331.99	10.71	-39.6	-39.9	12.8	4.94e-03	0	40	0	50390368256	45	15417
2026-01-05 19:50:07.07	332.26	10.41	-39.8	-40.1	12.7	5.11e-03	0	40	0	50734301184	45	15699
2026-01-05 19:50:10.06	332.53	10.11	-39.9	-40.2	12.7	5.54e-03	0	39	0	51069845504	45	15907
2026-01-05 19:50:13.06	332.78	9.82	-39.9	-40.3	12.6	7.58e-03	0	40	0	51405389824	45	16045
2026-01-05 19:50:16.07	333.04	9.53	-40.1	-40.4	12.6	7.83e-03	0	40	0	51740934144	45	16326
2026-01-05 19:50:19.06	333.29	9.24	-40.1	-40.4	12.6	8.84e-03	0	39	0	52084867072	46	15443
2026-01-05 19:50:22.05	333.53	8.96	-40.4	-40.7	12.6	8.97e-03	0	40	0	52412022784	46	15959
2026-01-05 19:50:25.04	333.76	8.69	-40.6	-40.9	12.5	9.91e-03	0	39	0	52747567104	46	16221
2026-01-05 19:50:28.04	333.99	8.41	-40.7	-41.0	12.5	1.10e-02	0	39	0	53091500032	47	15596
2026-01-05 19:50:31.03	334.22	8.15	-40.8	-41.2	12.5	1.18e-02	0	39	0	53427044352	47	15855
2026-01-05 19:50:34.03	334.44	7.88	-40.8	-41.2	12.5	1.19e-02	0	39	0	53762588672	47	15877
2026-01-05 19:50:37.03	334.66	7.62	-41.0	-41.4	12.4	1.27e-02	0	39	0	54098132992	47	16265
2026-01-05 19:50:40.02	334.87	7.36	-41.9	-42.2	12.6	9.23e-03	0	40	0	54442065920	49	15913
2026-01-05 19:50:43.02	335.08	7.10	-42.1	-42.4	12.6	9.34e-03	0	40	0	54777610240	50	15364
2026-01-05 19:50:46.00	335.28	6.85	-42.2	-42.5	12.5	1.06e-02	0	40	0	55104765952	50	15541
2026-01-05 19:50:48.97	335.48	6.60	-42.1	-42.5	12.5	1.10e-02	0	40	0	55448698880	50	15480
2026-01-05 19:50:51.95	335.68	6.36	-42.4	-42.8	12.4	1.13e-02	0	39	0	55775854592	50	16027
2026-01-05 19:50:54.94	335.87	6.11	-42.6	-42.9	12.3	1.28e-02	0	39	0	56111398912	50	16323
2026-01-05 19:50:57.93	336.06	5.87	-42.7	-43.0	12.3	1.44e-02	0	40	0	56455331840	51	15634
2026-01-05 19:51:00.91	336.24	5.63	-42.8	-43.1	12.3	1.57e-02	0	39	0	56790876160	51	15707
2026-01-05 19:51:03.91	336.42	5.40	-42.8	-43.2	12.2	1.73e-02	0	39	0	57126420480	51	15918
2026-01-05 19:51:06.89	336.60	5.17	-42.9	-43.2	12.2	1.87e-02	0	40	0	57461964800	51	15985
2026-01-05 19:51:09.88	336.78	4.93	-53.0	-54.1	7.8	1.55e-02	15	39	104	57780731904	71	17581
2026-01-05 19:51:12.88	336.95	4.71	-59.8	-63.1	6.2	1.55e-02	0	39	104	57780731904	85	22113
2026-01-05 19:51:15.87	337.12	4.48	-60.3	-63.4	6.2	1.55e-02	0	39	104	57780731904	86	21815
2026-01-05 19:51:18.88	337.28	4.26	-60.5	-63.5	6.1	0.00e+00	0	39	104	57780731904	86	22019
2026-01-05 19:51:21.88	337.45	4.03	-60.7	-63.9	6.1	0.00e+00	0	39	104	57780731904	87	21693
2026-01-05 19:51:24.86	337.61	3.82	-60.8	-64.0	6.1	0.00e+00	0	38	104	57780731904	87	22048
2026-01-05 19:51:27.85	337.76	3.60	-60.8	-64.1	6.2	0.00e+00	0	38	104	57780731904	87	22234
2026-01-05 19:51:30.83	337.92	3.38	-60.9	-64.1	6.2	0.00e+00	0	38	104	57780731904	87	22217
2026-01-05 19:51:33.83	338.07	3.17	-60.7	-64.0	6.2	0.00e+00	0	38	104	57780731904	87	21966
2026-01-05 19:51:36.82	338.22	2.96	-60.7	-64.0	6.2	0.00e+00	0	38	104	57780731904	87	21900
2026-01-05 19:51:39.82	338.37	2.75	-60.7	-63.9	6.2	0.00e+00	0	38	104	57780731904	87	21735
2026-01-05 19:51:42.79	338.51	2.55	-60.7	-63.9	6.2	0.00e+00	0	38	104	57780731904	87	21825
2026-01-05 19:51:45.79	338.65	2.34	-60.6	-63.8	6.2	0.00e+00	0	38	104	57780731904	87	21583
2026-01-05 19:51:48.78	338.79	2.14	-60.6	-63.9	6.2	0.00e+00	0	38	104	57780731904	87	21613
2026-01-05 19:51:51.78	338.93	1.94	-60.6	-63.8	6.2	0.00e+00	0	38	104	57780731904	87	21545
2026-01-05 19:51:54.77	339.07	1.74	-60.6	-63.8	6.2	0.00e+00	0	38	104	57780731904	87	21502

#Closed at: 2026-01-05 19:51:55
#Recorded file [57780 MB]: D:/lorett/data/31004_260105_224126.dat