passes_logs/2026/01/05/R3.2S_Murmansk/R3.2S_Murmansk__20260105_083758_FENGYUN_3D_rec.log

#Pass ID: 20260105_083758_FENGYUN 3D
#Satellite: FENGYUN 3D
#Configuration: FENGYUN 3D
#almurnet v.1.7.20251203
#Start time: 2026-01-05 08:38:00

#Version: 2.2.20231116
#Station: R3.2S_Murmansk
#Location: 33.079688 lon 68.888172 lat
#TLE: 1 43010U 17072A   26004.50247883 -.00000063  00000+0 -78815-5 0  9998
#TLE: 2 43010  98.9915 336.1565 0001968 126.3752 233.7605 14.19691805421760

#Time	Az	El	Level	Level2	SNR	BER	BlckErr	Temp	State	Recorded	gain1	gain2
2026-01-05 08:38:00.81	87.24	2.11	-58.1	-71.1	3.8	8.46e-01	0	25	0	0	82	16031
2026-01-05 08:38:04.79	87.02	2.35	-58.0	-71.0	3.8	8.47e-01	0	25	104	0	81	16787
2026-01-05 08:38:08.77	86.80	2.59	-58.0	-71.0	3.8	8.46e-01	0	25	104	0	81	16766
2026-01-05 08:38:12.74	86.57	2.82	-58.0	-71.0	3.8	8.45e-01	0	25	104	0	81	16869
2026-01-05 08:38:16.72	86.34	3.06	-58.1	-71.1	3.8	8.46e-01	0	26	104	0	81	16921
2026-01-05 08:38:20.68	86.10	3.31	-58.0	-70.9	3.8	8.45e-01	0	26	104	0	81	16620
2026-01-05 08:38:24.67	85.86	3.55	-58.0	-71.0	3.8	8.46e-01	0	26	104	0	81	16869
2026-01-05 08:38:28.65	85.62	3.79	-58.0	-70.9	3.8	8.44e-01	0	26	104	0	81	16571
2026-01-05 08:38:32.62	85.37	4.04	-58.0	-71.0	3.8	8.46e-01	0	26	104	0	81	16840
2026-01-05 08:38:36.61	85.12	4.29	-57.9	-69.0	3.8	8.45e-01	0	26	104	0	81	13272
2026-01-05 08:38:40.59	84.86	4.54	-57.3	-64.8	5.2	7.47e-01	0	26	0	0	81	8270
2026-01-05 08:38:44.54	84.60	4.79	-55.5	-59.5	9.3	1.51e-02	0	26	0	19922944	77	5637
2026-01-05 08:38:48.51	84.33	5.04	-54.3	-57.4	10.9	9.95e-05	0	26	0	41943040	74	5262
2026-01-05 08:38:52.49	84.06	5.30	-51.6	-53.5	13.3	1.22e-02	0	27	0	63963136	70	4238
2026-01-05 08:38:56.47	83.78	5.56	-49.4	-51.0	14.1	0.00e+00	0	26	0	87031808	65	4217
2026-01-05 08:39:00.46	83.50	5.82	-49.5	-51.0	14.2	0.00e+00	0	26	0	109051904	65	4223
2026-01-05 08:39:04.43	83.21	6.08	-49.4	-50.9	14.2	0.00e+00	0	26	0	131072000	65	4189
2026-01-05 08:39:08.39	82.92	6.34	-49.4	-51.0	14.2	0.00e+00	0	27	0	153092096	65	4213
2026-01-05 08:39:12.37	82.62	6.60	-49.2	-50.8	14.3	0.00e+00	0	27	0	176160768	65	4112
2026-01-05 08:39:16.34	82.32	6.87	-49.3	-50.9	14.1	0.00e+00	0	27	0	198180864	64	4425
2026-01-05 08:39:20.32	82.01	7.14	-49.0	-50.6	14.3	0.00e+00	0	27	0	221249536	64	4261
2026-01-05 08:39:24.28	81.69	7.41	-49.2	-50.8	14.3	0.00e+00	0	27	0	243269632	64	4342
2026-01-05 08:39:28.25	81.37	7.68	-49.1	-50.7	14.3	0.00e+00	0	26	0	265289728	64	4302
2026-01-05 08:39:32.22	81.04	7.96	-48.9	-50.4	14.4	0.00e+00	0	27	0	287309824	64	4193
2026-01-05 08:39:36.21	80.70	8.23	-48.7	-50.2	14.5	0.00e+00	0	27	0	310378496	64	4069
2026-01-05 08:39:40.18	80.36	8.51	-48.8	-50.2	14.4	0.00e+00	0	27	0	332398592	63	4331
2026-01-05 08:39:44.17	80.01	8.80	-48.8	-50.3	14.4	0.00e+00	0	27	0	355467264	63	4351
2026-01-05 08:39:48.14	79.66	9.08	-48.6	-50.0	14.5	0.00e+00	0	27	0	377487360	63	4217
2026-01-05 08:39:52.12	79.29	9.36	-48.5	-50.0	14.5	0.00e+00	0	27	0	399507456	63	4194
2026-01-05 08:39:56.08	78.93	9.65	-48.4	-49.9	14.6	0.00e+00	0	27	0	421527552	63	4146
2026-01-05 08:40:00.06	78.55	9.94	-48.2	-49.6	14.7	0.00e+00	0	27	0	444596224	63	4041
2026-01-05 08:40:04.03	78.16	10.23	-48.1	-49.5	14.6	0.00e+00	0	27	0	466616320	62	4220
2026-01-05 08:40:08.00	77.77	10.53	-47.9	-49.3	14.7	0.00e+00	0	27	0	488636416	62	4131
2026-01-05 08:40:11.98	77.36	10.82	-48.0	-49.3	14.7	0.00e+00	0	27	0	511705088	62	4135
2026-01-05 08:40:15.95	76.95	11.12	-48.1	-49.4	14.7	0.00e+00	0	27	0	533725184	62	4185
2026-01-05 08:40:19.91	76.54	11.42	-48.1	-49.4	14.7	0.00e+00	0	27	0	555745280	62	4149
2026-01-05 08:40:23.90	76.11	11.72	-48.1	-49.3	14.7	0.00e+00	0	27	0	578813952	62	4124
2026-01-05 08:40:27.88	75.67	12.03	-48.0	-49.3	14.8	0.00e+00	0	27	0	600834048	62	4106
2026-01-05 08:40:31.83	75.22	12.33	-48.0	-49.2	14.8	0.00e+00	0	27	0	622854144	62	4080
2026-01-05 08:40:35.81	74.77	12.64	-47.8	-49.0	14.9	0.00e+00	0	27	0	645922816	62	3978
2026-01-05 08:40:39.77	74.30	12.95	-47.8	-49.0	14.7	0.00e+00	0	27	0	667942912	61	4216
2026-01-05 08:40:43.75	73.82	13.26	-47.6	-48.8	14.8	0.00e+00	0	27	0	689963008	61	4101
2026-01-05 08:40:47.73	73.34	13.58	-47.6	-48.8	14.9	0.00e+00	0	27	0	711983104	61	4126
2026-01-05 08:40:51.71	72.84	13.90	-47.4	-48.6	14.9	0.00e+00	0	27	0	735051776	61	4006
2026-01-05 08:40:55.68	72.33	14.22	-47.1	-48.3	14.9	0.00e+00	0	27	0	757071872	60	4108
2026-01-05 08:40:59.66	71.81	14.54	-47.0	-48.2	15.0	0.00e+00	0	27	0	779091968	60	4065
2026-01-05 08:41:03.63	71.28	14.86	-47.0	-48.1	15.0	0.00e+00	0	27	0	802160640	60	4037
2026-01-05 08:41:07.60	70.73	15.18	-47.0	-48.2	14.9	0.00e+00	0	27	0	824180736	60	4065
2026-01-05 08:41:11.56	70.18	15.51	-46.9	-48.0	15.0	0.00e+00	0	27	0	846200832	60	3991
2026-01-05 08:41:15.53	69.61	15.83	-46.9	-48.0	15.0	0.00e+00	0	27	0	869269504	60	3987
2026-01-05 08:41:19.52	69.03	16.16	-46.7	-47.9	15.1	0.00e+00	0	27	0	891289600	60	3920
2026-01-05 08:41:23.50	68.43	16.50	-46.8	-47.9	15.1	0.00e+00	0	27	0	913309696	60	3932
2026-01-05 08:41:27.46	67.83	16.83	-46.8	-47.9	15.1	0.00e+00	0	27	0	936378368	60	3948
2026-01-05 08:41:31.43	67.21	17.16	-46.8	-47.9	15.0	0.00e+00	0	27	0	958398464	59	4159
2026-01-05 08:41:35.39	66.57	17.49	-46.6	-47.7	15.0	0.00e+00	0	27	0	980418560	59	4098
2026-01-05 08:41:39.36	65.92	17.82	-46.7	-47.9	15.0	0.00e+00	0	27	0	1003487232	59	4162
2026-01-05 08:41:43.33	65.26	18.16	-46.5	-47.6	15.1	0.00e+00	0	27	0	1025507328	59	4046
2026-01-05 08:41:47.30	64.58	18.49	-46.4	-47.5	15.1	0.00e+00	0	27	0	1047527424	59	3973
2026-01-05 08:41:51.28	63.88	18.83	-46.6	-47.7	15.0	0.00e+00	0	27	0	1069547520	59	4090
2026-01-05 08:41:55.26	63.17	19.16	-46.6	-47.8	15.0	0.00e+00	0	27	0	1092616192	59	4100
2026-01-05 08:41:59.24	62.44	19.50	-46.6	-47.7	15.1	0.00e+00	0	27	0	1114636288	59	4089
2026-01-05 08:42:03.21	61.70	19.83	-46.6	-47.7	15.1	0.00e+00	0	27	0	1136656384	59	4063
2026-01-05 08:42:07.18	60.94	20.17	-46.4	-47.5	15.1	0.00e+00	0	27	0	1159725056	59	3973
2026-01-05 08:42:11.16	60.16	20.50	-46.3	-47.4	15.2	0.00e+00	0	27	0	1181745152	59	3927
2026-01-05 08:42:15.12	59.37	20.83	-45.9	-47.0	15.2	0.00e+00	0	27	0	1203765248	58	3967
2026-01-05 08:42:19.09	58.56	21.16	-45.9	-47.0	15.1	0.00e+00	0	27	0	1225785344	58	3996
2026-01-05 08:42:23.06	57.73	21.49	-45.8	-46.9	15.2	0.00e+00	0	27	0	1248854016	58	3916
2026-01-05 08:42:27.04	56.88	21.82	-45.8	-46.9	15.2	0.00e+00	0	27	0	1270874112	58	3930
2026-01-05 08:42:31.02	56.02	22.14	-46.0	-47.1	15.1	0.00e+00	0	27	0	1293942784	58	4029
2026-01-05 08:42:34.99	55.13	22.46	-45.8	-46.9	15.2	0.00e+00	0	27	0	1315962880	58	3945
2026-01-05 08:42:38.96	54.23	22.77	-45.8	-46.8	15.2	0.00e+00	0	27	0	1337982976	58	3897
2026-01-05 08:42:42.94	53.31	23.09	-45.7	-46.8	15.1	0.00e+00	0	27	0	1360003072	57	4099
2026-01-05 08:42:46.92	52.37	23.40	-45.7	-46.8	15.1	0.00e+00	0	27	0	1383071744	57	4114
2026-01-05 08:42:50.90	51.41	23.70	-45.7	-46.8	15.1	0.00e+00	0	27	0	1405091840	57	4138
2026-01-05 08:42:54.88	50.43	24.00	-45.5	-46.6	15.2	0.00e+00	0	27	0	1428160512	57	4038
2026-01-05 08:42:58.85	49.44	24.29	-45.5	-46.5	15.2	0.00e+00	0	27	0	1450180608	57	3997
2026-01-05 08:43:02.81	48.43	24.57	-45.7	-46.8	15.1	0.00e+00	0	27	0	1472200704	57	4118
2026-01-05 08:43:06.78	47.39	24.85	-45.4	-46.5	15.2	0.00e+00	0	27	0	1494220800	57	3980
2026-01-05 08:43:10.76	46.34	25.12	-45.1	-46.2	15.2	0.00e+00	0	27	0	1517289472	56	4055
2026-01-05 08:43:14.75	45.27	25.39	-45.3	-46.3	15.1	0.00e+00	0	27	0	1539309568	56	4140
2026-01-05 08:43:18.72	44.18	25.64	-45.3	-46.4	15.1	0.00e+00	0	27	0	1561329664	56	4165
2026-01-05 08:43:22.69	43.08	25.88	-45.5	-46.5	15.1	0.00e+00	0	27	0	1584398336	56	4237
2026-01-05 08:43:26.65	41.96	26.12	-45.3	-46.4	15.1	0.00e+00	0	27	0	1606418432	56	4181
2026-01-05 08:43:30.63	40.82	26.34	-45.0	-46.1	15.2	0.00e+00	0	27	0	1628438528	56	4011
2026-01-05 08:43:34.60	39.67	26.56	-45.3	-46.3	15.1	0.00e+00	0	27	0	1651507200	56	4132
2026-01-05 08:43:38.56	38.51	26.76	-45.0	-46.0	15.2	0.00e+00	0	27	0	1673527296	56	3993
2026-01-05 08:43:42.55	37.32	26.95	-45.2	-46.2	15.1	0.00e+00	0	27	0	1695547392	56	4092
2026-01-05 08:43:46.52	36.12	27.13	-44.9	-46.0	15.2	0.00e+00	0	27	0	1718616064	56	3976
2026-01-05 08:43:50.49	34.92	27.29	-44.9	-45.9	15.2	0.00e+00	0	27	0	1740636160	56	3953
2026-01-05 08:43:54.46	33.70	27.45	-44.9	-45.9	15.3	0.00e+00	0	27	0	1762656256	56	3940
2026-01-05 08:43:58.45	32.46	27.58	-44.9	-45.9	15.3	0.00e+00	0	27	0	1784676352	56	3946
2026-01-05 08:44:02.42	31.21	27.71	-44.7	-45.7	15.2	0.00e+00	0	27	0	1807745024	55	4077
2026-01-05 08:44:06.41	29.96	27.82	-44.6	-45.7	15.2	0.00e+00	0	27	0	1829765120	55	4074
2026-01-05 08:44:10.38	28.70	27.91	-44.4	-45.4	15.3	0.00e+00	0	27	0	1852833792	55	3948
2026-01-05 08:44:14.35	27.43	27.99	-44.1	-45.1	15.2	0.00e+00	0	27	0	1874853888	54	4050
2026-01-05 08:44:18.32	26.16	28.05	-44.4	-45.5	15.1	0.00e+00	0	27	0	1896873984	54	4207
2026-01-05 08:44:22.29	24.88	28.10	-44.5	-45.5	15.1	0.00e+00	0	27	0	1918894080	54	4213
2026-01-05 08:44:26.26	23.60	28.13	-44.5	-45.5	15.1	0.00e+00	0	27	0	1941962752	54	4228
2026-01-05 08:44:30.25	22.32	28.15	-44.6	-45.7	15.1	0.00e+00	0	27	0	1963982848	54	4293
2026-01-05 08:44:34.22	21.03	28.15	-44.6	-45.6	15.1	0.00e+00	0	27	0	1986002944	54	4275
2026-01-05 08:44:38.21	19.75	28.13	-44.5	-45.5	15.1	0.00e+00	0	27	0	2009071616	54	4228
2026-01-05 08:44:42.16	18.47	28.10	-44.4	-45.4	15.1	0.00e+00	0	27	0	2031091712	54	4187
2026-01-05 08:44:46.14	17.19	28.05	-44.6	-45.6	15.1	0.00e+00	0	27	0	2053111808	54	4266
2026-01-05 08:44:50.11	15.92	27.99	-44.7	-45.8	15.1	0.00e+00	0	27	0	2076180480	54	4364
2026-01-05 08:44:54.07	14.66	27.91	-44.6	-45.6	15.2	0.00e+00	0	27	0	2098200576	55	4034
2026-01-05 08:44:58.05	13.40	27.82	-44.4	-45.4	15.3	0.00e+00	0	27	0	2120220672	55	3952
2026-01-05 08:45:02.03	12.14	27.71	-44.6	-45.6	15.2	0.00e+00	0	27	0	2143289344	55	4047
2026-01-05 08:45:06.00	10.90	27.58	-44.6	-45.6	15.2	0.00e+00	0	27	0	2165309440	55	4039
2026-01-05 08:45:09.98	9.67	27.45	-44.5	-45.5	15.2	0.00e+00	0	27	0	2187329536	55	3984
2026-01-05 08:45:13.94	8.45	27.29	-44.3	-45.3	15.3	0.00e+00	0	27	0	2209349632	55	3891
2026-01-05 08:45:17.91	7.24	27.13	-44.4	-45.4	15.3	0.00e+00	0	27	0	2232418304	55	3927
2026-01-05 08:45:21.88	6.05	26.95	-44.5	-45.5	15.2	0.00e+00	0	27	0	2254438400	55	4003
2026-01-05 08:45:25.87	4.86	26.76	-44.8	-45.9	15.1	0.00e+00	0	27	0	2277507072	55	4150
2026-01-05 08:45:29.86	3.69	26.56	-44.6	-45.6	15.2	0.00e+00	0	27	0	2299527168	55	4045
2026-01-05 08:45:33.82	2.54	26.34	-44.6	-45.6	15.2	0.00e+00	0	27	0	2321547264	55	4034
2026-01-05 08:45:37.79	1.40	26.12	-44.6	-45.6	15.2	0.00e+00	0	27	0	2343567360	55	4020
2026-01-05 08:45:41.76	0.28	25.88	-44.5	-45.6	15.2	0.00e+00	0	27	0	2366636032	55	4011
2026-01-05 08:45:45.74	359.18	25.64	-44.6	-45.6	15.2	0.00e+00	0	27	0	2388656128	55	4027
2026-01-05 08:45:49.72	358.09	25.38	-44.8	-45.9	15.1	0.00e+00	0	27	0	2411724800	55	4155
2026-01-05 08:45:53.68	357.03	25.12	-45.2	-46.2	15.0	0.00e+00	0	27	0	2433744896	55	4319
2026-01-05 08:45:57.66	355.98	24.85	-45.0	-46.0	15.1	0.00e+00	0	27	0	2455764992	55	4239
2026-01-05 08:46:01.63	354.95	24.57	-45.1	-46.1	15.1	0.00e+00	0	27	0	2477785088	55	4272
2026-01-05 08:46:05.61	353.93	24.29	-45.1	-46.2	15.1	0.00e+00	0	27	0	2500853760	55	4299
2026-01-05 08:46:09.58	352.94	24.00	-44.9	-45.9	15.1	0.00e+00	0	27	0	2522873856	55	4184
2026-01-05 08:46:13.55	351.96	23.70	-45.0	-46.0	15.1	0.00e+00	0	27	0	2544893952	55	4238
2026-01-05 08:46:17.53	351.01	23.40	-45.2	-46.2	15.0	0.00e+00	0	27	0	2567962624	55	4333
2026-01-05 08:46:21.49	350.07	23.09	-45.1	-46.2	15.1	0.00e+00	0	27	0	2589982720	55	4316
2026-01-05 08:46:25.47	349.15	22.78	-45.1	-46.2	15.1	0.00e+00	0	27	0	2612002816	55	4312
2026-01-05 08:46:29.46	348.25	22.46	-45.6	-46.6	15.0	0.00e+00	0	27	0	2635071488	56	4285
2026-01-05 08:46:33.44	347.36	22.14	-45.6	-46.6	15.0	0.00e+00	0	27	0	2657091584	56	4288
2026-01-05 08:46:37.42	346.50	21.82	-45.8	-46.9	15.0	0.00e+00	0	27	0	2679111680	56	4403
2026-01-05 08:46:41.40	345.65	21.49	-46.0	-47.0	15.0	0.00e+00	0	27	0	2702180352	57	4241
2026-01-05 08:46:45.37	344.82	21.17	-45.8	-46.9	15.1	0.00e+00	0	27	0	2724200448	57	4165
2026-01-05 08:46:49.34	344.01	20.84	-45.8	-46.8	15.1	0.00e+00	0	27	0	2746220544	57	4137
2026-01-05 08:46:53.32	343.22	20.50	-45.9	-47.0	15.1	0.00e+00	0	27	0	2769289216	57	4204
2026-01-05 08:46:57.29	342.44	20.17	-46.1	-47.1	15.0	0.00e+00	0	27	0	2791309312	57	4287
2026-01-05 08:47:01.28	341.68	19.84	-46.1	-47.1	15.0	0.00e+00	0	27	0	2813329408	57	4286
2026-01-05 08:47:05.25	340.94	19.50	-45.9	-46.9	15.1	0.00e+00	0	27	0	2836398080	57	4172
2026-01-05 08:47:09.25	340.21	19.17	-46.0	-47.1	15.0	0.00e+00	0	27	0	2858418176	57	4259
2026-01-05 08:47:13.23	339.50	18.83	-46.3	-47.5	14.9	0.00e+00	0	27	0	2880438272	57	4453
2026-01-05 08:47:17.21	338.80	18.49	-46.4	-47.5	14.9	0.00e+00	0	27	0	2903506944	57	4450
2026-01-05 08:47:21.20	338.12	18.16	-46.6	-47.7	14.9	0.00e+00	0	27	0	2925527040	58	4330
2026-01-05 08:47:25.16	337.46	17.83	-46.8	-47.9	14.9	0.00e+00	0	27	0	2948595712	58	4421
2026-01-05 08:47:29.13	336.81	17.49	-46.6	-47.7	14.9	0.00e+00	0	28	0	2970615808	58	4336
2026-01-05 08:47:33.10	336.18	17.16	-46.7	-47.8	14.9	0.00e+00	0	28	0	2992635904	58	4362
2026-01-05 08:47:37.08	335.56	16.83	-46.9	-48.0	14.9	0.00e+00	0	27	0	3014656000	58	4457
2026-01-05 08:47:41.05	334.95	16.50	-47.0	-48.2	14.9	0.00e+00	0	27	0	3037724672	59	4314
2026-01-05 08:47:45.04	334.36	16.16	-47.1	-48.3	14.9	0.00e+00	0	27	0	3059744768	59	4348
2026-01-05 08:47:49.00	333.78	15.84	-47.1	-48.2	14.9	0.00e+00	0	27	0	3081764864	59	4337
2026-01-05 08:47:52.97	333.21	15.51	-47.3	-48.4	14.8	0.00e+00	0	27	0	3104833536	59	4436
2026-01-05 08:47:56.95	332.66	15.19	-47.1	-48.3	14.9	0.00e+00	0	27	0	3126853632	60	4115
2026-01-05 08:48:00.93	332.11	14.86	-47.3	-48.4	14.9	0.00e+00	0	27	0	3148873728	60	4180
2026-01-05 08:48:04.89	331.58	14.54	-47.0	-48.1	15.0	0.00e+00	0	27	0	3170893824	60	4033
2026-01-05 08:48:08.87	331.07	14.22	-47.1	-48.2	15.0	0.00e+00	0	27	0	3193962496	60	4077
2026-01-05 08:48:12.86	330.56	13.90	-47.1	-48.2	15.0	0.00e+00	0	27	0	3215982592	60	4080
2026-01-05 08:48:16.83	330.06	13.58	-47.1	-48.3	14.9	0.00e+00	0	27	0	3239051264	60	4112
2026-01-05 08:48:20.82	329.57	13.27	-47.5	-48.6	14.8	0.00e+00	0	27	0	3261071360	60	4282
2026-01-05 08:48:24.79	329.10	12.96	-47.5	-48.7	14.8	0.00e+00	0	27	0	3283091456	60	4328
2026-01-05 08:48:28.77	328.63	12.64	-47.6	-48.8	14.7	0.00e+00	0	27	0	3306160128	60	4371
2026-01-05 08:48:32.73	328.18	12.34	-47.7	-48.9	14.7	0.00e+00	0	27	0	3328180224	60	4430
2026-01-05 08:48:36.71	327.73	12.03	-47.7	-48.9	14.7	0.00e+00	0	27	0	3350200320	60	4416
2026-01-05 08:48:40.70	327.29	11.72	-47.7	-48.9	14.7	0.00e+00	0	27	0	3373268992	60	4427
2026-01-05 08:48:44.67	326.87	11.42	-47.9	-49.1	14.7	0.00e+00	0	27	0	3395289088	61	4276
2026-01-05 08:48:48.66	326.45	11.12	-48.1	-49.3	14.7	0.00e+00	0	27	0	3417309184	61	4375
2026-01-05 08:48:52.63	326.04	10.82	-48.1	-49.4	14.6	0.00e+00	0	27	0	3440377856	61	4398
2026-01-05 08:48:56.60	325.64	10.53	-48.2	-49.4	14.6	0.00e+00	0	27	0	3462397952	61	4414
2026-01-05 08:49:00.58	325.25	10.24	-48.1	-49.4	14.6	0.00e+00	0	27	0	3484418048	61	4407
2026-01-05 08:49:04.56	324.86	9.94	-48.4	-49.7	14.5	0.00e+00	0	27	0	3507486720	61	4549
2026-01-05 08:49:08.53	324.49	9.65	-48.6	-49.9	14.5	0.00e+00	0	27	0	3529506816	62	4393
2026-01-05 08:49:12.52	324.11	9.37	-48.5	-49.8	14.5	0.00e+00	0	27	0	3551526912	62	4372
2026-01-05 08:49:16.50	323.75	9.08	-48.5	-49.8	14.6	0.00e+00	0	27	0	3574595584	62	4341
2026-01-05 08:49:20.46	323.40	8.80	-48.5	-49.8	14.5	0.00e+00	0	27	0	3596615680	62	4361
2026-01-05 08:49:24.44	323.05	8.52	-48.7	-50.0	14.5	0.00e+00	0	27	0	3618635776	62	4446
2026-01-05 08:49:28.39	322.71	8.24	-48.6	-49.9	14.5	0.00e+00	0	28	0	3640655872	62	4408
2026-01-05 08:49:32.38	322.38	7.96	-48.8	-50.1	14.4	0.00e+00	0	27	0	3663724544	62	4540
2026-01-05 08:49:36.36	322.05	7.69	-48.7	-50.0	14.4	0.00e+00	0	27	0	3685744640	62	4488
2026-01-05 08:49:40.33	321.73	7.42	-48.8	-50.1	14.4	0.00e+00	0	27	0	3708813312	62	4537
2026-01-05 08:49:44.29	321.42	7.15	-48.9	-50.2	14.4	0.00e+00	0	27	0	3730833408	63	4339
2026-01-05 08:49:48.26	321.11	6.88	-49.1	-50.4	14.3	0.00e+00	0	27	0	3752853504	63	4436
2026-01-05 08:49:52.22	320.81	6.61	-48.9	-50.3	14.4	0.00e+00	0	27	0	3774873600	63	4362
2026-01-05 08:49:56.20	320.51	6.35	-49.1	-50.5	14.3	0.00e+00	0	27	0	3797942272	63	4459
2026-01-05 08:50:00.18	320.22	6.09	-49.2	-50.6	14.2	0.00e+00	0	27	0	3819962368	63	4544
2026-01-05 08:50:04.13	319.93	5.83	-49.3	-50.7	14.2	0.00e+00	0	27	0	3841982464	63	4596
2026-01-05 08:50:08.10	319.65	5.57	-49.5	-50.9	14.2	0.00e+00	0	27	0	3864002560	64	4438
2026-01-05 08:50:12.10	319.38	5.31	-49.7	-51.2	14.0	0.00e+00	0	27	0	3887071232	64	4563
2026-01-05 08:50:16.07	319.11	5.05	-49.5	-51.0	14.1	0.00e+00	0	27	0	3909091328	64	4453
2026-01-05 08:50:20.08	318.84	4.80	-59.8	-72.9	3.8	8.46e-01	0	27	104	3914334208	84	17482
2026-01-05 08:50:24.11	318.57	4.54	-60.5	-73.6	3.9	8.45e-01	0	28	104	3914334208	86	16895
2026-01-05 08:50:28.12	318.32	4.29	-60.8	-73.9	3.8	8.46e-01	0	28	104	3914334208	86	17563
2026-01-05 08:50:32.14	318.06	4.04	-61.0	-74.1	3.8	8.46e-01	0	27	104	3914334208	87	16967
2026-01-05 08:50:36.16	317.81	3.79	-61.0	-74.1	3.8	8.46e-01	0	27	104	3914334208	87	16995
2026-01-05 08:50:40.16	317.57	3.55	-60.9	-74.0	3.8	8.44e-01	0	27	104	3914334208	87	16746
2026-01-05 08:50:44.13	317.33	3.30	-60.9	-74.0	3.8	8.46e-01	0	28	104	3914334208	87	16743
2026-01-05 08:50:48.11	317.10	3.06	-60.8	-73.9	3.8	8.45e-01	0	28	104	3914334208	87	16636
2026-01-05 08:50:52.08	316.87	2.82	-60.8	-73.9	3.8	8.45e-01	0	28	104	3914334208	87	16569
2026-01-05 08:50:56.06	316.64	2.58	-60.8	-73.9	3.8	8.46e-01	0	27	104	3914334208	87	16532
2026-01-05 08:51:00.05	316.42	2.35	-60.6	-73.8	3.8	8.45e-01	0	28	104	3914334208	87	16467
2026-01-05 08:51:04.02	316.20	2.11	-60.7	-73.9	3.8	8.46e-01	0	27	104	3914334208	87	16506

#Closed at: 2026-01-05 08:51:06
#Recorded file [3914 MB]: D:/lorett/data/31004_260105_113800.dat