passes_logs/2026/01/05/R3.2S_Murmansk/R3.2S_Murmansk__20260105_070709_NOAA_21_JPSS-2_rec.log

#Pass ID: 20260105_070709_NOAA 21 (JPSS-2)
#Satellite: NOAA 21 (JPSS-2)
#Configuration: NOAA-21
#almurnet v.1.7.20251203
#Start time: 2026-01-05 07:12:00

#Version: 2.2.20231116
#Station: R3.2S_Murmansk
#Location: 33.079688 lon 68.888172 lat
#TLE: 1 54234U 22150A   26004.43991293  .00000169  00000+0  10108-3 0  9998
#TLE: 2 54234  98.7489 305.4680 0001107 344.3033  15.8108 14.19531967163313

#Time	Az	El	Level	Level2	SNR	BER	BlckErr	Temp	State	Recorded	gain1	gain2
2026-01-05 07:12:00.99	63.83	25.31	-60.8	-73.9	3.8	8.46e-01	0	27	0	0	87	16625
2026-01-05 07:12:03.99	63.10	25.58	-60.9	-74.8	3.8	1.49e+00	0	27	104	0	87	18306
2026-01-05 07:12:06.99	62.35	25.85	-60.8	-74.6	3.8	1.49e+00	0	27	104	0	87	17965
2026-01-05 07:12:09.98	61.59	26.12	-60.5	-74.5	3.8	1.49e+00	0	27	104	0	86	18839
2026-01-05 07:12:12.98	60.82	26.38	-60.5	-74.3	3.8	1.49e+00	0	27	104	0	86	18342
2026-01-05 07:12:15.98	60.03	26.65	-60.4	-74.2	3.8	1.49e+00	0	28	104	0	86	18137
2026-01-05 07:12:18.97	59.24	26.90	-60.3	-74.1	3.8	1.49e+00	0	27	104	0	86	18015
2026-01-05 07:12:21.98	58.42	27.16	-60.3	-74.1	3.8	1.49e+00	0	28	104	0	86	17937
2026-01-05 07:12:24.97	57.60	27.41	-60.3	-73.9	3.8	1.49e+00	0	27	104	0	86	17658
2026-01-05 07:12:27.96	56.77	27.65	-60.3	-74.1	3.8	1.49e+00	0	28	104	0	86	17910
2026-01-05 07:12:30.96	55.91	27.89	-60.3	-74.0	3.8	1.49e+00	0	28	104	0	86	17825
2026-01-05 07:12:33.95	55.05	28.13	-60.2	-74.0	3.8	1.49e+00	0	28	104	0	86	17755
2026-01-05 07:12:36.94	54.18	28.36	-60.2	-73.9	3.8	1.49e+00	0	28	104	0	86	17606
2026-01-05 07:12:39.93	53.29	28.58	-60.2	-73.9	3.9	1.49e+00	0	27	104	0	86	17623
2026-01-05 07:12:42.92	52.40	28.80	-60.1	-73.3	3.8	1.49e+00	0	28	104	0	86	16379
2026-01-05 07:12:45.92	51.48	29.01	-60.1	-73.3	3.8	1.49e+00	0	28	104	0	86	16379
2026-01-05 07:12:48.93	50.55	29.22	-60.1	-72.4	3.8	1.49e+00	0	28	104	0	86	14756
2026-01-05 07:12:51.94	49.61	29.42	-59.7	-68.7	4.8	1.20e+00	0	28	104	0	86	9647
2026-01-05 07:12:54.93	48.67	29.61	-54.0	-55.9	13.3	0.00e+00	0	28	0	8388608	74	4395
2026-01-05 07:12:57.92	47.71	29.79	-51.9	-53.3	14.3	0.00e+00	0	28	0	17825792	70	4135
2026-01-05 07:13:00.92	46.74	29.97	-49.6	-50.7	14.7	0.00e+00	0	28	0	27262976	65	4096
2026-01-05 07:13:03.92	45.76	30.13	-49.8	-51.0	14.6	0.00e+00	0	27	0	36700160	65	4242
2026-01-05 07:13:06.92	44.77	30.29	-49.9	-51.2	14.6	0.00e+00	0	28	0	46137344	65	4308
2026-01-05 07:13:09.91	43.77	30.44	-49.7	-51.0	14.6	0.00e+00	0	28	0	55574528	65	4198
2026-01-05 07:13:12.92	42.75	30.58	-49.7	-51.0	14.6	0.00e+00	0	28	0	65011712	65	4209
2026-01-05 07:13:15.91	41.74	30.71	-50.0	-51.3	14.5	0.00e+00	0	27	0	74448896	65	4375
2026-01-05 07:13:18.91	40.71	30.83	-49.9	-51.2	14.5	0.00e+00	0	28	0	83886080	65	4308
2026-01-05 07:13:21.91	39.68	30.94	-49.7	-50.9	14.6	0.00e+00	0	27	0	93323264	65	4186
2026-01-05 07:13:24.90	38.64	31.04	-49.6	-50.8	14.7	0.00e+00	0	27	0	102760448	65	4136
2026-01-05 07:13:27.89	37.60	31.14	-49.5	-50.7	14.7	0.00e+00	0	28	0	111149056	65	4085
2026-01-05 07:13:30.87	36.55	31.21	-49.6	-50.8	14.7	0.00e+00	0	27	0	120586240	65	4120
2026-01-05 07:13:33.85	35.50	31.28	-49.8	-51.0	14.6	0.00e+00	0	27	0	130023424	65	4241
2026-01-05 07:13:36.85	34.44	31.34	-49.9	-51.2	14.6	0.00e+00	0	27	0	139460608	65	4294
2026-01-05 07:13:39.84	33.38	31.39	-49.9	-51.2	14.5	0.00e+00	0	27	0	148897792	65	4318
2026-01-05 07:13:42.83	32.32	31.42	-50.2	-51.5	14.4	0.00e+00	0	27	0	158334976	65	4490
2026-01-05 07:13:45.83	31.25	31.45	-49.9	-51.2	14.5	0.00e+00	0	27	0	167772160	65	4326
2026-01-05 07:13:48.82	30.18	31.46	-49.6	-50.8	14.7	0.00e+00	0	28	0	177209344	65	4137
2026-01-05 07:13:51.82	29.11	31.47	-49.9	-51.2	14.5	0.00e+00	0	27	0	186646528	65	4330
2026-01-05 07:13:54.81	28.04	31.46	-50.1	-51.4	14.4	0.00e+00	0	28	0	196083712	65	4433
2026-01-05 07:13:57.80	26.98	31.44	-49.7	-50.9	14.6	0.00e+00	0	27	0	205520896	65	4186
2026-01-05 07:14:00.79	25.91	31.41	-49.5	-50.8	14.7	0.00e+00	0	27	0	214958080	65	4111
2026-01-05 07:14:03.79	24.85	31.36	-49.1	-50.3	14.7	0.00e+00	0	27	0	223346688	64	4109
2026-01-05 07:14:06.79	23.79	31.31	-49.6	-50.8	14.6	0.00e+00	0	27	0	232783872	64	4376
2026-01-05 07:14:09.78	22.73	31.25	-49.3	-50.5	14.7	0.00e+00	0	28	0	242221056	64	4196
2026-01-05 07:14:12.77	21.68	31.17	-49.5	-50.7	14.6	0.00e+00	0	27	0	251658240	64	4325
2026-01-05 07:14:15.76	20.64	31.08	-49.7	-51.0	14.5	0.00e+00	0	28	0	261095424	64	4465
2026-01-05 07:14:18.76	19.59	30.99	-49.4	-50.6	14.6	0.00e+00	0	28	0	270532608	64	4277
2026-01-05 07:14:21.75	18.56	30.88	-49.6	-50.8	14.5	0.00e+00	0	28	0	279969792	64	4384
2026-01-05 07:14:24.74	17.54	30.77	-50.1	-51.4	14.4	0.00e+00	0	28	0	289406976	65	4436
2026-01-05 07:14:27.73	16.52	30.64	-50.4	-51.7	14.4	0.00e+00	0	28	0	298844160	66	4321
2026-01-05 07:14:30.71	15.51	30.50	-49.8	-51.1	14.7	0.00e+00	0	28	0	308281344	66	4009
2026-01-05 07:14:33.69	14.52	30.36	-49.2	-50.4	14.8	0.00e+00	0	27	0	317718528	65	3949
2026-01-05 07:14:36.68	13.53	30.21	-49.3	-50.5	14.7	0.00e+00	0	27	0	326107136	64	4204
2026-01-05 07:14:39.67	12.54	30.04	-49.5	-50.7	14.6	0.00e+00	0	27	0	335544320	64	4335
2026-01-05 07:14:42.67	11.57	29.87	-49.4	-50.6	14.6	0.00e+00	0	27	0	344981504	64	4264
2026-01-05 07:14:45.67	10.61	29.69	-49.2	-50.4	14.7	0.00e+00	0	28	0	354418688	64	4165
2026-01-05 07:14:48.65	9.66	29.51	-49.4	-50.7	14.6	0.00e+00	0	28	0	363855872	64	4305
2026-01-05 07:14:51.64	8.72	29.31	-49.3	-50.5	14.7	0.00e+00	0	27	0	373293056	64	4207
2026-01-05 07:14:54.62	7.80	29.11	-48.8	-50.0	14.9	0.00e+00	0	27	0	382730240	64	3983
2026-01-05 07:14:57.62	6.88	28.90	-49.4	-50.6	14.6	0.00e+00	0	27	0	392167424	64	4291
2026-01-05 07:15:00.62	5.97	28.69	-49.3	-50.5	14.7	0.00e+00	0	28	0	401604608	64	4201
2026-01-05 07:15:03.61	5.08	28.47	-48.9	-50.1	14.8	0.00e+00	0	27	0	411041792	64	4011
2026-01-05 07:15:06.60	4.21	28.24	-49.0	-50.2	14.8	0.00e+00	0	28	0	420478976	64	4086
2026-01-05 07:15:09.60	3.34	28.01	-49.1	-50.4	14.7	0.00e+00	0	28	0	429916160	64	4151
2026-01-05 07:15:12.59	2.48	27.77	-49.1	-50.3	14.8	0.00e+00	0	27	0	438304768	64	4108
2026-01-05 07:15:15.60	1.64	27.52	-49.5	-50.7	14.6	0.00e+00	0	27	0	447741952	64	4324
2026-01-05 07:15:18.58	0.82	27.28	-48.9	-50.1	14.8	0.00e+00	0	28	0	457179136	64	4008
2026-01-05 07:15:21.57	0.00	27.03	-48.5	-49.7	14.8	0.00e+00	0	27	0	466616320	63	4072
2026-01-05 07:15:24.57	359.20	26.77	-48.6	-49.8	14.8	0.00e+00	0	28	0	476053504	63	4116
2026-01-05 07:15:27.56	358.41	26.51	-48.5	-49.7	14.8	0.00e+00	0	28	0	485490688	63	4057
2026-01-05 07:15:30.54	357.64	26.25	-48.3	-49.5	14.9	0.00e+00	0	28	0	494927872	63	3969
2026-01-05 07:15:33.54	356.87	25.98	-49.0	-50.2	14.7	0.00e+00	0	27	0	504365056	63	4295
2026-01-05 07:15:36.51	356.13	25.72	-49.2	-50.5	14.6	0.00e+00	0	27	0	513802240	63	4448
2026-01-05 07:15:39.49	355.39	25.45	-49.0	-50.2	14.6	0.00e+00	0	28	0	523239424	63	4339
2026-01-05 07:15:42.48	354.67	25.18	-49.2	-50.4	14.6	0.00e+00	0	28	0	531628032	63	4406
2026-01-05 07:15:45.48	353.96	24.90	-49.4	-50.6	14.5	0.00e+00	0	28	0	541065216	63	4545
2026-01-05 07:15:48.46	353.26	24.62	-49.4	-50.6	14.5	0.00e+00	0	27	0	550502400	63	4526
2026-01-05 07:15:51.45	352.57	24.34	-49.0	-50.2	14.7	0.00e+00	0	27	0	559939584	63	4339
2026-01-05 07:15:54.43	351.90	24.07	-49.0	-50.2	14.7	0.00e+00	0	27	0	569376768	63	4294
2026-01-05 07:15:57.43	351.24	23.78	-49.0	-50.2	14.6	0.00e+00	0	27	0	578813952	63	4337
2026-01-05 07:16:00.44	350.58	23.50	-49.0	-50.2	14.7	0.00e+00	0	28	0	588251136	63	4297
2026-01-05 07:16:03.43	349.95	23.22	-49.1	-50.4	14.6	0.00e+00	0	27	0	597688320	63	4408
2026-01-05 07:16:06.42	349.32	22.93	-49.1	-50.3	14.6	0.00e+00	0	27	0	607125504	63	4379
2026-01-05 07:16:09.40	348.71	22.65	-49.0	-50.2	14.6	0.00e+00	0	27	0	616562688	63	4319
2026-01-05 07:16:12.38	348.11	22.36	-49.0	-50.2	14.6	0.00e+00	0	27	0	625999872	63	4329
2026-01-05 07:16:15.37	347.51	22.08	-49.1	-50.3	14.6	0.00e+00	0	28	0	634388480	63	4363
2026-01-05 07:16:18.36	346.93	21.79	-48.7	-49.9	14.7	0.00e+00	0	27	0	643825664	63	4173
2026-01-05 07:16:21.35	346.36	21.51	-48.9	-50.1	14.7	0.00e+00	0	28	0	653262848	63	4273
2026-01-05 07:16:24.35	345.80	21.22	-48.9	-50.1	14.7	0.00e+00	0	27	0	662700032	63	4255
2026-01-05 07:16:27.34	345.25	20.94	-48.7	-49.9	14.7	0.00e+00	0	27	0	672137216	63	4148
2026-01-05 07:16:30.31	344.71	20.66	-48.6	-49.8	14.8	0.00e+00	0	27	0	681574400	63	4110
2026-01-05 07:16:33.30	344.18	20.37	-48.7	-49.9	14.7	0.00e+00	0	27	0	691011584	63	4151
2026-01-05 07:16:36.28	343.66	20.09	-48.9	-50.1	14.7	0.00e+00	0	28	0	700448768	63	4270
2026-01-05 07:16:39.27	343.15	19.81	-48.9	-50.1	14.7	0.00e+00	0	28	0	709885952	63	4280
2026-01-05 07:16:42.25	342.65	19.53	-48.7	-49.9	14.7	0.00e+00	0	27	0	719323136	63	4152
2026-01-05 07:16:45.22	342.17	19.25	-48.8	-50.0	14.7	0.00e+00	0	27	0	727711744	63	4217
2026-01-05 07:16:48.22	341.68	18.97	-49.2	-50.5	14.5	0.00e+00	0	27	0	737148928	63	4455
2026-01-05 07:16:51.20	341.21	18.69	-49.4	-50.7	14.5	0.00e+00	0	28	0	746586112	63	4551
2026-01-05 07:16:54.20	340.74	18.41	-49.1	-50.4	14.6	0.00e+00	0	27	0	756023296	63	4404
2026-01-05 07:16:57.18	340.29	18.14	-49.1	-50.4	14.6	0.00e+00	0	27	0	765460480	63	4405
2026-01-05 07:17:00.18	339.84	17.86	-49.2	-50.4	14.6	0.00e+00	0	28	0	774897664	63	4428
2026-01-05 07:17:03.18	339.40	17.59	-49.3	-50.6	14.5	0.00e+00	0	27	0	784334848	63	4505
2026-01-05 07:17:06.17	338.97	17.31	-49.3	-50.6	14.6	0.00e+00	0	27	0	793772032	64	4243
2026-01-05 07:17:09.17	338.54	17.04	-49.1	-50.4	14.6	0.00e+00	0	27	0	803209216	64	4161
2026-01-05 07:17:12.16	338.13	16.77	-49.1	-50.3	14.7	0.00e+00	0	28	0	812646400	64	4109
2026-01-05 07:17:15.15	337.72	16.50	-49.0	-50.2	14.7	0.00e+00	0	28	0	822083584	64	4071
2026-01-05 07:17:18.14	337.32	16.24	-49.2	-50.4	14.6	0.00e+00	0	28	0	831520768	64	4173
2026-01-05 07:17:21.14	336.92	15.97	-49.4	-50.7	14.6	0.00e+00	0	27	0	840957952	64	4292
2026-01-05 07:17:24.11	336.54	15.71	-49.4	-50.7	14.5	0.00e+00	0	28	0	849346560	64	4317
2026-01-05 07:17:27.11	336.16	15.45	-49.2	-50.5	14.6	0.00e+00	0	27	0	858783744	64	4201
2026-01-05 07:17:30.11	335.78	15.18	-49.0	-50.3	14.7	0.00e+00	0	28	0	868220928	64	4100
2026-01-05 07:17:33.10	335.41	14.93	-49.1	-50.3	14.6	0.00e+00	0	28	0	877658112	64	4119
2026-01-05 07:17:36.08	335.06	14.67	-49.4	-50.6	14.5	0.00e+00	0	27	0	887095296	64	4286
2026-01-05 07:17:39.06	334.70	14.41	-49.5	-50.8	14.5	0.00e+00	0	27	0	896532480	64	4363
2026-01-05 07:17:42.05	334.36	14.16	-49.7	-51.0	14.4	0.00e+00	0	28	0	905969664	64	4458
2026-01-05 07:17:45.03	334.02	13.91	-49.6	-51.0	14.4	0.00e+00	0	27	0	915406848	64	4442
2026-01-05 07:17:48.02	333.68	13.65	-49.7	-51.0	14.4	0.00e+00	0	28	0	924844032	64	4468
2026-01-05 07:17:51.01	333.35	13.40	-49.7	-51.0	14.4	0.00e+00	0	28	0	934281216	64	4456
2026-01-05 07:17:54.01	333.03	13.16	-49.7	-51.1	14.4	0.00e+00	0	28	0	942669824	64	4504
2026-01-05 07:17:57.00	332.71	12.91	-49.8	-51.2	14.3	0.00e+00	0	27	0	952107008	64	4564
2026-01-05 07:17:59.97	332.40	12.67	-50.1	-51.5	14.3	0.00e+00	0	28	0	961544192	65	4472
2026-01-05 07:18:02.96	332.09	12.42	-50.3	-51.7	14.2	0.00e+00	0	27	0	970981376	65	4593
2026-01-05 07:18:05.95	331.79	12.18	-50.4	-51.9	14.2	0.00e+00	0	27	0	980418560	66	4392
2026-01-05 07:18:08.95	331.49	11.94	-50.5	-52.0	14.2	0.00e+00	0	28	0	989855744	66	4450
2026-01-05 07:18:11.94	331.19	11.70	-50.3	-51.7	14.3	0.00e+00	0	28	0	999292928	66	4325
2026-01-05 07:18:14.92	330.91	11.46	-50.2	-51.6	14.3	0.00e+00	0	27	0	1008730112	66	4276
2026-01-05 07:18:17.91	330.63	11.23	-50.2	-51.6	14.3	0.00e+00	0	27	0	1018167296	66	4270
2026-01-05 07:18:20.91	330.35	10.99	-50.2	-51.6	14.3	0.00e+00	0	27	0	1027604480	66	4255
2026-01-05 07:18:23.91	330.07	10.76	-50.4	-51.8	14.2	0.00e+00	0	27	0	1037041664	66	4375
2026-01-05 07:18:26.90	329.80	10.53	-50.7	-52.2	14.0	0.00e+00	0	27	0	1046478848	66	4595
2026-01-05 07:18:29.90	329.54	10.30	-51.0	-52.5	14.0	0.00e+00	0	28	0	1054867456	67	4481
2026-01-05 07:18:32.89	329.28	10.07	-51.0	-52.5	14.0	0.00e+00	0	27	0	1064304640	67	4475
2026-01-05 07:18:35.87	329.02	9.85	-50.9	-52.4	14.1	0.00e+00	0	28	0	1073741824	67	4401
2026-01-05 07:18:38.85	328.77	9.62	-50.8	-52.3	14.1	0.00e+00	0	28	0	1083179008	67	4349
2026-01-05 07:18:41.84	328.52	9.40	-50.5	-51.9	14.3	0.00e+00	0	27	0	1092616192	67	4175
2026-01-05 07:18:44.83	328.28	9.18	-50.5	-51.9	14.2	0.00e+00	0	27	0	1102053376	67	4191
2026-01-05 07:18:47.81	328.04	8.96	-50.5	-51.9	14.2	0.00e+00	0	27	0	1111490560	67	4173
2026-01-05 07:18:50.80	327.80	8.74	-50.6	-52.1	14.1	0.00e+00	0	28	0	1120927744	67	4272
2026-01-05 07:18:53.78	327.57	8.52	-50.8	-52.3	14.0	0.00e+00	0	28	0	1130364928	67	4387
2026-01-05 07:18:56.77	327.34	8.30	-50.9	-52.4	14.0	0.00e+00	0	27	0	1138753536	67	4417
2026-01-05 07:18:59.76	327.11	8.09	-51.0	-52.6	13.9	0.00e+00	0	27	0	1148190720	67	4499
2026-01-05 07:19:02.73	326.89	7.88	-51.0	-52.5	13.9	0.00e+00	0	27	0	1157627904	67	4485
2026-01-05 07:19:05.72	326.67	7.66	-51.0	-52.6	13.9	0.00e+00	0	27	0	1167065088	67	4516
2026-01-05 07:19:08.71	326.46	7.45	-51.0	-52.5	13.9	0.00e+00	0	27	0	1176502272	67	4484
2026-01-05 07:19:11.71	326.24	7.24	-51.1	-52.7	13.8	0.00e+00	0	27	0	1185939456	67	4558
2026-01-05 07:19:14.70	326.03	7.03	-50.8	-52.3	14.0	0.00e+00	0	28	0	1195376640	67	4379
2026-01-05 07:19:17.70	325.83	6.83	-50.8	-52.4	14.0	0.00e+00	0	28	0	1204813824	67	4424
2026-01-05 07:19:20.69	325.62	6.62	-50.8	-52.4	13.9	0.00e+00	0	28	0	1214251008	67	4406
2026-01-05 07:19:23.68	325.42	6.42	-51.0	-52.6	13.9	0.00e+00	0	27	0	1223688192	67	4510
2026-01-05 07:19:26.67	325.23	6.21	-51.1	-52.8	13.7	0.00e+00	0	27	0	1233125376	67	4625
2026-01-05 07:19:29.65	325.03	6.01	-51.2	-52.9	13.7	0.00e+00	0	27	0	1242562560	67	4661
2026-01-05 07:19:32.64	324.84	5.81	-51.2	-52.8	13.7	0.00e+00	0	28	0	1250951168	67	4638
2026-01-05 07:19:35.63	324.65	5.61	-51.3	-53.0	13.6	0.00e+00	0	28	0	1260388352	67	4739
2026-01-05 07:19:38.61	324.47	5.41	-51.6	-53.3	13.6	0.00e+00	0	27	0	1269825536	68	4641
2026-01-05 07:19:41.58	324.29	5.22	-51.7	-53.5	13.5	0.00e+00	0	28	0	1279262720	68	4751
2026-01-05 07:19:44.57	324.10	5.02	-53.4	-55.8	12.6	0.00e+00	0	28	0	1288699904	71	5187
2026-01-05 07:19:47.56	323.93	4.83	-59.9	-73.6	3.8	1.49e+00	0	28	104	1289748480	84	19113
2026-01-05 07:19:50.54	323.75	4.64	-60.5	-74.3	3.8	1.49e+00	0	28	104	1289748480	86	18440
2026-01-05 07:19:53.53	323.58	4.44	-60.8	-74.6	3.8	1.49e+00	0	28	104	1289748480	86	19112
2026-01-05 07:19:56.53	323.41	4.25	-61.0	-74.8	3.8	1.49e+00	0	28	104	1289748480	87	18483
2026-01-05 07:19:59.52	323.24	4.06	-61.1	-75.0	3.8	1.49e+00	0	28	104	1289748480	87	18761
2026-01-05 07:20:02.51	323.07	3.87	-61.2	-75.1	3.8	1.49e+00	0	28	104	1289748480	87	18988
2026-01-05 07:20:05.50	322.91	3.68	-61.2	-75.0	3.8	1.49e+00	0	28	104	1289748480	87	18947
2026-01-05 07:20:08.50	322.74	3.50	-61.1	-75.0	3.8	1.49e+00	0	28	104	1289748480	87	18763
2026-01-05 07:20:11.49	322.59	3.31	-61.1	-74.9	3.8	1.49e+00	0	28	104	1289748480	87	18726
2026-01-05 07:20:14.49	322.43	3.12	-61.1	-74.9	3.8	1.49e+00	0	28	104	1289748480	87	18615
2026-01-05 07:20:17.48	322.27	2.94	-61.0	-74.9	3.8	1.49e+00	0	28	104	1289748480	87	18559
2026-01-05 07:20:20.47	322.12	2.76	-61.0	-74.9	3.8	1.49e+00	0	28	104	1289748480	87	18541
2026-01-05 07:20:23.48	321.97	2.57	-61.0	-74.8	3.8	1.49e+00	0	28	104	1289748480	87	18418
2026-01-05 07:20:26.47	321.82	2.39	-61.0	-74.8	3.8	1.49e+00	0	28	104	1289748480	87	18439
2026-01-05 07:20:29.47	321.67	2.21	-60.9	-74.8	3.8	1.49e+00	0	28	104	1289748480	87	18340
2026-01-05 07:20:32.47	321.52	2.03	-60.9	-74.8	3.8	1.49e+00	0	28	104	1289748480	87	18313

#Closed at: 2026-01-05 07:20:33
#Recorded file [1289 MB]: D:/lorett/data/31004_260105_101200.dat