passes_logs/2026/01/05/R3.2S_Murmansk/R3.2S_Murmansk__20260105_073622_SUOMI_NPP_rec.log

#Pass ID: 20260105_073622_SUOMI NPP
#Satellite: SUOMI NPP
#Configuration: NPP
#almurnet v.1.7.20251203
#Start time: 2026-01-05 07:36:21

#Version: 2.2.20231116
#Station: R3.2S_Murmansk
#Location: 33.079688 lon 68.888172 lat
#TLE: 1 37849U 11061A   26003.96724563  .00000164  00000+0  98899-4 0  9990
#TLE: 2 37849  98.7800 306.1116 0002573  82.3190 277.8279 14.19522066735141

#Time	Az	El	Level	Level2	SNR	BER	BlckErr	Temp	State	Recorded	gain1	gain2
2026-01-05 07:36:21.63	106.23	1.96	-58.3	-74.2	3.8	1.49e+00	0	25	0	0	83	21669
2026-01-05 07:36:25.64	106.06	2.21	-58.2	-74.1	3.8	1.49e+00	0	25	104	0	81	23922
2026-01-05 07:36:29.57	105.89	2.45	-58.2	-74.1	3.8	1.49e+00	0	26	104	0	81	24095
2026-01-05 07:36:33.59	105.71	2.70	-58.2	-74.1	3.8	1.49e+00	0	26	104	0	81	24093
2026-01-05 07:36:37.60	105.53	2.95	-58.2	-74.1	3.8	1.49e+00	0	26	104	0	81	23984
2026-01-05 07:36:41.62	105.35	3.21	-58.2	-74.1	3.8	1.49e+00	0	26	104	0	81	24088
2026-01-05 07:36:45.63	105.17	3.46	-58.2	-73.8	3.8	1.49e+00	0	26	104	0	81	23240
2026-01-05 07:36:49.63	104.98	3.72	-58.2	-73.9	3.8	1.49e+00	0	26	104	0	81	23318
2026-01-05 07:36:53.64	104.78	3.98	-58.2	-74.1	3.8	1.49e+00	0	26	104	0	81	24013
2026-01-05 07:36:57.65	104.59	4.24	-58.1	-71.7	3.9	1.48e+00	0	26	104	0	81	18164
2026-01-05 07:37:01.68	104.38	4.50	-57.9	-68.4	5.0	7.18e-01	0	26	0	4194304	81	12424
2026-01-05 07:37:05.68	104.18	4.77	-57.5	-65.5	6.9	1.51e-01	0	26	0	11534336	81	8941
2026-01-05 07:37:09.65	103.97	5.04	-57.3	-64.8	7.5	5.71e-02	0	27	0	18874368	81	8228
2026-01-05 07:37:13.63	103.76	5.30	-57.8	-65.3	7.6	1.14e+00	0	26	0	26214400	81	8741
2026-01-05 07:37:17.59	103.55	5.57	-55.5	-59.2	12.0	0.00e+00	0	27	0	33554432	77	5459
2026-01-05 07:37:21.57	103.33	5.85	-54.9	-58.1	12.6	0.00e+00	0	27	0	40894464	76	5050
2026-01-05 07:37:25.54	103.10	6.12	-54.7	-57.8	12.7	0.00e+00	0	26	0	48234496	75	5211
2026-01-05 07:37:29.53	102.87	6.40	-54.6	-57.7	12.7	0.00e+00	0	27	0	55574528	75	5157
2026-01-05 07:37:33.50	102.64	6.68	-54.0	-56.6	13.4	0.00e+00	0	27	0	62914560	74	4799
2026-01-05 07:37:37.46	102.41	6.96	-54.0	-56.7	13.3	0.00e+00	0	27	0	70254592	74	4843
2026-01-05 07:37:41.44	102.16	7.25	-54.1	-56.8	13.3	0.00e+00	0	27	0	77594624	74	4875
2026-01-05 07:37:45.43	101.91	7.54	-53.9	-56.5	13.4	0.00e+00	0	27	0	85983232	74	4730
2026-01-05 07:37:49.40	101.66	7.83	-53.7	-56.2	13.5	0.00e+00	0	27	0	93323264	73	4860
2026-01-05 07:37:53.38	101.40	8.12	-53.4	-56.1	13.4	0.00e+00	0	27	0	100663296	72	5079
2026-01-05 07:37:57.36	101.14	8.42	-53.5	-56.3	13.3	0.00e+00	0	27	0	108003328	72	5216
2026-01-05 07:38:01.36	100.87	8.72	-53.4	-56.1	13.4	0.00e+00	0	27	0	115343360	72	5098
2026-01-05 07:38:05.36	100.59	9.03	-53.5	-56.3	13.4	0.00e+00	0	27	0	122683392	72	5188
2026-01-05 07:38:09.34	100.31	9.33	-53.6	-56.6	13.2	0.00e+00	0	27	0	130023424	72	5376
2026-01-05 07:38:13.34	100.02	9.65	-53.4	-56.3	13.4	0.00e+00	0	27	0	137363456	72	5188
2026-01-05 07:38:17.33	99.72	9.96	-53.2	-55.9	13.6	0.00e+00	0	27	0	145752064	72	4971
2026-01-05 07:38:21.32	99.42	10.28	-53.2	-55.8	13.7	0.00e+00	0	27	0	153092096	72	4925
2026-01-05 07:38:25.32	99.11	10.60	-53.2	-55.9	13.6	0.00e+00	0	27	0	160432128	72	4957
2026-01-05 07:38:29.31	98.79	10.92	-52.7	-55.2	13.9	0.00e+00	0	27	0	167772160	71	4825
2026-01-05 07:38:33.31	98.47	11.25	-52.6	-55.0	14.0	0.00e+00	0	27	0	175112192	71	4713
2026-01-05 07:38:37.31	98.13	11.58	-52.6	-54.9	14.0	0.00e+00	0	27	0	182452224	71	4702
2026-01-05 07:38:41.31	97.79	11.91	-52.7	-55.1	14.0	0.00e+00	0	27	0	190840832	71	4765
2026-01-05 07:38:45.31	97.45	12.25	-52.5	-54.8	14.1	0.00e+00	0	27	0	198180864	71	4611
2026-01-05 07:38:49.32	97.09	12.59	-52.7	-55.1	14.0	0.00e+00	0	27	0	205520896	71	4781
2026-01-05 07:38:53.31	96.72	12.94	-52.8	-55.1	13.9	0.00e+00	0	27	0	212860928	71	4792
2026-01-05 07:38:57.30	96.35	13.29	-52.7	-55.0	14.0	0.00e+00	0	27	0	220200960	71	4752
2026-01-05 07:39:01.31	95.97	13.64	-52.7	-55.0	14.0	0.00e+00	0	27	0	227540992	71	4723
2026-01-05 07:39:05.31	95.57	14.00	-52.7	-55.0	14.0	0.00e+00	0	27	0	234881024	71	4722
2026-01-05 07:39:09.31	95.17	14.36	-52.5	-54.7	14.1	0.00e+00	0	27	0	243269632	71	4580
2026-01-05 07:39:13.31	94.76	14.72	-52.5	-54.7	14.2	0.00e+00	0	27	0	250609664	71	4546
2026-01-05 07:39:17.32	94.33	15.09	-52.4	-54.4	14.3	0.00e+00	0	27	0	257949696	71	4438
2026-01-05 07:39:21.32	93.90	15.46	-51.9	-53.9	14.4	0.00e+00	0	27	0	265289728	70	4400
2026-01-05 07:39:25.33	93.45	15.84	-51.9	-53.7	14.5	0.00e+00	0	27	0	272629760	70	4326
2026-01-05 07:39:29.32	92.99	16.22	-52.3	-54.4	14.2	0.00e+00	0	27	0	279969792	70	4655
2026-01-05 07:39:33.33	92.52	16.61	-52.1	-54.1	14.4	0.00e+00	0	27	0	288358400	70	4513
2026-01-05 07:39:37.33	92.04	16.99	-52.4	-54.6	14.1	0.00e+00	0	27	0	295698432	70	4788
2026-01-05 07:39:41.34	91.54	17.39	-52.2	-54.2	14.3	0.00e+00	0	27	0	303038464	70	4597
2026-01-05 07:39:45.35	91.03	17.78	-52.0	-54.0	14.4	0.00e+00	0	27	0	310378496	70	4483
2026-01-05 07:39:49.36	90.51	18.19	-52.4	-54.6	14.2	0.00e+00	0	27	0	317718528	70	4764
2026-01-05 07:39:53.37	89.97	18.59	-52.5	-54.7	14.1	0.00e+00	0	27	0	325058560	70	4827
2026-01-05 07:39:57.37	89.41	19.00	-53.0	-55.4	13.9	0.00e+00	0	27	0	333447168	71	4935
2026-01-05 07:40:01.37	88.85	19.41	-52.9	-55.1	14.1	0.00e+00	0	27	0	340787200	71	4772
2026-01-05 07:40:05.38	88.26	19.83	-53.0	-55.3	14.0	0.00e+00	0	27	0	348127232	71	4906
2026-01-05 07:40:09.39	87.66	20.25	-52.8	-55.0	14.1	0.00e+00	0	27	0	355467264	71	4723
2026-01-05 07:40:13.39	87.04	20.68	-52.7	-54.9	14.1	0.00e+00	0	28	0	362807296	71	4671
2026-01-05 07:40:17.39	86.41	21.10	-52.4	-54.4	14.4	0.00e+00	0	27	0	370147328	71	4440
2026-01-05 07:40:21.40	85.75	21.53	-52.1	-54.1	14.4	0.00e+00	0	27	0	377487360	70	4516
2026-01-05 07:40:25.40	85.08	21.97	-52.2	-54.2	14.4	0.00e+00	0	27	0	385875968	70	4555
2026-01-05 07:40:29.40	84.39	22.41	-52.4	-54.4	14.2	0.00e+00	0	27	0	393216000	70	4688
2026-01-05 07:40:33.40	83.68	22.85	-52.8	-55.0	14.1	0.00e+00	0	27	0	400556032	71	4752
2026-01-05 07:40:37.41	82.95	23.29	-53.1	-55.3	14.0	0.00e+00	0	27	0	407896064	71	4919
2026-01-05 07:40:41.42	82.19	23.73	-53.7	-56.5	13.6	0.00e+00	0	27	0	415236096	73	5002
2026-01-05 07:40:45.42	81.42	24.18	-53.8	-56.6	13.6	0.00e+00	0	27	0	422576128	73	5068
2026-01-05 07:40:49.41	80.62	24.63	-52.9	-55.3	14.1	0.00e+00	0	27	0	430964736	72	4635
2026-01-05 07:40:53.41	79.80	25.08	-53.3	-55.8	13.9	0.00e+00	0	27	0	438304768	72	4896
2026-01-05 07:40:57.41	78.95	25.53	-53.3	-55.7	13.9	0.00e+00	0	27	0	445644800	72	4870
2026-01-05 07:41:01.41	78.08	25.98	-53.2	-55.6	14.0	0.00e+00	0	27	0	452984832	72	4802
2026-01-05 07:41:05.40	77.19	26.43	-53.3	-55.6	14.0	0.00e+00	0	27	0	460324864	72	4805
2026-01-05 07:41:09.36	76.28	26.88	-53.1	-55.4	14.1	0.00e+00	0	27	0	467664896	72	4685
2026-01-05 07:41:13.32	75.34	27.33	-52.6	-54.8	14.2	0.00e+00	0	27	0	475004928	71	4615
2026-01-05 07:41:17.30	74.37	27.77	-53.7	-56.2	13.7	0.00e+00	0	27	0	482344960	72	5121
2026-01-05 07:41:21.27	73.37	28.21	-53.8	-56.3	13.8	0.00e+00	0	27	0	490733568	73	4895
2026-01-05 07:41:25.26	72.34	28.66	-52.3	-54.2	14.5	0.00e+00	0	27	0	498073600	71	4303
2026-01-05 07:41:29.23	71.29	29.09	-52.9	-55.2	14.1	0.00e+00	0	27	0	505413632	71	4854
2026-01-05 07:41:33.21	70.21	29.53	-52.6	-54.7	14.2	0.00e+00	0	27	0	512753664	71	4598
2026-01-05 07:41:37.19	69.10	29.95	-54.2	-57.3	13.2	0.00e+00	0	27	0	520093696	73	5483
2026-01-05 07:41:41.16	67.96	30.37	-54.2	-57.2	13.3	0.00e+00	0	27	0	527433728	74	5150
2026-01-05 07:41:45.15	66.78	30.79	-53.7	-56.3	13.6	0.00e+00	0	27	0	534773760	73	4914
2026-01-05 07:41:49.13	65.58	31.20	-54.5	-57.7	13.0	0.00e+00	0	27	0	542113792	74	5463
2026-01-05 07:41:53.13	64.34	31.59	-55.6	-59.9	11.8	0.00e+00	0	27	0	550502400	76	6257
2026-01-05 07:41:57.11	63.07	31.98	-56.0	-61.1	11.0	2.82e-05	0	27	0	557842432	77	6737
2026-01-05 07:42:01.10	61.77	32.36	-54.7	-58.2	12.9	7.00e-07	0	27	0	565182464	76	5159
2026-01-05 07:42:05.09	60.44	32.72	-54.2	-57.2	13.3	0.00e+00	0	27	0	572522496	74	5156
2026-01-05 07:42:09.09	59.08	33.07	-54.6	-57.9	13.0	0.00e+00	0	27	0	579862528	75	5272
2026-01-05 07:42:13.07	57.70	33.41	-54.6	-58.1	12.8	0.00e+00	0	27	0	587202560	75	5392
2026-01-05 07:42:17.04	56.29	33.72	-54.5	-58.4	12.6	0.00e+00	0	28	0	594542592	75	5555
2026-01-05 07:42:21.00	54.86	34.02	-54.3	-57.8	12.9	0.00e+00	0	27	0	601882624	74	5504
2026-01-05 07:42:24.96	53.40	34.31	-53.0	-55.6	14.0	0.00e+00	0	27	0	609222656	72	4763
2026-01-05 07:42:28.93	51.92	34.57	-51.7	-53.8	14.4	0.00e+00	0	27	0	617611264	69	4606
2026-01-05 07:42:32.89	50.41	34.81	-51.5	-53.5	14.6	0.00e+00	0	27	0	624951296	69	4451
2026-01-05 07:42:36.87	48.88	35.03	-52.7	-55.0	14.0	0.00e+00	0	27	0	632291328	70	5041
2026-01-05 07:42:40.84	47.33	35.23	-52.2	-54.3	14.4	0.00e+00	0	27	0	639631360	70	4611
2026-01-05 07:42:44.81	45.76	35.41	-51.4	-53.3	14.6	0.00e+00	0	27	0	646971392	69	4374
2026-01-05 07:42:48.78	44.17	35.56	-52.2	-54.3	14.2	0.00e+00	0	28	0	654311424	69	4916
2026-01-05 07:42:52.73	42.58	35.69	-50.7	-52.3	14.8	0.00e+00	0	27	0	661651456	68	4116
2026-01-05 07:42:56.70	40.97	35.79	-52.9	-55.2	14.1	0.00e+00	0	27	0	668991488	71	4838
2026-01-05 07:43:00.69	39.34	35.87	-53.0	-55.2	14.0	0.00e+00	0	27	0	676331520	71	4858
2026-01-05 07:43:04.67	37.72	35.92	-52.6	-54.6	14.3	0.00e+00	0	27	0	683671552	71	4516
2026-01-05 07:43:08.65	36.08	35.95	-52.4	-54.4	14.5	0.00e+00	0	27	0	692060160	71	4410
2026-01-05 07:43:12.62	34.45	35.95	-53.3	-55.6	13.9	0.00e+00	0	27	0	699400192	71	5090
2026-01-05 07:43:16.60	32.82	35.92	-53.7	-56.4	13.5	0.00e+00	0	28	0	706740224	72	5255
2026-01-05 07:43:20.58	31.19	35.86	-52.6	-54.9	14.2	0.00e+00	0	27	0	714080256	71	4689
2026-01-05 07:43:24.56	29.57	35.78	-54.0	-57.2	13.3	0.00e+00	0	27	0	721420288	73	5414
2026-01-05 07:43:28.53	27.96	35.67	-52.9	-55.3	14.0	0.00e+00	0	27	0	728760320	72	4647
2026-01-05 07:43:32.51	26.36	35.54	-53.4	-56.2	13.6	0.00e+00	0	28	0	736100352	72	5153
2026-01-05 07:43:36.49	24.78	35.39	-53.7	-56.6	13.5	0.00e+00	0	27	0	743440384	73	5042
2026-01-05 07:43:40.48	23.21	35.21	-52.9	-55.5	14.0	0.00e+00	0	27	0	750780416	72	4730
2026-01-05 07:43:44.47	21.65	35.00	-53.2	-56.0	13.7	0.00e+00	0	27	0	759169024	71	5335
2026-01-05 07:43:48.45	20.12	34.78	-52.9	-55.5	13.9	0.00e+00	0	27	0	766509056	72	4742
2026-01-05 07:43:52.42	18.62	34.53	-52.9	-55.5	13.8	0.00e+00	0	27	0	773849088	71	5013
2026-01-05 07:43:56.39	17.14	34.26	-53.3	-56.1	13.8	0.00e+00	0	27	0	781189120	73	4771
2026-01-05 07:44:00.38	15.67	33.98	-52.6	-54.9	14.1	0.00e+00	0	27	0	788529152	70	4934
2026-01-05 07:44:04.36	14.24	33.67	-54.3	-57.7	13.0	0.00e+00	0	27	0	795869184	73	5723
2026-01-05 07:44:08.33	12.84	33.35	-54.1	-57.2	13.3	0.00e+00	0	27	0	803209216	73	5439
2026-01-05 07:44:12.32	11.46	33.01	-54.3	-57.6	13.1	0.00e+00	0	27	0	810549248	74	5358
2026-01-05 07:44:16.30	10.11	32.66	-53.5	-56.3	13.7	0.00e+00	0	27	0	817889280	73	4893
2026-01-05 07:44:20.30	8.79	32.30	-53.2	-55.6	14.1	0.00e+00	0	27	0	826277888	73	4515
2026-01-05 07:44:24.31	7.49	31.92	-53.8	-56.6	13.5	0.00e+00	0	27	0	833617920	72	5392
2026-01-05 07:44:28.29	6.24	31.53	-53.2	-55.7	14.0	0.00e+00	0	27	0	840957952	73	4559
2026-01-05 07:44:32.28	5.01	31.13	-53.5	-56.0	13.8	0.00e+00	0	28	0	848297984	72	5013
2026-01-05 07:44:36.27	3.81	30.72	-54.1	-56.9	13.5	0.00e+00	0	27	0	855638016	74	4971
2026-01-05 07:44:40.26	2.64	30.31	-54.1	-56.8	13.6	0.00e+00	0	27	0	862978048	74	4915
2026-01-05 07:44:44.25	1.50	29.88	-54.8	-58.1	12.9	0.00e+00	0	27	0	870318080	74	5675
2026-01-05 07:44:48.25	0.39	29.45	-54.1	-56.8	13.7	0.00e+00	0	27	0	878706688	74	4872
2026-01-05 07:44:52.26	359.30	29.02	-54.1	-56.7	13.6	0.00e+00	0	27	0	886046720	74	4866
2026-01-05 07:44:56.25	358.26	28.58	-53.4	-55.7	14.1	0.00e+00	0	27	0	893386752	73	4549
2026-01-05 07:45:00.24	357.23	28.14	-52.4	-54.3	14.4	0.00e+00	0	27	0	900726784	70	4625
2026-01-05 07:45:04.25	356.24	27.69	-53.3	-55.6	14.0	0.00e+00	0	27	0	908066816	72	4775
2026-01-05 07:45:08.25	355.27	27.24	-52.3	-54.3	14.5	0.00e+00	0	27	0	915406848	71	4352
2026-01-05 07:45:12.25	354.33	26.79	-52.7	-54.8	14.2	0.00e+00	0	27	0	923795456	70	4911
2026-01-05 07:45:16.24	353.42	26.34	-52.5	-54.5	14.4	0.00e+00	0	27	0	931135488	71	4460
2026-01-05 07:45:20.24	352.53	25.89	-52.0	-53.9	14.5	0.00e+00	0	28	0	938475520	70	4435
2026-01-05 07:45:24.25	351.67	25.44	-52.2	-54.1	14.4	0.00e+00	0	27	0	945815552	70	4535
2026-01-05 07:45:28.25	350.83	24.99	-52.0	-53.9	14.5	0.00e+00	0	27	0	953155584	70	4401
2026-01-05 07:45:32.25	350.02	24.54	-51.9	-53.7	14.6	0.00e+00	0	27	0	960495616	70	4308
2026-01-05 07:45:36.26	349.22	24.10	-52.0	-53.9	14.4	0.00e+00	0	27	0	967835648	69	4681
2026-01-05 07:45:40.25	348.46	23.65	-52.1	-53.9	14.4	0.00e+00	0	27	0	976224256	69	4699
2026-01-05 07:45:44.25	347.71	23.21	-52.6	-54.6	14.2	0.00e+00	0	27	0	983564288	70	4801
2026-01-05 07:45:48.27	346.98	22.76	-52.0	-53.8	14.6	0.00e+00	0	28	0	990904320	70	4354
2026-01-05 07:45:52.27	346.28	22.33	-52.3	-54.2	14.4	0.00e+00	0	27	0	998244352	70	4577
2026-01-05 07:45:56.26	345.60	21.89	-52.8	-54.9	14.1	0.00e+00	0	27	0	1005584384	70	4967
2026-01-05 07:46:00.26	344.93	21.46	-53.3	-55.7	13.9	0.00e+00	0	27	0	1012924416	71	5104
2026-01-05 07:46:04.26	344.28	21.03	-52.3	-54.2	14.5	0.00e+00	0	27	0	1021313024	71	4337
2026-01-05 07:46:08.27	343.65	20.61	-52.1	-53.9	14.5	0.00e+00	0	27	0	1028653056	70	4434
2026-01-05 07:46:12.28	343.04	20.18	-52.7	-54.8	14.1	0.00e+00	0	28	0	1035993088	70	4880
2026-01-05 07:46:16.28	342.45	19.76	-51.9	-53.7	14.6	0.00e+00	0	27	0	1043333120	70	4327
2026-01-05 07:46:20.25	341.87	19.35	-51.8	-53.6	14.5	0.00e+00	0	27	0	1050673152	69	4533
2026-01-05 07:46:24.26	341.31	18.94	-53.1	-55.3	14.0	0.00e+00	0	28	0	1058013184	71	4903
2026-01-05 07:46:28.25	340.76	18.54	-54.9	-58.0	12.9	0.00e+00	0	27	0	1065353216	74	5630
2026-01-05 07:46:32.25	340.23	18.13	-54.1	-56.8	13.6	0.00e+00	0	27	0	1073741824	74	4902
2026-01-05 07:46:36.27	339.71	17.73	-52.6	-54.6	14.3	0.00e+00	0	27	0	1081081856	71	4545
2026-01-05 07:46:40.27	339.21	17.34	-52.8	-55.0	14.2	0.00e+00	0	28	0	1088421888	71	4718
2026-01-05 07:46:44.27	338.72	16.95	-53.5	-55.9	13.8	0.00e+00	0	28	0	1095761920	72	4969
2026-01-05 07:46:48.27	338.24	16.56	-52.8	-55.0	14.2	0.00e+00	0	28	0	1103101952	72	4451
2026-01-05 07:46:52.26	337.77	16.18	-52.2	-54.2	14.3	0.00e+00	0	28	0	1110441984	70	4574
2026-01-05 07:46:56.27	337.32	15.80	-52.7	-54.8	14.1	0.00e+00	0	27	0	1118830592	70	4922
2026-01-05 07:47:00.27	336.88	15.42	-52.8	-55.0	14.0	0.00e+00	0	27	0	1126170624	70	5006
2026-01-05 07:47:04.27	336.45	15.05	-53.0	-55.1	14.0	0.00e+00	0	28	0	1133510656	71	4812
2026-01-05 07:47:08.27	336.03	14.69	-53.1	-55.4	13.9	0.00e+00	0	28	0	1140850688	71	4934
2026-01-05 07:47:12.29	335.61	14.32	-52.8	-54.8	14.2	0.00e+00	0	27	0	1148190720	71	4644
2026-01-05 07:47:16.30	335.21	13.96	-52.9	-55.1	14.0	0.00e+00	0	27	0	1155530752	71	4786
2026-01-05 07:47:20.30	334.83	13.61	-54.0	-56.6	13.5	0.00e+00	0	27	0	1162870784	73	5073
2026-01-05 07:47:24.31	334.44	13.25	-54.7	-57.9	12.9	0.00e+00	0	27	0	1171259392	74	5575
2026-01-05 07:47:28.32	334.07	12.91	-54.4	-57.4	13.1	0.00e+00	0	27	0	1178599424	74	5243
2026-01-05 07:47:32.33	333.71	12.56	-53.7	-56.2	13.8	0.00e+00	0	28	0	1185939456	74	4573
2026-01-05 07:47:36.33	333.36	12.22	-53.0	-55.2	13.9	0.00e+00	0	28	0	1193279488	72	4575
2026-01-05 07:47:40.34	333.01	11.88	-52.7	-54.8	14.1	0.00e+00	0	28	0	1200619520	71	4645
2026-01-05 07:47:44.35	332.67	11.55	-52.9	-55.1	14.0	0.00e+00	0	27	0	1207959552	71	4801
2026-01-05 07:47:48.36	332.35	11.22	-52.9	-55.1	14.0	0.00e+00	0	27	0	1216348160	71	4806
2026-01-05 07:47:52.37	332.02	10.89	-53.1	-55.4	13.8	0.00e+00	0	27	0	1223688192	71	4981
2026-01-05 07:47:56.39	331.71	10.57	-53.5	-56.0	13.7	0.00e+00	0	27	0	1231028224	72	5000
2026-01-05 07:48:00.39	331.40	10.25	-53.7	-56.4	13.5	0.00e+00	0	27	0	1238368256	72	5221
2026-01-05 07:48:04.40	331.10	9.93	-53.8	-56.5	13.4	0.00e+00	0	27	0	1245708288	72	5315
2026-01-05 07:48:08.41	330.81	9.62	-54.0	-56.8	13.3	0.00e+00	0	27	0	1253048320	73	5168
2026-01-05 07:48:12.42	330.52	9.31	-54.3	-57.2	13.1	0.00e+00	0	27	0	1261436928	73	5439
2026-01-05 07:48:16.43	330.24	9.00	-54.8	-58.2	12.6	0.00e+00	0	27	0	1268776960	74	5723
2026-01-05 07:48:20.44	329.97	8.70	-55.0	-58.5	12.4	0.00e+00	0	28	0	1276116992	75	5628
2026-01-05 07:48:24.45	329.70	8.40	-54.9	-58.3	12.5	0.00e+00	0	27	0	1283457024	75	5514
2026-01-05 07:48:28.46	329.43	8.10	-54.6	-57.8	12.8	0.00e+00	0	27	0	1290797056	75	5182
2026-01-05 07:48:32.45	329.18	7.80	-54.0	-56.7	13.3	0.00e+00	0	28	0	1299185664	74	4864
2026-01-05 07:48:36.47	328.93	7.51	-53.5	-56.0	13.6	0.00e+00	0	28	0	1306525696	73	4747
2026-01-05 07:48:40.47	328.68	7.22	-53.5	-56.0	13.6	0.00e+00	0	27	0	1313865728	73	4735
2026-01-05 07:48:44.48	328.44	6.93	-53.6	-56.2	13.5	0.00e+00	0	27	0	1321205760	73	4856
2026-01-05 07:48:48.49	328.20	6.65	-54.0	-56.8	13.1	0.00e+00	0	28	0	1328545792	73	5200
2026-01-05 07:48:52.48	327.97	6.37	-54.5	-57.7	12.7	0.00e+00	0	27	0	1335885824	74	5459
2026-01-05 07:48:56.47	327.75	6.09	-54.8	-58.3	12.3	0.00e+00	0	28	0	1344274432	74	5830
2026-01-05 07:49:00.47	327.52	5.82	-55.0	-58.6	12.2	1.50e-06	0	28	0	1351614464	75	5712
2026-01-05 07:49:04.47	327.31	5.54	-55.1	-58.9	11.9	1.50e-06	0	27	0	1358954496	75	5903
2026-01-05 07:49:08.49	327.09	5.27	-55.1	-58.9	11.9	3.00e-06	0	28	0	1366294528	75	5922
2026-01-05 07:49:12.48	326.88	5.00	-56.5	-62.0	10.3	1.44e-05	0	28	0	1373634560	78	7048
2026-01-05 07:49:16.49	326.68	4.73	-60.1	-76.1	3.8	1.49e+00	0	28	104	1374683136	85	24046
2026-01-05 07:49:20.50	326.48	4.47	-60.7	-76.7	3.8	1.49e+00	0	28	104	1374683136	86	24384
2026-01-05 07:49:24.53	326.28	4.21	-61.0	-77.0	3.8	1.49e+00	0	28	104	1374683136	87	23688
2026-01-05 07:49:28.53	326.09	3.95	-61.1	-77.1	3.8	1.49e+00	0	28	104	1374683136	87	24113
2026-01-05 07:49:32.55	325.90	3.69	-61.1	-77.2	3.8	1.49e+00	0	28	104	1374683136	87	24368
2026-01-05 07:49:36.55	325.71	3.43	-61.1	-77.1	3.8	1.49e+00	0	28	104	1374683136	87	24084
2026-01-05 07:49:40.56	325.53	3.18	-61.0	-77.1	3.8	1.49e+00	0	28	104	1374683136	87	23951
2026-01-05 07:49:44.59	325.35	2.92	-61.0	-77.0	3.8	1.49e+00	0	28	104	1374683136	87	23850
2026-01-05 07:49:48.60	325.17	2.67	-60.9	-77.0	3.8	1.49e+00	0	28	104	1374683136	87	23746
2026-01-05 07:49:52.62	325.00	2.43	-60.9	-77.0	3.8	1.49e+00	0	28	104	1374683136	87	23727
2026-01-05 07:49:56.64	324.83	2.18	-60.9	-77.0	3.8	1.49e+00	0	28	104	1374683136	87	23597

#Closed at: 2026-01-05 07:49:59
#Recorded file [1374 MB]: D:/lorett/data/31004_260105_103621.dat