passes_logs/2026/01/05/R3.2S_Murmansk/R3.2S_Murmansk__20260105_055736_SUOMI_NPP_rec.log

#Pass ID: 20260105_055736_SUOMI NPP
#Satellite: SUOMI NPP
#Configuration: NPP
#almurnet v.1.7.20251203
#Start time: 2026-01-05 05:57:38

#Version: 2.2.20231116
#Station: R3.2S_Murmansk
#Location: 33.079688 lon 68.888172 lat
#TLE: 1 37849U 11061A   26003.96724563  .00000164  00000+0  98899-4 0  9990
#TLE: 2 37849  98.7800 306.1116 0002573  82.3190 277.8279 14.19522066735141

#Time	Az	El	Level	Level2	SNR	BER	BlckErr	Temp	State	Recorded	gain1	gain2
2026-01-05 05:57:38.26	73.79	2.12	-58.1	-74.1	3.8	1.49e+00	0	26	0	0	82	22709
2026-01-05 05:57:42.24	73.54	2.35	-58.1	-74.1	3.8	1.49e+00	0	26	104	0	81	23928
2026-01-05 05:57:46.21	73.28	2.58	-58.1	-74.1	3.8	1.49e+00	0	26	104	0	81	23922
2026-01-05 05:57:50.17	73.03	2.81	-58.1	-74.0	3.8	1.49e+00	0	26	104	0	81	23782
2026-01-05 05:57:54.13	72.77	3.04	-58.1	-74.0	3.8	1.49e+00	0	27	104	0	81	23801
2026-01-05 05:57:58.10	72.50	3.27	-58.1	-74.1	3.8	1.49e+00	0	26	104	0	81	23872
2026-01-05 05:58:02.07	72.23	3.51	-58.1	-74.0	3.8	1.49e+00	0	27	104	0	81	23849
2026-01-05 05:58:06.05	71.96	3.74	-58.1	-74.0	3.8	1.49e+00	0	27	104	0	81	23824
2026-01-05 05:58:10.05	71.67	3.98	-58.1	-73.9	3.8	1.49e+00	0	27	104	0	81	23552
2026-01-05 05:58:14.05	71.39	4.23	-58.0	-73.7	3.8	1.49e+00	0	27	104	0	81	23041
2026-01-05 05:58:18.05	71.10	4.47	-58.1	-73.9	3.8	1.49e+00	0	27	104	0	81	23540
2026-01-05 05:58:22.05	70.80	4.71	-58.0	-71.8	3.8	1.49e+00	0	27	104	0	81	18351
2026-01-05 05:58:26.05	70.50	4.96	-57.7	-68.5	4.9	7.49e-01	0	27	0	3145728	81	12559
2026-01-05 05:58:30.04	70.19	5.20	-57.6	-67.9	5.2	5.07e-01	0	27	0	9437184	81	11785
2026-01-05 05:58:34.05	69.88	5.45	-56.5	-62.2	9.8	4.78e-03	0	27	0	14680064	79	6823
2026-01-05 05:58:38.03	69.56	5.70	-55.7	-60.1	11.3	8.16e-05	0	27	0	22020096	78	5711
2026-01-05 05:58:42.02	69.24	5.95	-54.5	-58.0	12.5	0.00e+00	0	27	0	29360128	75	5288
2026-01-05 05:58:46.01	68.91	6.21	-54.4	-57.8	12.7	0.00e+00	0	27	0	36700160	75	5173
2026-01-05 05:58:50.00	68.58	6.46	-54.2	-57.3	12.9	0.00e+00	0	27	0	44040192	74	5195
2026-01-05 05:58:53.98	68.23	6.71	-54.1	-57.1	13.1	0.00e+00	0	27	0	52428800	74	5095
2026-01-05 05:58:57.98	67.89	6.97	-54.1	-57.2	13.0	0.00e+00	0	27	0	59768832	74	5107
2026-01-05 05:59:01.97	67.53	7.23	-54.3	-57.5	12.8	0.00e+00	0	27	0	67108864	74	5337
2026-01-05 05:59:05.97	67.17	7.49	-54.1	-57.4	12.9	0.00e+00	0	27	0	74448896	74	5231
2026-01-05 05:59:09.96	66.80	7.75	-54.2	-57.4	12.9	0.00e+00	0	27	0	81788928	74	5274
2026-01-05 05:59:13.94	66.43	8.02	-54.1	-57.3	13.0	0.00e+00	0	27	0	89128960	74	5191
2026-01-05 05:59:17.93	66.05	8.28	-53.8	-56.8	13.3	0.00e+00	0	27	0	96468992	74	4900
2026-01-05 05:59:21.93	65.66	8.55	-53.6	-56.5	13.4	0.00e+00	0	27	0	104857600	73	4994
2026-01-05 05:59:25.91	65.27	8.82	-53.4	-56.2	13.5	0.00e+00	0	27	0	112197632	73	4866
2026-01-05 05:59:29.91	64.86	9.09	-53.4	-56.2	13.6	0.00e+00	0	27	0	119537664	73	4849
2026-01-05 05:59:33.91	64.45	9.36	-53.4	-56.1	13.7	0.00e+00	0	27	0	126877696	73	4796
2026-01-05 05:59:37.90	64.03	9.63	-53.4	-56.1	13.7	0.00e+00	0	27	0	134217728	73	4779
2026-01-05 05:59:41.89	63.60	9.90	-53.5	-56.3	13.6	0.00e+00	0	27	0	141557760	73	4879
2026-01-05 05:59:45.88	63.17	10.18	-53.6	-56.3	13.5	0.00e+00	0	27	0	148897792	73	4917
2026-01-05 05:59:49.87	62.72	10.46	-53.6	-56.4	13.5	0.00e+00	0	28	0	157286400	73	4964
2026-01-05 05:59:53.85	62.27	10.73	-53.6	-56.4	13.6	0.00e+00	0	27	0	164626432	73	4930
2026-01-05 05:59:57.84	61.81	11.01	-53.7	-56.5	13.5	0.00e+00	0	27	0	171966464	73	5012
2026-01-05 06:00:01.83	61.34	11.30	-53.6	-56.3	13.6	0.00e+00	0	27	0	179306496	73	4911
2026-01-05 06:00:05.83	60.86	11.58	-53.4	-56.0	13.8	0.00e+00	0	27	0	186646528	73	4710
2026-01-05 06:00:09.81	60.37	11.86	-53.1	-55.7	13.8	0.00e+00	0	27	0	193986560	72	4815
2026-01-05 06:00:13.80	59.87	12.15	-52.9	-55.3	14.0	0.00e+00	0	27	0	201326592	72	4624
2026-01-05 06:00:17.77	59.36	12.43	-52.8	-55.2	14.0	0.00e+00	0	27	0	208666624	71	4818
2026-01-05 06:00:21.76	58.84	12.72	-53.0	-55.4	13.9	0.00e+00	0	27	0	217055232	71	4938
2026-01-05 06:00:25.77	58.31	13.01	-52.8	-55.2	14.0	0.00e+00	0	28	0	224395264	71	4848
2026-01-05 06:00:29.76	57.77	13.29	-52.6	-54.9	14.1	0.00e+00	0	27	0	231735296	71	4699
2026-01-05 06:00:33.75	57.22	13.58	-52.6	-54.9	14.1	0.00e+00	0	28	0	239075328	71	4682
2026-01-05 06:00:37.73	56.65	13.87	-52.5	-54.9	14.1	0.00e+00	0	27	0	246415360	71	4669
2026-01-05 06:00:41.72	56.08	14.16	-52.5	-54.9	14.1	0.00e+00	0	27	0	253755392	71	4697
2026-01-05 06:00:45.69	55.50	14.45	-52.5	-55.0	14.1	0.00e+00	0	27	0	261095424	71	4708
2026-01-05 06:00:49.67	54.90	14.74	-53.0	-55.7	13.7	0.00e+00	0	28	0	268435456	71	5147
2026-01-05 06:00:53.65	54.29	15.04	-52.9	-55.6	13.8	0.00e+00	0	28	0	276824064	71	5050
2026-01-05 06:00:57.65	53.67	15.33	-52.9	-55.5	13.9	0.00e+00	0	28	0	284164096	71	5005
2026-01-05 06:01:01.64	53.03	15.62	-53.0	-55.6	13.8	0.00e+00	0	28	0	291504128	71	5076
2026-01-05 06:01:05.62	52.39	15.91	-53.3	-56.1	13.6	0.00e+00	0	27	0	298844160	72	5081
2026-01-05 06:01:09.61	51.73	16.20	-53.2	-55.9	13.8	0.00e+00	0	28	0	306184192	72	4963
2026-01-05 06:01:13.60	51.05	16.50	-52.8	-55.3	14.0	0.00e+00	0	28	0	313524224	72	4634
2026-01-05 06:01:17.59	50.37	16.79	-52.8	-55.4	14.0	0.00e+00	0	28	0	320864256	72	4681
2026-01-05 06:01:21.59	49.66	17.08	-53.0	-55.5	13.9	0.00e+00	0	28	0	329252864	72	4742
2026-01-05 06:01:25.58	48.95	17.36	-52.8	-55.3	14.1	0.00e+00	0	27	0	336592896	72	4619
2026-01-05 06:01:29.56	48.22	17.65	-53.0	-55.4	13.8	0.00e+00	0	27	0	343932928	71	4976
2026-01-05 06:01:33.55	47.48	17.94	-53.2	-55.8	13.7	0.00e+00	0	28	0	351272960	71	5211
2026-01-05 06:01:37.56	46.72	18.22	-52.8	-55.1	14.0	0.00e+00	0	28	0	358612992	71	4812
2026-01-05 06:01:41.55	45.95	18.50	-52.5	-54.7	14.2	0.00e+00	0	28	0	365953024	71	4563
2026-01-05 06:01:45.53	45.17	18.78	-52.6	-55.0	14.1	0.00e+00	0	27	0	373293056	71	4732
2026-01-05 06:01:49.52	44.37	19.06	-52.0	-54.2	14.3	0.00e+00	0	28	0	380633088	70	4569
2026-01-05 06:01:53.51	43.55	19.33	-51.5	-53.6	14.5	0.00e+00	0	27	0	389021696	69	4515
2026-01-05 06:01:57.49	42.72	19.60	-51.6	-53.7	14.3	0.00e+00	0	27	0	396361728	69	4557
2026-01-05 06:02:01.47	41.88	19.87	-51.5	-53.5	14.5	0.00e+00	0	27	0	403701760	69	4442
2026-01-05 06:02:05.48	41.02	20.13	-51.4	-53.4	14.5	0.00e+00	0	28	0	411041792	69	4440
2026-01-05 06:02:09.49	40.14	20.39	-51.7	-53.8	14.4	0.00e+00	0	28	0	418381824	69	4624
2026-01-05 06:02:13.49	39.25	20.65	-51.1	-53.1	14.6	0.00e+00	0	28	0	425721856	68	4495
2026-01-05 06:02:17.48	38.34	20.90	-51.0	-52.8	14.7	0.00e+00	0	27	0	433061888	68	4377
2026-01-05 06:02:21.46	37.43	21.14	-50.8	-52.6	14.6	0.00e+00	0	28	0	441450496	67	4518
2026-01-05 06:02:25.45	36.49	21.38	-50.7	-52.5	14.7	0.00e+00	0	28	0	448790528	67	4463
2026-01-05 06:02:29.45	35.54	21.61	-50.8	-52.6	14.6	0.00e+00	0	27	0	456130560	67	4496
2026-01-05 06:02:33.45	34.58	21.84	-51.1	-52.9	14.5	0.00e+00	0	28	0	463470592	67	4674
2026-01-05 06:02:37.43	33.60	22.06	-50.5	-52.2	14.8	0.00e+00	0	28	0	470810624	67	4333
2026-01-05 06:02:41.42	32.61	22.27	-50.8	-52.6	14.7	0.00e+00	0	28	0	478150656	67	4503
2026-01-05 06:02:45.41	31.61	22.48	-50.8	-52.5	14.6	0.00e+00	0	27	0	485490688	67	4481
2026-01-05 06:02:49.41	30.59	22.67	-50.8	-52.5	14.7	0.00e+00	0	28	0	493879296	67	4484
2026-01-05 06:02:53.41	29.56	22.86	-50.9	-52.6	14.6	0.00e+00	0	28	0	501219328	67	4520
2026-01-05 06:02:57.41	28.51	23.04	-50.9	-52.6	14.6	0.00e+00	0	28	0	508559360	67	4540
2026-01-05 06:03:01.41	27.46	23.21	-50.2	-51.8	14.8	0.00e+00	0	27	0	515899392	66	4361
2026-01-05 06:03:05.41	26.39	23.37	-51.0	-52.7	14.6	0.00e+00	0	28	0	523239424	67	4577
2026-01-05 06:03:09.40	25.31	23.52	-51.8	-53.6	14.3	0.00e+00	0	27	0	530579456	68	4810
2026-01-05 06:03:13.39	24.23	23.66	-52.7	-54.9	14.2	0.00e+00	0	27	0	537919488	71	4693
2026-01-05 06:03:17.37	23.14	23.79	-52.4	-54.5	14.3	0.00e+00	0	28	0	546308096	71	4455
2026-01-05 06:03:21.35	22.03	23.91	-52.0	-54.1	14.5	0.00e+00	0	28	0	553648128	70	4502
2026-01-05 06:03:25.34	20.92	24.02	-52.1	-54.1	14.4	0.00e+00	0	28	0	560988160	70	4507
2026-01-05 06:03:29.33	19.80	24.12	-52.6	-54.8	14.1	0.00e+00	0	28	0	568328192	70	4924
2026-01-05 06:03:33.33	18.67	24.20	-55.1	-58.3	13.0	7.00e-07	0	28	0	575668224	76	5169
2026-01-05 06:03:37.32	17.54	24.27	-54.5	-57.5	13.2	0.00e+00	0	28	0	583008256	75	5009
2026-01-05 06:03:41.31	16.41	24.34	-52.8	-55.1	14.2	0.00e+00	0	27	0	590348288	72	4515
2026-01-05 06:03:45.31	15.26	24.38	-53.2	-55.7	13.8	0.00e+00	0	28	0	597688320	72	4866
2026-01-05 06:03:49.29	14.12	24.42	-53.0	-55.4	14.0	0.00e+00	0	28	0	606076928	72	4688
2026-01-05 06:03:53.28	12.98	24.44	-51.9	-54.0	14.4	0.00e+00	0	27	0	613416960	70	4460
2026-01-05 06:03:57.28	11.83	24.46	-52.5	-54.8	14.1	0.00e+00	0	28	0	620756992	70	4891
2026-01-05 06:04:01.26	10.68	24.46	-52.3	-54.6	14.1	0.00e+00	0	28	0	628097024	70	4795
2026-01-05 06:04:05.24	9.54	24.44	-52.2	-54.3	14.3	0.00e+00	0	28	0	635437056	70	4629
2026-01-05 06:04:09.24	8.39	24.42	-51.4	-53.3	14.6	0.00e+00	0	28	0	642777088	69	4388
2026-01-05 06:04:13.24	7.24	24.38	-51.6	-53.6	14.5	0.00e+00	0	28	0	650117120	69	4502
2026-01-05 06:04:17.23	6.10	24.33	-51.7	-53.7	14.5	0.00e+00	0	28	0	658505728	69	4554
2026-01-05 06:04:21.22	4.97	24.26	-51.1	-52.8	14.7	0.00e+00	0	28	0	665845760	68	4385
2026-01-05 06:04:25.21	3.84	24.19	-51.1	-52.7	14.7	0.00e+00	0	28	0	673185792	68	4335
2026-01-05 06:04:29.20	2.71	24.10	-50.7	-52.3	14.7	0.00e+00	0	28	0	680525824	67	4386
2026-01-05 06:04:33.19	1.59	24.00	-50.8	-52.4	14.7	0.00e+00	0	28	0	687865856	67	4404
2026-01-05 06:04:37.17	0.49	23.89	-50.8	-52.4	14.7	0.00e+00	0	28	0	695205888	67	4421
2026-01-05 06:04:41.16	359.38	23.77	-51.0	-52.7	14.6	0.00e+00	0	28	0	702545920	67	4554
2026-01-05 06:04:45.15	358.29	23.64	-51.3	-53.0	14.5	0.00e+00	0	28	0	709885952	67	4752
2026-01-05 06:04:49.13	357.21	23.50	-51.2	-52.8	14.7	0.00e+00	0	28	0	718274560	68	4374
2026-01-05 06:04:53.10	356.14	23.35	-51.7	-53.5	14.5	0.00e+00	0	28	0	725614592	68	4726
2026-01-05 06:04:57.07	355.08	23.19	-52.0	-54.0	14.4	0.00e+00	0	28	0	732954624	69	4727
2026-01-05 06:05:01.05	354.03	23.02	-52.3	-54.4	14.2	0.00e+00	0	28	0	740294656	69	4956
2026-01-05 06:05:05.05	352.99	22.84	-52.5	-54.6	14.1	0.00e+00	0	28	0	747634688	70	4791
2026-01-05 06:05:09.04	351.96	22.65	-52.5	-54.7	14.2	0.00e+00	0	28	0	754974720	70	4833
2026-01-05 06:05:13.03	350.95	22.45	-52.7	-55.0	14.0	0.00e+00	0	28	0	762314752	70	4990
2026-01-05 06:05:17.02	349.95	22.25	-52.1	-54.2	14.3	0.00e+00	0	28	0	770703360	70	4591
2026-01-05 06:05:21.01	348.96	22.03	-52.3	-54.5	14.3	0.00e+00	0	27	0	778043392	70	4729
2026-01-05 06:05:25.00	347.99	21.81	-53.0	-55.4	14.0	0.00e+00	0	28	0	785383424	71	4952
2026-01-05 06:05:28.99	347.03	21.59	-52.5	-54.7	14.2	0.00e+00	0	28	0	792723456	71	4588
2026-01-05 06:05:32.98	346.08	21.35	-53.0	-55.5	13.9	0.00e+00	0	28	0	800063488	71	5008
2026-01-05 06:05:36.96	345.15	21.11	-53.8	-56.8	13.3	0.00e+00	0	28	0	807403520	72	5525
2026-01-05 06:05:40.93	344.24	20.87	-52.7	-55.0	14.1	0.00e+00	0	28	0	814743552	71	4747
2026-01-05 06:05:44.90	343.34	20.62	-52.2	-54.3	14.3	0.00e+00	0	28	0	822083584	70	4649
2026-01-05 06:05:48.88	342.46	20.37	-51.7	-53.6	14.6	0.00e+00	0	28	0	829423616	70	4281
2026-01-05 06:05:52.86	341.59	20.11	-51.1	-52.9	14.7	0.00e+00	0	28	0	837812224	68	4399
2026-01-05 06:05:56.84	340.73	19.85	-50.4	-52.1	14.7	0.00e+00	0	27	0	845152256	67	4279
2026-01-05 06:06:00.83	339.89	19.58	-51.8	-54.0	14.2	0.00e+00	0	28	0	852492288	68	4990
2026-01-05 06:06:04.82	339.07	19.31	-52.6	-55.1	14.0	0.00e+00	0	28	0	859832320	70	5045
2026-01-05 06:06:08.83	338.25	19.03	-52.1	-54.3	14.3	0.00e+00	0	28	0	867172352	70	4624
2026-01-05 06:06:12.83	337.45	18.76	-51.5	-53.5	14.5	0.00e+00	0	28	0	874512384	69	4482
2026-01-05 06:06:16.83	336.66	18.48	-51.0	-52.9	14.7	0.00e+00	0	28	0	881852416	68	4403
2026-01-05 06:06:20.84	335.89	18.19	-51.8	-53.9	14.3	0.00e+00	0	27	0	890241024	68	4942
2026-01-05 06:06:24.83	335.14	17.91	-51.8	-53.8	14.3	0.00e+00	0	28	0	897581056	68	4921
2026-01-05 06:06:28.80	334.40	17.62	-52.2	-54.4	14.2	0.00e+00	0	28	0	904921088	69	4943
2026-01-05 06:06:32.79	333.68	17.34	-51.9	-54.0	14.4	0.00e+00	0	28	0	912261120	69	4711
2026-01-05 06:06:36.78	332.96	17.05	-51.7	-53.6	14.5	7.00e-07	0	28	0	919601152	69	4533
2026-01-05 06:06:40.78	332.26	16.76	-51.8	-53.7	14.5	0.00e+00	0	28	0	926941184	69	4587
2026-01-05 06:06:44.75	331.58	16.47	-51.7	-53.6	14.5	0.00e+00	0	27	0	934281216	69	4537
2026-01-05 06:06:48.73	330.91	16.18	-51.0	-52.6	14.8	0.00e+00	0	28	0	941621248	68	4289
2026-01-05 06:06:52.69	330.26	15.89	-51.3	-53.0	14.6	0.00e+00	0	27	0	950009856	68	4479
2026-01-05 06:06:56.67	329.62	15.60	-51.5	-53.4	14.5	0.00e+00	0	28	0	957349888	68	4665
2026-01-05 06:07:00.65	328.99	15.31	-51.5	-53.4	14.5	1.50e-06	0	27	0	964689920	68	4655
2026-01-05 06:07:04.64	328.36	15.02	-50.9	-52.5	14.8	0.00e+00	0	28	0	972029952	68	4225
2026-01-05 06:07:08.63	327.76	14.73	-51.9	-53.8	14.3	1.22e-05	0	28	0	979369984	68	4912
2026-01-05 06:07:12.62	327.16	14.43	-52.1	-54.1	14.2	0.00e+00	0	28	0	986710016	69	4808
2026-01-05 06:07:16.64	326.57	14.14	-51.7	-53.5	14.5	0.00e+00	0	28	0	994050048	69	4489
2026-01-05 06:07:20.64	326.00	13.85	-51.3	-53.0	14.7	0.00e+00	0	27	0	1002438656	69	4219
2026-01-05 06:07:24.64	325.44	13.56	-51.3	-53.1	14.6	0.00e+00	0	28	0	1009778688	68	4505
2026-01-05 06:07:28.62	324.89	13.27	-52.4	-54.4	14.1	0.00e+00	0	28	0	1017118720	69	4975
2026-01-05 06:07:32.62	324.35	12.98	-52.6	-54.7	14.2	0.00e+00	0	28	0	1024458752	71	4591
2026-01-05 06:07:36.60	323.82	12.69	-51.9	-53.8	14.5	0.00e+00	0	28	0	1031798784	70	4350
2026-01-05 06:07:40.59	323.30	12.41	-51.8	-53.7	14.4	0.00e+00	0	28	0	1039138816	69	4564
2026-01-05 06:07:44.57	322.80	12.12	-51.7	-53.6	14.4	0.00e+00	0	28	0	1046478848	69	4514
2026-01-05 06:07:48.56	322.30	11.84	-51.8	-53.7	14.4	0.00e+00	0	28	0	1053818880	69	4555
2026-01-05 06:07:52.56	321.81	11.56	-52.4	-54.5	14.1	0.00e+00	0	28	0	1062207488	69	5017
2026-01-05 06:07:56.53	321.33	11.28	-52.8	-55.0	13.9	0.00e+00	0	28	0	1069547520	70	5021
2026-01-05 06:08:00.50	320.87	11.00	-52.7	-55.0	13.9	0.00e+00	0	27	0	1076887552	70	4999
2026-01-05 06:08:04.49	320.41	10.72	-53.0	-55.4	13.8	0.00e+00	0	28	0	1084227584	71	4949
2026-01-05 06:08:08.47	319.96	10.44	-53.2	-55.6	13.7	0.00e+00	0	27	0	1091567616	71	5089
2026-01-05 06:08:12.46	319.51	10.16	-52.7	-54.9	14.1	0.00e+00	0	28	0	1098907648	71	4678
2026-01-05 06:08:16.45	319.08	9.89	-52.5	-54.6	14.2	0.00e+00	0	28	0	1106247680	71	4532
2026-01-05 06:08:20.43	318.65	9.61	-52.8	-54.9	14.0	0.00e+00	0	28	0	1113587712	71	4697
2026-01-05 06:08:24.42	318.24	9.34	-53.1	-55.4	13.8	0.00e+00	0	28	0	1121976320	71	4958
2026-01-05 06:08:28.40	317.83	9.07	-53.2	-55.5	13.8	0.00e+00	0	28	0	1129316352	71	5021
2026-01-05 06:08:32.39	317.43	8.80	-53.0	-55.4	13.9	0.00e+00	0	28	0	1136656384	71	4929
2026-01-05 06:08:36.39	317.03	8.54	-52.9	-55.2	13.9	0.00e+00	0	27	0	1143996416	71	4869
2026-01-05 06:08:40.39	316.64	8.27	-53.1	-55.5	13.7	0.00e+00	0	28	0	1151336448	71	5020
2026-01-05 06:08:44.38	316.26	8.00	-53.7	-56.4	13.3	0.00e+00	0	28	0	1158676480	72	5268
2026-01-05 06:08:48.37	315.89	7.74	-54.1	-57.1	13.1	0.00e+00	0	28	0	1166016512	73	5370
2026-01-05 06:08:52.36	315.52	7.48	-54.3	-57.4	12.8	0.00e+00	0	28	0	1173356544	73	5586
2026-01-05 06:08:56.34	315.17	7.22	-54.4	-57.5	12.9	0.00e+00	0	28	0	1181745152	74	5307
2026-01-05 06:09:00.32	314.82	6.96	-54.4	-57.5	12.9	0.00e+00	0	28	0	1189085184	74	5312
2026-01-05 06:09:04.32	314.47	6.70	-54.5	-57.6	12.8	7.00e-07	0	28	0	1196425216	74	5391
2026-01-05 06:09:08.30	314.13	6.45	-54.5	-57.8	12.7	0.00e+00	0	28	0	1203765248	74	5471
2026-01-05 06:09:12.29	313.80	6.20	-54.8	-58.2	12.4	0.00e+00	0	28	0	1211105280	74	5755
2026-01-05 06:09:16.29	313.47	5.94	-54.9	-58.4	12.3	0.00e+00	0	28	0	1218445312	75	5567
2026-01-05 06:09:20.28	313.15	5.69	-54.5	-57.8	12.7	0.00e+00	0	28	0	1225785344	75	5180
2026-01-05 06:09:24.26	312.83	5.44	-54.0	-56.8	13.2	0.00e+00	0	28	0	1234173952	74	4926
2026-01-05 06:09:28.27	312.52	5.20	-53.6	-56.3	13.4	0.00e+00	0	28	0	1241513984	73	4917
2026-01-05 06:09:32.27	312.21	4.95	-58.6	-73.0	3.8	1.03e-01	0	28	104	1247805440	82	20027
2026-01-05 06:09:36.27	311.91	4.70	-60.1	-76.2	3.8	1.49e+00	0	28	104	1247805440	85	24222
2026-01-05 06:09:40.26	311.62	4.46	-60.7	-76.8	3.8	1.49e+00	0	28	104	1247805440	86	24534
2026-01-05 06:09:44.25	311.33	4.22	-61.1	-77.1	3.8	1.49e+00	0	28	104	1247805440	87	24045
2026-01-05 06:09:48.26	311.04	3.98	-61.2	-77.3	3.8	1.49e+00	0	28	104	1247805440	87	24568
2026-01-05 06:09:52.25	310.76	3.74	-61.2	-77.3	3.8	1.49e+00	0	28	104	1247805440	87	24515
2026-01-05 06:09:56.23	310.49	3.50	-61.1	-77.2	3.8	1.49e+00	0	28	104	1247805440	87	24318
2026-01-05 06:10:00.19	310.22	3.27	-61.0	-77.1	3.8	1.49e+00	0	28	104	1247805440	87	24070
2026-01-05 06:10:04.13	309.96	3.04	-61.0	-77.0	3.8	1.49e+00	0	28	104	1247805440	87	23823
2026-01-05 06:10:08.10	309.70	2.80	-60.9	-77.0	3.8	1.49e+00	0	28	104	1247805440	87	23774
2026-01-05 06:10:12.07	309.44	2.57	-60.9	-76.9	3.8	1.49e+00	0	28	104	1247805440	87	23535
2026-01-05 06:10:16.06	309.19	2.34	-60.8	-76.9	3.8	1.49e+00	0	28	104	1247805440	87	23497
2026-01-05 06:10:20.06	308.94	2.11	-60.8	-76.9	3.8	1.49e+00	0	28	104	1247805440	87	23397
2026-01-05 06:10:24.05	308.70	1.89	-60.8	-76.9	3.8	1.49e+00	0	28	104	1247805440	87	23385

#Closed at: 2026-01-05 06:10:24
#Recorded file [1247 MB]: D:/lorett/data/31004_260105_085738.dat