passes_logs/2026/01/02/R3.2S_Murmansk/R3.2S_Murmansk__20260102_014019_KANOPUS-V_6_rec.log

#Pass ID: 20260102_014019_KANOPUS-V 6
#Satellite: KANOPUS-V 6
#Configuration: KANOPUS-V_8320
#almurnet v.1.7.20251203
#Start time: 2026-01-02 01:40:20

#Version: 2.2.20231116
#Station: R3.2S_Murmansk
#Location: 33.079688 lon 68.888172 lat
#TLE: 1 43877U 18111B   26001.20722580  .00026151  00000+0  76270-3 0  9995
#TLE: 2 43877  97.3771 277.3120 0002522 101.1090 259.0437 15.35332397389843

#Time	Az	El	Level	Level2	SNR	BER	BlckErr	Temp	State	Recorded	gain1	gain2
2026-01-02 01:40:20.02	26.99	2.00	-56.3	-66.1	3.8	7.45e-01	0	33	0	0	75	11957
2026-01-02 01:40:22.01	26.76	2.12	-56.4	-66.2	3.8	7.44e-01	0	33	104	0	77	10815
2026-01-02 01:40:24.01	26.53	2.23	-56.4	-66.2	3.8	7.46e-01	0	34	104	0	77	10788
2026-01-02 01:40:26.02	26.30	2.35	-56.4	-66.2	3.8	7.44e-01	0	34	104	0	77	10823
2026-01-02 01:40:28.02	26.07	2.47	-56.4	-66.2	3.8	7.46e-01	0	33	104	0	77	10804
2026-01-02 01:40:30.02	25.83	2.58	-56.4	-66.2	3.8	7.44e-01	0	33	104	0	77	10792
2026-01-02 01:40:32.03	25.59	2.70	-56.4	-66.2	3.8	7.45e-01	0	33	104	0	77	10829
2026-01-02 01:40:34.04	25.35	2.82	-56.4	-66.2	3.8	7.48e-01	0	33	104	0	77	10790
2026-01-02 01:40:36.04	25.11	2.93	-56.4	-66.2	3.8	7.46e-01	0	33	104	0	77	10797
2026-01-02 01:40:38.04	24.86	3.05	-56.4	-66.2	3.8	7.44e-01	0	34	104	0	77	10794
2026-01-02 01:40:40.03	24.61	3.17	-56.4	-66.2	3.8	7.45e-01	0	34	104	0	77	10807
2026-01-02 01:40:42.03	24.36	3.29	-56.4	-66.1	3.8	7.45e-01	0	34	104	0	77	10774
2026-01-02 01:40:44.04	24.10	3.41	-56.4	-66.2	3.8	7.46e-01	0	33	104	0	77	10820
2026-01-02 01:40:46.04	23.85	3.52	-56.4	-66.1	3.8	7.45e-01	0	33	104	0	77	10775
2026-01-02 01:40:48.04	23.59	3.64	-56.4	-66.2	3.8	7.44e-01	0	33	104	0	77	10825
2026-01-02 01:40:50.05	23.32	3.76	-56.4	-66.2	3.8	7.45e-01	0	33	104	0	77	10781
2026-01-02 01:40:52.06	23.06	3.88	-56.4	-66.1	3.8	7.45e-01	0	33	104	0	77	10770
2026-01-02 01:40:54.06	22.79	4.00	-56.4	-66.2	3.8	7.45e-01	0	33	104	0	77	10822
2026-01-02 01:40:56.06	22.51	4.12	-56.4	-66.2	3.8	7.45e-01	0	33	104	0	77	10803
2026-01-02 01:40:58.07	22.24	4.24	-56.4	-66.2	3.8	7.43e-01	0	33	104	0	77	10817
2026-01-02 01:41:00.07	21.96	4.36	-56.4	-66.2	3.8	7.46e-01	0	33	104	0	77	10818
2026-01-02 01:41:02.07	21.68	4.48	-56.4	-66.1	3.8	7.45e-01	0	34	104	0	77	10775
2026-01-02 01:41:04.06	21.39	4.60	-56.4	-66.1	3.8	7.48e-01	0	33	104	0	77	10764
2026-01-02 01:41:06.07	21.11	4.73	-56.4	-66.2	3.8	7.44e-01	0	33	104	0	77	10781
2026-01-02 01:41:08.06	20.82	4.85	-56.4	-66.2	3.8	7.44e-01	0	33	104	0	77	10783
2026-01-02 01:41:10.06	20.52	4.97	-56.4	-66.2	3.8	7.46e-01	0	33	104	0	77	10824
2026-01-02 01:41:12.04	20.23	5.09	-56.4	-66.1	3.8	7.46e-01	0	33	104	0	77	10770
2026-01-02 01:41:14.05	19.92	5.21	-56.4	-66.1	3.8	7.45e-01	0	33	104	0	77	10773
2026-01-02 01:41:16.04	19.62	5.33	-56.4	-66.1	3.8	7.45e-01	0	34	104	0	77	10771
2026-01-02 01:41:18.03	19.32	5.45	-56.4	-66.2	3.8	7.45e-01	0	33	104	0	77	10796
2026-01-02 01:41:20.04	19.00	5.58	-56.4	-66.2	3.8	7.46e-01	0	34	104	0	77	10839
2026-01-02 01:41:22.05	18.69	5.70	-56.4	-66.2	3.8	7.45e-01	0	34	104	0	77	10800
2026-01-02 01:41:24.05	18.37	5.82	-56.4	-66.2	3.8	7.46e-01	0	34	104	0	77	10813
2026-01-02 01:41:26.05	18.05	5.95	-56.4	-66.2	3.8	7.46e-01	0	34	104	0	77	10794
2026-01-02 01:41:28.06	17.72	6.07	-56.4	-66.2	3.8	7.44e-01	0	34	104	0	77	10795
2026-01-02 01:41:30.06	17.39	6.19	-56.4	-66.2	3.8	7.46e-01	0	33	104	0	77	10820
2026-01-02 01:41:32.06	17.06	6.32	-56.4	-66.2	3.8	7.45e-01	0	34	104	0	77	10798
2026-01-02 01:41:34.06	16.72	6.44	-56.4	-66.2	3.8	7.45e-01	0	33	104	0	77	10796
2026-01-02 01:41:36.05	16.38	6.56	-56.4	-66.2	3.8	7.45e-01	0	33	104	0	77	10796
2026-01-02 01:41:38.05	16.03	6.69	-56.4	-66.2	3.8	7.45e-01	0	34	104	0	77	10795
2026-01-02 01:41:40.05	15.69	6.81	-56.4	-66.1	3.8	7.46e-01	0	34	104	0	77	10777
2026-01-02 01:41:42.04	15.34	6.93	-56.4	-66.2	3.8	7.46e-01	0	34	104	0	77	10836
2026-01-02 01:41:44.04	14.98	7.06	-56.4	-66.2	3.8	7.44e-01	0	34	104	0	77	10807
2026-01-02 01:41:46.04	14.62	7.18	-56.4	-66.1	3.8	7.46e-01	0	34	104	0	77	10774
2026-01-02 01:41:48.04	14.25	7.30	-56.4	-66.2	3.8	7.45e-01	0	34	104	0	77	10823
2026-01-02 01:41:50.04	13.89	7.43	-56.4	-66.1	3.8	7.45e-01	0	34	104	0	77	10775
2026-01-02 01:41:52.06	13.51	7.55	-56.4	-66.2	3.8	7.44e-01	0	33	104	0	77	10822
2026-01-02 01:41:54.06	13.13	7.67	-56.4	-66.2	3.8	7.45e-01	0	34	104	0	77	10781
2026-01-02 01:41:56.05	12.75	7.80	-56.4	-66.2	3.8	7.46e-01	0	34	104	0	77	10794
2026-01-02 01:41:58.05	12.37	7.92	-56.4	-66.1	3.8	7.45e-01	0	34	104	0	77	10751
2026-01-02 01:42:00.05	11.98	8.04	-56.4	-66.2	3.8	7.45e-01	0	34	104	0	77	10795
2026-01-02 01:42:02.05	11.58	8.16	-56.4	-66.1	3.8	7.46e-01	0	34	104	0	77	10778
2026-01-02 01:42:04.05	11.18	8.29	-56.4	-66.2	3.8	7.45e-01	0	34	104	0	77	10802
2026-01-02 01:42:06.05	10.78	8.41	-56.4	-66.2	3.8	7.44e-01	0	34	104	0	77	10785
2026-01-02 01:42:08.05	10.37	8.53	-56.4	-66.1	3.8	7.45e-01	0	34	104	0	77	10778
2026-01-02 01:42:10.06	9.96	8.65	-56.4	-66.1	3.8	7.45e-01	0	34	104	0	77	10764
2026-01-02 01:42:12.05	9.55	8.77	-56.4	-66.1	3.8	7.45e-01	0	34	104	0	77	10768
2026-01-02 01:42:14.04	9.13	8.89	-56.4	-66.1	3.8	7.45e-01	0	34	104	0	77	10768
2026-01-02 01:42:16.04	8.70	9.01	-56.4	-66.1	3.8	7.43e-01	0	34	104	0	77	10773
2026-01-02 01:42:18.04	8.27	9.13	-56.4	-66.2	3.8	7.46e-01	0	33	104	0	77	10782
2026-01-02 01:42:20.03	7.84	9.25	-56.4	-66.1	3.8	7.45e-01	0	34	104	0	77	10752
2026-01-02 01:42:22.03	7.40	9.37	-56.4	-66.1	3.8	7.46e-01	0	34	104	0	77	10770
2026-01-02 01:42:24.04	6.96	9.49	-56.4	-66.2	3.8	7.45e-01	0	34	104	0	77	10814
2026-01-02 01:42:26.05	6.50	9.61	-56.4	-66.2	3.8	7.46e-01	0	33	104	0	77	10779
2026-01-02 01:42:28.05	6.05	9.72	-56.4	-66.2	3.8	7.46e-01	0	34	104	0	77	10821
2026-01-02 01:42:30.06	5.59	9.84	-56.4	-66.1	3.8	7.47e-01	0	34	104	0	77	10756
2026-01-02 01:42:32.06	5.13	9.96	-56.4	-66.2	3.8	7.46e-01	0	34	104	0	77	10809
2026-01-02 01:42:34.07	4.66	10.07	-56.4	-66.2	3.8	7.45e-01	0	34	104	0	77	10782
2026-01-02 01:42:36.08	4.18	10.19	-56.4	-66.2	3.8	7.47e-01	0	34	104	0	77	10793
2026-01-02 01:42:38.08	3.71	10.30	-56.4	-66.1	3.8	7.45e-01	0	34	104	0	77	10773
2026-01-02 01:42:40.07	3.23	10.41	-56.4	-66.2	3.8	7.47e-01	0	34	104	0	77	10800
2026-01-02 01:42:42.07	2.74	10.52	-56.4	-66.2	3.8	7.46e-01	0	34	104	0	77	10783
2026-01-02 01:42:44.08	2.25	10.63	-56.4	-66.2	3.8	7.48e-01	0	34	104	0	77	10804
2026-01-02 01:42:46.07	1.76	10.74	-56.4	-66.1	3.8	7.46e-01	0	34	104	0	77	10771
2026-01-02 01:42:48.07	1.26	10.85	-56.4	-66.1	3.8	7.46e-01	0	34	104	0	77	10771
2026-01-02 01:42:50.07	0.75	10.96	-56.4	-66.2	3.8	7.46e-01	0	34	104	0	77	10807
2026-01-02 01:42:52.07	0.24	11.07	-56.4	-66.1	3.8	7.46e-01	0	34	104	0	77	10763
2026-01-02 01:42:54.08	359.72	11.17	-56.4	-66.1	3.8	7.45e-01	0	34	104	0	77	10773
2026-01-02 01:42:56.09	359.20	11.28	-56.4	-66.1	3.8	7.47e-01	0	34	104	0	77	10771
2026-01-02 01:42:58.08	358.68	11.38	-56.4	-66.1	3.8	7.44e-01	0	34	104	0	77	10774
2026-01-02 01:43:00.08	358.15	11.48	-56.4	-66.2	3.8	7.44e-01	0	34	104	0	77	10793
2026-01-02 01:43:02.08	357.62	11.58	-56.4	-66.2	3.8	7.45e-01	0	34	104	0	77	10779
2026-01-02 01:43:04.09	357.08	11.68	-56.4	-66.1	3.8	7.43e-01	0	34	104	0	77	10729
2026-01-02 01:43:06.08	356.54	11.77	-56.4	-66.1	3.8	7.46e-01	0	34	104	0	77	10747
2026-01-02 01:43:08.08	355.99	11.87	-56.4	-66.2	3.8	7.46e-01	0	34	104	0	77	10792
2026-01-02 01:43:10.07	355.44	11.96	-56.4	-66.1	3.8	7.47e-01	0	34	104	0	77	10764
2026-01-02 01:43:12.07	354.89	12.05	-56.4	-66.1	3.8	7.46e-01	0	34	104	0	77	10772
2026-01-02 01:43:14.07	354.32	12.14	-56.4	-66.1	3.8	7.46e-01	0	34	104	0	77	10747
2026-01-02 01:43:16.06	353.76	12.23	-56.4	-66.1	3.8	7.45e-01	0	34	104	0	77	10778
2026-01-02 01:43:18.06	353.19	12.32	-56.4	-66.2	3.8	7.46e-01	0	34	104	0	77	10796
2026-01-02 01:43:20.06	352.62	12.40	-56.4	-66.1	3.8	7.45e-01	0	34	104	0	77	10747
2026-01-02 01:43:22.07	352.04	12.48	-56.4	-66.2	3.8	7.46e-01	0	34	104	0	77	10786
2026-01-02 01:43:24.06	351.46	12.56	-56.4	-66.1	3.8	7.46e-01	0	33	104	0	77	10724
2026-01-02 01:43:26.05	350.88	12.64	-56.4	-66.2	3.8	7.45e-01	0	34	104	0	77	10779
2026-01-02 01:43:28.03	350.30	12.72	-56.4	-66.1	3.8	7.46e-01	0	34	104	0	77	10753
2026-01-02 01:43:30.03	349.71	12.79	-56.4	-66.1	3.8	7.44e-01	0	34	104	0	77	10768
2026-01-02 01:43:32.01	349.12	12.86	-56.4	-66.1	3.8	7.45e-01	0	34	104	0	77	10774
2026-01-02 01:43:34.01	348.52	12.93	-56.4	-66.2	3.8	7.46e-01	0	34	104	0	77	10808
2026-01-02 01:43:36.01	347.91	13.00	-56.4	-66.1	3.8	7.45e-01	0	34	104	0	77	10766
2026-01-02 01:43:38.01	347.31	13.06	-56.4	-66.1	3.8	7.47e-01	0	34	104	0	77	10767
2026-01-02 01:43:40.01	346.70	13.13	-56.4	-66.1	3.8	7.46e-01	0	34	104	0	77	10773
2026-01-02 01:43:42.01	346.08	13.19	-56.4	-66.1	3.8	7.47e-01	0	34	104	0	77	10759
2026-01-02 01:43:44.01	345.47	13.24	-56.4	-66.1	3.8	7.45e-01	0	34	104	0	77	10775
2026-01-02 01:43:46.00	344.85	13.30	-56.4	-66.1	3.8	7.46e-01	0	34	104	0	77	10772
2026-01-02 01:43:48.00	344.23	13.35	-56.4	-66.2	3.8	7.46e-01	0	34	104	0	77	10787
2026-01-02 01:43:50.00	343.60	13.40	-56.4	-66.1	3.8	7.47e-01	0	34	104	0	77	10735
2026-01-02 01:43:52.00	342.98	13.45	-56.4	-66.2	3.8	7.47e-01	0	34	104	0	77	10793
2026-01-02 01:43:54.00	342.35	13.49	-56.4	-66.2	3.8	7.46e-01	0	34	104	0	77	10798
2026-01-02 01:43:56.01	341.71	13.53	-56.4	-66.2	3.8	7.46e-01	0	34	104	0	77	10782
2026-01-02 01:43:58.00	341.08	13.57	-56.4	-66.1	3.8	7.45e-01	0	34	104	0	77	10763
2026-01-02 01:44:00.00	340.44	13.61	-56.4	-66.1	3.8	7.46e-01	0	34	104	0	77	10771
2026-01-02 01:44:02.00	339.81	13.64	-56.4	-66.1	3.8	7.45e-01	0	34	104	0	77	10769
2026-01-02 01:44:03.99	339.17	13.67	-56.4	-66.2	3.8	7.45e-01	0	34	104	0	77	10782
2026-01-02 01:44:05.99	338.53	13.70	-56.4	-66.1	3.8	7.44e-01	0	33	104	0	77	10771
2026-01-02 01:44:07.99	337.89	13.72	-56.4	-66.1	3.8	7.45e-01	0	34	104	0	77	10735
2026-01-02 01:44:09.98	337.25	13.74	-56.4	-66.2	3.8	7.46e-01	0	34	104	0	77	10805
2026-01-02 01:44:11.99	336.60	13.76	-56.4	-66.1	3.8	7.46e-01	0	34	104	0	77	10751
2026-01-02 01:44:14.00	335.95	13.78	-56.4	-66.1	3.8	7.47e-01	0	34	104	0	77	10750
2026-01-02 01:44:15.99	335.30	13.79	-56.4	-66.1	3.8	7.46e-01	0	34	104	0	77	10734
2026-01-02 01:44:17.98	334.66	13.80	-56.4	-66.2	3.8	7.46e-01	0	34	104	0	77	10780
2026-01-02 01:44:19.97	334.02	13.80	-56.4	-66.1	3.8	7.44e-01	0	34	104	0	77	10774
2026-01-02 01:44:21.97	333.37	13.81	-56.4	-66.1	3.8	7.46e-01	0	34	104	0	77	10761
2026-01-02 01:44:23.95	332.73	13.81	-56.4	-66.1	3.8	7.47e-01	0	34	104	0	77	10771
2026-01-02 01:44:25.95	332.08	13.80	-56.4	-66.2	3.8	7.46e-01	0	34	104	0	77	10781
2026-01-02 01:44:27.95	331.43	13.80	-56.4	-66.1	3.8	7.46e-01	0	34	104	0	77	10757
2026-01-02 01:44:29.95	330.78	13.79	-56.4	-66.1	3.8	7.46e-01	0	34	104	0	77	10728
2026-01-02 01:44:31.95	330.14	13.77	-56.4	-66.1	3.8	7.47e-01	0	34	104	0	77	10776
2026-01-02 01:44:33.96	329.49	13.76	-56.4	-66.2	3.8	7.46e-01	0	34	104	0	77	10792
2026-01-02 01:44:35.97	328.84	13.74	-56.4	-66.1	3.8	7.46e-01	0	34	104	0	77	10749
2026-01-02 01:44:37.98	328.19	13.72	-56.4	-66.1	3.8	7.45e-01	0	34	104	0	77	10739
2026-01-02 01:44:39.97	327.55	13.70	-56.4	-66.1	3.8	7.45e-01	0	34	104	0	77	10771
2026-01-02 01:44:41.98	326.91	13.67	-56.4	-66.1	3.8	7.45e-01	0	34	104	0	77	10778
2026-01-02 01:44:43.97	326.27	13.64	-56.4	-66.1	3.8	7.44e-01	0	34	104	0	77	10730
2026-01-02 01:44:45.97	325.63	13.60	-56.4	-66.1	3.8	7.46e-01	0	34	104	0	77	10714
2026-01-02 01:44:47.96	325.00	13.57	-56.4	-66.1	3.8	7.45e-01	0	34	104	0	77	10763
2026-01-02 01:44:49.97	324.36	13.53	-56.4	-66.1	3.8	7.46e-01	0	34	104	0	77	10778
2026-01-02 01:44:51.97	323.73	13.49	-56.4	-66.1	3.8	7.45e-01	0	34	104	0	77	10727
2026-01-02 01:44:53.98	323.10	13.44	-56.4	-66.1	3.8	7.44e-01	0	34	104	0	77	10722
2026-01-02 01:44:55.97	322.47	13.40	-56.4	-66.1	3.8	7.44e-01	0	34	104	0	77	10749
2026-01-02 01:44:57.97	321.85	13.35	-56.4	-66.1	3.8	7.43e-01	0	34	104	0	77	10744
2026-01-02 01:44:59.97	321.23	13.29	-56.4	-66.1	3.8	7.45e-01	0	34	104	0	77	10735
2026-01-02 01:45:01.97	320.61	13.24	-56.4	-66.1	3.8	7.46e-01	0	34	104	0	77	10746
2026-01-02 01:45:03.98	319.99	13.18	-56.4	-66.1	3.8	7.47e-01	0	34	104	0	77	10762
2026-01-02 01:45:05.99	319.37	13.12	-56.4	-66.1	3.8	7.46e-01	0	34	104	0	77	10736
2026-01-02 01:45:07.99	318.76	13.06	-56.4	-66.1	3.8	7.45e-01	0	34	104	0	77	10739
2026-01-02 01:45:09.98	318.15	12.99	-56.4	-66.1	3.8	7.45e-01	0	34	104	0	77	10747
2026-01-02 01:45:11.97	317.55	12.92	-56.4	-66.1	3.8	7.45e-01	0	34	104	0	77	10744
2026-01-02 01:45:13.97	316.95	12.85	-56.4	-66.1	3.8	7.45e-01	0	34	104	0	77	10726
2026-01-02 01:45:15.96	316.36	12.78	-56.4	-66.2	3.8	7.46e-01	0	34	104	0	77	10785
2026-01-02 01:45:17.96	315.77	12.71	-56.4	-66.1	3.8	7.44e-01	0	34	104	0	77	10741
2026-01-02 01:45:19.95	315.18	12.63	-56.4	-66.1	3.8	7.46e-01	0	34	104	0	77	10736
2026-01-02 01:45:21.95	314.59	12.55	-56.4	-66.1	3.8	7.45e-01	0	34	104	0	77	10745
2026-01-02 01:45:23.96	314.01	12.47	-56.4	-66.1	3.8	7.46e-01	0	34	104	0	77	10728
2026-01-02 01:45:25.97	313.43	12.39	-56.4	-66.1	3.8	7.46e-01	0	34	104	0	77	10761
2026-01-02 01:45:27.97	312.86	12.30	-56.4	-66.1	3.8	7.47e-01	0	33	104	0	77	10737
2026-01-02 01:45:29.97	312.29	12.22	-56.4	-66.1	3.8	7.45e-01	0	34	104	0	77	10740
2026-01-02 01:45:31.97	311.72	12.13	-56.4	-66.1	3.8	7.44e-01	0	34	104	0	77	10708
2026-01-02 01:45:33.97	311.16	12.04	-56.4	-66.1	3.8	7.46e-01	0	34	104	0	77	10726
2026-01-02 01:45:35.97	310.60	11.95	-56.4	-66.1	3.8	7.45e-01	0	34	104	0	77	10720
2026-01-02 01:45:37.97	310.05	11.85	-56.4	-66.1	3.8	7.46e-01	0	34	104	0	77	10772
2026-01-02 01:45:39.98	309.50	11.76	-56.4	-66.1	3.8	7.46e-01	0	34	104	0	77	10713
2026-01-02 01:45:41.98	308.96	11.66	-56.4	-66.1	3.8	7.45e-01	0	34	104	0	77	10774
2026-01-02 01:45:43.97	308.42	11.56	-56.4	-66.1	3.8	7.45e-01	0	34	104	0	77	10737
2026-01-02 01:45:45.97	307.89	11.46	-56.4	-66.1	3.8	7.47e-01	0	34	104	0	77	10739
2026-01-02 01:45:47.98	307.36	11.36	-56.4	-66.2	3.8	7.45e-01	0	34	104	0	77	10790
2026-01-02 01:45:49.98	306.83	11.26	-56.4	-66.1	3.8	7.45e-01	0	34	104	0	77	10748
2026-01-02 01:45:51.98	306.31	11.15	-56.4	-66.1	3.8	7.46e-01	0	34	104	0	77	10733
2026-01-02 01:45:53.98	305.80	11.05	-56.4	-66.1	3.8	7.46e-01	0	34	104	0	77	10763
2026-01-02 01:45:55.98	305.29	10.94	-56.4	-66.1	3.8	7.47e-01	0	33	104	0	77	10763
2026-01-02 01:45:57.99	304.78	10.83	-56.4	-66.1	3.8	7.46e-01	0	33	104	0	77	10748
2026-01-02 01:45:59.98	304.28	10.72	-56.4	-66.1	3.8	7.47e-01	0	34	104	0	77	10769
2026-01-02 01:46:01.98	303.78	10.61	-56.4	-66.1	3.8	7.46e-01	0	34	104	0	77	10744
2026-01-02 01:46:03.96	303.30	10.50	-56.4	-66.2	3.8	7.47e-01	0	34	104	0	77	10786
2026-01-02 01:46:05.97	302.81	10.39	-56.4	-66.1	3.8	7.46e-01	0	33	104	0	77	10724
2026-01-02 01:46:07.97	302.32	10.28	-56.4	-66.1	3.8	7.45e-01	0	34	104	0	77	10726
2026-01-02 01:46:09.97	301.85	10.16	-56.4	-66.1	3.8	7.45e-01	0	34	104	0	77	10725
2026-01-02 01:46:11.98	301.37	10.05	-56.4	-66.1	3.8	7.45e-01	0	34	104	0	77	10725
2026-01-02 01:46:13.97	300.91	9.93	-56.4	-66.1	3.8	7.46e-01	0	34	104	0	77	10744
2026-01-02 01:46:15.96	300.44	9.82	-56.4	-66.1	3.8	7.44e-01	0	34	104	0	77	10718
2026-01-02 01:46:17.96	299.99	9.70	-56.4	-66.1	3.8	7.46e-01	0	34	104	0	77	10718
2026-01-02 01:46:19.95	299.53	9.59	-56.4	-66.1	3.8	7.44e-01	0	34	104	0	77	10718
2026-01-02 01:46:21.94	299.09	9.47	-56.4	-66.1	3.8	7.47e-01	0	34	104	0	77	10744
2026-01-02 01:46:23.95	298.64	9.35	-56.4	-66.1	3.8	7.45e-01	0	34	104	0	77	10683
2026-01-02 01:46:25.96	298.20	9.23	-56.4	-66.1	3.8	7.47e-01	0	34	104	0	77	10707
2026-01-02 01:46:27.94	297.77	9.11	-56.4	-66.1	3.8	7.45e-01	0	34	104	0	77	10707
2026-01-02 01:46:29.93	297.34	8.99	-56.4	-66.1	3.8	7.45e-01	0	34	104	0	77	10718
2026-01-02 01:46:31.93	296.91	8.87	-56.4	-66.1	3.8	7.45e-01	0	34	104	0	77	10737
2026-01-02 01:46:33.94	296.49	8.75	-56.4	-66.1	3.8	7.45e-01	0	34	104	0	77	10751
2026-01-02 01:46:35.94	296.07	8.63	-56.4	-66.1	3.8	7.45e-01	0	34	104	0	77	10694
2026-01-02 01:46:37.94	295.66	8.51	-56.4	-66.1	3.8	7.46e-01	0	34	104	0	77	10737
2026-01-02 01:46:39.94	295.25	8.38	-56.4	-66.1	3.8	7.44e-01	0	34	104	0	77	10734
2026-01-02 01:46:41.95	294.85	8.26	-56.4	-66.1	3.8	7.45e-01	0	34	104	0	77	10749
2026-01-02 01:46:43.94	294.45	8.14	-56.4	-66.1	3.8	7.44e-01	0	34	104	0	77	10707
2026-01-02 01:46:45.95	294.05	8.02	-56.4	-66.1	3.8	7.46e-01	0	34	104	0	77	10711
2026-01-02 01:46:47.96	293.66	7.89	-56.4	-66.1	3.8	7.46e-01	0	34	104	0	77	10680
2026-01-02 01:46:49.96	293.27	7.77	-56.4	-66.1	3.8	7.45e-01	0	34	104	0	77	10740
2026-01-02 01:46:51.95	292.89	7.65	-56.4	-66.1	3.8	7.46e-01	0	34	104	0	77	10725
2026-01-02 01:46:53.96	292.51	7.52	-56.4	-66.1	3.8	7.46e-01	0	34	104	0	77	10729
2026-01-02 01:46:55.96	292.14	7.40	-56.4	-66.1	3.8	7.45e-01	0	34	104	0	77	10733
2026-01-02 01:46:57.97	291.77	7.27	-56.4	-66.1	3.8	7.46e-01	0	34	104	0	77	10738
2026-01-02 01:46:59.96	291.40	7.15	-56.4	-66.1	3.8	7.45e-01	0	34	104	0	77	10730
2026-01-02 01:47:01.96	291.04	7.03	-56.4	-66.1	3.8	7.44e-01	0	34	104	0	77	10683
2026-01-02 01:47:03.97	290.68	6.90	-56.4	-66.1	3.8	7.46e-01	0	34	104	0	77	10748
2026-01-02 01:47:05.98	290.33	6.78	-56.4	-66.1	3.8	7.43e-01	0	34	104	0	77	10718
2026-01-02 01:47:07.98	289.98	6.65	-56.4	-66.1	3.8	7.45e-01	0	34	104	0	77	10729
2026-01-02 01:47:09.98	289.63	6.53	-56.4	-66.1	3.8	7.48e-01	0	34	104	0	77	10698
2026-01-02 01:47:11.98	289.29	6.41	-56.4	-66.1	3.8	7.47e-01	0	34	104	0	77	10689
2026-01-02 01:47:13.97	288.96	6.28	-56.4	-66.1	3.8	7.47e-01	0	34	104	0	77	10701
2026-01-02 01:47:15.96	288.62	6.16	-56.4	-66.1	3.8	7.46e-01	0	34	104	0	77	10718
2026-01-02 01:47:17.97	288.29	6.04	-56.4	-66.1	3.8	7.47e-01	0	34	104	0	77	10717
2026-01-02 01:47:19.96	287.97	5.91	-56.4	-66.1	3.8	7.45e-01	0	34	104	0	77	10705
2026-01-02 01:47:21.97	287.64	5.79	-56.4	-66.1	3.8	7.47e-01	0	34	104	0	77	10677
2026-01-02 01:47:23.96	287.33	5.67	-56.4	-66.1	3.8	7.44e-01	0	34	104	0	77	10706
2026-01-02 01:47:25.96	287.01	5.55	-56.4	-66.1	3.8	7.46e-01	0	34	104	0	77	10719
2026-01-02 01:47:27.96	286.70	5.42	-56.4	-66.1	3.8	7.45e-01	0	34	104	0	77	10714
2026-01-02 01:47:29.96	286.39	5.30	-56.4	-66.1	3.8	7.45e-01	0	34	104	0	77	10729
2026-01-02 01:47:31.97	286.08	5.18	-56.4	-66.1	3.8	7.46e-01	0	34	104	0	77	10670
2026-01-02 01:47:33.97	285.78	5.05	-56.4	-66.1	3.8	7.46e-01	0	34	104	0	77	10690
2026-01-02 01:47:35.98	285.48	4.93	-56.4	-66.1	3.8	7.46e-01	0	34	104	0	77	10691
2026-01-02 01:47:37.97	285.19	4.81	-56.4	-66.1	3.8	7.44e-01	0	34	104	0	77	10738
2026-01-02 01:47:39.98	284.89	4.69	-56.4	-66.1	3.8	7.45e-01	0	34	104	0	77	10664
2026-01-02 01:47:41.99	284.60	4.57	-56.4	-66.1	3.8	7.46e-01	0	34	104	0	77	10696
2026-01-02 01:47:43.98	284.32	4.45	-56.4	-66.1	3.8	7.45e-01	0	34	104	0	77	10687
2026-01-02 01:47:45.98	284.04	4.33	-56.4	-66.1	3.8	7.46e-01	0	34	104	0	77	10737
2026-01-02 01:47:47.98	283.76	4.20	-56.3	-66.1	3.8	7.44e-01	0	34	104	0	77	10678
2026-01-02 01:47:49.99	283.48	4.08	-56.4	-66.1	3.8	7.47e-01	0	33	104	0	77	10687
2026-01-02 01:47:51.99	283.21	3.96	-56.4	-66.1	3.8	7.44e-01	0	33	104	0	77	10674
2026-01-02 01:47:53.99	282.94	3.84	-56.4	-66.1	3.8	7.47e-01	0	34	104	0	77	10724
2026-01-02 01:47:55.99	282.67	3.72	-56.4	-66.1	3.8	7.45e-01	0	34	104	0	77	10726
2026-01-02 01:47:58.00	282.41	3.60	-56.4	-66.1	3.8	7.47e-01	0	34	104	0	77	10692
2026-01-02 01:48:00.01	282.14	3.48	-56.4	-66.1	3.8	7.45e-01	0	34	104	0	77	10723
2026-01-02 01:48:02.01	281.89	3.37	-56.4	-66.1	3.8	7.47e-01	0	34	104	0	77	10716
2026-01-02 01:48:04.01	281.63	3.25	-56.4	-66.1	3.8	7.45e-01	0	34	104	0	77	10710
2026-01-02 01:48:06.02	281.38	3.13	-56.4	-66.1	3.8	7.46e-01	0	34	104	0	77	10687
2026-01-02 01:48:08.02	281.13	3.01	-56.4	-66.1	3.8	7.44e-01	0	33	104	0	77	10664
2026-01-02 01:48:10.02	280.88	2.89	-56.4	-66.1	3.8	7.46e-01	0	34	104	0	77	10705
2026-01-02 01:48:12.02	280.64	2.77	-56.4	-66.1	3.8	7.46e-01	0	34	104	0	77	10695
2026-01-02 01:48:14.01	280.40	2.66	-56.4	-66.1	3.8	7.47e-01	0	34	104	0	77	10674
2026-01-02 01:48:16.01	280.16	2.54	-56.3	-66.1	3.8	7.46e-01	0	34	104	0	77	10676
2026-01-02 01:48:18.00	279.92	2.43	-56.3	-66.1	3.8	7.45e-01	0	34	104	0	77	10671
2026-01-02 01:48:19.99	279.69	2.31	-56.3	-66.1	3.8	7.45e-01	0	34	104	0	77	10672
2026-01-02 01:48:21.98	279.46	2.19	-56.4	-66.1	3.8	7.45e-01	0	34	104	0	77	10669
2026-01-02 01:48:23.98	279.23	2.08	-56.4	-66.1	3.8	7.46e-01	0	34	104	0	77	10678
2026-01-02 01:48:25.99	279.00	1.96	-56.4	-66.1	3.8	7.46e-01	0	34	104	0	77	10686

#Closed at: 2026-01-02 01:48:27
#Recorded file [0 MB]: D:/lorett/data/31004_260102_044019.dat