passes_logs/2026/01/02/R3.2S_Murmansk/R3.2S_Murmansk__20260102_093944_TY-42_rec.log

#Pass ID: 20260102_093944_TY-42
#Satellite: TY-42
#Configuration: TY-42_900M
#almurnet v.1.7.20251203
#Start time: 2026-01-02 09:39:45

#Version: 2.2.20231116
#Station: R3.2S_Murmansk
#Location: 33.079688 lon 68.888172 lat
#TLE: 1 64048U 25103A   26001.16230324  .00008011  00000-0  38191-3 0 09998
#TLE: 2 64048 097.4120 076.8412 0001853 093.7312 056.4064 15.19175193 34719

#Time	Az	El	Level	Level2	SNR	BER	BlckErr	Temp	State	Recorded	gain1	gain2
2026-01-02 09:39:45.05	20.97	2.03	-59.6	-62.4	6.2	0.00e+00	0	37	0	0	86	19366
2026-01-02 09:39:48.03	20.94	2.24	-59.6	-62.4	6.2	0.00e+00	0	37	104	0	86	19385
2026-01-02 09:39:51.02	20.92	2.45	-59.6	-62.4	6.2	0.00e+00	0	37	104	0	86	19278
2026-01-02 09:39:54.01	20.90	2.66	-59.6	-62.4	6.2	0.00e+00	0	37	104	0	86	19307
2026-01-02 09:39:56.99	20.87	2.88	-59.6	-62.4	6.2	0.00e+00	0	37	104	0	86	19375
2026-01-02 09:39:59.97	20.85	3.09	-59.6	-62.4	6.2	0.00e+00	0	37	104	0	86	19380
2026-01-02 09:40:02.96	20.82	3.31	-59.6	-62.4	6.2	0.00e+00	0	38	104	0	86	19323
2026-01-02 09:40:05.95	20.80	3.54	-59.6	-62.4	6.2	0.00e+00	0	38	104	0	86	19354
2026-01-02 09:40:08.93	20.77	3.76	-59.6	-62.4	6.2	0.00e+00	0	38	104	0	86	19398
2026-01-02 09:40:11.91	20.75	3.98	-59.6	-62.4	6.2	0.00e+00	0	38	104	0	86	19419
2026-01-02 09:40:14.90	20.72	4.21	-59.6	-62.4	6.2	0.00e+00	0	38	104	0	86	19383
2026-01-02 09:40:17.88	20.69	4.44	-59.6	-62.4	6.2	0.00e+00	0	38	104	0	86	19400
2026-01-02 09:40:20.87	20.66	4.68	-59.6	-62.4	6.2	0.00e+00	0	38	104	0	86	19400
2026-01-02 09:40:23.84	20.63	4.91	-59.6	-62.4	6.2	0.00e+00	0	38	104	0	86	19346
2026-01-02 09:40:26.82	20.60	5.15	-59.8	-62.6	6.2	0.00e+00	0	39	104	0	86	19796
2026-01-02 09:40:29.80	20.56	5.39	-59.7	-62.5	6.2	0.00e+00	0	38	104	0	86	19503
2026-01-02 09:40:32.76	20.53	5.64	-59.7	-62.5	6.2	0.00e+00	0	39	104	0	86	19633
2026-01-02 09:40:35.75	20.50	5.89	-59.7	-62.5	6.2	0.00e+00	0	39	104	0	86	19499
2026-01-02 09:40:38.74	20.46	6.14	-59.9	-62.7	6.2	0.00e+00	0	39	104	0	86	19970
2026-01-02 09:40:41.71	20.42	6.39	-59.8	-62.5	6.2	0.00e+00	0	39	104	0	86	19698
2026-01-02 09:40:44.70	20.39	6.65	-59.8	-62.6	6.2	0.00e+00	0	39	104	0	86	19797
2026-01-02 09:40:47.69	20.35	6.91	-59.8	-62.6	6.2	0.00e+00	0	39	104	0	86	19930
2026-01-02 09:40:50.67	20.31	7.18	-60.0	-62.8	6.2	0.00e+00	0	39	104	0	86	20173
2026-01-02 09:40:53.66	20.27	7.45	-59.9	-62.7	6.2	0.00e+00	0	39	104	0	86	19976
2026-01-02 09:40:56.64	20.23	7.72	-59.9	-62.7	6.2	0.00e+00	0	39	104	0	86	20066
2026-01-02 09:40:59.63	20.18	8.00	-60.0	-62.8	6.2	0.00e+00	0	39	104	0	86	20197
2026-01-02 09:41:02.61	20.14	8.28	-60.1	-62.9	6.2	0.00e+00	0	39	104	0	86	20460
2026-01-02 09:41:05.59	20.09	8.56	-51.5	-51.7	9.6	4.13e-02	5526	41	0	67108864	68	15957
2026-01-02 09:41:08.58	20.04	8.85	-44.5	-44.4	12.9	9.96e-02	0	41	0	293601280	56	13654
2026-01-02 09:41:11.56	19.99	9.14	-44.2	-44.1	13.1	1.72e-02	0	41	0	629145600	55	14009
2026-01-02 09:41:14.53	19.94	9.44	-44.1	-43.9	13.2	1.41e-02	0	41	0	956301312	55	13768
2026-01-02 09:41:17.51	19.89	9.74	-43.8	-43.7	13.2	1.22e-02	0	41	0	1291845632	54	14183
2026-01-02 09:41:20.49	19.84	10.05	-43.6	-43.4	13.3	1.17e-02	0	41	0	1627389952	54	13697
2026-01-02 09:41:23.48	19.78	10.36	-43.5	-43.3	13.4	9.67e-03	0	41	0	1962934272	54	13570
2026-01-02 09:41:26.46	19.72	10.68	-43.5	-43.3	13.4	8.07e-03	0	42	0	2306867200	54	13528
2026-01-02 09:41:29.45	19.66	11.00	-43.2	-43.0	13.5	7.24e-03	0	42	0	2642411520	53	13911
2026-01-02 09:41:32.42	19.60	11.33	-43.2	-43.0	13.5	6.24e-03	0	42	0	2969567232	53	13928
2026-01-02 09:41:35.39	19.54	11.66	-42.9	-42.8	13.6	6.35e-03	0	42	0	3305111552	53	13509
2026-01-02 09:41:38.39	19.47	12.01	-42.9	-42.7	13.6	4.98e-03	0	42	0	3640655872	52	14199
2026-01-02 09:41:41.36	19.40	12.35	-42.8	-42.6	13.7	4.17e-03	0	42	0	3976200192	52	14055
2026-01-02 09:41:44.34	19.33	12.71	-44.2	-44.0	13.3	4.26e-03	0	42	0	4311744512	55	13847
2026-01-02 09:41:47.34	19.26	13.07	-55.3	-55.9	7.9	0.00e+00	0	42	104	4362076160	77	15309
2026-01-02 09:41:50.34	19.19	13.44	-53.3	-53.6	8.8	0.00e+00	0	42	104	4362076160	73	14788
2026-01-02 09:41:53.31	19.11	13.81	-48.3	-48.2	11.7	3.65e-01	0	43	0	4655677440	63	14204
2026-01-02 09:41:56.29	19.03	14.20	-43.8	-43.7	13.4	1.63e-01	0	43	0	4982833152	54	14140
2026-01-02 09:41:59.27	18.94	14.59	-42.0	-41.8	13.9	1.48e-02	0	43	0	5326766080	51	13553
2026-01-02 09:42:02.25	18.86	14.98	-41.9	-41.7	14.0	2.26e-03	0	43	0	5662310400	51	13434
2026-01-02 09:42:05.23	18.77	15.39	-41.6	-41.4	14.0	1.35e-03	0	43	0	5997854720	50	13744
2026-01-02 09:42:08.22	18.67	15.81	-41.5	-41.3	14.1	9.35e-04	0	43	0	6333399040	50	13513
2026-01-02 09:42:11.19	18.58	16.23	-41.2	-41.0	14.1	1.03e-03	0	43	0	6660554752	49	13880
2026-01-02 09:42:14.17	18.48	16.67	-41.0	-40.8	14.2	7.39e-04	0	43	0	7004487680	49	13605
2026-01-02 09:42:17.15	18.37	17.11	-41.0	-40.8	14.2	5.48e-04	0	43	0	7340032000	49	13585
2026-01-02 09:42:20.13	18.27	17.57	-40.7	-40.5	14.2	4.58e-04	0	43	0	7667187712	48	13856
2026-01-02 09:42:23.12	18.15	18.04	-40.6	-40.4	14.2	4.62e-04	0	43	0	8011120640	48	13755
2026-01-02 09:42:26.09	18.04	18.51	-40.4	-40.2	14.3	3.48e-04	0	43	0	8338276352	48	13395
2026-01-02 09:42:29.07	17.91	19.00	-39.5	-39.3	14.2	2.34e-04	0	43	0	8673820672	46	13526
2026-01-02 09:42:32.04	17.79	19.50	-39.3	-39.1	14.2	5.43e-04	0	43	0	9009364992	45	14068
2026-01-02 09:42:35.02	17.65	20.02	-39.1	-38.9	14.2	5.01e-04	0	44	0	9344909312	45	13678
2026-01-02 09:42:37.98	17.52	20.54	-39.1	-38.9	14.2	4.10e-04	0	43	0	9680453632	45	13760
2026-01-02 09:42:40.96	17.37	21.08	-38.6	-38.4	14.3	4.00e-04	0	44	0	10015997952	44	13687
2026-01-02 09:42:43.93	17.22	21.64	-38.4	-38.2	14.3	2.86e-04	0	43	0	10351542272	44	13466
2026-01-02 09:42:46.91	17.07	22.21	-38.1	-37.9	14.4	1.76e-04	0	43	0	10687086592	43	13773
2026-01-02 09:42:49.89	16.90	22.80	-38.1	-38.0	14.5	1.19e-04	0	44	0	11014242304	43	13791
2026-01-02 09:42:52.88	16.73	23.41	-37.6	-37.4	14.6	1.00e-04	0	43	0	11358175232	42	13738
2026-01-02 09:42:55.86	16.55	24.03	-37.6	-37.4	14.6	4.76e-05	0	43	0	11693719552	42	13693
2026-01-02 09:42:58.84	16.36	24.67	-37.1	-36.9	14.6	3.81e-05	0	44	0	12020875264	41	13782
2026-01-02 09:43:01.82	16.16	25.33	-36.8	-36.6	14.6	2.86e-05	0	44	0	12364808192	40	14075
2026-01-02 09:43:04.80	15.95	26.01	-36.6	-36.4	14.7	2.38e-05	0	44	0	12700352512	40	13714
2026-01-02 09:43:07.79	15.73	26.72	-36.4	-36.2	14.8	9.50e-06	0	44	0	13027508224	40	13456
2026-01-02 09:43:10.77	15.50	27.44	-36.1	-35.9	14.8	1.43e-05	0	43	0	13371441152	39	13671
2026-01-02 09:43:13.75	15.25	28.19	-35.7	-35.5	14.8	0.00e+00	0	44	0	13706985472	38	13920
2026-01-02 09:43:16.74	14.99	28.96	-35.6	-35.4	14.9	4.70e-06	0	44	0	14034141184	38	13677
2026-01-02 09:43:19.72	14.72	29.76	-35.5	-35.2	14.9	4.70e-06	0	44	0	14378074112	38	13461
2026-01-02 09:43:22.70	14.43	30.58	-35.0	-34.8	14.9	0.00e+00	0	43	0	14713618432	37	13511
2026-01-02 09:43:25.68	14.13	31.44	-34.8	-34.6	14.9	0.00e+00	0	44	0	15040774144	36	13969
2026-01-02 09:43:28.66	13.80	32.32	-31.8	-31.6	14.9	0.00e+00	0	44	0	15384707072	30	14027
2026-01-02 09:43:31.63	13.46	33.22	-31.5	-31.2	15.0	4.70e-06	0	44	0	15711862784	30	13474
2026-01-02 09:43:34.62	13.09	34.17	-31.3	-31.1	15.0	0.00e+00	0	44	0	16047407104	29	14014
2026-01-02 09:43:37.60	12.70	35.15	-30.9	-30.7	15.1	0.00e+00	0	44	0	16391340032	29	13366
2026-01-02 09:43:40.59	12.28	36.16	-30.6	-30.3	15.1	0.00e+00	0	43	0	16718495744	28	13619
2026-01-02 09:43:43.57	11.83	37.21	-30.4	-30.2	15.1	0.00e+00	0	44	0	17054040064	27	14143
2026-01-02 09:43:46.56	11.35	38.29	-30.1	-29.9	15.2	0.00e+00	0	44	0	17397972992	27	13713
2026-01-02 09:43:49.54	10.83	39.42	-29.9	-29.7	15.3	0.00e+00	0	44	0	17725128704	27	13361
2026-01-02 09:43:52.52	10.27	40.58	-29.6	-29.4	15.2	0.00e+00	0	44	0	18069061632	26	13705
2026-01-02 09:43:55.51	9.67	41.79	-29.4	-29.2	15.3	0.00e+00	0	43	0	18404605952	26	13413
2026-01-02 09:43:58.49	9.01	43.03	-28.9	-28.7	15.3	0.00e+00	0	44	0	18731761664	25	13403
2026-01-02 09:44:01.48	8.30	44.33	-28.7	-28.4	15.3	0.00e+00	0	44	0	19075694592	24	13767
2026-01-02 09:44:04.46	7.52	45.66	-28.3	-28.0	15.3	0.00e+00	0	44	0	19411238912	23	13948
2026-01-02 09:44:07.45	6.67	47.04	-28.0	-27.7	15.4	0.00e+00	0	44	0	19746783232	23	13451
2026-01-02 09:44:10.41	5.75	48.46	-27.6	-27.4	15.4	0.00e+00	0	44	0	20082327552	22	13723
2026-01-02 09:44:13.39	4.72	49.92	-27.5	-27.3	15.5	0.00e+00	0	44	0	20409483264	22	13520
2026-01-02 09:44:16.38	3.58	51.44	-27.3	-27.1	15.5	0.00e+00	0	44	0	20745027584	21	13953
2026-01-02 09:44:19.36	2.31	52.99	-27.0	-26.8	15.5	0.00e+00	0	44	0	21088960512	21	13552
2026-01-02 09:44:22.34	0.90	54.58	-26.9	-26.7	15.5	0.00e+00	0	44	0	21416116224	21	13382
2026-01-02 09:44:25.32	359.32	56.21	-26.8	-26.5	15.5	0.00e+00	0	44	0	21751660544	20	13897
2026-01-02 09:44:28.32	357.51	57.88	-26.4	-26.1	15.5	0.00e+00	0	44	0	22095593472	19	14070
2026-01-02 09:44:31.32	355.47	59.57	-26.3	-26.0	15.6	0.00e+00	0	44	0	22431137792	19	13916
2026-01-02 09:44:34.29	353.15	61.25	-26.0	-25.8	15.6	0.00e+00	0	44	0	22758293504	19	13535
2026-01-02 09:44:37.27	350.49	62.94	-25.8	-25.6	15.6	0.00e+00	0	44	0	23102226432	18	14010
2026-01-02 09:44:40.24	347.43	64.61	-25.8	-25.5	15.6	0.00e+00	0	44	0	23429382144	18	13940
2026-01-02 09:44:43.22	343.86	66.25	-25.7	-25.4	15.6	0.00e+00	0	44	0	23764926464	18	13765
2026-01-02 09:44:46.20	339.72	67.83	-25.7	-25.4	15.6	0.00e+00	0	44	0	24108859392	18	13745
2026-01-02 09:44:49.20	334.86	69.32	-25.5	-25.3	15.6	0.00e+00	0	44	0	24444403712	18	13540
2026-01-02 09:44:52.17	329.28	70.67	-25.6	-25.3	15.5	0.00e+00	0	44	0	24771559424	18	13565
2026-01-02 09:44:55.15	322.84	71.83	-25.7	-25.5	15.6	0.00e+00	0	44	0	25115492352	18	13807
2026-01-02 09:44:58.12	315.59	72.76	-25.7	-25.4	15.5	0.00e+00	0	44	0	25442648064	18	13766
2026-01-02 09:45:01.10	307.58	73.40	-25.6	-25.4	15.6	0.00e+00	0	44	0	25786580992	18	13727
2026-01-02 09:45:04.08	299.06	73.72	-25.4	-25.1	15.6	0.00e+00	0	44	0	26113736704	17	14041
2026-01-02 09:45:07.06	290.39	73.68	-25.3	-25.1	15.6	0.00e+00	0	44	0	26449281024	17	14014
2026-01-02 09:45:10.04	281.95	73.29	-25.6	-25.4	15.5	0.00e+00	0	44	0	26784825344	17	14476
2026-01-02 09:45:13.03	274.05	72.58	-25.6	-25.3	15.5	0.00e+00	0	44	0	27120369664	17	14428
2026-01-02 09:45:16.02	266.93	71.59	-25.6	-25.4	15.5	0.00e+00	0	44	0	27455913984	17	14495
2026-01-02 09:45:19.00	260.68	70.38	-25.7	-25.4	15.5	0.00e+00	0	44	0	27799846912	17	14564
2026-01-02 09:45:21.98	255.25	68.99	-25.7	-25.4	15.5	0.00e+00	0	44	0	28127002624	17	14603
2026-01-02 09:45:24.96	250.58	67.48	-25.7	-25.5	15.5	0.00e+00	0	44	0	28462546944	17	14635
2026-01-02 09:45:27.95	246.56	65.88	-25.8	-25.5	15.5	0.00e+00	0	44	0	28806479872	17	14746
2026-01-02 09:45:30.92	243.12	64.23	-25.9	-25.7	15.5	0.00e+00	0	44	0	29133635584	17	14977
2026-01-02 09:45:33.90	240.14	62.55	-26.1	-25.9	15.5	0.00e+00	0	44	0	29469179904	18	14561
2026-01-02 09:45:36.88	237.56	60.85	-26.4	-26.2	15.5	0.00e+00	0	44	0	29804724224	18	14954
2026-01-02 09:45:39.85	235.31	59.17	-26.6	-26.3	15.5	0.00e+00	0	44	0	30140268544	19	14391
2026-01-02 09:45:42.84	233.33	57.48	-26.7	-26.4	15.6	0.00e+00	0	44	0	30475812864	19	14593
2026-01-02 09:45:45.82	231.58	55.83	-26.9	-26.6	15.6	0.00e+00	0	44	0	30811357184	19	14932
2026-01-02 09:45:48.80	230.04	54.21	-27.0	-26.8	15.6	0.00e+00	0	44	0	31146901504	20	14275
2026-01-02 09:45:51.80	228.65	52.61	-27.1	-26.9	15.6	0.00e+00	0	44	0	31482445824	20	14496
2026-01-02 09:45:54.77	227.42	51.07	-27.4	-27.2	15.5	0.00e+00	0	44	0	31817990144	20	14966
2026-01-02 09:45:57.75	226.30	49.56	-27.5	-27.3	15.5	0.00e+00	0	44	0	32153534464	20	15178
2026-01-02 09:46:00.75	225.29	48.09	-29.2	-29.0	15.4	0.00e+00	0	44	0	32489078784	24	14626
2026-01-02 09:46:03.73	224.38	46.67	-28.1	-27.8	15.5	0.00e+00	0	44	0	32824623104	22	14407
2026-01-02 09:46:06.73	223.54	45.29	-28.3	-28.1	15.5	0.00e+00	0	44	0	33160167424	22	14874
2026-01-02 09:46:09.72	222.78	43.96	-28.4	-28.2	15.4	0.00e+00	0	44	0	33495711744	22	15073
2026-01-02 09:46:12.70	222.08	42.68	-28.7	-28.5	15.4	0.00e+00	0	44	0	33839644672	23	14724
2026-01-02 09:46:15.69	221.44	41.43	-29.0	-28.8	15.4	0.00e+00	0	44	0	34166800384	23	15149
2026-01-02 09:46:18.67	220.84	40.24	-29.3	-29.0	15.4	0.00e+00	0	44	0	34510733312	24	14773
2026-01-02 09:46:21.64	220.30	39.08	-29.7	-29.5	15.3	0.00e+00	0	44	0	34837889024	25	14616
2026-01-02 09:46:24.62	219.79	37.97	-30.0	-29.8	15.3	0.00e+00	0	44	0	35173433344	25	15163
2026-01-02 09:46:27.59	219.31	36.89	-30.4	-30.2	15.3	0.00e+00	0	44	0	35508977664	26	14982
2026-01-02 09:46:30.56	218.87	35.86	-30.8	-30.5	15.3	0.00e+00	0	44	0	35844521984	27	14744
2026-01-02 09:46:33.53	218.46	34.85	-31.0	-30.8	15.2	0.00e+00	0	44	0	36180066304	28	14327
2026-01-02 09:46:36.50	218.07	33.89	-31.3	-31.1	15.2	0.00e+00	0	44	0	36515610624	28	14905
2026-01-02 09:46:39.47	217.71	32.95	-31.7	-31.4	15.1	0.00e+00	0	44	0	36842766336	29	14583
2026-01-02 09:46:42.44	217.37	32.05	-32.0	-31.7	15.1	0.00e+00	0	44	0	37178310656	29	15050
2026-01-02 09:46:45.43	217.05	31.17	-32.2	-32.0	15.1	0.00e+00	0	44	0	37513854976	30	14658
2026-01-02 09:46:48.40	216.75	30.32	-32.6	-32.3	15.0	4.70e-06	0	44	0	37849399296	30	15257
2026-01-02 09:46:51.41	216.46	29.49	-32.9	-32.7	15.0	0.00e+00	0	44	0	38193332224	31	15010
2026-01-02 09:46:54.40	216.19	28.70	-33.2	-33.0	15.0	0.00e+00	0	44	0	38528876544	32	14611
2026-01-02 09:46:57.37	215.93	27.93	-33.4	-33.1	15.0	4.70e-06	0	44	0	38864420864	32	14937
2026-01-02 09:47:00.35	215.69	27.19	-33.7	-33.5	14.9	0.00e+00	0	44	0	39199965184	33	14655
2026-01-02 09:47:03.33	215.46	26.47	-34.0	-33.7	14.9	4.70e-06	0	44	0	39527120896	33	15066
2026-01-02 09:47:06.30	215.24	25.77	-34.2	-34.0	14.9	9.50e-06	0	44	0	39871053824	34	14674
2026-01-02 09:47:09.27	215.04	25.09	-34.6	-34.4	14.8	9.50e-06	0	44	0	40198209536	34	15299
2026-01-02 09:47:12.24	214.84	24.44	-34.8	-34.6	14.8	2.86e-05	0	44	0	40533753856	35	14824
2026-01-02 09:47:15.24	214.65	23.79	-37.6	-37.4	14.9	2.38e-05	0	44	0	40869298176	41	14482
2026-01-02 09:47:18.22	214.47	23.17	-37.8	-37.6	14.9	1.90e-05	0	44	0	41204842496	41	14849
2026-01-02 09:47:21.20	214.30	22.57	-38.2	-37.9	14.8	2.86e-05	0	44	0	41540386816	42	14606
2026-01-02 09:47:24.17	214.13	21.98	-38.4	-38.1	14.8	3.33e-05	0	44	0	41875931136	42	14915
2026-01-02 09:47:27.16	213.98	21.41	-38.7	-38.4	14.8	4.29e-05	0	44	0	42211475456	43	14579
2026-01-02 09:47:30.13	213.83	20.86	-38.9	-38.7	14.7	1.00e-04	0	44	0	42547019776	43	15005
2026-01-02 09:47:33.11	213.68	20.32	-39.1	-38.9	14.7	1.57e-04	0	44	0	42882564096	44	14478
2026-01-02 09:47:36.09	213.55	19.79	-39.4	-39.2	14.6	1.57e-04	0	44	0	43209719808	44	14976
2026-01-02 09:47:39.06	213.41	19.28	-39.5	-39.2	14.6	1.57e-04	0	44	0	43553652736	44	15113
2026-01-02 09:47:42.04	213.29	18.78	-39.5	-39.3	14.5	2.29e-04	0	44	0	43880808448	44	15251
2026-01-02 09:47:45.01	213.17	18.29	-39.9	-39.7	14.5	3.34e-04	0	44	0	44224741376	45	14989
2026-01-02 09:47:47.99	213.05	17.82	-61.0	-63.8	6.2	3.43e-04	0	44	104	44367347712	87	21457
2026-01-02 09:47:50.97	212.94	17.35	-61.0	-63.8	6.2	3.43e-04	0	43	104	44367347712	87	21409
2026-01-02 09:47:53.95	212.83	16.90	-61.0	-63.8	6.2	3.43e-04	0	43	104	44367347712	87	21363
2026-01-02 09:47:56.93	212.72	16.46	-60.9	-63.7	6.2	3.43e-04	0	43	104	44367347712	87	21229
2026-01-02 09:47:59.92	212.62	16.02	-60.9	-63.7	6.2	4.29e-05	0	43	104	44367347712	87	21143
2026-01-02 09:48:02.89	212.52	15.60	-60.9	-63.6	6.2	4.29e-05	0	43	104	44367347712	87	21052
2026-01-02 09:48:05.88	212.43	15.18	-60.8	-63.6	6.2	4.29e-05	0	43	104	44367347712	87	20915
2026-01-02 09:48:08.87	212.34	14.77	-60.8	-63.6	6.2	4.29e-05	0	43	104	44367347712	87	20936
2026-01-02 09:48:11.85	212.25	14.38	-60.8	-63.5	6.2	4.29e-05	0	43	104	44367347712	87	20846
2026-01-02 09:48:14.83	212.17	13.99	-60.7	-63.5	6.2	4.29e-05	0	43	104	44367347712	87	20748
2026-01-02 09:48:17.79	212.09	13.61	-60.7	-63.5	6.2	4.29e-05	0	43	104	44367347712	87	20641
2026-01-02 09:48:20.77	212.01	13.24	-60.7	-63.4	6.2	4.29e-05	0	42	104	44367347712	87	20615
2026-01-02 09:48:23.74	211.93	12.87	-60.7	-63.4	6.2	4.29e-05	0	42	104	44367347712	87	20567
2026-01-02 09:48:26.72	211.86	12.51	-60.6	-63.4	6.2	0.00e+00	0	42	104	44367347712	87	20476
2026-01-02 09:48:29.69	211.79	12.16	-60.6	-63.4	6.2	0.00e+00	0	42	104	44367347712	87	20416
2026-01-02 09:48:32.67	211.72	11.81	-60.6	-63.3	6.2	0.00e+00	0	43	104	44367347712	87	20351
2026-01-02 09:48:35.65	211.66	11.47	-60.5	-63.3	6.2	0.00e+00	0	42	104	44367347712	87	20364
2026-01-02 09:48:38.63	211.59	11.14	-60.5	-63.2	6.2	0.00e+00	0	42	104	44367347712	87	20153
2026-01-02 09:48:41.61	211.53	10.81	-60.5	-63.2	6.2	0.00e+00	0	42	104	44367347712	87	20052
2026-01-02 09:48:44.59	211.47	10.49	-60.4	-63.2	6.2	0.00e+00	0	42	104	44367347712	87	20118
2026-01-02 09:48:47.57	211.41	10.17	-60.4	-63.2	6.2	0.00e+00	0	42	104	44367347712	87	20101
2026-01-02 09:48:50.53	211.35	9.86	-60.4	-63.1	6.2	0.00e+00	0	42	104	44367347712	87	19907
2026-01-02 09:48:53.51	211.30	9.55	-60.3	-63.1	6.2	0.00e+00	0	42	104	44367347712	87	19885
2026-01-02 09:48:56.50	211.24	9.25	-60.3	-63.1	6.2	0.00e+00	0	42	104	44367347712	87	19854
2026-01-02 09:48:59.48	211.19	8.95	-60.3	-63.1	6.2	0.00e+00	0	42	104	44367347712	87	19745
2026-01-02 09:49:02.46	211.14	8.66	-60.2	-63.0	6.2	0.00e+00	0	42	104	44367347712	87	19616
2026-01-02 09:49:05.45	211.09	8.37	-60.2	-63.0	6.2	0.00e+00	0	42	104	44367347712	87	19607
2026-01-02 09:49:08.44	211.05	8.09	-60.2	-63.0	6.2	0.00e+00	0	42	104	44367347712	87	19653
2026-01-02 09:49:11.41	211.00	7.81	-60.2	-63.0	6.2	0.00e+00	0	42	104	44367347712	87	19493
2026-01-02 09:49:14.39	210.95	7.53	-60.1	-62.9	6.2	0.00e+00	0	42	104	44367347712	87	19346
2026-01-02 09:49:17.36	210.91	7.26	-60.1	-62.9	6.2	0.00e+00	0	42	104	44367347712	87	19332
2026-01-02 09:49:20.34	210.87	6.99	-60.1	-62.9	6.2	0.00e+00	0	42	104	44367347712	87	19405
2026-01-02 09:49:23.33	210.83	6.73	-60.0	-62.8	6.2	0.00e+00	0	42	104	44367347712	87	19126
2026-01-02 09:49:26.31	210.79	6.47	-60.0	-62.8	6.2	0.00e+00	0	42	104	44367347712	87	19105
2026-01-02 09:49:29.29	210.75	6.21	-60.0	-62.8	6.2	0.00e+00	0	42	104	44367347712	87	19071
2026-01-02 09:49:32.29	210.71	5.95	-60.0	-62.8	6.2	0.00e+00	0	42	104	44367347712	86	20298
2026-01-02 09:49:35.26	210.67	5.70	-59.9	-62.7	6.2	0.00e+00	0	42	104	44367347712	86	19980
2026-01-02 09:49:38.23	210.64	5.46	-59.9	-62.6	6.2	0.00e+00	0	42	104	44367347712	86	19906
2026-01-02 09:49:41.21	210.60	5.21	-59.9	-62.6	6.2	0.00e+00	0	42	104	44367347712	86	19882
2026-01-02 09:49:44.19	210.57	4.97	-60.1	-62.9	6.2	0.00e+00	0	42	104	44367347712	86	20506
2026-01-02 09:49:47.21	210.54	4.73	-61.1	-63.8	6.2	0.00e+00	0	42	104	44367347712	87	21604
2026-01-02 09:49:50.21	210.50	4.49	-61.4	-64.2	6.2	0.00e+00	0	42	104	44367347712	88	21205
2026-01-02 09:49:53.23	210.47	4.26	-61.7	-64.4	6.2	0.00e+00	0	42	104	44367347712	89	20560
2026-01-02 09:49:56.21	210.44	4.03	-61.8	-64.6	6.2	0.00e+00	0	41	104	44367347712	89	20940
2026-01-02 09:49:59.19	210.41	3.80	-61.9	-64.7	6.2	0.00e+00	0	42	104	44367347712	89	21171
2026-01-02 09:50:02.17	210.38	3.57	-62.0	-64.8	6.2	0.00e+00	0	41	104	44367347712	89	21434
2026-01-02 09:50:05.16	210.35	3.35	-62.1	-64.8	6.2	0.00e+00	0	42	104	44367347712	89	21597
2026-01-02 09:50:08.13	210.33	3.13	-62.0	-64.8	6.2	0.00e+00	0	42	104	44367347712	90	20374
2026-01-02 09:50:11.12	210.30	2.91	-62.0	-64.8	6.2	0.00e+00	0	42	104	44367347712	90	20358
2026-01-02 09:50:14.10	210.27	2.69	-62.0	-64.7	6.2	0.00e+00	0	42	104	44367347712	90	20084
2026-01-02 09:50:17.09	210.25	2.48	-61.9	-64.7	6.2	0.00e+00	0	42	104	44367347712	90	19992
2026-01-02 09:50:20.07	210.22	2.27	-61.8	-64.6	6.2	0.00e+00	0	41	104	44367347712	90	19846
2026-01-02 09:50:23.05	210.20	2.06	-61.8	-64.6	6.2	0.00e+00	0	41	104	44367347712	90	19727

#Closed at: 2026-01-02 09:50:25
#Recorded file [44367 MB]: D:/lorett/data/31004_260102_123944.dat