passes_logs/2026/01/02/R3.2S_Murmansk/R3.2S_Murmansk__20260102_002340_KANOPUS-V-IK_rec.log

#Pass ID: 20260102_002340_KANOPUS-V-IK
#Satellite: KANOPUS-V-IK
#Configuration: KANOPUS-V_8128
#almurnet v.1.7.20251203
#Start time: 2026-01-02 00:23:42

#Version: 2.2.20231116
#Station: R3.2S_Murmansk
#Location: 33.079688 lon 68.888172 lat
#TLE: 1 42825U 17042A   26001.21266440  .00005755  00000+0  24506-3 0  9990
#TLE: 2 42825  97.3692 269.9908 0001826  86.2004 273.9442 15.23363314469954

#Time	Az	El	Level	Level2	SNR	BER	BlckErr	Temp	State	Recorded	gain1	gain2
2026-01-02 00:23:42.79	24.44	2.13	-59.0	-69.7	3.8	7.46e-01	0	32	0	0	87	12038
2026-01-02 00:23:45.79	24.19	2.31	-59.0	-69.7	3.8	7.45e-01	0	32	104	0	86	12797
2026-01-02 00:23:48.79	23.94	2.51	-59.0	-69.8	3.8	7.46e-01	0	32	104	0	86	12823
2026-01-02 00:23:51.79	23.68	2.70	-59.0	-69.7	3.8	7.45e-01	0	32	104	0	86	12759
2026-01-02 00:23:54.79	23.42	2.89	-59.0	-69.7	3.8	7.44e-01	0	32	104	0	86	12784
2026-01-02 00:23:57.79	23.15	3.08	-59.0	-69.7	3.8	7.45e-01	0	32	104	0	86	12770
2026-01-02 00:24:00.80	22.87	3.28	-59.0	-69.7	3.8	7.45e-01	0	32	104	0	86	12766
2026-01-02 00:24:03.80	22.60	3.48	-59.0	-69.7	3.8	7.45e-01	0	32	104	0	86	12776
2026-01-02 00:24:06.79	22.32	3.68	-59.0	-69.7	3.8	7.45e-01	0	32	104	0	86	12777
2026-01-02 00:24:09.80	22.03	3.88	-59.0	-69.7	3.8	7.49e-01	0	32	104	0	86	12704
2026-01-02 00:24:12.80	21.73	4.08	-59.0	-69.7	3.8	7.47e-01	0	32	104	0	86	12742
2026-01-02 00:24:15.80	21.44	4.28	-59.0	-69.7	3.8	7.46e-01	0	32	104	0	86	12715
2026-01-02 00:24:18.81	21.13	4.48	-59.0	-69.7	3.8	7.46e-01	0	32	104	0	86	12727
2026-01-02 00:24:21.81	20.82	4.69	-59.0	-69.7	3.8	7.45e-01	0	32	104	0	86	12705
2026-01-02 00:24:24.78	20.51	4.89	-59.0	-69.7	3.8	7.47e-01	0	32	104	0	86	12713
2026-01-02 00:24:27.77	20.19	5.10	-59.0	-69.7	3.8	7.45e-01	0	32	104	0	86	12740
2026-01-02 00:24:30.75	19.86	5.31	-59.1	-69.8	3.8	7.47e-01	0	32	104	0	86	12935
2026-01-02 00:24:33.75	19.53	5.52	-59.0	-69.7	3.8	7.45e-01	0	33	104	0	86	12678
2026-01-02 00:24:36.77	19.19	5.74	-59.1	-69.8	3.8	7.47e-01	0	33	104	0	86	12830
2026-01-02 00:24:39.77	18.84	5.95	-59.0	-69.7	3.8	7.46e-01	0	33	104	0	86	12695
2026-01-02 00:24:42.78	18.49	6.17	-59.1	-69.8	3.8	7.46e-01	0	33	104	0	86	12897
2026-01-02 00:24:45.78	18.13	6.38	-59.1	-69.8	3.8	7.45e-01	0	33	104	0	86	12840
2026-01-02 00:24:48.79	17.76	6.60	-59.1	-69.8	3.8	7.43e-01	0	33	104	0	86	12888
2026-01-02 00:24:51.78	17.38	6.82	-59.1	-69.8	3.8	7.46e-01	0	33	104	0	86	12877
2026-01-02 00:24:54.77	17.00	7.04	-59.2	-69.9	3.8	7.46e-01	0	33	104	0	86	13043
2026-01-02 00:24:57.77	16.61	7.27	-59.1	-69.9	3.8	7.46e-01	0	33	104	0	86	13008
2026-01-02 00:25:00.77	16.22	7.49	-59.2	-69.9	3.8	7.44e-01	0	33	104	0	86	13072
2026-01-02 00:25:03.76	15.81	7.72	-59.2	-69.9	3.8	7.45e-01	0	33	104	0	86	13001
2026-01-02 00:25:06.78	15.39	7.95	-59.3	-70.0	3.8	7.45e-01	0	33	104	0	86	13176
2026-01-02 00:25:09.77	14.97	8.18	-59.2	-70.0	3.8	7.46e-01	0	33	104	0	86	13123
2026-01-02 00:25:12.77	14.54	8.41	-59.3	-70.0	3.8	7.44e-01	0	33	104	0	86	13155
2026-01-02 00:25:15.76	14.10	8.64	-59.3	-70.0	3.8	7.47e-01	0	33	104	0	86	13174
2026-01-02 00:25:18.76	13.66	8.88	-59.4	-70.1	3.8	7.47e-01	0	33	104	0	86	13352
2026-01-02 00:25:21.76	13.20	9.11	-59.3	-70.0	3.8	7.44e-01	0	33	104	0	86	13187
2026-01-02 00:25:24.76	12.73	9.35	-59.4	-70.1	3.8	7.45e-01	0	33	104	0	86	13277
2026-01-02 00:25:27.75	12.25	9.59	-59.4	-70.0	3.8	7.45e-01	0	33	104	0	86	13237
2026-01-02 00:25:30.76	11.76	9.83	-59.5	-70.2	3.8	7.45e-01	0	33	104	0	86	13470
2026-01-02 00:25:33.77	11.27	10.07	-59.4	-70.1	3.8	7.48e-01	0	33	104	0	86	13291
2026-01-02 00:25:36.77	10.76	10.32	-59.4	-70.1	3.8	7.45e-01	0	33	104	0	86	13387
2026-01-02 00:25:39.78	10.24	10.56	-59.4	-70.2	3.8	7.46e-01	0	33	104	0	87	12673
2026-01-02 00:25:42.79	9.70	10.81	-59.5	-70.2	3.8	7.47e-01	0	33	104	0	87	12757
2026-01-02 00:25:45.79	9.16	11.05	-59.4	-70.1	3.8	7.46e-01	0	33	104	0	87	12635
2026-01-02 00:25:48.78	8.61	11.30	-59.5	-70.2	3.8	7.45e-01	0	33	104	0	87	12714
2026-01-02 00:25:51.77	8.05	11.55	-59.5	-70.2	3.8	7.47e-01	0	33	104	0	87	12736
2026-01-02 00:25:54.78	7.47	11.80	-59.6	-70.3	3.8	7.46e-01	0	33	104	0	87	12887
2026-01-02 00:25:57.78	6.88	12.05	-59.5	-70.2	3.8	7.46e-01	0	33	104	0	87	12780
2026-01-02 00:26:00.77	6.28	12.30	-59.6	-70.3	3.8	7.43e-01	0	33	104	0	87	12871
2026-01-02 00:26:03.75	5.67	12.55	-59.6	-70.3	3.8	7.45e-01	0	33	104	0	87	12838
2026-01-02 00:26:06.74	5.05	12.81	-59.7	-70.3	3.8	7.45e-01	0	33	104	0	87	12934
2026-01-02 00:26:09.74	4.41	13.06	-59.6	-70.3	3.8	7.44e-01	0	33	104	0	87	12844
2026-01-02 00:26:12.74	3.75	13.31	-59.7	-70.4	3.8	7.47e-01	0	33	104	0	87	12971
2026-01-02 00:26:15.73	3.09	13.57	-59.7	-70.3	3.8	7.45e-01	0	33	104	0	87	12911
2026-01-02 00:26:18.71	2.41	13.82	-59.7	-70.4	3.8	7.46e-01	0	33	104	0	87	13058
2026-01-02 00:26:21.71	1.71	14.08	-59.7	-70.4	3.8	7.45e-01	0	33	104	0	87	12971
2026-01-02 00:26:24.70	1.00	14.33	-59.7	-70.4	3.8	7.44e-01	0	33	104	0	87	13083
2026-01-02 00:26:27.70	0.28	14.58	-59.8	-70.5	3.8	7.46e-01	0	33	104	0	87	13114
2026-01-02 00:26:30.70	359.54	14.84	-59.8	-70.5	3.8	7.45e-01	0	33	104	0	87	13139
2026-01-02 00:26:33.69	358.78	15.09	-59.8	-70.4	3.8	7.45e-01	0	33	104	0	87	13109
2026-01-02 00:26:36.68	358.01	15.34	-59.8	-70.5	3.8	7.44e-01	0	33	104	0	87	13144
2026-01-02 00:26:39.67	357.23	15.59	-60.0	-70.7	3.8	7.47e-01	0	34	104	0	88	12676
2026-01-02 00:26:42.68	356.42	15.84	-60.0	-70.7	3.8	7.44e-01	0	33	104	0	88	12671
2026-01-02 00:26:45.67	355.60	16.08	-59.9	-70.6	3.8	7.48e-01	0	33	104	0	87	13282
2026-01-02 00:26:48.67	354.77	16.33	-59.9	-70.6	3.8	7.44e-01	0	33	104	0	87	13351
2026-01-02 00:26:51.67	353.92	16.57	-59.9	-70.6	3.8	7.46e-01	0	33	104	0	87	13313
2026-01-02 00:26:54.68	353.04	16.81	-59.9	-70.6	3.8	7.46e-01	0	33	104	0	87	13414
2026-01-02 00:26:57.68	352.16	17.05	-59.9	-70.6	3.8	7.44e-01	0	34	104	0	87	13306
2026-01-02 00:27:00.68	351.26	17.28	-59.9	-70.6	3.8	7.45e-01	0	33	104	0	87	13390
2026-01-02 00:27:03.69	350.34	17.51	-60.0	-70.6	3.8	7.45e-01	0	34	104	0	87	13374
2026-01-02 00:27:06.69	349.40	17.74	-60.0	-70.7	3.8	7.45e-01	0	34	104	0	87	13534
2026-01-02 00:27:09.68	348.45	17.96	-60.0	-70.6	3.8	7.46e-01	0	34	104	0	87	13376
2026-01-02 00:27:12.68	347.49	18.17	-60.0	-70.7	3.8	7.46e-01	0	34	104	0	88	12739
2026-01-02 00:27:15.67	346.51	18.38	-60.0	-70.7	3.8	7.48e-01	0	33	104	0	88	12789
2026-01-02 00:27:18.67	345.51	18.59	-60.1	-70.7	3.8	7.46e-01	0	34	104	0	88	12800
2026-01-02 00:27:21.66	344.50	18.79	-60.0	-70.7	3.8	7.45e-01	0	33	104	0	88	12751
2026-01-02 00:27:24.64	343.47	18.98	-60.1	-70.8	3.8	7.47e-01	0	34	104	0	88	12864
2026-01-02 00:27:27.65	342.42	19.17	-60.1	-70.7	3.8	7.46e-01	0	33	104	0	88	12799
2026-01-02 00:27:30.64	341.37	19.35	-60.1	-70.8	3.8	7.46e-01	0	34	104	0	88	12906
2026-01-02 00:27:33.64	340.29	19.52	-60.1	-70.8	3.8	7.44e-01	0	33	104	0	88	12811
2026-01-02 00:27:36.64	339.21	19.68	-60.1	-70.9	3.8	7.45e-01	0	34	104	0	88	12993
2026-01-02 00:27:39.63	338.11	19.84	-60.2	-70.9	3.8	7.45e-01	0	34	104	0	88	12978
2026-01-02 00:27:42.63	336.99	19.98	-60.2	-70.9	3.8	7.46e-01	0	33	104	0	88	13004
2026-01-02 00:27:45.64	335.86	20.12	-60.1	-70.8	3.8	7.46e-01	0	34	104	0	88	12950
2026-01-02 00:27:48.64	334.73	20.25	-60.2	-70.8	3.8	7.46e-01	0	34	104	0	88	12956
2026-01-02 00:27:51.64	333.58	20.37	-60.2	-70.9	3.8	7.46e-01	0	33	104	0	88	13006
2026-01-02 00:27:54.64	332.42	20.48	-60.2	-70.9	3.8	7.46e-01	0	33	104	0	88	12978
2026-01-02 00:27:57.63	331.26	20.57	-60.2	-70.9	3.8	7.47e-01	0	33	104	0	88	12980
2026-01-02 00:28:00.63	330.08	20.66	-60.2	-70.9	3.8	7.45e-01	0	34	104	0	88	13056
2026-01-02 00:28:03.64	328.90	20.73	-60.2	-70.9	3.8	7.47e-01	0	33	104	0	88	13033
2026-01-02 00:28:06.65	327.71	20.80	-60.3	-70.9	3.8	7.46e-01	0	34	104	0	88	13069
2026-01-02 00:28:09.65	326.51	20.85	-60.2	-70.9	3.8	7.45e-01	0	34	104	0	88	13020
2026-01-02 00:28:12.64	325.32	20.89	-60.2	-70.9	3.8	7.45e-01	0	33	104	0	88	13103
2026-01-02 00:28:15.64	324.12	20.92	-60.3	-70.9	3.8	7.47e-01	0	33	104	0	88	13073
2026-01-02 00:28:18.63	322.92	20.94	-60.3	-71.0	3.8	7.47e-01	0	34	104	0	88	13144
2026-01-02 00:28:21.62	321.72	20.94	-60.2	-70.9	3.8	7.47e-01	0	34	104	0	88	13086
2026-01-02 00:28:24.61	320.52	20.94	-60.2	-70.9	3.8	7.45e-01	0	34	104	0	88	13097
2026-01-02 00:28:27.60	319.32	20.92	-60.3	-70.9	3.8	7.44e-01	0	34	104	0	88	13070
2026-01-02 00:28:30.58	318.13	20.89	-60.3	-71.0	3.8	7.46e-01	0	34	104	0	88	13147
2026-01-02 00:28:33.58	316.93	20.85	-60.2	-70.9	3.8	7.45e-01	0	34	104	0	88	13053
2026-01-02 00:28:36.58	315.73	20.79	-60.2	-71.0	3.8	7.46e-01	0	33	104	0	88	13160
2026-01-02 00:28:39.59	314.54	20.73	-60.3	-71.0	3.8	7.45e-01	0	34	104	0	88	13170
2026-01-02 00:28:42.59	313.36	20.65	-60.3	-71.0	3.8	7.46e-01	0	34	104	0	88	13134
2026-01-02 00:28:45.59	312.18	20.56	-60.2	-71.0	3.8	7.45e-01	0	33	104	0	88	13116
2026-01-02 00:28:48.59	311.02	20.46	-60.3	-70.9	3.8	7.46e-01	0	34	104	0	88	13089
2026-01-02 00:28:51.59	309.86	20.36	-60.3	-71.0	3.8	7.46e-01	0	34	104	0	88	13179
2026-01-02 00:28:54.58	308.71	20.24	-60.3	-71.0	3.8	7.47e-01	0	34	104	0	88	13162
2026-01-02 00:28:57.59	307.57	20.11	-60.2	-70.9	3.8	7.47e-01	0	34	104	0	88	13074
2026-01-02 00:29:00.59	306.45	19.97	-60.3	-71.0	3.8	7.46e-01	0	34	104	0	88	13128
2026-01-02 00:29:03.59	305.33	19.82	-60.3	-71.0	3.8	7.45e-01	0	33	104	0	88	13166
2026-01-02 00:29:06.58	304.23	19.66	-60.3	-71.0	3.8	7.46e-01	0	34	104	0	88	13153
2026-01-02 00:29:09.58	303.14	19.50	-60.3	-71.0	3.8	7.46e-01	0	33	104	0	88	13116
2026-01-02 00:29:12.58	302.07	19.33	-60.2	-71.0	3.8	7.45e-01	0	33	104	0	88	13174
2026-01-02 00:29:15.56	301.02	19.15	-60.3	-71.0	3.8	7.45e-01	0	34	104	0	88	13173
2026-01-02 00:29:18.55	299.97	18.96	-60.3	-71.0	3.8	7.47e-01	0	34	104	0	88	13214
2026-01-02 00:29:21.54	298.95	18.77	-60.3	-71.0	3.8	7.45e-01	0	34	104	0	88	13164
2026-01-02 00:29:24.54	297.93	18.57	-60.3	-71.0	3.8	7.44e-01	0	34	104	0	88	13254
2026-01-02 00:29:27.53	296.93	18.36	-60.3	-71.0	3.8	7.46e-01	0	33	104	0	88	13256
2026-01-02 00:29:30.52	295.95	18.15	-60.4	-71.0	3.8	7.47e-01	0	33	104	0	88	13256
2026-01-02 00:29:33.52	294.98	17.93	-60.4	-71.0	3.8	7.45e-01	0	34	104	0	88	13246
2026-01-02 00:29:36.51	294.04	17.71	-60.3	-71.0	3.8	7.46e-01	0	34	104	0	88	13147
2026-01-02 00:29:39.52	293.10	17.48	-60.3	-71.0	3.8	7.45e-01	0	33	104	0	88	13130
2026-01-02 00:29:42.53	292.18	17.25	-60.3	-71.0	3.8	7.45e-01	0	34	104	0	88	13160
2026-01-02 00:29:45.53	291.27	17.02	-60.3	-71.0	3.8	7.47e-01	0	33	104	0	88	13188
2026-01-02 00:29:48.52	290.39	16.78	-60.3	-71.0	3.8	7.46e-01	0	34	104	0	88	13114
2026-01-02 00:29:51.53	289.52	16.54	-60.2	-70.9	3.8	7.46e-01	0	33	104	0	88	12998
2026-01-02 00:29:54.53	288.66	16.29	-60.2	-70.9	3.8	7.45e-01	0	34	104	0	88	13014
2026-01-02 00:29:57.53	287.83	16.05	-60.2	-70.9	3.8	7.47e-01	0	34	104	0	88	13034
2026-01-02 00:30:00.53	287.01	15.80	-60.2	-70.8	3.8	7.46e-01	0	34	104	0	88	12929
2026-01-02 00:30:03.54	286.20	15.55	-60.1	-70.8	3.8	7.46e-01	0	34	104	0	88	12876
2026-01-02 00:30:06.55	285.41	15.30	-60.1	-70.8	3.8	7.47e-01	0	33	104	0	88	12891
2026-01-02 00:30:09.56	284.63	15.05	-60.1	-70.8	3.8	7.47e-01	0	34	104	0	88	12868
2026-01-02 00:30:12.56	283.88	14.79	-60.1	-70.8	3.8	7.45e-01	0	34	104	0	88	12822
2026-01-02 00:30:15.55	283.14	14.54	-60.1	-70.7	3.8	7.46e-01	0	33	104	0	88	12798
2026-01-02 00:30:18.56	282.41	14.28	-60.0	-70.7	3.8	7.45e-01	0	33	104	0	88	12714
2026-01-02 00:30:21.55	281.70	14.03	-60.0	-70.7	3.8	7.44e-01	0	34	104	0	88	12760
2026-01-02 00:30:24.55	281.00	13.77	-60.0	-70.7	3.8	7.47e-01	0	34	104	0	88	12743
2026-01-02 00:30:27.53	280.32	13.52	-60.0	-70.7	3.8	7.45e-01	0	34	104	0	88	12753
2026-01-02 00:30:30.53	279.65	13.26	-59.9	-70.6	3.8	7.46e-01	0	33	104	0	88	12624
2026-01-02 00:30:33.53	279.00	13.01	-59.9	-70.6	3.8	7.45e-01	0	34	104	0	87	13309
2026-01-02 00:30:36.53	278.36	12.75	-59.9	-70.6	3.8	7.46e-01	0	33	104	0	87	13316
2026-01-02 00:30:39.52	277.73	12.50	-59.9	-70.6	3.8	7.45e-01	0	33	104	0	87	13280
2026-01-02 00:30:42.51	277.12	12.25	-59.8	-70.5	3.8	7.45e-01	0	33	104	0	87	13193
2026-01-02 00:30:45.52	276.51	11.99	-59.8	-70.5	3.8	7.45e-01	0	34	104	0	87	13148
2026-01-02 00:30:48.52	275.92	11.74	-59.8	-70.5	3.8	7.45e-01	0	33	104	0	87	13133
2026-01-02 00:30:51.52	275.35	11.49	-59.8	-70.4	3.8	7.46e-01	0	34	104	0	87	13085
2026-01-02 00:30:54.53	274.78	11.24	-59.7	-70.4	3.8	7.46e-01	0	33	104	0	87	13044
2026-01-02 00:30:57.53	274.23	10.99	-59.7	-70.4	3.8	7.47e-01	0	33	104	0	87	12991
2026-01-02 00:31:00.52	273.69	10.75	-59.7	-70.4	3.8	7.44e-01	0	34	104	0	87	12980
2026-01-02 00:31:03.52	273.15	10.50	-59.6	-70.3	3.8	7.47e-01	0	33	104	0	87	12914
2026-01-02 00:31:06.51	272.64	10.26	-59.6	-70.3	3.8	7.45e-01	0	34	104	0	87	12915
2026-01-02 00:31:09.51	272.13	10.01	-59.6	-70.3	3.8	7.45e-01	0	34	104	0	87	12827
2026-01-02 00:31:12.51	271.63	9.77	-59.5	-70.2	3.8	7.46e-01	0	33	104	0	87	12721
2026-01-02 00:31:15.50	271.14	9.53	-59.5	-70.1	3.8	7.45e-01	0	33	104	0	87	12576
2026-01-02 00:31:18.50	270.66	9.29	-59.4	-70.0	3.8	7.45e-01	0	34	104	0	86	13255
2026-01-02 00:31:21.50	270.20	9.05	-58.9	-69.6	3.8	7.45e-01	0	34	104	0	86	12559
2026-01-02 00:31:24.51	269.73	8.81	-58.1	-68.8	3.8	7.45e-01	0	34	104	0	85	12141
2026-01-02 00:31:27.50	269.29	8.58	-57.8	-68.5	3.8	7.44e-01	0	33	104	0	84	12454
2026-01-02 00:31:30.49	268.85	8.35	-57.6	-68.3	3.8	7.46e-01	0	34	104	0	83	12936
2026-01-02 00:31:33.48	268.42	8.12	-58.1	-68.8	3.8	7.45e-01	0	33	104	0	84	12878
2026-01-02 00:31:36.47	267.99	7.89	-58.1	-68.9	3.8	7.46e-01	0	34	104	0	84	12960
2026-01-02 00:31:39.46	267.58	7.66	-58.6	-69.3	3.8	7.47e-01	0	34	104	0	85	12875
2026-01-02 00:31:42.48	267.17	7.43	-58.7	-69.3	3.8	7.44e-01	0	34	104	0	85	12933
2026-01-02 00:31:45.49	266.77	7.20	-59.0	-69.7	3.8	7.45e-01	0	33	104	0	86	12751
2026-01-02 00:31:48.48	266.38	6.98	-59.1	-69.8	3.8	7.44e-01	0	33	104	0	86	12902
2026-01-02 00:31:51.49	266.00	6.76	-59.1	-69.8	3.8	7.47e-01	0	33	104	0	86	12913
2026-01-02 00:31:54.50	265.62	6.53	-59.2	-69.9	3.8	7.46e-01	0	33	104	0	86	13057
2026-01-02 00:31:57.49	265.25	6.32	-59.2	-69.9	3.8	7.46e-01	0	34	104	0	86	12962
2026-01-02 00:32:00.49	264.89	6.10	-59.1	-69.7	3.8	7.46e-01	0	34	104	0	86	12801
2026-01-02 00:32:03.48	264.54	5.88	-59.1	-69.8	3.8	7.45e-01	0	34	104	0	86	12851
2026-01-02 00:32:06.47	264.19	5.67	-59.1	-69.7	3.8	7.46e-01	0	34	104	0	86	12800
2026-01-02 00:32:09.47	263.85	5.46	-59.0	-69.7	3.8	7.46e-01	0	33	104	0	86	12692
2026-01-02 00:32:12.47	263.52	5.24	-58.9	-69.6	3.8	7.46e-01	0	33	104	0	86	12568
2026-01-02 00:32:15.46	263.19	5.03	-59.0	-69.7	3.8	7.47e-01	0	34	104	0	85	13516
2026-01-02 00:32:18.46	262.87	4.83	-60.0	-70.6	3.8	7.46e-01	0	33	104	0	87	13396
2026-01-02 00:32:21.46	262.55	4.62	-60.5	-71.2	3.8	7.47e-01	0	33	104	0	88	13472
2026-01-02 00:32:24.46	262.24	4.41	-60.9	-71.6	3.8	7.45e-01	0	33	104	0	89	13288
2026-01-02 00:32:27.44	261.94	4.21	-61.2	-71.9	3.8	7.45e-01	0	33	104	0	90	12967
2026-01-02 00:32:30.44	261.64	4.01	-61.4	-72.0	3.8	7.45e-01	0	33	104	0	90	13215
2026-01-02 00:32:33.41	261.35	3.81	-61.5	-72.2	3.8	7.45e-01	0	33	104	0	90	13484
2026-01-02 00:32:36.41	261.06	3.61	-61.5	-72.2	3.8	7.45e-01	0	33	104	0	91	12672
2026-01-02 00:32:39.41	260.77	3.41	-61.4	-72.0	3.8	7.46e-01	0	34	104	0	91	12494
2026-01-02 00:32:42.41	260.49	3.21	-61.3	-71.9	3.8	7.46e-01	0	34	104	0	91	12364
2026-01-02 00:32:45.42	260.22	3.02	-61.2	-71.9	3.8	7.45e-01	0	34	104	0	91	12296
2026-01-02 00:32:48.42	259.95	2.82	-61.2	-71.9	3.8	7.46e-01	0	34	104	0	91	12238
2026-01-02 00:32:51.42	259.69	2.63	-61.2	-71.8	3.8	7.44e-01	0	34	104	0	91	12202
2026-01-02 00:32:54.42	259.43	2.44	-61.1	-71.8	3.8	7.47e-01	0	34	104	0	91	12192
2026-01-02 00:32:57.43	259.17	2.24	-61.1	-71.8	3.8	7.46e-01	0	34	104	0	91	12160
2026-01-02 00:33:00.43	258.92	2.05	-61.1	-71.8	3.8	7.45e-01	0	34	104	0	91	12102

#Closed at: 2026-01-02 00:33:02
#Recorded file [0 MB]: D:/lorett/data/31004_260102_032342.dat