passes_logs/2026/01/02/R3.2S_Murmansk/R3.2S_Murmansk__20260102_121536_NOAA_20_JPSS-1_rec.log

#Pass ID: 20260102_121536_NOAA 20 (JPSS-1)
#Satellite: NOAA 20 (JPSS-1)
#Configuration: NOAA 20
#almurnet v.1.7.20251203
#Start time: 2026-01-02 12:15:38

#Version: 2.2.20231116
#Station: R3.2S_Murmansk
#Location: 33.079688 lon 68.888172 lat
#TLE: 1 43013U 17073A   26001.09198674  .00000169  00000+0  10130-3 0  9995
#TLE: 2 43013  98.7621 302.1793 0001944  59.5293 300.6075 14.19531878420769

#Time	Az	El	Level	Level2	SNR	BER	BlckErr	Temp	State	Recorded	gain1	gain2
2026-01-02 12:15:38.05	221.79	2.09	-60.1	-75.8	3.8	1.49e+00	0	30	0	0	86	21858
2026-01-02 12:15:41.04	222.04	2.25	-60.1	-75.7	3.8	1.49e+00	0	30	104	0	85	22951
2026-01-02 12:15:44.04	222.28	2.41	-60.1	-75.7	3.8	1.49e+00	0	30	104	0	85	22932
2026-01-02 12:15:47.03	222.53	2.57	-60.1	-75.7	3.8	1.49e+00	0	31	104	0	85	22934
2026-01-02 12:15:50.01	222.78	2.72	-60.1	-75.7	3.8	1.49e+00	0	31	104	0	85	23004
2026-01-02 12:15:52.99	223.03	2.88	-60.1	-75.7	3.8	1.49e+00	0	31	104	0	85	23024
2026-01-02 12:15:55.98	223.28	3.04	-60.1	-75.6	3.8	1.49e+00	0	31	104	0	85	22703
2026-01-02 12:15:58.98	223.54	3.20	-60.1	-75.6	3.8	1.49e+00	0	31	104	0	85	22593
2026-01-02 12:16:01.98	223.80	3.36	-60.1	-75.7	3.8	1.49e+00	0	31	104	0	85	23020
2026-01-02 12:16:04.97	224.06	3.52	-60.1	-75.7	3.8	1.49e+00	0	31	104	0	85	22992
2026-01-02 12:16:07.97	224.33	3.68	-60.1	-75.5	3.8	1.49e+00	0	31	104	0	85	22482
2026-01-02 12:16:10.98	224.59	3.85	-60.1	-75.5	3.9	1.49e+00	0	31	104	0	85	22310
2026-01-02 12:16:13.96	224.86	4.01	-60.1	-75.4	3.8	1.49e+00	0	31	104	0	85	22232
2026-01-02 12:16:16.95	225.14	4.17	-60.1	-75.2	3.8	1.49e+00	0	31	104	0	85	21746
2026-01-02 12:16:19.95	225.41	4.33	-60.1	-75.7	3.8	1.49e+00	0	31	104	0	85	22886
2026-01-02 12:16:22.94	225.69	4.50	-60.1	-74.7	3.8	1.49e+00	0	31	104	0	85	20373
2026-01-02 12:16:25.94	225.98	4.66	-60.0	-73.8	3.8	1.49e+00	0	31	104	0	85	18314
2026-01-02 12:16:28.94	226.26	4.83	-60.0	-74.2	3.8	1.49e+00	0	31	104	0	85	19358
2026-01-02 12:16:31.94	226.55	4.99	-59.8	-70.0	5.1	8.96e-01	0	31	0	1048576	85	11820
2026-01-02 12:16:34.94	226.84	5.16	-60.1	-74.1	3.8	4.00e-01	0	31	104	6291456	85	19007
2026-01-02 12:16:37.93	227.14	5.32	-56.7	-59.5	13.0	1.41e+00	0	31	0	7340032	80	4756
2026-01-02 12:16:40.93	227.44	5.49	-56.5	-59.1	13.4	0.00e+00	0	31	0	12582912	79	4809
2026-01-02 12:16:43.92	227.74	5.66	-56.3	-58.8	13.7	0.00e+00	0	31	0	17825792	79	4629
2026-01-02 12:16:46.90	228.04	5.82	-56.3	-58.8	13.7	0.00e+00	0	31	0	24117248	79	4601
2026-01-02 12:16:49.89	228.35	5.99	-56.3	-58.7	13.7	0.00e+00	0	31	0	29360128	79	4570
2026-01-02 12:16:52.90	228.66	6.16	-56.2	-58.6	13.8	0.00e+00	0	31	0	34603008	78	4768
2026-01-02 12:16:55.90	228.98	6.33	-56.1	-58.3	14.0	0.00e+00	0	31	0	40894464	78	4627
2026-01-02 12:16:58.90	229.30	6.49	-56.1	-58.3	13.9	0.00e+00	0	31	0	46137344	78	4646
2026-01-02 12:17:01.90	229.62	6.66	-56.0	-58.2	14.0	0.00e+00	0	31	0	51380224	78	4594
2026-01-02 12:17:04.88	229.94	6.83	-56.0	-58.2	14.1	0.00e+00	0	31	0	57671680	78	4564
2026-01-02 12:17:07.87	230.27	7.00	-56.1	-58.4	13.9	0.00e+00	0	31	0	62914560	78	4675
2026-01-02 12:17:10.86	230.61	7.17	-55.8	-57.9	14.2	0.00e+00	0	31	0	68157440	78	4428
2026-01-02 12:17:13.85	230.94	7.34	-55.9	-58.0	14.2	0.00e+00	0	31	0	74448896	78	4460
2026-01-02 12:17:16.84	231.28	7.51	-55.8	-57.8	14.3	0.00e+00	0	31	0	79691776	78	4381
2026-01-02 12:17:19.83	231.62	7.68	-55.8	-57.9	14.3	0.00e+00	0	31	0	84934656	78	4392
2026-01-02 12:17:22.81	231.97	7.85	-55.8	-57.9	14.3	0.00e+00	0	31	0	91226112	78	4402
2026-01-02 12:17:25.81	232.32	8.02	-55.8	-57.8	14.4	0.00e+00	0	31	0	96468992	78	4351
2026-01-02 12:17:28.80	232.68	8.20	-55.6	-57.6	14.4	0.00e+00	0	31	0	102760448	77	4515
2026-01-02 12:17:31.78	233.04	8.37	-55.6	-57.6	14.4	0.00e+00	0	31	0	108003328	77	4531
2026-01-02 12:17:34.78	233.40	8.54	-55.6	-57.5	14.5	0.00e+00	0	31	0	113246208	77	4484
2026-01-02 12:17:37.77	233.77	8.71	-55.5	-57.4	14.6	0.00e+00	0	31	0	119537664	77	4398
2026-01-02 12:17:40.77	234.14	8.88	-55.4	-57.2	14.7	0.00e+00	0	31	0	124780544	77	4304
2026-01-02 12:17:43.75	234.52	9.06	-55.2	-57.0	14.8	0.00e+00	0	31	0	130023424	77	4210
2026-01-02 12:17:46.74	234.90	9.23	-55.2	-56.9	14.8	0.00e+00	0	31	0	136314880	76	4440
2026-01-02 12:17:49.73	235.28	9.40	-55.2	-56.9	14.8	0.00e+00	0	31	0	141557760	76	4436
2026-01-02 12:17:52.73	235.68	9.57	-55.1	-56.8	14.9	0.00e+00	0	31	0	146800640	76	4345
2026-01-02 12:17:55.73	236.07	9.75	-55.0	-56.7	14.9	0.00e+00	0	31	0	153092096	76	4335
2026-01-02 12:17:58.72	236.47	9.92	-55.1	-56.8	14.9	0.00e+00	0	31	0	158334976	76	4362
2026-01-02 12:18:01.73	236.87	10.09	-55.3	-57.0	14.8	0.00e+00	0	32	0	163577856	76	4490
2026-01-02 12:18:04.73	237.28	10.27	-55.3	-57.1	14.7	0.00e+00	0	31	0	169869312	76	4507
2026-01-02 12:18:07.73	237.70	10.44	-55.2	-57.0	14.8	0.00e+00	0	31	0	175112192	76	4456
2026-01-02 12:18:10.72	238.11	10.61	-55.1	-56.8	14.9	0.00e+00	0	31	0	181403648	76	4375
2026-01-02 12:18:13.72	238.54	10.78	-55.2	-56.9	14.8	0.00e+00	0	32	0	186646528	76	4438
2026-01-02 12:18:16.71	238.96	10.96	-55.3	-57.1	14.8	0.00e+00	0	31	0	191889408	76	4504
2026-01-02 12:18:19.68	239.39	11.13	-55.2	-56.9	14.8	0.00e+00	0	32	0	198180864	76	4432
2026-01-02 12:18:22.67	239.83	11.30	-55.0	-56.7	15.0	0.00e+00	0	31	0	203423744	76	4306
2026-01-02 12:18:25.64	240.27	11.47	-55.0	-56.7	15.0	0.00e+00	0	32	0	208666624	76	4305
2026-01-02 12:18:28.64	240.71	11.64	-54.9	-56.5	15.1	0.00e+00	0	32	0	214958080	76	4227
2026-01-02 12:18:31.63	241.16	11.81	-55.0	-56.6	15.0	0.00e+00	0	32	0	220200960	76	4255
2026-01-02 12:18:34.62	241.62	11.98	-54.9	-56.5	15.1	0.00e+00	0	31	0	225443840	76	4230
2026-01-02 12:18:37.62	242.08	12.15	-54.9	-56.4	15.1	0.00e+00	0	32	0	231735296	76	4187
2026-01-02 12:18:40.62	242.55	12.32	-54.9	-56.4	15.2	0.00e+00	0	32	0	236978176	76	4188
2026-01-02 12:18:43.63	243.03	12.49	-54.8	-56.4	15.2	0.00e+00	0	31	0	242221056	76	4146
2026-01-02 12:18:46.62	243.50	12.66	-54.6	-56.2	15.2	0.00e+00	0	32	0	248512512	75	4308
2026-01-02 12:18:49.62	243.99	12.83	-54.5	-56.0	15.2	0.00e+00	0	32	0	253755392	75	4217
2026-01-02 12:18:52.62	244.48	13.00	-54.4	-55.9	15.3	0.00e+00	0	31	0	258998272	75	4167
2026-01-02 12:18:55.62	244.97	13.16	-54.3	-55.8	15.3	0.00e+00	0	32	0	265289728	75	4125
2026-01-02 12:18:58.61	245.47	13.33	-54.1	-55.5	15.4	0.00e+00	0	31	0	270532608	74	4197
2026-01-02 12:19:01.61	245.97	13.49	-54.1	-55.4	15.5	0.00e+00	0	31	0	276824064	74	4188
2026-01-02 12:19:04.61	246.49	13.66	-54.0	-55.4	15.5	0.00e+00	0	31	0	282066944	74	4159
2026-01-02 12:19:07.60	247.00	13.82	-54.0	-55.4	15.5	0.00e+00	0	31	0	287309824	74	4159
2026-01-02 12:19:10.60	247.52	13.98	-53.8	-55.1	15.6	0.00e+00	0	32	0	293601280	74	4030
2026-01-02 12:19:13.59	248.05	14.14	-53.7	-55.0	15.6	0.00e+00	0	32	0	298844160	73	4196
2026-01-02 12:19:16.57	248.58	14.30	-53.7	-54.9	15.6	0.00e+00	0	31	0	304087040	73	4187
2026-01-02 12:19:19.55	249.11	14.46	-53.8	-55.1	15.6	0.00e+00	0	32	0	310378496	73	4243
2026-01-02 12:19:22.53	249.65	14.61	-53.7	-55.0	15.6	0.00e+00	0	32	0	315621376	73	4198
2026-01-02 12:19:25.53	250.20	14.77	-53.7	-55.0	15.6	0.00e+00	0	32	0	320864256	73	4221
2026-01-02 12:19:28.52	250.75	14.92	-53.9	-55.3	15.5	0.00e+00	0	32	0	327155712	73	4346
2026-01-02 12:19:31.50	251.31	15.07	-54.0	-55.4	15.4	0.00e+00	0	32	0	332398592	73	4415
2026-01-02 12:19:34.48	251.87	15.22	-54.1	-55.5	15.4	0.00e+00	0	32	0	337641472	73	4454
2026-01-02 12:19:37.48	252.44	15.37	-54.2	-55.5	15.4	0.00e+00	0	32	0	343932928	73	4491
2026-01-02 12:19:40.47	253.02	15.52	-54.4	-55.9	15.3	0.00e+00	0	31	0	349175808	74	4403
2026-01-02 12:19:43.48	253.60	15.67	-54.6	-56.0	15.3	0.00e+00	0	31	0	354418688	74	4490
2026-01-02 12:19:46.47	254.19	15.81	-54.7	-56.2	15.2	0.00e+00	0	32	0	360710144	74	4583
2026-01-02 12:19:49.48	254.79	15.95	-54.7	-56.2	15.2	0.00e+00	0	31	0	365953024	74	4586
2026-01-02 12:19:52.48	255.38	16.09	-54.8	-56.4	15.1	0.00e+00	0	32	0	371195904	74	4671
2026-01-02 12:19:55.48	255.99	16.23	-54.9	-56.5	15.1	0.00e+00	0	32	0	377487360	75	4477
2026-01-02 12:19:58.48	256.60	16.36	-55.1	-56.8	14.9	0.00e+00	0	32	0	382730240	75	4609
2026-01-02 12:20:01.48	257.21	16.50	-55.2	-56.9	14.9	0.00e+00	0	31	0	389021696	75	4658
2026-01-02 12:20:04.48	257.83	16.63	-55.5	-57.3	14.8	0.00e+00	0	32	0	394264576	76	4616
2026-01-02 12:20:07.47	258.46	16.75	-55.8	-57.7	14.6	0.00e+00	0	32	0	399507456	76	4816
2026-01-02 12:20:10.46	259.08	16.88	-55.5	-57.2	14.8	0.00e+00	0	32	0	405798912	76	4589
2026-01-02 12:20:13.46	259.72	17.00	-55.3	-56.9	15.0	0.00e+00	0	32	0	411041792	76	4418
2026-01-02 12:20:16.46	260.36	17.12	-55.2	-56.8	15.0	0.00e+00	0	32	0	416284672	76	4368
2026-01-02 12:20:19.43	261.00	17.24	-55.3	-56.9	15.0	0.00e+00	0	32	0	422576128	76	4426
2026-01-02 12:20:22.43	261.65	17.35	-55.2	-56.9	15.0	0.00e+00	0	32	0	427819008	76	4412
2026-01-02 12:20:25.41	262.30	17.46	-54.9	-56.4	15.2	0.00e+00	0	32	0	433061888	76	4155
2026-01-02 12:20:28.39	262.95	17.57	-54.5	-56.0	15.4	0.00e+00	0	32	0	439353344	75	4208
2026-01-02 12:20:31.38	263.62	17.67	-54.5	-56.0	15.4	0.00e+00	0	31	0	444596224	75	4213
2026-01-02 12:20:34.40	264.29	17.78	-54.6	-56.0	15.3	0.00e+00	0	32	0	449839104	75	4234
2026-01-02 12:20:37.39	264.96	17.87	-54.5	-55.9	15.4	0.00e+00	0	32	0	456130560	75	4173
2026-01-02 12:20:40.38	265.63	17.97	-54.6	-56.0	15.3	0.00e+00	0	32	0	461373440	75	4238
2026-01-02 12:20:43.38	266.31	18.06	-54.8	-56.3	15.2	0.00e+00	0	32	0	466616320	75	4376
2026-01-02 12:20:46.38	267.00	18.15	-54.8	-56.3	15.2	0.00e+00	0	32	0	472907776	75	4377
2026-01-02 12:20:49.37	267.68	18.23	-54.7	-56.2	15.3	0.00e+00	0	31	0	478150656	75	4312
2026-01-02 12:20:52.38	268.38	18.31	-54.6	-56.1	15.3	0.00e+00	0	32	0	484442112	75	4270
2026-01-02 12:20:55.38	269.07	18.39	-54.6	-56.1	15.3	0.00e+00	0	32	0	489684992	75	4256
2026-01-02 12:20:58.36	269.77	18.46	-54.8	-56.3	15.2	0.00e+00	0	32	0	494927872	75	4363
2026-01-02 12:21:01.36	270.47	18.53	-54.7	-56.2	15.3	0.00e+00	0	32	0	501219328	75	4317
2026-01-02 12:21:04.35	271.17	18.59	-54.7	-56.1	15.3	0.00e+00	0	32	0	506462208	75	4277
2026-01-02 12:21:07.35	271.88	18.65	-54.6	-56.1	15.3	0.00e+00	0	32	0	511705088	75	4277
2026-01-02 12:21:10.34	272.59	18.71	-54.7	-56.1	15.3	0.00e+00	0	31	0	517996544	75	4267
2026-01-02 12:21:13.33	273.30	18.76	-54.5	-56.0	15.4	0.00e+00	0	32	0	523239424	75	4209
2026-01-02 12:21:16.31	274.01	18.81	-54.7	-56.1	15.3	0.00e+00	0	32	0	528482304	75	4289
2026-01-02 12:21:19.29	274.72	18.85	-55.0	-56.6	15.1	0.00e+00	0	32	0	534773760	75	4500
2026-01-02 12:21:22.28	275.43	18.89	-55.1	-56.7	15.1	0.00e+00	0	32	0	540016640	75	4554
2026-01-02 12:21:25.26	276.15	18.93	-55.1	-56.7	15.0	0.00e+00	0	32	0	545259520	75	4594
2026-01-02 12:21:28.24	276.87	18.96	-55.0	-56.6	15.1	0.00e+00	0	32	0	551550976	75	4525
2026-01-02 12:21:31.23	277.59	18.98	-55.2	-56.9	15.0	0.00e+00	0	32	0	556793856	75	4671
2026-01-02 12:21:34.22	278.31	19.01	-55.3	-56.9	15.1	0.00e+00	0	32	0	562036736	76	4424
2026-01-02 12:21:37.21	279.03	19.02	-55.2	-56.7	15.2	0.00e+00	0	32	0	568328192	76	4325
2026-01-02 12:21:40.21	279.76	19.04	-55.1	-56.6	15.2	0.00e+00	0	32	0	573571072	76	4277
2026-01-02 12:21:43.20	280.48	19.04	-55.6	-57.3	14.9	0.00e+00	0	32	0	579862528	76	4623
2026-01-02 12:21:46.18	281.20	19.05	-55.6	-57.4	14.8	0.00e+00	0	32	0	585105408	76	4661
2026-01-02 12:21:49.19	281.93	19.05	-55.4	-57.1	15.0	0.00e+00	0	32	0	590348288	76	4513
2026-01-02 12:21:52.18	282.66	19.04	-55.6	-57.3	14.9	0.00e+00	0	32	0	596639744	76	4616
2026-01-02 12:21:55.19	283.38	19.04	-55.5	-57.2	14.9	0.00e+00	0	32	0	601882624	76	4596
2026-01-02 12:21:58.18	284.11	19.02	-55.4	-57.0	15.1	0.00e+00	0	32	0	607125504	76	4463
2026-01-02 12:22:01.18	284.83	19.00	-55.1	-56.6	15.3	0.00e+00	0	32	0	613416960	76	4289
2026-01-02 12:22:04.18	285.55	18.98	-55.1	-56.6	15.2	0.00e+00	0	32	0	618659840	76	4261
2026-01-02 12:22:07.18	286.28	18.95	-55.2	-56.7	15.2	0.00e+00	0	32	0	623902720	76	4323
2026-01-02 12:22:10.17	287.00	18.92	-55.1	-56.7	15.2	0.00e+00	0	32	0	630194176	76	4295
2026-01-02 12:22:13.16	287.71	18.89	-55.2	-56.8	15.2	0.00e+00	0	32	0	635437056	76	4371
2026-01-02 12:22:16.17	288.43	18.85	-55.4	-57.0	15.0	0.00e+00	0	32	0	640679936	76	4491
2026-01-02 12:22:19.16	289.15	18.80	-55.3	-56.9	15.1	0.00e+00	0	32	0	646971392	76	4413
2026-01-02 12:22:22.15	289.86	18.75	-55.0	-56.5	15.3	0.00e+00	0	32	0	652214272	76	4199
2026-01-02 12:22:25.16	290.57	18.70	-54.6	-56.0	15.5	0.00e+00	0	32	0	658505728	75	4225
2026-01-02 12:22:28.14	291.27	18.65	-54.6	-56.0	15.5	0.00e+00	0	32	0	663748608	75	4232
2026-01-02 12:22:31.13	291.98	18.58	-54.8	-56.3	15.3	0.00e+00	0	32	0	668991488	75	4370
2026-01-02 12:22:34.12	292.68	18.52	-54.8	-56.3	15.3	0.00e+00	0	32	0	675282944	75	4345
2026-01-02 12:22:37.13	293.38	18.45	-54.5	-55.8	15.5	0.00e+00	0	32	0	680525824	75	4132
2026-01-02 12:22:40.13	294.08	18.38	-54.1	-55.4	15.7	0.00e+00	0	32	0	685768704	74	4179
2026-01-02 12:22:43.13	294.77	18.30	-54.0	-55.3	15.7	0.00e+00	0	32	0	692060160	74	4121
2026-01-02 12:22:46.13	295.46	18.22	-53.9	-55.2	15.7	0.00e+00	0	32	0	697303040	74	4057
2026-01-02 12:22:49.12	296.14	18.14	-54.2	-55.6	15.6	0.00e+00	0	32	0	702545920	74	4251
2026-01-02 12:22:52.12	296.83	18.05	-54.4	-55.8	15.5	0.00e+00	0	32	0	708837376	74	4342
2026-01-02 12:22:55.13	297.51	17.96	-54.4	-55.7	15.5	0.00e+00	0	32	0	714080256	74	4333
2026-01-02 12:22:58.12	298.18	17.86	-54.1	-55.5	15.7	0.00e+00	0	32	0	719323136	74	4198
2026-01-02 12:23:01.14	298.85	17.77	-53.6	-54.8	15.8	0.00e+00	0	32	0	725614592	73	4117
2026-01-02 12:23:04.14	299.52	17.66	-53.3	-54.5	16.0	0.00e+00	0	32	0	730857472	73	3963
2026-01-02 12:23:07.13	300.18	17.56	-53.5	-54.6	15.9	0.00e+00	0	32	0	737148928	73	4044
2026-01-02 12:23:10.14	300.84	17.45	-53.6	-54.8	15.9	0.00e+00	0	32	0	742391808	73	4109
2026-01-02 12:23:13.14	301.49	17.34	-53.5	-54.6	15.9	0.00e+00	0	32	0	747634688	73	4037
2026-01-02 12:23:16.14	302.14	17.23	-53.3	-54.5	15.9	0.00e+00	0	32	0	753926144	73	3976
2026-01-02 12:23:19.14	302.78	17.11	-53.1	-54.2	16.0	0.00e+00	0	32	0	759169024	72	4053
2026-01-02 12:23:22.13	303.42	16.99	-53.0	-54.1	16.1	0.00e+00	0	32	0	764411904	72	4020
2026-01-02 12:23:25.13	304.05	16.87	-53.4	-54.5	15.9	0.00e+00	0	32	0	770703360	72	4234
2026-01-02 12:23:28.15	304.68	16.74	-53.5	-54.8	15.8	0.00e+00	0	32	0	775946240	72	4342
2026-01-02 12:23:31.14	305.30	16.61	-53.6	-54.8	15.7	0.00e+00	0	32	0	781189120	72	4378
2026-01-02 12:23:34.14	305.92	16.48	-53.5	-54.7	15.8	0.00e+00	0	32	0	787480576	72	4328
2026-01-02 12:23:37.14	306.53	16.35	-53.5	-54.6	15.8	0.00e+00	0	32	0	792723456	72	4277
2026-01-02 12:23:40.13	307.13	16.22	-53.9	-55.2	15.6	0.00e+00	0	32	0	799014912	72	4552
2026-01-02 12:23:43.12	307.73	16.08	-54.6	-56.0	15.4	0.00e+00	0	32	0	804257792	74	4480
2026-01-02 12:23:46.11	308.33	15.94	-54.9	-56.4	15.3	0.00e+00	0	32	0	809500672	75	4414
2026-01-02 12:23:49.11	308.92	15.80	-55.0	-56.5	15.2	0.00e+00	0	32	0	815792128	75	4478
2026-01-02 12:23:52.10	309.50	15.66	-55.1	-56.6	15.2	0.00e+00	0	32	0	821035008	75	4539
2026-01-02 12:23:55.10	310.08	15.51	-54.7	-56.2	15.4	0.00e+00	0	32	0	826277888	75	4307
2026-01-02 12:23:58.11	310.66	15.37	-54.5	-56.0	15.4	0.00e+00	0	32	0	832569344	75	4207
2026-01-02 12:24:01.09	311.22	15.22	-54.9	-56.5	15.2	0.00e+00	0	32	0	837812224	75	4469
2026-01-02 12:24:04.09	311.79	15.07	-55.3	-57.0	15.0	0.00e+00	0	32	0	843055104	75	4732
2026-01-02 12:24:07.10	312.34	14.92	-55.3	-57.0	15.0	0.00e+00	0	32	0	849346560	75	4709
2026-01-02 12:24:10.09	312.89	14.76	-55.5	-57.2	14.9	0.00e+00	0	32	0	854589440	76	4572
2026-01-02 12:24:13.09	313.44	14.61	-55.4	-57.1	15.0	0.00e+00	0	32	0	859832320	76	4511
2026-01-02 12:24:16.09	313.98	14.45	-55.2	-56.9	15.1	0.00e+00	0	32	0	866123776	76	4412
2026-01-02 12:24:19.08	314.52	14.30	-55.2	-56.9	15.0	0.00e+00	0	32	0	871366656	76	4395
2026-01-02 12:24:22.06	315.04	14.14	-55.1	-56.8	15.1	0.00e+00	0	32	0	876609536	76	4344
2026-01-02 12:24:25.07	315.57	13.98	-54.4	-55.8	15.5	0.00e+00	0	32	0	882900992	75	4123
2026-01-02 12:24:28.06	316.09	13.82	-54.3	-55.7	15.5	0.00e+00	0	32	0	888143872	75	4068
2026-01-02 12:24:31.04	316.60	13.66	-54.4	-55.9	15.4	0.00e+00	0	32	0	894435328	75	4154
2026-01-02 12:24:34.03	317.10	13.49	-54.6	-56.1	15.3	0.00e+00	0	32	0	899678208	75	4280
2026-01-02 12:24:37.02	317.60	13.33	-55.2	-56.9	14.9	0.00e+00	0	32	0	904921088	75	4691
2026-01-02 12:24:40.02	318.10	13.17	-55.6	-57.4	14.8	0.00e+00	0	32	0	911212544	76	4690
2026-01-02 12:24:43.02	318.59	13.00	-55.0	-56.6	15.2	0.00e+00	0	32	0	916455424	76	4256
2026-01-02 12:24:46.03	319.08	12.83	-54.2	-55.7	15.5	0.00e+00	0	32	0	921698304	75	4052
2026-01-02 12:24:49.02	319.56	12.67	-54.1	-55.5	15.6	0.00e+00	0	32	0	927989760	74	4204
2026-01-02 12:24:52.03	320.04	12.50	-54.4	-55.9	15.4	0.00e+00	0	32	0	933232640	74	4402
2026-01-02 12:24:55.04	320.51	12.33	-54.3	-55.8	15.4	0.00e+00	0	32	0	938475520	74	4345
2026-01-02 12:24:58.04	320.98	12.16	-54.2	-55.6	15.5	0.00e+00	0	32	0	944766976	74	4262
2026-01-02 12:25:01.02	321.43	11.99	-54.4	-55.9	15.3	0.00e+00	0	32	0	950009856	74	4415
2026-01-02 12:25:04.00	321.89	11.82	-54.5	-56.0	15.3	0.00e+00	0	32	0	955252736	74	4481
2026-01-02 12:25:06.98	322.33	11.66	-54.1	-55.5	15.5	0.00e+00	0	32	0	961544192	74	4203
2026-01-02 12:25:09.97	322.78	11.49	-54.0	-55.3	15.6	0.00e+00	0	32	0	966787072	74	4142
2026-01-02 12:25:12.97	323.22	11.32	-54.1	-55.5	15.5	0.00e+00	0	32	0	973078528	74	4237
2026-01-02 12:25:15.95	323.65	11.15	-54.5	-56.0	15.2	0.00e+00	0	32	0	978321408	74	4489
2026-01-02 12:25:18.94	324.08	10.98	-54.4	-55.9	15.3	0.00e+00	0	32	0	983564288	74	4419
2026-01-02 12:25:21.92	324.50	10.81	-54.4	-55.9	15.3	0.00e+00	0	32	0	989855744	74	4413
2026-01-02 12:25:24.91	324.92	10.63	-54.5	-56.1	15.2	0.00e+00	0	32	0	995098624	74	4500
2026-01-02 12:25:27.89	325.34	10.46	-54.8	-56.5	15.0	0.00e+00	0	32	0	1000341504	74	4724
2026-01-02 12:25:30.89	325.75	10.29	-54.9	-56.6	15.0	0.00e+00	0	32	0	1006632960	75	4545
2026-01-02 12:25:33.86	326.15	10.12	-54.5	-56.0	15.3	0.00e+00	0	32	0	1011875840	75	4219
2026-01-02 12:25:36.86	326.55	9.95	-54.2	-55.7	15.4	0.00e+00	0	32	0	1017118720	75	4079
2026-01-02 12:25:39.83	326.95	9.78	-54.5	-56.0	15.2	0.00e+00	0	32	0	1023410176	75	4230
2026-01-02 12:25:42.80	327.34	9.61	-54.8	-56.4	15.0	0.00e+00	0	32	0	1028653056	75	4422
2026-01-02 12:25:45.77	327.72	9.44	-54.7	-56.3	15.1	0.00e+00	0	32	0	1033895936	75	4374
2026-01-02 12:25:48.75	328.11	9.27	-54.7	-56.3	15.1	0.00e+00	0	32	0	1039138816	75	4373
2026-01-02 12:25:51.75	328.49	9.10	-54.9	-56.6	14.9	0.00e+00	0	32	0	1045430272	75	4541
2026-01-02 12:25:54.74	328.86	8.93	-55.1	-57.0	14.7	0.00e+00	0	32	0	1050673152	75	4725
2026-01-02 12:25:57.75	329.23	8.76	-55.2	-57.1	14.6	0.00e+00	0	32	0	1056964608	75	4805
2026-01-02 12:26:00.77	329.60	8.58	-55.3	-57.2	14.6	0.00e+00	0	32	0	1062207488	75	4839
2026-01-02 12:26:03.79	329.97	8.41	-55.3	-57.2	14.7	0.00e+00	0	32	0	1067450368	76	4571
2026-01-02 12:26:06.81	330.33	8.24	-55.4	-57.3	14.6	0.00e+00	0	32	0	1073741824	76	4641
2026-01-02 12:26:09.83	330.69	8.07	-55.7	-57.7	14.3	0.00e+00	0	32	0	1078984704	76	4853
2026-01-02 12:26:12.85	331.05	7.90	-55.8	-57.9	14.2	0.00e+00	0	32	0	1085276160	76	4948
2026-01-02 12:26:15.87	331.40	7.73	-55.5	-57.5	14.4	0.00e+00	0	32	0	1090519040	76	4739
2026-01-02 12:26:18.90	331.74	7.55	-55.3	-57.2	14.6	0.00e+00	0	32	0	1095761920	76	4556
2026-01-02 12:26:21.92	332.08	7.38	-55.4	-57.3	14.6	0.00e+00	0	32	0	1102053376	76	4642
2026-01-02 12:26:24.94	332.42	7.21	-55.7	-57.8	14.3	0.00e+00	0	32	0	1107296256	76	4886
2026-01-02 12:26:27.95	332.76	7.04	-55.9	-58.1	14.1	0.00e+00	0	32	0	1113587712	77	4801
2026-01-02 12:26:30.96	333.09	6.87	-55.9	-58.2	14.0	0.00e+00	0	32	0	1118830592	77	4825
2026-01-02 12:26:33.98	333.41	6.71	-55.7	-58.0	14.2	0.00e+00	0	32	0	1124073472	77	4711
2026-01-02 12:26:36.99	333.74	6.54	-55.7	-57.9	14.2	0.00e+00	0	32	0	1130364928	77	4681
2026-01-02 12:26:40.02	334.06	6.37	-55.9	-58.2	14.0	0.00e+00	0	32	0	1135607808	77	4870
2026-01-02 12:26:43.03	334.37	6.20	-55.9	-58.2	13.9	0.00e+00	0	32	0	1141899264	77	4867
2026-01-02 12:26:46.05	334.69	6.03	-55.9	-58.3	13.8	0.00e+00	0	32	0	1147142144	77	4906
2026-01-02 12:26:49.06	335.00	5.87	-55.9	-58.3	13.8	0.00e+00	0	32	0	1152385024	77	4889
2026-01-02 12:26:52.09	335.30	5.70	-55.9	-58.3	13.7	0.00e+00	0	32	0	1158676480	77	4922
2026-01-02 12:26:55.11	335.61	5.53	-55.9	-58.3	13.8	0.00e+00	0	32	0	1163919360	77	4918
2026-01-02 12:26:58.14	335.91	5.37	-56.3	-58.9	13.4	0.00e+00	0	32	0	1170210816	77	5240
2026-01-02 12:27:01.15	336.20	5.20	-56.5	-59.3	13.2	0.00e+00	0	32	0	1175453696	78	5200
2026-01-02 12:27:04.17	336.50	5.04	-56.5	-59.3	13.2	0.00e+00	0	32	0	1180696576	78	5198
2026-01-02 12:27:07.19	336.79	4.87	-61.4	-76.9	3.8	1.49e+00	0	32	104	1182793728	87	23526
2026-01-02 12:27:10.22	337.08	4.71	-62.0	-77.6	3.8	1.49e+00	0	32	104	1182793728	89	22622
2026-01-02 12:27:13.24	337.36	4.54	-62.3	-77.9	3.8	1.49e+00	0	32	104	1182793728	89	23457
2026-01-02 12:27:16.26	337.64	4.38	-62.4	-78.0	3.8	1.49e+00	0	32	104	1182793728	90	22486
2026-01-02 12:27:19.28	337.92	4.22	-62.5	-78.1	3.8	1.49e+00	0	32	104	1182793728	90	22672
2026-01-02 12:27:22.31	338.20	4.05	-62.6	-78.2	3.8	1.49e+00	0	32	104	1182793728	90	22861
2026-01-02 12:27:25.34	338.47	3.89	-62.6	-78.2	3.8	1.49e+00	0	32	104	1182793728	90	22835
2026-01-02 12:27:28.37	338.74	3.73	-62.5	-78.1	3.8	1.49e+00	0	32	104	1182793728	90	22584
2026-01-02 12:27:31.39	339.01	3.57	-62.5	-78.0	3.8	1.49e+00	0	32	104	1182793728	90	22444
2026-01-02 12:27:34.42	339.27	3.41	-62.4	-78.0	3.8	1.49e+00	0	32	104	1182793728	90	22377
2026-01-02 12:27:37.44	339.54	3.25	-62.4	-78.0	3.8	1.49e+00	0	32	104	1182793728	90	22272
2026-01-02 12:27:40.47	339.80	3.09	-62.3	-77.9	3.8	1.49e+00	0	32	104	1182793728	90	22188
2026-01-02 12:27:43.49	340.05	2.93	-62.3	-77.9	3.8	1.49e+00	0	32	104	1182793728	90	22177
2026-01-02 12:27:46.52	340.31	2.77	-62.3	-77.9	3.8	1.49e+00	0	32	104	1182793728	90	22154
2026-01-02 12:27:49.54	340.56	2.61	-62.3	-77.9	3.8	1.49e+00	0	32	104	1182793728	90	22064
2026-01-02 12:27:52.57	340.81	2.45	-62.3	-77.8	3.8	1.49e+00	0	32	104	1182793728	90	21972
2026-01-02 12:27:55.59	341.05	2.29	-62.3	-77.9	3.8	1.49e+00	0	32	104	1182793728	90	22032
2026-01-02 12:27:58.61	341.30	2.14	-62.2	-77.8	3.8	1.49e+00	0	32	104	1182793728	90	21928

#Closed at: 2026-01-02 12:28:01
#Recorded file [1182 MB]: D:/lorett/data/31004_260102_151537.dat