passes_logs/2026/01/02/R3.2S_Murmansk/R3.2S_Murmansk__20260102_011018_KANOPUS-V_5_rec.log

#Pass ID: 20260102_011018_KANOPUS-V 5
#Satellite: KANOPUS-V 5
#Configuration: KANOPUS-V_8320
#almurnet v.1.7.20251203
#Start time: 2026-01-02 01:10:19

#Version: 2.2.20231116
#Station: R3.2S_Murmansk
#Location: 33.079688 lon 68.888172 lat
#TLE: 1 43876U 18111A   25365.78559900  .00000034  00000+0  43243-5 0  9991
#TLE: 2 43876  97.3689 269.5581 0001682  83.9573 276.1856 15.23322632389307

#Time	Az	El	Level	Level2	SNR	BER	BlckErr	Temp	State	Recorded	gain1	gain2
2026-01-02 01:10:19.26	28.36	2.07	-60.7	-70.5	3.8	7.45e-01	0	31	0	0	86	10604
2026-01-02 01:10:21.25	28.15	2.18	-60.8	-70.5	3.8	7.47e-01	0	31	104	0	86	10552
2026-01-02 01:10:23.24	27.94	2.30	-60.8	-70.5	3.8	7.46e-01	0	32	104	0	86	10584
2026-01-02 01:10:25.23	27.73	2.41	-60.7	-70.5	3.8	7.45e-01	0	31	104	0	86	10578
2026-01-02 01:10:27.22	27.52	2.53	-60.7	-70.5	3.8	7.45e-01	0	31	104	0	86	10562
2026-01-02 01:10:29.22	27.30	2.65	-60.7	-70.4	3.8	7.47e-01	0	31	104	0	86	10528
2026-01-02 01:10:31.20	27.08	2.77	-60.7	-70.5	3.8	7.45e-01	0	32	104	0	86	10595
2026-01-02 01:10:33.20	26.86	2.88	-60.7	-70.5	3.8	7.45e-01	0	32	104	0	86	10550
2026-01-02 01:10:35.20	26.64	3.00	-60.7	-70.5	3.8	7.45e-01	0	32	104	0	86	10574
2026-01-02 01:10:37.21	26.41	3.12	-60.7	-70.4	3.8	7.47e-01	0	32	104	0	86	10530
2026-01-02 01:10:39.21	26.18	3.24	-60.7	-70.5	3.8	7.46e-01	0	32	104	0	86	10558
2026-01-02 01:10:41.20	25.95	3.36	-60.7	-70.4	3.8	7.45e-01	0	32	104	0	86	10512
2026-01-02 01:10:43.20	25.71	3.48	-60.7	-70.5	3.8	7.47e-01	0	32	104	0	86	10574
2026-01-02 01:10:45.19	25.48	3.60	-60.7	-70.4	3.8	7.47e-01	0	32	104	0	86	10526
2026-01-02 01:10:47.19	25.24	3.72	-60.7	-70.5	3.8	7.48e-01	0	32	104	0	86	10593
2026-01-02 01:10:49.18	25.00	3.84	-60.7	-70.4	3.8	7.45e-01	0	32	104	0	86	10525
2026-01-02 01:10:51.19	24.75	3.96	-60.7	-70.5	3.8	7.45e-01	0	32	104	0	86	10553
2026-01-02 01:10:53.18	24.51	4.08	-60.7	-70.5	3.8	7.46e-01	0	32	104	0	86	10591
2026-01-02 01:10:55.18	24.26	4.20	-60.7	-70.5	3.8	7.46e-01	0	32	104	0	86	10552
2026-01-02 01:10:57.17	24.00	4.33	-60.7	-70.4	3.8	7.45e-01	0	32	104	0	86	10528
2026-01-02 01:10:59.17	23.75	4.45	-60.7	-70.4	3.8	7.46e-01	0	32	104	0	86	10520
2026-01-02 01:11:01.18	23.49	4.57	-60.7	-70.4	3.8	7.45e-01	0	32	104	0	86	10523
2026-01-02 01:11:03.18	23.23	4.69	-60.7	-70.5	3.8	7.45e-01	0	32	104	0	86	10540
2026-01-02 01:11:05.19	22.96	4.82	-60.7	-70.5	3.8	7.44e-01	0	32	104	0	86	10541
2026-01-02 01:11:07.19	22.69	4.94	-60.7	-70.4	3.8	7.45e-01	0	32	104	0	86	10517
2026-01-02 01:11:09.20	22.42	5.07	-60.7	-70.4	3.8	7.47e-01	0	32	104	0	86	10520
2026-01-02 01:11:11.20	22.15	5.19	-60.8	-70.5	3.8	7.46e-01	0	33	104	0	86	10616
2026-01-02 01:11:13.20	21.87	5.31	-60.8	-70.6	3.8	7.45e-01	0	33	104	0	86	10656
2026-01-02 01:11:15.19	21.60	5.44	-60.8	-70.5	3.8	7.47e-01	0	32	104	0	86	10623
2026-01-02 01:11:17.19	21.31	5.56	-60.9	-70.6	3.8	7.45e-01	0	32	104	0	86	10764
2026-01-02 01:11:19.18	21.03	5.69	-60.8	-70.5	3.8	7.45e-01	0	33	104	0	86	10632
2026-01-02 01:11:21.18	20.74	5.81	-60.9	-70.6	3.8	7.47e-01	0	33	104	0	86	10719
2026-01-02 01:11:23.16	20.45	5.94	-60.8	-70.5	3.8	7.45e-01	0	33	104	0	86	10617
2026-01-02 01:11:25.15	20.16	6.06	-60.9	-70.6	3.8	7.45e-01	0	33	104	0	86	10717
2026-01-02 01:11:27.14	19.86	6.19	-60.8	-70.6	3.8	7.44e-01	0	33	104	0	86	10686
2026-01-02 01:11:29.14	19.56	6.31	-60.9	-70.6	3.8	7.46e-01	0	33	104	0	86	10777
2026-01-02 01:11:31.13	19.26	6.44	-60.8	-70.6	3.8	7.47e-01	0	33	104	0	86	10672
2026-01-02 01:11:33.14	18.95	6.57	-60.9	-70.7	3.8	7.44e-01	0	33	104	0	86	10820
2026-01-02 01:11:35.13	18.63	6.69	-60.9	-70.6	3.8	7.46e-01	0	33	104	0	86	10733
2026-01-02 01:11:37.12	18.32	6.82	-61.0	-70.7	3.8	7.46e-01	0	33	104	0	86	10836
2026-01-02 01:11:39.12	18.00	6.94	-60.9	-70.6	3.8	7.46e-01	0	33	104	0	86	10736
2026-01-02 01:11:41.12	17.68	7.07	-61.0	-70.7	3.8	7.45e-01	0	33	104	0	86	10893
2026-01-02 01:11:43.12	17.35	7.20	-60.9	-70.7	3.8	7.46e-01	0	33	104	0	86	10800
2026-01-02 01:11:45.11	17.02	7.33	-61.0	-70.7	3.8	7.47e-01	0	33	104	0	86	10856
2026-01-02 01:11:47.12	16.69	7.45	-60.9	-70.7	3.8	7.46e-01	0	33	104	0	86	10804
2026-01-02 01:11:49.11	16.35	7.58	-61.0	-70.7	3.8	7.46e-01	0	33	104	0	86	10900
2026-01-02 01:11:51.11	16.01	7.71	-61.0	-70.7	3.8	7.46e-01	0	33	104	0	86	10816
2026-01-02 01:11:53.11	15.67	7.84	-61.0	-70.7	3.8	7.46e-01	0	33	104	0	86	10895
2026-01-02 01:11:55.11	15.32	7.96	-61.0	-70.7	3.8	7.47e-01	0	33	104	0	86	10862
2026-01-02 01:11:57.11	14.96	8.09	-61.1	-70.8	3.8	7.44e-01	0	33	104	0	86	10912
2026-01-02 01:11:59.12	14.60	8.22	-61.0	-70.7	3.8	7.45e-01	0	33	104	0	86	10861
2026-01-02 01:12:01.12	14.24	8.35	-61.1	-70.8	3.8	7.46e-01	0	33	104	0	86	10949
2026-01-02 01:12:03.12	13.88	8.47	-61.0	-70.7	3.9	7.46e-01	0	33	104	0	86	10891
2026-01-02 01:12:05.12	13.51	8.60	-61.1	-70.8	3.8	7.44e-01	0	33	104	0	86	10981
2026-01-02 01:12:07.12	13.14	8.73	-61.0	-70.8	3.8	7.45e-01	0	33	104	0	86	10940
2026-01-02 01:12:09.11	12.76	8.86	-61.1	-70.9	3.8	7.47e-01	0	33	104	0	86	11071
2026-01-02 01:12:11.12	12.38	8.98	-61.1	-70.8	3.8	7.44e-01	0	33	104	0	86	11003
2026-01-02 01:12:13.12	11.99	9.11	-61.2	-70.9	3.8	7.46e-01	0	33	104	0	86	11043
2026-01-02 01:12:15.12	11.60	9.24	-61.1	-70.8	3.8	7.47e-01	0	33	104	0	86	10933
2026-01-02 01:12:17.11	11.21	9.36	-61.2	-70.9	3.8	7.45e-01	0	33	104	0	86	11113
2026-01-02 01:12:19.10	10.81	9.49	-61.1	-70.8	3.8	7.45e-01	0	33	104	0	86	10959
2026-01-02 01:12:21.10	10.41	9.62	-61.2	-70.9	3.8	7.45e-01	0	33	104	0	86	11125
2026-01-02 01:12:23.10	10.00	9.74	-61.1	-70.9	3.8	7.45e-01	0	33	104	0	86	11049
2026-01-02 01:12:25.09	9.59	9.87	-61.2	-70.9	3.8	7.46e-01	0	33	104	0	86	11141
2026-01-02 01:12:27.09	9.18	9.99	-61.2	-70.9	3.8	7.45e-01	0	33	104	0	86	11086
2026-01-02 01:12:29.07	8.76	10.11	-61.2	-70.9	3.8	7.46e-01	0	33	104	0	86	11138
2026-01-02 01:12:31.05	8.34	10.24	-61.2	-70.9	3.8	7.46e-01	0	33	104	0	86	11120
2026-01-02 01:12:33.05	7.91	10.36	-61.3	-71.0	3.8	7.45e-01	0	33	104	0	86	11189
2026-01-02 01:12:35.05	7.47	10.48	-61.2	-70.9	3.8	7.47e-01	0	33	104	0	86	11140
2026-01-02 01:12:37.05	7.04	10.61	-61.3	-71.0	3.8	7.47e-01	0	33	104	0	86	11218
2026-01-02 01:12:39.04	6.59	10.73	-61.2	-70.9	3.8	7.46e-01	0	33	104	0	86	11155
2026-01-02 01:12:41.03	6.15	10.85	-61.3	-71.0	3.8	7.45e-01	0	33	104	0	86	11226
2026-01-02 01:12:43.04	5.69	10.97	-61.2	-71.0	3.8	7.47e-01	0	33	104	0	86	11186
2026-01-02 01:12:45.04	5.24	11.09	-61.3	-71.0	3.8	7.46e-01	0	33	104	0	86	11286
2026-01-02 01:12:47.03	4.78	11.21	-61.3	-70.9	3.8	7.44e-01	0	33	104	0	86	11149
2026-01-02 01:12:49.03	4.31	11.33	-61.3	-71.0	3.8	7.46e-01	0	33	104	0	86	11241
2026-01-02 01:12:51.02	3.84	11.45	-61.3	-71.0	3.8	7.48e-01	0	33	104	0	86	11241
2026-01-02 01:12:53.01	3.37	11.56	-61.3	-71.1	3.8	7.47e-01	0	33	104	0	86	11295
2026-01-02 01:12:55.01	2.89	11.68	-61.3	-71.0	3.8	7.46e-01	0	33	104	0	86	11247
2026-01-02 01:12:57.00	2.41	11.79	-61.3	-71.0	3.8	7.47e-01	0	33	104	0	86	11281
2026-01-02 01:12:58.99	1.92	11.91	-61.3	-71.0	3.8	7.46e-01	0	33	104	0	86	11241
2026-01-02 01:13:00.98	1.43	12.02	-61.3	-71.0	3.8	7.47e-01	0	33	104	0	86	11283
2026-01-02 01:13:02.98	0.93	12.13	-61.3	-71.0	3.8	7.45e-01	0	33	104	0	86	11233
2026-01-02 01:13:04.99	0.42	12.24	-61.4	-71.1	3.8	7.47e-01	0	33	104	0	86	11382
2026-01-02 01:13:06.98	359.91	12.35	-61.3	-71.1	3.8	7.45e-01	0	33	104	0	86	11293
2026-01-02 01:13:08.98	359.40	12.46	-61.4	-71.1	3.8	7.45e-01	0	33	104	0	86	11359
2026-01-02 01:13:10.98	358.88	12.56	-61.4	-71.1	3.8	7.45e-01	0	33	104	0	86	11330
2026-01-02 01:13:12.98	358.36	12.67	-61.4	-71.1	3.8	7.44e-01	0	33	104	0	86	11382
2026-01-02 01:13:14.97	357.84	12.77	-61.4	-71.1	3.8	7.46e-01	0	33	104	0	86	11365
2026-01-02 01:13:16.96	357.31	12.88	-61.4	-71.1	3.8	7.46e-01	0	33	104	0	86	11409
2026-01-02 01:13:18.96	356.77	12.98	-61.4	-71.1	3.8	7.48e-01	0	33	104	0	86	11308
2026-01-02 01:13:20.97	356.23	13.08	-61.4	-71.1	3.8	7.47e-01	0	33	104	0	86	11415
2026-01-02 01:13:22.96	355.69	13.17	-61.4	-71.1	3.8	7.44e-01	0	33	104	0	86	11379
2026-01-02 01:13:24.95	355.14	13.27	-61.5	-71.2	3.8	7.45e-01	0	33	104	0	86	11475
2026-01-02 01:13:26.93	354.59	13.36	-61.4	-71.1	3.8	7.45e-01	0	33	104	0	86	11401
2026-01-02 01:13:28.92	354.04	13.46	-61.5	-71.2	3.8	7.44e-01	0	33	104	0	86	11467
2026-01-02 01:13:30.90	353.48	13.55	-61.4	-71.1	3.8	7.46e-01	0	33	104	0	86	11394
2026-01-02 01:13:32.91	352.91	13.63	-61.5	-71.2	3.8	7.45e-01	0	33	104	0	86	11481
2026-01-02 01:13:34.89	352.35	13.72	-61.4	-71.2	3.8	7.43e-01	0	33	104	0	86	11419
2026-01-02 01:13:36.89	351.78	13.81	-61.5	-71.2	3.8	7.46e-01	0	33	104	0	86	11490
2026-01-02 01:13:38.88	351.20	13.89	-61.5	-71.2	3.8	7.45e-01	0	33	104	0	86	11449
2026-01-02 01:13:40.88	350.62	13.97	-61.5	-71.2	3.8	7.46e-01	0	33	104	0	86	11538
2026-01-02 01:13:42.87	350.04	14.05	-61.5	-71.2	3.8	7.45e-01	0	33	104	0	86	11547
2026-01-02 01:13:44.87	349.45	14.12	-61.5	-71.3	3.8	7.45e-01	0	33	104	0	86	11568
2026-01-02 01:13:46.87	348.85	14.20	-61.5	-71.2	3.8	7.46e-01	0	33	104	0	86	11536
2026-01-02 01:13:48.87	348.26	14.27	-61.7	-71.4	3.8	7.44e-01	0	33	104	0	86	11799
2026-01-02 01:13:50.87	347.66	14.34	-61.6	-71.3	3.8	7.46e-01	0	33	104	0	86	11629
2026-01-02 01:13:52.86	347.06	14.40	-61.7	-71.4	3.8	7.45e-01	0	33	104	0	86	11720
2026-01-02 01:13:54.85	346.45	14.47	-61.6	-71.3	3.8	7.45e-01	0	33	104	0	86	11619
2026-01-02 01:13:56.85	345.84	14.53	-61.6	-71.4	3.8	7.46e-01	0	33	104	0	86	11719
2026-01-02 01:13:58.85	345.23	14.59	-61.6	-71.3	3.8	7.45e-01	0	33	104	0	86	11627
2026-01-02 01:14:00.84	344.62	14.64	-61.6	-71.4	3.8	7.45e-01	0	33	104	0	86	11723
2026-01-02 01:14:02.84	344.00	14.70	-61.6	-71.3	3.8	7.44e-01	0	33	104	0	86	11653
2026-01-02 01:14:04.83	343.38	14.75	-61.6	-71.4	3.8	7.45e-01	0	33	104	0	86	11697
2026-01-02 01:14:06.84	342.76	14.79	-61.6	-71.3	3.8	7.47e-01	0	34	104	0	86	11652
2026-01-02 01:14:08.84	342.13	14.84	-61.6	-71.4	3.8	7.45e-01	0	33	104	0	86	11740
2026-01-02 01:14:10.83	341.51	14.88	-61.6	-71.3	3.8	7.44e-01	0	33	104	0	86	11614
2026-01-02 01:14:12.84	340.87	14.92	-61.7	-71.4	3.8	7.46e-01	0	33	104	0	86	11724
2026-01-02 01:14:14.84	340.24	14.96	-61.6	-71.3	3.8	7.44e-01	0	33	104	0	86	11635
2026-01-02 01:14:16.84	339.61	14.99	-61.6	-71.4	3.8	7.45e-01	0	33	104	0	86	11712
2026-01-02 01:14:18.83	338.98	15.02	-61.6	-71.3	3.8	7.46e-01	0	33	104	0	86	11606
2026-01-02 01:14:20.83	338.34	15.05	-61.7	-71.4	3.8	7.47e-01	0	33	104	0	86	11713
2026-01-02 01:14:22.83	337.70	15.07	-61.6	-71.3	3.8	7.46e-01	0	33	104	0	86	11651
2026-01-02 01:14:24.83	337.06	15.10	-61.7	-71.4	3.8	7.46e-01	0	33	104	0	86	11763
2026-01-02 01:14:26.83	336.42	15.11	-61.6	-71.3	3.8	7.46e-01	0	33	104	0	86	11637
2026-01-02 01:14:28.82	335.79	15.13	-61.7	-71.4	3.8	7.46e-01	0	33	104	0	86	11737
2026-01-02 01:14:30.82	335.14	15.14	-61.6	-71.4	3.8	7.44e-01	0	33	104	0	86	11714
2026-01-02 01:14:32.82	334.50	15.15	-61.7	-71.4	3.8	7.46e-01	0	33	104	0	86	11709
2026-01-02 01:14:34.81	333.86	15.16	-61.6	-71.4	3.8	7.45e-01	0	33	104	0	86	11702
2026-01-02 01:14:36.81	333.22	15.16	-61.7	-71.4	3.8	7.45e-01	0	33	104	0	86	11738
2026-01-02 01:14:38.81	332.58	15.16	-61.6	-71.4	3.8	7.46e-01	0	33	104	0	86	11709
2026-01-02 01:14:40.81	331.93	15.15	-61.7	-71.4	3.8	7.46e-01	0	33	104	0	86	11757
2026-01-02 01:14:42.81	331.29	15.15	-61.6	-71.4	3.8	7.45e-01	0	33	104	0	86	11723
2026-01-02 01:14:44.82	330.64	15.14	-61.7	-71.4	3.8	7.47e-01	0	33	104	0	86	11781
2026-01-02 01:14:46.82	330.00	15.12	-61.7	-71.4	3.8	7.46e-01	0	33	104	0	86	11724
2026-01-02 01:14:48.83	329.36	15.11	-61.7	-71.4	3.8	7.46e-01	0	34	104	0	86	11781
2026-01-02 01:14:50.83	328.72	15.09	-61.7	-71.4	3.8	7.45e-01	0	33	104	0	86	11718
2026-01-02 01:14:52.83	328.08	15.07	-61.7	-71.4	3.8	7.45e-01	0	33	104	0	86	11730
2026-01-02 01:14:54.84	327.44	15.04	-61.7	-71.4	3.8	7.46e-01	0	33	104	0	86	11708
2026-01-02 01:14:56.84	326.80	15.01	-61.7	-71.4	3.8	7.46e-01	0	33	104	0	86	11793
2026-01-02 01:14:58.82	326.17	14.98	-61.7	-71.4	3.8	7.44e-01	0	33	104	0	86	11734
2026-01-02 01:15:00.81	325.54	14.95	-61.7	-71.4	3.8	7.46e-01	0	33	104	0	86	11795
2026-01-02 01:15:02.80	324.91	14.91	-61.7	-71.4	3.8	7.47e-01	0	33	104	0	86	11718
2026-01-02 01:15:04.80	324.28	14.87	-61.7	-71.4	3.8	7.46e-01	0	33	104	0	86	11773
2026-01-02 01:15:06.80	323.66	14.83	-61.6	-71.4	3.8	7.47e-01	0	33	104	0	86	11707
2026-01-02 01:15:08.81	323.03	14.78	-61.7	-71.4	3.8	7.45e-01	0	33	104	0	86	11787
2026-01-02 01:15:10.81	322.40	14.73	-61.7	-71.4	3.8	7.45e-01	0	33	104	0	86	11697
2026-01-02 01:15:12.81	321.78	14.68	-61.7	-71.4	3.8	7.45e-01	0	33	104	0	86	11779
2026-01-02 01:15:14.80	321.17	14.63	-61.6	-71.3	3.8	7.46e-01	0	33	104	0	86	11681
2026-01-02 01:15:16.80	320.55	14.57	-61.7	-71.4	3.8	7.45e-01	0	33	104	0	86	11736
2026-01-02 01:15:18.80	319.94	14.51	-61.6	-71.3	3.8	7.46e-01	0	33	104	0	86	11676
2026-01-02 01:15:20.81	319.33	14.45	-61.7	-71.4	3.8	7.45e-01	0	34	104	0	86	11767
2026-01-02 01:15:22.81	318.72	14.38	-61.6	-71.3	3.8	7.45e-01	0	33	104	0	86	11642
2026-01-02 01:15:24.80	318.12	14.32	-61.7	-71.3	3.8	7.47e-01	0	33	104	0	86	11681
2026-01-02 01:15:26.80	317.52	14.25	-61.6	-71.3	3.8	7.45e-01	0	33	104	0	86	11660
2026-01-02 01:15:28.79	316.93	14.17	-61.7	-71.4	3.8	7.45e-01	0	33	104	0	86	11757
2026-01-02 01:15:30.79	316.34	14.10	-61.6	-71.3	3.8	7.45e-01	0	33	104	0	86	11676
2026-01-02 01:15:32.79	315.75	14.02	-61.7	-71.4	3.8	7.48e-01	0	33	104	0	86	11765
2026-01-02 01:15:34.79	315.16	13.94	-61.6	-71.3	3.8	7.44e-01	0	33	104	0	86	11640
2026-01-02 01:15:36.78	314.58	13.86	-61.6	-71.4	3.8	7.46e-01	0	33	104	0	86	11712
2026-01-02 01:15:38.78	314.01	13.78	-61.6	-71.4	3.8	7.43e-01	0	33	104	0	86	11685
2026-01-02 01:15:40.78	313.43	13.69	-61.6	-71.4	3.8	7.45e-01	0	33	104	0	86	11735
2026-01-02 01:15:42.78	312.86	13.61	-61.6	-71.3	3.8	7.44e-01	0	33	104	0	86	11641
2026-01-02 01:15:44.78	312.30	13.52	-61.6	-71.3	3.8	7.45e-01	0	33	104	0	86	11679
2026-01-02 01:15:46.78	311.74	13.42	-61.6	-71.3	3.8	7.44e-01	0	33	104	0	86	11628
2026-01-02 01:15:48.78	311.18	13.33	-61.6	-71.3	3.8	7.46e-01	0	33	104	0	86	11650
2026-01-02 01:15:50.79	310.62	13.24	-61.5	-71.3	3.8	7.47e-01	0	33	104	0	86	11600
2026-01-02 01:15:52.78	310.08	13.14	-61.6	-71.3	3.8	7.45e-01	0	33	104	0	86	11613
2026-01-02 01:15:54.79	309.53	13.04	-61.6	-71.3	3.8	7.47e-01	0	33	104	0	86	11575
2026-01-02 01:15:56.79	308.99	12.94	-61.6	-71.3	3.8	7.46e-01	0	33	104	0	86	11641
2026-01-02 01:15:58.79	308.45	12.84	-61.5	-71.3	3.8	7.45e-01	0	33	104	0	86	11562
2026-01-02 01:16:00.79	307.92	12.74	-61.6	-71.3	3.8	7.46e-01	0	33	104	0	86	11603
2026-01-02 01:16:02.79	307.40	12.63	-61.5	-71.3	3.8	7.47e-01	0	33	104	0	86	11591
2026-01-02 01:16:04.78	306.88	12.52	-61.6	-71.3	3.8	7.45e-01	0	33	104	0	86	11591
2026-01-02 01:16:06.78	306.36	12.42	-61.5	-71.3	3.8	7.45e-01	0	33	104	0	86	11565
2026-01-02 01:16:08.79	305.85	12.31	-61.5	-71.3	3.8	7.46e-01	0	34	104	0	86	11551
2026-01-02 01:16:10.80	305.34	12.20	-61.5	-71.2	3.8	7.46e-01	0	33	104	0	86	11500
2026-01-02 01:16:12.80	304.83	12.09	-61.5	-71.3	3.8	7.47e-01	0	34	104	0	86	11590
2026-01-02 01:16:14.81	304.33	11.97	-61.5	-71.2	3.8	7.46e-01	0	33	104	0	86	11506
2026-01-02 01:16:16.80	303.84	11.86	-61.5	-71.2	3.8	7.46e-01	0	34	104	0	86	11500
2026-01-02 01:16:18.79	303.35	11.75	-61.5	-71.2	3.8	7.47e-01	0	34	104	0	86	11510
2026-01-02 01:16:20.78	302.87	11.63	-61.5	-71.2	3.8	7.46e-01	0	33	104	0	86	11548
2026-01-02 01:16:22.79	302.39	11.51	-61.5	-71.2	3.8	7.44e-01	0	33	104	0	86	11522
2026-01-02 01:16:24.78	301.92	11.40	-61.5	-71.2	3.8	7.46e-01	0	33	104	0	86	11546
2026-01-02 01:16:26.78	301.44	11.28	-61.5	-71.2	3.8	7.46e-01	0	33	104	0	86	11442
2026-01-02 01:16:28.77	300.98	11.16	-61.5	-71.2	3.8	7.45e-01	0	33	104	0	86	11542
2026-01-02 01:16:30.76	300.52	11.04	-61.5	-71.2	3.8	7.45e-01	0	33	104	0	86	11454
2026-01-02 01:16:32.77	300.06	10.92	-61.5	-71.2	3.8	7.45e-01	0	33	104	0	86	11507
2026-01-02 01:16:34.74	299.62	10.80	-61.5	-71.2	3.8	7.45e-01	0	33	104	0	86	11458
2026-01-02 01:16:36.74	299.17	10.68	-61.5	-71.2	3.8	7.45e-01	0	34	104	0	86	11498
2026-01-02 01:16:38.73	298.73	10.56	-61.5	-71.1	3.8	7.44e-01	0	33	104	0	86	11394
2026-01-02 01:16:40.74	298.29	10.43	-61.5	-71.2	3.8	7.46e-01	0	34	104	0	86	11493
2026-01-02 01:16:42.74	297.86	10.31	-61.4	-71.2	3.8	7.46e-01	0	34	104	0	86	11444
2026-01-02 01:16:44.74	297.43	10.18	-61.5	-71.2	3.8	7.45e-01	0	33	104	0	86	11436
2026-01-02 01:16:46.73	297.00	10.06	-61.4	-71.2	3.8	7.45e-01	0	34	104	0	86	11443
2026-01-02 01:16:48.73	296.58	9.94	-61.5	-71.2	3.8	7.47e-01	0	33	104	0	86	11429
2026-01-02 01:16:50.73	296.17	9.81	-61.4	-71.1	3.8	7.45e-01	0	33	104	0	86	11376
2026-01-02 01:16:52.73	295.76	9.68	-61.5	-71.2	3.8	7.45e-01	0	34	104	0	86	11473
2026-01-02 01:16:54.74	295.35	9.56	-61.4	-71.1	3.8	7.46e-01	0	34	104	0	86	11412
2026-01-02 01:16:56.75	294.94	9.43	-61.5	-71.2	3.8	7.47e-01	0	34	104	0	86	11435
2026-01-02 01:16:58.74	294.55	9.30	-61.4	-71.1	3.8	7.45e-01	0	34	104	0	86	11396
2026-01-02 01:17:00.74	294.15	9.18	-61.5	-71.2	3.8	7.44e-01	0	33	104	0	86	11506
2026-01-02 01:17:02.74	293.76	9.05	-61.4	-71.1	3.8	7.45e-01	0	33	104	0	86	11335
2026-01-02 01:17:04.74	293.38	8.92	-61.5	-71.2	3.8	7.46e-01	0	33	104	0	86	11472
2026-01-02 01:17:06.74	293.00	8.80	-61.4	-71.1	3.8	7.47e-01	0	33	104	0	86	11348
2026-01-02 01:17:08.73	292.62	8.67	-61.5	-71.2	3.8	7.46e-01	0	34	104	0	86	11456
2026-01-02 01:17:10.75	292.25	8.54	-61.3	-71.1	3.8	7.46e-01	0	34	104	0	86	11290
2026-01-02 01:17:12.74	291.88	8.41	-61.4	-71.1	3.8	7.46e-01	0	34	104	0	86	11411
2026-01-02 01:17:14.75	291.51	8.28	-61.3	-71.0	3.8	7.44e-01	0	34	104	0	86	11240
2026-01-02 01:17:16.75	291.15	8.16	-61.4	-71.2	3.8	7.46e-01	0	33	104	0	86	11447
2026-01-02 01:17:18.74	290.80	8.03	-61.3	-71.0	3.8	7.46e-01	0	34	104	0	86	11159
2026-01-02 01:17:20.75	290.44	7.90	-61.4	-71.1	3.8	7.45e-01	0	33	104	0	86	11319
2026-01-02 01:17:22.75	290.09	7.77	-61.2	-70.9	3.8	7.44e-01	0	33	104	0	86	11152
2026-01-02 01:17:24.74	289.75	7.64	-61.3	-71.1	3.8	7.45e-01	0	34	104	0	86	11330
2026-01-02 01:17:26.74	289.41	7.52	-61.2	-70.9	3.8	7.46e-01	0	33	104	0	86	11136
2026-01-02 01:17:28.74	289.07	7.39	-61.3	-71.0	3.8	7.44e-01	0	33	104	0	86	11268
2026-01-02 01:17:30.74	288.74	7.26	-61.2	-70.9	3.8	7.44e-01	0	34	104	0	86	11106
2026-01-02 01:17:32.73	288.41	7.13	-61.3	-71.0	3.8	7.46e-01	0	34	104	0	86	11178
2026-01-02 01:17:34.73	288.08	7.01	-61.1	-70.9	3.8	7.46e-01	0	33	104	0	86	11058
2026-01-02 01:17:36.72	287.76	6.88	-61.2	-70.9	3.8	7.46e-01	0	34	104	0	86	11151
2026-01-02 01:17:38.72	287.44	6.75	-61.1	-70.9	3.8	7.47e-01	0	34	104	0	86	11030
2026-01-02 01:17:40.72	287.13	6.63	-61.2	-71.0	3.8	7.46e-01	0	34	104	0	86	11176
2026-01-02 01:17:42.72	286.82	6.50	-61.1	-70.8	3.8	7.45e-01	0	33	104	0	86	10971
2026-01-02 01:17:44.71	286.51	6.37	-61.2	-70.9	3.8	7.45e-01	0	33	104	0	86	11057
2026-01-02 01:17:46.71	286.21	6.25	-61.0	-70.7	3.8	7.46e-01	0	34	104	0	86	10891
2026-01-02 01:17:48.71	285.90	6.12	-61.1	-70.8	3.8	7.46e-01	0	34	104	0	86	10979
2026-01-02 01:17:50.72	285.60	5.99	-61.0	-70.7	3.8	7.47e-01	0	34	104	0	86	10792
2026-01-02 01:17:52.72	285.31	5.87	-61.1	-70.8	3.8	7.46e-01	0	33	104	0	86	10930
2026-01-02 01:17:54.73	285.02	5.74	-60.9	-70.7	3.8	7.48e-01	0	34	104	0	86	10794
2026-01-02 01:17:56.72	284.73	5.62	-61.0	-70.7	3.8	7.46e-01	0	34	104	0	86	10857
2026-01-02 01:17:58.72	284.44	5.49	-60.9	-70.6	3.8	7.46e-01	0	33	104	0	86	10711
2026-01-02 01:18:00.71	284.16	5.37	-60.9	-70.6	3.8	7.46e-01	0	34	104	0	86	10764
2026-01-02 01:18:02.72	283.88	5.24	-60.8	-70.5	3.8	7.46e-01	0	34	104	0	86	10652
2026-01-02 01:18:04.73	283.61	5.12	-60.9	-70.6	3.8	7.46e-01	0	33	104	0	86	10736
2026-01-02 01:18:06.73	283.33	4.99	-60.7	-70.4	3.8	7.46e-01	0	34	104	0	85	11137
2026-01-02 01:18:08.74	283.06	4.87	-61.5	-71.2	3.8	7.44e-01	0	33	104	0	86	11466
2026-01-02 01:18:10.73	282.80	4.74	-61.9	-71.6	3.8	7.46e-01	0	33	104	0	86	12019
2026-01-02 01:18:12.73	282.53	4.62	-62.2	-71.9	3.8	7.46e-01	0	34	104	0	87	11710
2026-01-02 01:18:14.72	282.27	4.50	-62.4	-72.1	3.8	7.45e-01	0	33	104	0	87	12006
2026-01-02 01:18:16.71	282.01	4.38	-62.6	-72.4	3.8	7.45e-01	0	34	104	0	88	11690
2026-01-02 01:18:18.72	281.76	4.25	-62.8	-72.5	3.8	7.46e-01	0	33	104	0	88	11892
2026-01-02 01:18:20.72	281.50	4.13	-63.0	-72.7	3.8	7.45e-01	0	33	104	0	89	11427
2026-01-02 01:18:22.73	281.25	4.01	-63.0	-72.8	3.8	7.46e-01	0	34	104	0	89	11564
2026-01-02 01:18:24.72	281.01	3.89	-63.1	-72.8	3.8	7.45e-01	0	34	104	0	89	11605
2026-01-02 01:18:26.72	280.76	3.77	-63.1	-72.8	3.8	7.45e-01	0	34	104	0	89	11597
2026-01-02 01:18:28.71	280.52	3.65	-63.1	-72.8	3.8	7.47e-01	0	34	104	0	89	11613
2026-01-02 01:18:30.71	280.28	3.53	-63.1	-72.8	3.8	7.45e-01	0	33	104	0	89	11657
2026-01-02 01:18:32.71	280.05	3.41	-63.1	-72.8	3.8	7.47e-01	0	34	104	0	89	11644
2026-01-02 01:18:34.71	279.81	3.29	-63.0	-72.8	3.8	7.46e-01	0	33	104	0	89	11553
2026-01-02 01:18:36.70	279.58	3.17	-62.9	-72.7	3.8	7.47e-01	0	34	104	0	89	11451
2026-01-02 01:18:38.71	279.35	3.05	-62.9	-72.6	3.8	7.45e-01	0	33	104	0	89	11368
2026-01-02 01:18:40.70	279.12	2.93	-62.9	-72.6	3.8	7.45e-01	0	34	104	0	89	11346
2026-01-02 01:18:42.71	278.90	2.81	-62.8	-72.5	3.8	7.45e-01	0	34	104	0	89	11280
2026-01-02 01:18:44.71	278.68	2.69	-62.8	-72.5	3.8	7.46e-01	0	33	104	0	89	11248
2026-01-02 01:18:46.71	278.46	2.57	-62.8	-72.6	3.8	7.44e-01	0	34	104	0	89	11315
2026-01-02 01:18:48.72	278.24	2.46	-62.8	-72.5	3.8	7.46e-01	0	33	104	0	89	11258
2026-01-02 01:18:50.72	278.02	2.34	-62.8	-72.5	3.8	7.48e-01	0	34	104	0	89	11227
2026-01-02 01:18:52.72	277.81	2.22	-62.8	-72.5	3.8	7.44e-01	0	34	104	0	89	11201
2026-01-02 01:18:54.73	277.60	2.10	-62.7	-72.5	3.8	7.47e-01	0	33	104	0	89	11174
2026-01-02 01:18:56.73	277.39	1.99	-62.7	-72.5	3.8	7.44e-01	0	33	104	0	89	11192

#Closed at: 2026-01-02 01:18:58
#Recorded file [0 MB]: D:/lorett/data/31004_260102_041019.dat