passes_logs/2026/01/02/R3.2S_Murmansk/R3.2S_Murmansk__20260102_035006_AQUA_rec.log

#Pass ID: 20260102_035006_AQUA
#Satellite: AQUA
#Configuration: AQUA
#almurnet v.1.7.20251203
#Start time: 2026-01-02 03:50:08

#Version: 2.2.20231116
#Station: R3.2S_Murmansk
#Location: 33.079688 lon 68.888172 lat
#TLE: 1 27424U 02022A   25365.92641127  .00002078  00000+0  42628-3 0  9999
#TLE: 2 27424  98.4058 327.1196 0001962  94.7781 340.6230 14.61783896258835

#Time	Az	El	Level	Level2	SNR	BER	BlckErr	Temp	State	Recorded	gain1	gain2
2026-01-02 03:50:08.22	29.37	2.09	-54.6	-73.9	3.8	7.46e-01	0	31	0	0	77	34442
2026-01-02 03:50:11.22	29.25	2.28	-54.6	-74.0	3.8	7.47e-01	0	31	104	0	77	34602
2026-01-02 03:50:14.20	29.12	2.47	-54.6	-74.0	3.8	7.48e-01	0	32	104	0	77	34550
2026-01-02 03:50:17.20	28.99	2.67	-54.6	-74.0	3.8	7.43e-01	0	32	104	0	77	34584
2026-01-02 03:50:20.19	28.86	2.86	-54.5	-74.0	3.8	7.48e-01	0	32	104	0	77	34599
2026-01-02 03:50:23.19	28.73	3.06	-54.6	-74.4	3.7	7.48e-01	0	32	104	0	77	36297
2026-01-02 03:50:26.20	28.59	3.26	-54.6	-73.9	3.8	7.47e-01	0	32	104	0	76	36506
2026-01-02 03:50:29.20	28.46	3.46	-54.6	-73.9	3.8	7.47e-01	0	32	104	0	77	34366
2026-01-02 03:50:32.19	28.32	3.66	-54.6	-73.9	3.8	7.46e-01	0	32	104	0	77	34430
2026-01-02 03:50:35.21	28.17	3.87	-54.6	-73.9	3.8	7.48e-01	0	32	104	0	77	34353
2026-01-02 03:50:38.21	28.03	4.07	-54.6	-73.9	3.8	7.48e-01	0	32	104	0	77	34365
2026-01-02 03:50:41.22	27.88	4.28	-54.6	-74.0	3.8	7.43e-01	0	32	104	0	77	34515
2026-01-02 03:50:44.23	27.73	4.49	-54.6	-74.0	3.8	7.49e-01	0	32	104	0	77	34535
2026-01-02 03:50:47.23	27.58	4.70	-54.6	-74.0	3.8	7.44e-01	0	32	104	0	77	34555
2026-01-02 03:50:50.22	27.42	4.91	-54.6	-73.9	3.8	7.44e-01	0	32	104	0	77	34401
2026-01-02 03:50:53.22	27.27	5.12	-54.6	-73.9	3.8	7.46e-01	0	32	104	0	77	34425
2026-01-02 03:50:56.21	27.11	5.34	-54.6	-74.0	3.8	7.48e-01	0	32	104	0	77	34490
2026-01-02 03:50:59.22	26.94	5.55	-54.6	-73.9	3.8	7.47e-01	0	32	104	0	77	34475
2026-01-02 03:51:02.22	26.78	5.77	-54.6	-73.9	3.8	7.42e-01	0	32	104	0	77	34475
2026-01-02 03:51:05.22	26.61	5.99	-54.6	-74.0	3.8	7.46e-01	0	32	104	0	77	34559
2026-01-02 03:51:08.19	26.44	6.21	-54.6	-74.0	3.8	7.45e-01	0	32	104	0	77	34513
2026-01-02 03:51:11.18	26.27	6.44	-54.6	-74.0	3.8	7.45e-01	0	32	104	0	77	34536
2026-01-02 03:51:14.17	26.09	6.66	-54.6	-74.0	3.8	7.46e-01	0	32	104	0	77	34522
2026-01-02 03:51:17.17	25.91	6.89	-54.6	-74.0	3.8	7.48e-01	0	32	104	0	77	34543
2026-01-02 03:51:20.15	25.72	7.12	-54.6	-74.0	3.8	7.42e-01	0	32	104	0	77	34569
2026-01-02 03:51:23.16	25.54	7.35	-54.6	-73.9	3.8	7.45e-01	0	32	104	0	77	34469
2026-01-02 03:51:26.14	25.35	7.58	-54.6	-74.0	3.8	7.49e-01	0	32	104	0	77	34487
2026-01-02 03:51:29.14	25.15	7.82	-54.6	-74.0	3.8	7.47e-01	0	33	104	0	77	34546
2026-01-02 03:51:32.13	24.95	8.06	-54.6	-74.0	3.8	7.45e-01	0	32	104	0	77	34539
2026-01-02 03:51:35.14	24.75	8.30	-54.6	-73.9	3.8	7.44e-01	0	32	104	0	77	34472
2026-01-02 03:51:38.14	24.54	8.54	-54.6	-73.9	3.8	7.44e-01	0	32	104	0	77	34466
2026-01-02 03:51:41.14	24.33	8.78	-54.6	-74.0	3.7	7.44e-01	0	32	104	0	77	34743
2026-01-02 03:51:44.13	24.12	9.03	-54.6	-74.0	3.8	7.47e-01	0	32	104	0	77	34512
2026-01-02 03:51:47.13	23.90	9.28	-54.6	-73.9	3.8	7.44e-01	0	32	104	0	77	34463
2026-01-02 03:51:50.13	23.68	9.53	-54.6	-73.9	3.8	7.48e-01	0	32	104	0	77	34479
2026-01-02 03:51:53.13	23.45	9.79	-54.6	-74.0	3.8	7.45e-01	0	32	104	0	77	34500
2026-01-02 03:51:56.13	23.22	10.04	-54.6	-74.0	3.8	7.45e-01	0	32	104	0	77	34596
2026-01-02 03:51:59.12	22.98	10.30	-54.6	-74.0	3.8	7.45e-01	0	33	104	0	77	34612
2026-01-02 03:52:02.12	22.74	10.56	-54.6	-74.0	3.8	7.45e-01	0	32	104	0	77	34587
2026-01-02 03:52:05.11	22.50	10.83	-54.6	-74.0	3.8	7.49e-01	0	32	104	0	77	34602
2026-01-02 03:52:08.12	22.24	11.10	-54.6	-74.0	3.8	7.47e-01	0	32	104	0	77	34680
2026-01-02 03:52:11.11	21.99	11.36	-54.7	-74.0	3.8	7.47e-01	0	32	104	0	77	34670
2026-01-02 03:52:14.10	21.73	11.64	-54.6	-74.0	3.8	7.45e-01	0	32	104	0	77	34665
2026-01-02 03:52:17.11	21.46	11.91	-54.6	-74.0	3.8	7.47e-01	0	32	104	0	77	34627
2026-01-02 03:52:20.09	21.19	12.19	-54.6	-74.0	3.8	7.48e-01	0	33	104	0	77	34619
2026-01-02 03:52:23.09	20.91	12.47	-54.6	-74.0	3.8	7.47e-01	0	33	104	0	77	34606
2026-01-02 03:52:26.08	20.62	12.75	-54.6	-74.0	3.8	7.48e-01	0	32	104	0	77	34616
2026-01-02 03:52:29.08	20.33	13.04	-54.6	-74.0	3.8	7.50e-01	0	32	104	0	77	34613
2026-01-02 03:52:32.08	20.03	13.33	-54.7	-74.0	3.8	7.46e-01	0	32	104	0	77	34642
2026-01-02 03:52:35.09	19.73	13.63	-54.6	-74.0	3.8	7.48e-01	0	32	104	0	77	34616
2026-01-02 03:52:38.09	19.42	13.92	-54.7	-74.0	3.8	7.44e-01	0	32	104	0	77	34658
2026-01-02 03:52:41.09	19.10	14.22	-54.6	-74.0	3.8	7.46e-01	0	32	104	0	77	34583
2026-01-02 03:52:44.09	18.77	14.53	-54.7	-74.0	3.8	7.47e-01	0	33	104	0	77	34561
2026-01-02 03:52:47.09	18.44	14.83	-54.7	-74.0	3.8	7.48e-01	0	32	104	0	77	34659
2026-01-02 03:52:50.08	18.10	15.14	-54.7	-74.0	3.8	7.48e-01	0	33	104	0	77	34737
2026-01-02 03:52:53.08	17.75	15.46	-54.6	-74.0	3.8	7.45e-01	0	33	104	0	77	34638
2026-01-02 03:52:56.08	17.40	15.77	-54.6	-74.0	3.8	7.46e-01	0	33	104	0	77	34624
2026-01-02 03:52:59.08	17.03	16.09	-54.7	-74.0	3.8	7.46e-01	0	33	104	0	77	34744
2026-01-02 03:53:02.08	16.66	16.42	-54.6	-74.0	3.8	7.48e-01	0	33	104	0	77	34685
2026-01-02 03:53:05.08	16.28	16.74	-54.7	-74.0	3.8	7.49e-01	0	33	104	0	77	34673
2026-01-02 03:53:08.08	15.88	17.07	-54.6	-74.0	3.8	7.51e-01	0	33	104	0	77	34555
2026-01-02 03:53:11.08	15.48	17.41	-54.7	-74.0	3.8	7.45e-01	0	33	104	0	77	34676
2026-01-02 03:53:14.07	15.07	17.74	-54.6	-74.0	3.8	7.42e-01	0	33	104	0	77	34709
2026-01-02 03:53:17.05	14.65	18.08	-54.7	-74.0	3.8	7.49e-01	0	33	104	0	77	34736
2026-01-02 03:53:20.02	14.23	18.43	-54.7	-74.0	3.8	7.47e-01	0	33	104	0	77	34607
2026-01-02 03:53:23.02	13.78	18.77	-54.6	-74.0	3.8	7.44e-01	0	32	104	0	77	34622
2026-01-02 03:53:26.01	13.33	19.13	-54.7	-74.0	3.8	7.45e-01	0	33	104	0	77	34680
2026-01-02 03:53:29.00	12.87	19.48	-54.6	-74.0	3.8	7.43e-01	0	33	104	0	77	34668
2026-01-02 03:53:32.00	12.39	19.84	-54.7	-74.0	3.8	7.45e-01	0	33	104	0	77	34750
2026-01-02 03:53:34.98	11.91	20.20	-54.6	-74.0	3.8	7.46e-01	0	33	104	0	77	34664
2026-01-02 03:53:37.99	11.40	20.57	-54.7	-74.0	3.8	7.47e-01	0	33	104	0	77	34752
2026-01-02 03:53:40.99	10.89	20.94	-54.7	-74.0	3.8	7.47e-01	0	33	104	0	77	34687
2026-01-02 03:53:44.00	10.36	21.32	-54.7	-74.0	3.8	7.46e-01	0	33	104	0	77	34703
2026-01-02 03:53:46.99	9.82	21.69	-54.7	-74.0	3.8	7.47e-01	0	33	104	0	77	34712
2026-01-02 03:53:49.99	9.26	22.08	-54.7	-74.0	3.8	7.45e-01	0	33	104	0	77	34654
2026-01-02 03:53:52.98	8.69	22.46	-54.7	-74.0	3.8	7.46e-01	0	33	104	0	77	34712
2026-01-02 03:53:55.97	8.10	22.85	-54.7	-74.0	3.8	7.49e-01	0	33	104	0	77	34708
2026-01-02 03:53:58.98	7.50	23.24	-54.7	-74.0	3.8	7.43e-01	0	33	104	0	77	34708
2026-01-02 03:54:01.98	6.88	23.63	-54.7	-74.0	3.8	7.47e-01	0	32	104	0	77	34738
2026-01-02 03:54:04.98	6.24	24.03	-54.6	-74.0	3.8	7.48e-01	0	32	104	0	77	34718
2026-01-02 03:54:07.98	5.59	24.43	-54.7	-74.0	3.8	7.49e-01	0	33	104	0	77	34702
2026-01-02 03:54:10.95	4.93	24.83	-54.7	-74.0	3.8	7.46e-01	0	33	104	0	77	34700
2026-01-02 03:54:13.95	4.24	25.23	-54.7	-74.0	3.8	7.47e-01	0	33	104	0	77	34787
2026-01-02 03:54:16.95	3.53	25.64	-54.6	-74.1	3.8	7.45e-01	0	33	104	0	77	35030
2026-01-02 03:54:19.93	2.81	26.05	-54.7	-74.0	3.8	7.46e-01	0	33	104	0	77	34698
2026-01-02 03:54:22.92	2.06	26.46	-54.7	-74.0	3.8	7.47e-01	0	32	104	0	77	34660
2026-01-02 03:54:25.91	1.29	26.87	-54.7	-74.0	3.8	7.46e-01	0	33	104	0	77	34730
2026-01-02 03:54:28.90	0.51	27.28	-54.7	-74.0	3.8	7.44e-01	0	33	104	0	77	34692
2026-01-02 03:54:31.89	359.70	27.69	-54.7	-74.0	3.8	7.47e-01	0	33	104	0	77	34812
2026-01-02 03:54:34.89	358.86	28.11	-54.7	-74.0	3.8	7.48e-01	0	33	104	0	77	34816
2026-01-02 03:54:37.89	358.01	28.52	-54.7	-74.0	3.8	7.46e-01	0	32	104	0	77	34811
2026-01-02 03:54:40.90	357.12	28.94	-54.7	-74.0	3.8	7.47e-01	0	32	104	0	77	34730
2026-01-02 03:54:43.91	356.22	29.35	-54.7	-74.0	3.8	7.44e-01	0	33	104	0	77	34676
2026-01-02 03:54:46.92	355.29	29.76	-54.7	-74.0	3.8	7.42e-01	0	33	104	0	77	34714
2026-01-02 03:54:49.91	354.33	30.17	-54.7	-74.0	3.8	7.47e-01	0	33	104	0	77	34668
2026-01-02 03:54:52.92	353.35	30.58	-54.7	-74.0	3.8	7.46e-01	0	33	104	0	77	34692
2026-01-02 03:54:55.91	352.35	30.98	-54.7	-74.0	3.8	7.45e-01	0	33	104	0	77	34644
2026-01-02 03:54:58.90	351.32	31.38	-54.7	-74.0	3.8	7.44e-01	0	32	104	0	77	34671
2026-01-02 03:55:01.91	350.26	31.77	-54.7	-74.0	3.8	7.49e-01	0	33	104	0	77	34671
2026-01-02 03:55:04.91	349.18	32.16	-54.7	-74.0	3.8	7.49e-01	0	33	104	0	77	34754
2026-01-02 03:55:07.91	348.06	32.55	-54.7	-74.0	3.8	7.47e-01	0	33	104	0	77	34669
2026-01-02 03:55:10.90	346.93	32.92	-54.7	-74.0	3.8	7.45e-01	0	33	104	0	77	34725
2026-01-02 03:55:13.90	345.76	33.29	-54.7	-74.0	3.8	7.44e-01	0	33	104	0	77	34762
2026-01-02 03:55:16.88	344.58	33.64	-54.6	-74.0	3.8	7.44e-01	0	33	104	0	77	34633
2026-01-02 03:55:19.87	343.36	33.99	-54.7	-74.0	3.8	7.48e-01	0	33	104	0	77	34712
2026-01-02 03:55:22.86	342.12	34.33	-54.7	-74.0	3.8	7.43e-01	0	33	104	0	77	34669
2026-01-02 03:55:25.86	340.84	34.65	-54.7	-74.0	3.8	7.48e-01	0	33	104	0	77	34676
2026-01-02 03:55:28.86	339.54	34.97	-54.7	-74.0	3.8	7.44e-01	0	32	104	0	77	34683
2026-01-02 03:55:31.86	338.22	35.27	-54.6	-74.0	3.8	7.45e-01	0	33	104	0	77	34718
2026-01-02 03:55:34.84	336.87	35.55	-54.7	-74.1	3.9	7.44e-01	0	33	104	0	77	35077
2026-01-02 03:55:37.85	335.50	35.82	-54.7	-74.0	3.8	7.44e-01	0	32	104	0	77	34716
2026-01-02 03:55:40.85	334.10	36.07	-54.7	-74.0	3.8	7.47e-01	0	33	104	0	77	34726
2026-01-02 03:55:43.85	332.68	36.31	-54.7	-74.0	3.8	7.45e-01	0	33	104	0	77	34649
2026-01-02 03:55:46.87	331.23	36.53	-54.7	-74.0	3.8	7.46e-01	0	33	104	0	77	34696
2026-01-02 03:55:49.87	329.77	36.73	-54.7	-74.0	3.8	7.47e-01	0	33	104	0	77	34694
2026-01-02 03:55:52.87	328.29	36.91	-54.7	-74.0	3.8	7.50e-01	0	33	104	0	77	34737
2026-01-02 03:55:55.88	326.80	37.07	-54.7	-74.0	3.8	7.50e-01	0	33	104	0	77	34673
2026-01-02 03:55:58.88	325.29	37.20	-54.7	-74.0	3.8	7.47e-01	0	33	104	0	77	34745
2026-01-02 03:56:01.87	323.78	37.32	-54.6	-74.0	3.8	7.43e-01	0	33	104	0	77	34714
2026-01-02 03:56:04.86	322.25	37.41	-54.7	-74.0	3.8	7.48e-01	0	33	104	0	77	34705
2026-01-02 03:56:07.87	320.71	37.48	-54.7	-74.0	3.8	7.45e-01	0	33	104	0	77	34719
2026-01-02 03:56:10.87	319.17	37.53	-54.7	-74.0	3.8	7.47e-01	0	33	104	0	77	34760
2026-01-02 03:56:13.87	317.62	37.55	-54.7	-74.0	3.8	7.45e-01	0	33	104	0	77	34684
2026-01-02 03:56:16.85	316.09	37.55	-54.7	-74.0	3.8	7.47e-01	0	33	104	0	77	34725
2026-01-02 03:56:19.86	314.53	37.53	-54.7	-74.0	3.8	7.43e-01	0	33	104	0	77	34751
2026-01-02 03:56:22.85	313.00	37.48	-54.7	-74.0	3.8	7.47e-01	0	33	104	0	77	34644
2026-01-02 03:56:25.83	311.47	37.41	-54.7	-74.0	3.8	7.47e-01	0	33	104	0	77	34690
2026-01-02 03:56:28.81	309.95	37.32	-54.7	-74.0	3.8	7.42e-01	0	33	104	0	77	34720
2026-01-02 03:56:31.79	308.44	37.21	-54.7	-74.0	3.8	7.43e-01	0	33	104	0	77	34734
2026-01-02 03:56:34.80	306.93	37.07	-54.7	-74.0	3.8	7.49e-01	0	33	104	0	77	34755
2026-01-02 03:56:37.81	305.43	36.92	-54.7	-74.0	3.8	7.46e-01	0	32	104	0	77	34753
2026-01-02 03:56:40.82	303.94	36.74	-54.7	-74.0	3.8	7.46e-01	0	33	104	0	77	34742
2026-01-02 03:56:43.81	302.49	36.54	-54.7	-74.0	3.8	7.48e-01	0	33	104	0	77	34857
2026-01-02 03:56:46.81	301.04	36.32	-54.7	-74.0	3.8	7.46e-01	0	33	104	0	77	34755
2026-01-02 03:56:49.79	299.63	36.09	-54.7	-74.0	3.8	7.48e-01	0	33	104	0	77	34802
2026-01-02 03:56:52.79	298.23	35.84	-54.7	-74.0	3.8	7.49e-01	0	33	104	0	77	34763
2026-01-02 03:56:55.79	296.85	35.57	-54.7	-74.0	3.8	7.44e-01	0	33	104	0	77	34686
2026-01-02 03:56:58.78	295.50	35.29	-54.7	-74.0	3.8	7.45e-01	0	33	104	0	77	34683
2026-01-02 03:57:01.77	294.18	34.99	-54.7	-74.0	3.8	7.46e-01	0	33	104	0	77	34769
2026-01-02 03:57:04.76	292.88	34.68	-54.7	-74.0	3.8	7.47e-01	0	33	104	0	77	34746
2026-01-02 03:57:07.76	291.60	34.35	-54.7	-74.0	3.8	7.49e-01	0	33	104	0	77	34786
2026-01-02 03:57:10.76	290.35	34.01	-54.7	-74.0	3.8	7.44e-01	0	33	104	0	77	34715
2026-01-02 03:57:13.76	289.12	33.66	-54.7	-74.0	3.8	7.46e-01	0	33	104	0	77	34771
2026-01-02 03:57:16.75	287.93	33.31	-54.7	-74.0	3.8	7.45e-01	0	33	104	0	77	34749
2026-01-02 03:57:19.74	286.76	32.94	-54.7	-74.0	3.8	7.44e-01	0	33	104	0	77	34713
2026-01-02 03:57:22.75	285.61	32.56	-54.7	-74.0	3.8	7.47e-01	0	33	104	0	77	34714
2026-01-02 03:57:25.73	284.51	32.18	-54.7	-74.0	3.8	7.42e-01	0	33	104	0	77	34673
2026-01-02 03:57:28.72	283.42	31.79	-54.7	-74.0	3.8	7.47e-01	0	32	104	0	77	34735
2026-01-02 03:57:31.72	282.36	31.40	-54.7	-74.0	3.8	7.44e-01	0	33	104	0	77	34720
2026-01-02 03:57:34.71	281.33	31.00	-54.7	-74.0	3.8	7.45e-01	0	33	104	0	77	34639
2026-01-02 03:57:37.69	280.32	30.60	-54.7	-74.0	3.9	7.45e-01	0	33	104	0	77	34700
2026-01-02 03:57:40.70	279.34	30.19	-54.7	-74.0	3.8	7.46e-01	0	32	104	0	77	34718
2026-01-02 03:57:43.71	278.37	29.78	-54.7	-74.0	3.8	7.49e-01	0	33	104	0	77	34771
2026-01-02 03:57:46.70	277.44	29.37	-54.7	-74.0	3.8	7.47e-01	0	33	104	0	77	34727
2026-01-02 03:57:49.71	276.53	28.95	-54.7	-74.0	3.8	7.45e-01	0	33	104	0	77	34750
2026-01-02 03:57:52.71	275.65	28.54	-54.7	-74.0	3.8	7.46e-01	0	33	104	0	77	34752
2026-01-02 03:57:55.72	274.78	28.12	-54.7	-74.0	3.8	7.48e-01	0	32	104	0	77	34720
2026-01-02 03:57:58.74	273.94	27.70	-54.7	-74.0	3.8	7.48e-01	0	33	104	0	77	34756
2026-01-02 03:58:01.74	273.13	27.29	-54.7	-74.0	3.8	7.47e-01	0	33	104	0	77	34665
2026-01-02 03:58:04.74	272.33	26.87	-54.7	-74.0	3.8	7.48e-01	0	32	104	0	77	34807
2026-01-02 03:58:07.75	271.56	26.46	-54.7	-74.0	3.8	7.43e-01	0	33	104	0	77	34713
2026-01-02 03:58:10.75	270.81	26.05	-54.7	-74.0	3.8	7.46e-01	0	33	104	0	77	34718
2026-01-02 03:58:13.74	270.08	25.64	-54.7	-74.0	3.8	7.46e-01	0	33	104	0	77	34764
2026-01-02 03:58:16.72	269.37	25.23	-54.7	-74.0	3.8	7.45e-01	0	33	104	0	77	34697
2026-01-02 03:58:19.72	268.68	24.82	-54.7	-74.0	3.8	7.47e-01	0	33	104	0	77	34778
2026-01-02 03:58:22.71	268.01	24.42	-54.7	-74.0	3.8	7.47e-01	0	33	104	0	77	34720
2026-01-02 03:58:25.69	267.36	24.02	-54.7	-74.0	3.8	7.46e-01	0	33	104	0	77	34777
2026-01-02 03:58:28.69	266.72	23.62	-54.7	-74.0	3.8	7.43e-01	0	33	104	0	77	34752
2026-01-02 03:58:31.69	266.09	23.23	-54.7	-74.0	3.8	7.45e-01	0	33	104	0	77	34723
2026-01-02 03:58:34.68	265.49	22.84	-54.7	-74.0	3.8	7.48e-01	0	33	104	0	77	34739
2026-01-02 03:58:37.67	264.90	22.45	-54.7	-74.0	3.8	7.45e-01	0	33	104	0	77	34755
2026-01-02 03:58:40.66	264.33	22.06	-54.7	-74.0	3.8	7.47e-01	0	33	104	0	77	34772
2026-01-02 03:58:43.66	263.77	21.68	-54.7	-74.0	3.8	7.47e-01	0	33	104	0	77	34745
2026-01-02 03:58:46.67	263.22	21.30	-54.7	-74.0	3.8	7.48e-01	0	33	104	0	77	34775
2026-01-02 03:58:49.66	262.69	20.93	-54.7	-74.0	3.8	7.42e-01	0	33	104	0	77	34728
2026-01-02 03:58:52.66	262.18	20.55	-54.7	-74.0	3.8	7.45e-01	0	33	104	0	77	34758
2026-01-02 03:58:55.64	261.68	20.19	-54.7	-74.0	3.8	7.46e-01	0	33	104	0	77	34658
2026-01-02 03:58:58.65	261.18	19.82	-54.7	-74.0	3.8	7.47e-01	0	33	104	0	77	34786
2026-01-02 03:59:01.63	260.71	19.46	-54.7	-74.0	3.8	7.44e-01	0	33	104	0	77	34702
2026-01-02 03:59:04.64	260.24	19.10	-54.7	-74.0	3.8	7.47e-01	0	33	104	0	77	34724
2026-01-02 03:59:07.64	259.78	18.75	-54.7	-74.0	3.8	7.48e-01	0	33	104	0	77	34718
2026-01-02 03:59:10.65	259.34	18.40	-54.7	-74.0	3.8	7.44e-01	0	33	104	0	77	34806
2026-01-02 03:59:13.65	258.90	18.05	-54.7	-74.0	3.8	7.46e-01	0	33	104	0	77	34719
2026-01-02 03:59:16.65	258.48	17.71	-54.7	-74.0	3.8	7.46e-01	0	33	104	0	77	34765
2026-01-02 03:59:19.65	258.06	17.37	-54.7	-74.0	3.8	7.44e-01	0	33	104	0	77	34711
2026-01-02 03:59:22.66	257.66	17.04	-54.7	-74.0	3.8	7.49e-01	0	33	104	0	77	34726
2026-01-02 03:59:25.65	257.27	16.70	-54.7	-74.0	3.8	7.49e-01	0	33	104	0	77	34721
2026-01-02 03:59:28.64	256.88	16.38	-54.3	-74.0	3.8	7.48e-01	0	33	104	0	77	34752
2026-01-02 03:59:31.64	256.51	16.05	-54.7	-74.0	3.8	7.45e-01	0	33	104	0	77	34700
2026-01-02 03:59:34.63	256.14	15.73	-54.7	-74.0	3.8	7.46e-01	0	33	104	0	77	34758
2026-01-02 03:59:37.64	255.78	15.41	-54.7	-74.0	3.8	7.48e-01	0	33	104	0	77	34757
2026-01-02 03:59:40.64	255.43	15.10	-54.7	-74.0	3.8	7.46e-01	0	33	104	0	77	34748
2026-01-02 03:59:43.63	255.09	14.79	-54.7	-74.0	3.8	7.47e-01	0	33	104	0	77	34796
2026-01-02 03:59:46.62	254.76	14.48	-54.7	-74.0	3.8	7.42e-01	0	33	104	0	77	34633
2026-01-02 03:59:49.62	254.43	14.18	-54.7	-74.0	3.8	7.46e-01	0	33	104	0	77	34771
2026-01-02 03:59:52.63	254.11	13.88	-54.7	-74.0	3.8	7.44e-01	0	33	104	0	77	34711
2026-01-02 03:59:55.62	253.80	13.58	-54.7	-74.0	3.9	7.45e-01	0	33	104	0	77	34829
2026-01-02 03:59:58.62	253.49	13.29	-54.7	-74.0	3.8	7.46e-01	0	33	104	0	77	34818
2026-01-02 04:00:01.62	253.19	13.00	-54.7	-74.0	3.8	7.46e-01	0	33	104	0	77	34720
2026-01-02 04:00:04.61	252.90	12.71	-54.7	-74.0	3.8	7.43e-01	0	33	104	0	77	34769
2026-01-02 04:00:07.62	252.61	12.42	-54.7	-74.0	3.8	7.49e-01	0	33	104	0	77	34751
2026-01-02 04:00:10.61	252.33	12.14	-54.7	-74.0	3.8	7.43e-01	0	33	104	0	77	34713
2026-01-02 04:00:13.61	252.06	11.86	-54.7	-74.0	3.8	7.47e-01	0	33	104	0	77	34739
2026-01-02 04:00:16.62	251.79	11.58	-54.7	-74.0	3.8	7.49e-01	0	33	104	0	77	34721
2026-01-02 04:00:19.61	251.52	11.31	-54.7	-74.0	3.8	7.44e-01	0	33	104	0	77	34806
2026-01-02 04:00:22.61	251.27	11.04	-54.7	-74.0	3.8	7.46e-01	0	33	104	0	77	34795
2026-01-02 04:00:25.60	251.01	10.77	-54.7	-74.0	3.8	7.48e-01	0	33	104	0	77	34736
2026-01-02 04:00:28.59	250.77	10.51	-54.7	-74.0	3.8	7.46e-01	0	33	104	0	77	34777
2026-01-02 04:00:31.59	250.52	10.25	-54.7	-74.0	3.8	7.46e-01	0	33	104	0	77	34753
2026-01-02 04:00:34.57	250.29	9.99	-54.7	-74.0	3.8	7.46e-01	0	33	104	0	77	34767
2026-01-02 04:00:37.58	250.05	9.73	-54.7	-74.0	3.8	7.43e-01	0	33	104	0	77	34616
2026-01-02 04:00:40.57	249.82	9.48	-54.7	-74.0	3.8	7.46e-01	0	32	104	0	77	34712
2026-01-02 04:00:43.57	249.60	9.22	-54.7	-74.0	3.8	7.49e-01	0	33	104	0	77	34708
2026-01-02 04:00:46.57	249.38	8.97	-54.1	-74.0	3.8	7.46e-01	0	33	104	0	77	34754
2026-01-02 04:00:49.56	249.16	8.73	-54.7	-74.0	3.8	7.45e-01	0	33	104	0	77	34630
2026-01-02 04:00:52.55	248.95	8.48	-54.7	-74.0	3.8	7.48e-01	0	32	104	0	77	34818
2026-01-02 04:00:55.55	248.74	8.24	-54.7	-74.0	3.8	7.47e-01	0	33	104	0	77	34790
2026-01-02 04:00:58.54	248.54	8.00	-54.7	-74.0	3.8	7.44e-01	0	33	104	0	77	34758
2026-01-02 04:01:01.54	248.34	7.76	-54.7	-74.0	3.8	7.48e-01	0	33	104	0	77	34783
2026-01-02 04:01:04.55	248.14	7.52	-54.7	-74.0	3.8	7.42e-01	0	33	104	0	77	34774
2026-01-02 04:01:07.56	247.95	7.29	-54.7	-74.0	3.8	7.44e-01	0	33	104	0	77	34737
2026-01-02 04:01:10.56	247.76	7.05	-54.7	-74.0	3.8	7.46e-01	0	33	104	0	77	34747
2026-01-02 04:01:13.57	247.57	6.82	-54.7	-74.0	3.8	7.46e-01	0	33	104	0	77	34767
2026-01-02 04:01:16.58	247.39	6.59	-54.7	-74.0	3.8	7.45e-01	0	33	104	0	77	34693
2026-01-02 04:01:19.58	247.21	6.37	-54.7	-74.0	3.8	7.46e-01	0	33	104	0	77	34782
2026-01-02 04:01:22.58	247.03	6.14	-54.7	-74.0	3.8	7.47e-01	0	33	104	0	77	34790
2026-01-02 04:01:25.58	246.86	5.92	-54.7	-74.0	3.8	7.44e-01	0	33	104	0	77	34781
2026-01-02 04:01:28.56	246.69	5.70	-54.7	-74.0	3.8	7.49e-01	0	33	104	0	77	34708
2026-01-02 04:01:31.55	246.52	5.48	-54.7	-74.0	3.8	7.46e-01	0	33	104	0	77	34749
2026-01-02 04:01:34.54	246.36	5.27	-54.7	-74.0	3.8	7.47e-01	0	33	104	0	77	34781
2026-01-02 04:01:37.54	246.20	5.05	-54.7	-74.0	3.8	7.42e-01	0	33	104	0	77	34725
2026-01-02 04:01:40.53	246.04	4.84	-54.7	-74.0	3.8	7.48e-01	0	33	104	0	77	34689
2026-01-02 04:01:43.53	245.88	4.63	-54.7	-74.0	3.8	7.45e-01	0	33	104	0	77	34734
2026-01-02 04:01:46.53	245.73	4.42	-54.7	-74.0	3.8	7.46e-01	0	33	104	0	77	34713
2026-01-02 04:01:49.53	245.58	4.21	-54.7	-74.0	3.8	7.47e-01	0	33	104	0	77	34725
2026-01-02 04:01:52.54	245.43	4.00	-54.7	-74.0	3.8	7.45e-01	0	33	104	0	77	34774
2026-01-02 04:01:55.53	245.28	3.80	-54.7	-74.0	3.8	7.47e-01	0	33	104	0	77	34791
2026-01-02 04:01:58.53	245.14	3.59	-54.7	-74.0	3.8	7.46e-01	0	33	104	0	77	34795
2026-01-02 04:02:01.52	245.00	3.39	-54.7	-74.0	3.8	7.47e-01	0	33	104	0	77	34702
2026-01-02 04:02:04.52	244.86	3.19	-54.2	-74.0	3.9	7.44e-01	0	33	104	0	77	34756
2026-01-02 04:02:07.54	244.72	2.99	-54.7	-74.0	3.8	7.48e-01	0	33	104	0	77	34811
2026-01-02 04:02:10.53	244.59	2.79	-54.7	-74.0	3.8	7.48e-01	0	33	104	0	77	34811
2026-01-02 04:02:13.52	244.45	2.60	-54.7	-74.0	3.8	7.44e-01	0	33	104	0	77	34854
2026-01-02 04:02:16.53	244.32	2.40	-54.7	-74.0	3.8	7.50e-01	0	33	104	0	77	34719
2026-01-02 04:02:19.52	244.19	2.21	-54.7	-74.0	3.8	7.44e-01	0	32	104	0	77	34775
2026-01-02 04:02:22.53	244.07	2.01	-54.7	-74.0	3.8	7.46e-01	0	33	104	0	77	34735

#Closed at: 2026-01-02 04:02:23
#Recorded file [0 MB]: D:/lorett/data/31004_260102_065008.dat