passes_logs/2026/01/02/R3.2S_Murmansk/R3.2S_Murmansk__20260102_111323_FENGYUN_3D_rec.log

#Pass ID: 20260102_111323_FENGYUN 3D
#Satellite: FENGYUN 3D
#Configuration: FENGYUN 3D
#almurnet v.1.7.20251203
#Start time: 2026-01-02 11:13:24

#Version: 2.2.20231116
#Station: R3.2S_Murmansk
#Location: 33.079688 lon 68.888172 lat
#TLE: 1 43010U 17072A   26001.19005061  .00000535  00000+0  27473-3 0  9994
#TLE: 2 43010  98.9910 332.7942 0001852 133.6060 226.5269 14.19691635421296

#Time	Az	El	Level	Level2	SNR	BER	BlckErr	Temp	State	Recorded	gain1	gain2
2026-01-02 11:13:24.87	144.05	2.11	-59.8	-72.3	3.8	8.45e-01	0	30	0	0	86	14613
2026-01-02 11:13:28.85	144.04	2.37	-59.8	-72.3	3.8	8.45e-01	0	30	104	0	84	16382
2026-01-02 11:13:32.81	144.02	2.63	-59.8	-72.2	3.8	8.47e-01	0	31	104	0	84	16215
2026-01-02 11:13:36.78	144.00	2.89	-59.8	-72.1	3.8	8.48e-01	0	31	104	0	84	16043
2026-01-02 11:13:40.74	143.97	3.16	-59.7	-72.0	3.8	8.45e-01	0	31	104	0	84	15762
2026-01-02 11:13:44.71	143.95	3.42	-59.5	-69.5	3.9	8.43e-01	0	31	104	0	84	11923
2026-01-02 11:13:48.68	143.93	3.69	-58.4	-64.2	6.4	2.59e-01	0	31	0	7340032	83	6836
2026-01-02 11:13:52.66	143.91	3.97	-57.3	-61.2	9.0	1.67e-02	0	31	0	29360128	81	5438
2026-01-02 11:13:56.65	143.88	4.24	-55.3	-57.5	12.0	2.63e-05	0	31	0	51380224	77	4491
2026-01-02 11:14:00.62	143.86	4.52	-53.5	-55.1	13.6	0.00e+00	0	31	0	74448896	73	4259
2026-01-02 11:14:04.62	143.83	4.80	-53.1	-54.6	13.9	0.00e+00	0	31	0	96468992	72	4268
2026-01-02 11:14:08.61	143.81	5.09	-54.6	-56.6	12.6	0.00e+00	0	31	0	118489088	74	4777
2026-01-02 11:14:12.58	143.78	5.37	-53.7	-55.4	13.5	0.00e+00	0	31	0	141557760	72	4677
2026-01-02 11:14:16.57	143.75	5.66	-51.2	-52.4	15.0	0.00e+00	0	31	0	163577856	68	4160
2026-01-02 11:14:20.55	143.73	5.96	-51.2	-52.3	15.0	0.00e+00	0	31	0	186646528	68	4115
2026-01-02 11:14:24.52	143.70	6.25	-51.3	-52.4	15.0	0.00e+00	0	31	0	208666624	68	4191
2026-01-02 11:14:28.50	143.67	6.55	-51.1	-52.2	15.1	0.00e+00	0	31	0	230686720	68	4076
2026-01-02 11:14:32.48	143.64	6.86	-51.0	-52.0	15.2	0.00e+00	0	31	0	253755392	68	4003
2026-01-02 11:14:36.47	143.60	7.17	-50.8	-51.8	15.3	0.00e+00	0	31	0	275775488	68	3893
2026-01-02 11:14:40.43	143.57	7.48	-50.8	-51.8	15.4	0.00e+00	0	31	0	297795584	68	3895
2026-01-02 11:14:44.40	143.54	7.79	-50.4	-51.4	15.5	0.00e+00	0	31	0	319815680	67	3917
2026-01-02 11:14:48.38	143.50	8.11	-50.4	-51.4	15.5	0.00e+00	0	31	0	342884352	67	3949
2026-01-02 11:14:52.33	143.47	8.43	-50.2	-51.2	15.5	0.00e+00	0	31	0	364904448	66	4069
2026-01-02 11:14:56.30	143.43	8.76	-50.2	-51.2	15.5	0.00e+00	0	31	0	386924544	66	4082
2026-01-02 11:15:00.27	143.39	9.09	-50.0	-50.9	15.7	0.00e+00	0	31	0	409993216	66	3945
2026-01-02 11:15:04.24	143.35	9.42	-49.9	-50.8	15.7	0.00e+00	0	31	0	432013312	66	3903
2026-01-02 11:15:08.22	143.31	9.76	-50.0	-50.9	15.7	0.00e+00	0	31	0	454033408	66	3933
2026-01-02 11:15:12.18	143.27	10.11	-49.7	-50.6	15.8	0.00e+00	0	31	0	477102080	65	4024
2026-01-02 11:15:16.14	143.23	10.46	-49.6	-50.5	15.8	0.00e+00	0	31	0	499122176	65	3993
2026-01-02 11:15:20.13	143.19	10.81	-49.6	-50.5	15.8	0.00e+00	0	31	0	521142272	65	3993
2026-01-02 11:15:24.10	143.14	11.17	-49.6	-50.5	15.8	0.00e+00	0	31	0	543162368	65	3970
2026-01-02 11:15:28.08	143.09	11.54	-49.5	-50.4	15.9	0.00e+00	0	31	0	566231040	65	3924
2026-01-02 11:15:32.05	143.04	11.91	-49.5	-50.4	15.9	0.00e+00	0	31	0	588251136	65	3926
2026-01-02 11:15:36.02	142.99	12.29	-49.4	-50.3	15.9	0.00e+00	0	32	0	611319808	65	3910
2026-01-02 11:15:39.99	142.94	12.67	-49.4	-50.3	15.9	0.00e+00	0	31	0	633339904	65	3869
2026-01-02 11:15:43.95	142.89	13.05	-49.3	-50.2	16.0	0.00e+00	0	31	0	655360000	65	3828
2026-01-02 11:15:47.93	142.83	13.45	-49.2	-50.1	16.0	0.00e+00	0	31	0	677380096	65	3819
2026-01-02 11:15:51.90	142.77	13.85	-49.2	-50.1	16.0	0.00e+00	0	31	0	700448768	65	3805
2026-01-02 11:15:55.87	142.71	14.26	-49.1	-50.0	16.0	0.00e+00	0	31	0	722468864	64	3969
2026-01-02 11:15:59.83	142.65	14.67	-49.0	-49.9	16.0	0.00e+00	0	31	0	744488960	64	3941
2026-01-02 11:16:03.81	142.59	15.09	-49.0	-49.9	16.0	0.00e+00	0	31	0	766509056	64	3915
2026-01-02 11:16:07.78	142.52	15.52	-48.7	-49.6	16.1	0.00e+00	0	31	0	789577728	63	4006
2026-01-02 11:16:11.75	142.46	15.96	-48.5	-49.3	16.2	0.00e+00	0	32	0	811597824	63	3901
2026-01-02 11:16:15.73	142.39	16.40	-48.3	-49.1	16.3	0.00e+00	0	32	0	834666496	63	3796
2026-01-02 11:16:19.71	142.31	16.86	-48.2	-49.0	16.3	0.00e+00	0	32	0	856686592	62	3966
2026-01-02 11:16:23.68	142.24	17.32	-48.1	-48.9	16.3	0.00e+00	0	32	0	878706688	62	3938
2026-01-02 11:16:27.66	142.16	17.79	-48.0	-48.8	16.3	0.00e+00	0	31	0	900726784	62	3889
2026-01-02 11:16:31.64	142.08	18.27	-47.9	-48.7	16.4	0.00e+00	0	32	0	923795456	62	3844
2026-01-02 11:16:35.62	141.99	18.76	-47.8	-48.6	16.4	0.00e+00	0	31	0	945815552	62	3791
2026-01-02 11:16:39.58	141.90	19.26	-47.7	-48.5	16.4	0.00e+00	0	32	0	967835648	62	3763
2026-01-02 11:16:43.54	141.81	19.76	-47.7	-48.5	16.4	0.00e+00	0	32	0	990904320	62	3740
2026-01-02 11:16:47.51	141.72	20.28	-47.6	-48.4	16.4	0.00e+00	0	31	0	1012924416	61	3929
2026-01-02 11:16:51.47	141.62	20.81	-47.6	-48.4	16.4	0.00e+00	0	31	0	1034944512	61	3918
2026-01-02 11:16:55.44	141.52	21.35	-47.3	-48.1	16.5	0.00e+00	0	32	0	1058013184	61	3781
2026-01-02 11:16:59.40	141.41	21.90	-47.1	-47.8	16.5	0.00e+00	0	32	0	1080033280	60	3904
2026-01-02 11:17:03.38	141.30	22.47	-46.9	-47.6	16.6	0.00e+00	0	31	0	1102053376	60	3809
2026-01-02 11:17:07.36	141.18	23.05	-46.9	-47.6	16.6	0.00e+00	0	31	0	1124073472	60	3790
2026-01-02 11:17:11.33	141.06	23.64	-47.0	-47.7	16.6	0.00e+00	0	32	0	1147142144	60	3843
2026-01-02 11:17:15.30	140.94	24.24	-47.2	-47.9	16.5	0.00e+00	0	32	0	1169162240	60	3946
2026-01-02 11:17:19.28	140.81	24.86	-47.2	-47.9	16.5	0.00e+00	0	31	0	1191182336	60	3953
2026-01-02 11:17:23.25	140.67	25.50	-47.1	-47.8	16.5	0.00e+00	0	31	0	1214251008	60	3912
2026-01-02 11:17:27.22	140.52	26.14	-46.8	-47.5	16.6	0.00e+00	0	32	0	1236271104	60	3757
2026-01-02 11:17:31.20	140.37	26.81	-46.8	-47.5	16.6	0.00e+00	0	32	0	1258291200	60	3773
2026-01-02 11:17:35.19	140.22	27.49	-46.7	-47.4	16.7	0.00e+00	0	32	0	1281359872	60	3719
2026-01-02 11:17:39.16	140.05	28.19	-47.0	-47.8	16.5	0.00e+00	0	32	0	1303379968	59	4105
2026-01-02 11:17:43.13	139.88	28.91	-47.0	-47.7	16.5	0.00e+00	0	32	0	1325400064	59	4073
2026-01-02 11:17:47.12	139.70	29.64	-46.8	-47.6	16.5	0.00e+00	0	32	0	1348468736	59	4009
2026-01-02 11:17:51.09	139.51	30.40	-46.8	-47.6	16.5	0.00e+00	0	32	0	1370488832	59	4031
2026-01-02 11:17:55.06	139.31	31.17	-46.7	-47.4	16.6	0.00e+00	0	32	0	1392508928	59	3957
2026-01-02 11:17:59.03	139.10	31.96	-46.3	-47.1	16.7	0.00e+00	0	32	0	1415577600	59	3788
2026-01-02 11:18:03.02	138.87	32.78	-46.4	-47.1	16.7	0.00e+00	0	32	0	1437597696	59	3808
2026-01-02 11:18:07.01	138.64	33.62	-46.5	-47.2	16.6	0.00e+00	0	32	0	1459617792	59	3865
2026-01-02 11:18:10.98	138.39	34.48	-46.1	-46.8	16.7	0.00e+00	0	32	0	1482686464	58	3897
2026-01-02 11:18:14.94	138.13	35.36	-46.1	-46.7	16.7	0.00e+00	0	32	0	1504706560	58	3857
2026-01-02 11:18:18.92	137.85	36.27	-46.5	-47.0	16.8	0.00e+00	0	32	0	1526726656	58	3987
2026-01-02 11:18:22.90	137.55	37.20	-46.5	-47.1	16.8	0.00e+00	0	32	0	1549795328	58	4026
2026-01-02 11:18:26.87	137.24	38.16	-46.6	-47.2	16.7	0.00e+00	0	32	0	1571815424	58	4061
2026-01-02 11:18:30.84	136.91	39.15	-47.1	-47.6	16.7	0.00e+00	0	32	0	1593835520	59	4045
2026-01-02 11:18:34.80	136.55	40.16	-46.9	-47.5	16.7	0.00e+00	0	32	0	1615855616	59	3962
2026-01-02 11:18:38.78	136.17	41.20	-47.2	-47.8	16.6	0.00e+00	0	32	0	1638924288	59	4103
2026-01-02 11:18:42.76	135.76	42.28	-47.2	-47.9	16.6	0.00e+00	0	32	0	1660944384	59	4147
2026-01-02 11:18:46.75	135.33	43.38	-46.9	-47.5	16.7	0.00e+00	0	32	0	1684013056	59	3966
2026-01-02 11:18:50.73	134.86	44.52	-46.8	-47.3	16.8	0.00e+00	0	32	0	1706033152	59	3902
2026-01-02 11:18:54.70	134.35	45.68	-47.3	-47.9	16.6	0.00e+00	0	32	0	1728053248	59	4188
2026-01-02 11:18:58.68	133.81	46.87	-46.9	-47.5	16.7	0.00e+00	0	32	0	1751121920	59	3987
2026-01-02 11:19:02.67	133.22	48.11	-47.4	-48.0	16.6	0.00e+00	0	32	0	1773142016	59	4199
2026-01-02 11:19:06.65	132.58	49.37	-47.2	-47.8	16.7	0.00e+00	0	32	0	1795162112	60	3886
2026-01-02 11:19:10.63	131.88	50.66	-47.4	-48.0	16.6	0.00e+00	0	32	0	1818230784	60	3962
2026-01-02 11:19:14.60	131.12	51.98	-47.7	-48.3	16.5	0.00e+00	0	32	0	1840250880	60	4133
2026-01-02 11:19:18.56	130.29	53.33	-47.8	-48.4	16.6	0.00e+00	0	32	0	1862270976	61	3940
2026-01-02 11:19:22.54	129.37	54.72	-47.8	-48.4	16.6	0.00e+00	0	31	0	1885339648	61	3915
2026-01-02 11:19:26.50	128.36	56.12	-47.6	-48.2	16.7	0.00e+00	0	32	0	1907359744	61	3852
2026-01-02 11:19:30.48	127.23	57.57	-47.0	-47.5	16.8	0.00e+00	0	32	0	1929379840	60	3764
2026-01-02 11:19:34.47	125.97	59.04	-46.9	-47.5	16.8	0.00e+00	0	32	0	1951399936	60	3758
2026-01-02 11:19:38.45	124.57	60.53	-47.1	-47.7	16.6	0.00e+00	0	32	0	1974468608	59	4052
2026-01-02 11:19:42.41	122.99	62.02	-47.1	-47.7	16.7	0.00e+00	0	32	0	1996488704	60	3832
2026-01-02 11:19:46.38	121.20	63.54	-46.9	-47.5	16.7	0.00e+00	0	32	0	2019557376	59	3982
2026-01-02 11:19:50.34	119.17	65.05	-46.6	-47.2	16.8	0.00e+00	0	32	0	2041577472	59	3832
2026-01-02 11:19:54.30	116.85	66.56	-46.4	-46.9	16.9	0.00e+00	0	32	0	2063597568	59	3729
2026-01-02 11:19:58.27	114.16	68.07	-45.9	-46.4	17.0	0.00e+00	0	32	0	2085617664	58	3715
2026-01-02 11:20:02.25	111.03	69.55	-45.9	-46.4	17.0	0.00e+00	0	32	0	2108686336	58	3724
2026-01-02 11:20:06.23	107.38	70.98	-46.2	-46.7	16.9	0.00e+00	0	32	0	2130706432	58	3846
2026-01-02 11:20:10.21	103.11	72.35	-46.3	-46.8	16.9	0.00e+00	0	32	0	2152726528	58	3887
2026-01-02 11:20:14.20	98.09	73.63	-46.1	-46.7	16.9	0.00e+00	0	32	0	2175795200	58	3830
2026-01-02 11:20:18.17	92.26	74.77	-45.7	-46.2	16.9	0.00e+00	0	32	0	2197815296	57	3840
2026-01-02 11:20:22.16	85.48	75.75	-45.3	-45.8	17.0	0.00e+00	0	32	0	2219835392	57	3683
2026-01-02 11:20:26.14	77.81	76.52	-44.9	-45.4	17.0	0.00e+00	0	32	0	2242904064	56	3728
2026-01-02 11:20:30.12	69.35	77.02	-44.8	-45.3	17.1	0.00e+00	0	32	0	2264924160	56	3688
2026-01-02 11:20:34.11	60.38	77.23	-44.9	-45.4	17.1	0.00e+00	0	32	0	2286944256	56	3728
2026-01-02 11:20:38.09	51.36	77.13	-44.7	-45.2	17.0	0.00e+00	0	32	0	2310012928	55	3833
2026-01-02 11:20:42.07	42.68	76.73	-44.7	-45.2	17.0	0.00e+00	0	32	0	2332033024	55	3864
2026-01-02 11:20:46.04	34.72	76.06	-44.7	-45.2	17.0	0.00e+00	0	32	0	2355101696	55	3841
2026-01-02 11:20:50.02	27.63	75.15	-44.9	-45.4	16.9	0.00e+00	0	32	0	2377121792	55	3948
2026-01-02 11:20:53.99	21.47	74.07	-45.2	-45.7	16.8	0.00e+00	0	32	0	2399141888	55	4081
2026-01-02 11:20:57.95	16.19	72.84	-45.7	-46.3	16.8	0.00e+00	0	32	0	2421161984	56	4104
2026-01-02 11:21:01.92	11.67	71.51	-46.2	-46.7	16.8	0.00e+00	0	32	0	2444230656	57	4084
2026-01-02 11:21:05.89	7.81	70.10	-46.2	-46.7	16.7	0.00e+00	0	32	0	2466250752	57	4091
2026-01-02 11:21:09.86	4.51	68.64	-46.2	-46.8	16.8	0.00e+00	0	32	0	2488270848	57	4112
2026-01-02 11:21:13.84	1.66	67.15	-46.8	-47.4	16.7	0.00e+00	0	32	0	2511339520	58	4177
2026-01-02 11:21:17.82	359.19	65.63	-46.6	-47.2	16.7	0.00e+00	0	32	0	2533359616	58	4073
2026-01-02 11:21:21.78	357.06	64.12	-46.3	-46.9	16.8	0.00e+00	0	32	0	2555379712	58	3916
2026-01-02 11:21:25.74	355.19	62.61	-46.8	-47.4	16.7	0.00e+00	0	32	0	2578448384	58	4147
2026-01-02 11:21:29.72	353.53	61.10	-46.6	-47.2	16.7	0.00e+00	0	32	0	2600468480	58	4061
2026-01-02 11:21:33.68	352.07	59.62	-47.3	-47.8	16.7	0.00e+00	0	32	0	2622488576	59	4137
2026-01-02 11:21:37.65	350.76	58.15	-47.2	-47.7	16.8	0.00e+00	0	32	0	2644508672	60	3858
2026-01-02 11:21:41.63	349.59	56.70	-47.6	-48.1	16.6	0.00e+00	0	32	0	2667577344	60	4051
2026-01-02 11:21:45.60	348.54	55.28	-47.9	-48.4	16.6	0.00e+00	0	32	0	2689597440	61	3952
2026-01-02 11:21:49.58	347.59	53.89	-47.4	-47.9	16.8	0.00e+00	0	32	0	2711617536	61	3731
2026-01-02 11:21:53.54	346.73	52.53	-47.4	-48.0	16.8	0.00e+00	0	32	0	2734686208	61	3751
2026-01-02 11:21:57.52	345.94	51.20	-47.3	-47.9	16.8	0.00e+00	0	32	0	2756706304	61	3696
2026-01-02 11:22:01.49	345.22	49.90	-46.8	-47.4	16.9	0.00e+00	0	32	0	2778726400	60	3711
2026-01-02 11:22:05.47	344.56	48.63	-47.1	-47.7	16.7	0.00e+00	0	32	0	2801795072	59	4079
2026-01-02 11:22:09.44	343.95	47.39	-47.2	-47.7	16.7	0.00e+00	0	32	0	2823815168	59	4086
2026-01-02 11:22:13.41	343.39	46.19	-47.3	-47.9	16.7	0.00e+00	0	32	0	2845835264	59	4151
2026-01-02 11:22:17.38	342.87	45.01	-46.9	-47.4	16.8	0.00e+00	0	32	0	2868903936	59	3945
2026-01-02 11:22:21.35	342.39	43.87	-46.9	-47.4	16.8	0.00e+00	0	32	0	2890924032	59	3943
2026-01-02 11:22:25.33	341.95	42.76	-46.8	-47.3	16.8	0.00e+00	0	32	0	2912944128	59	3906
2026-01-02 11:22:29.31	341.53	41.68	-46.7	-47.2	16.8	0.00e+00	0	32	0	2934964224	59	3858
2026-01-02 11:22:33.28	341.14	40.63	-46.2	-46.7	17.0	0.00e+00	0	32	0	2958032896	59	3641
2026-01-02 11:22:37.26	340.78	39.60	-46.1	-46.6	16.9	0.00e+00	0	32	0	2980052992	58	3795
2026-01-02 11:22:41.23	340.44	38.61	-46.2	-46.8	16.9	0.00e+00	0	32	0	3003121664	58	3875
2026-01-02 11:22:45.20	340.12	37.64	-46.3	-46.9	16.8	0.00e+00	0	32	0	3025141760	58	3939
2026-01-02 11:22:49.18	339.81	36.70	-46.3	-46.9	16.8	0.00e+00	0	32	0	3047161856	58	3917
2026-01-02 11:22:53.15	339.53	35.78	-46.4	-47.0	16.8	0.00e+00	0	32	0	3069181952	58	3973
2026-01-02 11:22:57.12	339.26	34.89	-46.7	-47.2	16.7	0.00e+00	0	32	0	3092250624	58	4088
2026-01-02 11:23:01.08	339.01	34.03	-46.8	-47.4	16.7	0.00e+00	0	32	0	3114270720	58	4149
2026-01-02 11:23:05.06	338.77	33.18	-46.7	-47.3	16.7	0.00e+00	0	32	0	3136290816	58	4106
2026-01-02 11:23:09.15	338.54	32.34	-46.8	-47.4	16.7	0.00e+00	0	32	0	3161456640	58	4155
2026-01-02 11:23:13.18	338.32	31.53	-46.9	-47.5	16.7	0.00e+00	0	32	0	3184525312	59	3979
2026-01-02 11:23:17.21	338.12	30.74	-46.8	-47.3	16.8	0.00e+00	0	32	0	3206545408	59	3908
2026-01-02 11:23:21.27	337.92	29.96	-46.8	-47.4	16.8	0.00e+00	0	32	0	3229614080	59	3915
2026-01-02 11:23:25.30	337.73	29.21	-46.6	-47.1	16.8	0.00e+00	0	32	0	3251634176	59	3816
2026-01-02 11:23:29.32	337.56	28.49	-46.8	-47.4	16.8	0.00e+00	0	32	0	3274702848	59	3918
2026-01-02 11:23:33.35	337.39	27.77	-47.0	-47.6	16.7	0.00e+00	0	32	0	3297771520	59	4040
2026-01-02 11:23:37.39	337.23	27.08	-46.9	-47.4	16.8	0.00e+00	0	32	0	3319791616	59	3958
2026-01-02 11:23:41.50	337.07	26.39	-46.9	-47.4	16.7	0.00e+00	0	32	0	3342860288	59	3952
2026-01-02 11:23:45.54	336.93	25.73	-46.9	-47.5	16.7	0.00e+00	0	32	0	3365928960	59	3979
2026-01-02 11:23:49.54	336.79	25.09	-47.0	-47.6	16.7	0.00e+00	0	32	0	3388997632	59	4024
2026-01-02 11:23:53.57	336.66	24.46	-47.1	-47.7	16.7	0.00e+00	0	32	0	3411017728	59	4058
2026-01-02 11:23:57.59	336.53	23.84	-47.3	-47.8	16.6	0.00e+00	0	32	0	3434086400	59	4144
2026-01-02 11:24:01.68	336.41	23.23	-47.3	-47.9	16.6	0.00e+00	0	32	0	3457155072	59	4153
2026-01-02 11:24:05.71	336.29	22.65	-47.3	-47.8	16.6	0.00e+00	0	32	0	3479175168	59	4144
2026-01-02 11:24:09.72	336.18	22.08	-47.1	-47.6	16.7	0.00e+00	0	32	0	3502243840	60	3816
2026-01-02 11:24:13.75	336.07	21.51	-47.2	-47.7	16.7	0.00e+00	0	32	0	3524263936	60	3868
2026-01-02 11:24:17.84	335.97	20.96	-47.2	-47.8	16.7	0.00e+00	0	32	0	3547332608	60	3875
2026-01-02 11:24:21.92	335.87	20.41	-47.3	-47.9	16.6	0.00e+00	0	32	0	3570401280	60	3932
2026-01-02 11:24:25.96	335.77	19.89	-47.5	-48.1	16.6	0.00e+00	0	32	0	3593469952	60	4033
2026-01-02 11:24:30.00	335.68	19.37	-47.6	-48.2	16.5	0.00e+00	0	32	0	3615490048	60	4077
2026-01-02 11:24:34.04	335.59	18.86	-47.8	-48.4	16.5	0.00e+00	0	32	0	3638558720	60	4163
2026-01-02 11:24:38.07	335.51	18.37	-47.8	-48.4	16.5	0.00e+00	0	32	0	3661627392	60	4177
2026-01-02 11:24:42.09	335.43	17.88	-47.9	-48.6	16.5	0.00e+00	0	32	0	3683647488	61	4007
2026-01-02 11:24:46.14	335.35	17.40	-48.1	-48.7	16.4	0.00e+00	0	32	0	3706716160	61	4085
2026-01-02 11:24:50.17	335.28	16.94	-48.1	-48.8	16.4	0.00e+00	0	32	0	3729784832	61	4111
2026-01-02 11:24:54.26	335.20	16.47	-48.3	-49.0	16.4	0.00e+00	0	32	0	3752853504	62	3961
2026-01-02 11:24:58.32	335.13	16.02	-48.3	-49.0	16.4	0.00e+00	0	32	0	3775922176	62	3969
2026-01-02 11:25:02.36	335.07	15.58	-48.4	-49.1	16.4	0.00e+00	0	32	0	3797942272	62	4022
2026-01-02 11:25:06.39	335.00	15.14	-48.7	-49.3	16.3	0.00e+00	0	32	0	3821010944	62	4133
2026-01-02 11:25:10.41	334.94	14.72	-48.7	-49.4	16.3	0.00e+00	0	32	0	3843031040	62	4168
2026-01-02 11:25:14.43	334.88	14.30	-48.8	-49.5	16.3	0.00e+00	0	32	0	3866099712	63	3980
2026-01-02 11:25:18.49	334.82	13.89	-49.0	-49.6	16.2	0.00e+00	0	32	0	3889168384	63	4051
2026-01-02 11:25:22.56	334.76	13.48	-49.1	-49.8	16.2	0.00e+00	0	32	0	3911188480	63	4107
2026-01-02 11:25:26.68	334.71	13.07	-49.2	-49.9	16.2	0.00e+00	0	32	0	3935305728	63	4154
2026-01-02 11:25:30.68	334.66	12.68	-49.4	-50.1	16.1	0.00e+00	0	32	0	3957325824	63	4263
2026-01-02 11:25:34.70	334.61	12.30	-49.3	-50.0	16.1	0.00e+00	0	32	0	3980394496	64	3988
2026-01-02 11:25:38.74	334.56	11.92	-49.4	-50.2	16.1	0.00e+00	0	32	0	4002414592	64	4069
2026-01-02 11:25:42.71	334.51	11.55	-49.4	-50.3	16.0	0.00e+00	0	32	0	4024434688	64	4139
2026-01-02 11:25:46.69	334.47	11.18	-48.5	-50.4	16.0	0.00e+00	0	32	0	4047503360	63	4440
2026-01-02 11:25:50.66	334.42	10.83	-49.4	-50.4	15.9	0.00e+00	0	32	0	4069523456	63	4441
2026-01-02 11:25:54.63	334.38	10.47	-49.6	-50.4	16.0	0.00e+00	0	32	0	4092592128	64	4153
2026-01-02 11:25:58.59	334.34	10.13	-49.7	-50.5	15.9	0.00e+00	0	32	0	4114612224	64	4216
2026-01-02 11:26:02.58	334.30	9.78	-49.9	-50.7	15.8	0.00e+00	0	31	0	4136632320	65	4096
2026-01-02 11:26:06.54	334.27	9.45	-50.0	-50.8	15.8	0.00e+00	0	32	0	4158652416	65	4109
2026-01-02 11:26:10.51	334.23	9.11	-49.9	-50.7	15.9	0.00e+00	0	32	0	4181721088	65	4074
2026-01-02 11:26:14.48	334.19	8.78	-50.0	-50.8	15.8	0.00e+00	0	32	0	4203741184	65	4114
2026-01-02 11:26:18.44	334.16	8.46	-50.2	-51.0	15.7	0.00e+00	0	32	0	4225761280	65	4219
2026-01-02 11:26:22.42	334.13	8.14	-50.3	-51.2	15.6	0.00e+00	0	32	0	4247781376	65	4312
2026-01-02 11:26:26.39	334.10	7.82	-50.3	-51.1	15.7	0.00e+00	0	32	0	4270850048	66	4038
2026-01-02 11:26:30.34	334.07	7.51	-50.4	-51.3	15.6	0.00e+00	0	32	0	4292870144	66	4124
2026-01-02 11:26:34.32	334.04	7.20	-50.6	-51.5	15.5	0.00e+00	0	32	0	4314890240	66	4219
2026-01-02 11:26:38.29	334.01	6.89	-50.7	-51.6	15.4	0.00e+00	0	32	0	4337958912	67	4040
2026-01-02 11:26:42.26	333.98	6.59	-50.7	-51.6	15.5	0.00e+00	0	32	0	4359979008	67	4011
2026-01-02 11:26:46.24	333.95	6.29	-50.7	-51.6	15.4	0.00e+00	0	32	0	4381999104	67	4034
2026-01-02 11:26:50.23	333.93	6.00	-50.7	-51.6	15.4	0.00e+00	0	32	0	4405067776	67	4050
2026-01-02 11:26:54.19	333.90	5.70	-50.8	-51.7	15.3	0.00e+00	0	32	0	4427087872	67	4086
2026-01-02 11:26:58.15	333.88	5.42	-51.1	-52.1	15.1	1.10e-06	0	32	0	4449107968	67	4253
2026-01-02 11:27:02.11	333.85	5.13	-51.2	-52.2	15.1	0.00e+00	0	32	0	4471128064	67	4326
2026-01-02 11:27:06.08	333.83	4.85	-61.3	-73.9	3.8	8.44e-01	0	32	104	4480565248	87	16535
2026-01-02 11:27:10.07	333.81	4.57	-62.0	-74.6	3.8	8.44e-01	0	32	104	4480565248	89	15986
2026-01-02 11:27:14.08	333.79	4.29	-62.3	-74.9	3.8	8.46e-01	0	32	104	4480565248	89	16641
2026-01-02 11:27:18.06	333.77	4.02	-62.5	-75.1	3.8	8.45e-01	0	32	104	4480565248	90	16003
2026-01-02 11:27:22.04	333.75	3.74	-62.5	-75.1	3.8	8.47e-01	0	32	104	4480565248	90	16104
2026-01-02 11:27:26.02	333.73	3.47	-62.4	-75.1	3.8	8.44e-01	0	32	104	4480565248	90	15991
2026-01-02 11:27:30.00	333.71	3.21	-62.4	-75.0	3.8	8.46e-01	0	32	104	4480565248	90	15881
2026-01-02 11:27:33.97	333.69	2.95	-62.3	-74.9	3.8	8.46e-01	0	32	104	4480565248	90	15758
2026-01-02 11:27:37.94	333.67	2.68	-62.3	-74.9	3.8	8.46e-01	0	32	104	4480565248	90	15707
2026-01-02 11:27:41.92	333.66	2.43	-62.3	-74.9	3.8	8.45e-01	0	32	104	4480565248	90	15634
2026-01-02 11:27:45.90	333.64	2.17	-62.3	-74.9	3.8	8.44e-01	0	32	104	4480565248	90	15677
2026-01-02 11:27:49.90	333.63	1.91	-62.2	-74.8	3.8	8.45e-01	0	32	104	4480565248	90	15569

#Closed at: 2026-01-02 11:27:51
#Recorded file [4480 MB]: D:/lorett/data/31004_260102_141324.dat