passes_logs/2026/01/02/R3.2S_Murmansk/R3.2S_Murmansk__20260102_124721_TY-42_rec.log

#Pass ID: 20260102_124721_TY-42
#Satellite: TY-42
#Configuration: TY-42_900M
#almurnet v.1.7.20251203
#Start time: 2026-01-02 12:47:21

#Version: 2.2.20231116
#Station: R3.2S_Murmansk
#Location: 33.079688 lon 68.888172 lat
#TLE: 1 64048U 25103A   26001.16230324  .00008011  00000-0  38191-3 0 09998
#TLE: 2 64048 097.4120 076.8412 0001853 093.7312 056.4064 15.19175193 34719

#Time	Az	El	Level	Level2	SNR	BER	BlckErr	Temp	State	Recorded	gain1	gain2
2026-01-02 12:47:21.97	32.59	2.04	-59.6	-62.4	6.2	0.00e+00	0	36	104	0	86	19312
2026-01-02 12:47:25.28	32.22	2.23	-59.6	-62.3	6.2	0.00e+00	0	36	104	0	86	19237
2026-01-02 12:47:28.02	31.91	2.38	-59.5	-62.3	6.2	0.00e+00	0	36	104	0	86	19253
2026-01-02 12:47:31.33	31.53	2.57	-59.5	-62.3	6.2	0.00e+00	0	37	104	0	86	19231
2026-01-02 12:47:34.07	31.21	2.72	-59.6	-62.3	6.2	0.00e+00	0	37	104	0	86	19251
2026-01-02 12:47:37.38	30.82	2.91	-59.6	-62.3	6.2	0.00e+00	0	37	104	0	86	19253
2026-01-02 12:47:40.11	30.50	3.06	-59.6	-62.4	6.2	0.00e+00	0	37	104	0	86	19282
2026-01-02 12:47:43.43	30.09	3.25	-59.6	-62.4	6.2	0.00e+00	0	37	104	0	86	19287
2026-01-02 12:47:46.16	29.76	3.40	-59.6	-62.4	6.2	0.00e+00	0	37	104	0	86	19278
2026-01-02 12:47:49.47	29.34	3.59	-59.6	-62.4	6.2	0.00e+00	0	38	104	0	86	19298
2026-01-02 12:47:52.21	28.99	3.75	-59.6	-62.4	6.2	0.00e+00	0	38	104	0	86	19275
2026-01-02 12:47:55.51	28.56	3.94	-59.6	-62.4	6.2	0.00e+00	0	38	104	0	86	19273
2026-01-02 12:47:58.25	28.20	4.09	-59.6	-62.4	6.2	0.00e+00	0	38	104	0	86	19307
2026-01-02 12:48:01.56	27.76	4.28	-59.6	-62.4	6.2	0.00e+00	0	38	104	0	86	19300
2026-01-02 12:48:04.30	27.39	4.44	-59.6	-62.4	6.2	0.00e+00	0	38	104	0	86	19335
2026-01-02 12:48:07.61	26.94	4.63	-59.6	-62.4	6.2	0.00e+00	0	38	104	0	86	19386
2026-01-02 12:48:10.35	26.55	4.79	-59.6	-62.4	6.2	0.00e+00	0	38	104	0	86	19407
2026-01-02 12:48:13.66	26.08	4.98	-59.6	-62.4	6.2	0.00e+00	0	38	104	0	86	19412
2026-01-02 12:48:16.38	25.69	5.14	-59.8	-62.5	6.2	0.00e+00	0	39	104	0	86	19657
2026-01-02 12:48:19.69	25.21	5.33	-59.9	-62.6	6.2	0.00e+00	0	39	104	0	86	19871
2026-01-02 12:48:22.42	24.80	5.49	-59.8	-62.5	6.2	0.00e+00	0	39	104	0	86	19692
2026-01-02 12:48:25.71	24.31	5.68	-59.8	-62.6	6.2	0.00e+00	0	39	104	0	86	19803
2026-01-02 12:48:28.45	23.89	5.84	-59.8	-62.6	6.2	0.00e+00	0	39	104	0	86	19855
2026-01-02 12:48:31.74	23.38	6.03	-59.9	-62.7	6.2	0.00e+00	0	39	104	0	86	20021
2026-01-02 12:48:34.47	22.94	6.19	-59.8	-62.6	6.2	0.00e+00	0	39	104	0	86	19851
2026-01-02 12:48:37.77	22.41	6.38	-59.9	-62.7	6.2	0.00e+00	0	39	104	0	86	20016
2026-01-02 12:48:40.51	21.97	6.54	-59.9	-62.7	6.2	0.00e+00	0	39	104	0	86	19995
2026-01-02 12:48:43.82	21.42	6.74	-60.0	-62.8	6.2	0.00e+00	0	39	104	0	86	20230
2026-01-02 12:48:46.56	20.96	6.90	-59.9	-62.7	6.2	0.00e+00	0	39	104	0	86	20009
2026-01-02 12:48:49.86	20.40	7.09	-57.5	-58.8	6.7	0.00e+00	0	39	104	0	80	18090
2026-01-02 12:48:52.58	19.93	7.24	-46.8	-46.7	12.1	4.10e-02	0	40	0	167772160	60	14243
2026-01-02 12:48:55.88	19.35	7.44	-45.5	-45.3	12.7	3.41e-02	0	40	0	536870912	58	13555
2026-01-02 12:48:58.61	18.86	7.59	-44.5	-44.4	13.0	1.33e-02	0	41	0	847249408	56	13657
2026-01-02 12:49:01.91	18.26	7.78	-43.9	-43.7	13.3	6.68e-03	0	41	0	1224736768	54	14175
2026-01-02 12:49:04.63	17.76	7.94	-43.7	-43.5	13.3	5.33e-03	0	41	0	1526726656	54	13950
2026-01-02 12:49:07.95	17.14	8.13	-43.7	-43.6	13.3	4.65e-03	0	41	0	1895825408	54	13961
2026-01-02 12:49:10.68	16.62	8.28	-43.6	-43.4	13.4	4.94e-03	0	41	0	2206203904	54	13773
2026-01-02 12:49:13.98	15.99	8.47	-43.6	-43.5	13.4	4.49e-03	0	41	0	2575302656	54	13800
2026-01-02 12:49:16.69	15.46	8.62	-43.7	-43.5	13.4	4.73e-03	0	41	0	2877292544	54	13850
2026-01-02 12:49:19.99	14.81	8.81	-43.8	-43.6	13.4	4.08e-03	0	42	0	3254779904	54	14059
2026-01-02 12:49:22.72	14.26	8.96	-43.6	-43.5	13.5	4.80e-03	0	42	0	3565158400	54	13810
2026-01-02 12:49:26.03	13.58	9.14	-43.8	-43.7	13.4	4.00e-03	0	42	0	3934257152	54	14146
2026-01-02 12:49:28.77	13.02	9.29	-43.6	-43.4	13.5	4.29e-03	0	42	0	4244635648	54	13689
2026-01-02 12:49:32.07	12.32	9.47	-43.5	-43.3	13.5	3.92e-03	0	42	0	4613734400	54	13627
2026-01-02 12:49:34.80	11.74	9.62	-43.5	-43.3	13.6	3.78e-03	0	42	0	4915724288	54	13601
2026-01-02 12:49:38.09	11.03	9.80	-43.4	-43.2	13.6	3.59e-03	0	42	0	5284823040	53	14162
2026-01-02 12:49:40.82	10.44	9.94	-43.4	-43.2	13.6	3.59e-03	0	42	0	5595201536	53	14159
2026-01-02 12:49:44.13	9.70	10.11	-43.3	-43.1	13.6	3.10e-03	0	42	0	5972688896	53	14032
2026-01-02 12:49:46.85	9.09	10.25	-43.2	-43.0	13.7	2.77e-03	0	42	0	6274678784	53	13921
2026-01-02 12:49:50.15	8.34	10.42	-43.2	-43.0	13.6	3.32e-03	0	43	0	6643777536	53	13807
2026-01-02 12:49:52.87	7.72	10.56	-43.2	-43.0	13.6	4.95e-03	0	42	0	6954156032	53	13939
2026-01-02 12:49:56.17	6.95	10.72	-43.1	-43.0	13.7	5.71e-03	0	42	0	7323254784	53	13799
2026-01-02 12:49:58.89	6.31	10.85	-43.1	-42.9	13.7	2.82e-03	0	43	0	7625244672	53	13647
2026-01-02 12:50:02.18	5.52	11.01	-43.0	-42.8	13.8	2.48e-03	0	43	0	8002732032	53	13555
2026-01-02 12:50:04.92	4.86	11.14	-43.0	-42.8	13.8	2.02e-03	0	43	0	8304721920	53	13573
2026-01-02 12:50:08.21	4.05	11.29	-42.9	-42.7	13.8	2.31e-03	0	43	0	8682209280	52	14169
2026-01-02 12:50:10.94	3.38	11.41	-42.9	-42.7	13.7	2.03e-03	0	43	0	8984199168	52	14269
2026-01-02 12:50:14.25	2.55	11.56	-42.8	-42.6	13.7	1.96e-03	0	43	0	9353297920	52	14095
2026-01-02 12:50:16.98	1.86	11.68	-42.8	-42.6	13.9	1.75e-03	0	43	0	9663676416	52	13959
2026-01-02 12:50:20.27	1.01	11.81	-42.9	-42.7	13.9	1.09e-03	0	43	0	10032775168	52	14141
2026-01-02 12:50:22.99	0.31	11.92	-43.1	-42.9	13.8	1.51e-03	0	43	0	10343153664	52	14467
2026-01-02 12:50:26.29	359.45	12.05	-60.6	-63.3	6.2	1.65e-03	0	42	104	10603200512	86	21566
2026-01-02 12:50:29.01	358.73	12.16	-60.6	-63.4	6.2	1.65e-03	0	42	104	10603200512	87	20423
2026-01-02 12:50:32.31	357.86	12.28	-60.7	-63.5	6.2	1.65e-03	0	42	104	10603200512	87	20711
2026-01-02 12:50:35.04	357.12	12.37	-60.6	-63.4	6.2	1.65e-03	0	42	104	10603200512	87	20454
2026-01-02 12:50:38.34	356.23	12.48	-60.6	-63.4	6.2	3.77e-04	0	42	104	10603200512	87	20532
2026-01-02 12:50:41.07	355.48	12.57	-60.6	-63.4	6.2	3.77e-04	0	42	104	10603200512	87	20416
2026-01-02 12:50:44.38	354.57	12.68	-60.7	-63.4	6.2	3.77e-04	0	42	104	10603200512	87	20579
2026-01-02 12:50:47.10	353.82	12.76	-60.6	-63.4	6.2	3.77e-04	0	42	104	10603200512	87	20446
2026-01-02 12:50:50.40	352.90	12.85	-60.6	-63.4	6.2	3.77e-04	0	42	104	10603200512	87	20416
2026-01-02 12:50:53.13	352.13	12.92	-60.6	-63.4	6.2	0.00e+00	0	41	104	10603200512	87	20432
2026-01-02 12:50:56.44	351.19	13.00	-60.7	-63.4	6.2	0.00e+00	0	41	104	10603200512	87	20576
2026-01-02 12:50:59.16	350.42	13.06	-60.6	-63.4	6.2	0.00e+00	0	42	104	10603200512	87	20432
2026-01-02 12:51:02.46	349.48	13.13	-60.6	-63.4	6.2	0.00e+00	0	41	104	10603200512	87	20467
2026-01-02 12:51:05.19	348.69	13.18	-60.6	-63.4	6.2	0.00e+00	0	41	104	10603200512	87	20428
2026-01-02 12:51:08.49	347.74	13.24	-60.7	-63.5	6.2	0.00e+00	0	41	104	10603200512	87	20658
2026-01-02 12:51:11.21	346.95	13.28	-60.6	-63.4	6.2	0.00e+00	0	41	104	10603200512	87	20555
2026-01-02 12:51:14.52	345.99	13.33	-60.8	-63.5	6.2	0.00e+00	0	41	104	10603200512	87	20761
2026-01-02 12:51:17.26	345.19	13.36	-60.7	-63.5	6.2	0.00e+00	0	41	104	10603200512	87	20785
2026-01-02 12:51:20.54	344.23	13.39	-60.7	-63.5	6.2	0.00e+00	0	41	104	10603200512	87	20722
2026-01-02 12:51:23.25	343.43	13.41	-60.7	-63.4	6.2	0.00e+00	0	41	104	10603200512	87	20629
2026-01-02 12:51:26.56	342.46	13.43	-60.7	-63.5	6.2	0.00e+00	0	41	104	10603200512	87	20642
2026-01-02 12:51:29.28	341.66	13.45	-60.7	-63.5	6.2	0.00e+00	0	41	104	10603200512	87	20652
2026-01-02 12:51:32.56	340.70	13.45	-60.7	-63.5	6.2	0.00e+00	0	41	104	10603200512	87	20750
2026-01-02 12:51:35.28	339.89	13.45	-60.7	-63.5	6.2	0.00e+00	0	41	104	10603200512	87	20641
2026-01-02 12:51:38.58	338.92	13.45	-60.7	-63.5	6.2	0.00e+00	0	41	104	10603200512	87	20662
2026-01-02 12:51:41.31	338.12	13.44	-60.7	-63.4	6.2	0.00e+00	0	41	104	10603200512	87	20613
2026-01-02 12:51:44.62	337.15	13.42	-60.7	-63.5	6.2	0.00e+00	0	41	104	10603200512	87	20720
2026-01-02 12:51:47.36	336.34	13.40	-60.7	-63.5	6.2	0.00e+00	0	41	104	10603200512	87	20677
2026-01-02 12:51:50.67	335.37	13.37	-60.7	-63.5	6.2	0.00e+00	0	41	104	10603200512	87	20649
2026-01-02 12:51:53.40	334.57	13.34	-60.7	-63.4	6.2	0.00e+00	0	41	104	10603200512	87	20624
2026-01-02 12:51:56.68	333.62	13.29	-60.7	-63.5	6.2	0.00e+00	0	41	104	10603200512	87	20817
2026-01-02 12:51:59.41	332.83	13.25	-60.7	-63.5	6.2	0.00e+00	0	41	104	10603200512	87	20728
2026-01-02 12:52:02.72	331.87	13.20	-60.7	-63.4	6.2	0.00e+00	0	41	104	10603200512	87	20630
2026-01-02 12:52:05.44	331.09	13.15	-60.7	-63.5	6.2	0.00e+00	0	41	104	10603200512	87	20651
2026-01-02 12:52:08.73	330.14	13.08	-60.7	-63.5	6.2	0.00e+00	0	41	104	10603200512	87	20674
2026-01-02 12:52:11.46	329.36	13.02	-60.7	-63.5	6.2	0.00e+00	0	41	104	10603200512	87	20739
2026-01-02 12:52:14.76	328.43	12.94	-60.6	-63.4	6.2	0.00e+00	0	41	104	10603200512	87	20504
2026-01-02 12:52:17.48	327.66	12.87	-60.7	-63.4	6.2	0.00e+00	0	41	104	10603200512	87	20605
2026-01-02 12:52:20.79	326.74	12.78	-60.7	-63.5	6.2	0.00e+00	0	41	104	10603200512	87	20706
2026-01-02 12:52:23.52	325.98	12.70	-60.7	-63.5	6.2	0.00e+00	0	41	104	10603200512	87	20710
2026-01-02 12:52:26.82	325.07	12.60	-60.6	-63.4	6.2	0.00e+00	0	41	104	10603200512	87	20577
2026-01-02 12:52:29.55	324.32	12.51	-60.6	-63.4	6.2	0.00e+00	0	41	104	10603200512	87	20587
2026-01-02 12:52:32.84	323.42	12.40	-60.7	-63.4	6.2	0.00e+00	0	41	104	10603200512	87	20613
2026-01-02 12:52:35.57	322.69	12.31	-60.7	-63.4	6.2	0.00e+00	0	41	104	10603200512	87	20617
2026-01-02 12:52:38.88	321.81	12.19	-60.6	-63.4	6.2	0.00e+00	0	41	104	10603200512	87	20530
2026-01-02 12:52:41.61	321.08	12.08	-60.6	-63.4	6.2	0.00e+00	0	41	104	10603200512	87	20489
2026-01-02 12:52:44.90	320.22	11.95	-60.6	-63.4	6.2	0.00e+00	0	41	104	10603200512	87	20521
2026-01-02 12:52:47.63	319.51	11.84	-60.7	-63.5	6.2	0.00e+00	0	41	104	10603200512	87	20664
2026-01-02 12:52:50.94	318.66	11.71	-60.6	-63.3	6.2	0.00e+00	0	41	104	10603200512	87	20373
2026-01-02 12:52:53.67	317.97	11.59	-60.6	-63.4	6.2	0.00e+00	0	41	104	10603200512	87	20500
2026-01-02 12:52:56.97	317.14	11.45	-60.6	-63.3	6.2	0.00e+00	0	41	104	10603200512	87	20321
2026-01-02 12:52:59.71	316.46	11.32	-60.6	-63.4	6.2	0.00e+00	0	41	104	10603200512	87	20591
2026-01-02 12:53:03.00	315.65	11.17	-60.5	-63.3	6.2	0.00e+00	0	41	104	10603200512	87	20284
2026-01-02 12:53:05.73	314.98	11.05	-60.6	-63.4	6.2	0.00e+00	0	41	104	10603200512	87	20434
2026-01-02 12:53:09.03	314.19	10.89	-60.5	-63.3	6.2	0.00e+00	0	41	104	10603200512	87	20279
2026-01-02 12:53:11.76	313.54	10.76	-60.6	-63.4	6.2	0.00e+00	0	41	104	10603200512	87	20413
2026-01-02 12:53:15.07	312.77	10.59	-60.5	-63.3	6.2	0.00e+00	0	41	104	10603200512	87	20271
2026-01-02 12:53:17.80	312.14	10.46	-60.5	-63.3	6.2	0.00e+00	0	41	104	10603200512	87	20285
2026-01-02 12:53:21.09	311.38	10.29	-60.5	-63.3	6.2	0.00e+00	0	41	104	10603200512	87	20224
2026-01-02 12:53:23.82	310.77	10.15	-60.6	-63.3	6.2	0.00e+00	0	41	104	10603200512	87	20304
2026-01-02 12:53:27.30	309.99	9.97	-60.5	-63.3	6.2	0.00e+00	0	41	104	10603200512	87	20231
2026-01-02 12:53:30.07	309.39	9.82	-60.5	-63.2	6.2	0.00e+00	0	41	104	10603200512	87	20122
2026-01-02 12:53:33.83	308.57	9.62	-60.4	-63.3	6.2	0.00e+00	0	41	104	10603200512	87	20196
2026-01-02 12:53:36.60	307.98	9.47	-60.4	-63.2	6.2	0.00e+00	0	41	104	10603200512	87	20037
2026-01-02 12:53:40.35	307.20	9.27	-60.4	-63.2	6.2	0.00e+00	0	41	104	10603200512	87	20086
2026-01-02 12:53:43.09	306.63	9.12	-60.4	-63.2	6.2	0.00e+00	0	41	104	10603200512	87	20008
2026-01-02 12:53:46.88	305.86	8.91	-60.4	-63.1	6.2	0.00e+00	0	41	104	10603200512	87	19828
2026-01-02 12:53:49.70	305.29	8.75	-60.4	-63.1	6.2	0.00e+00	0	41	104	10603200512	87	19898
2026-01-02 12:53:53.14	304.61	8.55	-60.3	-63.0	6.2	0.00e+00	0	41	104	10603200512	87	19697
2026-01-02 12:53:55.87	304.08	8.40	-60.4	-63.1	6.2	0.00e+00	0	41	104	10603200512	87	19878
2026-01-02 12:53:59.18	303.45	8.21	-60.3	-63.1	6.2	0.00e+00	0	41	104	10603200512	87	19783
2026-01-02 12:54:01.90	302.93	8.06	-60.3	-63.1	6.2	0.00e+00	0	41	104	10603200512	87	19734
2026-01-02 12:54:05.21	302.32	7.87	-60.2	-63.0	6.2	0.00e+00	0	41	104	10603200512	87	19577
2026-01-02 12:54:07.94	301.82	7.71	-60.3	-63.1	6.2	0.00e+00	0	41	104	10603200512	87	19763
2026-01-02 12:54:11.24	301.22	7.52	-60.2	-63.0	6.2	0.00e+00	0	41	104	10603200512	87	19611
2026-01-02 12:54:13.97	300.73	7.36	-60.2	-63.0	6.2	0.00e+00	0	41	104	10603200512	87	19584
2026-01-02 12:54:17.28	300.15	7.17	-60.2	-63.0	6.2	0.00e+00	0	41	104	10603200512	86	20637
2026-01-02 12:54:20.01	299.68	7.01	-60.2	-63.0	6.2	0.00e+00	0	41	104	10603200512	86	20727
2026-01-02 12:54:23.32	299.12	6.82	-60.2	-63.0	6.2	0.00e+00	0	41	104	10603200512	86	20750
2026-01-02 12:54:26.06	298.66	6.66	-60.1	-62.9	6.2	0.00e+00	0	41	104	10603200512	86	20545
2026-01-02 12:54:29.37	298.11	6.47	-60.1	-62.9	6.2	0.00e+00	0	41	104	10603200512	86	20498
2026-01-02 12:54:32.10	297.67	6.31	-60.2	-63.0	6.2	0.00e+00	0	41	104	10603200512	86	20643
2026-01-02 12:54:35.41	297.14	6.11	-60.1	-62.9	6.2	0.00e+00	0	41	104	10603200512	86	20575
2026-01-02 12:54:38.14	296.71	5.96	-60.0	-62.8	6.2	0.00e+00	0	41	104	10603200512	86	20274
2026-01-02 12:54:41.45	296.20	5.76	-60.0	-62.8	6.2	0.00e+00	0	41	104	10603200512	86	20266
2026-01-02 12:54:44.19	295.78	5.60	-60.1	-62.8	6.2	0.00e+00	0	41	104	10603200512	86	20386
2026-01-02 12:54:47.49	295.28	5.41	-60.0	-62.8	6.2	0.00e+00	0	41	104	10603200512	86	20351
2026-01-02 12:54:50.22	294.88	5.25	-59.9	-62.7	6.2	0.00e+00	0	41	104	10603200512	86	20046
2026-01-02 12:54:53.53	294.40	5.06	-59.9	-62.7	6.2	0.00e+00	0	41	104	10603200512	86	20019
2026-01-02 12:54:56.26	294.01	4.90	-60.6	-63.3	6.2	0.00e+00	0	41	104	10603200512	86	21598
2026-01-02 12:54:59.57	293.54	4.71	-61.3	-64.0	6.2	0.00e+00	0	41	104	10603200512	88	20784
2026-01-02 12:55:02.31	293.16	4.55	-61.6	-64.3	6.2	0.00e+00	0	41	104	10603200512	88	21571
2026-01-02 12:55:05.63	292.70	4.36	-61.8	-64.6	6.2	0.00e+00	0	41	104	10603200512	89	20985
2026-01-02 12:55:08.36	292.33	4.20	-62.0	-64.8	6.2	0.00e+00	0	41	104	10603200512	89	21424
2026-01-02 12:55:11.68	291.89	4.01	-62.1	-64.9	6.2	0.00e+00	0	41	104	10603200512	90	20460
2026-01-02 12:55:14.42	291.53	3.85	-62.2	-65.0	6.2	0.00e+00	0	41	104	10603200512	90	20672
2026-01-02 12:55:17.74	291.10	3.66	-62.2	-65.0	6.2	0.00e+00	0	41	104	10603200512	90	20780
2026-01-02 12:55:20.48	290.76	3.51	-62.2	-65.0	6.2	0.00e+00	0	41	104	10603200512	90	20733
2026-01-02 12:55:23.79	290.34	3.32	-62.1	-64.9	6.2	0.00e+00	0	41	104	10603200512	90	20507
2026-01-02 12:55:26.53	290.00	3.16	-62.0	-64.8	6.2	0.00e+00	0	41	104	10603200512	90	20297
2026-01-02 12:55:29.85	289.60	2.97	-62.0	-64.8	6.2	0.00e+00	0	41	104	10603200512	90	20237
2026-01-02 12:55:32.59	289.27	2.82	-61.9	-64.7	6.2	0.00e+00	0	41	104	10603200512	90	20047
2026-01-02 12:55:35.90	288.88	2.63	-61.9	-64.7	6.2	0.00e+00	0	41	104	10603200512	90	20007
2026-01-02 12:55:38.64	288.57	2.48	-61.9	-64.7	6.2	0.00e+00	0	41	104	10603200512	90	19940
2026-01-02 12:55:41.95	288.19	2.29	-61.9	-64.6	6.2	0.00e+00	0	41	104	10603200512	90	19871
2026-01-02 12:55:44.69	287.88	2.14	-61.9	-64.7	6.2	0.00e+00	0	41	104	10603200512	90	19976

#Closed at: 2026-01-02 12:55:47
#Recorded file [10603 MB]: D:/lorett/data/31004_260102_154721.dat