passes_logs/2026/01/02/R3.2S_Murmansk/R3.2S_Murmansk__20260102_015503_SUOMI_NPP_rec.log

#Pass ID: 20260102_015503_SUOMI NPP
#Satellite: SUOMI NPP
#Configuration: NPP
#almurnet v.1.7.20251203
#Start time: 2026-01-02 01:55:04

#Version: 2.2.20231116
#Station: R3.2S_Murmansk
#Location: 33.079688 lon 68.888172 lat
#TLE: 1 37849U 11061A   26001.07732418  .00000182  00000+0  10735-3 0  9990
#TLE: 2 37849  98.7795 303.2470 0002580  87.2016 272.9455 14.19520779734739

#Time	Az	El	Level	Level2	SNR	BER	BlckErr	Temp	State	Recorded	gain1	gain2
2026-01-02 01:55:04.89	29.87	2.10	-55.0	-70.9	3.8	1.49e+00	0	31	0	0	75	23502
2026-01-02 01:55:08.90	29.77	2.35	-55.0	-70.9	3.8	1.49e+00	0	31	104	0	75	23510
2026-01-02 01:55:12.91	29.67	2.60	-55.0	-70.9	3.8	1.49e+00	0	31	104	0	75	23518
2026-01-02 01:55:16.90	29.56	2.86	-55.0	-70.9	3.8	1.49e+00	0	31	104	0	75	23518
2026-01-02 01:55:20.91	29.46	3.12	-55.0	-70.9	3.8	1.49e+00	0	31	104	0	75	23492
2026-01-02 01:55:24.90	29.35	3.38	-55.0	-70.9	3.8	1.49e+00	0	31	104	0	75	23520
2026-01-02 01:55:28.90	29.24	3.65	-55.0	-70.9	3.8	1.49e+00	0	31	104	0	75	23373
2026-01-02 01:55:32.90	29.12	3.91	-55.0	-70.8	3.8	1.49e+00	0	32	104	0	75	23247
2026-01-02 01:55:36.89	29.01	4.18	-55.0	-70.8	3.8	1.49e+00	0	32	104	0	75	23290
2026-01-02 01:55:40.89	28.89	4.46	-55.0	-70.8	3.8	1.49e+00	0	32	104	0	75	23288
2026-01-02 01:55:44.89	28.77	4.73	-55.0	-70.9	3.8	1.49e+00	0	32	104	0	75	23430
2026-01-02 01:55:48.91	28.65	5.01	-55.0	-70.9	3.8	1.49e+00	0	32	104	0	75	23547
2026-01-02 01:55:52.91	28.52	5.29	-55.0	-70.9	3.8	1.49e+00	0	32	104	0	75	23473
2026-01-02 01:55:56.91	28.39	5.57	-55.0	-70.9	3.8	1.49e+00	0	32	104	0	75	23425
2026-01-02 01:56:00.92	28.26	5.86	-55.0	-70.9	3.8	1.49e+00	0	32	104	0	75	23487
2026-01-02 01:56:04.93	28.12	6.15	-55.0	-70.9	3.8	1.49e+00	0	32	104	0	75	23504
2026-01-02 01:56:08.93	27.98	6.44	-55.0	-70.9	3.8	1.49e+00	0	32	104	0	75	23580
2026-01-02 01:56:12.94	27.84	6.74	-55.0	-70.9	3.8	1.49e+00	0	32	104	0	75	23530
2026-01-02 01:56:16.94	27.70	7.03	-55.0	-70.9	3.8	1.49e+00	0	32	104	0	75	23422
2026-01-02 01:56:20.93	27.55	7.33	-55.0	-70.9	3.8	1.49e+00	0	32	104	0	75	23474
2026-01-02 01:56:24.92	27.40	7.64	-55.0	-70.9	3.8	1.49e+00	0	32	104	0	75	23413
2026-01-02 01:56:28.91	27.25	7.95	-55.0	-70.9	3.8	1.49e+00	0	32	104	0	75	23522
2026-01-02 01:56:32.88	27.09	8.26	-55.0	-70.9	3.8	1.49e+00	0	32	104	0	75	23579
2026-01-02 01:56:36.87	26.93	8.57	-55.0	-70.9	3.8	1.49e+00	0	32	104	0	75	23537
2026-01-02 01:56:40.87	26.76	8.89	-55.0	-70.9	3.8	1.49e+00	0	32	104	0	75	23455
2026-01-02 01:56:44.89	26.59	9.22	-55.0	-70.9	3.8	1.49e+00	0	32	104	0	75	23501
2026-01-02 01:56:48.89	26.42	9.54	-55.0	-70.9	3.8	1.49e+00	0	32	104	0	75	23540
2026-01-02 01:56:52.90	26.24	9.87	-55.0	-70.9	3.8	1.49e+00	0	32	104	0	75	23531
2026-01-02 01:56:56.89	26.05	10.21	-55.0	-70.9	3.8	1.49e+00	0	32	104	0	75	23485
2026-01-02 01:57:00.87	25.87	10.55	-55.0	-70.9	3.8	1.49e+00	0	32	104	0	75	23439
2026-01-02 01:57:04.87	25.67	10.89	-55.0	-70.9	3.8	1.49e+00	0	32	104	0	75	23501
2026-01-02 01:57:08.87	25.48	11.24	-55.0	-70.9	3.8	1.49e+00	0	32	104	0	75	23567
2026-01-02 01:57:12.88	25.27	11.59	-55.0	-71.0	3.8	1.49e+00	0	32	104	0	75	23615
2026-01-02 01:57:16.88	25.07	11.95	-55.0	-70.9	3.8	1.49e+00	0	32	104	0	75	23560
2026-01-02 01:57:20.87	24.85	12.32	-55.0	-70.9	3.8	1.49e+00	0	32	104	0	75	23526
2026-01-02 01:57:24.88	24.63	12.68	-55.0	-70.9	3.8	1.49e+00	0	32	104	0	75	23474
2026-01-02 01:57:28.85	24.41	13.05	-55.0	-70.9	3.8	1.49e+00	0	32	104	0	75	23531
2026-01-02 01:57:32.84	24.18	13.43	-55.0	-70.9	3.8	1.49e+00	0	32	104	0	75	23568
2026-01-02 01:57:36.83	23.94	13.82	-55.0	-71.0	3.8	1.49e+00	0	33	104	0	75	23602
2026-01-02 01:57:40.82	23.70	14.20	-55.0	-70.9	3.8	1.49e+00	0	33	104	0	75	23549
2026-01-02 01:57:44.82	23.44	14.60	-55.0	-71.0	3.8	1.49e+00	0	33	104	0	75	23617
2026-01-02 01:57:48.83	23.18	15.00	-55.0	-71.0	3.8	1.49e+00	0	33	104	0	75	23670
2026-01-02 01:57:52.83	22.92	15.41	-55.0	-71.0	3.8	1.49e+00	0	33	104	0	75	23590
2026-01-02 01:57:56.84	22.64	15.82	-55.0	-70.9	3.8	1.49e+00	0	33	104	0	75	23489
2026-01-02 01:58:00.84	22.36	16.24	-55.0	-70.9	3.8	1.49e+00	0	32	104	0	75	23478
2026-01-02 01:58:04.85	22.07	16.67	-55.0	-70.9	3.8	1.49e+00	0	33	104	0	75	23464
2026-01-02 01:58:08.85	21.77	17.11	-55.0	-70.9	3.8	1.49e+00	0	33	104	0	75	23368
2026-01-02 01:58:12.87	21.46	17.55	-55.0	-70.9	3.8	1.49e+00	0	32	104	0	75	23318
2026-01-02 01:58:16.87	21.14	17.99	-55.0	-70.9	3.8	1.49e+00	0	33	104	0	75	23475
2026-01-02 01:58:20.88	20.81	18.45	-55.0	-70.9	3.8	1.49e+00	0	33	104	0	75	23535
2026-01-02 01:58:24.89	20.47	18.91	-55.0	-70.9	3.8	1.49e+00	0	33	104	0	75	23559
2026-01-02 01:58:28.88	20.12	19.38	-55.0	-70.9	3.8	1.49e+00	0	33	104	0	75	23552
2026-01-02 01:58:32.88	19.76	19.86	-55.0	-71.0	3.8	1.49e+00	0	33	104	0	75	23624
2026-01-02 01:58:36.88	19.38	20.35	-55.0	-70.9	3.8	1.49e+00	0	33	104	0	75	23573
2026-01-02 01:58:40.87	19.00	20.84	-55.0	-71.0	3.8	1.49e+00	0	33	104	0	75	23623
2026-01-02 01:58:44.88	18.60	21.34	-55.0	-70.9	3.8	1.49e+00	0	33	104	0	75	23580
2026-01-02 01:58:48.87	18.18	21.85	-55.0	-71.0	3.8	1.49e+00	0	33	104	0	75	23628
2026-01-02 01:58:52.88	17.75	22.37	-55.0	-71.0	3.8	1.49e+00	0	33	104	0	75	23589
2026-01-02 01:58:56.88	17.31	22.90	-55.0	-70.9	3.8	1.49e+00	0	33	104	0	75	23570
2026-01-02 01:59:00.87	16.85	23.44	-55.0	-71.0	3.8	1.49e+00	0	33	104	0	75	23680
2026-01-02 01:59:04.86	16.38	23.98	-55.0	-70.9	3.8	1.49e+00	0	33	104	0	75	23574
2026-01-02 01:59:08.86	15.88	24.54	-55.0	-71.0	3.8	1.49e+00	0	33	104	0	75	23613
2026-01-02 01:59:12.86	15.37	25.11	-55.0	-70.9	3.8	1.49e+00	0	33	104	0	75	23565
2026-01-02 01:59:16.87	14.84	25.68	-55.0	-71.0	3.8	1.49e+00	0	33	104	0	75	23597
2026-01-02 01:59:20.88	14.29	26.27	-55.0	-71.0	3.8	1.49e+00	0	33	104	0	75	23590
2026-01-02 01:59:24.88	13.71	26.86	-55.0	-71.0	3.8	1.49e+00	0	33	104	0	75	23659
2026-01-02 01:59:28.87	13.12	27.47	-55.0	-71.0	3.8	1.49e+00	0	33	104	0	75	23661
2026-01-02 01:59:32.85	12.50	28.08	-55.0	-71.0	3.8	1.49e+00	0	33	104	0	75	23724
2026-01-02 01:59:36.86	11.86	28.71	-55.0	-71.0	3.8	1.49e+00	0	33	104	0	75	23621
2026-01-02 01:59:40.85	11.19	29.34	-55.0	-71.0	3.9	1.49e+00	0	33	104	0	75	23629
2026-01-02 01:59:44.86	10.49	29.99	-55.0	-71.0	3.8	1.49e+00	0	33	104	0	75	23681
2026-01-02 01:59:48.85	9.76	30.64	-55.0	-71.0	3.8	1.49e+00	0	33	104	0	75	23612
2026-01-02 01:59:52.84	9.01	31.30	-55.0	-71.0	3.8	1.49e+00	0	33	104	0	75	23614
2026-01-02 01:59:56.84	8.22	31.97	-55.0	-71.0	3.8	1.49e+00	0	33	104	0	75	23674
2026-01-02 02:00:00.86	7.39	32.66	-55.0	-71.0	3.8	1.49e+00	0	33	104	0	75	23646
2026-01-02 02:00:04.86	6.52	33.35	-55.0	-71.0	3.8	1.49e+00	0	33	104	0	75	23639
2026-01-02 02:00:08.86	5.62	34.05	-55.0	-71.0	3.8	1.49e+00	0	33	104	0	75	23636
2026-01-02 02:00:12.87	4.68	34.76	-55.0	-71.0	3.8	1.49e+00	0	33	104	0	75	23595
2026-01-02 02:00:16.87	3.70	35.47	-55.1	-71.0	3.9	1.49e+00	0	33	104	0	75	23625
2026-01-02 02:00:20.87	2.67	36.19	-55.0	-71.0	3.8	1.49e+00	0	33	104	0	75	23712
2026-01-02 02:00:24.87	1.60	36.91	-55.0	-71.0	3.8	1.49e+00	0	33	104	0	75	23718
2026-01-02 02:00:28.87	0.47	37.64	-55.0	-71.0	3.8	1.49e+00	0	33	104	0	75	23607
2026-01-02 02:00:32.86	359.30	38.37	-55.0	-71.0	3.8	1.49e+00	0	33	104	0	75	23655
2026-01-02 02:00:36.84	358.08	39.10	-55.0	-71.0	3.8	1.49e+00	0	33	104	0	75	23646
2026-01-02 02:00:40.82	356.80	39.83	-55.0	-71.0	3.8	1.49e+00	0	33	104	0	75	23690
2026-01-02 02:00:44.82	355.45	40.56	-55.0	-71.0	3.8	1.49e+00	0	33	104	0	75	23646
2026-01-02 02:00:48.83	354.04	41.28	-55.0	-71.0	3.8	1.49e+00	0	33	104	0	75	23621
2026-01-02 02:00:52.83	352.56	42.00	-55.0	-71.0	3.8	1.49e+00	0	33	104	0	75	23582
2026-01-02 02:00:56.83	351.02	42.71	-55.0	-70.9	3.8	1.49e+00	0	33	104	0	75	23578
2026-01-02 02:01:00.84	349.40	43.41	-55.0	-71.0	3.8	1.49e+00	0	33	104	0	75	23602
2026-01-02 02:01:04.84	347.72	44.10	-55.0	-71.0	3.8	1.49e+00	0	33	104	0	75	23605
2026-01-02 02:01:08.84	345.96	44.77	-55.0	-71.0	3.8	1.49e+00	0	33	104	0	75	23668
2026-01-02 02:01:12.85	344.13	45.42	-55.0	-71.0	3.8	1.49e+00	0	33	104	0	75	23628
2026-01-02 02:01:16.84	342.22	46.04	-55.0	-71.0	3.8	1.49e+00	0	33	104	0	75	23601
2026-01-02 02:01:20.85	340.23	46.64	-55.0	-71.0	3.8	1.49e+00	0	33	104	0	75	23655
2026-01-02 02:01:24.85	338.17	47.20	-55.0	-71.0	3.8	1.49e+00	0	33	104	0	75	23606
2026-01-02 02:01:28.86	336.04	47.73	-55.0	-71.0	3.8	1.49e+00	0	33	104	0	75	23616
2026-01-02 02:01:32.87	333.82	48.23	-55.0	-71.0	3.8	1.49e+00	0	33	104	0	75	23627
2026-01-02 02:01:36.86	331.56	48.67	-55.0	-71.0	3.8	1.49e+00	0	33	104	0	75	23597
2026-01-02 02:01:40.86	329.22	49.08	-55.0	-71.0	3.8	1.49e+00	0	33	104	0	75	23614
2026-01-02 02:01:44.84	326.83	49.43	-55.0	-71.0	3.8	1.49e+00	0	33	104	0	75	23638
2026-01-02 02:01:48.84	324.38	49.73	-55.0	-71.0	3.8	1.49e+00	0	33	104	0	75	23593
2026-01-02 02:01:52.83	321.89	49.97	-55.0	-71.0	3.8	1.49e+00	0	33	104	0	75	23632
2026-01-02 02:01:56.84	319.36	50.16	-55.0	-71.0	3.8	1.49e+00	0	33	104	0	75	23652
2026-01-02 02:02:00.84	316.80	50.29	-55.0	-71.0	3.8	1.49e+00	0	33	104	0	75	23632
2026-01-02 02:02:04.85	314.22	50.36	-55.0	-71.0	3.8	1.49e+00	0	33	104	0	75	23653
2026-01-02 02:02:08.85	311.64	50.36	-55.0	-71.0	3.8	1.49e+00	0	33	104	0	75	23668
2026-01-02 02:02:12.86	309.06	50.31	-55.0	-71.0	3.8	1.49e+00	0	33	104	0	75	23648
2026-01-02 02:02:16.85	306.50	50.19	-55.0	-71.0	3.8	1.49e+00	0	33	104	0	75	23620
2026-01-02 02:02:20.86	303.96	50.01	-55.0	-71.0	3.8	1.49e+00	0	33	104	0	75	23602
2026-01-02 02:02:24.86	301.46	49.78	-55.0	-71.0	3.8	1.49e+00	0	33	104	0	75	23687
2026-01-02 02:02:28.86	299.00	49.48	-55.0	-71.0	3.8	1.49e+00	0	33	104	0	75	23608
2026-01-02 02:02:32.87	296.59	49.14	-55.0	-71.0	3.8	1.49e+00	0	33	104	0	75	23674
2026-01-02 02:02:36.86	294.24	48.74	-55.0	-71.0	3.8	1.49e+00	0	33	104	0	75	23688
2026-01-02 02:02:40.84	291.96	48.31	-55.0	-71.0	3.8	1.49e+00	0	33	104	0	75	23686
2026-01-02 02:02:44.83	289.75	47.82	-55.0	-71.0	3.8	1.49e+00	0	33	104	0	75	23638
2026-01-02 02:02:48.83	287.60	47.30	-55.0	-71.0	3.8	1.49e+00	0	33	104	0	75	23590
2026-01-02 02:02:52.82	285.53	46.74	-55.0	-71.0	3.8	1.49e+00	0	33	104	0	75	23629
2026-01-02 02:02:56.83	283.52	46.15	-55.0	-71.0	3.8	1.49e+00	0	33	104	0	75	23631
2026-01-02 02:03:00.81	281.61	45.53	-55.0	-71.0	3.8	1.49e+00	0	33	104	0	75	23633
2026-01-02 02:03:04.81	279.76	44.89	-55.0	-70.9	3.8	1.49e+00	0	33	104	0	75	23577
2026-01-02 02:03:08.81	277.98	44.22	-55.0	-71.0	3.8	1.49e+00	0	33	104	0	75	23596
2026-01-02 02:03:12.80	276.29	43.54	-55.0	-71.0	3.8	1.49e+00	0	33	104	0	75	23660
2026-01-02 02:03:16.79	274.66	42.84	-55.1	-71.0	3.8	1.49e+00	0	33	104	0	75	23656
2026-01-02 02:03:20.79	273.11	42.13	-55.0	-71.0	3.8	1.49e+00	0	33	104	0	75	23588
2026-01-02 02:03:24.78	271.62	41.41	-55.0	-71.0	3.8	1.49e+00	0	33	104	0	75	23612
2026-01-02 02:03:28.79	270.19	40.68	-55.0	-71.0	3.8	1.49e+00	0	33	104	0	75	23635
2026-01-02 02:03:32.80	268.83	39.95	-55.0	-71.0	3.8	1.49e+00	0	33	104	0	75	23608
2026-01-02 02:03:36.78	267.53	39.22	-55.0	-71.0	3.8	1.49e+00	0	33	104	0	75	23626
2026-01-02 02:03:40.78	266.29	38.49	-55.1	-71.0	3.8	1.49e+00	0	33	104	0	75	23673
2026-01-02 02:03:44.77	265.10	37.76	-55.0	-71.0	3.8	1.49e+00	0	33	104	0	75	23635
2026-01-02 02:03:48.78	263.96	37.03	-55.0	-71.0	3.8	1.49e+00	0	33	104	0	75	23672
2026-01-02 02:03:52.77	262.88	36.30	-55.0	-71.0	3.8	1.49e+00	0	33	104	0	75	23652
2026-01-02 02:03:56.76	261.85	35.58	-55.0	-71.0	3.8	1.49e+00	0	33	104	0	75	23598
2026-01-02 02:04:00.76	260.85	34.86	-55.0	-71.0	3.8	1.49e+00	0	33	104	0	75	23676
2026-01-02 02:04:04.78	259.90	34.15	-55.0	-71.0	3.8	1.49e+00	0	33	104	0	75	23670
2026-01-02 02:04:08.78	258.99	33.45	-55.0	-71.0	3.8	1.49e+00	0	33	104	0	75	23649
2026-01-02 02:04:12.77	258.12	32.76	-55.0	-71.0	3.8	1.49e+00	0	33	104	0	75	23647
2026-01-02 02:04:16.77	257.29	32.07	-55.0	-71.1	3.8	1.49e+00	0	33	104	0	75	23857
2026-01-02 02:04:20.76	256.49	31.40	-55.0	-71.0	3.8	1.49e+00	0	33	104	0	75	23599
2026-01-02 02:04:24.77	255.72	30.73	-55.0	-71.0	3.8	1.49e+00	0	33	104	0	75	23666
2026-01-02 02:04:28.79	254.98	30.07	-55.0	-71.0	3.8	1.49e+00	0	33	104	0	75	23661
2026-01-02 02:04:32.78	254.28	29.42	-55.0	-71.0	3.8	1.49e+00	0	33	104	0	75	23688
2026-01-02 02:04:36.78	253.60	28.78	-55.0	-71.0	3.8	1.49e+00	0	33	104	0	75	23641
2026-01-02 02:04:40.77	252.95	28.16	-55.1	-71.0	3.8	1.49e+00	0	33	104	0	75	23586
2026-01-02 02:04:44.77	252.33	27.54	-55.1	-70.9	3.8	1.49e+00	0	33	104	0	75	23576
2026-01-02 02:04:48.76	251.73	26.93	-55.1	-71.0	3.8	1.49e+00	0	33	104	0	75	23643
2026-01-02 02:04:52.75	251.15	26.33	-55.1	-71.0	3.8	1.49e+00	0	33	104	0	75	23710
2026-01-02 02:04:56.75	250.59	25.74	-55.0	-71.0	3.8	1.49e+00	0	33	104	0	75	23640
2026-01-02 02:05:00.74	250.05	25.17	-55.1	-71.0	3.8	1.49e+00	0	33	104	0	75	23664
2026-01-02 02:05:04.74	249.54	24.60	-55.0	-71.0	3.8	1.49e+00	0	33	104	0	75	23650
2026-01-02 02:05:08.74	249.04	24.04	-55.0	-71.0	3.8	1.49e+00	0	33	104	0	75	23646
2026-01-02 02:05:12.74	248.56	23.49	-55.0	-71.0	3.8	1.49e+00	0	33	104	0	75	23711
2026-01-02 02:05:16.74	248.09	22.95	-55.0	-71.0	3.8	1.49e+00	0	33	104	0	75	23656
2026-01-02 02:05:20.75	247.64	22.42	-55.0	-71.0	3.8	1.49e+00	0	33	104	0	75	23709
2026-01-02 02:05:24.74	247.21	21.89	-55.0	-71.0	3.8	1.49e+00	0	33	104	0	75	23683
2026-01-02 02:05:28.75	246.79	21.38	-55.0	-71.0	3.8	1.49e+00	0	33	104	0	75	23640
2026-01-02 02:05:32.75	246.39	20.87	-55.0	-71.0	3.8	1.49e+00	0	33	104	0	75	23657
2026-01-02 02:05:36.74	246.00	20.38	-55.1	-71.0	3.8	1.49e+00	0	33	104	0	75	23657
2026-01-02 02:05:40.73	245.62	19.89	-55.1	-71.0	3.8	1.49e+00	0	33	104	0	75	23744
2026-01-02 02:05:44.73	245.26	19.41	-55.1	-71.0	3.8	1.49e+00	0	33	104	0	75	23681
2026-01-02 02:05:48.72	244.90	18.94	-55.0	-71.0	3.8	1.49e+00	0	33	104	0	75	23684
2026-01-02 02:05:52.72	244.56	18.48	-55.0	-71.0	3.8	1.49e+00	0	33	104	0	75	23667
2026-01-02 02:05:56.72	244.23	18.02	-55.0	-71.0	3.8	1.49e+00	0	33	104	0	75	23751
2026-01-02 02:06:00.72	243.90	17.57	-55.0	-71.0	3.8	1.49e+00	0	33	104	0	75	23655
2026-01-02 02:06:04.72	243.59	17.13	-55.1	-71.0	3.8	1.49e+00	0	33	104	0	75	23611
2026-01-02 02:06:08.72	243.29	16.69	-55.0	-71.0	3.8	1.49e+00	0	33	104	0	75	23673
2026-01-02 02:06:12.71	242.99	16.26	-55.0	-71.0	3.8	1.49e+00	0	33	104	0	75	23706
2026-01-02 02:06:16.73	242.70	15.84	-55.0	-71.0	3.8	1.49e+00	0	33	104	0	75	23629
2026-01-02 02:06:20.73	242.43	15.42	-55.1	-71.0	3.8	1.49e+00	0	33	104	0	75	23703
2026-01-02 02:06:24.74	242.16	15.01	-55.0	-71.0	3.8	1.49e+00	0	33	104	0	75	23678
2026-01-02 02:06:28.74	241.89	14.61	-55.0	-71.0	3.8	1.49e+00	0	33	104	0	75	23679
2026-01-02 02:06:32.73	241.64	14.21	-55.1	-71.0	3.8	1.49e+00	0	33	104	0	75	23689
2026-01-02 02:06:36.74	241.39	13.82	-55.0	-71.0	3.9	1.49e+00	0	33	104	0	75	23692
2026-01-02 02:06:40.72	241.15	13.44	-55.1	-71.0	3.8	1.49e+00	0	33	104	0	75	23673
2026-01-02 02:06:44.72	240.92	13.06	-55.0	-71.0	3.8	1.49e+00	0	33	104	0	75	23690
2026-01-02 02:06:48.72	240.69	12.68	-55.0	-71.0	3.8	1.49e+00	0	33	104	0	75	23611
2026-01-02 02:06:52.74	240.46	12.31	-55.0	-71.0	3.8	1.49e+00	0	33	104	0	75	23658
2026-01-02 02:06:56.74	240.25	11.94	-55.0	-71.0	3.8	1.49e+00	0	33	104	0	75	23626
2026-01-02 02:07:00.73	240.04	11.58	-55.0	-71.0	3.8	1.49e+00	0	33	104	0	75	23640
2026-01-02 02:07:04.73	239.83	11.23	-55.0	-71.0	3.8	1.49e+00	0	33	104	0	75	23701
2026-01-02 02:07:08.74	239.63	10.88	-55.1	-71.0	3.8	1.49e+00	0	33	104	0	75	23637
2026-01-02 02:07:12.75	239.43	10.53	-55.0	-71.0	3.8	1.49e+00	0	33	104	0	75	23687
2026-01-02 02:07:16.73	239.24	10.19	-55.0	-71.0	3.8	1.49e+00	0	33	104	0	75	23682
2026-01-02 02:07:20.73	239.06	9.86	-55.0	-71.0	3.8	1.49e+00	0	33	104	0	75	23672
2026-01-02 02:07:24.74	238.87	9.52	-55.0	-71.0	3.8	1.49e+00	0	33	104	0	75	23691
2026-01-02 02:07:28.75	238.70	9.19	-55.0	-71.0	3.8	1.49e+00	0	33	104	0	75	23620
2026-01-02 02:07:32.73	238.52	8.87	-55.0	-71.0	3.8	1.49e+00	0	33	104	0	75	23665
2026-01-02 02:07:36.71	238.36	8.55	-55.1	-71.0	3.8	1.49e+00	0	33	104	0	75	23722
2026-01-02 02:07:40.71	238.19	8.23	-55.0	-71.0	3.8	1.49e+00	0	33	104	0	75	23675
2026-01-02 02:07:44.69	238.03	7.92	-55.0	-71.0	3.8	1.49e+00	0	33	104	0	75	23636
2026-01-02 02:07:48.68	237.87	7.61	-55.1	-71.0	3.8	1.49e+00	0	33	104	0	75	23617
2026-01-02 02:07:52.67	237.72	7.31	-55.0	-71.0	3.8	1.49e+00	0	33	104	0	75	23685
2026-01-02 02:07:56.67	237.57	7.01	-55.0	-71.0	3.8	1.49e+00	0	33	104	0	75	23662
2026-01-02 02:08:00.67	237.42	6.71	-55.0	-71.0	3.8	1.49e+00	0	33	104	0	75	23668
2026-01-02 02:08:04.67	237.28	6.41	-54.7	-70.7	3.8	1.49e+00	0	33	104	0	74	24396
2026-01-02 02:08:08.68	237.14	6.12	-55.1	-71.0	3.8	1.49e+00	0	33	104	0	75	23687
2026-01-02 02:08:12.68	237.00	5.83	-55.0	-71.0	3.8	1.49e+00	0	33	104	0	75	23680
2026-01-02 02:08:16.67	236.86	5.54	-55.0	-71.0	3.8	1.49e+00	0	33	104	0	75	23655
2026-01-02 02:08:20.67	236.73	5.26	-55.0	-71.0	3.8	1.49e+00	0	33	104	0	75	23691
2026-01-02 02:08:24.68	236.60	4.98	-55.0	-71.0	3.8	1.49e+00	0	33	104	0	75	23694
2026-01-02 02:08:28.68	236.48	4.70	-55.0	-71.0	3.8	1.49e+00	0	33	104	0	75	23700
2026-01-02 02:08:32.68	236.35	4.42	-55.1	-71.0	3.8	1.49e+00	0	33	104	0	75	23703
2026-01-02 02:08:36.68	236.23	4.15	-55.1	-71.0	3.8	1.49e+00	0	33	104	0	75	23675
2026-01-02 02:08:40.67	236.11	3.88	-55.1	-71.0	3.8	1.49e+00	0	33	104	0	75	23697
2026-01-02 02:08:44.67	236.00	3.61	-55.1	-71.0	3.8	1.49e+00	0	33	104	0	75	23678
2026-01-02 02:08:48.67	235.88	3.35	-55.0	-71.0	3.8	1.49e+00	0	33	104	0	75	23720
2026-01-02 02:08:52.66	235.77	3.08	-55.1	-71.0	3.8	1.49e+00	0	33	104	0	75	23729
2026-01-02 02:08:56.64	235.66	2.82	-55.1	-71.0	3.8	1.49e+00	0	33	104	0	75	23736
2026-01-02 02:09:00.64	235.55	2.57	-55.0	-71.0	3.8	1.49e+00	0	33	104	0	75	23702
2026-01-02 02:09:04.64	235.45	2.31	-55.1	-71.0	3.8	1.49e+00	0	33	104	0	75	23745
2026-01-02 02:09:08.65	235.34	2.06	-55.0	-71.0	3.8	1.49e+00	0	33	104	0	75	23664

#Closed at: 2026-01-02 02:09:10
#Recorded file [0 MB]: D:/lorett/data/31004_260102_045504.dat