passes_logs/2026/01/02/R3.2S_Murmansk/R3.2S_Murmansk__20260102_050128_KANOPUS-V-IK_rec.log

#Pass ID: 20260102_050128_KANOPUS-V-IK
#Satellite: KANOPUS-V-IK
#Configuration: KANOPUS-V_8128
#almurnet v.1.7.20251203
#Start time: 2026-01-02 05:01:28

#Version: 2.2.20231116
#Station: R3.2S_Murmansk
#Location: 33.079688 lon 68.888172 lat
#TLE: 1 42825U 17042A   26001.21266440  .00005755  00000+0  24506-3 0  9990
#TLE: 2 42825  97.3692 269.9908 0001826  86.2004 273.9442 15.23363314469954

#Time	Az	El	Level	Level2	SNR	BER	BlckErr	Temp	State	Recorded	gain1	gain2
2026-01-02 05:01:28.11	87.39	1.98	-54.3	-65.0	3.8	7.44e-01	0	31	0	0	76	13206
2026-01-02 05:01:30.11	87.19	2.09	-54.3	-65.0	3.8	7.45e-01	0	31	104	0	76	13240
2026-01-02 05:01:32.11	86.99	2.21	-54.3	-65.0	3.8	7.46e-01	0	31	104	0	76	13240
2026-01-02 05:01:34.11	86.78	2.33	-54.3	-65.0	3.8	7.47e-01	0	31	104	0	76	13225
2026-01-02 05:01:36.11	86.58	2.45	-54.3	-65.1	3.8	7.45e-01	0	31	104	0	76	13294
2026-01-02 05:01:38.11	86.37	2.57	-54.3	-65.0	3.8	7.45e-01	0	31	104	0	76	13251
2026-01-02 05:01:40.10	86.16	2.69	-54.3	-65.0	3.8	7.45e-01	0	31	104	0	76	13249
2026-01-02 05:01:42.10	85.95	2.81	-54.3	-65.1	3.8	7.46e-01	0	31	104	0	76	13299
2026-01-02 05:01:44.11	85.74	2.94	-54.3	-65.1	3.8	7.46e-01	0	31	104	0	76	13298
2026-01-02 05:01:46.11	85.52	3.06	-54.3	-65.1	3.8	7.44e-01	0	31	104	0	76	13269
2026-01-02 05:01:48.10	85.30	3.18	-54.3	-65.1	3.8	7.44e-01	0	31	104	0	76	13299
2026-01-02 05:01:50.10	85.08	3.30	-54.3	-65.1	3.8	7.45e-01	0	31	104	0	76	13330
2026-01-02 05:01:52.10	84.86	3.43	-54.3	-65.1	3.8	7.44e-01	0	31	104	0	76	13264
2026-01-02 05:01:54.09	84.63	3.55	-54.3	-65.1	3.8	7.45e-01	0	31	104	0	76	13286
2026-01-02 05:01:56.08	84.41	3.67	-54.3	-65.0	3.8	7.47e-01	0	31	104	0	76	13259
2026-01-02 05:01:58.09	84.17	3.80	-54.4	-65.1	3.8	7.46e-01	0	31	104	0	76	13308
2026-01-02 05:02:00.09	83.94	3.92	-54.3	-65.1	3.8	7.45e-01	0	31	104	0	76	13292
2026-01-02 05:02:02.09	83.70	4.05	-54.3	-65.1	3.8	7.46e-01	0	31	104	0	76	13283
2026-01-02 05:02:04.08	83.46	4.17	-54.3	-65.1	3.8	7.46e-01	0	31	104	0	76	13293
2026-01-02 05:02:06.08	83.22	4.30	-54.3	-65.1	3.8	7.45e-01	0	31	104	0	76	13285
2026-01-02 05:02:08.08	82.98	4.42	-54.3	-65.1	3.8	7.46e-01	0	32	104	0	76	13319
2026-01-02 05:02:10.08	82.73	4.55	-54.3	-65.1	3.8	7.47e-01	0	32	104	0	76	13321
2026-01-02 05:02:12.07	82.48	4.68	-54.3	-65.1	3.8	7.45e-01	0	32	104	0	76	13343
2026-01-02 05:02:14.07	82.23	4.80	-54.3	-65.1	3.8	7.46e-01	0	32	104	0	76	13337
2026-01-02 05:02:16.07	81.97	4.93	-54.4	-65.1	3.8	7.46e-01	0	32	104	0	76	13302
2026-01-02 05:02:18.08	81.71	5.06	-54.4	-65.1	3.8	7.45e-01	0	32	104	0	76	13325
2026-01-02 05:02:20.09	81.45	5.19	-54.4	-65.1	3.9	7.45e-01	0	32	104	0	76	13316
2026-01-02 05:02:22.09	81.19	5.32	-54.4	-65.1	3.8	7.46e-01	0	32	104	0	76	13333
2026-01-02 05:02:24.09	80.92	5.45	-54.4	-65.1	3.8	7.46e-01	0	32	104	0	76	13324
2026-01-02 05:02:26.10	80.65	5.58	-54.4	-65.1	3.8	7.46e-01	0	32	104	0	76	13334
2026-01-02 05:02:28.09	80.37	5.71	-54.4	-65.1	3.8	7.46e-01	0	32	104	0	76	13352
2026-01-02 05:02:30.09	80.10	5.84	-54.4	-65.1	3.8	7.46e-01	0	32	104	0	76	13306
2026-01-02 05:02:32.08	79.82	5.97	-54.4	-65.1	3.8	7.47e-01	0	32	104	0	76	13286
2026-01-02 05:02:34.09	79.53	6.10	-54.4	-65.1	3.8	7.45e-01	0	32	104	0	76	13280
2026-01-02 05:02:36.09	79.24	6.23	-54.4	-65.1	3.8	7.47e-01	0	32	104	0	76	13339
2026-01-02 05:02:38.10	78.95	6.36	-54.4	-65.1	3.8	7.44e-01	0	32	104	0	76	13296
2026-01-02 05:02:40.09	78.66	6.49	-54.4	-65.1	3.8	7.45e-01	0	32	104	0	76	13351
2026-01-02 05:02:42.11	78.36	6.63	-54.4	-65.1	3.8	7.46e-01	0	32	104	0	76	13345
2026-01-02 05:02:44.11	78.06	6.76	-54.4	-65.1	3.8	7.45e-01	0	32	104	0	76	13369
2026-01-02 05:02:46.11	77.75	6.89	-54.4	-65.1	3.8	7.45e-01	0	32	104	0	76	13355
2026-01-02 05:02:48.11	77.45	7.03	-54.4	-65.1	3.8	7.44e-01	0	32	104	0	76	13352
2026-01-02 05:02:50.11	77.13	7.16	-54.4	-65.1	3.8	7.46e-01	0	32	104	0	76	13300
2026-01-02 05:02:52.10	76.82	7.29	-54.4	-65.1	3.8	7.46e-01	0	32	104	0	76	13325
2026-01-02 05:02:54.09	76.50	7.43	-54.4	-65.1	3.8	7.44e-01	0	32	104	0	76	13361
2026-01-02 05:02:56.09	76.18	7.56	-54.4	-65.1	3.8	7.45e-01	0	32	104	0	76	13313
2026-01-02 05:02:58.09	75.85	7.70	-54.4	-65.1	3.8	7.46e-01	0	32	104	0	76	13322
2026-01-02 05:03:00.08	75.53	7.83	-54.4	-65.1	3.8	7.45e-01	0	32	104	0	76	13336
2026-01-02 05:03:02.08	75.19	7.96	-54.4	-65.1	3.8	7.45e-01	0	32	104	0	76	13353
2026-01-02 05:03:04.09	74.85	8.10	-54.4	-65.1	3.8	7.46e-01	0	32	104	0	76	13371
2026-01-02 05:03:06.08	74.51	8.23	-54.4	-65.1	3.8	7.44e-01	0	32	104	0	76	13375
2026-01-02 05:03:08.07	74.17	8.37	-54.4	-65.1	3.8	7.44e-01	0	32	104	0	76	13318
2026-01-02 05:03:10.07	73.82	8.50	-54.4	-65.1	3.8	7.46e-01	0	32	104	0	76	13358
2026-01-02 05:03:12.08	73.46	8.64	-54.4	-65.1	3.8	7.45e-01	0	32	104	0	76	13353
2026-01-02 05:03:14.08	73.10	8.78	-54.4	-65.1	3.8	7.46e-01	0	32	104	0	76	13357
2026-01-02 05:03:16.07	72.74	8.91	-54.4	-65.1	3.8	7.47e-01	0	32	104	0	76	13322
2026-01-02 05:03:18.06	72.38	9.05	-54.4	-65.1	3.8	7.44e-01	0	32	104	0	76	13321
2026-01-02 05:03:20.07	72.00	9.18	-54.4	-65.1	3.8	7.47e-01	0	32	104	0	76	13352
2026-01-02 05:03:22.07	71.63	9.32	-54.4	-65.1	3.8	7.45e-01	0	32	104	0	76	13377
2026-01-02 05:03:24.06	71.25	9.45	-54.4	-65.1	3.8	7.46e-01	0	32	104	0	76	13352
2026-01-02 05:03:26.05	70.86	9.59	-54.4	-65.1	3.8	7.45e-01	0	32	104	0	76	13351
2026-01-02 05:03:28.05	70.48	9.72	-54.4	-65.1	3.8	7.46e-01	0	32	104	0	76	13385
2026-01-02 05:03:30.05	70.08	9.86	-54.4	-65.1	3.8	7.46e-01	0	32	104	0	76	13385
2026-01-02 05:03:32.04	69.69	9.99	-54.4	-65.1	3.8	7.44e-01	0	32	104	0	76	13363
2026-01-02 05:03:34.04	69.28	10.13	-54.4	-65.1	3.8	7.46e-01	0	32	104	0	76	13388
2026-01-02 05:03:36.05	68.87	10.27	-54.4	-65.1	3.8	7.44e-01	0	32	104	0	76	13392
2026-01-02 05:03:38.05	68.46	10.40	-54.4	-65.1	3.8	7.46e-01	0	32	104	0	76	13327
2026-01-02 05:03:40.05	68.04	10.54	-54.4	-65.1	3.8	7.46e-01	0	32	104	0	76	13398
2026-01-02 05:03:42.05	67.62	10.67	-54.4	-65.2	3.8	7.47e-01	0	32	104	0	76	13418
2026-01-02 05:03:44.06	67.19	10.80	-54.4	-65.1	3.8	7.47e-01	0	32	104	0	76	13394
2026-01-02 05:03:46.05	66.76	10.94	-54.4	-65.1	3.8	7.44e-01	0	33	104	0	76	13406
2026-01-02 05:03:48.04	66.33	11.07	-54.4	-65.1	3.8	7.47e-01	0	33	104	0	76	13384
2026-01-02 05:03:50.05	65.89	11.20	-54.4	-65.1	3.8	7.46e-01	0	32	104	0	76	13317
2026-01-02 05:03:52.04	65.44	11.34	-54.3	-65.0	3.8	7.47e-01	0	32	104	0	76	13227
2026-01-02 05:03:54.03	64.99	11.47	-54.4	-65.0	3.8	7.44e-01	0	32	104	0	76	13208
2026-01-02 05:03:56.02	64.54	11.60	-54.4	-65.1	3.8	7.45e-01	0	33	104	0	76	13395
2026-01-02 05:03:58.01	64.08	11.73	-54.4	-65.1	3.8	7.46e-01	0	33	104	0	76	13362
2026-01-02 05:04:00.00	63.62	11.86	-54.4	-65.1	3.8	7.45e-01	0	33	104	0	76	13295
2026-01-02 05:04:02.00	63.14	11.99	-54.4	-65.1	3.8	7.46e-01	0	32	104	0	76	13292
2026-01-02 05:04:04.00	62.67	12.12	-54.4	-65.1	3.8	7.44e-01	0	33	104	0	76	13344
2026-01-02 05:04:05.99	62.19	12.24	-54.4	-65.1	3.8	7.47e-01	0	32	104	0	76	13279
2026-01-02 05:04:07.99	61.70	12.37	-54.4	-65.1	3.8	7.46e-01	0	32	104	0	76	13343
2026-01-02 05:04:09.98	61.21	12.50	-54.4	-65.1	3.8	7.45e-01	0	33	104	0	76	13355
2026-01-02 05:04:11.98	60.72	12.62	-54.4	-65.1	3.8	7.47e-01	0	32	104	0	76	13377
2026-01-02 05:04:13.98	60.21	12.75	-54.4	-65.1	3.8	7.46e-01	0	33	104	0	76	13343
2026-01-02 05:04:15.98	59.71	12.87	-54.4	-65.1	3.8	7.45e-01	0	33	104	0	76	13394
2026-01-02 05:04:17.98	59.19	12.99	-54.4	-65.1	3.8	7.46e-01	0	33	104	0	76	13328
2026-01-02 05:04:19.98	58.68	13.11	-54.4	-65.1	3.8	7.46e-01	0	33	104	0	76	13390
2026-01-02 05:04:21.97	58.16	13.23	-54.4	-65.1	3.8	7.46e-01	0	33	104	0	76	13345
2026-01-02 05:04:23.98	57.63	13.35	-54.4	-65.1	3.8	7.45e-01	0	33	104	0	76	13409
2026-01-02 05:04:25.98	57.09	13.47	-54.4	-65.1	3.8	7.46e-01	0	33	104	0	76	13372
2026-01-02 05:04:27.98	56.56	13.58	-54.4	-65.1	3.8	7.46e-01	0	33	104	0	76	13400
2026-01-02 05:04:29.98	56.01	13.70	-54.4	-65.1	3.8	7.46e-01	0	33	104	0	76	13380
2026-01-02 05:04:31.98	55.46	13.81	-54.4	-65.1	3.8	7.45e-01	0	32	104	0	76	13356
2026-01-02 05:04:33.97	54.91	13.92	-54.4	-65.1	3.8	7.46e-01	0	33	104	0	76	13370
2026-01-02 05:04:35.97	54.36	14.03	-54.4	-65.1	3.8	7.45e-01	0	33	104	0	76	13345
2026-01-02 05:04:37.95	53.80	14.14	-54.4	-65.1	3.8	7.45e-01	0	33	104	0	76	13351
2026-01-02 05:04:39.96	53.23	14.24	-54.4	-65.1	3.8	7.44e-01	0	32	104	0	76	13412
2026-01-02 05:04:41.96	52.65	14.35	-54.4	-65.1	3.8	7.46e-01	0	33	104	0	76	13286
2026-01-02 05:04:43.96	52.08	14.45	-54.4	-65.1	3.8	7.45e-01	0	33	104	0	76	13361
2026-01-02 05:04:45.97	51.49	14.55	-54.4	-65.1	3.8	7.46e-01	0	33	104	0	76	13402
2026-01-02 05:04:47.97	50.90	14.65	-54.4	-65.2	3.8	7.45e-01	0	33	104	0	76	13416
2026-01-02 05:04:49.96	50.32	14.75	-54.4	-65.1	3.8	7.47e-01	0	32	104	0	76	13367
2026-01-02 05:04:51.96	49.72	14.84	-54.4	-65.1	3.8	7.45e-01	0	33	104	0	76	13400
2026-01-02 05:04:53.95	49.12	14.93	-54.4	-65.2	3.8	7.45e-01	0	33	104	0	76	13415
2026-01-02 05:04:55.95	48.52	15.02	-54.4	-65.1	3.8	7.47e-01	0	33	104	0	76	13393
2026-01-02 05:04:57.94	47.91	15.11	-54.4	-65.1	3.8	7.44e-01	0	33	104	0	76	13413
2026-01-02 05:04:59.94	47.30	15.19	-54.4	-65.1	3.8	7.46e-01	0	33	104	0	76	13376
2026-01-02 05:05:01.93	46.68	15.27	-54.4	-65.2	3.8	7.45e-01	0	33	104	0	76	13442
2026-01-02 05:05:03.93	46.06	15.35	-54.4	-65.1	3.8	7.46e-01	0	33	104	0	76	13377
2026-01-02 05:05:05.92	45.44	15.43	-54.4	-65.1	3.8	7.45e-01	0	33	104	0	76	13396
2026-01-02 05:05:07.93	44.81	15.51	-54.4	-65.2	3.8	7.47e-01	0	33	104	0	76	13433
2026-01-02 05:05:09.93	44.17	15.58	-54.4	-65.1	3.8	7.44e-01	0	33	104	0	76	13377
2026-01-02 05:05:11.92	43.54	15.65	-54.4	-65.1	3.8	7.47e-01	0	33	104	0	76	13340
2026-01-02 05:05:13.92	42.90	15.71	-54.4	-65.1	3.8	7.46e-01	0	33	104	0	76	13364
2026-01-02 05:05:15.92	42.26	15.78	-54.4	-65.1	3.8	7.47e-01	0	33	104	0	76	13301
2026-01-02 05:05:17.91	41.61	15.83	-54.4	-65.2	3.8	7.45e-01	0	33	104	0	76	13422
2026-01-02 05:05:19.91	40.97	15.89	-54.4	-65.2	3.8	7.44e-01	0	33	104	0	76	13462
2026-01-02 05:05:21.90	40.32	15.95	-54.4	-65.2	3.8	7.45e-01	0	33	104	0	76	13420
2026-01-02 05:05:23.91	39.66	16.00	-54.4	-65.1	3.8	7.46e-01	0	33	104	0	76	13399
2026-01-02 05:05:25.90	39.01	16.04	-54.4	-65.1	3.8	7.46e-01	0	33	104	0	76	13356
2026-01-02 05:05:27.90	38.35	16.09	-54.4	-65.1	3.8	7.46e-01	0	33	104	0	76	13361
2026-01-02 05:05:29.89	37.69	16.13	-54.3	-65.1	3.8	7.46e-01	0	33	104	0	76	13398
2026-01-02 05:05:31.89	37.02	16.17	-54.4	-65.1	3.8	7.46e-01	0	33	104	0	76	13391
2026-01-02 05:05:33.89	36.36	16.20	-54.4	-65.1	3.8	7.45e-01	0	33	104	0	76	13411
2026-01-02 05:05:35.88	35.69	16.23	-54.4	-65.2	3.8	7.46e-01	0	32	104	0	76	13465
2026-01-02 05:05:37.87	35.03	16.26	-54.4	-65.1	3.8	7.47e-01	0	33	104	0	76	13407
2026-01-02 05:05:39.87	34.36	16.28	-54.4	-65.1	3.8	7.45e-01	0	33	104	0	76	13327
2026-01-02 05:05:41.87	33.69	16.31	-54.4	-65.1	3.8	7.47e-01	0	33	104	0	76	13388
2026-01-02 05:05:43.88	33.01	16.32	-54.4	-65.1	3.8	7.46e-01	0	33	104	0	76	13361
2026-01-02 05:05:45.88	32.34	16.34	-54.4	-65.1	3.8	7.47e-01	0	33	104	0	76	13356
2026-01-02 05:05:47.87	31.67	16.35	-54.4	-65.1	3.8	7.45e-01	0	33	104	0	76	13352
2026-01-02 05:05:49.88	30.99	16.35	-54.4	-65.1	3.8	7.47e-01	0	33	104	0	76	13302
2026-01-02 05:05:51.89	30.31	16.36	-54.4	-65.1	3.8	7.44e-01	0	33	104	0	76	13400
2026-01-02 05:05:53.87	29.64	16.36	-54.4	-65.1	3.8	7.44e-01	0	33	104	0	76	13382
2026-01-02 05:05:55.87	28.97	16.35	-54.3	-65.1	3.8	7.45e-01	0	33	104	0	76	13400
2026-01-02 05:05:57.85	28.30	16.35	-54.4	-65.1	3.8	7.44e-01	0	33	104	0	76	13378
2026-01-02 05:05:59.84	27.63	16.34	-54.4	-65.1	3.8	7.45e-01	0	33	104	0	76	13395
2026-01-02 05:06:01.83	26.96	16.32	-54.4	-65.1	3.8	7.47e-01	0	33	104	0	76	13399
2026-01-02 05:06:03.83	26.29	16.31	-54.4	-65.1	3.8	7.47e-01	0	33	104	0	76	13384
2026-01-02 05:06:05.83	25.62	16.28	-54.4	-65.1	3.8	7.46e-01	0	33	104	0	76	13329
2026-01-02 05:06:07.81	24.95	16.26	-54.4	-65.2	3.8	7.46e-01	0	33	104	0	76	13429
2026-01-02 05:06:09.81	24.29	16.23	-54.4	-65.1	3.8	7.46e-01	0	33	104	0	76	13407
2026-01-02 05:06:11.79	23.63	16.20	-54.4	-65.2	3.8	7.45e-01	0	33	104	0	76	13455
2026-01-02 05:06:13.78	22.96	16.17	-54.4	-65.1	3.8	7.48e-01	0	33	104	0	76	13394
2026-01-02 05:06:15.79	22.30	16.13	-54.4	-65.1	3.8	7.45e-01	0	33	104	0	76	13370
2026-01-02 05:06:17.78	21.64	16.09	-54.4	-65.1	3.8	7.45e-01	0	33	104	0	76	13360
2026-01-02 05:06:19.77	20.98	16.04	-54.4	-65.1	3.8	7.45e-01	0	33	104	0	76	13382
2026-01-02 05:06:21.78	20.32	16.00	-54.4	-65.1	3.8	7.45e-01	0	33	104	0	76	13385
2026-01-02 05:06:23.78	19.67	15.95	-54.4	-65.1	3.8	7.46e-01	0	33	104	0	76	13411
2026-01-02 05:06:25.76	19.03	15.89	-54.4	-65.2	3.8	7.45e-01	0	33	104	0	76	13429
2026-01-02 05:06:27.75	18.38	15.84	-54.4	-65.1	3.8	7.46e-01	0	33	104	0	76	13358
2026-01-02 05:06:29.75	17.73	15.78	-54.4	-65.1	3.8	7.46e-01	0	33	104	0	76	13356
2026-01-02 05:06:31.75	17.09	15.71	-54.4	-65.2	3.8	7.45e-01	0	33	104	0	76	13450
2026-01-02 05:06:33.75	16.45	15.65	-54.4	-65.2	3.8	7.46e-01	0	33	104	0	76	13451
2026-01-02 05:06:35.74	15.82	15.58	-54.4	-65.2	3.8	7.45e-01	0	33	104	0	76	13428
2026-01-02 05:06:37.74	15.19	15.51	-54.4	-65.1	3.8	7.47e-01	0	33	104	0	76	13410
2026-01-02 05:06:39.74	14.56	15.43	-54.4	-65.1	3.8	7.44e-01	0	33	104	0	76	13410
2026-01-02 05:06:41.74	13.94	15.36	-54.4	-65.1	3.8	7.46e-01	0	33	104	0	76	13397
2026-01-02 05:06:43.74	13.32	15.28	-54.4	-65.2	3.8	7.47e-01	0	33	104	0	76	13452
2026-01-02 05:06:45.75	12.70	15.19	-54.4	-65.1	3.8	7.46e-01	0	33	104	0	76	13410
2026-01-02 05:06:47.75	12.08	15.11	-54.4	-65.1	3.8	7.44e-01	0	33	104	0	76	13392
2026-01-02 05:06:49.75	11.48	15.02	-54.4	-65.1	3.8	7.45e-01	0	33	104	0	76	13399
2026-01-02 05:06:51.74	10.88	14.93	-54.4	-65.2	3.8	7.45e-01	0	33	104	0	76	13464
2026-01-02 05:06:53.74	10.28	14.84	-54.4	-65.2	3.8	7.45e-01	0	33	104	0	76	13488
2026-01-02 05:06:55.74	9.68	14.75	-54.4	-65.2	3.8	7.46e-01	0	33	104	0	76	13466
2026-01-02 05:06:57.74	9.09	14.65	-54.4	-65.1	3.8	7.44e-01	0	33	104	0	76	13382
2026-01-02 05:06:59.73	8.51	14.55	-54.4	-65.2	3.8	7.47e-01	0	33	104	0	76	13443
2026-01-02 05:07:01.72	7.93	14.45	-54.4	-65.1	3.8	7.47e-01	0	33	104	0	76	13386
2026-01-02 05:07:03.71	7.36	14.35	-54.4	-65.2	3.8	7.45e-01	0	33	104	0	76	13415
2026-01-02 05:07:05.71	6.78	14.25	-54.4	-65.2	3.8	7.44e-01	0	33	104	0	76	13428
2026-01-02 05:07:07.68	6.23	14.14	-54.4	-65.2	3.8	7.45e-01	0	33	104	0	76	13460
2026-01-02 05:07:09.67	5.67	14.04	-54.4	-65.1	3.8	7.46e-01	0	33	104	0	76	13412
2026-01-02 05:07:11.67	5.11	13.93	-54.4	-65.2	3.8	7.45e-01	0	33	104	0	76	13460
2026-01-02 05:07:13.66	4.56	13.82	-54.4	-65.2	3.8	7.45e-01	0	33	104	0	76	13421
2026-01-02 05:07:15.66	4.01	13.70	-54.4	-65.2	3.8	7.46e-01	0	33	104	0	76	13422
2026-01-02 05:07:17.66	3.47	13.59	-54.4	-65.2	3.8	7.47e-01	0	33	104	0	76	13490
2026-01-02 05:07:19.65	2.94	13.47	-54.3	-65.2	3.8	7.45e-01	0	33	104	0	76	13423
2026-01-02 05:07:21.66	2.40	13.36	-54.4	-65.2	3.8	7.46e-01	0	33	104	0	76	13457
2026-01-02 05:07:23.66	1.88	13.24	-54.4	-65.2	3.8	7.44e-01	0	33	104	0	76	13477
2026-01-02 05:07:25.67	1.35	13.12	-54.4	-65.2	3.8	7.46e-01	0	33	104	0	76	13484
2026-01-02 05:07:27.65	0.84	13.00	-54.4	-65.2	3.8	7.46e-01	0	33	104	0	76	13467
2026-01-02 05:07:29.65	0.33	12.88	-54.4	-65.2	3.8	7.45e-01	0	33	104	0	76	13465
2026-01-02 05:07:31.65	359.82	12.75	-54.4	-65.2	3.8	7.46e-01	0	33	104	0	76	13433
2026-01-02 05:07:33.65	359.32	12.63	-54.4	-65.2	3.8	7.47e-01	0	33	104	0	76	13464
2026-01-02 05:07:35.65	358.83	12.51	-54.4	-65.2	3.8	7.46e-01	0	33	104	0	76	13485
2026-01-02 05:07:37.65	358.34	12.38	-54.4	-65.2	3.8	7.48e-01	0	33	104	0	76	13425
2026-01-02 05:07:39.64	357.86	12.25	-54.4	-65.2	3.8	7.45e-01	0	33	104	0	76	13417
2026-01-02 05:07:41.65	357.37	12.12	-54.4	-65.2	3.8	7.45e-01	0	33	104	0	76	13472
2026-01-02 05:07:43.64	356.90	12.00	-54.4	-65.2	3.8	7.45e-01	0	33	104	0	76	13457
2026-01-02 05:07:45.64	356.43	11.87	-54.3	-65.2	3.8	7.45e-01	0	33	104	0	76	13454
2026-01-02 05:07:47.64	355.96	11.74	-54.4	-65.2	3.8	7.44e-01	0	33	104	0	76	13441
2026-01-02 05:07:49.63	355.51	11.61	-54.4	-65.2	3.8	7.45e-01	0	33	104	0	76	13451
2026-01-02 05:07:51.64	355.05	11.48	-54.4	-65.1	3.8	7.45e-01	0	33	104	0	76	13383
2026-01-02 05:07:53.64	354.60	11.35	-54.5	-65.2	3.8	7.46e-01	0	33	104	0	76	13461
2026-01-02 05:07:55.64	354.16	11.21	-54.4	-65.2	3.8	7.47e-01	0	33	104	0	76	13488
2026-01-02 05:07:57.63	353.72	11.08	-54.4	-65.2	3.8	7.46e-01	0	33	104	0	76	13452
2026-01-02 05:07:59.63	353.28	10.95	-54.4	-65.2	3.8	7.46e-01	0	33	104	0	76	13473
2026-01-02 05:08:01.61	352.86	10.82	-54.4	-65.2	3.8	7.46e-01	0	33	104	0	76	13456
2026-01-02 05:08:03.61	352.43	10.68	-54.4	-65.2	3.8	7.44e-01	0	33	104	0	76	13436
2026-01-02 05:08:05.61	352.01	10.55	-54.5	-65.2	3.8	7.47e-01	0	33	104	0	76	13498
2026-01-02 05:08:07.61	351.60	10.41	-54.4	-65.2	3.8	7.45e-01	0	33	104	0	76	13486
2026-01-02 05:08:09.61	351.18	10.28	-54.5	-65.2	3.8	7.46e-01	0	33	104	0	76	13452
2026-01-02 05:08:11.61	350.78	10.14	-54.4	-65.1	3.8	7.45e-01	0	33	104	0	76	13406
2026-01-02 05:08:13.61	350.38	10.01	-54.4	-65.2	3.8	7.45e-01	0	33	104	0	76	13434
2026-01-02 05:08:15.61	349.98	9.87	-54.4	-65.2	3.8	7.47e-01	0	33	104	0	76	13435
2026-01-02 05:08:17.61	349.59	9.74	-54.4	-65.2	3.8	7.46e-01	0	33	104	0	76	13481
2026-01-02 05:08:19.61	349.20	9.60	-54.5	-65.2	3.8	7.47e-01	0	33	104	0	76	13458
2026-01-02 05:08:21.62	348.81	9.47	-54.4	-65.2	3.8	7.46e-01	0	33	104	0	76	13505
2026-01-02 05:08:23.62	348.44	9.33	-54.4	-65.2	3.8	7.45e-01	0	33	104	0	76	13437
2026-01-02 05:08:25.62	348.06	9.20	-54.4	-65.2	3.8	7.46e-01	0	33	104	0	76	13438
2026-01-02 05:08:27.62	347.69	9.06	-54.4	-65.2	3.8	7.46e-01	0	33	104	0	76	13456
2026-01-02 05:08:29.62	347.32	8.93	-54.4	-65.2	3.8	7.45e-01	0	33	104	0	76	13461
2026-01-02 05:08:31.62	346.96	8.79	-54.4	-65.2	3.8	7.45e-01	0	33	104	0	76	13471
2026-01-02 05:08:33.62	346.61	8.66	-54.4	-65.2	3.8	7.45e-01	0	33	104	0	76	13499
2026-01-02 05:08:35.62	346.25	8.52	-54.4	-65.2	3.8	7.46e-01	0	33	104	0	76	13472
2026-01-02 05:08:37.63	345.90	8.39	-54.4	-65.1	3.8	7.46e-01	0	33	104	0	76	13413
2026-01-02 05:08:39.62	345.56	8.25	-54.4	-65.2	3.8	7.47e-01	0	33	104	0	76	13475
2026-01-02 05:08:41.61	345.22	8.12	-54.5	-65.2	3.8	7.44e-01	0	33	104	0	76	13486
2026-01-02 05:08:43.62	344.88	7.98	-54.5	-65.2	3.8	7.45e-01	0	33	104	0	76	13466
2026-01-02 05:08:45.63	344.55	7.85	-54.4	-65.2	3.8	7.49e-01	0	33	104	0	76	13476
2026-01-02 05:08:47.63	344.22	7.71	-54.4	-65.2	3.8	7.46e-01	0	33	104	0	76	13475
2026-01-02 05:08:49.63	343.89	7.58	-54.5	-65.2	3.8	7.47e-01	0	33	104	0	76	13461
2026-01-02 05:08:51.64	343.57	7.44	-54.5	-65.2	3.8	7.46e-01	0	33	104	0	76	13472
2026-01-02 05:08:53.64	343.25	7.31	-54.4	-65.2	3.8	7.46e-01	0	33	104	0	76	13456
2026-01-02 05:08:55.64	342.94	7.18	-54.4	-65.2	3.8	7.46e-01	0	33	104	0	76	13459
2026-01-02 05:08:57.64	342.63	7.04	-54.4	-65.2	3.8	7.46e-01	0	33	104	0	76	13464
2026-01-02 05:08:59.63	342.32	6.91	-54.4	-65.2	3.8	7.45e-01	0	33	104	0	76	13448
2026-01-02 05:09:01.62	342.02	6.78	-54.4	-65.2	3.8	7.45e-01	0	33	104	0	76	13468
2026-01-02 05:09:03.61	341.72	6.65	-54.4	-65.2	3.8	7.46e-01	0	33	104	0	76	13438
2026-01-02 05:09:05.61	341.43	6.52	-54.4	-65.2	3.8	7.46e-01	0	33	104	0	76	13424
2026-01-02 05:09:07.60	341.14	6.39	-54.4	-65.2	3.8	7.47e-01	0	33	104	0	76	13432
2026-01-02 05:09:09.59	340.85	6.25	-54.4	-65.2	3.8	7.46e-01	0	33	104	0	76	13417
2026-01-02 05:09:11.58	340.56	6.12	-54.5	-65.2	3.8	7.45e-01	0	33	104	0	76	13455
2026-01-02 05:09:13.58	340.28	5.99	-54.5	-65.2	3.8	7.45e-01	0	33	104	0	76	13443
2026-01-02 05:09:15.57	340.00	5.86	-54.5	-65.2	3.8	7.46e-01	0	33	104	0	76	13509
2026-01-02 05:09:17.56	339.73	5.73	-54.5	-65.2	3.8	7.48e-01	0	33	104	0	76	13484
2026-01-02 05:09:19.55	339.46	5.61	-54.4	-65.2	3.8	7.46e-01	0	33	104	0	76	13501
2026-01-02 05:09:21.55	339.19	5.48	-54.4	-65.2	3.8	7.46e-01	0	33	104	0	76	13452
2026-01-02 05:09:23.54	338.92	5.35	-54.4	-65.2	3.8	7.45e-01	0	33	104	0	76	13446
2026-01-02 05:09:25.54	338.66	5.22	-54.5	-65.2	3.8	7.46e-01	0	33	104	0	76	13469
2026-01-02 05:09:27.53	338.40	5.09	-54.4	-65.2	3.8	7.46e-01	0	33	104	0	76	13440
2026-01-02 05:09:29.53	338.14	4.96	-54.4	-65.2	3.8	7.46e-01	0	33	104	0	76	13440
2026-01-02 05:09:31.52	337.89	4.84	-54.5	-65.2	3.8	7.46e-01	0	33	104	0	76	13477
2026-01-02 05:09:33.53	337.63	4.71	-54.4	-65.2	3.8	7.45e-01	0	33	104	0	76	13458
2026-01-02 05:09:35.53	337.39	4.58	-54.4	-65.2	3.8	7.45e-01	0	33	104	0	76	13481
2026-01-02 05:09:37.51	337.14	4.46	-54.4	-65.2	3.8	7.45e-01	0	33	104	0	76	13415
2026-01-02 05:09:39.50	336.90	4.33	-54.5	-65.2	3.8	7.46e-01	0	33	104	0	76	13518
2026-01-02 05:09:41.49	336.66	4.21	-54.4	-65.2	3.8	7.46e-01	0	33	104	0	76	13439
2026-01-02 05:09:43.49	336.42	4.08	-54.4	-65.2	3.8	7.46e-01	0	33	104	0	76	13450
2026-01-02 05:09:45.48	336.19	3.96	-54.4	-65.2	3.8	7.45e-01	0	33	104	0	76	13458
2026-01-02 05:09:47.49	335.95	3.83	-54.4	-65.2	3.8	7.46e-01	0	33	104	0	76	13474
2026-01-02 05:09:49.49	335.72	3.71	-54.4	-65.2	3.8	7.47e-01	0	33	104	0	76	13504
2026-01-02 05:09:51.50	335.49	3.59	-54.4	-65.2	3.8	7.43e-01	0	33	104	0	76	13454
2026-01-02 05:09:53.49	335.27	3.46	-54.4	-65.2	3.8	7.46e-01	0	33	104	0	76	13485
2026-01-02 05:09:55.49	335.05	3.34	-54.4	-65.2	3.8	7.45e-01	0	33	104	0	76	13473
2026-01-02 05:09:57.49	334.83	3.22	-54.5	-65.2	3.8	7.45e-01	0	33	104	0	76	13435
2026-01-02 05:09:59.49	334.61	3.10	-54.5	-65.2	3.8	7.47e-01	0	33	104	0	76	13444
2026-01-02 05:10:01.49	334.39	2.97	-54.4	-65.2	3.8	7.47e-01	0	33	104	0	76	13435
2026-01-02 05:10:03.48	334.18	2.85	-54.4	-65.2	3.8	7.46e-01	0	33	104	0	76	13430
2026-01-02 05:10:05.47	333.97	2.73	-54.4	-65.2	3.8	7.46e-01	0	33	104	0	76	13441
2026-01-02 05:10:07.47	333.76	2.61	-54.4	-65.2	3.8	7.44e-01	0	33	104	0	76	13453
2026-01-02 05:10:09.46	333.56	2.49	-54.4	-65.2	3.8	7.44e-01	0	33	104	0	76	13449
2026-01-02 05:10:11.46	333.35	2.37	-54.4	-65.1	3.8	7.46e-01	0	33	104	0	76	13401
2026-01-02 05:10:13.46	333.15	2.25	-54.4	-65.2	3.8	7.46e-01	0	33	104	0	76	13457
2026-01-02 05:10:15.46	332.95	2.13	-54.4	-65.2	3.8	7.46e-01	0	33	104	0	76	13417
2026-01-02 05:10:17.46	332.76	2.02	-54.4	-65.2	3.8	7.48e-01	0	33	104	0	76	13439

#Closed at: 2026-01-02 05:10:19
#Recorded file [0 MB]: D:/lorett/data/31004_260102_080127.dat