passes_logs/2026/01/02/R3.2S_Murmansk/R3.2S_Murmansk__20260102_043821_KANOPUS-V_3_rec.log

#Pass ID: 20260102_043821_KANOPUS-V 3
#Satellite: KANOPUS-V 3
#Configuration: KANOPUS-V_8128
#almurnet v.1.7.20251203
#Start time: 2026-01-02 04:38:22

#Version: 2.2.20231116
#Station: R3.2S_Murmansk
#Location: 33.079688 lon 68.888172 lat
#TLE: 1 43180U 18014A   25365.80198866  .00000174  00000+0  10241-4 0  9990
#TLE: 2 43180  97.3690 269.5835 0001690  87.9498 272.1932 15.23322034439244

#Time	Az	El	Level	Level2	SNR	BER	BlckErr	Temp	State	Recorded	gain1	gain2
2026-01-02 04:38:22.75	78.25	2.08	-54.3	-65.0	3.8	7.45e-01	0	31	0	0	76	13216
2026-01-02 04:38:24.73	78.03	2.19	-54.3	-65.0	3.8	7.45e-01	0	31	104	0	76	13175
2026-01-02 04:38:26.74	77.81	2.31	-54.3	-65.0	3.8	7.46e-01	0	31	104	0	76	13255
2026-01-02 04:38:28.73	77.59	2.42	-54.3	-65.0	3.8	7.45e-01	0	31	104	0	76	13198
2026-01-02 04:38:30.73	77.37	2.54	-54.3	-65.0	3.8	7.46e-01	0	31	104	0	76	13247
2026-01-02 04:38:32.72	77.14	2.65	-54.3	-65.0	3.8	7.46e-01	0	31	104	0	76	13221
2026-01-02 04:38:34.73	76.91	2.77	-54.3	-65.1	3.8	7.45e-01	0	31	104	0	76	13303
2026-01-02 04:38:36.73	76.68	2.88	-54.3	-65.0	3.8	7.45e-01	0	31	104	0	76	13256
2026-01-02 04:38:38.73	76.44	3.00	-54.3	-65.1	3.8	7.46e-01	0	31	104	0	76	13285
2026-01-02 04:38:40.72	76.20	3.12	-54.3	-65.1	3.8	7.45e-01	0	31	104	0	76	13283
2026-01-02 04:38:42.72	75.96	3.23	-54.3	-65.0	3.8	7.46e-01	0	31	104	0	76	13249
2026-01-02 04:38:44.73	75.72	3.35	-54.3	-65.0	3.8	7.45e-01	0	31	104	0	76	13246
2026-01-02 04:38:46.73	75.48	3.47	-54.3	-65.0	3.8	7.45e-01	0	31	104	0	76	13245
2026-01-02 04:38:48.74	75.23	3.59	-54.3	-65.0	3.8	7.47e-01	0	31	104	0	76	13259
2026-01-02 04:38:50.73	74.98	3.70	-54.3	-65.0	3.8	7.44e-01	0	31	104	0	76	13214
2026-01-02 04:38:52.73	74.73	3.82	-54.3	-65.1	3.8	7.46e-01	0	31	104	0	76	13305
2026-01-02 04:38:54.73	74.47	3.94	-54.3	-65.1	3.8	7.47e-01	0	31	104	0	76	13314
2026-01-02 04:38:56.74	74.21	4.06	-54.3	-65.1	3.8	7.47e-01	0	32	104	0	76	13271
2026-01-02 04:38:58.73	73.95	4.18	-54.3	-65.1	3.8	7.45e-01	0	32	104	0	76	13317
2026-01-02 04:39:00.72	73.69	4.30	-54.3	-65.1	3.8	7.46e-01	0	32	104	0	76	13304
2026-01-02 04:39:02.73	73.42	4.42	-54.3	-65.1	3.8	7.46e-01	0	32	104	0	76	13280
2026-01-02 04:39:04.74	73.15	4.54	-54.3	-65.1	3.8	7.45e-01	0	32	104	0	76	13280
2026-01-02 04:39:06.74	72.88	4.66	-54.3	-65.0	3.8	7.45e-01	0	32	104	0	76	13228
2026-01-02 04:39:08.74	72.60	4.78	-54.3	-65.1	3.8	7.47e-01	0	32	104	0	76	13380
2026-01-02 04:39:10.74	72.32	4.90	-54.3	-65.1	3.8	7.46e-01	0	32	104	0	76	13297
2026-01-02 04:39:12.73	72.04	5.02	-54.3	-65.1	3.8	7.46e-01	0	32	104	0	76	13307
2026-01-02 04:39:14.73	71.76	5.14	-54.3	-65.1	3.8	7.44e-01	0	32	104	0	76	13314
2026-01-02 04:39:16.72	71.47	5.26	-54.3	-65.1	3.8	7.45e-01	0	32	104	0	76	13359
2026-01-02 04:39:18.72	71.18	5.38	-54.3	-65.1	3.8	7.47e-01	0	32	104	0	76	13293
2026-01-02 04:39:20.71	70.89	5.50	-54.3	-65.1	3.8	7.45e-01	0	32	104	0	76	13290
2026-01-02 04:39:22.70	70.60	5.62	-54.3	-65.1	3.8	7.44e-01	0	32	104	0	76	13314
2026-01-02 04:39:24.70	70.30	5.74	-54.3	-65.1	3.8	7.47e-01	0	32	104	0	76	13303
2026-01-02 04:39:26.67	70.00	5.86	-54.3	-65.1	3.8	7.45e-01	0	32	104	0	76	13314
2026-01-02 04:39:28.67	69.69	5.98	-54.3	-65.1	3.8	7.45e-01	0	32	104	0	76	13336
2026-01-02 04:39:30.67	69.38	6.10	-54.3	-65.1	3.8	7.46e-01	0	32	104	0	76	13280
2026-01-02 04:39:32.68	69.07	6.23	-54.3	-65.1	3.8	7.45e-01	0	32	104	0	76	13321
2026-01-02 04:39:34.67	68.75	6.35	-54.3	-65.1	3.8	7.45e-01	0	32	104	0	76	13292
2026-01-02 04:39:36.67	68.43	6.47	-54.4	-65.1	3.8	7.46e-01	0	32	104	0	76	13320
2026-01-02 04:39:38.67	68.11	6.59	-54.4	-65.1	3.8	7.45e-01	0	32	104	0	76	13367
2026-01-02 04:39:40.67	67.78	6.71	-54.4	-65.1	3.8	7.46e-01	0	32	104	0	76	13317
2026-01-02 04:39:42.66	67.46	6.84	-54.4	-65.1	3.9	7.46e-01	0	32	104	0	76	13318
2026-01-02 04:39:44.66	67.12	6.96	-54.4	-65.1	3.8	7.45e-01	0	32	104	0	76	13309
2026-01-02 04:39:46.66	66.78	7.08	-54.3	-65.1	3.8	7.45e-01	0	32	104	0	76	13312
2026-01-02 04:39:48.66	66.44	7.20	-54.4	-65.1	3.8	7.45e-01	0	32	104	0	76	13359
2026-01-02 04:39:50.66	66.10	7.32	-54.4	-65.1	3.8	7.46e-01	0	32	104	0	76	13302
2026-01-02 04:39:52.66	65.75	7.45	-54.4	-65.1	3.8	7.45e-01	0	32	104	0	76	13362
2026-01-02 04:39:54.64	65.40	7.57	-54.4	-65.1	3.8	7.45e-01	0	32	104	0	76	13283
2026-01-02 04:39:56.62	65.05	7.69	-54.4	-65.1	3.8	7.48e-01	0	32	104	0	76	13323
2026-01-02 04:39:58.63	64.69	7.81	-54.4	-65.1	3.8	7.46e-01	0	32	104	0	76	13292
2026-01-02 04:40:00.63	64.32	7.93	-54.4	-65.1	3.8	7.44e-01	0	32	104	0	76	13313
2026-01-02 04:40:02.63	63.96	8.06	-54.4	-65.1	3.8	7.46e-01	0	32	104	0	76	13337
2026-01-02 04:40:04.62	63.59	8.18	-54.4	-65.2	3.8	7.46e-01	0	32	104	0	76	13416
2026-01-02 04:40:06.62	63.21	8.30	-54.4	-65.1	3.8	7.46e-01	0	32	104	0	76	13322
2026-01-02 04:40:08.63	62.83	8.42	-54.4	-65.1	3.8	7.45e-01	0	32	104	0	76	13324
2026-01-02 04:40:10.63	62.45	8.54	-54.4	-65.1	3.8	7.45e-01	0	32	104	0	76	13348
2026-01-02 04:40:12.63	62.06	8.66	-54.4	-65.1	3.8	7.46e-01	0	32	104	0	76	13313
2026-01-02 04:40:14.63	61.67	8.78	-54.4	-65.1	3.8	7.46e-01	0	33	104	0	76	13376
2026-01-02 04:40:16.64	61.27	8.90	-54.4	-65.1	3.8	7.46e-01	0	32	104	0	76	13307
2026-01-02 04:40:18.63	60.87	9.02	-54.4	-65.1	3.8	7.46e-01	0	32	104	0	76	13350
2026-01-02 04:40:20.62	60.47	9.14	-54.4	-65.1	3.8	7.45e-01	0	32	104	0	76	13312
2026-01-02 04:40:22.62	60.07	9.26	-54.4	-65.1	3.8	7.46e-01	0	32	104	0	76	13279
2026-01-02 04:40:24.60	59.66	9.38	-54.4	-65.1	3.8	7.45e-01	0	32	104	0	76	13294
2026-01-02 04:40:26.59	59.24	9.49	-54.4	-65.1	3.8	7.45e-01	0	32	104	0	76	13300
2026-01-02 04:40:28.59	58.82	9.61	-54.4	-65.1	3.8	7.47e-01	0	32	104	0	76	13359
2026-01-02 04:40:30.59	58.40	9.73	-54.4	-65.1	3.8	7.46e-01	0	32	104	0	76	13305
2026-01-02 04:40:32.60	57.97	9.85	-54.4	-65.1	3.8	7.44e-01	0	32	104	0	76	13367
2026-01-02 04:40:34.60	57.54	9.96	-54.4	-65.1	3.8	7.47e-01	0	32	104	0	76	13314
2026-01-02 04:40:36.60	57.10	10.08	-54.4	-65.1	3.8	7.47e-01	0	32	104	0	76	13343
2026-01-02 04:40:38.60	56.66	10.19	-54.4	-65.1	3.8	7.45e-01	0	32	104	0	76	13295
2026-01-02 04:40:40.60	56.21	10.31	-54.4	-65.1	3.8	7.44e-01	0	32	104	0	76	13327
2026-01-02 04:40:42.60	55.76	10.42	-54.4	-65.1	3.8	7.45e-01	0	32	104	0	76	13297
2026-01-02 04:40:44.60	55.31	10.53	-54.4	-65.1	3.8	7.44e-01	0	32	104	0	76	13316
2026-01-02 04:40:46.60	54.85	10.64	-54.4	-65.1	3.8	7.45e-01	0	32	104	0	76	13388
2026-01-02 04:40:48.60	54.38	10.75	-54.4	-65.1	3.8	7.46e-01	0	32	104	0	76	13365
2026-01-02 04:40:50.60	53.92	10.86	-54.4	-65.1	3.8	7.46e-01	0	33	104	0	76	13301
2026-01-02 04:40:52.60	53.44	10.97	-54.4	-65.1	3.8	7.47e-01	0	32	104	0	76	13314
2026-01-02 04:40:54.60	52.97	11.08	-54.4	-65.1	3.8	7.47e-01	0	33	104	0	76	13374
2026-01-02 04:40:56.60	52.49	11.19	-54.4	-65.1	3.8	7.46e-01	0	33	104	0	76	13318
2026-01-02 04:40:58.60	52.00	11.29	-54.4	-65.1	3.8	7.46e-01	0	33	104	0	76	13383
2026-01-02 04:41:00.59	51.51	11.40	-54.4	-65.1	3.8	7.46e-01	0	33	104	0	76	13305
2026-01-02 04:41:02.58	51.02	11.50	-54.4	-65.1	3.8	7.45e-01	0	33	104	0	76	13297
2026-01-02 04:41:04.57	50.53	11.60	-54.4	-65.1	3.8	7.45e-01	0	33	104	0	76	13376
2026-01-02 04:41:06.57	50.03	11.71	-54.4	-65.1	3.8	7.46e-01	0	33	104	0	76	13382
2026-01-02 04:41:08.55	49.53	11.80	-54.4	-65.1	3.8	7.46e-01	0	33	104	0	76	13311
2026-01-02 04:41:10.55	49.02	11.90	-54.4	-65.1	3.9	7.47e-01	0	33	104	0	76	13356
2026-01-02 04:41:12.55	48.50	12.00	-54.4	-65.1	3.8	7.47e-01	0	33	104	0	76	13336
2026-01-02 04:41:14.55	47.98	12.10	-54.4	-65.1	3.8	7.47e-01	0	32	104	0	76	13358
2026-01-02 04:41:16.55	47.46	12.19	-54.4	-65.1	3.8	7.45e-01	0	33	104	0	76	13384
2026-01-02 04:41:18.54	46.93	12.28	-54.4	-65.1	3.8	7.46e-01	0	33	104	0	76	13387
2026-01-02 04:41:20.53	46.41	12.37	-54.4	-65.1	3.8	7.44e-01	0	32	104	0	76	13364
2026-01-02 04:41:22.53	45.87	12.46	-54.4	-65.2	3.8	7.46e-01	0	33	104	0	76	13416
2026-01-02 04:41:24.52	45.34	12.55	-54.4	-65.1	3.8	7.46e-01	0	32	104	0	76	13350
2026-01-02 04:41:26.51	44.80	12.64	-54.4	-65.1	3.8	7.45e-01	0	33	104	0	76	13323
2026-01-02 04:41:28.51	44.25	12.72	-54.4	-65.1	3.8	7.45e-01	0	32	104	0	76	13358
2026-01-02 04:41:30.50	43.70	12.80	-54.4	-65.1	3.8	7.44e-01	0	33	104	0	76	13331
2026-01-02 04:41:32.49	43.15	12.88	-54.4	-65.1	3.8	7.45e-01	0	32	104	0	76	13397
2026-01-02 04:41:34.49	42.59	12.96	-54.4	-65.1	3.8	7.46e-01	0	33	104	0	76	13410
2026-01-02 04:41:36.49	42.03	13.04	-54.4	-65.1	3.8	7.46e-01	0	33	104	0	76	13383
2026-01-02 04:41:38.48	41.47	13.11	-54.4	-65.1	3.8	7.46e-01	0	33	104	0	76	13306
2026-01-02 04:41:40.48	40.90	13.19	-54.4	-65.1	3.8	7.46e-01	0	33	104	0	76	13346
2026-01-02 04:41:42.48	40.33	13.26	-54.4	-65.1	3.8	7.46e-01	0	33	104	0	76	13337
2026-01-02 04:41:44.47	39.76	13.33	-54.4	-65.1	3.8	7.45e-01	0	33	104	0	76	13408
2026-01-02 04:41:46.47	39.18	13.39	-54.4	-65.2	3.8	7.46e-01	0	33	104	0	76	13418
2026-01-02 04:41:48.48	38.60	13.46	-54.4	-65.1	3.8	7.46e-01	0	33	104	0	76	13334
2026-01-02 04:41:50.47	38.01	13.52	-54.4	-65.1	3.8	7.46e-01	0	33	104	0	76	13341
2026-01-02 04:41:52.48	37.42	13.58	-54.4	-65.1	3.8	7.45e-01	0	33	104	0	76	13334
2026-01-02 04:41:54.47	36.84	13.64	-54.4	-65.1	3.8	7.44e-01	0	33	104	0	76	13373
2026-01-02 04:41:56.47	36.25	13.69	-54.4	-65.1	3.8	7.47e-01	0	33	104	0	76	13380
2026-01-02 04:41:58.46	35.65	13.74	-54.4	-65.1	3.8	7.48e-01	0	33	104	0	76	13395
2026-01-02 04:42:00.48	35.05	13.79	-54.4	-65.1	3.8	7.45e-01	0	33	104	0	76	13299
2026-01-02 04:42:02.47	34.45	13.84	-54.4	-65.1	3.8	7.46e-01	0	33	104	0	76	13328
2026-01-02 04:42:04.47	33.85	13.88	-54.4	-65.1	3.8	7.44e-01	0	33	104	0	76	13366
2026-01-02 04:42:06.48	33.24	13.93	-54.4	-65.1	3.8	7.46e-01	0	33	104	0	76	13383
2026-01-02 04:42:08.47	32.64	13.96	-54.4	-65.1	3.8	7.46e-01	0	33	104	0	76	13355
2026-01-02 04:42:10.47	32.03	14.00	-54.4	-65.1	3.8	7.47e-01	0	32	104	0	76	13367
2026-01-02 04:42:12.47	31.42	14.04	-54.4	-65.1	3.8	7.45e-01	0	33	104	0	76	13374
2026-01-02 04:42:14.47	30.81	14.07	-54.4	-65.1	3.8	7.46e-01	0	33	104	0	76	13390
2026-01-02 04:42:16.46	30.20	14.09	-54.4	-65.2	3.8	7.46e-01	0	33	104	0	76	13415
2026-01-02 04:42:18.46	29.59	14.12	-54.4	-65.1	3.8	7.46e-01	0	33	104	0	76	13396
2026-01-02 04:42:20.46	28.97	14.14	-54.4	-65.1	3.8	7.46e-01	0	33	104	0	76	13377
2026-01-02 04:42:22.46	28.36	14.16	-54.4	-65.1	3.8	7.45e-01	0	33	104	0	76	13377
2026-01-02 04:42:24.45	27.74	14.18	-54.4	-65.1	3.8	7.46e-01	0	33	104	0	76	13369
2026-01-02 04:42:26.44	27.13	14.19	-54.4	-65.1	3.8	7.44e-01	0	33	104	0	76	13353
2026-01-02 04:42:28.44	26.51	14.21	-54.4	-65.1	3.8	7.44e-01	0	33	104	0	76	13385
2026-01-02 04:42:30.45	25.89	14.21	-54.4	-65.1	3.8	7.45e-01	0	33	104	0	76	13338
2026-01-02 04:42:32.45	25.27	14.22	-54.4	-65.1	3.8	7.45e-01	0	33	104	0	76	13358
2026-01-02 04:42:34.44	24.65	14.22	-54.4	-65.1	3.8	7.45e-01	0	33	104	0	76	13369
2026-01-02 04:42:36.45	24.03	14.22	-54.4	-65.1	3.8	7.45e-01	0	33	104	0	76	13383
2026-01-02 04:42:38.44	23.41	14.22	-54.4	-65.1	3.8	7.45e-01	0	33	104	0	76	13364
2026-01-02 04:42:40.43	22.80	14.22	-54.4	-65.1	3.8	7.46e-01	0	33	104	0	76	13301
2026-01-02 04:42:42.43	22.18	14.21	-54.4	-65.1	3.8	7.47e-01	0	33	104	0	76	13334
2026-01-02 04:42:44.43	21.56	14.20	-54.4	-65.1	3.8	7.46e-01	0	33	104	0	76	13407
2026-01-02 04:42:46.43	20.94	14.18	-54.4	-65.1	3.8	7.47e-01	0	32	104	0	76	13295
2026-01-02 04:42:48.42	20.33	14.16	-54.4	-65.1	3.8	7.43e-01	0	33	104	0	76	13346
2026-01-02 04:42:50.42	19.71	14.14	-54.4	-65.1	3.8	7.45e-01	0	33	104	0	76	13373
2026-01-02 04:42:52.41	19.10	14.12	-54.4	-65.1	3.8	7.44e-01	0	33	104	0	76	13295
2026-01-02 04:42:54.41	18.49	14.10	-54.4	-65.1	3.8	7.46e-01	0	33	104	0	76	13363
2026-01-02 04:42:56.41	17.87	14.07	-54.4	-65.1	3.8	7.46e-01	0	33	104	0	76	13346
2026-01-02 04:42:58.41	17.26	14.04	-54.4	-65.1	3.8	7.45e-01	0	33	104	0	76	13321
2026-01-02 04:43:00.41	16.65	14.00	-54.4	-65.1	3.8	7.45e-01	0	33	104	0	76	13370
2026-01-02 04:43:02.41	16.05	13.97	-54.4	-65.1	3.8	7.45e-01	0	33	104	0	76	13334
2026-01-02 04:43:04.43	15.43	13.93	-54.4	-65.1	3.8	7.45e-01	0	33	104	0	76	13396
2026-01-02 04:43:06.42	14.83	13.89	-54.4	-65.1	3.8	7.45e-01	0	33	104	0	76	13365
2026-01-02 04:43:08.43	14.23	13.84	-54.4	-65.1	3.8	7.47e-01	0	33	104	0	76	13385
2026-01-02 04:43:10.43	13.63	13.79	-54.4	-65.1	3.8	7.46e-01	0	32	104	0	76	13342
2026-01-02 04:43:12.43	13.03	13.75	-54.4	-65.1	3.8	7.45e-01	0	33	104	0	76	13410
2026-01-02 04:43:14.43	12.44	13.69	-54.4	-65.1	3.8	7.45e-01	0	33	104	0	76	13390
2026-01-02 04:43:16.42	11.85	13.64	-54.4	-65.1	3.8	7.47e-01	0	33	104	0	76	13321
2026-01-02 04:43:18.42	11.26	13.58	-54.4	-65.1	3.8	7.47e-01	0	33	104	0	76	13365
2026-01-02 04:43:20.41	10.68	13.52	-54.4	-65.1	3.8	7.47e-01	0	33	104	0	76	13340
2026-01-02 04:43:22.40	10.10	13.46	-54.4	-65.1	3.8	7.47e-01	0	33	104	0	76	13348
2026-01-02 04:43:24.40	9.52	13.40	-54.4	-65.1	3.8	7.44e-01	0	33	104	0	76	13375
2026-01-02 04:43:26.39	8.94	13.33	-54.4	-65.1	3.8	7.44e-01	0	33	104	0	76	13396
2026-01-02 04:43:28.38	8.37	13.26	-54.4	-65.1	3.8	7.48e-01	0	33	104	0	76	13381
2026-01-02 04:43:30.37	7.80	13.19	-54.4	-65.1	3.8	7.46e-01	0	33	104	0	76	13345
2026-01-02 04:43:32.37	7.24	13.12	-54.4	-65.1	3.8	7.46e-01	0	33	104	0	76	13379
2026-01-02 04:43:34.38	6.67	13.05	-54.4	-65.1	3.8	7.47e-01	0	33	104	0	76	13354
2026-01-02 04:43:36.37	6.11	12.97	-54.4	-65.1	3.8	7.46e-01	0	33	104	0	76	13374
2026-01-02 04:43:38.37	5.55	12.89	-54.4	-65.1	3.8	7.44e-01	0	33	104	0	76	13349
2026-01-02 04:43:40.37	5.00	12.81	-54.4	-65.1	3.8	7.46e-01	0	33	104	0	76	13385
2026-01-02 04:43:42.37	4.45	12.73	-54.4	-65.1	3.8	7.47e-01	0	33	104	0	76	13346
2026-01-02 04:43:44.37	3.90	12.64	-54.4	-65.1	3.8	7.43e-01	0	33	104	0	76	13374
2026-01-02 04:43:46.37	3.36	12.56	-54.4	-65.1	3.8	7.46e-01	0	33	104	0	76	13372
2026-01-02 04:43:48.37	2.82	12.47	-54.4	-65.1	3.8	7.46e-01	0	33	104	0	76	13373
2026-01-02 04:43:50.36	2.29	12.38	-54.4	-65.1	3.8	7.45e-01	0	33	104	0	76	13380
2026-01-02 04:43:52.36	1.76	12.29	-54.4	-65.1	3.8	7.45e-01	0	33	104	0	76	13357
2026-01-02 04:43:54.37	1.23	12.20	-54.4	-65.1	3.8	7.46e-01	0	33	104	0	76	13344
2026-01-02 04:43:56.37	0.71	12.10	-54.4	-65.1	3.8	7.46e-01	0	33	104	0	76	13367
2026-01-02 04:43:58.37	0.19	12.01	-54.4	-65.1	3.8	7.45e-01	0	33	104	0	76	13347
2026-01-02 04:44:00.38	359.68	11.91	-54.4	-65.1	3.8	7.46e-01	0	33	104	0	76	13353
2026-01-02 04:44:02.37	359.17	11.81	-54.4	-65.1	3.8	7.46e-01	0	33	104	0	76	13375
2026-01-02 04:44:04.37	358.67	11.71	-54.4	-65.1	3.8	7.47e-01	0	33	104	0	76	13310
2026-01-02 04:44:06.37	358.16	11.61	-54.4	-65.1	3.8	7.47e-01	0	33	104	0	76	13360
2026-01-02 04:44:08.36	357.67	11.51	-54.4	-65.1	3.8	7.44e-01	0	33	104	0	76	13408
2026-01-02 04:44:10.37	357.17	11.41	-54.4	-65.1	3.8	7.45e-01	0	33	104	0	76	13375
2026-01-02 04:44:12.37	356.69	11.30	-54.4	-65.1	3.8	7.44e-01	0	33	104	0	76	13414
2026-01-02 04:44:14.37	356.20	11.20	-54.4	-65.1	3.8	7.46e-01	0	33	104	0	76	13374
2026-01-02 04:44:16.37	355.72	11.09	-54.4	-65.1	3.8	7.47e-01	0	33	104	0	76	13360
2026-01-02 04:44:18.37	355.25	10.98	-54.4	-65.1	3.8	7.45e-01	0	33	104	0	76	13369
2026-01-02 04:44:20.37	354.78	10.87	-54.4	-65.1	3.8	7.47e-01	0	33	104	0	76	13346
2026-01-02 04:44:22.36	354.31	10.76	-54.4	-65.1	3.8	7.46e-01	0	33	104	0	76	13388
2026-01-02 04:44:24.35	353.85	10.65	-54.4	-65.1	3.8	7.45e-01	0	33	104	0	76	13397
2026-01-02 04:44:26.34	353.40	10.54	-54.4	-65.1	3.8	7.45e-01	0	33	104	0	76	13385
2026-01-02 04:44:28.34	352.94	10.43	-54.4	-65.1	3.8	7.45e-01	0	33	104	0	76	13382
2026-01-02 04:44:30.34	352.49	10.32	-54.4	-65.1	3.8	7.46e-01	0	33	104	0	76	13330
2026-01-02 04:44:32.34	352.05	10.20	-54.4	-65.1	3.8	7.45e-01	0	33	104	0	76	13405
2026-01-02 04:44:34.35	351.61	10.09	-54.4	-65.1	3.8	7.44e-01	0	33	104	0	76	13408
2026-01-02 04:44:36.34	351.17	9.97	-54.4	-65.1	3.8	7.46e-01	0	33	104	0	76	13374
2026-01-02 04:44:38.34	350.74	9.86	-54.4	-65.1	3.8	7.47e-01	0	33	104	0	76	13382
2026-01-02 04:44:40.33	350.31	9.74	-54.4	-65.1	3.8	7.45e-01	0	33	104	0	76	13345
2026-01-02 04:44:42.33	349.89	9.62	-54.4	-65.1	3.8	7.44e-01	0	33	104	0	76	13377
2026-01-02 04:44:44.33	349.47	9.51	-54.4	-65.1	3.8	7.46e-01	0	33	104	0	76	13412
2026-01-02 04:44:46.32	349.06	9.39	-54.4	-65.2	3.8	7.47e-01	0	33	104	0	76	13433
2026-01-02 04:44:48.32	348.65	9.27	-54.4	-65.1	3.8	7.44e-01	0	33	104	0	76	13334
2026-01-02 04:44:50.32	348.24	9.15	-54.4	-65.1	3.8	7.45e-01	0	33	104	0	76	13409
2026-01-02 04:44:52.32	347.84	9.03	-54.4	-65.1	3.8	7.46e-01	0	33	104	0	76	13389
2026-01-02 04:44:54.32	347.44	8.91	-54.4	-65.1	3.8	7.46e-01	0	33	104	0	76	13402
2026-01-02 04:44:56.33	347.04	8.79	-54.4	-65.1	3.8	7.44e-01	0	33	104	0	76	13357
2026-01-02 04:44:58.33	346.65	8.67	-54.4	-65.1	3.8	7.45e-01	0	33	104	0	76	13393
2026-01-02 04:45:00.33	346.27	8.55	-54.4	-65.1	3.8	7.46e-01	0	33	104	0	76	13341
2026-01-02 04:45:02.33	345.88	8.43	-54.4	-65.1	3.8	7.45e-01	0	33	104	0	76	13369
2026-01-02 04:45:04.33	345.51	8.31	-54.4	-65.1	3.8	7.45e-01	0	33	104	0	76	13367
2026-01-02 04:45:06.33	345.13	8.19	-54.4	-65.1	3.8	7.46e-01	0	33	104	0	76	13355
2026-01-02 04:45:08.32	344.76	8.07	-54.4	-65.1	3.8	7.47e-01	0	33	104	0	76	13366
2026-01-02 04:45:10.33	344.40	7.95	-54.4	-65.1	3.8	7.46e-01	0	33	104	0	76	13343
2026-01-02 04:45:12.31	344.04	7.83	-54.4	-65.1	3.8	7.43e-01	0	33	104	0	76	13341
2026-01-02 04:45:14.32	343.68	7.71	-54.4	-65.1	3.8	7.46e-01	0	33	104	0	76	13395
2026-01-02 04:45:16.33	343.32	7.58	-54.4	-65.1	3.8	7.45e-01	0	33	104	0	76	13354
2026-01-02 04:45:18.32	342.97	7.46	-54.4	-65.1	3.8	7.45e-01	0	33	104	0	76	13363
2026-01-02 04:45:20.31	342.63	7.34	-54.4	-65.1	3.8	7.46e-01	0	33	104	0	76	13392
2026-01-02 04:45:22.31	342.28	7.22	-54.4	-65.1	3.8	7.47e-01	0	33	104	0	76	13350
2026-01-02 04:45:24.30	341.94	7.10	-54.4	-65.1	3.8	7.45e-01	0	33	104	0	76	13353
2026-01-02 04:45:26.30	341.61	6.98	-54.4	-65.1	3.8	7.45e-01	0	33	104	0	76	13337
2026-01-02 04:45:28.29	341.28	6.85	-54.4	-65.1	3.8	7.46e-01	0	33	104	0	76	13352
2026-01-02 04:45:30.29	340.95	6.73	-54.4	-65.1	3.8	7.47e-01	0	33	104	0	76	13374
2026-01-02 04:45:32.28	340.62	6.61	-54.4	-65.1	3.8	7.46e-01	0	33	104	0	76	13360
2026-01-02 04:45:34.28	340.30	6.49	-54.4	-65.1	3.8	7.45e-01	0	33	104	0	76	13365
2026-01-02 04:45:36.27	339.98	6.37	-54.4	-65.1	3.8	7.46e-01	0	33	104	0	76	13344
2026-01-02 04:45:38.25	339.67	6.25	-54.4	-65.1	3.8	7.45e-01	0	33	104	0	76	13362
2026-01-02 04:45:40.25	339.36	6.13	-54.4	-65.1	3.8	7.47e-01	0	33	104	0	76	13360
2026-01-02 04:45:42.24	339.05	6.00	-54.4	-65.1	3.8	7.46e-01	0	33	104	0	76	13404
2026-01-02 04:45:44.24	338.75	5.88	-54.4	-65.1	3.8	7.45e-01	0	33	104	0	76	13364
2026-01-02 04:45:46.24	338.44	5.76	-54.4	-65.1	3.8	7.45e-01	0	33	104	0	76	13376
2026-01-02 04:45:48.24	338.15	5.64	-54.4	-65.1	3.8	7.46e-01	0	33	104	0	76	13380
2026-01-02 04:45:50.25	337.85	5.52	-54.4	-65.1	3.8	7.44e-01	0	33	104	0	76	13408
2026-01-02 04:45:52.25	337.56	5.40	-54.4	-65.1	3.8	7.45e-01	0	33	104	0	76	13380
2026-01-02 04:45:54.25	337.27	5.28	-54.4	-65.1	3.8	7.45e-01	0	33	104	0	76	13406
2026-01-02 04:45:56.25	336.98	5.16	-54.4	-65.1	3.8	7.44e-01	0	33	104	0	76	13366
2026-01-02 04:45:58.26	336.70	5.04	-54.4	-65.2	3.8	7.46e-01	0	33	104	0	76	13427
2026-01-02 04:46:00.26	336.41	4.92	-54.4	-65.1	3.8	7.45e-01	0	33	104	0	76	13409
2026-01-02 04:46:02.25	336.14	4.80	-54.4	-65.1	3.8	7.46e-01	0	33	104	0	76	13379
2026-01-02 04:46:04.25	335.86	4.68	-54.4	-65.2	3.8	7.44e-01	0	33	104	0	76	13429
2026-01-02 04:46:06.25	335.59	4.56	-54.4	-65.1	3.8	7.46e-01	0	33	104	0	76	13358
2026-01-02 04:46:08.25	335.33	4.44	-54.4	-65.1	3.8	7.46e-01	0	33	104	0	76	13405
2026-01-02 04:46:10.26	335.06	4.32	-54.4	-65.1	3.8	7.46e-01	0	33	104	0	76	13347
2026-01-02 04:46:12.26	334.80	4.20	-54.4	-65.1	3.8	7.45e-01	0	33	104	0	76	13371
2026-01-02 04:46:14.26	334.54	4.08	-54.4	-65.2	3.8	7.46e-01	0	33	104	0	76	13449
2026-01-02 04:46:16.26	334.28	3.96	-54.4	-65.1	3.8	7.45e-01	0	33	104	0	76	13413
2026-01-02 04:46:18.26	334.02	3.84	-54.4	-65.1	3.8	7.46e-01	0	33	104	0	76	13375
2026-01-02 04:46:20.26	333.77	3.73	-54.4	-65.1	3.8	7.46e-01	0	33	104	0	76	13399
2026-01-02 04:46:22.27	333.52	3.61	-54.4	-65.1	3.8	7.47e-01	0	33	104	0	76	13381
2026-01-02 04:46:24.27	333.27	3.49	-54.4	-65.1	3.8	7.45e-01	0	33	104	0	76	13369
2026-01-02 04:46:26.27	333.03	3.37	-54.4	-65.1	3.8	7.47e-01	0	33	104	0	76	13395
2026-01-02 04:46:28.26	332.79	3.26	-54.4	-65.1	3.8	7.46e-01	0	33	104	0	76	13406
2026-01-02 04:46:30.26	332.55	3.14	-54.4	-65.1	3.8	7.46e-01	0	33	104	0	76	13364
2026-01-02 04:46:32.24	332.32	3.03	-54.4	-65.1	3.8	7.46e-01	0	33	104	0	76	13350
2026-01-02 04:46:34.24	332.08	2.91	-54.4	-65.1	3.8	7.46e-01	0	33	104	0	76	13393
2026-01-02 04:46:36.23	331.85	2.79	-54.4	-65.1	3.8	7.46e-01	0	33	104	0	76	13407
2026-01-02 04:46:38.23	331.62	2.68	-54.4	-65.1	3.8	7.46e-01	0	33	104	0	76	13406
2026-01-02 04:46:40.21	331.40	2.56	-54.4	-65.1	3.8	7.47e-01	0	33	104	0	76	13344
2026-01-02 04:46:42.20	331.18	2.45	-54.4	-65.1	3.8	7.47e-01	0	33	104	0	76	13369
2026-01-02 04:46:44.20	330.95	2.34	-54.4	-65.2	3.8	7.46e-01	0	33	104	0	76	13461
2026-01-02 04:46:46.19	330.74	2.22	-54.4	-65.2	3.8	7.43e-01	0	33	104	0	76	13420
2026-01-02 04:46:48.19	330.52	2.11	-54.4	-65.1	3.8	7.45e-01	0	33	104	0	76	13386
2026-01-02 04:46:50.18	330.30	1.99	-54.4	-65.1	3.8	7.45e-01	0	33	104	0	76	13396

#Closed at: 2026-01-02 04:46:51
#Recorded file [0 MB]: D:/lorett/data/31004_260102_073822.dat