passes_logs/2026/01/02/R3.2S_Murmansk/R3.2S_Murmansk__20260102_101211_SUOMI_NPP_rec.log

#Pass ID: 20260102_101211_SUOMI NPP
#Satellite: SUOMI NPP
#Configuration: NPP
#almurnet v.1.7.20251203
#Start time: 2026-01-02 10:12:10

#Version: 2.2.20231116
#Station: R3.2S_Murmansk
#Location: 33.079688 lon 68.888172 lat
#TLE: 1 37849U 11061A   26001.07732418  .00000182  00000+0  10735-3 0  9990
#TLE: 2 37849  98.7795 303.2470 0002580  87.2016 272.9455 14.19520779734739

#Time	Az	El	Level	Level2	SNR	BER	BlckErr	Temp	State	Recorded	gain1	gain2
2026-01-02 10:12:10.79	166.48	1.98	-60.1	-75.6	3.8	1.49e+00	0	30	0	0	86	21328
2026-01-02 10:12:14.74	166.56	2.23	-60.1	-75.5	3.8	1.49e+00	0	30	104	0	85	22314
2026-01-02 10:12:18.68	166.64	2.48	-60.1	-75.6	3.8	1.49e+00	0	31	104	0	85	22581
2026-01-02 10:12:22.65	166.72	2.74	-60.1	-75.5	3.8	1.49e+00	0	31	104	0	85	22473
2026-01-02 10:12:26.62	166.80	3.00	-60.1	-75.4	3.8	1.49e+00	0	31	104	0	85	22182
2026-01-02 10:12:30.59	166.89	3.26	-60.1	-75.6	3.8	1.49e+00	0	31	104	0	85	22634
2026-01-02 10:12:34.57	166.97	3.53	-60.0	-73.6	3.8	1.49e+00	0	31	104	0	85	17989
2026-01-02 10:12:38.55	167.06	3.80	-59.8	-70.2	4.9	8.31e-01	0	31	0	3145728	85	12152
2026-01-02 10:12:42.53	167.15	4.07	-59.5	-67.6	6.5	2.20e-01	0	31	0	10485760	85	9017
2026-01-02 10:12:46.50	167.24	4.34	-59.1	-65.6	8.2	4.85e-02	0	31	0	17825792	84	7594
2026-01-02 10:12:50.48	167.33	4.62	-58.4	-63.7	9.7	4.95e-03	0	31	0	26214400	83	6490
2026-01-02 10:12:54.44	167.42	4.89	-58.3	-63.5	9.9	3.05e-03	0	31	0	33554432	83	6310
2026-01-02 10:12:58.43	167.51	5.18	-58.3	-63.2	10.3	9.53e-03	0	31	0	40894464	83	6072
2026-01-02 10:13:02.39	167.61	5.46	-56.3	-58.9	13.6	0.00e+00	0	31	0	45088768	79	4673
2026-01-02 10:13:06.36	167.70	5.75	-56.1	-58.6	13.7	0.00e+00	0	31	0	52428800	78	4794
2026-01-02 10:13:10.33	167.80	6.04	-55.9	-58.3	13.9	0.00e+00	0	31	0	59768832	78	4601
2026-01-02 10:13:14.31	167.90	6.33	-56.0	-58.3	14.0	0.00e+00	0	31	0	67108864	78	4633
2026-01-02 10:13:18.28	168.00	6.63	-55.9	-58.1	14.1	0.00e+00	0	31	0	74448896	78	4543
2026-01-02 10:13:22.23	168.11	6.93	-55.7	-57.9	14.2	0.00e+00	0	31	0	81788928	77	4695
2026-01-02 10:13:26.21	168.21	7.24	-55.6	-57.7	14.4	0.00e+00	0	31	0	89128960	77	4586
2026-01-02 10:13:30.18	168.32	7.54	-55.6	-57.6	14.4	0.00e+00	0	31	0	96468992	77	4514
2026-01-02 10:13:34.13	168.43	7.85	-55.3	-57.3	14.6	0.00e+00	0	31	0	103809024	77	4362
2026-01-02 10:13:38.12	168.54	8.17	-55.2	-57.0	14.7	0.00e+00	0	32	0	111149056	76	4491
2026-01-02 10:13:42.10	168.65	8.49	-55.1	-56.9	14.8	0.00e+00	0	32	0	119537664	76	4403
2026-01-02 10:13:46.06	168.77	8.81	-55.0	-56.7	14.9	0.00e+00	0	31	0	126877696	76	4329
2026-01-02 10:13:50.03	168.89	9.14	-54.9	-56.5	15.0	0.00e+00	0	32	0	134217728	76	4240
2026-01-02 10:13:54.00	169.01	9.47	-54.6	-56.2	15.1	0.00e+00	0	32	0	141557760	75	4292
2026-01-02 10:13:57.97	169.13	9.81	-54.5	-56.0	15.2	0.00e+00	0	32	0	148897792	75	4239
2026-01-02 10:14:01.95	169.26	10.15	-54.6	-56.2	15.1	0.00e+00	0	32	0	156237824	75	4323
2026-01-02 10:14:05.91	169.38	10.49	-54.1	-55.6	15.4	0.00e+00	0	32	0	163577856	74	4250
2026-01-02 10:14:09.88	169.51	10.84	-54.1	-55.6	15.4	0.00e+00	0	32	0	170917888	74	4246
2026-01-02 10:14:13.86	169.65	11.20	-53.8	-55.2	15.6	0.00e+00	0	32	0	178257920	74	4071
2026-01-02 10:14:17.80	169.78	11.56	-53.8	-55.2	15.6	0.00e+00	0	32	0	185597952	74	4086
2026-01-02 10:14:21.77	169.92	11.92	-54.0	-55.4	15.5	0.00e+00	0	32	0	193986560	74	4173
2026-01-02 10:14:25.75	170.07	12.29	-53.7	-55.1	15.7	0.00e+00	0	32	0	201326592	74	4021
2026-01-02 10:14:29.73	170.21	12.67	-53.8	-55.2	15.6	0.00e+00	0	32	0	208666624	74	4075
2026-01-02 10:14:33.69	170.36	13.05	-53.7	-55.1	15.6	0.00e+00	0	32	0	216006656	73	4261
2026-01-02 10:14:37.66	170.51	13.44	-53.8	-55.2	15.6	0.00e+00	0	32	0	223346688	73	4303
2026-01-02 10:14:41.63	170.67	13.84	-53.7	-55.1	15.7	0.00e+00	0	32	0	230686720	73	4250
2026-01-02 10:14:45.62	170.83	14.24	-53.8	-55.1	15.6	0.00e+00	0	32	0	238026752	73	4289
2026-01-02 10:14:49.59	171.00	14.65	-53.7	-55.0	15.6	0.00e+00	0	32	0	245366784	73	4238
2026-01-02 10:14:53.55	171.17	15.06	-53.9	-55.3	15.6	0.00e+00	0	32	0	252706816	73	4346
2026-01-02 10:14:57.51	171.34	15.48	-54.0	-55.4	15.5	0.00e+00	0	32	0	260046848	73	4417
2026-01-02 10:15:01.49	171.52	15.91	-53.9	-55.3	15.6	0.00e+00	0	32	0	268435456	73	4358
2026-01-02 10:15:05.45	171.70	16.34	-54.0	-55.4	15.6	0.00e+00	0	32	0	275775488	73	4431
2026-01-02 10:15:09.42	171.89	16.79	-54.1	-55.5	15.5	0.00e+00	0	32	0	283115520	73	4451
2026-01-02 10:15:13.36	172.08	17.23	-53.9	-55.3	15.6	0.00e+00	0	32	0	290455552	73	4356
2026-01-02 10:15:17.33	172.27	17.69	-54.0	-55.3	15.6	0.00e+00	0	32	0	297795584	73	4378
2026-01-02 10:15:21.30	172.48	18.16	-53.9	-55.3	15.6	0.00e+00	0	32	0	305135616	73	4363
2026-01-02 10:15:25.28	172.69	18.64	-54.0	-55.3	15.6	0.00e+00	0	32	0	312475648	73	4378
2026-01-02 10:15:29.26	172.90	19.12	-54.2	-55.6	15.5	0.00e+00	0	32	0	319815680	73	4531
2026-01-02 10:15:33.24	173.13	19.62	-54.4	-55.8	15.5	0.00e+00	0	32	0	327155712	74	4380
2026-01-02 10:15:37.20	173.36	20.12	-54.6	-56.2	15.3	0.00e+00	0	32	0	334495744	74	4548
2026-01-02 10:15:41.17	173.59	20.64	-54.6	-56.1	15.3	0.00e+00	0	32	0	341835776	74	4526
2026-01-02 10:15:45.15	173.84	21.16	-54.4	-55.8	15.5	0.00e+00	0	32	0	350224384	74	4381
2026-01-02 10:15:49.13	174.09	21.70	-54.1	-55.4	15.6	0.00e+00	0	32	0	357564416	74	4170
2026-01-02 10:15:53.10	174.35	22.25	-54.0	-55.3	15.7	0.00e+00	0	32	0	364904448	74	4130
2026-01-02 10:15:57.09	174.62	22.81	-54.2	-55.5	15.6	0.00e+00	0	32	0	372244480	74	4220
2026-01-02 10:16:01.06	174.90	23.38	-53.9	-55.1	15.7	0.00e+00	0	32	0	379584512	74	4045
2026-01-02 10:16:05.04	175.19	23.96	-53.9	-55.2	15.7	0.00e+00	0	32	0	386924544	73	4322
2026-01-02 10:16:09.03	175.49	24.56	-54.2	-55.5	15.6	0.00e+00	0	32	0	394264576	73	4491
2026-01-02 10:16:12.99	175.80	25.16	-54.0	-55.4	15.6	0.00e+00	0	32	0	401604608	73	4413
2026-01-02 10:16:16.95	176.12	25.78	-54.0	-55.4	15.6	0.00e+00	0	32	0	409993216	73	4409
2026-01-02 10:16:20.92	176.45	26.42	-53.9	-55.1	15.7	0.00e+00	0	32	0	417333248	73	4288
2026-01-02 10:16:24.90	176.80	27.07	-53.3	-54.5	16.0	0.00e+00	0	32	0	424673280	73	3961
2026-01-02 10:16:28.87	177.16	27.73	-53.0	-54.1	16.0	0.00e+00	0	32	0	432013312	72	4048
2026-01-02 10:16:32.83	177.53	28.41	-53.5	-54.7	15.8	0.00e+00	0	32	0	439353344	72	4329
2026-01-02 10:16:36.80	177.93	29.11	-53.8	-55.0	15.7	0.00e+00	0	32	0	446693376	72	4485
2026-01-02 10:16:40.76	178.33	29.81	-54.8	-56.3	15.3	0.00e+00	0	32	0	454033408	75	4359
2026-01-02 10:16:44.73	178.76	30.54	-55.5	-57.1	15.0	0.00e+00	0	32	0	461373440	76	4544
2026-01-02 10:16:48.70	179.20	31.29	-55.8	-57.6	14.8	0.00e+00	0	32	0	468713472	76	4802
2026-01-02 10:16:52.66	179.67	32.05	-56.7	-59.0	14.2	0.00e+00	0	32	0	476053504	79	4739
2026-01-02 10:16:56.63	180.15	32.83	-56.8	-59.2	14.1	0.00e+00	0	32	0	483393536	79	4822
2026-01-02 10:17:00.60	180.66	33.62	-56.2	-58.2	14.6	0.00e+00	0	32	0	491782144	78	4551
2026-01-02 10:17:04.57	181.20	34.44	-56.0	-57.8	14.8	0.00e+00	0	32	0	499122176	78	4341
2026-01-02 10:17:08.55	181.76	35.28	-56.5	-58.5	14.4	0.00e+00	0	32	0	506462208	78	4720
2026-01-02 10:17:12.52	182.35	36.13	-56.9	-59.2	14.1	0.00e+00	0	32	0	513802240	79	4824
2026-01-02 10:17:16.49	182.98	37.01	-57.0	-59.3	14.0	0.00e+00	0	32	0	521142272	80	4644
2026-01-02 10:17:20.45	183.63	37.90	-56.5	-58.5	14.4	0.00e+00	0	32	0	528482304	78	4732
2026-01-02 10:17:24.42	184.32	38.82	-57.0	-59.3	14.0	0.00e+00	0	32	0	535822336	79	4887
2026-01-02 10:17:28.38	185.05	39.75	-57.2	-59.6	13.9	0.00e+00	0	32	0	543162368	80	4788
2026-01-02 10:17:32.35	185.83	40.71	-58.1	-61.1	12.9	0.00e+00	0	32	0	550502400	81	5363
2026-01-02 10:17:36.33	186.65	41.69	-56.8	-59.1	14.2	0.00e+00	0	32	0	557842432	80	4498
2026-01-02 10:17:40.31	187.53	42.68	-55.4	-57.0	15.2	0.00e+00	0	32	0	566231040	77	4221
2026-01-02 10:17:44.28	188.45	43.70	-55.2	-56.8	15.3	0.00e+00	0	32	0	573571072	76	4344
2026-01-02 10:17:48.26	189.44	44.73	-54.9	-56.3	15.5	0.00e+00	0	32	0	580911104	76	4118
2026-01-02 10:17:52.23	190.50	45.79	-55.1	-56.5	15.4	0.00e+00	0	32	0	588251136	76	4228
2026-01-02 10:17:56.20	191.62	46.85	-55.4	-56.9	15.3	0.00e+00	0	32	0	595591168	76	4409
2026-01-02 10:18:00.17	192.82	47.94	-54.7	-56.1	15.6	0.00e+00	0	32	0	602931200	75	4261
2026-01-02 10:18:04.16	194.12	49.04	-54.1	-55.4	15.8	0.00e+00	0	32	0	610271232	74	4156
2026-01-02 10:18:08.13	195.51	50.15	-53.8	-55.0	15.8	0.00e+00	0	32	0	617611264	72	4486
2026-01-02 10:18:12.10	197.00	51.26	-55.1	-56.6	15.3	0.00e+00	0	32	0	624951296	75	4522
2026-01-02 10:18:16.07	198.60	52.39	-52.3	-53.3	16.4	0.00e+00	0	32	0	632291328	71	3883
2026-01-02 10:18:20.04	200.33	53.51	-51.9	-52.8	16.4	0.00e+00	0	32	0	640679936	69	4139
2026-01-02 10:18:24.02	202.20	54.63	-52.7	-53.8	16.2	0.00e+00	0	32	0	648019968	71	4104
2026-01-02 10:18:27.99	204.22	55.74	-52.4	-53.3	16.3	0.00e+00	0	32	0	655360000	70	4135
2026-01-02 10:18:31.96	206.40	56.84	-53.0	-54.1	16.2	0.00e+00	0	32	0	662700032	72	4014
2026-01-02 10:18:35.93	208.75	57.92	-53.1	-54.2	16.1	0.00e+00	0	32	0	670040064	71	4304
2026-01-02 10:18:39.91	211.31	58.97	-53.0	-54.0	16.2	0.00e+00	0	32	0	677380096	71	4236
2026-01-02 10:18:43.88	214.07	59.97	-54.0	-55.2	15.9	0.00e+00	0	32	0	684720128	74	4053
2026-01-02 10:18:47.86	217.05	60.94	-53.6	-54.7	16.0	0.00e+00	0	32	0	692060160	73	4071
2026-01-02 10:18:51.83	220.25	61.84	-54.1	-55.3	15.8	0.00e+00	0	32	0	699400192	74	4132
2026-01-02 10:18:55.78	223.67	62.66	-53.0	-54.0	16.3	0.00e+00	0	32	0	706740224	72	4004
2026-01-02 10:18:59.76	227.34	63.41	-52.4	-53.3	16.3	0.00e+00	0	32	0	715128832	70	4122
2026-01-02 10:19:03.74	231.24	64.07	-54.2	-55.5	15.8	0.00e+00	0	32	0	722468864	73	4460
2026-01-02 10:19:07.71	235.33	64.62	-53.7	-54.9	16.0	0.00e+00	0	32	0	729808896	72	4409
2026-01-02 10:19:11.68	239.60	65.05	-54.3	-55.5	15.9	0.00e+00	0	32	0	737148928	75	3993
2026-01-02 10:19:15.67	244.04	65.35	-55.0	-56.4	15.5	0.00e+00	0	32	0	744488960	75	4419
2026-01-02 10:19:19.64	248.55	65.52	-53.8	-54.9	16.0	0.00e+00	0	32	0	751828992	73	4170
2026-01-02 10:19:23.59	253.07	65.56	-53.8	-55.0	16.0	0.00e+00	0	32	0	759169024	72	4461
2026-01-02 10:19:27.56	257.61	65.45	-53.7	-54.9	16.0	0.00e+00	0	32	0	766509056	72	4418
2026-01-02 10:19:31.53	262.07	65.21	-53.7	-54.9	16.0	0.00e+00	0	32	0	773849088	73	4148
2026-01-02 10:19:35.52	266.44	64.84	-51.9	-52.8	16.5	0.00e+00	0	32	0	782237696	69	4123
2026-01-02 10:19:39.48	270.61	64.35	-53.3	-54.3	16.2	0.00e+00	0	32	0	789577728	72	4130
2026-01-02 10:19:43.45	274.60	63.75	-52.6	-53.6	16.4	0.00e+00	0	32	0	796917760	71	4018
2026-01-02 10:19:47.44	278.39	63.04	-53.7	-54.9	16.0	0.00e+00	0	32	0	804257792	72	4424
2026-01-02 10:19:51.41	281.93	62.25	-53.6	-54.7	16.1	0.00e+00	0	32	0	811597824	72	4304
2026-01-02 10:19:55.39	285.25	61.38	-53.2	-54.3	16.2	0.00e+00	0	32	0	818937856	72	4120
2026-01-02 10:19:59.34	288.32	60.46	-52.5	-53.4	16.4	0.00e+00	0	32	0	826277888	70	4185
2026-01-02 10:20:03.33	291.19	59.47	-51.5	-52.3	16.6	0.00e+00	0	32	0	833617920	69	3882
2026-01-02 10:20:07.31	293.84	58.44	-51.8	-52.6	16.5	0.00e+00	0	32	0	840957952	69	4032
2026-01-02 10:20:11.28	296.29	57.38	-52.0	-53.0	16.4	0.00e+00	0	32	0	848297984	69	4203
2026-01-02 10:20:15.24	298.55	56.30	-52.6	-53.6	16.3	0.00e+00	0	32	0	856686592	70	4260
2026-01-02 10:20:19.21	300.64	55.20	-51.5	-52.3	16.6	0.00e+00	0	32	0	864026624	69	3903
2026-01-02 10:20:23.19	302.58	54.08	-53.6	-54.7	16.0	0.00e+00	0	32	0	871366656	72	4337
2026-01-02 10:20:27.15	304.37	52.96	-53.2	-54.2	16.2	0.00e+00	0	32	0	878706688	71	4330
2026-01-02 10:20:31.12	306.03	51.84	-53.6	-54.7	16.0	0.00e+00	0	32	0	886046720	72	4329
2026-01-02 10:20:35.08	307.57	50.73	-52.9	-53.9	16.3	0.00e+00	0	32	0	893386752	72	3919
2026-01-02 10:20:39.06	309.01	49.62	-53.7	-54.9	16.0	0.00e+00	0	32	0	900726784	73	4158
2026-01-02 10:20:43.03	310.34	48.52	-54.0	-55.1	15.9	0.00e+00	0	32	0	908066816	74	4048
2026-01-02 10:20:47.01	311.59	47.43	-53.2	-54.2	16.2	0.00e+00	0	32	0	915406848	72	4077
2026-01-02 10:20:50.99	312.76	46.36	-56.8	-58.8	14.5	0.00e+00	0	32	0	923795456	78	4890
2026-01-02 10:20:54.96	313.84	45.30	-55.3	-56.8	15.4	0.00e+00	0	32	0	931135488	76	4350
2026-01-02 10:20:58.92	314.86	44.26	-55.4	-57.0	15.3	0.00e+00	0	32	0	938475520	76	4455
2026-01-02 10:21:02.91	315.82	43.24	-54.5	-55.8	15.8	0.00e+00	0	32	0	945815552	75	4101
2026-01-02 10:21:06.87	316.72	42.24	-55.8	-57.5	15.1	0.00e+00	0	32	0	953155584	78	4199
2026-01-02 10:21:10.83	317.56	41.26	-51.9	-52.8	16.5	0.00e+00	0	32	0	960495616	70	3888
2026-01-02 10:21:14.80	318.36	40.29	-55.9	-57.7	15.0	0.00e+00	0	32	0	967835648	77	4549
2026-01-02 10:21:18.78	319.11	39.35	-54.1	-55.3	15.9	0.00e+00	0	32	0	975175680	74	4144
2026-01-02 10:21:22.75	319.83	38.43	-52.9	-53.9	16.2	0.00e+00	0	32	0	982515712	70	4425
2026-01-02 10:21:26.73	320.50	37.52	-56.4	-58.4	14.7	0.00e+00	0	32	0	989855744	79	4397
2026-01-02 10:21:30.69	321.14	36.64	-53.6	-54.8	16.0	0.00e+00	0	32	0	998244352	73	4103
2026-01-02 10:21:34.65	321.74	35.78	-56.2	-58.1	14.8	0.00e+00	0	32	0	1005584384	77	4781
2026-01-02 10:21:38.62	322.32	34.94	-55.5	-57.1	15.2	0.00e+00	0	32	0	1012924416	77	4253
2026-01-02 10:21:42.60	322.87	34.11	-53.8	-54.9	15.9	0.00e+00	0	32	0	1020264448	73	4193
2026-01-02 10:21:46.57	323.40	33.31	-54.5	-55.8	15.6	0.00e+00	0	32	0	1027604480	74	4388
2026-01-02 10:21:50.53	323.89	32.52	-54.6	-56.0	15.6	0.00e+00	0	32	0	1034944512	75	4212
2026-01-02 10:21:54.50	324.37	31.75	-54.7	-56.0	15.6	0.00e+00	0	32	0	1042284544	74	4473
2026-01-02 10:21:58.47	324.83	31.00	-55.8	-57.4	15.1	0.00e+00	0	32	0	1049624576	76	4692
2026-01-02 10:22:02.46	325.26	30.27	-55.1	-56.5	15.4	0.00e+00	0	32	0	1056964608	76	4237
2026-01-02 10:22:06.42	325.68	29.55	-55.0	-56.5	15.4	0.00e+00	0	32	0	1064304640	76	4198
2026-01-02 10:22:10.39	326.08	28.85	-55.5	-57.0	15.2	0.00e+00	0	32	0	1072693248	76	4481
2026-01-02 10:22:14.36	326.46	28.17	-55.6	-57.2	15.2	0.00e+00	0	32	0	1080033280	77	4305
2026-01-02 10:22:18.32	326.83	27.50	-54.8	-56.2	15.6	0.00e+00	0	32	0	1087373312	76	4072
2026-01-02 10:22:22.29	327.19	26.84	-53.8	-55.0	16.0	0.00e+00	0	32	0	1094713344	74	3959
2026-01-02 10:22:26.27	327.53	26.20	-54.1	-55.4	15.7	0.00e+00	0	32	0	1102053376	73	4398
2026-01-02 10:22:30.23	327.86	25.58	-54.6	-56.0	15.5	0.00e+00	0	32	0	1109393408	74	4471
2026-01-02 10:22:34.19	328.17	24.97	-54.4	-55.8	15.6	0.00e+00	0	32	0	1116733440	74	4357
2026-01-02 10:22:38.16	328.48	24.37	-54.1	-55.4	15.7	0.00e+00	0	32	0	1124073472	74	4184
2026-01-02 10:22:42.14	328.77	23.78	-53.9	-55.2	15.8	0.00e+00	0	32	0	1131413504	74	4071
2026-01-02 10:22:46.12	329.06	23.21	-52.5	-53.5	16.3	0.00e+00	0	32	0	1138753536	71	3985
2026-01-02 10:22:49.88	329.32	22.67	-51.2	-52.0	16.6	0.00e+00	0	32	0	1146093568	69	3766
2026-01-02 10:22:53.93	329.59	22.11	-51.5	-52.4	16.4	0.00e+00	0	32	0	1154482176	68	4151
2026-01-02 10:22:57.99	329.86	21.56	-52.3	-53.3	16.3	0.00e+00	0	32	0	1161822208	70	4111
2026-01-02 10:23:02.11	330.11	21.01	-52.5	-53.5	16.2	0.00e+00	0	32	0	1169162240	70	4230
2026-01-02 10:23:06.09	330.36	20.49	-52.3	-53.3	16.3	0.00e+00	0	32	0	1176502272	70	4121
2026-01-02 10:23:10.07	330.59	19.98	-52.2	-53.1	16.3	0.00e+00	0	32	0	1184890880	70	4041
2026-01-02 10:23:14.02	330.82	19.49	-52.1	-53.1	16.3	0.00e+00	0	32	0	1192230912	70	4026
2026-01-02 10:23:18.01	331.04	18.99	-52.4	-53.4	16.2	0.00e+00	0	32	0	1199570944	70	4174
2026-01-02 10:23:21.98	331.25	18.52	-52.8	-53.9	16.1	0.00e+00	0	32	0	1206910976	71	4186
2026-01-02 10:23:25.97	331.46	18.04	-53.4	-54.6	15.9	0.00e+00	0	32	0	1214251008	71	4496
2026-01-02 10:23:29.94	331.67	17.58	-53.6	-54.8	15.8	0.00e+00	0	32	0	1221591040	72	4376
2026-01-02 10:23:33.91	331.86	17.13	-53.4	-54.6	15.9	0.00e+00	0	32	0	1228931072	72	4272
2026-01-02 10:23:37.88	332.05	16.68	-53.2	-54.4	16.0	0.00e+00	0	32	0	1236271104	72	4158
2026-01-02 10:23:41.86	332.24	16.24	-52.7	-53.7	16.1	0.00e+00	0	32	0	1243611136	71	4094
2026-01-02 10:23:45.81	332.42	15.81	-52.5	-53.5	16.2	0.00e+00	0	32	0	1251999744	71	3989
2026-01-02 10:23:49.79	332.60	15.39	-52.6	-53.7	16.1	0.00e+00	0	32	0	1259339776	71	4081
2026-01-02 10:23:53.78	332.77	14.97	-52.9	-54.0	16.0	0.00e+00	0	32	0	1266679808	71	4230
2026-01-02 10:23:57.73	332.94	14.56	-53.1	-54.3	15.9	0.00e+00	0	32	0	1274019840	71	4350
2026-01-02 10:24:01.70	333.11	14.16	-53.4	-54.6	15.7	0.00e+00	0	32	0	1281359872	71	4542
2026-01-02 10:24:05.67	333.27	13.77	-53.5	-54.8	15.7	0.00e+00	0	32	0	1288699904	72	4355
2026-01-02 10:24:09.65	333.42	13.37	-53.7	-55.0	15.6	0.00e+00	0	32	0	1296039936	72	4492
2026-01-02 10:24:13.63	333.58	12.99	-53.9	-55.3	15.6	0.00e+00	0	32	0	1303379968	73	4357
2026-01-02 10:24:17.60	333.73	12.61	-54.1	-55.6	15.4	0.00e+00	0	32	0	1310720000	73	4530
2026-01-02 10:24:21.57	333.87	12.24	-54.6	-56.2	15.1	0.00e+00	0	32	0	1318060032	74	4574
2026-01-02 10:24:25.55	334.02	11.87	-54.8	-56.5	15.0	0.00e+00	0	32	0	1326448640	74	4722
2026-01-02 10:24:29.51	334.16	11.51	-54.8	-56.6	15.0	0.00e+00	0	32	0	1333788672	75	4498
2026-01-02 10:24:33.48	334.29	11.15	-54.8	-56.5	15.0	0.00e+00	0	32	0	1341128704	75	4480
2026-01-02 10:24:37.45	334.43	10.80	-54.8	-56.4	15.1	0.00e+00	0	32	0	1348468736	75	4439
2026-01-02 10:24:41.41	334.56	10.46	-54.7	-56.3	15.1	0.00e+00	0	32	0	1355808768	75	4381
2026-01-02 10:24:45.36	334.69	10.12	-54.3	-55.9	15.3	0.00e+00	0	32	0	1363148800	75	4164
2026-01-02 10:24:49.33	334.81	9.78	-54.1	-55.6	15.4	0.00e+00	0	32	0	1370488832	74	4279
2026-01-02 10:24:53.30	334.94	9.44	-54.0	-55.5	15.4	0.00e+00	0	32	0	1377828864	74	4217
2026-01-02 10:24:57.27	335.06	9.12	-54.0	-55.4	15.4	0.00e+00	0	32	0	1385168896	74	4178
2026-01-02 10:25:01.24	335.18	8.79	-54.1	-55.6	15.3	0.00e+00	0	32	0	1392508928	74	4259
2026-01-02 10:25:05.22	335.30	8.47	-54.0	-55.4	15.4	0.00e+00	0	32	0	1400897536	74	4186
2026-01-02 10:25:09.19	335.41	8.15	-54.0	-55.6	15.3	0.00e+00	0	32	0	1408237568	74	4247
2026-01-02 10:25:13.18	335.53	7.84	-54.1	-55.6	15.3	0.00e+00	0	32	0	1415577600	74	4261
2026-01-02 10:25:17.17	335.64	7.53	-54.2	-55.8	15.2	0.00e+00	0	32	0	1422917632	74	4360
2026-01-02 10:25:21.13	335.75	7.23	-54.3	-56.0	15.1	0.00e+00	0	32	0	1430257664	74	4444
2026-01-02 10:25:25.11	335.85	6.92	-54.5	-56.2	15.0	0.00e+00	0	32	0	1437597696	74	4576
2026-01-02 10:25:29.07	335.96	6.63	-54.6	-56.4	14.9	0.00e+00	0	32	0	1444937728	74	4682
2026-01-02 10:25:33.03	336.06	6.33	-54.8	-56.6	14.7	0.00e+00	0	32	0	1452277760	74	4810
2026-01-02 10:25:37.00	336.16	6.04	-54.8	-56.7	14.6	0.00e+00	0	32	0	1459617792	74	4839
2026-01-02 10:25:40.97	336.26	5.75	-54.8	-56.7	14.6	0.00e+00	0	32	0	1466957824	75	4573
2026-01-02 10:25:44.94	336.36	5.47	-54.9	-56.8	14.6	0.00e+00	0	32	0	1474297856	75	4643
2026-01-02 10:25:48.92	336.46	5.18	-55.3	-57.6	14.1	0.00e+00	0	32	0	1482686464	75	5043
2026-01-02 10:25:52.91	336.56	4.90	-60.9	-76.5	3.9	1.49e+00	0	32	104	1487929344	87	22397
2026-01-02 10:25:56.92	336.65	4.62	-62.0	-77.6	3.8	1.49e+00	0	32	104	1487929344	89	22623
2026-01-02 10:26:00.94	336.75	4.35	-62.4	-78.0	3.9	1.49e+00	0	32	104	1487929344	90	22434
2026-01-02 10:26:04.97	336.84	4.07	-62.6	-78.2	3.8	1.49e+00	0	32	104	1487929344	90	22825
2026-01-02 10:26:08.99	336.93	3.80	-62.6	-78.2	3.8	1.49e+00	0	32	104	1487929344	90	22989
2026-01-02 10:26:13.00	337.02	3.53	-62.6	-78.2	3.8	1.49e+00	0	32	104	1487929344	90	23030
2026-01-02 10:26:16.98	337.11	3.27	-62.5	-78.1	3.8	1.49e+00	0	32	104	1487929344	90	22711
2026-01-02 10:26:20.97	337.19	3.01	-62.5	-78.1	3.8	1.49e+00	0	32	104	1487929344	90	22611
2026-01-02 10:26:24.95	337.28	2.75	-62.4	-78.0	3.8	1.49e+00	0	32	104	1487929344	90	22394
2026-01-02 10:26:28.93	337.36	2.49	-62.3	-77.9	3.8	1.49e+00	0	32	104	1487929344	90	22256
2026-01-02 10:26:32.90	337.44	2.24	-62.3	-77.9	3.8	1.49e+00	0	32	104	1487929344	90	22139
2026-01-02 10:26:36.87	337.53	1.99	-62.3	-77.9	3.8	1.49e+00	0	32	104	1487929344	90	22089

#Closed at: 2026-01-02 10:26:37
#Recorded file [1487 MB]: D:/lorett/data/31004_260102_131210.dat