passes_logs/2026/01/02/R3.2S_Murmansk/R3.2S_Murmansk__20260102_233533_AQUA_rec.log

#Pass ID: 20260102_233533_AQUA
#Satellite: AQUA
#Configuration: AQUA
#almurnet v.1.7.20251203
#Start time: 2026-01-02 23:35:34

#Version: 2.2.20231116
#Station: R3.2S_Murmansk
#Location: 33.079688 lon 68.888172 lat
#TLE: 1 27424U 02022A   25365.92641127  .00002078  00000+0  42628-3 0  9999
#TLE: 2 27424  98.4058 327.1196 0001962  94.7781 340.6230 14.61783896258835

#Time	Az	El	Level	Level2	SNR	BER	BlckErr	Temp	State	Recorded	gain1	gain2
2026-01-02 23:35:34.45	21.63	2.07	-59.2	-78.1	3.8	7.48e-01	0	29	0	0	87	31290
2026-01-02 23:35:37.42	21.92	2.22	-59.3	-78.1	3.8	7.41e-01	0	29	104	0	86	33074
2026-01-02 23:35:40.42	22.21	2.38	-59.2	-78.0	3.8	7.45e-01	0	29	104	0	86	32693
2026-01-02 23:35:43.41	22.51	2.53	-59.3	-77.9	3.8	7.47e-01	0	29	104	0	86	32328
2026-01-02 23:35:46.39	22.81	2.68	-59.3	-78.0	3.8	7.47e-01	0	29	104	0	86	32769
2026-01-02 23:35:49.38	23.11	2.84	-59.3	-78.1	3.8	7.47e-01	0	29	104	0	86	32987
2026-01-02 23:35:52.38	23.42	2.99	-59.3	-78.2	3.8	7.44e-01	0	30	104	0	86	33372
2026-01-02 23:35:55.37	23.73	3.15	-59.3	-78.0	3.8	7.45e-01	0	29	104	0	86	32676
2026-01-02 23:35:58.37	24.05	3.31	-59.3	-77.8	3.8	7.47e-01	0	30	104	0	86	32069
2026-01-02 23:36:01.36	24.37	3.46	-59.3	-78.1	3.8	7.48e-01	0	30	104	0	86	33058
2026-01-02 23:36:04.33	24.69	3.62	-59.3	-77.9	3.8	7.44e-01	0	30	104	0	86	32367
2026-01-02 23:36:07.32	25.01	3.77	-59.3	-77.8	3.8	7.42e-01	0	30	104	0	86	32044
2026-01-02 23:36:10.31	25.34	3.93	-59.2	-75.0	4.1	7.34e-01	0	30	104	0	86	23274
2026-01-02 23:36:13.30	25.67	4.09	-59.2	-74.7	4.1	7.31e-01	0	30	104	0	86	22500
2026-01-02 23:36:16.29	26.01	4.25	-59.0	-71.4	5.6	6.93e-01	0	30	0	0	86	15341
2026-01-02 23:36:19.30	26.35	4.41	-59.0	-70.4	6.3	6.71e-01	91	30	0	5242880	86	13591
2026-01-02 23:36:22.28	26.69	4.56	-57.9	-64.0	11.5	6.11e-01	0	30	0	11010048	85	6930
2026-01-02 23:36:25.27	27.04	4.72	-55.1	-57.9	15.0	6.01e-01	0	30	0	16777216	79	4820
2026-01-02 23:36:28.26	27.39	4.88	-54.4	-56.7	15.4	6.03e-01	0	30	0	22020096	77	4741
2026-01-02 23:36:31.26	27.75	5.04	-56.0	-59.3	14.3	6.02e-01	0	30	0	27787264	80	5354
2026-01-02 23:36:34.26	28.11	5.20	-57.7	-63.5	11.7	6.07e-01	0	30	0	33554432	83	7358
2026-01-02 23:36:37.25	28.47	5.36	-53.8	-55.7	15.7	6.03e-01	0	30	0	38797312	76	4459
2026-01-02 23:36:40.24	28.84	5.52	-53.8	-55.7	15.7	6.03e-01	0	30	0	44564480	76	4472
2026-01-02 23:36:43.24	29.22	5.68	-53.6	-55.5	15.8	6.06e-01	0	30	0	50331648	76	4361
2026-01-02 23:36:46.23	29.59	5.84	-53.3	-55.0	15.9	6.02e-01	0	30	0	55574528	75	4376
2026-01-02 23:36:49.22	29.97	6.00	-53.4	-55.1	15.9	6.02e-01	0	30	0	61341696	75	4437
2026-01-02 23:36:52.22	30.36	6.16	-53.4	-55.2	15.9	6.04e-01	0	31	0	67108864	75	4461
2026-01-02 23:36:55.22	30.75	6.32	-53.3	-55.0	15.9	6.04e-01	0	30	0	72876032	75	4373
2026-01-02 23:36:58.21	31.15	6.48	-53.3	-55.0	15.9	6.03e-01	0	30	0	78118912	75	4373
2026-01-02 23:37:01.20	31.55	6.64	-53.2	-54.9	15.9	6.04e-01	0	30	0	83886080	75	4331
2026-01-02 23:37:04.20	31.95	6.80	-53.2	-55.0	15.9	6.06e-01	0	31	0	89653248	75	4345
2026-01-02 23:37:07.19	32.36	6.96	-53.1	-54.8	16.0	6.04e-01	0	30	0	94896128	75	4247
2026-01-02 23:37:10.17	32.77	7.12	-53.0	-54.7	16.0	6.02e-01	0	30	0	100663296	75	4205
2026-01-02 23:37:13.17	33.19	7.28	-53.0	-54.7	16.1	6.03e-01	0	31	0	106430464	75	4195
2026-01-02 23:37:16.16	33.61	7.44	-53.0	-54.6	16.1	6.04e-01	0	31	0	112197632	75	4176
2026-01-02 23:37:19.16	34.04	7.60	-52.9	-54.5	16.1	6.05e-01	0	31	0	117440512	74	4346
2026-01-02 23:37:22.16	34.48	7.76	-53.0	-54.6	16.0	6.02e-01	0	31	0	123207680	74	4423
2026-01-02 23:37:25.16	34.92	7.92	-52.9	-54.5	16.1	6.02e-01	0	30	0	128974848	74	4372
2026-01-02 23:37:28.14	35.36	8.08	-52.8	-54.4	16.1	6.02e-01	0	31	0	134217728	74	4330
2026-01-02 23:37:31.13	35.80	8.24	-52.9	-54.5	16.1	6.02e-01	0	31	0	139984896	74	4350
2026-01-02 23:37:34.13	36.26	8.40	-52.8	-54.3	16.1	6.03e-01	0	31	0	145752064	74	4272
2026-01-02 23:37:37.12	36.72	8.56	-52.7	-54.2	16.2	6.03e-01	0	31	0	151519232	74	4220
2026-01-02 23:37:40.12	37.18	8.71	-52.7	-54.2	16.2	6.05e-01	0	31	0	156762112	74	4221
2026-01-02 23:37:43.12	37.65	8.87	-52.6	-54.0	16.2	6.04e-01	0	31	0	162529280	74	4145
2026-01-02 23:37:46.11	38.13	9.03	-52.5	-54.0	16.2	6.03e-01	0	31	0	168296448	74	4135
2026-01-02 23:37:49.12	38.61	9.19	-52.6	-54.1	16.2	6.01e-01	0	31	0	173539328	74	4183
2026-01-02 23:37:52.12	39.10	9.34	-52.4	-53.9	16.3	6.03e-01	0	31	0	179306496	74	4072
2026-01-02 23:37:55.12	39.59	9.50	-52.4	-53.9	16.3	6.02e-01	0	31	0	185073664	74	4053
2026-01-02 23:37:58.11	40.08	9.65	-52.5	-53.9	16.3	6.02e-01	0	31	0	190840832	74	4082
2026-01-02 23:38:01.11	40.59	9.81	-52.2	-53.6	16.3	6.02e-01	0	31	0	196083712	73	4187
2026-01-02 23:38:04.12	41.10	9.96	-52.4	-53.9	16.2	6.02e-01	0	31	0	201850880	73	4295
2026-01-02 23:38:07.11	41.61	10.12	-52.3	-53.7	16.3	6.04e-01	0	31	0	207618048	73	4230
2026-01-02 23:38:10.10	42.13	10.27	-52.3	-53.7	16.2	6.04e-01	0	31	0	213385216	73	4221
2026-01-02 23:38:13.11	42.66	10.42	-52.2	-53.6	16.3	6.04e-01	0	31	0	218628096	73	4148
2026-01-02 23:38:16.10	43.19	10.57	-52.1	-53.5	16.3	6.05e-01	0	31	0	224395264	73	4137
2026-01-02 23:38:19.10	43.72	10.72	-52.2	-53.6	16.3	6.02e-01	0	31	0	230162432	73	4147
2026-01-02 23:38:22.09	44.26	10.87	-52.0	-53.4	16.4	6.02e-01	0	31	0	235405312	73	4053
2026-01-02 23:38:25.10	44.81	11.01	-52.1	-53.5	16.3	6.05e-01	0	31	0	241172480	73	4102
2026-01-02 23:38:28.09	45.37	11.16	-52.1	-53.4	16.4	6.03e-01	0	31	0	246939648	73	4089
2026-01-02 23:38:31.08	45.93	11.30	-51.8	-53.1	16.3	6.04e-01	0	31	0	252182528	72	4193
2026-01-02 23:38:34.08	46.49	11.44	-52.0	-53.3	16.4	6.03e-01	0	31	0	257949696	72	4267
2026-01-02 23:38:37.09	47.07	11.59	-52.0	-53.3	16.3	6.03e-01	0	31	0	263716864	72	4279
2026-01-02 23:38:40.08	47.64	11.73	-51.9	-53.3	16.3	6.05e-01	0	31	0	269484032	72	4260
2026-01-02 23:38:43.08	48.22	11.86	-51.8	-53.1	16.4	6.06e-01	0	31	0	274726912	72	4181
2026-01-02 23:38:46.07	48.81	12.00	-51.8	-53.2	16.4	6.04e-01	0	31	0	280494080	72	4198
2026-01-02 23:38:49.06	49.40	12.13	-51.8	-53.1	16.4	6.01e-01	0	30	0	286261248	72	4180
2026-01-02 23:38:52.06	50.01	12.27	-52.0	-53.3	16.3	6.01e-01	0	31	0	292028416	72	4278
2026-01-02 23:38:55.06	50.61	12.40	-51.9	-53.3	16.4	6.02e-01	0	31	0	297271296	72	4263
2026-01-02 23:38:58.05	51.22	12.53	-51.8	-53.2	16.4	6.04e-01	0	31	0	303038464	72	4199
2026-01-02 23:39:01.06	51.84	12.65	-51.7	-53.0	16.4	6.03e-01	0	31	0	308805632	72	4112
2026-01-02 23:39:04.05	52.46	12.78	-51.8	-53.2	16.4	6.05e-01	0	31	0	314048512	72	4201
2026-01-02 23:39:07.05	53.09	12.90	-51.6	-52.9	16.4	6.03e-01	0	31	0	319815680	72	4055
2026-01-02 23:39:10.03	53.72	13.02	-51.8	-53.1	16.4	6.01e-01	0	31	0	325582848	72	4179
2026-01-02 23:39:13.05	54.36	13.14	-51.6	-52.9	16.5	6.04e-01	0	31	0	331350016	72	4062
2026-01-02 23:39:16.04	55.01	13.25	-51.7	-53.0	16.4	6.04e-01	0	31	0	336592896	72	4138
2026-01-02 23:39:19.04	55.66	13.37	-51.6	-52.9	16.4	6.04e-01	0	31	0	342360064	72	4063
2026-01-02 23:39:22.04	56.31	13.48	-51.6	-52.9	16.4	6.03e-01	0	31	0	348127232	72	4073
2026-01-02 23:39:25.03	56.97	13.59	-51.7	-52.9	16.5	6.02e-01	0	31	0	353370112	72	4091
2026-01-02 23:39:28.02	57.63	13.69	-51.7	-52.9	16.5	6.02e-01	0	31	0	359137280	72	4083
2026-01-02 23:39:31.02	58.30	13.79	-51.6	-52.9	16.5	6.02e-01	0	31	0	364904448	72	4055
2026-01-02 23:39:34.03	58.98	13.89	-51.6	-52.9	16.4	6.05e-01	0	31	0	370671616	72	4084
2026-01-02 23:39:37.03	59.66	13.99	-51.7	-53.0	16.5	6.02e-01	0	31	0	375914496	72	4112
2026-01-02 23:39:40.02	60.34	14.08	-51.5	-52.8	16.5	6.02e-01	0	31	0	381681664	72	4017
2026-01-02 23:39:43.03	61.03	14.17	-51.6	-52.8	16.4	6.03e-01	0	31	0	387448832	72	4046
2026-01-02 23:39:46.01	61.72	14.25	-51.6	-52.8	16.5	6.02e-01	0	31	0	393216000	72	4049
2026-01-02 23:39:49.02	62.42	14.34	-51.5	-52.7	16.5	6.03e-01	0	31	0	398458880	72	3996
2026-01-02 23:39:52.01	63.12	14.41	-51.6	-52.8	16.5	6.03e-01	0	31	0	404226048	72	4048
2026-01-02 23:39:55.00	63.82	14.49	-51.5	-52.7	16.5	6.03e-01	0	31	0	409993216	72	3993
2026-01-02 23:39:58.00	64.53	14.56	-51.7	-53.0	16.4	6.02e-01	0	31	0	415236096	72	4106
2026-01-02 23:40:01.00	65.24	14.63	-51.6	-52.8	16.5	6.05e-01	0	31	0	421003264	72	4031
2026-01-02 23:40:03.99	65.96	14.69	-51.4	-52.6	16.5	6.04e-01	0	31	0	426770432	72	3948
2026-01-02 23:40:06.96	66.67	14.76	-51.6	-52.8	16.5	6.04e-01	0	31	0	432013312	72	4044
2026-01-02 23:40:09.95	67.39	14.81	-51.4	-52.6	16.5	6.04e-01	0	31	0	437780480	72	3955
2026-01-02 23:40:12.95	68.11	14.87	-51.5	-52.7	16.5	6.05e-01	0	31	0	443547648	72	3991
2026-01-02 23:40:15.94	68.84	14.91	-51.5	-52.7	16.5	6.04e-01	0	31	0	448790528	72	3982
2026-01-02 23:40:18.94	69.57	14.96	-51.4	-52.6	16.5	6.05e-01	0	31	0	454557696	71	4168
2026-01-02 23:40:21.93	70.30	15.00	-51.6	-52.8	16.4	6.03e-01	0	31	0	460324864	71	4289
2026-01-02 23:40:24.92	71.03	15.04	-51.5	-52.7	16.4	6.04e-01	0	31	0	466092032	71	4233
2026-01-02 23:40:27.92	71.76	15.07	-51.4	-52.7	16.5	6.04e-01	0	31	0	471334912	71	4202
2026-01-02 23:40:30.91	72.50	15.10	-51.4	-52.6	16.5	6.02e-01	0	31	0	477102080	71	4183
2026-01-02 23:40:33.90	73.23	15.12	-51.4	-52.6	16.5	6.02e-01	0	31	0	482869248	71	4170
2026-01-02 23:40:36.89	73.97	15.14	-51.4	-52.7	16.4	6.02e-01	0	31	0	488112128	71	4210
2026-01-02 23:40:39.87	74.71	15.16	-51.5	-52.7	16.4	6.05e-01	0	31	0	493879296	71	4229
2026-01-02 23:40:42.85	75.44	15.17	-51.4	-52.7	16.5	6.03e-01	0	31	0	499646464	71	4210
2026-01-02 23:40:45.85	76.19	15.18	-51.5	-52.8	16.4	6.03e-01	0	31	0	505413632	71	4250
2026-01-02 23:40:48.85	76.93	15.18	-51.6	-52.8	16.4	6.01e-01	0	31	0	510656512	71	4267
2026-01-02 23:40:51.85	77.67	15.18	-51.7	-52.9	16.4	6.03e-01	0	31	0	516423680	71	4337
2026-01-02 23:40:54.84	78.41	15.18	-51.4	-52.6	16.5	6.05e-01	0	31	0	522190848	71	4162
2026-01-02 23:40:57.85	79.16	15.17	-51.3	-52.6	16.5	6.03e-01	0	31	0	527433728	71	4146
2026-01-02 23:41:00.84	79.90	15.15	-51.5	-52.8	16.4	6.02e-01	0	31	0	533200896	71	4245
2026-01-02 23:41:03.82	80.63	15.13	-51.2	-52.4	16.5	6.03e-01	0	31	0	538968064	71	4092
2026-01-02 23:41:06.82	81.37	15.11	-51.5	-52.7	16.5	6.03e-01	0	31	0	544210944	71	4230
2026-01-02 23:41:09.81	82.11	15.08	-51.3	-52.6	16.5	6.02e-01	0	31	0	549978112	71	4147
2026-01-02 23:41:12.81	82.85	15.05	-51.3	-52.6	16.5	6.00e-01	0	31	0	555745280	71	4154
2026-01-02 23:41:15.80	83.58	15.02	-51.3	-52.5	16.4	6.03e-01	0	31	0	560988160	71	4121
2026-01-02 23:41:18.78	84.31	14.98	-51.3	-52.6	16.4	6.04e-01	0	31	0	566755328	71	4158
2026-01-02 23:41:21.77	85.04	14.94	-51.4	-52.7	16.5	6.03e-01	0	31	0	572522496	71	4195
2026-01-02 23:41:24.77	85.77	14.89	-51.3	-52.5	16.4	6.05e-01	0	31	0	578289664	71	4123
2026-01-02 23:41:27.77	86.49	14.84	-51.5	-52.7	16.4	6.03e-01	0	31	0	583532544	71	4220
2026-01-02 23:41:30.76	87.21	14.78	-51.3	-52.5	16.5	6.00e-01	0	31	0	589299712	71	4122
2026-01-02 23:41:33.76	87.94	14.72	-51.4	-52.6	16.5	6.01e-01	0	31	0	595066880	71	4160
2026-01-02 23:41:36.76	88.65	14.66	-51.3	-52.5	16.5	6.02e-01	0	31	0	600834048	71	4127
2026-01-02 23:41:39.75	89.37	14.60	-51.3	-52.5	16.5	6.02e-01	0	31	0	606076928	71	4139
2026-01-02 23:41:42.74	90.08	14.53	-51.3	-52.6	16.5	6.03e-01	0	31	0	611844096	71	4155
2026-01-02 23:41:45.73	90.78	14.45	-51.5	-52.7	16.4	6.01e-01	0	31	0	617611264	71	4224
2026-01-02 23:41:48.72	91.49	14.37	-51.3	-52.5	16.5	6.04e-01	0	31	0	622854144	71	4134
2026-01-02 23:41:51.71	92.18	14.29	-51.4	-52.7	16.5	6.04e-01	0	31	0	628621312	71	4209
2026-01-02 23:41:54.71	92.88	14.21	-51.3	-52.5	16.5	6.05e-01	0	31	0	634388480	71	4143
2026-01-02 23:41:57.72	93.58	14.12	-51.4	-52.6	16.4	6.03e-01	0	31	0	639631360	71	4185
2026-01-02 23:42:00.71	94.26	14.03	-51.3	-52.5	16.5	6.03e-01	0	31	0	645398528	71	4133
2026-01-02 23:42:03.71	94.94	13.93	-51.3	-52.6	16.5	6.03e-01	0	31	0	651165696	71	4159
2026-01-02 23:42:06.71	95.62	13.84	-51.3	-52.5	16.5	6.03e-01	0	31	0	656932864	71	4121
2026-01-02 23:42:09.69	96.29	13.74	-51.4	-52.6	16.4	6.01e-01	0	31	0	662175744	71	4176
2026-01-02 23:42:12.68	96.96	13.63	-51.3	-52.5	16.5	6.00e-01	0	31	0	667942912	71	4139
2026-01-02 23:42:15.66	97.62	13.53	-51.5	-52.7	16.4	6.03e-01	0	31	0	673710080	71	4239
2026-01-02 23:42:18.66	98.28	13.42	-51.3	-52.5	16.5	6.03e-01	0	31	0	678952960	71	4135
2026-01-02 23:42:21.66	98.94	13.31	-51.4	-52.6	16.4	6.03e-01	0	31	0	684720128	71	4190
2026-01-02 23:42:24.65	99.58	13.19	-51.5	-52.7	16.4	6.05e-01	0	31	0	690487296	71	4225
2026-01-02 23:42:27.65	100.23	13.07	-51.4	-52.7	16.4	6.02e-01	0	31	0	696254464	71	4206
2026-01-02 23:42:30.65	100.87	12.95	-51.5	-52.7	16.4	6.04e-01	0	31	0	701497344	71	4220
2026-01-02 23:42:33.64	101.50	12.83	-51.4	-52.7	16.4	6.03e-01	0	31	0	707264512	71	4200
2026-01-02 23:42:36.64	102.13	12.71	-51.4	-52.7	16.4	6.03e-01	0	31	0	713031680	71	4221
2026-01-02 23:42:39.65	102.75	12.58	-51.4	-52.7	16.4	6.03e-01	0	31	0	718798848	71	4219
2026-01-02 23:42:42.64	103.37	12.45	-51.6	-52.8	16.4	6.03e-01	0	31	0	724041728	71	4287
2026-01-02 23:42:45.62	103.97	12.32	-51.4	-52.7	16.4	6.04e-01	0	31	0	729808896	71	4208
2026-01-02 23:42:48.62	104.58	12.19	-51.6	-52.9	16.4	6.02e-01	0	31	0	735576064	71	4297
2026-01-02 23:42:51.60	105.18	12.06	-51.6	-52.9	16.4	6.03e-01	0	31	0	740818944	71	4301
2026-01-02 23:42:54.60	105.77	11.92	-51.6	-52.9	16.4	6.04e-01	0	31	0	746586112	71	4297
2026-01-02 23:42:57.60	106.36	11.78	-51.6	-52.8	16.4	6.03e-01	0	31	0	752353280	71	4282
2026-01-02 23:43:00.59	106.94	11.64	-51.6	-52.9	16.4	6.03e-01	0	31	0	757596160	71	4334
2026-01-02 23:43:03.59	107.52	11.50	-51.8	-53.1	16.3	6.01e-01	0	31	0	763363328	71	4412
2026-01-02 23:43:06.58	108.09	11.36	-51.7	-53.0	16.4	6.03e-01	0	31	0	769130496	71	4372
2026-01-02 23:43:09.57	108.65	11.21	-51.7	-53.0	16.4	6.02e-01	0	31	0	774373376	71	4370
2026-01-02 23:43:12.56	109.21	11.07	-51.8	-53.1	16.3	6.03e-01	0	31	0	780140544	71	4400
2026-01-02 23:43:15.53	109.76	10.92	-51.9	-53.3	16.3	6.03e-01	0	31	0	785907712	71	4509
2026-01-02 23:43:18.52	110.30	10.77	-51.9	-53.3	16.3	6.02e-01	0	31	0	791150592	71	4494
2026-01-02 23:43:21.50	110.84	10.63	-51.8	-53.1	16.3	6.02e-01	0	31	0	796917760	71	4436
2026-01-02 23:43:24.48	111.37	10.48	-51.8	-53.2	16.3	6.04e-01	0	31	0	802684928	71	4442
2026-01-02 23:43:27.46	111.90	10.33	-52.0	-53.4	16.3	6.04e-01	0	31	0	807927808	71	4576
2026-01-02 23:43:30.46	112.43	10.17	-52.0	-53.3	16.3	6.03e-01	0	31	0	813694976	72	4287
2026-01-02 23:43:33.45	112.94	10.02	-52.0	-53.3	16.3	6.03e-01	0	31	0	819462144	72	4275
2026-01-02 23:43:36.45	113.46	9.87	-52.0	-53.4	16.3	6.03e-01	0	31	0	824705024	72	4298
2026-01-02 23:43:39.44	113.96	9.71	-52.0	-53.4	16.3	6.02e-01	0	31	0	830472192	72	4335
2026-01-02 23:43:42.43	114.46	9.56	-52.1	-53.5	16.3	6.05e-01	0	31	0	836239360	72	4359
2026-01-02 23:43:45.42	114.96	9.40	-52.2	-53.6	16.2	6.03e-01	0	31	0	842006528	72	4433
2026-01-02 23:43:48.42	115.45	9.24	-52.3	-53.7	16.2	6.04e-01	0	31	0	847249408	72	4482
2026-01-02 23:43:51.42	115.94	9.08	-52.3	-53.8	16.2	6.04e-01	0	31	0	853016576	72	4500
2026-01-02 23:43:54.40	116.41	8.93	-52.3	-53.7	16.2	6.05e-01	0	31	0	858783744	72	4474
2026-01-02 23:43:57.39	116.89	8.77	-52.2	-53.6	16.3	6.03e-01	0	31	0	864026624	72	4419
2026-01-02 23:44:00.40	117.36	8.61	-52.2	-53.6	16.2	6.03e-01	0	31	0	869793792	72	4429
2026-01-02 23:44:03.39	117.82	8.45	-52.4	-53.9	16.2	6.01e-01	0	31	0	875560960	72	4567
2026-01-02 23:44:06.37	118.28	8.29	-52.5	-54.0	16.1	6.04e-01	0	31	0	881328128	72	4628
2026-01-02 23:44:09.37	118.73	8.13	-52.4	-53.9	16.1	6.02e-01	0	31	0	886571008	72	4577
2026-01-02 23:44:12.36	119.18	7.97	-52.3	-53.9	16.2	6.02e-01	0	31	0	892338176	72	4547
2026-01-02 23:44:15.35	119.62	7.81	-52.3	-53.8	16.2	6.02e-01	0	31	0	898105344	72	4524
2026-01-02 23:44:18.34	120.06	7.65	-52.5	-54.1	16.1	6.04e-01	0	31	0	903348224	73	4427
2026-01-02 23:44:21.31	120.49	7.49	-52.6	-54.2	16.1	6.00e-01	0	31	0	909115392	73	4471
2026-01-02 23:44:24.30	120.91	7.33	-52.6	-54.2	16.1	6.05e-01	0	31	0	914882560	73	4490
2026-01-02 23:44:27.30	121.34	7.16	-52.6	-54.2	16.1	6.02e-01	0	31	0	920125440	73	4451
2026-01-02 23:44:30.30	121.75	7.00	-52.5	-54.1	16.1	6.02e-01	0	31	0	925892608	73	4423
2026-01-02 23:44:33.29	122.17	6.84	-52.7	-54.3	16.0	6.00e-01	0	31	0	931659776	73	4534
2026-01-02 23:44:36.28	122.57	6.68	-52.6	-54.2	16.1	6.04e-01	0	31	0	937426944	73	4486
2026-01-02 23:44:39.28	122.98	6.52	-52.8	-54.5	16.0	6.04e-01	0	31	0	942669824	73	4623
2026-01-02 23:44:42.27	123.38	6.36	-52.8	-54.4	16.0	6.04e-01	0	31	0	948436992	73	4590
2026-01-02 23:44:45.26	123.77	6.19	-52.8	-54.5	16.0	6.03e-01	0	31	0	954204160	73	4631
2026-01-02 23:44:48.24	124.16	6.03	-52.8	-54.6	16.0	6.02e-01	0	31	0	959447040	73	4664
2026-01-02 23:44:51.23	124.54	5.87	-52.8	-54.6	16.0	6.03e-01	0	31	0	965214208	73	4670
2026-01-02 23:44:54.23	124.92	5.71	-52.9	-54.7	15.9	6.01e-01	0	31	0	970981376	73	4716
2026-01-02 23:44:57.21	125.30	5.55	-52.9	-54.7	15.9	6.02e-01	0	31	0	976224256	73	4733
2026-01-02 23:45:00.21	125.67	5.39	-53.0	-54.8	15.9	6.02e-01	0	31	0	981991424	74	4532
2026-01-02 23:45:03.21	126.04	5.23	-53.0	-54.8	16.0	6.04e-01	0	31	0	987758592	74	4507
2026-01-02 23:45:06.20	126.40	5.07	-53.0	-54.8	15.9	6.02e-01	0	31	0	993525760	74	4516
2026-01-02 23:45:09.20	126.76	4.91	-59.8	-78.3	3.8	7.47e-01	0	31	104	996671488	87	31872
2026-01-02 23:45:12.21	127.12	4.75	-60.5	-79.4	3.8	7.47e-01	0	31	104	996671488	88	34191
2026-01-02 23:45:15.21	127.47	4.58	-60.6	-79.3	3.8	7.47e-01	0	31	104	996671488	89	32167
2026-01-02 23:45:18.20	127.82	4.43	-61.0	-79.9	3.8	7.48e-01	0	31	104	996671488	89	34327
2026-01-02 23:45:21.20	128.16	4.27	-61.2	-80.2	3.8	7.47e-01	0	31	104	996671488	90	33352
2026-01-02 23:45:24.22	128.50	4.11	-61.4	-80.3	3.8	7.45e-01	0	31	104	996671488	90	33964
2026-01-02 23:45:27.21	128.84	3.95	-61.5	-80.4	3.8	7.45e-01	0	31	104	996671488	90	34294
2026-01-02 23:45:30.21	129.17	3.79	-61.6	-80.5	3.8	7.48e-01	0	31	104	996671488	90	34652
2026-01-02 23:45:33.21	129.50	3.63	-61.6	-80.5	3.8	7.45e-01	0	31	104	996671488	91	32813
2026-01-02 23:45:36.21	129.82	3.47	-61.5	-80.5	3.8	7.45e-01	0	31	104	996671488	91	32592
2026-01-02 23:45:39.20	130.14	3.31	-61.5	-80.4	3.8	7.48e-01	0	31	104	996671488	91	32432
2026-01-02 23:45:42.20	130.46	3.16	-61.5	-80.4	3.8	7.48e-01	0	31	104	996671488	91	32407
2026-01-02 23:45:45.20	130.77	3.00	-61.5	-80.3	3.8	7.46e-01	0	31	104	996671488	91	32159
2026-01-02 23:45:48.19	131.08	2.84	-61.4	-80.4	3.8	7.45e-01	0	31	104	996671488	91	32194
2026-01-02 23:45:51.20	131.39	2.68	-61.4	-80.3	3.8	7.42e-01	0	31	104	996671488	91	32141
2026-01-02 23:45:54.19	131.69	2.53	-61.4	-80.3	3.8	7.47e-01	0	31	104	996671488	91	32114
2026-01-02 23:45:57.19	131.99	2.37	-61.4	-80.3	3.8	7.46e-01	0	31	104	996671488	91	32159
2026-01-02 23:46:00.18	132.29	2.22	-61.4	-80.3	3.8	7.46e-01	0	31	104	996671488	91	32052
2026-01-02 23:46:03.17	132.58	2.06	-61.4	-80.3	3.8	7.43e-01	0	31	104	996671488	91	32044
2026-01-02 23:46:06.16	132.87	1.91	-61.4	-80.3	3.8	7.45e-01	0	31	104	996671488	91	32015

#Closed at: 2026-01-02 23:46:06
#Recorded file [996 MB]: D:/lorett/data/31004_260103_023534.dat