passes_logs/2026/01/02/R3.2S_Murmansk/R3.2S_Murmansk__20260102_235551_SUOMI_NPP_rec.log

#Pass ID: 20260102_235551_SUOMI NPP
#Satellite: SUOMI NPP
#Configuration: NPP
#almurnet v.1.7.20251203
#Start time: 2026-01-02 23:55:52

#Version: 2.2.20231116
#Station: R3.2S_Murmansk
#Location: 33.079688 lon 68.888172 lat
#TLE: 1 37849U 11061A   26001.07732418  .00000182  00000+0  10735-3 0  9990
#TLE: 2 37849  98.7795 303.2470 0002580  87.2016 272.9455 14.19520779734739

#Time	Az	El	Level	Level2	SNR	BER	BlckErr	Temp	State	Recorded	gain1	gain2
2026-01-02 23:55:52.46	21.87	2.05	-59.9	-75.2	3.8	1.49e+00	0	29	0	0	86	20436
2026-01-02 23:55:56.45	21.97	2.30	-59.8	-74.2	3.8	1.49e+00	0	29	104	0	84	20462
2026-01-02 23:56:00.46	22.08	2.55	-59.8	-73.9	3.8	1.49e+00	0	29	104	0	84	19669
2026-01-02 23:56:04.44	22.19	2.81	-59.8	-73.9	3.8	1.49e+00	0	29	104	0	84	19706
2026-01-02 23:56:08.44	22.30	3.07	-59.7	-72.1	4.2	1.44e+00	0	30	0	0	84	15971
2026-01-02 23:56:12.45	22.42	3.33	-59.6	-70.4	4.7	8.85e-01	0	29	0	4194304	84	13138
2026-01-02 23:56:16.46	22.53	3.59	-59.6	-70.1	4.8	7.72e-01	0	30	0	11534336	84	12682
2026-01-02 23:56:20.46	22.65	3.86	-59.2	-66.9	6.8	1.99e-01	0	30	0	18874368	84	8834
2026-01-02 23:56:24.44	22.77	4.13	-57.7	-62.1	10.8	1.61e-03	0	30	0	26214400	82	5660
2026-01-02 23:56:28.45	22.89	4.40	-56.6	-59.6	12.6	0.00e+00	0	30	0	33554432	79	5061
2026-01-02 23:56:32.45	23.01	4.67	-56.3	-59.1	12.9	0.00e+00	0	30	0	41943040	78	5049
2026-01-02 23:56:36.45	23.14	4.95	-57.2	-60.8	11.7	4.50e-06	0	30	0	49283072	79	5846
2026-01-02 23:56:40.47	23.27	5.23	-57.7	-61.9	11.0	1.51e-02	0	30	0	56623104	82	5569
2026-01-02 23:56:44.48	23.39	5.51	-56.0	-58.5	13.4	0.00e+00	0	30	0	63963136	78	4721
2026-01-02 23:56:48.47	23.52	5.80	-55.7	-57.9	13.7	0.00e+00	0	30	0	71303168	77	4704
2026-01-02 23:56:52.49	23.66	6.09	-55.5	-57.7	13.8	0.00e+00	0	30	0	78643200	77	4570
2026-01-02 23:56:56.51	23.79	6.38	-55.5	-57.6	13.9	0.00e+00	0	30	0	87031808	77	4531
2026-01-02 23:57:00.50	23.93	6.67	-55.4	-57.4	14.0	0.00e+00	0	30	0	94371840	77	4437
2026-01-02 23:57:04.50	24.07	6.97	-55.5	-57.6	14.0	0.00e+00	0	30	0	101711872	77	4538
2026-01-02 23:57:08.48	24.21	7.27	-55.3	-57.3	14.1	0.00e+00	0	30	0	109051904	77	4390
2026-01-02 23:57:12.47	24.36	7.57	-55.4	-57.4	14.1	0.00e+00	0	30	0	116391936	77	4440
2026-01-02 23:57:16.47	24.51	7.88	-55.3	-57.3	14.1	0.00e+00	0	30	0	123731968	77	4371
2026-01-02 23:57:20.44	24.66	8.19	-55.4	-57.4	14.1	0.00e+00	0	30	0	131072000	76	4673
2026-01-02 23:57:24.43	24.81	8.51	-55.3	-57.3	14.1	0.00e+00	0	30	0	139460608	76	4623
2026-01-02 23:57:28.42	24.97	8.83	-55.2	-57.1	14.3	0.00e+00	0	31	0	146800640	76	4506
2026-01-02 23:57:32.39	25.13	9.15	-55.2	-57.1	14.3	0.00e+00	0	30	0	154140672	76	4513
2026-01-02 23:57:36.36	25.29	9.47	-54.9	-56.7	14.5	0.00e+00	0	31	0	161480704	76	4319
2026-01-02 23:57:40.33	25.45	9.80	-55.0	-56.9	14.4	0.00e+00	0	30	0	168820736	76	4397
2026-01-02 23:57:44.33	25.62	10.14	-54.9	-56.6	14.5	0.00e+00	0	31	0	176160768	76	4278
2026-01-02 23:57:48.32	25.80	10.48	-54.7	-56.3	14.7	0.00e+00	0	31	0	183500800	76	4138
2026-01-02 23:57:52.31	25.97	10.82	-54.7	-56.4	14.5	0.00e+00	0	31	0	190840832	75	4427
2026-01-02 23:57:56.31	26.15	11.17	-54.6	-56.2	14.6	0.00e+00	0	31	0	199229440	75	4326
2026-01-02 23:58:00.30	26.34	11.52	-54.5	-56.1	14.8	0.00e+00	0	31	0	206569472	75	4252
2026-01-02 23:58:04.27	26.52	11.88	-54.4	-55.9	14.9	0.00e+00	0	31	0	213909504	75	4185
2026-01-02 23:58:08.25	26.72	12.24	-54.1	-55.6	14.9	0.00e+00	0	31	0	221249536	74	4276
2026-01-02 23:58:12.23	26.91	12.61	-54.1	-55.5	15.0	0.00e+00	0	31	0	228589568	74	4212
2026-01-02 23:58:16.20	27.11	12.98	-53.9	-55.2	15.1	0.00e+00	0	31	0	235929600	74	4088
2026-01-02 23:58:20.20	27.32	13.36	-53.9	-55.2	15.1	0.00e+00	0	31	0	243269632	74	4096
2026-01-02 23:58:24.18	27.53	13.75	-53.7	-55.1	15.2	0.00e+00	0	31	0	250609664	74	4006
2026-01-02 23:58:28.15	27.74	14.14	-53.9	-55.3	15.0	0.00e+00	0	31	0	258998272	73	4367
2026-01-02 23:58:32.13	27.96	14.53	-53.7	-55.1	15.1	0.00e+00	0	31	0	266338304	73	4252
2026-01-02 23:58:36.10	28.19	14.94	-53.6	-54.9	15.2	0.00e+00	0	31	0	273678336	73	4181
2026-01-02 23:58:40.09	28.42	15.35	-53.5	-54.8	15.3	0.00e+00	0	31	0	281018368	73	4116
2026-01-02 23:58:44.08	28.66	15.76	-53.5	-54.7	15.3	0.00e+00	0	31	0	288358400	73	4084
2026-01-02 23:58:48.07	28.91	16.19	-53.7	-55.0	15.2	0.00e+00	0	31	0	295698432	73	4242
2026-01-02 23:58:52.06	29.16	16.62	-53.9	-55.3	15.1	0.00e+00	0	31	0	303038464	73	4348
2026-01-02 23:58:56.05	29.42	17.06	-53.8	-55.1	15.1	0.00e+00	0	31	0	310378496	73	4288
2026-01-02 23:59:00.05	29.68	17.50	-53.8	-55.2	15.1	0.00e+00	0	31	0	318767104	73	4300
2026-01-02 23:59:04.03	29.95	17.95	-53.5	-54.8	15.3	0.00e+00	0	31	0	326107136	73	4124
2026-01-02 23:59:08.03	30.24	18.42	-53.1	-54.2	15.5	0.00e+00	0	31	0	333447168	72	4077
2026-01-02 23:59:12.05	30.53	18.89	-52.8	-53.9	15.6	0.00e+00	0	31	0	340787200	72	3924
2026-01-02 23:59:16.06	30.83	19.37	-52.7	-53.8	15.5	0.00e+00	0	31	0	348127232	71	4137
2026-01-02 23:59:20.08	31.13	19.86	-52.8	-54.0	15.5	0.00e+00	0	31	0	355467264	71	4197
2026-01-02 23:59:24.08	31.45	20.36	-53.2	-54.4	15.4	0.00e+00	0	31	0	363855872	71	4396
2026-01-02 23:59:28.08	31.78	20.86	-53.3	-54.5	15.3	0.00e+00	0	31	0	371195904	71	4463
2026-01-02 23:59:32.08	32.11	21.38	-53.0	-54.2	15.4	0.00e+00	0	31	0	378535936	71	4299
2026-01-02 23:59:36.08	32.46	21.90	-52.8	-53.9	15.5	0.00e+00	0	31	0	385875968	71	4161
2026-01-02 23:59:40.08	32.82	22.44	-52.9	-54.0	15.5	0.00e+00	0	31	0	393216000	71	4231
2026-01-02 23:59:44.09	33.19	22.99	-52.6	-53.7	15.6	0.00e+00	0	31	0	400556032	71	4066
2026-01-02 23:59:48.09	33.58	23.54	-52.5	-53.5	15.7	0.00e+00	0	31	0	407896064	71	3989
2026-01-02 23:59:52.08	33.98	24.11	-52.5	-53.5	15.7	0.00e+00	0	31	0	416284672	71	3980
2026-01-02 23:59:56.09	34.39	24.69	-52.3	-53.3	15.7	0.00e+00	0	31	0	423624704	70	4121
2026-01-03 00:00:00.09	34.81	25.28	-52.0	-52.9	15.8	0.00e+00	0	31	0	430964736	70	3935
2026-01-03 00:00:04.10	35.26	25.88	-52.4	-53.4	15.7	0.00e+00	0	31	0	438304768	70	4167
2026-01-03 00:00:08.09	35.71	26.50	-52.6	-53.7	15.6	0.00e+00	0	31	0	445644800	70	4294
2026-01-03 00:00:12.07	36.19	27.12	-53.1	-54.2	15.4	0.00e+00	0	31	0	452984832	71	4320
2026-01-03 00:00:16.08	36.68	27.76	-53.5	-54.7	15.4	0.00e+00	0	31	0	461373440	72	4307
2026-01-03 00:00:20.08	37.20	28.41	-53.7	-55.0	15.2	0.00e+00	0	31	0	468713472	72	4454
2026-01-03 00:00:24.08	37.73	29.08	-54.1	-55.4	15.2	0.00e+00	0	31	0	476053504	73	4435
2026-01-03 00:00:28.09	38.29	29.76	-55.2	-56.8	14.7	0.00e+00	0	31	0	483393536	75	4649
2026-01-03 00:00:32.10	38.87	30.45	-55.7	-57.6	14.4	0.00e+00	0	31	0	490733568	76	4778
2026-01-03 00:00:36.10	39.48	31.16	-55.7	-57.5	14.5	0.00e+00	0	31	0	498073600	77	4489
2026-01-03 00:00:40.07	40.11	31.87	-55.9	-57.7	14.3	0.00e+00	0	31	0	505413632	77	4591
2026-01-03 00:00:44.08	40.77	32.61	-55.3	-57.0	14.8	0.00e+00	0	31	0	513802240	77	4215
2026-01-03 00:00:48.07	41.46	33.36	-55.4	-57.1	14.6	0.00e+00	0	31	0	521142272	76	4527
2026-01-03 00:00:52.06	42.18	34.12	-55.0	-56.5	14.9	0.00e+00	0	31	0	528482304	76	4201
2026-01-03 00:00:56.06	42.93	34.89	-54.9	-56.4	14.9	0.00e+00	0	31	0	535822336	75	4404
2026-01-03 00:01:00.06	43.73	35.68	-55.0	-56.5	14.9	0.00e+00	0	31	0	543162368	75	4470
2026-01-03 00:01:04.04	44.55	36.49	-55.0	-56.6	14.8	0.00e+00	0	31	0	550502400	75	4494
2026-01-03 00:01:08.04	45.42	37.30	-55.1	-56.6	14.9	0.00e+00	0	31	0	557842432	76	4281
2026-01-03 00:01:12.03	46.34	38.13	-55.2	-56.8	14.8	0.00e+00	0	31	0	566231040	76	4360
2026-01-03 00:01:16.03	47.30	38.98	-55.1	-56.7	14.8	0.00e+00	0	31	0	573571072	76	4322
2026-01-03 00:01:20.03	48.32	39.83	-55.5	-57.3	14.6	0.00e+00	0	31	0	580911104	76	4614
2026-01-03 00:01:24.04	49.39	40.70	-54.1	-55.4	15.3	0.00e+00	0	31	0	588251136	74	4185
2026-01-03 00:01:28.03	50.51	41.57	-53.5	-54.7	15.4	0.00e+00	0	31	0	595591168	72	4333
2026-01-03 00:01:32.04	51.71	42.46	-54.2	-55.6	15.2	0.00e+00	0	31	0	602931200	74	4256
2026-01-03 00:01:36.03	52.96	43.35	-54.2	-55.5	15.3	0.00e+00	0	31	0	610271232	74	4215
2026-01-03 00:01:40.01	54.28	44.25	-54.9	-56.3	15.0	0.00e+00	0	31	0	618659840	75	4380
2026-01-03 00:01:44.01	55.68	45.15	-54.5	-55.8	15.2	0.00e+00	0	31	0	625999872	75	4122
2026-01-03 00:01:48.01	57.16	46.05	-55.7	-57.4	14.6	0.00e+00	0	31	0	633339904	76	4702
2026-01-03 00:01:52.01	58.73	46.95	-57.0	-59.3	13.7	0.00e+00	0	31	0	640679936	79	4904
2026-01-03 00:01:56.01	60.39	47.84	-57.5	-60.2	13.2	0.00e+00	0	31	0	648019968	80	5156
2026-01-03 00:02:00.01	62.15	48.73	-56.2	-58.0	14.4	0.00e+00	0	31	0	655360000	79	4236
2026-01-03 00:02:04.02	64.02	49.61	-55.9	-57.7	14.5	0.00e+00	0	31	0	663748608	78	4300
2026-01-03 00:02:08.03	65.99	50.47	-55.3	-56.8	14.9	0.00e+00	0	31	0	671088640	77	4145
2026-01-03 00:02:12.02	68.07	51.30	-55.3	-56.9	14.8	0.00e+00	0	31	0	678428672	76	4413
2026-01-03 00:02:16.01	70.26	52.11	-54.3	-55.6	15.3	0.00e+00	0	31	0	685768704	75	4014
2026-01-03 00:02:20.03	72.59	52.89	-53.5	-54.6	15.5	0.00e+00	0	31	0	693108736	72	4290
2026-01-03 00:02:24.03	75.04	53.63	-53.1	-54.1	15.7	0.00e+00	0	31	0	700448768	72	4041
2026-01-03 00:02:28.04	77.61	54.33	-53.1	-54.2	15.7	0.00e+00	0	31	0	707788800	72	4073
2026-01-03 00:02:32.03	80.29	54.98	-52.2	-53.2	15.9	0.00e+00	0	31	0	716177408	71	3835
2026-01-03 00:02:36.02	83.09	55.56	-53.1	-54.2	15.6	0.00e+00	0	31	0	723517440	71	4293
2026-01-03 00:02:40.02	86.01	56.09	-53.7	-54.9	15.4	0.00e+00	0	31	0	730857472	72	4411
2026-01-03 00:02:44.02	89.03	56.54	-54.3	-55.7	15.2	0.00e+00	0	31	0	738197504	74	4297
2026-01-03 00:02:48.02	92.15	56.93	-55.1	-56.6	14.9	0.00e+00	0	31	0	745537536	75	4539
2026-01-03 00:02:52.00	95.33	57.23	-56.7	-58.8	14.0	0.00e+00	0	31	0	752877568	78	4917
2026-01-03 00:02:56.00	98.58	57.44	-56.5	-58.6	14.1	0.00e+00	0	31	0	760217600	78	4794
2026-01-03 00:03:00.00	101.88	57.57	-55.0	-56.4	15.0	0.00e+00	0	31	0	768606208	76	4183
2026-01-03 00:03:04.00	105.20	57.61	-55.4	-57.0	14.8	0.00e+00	0	31	0	775946240	76	4453
2026-01-03 00:03:07.98	108.50	57.57	-52.3	-53.3	15.9	0.00e+00	0	31	0	783286272	71	3878
2026-01-03 00:03:11.97	111.79	57.43	-53.8	-55.1	15.5	0.00e+00	0	31	0	790626304	73	4251
2026-01-03 00:03:15.97	115.04	57.21	-54.1	-55.4	15.3	0.00e+00	0	31	0	797966336	73	4421
2026-01-03 00:03:19.97	118.23	56.90	-53.5	-54.7	15.5	0.00e+00	0	31	0	805306368	72	4324
2026-01-03 00:03:23.98	121.35	56.51	-54.9	-56.4	15.0	0.00e+00	0	31	0	813694976	75	4401
2026-01-03 00:03:27.96	124.36	56.05	-53.0	-54.1	15.7	0.00e+00	0	31	0	821035008	72	4036
2026-01-03 00:03:31.95	127.26	55.52	-52.6	-53.6	15.8	0.00e+00	0	31	0	828375040	71	4011
2026-01-03 00:03:35.96	130.07	54.92	-52.1	-53.1	15.8	0.00e+00	0	31	0	835715072	70	4009
2026-01-03 00:03:39.96	132.75	54.27	-52.4	-53.4	15.8	0.00e+00	0	31	0	843055104	70	4157
2026-01-03 00:03:43.96	135.31	53.57	-51.9	-52.8	16.0	0.00e+00	0	31	0	850395136	70	3893
2026-01-03 00:03:47.96	137.75	52.83	-55.4	-57.1	14.7	0.00e+00	0	31	0	857735168	76	4541
2026-01-03 00:03:51.96	140.06	52.04	-56.0	-57.8	14.5	0.00e+00	0	31	0	866123776	77	4627
2026-01-03 00:03:55.95	142.25	51.23	-54.4	-55.7	15.1	0.00e+00	0	31	0	873463808	73	4592
2026-01-03 00:03:59.93	144.31	50.39	-56.9	-59.1	13.8	0.00e+00	0	31	0	880803840	80	4534
2026-01-03 00:04:03.93	146.28	49.53	-56.0	-57.9	14.3	0.00e+00	0	31	0	888143872	77	4663
2026-01-03 00:04:07.93	148.14	48.65	-56.3	-58.2	14.2	0.00e+00	0	31	0	895483904	77	4858
2026-01-03 00:04:11.93	149.89	47.76	-55.2	-56.8	14.9	0.00e+00	0	31	0	902823936	76	4349
2026-01-03 00:04:15.93	151.55	46.86	-54.8	-56.2	15.1	0.00e+00	0	31	0	910163968	76	4073
2026-01-03 00:04:19.92	153.11	45.96	-54.7	-56.1	15.1	0.00e+00	0	31	0	918552576	76	4020
2026-01-03 00:04:23.91	154.59	45.06	-54.4	-55.8	15.2	0.00e+00	0	31	0	925892608	74	4342
2026-01-03 00:04:27.91	155.98	44.16	-54.7	-56.0	15.1	0.00e+00	0	31	0	933232640	74	4485
2026-01-03 00:04:31.90	157.30	43.26	-57.0	-59.4	13.7	0.00e+00	0	31	0	940572672	79	4940
2026-01-03 00:04:35.90	158.56	42.36	-56.0	-57.9	14.4	0.00e+00	0	31	0	947912704	77	4679
2026-01-03 00:04:39.88	159.74	41.48	-56.8	-59.0	13.8	0.00e+00	0	31	0	955252736	80	4481
2026-01-03 00:04:43.87	160.86	40.60	-56.5	-58.6	14.0	0.00e+00	0	31	0	962592768	78	4779
2026-01-03 00:04:47.88	161.93	39.73	-55.5	-57.3	14.7	0.00e+00	0	31	0	970981376	77	4343
2026-01-03 00:04:51.88	162.94	38.87	-55.5	-57.2	14.7	0.00e+00	0	31	0	978321408	76	4575
2026-01-03 00:04:55.87	163.90	38.03	-57.0	-59.5	13.5	0.00e+00	0	31	0	985661440	80	4716
2026-01-03 00:04:59.87	164.81	37.20	-54.0	-55.2	15.3	0.00e+00	0	31	0	993001472	74	4075
2026-01-03 00:05:03.87	165.68	36.38	-54.3	-55.7	15.2	0.00e+00	0	31	0	1000341504	75	4064
2026-01-03 00:05:07.88	166.51	35.57	-54.2	-55.6	15.2	0.00e+00	0	31	0	1007681536	75	4018
2026-01-03 00:05:11.87	167.30	34.78	-55.6	-57.3	14.6	0.00e+00	0	31	0	1015021568	76	4635
2026-01-03 00:05:15.85	168.05	34.00	-57.7	-60.7	12.8	0.00e+00	0	31	0	1023410176	80	5442
2026-01-03 00:05:19.85	168.77	33.24	-55.0	-56.6	14.9	0.00e+00	0	31	0	1030750208	76	4254
2026-01-03 00:05:23.86	169.46	32.49	-54.7	-56.2	15.0	0.00e+00	0	31	0	1038090240	75	4334
2026-01-03 00:05:27.85	170.12	31.75	-55.0	-56.6	14.9	0.00e+00	0	31	0	1045430272	76	4257
2026-01-03 00:05:31.85	170.75	31.03	-54.7	-56.2	15.0	0.00e+00	0	31	0	1052770304	75	4330
2026-01-03 00:05:35.85	171.35	30.32	-55.8	-57.7	14.4	0.00e+00	0	31	0	1060110336	77	4585
2026-01-03 00:05:39.85	171.93	29.63	-54.5	-55.9	15.1	0.00e+00	0	31	0	1067450368	75	4159
2026-01-03 00:05:43.84	172.48	28.95	-53.3	-54.4	15.6	0.00e+00	0	31	0	1075838976	73	3952
2026-01-03 00:05:47.82	173.01	28.29	-55.1	-56.7	14.8	0.00e+00	0	31	0	1083179008	75	4594
2026-01-03 00:05:51.80	173.52	27.64	-55.9	-57.9	14.3	0.00e+00	0	31	0	1090519040	77	4660
2026-01-03 00:05:55.78	174.01	27.00	-54.7	-56.1	15.0	0.00e+00	0	31	0	1097859072	75	4287
2026-01-03 00:05:59.79	174.49	26.37	-54.3	-55.8	15.1	0.00e+00	0	31	0	1105199104	74	4344
2026-01-03 00:06:03.79	174.95	25.75	-54.7	-56.3	14.9	0.00e+00	0	31	0	1112539136	74	4613
2026-01-03 00:06:07.78	175.38	25.15	-54.3	-55.7	15.2	0.00e+00	0	31	0	1119879168	75	4075
2026-01-03 00:06:11.79	175.81	24.56	-53.5	-54.8	15.4	0.00e+00	0	31	0	1128267776	73	4102
2026-01-03 00:06:15.79	176.22	23.98	-53.5	-54.8	15.4	0.00e+00	0	31	0	1135607808	73	4106
2026-01-03 00:06:19.79	176.62	23.41	-53.5	-54.7	15.5	0.00e+00	0	31	0	1142947840	73	4055
2026-01-03 00:06:23.79	177.00	22.85	-54.1	-55.4	15.2	0.00e+00	0	31	0	1150287872	73	4440
2026-01-03 00:06:27.80	177.37	22.30	-54.2	-55.7	15.1	0.00e+00	0	31	0	1157627904	74	4306
2026-01-03 00:06:31.80	177.73	21.77	-53.7	-55.0	15.2	0.00e+00	0	31	0	1164967936	74	3985
2026-01-03 00:06:35.81	178.07	21.24	-53.1	-54.2	15.5	0.00e+00	0	31	0	1173356544	72	4093
2026-01-03 00:06:39.81	178.41	20.72	-52.3	-53.4	15.7	0.00e+00	0	31	0	1180696576	71	3922
2026-01-03 00:06:43.82	178.73	20.21	-51.9	-52.9	15.8	0.00e+00	0	31	0	1188036608	70	3943
2026-01-03 00:06:47.81	179.05	19.72	-52.0	-52.9	15.7	0.00e+00	0	31	0	1195376640	69	4187
2026-01-03 00:06:51.80	179.35	19.23	-52.7	-53.9	15.5	0.00e+00	0	31	0	1202716672	70	4408
2026-01-03 00:06:55.81	179.65	18.75	-53.4	-54.7	15.3	0.00e+00	0	31	0	1210056704	72	4330
2026-01-03 00:06:59.82	179.94	18.28	-54.2	-55.6	15.0	0.00e+00	0	31	0	1217396736	73	4522
2026-01-03 00:07:03.82	180.22	17.81	-54.2	-55.6	15.0	0.00e+00	0	31	0	1225785344	73	4523
2026-01-03 00:07:07.82	180.49	17.36	-54.5	-56.1	14.9	0.00e+00	0	31	0	1233125376	74	4495
2026-01-03 00:07:11.82	180.75	16.91	-54.4	-55.9	14.9	0.00e+00	0	31	0	1240465408	74	4406
2026-01-03 00:07:15.82	181.01	16.47	-54.2	-55.6	15.0	0.00e+00	0	31	0	1247805440	74	4283
2026-01-03 00:07:19.83	181.26	16.04	-53.9	-55.3	15.2	0.00e+00	0	31	0	1255145472	74	4126
2026-01-03 00:07:23.83	181.50	15.61	-53.4	-54.7	15.3	0.00e+00	0	31	0	1262485504	73	4091
2026-01-03 00:07:27.82	181.74	15.19	-53.1	-54.3	15.4	0.00e+00	0	31	0	1270874112	72	4104
2026-01-03 00:07:31.83	181.97	14.78	-52.8	-54.0	15.6	0.00e+00	0	31	0	1278214144	72	3959
2026-01-03 00:07:35.82	182.19	14.38	-52.8	-53.9	15.6	0.00e+00	0	31	0	1285554176	72	3956
2026-01-03 00:07:39.83	182.41	13.98	-52.9	-54.1	15.5	0.00e+00	0	31	0	1292894208	72	4025
2026-01-03 00:07:43.83	182.63	13.58	-53.1	-54.3	15.4	0.00e+00	0	31	0	1300234240	72	4140
2026-01-03 00:07:47.83	182.84	13.20	-53.4	-54.7	15.2	0.00e+00	0	31	0	1307574272	72	4327
2026-01-03 00:07:51.82	183.04	12.82	-53.9	-55.4	15.1	0.00e+00	0	31	0	1314914304	73	4411
2026-01-03 00:07:55.80	183.24	12.44	-54.5	-56.1	14.8	0.00e+00	0	31	0	1323302912	74	4514
2026-01-03 00:07:59.79	183.43	12.07	-55.1	-57.0	14.4	0.00e+00	0	31	0	1330642944	75	4731
2026-01-03 00:08:03.77	183.62	11.71	-55.5	-57.4	14.2	0.00e+00	0	31	0	1337982976	76	4697
2026-01-03 00:08:07.77	183.81	11.35	-55.7	-57.8	14.0	0.00e+00	0	31	0	1345323008	76	4876
2026-01-03 00:08:11.76	183.99	11.00	-55.8	-57.9	14.0	0.00e+00	0	31	0	1352663040	76	4963
2026-01-03 00:08:15.77	184.17	10.64	-55.7	-57.9	14.0	0.00e+00	0	31	0	1360003072	76	4947
2026-01-03 00:08:19.79	184.34	10.30	-55.4	-57.4	14.2	0.00e+00	0	31	0	1367343104	76	4667
2026-01-03 00:08:23.79	184.51	9.96	-55.2	-57.1	14.3	0.00e+00	0	31	0	1375731712	76	4509
2026-01-03 00:08:27.81	184.68	9.62	-54.8	-56.5	14.6	0.00e+00	0	31	0	1383071744	76	4229
2026-01-03 00:08:31.83	184.84	9.28	-54.5	-56.1	14.7	0.00e+00	0	31	0	1390411776	75	4279
2026-01-03 00:08:35.83	185.00	8.96	-54.3	-55.9	14.9	0.00e+00	0	31	0	1397751808	75	4181
2026-01-03 00:08:39.83	185.16	8.63	-54.2	-55.7	14.9	0.00e+00	0	31	0	1405091840	74	4330
2026-01-03 00:08:43.84	185.31	8.31	-54.1	-55.6	14.9	0.00e+00	0	31	0	1412431872	74	4287
2026-01-03 00:08:47.86	185.47	8.00	-54.2	-55.8	14.8	0.00e+00	0	31	0	1420820480	74	4374
2026-01-03 00:08:51.86	185.61	7.68	-54.2	-55.8	14.8	0.00e+00	0	31	0	1428160512	74	4383
2026-01-03 00:08:55.86	185.76	7.37	-54.4	-56.1	14.7	0.00e+00	0	31	0	1435500544	74	4529
2026-01-03 00:08:59.85	185.90	7.07	-54.6	-56.4	14.5	0.00e+00	0	31	0	1442840576	74	4664
2026-01-03 00:09:03.86	186.04	6.77	-54.7	-56.5	14.4	0.00e+00	0	31	0	1450180608	74	4708
2026-01-03 00:09:07.87	186.18	6.47	-54.8	-56.6	14.4	0.00e+00	0	31	0	1457520640	75	4524
2026-01-03 00:09:11.87	186.31	6.18	-54.9	-56.9	14.3	0.00e+00	0	31	0	1465909248	75	4667
2026-01-03 00:09:15.88	186.44	5.88	-55.0	-56.9	14.2	0.00e+00	0	31	0	1473249280	75	4702
2026-01-03 00:09:19.89	186.57	5.59	-55.3	-57.4	13.9	0.00e+00	0	31	0	1480589312	75	4976
2026-01-03 00:09:23.89	186.70	5.31	-55.5	-57.8	13.8	0.00e+00	0	31	0	1487929344	76	4871
2026-01-03 00:09:27.91	186.83	5.02	-55.5	-57.9	13.7	0.00e+00	0	31	0	1495269376	76	4940
2026-01-03 00:09:31.91	186.95	4.75	-61.1	-76.7	3.8	1.49e+00	0	31	104	1497366528	87	22883
2026-01-03 00:09:35.91	187.07	4.47	-61.5	-77.1	3.8	1.49e+00	0	31	104	1497366528	88	22550
2026-01-03 00:09:39.91	187.19	4.19	-61.7	-77.3	3.8	1.49e+00	0	31	104	1497366528	88	23138
2026-01-03 00:09:43.90	187.31	3.92	-61.8	-77.4	3.8	1.49e+00	0	31	104	1497366528	88	23487
2026-01-03 00:09:47.90	187.42	3.66	-61.9	-77.5	3.8	1.49e+00	0	31	104	1497366528	89	22433
2026-01-03 00:09:51.88	187.54	3.39	-61.9	-77.5	3.8	1.49e+00	0	31	104	1497366528	89	22360
2026-01-03 00:09:55.87	187.65	3.13	-61.9	-77.5	3.8	1.49e+00	0	31	104	1497366528	89	22312
2026-01-03 00:09:59.88	187.76	2.87	-61.8	-77.4	3.9	1.49e+00	0	31	104	1497366528	89	22154
2026-01-03 00:10:03.88	187.87	2.61	-61.8	-77.4	3.8	1.49e+00	0	31	104	1497366528	89	22136
2026-01-03 00:10:07.89	187.97	2.35	-61.8	-77.4	3.8	1.49e+00	0	31	104	1497366528	89	22078
2026-01-03 00:10:11.90	188.08	2.10	-61.8	-77.4	3.8	1.49e+00	0	31	104	1497366528	89	22059
2026-01-03 00:10:15.93	188.18	1.84	-61.8	-77.4	3.8	1.49e+00	0	31	104	1497366528	89	22035

#Closed at: 2026-01-03 00:10:16
#Recorded file [1497 MB]: D:/lorett/data/31004_260103_025552.dat