passes_logs/2026/01/02/R3.2S_Murmansk/R3.2S_Murmansk__20260102_033459_SUOMI_NPP_rec.log

#Pass ID: 20260102_033459_SUOMI NPP
#Satellite: SUOMI NPP
#Configuration: NPP
#almurnet v.1.7.20251203
#Start time: 2026-01-02 03:35:00

#Version: 2.2.20231116
#Station: R3.2S_Murmansk
#Location: 33.079688 lon 68.888172 lat
#TLE: 1 37849U 11061A   26001.07732418  .00000182  00000+0  10735-3 0  9990
#TLE: 2 37849  98.7795 303.2470 0002580  87.2016 272.9455 14.19520779734739

#Time	Az	El	Level	Level2	SNR	BER	BlckErr	Temp	State	Recorded	gain1	gain2
2026-01-02 03:35:00.56	42.14	2.04	-54.9	-70.9	3.8	1.49e+00	0	31	0	0	75	23416
2026-01-02 03:35:03.53	41.98	2.21	-55.0	-70.9	3.8	1.49e+00	0	31	104	0	75	23453
2026-01-02 03:35:06.51	41.81	2.39	-55.0	-70.9	3.8	1.49e+00	0	31	104	0	75	23500
2026-01-02 03:35:09.46	41.65	2.56	-55.0	-70.9	3.8	1.49e+00	0	31	104	0	75	23468
2026-01-02 03:35:12.43	41.48	2.74	-55.0	-70.9	3.8	1.49e+00	0	31	104	0	75	23502
2026-01-02 03:35:15.42	41.31	2.92	-55.0	-70.9	3.8	1.49e+00	0	31	104	0	75	23534
2026-01-02 03:35:18.39	41.14	3.10	-55.0	-70.9	3.8	1.49e+00	0	31	104	0	75	23458
2026-01-02 03:35:21.37	40.96	3.28	-55.0	-70.9	3.8	1.49e+00	0	31	104	0	75	23503
2026-01-02 03:35:24.35	40.79	3.46	-55.0	-70.9	3.8	1.49e+00	0	31	104	0	75	23474
2026-01-02 03:35:27.34	40.61	3.65	-55.0	-70.9	3.8	1.49e+00	0	31	104	0	75	23557
2026-01-02 03:35:30.33	40.43	3.83	-55.0	-70.9	3.8	1.49e+00	0	31	104	0	75	23555
2026-01-02 03:35:33.32	40.24	4.02	-55.0	-70.9	3.8	1.49e+00	0	31	104	0	75	23521
2026-01-02 03:35:36.30	40.06	4.20	-55.0	-70.9	3.8	1.49e+00	0	31	104	0	75	23540
2026-01-02 03:35:39.29	39.87	4.39	-55.0	-70.9	3.8	1.49e+00	0	32	104	0	75	23495
2026-01-02 03:35:42.26	39.67	4.58	-55.0	-70.9	3.8	1.49e+00	0	32	104	0	75	23571
2026-01-02 03:35:45.23	39.48	4.77	-55.0	-70.9	3.8	1.49e+00	0	32	104	0	75	23554
2026-01-02 03:35:48.19	39.29	4.95	-55.0	-70.9	3.8	1.49e+00	0	32	104	0	75	23533
2026-01-02 03:35:51.14	39.09	5.14	-55.0	-70.9	3.8	1.49e+00	0	32	104	0	75	23541
2026-01-02 03:35:54.11	38.89	5.33	-55.0	-71.0	3.8	1.49e+00	0	32	104	0	75	23630
2026-01-02 03:35:57.07	38.68	5.53	-55.0	-70.9	3.8	1.49e+00	0	32	104	0	75	23530
2026-01-02 03:36:00.03	38.48	5.72	-55.0	-71.0	3.8	1.49e+00	0	32	104	0	75	23600
2026-01-02 03:36:03.01	38.27	5.91	-54.6	-70.9	3.8	1.49e+00	0	32	104	0	75	23564
2026-01-02 03:36:05.97	38.05	6.11	-55.0	-71.0	3.8	1.49e+00	0	32	104	0	75	23615
2026-01-02 03:36:08.94	37.84	6.30	-55.0	-71.0	3.8	1.49e+00	0	32	104	0	75	23616
2026-01-02 03:36:11.93	37.62	6.50	-55.0	-71.0	3.8	1.49e+00	0	32	104	0	75	23633
2026-01-02 03:36:14.90	37.39	6.70	-55.0	-70.9	3.8	1.49e+00	0	32	104	0	75	23539
2026-01-02 03:36:17.90	37.17	6.90	-55.0	-71.0	3.9	1.49e+00	0	32	104	0	75	23593
2026-01-02 03:36:20.89	36.94	7.10	-55.0	-70.9	3.8	1.49e+00	0	32	104	0	75	23568
2026-01-02 03:36:23.89	36.70	7.31	-55.0	-70.9	3.8	1.49e+00	0	32	104	0	75	23556
2026-01-02 03:36:26.89	36.46	7.51	-55.0	-71.0	3.8	1.49e+00	0	32	104	0	75	23627
2026-01-02 03:36:29.90	36.22	7.72	-55.0	-70.9	3.8	1.49e+00	0	32	104	0	75	23563
2026-01-02 03:36:32.89	35.98	7.93	-55.0	-71.0	3.8	1.49e+00	0	32	104	0	75	23588
2026-01-02 03:36:35.88	35.73	8.14	-55.0	-70.9	3.8	1.49e+00	0	32	104	0	75	23548
2026-01-02 03:36:38.89	35.47	8.35	-55.0	-71.0	3.8	1.49e+00	0	32	104	0	75	23589
2026-01-02 03:36:41.89	35.22	8.56	-55.0	-70.9	3.8	1.49e+00	0	32	104	0	75	23555
2026-01-02 03:36:44.90	34.96	8.77	-55.0	-71.0	3.8	1.49e+00	0	32	104	0	75	23609
2026-01-02 03:36:47.90	34.69	8.98	-55.0	-71.0	3.8	1.49e+00	0	32	104	0	75	23633
2026-01-02 03:36:50.90	34.42	9.20	-55.0	-71.0	3.8	1.49e+00	0	32	104	0	75	23591
2026-01-02 03:36:53.88	34.15	9.41	-55.0	-71.0	3.8	1.49e+00	0	32	104	0	75	23600
2026-01-02 03:36:56.88	33.88	9.63	-55.0	-71.0	3.8	1.49e+00	0	32	104	0	75	23582
2026-01-02 03:36:59.87	33.60	9.85	-55.0	-71.0	3.8	1.49e+00	0	32	104	0	75	23627
2026-01-02 03:37:02.86	33.31	10.07	-55.0	-71.0	3.8	1.49e+00	0	32	104	0	75	23641
2026-01-02 03:37:05.86	33.02	10.29	-55.0	-71.0	3.8	1.49e+00	0	32	104	0	75	23626
2026-01-02 03:37:08.86	32.73	10.51	-55.0	-71.0	3.8	1.49e+00	0	32	104	0	75	23626
2026-01-02 03:37:11.87	32.43	10.73	-55.0	-71.0	3.8	1.49e+00	0	32	104	0	75	23603
2026-01-02 03:37:14.86	32.12	10.96	-55.0	-71.0	3.8	1.49e+00	0	32	104	0	75	23592
2026-01-02 03:37:17.86	31.81	11.18	-55.0	-71.0	3.8	1.49e+00	0	32	104	0	75	23653
2026-01-02 03:37:20.87	31.50	11.41	-55.0	-71.0	3.8	1.49e+00	0	32	104	0	75	23586
2026-01-02 03:37:23.87	31.18	11.64	-51.1	-70.5	3.8	1.49e+00	0	32	104	0	73	25094
2026-01-02 03:37:26.87	30.86	11.87	-55.0	-71.0	3.8	1.49e+00	0	32	104	0	75	23603
2026-01-02 03:37:29.86	30.53	12.10	-55.0	-71.0	3.8	1.49e+00	0	32	104	0	75	23646
2026-01-02 03:37:32.87	30.19	12.33	-55.0	-71.0	3.8	1.49e+00	0	32	104	0	75	23633
2026-01-02 03:37:35.86	29.85	12.56	-55.0	-71.0	3.8	1.49e+00	0	32	104	0	75	23654
2026-01-02 03:37:38.86	29.51	12.80	-55.0	-71.0	3.8	1.49e+00	0	32	104	0	75	23583
2026-01-02 03:37:41.87	29.15	13.04	-55.0	-71.0	3.8	1.49e+00	0	32	104	0	75	23665
2026-01-02 03:37:44.88	28.79	13.27	-55.0	-71.0	3.8	1.49e+00	0	32	104	0	75	23650
2026-01-02 03:37:47.88	28.43	13.51	-55.0	-71.0	3.8	1.49e+00	0	33	104	0	75	23660
2026-01-02 03:37:50.87	28.06	13.75	-55.0	-71.0	3.8	1.49e+00	0	32	104	0	75	23633
2026-01-02 03:37:53.86	27.69	13.99	-55.1	-71.0	3.8	1.49e+00	0	32	104	0	75	23662
2026-01-02 03:37:56.84	27.31	14.23	-55.0	-71.0	3.8	1.49e+00	0	32	104	0	75	23599
2026-01-02 03:37:59.83	26.92	14.47	-55.0	-71.0	3.8	1.49e+00	0	32	104	0	75	23687
2026-01-02 03:38:02.84	26.52	14.71	-55.0	-71.0	3.8	1.49e+00	0	32	104	0	75	23659
2026-01-02 03:38:05.83	26.12	14.96	-55.0	-71.0	3.8	1.49e+00	0	32	104	0	75	23664
2026-01-02 03:38:08.83	25.72	15.20	-55.0	-71.0	3.8	1.49e+00	0	32	104	0	75	23617
2026-01-02 03:38:11.82	25.30	15.45	-55.0	-71.0	3.8	1.49e+00	0	32	104	0	75	23607
2026-01-02 03:38:14.81	24.88	15.70	-55.0	-71.0	3.8	1.49e+00	0	32	104	0	75	23615
2026-01-02 03:38:17.82	24.45	15.95	-55.0	-71.0	3.8	1.49e+00	0	32	104	0	75	23638
2026-01-02 03:38:20.80	24.01	16.19	-55.0	-71.0	3.8	1.49e+00	0	32	104	0	75	23681
2026-01-02 03:38:23.79	23.57	16.44	-55.0	-71.0	3.8	1.49e+00	0	32	104	0	75	23658
2026-01-02 03:38:26.80	23.12	16.69	-55.0	-71.0	3.8	1.49e+00	0	33	104	0	75	23669
2026-01-02 03:38:29.80	22.66	16.94	-55.0	-71.0	3.8	1.49e+00	0	32	104	0	75	23643
2026-01-02 03:38:32.80	22.19	17.20	-55.0	-71.0	3.8	1.49e+00	0	33	104	0	75	23597
2026-01-02 03:38:35.79	21.72	17.45	-55.1	-71.0	3.8	1.49e+00	0	32	104	0	75	23593
2026-01-02 03:38:38.80	21.23	17.70	-55.0	-71.0	3.8	1.49e+00	0	32	104	0	75	23587
2026-01-02 03:38:41.81	20.74	17.96	-55.0	-71.0	3.6	1.49e+00	0	33	104	0	75	23679
2026-01-02 03:38:44.82	20.23	18.21	-55.1	-71.0	3.8	1.49e+00	0	33	104	0	75	23701
2026-01-02 03:38:47.81	19.72	18.47	-55.0	-71.0	3.8	1.49e+00	0	32	104	0	75	23681
2026-01-02 03:38:50.80	19.21	18.72	-55.0	-71.0	3.8	1.49e+00	0	33	104	0	75	23621
2026-01-02 03:38:53.79	18.68	18.97	-55.0	-71.0	3.8	1.49e+00	0	32	104	0	75	23656
2026-01-02 03:38:56.78	18.15	19.23	-55.0	-71.0	3.8	1.49e+00	0	32	104	0	75	23758
2026-01-02 03:38:59.78	17.60	19.48	-55.0	-71.0	3.8	1.49e+00	0	33	104	0	75	23701
2026-01-02 03:39:02.79	17.05	19.74	-55.0	-71.0	3.8	1.49e+00	0	33	104	0	75	23733
2026-01-02 03:39:05.78	16.48	19.99	-55.0	-71.0	3.8	1.49e+00	0	33	104	0	75	23670
2026-01-02 03:39:08.76	15.91	20.24	-55.0	-71.0	3.8	1.49e+00	0	32	104	0	75	23657
2026-01-02 03:39:11.76	15.33	20.49	-55.1	-71.0	3.8	1.49e+00	0	33	104	0	75	23662
2026-01-02 03:39:14.76	14.74	20.75	-55.0	-71.0	3.8	1.49e+00	0	33	104	0	75	23727
2026-01-02 03:39:17.78	14.13	21.00	-55.0	-71.0	3.8	1.49e+00	0	32	104	0	75	23694
2026-01-02 03:39:20.77	13.52	21.25	-55.1	-71.0	3.8	1.49e+00	0	33	104	0	75	23631
2026-01-02 03:39:23.77	12.90	21.50	-55.1	-71.0	3.8	1.49e+00	0	33	104	0	75	23669
2026-01-02 03:39:26.76	12.26	21.75	-55.1	-71.0	3.8	1.49e+00	0	32	104	0	75	23664
2026-01-02 03:39:29.77	11.62	21.99	-55.0	-71.0	3.8	1.49e+00	0	33	104	0	75	23593
2026-01-02 03:39:32.76	10.97	22.24	-55.1	-71.0	3.8	1.49e+00	0	33	104	0	75	23711
2026-01-02 03:39:35.75	10.30	22.48	-55.0	-71.0	3.8	1.49e+00	0	33	104	0	75	23737
2026-01-02 03:39:38.75	9.63	22.72	-55.0	-71.0	3.8	1.49e+00	0	33	104	0	75	23652
2026-01-02 03:39:41.75	8.94	22.96	-55.1	-71.0	3.8	1.49e+00	0	33	104	0	75	23708
2026-01-02 03:39:44.76	8.24	23.20	-55.1	-71.0	3.8	1.49e+00	0	33	104	0	75	23651
2026-01-02 03:39:47.75	7.54	23.44	-55.1	-71.0	3.8	1.49e+00	0	32	104	0	75	23668
2026-01-02 03:39:50.75	6.82	23.67	-55.1	-71.0	3.8	1.49e+00	0	33	104	0	75	23671
2026-01-02 03:39:53.72	6.10	23.89	-55.1	-71.0	3.8	1.49e+00	0	33	104	0	75	23644
2026-01-02 03:39:56.72	5.36	24.12	-55.1	-71.0	3.8	1.49e+00	0	32	104	0	75	23699
2026-01-02 03:39:59.71	4.61	24.34	-54.9	-70.9	3.8	1.49e+00	0	33	104	0	74	24922
2026-01-02 03:40:02.70	3.85	24.56	-55.0	-71.0	3.8	1.49e+00	0	33	104	0	75	23678
2026-01-02 03:40:05.69	3.08	24.78	-55.1	-71.0	3.8	1.49e+00	0	33	104	0	75	23668
2026-01-02 03:40:08.67	2.30	24.99	-55.1	-71.0	3.8	1.49e+00	0	32	104	0	75	23644
2026-01-02 03:40:11.68	1.51	25.19	-55.1	-71.0	3.8	1.49e+00	0	33	104	0	75	23658
2026-01-02 03:40:14.68	0.71	25.40	-55.1	-71.0	3.8	1.49e+00	0	33	104	0	75	23676
2026-01-02 03:40:17.68	359.89	25.59	-55.1	-71.0	3.8	1.49e+00	0	33	104	0	75	23665
2026-01-02 03:40:20.67	359.07	25.79	-55.0	-71.0	3.8	1.49e+00	0	33	104	0	75	23640
2026-01-02 03:40:23.67	358.24	25.97	-55.0	-71.0	3.8	1.49e+00	0	33	104	0	75	23691
2026-01-02 03:40:26.66	357.40	26.16	-55.0	-71.0	3.8	1.49e+00	0	33	104	0	75	23694
2026-01-02 03:40:29.66	356.54	26.33	-55.0	-71.0	3.8	1.49e+00	0	33	104	0	75	23705
2026-01-02 03:40:32.67	355.68	26.50	-55.0	-71.0	3.8	1.49e+00	0	33	104	0	75	23617
2026-01-02 03:40:35.67	354.80	26.67	-55.1	-71.0	3.8	1.49e+00	0	33	104	0	75	23638
2026-01-02 03:40:38.67	353.92	26.82	-55.0	-71.0	3.8	1.49e+00	0	33	104	0	75	23636
2026-01-02 03:40:41.66	353.04	26.97	-55.0	-71.0	3.8	1.49e+00	0	33	104	0	75	23646
2026-01-02 03:40:44.67	352.13	27.12	-55.0	-71.0	3.8	1.49e+00	0	33	104	0	75	23691
2026-01-02 03:40:47.67	351.23	27.26	-55.1	-71.0	3.8	1.49e+00	0	33	104	0	75	23747
2026-01-02 03:40:50.67	350.31	27.39	-55.0	-71.0	3.8	1.49e+00	0	33	104	0	75	23624
2026-01-02 03:40:53.66	349.40	27.51	-55.1	-71.0	3.8	1.49e+00	0	33	104	0	75	23665
2026-01-02 03:40:56.66	348.47	27.62	-55.0	-71.0	3.8	1.49e+00	0	33	104	0	75	23691
2026-01-02 03:40:59.66	347.53	27.73	-55.1	-71.0	3.8	1.49e+00	0	33	104	0	75	23686
2026-01-02 03:41:02.65	346.60	27.83	-55.0	-71.0	3.8	1.49e+00	0	33	104	0	75	23697
2026-01-02 03:41:05.65	345.65	27.91	-55.1	-71.0	3.8	1.49e+00	0	33	104	0	75	23706
2026-01-02 03:41:08.65	344.70	28.00	-55.0	-71.0	3.8	1.49e+00	0	33	104	0	75	23665
2026-01-02 03:41:11.66	343.74	28.07	-55.0	-71.0	3.8	1.49e+00	0	33	104	0	75	23632
2026-01-02 03:41:14.64	342.78	28.13	-55.1	-71.0	3.8	1.49e+00	0	33	104	0	75	23724
2026-01-02 03:41:17.64	341.82	28.19	-54.9	-71.0	3.8	1.49e+00	0	33	104	0	75	23659
2026-01-02 03:41:20.64	340.85	28.23	-55.0	-71.0	3.8	1.49e+00	0	33	104	0	75	23636
2026-01-02 03:41:23.62	339.89	28.27	-55.0	-71.0	3.8	1.49e+00	0	33	104	0	75	23697
2026-01-02 03:41:26.61	338.92	28.30	-55.0	-71.0	3.8	1.49e+00	0	33	104	0	75	23739
2026-01-02 03:41:29.60	337.95	28.32	-55.0	-71.0	3.8	1.49e+00	0	33	104	0	75	23670
2026-01-02 03:41:32.60	336.98	28.33	-55.0	-71.0	3.8	1.49e+00	0	33	104	0	75	23720
2026-01-02 03:41:35.59	336.01	28.33	-55.0	-71.0	3.8	1.49e+00	0	33	104	0	75	23665
2026-01-02 03:41:38.58	335.04	28.32	-55.1	-71.0	3.8	1.49e+00	0	33	104	0	75	23731
2026-01-02 03:41:41.56	334.07	28.30	-55.0	-71.0	3.8	1.49e+00	0	33	104	0	75	23641
2026-01-02 03:41:44.56	333.10	28.27	-55.1	-71.0	3.8	1.49e+00	0	33	104	0	75	23685
2026-01-02 03:41:47.58	332.12	28.24	-55.0	-71.0	3.8	1.49e+00	0	33	104	0	75	23661
2026-01-02 03:41:50.58	331.16	28.19	-55.1	-71.0	3.8	1.49e+00	0	33	104	0	75	23687
2026-01-02 03:41:53.56	330.20	28.14	-55.1	-71.0	3.8	1.49e+00	0	33	104	0	75	23698
2026-01-02 03:41:56.56	329.24	28.07	-55.1	-71.0	3.8	1.49e+00	0	33	104	0	75	23710
2026-01-02 03:41:59.56	328.28	28.00	-55.1	-71.0	3.8	1.49e+00	0	33	104	0	75	23696
2026-01-02 03:42:02.55	327.33	27.92	-55.1	-71.0	3.8	1.49e+00	0	33	104	0	75	23663
2026-01-02 03:42:05.53	326.39	27.83	-55.0	-71.0	3.8	1.49e+00	0	33	104	0	75	23691
2026-01-02 03:42:08.53	325.45	27.74	-55.0	-71.0	3.8	1.49e+00	0	33	104	0	75	23648
2026-01-02 03:42:11.53	324.51	27.63	-55.0	-71.0	3.8	1.49e+00	0	33	104	0	75	23623
2026-01-02 03:42:14.54	323.58	27.52	-55.1	-71.0	3.8	1.49e+00	0	33	104	0	75	23676
2026-01-02 03:42:17.54	322.66	27.40	-55.1	-71.0	3.9	1.49e+00	0	33	104	0	75	23709
2026-01-02 03:42:20.53	321.74	27.27	-55.0	-70.9	3.8	1.49e+00	0	33	104	0	75	23563
2026-01-02 03:42:23.53	320.84	27.13	-55.0	-71.0	3.8	1.49e+00	0	33	104	0	75	23602
2026-01-02 03:42:26.52	319.94	26.99	-55.0	-71.0	3.8	1.49e+00	0	33	104	0	75	23661
2026-01-02 03:42:29.53	319.05	26.84	-55.0	-71.0	3.8	1.49e+00	0	33	104	0	75	23622
2026-01-02 03:42:32.51	318.17	26.68	-55.0	-71.0	3.8	1.49e+00	0	33	104	0	75	23661
2026-01-02 03:42:35.51	317.30	26.52	-55.0	-71.0	3.8	1.49e+00	0	33	104	0	75	23674
2026-01-02 03:42:38.51	316.43	26.35	-55.0	-71.0	3.9	1.49e+00	0	33	104	0	75	23684
2026-01-02 03:42:41.52	315.57	26.17	-55.1	-71.0	3.8	1.49e+00	0	33	104	0	75	23702
2026-01-02 03:42:44.53	314.72	25.99	-55.0	-71.0	3.8	1.49e+00	0	33	104	0	75	23631
2026-01-02 03:42:47.52	313.89	25.80	-55.1	-71.0	3.8	1.49e+00	0	33	104	0	75	23671
2026-01-02 03:42:50.50	313.07	25.61	-55.0	-71.0	3.8	1.49e+00	0	33	104	0	75	23665
2026-01-02 03:42:53.50	312.26	25.41	-55.0	-71.0	3.8	1.49e+00	0	33	104	0	75	23601
2026-01-02 03:42:56.49	311.45	25.21	-55.1	-71.0	3.8	1.49e+00	0	33	104	0	75	23671
2026-01-02 03:42:59.49	310.66	25.00	-55.0	-71.0	3.8	1.49e+00	0	33	104	0	75	23617
2026-01-02 03:43:02.47	309.88	24.79	-55.0	-71.0	3.8	1.49e+00	0	33	104	0	75	23627
2026-01-02 03:43:05.46	309.11	24.58	-55.0	-70.9	3.8	1.49e+00	0	33	104	0	75	23571
2026-01-02 03:43:08.44	308.35	24.36	-55.0	-71.0	3.8	1.49e+00	0	33	104	0	75	23674
2026-01-02 03:43:11.44	307.60	24.14	-55.0	-71.0	3.8	1.49e+00	0	33	104	0	75	23650
2026-01-02 03:43:14.43	306.86	23.91	-55.0	-71.0	3.8	1.49e+00	0	33	104	0	75	23587
2026-01-02 03:43:17.42	306.13	23.68	-55.0	-71.0	3.8	1.49e+00	0	33	104	0	75	23658
2026-01-02 03:43:20.42	305.41	23.45	-55.0	-70.9	3.8	1.49e+00	0	33	104	0	75	23581
2026-01-02 03:43:23.42	304.70	23.22	-55.0	-71.0	3.8	1.49e+00	0	33	104	0	75	23651
2026-01-02 03:43:26.40	304.01	22.98	-55.0	-71.0	3.8	1.49e+00	0	33	104	0	75	23654
2026-01-02 03:43:29.40	303.32	22.74	-55.0	-71.0	3.8	1.49e+00	0	33	104	0	75	23616
2026-01-02 03:43:32.40	302.64	22.50	-55.0	-71.0	3.8	1.49e+00	0	33	104	0	75	23621
2026-01-02 03:43:35.39	301.98	22.26	-55.0	-71.0	3.8	1.49e+00	0	33	104	0	75	23598
2026-01-02 03:43:38.39	301.32	22.01	-55.0	-71.0	3.8	1.49e+00	0	33	104	0	75	23604
2026-01-02 03:43:41.40	300.67	21.76	-55.0	-71.0	3.8	1.49e+00	0	33	104	0	75	23590
2026-01-02 03:43:44.40	300.04	21.52	-55.0	-70.9	3.8	1.49e+00	0	33	104	0	75	23459
2026-01-02 03:43:47.40	299.41	21.27	-55.0	-70.9	3.8	1.49e+00	0	33	104	0	75	23458
2026-01-02 03:43:50.38	298.80	21.02	-55.0	-70.9	3.8	1.49e+00	0	33	104	0	75	23540
2026-01-02 03:43:53.38	298.19	20.76	-55.0	-70.9	3.8	1.49e+00	0	33	104	0	75	23488
2026-01-02 03:43:56.38	297.60	20.51	-55.0	-71.2	3.8	1.49e+00	0	33	104	0	75	24376
2026-01-02 03:43:59.39	297.01	20.26	-55.0	-71.0	3.8	1.49e+00	0	33	104	0	75	23641
2026-01-02 03:44:02.37	296.44	20.00	-55.0	-71.0	3.8	1.49e+00	0	33	104	0	75	23586
2026-01-02 03:44:05.36	295.87	19.75	-55.0	-70.9	3.8	1.49e+00	0	33	104	0	75	23537
2026-01-02 03:44:08.34	295.32	19.50	-55.0	-70.9	3.8	1.49e+00	0	33	104	0	75	23572
2026-01-02 03:44:11.32	294.78	19.25	-55.0	-71.0	3.8	1.49e+00	0	33	104	0	75	23594
2026-01-02 03:44:14.33	294.24	18.99	-55.0	-70.9	3.8	1.49e+00	0	33	104	0	75	23571
2026-01-02 03:44:17.32	293.71	18.74	-55.0	-70.9	3.8	1.49e+00	0	33	104	0	75	23579
2026-01-02 03:44:20.31	293.19	18.48	-55.0	-71.0	3.8	1.49e+00	0	33	104	0	75	23621
2026-01-02 03:44:23.30	292.68	18.23	-55.0	-71.0	3.8	1.49e+00	0	33	104	0	75	23627
2026-01-02 03:44:26.31	292.18	17.97	-55.0	-71.0	3.8	1.49e+00	0	33	104	0	75	23622
2026-01-02 03:44:29.31	291.68	17.72	-55.0	-70.9	3.8	1.49e+00	0	33	104	0	75	23567
2026-01-02 03:44:32.31	291.20	17.46	-55.0	-71.0	3.8	1.49e+00	0	33	104	0	75	23639
2026-01-02 03:44:35.32	290.72	17.21	-55.0	-71.0	3.8	1.49e+00	0	33	104	0	75	23633
2026-01-02 03:44:38.33	290.25	16.96	-55.0	-70.9	3.8	1.49e+00	0	33	104	0	75	23536
2026-01-02 03:44:41.33	289.78	16.71	-55.0	-71.0	3.8	1.49e+00	0	33	104	0	75	23602
2026-01-02 03:44:44.35	289.33	16.45	-55.0	-70.9	3.8	1.49e+00	0	33	104	0	75	23531
2026-01-02 03:44:47.35	288.88	16.20	-55.0	-71.0	3.8	1.49e+00	0	33	104	0	75	23620
2026-01-02 03:44:50.35	288.44	15.95	-55.0	-70.9	3.8	1.49e+00	0	33	104	0	75	23536
2026-01-02 03:44:53.36	288.01	15.70	-55.0	-70.9	3.8	1.49e+00	0	33	104	0	75	23561
2026-01-02 03:44:56.34	287.59	15.46	-55.0	-70.9	3.8	1.49e+00	0	33	104	0	75	23553
2026-01-02 03:44:59.33	287.17	15.21	-55.0	-70.9	3.8	1.49e+00	0	33	104	0	75	23579
2026-01-02 03:45:02.32	286.76	14.97	-55.0	-71.0	3.8	1.49e+00	0	33	104	0	75	23589
2026-01-02 03:45:05.31	286.36	14.72	-55.0	-71.0	3.8	1.49e+00	0	33	104	0	75	23595
2026-01-02 03:45:08.31	285.96	14.48	-55.0	-70.9	3.8	1.49e+00	0	33	104	0	75	23577
2026-01-02 03:45:11.32	285.57	14.23	-55.0	-71.0	3.8	1.49e+00	0	33	104	0	75	23636
2026-01-02 03:45:14.31	285.19	13.99	-55.0	-71.0	3.7	1.49e+00	0	33	104	0	75	23745
2026-01-02 03:45:17.30	284.81	13.75	-55.0	-71.0	3.8	1.49e+00	0	33	104	0	75	23582
2026-01-02 03:45:20.30	284.44	13.51	-55.0	-71.0	3.8	1.49e+00	0	33	104	0	75	23612
2026-01-02 03:45:23.31	284.08	13.27	-55.0	-71.0	3.8	1.49e+00	0	33	104	0	75	23652
2026-01-02 03:45:26.31	283.72	13.04	-55.0	-71.0	3.8	1.49e+00	0	33	104	0	75	23584
2026-01-02 03:45:29.31	283.36	12.80	-55.0	-71.0	3.8	1.49e+00	0	33	104	0	75	23655
2026-01-02 03:45:32.29	283.02	12.57	-55.0	-71.0	3.8	1.49e+00	0	33	104	0	75	23645
2026-01-02 03:45:35.29	282.68	12.33	-55.0	-71.0	3.8	1.49e+00	0	33	104	0	75	23672
2026-01-02 03:45:38.28	282.34	12.10	-55.0	-70.9	3.8	1.49e+00	0	33	104	0	75	23572
2026-01-02 03:45:41.28	282.01	11.87	-55.0	-71.0	3.8	1.49e+00	0	33	104	0	75	23646
2026-01-02 03:45:44.27	281.69	11.64	-55.0	-71.0	3.8	1.49e+00	0	33	104	0	75	23602
2026-01-02 03:45:47.27	281.37	11.41	-55.0	-71.0	3.8	1.49e+00	0	33	104	0	75	23617
2026-01-02 03:45:50.26	281.05	11.19	-55.0	-71.0	3.8	1.49e+00	0	33	104	0	75	23601
2026-01-02 03:45:53.26	280.74	10.96	-55.0	-71.0	3.8	1.49e+00	0	33	104	0	75	23639
2026-01-02 03:45:56.25	280.44	10.74	-55.0	-71.0	3.8	1.49e+00	0	33	104	0	75	23629
2026-01-02 03:45:59.25	280.14	10.51	-55.0	-71.0	3.8	1.49e+00	0	33	104	0	75	23609
2026-01-02 03:46:02.25	279.84	10.29	-55.0	-71.0	3.8	1.49e+00	0	33	104	0	75	23639
2026-01-02 03:46:05.25	279.55	10.07	-55.0	-71.0	3.8	1.49e+00	0	33	104	0	75	23662
2026-01-02 03:46:08.25	279.26	9.85	-55.0	-70.9	3.8	1.49e+00	0	33	104	0	75	23558
2026-01-02 03:46:11.25	278.98	9.63	-55.0	-71.0	3.8	1.49e+00	0	33	104	0	75	23626
2026-01-02 03:46:14.24	278.70	9.41	-55.0	-70.9	3.8	1.49e+00	0	33	104	0	75	23560
2026-01-02 03:46:17.23	278.43	9.20	-55.0	-71.0	3.8	1.49e+00	0	33	104	0	75	23600
2026-01-02 03:46:20.23	278.16	8.98	-55.0	-71.0	3.8	1.49e+00	0	33	104	0	75	23597
2026-01-02 03:46:23.21	277.89	8.77	-55.0	-71.0	3.8	1.49e+00	0	33	104	0	75	23657
2026-01-02 03:46:26.21	277.63	8.56	-55.0	-71.0	3.8	1.49e+00	0	33	104	0	75	23627
2026-01-02 03:46:29.20	277.37	8.35	-55.0	-70.9	3.8	1.49e+00	0	33	104	0	75	23571
2026-01-02 03:46:32.20	277.12	8.14	-55.0	-71.3	3.8	1.49e+00	0	33	104	0	75	24510
2026-01-02 03:46:35.20	276.87	7.93	-55.0	-70.9	3.8	1.49e+00	0	33	104	0	75	23562
2026-01-02 03:46:38.20	276.62	7.72	-55.0	-71.0	3.8	1.49e+00	0	33	104	0	75	23606
2026-01-02 03:46:41.19	276.38	7.51	-55.0	-71.0	3.8	1.49e+00	0	33	104	0	75	23644
2026-01-02 03:46:44.19	276.14	7.31	-55.0	-71.0	3.8	1.49e+00	0	33	104	0	75	23613
2026-01-02 03:46:47.19	275.90	7.10	-55.0	-71.0	3.8	1.49e+00	0	33	104	0	75	23623
2026-01-02 03:46:50.18	275.67	6.90	-55.0	-71.0	3.8	1.49e+00	0	33	104	0	75	23607
2026-01-02 03:46:53.19	275.44	6.70	-55.0	-71.0	3.8	1.49e+00	0	33	104	0	75	23637
2026-01-02 03:46:56.19	275.22	6.50	-55.0	-71.0	3.8	1.49e+00	0	33	104	0	75	23607
2026-01-02 03:46:59.20	274.99	6.30	-55.0	-71.0	3.8	1.49e+00	0	33	104	0	75	23651
2026-01-02 03:47:02.19	274.77	6.10	-55.0	-71.0	3.8	1.49e+00	0	33	104	0	75	23658
2026-01-02 03:47:05.18	274.56	5.90	-55.0	-71.0	3.8	1.49e+00	0	33	104	0	75	23612
2026-01-02 03:47:08.17	274.35	5.71	-55.0	-71.0	3.8	1.49e+00	0	33	104	0	75	23587
2026-01-02 03:47:11.16	274.14	5.51	-55.0	-71.0	3.8	1.49e+00	0	33	104	0	75	23615
2026-01-02 03:47:14.14	273.93	5.32	-55.0	-71.0	3.8	1.49e+00	0	32	104	0	75	23601
2026-01-02 03:47:17.14	273.72	5.12	-55.0	-71.0	3.8	1.49e+00	0	33	104	0	75	23644
2026-01-02 03:47:20.13	273.52	4.93	-55.0	-71.0	3.8	1.49e+00	0	33	104	0	75	23589
2026-01-02 03:47:23.11	273.33	4.74	-55.0	-71.0	3.8	1.49e+00	0	33	104	0	75	23592
2026-01-02 03:47:26.12	273.13	4.55	-55.0	-71.0	3.8	1.49e+00	0	33	104	0	75	23650
2026-01-02 03:47:29.12	272.93	4.36	-55.0	-70.9	3.9	1.49e+00	0	33	104	0	75	23573
2026-01-02 03:47:32.13	272.74	4.17	-55.0	-71.0	3.8	1.49e+00	0	33	104	0	75	23667
2026-01-02 03:47:35.14	272.55	3.99	-55.0	-71.0	3.8	1.49e+00	0	33	104	0	75	23604
2026-01-02 03:47:38.14	272.37	3.80	-55.0	-71.0	3.8	1.49e+00	0	33	104	0	75	23589
2026-01-02 03:47:41.14	272.18	3.62	-55.0	-71.0	3.8	1.49e+00	0	33	104	0	75	23694
2026-01-02 03:47:44.13	272.00	3.43	-55.0	-71.0	3.8	1.49e+00	0	33	104	0	75	23613
2026-01-02 03:47:47.13	271.82	3.25	-55.0	-70.9	3.8	1.49e+00	0	33	104	0	75	23543
2026-01-02 03:47:50.13	271.65	3.07	-52.1	-70.6	3.8	1.49e+00	0	33	104	0	73	25312
2026-01-02 03:47:53.14	271.47	2.88	-55.0	-70.9	3.8	1.49e+00	0	33	104	0	75	23495
2026-01-02 03:47:56.14	271.30	2.70	-55.0	-71.0	3.8	1.49e+00	0	33	104	0	75	23617
2026-01-02 03:47:59.15	271.13	2.52	-55.0	-71.0	3.8	1.49e+00	0	33	104	0	75	23608
2026-01-02 03:48:02.14	270.96	2.35	-55.0	-71.0	3.8	1.49e+00	0	33	104	0	75	23634
2026-01-02 03:48:05.13	270.80	2.17	-55.0	-71.0	3.8	1.49e+00	0	33	104	0	75	23648
2026-01-02 03:48:08.12	270.63	1.99	-55.0	-71.0	3.8	1.49e+00	0	33	104	0	75	23584

#Closed at: 2026-01-02 03:48:08
#Recorded file [0 MB]: D:/lorett/data/31004_260102_063500.dat