passes_logs/2026/01/02/R3.2S_Murmansk/R3.2S_Murmansk__20260102_012531_NOAA_21_JPSS-2_rec.log

#Pass ID: 20260102_012531_NOAA 21 (JPSS-2)
#Satellite: NOAA 21 (JPSS-2)
#Configuration: NOAA-21
#almurnet v.1.7.20251203
#Start time: 2026-01-02 01:25:33

#Version: 2.2.20231116
#Station: R3.2S_Murmansk
#Location: 33.079688 lon 68.888172 lat
#TLE: 1 54234U 22150A   26001.12709759  .00000171  00000+0  10204-3 0  9995
#TLE: 2 54234  98.7484 302.1957 0001286 353.9379   6.1781 14.19530519162845

#Time	Az	El	Level	Level2	SNR	BER	BlckErr	Temp	State	Recorded	gain1	gain2
2026-01-02 01:25:33.44	27.65	2.10	-59.4	-73.2	3.8	1.49e+00	0	31	0	0	85	17203
2026-01-02 01:25:37.41	27.59	2.35	-59.3	-73.0	3.8	1.49e+00	0	31	104	0	83	18890
2026-01-02 01:25:41.40	27.52	2.61	-59.3	-73.0	3.8	1.49e+00	0	31	104	0	83	18933
2026-01-02 01:25:45.38	27.46	2.87	-59.3	-73.0	3.8	1.49e+00	0	31	104	0	83	18940
2026-01-02 01:25:49.38	27.39	3.13	-59.2	-72.9	3.8	1.49e+00	0	32	104	0	83	18663
2026-01-02 01:25:53.37	27.33	3.40	-59.2	-72.6	3.8	1.49e+00	0	32	104	0	83	17894
2026-01-02 01:25:57.37	27.26	3.67	-59.2	-72.1	3.8	1.49e+00	0	32	104	0	83	17002
2026-01-02 01:26:01.38	27.19	3.94	-59.1	-71.3	3.9	1.49e+00	0	32	104	0	83	15423
2026-01-02 01:26:05.37	27.11	4.21	-59.1	-71.5	3.8	1.49e+00	0	32	104	0	83	15937
2026-01-02 01:26:09.37	27.04	4.48	-59.1	-71.8	3.8	1.49e+00	0	32	104	0	83	16400
2026-01-02 01:26:13.37	26.96	4.76	-58.8	-67.7	4.8	8.27e-01	0	32	104	0	83	10277
2026-01-02 01:26:17.39	26.89	5.04	-59.7	-71.5	3.9	2.44e-01	0	32	104	11534336	84	14933
2026-01-02 01:26:21.37	26.81	5.33	-55.6	-69.3	3.8	1.49e+00	0	32	104	11534336	77	17404
2026-01-02 01:26:25.37	26.73	5.61	-55.3	-69.0	3.8	1.49e+00	0	32	104	11534336	77	16706
2026-01-02 01:26:29.38	26.64	5.91	-55.4	-69.1	3.8	1.49e+00	0	32	104	11534336	76	17895
2026-01-02 01:26:33.37	26.56	6.20	-55.4	-69.0	3.8	1.49e+00	0	32	104	11534336	76	17863
2026-01-02 01:26:37.36	26.47	6.49	-55.3	-69.0	3.8	1.49e+00	0	32	104	11534336	76	17692
2026-01-02 01:26:41.34	26.38	6.79	-55.4	-69.0	3.8	1.49e+00	0	32	104	11534336	76	17801
2026-01-02 01:26:45.34	26.29	7.10	-55.3	-69.0	3.8	1.49e+00	0	32	104	11534336	76	17834
2026-01-02 01:26:49.34	26.20	7.40	-55.3	-69.0	3.8	1.49e+00	0	33	104	11534336	76	17877
2026-01-02 01:26:53.34	26.10	7.71	-55.4	-69.0	3.8	1.49e+00	0	33	104	11534336	76	17804
2026-01-02 01:26:57.34	26.00	8.03	-55.3	-69.0	3.8	1.49e+00	0	33	104	11534336	76	17797
2026-01-02 01:27:01.34	25.90	8.35	-55.3	-69.0	3.8	1.49e+00	0	33	104	11534336	76	17801
2026-01-02 01:27:05.34	25.80	8.67	-55.3	-69.0	3.8	1.49e+00	0	33	104	11534336	76	17797
2026-01-02 01:27:09.34	25.69	8.99	-55.3	-69.0	3.8	1.49e+00	0	33	104	11534336	76	17876
2026-01-02 01:27:13.35	25.58	9.33	-55.3	-69.1	3.8	1.49e+00	0	33	104	11534336	76	17899
2026-01-02 01:27:17.33	25.47	9.66	-55.3	-69.0	3.8	1.49e+00	0	33	104	11534336	76	17836
2026-01-02 01:27:21.32	25.35	10.00	-55.4	-69.0	3.8	1.49e+00	0	33	104	11534336	76	17785
2026-01-02 01:27:25.32	25.23	10.34	-55.4	-69.0	3.8	1.49e+00	0	33	104	11534336	76	17789
2026-01-02 01:27:29.30	25.11	10.69	-55.4	-69.0	3.8	1.49e+00	0	33	104	11534336	76	17872
2026-01-02 01:27:33.30	24.99	11.04	-55.4	-69.0	3.8	1.49e+00	0	33	104	11534336	76	17838
2026-01-02 01:27:37.30	24.86	11.40	-55.3	-69.0	3.8	1.49e+00	0	33	104	11534336	76	17871
2026-01-02 01:27:41.30	24.73	11.76	-55.4	-69.0	3.8	1.49e+00	0	33	104	11534336	76	17838
2026-01-02 01:27:45.30	24.59	12.13	-55.3	-69.0	3.8	1.49e+00	0	33	104	11534336	76	17845
2026-01-02 01:27:49.29	24.45	12.50	-55.3	-69.0	3.8	1.49e+00	0	33	104	11534336	76	17806
2026-01-02 01:27:53.30	24.31	12.89	-55.3	-69.0	3.8	1.49e+00	0	33	104	11534336	76	17821
2026-01-02 01:27:57.30	24.16	13.27	-55.3	-69.0	3.8	1.49e+00	0	33	104	11534336	76	17862
2026-01-02 01:28:01.29	24.01	13.66	-55.3	-69.0	3.8	1.49e+00	0	33	104	11534336	76	17826
2026-01-02 01:28:05.30	23.85	14.06	-55.3	-69.0	3.8	1.49e+00	0	33	104	11534336	76	17770
2026-01-02 01:28:09.32	23.69	14.47	-55.3	-69.0	3.8	1.49e+00	0	33	104	11534336	76	17815
2026-01-02 01:28:13.31	23.52	14.88	-55.3	-69.0	3.8	1.49e+00	0	33	104	11534336	76	17885
2026-01-02 01:28:17.31	23.35	15.29	-55.3	-69.0	3.8	1.49e+00	0	33	104	11534336	76	17798
2026-01-02 01:28:21.31	23.17	15.72	-55.3	-69.0	3.8	1.49e+00	0	33	104	11534336	76	17873
2026-01-02 01:28:25.30	22.99	16.15	-55.4	-69.0	3.8	1.49e+00	0	33	104	11534336	76	17878
2026-01-02 01:28:29.30	22.80	16.59	-55.3	-69.1	3.8	1.49e+00	0	33	104	11534336	76	17910
2026-01-02 01:28:33.30	22.61	17.03	-55.4	-69.0	3.8	1.49e+00	0	33	104	11534336	76	17865
2026-01-02 01:28:37.30	22.41	17.49	-55.4	-69.0	3.8	1.49e+00	0	33	104	11534336	76	17878
2026-01-02 01:28:41.29	22.20	17.95	-55.4	-69.0	3.8	1.49e+00	0	33	104	11534336	76	17844
2026-01-02 01:28:45.29	21.99	18.42	-55.4	-69.0	3.8	1.49e+00	0	33	104	11534336	76	17843
2026-01-02 01:28:49.28	21.77	18.90	-55.3	-69.0	3.8	1.49e+00	0	33	104	11534336	76	17860
2026-01-02 01:28:53.27	21.54	19.39	-55.4	-69.0	3.8	1.49e+00	0	33	104	11534336	76	17888
2026-01-02 01:28:57.27	21.30	19.88	-55.4	-69.1	3.8	1.49e+00	0	33	104	11534336	76	17932
2026-01-02 01:29:01.27	21.05	20.39	-55.4	-69.0	3.8	1.49e+00	0	33	104	11534336	76	17856
2026-01-02 01:29:05.28	20.80	20.91	-55.4	-69.0	3.8	1.49e+00	0	33	104	11534336	76	17782
2026-01-02 01:29:09.28	20.53	21.44	-55.3	-69.0	3.8	1.49e+00	0	33	104	11534336	76	17750
2026-01-02 01:29:13.28	20.26	21.98	-55.3	-69.0	3.8	1.49e+00	0	33	104	11534336	76	17770
2026-01-02 01:29:17.28	19.98	22.53	-55.4	-69.0	3.8	1.49e+00	0	33	104	11534336	76	17770
2026-01-02 01:29:21.28	19.68	23.09	-55.4	-69.0	3.8	1.49e+00	0	33	104	11534336	76	17777
2026-01-02 01:29:25.28	19.37	23.66	-55.4	-69.0	3.8	1.49e+00	0	33	104	11534336	76	17833
2026-01-02 01:29:29.28	19.06	24.24	-55.3	-69.0	3.8	1.49e+00	0	33	104	11534336	76	17837
2026-01-02 01:29:33.29	18.72	24.84	-55.4	-69.0	3.8	1.49e+00	0	33	104	11534336	76	17861
2026-01-02 01:29:37.29	18.38	25.45	-55.3	-69.0	3.8	1.49e+00	0	33	104	11534336	76	17863
2026-01-02 01:29:41.29	18.02	26.07	-55.4	-69.0	3.8	1.49e+00	0	33	104	11534336	76	17837
2026-01-02 01:29:45.28	17.65	26.70	-55.4	-69.0	3.8	1.49e+00	0	33	104	11534336	76	17838
2026-01-02 01:29:49.27	17.26	27.35	-55.4	-69.0	3.8	1.49e+00	0	33	104	11534336	76	17858
2026-01-02 01:29:53.27	16.85	28.01	-55.4	-69.0	3.8	1.49e+00	0	33	104	11534336	76	17869
2026-01-02 01:29:57.26	16.43	28.69	-55.4	-69.0	3.8	1.49e+00	0	33	104	11534336	76	17857
2026-01-02 01:30:01.24	15.98	29.37	-55.4	-69.0	3.8	1.49e+00	0	33	104	11534336	76	17884
2026-01-02 01:30:05.24	15.52	30.08	-55.4	-69.1	3.8	1.49e+00	0	33	104	11534336	76	17934
2026-01-02 01:30:09.24	15.03	30.80	-55.3	-69.0	3.8	1.49e+00	0	33	104	11534336	76	17881
2026-01-02 01:30:13.24	14.52	31.54	-55.3	-69.0	3.8	1.49e+00	0	33	104	11534336	76	17849
2026-01-02 01:30:17.24	13.99	32.30	-55.4	-69.0	3.8	1.49e+00	0	33	104	11534336	76	17853
2026-01-02 01:30:21.24	13.43	33.07	-55.3	-69.0	3.8	1.49e+00	0	33	104	11534336	76	17862
2026-01-02 01:30:25.23	12.84	33.85	-55.4	-69.0	3.8	1.49e+00	0	33	104	11534336	76	17887
2026-01-02 01:30:29.23	12.22	34.66	-55.3	-69.0	3.8	1.49e+00	0	33	104	11534336	76	17867
2026-01-02 01:30:33.23	11.57	35.48	-55.3	-69.0	3.8	1.49e+00	0	33	104	11534336	76	17851
2026-01-02 01:30:37.23	10.89	36.32	-55.3	-69.0	3.8	1.49e+00	0	33	104	11534336	76	17860
2026-01-02 01:30:41.23	10.17	37.17	-55.3	-69.0	3.8	1.49e+00	0	33	104	11534336	76	17860
2026-01-02 01:30:45.23	9.40	38.05	-55.3	-69.0	3.8	1.49e+00	0	33	104	11534336	76	17862
2026-01-02 01:30:49.22	8.60	38.93	-55.3	-69.0	3.8	1.49e+00	0	33	104	11534336	76	17885
2026-01-02 01:30:53.21	7.75	39.84	-55.4	-69.1	3.8	1.49e+00	0	33	104	11534336	76	17891
2026-01-02 01:30:57.21	6.84	40.76	-55.4	-69.0	3.8	1.49e+00	0	33	104	11534336	76	17834
2026-01-02 01:31:01.20	5.89	41.70	-55.3	-69.0	3.8	1.49e+00	0	33	104	11534336	76	17834
2026-01-02 01:31:05.20	4.87	42.65	-55.4	-69.0	3.8	1.49e+00	0	33	104	11534336	76	17881
2026-01-02 01:31:09.21	3.79	43.62	-55.3	-69.0	3.8	1.49e+00	0	33	104	11534336	76	17863
2026-01-02 01:31:13.23	2.64	44.60	-55.3	-69.0	3.8	1.49e+00	0	33	104	11534336	76	17833
2026-01-02 01:31:17.25	1.41	45.60	-55.3	-69.0	3.8	1.49e+00	0	33	104	11534336	76	17838
2026-01-02 01:31:21.26	0.11	46.60	-55.3	-69.0	3.8	1.49e+00	0	33	104	11534336	76	17813
2026-01-02 01:31:25.26	358.72	47.60	-55.3	-69.0	3.8	1.49e+00	0	33	104	11534336	76	17819
2026-01-02 01:31:29.27	357.23	48.61	-55.3	-69.0	3.8	1.49e+00	0	33	104	11534336	76	17858
2026-01-02 01:31:33.27	355.64	49.62	-55.3	-69.0	3.8	1.49e+00	0	33	104	11534336	76	17842
2026-01-02 01:31:37.27	353.95	50.63	-55.3	-69.0	3.8	1.49e+00	0	33	104	11534336	76	17847
2026-01-02 01:31:41.28	352.13	51.63	-55.3	-69.0	3.8	1.49e+00	0	33	104	11534336	76	17797
2026-01-02 01:31:45.27	350.20	52.62	-55.3	-69.0	3.8	1.49e+00	0	33	104	11534336	76	17884
2026-01-02 01:31:49.27	348.12	53.59	-55.4	-69.0	3.8	1.49e+00	0	33	104	11534336	76	17856
2026-01-02 01:31:53.26	345.91	54.54	-55.4	-69.0	3.8	1.49e+00	0	33	104	11534336	76	17843
2026-01-02 01:31:57.24	343.56	55.46	-55.3	-69.0	3.8	1.49e+00	0	33	104	11534336	76	17830
2026-01-02 01:32:01.24	341.03	56.34	-55.3	-69.0	3.8	1.49e+00	0	33	104	11534336	76	17852
2026-01-02 01:32:05.25	338.34	57.18	-55.3	-69.0	3.8	1.49e+00	0	33	104	11534336	76	17861
2026-01-02 01:32:09.25	335.49	57.97	-55.4	-69.0	3.8	1.49e+00	0	33	104	11534336	76	17887
2026-01-02 01:32:13.24	332.48	58.69	-55.3	-69.0	3.8	1.49e+00	0	33	104	11534336	76	17779
2026-01-02 01:32:17.26	329.28	59.35	-55.4	-69.0	3.8	1.49e+00	0	33	104	11534336	76	17867
2026-01-02 01:32:21.26	325.94	59.93	-55.3	-69.0	3.8	1.49e+00	0	33	104	11534336	76	17852
2026-01-02 01:32:25.26	322.46	60.42	-55.4	-69.0	3.8	1.49e+00	0	33	104	11534336	76	17852
2026-01-02 01:32:29.27	318.85	60.81	-55.3	-69.0	3.8	1.49e+00	0	33	104	11534336	76	17853
2026-01-02 01:32:33.27	315.15	61.11	-55.3	-69.0	3.8	1.49e+00	0	33	104	11534336	76	17786
2026-01-02 01:32:37.28	311.36	61.29	-55.3	-69.1	3.8	1.49e+00	0	33	104	11534336	76	17893
2026-01-02 01:32:41.26	307.56	61.37	-55.4	-69.0	3.8	1.49e+00	0	33	104	11534336	76	17882
2026-01-02 01:32:45.26	303.74	61.34	-55.3	-69.0	3.8	1.49e+00	0	33	104	11534336	76	17828
2026-01-02 01:32:49.26	299.95	61.19	-55.3	-69.0	3.8	1.49e+00	0	33	104	11534336	76	17829
2026-01-02 01:32:53.24	296.23	60.94	-55.3	-69.1	3.8	1.49e+00	0	33	104	11534336	76	17908
2026-01-02 01:32:57.24	292.59	60.58	-55.3	-69.0	3.8	1.49e+00	0	33	104	11534336	76	17855
2026-01-02 01:33:01.24	289.05	60.13	-55.3	-69.0	3.8	1.49e+00	0	33	104	11534336	76	17812
2026-01-02 01:33:05.23	285.67	59.58	-55.3	-69.0	3.8	1.49e+00	0	33	104	11534336	76	17814
2026-01-02 01:33:09.22	282.43	58.96	-55.3	-69.0	3.8	1.49e+00	0	34	104	11534336	76	17829
2026-01-02 01:33:13.22	279.34	58.26	-55.3	-69.0	3.8	1.49e+00	0	33	104	11534336	76	17796
2026-01-02 01:33:17.22	276.42	57.49	-55.3	-69.0	3.8	1.49e+00	0	33	104	11534336	76	17862
2026-01-02 01:33:21.22	273.66	56.67	-55.3	-69.0	3.8	1.49e+00	0	33	104	11534336	76	17841
2026-01-02 01:33:25.21	271.08	55.81	-55.3	-69.0	3.8	1.49e+00	0	33	104	11534336	76	17793
2026-01-02 01:33:29.21	268.65	54.90	-55.3	-69.0	3.8	1.49e+00	0	33	104	11534336	76	17799
2026-01-02 01:33:33.21	266.37	53.96	-55.3	-69.0	3.8	1.49e+00	0	33	104	11534336	76	17841
2026-01-02 01:33:37.21	264.24	52.99	-55.3	-69.0	3.8	1.49e+00	0	33	104	11534336	76	17856
2026-01-02 01:33:41.21	262.25	52.01	-55.3	-69.0	3.8	1.49e+00	0	33	104	11534336	76	17827
2026-01-02 01:33:45.21	260.39	51.01	-55.3	-69.0	3.8	1.49e+00	0	33	104	11534336	76	17801
2026-01-02 01:33:49.21	258.64	50.00	-55.3	-69.0	3.8	1.49e+00	0	33	104	11534336	76	17844
2026-01-02 01:33:53.22	257.01	48.98	-55.3	-69.0	3.8	1.49e+00	0	33	104	11534336	76	17847
2026-01-02 01:33:57.19	255.50	47.98	-55.3	-69.0	3.8	1.49e+00	0	33	104	11534336	76	17847
2026-01-02 01:34:01.19	254.07	46.97	-55.3	-69.0	3.8	1.49e+00	0	33	104	11534336	76	17811
2026-01-02 01:34:05.20	252.73	45.96	-55.3	-69.1	3.8	1.49e+00	0	33	104	11534336	76	17900
2026-01-02 01:34:09.19	251.48	44.97	-55.3	-69.0	3.8	1.49e+00	0	33	104	11534336	76	17817
2026-01-02 01:34:13.19	250.30	43.99	-55.3	-69.0	3.8	1.49e+00	0	33	104	11534336	76	17858
2026-01-02 01:34:17.19	249.19	43.01	-55.3	-69.0	3.8	1.49e+00	0	33	104	11534336	76	17787
2026-01-02 01:34:21.18	248.15	42.05	-55.3	-69.0	3.8	1.49e+00	0	33	104	11534336	76	17799
2026-01-02 01:34:25.18	247.17	41.11	-55.3	-69.0	3.8	1.49e+00	0	33	104	11534336	76	17792
2026-01-02 01:34:29.18	246.24	40.18	-55.3	-69.0	3.8	1.49e+00	0	33	104	11534336	76	17830
2026-01-02 01:34:33.18	245.37	39.26	-55.3	-69.0	3.8	1.49e+00	0	33	104	11534336	76	17844
2026-01-02 01:34:37.17	244.54	38.36	-55.3	-69.0	3.8	1.49e+00	0	33	104	11534336	76	17836
2026-01-02 01:34:41.18	243.76	37.48	-55.3	-69.0	3.8	1.49e+00	0	33	104	11534336	76	17784
2026-01-02 01:34:45.18	243.02	36.62	-55.3	-69.0	3.8	1.49e+00	0	33	104	11534336	76	17812
2026-01-02 01:34:49.17	242.32	35.77	-55.3	-69.0	3.8	1.49e+00	0	33	104	11534336	76	17778
2026-01-02 01:34:53.17	241.65	34.94	-55.3	-69.0	3.8	1.49e+00	0	33	104	11534336	76	17864
2026-01-02 01:34:57.16	241.02	34.13	-55.3	-69.0	3.8	1.49e+00	0	33	104	11534336	76	17783
2026-01-02 01:35:01.16	240.42	33.33	-55.3	-69.0	3.8	1.49e+00	0	33	104	11534336	76	17810
2026-01-02 01:35:05.16	239.85	32.55	-55.3	-69.0	3.8	1.49e+00	0	33	104	11534336	76	17803
2026-01-02 01:35:09.16	239.30	31.79	-55.3	-69.0	3.8	1.49e+00	0	33	104	11534336	76	17790
2026-01-02 01:35:13.16	238.78	31.04	-55.3	-69.0	3.8	1.49e+00	0	33	104	11534336	76	17786
2026-01-02 01:35:17.17	238.28	30.31	-55.3	-69.0	3.8	1.49e+00	0	33	104	11534336	76	17802
2026-01-02 01:35:21.19	237.80	29.59	-55.3	-69.0	3.8	1.49e+00	0	33	104	11534336	76	17746
2026-01-02 01:35:25.19	237.35	28.89	-55.3	-69.0	3.8	1.49e+00	0	33	104	11534336	76	17814
2026-01-02 01:35:29.19	236.92	28.21	-55.3	-69.0	3.8	1.49e+00	0	33	104	11534336	76	17801
2026-01-02 01:35:33.19	236.50	27.54	-55.3	-69.0	3.8	1.49e+00	0	33	104	11534336	76	17835
2026-01-02 01:35:37.20	236.10	26.88	-55.3	-69.0	3.8	1.49e+00	0	33	104	11534336	76	17763
2026-01-02 01:35:41.20	235.72	26.24	-55.3	-69.0	3.8	1.49e+00	0	33	104	11534336	76	17842
2026-01-02 01:35:45.20	235.35	25.61	-55.3	-69.0	3.8	1.49e+00	0	33	104	11534336	76	17809
2026-01-02 01:35:49.20	235.00	25.00	-55.3	-69.0	3.8	1.49e+00	0	33	104	11534336	76	17772
2026-01-02 01:35:53.21	234.66	24.39	-55.3	-69.0	3.8	1.49e+00	0	33	104	11534336	76	17738
2026-01-02 01:35:57.20	234.34	23.81	-55.3	-69.0	3.8	1.49e+00	0	33	104	11534336	76	17768
2026-01-02 01:36:01.19	234.03	23.23	-55.3	-69.0	3.8	1.49e+00	0	33	104	11534336	76	17766
2026-01-02 01:36:05.17	233.73	22.67	-55.3	-69.0	3.8	1.49e+00	0	33	104	11534336	76	17796
2026-01-02 01:36:09.17	233.44	22.11	-55.3	-69.0	3.8	1.49e+00	0	34	104	11534336	76	17766
2026-01-02 01:36:13.18	233.16	21.57	-55.3	-69.0	3.8	1.49e+00	0	33	104	11534336	76	17819
2026-01-02 01:36:17.17	232.89	21.04	-55.3	-69.0	3.8	1.49e+00	0	33	104	11534336	76	17760
2026-01-02 01:36:21.18	232.63	20.51	-55.3	-69.0	3.8	1.49e+00	0	33	104	11534336	76	17798
2026-01-02 01:36:25.19	232.38	20.00	-55.3	-69.0	3.8	1.49e+00	0	33	104	11534336	76	17803
2026-01-02 01:36:29.21	232.13	19.49	-55.3	-69.0	3.8	1.49e+00	0	33	104	11534336	76	17767
2026-01-02 01:36:33.22	231.90	19.00	-55.3	-69.0	3.8	1.49e+00	0	33	104	11534336	76	17760
2026-01-02 01:36:37.21	231.67	18.52	-55.3	-69.0	3.8	1.49e+00	0	33	104	11534336	76	17809
2026-01-02 01:36:41.21	231.45	18.04	-55.3	-69.0	3.8	1.49e+00	0	33	104	11534336	76	17790
2026-01-02 01:36:45.19	231.24	17.58	-55.3	-69.0	3.8	1.49e+00	0	33	104	11534336	76	17814
2026-01-02 01:36:49.20	231.04	17.12	-55.3	-69.0	3.8	1.49e+00	0	33	104	11534336	76	17804
2026-01-02 01:36:53.20	230.84	16.67	-55.3	-69.0	3.8	1.49e+00	0	33	104	11534336	76	17846
2026-01-02 01:36:57.20	230.65	16.22	-55.3	-69.0	3.8	1.49e+00	0	33	104	11534336	76	17781
2026-01-02 01:37:01.20	230.46	15.79	-55.3	-69.0	3.8	1.49e+00	0	33	104	11534336	76	17833
2026-01-02 01:37:05.18	230.28	15.36	-55.3	-69.0	3.8	1.49e+00	0	33	104	11534336	76	17783
2026-01-02 01:37:09.17	230.10	14.94	-55.3	-69.0	3.8	1.49e+00	0	33	104	11534336	76	17802
2026-01-02 01:37:13.16	229.93	14.53	-55.3	-69.0	3.8	1.49e+00	0	33	104	11534336	76	17756
2026-01-02 01:37:17.18	229.77	14.12	-55.3	-69.0	3.8	1.49e+00	0	33	104	11534336	76	17726
2026-01-02 01:37:21.18	229.61	13.72	-55.3	-69.0	3.8	1.49e+00	0	33	104	11534336	76	17733
2026-01-02 01:37:25.19	229.45	13.32	-55.3	-69.0	3.8	1.49e+00	0	33	104	11534336	76	17791
2026-01-02 01:37:29.18	229.30	12.94	-55.3	-69.0	3.8	1.49e+00	0	33	104	11534336	76	17802
2026-01-02 01:37:33.18	229.15	12.55	-55.3	-69.0	3.8	1.49e+00	0	33	104	11534336	76	17763
2026-01-02 01:37:37.18	229.01	12.18	-55.3	-69.0	3.8	1.49e+00	0	33	104	11534336	76	17781
2026-01-02 01:37:41.18	228.87	11.81	-55.3	-69.0	3.8	1.49e+00	0	33	104	11534336	76	17785
2026-01-02 01:37:45.17	228.73	11.44	-55.3	-69.0	3.8	1.49e+00	0	33	104	11534336	76	17768
2026-01-02 01:37:49.18	228.60	11.08	-55.3	-69.0	3.8	1.49e+00	0	33	104	11534336	76	17801
2026-01-02 01:37:53.18	228.47	10.72	-55.3	-69.0	3.8	1.49e+00	0	33	104	11534336	76	17778
2026-01-02 01:37:57.18	228.35	10.37	-55.3	-69.0	3.8	1.49e+00	0	33	104	11534336	76	17771
2026-01-02 01:38:01.17	228.23	10.03	-55.3	-69.0	3.8	1.49e+00	0	33	104	11534336	76	17759
2026-01-02 01:38:05.16	228.11	9.69	-55.3	-69.0	3.8	1.49e+00	0	33	104	11534336	76	17780
2026-01-02 01:38:09.14	227.99	9.35	-55.3	-69.0	3.8	1.49e+00	0	33	104	11534336	76	17777
2026-01-02 01:38:13.14	227.88	9.02	-55.3	-69.0	3.8	1.49e+00	0	33	104	11534336	76	17817
2026-01-02 01:38:17.14	227.77	8.69	-55.3	-69.0	3.8	1.49e+00	0	33	104	11534336	76	17758
2026-01-02 01:38:21.13	227.66	8.37	-55.3	-69.0	3.8	1.49e+00	0	34	104	11534336	76	17787
2026-01-02 01:38:25.15	227.56	8.05	-55.3	-69.0	3.8	1.49e+00	0	33	104	11534336	76	17766
2026-01-02 01:38:29.15	227.46	7.73	-55.3	-69.0	3.8	1.49e+00	0	33	104	11534336	76	17801
2026-01-02 01:38:33.14	227.36	7.42	-55.3	-69.0	3.8	1.49e+00	0	33	104	11534336	76	17756
2026-01-02 01:38:37.14	227.26	7.11	-55.3	-69.0	3.8	1.49e+00	0	33	104	11534336	76	17790
2026-01-02 01:38:41.14	227.16	6.80	-55.3	-69.0	3.8	1.49e+00	0	34	104	11534336	76	17783
2026-01-02 01:38:45.14	227.07	6.50	-55.3	-69.0	3.8	1.49e+00	0	33	104	11534336	76	17749
2026-01-02 01:38:49.13	226.98	6.21	-55.3	-69.0	3.8	1.49e+00	0	33	104	11534336	76	17795
2026-01-02 01:38:53.13	226.89	5.91	-55.3	-69.0	3.8	1.49e+00	0	33	104	11534336	76	17787
2026-01-02 01:38:57.12	226.81	5.62	-55.3	-69.0	3.8	1.49e+00	0	33	104	11534336	76	17736
2026-01-02 01:39:01.11	226.72	5.33	-55.3	-69.0	3.8	1.49e+00	0	33	104	11534336	76	17799
2026-01-02 01:39:05.10	226.64	5.05	-55.3	-69.0	3.8	1.49e+00	0	33	104	11534336	76	17817
2026-01-02 01:39:09.09	226.56	4.76	-55.3	-69.0	3.8	1.49e+00	0	33	104	11534336	76	17783
2026-01-02 01:39:13.08	226.48	4.49	-55.3	-69.0	3.8	1.49e+00	0	34	104	11534336	76	17771
2026-01-02 01:39:17.08	226.40	4.21	-55.3	-69.0	3.8	1.49e+00	0	33	104	11534336	76	17764
2026-01-02 01:39:21.08	226.33	3.93	-55.3	-69.0	3.8	1.49e+00	0	33	104	11534336	76	17765
2026-01-02 01:39:25.08	226.25	3.66	-55.3	-69.0	3.8	1.49e+00	0	33	104	11534336	76	17739
2026-01-02 01:39:29.08	226.18	3.39	-55.3	-69.0	3.8	1.49e+00	0	33	104	11534336	76	17769
2026-01-02 01:39:33.09	226.11	3.13	-55.3	-69.0	3.8	1.49e+00	0	34	104	11534336	76	17725
2026-01-02 01:39:37.10	226.04	2.86	-55.3	-69.0	3.8	1.49e+00	0	33	104	11534336	76	17728
2026-01-02 01:39:41.10	225.97	2.60	-55.3	-69.0	3.8	1.49e+00	0	33	104	11534336	76	17745
2026-01-02 01:39:45.10	225.91	2.34	-55.3	-69.0	3.8	1.49e+00	0	33	104	11534336	76	17744
2026-01-02 01:39:49.09	225.84	2.09	-55.3	-69.0	3.8	1.49e+00	0	33	104	11534336	76	17801

#Closed at: 2026-01-02 01:39:50
#Recorded file [11 MB]: D:/lorett/data/31004_260102_042533.dat