passes_logs/2026/01/02/R3.2S_Murmansk/R3.2S_Murmansk__20260102_062355_NOAA_21_JPSS-2_rec.log

#Pass ID: 20260102_062355_NOAA 21 (JPSS-2)
#Satellite: NOAA 21 (JPSS-2)
#Configuration: NOAA-21
#almurnet v.1.7.20251203
#Start time: 2026-01-02 06:23:56

#Version: 2.2.20231116
#Station: R3.2S_Murmansk
#Location: 33.079688 lon 68.888172 lat
#TLE: 1 54234U 22150A   26001.12709759  .00000171  00000+0  10204-3 0  9995
#TLE: 2 54234  98.7484 302.1957 0001286 353.9379   6.1781 14.19530519162845

#Time	Az	El	Level	Level2	SNR	BER	BlckErr	Temp	State	Recorded	gain1	gain2
2026-01-02 06:23:56.62	83.09	2.09	-54.8	-68.5	3.8	1.49e+00	0	31	0	0	74	18940
2026-01-02 06:23:59.60	82.92	2.27	-54.8	-68.6	3.8	1.49e+00	0	31	104	0	74	18997
2026-01-02 06:24:02.60	82.74	2.44	-54.9	-68.6	3.8	1.49e+00	0	31	104	0	74	18958
2026-01-02 06:24:05.59	82.56	2.62	-54.9	-68.6	3.8	1.49e+00	0	31	104	0	74	19009
2026-01-02 06:24:08.59	82.38	2.80	-54.9	-68.6	3.8	1.49e+00	0	31	104	0	74	19015
2026-01-02 06:24:11.59	82.19	2.98	-54.9	-68.6	3.8	1.49e+00	0	31	104	0	74	19023
2026-01-02 06:24:14.59	82.01	3.15	-54.9	-68.6	3.8	1.49e+00	0	31	104	0	74	19049
2026-01-02 06:24:17.59	81.82	3.34	-54.9	-68.6	3.8	1.49e+00	0	31	104	0	74	19037
2026-01-02 06:24:20.58	81.63	3.52	-54.9	-68.6	3.8	1.49e+00	0	31	104	0	74	18988
2026-01-02 06:24:23.59	81.43	3.70	-54.9	-68.6	3.8	1.49e+00	0	31	104	0	74	19035
2026-01-02 06:24:26.60	81.23	3.88	-54.9	-68.6	3.8	1.49e+00	0	31	104	0	74	19081
2026-01-02 06:24:29.59	81.04	4.06	-54.9	-68.6	3.8	1.49e+00	0	31	104	0	74	19063
2026-01-02 06:24:32.59	80.83	4.25	-54.9	-68.6	3.8	1.49e+00	0	31	104	0	74	19032
2026-01-02 06:24:35.58	80.63	4.43	-54.9	-68.6	3.8	1.49e+00	0	31	104	0	74	19070
2026-01-02 06:24:38.58	80.42	4.62	-54.9	-68.6	3.8	1.49e+00	0	31	104	0	74	19061
2026-01-02 06:24:41.59	80.21	4.81	-54.9	-68.6	3.8	1.49e+00	0	31	104	0	74	19079
2026-01-02 06:24:44.59	80.00	5.00	-54.9	-68.6	3.8	1.49e+00	0	32	104	0	74	19031
2026-01-02 06:24:47.58	79.78	5.19	-54.9	-68.6	3.8	1.49e+00	0	31	104	0	74	19066
2026-01-02 06:24:50.57	79.57	5.37	-54.9	-68.6	3.8	1.49e+00	0	31	104	0	74	19085
2026-01-02 06:24:53.56	79.34	5.57	-54.9	-68.6	3.8	1.49e+00	0	32	104	0	74	19060
2026-01-02 06:24:56.55	79.12	5.76	-54.9	-68.6	3.8	1.49e+00	0	32	104	0	74	19059
2026-01-02 06:24:59.54	78.89	5.95	-54.9	-68.6	3.8	1.49e+00	0	32	104	0	74	19046
2026-01-02 06:25:02.54	78.66	6.14	-54.9	-68.6	3.8	1.49e+00	0	32	104	0	74	19088
2026-01-02 06:25:05.54	78.43	6.34	-54.9	-68.6	3.8	1.49e+00	0	32	104	0	74	19120
2026-01-02 06:25:08.52	78.19	6.53	-54.9	-68.6	3.8	1.49e+00	0	32	104	0	74	19007
2026-01-02 06:25:11.53	77.95	6.73	-54.9	-68.6	3.8	1.49e+00	0	32	104	0	74	19105
2026-01-02 06:25:14.52	77.71	6.93	-54.9	-68.6	3.8	1.49e+00	0	32	104	0	74	19118
2026-01-02 06:25:17.52	77.46	7.13	-54.9	-68.6	3.8	1.49e+00	0	32	104	0	74	19100
2026-01-02 06:25:20.52	77.21	7.33	-54.9	-68.6	3.8	1.49e+00	0	32	104	0	75	18001
2026-01-02 06:25:23.51	76.95	7.53	-54.9	-68.6	3.8	1.49e+00	0	32	104	0	75	18023
2026-01-02 06:25:26.50	76.69	7.73	-54.9	-68.6	3.8	1.49e+00	0	32	104	0	75	18086
2026-01-02 06:25:29.51	76.43	7.93	-54.9	-68.6	3.8	1.49e+00	0	32	104	0	75	18020
2026-01-02 06:25:32.49	76.17	8.14	-54.9	-68.6	3.8	1.49e+00	0	32	104	0	75	18070
2026-01-02 06:25:35.50	75.90	8.34	-54.9	-68.6	3.8	1.49e+00	0	32	104	0	75	18090
2026-01-02 06:25:38.50	75.62	8.55	-54.9	-68.6	3.8	1.49e+00	0	32	104	0	75	18050
2026-01-02 06:25:41.49	75.34	8.76	-54.9	-68.6	3.8	1.49e+00	0	32	104	0	75	18038
2026-01-02 06:25:44.47	75.06	8.96	-54.9	-68.6	3.8	1.49e+00	0	32	104	0	75	18059
2026-01-02 06:25:47.48	74.78	9.17	-54.9	-68.6	3.8	1.49e+00	0	32	104	0	75	18068
2026-01-02 06:25:50.47	74.49	9.38	-54.9	-68.6	3.8	1.49e+00	0	32	104	0	75	18049
2026-01-02 06:25:53.47	74.19	9.60	-54.9	-68.6	3.8	1.49e+00	0	32	104	0	75	18045
2026-01-02 06:25:56.45	73.89	9.81	-54.9	-68.6	3.8	1.49e+00	0	32	104	0	75	18018
2026-01-02 06:25:59.43	73.59	10.02	-54.9	-68.6	3.8	1.49e+00	0	32	104	0	75	18002
2026-01-02 06:26:02.43	73.28	10.23	-54.9	-68.6	3.8	1.49e+00	0	32	104	0	75	18038
2026-01-02 06:26:05.42	72.97	10.45	-54.9	-68.6	3.8	1.49e+00	0	32	104	0	75	17963
2026-01-02 06:26:08.41	72.65	10.66	-54.9	-68.6	3.8	1.49e+00	0	32	104	0	75	18017
2026-01-02 06:26:11.40	72.33	10.88	-54.9	-68.6	3.8	1.49e+00	0	32	104	0	75	18045
2026-01-02 06:26:14.39	72.01	11.10	-54.9	-68.6	3.8	1.49e+00	0	32	104	0	75	18027
2026-01-02 06:26:17.39	71.67	11.32	-54.9	-68.6	3.8	1.49e+00	0	32	104	0	75	17951
2026-01-02 06:26:20.39	71.33	11.54	-54.9	-68.6	3.8	1.49e+00	0	32	104	0	75	17969
2026-01-02 06:26:23.38	70.99	11.76	-54.9	-68.6	3.8	1.49e+00	0	32	104	0	75	17976
2026-01-02 06:26:26.39	70.64	11.99	-54.9	-68.6	3.8	1.49e+00	0	32	104	0	75	17992
2026-01-02 06:26:29.38	70.29	12.21	-54.9	-68.6	3.8	1.49e+00	0	32	104	0	75	18020
2026-01-02 06:26:32.37	69.93	12.43	-54.9	-68.6	3.8	1.49e+00	0	32	104	0	75	18059
2026-01-02 06:26:35.36	69.57	12.66	-54.9	-68.6	3.8	1.49e+00	0	32	104	0	75	18063
2026-01-02 06:26:38.36	69.20	12.88	-54.9	-68.6	3.8	1.49e+00	0	32	104	0	75	18080
2026-01-02 06:26:41.36	68.82	13.11	-54.9	-68.6	3.8	1.49e+00	0	32	104	0	75	18015
2026-01-02 06:26:44.36	68.43	13.34	-54.9	-68.7	3.8	1.49e+00	0	32	104	0	75	18108
2026-01-02 06:26:47.35	68.05	13.57	-54.9	-68.6	3.8	1.49e+00	0	32	104	0	75	18051
2026-01-02 06:26:50.36	67.65	13.80	-54.9	-68.6	3.8	1.49e+00	0	32	104	0	75	17909
2026-01-02 06:26:53.34	67.25	14.03	-54.9	-68.6	3.8	1.49e+00	0	32	104	0	75	17927
2026-01-02 06:26:56.34	66.84	14.26	-54.9	-68.6	3.8	1.49e+00	0	32	104	0	75	17964
2026-01-02 06:26:59.33	66.43	14.49	-54.9	-68.6	3.8	1.49e+00	0	32	104	0	75	18051
2026-01-02 06:27:02.32	66.01	14.72	-54.9	-68.7	3.8	1.49e+00	0	32	104	0	75	18102
2026-01-02 06:27:05.31	65.58	14.96	-54.9	-68.6	3.8	1.49e+00	0	32	104	0	75	18047
2026-01-02 06:27:08.31	65.15	15.19	-54.9	-68.6	3.8	1.49e+00	0	32	104	0	75	18069
2026-01-02 06:27:11.30	64.71	15.42	-54.9	-68.6	3.8	1.49e+00	0	32	104	0	75	18044
2026-01-02 06:27:14.31	64.26	15.66	-54.9	-68.6	3.8	1.49e+00	0	33	104	0	75	17985
2026-01-02 06:27:17.32	63.80	15.90	-54.9	-68.6	3.8	1.49e+00	0	32	104	0	75	18035
2026-01-02 06:27:20.32	63.34	16.13	-54.9	-68.6	3.8	1.49e+00	0	32	104	0	75	18004
2026-01-02 06:27:23.31	62.87	16.37	-54.9	-68.6	3.8	1.49e+00	0	32	104	0	75	18006
2026-01-02 06:27:26.31	62.39	16.60	-54.9	-68.6	3.8	1.49e+00	0	32	104	0	75	18016
2026-01-02 06:27:29.31	61.90	16.84	-54.9	-68.6	3.8	1.49e+00	0	32	104	0	75	18093
2026-01-02 06:27:32.30	61.41	17.08	-54.9	-68.7	3.8	1.49e+00	0	32	104	0	75	18109
2026-01-02 06:27:35.29	60.91	17.31	-54.9	-68.6	3.8	1.49e+00	0	32	104	0	75	18049
2026-01-02 06:27:38.28	60.40	17.55	-54.9	-68.6	3.8	1.49e+00	0	32	104	0	75	17955
2026-01-02 06:27:41.27	59.88	17.79	-54.9	-68.6	3.8	1.49e+00	0	32	104	0	75	18026
2026-01-02 06:27:44.27	59.36	18.02	-54.9	-68.6	3.8	1.49e+00	0	32	104	0	75	18019
2026-01-02 06:27:47.28	58.82	18.26	-54.9	-68.6	3.8	1.49e+00	0	32	104	0	75	18094
2026-01-02 06:27:50.28	58.28	18.49	-54.9	-68.6	3.8	1.49e+00	0	32	104	0	75	18084
2026-01-02 06:27:53.28	57.72	18.73	-54.9	-68.6	3.9	1.49e+00	0	32	104	0	75	18039
2026-01-02 06:27:56.26	57.17	18.96	-54.9	-68.6	3.8	1.49e+00	0	32	104	0	75	17983
2026-01-02 06:27:59.25	56.60	19.20	-54.9	-68.5	3.8	1.49e+00	0	32	104	0	75	17808
2026-01-02 06:28:02.23	56.02	19.43	-54.9	-68.5	3.8	1.49e+00	0	32	104	0	75	17850
2026-01-02 06:28:05.22	55.44	19.66	-54.9	-68.6	3.8	1.49e+00	0	32	104	0	75	17970
2026-01-02 06:28:08.22	54.84	19.89	-54.9	-68.7	3.8	1.49e+00	0	33	104	0	75	18166
2026-01-02 06:28:11.22	54.24	20.12	-54.9	-68.6	3.8	1.49e+00	0	33	104	0	75	18055
2026-01-02 06:28:14.22	53.62	20.35	-54.9	-68.6	3.8	1.49e+00	0	32	104	0	75	17986
2026-01-02 06:28:17.22	53.00	20.58	-54.9	-68.6	3.8	1.49e+00	0	33	104	0	75	17998
2026-01-02 06:28:20.22	52.37	20.80	-54.9	-68.7	3.8	1.49e+00	0	32	104	0	75	18154
2026-01-02 06:28:23.22	51.72	21.03	-54.9	-68.6	3.8	1.49e+00	0	32	104	0	75	17989
2026-01-02 06:28:26.21	51.07	21.25	-54.9	-68.6	3.8	1.49e+00	0	32	104	0	75	18052
2026-01-02 06:28:29.20	50.41	21.47	-54.9	-68.6	3.8	1.49e+00	0	32	104	0	75	18036
2026-01-02 06:28:32.20	49.74	21.68	-54.9	-68.7	3.8	1.49e+00	0	32	104	0	75	18097
2026-01-02 06:28:35.19	49.06	21.90	-54.9	-68.6	3.8	1.49e+00	0	32	104	0	75	18016
2026-01-02 06:28:38.18	48.38	22.11	-54.9	-68.6	3.8	1.49e+00	0	32	104	0	75	18010
2026-01-02 06:28:41.18	47.68	22.32	-54.9	-68.6	3.8	1.49e+00	0	33	104	0	75	18041
2026-01-02 06:28:44.17	46.97	22.52	-54.9	-68.6	3.8	1.49e+00	0	32	104	0	75	18059
2026-01-02 06:28:47.17	46.25	22.73	-54.9	-68.7	3.8	1.49e+00	0	33	104	0	75	18100
2026-01-02 06:28:50.17	45.52	22.93	-55.0	-68.7	3.8	1.49e+00	0	33	104	0	75	18114
2026-01-02 06:28:53.15	44.79	23.12	-54.9	-68.6	3.8	1.49e+00	0	32	104	0	75	18074
2026-01-02 06:28:56.14	44.05	23.32	-54.9	-68.6	3.8	1.49e+00	0	32	104	0	75	18085
2026-01-02 06:28:59.12	43.30	23.50	-54.9	-68.7	3.8	1.49e+00	0	33	104	0	75	18115
2026-01-02 06:29:02.09	42.54	23.69	-54.9	-68.7	3.8	1.49e+00	0	32	104	0	75	18101
2026-01-02 06:29:05.08	41.77	23.87	-54.9	-68.7	3.8	1.49e+00	0	33	104	0	75	18132
2026-01-02 06:29:08.07	40.99	24.04	-54.9	-68.7	3.8	1.49e+00	0	32	104	0	75	18148
2026-01-02 06:29:11.06	40.20	24.21	-54.9	-68.6	3.8	1.49e+00	0	32	104	0	75	18074
2026-01-02 06:29:14.06	39.40	24.38	-54.9	-68.7	3.8	1.49e+00	0	33	104	0	75	18119
2026-01-02 06:29:17.06	38.59	24.54	-54.9	-68.7	3.8	1.49e+00	0	32	104	0	75	18132
2026-01-02 06:29:20.05	37.78	24.70	-54.9	-68.7	3.8	1.49e+00	0	33	104	0	75	18153
2026-01-02 06:29:23.05	36.95	24.85	-54.9	-68.6	3.8	1.49e+00	0	33	104	0	75	18066
2026-01-02 06:29:26.04	36.12	24.99	-54.9	-68.6	3.8	1.49e+00	0	33	104	0	75	18065
2026-01-02 06:29:29.04	35.28	25.13	-54.9	-68.6	3.8	1.49e+00	0	32	104	0	75	18076
2026-01-02 06:29:32.01	34.44	25.26	-54.9	-68.6	3.8	1.49e+00	0	32	104	0	75	18091
2026-01-02 06:29:35.01	33.59	25.39	-54.9	-68.6	3.8	1.49e+00	0	32	104	0	75	18050
2026-01-02 06:29:38.00	32.73	25.51	-54.9	-68.7	3.8	1.49e+00	0	32	104	0	75	18149
2026-01-02 06:29:40.99	31.87	25.62	-54.9	-68.6	3.8	1.49e+00	0	32	104	0	75	18086
2026-01-02 06:29:43.95	31.01	25.73	-54.9	-68.7	3.9	1.49e+00	0	32	104	0	75	18105
2026-01-02 06:29:46.92	30.14	25.83	-54.9	-68.7	3.8	1.49e+00	0	33	104	0	75	18102
2026-01-02 06:29:49.89	29.26	25.92	-54.9	-68.7	3.8	1.49e+00	0	33	104	0	75	18100
2026-01-02 06:29:52.86	28.38	26.00	-54.9	-68.7	3.8	1.49e+00	0	33	104	0	75	18097
2026-01-02 06:29:55.82	27.50	26.08	-54.9	-68.6	3.8	1.49e+00	0	33	104	0	75	18079
2026-01-02 06:29:58.79	26.61	26.15	-54.9	-68.7	3.8	1.49e+00	0	32	104	0	75	18101
2026-01-02 06:30:01.76	25.72	26.21	-54.9	-68.7	3.8	1.49e+00	0	32	104	0	75	18099
2026-01-02 06:30:04.76	24.81	26.27	-54.9	-68.6	3.8	1.49e+00	0	33	104	0	75	18082
2026-01-02 06:30:07.77	23.90	26.32	-54.9	-68.7	3.8	1.49e+00	0	33	104	0	75	18096
2026-01-02 06:30:10.76	22.99	26.36	-54.9	-68.6	3.8	1.49e+00	0	33	104	0	75	18087
2026-01-02 06:30:13.75	22.08	26.39	-54.9	-68.6	3.8	1.49e+00	0	32	104	0	75	18064
2026-01-02 06:30:16.73	21.17	26.41	-54.9	-68.7	3.8	1.49e+00	0	32	104	0	75	18109
2026-01-02 06:30:19.73	20.26	26.43	-54.9	-68.7	3.8	1.49e+00	0	33	104	0	75	18125
2026-01-02 06:30:22.73	19.34	26.44	-55.0	-68.6	3.8	1.49e+00	0	33	104	0	75	18069
2026-01-02 06:30:25.73	18.43	26.44	-55.0	-68.7	3.8	1.49e+00	0	33	104	0	75	18108
2026-01-02 06:30:28.73	17.51	26.43	-54.9	-68.7	3.8	1.49e+00	0	32	104	0	75	18118
2026-01-02 06:30:31.73	16.60	26.41	-54.9	-68.6	3.8	1.49e+00	0	32	104	0	75	18084
2026-01-02 06:30:34.71	15.69	26.39	-54.9	-68.7	3.8	1.49e+00	0	33	104	0	75	18103
2026-01-02 06:30:37.70	14.78	26.36	-54.9	-68.7	3.8	1.49e+00	0	32	104	0	75	18112
2026-01-02 06:30:40.69	13.87	26.32	-54.9	-68.7	3.8	1.49e+00	0	32	104	0	75	18135
2026-01-02 06:30:43.69	12.96	26.27	-54.9	-68.7	3.8	1.49e+00	0	33	104	0	75	18117
2026-01-02 06:30:46.70	12.05	26.21	-54.8	-68.6	3.8	1.49e+00	0	32	104	0	75	18095
2026-01-02 06:30:49.70	11.15	26.15	-55.0	-68.7	3.8	1.49e+00	0	33	104	0	75	18122
2026-01-02 06:30:52.69	10.26	26.08	-55.0	-68.6	3.8	1.49e+00	0	33	104	0	75	18082
2026-01-02 06:30:55.69	9.37	26.00	-54.9	-68.7	3.8	1.49e+00	0	32	104	0	75	18198
2026-01-02 06:30:58.68	8.48	25.91	-54.9	-68.7	3.8	1.49e+00	0	32	104	0	75	18100
2026-01-02 06:31:01.66	7.60	25.82	-54.9	-68.7	3.8	1.49e+00	0	33	104	0	75	18168
2026-01-02 06:31:04.66	6.72	25.72	-55.0	-68.7	3.8	1.49e+00	0	33	104	0	75	18127
2026-01-02 06:31:07.64	5.86	25.61	-54.9	-68.6	3.8	1.49e+00	0	33	104	0	75	18095
2026-01-02 06:31:10.64	4.99	25.50	-54.9	-68.7	3.8	1.49e+00	0	33	104	0	75	18124
2026-01-02 06:31:13.63	4.13	25.38	-54.9	-68.7	3.8	1.49e+00	0	33	104	0	75	18157
2026-01-02 06:31:16.64	3.28	25.25	-55.0	-68.6	3.8	1.49e+00	0	32	104	0	75	18090
2026-01-02 06:31:19.63	2.44	25.12	-54.9	-68.7	3.8	1.49e+00	0	33	104	0	75	18115
2026-01-02 06:31:22.62	1.60	24.98	-55.0	-68.7	3.8	1.49e+00	0	33	104	0	75	18108
2026-01-02 06:31:25.62	0.77	24.84	-55.0	-68.7	3.8	1.49e+00	0	33	104	0	75	18127
2026-01-02 06:31:28.62	359.95	24.68	-55.0	-68.7	3.8	1.49e+00	0	32	104	0	75	18103
2026-01-02 06:31:31.62	359.13	24.53	-54.9	-68.7	3.8	1.49e+00	0	32	104	0	75	18117
2026-01-02 06:31:34.61	358.33	24.37	-55.0	-68.7	3.8	1.49e+00	0	33	104	0	75	18109
2026-01-02 06:31:37.61	357.53	24.20	-54.9	-68.7	3.8	1.49e+00	0	33	104	0	75	18114
2026-01-02 06:31:40.60	356.74	24.03	-54.9	-68.6	3.8	1.49e+00	0	32	104	0	75	18085
2026-01-02 06:31:43.61	355.96	23.85	-55.0	-68.7	3.9	1.49e+00	0	33	104	0	75	18170
2026-01-02 06:31:46.61	355.19	23.67	-55.0	-68.7	3.8	1.49e+00	0	32	104	0	75	18152
2026-01-02 06:31:49.61	354.42	23.49	-55.0	-68.7	3.8	1.49e+00	0	32	104	0	75	18154
2026-01-02 06:31:52.61	353.67	23.30	-54.9	-68.7	3.8	1.49e+00	0	33	104	0	75	18120
2026-01-02 06:31:55.61	352.93	23.10	-55.0	-68.7	3.8	1.49e+00	0	33	104	0	75	18122
2026-01-02 06:31:58.61	352.19	22.91	-55.0	-68.7	3.8	1.49e+00	0	33	104	0	75	18168
2026-01-02 06:32:01.60	351.47	22.71	-55.0	-68.6	3.8	1.49e+00	0	33	104	0	75	18092
2026-01-02 06:32:04.60	350.75	22.50	-54.9	-68.7	3.8	1.49e+00	0	33	104	0	75	18124
2026-01-02 06:32:07.59	350.05	22.30	-54.9	-68.7	3.8	1.49e+00	0	33	104	0	75	18129
2026-01-02 06:32:10.58	349.35	22.09	-55.0	-68.7	3.8	1.49e+00	0	33	104	0	75	18142
2026-01-02 06:32:13.58	348.66	21.88	-55.0	-68.6	3.8	1.49e+00	0	33	104	0	75	18092
2026-01-02 06:32:16.57	347.99	21.66	-55.0	-68.7	3.8	1.49e+00	0	33	104	0	75	18133
2026-01-02 06:32:19.57	347.32	21.44	-55.0	-68.7	3.8	1.49e+00	0	33	104	0	75	18127
2026-01-02 06:32:22.56	346.66	21.23	-55.0	-68.7	3.8	1.49e+00	0	32	104	0	75	18129
2026-01-02 06:32:25.56	346.01	21.00	-55.0	-68.7	3.8	1.49e+00	0	33	104	0	75	18183
2026-01-02 06:32:28.55	345.37	20.78	-55.0	-68.7	3.8	1.49e+00	0	33	104	0	75	18135
2026-01-02 06:32:31.55	344.74	20.56	-55.0	-68.7	3.8	1.49e+00	0	32	104	0	75	18140
2026-01-02 06:32:34.55	344.12	20.33	-55.0	-68.7	3.8	1.49e+00	0	33	104	0	75	18183
2026-01-02 06:32:37.53	343.51	20.10	-55.0	-68.7	3.8	1.49e+00	0	33	104	0	75	18152
2026-01-02 06:32:40.53	342.91	19.87	-55.0	-68.7	3.8	1.49e+00	0	33	104	0	75	18210
2026-01-02 06:32:43.52	342.32	19.64	-55.0	-68.6	3.8	1.49e+00	0	33	104	0	75	18089
2026-01-02 06:32:46.51	341.74	19.41	-55.0	-68.7	3.8	1.49e+00	0	33	104	0	75	18188
2026-01-02 06:32:49.51	341.16	19.18	-55.0	-68.7	3.8	1.49e+00	0	33	104	0	75	18140
2026-01-02 06:32:52.52	340.59	18.94	-55.0	-68.6	3.8	1.49e+00	0	33	104	0	75	18083
2026-01-02 06:32:55.52	340.03	18.71	-55.0	-68.7	3.8	1.49e+00	0	33	104	0	75	18152
2026-01-02 06:32:58.51	339.48	18.48	-55.0	-68.7	3.8	1.49e+00	0	33	104	0	75	18160
2026-01-02 06:33:01.50	338.94	18.24	-55.0	-68.7	3.8	1.49e+00	0	33	104	0	75	18150
2026-01-02 06:33:04.49	338.41	18.01	-55.0	-68.7	3.8	1.49e+00	0	33	104	0	75	18139
2026-01-02 06:33:07.49	337.89	17.77	-55.0	-68.7	3.9	1.49e+00	0	33	104	0	75	18114
2026-01-02 06:33:10.48	337.37	17.53	-55.0	-68.7	3.8	1.49e+00	0	33	104	0	75	18180
2026-01-02 06:33:13.47	336.87	17.30	-55.0	-68.7	3.8	1.49e+00	0	32	104	0	75	18163
2026-01-02 06:33:16.48	336.37	17.06	-55.0	-68.7	3.8	1.49e+00	0	33	104	0	75	18159
2026-01-02 06:33:19.47	335.88	16.83	-55.0	-68.7	3.8	1.49e+00	0	33	104	0	75	18175
2026-01-02 06:33:22.47	335.39	16.59	-55.0	-68.7	3.8	1.49e+00	0	33	104	0	75	18189
2026-01-02 06:33:25.47	334.91	16.35	-55.0	-68.7	3.8	1.49e+00	0	33	104	0	75	18178
2026-01-02 06:33:28.46	334.45	16.12	-55.0	-68.7	3.8	1.49e+00	0	33	104	0	75	18120
2026-01-02 06:33:31.46	333.98	15.88	-55.0	-68.7	3.8	1.49e+00	0	33	104	0	75	18197
2026-01-02 06:33:34.45	333.53	15.65	-55.0	-68.7	3.8	1.49e+00	0	33	104	0	75	18215
2026-01-02 06:33:37.46	333.08	15.41	-55.0	-68.7	3.8	1.49e+00	0	33	104	0	75	18192
2026-01-02 06:33:40.45	332.64	15.18	-55.0	-68.7	3.8	1.49e+00	0	33	104	0	75	18147
2026-01-02 06:33:43.45	332.21	14.95	-55.0	-68.7	3.8	1.49e+00	0	33	104	0	75	18198
2026-01-02 06:33:46.46	331.78	14.71	-55.0	-68.7	3.8	1.49e+00	0	33	104	0	75	18143
2026-01-02 06:33:49.47	331.36	14.48	-55.0	-68.7	3.8	1.49e+00	0	33	104	0	75	18207
2026-01-02 06:33:52.48	330.95	14.25	-55.0	-68.7	3.8	1.49e+00	0	33	104	0	75	18143
2026-01-02 06:33:55.47	330.54	14.02	-55.0	-68.7	3.8	1.49e+00	0	33	104	0	75	18169
2026-01-02 06:33:58.46	330.15	13.79	-55.0	-68.7	3.8	1.49e+00	0	33	104	0	75	18191
2026-01-02 06:34:01.46	329.75	13.56	-55.0	-68.7	3.8	1.49e+00	0	33	104	0	75	18218
2026-01-02 06:34:04.45	329.37	13.33	-55.0	-68.7	3.8	1.49e+00	0	33	104	0	75	18216
2026-01-02 06:34:07.43	328.99	13.10	-55.0	-68.7	3.8	1.49e+00	0	33	104	0	75	18167
2026-01-02 06:34:10.43	328.61	12.88	-55.0	-68.7	3.8	1.49e+00	0	33	104	0	75	18161
2026-01-02 06:34:13.41	328.25	12.65	-55.0	-68.7	3.8	1.49e+00	0	33	104	0	75	18180
2026-01-02 06:34:16.41	327.88	12.43	-55.0	-68.7	3.8	1.49e+00	0	33	104	0	75	18170
2026-01-02 06:34:19.40	327.52	12.20	-55.0	-68.7	3.8	1.49e+00	0	33	104	0	75	18144
2026-01-02 06:34:22.41	327.17	11.98	-55.0	-68.7	3.8	1.49e+00	0	33	104	0	75	18202
2026-01-02 06:34:25.42	326.82	11.76	-55.0	-68.7	3.8	1.49e+00	0	33	104	0	75	18141
2026-01-02 06:34:28.42	326.48	11.53	-55.0	-68.7	3.8	1.49e+00	0	33	104	0	75	18243
2026-01-02 06:34:31.41	326.15	11.32	-55.0	-68.7	3.8	1.49e+00	0	33	104	0	75	18184
2026-01-02 06:34:34.42	325.81	11.10	-55.0	-68.7	3.8	1.49e+00	0	33	104	0	75	18162
2026-01-02 06:34:37.42	325.49	10.88	-55.0	-68.7	3.8	1.49e+00	0	33	104	0	75	18181
2026-01-02 06:34:40.42	325.17	10.66	-55.0	-68.7	3.8	1.49e+00	0	33	104	0	75	18255
2026-01-02 06:34:43.42	324.85	10.44	-55.0	-68.7	3.8	1.49e+00	0	33	104	0	75	18173
2026-01-02 06:34:46.42	324.54	10.23	-55.0	-68.7	3.8	1.49e+00	0	33	104	0	75	18203
2026-01-02 06:34:49.42	324.23	10.01	-55.0	-68.7	3.8	1.49e+00	0	33	104	0	75	18212
2026-01-02 06:34:52.41	323.93	9.80	-55.0	-68.7	3.8	1.49e+00	0	33	104	0	75	18184
2026-01-02 06:34:55.40	323.63	9.59	-55.0	-68.7	3.8	1.49e+00	0	33	104	0	75	18172
2026-01-02 06:34:58.40	323.34	9.38	-55.0	-68.7	3.8	1.49e+00	0	33	104	0	75	18148
2026-01-02 06:35:01.37	323.05	9.17	-55.0	-68.7	3.8	1.49e+00	0	33	104	0	75	18188
2026-01-02 06:35:04.35	322.77	8.96	-55.0	-68.7	3.8	1.49e+00	0	33	104	0	75	18190
2026-01-02 06:35:07.33	322.49	8.76	-55.0	-68.7	3.8	1.49e+00	0	33	104	0	75	18156
2026-01-02 06:35:10.32	322.22	8.55	-55.0	-68.7	3.8	1.49e+00	0	33	104	0	75	18234
2026-01-02 06:35:13.31	321.94	8.34	-55.0	-68.7	3.8	1.49e+00	0	33	104	0	75	18210
2026-01-02 06:35:16.31	321.68	8.14	-55.0	-68.7	3.8	1.49e+00	0	33	104	0	75	18203
2026-01-02 06:35:19.30	321.41	7.94	-55.0	-68.7	3.8	1.49e+00	0	33	104	0	75	18223
2026-01-02 06:35:22.30	321.15	7.73	-55.0	-68.7	3.8	1.49e+00	0	33	104	0	75	18183
2026-01-02 06:35:25.30	320.89	7.53	-55.0	-68.7	3.8	1.49e+00	0	33	104	0	75	18231
2026-01-02 06:35:28.31	320.64	7.33	-55.0	-68.7	3.8	1.49e+00	0	33	104	0	75	18185
2026-01-02 06:35:31.31	320.39	7.13	-55.0	-68.7	3.8	1.49e+00	0	33	104	0	75	18191
2026-01-02 06:35:34.30	320.14	6.93	-55.0	-68.7	3.8	1.49e+00	0	33	104	0	75	18133
2026-01-02 06:35:37.29	319.90	6.74	-55.0	-68.7	3.8	1.49e+00	0	33	104	0	75	18190
2026-01-02 06:35:40.29	319.66	6.54	-55.0	-68.7	3.8	1.49e+00	0	33	104	0	75	18216
2026-01-02 06:35:43.28	319.43	6.34	-55.0	-68.7	3.8	1.49e+00	0	33	104	0	75	18159
2026-01-02 06:35:46.27	319.19	6.15	-55.0	-68.7	3.8	1.49e+00	0	33	104	0	75	18212
2026-01-02 06:35:49.27	318.96	5.96	-55.0	-68.7	3.8	1.49e+00	0	33	104	0	75	18257
2026-01-02 06:35:52.28	318.74	5.76	-55.0	-68.7	3.8	1.49e+00	0	33	104	0	75	18248
2026-01-02 06:35:55.28	318.51	5.57	-55.0	-68.7	3.8	1.49e+00	0	33	104	0	75	18281
2026-01-02 06:35:58.28	318.29	5.38	-55.0	-68.7	3.8	1.49e+00	0	33	104	0	75	18244
2026-01-02 06:36:01.28	318.08	5.19	-55.0	-68.7	3.8	1.49e+00	0	33	104	0	75	18170
2026-01-02 06:36:04.27	317.86	5.00	-55.0	-68.7	3.8	1.49e+00	0	33	104	0	75	18147
2026-01-02 06:36:07.27	317.65	4.81	-55.0	-68.7	3.8	1.49e+00	0	33	104	0	75	18175
2026-01-02 06:36:10.25	317.44	4.63	-55.0	-68.7	3.8	1.49e+00	0	33	104	0	75	18240
2026-01-02 06:36:13.25	317.24	4.44	-55.0	-68.7	3.8	1.49e+00	0	33	104	0	75	18200
2026-01-02 06:36:16.25	317.03	4.26	-55.0	-68.7	3.8	1.49e+00	0	33	104	0	75	18179
2026-01-02 06:36:19.23	316.84	4.07	-55.0	-68.7	3.8	1.49e+00	0	33	104	0	75	18230
2026-01-02 06:36:22.24	316.64	3.89	-55.0	-68.7	3.8	1.49e+00	0	33	104	0	75	18198
2026-01-02 06:36:25.21	316.44	3.71	-55.0	-68.7	3.8	1.49e+00	0	33	104	0	75	18178
2026-01-02 06:36:28.21	316.25	3.53	-55.0	-68.7	3.8	1.49e+00	0	33	104	0	75	18204
2026-01-02 06:36:31.21	316.06	3.35	-55.0	-68.7	3.8	1.49e+00	0	33	104	0	75	18211
2026-01-02 06:36:34.20	315.87	3.17	-55.0	-68.7	3.8	1.49e+00	0	33	104	0	75	18211
2026-01-02 06:36:37.19	315.69	2.99	-55.0	-68.7	3.8	1.49e+00	0	33	104	0	75	18216
2026-01-02 06:36:40.20	315.50	2.81	-55.0	-68.7	3.8	1.49e+00	0	33	104	0	75	18231
2026-01-02 06:36:43.20	315.32	2.63	-55.0	-68.7	3.8	1.49e+00	0	33	104	0	75	18249
2026-01-02 06:36:46.17	315.15	2.46	-55.0	-68.7	3.8	1.49e+00	0	33	104	0	75	18203
2026-01-02 06:36:49.16	314.97	2.28	-55.0	-68.7	3.8	1.49e+00	0	33	104	0	75	18249
2026-01-02 06:36:52.16	314.80	2.11	-55.0	-68.7	3.8	1.49e+00	0	33	104	0	75	18211
2026-01-02 06:36:55.16	314.63	1.94	-55.0	-68.7	3.8	1.49e+00	0	33	104	0	75	18235

#Closed at: 2026-01-02 06:36:56
#Recorded file [0 MB]: D:/lorett/data/31004_260102_092356.dat