passes_logs/2026/01/02/R3.2S_Murmansk/R3.2S_Murmansk__20260102_143702_FENGYUN_3D_rec.log

#Pass ID: 20260102_143702_FENGYUN 3D
#Satellite: FENGYUN 3D
#Configuration: FENGYUN 3D
#almurnet v.1.7.20251203
#Start time: 2026-01-02 14:37:02

#Version: 2.2.20231116
#Station: R3.2S_Murmansk
#Location: 33.079688 lon 68.888172 lat
#TLE: 1 43010U 17072A   26001.19005061  .00000535  00000+0  27473-3 0  9994
#TLE: 2 43010  98.9910 332.7942 0001852 133.6060 226.5269 14.19691635421296

#Time	Az	El	Level	Level2	SNR	BER	BlckErr	Temp	State	Recorded	gain1	gain2
2026-01-02 14:37:02.29	231.06	1.98	-60.2	-72.8	3.8	8.45e-01	0	30	0	0	87	14612
2026-01-02 14:37:05.26	231.32	2.12	-60.2	-72.7	3.8	8.46e-01	0	30	104	0	85	16185
2026-01-02 14:37:08.26	231.59	2.27	-60.2	-72.8	3.8	8.45e-01	0	30	104	0	85	16350
2026-01-02 14:37:11.25	231.87	2.41	-60.2	-72.8	3.8	8.46e-01	0	30	104	0	85	16322
2026-01-02 14:37:14.24	232.14	2.56	-60.2	-72.8	3.8	8.45e-01	0	30	104	0	85	16393
2026-01-02 14:37:17.25	232.42	2.71	-60.2	-72.7	3.8	8.46e-01	0	30	104	0	85	16226
2026-01-02 14:37:20.25	232.70	2.86	-60.2	-72.6	3.8	8.46e-01	0	30	104	0	85	16063
2026-01-02 14:37:23.24	232.99	3.00	-60.2	-72.7	3.8	8.46e-01	0	31	104	0	85	16168
2026-01-02 14:37:26.24	233.27	3.15	-60.2	-72.7	3.8	8.46e-01	0	31	104	0	85	16310
2026-01-02 14:37:29.23	233.56	3.30	-60.2	-72.8	3.8	8.45e-01	0	31	104	0	85	16412
2026-01-02 14:37:32.22	233.85	3.45	-60.2	-72.5	3.8	8.46e-01	0	31	104	0	85	15893
2026-01-02 14:37:35.20	234.15	3.59	-60.2	-72.7	3.8	8.46e-01	0	31	104	0	85	16139
2026-01-02 14:37:38.20	234.45	3.74	-60.2	-72.8	3.8	8.44e-01	0	31	104	0	85	16418
2026-01-02 14:37:41.19	234.75	3.89	-60.2	-72.6	3.8	8.46e-01	0	31	104	0	85	15994
2026-01-02 14:37:44.18	235.05	4.04	-60.2	-72.0	3.8	8.45e-01	0	31	104	0	85	14988
2026-01-02 14:37:47.17	235.36	4.19	-60.2	-72.1	3.8	8.45e-01	0	31	104	0	85	15192
2026-01-02 14:37:50.16	235.66	4.34	-60.1	-71.7	3.8	8.46e-01	0	31	104	0	85	14537
2026-01-02 14:37:53.17	235.98	4.49	-60.2	-72.5	3.8	8.46e-01	0	31	104	0	85	15869
2026-01-02 14:37:56.16	236.29	4.64	-60.0	-70.2	3.9	8.46e-01	0	31	104	0	85	12181
2026-01-02 14:37:59.17	236.61	4.79	-59.7	-67.8	4.7	8.06e-01	0	31	0	0	85	9262
2026-01-02 14:38:02.16	236.94	4.94	-59.1	-65.0	6.3	3.49e-01	0	31	0	3145728	84	7060
2026-01-02 14:38:05.17	237.26	5.09	-56.9	-59.7	10.8	6.45e-04	0	31	0	19922944	80	4870
2026-01-02 14:38:08.16	237.59	5.24	-57.9	-61.7	9.1	7.55e-03	0	31	0	30408704	81	5738
2026-01-02 14:38:11.15	237.92	5.39	-51.4	-52.3	15.2	0.00e+00	0	31	0	47185920	69	3907
2026-01-02 14:38:14.15	238.26	5.54	-51.4	-52.3	15.3	0.00e+00	0	31	0	63963136	69	3909
2026-01-02 14:38:17.14	238.60	5.69	-51.3	-52.3	15.3	0.00e+00	0	31	0	80740352	69	3886
2026-01-02 14:38:20.14	238.94	5.84	-51.4	-52.3	15.3	0.00e+00	0	31	0	97517568	69	3906
2026-01-02 14:38:23.15	239.28	5.99	-51.5	-52.5	15.2	0.00e+00	0	31	0	114294784	69	3981
2026-01-02 14:38:26.15	239.63	6.14	-51.6	-52.6	15.1	0.00e+00	0	31	0	131072000	69	4039
2026-01-02 14:38:29.15	239.99	6.29	-51.4	-52.4	15.3	0.00e+00	0	31	0	147849216	69	3930
2026-01-02 14:38:32.14	240.34	6.44	-51.2	-52.1	15.3	0.00e+00	0	31	0	164626432	68	4026
2026-01-02 14:38:35.13	240.70	6.59	-51.1	-52.0	15.4	0.00e+00	0	31	0	181403648	68	3989
2026-01-02 14:38:38.13	241.06	6.74	-51.1	-52.0	15.4	0.00e+00	0	31	0	198180864	68	3992
2026-01-02 14:38:41.13	241.43	6.89	-51.0	-51.9	15.5	0.00e+00	0	31	0	214958080	68	3925
2026-01-02 14:38:44.10	241.80	7.04	-51.0	-51.8	15.5	0.00e+00	0	31	0	231735296	68	3906
2026-01-02 14:38:47.09	242.17	7.19	-51.0	-51.9	15.4	0.00e+00	0	31	0	248512512	68	3951
2026-01-02 14:38:50.09	242.55	7.34	-51.0	-51.8	15.5	0.00e+00	0	31	0	266338304	68	3908
2026-01-02 14:38:53.08	242.93	7.49	-50.9	-51.8	15.5	0.00e+00	0	31	0	282066944	68	3893
2026-01-02 14:38:56.07	243.31	7.64	-50.5	-51.3	15.6	0.00e+00	0	31	0	298844160	67	3894
2026-01-02 14:38:59.07	243.70	7.78	-50.4	-51.2	15.7	0.00e+00	0	31	0	316669952	67	3842
2026-01-02 14:39:02.05	244.09	7.93	-50.4	-51.2	15.7	0.00e+00	0	31	0	333447168	67	3867
2026-01-02 14:39:05.05	244.49	8.08	-50.5	-51.4	15.6	0.00e+00	0	31	0	350224384	67	3929
2026-01-02 14:39:08.05	244.89	8.23	-50.5	-51.3	15.6	0.00e+00	0	31	0	367001600	67	3913
2026-01-02 14:39:11.04	245.29	8.38	-50.4	-51.3	15.7	0.00e+00	0	31	0	383778816	67	3883
2026-01-02 14:39:14.04	245.70	8.52	-50.5	-51.4	15.7	0.00e+00	0	31	0	400556032	67	3926
2026-01-02 14:39:17.05	246.11	8.67	-50.5	-51.3	15.7	0.00e+00	0	31	0	417333248	67	3907
2026-01-02 14:39:20.04	246.53	8.82	-50.3	-51.1	15.7	0.00e+00	0	31	0	434110464	67	3797
2026-01-02 14:39:23.03	246.95	8.96	-50.2	-50.9	15.8	0.00e+00	0	31	0	450887680	66	3955
2026-01-02 14:39:26.03	247.37	9.11	-50.1	-50.9	15.8	0.00e+00	0	31	0	467664896	66	3935
2026-01-02 14:39:29.01	247.80	9.25	-50.2	-51.0	15.8	0.00e+00	0	31	0	484442112	66	3965
2026-01-02 14:39:32.00	248.23	9.40	-50.1	-50.9	15.8	0.00e+00	0	31	0	501219328	66	3954
2026-01-02 14:39:34.99	248.66	9.54	-50.0	-50.7	15.9	0.00e+00	0	31	0	517996544	66	3865
2026-01-02 14:39:37.99	249.10	9.69	-50.0	-50.8	15.8	0.00e+00	0	31	0	535822336	66	3898
2026-01-02 14:39:40.97	249.55	9.83	-50.0	-50.8	15.8	0.00e+00	0	31	0	551550976	66	3898
2026-01-02 14:39:43.95	249.99	9.97	-49.9	-50.7	15.9	0.00e+00	0	31	0	568328192	66	3850
2026-01-02 14:39:46.94	250.44	10.11	-50.1	-50.9	15.9	0.00e+00	0	31	0	586153984	66	3921
2026-01-02 14:39:49.93	250.90	10.25	-49.9	-50.7	15.9	0.00e+00	0	31	0	602931200	66	3835
2026-01-02 14:39:52.93	251.36	10.39	-49.8	-50.6	15.9	0.00e+00	0	32	0	618659840	66	3785
2026-01-02 14:39:55.93	251.83	10.53	-49.7	-50.4	15.9	0.00e+00	0	31	0	636485632	65	3935
2026-01-02 14:39:58.91	252.30	10.67	-49.6	-50.4	16.0	0.00e+00	0	31	0	653262848	65	3914
2026-01-02 14:40:01.91	252.77	10.81	-49.6	-50.3	16.0	0.00e+00	0	31	0	670040064	65	3901
2026-01-02 14:40:04.91	253.25	10.94	-49.7	-50.4	15.9	0.00e+00	0	31	0	686817280	65	3946
2026-01-02 14:40:07.92	253.74	11.08	-49.6	-50.3	16.0	0.00e+00	0	31	0	703594496	65	3908
2026-01-02 14:40:10.91	254.22	11.21	-49.6	-50.3	16.0	0.00e+00	0	31	0	720371712	65	3905
2026-01-02 14:40:13.92	254.72	11.35	-49.6	-50.3	16.0	0.00e+00	0	31	0	737148928	65	3907
2026-01-02 14:40:16.93	255.21	11.48	-49.4	-50.2	16.0	0.00e+00	0	31	0	753926144	65	3836
2026-01-02 14:40:19.92	255.71	11.61	-49.5	-50.2	16.0	0.00e+00	0	31	0	770703360	65	3850
2026-01-02 14:40:22.93	256.22	11.74	-49.4	-50.1	16.1	0.00e+00	0	31	0	787480576	65	3813
2026-01-02 14:40:25.92	256.73	11.87	-49.4	-50.1	16.1	0.00e+00	0	31	0	804257792	65	3788
2026-01-02 14:40:28.93	257.24	11.99	-49.2	-49.9	16.1	0.00e+00	0	31	0	822083584	65	3725
2026-01-02 14:40:31.91	257.76	12.12	-49.2	-49.9	16.1	0.00e+00	0	31	0	838860800	65	3724
2026-01-02 14:40:34.90	258.28	12.24	-49.1	-49.8	16.1	0.00e+00	0	31	0	855638016	64	3871
2026-01-02 14:40:37.89	258.80	12.36	-49.0	-49.7	16.2	0.00e+00	0	31	0	872415232	64	3848
2026-01-02 14:40:40.88	259.33	12.48	-49.0	-49.7	16.2	0.00e+00	0	31	0	889192448	64	3835
2026-01-02 14:40:43.86	259.86	12.60	-49.2	-49.9	16.1	0.00e+00	0	31	0	905969664	64	3915
2026-01-02 14:40:46.86	260.40	12.72	-49.2	-49.9	16.1	0.00e+00	0	31	0	922746880	64	3943
2026-01-02 14:40:49.85	260.94	12.83	-49.1	-49.8	16.1	0.00e+00	0	31	0	939524096	64	3910
2026-01-02 14:40:52.84	261.49	12.95	-49.0	-49.7	16.2	0.00e+00	0	31	0	956301312	64	3853
2026-01-02 14:40:55.84	262.04	13.06	-48.9	-49.6	16.2	0.00e+00	0	31	0	973078528	64	3805
2026-01-02 14:40:58.84	262.59	13.17	-49.2	-49.9	16.1	0.00e+00	0	31	0	989855744	64	3926
2026-01-02 14:41:01.86	263.16	13.28	-49.3	-50.0	16.1	0.00e+00	0	31	0	1006632960	64	3979
2026-01-02 14:41:04.86	263.72	13.38	-48.9	-49.6	16.2	0.00e+00	0	31	0	1023410176	64	3793
2026-01-02 14:41:07.87	264.29	13.49	-48.8	-49.5	16.2	0.00e+00	0	31	0	1040187392	64	3742
2026-01-02 14:41:10.87	264.86	13.59	-48.9	-49.6	16.2	0.00e+00	0	31	0	1058013184	63	4016
2026-01-02 14:41:13.87	265.43	13.69	-49.0	-49.7	16.1	0.00e+00	0	31	0	1074790400	63	4083
2026-01-02 14:41:16.87	266.01	13.79	-48.9	-49.5	16.2	0.00e+00	0	31	0	1091567616	63	4000
2026-01-02 14:41:19.87	266.59	13.88	-48.7	-49.3	16.2	0.00e+00	0	32	0	1108344832	63	3899
2026-01-02 14:41:22.88	267.18	13.98	-48.7	-49.3	16.2	0.00e+00	0	31	0	1125122048	63	3906
2026-01-02 14:41:25.88	267.77	14.07	-48.7	-49.4	16.2	0.00e+00	0	31	0	1141899264	63	3934
2026-01-02 14:41:28.87	268.36	14.15	-48.8	-49.5	16.2	0.00e+00	0	31	0	1158676480	63	3971
2026-01-02 14:41:31.86	268.95	14.24	-48.9	-49.5	16.2	0.00e+00	0	31	0	1175453696	63	3996
2026-01-02 14:41:34.85	269.55	14.32	-48.8	-49.5	16.2	0.00e+00	0	31	0	1192230912	63	3983
2026-01-02 14:41:37.84	270.15	14.40	-48.8	-49.4	16.2	0.00e+00	0	32	0	1209008128	63	3944
2026-01-02 14:41:40.83	270.75	14.48	-48.9	-49.6	16.2	0.00e+00	0	31	0	1225785344	63	4009
2026-01-02 14:41:43.81	271.36	14.55	-49.0	-49.7	16.1	0.00e+00	0	31	0	1242562560	63	4058
2026-01-02 14:41:46.80	271.97	14.62	-48.7	-49.4	16.2	0.00e+00	0	32	0	1259339776	63	3942
2026-01-02 14:41:49.79	272.58	14.69	-48.7	-49.3	16.3	0.00e+00	0	31	0	1277165568	63	3894
2026-01-02 14:41:52.79	273.20	14.76	-48.9	-49.6	16.2	0.00e+00	0	31	0	1293942784	63	4021
2026-01-02 14:41:55.78	273.81	14.82	-48.9	-49.6	16.2	0.00e+00	0	32	0	1310720000	63	4006
2026-01-02 14:41:58.78	274.43	14.88	-48.7	-49.4	16.2	0.00e+00	0	31	0	1327497216	63	3924
2026-01-02 14:42:01.76	275.05	14.94	-48.7	-49.4	16.2	0.00e+00	0	31	0	1344274432	63	3925
2026-01-02 14:42:04.76	275.68	14.99	-48.9	-49.6	16.2	0.00e+00	0	31	0	1361051648	63	4011
2026-01-02 14:42:07.76	276.31	15.05	-49.1	-49.8	16.1	0.00e+00	0	32	0	1377828864	63	4129
2026-01-02 14:42:10.76	276.94	15.09	-49.1	-49.8	16.1	0.00e+00	0	32	0	1394606080	63	4102
2026-01-02 14:42:13.76	277.57	15.14	-48.8	-49.5	16.2	0.00e+00	0	31	0	1411383296	63	3972
2026-01-02 14:42:16.75	278.20	15.18	-48.8	-49.4	16.2	0.00e+00	0	31	0	1428160512	63	3952
2026-01-02 14:42:19.76	278.84	15.22	-49.0	-49.6	16.1	0.00e+00	0	31	0	1444937728	63	4048
2026-01-02 14:42:22.75	279.48	15.26	-49.0	-49.6	16.1	0.00e+00	0	31	0	1461714944	63	4040
2026-01-02 14:42:25.74	280.11	15.29	-48.8	-49.5	16.2	0.00e+00	0	31	0	1478492160	63	3971
2026-01-02 14:42:28.74	280.75	15.32	-48.9	-49.6	16.2	0.00e+00	0	32	0	1495269376	63	4013
2026-01-02 14:42:31.72	281.39	15.34	-48.7	-49.3	16.3	0.00e+00	0	31	0	1512046592	63	3902
2026-01-02 14:42:34.72	282.03	15.36	-48.7	-49.4	16.3	0.00e+00	0	31	0	1528823808	63	3920
2026-01-02 14:42:37.70	282.67	15.38	-48.8	-49.5	16.2	0.00e+00	0	31	0	1545601024	63	3965
2026-01-02 14:42:40.69	283.31	15.40	-48.9	-49.6	16.2	0.00e+00	0	31	0	1563426816	63	4011
2026-01-02 14:42:43.68	283.95	15.41	-49.0	-49.7	16.2	0.00e+00	0	32	0	1579155456	63	4088
2026-01-02 14:42:46.68	284.60	15.42	-49.1	-49.8	16.2	0.00e+00	0	31	0	1595932672	63	4100
2026-01-02 14:42:49.68	285.24	15.43	-49.1	-49.8	16.1	0.00e+00	0	31	0	1613758464	63	4101
2026-01-02 14:42:52.66	285.88	15.43	-49.1	-49.7	16.2	0.00e+00	0	31	0	1630535680	63	4082
2026-01-02 14:42:55.65	286.52	15.43	-49.0	-49.7	16.2	0.00e+00	0	31	0	1647312896	63	4068
2026-01-02 14:42:58.66	287.17	15.42	-49.1	-49.7	16.1	0.00e+00	0	31	0	1664090112	63	4082
2026-01-02 14:43:01.67	287.82	15.41	-49.1	-49.8	16.1	0.00e+00	0	31	0	1680867328	63	4130
2026-01-02 14:43:04.66	288.46	15.40	-49.3	-50.0	16.0	0.00e+00	0	32	0	1697644544	63	4229
2026-01-02 14:43:07.67	289.10	15.39	-49.3	-50.0	16.0	0.00e+00	0	32	0	1714421760	63	4235
2026-01-02 14:43:10.67	289.75	15.37	-49.3	-50.0	16.1	0.00e+00	0	31	0	1731198976	63	4231
2026-01-02 14:43:13.67	290.39	15.35	-49.3	-50.0	16.1	0.00e+00	0	32	0	1747976192	63	4228
2026-01-02 14:43:16.68	291.03	15.32	-49.1	-49.8	16.1	0.00e+00	0	32	0	1764753408	63	4122
2026-01-02 14:43:19.67	291.67	15.30	-49.0	-49.6	16.2	0.00e+00	0	31	0	1782579200	63	4049
2026-01-02 14:43:22.67	292.31	15.26	-49.2	-49.9	16.1	0.00e+00	0	31	0	1799356416	63	4181
2026-01-02 14:43:25.67	292.94	15.23	-49.2	-49.9	16.1	0.00e+00	0	31	0	1816133632	63	4171
2026-01-02 14:43:28.66	293.58	15.19	-49.3	-50.0	16.0	0.00e+00	0	31	0	1832910848	63	4240
2026-01-02 14:43:31.65	294.21	15.15	-49.3	-50.0	16.1	0.00e+00	0	31	0	1849688064	63	4240
2026-01-02 14:43:34.64	294.84	15.11	-49.4	-50.1	16.1	0.00e+00	0	31	0	1866465280	64	4036
2026-01-02 14:43:37.63	295.47	15.06	-49.2	-49.9	16.2	0.00e+00	0	31	0	1883242496	64	3941
2026-01-02 14:43:40.64	296.10	15.01	-49.4	-50.1	16.1	0.00e+00	0	31	0	1900019712	64	4010
2026-01-02 14:43:43.64	296.72	14.96	-49.4	-50.1	16.1	0.00e+00	0	32	0	1916796928	64	4036
2026-01-02 14:43:46.63	297.34	14.90	-49.3	-50.0	16.1	0.00e+00	0	32	0	1933574144	64	3993
2026-01-02 14:43:49.62	297.96	14.84	-49.3	-50.0	16.1	0.00e+00	0	32	0	1950351360	64	3984
2026-01-02 14:43:52.61	298.58	14.78	-49.4	-50.1	16.1	0.00e+00	0	32	0	1967128576	64	4027
2026-01-02 14:43:55.61	299.20	14.71	-49.3	-50.0	16.1	0.00e+00	0	32	0	1983905792	64	3996
2026-01-02 14:43:58.61	299.81	14.64	-49.4	-50.1	16.1	0.00e+00	0	31	0	2000683008	64	4034
2026-01-02 14:44:01.61	300.42	14.57	-49.6	-50.3	16.1	0.00e+00	0	31	0	2018508800	64	4111
2026-01-02 14:44:04.61	301.03	14.50	-49.6	-50.3	16.0	0.00e+00	0	32	0	2035286016	64	4121
2026-01-02 14:44:07.61	301.63	14.42	-49.5	-50.2	16.0	0.00e+00	0	32	0	2052063232	64	4097
2026-01-02 14:44:10.61	302.23	14.34	-49.6	-50.3	16.0	0.00e+00	0	32	0	2068840448	64	4142
2026-01-02 14:44:13.61	302.83	14.26	-49.7	-50.4	15.9	0.00e+00	0	32	0	2085617664	64	4172
2026-01-02 14:44:16.60	303.43	14.18	-49.5	-50.2	16.0	0.00e+00	0	32	0	2102394880	64	4066
2026-01-02 14:44:19.61	304.02	14.09	-49.4	-50.1	16.0	0.00e+00	0	31	0	2119172096	64	4047
2026-01-02 14:44:22.60	304.61	14.00	-49.4	-50.1	16.1	0.00e+00	0	32	0	2135949312	64	4026
2026-01-02 14:44:25.61	305.19	13.91	-49.3	-50.1	16.1	0.00e+00	0	32	0	2152726528	64	4007
2026-01-02 14:44:28.62	305.78	13.82	-49.6	-50.3	16.0	0.00e+00	0	31	0	2169503744	64	4123
2026-01-02 14:44:31.63	306.35	13.72	-49.6	-50.3	16.0	0.00e+00	0	32	0	2186280960	64	4118
2026-01-02 14:44:34.63	306.93	13.62	-49.5	-50.2	16.0	0.00e+00	0	31	0	2204106752	64	4059
2026-01-02 14:44:37.63	307.50	13.52	-49.7	-50.4	16.0	0.00e+00	0	31	0	2220883968	64	4184
2026-01-02 14:44:40.64	308.07	13.42	-49.6	-50.3	16.0	0.00e+00	0	31	0	2237661184	64	4134
2026-01-02 14:44:43.63	308.63	13.31	-49.6	-50.4	16.0	0.00e+00	0	31	0	2254438400	64	4150
2026-01-02 14:44:46.63	309.19	13.20	-49.7	-50.4	15.9	0.00e+00	0	32	0	2271215616	64	4184
2026-01-02 14:44:49.63	309.74	13.09	-49.6	-50.3	16.0	0.00e+00	0	31	0	2287992832	64	4122
2026-01-02 14:44:52.64	310.29	12.98	-49.6	-50.3	16.0	0.00e+00	0	31	0	2304770048	64	4128
2026-01-02 14:44:55.63	310.84	12.87	-49.8	-50.5	15.9	0.00e+00	0	31	0	2322595840	64	4233
2026-01-02 14:44:58.64	311.38	12.76	-49.7	-50.5	15.9	0.00e+00	0	32	0	2339373056	64	4203
2026-01-02 14:45:01.65	311.92	12.64	-49.7	-50.4	15.9	0.00e+00	0	31	0	2356150272	64	4193
2026-01-02 14:45:04.65	312.46	12.52	-49.8	-50.5	15.9	0.00e+00	0	32	0	2372927488	64	4240
2026-01-02 14:45:07.65	312.99	12.40	-49.8	-50.6	15.9	0.00e+00	0	31	0	2389704704	64	4247
2026-01-02 14:45:10.65	313.51	12.28	-49.7	-50.4	15.9	0.00e+00	0	32	0	2406481920	64	4186
2026-01-02 14:45:13.66	314.03	12.16	-49.7	-50.5	15.9	0.00e+00	0	31	0	2423259136	64	4207
2026-01-02 14:45:16.66	314.55	12.03	-50.0	-50.7	15.8	0.00e+00	0	31	0	2440036352	65	4093
2026-01-02 14:45:19.66	315.07	11.91	-49.8	-50.6	15.9	0.00e+00	0	32	0	2456813568	65	4013
2026-01-02 14:45:22.65	315.57	11.78	-49.9	-50.7	15.9	0.00e+00	0	32	0	2473590784	65	4054
2026-01-02 14:45:25.64	316.07	11.65	-49.8	-50.6	15.9	0.00e+00	0	31	0	2490368000	65	4021
2026-01-02 14:45:28.65	316.58	11.52	-49.8	-50.5	15.9	0.00e+00	0	31	0	2508193792	65	3992
2026-01-02 14:45:31.65	317.07	11.39	-49.9	-50.6	15.9	0.00e+00	0	32	0	2524971008	65	4037
2026-01-02 14:45:34.66	317.57	11.26	-49.9	-50.7	15.8	0.00e+00	0	31	0	2541748224	65	4070
2026-01-02 14:45:37.66	318.05	11.13	-50.1	-50.9	15.7	0.00e+00	0	32	0	2558525440	65	4178
2026-01-02 14:45:40.66	318.54	10.99	-50.1	-51.0	15.8	0.00e+00	0	31	0	2575302656	65	4195
2026-01-02 14:45:43.67	319.02	10.86	-50.3	-51.1	15.7	0.00e+00	0	31	0	2592079872	65	4273
2026-01-02 14:45:46.66	319.49	10.72	-50.2	-51.0	15.7	0.00e+00	0	31	0	2608857088	65	4206
2026-01-02 14:45:49.63	319.96	10.59	-50.3	-51.1	15.7	0.00e+00	0	31	0	2625634304	65	4253
2026-01-02 14:45:52.63	320.42	10.45	-50.2	-51.0	15.7	0.00e+00	0	32	0	2642411520	65	4202
2026-01-02 14:45:55.61	320.88	10.31	-50.1	-50.9	15.7	0.00e+00	0	32	0	2659188736	65	4147
2026-01-02 14:45:58.61	321.34	10.17	-50.2	-51.0	15.7	0.00e+00	0	32	0	2675965952	65	4210
2026-01-02 14:46:01.61	321.79	10.03	-50.1	-50.9	15.7	0.00e+00	0	32	0	2692743168	65	4150
2026-01-02 14:46:04.62	322.24	9.89	-50.0	-50.8	15.7	0.00e+00	0	32	0	2709520384	65	4105
2026-01-02 14:46:07.62	322.69	9.75	-50.1	-50.9	15.7	0.00e+00	0	31	0	2726297600	65	4150
2026-01-02 14:46:10.62	323.13	9.60	-50.2	-51.0	15.7	0.00e+00	0	31	0	2744123392	65	4214
2026-01-02 14:46:13.61	323.56	9.46	-50.5	-51.3	15.6	0.00e+00	0	31	0	2760900608	66	4145
2026-01-02 14:46:16.61	323.99	9.32	-50.5	-51.4	15.6	0.00e+00	0	32	0	2777677824	66	4156
2026-01-02 14:46:19.62	324.42	9.17	-50.5	-51.3	15.6	0.00e+00	0	32	0	2794455040	66	4135
2026-01-02 14:46:22.60	324.85	9.03	-50.5	-51.3	15.6	0.00e+00	0	32	0	2811232256	66	4138
2026-01-02 14:46:25.60	325.27	8.88	-50.6	-51.4	15.5	0.00e+00	0	32	0	2828009472	66	4177
2026-01-02 14:46:28.60	325.68	8.74	-50.5	-51.4	15.5	0.00e+00	0	32	0	2844786688	66	4154
2026-01-02 14:46:31.59	326.09	8.59	-50.6	-51.4	15.5	0.00e+00	0	31	0	2861563904	66	4192
2026-01-02 14:46:34.60	326.50	8.44	-50.7	-51.6	15.4	0.00e+00	0	31	0	2878341120	66	4255
2026-01-02 14:46:37.61	326.91	8.30	-50.9	-51.8	15.4	0.00e+00	0	31	0	2895118336	67	4105
2026-01-02 14:46:40.61	327.31	8.15	-50.7	-51.6	15.5	0.00e+00	0	32	0	2911895552	67	4015
2026-01-02 14:46:43.61	327.71	8.00	-50.8	-51.7	15.5	0.00e+00	0	32	0	2929721344	67	4060
2026-01-02 14:46:46.60	328.10	7.86	-50.9	-51.8	15.4	0.00e+00	0	32	0	2946498560	67	4112
2026-01-02 14:46:49.58	328.48	7.71	-50.9	-51.8	15.4	0.00e+00	0	32	0	2963275776	67	4135
2026-01-02 14:46:52.58	328.87	7.56	-50.9	-51.8	15.4	0.00e+00	0	31	0	2980052992	67	4102
2026-01-02 14:46:55.56	329.25	7.41	-50.9	-51.8	15.4	0.00e+00	0	32	0	2996830208	67	4107
2026-01-02 14:46:58.56	329.63	7.26	-51.0	-51.9	15.3	0.00e+00	0	31	0	3013607424	67	4182
2026-01-02 14:47:01.56	330.00	7.12	-50.9	-51.8	15.4	0.00e+00	0	32	0	3030384640	67	4125
2026-01-02 14:47:04.55	330.37	6.97	-51.0	-51.9	15.3	0.00e+00	0	32	0	3047161856	67	4168
2026-01-02 14:47:07.57	330.74	6.82	-51.0	-51.9	15.3	0.00e+00	0	32	0	3063939072	67	4165
2026-01-02 14:47:10.56	331.10	6.67	-51.1	-52.0	15.2	0.00e+00	0	32	0	3080716288	67	4208
2026-01-02 14:47:13.56	331.46	6.52	-51.1	-52.1	15.2	0.00e+00	0	32	0	3097493504	67	4258
2026-01-02 14:47:16.55	331.82	6.37	-51.3	-52.3	15.1	0.00e+00	0	32	0	3114270720	67	4368
2026-01-02 14:47:19.54	332.17	6.22	-51.6	-52.6	15.0	0.00e+00	0	32	0	3131047936	68	4286
2026-01-02 14:47:22.53	332.51	6.07	-51.8	-52.9	14.9	0.00e+00	0	32	0	3147825152	68	4407
2026-01-02 14:47:25.54	332.86	5.92	-51.8	-52.9	15.0	0.00e+00	0	31	0	3165650944	69	4163
2026-01-02 14:47:28.52	333.20	5.78	-51.8	-52.8	15.0	0.00e+00	0	32	0	3181379584	69	4130
2026-01-02 14:47:31.51	333.54	5.63	-51.8	-52.9	14.9	0.00e+00	0	32	0	3199205376	69	4146
2026-01-02 14:47:34.52	333.88	5.48	-51.7	-52.8	14.9	0.00e+00	0	32	0	3215982592	69	4100
2026-01-02 14:47:37.51	334.21	5.33	-52.0	-53.2	14.7	0.00e+00	0	32	0	3232759808	69	4298
2026-01-02 14:47:40.52	334.54	5.18	-51.0	-52.1	15.0	0.00e+00	0	32	0	3249537024	68	4005
2026-01-02 14:47:43.51	334.86	5.03	-51.5	-52.6	14.7	0.00e+00	0	32	0	3266314240	68	4271
2026-01-02 14:47:46.50	335.19	4.88	-61.1	-73.6	3.8	8.45e-01	0	32	104	3274702848	87	16116
2026-01-02 14:47:49.49	335.51	4.73	-61.8	-74.4	3.8	8.45e-01	0	32	104	3274702848	88	16599
2026-01-02 14:47:52.48	335.82	4.59	-62.1	-74.7	3.8	8.45e-01	0	32	104	3274702848	89	16255
2026-01-02 14:47:55.47	336.13	4.44	-62.3	-74.9	3.8	8.46e-01	0	31	104	3274702848	89	16557
2026-01-02 14:47:58.46	336.44	4.29	-62.4	-75.0	3.8	8.45e-01	0	32	104	3274702848	89	16770
2026-01-02 14:48:01.46	336.75	4.14	-62.4	-75.0	3.8	8.44e-01	0	32	104	3274702848	90	15879
2026-01-02 14:48:04.46	337.06	3.99	-62.4	-75.1	3.8	8.47e-01	0	32	104	3274702848	90	15955
2026-01-02 14:48:07.47	337.36	3.85	-62.4	-75.0	3.8	8.45e-01	0	32	104	3274702848	90	15799
2026-01-02 14:48:10.47	337.66	3.70	-62.3	-74.9	3.8	8.46e-01	0	31	104	3274702848	90	15709
2026-01-02 14:48:13.48	337.96	3.55	-62.3	-74.9	3.8	8.46e-01	0	32	104	3274702848	90	15617
2026-01-02 14:48:16.48	338.25	3.40	-62.2	-74.9	3.8	8.46e-01	0	32	104	3274702848	90	15618
2026-01-02 14:48:19.49	338.54	3.25	-62.2	-74.8	3.8	8.45e-01	0	32	104	3274702848	90	15556
2026-01-02 14:48:22.50	338.83	3.11	-62.2	-74.8	3.8	8.47e-01	0	32	104	3274702848	90	15529
2026-01-02 14:48:25.49	339.12	2.96	-62.2	-74.8	3.8	8.46e-01	0	32	104	3274702848	90	15468
2026-01-02 14:48:28.49	339.40	2.82	-62.2	-74.8	3.8	8.45e-01	0	32	104	3274702848	90	15407
2026-01-02 14:48:31.49	339.68	2.67	-62.1	-74.8	3.8	8.45e-01	0	32	104	3274702848	90	15415
2026-01-02 14:48:34.48	339.96	2.52	-62.1	-74.7	3.8	8.46e-01	0	32	104	3274702848	90	15324
2026-01-02 14:48:37.49	340.23	2.38	-62.1	-74.7	3.8	8.45e-01	0	31	104	3274702848	90	15358
2026-01-02 14:48:40.49	340.50	2.23	-62.1	-74.7	3.8	8.45e-01	0	32	104	3274702848	90	15363
2026-01-02 14:48:43.50	340.77	2.09	-62.1	-74.7	3.8	8.45e-01	0	32	104	3274702848	90	15315
2026-01-02 14:48:46.50	341.04	1.94	-62.1	-74.7	3.8	8.46e-01	0	32	104	3274702848	90	15305

#Closed at: 2026-01-02 14:48:47
#Recorded file [3274 MB]: D:/lorett/data/31004_260102_173702.dat