passes_logs/2026/01/02/R3.2S_Murmansk/R3.2S_Murmansk__20260102_051416_SUOMI_NPP_rec.log

#Pass ID: 20260102_051416_SUOMI NPP
#Satellite: SUOMI NPP
#Configuration: NPP
#almurnet v.1.7.20251203
#Start time: 2026-01-02 05:14:17

#Version: 2.2.20231116
#Station: R3.2S_Murmansk
#Location: 33.079688 lon 68.888172 lat
#TLE: 1 37849U 11061A   26001.07732418  .00000182  00000+0  10735-3 0  9990
#TLE: 2 37849  98.7795 303.2470 0002580  87.2016 272.9455 14.19520779734739

#Time	Az	El	Level	Level2	SNR	BER	BlckErr	Temp	State	Recorded	gain1	gain2
2026-01-02 05:14:17.34	62.22	2.02	-55.0	-70.9	3.8	1.49e+00	0	31	0	0	75	23443
2026-01-02 05:14:20.34	62.03	2.19	-55.0	-70.9	3.8	1.49e+00	0	31	104	0	75	23483
2026-01-02 05:14:23.33	61.83	2.37	-55.0	-70.9	3.8	1.49e+00	0	31	104	0	75	23439
2026-01-02 05:14:26.32	61.64	2.54	-55.0	-70.9	3.8	1.49e+00	0	31	104	0	75	23460
2026-01-02 05:14:29.32	61.44	2.71	-55.0	-70.9	3.8	1.49e+00	0	31	104	0	75	23474
2026-01-02 05:14:32.32	61.24	2.88	-55.0	-70.9	3.8	1.49e+00	0	31	104	0	75	23508
2026-01-02 05:14:35.32	61.03	3.06	-55.0	-70.9	3.8	1.49e+00	0	31	104	0	75	23470
2026-01-02 05:14:38.32	60.82	3.23	-55.0	-70.9	3.8	1.49e+00	0	31	104	0	75	23466
2026-01-02 05:14:41.32	60.61	3.41	-55.0	-70.9	3.8	1.49e+00	0	31	104	0	75	23433
2026-01-02 05:14:44.32	60.40	3.58	-55.0	-70.9	3.8	1.49e+00	0	31	104	0	75	23503
2026-01-02 05:14:47.33	60.18	3.76	-55.0	-70.9	3.8	1.49e+00	0	31	104	0	75	23535
2026-01-02 05:14:50.32	59.97	3.94	-55.0	-70.9	3.8	1.49e+00	0	31	104	0	75	23538
2026-01-02 05:14:53.33	59.74	4.11	-55.0	-70.9	3.8	1.49e+00	0	31	104	0	75	23513
2026-01-02 05:14:56.33	59.52	4.29	-55.0	-70.9	3.8	1.49e+00	0	31	104	0	75	23504
2026-01-02 05:14:59.33	59.29	4.47	-55.0	-70.9	3.8	1.49e+00	0	31	104	0	75	23531
2026-01-02 05:15:02.32	59.06	4.65	-55.0	-70.9	3.8	1.49e+00	0	31	104	0	75	23531
2026-01-02 05:15:05.32	58.83	4.83	-55.0	-70.9	3.8	1.49e+00	0	31	104	0	75	23513
2026-01-02 05:15:08.31	58.60	5.02	-55.0	-70.9	3.9	1.49e+00	0	32	104	0	75	23521
2026-01-02 05:15:11.29	58.36	5.20	-55.0	-70.9	3.8	1.49e+00	0	31	104	0	75	23496
2026-01-02 05:15:14.29	58.12	5.38	-55.0	-70.9	3.8	1.49e+00	0	32	104	0	75	23551
2026-01-02 05:15:17.28	57.87	5.57	-55.0	-70.9	3.8	1.49e+00	0	32	104	0	75	23530
2026-01-02 05:15:20.27	57.63	5.75	-55.0	-70.9	3.8	1.49e+00	0	32	104	0	75	23548
2026-01-02 05:15:23.27	57.37	5.94	-55.0	-70.9	3.8	1.49e+00	0	32	104	0	75	23553
2026-01-02 05:15:26.27	57.12	6.12	-55.0	-70.9	3.8	1.49e+00	0	32	104	0	75	23580
2026-01-02 05:15:29.25	56.86	6.31	-55.0	-70.9	3.8	1.49e+00	0	32	104	0	75	23571
2026-01-02 05:15:32.27	56.60	6.50	-55.0	-70.9	3.8	1.49e+00	0	32	104	0	75	23539
2026-01-02 05:15:35.27	56.33	6.69	-55.0	-70.9	3.8	1.49e+00	0	32	104	0	75	23509
2026-01-02 05:15:38.28	56.06	6.88	-55.0	-71.0	3.8	1.49e+00	0	32	104	0	75	23585
2026-01-02 05:15:41.29	55.79	7.07	-55.0	-70.9	3.8	1.49e+00	0	32	104	0	75	23518
2026-01-02 05:15:44.28	55.51	7.26	-55.0	-71.0	3.8	1.49e+00	0	32	104	0	75	23592
2026-01-02 05:15:47.28	55.23	7.45	-55.0	-70.9	3.8	1.49e+00	0	32	104	0	75	23482
2026-01-02 05:15:50.28	54.95	7.65	-55.0	-70.9	3.8	1.49e+00	0	32	104	0	75	23564
2026-01-02 05:15:53.28	54.66	7.84	-55.0	-70.9	3.8	1.49e+00	0	32	104	0	75	23538
2026-01-02 05:15:56.29	54.37	8.04	-55.0	-70.9	3.8	1.49e+00	0	32	104	0	75	23549
2026-01-02 05:15:59.29	54.07	8.23	-55.0	-71.0	3.8	1.49e+00	0	32	104	0	75	23644
2026-01-02 05:16:02.29	53.77	8.43	-55.0	-71.0	3.8	1.49e+00	0	32	104	0	75	23592
2026-01-02 05:16:05.28	53.47	8.62	-55.0	-71.0	3.8	1.49e+00	0	32	104	0	75	23602
2026-01-02 05:16:08.28	53.16	8.82	-55.0	-70.9	3.8	1.49e+00	0	32	104	0	75	23526
2026-01-02 05:16:11.27	52.85	9.02	-55.0	-70.9	3.8	1.49e+00	0	32	104	0	75	23555
2026-01-02 05:16:14.26	52.53	9.22	-55.0	-71.0	3.8	1.49e+00	0	32	104	0	75	23588
2026-01-02 05:16:17.25	52.21	9.42	-55.0	-70.9	3.8	1.49e+00	0	32	104	0	75	23562
2026-01-02 05:16:20.24	51.88	9.62	-55.0	-71.0	3.8	1.49e+00	0	32	104	0	75	23600
2026-01-02 05:16:23.23	51.55	9.82	-55.0	-70.9	3.8	1.49e+00	0	32	104	0	75	23521
2026-01-02 05:16:26.22	51.22	10.02	-55.0	-70.9	3.8	1.49e+00	0	32	104	0	75	23531
2026-01-02 05:16:29.21	50.88	10.22	-55.0	-70.9	3.8	1.49e+00	0	32	104	0	75	23565
2026-01-02 05:16:32.21	50.53	10.42	-55.0	-71.0	3.8	1.49e+00	0	32	104	0	75	23599
2026-01-02 05:16:35.22	50.18	10.63	-55.0	-70.9	3.8	1.49e+00	0	32	104	0	75	23508
2026-01-02 05:16:38.22	49.82	10.83	-55.0	-71.0	3.8	1.49e+00	0	32	104	0	75	23611
2026-01-02 05:16:41.22	49.46	11.04	-55.0	-70.9	3.8	1.49e+00	0	32	104	0	75	23524
2026-01-02 05:16:44.22	49.10	11.25	-55.0	-70.9	3.8	1.49e+00	0	32	104	0	75	23557
2026-01-02 05:16:47.23	48.72	11.45	-55.0	-70.9	3.8	1.49e+00	0	32	104	0	75	23525
2026-01-02 05:16:50.23	48.35	11.66	-55.0	-71.0	3.8	1.49e+00	0	32	104	0	75	23622
2026-01-02 05:16:53.23	47.96	11.87	-55.0	-70.9	3.8	1.49e+00	0	32	104	0	75	23561
2026-01-02 05:16:56.22	47.58	12.07	-55.0	-70.9	3.8	1.49e+00	0	32	104	0	75	23515
2026-01-02 05:16:59.22	47.18	12.28	-55.0	-71.0	3.8	1.49e+00	0	32	104	0	75	23656
2026-01-02 05:17:02.23	46.78	12.49	-55.0	-71.0	3.8	1.49e+00	0	32	104	0	75	23594
2026-01-02 05:17:05.24	46.38	12.70	-55.0	-71.0	3.8	1.49e+00	0	32	104	0	75	23582
2026-01-02 05:17:08.24	45.97	12.91	-55.0	-71.0	3.8	1.49e+00	0	32	104	0	75	23625
2026-01-02 05:17:11.23	45.55	13.12	-55.0	-71.0	3.8	1.49e+00	0	32	104	0	75	23583
2026-01-02 05:17:14.22	45.13	13.33	-55.0	-71.0	3.8	1.49e+00	0	32	104	0	75	23602
2026-01-02 05:17:17.20	44.70	13.54	-55.0	-70.9	3.8	1.49e+00	0	32	104	0	75	23536
2026-01-02 05:17:20.20	44.27	13.75	-55.0	-71.0	3.8	1.49e+00	0	32	104	0	75	23604
2026-01-02 05:17:23.19	43.83	13.96	-55.0	-71.0	3.8	1.49e+00	0	32	104	0	75	23628
2026-01-02 05:17:26.19	43.38	14.17	-55.0	-71.0	3.8	1.49e+00	0	32	104	0	75	23616
2026-01-02 05:17:29.20	42.92	14.38	-55.0	-71.0	3.8	1.49e+00	0	32	104	0	75	23584
2026-01-02 05:17:32.20	42.46	14.59	-55.0	-71.0	3.8	1.49e+00	0	32	104	0	75	23655
2026-01-02 05:17:35.20	41.99	14.80	-55.0	-70.9	3.8	1.49e+00	0	32	104	0	75	23581
2026-01-02 05:17:38.20	41.51	15.01	-55.0	-71.0	3.8	1.49e+00	0	32	104	0	75	23604
2026-01-02 05:17:41.20	41.03	15.22	-55.0	-71.0	3.8	1.49e+00	0	32	104	0	75	23640
2026-01-02 05:17:44.20	40.54	15.43	-55.0	-71.0	3.8	1.49e+00	0	32	104	0	75	23584
2026-01-02 05:17:47.21	40.05	15.64	-55.0	-71.0	3.8	1.49e+00	0	32	104	0	75	23614
2026-01-02 05:17:50.21	39.54	15.85	-55.0	-71.0	3.8	1.49e+00	0	32	104	0	75	23609
2026-01-02 05:17:53.22	39.03	16.06	-55.0	-70.9	3.8	1.49e+00	0	32	104	0	75	23577
2026-01-02 05:17:56.22	38.51	16.27	-55.0	-70.9	3.8	1.49e+00	0	32	104	0	75	23581
2026-01-02 05:17:59.22	37.99	16.48	-55.0	-71.0	3.8	1.49e+00	0	32	104	0	75	23601
2026-01-02 05:18:02.22	37.46	16.68	-55.0	-71.0	3.8	1.49e+00	0	32	104	0	75	23603
2026-01-02 05:18:05.21	36.92	16.89	-55.0	-70.9	3.9	1.49e+00	0	32	104	0	75	23532
2026-01-02 05:18:08.21	36.37	17.09	-55.0	-71.0	3.8	1.49e+00	0	32	104	0	75	23599
2026-01-02 05:18:11.21	35.82	17.30	-55.0	-71.0	3.8	1.49e+00	0	32	104	0	75	23652
2026-01-02 05:18:14.19	35.26	17.50	-55.0	-71.0	3.8	1.49e+00	0	32	104	0	75	23595
2026-01-02 05:18:17.19	34.69	17.70	-55.0	-71.0	3.8	1.49e+00	0	32	104	0	75	23663
2026-01-02 05:18:20.17	34.11	17.90	-55.0	-71.0	3.8	1.49e+00	0	32	104	0	75	23666
2026-01-02 05:18:23.17	33.53	18.10	-55.0	-71.0	3.8	1.49e+00	0	32	104	0	75	23600
2026-01-02 05:18:26.18	32.93	18.29	-55.0	-71.0	3.8	1.49e+00	0	32	104	0	75	23633
2026-01-02 05:18:29.17	32.33	18.49	-55.0	-71.0	3.8	1.49e+00	0	32	104	0	75	23640
2026-01-02 05:18:32.17	31.72	18.68	-55.0	-71.0	3.8	1.49e+00	0	32	104	0	75	23599
2026-01-02 05:18:35.17	31.11	18.87	-55.0	-71.0	3.8	1.49e+00	0	32	104	0	75	23635
2026-01-02 05:18:38.18	30.48	19.06	-55.0	-71.0	3.8	1.49e+00	0	32	104	0	75	23621
2026-01-02 05:18:41.18	29.85	19.25	-55.0	-71.0	3.8	1.49e+00	0	32	104	0	75	23605
2026-01-02 05:18:44.18	29.21	19.44	-55.0	-71.0	3.8	1.49e+00	0	32	104	0	75	23647
2026-01-02 05:18:47.18	28.56	19.62	-55.0	-71.0	3.8	1.49e+00	0	32	104	0	75	23592
2026-01-02 05:18:50.18	27.90	19.80	-55.0	-71.0	3.8	1.49e+00	0	32	104	0	75	23584
2026-01-02 05:18:53.18	27.24	19.98	-55.0	-71.0	3.8	1.49e+00	0	32	104	0	75	23616
2026-01-02 05:18:56.17	26.57	20.15	-55.0	-70.9	3.8	1.49e+00	0	32	104	0	75	23579
2026-01-02 05:18:59.18	25.89	20.32	-55.0	-71.0	3.8	1.49e+00	0	32	104	0	75	23596
2026-01-02 05:19:02.17	25.20	20.49	-55.0	-71.0	3.8	1.49e+00	0	32	104	0	75	23614
2026-01-02 05:19:05.17	24.51	20.66	-55.0	-71.0	3.8	1.49e+00	0	32	104	0	75	23600
2026-01-02 05:19:08.17	23.81	20.82	-55.0	-71.0	3.8	1.49e+00	0	32	104	0	75	23615
2026-01-02 05:19:11.16	23.10	20.98	-55.0	-71.0	3.8	1.49e+00	0	32	104	0	75	23627
2026-01-02 05:19:14.15	22.39	21.13	-55.0	-71.0	3.8	1.49e+00	0	32	104	0	75	23595
2026-01-02 05:19:17.13	21.67	21.28	-55.0	-70.9	3.8	1.49e+00	0	32	104	0	75	23543
2026-01-02 05:19:20.12	20.94	21.42	-55.0	-70.9	3.8	1.49e+00	0	32	104	0	75	23479
2026-01-02 05:19:23.11	20.20	21.57	-55.0	-70.9	3.8	1.49e+00	0	32	104	0	75	23504
2026-01-02 05:19:26.09	19.46	21.70	-55.0	-71.0	3.8	1.49e+00	0	33	104	0	75	23588
2026-01-02 05:19:29.07	18.72	21.84	-55.0	-71.0	3.8	1.49e+00	0	32	104	0	75	23617
2026-01-02 05:19:32.07	17.96	21.96	-55.0	-71.0	3.8	1.49e+00	0	32	104	0	75	23595
2026-01-02 05:19:35.07	17.20	22.09	-55.0	-71.0	3.8	1.49e+00	0	32	104	0	75	23685
2026-01-02 05:19:38.07	16.43	22.21	-55.0	-71.0	3.8	1.49e+00	0	32	104	0	75	23588
2026-01-02 05:19:41.08	15.65	22.32	-55.0	-71.0	3.8	1.49e+00	0	32	104	0	75	23626
2026-01-02 05:19:44.07	14.87	22.43	-55.0	-71.0	3.8	1.49e+00	0	32	104	0	75	23623
2026-01-02 05:19:47.07	14.08	22.53	-55.0	-71.0	3.8	1.49e+00	0	32	104	0	75	23663
2026-01-02 05:19:50.07	13.29	22.63	-55.0	-71.0	3.8	1.49e+00	0	33	104	0	75	23643
2026-01-02 05:19:53.07	12.49	22.73	-55.0	-71.0	3.8	1.49e+00	0	32	104	0	75	23614
2026-01-02 05:19:56.07	11.69	22.81	-55.0	-71.0	3.8	1.49e+00	0	32	104	0	75	23642
2026-01-02 05:19:59.07	10.89	22.89	-55.0	-71.0	3.8	1.49e+00	0	32	104	0	75	23687
2026-01-02 05:20:02.07	10.08	22.97	-55.0	-71.0	3.8	1.49e+00	0	33	104	0	75	23653
2026-01-02 05:20:05.07	9.26	23.04	-55.0	-71.0	3.8	1.49e+00	0	32	104	0	75	23622
2026-01-02 05:20:08.07	8.45	23.10	-55.0	-71.0	3.8	1.49e+00	0	32	104	0	75	23683
2026-01-02 05:20:11.07	7.62	23.16	-55.0	-71.0	3.8	1.49e+00	0	32	104	0	75	23606
2026-01-02 05:20:14.07	6.80	23.21	-55.0	-71.0	3.8	1.49e+00	0	33	104	0	75	23631
2026-01-02 05:20:17.07	5.98	23.25	-55.0	-71.0	3.8	1.49e+00	0	32	104	0	75	23650
2026-01-02 05:20:20.05	5.15	23.29	-55.0	-71.0	3.8	1.49e+00	0	32	104	0	75	23590
2026-01-02 05:20:23.05	4.32	23.32	-55.0	-71.0	3.8	1.49e+00	0	32	104	0	75	23605
2026-01-02 05:20:26.04	3.50	23.35	-55.0	-70.9	3.8	1.49e+00	0	32	104	0	75	23557
2026-01-02 05:20:29.04	2.66	23.37	-55.0	-71.0	3.8	1.49e+00	0	33	104	0	75	23619
2026-01-02 05:20:32.03	1.83	23.38	-55.0	-71.0	3.8	1.49e+00	0	32	104	0	75	23639
2026-01-02 05:20:35.04	1.00	23.38	-55.0	-71.0	3.8	1.49e+00	0	32	104	0	75	23608
2026-01-02 05:20:38.06	0.16	23.38	-55.0	-71.0	3.8	1.49e+00	0	32	104	0	75	23582
2026-01-02 05:20:41.06	359.32	23.38	-55.0	-70.9	3.8	1.49e+00	0	33	104	0	75	23579
2026-01-02 05:20:44.06	358.49	23.36	-55.0	-71.0	3.8	1.49e+00	0	32	104	0	75	23590
2026-01-02 05:20:47.07	357.65	23.34	-55.0	-71.0	3.8	1.49e+00	0	32	104	0	75	23609
2026-01-02 05:20:50.07	356.82	23.31	-55.0	-70.9	3.8	1.49e+00	0	33	104	0	75	23557
2026-01-02 05:20:53.07	355.99	23.28	-55.0	-71.0	3.8	1.49e+00	0	33	104	0	75	23660
2026-01-02 05:20:56.07	355.17	23.24	-55.0	-71.0	3.8	1.49e+00	0	32	104	0	75	23632
2026-01-02 05:20:59.05	354.35	23.19	-55.0	-70.9	3.8	1.49e+00	0	32	104	0	75	23565
2026-01-02 05:21:02.05	353.53	23.14	-55.0	-71.0	3.8	1.49e+00	0	32	104	0	75	23628
2026-01-02 05:21:05.05	352.71	23.08	-55.0	-70.9	3.8	1.49e+00	0	33	104	0	75	23564
2026-01-02 05:21:08.05	351.89	23.02	-55.0	-71.0	3.8	1.49e+00	0	32	104	0	75	23585
2026-01-02 05:21:11.05	351.08	22.95	-55.0	-70.9	3.8	1.49e+00	0	32	104	0	75	23560
2026-01-02 05:21:14.03	350.27	22.87	-55.0	-71.0	3.8	1.49e+00	0	33	104	0	75	23584
2026-01-02 05:21:17.03	349.47	22.79	-55.0	-71.0	3.8	1.49e+00	0	33	104	0	75	23622
2026-01-02 05:21:20.02	348.67	22.70	-55.0	-71.0	3.8	1.49e+00	0	32	104	0	75	23613
2026-01-02 05:21:22.94	347.90	22.61	-55.0	-71.0	3.8	1.49e+00	0	32	104	0	75	23616
2026-01-02 05:21:25.94	347.11	22.51	-55.0	-70.9	3.8	1.49e+00	0	32	104	0	75	23556
2026-01-02 05:21:28.94	346.32	22.40	-55.0	-71.0	3.8	1.49e+00	0	33	104	0	75	23594
2026-01-02 05:21:31.94	345.54	22.29	-55.0	-71.0	3.8	1.49e+00	0	32	104	0	75	23602
2026-01-02 05:21:34.94	344.77	22.18	-55.0	-71.0	3.8	1.49e+00	0	32	104	0	75	23612
2026-01-02 05:21:37.93	344.00	22.06	-55.0	-71.0	3.8	1.49e+00	0	32	104	0	75	23616
2026-01-02 05:21:40.93	343.24	21.93	-55.0	-71.0	3.8	1.49e+00	0	32	104	0	75	23591
2026-01-02 05:21:43.93	342.49	21.80	-55.0	-70.9	3.8	1.49e+00	0	32	104	0	75	23548
2026-01-02 05:21:46.92	341.74	21.67	-55.0	-70.9	3.8	1.49e+00	0	32	104	0	75	23565
2026-01-02 05:21:49.92	341.00	21.53	-55.0	-71.0	3.8	1.49e+00	0	32	104	0	75	23616
2026-01-02 05:21:52.92	340.26	21.38	-55.0	-70.9	3.8	1.49e+00	0	33	104	0	75	23528
2026-01-02 05:21:55.91	339.53	21.24	-55.0	-70.9	3.8	1.49e+00	0	33	104	0	75	23566
2026-01-02 05:21:58.90	338.81	21.09	-55.0	-71.0	3.8	1.49e+00	0	32	104	0	75	23625
2026-01-02 05:22:01.90	338.10	20.93	-55.0	-71.0	3.8	1.49e+00	0	32	104	0	75	23601
2026-01-02 05:22:04.90	337.39	20.77	-55.0	-71.0	3.8	1.49e+00	0	32	104	0	75	23679
2026-01-02 05:22:07.89	336.69	20.61	-55.0	-71.0	3.8	1.49e+00	0	32	104	0	75	23628
2026-01-02 05:22:10.89	336.00	20.44	-55.0	-70.9	3.8	1.49e+00	0	32	104	0	75	23568
2026-01-02 05:22:13.88	335.32	20.28	-55.0	-70.9	3.8	1.49e+00	0	32	104	0	75	23547
2026-01-02 05:22:16.88	334.64	20.10	-55.0	-71.0	3.8	1.49e+00	0	32	104	0	75	23637
2026-01-02 05:22:19.87	333.98	19.93	-55.0	-71.0	3.8	1.49e+00	0	33	104	0	75	23601
2026-01-02 05:22:22.86	333.32	19.75	-55.0	-71.0	3.8	1.49e+00	0	32	104	0	75	23586
2026-01-02 05:22:25.85	332.66	19.57	-55.0	-70.9	3.8	1.49e+00	0	32	104	0	75	23576
2026-01-02 05:22:28.83	332.02	19.39	-55.0	-71.0	3.8	1.49e+00	0	32	104	0	75	23613
2026-01-02 05:22:31.82	331.39	19.20	-55.0	-71.0	3.8	1.49e+00	0	32	104	0	75	23592
2026-01-02 05:22:34.81	330.76	19.02	-55.0	-70.9	3.8	1.49e+00	0	33	104	0	75	23574
2026-01-02 05:22:37.80	330.14	18.83	-55.0	-70.9	3.8	1.49e+00	0	32	104	0	75	23514
2026-01-02 05:22:40.81	329.52	18.63	-55.0	-70.9	3.8	1.49e+00	0	32	104	0	75	23565
2026-01-02 05:22:43.80	328.92	18.44	-55.0	-70.9	3.8	1.49e+00	0	32	104	0	75	23479
2026-01-02 05:22:46.80	328.32	18.24	-55.0	-70.9	3.8	1.49e+00	0	32	104	0	75	23529
2026-01-02 05:22:49.79	327.73	18.05	-55.0	-71.0	3.8	1.49e+00	0	32	104	0	75	23583
2026-01-02 05:22:52.79	327.14	17.85	-55.0	-70.9	3.8	1.49e+00	0	32	104	0	75	23500
2026-01-02 05:22:55.78	326.57	17.65	-55.0	-71.0	3.8	1.49e+00	0	32	104	0	75	23599
2026-01-02 05:22:58.78	326.00	17.45	-55.0	-71.0	3.8	1.49e+00	0	33	104	0	75	23600
2026-01-02 05:23:01.78	325.44	17.24	-55.0	-71.0	3.8	1.49e+00	0	32	104	0	75	23610
2026-01-02 05:23:04.78	324.89	17.04	-55.0	-70.9	3.8	1.49e+00	0	32	104	0	75	23544
2026-01-02 05:23:07.78	324.34	16.83	-55.0	-71.0	3.8	1.49e+00	0	32	104	0	75	23606
2026-01-02 05:23:10.78	323.81	16.63	-55.0	-70.9	3.8	1.49e+00	0	33	104	0	75	23516
2026-01-02 05:23:13.79	323.27	16.42	-55.0	-70.9	3.8	1.49e+00	0	32	104	0	75	23554
2026-01-02 05:23:16.78	322.75	16.21	-55.0	-70.9	3.8	1.49e+00	0	32	104	0	75	23522
2026-01-02 05:23:19.77	322.24	16.01	-55.0	-70.9	3.8	1.49e+00	0	32	104	0	75	23519
2026-01-02 05:23:22.76	321.73	15.80	-55.0	-70.9	3.8	1.49e+00	0	32	104	0	75	23578
2026-01-02 05:23:25.73	321.24	15.59	-55.0	-70.9	3.8	1.49e+00	0	32	104	0	75	23578
2026-01-02 05:23:28.71	320.74	15.38	-55.0	-70.9	3.8	1.49e+00	0	32	104	0	75	23487
2026-01-02 05:23:31.71	320.26	15.17	-55.0	-70.9	3.8	1.49e+00	0	32	104	0	75	23482
2026-01-02 05:23:34.70	319.78	14.96	-55.0	-70.9	3.8	1.49e+00	0	32	104	0	75	23437
2026-01-02 05:23:37.70	319.31	14.75	-55.0	-70.9	3.8	1.49e+00	0	32	104	0	75	23483
2026-01-02 05:23:40.70	318.84	14.54	-55.0	-70.9	3.8	1.49e+00	0	32	104	0	75	23519
2026-01-02 05:23:43.70	318.38	14.33	-55.0	-70.9	3.8	1.49e+00	0	33	104	0	75	23559
2026-01-02 05:23:46.70	317.93	14.12	-55.0	-71.0	3.8	1.49e+00	0	32	104	0	75	23600
2026-01-02 05:23:49.69	317.48	13.91	-55.0	-70.9	3.8	1.49e+00	0	33	104	0	75	23505
2026-01-02 05:23:52.70	317.04	13.70	-55.0	-70.9	3.8	1.49e+00	0	33	104	0	75	23526
2026-01-02 05:23:55.69	316.61	13.49	-55.0	-70.9	3.8	1.49e+00	0	32	104	0	75	23482
2026-01-02 05:23:58.69	316.18	13.28	-55.0	-70.9	3.8	1.49e+00	0	33	104	0	75	23460
2026-01-02 05:24:01.69	315.76	13.07	-55.0	-70.8	3.8	1.49e+00	0	33	104	0	75	23212
2026-01-02 05:24:04.69	315.34	12.86	-55.0	-70.8	3.8	1.49e+00	0	32	104	0	75	23178
2026-01-02 05:24:07.67	314.93	12.65	-55.0	-70.8	3.8	1.49e+00	0	33	104	0	75	23187
2026-01-02 05:24:10.67	314.53	12.44	-55.0	-70.9	3.8	1.49e+00	0	32	104	0	75	23400
2026-01-02 05:24:13.67	314.13	12.24	-55.0	-70.9	3.8	1.49e+00	0	32	104	0	75	23554
2026-01-02 05:24:16.68	313.74	12.03	-55.0	-70.9	3.8	1.49e+00	0	32	104	0	75	23504
2026-01-02 05:24:19.67	313.35	11.82	-55.0	-70.9	3.8	1.49e+00	0	32	104	0	75	23319
2026-01-02 05:24:22.67	312.97	11.61	-55.0	-70.9	3.8	1.49e+00	0	32	104	0	75	23375
2026-01-02 05:24:25.65	312.60	11.41	-55.0	-70.9	3.8	1.49e+00	0	32	104	0	75	23566
2026-01-02 05:24:28.63	312.23	11.20	-55.0	-70.9	3.8	1.49e+00	0	32	104	0	75	23529
2026-01-02 05:24:31.62	311.87	11.00	-55.0	-70.9	3.8	1.49e+00	0	33	104	0	75	23467
2026-01-02 05:24:34.62	311.51	10.79	-55.0	-71.0	3.8	1.49e+00	0	32	104	0	75	23598
2026-01-02 05:24:37.62	311.15	10.59	-55.0	-70.9	3.8	1.49e+00	0	33	104	0	75	23555
2026-01-02 05:24:40.62	310.80	10.38	-55.0	-71.0	3.8	1.49e+00	0	32	104	0	75	23588
2026-01-02 05:24:43.60	310.46	10.18	-55.0	-70.9	3.8	1.49e+00	0	32	104	0	75	23474
2026-01-02 05:24:46.60	310.12	9.98	-55.0	-70.9	3.8	1.49e+00	0	32	104	0	75	23484
2026-01-02 05:24:49.60	309.78	9.78	-55.0	-70.9	3.8	1.49e+00	0	33	104	0	75	23576
2026-01-02 05:24:52.61	309.45	9.58	-55.0	-71.0	3.8	1.49e+00	0	32	104	0	75	23591
2026-01-02 05:24:55.60	309.13	9.38	-55.0	-70.9	3.9	1.49e+00	0	32	104	0	75	23479
2026-01-02 05:24:58.61	308.81	9.18	-55.0	-70.9	3.8	1.49e+00	0	32	104	0	75	23551
2026-01-02 05:25:01.61	308.49	8.98	-55.0	-70.9	3.8	1.49e+00	0	33	104	0	75	23508
2026-01-02 05:25:04.61	308.18	8.78	-55.0	-70.9	3.8	1.49e+00	0	33	104	0	75	23493
2026-01-02 05:25:07.62	307.87	8.58	-55.0	-70.9	3.8	1.49e+00	0	32	104	0	75	23576
2026-01-02 05:25:10.62	307.57	8.38	-55.0	-70.9	3.8	1.49e+00	0	32	104	0	75	23554
2026-01-02 05:25:13.61	307.27	8.19	-55.0	-70.9	3.8	1.49e+00	0	32	104	0	75	23565
2026-01-02 05:25:16.59	306.97	7.99	-55.0	-70.9	3.8	1.49e+00	0	32	104	0	75	23541
2026-01-02 05:25:19.59	306.68	7.80	-54.8	-71.0	3.8	1.49e+00	0	32	104	0	75	23585
2026-01-02 05:25:22.58	306.40	7.61	-55.0	-70.9	3.8	1.49e+00	0	32	104	0	75	23516
2026-01-02 05:25:25.56	306.11	7.41	-55.0	-70.9	3.8	1.49e+00	0	32	104	0	75	23499
2026-01-02 05:25:28.55	305.84	7.22	-55.0	-71.0	3.8	1.49e+00	0	32	104	0	75	23597
2026-01-02 05:25:31.52	305.56	7.03	-55.0	-70.9	3.8	1.49e+00	0	32	104	0	75	23575
2026-01-02 05:25:34.50	305.29	6.84	-55.0	-70.9	3.8	1.49e+00	0	32	104	0	75	23489
2026-01-02 05:25:37.47	305.03	6.66	-55.0	-70.9	3.8	1.49e+00	0	32	104	0	75	23503
2026-01-02 05:25:40.47	304.76	6.47	-55.0	-70.9	3.8	1.49e+00	0	33	104	0	75	23545
2026-01-02 05:25:43.48	304.50	6.28	-55.0	-70.9	3.8	1.49e+00	0	32	104	0	75	23529
2026-01-02 05:25:46.48	304.24	6.09	-55.0	-70.9	3.8	1.49e+00	0	32	104	0	75	23529
2026-01-02 05:25:49.48	303.99	5.90	-55.0	-70.9	3.8	1.49e+00	0	32	104	0	75	23533
2026-01-02 05:25:52.48	303.74	5.72	-55.0	-70.9	3.8	1.49e+00	0	32	104	0	75	23550
2026-01-02 05:25:55.47	303.49	5.53	-55.0	-70.9	3.8	1.49e+00	0	33	104	0	75	23575
2026-01-02 05:25:58.47	303.24	5.35	-55.0	-70.9	3.8	1.49e+00	0	32	104	0	75	23575
2026-01-02 05:26:01.47	303.00	5.17	-55.0	-70.9	3.8	1.49e+00	0	33	104	0	75	23534
2026-01-02 05:26:04.47	302.77	4.98	-55.0	-71.0	3.8	1.49e+00	0	32	104	0	75	23593
2026-01-02 05:26:07.45	302.53	4.80	-55.0	-71.0	3.8	1.49e+00	0	33	104	0	75	23634
2026-01-02 05:26:10.44	302.30	4.62	-55.0	-70.9	3.8	1.49e+00	0	32	104	0	75	23545
2026-01-02 05:26:13.45	302.07	4.44	-55.0	-71.0	3.8	1.49e+00	0	32	104	0	75	23611
2026-01-02 05:26:16.44	301.85	4.26	-55.0	-70.9	3.8	1.49e+00	0	33	104	0	75	23495
2026-01-02 05:26:19.44	301.62	4.08	-55.0	-70.9	3.8	1.49e+00	0	33	104	0	75	23546
2026-01-02 05:26:22.43	301.40	3.91	-55.0	-70.9	3.8	1.49e+00	0	32	104	0	75	23537
2026-01-02 05:26:25.41	301.19	3.73	-55.0	-70.9	3.8	1.49e+00	0	33	104	0	75	23553
2026-01-02 05:26:28.40	300.97	3.55	-55.0	-70.9	3.8	1.49e+00	0	32	104	0	75	23510
2026-01-02 05:26:31.38	300.76	3.38	-55.0	-70.9	3.9	1.49e+00	0	33	104	0	75	23546
2026-01-02 05:26:34.36	300.55	3.20	-55.0	-71.0	3.8	1.49e+00	0	32	104	0	75	23605
2026-01-02 05:26:37.36	300.35	3.03	-55.0	-70.9	3.8	1.49e+00	0	33	104	0	75	23536
2026-01-02 05:26:40.37	300.14	2.86	-55.0	-70.9	3.8	1.49e+00	0	32	104	0	75	23558
2026-01-02 05:26:43.36	299.94	2.68	-55.0	-70.9	3.8	1.49e+00	0	32	104	0	75	23509
2026-01-02 05:26:46.37	299.74	2.51	-55.0	-70.9	3.8	1.49e+00	0	32	104	0	75	23547
2026-01-02 05:26:49.37	299.54	2.34	-55.0	-70.9	3.8	1.49e+00	0	32	104	0	75	23576
2026-01-02 05:26:52.38	299.35	2.17	-55.0	-70.9	3.8	1.49e+00	0	32	104	0	75	23579
2026-01-02 05:26:55.39	299.15	2.00	-55.0	-70.9	3.8	1.49e+00	0	33	104	0	75	23538

#Closed at: 2026-01-02 05:26:56
#Recorded file [0 MB]: D:/lorett/data/31004_260102_081417.dat