passes_logs/2026/01/02/R3.2S_Murmansk/R3.2S_Murmansk__20260102_054726_KANOPUS-V_5_rec.log

#Pass ID: 20260102_054726_KANOPUS-V 5
#Satellite: KANOPUS-V 5
#Configuration: KANOPUS-V_8320
#almurnet v.1.7.20251203
#Start time: 2026-01-02 05:47:26

#Version: 2.2.20231116
#Station: R3.2S_Murmansk
#Location: 33.079688 lon 68.888172 lat
#TLE: 1 43876U 18111A   25365.78559900  .00000034  00000+0  43243-5 0  9991
#TLE: 2 43876  97.3689 269.5581 0001682  83.9573 276.1856 15.23322632389307

#Time	Az	El	Level	Level2	SNR	BER	BlckErr	Temp	State	Recorded	gain1	gain2
2026-01-02 05:47:26.96	106.24	2.05	-56.0	-65.7	3.8	7.46e-01	0	31	0	0	75	11472
2026-01-02 05:47:29.94	106.01	2.25	-56.1	-65.8	3.8	7.46e-01	0	31	104	0	76	11001
2026-01-02 05:47:32.94	105.77	2.44	-56.1	-65.9	3.8	7.46e-01	0	31	104	0	76	11031
2026-01-02 05:47:35.95	105.54	2.64	-56.1	-65.8	3.8	7.45e-01	0	31	104	0	76	10996
2026-01-02 05:47:38.96	105.29	2.83	-56.1	-65.8	3.8	7.46e-01	0	31	104	0	76	11022
2026-01-02 05:47:41.95	105.04	3.03	-56.1	-65.8	3.8	7.46e-01	0	31	104	0	76	10977
2026-01-02 05:47:44.97	104.79	3.23	-56.1	-65.9	3.8	7.44e-01	0	31	104	0	76	11032
2026-01-02 05:47:47.96	104.54	3.44	-56.1	-65.8	3.8	7.44e-01	0	31	104	0	76	10980
2026-01-02 05:47:50.97	104.27	3.64	-56.1	-65.9	3.8	7.47e-01	0	31	104	0	76	11041
2026-01-02 05:47:53.96	104.01	3.84	-56.1	-65.8	3.8	7.45e-01	0	31	104	0	76	11010
2026-01-02 05:47:56.96	103.74	4.05	-56.1	-65.8	3.8	7.45e-01	0	32	104	0	76	11005
2026-01-02 05:47:59.93	103.46	4.26	-56.1	-65.8	3.8	7.45e-01	0	31	104	0	76	10957
2026-01-02 05:48:02.91	103.18	4.47	-56.1	-65.8	3.8	7.43e-01	0	32	104	0	76	11009
2026-01-02 05:48:05.90	102.90	4.68	-56.1	-65.8	3.8	7.45e-01	0	32	104	0	76	10983
2026-01-02 05:48:08.90	102.61	4.89	-56.1	-65.9	3.8	7.45e-01	0	32	104	0	76	11036
2026-01-02 05:48:11.90	102.31	5.11	-56.1	-65.8	3.8	7.45e-01	0	32	104	0	76	11006
2026-01-02 05:48:14.90	102.00	5.32	-56.1	-65.8	3.8	7.46e-01	0	32	104	0	76	11018
2026-01-02 05:48:17.90	101.69	5.54	-56.1	-65.9	3.8	7.47e-01	0	32	104	0	76	11041
2026-01-02 05:48:20.90	101.38	5.76	-56.1	-65.9	3.8	7.46e-01	0	32	104	0	76	11030
2026-01-02 05:48:23.89	101.06	5.98	-56.1	-65.9	3.8	7.46e-01	0	32	104	0	76	11087
2026-01-02 05:48:26.89	100.73	6.21	-56.1	-65.9	3.8	7.46e-01	0	32	104	0	76	11045
2026-01-02 05:48:29.90	100.39	6.43	-56.1	-65.9	3.8	7.45e-01	0	32	104	0	76	11073
2026-01-02 05:48:32.89	100.05	6.66	-56.1	-65.9	3.8	7.46e-01	0	32	104	0	76	11071
2026-01-02 05:48:35.88	99.70	6.89	-56.1	-65.9	3.8	7.44e-01	0	32	104	0	76	11054
2026-01-02 05:48:38.89	99.34	7.12	-56.1	-65.9	3.8	7.45e-01	0	32	104	0	76	11084
2026-01-02 05:48:41.87	98.98	7.35	-56.1	-65.8	3.8	7.46e-01	0	32	104	0	76	11009
2026-01-02 05:48:44.88	98.61	7.59	-56.1	-65.9	3.8	7.46e-01	0	32	104	0	76	11046
2026-01-02 05:48:47.88	98.23	7.83	-56.1	-65.9	3.8	7.45e-01	0	32	104	0	76	11062
2026-01-02 05:48:50.87	97.84	8.06	-56.1	-65.9	3.8	7.46e-01	0	32	104	0	76	11061
2026-01-02 05:48:53.88	97.45	8.31	-56.1	-65.9	3.8	7.45e-01	0	32	104	0	76	11041
2026-01-02 05:48:56.87	97.05	8.55	-56.1	-65.9	3.8	7.45e-01	0	32	104	0	76	11037
2026-01-02 05:48:59.86	96.63	8.79	-56.1	-65.9	3.8	7.46e-01	0	32	104	0	76	11040
2026-01-02 05:49:02.85	96.21	9.04	-56.2	-65.9	3.8	7.47e-01	0	33	104	0	76	11094
2026-01-02 05:49:05.84	95.78	9.29	-56.1	-65.9	3.9	7.46e-01	0	32	104	0	76	11066
2026-01-02 05:49:08.84	95.34	9.54	-56.2	-65.9	3.8	7.45e-01	0	32	104	0	76	11073
2026-01-02 05:49:11.83	94.90	9.79	-56.1	-65.9	3.8	7.46e-01	0	32	104	0	76	11080
2026-01-02 05:49:14.81	94.44	10.04	-56.1	-65.9	3.8	7.46e-01	0	32	104	0	76	11056
2026-01-02 05:49:17.81	93.97	10.30	-56.1	-65.9	3.8	7.45e-01	0	33	104	0	76	11053
2026-01-02 05:49:20.82	93.49	10.56	-56.2	-65.9	3.8	7.45e-01	0	32	104	0	76	11049
2026-01-02 05:49:23.84	92.99	10.82	-56.1	-65.9	3.8	7.44e-01	0	33	104	0	76	11067
2026-01-02 05:49:26.84	92.49	11.09	-56.2	-65.9	3.8	7.44e-01	0	33	104	0	76	11106
2026-01-02 05:49:29.84	91.98	11.35	-56.2	-65.9	3.8	7.47e-01	0	32	104	0	76	11085
2026-01-02 05:49:32.84	91.45	11.62	-56.2	-65.9	3.8	7.46e-01	0	32	104	0	76	11087
2026-01-02 05:49:35.85	90.91	11.89	-56.1	-65.9	3.8	7.46e-01	0	33	104	0	76	11082
2026-01-02 05:49:38.84	90.37	12.16	-56.2	-65.9	3.8	7.45e-01	0	33	104	0	76	11112
2026-01-02 05:49:41.83	89.81	12.43	-56.1	-65.9	3.8	7.46e-01	0	33	104	0	76	11054
2026-01-02 05:49:44.81	89.23	12.70	-56.2	-65.9	3.8	7.47e-01	0	33	104	0	76	11049
2026-01-02 05:49:47.80	88.65	12.98	-56.2	-65.9	3.8	7.47e-01	0	32	104	0	76	11044
2026-01-02 05:49:50.81	88.05	13.26	-56.2	-65.9	3.8	7.45e-01	0	33	104	0	76	11063
2026-01-02 05:49:53.80	87.43	13.53	-56.2	-65.9	3.8	7.46e-01	0	33	104	0	76	11084
2026-01-02 05:49:56.78	86.81	13.81	-56.1	-65.9	3.8	7.47e-01	0	33	104	0	76	11102
2026-01-02 05:49:59.79	86.16	14.09	-56.2	-65.9	3.8	7.43e-01	0	33	104	0	76	11061
2026-01-02 05:50:02.78	85.50	14.37	-56.2	-65.9	3.8	7.46e-01	0	33	104	0	76	11105
2026-01-02 05:50:05.76	84.83	14.66	-56.2	-65.9	3.8	7.45e-01	0	33	104	0	76	11109
2026-01-02 05:50:08.75	84.14	14.94	-56.1	-65.9	3.8	7.46e-01	0	33	104	0	76	11095
2026-01-02 05:50:11.74	83.44	15.22	-56.2	-65.9	3.8	7.46e-01	0	32	104	0	76	11100
2026-01-02 05:50:14.71	82.73	15.50	-56.2	-65.9	3.8	7.45e-01	0	33	104	0	76	11081
2026-01-02 05:50:17.71	81.99	15.79	-56.2	-65.9	3.8	7.45e-01	0	32	104	0	76	11117
2026-01-02 05:50:20.71	81.23	16.07	-56.2	-65.9	3.8	7.47e-01	0	33	104	0	76	11065
2026-01-02 05:50:23.69	80.46	16.36	-56.2	-65.9	3.8	7.46e-01	0	33	104	0	76	11062
2026-01-02 05:50:26.70	79.67	16.64	-56.2	-65.9	3.8	7.44e-01	0	33	104	0	76	11100
2026-01-02 05:50:29.70	78.86	16.93	-56.2	-65.9	3.8	7.45e-01	0	33	104	0	76	11126
2026-01-02 05:50:32.71	78.03	17.21	-56.2	-65.9	3.8	7.45e-01	0	33	104	0	76	11124
2026-01-02 05:50:35.70	77.19	17.49	-56.2	-65.9	3.8	7.45e-01	0	33	104	0	76	11100
2026-01-02 05:50:38.71	76.33	17.77	-56.2	-65.9	3.8	7.44e-01	0	33	104	0	76	11090
2026-01-02 05:50:41.71	75.44	18.05	-56.2	-65.9	3.8	7.44e-01	0	33	104	0	76	11090
2026-01-02 05:50:44.71	74.54	18.32	-56.2	-65.9	3.8	7.45e-01	0	33	104	0	76	11081
2026-01-02 05:50:47.71	73.62	18.60	-56.2	-65.9	3.8	7.45e-01	0	33	104	0	76	11077
2026-01-02 05:50:50.70	72.69	18.87	-56.2	-65.9	3.8	7.45e-01	0	33	104	0	76	11099
2026-01-02 05:50:53.70	71.73	19.13	-56.2	-65.9	3.8	7.47e-01	0	33	104	0	76	11093
2026-01-02 05:50:56.69	70.75	19.39	-56.2	-65.9	3.8	7.44e-01	0	33	104	0	76	11085
2026-01-02 05:50:59.67	69.76	19.65	-56.2	-65.9	3.8	7.47e-01	0	33	104	0	76	11118
2026-01-02 05:51:02.67	68.74	19.90	-56.2	-65.9	3.8	7.47e-01	0	33	104	0	76	11105
2026-01-02 05:51:05.67	67.71	20.15	-56.2	-65.9	3.8	7.45e-01	0	33	104	0	76	11107
2026-01-02 05:51:08.67	66.65	20.39	-56.2	-65.9	3.8	7.47e-01	0	33	104	0	76	11058
2026-01-02 05:51:11.66	65.58	20.62	-56.2	-65.9	3.8	7.46e-01	0	33	104	0	76	11101
2026-01-02 05:51:14.65	64.49	20.85	-56.2	-65.9	3.8	7.46e-01	0	33	104	0	76	11124
2026-01-02 05:51:17.65	63.38	21.07	-56.2	-65.9	3.8	7.44e-01	0	33	104	0	76	11119
2026-01-02 05:51:20.66	62.25	21.29	-56.2	-65.9	3.8	7.46e-01	0	33	104	0	76	11086
2026-01-02 05:51:23.66	61.10	21.49	-56.2	-65.9	3.8	7.47e-01	0	33	104	0	76	11127
2026-01-02 05:51:26.67	59.93	21.68	-56.2	-66.0	3.8	7.43e-01	0	33	104	0	76	11159
2026-01-02 05:51:29.66	58.76	21.87	-56.2	-65.9	3.8	7.45e-01	0	33	104	0	76	11115
2026-01-02 05:51:32.65	57.57	22.04	-56.2	-65.9	3.8	7.45e-01	0	33	104	0	76	11117
2026-01-02 05:51:35.65	56.36	22.21	-56.2	-65.9	3.8	7.46e-01	0	33	104	0	76	11123
2026-01-02 05:51:38.65	55.13	22.36	-56.2	-66.0	3.8	7.44e-01	0	33	104	0	76	11163
2026-01-02 05:51:41.65	53.90	22.50	-56.2	-65.9	3.8	7.45e-01	0	33	104	0	76	11087
2026-01-02 05:51:44.65	52.65	22.63	-56.2	-65.9	3.8	7.46e-01	0	33	104	0	76	11133
2026-01-02 05:51:47.64	51.39	22.75	-56.2	-65.9	3.8	7.46e-01	0	33	104	0	76	11109
2026-01-02 05:51:50.65	50.11	22.85	-56.2	-66.0	3.8	7.46e-01	0	33	104	0	76	11162
2026-01-02 05:51:53.65	48.83	22.94	-56.2	-65.9	3.8	7.46e-01	0	33	104	0	76	11103
2026-01-02 05:51:56.64	47.55	23.02	-56.2	-65.9	3.8	7.46e-01	0	33	104	0	76	11137
2026-01-02 05:51:59.61	46.27	23.08	-56.2	-66.0	3.8	7.47e-01	0	33	104	0	76	11183
2026-01-02 05:52:02.61	44.97	23.13	-56.2	-66.0	3.8	7.46e-01	0	33	104	0	76	11160
2026-01-02 05:52:05.60	43.67	23.17	-56.2	-65.9	3.8	7.45e-01	0	33	104	0	76	11145
2026-01-02 05:52:08.58	42.38	23.19	-56.2	-65.9	3.8	7.45e-01	0	33	104	0	76	11119
2026-01-02 05:52:11.57	41.07	23.19	-56.2	-65.9	3.8	7.46e-01	0	33	104	0	76	11119
2026-01-02 05:52:14.56	39.77	23.18	-56.2	-65.9	3.8	7.45e-01	0	33	104	0	76	11085
2026-01-02 05:52:17.56	38.47	23.16	-56.2	-65.9	3.8	7.46e-01	0	33	104	0	76	11113
2026-01-02 05:52:20.56	37.17	23.13	-56.2	-65.9	3.8	7.45e-01	0	33	104	0	76	11136
2026-01-02 05:52:23.55	35.87	23.07	-56.2	-65.9	3.8	7.46e-01	0	33	104	0	76	11136
2026-01-02 05:52:26.56	34.58	23.01	-56.2	-65.9	3.8	7.46e-01	0	33	104	0	76	11120
2026-01-02 05:52:29.56	33.29	22.93	-56.2	-65.9	3.8	7.47e-01	0	33	104	0	76	11145
2026-01-02 05:52:32.56	32.01	22.84	-56.2	-65.9	3.8	7.46e-01	0	33	104	0	76	11153
2026-01-02 05:52:35.56	30.74	22.73	-56.2	-65.9	3.8	7.46e-01	0	33	104	0	76	11132
2026-01-02 05:52:38.56	29.49	22.61	-56.2	-65.9	3.8	7.45e-01	0	33	104	0	76	11134
2026-01-02 05:52:41.57	28.24	22.48	-56.2	-65.9	3.8	7.45e-01	0	33	104	0	76	11154
2026-01-02 05:52:44.57	27.00	22.34	-56.2	-65.9	3.8	7.45e-01	0	33	104	0	76	11141
2026-01-02 05:52:47.57	25.78	22.18	-56.2	-65.9	3.8	7.47e-01	0	33	104	0	76	11128
2026-01-02 05:52:50.58	24.57	22.02	-56.2	-65.9	3.8	7.44e-01	0	33	104	0	76	11134
2026-01-02 05:52:53.58	23.38	21.84	-56.2	-65.9	3.8	7.45e-01	0	33	104	0	76	11110
2026-01-02 05:52:56.58	22.21	21.66	-56.2	-65.9	3.8	7.44e-01	0	33	104	0	76	11156
2026-01-02 05:52:59.57	21.05	21.46	-56.2	-65.9	3.8	7.45e-01	0	33	104	0	76	11145
2026-01-02 05:53:02.57	19.91	21.26	-56.2	-66.0	3.8	7.46e-01	0	33	104	0	76	11176
2026-01-02 05:53:05.55	18.80	21.04	-56.2	-66.0	3.8	7.46e-01	0	33	104	0	76	11183
2026-01-02 05:53:08.54	17.69	20.82	-56.2	-65.9	3.8	7.44e-01	0	33	104	0	76	11155
2026-01-02 05:53:11.53	16.61	20.60	-56.2	-66.0	3.8	7.46e-01	0	33	104	0	76	11172
2026-01-02 05:53:14.52	15.54	20.36	-56.2	-65.9	3.8	7.45e-01	0	33	104	0	76	11149
2026-01-02 05:53:17.51	14.50	20.12	-56.2	-66.0	3.8	7.45e-01	0	33	104	0	76	11182
2026-01-02 05:53:20.52	13.46	19.87	-56.2	-65.9	3.8	7.47e-01	0	33	104	0	76	11117
2026-01-02 05:53:23.53	12.45	19.62	-56.2	-66.0	3.8	7.45e-01	0	33	104	0	76	11210
2026-01-02 05:53:26.54	11.45	19.36	-56.2	-65.9	3.8	7.45e-01	0	33	104	0	76	11148
2026-01-02 05:53:29.54	10.48	19.10	-56.2	-65.9	3.8	7.45e-01	0	33	104	0	76	11146
2026-01-02 05:53:32.54	9.53	18.83	-56.2	-66.0	3.8	7.44e-01	0	33	104	0	76	11167
2026-01-02 05:53:35.55	8.59	18.56	-56.2	-65.9	3.8	7.46e-01	0	33	104	0	76	11154
2026-01-02 05:53:38.54	7.68	18.29	-56.2	-65.9	3.8	7.46e-01	0	33	104	0	76	11120
2026-01-02 05:53:41.55	6.78	18.02	-56.2	-65.9	3.8	7.46e-01	0	33	104	0	76	11150
2026-01-02 05:53:44.55	5.91	17.74	-56.2	-66.0	3.8	7.45e-01	0	33	104	0	76	11158
2026-01-02 05:53:47.56	5.05	17.46	-56.2	-66.0	3.8	7.45e-01	0	33	104	0	76	11170
2026-01-02 05:53:50.57	4.21	17.18	-56.2	-65.9	3.8	7.46e-01	0	33	104	0	76	11114
2026-01-02 05:53:53.58	3.38	16.89	-56.2	-66.0	3.8	7.45e-01	0	33	104	0	76	11187
2026-01-02 05:53:56.58	2.58	16.61	-56.2	-65.9	3.8	7.46e-01	0	33	104	0	76	11149
2026-01-02 05:53:59.57	1.80	16.33	-56.2	-65.9	3.8	7.44e-01	0	33	104	0	76	11153
2026-01-02 05:54:02.57	1.03	16.04	-56.2	-66.0	3.8	7.48e-01	0	33	104	0	76	11172
2026-01-02 05:54:05.58	0.28	15.76	-56.2	-66.0	3.8	7.44e-01	0	33	104	0	76	11162
2026-01-02 05:54:08.57	359.55	15.48	-56.2	-66.0	3.8	7.46e-01	0	33	104	0	76	11173
2026-01-02 05:54:11.57	358.83	15.19	-56.2	-66.0	3.8	7.45e-01	0	33	104	0	76	11181
2026-01-02 05:54:14.55	358.14	14.91	-56.2	-65.9	3.8	7.45e-01	0	33	104	0	76	11136
2026-01-02 05:54:17.54	357.45	14.63	-56.2	-65.9	3.8	7.45e-01	0	33	104	0	76	11141
2026-01-02 05:54:20.54	356.79	14.35	-56.2	-66.0	3.8	7.46e-01	0	33	104	0	76	11177
2026-01-02 05:54:23.54	356.13	14.07	-56.2	-66.0	3.8	7.45e-01	0	33	104	0	76	11162
2026-01-02 05:54:26.54	355.49	13.79	-56.2	-65.9	3.8	7.44e-01	0	33	104	0	76	11118
2026-01-02 05:54:29.55	354.87	13.51	-56.2	-65.9	3.8	7.44e-01	0	33	104	0	76	11151
2026-01-02 05:54:32.55	354.26	13.23	-56.2	-66.0	3.8	7.45e-01	0	33	104	0	76	11166
2026-01-02 05:54:35.54	353.66	12.96	-56.2	-65.9	3.8	7.44e-01	0	33	104	0	76	11134
2026-01-02 05:54:38.53	353.08	12.68	-56.2	-66.0	3.8	7.45e-01	0	33	104	0	76	11189
2026-01-02 05:54:41.53	352.51	12.41	-56.2	-66.0	3.8	7.44e-01	0	33	104	0	76	11196
2026-01-02 05:54:44.52	351.95	12.14	-56.2	-66.0	3.8	7.47e-01	0	33	104	0	76	11201
2026-01-02 05:54:47.53	351.41	11.87	-56.2	-66.0	3.8	7.45e-01	0	33	104	0	76	11167
2026-01-02 05:54:50.53	350.88	11.60	-56.3	-66.0	3.8	7.45e-01	0	33	104	0	76	11211
2026-01-02 05:54:53.53	350.36	11.34	-56.2	-65.9	3.8	7.46e-01	0	33	104	0	76	11146
2026-01-02 05:54:56.54	349.84	11.07	-56.2	-65.9	3.8	7.45e-01	0	33	104	0	76	11156
2026-01-02 05:54:59.54	349.35	10.81	-56.2	-66.0	3.8	7.45e-01	0	33	104	0	76	11176
2026-01-02 05:55:02.54	348.86	10.55	-56.2	-66.0	3.8	7.45e-01	0	33	104	0	76	11201
2026-01-02 05:55:05.54	348.38	10.29	-56.2	-66.0	3.8	7.46e-01	0	33	104	0	76	11189
2026-01-02 05:55:08.54	347.92	10.04	-56.2	-66.0	3.8	7.47e-01	0	33	104	0	76	11166
2026-01-02 05:55:11.53	347.46	9.78	-56.2	-65.9	3.8	7.47e-01	0	33	104	0	76	11144
2026-01-02 05:55:14.53	347.02	9.53	-56.2	-66.0	3.8	7.45e-01	0	33	104	0	76	11220
2026-01-02 05:55:17.53	346.58	9.28	-56.2	-66.0	3.8	7.46e-01	0	33	104	0	76	11179
2026-01-02 05:55:20.51	346.16	9.04	-56.2	-65.9	3.8	7.46e-01	0	33	104	0	76	11145
2026-01-02 05:55:23.51	345.74	8.79	-56.2	-65.9	3.8	7.46e-01	0	33	104	0	76	11157
2026-01-02 05:55:26.51	345.33	8.55	-56.2	-66.0	3.8	7.45e-01	0	33	104	0	76	11168
2026-01-02 05:55:29.50	344.93	8.30	-56.2	-66.0	3.8	7.45e-01	0	33	104	0	76	11210
2026-01-02 05:55:32.51	344.54	8.06	-56.2	-66.0	3.8	7.44e-01	0	33	104	0	76	11184
2026-01-02 05:55:35.50	344.16	7.83	-56.2	-65.9	3.8	7.45e-01	0	33	104	0	76	11151
2026-01-02 05:55:38.51	343.78	7.59	-56.2	-66.0	3.8	7.47e-01	0	33	104	0	76	11178
2026-01-02 05:55:41.51	343.41	7.35	-56.2	-66.0	3.8	7.46e-01	0	33	104	0	76	11161
2026-01-02 05:55:44.50	343.05	7.12	-56.2	-65.9	3.8	7.47e-01	0	33	104	0	76	11156
2026-01-02 05:55:47.49	342.70	6.89	-56.3	-66.0	3.8	7.44e-01	0	33	104	0	76	11190
2026-01-02 05:55:50.48	342.36	6.67	-56.2	-66.0	3.8	7.47e-01	0	33	104	0	76	11160
2026-01-02 05:55:53.49	342.02	6.44	-56.2	-66.0	3.8	7.44e-01	0	33	104	0	76	11239
2026-01-02 05:55:56.49	341.69	6.21	-56.2	-66.0	3.8	7.46e-01	0	33	104	0	76	11169
2026-01-02 05:55:59.49	341.36	5.99	-56.2	-66.0	3.8	7.46e-01	0	33	104	0	76	11202
2026-01-02 05:56:02.48	341.04	5.77	-56.2	-66.0	3.8	7.47e-01	0	33	104	0	76	11164
2026-01-02 05:56:05.47	340.73	5.55	-56.2	-66.0	3.8	7.44e-01	0	33	104	0	76	11180
2026-01-02 05:56:08.47	340.42	5.33	-56.3	-66.0	3.8	7.47e-01	0	33	104	0	76	11223
2026-01-02 05:56:11.47	340.12	5.12	-56.2	-66.0	3.8	7.45e-01	0	33	104	0	76	11196
2026-01-02 05:56:14.46	339.83	4.91	-56.3	-66.0	3.8	7.46e-01	0	33	104	0	76	11177
2026-01-02 05:56:17.46	339.54	4.69	-56.2	-66.0	3.8	7.44e-01	0	33	104	0	76	11188
2026-01-02 05:56:20.46	339.25	4.48	-56.3	-66.0	3.8	7.46e-01	0	33	104	0	76	11224
2026-01-02 05:56:23.45	338.98	4.27	-56.3	-66.0	3.8	7.46e-01	0	33	104	0	76	11213
2026-01-02 05:56:26.45	338.70	4.07	-56.3	-66.0	3.8	7.44e-01	0	33	104	0	76	11208
2026-01-02 05:56:29.45	338.44	3.86	-56.2	-66.0	3.8	7.47e-01	0	33	104	0	76	11191
2026-01-02 05:56:32.44	338.17	3.66	-56.3	-66.0	3.8	7.47e-01	0	33	104	0	76	11191
2026-01-02 05:56:35.45	337.91	3.45	-56.3	-66.0	3.8	7.44e-01	0	33	104	0	76	11198
2026-01-02 05:56:38.45	337.66	3.25	-56.3	-66.0	3.8	7.44e-01	0	33	104	0	76	11191
2026-01-02 05:56:41.45	337.41	3.05	-56.3	-66.0	3.8	7.46e-01	0	33	104	0	76	11175
2026-01-02 05:56:44.44	337.17	2.86	-56.2	-66.0	3.8	7.45e-01	0	33	104	0	76	11174
2026-01-02 05:56:47.43	336.93	2.66	-56.2	-66.0	3.8	7.46e-01	0	33	104	0	76	11163
2026-01-02 05:56:50.43	336.69	2.46	-56.2	-66.0	3.8	7.46e-01	0	33	104	0	76	11206
2026-01-02 05:56:53.43	336.46	2.27	-56.2	-66.0	3.8	7.47e-01	0	33	104	0	76	11199
2026-01-02 05:56:56.44	336.23	2.08	-56.3	-66.0	3.8	7.46e-01	0	33	104	0	76	11219
2026-01-02 05:56:59.43	336.01	1.89	-56.3	-66.0	3.8	7.46e-01	0	33	104	0	76	11209

#Closed at: 2026-01-02 05:57:00
#Recorded file [0 MB]: D:/lorett/data/31004_260102_084726.dat