passes_logs/2026/01/02/R3.2S_Murmansk/R3.2S_Murmansk__20260102_103311_NOAA_20_JPSS-1_rec.log

#Pass ID: 20260102_103311_NOAA 20 (JPSS-1)
#Satellite: NOAA 20 (JPSS-1)
#Configuration: NOAA 20
#almurnet v.1.7.20251203
#Start time: 2026-01-02 10:33:13

#Version: 2.2.20231116
#Station: R3.2S_Murmansk
#Location: 33.079688 lon 68.888172 lat
#TLE: 1 43013U 17073A   26001.09198674  .00000169  00000+0  10130-3 0  9995
#TLE: 2 43013  98.7621 302.1793 0001944  59.5293 300.6075 14.19531878420769

#Time	Az	El	Level	Level2	SNR	BER	BlckErr	Temp	State	Recorded	gain1	gain2
2026-01-02 10:33:13.25	177.00	2.11	-60.1	-75.6	3.8	1.49e+00	0	31	0	0	86	21268
2026-01-02 10:33:17.22	177.12	2.36	-60.1	-75.5	3.8	1.49e+00	0	30	104	0	85	22462
2026-01-02 10:33:21.20	177.25	2.62	-60.1	-75.4	3.8	1.49e+00	0	31	104	0	85	22158
2026-01-02 10:33:25.16	177.39	2.87	-60.1	-75.6	3.8	1.49e+00	0	31	104	0	85	22778
2026-01-02 10:33:29.13	177.52	3.13	-60.1	-75.5	3.8	1.49e+00	0	31	104	0	85	22327
2026-01-02 10:33:33.10	177.65	3.39	-60.1	-75.6	3.8	1.49e+00	0	31	104	0	85	22770
2026-01-02 10:33:37.07	177.79	3.65	-60.1	-74.6	3.8	1.49e+00	0	31	104	0	85	20104
2026-01-02 10:33:41.05	177.93	3.91	-59.9	-71.0	4.6	1.03e+00	0	31	0	1048576	85	13383
2026-01-02 10:33:45.02	178.08	4.18	-59.7	-68.8	5.7	4.13e-01	0	31	0	8388608	85	10345
2026-01-02 10:33:48.99	178.22	4.45	-59.4	-66.9	7.2	1.15e-01	0	31	0	15728640	85	8272
2026-01-02 10:33:52.96	178.37	4.72	-58.8	-64.4	9.3	1.08e-02	0	31	0	24117248	84	6621
2026-01-02 10:33:56.94	178.52	4.99	-58.3	-63.3	10.2	1.94e-03	0	31	0	31457280	83	6163
2026-01-02 10:34:00.92	178.67	5.27	-59.7	-69.3	5.5	4.44e-03	0	31	0	38797312	84	11576
2026-01-02 10:34:04.89	178.83	5.55	-55.7	-57.9	14.2	0.00e+00	0	31	0	42991616	78	4430
2026-01-02 10:34:08.88	178.98	5.84	-55.8	-58.0	14.1	0.00e+00	0	31	0	50331648	78	4472
2026-01-02 10:34:12.86	179.14	6.12	-55.7	-57.9	14.2	0.00e+00	0	31	0	57671680	78	4402
2026-01-02 10:34:16.83	179.31	6.41	-55.6	-57.7	14.3	0.00e+00	0	31	0	65011712	77	4552
2026-01-02 10:34:20.80	179.47	6.70	-55.7	-57.8	14.3	0.00e+00	0	31	0	72351744	77	4621
2026-01-02 10:34:24.79	179.65	7.00	-55.7	-57.8	14.3	0.00e+00	0	31	0	80740352	77	4620
2026-01-02 10:34:28.77	179.82	7.30	-55.6	-57.7	14.4	0.00e+00	0	31	0	88080384	77	4563
2026-01-02 10:34:32.74	179.99	7.60	-55.6	-57.6	14.4	0.00e+00	0	31	0	95420416	77	4538
2026-01-02 10:34:36.70	180.17	7.90	-55.5	-57.5	14.5	0.00e+00	0	31	0	102760448	77	4474
2026-01-02 10:34:40.68	180.36	8.21	-55.5	-57.4	14.6	0.00e+00	0	32	0	110100480	77	4432
2026-01-02 10:34:44.65	180.54	8.52	-55.3	-57.2	14.7	0.00e+00	0	31	0	117440512	77	4307
2026-01-02 10:34:48.61	180.73	8.84	-55.3	-57.1	14.8	0.00e+00	0	31	0	124780544	77	4290
2026-01-02 10:34:52.58	180.93	9.16	-55.2	-57.0	14.8	0.00e+00	0	31	0	132120576	76	4484
2026-01-02 10:34:56.56	181.13	9.48	-55.2	-56.9	14.8	0.00e+00	0	32	0	139460608	76	4432
2026-01-02 10:35:00.52	181.33	9.81	-55.0	-56.8	14.9	0.00e+00	0	31	0	146800640	76	4342
2026-01-02 10:35:04.49	181.53	10.14	-54.9	-56.6	15.0	0.00e+00	0	31	0	155189248	76	4272
2026-01-02 10:35:08.46	181.75	10.47	-54.9	-56.6	15.1	0.00e+00	0	32	0	162529280	76	4259
2026-01-02 10:35:12.43	181.96	10.81	-54.8	-56.4	15.1	0.00e+00	0	32	0	169869312	76	4188
2026-01-02 10:35:16.42	182.18	11.16	-54.6	-56.2	15.2	0.00e+00	0	32	0	177209344	75	4304
2026-01-02 10:35:20.39	182.41	11.51	-54.6	-56.2	15.1	0.00e+00	0	32	0	184549376	75	4331
2026-01-02 10:35:24.36	182.64	11.86	-54.5	-56.1	15.3	0.00e+00	0	32	0	191889408	75	4254
2026-01-02 10:35:28.33	182.87	12.22	-54.4	-55.8	15.4	0.00e+00	0	32	0	199229440	75	4145
2026-01-02 10:35:32.32	183.12	12.58	-54.4	-55.9	15.3	0.00e+00	0	32	0	206569472	74	4405
2026-01-02 10:35:36.30	183.36	12.95	-54.3	-55.7	15.4	0.00e+00	0	32	0	214958080	74	4327
2026-01-02 10:35:40.26	183.61	13.33	-54.2	-55.7	15.5	0.00e+00	0	32	0	222298112	74	4292
2026-01-02 10:35:44.23	183.87	13.70	-54.2	-55.6	15.5	0.00e+00	0	31	0	229638144	74	4244
2026-01-02 10:35:48.19	184.14	14.09	-54.0	-55.3	15.6	0.00e+00	0	32	0	236978176	74	4118
2026-01-02 10:35:52.16	184.41	14.48	-54.0	-55.3	15.6	0.00e+00	0	32	0	244318208	74	4138
2026-01-02 10:35:56.13	184.69	14.87	-53.9	-55.2	15.7	0.00e+00	0	32	0	251658240	74	4076
2026-01-02 10:36:00.11	184.97	15.28	-53.8	-55.1	15.7	0.00e+00	0	32	0	258998272	74	4006
2026-01-02 10:36:04.09	185.27	15.68	-53.7	-55.0	15.8	0.00e+00	0	32	0	266338304	74	3966
2026-01-02 10:36:08.09	185.57	16.10	-53.6	-54.9	15.7	0.00e+00	0	32	0	273678336	73	4159
2026-01-02 10:36:12.06	185.88	16.52	-53.4	-54.6	15.9	0.00e+00	0	32	0	281018368	73	4036
2026-01-02 10:36:16.04	186.20	16.95	-53.3	-54.5	15.9	0.00e+00	0	32	0	288358400	73	4000
2026-01-02 10:36:20.01	186.52	17.38	-53.2	-54.4	15.9	0.00e+00	0	32	0	296747008	72	4175
2026-01-02 10:36:23.99	186.86	17.83	-53.2	-54.4	16.0	0.00e+00	0	32	0	304087040	72	4151
2026-01-02 10:36:27.96	187.20	18.27	-53.2	-54.4	16.0	0.00e+00	0	32	0	311427072	72	4148
2026-01-02 10:36:31.92	187.56	18.73	-53.0	-54.1	16.1	0.00e+00	0	32	0	318767104	72	4038
2026-01-02 10:36:35.91	187.92	19.19	-53.0	-54.2	16.0	0.00e+00	0	32	0	326107136	72	4054
2026-01-02 10:36:39.90	188.30	19.66	-53.0	-54.2	16.1	0.00e+00	0	32	0	333447168	72	4052
2026-01-02 10:36:43.86	188.69	20.14	-53.1	-54.2	16.0	0.00e+00	0	32	0	340787200	72	4082
2026-01-02 10:36:47.83	189.08	20.63	-53.1	-54.3	16.0	0.00e+00	0	32	0	348127232	72	4112
2026-01-02 10:36:51.79	189.49	21.12	-53.2	-54.3	16.0	0.00e+00	0	32	0	355467264	72	4115
2026-01-02 10:36:55.74	189.91	21.62	-53.1	-54.2	16.1	0.00e+00	0	32	0	362807296	72	4093
2026-01-02 10:36:59.71	190.35	22.13	-53.0	-54.1	16.1	0.00e+00	0	32	0	371195904	72	4029
2026-01-02 10:37:03.68	190.80	22.65	-52.7	-53.8	16.2	0.00e+00	0	32	0	378535936	72	3881
2026-01-02 10:37:07.64	191.27	23.18	-52.9	-54.0	16.2	0.00e+00	0	32	0	385875968	72	3970
2026-01-02 10:37:11.62	191.75	23.72	-52.8	-53.8	16.2	0.00e+00	0	32	0	393216000	72	3909
2026-01-02 10:37:15.58	192.25	24.27	-52.9	-54.0	16.2	0.00e+00	0	32	0	400556032	72	3969
2026-01-02 10:37:19.53	192.76	24.82	-53.2	-54.3	16.0	0.00e+00	0	32	0	407896064	72	4134
2026-01-02 10:37:23.49	193.29	25.38	-53.5	-54.7	15.9	0.00e+00	0	32	0	415236096	72	4305
2026-01-02 10:37:27.47	193.85	25.96	-53.8	-55.0	15.8	0.00e+00	0	32	0	422576128	72	4484
2026-01-02 10:37:31.44	194.42	26.55	-53.9	-55.1	15.8	0.00e+00	0	32	0	429916160	73	4278
2026-01-02 10:37:35.41	195.01	27.14	-54.2	-55.5	15.7	0.00e+00	0	32	0	437256192	73	4454
2026-01-02 10:37:39.38	195.63	27.75	-54.1	-55.3	15.7	0.00e+00	0	32	0	445644800	73	4389
2026-01-02 10:37:43.35	196.26	28.37	-54.4	-55.8	15.6	0.00e+00	0	32	0	452984832	74	4359
2026-01-02 10:37:47.33	196.93	28.99	-55.2	-56.8	15.2	0.00e+00	0	32	0	460324864	75	4605
2026-01-02 10:37:51.31	197.62	29.63	-55.8	-57.5	14.9	0.00e+00	0	32	0	467664896	76	4740
2026-01-02 10:37:55.28	198.33	30.28	-55.9	-57.6	14.8	0.00e+00	0	32	0	475004928	76	4785
2026-01-02 10:37:59.25	199.08	30.93	-55.9	-57.6	14.8	0.00e+00	0	32	0	482344960	76	4807
2026-01-02 10:38:03.23	199.85	31.60	-56.1	-57.9	14.8	0.00e+00	0	32	0	489684992	77	4669
2026-01-02 10:38:07.21	200.66	32.27	-56.1	-57.9	14.8	0.00e+00	0	32	0	497025024	78	4434
2026-01-02 10:38:11.17	201.50	32.96	-55.7	-57.4	15.1	0.00e+00	0	32	0	504365056	78	4169
2026-01-02 10:38:15.14	202.38	33.65	-55.3	-56.9	15.3	0.00e+00	0	32	0	511705088	77	4168
2026-01-02 10:38:19.11	203.29	34.35	-54.8	-56.2	15.6	0.00e+00	0	32	0	520093696	76	4056
2026-01-02 10:38:23.10	204.25	35.06	-54.5	-55.8	15.7	0.00e+00	0	32	0	527433728	75	4125
2026-01-02 10:38:27.08	205.24	35.78	-54.0	-55.2	15.9	0.00e+00	0	32	0	534773760	74	4089
2026-01-02 10:38:31.05	206.28	36.50	-53.7	-54.9	16.0	0.00e+00	0	32	0	542113792	74	3945
2026-01-02 10:38:35.03	207.37	37.23	-53.2	-54.3	16.2	0.00e+00	0	32	0	549453824	73	3880
2026-01-02 10:38:39.01	208.50	37.96	-53.8	-55.0	15.9	0.00e+00	0	32	0	556793856	73	4208
2026-01-02 10:38:42.99	209.69	38.70	-53.4	-54.5	16.1	0.00e+00	0	32	0	564133888	73	3986
2026-01-02 10:38:46.99	210.94	39.44	-53.8	-54.9	16.0	0.00e+00	0	32	0	571473920	73	4185
2026-01-02 10:38:50.97	212.24	40.18	-54.1	-55.4	15.8	0.00e+00	0	32	0	579862528	73	4400
2026-01-02 10:38:54.93	213.59	40.91	-53.8	-55.0	15.9	0.00e+00	0	32	0	587202560	73	4228
2026-01-02 10:38:58.91	215.01	41.65	-54.1	-55.3	15.8	0.00e+00	0	32	0	594542592	73	4391
2026-01-02 10:39:02.87	216.49	42.37	-54.4	-55.7	15.7	0.00e+00	0	32	0	601882624	74	4333
2026-01-02 10:39:06.84	218.03	43.09	-54.3	-55.5	15.8	0.00e+00	0	32	0	609222656	74	4239
2026-01-02 10:39:10.81	219.65	43.80	-54.7	-56.0	15.6	0.00e+00	0	32	0	616562688	74	4467
2026-01-02 10:39:14.78	221.34	44.50	-54.8	-56.2	15.5	0.00e+00	0	32	0	623902720	75	4339
2026-01-02 10:39:18.77	223.11	45.18	-55.3	-56.8	15.4	0.00e+00	0	32	0	631242752	76	4385
2026-01-02 10:39:22.74	224.95	45.84	-55.3	-56.8	15.3	0.00e+00	0	32	0	638582784	76	4380
2026-01-02 10:39:26.71	226.86	46.48	-55.2	-56.6	15.5	0.00e+00	0	32	0	645922816	76	4291
2026-01-02 10:39:30.67	228.85	47.09	-55.0	-56.4	15.5	0.00e+00	0	32	0	654311424	76	4176
2026-01-02 10:39:34.64	230.91	47.67	-54.8	-56.2	15.7	0.00e+00	0	32	0	661651456	76	4065
2026-01-02 10:39:38.62	233.06	48.22	-54.9	-56.3	15.5	0.00e+00	0	32	0	668991488	75	4390
2026-01-02 10:39:42.59	235.28	48.73	-54.6	-55.9	15.7	0.00e+00	0	32	0	676331520	75	4160
2026-01-02 10:39:46.56	237.57	49.20	-54.8	-56.2	15.6	0.00e+00	0	32	0	683671552	75	4311
2026-01-02 10:39:50.56	239.94	49.63	-55.8	-57.4	15.1	0.00e+00	0	32	0	691011584	76	4662
2026-01-02 10:39:54.52	242.35	50.00	-55.2	-56.7	15.5	0.00e+00	0	32	0	698351616	77	4058
2026-01-02 10:39:58.48	244.81	50.32	-55.3	-56.8	15.4	0.00e+00	0	32	0	705691648	76	4360
2026-01-02 10:40:02.47	247.35	50.59	-54.2	-55.4	15.9	0.00e+00	0	32	0	713031680	74	4158
2026-01-02 10:40:06.44	249.91	50.81	-54.8	-56.1	15.6	0.00e+00	0	32	0	720371712	74	4532
2026-01-02 10:40:10.41	252.50	50.96	-53.7	-54.9	16.1	0.00e+00	0	32	0	728760320	74	3920
2026-01-02 10:40:14.40	255.12	51.05	-54.2	-55.4	15.8	0.00e+00	0	32	0	736100352	73	4413
2026-01-02 10:40:18.36	257.74	51.09	-54.1	-55.3	15.9	0.00e+00	0	32	0	743440384	73	4342
2026-01-02 10:40:22.33	260.36	51.05	-54.3	-55.6	15.8	0.00e+00	0	32	0	750780416	74	4249
2026-01-02 10:40:26.31	262.98	50.96	-54.2	-55.5	15.8	0.00e+00	0	32	0	758120448	74	4194
2026-01-02 10:40:30.28	265.57	50.81	-55.3	-56.7	15.4	0.00e+00	0	32	0	765460480	76	4319
2026-01-02 10:40:34.25	268.13	50.60	-54.6	-55.9	15.6	0.00e+00	0	32	0	772800512	74	4420
2026-01-02 10:40:38.21	270.64	50.33	-54.3	-55.6	15.9	0.00e+00	0	32	0	780140544	75	4037
2026-01-02 10:40:42.20	273.13	50.01	-54.8	-56.1	15.7	0.00e+00	0	32	0	788529152	76	4030
2026-01-02 10:40:46.18	275.55	49.63	-56.9	-58.9	14.4	0.00e+00	0	32	0	795869184	79	4688
2026-01-02 10:40:50.14	277.89	49.21	-57.6	-60.0	13.9	0.00e+00	0	32	0	803209216	80	4999
2026-01-02 10:40:54.12	280.18	48.74	-57.3	-59.6	14.1	0.00e+00	0	32	0	810549248	80	4763
2026-01-02 10:40:58.07	282.39	48.24	-57.3	-59.5	14.2	0.00e+00	0	32	0	817889280	81	4480
2026-01-02 10:41:02.04	284.53	47.69	-57.7	-60.1	13.8	0.00e+00	0	32	0	825229312	81	4802
2026-01-02 10:41:06.01	286.59	47.11	-56.9	-58.9	14.5	0.00e+00	0	32	0	832569344	79	4670
2026-01-02 10:41:09.98	288.58	46.50	-55.8	-57.3	15.3	0.00e+00	0	32	0	839909376	78	4131
2026-01-02 10:41:13.96	290.50	45.87	-54.9	-56.2	15.7	0.00e+00	0	32	0	847249408	76	4078
2026-01-02 10:41:17.93	292.34	45.21	-55.6	-57.2	15.3	0.00e+00	0	32	0	854589440	76	4558
2026-01-02 10:41:21.90	294.10	44.53	-55.9	-57.5	15.2	0.00e+00	0	32	0	861929472	78	4200
2026-01-02 10:41:25.88	295.79	43.84	-55.5	-57.0	15.4	0.00e+00	0	32	0	870318080	77	4221
2026-01-02 10:41:29.85	297.41	43.13	-54.4	-55.6	15.9	0.00e+00	0	32	0	877658112	75	4022
2026-01-02 10:41:33.84	298.96	42.41	-55.6	-57.1	15.3	0.00e+00	0	32	0	884998144	76	4534
2026-01-02 10:41:37.82	300.44	41.69	-55.9	-57.5	15.1	0.00e+00	0	32	0	892338176	77	4465
2026-01-02 10:41:41.80	301.86	40.96	-54.5	-55.8	15.8	0.00e+00	0	32	0	899678208	75	4132
2026-01-02 10:41:45.76	303.21	40.23	-56.5	-58.3	14.8	0.00e+00	0	32	0	907018240	78	4651
2026-01-02 10:41:49.74	304.51	39.49	-56.2	-58.0	14.9	0.00e+00	0	32	0	914358272	78	4460
2026-01-02 10:41:53.70	305.74	38.76	-57.6	-60.0	13.8	0.00e+00	0	32	0	921698304	80	5009
2026-01-02 10:41:57.67	306.93	38.03	-56.3	-58.1	14.9	0.00e+00	0	32	0	929038336	79	4243
2026-01-02 10:42:01.65	308.06	37.30	-57.2	-59.5	14.1	0.00e+00	0	32	0	937426944	79	4986
2026-01-02 10:42:05.62	309.15	36.57	-56.0	-57.6	15.1	0.00e+00	0	32	0	944766976	78	4267
2026-01-02 10:42:09.57	310.18	35.86	-58.2	-61.1	13.2	0.00e+00	0	32	0	952107008	81	5364
2026-01-02 10:42:13.54	311.17	35.14	-55.0	-56.3	15.6	0.00e+00	0	32	0	959447040	76	4141
2026-01-02 10:42:17.51	312.13	34.44	-57.0	-59.1	14.3	0.00e+00	0	32	0	966787072	79	4791
2026-01-02 10:42:21.47	313.04	33.74	-56.0	-57.7	15.0	0.00e+00	0	32	0	974127104	78	4301
2026-01-02 10:42:25.44	313.91	33.05	-56.0	-57.7	15.0	0.00e+00	0	32	0	981467136	77	4584
2026-01-02 10:42:29.42	314.76	32.37	-56.8	-58.9	14.5	0.00e+00	0	32	0	988807168	80	4400
2026-01-02 10:42:33.39	315.56	31.70	-55.0	-56.4	15.5	0.00e+00	0	32	0	996147200	76	4153
2026-01-02 10:42:37.36	316.34	31.04	-56.7	-58.7	14.5	0.00e+00	0	32	0	1003487232	78	4856
2026-01-02 10:42:41.34	317.09	30.38	-56.7	-58.8	14.5	0.00e+00	0	32	0	1010827264	80	4354
2026-01-02 10:42:45.32	317.80	29.74	-55.2	-56.7	15.4	0.00e+00	0	32	0	1019215872	77	4062
2026-01-02 10:42:49.29	318.49	29.10	-55.9	-57.6	15.0	0.00e+00	0	32	0	1026555904	77	4532
2026-01-02 10:42:53.27	319.16	28.48	-56.1	-57.9	14.8	0.00e+00	0	32	0	1033895936	77	4676
2026-01-02 10:42:57.25	319.80	27.86	-55.3	-56.8	15.4	0.00e+00	0	32	0	1041235968	77	4109
2026-01-02 10:43:01.22	320.42	27.26	-55.0	-56.4	15.5	0.00e+00	0	32	0	1048576000	76	4174
2026-01-02 10:43:05.20	321.01	26.66	-55.1	-56.6	15.5	0.00e+00	0	32	0	1055916032	76	4262
2026-01-02 10:43:09.16	321.58	26.08	-55.3	-56.8	15.3	0.00e+00	0	32	0	1063256064	76	4377
2026-01-02 10:43:13.12	322.13	25.51	-55.0	-56.5	15.5	0.00e+00	0	32	0	1070596096	76	4197
2026-01-02 10:43:17.09	322.67	24.95	-54.9	-56.2	15.6	0.00e+00	0	32	0	1077936128	76	4097
2026-01-02 10:43:21.07	323.19	24.39	-55.4	-57.0	15.2	0.00e+00	0	32	0	1086324736	76	4452
2026-01-02 10:43:25.03	323.68	23.85	-55.3	-56.9	15.3	0.00e+00	0	32	0	1093664768	76	4427
2026-01-02 10:43:29.01	324.17	23.31	-54.5	-55.8	15.7	0.00e+00	0	32	0	1101004800	75	4128
2026-01-02 10:43:33.00	324.64	22.78	-54.5	-55.9	15.6	0.00e+00	0	32	0	1108344832	75	4159
2026-01-02 10:43:36.96	325.09	22.26	-54.4	-55.7	15.7	0.00e+00	0	32	0	1115684864	75	4081
2026-01-02 10:43:40.93	325.53	21.75	-54.4	-55.8	15.7	0.00e+00	0	32	0	1123024896	75	4110
2026-01-02 10:43:44.89	325.95	21.25	-54.7	-56.1	15.5	0.00e+00	0	32	0	1130364928	75	4276
2026-01-02 10:43:48.86	326.36	20.76	-54.9	-56.4	15.4	0.00e+00	0	32	0	1137704960	75	4429
2026-01-02 10:43:52.83	326.76	20.27	-54.8	-56.3	15.4	0.00e+00	0	32	0	1145044992	75	4343
2026-01-02 10:43:56.81	327.15	19.80	-54.5	-55.9	15.6	0.00e+00	0	32	0	1152385024	75	4182
2026-01-02 10:44:00.79	327.53	19.33	-54.8	-56.3	15.4	0.00e+00	0	32	0	1160773632	75	4348
2026-01-02 10:44:04.77	327.90	18.86	-54.8	-56.3	15.4	0.00e+00	0	32	0	1168113664	75	4373
2026-01-02 10:44:08.75	328.26	18.41	-54.9	-56.4	15.3	0.00e+00	0	32	0	1175453696	75	4430
2026-01-02 10:44:12.73	328.60	17.96	-54.7	-56.1	15.5	0.00e+00	0	32	0	1182793728	75	4275
2026-01-02 10:44:16.71	328.94	17.52	-54.3	-55.6	15.7	0.00e+00	0	32	0	1190133760	75	4046
2026-01-02 10:44:20.68	329.27	17.09	-54.1	-55.4	15.7	0.00e+00	0	32	0	1197473792	74	4156
2026-01-02 10:44:24.65	329.59	16.66	-54.3	-55.6	15.6	0.00e+00	0	32	0	1204813824	74	4275
2026-01-02 10:44:28.63	329.90	16.24	-54.5	-56.0	15.4	0.00e+00	0	32	0	1212153856	74	4467
2026-01-02 10:44:32.60	330.20	15.83	-54.8	-56.4	15.3	0.00e+00	0	32	0	1219493888	74	4657
2026-01-02 10:44:36.57	330.49	15.43	-54.6	-56.1	15.3	0.00e+00	0	32	0	1227882496	74	4544
2026-01-02 10:44:40.54	330.78	15.03	-54.4	-55.8	15.5	0.00e+00	0	32	0	1235222528	74	4369
2026-01-02 10:44:44.51	331.06	14.63	-54.2	-55.5	15.6	0.00e+00	0	32	0	1242562560	74	4228
2026-01-02 10:44:48.48	331.34	14.24	-54.1	-55.5	15.6	0.00e+00	0	32	0	1249902592	74	4210
2026-01-02 10:44:52.45	331.60	13.86	-54.4	-55.9	15.4	0.00e+00	0	32	0	1257242624	74	4419
2026-01-02 10:44:56.42	331.86	13.48	-54.7	-56.3	15.2	0.00e+00	0	32	0	1264582656	74	4616
2026-01-02 10:45:00.39	332.12	13.11	-55.1	-56.8	15.0	0.00e+00	0	32	0	1271922688	75	4624
2026-01-02 10:45:04.35	332.37	12.74	-55.3	-57.2	14.8	0.00e+00	0	32	0	1279262720	75	4821
2026-01-02 10:45:08.32	332.61	12.38	-55.5	-57.3	14.8	0.00e+00	0	32	0	1286602752	76	4628
2026-01-02 10:45:12.28	332.85	12.03	-55.4	-57.3	14.8	0.00e+00	0	32	0	1293942784	76	4614
2026-01-02 10:45:16.24	333.08	11.67	-55.2	-56.9	15.0	0.00e+00	0	32	0	1301282816	76	4430
2026-01-02 10:45:20.22	333.31	11.33	-55.0	-56.7	15.0	0.00e+00	0	32	0	1309671424	76	4315
2026-01-02 10:45:24.20	333.53	10.98	-54.8	-56.5	15.1	0.00e+00	0	32	0	1317011456	76	4202
2026-01-02 10:45:28.19	333.75	10.64	-54.8	-56.3	15.2	0.00e+00	0	32	0	1324351488	76	4142
2026-01-02 10:45:32.16	333.96	10.31	-54.8	-56.4	15.2	0.00e+00	0	32	0	1331691520	76	4188
2026-01-02 10:45:36.13	334.17	9.98	-54.9	-56.6	15.0	0.00e+00	0	32	0	1339031552	76	4264
2026-01-02 10:45:40.10	334.38	9.65	-55.1	-56.8	14.9	0.00e+00	0	32	0	1346371584	76	4373
2026-01-02 10:45:44.08	334.58	9.33	-55.4	-57.3	14.7	0.00e+00	0	32	0	1353711616	76	4607
2026-01-02 10:45:48.07	334.78	9.01	-55.6	-57.6	14.5	0.00e+00	0	32	0	1361051648	76	4771
2026-01-02 10:45:52.03	334.97	8.69	-55.8	-57.9	14.3	0.00e+00	0	32	0	1368391680	76	4952
2026-01-02 10:45:55.99	335.16	8.38	-55.8	-57.9	14.3	0.00e+00	0	32	0	1376780288	77	4700
2026-01-02 10:45:59.95	335.34	8.08	-55.9	-58.1	14.2	0.00e+00	0	32	0	1384120320	77	4780
2026-01-02 10:46:03.92	335.52	7.77	-55.8	-58.0	14.2	0.00e+00	0	32	0	1391460352	77	4759
2026-01-02 10:46:07.89	335.70	7.47	-55.8	-58.1	14.1	0.00e+00	0	32	0	1398800384	77	4760
2026-01-02 10:46:11.87	335.88	7.17	-55.7	-57.9	14.2	0.00e+00	0	32	0	1406140416	77	4678
2026-01-02 10:46:15.83	336.05	6.88	-55.6	-57.8	14.3	0.00e+00	0	32	0	1413480448	77	4607
2026-01-02 10:46:19.81	336.22	6.59	-55.7	-57.9	14.1	0.00e+00	0	32	0	1420820480	77	4695
2026-01-02 10:46:23.79	336.39	6.30	-55.5	-57.6	14.3	0.00e+00	0	32	0	1428160512	77	4535
2026-01-02 10:46:27.75	336.55	6.02	-55.4	-57.5	14.4	0.00e+00	0	32	0	1435500544	77	4462
2026-01-02 10:46:31.73	336.71	5.73	-55.6	-57.8	14.2	0.00e+00	0	32	0	1442840576	77	4611
2026-01-02 10:46:35.70	336.87	5.46	-55.5	-57.6	14.2	0.00e+00	0	32	0	1451229184	77	4535
2026-01-02 10:46:39.67	337.03	5.18	-55.3	-57.4	14.3	0.00e+00	0	32	0	1458569216	76	4692
2026-01-02 10:46:43.67	337.18	4.90	-60.7	-76.3	3.8	1.49e+00	0	32	104	1464860672	86	23105
2026-01-02 10:46:47.67	337.33	4.63	-61.9	-77.5	3.8	1.49e+00	0	32	104	1464860672	89	22390
2026-01-02 10:46:51.68	337.48	4.36	-62.3	-77.9	3.8	1.49e+00	0	32	104	1464860672	89	23567
2026-01-02 10:46:55.67	337.63	4.09	-62.5	-78.1	3.8	1.49e+00	0	32	104	1464860672	90	22672
2026-01-02 10:46:59.66	337.77	3.83	-62.6	-78.2	3.8	1.49e+00	0	32	104	1464860672	90	22912
2026-01-02 10:47:03.63	337.91	3.57	-62.6	-78.2	3.8	1.49e+00	0	32	104	1464860672	90	22941
2026-01-02 10:47:07.57	338.05	3.31	-62.5	-78.1	3.8	1.49e+00	0	32	104	1464860672	90	22640
2026-01-02 10:47:11.55	338.19	3.06	-62.4	-78.0	3.8	1.49e+00	0	32	104	1464860672	90	22491
2026-01-02 10:47:15.51	338.32	2.80	-62.4	-78.0	3.8	1.49e+00	0	32	104	1464860672	90	22412
2026-01-02 10:47:19.49	338.46	2.55	-62.3	-77.9	3.8	1.49e+00	0	32	104	1464860672	90	22257
2026-01-02 10:47:23.47	338.59	2.30	-62.3	-77.9	3.8	1.49e+00	0	32	104	1464860672	90	22229
2026-01-02 10:47:27.43	338.72	2.05	-62.3	-77.9	3.8	1.49e+00	0	32	104	1464860672	90	22158

#Closed at: 2026-01-02 10:47:31
#Recorded file [1464 MB]: D:/lorett/data/31004_260102_133313.dat