passes_logs/2026/01/02/R3.2S_Murmansk/R3.2S_Murmansk__20260102_115302_AQUA_rec.log

#Pass ID: 20260102_115302_AQUA
#Satellite: AQUA
#Configuration: AQUA
#almurnet v.1.7.20251203
#Start time: 2026-01-02 11:53:03

#Version: 2.2.20231116
#Station: R3.2S_Murmansk
#Location: 33.079688 lon 68.888172 lat
#TLE: 1 27424U 02022A   25365.92641127  .00002078  00000+0  42628-3 0  9999
#TLE: 2 27424  98.4058 327.1196 0001962  94.7781 340.6230 14.61783896258835

#Time	Az	El	Level	Level2	SNR	BER	BlckErr	Temp	State	Recorded	gain1	gain2
2026-01-02 11:53:03.68	168.34	2.05	-59.5	-78.2	3.8	7.46e-01	0	30	0	0	88	29990
2026-01-02 11:53:07.69	168.43	2.32	-59.4	-77.4	3.8	7.46e-01	0	30	104	0	86	30681
2026-01-02 11:53:11.72	168.53	2.59	-59.5	-78.2	3.8	7.49e-01	0	30	104	0	86	33439
2026-01-02 11:53:15.74	168.63	2.86	-59.4	-77.6	3.8	7.49e-01	0	30	104	0	86	31165
2026-01-02 11:53:19.76	168.73	3.13	-59.5	-78.1	3.8	7.42e-01	0	30	104	0	86	33203
2026-01-02 11:53:23.80	168.83	3.41	-59.2	-71.0	6.0	6.79e-01	65	31	0	524288	86	14601
2026-01-02 11:53:27.82	168.93	3.69	-58.6	-66.0	10.2	6.19e-01	0	31	0	7864320	86	8210
2026-01-02 11:53:31.85	169.04	3.98	-58.1	-64.1	11.8	6.09e-01	0	31	0	15204352	85	7002
2026-01-02 11:53:35.88	169.14	4.27	-57.9	-63.3	12.3	6.09e-01	0	31	0	23068672	84	6801
2026-01-02 11:53:39.90	169.25	4.56	-57.6	-62.6	12.8	6.08e-01	0	31	0	30408704	84	6271
2026-01-02 11:53:43.91	169.36	4.85	-58.1	-64.0	11.9	6.10e-01	0	31	0	38273024	84	7306
2026-01-02 11:53:47.92	169.47	5.15	-57.3	-61.7	13.5	6.06e-01	0	31	0	45613056	82	6318
2026-01-02 11:53:51.94	169.59	5.45	-53.5	-55.4	16.1	6.07e-01	0	31	0	49283072	76	4301
2026-01-02 11:53:55.96	169.71	5.76	-53.0	-54.6	16.3	6.05e-01	0	31	0	56623104	75	4192
2026-01-02 11:53:59.98	169.83	6.07	-52.9	-54.5	16.3	6.05e-01	0	31	0	64487424	74	4384
2026-01-02 11:54:04.00	169.95	6.38	-52.8	-54.4	16.3	6.06e-01	0	31	0	71827456	74	4310
2026-01-02 11:54:08.03	170.08	6.70	-52.7	-54.3	16.4	6.06e-01	0	31	0	79167488	74	4277
2026-01-02 11:54:12.05	170.20	7.02	-52.7	-54.3	16.4	6.06e-01	0	31	0	87031808	74	4243
2026-01-02 11:54:16.06	170.33	7.35	-52.7	-54.2	16.4	6.06e-01	0	31	0	94371840	74	4218
2026-01-02 11:54:20.07	170.47	7.68	-52.5	-54.0	16.5	6.06e-01	0	31	0	101711872	74	4137
2026-01-02 11:54:24.09	170.60	8.02	-52.4	-53.9	16.5	6.07e-01	0	31	0	109576192	74	4067
2026-01-02 11:54:28.12	170.74	8.36	-52.4	-53.8	16.5	6.08e-01	0	31	0	116916224	73	4269
2026-01-02 11:54:32.13	170.89	8.70	-52.3	-53.7	16.5	6.05e-01	0	31	0	124780544	73	4224
2026-01-02 11:54:36.15	171.03	9.06	-52.2	-53.6	16.5	6.06e-01	0	31	0	132120576	73	4181
2026-01-02 11:54:40.16	171.18	9.41	-52.2	-53.6	16.5	6.07e-01	0	31	0	139460608	73	4178
2026-01-02 11:54:44.18	171.33	9.77	-52.1	-53.4	16.6	6.07e-01	0	31	0	147324928	73	4090
2026-01-02 11:54:48.18	171.49	10.14	-52.0	-53.4	16.6	6.07e-01	0	31	0	154664960	73	4060
2026-01-02 11:54:52.21	171.65	10.52	-51.9	-53.2	16.7	6.05e-01	0	31	0	162004992	73	4001
2026-01-02 11:54:56.23	171.82	10.90	-51.8	-53.1	16.6	6.08e-01	0	31	0	169869312	72	4184
2026-01-02 11:55:00.24	171.99	11.28	-51.8	-53.1	16.7	6.09e-01	0	31	0	177209344	72	4149
2026-01-02 11:55:04.26	172.16	11.68	-51.7	-53.0	16.7	6.06e-01	0	31	0	185073664	72	4101
2026-01-02 11:55:08.29	172.34	12.08	-51.8	-53.0	16.6	6.07e-01	0	31	0	192413696	72	4145
2026-01-02 11:55:12.31	172.52	12.49	-51.7	-53.0	16.7	6.07e-01	0	31	0	199753728	72	4140
2026-01-02 11:55:16.32	172.71	12.90	-51.5	-52.8	16.7	6.07e-01	0	31	0	207618048	72	4026
2026-01-02 11:55:20.32	172.90	13.33	-51.6	-52.8	16.7	6.07e-01	0	31	0	214958080	72	4028
2026-01-02 11:55:24.34	173.10	13.76	-51.4	-52.6	16.8	6.06e-01	0	31	0	222298112	72	3956
2026-01-02 11:55:28.36	173.31	14.20	-51.5	-52.8	16.7	6.08e-01	0	31	0	230162432	72	4010
2026-01-02 11:55:32.36	173.52	14.64	-51.5	-52.7	16.7	6.06e-01	0	31	0	237502464	72	3996
2026-01-02 11:55:36.37	173.74	15.10	-51.5	-52.8	16.7	6.06e-01	0	31	0	244842496	72	4012
2026-01-02 11:55:40.37	173.96	15.57	-51.3	-52.5	16.7	6.07e-01	0	31	0	252706816	71	4141
2026-01-02 11:55:44.37	174.19	16.04	-51.4	-52.6	16.7	6.08e-01	0	31	0	260046848	71	4149
2026-01-02 11:55:48.37	174.43	16.53	-51.3	-52.4	16.7	6.07e-01	0	31	0	267386880	71	4097
2026-01-02 11:55:52.36	174.68	17.02	-51.2	-52.4	16.7	6.07e-01	0	31	0	275251200	71	4088
2026-01-02 11:55:56.36	174.93	17.52	-51.3	-52.5	16.7	6.05e-01	0	31	0	282591232	71	4140
2026-01-02 11:56:00.36	175.19	18.04	-51.4	-52.6	16.7	6.07e-01	0	31	0	289931264	71	4170
2026-01-02 11:56:04.36	175.47	18.57	-51.2	-52.4	16.8	6.07e-01	0	31	0	297271296	71	4073
2026-01-02 11:56:08.36	175.75	19.11	-51.3	-52.5	16.8	6.08e-01	0	31	0	305135616	71	4103
2026-01-02 11:56:12.35	176.04	19.66	-51.3	-52.5	16.7	6.07e-01	0	31	0	312475648	71	4099
2026-01-02 11:56:16.35	176.34	20.23	-51.2	-52.4	16.8	6.07e-01	0	31	0	319815680	71	4059
2026-01-02 11:56:20.33	176.66	20.81	-51.3	-52.5	16.8	6.07e-01	0	31	0	327155712	71	4123
2026-01-02 11:56:24.32	176.98	21.40	-51.5	-52.6	16.8	6.06e-01	0	31	0	335020032	71	4190
2026-01-02 11:56:28.31	177.32	22.01	-51.5	-52.7	16.7	6.06e-01	0	31	0	342360064	71	4212
2026-01-02 11:56:32.30	177.67	22.63	-51.7	-52.9	16.7	6.07e-01	0	31	0	349700096	71	4313
2026-01-02 11:56:36.29	178.04	23.27	-51.5	-52.7	16.7	6.07e-01	0	31	0	357564416	71	4229
2026-01-02 11:56:40.26	178.42	23.92	-51.5	-52.7	16.7	6.06e-01	0	31	0	364904448	71	4224
2026-01-02 11:56:44.21	178.82	24.59	-51.5	-52.7	16.7	6.06e-01	0	31	0	372244480	71	4223
2026-01-02 11:56:48.19	179.23	25.27	-51.6	-52.8	16.7	6.07e-01	0	31	0	379584512	71	4275
2026-01-02 11:56:52.15	179.66	25.98	-51.7	-52.9	16.7	6.05e-01	0	31	0	386924544	71	4293
2026-01-02 11:56:56.12	180.12	26.70	-51.6	-52.8	16.7	6.06e-01	0	31	0	394788864	71	4283
2026-01-02 11:57:00.10	180.59	27.44	-51.6	-52.8	16.7	6.06e-01	0	31	0	402128896	71	4277
2026-01-02 11:57:04.07	181.09	28.21	-50.9	-52.0	16.9	6.07e-01	0	31	0	409468928	71	3903
2026-01-02 11:57:08.05	181.61	28.99	-51.2	-52.3	16.8	6.04e-01	0	31	0	416808960	71	4032
2026-01-02 11:57:12.02	182.16	29.80	-51.1	-52.3	16.8	6.06e-01	0	31	0	424148992	71	4015
2026-01-02 11:57:15.99	182.74	30.63	-51.4	-52.5	16.8	6.07e-01	0	31	0	432013312	71	4129
2026-01-02 11:57:19.95	183.34	31.47	-51.1	-52.3	16.8	6.08e-01	0	31	0	439353344	71	4008
2026-01-02 11:57:23.94	183.99	32.35	-51.4	-52.5	16.8	6.07e-01	0	31	0	446693376	71	4122
2026-01-02 11:57:27.92	184.66	33.25	-51.6	-52.7	16.8	6.06e-01	0	31	0	454033408	71	4236
2026-01-02 11:57:31.91	185.38	34.18	-51.9	-53.1	16.7	6.05e-01	0	31	0	461897728	71	4398
2026-01-02 11:57:35.90	186.15	35.13	-52.3	-53.6	16.6	6.06e-01	0	31	0	469237760	72	4421
2026-01-02 11:57:39.86	186.95	36.11	-52.5	-53.8	16.6	6.03e-01	0	31	0	476577792	72	4511
2026-01-02 11:57:43.87	187.81	37.11	-52.8	-54.2	16.6	6.06e-01	0	32	0	483917824	73	4459
2026-01-02 11:57:47.85	188.72	38.14	-53.0	-54.3	16.5	6.08e-01	0	31	0	491782144	73	4538
2026-01-02 11:57:51.84	189.70	39.20	-52.7	-54.1	16.6	6.07e-01	0	31	0	499122176	73	4411
2026-01-02 11:57:55.83	190.74	40.28	-52.3	-53.6	16.7	6.05e-01	0	31	0	506462208	73	4162
2026-01-02 11:57:59.81	191.85	41.38	-52.0	-53.3	16.8	6.08e-01	0	31	0	513802240	73	4009
2026-01-02 11:58:03.80	193.05	42.51	-51.2	-52.3	16.9	6.06e-01	0	32	0	521666560	71	4036
2026-01-02 11:58:07.80	194.33	43.67	-51.2	-52.3	16.8	6.08e-01	0	32	0	529006592	71	4026
2026-01-02 11:58:11.81	195.72	44.85	-50.9	-52.0	16.9	6.06e-01	0	31	0	536346624	71	3885
2026-01-02 11:58:15.83	197.21	46.04	-50.7	-51.7	16.9	6.04e-01	0	31	0	544210944	70	3990
2026-01-02 11:58:19.83	198.82	47.25	-50.9	-52.0	16.8	6.08e-01	0	31	0	551550976	70	4123
2026-01-02 11:58:23.85	200.57	48.48	-50.9	-51.9	16.9	6.07e-01	0	31	0	558891008	70	4087
2026-01-02 11:58:27.87	202.46	49.71	-50.9	-52.0	16.9	6.05e-01	0	31	0	566755328	70	4129
2026-01-02 11:58:31.88	204.51	50.94	-51.1	-52.2	16.9	6.06e-01	0	31	0	574095360	70	4231
2026-01-02 11:58:35.85	206.70	52.14	-51.0	-52.1	16.8	6.03e-01	0	31	0	581435392	70	4169
2026-01-02 11:58:39.83	209.09	53.34	-50.7	-51.8	17.0	6.05e-01	0	31	0	588775424	70	4018
2026-01-02 11:58:43.80	211.67	54.51	-51.0	-52.1	16.8	6.02e-01	0	31	0	596639744	70	4178
2026-01-02 11:58:47.78	214.48	55.65	-51.7	-52.8	16.8	6.05e-01	0	31	0	603979776	71	4275
2026-01-02 11:58:51.74	217.51	56.73	-52.3	-53.5	16.7	6.02e-01	0	31	0	611319808	72	4373
2026-01-02 11:58:55.72	220.79	57.76	-52.6	-53.9	16.7	6.01e-01	0	31	0	618659840	73	4328
2026-01-02 11:58:59.72	224.34	58.71	-53.3	-54.7	16.6	6.04e-01	0	31	0	626524160	74	4477
2026-01-02 11:59:03.68	228.10	59.57	-53.6	-55.1	16.5	6.01e-01	0	31	0	633864192	75	4411
2026-01-02 11:59:07.67	232.13	60.32	-53.7	-55.1	16.5	6.01e-01	0	31	0	641204224	75	4438
2026-01-02 11:59:11.64	236.37	60.95	-54.1	-55.6	16.4	6.03e-01	0	31	0	648544256	76	4441
2026-01-02 11:59:15.61	240.80	61.43	-54.7	-56.4	16.3	6.02e-01	0	31	0	655884288	77	4577
2026-01-02 11:59:19.60	245.40	61.78	-54.3	-55.8	16.4	6.05e-01	0	31	0	663748608	77	4286
2026-01-02 11:59:23.59	250.10	61.96	-53.9	-55.4	16.5	6.03e-01	0	31	0	671088640	77	4053
2026-01-02 11:59:27.58	254.83	61.98	-53.7	-55.1	16.6	6.03e-01	0	32	0	678428672	76	4189
2026-01-02 11:59:31.58	259.55	61.83	-53.5	-54.9	16.6	6.03e-01	0	32	0	685768704	75	4320
2026-01-02 11:59:35.57	264.18	61.52	-53.6	-55.0	16.5	6.03e-01	0	31	0	693633024	75	4381
2026-01-02 11:59:39.57	268.67	61.06	-53.4	-54.7	16.6	6.04e-01	0	31	0	700973056	75	4239
2026-01-02 11:59:43.58	272.99	60.45	-52.9	-54.2	16.7	6.01e-01	0	31	0	708313088	74	4211
2026-01-02 11:59:47.59	277.08	59.72	-53.1	-54.4	16.6	6.04e-01	0	31	0	716177408	74	4334
2026-01-02 11:59:51.59	280.93	58.88	-53.0	-54.4	16.7	6.00e-01	0	32	0	723517440	74	4293
2026-01-02 11:59:55.59	284.52	57.94	-52.3	-53.5	16.8	6.02e-01	0	31	0	730857472	73	4144
2026-01-02 11:59:59.61	287.87	56.92	-52.1	-53.3	16.8	6.03e-01	0	31	0	738721792	73	4014
2026-01-02 12:00:03.61	290.96	55.83	-51.6	-52.7	16.9	6.04e-01	0	31	0	746061824	72	3996
2026-01-02 12:00:07.61	293.82	54.70	-51.4	-52.5	16.9	6.05e-01	0	31	0	753401856	72	3907
2026-01-02 12:00:11.62	296.46	53.53	-51.5	-52.6	16.8	6.01e-01	0	31	0	761266176	71	4193
2026-01-02 12:00:15.64	298.89	52.33	-51.8	-52.9	16.8	6.05e-01	0	31	0	768606208	71	4306
2026-01-02 12:00:19.65	301.13	51.11	-51.7	-52.8	16.9	6.04e-01	0	32	0	775946240	72	4027
2026-01-02 12:00:23.65	303.19	49.89	-52.5	-53.8	16.7	6.04e-01	0	31	0	783810560	72	4512
2026-01-02 12:00:27.66	305.10	48.67	-52.3	-53.5	16.8	6.02e-01	0	31	0	791150592	72	4349
2026-01-02 12:00:31.67	306.85	47.45	-52.4	-53.6	16.7	6.03e-01	0	31	0	798490624	72	4433
2026-01-02 12:00:35.68	308.48	46.24	-52.1	-53.3	16.7	6.01e-01	0	32	0	806354944	72	4270
2026-01-02 12:00:39.70	309.99	45.04	-51.8	-53.0	16.8	6.03e-01	0	31	0	813694976	72	4112
2026-01-02 12:00:43.70	311.39	43.87	-52.1	-53.2	16.8	6.04e-01	0	31	0	821035008	72	4229
2026-01-02 12:00:47.71	312.68	42.71	-52.3	-53.5	16.7	6.02e-01	0	32	0	828899328	72	4362
2026-01-02 12:00:51.72	313.89	41.58	-52.5	-53.7	16.6	6.03e-01	0	31	0	836239360	72	4484
2026-01-02 12:00:55.74	315.03	40.46	-52.8	-54.1	16.7	6.03e-01	0	32	0	843579392	73	4393
2026-01-02 12:00:59.74	316.08	39.38	-52.6	-53.9	16.7	6.03e-01	0	31	0	851443712	73	4298
2026-01-02 12:01:03.74	317.06	38.32	-52.5	-53.8	16.7	6.04e-01	0	32	0	858783744	73	4261
2026-01-02 12:01:07.75	317.99	37.29	-52.2	-53.4	16.8	6.04e-01	0	31	0	866123776	73	4097
2026-01-02 12:01:11.76	318.86	36.28	-51.8	-53.0	16.8	6.04e-01	0	31	0	873988096	72	4103
2026-01-02 12:01:15.77	319.67	35.30	-51.4	-52.5	16.9	6.02e-01	0	31	0	881328128	72	3881
2026-01-02 12:01:19.78	320.44	34.34	-50.9	-51.9	17.0	6.04e-01	0	31	0	888668160	71	3860
2026-01-02 12:01:23.79	321.17	33.41	-51.0	-52.1	16.9	6.01e-01	0	31	0	896532480	70	4160
2026-01-02 12:01:27.80	321.86	32.50	-50.8	-51.8	16.9	6.01e-01	0	32	0	903872512	70	4035
2026-01-02 12:01:31.82	322.51	31.62	-50.7	-51.7	16.9	6.02e-01	0	32	0	911212544	70	3983
2026-01-02 12:01:35.82	323.12	30.76	-50.5	-51.5	17.0	6.06e-01	0	31	0	919076864	70	3896
2026-01-02 12:01:39.81	323.70	29.93	-50.7	-51.7	16.9	6.02e-01	0	31	0	926416896	70	4004
2026-01-02 12:01:43.80	324.26	29.12	-50.8	-51.9	16.9	6.04e-01	0	32	0	933756928	70	4081
2026-01-02 12:01:47.78	324.78	28.34	-51.0	-52.1	16.9	6.03e-01	0	31	0	941621248	70	4193
2026-01-02 12:01:51.76	325.28	27.58	-51.0	-52.1	16.8	6.03e-01	0	31	0	948961280	70	4163
2026-01-02 12:01:55.74	325.76	26.83	-51.2	-52.3	16.8	6.04e-01	0	31	0	956301312	70	4280
2026-01-02 12:01:59.73	326.22	26.11	-51.5	-52.6	16.7	6.01e-01	0	32	0	963641344	70	4429
2026-01-02 12:02:03.73	326.65	25.40	-51.6	-52.8	16.7	6.04e-01	0	31	0	971505664	71	4252
2026-01-02 12:02:07.73	327.07	24.71	-51.7	-52.9	16.8	6.05e-01	0	31	0	978845696	71	4293
2026-01-02 12:02:11.73	327.47	24.04	-51.6	-52.8	16.8	6.01e-01	0	31	0	986185728	71	4255
2026-01-02 12:02:15.72	327.86	23.38	-51.5	-52.6	16.8	6.03e-01	0	31	0	993525760	71	4165
2026-01-02 12:02:19.71	328.22	22.75	-51.5	-52.6	16.8	6.01e-01	0	31	0	1001390080	71	4179
2026-01-02 12:02:23.69	328.58	22.13	-51.4	-52.6	16.8	6.03e-01	0	31	0	1008730112	71	4154
2026-01-02 12:02:27.67	328.92	21.52	-51.5	-52.6	16.8	6.03e-01	0	32	0	1016070144	71	4179
2026-01-02 12:02:31.67	329.24	20.93	-51.4	-52.5	16.8	6.03e-01	0	32	0	1023934464	71	4116
2026-01-02 12:02:35.64	329.56	20.36	-51.3	-52.4	16.9	6.05e-01	0	31	0	1031274496	71	4092
2026-01-02 12:02:39.61	329.86	19.80	-51.4	-52.5	16.8	6.03e-01	0	31	0	1038614528	71	4128
2026-01-02 12:02:43.59	330.15	19.25	-51.3	-52.4	16.8	6.05e-01	0	31	0	1045954560	71	4096
2026-01-02 12:02:47.57	330.44	18.71	-51.2	-52.3	16.8	6.06e-01	0	32	0	1053294592	71	4025
2026-01-02 12:02:51.52	330.71	18.19	-51.2	-52.4	16.8	6.02e-01	0	31	0	1061158912	71	4061
2026-01-02 12:02:55.48	330.97	17.68	-51.1	-52.3	16.8	6.03e-01	0	31	0	1068498944	71	4019
2026-01-02 12:02:59.45	331.22	17.18	-50.9	-52.0	16.9	6.03e-01	0	31	0	1075838976	71	3908
2026-01-02 12:03:03.43	331.47	16.68	-50.9	-52.0	16.9	6.04e-01	0	32	0	1083179008	71	3913
2026-01-02 12:03:07.41	331.71	16.20	-51.0	-52.1	16.9	6.03e-01	0	32	0	1090519040	71	3946
2026-01-02 12:03:11.38	331.94	15.73	-51.0	-52.1	16.9	6.06e-01	0	31	0	1097859072	71	3955
2026-01-02 12:03:15.36	332.17	15.27	-51.0	-52.1	16.9	6.04e-01	0	31	0	1105723392	71	3925
2026-01-02 12:03:19.34	332.38	14.82	-51.0	-52.1	16.9	6.03e-01	0	31	0	1113063424	71	3936
2026-01-02 12:03:23.34	332.60	14.37	-51.0	-52.1	16.9	6.00e-01	0	31	0	1120403456	71	3924
2026-01-02 12:03:27.32	332.80	13.93	-51.2	-52.4	16.8	6.03e-01	0	32	0	1128267776	71	4071
2026-01-02 12:03:31.30	333.00	13.51	-51.0	-52.2	16.8	6.05e-01	0	31	0	1135607808	71	3972
2026-01-02 12:03:35.30	333.20	13.09	-51.2	-52.3	16.8	6.02e-01	0	32	0	1142947840	71	4041
2026-01-02 12:03:39.28	333.39	12.67	-51.3	-52.5	16.8	6.02e-01	0	31	0	1150287872	71	4142
2026-01-02 12:03:43.29	333.57	12.27	-51.4	-52.6	16.8	6.03e-01	0	32	0	1158152192	71	4155
2026-01-02 12:03:47.29	333.75	11.87	-51.4	-52.7	16.7	6.04e-01	0	31	0	1165492224	71	4204
2026-01-02 12:03:51.28	333.93	11.48	-51.5	-52.7	16.7	6.04e-01	0	32	0	1172832256	71	4221
2026-01-02 12:03:55.28	334.10	11.09	-51.5	-52.8	16.7	6.04e-01	0	32	0	1180172288	71	4255
2026-01-02 12:03:59.28	334.27	10.71	-51.5	-52.7	16.7	6.03e-01	0	31	0	1188036608	71	4237
2026-01-02 12:04:03.27	334.43	10.34	-51.5	-52.7	16.7	6.02e-01	0	31	0	1195376640	71	4228
2026-01-02 12:04:07.28	334.59	9.97	-51.6	-52.9	16.7	6.05e-01	0	31	0	1202716672	71	4312
2026-01-02 12:04:11.30	334.75	9.61	-51.7	-53.0	16.7	6.05e-01	0	31	0	1210580992	71	4358
2026-01-02 12:04:15.31	334.90	9.25	-51.8	-53.1	16.6	6.01e-01	0	32	0	1217921024	71	4413
2026-01-02 12:04:19.32	335.05	8.90	-51.7	-53.0	16.6	6.05e-01	0	31	0	1225785344	71	4344
2026-01-02 12:04:23.32	335.19	8.56	-51.9	-53.2	16.5	6.03e-01	0	32	0	1233125376	71	4480
2026-01-02 12:04:27.32	335.33	8.22	-52.0	-53.3	16.5	6.04e-01	0	32	0	1240465408	71	4545
2026-01-02 12:04:31.32	335.47	7.88	-52.1	-53.6	16.5	6.03e-01	0	31	0	1247805440	72	4397
2026-01-02 12:04:35.32	335.61	7.55	-52.2	-53.7	16.5	6.02e-01	0	31	0	1255669760	72	4458
2026-01-02 12:04:39.31	335.74	7.23	-52.2	-53.6	16.5	6.05e-01	0	32	0	1263009792	72	4422
2026-01-02 12:04:43.29	335.87	6.91	-52.5	-54.0	16.4	6.02e-01	0	31	0	1270349824	72	4605
2026-01-02 12:04:47.27	336.00	6.60	-52.5	-54.0	16.4	6.06e-01	0	31	0	1277689856	72	4627
2026-01-02 12:04:51.23	336.12	6.29	-52.6	-54.1	16.4	6.01e-01	0	32	0	1285554176	73	4434
2026-01-02 12:04:55.21	336.24	5.98	-52.6	-54.2	16.3	6.05e-01	0	32	0	1292894208	73	4468
2026-01-02 12:04:59.19	336.36	5.68	-52.7	-54.3	16.3	6.04e-01	0	32	0	1300234240	73	4521
2026-01-02 12:05:03.15	336.48	5.38	-52.8	-54.4	16.3	6.03e-01	0	32	0	1307574272	73	4589
2026-01-02 12:05:07.12	336.59	5.08	-52.7	-54.4	16.2	6.05e-01	0	32	0	1314914304	73	4547
2026-01-02 12:05:11.12	336.71	4.79	-60.8	-79.7	3.8	7.47e-01	0	32	104	1319108608	89	33391
2026-01-02 12:05:15.14	336.82	4.50	-61.6	-80.5	3.8	7.48e-01	0	32	104	1319108608	90	34597
2026-01-02 12:05:19.14	336.93	4.21	-61.9	-80.7	3.8	7.45e-01	0	32	104	1319108608	91	33691
2026-01-02 12:05:23.14	337.04	3.93	-62.0	-80.9	3.8	7.45e-01	0	32	104	1319108608	91	34182
2026-01-02 12:05:27.15	337.14	3.65	-62.0	-80.9	3.8	7.47e-01	0	32	104	1319108608	91	34419
2026-01-02 12:05:31.17	337.25	3.37	-62.0	-80.9	3.8	7.47e-01	0	32	104	1319108608	91	34265
2026-01-02 12:05:35.16	337.35	3.10	-61.9	-80.8	3.8	7.50e-01	0	32	104	1319108608	91	33895
2026-01-02 12:05:39.15	337.45	2.83	-61.8	-80.7	3.8	7.48e-01	0	32	104	1319108608	91	33685
2026-01-02 12:05:43.15	337.55	2.56	-61.8	-80.7	3.8	7.45e-01	0	32	104	1319108608	91	33526
2026-01-02 12:05:47.14	337.65	2.29	-61.8	-80.7	3.8	7.46e-01	0	32	104	1319108608	91	33406
2026-01-02 12:05:51.15	337.74	2.03	-61.8	-80.7	3.8	7.42e-01	0	32	104	1319108608	91	33322

#Closed at: 2026-01-02 12:05:54
#Recorded file [1319 MB]: D:/lorett/data/31004_260102_145303.dat