passes_logs/2026/01/02/R3.2S_Murmansk/R3.2S_Murmansk__20260102_133204_AQUA_rec.log

#Pass ID: 20260102_133204_AQUA
#Satellite: AQUA
#Configuration: AQUA
#almurnet v.1.7.20251203
#Start time: 2026-01-02 13:32:06

#Version: 2.2.20231116
#Station: R3.2S_Murmansk
#Location: 33.079688 lon 68.888172 lat
#TLE: 1 27424U 02022A   25365.92641127  .00002078  00000+0  42628-3 0  9999
#TLE: 2 27424  98.4058 327.1196 0001962  94.7781 340.6230 14.61783896258835

#Time	Az	El	Level	Level2	SNR	BER	BlckErr	Temp	State	Recorded	gain1	gain2
2026-01-02 13:32:06.82	212.98	2.11	-59.8	-78.5	3.8	7.48e-01	0	30	0	0	88	31050
2026-01-02 13:32:09.81	213.23	2.28	-59.8	-78.5	3.8	7.50e-01	0	30	104	0	87	32760
2026-01-02 13:32:12.80	213.47	2.45	-59.8	-78.4	3.8	7.44e-01	0	30	104	0	87	32413
2026-01-02 13:32:15.81	213.72	2.63	-59.7	-78.3	3.8	7.45e-01	0	30	104	0	87	32095
2026-01-02 13:32:18.80	213.98	2.80	-59.8	-78.6	3.8	7.46e-01	0	30	104	0	87	33037
2026-01-02 13:32:21.79	214.23	2.97	-59.7	-78.3	3.8	7.45e-01	0	30	104	0	87	32109
2026-01-02 13:32:24.78	214.49	3.15	-59.7	-77.8	3.8	7.42e-01	0	31	104	0	87	30338
2026-01-02 13:32:27.78	214.76	3.32	-59.7	-78.2	3.8	7.48e-01	0	31	104	0	87	31654
2026-01-02 13:32:30.78	215.02	3.50	-59.7	-78.6	3.8	7.42e-01	0	31	104	0	87	33029
2026-01-02 13:32:33.76	215.29	3.68	-59.7	-78.1	3.8	7.44e-01	0	31	104	0	87	31216
2026-01-02 13:32:36.76	215.56	3.85	-59.7	-77.8	3.8	7.44e-01	0	31	104	0	87	30168
2026-01-02 13:32:39.74	215.84	4.03	-59.7	-77.2	3.8	7.46e-01	0	31	104	0	87	28055
2026-01-02 13:32:42.74	216.12	4.21	-59.7	-76.5	4.0	7.46e-01	0	31	104	0	87	25927
2026-01-02 13:32:45.72	216.40	4.39	-59.7	-78.2	3.8	7.44e-01	0	31	104	0	87	31609
2026-01-02 13:32:48.72	216.69	4.57	-59.4	-70.5	6.5	6.69e-01	92	31	0	1048576	87	13085
2026-01-02 13:32:51.71	216.98	4.75	-59.3	-69.1	7.7	6.43e-01	70	31	0	6815744	87	11057
2026-01-02 13:32:54.70	217.28	4.94	-58.9	-66.7	9.8	6.18e-01	0	31	0	12582912	87	8431
2026-01-02 13:32:57.69	217.57	5.12	-59.2	-68.8	8.2	6.41e-01	2	31	0	18350080	86	11314
2026-01-02 13:33:00.69	217.88	5.30	-56.2	-59.5	14.3	6.07e-01	0	31	0	21495808	81	5207
2026-01-02 13:33:03.68	218.18	5.49	-59.6	-75.6	3.8	7.44e-01	0	31	104	26738688	87	23328
2026-01-02 13:33:06.67	218.49	5.67	-57.6	-62.0	13.2	6.07e-01	0	31	0	30408704	84	5833
2026-01-02 13:33:09.64	218.81	5.86	-58.7	-65.3	11.7	6.12e-01	0	31	0	33554432	85	8028
2026-01-02 13:33:12.63	219.12	6.05	-56.4	-59.6	14.2	6.06e-01	0	31	0	37224448	82	4936
2026-01-02 13:33:15.61	219.45	6.23	-59.6	-73.4	5.3	7.13e-01	62	31	0	42467328	87	18255
2026-01-02 13:33:18.59	219.77	6.42	-57.7	-62.2	13.1	6.05e-01	0	31	0	46137344	84	5986
2026-01-02 13:33:21.58	220.10	6.61	-58.4	-64.0	12.6	6.08e-01	0	31	0	49283072	84	7332
2026-01-02 13:33:24.58	220.44	6.80	-56.6	-60.1	13.8	6.08e-01	0	31	104	52953088	82	5231
2026-01-02 13:33:27.57	220.78	6.99	-59.5	-71.0	7.6	6.72e-01	92	31	0	58195968	86	14562
2026-01-02 13:33:30.58	221.13	7.19	-57.4	-61.4	13.5	6.06e-01	0	31	0	61865984	84	5455
2026-01-02 13:33:33.57	221.48	7.38	-57.9	-62.7	13.4	6.08e-01	0	31	0	65011712	83	6655
2026-01-02 13:33:36.57	221.84	7.57	-57.4	-61.4	13.3	6.09e-01	0	31	104	68681728	84	5413
2026-01-02 13:33:39.57	222.20	7.77	-59.6	-70.2	8.5	6.53e-01	48	31	0	73924608	86	13383
2026-01-02 13:33:42.55	222.56	7.96	-57.6	-61.8	13.5	6.03e-01	0	31	0	77070336	84	5671
2026-01-02 13:33:45.56	222.94	8.16	-57.8	-62.3	13.6	6.09e-01	0	31	0	80740352	83	6390
2026-01-02 13:33:48.56	223.31	8.36	-57.1	-60.7	13.4	6.07e-01	0	31	104	84410368	83	5331
2026-01-02 13:33:51.56	223.70	8.56	-59.6	-69.7	8.9	6.39e-01	27	31	0	89653248	86	12553
2026-01-02 13:33:54.56	224.09	8.75	-57.4	-61.3	13.6	6.05e-01	0	31	0	92798976	84	5401
2026-01-02 13:33:57.56	224.48	8.95	-57.7	-62.1	13.7	6.09e-01	0	31	0	96468992	83	6243
2026-01-02 13:34:00.55	224.88	9.15	-56.8	-59.9	13.8	6.08e-01	0	31	104	100139008	82	5130
2026-01-02 13:34:03.55	225.28	9.35	-59.6	-69.9	8.8	6.45e-01	17	31	0	105381888	87	12110
2026-01-02 13:34:06.54	225.69	9.55	-57.1	-60.7	14.1	6.06e-01	0	31	0	108527616	83	5316
2026-01-02 13:34:09.54	226.11	9.76	-57.7	-62.0	13.9	6.07e-01	0	31	0	112721920	83	6175
2026-01-02 13:34:12.53	226.53	9.96	-56.6	-59.8	14.2	6.08e-01	0	31	0	116391936	82	5069
2026-01-02 13:34:15.53	226.96	10.16	-59.6	-68.8	9.4	6.31e-01	1	31	0	122159104	86	11372
2026-01-02 13:34:18.53	227.39	10.36	-56.9	-60.4	14.2	6.07e-01	0	31	0	126353408	83	5108
2026-01-02 13:34:21.51	227.83	10.57	-57.2	-60.9	14.6	6.06e-01	0	31	0	130023424	82	5777
2026-01-02 13:34:24.52	228.28	10.77	-57.6	-61.5	12.9	6.10e-01	0	31	0	133693440	84	5513
2026-01-02 13:34:27.52	228.74	10.98	-59.0	-65.6	12.0	6.10e-01	0	31	0	139460608	85	8342
2026-01-02 13:34:30.51	229.20	11.18	-57.4	-61.1	13.7	6.04e-01	0	31	0	143130624	84	5255
2026-01-02 13:34:33.51	229.67	11.39	-57.0	-60.5	14.6	6.08e-01	0	31	0	147324928	81	5831
2026-01-02 13:34:36.51	230.14	11.59	-57.3	-60.9	13.6	6.07e-01	0	32	0	152043520	84	5134
2026-01-02 13:34:39.50	230.62	11.80	-59.0	-65.3	12.4	6.08e-01	0	31	0	157810688	85	8070
2026-01-02 13:34:42.48	231.11	12.00	-56.9	-60.3	14.0	6.06e-01	0	31	0	162529280	83	5071
2026-01-02 13:34:45.49	231.61	12.21	-57.0	-60.4	14.8	6.08e-01	0	31	0	167247872	81	5733
2026-01-02 13:34:48.48	232.11	12.42	-56.9	-60.2	13.7	6.07e-01	0	31	0	171966464	83	5040
2026-01-02 13:34:51.48	232.62	12.62	-59.0	-65.3	12.6	6.11e-01	0	31	0	177733632	85	7992
2026-01-02 13:34:54.47	233.14	12.83	-57.6	-61.5	13.6	6.04e-01	0	31	0	182452224	84	5501
2026-01-02 13:34:57.46	233.66	13.03	-56.3	-59.2	15.2	6.08e-01	0	31	0	187695104	80	5282
2026-01-02 13:35:00.44	234.19	13.24	-57.9	-62.1	12.7	6.07e-01	0	31	0	192937984	85	5585
2026-01-02 13:35:03.44	234.73	13.45	-58.0	-62.5	14.1	6.06e-01	0	31	0	198705152	83	6568
2026-01-02 13:35:06.43	235.28	13.65	-57.5	-61.1	13.8	6.07e-01	0	31	0	203423744	84	5246
2026-01-02 13:35:09.43	235.84	13.86	-56.4	-59.3	15.2	6.05e-01	0	31	0	208142336	80	5351
2026-01-02 13:35:12.41	236.40	14.06	-58.7	-64.0	11.1	6.11e-01	0	31	0	213385216	86	6554
2026-01-02 13:35:15.41	236.97	14.26	-57.2	-60.6	14.8	6.06e-01	0	31	0	219152384	81	5909
2026-01-02 13:35:18.41	237.55	14.47	-57.9	-62.1	13.4	6.07e-01	0	31	0	224395264	85	5550
2026-01-02 13:35:21.39	238.14	14.67	-56.0	-58.5	15.5	6.04e-01	0	31	0	229638144	79	5188
2026-01-02 13:35:24.40	238.74	14.87	-58.6	-63.8	11.0	6.11e-01	0	31	0	234881024	86	6414
2026-01-02 13:35:27.38	239.34	15.07	-57.0	-60.2	15.0	6.08e-01	0	31	0	240648192	81	5648
2026-01-02 13:35:30.37	239.95	15.27	-58.3	-62.8	13.1	6.08e-01	0	32	0	245891072	85	6049
2026-01-02 13:35:33.37	240.58	15.47	-55.4	-57.6	15.7	6.06e-01	0	31	0	251133952	78	4978
2026-01-02 13:35:36.36	241.21	15.66	-59.3	-66.2	9.3	6.16e-01	0	31	0	256376832	88	7542
2026-01-02 13:35:39.34	241.85	15.86	-56.1	-58.7	15.5	6.05e-01	0	31	0	262144000	79	5333
2026-01-02 13:35:42.33	242.49	16.05	-58.1	-62.5	13.3	6.08e-01	0	32	0	267911168	85	5803
2026-01-02 13:35:45.32	243.15	16.25	-55.2	-57.3	15.8	6.05e-01	0	31	0	273154048	78	4798
2026-01-02 13:35:48.32	243.82	16.44	-59.7	-68.5	7.3	6.35e-01	46	32	0	278921216	88	9719
2026-01-02 13:35:51.32	244.49	16.63	-55.4	-57.7	15.8	6.07e-01	0	32	0	284688384	78	4987
2026-01-02 13:35:54.31	245.17	16.81	-58.4	-63.0	13.1	6.08e-01	0	32	0	289931264	85	6191
2026-01-02 13:35:57.31	245.87	17.00	-55.2	-57.4	15.8	6.06e-01	0	32	0	295698432	78	4845
2026-01-02 13:36:00.29	246.57	17.18	-59.7	-68.3	7.6	6.37e-01	33	32	0	301465600	88	9531
2026-01-02 13:36:03.29	247.28	17.36	-55.2	-57.4	15.9	6.05e-01	0	31	0	306708480	78	4864
2026-01-02 13:36:06.28	247.99	17.53	-58.3	-62.8	13.1	6.07e-01	0	32	0	312475648	85	6024
2026-01-02 13:36:09.28	248.72	17.71	-55.4	-57.6	15.7	6.06e-01	0	31	0	318242816	78	4972
2026-01-02 13:36:12.26	249.45	17.88	-60.0	-70.1	6.9	6.55e-01	91	31	0	323485696	88	11729
2026-01-02 13:36:15.23	250.19	18.05	-54.7	-56.7	16.0	6.07e-01	0	31	0	329252864	77	4723
2026-01-02 13:36:18.22	250.94	18.21	-58.4	-63.2	13.0	6.08e-01	0	32	0	335020032	85	6318
2026-01-02 13:36:21.21	251.70	18.37	-55.0	-57.0	15.9	6.07e-01	0	32	0	340262912	78	4651
2026-01-02 13:36:24.21	252.47	18.53	-60.0	-70.4	7.1	6.56e-01	91	31	0	346030080	87	12834
2026-01-02 13:36:27.20	253.25	18.68	-54.3	-56.1	16.2	6.08e-01	0	32	0	351797248	76	4675
2026-01-02 13:36:30.19	254.03	18.83	-58.5	-63.3	13.0	6.05e-01	0	31	0	357040128	85	6367
2026-01-02 13:36:33.19	254.83	18.98	-55.0	-57.0	15.9	6.05e-01	0	31	0	362807296	78	4639
2026-01-02 13:36:36.20	255.63	19.12	-60.0	-70.2	7.3	6.53e-01	89	31	0	368574464	87	12547
2026-01-02 13:36:39.19	256.44	19.26	-54.3	-56.1	16.2	6.06e-01	0	31	0	374341632	76	4691
2026-01-02 13:36:42.19	257.26	19.39	-58.5	-63.2	13.0	6.06e-01	0	31	0	379584512	85	6315
2026-01-02 13:36:45.18	258.08	19.52	-55.1	-57.2	15.9	6.07e-01	0	32	0	385351680	78	4725
2026-01-02 13:36:48.18	258.91	19.64	-60.0	-69.7	7.7	6.46e-01	61	32	0	391118848	87	11931
2026-01-02 13:36:51.17	259.75	19.76	-54.0	-55.7	16.3	6.06e-01	0	31	0	396361728	76	4461
2026-01-02 13:36:54.17	260.59	19.87	-58.5	-63.3	13.0	6.07e-01	0	31	0	402128896	85	6420
2026-01-02 13:36:57.16	261.44	19.98	-55.0	-57.1	15.9	6.07e-01	0	31	0	407896064	79	4396
2026-01-02 13:37:00.15	262.29	20.08	-60.0	-69.6	8.0	6.45e-01	29	32	0	413663232	87	11815
2026-01-02 13:37:03.14	263.15	20.17	-54.3	-56.1	16.2	6.06e-01	0	32	0	418906112	76	4666
2026-01-02 13:37:06.13	264.02	20.26	-58.6	-63.3	13.0	6.07e-01	0	32	0	424673280	85	6381
2026-01-02 13:37:09.12	264.89	20.35	-55.1	-57.2	15.9	6.01e-01	0	32	0	430440448	79	4454
2026-01-02 13:37:12.12	265.77	20.43	-59.9	-68.9	8.7	6.31e-01	0	32	0	435683328	87	10837
2026-01-02 13:37:15.11	266.64	20.50	-54.3	-56.1	16.2	6.01e-01	0	31	0	441450496	77	4436
2026-01-02 13:37:18.12	267.53	20.56	-58.6	-63.4	13.1	6.01e-01	0	32	0	447217664	85	6429
2026-01-02 13:37:21.11	268.42	20.62	-55.2	-57.2	15.9	5.98e-01	0	32	0	452460544	79	4486
2026-01-02 13:37:24.10	269.31	20.67	-59.9	-68.6	8.9	6.27e-01	0	32	0	458227712	87	10428
2026-01-02 13:37:27.08	270.20	20.72	-54.8	-56.6	16.2	6.04e-01	0	31	0	463994880	78	4441
2026-01-02 13:37:30.08	271.10	20.76	-58.7	-63.4	13.0	6.01e-01	0	31	0	469762048	85	6485
2026-01-02 13:37:33.07	271.99	20.79	-55.1	-57.1	16.0	6.04e-01	0	32	0	475004928	79	4410
2026-01-02 13:37:36.07	272.90	20.82	-59.9	-68.4	9.0	6.26e-01	0	32	0	480772096	87	10260
2026-01-02 13:37:39.06	273.80	20.84	-55.1	-57.1	16.0	6.03e-01	0	31	0	486539264	78	4668
2026-01-02 13:37:42.06	274.70	20.85	-58.8	-63.8	12.7	6.02e-01	0	32	0	491782144	85	6732
2026-01-02 13:37:45.04	275.60	20.85	-54.8	-56.6	16.1	6.02e-01	0	32	0	497549312	78	4420
2026-01-02 13:37:48.03	276.50	20.85	-60.0	-68.4	9.0	6.24e-01	0	32	0	503316480	87	10284
2026-01-02 13:37:51.03	277.41	20.84	-55.9	-58.2	15.8	6.01e-01	0	32	0	509083648	80	4744
2026-01-02 13:37:54.02	278.31	20.83	-58.8	-63.6	12.9	6.00e-01	0	32	0	514326528	85	6584
2026-01-02 13:37:57.03	279.21	20.81	-54.3	-56.0	16.3	5.98e-01	0	32	0	520093696	77	4362
2026-01-02 13:38:00.02	280.11	20.78	-60.1	-69.0	8.8	6.27e-01	0	32	0	525860864	88	10385
2026-01-02 13:38:03.02	281.01	20.74	-56.4	-59.0	15.4	6.00e-01	0	31	0	531103744	82	4638
2026-01-02 13:38:06.01	281.90	20.70	-58.9	-63.7	13.1	6.03e-01	0	32	0	536870912	85	6651
2026-01-02 13:38:08.99	282.79	20.65	-53.8	-55.3	16.4	6.00e-01	0	31	0	542638080	76	4277
2026-01-02 13:38:11.97	283.67	20.60	-60.2	-69.3	8.4	6.34e-01	1	31	0	547880960	88	10746
2026-01-02 13:38:14.97	284.56	20.54	-57.7	-61.0	14.7	6.01e-01	0	32	0	553648128	84	5178
2026-01-02 13:38:17.95	285.44	20.47	-58.7	-63.3	13.3	6.01e-01	0	32	0	559415296	85	6369
2026-01-02 13:38:20.94	286.31	20.39	-53.2	-54.6	16.5	6.01e-01	0	32	0	565182464	75	4161
2026-01-02 13:38:23.93	287.18	20.31	-60.4	-70.2	7.7	6.44e-01	59	32	0	570425344	88	11845
2026-01-02 13:38:26.93	288.05	20.23	-58.6	-63.0	13.7	6.03e-01	0	31	0	576192512	85	6140
2026-01-02 13:38:29.92	288.91	20.14	-58.6	-62.8	13.8	6.02e-01	0	32	0	581959680	84	6348
2026-01-02 13:38:32.91	289.77	20.04	-52.8	-54.2	16.6	6.03e-01	0	31	0	587202560	74	4210
2026-01-02 13:38:35.90	290.62	19.94	-60.5	-70.6	7.8	6.49e-01	69	32	0	592969728	88	12496
2026-01-02 13:38:38.89	291.46	19.83	-59.4	-64.8	12.5	6.01e-01	0	32	0	598736896	86	7162
2026-01-02 13:38:41.88	292.30	19.71	-58.4	-62.4	14.0	6.00e-01	0	32	0	603979776	84	6085
2026-01-02 13:38:44.87	293.13	19.59	-52.5	-53.7	16.7	6.01e-01	0	32	0	609746944	74	4000
2026-01-02 13:38:47.86	293.96	19.47	-60.5	-70.3	8.0	6.42e-01	30	32	0	615514112	88	12084
2026-01-02 13:38:50.85	294.77	19.34	-59.7	-66.1	11.6	6.06e-01	0	32	0	620756992	87	7869
2026-01-02 13:38:53.86	295.59	19.21	-57.8	-61.3	14.5	6.01e-01	0	31	0	626524160	83	5685
2026-01-02 13:38:56.85	296.39	19.07	-52.3	-53.5	16.7	6.02e-01	0	32	0	632291328	73	4141
2026-01-02 13:38:59.83	297.18	18.93	-60.4	-70.4	7.9	6.43e-01	54	32	0	638058496	88	12156
2026-01-02 13:39:02.82	297.97	18.78	-59.7	-66.2	11.6	6.07e-01	0	32	0	643301376	87	7924
2026-01-02 13:39:05.82	298.75	18.63	-57.3	-60.5	14.9	6.01e-01	0	32	0	649068544	82	5470
2026-01-02 13:39:08.81	299.52	18.48	-52.4	-53.7	16.6	6.04e-01	0	32	0	654835712	74	3983
2026-01-02 13:39:11.80	300.28	18.32	-60.3	-69.8	8.7	6.37e-01	1	31	0	660078592	88	11331
2026-01-02 13:39:14.77	301.03	18.16	-59.7	-66.2	11.5	6.07e-01	0	32	0	665845760	87	7948
2026-01-02 13:39:17.76	301.78	17.99	-56.7	-59.4	15.3	6.01e-01	0	32	0	671612928	81	5113
2026-01-02 13:39:20.74	302.51	17.82	-53.4	-54.8	16.4	5.99e-01	0	32	0	676855808	76	4041
2026-01-02 13:39:23.73	303.24	17.65	-57.6	-61.2	14.3	6.03e-01	0	32	0	682622976	83	5623
2026-01-02 13:39:26.71	303.96	17.48	-60.4	-69.3	10.1	6.19e-01	0	32	0	688390144	88	10746
2026-01-02 13:39:29.68	304.66	17.30	-61.4	-80.2	3.8	7.47e-01	0	32	104	688914432	90	33692
2026-01-02 13:39:32.65	305.36	17.13	-61.6	-80.5	3.8	7.45e-01	0	32	104	688914432	91	32752
2026-01-02 13:39:35.62	306.05	16.95	-61.7	-80.6	3.8	7.46e-01	0	32	104	688914432	91	33125
2026-01-02 13:39:38.60	306.74	16.76	-61.8	-80.7	3.8	7.44e-01	0	32	104	688914432	91	33330
2026-01-02 13:39:41.59	307.41	16.58	-61.8	-80.7	3.8	7.49e-01	0	32	104	688914432	91	33421
2026-01-02 13:39:44.56	308.08	16.39	-61.8	-80.7	3.8	7.43e-01	0	32	104	688914432	91	33449
2026-01-02 13:39:47.55	308.74	16.20	-61.7	-80.6	3.8	7.46e-01	0	32	104	688914432	91	33257
2026-01-02 13:39:50.53	309.38	16.01	-61.6	-80.5	3.8	7.45e-01	0	32	104	688914432	91	32832
2026-01-02 13:39:53.53	310.03	15.82	-61.6	-80.4	3.8	7.48e-01	0	32	104	688914432	91	32533
2026-01-02 13:39:56.51	310.66	15.62	-61.5	-80.4	3.8	7.46e-01	0	32	104	688914432	91	32450
2026-01-02 13:39:59.48	311.28	15.43	-61.5	-80.4	3.8	7.47e-01	0	32	104	688914432	91	32519
2026-01-02 13:40:02.46	311.90	15.23	-61.5	-80.4	3.8	7.45e-01	0	32	104	688914432	91	32362
2026-01-02 13:40:05.43	312.50	15.03	-61.5	-80.4	3.8	7.47e-01	0	32	104	688914432	91	32276
2026-01-02 13:40:08.42	313.10	14.84	-61.7	-80.6	3.9	7.42e-01	0	31	104	688914432	91	33167
2026-01-02 13:40:11.41	313.69	14.64	-61.8	-80.7	3.8	7.50e-01	0	32	104	688914432	91	33513
2026-01-02 13:40:14.39	314.27	14.43	-61.8	-80.7	3.8	7.45e-01	0	32	104	688914432	91	33537
2026-01-02 13:40:17.38	314.85	14.23	-61.8	-80.7	3.8	7.48e-01	0	32	104	688914432	91	33404
2026-01-02 13:40:20.38	315.42	14.03	-61.6	-80.5	3.8	7.46e-01	0	32	104	688914432	91	32848
2026-01-02 13:40:23.37	315.98	13.83	-61.2	-80.1	3.8	7.47e-01	0	32	104	688914432	91	31198
2026-01-02 13:40:26.36	316.53	13.62	-61.1	-79.7	3.8	7.47e-01	0	32	104	688914432	91	29801
2026-01-02 13:40:29.34	317.07	13.42	-58.2	-61.9	14.1	6.00e-01	0	32	0	691535872	84	5732
2026-01-02 13:40:32.32	317.60	13.22	-59.9	-67.2	10.0	6.15e-01	0	32	0	697303040	88	8420
2026-01-02 13:40:35.31	318.13	13.01	-51.8	-53.1	16.8	6.03e-01	0	32	0	703070208	72	4147
2026-01-02 13:40:38.30	318.65	12.81	-51.8	-53.0	16.7	6.01e-01	0	32	0	708313088	72	4127
2026-01-02 13:40:41.28	319.16	12.61	-51.7	-52.9	16.8	6.02e-01	0	32	0	714080256	72	4093
2026-01-02 13:40:44.28	319.67	12.40	-51.7	-52.9	16.7	6.04e-01	0	32	0	719847424	72	4073
2026-01-02 13:40:47.27	320.17	12.20	-51.6	-52.9	16.7	6.04e-01	0	32	0	725090304	72	4066
2026-01-02 13:40:50.24	320.66	11.99	-51.6	-52.8	16.8	6.01e-01	0	32	0	730857472	72	4021
2026-01-02 13:40:53.24	321.14	11.79	-51.7	-53.0	16.7	6.00e-01	0	32	0	736624640	72	4110
2026-01-02 13:40:56.21	321.61	11.59	-51.8	-53.1	16.7	6.01e-01	0	32	0	741867520	72	4168
2026-01-02 13:40:59.20	322.08	11.38	-51.9	-53.1	16.7	6.01e-01	0	32	0	747634688	72	4181
2026-01-02 13:41:02.19	322.55	11.18	-51.8	-53.0	16.7	6.04e-01	0	32	0	753401856	72	4129
2026-01-02 13:41:05.17	323.00	10.98	-51.8	-53.0	16.7	6.02e-01	0	32	0	758644736	72	4133
2026-01-02 13:41:08.15	323.45	10.78	-51.7	-52.9	16.7	6.04e-01	0	32	0	764411904	72	4092
2026-01-02 13:41:11.13	323.90	10.57	-51.8	-53.0	16.7	6.03e-01	0	32	0	770179072	72	4138
2026-01-02 13:41:14.13	324.33	10.37	-51.9	-53.2	16.7	6.03e-01	0	32	0	775946240	72	4201
2026-01-02 13:41:17.11	324.76	10.17	-51.9	-53.3	16.6	6.02e-01	0	32	0	781189120	72	4244
2026-01-02 13:41:20.07	325.19	9.97	-52.0	-53.3	16.6	6.05e-01	0	31	0	786956288	72	4269
2026-01-02 13:41:23.05	325.60	9.77	-51.9	-53.3	16.6	6.02e-01	0	32	0	792199168	72	4247
2026-01-02 13:41:26.02	326.01	9.57	-51.9	-53.2	16.5	6.05e-01	0	32	0	797966336	72	4211
2026-01-02 13:41:29.00	326.42	9.38	-51.9	-53.3	16.6	6.02e-01	0	32	0	803733504	72	4250
2026-01-02 13:41:31.99	326.82	9.18	-52.0	-53.4	16.6	6.01e-01	0	31	0	808976384	72	4300
2026-01-02 13:41:34.98	327.22	8.98	-52.2	-53.5	16.6	6.02e-01	0	31	0	814743552	72	4380
2026-01-02 13:41:37.98	327.61	8.78	-52.2	-53.6	16.6	6.05e-01	0	32	0	820510720	72	4404
2026-01-02 13:41:40.97	327.99	8.59	-52.2	-53.6	16.5	6.01e-01	0	32	0	825753600	72	4434
2026-01-02 13:41:43.94	328.37	8.39	-52.3	-53.7	16.5	6.03e-01	0	31	0	831520768	72	4468
2026-01-02 13:41:46.92	328.75	8.20	-52.3	-53.7	16.5	6.04e-01	0	32	0	837287936	72	4482
2026-01-02 13:41:49.90	329.11	8.00	-52.4	-53.8	16.5	6.02e-01	0	32	0	842530816	72	4514
2026-01-02 13:41:52.89	329.48	7.81	-52.3	-53.7	16.5	6.05e-01	0	32	0	848297984	72	4469
2026-01-02 13:41:55.87	329.84	7.62	-52.4	-53.8	16.5	6.02e-01	0	32	0	854065152	72	4535
2026-01-02 13:41:58.85	330.19	7.43	-52.4	-53.9	16.4	6.04e-01	0	31	0	859308032	72	4565
2026-01-02 13:42:01.84	330.54	7.23	-52.3	-53.8	16.5	6.05e-01	0	31	0	865075200	72	4503
2026-01-02 13:42:04.83	330.88	7.04	-52.4	-53.9	16.4	6.03e-01	0	32	0	870842368	72	4593
2026-01-02 13:42:07.83	331.22	6.85	-52.6	-54.1	16.4	6.02e-01	0	32	0	876609536	73	4413
2026-01-02 13:42:10.80	331.56	6.67	-52.5	-54.1	16.5	6.02e-01	0	31	0	881852416	73	4399
2026-01-02 13:42:13.77	331.89	6.48	-52.7	-54.2	16.4	6.03e-01	0	32	0	887619584	73	4474
2026-01-02 13:42:16.75	332.21	6.29	-52.7	-54.3	16.4	6.03e-01	0	32	0	892862464	73	4522
2026-01-02 13:42:19.74	332.53	6.11	-52.8	-54.4	16.3	6.01e-01	0	32	0	898629632	73	4594
2026-01-02 13:42:22.70	332.85	5.92	-52.9	-54.5	16.3	6.02e-01	0	32	0	904396800	74	4391
2026-01-02 13:42:25.68	333.16	5.74	-52.7	-54.3	16.4	6.01e-01	0	31	0	909639680	74	4257
2026-01-02 13:42:28.65	333.47	5.55	-52.9	-54.5	16.3	6.03e-01	0	32	0	915406848	74	4375
2026-01-02 13:42:31.63	333.78	5.37	-52.7	-54.3	16.3	6.02e-01	0	31	0	921174016	74	4289
2026-01-02 13:42:34.63	334.08	5.19	-52.8	-54.6	16.2	6.03e-01	0	31	0	926416896	74	4396
2026-01-02 13:42:37.63	334.38	5.01	-56.1	-59.5	14.8	6.02e-01	0	32	0	932184064	79	5823
2026-01-02 13:42:40.62	334.67	4.83	-61.0	-79.9	3.8	7.47e-01	0	32	104	933232640	89	34247
2026-01-02 13:42:43.61	334.96	4.65	-61.5	-80.4	3.8	7.47e-01	0	32	104	933232640	90	34464
2026-01-02 13:42:46.62	335.25	4.46	-61.8	-80.7	3.8	7.48e-01	0	32	104	933232640	91	33480
2026-01-02 13:42:49.62	335.54	4.29	-61.9	-80.8	3.8	7.46e-01	0	31	104	933232640	91	34017
2026-01-02 13:42:52.62	335.82	4.11	-62.0	-80.9	3.8	7.44e-01	0	32	104	933232640	91	34204
2026-01-02 13:42:55.60	336.09	3.93	-62.0	-80.9	3.8	7.49e-01	0	32	104	933232640	91	34341
2026-01-02 13:42:58.60	336.37	3.75	-62.0	-80.9	3.8	7.46e-01	0	32	104	933232640	91	34274
2026-01-02 13:43:01.60	336.64	3.58	-61.9	-80.8	3.8	7.47e-01	0	32	104	933232640	91	33964
2026-01-02 13:43:04.60	336.90	3.40	-61.9	-80.8	3.8	7.47e-01	0	32	104	933232640	91	33740
2026-01-02 13:43:07.60	337.17	3.23	-61.8	-80.7	3.8	7.48e-01	0	32	104	933232640	91	33616
2026-01-02 13:43:10.62	337.43	3.05	-61.8	-80.7	3.8	7.46e-01	0	32	104	933232640	91	33641
2026-01-02 13:43:13.62	337.69	2.88	-61.8	-80.7	3.8	7.43e-01	0	32	104	933232640	91	33505
2026-01-02 13:43:16.62	337.94	2.71	-61.8	-80.7	3.8	7.44e-01	0	32	104	933232640	91	33331
2026-01-02 13:43:19.62	338.19	2.54	-61.8	-80.7	3.8	7.48e-01	0	32	104	933232640	91	33327
2026-01-02 13:43:22.61	338.44	2.37	-61.7	-80.6	3.8	7.45e-01	0	32	104	933232640	91	33208
2026-01-02 13:43:25.60	338.68	2.20	-61.7	-80.6	3.8	7.48e-01	0	31	104	933232640	91	33129
2026-01-02 13:43:28.58	338.92	2.03	-61.7	-80.6	3.8	7.46e-01	0	32	104	933232640	91	33121

#Closed at: 2026-01-02 13:43:29
#Recorded file [933 MB]: D:/lorett/data/31004_260102_163206.dat