passes_logs/2026/01/02/R3.2S_Murmansk/R3.2S_Murmansk__20260102_021237_AQUA_rec.log

#Pass ID: 20260102_021237_AQUA
#Satellite: AQUA
#Configuration: AQUA
#almurnet v.1.7.20251203
#Start time: 2026-01-02 02:12:36

#Version: 2.2.20231116
#Station: R3.2S_Murmansk
#Location: 33.079688 lon 68.888172 lat
#TLE: 1 27424U 02022A   25365.92641127  .00002078  00000+0  42628-3 0  9999
#TLE: 2 27424  98.4058 327.1196 0001962  94.7781 340.6230 14.61783896258835

#Time	Az	El	Level	Level2	SNR	BER	BlckErr	Temp	State	Recorded	gain1	gain2
2026-01-02 02:12:36.86	23.34	1.99	-54.6	-74.0	3.8	7.48e-01	0	31	0	0	77	34499
2026-01-02 02:12:39.86	23.36	2.19	-54.6	-74.0	3.8	7.46e-01	0	31	104	0	77	34496
2026-01-02 02:12:42.87	23.38	2.39	-54.6	-74.0	3.8	7.46e-01	0	31	104	0	77	34490
2026-01-02 02:12:45.88	23.40	2.59	-54.6	-74.0	3.8	7.44e-01	0	31	104	0	77	34585
2026-01-02 02:12:48.88	23.42	2.79	-54.6	-74.0	3.8	7.47e-01	0	31	104	0	77	34570
2026-01-02 02:12:51.87	23.44	3.00	-54.6	-73.9	3.8	7.45e-01	0	32	104	0	77	34474
2026-01-02 02:12:54.86	23.46	3.20	-54.6	-74.0	3.8	7.46e-01	0	31	104	0	77	34514
2026-01-02 02:12:57.86	23.49	3.41	-54.6	-74.0	3.8	7.48e-01	0	32	104	0	77	34556
2026-01-02 02:13:00.85	23.51	3.62	-54.6	-74.0	3.8	7.47e-01	0	32	104	0	77	34573
2026-01-02 02:13:03.85	23.53	3.83	-54.6	-74.0	3.8	7.46e-01	0	32	104	0	77	34561
2026-01-02 02:13:06.84	23.55	4.05	-54.6	-74.0	3.8	7.44e-01	0	32	104	0	77	34556
2026-01-02 02:13:09.83	23.57	4.26	-54.6	-74.0	3.8	7.42e-01	0	32	104	0	77	34638
2026-01-02 02:13:12.84	23.59	4.48	-54.6	-74.0	3.8	7.47e-01	0	32	104	0	77	34640
2026-01-02 02:13:15.82	23.61	4.70	-54.6	-74.0	3.8	7.46e-01	0	32	104	0	77	34636
2026-01-02 02:13:18.83	23.63	4.92	-54.6	-74.0	3.8	7.47e-01	0	32	104	0	77	34583
2026-01-02 02:13:21.83	23.66	5.15	-54.6	-73.9	3.8	7.47e-01	0	32	104	0	77	34479
2026-01-02 02:13:24.85	23.68	5.37	-54.6	-74.0	3.8	7.50e-01	0	32	104	0	77	34512
2026-01-02 02:13:27.86	23.70	5.60	-54.6	-74.0	3.8	7.44e-01	0	32	104	0	77	34661
2026-01-02 02:13:30.86	23.72	5.83	-54.6	-74.0	3.8	7.44e-01	0	32	104	0	77	34630
2026-01-02 02:13:33.86	23.74	6.07	-54.6	-73.9	3.8	7.45e-01	0	32	104	0	77	34440
2026-01-02 02:13:36.86	23.77	6.30	-54.6	-74.0	3.8	7.44e-01	0	32	104	0	77	34506
2026-01-02 02:13:39.87	23.79	6.54	-54.6	-74.0	3.8	7.48e-01	0	32	104	0	77	34571
2026-01-02 02:13:42.87	23.81	6.78	-54.7	-74.0	3.8	7.48e-01	0	32	104	0	77	34636
2026-01-02 02:13:45.85	23.83	7.02	-54.7	-74.0	3.8	7.46e-01	0	32	104	0	77	34689
2026-01-02 02:13:48.84	23.86	7.27	-54.6	-74.0	3.8	7.47e-01	0	32	104	0	77	34659
2026-01-02 02:13:51.83	23.88	7.51	-54.7	-74.0	3.8	7.46e-01	0	32	104	0	77	34614
2026-01-02 02:13:54.82	23.90	7.76	-54.7	-74.0	3.8	7.47e-01	0	32	104	0	77	34686
2026-01-02 02:13:57.82	23.93	8.02	-54.7	-74.0	3.8	7.45e-01	0	32	104	0	77	34685
2026-01-02 02:14:00.83	23.95	8.27	-54.7	-74.0	3.8	7.46e-01	0	33	104	0	77	34570
2026-01-02 02:14:03.83	23.98	8.53	-54.7	-74.0	3.8	7.48e-01	0	33	104	0	77	34639
2026-01-02 02:14:06.83	24.00	8.79	-54.7	-74.0	3.8	7.44e-01	0	33	104	0	77	34630
2026-01-02 02:14:09.83	24.02	9.06	-54.7	-74.0	3.8	7.46e-01	0	32	104	0	77	34481
2026-01-02 02:14:12.82	24.05	9.33	-54.7	-74.0	3.8	7.46e-01	0	32	104	0	77	34548
2026-01-02 02:14:15.82	24.07	9.60	-54.7	-74.0	3.8	7.45e-01	0	32	104	0	77	34583
2026-01-02 02:14:18.82	24.10	9.87	-54.7	-74.0	3.8	7.48e-01	0	32	104	0	77	34639
2026-01-02 02:14:21.82	24.12	10.15	-54.7	-74.0	3.8	7.49e-01	0	33	104	0	77	34640
2026-01-02 02:14:24.81	24.15	10.43	-54.7	-74.0	3.8	7.45e-01	0	33	104	0	77	34616
2026-01-02 02:14:27.81	24.18	10.72	-54.7	-74.0	3.8	7.45e-01	0	33	104	0	77	34646
2026-01-02 02:14:30.82	24.20	11.01	-54.7	-74.0	3.8	7.45e-01	0	32	104	0	77	34651
2026-01-02 02:14:33.83	24.23	11.30	-54.7	-74.0	3.8	7.45e-01	0	32	104	0	77	34705
2026-01-02 02:14:36.83	24.26	11.60	-54.7	-74.0	3.8	7.49e-01	0	33	104	0	77	34623
2026-01-02 02:14:39.84	24.28	11.90	-54.7	-74.0	3.8	7.46e-01	0	32	104	0	77	34605
2026-01-02 02:14:42.84	24.31	12.21	-54.7	-74.0	3.8	7.47e-01	0	33	104	0	77	34702
2026-01-02 02:14:45.85	24.34	12.52	-54.7	-74.0	3.8	7.45e-01	0	33	104	0	77	34708
2026-01-02 02:14:48.85	24.37	12.83	-54.7	-74.0	3.8	7.45e-01	0	33	104	0	77	34698
2026-01-02 02:14:51.84	24.40	13.15	-54.7	-74.0	3.8	7.48e-01	0	33	104	0	77	34690
2026-01-02 02:14:54.84	24.42	13.47	-54.7	-74.0	3.8	7.46e-01	0	33	104	0	77	34700
2026-01-02 02:14:57.83	24.45	13.80	-54.7	-74.0	3.8	7.49e-01	0	33	104	0	77	34732
2026-01-02 02:15:00.83	24.48	14.13	-54.7	-74.0	3.8	7.47e-01	0	33	104	0	77	34696
2026-01-02 02:15:03.81	24.51	14.47	-54.7	-74.0	3.8	7.47e-01	0	33	104	0	77	34718
2026-01-02 02:15:06.81	24.54	14.81	-54.7	-74.0	3.8	7.48e-01	0	33	104	0	77	34758
2026-01-02 02:15:09.80	24.57	15.16	-54.7	-74.0	3.9	7.44e-01	0	33	104	0	77	34724
2026-01-02 02:15:12.80	24.61	15.51	-54.7	-74.0	3.8	7.46e-01	0	33	104	0	77	34762
2026-01-02 02:15:15.80	24.64	15.88	-54.7	-74.0	3.8	7.47e-01	0	33	104	0	77	34802
2026-01-02 02:15:18.79	24.67	16.24	-54.7	-74.0	3.8	7.47e-01	0	33	104	0	77	34742
2026-01-02 02:15:21.81	24.70	16.62	-54.7	-74.0	3.8	7.44e-01	0	33	104	0	77	34814
2026-01-02 02:15:24.81	24.74	16.99	-54.7	-74.0	3.8	7.46e-01	0	33	104	0	77	34736
2026-01-02 02:15:27.82	24.77	17.38	-54.7	-74.0	3.8	7.44e-01	0	33	104	0	77	34730
2026-01-02 02:15:30.82	24.81	17.77	-54.7	-74.0	3.8	7.46e-01	0	33	104	0	77	34818
2026-01-02 02:15:33.82	24.84	18.17	-54.7	-74.0	3.8	7.40e-01	0	33	104	0	77	34842
2026-01-02 02:15:36.82	24.88	18.58	-54.7	-74.0	3.8	7.46e-01	0	33	104	0	77	34829
2026-01-02 02:15:39.82	24.91	18.99	-54.7	-74.0	3.8	7.46e-01	0	33	104	0	77	34768
2026-01-02 02:15:42.82	24.95	19.42	-54.7	-74.0	3.8	7.44e-01	0	33	104	0	77	34770
2026-01-02 02:15:45.82	24.99	19.85	-54.7	-74.1	3.8	7.46e-01	0	33	104	0	77	34920
2026-01-02 02:15:48.82	25.03	20.29	-54.7	-74.0	3.8	7.47e-01	0	33	104	0	77	34864
2026-01-02 02:15:51.82	25.07	20.73	-54.7	-74.0	3.8	7.46e-01	0	33	104	0	77	34807
2026-01-02 02:15:54.81	25.11	21.19	-54.7	-74.0	3.9	7.46e-01	0	33	104	0	77	34787
2026-01-02 02:15:57.81	25.15	21.65	-54.7	-74.0	3.8	7.46e-01	0	33	104	0	77	34765
2026-01-02 02:16:00.80	25.19	22.12	-54.7	-74.0	3.8	7.47e-01	0	33	104	0	77	34829
2026-01-02 02:16:03.80	25.23	22.61	-54.7	-74.0	3.8	7.48e-01	0	33	104	0	77	34798
2026-01-02 02:16:06.79	25.28	23.10	-54.7	-74.0	3.8	7.46e-01	0	33	104	0	77	34764
2026-01-02 02:16:09.78	25.32	23.61	-54.7	-74.0	3.8	7.46e-01	0	33	104	0	77	34833
2026-01-02 02:16:12.78	25.37	24.12	-54.7	-74.0	3.8	7.48e-01	0	33	104	0	77	34850
2026-01-02 02:16:15.78	25.42	24.65	-54.7	-74.0	3.8	7.49e-01	0	33	104	0	77	34795
2026-01-02 02:16:18.77	25.47	25.19	-54.7	-74.0	3.8	7.47e-01	0	33	104	0	77	34792
2026-01-02 02:16:21.77	25.52	25.74	-54.7	-74.0	3.8	7.45e-01	0	33	104	0	77	34801
2026-01-02 02:16:24.76	25.57	26.30	-54.7	-74.0	3.8	7.45e-01	0	33	104	0	77	34840
2026-01-02 02:16:27.77	25.62	26.88	-54.7	-74.1	3.8	7.44e-01	0	33	104	0	77	34882
2026-01-02 02:16:30.77	25.68	27.47	-54.7	-74.0	3.8	7.44e-01	0	33	104	0	77	34735
2026-01-02 02:16:33.77	25.73	28.07	-54.7	-74.0	3.8	7.45e-01	0	33	104	0	77	34825
2026-01-02 02:16:36.76	25.79	28.69	-54.7	-74.0	3.8	7.48e-01	0	33	104	0	77	34812
2026-01-02 02:16:39.77	25.85	29.33	-54.7	-74.0	3.8	7.46e-01	0	33	104	0	77	34786
2026-01-02 02:16:42.79	25.91	29.98	-54.7	-74.1	3.8	7.45e-01	0	33	104	0	77	34893
2026-01-02 02:16:45.79	25.98	30.65	-54.7	-74.0	3.8	7.45e-01	0	33	104	0	77	34799
2026-01-02 02:16:48.78	26.04	31.33	-54.7	-74.0	3.8	7.44e-01	0	33	104	0	77	34870
2026-01-02 02:16:51.78	26.11	32.03	-54.7	-74.0	3.8	7.44e-01	0	33	104	0	77	34836
2026-01-02 02:16:54.78	26.18	32.74	-54.7	-74.0	3.8	7.46e-01	0	33	104	0	77	34864
2026-01-02 02:16:57.77	26.26	33.48	-54.7	-74.0	3.8	7.46e-01	0	33	104	0	77	34843
2026-01-02 02:17:00.77	26.34	34.24	-54.7	-74.0	3.8	7.47e-01	0	33	104	0	77	34803
2026-01-02 02:17:03.76	26.42	35.01	-54.7	-74.0	3.8	7.45e-01	0	33	104	0	77	34796
2026-01-02 02:17:06.76	26.50	35.81	-54.7	-74.1	3.8	7.43e-01	0	33	104	0	77	34901
2026-01-02 02:17:09.75	26.59	36.62	-54.7	-74.0	3.8	7.48e-01	0	33	104	0	77	34872
2026-01-02 02:17:12.75	26.68	37.47	-54.7	-74.1	3.8	7.45e-01	0	33	104	0	77	34885
2026-01-02 02:17:15.74	26.77	38.33	-54.7	-74.0	3.8	7.48e-01	0	33	104	0	77	34847
2026-01-02 02:17:18.74	26.87	39.22	-54.7	-74.0	3.8	7.44e-01	0	33	104	0	77	34840
2026-01-02 02:17:21.75	26.98	40.13	-54.7	-74.0	3.8	7.46e-01	0	33	104	0	77	34868
2026-01-02 02:17:24.74	27.09	41.07	-54.7	-74.1	3.8	7.46e-01	0	33	104	0	77	34880
2026-01-02 02:17:27.73	27.21	42.03	-54.7	-74.1	3.8	7.44e-01	0	33	104	0	77	34923
2026-01-02 02:17:30.74	27.33	43.03	-54.7	-74.1	3.8	7.45e-01	0	33	104	0	77	34888
2026-01-02 02:17:33.75	27.47	44.05	-54.7	-74.1	3.8	7.48e-01	0	33	104	0	77	34894
2026-01-02 02:17:36.75	27.61	45.10	-54.7	-74.0	3.8	7.45e-01	0	33	104	0	77	34848
2026-01-02 02:17:39.75	27.75	46.18	-54.7	-74.1	3.8	7.42e-01	0	33	104	0	77	34888
2026-01-02 02:17:42.77	27.91	47.30	-54.7	-74.0	3.8	7.45e-01	0	33	104	0	77	34853
2026-01-02 02:17:45.76	28.08	48.44	-54.7	-74.0	3.8	7.44e-01	0	33	104	0	77	34870
2026-01-02 02:17:48.77	28.27	49.61	-54.7	-74.0	3.8	7.46e-01	0	33	104	0	77	34872
2026-01-02 02:17:51.77	28.46	50.82	-54.7	-74.1	3.8	7.44e-01	0	33	104	0	77	34936
2026-01-02 02:17:54.77	28.67	52.06	-54.7	-74.0	3.8	7.47e-01	0	33	104	0	77	34876
2026-01-02 02:17:57.76	28.90	53.33	-54.7	-74.1	3.8	7.47e-01	0	33	104	0	77	34884
2026-01-02 02:18:00.75	29.15	54.63	-54.7	-74.0	3.8	7.46e-01	0	33	104	0	77	34798
2026-01-02 02:18:03.74	29.43	55.97	-54.7	-74.0	3.8	7.46e-01	0	33	104	0	77	34873
2026-01-02 02:18:06.74	29.73	57.34	-54.7	-74.1	3.8	7.46e-01	0	33	104	0	77	34981
2026-01-02 02:18:09.74	30.06	58.75	-54.7	-74.1	3.8	7.47e-01	0	33	104	0	77	34923
2026-01-02 02:18:12.75	30.43	60.20	-54.7	-74.1	3.8	7.46e-01	0	33	104	0	77	34943
2026-01-02 02:18:15.74	30.84	61.67	-54.7	-74.1	3.8	7.46e-01	0	33	104	0	77	34960
2026-01-02 02:18:18.75	31.30	63.19	-54.7	-74.1	3.8	7.45e-01	0	33	104	0	77	34923
2026-01-02 02:18:21.75	31.83	64.73	-54.7	-74.1	3.8	7.46e-01	0	33	104	0	77	34902
2026-01-02 02:18:24.75	32.43	66.31	-54.7	-74.0	3.8	7.43e-01	0	33	104	0	77	34852
2026-01-02 02:18:27.76	33.13	67.92	-54.7	-74.1	3.8	7.48e-01	0	33	104	0	77	34912
2026-01-02 02:18:30.77	33.95	69.56	-54.7	-74.1	3.8	7.47e-01	0	33	104	0	77	34949
2026-01-02 02:18:33.76	34.92	71.21	-54.7	-74.0	3.8	7.45e-01	0	33	104	0	77	34858
2026-01-02 02:18:36.76	36.09	72.89	-54.7	-74.1	3.8	7.50e-01	0	33	104	0	77	34918
2026-01-02 02:18:39.77	37.53	74.60	-54.7	-74.1	3.8	7.44e-01	0	33	104	0	77	34889
2026-01-02 02:18:42.77	39.34	76.31	-54.7	-74.0	3.8	7.47e-01	0	33	104	0	77	34867
2026-01-02 02:18:45.76	41.68	78.02	-54.7	-74.0	3.8	7.44e-01	0	33	104	0	77	34864
2026-01-02 02:18:48.76	44.83	79.73	-54.7	-74.1	3.8	7.45e-01	0	33	104	0	77	34940
2026-01-02 02:18:51.78	49.27	81.42	-54.7	-74.1	3.8	7.46e-01	0	33	104	0	77	34937
2026-01-02 02:18:54.78	55.82	83.04	-54.7	-74.1	3.8	7.44e-01	0	33	104	0	77	34887
2026-01-02 02:18:57.76	66.07	84.51	-54.7	-74.1	3.8	7.45e-01	0	33	104	0	77	34940
2026-01-02 02:19:00.75	82.92	85.71	-54.7	-74.1	3.8	7.43e-01	0	33	104	0	77	34906
2026-01-02 02:19:03.75	108.55	86.31	-54.7	-74.1	3.8	7.49e-01	0	33	104	0	77	34946
2026-01-02 02:19:06.75	136.44	86.03	-54.7	-74.1	3.8	7.46e-01	0	33	104	0	77	34905
2026-01-02 02:19:09.75	156.69	85.01	-54.7	-74.1	3.8	7.45e-01	0	33	104	0	77	34884
2026-01-02 02:19:12.74	169.07	83.62	-54.7	-74.1	3.8	7.45e-01	0	33	104	0	77	34882
2026-01-02 02:19:15.72	176.74	82.05	-54.7	-74.1	3.8	7.49e-01	0	33	104	0	77	34923
2026-01-02 02:19:18.72	181.85	80.38	-54.7	-74.0	3.8	7.45e-01	0	33	104	0	77	34852
2026-01-02 02:19:21.72	185.41	78.68	-54.7	-74.0	3.8	7.47e-01	0	33	104	0	77	34861
2026-01-02 02:19:24.71	188.02	76.97	-54.7	-74.1	3.8	7.48e-01	0	33	104	0	77	34905
2026-01-02 02:19:27.71	190.02	75.25	-54.7	-74.1	3.8	7.45e-01	0	33	104	0	77	34985
2026-01-02 02:19:30.71	191.59	73.55	-54.7	-74.1	3.8	7.42e-01	0	33	104	0	77	34918
2026-01-02 02:19:33.72	192.85	71.85	-54.7	-74.1	3.8	7.46e-01	0	33	104	0	77	34900
2026-01-02 02:19:36.71	193.89	70.19	-54.7	-74.1	3.8	7.47e-01	0	33	104	0	77	34979
2026-01-02 02:19:39.73	194.77	68.53	-54.7	-74.1	3.8	7.48e-01	0	33	104	0	77	34880
2026-01-02 02:19:42.73	195.51	66.91	-54.7	-74.1	3.9	7.46e-01	0	33	104	0	77	34942
2026-01-02 02:19:45.74	196.15	65.31	-54.7	-74.1	3.8	7.44e-01	0	33	104	0	77	34903
2026-01-02 02:19:48.74	196.70	63.76	-54.7	-74.1	3.8	7.45e-01	0	33	104	0	77	34903
2026-01-02 02:19:51.74	197.19	62.23	-54.7	-74.1	3.8	7.43e-01	0	33	104	0	77	34902
2026-01-02 02:19:54.75	197.62	60.73	-54.7	-74.1	3.8	7.43e-01	0	33	104	0	77	34905
2026-01-02 02:19:57.74	198.00	59.27	-54.7	-74.1	3.8	7.46e-01	0	33	104	0	77	34963
2026-01-02 02:20:00.74	198.35	57.85	-54.7	-74.1	3.8	7.45e-01	0	33	104	0	77	34884
2026-01-02 02:20:03.74	198.66	56.45	-54.7	-74.1	3.8	7.46e-01	0	33	104	0	77	35014
2026-01-02 02:20:06.74	198.94	55.10	-54.7	-74.1	3.8	7.45e-01	0	33	104	0	77	34950
2026-01-02 02:20:09.73	199.20	53.78	-54.7	-74.1	3.8	7.42e-01	0	33	104	0	77	34944
2026-01-02 02:20:12.73	199.44	52.49	-54.7	-74.1	3.8	7.43e-01	0	33	104	0	77	34959
2026-01-02 02:20:15.74	199.66	51.23	-54.7	-74.1	3.8	7.49e-01	0	33	104	0	77	34940
2026-01-02 02:20:18.75	199.86	50.01	-54.7	-74.1	3.8	7.41e-01	0	33	104	0	77	34971
2026-01-02 02:20:21.75	200.05	48.82	-54.7	-74.1	3.8	7.44e-01	0	33	104	0	77	34972
2026-01-02 02:20:24.74	200.22	47.66	-54.7	-74.1	3.8	7.47e-01	0	33	104	0	77	34960
2026-01-02 02:20:27.73	200.38	46.54	-54.7	-74.1	3.8	7.45e-01	0	33	104	0	77	34915
2026-01-02 02:20:30.73	200.53	45.45	-54.7	-74.1	3.8	7.44e-01	0	33	104	0	77	35018
2026-01-02 02:20:33.73	200.68	44.39	-54.7	-74.0	3.8	7.46e-01	0	33	104	0	77	34875
2026-01-02 02:20:36.73	200.81	43.35	-54.7	-74.1	3.8	7.50e-01	0	33	104	0	77	34976
2026-01-02 02:20:39.73	200.94	42.35	-54.7	-74.1	3.8	7.48e-01	0	33	104	0	77	34932
2026-01-02 02:20:42.64	201.05	41.40	-54.7	-74.1	3.8	7.43e-01	0	33	104	0	77	34990
2026-01-02 02:20:45.65	201.17	40.44	-54.7	-74.1	3.8	7.44e-01	0	33	104	0	77	34931
2026-01-02 02:20:48.65	201.27	39.51	-54.7	-74.1	3.8	7.46e-01	0	33	104	0	77	34955
2026-01-02 02:20:51.65	201.38	38.61	-54.7	-74.1	3.8	7.49e-01	0	33	104	0	77	34986
2026-01-02 02:20:54.66	201.47	37.73	-54.7	-74.1	3.8	7.43e-01	0	33	104	0	77	34960
2026-01-02 02:20:57.67	201.57	36.88	-54.7	-74.1	3.8	7.45e-01	0	33	104	0	77	34944
2026-01-02 02:21:00.66	201.65	36.05	-54.7	-74.0	3.8	7.45e-01	0	33	104	0	77	34862
2026-01-02 02:21:03.67	201.74	35.24	-54.7	-74.1	3.8	7.45e-01	0	33	104	0	77	34946
2026-01-02 02:21:06.67	201.82	34.45	-54.7	-74.1	3.8	7.44e-01	0	33	104	0	77	34962
2026-01-02 02:21:09.65	201.90	33.69	-54.7	-74.1	3.8	7.47e-01	0	33	104	0	77	34935
2026-01-02 02:21:12.65	201.97	32.94	-54.7	-74.1	3.8	7.46e-01	0	33	104	0	77	34951
2026-01-02 02:21:15.65	202.04	32.22	-54.7	-74.1	3.8	7.44e-01	0	33	104	0	77	34891
2026-01-02 02:21:18.64	202.11	31.51	-54.7	-74.1	3.8	7.47e-01	0	33	104	0	77	34933
2026-01-02 02:21:21.63	202.18	30.82	-54.7	-74.1	3.8	7.46e-01	0	33	104	0	77	34892
2026-01-02 02:21:24.63	202.24	30.15	-54.7	-74.1	3.8	7.45e-01	0	33	104	0	77	34947
2026-01-02 02:21:27.62	202.31	29.49	-54.7	-74.1	3.8	7.45e-01	0	33	104	0	77	34964
2026-01-02 02:21:30.62	202.37	28.85	-54.7	-74.1	3.8	7.48e-01	0	33	104	0	77	35065
2026-01-02 02:21:33.63	202.42	28.22	-54.7	-74.1	3.8	7.45e-01	0	33	104	0	77	35030
2026-01-02 02:21:36.63	202.48	27.61	-54.7	-74.1	3.8	7.50e-01	0	33	104	0	77	34904
2026-01-02 02:21:39.61	202.53	27.01	-54.7	-74.1	3.8	7.46e-01	0	33	104	0	77	34966
2026-01-02 02:21:42.63	202.59	26.43	-54.7	-74.1	3.8	7.46e-01	0	33	104	0	77	34948
2026-01-02 02:21:45.62	202.64	25.86	-54.7	-74.1	3.8	7.47e-01	0	33	104	0	77	34906
2026-01-02 02:21:48.62	202.69	25.30	-54.7	-74.1	3.8	7.47e-01	0	33	104	0	77	34966
2026-01-02 02:21:51.62	202.74	24.76	-54.7	-74.1	3.8	7.47e-01	0	33	104	0	77	34922
2026-01-02 02:21:54.61	202.78	24.22	-54.7	-74.1	3.8	7.47e-01	0	33	104	0	77	34903
2026-01-02 02:21:57.62	202.83	23.70	-54.7	-74.1	3.8	7.44e-01	0	33	104	0	77	34968
2026-01-02 02:22:00.62	202.87	23.19	-54.7	-74.1	3.8	7.46e-01	0	33	104	0	77	34888
2026-01-02 02:22:03.62	202.92	22.69	-54.7	-74.1	3.8	7.43e-01	0	33	104	0	77	35001
2026-01-02 02:22:06.62	202.96	22.20	-54.7	-74.1	3.8	7.46e-01	0	33	104	0	77	34999
2026-01-02 02:22:09.61	203.00	21.72	-54.7	-74.1	3.8	7.41e-01	0	33	104	0	77	34896
2026-01-02 02:22:12.59	203.04	21.26	-54.7	-74.1	3.8	7.47e-01	0	33	104	0	77	34939
2026-01-02 02:22:15.59	203.08	20.80	-54.7	-74.1	3.8	7.45e-01	0	33	104	0	77	34971
2026-01-02 02:22:18.58	203.12	20.35	-54.7	-74.1	3.8	7.44e-01	0	33	104	0	77	34892
2026-01-02 02:22:21.57	203.16	19.90	-54.7	-74.1	3.8	7.48e-01	0	33	104	0	77	34934
2026-01-02 02:22:24.58	203.20	19.47	-54.7	-74.1	3.8	7.44e-01	0	33	104	0	77	35032
2026-01-02 02:22:27.59	203.23	19.04	-54.7	-74.1	3.8	7.47e-01	0	33	104	0	77	34945
2026-01-02 02:22:30.58	203.27	18.62	-54.7	-74.1	3.8	7.48e-01	0	33	104	0	77	34901
2026-01-02 02:22:33.59	203.30	18.21	-54.7	-74.1	3.8	7.48e-01	0	33	104	0	77	34890
2026-01-02 02:22:36.59	203.34	17.81	-54.7	-74.1	3.8	7.43e-01	0	33	104	0	77	34967
2026-01-02 02:22:39.60	203.37	17.41	-54.7	-74.1	3.8	7.47e-01	0	33	104	0	77	34932
2026-01-02 02:22:42.60	203.40	17.02	-54.7	-74.1	3.8	7.46e-01	0	33	104	0	77	35009
2026-01-02 02:22:45.61	203.44	16.64	-54.7	-74.1	3.8	7.47e-01	0	33	104	0	77	35017
2026-01-02 02:22:48.62	203.47	16.26	-54.7	-74.1	3.8	7.44e-01	0	33	104	0	77	34970
2026-01-02 02:22:51.61	203.50	15.89	-54.7	-74.1	3.8	7.47e-01	0	33	104	0	77	34991
2026-01-02 02:22:54.62	203.53	15.53	-54.7	-74.1	3.8	7.45e-01	0	33	104	0	77	34909
2026-01-02 02:22:57.62	203.56	15.17	-54.7	-74.1	3.8	7.48e-01	0	33	104	0	77	34954
2026-01-02 02:23:00.62	203.59	14.82	-54.7	-74.1	3.8	7.46e-01	0	33	104	0	77	34946
2026-01-02 02:23:03.62	203.62	14.47	-54.7	-74.1	3.8	7.46e-01	0	33	104	0	77	35022
2026-01-02 02:23:06.60	203.65	14.13	-54.7	-74.1	3.8	7.46e-01	0	33	104	0	77	34942
2026-01-02 02:23:09.59	203.68	13.80	-54.7	-74.1	3.8	7.44e-01	0	33	104	0	77	34993
2026-01-02 02:23:12.59	203.71	13.47	-54.7	-74.1	3.8	7.45e-01	0	33	104	0	77	34987
2026-01-02 02:23:15.58	203.73	13.14	-54.7	-74.1	3.8	7.46e-01	0	33	104	0	77	34939
2026-01-02 02:23:18.58	203.76	12.82	-54.7	-74.1	3.8	7.45e-01	0	33	104	0	77	34935
2026-01-02 02:23:21.58	203.79	12.51	-54.7	-74.1	3.8	7.46e-01	0	33	104	0	77	34951
2026-01-02 02:23:24.58	203.81	12.19	-54.7	-74.1	3.8	7.46e-01	0	33	104	0	77	34920
2026-01-02 02:23:27.57	203.84	11.89	-54.7	-74.1	3.8	7.47e-01	0	33	104	0	77	34968
2026-01-02 02:23:30.58	203.86	11.58	-54.7	-74.1	3.8	7.45e-01	0	33	104	0	77	34955
2026-01-02 02:23:33.58	203.89	11.28	-54.7	-74.1	3.8	7.46e-01	0	33	104	0	77	35010
2026-01-02 02:23:36.57	203.92	10.99	-54.7	-74.1	3.8	7.42e-01	0	33	104	0	77	34945
2026-01-02 02:23:39.56	203.94	10.70	-54.7	-74.1	3.8	7.44e-01	0	33	104	0	77	34910
2026-01-02 02:23:42.57	203.96	10.41	-54.7	-74.1	3.8	7.45e-01	0	33	104	0	77	34936
2026-01-02 02:23:45.58	203.99	10.13	-54.7	-74.1	3.8	7.44e-01	0	33	104	0	77	35068
2026-01-02 02:23:48.58	204.01	9.85	-54.7	-74.1	3.8	7.46e-01	0	33	104	0	77	34973
2026-01-02 02:23:51.57	204.04	9.57	-54.7	-74.1	3.8	7.43e-01	0	33	104	0	77	34994
2026-01-02 02:23:54.56	204.06	9.30	-54.7	-74.1	3.8	7.45e-01	0	33	104	0	77	34912
2026-01-02 02:23:57.57	204.08	9.03	-54.7	-74.1	3.8	7.43e-01	0	33	104	0	77	34898
2026-01-02 02:24:00.56	204.11	8.76	-54.7	-74.1	3.8	7.46e-01	0	33	104	0	77	34889
2026-01-02 02:24:03.55	204.13	8.50	-54.7	-74.1	3.8	7.44e-01	0	33	104	0	77	34967
2026-01-02 02:24:06.54	204.15	8.24	-54.7	-74.1	3.8	7.44e-01	0	33	104	0	77	34965
2026-01-02 02:24:09.53	204.17	7.98	-54.7	-74.1	3.8	7.41e-01	0	33	104	0	77	34952
2026-01-02 02:24:12.52	204.19	7.73	-54.7	-74.1	3.8	7.42e-01	0	33	104	0	77	34944
2026-01-02 02:24:15.52	204.22	7.47	-54.7	-74.1	3.8	7.43e-01	0	33	104	0	77	34956
2026-01-02 02:24:18.51	204.24	7.23	-54.7	-74.1	3.8	7.45e-01	0	33	104	0	77	35008
2026-01-02 02:24:21.52	204.26	6.98	-54.7	-74.1	3.8	7.47e-01	0	33	104	0	77	34946
2026-01-02 02:24:24.51	204.28	6.74	-54.7	-74.1	3.8	7.47e-01	0	33	104	0	77	34963
2026-01-02 02:24:27.52	204.30	6.49	-54.7	-74.1	3.8	7.46e-01	0	33	104	0	77	34941
2026-01-02 02:24:30.51	204.32	6.26	-54.7	-74.1	3.8	7.47e-01	0	33	104	0	77	34911
2026-01-02 02:24:33.50	204.34	6.02	-54.7	-74.1	3.8	7.47e-01	0	33	104	0	77	34933
2026-01-02 02:24:36.51	204.36	5.78	-54.7	-74.1	3.8	7.43e-01	0	33	104	0	77	34911
2026-01-02 02:24:39.51	204.38	5.55	-54.7	-74.1	3.8	7.46e-01	0	33	104	0	77	34959
2026-01-02 02:24:42.52	204.40	5.32	-54.7	-74.1	3.8	7.45e-01	0	33	104	0	77	34917
2026-01-02 02:24:45.53	204.42	5.09	-54.7	-74.1	3.8	7.45e-01	0	33	104	0	77	34897
2026-01-02 02:24:48.53	204.44	4.87	-54.7	-74.1	3.8	7.46e-01	0	33	104	0	77	34957
2026-01-02 02:24:51.53	204.46	4.65	-54.7	-74.1	3.8	7.46e-01	0	33	104	0	77	34934
2026-01-02 02:24:54.52	204.48	4.43	-54.7	-74.1	3.8	7.45e-01	0	33	104	0	77	35004
2026-01-02 02:24:57.51	204.50	4.21	-54.7	-74.1	3.8	7.43e-01	0	33	104	0	77	34908
2026-01-02 02:25:00.51	204.52	3.99	-54.7	-74.1	3.8	7.43e-01	0	33	104	0	77	34938
2026-01-02 02:25:03.51	204.54	3.78	-54.7	-74.0	3.8	7.42e-01	0	33	104	0	77	34839
2026-01-02 02:25:06.50	204.56	3.56	-54.7	-74.1	3.8	7.45e-01	0	33	104	0	77	35004
2026-01-02 02:25:09.49	204.58	3.35	-54.7	-74.1	3.8	7.48e-01	0	33	104	0	77	34972
2026-01-02 02:25:12.47	204.59	3.14	-54.7	-74.1	3.8	7.49e-01	0	33	104	0	77	34981
2026-01-02 02:25:15.47	204.61	2.94	-54.7	-74.1	3.8	7.43e-01	0	33	104	0	77	34954
2026-01-02 02:25:18.46	204.63	2.73	-54.7	-74.0	3.8	7.45e-01	0	33	104	0	77	34827
2026-01-02 02:25:21.47	204.65	2.53	-54.7	-74.0	3.8	7.48e-01	0	33	104	0	77	34868
2026-01-02 02:25:24.47	204.67	2.32	-54.7	-74.0	3.8	7.43e-01	0	33	104	0	77	34877
2026-01-02 02:25:27.47	204.69	2.12	-54.7	-74.0	3.8	7.45e-01	0	33	104	0	77	34867

#Closed at: 2026-01-02 02:25:30
#Recorded file [0 MB]: D:/lorett/data/31004_260102_051236.dat