passes_logs/2026/01/02/R3.2S_Murmansk/R3.2S_Murmansk__20260102_000729_KANOPUS-V_6_rec.log

#Pass ID: 20260102_000729_KANOPUS-V 6
#Satellite: KANOPUS-V 6
#Configuration: KANOPUS-V_8320
#almurnet v.1.7.20251203
#Start time: 2026-01-02 00:07:29

#Version: 2.2.20231116
#Station: R3.2S_Murmansk
#Location: 33.079688 lon 68.888172 lat
#TLE: 1 43877U 18111B   26001.20722580  .00026151  00000+0  76270-3 0  9995
#TLE: 2 43877  97.3771 277.3120 0002522 101.1090 259.0437 15.35332397389843

#Time	Az	El	Level	Level2	SNR	BER	BlckErr	Temp	State	Recorded	gain1	gain2
2026-01-02 00:07:29.13	21.61	2.00	-60.7	-70.4	3.8	7.46e-01	0	31	0	0	86	10493
2026-01-02 00:07:32.13	21.43	2.20	-60.7	-70.4	3.8	7.47e-01	0	31	104	0	86	10490
2026-01-02 00:07:35.11	21.25	2.40	-60.7	-70.4	3.8	7.45e-01	0	31	104	0	86	10428
2026-01-02 00:07:38.12	21.06	2.61	-60.7	-70.4	3.8	7.46e-01	0	31	104	0	84	11780
2026-01-02 00:07:41.12	20.87	2.82	-60.7	-70.4	3.8	7.46e-01	0	31	104	0	84	11746
2026-01-02 00:07:44.12	20.68	3.03	-60.7	-70.4	3.8	7.46e-01	0	31	104	0	84	11751
2026-01-02 00:07:47.11	20.48	3.24	-60.7	-70.4	3.8	7.45e-01	0	32	104	0	84	11749
2026-01-02 00:07:50.11	20.28	3.45	-60.7	-70.4	3.8	7.46e-01	0	32	104	0	84	11725
2026-01-02 00:07:53.10	20.07	3.66	-60.7	-70.4	3.8	7.45e-01	0	32	104	0	84	11719
2026-01-02 00:07:56.08	19.86	3.88	-60.7	-70.4	3.8	7.46e-01	0	32	104	0	84	11768
2026-01-02 00:07:59.06	19.65	4.10	-60.7	-70.4	3.8	7.46e-01	0	32	104	0	84	11765
2026-01-02 00:08:02.06	19.43	4.32	-60.7	-70.4	3.8	7.47e-01	0	32	104	0	84	11728
2026-01-02 00:08:05.06	19.20	4.54	-60.7	-70.4	3.8	7.44e-01	0	32	104	0	84	11727
2026-01-02 00:08:08.04	18.97	4.77	-60.7	-70.4	3.8	7.46e-01	0	32	104	0	84	11710
2026-01-02 00:08:11.05	18.74	5.00	-60.7	-70.3	3.8	7.47e-01	0	32	104	0	84	11673
2026-01-02 00:08:14.05	18.50	5.23	-60.8	-70.6	3.8	7.45e-01	0	32	104	0	84	11979
2026-01-02 00:08:17.06	18.25	5.46	-60.6	-70.3	3.8	7.45e-01	0	32	104	0	84	11681
2026-01-02 00:08:20.06	18.00	5.70	-60.8	-70.5	3.8	7.45e-01	0	32	104	0	84	11893
2026-01-02 00:08:23.06	17.74	5.94	-60.7	-70.4	3.8	7.47e-01	0	32	104	0	84	11785
2026-01-02 00:08:26.06	17.48	6.18	-60.9	-70.6	3.8	7.44e-01	0	32	104	0	84	11992
2026-01-02 00:08:29.04	17.21	6.42	-60.7	-70.5	3.8	7.46e-01	0	32	104	0	84	11822
2026-01-02 00:08:32.04	16.94	6.67	-60.9	-70.6	3.8	7.44e-01	0	33	104	0	84	12008
2026-01-02 00:08:35.04	16.66	6.92	-60.8	-70.5	3.8	7.45e-01	0	33	104	0	85	11249
2026-01-02 00:08:38.04	16.37	7.17	-61.0	-70.7	3.8	7.45e-01	0	33	104	0	85	11462
2026-01-02 00:08:41.03	16.08	7.43	-60.8	-70.6	3.8	7.45e-01	0	32	104	0	85	11364
2026-01-02 00:08:44.04	15.77	7.69	-61.0	-70.7	3.8	7.47e-01	0	32	104	0	85	11468
2026-01-02 00:08:47.03	15.47	7.95	-60.9	-70.6	3.8	7.45e-01	0	33	104	0	85	11361
2026-01-02 00:08:50.03	15.15	8.21	-61.0	-70.7	3.8	7.47e-01	0	33	104	0	85	11534
2026-01-02 00:08:53.03	14.83	8.48	-60.9	-70.7	3.8	7.45e-01	0	33	104	0	85	11457
2026-01-02 00:08:56.02	14.49	8.75	-61.0	-70.8	3.8	7.48e-01	0	33	104	0	85	11588
2026-01-02 00:08:59.02	14.15	9.02	-61.0	-70.7	3.8	7.45e-01	0	33	104	0	85	11496
2026-01-02 00:09:02.00	13.81	9.30	-61.1	-70.8	3.8	7.46e-01	0	33	104	0	85	11644
2026-01-02 00:09:05.00	13.45	9.58	-61.0	-70.7	3.8	7.45e-01	0	33	104	0	85	11546
2026-01-02 00:09:07.99	13.08	9.87	-61.1	-70.9	3.8	7.46e-01	0	33	104	0	85	11687
2026-01-02 00:09:11.00	12.70	10.16	-61.1	-70.8	3.8	7.45e-01	0	33	104	0	85	11608
2026-01-02 00:09:14.00	12.32	10.45	-61.2	-70.9	3.8	7.45e-01	0	33	104	0	85	11806
2026-01-02 00:09:16.98	11.92	10.74	-61.1	-70.8	3.8	7.46e-01	0	33	104	0	85	11646
2026-01-02 00:09:19.99	11.51	11.04	-61.2	-70.9	3.8	7.43e-01	0	33	104	0	85	11772
2026-01-02 00:09:22.98	11.09	11.35	-61.2	-70.9	3.8	7.46e-01	0	33	104	0	85	11762
2026-01-02 00:09:25.97	10.67	11.65	-61.3	-71.0	3.8	7.46e-01	0	33	104	0	85	11876
2026-01-02 00:09:28.97	10.22	11.97	-61.2	-70.9	3.8	7.46e-01	0	33	104	0	85	11775
2026-01-02 00:09:31.96	9.77	12.28	-61.3	-71.1	3.8	7.45e-01	0	33	104	0	85	11966
2026-01-02 00:09:34.96	9.30	12.60	-61.3	-71.0	3.8	7.45e-01	0	33	104	0	85	11914
2026-01-02 00:09:37.95	8.82	12.92	-61.4	-71.1	3.8	7.46e-01	0	33	104	0	85	12033
2026-01-02 00:09:40.94	8.33	13.25	-61.3	-71.0	3.8	7.46e-01	0	33	104	0	85	11939
2026-01-02 00:09:43.93	7.83	13.58	-61.4	-71.1	3.8	7.45e-01	0	33	104	0	85	12028
2026-01-02 00:09:46.94	7.30	13.92	-61.4	-71.1	3.8	7.48e-01	0	33	104	0	85	11997
2026-01-02 00:09:49.94	6.76	14.27	-61.5	-71.2	3.8	7.47e-01	0	33	104	0	86	11497
2026-01-02 00:09:52.93	6.21	14.61	-61.4	-71.1	3.8	7.46e-01	0	33	104	0	86	11345
2026-01-02 00:09:55.91	5.65	14.96	-61.5	-71.2	3.8	7.45e-01	0	33	104	0	86	11509
2026-01-02 00:09:58.90	5.06	15.31	-61.5	-71.2	3.8	7.45e-01	0	33	104	0	86	11488
2026-01-02 00:10:01.89	4.46	15.67	-61.6	-71.3	3.8	7.45e-01	0	33	104	0	86	11557
2026-01-02 00:10:04.88	3.84	16.03	-61.5	-71.2	3.8	7.47e-01	0	33	104	0	86	11527
2026-01-02 00:10:07.87	3.20	16.40	-61.7	-71.4	3.8	7.47e-01	0	33	104	0	86	11745
2026-01-02 00:10:10.86	2.54	16.77	-61.6	-71.3	3.8	7.45e-01	0	33	104	0	86	11676
2026-01-02 00:10:13.87	1.86	17.15	-61.7	-71.4	3.8	7.46e-01	0	33	104	0	86	11798
2026-01-02 00:10:16.86	1.16	17.53	-61.6	-71.3	3.8	7.46e-01	0	33	104	0	86	11665
2026-01-02 00:10:19.86	0.43	17.92	-61.7	-71.4	3.8	7.46e-01	0	33	104	0	86	11768
2026-01-02 00:10:22.85	359.69	18.30	-61.7	-71.4	3.8	7.46e-01	0	33	104	0	86	11736
2026-01-02 00:10:25.84	358.92	18.69	-61.7	-71.5	3.8	7.46e-01	0	33	104	0	86	11867
2026-01-02 00:10:28.83	358.13	19.09	-61.7	-71.4	3.8	7.47e-01	0	33	104	0	86	11750
2026-01-02 00:10:31.84	357.30	19.49	-61.8	-71.5	3.8	7.46e-01	0	33	104	0	86	11841
2026-01-02 00:10:34.83	356.46	19.89	-61.7	-71.5	3.8	7.47e-01	0	33	104	0	86	11823
2026-01-02 00:10:37.84	355.59	20.30	-61.8	-71.5	3.8	7.45e-01	0	33	104	0	86	11934
2026-01-02 00:10:40.84	354.69	20.70	-61.8	-71.5	3.8	7.46e-01	0	33	104	0	86	11836
2026-01-02 00:10:43.85	353.76	21.11	-61.8	-71.6	3.8	7.45e-01	0	33	104	0	86	11965
2026-01-02 00:10:46.86	352.79	21.53	-61.8	-71.6	3.8	7.45e-01	0	33	104	0	86	12013
2026-01-02 00:10:49.86	351.81	21.94	-61.9	-71.6	3.8	7.47e-01	0	33	104	0	86	12046
2026-01-02 00:10:52.86	350.79	22.35	-61.9	-71.6	3.8	7.46e-01	0	33	104	0	86	11974
2026-01-02 00:10:55.85	349.74	22.76	-61.9	-71.6	3.8	7.45e-01	0	33	104	0	87	11395
2026-01-02 00:10:58.83	348.67	23.16	-61.9	-71.6	3.8	7.45e-01	0	33	104	0	87	11401
2026-01-02 00:11:01.80	347.56	23.57	-62.0	-71.7	3.8	7.45e-01	0	33	104	0	87	11448
2026-01-02 00:11:04.79	346.42	23.97	-62.0	-71.7	3.8	7.45e-01	0	33	104	0	87	11508
2026-01-02 00:11:07.79	345.23	24.37	-62.0	-71.8	3.8	7.46e-01	0	33	104	0	87	11570
2026-01-02 00:11:10.78	344.02	24.77	-62.0	-71.7	3.8	7.44e-01	0	33	104	0	87	11490
2026-01-02 00:11:13.78	342.76	25.16	-62.1	-71.8	3.8	7.45e-01	0	33	104	0	87	11580
2026-01-02 00:11:16.78	341.48	25.54	-62.1	-71.8	3.8	7.46e-01	0	33	104	0	87	11585
2026-01-02 00:11:19.77	340.16	25.92	-62.1	-71.8	3.8	7.46e-01	0	33	104	0	87	11654
2026-01-02 00:11:22.76	338.80	26.29	-62.1	-71.8	3.8	7.46e-01	0	33	104	0	87	11665
2026-01-02 00:11:25.74	337.41	26.64	-62.2	-71.9	3.8	7.47e-01	0	34	104	0	87	11770
2026-01-02 00:11:28.74	335.98	26.99	-62.2	-71.9	3.8	7.45e-01	0	33	104	0	87	11705
2026-01-02 00:11:31.73	334.52	27.32	-62.2	-72.0	3.8	7.45e-01	0	33	104	0	87	11831
2026-01-02 00:11:34.73	333.02	27.64	-62.2	-72.0	3.8	7.44e-01	0	33	104	0	87	11823
2026-01-02 00:11:37.72	331.50	27.94	-62.3	-72.0	3.8	7.45e-01	0	33	104	0	87	11863
2026-01-02 00:11:40.74	329.92	28.23	-62.2	-72.0	3.8	7.45e-01	0	33	104	0	87	11824
2026-01-02 00:11:43.74	328.33	28.49	-62.3	-72.0	3.8	7.46e-01	0	33	104	0	87	11880
2026-01-02 00:11:46.73	326.71	28.74	-62.3	-72.0	3.8	7.45e-01	0	33	104	0	87	11889
2026-01-02 00:11:49.73	325.06	28.96	-62.3	-72.1	3.8	7.46e-01	0	33	104	0	87	11997
2026-01-02 00:11:52.71	323.40	29.16	-62.3	-72.0	3.8	7.46e-01	0	33	104	0	87	11906
2026-01-02 00:11:55.71	321.70	29.34	-62.4	-72.1	3.8	7.44e-01	0	33	104	0	87	12002
2026-01-02 00:11:58.70	319.99	29.49	-62.4	-72.1	3.8	7.45e-01	0	33	104	0	87	12027
2026-01-02 00:12:01.68	318.27	29.62	-62.4	-72.1	3.8	7.47e-01	0	33	104	0	87	12039
2026-01-02 00:12:04.66	316.54	29.72	-62.4	-72.1	3.8	7.45e-01	0	33	104	0	87	11980
2026-01-02 00:12:07.64	314.79	29.80	-62.4	-72.2	3.8	7.45e-01	0	33	104	0	88	11432
2026-01-02 00:12:10.63	313.03	29.84	-62.4	-72.2	3.8	7.46e-01	0	33	104	0	88	11460
2026-01-02 00:12:13.63	311.26	29.86	-62.5	-72.2	3.8	7.46e-01	0	33	104	0	88	11467
2026-01-02 00:12:16.64	309.49	29.85	-62.4	-72.1	3.8	7.44e-01	0	33	104	0	88	11391
2026-01-02 00:12:19.65	307.72	29.82	-62.5	-72.2	3.8	7.46e-01	0	33	104	0	88	11507
2026-01-02 00:12:22.65	305.96	29.75	-62.5	-72.2	3.8	7.46e-01	0	33	104	0	88	11483
2026-01-02 00:12:25.66	304.20	29.66	-62.5	-72.3	3.8	7.47e-01	0	33	104	0	88	11567
2026-01-02 00:12:28.66	302.46	29.54	-62.5	-72.3	3.8	7.45e-01	0	33	104	0	88	11573
2026-01-02 00:12:31.65	300.74	29.39	-62.6	-72.3	3.8	7.47e-01	0	34	104	0	88	11624
2026-01-02 00:12:34.63	299.05	29.22	-62.5	-72.3	3.8	7.46e-01	0	33	104	0	88	11588
2026-01-02 00:12:37.62	297.37	29.03	-62.6	-72.3	3.8	7.45e-01	0	33	104	0	88	11609
2026-01-02 00:12:40.63	295.71	28.81	-62.5	-72.3	3.8	7.46e-01	0	33	104	0	88	11564
2026-01-02 00:12:43.64	294.07	28.57	-62.5	-72.2	3.8	7.45e-01	0	33	104	0	88	11503
2026-01-02 00:12:46.64	292.46	28.31	-62.5	-72.2	3.8	7.46e-01	0	33	104	0	88	11485
2026-01-02 00:12:49.64	290.88	28.03	-62.5	-72.2	3.8	7.45e-01	0	33	104	0	88	11487
2026-01-02 00:12:52.64	289.34	27.73	-62.4	-72.1	3.8	7.46e-01	0	33	104	0	88	11410
2026-01-02 00:12:55.64	287.83	27.42	-62.4	-72.1	3.8	7.46e-01	0	33	104	0	88	11377
2026-01-02 00:12:58.64	286.35	27.09	-62.4	-72.1	3.8	7.46e-01	0	33	104	0	88	11365
2026-01-02 00:13:01.64	284.90	26.74	-62.4	-72.1	3.8	7.47e-01	0	33	104	0	88	11347
2026-01-02 00:13:04.64	283.49	26.39	-62.3	-72.1	3.8	7.45e-01	0	33	104	0	88	11326
2026-01-02 00:13:07.63	282.12	26.02	-62.3	-72.0	3.8	7.47e-01	0	33	104	0	88	11278
2026-01-02 00:13:10.63	280.78	25.65	-62.3	-72.0	3.8	7.46e-01	0	33	104	0	88	11249
2026-01-02 00:13:13.64	279.48	25.26	-62.3	-72.0	3.8	7.45e-01	0	33	104	0	88	11216
2026-01-02 00:13:16.63	278.21	24.87	-62.3	-72.0	3.8	7.45e-01	0	33	104	0	88	11195
2026-01-02 00:13:19.65	276.97	24.47	-62.3	-72.0	3.8	7.46e-01	0	34	104	0	88	11207
2026-01-02 00:13:22.64	275.78	24.07	-62.2	-72.0	3.8	7.46e-01	0	33	104	0	88	11166
2026-01-02 00:13:25.63	274.62	23.67	-62.2	-71.9	3.8	7.45e-01	0	33	104	0	88	11093
2026-01-02 00:13:28.62	273.49	23.26	-62.2	-71.9	3.8	7.46e-01	0	33	104	0	88	11132
2026-01-02 00:13:31.61	272.40	22.85	-62.2	-71.9	3.8	7.45e-01	0	33	104	0	88	11122
2026-01-02 00:13:34.61	271.34	22.44	-62.2	-71.9	3.8	7.46e-01	0	34	104	0	88	11128
2026-01-02 00:13:37.61	270.31	22.03	-62.1	-71.8	3.8	7.44e-01	0	33	104	0	88	10979
2026-01-02 00:13:40.62	269.30	21.61	-62.1	-71.8	3.8	7.45e-01	0	33	104	0	88	10955
2026-01-02 00:13:43.61	268.34	21.20	-62.1	-71.8	3.8	7.46e-01	0	33	104	0	88	11000
2026-01-02 00:13:46.61	267.40	20.79	-62.1	-71.8	3.8	7.43e-01	0	33	104	0	88	10947
2026-01-02 00:13:49.61	266.49	20.38	-62.0	-71.7	3.8	7.47e-01	0	34	104	0	88	10865
2026-01-02 00:13:52.60	265.61	19.98	-62.0	-71.7	3.8	7.45e-01	0	33	104	0	88	10858
2026-01-02 00:13:55.59	264.75	19.57	-62.0	-71.7	3.8	7.46e-01	0	33	104	0	88	10886
2026-01-02 00:13:58.59	263.92	19.17	-62.0	-71.7	3.8	7.45e-01	0	33	104	0	88	10808
2026-01-02 00:14:01.58	263.12	18.77	-61.9	-71.7	3.8	7.45e-01	0	33	104	0	88	10783
2026-01-02 00:14:04.57	262.34	18.38	-61.9	-71.7	3.8	7.45e-01	0	33	104	0	88	10795
2026-01-02 00:14:07.57	261.59	17.99	-61.9	-71.6	3.8	7.44e-01	0	33	104	0	88	10707
2026-01-02 00:14:10.56	260.86	17.60	-61.9	-71.6	3.8	7.46e-01	0	33	104	0	88	10704
2026-01-02 00:14:13.56	260.14	17.22	-61.8	-71.5	3.8	7.43e-01	0	33	104	0	88	10635
2026-01-02 00:14:16.55	259.46	16.84	-61.8	-71.5	3.8	7.44e-01	0	33	104	0	88	10578
2026-01-02 00:14:19.55	258.79	16.47	-61.8	-71.5	3.8	7.45e-01	0	34	104	0	88	10565
2026-01-02 00:14:22.56	258.14	16.09	-61.8	-71.5	3.8	7.45e-01	0	33	104	0	88	10568
2026-01-02 00:14:25.55	257.51	15.73	-61.7	-71.4	3.8	7.46e-01	0	33	104	0	88	10514
2026-01-02 00:14:28.55	256.89	15.37	-61.7	-71.4	3.8	7.46e-01	0	33	104	0	88	10472
2026-01-02 00:14:31.55	256.30	15.01	-61.7	-71.4	3.8	7.45e-01	0	33	104	0	87	11090
2026-01-02 00:14:34.56	255.72	14.65	-61.6	-71.3	3.8	7.46e-01	0	34	104	0	87	11018
2026-01-02 00:14:37.54	255.16	14.31	-61.6	-71.3	3.8	7.45e-01	0	33	104	0	87	10963
2026-01-02 00:14:40.53	254.62	13.96	-61.6	-71.3	3.8	7.46e-01	0	34	104	0	87	10974
2026-01-02 00:14:43.53	254.09	13.62	-61.6	-71.3	3.8	7.46e-01	0	34	104	0	87	10964
2026-01-02 00:14:46.53	253.58	13.29	-61.5	-71.3	3.8	7.47e-01	0	33	104	0	87	10925
2026-01-02 00:14:49.53	253.08	12.96	-61.5	-71.2	3.8	7.44e-01	0	33	104	0	87	10854
2026-01-02 00:14:52.53	252.59	12.63	-61.5	-71.2	3.8	7.45e-01	0	34	104	0	87	10850
2026-01-02 00:14:55.54	252.12	12.30	-61.5	-71.2	3.8	7.46e-01	0	33	104	0	87	10842
2026-01-02 00:14:58.53	251.66	11.99	-61.4	-71.2	3.8	7.46e-01	0	34	104	0	87	10789
2026-01-02 00:15:01.52	251.21	11.67	-61.4	-71.1	3.8	7.46e-01	0	33	104	0	87	10775
2026-01-02 00:15:04.51	250.78	11.36	-61.4	-71.2	3.8	7.44e-01	0	34	104	0	87	10782
2026-01-02 00:15:07.49	250.36	11.06	-61.4	-71.1	3.8	7.47e-01	0	33	104	0	87	10733
2026-01-02 00:15:10.46	249.95	10.76	-61.4	-71.1	3.8	7.45e-01	0	33	104	0	87	10675
2026-01-02 00:15:13.46	249.55	10.46	-61.4	-71.1	3.8	7.44e-01	0	33	104	0	87	10701
2026-01-02 00:15:16.45	249.16	10.17	-61.3	-71.0	3.8	7.46e-01	0	34	104	0	87	10636
2026-01-02 00:15:19.45	248.78	9.88	-61.3	-71.0	3.8	7.44e-01	0	34	104	0	87	10590
2026-01-02 00:15:22.44	248.40	9.59	-61.3	-71.0	3.8	7.46e-01	0	33	104	0	87	10562
2026-01-02 00:15:25.43	248.04	9.31	-61.3	-71.0	3.8	7.45e-01	0	33	104	0	87	10602
2026-01-02 00:15:28.43	247.69	9.03	-61.2	-70.9	3.8	7.46e-01	0	34	104	0	87	10525
2026-01-02 00:15:31.42	247.34	8.76	-61.2	-70.9	3.8	7.45e-01	0	33	104	0	86	11079
2026-01-02 00:15:34.41	247.01	8.48	-61.2	-70.9	3.8	7.44e-01	0	34	104	0	86	11077
2026-01-02 00:15:37.41	246.68	8.21	-61.2	-70.9	3.8	7.46e-01	0	34	104	0	86	11071
2026-01-02 00:15:40.40	246.36	7.95	-61.1	-70.9	3.8	7.45e-01	0	33	104	0	86	11036
2026-01-02 00:15:43.39	246.05	7.69	-61.1	-70.8	3.8	7.43e-01	0	34	104	0	86	10942
2026-01-02 00:15:46.40	245.74	7.42	-61.1	-70.8	3.8	7.45e-01	0	34	104	0	86	10965
2026-01-02 00:15:49.41	245.44	7.17	-61.1	-70.8	3.8	7.44e-01	0	33	104	0	86	10928
2026-01-02 00:15:52.39	245.15	6.91	-61.0	-70.7	3.8	7.46e-01	0	34	104	0	86	10795
2026-01-02 00:15:55.39	244.87	6.66	-60.9	-70.6	3.8	7.47e-01	0	33	104	0	86	10682
2026-01-02 00:15:58.39	244.59	6.42	-60.9	-70.6	3.8	7.45e-01	0	34	104	0	86	10719
2026-01-02 00:16:01.38	244.32	6.17	-60.9	-70.6	3.8	7.46e-01	0	33	104	0	86	10717
2026-01-02 00:16:04.36	244.06	5.93	-60.8	-70.5	3.8	7.46e-01	0	34	104	0	86	10585
2026-01-02 00:16:07.36	243.79	5.69	-60.6	-70.4	3.8	7.44e-01	0	34	104	0	85	11039
2026-01-02 00:16:10.34	243.54	5.45	-60.7	-70.4	3.8	7.46e-01	0	34	104	0	85	11140
2026-01-02 00:16:13.33	243.29	5.22	-60.7	-70.4	3.8	7.46e-01	0	33	104	0	85	11132
2026-01-02 00:16:16.32	243.05	4.99	-60.5	-70.2	3.8	7.47e-01	0	34	104	0	85	10889
2026-01-02 00:16:19.32	242.81	4.76	-61.8	-71.6	3.8	7.46e-01	0	34	104	0	86	11975
2026-01-02 00:16:22.32	242.58	4.53	-62.4	-72.1	3.8	7.45e-01	0	34	104	0	87	11990
2026-01-02 00:16:25.32	242.35	4.30	-62.8	-72.5	3.8	7.46e-01	0	33	104	0	88	11844
2026-01-02 00:16:28.31	242.13	4.08	-63.0	-72.7	3.8	7.45e-01	0	34	104	0	89	11483
2026-01-02 00:16:31.31	241.91	3.86	-63.1	-72.8	3.8	7.45e-01	0	34	104	0	89	11604
2026-01-02 00:16:34.31	241.70	3.64	-63.1	-72.8	3.8	7.46e-01	0	33	104	0	89	11641
2026-01-02 00:16:37.32	241.48	3.43	-63.1	-72.9	3.8	7.45e-01	0	34	104	0	89	11722
2026-01-02 00:16:40.32	241.28	3.21	-63.1	-72.8	3.8	7.45e-01	0	34	104	0	89	11673
2026-01-02 00:16:43.32	241.08	3.00	-63.1	-72.8	3.8	7.45e-01	0	34	104	0	89	11593
2026-01-02 00:16:46.32	240.88	2.79	-63.0	-72.7	3.8	7.45e-01	0	34	104	0	89	11543
2026-01-02 00:16:49.32	240.69	2.58	-63.0	-72.7	3.8	7.45e-01	0	34	104	0	89	11469
2026-01-02 00:16:52.32	240.50	2.37	-62.9	-72.7	3.8	7.47e-01	0	33	104	0	89	11437
2026-01-02 00:16:55.32	240.31	2.17	-62.9	-72.7	3.8	7.45e-01	0	34	104	0	89	11451
2026-01-02 00:16:58.31	240.13	1.96	-62.9	-72.6	3.8	7.44e-01	0	33	104	0	89	11408

#Closed at: 2026-01-02 00:17:00
#Recorded file [0 MB]: D:/lorett/data/31004_260102_030728.dat