passes_logs/2026/01/02/R3.2S_Murmansk/R3.2S_Murmansk__20260102_025623_FENGYUN_3D_rec.log

#Pass ID: 20260102_025623_FENGYUN 3D
#Satellite: FENGYUN 3D
#Configuration: FENGYUN 3D
#almurnet v.1.7.20251203
#Start time: 2026-01-02 02:56:24

#Version: 2.2.20231116
#Station: R3.2S_Murmansk
#Location: 33.079688 lon 68.888172 lat
#TLE: 1 43010U 17072A   26001.19005061  .00000535  00000+0  27473-3 0  9994
#TLE: 2 43010  98.9910 332.7942 0001852 133.6060 226.5269 14.19691635421296

#Time	Az	El	Level	Level2	SNR	BER	BlckErr	Temp	State	Recorded	gain1	gain2
2026-01-02 02:56:24.71	25.88	2.08	-54.9	-67.8	3.8	8.45e-01	0	31	0	0	74	17463
2026-01-02 02:56:28.70	25.88	2.34	-54.9	-67.9	3.8	8.46e-01	0	31	104	0	75	16543
2026-01-02 02:56:32.70	25.88	2.60	-54.9	-67.9	3.8	8.45e-01	0	31	104	0	75	16543
2026-01-02 02:56:36.70	25.87	2.86	-54.9	-67.9	3.8	8.46e-01	0	31	104	0	75	16526
2026-01-02 02:56:40.71	25.87	3.12	-54.9	-67.8	3.8	8.46e-01	0	31	104	0	75	16465
2026-01-02 02:56:44.68	25.86	3.39	-54.9	-67.9	3.8	8.46e-01	0	31	104	0	75	16556
2026-01-02 02:56:48.68	25.86	3.66	-54.9	-67.9	3.8	8.44e-01	0	31	104	0	75	16550
2026-01-02 02:56:52.67	25.85	3.93	-54.9	-67.7	3.8	8.46e-01	0	31	104	0	75	16291
2026-01-02 02:56:56.65	25.84	4.20	-54.9	-67.4	3.8	8.45e-01	0	31	104	0	75	15627
2026-01-02 02:57:00.63	25.84	4.48	-54.9	-67.9	3.8	8.46e-01	0	31	104	0	75	16521
2026-01-02 02:57:04.62	25.83	4.76	-54.9	-67.9	3.8	8.46e-01	0	32	104	0	75	16507
2026-01-02 02:57:08.62	25.82	5.04	-54.9	-67.7	3.8	8.46e-01	0	32	104	0	75	16260
2026-01-02 02:57:12.62	25.81	5.33	-54.9	-67.5	3.8	8.45e-01	0	32	104	0	75	15845
2026-01-02 02:57:16.63	25.80	5.62	-54.9	-67.5	3.8	8.46e-01	0	32	104	0	75	15838
2026-01-02 02:57:20.63	25.79	5.91	-54.9	-67.7	3.8	8.46e-01	0	32	104	0	75	16296
2026-01-02 02:57:24.64	25.78	6.21	-55.0	-67.9	3.8	8.46e-01	0	32	104	0	75	16606
2026-01-02 02:57:28.64	25.77	6.51	-55.0	-67.9	3.8	8.45e-01	0	32	104	0	75	16599
2026-01-02 02:57:32.63	25.76	6.81	-55.0	-67.9	3.8	8.46e-01	0	32	104	0	75	16526
2026-01-02 02:57:36.63	25.75	7.12	-55.0	-67.8	3.8	8.45e-01	0	32	104	0	75	16473
2026-01-02 02:57:40.62	25.74	7.43	-55.0	-67.9	3.8	8.47e-01	0	32	104	0	75	16598
2026-01-02 02:57:44.63	25.72	7.74	-54.9	-68.0	3.8	8.46e-01	0	32	104	0	75	16695
2026-01-02 02:57:48.63	25.71	8.06	-55.0	-67.9	3.8	8.45e-01	0	32	104	0	75	16626
2026-01-02 02:57:52.64	25.69	8.38	-55.0	-67.9	3.8	8.45e-01	0	32	104	0	75	16586
2026-01-02 02:57:56.63	25.68	8.71	-55.0	-67.9	3.8	8.47e-01	0	32	104	0	75	16602
2026-01-02 02:58:00.64	25.66	9.04	-55.0	-67.9	3.8	8.46e-01	0	32	104	0	75	16664
2026-01-02 02:58:04.62	25.65	9.38	-55.0	-67.9	3.8	8.46e-01	0	32	104	0	75	16670
2026-01-02 02:58:08.62	25.63	9.71	-55.0	-67.9	3.8	8.46e-01	0	32	104	0	75	16655
2026-01-02 02:58:12.62	25.61	10.06	-55.0	-67.9	3.8	8.46e-01	0	32	104	0	75	16550
2026-01-02 02:58:16.62	25.59	10.41	-55.0	-67.9	3.8	8.46e-01	0	32	104	0	75	16531
2026-01-02 02:58:20.63	25.57	10.76	-55.0	-67.9	3.8	8.46e-01	0	33	104	0	75	16607
2026-01-02 02:58:24.63	25.55	11.12	-55.0	-67.9	3.8	8.46e-01	0	33	104	0	75	16619
2026-01-02 02:58:28.62	25.53	11.49	-55.0	-68.0	3.8	8.45e-01	0	32	104	0	75	16724
2026-01-02 02:58:32.62	25.50	11.86	-55.0	-68.0	3.8	8.46e-01	0	32	104	0	75	16735
2026-01-02 02:58:36.62	25.48	12.24	-55.0	-68.0	3.8	8.47e-01	0	33	104	0	75	16719
2026-01-02 02:58:40.64	25.45	12.62	-55.0	-67.9	3.8	8.48e-01	0	33	104	0	75	16670
2026-01-02 02:58:44.64	25.43	13.01	-55.0	-68.0	3.8	8.45e-01	0	33	104	0	75	16706
2026-01-02 02:58:48.65	25.40	13.40	-55.0	-67.9	3.8	8.45e-01	0	33	104	0	75	16662
2026-01-02 02:58:52.64	25.37	13.80	-55.0	-67.9	3.8	8.46e-01	0	33	104	0	75	16689
2026-01-02 02:58:56.64	25.34	14.21	-55.0	-68.0	3.8	8.45e-01	0	33	104	0	75	16732
2026-01-02 02:59:00.62	25.31	14.62	-55.0	-67.9	3.8	8.45e-01	0	33	104	0	75	16685
2026-01-02 02:59:04.62	25.28	15.05	-55.0	-67.9	3.8	8.46e-01	0	33	104	0	75	16679
2026-01-02 02:59:08.62	25.24	15.48	-55.0	-68.0	3.8	8.46e-01	0	33	104	0	75	16720
2026-01-02 02:59:12.61	25.21	15.91	-55.0	-67.9	3.8	8.46e-01	0	33	104	0	75	16670
2026-01-02 02:59:16.62	25.17	16.36	-55.0	-67.9	3.8	8.46e-01	0	32	104	0	75	16690
2026-01-02 02:59:20.64	25.13	16.81	-55.0	-68.0	3.8	8.46e-01	0	33	104	0	75	16732
2026-01-02 02:59:24.65	25.09	17.28	-55.0	-67.9	3.8	8.46e-01	0	33	104	0	75	16685
2026-01-02 02:59:28.65	25.05	17.75	-55.0	-68.0	3.8	8.45e-01	0	33	104	0	75	16705
2026-01-02 02:59:32.65	25.00	18.23	-55.0	-68.0	3.9	8.44e-01	0	33	104	0	75	16711
2026-01-02 02:59:36.65	24.96	18.72	-55.0	-67.9	3.8	8.46e-01	0	33	104	0	75	16688
2026-01-02 02:59:40.66	24.91	19.22	-55.0	-67.9	3.8	8.46e-01	0	33	104	0	75	16692
2026-01-02 02:59:44.65	24.86	19.73	-55.0	-67.9	3.8	8.45e-01	0	32	104	0	75	16676
2026-01-02 02:59:48.64	24.81	20.24	-55.0	-67.9	3.8	8.46e-01	0	33	104	0	75	16693
2026-01-02 02:59:52.64	24.75	20.78	-55.0	-68.0	3.8	8.45e-01	0	33	104	0	75	16749
2026-01-02 02:59:56.65	24.69	21.32	-55.0	-67.9	3.8	8.46e-01	0	33	104	0	75	16679
2026-01-02 03:00:00.65	24.63	21.88	-55.0	-68.0	3.8	8.45e-01	0	33	104	0	75	16716
2026-01-02 03:00:04.65	24.57	22.44	-55.0	-68.0	3.8	8.46e-01	0	33	104	0	75	16718
2026-01-02 03:00:08.64	24.50	23.02	-55.0	-68.0	3.8	8.46e-01	0	33	104	0	75	16710
2026-01-02 03:00:12.64	24.43	23.61	-55.0	-68.0	3.8	8.46e-01	0	33	104	0	75	16718
2026-01-02 03:00:16.64	24.36	24.22	-55.0	-67.9	3.8	8.45e-01	0	33	104	0	75	16682
2026-01-02 03:00:20.64	24.28	24.84	-55.0	-68.0	3.8	8.46e-01	0	33	104	0	75	16749
2026-01-02 03:00:24.63	24.21	25.48	-55.0	-68.0	3.8	8.46e-01	0	33	104	0	75	16720
2026-01-02 03:00:28.64	24.12	26.13	-55.0	-67.9	3.8	8.45e-01	0	33	104	0	75	16692
2026-01-02 03:00:32.64	24.03	26.80	-55.0	-68.0	3.8	8.47e-01	0	33	104	0	75	16705
2026-01-02 03:00:36.63	23.94	27.48	-55.0	-68.0	3.8	8.45e-01	0	33	104	0	75	16742
2026-01-02 03:00:40.63	23.84	28.19	-54.8	-68.0	3.8	8.45e-01	0	33	104	0	75	16753
2026-01-02 03:00:44.64	23.74	28.91	-55.0	-67.9	3.8	8.47e-01	0	33	104	0	75	16641
2026-01-02 03:00:48.66	23.63	29.65	-55.0	-68.0	3.8	8.46e-01	0	33	104	0	75	16695
2026-01-02 03:00:52.66	23.52	30.41	-55.0	-68.0	3.8	8.47e-01	0	33	104	0	75	16721
2026-01-02 03:00:56.67	23.39	31.20	-55.0	-67.9	3.8	8.46e-01	0	33	104	0	75	16675
2026-01-02 03:01:00.65	23.27	31.99	-55.0	-68.0	3.8	8.45e-01	0	33	104	0	75	16701
2026-01-02 03:01:04.64	23.13	32.81	-55.0	-68.0	3.8	8.46e-01	0	33	104	0	75	16754
2026-01-02 03:01:08.63	22.99	33.66	-55.0	-68.0	3.8	8.45e-01	0	33	104	0	75	16704
2026-01-02 03:01:12.62	22.84	34.53	-55.0	-68.0	3.8	8.46e-01	0	33	104	0	75	16754
2026-01-02 03:01:16.63	22.68	35.42	-55.0	-68.0	3.8	8.46e-01	0	33	104	0	75	16749
2026-01-02 03:01:20.63	22.51	36.34	-55.0	-67.9	3.8	8.47e-01	0	33	104	0	75	16674
2026-01-02 03:01:24.63	22.33	37.29	-55.0	-68.0	3.8	8.46e-01	0	33	104	0	75	16721
2026-01-02 03:01:28.63	22.13	38.27	-55.0	-67.9	3.8	8.46e-01	0	33	104	0	75	16646
2026-01-02 03:01:32.63	21.92	39.27	-55.0	-68.0	3.8	8.45e-01	0	33	104	0	75	16717
2026-01-02 03:01:36.64	21.70	40.30	-55.0	-68.0	3.8	8.47e-01	0	33	104	0	75	16712
2026-01-02 03:01:40.65	21.46	41.37	-55.0	-67.9	3.8	8.46e-01	0	33	104	0	75	16682
2026-01-02 03:01:44.66	21.21	42.47	-55.0	-68.0	3.8	8.47e-01	0	33	104	0	75	16698
2026-01-02 03:01:48.67	20.93	43.60	-55.0	-68.0	3.8	8.46e-01	0	33	104	0	75	16730
2026-01-02 03:01:52.67	20.64	44.76	-55.0	-68.0	3.8	8.46e-01	0	33	104	0	75	16746
2026-01-02 03:01:56.67	20.32	45.96	-55.0	-68.0	3.8	8.46e-01	0	33	104	0	75	16737
2026-01-02 03:02:00.66	19.97	47.18	-55.0	-68.0	3.8	8.45e-01	0	33	104	0	75	16780
2026-01-02 03:02:04.64	19.60	48.44	-55.0	-68.0	3.8	8.46e-01	0	33	104	0	75	16722
2026-01-02 03:02:08.63	19.19	49.74	-55.0	-68.0	3.8	8.46e-01	0	33	104	0	75	16721
2026-01-02 03:02:12.63	18.74	51.08	-55.0	-68.0	3.8	8.46e-01	0	33	104	0	75	16747
2026-01-02 03:02:16.62	18.25	52.45	-55.0	-68.0	3.8	8.46e-01	0	33	104	0	75	16736
2026-01-02 03:02:20.62	17.70	53.87	-55.0	-68.0	3.8	8.46e-01	0	33	104	0	75	16723
2026-01-02 03:02:24.63	17.10	55.32	-55.0	-68.0	3.8	8.46e-01	0	33	104	0	75	16757
2026-01-02 03:02:28.64	16.43	56.81	-55.0	-68.0	3.8	8.46e-01	0	33	104	0	75	16761
2026-01-02 03:02:32.65	15.68	58.34	-55.0	-68.0	3.8	8.46e-01	0	33	104	0	75	16733
2026-01-02 03:02:36.65	14.84	59.90	-55.0	-68.0	3.8	8.46e-01	0	33	104	0	75	16720
2026-01-02 03:02:40.65	13.88	61.49	-55.0	-68.0	3.8	8.46e-01	0	33	104	0	75	16744
2026-01-02 03:02:44.66	12.79	63.11	-55.0	-68.0	3.8	8.46e-01	0	33	104	0	75	16727
2026-01-02 03:02:48.67	11.53	64.77	-55.0	-68.0	3.8	8.47e-01	0	33	104	0	75	16752
2026-01-02 03:02:52.67	10.08	66.44	-55.0	-68.0	3.8	8.45e-01	0	33	104	0	75	16706
2026-01-02 03:02:56.66	8.37	68.13	-55.0	-68.0	3.8	8.45e-01	0	33	104	0	75	16695
2026-01-02 03:03:00.66	6.35	69.84	-55.0	-68.0	3.8	8.45e-01	0	33	104	0	75	16712
2026-01-02 03:03:04.65	3.93	71.54	-55.0	-68.0	3.8	8.46e-01	0	33	104	0	75	16749
2026-01-02 03:03:08.65	0.98	73.24	-55.0	-68.0	3.8	8.45e-01	0	33	104	0	75	16725
2026-01-02 03:03:12.64	357.33	74.90	-55.0	-68.0	3.8	8.45e-01	0	33	104	0	75	16732
2026-01-02 03:03:16.64	352.75	76.51	-55.0	-68.0	3.8	8.44e-01	0	33	104	0	75	16750
2026-01-02 03:03:20.63	346.92	78.03	-55.0	-68.0	3.8	8.45e-01	0	33	104	0	75	16763
2026-01-02 03:03:24.63	339.43	79.41	-55.0	-68.0	3.8	8.46e-01	0	33	104	0	75	16782
2026-01-02 03:03:28.64	329.83	80.57	-55.0	-68.0	3.8	8.46e-01	0	33	104	0	75	16723
2026-01-02 03:03:32.64	317.95	81.41	-55.0	-68.0	3.8	8.46e-01	0	33	104	0	75	16752
2026-01-02 03:03:36.64	304.21	81.81	-55.0	-68.0	3.8	8.45e-01	0	33	104	0	75	16723
2026-01-02 03:03:40.64	289.94	81.72	-55.0	-68.0	3.8	8.46e-01	0	33	104	0	75	16791
2026-01-02 03:03:44.65	276.73	81.15	-55.0	-68.0	3.8	8.45e-01	0	33	104	0	75	16723
2026-01-02 03:03:48.65	265.68	80.18	-55.0	-68.0	3.8	8.46e-01	0	33	104	0	75	16765
2026-01-02 03:03:52.64	256.91	78.94	-55.0	-68.0	3.8	8.44e-01	0	33	104	0	75	16721
2026-01-02 03:03:56.64	250.06	77.50	-55.0	-68.0	3.8	8.45e-01	0	33	104	0	75	16741
2026-01-02 03:04:00.61	244.75	75.94	-55.0	-68.0	3.8	8.45e-01	0	33	104	0	75	16766
2026-01-02 03:04:04.58	240.56	74.32	-55.0	-68.0	3.8	8.46e-01	0	33	104	0	75	16775
2026-01-02 03:04:08.58	237.17	72.64	-55.0	-68.0	3.8	8.46e-01	0	33	104	0	75	16768
2026-01-02 03:04:12.57	234.42	70.94	-55.0	-68.0	3.8	8.46e-01	0	33	104	0	75	16761
2026-01-02 03:04:16.55	232.15	69.24	-55.0	-68.0	3.8	8.46e-01	0	33	104	0	75	16737
2026-01-02 03:04:20.55	230.25	67.53	-55.0	-68.0	3.8	8.44e-01	0	33	104	0	75	16752
2026-01-02 03:04:24.57	228.63	65.83	-55.0	-68.0	3.8	8.46e-01	0	33	104	0	75	16719
2026-01-02 03:04:28.58	227.24	64.16	-55.0	-68.0	3.8	8.46e-01	0	33	104	0	75	16779
2026-01-02 03:04:32.56	226.06	62.52	-55.0	-68.0	3.8	8.46e-01	0	33	104	0	75	16748
2026-01-02 03:04:36.53	225.02	60.92	-55.0	-67.9	3.8	8.45e-01	0	33	104	0	75	16678
2026-01-02 03:04:40.53	224.11	59.33	-55.0	-68.0	3.8	8.46e-01	0	33	104	0	75	16719
2026-01-02 03:04:44.50	223.30	57.80	-55.0	-68.0	3.8	8.45e-01	0	33	104	0	75	16782
2026-01-02 03:04:48.49	222.58	56.28	-55.0	-68.0	3.8	8.47e-01	0	33	104	0	75	16794
2026-01-02 03:04:52.47	221.94	54.81	-55.0	-68.0	3.8	8.47e-01	0	33	104	0	75	16758
2026-01-02 03:04:56.41	221.36	53.39	-55.0	-68.0	3.8	8.45e-01	0	33	104	0	75	16739
2026-01-02 03:05:00.37	220.84	52.00	-55.0	-68.0	3.8	8.46e-01	0	33	104	0	75	16730
2026-01-02 03:05:04.35	220.36	50.64	-55.0	-68.0	3.8	8.46e-01	0	33	104	0	75	16774
2026-01-02 03:05:08.31	219.93	49.32	-55.0	-68.0	3.8	8.47e-01	0	33	104	0	75	16768
2026-01-02 03:05:12.28	219.53	48.03	-55.0	-68.0	3.8	8.45e-01	0	33	104	0	75	16743
2026-01-02 03:05:16.26	219.16	46.78	-55.0	-68.0	3.8	8.45e-01	0	33	104	0	75	16736
2026-01-02 03:05:20.21	218.83	45.57	-55.0	-68.0	3.8	8.46e-01	0	33	104	0	75	16755
2026-01-02 03:05:24.20	218.51	44.39	-55.0	-68.0	3.8	8.46e-01	0	33	104	0	75	16727
2026-01-02 03:05:28.20	218.22	43.23	-55.0	-68.0	3.8	8.46e-01	0	33	104	0	75	16787
2026-01-02 03:05:32.19	217.95	42.11	-55.0	-68.0	3.8	8.46e-01	0	33	104	0	75	16745
2026-01-02 03:05:36.19	217.70	41.02	-55.0	-68.0	3.8	8.45e-01	0	33	104	0	75	16762
2026-01-02 03:05:40.18	217.47	39.97	-55.0	-68.0	3.8	8.45e-01	0	33	104	0	75	16719
2026-01-02 03:05:44.19	217.25	38.93	-55.0	-68.0	3.8	8.46e-01	0	33	104	0	75	16791
2026-01-02 03:05:48.19	217.04	37.94	-55.0	-68.0	3.8	8.46e-01	0	33	104	0	75	16740
2026-01-02 03:05:52.19	216.85	36.97	-55.0	-67.9	3.8	8.46e-01	0	33	104	0	75	16690
2026-01-02 03:05:56.20	216.67	36.02	-55.0	-68.0	3.8	8.45e-01	0	33	104	0	75	16721
2026-01-02 03:06:00.20	216.50	35.10	-55.0	-68.0	3.8	8.46e-01	0	33	104	0	75	16737
2026-01-02 03:06:04.20	216.34	34.21	-55.0	-68.0	3.8	8.46e-01	0	33	104	0	75	16757
2026-01-02 03:06:08.19	216.19	33.35	-55.0	-67.9	3.8	8.47e-01	0	33	104	0	75	16616
2026-01-02 03:06:12.18	216.05	32.51	-55.0	-67.9	3.8	8.46e-01	0	33	104	0	75	16678
2026-01-02 03:06:16.14	215.92	31.70	-55.0	-68.0	3.8	8.48e-01	0	33	104	0	75	16729
2026-01-02 03:06:20.14	215.79	30.90	-55.0	-68.0	3.8	8.45e-01	0	33	104	0	75	16703
2026-01-02 03:06:24.14	215.67	30.12	-55.0	-68.0	3.8	8.46e-01	0	33	104	0	75	16788
2026-01-02 03:06:28.14	215.56	29.36	-55.0	-68.0	3.8	8.45e-01	0	33	104	0	75	16751
2026-01-02 03:06:32.14	215.45	28.63	-55.1	-68.0	3.8	8.46e-01	0	33	104	0	75	16762
2026-01-02 03:06:36.13	215.35	27.91	-55.1	-68.0	3.8	8.44e-01	0	33	104	0	75	16746
2026-01-02 03:06:40.13	215.25	27.21	-55.1	-68.0	3.8	8.46e-01	0	33	104	0	75	16771
2026-01-02 03:06:44.11	215.16	26.53	-55.0	-68.0	3.8	8.45e-01	0	33	104	0	75	16769
2026-01-02 03:06:48.10	215.07	25.87	-55.0	-68.0	3.8	8.46e-01	0	33	104	0	75	16764
2026-01-02 03:06:52.09	214.98	25.22	-55.0	-68.0	3.8	8.46e-01	0	33	104	0	75	16766
2026-01-02 03:06:56.10	214.90	24.58	-55.1	-68.0	3.8	8.45e-01	0	33	104	0	75	16757
2026-01-02 03:07:00.10	214.82	23.96	-55.1	-68.0	3.8	8.45e-01	0	33	104	0	75	16761
2026-01-02 03:07:04.10	214.75	23.36	-55.1	-68.0	3.8	8.45e-01	0	33	104	0	75	16805
2026-01-02 03:07:08.09	214.68	22.77	-55.1	-68.0	3.8	8.46e-01	0	33	104	0	75	16783
2026-01-02 03:07:12.08	214.61	22.19	-55.1	-68.0	3.8	8.46e-01	0	33	104	0	75	16771
2026-01-02 03:07:16.07	214.55	21.63	-55.1	-68.0	3.8	8.44e-01	0	33	104	0	75	16765
2026-01-02 03:07:20.05	214.49	21.08	-55.1	-68.0	3.8	8.46e-01	0	33	104	0	75	16735
2026-01-02 03:07:24.04	214.43	20.54	-55.1	-68.0	3.8	8.45e-01	0	33	104	0	75	16768
2026-01-02 03:07:28.04	214.37	20.01	-55.1	-68.0	3.8	8.47e-01	0	33	104	0	75	16771
2026-01-02 03:07:32.05	214.32	19.49	-55.1	-68.0	3.8	8.47e-01	0	33	104	0	75	16810
2026-01-02 03:07:36.06	214.27	18.98	-55.0	-68.0	3.8	8.46e-01	0	33	104	0	75	16795
2026-01-02 03:07:40.05	214.22	18.48	-55.1	-68.0	3.8	8.46e-01	0	33	104	0	75	16808
2026-01-02 03:07:44.05	214.17	17.99	-55.0	-68.0	3.8	8.46e-01	0	33	104	0	75	16753
2026-01-02 03:07:48.05	214.13	17.51	-55.1	-68.0	3.8	8.46e-01	0	33	104	0	75	16775
2026-01-02 03:07:52.06	214.08	17.04	-55.0	-68.0	3.9	8.45e-01	0	33	104	0	75	16742
2026-01-02 03:07:56.07	214.04	16.58	-55.0	-68.0	3.8	8.46e-01	0	33	104	0	75	16742
2026-01-02 03:08:00.06	214.00	16.13	-55.1	-68.0	3.8	8.46e-01	0	33	104	0	75	16785
2026-01-02 03:08:04.05	213.96	15.68	-55.0	-68.0	3.8	8.47e-01	0	33	104	0	75	16754
2026-01-02 03:08:08.03	213.92	15.25	-55.1	-68.0	3.8	8.45e-01	0	33	104	0	75	16772
2026-01-02 03:08:12.02	213.89	14.82	-55.0	-67.9	3.8	8.45e-01	0	33	104	0	75	16692
2026-01-02 03:08:15.98	213.85	14.40	-55.1	-68.0	3.8	8.46e-01	0	33	104	0	75	16752
2026-01-02 03:08:19.95	213.82	13.99	-55.1	-68.0	3.8	8.45e-01	0	33	104	0	75	16731
2026-01-02 03:08:23.92	213.79	13.59	-55.1	-68.0	3.8	8.45e-01	0	33	104	0	75	16797
2026-01-02 03:08:27.90	213.76	13.19	-55.1	-68.0	3.8	8.46e-01	0	33	104	0	75	16761
2026-01-02 03:08:31.88	213.73	12.80	-55.1	-68.0	3.8	8.46e-01	0	33	104	0	75	16802
2026-01-02 03:08:35.85	213.70	12.41	-55.0	-68.0	3.8	8.45e-01	0	33	104	0	75	16783
2026-01-02 03:08:39.82	213.67	12.03	-55.1	-68.0	3.8	8.46e-01	0	33	104	0	75	16810
2026-01-02 03:08:43.77	213.65	11.66	-55.0	-68.0	3.8	8.45e-01	0	33	104	0	75	16803
2026-01-02 03:08:47.72	213.62	11.30	-55.1	-68.0	3.8	8.46e-01	0	33	104	0	75	16757
2026-01-02 03:08:51.69	213.60	10.94	-55.1	-68.0	3.8	8.46e-01	0	33	104	0	75	16822
2026-01-02 03:08:55.63	213.58	10.58	-55.0	-68.0	3.8	8.46e-01	0	33	104	0	75	16722
2026-01-02 03:08:59.58	213.55	10.23	-55.0	-67.9	3.8	8.46e-01	0	33	104	0	75	16602
2026-01-02 03:09:03.55	213.53	9.88	-55.1	-68.0	3.8	8.46e-01	0	33	104	0	75	16756
2026-01-02 03:09:07.54	213.51	9.54	-55.1	-68.0	3.8	8.45e-01	0	33	104	0	75	16770
2026-01-02 03:09:11.52	213.49	9.20	-55.1	-68.0	3.8	8.46e-01	0	33	104	0	75	16826
2026-01-02 03:09:15.48	213.47	8.87	-55.1	-68.0	3.8	8.46e-01	0	33	104	0	75	16810
2026-01-02 03:09:19.43	213.45	8.54	-55.1	-68.0	3.8	8.45e-01	0	33	104	0	75	16826
2026-01-02 03:09:23.41	213.44	8.22	-55.0	-68.0	3.8	8.44e-01	0	33	104	0	75	16802
2026-01-02 03:09:27.37	213.42	7.90	-55.1	-68.0	3.8	8.46e-01	0	33	104	0	75	16748
2026-01-02 03:09:31.34	213.40	7.58	-55.1	-68.0	3.8	8.45e-01	0	33	104	0	75	16805
2026-01-02 03:09:35.31	213.39	7.27	-55.1	-68.0	3.8	8.45e-01	0	33	104	0	75	16800
2026-01-02 03:09:39.30	213.37	6.96	-55.1	-68.0	3.8	8.45e-01	0	33	104	0	75	16808
2026-01-02 03:09:43.26	213.36	6.65	-55.1	-68.0	3.8	8.47e-01	0	33	104	0	75	16810
2026-01-02 03:09:47.23	213.34	6.35	-55.1	-68.0	3.9	8.47e-01	0	33	104	0	75	16806
2026-01-02 03:09:51.19	213.33	6.06	-55.1	-68.0	3.8	8.46e-01	0	33	104	0	75	16801
2026-01-02 03:09:55.18	213.32	5.76	-55.1	-68.0	3.8	8.45e-01	0	33	104	0	75	16813
2026-01-02 03:09:59.15	213.30	5.47	-55.1	-68.0	3.8	8.46e-01	0	33	104	0	75	16795
2026-01-02 03:10:03.14	213.29	5.18	-55.1	-68.0	3.8	8.46e-01	0	33	104	0	75	16812
2026-01-02 03:10:07.13	213.28	4.89	-55.1	-68.0	3.8	8.44e-01	0	33	104	0	75	16781
2026-01-02 03:10:11.12	213.27	4.61	-55.1	-68.0	3.8	8.46e-01	0	33	104	0	75	16802
2026-01-02 03:10:15.10	213.26	4.33	-55.1	-68.0	3.8	8.47e-01	0	33	104	0	75	16825
2026-01-02 03:10:19.07	213.25	4.05	-55.1	-68.0	3.8	8.44e-01	0	33	104	0	75	16787
2026-01-02 03:10:23.06	213.24	3.78	-55.1	-68.0	3.8	8.46e-01	0	33	104	0	75	16831
2026-01-02 03:10:27.04	213.23	3.51	-55.1	-68.0	3.8	8.46e-01	0	33	104	0	75	16803
2026-01-02 03:10:31.03	213.22	3.24	-55.1	-68.0	3.8	8.45e-01	0	33	104	0	75	16791
2026-01-02 03:10:35.02	213.21	2.97	-55.1	-68.0	3.8	8.45e-01	0	33	104	0	75	16848
2026-01-02 03:10:39.01	213.21	2.71	-55.1	-68.0	3.8	8.45e-01	0	33	104	0	75	16765
2026-01-02 03:10:42.99	213.20	2.45	-55.1	-68.0	3.8	8.46e-01	0	33	104	0	75	16778
2026-01-02 03:10:46.97	213.19	2.19	-55.1	-68.0	3.8	8.46e-01	0	33	104	0	75	16794
2026-01-02 03:10:50.92	213.18	1.93	-55.1	-68.0	3.8	8.46e-01	0	33	104	0	75	16785

#Closed at: 2026-01-02 03:10:51
#Recorded file [0 MB]: D:/lorett/data/31004_260102_055624.dat