passes_logs/2026/01/02/R3.2S_Murmansk/R3.2S_Murmansk__20260102_130732_NOAA_21_JPSS-2_rec.log

#Pass ID: 20260102_130732_NOAA 21 (JPSS-2)
#Satellite: NOAA 21 (JPSS-2)
#Configuration: NOAA-21
#almurnet v.1.7.20251203
#Start time: 2026-01-02 13:07:33

#Version: 2.2.20231116
#Station: R3.2S_Murmansk
#Location: 33.079688 lon 68.888172 lat
#TLE: 1 54234U 22150A   26001.12709759  .00000171  00000+0  10204-3 0  9995
#TLE: 2 54234  98.7484 302.1957 0001286 353.9379   6.1781 14.19530519162845

#Time	Az	El	Level	Level2	SNR	BER	BlckErr	Temp	State	Recorded	gain1	gain2
2026-01-02 13:07:33.99	246.68	2.09	-60.3	-73.7	3.8	1.49e+00	0	30	0	0	86	17093
2026-01-02 13:07:36.90	246.98	2.21	-60.3	-73.6	3.8	1.49e+00	0	30	104	0	85	18047
2026-01-02 13:07:39.80	247.28	2.34	-60.3	-73.6	3.8	1.49e+00	0	30	104	0	85	18045
2026-01-02 13:07:42.70	247.58	2.46	-60.3	-73.6	3.8	1.49e+00	0	31	104	0	85	18071
2026-01-02 13:07:45.60	247.89	2.59	-60.3	-73.6	3.9	1.49e+00	0	30	104	0	85	18012
2026-01-02 13:07:48.50	248.20	2.71	-60.3	-73.6	3.8	1.49e+00	0	31	104	0	85	17919
2026-01-02 13:07:51.40	248.51	2.83	-60.3	-73.6	3.8	1.49e+00	0	31	104	0	85	17998
2026-01-02 13:07:54.30	248.82	2.96	-60.3	-73.6	3.8	1.49e+00	0	31	104	0	85	18044
2026-01-02 13:07:57.20	249.13	3.08	-60.3	-73.6	3.8	1.49e+00	0	31	104	0	85	18044
2026-01-02 13:08:00.10	249.45	3.21	-60.3	-73.6	3.8	1.49e+00	0	31	104	0	85	17957
2026-01-02 13:08:03.00	249.77	3.33	-60.3	-73.5	3.8	1.49e+00	0	31	104	0	85	17799
2026-01-02 13:08:05.90	250.09	3.45	-60.3	-73.6	3.8	1.49e+00	0	31	104	0	85	17901
2026-01-02 13:08:08.80	250.42	3.58	-60.3	-73.6	3.8	1.49e+00	0	31	104	0	85	17902
2026-01-02 13:08:11.70	250.75	3.70	-60.3	-73.6	3.8	1.49e+00	0	31	104	0	85	17922
2026-01-02 13:08:14.60	251.08	3.82	-60.3	-73.4	3.8	1.49e+00	0	31	104	0	85	17660
2026-01-02 13:08:17.50	251.41	3.95	-60.3	-73.5	3.8	1.49e+00	0	31	104	0	85	17725
2026-01-02 13:08:20.41	251.75	4.07	-60.3	-73.6	3.8	1.49e+00	0	31	104	0	85	17935
2026-01-02 13:08:23.31	252.08	4.19	-60.2	-73.4	3.8	1.49e+00	0	31	104	0	85	17605
2026-01-02 13:08:26.21	252.43	4.31	-60.2	-73.3	3.8	1.49e+00	0	31	104	0	85	17290
2026-01-02 13:08:29.11	252.77	4.43	-60.2	-73.0	3.8	1.49e+00	0	31	104	0	85	16799
2026-01-02 13:08:32.02	253.12	4.56	-60.2	-73.1	3.8	1.49e+00	0	31	104	0	85	17042
2026-01-02 13:08:34.94	253.47	4.68	-60.2	-72.9	3.8	1.49e+00	0	31	104	0	85	16546
2026-01-02 13:08:37.86	253.82	4.80	-59.8	-69.2	4.0	9.15e-01	2	31	104	0	85	10784
2026-01-02 13:08:40.79	254.18	4.92	-59.2	-65.4	6.6	2.28e-01	0	31	0	5242880	85	6986
2026-01-02 13:08:43.72	254.54	5.04	-60.7	-73.6	3.8	5.54e-01	0	31	104	13631488	86	16918
2026-01-02 13:08:46.68	254.91	5.17	-58.3	-62.9	8.8	1.50e-06	0	31	0	18874368	81	6624
2026-01-02 13:08:49.67	255.29	5.29	-54.0	-55.4	14.1	0.00e+00	0	31	0	28311552	74	4187
2026-01-02 13:08:52.64	255.66	5.41	-53.9	-55.3	14.2	0.00e+00	0	31	0	37748736	74	4125
2026-01-02 13:08:55.60	256.04	5.53	-53.7	-55.1	14.3	0.00e+00	0	31	0	47185920	73	4266
2026-01-02 13:08:58.58	256.42	5.65	-53.5	-54.8	14.5	0.00e+00	0	31	0	55574528	73	4112
2026-01-02 13:09:01.56	256.81	5.77	-53.4	-54.7	14.5	0.00e+00	0	31	0	65011712	73	4068
2026-01-02 13:09:04.54	257.20	5.89	-53.5	-54.8	14.5	0.00e+00	0	31	0	74448896	73	4118
2026-01-02 13:09:07.52	257.59	6.01	-53.3	-54.5	14.6	0.00e+00	0	31	0	83886080	73	3998
2026-01-02 13:09:10.51	257.98	6.13	-53.3	-54.6	14.6	0.00e+00	0	31	0	93323264	73	4011
2026-01-02 13:09:13.50	258.38	6.25	-53.3	-54.6	14.6	0.00e+00	0	31	0	102760448	73	4016
2026-01-02 13:09:16.47	258.78	6.37	-53.4	-54.7	14.6	0.00e+00	0	31	0	112197632	73	4057
2026-01-02 13:09:19.46	259.19	6.49	-53.2	-54.4	14.7	0.00e+00	0	31	0	121634816	73	3944
2026-01-02 13:09:22.45	259.60	6.60	-53.3	-54.5	14.7	0.00e+00	0	31	0	131072000	73	3976
2026-01-02 13:09:25.43	260.01	6.72	-53.2	-54.4	14.7	0.00e+00	0	31	0	139460608	72	4150
2026-01-02 13:09:28.41	260.42	6.83	-53.1	-54.3	14.7	0.00e+00	0	31	0	148897792	72	4114
2026-01-02 13:09:31.42	260.84	6.95	-53.1	-54.2	14.8	0.00e+00	0	31	0	158334976	72	4086
2026-01-02 13:09:34.41	261.26	7.06	-53.0	-54.2	14.8	0.00e+00	0	32	0	167772160	72	4068
2026-01-02 13:09:37.41	261.69	7.18	-53.1	-54.2	14.8	0.00e+00	0	31	0	177209344	72	4085
2026-01-02 13:09:40.42	262.12	7.29	-53.2	-54.4	14.7	0.00e+00	0	31	0	186646528	72	4148
2026-01-02 13:09:43.40	262.55	7.40	-53.1	-54.2	14.8	0.00e+00	0	32	0	196083712	72	4093
2026-01-02 13:09:46.42	262.99	7.51	-53.0	-54.1	14.9	0.00e+00	0	31	0	205520896	72	4046
2026-01-02 13:09:49.42	263.43	7.62	-52.9	-54.0	14.9	0.00e+00	0	31	0	214958080	72	3995
2026-01-02 13:09:52.41	263.87	7.73	-52.8	-53.9	15.0	0.00e+00	0	31	0	224395264	72	3929
2026-01-02 13:09:55.40	264.31	7.84	-52.8	-53.9	15.0	0.00e+00	0	31	0	233832448	72	3915
2026-01-02 13:09:58.39	264.76	7.95	-52.7	-53.8	15.0	0.00e+00	0	31	0	243269632	72	3901
2026-01-02 13:10:01.39	265.21	8.05	-52.8	-53.9	15.0	0.00e+00	0	31	0	252706816	71	4167
2026-01-02 13:10:04.39	265.66	8.16	-52.8	-53.9	15.0	0.00e+00	0	31	0	262144000	71	4163
2026-01-02 13:10:07.38	266.12	8.26	-52.5	-53.5	15.1	0.00e+00	0	32	0	270532608	71	3986
2026-01-02 13:10:10.37	266.58	8.36	-52.5	-53.6	15.0	0.00e+00	0	32	0	279969792	71	4046
2026-01-02 13:10:13.36	267.04	8.46	-53.4	-54.8	14.4	0.00e+00	0	31	0	289406976	72	4342
2026-01-02 13:10:16.36	267.51	8.57	-55.0	-57.0	12.9	0.00e+00	0	31	0	298844160	75	4712
2026-01-02 13:10:19.35	267.97	8.66	-55.5	-58.0	12.0	1.37e-05	0	32	0	308281344	76	4987
2026-01-02 13:10:22.34	268.44	8.76	-57.0	-61.2	9.1	4.87e-03	0	32	0	317718528	79	6121
2026-01-02 13:10:25.32	268.92	8.86	-57.7	-63.3	7.3	9.78e-02	0	32	0	327155712	80	7295
2026-01-02 13:10:28.30	269.39	8.95	-58.0	-63.7	7.2	3.73e-02	0	31	0	336592896	81	7273
2026-01-02 13:10:31.28	269.87	9.04	-56.3	-59.0	11.6	2.88e-04	0	31	0	337641472	79	4723
2026-01-02 13:10:34.26	270.35	9.14	-54.4	-56.1	13.6	0.00e+00	0	32	0	347078656	75	4276
2026-01-02 13:10:37.25	270.84	9.23	-53.7	-55.0	14.5	0.00e+00	0	32	0	356515840	74	3969
2026-01-02 13:10:40.23	271.33	9.32	-52.6	-53.6	15.1	0.00e+00	0	32	0	365953024	71	4042
2026-01-02 13:10:43.21	271.82	9.40	-52.5	-53.5	15.2	0.00e+00	0	32	0	375390208	71	3990
2026-01-02 13:10:46.21	272.31	9.49	-52.6	-53.6	15.2	0.00e+00	0	32	0	384827392	71	4043
2026-01-02 13:10:49.20	272.81	9.57	-52.7	-53.7	15.1	0.00e+00	0	32	0	394264576	71	4080
2026-01-02 13:10:52.19	273.31	9.66	-52.7	-53.8	15.1	0.00e+00	0	32	0	402653184	71	4101
2026-01-02 13:10:55.18	273.81	9.74	-52.6	-53.6	15.2	0.00e+00	0	32	0	412090368	71	4046
2026-01-02 13:10:58.16	274.32	9.82	-52.5	-53.5	15.2	0.00e+00	0	31	0	421527552	71	3990
2026-01-02 13:11:01.16	274.83	9.90	-52.5	-53.5	15.2	0.00e+00	0	31	0	430964736	71	3999
2026-01-02 13:11:04.14	275.34	9.97	-52.5	-53.5	15.2	0.00e+00	0	32	0	440401920	71	3990
2026-01-02 13:11:07.12	275.85	10.05	-52.4	-53.5	15.3	0.00e+00	0	32	0	449839104	71	3961
2026-01-02 13:11:10.12	276.37	10.12	-52.4	-53.4	15.3	0.00e+00	0	32	0	459276288	71	3925
2026-01-02 13:11:13.10	276.88	10.19	-52.4	-53.4	15.3	0.00e+00	0	32	0	468713472	71	3938
2026-01-02 13:11:16.09	277.40	10.26	-52.5	-53.5	15.2	0.00e+00	0	32	0	478150656	71	3994
2026-01-02 13:11:19.08	277.92	10.33	-52.7	-53.7	15.1	0.00e+00	0	32	0	487587840	71	4086
2026-01-02 13:11:22.07	278.45	10.39	-52.6	-53.7	15.2	0.00e+00	0	32	0	497025024	71	4055
2026-01-02 13:11:25.05	278.98	10.45	-52.5	-53.5	15.3	0.00e+00	0	31	0	505413632	71	4001
2026-01-02 13:11:28.05	279.51	10.51	-52.8	-53.8	15.1	0.00e+00	0	32	0	514850816	71	4126
2026-01-02 13:11:31.06	280.04	10.57	-52.7	-53.8	15.2	0.00e+00	0	31	0	524288000	71	4105
2026-01-02 13:11:34.06	280.58	10.63	-52.6	-53.6	15.2	0.00e+00	0	32	0	533725184	71	4038
2026-01-02 13:11:37.05	281.11	10.69	-52.6	-53.6	15.2	0.00e+00	0	32	0	543162368	71	4010
2026-01-02 13:11:40.03	281.65	10.74	-52.7	-53.8	15.2	0.00e+00	0	32	0	552599552	71	4107
2026-01-02 13:11:43.02	282.19	10.79	-52.8	-53.9	15.1	0.00e+00	0	32	0	562036736	71	4156
2026-01-02 13:11:46.00	282.73	10.84	-52.7	-53.7	15.2	0.00e+00	0	32	0	571473920	71	4092
2026-01-02 13:11:49.00	283.27	10.89	-52.6	-53.6	15.3	0.00e+00	0	32	0	580911104	71	4041
2026-01-02 13:11:52.00	283.82	10.93	-52.8	-53.8	15.2	0.00e+00	0	32	0	590348288	71	4126
2026-01-02 13:11:54.98	284.36	10.97	-52.9	-54.0	15.1	0.00e+00	0	32	0	599785472	71	4224
2026-01-02 13:11:57.96	284.91	11.01	-52.8	-53.9	15.2	0.00e+00	0	32	0	609222656	71	4164
2026-01-02 13:12:00.96	285.46	11.05	-52.6	-53.5	15.3	0.00e+00	0	32	0	617611264	71	4001
2026-01-02 13:12:03.95	286.01	11.08	-52.6	-53.6	15.3	0.00e+00	0	31	0	627048448	71	4043
2026-01-02 13:12:06.93	286.56	11.12	-52.6	-53.5	15.3	0.00e+00	0	32	0	636485632	71	3995
2026-01-02 13:12:09.92	287.11	11.15	-52.5	-53.5	15.3	0.00e+00	0	32	0	645922816	71	3985
2026-01-02 13:12:12.91	287.66	11.18	-52.6	-53.5	15.3	0.00e+00	0	32	0	655360000	71	3989
2026-01-02 13:12:15.90	288.22	11.20	-52.8	-53.8	15.2	0.00e+00	0	32	0	664797184	71	4104
2026-01-02 13:12:18.89	288.77	11.23	-53.0	-54.0	15.1	0.00e+00	0	32	0	674234368	71	4224
2026-01-02 13:12:21.88	289.33	11.25	-52.8	-53.9	15.2	0.00e+00	0	32	0	683671552	71	4155
2026-01-02 13:12:24.87	289.88	11.27	-52.5	-53.5	15.3	0.00e+00	0	32	0	693108736	71	3985
2026-01-02 13:12:27.84	290.44	11.28	-52.3	-53.3	15.4	0.00e+00	0	32	0	702545920	71	3885
2026-01-02 13:12:30.83	290.99	11.30	-52.5	-53.4	15.4	0.00e+00	0	32	0	710934528	71	3943
2026-01-02 13:12:33.83	291.56	11.31	-52.3	-53.3	15.5	0.00e+00	0	32	0	720371712	71	3875
2026-01-02 13:12:36.81	292.11	11.32	-52.3	-53.3	15.5	0.00e+00	0	32	0	729808896	71	3873
2026-01-02 13:12:39.79	292.67	11.32	-52.3	-53.2	15.5	0.00e+00	0	32	0	739246080	71	3849
2026-01-02 13:12:42.78	293.23	11.33	-52.4	-53.4	15.4	0.00e+00	0	32	0	748683264	71	3918
2026-01-02 13:12:45.76	293.79	11.33	-52.5	-53.4	15.3	0.00e+00	0	32	0	758120448	71	3956
2026-01-02 13:12:48.75	294.34	11.33	-52.3	-53.3	15.4	0.00e+00	0	32	0	767557632	71	3870
2026-01-02 13:12:51.73	294.90	11.33	-52.4	-53.3	15.4	0.00e+00	0	32	0	776994816	71	3897
2026-01-02 13:12:54.72	295.46	11.32	-52.4	-53.3	15.4	0.00e+00	0	32	0	786432000	71	3899
2026-01-02 13:12:57.71	296.02	11.32	-52.5	-53.5	15.3	0.00e+00	0	32	0	795869184	71	3959
2026-01-02 13:13:00.70	296.58	11.31	-52.3	-53.3	15.4	0.00e+00	0	32	0	805306368	71	3884
2026-01-02 13:13:03.70	297.14	11.29	-52.3	-53.2	15.5	0.00e+00	0	32	0	813694976	71	3840
2026-01-02 13:13:06.69	297.69	11.28	-52.2	-53.2	15.4	0.00e+00	0	32	0	823132160	70	4071
2026-01-02 13:13:09.69	298.25	11.26	-52.4	-53.3	15.3	0.00e+00	0	32	0	832569344	70	4135
2026-01-02 13:13:12.70	298.81	11.24	-52.3	-53.2	15.4	0.00e+00	0	32	0	842006528	70	4092
2026-01-02 13:13:15.69	299.37	11.22	-52.4	-53.4	15.3	0.00e+00	0	32	0	851443712	70	4164
2026-01-02 13:13:18.70	299.93	11.19	-52.7	-53.7	15.2	0.00e+00	0	32	0	860880896	70	4319
2026-01-02 13:13:21.70	300.48	11.17	-52.4	-53.4	15.3	0.00e+00	0	32	0	870318080	70	4169
2026-01-02 13:13:24.71	301.04	11.14	-52.4	-53.4	15.3	0.00e+00	0	32	0	879755264	70	4165
2026-01-02 13:13:27.70	301.59	11.11	-52.5	-53.5	15.3	0.00e+00	0	32	0	889192448	70	4205
2026-01-02 13:13:30.70	302.14	11.07	-52.4	-53.3	15.3	0.00e+00	0	32	0	898629632	70	4132
2026-01-02 13:13:33.72	302.69	11.04	-52.5	-53.4	15.3	0.00e+00	0	32	0	908066816	70	4186
2026-01-02 13:13:36.71	303.24	11.00	-52.4	-53.4	15.3	0.00e+00	0	32	0	917504000	70	4169
2026-01-02 13:13:39.70	303.79	10.96	-52.2	-53.2	15.4	0.00e+00	0	32	0	926941184	70	4063
2026-01-02 13:13:42.68	304.33	10.92	-52.3	-53.2	15.4	0.00e+00	0	32	0	936378368	70	4087
2026-01-02 13:13:45.69	304.88	10.87	-52.4	-53.3	15.4	0.00e+00	0	32	0	944766976	70	4136
2026-01-02 13:13:48.70	305.42	10.82	-52.4	-53.3	15.3	0.00e+00	0	32	0	955252736	70	4138
2026-01-02 13:13:51.69	305.96	10.77	-52.3	-53.3	15.4	0.00e+00	0	32	0	963641344	70	4110
2026-01-02 13:13:54.68	306.50	10.72	-52.4	-53.4	15.3	0.00e+00	0	32	0	973078528	70	4147
2026-01-02 13:13:57.69	307.04	10.67	-52.5	-53.5	15.3	0.00e+00	0	32	0	982515712	70	4209
2026-01-02 13:14:00.68	307.57	10.61	-52.4	-53.4	15.3	0.00e+00	0	32	0	991952896	70	4160
2026-01-02 13:14:03.68	308.10	10.56	-52.4	-53.4	15.3	0.00e+00	0	32	0	1001390080	70	4149
2026-01-02 13:14:06.67	308.63	10.50	-52.3	-53.3	15.3	0.00e+00	0	32	0	1010827264	70	4103
2026-01-02 13:14:09.66	309.16	10.43	-52.2	-53.2	15.4	0.00e+00	0	32	0	1020264448	70	4076
2026-01-02 13:14:12.65	309.69	10.37	-52.2	-53.2	15.4	0.00e+00	0	32	0	1029701632	70	4071
2026-01-02 13:14:15.66	310.21	10.31	-52.2	-53.2	15.3	0.00e+00	0	32	0	1039138816	70	4072
2026-01-02 13:14:18.66	310.73	10.24	-52.2	-53.2	15.4	0.00e+00	0	32	0	1048576000	70	4059
2026-01-02 13:14:21.67	311.26	10.17	-52.1	-53.0	15.4	0.00e+00	0	32	0	1058013184	70	3995
2026-01-02 13:14:24.67	311.77	10.10	-52.1	-53.0	15.4	0.00e+00	0	32	0	1067450368	70	3978
2026-01-02 13:14:27.66	312.29	10.02	-52.2	-53.1	15.4	0.00e+00	0	32	0	1076887552	70	4039
2026-01-02 13:14:30.64	312.80	9.95	-52.3	-53.2	15.3	0.00e+00	0	32	0	1086324736	70	4098
2026-01-02 13:14:33.62	313.30	9.87	-52.2	-53.2	15.4	0.00e+00	0	32	0	1094713344	70	4084
2026-01-02 13:14:36.62	313.81	9.79	-52.3	-53.3	15.3	0.00e+00	0	32	0	1104150528	70	4120
2026-01-02 13:14:39.61	314.31	9.71	-52.4	-53.4	15.2	0.00e+00	0	32	0	1113587712	70	4154
2026-01-02 13:14:42.60	314.81	9.63	-52.2	-53.2	15.2	0.00e+00	0	32	0	1123024896	70	4089
2026-01-02 13:14:45.58	315.31	9.55	-52.3	-53.3	15.3	0.00e+00	0	32	0	1132462080	70	4136
2026-01-02 13:14:48.57	315.80	9.47	-52.4	-53.4	15.2	0.00e+00	0	32	0	1141899264	70	4170
2026-01-02 13:14:51.57	316.30	9.38	-52.3	-53.3	15.3	0.00e+00	0	32	0	1151336448	70	4103
2026-01-02 13:14:54.56	316.79	9.29	-52.4	-53.4	15.3	0.00e+00	0	32	0	1160773632	70	4149
2026-01-02 13:14:57.54	317.27	9.20	-52.3	-53.3	15.2	0.00e+00	0	32	0	1170210816	70	4137
2026-01-02 13:15:00.52	317.75	9.11	-52.2	-53.2	15.3	0.00e+00	0	31	0	1179648000	70	4087
2026-01-02 13:15:03.51	318.23	9.02	-52.4	-53.4	15.2	0.00e+00	0	32	0	1188036608	70	4155
2026-01-02 13:15:06.51	318.71	8.93	-52.5	-53.5	15.2	0.00e+00	0	32	0	1197473792	70	4239
2026-01-02 13:15:09.49	319.18	8.83	-52.4	-53.4	15.1	0.00e+00	0	32	0	1206910976	70	4193
2026-01-02 13:15:12.49	319.66	8.74	-52.4	-53.4	15.2	0.00e+00	0	32	0	1216348160	70	4158
2026-01-02 13:15:15.48	320.13	8.64	-52.3	-53.3	15.2	0.00e+00	0	32	0	1225785344	70	4099
2026-01-02 13:15:18.48	320.59	8.54	-52.4	-53.4	15.1	0.00e+00	0	32	0	1235222528	70	4166
2026-01-02 13:15:21.47	321.05	8.44	-52.5	-53.6	15.0	0.00e+00	0	32	0	1244659712	70	4274
2026-01-02 13:15:24.46	321.51	8.34	-52.6	-53.7	15.0	0.00e+00	0	32	0	1254096896	70	4330
2026-01-02 13:15:27.45	321.97	8.24	-52.7	-53.9	14.9	0.00e+00	0	32	0	1263534080	70	4399
2026-01-02 13:15:30.44	322.42	8.14	-52.6	-53.6	14.9	0.00e+00	0	32	0	1272971264	70	4289
2026-01-02 13:15:33.45	322.88	8.03	-52.5	-53.6	15.1	0.00e+00	0	32	0	1282408448	70	4245
2026-01-02 13:15:36.43	323.32	7.93	-52.6	-53.7	15.0	0.00e+00	0	32	0	1291845632	70	4305
2026-01-02 13:15:39.41	323.76	7.82	-52.7	-53.9	14.9	0.00e+00	0	32	0	1300234240	70	4395
2026-01-02 13:15:42.40	324.20	7.71	-52.8	-53.9	14.9	0.00e+00	0	32	0	1309671424	70	4402
2026-01-02 13:15:45.38	324.64	7.60	-52.9	-54.1	14.8	0.00e+00	0	32	0	1319108608	71	4264
2026-01-02 13:15:48.37	325.07	7.50	-52.9	-54.0	14.9	0.00e+00	0	32	0	1328545792	71	4223
2026-01-02 13:15:51.35	325.50	7.39	-52.8	-54.0	14.9	0.00e+00	0	32	0	1337982976	71	4208
2026-01-02 13:15:54.34	325.93	7.27	-52.7	-53.9	14.9	0.00e+00	0	32	0	1347420160	71	4146
2026-01-02 13:15:57.32	326.36	7.16	-52.9	-54.0	14.8	0.00e+00	0	32	0	1356857344	71	4240
2026-01-02 13:16:00.30	326.78	7.05	-52.8	-53.9	14.9	0.00e+00	0	32	0	1366294528	71	4188
2026-01-02 13:16:03.30	327.20	6.94	-53.1	-54.3	14.7	0.00e+00	0	32	0	1375731712	71	4366
2026-01-02 13:16:06.28	327.61	6.82	-53.1	-54.4	14.7	0.00e+00	0	32	0	1384120320	71	4394
2026-01-02 13:16:09.24	328.02	6.71	-53.1	-54.4	14.6	0.00e+00	0	32	0	1393557504	71	4394
2026-01-02 13:16:12.23	328.43	6.59	-53.1	-54.3	14.7	0.00e+00	0	32	0	1402994688	71	4362
2026-01-02 13:16:15.23	328.84	6.48	-53.1	-54.3	14.7	0.00e+00	0	32	0	1412431872	71	4360
2026-01-02 13:16:18.21	329.24	6.36	-53.1	-54.4	14.6	0.00e+00	0	31	0	1421869056	71	4403
2026-01-02 13:16:21.21	329.64	6.24	-53.3	-54.6	14.6	0.00e+00	0	32	0	1431306240	71	4496
2026-01-02 13:16:24.19	330.03	6.13	-53.2	-54.5	14.6	0.00e+00	0	32	0	1440743424	71	4446
2026-01-02 13:16:27.18	330.43	6.01	-53.2	-54.5	14.5	0.00e+00	0	32	0	1450180608	71	4480
2026-01-02 13:16:30.17	330.82	5.89	-53.2	-54.4	14.6	0.00e+00	0	32	0	1459617792	71	4422
2026-01-02 13:16:33.16	331.21	5.77	-53.2	-54.5	14.5	0.00e+00	0	32	0	1469054976	71	4456
2026-01-02 13:16:36.15	331.59	5.65	-53.0	-54.2	14.7	0.00e+00	0	32	0	1478492160	71	4320
2026-01-02 13:16:39.13	331.97	5.53	-53.1	-54.4	14.6	0.00e+00	0	32	0	1486880768	71	4405
2026-01-02 13:16:42.12	332.35	5.41	-53.2	-54.5	14.5	0.00e+00	0	32	0	1496317952	71	4462
2026-01-02 13:16:45.10	332.72	5.29	-53.3	-54.6	14.4	0.00e+00	0	32	0	1505755136	71	4533
2026-01-02 13:16:48.09	333.10	5.16	-53.6	-54.9	14.3	0.00e+00	0	32	0	1515192320	72	4441
2026-01-02 13:16:51.09	333.47	5.04	-53.5	-54.9	14.3	0.00e+00	0	32	0	1524629504	72	4415
2026-01-02 13:16:54.10	333.84	4.92	-60.9	-74.2	3.8	1.49e+00	0	32	104	1530920960	87	17227
2026-01-02 13:16:57.11	334.20	4.79	-61.8	-75.1	3.8	1.49e+00	0	32	104	1530920960	88	18000
2026-01-02 13:17:00.10	334.56	4.67	-62.1	-75.5	3.8	1.49e+00	0	32	104	1530920960	89	17778
2026-01-02 13:17:03.10	334.92	4.54	-62.3	-75.7	3.8	1.49e+00	0	32	104	1530920960	89	18162
2026-01-02 13:17:06.09	335.28	4.42	-62.4	-75.8	3.8	1.49e+00	0	32	104	1530920960	90	17427
2026-01-02 13:17:09.08	335.63	4.30	-62.5	-75.9	3.8	1.49e+00	0	32	104	1530920960	90	17489
2026-01-02 13:17:12.06	335.98	4.17	-62.5	-75.9	3.8	1.49e+00	0	32	104	1530920960	90	17576
2026-01-02 13:17:15.06	336.32	4.05	-62.5	-75.8	3.8	1.49e+00	0	32	104	1530920960	90	17475
2026-01-02 13:17:18.04	336.67	3.92	-62.4	-75.8	3.8	1.49e+00	0	32	104	1530920960	90	17376
2026-01-02 13:17:21.00	337.00	3.80	-62.4	-75.7	3.8	1.49e+00	0	32	104	1530920960	90	17249
2026-01-02 13:17:23.96	337.34	3.67	-62.3	-75.7	3.8	1.49e+00	0	32	104	1530920960	90	17163
2026-01-02 13:17:26.94	337.67	3.55	-62.3	-75.7	3.8	1.49e+00	0	32	104	1530920960	90	17115
2026-01-02 13:17:29.94	338.01	3.42	-62.2	-75.6	3.8	1.49e+00	0	32	104	1530920960	90	17006
2026-01-02 13:17:32.93	338.34	3.29	-62.2	-75.6	3.8	1.49e+00	0	32	104	1530920960	90	17044
2026-01-02 13:17:35.92	338.66	3.17	-62.2	-75.6	3.8	1.49e+00	0	32	104	1530920960	90	16951
2026-01-02 13:17:38.89	338.99	3.04	-62.2	-75.6	3.8	1.49e+00	0	32	104	1530920960	90	16947
2026-01-02 13:17:41.88	339.31	2.91	-62.2	-75.5	3.8	1.49e+00	0	32	104	1530920960	90	16874
2026-01-02 13:17:44.87	339.63	2.79	-62.2	-75.5	3.8	1.49e+00	0	32	104	1530920960	90	16877
2026-01-02 13:17:47.87	339.94	2.66	-62.2	-75.5	3.8	1.49e+00	0	32	104	1530920960	90	16811
2026-01-02 13:17:50.87	340.26	2.53	-62.1	-75.5	3.8	1.49e+00	0	32	104	1530920960	90	16848
2026-01-02 13:17:53.88	340.57	2.40	-62.1	-75.5	3.8	1.49e+00	0	32	104	1530920960	90	16786
2026-01-02 13:17:56.89	340.88	2.28	-62.1	-75.5	3.8	1.49e+00	0	32	104	1530920960	90	16729
2026-01-02 13:17:59.89	341.19	2.15	-62.1	-75.5	3.8	1.49e+00	0	32	104	1530920960	90	16705
2026-01-02 13:18:02.89	341.50	2.02	-62.1	-75.5	3.8	1.49e+00	0	32	104	1530920960	90	16751

#Closed at: 2026-01-02 13:18:05
#Recorded file [1530 MB]: D:/lorett/data/31004_260102_160733.dat