passes_logs/2026/01/02/R3.2S_Murmansk/R3.2S_Murmansk__20260102_203326_TY-42_rec.log

#Pass ID: 20260102_203326_TY-42
#Satellite: TY-42
#Configuration: TY-42_900M
#almurnet v.1.7.20251203
#Start time: 2026-01-02 20:33:25

#Version: 2.2.20231116
#Station: R3.2S_Murmansk
#Location: 33.079688 lon 68.888172 lat
#TLE: 1 64048U 25103A   26002.65606482  .00008006  00000-0  38191-3 0 09999
#TLE: 2 64048 097.4112 078.3067 0001725 093.9416 300.3943 15.19152735 34947

#Time	Az	El	Level	Level2	SNR	BER	BlckErr	Temp	State	Recorded	gain1	gain2
2026-01-02 20:33:25.56	206.96	1.86	-59.8	-62.6	6.2	0.00e+00	0	36	0	0	86	19728
2026-01-02 20:33:28.55	207.22	2.05	-59.8	-62.6	6.2	0.00e+00	0	36	104	0	86	19842
2026-01-02 20:33:31.55	207.48	2.23	-59.8	-62.6	6.2	0.00e+00	0	36	104	0	86	19752
2026-01-02 20:33:34.56	207.75	2.42	-59.8	-62.6	6.2	0.00e+00	0	36	104	0	86	19858
2026-01-02 20:33:37.55	208.03	2.61	-59.8	-62.6	6.2	0.00e+00	0	36	104	0	86	19811
2026-01-02 20:33:40.55	208.31	2.80	-59.8	-62.6	6.2	0.00e+00	0	37	104	0	86	19886
2026-01-02 20:33:43.55	208.59	2.99	-59.8	-62.6	6.2	0.00e+00	0	37	104	0	86	19884
2026-01-02 20:33:46.55	208.88	3.18	-59.8	-62.7	6.2	0.00e+00	0	37	104	0	86	19950
2026-01-02 20:33:49.55	209.17	3.37	-59.8	-62.6	6.2	0.00e+00	0	37	104	0	86	19911
2026-01-02 20:33:52.55	209.47	3.57	-59.9	-62.7	6.2	0.00e+00	0	37	104	0	86	19951
2026-01-02 20:33:55.56	209.77	3.76	-59.9	-62.6	6.2	0.00e+00	0	37	104	0	86	19924
2026-01-02 20:33:58.56	210.08	3.96	-59.9	-62.7	6.2	0.00e+00	0	38	104	0	86	19948
2026-01-02 20:34:01.56	210.39	4.16	-59.9	-62.7	6.2	0.00e+00	0	37	104	0	86	19939
2026-01-02 20:34:04.55	210.70	4.35	-59.9	-62.7	6.2	0.00e+00	0	37	104	0	86	19986
2026-01-02 20:34:07.55	211.03	4.56	-59.9	-62.6	6.2	0.00e+00	0	38	104	0	86	19932
2026-01-02 20:34:10.54	211.35	4.76	-59.9	-62.7	6.2	0.00e+00	0	38	104	0	86	19969
2026-01-02 20:34:13.55	211.69	4.96	-59.9	-62.7	6.2	0.00e+00	0	38	104	0	86	19997
2026-01-02 20:34:16.54	212.02	5.16	-60.0	-62.7	6.2	0.00e+00	0	38	104	0	86	20154
2026-01-02 20:34:19.54	212.37	5.37	-52.8	-53.1	8.8	0.00e+00	0	38	104	0	73	13966
2026-01-02 20:34:22.53	212.72	5.58	-46.4	-46.3	12.3	5.96e-02	0	39	0	301989888	60	13509
2026-01-02 20:34:25.53	213.07	5.79	-45.1	-45.0	12.8	3.37e-02	0	39	0	637534208	57	13816
2026-01-02 20:34:28.50	213.43	6.00	-45.0	-44.8	12.8	3.37e-02	0	40	0	964689920	56	14432
2026-01-02 20:34:31.48	213.80	6.21	-44.7	-44.6	12.9	1.67e-02	0	40	0	1308622848	56	13979
2026-01-02 20:34:34.47	214.17	6.42	-44.6	-44.5	13.0	1.53e-02	0	40	0	1644167168	56	13809
2026-01-02 20:34:37.49	214.56	6.64	-44.5	-44.3	13.0	1.34e-02	0	40	0	1979711488	56	13589
2026-01-02 20:34:40.48	214.95	6.85	-44.3	-44.2	13.0	1.11e-02	0	40	0	2315255808	55	14175
2026-01-02 20:34:43.47	215.34	7.07	-44.3	-44.1	13.1	9.72e-03	0	40	0	2659188736	55	14040
2026-01-02 20:34:46.44	215.74	7.29	-44.3	-44.1	13.1	8.00e-03	0	40	0	2986344448	55	13998
2026-01-02 20:34:49.43	216.15	7.51	-44.4	-44.2	13.1	7.64e-03	0	41	0	3321888768	55	14221
2026-01-02 20:34:52.41	216.57	7.73	-44.2	-44.0	13.2	7.22e-03	0	41	0	3665821696	55	13938
2026-01-02 20:34:55.41	216.99	7.95	-44.3	-44.1	13.2	5.92e-03	0	41	0	4001366016	55	14010
2026-01-02 20:34:58.40	217.43	8.17	-44.2	-44.0	13.2	5.32e-03	0	41	0	4328521728	55	13853
2026-01-02 20:35:01.39	217.87	8.40	-44.0	-43.8	13.3	5.08e-03	0	41	0	4672454656	55	13564
2026-01-02 20:35:04.37	218.31	8.63	-43.8	-43.6	13.3	4.63e-03	0	41	0	5007998976	54	14088
2026-01-02 20:35:07.35	218.77	8.85	-43.8	-43.6	13.4	4.63e-03	0	41	0	5335154688	54	14013
2026-01-02 20:35:10.34	219.24	9.08	-43.6	-43.5	13.4	3.94e-03	0	41	0	5679087616	54	13794
2026-01-02 20:35:13.33	219.71	9.32	-43.5	-43.3	13.5	2.68e-03	0	41	0	6014631936	54	13579
2026-01-02 20:35:16.32	220.19	9.55	-43.1	-43.0	13.6	2.25e-03	0	41	0	6350176256	53	13801
2026-01-02 20:35:19.32	220.69	9.78	-43.1	-42.9	13.6	2.04e-03	0	42	0	6685720576	53	13678
2026-01-02 20:35:22.30	221.19	10.02	-42.9	-42.7	13.6	1.75e-03	0	42	0	7021264896	52	14162
2026-01-02 20:35:25.29	221.70	10.26	-42.8	-42.6	13.7	1.56e-03	0	42	0	7356809216	52	14027
2026-01-02 20:35:28.28	222.22	10.49	-42.7	-42.6	13.7	1.53e-03	0	42	0	7692353536	52	13985
2026-01-02 20:35:31.26	222.75	10.73	-42.6	-42.4	13.8	1.50e-03	0	42	0	8036286464	52	13722
2026-01-02 20:35:34.25	223.30	10.97	-42.5	-42.3	13.8	1.25e-03	0	42	0	8363442176	52	13568
2026-01-02 20:35:37.23	223.85	11.21	-42.4	-42.2	13.9	9.11e-04	0	42	0	8698986496	51	14211
2026-01-02 20:35:40.23	224.41	11.46	-42.3	-42.1	13.9	8.20e-04	0	42	0	9042919424	51	14028
2026-01-02 20:35:43.21	224.99	11.70	-42.1	-41.9	14.0	7.15e-04	0	42	0	9378463744	51	13657
2026-01-02 20:35:46.20	225.57	11.94	-42.0	-41.8	14.0	5.29e-04	0	42	0	9705619456	51	13511
2026-01-02 20:35:49.18	226.17	12.19	-41.9	-41.7	14.0	3.67e-04	0	42	0	10049552384	50	14148
2026-01-02 20:35:52.16	226.78	12.43	-41.9	-41.7	14.0	2.62e-04	0	42	0	10385096704	50	14208
2026-01-02 20:35:55.13	227.40	12.68	-41.8	-41.6	14.0	3.86e-04	0	42	0	10712252416	50	14069
2026-01-02 20:35:58.11	228.03	12.92	-41.6	-41.4	14.1	2.76e-04	0	42	0	11056185344	50	13685
2026-01-02 20:36:01.11	228.68	13.17	-41.6	-41.4	14.1	2.29e-04	0	42	0	11391729664	50	13713
2026-01-02 20:36:04.10	229.34	13.42	-41.4	-41.2	14.1	2.96e-04	0	42	0	11718885376	50	13388
2026-01-02 20:36:07.09	230.01	13.67	-41.2	-41.0	14.2	2.29e-04	0	42	0	12062818304	49	13908
2026-01-02 20:36:10.07	230.69	13.92	-41.2	-41.0	14.2	2.10e-04	0	42	0	12398362624	49	13845
2026-01-02 20:36:13.07	231.39	14.16	-41.1	-40.9	14.2	1.86e-04	0	42	0	12733906944	49	13681
2026-01-02 20:36:16.07	232.11	14.41	-41.0	-40.8	14.3	2.00e-04	0	42	0	13069451264	49	13496
2026-01-02 20:36:19.05	232.83	14.66	-40.9	-40.7	14.2	1.62e-04	0	42	0	13404995584	49	13446
2026-01-02 20:36:22.03	233.57	14.90	-41.0	-40.8	14.2	1.48e-04	0	42	0	13740539904	49	13619
2026-01-02 20:36:25.01	234.32	15.15	-40.9	-40.7	14.2	1.52e-04	0	42	0	14076084224	48	14143
2026-01-02 20:36:27.99	235.09	15.39	-40.9	-40.7	14.2	1.29e-04	0	42	0	14411628544	48	14259
2026-01-02 20:36:30.98	235.87	15.64	-40.7	-40.5	14.2	9.05e-05	0	43	0	14747172864	48	13929
2026-01-02 20:36:33.97	236.67	15.88	-40.7	-40.5	14.3	1.19e-04	0	43	0	15082717184	48	13920
2026-01-02 20:36:36.97	237.49	16.12	-40.5	-40.3	14.3	1.19e-04	0	42	0	15426650112	48	13580
2026-01-02 20:36:39.96	238.31	16.36	-40.5	-40.3	14.3	7.15e-05	0	42	0	15762194432	48	13588
2026-01-02 20:36:42.96	239.16	16.60	-40.5	-40.3	14.3	7.62e-05	0	43	0	16097738752	48	13528
2026-01-02 20:36:45.95	240.02	16.83	-40.4	-40.2	14.3	9.53e-05	0	43	0	16433283072	48	13391
2026-01-02 20:36:48.93	240.89	17.06	-39.5	-39.3	14.2	9.53e-05	0	43	0	16768827392	46	13599
2026-01-02 20:36:51.92	241.78	17.29	-39.5	-39.3	14.2	1.67e-04	0	43	0	17104371712	46	13608
2026-01-02 20:36:54.90	242.68	17.51	-39.5	-39.3	14.2	1.72e-04	0	43	0	17439916032	45	14286
2026-01-02 20:36:57.88	243.59	17.73	-39.3	-39.1	14.3	2.14e-04	0	43	0	17775460352	45	14064
2026-01-02 20:37:00.85	244.52	17.95	-39.2	-39.0	14.2	1.67e-04	0	43	0	18111004672	45	13860
2026-01-02 20:37:03.83	245.47	18.16	-39.1	-38.9	14.3	1.10e-04	0	43	0	18446548992	45	13750
2026-01-02 20:37:06.81	246.43	18.37	-39.0	-38.8	14.3	7.62e-05	0	43	0	18782093312	45	13558
2026-01-02 20:37:09.80	247.41	18.57	-38.7	-38.5	14.3	7.62e-05	0	43	0	19117637632	44	13904
2026-01-02 20:37:12.80	248.40	18.77	-38.6	-38.4	14.4	3.81e-05	0	42	0	19453181952	44	13745
2026-01-02 20:37:15.78	249.41	18.96	-38.6	-38.4	14.4	5.72e-05	0	43	0	19788726272	44	13730
2026-01-02 20:37:18.76	250.43	19.14	-38.5	-38.3	14.4	3.81e-05	0	43	0	20124270592	44	13584
2026-01-02 20:37:21.74	251.46	19.32	-38.6	-38.3	14.4	7.15e-05	0	43	0	20459814912	44	13619
2026-01-02 20:37:24.72	252.50	19.49	-38.5	-38.2	14.4	2.86e-05	0	43	0	20795359232	44	13476
2026-01-02 20:37:27.70	253.56	19.66	-38.4	-38.2	14.4	5.24e-05	0	43	0	21130903552	44	13420
2026-01-02 20:37:30.70	254.64	19.82	-38.5	-38.3	14.4	2.38e-05	0	43	0	21466447872	43	14373
2026-01-02 20:37:33.69	255.73	19.97	-38.3	-38.1	14.4	3.33e-05	0	43	0	21801992192	43	14055
2026-01-02 20:37:36.68	256.83	20.11	-38.4	-38.2	14.4	3.33e-05	0	43	0	22137536512	43	14233
2026-01-02 20:37:39.67	257.93	20.24	-38.4	-38.1	14.4	4.76e-05	0	43	0	22481469440	43	14103
2026-01-02 20:37:42.65	259.05	20.36	-38.4	-38.2	14.4	2.38e-05	0	43	0	22817013760	43	14251
2026-01-02 20:37:45.65	260.18	20.48	-38.3	-38.1	14.4	2.38e-05	0	43	0	23144169472	43	14081
2026-01-02 20:37:48.65	261.32	20.58	-38.4	-38.2	14.4	4.76e-05	0	43	0	23479713792	43	14147
2026-01-02 20:37:51.62	262.46	20.68	-38.4	-38.2	14.4	6.19e-05	0	43	0	23823646720	43	14206
2026-01-02 20:37:54.62	263.62	20.76	-38.3	-38.1	14.4	1.43e-05	0	43	0	24159191040	43	14014
2026-01-02 20:37:57.60	264.78	20.84	-38.3	-38.1	14.4	1.43e-05	0	43	0	24494735360	43	14015
2026-01-02 20:38:00.59	265.94	20.90	-38.3	-38.1	14.4	6.19e-05	0	43	0	24830279680	43	14055
2026-01-02 20:38:03.59	267.12	20.96	-38.3	-38.0	14.3	9.05e-05	0	43	0	25165824000	43	13934
2026-01-02 20:38:06.59	268.30	21.00	-38.2	-38.0	14.4	1.38e-04	0	43	0	25501368320	43	13890
2026-01-02 20:38:09.58	269.47	21.03	-38.3	-38.1	14.4	1.14e-04	0	43	0	25845301248	43	14025
2026-01-02 20:38:12.58	270.66	21.05	-38.4	-38.1	14.3	1.43e-04	0	43	0	26180845568	43	14109
2026-01-02 20:38:15.56	271.83	21.06	-38.4	-38.2	14.3	9.53e-05	0	43	0	26516389888	43	14117
2026-01-02 20:38:18.56	273.02	21.06	-38.5	-38.3	14.3	1.19e-04	0	43	0	26851934208	43	14275
2026-01-02 20:38:21.54	274.20	21.05	-38.5	-38.3	14.3	1.19e-04	0	43	0	27187478528	43	14370
2026-01-02 20:38:24.55	275.38	21.02	-38.5	-38.3	14.3	1.43e-04	0	43	0	27523022848	43	14306
2026-01-02 20:38:27.53	276.56	20.99	-38.6	-38.3	14.3	1.52e-04	0	43	0	27858567168	43	14439
2026-01-02 20:38:30.52	277.73	20.94	-38.7	-38.5	14.3	1.43e-04	0	43	0	28202500096	43	14704
2026-01-02 20:38:33.52	278.90	20.89	-38.7	-38.5	14.2	1.67e-04	0	43	0	28538044416	43	14616
2026-01-02 20:38:36.51	280.06	20.82	-38.8	-38.6	14.2	2.00e-04	0	43	0	28873588736	43	14895
2026-01-02 20:38:39.50	281.22	20.74	-38.7	-38.5	14.2	3.58e-04	0	43	0	29209133056	43	14717
2026-01-02 20:38:42.50	282.37	20.65	-38.8	-38.6	14.2	1.62e-04	0	43	0	29544677376	43	14910
2026-01-02 20:38:45.50	283.52	20.56	-38.9	-38.7	14.2	7.15e-05	0	43	0	29880221696	43	14950
2026-01-02 20:38:48.49	284.65	20.45	-38.7	-38.5	14.3	1.00e-04	0	43	0	30215766016	43	14730
2026-01-02 20:38:51.50	285.78	20.33	-38.8	-38.6	14.3	1.05e-04	0	43	0	30551310336	43	14869
2026-01-02 20:38:54.48	286.89	20.21	-39.0	-38.8	14.3	8.10e-05	0	43	0	30895243264	43	15135
2026-01-02 20:38:57.46	287.99	20.07	-39.0	-38.8	14.3	1.05e-04	0	43	0	31230787584	44	14346
2026-01-02 20:39:00.45	289.09	19.93	-39.1	-38.9	14.3	9.53e-05	0	43	0	31566331904	44	14572
2026-01-02 20:39:03.43	290.16	19.78	-39.1	-38.9	14.3	8.10e-05	0	43	0	31901876224	44	14586
2026-01-02 20:39:06.44	291.24	19.62	-39.1	-38.9	14.4	9.05e-05	0	43	0	32237420544	44	14458
2026-01-02 20:39:09.42	292.29	19.45	-39.1	-38.9	14.4	6.67e-05	0	43	0	32572964864	44	14519
2026-01-02 20:39:12.42	293.33	19.28	-39.2	-38.9	14.4	5.72e-05	0	43	0	32908509184	44	14602
2026-01-02 20:39:15.41	294.36	19.10	-39.2	-39.0	14.4	4.76e-05	0	43	0	33252442112	44	14680
2026-01-02 20:39:18.40	295.38	18.91	-39.4	-39.2	14.4	7.15e-05	0	43	0	33587986432	44	14970
2026-01-02 20:39:21.40	296.38	18.72	-39.4	-39.2	14.4	6.19e-05	0	43	0	33915142144	44	15041
2026-01-02 20:39:24.39	297.37	18.52	-39.5	-39.3	14.4	1.00e-04	0	43	0	34259075072	44	15142
2026-01-02 20:39:27.39	298.34	18.31	-39.4	-39.2	14.4	9.53e-05	0	43	0	34594619392	44	15093
2026-01-02 20:39:30.39	299.30	18.11	-39.5	-39.3	14.4	7.62e-05	0	43	0	34930163712	44	15266
2026-01-02 20:39:33.37	300.24	17.89	-39.5	-39.3	14.5	6.67e-05	0	43	0	35265708032	45	14427
2026-01-02 20:39:36.37	301.17	17.68	-39.6	-39.4	14.5	7.15e-05	0	43	0	35609640960	45	14545
2026-01-02 20:39:39.37	302.08	17.45	-39.7	-39.5	14.4	7.62e-05	0	43	0	35945185280	45	14756
2026-01-02 20:39:42.36	302.97	17.23	-39.9	-39.7	14.4	1.05e-04	0	43	0	36280729600	45	14988
2026-01-02 20:39:45.35	303.85	17.00	-39.9	-39.7	14.4	1.19e-04	0	43	0	36616273920	45	15010
2026-01-02 20:39:48.34	304.72	16.77	-39.8	-39.6	14.5	1.67e-04	0	43	0	36951818240	45	14848
2026-01-02 20:39:51.32	305.57	16.54	-40.0	-39.8	14.4	7.62e-05	0	43	0	37287362560	45	15130
2026-01-02 20:39:54.30	306.40	16.30	-40.1	-39.9	14.4	1.76e-04	0	43	0	37622906880	45	15299
2026-01-02 20:39:57.29	307.22	16.07	-40.1	-39.8	14.4	1.00e-04	0	43	0	37958451200	45	15295
2026-01-02 20:40:00.29	308.03	15.83	-40.2	-40.0	14.4	1.33e-04	0	43	0	38293995520	46	14693
2026-01-02 20:40:03.29	308.82	15.58	-40.3	-40.1	14.4	1.19e-04	0	43	0	38629539840	46	14850
2026-01-02 20:40:06.28	309.59	15.34	-40.5	-40.2	14.4	1.86e-04	0	43	0	38973472768	46	15116
2026-01-02 20:40:09.26	310.35	15.10	-40.4	-40.2	14.4	1.72e-04	0	43	0	39309017088	46	15096
2026-01-02 20:40:12.27	311.10	14.85	-40.5	-40.3	14.4	2.48e-04	0	43	0	39644561408	46	15215
2026-01-02 20:40:15.26	311.84	14.61	-40.6	-40.4	14.4	2.72e-04	0	43	0	39980105728	47	14551
2026-01-02 20:40:18.25	312.55	14.36	-40.5	-40.3	14.4	2.57e-04	0	43	0	40315650048	47	14404
2026-01-02 20:40:21.24	313.26	14.12	-40.6	-40.4	14.4	2.72e-04	0	43	0	40651194368	47	14504
2026-01-02 20:40:24.24	313.95	13.87	-40.7	-40.5	14.3	2.81e-04	0	43	0	40986738688	47	14687
2026-01-02 20:40:27.25	314.64	13.62	-40.8	-40.6	14.3	3.77e-04	0	43	0	41330671616	47	14815
2026-01-02 20:40:30.26	315.30	13.37	-40.8	-40.6	14.2	6.10e-04	0	43	0	41666215936	47	14946
2026-01-02 20:40:33.24	315.95	13.13	-40.9	-40.7	14.2	4.43e-04	0	43	0	42001760256	47	15090
2026-01-02 20:40:36.24	316.60	12.88	-41.8	-41.6	14.4	4.24e-04	0	43	0	42337304576	49	14864
2026-01-02 20:40:39.25	317.23	12.64	-41.9	-41.7	14.3	3.10e-04	0	43	0	42672848896	49	15036
2026-01-02 20:40:42.24	317.84	12.39	-42.0	-41.8	14.3	2.29e-04	0	43	0	43016781824	50	14408
2026-01-02 20:40:45.24	318.45	12.15	-42.1	-41.9	14.3	2.62e-04	0	43	0	43352326144	50	14445
2026-01-02 20:40:48.25	319.04	11.90	-42.2	-42.0	14.2	3.67e-04	0	43	0	43687870464	50	14712
2026-01-02 20:40:51.23	319.62	11.66	-42.2	-42.0	14.2	2.72e-04	0	44	0	44023414784	50	14687
2026-01-02 20:40:54.21	320.19	11.42	-42.3	-42.1	14.1	4.77e-04	0	43	0	44367347712	50	14872
2026-01-02 20:40:57.21	320.75	11.18	-42.3	-42.1	14.1	4.62e-04	0	43	0	44702892032	50	14930
2026-01-02 20:41:00.19	321.29	10.94	-42.4	-42.2	14.1	7.10e-04	0	43	0	45030047744	51	14250
2026-01-02 20:41:03.18	321.83	10.70	-42.6	-42.4	14.1	6.44e-04	0	43	0	45373980672	51	14558
2026-01-02 20:41:06.18	322.36	10.46	-42.6	-42.4	14.1	8.06e-04	0	43	0	45709524992	51	14506
2026-01-02 20:41:09.17	322.88	10.23	-42.7	-42.5	14.0	7.77e-04	0	43	0	46045069312	51	14728
2026-01-02 20:41:12.15	323.38	9.99	-42.7	-42.5	14.0	9.11e-04	0	43	0	46380613632	51	14734
2026-01-02 20:41:15.13	323.88	9.76	-42.9	-42.7	13.9	9.25e-04	0	43	0	46716157952	51	15058
2026-01-02 20:41:18.13	324.37	9.53	-42.8	-42.6	14.0	1.03e-03	0	43	0	47051702272	51	14905
2026-01-02 20:41:21.12	324.85	9.30	-42.9	-42.7	13.9	1.38e-03	0	44	0	47387246592	51	15016
2026-01-02 20:41:24.11	325.32	9.07	-42.9	-42.7	13.9	1.17e-03	0	44	0	47731179520	51	14992
2026-01-02 20:41:27.11	325.78	8.84	-42.9	-42.7	13.9	1.28e-03	0	44	0	48066723840	51	15058
2026-01-02 20:41:30.10	326.23	8.61	-43.0	-42.8	13.8	1.28e-03	0	43	0	48393879552	51	15218
2026-01-02 20:41:33.08	326.68	8.39	-42.8	-42.6	13.9	1.64e-03	0	43	0	48737812480	52	14023
2026-01-02 20:41:36.07	327.11	8.16	-42.7	-42.5	13.9	1.50e-03	0	43	0	49073356800	52	13939
2026-01-02 20:41:39.06	327.54	7.94	-42.7	-42.5	13.9	1.32e-03	0	43	0	49408901120	52	13886
2026-01-02 20:41:42.04	327.96	7.72	-42.8	-42.6	13.9	1.42e-03	0	43	0	49744445440	52	14034
2026-01-02 20:41:45.03	328.37	7.50	-42.7	-42.5	13.9	1.62e-03	0	43	0	50079989760	52	13904
2026-01-02 20:41:48.01	328.78	7.29	-42.9	-42.7	13.8	1.79e-03	0	43	0	50415534080	52	14113
2026-01-02 20:41:50.99	329.18	7.07	-43.0	-42.8	13.9	3.52e-03	0	43	0	50751078400	52	14409
2026-01-02 20:41:53.96	329.56	6.86	-43.1	-42.9	13.8	3.85e-03	0	44	0	51086622720	52	14600
2026-01-02 20:41:56.94	329.95	6.64	-43.2	-43.0	13.8	4.20e-03	0	44	0	51413778432	52	14706
2026-01-02 20:41:59.93	330.33	6.43	-60.4	-63.1	6.2	4.20e-03	0	43	104	51464110080	86	21040
2026-01-02 20:42:02.91	330.70	6.22	-60.3	-63.1	6.2	4.20e-03	0	42	104	51464110080	86	20970
2026-01-02 20:42:05.90	331.06	6.01	-60.4	-63.2	6.2	2.63e-03	0	43	104	51464110080	86	21133
2026-01-02 20:42:08.90	331.42	5.80	-60.2	-62.9	6.2	2.63e-03	0	42	104	51464110080	86	20616
2026-01-02 20:42:11.89	331.78	5.60	-60.2	-63.0	6.2	2.63e-03	0	42	104	51464110080	86	20755
2026-01-02 20:42:14.86	332.12	5.39	-60.1	-62.9	6.2	2.63e-03	0	42	104	51464110080	86	20471
2026-01-02 20:42:17.85	332.46	5.19	-60.2	-63.0	6.2	0.00e+00	0	42	104	51464110080	86	20687
2026-01-02 20:42:20.84	332.80	4.99	-60.3	-63.0	6.2	0.00e+00	0	42	104	51464110080	86	20839
2026-01-02 20:42:23.84	333.13	4.78	-61.4	-64.2	6.2	0.00e+00	0	42	104	51464110080	88	21141
2026-01-02 20:42:26.84	333.45	4.58	-61.9	-64.6	6.2	0.00e+00	0	42	104	51464110080	89	21096
2026-01-02 20:42:29.84	333.77	4.38	-62.1	-64.9	6.2	0.00e+00	0	42	104	51464110080	90	20549
2026-01-02 20:42:32.84	334.09	4.19	-62.2	-65.0	6.2	0.00e+00	0	42	104	51464110080	90	20743
2026-01-02 20:42:35.83	334.40	3.99	-62.3	-65.1	6.2	0.00e+00	0	42	104	51464110080	90	20881
2026-01-02 20:42:38.82	334.70	3.80	-62.3	-65.0	6.2	0.00e+00	0	41	104	51464110080	90	20860
2026-01-02 20:42:41.81	335.00	3.60	-62.3	-65.0	6.2	0.00e+00	0	42	104	51464110080	90	20829
2026-01-02 20:42:44.80	335.30	3.41	-62.2	-64.9	6.2	0.00e+00	0	41	104	51464110080	90	20545
2026-01-02 20:42:47.79	335.59	3.22	-62.1	-64.9	6.2	0.00e+00	0	41	104	51464110080	90	20457
2026-01-02 20:42:50.79	335.87	3.03	-62.1	-64.8	6.2	0.00e+00	0	41	104	51464110080	90	20349
2026-01-02 20:42:53.78	336.16	2.84	-62.1	-64.8	6.2	0.00e+00	0	41	104	51464110080	90	20316
2026-01-02 20:42:56.78	336.43	2.66	-62.0	-64.8	6.2	0.00e+00	0	41	104	51464110080	90	20268
2026-01-02 20:42:59.77	336.71	2.47	-62.0	-64.8	6.2	0.00e+00	0	41	104	51464110080	90	20177
2026-01-02 20:43:02.78	336.98	2.28	-62.0	-64.7	6.2	0.00e+00	0	41	104	51464110080	90	20145
2026-01-02 20:43:05.77	337.24	2.10	-62.0	-64.7	6.2	0.00e+00	0	41	104	51464110080	90	20125

#Closed at: 2026-01-02 20:43:06
#Recorded file [51464 MB]: D:/lorett/data/31004_260102_233325.dat