passes_logs/2026/01/02/R3.2S_Murmansk/R3.2S_Murmansk__20260102_003531_NOAA_20_JPSS-1_rec.log

#Pass ID: 20260102_003531_NOAA 20 (JPSS-1)
#Satellite: NOAA 20 (JPSS-1)
#Configuration: NOAA 20
#almurnet v.1.7.20251203
#Start time: 2026-01-02 00:35:32

#Version: 2.2.20231116
#Station: R3.2S_Murmansk
#Location: 33.079688 lon 68.888172 lat
#TLE: 1 43013U 17073A   26001.09198674  .00000169  00000+0  10130-3 0  9995
#TLE: 2 43013  98.7621 302.1793 0001944  59.5293 300.6075 14.19531878420769

#Time	Az	El	Level	Level2	SNR	BER	BlckErr	Temp	State	Recorded	gain1	gain2
2026-01-02 00:35:32.11	24.17	2.03	-59.3	-75.6	3.8	1.49e+00	0	31	0	0	85	22719
2026-01-02 00:35:36.10	24.19	2.29	-58.5	-75.4	3.8	1.49e+00	0	32	104	0	83	24910
2026-01-02 00:35:40.07	24.22	2.54	-57.2	-75.5	3.8	1.49e+00	0	32	104	0	81	28040
2026-01-02 00:35:44.07	24.24	2.80	-57.3	-75.4	3.8	1.49e+00	0	32	104	0	80	29653
2026-01-02 00:35:48.05	24.27	3.07	-58.4	-74.9	3.8	1.49e+00	0	32	104	0	82	24941
2026-01-02 00:35:52.04	24.29	3.33	-59.0	-73.7	3.8	1.49e+00	0	32	104	0	83	20460
2026-01-02 00:35:56.04	24.32	3.60	-59.3	-74.4	3.8	1.49e+00	0	32	104	0	83	22051
2026-01-02 00:36:00.04	24.34	3.87	-59.4	-74.3	3.8	1.49e+00	0	32	104	0	83	21914
2026-01-02 00:36:04.04	24.37	4.15	-59.1	-69.7	5.0	7.97e-01	0	32	0	2097152	83	12890
2026-01-02 00:36:08.03	24.39	4.42	-58.5	-65.9	7.8	7.05e-02	0	32	0	9437184	83	8344
2026-01-02 00:36:12.03	24.42	4.70	-58.0	-64.0	9.5	6.51e-03	0	32	0	16777216	82	7121
2026-01-02 00:36:16.02	24.45	4.98	-58.0	-64.0	9.5	5.74e-03	0	32	0	25165824	82	7098
2026-01-02 00:36:20.03	24.47	5.27	-59.2	-70.4	4.8	1.95e-01	0	32	0	32505856	83	13993
2026-01-02 00:36:24.02	24.50	5.56	-56.1	-59.4	13.3	7.00e-07	0	32	0	39845888	78	5245
2026-01-02 00:36:28.01	24.53	5.85	-55.9	-58.9	13.7	7.00e-07	0	32	0	47185920	78	4952
2026-01-02 00:36:31.99	24.55	6.14	-55.9	-58.9	13.8	0.00e+00	0	33	0	54525952	78	4934
2026-01-02 00:36:35.98	24.58	6.44	-55.8	-58.8	13.9	0.00e+00	0	32	0	61865984	78	4901
2026-01-02 00:36:39.98	24.61	6.74	-55.8	-58.8	13.9	0.00e+00	0	33	0	69206016	78	4879
2026-01-02 00:36:43.97	24.63	7.05	-55.6	-58.4	14.1	0.00e+00	0	33	0	76546048	77	4978
2026-01-02 00:36:47.97	24.66	7.36	-55.5	-58.3	14.3	0.00e+00	0	32	0	84934656	77	4874
2026-01-02 00:36:51.96	24.69	7.67	-55.6	-58.4	14.2	0.00e+00	0	33	0	92274688	77	4927
2026-01-02 00:36:55.96	24.72	7.99	-55.4	-58.0	14.5	0.00e+00	0	33	0	99614720	77	4712
2026-01-02 00:36:59.97	24.75	8.31	-55.4	-58.0	14.4	0.00e+00	0	33	0	106954752	77	4737
2026-01-02 00:37:03.97	24.77	8.64	-55.2	-57.6	14.7	0.00e+00	0	33	0	114294784	76	4814
2026-01-02 00:37:07.97	24.80	8.97	-55.1	-57.6	14.8	0.00e+00	0	33	0	121634816	76	4760
2026-01-02 00:37:11.96	24.83	9.30	-55.1	-57.5	14.8	0.00e+00	0	33	0	128974848	76	4709
2026-01-02 00:37:15.97	24.86	9.64	-55.0	-57.3	14.9	0.00e+00	0	33	0	137363456	76	4643
2026-01-02 00:37:19.97	24.89	9.98	-54.9	-57.2	15.0	0.00e+00	0	33	0	144703488	76	4553
2026-01-02 00:37:23.97	24.92	10.33	-54.8	-57.0	15.1	0.00e+00	0	33	0	152043520	76	4491
2026-01-02 00:37:27.97	24.95	10.68	-54.7	-56.9	15.1	0.00e+00	0	33	0	159383552	76	4422
2026-01-02 00:37:31.95	24.98	11.04	-54.6	-56.7	15.2	0.00e+00	0	33	0	166723584	75	4592
2026-01-02 00:37:35.94	25.01	11.40	-54.5	-56.7	15.3	0.00e+00	0	33	0	174063616	75	4562
2026-01-02 00:37:39.93	25.04	11.77	-54.5	-56.6	15.3	0.00e+00	0	33	0	182452224	75	4517
2026-01-02 00:37:43.93	25.07	12.15	-54.3	-56.3	15.4	0.00e+00	0	33	0	189792256	75	4368
2026-01-02 00:37:47.93	25.11	12.53	-54.2	-56.2	15.5	0.00e+00	0	33	0	197132288	74	4569
2026-01-02 00:37:51.93	25.14	12.91	-54.2	-56.3	15.5	0.00e+00	0	33	0	204472320	74	4599
2026-01-02 00:37:55.94	25.17	13.31	-54.0	-55.9	15.7	0.00e+00	0	33	0	211812352	74	4438
2026-01-02 00:37:59.94	25.20	13.71	-54.1	-56.0	15.6	0.00e+00	0	33	0	219152384	74	4486
2026-01-02 00:38:03.94	25.24	14.11	-53.9	-55.8	15.7	0.00e+00	0	33	0	226492416	74	4390
2026-01-02 00:38:07.93	25.27	14.52	-53.8	-55.7	15.8	0.00e+00	0	33	0	234881024	74	4316
2026-01-02 00:38:11.92	25.30	14.94	-53.8	-55.7	15.8	0.00e+00	0	33	0	242221056	74	4296
2026-01-02 00:38:15.92	25.34	15.37	-53.8	-55.7	15.8	0.00e+00	0	33	0	249561088	74	4324
2026-01-02 00:38:19.91	25.37	15.80	-53.8	-55.6	15.8	0.00e+00	0	33	0	256901120	74	4291
2026-01-02 00:38:23.92	25.41	16.25	-53.7	-55.6	15.8	0.00e+00	0	33	0	264241152	73	4505
2026-01-02 00:38:27.93	25.45	16.70	-53.7	-55.5	15.9	0.00e+00	0	33	0	271581184	73	4460
2026-01-02 00:38:31.93	25.48	17.16	-53.6	-55.4	15.9	0.00e+00	0	33	0	279969792	73	4405
2026-01-02 00:38:35.93	25.52	17.63	-53.6	-55.5	15.9	0.00e+00	0	33	0	287309824	73	4452
2026-01-02 00:38:39.94	25.56	18.11	-53.3	-55.1	16.1	0.00e+00	0	33	0	294649856	73	4258
2026-01-02 00:38:43.93	25.60	18.59	-53.3	-55.1	16.1	0.00e+00	0	33	0	301989888	73	4245
2026-01-02 00:38:47.92	25.64	19.09	-53.4	-55.1	16.1	0.00e+00	0	33	0	309329920	73	4268
2026-01-02 00:38:51.90	25.68	19.59	-53.5	-55.2	16.0	0.00e+00	0	33	0	316669952	73	4331
2026-01-02 00:38:55.90	25.72	20.11	-53.4	-55.2	16.1	0.00e+00	0	33	0	324009984	73	4292
2026-01-02 00:38:59.90	25.76	20.64	-53.5	-55.2	16.0	0.00e+00	0	33	0	331350016	73	4325
2026-01-02 00:39:03.91	25.81	21.18	-53.5	-55.3	16.1	0.00e+00	0	33	0	339738624	73	4342
2026-01-02 00:39:07.91	25.85	21.73	-53.6	-55.4	16.0	0.00e+00	0	33	0	347078656	73	4399
2026-01-02 00:39:11.92	25.89	22.30	-53.6	-55.3	16.0	0.00e+00	0	33	0	354418688	73	4389
2026-01-02 00:39:15.92	25.94	22.88	-53.6	-55.4	16.0	0.00e+00	0	33	0	361758720	73	4430
2026-01-02 00:39:19.91	25.99	23.47	-53.7	-55.4	16.0	0.00e+00	0	33	0	369098752	73	4441
2026-01-02 00:39:23.90	26.04	24.07	-53.9	-55.7	15.9	0.00e+00	0	33	0	376438784	73	4581
2026-01-02 00:39:27.91	26.09	24.69	-54.0	-55.8	15.9	0.00e+00	0	33	0	384827392	73	4620
2026-01-02 00:39:31.90	26.14	25.32	-54.1	-56.0	15.7	0.00e+00	0	33	0	392167424	73	4715
2026-01-02 00:39:35.88	26.19	25.97	-54.3	-56.2	15.7	0.00e+00	0	33	0	399507456	73	4828
2026-01-02 00:39:39.87	26.24	26.63	-54.5	-56.5	15.6	0.00e+00	0	33	0	406847488	74	4727
2026-01-02 00:39:43.86	26.30	27.31	-54.8	-56.9	15.4	0.00e+00	0	33	0	414187520	74	4937
2026-01-02 00:39:47.86	26.35	28.01	-55.0	-57.1	15.3	0.00e+00	0	33	0	421527552	75	4795
2026-01-02 00:39:51.86	26.41	28.73	-55.2	-57.4	15.2	0.00e+00	0	33	0	428867584	75	4979
2026-01-02 00:39:55.85	26.47	29.46	-55.6	-58.0	15.0	0.00e+00	0	33	0	437256192	76	5003
2026-01-02 00:39:59.86	26.54	30.22	-55.9	-58.4	14.8	0.00e+00	0	33	0	444596224	77	4936
2026-01-02 00:40:03.85	26.60	30.99	-56.0	-58.4	14.7	0.00e+00	0	33	0	451936256	77	4983
2026-01-02 00:40:07.86	26.67	31.79	-56.2	-58.7	14.6	0.00e+00	0	33	0	459276288	77	5132
2026-01-02 00:40:11.85	26.74	32.61	-56.0	-58.4	14.8	0.00e+00	0	33	0	466616320	77	4952
2026-01-02 00:40:15.84	26.81	33.45	-55.7	-58.0	15.0	0.00e+00	0	33	0	473956352	77	4755
2026-01-02 00:40:19.83	26.89	34.32	-55.0	-57.1	15.5	0.00e+00	0	33	0	481296384	76	4515
2026-01-02 00:40:23.82	26.97	35.20	-54.5	-56.4	15.8	0.00e+00	0	33	0	489684992	75	4404
2026-01-02 00:40:27.82	27.05	36.12	-53.9	-55.6	16.1	0.00e+00	0	33	0	497025024	74	4264
2026-01-02 00:40:31.81	27.14	37.06	-53.5	-55.1	16.3	0.00e+00	0	33	0	504365056	73	4279
2026-01-02 00:40:35.80	27.23	38.03	-52.6	-54.1	16.5	0.00e+00	0	33	0	511705088	71	4281
2026-01-02 00:40:39.80	27.32	39.03	-52.9	-54.4	16.4	0.00e+00	0	33	0	519045120	71	4439
2026-01-02 00:40:43.77	27.42	40.06	-53.2	-54.8	16.3	0.00e+00	0	33	0	526385152	71	4610
2026-01-02 00:40:47.75	27.53	41.11	-53.0	-54.6	16.4	0.00e+00	0	33	0	533725184	71	4526
2026-01-02 00:40:51.73	27.64	42.20	-53.9	-55.6	16.1	0.00e+00	0	33	0	542113792	73	4530
2026-01-02 00:40:55.73	27.76	43.33	-53.9	-55.6	16.1	0.00e+00	0	33	0	549453824	73	4522
2026-01-02 00:40:59.71	27.89	44.48	-54.0	-55.7	16.0	0.00e+00	0	33	0	556793856	73	4595
2026-01-02 00:41:03.71	28.02	45.68	-55.6	-57.8	15.2	0.00e+00	0	33	0	564133888	76	4887
2026-01-02 00:41:07.73	28.17	46.92	-56.3	-58.8	14.7	0.00e+00	0	33	0	571473920	77	5201
2026-01-02 00:41:11.72	28.32	48.19	-55.7	-58.0	15.2	0.00e+00	0	33	0	578813952	77	4722
2026-01-02 00:41:15.72	28.49	49.50	-56.0	-58.4	14.9	0.00e+00	0	33	0	586153984	77	4944
2026-01-02 00:41:19.71	28.67	50.84	-54.8	-56.7	15.7	0.00e+00	0	33	0	594542592	76	4325
2026-01-02 00:41:23.72	28.87	52.23	-53.2	-54.7	16.5	0.00e+00	0	33	0	601882624	73	4091
2026-01-02 00:41:27.71	29.08	53.65	-52.5	-53.9	16.7	0.00e+00	0	33	0	609222656	71	4189
2026-01-02 00:41:31.71	29.32	55.12	-53.0	-54.5	16.6	0.00e+00	0	33	0	616562688	71	4459
2026-01-02 00:41:35.71	29.58	56.63	-53.4	-55.0	16.4	0.00e+00	0	33	0	623902720	72	4471
2026-01-02 00:41:39.70	29.87	58.18	-53.8	-55.4	16.2	0.00e+00	0	33	0	631242752	72	4694
2026-01-02 00:41:43.68	30.19	59.77	-53.0	-54.6	16.5	0.00e+00	0	33	0	638582784	72	4260
2026-01-02 00:41:47.66	30.55	61.39	-51.7	-53.1	16.9	0.00e+00	0	33	0	646971392	70	4015
2026-01-02 00:41:51.65	30.96	63.06	-50.9	-52.2	17.1	0.00e+00	0	33	0	654311424	68	4076
2026-01-02 00:41:55.64	31.44	64.77	-53.3	-54.9	16.4	0.00e+00	0	33	0	661651456	71	4690
2026-01-02 00:41:59.63	31.98	66.52	-54.9	-56.9	15.7	0.00e+00	0	33	0	668991488	75	4654
2026-01-02 00:42:03.63	32.63	68.31	-54.5	-56.3	16.0	0.00e+00	0	33	0	676331520	75	4379
2026-01-02 00:42:07.61	33.40	70.12	-54.1	-55.8	16.2	0.00e+00	0	33	0	683671552	74	4341
2026-01-02 00:42:11.61	34.33	71.97	-54.7	-56.6	15.9	0.00e+00	0	33	0	691011584	74	4769
2026-01-02 00:42:15.62	35.50	73.86	-55.2	-57.2	15.6	0.00e+00	0	33	0	699400192	75	4841
2026-01-02 00:42:19.61	36.97	75.75	-55.2	-57.2	15.7	0.00e+00	0	33	0	706740224	77	4296
2026-01-02 00:42:23.61	38.92	77.67	-54.0	-55.6	16.3	0.00e+00	0	33	0	714080256	73	4524
2026-01-02 00:42:27.60	41.60	79.59	-53.4	-54.9	16.5	0.00e+00	0	33	0	721420288	73	4175
2026-01-02 00:42:31.60	45.52	81.49	-54.6	-56.4	16.0	0.00e+00	0	33	0	728760320	74	4703
2026-01-02 00:42:35.59	51.67	83.35	-56.6	-59.0	14.8	0.00e+00	0	33	0	736100352	79	4736
2026-01-02 00:42:39.58	62.39	85.09	-53.5	-55.1	16.4	0.00e+00	0	33	0	743440384	73	4257
2026-01-02 00:42:43.57	83.06	86.49	-55.0	-56.9	15.7	0.00e+00	0	33	0	751828992	75	4672
2026-01-02 00:42:47.55	118.60	87.02	-55.0	-56.8	15.9	0.00e+00	0	33	0	759169024	76	4367
2026-01-02 00:42:51.55	152.11	86.28	-55.0	-56.9	15.8	0.00e+00	0	33	0	766509056	75	4682
2026-01-02 00:42:55.56	170.54	84.79	-53.5	-55.1	16.5	0.00e+00	0	33	0	773849088	73	4260
2026-01-02 00:42:59.57	180.19	83.01	-57.1	-59.7	14.5	0.00e+00	0	33	0	781189120	79	5147
2026-01-02 00:43:03.58	185.83	81.13	-55.5	-57.5	15.6	0.00e+00	0	33	0	788529152	77	4485
2026-01-02 00:43:07.59	189.46	79.21	-53.9	-55.5	16.3	0.00e+00	0	33	0	795869184	72	4747
2026-01-02 00:43:11.58	191.97	77.29	-57.7	-60.7	14.0	0.00e+00	0	33	0	804257792	80	5414
2026-01-02 00:43:15.58	193.82	75.38	-56.6	-58.9	14.9	0.00e+00	0	33	0	811597824	79	4705
2026-01-02 00:43:19.57	195.23	73.48	-54.1	-55.8	16.3	0.00e+00	0	33	0	818937856	74	4344
2026-01-02 00:43:23.57	196.34	71.61	-53.4	-54.9	16.5	0.00e+00	0	33	0	826277888	73	4183
2026-01-02 00:43:27.56	197.24	69.76	-56.0	-58.2	15.3	0.00e+00	0	33	0	833617920	78	4568
2026-01-02 00:43:31.56	197.98	67.94	-59.2	-63.5	11.9	2.74e-05	0	33	0	840957952	83	6341
2026-01-02 00:43:35.57	198.61	66.15	-56.1	-58.3	15.3	0.00e+00	0	33	0	848297984	78	4611
2026-01-02 00:43:39.56	199.14	64.41	-53.4	-54.9	16.5	0.00e+00	0	33	0	856686592	73	4186
2026-01-02 00:43:43.54	199.60	62.71	-52.4	-53.8	16.8	0.00e+00	0	33	0	864026624	71	4134
2026-01-02 00:43:47.53	200.00	61.05	-52.8	-54.3	16.6	0.00e+00	0	33	0	871366656	70	4627
2026-01-02 00:43:51.52	200.35	59.42	-54.5	-56.2	16.1	0.00e+00	0	33	0	878706688	74	4569
2026-01-02 00:43:55.51	200.67	57.84	-57.8	-61.0	13.6	0.00e+00	0	33	0	886046720	80	5615
2026-01-02 00:43:59.50	200.95	56.29	-54.4	-56.1	16.1	0.00e+00	0	33	0	893386752	75	4277
2026-01-02 00:44:03.50	201.20	54.79	-53.6	-55.3	16.4	0.00e+00	0	33	0	900726784	73	4341
2026-01-02 00:44:07.49	201.43	53.33	-53.0	-54.5	16.6	0.00e+00	0	33	0	909115392	72	4194
2026-01-02 00:44:11.49	201.64	51.91	-55.2	-57.2	15.6	0.00e+00	0	33	0	916455424	75	4867
2026-01-02 00:44:15.48	201.84	50.53	-55.7	-57.9	15.3	0.00e+00	0	33	0	923795456	77	4659
2026-01-02 00:44:19.47	202.01	49.19	-57.1	-59.8	14.2	0.00e+00	0	33	0	931135488	79	5218
2026-01-02 00:44:23.48	202.18	47.88	-56.1	-58.3	15.1	0.00e+00	0	33	0	938475520	78	4631
2026-01-02 00:44:27.48	202.33	46.61	-54.8	-56.7	15.8	0.00e+00	0	33	0	945815552	75	4579
2026-01-02 00:44:31.48	202.47	45.39	-56.0	-58.3	15.1	0.00e+00	0	33	0	953155584	77	4924
2026-01-02 00:44:35.47	202.61	44.20	-53.5	-55.1	16.4	0.00e+00	0	33	0	961544192	73	4257
2026-01-02 00:44:39.47	202.73	43.04	-53.3	-54.9	16.5	0.00e+00	0	33	0	968884224	71	4687
2026-01-02 00:44:43.47	202.85	41.92	-55.9	-58.2	15.1	0.00e+00	0	33	0	976224256	77	4819
2026-01-02 00:44:47.47	202.96	40.83	-54.5	-56.4	15.9	0.00e+00	0	33	0	983564288	75	4394
2026-01-02 00:44:51.47	203.06	39.77	-54.4	-56.2	16.0	0.00e+00	0	33	0	990904320	74	4553
2026-01-02 00:44:55.47	203.16	38.74	-57.7	-61.0	13.4	0.00e+00	0	33	0	998244352	80	5649
2026-01-02 00:44:59.48	203.25	37.74	-57.9	-61.4	13.1	0.00e+00	0	33	0	1006632960	82	5227
2026-01-02 00:45:03.47	203.34	36.78	-56.0	-58.3	15.0	0.00e+00	0	33	0	1013972992	78	4631
2026-01-02 00:45:07.47	203.43	35.84	-56.0	-58.3	15.1	0.00e+00	0	33	0	1021313024	78	4608
2026-01-02 00:45:11.48	203.51	34.92	-57.7	-61.0	13.3	0.00e+00	0	33	0	1028653056	80	5644
2026-01-02 00:45:15.47	203.59	34.04	-59.1	-64.0	11.0	5.23e-04	0	33	0	1035993088	83	6707
2026-01-02 00:45:19.48	203.66	33.17	-57.7	-61.0	13.3	0.00e+00	0	33	0	1043333120	82	5034
2026-01-02 00:45:23.48	203.73	32.33	-56.4	-59.0	14.6	0.00e+00	0	33	0	1050673152	79	4706
2026-01-02 00:45:27.49	203.80	31.51	-56.2	-58.6	14.8	0.00e+00	0	33	0	1059061760	78	4777
2026-01-02 00:45:31.49	203.87	30.72	-57.1	-60.0	14.0	0.00e+00	0	33	0	1066401792	79	5293
2026-01-02 00:45:35.50	203.93	29.94	-57.5	-60.7	13.5	0.00e+00	0	33	0	1073741824	80	5435
2026-01-02 00:45:39.50	203.99	29.19	-56.9	-59.8	14.0	0.00e+00	0	33	0	1081081856	80	4905
2026-01-02 00:45:43.49	204.05	28.46	-56.1	-58.6	14.8	0.00e+00	0	33	0	1088421888	78	4791
2026-01-02 00:45:47.48	204.11	27.75	-55.2	-57.2	15.4	0.00e+00	0	33	0	1095761920	76	4592
2026-01-02 00:45:51.44	204.16	27.06	-54.5	-56.4	15.8	0.00e+00	0	33	0	1103101952	75	4392
2026-01-02 00:45:55.42	204.21	26.38	-54.3	-56.2	15.9	0.00e+00	0	33	0	1111490560	75	4302
2026-01-02 00:45:59.41	204.27	25.72	-54.3	-56.2	15.9	0.00e+00	0	33	0	1118830592	75	4296
2026-01-02 00:46:03.41	204.32	25.07	-54.2	-56.1	15.9	0.00e+00	0	33	0	1126170624	74	4506
2026-01-02 00:46:07.43	204.37	24.44	-54.0	-55.8	16.0	0.00e+00	0	33	0	1133510656	74	4363
2026-01-02 00:46:11.42	204.41	23.82	-53.3	-55.0	16.3	0.00e+00	0	33	0	1140850688	73	4202
2026-01-02 00:46:15.43	204.46	23.22	-53.1	-54.7	16.4	0.00e+00	0	33	0	1148190720	72	4295
2026-01-02 00:46:19.43	204.51	22.63	-52.8	-54.3	16.5	0.00e+00	0	33	0	1155530752	72	4133
2026-01-02 00:46:23.43	204.55	22.06	-52.9	-54.5	16.4	0.00e+00	0	33	0	1163919360	72	4222
2026-01-02 00:46:27.42	204.59	21.50	-53.1	-54.7	16.3	0.00e+00	0	33	0	1171259392	72	4308
2026-01-02 00:46:31.42	204.63	20.95	-53.2	-54.9	16.2	0.00e+00	0	33	0	1178599424	72	4410
2026-01-02 00:46:35.42	204.68	20.41	-53.4	-55.2	16.1	0.00e+00	0	33	0	1185939456	72	4549
2026-01-02 00:46:39.41	204.72	19.88	-53.6	-55.4	16.1	0.00e+00	0	33	0	1193279488	72	4654
2026-01-02 00:46:43.40	204.76	19.37	-53.8	-55.6	16.0	0.00e+00	0	33	0	1200619520	72	4801
2026-01-02 00:46:47.39	204.79	18.86	-53.7	-55.5	16.0	0.00e+00	0	33	0	1207959552	72	4725
2026-01-02 00:46:51.37	204.83	18.37	-53.8	-55.6	16.0	0.00e+00	0	33	0	1216348160	72	4782
2026-01-02 00:46:55.37	204.87	17.88	-53.7	-55.5	16.0	0.00e+00	0	33	0	1223688192	72	4741
2026-01-02 00:46:59.34	204.90	17.41	-53.9	-55.8	15.8	0.00e+00	0	33	0	1231028224	73	4603
2026-01-02 00:47:03.34	204.94	16.94	-54.0	-55.9	15.8	0.00e+00	0	33	0	1238368256	73	4667
2026-01-02 00:47:07.32	204.97	16.49	-54.1	-56.0	15.8	0.00e+00	0	33	0	1245708288	73	4735
2026-01-02 00:47:11.32	205.01	16.04	-54.2	-56.1	15.7	0.00e+00	0	33	0	1253048320	73	4784
2026-01-02 00:47:15.32	205.04	15.59	-54.2	-56.1	15.7	0.00e+00	0	33	0	1260388352	73	4770
2026-01-02 00:47:19.31	205.08	15.16	-54.1	-56.0	15.7	0.00e+00	0	33	0	1268776960	73	4746
2026-01-02 00:47:23.31	205.11	14.73	-54.1	-56.0	15.7	0.00e+00	0	33	0	1276116992	73	4755
2026-01-02 00:47:27.30	205.14	14.32	-54.2	-56.2	15.7	0.00e+00	0	33	0	1283457024	73	4816
2026-01-02 00:47:31.31	205.17	13.90	-54.3	-56.3	15.6	0.00e+00	0	33	0	1290797056	73	4894
2026-01-02 00:47:35.30	205.20	13.50	-54.5	-56.5	15.5	0.00e+00	0	33	0	1298137088	74	4733
2026-01-02 00:47:39.30	205.23	13.10	-54.7	-56.8	15.4	0.00e+00	0	33	0	1305477120	74	4891
2026-01-02 00:47:43.29	205.26	12.71	-54.8	-57.0	15.2	0.00e+00	0	33	0	1312817152	74	5029
2026-01-02 00:47:47.27	205.29	12.33	-55.1	-57.4	15.0	0.00e+00	0	33	0	1321205760	75	4929
2026-01-02 00:47:51.27	205.32	11.94	-55.1	-57.5	15.0	0.00e+00	0	33	0	1328545792	75	4989
2026-01-02 00:47:55.24	205.35	11.57	-55.3	-57.7	14.8	0.00e+00	0	33	0	1335885824	75	5141
2026-01-02 00:47:59.23	205.38	11.21	-55.3	-57.7	14.9	0.00e+00	0	33	0	1343225856	75	5115
2026-01-02 00:48:03.22	205.41	10.84	-55.3	-57.7	14.8	0.00e+00	0	33	0	1350565888	75	5111
2026-01-02 00:48:07.21	205.44	10.49	-55.1	-57.5	14.9	0.00e+00	0	33	0	1357905920	75	5024
2026-01-02 00:48:11.22	205.46	10.13	-55.3	-57.7	14.8	0.00e+00	0	33	0	1365245952	75	5120
2026-01-02 00:48:15.21	205.49	9.79	-55.1	-57.4	14.9	0.00e+00	0	33	0	1373634560	75	4981
2026-01-02 00:48:19.21	205.52	9.44	-54.9	-57.3	15.0	0.00e+00	0	33	0	1380974592	75	4883
2026-01-02 00:48:23.19	205.55	9.11	-54.8	-57.1	15.0	0.00e+00	0	33	0	1388314624	75	4800
2026-01-02 00:48:27.20	205.57	8.77	-55.0	-57.3	15.0	0.00e+00	0	33	0	1395654656	75	4900
2026-01-02 00:48:31.20	205.60	8.44	-54.9	-57.3	14.9	0.00e+00	0	33	0	1402994688	75	4878
2026-01-02 00:48:35.20	205.62	8.12	-54.9	-57.2	15.0	0.00e+00	0	33	0	1410334720	75	4839
2026-01-02 00:48:39.18	205.65	7.80	-54.9	-57.3	14.9	0.00e+00	0	33	0	1417674752	75	4911
2026-01-02 00:48:43.18	205.67	7.48	-54.9	-57.2	14.9	0.00e+00	0	33	0	1426063360	75	4859
2026-01-02 00:48:47.19	205.70	7.17	-54.8	-57.2	14.9	0.00e+00	0	33	0	1433403392	75	4833
2026-01-02 00:48:51.18	205.72	6.86	-54.9	-57.3	14.8	0.00e+00	0	33	0	1440743424	75	4886
2026-01-02 00:48:55.19	205.75	6.55	-54.8	-57.2	14.8	0.00e+00	0	33	0	1448083456	75	4870
2026-01-02 00:48:59.19	205.77	6.25	-54.9	-57.3	14.8	0.00e+00	0	33	0	1455423488	75	4905
2026-01-02 00:49:03.18	205.80	5.95	-55.0	-57.5	14.6	0.00e+00	0	33	0	1462763520	75	5020
2026-01-02 00:49:07.17	205.82	5.66	-55.0	-57.6	14.6	0.00e+00	0	33	0	1470103552	75	5057
2026-01-02 00:49:11.16	205.84	5.37	-55.1	-57.7	14.4	0.00e+00	0	33	0	1478492160	75	5126
2026-01-02 00:49:15.16	205.87	5.08	-55.1	-57.7	14.4	0.00e+00	0	33	0	1485832192	75	5115
2026-01-02 00:49:19.16	205.89	4.79	-60.9	-76.9	3.8	1.49e+00	0	33	104	1487929344	86	24798
2026-01-02 00:49:23.16	205.91	4.51	-61.4	-77.4	3.8	1.49e+00	0	33	104	1487929344	87	24904
2026-01-02 00:49:27.15	205.94	4.23	-61.6	-77.7	3.8	1.49e+00	0	33	104	1487929344	88	24203
2026-01-02 00:49:31.13	205.96	3.96	-61.8	-77.8	3.8	1.49e+00	0	33	104	1487929344	88	24646
2026-01-02 00:49:35.15	205.98	3.68	-61.9	-78.0	3.8	1.49e+00	0	33	104	1487929344	89	23663
2026-01-02 00:49:39.15	206.00	3.41	-62.1	-78.1	3.8	1.49e+00	0	33	104	1487929344	89	24055
2026-01-02 00:49:43.15	206.03	3.14	-62.0	-78.0	3.8	1.49e+00	0	33	104	1487929344	89	23829
2026-01-02 00:49:47.14	206.05	2.88	-61.9	-78.0	3.8	1.49e+00	0	33	104	1487929344	89	23624
2026-01-02 00:49:51.12	206.07	2.61	-61.9	-77.9	3.8	1.49e+00	0	33	104	1487929344	89	23534
2026-01-02 00:49:55.11	206.09	2.35	-61.8	-77.9	3.8	1.49e+00	0	33	104	1487929344	89	23458
2026-01-02 00:49:59.10	206.11	2.09	-61.8	-77.9	3.8	1.49e+00	0	33	104	1487929344	89	23433

#Closed at: 2026-01-02 00:50:01
#Recorded file [1487 MB]: D:/lorett/data/31004_260102_033531.dat