passes_logs/2026/01/02/R3.2S_Murmansk/R3.2S_Murmansk__20260102_052711_AQUA_rec.log

#Pass ID: 20260102_052711_AQUA
#Satellite: AQUA
#Configuration: AQUA
#almurnet v.1.7.20251203
#Start time: 2026-01-02 05:27:12

#Version: 2.2.20231116
#Station: R3.2S_Murmansk
#Location: 33.079688 lon 68.888172 lat
#TLE: 1 27424U 02022A   25365.92641127  .00002078  00000+0  42628-3 0  9999
#TLE: 2 27424  98.4058 327.1196 0001962  94.7781 340.6230 14.61783896258835

#Time	Az	El	Level	Level2	SNR	BER	BlckErr	Temp	State	Recorded	gain1	gain2
2026-01-02 05:27:12.34	41.07	2.05	-54.6	-74.0	3.8	7.47e-01	0	32	0	0	77	34618
2026-01-02 05:27:15.35	40.85	2.22	-54.6	-74.0	3.8	7.44e-01	0	32	104	0	77	34583
2026-01-02 05:27:18.35	40.63	2.40	-54.6	-74.0	3.8	7.44e-01	0	32	104	0	77	34607
2026-01-02 05:27:21.35	40.40	2.58	-54.6	-74.0	3.8	7.47e-01	0	32	104	0	77	34691
2026-01-02 05:27:24.35	40.18	2.76	-54.6	-74.0	3.8	7.43e-01	0	32	104	0	77	34686
2026-01-02 05:27:27.34	39.95	2.93	-54.6	-74.0	3.8	7.42e-01	0	32	104	0	77	34657
2026-01-02 05:27:30.33	39.71	3.11	-54.6	-74.0	3.8	7.47e-01	0	32	104	0	77	34607
2026-01-02 05:27:33.31	39.48	3.29	-54.6	-74.0	3.8	7.46e-01	0	32	104	0	77	34671
2026-01-02 05:27:36.29	39.24	3.47	-54.6	-74.0	3.8	7.45e-01	0	32	104	0	77	34603
2026-01-02 05:27:39.29	38.99	3.66	-54.6	-74.0	3.8	7.45e-01	0	32	104	0	77	34570
2026-01-02 05:27:42.29	38.75	3.84	-54.6	-74.0	3.8	7.49e-01	0	32	104	0	77	34614
2026-01-02 05:27:45.29	38.49	4.02	-54.6	-74.0	3.8	7.46e-01	0	32	104	0	77	34589
2026-01-02 05:27:48.29	38.24	4.21	-54.6	-74.0	3.8	7.43e-01	0	32	104	0	77	34553
2026-01-02 05:27:51.31	37.98	4.40	-54.6	-74.0	3.8	7.46e-01	0	32	104	0	77	34582
2026-01-02 05:27:54.30	37.72	4.58	-54.6	-74.0	3.8	7.45e-01	0	32	104	0	77	34540
2026-01-02 05:27:57.29	37.45	4.77	-54.6	-74.0	3.8	7.47e-01	0	32	104	0	77	34615
2026-01-02 05:28:00.29	37.18	4.96	-54.6	-74.0	3.8	7.46e-01	0	32	104	0	77	34631
2026-01-02 05:28:03.29	36.91	5.15	-54.6	-74.0	3.8	7.46e-01	0	32	104	0	77	34585
2026-01-02 05:28:06.27	36.63	5.34	-54.6	-74.0	3.8	7.46e-01	0	32	104	0	77	34610
2026-01-02 05:28:09.27	36.35	5.53	-54.6	-74.0	3.8	7.45e-01	0	33	104	0	77	34620
2026-01-02 05:28:12.28	36.06	5.72	-54.6	-74.0	3.8	7.49e-01	0	32	104	0	77	34643
2026-01-02 05:28:15.28	35.77	5.92	-54.6	-74.0	3.8	7.47e-01	0	32	104	0	77	34552
2026-01-02 05:28:18.28	35.48	6.11	-54.6	-74.0	3.8	7.45e-01	0	32	104	0	77	34647
2026-01-02 05:28:21.28	35.18	6.31	-54.7	-74.0	3.8	7.48e-01	0	32	104	0	77	34633
2026-01-02 05:28:24.28	34.87	6.50	-54.6	-74.0	3.8	7.46e-01	0	32	104	0	77	34617
2026-01-02 05:28:27.28	34.57	6.70	-54.6	-74.0	3.8	7.45e-01	0	33	104	0	77	34634
2026-01-02 05:28:30.26	34.25	6.90	-54.6	-74.0	3.8	7.46e-01	0	32	104	0	77	34666
2026-01-02 05:28:33.25	33.94	7.09	-54.6	-74.0	3.8	7.47e-01	0	32	104	0	77	34662
2026-01-02 05:28:36.23	33.62	7.29	-54.6	-74.0	3.8	7.46e-01	0	33	104	0	77	34676
2026-01-02 05:28:39.23	33.29	7.49	-54.7	-74.0	3.8	7.46e-01	0	32	104	0	77	34631
2026-01-02 05:28:42.22	32.95	7.69	-54.6	-74.0	3.8	7.43e-01	0	32	104	0	77	34644
2026-01-02 05:28:45.22	32.62	7.90	-54.6	-74.0	3.8	7.49e-01	0	33	104	0	77	34629
2026-01-02 05:28:48.23	32.27	8.10	-54.6	-74.0	3.8	7.45e-01	0	33	104	0	77	34589
2026-01-02 05:28:51.23	31.92	8.31	-54.6	-74.0	3.8	7.46e-01	0	32	104	0	77	34681
2026-01-02 05:28:54.23	31.57	8.51	-54.6	-74.0	3.8	7.46e-01	0	33	104	0	77	34589
2026-01-02 05:28:57.25	31.20	8.72	-54.6	-74.0	3.8	7.47e-01	0	33	104	0	77	34599
2026-01-02 05:29:00.23	30.84	8.92	-54.6	-74.0	3.8	7.47e-01	0	33	104	0	77	34656
2026-01-02 05:29:03.23	30.47	9.13	-54.6	-74.0	3.8	7.47e-01	0	32	104	0	77	34629
2026-01-02 05:29:06.22	30.09	9.34	-54.6	-74.0	3.8	7.46e-01	0	33	104	0	77	34650
2026-01-02 05:29:09.22	29.71	9.55	-54.6	-74.0	3.8	7.45e-01	0	32	104	0	77	34582
2026-01-02 05:29:12.22	29.32	9.76	-54.6	-74.0	3.8	7.42e-01	0	33	104	0	77	34642
2026-01-02 05:29:15.22	28.92	9.97	-54.6	-74.0	3.8	7.44e-01	0	33	104	0	77	34684
2026-01-02 05:29:18.21	28.52	10.18	-54.6	-74.0	3.8	7.43e-01	0	33	104	0	77	34634
2026-01-02 05:29:21.20	28.11	10.39	-54.6	-74.0	3.8	7.45e-01	0	32	104	0	77	34556
2026-01-02 05:29:24.20	27.69	10.61	-54.6	-74.0	3.8	7.48e-01	0	33	104	0	77	34653
2026-01-02 05:29:27.20	27.27	10.82	-54.6	-74.0	3.8	7.43e-01	0	32	104	0	77	34583
2026-01-02 05:29:30.19	26.84	11.03	-54.6	-74.0	3.8	7.49e-01	0	33	104	0	77	34498
2026-01-02 05:29:33.18	26.41	11.25	-54.6	-74.0	3.8	7.45e-01	0	33	104	0	77	34536
2026-01-02 05:29:36.17	25.96	11.46	-54.6	-74.0	3.8	7.46e-01	0	33	104	0	77	34597
2026-01-02 05:29:39.17	25.51	11.68	-54.6	-74.0	3.8	7.45e-01	0	33	104	0	77	34627
2026-01-02 05:29:42.17	25.05	11.89	-54.6	-74.0	3.8	7.46e-01	0	32	104	0	77	34635
2026-01-02 05:29:45.16	24.59	12.11	-54.6	-74.0	3.8	7.48e-01	0	33	104	0	77	34583
2026-01-02 05:29:48.17	24.12	12.33	-54.5	-74.0	3.8	7.44e-01	0	33	104	0	77	34562
2026-01-02 05:29:51.17	23.63	12.54	-54.6	-74.0	3.8	7.46e-01	0	33	104	0	77	34592
2026-01-02 05:29:54.16	23.15	12.76	-54.6	-74.0	3.8	7.50e-01	0	33	104	0	77	34584
2026-01-02 05:29:57.15	22.65	12.98	-54.7	-74.0	3.8	7.49e-01	0	33	104	0	77	34640
2026-01-02 05:30:00.15	22.15	13.20	-54.6	-74.0	3.8	7.46e-01	0	33	104	0	77	34597
2026-01-02 05:30:03.14	21.64	13.41	-54.6	-74.0	3.8	7.46e-01	0	33	104	0	77	34621
2026-01-02 05:30:06.15	21.11	13.63	-54.6	-74.0	3.8	7.45e-01	0	33	104	0	77	34680
2026-01-02 05:30:09.13	20.59	13.85	-54.6	-74.0	3.8	7.46e-01	0	32	104	0	77	34622
2026-01-02 05:30:12.12	20.05	14.06	-54.6	-74.0	3.8	7.48e-01	0	32	104	0	77	34637
2026-01-02 05:30:15.12	19.50	14.28	-54.6	-74.0	3.8	7.43e-01	0	32	104	0	77	34612
2026-01-02 05:30:18.13	18.95	14.50	-54.6	-74.0	3.8	7.48e-01	0	32	104	0	77	34604
2026-01-02 05:30:21.13	18.38	14.71	-54.6	-74.0	3.8	7.44e-01	0	33	104	0	77	34619
2026-01-02 05:30:24.12	17.81	14.93	-54.6	-74.0	3.8	7.49e-01	0	32	104	0	77	34651
2026-01-02 05:30:27.12	17.23	15.14	-54.6	-74.0	3.8	7.43e-01	0	32	104	0	77	34593
2026-01-02 05:30:30.11	16.64	15.36	-54.6	-74.0	3.9	7.46e-01	0	32	104	0	77	34560
2026-01-02 05:30:33.09	16.04	15.57	-54.6	-74.0	3.8	7.46e-01	0	32	104	0	77	34641
2026-01-02 05:30:36.07	15.43	15.78	-54.6	-74.0	3.8	7.44e-01	0	32	104	0	77	34721
2026-01-02 05:30:39.06	14.82	15.99	-54.6	-74.0	3.8	7.45e-01	0	33	104	0	77	34635
2026-01-02 05:30:42.05	14.19	16.20	-54.6	-74.0	3.8	7.47e-01	0	32	104	0	77	34685
2026-01-02 05:30:45.05	13.55	16.41	-54.7	-74.0	3.8	7.43e-01	0	33	104	0	77	34723
2026-01-02 05:30:48.07	12.90	16.61	-54.6	-74.0	3.8	7.45e-01	0	33	104	0	77	34719
2026-01-02 05:30:51.06	12.24	16.82	-54.6	-74.0	3.8	7.46e-01	0	33	104	0	77	34580
2026-01-02 05:30:54.06	11.58	17.02	-54.7	-74.0	3.8	7.47e-01	0	33	104	0	77	34641
2026-01-02 05:30:57.06	10.90	17.22	-54.6	-74.0	3.8	7.48e-01	0	33	104	0	77	34638
2026-01-02 05:31:00.06	10.21	17.42	-54.6	-74.0	3.8	7.49e-01	0	32	104	0	77	34544
2026-01-02 05:31:03.07	9.51	17.62	-54.6	-74.0	3.8	7.48e-01	0	33	104	0	77	34618
2026-01-02 05:31:06.07	8.81	17.81	-54.7	-74.0	3.8	7.47e-01	0	33	104	0	77	34662
2026-01-02 05:31:09.06	8.10	18.00	-54.6	-74.0	3.8	7.48e-01	0	32	104	0	77	34660
2026-01-02 05:31:12.07	7.37	18.19	-54.7	-74.0	3.8	7.50e-01	0	33	104	0	77	34621
2026-01-02 05:31:15.06	6.63	18.38	-54.6	-74.0	3.8	7.46e-01	0	33	104	0	77	34628
2026-01-02 05:31:18.07	5.89	18.56	-54.6	-74.0	3.8	7.43e-01	0	33	104	0	77	34630
2026-01-02 05:31:21.07	5.13	18.74	-54.6	-74.0	3.8	7.47e-01	0	33	104	0	77	34571
2026-01-02 05:31:24.06	4.37	18.91	-54.6	-74.0	3.8	7.43e-01	0	33	104	0	77	34763
2026-01-02 05:31:27.06	3.60	19.08	-54.6	-74.0	3.8	7.45e-01	0	32	104	0	77	34651
2026-01-02 05:31:30.05	2.82	19.25	-54.6	-74.0	3.8	7.46e-01	0	33	104	0	77	34666
2026-01-02 05:31:33.05	2.03	19.41	-54.6	-74.0	3.8	7.44e-01	0	33	104	0	77	34648
2026-01-02 05:31:36.04	1.23	19.57	-54.6	-74.0	3.8	7.44e-01	0	33	104	0	77	34590
2026-01-02 05:31:39.02	0.43	19.73	-54.6	-74.0	3.8	7.48e-01	0	33	104	0	77	34653
2026-01-02 05:31:42.02	359.61	19.87	-54.6	-74.0	3.8	7.49e-01	0	32	104	0	77	34697
2026-01-02 05:31:45.00	358.79	20.02	-54.6	-74.0	3.8	7.47e-01	0	32	104	0	77	34663
2026-01-02 05:31:48.00	357.96	20.16	-54.6	-74.0	3.8	7.47e-01	0	32	104	0	77	34615
2026-01-02 05:31:51.00	357.11	20.29	-54.6	-74.0	3.8	7.44e-01	0	33	104	0	77	34667
2026-01-02 05:31:54.01	356.26	20.42	-54.6	-74.0	3.8	7.47e-01	0	32	104	0	77	34637
2026-01-02 05:31:57.01	355.41	20.54	-54.6	-74.0	3.8	7.43e-01	0	33	104	0	77	34658
2026-01-02 05:32:00.02	354.54	20.66	-54.6	-74.0	3.8	7.44e-01	0	33	104	0	77	34658
2026-01-02 05:32:03.01	353.67	20.77	-54.6	-74.0	3.8	7.45e-01	0	33	104	0	77	34674
2026-01-02 05:32:06.00	352.80	20.87	-54.6	-74.0	3.8	7.45e-01	0	32	104	0	77	34622
2026-01-02 05:32:08.99	351.92	20.97	-54.6	-74.0	3.8	7.45e-01	0	33	104	0	77	34549
2026-01-02 05:32:11.98	351.03	21.06	-54.7	-74.0	3.8	7.47e-01	0	33	104	0	77	34645
2026-01-02 05:32:14.97	350.14	21.15	-54.7	-74.0	3.8	7.43e-01	0	33	104	0	77	34684
2026-01-02 05:32:17.97	349.24	21.22	-54.7	-74.0	3.8	7.45e-01	0	33	104	0	77	34732
2026-01-02 05:32:20.97	348.33	21.30	-54.6	-74.0	3.8	7.47e-01	0	33	104	0	77	34579
2026-01-02 05:32:23.97	347.42	21.36	-54.7	-74.0	3.8	7.48e-01	0	32	104	0	77	34673
2026-01-02 05:32:26.96	346.52	21.42	-54.7	-74.0	3.8	7.46e-01	0	33	104	0	77	34711
2026-01-02 05:32:29.96	345.60	21.46	-54.6	-74.0	3.8	7.44e-01	0	33	104	0	77	34604
2026-01-02 05:32:32.95	344.68	21.51	-54.6	-74.0	3.8	7.44e-01	0	33	104	0	77	34694
2026-01-02 05:32:35.94	343.77	21.54	-54.6	-74.0	3.8	7.45e-01	0	33	104	0	77	34580
2026-01-02 05:32:38.94	342.84	21.57	-54.6	-74.0	3.8	7.46e-01	0	32	104	0	77	34638
2026-01-02 05:32:41.92	341.93	21.59	-54.6	-74.0	3.8	7.48e-01	0	33	104	0	77	34619
2026-01-02 05:32:44.92	341.00	21.60	-54.6	-74.0	3.8	7.45e-01	0	33	104	0	77	34686
2026-01-02 05:32:47.91	340.08	21.60	-54.6	-74.0	3.8	7.43e-01	0	33	104	0	77	34704
2026-01-02 05:32:50.90	339.16	21.60	-54.6	-74.0	3.8	7.44e-01	0	33	104	0	77	34649
2026-01-02 05:32:53.91	338.23	21.59	-54.6	-74.0	3.8	7.48e-01	0	32	104	0	77	34672
2026-01-02 05:32:56.92	337.30	21.57	-54.6	-74.0	3.8	7.46e-01	0	33	104	0	77	34672
2026-01-02 05:32:59.92	336.38	21.54	-54.6	-74.0	3.8	7.49e-01	0	32	104	0	77	34625
2026-01-02 05:33:02.91	335.46	21.51	-54.6	-74.0	3.8	7.46e-01	0	33	104	0	77	34639
2026-01-02 05:33:05.90	334.54	21.47	-54.6	-74.0	3.8	7.44e-01	0	32	104	0	77	34604
2026-01-02 05:33:08.91	333.62	21.42	-54.6	-74.0	3.8	7.44e-01	0	32	104	0	77	34570
2026-01-02 05:33:11.90	332.71	21.36	-54.6	-74.0	3.8	7.46e-01	0	33	104	0	77	34739
2026-01-02 05:33:14.91	331.80	21.30	-54.7	-74.0	3.8	7.46e-01	0	33	104	0	77	34687
2026-01-02 05:33:17.90	330.90	21.23	-54.7	-74.0	3.8	7.44e-01	0	33	104	0	77	34752
2026-01-02 05:33:20.90	330.00	21.15	-54.6	-74.0	3.8	7.48e-01	0	32	104	0	77	34650
2026-01-02 05:33:23.91	329.10	21.07	-54.6	-74.0	3.8	7.49e-01	0	33	104	0	77	34638
2026-01-02 05:33:26.91	328.21	20.98	-54.6	-74.0	3.8	7.48e-01	0	33	104	0	77	34728
2026-01-02 05:33:29.91	327.33	20.88	-54.6	-74.0	3.9	7.45e-01	0	33	104	0	77	34610
2026-01-02 05:33:32.90	326.45	20.77	-54.6	-74.0	3.8	7.44e-01	0	33	104	0	77	34620
2026-01-02 05:33:35.89	325.58	20.66	-54.6	-74.0	3.8	7.48e-01	0	33	104	0	77	34586
2026-01-02 05:33:38.87	324.72	20.55	-54.6	-74.0	3.8	7.49e-01	0	33	104	0	77	34661
2026-01-02 05:33:41.87	323.86	20.43	-54.6	-74.0	3.8	7.43e-01	0	33	104	0	77	34658
2026-01-02 05:33:44.86	323.02	20.30	-54.6	-74.0	3.8	7.46e-01	0	33	104	0	77	34651
2026-01-02 05:33:47.86	322.17	20.16	-54.5	-74.0	3.8	7.45e-01	0	32	104	0	77	34665
2026-01-02 05:33:50.87	321.34	20.02	-54.6	-74.0	3.8	7.46e-01	0	33	104	0	77	34562
2026-01-02 05:33:53.86	320.51	19.88	-54.6	-74.0	3.8	7.49e-01	0	32	104	0	77	34642
2026-01-02 05:33:56.86	319.69	19.73	-54.6	-74.0	3.8	7.46e-01	0	33	104	0	77	34617
2026-01-02 05:33:59.86	318.88	19.58	-54.6	-74.0	3.8	7.45e-01	0	33	104	0	77	34573
2026-01-02 05:34:02.88	318.08	19.42	-54.6	-74.0	3.8	7.44e-01	0	33	104	0	77	34618
2026-01-02 05:34:05.88	317.28	19.25	-54.6	-74.0	3.8	7.45e-01	0	33	104	0	77	34604
2026-01-02 05:34:08.88	316.50	19.09	-54.6	-74.0	3.8	7.46e-01	0	32	104	0	77	34675
2026-01-02 05:34:11.88	315.73	18.92	-54.6	-74.0	3.8	7.46e-01	0	33	104	0	77	34582
2026-01-02 05:34:14.89	314.96	18.74	-54.6	-74.0	3.8	7.47e-01	0	33	104	0	77	34582
2026-01-02 05:34:17.88	314.21	18.56	-54.6	-74.0	3.8	7.46e-01	0	33	104	0	77	34633
2026-01-02 05:34:20.87	313.46	18.38	-54.6	-74.0	3.8	7.41e-01	0	33	104	0	77	34654
2026-01-02 05:34:23.87	312.73	18.19	-54.6	-74.0	3.8	7.50e-01	0	33	104	0	77	34589
2026-01-02 05:34:26.87	312.00	18.01	-54.6	-74.0	3.8	7.45e-01	0	33	104	0	77	34534
2026-01-02 05:34:29.87	311.28	17.81	-54.6	-74.0	3.8	7.46e-01	0	33	104	0	77	34577
2026-01-02 05:34:32.87	310.58	17.62	-54.6	-74.0	3.8	7.48e-01	0	33	104	0	77	34594
2026-01-02 05:34:35.86	309.88	17.42	-54.6	-74.0	3.8	7.47e-01	0	33	104	0	77	34614
2026-01-02 05:34:38.84	309.20	17.23	-54.6	-74.0	3.8	7.49e-01	0	33	104	0	77	34582
2026-01-02 05:34:41.83	308.52	17.03	-54.6	-74.0	3.8	7.45e-01	0	33	104	0	77	34555
2026-01-02 05:34:44.82	307.85	16.82	-54.6	-74.0	3.8	7.45e-01	0	33	104	0	77	34514
2026-01-02 05:34:47.81	307.20	16.62	-54.6	-74.0	3.8	7.46e-01	0	33	104	0	77	34671
2026-01-02 05:34:50.80	306.55	16.41	-54.6	-74.0	3.8	7.45e-01	0	32	104	0	77	34606
2026-01-02 05:34:53.79	305.91	16.21	-54.6	-74.0	3.8	7.47e-01	0	33	104	0	77	34661
2026-01-02 05:34:56.80	305.28	15.99	-54.6	-74.0	3.8	7.45e-01	0	33	104	0	77	34601
2026-01-02 05:34:59.80	304.66	15.78	-54.6	-74.0	3.8	7.46e-01	0	32	104	0	77	34602
2026-01-02 05:35:02.81	304.05	15.57	-54.6	-74.0	3.8	7.44e-01	0	33	104	0	77	34622
2026-01-02 05:35:05.82	303.44	15.36	-54.5	-74.0	3.8	7.44e-01	0	33	104	0	77	34583
2026-01-02 05:35:08.81	302.85	15.14	-54.6	-74.0	3.8	7.42e-01	0	33	104	0	77	34561
2026-01-02 05:35:11.81	302.27	14.93	-54.6	-74.0	3.8	7.44e-01	0	33	104	0	77	34560
2026-01-02 05:35:14.80	301.69	14.71	-54.6	-74.0	3.8	7.44e-01	0	33	104	0	77	34560
2026-01-02 05:35:17.79	301.13	14.50	-54.6	-74.0	3.8	7.45e-01	0	33	104	0	77	34623
2026-01-02 05:35:20.79	300.57	14.28	-54.6	-74.0	3.8	7.41e-01	0	33	104	0	77	34603
2026-01-02 05:35:23.79	300.02	14.06	-54.6	-74.0	3.8	7.45e-01	0	32	104	0	77	34602
2026-01-02 05:35:26.78	299.49	13.85	-54.6	-74.0	3.8	7.45e-01	0	33	104	0	77	34685
2026-01-02 05:35:29.78	298.95	13.63	-54.6	-74.0	3.8	7.44e-01	0	33	104	0	77	34609
2026-01-02 05:35:32.79	298.43	13.41	-54.6	-74.0	3.8	7.47e-01	0	33	104	0	77	34687
2026-01-02 05:35:35.79	297.92	13.19	-54.6	-74.0	3.8	7.47e-01	0	33	104	0	77	34529
2026-01-02 05:35:38.79	297.41	12.97	-54.6	-74.0	3.8	7.44e-01	0	33	104	0	77	34642
2026-01-02 05:35:41.78	296.91	12.76	-54.6	-74.0	3.8	7.47e-01	0	33	104	0	77	34510
2026-01-02 05:35:44.77	296.42	12.54	-54.6	-74.0	3.8	7.45e-01	0	33	104	0	77	34586
2026-01-02 05:35:47.77	295.94	12.32	-54.6	-74.0	3.8	7.45e-01	0	33	104	0	77	34580
2026-01-02 05:35:50.76	295.47	12.10	-54.6	-74.0	3.8	7.43e-01	0	33	104	0	77	34658
2026-01-02 05:35:53.78	295.00	11.89	-54.6	-74.0	3.8	7.45e-01	0	32	104	0	77	34620
2026-01-02 05:35:56.78	294.54	11.67	-54.6	-74.0	3.8	7.46e-01	0	32	104	0	77	34606
2026-01-02 05:35:59.79	294.09	11.45	-54.7	-74.0	3.8	7.46e-01	0	33	104	0	77	34631
2026-01-02 05:36:02.79	293.64	11.24	-54.6	-74.0	3.8	7.46e-01	0	33	104	0	77	34695
2026-01-02 05:36:05.79	293.20	11.02	-54.6	-74.0	3.8	7.45e-01	0	33	104	0	77	34600
2026-01-02 05:36:08.78	292.77	10.81	-54.7	-74.0	3.8	7.47e-01	0	33	104	0	77	34644
2026-01-02 05:36:11.78	292.35	10.59	-54.6	-74.0	3.8	7.46e-01	0	33	104	0	77	34630
2026-01-02 05:36:14.77	291.93	10.38	-54.6	-74.0	3.8	7.46e-01	0	33	104	0	77	34554
2026-01-02 05:36:17.77	291.52	10.17	-54.6	-74.0	3.8	7.47e-01	0	33	104	0	77	34625
2026-01-02 05:36:20.77	291.12	9.96	-54.6	-74.0	3.8	7.47e-01	0	33	104	0	77	34625
2026-01-02 05:36:23.76	290.72	9.75	-54.6	-74.0	3.8	7.43e-01	0	32	104	0	77	34591
2026-01-02 05:36:26.76	290.33	9.54	-54.6	-74.0	3.8	7.47e-01	0	33	104	0	77	34633
2026-01-02 05:36:29.76	289.95	9.33	-54.6	-74.0	3.8	7.46e-01	0	32	104	0	77	34599
2026-01-02 05:36:32.76	289.57	9.12	-54.6	-74.0	3.8	7.41e-01	0	33	104	0	77	34502
2026-01-02 05:36:35.75	289.19	8.91	-54.6	-74.0	3.8	7.46e-01	0	32	104	0	77	34666
2026-01-02 05:36:38.74	288.83	8.70	-54.6	-74.0	3.8	7.46e-01	0	33	104	0	77	34589
2026-01-02 05:36:41.73	288.47	8.50	-54.6	-74.0	3.8	7.46e-01	0	33	104	0	77	34693
2026-01-02 05:36:44.72	288.11	8.29	-54.6	-74.0	3.8	7.47e-01	0	33	104	0	77	34563
2026-01-02 05:36:47.71	287.76	8.09	-54.6	-74.0	3.8	7.44e-01	0	33	104	0	77	34575
2026-01-02 05:36:50.71	287.42	7.89	-54.6	-74.0	3.8	7.44e-01	0	32	104	0	77	34605
2026-01-02 05:36:53.70	287.08	7.68	-54.6	-74.0	3.8	7.46e-01	0	32	104	0	77	34632
2026-01-02 05:36:56.70	286.75	7.48	-54.6	-74.0	3.8	7.47e-01	0	32	104	0	77	34635
2026-01-02 05:36:59.72	286.41	7.28	-54.6	-74.0	3.8	7.46e-01	0	33	104	0	77	34594
2026-01-02 05:37:02.71	286.09	7.08	-54.6	-74.0	3.8	7.46e-01	0	32	104	0	77	34599
2026-01-02 05:37:05.72	285.77	6.88	-54.6	-74.0	3.8	7.42e-01	0	33	104	0	77	34587
2026-01-02 05:37:08.71	285.46	6.68	-54.6	-74.0	3.8	7.47e-01	0	33	104	0	77	34509
2026-01-02 05:37:11.72	285.15	6.48	-54.7	-74.0	3.8	7.43e-01	0	32	104	0	77	34544
2026-01-02 05:37:14.72	284.84	6.29	-54.6	-74.0	3.8	7.48e-01	0	33	104	0	77	34648
2026-01-02 05:37:17.72	284.54	6.09	-54.6	-74.0	3.8	7.48e-01	0	33	104	0	77	34633
2026-01-02 05:37:20.72	284.24	5.90	-54.6	-74.0	3.8	7.44e-01	0	32	104	0	77	34633
2026-01-02 05:37:23.73	283.95	5.70	-54.6	-74.0	3.8	7.44e-01	0	33	104	0	77	34601
2026-01-02 05:37:26.72	283.66	5.51	-54.6	-74.0	3.8	7.46e-01	0	33	104	0	77	34642
2026-01-02 05:37:29.72	283.38	5.32	-54.6	-74.0	3.8	7.45e-01	0	32	104	0	77	34507
2026-01-02 05:37:32.72	283.10	5.13	-54.6	-74.0	3.8	7.46e-01	0	33	104	0	77	34562
2026-01-02 05:37:35.72	282.83	4.94	-54.6	-74.0	3.8	7.46e-01	0	33	104	0	77	34657
2026-01-02 05:37:38.71	282.56	4.75	-54.6	-74.0	3.8	7.47e-01	0	33	104	0	77	34574
2026-01-02 05:37:41.72	282.29	4.56	-54.6	-74.0	3.8	7.45e-01	0	33	104	0	77	34578
2026-01-02 05:37:44.70	282.03	4.37	-54.6	-74.0	3.8	7.45e-01	0	32	104	0	77	34616
2026-01-02 05:37:47.70	281.77	4.19	-54.6	-74.0	3.8	7.48e-01	0	33	104	0	77	34660
2026-01-02 05:37:50.69	281.51	4.00	-54.6	-74.0	3.8	7.48e-01	0	33	104	0	77	34568
2026-01-02 05:37:53.68	281.26	3.82	-54.6	-74.0	3.8	7.48e-01	0	33	104	0	77	34634
2026-01-02 05:37:56.67	281.01	3.64	-54.6	-74.0	3.9	7.43e-01	0	33	104	0	77	34547
2026-01-02 05:37:59.65	280.77	3.45	-54.6	-74.0	3.8	7.45e-01	0	33	104	0	77	34536
2026-01-02 05:38:02.65	280.53	3.27	-54.6	-74.0	3.8	7.49e-01	0	32	104	0	77	34610
2026-01-02 05:38:05.64	280.29	3.09	-54.6	-74.0	3.8	7.46e-01	0	33	104	0	77	34601
2026-01-02 05:38:08.65	280.06	2.91	-54.6	-74.0	3.8	7.47e-01	0	33	104	0	77	34642
2026-01-02 05:38:11.66	279.82	2.73	-54.6	-74.0	3.8	7.49e-01	0	32	104	0	77	34618
2026-01-02 05:38:14.65	279.60	2.55	-54.6	-74.0	3.8	7.45e-01	0	33	104	0	77	34586
2026-01-02 05:38:17.65	279.37	2.38	-54.6	-74.0	3.8	7.45e-01	0	33	104	0	77	34574
2026-01-02 05:38:20.65	279.15	2.20	-54.6	-74.0	3.8	7.46e-01	0	33	104	0	77	34561
2026-01-02 05:38:23.63	278.93	2.02	-54.6	-74.0	3.8	7.45e-01	0	33	104	0	77	34589

#Closed at: 2026-01-02 05:38:26
#Recorded file [0 MB]: D:/lorett/data/31004_260102_082712.dat