passes_logs/2026/01/28/R3.2S-Naryan-Mar/R3.2S-Naryan-Mar__20260128_113728_TY-42_rec.log

#Pass ID: 20260128_113728_TY-42
#Satellite: TY-42
#Configuration: TY-42
#almurnet v.1.7.20240730
#Start time: 2026-01-28 11:37:33

#Version: 2.2.20231116
#Station: R3.2S-Naryan-Mar
#Location: 53.008057 lon 67.646978 lat
#TLE: 1 64048U 25103A   26027.88263889  .00008008  00000-0  38191-3 0 09993
#TLE: 2 64048 097.4119 103.0583 0001740 093.1169 297.5293 15.19162476 38770

#Time	Az	El	Level	Level2	SNR	BER	BlckErr	Temp	State	Recorded	gain1	gain2
2026-01-28 11:37:33.98	33.78	0.27	-58.8	-73.8	3.5	8.45e-01	0	44	0	0	60	191758
2026-01-28 11:37:35.99	33.57	0.37	-57.1	-60.7	3.6	0.00e+00	0	46	104	0	60	127554
2026-01-28 11:37:38.00	33.35	0.47	-57.3	-61.3	3.6	0.00e+00	0	46	104	0	60	137333
2026-01-28 11:37:40.01	33.13	0.57	-55.8	-59.5	3.6	0.00e+00	0	46	104	0	60	111643
2026-01-28 11:37:42.02	32.92	0.67	-52.5	-57.8	3.6	0.00e+00	0	46	104	0	60	92320
2026-01-28 11:37:44.04	32.69	0.77	-54.5	-58.0	3.6	0.00e+00	0	46	104	0	60	94395
2026-01-28 11:37:46.05	32.47	0.88	-51.0	-54.4	3.6	0.00e+00	0	46	104	0	60	61765
2026-01-28 11:37:48.06	32.24	0.98	-54.3	-57.5	3.6	0.00e+00	0	46	104	0	60	88721
2026-01-28 11:37:50.08	32.01	1.08	-46.5	-51.5	3.6	0.00e+00	0	46	104	0	60	44290
2026-01-28 11:37:52.09	31.79	1.18	-46.4	-51.3	3.5	0.00e+00	0	46	104	0	60	43293
2026-01-28 11:37:54.11	31.55	1.28	-46.3	-51.3	3.6	0.00e+00	0	46	104	0	60	43625
2026-01-28 11:37:56.12	31.32	1.39	-46.1	-51.2	3.6	0.00e+00	0	46	104	0	60	43018
2026-01-28 11:37:58.13	31.08	1.49	-46.1	-51.2	3.5	0.00e+00	0	46	104	0	60	43119
2026-01-28 11:38:00.14	30.84	1.59	-46.1	-51.2	3.6	0.00e+00	0	46	104	0	60	42810
2026-01-28 11:38:02.14	30.61	1.69	-46.2	-51.2	3.5	0.00e+00	0	47	104	0	60	43132
2026-01-28 11:38:04.16	30.36	1.80	-46.1	-51.3	3.6	0.00e+00	0	47	104	0	60	43308
2026-01-28 11:38:06.18	30.12	1.90	-46.2	-51.2	3.6	0.00e+00	0	47	104	0	60	43117
2026-01-28 11:38:08.18	29.87	2.00	-46.1	-51.2	3.5	0.00e+00	0	47	104	0	60	42745
2026-01-28 11:38:10.19	29.62	2.10	-46.2	-51.2	3.6	0.00e+00	0	47	104	0	60	43195
2026-01-28 11:38:12.20	29.37	2.21	-46.3	-51.2	3.5	0.00e+00	0	47	104	0	60	43168
2026-01-28 11:38:14.21	29.12	2.31	-46.3	-51.2	3.6	0.00e+00	0	47	104	0	60	42980
2026-01-28 11:38:16.22	28.86	2.41	-46.3	-51.2	3.5	0.00e+00	0	47	104	0	60	43058
2026-01-28 11:38:18.23	28.60	2.52	-46.5	-51.3	3.6	0.00e+00	0	47	104	0	60	43447
2026-01-28 11:38:20.24	28.34	2.62	-46.5	-51.3	3.6	0.00e+00	0	47	104	0	60	43342
2026-01-28 11:38:22.26	28.08	2.72	-46.5	-51.3	3.6	0.00e+00	0	47	104	0	60	43328
2026-01-28 11:38:24.28	27.81	2.83	-46.6	-51.3	3.6	0.00e+00	0	47	104	0	60	43592
2026-01-28 11:38:26.29	27.54	2.93	-46.6	-51.3	3.6	0.00e+00	0	47	104	0	60	43636
2026-01-28 11:38:28.30	27.27	3.03	-46.5	-51.2	3.6	0.00e+00	0	47	104	0	60	43202
2026-01-28 11:38:30.31	27.00	3.14	-46.3	-51.2	3.6	0.00e+00	0	47	104	0	60	42945
2026-01-28 11:38:32.33	26.72	3.24	-46.3	-51.3	3.6	0.00e+00	0	47	104	0	60	43349
2026-01-28 11:38:34.35	26.44	3.34	-46.4	-51.2	3.6	0.00e+00	0	47	104	0	60	42819
2026-01-28 11:38:36.36	26.16	3.45	-46.2	-51.1	3.6	0.00e+00	0	47	104	0	60	42468
2026-01-28 11:38:38.38	25.88	3.55	-46.2	-51.2	3.6	0.00e+00	0	47	104	0	60	43204
2026-01-28 11:38:40.39	25.59	3.65	-46.2	-51.1	3.6	0.00e+00	0	47	104	0	60	42697
2026-01-28 11:38:42.40	25.30	3.76	-46.0	-51.0	3.6	0.00e+00	0	47	104	0	60	42065
2026-01-28 11:38:44.42	25.01	3.86	-46.0	-51.1	3.6	0.00e+00	0	47	104	0	60	42270
2026-01-28 11:38:46.43	24.72	3.96	-45.9	-51.0	3.6	0.00e+00	0	47	104	0	60	42049
2026-01-28 11:38:48.45	24.42	4.07	-45.8	-51.0	3.5	0.00e+00	0	47	104	0	60	42018
2026-01-28 11:38:50.46	24.12	4.17	-45.7	-50.9	3.6	0.00e+00	0	47	104	0	60	41575
2026-01-28 11:38:52.48	23.82	4.27	-45.9	-51.1	3.6	0.00e+00	0	47	104	0	60	42476
2026-01-28 11:38:54.49	23.51	4.37	-45.9	-51.0	3.6	0.00e+00	0	47	104	0	60	42067
2026-01-28 11:38:56.50	23.20	4.48	-45.7	-51.0	3.6	0.00e+00	0	47	104	0	60	42031
2026-01-28 11:38:58.51	22.89	4.58	-45.8	-50.9	3.6	0.00e+00	0	47	104	0	60	41622
2026-01-28 11:39:00.52	22.58	4.68	-45.9	-51.0	3.5	0.00e+00	0	47	104	0	60	41973
2026-01-28 11:39:02.54	22.26	4.78	-45.9	-51.0	3.6	0.00e+00	0	47	104	0	60	41903
2026-01-28 11:39:04.53	21.95	4.89	-45.8	-51.0	3.6	0.00e+00	0	47	104	0	60	41751
2026-01-28 11:39:06.55	21.63	4.99	-45.9	-51.0	3.6	0.00e+00	0	47	104	0	60	41987
2026-01-28 11:39:08.56	21.30	5.09	-45.7	-50.9	3.6	0.00e+00	0	47	104	0	60	41621
2026-01-28 11:39:10.57	20.97	5.19	-45.8	-51.0	3.6	0.00e+00	0	47	104	0	60	41758
2026-01-28 11:39:12.59	20.64	5.29	-45.7	-50.9	3.6	0.00e+00	0	48	104	0	60	41358
2026-01-28 11:39:14.61	20.31	5.39	-45.7	-50.9	3.6	0.00e+00	0	48	104	0	60	41573
2026-01-28 11:39:16.62	19.97	5.49	-45.8	-50.9	3.6	0.00e+00	0	48	104	0	60	41561
2026-01-28 11:39:18.63	19.63	5.59	-45.7	-50.9	3.6	0.00e+00	0	47	104	0	60	41728
2026-01-28 11:39:20.64	19.29	5.69	-45.6	-50.8	3.6	0.00e+00	0	48	104	0	60	41163
2026-01-28 11:39:22.66	18.94	5.79	-45.7	-50.8	3.5	0.00e+00	0	48	104	0	60	41200
2026-01-28 11:39:24.66	18.60	5.89	-45.9	-50.9	3.6	0.00e+00	0	48	104	0	60	41634
2026-01-28 11:39:26.68	18.24	5.99	-45.9	-51.0	3.6	0.00e+00	0	48	104	0	60	41899
2026-01-28 11:39:28.69	17.89	6.09	-50.5	-53.7	3.6	0.00e+00	0	48	104	0	60	57503
2026-01-28 11:39:30.70	17.53	6.19	-48.5	-53.9	3.6	0.00e+00	0	48	104	0	60	58960
2026-01-28 11:39:32.72	17.17	6.29	-48.4	-51.5	3.6	0.00e+00	0	48	104	0	60	44320
2026-01-28 11:39:34.73	16.81	6.38	-48.6	-52.2	3.6	0.00e+00	0	48	104	0	60	48043
2026-01-28 11:39:36.74	16.44	6.48	-49.7	-55.4	3.6	0.00e+00	0	48	104	0	60	70002
2026-01-28 11:39:38.75	16.07	6.58	-50.0	-55.3	3.5	0.00e+00	0	48	104	0	60	68599
2026-01-28 11:39:40.76	15.70	6.67	-49.7	-55.8	3.6	0.00e+00	0	48	104	0	60	72896
2026-01-28 11:39:42.77	15.32	6.77	-50.5	-55.9	3.6	0.00e+00	0	48	104	0	60	74058
2026-01-28 11:39:44.79	14.94	6.87	-52.4	-56.3	3.6	0.00e+00	0	48	104	0	60	77467
2026-01-28 11:39:46.80	14.56	6.96	-51.4	-54.9	3.6	0.00e+00	0	48	104	0	60	65491
2026-01-28 11:39:48.82	14.17	7.05	-49.7	-53.7	3.6	0.00e+00	0	48	104	0	60	57389
2026-01-28 11:39:50.83	13.78	7.15	-50.0	-53.8	3.6	0.00e+00	0	48	104	0	60	58080
2026-01-28 11:39:52.85	13.39	7.24	-53.7	-57.9	3.6	0.00e+00	0	48	104	0	60	92589
2026-01-28 11:39:54.86	13.00	7.33	-51.3	-55.1	3.6	0.00e+00	0	48	104	0	60	67078
2026-01-28 11:39:56.88	12.60	7.43	-53.3	-56.2	3.6	0.00e+00	0	48	104	0	60	76806
2026-01-28 11:39:58.89	12.19	7.52	-49.7	-55.8	3.6	0.00e+00	0	48	104	0	60	72718
2026-01-28 11:40:00.91	11.79	7.61	-55.3	-59.1	3.6	0.00e+00	0	48	104	0	60	107005
2026-01-28 11:40:02.93	11.38	7.70	-54.7	-58.7	3.6	0.00e+00	0	48	104	0	60	101915
2026-01-28 11:40:04.94	10.97	7.79	-52.5	-57.4	3.6	0.00e+00	0	48	104	0	60	87896
2026-01-28 11:40:06.95	10.55	7.87	-52.0	-57.6	3.6	0.00e+00	0	48	104	0	60	89317
2026-01-28 11:40:08.96	10.14	7.96	-53.3	-58.0	3.6	0.00e+00	0	48	104	0	60	94330
2026-01-28 11:40:10.98	9.72	8.05	-54.1	-58.0	3.6	0.00e+00	0	48	104	0	60	94018
2026-01-28 11:40:12.98	9.30	8.13	-53.5	-57.9	3.6	0.00e+00	0	48	104	0	60	92751
2026-01-28 11:40:14.99	8.87	8.22	-53.2	-57.7	3.6	0.00e+00	0	48	104	0	60	90957
2026-01-28 11:40:17.01	8.44	8.30	-52.3	-57.5	3.6	0.00e+00	0	48	104	0	60	88542
2026-01-28 11:40:19.02	8.01	8.38	-54.6	-58.5	3.6	0.00e+00	0	48	104	0	60	99019
2026-01-28 11:40:21.04	7.57	8.47	-52.9	-57.9	3.6	0.00e+00	0	48	104	0	60	92551
2026-01-28 11:40:23.05	7.13	8.55	-53.9	-58.2	3.6	0.00e+00	0	48	104	0	60	95704
2026-01-28 11:40:25.06	6.69	8.63	-52.7	-57.6	3.6	0.00e+00	0	48	104	0	60	89316
2026-01-28 11:40:27.07	6.24	8.71	-53.7	-57.9	3.6	0.00e+00	0	48	104	0	60	92663
2026-01-28 11:40:29.08	5.80	8.78	-54.5	-58.7	3.6	0.00e+00	0	48	104	0	60	102113
2026-01-28 11:40:31.10	5.34	8.86	-52.8	-57.1	3.6	0.00e+00	0	48	104	0	60	84861
2026-01-28 11:40:33.11	4.89	8.94	-53.1	-57.0	3.6	0.00e+00	0	48	104	0	60	83803
2026-01-28 11:40:35.12	4.43	9.01	-53.1	-57.2	3.6	0.00e+00	0	48	104	0	60	85823
2026-01-28 11:40:37.14	3.97	9.08	-55.0	-58.9	3.6	0.00e+00	0	48	104	0	60	104818
2026-01-28 11:40:39.15	3.51	9.15	-53.4	-57.5	3.6	0.00e+00	0	48	104	0	60	88633
2026-01-28 11:40:41.16	3.04	9.22	-53.6	-57.3	3.6	0.00e+00	0	48	104	0	60	87189
2026-01-28 11:40:43.17	2.58	9.29	-53.2	-57.4	3.6	0.00e+00	0	48	104	0	60	88121
2026-01-28 11:40:45.18	2.11	9.36	-53.3	-57.5	3.6	0.00e+00	0	48	104	0	60	88366
2026-01-28 11:40:47.19	1.63	9.43	-54.3	-58.6	3.6	0.00e+00	0	48	104	0	60	100467
2026-01-28 11:40:49.19	1.16	9.49	-52.9	-57.0	3.6	0.00e+00	0	48	104	0	60	83535
2026-01-28 11:40:51.21	0.68	9.56	-52.5	-56.7	3.6	0.00e+00	0	48	104	0	60	81306
2026-01-28 11:40:53.23	0.20	9.62	-53.8	-57.7	3.6	0.00e+00	0	48	104	0	60	90510
2026-01-28 11:40:55.24	359.71	9.68	-53.5	-57.3	3.6	0.00e+00	0	48	104	0	60	86856
2026-01-28 11:40:57.24	359.23	9.74	-53.4	-57.2	3.6	0.00e+00	0	48	104	0	60	86202
2026-01-28 11:40:59.26	358.74	9.80	-53.9	-57.5	3.6	0.00e+00	0	48	104	0	60	88859
2026-01-28 11:41:01.26	358.25	9.86	-54.4	-58.2	3.6	0.00e+00	0	48	104	0	60	96617
2026-01-28 11:41:03.26	357.76	9.91	-54.5	-58.2	3.6	0.00e+00	0	48	104	0	60	95828
2026-01-28 11:41:05.28	357.26	9.96	-53.9	-57.7	3.6	0.00e+00	0	48	104	0	60	90507
2026-01-28 11:41:07.29	356.76	10.02	-54.0	-57.8	3.6	0.00e+00	0	48	104	0	60	91814
2026-01-28 11:41:09.30	356.26	10.07	-54.1	-58.2	3.6	0.00e+00	0	48	104	0	60	96569
2026-01-28 11:41:11.32	355.76	10.11	-52.1	-57.3	3.6	0.00e+00	0	48	104	0	60	86883
2026-01-28 11:41:13.33	355.25	10.16	-52.2	-57.4	3.6	0.00e+00	0	48	104	0	60	87276
2026-01-28 11:41:15.34	354.75	10.21	-52.9	-57.6	3.6	0.00e+00	0	48	104	0	60	90048
2026-01-28 11:41:17.36	354.24	10.25	-54.5	-58.4	3.6	0.00e+00	0	48	104	0	60	98541
2026-01-28 11:41:19.36	353.73	10.29	-53.9	-57.9	3.6	0.00e+00	0	48	104	0	60	93370
2026-01-28 11:41:21.38	353.22	10.33	-53.8	-58.0	3.6	0.00e+00	0	48	104	0	60	93696
2026-01-28 11:41:23.39	352.70	10.37	-53.8	-58.0	3.6	0.00e+00	0	48	104	0	60	93865
2026-01-28 11:41:25.40	352.19	10.41	-53.8	-58.1	3.6	0.00e+00	0	48	104	0	60	95609
2026-01-28 11:41:27.42	351.67	10.44	-54.6	-58.3	3.6	0.00e+00	0	48	104	0	60	97071
2026-01-28 11:41:29.42	351.16	10.47	-53.5	-57.9	3.6	0.00e+00	0	48	104	0	60	92978
2026-01-28 11:41:31.43	350.64	10.50	-53.3	-57.9	3.6	0.00e+00	0	48	104	0	60	93133
2026-01-28 11:41:33.44	350.12	10.53	-53.4	-57.9	3.6	0.00e+00	0	48	104	0	60	92910
2026-01-28 11:41:35.46	349.59	10.56	-54.3	-58.2	3.6	0.00e+00	0	48	104	0	60	96071
2026-01-28 11:41:37.47	349.07	10.58	-54.3	-58.1	3.6	0.00e+00	0	48	104	0	60	94832
2026-01-28 11:41:39.48	348.55	10.61	-54.3	-58.0	3.6	0.00e+00	0	48	104	0	60	93457
2026-01-28 11:41:41.49	348.02	10.63	-53.9	-57.8	3.6	0.00e+00	0	48	104	0	60	91616
2026-01-28 11:41:43.51	347.49	10.65	-54.1	-57.8	3.6	0.00e+00	0	48	104	0	60	92368
2026-01-28 11:41:45.53	346.96	10.66	-53.8	-57.8	3.6	0.00e+00	0	48	104	0	60	92290
2026-01-28 11:41:47.54	346.44	10.68	-54.0	-58.0	3.6	0.00e+00	0	48	104	0	60	93577
2026-01-28 11:41:49.55	345.91	10.69	-53.9	-57.9	3.6	0.00e+00	0	48	104	0	60	93189
2026-01-28 11:41:51.57	345.38	10.70	-54.0	-58.0	3.6	0.00e+00	0	48	104	0	60	94212
2026-01-28 11:41:53.58	344.85	10.71	-54.2	-58.1	3.6	0.00e+00	0	48	104	0	60	94919
2026-01-28 11:41:55.59	344.32	10.72	-53.9	-57.9	3.6	0.00e+00	0	48	104	0	60	93168
2026-01-28 11:41:57.61	343.79	10.72	-53.8	-57.9	3.6	0.00e+00	0	48	104	0	60	92385
2026-01-28 11:41:59.62	343.26	10.73	-53.9	-57.8	3.6	0.00e+00	0	48	104	0	60	91909
2026-01-28 11:42:01.64	342.73	10.73	-53.8	-57.9	3.6	0.00e+00	0	48	104	0	60	92578
2026-01-28 11:42:03.64	342.20	10.73	-54.0	-57.9	3.6	0.00e+00	0	48	104	0	60	92686
2026-01-28 11:42:05.66	341.67	10.72	-54.2	-58.0	3.6	0.00e+00	0	48	104	0	60	93853
2026-01-28 11:42:07.67	341.14	10.72	-52.6	-57.4	3.6	0.00e+00	0	48	104	0	60	87910
2026-01-28 11:42:09.68	340.61	10.71	-52.2	-57.2	3.6	0.00e+00	0	48	104	0	60	85843
2026-01-28 11:42:11.69	340.08	10.70	-52.8	-57.4	3.6	0.00e+00	0	48	104	0	60	87538
2026-01-28 11:42:13.71	339.55	10.69	-52.7	-57.5	3.5	0.00e+00	0	48	104	0	60	88676
2026-01-28 11:42:15.72	339.02	10.68	-52.2	-57.2	3.6	0.00e+00	0	48	104	0	60	85536
2026-01-28 11:42:17.74	338.49	10.66	-51.7	-57.1	3.6	0.00e+00	0	48	104	0	60	84548
2026-01-28 11:42:19.75	337.96	10.65	-51.7	-57.0	3.6	0.00e+00	0	48	104	0	60	83376
2026-01-28 11:42:21.76	337.44	10.63	-50.7	-56.5	3.6	0.00e+00	0	48	104	0	60	78806
2026-01-28 11:42:23.77	336.91	10.61	-50.4	-56.3	3.6	0.00e+00	0	48	104	0	60	77465
2026-01-28 11:42:25.78	336.39	10.58	-50.1	-56.2	3.6	0.00e+00	0	48	104	0	60	75971
2026-01-28 11:42:27.79	335.87	10.56	-50.6	-56.4	3.6	0.00e+00	0	48	104	0	60	77848
2026-01-28 11:42:29.81	335.34	10.53	-50.8	-56.6	3.6	0.00e+00	0	48	104	0	60	79837
2026-01-28 11:42:31.82	334.82	10.50	-50.8	-56.5	3.6	0.00e+00	0	48	104	0	60	79335
2026-01-28 11:42:33.84	334.30	10.47	-51.4	-56.8	3.6	0.00e+00	0	48	104	0	60	82173
2026-01-28 11:42:35.85	333.78	10.44	-53.0	-57.4	3.6	0.00e+00	0	48	104	0	60	88204
2026-01-28 11:42:37.86	333.26	10.41	-52.7	-57.3	3.6	0.00e+00	0	48	104	0	60	86550
2026-01-28 11:42:39.87	332.75	10.37	-52.9	-57.4	3.6	0.00e+00	0	48	104	0	60	87905
2026-01-28 11:42:41.88	332.24	10.33	-50.5	-56.1	3.6	0.00e+00	0	48	104	0	60	75658
2026-01-28 11:42:43.89	331.72	10.29	-53.6	-57.6	3.6	0.00e+00	0	48	104	0	60	89577
2026-01-28 11:42:45.90	331.21	10.25	-53.2	-57.5	3.6	0.00e+00	0	48	104	0	60	88738
2026-01-28 11:42:47.92	330.70	10.21	-54.2	-57.9	3.6	0.00e+00	0	48	104	0	60	92655
2026-01-28 11:42:49.92	330.20	10.16	-52.8	-57.1	3.6	0.00e+00	0	48	104	0	60	85049
2026-01-28 11:42:51.93	329.70	10.12	-50.3	-56.1	3.6	0.00e+00	0	48	104	0	60	75938
2026-01-28 11:42:53.94	329.19	10.07	-54.1	-57.7	3.6	0.00e+00	0	48	104	0	60	90653
2026-01-28 11:42:55.95	328.69	10.02	-53.9	-57.7	3.6	0.00e+00	0	48	104	0	60	90960
2026-01-28 11:42:57.97	328.19	9.97	-53.7	-57.5	3.6	0.00e+00	0	48	104	0	60	88869
2026-01-28 11:42:59.98	327.70	9.91	-53.6	-57.6	3.6	0.00e+00	0	48	104	0	60	89426
2026-01-28 11:43:01.98	327.20	9.86	-54.0	-57.6	3.6	0.00e+00	0	48	104	0	60	89840
2026-01-28 11:43:03.99	326.71	9.80	-54.0	-57.7	3.6	0.00e+00	0	48	104	0	60	91008
2026-01-28 11:43:06.01	326.22	9.74	-54.0	-57.7	3.6	0.00e+00	0	48	104	0	60	90724
2026-01-28 11:43:08.01	325.74	9.68	-54.0	-57.7	3.6	0.00e+00	0	48	104	0	60	90815
2026-01-28 11:43:10.02	325.25	9.62	-53.9	-57.6	3.6	0.00e+00	0	48	104	0	60	89546
2026-01-28 11:43:12.02	324.77	9.56	-54.0	-57.7	3.6	0.00e+00	0	48	104	0	60	91188
2026-01-28 11:43:14.03	324.30	9.50	-54.1	-57.8	3.6	0.00e+00	0	48	104	0	60	91372
2026-01-28 11:43:16.05	323.82	9.43	-53.9	-57.5	3.5	0.00e+00	0	48	104	0	60	88871
2026-01-28 11:43:18.06	323.34	9.36	-54.0	-57.7	3.6	0.00e+00	0	48	104	0	60	91098
2026-01-28 11:43:20.07	322.87	9.30	-53.8	-57.5	3.6	0.00e+00	0	48	104	0	60	88294
2026-01-28 11:43:22.09	322.40	9.23	-53.7	-57.5	3.6	0.00e+00	0	48	104	0	60	88731
2026-01-28 11:43:24.10	321.93	9.16	-53.6	-57.3	3.6	0.00e+00	0	48	104	0	60	86937
2026-01-28 11:43:26.10	321.47	9.08	-53.7	-57.4	3.6	0.00e+00	0	48	104	0	60	88140
2026-01-28 11:43:28.12	321.01	9.01	-53.5	-57.0	3.6	0.00e+00	0	48	104	0	60	84151
2026-01-28 11:43:30.13	320.55	8.94	-53.7	-57.3	3.6	0.00e+00	0	48	104	0	60	86275
2026-01-28 11:43:32.14	320.10	8.86	-53.8	-57.5	3.6	0.00e+00	0	48	104	0	60	88370
2026-01-28 11:43:34.16	319.65	8.78	-53.8	-57.3	3.6	0.00e+00	0	48	104	0	60	86711
2026-01-28 11:43:36.17	319.20	8.71	-53.6	-57.0	3.6	0.00e+00	0	48	104	0	60	83856
2026-01-28 11:43:38.19	318.75	8.63	-53.8	-57.3	3.6	0.00e+00	0	48	104	0	60	86599
2026-01-28 11:43:40.21	318.31	8.55	-53.6	-57.2	3.6	0.00e+00	0	48	104	0	60	85754
2026-01-28 11:43:42.21	317.87	8.47	-53.3	-56.9	3.6	0.00e+00	0	48	104	0	60	82843
2026-01-28 11:43:44.21	317.44	8.38	-53.5	-57.0	3.6	0.00e+00	0	48	104	0	60	83535
2026-01-28 11:43:46.22	317.00	8.30	-53.4	-57.0	3.6	0.00e+00	0	48	104	0	60	83443
2026-01-28 11:43:48.22	316.57	8.22	-52.8	-56.4	3.6	0.00e+00	0	48	104	0	60	77743
2026-01-28 11:43:50.23	316.15	8.13	-53.0	-56.4	3.6	0.00e+00	0	48	104	0	60	77897
2026-01-28 11:43:52.24	315.72	8.05	-53.3	-56.8	3.6	0.00e+00	0	48	104	0	60	82171
2026-01-28 11:43:54.26	315.30	7.96	-53.2	-56.7	3.6	0.00e+00	0	48	104	0	60	80558
2026-01-28 11:43:56.27	314.88	7.87	-53.1	-56.6	3.6	0.00e+00	0	48	104	0	60	80007
2026-01-28 11:43:58.28	314.47	7.79	-53.0	-56.5	3.6	0.00e+00	0	48	104	0	60	78652
2026-01-28 11:44:00.27	314.06	7.70	-53.1	-56.7	3.6	0.00e+00	0	48	104	0	60	80472
2026-01-28 11:44:02.28	313.65	7.61	-52.7	-55.9	3.6	0.00e+00	0	48	104	0	60	74033
2026-01-28 11:44:04.29	313.25	7.52	-53.0	-56.5	3.6	0.00e+00	0	48	104	0	60	79348
2026-01-28 11:44:06.30	312.85	7.43	-53.0	-56.4	3.6	0.00e+00	0	48	104	0	60	78210
2026-01-28 11:44:08.31	312.45	7.34	-52.6	-55.7	3.6	0.00e+00	0	48	104	0	60	72457
2026-01-28 11:44:10.32	312.05	7.24	-52.9	-56.3	3.6	0.00e+00	0	48	104	0	60	77167
2026-01-28 11:44:12.33	311.66	7.15	-53.0	-56.7	3.6	0.00e+00	0	48	104	0	60	80593
2026-01-28 11:44:14.33	311.27	7.06	-53.4	-56.9	3.6	0.00e+00	0	48	104	0	60	82903
2026-01-28 11:44:16.35	310.88	6.96	-53.0	-56.7	3.6	0.00e+00	0	48	104	0	60	80776
2026-01-28 11:44:18.36	310.50	6.87	-53.0	-56.7	3.6	0.00e+00	0	48	104	0	60	81248
2026-01-28 11:44:20.37	310.12	6.77	-52.5	-56.3	3.6	0.00e+00	0	48	104	0	60	76963
2026-01-28 11:44:22.38	309.74	6.68	-53.3	-56.9	3.6	0.00e+00	0	48	104	0	60	83134
2026-01-28 11:44:24.39	309.37	6.58	-52.7	-56.7	3.6	0.00e+00	0	48	104	0	60	80511
2026-01-28 11:44:26.41	309.00	6.48	-52.7	-56.5	3.6	0.00e+00	0	48	104	0	60	79488
2026-01-28 11:44:28.42	308.63	6.39	-52.5	-56.3	3.6	0.00e+00	0	48	104	0	60	77294
2026-01-28 11:44:30.44	308.26	6.29	-53.3	-57.1	3.5	0.00e+00	0	48	104	0	60	84396
2026-01-28 11:44:32.46	307.90	6.19	-52.6	-56.5	3.6	0.00e+00	0	48	104	0	60	78646
2026-01-28 11:44:34.47	307.54	6.09	-52.6	-56.5	3.6	0.00e+00	0	48	104	0	60	78752
2026-01-28 11:44:36.48	307.19	5.99	-53.2	-57.0	3.6	0.00e+00	0	48	104	0	60	83952
2026-01-28 11:44:38.49	306.83	5.89	-55.3	-58.8	3.6	0.00e+00	0	48	104	0	60	102567
2026-01-28 11:44:40.51	306.48	5.79	-56.2	-60.0	3.6	0.00e+00	0	48	104	0	60	118232
2026-01-28 11:44:42.52	306.14	5.69	-56.1	-59.7	3.6	0.00e+00	0	48	104	0	60	114453
2026-01-28 11:44:44.54	305.79	5.59	-56.4	-60.1	3.6	0.00e+00	0	48	104	0	60	119925
2026-01-28 11:44:46.56	305.45	5.49	-56.8	-60.5	3.6	0.00e+00	0	48	104	0	60	125192
2026-01-28 11:44:48.58	305.11	5.39	-56.1	-60.1	3.6	0.00e+00	0	48	104	0	60	119053
2026-01-28 11:44:50.59	304.78	5.29	-56.9	-60.6	3.6	0.00e+00	0	48	104	0	60	126366
2026-01-28 11:44:52.61	304.44	5.19	-56.8	-60.8	3.6	0.00e+00	0	48	104	0	60	129432
2026-01-28 11:44:54.62	304.12	5.09	-56.2	-60.4	3.6	0.00e+00	0	48	104	0	60	123258
2026-01-28 11:44:56.63	303.79	4.99	-56.6	-60.6	3.6	0.00e+00	0	48	104	0	60	127092
2026-01-28 11:44:58.65	303.47	4.88	-56.7	-60.7	3.6	0.00e+00	0	48	104	0	60	128861
2026-01-28 11:45:00.66	303.15	4.78	-56.7	-60.7	3.6	0.00e+00	0	48	104	0	60	128392
2026-01-28 11:45:02.68	302.83	4.68	-56.8	-60.8	3.6	0.00e+00	0	48	104	0	60	129646
2026-01-28 11:45:04.69	302.52	4.58	-56.8	-60.8	3.6	0.00e+00	0	48	104	0	60	129565
2026-01-28 11:45:06.71	302.20	4.47	-56.7	-60.8	3.6	0.00e+00	0	48	104	0	60	129650
2026-01-28 11:45:08.72	301.90	4.37	-56.8	-60.7	3.6	0.00e+00	0	48	104	0	60	128822
2026-01-28 11:45:10.73	301.59	4.27	-56.8	-60.7	3.6	0.00e+00	0	48	104	0	60	128507
2026-01-28 11:45:12.74	301.29	4.17	-56.7	-60.7	3.6	0.00e+00	0	48	104	0	60	127904
2026-01-28 11:45:14.75	300.99	4.06	-56.7	-60.7	3.6	0.00e+00	0	48	104	0	60	128174
2026-01-28 11:45:16.77	300.69	3.96	-56.7	-60.7	3.5	0.00e+00	0	48	104	0	60	127657
2026-01-28 11:45:18.79	300.39	3.86	-56.6	-60.6	3.6	0.00e+00	0	48	104	0	60	127336
2026-01-28 11:45:20.80	300.10	3.75	-56.6	-60.6	3.6	0.00e+00	0	48	104	0	60	126797
2026-01-28 11:45:22.82	299.81	3.65	-56.6	-60.6	3.6	0.00e+00	0	48	104	0	60	126960
2026-01-28 11:45:24.84	299.52	3.55	-56.6	-60.6	3.6	0.00e+00	0	48	104	0	60	127209
2026-01-28 11:45:26.84	299.24	3.44	-56.6	-60.6	3.6	0.00e+00	0	48	104	0	60	126865
2026-01-28 11:45:28.85	298.96	3.34	-56.6	-60.6	3.6	0.00e+00	0	48	104	0	60	126696
2026-01-28 11:45:30.85	298.68	3.24	-56.5	-60.6	3.6	0.00e+00	0	48	104	0	60	126531
2026-01-28 11:45:32.86	298.40	3.13	-56.5	-60.5	3.6	0.00e+00	0	48	104	0	60	125143
2026-01-28 11:45:34.88	298.13	3.03	-56.5	-60.5	3.6	0.00e+00	0	48	104	0	60	125099
2026-01-28 11:45:36.89	297.86	2.93	-56.5	-60.5	3.6	0.00e+00	0	48	104	0	60	124932
2026-01-28 11:45:38.90	297.59	2.82	-56.4	-60.5	3.6	0.00e+00	0	48	104	0	60	124628
2026-01-28 11:45:40.92	297.32	2.72	-56.5	-60.5	3.6	0.00e+00	0	48	104	0	60	125181
2026-01-28 11:45:42.92	297.06	2.62	-56.4	-60.4	3.6	0.00e+00	0	48	104	0	60	124311
2026-01-28 11:45:44.94	296.79	2.51	-56.4	-60.4	3.6	0.00e+00	0	48	104	0	60	124283
2026-01-28 11:45:46.96	296.53	2.41	-56.5	-60.4	3.6	0.00e+00	0	48	104	0	60	124572
2026-01-28 11:45:48.97	296.28	2.31	-56.4	-60.5	3.6	0.00e+00	0	48	104	0	60	124875
2026-01-28 11:45:50.98	296.02	2.20	-56.4	-60.4	3.6	0.00e+00	0	48	104	0	60	123789
2026-01-28 11:45:53.00	295.77	2.10	-56.4	-60.4	3.6	0.00e+00	0	48	104	0	60	123968
2026-01-28 11:45:55.02	295.52	2.00	-56.4	-60.4	3.6	0.00e+00	0	48	104	0	60	124225
2026-01-28 11:45:57.03	295.27	1.89	-56.4	-60.5	3.6	0.00e+00	0	48	104	0	60	124698
2026-01-28 11:45:59.05	295.02	1.79	-56.4	-60.4	3.6	0.00e+00	0	48	104	0	60	124021
2026-01-28 11:46:01.05	294.78	1.69	-56.4	-60.5	3.6	0.00e+00	0	48	104	0	60	124869
2026-01-28 11:46:03.06	294.54	1.58	-56.4	-60.5	3.6	0.00e+00	0	48	104	0	60	124880
2026-01-28 11:46:05.08	294.30	1.48	-56.4	-60.5	3.6	0.00e+00	0	48	104	0	60	124685
2026-01-28 11:46:07.10	294.06	1.38	-56.4	-60.5	3.6	0.00e+00	0	48	104	0	60	124905
2026-01-28 11:46:09.11	293.83	1.28	-56.5	-60.5	3.6	0.00e+00	0	48	104	0	60	125728
2026-01-28 11:46:11.13	293.59	1.17	-56.5	-60.5	3.6	0.00e+00	0	48	104	0	60	125121
2026-01-28 11:46:13.14	293.36	1.07	-56.5	-60.5	3.6	0.00e+00	0	48	104	0	60	125293
2026-01-28 11:46:15.15	293.13	0.97	-56.5	-60.5	3.6	0.00e+00	0	48	104	0	60	125808
2026-01-28 11:46:17.16	292.91	0.87	-56.6	-60.5	3.6	0.00e+00	0	48	104	0	60	125464
2026-01-28 11:46:19.18	292.68	0.77	-56.6	-60.5	3.6	0.00e+00	0	48	104	0	60	125682
2026-01-28 11:46:21.19	292.46	0.66	-56.5	-60.5	3.6	0.00e+00	0	48	104	0	60	125920
2026-01-28 11:46:23.20	292.24	0.56	-56.5	-60.5	3.6	0.00e+00	0	48	104	0	60	125522
2026-01-28 11:46:25.22	292.02	0.46	-56.5	-60.5	3.6	0.00e+00	0	48	104	0	60	125573
2026-01-28 11:46:27.23	291.80	0.36	-56.5	-60.5	3.6	0.00e+00	0	48	104	0	60	125554
2026-01-28 11:46:29.25	291.59	0.26	-56.5	-60.5	3.6	0.00e+00	0	48	104	0	60	124987
2026-01-28 11:46:31.26	291.38	0.16	-56.4	-60.5	3.6	0.00e+00	0	48	104	0	60	125615
2026-01-28 11:46:33.28	291.16	0.05	-56.5	-60.5	3.5	0.00e+00	0	48	104	0	60	125807
2026-01-28 11:46:35.29	290.95	-0.05	-56.4	-60.4	3.6	0.00e+00	0	48	104	0	60	124513

#Closed at: 2026-01-28 11:46:35
#Recorded file [0 MB]: D:/Data/35015_260128_144349.dat