passes_logs/2026/01/28/R3.2S-Naryan-Mar/R3.2S-Naryan-Mar__20260128_201703_NOAA_21_JPSS-2_rec.log

#Pass ID: 20260128_201703_NOAA 21 (JPSS-2)
#Satellite: NOAA 21 (JPSS-2)
#Configuration: NOAA-21
#almurnet v.1.7.20240730
#Start time: 2026-01-28 20:17:06

#Version: 2.2.20231116
#Station: R3.2S-Naryan-Mar
#Location: 53.008057 lon 67.646978 lat
#TLE: 1 54234U 22150A   26027.77052245  .00000166  00000+0  99439-4 0  9997
#TLE: 2 54234  98.7510 328.5165 0000872 203.6403 156.4733 14.19540252166628

#Time	Az	El	Level	Level2	SNR	BER	BlckErr	Temp	State	Recorded	gain1	gain2
2026-01-28 20:17:06.96	16.42	0.14	-56.0	-59.4	3.3	0.00e+00	0	44	0	0	60	109816
2026-01-28 20:17:10.97	16.74	0.32	-60.9	-75.8	3.5	1.52e+00	0	45	104	0	60	235081
2026-01-28 20:17:14.99	17.08	0.51	-59.7	-74.8	3.7	1.51e+00	0	46	104	0	60	209734
2026-01-28 20:17:19.01	17.41	0.70	-59.2	-74.1	3.5	1.52e+00	0	46	104	0	60	192457
2026-01-28 20:17:23.03	17.75	0.89	-58.8	-73.5	3.5	1.52e+00	0	46	104	0	60	179098
2026-01-28 20:17:27.04	18.09	1.07	-58.8	-73.4	3.5	1.52e+00	0	46	104	0	60	178279
2026-01-28 20:17:31.07	18.44	1.26	-58.7	-73.3	3.5	1.52e+00	0	46	104	0	60	176469
2026-01-28 20:17:35.10	18.79	1.45	-58.6	-73.3	3.5	1.51e+00	0	46	104	0	60	175857
2026-01-28 20:17:39.12	19.15	1.64	-58.6	-73.2	3.5	1.52e+00	0	46	104	0	60	174780
2026-01-28 20:17:43.15	19.51	1.83	-58.5	-73.1	3.5	1.52e+00	0	46	104	0	60	171768
2026-01-28 20:17:47.18	19.87	2.02	-58.5	-73.2	3.5	1.52e+00	0	46	104	0	60	174582
2026-01-28 20:17:51.22	20.24	2.22	-58.6	-73.2	3.5	1.51e+00	0	46	104	0	60	173049
2026-01-28 20:17:55.25	20.61	2.41	-58.5	-73.2	3.5	1.51e+00	0	46	104	0	60	174365
2026-01-28 20:17:59.27	20.99	2.60	-58.6	-73.2	3.5	1.52e+00	0	46	104	0	60	174528
2026-01-28 20:18:03.30	21.37	2.79	-58.5	-73.1	3.5	1.52e+00	0	46	104	0	60	172718
2026-01-28 20:18:07.32	21.76	2.98	-58.6	-73.2	3.5	1.52e+00	0	46	104	0	60	174291
2026-01-28 20:18:11.33	22.15	3.17	-58.6	-73.2	3.5	1.52e+00	0	46	104	0	60	173522
2026-01-28 20:18:15.36	22.55	3.37	-58.6	-73.1	3.5	1.52e+00	0	46	104	0	60	172465
2026-01-28 20:18:19.39	22.95	3.56	-58.6	-73.1	3.5	1.52e+00	0	46	104	0	60	172560
2026-01-28 20:18:23.42	23.36	3.76	-58.6	-73.2	3.5	1.52e+00	0	46	104	0	60	173116
2026-01-28 20:18:27.45	23.77	3.95	-58.5	-73.1	3.5	1.51e+00	0	46	104	0	60	171533
2026-01-28 20:18:31.47	24.19	4.14	-58.5	-73.1	3.5	1.52e+00	0	46	104	0	60	171283
2026-01-28 20:18:35.50	24.61	4.34	-58.6	-73.1	3.5	1.52e+00	0	46	104	0	60	171533
2026-01-28 20:18:39.53	25.04	4.53	-58.6	-73.1	3.5	1.51e+00	0	46	104	0	60	172832
2026-01-28 20:18:43.56	25.47	4.73	-58.7	-73.1	3.5	1.52e+00	0	46	104	0	60	172566
2026-01-28 20:18:47.58	25.91	4.92	-58.7	-73.1	3.5	1.52e+00	0	46	104	0	60	171390
2026-01-28 20:18:51.60	26.36	5.11	-58.7	-73.1	3.5	1.52e+00	0	46	104	0	60	171591
2026-01-28 20:18:55.63	26.81	5.31	-58.7	-73.1	3.5	1.51e+00	0	46	104	0	60	171314
2026-01-28 20:18:59.66	27.26	5.50	-58.6	-73.0	3.5	1.52e+00	0	46	104	0	60	170731
2026-01-28 20:19:03.69	27.73	5.70	-58.6	-73.2	3.5	1.52e+00	0	46	104	0	60	172943
2026-01-28 20:19:07.72	28.19	5.89	-58.5	-72.3	3.5	1.52e+00	0	46	104	0	60	155957
2026-01-28 20:19:11.75	28.67	6.09	-52.2	-70.0	3.9	1.51e+00	0	46	104	0	60	120960
2026-01-28 20:19:15.78	29.15	6.28	-51.2	-56.9	12.0	0.00e+00	0	46	104	0	60	26605
2026-01-28 20:19:19.80	29.63	6.48	-53.8	-59.4	11.0	2.55e-03	0	46	0	11534336	60	35608
2026-01-28 20:19:23.83	30.13	6.67	-51.7	-56.8	12.6	8.62e-05	0	46	0	24117248	60	26289
2026-01-28 20:19:27.85	30.63	6.86	-51.9	-54.3	17.9	0.00e+00	0	47	0	36700160	60	19826
2026-01-28 20:19:31.86	31.13	7.05	-51.5	-54.3	15.8	0.00e+00	0	46	0	49283072	60	19840
2026-01-28 20:19:35.88	31.64	7.25	-52.1	-53.9	18.0	0.00e+00	0	46	0	61865984	60	18905
2026-01-28 20:19:39.91	32.16	7.44	-51.1	-53.6	17.9	0.00e+00	0	46	0	74448896	60	18299
2026-01-28 20:19:43.94	32.68	7.63	-51.1	-53.6	16.7	0.00e+00	0	47	0	87031808	60	18122
2026-01-28 20:19:47.97	33.21	7.82	-50.8	-53.5	15.7	0.00e+00	0	46	0	99614720	60	18015
2026-01-28 20:19:52.00	33.75	8.01	-49.4	-53.3	15.2	7.00e-07	0	46	0	112197632	60	17603
2026-01-28 20:19:56.02	34.30	8.20	-50.0	-53.3	15.8	0.00e+00	0	46	0	124780544	60	17505
2026-01-28 20:20:00.06	34.85	8.39	-51.2	-53.4	18.2	0.00e+00	0	46	0	137363456	60	17727
2026-01-28 20:20:04.09	35.41	8.58	-51.2	-53.3	18.6	0.00e+00	0	46	0	149946368	60	17620
2026-01-28 20:20:08.11	35.97	8.77	-51.4	-53.4	18.7	0.00e+00	0	46	0	162529280	60	17742
2026-01-28 20:20:12.14	36.55	8.95	-51.0	-53.1	17.7	0.00e+00	0	46	0	175112192	60	17218
2026-01-28 20:20:16.17	37.13	9.14	-49.2	-52.9	15.9	0.00e+00	0	46	0	187695104	60	16862
2026-01-28 20:20:20.20	37.72	9.32	-50.6	-52.9	17.8	0.00e+00	0	46	0	200278016	60	16756
2026-01-28 20:20:24.23	38.31	9.50	-51.1	-53.0	19.0	0.00e+00	0	46	0	212860928	60	17024
2026-01-28 20:20:28.25	38.91	9.69	-51.2	-53.0	19.4	0.00e+00	0	47	0	225443840	60	16901
2026-01-28 20:20:32.28	39.52	9.87	-51.4	-53.0	19.4	0.00e+00	0	46	0	238026752	60	16920
2026-01-28 20:20:36.31	40.14	10.04	-51.1	-52.8	18.9	0.00e+00	0	46	0	250609664	60	16598
2026-01-28 20:20:40.34	40.76	10.22	-50.7	-53.1	18.3	0.00e+00	0	46	0	263192576	60	17150
2026-01-28 20:20:44.36	41.39	10.40	-50.8	-53.0	18.3	0.00e+00	0	46	0	275775488	60	16972
2026-01-28 20:20:48.40	42.03	10.57	-50.9	-52.7	19.6	0.00e+00	0	47	0	288358400	60	16339
2026-01-28 20:20:52.42	42.67	10.74	-51.3	-52.9	19.6	0.00e+00	0	46	0	300941312	60	16703
2026-01-28 20:20:56.44	43.32	10.91	-51.2	-53.0	19.5	0.00e+00	0	46	0	313524224	60	16944
2026-01-28 20:21:00.47	43.98	11.08	-50.9	-52.6	19.4	0.00e+00	0	47	0	326107136	60	16142
2026-01-28 20:21:04.49	44.65	11.24	-50.8	-52.4	19.7	0.00e+00	0	47	0	338690048	60	15932
2026-01-28 20:21:08.52	45.32	11.40	-51.0	-52.6	19.8	0.00e+00	0	47	0	351272960	60	16253
2026-01-28 20:21:12.54	46.00	11.56	-51.2	-52.9	19.2	0.00e+00	0	46	0	363855872	60	16704
2026-01-28 20:21:16.56	46.69	11.72	-51.2	-52.8	19.2	0.00e+00	0	46	0	376438784	60	16574
2026-01-28 20:21:20.58	47.39	11.87	-51.1	-52.6	19.3	0.00e+00	0	46	0	389021696	60	16226
2026-01-28 20:21:24.62	48.09	12.03	-51.3	-52.9	19.3	0.00e+00	0	47	0	401604608	60	16806
2026-01-28 20:21:28.64	48.80	12.18	-50.8	-52.4	19.6	0.00e+00	0	46	0	414187520	60	15901
2026-01-28 20:21:32.67	49.52	12.32	-50.9	-52.4	19.9	0.00e+00	0	47	0	426770432	60	15834
2026-01-28 20:21:36.70	50.24	12.46	-50.4	-52.4	19.0	0.00e+00	0	47	0	439353344	60	15777
2026-01-28 20:21:40.73	50.97	12.60	-50.3	-52.3	18.9	0.00e+00	0	46	0	451936256	60	15628
2026-01-28 20:21:44.76	51.71	12.74	-50.8	-52.3	19.8	0.00e+00	0	47	0	464519168	60	15729
2026-01-28 20:21:48.78	52.45	12.87	-50.7	-52.5	19.1	0.00e+00	0	46	0	477102080	60	16039
2026-01-28 20:21:52.82	53.20	13.00	-50.6	-52.3	19.9	0.00e+00	0	46	0	489684992	60	15597
2026-01-28 20:21:56.85	53.96	13.13	-50.5	-52.2	19.8	0.00e+00	0	47	0	502267904	60	15523
2026-01-28 20:22:00.88	54.72	13.25	-50.9	-52.5	19.7	0.00e+00	0	47	0	514850816	60	15968
2026-01-28 20:22:04.90	55.49	13.36	-50.7	-52.3	19.8	0.00e+00	0	47	0	527433728	60	15679
2026-01-28 20:22:08.93	56.27	13.48	-49.2	-52.4	17.4	0.00e+00	0	47	0	540016640	60	15941
2026-01-28 20:22:12.96	57.05	13.58	-50.3	-52.4	18.9	0.00e+00	0	47	0	552599552	60	15787
2026-01-28 20:22:16.98	57.83	13.69	-50.5	-52.1	20.0	0.00e+00	0	47	0	565182464	60	15320
2026-01-28 20:22:21.00	58.62	13.79	-50.7	-52.2	20.2	0.00e+00	0	47	0	577765376	60	15535
2026-01-28 20:22:25.03	59.42	13.88	-50.5	-52.2	20.3	0.00e+00	0	47	0	590348288	60	15522
2026-01-28 20:22:29.06	60.22	13.97	-49.3	-52.2	17.8	0.00e+00	0	47	0	602931200	60	15506
2026-01-28 20:22:33.09	61.03	14.06	-50.9	-52.6	19.6	0.00e+00	0	47	0	615514112	60	16173
2026-01-28 20:22:37.12	61.84	14.14	-50.8	-52.7	19.3	0.00e+00	0	47	0	628097024	60	16426
2026-01-28 20:22:41.14	62.65	14.21	-49.3	-52.8	16.6	0.00e+00	0	46	0	640679936	60	16519
2026-01-28 20:22:45.16	63.47	14.28	-51.3	-52.7	20.5	0.00e+00	0	47	0	653262848	60	16425
2026-01-28 20:22:49.19	64.29	14.35	-51.1	-53.0	18.9	0.00e+00	0	46	0	665845760	60	16993
2026-01-28 20:22:53.21	65.11	14.41	-51.2	-53.3	19.2	0.00e+00	0	47	0	678428672	60	17500
2026-01-28 20:22:57.23	65.94	14.46	-51.8	-53.5	19.9	0.00e+00	0	47	0	691011584	60	17935
2026-01-28 20:23:01.25	66.77	14.51	-52.3	-53.8	19.8	0.00e+00	0	46	0	703594496	60	18647
2026-01-28 20:23:05.28	67.61	14.55	-51.9	-53.6	19.6	0.00e+00	0	46	0	716177408	60	18191
2026-01-28 20:23:09.31	68.44	14.59	-51.6	-53.1	19.8	0.00e+00	0	47	0	728760320	60	17211
2026-01-28 20:23:13.34	69.28	14.62	-52.0	-53.5	20.1	0.00e+00	0	47	0	741343232	60	18094
2026-01-28 20:23:17.36	70.12	14.65	-52.1	-53.6	19.9	0.00e+00	0	47	0	753926144	60	18284
2026-01-28 20:23:21.39	70.96	14.67	-52.0	-53.6	20.0	0.00e+00	0	47	0	766509056	60	18163
2026-01-28 20:23:25.41	71.80	14.69	-52.2	-53.7	20.0	0.00e+00	0	47	0	779091968	60	18367
2026-01-28 20:23:29.44	72.65	14.70	-52.0	-53.8	19.8	0.00e+00	0	47	0	791674880	60	18553
2026-01-28 20:23:33.46	73.49	14.70	-51.7	-53.3	19.8	0.00e+00	0	47	0	804257792	60	17658
2026-01-28 20:23:37.49	74.33	14.70	-51.6	-53.2	20.3	0.00e+00	0	46	0	816840704	60	17317
2026-01-28 20:23:41.52	75.18	14.69	-51.8	-53.2	20.5	0.00e+00	0	47	0	829423616	60	17293
2026-01-28 20:23:45.53	76.02	14.68	-51.8	-53.4	20.3	0.00e+00	0	46	0	842006528	60	17705
2026-01-28 20:23:49.55	76.86	14.66	-51.8	-53.3	20.0	0.00e+00	0	47	0	854589440	60	17684
2026-01-28 20:23:53.57	77.70	14.63	-52.0	-53.5	20.0	0.00e+00	0	47	0	867172352	60	18003
2026-01-28 20:23:57.57	78.53	14.60	-52.1	-53.6	20.0	0.00e+00	0	47	0	879755264	60	18135
2026-01-28 20:24:01.59	79.37	14.57	-53.2	-54.8	19.9	0.00e+00	0	47	0	892338176	60	20830
2026-01-28 20:24:05.60	80.20	14.52	-53.2	-54.7	20.2	0.00e+00	0	47	0	904921088	60	20702
2026-01-28 20:24:09.62	81.03	14.48	-52.9	-54.6	19.8	0.00e+00	0	47	0	917504000	60	20419
2026-01-28 20:24:13.64	81.86	14.42	-52.9	-54.7	19.5	0.00e+00	0	47	0	930086912	60	20575
2026-01-28 20:24:17.66	82.69	14.37	-53.3	-54.8	20.1	0.00e+00	0	46	0	941621248	60	20964
2026-01-28 20:24:21.69	83.51	14.30	-53.3	-54.8	20.0	0.00e+00	0	47	0	955252736	60	20838
2026-01-28 20:24:25.73	84.34	14.23	-52.7	-54.4	19.9	0.00e+00	0	47	0	967835648	60	19906
2026-01-28 20:24:29.76	85.15	14.16	-52.2	-54.1	19.6	0.00e+00	0	47	0	979369984	60	19382
2026-01-28 20:24:33.79	85.97	14.08	-52.5	-54.0	20.4	0.00e+00	0	47	0	993001472	60	19117
2026-01-28 20:24:37.82	86.78	14.00	-52.5	-54.0	20.1	0.00e+00	0	46	0	1005584384	60	19155
2026-01-28 20:24:41.85	87.58	13.91	-52.3	-54.1	20.0	0.00e+00	0	47	0	1018167296	60	19181
2026-01-28 20:24:45.88	88.38	13.81	-52.4	-53.9	20.4	0.00e+00	0	47	0	1030750208	60	18838
2026-01-28 20:24:49.91	89.18	13.71	-52.5	-54.0	20.3	0.00e+00	0	47	0	1043333120	60	19057
2026-01-28 20:24:53.92	89.96	13.61	-52.3	-53.9	20.0	0.00e+00	0	47	0	1055916032	60	18906
2026-01-28 20:24:57.95	90.75	13.50	-52.5	-54.1	20.1	0.00e+00	0	47	0	1068498944	60	19233
2026-01-28 20:25:01.98	91.53	13.39	-52.4	-54.0	19.6	0.00e+00	0	47	0	1081081856	60	19109
2026-01-28 20:25:06.01	92.30	13.27	-52.3	-53.9	20.1	0.00e+00	0	47	0	1093664768	60	18757
2026-01-28 20:25:10.03	93.06	13.15	-52.2	-53.9	20.2	0.00e+00	0	47	0	1106247680	60	18804
2026-01-28 20:25:14.05	93.82	13.03	-52.0	-53.6	19.6	0.00e+00	0	46	0	1118830592	60	18300
2026-01-28 20:25:18.09	94.58	12.90	-52.3	-54.0	19.5	0.00e+00	0	47	0	1131413504	60	18972
2026-01-28 20:25:22.11	95.33	12.77	-52.2	-53.6	20.1	0.00e+00	0	47	0	1143996416	60	18300
2026-01-28 20:25:26.12	96.07	12.63	-52.1	-53.5	20.2	0.00e+00	0	47	0	1156579328	60	18094
2026-01-28 20:25:30.15	96.80	12.49	-52.0	-53.6	20.2	0.00e+00	0	47	0	1168113664	60	18143
2026-01-28 20:25:34.18	97.53	12.35	-52.1	-53.6	19.7	0.00e+00	0	47	0	1181745152	60	18262
2026-01-28 20:25:38.20	98.25	12.21	-52.0	-53.7	19.7	0.00e+00	0	47	0	1194328064	60	18475
2026-01-28 20:25:42.22	98.96	12.06	-51.9	-53.7	20.0	0.00e+00	0	47	0	1206910976	60	18502
2026-01-28 20:25:46.25	99.67	11.91	-52.0	-53.9	19.6	0.00e+00	0	47	0	1218445312	60	18801
2026-01-28 20:25:50.28	100.37	11.75	-52.1	-54.1	19.1	0.00e+00	0	47	0	1232076800	60	19244
2026-01-28 20:25:54.31	101.07	11.59	-51.7	-53.9	18.6	0.00e+00	0	47	0	1244659712	60	18905
2026-01-28 20:25:58.33	101.75	11.43	-51.9	-53.9	19.1	0.00e+00	0	46	0	1257242624	60	18758
2026-01-28 20:26:02.36	102.43	11.27	-52.3	-54.0	19.1	0.00e+00	0	47	0	1268776960	60	19144
2026-01-28 20:26:06.39	103.10	11.10	-52.2	-53.9	19.5	0.00e+00	0	46	0	1282408448	60	18906
2026-01-28 20:26:10.42	103.77	10.94	-52.2	-53.9	19.0	0.00e+00	0	47	0	1294991360	60	18954
2026-01-28 20:26:14.45	104.43	10.77	-52.1	-53.9	19.1	0.00e+00	0	47	0	1307574272	60	18799
2026-01-28 20:26:18.48	105.08	10.59	-52.2	-54.0	18.9	0.00e+00	0	47	0	1320157184	60	19062
2026-01-28 20:26:22.51	105.72	10.42	-51.8	-54.0	17.6	0.00e+00	0	47	0	1332740096	60	19087
2026-01-28 20:26:26.54	106.35	10.24	-51.8	-54.1	18.4	0.00e+00	0	47	0	1345323008	60	19360
2026-01-28 20:26:30.56	106.98	10.07	-51.8	-54.1	18.4	0.00e+00	0	47	0	1357905920	60	19305
2026-01-28 20:26:34.58	107.60	9.89	-51.7	-54.1	17.7	0.00e+00	0	47	0	1370488832	60	19385
2026-01-28 20:26:38.60	108.21	9.71	-51.9	-54.3	18.6	0.00e+00	0	47	0	1383071744	60	19737
2026-01-28 20:26:42.63	108.82	9.52	-52.3	-54.4	18.1	0.00e+00	0	47	0	1395654656	60	20058
2026-01-28 20:26:46.66	109.41	9.34	-52.4	-54.6	18.5	0.00e+00	0	47	0	1407188992	60	20411
2026-01-28 20:26:50.68	110.01	9.16	-51.1	-54.5	16.0	0.00e+00	0	47	0	1420820480	60	20209
2026-01-28 20:26:54.71	110.59	8.97	-50.7	-54.7	16.3	0.00e+00	0	46	0	1433403392	60	20676
2026-01-28 20:26:58.74	111.17	8.78	-51.2	-54.5	16.7	0.00e+00	0	47	0	1445986304	60	20132
2026-01-28 20:27:02.77	111.74	8.59	-51.1	-54.5	17.2	0.00e+00	0	47	0	1457520640	60	20287
2026-01-28 20:27:06.79	112.30	8.40	-51.8	-54.4	18.1	0.00e+00	0	47	0	1471152128	60	20074
2026-01-28 20:27:10.82	112.85	8.21	-52.0	-54.4	18.3	0.00e+00	0	47	0	1483735040	60	19901
2026-01-28 20:27:14.85	113.40	8.02	-52.1	-54.5	18.4	0.00e+00	0	47	0	1496317952	60	20117
2026-01-28 20:27:18.87	113.94	7.83	-52.6	-54.5	18.4	0.00e+00	0	47	0	1507852288	60	20165
2026-01-28 20:27:22.89	114.48	7.64	-52.5	-54.5	18.3	0.00e+00	0	47	0	1521483776	60	20122
2026-01-28 20:27:26.91	115.01	7.44	-52.1	-54.4	17.2	0.00e+00	0	47	0	1534066688	60	19930
2026-01-28 20:27:30.94	115.53	7.25	-52.2	-54.6	17.3	0.00e+00	0	47	0	1546649600	60	20342
2026-01-28 20:27:34.97	116.04	7.06	-52.4	-54.9	17.1	0.00e+00	0	46	0	1558183936	60	21143
2026-01-28 20:27:38.98	116.55	6.86	-52.4	-55.0	16.0	0.00e+00	0	47	0	1571815424	60	21293
2026-01-28 20:27:43.00	117.05	6.67	-52.5	-55.1	16.5	0.00e+00	0	47	0	1584398336	60	21692
2026-01-28 20:27:47.03	117.55	6.47	-52.9	-55.3	17.3	0.00e+00	0	47	0	1595932672	60	22082
2026-01-28 20:27:51.05	118.03	6.28	-52.9	-55.5	16.6	0.00e+00	0	47	0	1608515584	60	22648
2026-01-28 20:27:55.06	118.51	6.08	-52.7	-55.5	16.2	0.00e+00	0	47	0	1621098496	60	22687
2026-01-28 20:27:59.09	118.99	5.89	-60.2	-74.6	3.5	1.52e+00	0	47	104	1627389952	60	205012
2026-01-28 20:28:03.12	119.46	5.69	-61.6	-75.6	3.5	1.52e+00	0	47	104	1627389952	60	229028
2026-01-28 20:28:07.14	119.93	5.49	-62.7	-76.7	3.5	1.51e+00	0	47	104	1627389952	60	259213
2026-01-28 20:28:11.16	120.38	5.30	-60.9	-76.6	3.5	1.51e+00	0	47	104	1627389952	60	258000
2026-01-28 20:28:15.18	120.84	5.10	-60.4	-75.9	3.5	1.52e+00	0	47	104	1627389952	60	237703
2026-01-28 20:28:19.20	121.28	4.90	-60.3	-75.6	3.6	1.51e+00	0	47	104	1627389952	60	228774
2026-01-28 20:28:23.22	121.72	4.71	-60.3	-75.8	3.5	1.52e+00	0	47	104	1627389952	60	234336
2026-01-28 20:28:27.25	122.16	4.51	-60.3	-75.7	3.6	1.51e+00	0	46	104	1627389952	60	231654
2026-01-28 20:28:31.27	122.59	4.32	-60.4	-75.8	3.5	1.51e+00	0	47	104	1627389952	60	235232
2026-01-28 20:28:35.30	123.01	4.12	-60.5	-75.8	3.6	1.52e+00	0	47	104	1627389952	60	234926
2026-01-28 20:28:39.33	123.43	3.92	-60.4	-75.8	3.5	1.52e+00	0	47	104	1627389952	60	234693
2026-01-28 20:28:43.36	123.85	3.73	-60.3	-75.5	3.6	1.51e+00	0	47	104	1627389952	60	226408
2026-01-28 20:28:47.39	124.26	3.53	-60.2	-75.5	3.5	1.52e+00	0	47	104	1627389952	60	226403
2026-01-28 20:28:51.41	124.66	3.34	-60.2	-75.7	3.5	1.52e+00	0	47	104	1627389952	60	232784
2026-01-28 20:28:55.44	125.06	3.14	-60.1	-75.5	3.5	1.51e+00	0	47	104	1627389952	60	226025
2026-01-28 20:28:59.47	125.45	2.95	-60.3	-75.5	3.5	1.51e+00	0	47	104	1627389952	60	227013
2026-01-28 20:29:03.50	125.84	2.75	-60.3	-75.4	3.6	1.51e+00	0	47	104	1627389952	60	225248
2026-01-28 20:29:07.52	126.23	2.56	-60.1	-75.5	3.5	1.52e+00	0	47	104	1627389952	60	225673
2026-01-28 20:29:11.55	126.60	2.37	-60.2	-75.4	3.5	1.52e+00	0	47	104	1627389952	60	224737
2026-01-28 20:29:15.57	126.98	2.17	-60.2	-75.4	3.6	1.52e+00	0	47	104	1627389952	60	224535
2026-01-28 20:29:19.60	127.35	1.98	-60.1	-75.4	3.6	1.52e+00	0	47	104	1627389952	60	224432
2026-01-28 20:29:23.62	127.71	1.79	-60.1	-75.4	3.5	1.52e+00	0	47	104	1627389952	60	223748
2026-01-28 20:29:27.66	128.07	1.59	-60.0	-75.2	3.5	1.51e+00	0	47	104	1627389952	60	218160
2026-01-28 20:29:31.69	128.43	1.40	-60.0	-75.3	3.6	1.51e+00	0	47	104	1627389952	60	222312
2026-01-28 20:29:35.71	128.78	1.21	-60.0	-75.3	3.5	1.52e+00	0	47	104	1627389952	60	220217
2026-01-28 20:29:39.74	129.13	1.02	-59.9	-75.3	3.5	1.51e+00	0	47	104	1627389952	60	220964
2026-01-28 20:29:43.77	129.47	0.83	-59.9	-75.2	3.5	1.52e+00	0	47	104	1627389952	60	218327
2026-01-28 20:29:47.81	129.81	0.64	-59.7	-75.2	3.5	1.51e+00	0	47	104	1627389952	60	219238
2026-01-28 20:29:51.83	130.15	0.45	-59.9	-75.2	3.5	1.52e+00	0	47	104	1627389952	60	218428
2026-01-28 20:29:55.85	130.48	0.26	-60.0	-75.2	3.5	1.52e+00	0	47	104	1627389952	60	219508
2026-01-28 20:29:59.89	130.81	0.07	-60.1	-75.1	3.5	1.52e+00	0	47	104	1627389952	60	217492

#Closed at: 2026-01-28 20:30:02
#Recorded file [1627 MB]: D:/Data/35015_260128_232756.dat