passes_logs/2026/01/28/R3.2S-Naryan-Mar/R3.2S-Naryan-Mar__20260128_142052_TY-40_rec.log

#Pass ID: 20260128_142052_TY-40
#Satellite: TY-40
#Configuration: TY-39
#almurnet v.1.7.20240730
#Start time: 2026-01-28 14:20:55

#Version: 2.2.20231116
#Station: R3.2S-Naryan-Mar
#Location: 53.008057 lon 67.646978 lat
#TLE: 1 56846U 23081A   26027.86322491  .00005171  00000-0  23026-3 0  9995
#TLE: 2 56846  97.3872 100.5479 0001461  75.1546 284.9852 15.21887283146669

#Time	Az	El	Level	Level2	SNR	BER	BlckErr	Temp	State	Recorded	gain1	gain2
2026-01-28 14:20:55.48	80.65	0.13	-55.9	-59.3	3.3	0.00e+00	0	45	0	0	60	108636
2026-01-28 14:20:58.49	80.35	0.29	-55.9	-60.0	3.6	0.00e+00	0	45	104	0	60	118562
2026-01-28 14:21:01.51	80.05	0.45	-55.5	-59.6	3.6	0.00e+00	0	45	104	0	60	112505
2026-01-28 14:21:04.52	79.75	0.61	-54.9	-58.8	3.6	0.00e+00	0	46	104	0	60	103327
2026-01-28 14:21:07.54	79.44	0.78	-57.0	-60.6	3.6	0.00e+00	0	45	104	0	60	127324
2026-01-28 14:21:10.57	79.12	0.94	-54.9	-58.7	3.6	0.00e+00	0	46	104	0	60	102268
2026-01-28 14:21:13.59	78.80	1.10	-56.0	-59.9	3.6	0.00e+00	0	46	104	0	60	116803
2026-01-28 14:21:16.60	78.48	1.26	-55.5	-58.7	3.6	0.00e+00	0	46	104	0	60	102183
2026-01-28 14:21:19.62	78.15	1.43	-51.1	-54.6	3.6	0.00e+00	0	46	104	0	60	63869
2026-01-28 14:21:22.65	77.82	1.59	-51.1	-54.7	3.6	0.00e+00	0	46	104	0	60	64419
2026-01-28 14:21:25.67	77.48	1.75	-51.0	-54.7	3.6	0.00e+00	0	46	104	0	60	63966
2026-01-28 14:21:28.68	77.14	1.92	-51.0	-54.6	3.5	0.00e+00	0	46	104	0	60	63503
2026-01-28 14:21:31.70	76.79	2.08	-51.0	-54.6	3.5	0.00e+00	0	46	104	0	60	63665
2026-01-28 14:21:34.72	76.44	2.25	-51.0	-54.6	3.6	0.00e+00	0	46	104	0	60	63236
2026-01-28 14:21:37.74	76.08	2.42	-51.0	-54.6	3.6	0.00e+00	0	46	104	0	60	63677
2026-01-28 14:21:40.76	75.72	2.58	-50.9	-54.5	3.6	0.00e+00	0	46	104	0	60	62617
2026-01-28 14:21:43.78	75.35	2.75	-50.9	-54.5	3.6	0.00e+00	0	46	104	0	60	62808
2026-01-28 14:21:46.79	74.98	2.92	-50.9	-54.5	3.6	0.00e+00	0	46	104	0	60	62735
2026-01-28 14:21:49.81	74.60	3.08	-51.0	-54.6	3.6	0.00e+00	0	46	104	0	60	63572
2026-01-28 14:21:52.84	74.21	3.25	-51.0	-54.5	3.6	0.00e+00	0	46	104	0	60	62684
2026-01-28 14:21:55.85	73.82	3.42	-51.1	-54.7	3.6	0.00e+00	0	47	104	0	60	64057
2026-01-28 14:21:58.88	73.42	3.59	-51.1	-54.6	3.6	0.00e+00	0	47	104	0	60	63826
2026-01-28 14:22:01.90	73.02	3.76	-51.1	-54.7	3.6	0.00e+00	0	47	104	0	60	64425
2026-01-28 14:22:04.92	72.61	3.93	-51.1	-54.6	3.6	0.00e+00	0	47	104	0	60	63814
2026-01-28 14:22:07.93	72.19	4.10	-51.0	-54.6	3.6	0.00e+00	0	47	104	0	60	63808
2026-01-28 14:22:10.95	71.77	4.27	-51.1	-54.7	3.6	0.00e+00	0	47	104	0	60	64602
2026-01-28 14:22:13.97	71.34	4.44	-51.2	-54.8	3.6	0.00e+00	0	47	104	0	60	64799
2026-01-28 14:22:17.00	70.91	4.61	-51.2	-54.9	3.6	0.00e+00	0	47	104	0	60	65661
2026-01-28 14:22:20.02	70.47	4.78	-51.3	-54.9	3.6	0.00e+00	0	47	104	0	60	65730
2026-01-28 14:22:23.04	70.02	4.95	-51.2	-54.9	3.5	0.00e+00	0	47	104	0	60	65671
2026-01-28 14:22:26.05	69.57	5.12	-51.3	-55.0	3.6	0.00e+00	0	47	104	0	60	66177
2026-01-28 14:22:29.08	69.10	5.29	-51.4	-54.9	3.6	0.00e+00	0	47	104	0	60	66132
2026-01-28 14:22:32.10	68.63	5.46	-51.3	-54.9	3.6	0.00e+00	0	47	104	0	60	66115
2026-01-28 14:22:35.13	68.16	5.63	-51.4	-54.9	3.6	0.00e+00	0	47	104	0	60	65682
2026-01-28 14:22:38.15	67.67	5.80	-51.4	-55.0	3.6	0.00e+00	0	47	104	0	60	66185
2026-01-28 14:22:41.16	67.18	5.97	-51.3	-54.9	3.6	0.00e+00	0	47	104	0	60	65989
2026-01-28 14:22:44.19	66.68	6.14	-54.6	-57.7	3.5	0.00e+00	0	47	104	0	60	90778
2026-01-28 14:22:47.21	66.18	6.31	-53.5	-56.7	3.6	0.00e+00	0	47	104	0	60	80672
2026-01-28 14:22:50.23	65.67	6.48	-53.0	-56.4	3.6	0.00e+00	0	47	104	0	60	78298
2026-01-28 14:22:53.26	65.14	6.65	-53.2	-56.9	3.6	0.00e+00	0	47	104	0	60	82969
2026-01-28 14:22:56.26	64.62	6.82	-52.3	-56.9	3.6	0.00e+00	0	47	104	0	60	82997
2026-01-28 14:22:59.28	64.08	6.99	-53.5	-57.4	3.5	0.00e+00	0	47	104	0	60	87933
2026-01-28 14:23:02.30	63.54	7.15	-50.1	-55.0	3.6	0.00e+00	0	47	104	0	60	66523
2026-01-28 14:23:05.33	62.98	7.32	-51.5	-55.6	3.6	0.00e+00	0	47	104	0	60	71279
2026-01-28 14:23:08.35	62.42	7.49	-49.1	-53.9	3.6	0.00e+00	0	47	104	0	60	58767
2026-01-28 14:23:11.37	61.86	7.65	-51.3	-55.1	3.6	0.00e+00	0	47	104	0	60	67568
2026-01-28 14:23:14.38	61.28	7.82	-49.0	-52.4	3.6	0.00e+00	0	47	104	0	60	49434
2026-01-28 14:23:17.40	60.70	7.98	-48.1	-52.2	3.6	0.00e+00	0	47	104	0	60	48304
2026-01-28 14:23:20.43	60.10	8.15	-46.0	-50.6	3.6	0.00e+00	0	47	104	0	60	40071
2026-01-28 14:23:23.45	59.50	8.31	-49.4	-53.0	3.6	0.00e+00	0	48	104	0	60	52806
2026-01-28 14:23:26.47	58.89	8.47	-45.2	-49.2	3.6	0.00e+00	0	47	104	0	60	34308
2026-01-28 14:23:29.48	58.27	8.63	-44.9	-47.5	3.6	0.00e+00	0	48	104	0	60	28113
2026-01-28 14:23:32.50	57.65	8.79	-49.1	-51.2	3.6	0.00e+00	0	48	104	0	60	43149
2026-01-28 14:23:35.52	57.01	8.94	-45.0	-47.9	3.6	0.00e+00	0	47	104	0	60	29383
2026-01-28 14:23:38.54	56.37	9.10	-45.1	-48.3	3.6	0.00e+00	0	48	104	0	60	30733
2026-01-28 14:23:41.56	55.72	9.25	-45.0	-48.5	3.6	0.00e+00	0	48	104	0	60	31427
2026-01-28 14:23:44.57	55.06	9.40	-44.9	-48.6	3.6	0.00e+00	0	48	104	0	60	31905
2026-01-28 14:23:47.58	54.39	9.55	-51.2	-55.2	3.6	0.00e+00	0	48	104	0	60	68230
2026-01-28 14:23:50.61	53.71	9.70	-48.6	-52.0	3.5	0.00e+00	0	48	104	0	60	47344
2026-01-28 14:23:53.63	53.02	9.85	-47.1	-50.2	3.5	0.00e+00	0	48	104	0	60	38401
2026-01-28 14:23:56.64	52.33	9.99	-50.2	-53.5	3.6	0.00e+00	0	48	104	0	60	56202
2026-01-28 14:23:59.64	51.63	10.13	-49.9	-52.7	3.6	0.00e+00	0	48	104	0	60	51232
2026-01-28 14:24:02.66	50.92	10.27	-50.7	-53.2	3.6	0.00e+00	0	48	104	0	60	53896
2026-01-28 14:24:05.68	50.20	10.40	-48.1	-49.8	3.6	0.00e+00	0	48	104	0	60	36423
2026-01-28 14:24:08.70	49.47	10.54	-49.7	-51.6	3.6	0.00e+00	0	48	104	0	60	44900
2026-01-28 14:24:11.72	48.73	10.67	-50.7	-54.2	3.6	0.00e+00	0	48	104	0	60	60905
2026-01-28 14:24:14.73	47.99	10.79	-50.1	-53.9	3.6	0.00e+00	0	48	104	0	60	58584
2026-01-28 14:24:17.74	47.24	10.92	-51.8	-55.5	3.6	0.00e+00	0	48	104	0	60	70780
2026-01-28 14:24:20.76	46.48	11.04	-52.2	-55.9	3.6	0.00e+00	0	48	104	0	60	73753
2026-01-28 14:24:23.78	45.71	11.16	-50.9	-54.0	3.6	0.00e+00	0	48	104	0	60	59528
2026-01-28 14:24:26.80	44.94	11.27	-53.1	-56.5	3.6	0.00e+00	0	48	104	0	60	79017
2026-01-28 14:24:29.83	44.15	11.38	-55.0	-58.1	3.6	0.00e+00	0	48	104	0	60	94597
2026-01-28 14:24:32.85	43.36	11.49	-54.0	-57.4	3.6	0.00e+00	0	48	104	0	60	87381
2026-01-28 14:24:35.86	42.57	11.59	-53.8	-57.8	3.6	0.00e+00	0	48	104	0	60	91685
2026-01-28 14:24:38.88	41.77	11.69	-51.9	-55.2	3.6	0.00e+00	0	48	104	0	60	68030
2026-01-28 14:24:41.90	40.96	11.78	-54.3	-57.8	3.6	0.00e+00	0	48	104	0	60	92178
2026-01-28 14:24:44.92	40.14	11.87	-53.9	-57.5	3.6	0.00e+00	0	48	104	0	60	89098
2026-01-28 14:24:47.94	39.32	11.96	-52.4	-54.9	3.6	0.00e+00	0	47	104	0	60	66118
2026-01-28 14:24:50.96	38.49	12.04	-54.1	-57.8	3.6	0.00e+00	0	48	104	0	60	91635
2026-01-28 14:24:53.98	37.66	12.11	-53.3	-56.4	3.6	0.00e+00	0	48	104	0	60	77867
2026-01-28 14:24:57.00	36.82	12.18	-52.5	-56.6	3.6	0.00e+00	0	48	104	0	60	80154
2026-01-28 14:25:00.01	35.98	12.25	-53.8	-58.3	3.6	0.00e+00	0	48	104	0	60	97690
2026-01-28 14:25:03.04	35.13	12.31	-54.4	-58.4	3.6	0.00e+00	0	48	104	0	60	98887
2026-01-28 14:25:06.05	34.29	12.37	-54.0	-57.1	3.6	0.00e+00	0	47	104	0	60	84684
2026-01-28 14:25:09.06	33.43	12.42	-54.3	-58.9	3.6	0.00e+00	0	48	104	0	60	103963
2026-01-28 14:25:12.07	32.58	12.46	-55.3	-58.4	3.6	0.00e+00	0	48	104	0	60	98903
2026-01-28 14:25:15.09	31.72	12.50	-53.6	-57.9	3.6	0.00e+00	0	48	104	0	60	93023
2026-01-28 14:25:18.11	30.86	12.54	-52.1	-56.2	3.6	0.00e+00	0	48	104	0	60	76389
2026-01-28 14:25:21.12	29.99	12.57	-52.7	-56.2	3.5	0.00e+00	0	48	104	0	60	76292
2026-01-28 14:25:24.14	29.12	12.59	-54.3	-57.8	3.6	0.00e+00	0	48	104	0	60	92140
2026-01-28 14:25:27.14	28.26	12.61	-52.8	-57.0	3.6	0.00e+00	0	48	104	0	60	84209
2026-01-28 14:25:30.16	27.39	12.63	-51.4	-55.4	3.6	0.00e+00	0	48	104	0	60	69932
2026-01-28 14:25:33.17	26.52	12.63	-51.5	-56.7	3.6	0.00e+00	0	48	104	0	60	80943
2026-01-28 14:25:36.18	25.65	12.64	-50.2	-54.6	3.5	0.00e+00	0	48	104	0	60	63699
2026-01-28 14:25:39.19	24.79	12.63	-50.1	-53.3	3.6	0.00e+00	0	48	104	0	60	54589
2026-01-28 14:25:42.21	23.91	12.62	-50.8	-54.5	3.6	0.00e+00	0	48	104	0	60	62755
2026-01-28 14:25:45.20	23.05	12.61	-50.4	-54.2	3.6	0.00e+00	0	48	104	0	60	60517
2026-01-28 14:25:48.21	22.19	12.59	-48.6	-54.1	3.6	0.00e+00	0	48	104	0	60	59686
2026-01-28 14:25:51.23	21.32	12.56	-46.9	-52.5	3.5	0.00e+00	0	48	104	0	60	50153
2026-01-28 14:25:54.25	20.45	12.53	-50.7	-54.6	3.6	0.00e+00	0	48	104	0	60	63623
2026-01-28 14:25:57.25	19.60	12.50	-50.5	-54.0	3.6	0.00e+00	0	48	104	0	60	59078
2026-01-28 14:26:00.27	18.74	12.45	-49.8	-55.4	3.6	0.00e+00	0	48	104	0	60	69641
2026-01-28 14:26:03.28	17.88	12.41	-50.6	-54.5	3.6	0.00e+00	0	48	104	0	60	62467
2026-01-28 14:26:06.31	17.03	12.36	-48.5	-54.3	3.6	0.00e+00	0	48	104	0	60	61628
2026-01-28 14:26:09.33	16.18	12.30	-49.2	-54.7	3.6	0.00e+00	0	48	104	0	60	64192
2026-01-28 14:26:12.34	15.34	12.24	-53.0	-57.1	3.6	0.00e+00	0	48	104	0	60	84377
2026-01-28 14:26:15.35	14.50	12.17	-50.4	-56.1	3.6	0.00e+00	0	48	104	0	60	75283
2026-01-28 14:26:18.37	13.66	12.10	-51.5	-56.8	3.6	0.00e+00	0	48	104	0	60	81564
2026-01-28 14:26:21.39	12.83	12.02	-51.1	-56.2	3.6	0.00e+00	0	48	104	0	60	76164
2026-01-28 14:26:24.42	12.01	11.94	-51.9	-56.0	3.6	0.00e+00	0	48	104	0	60	74383
2026-01-28 14:26:27.44	11.19	11.85	-52.3	-56.8	3.6	0.00e+00	0	48	104	0	60	81883
2026-01-28 14:26:30.46	10.37	11.76	-51.9	-56.9	3.6	0.00e+00	0	48	104	0	60	82545
2026-01-28 14:26:33.48	9.57	11.67	-52.5	-56.9	3.6	0.00e+00	0	48	104	0	60	83243
2026-01-28 14:26:36.49	8.77	11.57	-51.6	-56.9	3.6	0.00e+00	0	48	104	0	60	82837
2026-01-28 14:26:39.51	7.98	11.47	-50.2	-56.1	3.6	0.00e+00	0	48	104	0	60	75708
2026-01-28 14:26:42.54	7.19	11.36	-54.1	-58.3	3.6	0.00e+00	0	48	104	0	60	96887
2026-01-28 14:26:45.56	6.41	11.25	-54.2	-58.1	3.6	0.00e+00	0	48	104	0	60	95158
2026-01-28 14:26:48.57	5.64	11.13	-53.5	-57.9	3.5	0.00e+00	0	48	104	0	60	92471
2026-01-28 14:26:51.59	4.87	11.02	-53.6	-58.6	3.6	0.00e+00	0	48	104	0	60	100297
2026-01-28 14:26:54.61	4.12	10.89	-53.8	-58.0	3.6	0.00e+00	0	48	104	0	60	94436
2026-01-28 14:26:57.64	3.36	10.77	-54.7	-58.3	3.6	0.00e+00	0	48	104	0	60	97531
2026-01-28 14:27:00.66	2.62	10.64	-55.3	-59.0	3.6	0.00e+00	0	48	104	0	60	105455
2026-01-28 14:27:03.68	1.89	10.51	-54.5	-58.0	3.6	0.00e+00	0	48	104	0	60	94404
2026-01-28 14:27:06.69	1.17	10.38	-52.3	-57.0	3.6	0.00e+00	0	48	104	0	60	83379
2026-01-28 14:27:09.71	0.45	10.24	-54.4	-58.3	3.6	0.00e+00	0	48	104	0	60	97343
2026-01-28 14:27:12.73	359.74	10.10	-53.1	-57.5	3.6	0.00e+00	0	48	104	0	60	89188
2026-01-28 14:27:15.75	359.04	9.96	-53.0	-57.4	3.6	0.00e+00	0	48	104	0	60	88020
2026-01-28 14:27:18.77	358.35	9.82	-53.6	-57.5	3.6	0.00e+00	0	48	104	0	60	89124
2026-01-28 14:27:21.79	357.67	9.67	-53.5	-57.5	3.6	0.00e+00	0	48	104	0	60	88418
2026-01-28 14:27:24.81	356.99	9.53	-53.6	-57.7	3.6	0.00e+00	0	48	104	0	60	90714
2026-01-28 14:27:27.82	356.33	9.38	-52.6	-57.4	3.6	0.00e+00	0	48	104	0	60	88210
2026-01-28 14:27:30.85	355.67	9.22	-53.1	-57.4	3.6	0.00e+00	0	48	104	0	60	88006
2026-01-28 14:27:33.87	355.02	9.07	-53.0	-57.5	3.6	0.00e+00	0	48	104	0	60	88527
2026-01-28 14:27:36.88	354.38	8.92	-52.5	-57.6	3.6	0.00e+00	0	48	104	0	60	89282
2026-01-28 14:27:39.90	353.75	8.76	-52.7	-57.5	3.6	0.00e+00	0	48	104	0	60	88560
2026-01-28 14:27:42.91	353.13	8.60	-54.0	-57.8	3.6	0.00e+00	0	48	104	0	60	92314
2026-01-28 14:27:45.93	352.52	8.44	-52.9	-57.5	3.6	0.00e+00	0	48	104	0	60	89168
2026-01-28 14:27:48.95	351.91	8.28	-53.0	-57.7	3.6	0.00e+00	0	48	104	0	60	90869
2026-01-28 14:27:51.98	351.31	8.12	-52.1	-57.5	3.6	0.00e+00	0	48	104	0	60	88463
2026-01-28 14:27:55.00	350.72	7.96	-47.7	-54.9	3.6	0.00e+00	0	48	104	0	60	65694
2026-01-28 14:27:58.01	350.14	7.79	-47.8	-54.9	3.6	0.00e+00	0	48	104	0	60	66134
2026-01-28 14:28:01.03	349.57	7.63	-47.0	-54.3	3.6	0.00e+00	0	48	104	0	60	61438
2026-01-28 14:28:04.05	349.01	7.46	-53.3	-57.6	3.6	0.00e+00	0	48	104	0	60	89354
2026-01-28 14:28:07.08	348.45	7.29	-45.8	-53.5	3.6	0.00e+00	0	48	104	0	60	55669
2026-01-28 14:28:10.09	347.90	7.13	-45.5	-53.1	3.6	0.00e+00	0	48	104	0	60	53436
2026-01-28 14:28:13.11	347.36	6.96	-46.7	-53.9	3.6	0.00e+00	0	48	104	0	60	58743
2026-01-28 14:28:16.12	346.83	6.79	-46.7	-53.9	3.6	0.00e+00	0	48	104	0	60	58426
2026-01-28 14:28:19.13	346.31	6.63	-53.5	-57.3	3.6	0.00e+00	0	48	104	0	60	86721
2026-01-28 14:28:22.16	345.79	6.46	-51.9	-57.1	3.6	0.00e+00	0	48	104	0	60	84933
2026-01-28 14:28:25.17	345.28	6.29	-47.5	-54.4	3.6	0.00e+00	0	48	104	0	60	61938
2026-01-28 14:28:28.19	344.78	6.12	-48.3	-55.2	3.6	0.00e+00	0	48	104	0	60	67861
2026-01-28 14:28:31.21	344.28	5.95	-52.9	-57.7	3.6	0.00e+00	0	48	104	0	60	90781
2026-01-28 14:28:34.23	343.80	5.78	-55.9	-59.8	3.6	0.00e+00	0	48	104	0	60	115238
2026-01-28 14:28:37.26	343.32	5.61	-56.1	-60.0	3.6	0.00e+00	0	48	104	0	60	118285
2026-01-28 14:28:40.28	342.84	5.44	-57.0	-60.7	3.6	0.00e+00	0	48	104	0	60	127557
2026-01-28 14:28:43.30	342.38	5.27	-56.8	-60.4	3.6	0.00e+00	0	48	104	0	60	124152
2026-01-28 14:28:46.31	341.92	5.10	-57.8	-61.4	3.6	0.00e+00	0	48	104	0	60	139698
2026-01-28 14:28:49.32	341.47	4.93	-56.3	-60.4	3.6	0.00e+00	0	48	104	0	60	123893
2026-01-28 14:28:52.33	341.03	4.76	-56.4	-60.5	3.6	0.00e+00	0	48	104	0	60	125846
2026-01-28 14:28:55.36	340.59	4.59	-56.4	-60.6	3.6	0.00e+00	0	48	104	0	60	126459
2026-01-28 14:28:58.37	340.16	4.42	-56.4	-60.5	3.6	0.00e+00	0	48	104	0	60	125428
2026-01-28 14:29:01.39	339.73	4.25	-56.4	-60.5	3.6	0.00e+00	0	48	104	0	60	125051
2026-01-28 14:29:04.41	339.31	4.08	-56.4	-60.6	3.6	0.00e+00	0	48	104	0	60	126172
2026-01-28 14:29:07.43	338.90	3.91	-56.4	-60.6	3.6	0.00e+00	0	48	104	0	60	126971
2026-01-28 14:29:10.45	338.49	3.74	-56.4	-60.6	3.6	0.00e+00	0	48	104	0	60	126720
2026-01-28 14:29:13.47	338.09	3.57	-56.4	-60.6	3.6	0.00e+00	0	48	104	0	60	126686
2026-01-28 14:29:16.49	337.70	3.41	-56.4	-60.5	3.6	0.00e+00	0	48	104	0	60	126029
2026-01-28 14:29:19.50	337.31	3.24	-56.4	-60.6	3.6	0.00e+00	0	48	104	0	60	126487
2026-01-28 14:29:22.52	336.93	3.07	-56.3	-60.5	3.6	0.00e+00	0	48	104	0	60	125532
2026-01-28 14:29:25.55	336.55	2.90	-56.4	-60.5	3.6	0.00e+00	0	48	104	0	60	125543
2026-01-28 14:29:28.56	336.18	2.74	-56.4	-60.5	3.6	0.00e+00	0	48	104	0	60	125642
2026-01-28 14:29:31.57	335.82	2.57	-56.4	-60.5	3.6	0.00e+00	0	48	104	0	60	125880
2026-01-28 14:29:34.59	335.46	2.40	-56.4	-60.5	3.6	0.00e+00	0	48	104	0	60	124792
2026-01-28 14:29:37.59	335.10	2.24	-56.4	-60.5	3.6	0.00e+00	0	48	104	0	60	124946
2026-01-28 14:29:40.61	334.75	2.08	-56.4	-60.6	3.6	0.00e+00	0	48	104	0	60	126479
2026-01-28 14:29:43.64	334.41	1.91	-56.4	-60.5	3.6	0.00e+00	0	48	104	0	60	125537
2026-01-28 14:29:46.66	334.07	1.75	-56.4	-60.5	3.6	0.00e+00	0	48	104	0	60	125021
2026-01-28 14:29:49.67	333.73	1.58	-56.4	-60.5	3.6	0.00e+00	0	48	104	0	60	125953
2026-01-28 14:29:52.69	333.40	1.42	-56.4	-60.6	3.6	0.00e+00	0	48	104	0	60	126140
2026-01-28 14:29:55.71	333.08	1.26	-56.3	-60.5	3.6	0.00e+00	0	48	104	0	60	125308
2026-01-28 14:29:58.74	332.76	1.09	-56.3	-60.4	3.6	0.00e+00	0	48	104	0	60	124608
2026-01-28 14:30:01.76	332.44	0.93	-56.3	-60.5	3.6	0.00e+00	0	48	104	0	60	124707
2026-01-28 14:30:04.78	332.13	0.77	-56.2	-60.4	3.5	0.00e+00	0	48	104	0	60	123452
2026-01-28 14:30:07.80	331.82	0.61	-56.3	-60.4	3.6	0.00e+00	0	48	104	0	60	123976
2026-01-28 14:30:10.81	331.52	0.45	-56.2	-60.4	3.6	0.00e+00	0	48	104	0	60	124513
2026-01-28 14:30:13.83	331.22	0.29	-56.2	-60.4	3.6	0.00e+00	0	48	104	0	60	123514
2026-01-28 14:30:16.85	330.93	0.13	-56.2	-60.4	3.6	0.00e+00	0	48	104	0	60	123862
2026-01-28 14:30:19.87	330.64	-0.03	-56.2	-60.3	3.6	0.00e+00	0	48	104	0	60	122774

#Closed at: 2026-01-28 14:30:21
#Recorded file [0 MB]: D:/Data/35015_260128_172949.dat