passes_logs/2026/01/28/R3.2S-Naryan-Mar/R3.2S-Naryan-Mar__20260128_080055_FENGYUN_3D_rec.log

#Pass ID: 20260128_080055_FENGYUN 3D
#Satellite: FENGYUN 3D
#Configuration: FENGYUN 3D
#almurnet v.1.7.20240730
#Start time: 2026-01-28 08:03:42

#Version: 2.2.20231116
#Station: R3.2S-Naryan-Mar
#Location: 53.008057 lon 67.646978 lat
#TLE: 1 43010U 17072A   26027.90082829  .00000305  00000+0  16579-3 0  9998
#TLE: 2 43010  98.9960 359.9183 0002511  88.1058 272.0405 14.19701796425082

#Time	Az	El	Level	Level2	SNR	BER	BlckErr	Temp	State	Recorded	gain1	gain2
2026-01-28 08:03:42.84	89.18	11.00	-83.1	-79.0	2.5	0.00e+00	0	44	0	0	60	1048573
2026-01-28 08:03:45.87	88.88	11.24	-62.4	-75.8	3.6	8.45e-01	0	45	104	0	60	241181
2026-01-28 08:03:48.88	88.58	11.47	-62.0	-75.3	3.6	8.45e-01	0	45	104	0	60	227441
2026-01-28 08:03:51.88	88.28	11.70	-61.6	-75.2	3.6	8.45e-01	0	45	104	0	60	226674
2026-01-28 08:03:54.89	87.97	11.94	-61.6	-74.9	3.6	8.45e-01	0	45	104	0	60	218690
2026-01-28 08:03:57.89	87.65	12.18	-60.9	-74.5	3.6	8.44e-01	0	45	104	0	60	208680
2026-01-28 08:04:00.90	87.33	12.42	-60.7	-74.3	3.6	8.45e-01	0	46	104	0	60	202710
2026-01-28 08:04:03.91	87.00	12.66	-60.6	-74.2	3.6	8.44e-01	0	46	104	0	60	201598
2026-01-28 08:04:06.92	86.67	12.91	-60.6	-73.9	3.6	8.44e-01	0	45	104	0	60	194293
2026-01-28 08:04:09.92	86.33	13.15	-60.5	-73.7	3.6	8.45e-01	0	46	104	0	60	189126
2026-01-28 08:04:12.94	85.99	13.40	-60.5	-73.8	3.6	8.45e-01	0	45	104	0	60	192947
2026-01-28 08:04:15.96	85.63	13.64	-60.5	-73.9	3.6	8.45e-01	0	45	104	0	60	194677
2026-01-28 08:04:18.99	85.28	13.89	-60.4	-73.0	3.6	8.45e-01	0	46	104	0	60	175924
2026-01-28 08:04:22.01	84.91	14.15	-60.5	-73.9	3.6	8.46e-01	0	46	104	0	60	194329
2026-01-28 08:04:25.02	84.54	14.40	-60.4	-74.0	3.6	8.46e-01	0	46	104	0	60	196879
2026-01-28 08:04:28.03	84.17	14.65	-60.1	-70.2	4.2	8.37e-01	0	46	104	0	60	126852
2026-01-28 08:04:31.06	83.78	14.91	-59.2	-64.7	7.6	2.62e-01	0	46	0	5242880	60	67184
2026-01-28 08:04:34.08	83.39	15.16	-53.3	-54.7	18.3	0.00e+00	0	46	0	22020096	60	21312
2026-01-28 08:04:37.10	83.00	15.42	-50.0	-51.0	21.7	0.00e+00	0	46	0	38797312	60	13854
2026-01-28 08:04:40.12	82.59	15.68	-55.2	-57.0	16.1	0.00e+00	0	46	0	55574528	60	27683
2026-01-28 08:04:43.14	82.18	15.94	-59.3	-66.0	5.7	1.30e-01	0	46	0	72351744	60	78180
2026-01-28 08:04:46.14	81.77	16.20	-52.5	-53.8	19.3	0.00e+00	0	46	0	89128960	60	19105
2026-01-28 08:04:49.16	81.34	16.46	-51.3	-52.3	20.7	0.00e+00	0	46	0	106954752	60	16126
2026-01-28 08:04:52.18	80.91	16.73	-50.0	-50.9	22.0	0.00e+00	0	46	0	123731968	60	13698
2026-01-28 08:04:55.20	80.46	16.99	-49.4	-50.2	22.5	0.00e+00	0	46	0	140509184	60	12731
2026-01-28 08:04:58.21	80.02	17.26	-49.1	-50.0	22.7	0.00e+00	0	46	0	157286400	60	12336
2026-01-28 08:05:01.24	79.56	17.53	-49.0	-49.8	23.1	0.00e+00	0	46	0	174063616	60	12151
2026-01-28 08:05:04.25	79.09	17.80	-48.9	-49.7	23.1	0.00e+00	0	46	0	190840832	60	12005
2026-01-28 08:05:07.26	78.62	18.07	-49.0	-49.8	23.2	0.00e+00	0	46	0	208666624	60	12176
2026-01-28 08:05:10.27	78.14	18.33	-48.8	-49.6	23.4	0.00e+00	0	46	0	225443840	60	11856
2026-01-28 08:05:13.29	77.65	18.61	-48.6	-49.4	23.5	0.00e+00	0	46	0	242221056	60	11622
2026-01-28 08:05:16.31	77.15	18.88	-48.5	-49.3	23.4	0.00e+00	0	46	0	258998272	60	11486
2026-01-28 08:05:19.32	76.64	19.15	-48.8	-49.6	23.4	0.00e+00	0	46	0	275775488	60	11832
2026-01-28 08:05:22.33	76.12	19.42	-48.9	-49.6	23.4	0.00e+00	0	46	0	292552704	60	11899
2026-01-28 08:05:25.35	75.59	19.70	-48.8	-49.6	23.4	0.00e+00	0	46	0	310378496	60	11870
2026-01-28 08:05:28.36	75.05	19.97	-48.7	-49.5	23.6	0.00e+00	0	46	0	327155712	60	11654
2026-01-28 08:05:31.38	74.50	20.24	-48.5	-49.3	23.8	0.00e+00	0	46	0	343932928	60	11403
2026-01-28 08:05:34.39	73.95	20.52	-48.6	-49.4	23.8	0.00e+00	0	46	0	360710144	60	11512
2026-01-28 08:05:37.41	73.38	20.79	-48.6	-49.4	23.8	0.00e+00	0	46	0	377487360	60	11528
2026-01-28 08:05:40.43	72.80	21.07	-48.5	-49.3	23.7	0.00e+00	0	46	0	395313152	60	11440
2026-01-28 08:05:43.44	72.21	21.34	-48.2	-48.9	23.9	0.00e+00	0	46	0	412090368	60	10946
2026-01-28 08:05:46.46	71.61	21.61	-48.3	-49.0	23.9	0.00e+00	0	46	0	428867584	60	11103
2026-01-28 08:05:49.48	71.00	21.89	-48.1	-48.8	24.0	0.00e+00	0	46	0	445644800	60	10846
2026-01-28 08:05:52.50	70.38	22.16	-47.8	-48.5	24.3	0.00e+00	0	46	0	462422016	60	10475
2026-01-28 08:05:55.52	69.75	22.43	-47.9	-48.6	24.2	0.00e+00	0	46	0	480247808	60	10526
2026-01-28 08:05:58.53	69.11	22.70	-47.8	-48.6	24.4	0.00e+00	0	46	0	497025024	60	10507
2026-01-28 08:06:01.55	68.45	22.97	-47.9	-48.6	24.5	0.00e+00	0	46	0	513802240	60	10570
2026-01-28 08:06:04.56	67.78	23.24	-47.5	-48.2	24.6	0.00e+00	0	46	0	530579456	60	10108
2026-01-28 08:06:07.58	67.11	23.51	-47.7	-48.4	24.5	0.00e+00	0	46	0	547356672	60	10344
2026-01-28 08:06:10.59	66.42	23.77	-47.8	-48.5	24.7	0.00e+00	0	46	0	565182464	60	10404
2026-01-28 08:06:13.60	65.72	24.03	-47.9	-48.6	24.7	0.00e+00	0	46	0	581959680	60	10528
2026-01-28 08:06:16.61	65.01	24.29	-47.7	-48.4	24.7	0.00e+00	0	46	0	598736896	60	10306
2026-01-28 08:06:19.63	64.28	24.55	-47.9	-48.7	24.5	0.00e+00	0	46	0	615514112	60	10669
2026-01-28 08:06:22.65	63.54	24.81	-48.0	-48.8	24.4	0.00e+00	0	46	0	632291328	60	10827
2026-01-28 08:06:25.66	62.79	25.06	-47.7	-48.5	24.7	0.00e+00	0	46	0	650117120	60	10376
2026-01-28 08:06:28.67	62.03	25.31	-47.6	-48.4	24.8	0.00e+00	0	46	0	666894336	60	10253
2026-01-28 08:06:31.68	61.26	25.56	-47.6	-48.3	24.8	0.00e+00	0	46	0	683671552	60	10178
2026-01-28 08:06:34.70	60.47	25.80	-47.3	-48.2	24.2	0.00e+00	0	46	0	700448768	60	10098
2026-01-28 08:06:37.71	59.68	26.04	-47.1	-47.9	24.4	0.00e+00	0	46	0	717225984	60	9694
2026-01-28 08:06:40.72	58.87	26.27	-47.0	-47.7	24.8	0.00e+00	0	46	0	734003200	60	9559
2026-01-28 08:06:43.73	58.05	26.51	-47.0	-47.7	25.1	0.00e+00	0	46	0	750780416	60	9466
2026-01-28 08:06:46.74	57.22	26.73	-47.2	-47.9	25.0	0.00e+00	0	46	0	767557632	60	9701
2026-01-28 08:06:49.75	56.37	26.95	-46.9	-47.6	25.0	0.00e+00	0	46	0	784334848	60	9426
2026-01-28 08:06:52.77	55.51	27.17	-47.0	-47.8	25.0	0.00e+00	0	46	0	802160640	60	9576
2026-01-28 08:06:55.78	54.65	27.38	-47.0	-47.7	25.1	0.00e+00	0	46	0	818937856	60	9508
2026-01-28 08:06:58.79	53.77	27.58	-47.1	-47.8	24.9	0.00e+00	0	46	0	835715072	60	9627
2026-01-28 08:07:01.81	52.87	27.78	-46.8	-47.6	25.0	0.00e+00	0	46	0	852492288	60	9350
2026-01-28 08:07:04.81	51.98	27.97	-46.4	-47.2	25.2	0.00e+00	0	46	0	869269504	60	8934
2026-01-28 08:07:07.82	51.06	28.16	-46.5	-47.3	24.9	0.00e+00	0	46	0	886046720	60	9050
2026-01-28 08:07:10.84	50.14	28.34	-46.3	-47.1	24.6	0.00e+00	0	46	0	902823936	60	8907
2026-01-28 08:07:13.86	49.20	28.51	-46.0	-46.9	24.6	0.00e+00	0	46	0	920649728	60	8656
2026-01-28 08:07:16.88	48.26	28.67	-46.3	-47.1	24.6	0.00e+00	0	46	0	937426944	60	8901
2026-01-28 08:07:19.90	47.30	28.83	-46.2	-46.9	25.1	0.00e+00	0	46	0	954204160	60	8668
2026-01-28 08:07:22.91	46.34	28.97	-46.0	-46.7	25.7	0.00e+00	0	46	0	970981376	60	8432
2026-01-28 08:07:25.93	45.37	29.11	-46.0	-46.7	25.6	0.00e+00	0	46	0	987758592	60	8519
2026-01-28 08:07:28.94	44.39	29.24	-45.7	-46.5	25.5	0.00e+00	0	46	0	1005584384	60	8247
2026-01-28 08:07:31.95	43.41	29.36	-46.0	-46.9	24.8	0.00e+00	0	46	0	1022361600	60	8634
2026-01-28 08:07:34.98	42.41	29.48	-45.5	-46.3	25.0	0.00e+00	0	46	0	1039138816	60	8107
2026-01-28 08:07:38.00	41.40	29.58	-45.9	-46.8	24.9	0.00e+00	0	46	0	1055916032	60	8582
2026-01-28 08:07:41.01	40.40	29.67	-45.8	-46.6	25.0	0.00e+00	0	46	0	1072693248	60	8407
2026-01-28 08:07:44.03	39.38	29.76	-45.8	-46.7	25.0	0.00e+00	0	46	0	1090519040	60	8494
2026-01-28 08:07:47.05	38.37	29.83	-45.7	-46.5	25.2	0.00e+00	0	46	0	1107296256	60	8321
2026-01-28 08:07:50.07	37.34	29.89	-45.4	-46.3	25.4	0.00e+00	0	46	0	1124073472	60	8114
2026-01-28 08:07:53.10	36.31	29.95	-45.5	-46.5	25.0	0.00e+00	0	46	0	1140850688	60	8288
2026-01-28 08:07:56.12	35.28	29.99	-45.3	-46.2	24.7	0.00e+00	0	46	0	1157627904	60	8026
2026-01-28 08:07:59.14	34.25	30.02	-45.6	-46.4	24.6	0.00e+00	0	46	0	1175453696	60	8220
2026-01-28 08:08:02.16	33.21	30.05	-45.5	-46.2	25.6	0.00e+00	0	46	0	1192230912	60	8029
2026-01-28 08:08:05.17	32.18	30.06	-45.6	-46.3	25.9	0.00e+00	0	46	0	1209008128	60	8051
2026-01-28 08:08:08.19	31.15	30.06	-45.7	-46.3	25.9	0.00e+00	0	46	0	1225785344	60	8107
2026-01-28 08:08:11.20	30.11	30.05	-45.6	-46.3	25.9	0.00e+00	0	46	0	1242562560	60	8066
2026-01-28 08:08:14.20	29.09	30.03	-45.5	-46.2	25.3	0.00e+00	0	46	0	1260388352	60	8027
2026-01-28 08:08:17.21	28.06	30.00	-45.6	-46.4	25.3	0.00e+00	0	46	0	1277165568	60	8210
2026-01-28 08:08:20.23	27.02	29.96	-45.5	-46.4	25.1	0.00e+00	0	46	0	1293942784	60	8213
2026-01-28 08:08:23.25	26.00	29.91	-45.6	-46.5	25.2	0.00e+00	0	46	0	1310720000	60	8238
2026-01-28 08:08:26.25	24.98	29.85	-45.4	-46.4	25.1	0.00e+00	0	46	0	1328545792	60	8222
2026-01-28 08:08:29.27	23.96	29.78	-45.2	-46.0	25.5	0.00e+00	0	46	0	1345323008	60	7855
2026-01-28 08:08:32.29	22.94	29.70	-45.5	-46.3	25.9	0.00e+00	0	46	0	1362100224	60	8100
2026-01-28 08:08:35.31	21.93	29.61	-45.7	-46.4	25.9	0.00e+00	0	46	0	1378877440	60	8217
2026-01-28 08:08:38.32	20.93	29.51	-45.6	-46.4	25.9	0.00e+00	0	46	0	1395654656	60	8205
2026-01-28 08:08:41.34	19.94	29.40	-45.6	-46.3	25.7	0.00e+00	0	46	0	1412431872	60	8122
2026-01-28 08:08:44.35	18.95	29.28	-45.8	-46.5	25.5	0.00e+00	0	46	0	1430257664	60	8325
2026-01-28 08:08:47.36	17.97	29.15	-46.0	-46.7	25.4	0.00e+00	0	46	0	1447034880	60	8490
2026-01-28 08:08:50.38	17.00	29.02	-46.0	-46.8	25.2	0.00e+00	0	46	0	1463812096	60	8577
2026-01-28 08:08:53.39	16.03	28.87	-45.9	-46.6	24.8	0.00e+00	0	46	0	1480589312	60	8366
2026-01-28 08:08:56.41	15.08	28.72	-46.0	-46.7	25.6	0.00e+00	0	46	0	1497366528	60	8456
2026-01-28 08:08:59.43	14.13	28.56	-45.9	-46.7	25.6	0.00e+00	0	46	0	1514143744	60	8460
2026-01-28 08:09:02.44	13.19	28.39	-46.2	-46.8	25.4	0.00e+00	0	46	0	1530920960	60	8613
2026-01-28 08:09:05.46	12.27	28.21	-45.8	-46.5	25.4	0.00e+00	0	46	0	1548746752	60	8278
2026-01-28 08:09:08.47	11.35	28.03	-46.1	-46.8	25.5	0.00e+00	0	46	0	1565523968	60	8612
2026-01-28 08:09:11.49	10.45	27.84	-45.8	-46.6	25.2	0.00e+00	0	46	0	1582301184	60	8371
2026-01-28 08:09:14.50	9.55	27.65	-45.8	-46.8	24.2	0.00e+00	0	46	0	1599078400	60	8569
2026-01-28 08:09:17.52	8.67	27.44	-45.9	-46.8	25.2	0.00e+00	0	46	0	1615855616	60	8543
2026-01-28 08:09:20.54	7.80	27.23	-46.0	-46.7	25.6	0.00e+00	0	46	0	1632632832	60	8434
2026-01-28 08:09:23.55	6.94	27.02	-45.8	-46.5	25.5	0.00e+00	0	46	0	1650458624	60	8305
2026-01-28 08:09:26.57	6.09	26.80	-46.1	-46.7	25.4	0.00e+00	0	46	0	1667235840	60	8517
2026-01-28 08:09:29.58	5.26	26.58	-46.2	-46.9	25.3	0.00e+00	0	46	0	1684013056	60	8653
2026-01-28 08:09:32.59	4.43	26.35	-46.2	-46.8	25.4	0.00e+00	0	46	0	1700790272	60	8615
2026-01-28 08:09:35.60	3.62	26.12	-46.2	-47.0	25.3	0.00e+00	0	46	0	1717567488	60	8797
2026-01-28 08:09:38.60	2.83	25.88	-46.1	-46.8	25.4	0.00e+00	0	46	0	1734344704	60	8607
2026-01-28 08:09:41.62	2.04	25.64	-46.1	-46.9	25.2	0.00e+00	0	46	0	1751121920	60	8627
2026-01-28 08:09:44.63	1.26	25.39	-46.3	-47.0	24.9	0.00e+00	0	46	0	1768947712	60	8802
2026-01-28 08:09:47.65	0.50	25.14	-46.0	-46.8	25.2	0.00e+00	0	46	0	1785724928	60	8597
2026-01-28 08:09:50.67	359.75	24.89	-46.1	-46.7	25.2	0.00e+00	0	46	0	1802502144	60	8473
2026-01-28 08:09:53.69	359.01	24.64	-46.4	-47.1	25.1	0.00e+00	0	46	0	1819279360	60	8852
2026-01-28 08:09:56.71	358.28	24.38	-46.2	-46.9	24.9	0.00e+00	0	46	0	1836056576	60	8656
2026-01-28 08:09:59.73	357.56	24.12	-46.1	-46.9	24.9	0.00e+00	0	46	0	1853882368	60	8693
2026-01-28 08:10:02.75	356.86	23.86	-46.5	-47.1	24.7	0.00e+00	0	46	0	1870659584	60	8900
2026-01-28 08:10:05.78	356.16	23.59	-46.7	-47.5	24.5	0.00e+00	0	46	0	1887436800	60	9286
2026-01-28 08:10:08.80	355.48	23.32	-46.4	-47.1	24.9	0.00e+00	0	46	0	1904214016	60	8911
2026-01-28 08:10:11.80	354.82	23.06	-46.7	-47.4	24.7	0.00e+00	0	46	0	1920991232	60	9219
2026-01-28 08:10:14.83	354.16	22.79	-46.7	-47.4	24.8	0.00e+00	0	46	0	1938817024	60	9200
2026-01-28 08:10:17.84	353.51	22.52	-46.7	-47.5	24.7	0.00e+00	0	46	0	1955594240	60	9267
2026-01-28 08:10:20.85	352.88	22.25	-46.7	-47.4	24.8	0.00e+00	0	46	0	1972371456	60	9231
2026-01-28 08:10:23.87	352.26	21.98	-46.8	-47.5	24.7	0.00e+00	0	46	0	1989148672	60	9257
2026-01-28 08:10:26.89	351.64	21.70	-46.8	-47.5	24.7	0.00e+00	0	46	0	2005925888	60	9336
2026-01-28 08:10:29.91	351.04	21.43	-46.7	-47.5	24.7	0.00e+00	0	47	0	2023751680	60	9335
2026-01-28 08:10:32.93	350.45	21.16	-46.8	-47.6	24.5	0.00e+00	0	46	0	2040528896	60	9451
2026-01-28 08:10:35.94	349.87	20.89	-46.8	-47.5	24.5	0.00e+00	0	46	0	2057306112	60	9303
2026-01-28 08:10:38.96	349.30	20.61	-47.1	-47.9	24.4	0.00e+00	0	46	0	2074083328	60	9728
2026-01-28 08:10:41.98	348.74	20.34	-46.9	-47.6	24.5	0.00e+00	0	46	0	2090860544	60	9399
2026-01-28 08:10:44.99	348.20	20.06	-47.0	-47.7	24.3	0.00e+00	0	46	0	2108686336	60	9457
2026-01-28 08:10:48.01	347.66	19.79	-47.0	-47.8	24.3	0.00e+00	0	46	0	2125463552	60	9570
2026-01-28 08:10:51.02	347.13	19.52	-47.0	-47.6	24.4	0.00e+00	0	46	0	2142240768	60	9442
2026-01-28 08:10:54.04	346.61	19.25	-47.1	-47.9	24.2	0.00e+00	0	46	0	2159017984	60	9727
2026-01-28 08:10:57.05	346.10	18.98	-47.3	-48.2	23.9	0.00e+00	0	46	0	2175795200	60	10066
2026-01-28 08:11:00.06	345.60	18.70	-47.6	-48.3	23.7	0.00e+00	0	46	0	2193620992	60	10192
2026-01-28 08:11:03.08	345.10	18.43	-47.5	-48.3	23.8	0.00e+00	0	46	0	2210398208	60	10246
2026-01-28 08:11:06.09	344.62	18.16	-47.5	-48.3	23.8	0.00e+00	0	46	0	2227175424	60	10234
2026-01-28 08:11:09.11	344.14	17.90	-47.5	-48.2	23.8	0.00e+00	0	46	0	2243952640	60	10105
2026-01-28 08:11:12.12	343.68	17.63	-47.6	-48.4	23.7	0.00e+00	0	46	0	2260729856	60	10248
2026-01-28 08:11:15.15	343.22	17.36	-47.7	-48.4	23.6	0.00e+00	0	46	0	2277507072	60	10334
2026-01-28 08:11:18.16	342.77	17.09	-47.8	-48.6	23.3	0.00e+00	0	46	0	2295332864	60	10497
2026-01-28 08:11:21.18	342.33	16.83	-47.9	-48.8	23.2	0.00e+00	0	46	0	2312110080	60	10826
2026-01-28 08:11:24.19	341.89	16.57	-47.9	-48.7	23.1	0.00e+00	0	46	0	2328887296	60	10667
2026-01-28 08:11:27.20	341.47	16.30	-48.2	-49.0	22.9	0.00e+00	0	46	0	2345664512	60	11089
2026-01-28 08:11:30.23	341.05	16.04	-48.6	-49.4	22.1	0.00e+00	0	46	0	2362441728	60	11611
2026-01-28 08:11:33.25	340.64	15.78	-48.7	-49.7	21.8	0.00e+00	0	46	0	2379218944	60	11970
2026-01-28 08:11:36.27	340.23	15.52	-49.1	-50.0	21.1	0.00e+00	0	46	0	2397044736	60	12395
2026-01-28 08:11:39.28	339.84	15.26	-49.6	-50.8	20.2	0.00e+00	0	46	0	2413821952	60	13531
2026-01-28 08:11:42.30	339.45	15.01	-49.9	-51.1	19.6	0.00e+00	0	46	0	2430599168	60	14128
2026-01-28 08:11:45.32	339.06	14.75	-50.1	-51.6	18.8	0.00e+00	0	46	0	2447376384	60	14981
2026-01-28 08:11:48.33	338.69	14.50	-50.4	-51.9	18.4	0.00e+00	0	46	0	2464153600	60	15440
2026-01-28 08:11:51.34	338.32	14.25	-51.1	-52.6	17.7	0.00e+00	0	46	0	2480930816	60	16787
2026-01-28 08:11:54.36	337.95	14.00	-51.5	-53.1	17.2	0.00e+00	0	46	0	2498756608	60	17630
2026-01-28 08:11:57.37	337.60	13.75	-51.9	-53.6	16.7	0.00e+00	0	46	0	2515533824	60	18788
2026-01-28 08:12:00.39	337.24	13.50	-52.3	-54.3	16.0	0.00e+00	0	46	0	2532311040	60	20337
2026-01-28 08:12:03.40	336.90	13.25	-52.7	-54.9	15.3	0.00e+00	0	46	0	2549088256	60	21700
2026-01-28 08:12:06.42	336.56	13.01	-53.3	-55.8	14.4	1.10e-06	0	46	0	2565865472	60	24046
2026-01-28 08:12:09.43	336.23	12.77	-53.7	-56.4	13.5	1.02e-05	0	46	0	2582642688	60	25997
2026-01-28 08:12:12.44	335.90	12.52	-53.9	-57.1	12.7	7.89e-05	0	46	0	2599419904	60	27901
2026-01-28 08:12:15.46	335.58	12.28	-53.9	-57.8	11.6	8.09e-04	0	46	0	2617245696	60	30311
2026-01-28 08:12:18.48	335.26	12.04	-53.8	-58.6	10.6	3.37e-03	0	46	0	2634022912	60	33365
2026-01-28 08:12:21.50	334.95	11.81	-53.4	-59.3	9.6	1.60e-02	0	47	0	2650800128	60	36053
2026-01-28 08:12:24.52	334.64	11.57	-53.0	-59.8	8.4	4.91e-02	0	47	0	2667577344	60	38195
2026-01-28 08:12:27.53	334.34	11.33	-52.9	-60.4	7.6	9.99e-02	0	46	0	2684354560	60	40988
2026-01-28 08:12:30.54	334.04	11.10	-52.8	-60.9	6.9	1.62e-01	0	46	0	2701131776	60	43473
2026-01-28 08:12:33.56	333.75	10.87	-52.8	-61.6	6.3	2.56e-01	0	46	0	2718957568	60	47311
2026-01-28 08:12:36.58	333.46	10.64	-53.2	-62.4	5.7	3.80e-01	0	47	0	2735734784	60	51609
2026-01-28 08:12:39.59	333.18	10.41	-53.5	-62.9	5.3	6.89e-01	0	47	0	2748317696	60	54882
2026-01-28 08:12:42.60	332.90	10.18	-54.3	-63.6	4.9	7.48e-01	0	46	0	2753560576	60	59154
2026-01-28 08:12:45.62	332.63	9.96	-55.1	-64.4	4.4	7.91e-01	0	46	0	2754609152	60	65384
2026-01-28 08:12:48.64	332.36	9.73	-55.6	-65.1	4.1	8.14e-01	0	47	0	2754609152	60	70097
2026-01-28 08:12:51.66	332.09	9.51	-56.3	-65.7	3.9	8.28e-01	0	46	0	2754609152	60	75185
2026-01-28 08:12:54.68	331.83	9.29	-56.8	-67.7	4.0	8.41e-01	0	47	104	2754609152	60	94889
2026-01-28 08:12:57.70	331.58	9.06	-57.1	-68.1	3.7	8.42e-01	0	47	104	2754609152	60	99964
2026-01-28 08:13:00.72	331.32	8.84	-57.4	-69.0	3.7	8.43e-01	0	46	104	2754609152	60	110823
2026-01-28 08:13:03.74	331.07	8.63	-57.3	-69.3	3.6	8.45e-01	0	46	104	2754609152	60	114213
2026-01-28 08:13:06.76	330.83	8.41	-57.6	-70.8	3.6	8.45e-01	0	46	104	2754609152	60	135340
2026-01-28 08:13:09.77	330.59	8.20	-57.2	-69.7	3.6	8.46e-01	0	47	104	2754609152	60	119723
2026-01-28 08:13:12.80	330.35	7.98	-57.3	-70.7	3.5	8.45e-01	0	47	104	2754609152	60	134855
2026-01-28 08:13:15.81	330.12	7.77	-57.0	-70.7	3.6	8.46e-01	0	47	104	2754609152	60	134169
2026-01-28 08:13:18.83	329.89	7.56	-57.6	-70.7	3.6	8.46e-01	0	47	104	2754609152	60	133668
2026-01-28 08:13:21.85	329.66	7.35	-57.2	-70.7	3.6	8.47e-01	0	46	104	2754609152	60	134263
2026-01-28 08:13:24.86	329.44	7.14	-57.3	-70.6	3.6	8.45e-01	0	47	104	2754609152	60	132593
2026-01-28 08:13:27.87	329.22	6.93	-57.1	-70.6	3.6	8.46e-01	0	46	104	2754609152	60	132896
2026-01-28 08:13:30.89	329.00	6.72	-57.2	-70.8	3.6	8.45e-01	0	46	104	2754609152	60	136001
2026-01-28 08:13:33.90	328.79	6.52	-57.3	-70.7	3.6	8.46e-01	0	47	104	2754609152	60	134903
2026-01-28 08:13:36.91	328.58	6.32	-57.1	-70.4	3.6	8.45e-01	0	46	104	2754609152	60	129669
2026-01-28 08:13:39.91	328.37	6.12	-56.5	-70.1	3.6	8.46e-01	0	46	104	2754609152	60	125924
2026-01-28 08:13:42.93	328.17	5.91	-51.3	-68.7	3.6	8.46e-01	0	46	104	2754609152	60	106961
2026-01-28 08:13:45.95	327.96	5.71	-59.9	-73.4	3.6	8.45e-01	0	47	104	2754609152	60	182887
2026-01-28 08:13:48.96	327.77	5.52	-58.6	-73.7	3.6	8.45e-01	0	46	104	2754609152	60	188836
2026-01-28 08:13:51.97	327.57	5.32	-60.7	-74.2	3.6	8.45e-01	0	46	104	2754609152	60	201229
2026-01-28 08:13:54.98	327.38	5.12	-61.2	-74.6	3.6	8.46e-01	0	46	104	2754609152	60	209931
2026-01-28 08:13:58.00	327.19	4.93	-60.2	-74.9	3.6	8.46e-01	0	46	104	2754609152	60	217962
2026-01-28 08:14:01.01	327.00	4.73	-59.8	-74.7	3.6	8.45e-01	0	46	104	2754609152	60	211951
2026-01-28 08:14:04.03	326.82	4.54	-59.9	-74.9	3.6	8.45e-01	0	46	104	2754609152	60	216949
2026-01-28 08:14:07.04	326.63	4.35	-59.8	-74.6	3.6	8.45e-01	0	46	104	2754609152	60	211607
2026-01-28 08:14:10.07	326.45	4.16	-59.8	-74.7	3.6	8.45e-01	0	47	104	2754609152	60	211921
2026-01-28 08:14:13.09	326.28	3.96	-59.7	-74.6	3.6	8.45e-01	0	46	104	2754609152	60	211610
2026-01-28 08:14:16.11	326.10	3.78	-59.7	-74.6	3.6	8.47e-01	0	46	104	2754609152	60	210112
2026-01-28 08:14:19.14	325.93	3.59	-59.8	-74.7	3.6	8.47e-01	0	46	104	2754609152	60	212109
2026-01-28 08:14:22.16	325.76	3.40	-59.7	-74.7	3.6	8.45e-01	0	46	104	2754609152	60	213747
2026-01-28 08:14:25.19	325.59	3.21	-59.7	-74.5	3.6	8.45e-01	0	46	104	2754609152	60	208009
2026-01-28 08:14:28.20	325.42	3.03	-59.6	-74.7	3.6	8.45e-01	0	46	104	2754609152	60	213013
2026-01-28 08:14:31.22	325.26	2.84	-59.6	-74.5	3.6	8.45e-01	0	46	104	2754609152	60	208882
2026-01-28 08:14:34.25	325.10	2.66	-59.6	-74.5	3.5	8.45e-01	0	47	104	2754609152	60	208746
2026-01-28 08:14:37.27	324.94	2.48	-59.5	-74.6	3.6	8.44e-01	0	46	104	2754609152	60	210042
2026-01-28 08:14:40.29	324.78	2.30	-59.5	-74.7	3.5	8.46e-01	0	47	104	2754609152	60	212764
2026-01-28 08:14:43.31	324.63	2.12	-59.4	-74.4	3.6	8.45e-01	0	46	104	2754609152	60	206365
2026-01-28 08:14:46.33	324.47	1.94	-59.5	-74.5	3.6	8.46e-01	0	46	104	2754609152	60	208732
2026-01-28 08:14:49.36	324.32	1.76	-59.4	-74.5	3.6	8.45e-01	0	46	104	2754609152	60	209038
2026-01-28 08:14:52.38	324.17	1.58	-59.4	-74.4	3.6	8.44e-01	0	46	104	2754609152	60	206606
2026-01-28 08:14:55.40	324.03	1.40	-59.4	-74.4	3.6	8.45e-01	0	46	104	2754609152	60	205201
2026-01-28 08:14:58.43	323.88	1.23	-59.3	-74.3	3.6	8.45e-01	0	46	104	2754609152	60	203236
2026-01-28 08:15:01.44	323.74	1.05	-59.4	-74.4	3.6	8.46e-01	0	47	104	2754609152	60	206216
2026-01-28 08:15:04.47	323.60	0.88	-59.5	-74.5	3.6	8.45e-01	0	46	104	2754609152	60	206954
2026-01-28 08:15:07.48	323.46	0.71	-59.6	-74.3	3.6	8.44e-01	0	47	104	2754609152	60	204396
2026-01-28 08:15:10.50	323.32	0.53	-59.6	-74.4	3.6	8.45e-01	0	46	104	2754609152	60	205414
2026-01-28 08:15:13.52	323.18	0.36	-59.6	-74.7	3.6	8.44e-01	0	47	104	2754609152	60	213363
2026-01-28 08:15:16.54	323.05	0.19	-59.7	-74.3	3.6	8.47e-01	0	47	104	2754609152	60	204191
2026-01-28 08:15:19.56	322.91	0.02	-59.5	-74.4	3.6	8.45e-01	0	47	104	2754609152	60	205738

#Closed at: 2026-01-28 08:15:20
#Recorded file [2754 MB]: D:/Data/35015_260128_111516.dat