passes_logs/2026/01/28/R3.2S-Naryan-Mar/R3.2S-Naryan-Mar__20260128_112026_FENGYUN_3D_rec.log

#Pass ID: 20260128_112026_FENGYUN 3D
#Satellite: FENGYUN 3D
#Configuration: FENGYUN 3D
#almurnet v.1.7.20240730
#Start time: 2026-01-28 11:28:24

#Version: 2.2.20231116
#Station: R3.2S-Naryan-Mar
#Location: 53.008057 lon 67.646978 lat
#TLE: 1 43010U 17072A   26027.90082829  .00000305  00000+0  16579-3 0  9998
#TLE: 2 43010  98.9960 359.9183 0002511  88.1058 272.0405 14.19701796425082

#Time	Az	El	Level	Level2	SNR	BER	BlckErr	Temp	State	Recorded	gain1	gain2
2026-01-28 11:28:24.83	270.35	49.29	-56.0	-59.0	3.3	0.00e+00	0	48	0	0	60	105633
2026-01-28 11:28:26.84	271.57	49.14	-57.3	-73.6	3.6	8.46e-01	0	48	104	0	60	187142
2026-01-28 11:28:28.85	272.77	48.98	-58.4	-74.0	3.6	8.45e-01	0	48	104	0	60	195968
2026-01-28 11:28:30.86	273.97	48.81	-61.2	-74.9	3.6	8.45e-01	0	48	104	0	60	218001
2026-01-28 11:28:32.87	275.15	48.62	-61.3	-74.8	3.6	8.44e-01	0	48	104	0	60	215028
2026-01-28 11:28:34.88	276.32	48.43	-61.2	-74.9	3.6	8.45e-01	0	48	104	0	60	217364
2026-01-28 11:28:36.89	277.47	48.22	-61.2	-74.7	3.6	8.44e-01	0	48	104	0	60	213972
2026-01-28 11:28:38.91	278.61	48.00	-61.2	-74.8	3.6	8.45e-01	0	48	104	0	60	215313
2026-01-28 11:28:40.92	279.73	47.77	-61.2	-74.8	3.6	8.45e-01	0	48	104	0	60	214462
2026-01-28 11:28:42.94	280.84	47.53	-61.2	-74.7	3.6	8.46e-01	0	48	104	0	60	213449
2026-01-28 11:28:44.95	281.92	47.28	-61.2	-74.7	3.6	8.45e-01	0	48	104	0	60	212883
2026-01-28 11:28:46.97	283.00	47.02	-61.2	-74.8	3.6	8.45e-01	0	48	104	0	60	215018
2026-01-28 11:28:48.99	284.05	46.75	-61.2	-74.7	3.6	8.46e-01	0	48	104	0	60	213731
2026-01-28 11:28:51.00	285.09	46.47	-61.2	-74.8	3.6	8.45e-01	0	48	104	0	60	215106
2026-01-28 11:28:53.01	286.10	46.19	-61.2	-74.7	3.6	8.45e-01	0	48	104	0	60	213598
2026-01-28 11:28:55.03	287.10	45.89	-61.2	-74.8	3.6	8.45e-01	0	48	104	0	60	215178
2026-01-28 11:28:57.04	288.08	45.59	-61.2	-74.7	3.6	8.45e-01	0	48	104	0	60	211760
2026-01-28 11:28:59.05	289.04	45.29	-61.2	-74.8	3.6	8.45e-01	0	47	104	0	60	214173
2026-01-28 11:29:01.06	289.98	44.98	-61.1	-74.6	3.6	8.46e-01	0	47	104	0	60	209371
2026-01-28 11:29:03.07	290.90	44.66	-61.2	-74.8	3.6	8.46e-01	0	48	104	0	60	215439
2026-01-28 11:29:05.09	291.81	44.34	-61.1	-74.6	3.6	8.46e-01	0	47	104	0	60	210849
2026-01-28 11:29:07.10	292.70	44.01	-61.1	-74.7	3.6	8.45e-01	0	48	104	0	60	212503
2026-01-28 11:29:09.11	293.57	43.68	-61.1	-74.5	3.6	8.46e-01	0	47	104	0	60	208310
2026-01-28 11:29:11.00	294.37	43.36	-61.1	-74.7	3.6	8.45e-01	0	47	104	0	60	211853
2026-01-28 11:29:13.02	295.20	43.02	-61.0	-73.4	3.6	8.44e-01	0	47	104	0	60	183784
2026-01-28 11:29:15.03	296.02	42.68	-61.1	-74.4	3.6	8.46e-01	0	47	104	0	60	206198
2026-01-28 11:29:17.03	296.82	42.34	-59.8	-65.0	8.0	1.63e-01	0	47	0	2097152	60	69725
2026-01-28 11:29:19.04	297.60	41.99	-50.4	-51.3	22.4	0.00e+00	0	47	0	13631488	60	14402
2026-01-28 11:29:21.05	298.37	41.64	-60.4	-73.0	3.6	8.54e-01	0	47	104	23068672	60	175257
2026-01-28 11:29:23.06	299.12	41.29	-57.2	-60.6	12.4	0.00e+00	0	47	0	1048576	60	41757
2026-01-28 11:29:25.07	299.85	40.93	-58.4	-62.9	7.5	0.00e+00	0	47	0	12582912	60	54827
2026-01-28 11:29:27.08	300.57	40.58	-52.6	-54.1	20.0	0.00e+00	0	47	0	24117248	60	19898
2026-01-28 11:29:29.10	301.27	40.22	-52.2	-53.9	19.7	0.00e+00	0	47	0	34603008	60	19384
2026-01-28 11:29:31.10	301.96	39.86	-51.5	-53.0	19.7	0.00e+00	0	47	0	46137344	60	17496
2026-01-28 11:29:33.11	302.63	39.50	-51.4	-52.9	20.5	0.00e+00	0	47	0	57671680	60	17349
2026-01-28 11:29:35.12	303.29	39.14	-49.1	-50.1	23.1	0.00e+00	0	47	0	69206016	60	12477
2026-01-28 11:29:37.13	303.93	38.78	-47.7	-48.4	24.7	0.00e+00	0	47	0	80740352	60	10326
2026-01-28 11:29:39.14	304.56	38.42	-47.4	-48.2	24.8	0.00e+00	0	47	0	92274688	60	10017
2026-01-28 11:29:41.16	305.18	38.06	-47.3	-47.9	25.0	0.00e+00	0	47	0	102760448	60	9773
2026-01-28 11:29:43.17	305.79	37.70	-47.1	-47.9	25.3	0.00e+00	0	47	0	114294784	60	9693
2026-01-28 11:29:45.18	306.38	37.34	-46.7	-47.3	25.6	0.00e+00	0	47	0	125829120	60	9089
2026-01-28 11:29:47.19	306.95	36.99	-46.3	-46.9	25.7	0.00e+00	0	47	0	137363456	60	8671
2026-01-28 11:29:49.20	307.52	36.63	-46.4	-47.1	25.4	0.00e+00	0	47	0	147849216	60	8924
2026-01-28 11:29:51.21	308.07	36.27	-46.5	-47.3	25.2	0.00e+00	0	47	0	160432128	60	9070
2026-01-28 11:29:53.22	308.61	35.92	-46.7	-47.4	25.5	0.00e+00	0	47	0	170917888	60	9196
2026-01-28 11:29:55.23	309.14	35.56	-46.6	-47.4	25.7	0.00e+00	0	47	0	182452224	60	9212
2026-01-28 11:29:57.24	309.66	35.21	-46.7	-47.4	25.6	0.00e+00	0	47	0	193986560	60	9172
2026-01-28 11:29:59.25	310.17	34.86	-46.9	-47.6	25.5	0.00e+00	0	47	0	204472320	60	9432
2026-01-28 11:30:01.27	310.67	34.51	-46.9	-47.5	25.6	0.00e+00	0	47	0	216006656	60	9304
2026-01-28 11:30:03.28	311.16	34.16	-46.7	-47.5	25.7	0.00e+00	0	47	0	227540992	60	9245
2026-01-28 11:30:05.30	311.64	33.81	-46.6	-47.2	25.8	0.00e+00	0	47	0	239075328	60	9001
2026-01-28 11:30:07.31	312.10	33.47	-47.0	-47.7	25.5	0.00e+00	0	47	0	249561088	60	9480
2026-01-28 11:30:09.31	312.56	33.13	-47.2	-47.9	25.2	0.00e+00	0	47	0	262144000	60	9777
2026-01-28 11:30:11.32	313.01	32.79	-47.1	-47.8	24.8	0.00e+00	0	47	0	272629760	60	9615
2026-01-28 11:30:13.33	313.45	32.45	-46.8	-47.5	24.6	0.00e+00	0	47	0	284164096	60	9344
2026-01-28 11:30:15.35	313.88	32.11	-47.0	-47.9	24.7	0.00e+00	0	47	0	295698432	60	9711
2026-01-28 11:30:17.37	314.30	31.77	-47.0	-48.0	24.9	0.00e+00	0	47	0	307232768	60	9786
2026-01-28 11:30:19.38	314.72	31.44	-47.0	-47.9	25.2	0.00e+00	0	47	0	317718528	60	9716
2026-01-28 11:30:21.40	315.12	31.11	-47.0	-47.8	25.5	0.00e+00	0	47	0	329252864	60	9605
2026-01-28 11:30:23.41	315.52	30.78	-47.0	-47.6	25.5	0.00e+00	0	47	0	340787200	60	9401
2026-01-28 11:30:25.42	315.91	30.46	-47.0	-47.8	25.4	0.00e+00	0	47	0	352321536	60	9592
2026-01-28 11:30:27.44	316.29	30.13	-47.0	-47.7	25.2	0.00e+00	0	47	0	363855872	60	9498
2026-01-28 11:30:29.46	316.67	29.81	-47.3	-47.9	25.0	0.00e+00	0	47	0	374341632	60	9785
2026-01-28 11:30:31.47	317.04	29.49	-47.4	-48.1	24.9	0.00e+00	0	47	0	385875968	60	10006
2026-01-28 11:30:33.48	317.40	29.17	-47.3	-48.1	25.1	0.00e+00	0	47	0	397410304	60	9909
2026-01-28 11:30:35.50	317.75	28.86	-47.1	-47.8	25.3	0.00e+00	0	47	0	408944640	60	9662
2026-01-28 11:30:37.51	318.10	28.55	-46.9	-47.7	25.2	0.00e+00	0	47	0	419430400	60	9499
2026-01-28 11:30:39.52	318.44	28.24	-47.0	-47.6	25.0	0.00e+00	0	47	0	432013312	60	9405
2026-01-28 11:30:41.53	318.77	27.93	-46.8	-47.5	25.2	0.00e+00	0	47	0	442499072	60	9293
2026-01-28 11:30:43.54	319.10	27.63	-46.8	-47.5	25.2	0.00e+00	0	47	0	454033408	60	9314
2026-01-28 11:30:45.55	319.42	27.32	-46.9	-47.5	25.3	0.00e+00	0	47	0	465567744	60	9288
2026-01-28 11:30:47.57	319.74	27.02	-46.9	-47.7	25.3	0.00e+00	0	47	0	477102080	60	9491
2026-01-28 11:30:49.58	320.05	26.73	-47.0	-47.7	25.1	0.00e+00	0	47	0	487587840	60	9470
2026-01-28 11:30:51.60	320.36	26.43	-47.2	-48.0	24.9	0.00e+00	0	47	0	499122176	60	9812
2026-01-28 11:30:53.62	320.66	26.14	-47.1	-47.9	24.7	0.00e+00	0	47	0	510656512	60	9693
2026-01-28 11:30:55.63	320.95	25.85	-47.0	-47.8	24.8	0.00e+00	0	47	0	522190848	60	9649
2026-01-28 11:30:57.64	321.24	25.56	-47.0	-47.8	24.8	0.00e+00	0	47	0	533725184	60	9582
2026-01-28 11:30:59.65	321.52	25.27	-47.2	-47.9	24.6	0.00e+00	0	47	0	544210944	60	9764
2026-01-28 11:31:01.66	321.80	24.99	-47.1	-47.9	24.8	0.00e+00	0	47	0	555745280	60	9751
2026-01-28 11:31:03.66	322.08	24.71	-47.0	-47.7	24.9	0.00e+00	0	47	0	567279616	60	9505
2026-01-28 11:31:05.68	322.35	24.43	-47.1	-47.7	25.0	0.00e+00	0	47	0	578813952	60	9559
2026-01-28 11:31:07.70	322.61	24.16	-47.1	-48.0	24.8	0.00e+00	0	47	0	589299712	60	9801
2026-01-28 11:31:09.71	322.87	23.88	-47.2	-48.1	24.7	0.00e+00	0	47	0	601882624	60	9904
2026-01-28 11:31:11.73	323.13	23.61	-47.2	-48.1	24.4	0.00e+00	0	47	0	612368384	60	9960
2026-01-28 11:31:13.74	323.38	23.34	-47.4	-48.2	24.2	0.00e+00	0	47	0	623902720	60	10074
2026-01-28 11:31:15.75	323.63	23.08	-47.5	-48.4	24.2	0.00e+00	0	47	0	635437056	60	10282
2026-01-28 11:31:17.76	323.87	22.81	-47.6	-48.4	24.1	0.00e+00	0	47	0	646971392	60	10347
2026-01-28 11:31:19.78	324.12	22.55	-47.7	-48.5	24.1	0.00e+00	0	47	0	657457152	60	10440
2026-01-28 11:31:21.79	324.35	22.29	-47.8	-48.6	24.0	0.00e+00	0	47	0	668991488	60	10487
2026-01-28 11:31:23.80	324.58	22.03	-47.8	-48.5	24.1	0.00e+00	0	47	0	680525824	60	10442
2026-01-28 11:31:25.82	324.81	21.77	-47.9	-48.7	24.0	0.00e+00	0	47	0	692060160	60	10637
2026-01-28 11:31:27.83	325.04	21.52	-47.9	-48.6	24.0	0.00e+00	0	47	0	703594496	60	10507
2026-01-28 11:31:29.84	325.26	21.27	-47.9	-48.8	23.9	0.00e+00	0	47	0	714080256	60	10744
2026-01-28 11:31:31.85	325.48	21.02	-48.0	-48.8	23.8	0.00e+00	0	47	0	725614592	60	10827
2026-01-28 11:31:33.86	325.69	20.77	-48.0	-48.9	23.9	0.00e+00	0	47	0	737148928	60	10874
2026-01-28 11:31:35.87	325.90	20.53	-48.0	-48.7	23.9	0.00e+00	0	47	0	748683264	60	10665
2026-01-28 11:31:37.88	326.11	20.28	-48.1	-48.7	24.0	0.00e+00	0	47	0	759169024	60	10714
2026-01-28 11:31:39.90	326.32	20.04	-48.1	-48.8	24.0	0.00e+00	0	47	0	770703360	60	10791
2026-01-28 11:31:41.90	326.52	19.80	-48.2	-48.9	23.8	0.00e+00	0	47	0	782237696	60	10958
2026-01-28 11:31:43.92	326.72	19.57	-48.2	-49.1	23.7	0.00e+00	0	46	0	793772032	60	11139
2026-01-28 11:31:45.93	326.92	19.33	-48.4	-49.2	23.6	0.00e+00	0	47	0	805306368	60	11353
2026-01-28 11:31:47.94	327.11	19.10	-48.3	-49.2	23.3	0.00e+00	0	47	0	816840704	60	11236
2026-01-28 11:31:49.95	327.30	18.87	-48.2	-49.0	23.2	0.00e+00	0	47	0	827326464	60	11029
2026-01-28 11:31:51.96	327.49	18.64	-48.1	-49.1	23.2	0.00e+00	0	47	0	838860800	60	11136
2026-01-28 11:31:53.98	327.68	18.41	-48.2	-49.0	23.2	0.00e+00	0	47	0	850395136	60	11079
2026-01-28 11:31:55.99	327.86	18.18	-48.3	-49.1	23.2	0.00e+00	0	47	0	860880896	60	11113
2026-01-28 11:31:58.00	328.04	17.96	-48.4	-49.1	23.0	0.00e+00	0	46	0	872415232	60	11196
2026-01-28 11:32:00.02	328.22	17.73	-48.5	-49.3	22.7	0.00e+00	0	47	0	883949568	60	11460
2026-01-28 11:32:02.03	328.39	17.51	-48.7	-49.6	22.3	0.00e+00	0	47	0	895483904	60	11892
2026-01-28 11:32:04.04	328.57	17.30	-48.7	-49.6	22.2	0.00e+00	0	46	0	907018240	60	11805
2026-01-28 11:32:06.06	328.74	17.08	-48.8	-49.7	22.2	0.00e+00	0	47	0	918552576	60	12013
2026-01-28 11:32:08.07	328.90	16.86	-49.0	-49.8	22.1	0.00e+00	0	47	0	929038336	60	12126
2026-01-28 11:32:10.09	329.07	16.65	-49.1	-50.1	21.9	0.00e+00	0	47	0	940572672	60	12602
2026-01-28 11:32:12.10	329.23	16.44	-49.3	-50.3	21.8	0.00e+00	0	47	0	952107008	60	12851
2026-01-28 11:32:14.11	329.40	16.23	-49.4	-50.3	21.7	0.00e+00	0	47	0	963641344	60	12869
2026-01-28 11:32:16.12	329.56	16.02	-49.6	-50.5	21.5	0.00e+00	0	47	0	975175680	60	13151
2026-01-28 11:32:18.13	329.71	15.81	-49.8	-51.0	21.1	0.00e+00	0	47	0	986710016	60	13885
2026-01-28 11:32:20.14	329.87	15.60	-50.0	-51.2	20.8	0.00e+00	0	47	0	997195776	60	14269
2026-01-28 11:32:22.16	330.02	15.40	-50.2	-51.5	20.5	0.00e+00	0	47	0	1008730112	60	14724
2026-01-28 11:32:24.17	330.17	15.20	-50.5	-51.8	20.2	0.00e+00	0	47	0	1020264448	60	15159
2026-01-28 11:32:26.18	330.32	15.00	-50.8	-51.9	19.5	0.00e+00	0	46	0	1030750208	60	15505
2026-01-28 11:32:28.19	330.47	14.80	-50.9	-52.4	18.6	0.00e+00	0	47	0	1042284544	60	16278
2026-01-28 11:32:30.20	330.62	14.60	-50.9	-52.5	18.0	0.00e+00	0	46	0	1053818880	60	16585
2026-01-28 11:32:32.22	330.76	14.40	-51.1	-52.9	17.6	0.00e+00	0	46	0	1065353216	60	17385
2026-01-28 11:32:34.23	330.90	14.20	-51.1	-53.3	17.2	0.00e+00	0	47	0	1076887552	60	18077
2026-01-28 11:32:36.24	331.04	14.01	-51.2	-53.7	16.7	0.00e+00	0	46	0	1088421888	60	19046
2026-01-28 11:32:38.25	331.18	13.82	-51.3	-54.2	16.2	0.00e+00	0	46	0	1098907648	60	20001
2026-01-28 11:32:40.27	331.32	13.63	-51.5	-54.6	15.8	0.00e+00	0	46	0	1110441984	60	20985
2026-01-28 11:32:42.28	331.46	13.44	-51.7	-55.0	15.0	0.00e+00	0	46	0	1121976320	60	22089
2026-01-28 11:32:44.29	331.59	13.25	-52.0	-55.5	14.5	0.00e+00	0	46	0	1133510656	60	23337
2026-01-28 11:32:46.30	331.72	13.06	-52.2	-56.0	14.0	5.70e-06	0	47	0	1143996416	60	24690
2026-01-28 11:32:48.32	331.85	12.88	-52.5	-56.6	13.7	6.80e-06	0	47	0	1156579328	60	26511
2026-01-28 11:32:50.33	331.98	12.69	-52.6	-57.1	13.2	3.77e-05	0	47	0	1167065088	60	28013
2026-01-28 11:32:52.34	332.11	12.51	-52.7	-57.6	12.5	9.61e-05	0	46	0	1178599424	60	29884
2026-01-28 11:32:54.35	332.24	12.33	-53.0	-58.1	11.8	5.07e-04	0	47	0	1190133760	60	31600
2026-01-28 11:32:56.37	332.36	12.14	-53.2	-58.7	10.8	1.95e-03	0	47	0	1200619520	60	33773
2026-01-28 11:32:58.38	332.49	11.97	-52.8	-59.1	9.8	9.65e-03	0	46	0	1212153856	60	35452
2026-01-28 11:33:00.40	332.61	11.79	-52.2	-59.5	8.7	3.41e-02	0	47	0	1223688192	60	37004
2026-01-28 11:33:02.41	332.73	11.61	-51.1	-59.9	7.5	9.42e-02	0	47	0	1235222528	60	38801
2026-01-28 11:33:04.42	332.85	11.43	-50.4	-60.3	6.7	1.74e-01	0	47	0	1246756864	60	40660
2026-01-28 11:33:06.44	332.97	11.26	-50.3	-60.9	6.3	2.50e-01	0	46	0	1258291200	60	43323
2026-01-28 11:33:08.44	333.08	11.09	-50.5	-61.4	6.0	3.19e-01	0	47	0	1268776960	60	45949
2026-01-28 11:33:10.45	333.20	10.91	-50.8	-61.9	5.6	3.95e-01	0	47	0	1280311296	60	48889
2026-01-28 11:33:12.46	333.31	10.74	-51.4	-62.5	5.3	6.14e-01	0	47	0	1289748480	60	52517
2026-01-28 11:33:14.48	333.43	10.57	-52.4	-63.3	5.1	7.19e-01	0	46	0	1293942784	60	57215
2026-01-28 11:33:16.48	333.54	10.40	-53.1	-64.0	4.7	7.57e-01	0	47	0	1296039936	60	62041
2026-01-28 11:33:18.50	333.65	10.23	-53.4	-64.7	4.3	7.98e-01	0	47	0	1296039936	60	67014
2026-01-28 11:33:20.52	333.76	10.07	-53.8	-65.5	4.0	8.23e-01	0	47	0	1296039936	60	74200
2026-01-28 11:33:22.54	333.87	9.90	-53.6	-66.1	3.7	8.31e-01	0	46	0	1296039936	60	79412
2026-01-28 11:33:24.55	333.98	9.74	-53.3	-67.9	3.8	8.43e-01	0	46	104	1296039936	60	97470
2026-01-28 11:33:26.56	334.08	9.57	-53.0	-68.3	3.6	8.44e-01	0	47	104	1296039936	60	101742
2026-01-28 11:33:28.57	334.19	9.41	-52.6	-68.3	3.6	8.44e-01	0	47	104	1296039936	60	101502
2026-01-28 11:33:30.58	334.29	9.25	-53.3	-69.5	3.6	8.44e-01	0	47	104	1296039936	60	117165
2026-01-28 11:33:32.59	334.40	9.09	-53.0	-69.1	3.6	8.45e-01	0	47	104	1296039936	60	112207
2026-01-28 11:33:34.61	334.50	8.93	-51.3	-68.4	3.6	8.44e-01	0	47	104	1296039936	60	103191
2026-01-28 11:33:36.62	334.60	8.77	-51.6	-68.4	3.6	8.46e-01	0	47	104	1296039936	60	103452
2026-01-28 11:33:38.63	334.70	8.61	-56.9	-71.9	3.6	8.46e-01	0	47	104	1296039936	60	153582
2026-01-28 11:33:40.65	334.80	8.45	-55.1	-71.7	3.6	8.45e-01	0	47	104	1296039936	60	150979
2026-01-28 11:33:42.66	334.90	8.29	-51.4	-69.0	3.6	8.44e-01	0	47	104	1296039936	60	110276
2026-01-28 11:33:44.66	334.99	8.14	-51.6	-70.0	3.6	8.42e-01	0	47	104	1296039936	60	124117
2026-01-28 11:33:46.67	335.09	7.99	-51.5	-68.9	3.6	8.44e-01	0	47	104	1296039936	60	108721
2026-01-28 11:33:48.68	335.18	7.83	-57.8	-71.5	3.6	8.44e-01	0	47	104	1296039936	60	148072
2026-01-28 11:33:50.69	335.28	7.68	-57.6	-71.4	3.6	8.45e-01	0	47	104	1296039936	60	146022
2026-01-28 11:33:52.70	335.37	7.53	-52.8	-70.1	3.6	8.44e-01	0	47	104	1296039936	60	126035
2026-01-28 11:33:54.71	335.46	7.38	-52.4	-69.7	3.6	8.43e-01	0	47	104	1296039936	60	119245
2026-01-28 11:33:56.73	335.56	7.23	-54.7	-69.7	3.6	8.44e-01	0	47	104	1296039936	60	120002
2026-01-28 11:33:58.74	335.65	7.08	-52.3	-69.4	3.6	8.45e-01	0	47	104	1296039936	60	115605
2026-01-28 11:34:00.75	335.74	6.93	-55.6	-70.6	3.6	8.45e-01	0	47	104	1296039936	60	133314
2026-01-28 11:34:02.76	335.83	6.78	-53.0	-69.8	3.6	8.44e-01	0	47	104	1296039936	60	121580
2026-01-28 11:34:04.76	335.92	6.63	-57.0	-70.8	3.6	8.44e-01	0	47	104	1296039936	60	136164
2026-01-28 11:34:06.77	336.00	6.49	-54.5	-70.4	3.6	8.45e-01	0	47	104	1296039936	60	129167
2026-01-28 11:34:08.78	336.09	6.34	-52.3	-70.1	3.6	8.45e-01	0	47	104	1296039936	60	125782
2026-01-28 11:34:10.79	336.18	6.20	-52.2	-69.6	3.6	8.44e-01	0	47	104	1296039936	60	117697
2026-01-28 11:34:12.79	336.26	6.06	-55.3	-70.5	3.6	8.45e-01	0	47	104	1296039936	60	131791
2026-01-28 11:34:14.81	336.35	5.91	-53.2	-70.3	3.6	8.45e-01	0	47	104	1296039936	60	128891
2026-01-28 11:34:16.82	336.43	5.77	-59.7	-73.6	3.6	8.46e-01	0	47	104	1296039936	60	187506
2026-01-28 11:34:18.83	336.51	5.63	-60.6	-74.1	3.6	8.45e-01	0	47	104	1296039936	60	199731
2026-01-28 11:34:20.84	336.60	5.49	-58.5	-73.9	3.6	8.45e-01	0	47	104	1296039936	60	194831
2026-01-28 11:34:22.86	336.68	5.35	-61.1	-74.5	3.6	8.46e-01	0	47	104	1296039936	60	207316
2026-01-28 11:34:24.87	336.76	5.21	-60.7	-74.6	3.6	8.44e-01	0	47	104	1296039936	60	210027
2026-01-28 11:34:26.88	336.84	5.07	-61.5	-74.9	3.6	8.44e-01	0	47	104	1296039936	60	217581
2026-01-28 11:34:28.90	336.92	4.93	-59.8	-74.6	3.6	8.44e-01	0	47	104	1296039936	60	210128
2026-01-28 11:34:30.91	337.00	4.79	-57.4	-73.6	3.6	8.46e-01	0	47	104	1296039936	60	186660
2026-01-28 11:34:32.93	337.08	4.66	-59.3	-74.6	3.6	8.45e-01	0	47	104	1296039936	60	210180
2026-01-28 11:34:34.94	337.16	4.52	-59.0	-74.3	3.6	8.46e-01	0	47	104	1296039936	60	202364
2026-01-28 11:34:36.95	337.23	4.38	-58.9	-74.2	3.6	8.46e-01	0	47	104	1296039936	60	201949
2026-01-28 11:34:38.96	337.31	4.25	-59.1	-74.3	3.6	8.45e-01	0	47	104	1296039936	60	204435
2026-01-28 11:34:40.97	337.39	4.11	-59.3	-74.4	3.6	8.46e-01	0	47	104	1296039936	60	206805
2026-01-28 11:34:42.98	337.46	3.98	-59.4	-74.8	3.6	8.45e-01	0	47	104	1296039936	60	215195
2026-01-28 11:34:44.99	337.54	3.85	-59.3	-74.7	3.6	8.46e-01	0	47	104	1296039936	60	213079
2026-01-28 11:34:47.01	337.61	3.72	-59.5	-74.5	3.6	8.46e-01	0	47	104	1296039936	60	206902
2026-01-28 11:34:49.02	337.68	3.58	-59.4	-74.7	3.6	8.45e-01	0	47	104	1296039936	60	211699
2026-01-28 11:34:51.04	337.76	3.45	-59.3	-74.5	3.6	8.45e-01	0	47	104	1296039936	60	209021
2026-01-28 11:34:53.04	337.83	3.32	-59.3	-74.5	3.6	8.46e-01	0	47	104	1296039936	60	208428
2026-01-28 11:34:55.05	337.90	3.19	-59.3	-74.6	3.6	8.45e-01	0	47	104	1296039936	60	210233
2026-01-28 11:34:57.07	337.97	3.06	-59.2	-74.4	3.6	8.45e-01	0	46	104	1296039936	60	206376
2026-01-28 11:34:59.08	338.04	2.93	-59.1	-74.5	3.6	8.45e-01	0	47	104	1296039936	60	208807
2026-01-28 11:35:01.09	338.11	2.81	-59.2	-74.4	3.6	8.45e-01	0	47	104	1296039936	60	206657
2026-01-28 11:35:03.10	338.18	2.68	-59.0	-74.3	3.6	8.45e-01	0	47	104	1296039936	60	203057
2026-01-28 11:35:05.11	338.25	2.55	-59.0	-74.2	3.6	8.46e-01	0	47	104	1296039936	60	201557
2026-01-28 11:35:07.13	338.32	2.42	-59.0	-74.5	3.6	8.46e-01	0	47	104	1296039936	60	207665
2026-01-28 11:35:09.13	338.39	2.30	-59.0	-74.5	3.6	8.44e-01	0	47	104	1296039936	60	207299
2026-01-28 11:35:11.15	338.46	2.17	-58.8	-74.2	3.6	8.46e-01	0	47	104	1296039936	60	201790
2026-01-28 11:35:13.16	338.52	2.05	-58.8	-74.2	3.6	8.45e-01	0	47	104	1296039936	60	200474
2026-01-28 11:35:15.18	338.59	1.92	-58.8	-74.3	3.6	8.44e-01	0	47	104	1296039936	60	203187
2026-01-28 11:35:17.19	338.66	1.80	-59.1	-74.3	3.6	8.45e-01	0	47	104	1296039936	60	203128
2026-01-28 11:35:19.20	338.72	1.68	-59.2	-74.2	3.6	8.45e-01	0	47	104	1296039936	60	200689
2026-01-28 11:35:21.22	338.79	1.55	-59.0	-74.4	3.6	8.45e-01	0	47	104	1296039936	60	204934
2026-01-28 11:35:23.23	338.85	1.43	-59.0	-74.3	3.6	8.45e-01	0	47	104	1296039936	60	204378
2026-01-28 11:35:25.25	338.92	1.31	-59.0	-74.3	3.6	8.46e-01	0	47	104	1296039936	60	202704
2026-01-28 11:35:27.25	338.98	1.19	-59.1	-74.2	3.6	8.45e-01	0	47	104	1296039936	60	200460
2026-01-28 11:35:29.26	339.05	1.07	-59.1	-74.4	3.6	8.44e-01	0	47	104	1296039936	60	205681
2026-01-28 11:35:31.27	339.11	0.95	-59.1	-74.5	3.6	8.44e-01	0	47	104	1296039936	60	208891
2026-01-28 11:35:33.28	339.17	0.83	-59.1	-74.3	3.6	8.45e-01	0	47	104	1296039936	60	202479
2026-01-28 11:35:35.30	339.23	0.71	-59.1	-74.3	3.6	8.45e-01	0	47	104	1296039936	60	203820
2026-01-28 11:35:37.32	339.30	0.59	-59.1	-74.2	3.6	8.44e-01	0	47	104	1296039936	60	200740
2026-01-28 11:35:39.33	339.36	0.47	-58.9	-74.4	3.6	8.46e-01	0	47	104	1296039936	60	205171
2026-01-28 11:35:41.34	339.42	0.35	-59.0	-74.3	3.6	8.46e-01	0	47	104	1296039936	60	203655
2026-01-28 11:35:43.35	339.48	0.23	-58.9	-74.0	3.5	8.46e-01	0	47	104	1296039936	60	196852
2026-01-28 11:35:45.36	339.54	0.12	-58.8	-74.5	3.6	8.45e-01	0	47	104	1296039936	60	208192

#Closed at: 2026-01-28 11:35:47
#Recorded file [1296 MB]: D:/Data/35015_260128_143344.dat