passes_logs/2026/01/28/R3.2S-Naryan-Mar/R3.2S-Naryan-Mar__20260128_102445_SUOMI_NPP_rec.log

#Pass ID: 20260128_102445_SUOMI NPP
#Satellite: SUOMI NPP
#Configuration: NPP
#almurnet v.1.7.20240730
#Start time: 2026-01-28 10:24:50

#Version: 2.2.20231116
#Station: R3.2S-Naryan-Mar
#Location: 53.008057 lon 67.646978 lat
#TLE: 1 37849U 11061A   26027.86188320  .00000172  00000+0  10275-3 0  9990
#TLE: 2 37849  98.7823 329.8005 0002088  41.4184 318.7150 14.19530883738530

#Time	Az	El	Level	Level2	SNR	BER	BlckErr	Temp	State	Recorded	gain1	gain2
2026-01-28 10:24:50.05	203.71	0.26	-55.5	-59.1	3.3	0.00e+00	0	44	0	0	60	107264
2026-01-28 10:24:54.07	203.94	0.48	-61.4	-78.3	3.6	1.51e+00	0	45	104	0	60	320822
2026-01-28 10:24:58.10	204.18	0.70	-61.1	-78.0	3.6	1.51e+00	0	45	104	0	60	311389
2026-01-28 10:25:02.12	204.41	0.92	-60.0	-77.0	3.6	1.51e+00	0	45	104	0	60	276971
2026-01-28 10:25:06.15	204.66	1.15	-57.6	-75.0	3.6	1.51e+00	0	45	104	0	60	219789
2026-01-28 10:25:10.16	204.90	1.37	-57.4	-74.9	3.6	1.51e+00	0	46	104	0	60	218164
2026-01-28 10:25:14.18	205.15	1.60	-57.4	-74.9	3.6	1.51e+00	0	45	104	0	60	218376
2026-01-28 10:25:18.21	205.41	1.82	-57.3	-74.7	3.6	1.51e+00	0	46	104	0	60	211998
2026-01-28 10:25:22.24	205.66	2.05	-57.2	-75.0	3.6	1.51e+00	0	46	104	0	60	219087
2026-01-28 10:25:26.25	205.92	2.28	-57.2	-74.6	3.6	1.51e+00	0	46	104	0	60	210849
2026-01-28 10:25:30.28	206.19	2.51	-57.1	-74.5	3.6	1.51e+00	0	46	104	0	60	207611
2026-01-28 10:25:34.30	206.46	2.74	-57.1	-74.7	3.6	1.51e+00	0	46	104	0	60	213246
2026-01-28 10:25:38.33	206.73	2.98	-57.1	-74.7	3.6	1.51e+00	0	46	104	0	60	212446
2026-01-28 10:25:42.35	207.01	3.21	-57.1	-74.5	3.6	1.51e+00	0	46	104	0	60	208344
2026-01-28 10:25:46.38	207.29	3.45	-57.0	-74.4	3.6	1.51e+00	0	46	104	0	60	204733
2026-01-28 10:25:50.41	207.58	3.69	-57.1	-74.6	3.6	1.51e+00	0	46	104	0	60	210685
2026-01-28 10:25:54.44	207.87	3.93	-57.1	-74.4	3.6	1.51e+00	0	46	104	0	60	206351
2026-01-28 10:25:58.46	208.16	4.17	-57.1	-74.4	3.6	1.51e+00	0	46	104	0	60	206193
2026-01-28 10:26:02.48	208.46	4.42	-57.2	-74.7	3.6	1.51e+00	0	46	104	0	60	212159
2026-01-28 10:26:06.51	208.76	4.66	-57.1	-74.3	3.6	1.51e+00	0	46	104	0	60	204046
2026-01-28 10:26:10.54	209.07	4.91	-57.1	-74.4	3.6	1.51e+00	0	46	104	0	60	205825
2026-01-28 10:26:14.57	209.39	5.16	-57.0	-73.7	3.6	1.51e+00	0	46	104	0	60	190706
2026-01-28 10:26:18.60	209.71	5.41	-56.9	-70.6	4.2	1.46e+00	0	46	104	0	60	132433
2026-01-28 10:26:22.63	210.03	5.66	-55.7	-61.4	12.0	8.19e-04	0	46	0	7340032	60	45845
2026-01-28 10:26:26.66	210.36	5.91	-54.3	-58.1	15.1	0.00e+00	0	46	0	14680064	60	31601
2026-01-28 10:26:30.68	210.70	6.17	-57.9	-70.3	4.4	1.51e+00	0	46	104	20971520	60	128719
2026-01-28 10:26:34.71	211.04	6.42	-55.1	-58.2	15.8	0.00e+00	0	46	0	20971520	60	31928
2026-01-28 10:26:38.73	211.39	6.68	-54.1	-56.8	17.1	0.00e+00	0	46	0	8388608	60	27119
2026-01-28 10:26:42.76	211.74	6.94	-53.6	-56.2	18.0	0.00e+00	0	46	0	15728640	60	25352
2026-01-28 10:26:46.79	212.10	7.20	-53.8	-56.5	17.8	0.00e+00	0	46	0	23068672	60	26234
2026-01-28 10:26:50.82	212.46	7.47	-54.0	-56.4	17.8	0.00e+00	0	46	0	30408704	60	25877
2026-01-28 10:26:54.85	212.83	7.73	-54.0	-56.3	17.9	0.00e+00	0	46	0	37748736	60	25714
2026-01-28 10:26:58.88	213.21	8.00	-53.8	-56.0	18.3	0.00e+00	0	46	0	46137344	60	24678
2026-01-28 10:27:02.90	213.60	8.27	-53.7	-55.9	18.5	0.00e+00	0	46	0	53477376	60	24405
2026-01-28 10:27:06.93	213.99	8.54	-53.8	-56.0	18.4	0.00e+00	0	46	0	60817408	60	24617
2026-01-28 10:27:10.96	214.39	8.81	-53.7	-55.8	18.4	0.00e+00	0	46	0	68157440	60	24270
2026-01-28 10:27:14.99	214.79	9.09	-53.7	-55.9	18.7	0.00e+00	0	46	0	76546048	60	24307
2026-01-28 10:27:19.03	215.21	9.36	-53.5	-55.6	18.8	0.00e+00	0	46	0	83886080	60	23585
2026-01-28 10:27:23.05	215.63	9.64	-53.7	-55.7	19.0	0.00e+00	0	46	0	91226112	60	23908
2026-01-28 10:27:27.07	216.06	9.92	-53.4	-55.1	19.3	0.00e+00	0	46	0	98566144	60	22373
2026-01-28 10:27:31.09	216.49	10.20	-53.5	-55.4	19.2	0.00e+00	0	46	0	105906176	60	23066
2026-01-28 10:27:35.12	216.94	10.49	-54.0	-56.0	18.8	0.00e+00	0	46	0	113246208	60	24852
2026-01-28 10:27:39.15	217.39	10.77	-54.3	-56.4	18.1	0.00e+00	0	46	0	121634816	60	25961
2026-01-28 10:27:43.17	217.85	11.06	-54.3	-56.3	18.6	0.00e+00	0	46	0	128974848	60	25726
2026-01-28 10:27:47.20	218.32	11.35	-54.1	-56.1	19.0	0.00e+00	0	46	0	136314880	60	24913
2026-01-28 10:27:51.23	218.80	11.64	-53.9	-55.8	19.2	0.00e+00	0	46	0	143654912	60	24117
2026-01-28 10:27:55.25	219.29	11.93	-53.8	-55.7	19.2	0.00e+00	0	46	0	150994944	60	23819
2026-01-28 10:27:59.27	219.79	12.22	-53.6	-55.4	19.5	0.00e+00	0	46	0	159383552	60	23082
2026-01-28 10:28:03.30	220.29	12.52	-53.6	-55.3	19.5	0.00e+00	0	46	0	166723584	60	22899
2026-01-28 10:28:07.33	220.81	12.81	-53.6	-55.4	19.6	0.00e+00	0	46	0	174063616	60	22964
2026-01-28 10:28:11.35	221.34	13.11	-53.6	-55.3	19.6	0.00e+00	0	46	0	181403648	60	22915
2026-01-28 10:28:15.36	221.88	13.41	-53.6	-55.4	19.5	0.00e+00	0	46	0	188743680	60	23151
2026-01-28 10:28:19.38	222.42	13.71	-54.2	-56.2	19.0	0.00e+00	0	46	0	197132288	60	25256
2026-01-28 10:28:23.41	222.98	14.01	-54.5	-56.5	18.7	0.00e+00	0	46	0	204472320	60	26152
2026-01-28 10:28:27.43	223.55	14.32	-54.4	-56.4	18.7	0.00e+00	0	46	0	211812352	60	25820
2026-01-28 10:28:31.44	224.13	14.62	-53.6	-55.4	19.6	0.00e+00	0	46	0	219152384	60	22957
2026-01-28 10:28:35.46	224.72	14.92	-53.2	-54.9	19.9	0.00e+00	0	46	0	226492416	60	21711
2026-01-28 10:28:39.49	225.33	15.23	-52.9	-54.5	20.3	0.00e+00	0	46	0	234881024	60	20867
2026-01-28 10:28:43.52	225.95	15.54	-52.6	-54.2	20.5	0.00e+00	0	46	0	242221056	60	20108
2026-01-28 10:28:47.54	226.58	15.85	-52.9	-54.5	20.3	0.00e+00	0	46	0	249561088	60	20900
2026-01-28 10:28:51.57	227.22	16.16	-53.3	-55.0	19.9	0.00e+00	0	46	0	256901120	60	22050
2026-01-28 10:28:55.59	227.88	16.47	-53.6	-55.3	19.8	0.00e+00	0	46	0	264241152	60	22740
2026-01-28 10:28:59.61	228.54	16.78	-53.2	-54.8	20.2	0.00e+00	0	46	0	272629760	60	21508
2026-01-28 10:29:03.62	229.22	17.08	-52.8	-54.2	20.8	0.00e+00	0	46	0	279969792	60	20208
2026-01-28 10:29:07.64	229.92	17.39	-52.9	-54.5	20.4	0.00e+00	0	46	0	287309824	60	20813
2026-01-28 10:29:11.66	230.63	17.70	-52.4	-53.8	21.2	0.00e+00	0	46	0	294649856	60	19114
2026-01-28 10:29:15.69	231.35	18.01	-52.6	-54.1	20.8	0.00e+00	0	46	0	301989888	60	19855
2026-01-28 10:29:19.71	232.09	18.32	-52.7	-54.2	20.7	0.00e+00	0	46	0	309329920	60	20142
2026-01-28 10:29:23.75	232.85	18.63	-53.0	-54.5	20.6	0.00e+00	0	46	0	317718528	60	20899
2026-01-28 10:29:27.76	233.61	18.94	-53.5	-55.1	19.9	0.00e+00	0	46	0	325058560	60	22368
2026-01-28 10:29:31.78	234.39	19.24	-52.8	-54.3	20.6	0.00e+00	0	46	0	332398592	60	20367
2026-01-28 10:29:35.80	235.19	19.55	-52.6	-54.0	20.8	0.00e+00	0	46	0	339738624	60	19659
2026-01-28 10:29:39.82	236.00	19.85	-52.1	-53.4	21.3	0.00e+00	0	46	0	347078656	60	18296
2026-01-28 10:29:43.85	236.84	20.15	-51.5	-52.7	21.8	0.00e+00	0	46	0	355467264	60	16951
2026-01-28 10:29:47.88	237.68	20.45	-51.3	-52.5	22.0	0.00e+00	0	46	0	362807296	60	16475
2026-01-28 10:29:51.89	238.54	20.74	-51.1	-52.3	22.1	0.00e+00	0	46	0	370147328	60	16138
2026-01-28 10:29:55.91	239.42	21.03	-51.4	-52.6	21.9	0.00e+00	0	46	0	377487360	60	16689
2026-01-28 10:29:59.94	240.31	21.32	-51.6	-52.8	21.8	0.00e+00	0	46	0	384827392	60	17166
2026-01-28 10:30:03.98	241.23	21.61	-51.6	-52.8	21.8	0.00e+00	0	46	0	393216000	60	17026
2026-01-28 10:30:08.00	242.15	21.89	-51.2	-52.4	22.2	0.00e+00	0	46	0	400556032	60	16253
2026-01-28 10:30:12.02	243.09	22.16	-51.9	-53.1	21.6	0.00e+00	0	46	0	407896064	60	17742
2026-01-28 10:30:16.04	244.05	22.43	-51.9	-53.1	21.6	0.00e+00	0	46	0	415236096	60	17733
2026-01-28 10:30:20.07	245.03	22.70	-52.0	-53.3	21.6	0.00e+00	0	46	0	422576128	60	18031
2026-01-28 10:30:24.10	246.02	22.96	-52.1	-53.4	21.4	0.00e+00	0	46	0	430964736	60	18404
2026-01-28 10:30:28.12	247.03	23.21	-52.4	-53.8	21.1	0.00e+00	0	46	0	438304768	60	19101
2026-01-28 10:30:32.16	248.05	23.46	-52.0	-53.3	21.4	0.00e+00	0	46	0	445644800	60	18172
2026-01-28 10:30:36.18	249.09	23.70	-52.9	-54.4	20.6	0.00e+00	0	46	0	452984832	60	20485
2026-01-28 10:30:40.21	250.15	23.93	-54.0	-55.7	19.5	0.00e+00	0	46	0	460324864	60	23959
2026-01-28 10:30:44.23	251.21	24.15	-53.4	-55.0	20.2	0.00e+00	0	46	0	468713472	60	22034
2026-01-28 10:30:48.25	252.30	24.36	-53.9	-55.8	19.3	0.00e+00	0	46	0	476053504	60	24036
2026-01-28 10:30:52.28	253.39	24.57	-54.7	-56.7	18.4	0.00e+00	0	46	0	483393536	60	26757
2026-01-28 10:30:56.30	254.51	24.77	-53.5	-55.1	19.8	0.00e+00	0	46	0	490733568	60	22217
2026-01-28 10:31:00.31	255.63	24.95	-54.8	-57.0	18.2	0.00e+00	0	46	0	498073600	60	27616
2026-01-28 10:31:04.32	256.76	25.13	-55.4	-57.8	17.2	0.00e+00	0	46	0	506462208	60	30257
2026-01-28 10:31:08.34	257.91	25.29	-55.3	-57.6	17.7	0.00e+00	0	46	0	513802240	60	29751
2026-01-28 10:31:12.37	259.07	25.45	-54.6	-56.7	18.2	0.00e+00	0	46	0	521142272	60	26673
2026-01-28 10:31:16.39	260.24	25.59	-55.3	-57.6	17.4	0.00e+00	0	46	0	528482304	60	29791
2026-01-28 10:31:20.41	261.42	25.72	-55.9	-58.7	16.3	0.00e+00	0	46	0	535822336	60	33772
2026-01-28 10:31:24.44	262.61	25.84	-54.8	-56.9	18.2	0.00e+00	0	46	0	543162368	60	27444
2026-01-28 10:31:28.47	263.81	25.95	-54.3	-56.1	19.0	0.00e+00	0	46	0	551550976	60	25127
2026-01-28 10:31:32.50	265.02	26.04	-54.7	-56.8	18.2	0.00e+00	0	46	0	558891008	60	27054
2026-01-28 10:31:36.53	266.23	26.12	-54.7	-56.7	18.4	0.00e+00	0	46	0	566231040	60	26928
2026-01-28 10:31:40.56	267.45	26.19	-53.8	-55.5	19.3	0.00e+00	0	46	0	573571072	60	23319
2026-01-28 10:31:44.60	268.68	26.25	-54.8	-56.8	18.3	0.00e+00	0	46	0	581959680	60	27144
2026-01-28 10:31:48.61	269.90	26.29	-54.0	-55.8	19.2	0.00e+00	0	46	0	589299712	60	24202
2026-01-28 10:31:52.63	271.13	26.31	-54.5	-56.4	18.8	0.00e+00	0	46	0	596639744	60	25899
2026-01-28 10:31:56.65	272.36	26.33	-54.1	-56.1	19.0	0.00e+00	0	46	0	603979776	60	24976
2026-01-28 10:32:00.68	273.59	26.32	-52.8	-54.5	20.3	0.00e+00	0	46	0	611319808	60	20824
2026-01-28 10:32:04.69	274.81	26.31	-53.5	-55.5	19.3	0.00e+00	0	46	0	619708416	60	23318
2026-01-28 10:32:08.71	276.04	26.28	-53.2	-55.2	19.6	0.00e+00	0	46	0	627048448	60	22519
2026-01-28 10:32:12.74	277.26	26.24	-53.5	-55.9	18.9	0.00e+00	0	46	0	634388480	60	24374
2026-01-28 10:32:16.77	278.49	26.18	-53.7	-57.1	17.5	0.00e+00	0	46	0	641728512	60	28034
2026-01-28 10:32:20.79	279.70	26.12	-52.5	-55.9	18.1	0.00e+00	0	46	0	649068544	60	24491
2026-01-28 10:32:24.81	280.91	26.03	-51.2	-53.9	19.8	0.00e+00	0	46	0	656408576	60	19320
2026-01-28 10:32:28.83	282.11	25.94	-51.5	-54.2	19.7	0.00e+00	0	46	0	664797184	60	19991
2026-01-28 10:32:32.86	283.31	25.83	-51.9	-54.4	19.6	0.00e+00	0	46	0	672137216	60	20479
2026-01-28 10:32:36.89	284.50	25.71	-51.7	-53.4	20.8	0.00e+00	0	46	0	679477248	60	18415
2026-01-28 10:32:40.90	285.67	25.58	-52.4	-54.0	20.5	0.00e+00	0	46	0	686817280	60	19666
2026-01-28 10:32:44.92	286.84	25.43	-52.5	-54.4	19.9	0.00e+00	0	46	0	694157312	60	20575
2026-01-28 10:32:48.95	288.00	25.28	-52.0	-54.5	19.2	0.00e+00	0	46	0	702545920	60	20767
2026-01-28 10:32:52.99	289.15	25.11	-50.5	-52.5	21.0	0.00e+00	0	46	0	709885952	60	16610
2026-01-28 10:32:57.02	290.28	24.94	-50.6	-52.7	21.3	0.00e+00	0	46	0	717225984	60	16904
2026-01-28 10:33:01.04	291.40	24.75	-50.9	-52.6	22.0	0.00e+00	0	46	0	724566016	60	16639
2026-01-28 10:33:05.08	292.51	24.55	-51.6	-53.0	22.0	0.00e+00	0	46	0	732954624	60	17424
2026-01-28 10:33:09.10	293.60	24.34	-51.0	-52.3	22.3	0.00e+00	0	46	0	740294656	60	16153
2026-01-28 10:33:13.12	294.68	24.13	-50.8	-52.3	21.9	0.00e+00	0	46	0	747634688	60	16178
2026-01-28 10:33:17.14	295.74	23.91	-50.7	-52.2	21.8	0.00e+00	0	46	0	754974720	60	15987
2026-01-28 10:33:21.17	296.79	23.68	-51.3	-52.7	21.8	0.00e+00	0	46	0	762314752	60	16929
2026-01-28 10:33:25.20	297.83	23.44	-51.0	-52.2	22.3	0.00e+00	0	46	0	769654784	60	16045
2026-01-28 10:33:29.22	298.85	23.19	-51.2	-52.5	22.4	0.00e+00	0	46	0	778043392	60	16528
2026-01-28 10:33:33.26	299.85	22.94	-51.0	-52.4	22.1	0.00e+00	0	46	0	785383424	60	16293
2026-01-28 10:33:37.28	300.84	22.68	-51.9	-53.5	20.6	0.00e+00	0	46	0	792723456	60	18537
2026-01-28 10:33:41.30	301.80	22.41	-51.7	-53.2	21.0	0.00e+00	0	46	0	800063488	60	17841
2026-01-28 10:33:45.32	302.76	22.15	-52.5	-54.1	20.7	0.00e+00	0	46	0	807403520	60	19900
2026-01-28 10:33:49.34	303.69	21.87	-51.6	-53.3	21.3	0.00e+00	0	46	0	815792128	60	18183
2026-01-28 10:33:53.37	304.62	21.59	-52.4	-54.5	20.4	0.00e+00	0	46	0	823132160	60	20706
2026-01-28 10:33:57.38	305.52	21.31	-52.5	-54.2	20.9	0.00e+00	0	46	0	830472192	60	20001
2026-01-28 10:34:01.41	306.41	21.02	-51.4	-52.6	22.0	0.00e+00	0	46	0	837812224	60	16712
2026-01-28 10:34:05.42	307.28	20.73	-52.2	-53.8	21.0	0.00e+00	0	46	0	845152256	60	19145
2026-01-28 10:34:09.44	308.13	20.44	-52.4	-54.7	20.3	0.00e+00	0	46	0	853540864	60	21358
2026-01-28 10:34:13.45	308.97	20.15	-52.0	-54.5	20.6	0.00e+00	0	46	0	860880896	60	20836
2026-01-28 10:34:17.48	309.80	19.85	-52.6	-54.2	20.7	0.00e+00	0	46	0	868220928	60	20086
2026-01-28 10:34:21.50	310.61	19.55	-53.6	-55.6	19.6	0.00e+00	0	46	0	875560960	60	23496
2026-01-28 10:34:25.52	311.40	19.25	-52.2	-53.9	21.0	0.00e+00	0	46	0	882900992	60	19504
2026-01-28 10:34:29.55	312.18	18.94	-52.4	-53.8	21.0	0.00e+00	0	46	0	890241024	60	19289
2026-01-28 10:34:33.58	312.94	18.64	-52.8	-55.1	19.1	0.00e+00	0	46	0	898629632	60	22343
2026-01-28 10:34:37.59	313.69	18.33	-52.3	-54.3	19.9	0.00e+00	0	46	0	905969664	60	20380
2026-01-28 10:34:41.61	314.42	18.03	-53.8	-55.7	19.5	0.00e+00	0	46	0	913309696	60	23899
2026-01-28 10:34:45.64	315.14	17.72	-52.6	-54.5	19.9	0.00e+00	0	46	0	920649728	60	20756
2026-01-28 10:34:49.67	315.85	17.41	-51.9	-54.4	19.3	0.00e+00	0	46	0	929038336	60	20596
2026-01-28 10:34:53.70	316.54	17.10	-51.3	-54.1	19.7	0.00e+00	0	46	0	936378368	60	19797
2026-01-28 10:34:57.71	317.22	16.80	-51.5	-53.8	20.4	0.00e+00	0	46	0	943718400	60	19214
2026-01-28 10:35:01.74	317.89	16.49	-52.2	-55.1	19.2	0.00e+00	0	46	0	951058432	60	22235
2026-01-28 10:35:05.78	318.54	16.18	-51.6	-54.6	18.8	0.00e+00	0	46	0	958398464	60	20927
2026-01-28 10:35:09.80	319.18	15.87	-50.9	-54.0	18.6	0.00e+00	0	46	0	966787072	60	19543
2026-01-28 10:35:13.83	319.81	15.57	-51.1	-54.4	19.1	0.00e+00	0	46	0	974127104	60	20652
2026-01-28 10:35:17.86	320.42	15.26	-51.4	-54.2	19.8	0.00e+00	0	46	0	981467136	60	20022
2026-01-28 10:35:21.89	321.03	14.96	-51.1	-55.3	17.5	0.00e+00	0	46	0	988807168	60	22844
2026-01-28 10:35:25.92	321.62	14.65	-50.4	-56.7	15.3	0.00e+00	0	46	0	996147200	60	26839
2026-01-28 10:35:29.94	322.20	14.35	-50.6	-56.0	16.2	0.00e+00	0	46	0	1003487232	60	24815
2026-01-28 10:35:33.97	322.76	14.05	-51.6	-55.8	17.5	0.00e+00	0	46	0	1011875840	60	24206
2026-01-28 10:35:37.98	323.32	13.75	-51.9	-55.9	17.4	0.00e+00	0	46	0	1019215872	60	24310
2026-01-28 10:35:42.00	323.87	13.45	-51.1	-55.8	15.9	0.00e+00	0	46	0	1026555904	60	24049
2026-01-28 10:35:46.02	324.40	13.16	-50.7	-56.5	14.9	0.00e+00	0	46	0	1033895936	60	26112
2026-01-28 10:35:50.04	324.93	12.86	-51.9	-58.1	14.3	2.20e-06	0	46	0	1041235968	60	31628
2026-01-28 10:35:54.07	325.44	12.57	-54.4	-59.2	14.3	0.00e+00	0	46	0	1049624576	60	35699
2026-01-28 10:35:58.09	325.95	12.27	-54.9	-59.3	13.8	1.50e-06	0	46	0	1056964608	60	35977
2026-01-28 10:36:02.11	326.44	11.98	-53.8	-60.3	12.1	1.04e-04	0	46	0	1064304640	60	40629
2026-01-28 10:36:06.14	326.93	11.69	-53.9	-61.4	10.9	1.32e-03	0	46	0	1071644672	60	46203
2026-01-28 10:36:10.16	327.41	11.41	-54.4	-62.4	9.4	1.25e-02	0	46	0	1078984704	60	51629
2026-01-28 10:36:14.19	327.88	11.12	-54.7	-63.5	8.5	3.58e-02	0	46	0	1087373312	60	58348
2026-01-28 10:36:18.21	328.34	10.84	-55.9	-64.7	7.6	7.79e-02	0	46	0	1094713344	60	67615
2026-01-28 10:36:22.23	328.79	10.55	-56.7	-65.9	6.2	2.50e-01	0	46	0	1102053376	60	77189
2026-01-28 10:36:26.26	329.23	10.27	-56.1	-67.2	4.8	5.76e-01	0	46	0	1109393408	60	89504
2026-01-28 10:36:30.28	329.67	9.99	-56.8	-68.4	4.3	8.97e-01	0	46	0	1116733440	60	103134
2026-01-28 10:36:34.31	330.10	9.72	-57.5	-69.4	3.9	1.37e+00	0	46	0	1123024896	60	115565
2026-01-28 10:36:38.32	330.51	9.44	-57.5	-71.4	3.7	1.48e+00	0	46	104	1123024896	60	146057
2026-01-28 10:36:42.36	330.93	9.17	-56.9	-72.8	3.6	1.51e+00	0	46	104	1123024896	60	170128
2026-01-28 10:36:46.39	331.33	8.89	-56.8	-73.9	3.6	1.51e+00	0	46	104	1123024896	60	194789
2026-01-28 10:36:50.40	331.73	8.63	-56.6	-73.9	3.6	1.51e+00	0	46	104	1123024896	60	193199
2026-01-28 10:36:54.42	332.12	8.36	-56.2	-73.6	3.6	1.51e+00	0	46	104	1123024896	60	186960
2026-01-28 10:36:58.45	332.51	8.09	-56.6	-73.9	3.6	1.51e+00	0	46	104	1123024896	60	193728
2026-01-28 10:37:02.48	332.89	7.82	-55.1	-72.9	3.6	1.51e+00	0	47	104	1123024896	60	172876
2026-01-28 10:37:06.51	333.26	7.56	-57.3	-74.4	3.6	1.51e+00	0	46	104	1123024896	60	204814
2026-01-28 10:37:10.54	333.62	7.30	-54.5	-72.8	3.6	1.51e+00	0	46	104	1123024896	60	171734
2026-01-28 10:37:14.57	333.98	7.04	-56.8	-74.1	3.6	1.51e+00	0	46	104	1123024896	60	199455
2026-01-28 10:37:18.60	334.34	6.78	-57.0	-74.0	3.6	1.51e+00	0	46	104	1123024896	60	196694
2026-01-28 10:37:22.62	334.68	6.53	-56.8	-74.1	3.6	1.51e+00	0	46	104	1123024896	60	199436
2026-01-28 10:37:26.64	335.03	6.27	-53.1	-72.3	3.6	1.51e+00	0	46	104	1123024896	60	161683
2026-01-28 10:37:30.67	335.36	6.02	-57.2	-74.2	3.6	1.51e+00	0	46	104	1123024896	60	201793
2026-01-28 10:37:34.70	335.69	5.77	-59.3	-76.7	3.6	1.51e+00	0	46	104	1123024896	60	267636
2026-01-28 10:37:38.73	336.02	5.52	-59.9	-77.1	3.6	1.51e+00	0	46	104	1123024896	60	281090
2026-01-28 10:37:42.75	336.34	5.27	-59.0	-77.1	3.6	1.51e+00	0	46	104	1123024896	60	280762
2026-01-28 10:37:46.79	336.65	5.02	-59.0	-77.4	3.6	1.51e+00	0	46	104	1123024896	60	290519
2026-01-28 10:37:50.82	336.97	4.78	-58.8	-77.2	3.6	1.51e+00	0	46	104	1123024896	60	284200
2026-01-28 10:37:54.85	337.27	4.53	-58.7	-77.0	3.6	1.51e+00	0	46	104	1123024896	60	278008
2026-01-28 10:37:58.88	337.57	4.29	-58.6	-77.1	3.6	1.51e+00	0	46	104	1123024896	60	279911
2026-01-28 10:38:02.92	337.87	4.05	-58.6	-77.0	3.6	1.51e+00	0	46	104	1123024896	60	278399
2026-01-28 10:38:06.95	338.16	3.81	-58.6	-77.2	3.6	1.51e+00	0	46	104	1123024896	60	282620
2026-01-28 10:38:10.97	338.45	3.58	-58.7	-77.1	3.6	1.51e+00	0	46	104	1123024896	60	279412
2026-01-28 10:38:14.99	338.73	3.34	-58.8	-77.0	3.6	1.51e+00	0	46	104	1123024896	60	278428
2026-01-28 10:38:19.01	339.01	3.11	-58.6	-77.1	3.6	1.51e+00	0	46	104	1123024896	60	278984
2026-01-28 10:38:23.04	339.29	2.88	-58.6	-77.1	3.6	1.51e+00	0	46	104	1123024896	60	280817
2026-01-28 10:38:27.06	339.56	2.64	-58.5	-77.0	3.6	1.51e+00	0	46	104	1123024896	60	277900
2026-01-28 10:38:31.09	339.82	2.42	-58.5	-77.1	3.6	1.51e+00	0	46	104	1123024896	60	282181
2026-01-28 10:38:35.11	340.09	2.19	-58.5	-77.1	3.6	1.51e+00	0	46	104	1123024896	60	279132
2026-01-28 10:38:39.14	340.35	1.96	-58.5	-77.1	3.6	1.51e+00	0	46	104	1123024896	60	280040
2026-01-28 10:38:43.16	340.60	1.74	-58.6	-77.0	3.6	1.51e+00	0	46	104	1123024896	60	278597
2026-01-28 10:38:47.19	340.85	1.51	-58.5	-76.9	3.6	1.51e+00	0	46	104	1123024896	60	275192
2026-01-28 10:38:51.22	341.10	1.29	-58.5	-77.0	3.6	1.51e+00	0	46	104	1123024896	60	277965
2026-01-28 10:38:55.24	341.35	1.07	-58.5	-76.7	3.6	1.51e+00	0	46	104	1123024896	60	269499
2026-01-28 10:38:59.27	341.59	0.85	-58.4	-77.0	3.6	1.51e+00	0	46	104	1123024896	60	276205
2026-01-28 10:39:03.28	341.83	0.63	-58.3	-76.9	3.6	1.51e+00	0	46	104	1123024896	60	272917
2026-01-28 10:39:07.31	342.07	0.41	-58.4	-76.7	3.6	1.51e+00	0	46	104	1123024896	60	269102
2026-01-28 10:39:11.33	342.30	0.19	-58.6	-76.9	3.6	1.51e+00	0	47	104	1123024896	60	273040
2026-01-28 10:39:15.36	342.53	-0.02	-58.6	-76.9	3.6	1.51e+00	0	46	104	1123024896	60	273100

#Closed at: 2026-01-28 10:39:16
#Recorded file [1123 MB]: D:/Data/35015_260128_133639.dat