passes_logs/2026/01/28/R3.2S-Naryan-Mar/R3.2S-Naryan-Mar__20260128_222728_SUOMI_NPP_rec.log

#Pass ID: 20260128_222728_SUOMI NPP
#Satellite: SUOMI NPP
#Configuration: NPP
#almurnet v.1.7.20240730
#Start time: 2026-01-28 22:27:29

#Version: 2.2.20231116
#Station: R3.2S-Naryan-Mar
#Location: 53.008057 lon 67.646978 lat
#TLE: 1 37849U 11061A   26027.86188320  .00000172  00000+0  10275-3 0  9990
#TLE: 2 37849  98.7823 329.8005 0002088  41.4184 318.7150 14.19530883738530

#Time	Az	El	Level	Level2	SNR	BER	BlckErr	Temp	State	Recorded	gain1	gain2
2026-01-28 22:27:29.24	20.20	0.02	-60.5	-75.4	3.5	1.51e+00	0	44	0	0	60	223310
2026-01-28 22:27:33.27	20.31	0.26	-61.7	-78.1	3.6	1.51e+00	0	45	104	0	60	315910
2026-01-28 22:27:37.30	20.42	0.50	-61.7	-78.0	3.6	1.51e+00	0	45	104	0	60	309805
2026-01-28 22:27:41.33	20.53	0.74	-61.2	-78.0	3.6	1.51e+00	0	45	104	0	60	310299
2026-01-28 22:27:45.36	20.64	0.98	-60.5	-77.0	3.6	1.51e+00	0	45	104	0	60	277665
2026-01-28 22:27:49.38	20.75	1.22	-58.8	-76.4	3.6	1.51e+00	0	45	104	0	60	260323
2026-01-28 22:27:53.40	20.86	1.47	-58.9	-76.4	3.6	1.51e+00	0	45	104	0	60	258114
2026-01-28 22:27:57.43	20.98	1.72	-59.0	-76.4	3.6	1.51e+00	0	45	104	0	60	258858
2026-01-28 22:28:01.46	21.10	1.97	-58.8	-76.4	3.6	1.51e+00	0	45	104	0	60	258778
2026-01-28 22:28:05.49	21.21	2.22	-58.9	-76.5	3.6	1.51e+00	0	45	104	0	60	260527
2026-01-28 22:28:09.51	21.33	2.47	-58.9	-76.3	3.6	1.51e+00	0	45	104	0	60	257091
2026-01-28 22:28:13.53	21.46	2.73	-58.7	-76.3	3.6	1.51e+00	0	45	104	0	60	256817
2026-01-28 22:28:17.54	21.58	2.98	-58.7	-76.3	3.6	1.51e+00	0	46	104	0	60	256671
2026-01-28 22:28:21.57	21.70	3.24	-58.7	-76.3	3.6	1.51e+00	0	46	104	0	60	254933
2026-01-28 22:28:25.60	21.83	3.51	-58.6	-76.3	3.6	1.51e+00	0	46	104	0	60	254668
2026-01-28 22:28:29.62	21.96	3.77	-58.4	-76.1	3.6	1.51e+00	0	46	104	0	60	250916
2026-01-28 22:28:33.66	22.09	4.04	-58.4	-76.2	3.6	1.51e+00	0	46	104	0	60	254366
2026-01-28 22:28:37.69	22.23	4.31	-58.6	-76.2	3.5	1.51e+00	0	46	104	0	60	253581
2026-01-28 22:28:41.72	22.36	4.59	-58.6	-76.3	3.6	1.51e+00	0	46	104	0	60	255777
2026-01-28 22:28:45.74	22.50	4.86	-58.7	-76.3	3.6	1.51e+00	0	46	104	0	60	254706
2026-01-28 22:28:49.77	22.64	5.14	-58.7	-76.3	3.6	1.51e+00	0	46	104	0	60	254554
2026-01-28 22:28:53.80	22.79	5.42	-58.6	-76.1	3.6	1.51e+00	0	46	104	0	60	250655
2026-01-28 22:28:57.84	22.93	5.71	-58.6	-76.2	3.6	1.51e+00	0	46	104	0	60	252162
2026-01-28 22:29:01.86	23.08	5.99	-58.5	-75.9	3.6	1.51e+00	0	46	104	0	60	245583
2026-01-28 22:29:05.89	23.23	6.29	-59.5	-76.4	3.6	1.51e+00	0	46	104	0	60	257595
2026-01-28 22:29:09.92	23.38	6.58	-56.9	-75.6	3.6	1.51e+00	0	46	104	0	60	235860
2026-01-28 22:29:13.95	23.54	6.88	-57.6	-76.3	3.6	1.51e+00	0	46	104	0	60	254602
2026-01-28 22:29:17.98	23.70	7.18	-56.0	-74.9	3.6	1.51e+00	0	46	104	0	60	218703
2026-01-28 22:29:22.01	23.86	7.48	-58.1	-76.2	3.6	1.51e+00	0	46	104	0	60	252033
2026-01-28 22:29:26.04	24.02	7.79	-59.8	-76.4	3.6	1.51e+00	0	46	104	0	60	259180
2026-01-28 22:29:30.06	24.19	8.10	-60.2	-76.7	3.6	1.51e+00	0	46	104	0	60	267105
2026-01-28 22:29:34.09	24.36	8.41	-58.2	-76.7	3.6	1.51e+00	0	46	104	0	60	266945
2026-01-28 22:29:38.11	24.53	8.73	-59.9	-76.3	3.6	1.51e+00	0	46	104	0	60	256591
2026-01-28 22:29:42.15	24.71	9.05	-60.0	-76.1	3.6	1.51e+00	0	46	104	0	60	249230
2026-01-28 22:29:46.17	24.89	9.38	-60.4	-76.7	3.6	1.51e+00	0	46	104	0	60	266626
2026-01-28 22:29:50.18	25.08	9.71	-59.7	-76.5	3.6	1.51e+00	0	46	104	0	60	261663
2026-01-28 22:29:54.21	25.27	10.04	-58.7	-76.2	3.6	1.51e+00	0	46	104	0	60	253489
2026-01-28 22:29:58.23	25.46	10.38	-58.8	-76.3	3.6	1.51e+00	0	46	104	0	60	254446
2026-01-28 22:30:02.26	25.65	10.73	-59.8	-76.6	3.6	1.51e+00	0	46	104	0	60	264756
2026-01-28 22:30:06.29	25.86	11.07	-59.9	-76.4	3.6	1.51e+00	0	46	104	0	60	258656
2026-01-28 22:30:10.32	26.06	11.43	-59.8	-76.4	3.6	1.51e+00	0	46	104	0	60	259334
2026-01-28 22:30:14.35	26.27	11.78	-59.8	-76.4	3.6	1.51e+00	0	46	104	0	60	258327
2026-01-28 22:30:18.38	26.49	12.15	-58.9	-76.6	3.6	1.51e+00	0	46	104	0	60	265319
2026-01-28 22:30:22.39	26.70	12.51	-59.4	-76.1	3.6	1.51e+00	0	46	104	0	60	248772
2026-01-28 22:30:26.41	26.93	12.89	-58.7	-76.4	3.6	1.51e+00	0	46	104	0	60	258542
2026-01-28 22:30:30.45	27.16	13.27	-59.6	-76.3	3.6	1.51e+00	0	46	104	0	60	254511
2026-01-28 22:30:34.47	27.39	13.65	-60.3	-76.8	3.6	1.51e+00	0	46	104	0	60	270760
2026-01-28 22:30:38.49	27.64	14.04	-57.9	-76.0	3.6	1.51e+00	0	46	104	0	60	247742
2026-01-28 22:30:42.52	27.88	14.43	-59.9	-76.6	3.6	1.51e+00	0	46	104	0	60	265184
2026-01-28 22:30:46.55	28.14	14.84	-59.4	-75.8	3.6	1.51e+00	0	46	104	0	60	240272
2026-01-28 22:30:50.58	28.40	15.24	-59.8	-76.3	3.6	1.51e+00	0	46	104	0	60	256489
2026-01-28 22:30:54.60	28.66	15.66	-59.9	-75.4	3.6	1.51e+00	0	46	104	0	60	231167
2026-01-28 22:30:58.62	28.94	16.08	-57.2	-75.9	3.6	1.51e+00	0	46	104	0	60	244020
2026-01-28 22:31:02.65	29.22	16.51	-58.2	-75.4	3.5	1.51e+00	0	46	104	0	60	230695
2026-01-28 22:31:06.69	29.51	16.94	-58.0	-75.8	3.5	1.51e+00	0	46	104	0	60	240207
2026-01-28 22:31:10.71	29.80	17.38	-58.2	-75.6	3.5	1.51e+00	0	46	104	0	60	235369
2026-01-28 22:31:14.74	30.11	17.83	-57.5	-75.2	3.6	1.51e+00	0	46	104	0	60	224946
2026-01-28 22:31:18.76	30.42	18.29	-56.7	-76.5	3.5	1.51e+00	0	46	104	0	60	261163
2026-01-28 22:31:22.80	30.74	18.76	-57.9	-75.2	3.6	1.51e+00	0	46	104	0	60	225551
2026-01-28 22:31:26.83	31.08	19.23	-57.9	-75.2	3.6	1.51e+00	0	46	104	0	60	225043
2026-01-28 22:31:30.85	31.42	19.71	-57.8	-75.6	3.6	1.51e+00	0	46	104	0	60	235044
2026-01-28 22:31:34.88	31.77	20.20	-60.1	-76.7	3.6	1.51e+00	0	46	104	0	60	268203
2026-01-28 22:31:38.91	32.14	20.70	-58.5	-75.4	3.6	1.51e+00	0	46	104	0	60	231551
2026-01-28 22:31:42.93	32.51	21.21	-56.7	-75.7	3.6	1.51e+00	0	46	104	0	60	239785
2026-01-28 22:31:46.96	32.90	21.73	-57.4	-76.0	3.6	1.51e+00	0	46	104	0	60	246970
2026-01-28 22:31:50.98	33.30	22.25	-58.3	-76.1	3.6	1.51e+00	0	46	104	0	60	250707
2026-01-28 22:31:55.01	33.71	22.79	-59.1	-75.6	3.6	1.51e+00	0	46	104	0	60	234950
2026-01-28 22:31:59.04	34.14	23.34	-59.6	-76.5	3.6	1.51e+00	0	46	104	0	60	261873
2026-01-28 22:32:03.07	34.58	23.89	-59.1	-75.5	3.6	1.51e+00	0	46	104	0	60	234528
2026-01-28 22:32:07.08	35.03	24.46	-60.5	-76.6	3.6	1.51e+00	0	46	104	0	60	265083
2026-01-28 22:32:11.11	35.51	25.04	-60.7	-75.9	3.6	1.51e+00	0	46	104	0	60	245124
2026-01-28 22:32:15.14	36.00	25.63	-60.5	-76.7	3.6	1.51e+00	0	46	104	0	60	267449
2026-01-28 22:32:19.16	36.50	26.22	-59.1	-76.0	3.6	1.51e+00	0	46	104	0	60	248443
2026-01-28 22:32:23.18	37.03	26.83	-60.7	-76.9	3.6	1.51e+00	0	46	104	0	60	274834
2026-01-28 22:32:27.19	37.58	27.45	-59.9	-76.0	3.6	1.51e+00	0	46	104	0	60	248423
2026-01-28 22:32:31.22	38.14	28.09	-59.9	-76.7	3.6	1.51e+00	0	46	104	0	60	266711
2026-01-28 22:32:35.24	38.73	28.73	-59.4	-76.0	3.6	1.51e+00	0	46	104	0	60	247604
2026-01-28 22:32:39.26	39.35	29.39	-60.2	-77.0	3.6	1.51e+00	0	46	104	0	60	278571
2026-01-28 22:32:43.29	39.99	30.06	-59.0	-76.4	3.6	1.51e+00	0	46	104	0	60	259855
2026-01-28 22:32:47.32	40.65	30.74	-60.8	-77.2	3.6	1.51e+00	0	46	104	0	60	282212
2026-01-28 22:32:51.34	41.35	31.44	-60.9	-76.7	3.6	1.51e+00	0	46	104	0	60	266516
2026-01-28 22:32:55.37	42.07	32.14	-60.8	-77.1	3.6	1.51e+00	0	46	104	0	60	280523
2026-01-28 22:32:59.40	42.83	32.86	-60.9	-76.9	3.6	1.51e+00	0	46	104	0	60	274000
2026-01-28 22:33:03.42	43.62	33.59	-60.6	-77.3	3.6	1.51e+00	0	46	104	0	60	285920
2026-01-28 22:33:07.46	44.44	34.34	-60.8	-76.9	3.6	1.51e+00	0	46	104	0	60	273598
2026-01-28 22:33:11.47	45.30	35.09	-60.7	-77.0	3.6	1.51e+00	0	46	104	0	60	276464
2026-01-28 22:33:15.50	46.21	35.85	-60.7	-76.7	3.6	1.51e+00	0	46	104	0	60	268820
2026-01-28 22:33:19.53	47.15	36.63	-61.1	-77.2	3.6	1.51e+00	0	46	104	0	60	282897
2026-01-28 22:33:23.55	48.14	37.41	-61.2	-76.6	3.6	1.51e+00	0	46	104	0	60	266188
2026-01-28 22:33:27.57	49.18	38.20	-61.3	-77.3	3.6	1.51e+00	0	46	104	0	60	285591
2026-01-28 22:33:31.60	50.27	39.01	-61.3	-76.3	3.6	1.51e+00	0	46	104	0	60	257003
2026-01-28 22:33:35.62	51.41	39.82	-61.3	-77.5	3.6	1.51e+00	0	46	104	0	60	294267
2026-01-28 22:33:39.65	52.62	40.63	-61.4	-76.9	3.6	1.51e+00	0	46	104	0	60	275669
2026-01-28 22:33:43.67	53.88	41.45	-61.6	-77.8	3.6	1.51e+00	0	46	104	0	60	304804
2026-01-28 22:33:47.69	55.21	42.27	-61.8	-77.4	3.6	1.51e+00	0	46	104	0	60	290815
2026-01-28 22:33:51.71	56.60	43.09	-61.8	-77.8	3.6	1.51e+00	0	46	104	0	60	302937
2026-01-28 22:33:55.73	58.07	43.91	-62.0	-78.2	3.6	1.51e+00	0	46	104	0	60	318211
2026-01-28 22:33:59.74	59.61	44.72	-62.2	-78.4	3.6	1.51e+00	0	46	104	0	60	325829
2026-01-28 22:34:03.76	61.23	45.53	-62.7	-78.8	3.6	1.51e+00	0	46	104	0	60	342413
2026-01-28 22:34:07.79	62.94	46.33	-62.7	-78.9	3.6	1.51e+00	0	46	104	0	60	343633
2026-01-28 22:34:11.82	64.74	47.12	-62.7	-78.8	3.6	1.51e+00	0	46	104	0	60	341232
2026-01-28 22:34:15.85	66.63	47.89	-62.8	-78.8	3.6	1.51e+00	0	46	104	0	60	341888
2026-01-28 22:34:19.85	68.60	48.64	-62.8	-78.9	3.6	1.51e+00	0	46	104	0	60	346912
2026-01-28 22:34:23.87	70.68	49.36	-62.9	-79.2	3.6	1.51e+00	0	46	104	0	60	357013
2026-01-28 22:34:27.90	72.86	50.05	-63.0	-79.2	3.6	1.51e+00	0	46	104	0	60	357603
2026-01-28 22:34:31.91	75.12	50.71	-62.9	-79.1	3.6	1.51e+00	0	46	104	0	60	351839
2026-01-28 22:34:35.94	77.49	51.33	-62.7	-78.9	3.6	1.51e+00	0	46	104	0	60	346473
2026-01-28 22:34:39.97	79.97	51.90	-62.7	-78.8	3.6	1.51e+00	0	46	104	0	60	342212
2026-01-28 22:34:44.01	82.54	52.43	-62.5	-78.8	3.6	1.51e+00	0	46	104	0	60	341106
2026-01-28 22:34:48.04	85.19	52.90	-63.7	-79.9	3.6	1.51e+00	0	46	104	0	60	386303
2026-01-28 22:34:52.06	87.91	53.31	-63.3	-79.5	3.6	1.51e+00	0	46	104	0	60	368931
2026-01-28 22:34:56.08	90.71	53.66	-63.2	-79.0	3.6	1.51e+00	0	46	104	0	60	350675
2026-01-28 22:35:00.11	93.57	53.94	-63.2	-79.2	3.6	1.51e+00	0	46	104	0	60	355615
2026-01-28 22:35:04.13	96.48	54.14	-63.1	-79.1	3.6	1.51e+00	0	46	104	0	60	351257
2026-01-28 22:35:08.15	99.42	54.28	-63.1	-79.2	3.6	1.51e+00	0	46	104	0	60	355499
2026-01-28 22:35:12.17	102.38	54.34	-63.1	-79.1	3.6	1.51e+00	0	46	104	0	60	353864
2026-01-28 22:35:16.21	105.36	54.32	-63.1	-79.1	3.6	1.51e+00	0	46	104	0	60	351558
2026-01-28 22:35:20.24	108.32	54.23	-63.0	-79.1	3.6	1.51e+00	0	46	104	0	60	351418
2026-01-28 22:35:24.26	111.25	54.06	-63.0	-78.9	3.6	1.51e+00	0	46	104	0	60	345228
2026-01-28 22:35:28.28	114.13	53.83	-63.2	-79.2	3.6	1.51e+00	0	46	104	0	60	356754
2026-01-28 22:35:32.31	116.97	53.52	-63.0	-79.0	3.6	1.51e+00	0	46	104	0	60	347949
2026-01-28 22:35:36.34	119.75	53.14	-63.0	-78.9	3.6	1.51e+00	0	46	104	0	60	345948
2026-01-28 22:35:40.36	122.44	52.71	-63.0	-78.9	3.6	1.51e+00	0	46	104	0	60	345267
2026-01-28 22:35:44.39	125.06	52.21	-62.8	-78.8	3.6	1.51e+00	0	46	104	0	60	339556
2026-01-28 22:35:48.42	127.59	51.66	-62.9	-78.7	3.6	1.51e+00	0	46	104	0	60	338587
2026-01-28 22:35:52.46	130.03	51.06	-62.9	-78.6	3.6	1.51e+00	0	46	104	0	60	332424
2026-01-28 22:35:56.48	132.36	50.43	-62.8	-78.7	3.6	1.51e+00	0	46	104	0	60	335562
2026-01-28 22:36:00.51	134.59	49.75	-62.8	-79.1	3.6	1.51e+00	0	46	104	0	60	352876
2026-01-28 22:36:04.54	136.73	49.04	-62.9	-79.1	3.6	1.51e+00	0	46	104	0	60	352663
2026-01-28 22:36:08.57	138.77	48.30	-62.8	-79.0	3.6	1.51e+00	0	46	104	0	60	349838
2026-01-28 22:36:12.59	140.71	47.54	-62.6	-78.8	3.6	1.51e+00	0	46	104	0	60	342575
2026-01-28 22:36:16.61	142.56	46.76	-62.5	-78.7	3.6	1.51e+00	0	46	104	0	60	338444
2026-01-28 22:36:20.64	144.33	45.97	-62.5	-78.7	3.6	1.51e+00	0	46	104	0	60	337190
2026-01-28 22:36:24.67	146.00	45.16	-62.5	-78.7	3.6	1.51e+00	0	46	104	0	60	336075
2026-01-28 22:36:28.70	147.60	44.34	-62.4	-78.5	3.6	1.51e+00	0	46	104	0	60	329636
2026-01-28 22:36:32.71	149.10	43.52	-62.3	-78.6	3.6	1.51e+00	0	46	104	0	60	331656
2026-01-28 22:36:36.74	150.54	42.70	-62.2	-78.4	3.6	1.51e+00	0	46	104	0	60	325821
2026-01-28 22:36:40.77	151.91	41.87	-62.2	-78.4	3.6	1.51e+00	0	46	104	0	60	324794
2026-01-28 22:36:44.79	153.21	41.05	-62.1	-78.2	3.6	1.51e+00	0	46	104	0	60	319482
2026-01-28 22:36:48.81	154.45	40.23	-62.1	-78.3	3.6	1.51e+00	0	46	104	0	60	320754
2026-01-28 22:36:52.84	155.63	39.41	-62.0	-78.2	3.6	1.51e+00	0	46	104	0	60	316812
2026-01-28 22:36:56.86	156.75	38.61	-62.0	-78.0	3.6	1.51e+00	0	46	104	0	60	312895
2026-01-28 22:37:00.89	157.82	37.80	-61.9	-77.7	3.6	1.51e+00	0	46	104	0	60	301899
2026-01-28 22:37:04.90	158.83	37.01	-61.6	-77.7	3.6	1.51e+00	0	46	104	0	60	302217
2026-01-28 22:37:08.93	159.80	36.23	-61.6	-77.4	3.6	1.51e+00	0	46	104	0	60	290755
2026-01-28 22:37:12.96	160.73	35.46	-61.6	-77.5	3.6	1.51e+00	0	46	104	0	60	294839
2026-01-28 22:37:16.99	161.62	34.69	-61.5	-77.2	3.6	1.51e+00	0	46	104	0	60	285448
2026-01-28 22:37:21.01	162.46	33.94	-61.4	-77.4	3.6	1.51e+00	0	46	104	0	60	290077
2026-01-28 22:37:25.03	163.27	33.20	-61.3	-77.5	3.6	1.51e+00	0	46	104	0	60	292409
2026-01-28 22:37:29.07	164.04	32.47	-61.4	-77.3	3.6	1.51e+00	0	46	104	0	60	286048
2026-01-28 22:37:33.08	164.78	31.76	-61.3	-77.4	3.6	1.51e+00	0	46	104	0	60	290863
2026-01-28 22:37:37.10	165.49	31.06	-61.2	-77.3	3.6	1.51e+00	0	46	104	0	60	285596
2026-01-28 22:37:41.13	166.17	30.37	-61.2	-77.2	3.6	1.51e+00	0	46	104	0	60	282769
2026-01-28 22:37:45.16	166.83	29.69	-61.1	-77.3	3.6	1.51e+00	0	46	104	0	60	286932
2026-01-28 22:37:49.19	167.46	29.02	-61.0	-77.1	3.6	1.51e+00	0	46	104	0	60	281135
2026-01-28 22:37:53.21	168.06	28.36	-60.9	-76.9	3.6	1.51e+00	0	46	104	0	60	274584
2026-01-28 22:37:57.23	168.64	27.72	-60.8	-76.8	3.6	1.51e+00	0	46	104	0	60	270544
2026-01-28 22:38:01.25	169.19	27.09	-60.8	-76.9	3.6	1.51e+00	0	46	104	0	60	274258
2026-01-28 22:38:05.28	169.73	26.47	-60.7	-76.9	3.6	1.51e+00	0	46	104	0	60	272696
2026-01-28 22:38:09.29	170.25	25.87	-60.7	-76.8	3.6	1.51e+00	0	46	104	0	60	269598
2026-01-28 22:38:13.31	170.75	25.27	-60.6	-76.7	3.6	1.51e+00	0	46	104	0	60	267944
2026-01-28 22:38:17.34	171.23	24.68	-60.5	-76.6	3.6	1.51e+00	0	46	104	0	60	266078
2026-01-28 22:38:21.38	171.69	24.11	-60.5	-76.5	3.6	1.51e+00	0	46	104	0	60	262436
2026-01-28 22:38:25.40	172.14	23.54	-60.5	-76.6	3.6	1.51e+00	0	47	104	0	60	265847
2026-01-28 22:38:29.43	172.58	22.99	-60.5	-76.5	3.6	1.51e+00	0	47	104	0	60	260925
2026-01-28 22:38:33.46	173.00	22.45	-60.5	-76.2	3.6	1.51e+00	0	46	104	0	60	252876
2026-01-28 22:38:37.49	173.40	21.91	-60.4	-76.2	3.6	1.51e+00	0	46	104	0	60	252789
2026-01-28 22:38:41.52	173.79	21.39	-60.3	-76.2	3.6	1.51e+00	0	46	104	0	60	252797
2026-01-28 22:38:45.54	174.17	20.87	-60.1	-76.0	3.6	1.51e+00	0	47	104	0	60	247608
2026-01-28 22:38:49.55	174.54	20.37	-59.9	-75.9	3.6	1.51e+00	0	46	104	0	60	244821
2026-01-28 22:38:53.58	174.90	19.87	-59.9	-75.7	3.6	1.51e+00	0	46	104	0	60	238319
2026-01-28 22:38:57.61	175.24	19.38	-59.8	-75.7	3.6	1.51e+00	0	46	104	0	60	238745
2026-01-28 22:39:01.62	175.58	18.91	-59.8	-75.7	3.6	1.51e+00	0	46	104	0	60	237941
2026-01-28 22:39:05.63	175.90	18.44	-59.7	-75.5	3.6	1.51e+00	0	46	104	0	60	233755
2026-01-28 22:39:09.66	176.22	17.97	-59.6	-75.7	3.6	1.51e+00	0	47	104	0	60	238016
2026-01-28 22:39:13.68	176.53	17.52	-59.4	-75.5	3.6	1.51e+00	0	46	104	0	60	234220
2026-01-28 22:39:17.70	176.83	17.07	-59.4	-75.5	3.6	1.51e+00	0	46	104	0	60	233394
2026-01-28 22:39:21.72	177.12	16.63	-59.4	-75.3	3.6	1.51e+00	0	46	104	0	60	227610
2026-01-28 22:39:25.75	177.40	16.20	-59.3	-75.2	3.6	1.51e+00	0	47	104	0	60	225441
2026-01-28 22:39:29.78	177.68	15.77	-59.1	-75.0	3.6	1.51e+00	0	46	104	0	60	221011
2026-01-28 22:39:33.80	177.95	15.35	-59.2	-75.0	3.6	1.51e+00	0	46	104	0	60	220189
2026-01-28 22:39:37.83	178.21	14.94	-59.0	-74.9	3.6	1.51e+00	0	46	104	0	60	217780
2026-01-28 22:39:41.86	178.46	14.53	-58.7	-74.9	3.6	1.51e+00	0	46	104	0	60	217124
2026-01-28 22:39:45.89	178.71	14.13	-58.7	-74.9	3.6	1.51e+00	0	47	104	0	60	218589
2026-01-28 22:39:49.92	178.95	13.74	-58.6	-74.8	3.6	1.51e+00	0	47	104	0	60	216249
2026-01-28 22:39:53.94	179.19	13.35	-58.5	-74.8	3.6	1.51e+00	0	46	104	0	60	215206
2026-01-28 22:39:57.98	179.42	12.97	-58.5	-74.8	3.6	1.51e+00	0	46	104	0	60	214303
2026-01-28 22:40:02.01	179.65	12.59	-58.6	-74.7	3.6	1.51e+00	0	46	104	0	60	212393
2026-01-28 22:40:06.02	179.87	12.22	-58.5	-74.6	3.6	1.51e+00	0	46	104	0	60	210899
2026-01-28 22:40:10.04	180.08	11.85	-58.5	-74.5	3.6	1.51e+00	0	47	104	0	60	208669
2026-01-28 22:40:14.06	180.29	11.49	-58.3	-74.5	3.6	1.51e+00	0	47	104	0	60	208693
2026-01-28 22:40:18.09	180.50	11.14	-58.1	-74.4	3.6	1.51e+00	0	47	104	0	60	206240
2026-01-28 22:40:22.11	180.70	10.78	-58.0	-74.4	3.6	1.51e+00	0	47	104	0	60	204923
2026-01-28 22:40:26.13	180.89	10.44	-58.0	-74.5	3.6	1.51e+00	0	46	104	0	60	208030
2026-01-28 22:40:30.16	181.09	10.10	-57.9	-74.5	3.6	1.51e+00	0	47	104	0	60	207762
2026-01-28 22:40:34.19	181.27	9.76	-57.9	-74.4	3.6	1.51e+00	0	47	104	0	60	205532
2026-01-28 22:40:38.22	181.46	9.42	-57.8	-74.2	3.6	1.51e+00	0	47	104	0	60	201911
2026-01-28 22:40:42.24	181.64	9.09	-57.6	-74.2	3.6	1.51e+00	0	46	104	0	60	200878
2026-01-28 22:40:46.27	181.82	8.77	-57.3	-74.0	3.6	1.51e+00	0	47	104	0	60	197316
2026-01-28 22:40:50.28	181.99	8.45	-57.3	-74.0	3.6	1.51e+00	0	46	104	0	60	196332
2026-01-28 22:40:54.30	182.16	8.13	-56.1	-73.5	3.6	1.51e+00	0	46	104	0	60	186372
2026-01-28 22:40:58.31	182.32	7.82	-54.6	-71.8	3.6	1.51e+00	0	46	104	0	60	152174
2026-01-28 22:41:02.34	182.49	7.51	-56.8	-73.6	3.6	1.51e+00	0	47	104	0	60	187547
2026-01-28 22:41:06.37	182.65	7.20	-56.8	-73.6	3.6	1.51e+00	0	46	104	0	60	188104
2026-01-28 22:41:10.40	182.80	6.90	-47.3	-70.0	3.6	1.51e+00	0	46	104	0	60	124417
2026-01-28 22:41:14.42	182.96	6.60	-46.2	-67.9	3.6	1.51e+00	0	47	104	0	60	97184
2026-01-28 22:41:18.44	183.11	6.30	-47.1	-69.8	3.6	1.51e+00	0	47	104	0	60	120797
2026-01-28 22:41:22.46	183.26	6.01	-48.6	-69.3	3.6	1.51e+00	0	47	104	0	60	113680
2026-01-28 22:41:26.48	183.40	5.72	-60.0	-76.4	3.6	1.51e+00	0	47	104	0	60	259560
2026-01-28 22:41:30.51	183.55	5.43	-61.7	-78.0	3.6	1.51e+00	0	46	104	0	60	311764
2026-01-28 22:41:34.53	183.69	5.15	-62.7	-79.0	3.6	1.51e+00	0	46	104	0	60	349245
2026-01-28 22:41:38.56	183.83	4.87	-62.9	-79.3	3.6	1.51e+00	0	47	104	0	60	362767
2026-01-28 22:41:42.59	183.96	4.59	-62.8	-79.2	3.6	1.51e+00	0	47	104	0	60	358344
2026-01-28 22:41:46.61	184.10	4.32	-62.7	-79.1	3.6	1.51e+00	0	47	104	0	60	352855
2026-01-28 22:41:50.63	184.23	4.04	-62.6	-79.0	3.6	1.51e+00	0	47	104	0	60	349183
2026-01-28 22:41:54.66	184.36	3.77	-62.5	-78.9	3.6	1.51e+00	0	46	104	0	60	345258
2026-01-28 22:41:58.69	184.48	3.51	-62.5	-78.9	3.6	1.51e+00	0	47	104	0	60	344893
2026-01-28 22:42:02.72	184.61	3.24	-62.4	-78.8	3.6	1.51e+00	0	46	104	0	60	341136
2026-01-28 22:42:06.75	184.73	2.98	-62.4	-78.8	3.6	1.51e+00	0	47	104	0	60	342262
2026-01-28 22:42:10.78	184.85	2.72	-62.4	-78.8	3.6	1.51e+00	0	47	104	0	60	339787
2026-01-28 22:42:14.82	184.97	2.46	-62.4	-78.8	3.6	1.51e+00	0	47	104	0	60	339642
2026-01-28 22:42:18.85	185.09	2.20	-62.4	-78.8	3.6	1.51e+00	0	47	104	0	60	339711
2026-01-28 22:42:22.88	185.21	1.95	-62.4	-78.8	3.6	1.51e+00	0	47	104	0	60	339702
2026-01-28 22:42:26.90	185.32	1.70	-62.3	-78.7	3.6	1.51e+00	0	47	104	0	60	338029
2026-01-28 22:42:30.93	185.43	1.45	-62.3	-78.7	3.6	1.51e+00	0	47	104	0	60	336577
2026-01-28 22:42:34.96	185.55	1.20	-62.3	-78.7	3.6	1.51e+00	0	47	104	0	60	337952
2026-01-28 22:42:38.98	185.65	0.95	-62.3	-78.7	3.6	1.51e+00	0	47	104	0	60	336960
2026-01-28 22:42:43.01	185.76	0.71	-62.3	-78.7	3.6	1.51e+00	0	47	104	0	60	337836
2026-01-28 22:42:47.04	185.87	0.47	-62.3	-78.7	3.6	1.51e+00	0	47	104	0	60	336570
2026-01-28 22:42:51.06	185.97	0.23	-62.3	-78.7	3.6	1.51e+00	0	47	104	0	60	337528
2026-01-28 22:42:55.09	186.08	-0.01	-62.3	-78.6	3.6	1.51e+00	0	47	104	0	60	334284

#Closed at: 2026-01-28 22:42:55
#Recorded file [0 MB]: D:/Data/35015_260129_013104.dat