passes_logs/2026/01/28/R3.2S-Naryan-Mar/R3.2S-Naryan-Mar__20260128_081109_TY-39_rec.log

#Pass ID: 20260128_081109_TY-39
#Satellite: TY-39
#Configuration: TY-39
#almurnet v.1.7.20240730
#Start time: 2026-01-28 08:20:36

#Version: 2.2.20231116
#Station: R3.2S-Naryan-Mar
#Location: 53.008057 lon 67.646978 lat
#TLE: 1 51832U 22019J   26027.53500954  .00003458  00000-0  16483-3 0  9996
#TLE: 2 51832  97.3625  93.9185 0008876  12.4294 347.7158 15.19733854216436

#Time	Az	El	Level	Level2	SNR	BER	BlckErr	Temp	State	Recorded	gain1	gain2
2026-01-28 08:20:36.91	228.45	9.20	-57.1	-60.2	3.3	0.00e+00	0	47	0	0	60	120504
2026-01-28 08:20:37.91	228.39	9.10	-57.1	-61.2	3.6	0.00e+00	0	48	104	0	60	136016
2026-01-28 08:20:38.91	228.32	9.00	-57.1	-61.2	3.6	0.00e+00	0	48	104	0	60	135344
2026-01-28 08:20:39.91	228.26	8.91	-57.1	-61.2	3.6	0.00e+00	0	48	104	0	60	135781
2026-01-28 08:20:40.92	228.19	8.81	-57.1	-61.2	3.6	0.00e+00	0	48	104	0	60	135556
2026-01-28 08:20:41.92	228.13	8.72	-57.1	-61.2	3.6	0.00e+00	0	48	104	0	60	135846
2026-01-28 08:20:42.93	228.07	8.62	-57.1	-61.2	3.6	0.00e+00	0	48	104	0	60	135749
2026-01-28 08:20:43.94	228.00	8.53	-57.1	-61.2	3.6	0.00e+00	0	48	104	0	60	135819
2026-01-28 08:20:44.94	227.94	8.44	-57.1	-61.2	3.6	0.00e+00	0	48	104	0	60	136231
2026-01-28 08:20:45.96	227.88	8.34	-57.2	-61.2	3.6	0.00e+00	0	48	104	0	60	135874
2026-01-28 08:20:46.96	227.82	8.25	-57.1	-61.2	3.6	0.00e+00	0	48	104	0	60	136096
2026-01-28 08:20:47.97	227.76	8.16	-57.1	-61.2	3.6	0.00e+00	0	48	104	0	60	135663
2026-01-28 08:20:48.98	227.70	8.06	-57.1	-61.2	3.6	0.00e+00	0	48	104	0	60	136444
2026-01-28 08:20:49.99	227.64	7.97	-57.1	-61.2	3.6	0.00e+00	0	48	104	0	60	136425
2026-01-28 08:20:50.99	227.58	7.88	-57.1	-61.3	3.6	0.00e+00	0	48	104	0	60	136739
2026-01-28 08:20:52.00	227.52	7.79	-57.1	-61.2	3.6	0.00e+00	0	48	104	0	60	135690
2026-01-28 08:20:53.01	227.46	7.70	-57.1	-61.2	3.6	0.00e+00	0	48	104	0	60	135790
2026-01-28 08:20:54.02	227.40	7.61	-57.1	-61.2	3.6	0.00e+00	0	48	104	0	60	135539
2026-01-28 08:20:55.03	227.35	7.52	-57.1	-61.2	3.6	0.00e+00	0	48	104	0	60	135843
2026-01-28 08:20:56.04	227.29	7.43	-57.1	-61.2	3.6	0.00e+00	0	48	104	0	60	136514
2026-01-28 08:20:57.04	227.23	7.34	-57.1	-61.2	3.5	0.00e+00	0	48	104	0	60	135870
2026-01-28 08:20:58.05	227.18	7.25	-57.1	-61.2	3.6	0.00e+00	0	48	104	0	60	135415
2026-01-28 08:20:59.05	227.12	7.16	-57.1	-61.2	3.6	0.00e+00	0	48	104	0	60	135214
2026-01-28 08:21:00.06	227.07	7.08	-57.1	-61.2	3.6	0.00e+00	0	48	104	0	60	136031
2026-01-28 08:21:01.07	227.01	6.99	-57.1	-61.2	3.6	0.00e+00	0	48	104	0	60	135748
2026-01-28 08:21:02.07	226.96	6.90	-57.1	-61.2	3.6	0.00e+00	0	48	104	0	60	136058
2026-01-28 08:21:03.07	226.90	6.82	-57.1	-61.2	3.6	0.00e+00	0	48	104	0	60	135837
2026-01-28 08:21:04.08	226.85	6.73	-57.1	-61.2	3.6	0.00e+00	0	48	104	0	60	136111
2026-01-28 08:21:05.09	226.80	6.64	-57.1	-61.2	3.6	0.00e+00	0	48	104	0	60	135982
2026-01-28 08:21:06.09	226.75	6.56	-57.1	-61.2	3.6	0.00e+00	0	48	104	0	60	135296
2026-01-28 08:21:07.10	226.69	6.47	-57.1	-61.2	3.6	0.00e+00	0	48	104	0	60	135281
2026-01-28 08:21:08.11	226.64	6.39	-57.1	-61.1	3.6	0.00e+00	0	48	104	0	60	134975
2026-01-28 08:21:09.12	226.59	6.30	-57.0	-61.1	3.6	0.00e+00	0	48	104	0	60	134595
2026-01-28 08:21:10.12	226.54	6.22	-57.0	-61.1	3.6	0.00e+00	0	48	104	0	60	134500
2026-01-28 08:21:11.13	226.49	6.14	-57.0	-61.1	3.6	0.00e+00	0	48	104	0	60	134516
2026-01-28 08:21:12.14	226.44	6.05	-57.0	-61.2	3.5	0.00e+00	0	48	104	0	60	135722
2026-01-28 08:21:13.14	226.39	5.97	-57.0	-61.2	3.6	0.00e+00	0	48	104	0	60	135753
2026-01-28 08:21:14.15	226.34	5.89	-57.0	-61.1	3.6	0.00e+00	0	48	104	0	60	134181
2026-01-28 08:21:15.15	226.29	5.80	-57.0	-61.1	3.6	0.00e+00	0	48	104	0	60	134871
2026-01-28 08:21:16.17	226.24	5.72	-57.0	-61.1	3.6	0.00e+00	0	48	104	0	60	134999
2026-01-28 08:21:17.17	226.19	5.64	-57.0	-61.1	3.6	0.00e+00	0	48	104	0	60	134189
2026-01-28 08:21:18.18	226.15	5.56	-57.0	-61.1	3.6	0.00e+00	0	48	104	0	60	134366
2026-01-28 08:21:19.19	226.10	5.48	-57.0	-61.1	3.6	0.00e+00	0	48	104	0	60	134179
2026-01-28 08:21:20.20	226.05	5.40	-57.0	-61.1	3.6	0.00e+00	0	48	104	0	60	134060
2026-01-28 08:21:21.20	226.00	5.32	-57.0	-61.1	3.6	0.00e+00	0	48	104	0	60	134138
2026-01-28 08:21:22.21	225.96	5.24	-57.0	-61.1	3.6	0.00e+00	0	48	104	0	60	134201
2026-01-28 08:21:23.22	225.91	5.16	-57.0	-61.1	3.6	0.00e+00	0	48	104	0	60	134288
2026-01-28 08:21:24.23	225.86	5.08	-57.0	-61.1	3.6	0.00e+00	0	48	104	0	60	134736
2026-01-28 08:21:25.24	225.82	5.00	-56.9	-61.1	3.6	0.00e+00	0	48	104	0	60	133908
2026-01-28 08:21:26.24	225.77	4.92	-57.0	-61.1	3.6	0.00e+00	0	48	104	0	60	133741
2026-01-28 08:21:27.25	225.73	4.84	-57.0	-61.1	3.6	0.00e+00	0	48	104	0	60	133757
2026-01-28 08:21:28.26	225.68	4.76	-57.0	-61.1	3.6	0.00e+00	0	48	104	0	60	133866
2026-01-28 08:21:29.26	225.64	4.68	-57.0	-61.1	3.6	0.00e+00	0	48	104	0	60	134011
2026-01-28 08:21:30.27	225.60	4.60	-56.9	-61.1	3.6	0.00e+00	0	48	104	0	60	134021
2026-01-28 08:21:31.28	225.55	4.53	-56.9	-61.1	3.6	0.00e+00	0	48	104	0	60	134268
2026-01-28 08:21:32.29	225.51	4.45	-57.0	-61.1	3.6	0.00e+00	0	48	104	0	60	133770
2026-01-28 08:21:33.29	225.47	4.37	-56.9	-61.1	3.6	0.00e+00	0	48	104	0	60	134458
2026-01-28 08:21:34.30	225.42	4.29	-56.9	-61.1	3.6	0.00e+00	0	48	104	0	60	133535
2026-01-28 08:21:35.31	225.38	4.22	-56.9	-61.1	3.6	0.00e+00	0	48	104	0	60	133637
2026-01-28 08:21:36.32	225.34	4.14	-56.9	-61.1	3.6	0.00e+00	0	48	104	0	60	134042
2026-01-28 08:21:37.32	225.30	4.07	-56.9	-61.1	3.6	0.00e+00	0	48	104	0	60	134217
2026-01-28 08:21:38.33	225.26	3.99	-56.9	-61.1	3.6	0.00e+00	0	48	104	0	60	133775
2026-01-28 08:21:39.34	225.22	3.91	-56.9	-61.1	3.6	0.00e+00	0	48	104	0	60	133642
2026-01-28 08:21:40.35	225.17	3.84	-56.9	-61.1	3.6	0.00e+00	0	48	104	0	60	133541
2026-01-28 08:21:41.35	225.13	3.76	-56.9	-61.0	3.6	0.00e+00	0	48	104	0	60	133104
2026-01-28 08:21:42.36	225.09	3.69	-56.9	-61.1	3.6	0.00e+00	0	48	104	0	60	133946
2026-01-28 08:21:43.36	225.05	3.62	-56.9	-61.0	3.6	0.00e+00	0	48	104	0	60	132868
2026-01-28 08:21:44.37	225.01	3.54	-56.9	-61.0	3.6	0.00e+00	0	48	104	0	60	132866
2026-01-28 08:21:45.38	224.97	3.47	-56.9	-61.0	3.6	0.00e+00	0	48	104	0	60	132899
2026-01-28 08:21:46.38	224.94	3.39	-56.9	-61.0	3.6	0.00e+00	0	48	104	0	60	132601
2026-01-28 08:21:47.39	224.90	3.32	-56.9	-61.0	3.6	0.00e+00	0	48	104	0	60	133524
2026-01-28 08:21:48.40	224.86	3.25	-56.9	-61.0	3.6	0.00e+00	0	48	104	0	60	132488
2026-01-28 08:21:49.40	224.82	3.17	-56.9	-61.0	3.6	0.00e+00	0	48	104	0	60	132844
2026-01-28 08:21:50.41	224.78	3.10	-56.9	-61.0	3.6	0.00e+00	0	48	104	0	60	133153
2026-01-28 08:21:51.42	224.74	3.03	-56.9	-61.0	3.6	0.00e+00	0	48	104	0	60	133380
2026-01-28 08:21:52.43	224.71	2.96	-56.9	-61.0	3.6	0.00e+00	0	48	104	0	60	132744
2026-01-28 08:21:53.43	224.67	2.89	-56.9	-61.0	3.5	0.00e+00	0	48	104	0	60	133215
2026-01-28 08:21:54.45	224.63	2.81	-56.9	-61.0	3.6	0.00e+00	0	48	104	0	60	133090
2026-01-28 08:21:55.45	224.59	2.74	-56.9	-61.1	3.6	0.00e+00	0	48	104	0	60	133684
2026-01-28 08:21:56.46	224.56	2.67	-56.9	-61.0	3.6	0.00e+00	0	48	104	0	60	132996
2026-01-28 08:21:57.47	224.52	2.60	-56.9	-61.1	3.6	0.00e+00	0	48	104	0	60	133723
2026-01-28 08:21:58.48	224.49	2.53	-56.9	-61.0	3.6	0.00e+00	0	48	104	0	60	133363
2026-01-28 08:21:59.48	224.45	2.46	-56.9	-61.1	3.6	0.00e+00	0	48	104	0	60	133586
2026-01-28 08:22:00.49	224.41	2.39	-56.9	-61.1	3.6	0.00e+00	0	48	104	0	60	133692
2026-01-28 08:22:01.50	224.38	2.32	-56.9	-61.1	3.6	0.00e+00	0	48	104	0	60	133613
2026-01-28 08:22:02.51	224.34	2.25	-57.0	-61.0	3.6	0.00e+00	0	48	104	0	60	133289
2026-01-28 08:22:03.51	224.31	2.18	-56.9	-61.0	3.6	0.00e+00	0	48	104	0	60	133005
2026-01-28 08:22:04.52	224.27	2.11	-56.9	-61.0	3.6	0.00e+00	0	48	104	0	60	132458
2026-01-28 08:22:05.53	224.24	2.04	-56.9	-61.0	3.6	0.00e+00	0	48	104	0	60	132438
2026-01-28 08:22:06.53	224.20	1.97	-56.9	-61.0	3.6	0.00e+00	0	48	104	0	60	133382
2026-01-28 08:22:07.54	224.17	1.90	-56.9	-61.0	3.6	0.00e+00	0	48	104	0	60	133155
2026-01-28 08:22:08.55	224.14	1.83	-56.9	-61.0	3.6	0.00e+00	0	48	104	0	60	132744
2026-01-28 08:22:09.56	224.10	1.76	-56.9	-61.0	3.6	0.00e+00	0	48	104	0	60	132445
2026-01-28 08:22:10.56	224.07	1.70	-56.9	-61.1	3.6	0.00e+00	0	48	104	0	60	133589
2026-01-28 08:22:11.57	224.04	1.63	-56.9	-61.0	3.6	0.00e+00	0	48	104	0	60	132529
2026-01-28 08:22:12.58	224.00	1.56	-56.9	-61.0	3.6	0.00e+00	0	48	104	0	60	132679
2026-01-28 08:22:13.59	223.97	1.49	-56.9	-61.0	3.6	0.00e+00	0	48	104	0	60	132779
2026-01-28 08:22:14.59	223.94	1.42	-56.9	-61.0	3.6	0.00e+00	0	48	104	0	60	132853
2026-01-28 08:22:15.60	223.91	1.36	-56.9	-61.0	3.6	0.00e+00	0	48	104	0	60	132645
2026-01-28 08:22:16.61	223.87	1.29	-56.9	-61.0	3.6	0.00e+00	0	48	104	0	60	132617
2026-01-28 08:22:17.62	223.84	1.22	-56.9	-61.0	3.6	0.00e+00	0	48	104	0	60	133240
2026-01-28 08:22:18.62	223.81	1.16	-56.9	-61.1	3.6	0.00e+00	0	48	104	0	60	133763
2026-01-28 08:22:19.63	223.78	1.09	-56.9	-61.0	3.6	0.00e+00	0	48	104	0	60	133430
2026-01-28 08:22:20.64	223.75	1.02	-56.9	-61.0	3.6	0.00e+00	0	48	104	0	60	132872
2026-01-28 08:22:21.64	223.72	0.96	-56.9	-61.0	3.6	0.00e+00	0	48	104	0	60	132581
2026-01-28 08:22:22.65	223.68	0.89	-56.9	-61.0	3.6	0.00e+00	0	48	104	0	60	133277
2026-01-28 08:22:23.66	223.65	0.83	-56.9	-61.0	3.6	0.00e+00	0	48	104	0	60	132615
2026-01-28 08:22:24.67	223.62	0.76	-56.9	-61.0	3.6	0.00e+00	0	48	104	0	60	132586
2026-01-28 08:22:25.67	223.59	0.69	-56.9	-61.0	3.6	0.00e+00	0	48	104	0	60	132619
2026-01-28 08:22:26.68	223.56	0.63	-56.9	-61.0	3.6	0.00e+00	0	48	104	0	60	133268
2026-01-28 08:22:27.69	223.53	0.56	-56.9	-61.0	3.6	0.00e+00	0	48	104	0	60	132605
2026-01-28 08:22:28.70	223.50	0.50	-56.9	-61.0	3.6	0.00e+00	0	48	104	0	60	132765
2026-01-28 08:22:29.71	223.47	0.43	-56.9	-61.0	3.6	0.00e+00	0	48	104	0	60	133130
2026-01-28 08:22:30.71	223.44	0.37	-56.8	-61.0	3.6	0.00e+00	0	48	104	0	60	132447
2026-01-28 08:22:31.72	223.41	0.31	-56.8	-61.0	3.6	0.00e+00	0	48	104	0	60	132815
2026-01-28 08:22:32.72	223.39	0.24	-56.9	-61.0	3.6	0.00e+00	0	48	104	0	60	132274
2026-01-28 08:22:33.72	223.36	0.18	-56.9	-61.0	3.6	0.00e+00	0	48	104	0	60	132458
2026-01-28 08:22:34.73	223.33	0.11	-56.9	-60.9	3.6	0.00e+00	0	48	104	0	60	131675
2026-01-28 08:22:35.74	223.30	0.05	-56.9	-61.0	3.6	0.00e+00	0	48	104	0	60	132478
2026-01-28 08:22:36.75	223.27	-0.01	-56.9	-61.0	3.6	0.00e+00	0	48	104	0	60	132150
2026-01-28 08:22:37.76	223.24	-0.08	-56.9	-61.0	3.6	0.00e+00	0	48	104	0	60	132780
2026-01-28 08:22:38.76	223.21	-0.14	-56.9	-61.0	3.6	0.00e+00	0	48	104	0	60	132869

#Closed at: 2026-01-28 08:22:39
#Recorded file [0 MB]: D:/Data/35015_260128_112036.dat