passes_logs/2026/01/28/R3.2S-Naryan-Mar/R3.2S-Naryan-Mar__20260128_081320_NOAA_21_JPSS-2_rec.log

#Pass ID: 20260128_081320_NOAA 21 (JPSS-2)
#Satellite: NOAA 21 (JPSS-2)
#Configuration: NOAA-21
#almurnet v.1.7.20240730
#Start time: 2026-01-28 08:22:45

#Version: 2.2.20231116
#Station: R3.2S-Naryan-Mar
#Location: 53.008057 lon 67.646978 lat
#TLE: 1 54234U 22150A   26027.55906748  .00000170  00000+0  10132-3 0  9996
#TLE: 2 54234  98.7510 328.3076 0000860 204.4692 155.6443 14.19540154166599

#Time	Az	El	Level	Level2	SNR	BER	BlckErr	Temp	State	Recorded	gain1	gain2
2026-01-28 08:22:45.15	338.74	46.96	-56.9	-60.0	3.4	0.00e+00	0	48	0	0	60	117953
2026-01-28 08:22:47.16	338.66	46.33	-61.9	-76.0	3.5	1.51e+00	0	48	104	0	60	240822
2026-01-28 08:22:49.17	338.59	45.72	-61.4	-76.3	3.5	1.52e+00	0	48	104	0	60	247817
2026-01-28 08:22:51.17	338.51	45.12	-61.5	-74.0	4.5	1.52e+00	0	48	104	0	60	190157
2026-01-28 08:22:53.19	338.44	44.52	-61.7	-76.0	3.5	1.52e+00	0	48	104	0	60	240530
2026-01-28 08:22:55.21	338.37	43.93	-61.6	-75.9	3.5	1.52e+00	0	48	104	0	60	236750
2026-01-28 08:22:57.23	338.31	43.35	-61.6	-75.8	3.5	1.52e+00	0	48	104	0	60	233847
2026-01-28 08:22:59.24	338.25	42.78	-61.5	-75.8	3.5	1.52e+00	0	48	104	0	60	233903
2026-01-28 08:23:01.25	338.19	42.22	-61.5	-75.7	3.5	1.52e+00	0	48	104	0	60	232617
2026-01-28 08:23:03.26	338.13	41.66	-61.4	-75.7	3.5	1.52e+00	0	48	104	0	60	232361
2026-01-28 08:23:05.27	338.07	41.12	-61.5	-75.6	3.5	1.51e+00	0	48	104	0	60	229742
2026-01-28 08:23:07.29	338.02	40.58	-61.4	-75.6	3.5	1.52e+00	0	48	104	0	60	229482
2026-01-28 08:23:09.30	337.97	40.05	-61.4	-75.5	3.5	1.52e+00	0	48	104	0	60	226511
2026-01-28 08:23:11.31	337.92	39.53	-61.4	-75.5	3.5	1.52e+00	0	48	104	0	60	226275
2026-01-28 08:23:13.33	337.87	39.01	-61.4	-75.5	3.5	1.52e+00	0	48	104	0	60	225855
2026-01-28 08:23:15.34	337.82	38.51	-61.3	-75.4	3.5	1.52e+00	0	48	104	0	60	224253
2026-01-28 08:23:17.35	337.78	38.01	-61.4	-75.2	3.5	1.52e+00	0	48	104	0	60	220083
2026-01-28 08:23:19.37	337.74	37.52	-61.3	-75.1	3.5	1.52e+00	0	48	104	0	60	217385
2026-01-28 08:23:21.39	337.69	37.03	-61.3	-75.5	3.5	1.52e+00	0	48	104	0	60	226510
2026-01-28 08:23:23.40	337.66	36.55	-61.3	-75.5	3.5	1.52e+00	0	48	104	0	60	226395
2026-01-28 08:23:25.42	337.62	36.08	-61.3	-75.4	3.5	1.52e+00	0	48	104	0	60	225004
2026-01-28 08:23:27.43	337.58	35.62	-61.3	-75.4	3.5	1.52e+00	0	48	104	0	60	224290
2026-01-28 08:23:29.44	337.54	35.16	-61.3	-75.4	3.5	1.52e+00	0	48	104	0	60	224295
2026-01-28 08:23:31.46	337.51	34.71	-61.3	-75.2	3.5	1.52e+00	0	48	104	0	60	218769
2026-01-28 08:23:33.47	337.47	34.27	-61.1	-73.4	3.5	1.51e+00	0	48	104	0	60	178848
2026-01-28 08:23:35.49	337.44	33.83	-61.0	-71.4	4.4	1.31e+00	0	48	104	0	60	140821
2026-01-28 08:23:37.51	337.41	33.39	-58.0	-61.2	13.6	2.10e-03	0	48	0	4194304	60	43474
2026-01-28 08:23:39.52	337.38	32.97	-53.0	-54.5	19.8	0.00e+00	0	47	0	10485760	60	20197
2026-01-28 08:23:41.52	337.35	32.55	-61.2	-75.0	3.5	1.52e+00	0	47	104	13631488	60	213096
2026-01-28 08:23:43.53	337.32	32.14	-60.1	-67.2	7.6	1.45e+00	0	47	104	1048576	60	87170
2026-01-28 08:23:45.54	337.29	31.73	-58.3	-62.0	13.1	7.40e-05	0	47	0	3145728	60	47813
2026-01-28 08:23:47.55	337.27	31.33	-56.0	-58.2	17.2	0.00e+00	0	47	0	9437184	60	30963
2026-01-28 08:23:49.56	337.24	30.93	-56.3	-58.5	16.5	0.00e+00	0	47	0	15728640	60	31976
2026-01-28 08:23:51.57	337.22	30.54	-56.3	-58.4	16.5	0.00e+00	0	47	0	23068672	60	31777
2026-01-28 08:23:53.58	337.19	30.15	-55.8	-57.9	16.9	0.00e+00	0	47	0	29360128	60	29955
2026-01-28 08:23:55.58	337.17	29.77	-55.9	-58.3	16.3	0.00e+00	0	47	0	35651584	60	31363
2026-01-28 08:23:57.59	337.15	29.40	-54.0	-56.0	18.1	0.00e+00	0	47	0	41943040	60	24066
2026-01-28 08:23:59.59	337.13	29.03	-52.8	-54.6	19.2	0.00e+00	0	47	0	47185920	60	20430
2026-01-28 08:24:01.60	337.10	28.66	-52.3	-53.9	19.8	0.00e+00	0	47	0	53477376	60	18906
2026-01-28 08:24:03.61	337.08	28.30	-52.3	-53.9	19.8	0.00e+00	0	47	0	59768832	60	18865
2026-01-28 08:24:05.62	337.06	27.94	-52.2	-53.8	20.0	0.00e+00	0	47	0	66060288	60	18557
2026-01-28 08:24:07.63	337.04	27.59	-52.2	-53.7	20.2	0.00e+00	0	47	0	72351744	60	18428
2026-01-28 08:24:09.63	337.02	27.24	-51.9	-53.3	20.7	0.00e+00	0	47	0	78643200	60	17549
2026-01-28 08:24:11.65	337.01	26.90	-51.8	-53.2	20.7	0.00e+00	0	47	0	84934656	60	17396
2026-01-28 08:24:13.66	336.99	26.56	-51.3	-52.6	21.3	0.00e+00	0	47	0	91226112	60	16250
2026-01-28 08:24:15.67	336.97	26.22	-51.1	-52.4	21.5	0.00e+00	0	47	0	97517568	60	15779
2026-01-28 08:24:17.68	336.96	25.89	-50.9	-52.2	21.6	0.00e+00	0	47	0	103809024	60	15495
2026-01-28 08:24:19.69	336.94	25.57	-50.6	-51.9	21.9	0.00e+00	0	47	0	110100480	60	14900
2026-01-28 08:24:21.71	336.92	25.24	-50.6	-51.8	22.0	0.00e+00	0	47	0	116391936	60	14774
2026-01-28 08:24:23.71	336.91	24.92	-50.7	-52.0	21.8	0.00e+00	0	47	0	122683392	60	15136
2026-01-28 08:24:25.72	336.89	24.61	-50.5	-51.7	22.0	0.00e+00	0	47	0	128974848	60	14669
2026-01-28 08:24:27.73	336.88	24.30	-50.6	-51.9	22.0	0.00e+00	0	47	0	135266304	60	14950
2026-01-28 08:24:29.74	336.87	23.99	-50.7	-52.0	21.9	0.00e+00	0	47	0	141557760	60	15120
2026-01-28 08:24:31.76	336.85	23.68	-50.8	-52.1	21.8	0.00e+00	0	47	0	147849216	60	15276
2026-01-28 08:24:33.77	336.84	23.38	-51.0	-52.2	21.5	0.00e+00	0	47	0	154140672	60	15558
2026-01-28 08:24:35.78	336.83	23.09	-51.1	-52.4	21.3	0.00e+00	0	47	0	160432128	60	15846
2026-01-28 08:24:37.79	336.81	22.79	-51.1	-52.5	21.2	0.00e+00	0	47	0	166723584	60	15987
2026-01-28 08:24:39.81	336.80	22.50	-51.2	-52.6	21.2	0.00e+00	0	47	0	173015040	60	16172
2026-01-28 08:24:41.82	336.79	22.21	-51.4	-52.7	21.3	0.00e+00	0	47	0	179306496	60	16469
2026-01-28 08:24:43.83	336.78	21.93	-51.4	-52.7	21.3	0.00e+00	0	47	0	185597952	60	16440
2026-01-28 08:24:45.84	336.77	21.65	-51.5	-52.8	21.3	0.00e+00	0	47	0	191889408	60	16596
2026-01-28 08:24:47.86	336.76	21.37	-51.2	-52.5	21.6	0.00e+00	0	47	0	198180864	60	16046
2026-01-28 08:24:49.87	336.75	21.09	-51.3	-52.6	21.5	0.00e+00	0	47	0	204472320	60	16195
2026-01-28 08:24:51.89	336.74	20.82	-51.2	-52.6	21.0	0.00e+00	0	47	0	210763776	60	16241
2026-01-28 08:24:53.90	336.73	20.55	-51.2	-52.6	20.5	0.00e+00	0	47	0	217055232	60	16308
2026-01-28 08:24:55.92	336.72	20.29	-51.0	-52.5	20.1	0.00e+00	0	47	0	223346688	60	16114
2026-01-28 08:24:57.92	336.71	20.02	-51.1	-52.7	20.1	0.00e+00	0	47	0	229638144	60	16415
2026-01-28 08:24:59.94	336.70	19.76	-51.2	-52.8	19.9	0.00e+00	0	47	0	235929600	60	16600
2026-01-28 08:25:01.95	336.70	19.50	-51.2	-52.8	20.1	0.00e+00	0	47	0	242221056	60	16568
2026-01-28 08:25:03.97	336.69	19.25	-51.2	-52.8	20.3	0.00e+00	0	47	0	248512512	60	16601
2026-01-28 08:25:05.98	336.68	18.99	-51.2	-52.9	20.5	0.00e+00	0	47	0	254803968	60	16721
2026-01-28 08:25:07.99	336.67	18.75	-51.3	-53.0	20.5	0.00e+00	0	47	0	261095424	60	16997
2026-01-28 08:25:10.00	336.67	18.50	-51.4	-53.1	20.5	0.00e+00	0	47	0	267386880	60	17181
2026-01-28 08:25:12.01	336.66	18.25	-51.6	-53.2	20.5	0.00e+00	0	47	0	273678336	60	17370
2026-01-28 08:25:14.03	336.65	18.01	-51.7	-53.2	20.5	0.00e+00	0	47	0	279969792	60	17404
2026-01-28 08:25:16.04	336.65	17.77	-51.9	-53.3	20.2	0.00e+00	0	47	0	286261248	60	17646
2026-01-28 08:25:18.05	336.64	17.53	-52.0	-53.5	19.7	0.00e+00	0	47	0	292552704	60	17932
2026-01-28 08:25:20.07	336.63	17.29	-52.1	-53.6	19.5	0.00e+00	0	47	0	298844160	60	18297
2026-01-28 08:25:22.08	336.63	17.06	-52.0	-53.7	19.2	0.00e+00	0	47	0	305135616	60	18410
2026-01-28 08:25:24.10	336.62	16.83	-52.2	-53.9	18.9	0.00e+00	0	47	0	311427072	60	18853
2026-01-28 08:25:26.11	336.62	16.60	-52.3	-54.0	19.0	0.00e+00	0	47	0	317718528	60	19030
2026-01-28 08:25:28.12	336.61	16.37	-52.3	-54.1	18.9	0.00e+00	0	47	0	324009984	60	19391
2026-01-28 08:25:30.13	336.61	16.15	-52.4	-54.3	18.7	0.00e+00	0	47	0	330301440	60	19783
2026-01-28 08:25:32.15	336.60	15.92	-52.5	-54.6	18.5	0.00e+00	0	47	0	336592896	60	20318
2026-01-28 08:25:34.16	336.60	15.70	-52.7	-54.8	18.4	0.00e+00	0	47	0	342884352	60	20959
2026-01-28 08:25:36.17	336.59	15.49	-53.0	-55.1	18.2	0.00e+00	0	47	0	349175808	60	21541
2026-01-28 08:25:38.17	336.59	15.27	-53.3	-55.3	18.0	0.00e+00	0	47	0	355467264	60	22186
2026-01-28 08:25:40.18	336.59	15.05	-53.6	-55.6	17.6	0.00e+00	0	47	0	361758720	60	22955
2026-01-28 08:25:42.19	336.58	14.84	-53.9	-55.9	16.9	0.00e+00	0	47	0	368050176	60	23786
2026-01-28 08:25:44.20	336.58	14.63	-54.2	-56.3	16.4	0.00e+00	0	47	0	374341632	60	24725
2026-01-28 08:25:46.21	336.57	14.42	-54.3	-56.6	15.8	0.00e+00	0	47	0	380633088	60	25752
2026-01-28 08:25:48.23	336.57	14.21	-54.5	-56.9	15.4	0.00e+00	0	47	0	386924544	60	26725
2026-01-28 08:25:50.24	336.57	14.01	-54.8	-57.3	15.1	7.00e-07	0	47	0	393216000	60	27960
2026-01-28 08:25:52.26	336.57	13.80	-55.0	-57.7	14.6	0.00e+00	0	47	0	399507456	60	29218
2026-01-28 08:25:54.27	336.56	13.60	-55.1	-58.2	14.0	7.00e-07	0	47	0	405798912	60	30960
2026-01-28 08:25:56.29	336.56	13.40	-55.3	-58.5	13.6	7.60e-06	0	47	0	412090368	60	32140
2026-01-28 08:25:58.30	336.56	13.20	-55.5	-59.0	13.1	1.67e-05	0	47	0	418381824	60	33796
2026-01-28 08:26:00.32	336.56	13.00	-55.7	-59.4	12.7	5.11e-05	0	47	0	424673280	60	35514
2026-01-28 08:26:02.33	336.55	12.81	-56.0	-59.8	12.2	1.88e-04	0	47	0	430964736	60	37302
2026-01-28 08:26:04.34	336.55	12.61	-56.2	-60.3	11.7	4.78e-04	0	47	0	437256192	60	39537
2026-01-28 08:26:06.35	336.55	12.42	-56.5	-60.8	11.2	1.29e-03	0	47	0	443547648	60	41644
2026-01-28 08:26:08.36	336.55	12.23	-56.8	-61.3	10.6	2.80e-03	0	47	0	449839104	60	44243
2026-01-28 08:26:10.37	336.55	12.04	-56.9	-61.9	9.9	7.17e-03	0	47	0	456130560	60	47399
2026-01-28 08:26:12.39	336.54	11.85	-56.9	-62.4	9.2	1.83e-02	0	47	0	462422016	60	50165
2026-01-28 08:26:14.40	336.54	11.66	-56.9	-63.0	8.5	3.52e-02	0	47	0	468713472	60	53705
2026-01-28 08:26:16.41	336.54	11.48	-57.0	-63.6	7.9	6.61e-02	0	47	0	475004928	60	57638
2026-01-28 08:26:18.42	336.54	11.29	-57.1	-64.2	7.3	1.11e-01	0	47	0	481296384	60	61405
2026-01-28 08:26:20.43	336.54	11.11	-57.3	-64.8	6.4	2.39e-01	0	47	0	487587840	60	66096
2026-01-28 08:26:22.45	336.54	10.93	-57.2	-66.4	3.9	5.77e-01	0	47	104	492830720	60	79388
2026-01-28 08:26:24.45	336.54	10.75	-56.4	-66.7	4.8	6.58e-01	0	47	104	492830720	60	82750
2026-01-28 08:26:26.46	336.54	10.57	-55.4	-67.2	4.3	1.32e+00	0	47	104	492830720	60	87131
2026-01-28 08:26:28.47	336.54	10.39	-53.0	-68.1	3.7	1.50e+00	0	47	104	492830720	60	96160
2026-01-28 08:26:30.48	336.54	10.22	-57.4	-69.4	4.0	9.77e-01	0	47	104	492830720	60	111926
2026-01-28 08:26:32.49	336.54	10.04	-54.7	-70.1	3.6	1.51e+00	0	47	104	492830720	60	121079
2026-01-28 08:26:34.50	336.54	9.87	-53.5	-68.6	3.6	1.51e+00	0	47	104	492830720	60	102316
2026-01-28 08:26:36.51	336.54	9.70	-52.8	-69.2	3.8	1.51e+00	0	47	104	492830720	60	110043
2026-01-28 08:26:38.52	336.54	9.53	-54.5	-71.8	3.5	1.52e+00	0	47	104	492830720	60	148406
2026-01-28 08:26:40.54	336.54	9.36	-54.1	-70.0	3.8	1.51e+00	0	47	104	492830720	60	119888
2026-01-28 08:26:42.55	336.54	9.19	-52.9	-69.6	3.8	1.51e+00	0	47	104	492830720	60	115298
2026-01-28 08:26:44.56	336.54	9.02	-55.8	-72.3	3.5	1.52e+00	0	47	104	492830720	60	156891
2026-01-28 08:26:46.57	336.54	8.85	-56.8	-72.4	3.6	1.52e+00	0	47	104	492830720	60	158432
2026-01-28 08:26:48.58	336.54	8.69	-54.0	-71.3	3.6	1.51e+00	0	47	104	492830720	60	139638
2026-01-28 08:26:50.59	336.54	8.52	-54.9	-71.2	3.6	1.51e+00	0	47	104	492830720	60	137904
2026-01-28 08:26:52.60	336.54	8.36	-55.2	-70.9	3.6	1.51e+00	0	47	104	492830720	60	133564
2026-01-28 08:26:54.62	336.54	8.20	-55.3	-71.1	3.6	1.51e+00	0	47	104	492830720	60	136278
2026-01-28 08:26:56.63	336.54	8.03	-55.1	-71.3	3.6	1.51e+00	0	47	104	492830720	60	139902
2026-01-28 08:26:58.64	336.54	7.87	-55.3	-71.2	3.7	1.51e+00	0	47	104	492830720	60	138473
2026-01-28 08:27:00.65	336.54	7.72	-55.4	-71.0	3.7	1.51e+00	0	47	104	492830720	60	135379
2026-01-28 08:27:02.65	336.54	7.56	-56.2	-71.4	3.6	1.51e+00	0	47	104	492830720	60	141227
2026-01-28 08:27:04.66	336.54	7.40	-55.5	-71.2	3.6	1.51e+00	0	47	104	492830720	60	138632
2026-01-28 08:27:06.67	336.55	7.24	-55.6	-71.3	3.6	1.51e+00	0	47	104	492830720	60	139238
2026-01-28 08:27:08.68	336.55	7.09	-55.5	-71.1	3.7	1.51e+00	0	47	104	492830720	60	136650
2026-01-28 08:27:10.69	336.55	6.93	-56.9	-71.7	3.5	1.52e+00	0	47	104	492830720	60	146637
2026-01-28 08:27:12.70	336.55	6.78	-55.6	-71.1	3.7	1.51e+00	0	47	104	492830720	60	136879
2026-01-28 08:27:14.70	336.55	6.63	-55.5	-71.0	3.6	1.51e+00	0	47	104	492830720	60	135374
2026-01-28 08:27:16.72	336.55	6.48	-55.4	-71.2	3.6	1.51e+00	0	47	104	492830720	60	138512
2026-01-28 08:27:18.73	336.56	6.33	-55.8	-70.9	3.6	1.51e+00	0	47	104	492830720	60	133513
2026-01-28 08:27:20.75	336.56	6.18	-57.3	-72.2	3.5	1.51e+00	0	47	104	492830720	60	154686
2026-01-28 08:27:22.75	336.56	6.03	-57.1	-72.1	3.5	1.51e+00	0	47	104	492830720	60	153107
2026-01-28 08:27:24.76	336.56	5.88	-53.9	-71.0	3.7	1.51e+00	0	47	104	492830720	60	134604
2026-01-28 08:27:26.78	336.56	5.73	-60.4	-74.8	3.5	1.52e+00	0	47	104	492830720	60	209970
2026-01-28 08:27:28.79	336.57	5.58	-61.3	-75.3	3.5	1.51e+00	0	47	104	492830720	60	221922
2026-01-28 08:27:30.80	336.57	5.44	-60.8	-75.4	3.5	1.52e+00	0	47	104	492830720	60	224525
2026-01-28 08:27:32.82	336.57	5.29	-62.0	-75.9	3.5	1.52e+00	0	47	104	492830720	60	238563
2026-01-28 08:27:34.83	336.57	5.15	-61.5	-75.8	3.5	1.52e+00	0	47	104	492830720	60	233431
2026-01-28 08:27:36.84	336.57	5.01	-62.0	-76.0	3.5	1.51e+00	0	47	104	492830720	60	241202
2026-01-28 08:27:38.86	336.58	4.86	-61.6	-76.3	3.5	1.52e+00	0	47	104	492830720	60	248035
2026-01-28 08:27:40.87	336.58	4.72	-59.8	-75.5	3.5	1.52e+00	0	47	104	492830720	60	225358
2026-01-28 08:27:42.88	336.58	4.58	-61.0	-76.2	3.5	1.52e+00	0	47	104	492830720	60	246100
2026-01-28 08:27:44.90	336.58	4.44	-60.9	-76.1	3.5	1.51e+00	0	47	104	492830720	60	243665
2026-01-28 08:27:46.92	336.59	4.30	-60.9	-76.0	3.5	1.52e+00	0	47	104	492830720	60	240898
2026-01-28 08:27:48.93	336.59	4.16	-60.8	-76.0	3.5	1.52e+00	0	47	104	492830720	60	240298
2026-01-28 08:27:50.95	336.59	4.02	-60.9	-76.1	3.5	1.51e+00	0	47	104	492830720	60	244012
2026-01-28 08:27:52.96	336.60	3.88	-60.9	-76.1	3.5	1.51e+00	0	47	104	492830720	60	241456
2026-01-28 08:27:54.98	336.60	3.75	-60.9	-76.3	3.5	1.51e+00	0	47	104	492830720	60	247073
2026-01-28 08:27:56.99	336.60	3.61	-60.9	-76.1	3.5	1.51e+00	0	47	104	492830720	60	242570
2026-01-28 08:27:59.01	336.60	3.47	-61.0	-76.2	3.5	1.51e+00	0	47	104	492830720	60	246462
2026-01-28 08:28:01.02	336.61	3.34	-60.9	-76.2	3.5	1.52e+00	0	47	104	492830720	60	246355
2026-01-28 08:28:03.04	336.61	3.20	-60.9	-76.1	3.5	1.52e+00	0	47	104	492830720	60	244121
2026-01-28 08:28:05.06	336.61	3.07	-60.9	-76.1	3.5	1.52e+00	0	47	104	492830720	60	243578
2026-01-28 08:28:07.07	336.62	2.94	-60.9	-76.2	3.5	1.52e+00	0	47	104	492830720	60	245574
2026-01-28 08:28:09.08	336.62	2.80	-61.0	-76.3	3.5	1.51e+00	0	47	104	492830720	60	249773
2026-01-28 08:28:11.09	336.62	2.67	-60.9	-76.1	3.5	1.52e+00	0	47	104	492830720	60	242653
2026-01-28 08:28:13.11	336.63	2.54	-60.8	-76.0	3.5	1.51e+00	0	47	104	492830720	60	239424
2026-01-28 08:28:15.12	336.63	2.41	-60.9	-76.0	3.5	1.52e+00	0	47	104	492830720	60	239157
2026-01-28 08:28:17.13	336.63	2.28	-60.9	-76.1	3.5	1.51e+00	0	47	104	492830720	60	243735
2026-01-28 08:28:19.14	336.64	2.15	-60.8	-76.2	3.5	1.52e+00	0	47	104	492830720	60	246226
2026-01-28 08:28:21.16	336.64	2.02	-60.8	-76.1	3.5	1.52e+00	0	47	104	492830720	60	243168
2026-01-28 08:28:23.17	336.65	1.89	-60.8	-76.0	3.5	1.52e+00	0	47	104	492830720	60	240575
2026-01-28 08:28:25.19	336.65	1.77	-60.8	-76.1	3.5	1.51e+00	0	47	104	492830720	60	241834
2026-01-28 08:28:27.20	336.65	1.64	-60.8	-76.0	3.5	1.52e+00	0	47	104	492830720	60	240651
2026-01-28 08:28:29.21	336.66	1.51	-60.8	-76.0	3.5	1.52e+00	0	47	104	492830720	60	238792
2026-01-28 08:28:31.22	336.66	1.39	-60.8	-76.2	3.5	1.52e+00	0	47	104	492830720	60	245167
2026-01-28 08:28:33.24	336.66	1.26	-60.9	-76.0	3.5	1.51e+00	0	47	104	492830720	60	240210
2026-01-28 08:28:35.25	336.67	1.14	-60.9	-76.0	3.5	1.52e+00	0	47	104	492830720	60	238976
2026-01-28 08:28:37.27	336.67	1.01	-60.9	-75.9	3.5	1.51e+00	0	47	104	492830720	60	238208
2026-01-28 08:28:39.28	336.68	0.89	-60.9	-76.2	3.5	1.52e+00	0	47	104	492830720	60	245571
2026-01-28 08:28:41.30	336.68	0.77	-60.9	-76.1	3.5	1.52e+00	0	47	104	492830720	60	242909
2026-01-28 08:28:43.32	336.68	0.64	-60.9	-75.9	3.6	1.52e+00	0	47	104	492830720	60	238454
2026-01-28 08:28:45.33	336.69	0.52	-60.9	-76.0	3.5	1.52e+00	0	47	104	492830720	60	239888
2026-01-28 08:28:47.35	336.69	0.40	-61.0	-76.1	3.5	1.52e+00	0	47	104	492830720	60	243777
2026-01-28 08:28:49.36	336.70	0.28	-60.9	-76.1	3.5	1.51e+00	0	47	104	492830720	60	242924
2026-01-28 08:28:51.38	336.70	0.16	-60.9	-75.9	3.5	1.52e+00	0	47	104	492830720	60	237631
2026-01-28 08:28:53.39	336.71	0.04	-60.9	-76.1	3.5	1.51e+00	0	47	104	492830720	60	243044
2026-01-28 08:28:55.41	336.71	-0.09	-60.8	-75.8	3.5	1.52e+00	0	47	104	492830720	60	235905

#Closed at: 2026-01-28 08:28:55
#Recorded file [492 MB]: D:/Data/35015_260128_112623.dat