passes_logs/2026/01/28/R3.2S-Naryan-Mar/R3.2S-Naryan-Mar__20260128_224803_NOAA_20_JPSS-1_rec.log

#Pass ID: 20260128_224803_NOAA 20 (JPSS-1)
#Satellite: NOAA 20 (JPSS-1)
#Configuration: NOAA 20
#almurnet v.1.7.20240730
#Start time: 2026-01-28 22:48:05

#Version: 2.2.20231116
#Station: R3.2S-Naryan-Mar
#Location: 53.008057 lon 67.646978 lat
#TLE: 1 43013U 17073A   26027.80586608  .00000156  00000+0  94940-4 0  9998
#TLE: 2 43013  98.7647 328.6108 0000947  21.3465 338.7750 14.19541216424550

#Time	Az	El	Level	Level2	SNR	BER	BlckErr	Temp	State	Recorded	gain1	gain2
2026-01-28 22:48:05.94	21.49	0.13	-61.9	-77.0	3.3	1.54e+00	0	45	0	0	60	276265
2026-01-28 22:48:09.94	21.55	0.37	-62.0	-78.5	3.6	1.51e+00	0	45	104	0	60	329402
2026-01-28 22:48:13.96	21.61	0.61	-61.8	-78.1	3.6	1.51e+00	0	45	104	0	60	315009
2026-01-28 22:48:17.98	21.67	0.86	-54.1	-74.3	3.6	1.51e+00	0	45	104	0	60	203177
2026-01-28 22:48:22.01	21.74	1.10	-57.8	-76.2	3.6	1.51e+00	0	45	104	0	60	253939
2026-01-28 22:48:26.04	21.80	1.35	-57.6	-75.9	3.6	1.51e+00	0	46	104	0	60	245098
2026-01-28 22:48:30.06	21.87	1.60	-57.6	-75.9	3.6	1.51e+00	0	45	104	0	60	244247
2026-01-28 22:48:34.09	21.93	1.85	-57.7	-76.1	3.6	1.51e+00	0	45	104	0	60	249904
2026-01-28 22:48:38.12	22.00	2.11	-57.7	-75.9	3.6	1.51e+00	0	45	104	0	60	245707
2026-01-28 22:48:42.15	22.07	2.37	-57.6	-76.0	3.6	1.51e+00	0	46	104	0	60	246556
2026-01-28 22:48:46.18	22.14	2.63	-57.6	-75.8	3.6	1.51e+00	0	46	104	0	60	241264
2026-01-28 22:48:50.22	22.21	2.89	-57.6	-75.8	3.6	1.51e+00	0	46	104	0	60	242181
2026-01-28 22:48:54.24	22.28	3.15	-57.6	-76.1	3.6	1.51e+00	0	46	104	0	60	248808
2026-01-28 22:48:58.26	22.35	3.42	-57.7	-75.9	3.6	1.51e+00	0	46	104	0	60	243625
2026-01-28 22:49:02.30	22.43	3.69	-57.7	-75.9	3.6	1.51e+00	0	46	104	0	60	245724
2026-01-28 22:49:06.33	22.50	3.96	-57.8	-75.9	3.6	1.51e+00	0	46	104	0	60	243748
2026-01-28 22:49:10.36	22.57	4.24	-57.7	-76.0	3.6	1.51e+00	0	46	104	0	60	248002
2026-01-28 22:49:14.38	22.65	4.51	-57.9	-75.9	3.6	1.51e+00	0	46	104	0	60	243157
2026-01-28 22:49:18.41	22.73	4.79	-57.9	-76.1	3.6	1.51e+00	0	46	104	0	60	249817
2026-01-28 22:49:22.43	22.81	5.08	-57.9	-76.0	3.6	1.51e+00	0	46	104	0	60	246602
2026-01-28 22:49:26.46	22.88	5.36	-58.0	-76.1	3.6	1.51e+00	0	46	104	0	60	249332
2026-01-28 22:49:30.49	22.97	5.65	-58.0	-76.1	3.6	1.51e+00	0	46	104	0	60	248826
2026-01-28 22:49:34.51	23.05	5.94	-58.1	-75.9	3.6	1.51e+00	0	46	104	0	60	244703
2026-01-28 22:49:38.54	23.13	6.24	-58.4	-76.0	3.6	1.51e+00	0	46	104	0	60	248578
2026-01-28 22:49:42.58	23.22	6.54	-58.7	-76.2	3.6	1.51e+00	0	46	104	0	60	254194
2026-01-28 22:49:46.61	23.30	6.84	-58.9	-76.4	3.6	1.51e+00	0	46	104	0	60	259805
2026-01-28 22:49:50.63	23.39	7.15	-56.3	-74.9	3.6	1.51e+00	0	46	104	0	60	218069
2026-01-28 22:49:54.64	23.48	7.46	-60.0	-76.6	3.6	1.51e+00	0	46	104	0	60	265086
2026-01-28 22:49:58.68	23.57	7.77	-58.4	-75.4	3.6	1.51e+00	0	46	104	0	60	231048
2026-01-28 22:50:02.71	23.66	8.09	-58.3	-76.5	3.6	1.51e+00	0	46	104	0	60	262796
2026-01-28 22:50:06.73	23.75	8.41	-59.3	-76.1	3.6	1.51e+00	0	46	104	0	60	249860
2026-01-28 22:50:10.76	23.85	8.74	-57.7	-76.0	3.6	1.51e+00	0	46	104	0	60	248546
2026-01-28 22:50:14.78	23.94	9.07	-60.2	-76.4	3.6	1.51e+00	0	46	104	0	60	258110
2026-01-28 22:50:18.81	24.04	9.40	-59.8	-76.2	3.6	1.51e+00	0	46	104	0	60	253374
2026-01-28 22:50:22.83	24.14	9.74	-59.6	-76.6	3.6	1.51e+00	0	46	104	0	60	265413
2026-01-28 22:50:26.85	24.25	10.08	-60.1	-76.3	3.6	1.51e+00	0	46	104	0	60	255644
2026-01-28 22:50:30.88	24.35	10.43	-60.0	-76.4	3.6	1.51e+00	0	46	104	0	60	257404
2026-01-28 22:50:34.91	24.46	10.79	-59.8	-76.2	3.6	1.51e+00	0	46	104	0	60	254161
2026-01-28 22:50:38.94	24.57	11.14	-60.1	-76.0	3.6	1.51e+00	0	46	104	0	60	247089
2026-01-28 22:50:42.97	24.68	11.51	-60.3	-76.8	3.6	1.51e+00	0	46	104	0	60	270967
2026-01-28 22:50:47.00	24.79	11.88	-59.8	-76.4	3.6	1.51e+00	0	46	104	0	60	258818
2026-01-28 22:50:51.03	24.91	12.25	-60.1	-76.9	3.6	1.51e+00	0	46	104	0	60	272898
2026-01-28 22:50:55.05	25.03	12.63	-60.2	-76.5	3.6	1.51e+00	0	46	104	0	60	261586
2026-01-28 22:50:59.05	25.15	13.02	-60.3	-76.1	3.6	1.51e+00	0	46	104	0	60	250010
2026-01-28 22:51:03.07	25.27	13.41	-60.5	-76.3	3.6	1.51e+00	0	46	104	0	60	256416
2026-01-28 22:51:07.10	25.40	13.81	-60.3	-76.1	3.6	1.51e+00	0	46	104	0	60	248763
2026-01-28 22:51:11.12	25.53	14.21	-60.5	-76.6	3.6	1.51e+00	0	46	104	0	60	264695
2026-01-28 22:51:15.13	25.66	14.62	-60.5	-77.0	3.6	1.51e+00	0	46	104	0	60	277072
2026-01-28 22:51:19.16	25.79	15.04	-60.3	-76.3	3.6	1.51e+00	0	46	104	0	60	257094
2026-01-28 22:51:23.19	25.93	15.47	-60.1	-76.2	3.6	1.51e+00	0	46	104	0	60	252242
2026-01-28 22:51:27.22	26.08	15.90	-60.2	-76.6	3.6	1.51e+00	0	46	104	0	60	263835
2026-01-28 22:51:31.24	26.22	16.34	-60.3	-76.3	3.6	1.51e+00	0	46	104	0	60	255425
2026-01-28 22:51:35.26	26.37	16.79	-60.5	-76.7	3.6	1.51e+00	0	46	104	0	60	267502
2026-01-28 22:51:39.29	26.53	17.25	-60.7	-76.6	3.6	1.51e+00	0	46	104	0	60	265299
2026-01-28 22:51:43.32	26.69	17.72	-60.6	-76.4	3.6	1.51e+00	0	46	104	0	60	258816
2026-01-28 22:51:47.35	26.85	18.19	-59.9	-76.1	3.6	1.51e+00	0	46	104	0	60	251105
2026-01-28 22:51:51.37	27.02	18.67	-60.0	-76.5	3.6	1.51e+00	0	46	104	0	60	261044
2026-01-28 22:51:55.40	27.19	19.17	-60.8	-77.1	3.6	1.51e+00	0	46	104	0	60	280970
2026-01-28 22:51:59.43	27.37	19.67	-60.5	-76.6	3.6	1.51e+00	0	46	104	0	60	265786
2026-01-28 22:52:03.46	27.55	20.19	-60.4	-76.4	3.6	1.51e+00	0	46	104	0	60	259243
2026-01-28 22:52:07.48	27.74	20.71	-60.6	-76.6	3.6	1.51e+00	0	46	104	0	60	266113
2026-01-28 22:52:11.50	27.94	21.25	-60.9	-76.7	3.6	1.51e+00	0	46	104	0	60	266565
2026-01-28 22:52:15.53	28.14	21.79	-60.7	-76.7	3.6	1.51e+00	0	46	104	0	60	266637
2026-01-28 22:52:19.56	28.35	22.35	-60.7	-77.2	3.6	1.51e+00	0	46	104	0	60	282548
2026-01-28 22:52:23.58	28.56	22.92	-60.9	-76.7	3.6	1.51e+00	0	46	104	0	60	268935
2026-01-28 22:52:27.60	28.78	23.50	-60.5	-77.1	3.6	1.51e+00	0	46	104	0	60	280828
2026-01-28 22:52:31.63	29.01	24.10	-60.9	-77.2	3.6	1.51e+00	0	46	104	0	60	283635
2026-01-28 22:52:35.65	29.25	24.71	-60.4	-76.6	3.6	1.51e+00	0	46	104	0	60	264521
2026-01-28 22:52:39.66	29.50	25.33	-61.0	-77.4	3.6	1.51e+00	0	46	104	0	60	289563
2026-01-28 22:52:43.69	29.75	25.97	-61.0	-76.7	3.6	1.51e+00	0	46	104	0	60	267074
2026-01-28 22:52:47.72	30.02	26.62	-60.9	-77.3	3.6	1.51e+00	0	46	104	0	60	287193
2026-01-28 22:52:51.74	30.30	27.29	-60.9	-76.6	3.6	1.51e+00	0	46	104	0	60	263816
2026-01-28 22:52:55.76	30.59	27.97	-60.9	-77.3	3.6	1.51e+00	0	46	104	0	60	286787
2026-01-28 22:52:59.78	30.89	28.68	-60.8	-76.6	3.6	1.51e+00	0	46	104	0	60	263679
2026-01-28 22:53:03.81	31.20	29.39	-60.8	-77.3	3.6	1.51e+00	0	46	104	0	60	287847
2026-01-28 22:53:07.84	31.53	30.13	-60.9	-77.3	3.6	1.51e+00	0	46	104	0	60	287352
2026-01-28 22:53:11.86	31.87	30.89	-59.7	-77.1	3.6	1.51e+00	0	46	104	0	60	279268
2026-01-28 22:53:15.90	32.23	31.66	-59.1	-76.8	3.6	1.51e+00	0	46	104	0	60	272549
2026-01-28 22:53:19.93	32.60	32.46	-58.6	-76.6	3.6	1.51e+00	0	46	104	0	60	263835
2026-01-28 22:53:23.95	32.99	33.27	-59.7	-77.0	3.6	1.51e+00	0	46	104	0	60	277377
2026-01-28 22:53:27.97	33.40	34.11	-60.3	-77.2	3.6	1.51e+00	0	46	104	0	60	284758
2026-01-28 22:53:32.00	33.84	34.96	-58.8	-76.6	3.6	1.51e+00	0	46	104	0	60	264261
2026-01-28 22:53:36.03	34.29	35.84	-60.9	-77.2	3.6	1.51e+00	0	46	104	0	60	284811
2026-01-28 22:53:40.06	34.77	36.75	-60.5	-77.3	3.6	1.51e+00	0	46	104	0	60	288759
2026-01-28 22:53:44.08	35.28	37.67	-61.2	-77.4	3.6	1.51e+00	0	46	104	0	60	291483
2026-01-28 22:53:48.09	35.81	38.62	-61.2	-77.5	3.6	1.51e+00	0	46	104	0	60	292353
2026-01-28 22:53:52.11	36.38	39.59	-61.2	-77.4	3.5	1.51e+00	0	46	104	0	60	292096
2026-01-28 22:53:56.13	36.98	40.59	-60.8	-77.5	3.6	1.51e+00	0	46	104	0	60	293140
2026-01-28 22:54:00.15	37.62	41.61	-61.1	-77.5	3.6	1.51e+00	0	46	104	0	60	292511
2026-01-28 22:54:04.17	38.29	42.66	-61.1	-77.6	3.6	1.51e+00	0	47	104	0	60	296216
2026-01-28 22:54:08.19	39.02	43.73	-61.3	-77.6	3.6	1.51e+00	0	46	104	0	60	297882
2026-01-28 22:54:12.22	39.79	44.83	-61.4	-77.6	3.6	1.51e+00	0	47	104	0	60	298486
2026-01-28 22:54:16.24	40.62	45.96	-61.3	-77.6	3.6	1.51e+00	0	47	104	0	60	298457
2026-01-28 22:54:20.26	41.51	47.10	-61.4	-77.7	3.6	1.51e+00	0	47	104	0	60	299533
2026-01-28 22:54:24.29	42.47	48.28	-61.3	-77.6	3.6	1.51e+00	0	47	104	0	60	298888
2026-01-28 22:54:28.32	43.51	49.48	-61.4	-77.8	3.6	1.51e+00	0	47	104	0	60	302565
2026-01-28 22:54:32.34	44.62	50.70	-61.2	-77.6	3.6	1.51e+00	0	47	104	0	60	296923
2026-01-28 22:54:36.37	45.83	51.94	-61.2	-77.6	3.6	1.51e+00	0	46	104	0	60	297432
2026-01-28 22:54:40.39	47.15	53.20	-61.4	-77.6	3.6	1.51e+00	0	47	104	0	60	297732
2026-01-28 22:54:44.42	48.58	54.48	-61.5	-77.5	3.6	1.51e+00	0	47	104	0	60	293195
2026-01-28 22:54:48.45	50.15	55.77	-61.6	-77.9	3.6	1.51e+00	0	47	104	0	60	307946
2026-01-28 22:54:52.47	51.87	57.07	-61.6	-77.8	3.6	1.51e+00	0	46	104	0	60	303331
2026-01-28 22:54:56.50	53.76	58.37	-61.8	-78.1	3.6	1.51e+00	0	47	104	0	60	316364
2026-01-28 22:55:00.49	55.81	59.66	-61.5	-78.1	3.6	1.51e+00	0	46	104	0	60	313829
2026-01-28 22:55:04.52	58.11	60.95	-61.7	-78.1	3.6	1.51e+00	0	46	104	0	60	315748
2026-01-28 22:55:08.54	60.64	62.21	-61.9	-78.4	3.6	1.51e+00	0	46	104	0	60	325303
2026-01-28 22:55:12.57	63.46	63.46	-61.9	-78.2	3.6	1.51e+00	0	47	104	0	60	318119
2026-01-28 22:55:16.60	66.58	64.66	-62.0	-78.3	3.6	1.51e+00	0	47	104	0	60	321519
2026-01-28 22:55:20.62	70.03	65.80	-62.2	-78.2	3.6	1.51e+00	0	47	104	0	60	319586
2026-01-28 22:55:24.63	73.83	66.87	-62.3	-78.2	3.6	1.51e+00	0	47	104	0	60	318612
2026-01-28 22:55:28.65	78.04	67.85	-62.1	-78.4	3.6	1.51e+00	0	46	104	0	60	325877
2026-01-28 22:55:32.69	82.66	68.73	-61.9	-78.2	3.6	1.51e+00	0	46	104	0	60	318548
2026-01-28 22:55:36.71	87.66	69.47	-61.9	-78.5	3.6	1.51e+00	0	47	104	0	60	329265
2026-01-28 22:55:40.73	93.02	70.06	-61.6	-78.2	3.6	1.51e+00	0	46	104	0	60	317644
2026-01-28 22:55:44.76	98.69	70.49	-61.7	-78.5	3.6	1.51e+00	0	47	104	0	60	328225
2026-01-28 22:55:48.79	104.57	70.73	-61.8	-78.4	3.6	1.51e+00	0	47	104	0	60	324646
2026-01-28 22:55:52.82	110.54	70.77	-61.6	-78.2	3.6	1.51e+00	0	47	104	0	60	316813
2026-01-28 22:55:56.83	116.46	70.63	-61.5	-78.1	3.6	1.51e+00	0	47	104	0	60	313580
2026-01-28 22:56:00.86	122.24	70.29	-61.6	-78.4	3.6	1.51e+00	0	46	104	0	60	325984
2026-01-28 22:56:04.89	127.77	69.78	-61.9	-78.8	3.6	1.51e+00	0	46	104	0	60	339648
2026-01-28 22:56:08.92	132.96	69.10	-62.1	-78.7	3.6	1.51e+00	0	47	104	0	60	339011
2026-01-28 22:56:12.95	137.77	68.29	-62.3	-78.6	3.6	1.51e+00	0	46	104	0	60	335253
2026-01-28 22:56:16.98	142.18	67.35	-62.5	-78.8	3.6	1.51e+00	0	47	104	0	60	341077
2026-01-28 22:56:21.00	146.19	66.32	-62.4	-78.6	3.6	1.51e+00	0	46	104	0	60	333826
2026-01-28 22:56:25.03	149.82	65.20	-62.5	-78.8	3.6	1.51e+00	0	46	104	0	60	340895
2026-01-28 22:56:29.05	153.09	64.03	-62.5	-78.8	3.6	1.51e+00	0	47	104	0	60	340965
2026-01-28 22:56:33.07	156.04	62.80	-62.3	-78.4	3.6	1.51e+00	0	47	104	0	60	326865
2026-01-28 22:56:37.09	158.71	61.55	-62.2	-77.9	3.6	1.51e+00	0	46	104	0	60	306363
2026-01-28 22:56:41.12	161.12	60.26	-62.2	-78.4	3.6	1.51e+00	0	47	104	0	60	326055
2026-01-28 22:56:45.14	163.30	58.96	-62.3	-78.2	3.6	1.51e+00	0	47	104	0	60	318744
2026-01-28 22:56:49.17	165.27	57.66	-62.2	-78.2	3.6	1.51e+00	0	46	104	0	60	319152
2026-01-28 22:56:53.19	167.07	56.36	-62.1	-77.9	3.6	1.51e+00	0	46	104	0	60	307457
2026-01-28 22:56:57.23	168.71	55.06	-62.1	-78.3	3.6	1.51e+00	0	46	104	0	60	322627
2026-01-28 22:57:01.25	170.20	53.77	-62.0	-77.3	3.6	1.51e+00	0	46	104	0	60	285792
2026-01-28 22:57:05.28	171.57	52.50	-61.9	-78.1	3.6	1.51e+00	0	47	104	0	60	313616
2026-01-28 22:57:09.30	172.83	51.24	-61.8	-77.6	3.6	1.51e+00	0	47	104	0	60	297863
2026-01-28 22:57:13.33	173.99	50.01	-61.8	-78.1	3.6	1.51e+00	0	47	104	0	60	314872
2026-01-28 22:57:17.36	175.07	48.79	-61.8	-78.1	3.6	1.51e+00	0	46	104	0	60	314772
2026-01-28 22:57:21.39	176.06	47.60	-61.8	-78.1	3.6	1.51e+00	0	47	104	0	60	313742
2026-01-28 22:57:25.41	176.98	46.44	-61.8	-78.1	3.6	1.51e+00	0	47	104	0	60	315512
2026-01-28 22:57:29.44	177.84	45.30	-61.8	-78.1	3.6	1.51e+00	0	46	104	0	60	313497
2026-01-28 22:57:33.47	178.64	44.18	-61.8	-78.0	3.6	1.51e+00	0	47	104	0	60	311017
2026-01-28 22:57:37.50	179.39	43.09	-61.7	-77.7	3.6	1.51e+00	0	47	104	0	60	300798
2026-01-28 22:57:41.52	180.09	42.03	-61.6	-77.6	3.6	1.51e+00	0	47	104	0	60	296414
2026-01-28 22:57:45.55	180.74	40.99	-61.5	-77.7	3.6	1.51e+00	0	47	104	0	60	299387
2026-01-28 22:57:49.58	181.36	39.97	-61.2	-77.5	3.6	1.51e+00	0	46	104	0	60	292954
2026-01-28 22:57:53.60	181.94	38.99	-61.4	-77.7	3.6	1.51e+00	0	47	104	0	60	299556
2026-01-28 22:57:57.62	182.49	38.02	-61.2	-77.6	3.6	1.51e+00	0	47	104	0	60	297490
2026-01-28 22:58:01.65	183.01	37.08	-61.2	-77.6	3.6	1.51e+00	0	46	104	0	60	296156
2026-01-28 22:58:05.67	183.50	36.17	-61.1	-77.5	3.6	1.51e+00	0	47	104	0	60	293096
2026-01-28 22:58:09.69	183.96	35.28	-61.1	-77.5	3.6	1.51e+00	0	47	104	0	60	294936
2026-01-28 22:58:13.70	184.40	34.41	-61.0	-77.4	3.6	1.51e+00	0	47	104	0	60	291583
2026-01-28 22:58:17.73	184.83	33.56	-61.0	-77.4	3.6	1.51e+00	0	46	104	0	60	291745
2026-01-28 22:58:21.76	185.23	32.73	-60.9	-77.4	3.6	1.51e+00	0	47	104	0	60	289227
2026-01-28 22:58:25.79	185.61	31.93	-60.9	-77.3	3.6	1.51e+00	0	47	104	0	60	286252
2026-01-28 22:58:29.82	185.97	31.14	-60.8	-77.2	3.6	1.51e+00	0	46	104	0	60	282689
2026-01-28 22:58:33.85	186.32	30.37	-60.8	-77.1	3.6	1.51e+00	0	47	104	0	60	281596
2026-01-28 22:58:37.88	186.65	29.63	-60.8	-77.1	3.6	1.51e+00	0	46	104	0	60	280900
2026-01-28 22:58:41.91	186.97	28.90	-60.8	-77.1	3.6	1.51e+00	0	47	104	0	60	280285
2026-01-28 22:58:45.94	187.28	28.18	-60.7	-77.0	3.6	1.51e+00	0	47	104	0	60	276289
2026-01-28 22:58:49.96	187.57	27.49	-60.5	-76.8	3.6	1.51e+00	0	47	104	0	60	272427
2026-01-28 22:58:53.99	187.85	26.81	-60.5	-76.8	3.6	1.51e+00	0	47	104	0	60	270097
2026-01-28 22:58:58.01	188.12	26.15	-60.4	-76.8	3.6	1.51e+00	0	46	104	0	60	270409
2026-01-28 22:59:02.03	188.38	25.51	-60.3	-76.7	3.6	1.51e+00	0	47	104	0	60	266441
2026-01-28 22:59:06.05	188.63	24.87	-60.3	-76.6	3.6	1.51e+00	0	46	104	0	60	264042
2026-01-28 22:59:10.08	188.87	24.26	-60.0	-76.4	3.6	1.51e+00	0	46	104	0	60	257656
2026-01-28 22:59:14.10	189.10	23.65	-60.0	-76.3	3.6	1.51e+00	0	46	104	0	60	255939
2026-01-28 22:59:18.12	189.32	23.06	-60.0	-76.3	3.6	1.51e+00	0	46	104	0	60	254538
2026-01-28 22:59:22.15	189.54	22.49	-59.9	-76.2	3.6	1.51e+00	0	46	104	0	60	252018
2026-01-28 22:59:26.17	189.75	21.92	-59.9	-76.2	3.6	1.51e+00	0	47	104	0	60	252640
2026-01-28 22:59:30.20	189.95	21.37	-59.8	-76.1	3.6	1.51e+00	0	47	104	0	60	250137
2026-01-28 22:59:34.21	190.15	20.83	-59.8	-76.0	3.6	1.51e+00	0	47	104	0	60	247420
2026-01-28 22:59:38.23	190.34	20.30	-59.6	-75.9	3.6	1.51e+00	0	47	104	0	60	245261
2026-01-28 22:59:42.25	190.52	19.78	-59.5	-75.8	3.6	1.51e+00	0	47	104	0	60	241716
2026-01-28 22:59:46.29	190.70	19.27	-59.5	-75.8	3.6	1.51e+00	0	47	104	0	60	242374
2026-01-28 22:59:50.32	190.87	18.77	-59.4	-75.8	3.6	1.51e+00	0	47	104	0	60	241425
2026-01-28 22:59:54.35	191.04	18.28	-59.4	-75.8	3.6	1.51e+00	0	47	104	0	60	240468
2026-01-28 22:59:58.38	191.21	17.80	-59.3	-75.6	3.6	1.51e+00	0	46	104	0	60	236782
2026-01-28 23:00:02.42	191.37	17.32	-59.2	-75.5	3.6	1.51e+00	0	47	104	0	60	234218
2026-01-28 23:00:06.44	191.52	16.86	-59.1	-75.5	3.6	1.51e+00	0	47	104	0	60	234353
2026-01-28 23:00:10.46	191.67	16.41	-59.1	-75.4	3.6	1.51e+00	0	46	104	0	60	231772
2026-01-28 23:00:14.48	191.82	15.96	-59.0	-75.4	3.6	1.51e+00	0	47	104	0	60	229866
2026-01-28 23:00:18.50	191.96	15.53	-59.0	-75.3	3.6	1.51e+00	0	46	104	0	60	228665
2026-01-28 23:00:22.53	192.10	15.09	-59.0	-75.3	3.6	1.51e+00	0	47	104	0	60	228490
2026-01-28 23:00:26.55	192.23	14.67	-58.9	-75.3	3.6	1.51e+00	0	47	104	0	60	228273
2026-01-28 23:00:30.57	192.36	14.26	-58.9	-75.3	3.6	1.51e+00	0	46	104	0	60	227278
2026-01-28 23:00:34.60	192.49	13.85	-58.8	-75.2	3.6	1.51e+00	0	47	104	0	60	225030
2026-01-28 23:00:38.63	192.62	13.44	-58.7	-75.1	3.6	1.51e+00	0	47	104	0	60	223127
2026-01-28 23:00:42.66	192.74	13.05	-58.7	-75.0	3.6	1.51e+00	0	47	104	0	60	220630
2026-01-28 23:00:46.68	192.86	12.66	-58.6	-75.0	3.6	1.51e+00	0	47	104	0	60	219526
2026-01-28 23:00:50.71	192.98	12.27	-58.6	-75.0	3.6	1.51e+00	0	46	104	0	60	219427
2026-01-28 23:00:54.73	193.09	11.90	-58.6	-74.8	3.6	1.51e+00	0	47	104	0	60	216480
2026-01-28 23:00:58.75	193.20	11.52	-58.5	-74.9	3.6	1.51e+00	0	47	104	0	60	216604
2026-01-28 23:01:02.78	193.31	11.16	-58.4	-74.8	3.6	1.51e+00	0	46	104	0	60	214436
2026-01-28 23:01:06.81	193.42	10.80	-58.4	-74.7	3.6	1.51e+00	0	46	104	0	60	211733
2026-01-28 23:01:10.84	193.53	10.44	-58.2	-74.6	3.6	1.51e+00	0	46	104	0	60	209347
2026-01-28 23:01:14.85	193.63	10.09	-58.0	-74.4	3.6	1.51e+00	0	46	104	0	60	206296
2026-01-28 23:01:18.88	193.73	9.74	-58.0	-74.3	3.6	1.51e+00	0	46	104	0	60	204375
2026-01-28 23:01:22.91	193.83	9.40	-57.9	-74.4	3.6	1.51e+00	0	46	104	0	60	204479
2026-01-28 23:01:26.93	193.92	9.06	-57.8	-74.3	3.6	1.51e+00	0	46	104	0	60	202130
2026-01-28 23:01:30.94	194.02	8.73	-57.6	-74.2	3.6	1.51e+00	0	46	104	0	60	200132
2026-01-28 23:01:34.96	194.11	8.40	-57.5	-74.1	3.6	1.51e+00	0	46	104	0	60	199611
2026-01-28 23:01:38.99	194.20	8.08	-56.5	-73.5	3.6	1.51e+00	0	47	104	0	60	185473
2026-01-28 23:01:43.02	194.29	7.76	-55.8	-73.2	3.6	1.51e+00	0	47	104	0	60	178800
2026-01-28 23:01:47.04	194.38	7.44	-57.0	-73.8	3.6	1.51e+00	0	46	104	0	60	192877
2026-01-28 23:01:51.06	194.47	7.13	-43.6	-69.9	3.6	1.51e+00	0	47	104	0	60	122515
2026-01-28 23:01:55.09	194.55	6.82	-54.3	-72.8	3.6	1.51e+00	0	47	104	0	60	170473
2026-01-28 23:01:59.12	194.64	6.52	-43.0	-68.1	3.6	1.51e+00	0	47	104	0	60	99958
2026-01-28 23:02:03.14	194.72	6.22	-49.8	-71.3	3.6	1.51e+00	0	47	104	0	60	143118
2026-01-28 23:02:07.16	194.80	5.92	-56.3	-73.1	3.5	1.51e+00	0	47	104	0	60	177635
2026-01-28 23:02:11.19	194.88	5.62	-60.1	-76.5	3.6	1.51e+00	0	47	104	0	60	262491
2026-01-28 23:02:15.22	194.95	5.33	-62.0	-78.3	3.6	1.51e+00	0	47	104	0	60	323666
2026-01-28 23:02:19.24	195.03	5.05	-62.8	-79.2	3.6	1.51e+00	0	46	104	0	60	356143
2026-01-28 23:02:23.28	195.11	4.76	-62.3	-78.9	3.5	1.51e+00	0	46	104	0	60	347139
2026-01-28 23:02:27.31	195.18	4.48	-62.7	-79.1	3.6	1.51e+00	0	46	104	0	60	351391
2026-01-28 23:02:31.34	195.25	4.20	-62.7	-79.2	3.6	1.51e+00	0	46	104	0	60	355406
2026-01-28 23:02:35.36	195.33	3.92	-62.6	-79.0	3.6	1.51e+00	0	47	104	0	60	350531
2026-01-28 23:02:39.38	195.40	3.65	-62.5	-78.9	3.6	1.51e+00	0	47	104	0	60	344980
2026-01-28 23:02:43.41	195.47	3.38	-62.4	-78.7	3.6	1.51e+00	0	47	104	0	60	337983
2026-01-28 23:02:47.44	195.54	3.11	-62.3	-78.8	3.6	1.51e+00	0	47	104	0	60	341548
2026-01-28 23:02:51.46	195.60	2.84	-62.3	-78.7	3.6	1.51e+00	0	47	104	0	60	338226
2026-01-28 23:02:55.50	195.67	2.58	-62.3	-78.7	3.6	1.51e+00	0	47	104	0	60	338746
2026-01-28 23:02:59.53	195.74	2.32	-62.3	-78.7	3.6	1.51e+00	0	47	104	0	60	338927
2026-01-28 23:03:03.56	195.80	2.06	-62.3	-78.7	3.6	1.51e+00	0	47	104	0	60	337760
2026-01-28 23:03:07.59	195.87	1.80	-62.3	-78.7	3.6	1.51e+00	0	46	104	0	60	336866
2026-01-28 23:03:11.62	195.93	1.55	-62.3	-78.7	3.6	1.51e+00	0	46	104	0	60	338664
2026-01-28 23:03:15.65	195.99	1.30	-62.3	-78.7	3.6	1.51e+00	0	47	104	0	60	338642
2026-01-28 23:03:19.68	196.05	1.05	-62.3	-78.7	3.6	1.51e+00	0	47	104	0	60	338644
2026-01-28 23:03:23.71	196.11	0.80	-62.3	-78.7	3.6	1.51e+00	0	47	104	0	60	338738
2026-01-28 23:03:27.73	196.17	0.55	-62.3	-78.7	3.6	1.51e+00	0	47	104	0	60	337798
2026-01-28 23:03:31.75	196.23	0.31	-62.3	-78.7	3.6	1.51e+00	0	47	104	0	60	337340
2026-01-28 23:03:35.78	196.29	0.07	-62.3	-78.6	3.6	1.51e+00	0	47	104	0	60	335228

#Closed at: 2026-01-28 23:03:38
#Recorded file [0 MB]: D:/Data/35015_260129_015811.dat