passes_logs/2026/01/28/R3.2S-Naryan-Mar/R3.2S-Naryan-Mar__20260128_100358_TY-42_rec.log

#Pass ID: 20260128_100358_TY-42
#Satellite: TY-42
#Configuration: TY-42
#almurnet v.1.7.20240730
#Start time: 2026-01-28 10:04:01

#Version: 2.2.20231116
#Station: R3.2S-Naryan-Mar
#Location: 53.008057 lon 67.646978 lat
#TLE: 1 64048U 25103A   26027.88263889  .00008008  00000-0  38191-3 0 09993
#TLE: 2 64048 097.4119 103.0583 0001740 093.1169 297.5293 15.19162476 38770

#Time	Az	El	Level	Level2	SNR	BER	BlckErr	Temp	State	Recorded	gain1	gain2
2026-01-28 10:04:01.36	24.13	0.16	-56.9	-72.9	3.5	8.44e-01	0	44	0	0	60	172518
2026-01-28 10:04:04.37	23.92	0.34	-57.3	-61.4	3.5	0.00e+00	0	45	104	0	60	138476
2026-01-28 10:04:07.38	23.70	0.51	-54.4	-59.3	3.6	0.00e+00	0	46	104	0	60	109120
2026-01-28 10:04:10.40	23.47	0.69	-53.3	-58.2	3.6	0.00e+00	0	46	104	0	60	96376
2026-01-28 10:04:13.42	23.25	0.87	-48.9	-55.5	3.6	0.00e+00	0	46	104	0	60	70847
2026-01-28 10:04:16.44	23.01	1.05	-50.1	-55.4	3.6	0.00e+00	0	46	104	0	60	69598
2026-01-28 10:04:19.45	22.78	1.23	-50.1	-55.2	3.6	0.00e+00	0	46	104	0	60	68402
2026-01-28 10:04:22.47	22.54	1.41	-50.0	-55.3	3.6	0.00e+00	0	46	104	0	60	68616
2026-01-28 10:04:25.49	22.30	1.60	-50.0	-55.3	3.6	0.00e+00	0	46	104	0	60	68959
2026-01-28 10:04:28.51	22.05	1.78	-50.0	-55.3	3.6	0.00e+00	0	46	104	0	60	68825
2026-01-28 10:04:31.53	21.80	1.96	-50.0	-55.4	3.6	0.00e+00	0	46	104	0	60	69286
2026-01-28 10:04:34.55	21.55	2.15	-49.9	-55.3	3.6	0.00e+00	0	47	104	0	60	69010
2026-01-28 10:04:37.57	21.29	2.34	-50.1	-55.4	3.6	0.00e+00	0	47	104	0	60	69524
2026-01-28 10:04:40.58	21.02	2.53	-50.1	-55.5	3.6	0.00e+00	0	47	104	0	60	70171
2026-01-28 10:04:43.60	20.76	2.72	-50.1	-55.5	3.6	0.00e+00	0	47	104	0	60	70231
2026-01-28 10:04:46.63	20.48	2.91	-50.2	-55.5	3.6	0.00e+00	0	47	104	0	60	70700
2026-01-28 10:04:49.65	20.20	3.10	-50.2	-55.5	3.6	0.00e+00	0	46	104	0	60	70850
2026-01-28 10:04:52.67	19.92	3.29	-50.1	-55.4	3.6	0.00e+00	0	47	104	0	60	70028
2026-01-28 10:04:55.69	19.63	3.49	-49.9	-55.3	3.6	0.00e+00	0	47	104	0	60	69194
2026-01-28 10:04:58.71	19.34	3.69	-50.1	-55.4	3.6	0.00e+00	0	47	104	0	60	69550
2026-01-28 10:05:01.73	19.04	3.88	-49.9	-55.3	3.6	0.00e+00	0	47	104	0	60	68603
2026-01-28 10:05:04.75	18.74	4.08	-50.1	-55.4	3.6	0.00e+00	0	47	104	0	60	69597
2026-01-28 10:05:07.77	18.43	4.28	-50.2	-55.5	3.6	0.00e+00	0	47	104	0	60	70783
2026-01-28 10:05:10.79	18.12	4.48	-50.3	-55.6	3.6	0.00e+00	0	47	104	0	60	70949
2026-01-28 10:05:13.80	17.80	4.68	-50.1	-55.4	3.6	0.00e+00	0	47	104	0	60	70006
2026-01-28 10:05:16.83	17.47	4.89	-50.0	-55.5	3.6	0.00e+00	0	47	104	0	60	70241
2026-01-28 10:05:19.85	17.14	5.09	-50.2	-55.5	3.6	0.00e+00	0	47	104	0	60	70525
2026-01-28 10:05:22.87	16.80	5.30	-50.2	-55.5	3.6	0.00e+00	0	47	104	0	60	70510
2026-01-28 10:05:25.89	16.46	5.51	-50.0	-55.4	3.6	0.00e+00	0	47	104	0	60	70043
2026-01-28 10:05:28.91	16.11	5.72	-50.1	-55.6	3.6	0.00e+00	0	47	104	0	60	71039
2026-01-28 10:05:31.93	15.75	5.93	-49.8	-55.5	3.6	0.00e+00	0	47	104	0	60	70659
2026-01-28 10:05:34.94	15.39	6.14	-49.4	-54.6	3.6	0.00e+00	0	47	104	0	60	63638
2026-01-28 10:05:37.96	15.01	6.35	-48.5	-54.7	3.6	0.00e+00	0	47	104	0	60	64185
2026-01-28 10:05:40.98	14.64	6.57	-49.9	-54.7	3.6	0.00e+00	0	47	104	0	60	64000
2026-01-28 10:05:43.99	14.25	6.78	-49.0	-54.1	3.6	0.00e+00	0	47	104	0	60	60053
2026-01-28 10:05:47.01	13.86	7.00	-48.3	-53.6	3.6	0.00e+00	0	47	104	0	60	56473
2026-01-28 10:05:50.02	13.46	7.22	-48.9	-55.2	3.6	0.00e+00	0	47	104	0	60	67899
2026-01-28 10:05:53.05	13.05	7.44	-48.5	-54.9	3.5	0.00e+00	0	47	104	0	60	65971
2026-01-28 10:05:56.07	12.64	7.66	-48.5	-53.0	3.6	0.00e+00	0	47	104	0	60	53033
2026-01-28 10:05:59.09	12.21	7.88	-50.6	-56.1	3.6	0.00e+00	0	47	104	0	60	75549
2026-01-28 10:06:02.11	11.78	8.10	-47.7	-54.7	3.6	0.00e+00	0	47	104	0	60	63947
2026-01-28 10:06:05.14	11.34	8.33	-52.5	-55.3	3.6	0.00e+00	0	47	104	0	60	69267
2026-01-28 10:06:08.15	10.89	8.56	-51.2	-56.0	3.6	0.00e+00	0	47	104	0	60	74586
2026-01-28 10:06:11.17	10.43	8.78	-51.2	-56.3	3.6	0.00e+00	0	47	104	0	60	77205
2026-01-28 10:06:14.18	9.96	9.01	-54.3	-57.9	3.6	0.00e+00	0	48	104	0	60	93428
2026-01-28 10:06:17.19	9.49	9.24	-52.9	-57.8	3.6	0.00e+00	0	47	104	0	60	91557
2026-01-28 10:06:20.21	9.00	9.47	-53.4	-56.7	3.6	0.00e+00	0	48	104	0	60	80912
2026-01-28 10:06:23.23	8.50	9.70	-54.1	-58.0	3.6	0.00e+00	0	48	104	0	60	94517
2026-01-28 10:06:26.25	8.00	9.94	-53.1	-57.8	3.6	0.00e+00	0	47	104	0	60	92071
2026-01-28 10:06:29.27	7.48	10.17	-52.8	-57.0	3.6	0.00e+00	0	48	104	0	60	83968
2026-01-28 10:06:32.29	6.96	10.41	-53.5	-57.5	3.6	0.00e+00	0	48	104	0	60	88753
2026-01-28 10:06:35.31	6.42	10.64	-50.8	-57.1	3.6	0.00e+00	0	48	104	0	60	84958
2026-01-28 10:06:38.33	5.87	10.88	-54.2	-58.8	3.6	0.00e+00	0	48	104	0	60	103314
2026-01-28 10:06:41.35	5.31	11.12	-54.8	-58.7	3.6	0.00e+00	0	48	104	0	60	102216
2026-01-28 10:06:44.37	4.74	11.36	-53.0	-57.5	3.6	0.00e+00	0	48	104	0	60	88729
2026-01-28 10:06:47.40	4.15	11.60	-52.9	-57.9	3.6	0.00e+00	0	48	104	0	60	93173
2026-01-28 10:06:50.42	3.56	11.84	-55.3	-59.3	3.6	0.00e+00	0	48	104	0	60	108996
2026-01-28 10:06:53.43	2.96	12.08	-52.8	-57.0	3.6	0.00e+00	0	48	104	0	60	83376
2026-01-28 10:06:56.46	2.33	12.32	-55.3	-59.5	3.6	0.00e+00	0	48	104	0	60	112017
2026-01-28 10:06:59.48	1.70	12.56	-54.0	-58.1	3.6	0.00e+00	0	48	104	0	60	94721
2026-01-28 10:07:02.50	1.06	12.80	-53.7	-58.5	3.6	0.00e+00	0	48	104	0	60	99687
2026-01-28 10:07:05.52	0.40	13.04	-52.4	-58.0	3.6	0.00e+00	0	48	104	0	60	94058
2026-01-28 10:07:08.54	359.73	13.28	-54.6	-58.4	3.6	0.00e+00	0	48	104	0	60	98578
2026-01-28 10:07:11.56	359.05	13.52	-54.7	-58.4	3.5	0.00e+00	0	48	104	0	60	97922
2026-01-28 10:07:14.58	358.35	13.76	-54.5	-58.9	3.6	0.00e+00	0	48	104	0	60	103964
2026-01-28 10:07:17.60	357.64	14.00	-54.5	-57.7	3.6	0.00e+00	0	48	104	0	60	90626
2026-01-28 10:07:20.62	356.92	14.24	-54.2	-58.6	3.6	0.00e+00	0	48	104	0	60	100201
2026-01-28 10:07:23.64	356.18	14.48	-53.9	-57.7	3.6	0.00e+00	0	48	104	0	60	91078
2026-01-28 10:07:26.65	355.43	14.71	-54.1	-58.3	3.6	0.00e+00	0	48	104	0	60	97079
2026-01-28 10:07:29.67	354.66	14.95	-54.8	-58.4	3.6	0.00e+00	0	48	104	0	60	98628
2026-01-28 10:07:32.69	353.88	15.18	-54.0	-58.5	3.6	0.00e+00	0	48	104	0	60	100119
2026-01-28 10:07:35.70	353.09	15.41	-54.8	-58.5	3.6	0.00e+00	0	48	104	0	60	100101
2026-01-28 10:07:38.72	352.28	15.64	-54.5	-58.4	3.6	0.00e+00	0	48	104	0	60	98614
2026-01-28 10:07:41.73	351.45	15.86	-54.6	-58.6	3.6	0.00e+00	0	48	104	0	60	100632
2026-01-28 10:07:44.75	350.61	16.09	-54.8	-58.7	3.6	0.00e+00	0	48	104	0	60	102215
2026-01-28 10:07:47.77	349.76	16.31	-54.6	-58.7	3.6	0.00e+00	0	48	104	0	60	102302
2026-01-28 10:07:50.79	348.89	16.53	-54.3	-58.9	3.6	0.00e+00	0	48	104	0	60	104581
2026-01-28 10:07:53.80	348.01	16.74	-54.0	-58.8	3.6	0.00e+00	0	48	104	0	60	102858
2026-01-28 10:07:56.81	347.11	16.95	-55.2	-59.1	3.6	0.00e+00	0	48	104	0	60	107254
2026-01-28 10:07:59.84	346.19	17.15	-55.5	-59.5	3.6	0.00e+00	0	48	104	0	60	111798
2026-01-28 10:08:02.86	345.26	17.36	-55.6	-59.5	3.6	0.00e+00	0	48	104	0	60	111716
2026-01-28 10:08:05.88	344.32	17.55	-55.4	-59.6	3.6	0.00e+00	0	48	104	0	60	112651
2026-01-28 10:08:08.89	343.37	17.74	-55.4	-59.5	3.5	0.00e+00	0	48	104	0	60	111349
2026-01-28 10:08:11.90	342.40	17.93	-55.9	-59.7	3.6	0.00e+00	0	48	104	0	60	114668
2026-01-28 10:08:14.91	341.41	18.11	-55.6	-59.5	3.6	0.00e+00	0	48	104	0	60	111379
2026-01-28 10:08:17.92	340.42	18.28	-54.9	-59.2	3.6	0.00e+00	0	48	104	0	60	107754
2026-01-28 10:08:20.93	339.41	18.45	-55.3	-59.2	3.6	0.00e+00	0	48	104	0	60	107927
2026-01-28 10:08:23.95	338.38	18.61	-53.9	-58.7	3.6	0.00e+00	0	48	104	0	60	101934
2026-01-28 10:08:26.97	337.35	18.76	-53.2	-59.1	3.6	0.00e+00	0	48	104	0	60	106642
2026-01-28 10:08:29.99	336.30	18.90	-54.3	-58.6	3.6	0.00e+00	0	48	104	0	60	101109
2026-01-28 10:08:32.99	335.24	19.04	-53.8	-58.6	3.6	0.00e+00	0	48	104	0	60	100204
2026-01-28 10:08:36.01	334.17	19.17	-54.8	-59.2	3.6	0.00e+00	0	48	104	0	60	108176
2026-01-28 10:08:39.03	333.09	19.29	-54.7	-59.3	3.6	0.00e+00	0	48	104	0	60	109568
2026-01-28 10:08:42.05	332.00	19.40	-54.6	-58.7	3.6	0.00e+00	0	48	104	0	60	101890
2026-01-28 10:08:45.05	330.91	19.50	-54.3	-58.5	3.6	0.00e+00	0	48	104	0	60	99905
2026-01-28 10:08:48.06	329.80	19.59	-54.9	-58.9	3.6	0.00e+00	0	48	104	0	60	104782
2026-01-28 10:08:51.08	328.69	19.68	-55.0	-59.2	3.6	0.00e+00	0	48	104	0	60	108289
2026-01-28 10:08:54.10	327.57	19.75	-54.7	-58.7	3.6	0.00e+00	0	48	104	0	60	102197
2026-01-28 10:08:57.12	326.44	19.81	-55.6	-59.3	3.6	0.00e+00	0	48	104	0	60	108878
2026-01-28 10:09:00.15	325.30	19.87	-55.9	-59.5	3.6	0.00e+00	0	48	104	0	60	112143
2026-01-28 10:09:03.15	324.17	19.91	-55.1	-58.8	3.6	0.00e+00	0	48	104	0	60	102817
2026-01-28 10:09:06.18	323.03	19.94	-54.9	-58.6	3.6	0.00e+00	0	48	104	0	60	101211
2026-01-28 10:09:09.20	321.89	19.96	-55.3	-58.8	3.6	0.00e+00	0	48	104	0	60	103000
2026-01-28 10:09:12.22	320.74	19.97	-55.2	-59.0	3.6	0.00e+00	0	48	104	0	60	105696
2026-01-28 10:09:15.25	319.59	19.97	-54.9	-58.9	3.6	0.00e+00	0	48	104	0	60	104778
2026-01-28 10:09:18.27	318.45	19.96	-55.1	-59.0	3.6	0.00e+00	0	48	104	0	60	105735
2026-01-28 10:09:21.29	317.31	19.94	-55.2	-58.8	3.6	0.00e+00	0	48	104	0	60	102763
2026-01-28 10:09:24.29	316.17	19.91	-55.3	-59.0	3.6	0.00e+00	0	48	104	0	60	105038
2026-01-28 10:09:27.31	315.04	19.87	-55.2	-58.7	3.6	0.00e+00	0	48	104	0	60	102304
2026-01-28 10:09:30.33	313.90	19.81	-55.2	-58.9	3.6	0.00e+00	0	48	104	0	60	103972
2026-01-28 10:09:33.34	312.78	19.75	-55.1	-58.8	3.6	0.00e+00	0	48	104	0	60	102762
2026-01-28 10:09:36.35	311.66	19.68	-54.3	-58.6	3.6	0.00e+00	0	48	104	0	60	100236
2026-01-28 10:09:39.37	310.54	19.60	-55.4	-59.1	3.6	0.00e+00	0	48	104	0	60	106706
2026-01-28 10:09:42.39	309.43	19.50	-54.0	-59.1	3.6	0.00e+00	0	48	104	0	60	106336
2026-01-28 10:09:45.41	308.33	19.40	-54.1	-58.9	3.6	0.00e+00	0	48	104	0	60	103872
2026-01-28 10:09:48.43	307.24	19.29	-55.2	-59.1	3.6	0.00e+00	0	48	104	0	60	106182
2026-01-28 10:09:51.45	306.15	19.17	-53.6	-58.5	3.6	0.00e+00	0	48	104	0	60	99707
2026-01-28 10:09:54.46	305.08	19.04	-53.9	-58.8	3.6	0.00e+00	0	48	104	0	60	102960
2026-01-28 10:09:57.49	304.02	18.90	-55.1	-59.1	3.6	0.00e+00	0	48	104	0	60	106597
2026-01-28 10:10:00.50	302.97	18.76	-54.3	-58.9	3.6	0.00e+00	0	48	104	0	60	103754
2026-01-28 10:10:03.51	301.93	18.61	-54.6	-59.0	3.6	0.00e+00	0	48	104	0	60	105974
2026-01-28 10:10:06.54	300.90	18.45	-53.8	-58.4	3.6	0.00e+00	0	48	104	0	60	98207
2026-01-28 10:10:09.55	299.89	18.28	-54.3	-58.6	3.6	0.00e+00	0	48	104	0	60	100461
2026-01-28 10:10:12.55	298.90	18.11	-55.3	-59.3	3.6	0.00e+00	0	48	104	0	60	109191
2026-01-28 10:10:15.58	297.91	17.93	-55.7	-59.4	3.6	0.00e+00	0	48	104	0	60	110822
2026-01-28 10:10:18.60	296.93	17.74	-55.4	-59.4	3.6	0.00e+00	0	48	104	0	60	109924
2026-01-28 10:10:21.63	295.97	17.55	-53.4	-58.1	3.6	0.00e+00	0	48	104	0	60	94670
2026-01-28 10:10:24.64	295.02	17.35	-53.6	-58.2	3.6	0.00e+00	0	48	104	0	60	96231
2026-01-28 10:10:27.65	294.10	17.15	-53.8	-58.7	3.6	0.00e+00	0	48	104	0	60	101316
2026-01-28 10:10:30.67	293.18	16.94	-55.3	-59.3	3.6	0.00e+00	0	48	104	0	60	109554
2026-01-28 10:10:33.67	292.28	16.73	-55.2	-59.2	3.6	0.00e+00	0	48	104	0	60	108051
2026-01-28 10:10:36.70	291.39	16.52	-53.8	-58.1	3.6	0.00e+00	0	48	104	0	60	95032
2026-01-28 10:10:39.72	290.52	16.30	-52.8	-57.4	3.6	0.00e+00	0	48	104	0	60	88211
2026-01-28 10:10:42.73	289.66	16.08	-53.2	-57.9	3.6	0.00e+00	0	48	104	0	60	92923
2026-01-28 10:10:45.76	288.82	15.86	-53.7	-58.3	3.6	0.00e+00	0	48	104	0	60	97690
2026-01-28 10:10:48.78	287.99	15.63	-52.8	-57.2	3.6	0.00e+00	0	48	104	0	60	86052
2026-01-28 10:10:51.79	287.18	15.40	-52.0	-56.5	3.6	0.00e+00	0	48	104	0	60	79118
2026-01-28 10:10:54.81	286.38	15.17	-51.2	-56.2	3.6	0.00e+00	0	48	104	0	60	76081
2026-01-28 10:10:57.82	285.60	14.93	-50.8	-55.5	3.6	0.00e+00	0	48	104	0	60	70136
2026-01-28 10:11:00.83	284.83	14.70	-53.0	-57.1	3.6	0.00e+00	0	48	104	0	60	85106
2026-01-28 10:11:03.85	284.07	14.46	-50.5	-55.4	3.6	0.00e+00	0	48	104	0	60	70009
2026-01-28 10:11:06.86	283.34	14.23	-50.6	-55.1	3.6	0.00e+00	0	48	104	0	60	67648
2026-01-28 10:11:09.89	282.61	13.99	-51.6	-56.4	3.6	0.00e+00	0	48	104	0	60	78350
2026-01-28 10:11:12.91	281.89	13.75	-50.4	-55.3	3.6	0.00e+00	0	48	104	0	60	68779
2026-01-28 10:11:15.93	281.19	13.51	-50.2	-54.5	3.6	0.00e+00	0	48	104	0	60	62946
2026-01-28 10:11:18.96	280.51	13.26	-50.3	-54.5	3.6	0.00e+00	0	48	104	0	60	62560
2026-01-28 10:11:21.97	279.83	13.02	-51.9	-56.5	3.6	0.00e+00	0	48	104	0	60	79037
2026-01-28 10:11:24.99	279.18	12.78	-50.6	-55.1	3.6	0.00e+00	0	48	104	0	60	67405
2026-01-28 10:11:28.01	278.53	12.54	-49.6	-54.1	3.6	0.00e+00	0	48	104	0	60	59722
2026-01-28 10:11:31.03	277.90	12.30	-48.1	-52.4	3.6	0.00e+00	0	48	104	0	60	49480
2026-01-28 10:11:34.05	277.27	12.06	-49.7	-54.1	3.6	0.00e+00	0	48	104	0	60	59845
2026-01-28 10:11:37.06	276.67	11.82	-51.0	-55.5	3.6	0.00e+00	0	48	104	0	60	70256
2026-01-28 10:11:40.08	276.07	11.57	-51.5	-55.6	3.6	0.00e+00	0	48	104	0	60	71377
2026-01-28 10:11:43.10	275.48	11.33	-48.8	-53.5	3.6	0.00e+00	0	48	104	0	60	55941
2026-01-28 10:11:46.13	274.91	11.09	-45.2	-49.7	3.6	0.00e+00	0	48	104	0	60	36099
2026-01-28 10:11:49.15	274.35	10.86	-50.3	-55.2	3.6	0.00e+00	0	48	104	0	60	68020
2026-01-28 10:11:52.17	273.80	10.62	-48.9	-53.6	3.6	0.00e+00	0	48	104	0	60	56475
2026-01-28 10:11:55.19	273.26	10.38	-51.3	-55.9	3.6	0.00e+00	0	48	104	0	60	73462
2026-01-28 10:11:58.20	272.73	10.14	-48.1	-52.7	3.6	0.00e+00	0	48	104	0	60	51318
2026-01-28 10:12:01.23	272.21	9.91	-49.3	-54.4	3.6	0.00e+00	0	48	104	0	60	62238
2026-01-28 10:12:04.25	271.70	9.67	-53.6	-57.5	3.6	0.00e+00	0	48	104	0	60	88684
2026-01-28 10:12:07.27	271.20	9.44	-48.4	-52.7	3.6	0.00e+00	0	48	104	0	60	51185
2026-01-28 10:12:10.29	270.71	9.21	-50.1	-54.5	3.6	0.00e+00	0	48	104	0	60	62885
2026-01-28 10:12:13.31	270.23	8.98	-51.4	-55.6	3.6	0.00e+00	0	48	104	0	60	71207
2026-01-28 10:12:16.33	269.76	8.75	-49.5	-54.0	3.6	0.00e+00	0	48	104	0	60	59316
2026-01-28 10:12:19.35	269.30	8.52	-51.0	-55.9	3.6	0.00e+00	0	48	104	0	60	73823
2026-01-28 10:12:22.37	268.85	8.29	-49.8	-54.2	3.6	0.00e+00	0	48	104	0	60	60843
2026-01-28 10:12:25.38	268.41	8.07	-51.2	-55.9	3.6	0.00e+00	0	48	104	0	60	73596
2026-01-28 10:12:28.40	267.97	7.84	-52.9	-57.7	3.6	0.00e+00	0	48	104	0	60	90493
2026-01-28 10:12:31.41	267.55	7.62	-50.5	-55.1	3.6	0.00e+00	0	48	104	0	60	67218
2026-01-28 10:12:34.42	267.13	7.40	-49.6	-54.4	3.6	0.00e+00	0	48	104	0	60	62274
2026-01-28 10:12:37.43	266.72	7.18	-52.3	-57.0	3.5	0.00e+00	0	48	104	0	60	84105
2026-01-28 10:12:40.45	266.32	6.96	-48.5	-53.0	3.6	0.00e+00	0	48	104	0	60	52918
2026-01-28 10:12:43.47	265.92	6.74	-48.7	-53.1	3.6	0.00e+00	0	48	104	0	60	53450
2026-01-28 10:12:46.49	265.54	6.53	-48.6	-53.3	3.6	0.00e+00	0	48	104	0	60	54550
2026-01-28 10:12:49.51	265.16	6.31	-50.5	-55.3	3.6	0.00e+00	0	48	104	0	60	68697
2026-01-28 10:12:52.53	264.78	6.10	-49.8	-54.4	3.6	0.00e+00	0	48	104	0	60	62158
2026-01-28 10:12:55.54	264.42	5.88	-51.9	-56.5	3.6	0.00e+00	0	48	104	0	60	79420
2026-01-28 10:12:58.56	264.06	5.67	-53.6	-58.8	3.6	0.00e+00	0	48	104	0	60	102658
2026-01-28 10:13:01.58	263.71	5.46	-54.8	-59.5	3.6	0.00e+00	0	48	104	0	60	111502
2026-01-28 10:13:04.60	263.36	5.26	-52.8	-58.8	3.6	0.00e+00	0	48	104	0	60	103288
2026-01-28 10:13:07.62	263.02	5.05	-53.6	-59.5	3.6	0.00e+00	0	48	104	0	60	111333
2026-01-28 10:13:10.64	262.69	4.84	-54.2	-59.9	3.6	0.00e+00	0	48	104	0	60	116357
2026-01-28 10:13:13.66	262.36	4.64	-53.3	-59.3	3.6	0.00e+00	0	48	104	0	60	108557
2026-01-28 10:13:16.68	262.04	4.44	-55.7	-60.3	3.6	0.00e+00	0	48	104	0	60	122421
2026-01-28 10:13:19.70	261.72	4.23	-55.6	-60.2	3.6	0.00e+00	0	48	104	0	60	121376
2026-01-28 10:13:22.72	261.41	4.03	-54.7	-60.2	3.6	0.00e+00	0	48	104	0	60	120682
2026-01-28 10:13:25.74	261.10	3.83	-55.4	-60.1	3.6	0.00e+00	0	48	104	0	60	119746
2026-01-28 10:13:28.76	260.80	3.64	-55.4	-60.1	3.6	0.00e+00	0	48	104	0	60	119464
2026-01-28 10:13:31.78	260.51	3.44	-55.3	-60.0	3.6	0.00e+00	0	49	104	0	60	118518
2026-01-28 10:13:34.81	260.22	3.24	-55.4	-60.1	3.6	0.00e+00	0	48	104	0	60	119633
2026-01-28 10:13:37.83	259.93	3.05	-55.3	-60.1	3.6	0.00e+00	0	48	104	0	60	119623
2026-01-28 10:13:40.85	259.65	2.86	-54.6	-60.1	3.6	0.00e+00	0	48	104	0	60	119063
2026-01-28 10:13:43.86	259.38	2.67	-55.3	-60.1	3.6	0.00e+00	0	48	104	0	60	120023
2026-01-28 10:13:46.88	259.11	2.48	-55.5	-60.1	3.6	0.00e+00	0	48	104	0	60	120178
2026-01-28 10:13:49.89	258.84	2.29	-55.4	-60.1	3.6	0.00e+00	0	48	104	0	60	119672
2026-01-28 10:13:52.90	258.58	2.10	-55.6	-60.1	3.6	0.00e+00	0	48	104	0	60	119903
2026-01-28 10:13:55.91	258.33	1.91	-55.6	-60.2	3.6	0.00e+00	0	49	104	0	60	120633
2026-01-28 10:13:58.93	258.07	1.73	-54.2	-60.2	3.5	0.00e+00	0	48	104	0	60	120426
2026-01-28 10:14:01.94	257.83	1.54	-55.5	-60.1	3.6	0.00e+00	0	48	104	0	60	119789
2026-01-28 10:14:04.95	257.58	1.36	-55.4	-60.1	3.6	0.00e+00	0	48	104	0	60	119560
2026-01-28 10:14:07.98	257.34	1.18	-55.2	-60.1	3.6	0.00e+00	0	48	104	0	60	119272
2026-01-28 10:14:10.99	257.10	1.00	-55.4	-60.1	3.6	0.00e+00	0	49	104	0	60	119902
2026-01-28 10:14:14.00	256.87	0.82	-55.4	-60.1	3.6	0.00e+00	0	49	104	0	60	120032
2026-01-28 10:14:17.02	256.64	0.64	-55.5	-60.1	3.6	0.00e+00	0	48	104	0	60	119769
2026-01-28 10:14:20.04	256.42	0.46	-55.5	-60.1	3.6	0.00e+00	0	48	104	0	60	119699
2026-01-28 10:14:23.04	256.19	0.28	-55.5	-60.2	3.6	0.00e+00	0	48	104	0	60	120408
2026-01-28 10:14:26.05	255.98	0.11	-54.7	-60.1	3.6	0.00e+00	0	49	104	0	60	119962
2026-01-28 10:14:29.07	255.76	-0.07	-55.3	-60.1	3.6	0.00e+00	0	49	104	0	60	119667

#Closed at: 2026-01-28 10:14:30
#Recorded file [0 MB]: D:/Data/35015_260128_131414.dat