passes_logs/2026/01/28/R3.2S-Naryan-Mar/R3.2S-Naryan-Mar__20260128_233808_NOAA_21_JPSS-2_rec.log

#Pass ID: 20260128_233808_NOAA 21 (JPSS-2)
#Satellite: NOAA 21 (JPSS-2)
#Configuration: NOAA-21
#almurnet v.1.7.20240730
#Start time: 2026-01-28 23:38:11

#Version: 2.2.20231116
#Station: R3.2S-Naryan-Mar
#Location: 53.008057 lon 67.646978 lat
#TLE: 1 54234U 22150A   26027.77052245  .00000166  00000+0  99439-4 0  9997
#TLE: 2 54234  98.7510 328.5165 0000872 203.6403 156.4733 14.19540252166628

#Time	Az	El	Level	Level2	SNR	BER	BlckErr	Temp	State	Recorded	gain1	gain2
2026-01-28 23:38:11.20	24.61	0.16	-59.1	-73.3	3.3	1.54e+00	0	45	0	0	60	175393
2026-01-28 23:38:15.22	24.59	0.40	-61.2	-75.8	3.5	1.52e+00	0	45	104	0	60	233806
2026-01-28 23:38:19.24	24.56	0.64	-58.7	-75.1	3.7	1.52e+00	0	45	104	0	60	216628
2026-01-28 23:38:23.27	24.54	0.89	-58.6	-74.8	3.7	1.51e+00	0	45	104	0	60	210062
2026-01-28 23:38:27.29	24.51	1.13	-53.3	-70.8	3.8	1.51e+00	0	45	104	0	60	131817
2026-01-28 23:38:31.31	24.49	1.38	-53.4	-70.9	3.8	1.51e+00	0	45	104	0	60	133455
2026-01-28 23:38:35.34	24.46	1.64	-53.4	-71.0	3.8	1.51e+00	0	45	104	0	60	134314
2026-01-28 23:38:39.36	24.43	1.89	-53.5	-71.1	3.8	1.51e+00	0	45	104	0	60	136962
2026-01-28 23:38:43.39	24.40	2.15	-53.3	-71.0	3.8	1.51e+00	0	46	104	0	60	134312
2026-01-28 23:38:47.41	24.37	2.41	-53.2	-71.1	3.7	1.51e+00	0	46	104	0	60	137312
2026-01-28 23:38:51.44	24.34	2.67	-53.3	-70.8	3.8	1.51e+00	0	45	104	0	60	132332
2026-01-28 23:38:55.47	24.31	2.93	-53.4	-70.9	3.8	1.51e+00	0	46	104	0	60	133922
2026-01-28 23:38:59.49	24.28	3.20	-53.3	-71.3	3.8	1.51e+00	0	45	104	0	60	139883
2026-01-28 23:39:03.51	24.25	3.46	-53.6	-71.2	3.7	1.51e+00	0	46	104	0	60	137740
2026-01-28 23:39:07.54	24.21	3.74	-53.3	-71.2	3.8	1.51e+00	0	46	104	0	60	138672
2026-01-28 23:39:11.57	24.18	4.01	-53.3	-71.2	3.7	1.51e+00	0	46	104	0	60	137660
2026-01-28 23:39:15.59	24.14	4.29	-53.4	-70.8	3.7	1.51e+00	0	46	104	0	60	132665
2026-01-28 23:39:19.61	24.11	4.57	-53.3	-70.9	3.7	1.51e+00	0	46	104	0	60	132864
2026-01-28 23:39:23.64	24.07	4.85	-53.3	-71.2	3.8	1.51e+00	0	46	104	0	60	138588
2026-01-28 23:39:27.67	24.03	5.13	-53.4	-71.1	3.8	1.51e+00	0	46	104	0	60	136897
2026-01-28 23:39:31.69	23.99	5.42	-53.2	-70.7	3.8	1.51e+00	0	46	104	0	60	130821
2026-01-28 23:39:35.71	23.95	5.71	-53.2	-70.9	3.8	1.51e+00	0	46	104	0	60	134037
2026-01-28 23:39:39.73	23.91	6.01	-53.2	-70.5	3.8	1.51e+00	0	46	104	0	60	128054
2026-01-28 23:39:43.76	23.86	6.31	-54.1	-71.5	3.9	1.50e+00	0	46	104	0	60	142300
2026-01-28 23:39:47.78	23.82	6.61	-53.9	-71.0	3.8	1.51e+00	0	46	104	0	60	134507
2026-01-28 23:39:51.78	23.77	6.91	-54.1	-70.9	3.8	1.50e+00	0	46	104	0	60	133396
2026-01-28 23:39:55.79	23.72	7.22	-50.8	-68.9	4.0	1.50e+00	0	46	104	0	60	105406
2026-01-28 23:39:59.82	23.67	7.53	-53.0	-71.0	3.8	1.51e+00	0	46	104	0	60	135272
2026-01-28 23:40:03.84	23.62	7.85	-53.4	-68.8	4.0	1.51e+00	0	46	104	0	60	104487
2026-01-28 23:40:07.86	23.57	8.17	-57.5	-74.0	3.5	1.51e+00	0	46	104	0	60	191631
2026-01-28 23:40:11.88	23.52	8.49	-52.8	-69.4	3.9	1.51e+00	0	46	104	0	60	111894
2026-01-28 23:40:15.92	23.46	8.82	-54.7	-72.8	3.6	1.51e+00	0	46	104	0	60	166234
2026-01-28 23:40:19.94	23.41	9.16	-55.5	-71.1	3.9	1.51e+00	0	46	104	0	60	135833
2026-01-28 23:40:23.96	23.35	9.49	-55.3	-71.1	3.8	1.51e+00	0	46	104	0	60	135870
2026-01-28 23:40:27.99	23.29	9.84	-54.1	-71.0	3.8	1.51e+00	0	46	104	0	60	134829
2026-01-28 23:40:32.02	23.23	10.18	-53.6	-72.7	3.7	1.51e+00	0	46	104	0	60	164768
2026-01-28 23:40:36.05	23.16	10.54	-54.7	-70.7	3.8	1.51e+00	0	46	104	0	60	131143
2026-01-28 23:40:40.08	23.10	10.89	-52.0	-71.7	3.8	1.51e+00	0	46	104	0	60	146010
2026-01-28 23:40:44.11	23.03	11.26	-48.7	-72.5	3.7	1.51e+00	0	46	104	0	60	160623
2026-01-28 23:40:48.14	22.96	11.62	-45.3	-66.6	4.2	1.49e+00	0	46	104	0	60	81591
2026-01-28 23:40:52.17	22.88	12.00	-44.2	-65.3	4.3	1.48e+00	0	47	104	0	60	69651
2026-01-28 23:40:56.18	22.81	12.37	-44.4	-63.3	4.6	1.48e+00	0	46	104	0	60	55923
2026-01-28 23:41:00.20	22.73	12.76	-44.0	-62.7	4.5	1.49e+00	0	46	104	0	60	52155
2026-01-28 23:41:04.22	22.65	13.15	-43.5	-63.4	4.6	1.49e+00	0	46	104	0	60	56465
2026-01-28 23:41:08.25	22.57	13.55	-45.6	-67.1	4.4	1.49e+00	0	46	104	0	60	85824
2026-01-28 23:41:12.28	22.49	13.95	-45.8	-63.5	4.4	1.49e+00	0	47	104	0	60	56659
2026-01-28 23:41:16.30	22.40	14.36	-48.5	-66.6	4.2	1.50e+00	0	46	104	0	60	81072
2026-01-28 23:41:20.33	22.31	14.78	-48.9	-65.1	4.4	1.50e+00	0	46	104	0	60	68643
2026-01-28 23:41:24.35	22.21	15.20	-56.9	-71.8	3.6	1.51e+00	0	46	104	0	60	148549
2026-01-28 23:41:28.39	22.12	15.63	-57.4	-73.1	3.6	1.51e+00	0	47	104	0	60	172698
2026-01-28 23:41:32.40	22.02	16.07	-50.7	-70.7	3.9	1.51e+00	0	47	104	0	60	131066
2026-01-28 23:41:36.43	21.91	16.52	-58.1	-74.1	3.6	1.51e+00	0	46	104	0	60	193327
2026-01-28 23:41:40.46	21.81	16.98	-57.0	-72.7	3.5	1.51e+00	0	47	104	0	60	163443
2026-01-28 23:41:44.49	21.69	17.44	-59.7	-74.1	3.5	1.51e+00	0	47	104	0	60	192787
2026-01-28 23:41:48.52	21.58	17.92	-54.3	-71.9	3.6	1.51e+00	0	47	104	0	60	149790
2026-01-28 23:41:52.54	21.46	18.40	-56.9	-74.0	3.5	1.51e+00	0	46	104	0	60	191559
2026-01-28 23:41:56.57	21.33	18.89	-56.1	-73.6	3.5	1.51e+00	0	47	104	0	60	182841
2026-01-28 23:42:00.61	21.21	19.39	-54.8	-72.1	3.8	1.51e+00	0	47	104	0	60	153888
2026-01-28 23:42:04.62	21.07	19.90	-59.0	-74.6	3.6	1.52e+00	0	47	104	0	60	204248
2026-01-28 23:42:08.65	20.93	20.43	-56.9	-71.8	3.7	1.51e+00	0	47	104	0	60	148030
2026-01-28 23:42:12.69	20.79	20.96	-57.6	-72.1	3.7	1.51e+00	0	46	104	0	60	153682
2026-01-28 23:42:16.71	20.64	21.50	-55.2	-69.7	3.8	1.51e+00	0	47	104	0	60	116491
2026-01-28 23:42:20.72	20.48	22.06	-55.7	-73.0	3.7	1.51e+00	0	47	104	0	60	169329
2026-01-28 23:42:24.75	20.32	22.63	-57.2	-70.9	3.6	1.51e+00	0	47	104	0	60	132676
2026-01-28 23:42:28.78	20.15	23.21	-57.8	-73.6	3.6	1.51e+00	0	47	104	0	60	182626
2026-01-28 23:42:32.81	19.98	23.80	-51.8	-69.2	4.0	1.51e+00	0	47	104	0	60	109130
2026-01-28 23:42:36.84	19.79	24.41	-57.6	-69.6	3.6	1.51e+00	0	47	104	0	60	115448
2026-01-28 23:42:40.86	19.60	25.03	-56.6	-71.7	3.6	1.51e+00	0	47	104	0	60	145629
2026-01-28 23:42:44.88	19.40	25.67	-59.9	-73.9	3.5	1.51e+00	0	47	104	0	60	188025
2026-01-28 23:42:48.91	19.19	26.32	-55.1	-71.0	3.7	1.51e+00	0	46	104	0	60	135180
2026-01-28 23:42:52.93	18.98	26.99	-54.8	-74.1	3.6	1.51e+00	0	47	104	0	60	193073
2026-01-28 23:42:56.95	18.75	27.67	-56.2	-72.0	3.8	1.51e+00	0	47	104	0	60	151466
2026-01-28 23:43:00.98	18.51	28.37	-58.6	-74.3	3.5	1.51e+00	0	47	104	0	60	197574
2026-01-28 23:43:05.01	18.26	29.09	-58.2	-72.4	3.6	1.51e+00	0	47	104	0	60	159423
2026-01-28 23:43:09.05	17.99	29.83	-60.2	-74.7	3.5	1.52e+00	0	47	104	0	60	207533
2026-01-28 23:43:13.07	17.72	30.58	-55.3	-71.5	3.8	1.51e+00	0	47	104	0	60	142648
2026-01-28 23:43:17.10	17.43	31.36	-52.2	-69.9	3.9	1.50e+00	0	47	104	0	60	119361
2026-01-28 23:43:21.13	17.12	32.15	-53.4	-71.4	3.8	1.50e+00	0	47	104	0	60	141675
2026-01-28 23:43:25.16	16.80	32.97	-60.5	-74.6	3.5	1.52e+00	0	47	104	0	60	204173
2026-01-28 23:43:29.20	16.46	33.81	-52.2	-70.3	3.9	1.51e+00	0	47	104	0	60	125083
2026-01-28 23:43:33.22	16.10	34.67	-60.3	-74.8	3.5	1.51e+00	0	47	104	0	60	209190
2026-01-28 23:43:37.25	15.72	35.55	-60.4	-74.5	3.5	1.52e+00	0	47	104	0	60	202833
2026-01-28 23:43:41.28	15.32	36.45	-60.0	-74.4	3.5	1.52e+00	0	47	104	0	60	199207
2026-01-28 23:43:45.29	14.90	37.38	-59.6	-74.4	3.5	1.51e+00	0	47	104	0	60	199194
2026-01-28 23:43:49.32	14.44	38.33	-59.9	-74.3	3.5	1.51e+00	0	46	104	0	60	196426
2026-01-28 23:43:53.35	13.96	39.32	-59.1	-73.8	3.5	1.52e+00	0	47	104	0	60	186847
2026-01-28 23:43:57.36	13.45	40.32	-58.6	-73.6	3.6	1.51e+00	0	47	104	0	60	181960
2026-01-28 23:44:01.38	12.91	41.35	-57.9	-74.1	3.6	1.51e+00	0	47	104	0	60	193516
2026-01-28 23:44:05.39	12.33	42.40	-58.6	-74.3	3.5	1.52e+00	0	47	104	0	60	198246
2026-01-28 23:44:09.42	11.71	43.49	-61.2	-75.1	3.5	1.52e+00	0	47	104	0	60	217265
2026-01-28 23:44:13.44	11.04	44.60	-60.8	-75.2	3.5	1.52e+00	0	47	104	0	60	219936
2026-01-28 23:44:17.45	10.32	45.74	-60.6	-74.8	3.5	1.52e+00	0	47	104	0	60	209400
2026-01-28 23:44:21.47	9.55	46.90	-59.9	-74.8	3.5	1.52e+00	0	47	104	0	60	209845
2026-01-28 23:44:25.50	8.71	48.10	-60.4	-74.7	3.5	1.51e+00	0	47	104	0	60	207159
2026-01-28 23:44:29.53	7.80	49.32	-60.7	-74.9	3.5	1.51e+00	0	47	104	0	60	211967
2026-01-28 23:44:33.55	6.82	50.57	-60.6	-75.0	3.5	1.52e+00	0	47	104	0	60	213168
2026-01-28 23:44:37.58	5.75	51.84	-59.6	-74.8	3.5	1.52e+00	0	47	104	0	60	209494
2026-01-28 23:44:41.61	4.58	53.13	-59.7	-75.2	3.5	1.52e+00	0	47	104	0	60	217992
2026-01-28 23:44:45.65	3.30	54.45	-60.7	-75.2	3.5	1.52e+00	0	47	104	0	60	218034
2026-01-28 23:44:49.67	1.90	55.79	-60.8	-75.1	3.5	1.52e+00	0	47	104	0	60	216317
2026-01-28 23:44:53.69	0.35	57.13	-60.4	-75.1	3.5	1.51e+00	0	47	104	0	60	216969
2026-01-28 23:44:57.72	358.64	58.49	-58.8	-74.2	3.6	1.51e+00	0	47	104	0	60	195020
2026-01-28 23:45:01.76	356.74	59.86	-61.2	-74.8	3.5	1.52e+00	0	47	104	0	60	208997
2026-01-28 23:45:05.78	354.63	61.21	-60.6	-74.7	3.5	1.52e+00	0	47	104	0	60	207643
2026-01-28 23:45:09.80	352.28	62.56	-59.7	-74.8	3.5	1.52e+00	0	47	104	0	60	208394
2026-01-28 23:45:13.84	349.64	63.90	-60.1	-75.2	3.5	1.52e+00	0	47	104	0	60	217894
2026-01-28 23:45:17.87	346.69	65.19	-61.5	-75.4	3.5	1.52e+00	0	47	104	0	60	223785
2026-01-28 23:45:21.89	343.39	66.44	-60.2	-75.2	3.5	1.52e+00	0	47	104	0	60	219976
2026-01-28 23:45:25.91	339.69	67.63	-60.3	-75.2	3.5	1.52e+00	0	47	104	0	60	219771
2026-01-28 23:45:29.94	335.53	68.74	-58.8	-74.5	3.5	1.52e+00	0	47	104	0	60	201777
2026-01-28 23:45:33.96	330.92	69.75	-59.6	-74.7	3.5	1.52e+00	0	47	104	0	60	205574
2026-01-28 23:45:37.99	325.81	70.62	-59.7	-74.3	3.5	1.52e+00	0	47	104	0	60	198362
2026-01-28 23:45:42.00	320.25	71.35	-58.7	-73.7	3.6	1.51e+00	0	47	104	0	60	184768
2026-01-28 23:45:46.04	314.23	71.90	-58.2	-73.9	3.6	1.51e+00	0	47	104	0	60	188398
2026-01-28 23:45:50.07	307.89	72.25	-55.6	-72.1	3.7	1.51e+00	0	47	104	0	60	154016
2026-01-28 23:45:54.10	301.38	72.39	-55.4	-72.5	3.8	1.51e+00	0	47	104	0	60	161178
2026-01-28 23:45:58.12	294.85	72.30	-56.4	-73.0	3.6	1.51e+00	0	47	104	0	60	170362
2026-01-28 23:46:02.15	288.45	72.01	-58.5	-74.3	3.5	1.52e+00	0	47	104	0	60	198159
2026-01-28 23:46:06.18	282.35	71.51	-56.3	-72.6	3.7	1.51e+00	0	47	104	0	60	162751
2026-01-28 23:46:10.21	276.64	70.83	-55.6	-72.5	3.7	1.51e+00	0	47	104	0	60	161343
2026-01-28 23:46:14.24	271.40	69.98	-56.0	-72.4	3.7	1.51e+00	0	47	104	0	60	158328
2026-01-28 23:46:18.26	266.66	69.01	-57.0	-73.2	3.5	1.51e+00	0	47	104	0	60	173823
2026-01-28 23:46:22.29	262.38	67.92	-58.6	-73.6	3.5	1.51e+00	0	47	104	0	60	182051
2026-01-28 23:46:26.31	258.56	66.75	-59.4	-74.4	3.5	1.52e+00	0	47	104	0	60	199972
2026-01-28 23:46:30.33	255.16	65.51	-59.6	-74.5	3.5	1.52e+00	0	47	104	0	60	202831
2026-01-28 23:46:34.34	252.13	64.23	-60.0	-74.2	3.5	1.52e+00	0	47	104	0	60	194948
2026-01-28 23:46:38.36	249.42	62.91	-60.3	-74.9	3.5	1.52e+00	0	47	104	0	60	210297
2026-01-28 23:46:42.38	247.00	61.56	-60.6	-74.5	3.5	1.52e+00	0	47	104	0	60	203069
2026-01-28 23:46:46.41	244.82	60.20	-60.6	-74.7	3.5	1.52e+00	0	47	104	0	60	206884
2026-01-28 23:46:50.43	242.87	58.83	-60.7	-74.5	3.5	1.52e+00	0	47	104	0	60	201447
2026-01-28 23:46:54.45	241.12	57.47	-60.6	-74.6	3.5	1.52e+00	0	47	104	0	60	205349
2026-01-28 23:46:58.48	239.52	56.12	-60.7	-74.4	3.5	1.52e+00	0	47	104	0	60	198568
2026-01-28 23:47:02.50	238.08	54.78	-60.7	-74.7	3.5	1.52e+00	0	47	104	0	60	206135
2026-01-28 23:47:06.53	236.77	53.46	-60.6	-74.5	3.5	1.52e+00	0	47	104	0	60	203046
2026-01-28 23:47:10.55	235.57	52.15	-60.6	-74.6	3.5	1.51e+00	0	47	104	0	60	203806
2026-01-28 23:47:14.59	234.47	50.87	-60.8	-74.8	3.5	1.51e+00	0	47	104	0	60	208005
2026-01-28 23:47:18.61	233.47	49.61	-60.7	-74.6	3.5	1.51e+00	0	47	104	0	60	205228
2026-01-28 23:47:22.64	232.54	48.38	-60.8	-74.8	3.5	1.52e+00	0	47	104	0	60	208092
2026-01-28 23:47:26.67	231.68	47.17	-60.9	-74.9	3.5	1.52e+00	0	47	104	0	60	210373
2026-01-28 23:47:30.70	230.89	45.99	-60.7	-74.7	3.5	1.52e+00	0	47	104	0	60	206349
2026-01-28 23:47:34.72	230.16	44.84	-60.8	-74.6	3.5	1.52e+00	0	47	104	0	60	204992
2026-01-28 23:47:38.74	229.47	43.72	-60.9	-74.8	3.5	1.52e+00	0	47	104	0	60	209695
2026-01-28 23:47:42.76	228.84	42.62	-60.9	-74.8	3.5	1.52e+00	0	47	104	0	60	208278
2026-01-28 23:47:46.80	228.24	41.55	-61.0	-74.5	3.5	1.52e+00	0	47	104	0	60	203085
2026-01-28 23:47:50.82	227.69	40.51	-60.9	-74.6	3.5	1.52e+00	0	47	104	0	60	204655
2026-01-28 23:47:54.84	227.17	39.50	-60.9	-74.7	3.5	1.51e+00	0	47	104	0	60	207372
2026-01-28 23:47:58.87	226.68	38.51	-60.6	-74.5	3.5	1.52e+00	0	47	104	0	60	201340
2026-01-28 23:48:02.90	226.22	37.54	-60.6	-74.2	3.5	1.52e+00	0	47	104	0	60	195015
2026-01-28 23:48:06.93	225.78	36.60	-60.3	-73.3	3.5	1.51e+00	0	47	104	0	60	176462
2026-01-28 23:48:10.94	225.38	35.69	-60.3	-74.1	3.5	1.51e+00	0	47	104	0	60	193289
2026-01-28 23:48:14.95	224.99	34.81	-60.2	-73.5	3.5	1.51e+00	0	47	104	0	60	180482
2026-01-28 23:48:18.98	224.63	33.94	-60.2	-74.2	3.5	1.52e+00	0	47	104	0	60	194892
2026-01-28 23:48:23.01	224.28	33.09	-60.2	-73.3	3.5	1.52e+00	0	47	104	0	60	176252
2026-01-28 23:48:27.03	223.95	32.27	-60.0	-73.1	3.5	1.52e+00	0	47	104	0	60	172063
2026-01-28 23:48:31.05	223.64	31.47	-60.0	-73.6	3.5	1.52e+00	0	47	104	0	60	181877
2026-01-28 23:48:35.08	223.35	30.69	-60.0	-73.2	3.5	1.52e+00	0	47	104	0	60	174386
2026-01-28 23:48:39.11	223.07	29.93	-60.0	-73.6	3.5	1.52e+00	0	47	104	0	60	181981
2026-01-28 23:48:43.14	222.80	29.18	-60.0	-73.1	3.5	1.51e+00	0	47	104	0	60	172765
2026-01-28 23:48:47.17	222.54	28.46	-60.1	-72.7	3.6	1.51e+00	0	47	104	0	60	164407
2026-01-28 23:48:51.20	222.30	27.75	-59.9	-73.8	3.5	1.52e+00	0	47	104	0	60	186849
2026-01-28 23:48:55.23	222.07	27.06	-59.9	-73.1	3.5	1.51e+00	0	47	104	0	60	172085
2026-01-28 23:48:59.26	221.84	26.38	-59.8	-72.4	3.5	1.51e+00	0	47	104	0	60	158246
2026-01-28 23:49:03.29	221.63	25.73	-59.8	-71.2	3.9	1.49e+00	0	47	104	0	60	137754
2026-01-28 23:49:07.33	221.43	25.08	-60.0	-73.9	3.5	1.52e+00	0	47	104	0	60	188301
2026-01-28 23:49:11.36	221.23	24.45	-59.9	-73.5	3.5	1.52e+00	0	47	104	0	60	179140
2026-01-28 23:49:15.38	221.04	23.84	-59.8	-72.8	3.5	1.51e+00	0	47	104	0	60	165956
2026-01-28 23:49:19.41	220.86	23.24	-59.4	-71.2	3.8	1.50e+00	0	47	104	0	60	137766
2026-01-28 23:49:23.43	220.69	22.66	-59.4	-73.0	3.5	1.52e+00	0	47	104	0	60	169965
2026-01-28 23:49:27.45	220.53	22.09	-59.1	-72.2	3.5	1.51e+00	0	47	104	0	60	154665
2026-01-28 23:49:31.47	220.37	21.53	-59.5	-73.2	3.5	1.52e+00	0	47	104	0	60	173549
2026-01-28 23:49:35.49	220.21	20.98	-59.5	-72.4	3.5	1.51e+00	0	47	104	0	60	158710
2026-01-28 23:49:39.52	220.07	20.44	-59.3	-72.4	3.5	1.51e+00	0	47	104	0	60	159259
2026-01-28 23:49:43.55	219.92	19.91	-59.1	-70.2	4.0	1.46e+00	0	47	104	0	60	123748
2026-01-28 23:49:47.58	219.79	19.40	-59.2	-72.8	3.5	1.52e+00	0	47	104	0	60	166167
2026-01-28 23:49:51.60	219.66	18.89	-59.3	-73.0	3.5	1.52e+00	0	47	104	0	60	169127
2026-01-28 23:49:55.63	219.53	18.40	-59.0	-72.8	3.5	1.52e+00	0	47	104	0	60	166134
2026-01-28 23:49:59.65	219.41	17.91	-59.2	-71.6	3.5	1.51e+00	0	47	104	0	60	144010
2026-01-28 23:50:03.68	219.29	17.43	-59.2	-72.6	3.5	1.52e+00	0	47	104	0	60	162232
2026-01-28 23:50:07.70	219.17	16.97	-59.1	-71.3	3.7	1.50e+00	0	47	104	0	60	139240
2026-01-28 23:50:11.73	219.06	16.51	-58.7	-72.5	3.5	1.52e+00	0	47	104	0	60	161355
2026-01-28 23:50:15.77	218.96	16.05	-58.9	-71.5	3.5	1.51e+00	0	47	104	0	60	143084
2026-01-28 23:50:19.79	218.85	15.61	-58.7	-72.6	3.5	1.51e+00	0	47	104	0	60	162926
2026-01-28 23:50:23.81	218.75	15.18	-58.9	-71.5	3.5	1.51e+00	0	47	104	0	60	142430
2026-01-28 23:50:27.83	218.66	14.75	-58.8	-72.7	3.5	1.52e+00	0	47	104	0	60	164809
2026-01-28 23:50:31.87	218.56	14.33	-58.6	-71.3	3.5	1.51e+00	0	47	104	0	60	139954
2026-01-28 23:50:35.89	218.47	13.92	-58.9	-72.7	3.5	1.52e+00	0	47	104	0	60	164074
2026-01-28 23:50:39.91	218.38	13.51	-58.8	-72.9	3.5	1.52e+00	0	47	104	0	60	168947
2026-01-28 23:50:43.93	218.30	13.11	-58.7	-72.7	3.5	1.52e+00	0	47	104	0	60	164016
2026-01-28 23:50:47.97	218.22	12.72	-58.7	-72.1	3.5	1.52e+00	0	47	104	0	60	153985
2026-01-28 23:50:51.98	218.14	12.33	-58.6	-72.3	3.5	1.52e+00	0	47	104	0	60	157144
2026-01-28 23:50:55.99	218.06	11.95	-58.5	-72.0	3.5	1.52e+00	0	47	104	0	60	150599
2026-01-28 23:51:00.00	217.98	11.58	-58.6	-72.2	3.5	1.52e+00	0	47	104	0	60	155875
2026-01-28 23:51:04.03	217.91	11.21	-58.4	-71.7	3.5	1.52e+00	0	47	104	0	60	147149
2026-01-28 23:51:08.06	217.84	10.85	-58.4	-72.4	3.5	1.52e+00	0	47	104	0	60	158226
2026-01-28 23:51:12.09	217.77	10.49	-58.3	-71.0	3.5	1.51e+00	0	47	104	0	60	135335
2026-01-28 23:51:16.11	217.70	10.13	-58.1	-72.0	3.5	1.52e+00	0	47	104	0	60	151062
2026-01-28 23:51:20.14	217.64	9.78	-58.2	-71.5	3.5	1.52e+00	0	47	104	0	60	143032
2026-01-28 23:51:24.17	217.57	9.44	-58.1	-72.1	3.5	1.51e+00	0	47	104	0	60	154090
2026-01-28 23:51:28.21	217.51	9.10	-58.3	-72.3	3.5	1.52e+00	0	47	104	0	60	157587
2026-01-28 23:51:32.23	217.45	8.76	-57.8	-72.0	3.5	1.52e+00	0	47	104	0	60	151029
2026-01-28 23:51:36.25	217.39	8.43	-58.2	-72.2	3.5	1.51e+00	0	47	104	0	60	155728
2026-01-28 23:51:40.29	217.34	8.11	-58.1	-72.2	3.5	1.52e+00	0	47	104	0	60	154170
2026-01-28 23:51:44.31	217.28	7.78	-57.9	-71.0	3.5	1.52e+00	0	47	104	0	60	135254
2026-01-28 23:51:48.33	217.23	7.47	-57.6	-71.4	3.5	1.52e+00	0	47	104	0	60	141196
2026-01-28 23:51:52.34	217.18	7.15	-57.6	-71.5	3.5	1.52e+00	0	47	104	0	60	143732
2026-01-28 23:51:56.37	217.13	6.84	-57.2	-71.1	3.5	1.51e+00	0	47	104	0	60	136664
2026-01-28 23:52:00.40	217.08	6.54	-57.0	-70.6	3.5	1.52e+00	0	47	104	0	60	129110
2026-01-28 23:52:04.41	217.03	6.23	-55.9	-70.7	3.5	1.52e+00	0	47	104	0	60	130310
2026-01-28 23:52:08.44	216.98	5.93	-57.3	-71.8	3.5	1.52e+00	0	47	104	0	60	147752
2026-01-28 23:52:12.47	216.94	5.64	-60.1	-74.3	3.5	1.52e+00	0	47	104	0	60	196377
2026-01-28 23:52:16.50	216.89	5.34	-61.5	-75.5	3.5	1.52e+00	0	47	104	0	60	227816
2026-01-28 23:52:20.52	216.85	5.05	-62.4	-76.4	3.5	1.52e+00	0	47	104	0	60	251094
2026-01-28 23:52:24.54	216.81	4.77	-59.5	-75.5	3.6	1.51e+00	0	47	104	0	60	227497
2026-01-28 23:52:28.57	216.76	4.48	-60.7	-76.0	3.5	1.52e+00	0	47	104	0	60	238674
2026-01-28 23:52:32.60	216.72	4.20	-60.6	-75.6	3.5	1.51e+00	0	47	104	0	60	229910
2026-01-28 23:52:36.62	216.69	3.92	-60.6	-75.5	3.5	1.52e+00	0	47	104	0	60	227490
2026-01-28 23:52:40.65	216.65	3.65	-60.6	-75.6	3.5	1.52e+00	0	47	104	0	60	229491
2026-01-28 23:52:44.68	216.61	3.38	-60.6	-75.7	3.5	1.52e+00	0	47	104	0	60	230840
2026-01-28 23:52:48.71	216.57	3.11	-60.7	-75.7	3.5	1.52e+00	0	47	104	0	60	232533
2026-01-28 23:52:52.74	216.54	2.84	-60.7	-75.8	3.5	1.52e+00	0	47	104	0	60	234939
2026-01-28 23:52:56.76	216.50	2.57	-60.7	-75.7	3.6	1.52e+00	0	47	104	0	60	231262
2026-01-28 23:53:00.79	216.47	2.31	-60.8	-75.7	3.5	1.52e+00	0	47	104	0	60	231749
2026-01-28 23:53:04.82	216.44	2.05	-60.9	-75.7	3.5	1.52e+00	0	47	104	0	60	232669
2026-01-28 23:53:08.84	216.40	1.79	-60.9	-75.8	3.5	1.52e+00	0	47	104	0	60	233563
2026-01-28 23:53:12.87	216.37	1.54	-60.9	-75.8	3.5	1.52e+00	0	47	104	0	60	233316
2026-01-28 23:53:16.89	216.34	1.29	-61.0	-75.9	3.5	1.52e+00	0	47	104	0	60	236519
2026-01-28 23:53:20.92	216.31	1.04	-60.9	-75.7	3.5	1.52e+00	0	47	104	0	60	231924
2026-01-28 23:53:24.94	216.28	0.79	-60.9	-75.8	3.5	1.52e+00	0	47	104	0	60	234051
2026-01-28 23:53:28.95	216.25	0.54	-61.0	-75.7	3.5	1.51e+00	0	47	104	0	60	233194
2026-01-28 23:53:32.98	216.23	0.30	-61.0	-75.8	3.5	1.52e+00	0	47	104	0	60	234638
2026-01-28 23:53:37.01	216.20	0.05	-61.0	-75.7	3.5	1.51e+00	0	47	104	0	60	233212

#Closed at: 2026-01-28 23:53:40
#Recorded file [0 MB]: D:/Data/35015_260129_024120.dat