passes_logs/2026/01/28/R3.2S-Naryan-Mar/R3.2S-Naryan-Mar__20260128_174807_TY-42_rec.log

#Pass ID: 20260128_174807_TY-42
#Satellite: TY-42
#Configuration: TY-42
#almurnet v.1.7.20240730
#Start time: 2026-01-28 17:48:10

#Version: 2.2.20231116
#Station: R3.2S-Naryan-Mar
#Location: 53.008057 lon 67.646978 lat
#TLE: 1 64048U 25103A   26028.22870370  .00008010  00000-0  38191-3 0 09994
#TLE: 2 64048 097.4119 103.3979 0001765 093.5114 028.5586 15.19170123 38824

#Time	Az	El	Level	Level2	SNR	BER	BlckErr	Temp	State	Recorded	gain1	gain2
2026-01-28 17:48:10.35	164.78	0.15	-54.6	-58.3	3.3	0.00e+00	0	46	0	0	60	97199
2026-01-28 17:48:13.36	164.82	0.35	-57.4	-61.1	3.6	0.00e+00	0	46	104	0	60	133566
2026-01-28 17:48:16.37	164.87	0.54	-57.8	-61.5	3.6	0.00e+00	0	46	104	0	60	140953
2026-01-28 17:48:19.39	164.91	0.74	-57.4	-61.0	3.6	0.00e+00	0	46	104	0	60	132323
2026-01-28 17:48:22.41	164.96	0.94	-56.0	-59.6	3.6	0.00e+00	0	46	104	0	60	112632
2026-01-28 17:48:25.43	165.00	1.14	-54.8	-58.7	3.6	0.00e+00	0	46	104	0	60	101382
2026-01-28 17:48:28.45	165.05	1.35	-53.8	-57.7	3.6	0.00e+00	0	46	104	0	60	91224
2026-01-28 17:48:31.46	165.10	1.55	-53.7	-57.7	3.6	0.00e+00	0	46	104	0	60	90846
2026-01-28 17:48:34.47	165.15	1.76	-53.7	-57.6	3.6	0.00e+00	0	46	104	0	60	89938
2026-01-28 17:48:37.49	165.20	1.97	-53.6	-57.6	3.6	0.00e+00	0	46	104	0	60	89511
2026-01-28 17:48:40.51	165.25	2.18	-53.5	-57.5	3.6	0.00e+00	0	47	104	0	60	88614
2026-01-28 17:48:43.52	165.30	2.39	-53.5	-57.5	3.6	0.00e+00	0	47	104	0	60	88652
2026-01-28 17:48:46.54	165.35	2.61	-53.5	-57.5	3.6	0.00e+00	0	47	104	0	60	88532
2026-01-28 17:48:49.56	165.40	2.82	-53.5	-57.4	3.6	0.00e+00	0	47	104	0	60	87695
2026-01-28 17:48:52.58	165.46	3.04	-53.5	-57.4	3.6	0.00e+00	0	47	104	0	60	88211
2026-01-28 17:48:55.61	165.51	3.27	-53.5	-57.4	3.6	0.00e+00	0	47	104	0	60	87800
2026-01-28 17:48:58.63	165.57	3.49	-53.5	-57.4	3.6	0.00e+00	0	47	104	0	60	87783
2026-01-28 17:49:01.65	165.62	3.72	-53.5	-57.4	3.6	0.00e+00	0	47	104	0	60	87506
2026-01-28 17:49:04.67	165.68	3.95	-53.5	-57.4	3.6	0.00e+00	0	47	104	0	60	87917
2026-01-28 17:49:07.69	165.74	4.18	-53.4	-57.4	3.6	0.00e+00	0	47	104	0	60	87635
2026-01-28 17:49:10.72	165.80	4.42	-53.4	-57.4	3.6	0.00e+00	0	47	104	0	60	87620
2026-01-28 17:49:13.74	165.86	4.65	-53.4	-57.4	3.6	0.00e+00	0	47	104	0	60	87736
2026-01-28 17:49:16.76	165.92	4.89	-53.4	-57.4	3.6	0.00e+00	0	47	104	0	60	87361
2026-01-28 17:49:19.78	165.98	5.14	-53.4	-57.4	3.6	0.00e+00	0	47	104	0	60	87355
2026-01-28 17:49:22.80	166.04	5.38	-53.4	-57.3	3.6	0.00e+00	0	47	104	0	60	87145
2026-01-28 17:49:25.81	166.11	5.63	-53.4	-57.4	3.6	0.00e+00	0	47	104	0	60	87506
2026-01-28 17:49:28.84	166.17	5.89	-53.4	-57.4	3.6	0.00e+00	0	47	104	0	60	87252
2026-01-28 17:49:31.86	166.24	6.14	-53.4	-57.3	3.6	0.00e+00	0	47	104	0	60	86533
2026-01-28 17:49:34.87	166.31	6.40	-53.3	-57.4	3.6	0.00e+00	0	47	104	0	60	87768
2026-01-28 17:49:37.89	166.38	6.66	-53.6	-57.6	3.6	0.00e+00	0	47	104	0	60	90005
2026-01-28 17:49:40.91	166.45	6.93	-53.4	-57.3	3.6	0.00e+00	0	48	104	0	60	87116
2026-01-28 17:49:43.93	166.52	7.20	-53.5	-57.3	3.6	0.00e+00	0	47	104	0	60	87045
2026-01-28 17:49:46.95	166.59	7.47	-53.5	-57.3	3.6	0.00e+00	0	48	104	0	60	87080
2026-01-28 17:49:49.98	166.67	7.75	-53.5	-57.5	3.6	0.00e+00	0	47	104	0	60	88299
2026-01-28 17:49:53.00	166.74	8.03	-53.4	-57.4	3.6	0.00e+00	0	48	104	0	60	87392
2026-01-28 17:49:56.02	166.82	8.32	-54.1	-57.9	3.6	0.00e+00	0	48	104	0	60	93310
2026-01-28 17:49:59.05	166.90	8.61	-54.4	-58.2	3.6	0.00e+00	0	48	104	0	60	95846
2026-01-28 17:50:02.05	166.98	8.90	-53.8	-57.8	3.6	0.00e+00	0	47	104	0	60	91373
2026-01-28 17:50:05.06	167.06	9.20	-54.3	-58.1	3.6	0.00e+00	0	48	104	0	60	94623
2026-01-28 17:50:08.08	167.15	9.51	-54.1	-57.9	3.6	0.00e+00	0	48	104	0	60	92992
2026-01-28 17:50:11.09	167.23	9.81	-54.5	-58.1	3.6	0.00e+00	0	48	104	0	60	95183
2026-01-28 17:50:14.12	167.32	10.13	-54.6	-58.2	3.6	0.00e+00	0	48	104	0	60	96599
2026-01-28 17:50:17.14	167.41	10.45	-54.3	-58.0	3.6	0.00e+00	0	48	104	0	60	93930
2026-01-28 17:50:20.16	167.51	10.77	-54.5	-58.3	3.6	0.00e+00	0	47	104	0	60	96789
2026-01-28 17:50:23.18	167.60	11.10	-54.5	-58.3	3.6	0.00e+00	0	48	104	0	60	96779
2026-01-28 17:50:26.19	167.70	11.44	-54.5	-58.2	3.6	0.00e+00	0	48	104	0	60	96536
2026-01-28 17:50:29.21	167.80	11.78	-54.4	-58.0	3.6	0.00e+00	0	48	104	0	60	94399
2026-01-28 17:50:32.22	167.90	12.13	-54.5	-58.2	3.6	0.00e+00	0	48	104	0	60	96198
2026-01-28 17:50:35.25	168.01	12.49	-54.6	-58.2	3.6	0.00e+00	0	48	104	0	60	96367
2026-01-28 17:50:38.27	168.12	12.85	-54.7	-58.3	3.6	0.00e+00	0	48	104	0	60	97780
2026-01-28 17:50:41.29	168.23	13.22	-54.7	-58.3	3.6	0.00e+00	0	48	104	0	60	97609
2026-01-28 17:50:44.30	168.34	13.60	-54.6	-58.1	3.6	0.00e+00	0	48	104	0	60	95313
2026-01-28 17:50:47.31	168.46	13.98	-54.7	-58.3	3.6	0.00e+00	0	48	104	0	60	97648
2026-01-28 17:50:50.34	168.58	14.38	-54.6	-58.2	3.6	0.00e+00	0	48	104	0	60	96129
2026-01-28 17:50:53.36	168.70	14.78	-54.7	-58.3	3.6	0.00e+00	0	48	104	0	60	97549
2026-01-28 17:50:56.37	168.83	15.19	-54.6	-58.2	3.6	0.00e+00	0	48	104	0	60	96128
2026-01-28 17:50:59.38	168.96	15.60	-54.9	-58.5	3.6	0.00e+00	0	48	104	0	60	100100
2026-01-28 17:51:02.40	169.10	16.03	-54.9	-58.6	3.6	0.00e+00	0	48	104	0	60	100209
2026-01-28 17:51:05.41	169.24	16.47	-55.1	-58.8	3.6	0.00e+00	0	48	104	0	60	102686
2026-01-28 17:51:08.43	169.38	16.92	-55.0	-58.6	3.6	0.00e+00	0	48	104	0	60	100931
2026-01-28 17:51:11.45	169.53	17.37	-55.1	-58.8	3.6	0.00e+00	0	48	104	0	60	103240
2026-01-28 17:51:14.47	169.69	17.84	-55.1	-58.8	3.6	0.00e+00	0	48	104	0	60	102990
2026-01-28 17:51:17.49	169.85	18.33	-55.4	-59.1	3.6	0.00e+00	0	48	104	0	60	106320
2026-01-28 17:51:20.51	170.01	18.82	-55.4	-59.0	3.6	0.00e+00	0	48	104	0	60	105408
2026-01-28 17:51:23.52	170.18	19.32	-55.3	-58.9	3.6	0.00e+00	0	48	104	0	60	104840
2026-01-28 17:51:26.55	170.36	19.84	-55.3	-59.0	3.6	0.00e+00	0	48	104	0	60	105448
2026-01-28 17:51:29.57	170.54	20.38	-55.6	-59.2	3.5	0.00e+00	0	48	104	0	60	107767
2026-01-28 17:51:32.58	170.73	20.92	-55.7	-59.4	3.6	0.00e+00	0	48	104	0	60	110127
2026-01-28 17:51:35.60	170.93	21.48	-55.6	-59.3	3.6	0.00e+00	0	48	104	0	60	109009
2026-01-28 17:51:38.62	171.14	22.06	-55.7	-59.3	3.6	0.00e+00	0	48	104	0	60	109035
2026-01-28 17:51:41.65	171.35	22.66	-55.8	-59.4	3.6	0.00e+00	0	48	104	0	60	110257
2026-01-28 17:51:44.67	171.58	23.27	-55.7	-59.4	3.6	0.00e+00	0	48	104	0	60	110548
2026-01-28 17:51:47.69	171.81	23.89	-55.7	-59.4	3.5	0.00e+00	0	48	104	0	60	110975
2026-01-28 17:51:50.70	172.05	24.54	-55.8	-59.5	3.6	0.00e+00	0	48	104	0	60	111774
2026-01-28 17:51:53.72	172.30	25.21	-55.9	-59.7	3.6	0.00e+00	0	48	104	0	60	114725
2026-01-28 17:51:56.75	172.57	25.90	-56.2	-59.9	3.6	0.00e+00	0	48	104	0	60	117302
2026-01-28 17:51:59.77	172.85	26.60	-56.2	-59.8	3.6	0.00e+00	0	48	104	0	60	115363
2026-01-28 17:52:02.77	173.14	27.33	-56.3	-59.9	3.6	0.00e+00	0	48	104	0	60	117232
2026-01-28 17:52:05.79	173.45	28.08	-56.4	-60.1	3.6	0.00e+00	0	48	104	0	60	119789
2026-01-28 17:52:08.81	173.77	28.86	-56.4	-60.1	3.5	0.00e+00	0	48	104	0	60	119501
2026-01-28 17:52:11.83	174.11	29.67	-56.4	-60.0	3.6	0.00e+00	0	48	104	0	60	118753
2026-01-28 17:52:14.86	174.47	30.50	-56.6	-60.2	3.6	0.00e+00	0	48	104	0	60	121603
2026-01-28 17:52:17.87	174.84	31.36	-56.8	-60.4	3.6	0.00e+00	0	48	104	0	60	124565
2026-01-28 17:52:20.89	175.24	32.24	-56.6	-60.2	3.6	0.00e+00	0	48	104	0	60	121355
2026-01-28 17:52:23.91	175.67	33.16	-56.6	-60.3	3.6	0.00e+00	0	48	104	0	60	122151
2026-01-28 17:52:26.92	176.12	34.11	-56.8	-60.4	3.6	0.00e+00	0	48	104	0	60	124535
2026-01-28 17:52:29.95	176.60	35.10	-57.0	-60.6	3.6	0.00e+00	0	48	104	0	60	126880
2026-01-28 17:52:32.97	177.10	36.11	-57.1	-60.8	3.6	0.00e+00	0	48	104	0	60	129271
2026-01-28 17:52:35.99	177.65	37.17	-57.1	-60.7	3.6	0.00e+00	0	48	104	0	60	128108
2026-01-28 17:52:39.01	178.23	38.26	-57.1	-60.7	3.6	0.00e+00	0	48	104	0	60	128936
2026-01-28 17:52:42.03	178.85	39.39	-57.2	-60.8	3.5	0.00e+00	0	48	104	0	60	130314
2026-01-28 17:52:45.05	179.52	40.55	-57.2	-60.9	3.6	0.00e+00	0	48	104	0	60	131021
2026-01-28 17:52:48.08	180.25	41.77	-57.2	-61.0	3.6	0.00e+00	0	48	104	0	60	132015
2026-01-28 17:52:51.10	181.03	43.01	-57.1	-60.9	3.6	0.00e+00	0	48	104	0	60	130524
2026-01-28 17:52:54.12	181.88	44.31	-57.2	-61.0	3.6	0.00e+00	0	48	104	0	60	132784
2026-01-28 17:52:57.14	182.80	45.64	-56.7	-60.6	3.6	0.00e+00	0	48	104	0	60	126179
2026-01-28 17:53:00.16	183.81	47.01	-56.8	-60.6	3.6	0.00e+00	0	48	104	0	60	127258
2026-01-28 17:53:03.18	184.91	48.43	-56.7	-60.6	3.6	0.00e+00	0	48	104	0	60	126565
2026-01-28 17:53:06.21	186.12	49.89	-56.7	-60.6	3.6	0.00e+00	0	48	104	0	60	127099
2026-01-28 17:53:09.23	187.46	51.39	-57.1	-60.8	3.6	0.00e+00	0	48	104	0	60	130199
2026-01-28 17:53:12.25	188.94	52.92	-57.0	-60.8	3.6	0.00e+00	0	48	104	0	60	130350
2026-01-28 17:53:15.26	190.59	54.48	-57.0	-60.8	3.6	0.00e+00	0	48	104	0	60	130132
2026-01-28 17:53:18.29	192.43	56.08	-56.9	-60.7	3.6	0.00e+00	0	48	104	0	60	128807
2026-01-28 17:53:21.31	194.50	57.69	-56.6	-60.5	3.6	0.00e+00	0	48	104	0	60	125573
2026-01-28 17:53:24.33	196.84	59.31	-56.8	-60.6	3.6	0.00e+00	0	48	104	0	60	127026
2026-01-28 17:53:27.35	199.49	60.92	-57.0	-60.7	3.6	0.00e+00	0	48	104	0	60	128956
2026-01-28 17:53:30.37	202.50	62.53	-56.6	-60.5	3.6	0.00e+00	0	48	104	0	60	125813
2026-01-28 17:53:33.38	205.92	64.09	-56.7	-60.6	3.6	0.00e+00	0	48	104	0	60	126902
2026-01-28 17:53:36.41	209.86	65.60	-56.6	-60.6	3.6	0.00e+00	0	48	104	0	60	126065
2026-01-28 17:53:39.43	214.34	67.02	-57.0	-60.8	3.6	0.00e+00	0	48	104	0	60	129750
2026-01-28 17:53:42.44	219.44	68.31	-57.0	-60.8	3.6	0.00e+00	0	48	104	0	60	130130
2026-01-28 17:53:45.46	225.21	69.45	-56.9	-60.9	3.6	0.00e+00	0	48	104	0	60	131726
2026-01-28 17:53:48.47	231.62	70.39	-56.6	-60.8	3.6	0.00e+00	0	48	104	0	60	129562
2026-01-28 17:53:51.48	238.63	71.07	-56.2	-60.6	3.6	0.00e+00	0	48	104	0	60	126093
2026-01-28 17:53:54.50	246.10	71.49	-55.8	-60.4	3.6	0.00e+00	0	48	104	0	60	123213
2026-01-28 17:53:57.52	253.80	71.59	-54.3	-59.7	3.6	0.00e+00	0	48	104	0	60	114695
2026-01-28 17:54:00.54	261.46	71.39	-53.6	-59.3	3.6	0.00e+00	0	48	104	0	60	108844
2026-01-28 17:54:03.56	268.81	70.88	-53.3	-59.1	3.6	0.00e+00	0	48	104	0	60	106507
2026-01-28 17:54:06.57	275.63	70.11	-53.9	-59.1	3.6	0.00e+00	0	48	104	0	60	106929
2026-01-28 17:54:09.59	281.84	69.10	-55.4	-59.5	3.6	0.00e+00	0	48	104	0	60	111632
2026-01-28 17:54:12.61	287.39	67.91	-54.8	-59.3	3.6	0.00e+00	0	48	104	0	60	109212
2026-01-28 17:54:15.62	292.27	66.57	-53.9	-58.9	3.6	0.00e+00	0	48	104	0	60	104473
2026-01-28 17:54:18.64	296.56	65.12	-54.2	-59.2	3.6	0.00e+00	0	48	104	0	60	107503
2026-01-28 17:54:21.66	300.32	63.60	-55.7	-59.9	3.6	0.00e+00	0	48	104	0	60	117116
2026-01-28 17:54:24.68	303.61	62.02	-55.8	-59.9	3.6	0.00e+00	0	48	104	0	60	117213
2026-01-28 17:54:27.71	306.50	60.41	-56.6	-60.2	3.6	0.00e+00	0	48	104	0	60	121304
2026-01-28 17:54:30.73	309.03	58.79	-55.6	-59.8	3.5	0.00e+00	0	48	104	0	60	115546
2026-01-28 17:54:33.75	311.27	57.18	-55.7	-60.1	3.6	0.00e+00	0	48	104	0	60	119220
2026-01-28 17:54:36.76	313.26	55.59	-56.1	-60.0	3.6	0.00e+00	0	48	104	0	60	117775
2026-01-28 17:54:39.79	315.04	54.00	-56.3	-60.1	3.6	0.00e+00	0	48	104	0	60	119131
2026-01-28 17:54:42.81	316.63	52.45	-56.1	-59.8	3.6	0.00e+00	0	49	104	0	60	115609
2026-01-28 17:54:45.83	318.06	50.94	-55.8	-59.9	3.6	0.00e+00	0	49	104	0	60	117444
2026-01-28 17:54:48.85	319.35	49.46	-56.4	-60.3	3.6	0.00e+00	0	49	104	0	60	121787
2026-01-28 17:54:51.86	320.52	48.02	-56.7	-60.2	3.6	0.00e+00	0	48	104	0	60	121525
2026-01-28 17:54:54.88	321.59	46.62	-56.2	-60.0	3.6	0.00e+00	0	48	104	0	60	118296
2026-01-28 17:54:57.90	322.57	45.27	-56.1	-60.0	3.6	0.00e+00	0	49	104	0	60	118581
2026-01-28 17:55:00.92	323.46	43.95	-56.2	-59.9	3.6	0.00e+00	0	48	104	0	60	117506
2026-01-28 17:55:03.93	324.29	42.68	-56.7	-60.3	3.6	0.00e+00	0	48	104	0	60	122366
2026-01-28 17:55:06.95	325.05	41.45	-56.6	-60.4	3.6	0.00e+00	0	49	104	0	60	123778
2026-01-28 17:55:09.96	325.75	40.26	-56.3	-60.1	3.6	0.00e+00	0	48	104	0	60	120306
2026-01-28 17:55:12.97	326.41	39.11	-55.8	-59.7	3.5	0.00e+00	0	49	104	0	60	114552
2026-01-28 17:55:16.00	327.02	38.00	-54.6	-58.2	3.6	0.00e+00	0	48	104	0	60	96044
2026-01-28 17:55:19.02	327.59	36.92	-43.0	-44.1	3.5	0.00e+00	0	48	104	0	60	18883
2026-01-28 17:55:22.03	328.12	35.88	-45.3	-46.5	3.4	0.00e+00	0	48	104	0	60	24972
2026-01-28 17:55:25.04	328.62	34.88	-55.3	-59.6	3.6	0.00e+00	0	48	104	0	60	112352
2026-01-28 17:55:28.06	329.09	33.91	-55.0	-58.2	3.5	0.00e+00	0	48	104	0	60	95851
2026-01-28 17:55:31.07	329.53	32.98	-48.9	-50.4	3.5	0.00e+00	0	48	104	0	60	39014
2026-01-28 17:55:34.09	329.94	32.07	-56.3	-59.6	3.6	0.00e+00	0	48	104	0	60	113264
2026-01-28 17:55:37.11	330.34	31.20	-54.9	-57.7	3.6	0.00e+00	0	48	104	0	60	90597
2026-01-28 17:55:40.13	330.71	30.35	-56.0	-59.7	3.6	0.00e+00	0	48	104	0	60	114875
2026-01-28 17:55:43.15	331.06	29.53	-55.6	-59.6	3.6	0.00e+00	0	48	104	0	60	113048
2026-01-28 17:55:46.17	331.40	28.73	-55.5	-59.3	3.6	0.00e+00	0	48	104	0	60	109095
2026-01-28 17:55:49.19	331.72	27.97	-55.8	-59.7	3.6	0.00e+00	0	48	104	0	60	114299
2026-01-28 17:55:52.22	332.02	27.22	-55.5	-59.6	3.6	0.00e+00	0	48	104	0	60	112845
2026-01-28 17:55:55.24	332.31	26.50	-55.2	-59.1	3.6	0.00e+00	0	49	104	0	60	106980
2026-01-28 17:55:58.25	332.58	25.80	-55.1	-59.2	3.6	0.00e+00	0	49	104	0	60	108078
2026-01-28 17:56:01.26	332.84	25.12	-55.7	-59.5	3.5	0.00e+00	0	49	104	0	60	111477
2026-01-28 17:56:04.29	333.10	24.46	-55.2	-59.1	3.6	0.00e+00	0	49	104	0	60	106852
2026-01-28 17:56:07.31	333.34	23.82	-55.6	-59.5	3.6	0.00e+00	0	49	104	0	60	111147
2026-01-28 17:56:10.33	333.57	23.20	-55.4	-59.6	3.6	0.00e+00	0	49	104	0	60	112415
2026-01-28 17:56:13.36	333.79	22.59	-55.7	-59.6	3.6	0.00e+00	0	49	104	0	60	113213
2026-01-28 17:56:16.38	334.00	22.01	-55.7	-59.6	3.6	0.00e+00	0	48	104	0	60	112891
2026-01-28 17:56:19.40	334.21	21.44	-55.9	-59.5	3.6	0.00e+00	0	49	104	0	60	111907
2026-01-28 17:56:22.42	334.40	20.88	-56.1	-59.8	3.6	0.00e+00	0	49	104	0	60	115261
2026-01-28 17:56:25.44	334.59	20.34	-55.4	-59.2	3.6	0.00e+00	0	49	104	0	60	107912
2026-01-28 17:56:28.46	334.78	19.81	-55.9	-59.6	3.6	0.00e+00	0	48	104	0	60	112868
2026-01-28 17:56:31.48	334.95	19.30	-54.7	-59.3	3.6	0.00e+00	0	48	104	0	60	108554
2026-01-28 17:56:34.50	335.12	18.80	-54.9	-59.4	3.6	0.00e+00	0	48	104	0	60	109944
2026-01-28 17:56:37.52	335.29	18.31	-54.4	-59.2	3.6	0.00e+00	0	48	104	0	60	107323
2026-01-28 17:56:40.54	335.45	17.83	-54.5	-59.2	3.6	0.00e+00	0	49	104	0	60	107414
2026-01-28 17:56:43.57	335.60	17.37	-55.4	-59.3	3.6	0.00e+00	0	49	104	0	60	108761
2026-01-28 17:56:46.59	335.75	16.91	-54.2	-58.6	3.6	0.00e+00	0	48	104	0	60	100568
2026-01-28 17:56:49.60	335.89	16.47	-54.2	-58.5	3.6	0.00e+00	0	49	104	0	60	100111
2026-01-28 17:56:52.62	336.03	16.04	-54.0	-58.5	3.6	0.00e+00	0	49	104	0	60	99341
2026-01-28 17:56:55.64	336.17	15.61	-54.2	-58.5	3.6	0.00e+00	0	49	104	0	60	99794
2026-01-28 17:56:58.66	336.30	15.20	-54.5	-58.6	3.6	0.00e+00	0	49	104	0	60	100684
2026-01-28 17:57:01.68	336.43	14.79	-54.1	-58.1	3.6	0.00e+00	0	49	104	0	60	95062
2026-01-28 17:57:04.70	336.55	14.39	-54.0	-58.0	3.6	0.00e+00	0	49	104	0	60	94469
2026-01-28 17:57:07.72	336.67	14.00	-53.7	-58.0	3.6	0.00e+00	0	48	104	0	60	93780
2026-01-28 17:57:10.73	336.79	13.62	-54.0	-58.1	3.6	0.00e+00	0	48	104	0	60	95287
2026-01-28 17:57:13.75	336.90	13.25	-54.1	-58.1	3.6	0.00e+00	0	48	104	0	60	94752
2026-01-28 17:57:16.77	337.02	12.88	-54.3	-58.2	3.6	0.00e+00	0	48	104	0	60	96067
2026-01-28 17:57:19.78	337.12	12.52	-54.1	-58.0	3.6	0.00e+00	0	48	104	0	60	93818
2026-01-28 17:57:22.81	337.23	12.17	-54.1	-57.9	3.6	0.00e+00	0	48	104	0	60	93254
2026-01-28 17:57:25.82	337.33	11.82	-53.3	-57.5	3.6	0.00e+00	0	48	104	0	60	88404
2026-01-28 17:57:28.85	337.43	11.48	-53.0	-57.4	3.6	0.00e+00	0	48	104	0	60	87682
2026-01-28 17:57:31.87	337.53	11.15	-50.0	-56.1	3.6	0.00e+00	0	49	104	0	60	75157
2026-01-28 17:57:34.89	337.63	10.82	-52.0	-56.9	3.6	0.00e+00	0	48	104	0	60	83136
2026-01-28 17:57:37.91	337.72	10.50	-51.5	-56.7	3.6	0.00e+00	0	48	104	0	60	81054
2026-01-28 17:57:40.93	337.81	10.18	-49.5	-55.6	3.6	0.00e+00	0	48	104	0	60	71614
2026-01-28 17:57:43.94	337.90	9.87	-49.7	-55.8	3.6	0.00e+00	0	49	104	0	60	72650
2026-01-28 17:57:46.96	337.99	9.56	-49.9	-56.0	3.6	0.00e+00	0	48	104	0	60	74631
2026-01-28 17:57:49.98	338.08	9.26	-50.2	-56.2	3.6	0.00e+00	0	49	104	0	60	76725
2026-01-28 17:57:53.00	338.16	8.96	-47.0	-54.1	3.6	0.00e+00	0	49	104	0	60	59978
2026-01-28 17:57:56.03	338.24	8.67	-46.9	-54.2	3.6	0.00e+00	0	48	104	0	60	60976
2026-01-28 17:57:59.04	338.32	8.38	-50.8	-57.0	3.6	0.00e+00	0	49	104	0	60	83329
2026-01-28 17:58:02.06	338.40	8.10	-47.3	-54.6	3.6	0.00e+00	0	48	104	0	60	63297
2026-01-28 17:58:05.07	338.48	7.82	-47.8	-54.7	3.6	0.00e+00	0	48	104	0	60	64149
2026-01-28 17:58:08.10	338.56	7.54	-51.7	-57.2	3.6	0.00e+00	0	48	104	0	60	85588
2026-01-28 17:58:11.11	338.63	7.27	-48.9	-55.8	3.6	0.00e+00	0	48	104	0	60	72855
2026-01-28 17:58:14.13	338.70	7.00	-52.6	-57.2	3.6	0.00e+00	0	48	104	0	60	86021
2026-01-28 17:58:17.14	338.77	6.74	-46.9	-54.3	3.6	0.00e+00	0	48	104	0	60	61347
2026-01-28 17:58:20.17	338.85	6.47	-48.2	-55.3	3.6	0.00e+00	0	48	104	0	60	68559
2026-01-28 17:58:23.19	338.91	6.22	-49.9	-55.9	3.6	0.00e+00	0	49	104	0	60	73548
2026-01-28 17:58:26.21	338.98	5.96	-50.4	-56.3	3.5	0.00e+00	0	48	104	0	60	77553
2026-01-28 17:58:29.22	339.05	5.71	-55.4	-59.5	3.6	0.00e+00	0	48	104	0	60	112096
2026-01-28 17:58:32.25	339.11	5.46	-56.1	-60.1	3.6	0.00e+00	0	49	104	0	60	119527
2026-01-28 17:58:35.27	339.18	5.22	-56.8	-60.6	3.6	0.00e+00	0	49	104	0	60	126164
2026-01-28 17:58:38.30	339.24	4.98	-57.3	-60.8	3.6	0.00e+00	0	49	104	0	60	130002
2026-01-28 17:58:41.32	339.31	4.74	-57.6	-61.4	3.6	0.00e+00	0	48	104	0	60	139625
2026-01-28 17:58:44.34	339.37	4.50	-56.2	-60.6	3.6	0.00e+00	0	49	104	0	60	126254
2026-01-28 17:58:47.36	339.43	4.27	-56.2	-60.5	3.6	0.00e+00	0	48	104	0	60	125897
2026-01-28 17:58:50.37	339.49	4.04	-56.2	-60.5	3.6	0.00e+00	0	48	104	0	60	125200
2026-01-28 17:58:53.39	339.55	3.81	-56.1	-60.5	3.5	0.00e+00	0	48	104	0	60	125235
2026-01-28 17:58:56.41	339.60	3.58	-56.1	-60.4	3.6	0.00e+00	0	48	104	0	60	124133
2026-01-28 17:58:59.43	339.66	3.36	-56.1	-60.4	3.6	0.00e+00	0	48	104	0	60	124375
2026-01-28 17:59:02.45	339.72	3.14	-56.1	-60.4	3.6	0.00e+00	0	48	104	0	60	123911
2026-01-28 17:59:05.46	339.77	2.92	-56.1	-60.4	3.6	0.00e+00	0	48	104	0	60	123828
2026-01-28 17:59:08.48	339.83	2.70	-56.2	-60.4	3.6	0.00e+00	0	48	104	0	60	124029
2026-01-28 17:59:11.50	339.88	2.49	-56.1	-60.5	3.6	0.00e+00	0	48	104	0	60	124680
2026-01-28 17:59:14.52	339.93	2.28	-56.1	-60.4	3.6	0.00e+00	0	49	104	0	60	124184
2026-01-28 17:59:17.54	339.98	2.06	-56.1	-60.4	3.6	0.00e+00	0	49	104	0	60	123256
2026-01-28 17:59:20.55	340.04	1.86	-56.1	-60.3	3.6	0.00e+00	0	48	104	0	60	123108
2026-01-28 17:59:23.57	340.09	1.65	-56.0	-60.4	3.6	0.00e+00	0	48	104	0	60	124071
2026-01-28 17:59:26.59	340.14	1.45	-56.1	-60.3	3.6	0.00e+00	0	49	104	0	60	122927
2026-01-28 17:59:29.61	340.19	1.24	-56.0	-60.3	3.6	0.00e+00	0	49	104	0	60	123091
2026-01-28 17:59:32.63	340.24	1.04	-56.0	-60.4	3.6	0.00e+00	0	49	104	0	60	123685
2026-01-28 17:59:35.65	340.28	0.84	-56.1	-60.4	3.6	0.00e+00	0	48	104	0	60	123464
2026-01-28 17:59:38.66	340.33	0.65	-56.0	-60.3	3.6	0.00e+00	0	49	104	0	60	123095
2026-01-28 17:59:41.69	340.38	0.45	-56.0	-60.3	3.6	0.00e+00	0	49	104	0	60	122788
2026-01-28 17:59:44.71	340.43	0.26	-56.0	-60.4	3.6	0.00e+00	0	48	104	0	60	123227
2026-01-28 17:59:47.73	340.47	0.06	-56.0	-60.4	3.6	0.00e+00	0	48	104	0	60	123682
2026-01-28 17:59:50.75	340.52	-0.13	-56.0	-60.3	3.6	0.00e+00	0	49	104	0	60	123122

#Closed at: 2026-01-28 17:59:51
#Recorded file [0 MB]: D:/Data/35015_260128_205344.dat