passes_logs/2026/01/28/R3.2S-Naryan-Mar/R3.2S-Naryan-Mar__20260128_215738_NOAA_21_JPSS-2_rec.log

#Pass ID: 20260128_215738_NOAA 21 (JPSS-2)
#Satellite: NOAA 21 (JPSS-2)
#Configuration: NOAA-21
#almurnet v.1.7.20240730
#Start time: 2026-01-28 21:57:41

#Version: 2.2.20231116
#Station: R3.2S-Naryan-Mar
#Location: 53.008057 lon 67.646978 lat
#TLE: 1 54234U 22150A   26027.77052245  .00000166  00000+0  99439-4 0  9997
#TLE: 2 54234  98.7510 328.5165 0000872 203.6403 156.4733 14.19540252166628

#Time	Az	El	Level	Level2	SNR	BER	BlckErr	Temp	State	Recorded	gain1	gain2
2026-01-28 21:57:41.92	19.10	0.17	-60.6	-73.8	3.3	1.54e+00	0	45	0	0	60	185336
2026-01-28 21:57:45.94	19.26	0.41	-61.9	-75.9	3.5	1.52e+00	0	45	104	0	60	237332
2026-01-28 21:57:49.97	19.41	0.64	-61.1	-75.4	3.5	1.52e+00	0	45	104	0	60	223508
2026-01-28 21:57:53.99	19.57	0.87	-57.8	-73.6	3.5	1.52e+00	0	45	104	0	60	181393
2026-01-28 21:57:58.02	19.72	1.11	-55.1	-71.7	3.8	1.51e+00	0	45	104	0	60	145752
2026-01-28 21:58:02.06	19.88	1.35	-55.1	-71.6	3.8	1.51e+00	0	46	104	0	60	144711
2026-01-28 21:58:06.09	20.05	1.59	-54.8	-71.1	3.8	1.51e+00	0	45	104	0	60	136579
2026-01-28 21:58:10.10	20.21	1.83	-55.0	-71.4	3.8	1.51e+00	0	45	104	0	60	140563
2026-01-28 21:58:14.11	20.38	2.07	-55.0	-71.2	3.8	1.51e+00	0	46	104	0	60	138552
2026-01-28 21:58:18.13	20.55	2.32	-55.0	-71.4	3.8	1.51e+00	0	46	104	0	60	140828
2026-01-28 21:58:22.16	20.72	2.57	-54.8	-71.0	3.8	1.51e+00	0	46	104	0	60	135339
2026-01-28 21:58:26.18	20.89	2.82	-54.9	-71.2	3.8	1.51e+00	0	46	104	0	60	138218
2026-01-28 21:58:30.20	21.07	3.07	-54.9	-71.6	3.8	1.51e+00	0	46	104	0	60	145274
2026-01-28 21:58:34.23	21.25	3.32	-54.9	-71.0	3.8	1.51e+00	0	46	104	0	60	135116
2026-01-28 21:58:38.25	21.43	3.58	-54.9	-71.1	3.8	1.51e+00	0	46	104	0	60	135987
2026-01-28 21:58:42.28	21.62	3.84	-54.8	-71.0	3.8	1.51e+00	0	46	104	0	60	134317
2026-01-28 21:58:46.30	21.81	4.10	-54.8	-71.1	3.8	1.51e+00	0	46	104	0	60	135921
2026-01-28 21:58:50.32	22.00	4.36	-54.9	-71.2	3.8	1.51e+00	0	46	104	0	60	137402
2026-01-28 21:58:54.35	22.20	4.62	-54.9	-71.6	3.7	1.51e+00	0	46	104	0	60	144940
2026-01-28 21:58:58.37	22.39	4.89	-54.9	-71.1	3.8	1.51e+00	0	46	104	0	60	137005
2026-01-28 21:59:02.40	22.60	5.16	-54.8	-70.9	3.8	1.51e+00	0	46	104	0	60	133967
2026-01-28 21:59:06.43	22.80	5.44	-54.7	-71.1	3.8	1.51e+00	0	46	104	0	60	136695
2026-01-28 21:59:10.46	23.01	5.71	-54.6	-70.9	3.8	1.51e+00	0	46	104	0	60	133300
2026-01-28 21:59:14.49	23.22	5.99	-54.7	-70.9	3.8	1.51e+00	0	46	104	0	60	133906
2026-01-28 21:59:18.51	23.44	6.27	-55.0	-71.4	3.6	1.51e+00	0	46	104	0	60	140653
2026-01-28 21:59:22.54	23.66	6.55	-56.2	-72.6	3.6	1.51e+00	0	46	104	0	60	163224
2026-01-28 21:59:26.58	23.88	6.84	-56.0	-71.8	3.6	1.51e+00	0	46	104	0	60	147616
2026-01-28 21:59:30.61	24.11	7.13	-56.8	-72.3	3.6	1.51e+00	0	46	104	0	60	157193
2026-01-28 21:59:34.62	24.34	7.42	-59.7	-74.3	3.5	1.52e+00	0	46	104	0	60	196400
2026-01-28 21:59:38.65	24.58	7.71	-55.2	-71.5	3.7	1.51e+00	0	46	104	0	60	142487
2026-01-28 21:59:42.67	24.82	8.01	-58.6	-73.2	3.5	1.52e+00	0	46	104	0	60	174017
2026-01-28 21:59:46.70	25.06	8.31	-59.4	-73.8	3.5	1.52e+00	0	46	104	0	60	185929
2026-01-28 21:59:50.72	25.31	8.62	-58.5	-73.4	3.5	1.52e+00	0	46	104	0	60	177947
2026-01-28 21:59:54.74	25.57	8.93	-60.2	-73.5	3.5	1.51e+00	0	46	104	0	60	178982
2026-01-28 21:59:58.78	25.83	9.24	-59.2	-73.2	3.5	1.52e+00	0	46	104	0	60	174188
2026-01-28 22:00:02.81	26.10	9.55	-59.6	-74.2	3.5	1.52e+00	0	46	104	0	60	194268
2026-01-28 22:00:06.83	26.37	9.87	-58.6	-73.3	3.5	1.52e+00	0	46	104	0	60	176875
2026-01-28 22:00:10.85	26.64	10.19	-59.4	-74.0	3.5	1.51e+00	0	46	104	0	60	190126
2026-01-28 22:00:14.88	26.92	10.52	-59.7	-74.2	3.5	1.52e+00	0	47	104	0	60	195853
2026-01-28 22:00:18.90	27.21	10.85	-59.3	-74.1	3.5	1.52e+00	0	47	104	0	60	193596
2026-01-28 22:00:22.93	27.51	11.18	-58.0	-73.7	3.5	1.52e+00	0	47	104	0	60	184493
2026-01-28 22:00:26.95	27.81	11.52	-58.2	-73.0	3.6	1.51e+00	0	46	104	0	60	170389
2026-01-28 22:00:30.97	28.11	11.86	-59.7	-73.8	3.5	1.52e+00	0	47	104	0	60	187132
2026-01-28 22:00:35.01	28.43	12.20	-57.9	-72.2	3.5	1.51e+00	0	47	104	0	60	154608
2026-01-28 22:00:39.02	28.75	12.55	-59.5	-73.9	3.5	1.51e+00	0	47	104	0	60	188272
2026-01-28 22:00:43.05	29.08	12.90	-57.1	-71.8	3.6	1.51e+00	0	47	104	0	60	147174
2026-01-28 22:00:47.08	29.41	13.26	-60.4	-74.5	3.5	1.52e+00	0	46	104	0	60	201147
2026-01-28 22:00:51.11	29.76	13.63	-56.6	-72.0	3.6	1.51e+00	0	47	104	0	60	150840
2026-01-28 22:00:55.12	30.11	13.99	-60.1	-74.3	3.5	1.52e+00	0	47	104	0	60	198322
2026-01-28 22:00:59.14	30.46	14.36	-59.9	-73.1	3.5	1.51e+00	0	47	104	0	60	172437
2026-01-28 22:01:03.16	30.83	14.74	-57.7	-73.2	3.6	1.51e+00	0	46	104	0	60	173307
2026-01-28 22:01:07.19	31.21	15.12	-59.4	-73.3	3.5	1.52e+00	0	47	104	0	60	175024
2026-01-28 22:01:11.22	31.60	15.51	-58.7	-74.5	3.5	1.52e+00	0	47	104	0	60	203097
2026-01-28 22:01:15.24	31.99	15.90	-58.2	-72.9	3.5	1.52e+00	0	47	104	0	60	167157
2026-01-28 22:01:19.26	32.40	16.29	-58.6	-73.7	3.5	1.52e+00	0	47	104	0	60	183966
2026-01-28 22:01:23.29	32.82	16.70	-58.7	-74.0	3.5	1.52e+00	0	47	104	0	60	190151
2026-01-28 22:01:27.31	33.24	17.10	-56.2	-72.9	3.6	1.51e+00	0	47	104	0	60	168813
2026-01-28 22:01:31.34	33.68	17.52	-58.0	-73.3	3.6	1.51e+00	0	47	104	0	60	175154
2026-01-28 22:01:35.35	34.13	17.93	-56.8	-73.0	3.6	1.51e+00	0	47	104	0	60	170205
2026-01-28 22:01:39.39	34.60	18.36	-57.1	-72.0	3.6	1.51e+00	0	47	104	0	60	151159
2026-01-28 22:01:43.41	35.07	18.78	-58.5	-72.7	3.6	1.51e+00	0	47	104	0	60	164463
2026-01-28 22:01:47.43	35.56	19.22	-52.3	-70.6	4.0	1.50e+00	0	47	104	0	60	129364
2026-01-28 22:01:51.45	36.06	19.66	-53.9	-71.8	3.7	1.51e+00	0	47	104	0	60	148336
2026-01-28 22:01:55.48	36.58	20.10	-59.5	-73.6	3.5	1.52e+00	0	47	104	0	60	182236
2026-01-28 22:01:59.50	37.11	20.56	-55.2	-73.0	3.6	1.52e+00	0	47	104	0	60	170050
2026-01-28 22:02:03.51	37.65	21.01	-54.0	-71.8	3.8	1.51e+00	0	47	104	0	60	147205
2026-01-28 22:02:07.54	38.22	21.48	-57.5	-73.9	3.6	1.51e+00	0	47	104	0	60	188034
2026-01-28 22:02:11.57	38.80	21.95	-58.7	-73.8	3.5	1.52e+00	0	47	104	0	60	186880
2026-01-28 22:02:15.60	39.39	22.42	-58.5	-74.0	3.5	1.52e+00	0	47	104	0	60	190224
2026-01-28 22:02:19.62	40.01	22.90	-55.5	-72.0	3.6	1.51e+00	0	46	104	0	60	151869
2026-01-28 22:02:23.63	40.64	23.39	-54.5	-71.9	3.7	1.52e+00	0	47	104	0	60	150319
2026-01-28 22:02:27.67	41.29	23.88	-56.5	-72.8	3.6	1.51e+00	0	47	104	0	60	165255
2026-01-28 22:02:31.70	41.97	24.38	-60.4	-74.0	3.5	1.52e+00	0	47	104	0	60	190489
2026-01-28 22:02:35.72	42.66	24.88	-60.0	-74.1	3.5	1.51e+00	0	47	104	0	60	192698
2026-01-28 22:02:39.75	43.38	25.39	-57.9	-73.0	3.5	1.51e+00	0	47	104	0	60	169093
2026-01-28 22:02:43.77	44.12	25.91	-60.2	-73.9	3.5	1.51e+00	0	47	104	0	60	188525
2026-01-28 22:02:47.80	44.88	26.43	-58.0	-74.2	3.5	1.52e+00	0	47	104	0	60	196084
2026-01-28 22:02:51.82	45.67	26.95	-58.0	-73.4	3.6	1.51e+00	0	47	104	0	60	178040
2026-01-28 22:02:55.84	46.48	27.48	-56.4	-72.5	3.7	1.51e+00	0	47	104	0	60	159751
2026-01-28 22:02:59.88	47.32	28.01	-60.5	-74.9	3.5	1.52e+00	0	47	104	0	60	210631
2026-01-28 22:03:03.91	48.19	28.55	-55.4	-72.0	3.7	1.52e+00	0	47	104	0	60	152202
2026-01-28 22:03:07.93	49.09	29.09	-59.3	-73.8	3.5	1.51e+00	0	47	104	0	60	186942
2026-01-28 22:03:11.96	50.02	29.63	-59.9	-73.5	3.5	1.52e+00	0	47	104	0	60	179862
2026-01-28 22:03:15.98	50.97	30.18	-55.6	-72.5	3.7	1.51e+00	0	47	104	0	60	159695
2026-01-28 22:03:20.01	51.97	30.72	-57.5	-73.0	3.6	1.51e+00	0	47	104	0	60	170547
2026-01-28 22:03:24.05	52.99	31.27	-60.5	-74.9	3.5	1.52e+00	0	47	104	0	60	211568
2026-01-28 22:03:28.07	54.05	31.82	-61.1	-74.5	3.5	1.52e+00	0	47	104	0	60	202678
2026-01-28 22:03:32.09	55.14	32.36	-59.9	-74.1	3.5	1.51e+00	0	47	104	0	60	193200
2026-01-28 22:03:36.11	56.27	32.91	-61.4	-74.9	3.5	1.52e+00	0	47	104	0	60	210475
2026-01-28 22:03:40.13	57.44	33.45	-61.2	-74.8	3.5	1.52e+00	0	47	104	0	60	209267
2026-01-28 22:03:44.16	58.65	33.99	-62.0	-75.5	3.5	1.52e+00	0	47	104	0	60	226202
2026-01-28 22:03:48.16	59.89	34.52	-62.2	-75.8	3.5	1.52e+00	0	47	104	0	60	235650
2026-01-28 22:03:52.19	61.18	35.05	-61.0	-75.7	3.5	1.52e+00	0	47	104	0	60	232036
2026-01-28 22:03:56.21	62.51	35.57	-62.4	-76.3	3.5	1.52e+00	0	47	104	0	60	248848
2026-01-28 22:04:00.24	63.88	36.08	-62.5	-76.4	3.5	1.52e+00	0	47	104	0	60	251001
2026-01-28 22:04:04.25	65.29	36.58	-62.2	-76.1	3.5	1.52e+00	0	47	104	0	60	241476
2026-01-28 22:04:08.28	66.75	37.07	-62.6	-76.1	3.5	1.52e+00	0	47	104	0	60	241766
2026-01-28 22:04:12.31	68.25	37.54	-61.5	-75.9	3.5	1.52e+00	0	47	104	0	60	238308
2026-01-28 22:04:16.32	69.79	38.00	-61.2	-75.8	3.5	1.52e+00	0	47	104	0	60	234804
2026-01-28 22:04:20.33	71.37	38.44	-62.4	-75.8	3.5	1.52e+00	0	47	104	0	60	234708
2026-01-28 22:04:24.36	73.00	38.86	-62.5	-75.9	3.5	1.51e+00	0	47	104	0	60	236704
2026-01-28 22:04:28.39	74.67	39.26	-61.7	-75.9	3.5	1.52e+00	0	47	104	0	60	238609
2026-01-28 22:04:32.42	76.39	39.64	-61.9	-76.0	3.5	1.52e+00	0	47	104	0	60	239339
2026-01-28 22:04:36.44	78.13	39.99	-62.0	-76.1	3.5	1.52e+00	0	47	104	0	60	243756
2026-01-28 22:04:40.46	79.92	40.32	-61.8	-75.7	3.5	1.52e+00	0	47	104	0	60	233096
2026-01-28 22:04:44.49	81.74	40.62	-61.8	-76.1	3.5	1.52e+00	0	47	104	0	60	244081
2026-01-28 22:04:48.52	83.59	40.89	-61.9	-76.0	3.5	1.51e+00	0	47	104	0	60	239774
2026-01-28 22:04:52.53	85.47	41.12	-62.9	-76.9	3.5	1.51e+00	0	47	104	0	60	266819
2026-01-28 22:04:56.56	87.38	41.33	-62.5	-77.0	3.5	1.52e+00	0	47	104	0	60	270649
2026-01-28 22:05:00.59	89.31	41.50	-61.9	-76.5	3.5	1.51e+00	0	47	104	0	60	253654
2026-01-28 22:05:04.61	91.25	41.63	-61.9	-76.3	3.5	1.52e+00	0	47	104	0	60	248950
2026-01-28 22:05:08.63	93.21	41.73	-62.3	-76.6	3.5	1.52e+00	0	47	104	0	60	256568
2026-01-28 22:05:12.66	95.18	41.79	-61.0	-76.3	3.5	1.52e+00	0	47	104	0	60	248356
2026-01-28 22:05:16.68	97.16	41.81	-61.9	-76.4	3.5	1.51e+00	0	47	104	0	60	250276
2026-01-28 22:05:20.70	99.13	41.80	-62.1	-76.7	3.5	1.52e+00	0	47	104	0	60	259303
2026-01-28 22:05:24.72	101.10	41.75	-61.4	-76.4	3.5	1.52e+00	0	47	104	0	60	252631
2026-01-28 22:05:28.74	103.06	41.66	-60.4	-75.6	3.6	1.52e+00	0	47	104	0	60	228605
2026-01-28 22:05:32.78	105.02	41.54	-61.9	-76.0	3.5	1.51e+00	0	47	104	0	60	239971
2026-01-28 22:05:36.79	106.95	41.38	-61.9	-76.1	3.5	1.52e+00	0	47	104	0	60	243549
2026-01-28 22:05:40.82	108.87	41.19	-62.0	-76.3	3.5	1.51e+00	0	47	104	0	60	247506
2026-01-28 22:05:44.85	110.76	40.96	-61.8	-76.2	3.5	1.52e+00	0	47	104	0	60	246519
2026-01-28 22:05:48.88	112.63	40.70	-61.7	-76.3	3.5	1.52e+00	0	47	104	0	60	249823
2026-01-28 22:05:52.91	114.47	40.41	-60.6	-75.6	3.5	1.52e+00	0	47	104	0	60	228299
2026-01-28 22:05:56.93	116.26	40.09	-60.9	-75.9	3.5	1.52e+00	0	47	104	0	60	237925
2026-01-28 22:06:00.95	118.02	39.74	-60.7	-75.9	3.5	1.52e+00	0	47	104	0	60	237961
2026-01-28 22:06:04.99	119.75	39.37	-60.0	-75.6	3.5	1.51e+00	0	47	104	0	60	228135
2026-01-28 22:06:09.01	121.44	38.97	-60.4	-75.9	3.5	1.52e+00	0	47	104	0	60	238183
2026-01-28 22:06:13.03	123.08	38.56	-60.7	-75.9	3.5	1.51e+00	0	47	104	0	60	237492
2026-01-28 22:06:17.05	124.68	38.12	-61.3	-75.9	3.5	1.52e+00	0	47	104	0	60	236528
2026-01-28 22:06:21.08	126.24	37.66	-61.4	-75.9	3.5	1.52e+00	0	47	104	0	60	236131
2026-01-28 22:06:25.11	127.76	37.19	-61.2	-75.5	3.5	1.52e+00	0	47	104	0	60	227696
2026-01-28 22:06:29.14	129.24	36.70	-60.9	-75.5	3.5	1.52e+00	0	47	104	0	60	227577
2026-01-28 22:06:33.16	130.66	36.20	-61.1	-75.6	3.5	1.51e+00	0	47	104	0	60	230360
2026-01-28 22:06:37.18	132.05	35.69	-61.4	-75.7	3.5	1.51e+00	0	47	104	0	60	230991
2026-01-28 22:06:41.22	133.40	35.17	-61.6	-75.7	3.5	1.52e+00	0	47	104	0	60	232920
2026-01-28 22:06:45.25	134.70	34.64	-61.5	-75.6	3.5	1.52e+00	0	47	104	0	60	230131
2026-01-28 22:06:49.26	135.96	34.11	-61.6	-75.6	3.5	1.51e+00	0	47	104	0	60	230520
2026-01-28 22:06:53.29	137.19	33.57	-61.4	-75.5	3.5	1.52e+00	0	47	104	0	60	227590
2026-01-28 22:06:57.32	138.37	33.02	-61.5	-75.6	3.5	1.52e+00	0	47	104	0	60	228843
2026-01-28 22:07:01.35	139.52	32.48	-61.5	-75.1	3.5	1.52e+00	0	47	104	0	60	215969
2026-01-28 22:07:05.37	140.62	31.93	-61.6	-75.5	3.5	1.52e+00	0	47	104	0	60	227471
2026-01-28 22:07:09.39	141.69	31.38	-61.6	-75.0	3.5	1.52e+00	0	47	104	0	60	214199
2026-01-28 22:07:13.41	142.73	30.83	-61.5	-75.4	3.5	1.52e+00	0	47	104	0	60	225204
2026-01-28 22:07:17.44	143.73	30.28	-61.4	-75.1	3.5	1.52e+00	0	47	104	0	60	216945
2026-01-28 22:07:21.46	144.70	29.73	-61.4	-75.3	3.5	1.52e+00	0	47	104	0	60	221143
2026-01-28 22:07:25.49	145.64	29.18	-61.4	-74.9	3.5	1.52e+00	0	47	104	0	60	210371
2026-01-28 22:07:29.52	146.55	28.64	-61.4	-74.9	3.5	1.51e+00	0	47	104	0	60	211581
2026-01-28 22:07:33.55	147.42	28.10	-61.3	-75.0	3.5	1.52e+00	0	47	104	0	60	212888
2026-01-28 22:07:37.57	148.27	27.56	-61.3	-74.6	3.5	1.52e+00	0	47	104	0	60	205138
2026-01-28 22:07:41.60	149.10	27.03	-61.3	-75.2	3.5	1.52e+00	0	47	104	0	60	218873
2026-01-28 22:07:45.63	149.89	26.50	-61.1	-74.7	3.5	1.52e+00	0	47	104	0	60	207007
2026-01-28 22:07:49.66	150.66	25.98	-61.0	-74.7	3.5	1.52e+00	0	47	104	0	60	206643
2026-01-28 22:07:53.67	151.41	25.46	-61.0	-74.4	3.5	1.51e+00	0	47	104	0	60	200442
2026-01-28 22:07:57.68	152.13	24.95	-61.1	-75.0	3.5	1.52e+00	0	47	104	0	60	213565
2026-01-28 22:08:01.71	152.83	24.44	-61.0	-74.5	3.5	1.52e+00	0	47	104	0	60	201008
2026-01-28 22:08:05.74	153.51	23.94	-61.0	-74.7	3.5	1.52e+00	0	47	104	0	60	207552
2026-01-28 22:08:09.77	154.17	23.44	-60.9	-74.4	3.5	1.51e+00	0	47	104	0	60	199391
2026-01-28 22:08:13.79	154.81	22.95	-60.9	-74.7	3.5	1.51e+00	0	47	104	0	60	206556
2026-01-28 22:08:17.82	155.43	22.46	-60.8	-74.6	3.5	1.51e+00	0	47	104	0	60	204117
2026-01-28 22:08:21.85	156.03	21.98	-60.8	-74.7	3.5	1.52e+00	0	47	104	0	60	206718
2026-01-28 22:08:25.88	156.62	21.51	-60.7	-74.7	3.5	1.52e+00	0	47	104	0	60	206671
2026-01-28 22:08:29.90	157.18	21.04	-60.7	-74.6	3.5	1.52e+00	0	47	104	0	60	205245
2026-01-28 22:08:33.93	157.73	20.58	-60.6	-74.6	3.5	1.52e+00	0	47	104	0	60	203553
2026-01-28 22:08:37.95	158.27	20.12	-60.6	-74.6	3.5	1.52e+00	0	47	104	0	60	203236
2026-01-28 22:08:41.97	158.79	19.67	-60.5	-74.4	3.5	1.52e+00	0	47	104	0	60	200376
2026-01-28 22:08:45.99	159.29	19.23	-60.3	-74.4	3.5	1.52e+00	0	47	104	0	60	198526
2026-01-28 22:08:50.02	159.79	18.79	-60.3	-74.3	3.5	1.52e+00	0	47	104	0	60	197312
2026-01-28 22:08:54.05	160.26	18.36	-60.2	-74.3	3.5	1.52e+00	0	47	104	0	60	196418
2026-01-28 22:08:58.08	160.73	17.93	-60.1	-74.2	3.5	1.52e+00	0	47	104	0	60	195836
2026-01-28 22:09:02.11	161.18	17.51	-59.9	-74.2	3.5	1.52e+00	0	47	104	0	60	195213
2026-01-28 22:09:06.13	161.62	17.09	-60.1	-74.2	3.5	1.52e+00	0	47	104	0	60	194554
2026-01-28 22:09:10.16	162.06	16.68	-60.0	-74.0	3.5	1.52e+00	0	47	104	0	60	190749
2026-01-28 22:09:14.19	162.47	16.28	-59.8	-73.9	3.5	1.52e+00	0	47	104	0	60	188285
2026-01-28 22:09:18.21	162.88	15.88	-59.6	-73.8	3.5	1.52e+00	0	47	104	0	60	186494
2026-01-28 22:09:22.23	163.28	15.48	-59.4	-73.7	3.5	1.52e+00	0	47	104	0	60	185062
2026-01-28 22:09:26.26	163.67	15.09	-59.2	-73.8	3.5	1.52e+00	0	47	104	0	60	186775
2026-01-28 22:09:30.29	164.05	14.71	-59.2	-73.7	3.5	1.52e+00	0	47	104	0	60	184722
2026-01-28 22:09:34.31	164.42	14.33	-59.4	-73.7	3.5	1.52e+00	0	47	104	0	60	184778
2026-01-28 22:09:38.32	164.78	13.95	-59.5	-73.6	3.5	1.52e+00	0	47	104	0	60	182539
2026-01-28 22:09:42.35	165.13	13.58	-59.4	-73.5	3.5	1.52e+00	0	47	104	0	60	180368
2026-01-28 22:09:46.38	165.47	13.22	-59.3	-73.5	3.5	1.52e+00	0	47	104	0	60	179294
2026-01-28 22:09:50.40	165.81	12.86	-59.1	-73.3	3.5	1.52e+00	0	47	104	0	60	176520
2026-01-28 22:09:54.42	166.14	12.50	-58.9	-73.3	3.5	1.51e+00	0	47	104	0	60	175034
2026-01-28 22:09:58.46	166.46	12.15	-58.7	-73.1	3.6	1.52e+00	0	47	104	0	60	171222
2026-01-28 22:10:02.49	166.77	11.80	-58.3	-72.4	3.5	1.52e+00	0	47	104	0	60	159288
2026-01-28 22:10:06.52	167.08	11.46	-58.2	-72.4	3.5	1.52e+00	0	47	104	0	60	159440
2026-01-28 22:10:10.55	167.38	11.12	-58.1	-72.6	3.5	1.52e+00	0	47	104	0	60	161868
2026-01-28 22:10:14.57	167.67	10.78	-57.8	-72.6	3.5	1.51e+00	0	47	104	0	60	162838
2026-01-28 22:10:18.60	167.96	10.45	-58.1	-72.6	3.5	1.52e+00	0	47	104	0	60	161459
2026-01-28 22:10:22.62	168.24	10.12	-58.2	-72.6	3.6	1.52e+00	0	47	104	0	60	162239
2026-01-28 22:10:26.65	168.52	9.80	-57.5	-72.5	3.5	1.52e+00	0	47	104	0	60	161158
2026-01-28 22:10:30.67	168.79	9.48	-57.2	-72.5	3.5	1.52e+00	0	47	104	0	60	160874
2026-01-28 22:10:34.70	169.05	9.16	-57.4	-72.4	3.5	1.52e+00	0	47	104	0	60	159106
2026-01-28 22:10:38.72	169.31	8.85	-57.5	-72.3	3.5	1.52e+00	0	47	104	0	60	157565
2026-01-28 22:10:42.74	169.56	8.54	-57.1	-71.8	3.5	1.51e+00	0	47	104	0	60	147179
2026-01-28 22:10:46.75	169.81	8.23	-57.2	-71.5	3.5	1.52e+00	0	47	104	0	60	142594
2026-01-28 22:10:50.78	170.06	7.93	-55.8	-70.8	3.5	1.51e+00	0	47	104	0	60	131254
2026-01-28 22:10:54.80	170.30	7.63	-54.4	-69.6	3.6	1.51e+00	0	47	104	0	60	114453
2026-01-28 22:10:58.82	170.53	7.33	-48.7	-66.4	3.9	1.51e+00	0	47	104	0	60	79731
2026-01-28 22:11:02.84	170.76	7.04	-44.7	-65.5	4.3	1.50e+00	0	47	104	0	60	71471
2026-01-28 22:11:06.87	170.99	6.75	-43.4	-64.1	4.4	1.49e+00	0	47	104	0	60	61046
2026-01-28 22:11:10.89	171.21	6.46	-53.5	-69.4	3.6	1.51e+00	0	47	104	0	60	112235
2026-01-28 22:11:14.92	171.43	6.17	-45.5	-65.1	4.3	1.51e+00	0	47	104	0	60	68646
2026-01-28 22:11:18.94	171.64	5.89	-58.2	-72.4	3.5	1.52e+00	0	47	104	0	60	157706
2026-01-28 22:11:22.97	171.85	5.61	-61.0	-74.9	3.5	1.52e+00	0	47	104	0	60	211767
2026-01-28 22:11:26.99	172.06	5.33	-61.9	-76.0	3.5	1.52e+00	0	47	104	0	60	239749
2026-01-28 22:11:31.01	172.26	5.06	-62.4	-76.5	3.5	1.52e+00	0	47	104	0	60	253776
2026-01-28 22:11:35.05	172.46	4.79	-59.8	-75.9	3.6	1.51e+00	0	47	104	0	60	237737
2026-01-28 22:11:39.07	172.66	4.52	-61.1	-76.3	3.5	1.52e+00	0	47	104	0	60	247312
2026-01-28 22:11:43.10	172.85	4.25	-61.2	-76.3	3.5	1.52e+00	0	47	104	0	60	247969
2026-01-28 22:11:47.13	173.04	3.99	-61.1	-76.2	3.5	1.52e+00	0	47	104	0	60	244360
2026-01-28 22:11:51.14	173.23	3.72	-61.1	-76.2	3.5	1.52e+00	0	47	104	0	60	246436
2026-01-28 22:11:55.18	173.41	3.46	-61.0	-76.1	3.5	1.52e+00	0	47	104	0	60	243255
2026-01-28 22:11:59.20	173.59	3.21	-60.9	-76.1	3.5	1.51e+00	0	47	104	0	60	242115
2026-01-28 22:12:03.23	173.77	2.95	-60.8	-76.0	3.5	1.51e+00	0	47	104	0	60	241019
2026-01-28 22:12:07.25	173.94	2.70	-60.7	-75.8	3.5	1.51e+00	0	47	104	0	60	234612
2026-01-28 22:12:11.28	174.12	2.44	-60.8	-76.0	3.5	1.51e+00	0	47	104	0	60	241368
2026-01-28 22:12:15.29	174.28	2.20	-60.7	-76.1	3.5	1.51e+00	0	47	104	0	60	241508
2026-01-28 22:12:19.32	174.45	1.95	-60.7	-75.9	3.5	1.52e+00	0	47	104	0	60	236375
2026-01-28 22:12:23.34	174.62	1.70	-60.7	-75.9	3.5	1.52e+00	0	47	104	0	60	237999
2026-01-28 22:12:27.37	174.78	1.46	-60.6	-75.8	3.5	1.52e+00	0	47	104	0	60	233688
2026-01-28 22:12:31.40	174.94	1.22	-60.6	-75.9	3.5	1.52e+00	0	47	104	0	60	236013
2026-01-28 22:12:35.43	175.09	0.98	-60.6	-75.9	3.5	1.52e+00	0	47	104	0	60	237408
2026-01-28 22:12:39.46	175.25	0.74	-60.7	-75.9	3.5	1.52e+00	0	47	104	0	60	237271
2026-01-28 22:12:43.49	175.40	0.50	-60.6	-75.9	3.5	1.51e+00	0	47	104	0	60	237347
2026-01-28 22:12:47.52	175.55	0.27	-60.6	-75.8	3.5	1.52e+00	0	47	104	0	60	234761
2026-01-28 22:12:51.54	175.70	0.04	-60.5	-75.8	3.5	1.52e+00	0	47	104	0	60	235330

#Closed at: 2026-01-28 22:12:53
#Recorded file [0 MB]: D:/Data/35015_260129_011117.dat