passes_logs/2026/01/28/R3.2S-Naryan-Mar/R3.2S-Naryan-Mar__20260128_084308_SUOMI_NPP_rec.log

#Pass ID: 20260128_084308_SUOMI NPP
#Satellite: SUOMI NPP
#Configuration: NPP
#almurnet v.1.7.20240730
#Start time: 2026-01-28 08:43:11

#Version: 2.2.20231116
#Station: R3.2S-Naryan-Mar
#Location: 53.008057 lon 67.646978 lat
#TLE: 1 37849U 11061A   26027.86188320  .00000172  00000+0  10275-3 0  9990
#TLE: 2 37849  98.7823 329.8005 0002088  41.4184 318.7150 14.19530883738530

#Time	Az	El	Level	Level2	SNR	BER	BlckErr	Temp	State	Recorded	gain1	gain2
2026-01-28 08:43:11.22	161.36	0.17	-56.4	-59.8	3.4	0.00e+00	0	45	0	0	60	115813
2026-01-28 08:43:15.25	161.41	0.41	-62.3	-79.2	3.6	1.51e+00	0	47	104	0	60	357986
2026-01-28 08:43:19.27	161.46	0.66	-61.5	-78.3	3.6	1.51e+00	0	47	104	0	60	321317
2026-01-28 08:43:23.30	161.51	0.90	-59.8	-76.5	3.6	1.51e+00	0	47	104	0	60	261994
2026-01-28 08:43:27.32	161.56	1.15	-57.3	-74.8	3.6	1.51e+00	0	47	104	0	60	215929
2026-01-28 08:43:31.35	161.61	1.41	-57.2	-74.5	3.6	1.51e+00	0	47	104	0	60	207783
2026-01-28 08:43:35.39	161.66	1.66	-57.1	-74.4	3.6	1.51e+00	0	47	104	0	60	206438
2026-01-28 08:43:39.41	161.71	1.91	-56.8	-74.5	3.6	1.51e+00	0	47	104	0	60	207065
2026-01-28 08:43:43.44	161.77	2.17	-56.9	-74.2	3.6	1.51e+00	0	47	104	0	60	201522
2026-01-28 08:43:47.45	161.82	2.43	-56.8	-74.1	3.6	1.51e+00	0	47	104	0	60	198935
2026-01-28 08:43:51.48	161.87	2.70	-56.7	-74.1	3.6	1.51e+00	0	47	104	0	60	198181
2026-01-28 08:43:55.51	161.93	2.96	-56.6	-74.1	3.6	1.51e+00	0	47	104	0	60	198894
2026-01-28 08:43:59.53	161.98	3.23	-56.7	-73.9	3.6	1.51e+00	0	47	104	0	60	195223
2026-01-28 08:44:03.55	162.04	3.50	-56.7	-73.8	3.6	1.51e+00	0	47	104	0	60	192959
2026-01-28 08:44:07.58	162.10	3.77	-56.6	-74.0	3.6	1.51e+00	0	47	104	0	60	195258
2026-01-28 08:44:11.60	162.16	4.05	-56.6	-73.4	3.6	1.51e+00	0	47	104	0	60	183505
2026-01-28 08:44:15.63	162.22	4.33	-56.4	-73.4	3.6	1.51e+00	0	47	104	0	60	183284
2026-01-28 08:44:19.66	162.28	4.61	-56.4	-68.8	4.1	1.40e+00	0	47	0	0	60	107758
2026-01-28 08:44:23.70	162.34	4.89	-55.5	-62.5	10.0	1.63e-02	0	47	0	7340032	60	52261
2026-01-28 08:44:27.73	162.40	5.18	-54.6	-59.1	13.7	4.81e-04	0	47	0	14680064	60	35456
2026-01-28 08:44:31.76	162.46	5.47	-54.1	-58.3	14.6	5.18e-05	0	47	0	23068672	60	32075
2026-01-28 08:44:35.79	162.53	5.77	-54.7	-60.0	12.7	9.35e-04	0	47	0	30408704	60	39382
2026-01-28 08:44:39.81	162.59	6.06	-56.3	-72.3	3.6	5.26e-01	0	47	104	37748736	60	162041
2026-01-28 08:44:43.84	162.66	6.37	-53.9	-58.0	13.0	3.73e-01	0	47	0	37748736	60	31159
2026-01-28 08:44:47.86	162.73	6.67	-53.0	-57.6	15.0	4.10e-04	0	47	0	7340032	60	29591
2026-01-28 08:44:51.88	162.79	6.98	-53.5	-57.3	15.6	1.01e-04	0	47	0	14680064	60	28671
2026-01-28 08:44:55.91	162.86	7.29	-53.2	-56.6	16.2	1.56e-04	0	47	0	22020096	60	26465
2026-01-28 08:44:59.94	162.93	7.60	-52.9	-56.3	16.6	9.82e-04	0	47	0	30408704	60	25524
2026-01-28 08:45:03.94	163.01	7.92	-53.4	-56.4	16.5	3.42e-04	0	47	0	37748736	60	25954
2026-01-28 08:45:07.96	163.08	8.24	-52.7	-56.0	16.9	2.19e-04	0	47	0	45088768	60	24719
2026-01-28 08:45:11.98	163.15	8.57	-53.0	-55.6	17.4	4.27e-04	0	47	0	52428800	60	23589
2026-01-28 08:45:16.00	163.23	8.90	-52.7	-55.2	17.9	2.61e-04	0	47	0	59768832	60	22436
2026-01-28 08:45:20.02	163.31	9.24	-52.7	-55.1	18.0	1.22e-05	0	47	0	67108864	60	22181
2026-01-28 08:45:24.04	163.38	9.58	-52.8	-54.9	18.2	3.42e-04	0	47	0	75497472	60	21870
2026-01-28 08:45:28.05	163.46	9.92	-52.6	-54.7	18.4	5.74e-04	0	47	0	82837504	60	21376
2026-01-28 08:45:32.07	163.55	10.27	-52.4	-54.6	18.6	3.43e-05	0	47	0	90177536	60	20991
2026-01-28 08:45:36.09	163.63	10.63	-52.1	-54.4	18.8	1.02e-03	0	47	0	97517568	60	20623
2026-01-28 08:45:40.11	163.72	10.99	-51.7	-54.1	19.0	1.02e-03	0	47	0	104857600	60	19933
2026-01-28 08:45:44.14	163.80	11.36	-52.1	-54.0	19.0	0.00e+00	0	47	0	113246208	60	19724
2026-01-28 08:45:48.16	163.89	11.73	-52.0	-53.9	19.4	8.46e-05	0	47	0	120586240	60	19450
2026-01-28 08:45:52.19	163.98	12.10	-51.8	-53.5	19.7	7.00e-07	0	47	0	127926272	60	18511
2026-01-28 08:45:56.21	164.08	12.49	-51.7	-53.4	19.9	0.00e+00	0	47	0	135266304	60	18357
2026-01-28 08:46:00.23	164.17	12.88	-51.7	-53.4	20.0	0.00e+00	0	47	0	142606336	60	18244
2026-01-28 08:46:04.25	164.27	13.27	-51.4	-53.1	20.2	0.00e+00	0	47	0	149946368	60	17703
2026-01-28 08:46:08.27	164.37	13.67	-51.3	-53.0	20.4	0.00e+00	0	47	0	158334976	60	17425
2026-01-28 08:46:12.29	164.47	14.08	-51.2	-52.8	20.5	0.00e+00	0	47	0	165675008	60	17161
2026-01-28 08:46:16.32	164.57	14.50	-51.3	-53.0	20.3	0.00e+00	0	46	0	173015040	60	17409
2026-01-28 08:46:20.34	164.68	14.92	-51.1	-52.6	20.7	0.00e+00	0	46	0	180355072	60	16700
2026-01-28 08:46:24.35	164.79	15.35	-50.9	-52.4	20.9	0.00e+00	0	46	0	187695104	60	16283
2026-01-28 08:46:28.38	164.90	15.78	-51.1	-52.5	20.9	0.00e+00	0	47	0	196083712	60	16514
2026-01-28 08:46:32.40	165.02	16.23	-51.2	-52.6	20.9	0.00e+00	0	47	0	203423744	60	16695
2026-01-28 08:46:36.41	165.14	16.68	-51.1	-52.5	21.1	0.00e+00	0	47	0	210763776	60	16454
2026-01-28 08:46:40.43	165.26	17.14	-51.3	-52.7	20.9	0.00e+00	0	47	0	218103808	60	16908
2026-01-28 08:46:44.46	165.38	17.61	-51.4	-52.8	20.7	0.00e+00	0	46	0	225443840	60	17168
2026-01-28 08:46:48.49	165.51	18.10	-51.4	-52.9	20.7	0.00e+00	0	47	0	233832448	60	17331
2026-01-28 08:46:52.51	165.64	18.58	-51.6	-53.2	20.4	0.00e+00	0	47	0	241172480	60	17854
2026-01-28 08:46:56.55	165.78	19.09	-51.9	-53.4	20.3	0.00e+00	0	47	0	248512512	60	18413
2026-01-28 08:47:00.57	165.92	19.59	-52.2	-53.8	20.0	0.00e+00	0	46	0	255852544	60	19300
2026-01-28 08:47:04.59	166.06	20.11	-52.4	-54.1	19.7	0.00e+00	0	47	0	263192576	60	19884
2026-01-28 08:47:08.59	166.21	20.64	-52.9	-54.7	19.3	0.00e+00	0	46	0	270532608	60	21251
2026-01-28 08:47:12.62	166.36	21.18	-53.0	-54.9	19.3	0.00e+00	0	47	0	278921216	60	21718
2026-01-28 08:47:16.63	166.52	21.74	-53.0	-54.8	19.3	0.00e+00	0	46	0	286261248	60	21533
2026-01-28 08:47:20.65	166.69	22.30	-53.0	-54.8	19.6	0.00e+00	0	46	0	293601280	60	21417
2026-01-28 08:47:24.65	166.85	22.88	-53.1	-54.9	19.2	0.00e+00	0	47	0	300941312	60	21883
2026-01-28 08:47:28.66	167.03	23.47	-53.1	-54.9	19.4	0.00e+00	0	46	0	308281344	60	21866
2026-01-28 08:47:32.69	167.21	24.07	-53.2	-55.1	19.4	0.00e+00	0	46	0	316669952	60	22257
2026-01-28 08:47:36.71	167.40	24.69	-53.1	-54.8	19.5	0.00e+00	0	46	0	324009984	60	21648
2026-01-28 08:47:40.72	167.59	25.32	-53.0	-54.7	19.8	0.00e+00	0	46	0	331350016	60	21322
2026-01-28 08:47:44.73	167.79	25.97	-53.0	-54.6	19.8	0.00e+00	0	46	0	338690048	60	21118
2026-01-28 08:47:48.75	168.00	26.63	-53.1	-54.9	19.7	0.00e+00	0	46	0	346030080	60	21730
2026-01-28 08:47:52.77	168.22	27.31	-53.1	-54.8	19.8	0.00e+00	0	46	0	354418688	60	21463
2026-01-28 08:47:56.79	168.45	28.01	-52.9	-54.5	20.1	0.00e+00	0	46	0	361758720	60	20741
2026-01-28 08:48:00.81	168.69	28.73	-53.4	-55.2	19.5	0.00e+00	0	46	0	369098752	60	22561
2026-01-28 08:48:04.83	168.93	29.46	-54.3	-56.4	18.6	0.00e+00	0	47	0	376438784	60	25758
2026-01-28 08:48:08.85	169.19	30.21	-54.5	-56.6	18.5	0.00e+00	0	46	0	383778816	60	26582
2026-01-28 08:48:12.87	169.46	30.98	-55.0	-57.4	17.9	0.00e+00	0	46	0	391118848	60	28940
2026-01-28 08:48:16.88	169.74	31.77	-55.2	-57.6	17.6	0.00e+00	0	46	0	399507456	60	29598
2026-01-28 08:48:20.91	170.04	32.59	-55.1	-57.4	17.8	0.00e+00	0	46	0	406847488	60	28903
2026-01-28 08:48:24.94	170.35	33.43	-55.2	-57.4	17.9	0.00e+00	0	46	0	414187520	60	29002
2026-01-28 08:48:28.96	170.68	34.28	-54.7	-56.7	18.6	0.00e+00	0	46	0	421527552	60	26810
2026-01-28 08:48:32.98	171.02	35.16	-54.6	-56.6	19.1	0.00e+00	0	46	0	428867584	60	26509
2026-01-28 08:48:37.00	171.38	36.07	-54.7	-56.6	18.8	0.00e+00	0	46	0	437256192	60	26510
2026-01-28 08:48:41.01	171.76	37.00	-55.5	-57.8	17.9	0.00e+00	0	46	0	444596224	60	30257
2026-01-28 08:48:45.03	172.16	37.95	-55.2	-57.4	18.2	0.00e+00	0	46	0	451936256	60	28960
2026-01-28 08:48:49.05	172.59	38.93	-55.0	-57.1	18.7	0.00e+00	0	46	0	459276288	60	27998
2026-01-28 08:48:53.07	173.04	39.94	-54.6	-56.5	19.2	0.00e+00	0	46	0	466616320	60	26165
2026-01-28 08:48:57.07	173.52	40.97	-55.7	-58.2	17.5	0.00e+00	0	46	0	473956352	60	31705
2026-01-28 08:49:01.09	174.03	42.04	-56.3	-59.0	17.3	0.00e+00	0	46	0	482344960	60	34772
2026-01-28 08:49:05.11	174.58	43.13	-54.8	-56.7	19.1	0.00e+00	0	46	0	489684992	60	26765
2026-01-28 08:49:09.13	175.16	44.25	-54.9	-56.9	18.9	0.00e+00	0	46	0	497025024	60	27360
2026-01-28 08:49:13.15	175.79	45.41	-56.0	-58.5	17.4	0.00e+00	0	46	0	504365056	60	33123
2026-01-28 08:49:17.15	176.46	46.58	-56.0	-58.5	17.9	0.00e+00	0	46	0	511705088	60	32828
2026-01-28 08:49:21.15	177.18	47.79	-56.0	-58.5	17.6	0.00e+00	0	46	0	520093696	60	32861
2026-01-28 08:49:25.16	177.96	49.03	-55.3	-57.5	18.5	0.00e+00	0	46	0	527433728	60	29318
2026-01-28 08:49:29.16	178.80	50.29	-53.9	-55.5	20.6	0.00e+00	0	46	0	534773760	60	23376
2026-01-28 08:49:33.18	179.72	51.60	-53.5	-55.0	21.0	0.00e+00	0	46	0	542113792	60	22059
2026-01-28 08:49:37.18	180.72	52.92	-52.0	-53.2	22.5	0.00e+00	0	46	0	549453824	60	17858
2026-01-28 08:49:41.19	181.82	54.27	-51.5	-52.6	22.8	0.00e+00	0	46	0	556793856	60	16807
2026-01-28 08:49:45.19	183.01	55.64	-50.9	-51.9	23.3	0.00e+00	0	47	0	565182464	60	15493
2026-01-28 08:49:49.20	184.34	57.04	-51.1	-52.1	23.1	0.00e+00	0	46	0	572522496	60	15843
2026-01-28 08:49:53.20	185.80	58.46	-50.6	-51.6	23.4	0.00e+00	0	46	0	579862528	60	14965
2026-01-28 08:49:57.20	187.43	59.89	-52.8	-54.2	21.5	0.00e+00	0	46	0	587202560	60	20001
2026-01-28 08:50:01.21	189.25	61.33	-51.3	-52.4	22.8	0.00e+00	0	46	0	594542592	60	16295
2026-01-28 08:50:05.22	191.29	62.78	-51.3	-52.4	22.8	0.00e+00	0	46	0	601882624	60	16418
2026-01-28 08:50:09.22	193.59	64.21	-51.2	-52.3	23.0	0.00e+00	0	46	0	609222656	60	16217
2026-01-28 08:50:13.22	196.19	65.64	-51.9	-53.1	22.3	0.00e+00	0	46	0	617611264	60	17696
2026-01-28 08:50:17.22	199.14	67.04	-52.1	-53.3	22.3	0.00e+00	0	46	0	624951296	60	18142
2026-01-28 08:50:21.21	202.50	68.40	-54.9	-56.8	19.3	0.00e+00	0	46	0	632291328	60	27208
2026-01-28 08:50:25.21	206.34	69.70	-54.2	-56.0	20.3	0.00e+00	0	46	0	639631360	60	24612
2026-01-28 08:50:29.20	210.71	70.92	-55.6	-58.1	17.7	0.00e+00	0	46	0	646971392	60	31435
2026-01-28 08:50:33.19	215.69	72.03	-53.6	-55.3	20.6	0.00e+00	0	46	0	654311424	60	22859
2026-01-28 08:50:37.19	221.34	73.02	-53.4	-55.2	20.7	0.00e+00	0	46	0	661651456	60	22629
2026-01-28 08:50:41.18	227.63	73.83	-53.2	-55.2	20.5	0.00e+00	0	47	0	670040064	60	22605
2026-01-28 08:50:45.18	234.54	74.44	-51.5	-53.2	21.8	0.00e+00	0	46	0	677380096	60	17987
2026-01-28 08:50:49.17	241.91	74.82	-53.2	-56.5	18.6	0.00e+00	0	47	0	684720128	60	26099
2026-01-28 08:50:53.19	249.60	74.95	-51.6	-54.4	20.1	0.00e+00	0	47	0	692060160	60	20639
2026-01-28 08:50:57.20	257.26	74.83	-51.5	-54.8	19.2	0.00e+00	0	47	0	699400192	60	21454
2026-01-28 08:51:01.20	264.65	74.45	-51.7	-55.6	18.2	0.00e+00	0	47	0	706740224	60	23501
2026-01-28 08:51:05.23	271.62	73.83	-52.5	-56.4	17.9	0.00e+00	0	47	0	715128832	60	25897
2026-01-28 08:51:09.26	277.96	73.01	-53.7	-56.8	18.5	0.00e+00	0	47	0	722468864	60	27078
2026-01-28 08:51:13.29	283.64	72.02	-53.6	-56.3	18.8	0.00e+00	0	47	0	729808896	60	25734
2026-01-28 08:51:17.31	288.65	70.90	-53.8	-58.9	15.8	0.00e+00	0	47	0	737148928	60	34455
2026-01-28 08:51:21.33	293.04	69.67	-50.5	-55.0	13.2	0.00e+00	0	46	0	744488960	60	22058
2026-01-28 08:51:25.36	296.89	68.36	-53.4	-58.9	15.4	0.00e+00	0	46	0	752877568	60	34383
2026-01-28 08:51:29.39	300.26	66.99	-53.6	-58.0	16.8	0.00e+00	0	46	0	760217600	60	31130
2026-01-28 08:51:33.41	303.20	65.58	-51.1	-52.7	21.9	0.00e+00	0	47	0	767557632	60	16940
2026-01-28 08:51:37.43	305.79	64.15	-51.0	-52.6	22.1	0.00e+00	0	46	0	774897664	60	16799
2026-01-28 08:51:41.45	308.08	62.71	-50.0	-51.1	23.4	0.00e+00	0	46	0	782237696	60	14091
2026-01-28 08:51:45.48	310.12	61.26	-51.6	-53.5	21.3	0.00e+00	0	47	0	790626304	60	18585
2026-01-28 08:51:49.49	311.93	59.82	-49.9	-51.4	22.3	0.00e+00	0	47	0	797966336	60	14578
2026-01-28 08:51:53.52	313.55	58.38	-51.3	-53.3	21.3	0.00e+00	0	46	0	805306368	60	18031
2026-01-28 08:51:57.55	315.01	56.96	-51.4	-53.0	21.4	0.00e+00	0	46	0	812646400	60	17551
2026-01-28 08:52:01.58	316.34	55.56	-50.5	-51.7	23.3	0.00e+00	0	47	0	819986432	60	15016
2026-01-28 08:52:05.60	317.53	54.19	-52.1	-54.1	20.9	0.00e+00	0	47	0	828375040	60	19933
2026-01-28 08:52:09.61	318.62	52.84	-51.0	-52.3	22.2	0.00e+00	0	47	0	835715072	60	16167
2026-01-28 08:52:13.63	319.61	51.52	-51.5	-53.3	21.2	0.00e+00	0	47	0	843055104	60	18176
2026-01-28 08:52:17.67	320.53	50.22	-52.4	-54.1	20.9	0.00e+00	0	47	0	850395136	60	19761
2026-01-28 08:52:21.69	321.37	48.96	-54.3	-56.6	19.0	0.00e+00	0	46	0	857735168	60	26453
2026-01-28 08:52:25.71	322.15	47.72	-53.5	-55.3	20.0	0.00e+00	0	46	0	865075200	60	22743
2026-01-28 08:52:29.74	322.87	46.51	-55.9	-59.8	16.1	0.00e+00	0	47	0	873463808	60	38238
2026-01-28 08:52:33.77	323.53	45.34	-53.0	-55.2	19.4	0.00e+00	0	47	0	880803840	60	22614
2026-01-28 08:52:37.79	324.16	44.19	-55.2	-59.1	15.7	0.00e+00	0	46	0	888143872	60	35318
2026-01-28 08:52:41.81	324.73	43.08	-53.8	-55.8	19.4	0.00e+00	0	46	0	895483904	60	24049
2026-01-28 08:52:45.83	325.28	41.99	-52.5	-53.9	21.5	0.00e+00	0	47	0	902823936	60	19345
2026-01-28 08:52:49.86	325.79	40.93	-54.7	-56.9	18.9	0.00e+00	0	46	0	911212544	60	27314
2026-01-28 08:52:53.89	326.27	39.90	-52.3	-53.8	21.2	0.00e+00	0	47	0	918552576	60	19218
2026-01-28 08:52:57.90	326.71	38.90	-52.5	-54.4	20.7	0.00e+00	0	46	0	925892608	60	20452
2026-01-28 08:53:01.93	327.14	37.92	-53.8	-57.0	18.8	0.00e+00	0	47	0	933232640	60	27660
2026-01-28 08:53:05.96	327.54	36.97	-52.1	-53.7	21.7	0.00e+00	0	46	0	941621248	60	18982
2026-01-28 08:53:09.98	327.92	36.05	-52.8	-54.4	21.0	0.00e+00	0	47	0	948961280	60	20608
2026-01-28 08:53:14.00	328.28	35.15	-53.8	-55.7	19.8	0.00e+00	0	46	0	956301312	60	23917
2026-01-28 08:53:18.03	328.62	34.27	-55.6	-59.8	16.1	0.00e+00	0	47	0	963641344	60	38405
2026-01-28 08:53:22.06	328.95	33.42	-55.1	-58.5	17.5	0.00e+00	0	47	0	970981376	60	33042
2026-01-28 08:53:26.08	329.26	32.59	-54.3	-56.1	19.7	0.00e+00	0	47	0	978321408	60	25013
2026-01-28 08:53:30.10	329.55	31.78	-54.5	-56.5	19.2	0.00e+00	0	47	0	986710016	60	26090
2026-01-28 08:53:34.12	329.84	30.99	-55.2	-57.3	18.4	0.00e+00	0	46	0	994050048	60	28718
2026-01-28 08:53:38.15	330.11	30.22	-54.8	-56.9	18.8	0.00e+00	0	47	0	1001390080	60	27514
2026-01-28 08:53:42.17	330.36	29.48	-54.4	-56.6	19.1	0.00e+00	0	46	0	1008730112	60	26497
2026-01-28 08:53:46.17	330.61	28.75	-53.9	-56.3	19.1	0.00e+00	0	46	0	1016070144	60	25724
2026-01-28 08:53:50.19	330.85	28.04	-53.2	-55.4	19.9	0.00e+00	0	47	0	1024458752	60	23181
2026-01-28 08:53:54.21	331.07	27.35	-53.3	-54.9	20.6	0.00e+00	0	47	0	1031798784	60	21721
2026-01-28 08:53:58.23	331.29	26.67	-52.9	-54.4	20.9	0.00e+00	0	46	0	1039138816	60	20655
2026-01-28 08:54:02.24	331.50	26.02	-53.7	-55.5	19.9	0.00e+00	0	46	0	1046478848	60	23317
2026-01-28 08:54:06.26	331.70	25.37	-54.1	-56.1	19.5	0.00e+00	0	46	0	1053818880	60	24904
2026-01-28 08:54:10.28	331.90	24.74	-53.5	-55.6	19.9	0.00e+00	0	46	0	1062207488	60	23557
2026-01-28 08:54:14.30	332.09	24.13	-52.8	-54.3	21.0	0.00e+00	0	46	0	1069547520	60	20400
2026-01-28 08:54:18.31	332.27	23.53	-52.3	-53.8	21.0	0.00e+00	0	46	0	1076887552	60	19141
2026-01-28 08:54:22.33	332.45	22.94	-52.3	-53.8	20.9	0.00e+00	0	46	0	1084227584	60	19203
2026-01-28 08:54:26.35	332.62	22.36	-52.4	-53.9	21.3	0.00e+00	0	46	0	1091567616	60	19365
2026-01-28 08:54:30.38	332.78	21.80	-52.4	-54.4	20.7	0.00e+00	0	46	0	1098907648	60	20545
2026-01-28 08:54:34.39	332.94	21.25	-52.8	-54.8	20.4	0.00e+00	0	47	0	1107296256	60	21487
2026-01-28 08:54:38.41	333.09	20.71	-52.4	-54.0	21.0	0.00e+00	0	47	0	1114636288	60	19607
2026-01-28 08:54:42.43	333.24	20.19	-51.6	-53.0	21.7	0.00e+00	0	46	0	1121976320	60	17452
2026-01-28 08:54:46.46	333.39	19.67	-51.2	-52.4	22.4	0.00e+00	0	46	0	1129316352	60	16393
2026-01-28 08:54:50.48	333.53	19.16	-51.1	-52.4	22.3	0.00e+00	0	46	0	1136656384	60	16345
2026-01-28 08:54:54.51	333.67	18.67	-50.8	-52.8	21.9	0.00e+00	0	46	0	1145044992	60	17024
2026-01-28 08:54:58.54	333.80	18.18	-51.2	-53.4	21.6	0.00e+00	0	46	0	1152385024	60	18329
2026-01-28 08:55:02.55	333.93	17.70	-52.3	-54.3	20.7	0.00e+00	0	46	0	1159725056	60	20375
2026-01-28 08:55:06.57	334.06	17.23	-52.9	-54.7	19.9	0.00e+00	0	46	0	1167065088	60	21314
2026-01-28 08:55:10.58	334.18	16.78	-53.5	-55.4	19.0	0.00e+00	0	46	0	1174405120	60	23113
2026-01-28 08:55:14.61	334.30	16.32	-53.4	-56.2	17.9	0.00e+00	0	46	0	1182793728	60	25336
2026-01-28 08:55:18.64	334.42	15.88	-53.4	-56.8	17.3	0.00e+00	0	46	0	1190133760	60	27107
2026-01-28 08:55:22.67	334.53	15.44	-53.6	-57.2	16.9	0.00e+00	0	46	0	1197473792	60	28367
2026-01-28 08:55:26.69	334.64	15.02	-54.0	-57.4	16.6	0.00e+00	0	46	0	1204813824	60	29013
2026-01-28 08:55:30.70	334.75	14.60	-55.0	-58.5	15.4	0.00e+00	0	46	0	1212153856	60	33059
2026-01-28 08:55:34.73	334.86	14.18	-55.4	-59.3	14.6	0.00e+00	0	46	0	1219493888	60	36169
2026-01-28 08:55:38.76	334.96	13.78	-55.6	-60.6	12.5	5.41e-05	0	46	0	1227882496	60	42061
2026-01-28 08:55:42.78	335.06	13.38	-55.0	-61.9	10.7	2.21e-03	0	46	0	1235222528	60	48698
2026-01-28 08:55:46.80	335.16	12.98	-55.1	-62.9	9.2	1.49e-02	0	46	0	1242562560	60	54610
2026-01-28 08:55:50.81	335.26	12.60	-54.8	-63.7	7.8	7.13e-02	0	46	0	1249902592	60	59836
2026-01-28 08:55:54.84	335.36	12.22	-54.2	-64.2	6.8	1.59e-01	0	46	0	1258291200	60	63474
2026-01-28 08:55:58.87	335.45	11.84	-53.1	-64.8	5.9	3.28e-01	0	46	0	1265631232	60	68176
2026-01-28 08:56:02.88	335.54	11.47	-53.0	-65.8	5.2	4.40e-01	0	47	0	1272971264	60	76723
2026-01-28 08:56:06.90	335.63	11.11	-53.6	-66.6	5.0	5.55e-01	0	46	0	1280311296	60	84087
2026-01-28 08:56:10.92	335.72	10.75	-53.3	-67.3	4.3	8.83e-01	0	47	0	1287651328	60	90377
2026-01-28 08:56:14.95	335.80	10.40	-50.4	-68.6	3.8	1.49e+00	0	46	104	1289748480	60	105442
2026-01-28 08:56:18.96	335.89	10.05	-49.5	-70.3	3.6	1.51e+00	0	46	104	1289748480	60	128650
2026-01-28 08:56:22.98	335.97	9.70	-52.7	-70.0	3.6	1.51e+00	0	46	104	1289748480	60	124431
2026-01-28 08:56:27.01	336.05	9.36	-55.5	-73.8	3.6	1.51e+00	0	47	104	1289748480	60	191865
2026-01-28 08:56:31.04	336.13	9.03	-48.3	-69.2	3.6	1.51e+00	0	47	104	1289748480	60	112748
2026-01-28 08:56:35.05	336.21	8.70	-49.6	-70.7	3.6	1.51e+00	0	46	104	1289748480	60	134498
2026-01-28 08:56:39.07	336.29	8.37	-48.6	-71.4	3.6	1.51e+00	0	46	104	1289748480	60	145979
2026-01-28 08:56:43.09	336.36	8.05	-52.9	-72.2	3.6	1.51e+00	0	46	104	1289748480	60	160490
2026-01-28 08:56:47.11	336.44	7.73	-52.6	-72.6	3.6	1.51e+00	0	46	104	1289748480	60	166201
2026-01-28 08:56:51.12	336.51	7.42	-54.7	-72.6	3.6	1.51e+00	0	47	104	1289748480	60	167131
2026-01-28 08:56:55.14	336.58	7.11	-51.8	-71.7	3.6	1.51e+00	0	47	104	1289748480	60	151106
2026-01-28 08:56:59.16	336.65	6.80	-51.9	-71.1	3.6	1.51e+00	0	47	104	1289748480	60	141139
2026-01-28 08:57:03.17	336.72	6.50	-52.2	-71.4	3.6	1.51e+00	0	47	104	1289748480	60	146098
2026-01-28 08:57:07.19	336.79	6.20	-54.9	-73.4	3.6	1.51e+00	0	47	104	1289748480	60	182753
2026-01-28 08:57:11.20	336.86	5.91	-57.1	-74.8	3.6	1.51e+00	0	46	104	1289748480	60	215067
2026-01-28 08:57:15.22	336.93	5.62	-59.9	-76.9	3.6	1.51e+00	0	46	104	1289748480	60	274764
2026-01-28 08:57:19.25	336.99	5.33	-60.1	-77.3	3.6	1.51e+00	0	46	104	1289748480	60	286503
2026-01-28 08:57:23.28	337.06	5.04	-59.4	-77.3	3.6	1.51e+00	0	46	104	1289748480	60	287118
2026-01-28 08:57:27.30	337.12	4.76	-55.9	-76.1	3.6	1.51e+00	0	47	104	1289748480	60	250966
2026-01-28 08:57:31.33	337.19	4.48	-58.3	-77.5	3.6	1.51e+00	0	47	104	1289748480	60	294646
2026-01-28 08:57:35.36	337.25	4.20	-58.4	-77.6	3.6	1.51e+00	0	46	104	1289748480	60	295758
2026-01-28 08:57:39.39	337.31	3.92	-58.2	-77.4	3.6	1.51e+00	0	46	104	1289748480	60	290819
2026-01-28 08:57:43.41	337.37	3.65	-57.8	-77.4	3.6	1.51e+00	0	47	104	1289748480	60	289444
2026-01-28 08:57:47.43	337.43	3.38	-57.7	-77.0	3.6	1.51e+00	0	47	104	1289748480	60	276447
2026-01-28 08:57:51.46	337.49	3.11	-57.7	-77.2	3.6	1.51e+00	0	47	104	1289748480	60	282389
2026-01-28 08:57:55.49	337.55	2.85	-57.6	-76.8	3.6	1.51e+00	0	46	104	1289748480	60	272358
2026-01-28 08:57:59.51	337.61	2.59	-57.8	-77.2	3.6	1.51e+00	0	47	104	1289748480	60	284140
2026-01-28 08:58:03.52	337.66	2.33	-57.6	-77.0	3.6	1.51e+00	0	47	104	1289748480	60	278347
2026-01-28 08:58:07.55	337.72	2.07	-57.7	-77.1	3.6	1.51e+00	0	47	104	1289748480	60	282110
2026-01-28 08:58:11.57	337.78	1.82	-57.9	-77.1	3.6	1.51e+00	0	47	104	1289748480	60	280459
2026-01-28 08:58:15.58	337.83	1.57	-57.8	-77.1	3.6	1.51e+00	0	47	104	1289748480	60	281041
2026-01-28 08:58:19.60	337.89	1.32	-57.7	-77.2	3.5	1.51e+00	0	47	104	1289748480	60	285278
2026-01-28 08:58:23.62	337.94	1.07	-57.6	-77.1	3.6	1.51e+00	0	47	104	1289748480	60	279940
2026-01-28 08:58:27.63	337.99	0.82	-57.6	-77.0	3.6	1.51e+00	0	47	104	1289748480	60	277953
2026-01-28 08:58:31.66	338.05	0.58	-57.5	-76.9	3.6	1.51e+00	0	46	104	1289748480	60	273492
2026-01-28 08:58:35.68	338.10	0.34	-57.4	-77.2	3.6	1.51e+00	0	47	104	1289748480	60	283312
2026-01-28 08:58:39.70	338.15	0.10	-57.5	-76.8	3.6	1.51e+00	0	47	104	1289748480	60	271094
2026-01-28 08:58:43.72	338.20	-0.14	-57.4	-76.8	3.6	1.51e+00	0	46	104	1289748480	60	270315

#Closed at: 2026-01-28 08:58:43
#Recorded file [1289 MB]: D:/Data/35015_260128_115656.dat