passes_logs/2026/01/28/R3.2S-Naryan-Mar/R3.2S-Naryan-Mar__20260128_120712_AQUA_rec.log

#Pass ID: 20260128_120712_AQUA
#Satellite: AQUA
#Configuration: AQUA
#almurnet v.1.7.20240730
#Start time: 2026-01-28 12:07:14

#Version: 2.2.20231116
#Station: R3.2S-Naryan-Mar
#Location: 53.008057 lon 67.646978 lat
#TLE: 1 27424U 02022A   26027.63960626  .00001831  00000+0  37607-3 0  9998
#TLE: 2 27424  98.4102 354.2809 0001844  63.7090 108.5242 14.61867354262735

#Time	Az	El	Level	Level2	SNR	BER	BlckErr	Temp	State	Recorded	gain1	gain2
2026-01-28 12:07:14.32	206.71	0.07	-59.1	-74.6	3.5	1.52e+00	0	44	0	0	60	205325
2026-01-28 12:07:18.35	206.98	0.30	-57.0	-77.3	3.5	3.04e+01	0	45	104	0	60	277596
2026-01-28 12:07:22.38	207.26	0.52	-57.9	-77.6	3.5	3.04e+01	0	45	104	0	60	287302
2026-01-28 12:07:26.41	207.54	0.74	-56.5	-77.0	3.5	3.04e+01	0	45	104	0	60	269641
2026-01-28 12:07:30.44	207.82	0.97	-55.2	-75.4	3.5	3.04e+01	0	45	104	0	60	224084
2026-01-28 12:07:34.47	208.11	1.19	-54.6	-75.0	3.5	3.04e+01	0	45	104	0	60	213325
2026-01-28 12:07:38.50	208.41	1.42	-54.6	-74.8	3.5	3.04e+01	0	45	104	0	60	209942
2026-01-28 12:07:42.52	208.71	1.65	-54.6	-74.8	3.5	3.04e+01	0	45	104	0	60	209838
2026-01-28 12:07:46.55	209.01	1.88	-54.5	-74.9	3.5	3.04e+01	0	45	104	0	60	210311
2026-01-28 12:07:50.58	209.32	2.12	-54.5	-74.7	3.5	3.04e+01	0	45	104	0	60	207024
2026-01-28 12:07:54.61	209.64	2.35	-54.5	-74.9	3.5	3.04e+01	0	45	104	0	60	211159
2026-01-28 12:07:58.64	209.96	2.59	-54.4	-74.8	3.5	3.04e+01	0	46	104	0	60	207895
2026-01-28 12:08:02.66	210.28	2.82	-54.4	-74.7	3.5	3.04e+01	0	46	104	0	60	207458
2026-01-28 12:08:06.69	210.61	3.06	-54.4	-74.6	3.5	3.04e+01	0	46	104	0	60	205220
2026-01-28 12:08:10.71	210.95	3.30	-54.4	-74.6	3.5	3.04e+01	0	46	104	0	60	204503
2026-01-28 12:08:14.71	211.29	3.54	-54.3	-74.6	3.5	3.04e+01	0	46	104	0	60	203390
2026-01-28 12:08:18.74	211.64	3.78	-54.3	-74.6	3.5	3.04e+01	0	45	104	0	60	203493
2026-01-28 12:08:22.78	211.99	4.03	-54.3	-74.5	3.5	3.04e+01	0	46	104	0	60	201667
2026-01-28 12:08:26.80	212.35	4.28	-54.3	-74.5	3.5	3.04e+01	0	46	104	0	60	202174
2026-01-28 12:08:30.82	212.72	4.52	-54.3	-74.3	3.5	3.04e+01	0	46	104	0	60	197220
2026-01-28 12:08:34.85	213.09	4.77	-54.2	-74.2	3.5	3.04e+01	0	45	104	0	60	195299
2026-01-28 12:08:38.88	213.47	5.02	-54.2	-74.1	3.5	3.04e+01	0	46	104	0	60	193964
2026-01-28 12:08:42.90	213.86	5.28	-54.1	-70.1	4.6	3.04e+01	0	46	104	0	60	122047
2026-01-28 12:08:46.93	214.25	5.53	-53.7	-63.0	10.5	3.04e+01	0	46	0	3145728	60	54027
2026-01-28 12:08:50.96	214.65	5.79	-50.5	-53.8	20.3	3.04e+01	0	46	0	10485760	60	18572
2026-01-28 12:08:54.99	215.06	6.05	-50.3	-53.5	20.5	3.04e+01	0	46	0	18350080	60	17969
2026-01-28 12:08:59.02	215.48	6.31	-53.2	-59.2	14.9	3.04e+01	0	46	0	25690112	60	34780
2026-01-28 12:09:03.04	215.90	6.57	-51.0	-54.4	20.0	3.04e+01	0	46	0	33030144	60	20049
2026-01-28 12:09:07.07	216.34	6.83	-50.0	-52.7	21.6	3.04e+01	0	46	0	40894464	60	16470
2026-01-28 12:09:11.10	216.78	7.10	-49.0	-51.3	23.2	3.04e+01	0	46	0	48234496	60	13924
2026-01-28 12:09:15.13	217.23	7.37	-48.9	-51.2	23.1	3.04e+01	0	46	0	55574528	60	13818
2026-01-28 12:09:19.16	217.68	7.64	-48.7	-51.0	22.9	3.04e+01	0	46	0	63438848	60	13569
2026-01-28 12:09:23.17	218.15	7.90	-48.8	-51.2	22.7	3.04e+01	0	46	0	70778880	60	13768
2026-01-28 12:09:27.20	218.63	8.18	-48.7	-51.1	23.0	3.04e+01	0	46	0	78643200	60	13587
2026-01-28 12:09:31.23	219.11	8.45	-48.7	-50.9	23.4	3.04e+01	0	46	0	85983232	60	13349
2026-01-28 12:09:35.26	219.61	8.73	-48.8	-50.9	23.5	3.04e+01	0	46	0	93847552	60	13376
2026-01-28 12:09:39.28	220.11	9.00	-48.8	-51.0	23.3	3.04e+01	0	46	0	101187584	60	13571
2026-01-28 12:09:43.31	220.63	9.28	-48.3	-50.7	22.8	3.04e+01	0	46	0	108527616	60	13112
2026-01-28 12:09:47.34	221.15	9.56	-47.7	-50.8	21.7	3.04e+01	0	46	0	116391936	60	13179
2026-01-28 12:09:51.37	221.69	9.85	-47.4	-50.9	20.9	3.04e+01	0	46	0	123731968	60	13396
2026-01-28 12:09:55.38	222.23	10.13	-47.7	-50.9	21.4	3.04e+01	0	46	0	131596288	60	13390
2026-01-28 12:09:59.40	222.79	10.41	-47.9	-50.7	22.5	3.04e+01	0	46	0	138936320	60	13107
2026-01-28 12:10:03.43	223.36	10.70	-48.4	-50.8	23.3	3.04e+01	0	46	0	146276352	60	13177
2026-01-28 12:10:07.45	223.94	10.99	-48.8	-50.8	24.2	3.04e+01	0	46	0	154140672	60	13224
2026-01-28 12:10:11.46	224.53	11.27	-48.6	-50.7	24.1	3.04e+01	0	46	0	161480704	60	13054
2026-01-28 12:10:15.49	225.14	11.56	-48.7	-50.9	23.9	3.04e+01	0	46	0	168820736	60	13293
2026-01-28 12:10:19.51	225.76	11.85	-48.7	-50.8	24.3	3.04e+01	0	46	0	176685056	60	13198
2026-01-28 12:10:23.54	226.39	12.15	-48.6	-50.8	24.2	3.04e+01	0	46	0	184025088	60	13198
2026-01-28 12:10:27.56	227.03	12.44	-48.6	-50.7	24.3	3.04e+01	0	46	0	191889408	60	12968
2026-01-28 12:10:31.58	227.69	12.73	-48.5	-50.5	24.3	3.04e+01	0	46	0	199229440	60	12803
2026-01-28 12:10:35.61	228.36	13.03	-48.5	-50.5	24.6	3.04e+01	0	46	0	206569472	60	12749
2026-01-28 12:10:39.64	229.05	13.32	-48.4	-50.4	24.6	3.04e+01	0	46	0	214433792	60	12659
2026-01-28 12:10:43.66	229.75	13.62	-48.5	-50.4	24.6	3.04e+01	0	46	0	221773824	60	12616
2026-01-28 12:10:47.69	230.46	13.91	-48.6	-50.4	25.0	3.04e+01	0	46	0	229638144	60	12634
2026-01-28 12:10:51.72	231.19	14.21	-48.7	-50.6	24.7	3.04e+01	0	46	0	236978176	60	12895
2026-01-28 12:10:55.75	231.94	14.50	-48.6	-50.7	24.8	3.04e+01	0	46	0	244842496	60	12990
2026-01-28 12:10:59.76	232.70	14.80	-48.6	-50.5	24.9	3.04e+01	0	46	0	252182528	60	12718
2026-01-28 12:11:03.78	233.47	15.09	-48.3	-50.2	25.1	3.04e+01	0	46	0	259522560	60	12324
2026-01-28 12:11:07.80	234.26	15.38	-48.6	-50.4	25.0	3.04e+01	0	46	0	266862592	60	12655
2026-01-28 12:11:11.82	235.07	15.67	-48.6	-50.4	25.1	3.04e+01	0	46	0	274726912	60	12567
2026-01-28 12:11:15.84	235.89	15.96	-48.6	-50.4	25.2	3.04e+01	0	46	0	282066944	60	12606
2026-01-28 12:11:19.86	236.73	16.25	-48.5	-50.3	25.2	3.04e+01	0	46	0	289931264	60	12388
2026-01-28 12:11:23.88	237.59	16.54	-48.2	-50.0	25.1	3.04e+01	0	46	0	297271296	60	12099
2026-01-28 12:11:27.91	238.47	16.83	-48.1	-50.1	24.9	3.04e+01	0	46	0	304611328	60	12109
2026-01-28 12:11:31.93	239.36	17.11	-48.3	-50.1	25.1	3.04e+01	0	46	0	312475648	60	12224
2026-01-28 12:11:35.95	240.27	17.39	-48.3	-50.1	25.1	3.04e+01	0	46	0	319815680	60	12160
2026-01-28 12:11:39.98	241.19	17.66	-48.2	-50.0	25.0	3.04e+01	0	46	0	327680000	60	12072
2026-01-28 12:11:44.01	242.14	17.94	-48.2	-50.1	24.7	3.04e+01	0	46	0	335020032	60	12219
2026-01-28 12:11:48.04	243.10	18.20	-48.0	-50.0	24.6	3.04e+01	0	46	0	342884352	60	12061
2026-01-28 12:11:52.06	244.08	18.47	-48.2	-50.2	24.5	3.04e+01	0	46	0	350224384	60	12347
2026-01-28 12:11:56.09	245.08	18.73	-48.8	-59.4	3.5	3.04e+01	0	46	104	350748672	60	35493
2026-01-28 12:12:00.12	246.09	18.98	-51.5	-63.3	3.6	3.04e+01	0	46	104	350748672	60	55467
2026-01-28 12:12:04.15	247.13	19.23	-55.2	-75.3	3.5	3.04e+01	0	46	104	350748672	60	220712
2026-01-28 12:12:08.17	248.18	19.47	-53.4	-67.3	3.8	3.04e+01	0	46	104	350748672	60	87990
2026-01-28 12:12:12.20	249.24	19.71	-52.6	-64.3	3.9	3.04e+01	0	46	104	350748672	60	62269
2026-01-28 12:12:16.23	250.33	19.93	-54.9	-69.4	3.5	3.04e+01	0	46	104	350748672	60	112498
2026-01-28 12:12:20.26	251.43	20.15	-56.1	-74.8	3.5	3.04e+01	0	46	104	350748672	60	208393
2026-01-28 12:12:24.27	252.54	20.36	-53.2	-66.5	3.5	3.04e+01	0	46	104	350748672	60	80260
2026-01-28 12:12:28.29	253.67	20.57	-53.3	-72.9	3.6	3.04e+01	0	46	104	350748672	60	167455
2026-01-28 12:12:32.32	254.81	20.76	-52.7	-67.3	3.5	3.04e+01	0	46	104	350748672	60	87716
2026-01-28 12:12:36.34	255.97	20.95	-53.3	-73.7	3.6	3.04e+01	0	46	104	350748672	60	184148
2026-01-28 12:12:40.35	257.14	21.12	-54.0	-68.8	3.5	3.04e+01	0	46	104	350748672	60	104597
2026-01-28 12:12:44.37	258.33	21.28	-51.2	-63.1	3.5	3.04e+01	0	46	104	350748672	60	54508
2026-01-28 12:12:48.40	259.53	21.44	-54.8	-70.2	3.5	3.04e+01	0	46	104	350748672	60	123159
2026-01-28 12:12:52.43	260.74	21.58	-55.7	-73.9	3.5	3.04e+01	0	46	104	350748672	60	188701
2026-01-28 12:12:56.45	261.96	21.71	-54.6	-68.4	3.5	3.04e+01	0	46	104	350748672	60	100242
2026-01-28 12:13:00.47	263.19	21.83	-52.3	-64.8	3.5	3.04e+01	0	46	104	350748672	60	65968
2026-01-28 12:13:04.50	264.44	21.93	-54.8	-70.4	3.5	3.04e+01	0	46	104	350748672	60	126205
2026-01-28 12:13:08.53	265.69	22.03	-51.1	-63.3	3.5	3.04e+01	0	46	104	350748672	60	55936
2026-01-28 12:13:12.54	266.94	22.10	-53.3	-70.8	3.5	3.04e+01	0	46	104	350748672	60	132301
2026-01-28 12:13:16.56	268.20	22.17	-53.0	-65.1	3.5	3.04e+01	0	46	104	350748672	60	68431
2026-01-28 12:13:20.58	269.47	22.22	-54.0	-69.3	3.5	3.04e+01	0	46	104	350748672	60	110451
2026-01-28 12:13:24.62	270.74	22.26	-53.9	-67.0	3.5	3.04e+01	0	46	104	350748672	60	85026
2026-01-28 12:13:28.64	272.01	22.29	-54.8	-68.8	3.5	3.04e+01	0	46	104	350748672	60	105020
2026-01-28 12:13:32.66	273.29	22.30	-54.6	-69.1	3.5	3.04e+01	0	46	104	350748672	60	108481
2026-01-28 12:13:36.69	274.56	22.30	-55.2	-71.1	3.5	3.04e+01	0	46	104	350748672	60	136519
2026-01-28 12:13:40.72	275.84	22.28	-54.8	-69.9	3.5	3.04e+01	0	46	104	350748672	60	119480
2026-01-28 12:13:44.73	277.11	22.25	-54.5	-69.5	3.5	3.04e+01	0	46	104	350748672	60	113363
2026-01-28 12:13:48.76	278.38	22.21	-55.3	-74.2	3.5	3.04e+01	0	46	104	350748672	60	194835
2026-01-28 12:13:52.77	279.64	22.15	-52.5	-68.1	3.5	3.04e+01	0	46	104	350748672	60	97130
2026-01-28 12:13:56.79	280.90	22.08	-52.5	-72.9	3.5	3.04e+01	0	46	104	350748672	60	168333
2026-01-28 12:14:00.81	282.15	22.00	-51.6	-70.0	3.6	3.04e+01	0	46	104	350748672	60	120667
2026-01-28 12:14:04.83	283.39	21.90	-54.7	-73.8	3.5	3.04e+01	0	46	104	350748672	60	185738
2026-01-28 12:14:08.83	284.62	21.79	-53.5	-71.1	3.5	3.04e+01	0	46	104	350748672	60	137120
2026-01-28 12:14:12.85	285.85	21.67	-56.2	-74.7	3.5	3.04e+01	0	46	104	350748672	60	205662
2026-01-28 12:14:16.86	287.06	21.54	-53.7	-68.6	3.5	3.04e+01	0	46	104	350748672	60	101832
2026-01-28 12:14:20.88	288.26	21.40	-53.6	-71.9	3.6	3.04e+01	0	46	104	350748672	60	149346
2026-01-28 12:14:24.89	289.45	21.24	-51.2	-64.0	3.5	3.04e+01	0	46	104	350748672	60	60335
2026-01-28 12:14:28.92	290.63	21.07	-52.7	-72.2	3.6	3.04e+01	0	46	104	350748672	60	154965
2026-01-28 12:14:32.94	291.80	20.90	-53.0	-70.8	3.5	3.04e+01	0	46	104	350748672	60	131731
2026-01-28 12:14:36.96	292.95	20.71	-54.3	-72.5	3.5	3.04e+01	0	47	104	350748672	60	161062
2026-01-28 12:14:40.99	294.09	20.52	-54.3	-70.9	3.5	3.04e+01	0	47	104	350748672	60	133909
2026-01-28 12:14:45.01	295.21	20.31	-55.6	-72.9	3.5	3.04e+01	0	46	104	350748672	60	167290
2026-01-28 12:14:49.04	296.32	20.10	-53.4	-66.7	3.6	3.04e+01	0	46	104	350748672	60	81903
2026-01-28 12:14:53.06	297.41	19.88	-55.6	-72.4	3.5	3.04e+01	0	46	104	350748672	60	159329
2026-01-28 12:14:57.09	298.48	19.65	-54.8	-70.7	3.5	3.04e+01	0	46	104	350748672	60	131123
2026-01-28 12:15:01.12	299.54	19.41	-55.6	-73.0	3.5	3.04e+01	0	46	104	350748672	60	169170
2026-01-28 12:15:05.14	300.58	19.17	-55.1	-69.2	3.5	3.04e+01	0	46	104	350748672	60	109811
2026-01-28 12:15:09.16	301.60	18.92	-55.1	-72.4	3.5	3.04e+01	0	46	104	350748672	60	158227
2026-01-28 12:15:13.18	302.61	18.67	-52.9	-67.1	3.5	3.04e+01	0	46	104	350748672	60	86402
2026-01-28 12:15:17.21	303.60	18.41	-55.9	-74.4	3.5	3.04e+01	0	46	104	350748672	60	198735
2026-01-28 12:15:21.24	304.57	18.15	-50.1	-61.3	3.5	3.04e+01	0	46	104	350748672	60	44284
2026-01-28 12:15:25.26	305.52	17.88	-55.4	-71.8	3.6	3.04e+01	0	46	104	350748672	60	148281
2026-01-28 12:15:29.29	306.46	17.61	-52.5	-64.8	3.5	3.04e+01	0	46	104	350748672	60	66355
2026-01-28 12:15:33.32	307.38	17.33	-55.6	-74.6	3.5	3.04e+01	0	46	104	350748672	60	203627
2026-01-28 12:15:37.34	308.28	17.05	-52.6	-64.3	3.5	3.04e+01	0	46	104	350748672	60	62602
2026-01-28 12:15:41.37	309.16	16.77	-53.9	-67.5	3.6	3.04e+01	0	46	104	350748672	60	90543
2026-01-28 12:15:45.38	310.03	16.49	-49.4	-60.4	3.6	3.04e+01	0	46	104	350748672	60	39628
2026-01-28 12:15:49.41	310.88	16.20	-53.3	-65.9	3.5	3.04e+01	0	46	104	350748672	60	75274
2026-01-28 12:15:53.44	311.71	15.92	-52.0	-63.7	3.5	3.04e+01	0	46	104	350748672	60	58470
2026-01-28 12:15:57.47	312.53	15.63	-52.6	-65.0	3.5	3.04e+01	0	46	104	350748672	60	67523
2026-01-28 12:16:01.49	313.33	15.34	-53.1	-66.3	3.5	3.04e+01	0	46	104	350748672	60	78214
2026-01-28 12:16:05.52	314.11	15.05	-54.2	-68.0	3.6	3.04e+01	0	46	104	350748672	60	95065
2026-01-28 12:16:09.54	314.88	14.75	-52.1	-63.8	3.5	3.04e+01	0	46	104	350748672	60	58685
2026-01-28 12:16:13.56	315.63	14.46	-49.1	-59.9	3.5	3.04e+01	0	46	104	350748672	60	37437
2026-01-28 12:16:17.58	316.37	14.17	-49.8	-60.8	3.5	3.04e+01	0	46	104	350748672	60	41578
2026-01-28 12:16:21.60	317.09	13.88	-51.5	-63.2	3.5	3.04e+01	0	46	104	350748672	60	55215
2026-01-28 12:16:25.63	317.80	13.58	-53.7	-67.0	3.5	3.04e+01	0	46	104	350748672	60	84710
2026-01-28 12:16:29.65	318.49	13.29	-49.8	-60.8	3.5	3.04e+01	0	46	104	350748672	60	41738
2026-01-28 12:16:33.68	319.17	13.00	-53.5	-67.2	3.5	3.04e+01	0	46	104	350748672	60	86954
2026-01-28 12:16:37.70	319.84	12.71	-50.6	-62.2	3.5	3.04e+01	0	47	104	350748672	60	48791
2026-01-28 12:16:41.73	320.49	12.42	-51.2	-63.0	3.5	3.04e+01	0	46	104	350748672	60	53981
2026-01-28 12:16:45.75	321.13	12.13	-53.2	-66.9	3.5	3.04e+01	0	46	104	350748672	60	83956
2026-01-28 12:16:49.77	321.75	11.84	-52.9	-66.1	3.5	3.04e+01	0	46	104	350748672	60	77218
2026-01-28 12:16:53.80	322.37	11.55	-52.6	-66.0	3.5	3.04e+01	0	46	104	350748672	60	76265
2026-01-28 12:16:57.83	322.97	11.26	-53.2	-68.0	3.5	3.04e+01	0	46	104	350748672	60	95470
2026-01-28 12:17:01.85	323.55	10.98	-53.8	-70.1	3.5	3.04e+01	0	46	104	350748672	60	121818
2026-01-28 12:17:05.86	324.13	10.69	-53.6	-68.1	3.5	3.04e+01	0	46	104	350748672	60	96999
2026-01-28 12:17:09.88	324.69	10.41	-54.5	-71.4	3.5	3.04e+01	0	46	104	350748672	60	140887
2026-01-28 12:17:13.89	325.25	10.13	-53.8	-69.6	3.5	3.04e+01	0	46	104	350748672	60	115252
2026-01-28 12:17:17.92	325.79	9.85	-54.2	-71.4	3.5	3.04e+01	0	46	104	350748672	60	141868
2026-01-28 12:17:21.95	326.32	9.57	-54.3	-71.7	3.5	3.04e+01	0	47	104	350748672	60	146844
2026-01-28 12:17:25.97	326.84	9.29	-54.5	-73.2	3.5	3.04e+01	0	46	104	350748672	60	172932
2026-01-28 12:17:29.99	327.35	9.01	-54.6	-72.9	3.5	3.04e+01	0	46	104	350748672	60	167563
2026-01-28 12:17:34.02	327.86	8.74	-54.6	-74.0	3.5	3.04e+01	0	47	104	350748672	60	189626
2026-01-28 12:17:38.04	328.35	8.47	-54.5	-73.8	3.5	3.04e+01	0	46	104	350748672	60	186585
2026-01-28 12:17:42.07	328.83	8.19	-54.7	-74.5	3.5	3.04e+01	0	46	104	350748672	60	202687
2026-01-28 12:17:46.09	329.30	7.93	-55.0	-74.8	3.5	3.04e+01	0	46	104	350748672	60	208255
2026-01-28 12:17:50.12	329.77	7.66	-54.9	-74.9	3.5	3.04e+01	0	46	104	350748672	60	211769
2026-01-28 12:17:54.14	330.22	7.39	-54.9	-75.0	3.5	3.04e+01	0	46	104	350748672	60	213380
2026-01-28 12:17:58.17	330.67	7.13	-54.7	-75.0	3.5	3.04e+01	0	46	104	350748672	60	214387
2026-01-28 12:18:02.20	331.11	6.86	-54.6	-75.0	3.5	3.04e+01	0	46	104	350748672	60	213056
2026-01-28 12:18:06.22	331.54	6.60	-54.4	-74.4	3.5	3.04e+01	0	47	104	350748672	60	199973
2026-01-28 12:18:10.25	331.96	6.34	-54.1	-74.1	3.5	3.04e+01	0	46	104	350748672	60	193515
2026-01-28 12:18:14.26	332.37	6.09	-54.0	-74.0	3.5	3.04e+01	0	47	104	350748672	60	190313
2026-01-28 12:18:18.29	332.78	5.83	-56.2	-76.3	3.5	3.04e+01	0	46	104	350748672	60	248304
2026-01-28 12:18:22.31	333.18	5.58	-55.7	-76.9	3.5	3.04e+01	0	47	104	350748672	60	266006
2026-01-28 12:18:26.33	333.57	5.32	-57.1	-77.3	3.5	3.04e+01	0	46	104	350748672	60	277374
2026-01-28 12:18:30.35	333.96	5.07	-56.7	-77.5	3.5	3.04e+01	0	46	104	350748672	60	285266
2026-01-28 12:18:34.37	334.34	4.82	-56.5	-77.9	3.5	3.04e+01	0	47	104	350748672	60	297648
2026-01-28 12:18:38.40	334.71	4.58	-56.6	-78.0	3.5	3.04e+01	0	46	104	350748672	60	302023
2026-01-28 12:18:42.43	335.08	4.33	-56.5	-77.9	3.5	3.04e+01	0	47	104	350748672	60	298467
2026-01-28 12:18:46.46	335.44	4.09	-56.4	-77.8	3.5	3.04e+01	0	47	104	350748672	60	296658
2026-01-28 12:18:50.49	335.79	3.84	-56.3	-77.7	3.6	3.04e+01	0	47	104	350748672	60	292317
2026-01-28 12:18:54.52	336.14	3.60	-56.3	-77.8	3.5	3.04e+01	0	47	104	350748672	60	294821
2026-01-28 12:18:58.55	336.48	3.36	-56.3	-77.8	3.5	3.04e+01	0	46	104	350748672	60	293906
2026-01-28 12:19:02.58	336.82	3.12	-56.3	-77.7	3.5	3.04e+01	0	46	104	350748672	60	290565
2026-01-28 12:19:06.61	337.15	2.89	-56.3	-77.7	3.5	3.04e+01	0	47	104	350748672	60	292564
2026-01-28 12:19:10.64	337.47	2.65	-56.3	-77.7	3.5	3.04e+01	0	47	104	350748672	60	292148
2026-01-28 12:19:14.67	337.79	2.42	-56.2	-77.8	3.5	3.04e+01	0	47	104	350748672	60	293868
2026-01-28 12:19:18.69	338.11	2.19	-56.3	-77.7	3.5	3.04e+01	0	46	104	350748672	60	293050
2026-01-28 12:19:22.72	338.42	1.96	-56.3	-77.7	3.5	3.04e+01	0	46	104	350748672	60	292371
2026-01-28 12:19:26.75	338.72	1.73	-56.3	-77.7	3.5	3.04e+01	0	47	104	350748672	60	291441
2026-01-28 12:19:30.78	339.02	1.50	-56.3	-77.7	3.5	3.04e+01	0	47	104	350748672	60	292121
2026-01-28 12:19:34.81	339.32	1.27	-56.3	-77.7	3.5	3.04e+01	0	46	104	350748672	60	290397
2026-01-28 12:19:38.83	339.61	1.05	-56.3	-77.8	3.5	3.04e+01	0	47	104	350748672	60	296217
2026-01-28 12:19:42.86	339.90	0.83	-56.3	-77.8	3.5	3.04e+01	0	47	104	350748672	60	293655
2026-01-28 12:19:46.88	340.18	0.60	-56.3	-77.7	3.5	3.04e+01	0	47	104	350748672	60	291095
2026-01-28 12:19:50.91	340.46	0.38	-56.2	-77.8	3.5	3.04e+01	0	47	104	350748672	60	293951
2026-01-28 12:19:54.94	340.73	0.16	-56.3	-77.8	3.5	3.04e+01	0	47	104	350748672	60	294339

#Closed at: 2026-01-28 12:19:58
#Recorded file [350 MB]: D:/Data/35015_260128_151152.dat