passes_logs/2026/01/28/R3.2S-Naryan-Mar/R3.2S-Naryan-Mar__20260128_113746_NOAA_21_JPSS-2_rec.log

#Pass ID: 20260128_113746_NOAA 21 (JPSS-2)
#Satellite: NOAA 21 (JPSS-2)
#Configuration: NOAA-21
#almurnet v.1.7.20240730
#Start time: 2026-01-28 11:46:41

#Version: 2.2.20231116
#Station: R3.2S-Naryan-Mar
#Location: 53.008057 lon 67.646978 lat
#TLE: 1 54234U 22150A   26027.55906748  .00000170  00000+0  10132-3 0  9996
#TLE: 2 54234  98.7510 328.3076 0000860 204.4692 155.6443 14.19540154166599

#Time	Az	El	Level	Level2	SNR	BER	BlckErr	Temp	State	Recorded	gain1	gain2
2026-01-28 11:46:41.34	320.83	8.29	-56.4	-59.4	3.4	0.00e+00	0	48	0	0	60	110803
2026-01-28 11:46:42.34	320.98	8.25	-59.7	-75.4	3.5	1.51e+00	0	48	104	0	60	222865
2026-01-28 11:46:43.34	321.13	8.21	-59.8	-75.3	3.6	1.51e+00	0	48	104	0	60	221813
2026-01-28 11:46:44.35	321.28	8.18	-59.8	-75.4	3.5	1.52e+00	0	48	104	0	60	224420
2026-01-28 11:46:45.36	321.43	8.14	-59.8	-75.3	3.6	1.51e+00	0	48	104	0	60	220619
2026-01-28 11:46:46.37	321.58	8.10	-59.8	-75.5	3.6	1.51e+00	0	48	104	0	60	227074
2026-01-28 11:46:47.37	321.73	8.07	-59.8	-75.3	3.6	1.52e+00	0	48	104	0	60	220443
2026-01-28 11:46:48.38	321.88	8.03	-59.8	-75.4	3.5	1.52e+00	0	48	104	0	60	223180
2026-01-28 11:46:49.39	322.03	7.99	-59.9	-75.6	3.5	1.52e+00	0	48	104	0	60	229114
2026-01-28 11:46:50.39	322.18	7.95	-59.8	-75.4	3.5	1.51e+00	0	48	104	0	60	225200
2026-01-28 11:46:51.40	322.33	7.92	-59.7	-75.2	3.6	1.52e+00	0	48	104	0	60	219520
2026-01-28 11:46:52.40	322.47	7.88	-59.7	-75.3	3.6	1.52e+00	0	48	104	0	60	220371
2026-01-28 11:46:53.41	322.62	7.84	-59.6	-75.1	3.5	1.51e+00	0	48	104	0	60	217331
2026-01-28 11:46:54.42	322.77	7.80	-59.9	-75.5	3.5	1.51e+00	0	48	104	0	60	227128
2026-01-28 11:46:55.43	322.91	7.76	-59.8	-75.5	3.5	1.51e+00	0	48	104	0	60	225441
2026-01-28 11:46:56.44	323.06	7.73	-59.6	-75.5	3.6	1.51e+00	0	48	104	0	60	225326
2026-01-28 11:46:57.44	323.21	7.69	-59.6	-75.4	3.5	1.51e+00	0	48	104	0	60	223634
2026-01-28 11:46:58.45	323.35	7.65	-59.6	-75.5	3.6	1.51e+00	0	48	104	0	60	226735
2026-01-28 11:46:59.46	323.50	7.61	-59.8	-75.3	3.5	1.51e+00	0	48	104	0	60	221868
2026-01-28 11:47:00.46	323.64	7.57	-59.6	-75.2	3.5	1.51e+00	0	48	104	0	60	218221
2026-01-28 11:47:01.47	323.78	7.53	-59.6	-75.2	3.5	1.51e+00	0	48	104	0	60	218976
2026-01-28 11:47:02.47	323.93	7.49	-59.7	-75.4	3.5	1.51e+00	0	48	104	0	60	224987
2026-01-28 11:47:03.47	324.07	7.46	-59.6	-75.4	3.6	1.51e+00	0	48	104	0	60	224958
2026-01-28 11:47:04.48	324.21	7.42	-59.6	-75.4	3.6	1.51e+00	0	48	104	0	60	224780
2026-01-28 11:47:05.49	324.36	7.38	-59.6	-75.3	3.5	1.52e+00	0	48	104	0	60	220342
2026-01-28 11:47:06.50	324.50	7.34	-59.7	-75.3	3.5	1.51e+00	0	48	104	0	60	222623
2026-01-28 11:47:07.50	324.64	7.30	-59.7	-75.3	3.6	1.51e+00	0	48	104	0	60	222600
2026-01-28 11:47:08.51	324.78	7.26	-59.7	-75.3	3.5	1.51e+00	0	48	104	0	60	222101
2026-01-28 11:47:09.52	324.92	7.22	-59.9	-75.6	3.5	1.52e+00	0	48	104	0	60	227956
2026-01-28 11:47:10.52	325.06	7.18	-59.8	-75.3	3.6	1.51e+00	0	48	104	0	60	222204
2026-01-28 11:47:11.52	325.20	7.14	-59.8	-75.5	3.6	1.51e+00	0	48	104	0	60	226557
2026-01-28 11:47:12.53	325.34	7.10	-59.9	-75.5	3.5	1.51e+00	0	48	104	0	60	227308
2026-01-28 11:47:13.54	325.48	7.06	-59.8	-75.2	3.6	1.52e+00	0	48	104	0	60	219976
2026-01-28 11:47:14.54	325.62	7.02	-59.9	-75.3	3.6	1.52e+00	0	48	104	0	60	221605
2026-01-28 11:47:15.55	325.76	6.98	-59.7	-75.2	3.6	1.52e+00	0	48	104	0	60	219289
2026-01-28 11:47:16.56	325.90	6.94	-59.9	-75.4	3.5	1.51e+00	0	48	104	0	60	224260
2026-01-28 11:47:17.57	326.04	6.90	-59.9	-75.5	3.5	1.52e+00	0	48	104	0	60	225533
2026-01-28 11:47:18.57	326.18	6.86	-59.8	-75.3	3.6	1.51e+00	0	48	104	0	60	221931
2026-01-28 11:47:19.58	326.31	6.82	-59.8	-75.4	3.5	1.52e+00	0	48	104	0	60	224959
2026-01-28 11:47:20.58	326.45	6.78	-59.8	-75.5	3.6	1.51e+00	0	48	104	0	60	226293
2026-01-28 11:47:21.59	326.59	6.74	-59.8	-75.5	3.5	1.51e+00	0	48	104	0	60	226866
2026-01-28 11:47:22.59	326.72	6.70	-59.9	-75.3	3.5	1.52e+00	0	48	104	0	60	221955
2026-01-28 11:47:23.60	326.86	6.66	-59.8	-75.2	3.6	1.52e+00	0	48	104	0	60	219035
2026-01-28 11:47:24.61	327.00	6.62	-59.5	-75.4	3.5	1.52e+00	0	48	104	0	60	224605
2026-01-28 11:47:25.61	327.13	6.58	-59.6	-75.2	3.5	1.52e+00	0	48	104	0	60	219247
2026-01-28 11:47:26.62	327.27	6.54	-59.6	-75.2	3.5	1.51e+00	0	48	104	0	60	219025
2026-01-28 11:47:27.62	327.40	6.50	-59.5	-75.2	3.5	1.51e+00	0	48	104	0	60	217924
2026-01-28 11:47:28.63	327.53	6.46	-59.5	-75.3	3.5	1.51e+00	0	48	104	0	60	221296
2026-01-28 11:47:29.64	327.67	6.42	-59.6	-75.3	3.6	1.51e+00	0	48	104	0	60	222622
2026-01-28 11:47:30.65	327.80	6.38	-59.6	-75.1	3.5	1.51e+00	0	48	104	0	60	215358
2026-01-28 11:47:31.66	327.94	6.34	-59.5	-75.1	3.6	1.51e+00	0	48	104	0	60	215565
2026-01-28 11:47:32.66	328.07	6.30	-59.5	-75.1	3.6	1.51e+00	0	48	104	0	60	216765
2026-01-28 11:47:33.67	328.20	6.26	-59.5	-75.0	3.5	1.52e+00	0	48	104	0	60	213270
2026-01-28 11:47:34.68	328.33	6.21	-59.4	-75.1	3.5	1.51e+00	0	48	104	0	60	216690
2026-01-28 11:47:35.69	328.47	6.17	-59.5	-75.2	3.5	1.51e+00	0	48	104	0	60	218573
2026-01-28 11:47:36.70	328.60	6.13	-59.4	-75.2	3.5	1.51e+00	0	47	104	0	60	219352
2026-01-28 11:47:37.70	328.73	6.09	-59.4	-75.1	3.5	1.52e+00	0	47	104	0	60	216339
2026-01-28 11:47:38.71	328.86	6.05	-59.4	-75.0	3.6	1.51e+00	0	48	104	0	60	214512
2026-01-28 11:47:39.71	328.99	6.01	-59.4	-75.0	3.6	1.51e+00	0	48	104	0	60	213889
2026-01-28 11:47:40.72	329.12	5.97	-59.4	-75.0	3.6	1.52e+00	0	47	104	0	60	213505
2026-01-28 11:47:41.73	329.25	5.92	-59.6	-75.1	3.5	1.51e+00	0	47	104	0	60	217238
2026-01-28 11:47:42.73	329.38	5.88	-59.4	-75.1	3.5	1.52e+00	0	47	104	0	60	216334
2026-01-28 11:47:43.74	329.51	5.84	-59.5	-75.2	3.5	1.52e+00	0	47	104	0	60	218976
2026-01-28 11:47:44.74	329.63	5.80	-59.5	-75.2	3.5	1.52e+00	0	48	104	0	60	219090
2026-01-28 11:47:45.75	329.76	5.76	-59.5	-75.2	3.6	1.51e+00	0	47	104	0	60	218058
2026-01-28 11:47:46.76	329.89	5.72	-59.5	-75.1	3.6	1.51e+00	0	48	104	0	60	216567
2026-01-28 11:47:47.77	330.02	5.67	-59.5	-75.1	3.5	1.51e+00	0	48	104	0	60	215659
2026-01-28 11:47:48.77	330.15	5.63	-59.5	-75.3	3.6	1.52e+00	0	47	104	0	60	220394
2026-01-28 11:47:49.78	330.27	5.59	-59.6	-75.1	3.6	1.51e+00	0	47	104	0	60	216370
2026-01-28 11:47:50.79	330.40	5.55	-59.6	-75.3	3.5	1.51e+00	0	47	104	0	60	221288
2026-01-28 11:47:51.79	330.52	5.51	-59.6	-75.2	3.6	1.52e+00	0	47	104	0	60	219865
2026-01-28 11:47:52.79	330.65	5.46	-59.6	-75.1	3.5	1.52e+00	0	47	104	0	60	216298
2026-01-28 11:47:53.80	330.78	5.42	-59.6	-75.3	3.5	1.52e+00	0	47	104	0	60	222090
2026-01-28 11:47:54.81	330.90	5.38	-59.5	-75.3	3.5	1.51e+00	0	47	104	0	60	220519
2026-01-28 11:47:55.82	331.03	5.34	-59.5	-75.0	3.5	1.52e+00	0	47	104	0	60	214880
2026-01-28 11:47:56.83	331.15	5.30	-59.5	-75.1	3.6	1.51e+00	0	47	104	0	60	216276
2026-01-28 11:47:57.84	331.28	5.25	-59.4	-75.0	3.5	1.51e+00	0	47	104	0	60	214771
2026-01-28 11:47:58.84	331.40	5.21	-59.4	-75.0	3.6	1.52e+00	0	47	104	0	60	213784
2026-01-28 11:47:59.85	331.52	5.17	-59.5	-75.3	3.6	1.52e+00	0	47	104	0	60	222163
2026-01-28 11:48:00.85	331.64	5.13	-59.4	-75.0	3.6	1.51e+00	0	47	104	0	60	213093
2026-01-28 11:48:01.86	331.77	5.08	-59.4	-75.2	3.6	1.51e+00	0	47	104	0	60	219711
2026-01-28 11:48:02.87	331.89	5.04	-59.4	-75.2	3.6	1.51e+00	0	47	104	0	60	219174
2026-01-28 11:48:03.88	332.01	5.00	-59.4	-75.3	3.6	1.51e+00	0	47	104	0	60	220417
2026-01-28 11:48:04.89	332.13	4.96	-59.5	-75.2	3.5	1.51e+00	0	47	104	0	60	219514
2026-01-28 11:48:05.90	332.26	4.91	-59.4	-75.1	3.6	1.52e+00	0	47	104	0	60	215249
2026-01-28 11:48:06.90	332.38	4.87	-59.5	-75.0	3.6	1.52e+00	0	47	104	0	60	214776
2026-01-28 11:48:07.91	332.50	4.83	-59.5	-75.1	3.5	1.51e+00	0	47	104	0	60	216640
2026-01-28 11:48:08.92	332.62	4.79	-59.5	-75.2	3.6	1.51e+00	0	47	104	0	60	218027
2026-01-28 11:48:09.93	332.74	4.74	-59.4	-75.0	3.6	1.51e+00	0	47	104	0	60	213967
2026-01-28 11:48:10.92	332.86	4.70	-59.4	-75.0	3.5	1.52e+00	0	47	104	0	60	214157
2026-01-28 11:48:11.93	332.98	4.66	-59.4	-75.2	3.6	1.52e+00	0	47	104	0	60	219698
2026-01-28 11:48:12.94	333.09	4.61	-59.4	-75.1	3.6	1.51e+00	0	47	104	0	60	217188
2026-01-28 11:48:13.94	333.21	4.57	-59.4	-75.0	3.6	1.51e+00	0	47	104	0	60	213450
2026-01-28 11:48:14.94	333.33	4.53	-59.4	-75.3	3.5	1.51e+00	0	47	104	0	60	220806
2026-01-28 11:48:15.94	333.45	4.49	-59.5	-75.1	3.6	1.51e+00	0	47	104	0	60	215771
2026-01-28 11:48:16.94	333.56	4.44	-59.4	-75.1	3.6	1.51e+00	0	47	104	0	60	217422
2026-01-28 11:48:17.95	333.68	4.40	-59.5	-75.1	3.5	1.52e+00	0	47	104	0	60	215775
2026-01-28 11:48:18.96	333.80	4.36	-59.4	-75.2	3.6	1.52e+00	0	47	104	0	60	218789
2026-01-28 11:48:19.97	333.92	4.31	-59.5	-75.2	3.6	1.52e+00	0	47	104	0	60	219621
2026-01-28 11:48:20.97	334.03	4.27	-59.4	-75.2	3.5	1.51e+00	0	47	104	0	60	219718
2026-01-28 11:48:21.98	334.15	4.23	-59.4	-75.1	3.6	1.51e+00	0	47	104	0	60	216019
2026-01-28 11:48:22.99	334.26	4.19	-59.4	-75.0	3.6	1.51e+00	0	47	104	0	60	214684
2026-01-28 11:48:23.99	334.38	4.14	-59.6	-75.2	3.5	1.51e+00	0	47	104	0	60	217958
2026-01-28 11:48:25.00	334.49	4.10	-59.2	-75.0	3.6	1.51e+00	0	47	104	0	60	212972
2026-01-28 11:48:26.01	334.61	4.06	-59.2	-75.0	3.6	1.52e+00	0	47	104	0	60	213385
2026-01-28 11:48:27.01	334.72	4.01	-59.3	-75.1	3.6	1.51e+00	0	47	104	0	60	215201
2026-01-28 11:48:28.01	334.84	3.97	-59.2	-75.1	3.5	1.51e+00	0	47	104	0	60	216081
2026-01-28 11:48:29.02	334.95	3.93	-59.3	-75.2	3.5	1.51e+00	0	47	104	0	60	218498
2026-01-28 11:48:30.02	335.06	3.88	-59.5	-75.0	3.6	1.52e+00	0	47	104	0	60	213454
2026-01-28 11:48:31.03	335.18	3.84	-59.5	-75.1	3.5	1.52e+00	0	47	104	0	60	217474
2026-01-28 11:48:32.03	335.29	3.80	-59.4	-75.1	3.6	1.52e+00	0	47	104	0	60	215971
2026-01-28 11:48:33.04	335.40	3.75	-59.5	-75.4	3.5	1.52e+00	0	47	104	0	60	224777
2026-01-28 11:48:34.05	335.51	3.71	-59.5	-75.1	3.5	1.51e+00	0	47	104	0	60	216103
2026-01-28 11:48:35.06	335.63	3.67	-59.5	-75.0	3.5	1.52e+00	0	47	104	0	60	214245
2026-01-28 11:48:36.06	335.74	3.62	-59.6	-75.3	3.5	1.51e+00	0	47	104	0	60	220344
2026-01-28 11:48:37.07	335.85	3.58	-59.7	-75.1	3.5	1.51e+00	0	47	104	0	60	217459
2026-01-28 11:48:38.08	335.96	3.54	-59.7	-75.2	3.6	1.52e+00	0	47	104	0	60	217864
2026-01-28 11:48:39.09	336.07	3.49	-59.5	-75.1	3.5	1.51e+00	0	47	104	0	60	216737
2026-01-28 11:48:40.09	336.18	3.45	-59.5	-75.0	3.6	1.52e+00	0	47	104	0	60	214228
2026-01-28 11:48:41.10	336.29	3.41	-59.4	-75.0	3.6	1.52e+00	0	47	104	0	60	214190
2026-01-28 11:48:42.11	336.40	3.36	-59.5	-75.0	3.5	1.51e+00	0	47	104	0	60	213270
2026-01-28 11:48:43.12	336.51	3.32	-59.4	-75.1	3.5	1.52e+00	0	47	104	0	60	215532
2026-01-28 11:48:44.12	336.62	3.28	-59.3	-75.1	3.6	1.52e+00	0	47	104	0	60	216525
2026-01-28 11:48:45.13	336.73	3.23	-59.4	-75.2	3.6	1.51e+00	0	47	104	0	60	218996
2026-01-28 11:48:46.14	336.84	3.19	-59.5	-75.3	3.6	1.52e+00	0	47	104	0	60	220225
2026-01-28 11:48:47.15	336.94	3.15	-59.4	-75.0	3.5	1.51e+00	0	47	104	0	60	213455
2026-01-28 11:48:48.16	337.05	3.10	-59.3	-75.3	3.5	1.51e+00	0	47	104	0	60	220652
2026-01-28 11:48:49.16	337.16	3.06	-59.3	-75.1	3.6	1.51e+00	0	47	104	0	60	216116
2026-01-28 11:48:50.17	337.27	3.01	-59.4	-75.1	3.6	1.51e+00	0	47	104	0	60	215566
2026-01-28 11:48:51.17	337.37	2.97	-59.4	-74.9	3.6	1.52e+00	0	47	104	0	60	212254
2026-01-28 11:48:52.17	337.48	2.93	-59.5	-74.9	3.5	1.52e+00	0	47	104	0	60	212631
2026-01-28 11:48:53.18	337.59	2.88	-59.4	-75.2	3.5	1.52e+00	0	47	104	0	60	219253
2026-01-28 11:48:54.19	337.69	2.84	-59.4	-75.1	3.6	1.51e+00	0	47	104	0	60	217360
2026-01-28 11:48:55.20	337.80	2.80	-59.3	-75.3	3.5	1.52e+00	0	47	104	0	60	220678
2026-01-28 11:48:56.21	337.90	2.75	-59.4	-75.2	3.5	1.52e+00	0	47	104	0	60	217877
2026-01-28 11:48:57.22	338.01	2.71	-59.3	-75.0	3.6	1.51e+00	0	47	104	0	60	214283
2026-01-28 11:48:58.22	338.11	2.67	-59.4	-74.9	3.5	1.51e+00	0	47	104	0	60	212427
2026-01-28 11:48:59.23	338.22	2.62	-59.4	-75.0	3.5	1.52e+00	0	47	104	0	60	212807
2026-01-28 11:49:00.24	338.32	2.58	-59.3	-75.2	3.5	1.51e+00	0	47	104	0	60	218369
2026-01-28 11:49:01.25	338.43	2.53	-59.3	-75.1	3.5	1.52e+00	0	47	104	0	60	216962
2026-01-28 11:49:02.26	338.53	2.49	-59.4	-75.1	3.5	1.51e+00	0	47	104	0	60	215900
2026-01-28 11:49:03.26	338.63	2.45	-59.4	-74.9	3.5	1.52e+00	0	47	104	0	60	211658
2026-01-28 11:49:04.27	338.74	2.40	-59.3	-75.1	3.5	1.51e+00	0	47	104	0	60	216519
2026-01-28 11:49:05.28	338.84	2.36	-59.3	-75.0	3.6	1.51e+00	0	47	104	0	60	214837
2026-01-28 11:49:06.29	338.94	2.32	-59.3	-75.1	3.5	1.51e+00	0	47	104	0	60	215604
2026-01-28 11:49:07.29	339.04	2.27	-59.4	-75.0	3.5	1.51e+00	0	47	104	0	60	214476
2026-01-28 11:49:08.30	339.15	2.23	-59.3	-74.9	3.5	1.52e+00	0	47	104	0	60	211155
2026-01-28 11:49:09.30	339.25	2.19	-59.3	-75.1	3.5	1.51e+00	0	47	104	0	60	215776
2026-01-28 11:49:10.31	339.35	2.14	-59.3	-75.0	3.5	1.52e+00	0	47	104	0	60	214798
2026-01-28 11:49:11.32	339.45	2.10	-59.4	-75.2	3.6	1.51e+00	0	47	104	0	60	218623
2026-01-28 11:49:12.32	339.55	2.05	-59.5	-75.1	3.5	1.52e+00	0	47	104	0	60	216897
2026-01-28 11:49:13.33	339.65	2.01	-59.5	-75.0	3.5	1.51e+00	0	47	104	0	60	213922
2026-01-28 11:49:14.34	339.75	1.97	-59.5	-75.1	3.6	1.52e+00	0	47	104	0	60	215813
2026-01-28 11:49:15.35	339.85	1.92	-59.5	-75.1	3.5	1.52e+00	0	47	104	0	60	215176
2026-01-28 11:49:16.36	339.95	1.88	-59.4	-75.1	3.5	1.51e+00	0	47	104	0	60	216098
2026-01-28 11:49:17.36	340.05	1.84	-59.5	-75.1	3.5	1.52e+00	0	47	104	0	60	217437
2026-01-28 11:49:18.37	340.15	1.79	-59.3	-75.1	3.6	1.52e+00	0	47	104	0	60	217155
2026-01-28 11:49:19.38	340.25	1.75	-59.3	-75.1	3.5	1.52e+00	0	47	104	0	60	217502
2026-01-28 11:49:20.38	340.35	1.71	-59.3	-74.9	3.5	1.51e+00	0	47	104	0	60	211794
2026-01-28 11:49:21.39	340.45	1.66	-59.4	-74.9	3.6	1.52e+00	0	47	104	0	60	211865
2026-01-28 11:49:22.40	340.54	1.62	-59.4	-75.0	3.5	1.51e+00	0	47	104	0	60	214145
2026-01-28 11:49:23.40	340.64	1.57	-59.3	-75.2	3.5	1.52e+00	0	47	104	0	60	219557
2026-01-28 11:49:24.41	340.74	1.53	-59.4	-75.0	3.5	1.51e+00	0	47	104	0	60	214139
2026-01-28 11:49:25.41	340.84	1.49	-59.3	-75.0	3.5	1.51e+00	0	47	104	0	60	212840
2026-01-28 11:49:26.42	340.93	1.44	-59.3	-74.9	3.6	1.52e+00	0	47	104	0	60	212221
2026-01-28 11:49:27.43	341.03	1.40	-59.3	-75.1	3.5	1.51e+00	0	47	104	0	60	216431
2026-01-28 11:49:28.43	341.13	1.36	-59.3	-75.1	3.5	1.51e+00	0	47	104	0	60	216536
2026-01-28 11:49:29.44	341.22	1.31	-59.3	-75.0	3.5	1.51e+00	0	47	104	0	60	214692
2026-01-28 11:49:30.45	341.32	1.27	-59.3	-75.0	3.6	1.52e+00	0	47	104	0	60	213243
2026-01-28 11:49:31.45	341.41	1.23	-59.4	-74.9	3.6	1.51e+00	0	47	104	0	60	211727
2026-01-28 11:49:32.46	341.51	1.18	-59.3	-74.9	3.6	1.51e+00	0	47	104	0	60	211752
2026-01-28 11:49:33.46	341.60	1.14	-59.4	-74.9	3.6	1.52e+00	0	47	104	0	60	212705
2026-01-28 11:49:34.47	341.70	1.09	-59.3	-75.0	3.5	1.51e+00	0	47	104	0	60	213960
2026-01-28 11:49:35.47	341.79	1.05	-59.4	-74.9	3.5	1.51e+00	0	47	104	0	60	211547
2026-01-28 11:49:36.48	341.89	1.01	-59.5	-75.2	3.5	1.52e+00	0	47	104	0	60	218613
2026-01-28 11:49:37.48	341.98	0.96	-59.4	-75.1	3.6	1.52e+00	0	47	104	0	60	215902
2026-01-28 11:49:38.49	342.07	0.92	-59.4	-75.1	3.5	1.52e+00	0	47	104	0	60	217192
2026-01-28 11:49:39.50	342.17	0.88	-59.4	-75.2	3.5	1.51e+00	0	47	104	0	60	218845
2026-01-28 11:49:40.50	342.26	0.83	-59.4	-75.2	3.5	1.51e+00	0	47	104	0	60	217719
2026-01-28 11:49:41.50	342.35	0.79	-59.4	-74.9	3.6	1.51e+00	0	47	104	0	60	211045
2026-01-28 11:49:42.51	342.45	0.75	-59.3	-75.0	3.6	1.51e+00	0	47	104	0	60	213402
2026-01-28 11:49:43.52	342.54	0.70	-59.3	-74.9	3.6	1.51e+00	0	47	104	0	60	211302
2026-01-28 11:49:44.52	342.63	0.66	-59.3	-75.1	3.5	1.51e+00	0	47	104	0	60	216318
2026-01-28 11:49:45.53	342.72	0.62	-59.3	-75.1	3.5	1.52e+00	0	47	104	0	60	216806
2026-01-28 11:49:46.54	342.82	0.57	-59.4	-74.9	3.5	1.51e+00	0	47	104	0	60	211556
2026-01-28 11:49:47.54	342.91	0.53	-59.2	-75.0	3.5	1.52e+00	0	47	104	0	60	213397
2026-01-28 11:49:48.55	343.00	0.49	-59.3	-75.0	3.5	1.52e+00	0	47	104	0	60	213646
2026-01-28 11:49:49.56	343.09	0.44	-59.2	-74.9	3.6	1.51e+00	0	47	104	0	60	211952
2026-01-28 11:49:50.56	343.18	0.40	-59.1	-74.7	3.6	1.51e+00	0	47	104	0	60	207369
2026-01-28 11:49:51.56	343.27	0.35	-59.3	-75.0	3.6	1.52e+00	0	47	104	0	60	214077
2026-01-28 11:49:52.57	343.36	0.31	-59.1	-75.0	3.6	1.51e+00	0	47	104	0	60	214535
2026-01-28 11:49:53.57	343.45	0.27	-59.2	-75.0	3.6	1.51e+00	0	47	104	0	60	214197
2026-01-28 11:49:54.58	343.54	0.22	-59.3	-75.0	3.5	1.52e+00	0	47	104	0	60	213416
2026-01-28 11:49:55.58	343.63	0.18	-59.2	-75.1	3.5	1.52e+00	0	47	104	0	60	216662
2026-01-28 11:49:56.59	343.72	0.14	-59.3	-75.1	3.5	1.51e+00	0	47	104	0	60	215949
2026-01-28 11:49:57.60	343.81	0.09	-59.2	-74.8	3.6	1.52e+00	0	47	104	0	60	210054
2026-01-28 11:49:58.60	343.90	0.05	-59.3	-74.9	3.5	1.51e+00	0	47	104	0	60	211469
2026-01-28 11:49:59.61	343.98	0.01	-59.4	-75.2	3.6	1.52e+00	0	47	104	0	60	217815
2026-01-28 11:50:00.62	344.07	-0.04	-59.3	-75.1	3.6	1.51e+00	0	47	104	0	60	215485
2026-01-28 11:50:01.62	344.16	-0.08	-59.2	-75.0	3.6	1.51e+00	0	47	104	0	60	214288

#Closed at: 2026-01-28 11:50:02
#Recorded file [0 MB]: D:/Data/35015_260128_144641.dat