passes_logs/2026/01/28/R3.2S-Naryan-Mar/R3.2S-Naryan-Mar__20260128_161439_TY-42_rec.log

#Pass ID: 20260128_161439_TY-42
#Satellite: TY-42
#Configuration: TY-42
#almurnet v.1.7.20240730
#Start time: 2026-01-28 16:14:39

#Version: 2.2.20231116
#Station: R3.2S-Naryan-Mar
#Location: 53.008057 lon 67.646978 lat
#TLE: 1 64048U 25103A   26028.22870370  .00008010  00000-0  38191-3 0 09994
#TLE: 2 64048 097.4119 103.3979 0001765 093.5114 028.5586 15.19170123 38824

#Time	Az	El	Level	Level2	SNR	BER	BlckErr	Temp	State	Recorded	gain1	gain2
2026-01-28 16:14:39.82	123.51	0.03	-55.2	-58.5	3.3	0.00e+00	0	44	0	0	60	99364
2026-01-28 16:14:42.84	123.36	0.22	-56.0	-60.3	3.6	0.00e+00	0	45	104	0	60	123095
2026-01-28 16:14:45.85	123.22	0.40	-57.2	-61.2	3.6	0.00e+00	0	46	104	0	60	135870
2026-01-28 16:14:48.87	123.07	0.59	-57.4	-61.2	3.6	0.00e+00	0	46	104	0	60	135224
2026-01-28 16:14:51.88	122.92	0.78	-56.4	-60.7	3.6	0.00e+00	0	46	104	0	60	128785
2026-01-28 16:14:54.89	122.77	0.97	-56.5	-60.4	3.6	0.00e+00	0	46	104	0	60	123852
2026-01-28 16:14:57.92	122.62	1.17	-55.4	-59.2	3.6	0.00e+00	0	46	104	0	60	107655
2026-01-28 16:15:00.93	122.46	1.36	-55.4	-59.2	3.6	0.00e+00	0	46	104	0	60	107801
2026-01-28 16:15:03.95	122.30	1.56	-55.2	-59.0	3.6	0.00e+00	0	46	104	0	60	105806
2026-01-28 16:15:06.97	122.13	1.76	-55.2	-58.9	3.6	0.00e+00	0	46	104	0	60	104375
2026-01-28 16:15:09.98	121.97	1.96	-55.2	-58.9	3.6	0.00e+00	0	46	104	0	60	104624
2026-01-28 16:15:13.01	121.80	2.16	-55.1	-58.9	3.6	0.00e+00	0	46	104	0	60	104313
2026-01-28 16:15:16.03	121.62	2.36	-55.1	-58.9	3.6	0.00e+00	0	46	104	0	60	104240
2026-01-28 16:15:19.06	121.45	2.57	-55.1	-58.9	3.6	0.00e+00	0	47	104	0	60	103756
2026-01-28 16:15:22.08	121.27	2.78	-55.1	-58.8	3.6	0.00e+00	0	47	104	0	60	103346
2026-01-28 16:15:25.10	121.08	2.99	-55.1	-58.8	3.6	0.00e+00	0	47	104	0	60	103342
2026-01-28 16:15:28.11	120.90	3.19	-55.1	-58.8	3.6	0.00e+00	0	47	104	0	60	102908
2026-01-28 16:15:31.12	120.71	3.41	-55.1	-58.8	3.6	0.00e+00	0	47	104	0	60	102608
2026-01-28 16:15:34.14	120.51	3.62	-55.1	-58.8	3.5	0.00e+00	0	47	104	0	60	102833
2026-01-28 16:15:37.16	120.31	3.84	-55.1	-58.8	3.6	0.00e+00	0	47	104	0	60	102782
2026-01-28 16:15:40.18	120.11	4.06	-55.0	-58.8	3.6	0.00e+00	0	47	104	0	60	102600
2026-01-28 16:15:43.19	119.91	4.27	-55.0	-58.8	3.6	0.00e+00	0	47	104	0	60	102735
2026-01-28 16:15:46.20	119.70	4.50	-55.0	-58.8	3.6	0.00e+00	0	47	104	0	60	102610
2026-01-28 16:15:49.22	119.48	4.72	-55.0	-58.7	3.6	0.00e+00	0	47	104	0	60	102029
2026-01-28 16:15:52.24	119.27	4.95	-54.9	-58.7	3.6	0.00e+00	0	47	104	0	60	101805
2026-01-28 16:15:55.26	119.04	5.18	-54.9	-58.7	3.6	0.00e+00	0	47	104	0	60	101617
2026-01-28 16:15:58.28	118.82	5.41	-54.9	-58.7	3.6	0.00e+00	0	47	104	0	60	101609
2026-01-28 16:16:01.30	118.58	5.64	-54.9	-58.7	3.6	0.00e+00	0	47	104	0	60	101985
2026-01-28 16:16:04.31	118.35	5.88	-54.9	-58.6	3.6	0.00e+00	0	47	104	0	60	100736
2026-01-28 16:16:07.34	118.10	6.12	-54.8	-58.9	3.6	0.00e+00	0	47	104	0	60	104696
2026-01-28 16:16:10.36	117.86	6.36	-54.7	-58.7	3.6	0.00e+00	0	47	104	0	60	102098
2026-01-28 16:16:13.38	117.60	6.60	-53.8	-58.0	3.6	0.00e+00	0	47	104	0	60	94087
2026-01-28 16:16:16.39	117.34	6.85	-54.3	-58.7	3.6	0.00e+00	0	47	104	0	60	102035
2026-01-28 16:16:19.41	117.08	7.09	-53.6	-58.2	3.6	0.00e+00	0	47	104	0	60	96124
2026-01-28 16:16:22.44	116.81	7.35	-53.6	-58.2	3.6	0.00e+00	0	47	104	0	60	96604
2026-01-28 16:16:25.46	116.53	7.60	-53.3	-58.0	3.6	0.00e+00	0	47	104	0	60	94081
2026-01-28 16:16:28.48	116.25	7.86	-53.3	-58.0	3.6	0.00e+00	0	47	104	0	60	93945
2026-01-28 16:16:31.49	115.96	8.12	-55.0	-58.9	3.6	0.00e+00	0	47	104	0	60	103896
2026-01-28 16:16:34.51	115.67	8.38	-54.9	-58.7	3.6	0.00e+00	0	47	104	0	60	101580
2026-01-28 16:16:37.53	115.36	8.65	-53.6	-58.1	3.6	0.00e+00	0	48	104	0	60	95322
2026-01-28 16:16:40.55	115.05	8.91	-54.9	-58.9	3.6	0.00e+00	0	47	104	0	60	103842
2026-01-28 16:16:43.57	114.74	9.19	-54.7	-59.0	3.6	0.00e+00	0	48	104	0	60	105163
2026-01-28 16:16:46.60	114.41	9.46	-54.7	-58.8	3.6	0.00e+00	0	48	104	0	60	102989
2026-01-28 16:16:49.61	114.08	9.74	-54.5	-58.8	3.6	0.00e+00	0	48	104	0	60	102646
2026-01-28 16:16:52.63	113.74	10.02	-53.3	-58.2	3.6	0.00e+00	0	48	104	0	60	95786
2026-01-28 16:16:55.66	113.39	10.31	-53.8	-58.4	3.6	0.00e+00	0	48	104	0	60	98942
2026-01-28 16:16:58.68	113.03	10.60	-53.0	-58.1	3.6	0.00e+00	0	48	104	0	60	95184
2026-01-28 16:17:01.70	112.66	10.89	-52.2	-57.9	3.6	0.00e+00	0	47	104	0	60	93008
2026-01-28 16:17:04.70	112.29	11.19	-52.8	-58.1	3.6	0.00e+00	0	48	104	0	60	95252
2026-01-28 16:17:07.72	111.90	11.49	-51.1	-57.4	3.6	0.00e+00	0	48	104	0	60	88200
2026-01-28 16:17:10.75	111.51	11.79	-53.8	-58.6	3.6	0.00e+00	0	48	104	0	60	100792
2026-01-28 16:17:13.78	111.10	12.10	-54.2	-58.8	3.6	0.00e+00	0	48	104	0	60	102814
2026-01-28 16:17:16.80	110.68	12.41	-52.1	-57.8	3.6	0.00e+00	0	48	104	0	60	91818
2026-01-28 16:17:19.82	110.26	12.73	-53.3	-59.0	3.6	0.00e+00	0	48	104	0	60	104987
2026-01-28 16:17:22.84	109.82	13.05	-53.8	-59.1	3.6	0.00e+00	0	48	104	0	60	106516
2026-01-28 16:17:25.85	109.37	13.37	-54.1	-59.3	3.6	0.00e+00	0	48	104	0	60	109318
2026-01-28 16:17:28.85	108.91	13.69	-55.5	-59.4	3.6	0.00e+00	0	48	104	0	60	110735
2026-01-28 16:17:31.87	108.43	14.02	-52.6	-58.4	3.6	0.00e+00	0	48	104	0	60	98643
2026-01-28 16:17:34.90	107.94	14.36	-56.0	-59.8	3.6	0.00e+00	0	48	104	0	60	115703
2026-01-28 16:17:37.91	107.44	14.70	-56.1	-59.8	3.6	0.00e+00	0	48	104	0	60	115403
2026-01-28 16:17:40.92	106.93	15.04	-55.7	-59.6	3.6	0.00e+00	0	48	104	0	60	112410
2026-01-28 16:17:43.95	106.40	15.39	-55.9	-59.8	3.6	0.00e+00	0	48	104	0	60	115506
2026-01-28 16:17:46.96	105.86	15.74	-55.9	-59.7	3.6	0.00e+00	0	48	104	0	60	114455
2026-01-28 16:17:49.99	105.29	16.10	-55.8	-59.9	3.6	0.00e+00	0	48	104	0	60	116328
2026-01-28 16:17:53.01	104.72	16.46	-56.0	-59.9	3.6	0.00e+00	0	48	104	0	60	117232
2026-01-28 16:17:56.03	104.12	16.83	-55.4	-59.5	3.6	0.00e+00	0	48	104	0	60	111239
2026-01-28 16:17:59.04	103.51	17.20	-54.4	-58.6	3.6	0.00e+00	0	48	104	0	60	101083
2026-01-28 16:18:02.06	102.88	17.57	-54.5	-58.7	3.6	0.00e+00	0	48	104	0	60	101536
2026-01-28 16:18:05.09	102.23	17.95	-54.6	-58.7	3.5	0.00e+00	0	48	104	0	60	101913
2026-01-28 16:18:08.10	101.57	18.33	-55.6	-59.3	3.6	0.00e+00	0	48	104	0	60	108746
2026-01-28 16:18:11.11	100.89	18.71	-55.1	-58.9	3.6	0.00e+00	0	48	104	0	60	104535
2026-01-28 16:18:14.12	100.18	19.10	-55.6	-59.4	3.6	0.00e+00	0	48	104	0	60	110678
2026-01-28 16:18:17.12	99.46	19.49	-55.5	-58.9	3.6	0.00e+00	0	48	104	0	60	104105
2026-01-28 16:18:20.14	98.71	19.89	-53.4	-57.0	3.6	0.00e+00	0	48	104	0	60	83482
2026-01-28 16:18:23.16	97.94	20.29	-54.1	-58.1	3.6	0.00e+00	0	48	104	0	60	94566
2026-01-28 16:18:26.16	97.14	20.69	-55.3	-58.7	3.6	0.00e+00	0	48	104	0	60	102156
2026-01-28 16:18:29.17	96.33	21.09	-54.4	-58.1	3.6	0.00e+00	0	48	104	0	60	95293
2026-01-28 16:18:32.20	95.48	21.50	-53.9	-57.7	3.6	0.00e+00	0	48	104	0	60	90826
2026-01-28 16:18:35.21	94.61	21.90	-54.3	-58.4	3.6	0.00e+00	0	48	104	0	60	98817
2026-01-28 16:18:38.23	93.71	22.31	-52.7	-56.6	3.6	0.00e+00	0	48	104	0	60	79661
2026-01-28 16:18:41.26	92.79	22.73	-53.0	-56.8	3.6	0.00e+00	0	48	104	0	60	81626
2026-01-28 16:18:44.28	91.83	23.14	-52.6	-56.1	3.6	0.00e+00	0	48	104	0	60	75832
2026-01-28 16:18:47.29	90.86	23.55	-54.9	-58.2	3.6	0.00e+00	0	48	104	0	60	96062
2026-01-28 16:18:50.30	89.85	23.96	-54.3	-58.2	3.6	0.00e+00	0	48	104	0	60	95802
2026-01-28 16:18:53.32	88.81	24.37	-55.4	-58.6	3.6	0.00e+00	0	48	104	0	60	100702
2026-01-28 16:18:56.34	87.74	24.78	-55.4	-59.1	3.6	0.00e+00	0	48	104	0	60	106272
2026-01-28 16:18:59.36	86.64	25.19	-55.4	-59.0	3.6	0.00e+00	0	48	104	0	60	104866
2026-01-28 16:19:02.37	85.51	25.59	-55.2	-58.7	3.6	0.00e+00	0	48	104	0	60	101372
2026-01-28 16:19:05.39	84.34	25.99	-54.3	-57.3	3.6	0.00e+00	0	48	104	0	60	86820
2026-01-28 16:19:08.40	83.14	26.38	-54.4	-58.1	3.6	0.00e+00	0	48	104	0	60	94550
2026-01-28 16:19:11.42	81.91	26.76	-54.2	-57.4	3.6	0.00e+00	0	48	104	0	60	87475
2026-01-28 16:19:14.45	80.64	27.14	-54.7	-58.4	3.6	0.00e+00	0	48	104	0	60	98537
2026-01-28 16:19:17.46	79.35	27.51	-55.4	-58.7	3.6	0.00e+00	0	48	104	0	60	102255
2026-01-28 16:19:20.47	78.02	27.87	-55.6	-58.5	3.6	0.00e+00	0	48	104	0	60	100129
2026-01-28 16:19:23.49	76.66	28.22	-56.0	-58.9	3.6	0.00e+00	0	48	104	0	60	104299
2026-01-28 16:19:26.51	75.27	28.56	-55.1	-58.4	3.6	0.00e+00	0	48	104	0	60	97929
2026-01-28 16:19:29.54	73.83	28.89	-55.6	-58.5	3.6	0.00e+00	0	48	104	0	60	99282
2026-01-28 16:19:32.56	72.37	29.20	-55.6	-58.5	3.6	0.00e+00	0	48	104	0	60	100050
2026-01-28 16:19:35.57	70.89	29.49	-55.8	-58.8	3.6	0.00e+00	0	48	104	0	60	103051
2026-01-28 16:19:38.59	69.37	29.77	-55.9	-59.0	3.6	0.00e+00	0	48	104	0	60	105435
2026-01-28 16:19:41.62	67.82	30.03	-55.1	-58.2	3.6	0.00e+00	0	48	104	0	60	95990
2026-01-28 16:19:44.63	66.26	30.27	-55.1	-58.3	3.6	0.00e+00	0	48	104	0	60	97097
2026-01-28 16:19:47.65	64.66	30.49	-55.5	-58.6	3.6	0.00e+00	0	48	104	0	60	100693
2026-01-28 16:19:50.67	63.04	30.69	-54.5	-57.6	3.6	0.00e+00	0	48	104	0	60	89799
2026-01-28 16:19:53.69	61.41	30.86	-55.5	-58.4	3.6	0.00e+00	0	48	104	0	60	98758
2026-01-28 16:19:56.71	59.75	31.01	-55.0	-57.9	3.6	0.00e+00	0	48	104	0	60	92391
2026-01-28 16:19:59.74	58.07	31.14	-54.8	-58.2	3.6	0.00e+00	0	48	104	0	60	96345
2026-01-28 16:20:02.76	56.39	31.24	-54.8	-58.1	3.6	0.00e+00	0	48	104	0	60	95435
2026-01-28 16:20:05.77	54.70	31.31	-53.9	-57.7	3.6	0.00e+00	0	48	104	0	60	91000
2026-01-28 16:20:08.78	53.01	31.36	-56.1	-60.3	3.5	0.00e+00	0	48	104	0	60	122227
2026-01-28 16:20:11.79	51.31	31.38	-56.7	-60.2	3.6	0.00e+00	0	48	104	0	60	121202
2026-01-28 16:20:14.81	49.61	31.37	-56.9	-60.2	3.6	0.00e+00	0	48	104	0	60	120923
2026-01-28 16:20:17.82	47.91	31.34	-57.0	-60.6	3.6	0.00e+00	0	48	104	0	60	126722
2026-01-28 16:20:20.84	46.22	31.28	-54.1	-58.6	3.6	0.00e+00	0	48	104	0	60	100739
2026-01-28 16:20:23.85	44.53	31.20	-55.4	-59.9	3.6	0.00e+00	0	48	104	0	60	116609
2026-01-28 16:20:26.86	42.86	31.09	-53.8	-59.0	3.6	0.00e+00	0	48	104	0	60	105401
2026-01-28 16:20:29.88	41.20	30.95	-53.6	-58.9	3.6	0.00e+00	0	48	104	0	60	103856
2026-01-28 16:20:32.90	39.55	30.79	-53.0	-58.1	3.6	0.00e+00	0	48	104	0	60	94677
2026-01-28 16:20:35.92	37.92	30.61	-54.2	-58.4	3.6	0.00e+00	0	48	104	0	60	98554
2026-01-28 16:20:38.93	36.32	30.40	-53.1	-57.8	3.6	0.00e+00	0	48	104	0	60	91667
2026-01-28 16:20:41.95	34.74	30.18	-53.1	-58.0	3.6	0.00e+00	0	48	104	0	60	93660
2026-01-28 16:20:44.96	33.18	29.93	-55.7	-59.2	3.6	0.00e+00	0	48	104	0	60	107347
2026-01-28 16:20:47.98	31.65	29.67	-55.1	-58.7	3.6	0.00e+00	0	48	104	0	60	101556
2026-01-28 16:20:51.00	30.15	29.38	-54.7	-58.5	3.6	0.00e+00	0	48	104	0	60	99043
2026-01-28 16:20:54.01	28.68	29.08	-55.8	-59.7	3.6	0.00e+00	0	48	104	0	60	114609
2026-01-28 16:20:57.02	27.24	28.77	-55.6	-59.4	3.6	0.00e+00	0	48	104	0	60	110528
2026-01-28 16:21:00.03	25.84	28.44	-55.8	-59.5	3.6	0.00e+00	0	48	104	0	60	111834
2026-01-28 16:21:03.05	24.46	28.10	-53.5	-58.9	3.6	0.00e+00	0	48	104	0	60	104123
2026-01-28 16:21:06.07	23.11	27.74	-56.3	-60.2	3.6	0.00e+00	0	48	104	0	60	120418
2026-01-28 16:21:09.09	21.79	27.38	-54.2	-59.6	3.6	0.00e+00	0	48	104	0	60	113262
2026-01-28 16:21:12.12	20.51	27.01	-53.4	-59.2	3.6	0.00e+00	0	49	104	0	60	108394
2026-01-28 16:21:15.14	19.26	26.62	-56.1	-60.0	3.6	0.00e+00	0	48	104	0	60	117652
2026-01-28 16:21:18.15	18.05	26.24	-54.0	-58.1	3.6	0.00e+00	0	48	104	0	60	95353
2026-01-28 16:21:21.18	16.86	25.84	-52.6	-57.1	3.6	0.00e+00	0	49	104	0	60	84572
2026-01-28 16:21:24.20	15.71	25.44	-52.8	-57.5	3.6	0.00e+00	0	49	104	0	60	88438
2026-01-28 16:21:27.22	14.59	25.04	-53.3	-57.0	3.6	0.00e+00	0	48	104	0	60	83989
2026-01-28 16:21:30.24	13.51	24.64	-53.3	-57.4	3.6	0.00e+00	0	48	104	0	60	87948
2026-01-28 16:21:33.25	12.46	24.23	-54.3	-58.3	3.6	0.00e+00	0	48	104	0	60	97625
2026-01-28 16:21:36.26	11.44	23.82	-54.1	-57.9	3.6	0.00e+00	0	48	104	0	60	92588
2026-01-28 16:21:39.28	10.44	23.41	-54.0	-57.4	3.6	0.00e+00	0	49	104	0	60	87497
2026-01-28 16:21:42.30	9.47	23.00	-54.7	-58.4	3.6	0.00e+00	0	48	104	0	60	98549
2026-01-28 16:21:45.32	8.54	22.59	-53.8	-57.0	3.6	0.00e+00	0	48	104	0	60	83877
2026-01-28 16:21:48.33	7.63	22.18	-53.9	-58.7	3.6	0.00e+00	0	48	104	0	60	101469
2026-01-28 16:21:51.35	6.74	21.77	-55.2	-58.4	3.6	0.00e+00	0	48	104	0	60	98841
2026-01-28 16:21:54.36	5.89	21.37	-53.7	-58.7	3.6	0.00e+00	0	48	104	0	60	101294
2026-01-28 16:21:57.39	5.05	20.96	-56.1	-59.8	3.6	0.00e+00	0	48	104	0	60	115234
2026-01-28 16:22:00.41	4.25	20.56	-55.3	-58.7	3.6	0.00e+00	0	48	104	0	60	102361
2026-01-28 16:22:03.43	3.46	20.16	-55.2	-58.8	3.6	0.00e+00	0	48	104	0	60	102530
2026-01-28 16:22:06.44	2.71	19.77	-55.1	-58.5	3.6	0.00e+00	0	48	104	0	60	99780
2026-01-28 16:22:09.46	1.97	19.37	-54.3	-58.4	3.6	0.00e+00	0	48	104	0	60	98581
2026-01-28 16:22:12.48	1.25	18.99	-54.9	-58.8	3.6	0.00e+00	0	49	104	0	60	102672
2026-01-28 16:22:15.50	0.55	18.60	-55.1	-58.8	3.6	0.00e+00	0	48	104	0	60	102834
2026-01-28 16:22:18.52	359.88	18.22	-55.3	-59.0	3.6	0.00e+00	0	49	104	0	60	105634
2026-01-28 16:22:21.55	359.22	17.84	-55.2	-58.7	3.6	0.00e+00	0	48	104	0	60	102225
2026-01-28 16:22:24.56	358.59	17.46	-55.4	-58.9	3.6	0.00e+00	0	49	104	0	60	103771
2026-01-28 16:22:27.58	357.97	17.09	-55.9	-59.5	3.6	0.00e+00	0	49	104	0	60	111697
2026-01-28 16:22:30.61	357.36	16.73	-55.9	-59.5	3.6	0.00e+00	0	49	104	0	60	111358
2026-01-28 16:22:33.63	356.78	16.36	-55.6	-59.1	3.6	0.00e+00	0	48	104	0	60	106944
2026-01-28 16:22:36.65	356.21	16.01	-55.7	-59.5	3.6	0.00e+00	0	48	104	0	60	111823
2026-01-28 16:22:39.66	355.66	15.65	-55.7	-59.5	3.6	0.00e+00	0	48	104	0	60	111506
2026-01-28 16:22:42.68	355.12	15.30	-55.9	-59.7	3.6	0.00e+00	0	48	104	0	60	114940
2026-01-28 16:22:45.69	354.60	14.96	-55.4	-59.3	3.6	0.00e+00	0	48	104	0	60	109606
2026-01-28 16:22:48.72	354.09	14.62	-55.0	-59.1	3.6	0.00e+00	0	49	104	0	60	106455
2026-01-28 16:22:51.73	353.60	14.28	-55.2	-59.0	3.6	0.00e+00	0	48	104	0	60	105126
2026-01-28 16:22:54.75	353.12	13.95	-54.5	-58.5	3.6	0.00e+00	0	48	104	0	60	99014
2026-01-28 16:22:57.76	352.66	13.62	-54.4	-58.4	3.6	0.00e+00	0	48	104	0	60	98514
2026-01-28 16:23:00.78	352.20	13.30	-54.7	-58.5	3.6	0.00e+00	0	49	104	0	60	99927
2026-01-28 16:23:03.81	351.76	12.98	-54.4	-58.4	3.6	0.00e+00	0	49	104	0	60	98627
2026-01-28 16:23:06.83	351.32	12.66	-54.4	-58.4	3.6	0.00e+00	0	48	104	0	60	98485
2026-01-28 16:23:09.85	350.90	12.35	-54.8	-58.5	3.6	0.00e+00	0	48	104	0	60	99456
2026-01-28 16:23:12.86	350.49	12.04	-54.3	-58.3	3.5	0.00e+00	0	48	104	0	60	97207
2026-01-28 16:23:15.87	350.10	11.74	-54.7	-58.4	3.6	0.00e+00	0	48	104	0	60	98657
2026-01-28 16:23:18.88	349.71	11.43	-54.5	-58.3	3.6	0.00e+00	0	48	104	0	60	96956
2026-01-28 16:23:21.90	349.33	11.14	-54.7	-58.5	3.6	0.00e+00	0	48	104	0	60	99831
2026-01-28 16:23:24.92	348.96	10.84	-53.0	-57.8	3.6	0.00e+00	0	48	104	0	60	91390
2026-01-28 16:23:27.93	348.60	10.55	-54.5	-58.3	3.6	0.00e+00	0	48	104	0	60	96899
2026-01-28 16:23:30.95	348.25	10.27	-54.1	-58.2	3.6	0.00e+00	0	48	104	0	60	95858
2026-01-28 16:23:33.96	347.90	9.98	-54.5	-58.1	3.6	0.00e+00	0	48	104	0	60	95457
2026-01-28 16:23:36.99	347.57	9.70	-54.4	-58.2	3.6	0.00e+00	0	49	104	0	60	95797
2026-01-28 16:23:40.01	347.24	9.43	-54.2	-58.0	3.6	0.00e+00	0	48	104	0	60	93557
2026-01-28 16:23:43.01	346.92	9.16	-54.4	-58.1	3.6	0.00e+00	0	48	104	0	60	94687
2026-01-28 16:23:46.02	346.61	8.89	-54.1	-57.9	3.6	0.00e+00	0	48	104	0	60	92983
2026-01-28 16:23:49.04	346.31	8.62	-54.2	-57.9	3.6	0.00e+00	0	48	104	0	60	93200
2026-01-28 16:23:52.06	346.01	8.36	-54.1	-57.9	3.6	0.00e+00	0	49	104	0	60	93382
2026-01-28 16:23:55.08	345.72	8.09	-54.3	-58.0	3.6	0.00e+00	0	49	104	0	60	93664
2026-01-28 16:23:58.09	345.43	7.84	-48.0	-55.1	3.6	0.00e+00	0	49	104	0	60	67255
2026-01-28 16:24:01.10	345.15	7.58	-49.4	-55.7	3.6	0.00e+00	0	48	104	0	60	72526
2026-01-28 16:24:04.13	344.88	7.33	-49.3	-55.7	3.5	0.00e+00	0	48	104	0	60	72107
2026-01-28 16:24:07.14	344.62	7.08	-53.9	-57.8	3.6	0.00e+00	0	48	104	0	60	92374
2026-01-28 16:24:10.15	344.36	6.83	-51.1	-57.0	3.6	0.00e+00	0	49	104	0	60	83465
2026-01-28 16:24:13.17	344.10	6.59	-50.5	-56.4	3.5	0.00e+00	0	49	104	0	60	78507
2026-01-28 16:24:16.19	343.85	6.35	-49.6	-56.0	3.6	0.00e+00	0	49	104	0	60	74683
2026-01-28 16:24:19.20	343.61	6.11	-50.1	-56.4	3.6	0.00e+00	0	49	104	0	60	78017
2026-01-28 16:24:22.22	343.37	5.87	-54.7	-58.7	3.6	0.00e+00	0	48	104	0	60	102084
2026-01-28 16:24:25.24	343.14	5.64	-56.0	-59.6	3.5	0.00e+00	0	49	104	0	60	113003
2026-01-28 16:24:28.26	342.91	5.41	-56.5	-60.2	3.6	0.00e+00	0	48	104	0	60	121731
2026-01-28 16:24:31.28	342.69	5.18	-45.4	-46.1	4.6	0.00e+00	0	48	104	0	60	23853
2026-01-28 16:24:34.29	342.47	4.95	-56.9	-60.5	3.6	0.00e+00	0	48	104	0	60	124759
2026-01-28 16:24:37.31	342.25	4.72	-56.4	-61.0	3.6	0.00e+00	0	49	104	0	60	133213
2026-01-28 16:24:40.32	342.04	4.50	-56.3	-60.4	3.6	0.00e+00	0	48	104	0	60	123568
2026-01-28 16:24:43.34	341.84	4.28	-56.1	-60.3	3.6	0.00e+00	0	48	104	0	60	122094
2026-01-28 16:24:46.36	341.63	4.06	-56.0	-60.1	3.6	0.00e+00	0	48	104	0	60	120373
2026-01-28 16:24:49.38	341.43	3.84	-56.0	-60.2	3.6	0.00e+00	0	48	104	0	60	120680
2026-01-28 16:24:52.40	341.24	3.63	-56.0	-60.1	3.6	0.00e+00	0	48	104	0	60	120007
2026-01-28 16:24:55.41	341.05	3.42	-56.0	-60.2	3.6	0.00e+00	0	48	104	0	60	120640
2026-01-28 16:24:58.43	340.86	3.21	-56.0	-60.1	3.6	0.00e+00	0	48	104	0	60	120214
2026-01-28 16:25:01.46	340.68	3.00	-56.0	-60.1	3.6	0.00e+00	0	49	104	0	60	120227
2026-01-28 16:25:04.48	340.50	2.79	-55.9	-60.1	3.6	0.00e+00	0	48	104	0	60	119861
2026-01-28 16:25:07.49	340.32	2.58	-55.9	-60.1	3.6	0.00e+00	0	49	104	0	60	119575
2026-01-28 16:25:10.51	340.15	2.38	-55.9	-60.1	3.5	0.00e+00	0	49	104	0	60	119544
2026-01-28 16:25:13.53	339.98	2.18	-55.9	-60.0	3.6	0.00e+00	0	48	104	0	60	118788
2026-01-28 16:25:16.55	339.81	1.98	-55.9	-60.0	3.6	0.00e+00	0	49	104	0	60	118145
2026-01-28 16:25:19.57	339.65	1.78	-55.9	-60.0	3.6	0.00e+00	0	48	104	0	60	118670
2026-01-28 16:25:22.59	339.49	1.58	-55.9	-60.0	3.6	0.00e+00	0	49	104	0	60	118553
2026-01-28 16:25:25.61	339.33	1.38	-55.9	-60.0	3.6	0.00e+00	0	49	104	0	60	118005
2026-01-28 16:25:28.63	339.18	1.19	-55.9	-60.0	3.6	0.00e+00	0	48	104	0	60	117729
2026-01-28 16:25:31.64	339.02	1.00	-55.9	-60.0	3.6	0.00e+00	0	48	104	0	60	118253
2026-01-28 16:25:34.67	338.87	0.81	-55.9	-59.9	3.6	0.00e+00	0	48	104	0	60	116954
2026-01-28 16:25:37.69	338.73	0.62	-55.9	-59.9	3.6	0.00e+00	0	48	104	0	60	117457
2026-01-28 16:25:40.71	338.58	0.43	-55.8	-59.9	3.6	0.00e+00	0	49	104	0	60	117326
2026-01-28 16:25:43.73	338.44	0.24	-55.8	-59.9	3.6	0.00e+00	0	48	104	0	60	116870
2026-01-28 16:25:46.74	338.30	0.05	-55.7	-59.8	3.6	0.00e+00	0	48	104	0	60	115659

#Closed at: 2026-01-28 16:25:47
#Recorded file [0 MB]: D:/Data/35015_260128_191439.dat