passes_logs/2026/01/28/R3.2S-Naryan-Mar/R3.2S-Naryan-Mar__20260128_210729_NOAA_20_JPSS-1_rec.log

#Pass ID: 20260128_210729_NOAA 20 (JPSS-1)
#Satellite: NOAA 20 (JPSS-1)
#Configuration: NOAA 20
#almurnet v.1.7.20240730
#Start time: 2026-01-28 21:07:30

#Version: 2.2.20231116
#Station: R3.2S-Naryan-Mar
#Location: 53.008057 lon 67.646978 lat
#TLE: 1 43013U 17073A   26027.80586608  .00000156  00000+0  94940-4 0  9998
#TLE: 2 43013  98.7647 328.6108 0000947  21.3465 338.7750 14.19541216424550

#Time	Az	El	Level	Level2	SNR	BER	BlckErr	Temp	State	Recorded	gain1	gain2
2026-01-28 21:07:30.47	17.32	0.05	-62.0	-78.2	3.5	1.51e+00	0	44	0	0	60	319916
2026-01-28 21:07:34.49	17.56	0.26	-62.0	-78.4	3.6	1.51e+00	0	45	104	0	60	326642
2026-01-28 21:07:38.51	17.80	0.47	-61.5	-78.0	3.6	1.51e+00	0	45	104	0	60	312160
2026-01-28 21:07:42.54	18.05	0.69	-60.8	-77.8	3.6	1.51e+00	0	45	104	0	60	303298
2026-01-28 21:07:46.58	18.30	0.91	-60.2	-77.0	3.6	1.51e+00	0	45	104	0	60	277844
2026-01-28 21:07:50.60	18.56	1.12	-56.6	-75.7	3.6	1.51e+00	0	45	104	0	60	238554
2026-01-28 21:07:54.63	18.81	1.34	-56.6	-75.7	3.6	1.51e+00	0	45	104	0	60	238149
2026-01-28 21:07:58.66	19.08	1.56	-56.5	-75.5	3.6	1.51e+00	0	45	104	0	60	233994
2026-01-28 21:08:02.70	19.34	1.79	-56.6	-75.8	3.6	1.51e+00	0	45	104	0	60	241309
2026-01-28 21:08:06.72	19.61	2.01	-56.4	-75.5	3.6	1.51e+00	0	46	104	0	60	233830
2026-01-28 21:08:10.74	19.88	2.23	-56.4	-75.5	3.6	1.51e+00	0	46	104	0	60	233890
2026-01-28 21:08:14.75	20.15	2.46	-56.3	-75.5	3.6	1.51e+00	0	46	104	0	60	234672
2026-01-28 21:08:18.78	20.43	2.68	-56.2	-75.5	3.6	1.51e+00	0	46	104	0	60	232658
2026-01-28 21:08:22.81	20.72	2.91	-56.2	-75.6	3.6	1.51e+00	0	46	104	0	60	235516
2026-01-28 21:08:26.83	21.00	3.14	-56.2	-75.4	3.6	1.51e+00	0	46	104	0	60	231881
2026-01-28 21:08:30.85	21.30	3.37	-55.9	-75.1	3.6	1.51e+00	0	46	104	0	60	222878
2026-01-28 21:08:34.88	21.59	3.60	-55.8	-75.0	3.6	1.51e+00	0	46	104	0	60	219646
2026-01-28 21:08:38.91	21.89	3.84	-55.9	-75.0	3.6	1.51e+00	0	46	104	0	60	220860
2026-01-28 21:08:42.94	22.20	4.07	-55.7	-75.3	3.6	1.51e+00	0	46	104	0	60	228845
2026-01-28 21:08:46.95	22.51	4.31	-55.6	-75.0	3.6	1.51e+00	0	46	104	0	60	221493
2026-01-28 21:08:50.98	22.82	4.55	-55.6	-75.3	3.6	1.51e+00	0	46	104	0	60	228596
2026-01-28 21:08:55.02	23.14	4.79	-55.6	-75.0	3.6	1.51e+00	0	46	104	0	60	220714
2026-01-28 21:08:59.05	23.47	5.03	-55.6	-75.0	3.6	1.51e+00	0	46	104	0	60	220516
2026-01-28 21:09:03.07	23.80	5.27	-55.6	-75.0	3.6	1.51e+00	0	46	104	0	60	220503
2026-01-28 21:09:07.09	24.13	5.51	-55.4	-75.1	3.6	1.51e+00	0	46	104	0	60	222345
2026-01-28 21:09:11.12	24.47	5.76	-55.3	-74.8	3.6	1.51e+00	0	46	104	0	60	216081
2026-01-28 21:09:15.15	24.82	6.00	-55.2	-73.7	3.6	1.51e+00	0	46	104	0	60	189676
2026-01-28 21:09:19.17	25.17	6.25	-58.7	-65.0	9.8	1.51e+00	0	46	104	0	60	69940
2026-01-28 21:09:23.19	25.52	6.50	-57.7	-61.9	13.4	3.58e-05	0	46	0	2097152	60	48634
2026-01-28 21:09:27.22	25.88	6.75	-56.7	-59.6	16.0	0.00e+00	0	46	0	9437184	60	37341
2026-01-28 21:09:31.25	26.25	7.00	-55.7	-58.1	17.4	0.00e+00	0	46	0	17825792	60	31513
2026-01-28 21:09:35.28	26.63	7.26	-55.2	-57.7	17.7	0.00e+00	0	46	0	25165824	60	30039
2026-01-28 21:09:39.30	27.01	7.51	-54.7	-57.2	18.0	0.00e+00	0	46	0	32505856	60	28446
2026-01-28 21:09:43.33	27.40	7.77	-55.1	-57.2	18.2	0.00e+00	0	46	0	39845888	60	28296
2026-01-28 21:09:47.35	27.79	8.03	-54.9	-57.1	18.4	0.00e+00	0	46	0	47185920	60	28047
2026-01-28 21:09:51.37	28.19	8.29	-54.5	-57.2	18.1	0.00e+00	0	46	0	54525952	60	28260
2026-01-28 21:09:55.40	28.60	8.55	-54.4	-57.2	18.1	0.00e+00	0	46	0	62914560	60	28274
2026-01-28 21:09:59.43	29.01	8.82	-54.7	-57.1	18.3	0.00e+00	0	46	0	70254592	60	28102
2026-01-28 21:10:03.46	29.43	9.08	-55.0	-57.1	18.4	0.00e+00	0	46	0	77594624	60	27899
2026-01-28 21:10:07.49	29.86	9.35	-55.0	-57.0	18.5	0.00e+00	0	46	0	84934656	60	27750
2026-01-28 21:10:11.52	30.30	9.62	-55.1	-57.1	18.5	0.00e+00	0	46	0	93323264	60	28019
2026-01-28 21:10:15.55	30.74	9.89	-54.4	-56.8	18.6	0.00e+00	0	46	0	100663296	60	27099
2026-01-28 21:10:19.58	31.19	10.16	-54.6	-56.6	19.0	0.00e+00	0	46	0	108003328	60	26551
2026-01-28 21:10:23.61	31.65	10.43	-54.7	-56.6	18.9	0.00e+00	0	46	0	115343360	60	26400
2026-01-28 21:10:27.64	32.12	10.71	-54.4	-56.3	19.4	0.00e+00	0	46	0	122683392	60	25450
2026-01-28 21:10:31.66	32.60	10.98	-54.2	-56.0	19.6	0.00e+00	0	46	0	131072000	60	24657
2026-01-28 21:10:35.69	33.09	11.26	-54.3	-56.1	19.4	0.00e+00	0	46	0	138412032	60	25015
2026-01-28 21:10:39.71	33.58	11.53	-54.4	-56.3	19.3	0.00e+00	0	46	0	145752064	60	25482
2026-01-28 21:10:43.73	34.08	11.81	-54.2	-55.9	19.6	0.00e+00	0	46	0	153092096	60	24567
2026-01-28 21:10:47.75	34.59	12.09	-54.2	-55.8	19.8	0.00e+00	0	46	0	160432128	60	24293
2026-01-28 21:10:51.78	35.12	12.38	-54.4	-56.1	19.6	0.00e+00	0	46	0	167772160	60	25025
2026-01-28 21:10:55.80	35.65	12.66	-54.2	-56.0	19.7	0.00e+00	0	46	0	176160768	60	24755
2026-01-28 21:10:59.82	36.19	12.94	-54.1	-55.8	19.9	0.00e+00	0	46	0	183500800	60	24149
2026-01-28 21:11:03.85	36.74	13.23	-54.2	-56.0	19.6	0.00e+00	0	46	0	190840832	60	24624
2026-01-28 21:11:07.88	37.30	13.51	-54.1	-55.8	19.8	0.00e+00	0	46	0	198180864	60	24120
2026-01-28 21:11:11.90	37.88	13.80	-53.9	-55.8	19.7	0.00e+00	0	46	0	206569472	60	24117
2026-01-28 21:11:15.91	38.46	14.09	-53.9	-55.4	20.1	0.00e+00	0	46	0	213909504	60	23154
2026-01-28 21:11:19.92	39.05	14.37	-53.9	-55.5	20.1	0.00e+00	0	46	0	221249536	60	23336
2026-01-28 21:11:23.96	39.66	14.66	-53.8	-55.5	20.1	0.00e+00	0	46	0	228589568	60	23289
2026-01-28 21:11:27.98	40.28	14.95	-54.0	-55.7	20.0	0.00e+00	0	46	0	235929600	60	23746
2026-01-28 21:11:32.00	40.90	15.24	-53.9	-55.7	19.9	0.00e+00	0	46	0	244318208	60	23751
2026-01-28 21:11:36.02	41.54	15.53	-54.2	-55.8	19.9	0.00e+00	0	46	0	251658240	60	24137
2026-01-28 21:11:40.05	42.20	15.82	-54.0	-55.6	20.2	0.00e+00	0	46	0	258998272	60	23514
2026-01-28 21:11:44.08	42.86	16.11	-54.0	-55.6	20.3	0.00e+00	0	46	0	266338304	60	23488
2026-01-28 21:11:48.11	43.54	16.40	-54.1	-55.8	19.9	0.00e+00	0	46	0	273678336	60	24138
2026-01-28 21:11:52.13	44.23	16.69	-53.7	-55.4	20.3	0.00e+00	0	46	0	281018368	60	23167
2026-01-28 21:11:56.16	44.94	16.98	-53.5	-55.2	20.5	0.00e+00	0	46	0	289406976	60	22640
2026-01-28 21:12:00.18	45.65	17.27	-53.8	-55.4	20.5	0.00e+00	0	46	0	296747008	60	22947
2026-01-28 21:12:04.20	46.38	17.55	-53.4	-55.0	20.7	0.00e+00	0	46	0	304087040	60	22052
2026-01-28 21:12:08.23	47.13	17.84	-53.3	-54.9	20.7	0.00e+00	0	46	0	311427072	60	21801
2026-01-28 21:12:12.26	47.89	18.13	-53.6	-55.1	20.7	0.00e+00	0	46	0	318767104	60	22300
2026-01-28 21:12:16.29	48.66	18.41	-52.9	-54.5	21.2	0.00e+00	0	46	0	327155712	60	20797
2026-01-28 21:12:20.33	49.45	18.69	-52.6	-54.6	20.8	0.00e+00	0	46	0	334495744	60	21001
2026-01-28 21:12:24.35	50.25	18.97	-52.9	-54.8	20.4	0.00e+00	0	46	0	341835776	60	21566
2026-01-28 21:12:28.38	51.07	19.25	-53.2	-54.5	21.3	0.00e+00	0	46	0	349175808	60	20913
2026-01-28 21:12:32.41	51.90	19.52	-53.4	-54.9	20.9	0.00e+00	0	46	0	357564416	60	21741
2026-01-28 21:12:36.43	52.74	19.79	-53.5	-55.0	21.0	0.00e+00	0	46	0	364904448	60	21931
2026-01-28 21:12:40.46	53.60	20.06	-53.8	-55.3	20.4	0.00e+00	0	46	0	372244480	60	22740
2026-01-28 21:12:44.49	54.47	20.33	-54.0	-56.1	19.6	0.00e+00	0	46	0	379584512	60	25105
2026-01-28 21:12:48.52	55.36	20.59	-54.4	-56.1	20.0	0.00e+00	0	46	0	386924544	60	24924
2026-01-28 21:12:52.54	56.26	20.84	-54.7	-56.6	19.5	0.00e+00	0	46	0	395313152	60	26450
2026-01-28 21:12:56.57	57.18	21.09	-55.2	-57.2	19.0	0.00e+00	0	46	0	402653184	60	28479
2026-01-28 21:13:00.59	58.11	21.34	-54.8	-56.8	19.3	0.00e+00	0	46	0	409993216	60	27251
2026-01-28 21:13:04.62	59.06	21.58	-54.5	-56.4	20.0	0.00e+00	0	46	0	417333248	60	25790
2026-01-28 21:13:08.65	60.02	21.82	-55.0	-56.5	20.1	0.00e+00	0	46	0	424673280	60	26301
2026-01-28 21:13:12.67	61.00	22.05	-54.9	-56.5	20.2	0.00e+00	0	46	0	432013312	60	26107
2026-01-28 21:13:16.69	61.98	22.27	-54.6	-56.4	19.9	0.00e+00	0	46	0	440401920	60	25996
2026-01-28 21:13:20.72	62.99	22.49	-55.5	-57.3	19.6	0.00e+00	0	46	0	447741952	60	28757
2026-01-28 21:13:24.74	64.00	22.70	-55.8	-57.6	19.5	0.00e+00	0	46	0	455081984	60	29869
2026-01-28 21:13:28.77	65.03	22.90	-55.7	-57.5	19.6	0.00e+00	0	46	0	462422016	60	29258
2026-01-28 21:13:32.79	66.08	23.09	-55.8	-57.5	19.9	0.00e+00	0	46	0	470810624	60	29263
2026-01-28 21:13:36.82	67.13	23.28	-56.1	-57.8	19.7	0.00e+00	0	46	0	478150656	60	30379
2026-01-28 21:13:40.85	68.20	23.46	-55.6	-57.3	19.8	0.00e+00	0	46	0	485490688	60	28669
2026-01-28 21:13:44.86	69.28	23.62	-55.9	-57.6	19.7	0.00e+00	0	46	0	492830720	60	29859
2026-01-28 21:13:48.88	70.37	23.78	-56.4	-58.2	19.1	0.00e+00	0	46	0	500170752	60	31947
2026-01-28 21:13:52.90	71.47	23.93	-56.2	-58.0	19.2	0.00e+00	0	46	0	508559360	60	31138
2026-01-28 21:13:56.93	72.58	24.07	-56.3	-58.1	19.2	0.00e+00	0	46	0	515899392	60	31528
2026-01-28 21:14:00.95	73.70	24.20	-56.5	-58.4	18.9	0.00e+00	0	46	0	523239424	60	32493
2026-01-28 21:14:04.96	74.82	24.31	-55.6	-57.4	19.9	0.00e+00	0	46	0	530579456	60	29041
2026-01-28 21:14:08.99	75.96	24.42	-55.0	-56.4	20.7	0.00e+00	0	46	0	537919488	60	25958
2026-01-28 21:14:13.02	77.11	24.52	-55.2	-56.8	20.3	0.00e+00	0	46	0	545259520	60	27127
2026-01-28 21:14:17.03	78.25	24.60	-55.1	-56.7	20.4	0.00e+00	0	46	0	553648128	60	26918
2026-01-28 21:14:21.04	79.40	24.67	-55.5	-57.2	19.9	0.00e+00	0	46	0	560988160	60	28493
2026-01-28 21:14:25.07	80.57	24.73	-55.9	-57.6	19.7	0.00e+00	0	46	0	568328192	60	29614
2026-01-28 21:14:29.09	81.73	24.78	-55.6	-57.3	19.9	0.00e+00	0	46	0	575668224	60	28548
2026-01-28 21:14:33.11	82.90	24.81	-55.5	-57.1	20.1	0.00e+00	0	46	0	583008256	60	27967
2026-01-28 21:14:37.13	84.07	24.84	-56.5	-58.1	20.2	0.00e+00	0	46	0	591396864	60	31601
2026-01-28 21:14:41.16	85.24	24.85	-56.3	-57.9	20.1	0.00e+00	0	46	0	598736896	60	30748
2026-01-28 21:14:45.19	86.41	24.85	-56.4	-58.1	19.8	0.00e+00	0	46	0	606076928	60	31484
2026-01-28 21:14:49.22	87.59	24.83	-55.5	-56.9	20.8	0.00e+00	0	46	0	613416960	60	27575
2026-01-28 21:14:53.24	88.76	24.81	-55.4	-57.0	20.8	0.00e+00	0	46	0	620756992	60	27599
2026-01-28 21:14:57.27	89.93	24.77	-56.7	-58.5	19.2	0.00e+00	0	46	0	628097024	60	32966
2026-01-28 21:15:01.30	91.09	24.72	-56.3	-58.0	19.4	0.00e+00	0	46	0	636485632	60	31273
2026-01-28 21:15:05.32	92.25	24.66	-55.3	-56.8	20.7	0.00e+00	0	46	0	643825664	60	26964
2026-01-28 21:15:09.34	93.41	24.58	-55.6	-57.2	20.2	0.00e+00	0	46	0	651165696	60	28489
2026-01-28 21:15:13.38	94.56	24.49	-55.7	-57.3	20.3	0.00e+00	0	46	0	658505728	60	28705
2026-01-28 21:15:17.41	95.71	24.40	-55.9	-57.6	20.0	0.00e+00	0	46	0	666894336	60	29614
2026-01-28 21:15:21.44	96.84	24.29	-55.5	-57.0	20.5	0.00e+00	0	46	0	674234368	60	27742
2026-01-28 21:15:25.45	97.97	24.17	-55.1	-56.6	20.8	0.00e+00	0	46	0	681574400	60	26384
2026-01-28 21:15:29.48	99.09	24.04	-54.6	-56.1	21.1	0.00e+00	0	46	0	688914432	60	25146
2026-01-28 21:15:33.52	100.21	23.89	-54.4	-55.8	21.4	0.00e+00	0	46	0	696254464	60	24135
2026-01-28 21:15:37.55	101.31	23.74	-54.0	-55.3	21.7	0.00e+00	0	46	0	704643072	60	22846
2026-01-28 21:15:41.57	102.40	23.58	-53.8	-55.1	21.7	0.00e+00	0	46	0	711983104	60	22268
2026-01-28 21:15:45.60	103.48	23.41	-53.6	-54.9	21.8	0.00e+00	0	46	0	719323136	60	21773
2026-01-28 21:15:49.63	104.55	23.23	-53.7	-55.1	21.8	0.00e+00	0	46	0	726663168	60	22188
2026-01-28 21:15:53.65	105.60	23.04	-53.6	-54.8	21.5	0.00e+00	0	46	0	734003200	60	21611
2026-01-28 21:15:57.68	106.64	22.85	-53.9	-55.2	21.4	0.00e+00	0	46	0	741343232	60	22670
2026-01-28 21:16:01.70	107.67	22.64	-53.3	-54.6	21.8	0.00e+00	0	46	0	749731840	60	20966
2026-01-28 21:16:05.73	108.69	22.43	-53.6	-55.0	21.4	0.00e+00	0	46	0	757071872	60	21959
2026-01-28 21:16:09.76	109.69	22.21	-54.4	-55.9	20.8	0.00e+00	0	46	0	764411904	60	24417
2026-01-28 21:16:13.78	110.68	21.98	-54.8	-56.4	20.3	0.00e+00	0	46	0	771751936	60	25899
2026-01-28 21:16:17.80	111.65	21.75	-54.8	-56.4	20.2	0.00e+00	0	46	0	780140544	60	25824
2026-01-28 21:16:21.83	112.61	21.51	-54.2	-55.6	20.9	0.00e+00	0	46	0	787480576	60	23741
2026-01-28 21:16:25.86	113.56	21.27	-54.2	-55.7	20.9	0.00e+00	0	46	0	794820608	60	23952
2026-01-28 21:16:29.88	114.49	21.02	-54.4	-56.0	20.5	0.00e+00	0	46	0	802160640	60	24721
2026-01-28 21:16:33.90	115.41	20.77	-54.4	-56.0	20.5	0.00e+00	0	46	0	809500672	60	24672
2026-01-28 21:16:37.92	116.31	20.51	-54.0	-55.4	20.9	0.00e+00	0	46	0	817889280	60	23161
2026-01-28 21:16:41.96	117.20	20.24	-54.2	-55.6	20.6	0.00e+00	0	46	0	825229312	60	23728
2026-01-28 21:16:45.97	118.07	19.98	-54.1	-55.6	20.8	0.00e+00	0	46	0	832569344	60	23586
2026-01-28 21:16:50.00	118.93	19.71	-54.4	-55.9	20.5	0.00e+00	0	46	0	839909376	60	24452
2026-01-28 21:16:54.02	119.77	19.43	-54.4	-55.9	20.5	0.00e+00	0	46	0	847249408	60	24472
2026-01-28 21:16:58.06	120.60	19.16	-55.4	-57.2	19.2	0.00e+00	0	46	0	854589440	60	28359
2026-01-28 21:17:02.09	121.41	18.88	-54.5	-56.0	20.3	0.00e+00	0	46	0	862978048	60	24823
2026-01-28 21:17:06.10	122.21	18.60	-55.0	-56.6	19.7	0.00e+00	0	46	0	870318080	60	26538
2026-01-28 21:17:10.12	122.99	18.31	-54.8	-56.5	19.9	0.00e+00	0	46	0	877658112	60	26118
2026-01-28 21:17:14.15	123.77	18.03	-54.6	-56.2	20.0	0.00e+00	0	46	0	884998144	60	25254
2026-01-28 21:17:18.18	124.52	17.74	-54.7	-56.3	20.0	0.00e+00	0	46	0	892338176	60	25590
2026-01-28 21:17:22.20	125.27	17.45	-54.5	-56.0	20.2	0.00e+00	0	46	0	900726784	60	24798
2026-01-28 21:17:26.22	126.00	17.16	-55.0	-56.8	19.5	0.00e+00	0	46	0	908066816	60	27042
2026-01-28 21:17:30.25	126.71	16.87	-53.8	-55.2	20.8	0.00e+00	0	46	0	915406848	60	22666
2026-01-28 21:17:34.27	127.41	16.58	-54.7	-56.3	19.8	0.00e+00	0	46	0	922746880	60	25631
2026-01-28 21:17:38.30	128.10	16.29	-55.3	-57.2	18.9	0.00e+00	0	46	0	931135488	60	28360
2026-01-28 21:17:42.33	128.78	16.00	-54.4	-56.0	20.0	0.00e+00	0	46	0	938475520	60	24734
2026-01-28 21:17:46.35	129.45	15.71	-54.7	-56.4	19.6	0.00e+00	0	46	0	945815552	60	25927
2026-01-28 21:17:50.37	130.10	15.41	-54.3	-56.0	19.9	0.00e+00	0	46	0	953155584	60	24666
2026-01-28 21:17:54.40	130.74	15.12	-54.3	-56.0	19.9	0.00e+00	0	46	0	960495616	60	24730
2026-01-28 21:17:58.42	131.36	14.83	-54.9	-56.7	19.2	0.00e+00	0	46	0	967835648	60	26923
2026-01-28 21:18:02.45	131.98	14.54	-54.4	-56.1	19.7	0.00e+00	0	46	0	976224256	60	25124
2026-01-28 21:18:06.47	132.58	14.25	-54.4	-56.1	19.7	0.00e+00	0	46	0	983564288	60	25028
2026-01-28 21:18:10.48	133.18	13.96	-54.6	-56.4	19.3	0.00e+00	0	46	0	990904320	60	25859
2026-01-28 21:18:14.49	133.76	13.67	-54.3	-56.0	19.7	0.00e+00	0	46	0	998244352	60	24693
2026-01-28 21:18:18.52	134.33	13.38	-54.1	-55.7	19.9	0.00e+00	0	46	0	1005584384	60	23977
2026-01-28 21:18:22.54	134.89	13.09	-54.2	-55.8	19.7	0.00e+00	0	46	0	1013972992	60	24230
2026-01-28 21:18:26.57	135.44	12.81	-54.4	-56.1	19.4	0.00e+00	0	46	0	1021313024	60	25033
2026-01-28 21:18:30.59	135.98	12.52	-54.6	-56.4	19.2	0.00e+00	0	46	0	1028653056	60	25795
2026-01-28 21:18:34.61	136.51	12.24	-59.4	-76.1	3.6	1.51e+00	0	46	104	1031798784	60	249941
2026-01-28 21:18:38.65	137.03	11.95	-59.0	-75.4	3.6	1.51e+00	0	46	104	1031798784	60	230307
2026-01-28 21:18:42.68	137.54	11.67	-59.1	-75.6	3.6	1.51e+00	0	46	104	1031798784	60	236654
2026-01-28 21:18:46.70	138.04	11.39	-58.9	-75.5	3.6	1.51e+00	0	46	104	1031798784	60	232129
2026-01-28 21:18:50.73	138.53	11.11	-58.7	-75.3	3.6	1.51e+00	0	46	104	1031798784	60	227671
2026-01-28 21:18:54.76	139.02	10.83	-58.8	-75.4	3.6	1.51e+00	0	46	104	1031798784	60	230151
2026-01-28 21:18:58.80	139.49	10.55	-58.6	-75.2	3.6	1.51e+00	0	46	104	1031798784	60	226128
2026-01-28 21:19:02.83	139.96	10.28	-58.5	-75.1	3.6	1.51e+00	0	46	104	1031798784	60	223464
2026-01-28 21:19:06.86	140.42	10.00	-58.5	-75.0	3.6	1.51e+00	0	47	104	1031798784	60	219780
2026-01-28 21:19:10.90	140.87	9.73	-58.2	-74.9	3.6	1.51e+00	0	46	104	1031798784	60	216934
2026-01-28 21:19:14.92	141.31	9.46	-58.0	-74.7	3.6	1.51e+00	0	46	104	1031798784	60	212199
2026-01-28 21:19:18.94	141.74	9.19	-57.6	-74.3	3.6	1.51e+00	0	46	104	1031798784	60	203401
2026-01-28 21:19:22.97	142.17	8.92	-57.2	-74.2	3.6	1.51e+00	0	46	104	1031798784	60	201563
2026-01-28 21:19:27.00	142.59	8.66	-56.9	-73.9	3.6	1.51e+00	0	46	104	1031798784	60	194395
2026-01-28 21:19:31.03	143.00	8.39	-56.9	-73.8	3.6	1.51e+00	0	46	104	1031798784	60	192730
2026-01-28 21:19:35.05	143.41	8.13	-57.0	-73.7	3.6	1.51e+00	0	47	104	1031798784	60	190624
2026-01-28 21:19:39.08	143.81	7.86	-57.0	-73.6	3.6	1.51e+00	0	46	104	1031798784	60	187689
2026-01-28 21:19:43.11	144.20	7.60	-57.5	-74.0	3.6	1.51e+00	0	46	104	1031798784	60	195594
2026-01-28 21:19:47.13	144.58	7.35	-57.2	-73.8	3.6	1.51e+00	0	46	104	1031798784	60	192499
2026-01-28 21:19:51.14	144.96	7.09	-56.9	-74.1	3.6	1.51e+00	0	46	104	1031798784	60	199661
2026-01-28 21:19:55.16	145.33	6.83	-57.3	-74.0	3.6	1.51e+00	0	46	104	1031798784	60	197276
2026-01-28 21:19:59.19	145.69	6.58	-57.0	-74.2	3.6	1.51e+00	0	46	104	1031798784	60	201582
2026-01-28 21:20:03.22	146.05	6.33	-56.6	-74.2	3.6	1.51e+00	0	46	104	1031798784	60	200386
2026-01-28 21:20:07.24	146.41	6.08	-55.2	-74.1	3.6	1.51e+00	0	46	104	1031798784	60	198504
2026-01-28 21:20:11.27	146.76	5.83	-60.3	-76.6	3.6	1.51e+00	0	46	104	1031798784	60	265852
2026-01-28 21:20:15.30	147.10	5.58	-61.5	-77.7	3.6	1.51e+00	0	46	104	1031798784	60	302275
2026-01-28 21:20:19.32	147.43	5.33	-62.1	-78.4	3.6	1.51e+00	0	46	104	1031798784	60	327375
2026-01-28 21:20:23.36	147.77	5.09	-62.5	-78.9	3.6	1.51e+00	0	46	104	1031798784	60	344329
2026-01-28 21:20:27.38	148.09	4.84	-62.2	-78.9	3.6	1.51e+00	0	46	104	1031798784	60	344417
2026-01-28 21:20:31.42	148.41	4.60	-62.3	-78.9	3.6	1.51e+00	0	46	104	1031798784	60	345901
2026-01-28 21:20:35.45	148.73	4.36	-62.1	-78.6	3.6	1.51e+00	0	47	104	1031798784	60	335122
2026-01-28 21:20:39.47	149.04	4.12	-62.0	-78.6	3.6	1.51e+00	0	47	104	1031798784	60	333258
2026-01-28 21:20:43.50	149.35	3.88	-62.0	-78.6	3.6	1.51e+00	0	47	104	1031798784	60	332666
2026-01-28 21:20:47.53	149.65	3.65	-62.0	-78.5	3.6	1.51e+00	0	47	104	1031798784	60	331487
2026-01-28 21:20:51.55	149.95	3.41	-61.9	-78.5	3.5	1.51e+00	0	47	104	1031798784	60	328834
2026-01-28 21:20:55.56	150.24	3.18	-61.9	-78.5	3.6	1.51e+00	0	47	104	1031798784	60	330618
2026-01-28 21:20:59.58	150.53	2.95	-61.9	-78.5	3.6	1.51e+00	0	47	104	1031798784	60	329103
2026-01-28 21:21:03.60	150.81	2.72	-61.9	-78.5	3.6	1.51e+00	0	47	104	1031798784	60	328106
2026-01-28 21:21:07.63	151.09	2.49	-61.8	-78.5	3.6	1.51e+00	0	47	104	1031798784	60	327930
2026-01-28 21:21:11.66	151.37	2.26	-61.8	-78.4	3.6	1.51e+00	0	47	104	1031798784	60	325844
2026-01-28 21:21:15.68	151.64	2.04	-61.8	-78.4	3.6	1.51e+00	0	47	104	1031798784	60	325709
2026-01-28 21:21:19.71	151.91	1.81	-61.8	-78.4	3.6	1.51e+00	0	46	104	1031798784	60	325129
2026-01-28 21:21:23.74	152.17	1.59	-61.8	-78.4	3.6	1.51e+00	0	47	104	1031798784	60	324832
2026-01-28 21:21:27.77	152.44	1.36	-61.7	-78.3	3.6	1.51e+00	0	46	104	1031798784	60	323959
2026-01-28 21:21:31.80	152.69	1.14	-61.8	-78.3	3.6	1.51e+00	0	46	104	1031798784	60	322648
2026-01-28 21:21:35.82	152.95	0.92	-61.8	-78.3	3.6	1.51e+00	0	46	104	1031798784	60	323230
2026-01-28 21:21:39.85	153.20	0.70	-61.7	-78.4	3.6	1.51e+00	0	47	104	1031798784	60	324053
2026-01-28 21:21:43.88	153.44	0.48	-61.7	-78.4	3.6	1.51e+00	0	47	104	1031798784	60	324104
2026-01-28 21:21:47.90	153.69	0.27	-61.7	-78.3	3.6	1.51e+00	0	47	104	1031798784	60	323243
2026-01-28 21:21:51.92	153.93	0.05	-61.7	-78.3	3.6	1.51e+00	0	47	104	1031798784	60	323405

#Closed at: 2026-01-28 21:21:53
#Recorded file [1031 MB]: D:/Data/35015_260129_001832.dat