passes_logs/2026/01/28/R3.2S-Naryan-Mar/R3.2S-Naryan-Mar__20260128_111615_TY-40_rec.log

#Pass ID: 20260128_111615_TY-40
#Satellite: TY-40
#Configuration: TY-39
#almurnet v.1.7.20240730
#Start time: 2026-01-28 11:16:20

#Version: 2.2.20231116
#Station: R3.2S-Naryan-Mar
#Location: 53.008057 lon 67.646978 lat
#TLE: 1 56846U 23081A   26027.60022461  .00005238  00000+0  23320-3 0  9991
#TLE: 2 56846  97.3872 100.2896 0001467  75.3792 284.7607 15.21884924146621

#Time	Az	El	Level	Level2	SNR	BER	BlckErr	Temp	State	Recorded	gain1	gain2
2026-01-28 11:16:20.17	31.74	0.26	-59.7	-77.3	3.5	1.51e+00	0	43	0	0	60	287858
2026-01-28 11:16:22.17	31.53	0.36	-57.0	-60.9	3.6	0.00e+00	0	45	104	0	60	130686
2026-01-28 11:16:24.19	31.31	0.46	-56.0	-60.0	3.5	0.00e+00	0	45	104	0	60	118706
2026-01-28 11:16:26.20	31.10	0.57	-52.9	-58.1	3.5	0.00e+00	0	45	104	0	60	94779
2026-01-28 11:16:28.21	30.88	0.67	-54.6	-58.6	3.6	0.00e+00	0	45	104	0	60	100432
2026-01-28 11:16:30.23	30.66	0.77	-51.3	-55.8	3.6	0.00e+00	0	45	104	0	60	72712
2026-01-28 11:16:32.24	30.44	0.87	-51.3	-55.7	3.6	0.00e+00	0	46	104	0	60	72460
2026-01-28 11:16:34.26	30.21	0.98	-51.3	-56.8	3.6	0.00e+00	0	46	104	0	60	81929
2026-01-28 11:16:36.27	29.99	1.08	-51.3	-56.8	3.6	0.00e+00	0	46	104	0	60	82025
2026-01-28 11:16:38.28	29.76	1.19	-51.3	-56.7	3.6	0.00e+00	0	46	104	0	60	80838
2026-01-28 11:16:40.29	29.53	1.29	-51.4	-56.7	3.6	0.00e+00	0	46	104	0	60	81130
2026-01-28 11:16:42.30	29.30	1.39	-51.4	-56.7	3.6	0.00e+00	0	46	104	0	60	81262
2026-01-28 11:16:44.32	29.06	1.50	-51.6	-56.8	3.6	0.00e+00	0	46	104	0	60	81952
2026-01-28 11:16:46.33	28.82	1.60	-51.6	-56.8	3.6	0.00e+00	0	46	104	0	60	81654
2026-01-28 11:16:48.33	28.59	1.70	-51.5	-56.8	3.6	0.00e+00	0	46	104	0	60	81711
2026-01-28 11:16:50.35	28.34	1.81	-51.4	-56.7	3.6	0.00e+00	0	46	104	0	60	81052
2026-01-28 11:16:52.36	28.10	1.91	-51.4	-56.7	3.6	0.00e+00	0	46	104	0	60	80680
2026-01-28 11:16:54.38	27.85	2.02	-51.3	-56.6	3.6	0.00e+00	0	46	104	0	60	80386
2026-01-28 11:16:56.39	27.61	2.12	-51.2	-56.6	3.6	0.00e+00	0	46	104	0	60	80379
2026-01-28 11:16:58.41	27.36	2.23	-51.2	-56.6	3.6	0.00e+00	0	46	104	0	60	79822
2026-01-28 11:17:00.43	27.10	2.33	-51.2	-56.6	3.6	0.00e+00	0	46	104	0	60	80065
2026-01-28 11:17:02.44	26.85	2.44	-51.0	-56.5	3.6	0.00e+00	0	46	104	0	60	79422
2026-01-28 11:17:04.45	26.59	2.54	-51.0	-56.5	3.6	0.00e+00	0	46	104	0	60	79369
2026-01-28 11:17:06.46	26.33	2.65	-50.9	-56.5	3.6	0.00e+00	0	46	104	0	60	78767
2026-01-28 11:17:08.47	26.07	2.75	-51.3	-56.6	3.6	0.00e+00	0	46	104	0	60	79821
2026-01-28 11:17:10.48	25.80	2.86	-51.3	-56.6	3.6	0.00e+00	0	46	104	0	60	80429
2026-01-28 11:17:12.49	25.54	2.96	-51.4	-56.7	3.6	0.00e+00	0	47	104	0	60	80533
2026-01-28 11:17:14.51	25.27	3.07	-51.5	-56.7	3.6	0.00e+00	0	47	104	0	60	81245
2026-01-28 11:17:16.52	24.99	3.17	-51.5	-56.7	3.6	0.00e+00	0	47	104	0	60	80949
2026-01-28 11:17:18.53	24.72	3.28	-51.4	-56.7	3.6	0.00e+00	0	47	104	0	60	81082
2026-01-28 11:17:20.55	24.44	3.38	-51.6	-56.8	3.6	0.00e+00	0	47	104	0	60	81699
2026-01-28 11:17:22.56	24.16	3.49	-51.6	-56.7	3.6	0.00e+00	0	47	104	0	60	81134
2026-01-28 11:17:24.57	23.88	3.59	-51.5	-56.7	3.6	0.00e+00	0	47	104	0	60	80752
2026-01-28 11:17:26.59	23.59	3.70	-51.5	-56.7	3.6	0.00e+00	0	47	104	0	60	80598
2026-01-28 11:17:28.60	23.30	3.81	-51.6	-56.7	3.6	0.00e+00	0	47	104	0	60	81182
2026-01-28 11:17:30.62	23.01	3.91	-51.5	-56.7	3.6	0.00e+00	0	47	104	0	60	80654
2026-01-28 11:17:32.63	22.72	4.02	-51.6	-56.7	3.6	0.00e+00	0	47	104	0	60	81028
2026-01-28 11:17:34.64	22.42	4.12	-51.6	-56.8	3.6	0.00e+00	0	47	104	0	60	81426
2026-01-28 11:17:36.66	22.12	4.23	-51.6	-56.8	3.6	0.00e+00	0	47	104	0	60	81519
2026-01-28 11:17:38.66	21.82	4.33	-51.5	-56.6	3.6	0.00e+00	0	47	104	0	60	80425
2026-01-28 11:17:40.67	21.52	4.44	-51.5	-56.6	3.6	0.00e+00	0	47	104	0	60	80225
2026-01-28 11:17:42.68	21.21	4.54	-51.4	-56.7	3.6	0.00e+00	0	47	104	0	60	80511
2026-01-28 11:17:44.70	20.90	4.65	-51.3	-56.6	3.6	0.00e+00	0	47	104	0	60	79651
2026-01-28 11:17:46.72	20.58	4.75	-51.3	-56.6	3.6	0.00e+00	0	47	104	0	60	79652
2026-01-28 11:17:48.73	20.27	4.86	-51.2	-56.5	3.6	0.00e+00	0	47	104	0	60	79305
2026-01-28 11:17:50.75	19.95	4.96	-51.2	-56.5	3.6	0.00e+00	0	47	104	0	60	79503
2026-01-28 11:17:52.76	19.62	5.07	-51.1	-56.5	3.6	0.00e+00	0	47	104	0	60	79406
2026-01-28 11:17:54.78	19.30	5.17	-51.2	-56.5	3.6	0.00e+00	0	47	104	0	60	79383
2026-01-28 11:17:56.79	18.97	5.27	-51.1	-56.5	3.6	0.00e+00	0	47	104	0	60	79000
2026-01-28 11:17:58.80	18.64	5.38	-51.1	-56.5	3.6	0.00e+00	0	47	104	0	60	78762
2026-01-28 11:18:00.81	18.30	5.48	-51.1	-56.4	3.6	0.00e+00	0	47	104	0	60	78455
2026-01-28 11:18:02.83	17.97	5.58	-51.0	-56.5	3.6	0.00e+00	0	47	104	0	60	78779
2026-01-28 11:18:04.85	17.62	5.69	-50.9	-56.4	3.6	0.00e+00	0	47	104	0	60	78273
2026-01-28 11:18:06.87	17.28	5.79	-50.9	-56.4	3.6	0.00e+00	0	47	104	0	60	78166
2026-01-28 11:18:08.87	16.93	5.89	-51.0	-56.4	3.6	0.00e+00	0	47	104	0	60	78133
2026-01-28 11:18:10.88	16.58	6.00	-50.9	-56.4	3.6	0.00e+00	0	47	104	0	60	78079
2026-01-28 11:18:12.88	16.23	6.10	-49.2	-54.6	3.6	0.00e+00	0	47	104	0	60	63532
2026-01-28 11:18:14.89	15.88	6.20	-51.7	-55.4	3.6	0.00e+00	0	47	104	0	60	69501
2026-01-28 11:18:16.89	15.52	6.30	-49.5	-54.8	3.6	0.00e+00	0	47	104	0	60	64889
2026-01-28 11:18:18.90	15.16	6.40	-50.2	-54.2	3.6	0.00e+00	0	47	104	0	60	60989
2026-01-28 11:18:20.91	14.79	6.50	-51.7	-55.7	3.6	0.00e+00	0	47	104	0	60	72494
2026-01-28 11:18:22.93	14.42	6.60	-51.6	-54.9	3.6	0.00e+00	0	47	104	0	60	65768
2026-01-28 11:18:24.94	14.05	6.70	-49.3	-53.6	3.6	0.00e+00	0	47	104	0	60	56339
2026-01-28 11:18:26.95	13.67	6.80	-50.2	-54.0	3.6	0.00e+00	0	47	104	0	60	59508
2026-01-28 11:18:28.96	13.30	6.90	-51.2	-56.4	3.6	0.00e+00	0	47	104	0	60	77798
2026-01-28 11:18:30.98	12.91	7.00	-52.8	-57.4	3.6	0.00e+00	0	47	104	0	60	87392
2026-01-28 11:18:32.99	12.53	7.09	-51.6	-56.4	3.6	0.00e+00	0	47	104	0	60	78488
2026-01-28 11:18:35.00	12.14	7.19	-53.0	-57.2	3.6	0.00e+00	0	47	104	0	60	85422
2026-01-28 11:18:37.01	11.75	7.29	-53.3	-58.1	3.6	0.00e+00	0	47	104	0	60	94646
2026-01-28 11:18:39.03	11.35	7.39	-55.4	-59.0	3.6	0.00e+00	0	47	104	0	60	106025
2026-01-28 11:18:41.05	10.95	7.48	-52.8	-57.2	3.6	0.00e+00	0	48	104	0	60	85539
2026-01-28 11:18:43.06	10.55	7.58	-53.2	-57.4	3.6	0.00e+00	0	47	104	0	60	87296
2026-01-28 11:18:45.07	10.14	7.67	-53.7	-57.8	3.6	0.00e+00	0	47	104	0	60	91434
2026-01-28 11:18:47.09	9.73	7.76	-52.8	-57.7	3.6	0.00e+00	0	47	104	0	60	90716
2026-01-28 11:18:49.09	9.32	7.86	-52.9	-57.5	3.6	0.00e+00	0	47	104	0	60	89235
2026-01-28 11:18:51.11	8.91	7.95	-53.7	-57.8	3.6	0.00e+00	0	47	104	0	60	91322
2026-01-28 11:18:53.12	8.49	8.04	-52.0	-57.6	3.6	0.00e+00	0	47	104	0	60	89250
2026-01-28 11:18:55.13	8.07	8.13	-55.0	-58.6	3.6	0.00e+00	0	47	104	0	60	100339
2026-01-28 11:18:57.15	7.64	8.22	-53.1	-58.0	3.6	0.00e+00	0	47	104	0	60	94228
2026-01-28 11:18:59.16	7.21	8.31	-53.5	-58.1	3.6	0.00e+00	0	47	104	0	60	95610
2026-01-28 11:19:01.18	6.78	8.40	-52.5	-57.8	3.6	0.00e+00	0	47	104	0	60	91677
2026-01-28 11:19:03.19	6.34	8.49	-53.9	-58.3	3.6	0.00e+00	0	47	104	0	60	97524
2026-01-28 11:19:05.21	5.90	8.57	-52.9	-57.1	3.6	0.00e+00	0	47	104	0	60	84889
2026-01-28 11:19:07.22	5.46	8.66	-53.6	-57.0	3.6	0.00e+00	0	48	104	0	60	83782
2026-01-28 11:19:09.23	5.02	8.74	-54.3	-58.5	3.6	0.00e+00	0	48	104	0	60	100012
2026-01-28 11:19:11.25	4.57	8.82	-53.7	-57.4	3.6	0.00e+00	0	48	104	0	60	87452
2026-01-28 11:19:13.27	4.11	8.91	-53.6	-57.3	3.6	0.00e+00	0	48	104	0	60	87079
2026-01-28 11:19:15.28	3.66	8.99	-53.6	-57.3	3.6	0.00e+00	0	48	104	0	60	87108
2026-01-28 11:19:17.29	3.20	9.07	-53.4	-57.6	3.6	0.00e+00	0	47	104	0	60	89674
2026-01-28 11:19:19.31	2.74	9.15	-54.8	-58.9	3.6	0.00e+00	0	48	104	0	60	103807
2026-01-28 11:19:21.31	2.28	9.22	-53.4	-57.5	3.6	0.00e+00	0	48	104	0	60	88224
2026-01-28 11:19:23.32	1.81	9.30	-52.6	-57.2	3.5	0.00e+00	0	48	104	0	60	86205
2026-01-28 11:19:25.34	1.34	9.38	-53.4	-57.7	3.6	0.00e+00	0	48	104	0	60	90988
2026-01-28 11:19:27.36	0.86	9.45	-54.7	-58.7	3.6	0.00e+00	0	48	104	0	60	101305
2026-01-28 11:19:29.37	0.39	9.52	-52.7	-57.0	3.6	0.00e+00	0	48	104	0	60	83430
2026-01-28 11:19:31.39	359.91	9.59	-53.8	-57.6	3.6	0.00e+00	0	48	104	0	60	89305
2026-01-28 11:19:33.40	359.43	9.66	-54.3	-58.2	3.6	0.00e+00	0	48	104	0	60	95661
2026-01-28 11:19:35.41	358.94	9.73	-54.2	-57.8	3.6	0.00e+00	0	48	104	0	60	92025
2026-01-28 11:19:37.42	358.45	9.80	-54.4	-57.9	3.6	0.00e+00	0	48	104	0	60	92752
2026-01-28 11:19:39.43	357.96	9.87	-54.1	-57.8	3.6	0.00e+00	0	48	104	0	60	92198
2026-01-28 11:19:41.44	357.47	9.93	-54.1	-58.1	3.6	0.00e+00	0	48	104	0	60	95309
2026-01-28 11:19:43.46	356.97	9.99	-53.1	-57.8	3.6	0.00e+00	0	48	104	0	60	91534
2026-01-28 11:19:45.47	356.47	10.05	-53.6	-57.6	3.6	0.00e+00	0	48	104	0	60	90197
2026-01-28 11:19:47.49	355.97	10.11	-53.6	-57.8	3.6	0.00e+00	0	48	104	0	60	91394
2026-01-28 11:19:49.49	355.47	10.17	-53.7	-57.8	3.6	0.00e+00	0	48	104	0	60	91781
2026-01-28 11:19:51.51	354.96	10.23	-53.6	-57.8	3.6	0.00e+00	0	48	104	0	60	91679
2026-01-28 11:19:53.52	354.46	10.28	-53.9	-57.8	3.6	0.00e+00	0	48	104	0	60	91922
2026-01-28 11:19:55.54	353.94	10.34	-53.7	-57.8	3.6	0.00e+00	0	48	104	0	60	91701
2026-01-28 11:19:57.55	353.43	10.39	-53.9	-57.9	3.6	0.00e+00	0	48	104	0	60	93228
2026-01-28 11:19:59.56	352.92	10.44	-53.8	-57.8	3.6	0.00e+00	0	48	104	0	60	91885
2026-01-28 11:20:01.58	352.40	10.48	-53.9	-58.1	3.6	0.00e+00	0	48	104	0	60	94879
2026-01-28 11:20:03.59	351.88	10.53	-54.2	-58.0	3.6	0.00e+00	0	48	104	0	60	94411
2026-01-28 11:20:05.60	351.36	10.57	-53.2	-57.7	3.6	0.00e+00	0	48	104	0	60	90430
2026-01-28 11:20:07.61	350.83	10.62	-54.0	-57.9	3.6	0.00e+00	0	48	104	0	60	93244
2026-01-28 11:20:09.62	350.31	10.66	-53.8	-57.9	3.6	0.00e+00	0	48	104	0	60	92590
2026-01-28 11:20:11.63	349.78	10.69	-54.2	-58.1	3.6	0.00e+00	0	48	104	0	60	95602
2026-01-28 11:20:13.63	349.26	10.73	-54.1	-58.0	3.6	0.00e+00	0	48	104	0	60	93653
2026-01-28 11:20:15.65	348.72	10.77	-54.4	-58.1	3.6	0.00e+00	0	48	104	0	60	95004
2026-01-28 11:20:17.67	348.19	10.80	-54.0	-57.9	3.6	0.00e+00	0	48	104	0	60	93441
2026-01-28 11:20:19.68	347.66	10.83	-54.0	-58.0	3.6	0.00e+00	0	48	104	0	60	93510
2026-01-28 11:20:21.69	347.12	10.86	-53.9	-57.9	3.6	0.00e+00	0	48	104	0	60	93431
2026-01-28 11:20:23.71	346.59	10.88	-53.8	-58.0	3.6	0.00e+00	0	48	104	0	60	94114
2026-01-28 11:20:25.72	346.05	10.91	-53.8	-58.0	3.6	0.00e+00	0	48	104	0	60	94232
2026-01-28 11:20:27.73	345.51	10.93	-53.5	-57.9	3.6	0.00e+00	0	48	104	0	60	92498
2026-01-28 11:20:29.74	344.97	10.95	-54.0	-58.0	3.6	0.00e+00	0	48	104	0	60	94213
2026-01-28 11:20:31.76	344.43	10.97	-54.2	-58.0	3.6	0.00e+00	0	48	104	0	60	93917
2026-01-28 11:20:33.78	343.89	10.99	-53.9	-57.8	3.6	0.00e+00	0	48	104	0	60	92351
2026-01-28 11:20:35.79	343.35	11.00	-53.8	-57.9	3.6	0.00e+00	0	48	104	0	60	92540
2026-01-28 11:20:37.81	342.80	11.01	-53.8	-57.9	3.6	0.00e+00	0	48	104	0	60	92702
2026-01-28 11:20:39.82	342.26	11.02	-53.3	-57.8	3.6	0.00e+00	0	48	104	0	60	91841
2026-01-28 11:20:41.83	341.72	11.03	-53.3	-57.8	3.6	0.00e+00	0	48	104	0	60	91698
2026-01-28 11:20:43.84	341.18	11.04	-54.2	-58.0	3.5	0.00e+00	0	48	104	0	60	93936
2026-01-28 11:20:45.86	340.63	11.04	-54.2	-57.9	3.6	0.00e+00	0	48	104	0	60	93088
2026-01-28 11:20:47.87	340.09	11.04	-53.8	-57.8	3.6	0.00e+00	0	48	104	0	60	92330
2026-01-28 11:20:49.88	339.55	11.04	-53.6	-57.8	3.6	0.00e+00	0	48	104	0	60	91437
2026-01-28 11:20:51.89	339.00	11.04	-51.8	-57.2	3.6	0.00e+00	0	48	104	0	60	85467
2026-01-28 11:20:53.91	338.46	11.04	-51.6	-56.9	3.6	0.00e+00	0	48	104	0	60	83152
2026-01-28 11:20:55.92	337.91	11.03	-51.1	-56.6	3.6	0.00e+00	0	48	104	0	60	80304
2026-01-28 11:20:57.94	337.37	11.02	-50.1	-56.1	3.6	0.00e+00	0	48	104	0	60	75141
2026-01-28 11:20:59.95	336.83	11.01	-50.0	-56.0	3.6	0.00e+00	0	48	104	0	60	74677
2026-01-28 11:21:01.96	336.29	11.00	-49.8	-55.7	3.6	0.00e+00	0	48	104	0	60	71839
2026-01-28 11:21:03.96	335.75	10.98	-50.6	-56.2	3.6	0.00e+00	0	48	104	0	60	76165
2026-01-28 11:21:05.98	335.20	10.96	-52.4	-56.9	3.6	0.00e+00	0	48	104	0	60	83279
2026-01-28 11:21:07.99	334.67	10.94	-50.5	-56.2	3.6	0.00e+00	0	48	104	0	60	76725
2026-01-28 11:21:10.00	334.13	10.92	-51.0	-56.4	3.6	0.00e+00	0	48	104	0	60	78568
2026-01-28 11:21:12.01	333.59	10.90	-50.5	-56.0	3.6	0.00e+00	0	48	104	0	60	74265
2026-01-28 11:21:14.02	333.05	10.87	-52.5	-57.3	3.6	0.00e+00	0	48	104	0	60	86344
2026-01-28 11:21:16.04	332.52	10.85	-50.3	-56.1	3.6	0.00e+00	0	48	104	0	60	75316
2026-01-28 11:21:18.05	331.98	10.82	-50.2	-55.8	3.6	0.00e+00	0	48	104	0	60	73273
2026-01-28 11:21:20.06	331.45	10.78	-52.2	-57.0	3.6	0.00e+00	0	48	104	0	60	83640
2026-01-28 11:21:22.08	330.92	10.75	-51.9	-56.8	3.6	0.00e+00	0	48	104	0	60	81565
2026-01-28 11:21:24.09	330.39	10.72	-51.2	-56.5	3.6	0.00e+00	0	48	104	0	60	79003
2026-01-28 11:21:26.11	329.86	10.68	-52.3	-57.0	3.6	0.00e+00	0	48	104	0	60	83360
2026-01-28 11:21:28.12	329.33	10.64	-52.4	-57.1	3.6	0.00e+00	0	48	104	0	60	84322
2026-01-28 11:21:30.13	328.81	10.60	-52.1	-56.9	3.6	0.00e+00	0	48	104	0	60	83151
2026-01-28 11:21:32.14	328.28	10.55	-52.8	-57.2	3.6	0.00e+00	0	48	104	0	60	85557
2026-01-28 11:21:34.15	327.76	10.51	-52.6	-57.2	3.6	0.00e+00	0	48	104	0	60	85450
2026-01-28 11:21:36.15	327.25	10.46	-53.7	-57.7	3.6	0.00e+00	0	48	104	0	60	90689
2026-01-28 11:21:38.17	326.73	10.41	-53.8	-57.8	3.6	0.00e+00	0	48	104	0	60	91532
2026-01-28 11:21:40.19	326.21	10.36	-54.2	-58.0	3.6	0.00e+00	0	48	104	0	60	93633
2026-01-28 11:21:42.20	325.70	10.31	-54.1	-57.8	3.6	0.00e+00	0	48	104	0	60	92182
2026-01-28 11:21:44.22	325.19	10.26	-54.3	-58.0	3.6	0.00e+00	0	48	104	0	60	93765
2026-01-28 11:21:46.24	324.68	10.20	-53.9	-57.8	3.6	0.00e+00	0	48	104	0	60	91676
2026-01-28 11:21:48.24	324.18	10.15	-54.3	-58.0	3.6	0.00e+00	0	48	104	0	60	94028
2026-01-28 11:21:50.25	323.67	10.09	-53.9	-57.8	3.6	0.00e+00	0	48	104	0	60	91971
2026-01-28 11:21:52.27	323.17	10.03	-54.1	-57.9	3.6	0.00e+00	0	48	104	0	60	93107
2026-01-28 11:21:54.29	322.67	9.96	-53.9	-57.8	3.6	0.00e+00	0	48	104	0	60	91501
2026-01-28 11:21:56.30	322.18	9.90	-53.9	-57.6	3.6	0.00e+00	0	48	104	0	60	89843
2026-01-28 11:21:58.31	321.68	9.84	-53.7	-57.6	3.6	0.00e+00	0	48	104	0	60	89483
2026-01-28 11:22:00.33	321.19	9.77	-53.9	-57.5	3.6	0.00e+00	0	48	104	0	60	88897
2026-01-28 11:22:02.34	320.71	9.70	-53.7	-57.4	3.6	0.00e+00	0	48	104	0	60	87807
2026-01-28 11:22:04.34	320.22	9.63	-54.2	-57.7	3.6	0.00e+00	0	48	104	0	60	90571
2026-01-28 11:22:06.35	319.74	9.56	-54.0	-57.7	3.6	0.00e+00	0	48	104	0	60	90972
2026-01-28 11:22:08.37	319.26	9.49	-54.0	-57.6	3.6	0.00e+00	0	48	104	0	60	89453
2026-01-28 11:22:10.38	318.79	9.42	-53.6	-57.3	3.6	0.00e+00	0	48	104	0	60	87105
2026-01-28 11:22:12.39	318.32	9.34	-53.5	-57.0	3.6	0.00e+00	0	48	104	0	60	83956
2026-01-28 11:22:14.41	317.84	9.27	-53.5	-57.3	3.6	0.00e+00	0	48	104	0	60	87136
2026-01-28 11:22:16.43	317.38	9.19	-53.5	-57.0	3.6	0.00e+00	0	48	104	0	60	83465
2026-01-28 11:22:18.44	316.91	9.11	-53.5	-57.0	3.6	0.00e+00	0	48	104	0	60	83630
2026-01-28 11:22:20.45	316.45	9.03	-53.1	-56.6	3.6	0.00e+00	0	48	104	0	60	79817
2026-01-28 11:22:22.47	315.99	8.95	-53.1	-56.9	3.6	0.00e+00	0	48	104	0	60	82503
2026-01-28 11:22:24.48	315.54	8.87	-53.1	-56.6	3.6	0.00e+00	0	48	104	0	60	80018
2026-01-28 11:22:26.49	315.09	8.79	-53.1	-56.7	3.6	0.00e+00	0	48	104	0	60	81218
2026-01-28 11:22:28.50	314.64	8.70	-53.1	-56.6	3.6	0.00e+00	0	48	104	0	60	79640
2026-01-28 11:22:30.52	314.20	8.62	-52.6	-56.4	3.6	0.00e+00	0	48	104	0	60	78522
2026-01-28 11:22:32.53	313.76	8.53	-53.0	-56.7	3.6	0.00e+00	0	48	104	0	60	81330
2026-01-28 11:22:34.55	313.32	8.44	-52.3	-56.1	3.6	0.00e+00	0	48	104	0	60	75708
2026-01-28 11:22:36.55	312.88	8.36	-52.7	-56.8	3.6	0.00e+00	0	48	104	0	60	81585
2026-01-28 11:22:38.57	312.45	8.27	-53.2	-57.0	3.6	0.00e+00	0	48	104	0	60	83825
2026-01-28 11:22:40.57	312.03	8.18	-53.2	-57.1	3.5	0.00e+00	0	48	104	0	60	84652
2026-01-28 11:22:42.59	311.60	8.09	-52.3	-56.3	3.6	0.00e+00	0	48	104	0	60	77040
2026-01-28 11:22:44.60	311.18	8.00	-52.4	-56.4	3.6	0.00e+00	0	48	104	0	60	77828
2026-01-28 11:22:46.61	310.76	7.91	-51.6	-55.6	3.6	0.00e+00	0	48	104	0	60	71051
2026-01-28 11:22:48.62	310.35	7.81	-51.6	-55.5	3.6	0.00e+00	0	48	104	0	60	70830
2026-01-28 11:22:50.63	309.94	7.72	-51.8	-55.8	3.6	0.00e+00	0	48	104	0	60	72646
2026-01-28 11:22:52.65	309.53	7.63	-51.6	-55.6	3.6	0.00e+00	0	48	104	0	60	71414
2026-01-28 11:22:54.65	309.12	7.53	-51.8	-55.7	3.6	0.00e+00	0	48	104	0	60	72390
2026-01-28 11:22:56.67	308.72	7.44	-52.1	-56.0	3.6	0.00e+00	0	48	104	0	60	74993
2026-01-28 11:22:58.68	308.32	7.34	-52.8	-56.8	3.6	0.00e+00	0	48	104	0	60	81856
2026-01-28 11:23:00.67	307.93	7.24	-52.0	-56.0	3.6	0.00e+00	0	48	104	0	60	74632
2026-01-28 11:23:02.69	307.54	7.15	-52.4	-56.5	3.6	0.00e+00	0	48	104	0	60	79191
2026-01-28 11:23:04.70	307.15	7.05	-51.6	-55.7	3.6	0.00e+00	0	48	104	0	60	72007
2026-01-28 11:23:06.71	306.77	6.95	-52.6	-56.6	3.6	0.00e+00	0	48	104	0	60	80423
2026-01-28 11:23:08.72	306.39	6.85	-51.8	-55.8	3.6	0.00e+00	0	48	104	0	60	72652
2026-01-28 11:23:10.74	306.01	6.75	-51.9	-55.9	3.6	0.00e+00	0	48	104	0	60	73545
2026-01-28 11:23:12.75	305.63	6.65	-52.0	-55.9	3.6	0.00e+00	0	48	104	0	60	73748
2026-01-28 11:23:14.76	305.26	6.55	-53.0	-56.9	3.6	0.00e+00	0	48	104	0	60	82722
2026-01-28 11:23:16.78	304.89	6.45	-52.2	-56.0	3.6	0.00e+00	0	48	104	0	60	74856
2026-01-28 11:23:18.79	304.52	6.35	-51.7	-55.7	3.6	0.00e+00	0	48	104	0	60	72516
2026-01-28 11:23:20.80	304.16	6.25	-47.8	-52.3	3.6	0.00e+00	0	48	104	0	60	48649
2026-01-28 11:23:22.82	303.80	6.15	-49.5	-53.7	3.6	0.00e+00	0	48	104	0	60	57523
2026-01-28 11:23:24.83	303.45	6.05	-48.0	-52.5	3.6	0.00e+00	0	48	104	0	60	50034
2026-01-28 11:23:26.84	303.09	5.94	-54.9	-58.7	3.6	0.00e+00	0	48	104	0	60	102432
2026-01-28 11:23:28.86	302.74	5.84	-55.3	-59.0	3.6	0.00e+00	0	48	104	0	60	105902
2026-01-28 11:23:30.88	302.40	5.74	-54.8	-58.7	3.6	0.00e+00	0	48	104	0	60	101740
2026-01-28 11:23:32.88	302.05	5.64	-56.5	-60.3	3.6	0.00e+00	0	48	104	0	60	122661
2026-01-28 11:23:34.90	301.71	5.53	-56.8	-60.5	3.6	0.00e+00	0	48	104	0	60	125009
2026-01-28 11:23:36.91	301.38	5.43	-55.6	-59.5	3.5	0.00e+00	0	48	104	0	60	111126
2026-01-28 11:23:38.93	301.04	5.32	-56.0	-59.6	3.6	0.00e+00	0	48	104	0	60	112989
2026-01-28 11:23:40.94	300.71	5.22	-57.1	-61.0	3.6	0.00e+00	0	48	104	0	60	132010
2026-01-28 11:23:42.95	300.38	5.12	-55.4	-59.9	3.5	0.00e+00	0	48	104	0	60	116366
2026-01-28 11:23:44.96	300.06	5.01	-56.0	-60.2	3.6	0.00e+00	0	48	104	0	60	120521
2026-01-28 11:23:46.97	299.74	4.91	-55.9	-60.1	3.6	0.00e+00	0	48	104	0	60	119679
2026-01-28 11:23:48.98	299.42	4.80	-55.9	-60.0	3.6	0.00e+00	0	48	104	0	60	118693
2026-01-28 11:23:50.99	299.10	4.70	-55.8	-60.1	3.6	0.00e+00	0	48	104	0	60	119028
2026-01-28 11:23:53.00	298.79	4.59	-55.9	-60.1	3.6	0.00e+00	0	48	104	0	60	119139
2026-01-28 11:23:55.01	298.48	4.49	-55.8	-60.0	3.6	0.00e+00	0	48	104	0	60	118914
2026-01-28 11:23:57.02	298.17	4.38	-55.8	-60.0	3.6	0.00e+00	0	48	104	0	60	118426
2026-01-28 11:23:59.03	297.87	4.28	-55.8	-60.0	3.6	0.00e+00	0	48	104	0	60	118536
2026-01-28 11:24:01.03	297.57	4.17	-55.8	-60.0	3.6	0.00e+00	0	48	104	0	60	118091
2026-01-28 11:24:03.04	297.27	4.07	-55.8	-60.0	3.6	0.00e+00	0	48	104	0	60	118019
2026-01-28 11:24:05.05	296.97	3.96	-55.8	-60.0	3.6	0.00e+00	0	48	104	0	60	117949
2026-01-28 11:24:07.05	296.68	3.86	-55.8	-60.0	3.6	0.00e+00	0	48	104	0	60	118364
2026-01-28 11:24:09.05	296.39	3.75	-55.8	-59.9	3.6	0.00e+00	0	48	104	0	60	117427
2026-01-28 11:24:11.06	296.11	3.65	-55.8	-60.0	3.6	0.00e+00	0	48	104	0	60	118737
2026-01-28 11:24:13.07	295.82	3.54	-55.8	-60.0	3.6	0.00e+00	0	48	104	0	60	118286
2026-01-28 11:24:15.08	295.54	3.44	-55.8	-60.0	3.6	0.00e+00	0	48	104	0	60	118269
2026-01-28 11:24:17.09	295.26	3.33	-55.8	-59.9	3.6	0.00e+00	0	48	104	0	60	117522
2026-01-28 11:24:19.10	294.98	3.23	-55.8	-60.0	3.6	0.00e+00	0	48	104	0	60	117923
2026-01-28 11:24:21.10	294.71	3.12	-55.8	-59.9	3.6	0.00e+00	0	48	104	0	60	117499
2026-01-28 11:24:23.12	294.44	3.02	-55.8	-60.0	3.6	0.00e+00	0	48	104	0	60	117806
2026-01-28 11:24:25.13	294.17	2.91	-55.8	-60.0	3.6	0.00e+00	0	48	104	0	60	117880
2026-01-28 11:24:27.14	293.90	2.81	-55.8	-60.0	3.6	0.00e+00	0	48	104	0	60	118386
2026-01-28 11:24:29.16	293.63	2.70	-55.8	-60.0	3.6	0.00e+00	0	48	104	0	60	118447
2026-01-28 11:24:31.17	293.37	2.60	-55.9	-60.1	3.6	0.00e+00	0	48	104	0	60	119179
2026-01-28 11:24:33.18	293.11	2.49	-55.9	-60.0	3.6	0.00e+00	0	48	104	0	60	117988
2026-01-28 11:24:35.19	292.86	2.39	-55.9	-60.1	3.6	0.00e+00	0	48	104	0	60	119066
2026-01-28 11:24:37.21	292.60	2.28	-55.9	-60.0	3.6	0.00e+00	0	48	104	0	60	118642
2026-01-28 11:24:39.21	292.35	2.18	-55.9	-60.1	3.6	0.00e+00	0	48	104	0	60	119138
2026-01-28 11:24:41.22	292.10	2.07	-55.8	-60.0	3.6	0.00e+00	0	48	104	0	60	118622
2026-01-28 11:24:43.23	291.85	1.97	-55.9	-60.0	3.6	0.00e+00	0	48	104	0	60	118392
2026-01-28 11:24:45.25	291.60	1.86	-55.9	-60.0	3.6	0.00e+00	0	48	104	0	60	118849
2026-01-28 11:24:47.27	291.36	1.76	-55.9	-60.0	3.6	0.00e+00	0	48	104	0	60	118303
2026-01-28 11:24:49.28	291.12	1.65	-55.8	-60.0	3.6	0.00e+00	0	48	104	0	60	118951
2026-01-28 11:24:51.29	290.88	1.55	-55.9	-60.0	3.6	0.00e+00	0	48	104	0	60	118314
2026-01-28 11:24:53.31	290.64	1.44	-55.8	-60.0	3.6	0.00e+00	0	48	104	0	60	118079
2026-01-28 11:24:55.32	290.41	1.34	-55.8	-60.0	3.6	0.00e+00	0	48	104	0	60	118294
2026-01-28 11:24:57.34	290.17	1.24	-55.8	-60.0	3.6	0.00e+00	0	48	104	0	60	118579
2026-01-28 11:24:59.35	289.94	1.13	-55.8	-60.0	3.6	0.00e+00	0	48	104	0	60	118248
2026-01-28 11:25:01.36	289.72	1.03	-55.8	-60.0	3.6	0.00e+00	0	48	104	0	60	117923
2026-01-28 11:25:03.38	289.49	0.92	-55.8	-60.0	3.6	0.00e+00	0	48	104	0	60	118053
2026-01-28 11:25:05.39	289.27	0.82	-55.8	-60.0	3.6	0.00e+00	0	48	104	0	60	117769
2026-01-28 11:25:07.40	289.04	0.72	-55.9	-60.0	3.6	0.00e+00	0	48	104	0	60	118268
2026-01-28 11:25:09.42	288.82	0.61	-55.8	-60.0	3.6	0.00e+00	0	48	104	0	60	118373
2026-01-28 11:25:11.43	288.61	0.51	-55.8	-60.0	3.6	0.00e+00	0	48	104	0	60	118095
2026-01-28 11:25:13.44	288.39	0.41	-55.8	-60.0	3.6	0.00e+00	0	48	104	0	60	118955
2026-01-28 11:25:15.45	288.18	0.31	-55.8	-60.0	3.6	0.00e+00	0	48	104	0	60	118463
2026-01-28 11:25:17.47	287.96	0.20	-55.8	-60.0	3.6	0.00e+00	0	48	104	0	60	118471
2026-01-28 11:25:19.49	287.75	0.10	-55.8	-60.0	3.6	0.00e+00	0	48	104	0	60	118864
2026-01-28 11:25:21.50	287.54	-0.00	-55.8	-60.0	3.6	0.00e+00	0	48	104	0	60	118474
2026-01-28 11:25:23.52	287.34	-0.10	-55.8	-60.0	3.6	0.00e+00	0	48	104	0	60	118133

#Closed at: 2026-01-28 11:25:23
#Recorded file [0 MB]: D:/Data/35015_260128_141716.dat