passes_logs/2026/01/28/R3.2S-Naryan-Mar/R3.2S-Naryan-Mar__20260128_083002_TY-42_rec.log

#Pass ID: 20260128_083002_TY-42
#Satellite: TY-42
#Configuration: TY-42
#almurnet v.1.7.20240730
#Start time: 2026-01-28 08:30:05

#Version: 2.2.20231116
#Station: R3.2S-Naryan-Mar
#Location: 53.008057 lon 67.646978 lat
#TLE: 1 64048U 25103A   26027.88263889  .00008008  00000-0  38191-3 0 09993
#TLE: 2 64048 097.4119 103.0583 0001740 093.1169 297.5293 15.19162476 38770

#Time	Az	El	Level	Level2	SNR	BER	BlckErr	Temp	State	Recorded	gain1	gain2
2026-01-28 08:30:05.46	20.14	0.16	-60.8	-75.5	3.4	1.51e+00	0	45	0	0	60	227621
2026-01-28 08:30:08.47	20.09	0.36	-58.1	-61.9	3.6	0.00e+00	0	46	104	0	60	146775
2026-01-28 08:30:11.49	20.04	0.55	-55.6	-60.0	3.6	0.00e+00	0	47	104	0	60	117647
2026-01-28 08:30:14.51	19.99	0.75	-54.6	-58.5	3.6	0.00e+00	0	47	104	0	60	99901
2026-01-28 08:30:17.53	19.93	0.95	-54.3	-56.8	3.6	0.00e+00	0	47	104	0	60	82275
2026-01-28 08:30:20.56	19.88	1.15	-49.3	-52.8	3.6	0.00e+00	0	47	104	0	60	51514
2026-01-28 08:30:23.58	19.82	1.35	-49.3	-52.7	3.6	0.00e+00	0	47	104	0	60	51308
2026-01-28 08:30:26.61	19.76	1.55	-49.3	-52.8	3.6	0.00e+00	0	47	104	0	60	51841
2026-01-28 08:30:29.64	19.70	1.76	-49.3	-52.8	3.6	0.00e+00	0	47	104	0	60	51446
2026-01-28 08:30:32.66	19.64	1.96	-49.3	-52.7	3.5	0.00e+00	0	47	104	0	60	51152
2026-01-28 08:30:35.68	19.58	2.17	-49.2	-52.6	3.6	0.00e+00	0	47	104	0	60	50306
2026-01-28 08:30:38.71	19.52	2.38	-49.1	-52.5	3.6	0.00e+00	0	47	104	0	60	50051
2026-01-28 08:30:41.73	19.45	2.60	-49.0	-52.5	3.6	0.00e+00	0	47	104	0	60	49696
2026-01-28 08:30:44.75	19.39	2.81	-48.9	-52.4	3.5	0.00e+00	0	47	104	0	60	49219
2026-01-28 08:30:47.78	19.32	3.03	-49.0	-52.5	3.6	0.00e+00	0	47	104	0	60	50128
2026-01-28 08:30:50.80	19.25	3.25	-49.0	-52.5	3.6	0.00e+00	0	47	104	0	60	49649
2026-01-28 08:30:53.83	19.18	3.47	-48.9	-52.5	3.6	0.00e+00	0	47	104	0	60	50128
2026-01-28 08:30:56.84	19.11	3.70	-49.0	-52.6	3.6	0.00e+00	0	47	104	0	60	50275
2026-01-28 08:30:59.86	19.03	3.92	-48.8	-52.4	3.5	0.00e+00	0	47	104	0	60	49081
2026-01-28 08:31:02.88	18.96	4.15	-48.8	-52.4	3.6	0.00e+00	0	47	104	0	60	49357
2026-01-28 08:31:05.90	18.88	4.38	-48.9	-52.3	3.6	0.00e+00	0	47	104	0	60	48979
2026-01-28 08:31:08.91	18.80	4.62	-48.9	-52.3	3.6	0.00e+00	0	47	104	0	60	48963
2026-01-28 08:31:11.94	18.72	4.86	-49.0	-52.3	3.6	0.00e+00	0	47	104	0	60	48624
2026-01-28 08:31:14.96	18.63	5.09	-48.9	-52.2	3.6	0.00e+00	0	47	104	0	60	48288
2026-01-28 08:31:17.98	18.55	5.34	-48.9	-52.3	3.6	0.00e+00	0	47	104	0	60	48892
2026-01-28 08:31:21.01	18.46	5.58	-48.8	-52.4	3.6	0.00e+00	0	48	104	0	60	49201
2026-01-28 08:31:24.04	18.37	5.83	-48.8	-52.3	3.6	0.00e+00	0	48	104	0	60	48719
2026-01-28 08:31:27.06	18.28	6.08	-48.8	-52.2	3.5	0.00e+00	0	48	104	0	60	48317
2026-01-28 08:31:30.07	18.19	6.34	-49.0	-53.0	3.6	0.00e+00	0	48	104	0	60	53106
2026-01-28 08:31:33.08	18.09	6.59	-45.5	-50.8	3.6	0.00e+00	0	48	104	0	60	40935
2026-01-28 08:31:36.10	17.99	6.86	-48.4	-53.0	3.5	0.00e+00	0	48	104	0	60	52826
2026-01-28 08:31:39.11	17.89	7.12	-50.0	-56.6	3.6	0.00e+00	0	48	104	0	60	79748
2026-01-28 08:31:42.14	17.79	7.39	-50.5	-53.1	3.6	0.00e+00	0	48	104	0	60	53517
2026-01-28 08:31:45.16	17.68	7.66	-53.9	-58.0	3.6	0.00e+00	0	48	104	0	60	94179
2026-01-28 08:31:48.18	17.57	7.94	-51.2	-54.2	3.6	0.00e+00	0	48	104	0	60	60545
2026-01-28 08:31:51.19	17.46	8.22	-53.2	-56.3	3.5	0.00e+00	0	48	104	0	60	77571
2026-01-28 08:31:54.21	17.34	8.50	-51.4	-56.5	3.6	0.00e+00	0	48	104	0	60	78929
2026-01-28 08:31:57.23	17.22	8.79	-50.8	-53.5	3.6	0.00e+00	0	48	104	0	60	56096
2026-01-28 08:32:00.25	17.10	9.08	-52.9	-56.3	3.6	0.00e+00	0	48	104	0	60	76923
2026-01-28 08:32:03.27	16.98	9.38	-51.6	-54.8	3.6	0.00e+00	0	48	104	0	60	65281
2026-01-28 08:32:06.28	16.85	9.68	-51.4	-53.7	3.6	0.00e+00	0	48	104	0	60	57382
2026-01-28 08:32:09.29	16.72	9.98	-51.4	-56.3	3.6	0.00e+00	0	48	104	0	60	76903
2026-01-28 08:32:12.31	16.58	10.30	-51.9	-54.0	3.6	0.00e+00	0	48	104	0	60	59374
2026-01-28 08:32:15.33	16.44	10.61	-50.6	-53.6	3.6	0.00e+00	0	48	104	0	60	56399
2026-01-28 08:32:18.35	16.30	10.93	-49.8	-54.8	3.6	0.00e+00	0	48	104	0	60	64884
2026-01-28 08:32:21.37	16.15	11.26	-52.3	-55.6	3.6	0.00e+00	0	48	104	0	60	71151
2026-01-28 08:32:24.39	16.00	11.59	-52.9	-57.9	3.6	0.00e+00	0	48	104	0	60	93184
2026-01-28 08:32:27.40	15.84	11.93	-54.7	-58.8	3.6	0.00e+00	0	48	104	0	60	102545
2026-01-28 08:32:30.42	15.68	12.28	-53.5	-57.6	3.6	0.00e+00	0	48	104	0	60	89863
2026-01-28 08:32:33.43	15.51	12.63	-55.1	-58.8	3.6	0.00e+00	0	48	104	0	60	102860
2026-01-28 08:32:36.46	15.34	12.99	-52.4	-57.7	3.6	0.00e+00	0	48	104	0	60	90860
2026-01-28 08:32:39.48	15.16	13.35	-54.8	-58.6	3.6	0.00e+00	0	48	104	0	60	100315
2026-01-28 08:32:42.50	14.98	13.72	-56.1	-59.8	3.6	0.00e+00	0	48	104	0	60	116058
2026-01-28 08:32:45.52	14.79	14.10	-53.6	-56.2	3.6	0.00e+00	0	48	104	0	60	76629
2026-01-28 08:32:48.54	14.59	14.49	-52.9	-55.2	3.6	0.00e+00	0	48	104	0	60	68200
2026-01-28 08:32:51.56	14.39	14.88	-53.3	-57.0	3.6	0.00e+00	0	48	104	0	60	83317
2026-01-28 08:32:54.59	14.18	15.28	-53.3	-55.8	3.6	0.00e+00	0	48	104	0	60	72716
2026-01-28 08:32:57.60	13.96	15.69	-53.6	-57.1	3.6	0.00e+00	0	48	104	0	60	85144
2026-01-28 08:33:00.61	13.74	16.11	-55.3	-58.7	3.6	0.00e+00	0	48	104	0	60	101482
2026-01-28 08:33:03.64	13.51	16.54	-55.1	-58.1	3.6	0.00e+00	0	48	104	0	60	94925
2026-01-28 08:33:06.66	13.27	16.97	-54.6	-57.5	3.6	0.00e+00	0	48	104	0	60	88422
2026-01-28 08:33:09.67	13.02	17.42	-53.9	-56.7	3.6	0.00e+00	0	48	104	0	60	81042
2026-01-28 08:33:12.69	12.76	17.88	-54.6	-57.7	3.6	0.00e+00	0	48	104	0	60	90745
2026-01-28 08:33:15.70	12.49	18.34	-53.8	-56.5	3.6	0.00e+00	0	48	104	0	60	78951
2026-01-28 08:33:18.72	12.22	18.82	-53.4	-55.9	3.6	0.00e+00	0	48	104	0	60	73585
2026-01-28 08:33:21.75	11.93	19.31	-54.7	-57.6	3.6	0.00e+00	0	48	104	0	60	89344
2026-01-28 08:33:24.77	11.63	19.81	-54.8	-57.6	3.6	0.00e+00	0	48	104	0	60	89327
2026-01-28 08:33:27.78	11.31	20.33	-55.6	-58.7	3.6	0.00e+00	0	48	104	0	60	102444
2026-01-28 08:33:30.79	10.99	20.85	-53.5	-57.4	3.6	0.00e+00	0	48	104	0	60	87782
2026-01-28 08:33:33.79	10.65	21.39	-54.0	-57.5	3.6	0.00e+00	0	48	104	0	60	89002
2026-01-28 08:33:36.81	10.30	21.94	-54.7	-57.8	3.5	0.00e+00	0	48	104	0	60	91978
2026-01-28 08:33:39.82	9.94	22.50	-54.9	-57.8	3.6	0.00e+00	0	48	104	0	60	91957
2026-01-28 08:33:42.82	9.56	23.08	-55.0	-57.8	3.6	0.00e+00	0	48	104	0	60	91953
2026-01-28 08:33:45.83	9.16	23.68	-55.1	-59.2	3.6	0.00e+00	0	48	104	0	60	107819
2026-01-28 08:33:48.83	8.74	24.28	-56.1	-59.3	3.6	0.00e+00	0	48	104	0	60	109277
2026-01-28 08:33:51.84	8.31	24.91	-55.6	-58.5	3.5	0.00e+00	0	48	104	0	60	100123
2026-01-28 08:33:54.85	7.85	25.55	-55.5	-58.9	3.6	0.00e+00	0	48	104	0	60	103735
2026-01-28 08:33:57.85	7.37	26.21	-55.2	-58.3	3.6	0.00e+00	0	48	104	0	60	97366
2026-01-28 08:34:00.86	6.87	26.89	-55.9	-59.1	3.5	0.00e+00	0	48	104	0	60	106703
2026-01-28 08:34:03.87	6.35	27.59	-55.9	-59.0	3.6	0.00e+00	0	48	104	0	60	105636
2026-01-28 08:34:06.88	5.79	28.30	-55.2	-57.9	3.6	0.00e+00	0	48	104	0	60	93053
2026-01-28 08:34:09.89	5.21	29.04	-55.0	-57.8	3.6	0.00e+00	0	48	104	0	60	91414
2026-01-28 08:34:12.89	4.60	29.79	-54.8	-57.6	3.6	0.00e+00	0	48	104	0	60	89646
2026-01-28 08:34:15.90	3.96	30.57	-55.6	-58.7	3.6	0.00e+00	0	48	104	0	60	101411
2026-01-28 08:34:18.92	3.27	31.37	-55.2	-58.5	3.6	0.00e+00	0	48	104	0	60	99683
2026-01-28 08:34:21.94	2.55	32.19	-54.5	-58.5	3.6	0.00e+00	0	48	104	0	60	99458
2026-01-28 08:34:24.96	1.79	33.04	-54.4	-57.7	3.6	0.00e+00	0	48	104	0	60	90671
2026-01-28 08:34:27.98	0.98	33.91	-56.1	-59.3	3.6	0.00e+00	0	48	104	0	60	109121
2026-01-28 08:34:31.00	0.13	34.80	-55.7	-58.8	3.6	0.00e+00	0	48	104	0	60	102723
2026-01-28 08:34:34.02	359.22	35.71	-55.8	-58.9	3.5	0.00e+00	0	48	104	0	60	104525
2026-01-28 08:34:37.03	358.26	36.64	-56.5	-59.9	3.5	0.00e+00	0	48	104	0	60	117064
2026-01-28 08:34:40.04	357.24	37.59	-56.5	-59.9	3.6	0.00e+00	0	48	104	0	60	116885
2026-01-28 08:34:43.07	356.14	38.58	-56.4	-59.7	3.6	0.00e+00	0	48	104	0	60	114894
2026-01-28 08:34:46.08	354.98	39.57	-56.5	-60.0	3.6	0.00e+00	0	48	104	0	60	117868
2026-01-28 08:34:49.09	353.74	40.59	-56.5	-60.1	3.6	0.00e+00	0	48	104	0	60	119784
2026-01-28 08:34:52.10	352.41	41.62	-56.4	-59.9	3.6	0.00e+00	0	48	104	0	60	117015
2026-01-28 08:34:55.12	350.99	42.67	-56.8	-60.4	3.6	0.00e+00	0	48	104	0	60	124406
2026-01-28 08:34:58.14	349.46	43.74	-56.9	-60.6	3.6	0.00e+00	0	48	104	0	60	127152
2026-01-28 08:35:01.16	347.83	44.81	-56.6	-60.3	3.6	0.00e+00	0	48	104	0	60	122627
2026-01-28 08:35:04.18	346.07	45.89	-56.7	-60.4	3.6	0.00e+00	0	48	104	0	60	124176
2026-01-28 08:35:07.20	344.19	46.97	-57.0	-60.8	3.6	0.00e+00	0	49	104	0	60	129777
2026-01-28 08:35:10.21	342.17	48.05	-56.9	-60.6	3.6	0.00e+00	0	48	104	0	60	127484
2026-01-28 08:35:13.22	340.00	49.11	-57.0	-60.6	3.6	0.00e+00	0	48	104	0	60	127185
2026-01-28 08:35:16.24	337.67	50.15	-57.1	-60.9	3.6	0.00e+00	0	48	104	0	60	131704
2026-01-28 08:35:19.26	335.16	51.17	-57.1	-60.8	3.6	0.00e+00	0	48	104	0	60	129367
2026-01-28 08:35:22.27	332.49	52.15	-57.0	-60.7	3.6	0.00e+00	0	48	104	0	60	127587
2026-01-28 08:35:25.29	329.62	53.09	-57.1	-60.7	3.5	0.00e+00	0	48	104	0	60	127519
2026-01-28 08:35:28.30	326.58	53.96	-57.1	-60.6	3.6	0.00e+00	0	48	104	0	60	127119
2026-01-28 08:35:31.33	323.33	54.77	-56.4	-60.5	3.6	0.00e+00	0	48	104	0	60	125308
2026-01-28 08:35:34.35	319.90	55.50	-56.5	-60.3	3.6	0.00e+00	0	48	104	0	60	121989
2026-01-28 08:35:37.36	316.31	56.12	-56.6	-60.2	3.6	0.00e+00	0	48	104	0	60	120652
2026-01-28 08:35:40.37	312.57	56.64	-56.1	-59.9	3.6	0.00e+00	0	48	104	0	60	116319
2026-01-28 08:35:43.39	308.69	57.05	-55.7	-59.8	3.6	0.00e+00	0	48	104	0	60	116268
2026-01-28 08:35:46.41	304.70	57.33	-56.4	-60.0	3.6	0.00e+00	0	48	104	0	60	118813
2026-01-28 08:35:49.44	300.64	57.48	-56.0	-59.9	3.6	0.00e+00	0	48	104	0	60	116695
2026-01-28 08:35:52.46	296.56	57.49	-55.9	-59.8	3.6	0.00e+00	0	48	104	0	60	115739
2026-01-28 08:35:55.48	292.50	57.37	-55.0	-59.7	3.6	0.00e+00	0	48	104	0	60	114220
2026-01-28 08:35:58.50	288.50	57.11	-55.8	-60.1	3.6	0.00e+00	0	48	104	0	60	119394
2026-01-28 08:36:01.51	284.60	56.73	-56.3	-60.5	3.6	0.00e+00	0	48	104	0	60	124998
2026-01-28 08:36:04.53	280.82	56.23	-56.2	-60.5	3.6	0.00e+00	0	48	104	0	60	125551
2026-01-28 08:36:07.54	277.20	55.62	-55.2	-60.1	3.6	0.00e+00	0	48	104	0	60	119028
2026-01-28 08:36:10.55	273.75	54.91	-55.2	-60.1	3.6	0.00e+00	0	48	104	0	60	119063
2026-01-28 08:36:13.57	270.46	54.12	-55.6	-60.2	3.6	0.00e+00	0	48	104	0	60	121075
2026-01-28 08:36:16.58	267.38	53.26	-55.7	-60.1	3.6	0.00e+00	0	48	104	0	60	119043
2026-01-28 08:36:19.60	264.47	52.33	-55.7	-59.8	3.5	0.00e+00	0	48	104	0	60	116040
2026-01-28 08:36:22.62	261.75	51.35	-56.1	-60.0	3.6	0.00e+00	0	48	104	0	60	118583
2026-01-28 08:36:25.64	259.21	50.34	-56.2	-60.1	3.6	0.00e+00	0	48	104	0	60	119692
2026-01-28 08:36:28.65	256.85	49.29	-56.3	-60.1	3.6	0.00e+00	0	48	104	0	60	120052
2026-01-28 08:36:31.68	254.63	48.22	-56.4	-60.2	3.6	0.00e+00	0	48	104	0	60	121103
2026-01-28 08:36:34.68	252.59	47.15	-56.3	-60.1	3.6	0.00e+00	0	48	104	0	60	119018
2026-01-28 08:36:37.70	250.68	46.07	-56.3	-60.0	3.6	0.00e+00	0	48	104	0	60	117827
2026-01-28 08:36:40.71	248.90	44.99	-56.3	-60.0	3.6	0.00e+00	0	48	104	0	60	118879
2026-01-28 08:36:43.73	247.24	43.91	-56.4	-60.1	3.6	0.00e+00	0	48	104	0	60	119707
2026-01-28 08:36:46.75	245.69	42.84	-56.3	-60.0	3.6	0.00e+00	0	48	104	0	60	118127
2026-01-28 08:36:49.77	244.25	41.78	-56.4	-60.1	3.6	0.00e+00	0	48	104	0	60	119330
2026-01-28 08:36:52.79	242.90	40.74	-56.4	-60.1	3.6	0.00e+00	0	48	104	0	60	119293
2026-01-28 08:36:55.81	241.63	39.71	-56.4	-60.1	3.6	0.00e+00	0	48	104	0	60	119189
2026-01-28 08:36:58.83	240.45	38.71	-56.4	-60.0	3.6	0.00e+00	0	48	104	0	60	118937
2026-01-28 08:37:01.85	239.34	37.72	-56.3	-60.0	3.6	0.00e+00	0	48	104	0	60	118418
2026-01-28 08:37:04.88	238.30	36.75	-56.2	-59.8	3.6	0.00e+00	0	48	104	0	60	115827
2026-01-28 08:37:07.90	237.32	35.81	-56.2	-59.9	3.6	0.00e+00	0	48	104	0	60	116369
2026-01-28 08:37:10.92	236.41	34.89	-56.1	-59.8	3.6	0.00e+00	0	48	104	0	60	115115
2026-01-28 08:37:13.94	235.54	34.00	-56.1	-59.8	3.6	0.00e+00	0	48	104	0	60	115624
2026-01-28 08:37:16.95	234.73	33.12	-56.1	-59.8	3.6	0.00e+00	0	48	104	0	60	115305
2026-01-28 08:37:19.98	233.95	32.27	-56.0	-59.6	3.6	0.00e+00	0	48	104	0	60	113512
2026-01-28 08:37:23.00	233.22	31.44	-55.9	-59.5	3.6	0.00e+00	0	48	104	0	60	112226
2026-01-28 08:37:26.01	232.53	30.64	-55.9	-59.6	3.6	0.00e+00	0	48	104	0	60	112910
2026-01-28 08:37:29.03	231.88	29.85	-56.1	-59.7	3.6	0.00e+00	0	49	104	0	60	114309
2026-01-28 08:37:32.05	231.26	29.09	-56.1	-59.7	3.6	0.00e+00	0	48	104	0	60	114206
2026-01-28 08:37:35.07	230.67	28.34	-55.8	-59.4	3.6	0.00e+00	0	48	104	0	60	110907
2026-01-28 08:37:38.09	230.11	27.62	-55.9	-59.5	3.6	0.00e+00	0	48	104	0	60	112196
2026-01-28 08:37:41.10	229.58	26.91	-56.0	-59.6	3.6	0.00e+00	0	48	104	0	60	113589
2026-01-28 08:37:44.12	229.07	26.23	-55.9	-59.6	3.6	0.00e+00	0	48	104	0	60	113251
2026-01-28 08:37:47.13	228.59	25.56	-55.9	-59.6	3.6	0.00e+00	0	48	104	0	60	112714
2026-01-28 08:37:50.15	228.12	24.91	-55.9	-59.6	3.6	0.00e+00	0	48	104	0	60	112877
2026-01-28 08:37:53.16	227.68	24.28	-55.9	-59.6	3.6	0.00e+00	0	49	104	0	60	112640
2026-01-28 08:37:56.19	227.26	23.66	-55.9	-59.6	3.6	0.00e+00	0	48	104	0	60	113117
2026-01-28 08:37:59.21	226.86	23.06	-55.8	-59.5	3.6	0.00e+00	0	48	104	0	60	111464
2026-01-28 08:38:02.23	226.47	22.48	-55.8	-59.5	3.6	0.00e+00	0	48	104	0	60	111932
2026-01-28 08:38:05.24	226.10	21.91	-55.7	-59.4	3.6	0.00e+00	0	48	104	0	60	110283
2026-01-28 08:38:08.26	225.75	21.35	-55.7	-59.4	3.6	0.00e+00	0	48	104	0	60	110717
2026-01-28 08:38:11.27	225.41	20.81	-55.7	-59.4	3.6	0.00e+00	0	48	104	0	60	110374
2026-01-28 08:38:14.28	225.08	20.29	-55.8	-59.4	3.6	0.00e+00	0	48	104	0	60	110875
2026-01-28 08:38:17.29	224.77	19.77	-55.4	-59.1	3.6	0.00e+00	0	48	104	0	60	106223
2026-01-28 08:38:20.30	224.46	19.27	-55.5	-59.2	3.6	0.00e+00	0	48	104	0	60	108180
2026-01-28 08:38:23.32	224.17	18.78	-55.4	-59.1	3.6	0.00e+00	0	48	104	0	60	106694
2026-01-28 08:38:26.33	223.89	18.30	-55.1	-58.9	3.6	0.00e+00	0	48	104	0	60	104127
2026-01-28 08:38:29.35	223.62	17.83	-55.3	-59.1	3.6	0.00e+00	0	49	104	0	60	106486
2026-01-28 08:38:32.37	223.36	17.37	-55.4	-59.1	3.6	0.00e+00	0	48	104	0	60	107145
2026-01-28 08:38:35.39	223.11	16.92	-55.2	-58.9	3.6	0.00e+00	0	48	104	0	60	104684
2026-01-28 08:38:38.41	222.87	16.48	-55.2	-59.0	3.6	0.00e+00	0	48	104	0	60	105094
2026-01-28 08:38:41.43	222.63	16.05	-55.3	-59.0	3.6	0.00e+00	0	48	104	0	60	105939
2026-01-28 08:38:44.45	222.41	15.63	-55.4	-59.1	3.6	0.00e+00	0	48	104	0	60	107288
2026-01-28 08:38:47.47	222.19	15.22	-55.1	-58.8	3.6	0.00e+00	0	48	104	0	60	103120
2026-01-28 08:38:50.49	221.98	14.81	-55.2	-58.9	3.6	0.00e+00	0	48	104	0	60	103754
2026-01-28 08:38:53.50	221.77	14.42	-55.2	-58.8	3.6	0.00e+00	0	48	104	0	60	103071
2026-01-28 08:38:56.52	221.58	14.03	-55.0	-58.8	3.6	0.00e+00	0	48	104	0	60	102516
2026-01-28 08:38:59.54	221.38	13.65	-55.1	-58.7	3.6	0.00e+00	0	48	104	0	60	101847
2026-01-28 08:39:02.55	221.20	13.28	-54.9	-58.5	3.6	0.00e+00	0	48	104	0	60	99961
2026-01-28 08:39:05.57	221.02	12.91	-55.0	-58.6	3.6	0.00e+00	0	49	104	0	60	101219
2026-01-28 08:39:08.58	220.84	12.55	-54.4	-58.2	3.6	0.00e+00	0	48	104	0	60	96227
2026-01-28 08:39:11.59	220.68	12.20	-53.6	-57.6	3.6	0.00e+00	0	48	104	0	60	89262
2026-01-28 08:39:14.61	220.51	11.86	-53.6	-57.6	3.6	0.00e+00	0	48	104	0	60	89821
2026-01-28 08:39:17.62	220.35	11.52	-53.2	-57.2	3.6	0.00e+00	0	48	104	0	60	85851
2026-01-28 08:39:20.64	220.20	11.18	-53.3	-57.3	3.6	0.00e+00	0	48	104	0	60	86709
2026-01-28 08:39:23.66	220.05	10.85	-53.8	-57.7	3.6	0.00e+00	0	48	104	0	60	90877
2026-01-28 08:39:26.68	219.90	10.53	-53.9	-57.8	3.6	0.00e+00	0	49	104	0	60	92021
2026-01-28 08:39:29.70	219.76	10.21	-53.7	-57.7	3.6	0.00e+00	0	48	104	0	60	90670
2026-01-28 08:39:32.70	219.62	9.90	-54.6	-58.3	3.6	0.00e+00	0	49	104	0	60	97392
2026-01-28 08:39:35.71	219.49	9.60	-54.7	-58.4	3.6	0.00e+00	0	48	104	0	60	97963
2026-01-28 08:39:38.73	219.36	9.29	-54.4	-58.1	3.6	0.00e+00	0	48	104	0	60	94881
2026-01-28 08:39:41.74	219.23	9.00	-54.6	-58.3	3.6	0.00e+00	0	48	104	0	60	97449
2026-01-28 08:39:44.75	219.11	8.70	-54.6	-58.3	3.6	0.00e+00	0	49	104	0	60	97169
2026-01-28 08:39:47.77	218.99	8.41	-54.0	-57.8	3.6	0.00e+00	0	48	104	0	60	91430
2026-01-28 08:39:50.78	218.87	8.13	-54.0	-57.7	3.6	0.00e+00	0	49	104	0	60	91201
2026-01-28 08:39:53.80	218.76	7.85	-54.2	-57.9	3.6	0.00e+00	0	48	104	0	60	92665
2026-01-28 08:39:56.81	218.64	7.57	-54.0	-57.7	3.5	0.00e+00	0	49	104	0	60	90864
2026-01-28 08:39:59.85	218.53	7.30	-54.0	-57.7	3.6	0.00e+00	0	49	104	0	60	91025
2026-01-28 08:40:02.85	218.43	7.03	-54.2	-57.9	3.6	0.00e+00	0	49	104	0	60	93429
2026-01-28 08:40:05.87	218.33	6.76	-53.8	-57.3	3.6	0.00e+00	0	48	104	0	60	87168
2026-01-28 08:40:08.88	218.23	6.50	-54.0	-57.6	3.6	0.00e+00	0	48	104	0	60	90080
2026-01-28 08:40:11.90	218.13	6.24	-53.8	-57.4	3.6	0.00e+00	0	49	104	0	60	87543
2026-01-28 08:40:14.92	218.03	5.99	-54.1	-57.8	3.6	0.00e+00	0	48	104	0	60	91838
2026-01-28 08:40:17.94	217.94	5.74	-55.5	-59.3	3.6	0.00e+00	0	48	104	0	60	109295
2026-01-28 08:40:20.96	217.85	5.49	-57.1	-60.8	3.6	0.00e+00	0	48	104	0	60	129840
2026-01-28 08:40:23.98	217.76	5.24	-57.8	-61.5	3.6	0.00e+00	0	49	104	0	60	139855
2026-01-28 08:40:27.00	217.67	5.00	-58.0	-61.7	3.6	0.00e+00	0	48	104	0	60	144549
2026-01-28 08:40:30.03	217.58	4.76	-57.4	-61.4	3.5	0.00e+00	0	48	104	0	60	139282
2026-01-28 08:40:33.05	217.50	4.52	-55.1	-59.6	3.6	0.00e+00	0	48	104	0	60	113146
2026-01-28 08:40:36.05	217.42	4.29	-56.5	-60.8	3.6	0.00e+00	0	48	104	0	60	129422
2026-01-28 08:40:39.07	217.34	4.05	-56.5	-60.8	3.6	0.00e+00	0	48	104	0	60	129874
2026-01-28 08:40:42.09	217.26	3.82	-56.7	-61.0	3.6	0.00e+00	0	48	104	0	60	132156
2026-01-28 08:40:45.11	217.18	3.60	-56.7	-61.0	3.6	0.00e+00	0	48	104	0	60	132991
2026-01-28 08:40:48.13	217.11	3.37	-56.7	-60.9	3.6	0.00e+00	0	49	104	0	60	131826
2026-01-28 08:40:51.15	217.04	3.15	-56.7	-61.0	3.6	0.00e+00	0	48	104	0	60	132105
2026-01-28 08:40:54.16	216.97	2.93	-56.6	-60.9	3.6	0.00e+00	0	49	104	0	60	131204
2026-01-28 08:40:57.18	216.90	2.71	-56.6	-60.9	3.6	0.00e+00	0	49	104	0	60	131023
2026-01-28 08:41:00.19	216.83	2.50	-56.6	-60.9	3.6	0.00e+00	0	48	104	0	60	131106
2026-01-28 08:41:03.20	216.76	2.28	-56.5	-60.9	3.6	0.00e+00	0	49	104	0	60	130675
2026-01-28 08:41:06.22	216.70	2.07	-56.5	-60.9	3.6	0.00e+00	0	49	104	0	60	130649
2026-01-28 08:41:09.24	216.63	1.86	-56.6	-60.9	3.6	0.00e+00	0	48	104	0	60	130543
2026-01-28 08:41:12.27	216.57	1.65	-56.6	-60.8	3.6	0.00e+00	0	48	104	0	60	130252
2026-01-28 08:41:15.29	216.51	1.45	-56.6	-60.9	3.6	0.00e+00	0	48	104	0	60	131238
2026-01-28 08:41:18.31	216.45	1.24	-56.6	-60.9	3.6	0.00e+00	0	49	104	0	60	130877
2026-01-28 08:41:21.34	216.39	1.04	-56.5	-60.9	3.6	0.00e+00	0	49	104	0	60	131208
2026-01-28 08:41:24.36	216.33	0.84	-56.5	-60.9	3.6	0.00e+00	0	48	104	0	60	130951
2026-01-28 08:41:27.38	216.27	0.64	-56.6	-60.9	3.6	0.00e+00	0	49	104	0	60	130870
2026-01-28 08:41:30.41	216.22	0.44	-56.5	-60.8	3.6	0.00e+00	0	49	104	0	60	130084
2026-01-28 08:41:33.43	216.16	0.25	-56.5	-60.8	3.6	0.00e+00	0	48	104	0	60	130235
2026-01-28 08:41:36.46	216.11	0.05	-56.4	-60.8	3.6	0.00e+00	0	48	104	0	60	129907
2026-01-28 08:41:39.48	216.06	-0.14	-56.5	-60.8	3.5	0.00e+00	0	48	104	0	60	129929

#Closed at: 2026-01-28 08:41:40
#Recorded file [0 MB]: D:/Data/35015_260128_113428.dat