passes_logs/2026/01/28/R3.2S-Naryan-Mar/R3.2S-Naryan-Mar__20260128_104556_NOAA_20_JPSS-1_rec.log

#Pass ID: 20260128_104556_NOAA 20 (JPSS-1)
#Satellite: NOAA 20 (JPSS-1)
#Configuration: NOAA 20
#almurnet v.1.7.20240730
#Start time: 2026-01-28 10:45:59

#Version: 2.2.20231116
#Station: R3.2S-Naryan-Mar
#Location: 53.008057 lon 67.646978 lat
#TLE: 1 43013U 17073A   26027.80586608  .00000156  00000+0  94940-4 0  9998
#TLE: 2 43013  98.7647 328.6108 0000947  21.3465 338.7750 14.19541216424550

#Time	Az	El	Level	Level2	SNR	BER	BlckErr	Temp	State	Recorded	gain1	gain2
2026-01-28 10:45:59.78	214.84	0.15	-60.2	-77.3	3.3	1.54e+00	0	45	0	0	60	286234
2026-01-28 10:46:03.79	215.11	0.35	-62.3	-78.8	3.6	1.51e+00	0	45	104	0	60	341293
2026-01-28 10:46:07.82	215.39	0.56	-61.8	-78.4	3.6	1.51e+00	0	45	104	0	60	324928
2026-01-28 10:46:11.85	215.68	0.77	-60.1	-76.7	3.6	1.51e+00	0	45	104	0	60	267863
2026-01-28 10:46:15.87	215.96	0.98	-59.2	-75.9	3.6	1.51e+00	0	45	104	0	60	243842
2026-01-28 10:46:19.90	216.25	1.19	-58.9	-75.4	3.6	1.51e+00	0	45	104	0	60	230975
2026-01-28 10:46:23.92	216.55	1.40	-58.8	-75.3	3.6	1.51e+00	0	45	104	0	60	228126
2026-01-28 10:46:27.95	216.85	1.61	-58.7	-75.2	3.6	1.51e+00	0	45	104	0	60	226140
2026-01-28 10:46:31.98	217.15	1.83	-58.7	-75.2	3.6	1.51e+00	0	45	104	0	60	224663
2026-01-28 10:46:36.01	217.46	2.04	-58.7	-75.2	3.6	1.51e+00	0	46	104	0	60	225088
2026-01-28 10:46:40.04	217.77	2.26	-58.6	-75.1	3.6	1.51e+00	0	45	104	0	60	223743
2026-01-28 10:46:44.06	218.09	2.47	-58.6	-75.1	3.6	1.51e+00	0	46	104	0	60	222408
2026-01-28 10:46:48.08	218.40	2.69	-58.6	-75.0	3.6	1.51e+00	0	46	104	0	60	221361
2026-01-28 10:46:52.11	218.73	2.91	-58.5	-75.0	3.6	1.51e+00	0	46	104	0	60	221177
2026-01-28 10:46:56.13	219.06	3.13	-58.5	-75.0	3.6	1.51e+00	0	46	104	0	60	219172
2026-01-28 10:47:00.16	219.39	3.35	-58.4	-74.9	3.6	1.51e+00	0	46	104	0	60	218718
2026-01-28 10:47:04.19	219.73	3.57	-58.4	-74.9	3.6	1.51e+00	0	46	104	0	60	217720
2026-01-28 10:47:08.21	220.07	3.79	-58.4	-74.9	3.6	1.51e+00	0	46	104	0	60	217994
2026-01-28 10:47:12.24	220.42	4.01	-58.4	-74.9	3.6	1.51e+00	0	46	104	0	60	217073
2026-01-28 10:47:16.26	220.78	4.24	-58.3	-74.8	3.6	1.51e+00	0	46	104	0	60	216361
2026-01-28 10:47:20.29	221.14	4.46	-58.3	-74.8	3.6	1.51e+00	0	46	104	0	60	214484
2026-01-28 10:47:24.32	221.50	4.69	-58.4	-74.8	3.6	1.51e+00	0	46	104	0	60	214517
2026-01-28 10:47:28.34	221.87	4.92	-58.3	-74.7	3.6	1.51e+00	0	46	104	0	60	213542
2026-01-28 10:47:32.37	222.24	5.14	-58.3	-74.8	3.6	1.51e+00	0	46	104	0	60	215208
2026-01-28 10:47:36.40	222.63	5.37	-58.3	-74.0	3.6	1.51e+00	0	46	104	0	60	196092
2026-01-28 10:47:40.42	223.01	5.60	-57.9	-67.1	6.0	4.05e-01	0	46	0	0	60	88618
2026-01-28 10:47:44.43	223.40	5.83	-55.9	-59.8	14.0	8.30e-06	0	46	0	7340032	60	38179
2026-01-28 10:47:48.46	223.80	6.07	-55.7	-59.5	13.6	0.00e+00	0	46	0	15728640	60	36928
2026-01-28 10:47:52.50	224.21	6.30	-58.0	-70.0	4.2	1.51e+00	0	46	104	1048576	60	124310
2026-01-28 10:47:56.52	224.62	6.53	-55.2	-58.2	16.2	0.00e+00	0	46	0	4194304	60	31741
2026-01-28 10:48:00.55	225.03	6.77	-54.7	-57.2	17.1	0.00e+00	0	46	0	12582912	60	28406
2026-01-28 10:48:04.58	225.46	7.00	-54.6	-57.2	17.1	0.00e+00	0	46	0	19922944	60	28271
2026-01-28 10:48:08.61	225.89	7.24	-54.7	-57.3	17.2	0.00e+00	0	46	0	27262976	60	28604
2026-01-28 10:48:12.63	226.33	7.48	-54.7	-57.2	17.3	0.00e+00	0	46	0	34603008	60	28414
2026-01-28 10:48:16.64	226.77	7.72	-54.7	-57.0	17.6	0.00e+00	0	46	0	41943040	60	27824
2026-01-28 10:48:20.67	227.22	7.95	-54.7	-57.0	17.7	0.00e+00	0	46	0	49283072	60	27603
2026-01-28 10:48:24.69	227.68	8.19	-54.7	-56.9	17.9	0.00e+00	0	46	0	57671680	60	27455
2026-01-28 10:48:28.71	228.14	8.43	-54.7	-56.9	18.1	0.00e+00	0	46	0	65011712	60	27276
2026-01-28 10:48:32.73	228.61	8.67	-54.6	-56.7	18.2	0.00e+00	0	46	0	72351744	60	26808
2026-01-28 10:48:36.76	229.09	8.92	-54.7	-56.8	18.2	0.00e+00	0	46	0	79691776	60	27057
2026-01-28 10:48:40.79	229.58	9.16	-54.6	-56.7	18.3	0.00e+00	0	46	0	87031808	60	26760
2026-01-28 10:48:44.81	230.08	9.40	-54.7	-56.8	18.2	0.00e+00	0	46	0	95420416	60	27144
2026-01-28 10:48:48.82	230.58	9.64	-54.6	-56.6	18.5	0.00e+00	0	46	0	102760448	60	26505
2026-01-28 10:48:52.84	231.09	9.89	-54.8	-56.8	18.4	0.00e+00	0	46	0	110100480	60	27142
2026-01-28 10:48:56.87	231.61	10.13	-54.7	-56.8	18.5	0.00e+00	0	46	0	117440512	60	27101
2026-01-28 10:49:00.89	232.14	10.38	-54.7	-56.6	18.7	0.00e+00	0	46	0	124780544	60	26478
2026-01-28 10:49:04.91	232.67	10.62	-54.5	-56.4	19.0	0.00e+00	0	46	0	133169152	60	25744
2026-01-28 10:49:08.94	233.22	10.87	-54.4	-56.3	19.0	0.00e+00	0	46	0	140509184	60	25675
2026-01-28 10:49:12.96	233.77	11.11	-54.5	-56.4	18.9	0.00e+00	0	46	0	147849216	60	25910
2026-01-28 10:49:16.98	234.34	11.36	-54.4	-56.3	19.1	0.00e+00	0	46	0	155189248	60	25591
2026-01-28 10:49:21.00	234.91	11.60	-54.3	-56.1	19.0	0.00e+00	0	46	0	162529280	60	25130
2026-01-28 10:49:25.02	235.49	11.84	-54.2	-56.1	19.1	0.00e+00	0	46	0	170917888	60	24879
2026-01-28 10:49:29.05	236.08	12.09	-54.1	-56.0	19.1	0.00e+00	0	46	0	178257920	60	24630
2026-01-28 10:49:33.08	236.68	12.33	-54.0	-55.9	19.1	0.00e+00	0	46	0	185597952	60	24482
2026-01-28 10:49:37.10	237.29	12.58	-54.0	-55.8	19.3	0.00e+00	0	46	0	192937984	60	24242
2026-01-28 10:49:41.13	237.91	12.82	-53.8	-55.6	19.5	0.00e+00	0	46	0	200278016	60	23692
2026-01-28 10:49:45.15	238.54	13.06	-53.8	-55.5	19.6	0.00e+00	0	46	0	208666624	60	23416
2026-01-28 10:49:49.17	239.18	13.31	-54.0	-55.7	19.6	0.00e+00	0	46	0	216006656	60	23971
2026-01-28 10:49:53.20	239.84	13.55	-54.1	-55.9	19.4	0.00e+00	0	46	0	223346688	60	24338
2026-01-28 10:49:57.22	240.50	13.79	-54.1	-55.9	19.3	0.00e+00	0	46	0	230686720	60	24570
2026-01-28 10:50:01.25	241.17	14.03	-54.0	-55.8	19.5	0.00e+00	0	46	0	238026752	60	24024
2026-01-28 10:50:05.28	241.85	14.26	-54.0	-55.8	19.5	0.00e+00	0	46	0	246415360	60	24095
2026-01-28 10:50:09.30	242.54	14.50	-53.8	-55.6	19.7	0.00e+00	0	46	0	253755392	60	23545
2026-01-28 10:50:13.32	243.24	14.73	-53.5	-55.1	20.1	0.00e+00	0	46	0	261095424	60	22228
2026-01-28 10:50:17.35	243.96	14.97	-53.4	-55.0	20.4	0.00e+00	0	46	0	268435456	60	21930
2026-01-28 10:50:21.38	244.68	15.20	-53.3	-54.8	20.6	0.00e+00	0	46	0	275775488	60	21574
2026-01-28 10:50:25.39	245.42	15.43	-53.1	-54.5	20.8	0.00e+00	0	46	0	284164096	60	20858
2026-01-28 10:50:29.42	246.16	15.65	-53.0	-54.4	21.0	0.00e+00	0	46	0	291504128	60	20514
2026-01-28 10:50:33.45	246.92	15.88	-53.1	-54.5	20.7	0.00e+00	0	46	0	298844160	60	20825
2026-01-28 10:50:37.48	247.69	16.10	-53.0	-54.5	20.8	0.00e+00	0	46	0	306184192	60	20716
2026-01-28 10:50:41.50	248.47	16.32	-53.0	-54.5	20.8	0.00e+00	0	46	0	313524224	60	20751
2026-01-28 10:50:45.52	249.26	16.53	-53.5	-55.1	20.2	0.00e+00	0	46	0	321912832	60	22197
2026-01-28 10:50:49.55	250.06	16.74	-53.4	-54.9	20.2	0.00e+00	0	46	0	329252864	60	21871
2026-01-28 10:50:53.58	250.88	16.95	-53.5	-55.1	20.2	0.00e+00	0	46	0	336592896	60	22208
2026-01-28 10:50:57.59	251.70	17.15	-53.8	-55.4	19.9	0.00e+00	0	46	0	343932928	60	23173
2026-01-28 10:51:01.59	252.52	17.35	-53.7	-55.4	19.9	0.00e+00	0	46	0	351272960	60	23087
2026-01-28 10:51:05.62	253.37	17.55	-53.7	-55.4	19.7	0.00e+00	0	46	0	359661568	60	23130
2026-01-28 10:51:09.65	254.23	17.74	-54.2	-56.0	19.0	0.00e+00	0	46	0	367001600	60	24732
2026-01-28 10:51:13.67	255.09	17.93	-54.2	-56.1	19.1	0.00e+00	0	46	0	374341632	60	24910
2026-01-28 10:51:17.69	255.96	18.11	-54.6	-56.6	18.6	0.00e+00	0	46	0	381681664	60	26397
2026-01-28 10:51:21.72	256.85	18.28	-54.4	-56.3	18.8	0.00e+00	0	46	0	389021696	60	25715
2026-01-28 10:51:25.75	257.75	18.46	-54.2	-56.1	19.2	0.00e+00	0	46	0	396361728	60	24953
2026-01-28 10:51:29.78	258.65	18.62	-54.2	-56.1	19.1	0.00e+00	0	46	0	404750336	60	24997
2026-01-28 10:51:33.81	259.57	18.78	-54.3	-56.1	19.0	0.00e+00	0	46	0	412090368	60	25136
2026-01-28 10:51:37.83	260.49	18.93	-53.9	-55.6	19.6	0.00e+00	0	46	0	419430400	60	23710
2026-01-28 10:51:41.86	261.42	19.08	-53.8	-55.5	19.6	0.00e+00	0	46	0	426770432	60	23375
2026-01-28 10:51:45.88	262.36	19.22	-53.9	-55.6	19.4	0.00e+00	0	46	0	434110464	60	23722
2026-01-28 10:51:49.90	263.31	19.35	-53.9	-55.7	19.3	0.00e+00	0	46	0	442499072	60	23776
2026-01-28 10:51:53.92	264.27	19.48	-53.6	-55.3	19.7	0.00e+00	0	46	0	449839104	60	22807
2026-01-28 10:51:57.95	265.23	19.60	-53.6	-55.3	19.7	0.00e+00	0	46	0	457179136	60	22790
2026-01-28 10:52:01.98	266.21	19.71	-53.7	-55.4	19.6	0.00e+00	0	46	0	464519168	60	23176
2026-01-28 10:52:06.00	267.18	19.81	-53.5	-55.1	20.0	0.00e+00	0	46	0	472907776	60	22393
2026-01-28 10:52:10.03	268.17	19.91	-53.4	-54.9	20.1	0.00e+00	0	46	0	480247808	60	21875
2026-01-28 10:52:14.07	269.16	20.00	-53.5	-55.2	19.8	0.00e+00	0	46	0	487587840	60	22545
2026-01-28 10:52:18.10	270.16	20.08	-53.3	-54.9	20.0	0.00e+00	0	46	0	494927872	60	21694
2026-01-28 10:52:22.12	271.16	20.15	-53.0	-54.6	20.2	0.00e+00	0	46	0	502267904	60	21012
2026-01-28 10:52:26.14	272.16	20.21	-53.8	-55.7	19.2	0.00e+00	0	46	0	509607936	60	23877
2026-01-28 10:52:30.17	273.17	20.26	-53.8	-55.7	19.2	0.00e+00	0	46	0	517996544	60	23990
2026-01-28 10:52:34.20	274.18	20.31	-53.3	-55.1	19.8	0.00e+00	0	46	0	525336576	60	22355
2026-01-28 10:52:38.22	275.19	20.35	-53.6	-55.5	19.5	0.00e+00	0	46	0	532676608	60	23396
2026-01-28 10:52:42.24	276.21	20.37	-53.9	-56.1	19.0	0.00e+00	0	46	0	540016640	60	24882
2026-01-28 10:52:46.25	277.22	20.39	-53.7	-55.9	19.1	0.00e+00	0	46	0	547356672	60	24366
2026-01-28 10:52:50.28	278.24	20.40	-53.9	-56.3	18.4	0.00e+00	0	46	0	555745280	60	25696
2026-01-28 10:52:54.31	279.26	20.40	-53.8	-56.2	18.3	0.00e+00	0	46	0	563085312	60	25422
2026-01-28 10:52:58.34	280.27	20.40	-53.5	-55.9	18.6	0.00e+00	0	46	0	570425344	60	24432
2026-01-28 10:53:02.36	281.29	20.38	-53.1	-55.2	19.3	0.00e+00	0	46	0	577765376	60	22469
2026-01-28 10:53:06.39	282.31	20.35	-53.3	-55.2	19.5	0.00e+00	0	46	0	586153984	60	22435
2026-01-28 10:53:10.42	283.32	20.32	-54.0	-55.9	19.1	0.00e+00	0	46	0	593494016	60	24475
2026-01-28 10:53:14.45	284.33	20.28	-53.9	-55.7	19.3	0.00e+00	0	46	0	600834048	60	24010
2026-01-28 10:53:18.46	285.34	20.22	-53.8	-55.7	19.3	0.00e+00	0	46	0	608174080	60	23813
2026-01-28 10:53:22.49	286.34	20.16	-53.9	-55.7	19.4	0.00e+00	0	46	0	615514112	60	23909
2026-01-28 10:53:26.51	287.34	20.09	-53.7	-55.6	19.6	0.00e+00	0	46	0	622854144	60	23555
2026-01-28 10:53:30.54	288.34	20.02	-53.0	-55.1	19.9	0.00e+00	0	46	0	631242752	60	22235
2026-01-28 10:53:34.56	289.32	19.93	-53.3	-55.7	19.4	0.00e+00	0	46	0	638582784	60	23813
2026-01-28 10:53:38.58	290.31	19.84	-53.3	-55.5	19.6	0.00e+00	0	46	0	645922816	60	23421
2026-01-28 10:53:42.60	291.28	19.74	-52.9	-54.6	20.6	0.00e+00	0	46	0	653262848	60	20976
2026-01-28 10:53:46.61	292.25	19.63	-52.9	-54.4	20.8	0.00e+00	0	46	0	660602880	60	20513
2026-01-28 10:53:50.62	293.21	19.51	-53.1	-54.7	20.6	0.00e+00	0	46	0	668991488	60	21284
2026-01-28 10:53:54.65	294.17	19.39	-53.1	-55.1	20.1	0.00e+00	0	46	0	676331520	60	22303
2026-01-28 10:53:58.68	295.12	19.26	-52.9	-54.9	20.2	0.00e+00	0	46	0	683671552	60	21728
2026-01-28 10:54:02.71	296.06	19.12	-52.6	-54.3	20.6	0.00e+00	0	46	0	691011584	60	20376
2026-01-28 10:54:06.72	296.99	18.98	-52.4	-53.9	21.1	0.00e+00	0	46	0	698351616	60	19320
2026-01-28 10:54:10.75	297.91	18.82	-52.5	-54.0	21.0	0.00e+00	0	46	0	706740224	60	19580
2026-01-28 10:54:14.78	298.83	18.67	-52.7	-54.1	20.9	0.00e+00	0	46	0	714080256	60	19775
2026-01-28 10:54:18.80	299.73	18.51	-52.2	-53.6	21.4	0.00e+00	0	46	0	721420288	60	18682
2026-01-28 10:54:22.83	300.63	18.34	-51.9	-53.4	21.5	0.00e+00	0	46	0	728760320	60	18402
2026-01-28 10:54:26.86	301.51	18.16	-52.0	-53.5	21.4	0.00e+00	0	46	0	736100352	60	18586
2026-01-28 10:54:30.89	302.39	17.98	-52.2	-53.7	21.5	0.00e+00	0	46	0	744488960	60	18925
2026-01-28 10:54:34.92	303.26	17.80	-52.3	-54.1	21.1	0.00e+00	0	46	0	751828992	60	19758
2026-01-28 10:54:38.95	304.11	17.61	-52.4	-54.2	21.0	0.00e+00	0	46	0	759169024	60	20024
2026-01-28 10:54:42.98	304.96	17.42	-53.0	-54.8	20.1	0.00e+00	0	46	0	766509056	60	21426
2026-01-28 10:54:47.01	305.79	17.22	-53.2	-54.8	19.6	0.00e+00	0	46	0	773849088	60	21545
2026-01-28 10:54:51.03	306.61	17.02	-53.3	-55.1	17.8	0.00e+00	0	46	0	782237696	60	22232
2026-01-28 10:54:55.07	307.43	16.81	-53.4	-55.2	19.7	0.00e+00	0	46	0	789577728	60	22514
2026-01-28 10:54:59.09	308.23	16.60	-53.4	-55.3	19.3	0.00e+00	0	46	0	796917760	60	22783
2026-01-28 10:55:03.12	309.02	16.39	-53.7	-56.0	18.8	0.00e+00	0	46	0	804257792	60	24774
2026-01-28 10:55:07.15	309.80	16.17	-53.4	-55.7	18.8	0.00e+00	0	46	0	811597824	60	23857
2026-01-28 10:55:11.17	310.57	15.95	-53.6	-55.6	19.1	0.00e+00	0	46	0	819986432	60	23482
2026-01-28 10:55:15.19	311.32	15.73	-53.9	-55.8	19.0	0.00e+00	0	46	0	827326464	60	24244
2026-01-28 10:55:19.22	312.07	15.51	-53.9	-55.8	18.9	0.00e+00	0	46	0	834666496	60	24288
2026-01-28 10:55:23.25	312.81	15.28	-53.0	-54.8	19.9	0.00e+00	0	46	0	842006528	60	21494
2026-01-28 10:55:27.27	313.53	15.05	-53.1	-54.9	19.9	0.00e+00	0	46	0	849346560	60	21817
2026-01-28 10:55:31.28	314.24	14.82	-53.2	-54.9	20.0	0.00e+00	0	46	0	856686592	60	21697
2026-01-28 10:55:35.31	314.94	14.59	-53.9	-55.8	19.0	0.00e+00	0	46	0	865075200	60	24146
2026-01-28 10:55:39.34	315.64	14.36	-54.2	-56.4	18.7	0.00e+00	0	46	0	872415232	60	25806
2026-01-28 10:55:43.35	316.32	14.12	-53.4	-55.2	19.8	0.00e+00	0	46	0	879755264	60	22451
2026-01-28 10:55:47.38	316.99	13.88	-53.5	-55.3	19.6	0.00e+00	0	46	0	887095296	60	22813
2026-01-28 10:55:51.39	317.65	13.65	-53.7	-55.6	19.2	0.00e+00	0	46	0	895483904	60	23611
2026-01-28 10:55:55.42	318.30	13.41	-53.6	-55.5	19.0	0.00e+00	0	46	0	902823936	60	23472
2026-01-28 10:55:59.44	318.94	13.17	-53.7	-56.3	17.8	0.00e+00	0	46	0	910163968	60	25471
2026-01-28 10:56:03.47	319.57	12.93	-53.6	-56.2	17.6	0.00e+00	0	46	0	917504000	60	25429
2026-01-28 10:56:07.50	320.19	12.69	-53.9	-56.4	17.7	0.00e+00	0	46	0	924844032	60	25869
2026-01-28 10:56:11.52	320.80	12.44	-54.7	-57.6	16.4	0.00e+00	0	46	0	933232640	60	29722
2026-01-28 10:56:15.55	321.41	12.20	-54.9	-57.9	16.1	0.00e+00	0	46	0	940572672	60	30855
2026-01-28 10:56:19.58	322.00	11.96	-54.8	-58.2	15.4	0.00e+00	0	46	0	947912704	60	31802
2026-01-28 10:56:23.61	322.58	11.72	-54.5	-59.6	13.4	6.80e-06	0	46	0	955252736	60	37425
2026-01-28 10:56:27.63	323.15	11.47	-54.8	-60.4	12.4	1.46e-04	0	46	0	962592768	60	41047
2026-01-28 10:56:31.66	323.72	11.23	-55.4	-60.9	12.1	2.45e-04	0	46	0	969932800	60	43215
2026-01-28 10:56:35.69	324.28	10.99	-56.4	-62.1	11.1	1.59e-03	0	46	0	978321408	60	49868
2026-01-28 10:56:39.71	324.82	10.74	-56.6	-63.1	9.7	9.06e-03	0	46	0	985661440	60	55999
2026-01-28 10:56:43.75	325.36	10.50	-55.9	-63.6	8.9	2.42e-02	0	46	0	993001472	60	59111
2026-01-28 10:56:47.77	325.89	10.26	-56.4	-64.8	7.4	7.99e-02	0	46	0	1000341504	60	68468
2026-01-28 10:56:51.80	326.41	10.02	-57.2	-66.2	6.0	2.78e-01	0	46	0	1008730112	60	80390
2026-01-28 10:56:55.83	326.93	9.77	-57.0	-66.9	5.3	4.61e-01	0	46	0	1016070144	60	86372
2026-01-28 10:56:59.86	327.43	9.53	-57.4	-67.8	4.6	6.91e-01	0	46	0	1023410176	60	95956
2026-01-28 10:57:03.88	327.93	9.29	-57.6	-69.1	3.9	1.32e+00	0	46	0	1030750208	60	112126
2026-01-28 10:57:07.89	328.41	9.05	-56.3	-71.5	3.8	1.50e+00	0	46	104	1030750208	60	148034
2026-01-28 10:57:11.91	328.89	8.81	-56.5	-72.5	3.6	1.51e+00	0	46	104	1030750208	60	165413
2026-01-28 10:57:15.95	329.37	8.57	-57.2	-73.7	3.6	1.51e+00	0	46	104	1030750208	60	190054
2026-01-28 10:57:19.98	329.84	8.33	-57.6	-73.3	3.6	1.51e+00	0	46	104	1030750208	60	181517
2026-01-28 10:57:24.01	330.30	8.10	-57.4	-74.0	3.6	1.51e+00	0	46	104	1030750208	60	197077
2026-01-28 10:57:28.03	330.75	7.86	-57.0	-73.7	3.6	1.51e+00	0	46	104	1030750208	60	190047
2026-01-28 10:57:32.05	331.19	7.62	-57.0	-73.9	3.6	1.51e+00	0	46	104	1030750208	60	193639
2026-01-28 10:57:36.08	331.63	7.39	-56.9	-73.8	3.6	1.51e+00	0	46	104	1030750208	60	192910
2026-01-28 10:57:40.10	332.06	7.15	-56.8	-73.9	3.6	1.51e+00	0	47	104	1030750208	60	194643
2026-01-28 10:57:44.12	332.49	6.92	-57.0	-73.8	3.6	1.51e+00	0	46	104	1030750208	60	191098
2026-01-28 10:57:48.15	332.91	6.69	-57.0	-74.0	3.6	1.51e+00	0	46	104	1030750208	60	197100
2026-01-28 10:57:52.18	333.32	6.45	-55.6	-73.5	3.6	1.51e+00	0	46	104	1030750208	60	185171
2026-01-28 10:57:56.20	333.73	6.22	-54.8	-72.9	3.6	1.51e+00	0	46	104	1030750208	60	172904
2026-01-28 10:58:00.23	334.13	5.99	-54.8	-72.9	3.6	1.51e+00	0	46	104	1030750208	60	172726
2026-01-28 10:58:04.26	334.52	5.76	-58.8	-76.3	3.6	1.51e+00	0	46	104	1030750208	60	255860
2026-01-28 10:58:08.30	334.91	5.53	-60.4	-76.9	3.6	1.51e+00	0	46	104	1030750208	60	272843
2026-01-28 10:58:12.32	335.29	5.31	-60.9	-77.4	3.6	1.51e+00	0	47	104	1030750208	60	290512
2026-01-28 10:58:16.33	335.67	5.08	-60.4	-77.5	3.6	1.51e+00	0	47	104	1030750208	60	295290
2026-01-28 10:58:20.37	336.04	4.85	-59.5	-77.7	3.6	1.51e+00	0	46	104	1030750208	60	300531
2026-01-28 10:58:24.40	336.41	4.63	-59.5	-77.6	3.6	1.51e+00	0	46	104	1030750208	60	297323
2026-01-28 10:58:28.41	336.77	4.41	-59.8	-77.6	3.6	1.51e+00	0	46	104	1030750208	60	298398
2026-01-28 10:58:32.42	337.12	4.19	-59.8	-77.7	3.6	1.51e+00	0	46	104	1030750208	60	301367
2026-01-28 10:58:36.45	337.47	3.96	-59.8	-77.7	3.6	1.51e+00	0	46	104	1030750208	60	301972
2026-01-28 10:58:40.48	337.82	3.74	-59.9	-77.8	3.6	1.51e+00	0	46	104	1030750208	60	303556
2026-01-28 10:58:44.50	338.16	3.52	-59.8	-77.8	3.6	1.51e+00	0	46	104	1030750208	60	305563
2026-01-28 10:58:48.52	338.50	3.31	-59.7	-77.6	3.6	1.51e+00	0	46	104	1030750208	60	297152
2026-01-28 10:58:52.56	338.83	3.09	-59.6	-77.7	3.6	1.51e+00	0	46	104	1030750208	60	299224
2026-01-28 10:58:56.59	339.16	2.87	-59.5	-77.6	3.6	1.51e+00	0	46	104	1030750208	60	298817
2026-01-28 10:59:00.62	339.48	2.65	-59.6	-77.7	3.6	1.51e+00	0	46	104	1030750208	60	300088
2026-01-28 10:59:04.64	339.80	2.44	-59.7	-77.7	3.6	1.51e+00	0	46	104	1030750208	60	299903
2026-01-28 10:59:08.67	340.11	2.23	-59.5	-77.6	3.6	1.51e+00	0	46	104	1030750208	60	295507
2026-01-28 10:59:12.69	340.42	2.01	-59.5	-77.7	3.6	1.51e+00	0	46	104	1030750208	60	301138
2026-01-28 10:59:16.71	340.73	1.80	-59.8	-77.7	3.6	1.51e+00	0	46	104	1030750208	60	301673
2026-01-28 10:59:20.73	341.03	1.59	-59.9	-77.7	3.6	1.51e+00	0	47	104	1030750208	60	299056
2026-01-28 10:59:24.76	341.32	1.38	-60.0	-77.7	3.6	1.51e+00	0	47	104	1030750208	60	301487
2026-01-28 10:59:28.79	341.62	1.17	-59.9	-77.8	3.6	1.51e+00	0	46	104	1030750208	60	302796
2026-01-28 10:59:32.81	341.91	0.96	-59.9	-77.8	3.6	1.51e+00	0	46	104	1030750208	60	302465
2026-01-28 10:59:36.84	342.20	0.76	-59.8	-77.7	3.6	1.51e+00	0	47	104	1030750208	60	301780
2026-01-28 10:59:40.87	342.48	0.55	-59.7	-77.7	3.6	1.51e+00	0	46	104	1030750208	60	300401
2026-01-28 10:59:44.89	342.76	0.34	-59.7	-77.7	3.6	1.51e+00	0	47	104	1030750208	60	299723
2026-01-28 10:59:48.92	343.03	0.14	-59.7	-77.8	3.6	1.51e+00	0	46	104	1030750208	60	305016

#Closed at: 2026-01-28 10:59:52
#Recorded file [1030 MB]: D:/Data/35015_260128_135708.dat