passes_logs/2026/01/28/R3.2S-Naryan-Mar/R3.2S-Naryan-Mar__20260128_155259_TY-40_rec.log

#Pass ID: 20260128_155259_TY-40
#Satellite: TY-40
#Configuration: TY-39
#almurnet v.1.7.20240730
#Start time: 2026-01-28 15:53:02

#Version: 2.2.20231116
#Station: R3.2S-Naryan-Mar
#Location: 53.008057 lon 67.646978 lat
#TLE: 1 56846U 23081A   26027.86322491  .00005171  00000-0  23026-3 0  9995
#TLE: 2 56846  97.3872 100.5479 0001461  75.1546 284.9852 15.21887283146669

#Time	Az	El	Level	Level2	SNR	BER	BlckErr	Temp	State	Recorded	gain1	gain2
2026-01-28 15:53:02.73	118.14	0.19	-56.8	-73.3	3.5	8.44e-01	0	43	0	0	60	180863
2026-01-28 15:53:05.75	117.97	0.38	-57.4	-61.2	3.6	0.00e+00	0	45	104	0	60	136519
2026-01-28 15:53:08.77	117.80	0.56	-57.2	-61.1	3.6	0.00e+00	0	45	104	0	60	134765
2026-01-28 15:53:11.79	117.62	0.75	-56.2	-60.5	3.6	0.00e+00	0	46	104	0	60	125105
2026-01-28 15:53:14.79	117.45	0.94	-56.2	-60.2	3.6	0.00e+00	0	46	104	0	60	121245
2026-01-28 15:53:17.81	117.27	1.13	-48.7	-55.5	3.6	0.00e+00	0	46	104	0	60	70573
2026-01-28 15:53:20.83	117.08	1.32	-48.0	-55.0	3.6	0.00e+00	0	46	104	0	60	66838
2026-01-28 15:53:23.86	116.89	1.52	-47.7	-54.8	3.6	0.00e+00	0	46	104	0	60	64937
2026-01-28 15:53:26.88	116.70	1.71	-47.6	-54.6	3.6	0.00e+00	0	46	104	0	60	63189
2026-01-28 15:53:29.89	116.51	1.91	-47.5	-54.5	3.6	0.00e+00	0	46	104	0	60	62816
2026-01-28 15:53:32.91	116.31	2.11	-47.4	-54.4	3.6	0.00e+00	0	46	104	0	60	62348
2026-01-28 15:53:35.92	116.11	2.31	-47.5	-54.6	3.6	0.00e+00	0	46	104	0	60	63401
2026-01-28 15:53:38.94	115.91	2.51	-47.5	-54.5	3.6	0.00e+00	0	46	104	0	60	62911
2026-01-28 15:53:41.96	115.70	2.71	-47.3	-54.3	3.6	0.00e+00	0	46	104	0	60	61631
2026-01-28 15:53:44.97	115.49	2.91	-47.3	-54.4	3.6	0.00e+00	0	47	104	0	60	61769
2026-01-28 15:53:47.98	115.27	3.12	-47.2	-54.3	3.6	0.00e+00	0	46	104	0	60	61287
2026-01-28 15:53:51.00	115.05	3.33	-47.2	-54.3	3.6	0.00e+00	0	47	104	0	60	61198
2026-01-28 15:53:54.02	114.83	3.54	-47.2	-54.3	3.6	0.00e+00	0	47	104	0	60	61148
2026-01-28 15:53:57.05	114.60	3.75	-47.5	-54.5	3.6	0.00e+00	0	47	104	0	60	62998
2026-01-28 15:54:00.07	114.36	3.96	-47.4	-54.5	3.6	0.00e+00	0	47	104	0	60	62818
2026-01-28 15:54:03.09	114.12	4.18	-47.2	-54.3	3.6	0.00e+00	0	47	104	0	60	61584
2026-01-28 15:54:06.11	113.88	4.40	-47.2	-54.3	3.6	0.00e+00	0	47	104	0	60	61383
2026-01-28 15:54:09.12	113.63	4.61	-47.1	-54.2	3.6	0.00e+00	0	47	104	0	60	60623
2026-01-28 15:54:12.14	113.38	4.83	-47.1	-54.2	3.6	0.00e+00	0	47	104	0	60	60896
2026-01-28 15:54:15.15	113.13	5.06	-47.1	-54.1	3.6	0.00e+00	0	47	104	0	60	60269
2026-01-28 15:54:18.17	112.86	5.28	-47.0	-54.1	3.6	0.00e+00	0	47	104	0	60	60006
2026-01-28 15:54:21.19	112.59	5.51	-47.0	-54.0	3.6	0.00e+00	0	47	104	0	60	59347
2026-01-28 15:54:24.21	112.32	5.74	-47.0	-54.1	3.6	0.00e+00	0	47	104	0	60	59943
2026-01-28 15:54:27.23	112.04	5.97	-47.2	-54.3	3.6	0.00e+00	0	47	104	0	60	61354
2026-01-28 15:54:30.25	111.76	6.20	-53.7	-58.3	3.6	0.00e+00	0	47	104	0	60	97426
2026-01-28 15:54:33.27	111.46	6.44	-47.2	-54.6	3.6	0.00e+00	0	47	104	0	60	63703
2026-01-28 15:54:36.29	111.17	6.68	-47.2	-54.5	3.6	0.00e+00	0	47	104	0	60	62509
2026-01-28 15:54:39.30	110.86	6.92	-51.4	-56.8	3.6	0.00e+00	0	47	104	0	60	81952
2026-01-28 15:54:42.32	110.55	7.16	-51.3	-57.0	3.6	0.00e+00	0	47	104	0	60	84235
2026-01-28 15:54:45.34	110.23	7.41	-54.4	-58.7	3.6	0.00e+00	0	47	104	0	60	101353
2026-01-28 15:54:48.37	109.91	7.66	-52.1	-57.8	3.6	0.00e+00	0	47	104	0	60	91745
2026-01-28 15:54:51.38	109.58	7.91	-52.0	-57.7	3.6	0.00e+00	0	47	104	0	60	90739
2026-01-28 15:54:54.39	109.24	8.16	-52.6	-58.0	3.6	0.00e+00	0	47	104	0	60	93790
2026-01-28 15:54:57.41	108.89	8.41	-52.7	-57.9	3.6	0.00e+00	0	47	104	0	60	92981
2026-01-28 15:55:00.44	108.54	8.67	-54.2	-58.6	3.6	0.00e+00	0	47	104	0	60	100163
2026-01-28 15:55:03.46	108.18	8.93	-54.1	-58.6	3.6	0.00e+00	0	47	104	0	60	101119
2026-01-28 15:55:06.48	107.81	9.20	-53.8	-58.6	3.6	0.00e+00	0	48	104	0	60	100692
2026-01-28 15:55:09.50	107.43	9.46	-55.4	-59.4	3.6	0.00e+00	0	47	104	0	60	110346
2026-01-28 15:55:12.51	107.04	9.73	-55.1	-59.2	3.6	0.00e+00	0	48	104	0	60	107942
2026-01-28 15:55:15.53	106.64	10.01	-53.8	-58.5	3.6	0.00e+00	0	48	104	0	60	99733
2026-01-28 15:55:18.56	106.23	10.28	-55.1	-59.2	3.6	0.00e+00	0	48	104	0	60	108344
2026-01-28 15:55:21.57	105.82	10.56	-55.4	-59.4	3.6	0.00e+00	0	48	104	0	60	110059
2026-01-28 15:55:24.59	105.39	10.84	-55.5	-59.4	3.6	0.00e+00	0	48	104	0	60	110594
2026-01-28 15:55:27.60	104.96	11.12	-55.3	-59.3	3.6	0.00e+00	0	48	104	0	60	109513
2026-01-28 15:55:30.61	104.51	11.41	-55.5	-59.4	3.6	0.00e+00	0	48	104	0	60	110779
2026-01-28 15:55:33.64	104.05	11.70	-55.5	-59.2	3.6	0.00e+00	0	48	104	0	60	107993
2026-01-28 15:55:36.66	103.58	11.99	-55.4	-59.3	3.5	0.00e+00	0	48	104	0	60	108844
2026-01-28 15:55:39.67	103.10	12.28	-55.4	-59.0	3.6	0.00e+00	0	48	104	0	60	105485
2026-01-28 15:55:42.69	102.60	12.58	-55.0	-59.0	3.6	0.00e+00	0	48	104	0	60	105628
2026-01-28 15:55:45.71	102.10	12.89	-54.4	-58.9	3.6	0.00e+00	0	48	104	0	60	103952
2026-01-28 15:55:48.73	101.58	13.19	-55.2	-59.3	3.6	0.00e+00	0	48	104	0	60	108560
2026-01-28 15:55:51.75	101.05	13.50	-55.6	-59.3	3.6	0.00e+00	0	48	104	0	60	109558
2026-01-28 15:55:54.78	100.50	13.81	-55.5	-59.2	3.6	0.00e+00	0	47	104	0	60	107877
2026-01-28 15:55:57.79	99.94	14.12	-54.8	-58.7	3.6	0.00e+00	0	48	104	0	60	101410
2026-01-28 15:56:00.81	99.37	14.44	-55.1	-58.3	3.6	0.00e+00	0	48	104	0	60	97622
2026-01-28 15:56:03.83	98.78	14.76	-54.8	-58.2	3.6	0.00e+00	0	48	104	0	60	96516
2026-01-28 15:56:06.86	98.17	15.08	-55.2	-58.3	3.6	0.00e+00	0	48	104	0	60	97529
2026-01-28 15:56:09.87	97.55	15.40	-54.8	-58.4	3.6	0.00e+00	0	48	104	0	60	98284
2026-01-28 15:56:12.89	96.91	15.73	-55.1	-58.6	3.6	0.00e+00	0	48	104	0	60	100737
2026-01-28 15:56:15.91	96.26	16.06	-55.0	-58.5	3.6	0.00e+00	0	48	104	0	60	99839
2026-01-28 15:56:18.92	95.59	16.39	-54.1	-57.2	3.6	0.00e+00	0	48	104	0	60	85845
2026-01-28 15:56:21.94	94.90	16.73	-55.1	-58.7	3.6	0.00e+00	0	48	104	0	60	101366
2026-01-28 15:56:24.97	94.19	17.06	-54.3	-57.3	3.6	0.00e+00	0	48	104	0	60	86226
2026-01-28 15:56:27.99	93.46	17.40	-54.8	-57.8	3.6	0.00e+00	0	48	104	0	60	91474
2026-01-28 15:56:31.01	92.72	17.74	-54.8	-58.5	3.6	0.00e+00	0	48	104	0	60	99260
2026-01-28 15:56:34.03	91.95	18.08	-53.1	-56.6	3.6	0.00e+00	0	48	104	0	60	79735
2026-01-28 15:56:37.04	91.17	18.43	-53.5	-57.2	3.6	0.00e+00	0	48	104	0	60	85287
2026-01-28 15:56:40.06	90.36	18.77	-52.7	-56.1	3.6	0.00e+00	0	48	104	0	60	75327
2026-01-28 15:56:43.08	89.53	19.11	-52.8	-56.1	3.6	0.00e+00	0	48	104	0	60	75795
2026-01-28 15:56:46.10	88.68	19.46	-54.3	-57.9	3.6	0.00e+00	0	48	104	0	60	93335
2026-01-28 15:56:49.12	87.81	19.80	-55.2	-58.3	3.6	0.00e+00	0	48	104	0	60	97745
2026-01-28 15:56:52.14	86.91	20.15	-55.4	-58.6	3.6	0.00e+00	0	48	104	0	60	100332
2026-01-28 15:56:55.16	85.99	20.49	-54.2	-57.4	3.6	0.00e+00	0	48	104	0	60	87411
2026-01-28 15:56:58.19	85.04	20.83	-54.1	-57.3	3.6	0.00e+00	0	48	104	0	60	86917
2026-01-28 15:57:01.21	84.07	21.18	-55.4	-59.3	3.6	0.00e+00	0	48	104	0	60	109257
2026-01-28 15:57:04.22	83.09	21.51	-55.0	-58.1	3.6	0.00e+00	0	48	104	0	60	95007
2026-01-28 15:57:07.25	82.07	21.85	-55.1	-58.3	3.6	0.00e+00	0	48	104	0	60	97749
2026-01-28 15:57:10.26	81.03	22.18	-55.0	-59.3	3.6	0.00e+00	0	48	104	0	60	109286
2026-01-28 15:57:13.28	79.96	22.51	-55.7	-59.1	3.6	0.00e+00	0	48	104	0	60	106953
2026-01-28 15:57:16.30	78.87	22.83	-55.5	-59.3	3.6	0.00e+00	0	48	104	0	60	109763
2026-01-28 15:57:19.31	77.75	23.15	-56.3	-60.2	3.6	0.00e+00	0	48	104	0	60	120578
2026-01-28 15:57:22.34	76.60	23.46	-56.1	-59.7	3.6	0.00e+00	0	48	104	0	60	114295
2026-01-28 15:57:25.36	75.43	23.77	-55.1	-58.8	3.6	0.00e+00	0	48	104	0	60	103619
2026-01-28 15:57:28.38	74.24	24.06	-55.5	-59.3	3.6	0.00e+00	0	48	104	0	60	108819
2026-01-28 15:57:31.41	73.01	24.35	-55.9	-59.7	3.6	0.00e+00	0	48	104	0	60	114094
2026-01-28 15:57:34.43	71.77	24.63	-56.3	-59.7	3.6	0.00e+00	0	48	104	0	60	114939
2026-01-28 15:57:37.44	70.50	24.90	-56.1	-59.8	3.6	0.00e+00	0	48	104	0	60	115180
2026-01-28 15:57:40.46	69.21	25.16	-56.3	-59.7	3.6	0.00e+00	0	48	104	0	60	114704
2026-01-28 15:57:43.47	67.89	25.40	-56.6	-59.9	3.6	0.00e+00	0	48	104	0	60	116369
2026-01-28 15:57:46.49	66.55	25.63	-56.3	-59.7	3.6	0.00e+00	0	48	104	0	60	114641
2026-01-28 15:57:49.51	65.19	25.85	-55.9	-59.3	3.5	0.00e+00	0	48	104	0	60	108680
2026-01-28 15:57:52.52	63.82	26.06	-55.8	-59.2	3.6	0.00e+00	0	48	104	0	60	107622
2026-01-28 15:57:55.54	62.42	26.25	-56.0	-59.5	3.6	0.00e+00	0	48	104	0	60	111128
2026-01-28 15:57:58.56	61.00	26.42	-55.9	-59.6	3.6	0.00e+00	0	48	104	0	60	113053
2026-01-28 15:58:01.57	59.57	26.58	-53.8	-58.7	3.6	0.00e+00	0	48	104	0	60	101475
2026-01-28 15:58:04.60	58.12	26.72	-54.7	-59.0	3.6	0.00e+00	0	48	104	0	60	104859
2026-01-28 15:58:07.62	56.66	26.84	-56.2	-59.6	3.6	0.00e+00	0	48	104	0	60	112691
2026-01-28 15:58:10.63	55.19	26.95	-55.9	-59.3	3.6	0.00e+00	0	48	104	0	60	109043
2026-01-28 15:58:13.65	53.70	27.03	-53.8	-58.6	3.6	0.00e+00	0	48	104	0	60	100845
2026-01-28 15:58:16.64	52.23	27.10	-53.3	-58.6	3.6	0.00e+00	0	48	104	0	60	100657
2026-01-28 15:58:19.66	50.73	27.14	-52.5	-58.2	3.6	0.00e+00	0	48	104	0	60	95702
2026-01-28 15:58:22.68	49.23	27.17	-56.1	-59.7	3.6	0.00e+00	0	48	104	0	60	114315
2026-01-28 15:58:25.70	47.73	27.17	-55.2	-58.8	3.6	0.00e+00	0	48	104	0	60	102670
2026-01-28 15:58:28.71	46.24	27.16	-55.1	-59.0	3.6	0.00e+00	0	48	104	0	60	105282
2026-01-28 15:58:31.73	44.74	27.13	-55.1	-58.5	3.6	0.00e+00	0	48	104	0	60	99110
2026-01-28 15:58:34.75	43.25	27.07	-55.3	-58.6	3.6	0.00e+00	0	48	104	0	60	100598
2026-01-28 15:58:37.77	41.76	27.00	-54.0	-58.2	3.6	0.00e+00	0	48	104	0	60	96703
2026-01-28 15:58:40.79	40.28	26.91	-54.3	-58.2	3.6	0.00e+00	0	48	104	0	60	95874
2026-01-28 15:58:43.80	38.82	26.80	-54.6	-58.3	3.5	0.00e+00	0	48	104	0	60	97675
2026-01-28 15:58:46.82	37.36	26.67	-54.5	-58.2	3.6	0.00e+00	0	48	104	0	60	96699
2026-01-28 15:58:49.83	35.93	26.52	-55.3	-58.2	3.6	0.00e+00	0	48	104	0	60	95656
2026-01-28 15:58:52.85	34.50	26.36	-53.7	-57.4	3.6	0.00e+00	0	48	104	0	60	87363
2026-01-28 15:58:55.88	33.09	26.18	-53.1	-57.6	3.6	0.00e+00	0	48	104	0	60	89481
2026-01-28 15:58:58.90	31.70	25.98	-53.7	-58.0	3.6	0.00e+00	0	48	104	0	60	93903
2026-01-28 15:59:01.92	30.33	25.77	-53.5	-57.9	3.6	0.00e+00	0	48	104	0	60	93071
2026-01-28 15:59:04.94	28.98	25.55	-54.4	-58.6	3.6	0.00e+00	0	48	104	0	60	101050
2026-01-28 15:59:07.96	27.65	25.31	-53.1	-58.1	3.6	0.00e+00	0	48	104	0	60	95578
2026-01-28 15:59:10.98	26.35	25.06	-54.2	-58.7	3.6	0.00e+00	0	48	104	0	60	102190
2026-01-28 15:59:14.01	25.06	24.80	-54.1	-58.9	3.6	0.00e+00	0	48	104	0	60	104167
2026-01-28 15:59:17.03	23.81	24.52	-55.4	-59.8	3.6	0.00e+00	0	48	104	0	60	115139
2026-01-28 15:59:20.05	22.57	24.24	-54.4	-59.3	3.6	0.00e+00	0	48	104	0	60	109146
2026-01-28 15:59:23.06	21.37	23.95	-54.9	-59.3	3.6	0.00e+00	0	48	104	0	60	109226
2026-01-28 15:59:26.09	20.18	23.65	-54.3	-58.6	3.6	0.00e+00	0	48	104	0	60	100374
2026-01-28 15:59:29.11	19.03	23.34	-52.4	-56.6	3.6	0.00e+00	0	48	104	0	60	80260
2026-01-28 15:59:32.13	17.90	23.03	-52.4	-56.7	3.6	0.00e+00	0	48	104	0	60	80771
2026-01-28 15:59:35.15	16.79	22.71	-51.0	-55.6	3.6	0.00e+00	0	48	104	0	60	71365
2026-01-28 15:59:38.17	15.71	22.39	-52.5	-56.8	3.6	0.00e+00	0	48	104	0	60	81591
2026-01-28 15:59:41.18	14.66	22.06	-52.4	-56.6	3.6	0.00e+00	0	48	104	0	60	80327
2026-01-28 15:59:44.20	13.63	21.73	-53.1	-57.2	3.6	0.00e+00	0	48	104	0	60	85303
2026-01-28 15:59:47.22	12.63	21.39	-53.1	-57.0	3.6	0.00e+00	0	48	104	0	60	83727
2026-01-28 15:59:50.24	11.65	21.06	-51.9	-55.4	3.6	0.00e+00	0	48	104	0	60	70041
2026-01-28 15:59:53.26	10.70	20.72	-52.8	-57.5	3.6	0.00e+00	0	48	104	0	60	89188
2026-01-28 15:59:56.27	9.77	20.38	-52.2	-56.0	3.6	0.00e+00	0	48	104	0	60	74482
2026-01-28 15:59:59.29	8.86	20.03	-52.9	-56.7	3.6	0.00e+00	0	48	104	0	60	81113
2026-01-28 16:00:02.31	7.98	19.69	-55.7	-59.3	3.6	0.00e+00	0	48	104	0	60	109592
2026-01-28 16:00:05.33	7.12	19.35	-54.3	-58.9	3.6	0.00e+00	0	48	104	0	60	104646
2026-01-28 16:00:08.34	6.28	19.00	-55.8	-59.4	3.6	0.00e+00	0	48	104	0	60	110055
2026-01-28 16:00:11.36	5.46	18.66	-54.5	-57.5	3.5	0.00e+00	0	48	104	0	60	89175
2026-01-28 16:00:14.38	4.67	18.32	-54.7	-57.7	3.6	0.00e+00	0	48	104	0	60	90335
2026-01-28 16:00:17.40	3.89	17.98	-55.0	-58.6	3.6	0.00e+00	0	48	104	0	60	100774
2026-01-28 16:00:20.42	3.14	17.64	-55.7	-59.4	3.6	0.00e+00	0	48	104	0	60	110251
2026-01-28 16:00:23.43	2.41	17.30	-55.3	-58.8	3.6	0.00e+00	0	49	104	0	60	103290
2026-01-28 16:00:26.44	1.69	16.97	-55.5	-59.6	3.6	0.00e+00	0	48	104	0	60	113632
2026-01-28 16:00:29.45	1.00	16.63	-55.8	-59.9	3.6	0.00e+00	0	48	104	0	60	116394
2026-01-28 16:00:32.48	0.31	16.30	-55.3	-59.1	3.6	0.00e+00	0	49	104	0	60	106600
2026-01-28 16:00:35.50	359.65	15.97	-55.4	-59.1	3.6	0.00e+00	0	48	104	0	60	106370
2026-01-28 16:00:38.52	359.01	15.64	-55.5	-59.2	3.5	0.00e+00	0	48	104	0	60	108034
2026-01-28 16:00:41.52	358.38	15.32	-55.0	-59.3	3.6	0.00e+00	0	48	104	0	60	109049
2026-01-28 16:00:44.54	357.77	15.00	-55.0	-59.3	3.6	0.00e+00	0	48	104	0	60	108684
2026-01-28 16:00:47.56	357.18	14.68	-55.7	-59.4	3.6	0.00e+00	0	48	104	0	60	110349
2026-01-28 16:00:50.58	356.59	14.36	-55.7	-59.4	3.6	0.00e+00	0	48	104	0	60	110527
2026-01-28 16:00:53.60	356.03	14.05	-53.9	-58.5	3.6	0.00e+00	0	48	104	0	60	99129
2026-01-28 16:00:56.62	355.48	13.74	-54.5	-58.8	3.6	0.00e+00	0	48	104	0	60	102858
2026-01-28 16:00:59.63	354.94	13.43	-54.4	-58.4	3.6	0.00e+00	0	48	104	0	60	97881
2026-01-28 16:01:02.64	354.42	13.13	-53.8	-58.0	3.6	0.00e+00	0	48	104	0	60	94180
2026-01-28 16:01:05.66	353.90	12.82	-53.8	-58.0	3.5	0.00e+00	0	49	104	0	60	94097
2026-01-28 16:01:08.68	353.41	12.53	-54.0	-58.1	3.6	0.00e+00	0	48	104	0	60	95485
2026-01-28 16:01:11.69	352.92	12.23	-54.2	-58.3	3.5	0.00e+00	0	48	104	0	60	97656
2026-01-28 16:01:14.71	352.45	11.94	-54.0	-58.3	3.6	0.00e+00	0	48	104	0	60	97569
2026-01-28 16:01:17.72	351.98	11.65	-54.0	-58.2	3.6	0.00e+00	0	49	104	0	60	96330
2026-01-28 16:01:20.73	351.53	11.36	-54.7	-58.5	3.6	0.00e+00	0	48	104	0	60	99959
2026-01-28 16:01:23.76	351.09	11.08	-53.5	-58.1	3.6	0.00e+00	0	48	104	0	60	95417
2026-01-28 16:01:26.78	350.66	10.79	-53.4	-58.0	3.6	0.00e+00	0	48	104	0	60	94117
2026-01-28 16:01:29.81	350.24	10.51	-54.8	-58.5	3.6	0.00e+00	0	48	104	0	60	99795
2026-01-28 16:01:32.82	349.83	10.24	-53.0	-57.9	3.6	0.00e+00	0	48	104	0	60	93385
2026-01-28 16:01:35.84	349.43	9.97	-54.1	-58.3	3.6	0.00e+00	0	48	104	0	60	96790
2026-01-28 16:01:38.86	349.03	9.70	-52.7	-57.8	3.6	0.00e+00	0	48	104	0	60	92084
2026-01-28 16:01:41.88	348.65	9.43	-54.4	-58.3	3.6	0.00e+00	0	48	104	0	60	97581
2026-01-28 16:01:44.90	348.28	9.16	-54.1	-58.1	3.6	0.00e+00	0	48	104	0	60	94980
2026-01-28 16:01:47.91	347.91	8.90	-53.8	-57.9	3.6	0.00e+00	0	48	104	0	60	93001
2026-01-28 16:01:50.91	347.56	8.65	-53.8	-58.0	3.6	0.00e+00	0	48	104	0	60	93571
2026-01-28 16:01:53.94	347.21	8.39	-54.5	-58.1	3.6	0.00e+00	0	48	104	0	60	94873
2026-01-28 16:01:56.96	346.87	8.14	-53.9	-57.9	3.6	0.00e+00	0	48	104	0	60	92977
2026-01-28 16:01:59.98	346.53	7.88	-46.5	-53.7	3.6	0.00e+00	0	48	104	0	60	56980
2026-01-28 16:02:02.99	346.21	7.64	-46.6	-53.7	3.6	0.00e+00	0	48	104	0	60	57301
2026-01-28 16:02:06.00	345.89	7.39	-46.8	-53.8	3.6	0.00e+00	0	48	104	0	60	58281
2026-01-28 16:02:09.02	345.57	7.15	-48.8	-55.5	3.6	0.00e+00	0	48	104	0	60	70492
2026-01-28 16:02:12.04	345.27	6.90	-51.7	-57.3	3.6	0.00e+00	0	48	104	0	60	86516
2026-01-28 16:02:15.07	344.97	6.66	-49.0	-55.6	3.6	0.00e+00	0	48	104	0	60	71287
2026-01-28 16:02:18.09	344.67	6.43	-47.4	-54.6	3.6	0.00e+00	0	48	104	0	60	63793
2026-01-28 16:02:21.10	344.39	6.19	-50.2	-56.3	3.6	0.00e+00	0	48	104	0	60	77451
2026-01-28 16:02:24.12	344.11	5.96	-50.4	-56.6	3.6	0.00e+00	0	48	104	0	60	80325
2026-01-28 16:02:27.15	343.83	5.73	-55.9	-59.8	3.6	0.00e+00	0	48	104	0	60	115146
2026-01-28 16:02:30.17	343.56	5.50	-55.9	-60.1	3.6	0.00e+00	0	48	104	0	60	119158
2026-01-28 16:02:33.19	343.30	5.28	-56.9	-60.7	3.6	0.00e+00	0	48	104	0	60	128380
2026-01-28 16:02:36.21	343.04	5.05	-55.8	-59.9	3.6	0.00e+00	0	48	104	0	60	116890
2026-01-28 16:02:39.22	342.79	4.83	-57.4	-61.5	3.6	0.00e+00	0	48	104	0	60	139928
2026-01-28 16:02:42.24	342.54	4.61	-55.6	-60.0	3.6	0.00e+00	0	48	104	0	60	118702
2026-01-28 16:02:45.26	342.29	4.39	-55.7	-60.0	3.6	0.00e+00	0	48	104	0	60	117809
2026-01-28 16:02:48.29	342.05	4.18	-55.5	-59.8	3.6	0.00e+00	0	48	104	0	60	115873
2026-01-28 16:02:51.31	341.82	3.96	-55.6	-59.8	3.6	0.00e+00	0	48	104	0	60	115812
2026-01-28 16:02:54.33	341.59	3.75	-55.6	-59.7	3.6	0.00e+00	0	48	104	0	60	114908
2026-01-28 16:02:57.35	341.36	3.54	-55.6	-59.8	3.6	0.00e+00	0	49	104	0	60	115957
2026-01-28 16:03:00.36	341.14	3.33	-55.5	-59.7	3.6	0.00e+00	0	48	104	0	60	114917
2026-01-28 16:03:03.39	340.93	3.13	-55.6	-59.8	3.6	0.00e+00	0	48	104	0	60	115691
2026-01-28 16:03:06.41	340.71	2.92	-55.5	-59.8	3.6	0.00e+00	0	48	104	0	60	115428
2026-01-28 16:03:09.43	340.50	2.72	-55.6	-59.8	3.6	0.00e+00	0	48	104	0	60	116008
2026-01-28 16:03:12.45	340.30	2.52	-55.6	-59.8	3.6	0.00e+00	0	48	104	0	60	115961
2026-01-28 16:03:15.47	340.10	2.32	-55.5	-59.8	3.6	0.00e+00	0	48	104	0	60	115158
2026-01-28 16:03:18.49	339.90	2.12	-55.5	-59.8	3.6	0.00e+00	0	48	104	0	60	115764
2026-01-28 16:03:21.51	339.70	1.92	-55.5	-59.9	3.6	0.00e+00	0	48	104	0	60	116429
2026-01-28 16:03:24.53	339.51	1.72	-55.5	-59.8	3.6	0.00e+00	0	48	104	0	60	115603
2026-01-28 16:03:27.55	339.33	1.53	-55.5	-59.8	3.6	0.00e+00	0	48	104	0	60	115608
2026-01-28 16:03:30.57	339.14	1.34	-55.4	-59.8	3.6	0.00e+00	0	48	104	0	60	115506
2026-01-28 16:03:33.59	338.96	1.15	-55.4	-59.7	3.6	0.00e+00	0	48	104	0	60	114308
2026-01-28 16:03:36.61	338.79	0.96	-55.4	-59.7	3.6	0.00e+00	0	48	104	0	60	114716
2026-01-28 16:03:39.61	338.61	0.77	-55.4	-59.7	3.6	0.00e+00	0	49	104	0	60	114292
2026-01-28 16:03:42.63	338.44	0.58	-55.4	-59.7	3.5	0.00e+00	0	48	104	0	60	114052
2026-01-28 16:03:45.65	338.27	0.40	-55.4	-59.7	3.6	0.00e+00	0	48	104	0	60	113763
2026-01-28 16:03:48.67	338.11	0.21	-55.4	-59.7	3.6	0.00e+00	0	48	104	0	60	114448
2026-01-28 16:03:51.68	337.94	0.03	-55.4	-59.7	3.6	0.00e+00	0	48	104	0	60	114716

#Closed at: 2026-01-28 16:03:52
#Recorded file [0 MB]: D:/Data/35015_260128_185630.dat