passes_logs/2026/01/28/R3.2S-Naryan-Mar/R3.2S-Naryan-Mar__20260128_094000_FENGYUN_3D_rec.log

#Pass ID: 20260128_094000_FENGYUN 3D
#Satellite: FENGYUN 3D
#Configuration: FENGYUN 3D
#almurnet v.1.7.20240730
#Start time: 2026-01-28 09:40:03

#Version: 2.2.20231116
#Station: R3.2S-Naryan-Mar
#Location: 53.008057 lon 67.646978 lat
#TLE: 1 43010U 17072A   26027.90082829  .00000305  00000+0  16579-3 0  9998
#TLE: 2 43010  98.9960 359.9183 0002511  88.1058 272.0405 14.19701796425082

#Time	Az	El	Level	Level2	SNR	BER	BlckErr	Temp	State	Recorded	gain1	gain2
2026-01-28 09:40:03.16	136.69	0.17	-59.6	-73.3	3.3	8.40e-01	0	45	0	0	60	181211
2026-01-28 09:40:07.18	136.64	0.41	-60.2	-74.8	3.6	8.45e-01	0	45	104	0	60	215611
2026-01-28 09:40:11.20	136.58	0.66	-61.5	-75.3	3.6	8.45e-01	0	45	104	0	60	226937
2026-01-28 09:40:15.22	136.53	0.91	-59.5	-73.3	3.6	8.46e-01	0	45	104	0	60	180875
2026-01-28 09:40:19.25	136.47	1.15	-56.8	-72.0	3.6	8.46e-01	0	45	104	0	60	156736
2026-01-28 09:40:23.28	136.41	1.41	-56.9	-71.8	3.6	8.46e-01	0	45	104	0	60	152802
2026-01-28 09:40:27.30	136.35	1.66	-56.8	-71.8	3.6	8.45e-01	0	45	104	0	60	153085
2026-01-28 09:40:31.33	136.29	1.91	-56.8	-71.8	3.6	8.46e-01	0	45	104	0	60	151581
2026-01-28 09:40:35.36	136.23	2.17	-56.6	-71.6	3.6	8.46e-01	0	46	104	0	60	149340
2026-01-28 09:40:39.39	136.17	2.43	-56.7	-71.7	3.6	8.45e-01	0	46	104	0	60	150113
2026-01-28 09:40:43.41	136.10	2.69	-56.6	-71.5	3.6	8.45e-01	0	46	104	0	60	147895
2026-01-28 09:40:47.44	136.03	2.96	-56.6	-71.3	3.6	8.45e-01	0	46	104	0	60	144609
2026-01-28 09:40:51.48	135.97	3.23	-56.6	-71.3	3.6	8.47e-01	0	46	104	0	60	144516
2026-01-28 09:40:55.50	135.90	3.49	-56.5	-71.7	3.6	8.45e-01	0	45	104	0	60	151285
2026-01-28 09:40:59.50	135.83	3.76	-56.4	-71.4	3.6	8.46e-01	0	46	104	0	60	146224
2026-01-28 09:41:03.52	135.76	4.04	-56.4	-70.3	3.6	8.44e-01	0	46	104	0	60	128214
2026-01-28 09:41:07.54	135.68	4.32	-56.3	-68.7	3.8	8.41e-01	0	46	104	0	60	106907
2026-01-28 09:41:11.56	135.61	4.60	-56.1	-65.6	4.4	8.17e-01	0	46	0	0	60	74391
2026-01-28 09:41:15.59	135.53	4.88	-54.8	-59.8	10.5	1.15e-02	0	46	0	16777216	60	38172
2026-01-28 09:41:19.61	135.45	5.17	-52.4	-54.9	15.6	0.00e+00	0	46	0	38797312	60	21717
2026-01-28 09:41:23.64	135.37	5.46	-50.8	-52.6	17.9	0.00e+00	0	46	0	61865984	60	16729
2026-01-28 09:41:27.67	135.29	5.75	-51.1	-53.0	17.5	0.00e+00	0	46	0	83886080	60	17584
2026-01-28 09:41:31.68	135.20	6.04	-53.1	-56.1	14.2	1.10e-06	0	46	0	106954752	60	24991
2026-01-28 09:41:35.71	135.11	6.34	-52.3	-55.0	16.5	8.26e-01	0	46	104	113246208	60	21986
2026-01-28 09:41:39.74	135.03	6.65	-52.1	-54.3	16.1	0.00e+00	0	46	0	9437184	60	20435
2026-01-28 09:41:43.77	134.93	6.95	-50.7	-52.2	18.4	0.00e+00	0	46	0	32505856	60	16001
2026-01-28 09:41:47.79	134.84	7.26	-50.3	-51.6	19.2	0.00e+00	0	46	0	54525952	60	14956
2026-01-28 09:41:51.82	134.75	7.58	-50.2	-51.5	19.4	0.00e+00	0	46	0	77594624	60	14768
2026-01-28 09:41:55.85	134.65	7.89	-49.9	-51.2	19.5	0.00e+00	0	46	0	99614720	60	14289
2026-01-28 09:41:59.88	134.55	8.21	-49.9	-51.2	19.4	0.00e+00	0	46	0	122683392	60	14253
2026-01-28 09:42:03.90	134.45	8.54	-49.8	-51.0	19.8	0.00e+00	0	46	0	145752064	60	13916
2026-01-28 09:42:07.91	134.34	8.87	-49.8	-50.9	20.0	0.00e+00	0	46	0	167772160	60	13818
2026-01-28 09:42:11.94	134.23	9.20	-49.6	-50.8	20.3	0.00e+00	0	46	0	190840832	60	13591
2026-01-28 09:42:15.97	134.12	9.54	-49.6	-50.8	20.3	0.00e+00	0	46	0	212860928	60	13522
2026-01-28 09:42:19.99	134.01	9.88	-49.7	-50.7	20.5	0.00e+00	0	46	0	235929600	60	13460
2026-01-28 09:42:24.01	133.89	10.23	-49.5	-50.5	20.7	0.00e+00	0	46	0	257949696	60	13196
2026-01-28 09:42:28.03	133.77	10.58	-49.5	-50.6	20.8	0.00e+00	0	46	0	281018368	60	13239
2026-01-28 09:42:32.06	133.65	10.94	-49.4	-50.4	20.8	0.00e+00	0	46	0	303038464	60	12984
2026-01-28 09:42:36.08	133.52	11.30	-49.2	-50.2	21.1	0.00e+00	0	46	0	326107136	60	12639
2026-01-28 09:42:40.11	133.39	11.67	-49.1	-50.1	21.3	0.00e+00	0	46	0	349175808	60	12527
2026-01-28 09:42:44.13	133.26	12.04	-49.0	-49.9	21.4	0.00e+00	0	46	0	371195904	60	12278
2026-01-28 09:42:48.16	133.12	12.42	-48.9	-49.8	21.5	0.00e+00	0	46	0	394264576	60	12120
2026-01-28 09:42:52.19	132.98	12.80	-48.7	-49.6	21.8	0.00e+00	0	46	0	417333248	60	11802
2026-01-28 09:42:56.21	132.83	13.19	-48.6	-49.5	21.8	0.00e+00	0	46	0	439353344	60	11697
2026-01-28 09:43:00.23	132.68	13.59	-48.7	-49.6	21.8	0.00e+00	0	46	0	462422016	60	11795
2026-01-28 09:43:04.25	132.53	13.99	-48.3	-49.2	22.1	0.00e+00	0	46	0	484442112	60	11349
2026-01-28 09:43:08.28	132.37	14.40	-48.3	-49.2	22.2	0.00e+00	0	46	0	507510784	60	11324
2026-01-28 09:43:12.30	132.21	14.82	-48.1	-48.9	22.4	0.00e+00	0	46	0	530579456	60	10949
2026-01-28 09:43:16.32	132.04	15.24	-47.8	-48.7	22.6	0.00e+00	0	46	0	552599552	60	10635
2026-01-28 09:43:20.35	131.86	15.67	-47.8	-48.6	22.7	0.00e+00	0	46	0	574619648	60	10525
2026-01-28 09:43:24.38	131.68	16.11	-47.7	-48.6	22.8	0.00e+00	0	46	0	597688320	60	10518
2026-01-28 09:43:28.40	131.50	16.55	-47.5	-48.3	22.8	0.00e+00	0	46	0	620756992	60	10194
2026-01-28 09:43:32.43	131.31	17.01	-47.4	-48.3	22.9	0.00e+00	0	46	0	642777088	60	10189
2026-01-28 09:43:36.45	131.11	17.47	-47.4	-48.3	23.0	0.00e+00	0	46	0	665845760	60	10133
2026-01-28 09:43:40.48	130.90	17.94	-47.4	-48.2	23.1	0.00e+00	0	46	0	688914432	60	10048
2026-01-28 09:43:44.50	130.69	18.42	-47.4	-48.2	23.2	0.00e+00	0	46	0	710934528	60	10051
2026-01-28 09:43:48.51	130.47	18.90	-47.4	-48.2	23.1	0.00e+00	0	46	0	734003200	60	10100
2026-01-28 09:43:52.52	130.25	19.40	-47.7	-48.5	23.0	0.00e+00	0	46	0	756023296	60	10407
2026-01-28 09:43:56.54	130.02	19.90	-47.5	-48.3	23.3	0.00e+00	0	46	0	779091968	60	10204
2026-01-28 09:44:00.55	129.77	20.42	-47.2	-48.0	23.5	0.00e+00	0	46	0	801112064	60	9838
2026-01-28 09:44:04.55	129.53	20.94	-47.1	-47.8	23.7	0.00e+00	0	46	0	824180736	60	9665
2026-01-28 09:44:08.56	129.27	21.48	-46.9	-47.7	23.7	0.00e+00	0	46	0	846200832	60	9519
2026-01-28 09:44:12.58	129.00	22.02	-46.9	-47.6	23.9	0.00e+00	0	46	0	869269504	60	9418
2026-01-28 09:44:16.61	128.72	22.58	-46.5	-47.3	24.2	0.00e+00	0	46	0	891289600	60	9078
2026-01-28 09:44:20.63	128.43	23.16	-46.6	-47.4	24.1	0.00e+00	0	46	0	914358272	60	9164
2026-01-28 09:44:24.65	128.12	23.74	-46.6	-47.4	24.1	0.00e+00	0	46	0	936378368	60	9149
2026-01-28 09:44:28.68	127.81	24.33	-46.8	-47.6	24.0	0.00e+00	0	46	0	959447040	60	9368
2026-01-28 09:44:32.71	127.48	24.94	-46.4	-47.2	24.4	0.00e+00	0	46	0	982515712	60	8955
2026-01-28 09:44:36.73	127.14	25.56	-46.5	-47.2	24.3	0.00e+00	0	46	0	1004535808	60	9009
2026-01-28 09:44:40.75	126.79	26.20	-46.0	-46.7	24.7	0.00e+00	0	46	0	1027604480	60	8481
2026-01-28 09:44:44.78	126.42	26.85	-46.1	-46.8	24.5	0.00e+00	0	46	0	1050673152	60	8577
2026-01-28 09:44:48.82	126.03	27.52	-46.2	-46.9	24.4	0.00e+00	0	46	0	1072693248	60	8718
2026-01-28 09:44:52.84	125.62	28.19	-45.9	-46.7	24.7	0.00e+00	0	46	0	1095761920	60	8425
2026-01-28 09:44:56.85	125.20	28.88	-46.1	-46.9	24.4	0.00e+00	0	46	0	1117782016	60	8685
2026-01-28 09:45:00.88	124.76	29.59	-46.1	-46.9	24.3	0.00e+00	0	46	0	1140850688	60	8671
2026-01-28 09:45:04.91	124.30	30.32	-46.0	-46.8	24.4	0.00e+00	0	46	0	1163919360	60	8584
2026-01-28 09:45:08.93	123.82	31.06	-45.8	-46.5	24.9	0.00e+00	0	46	0	1185939456	60	8325
2026-01-28 09:45:12.95	123.31	31.82	-45.8	-46.6	24.8	0.00e+00	0	46	0	1207959552	60	8339
2026-01-28 09:45:16.97	122.78	32.60	-45.6	-46.4	25.0	0.00e+00	0	46	0	1231028224	60	8154
2026-01-28 09:45:21.00	122.22	33.39	-45.6	-46.3	25.0	0.00e+00	0	46	0	1254096896	60	8128
2026-01-28 09:45:25.02	121.63	34.20	-45.7	-46.6	24.5	0.00e+00	0	46	0	1276116992	60	8337
2026-01-28 09:45:29.05	121.01	35.03	-45.6	-46.5	24.8	0.00e+00	0	46	0	1299185664	60	8257
2026-01-28 09:45:33.07	120.36	35.88	-45.7	-46.5	24.7	0.00e+00	0	46	0	1322254336	60	8274
2026-01-28 09:45:37.11	119.67	36.74	-45.8	-46.5	25.1	0.00e+00	0	46	0	1344274432	60	8305
2026-01-28 09:45:41.12	118.95	37.63	-45.8	-46.6	25.1	0.00e+00	0	46	0	1367343104	60	8358
2026-01-28 09:45:45.15	118.18	38.53	-45.8	-46.6	25.1	0.00e+00	0	46	0	1389363200	60	8383
2026-01-28 09:45:49.16	117.37	39.45	-45.9	-46.7	25.0	0.00e+00	0	46	0	1412431872	60	8475
2026-01-28 09:45:53.19	116.51	40.38	-46.1	-46.9	24.9	0.00e+00	0	46	0	1435500544	60	8685
2026-01-28 09:45:57.22	115.59	41.34	-46.1	-47.0	24.5	0.00e+00	0	46	0	1457520640	60	8780
2026-01-28 09:46:01.23	114.62	42.31	-46.0	-46.8	24.7	0.00e+00	0	46	0	1480589312	60	8536
2026-01-28 09:46:05.25	113.59	43.30	-46.4	-47.2	24.5	0.00e+00	0	46	0	1502609408	60	8941
2026-01-28 09:46:09.27	112.50	44.30	-46.5	-47.3	24.8	0.00e+00	0	46	0	1525678080	60	9091
2026-01-28 09:46:13.30	111.32	45.31	-46.0	-46.7	25.3	0.00e+00	0	46	0	1548746752	60	8502
2026-01-28 09:46:17.31	110.08	46.34	-46.7	-47.5	24.5	0.00e+00	0	46	0	1570766848	60	9310
2026-01-28 09:46:21.33	108.75	47.37	-46.4	-47.3	24.3	0.00e+00	0	46	0	1592786944	60	9084
2026-01-28 09:46:25.36	107.32	48.42	-46.6	-47.5	24.2	0.00e+00	0	46	0	1615855616	60	9285
2026-01-28 09:46:29.39	105.78	49.47	-47.1	-48.0	23.9	0.00e+00	0	46	0	1638924288	60	9837
2026-01-28 09:46:33.42	104.14	50.52	-46.9	-47.9	23.4	0.00e+00	0	46	0	1660944384	60	9678
2026-01-28 09:46:37.45	102.38	51.56	-47.0	-48.0	23.3	0.00e+00	0	46	0	1684013056	60	9856
2026-01-28 09:46:41.48	100.50	52.60	-47.1	-48.0	23.8	0.00e+00	0	46	0	1707081728	60	9804
2026-01-28 09:46:45.51	98.47	53.63	-47.3	-48.1	24.0	0.00e+00	0	46	0	1729101824	60	9929
2026-01-28 09:46:49.54	96.30	54.64	-47.1	-47.9	24.4	0.00e+00	0	46	0	1752170496	60	9722
2026-01-28 09:46:53.56	93.97	55.62	-47.3	-48.1	24.4	0.00e+00	0	46	0	1774190592	60	9956
2026-01-28 09:46:57.59	91.47	56.56	-46.8	-47.6	24.8	0.00e+00	0	46	0	1797259264	60	9382
2026-01-28 09:47:01.63	88.79	57.47	-46.9	-47.8	24.5	0.00e+00	0	46	0	1820327936	60	9595
2026-01-28 09:47:05.65	85.95	58.33	-47.1	-47.9	24.2	0.00e+00	0	46	0	1842348032	60	9737
2026-01-28 09:47:09.68	82.91	59.13	-46.7	-47.5	24.7	0.00e+00	0	46	0	1865416704	60	9312
2026-01-28 09:47:13.71	79.69	59.86	-47.7	-48.5	23.9	0.00e+00	0	46	0	1888485376	60	10463
2026-01-28 09:47:17.75	76.29	60.51	-47.2	-48.1	24.7	0.00e+00	0	46	0	1910505472	60	9921
2026-01-28 09:47:21.77	72.74	61.07	-46.7	-47.4	24.7	0.00e+00	0	46	0	1932525568	60	9197
2026-01-28 09:47:25.79	69.03	61.53	-46.8	-47.7	24.4	0.00e+00	0	46	0	1955594240	60	9516
2026-01-28 09:47:29.82	65.20	61.89	-46.1	-46.8	25.7	0.00e+00	0	46	0	1978662912	60	8618
2026-01-28 09:47:33.85	61.27	62.13	-46.1	-46.8	25.7	0.00e+00	0	46	0	2000683008	60	8615
2026-01-28 09:47:37.88	57.28	62.26	-45.8	-46.5	25.6	0.00e+00	0	46	0	2023751680	60	8263
2026-01-28 09:47:41.91	53.26	62.27	-46.0	-46.7	25.4	0.00e+00	0	46	0	2046820352	60	8457
2026-01-28 09:47:45.92	49.29	62.16	-45.6	-46.3	26.0	0.00e+00	0	46	0	2068840448	60	8057
2026-01-28 09:47:49.95	45.34	61.94	-46.3	-47.0	25.5	0.00e+00	0	46	0	2091909120	60	8788
2026-01-28 09:47:53.98	41.49	61.60	-46.1	-46.8	25.4	0.00e+00	0	46	0	2114977792	60	8590
2026-01-28 09:47:58.00	37.77	61.15	-46.2	-46.9	25.5	0.00e+00	0	46	0	2136997888	60	8642
2026-01-28 09:48:02.03	34.19	60.61	-46.6	-47.3	24.9	0.00e+00	0	46	0	2160066560	60	9101
2026-01-28 09:48:06.05	30.77	59.97	-46.8	-47.5	25.0	0.00e+00	0	46	0	2182086656	60	9318
2026-01-28 09:48:10.07	27.53	59.26	-46.6	-47.4	25.2	0.00e+00	0	46	0	2205155328	60	9211
2026-01-28 09:48:14.07	24.49	58.48	-46.9	-47.6	25.0	0.00e+00	0	46	0	2227175424	60	9399
2026-01-28 09:48:18.09	21.62	57.64	-46.7	-47.4	25.1	0.00e+00	0	46	0	2250244096	60	9147
2026-01-28 09:48:22.12	18.92	56.74	-46.8	-47.6	25.0	0.00e+00	0	46	0	2272264192	60	9411
2026-01-28 09:48:26.14	16.40	55.80	-46.8	-47.6	24.9	0.00e+00	0	46	0	2295332864	60	9403
2026-01-28 09:48:30.16	14.04	54.83	-46.4	-47.1	25.2	0.00e+00	0	46	0	2317352960	60	8901
2026-01-28 09:48:34.17	11.85	53.83	-47.0	-47.8	24.6	0.00e+00	0	46	0	2340421632	60	9628
2026-01-28 09:48:38.20	9.80	52.81	-46.5	-47.2	25.0	0.00e+00	0	46	0	2363490304	60	8962
2026-01-28 09:48:42.23	7.89	51.78	-46.7	-47.3	24.8	0.00e+00	0	46	0	2385510400	60	9111
2026-01-28 09:48:46.26	6.11	50.73	-46.6	-47.4	24.8	0.00e+00	0	46	0	2408579072	60	9189
2026-01-28 09:48:50.29	4.45	49.69	-46.1	-46.9	25.2	0.00e+00	0	46	0	2431647744	60	8624
2026-01-28 09:48:54.32	2.90	48.64	-45.8	-46.5	25.2	0.00e+00	0	46	0	2453667840	60	8300
2026-01-28 09:48:58.34	1.46	47.60	-45.6	-46.2	25.2	0.00e+00	0	46	0	2476736512	60	8031
2026-01-28 09:49:02.37	0.11	46.56	-45.3	-46.0	25.6	0.00e+00	0	46	0	2498756608	60	7840
2026-01-28 09:49:06.39	358.85	45.54	-45.3	-46.0	25.9	0.00e+00	0	46	0	2521825280	60	7819
2026-01-28 09:49:10.43	357.66	44.52	-45.6	-46.3	25.8	0.00e+00	0	46	0	2544893952	60	8052
2026-01-28 09:49:14.46	356.55	43.51	-45.4	-46.2	25.8	0.00e+00	0	46	0	2566914048	60	7989
2026-01-28 09:49:18.49	355.50	42.53	-45.3	-45.9	26.0	0.00e+00	0	46	0	2589982720	60	7738
2026-01-28 09:49:22.51	354.53	41.56	-45.2	-45.8	25.9	0.00e+00	0	46	0	2612002816	60	7634
2026-01-28 09:49:26.53	353.60	40.60	-45.5	-46.2	25.6	0.00e+00	0	46	0	2635071488	60	8019
2026-01-28 09:49:30.56	352.73	39.66	-45.5	-46.2	25.8	0.00e+00	0	46	0	2657091584	60	8019
2026-01-28 09:49:34.59	351.91	38.74	-45.1	-45.6	26.1	0.00e+00	0	46	0	2680160256	60	7508
2026-01-28 09:49:38.61	351.14	37.84	-45.4	-46.0	25.7	0.00e+00	0	46	0	2703228928	60	7849
2026-01-28 09:49:42.64	350.41	36.95	-45.1	-45.7	26.1	0.00e+00	0	46	0	2725249024	60	7534
2026-01-28 09:49:46.67	349.71	36.08	-45.1	-45.9	25.9	0.00e+00	0	46	0	2748317696	60	7711
2026-01-28 09:49:50.69	349.06	35.24	-44.9	-45.5	25.8	0.00e+00	0	46	0	2771386368	60	7392
2026-01-28 09:49:54.70	348.44	34.41	-45.2	-46.0	25.3	0.00e+00	0	46	0	2793406464	60	7803
2026-01-28 09:49:58.72	347.85	33.60	-44.9	-45.7	25.2	0.00e+00	0	46	0	2816475136	60	7551
2026-01-28 09:50:02.76	347.28	32.80	-45.0	-45.8	25.5	0.00e+00	0	46	0	2838495232	60	7652
2026-01-28 09:50:06.79	346.75	32.02	-45.2	-45.8	25.5	0.00e+00	0	46	0	2861563904	60	7657
2026-01-28 09:50:10.80	346.24	31.27	-45.3	-46.0	25.0	0.00e+00	0	46	0	2884632576	60	7847
2026-01-28 09:50:14.83	345.75	30.52	-45.4	-46.1	25.3	0.00e+00	0	46	0	2906652672	60	7869
2026-01-28 09:50:18.86	345.29	29.79	-45.6	-46.3	25.3	0.00e+00	0	46	0	2928672768	60	8057
2026-01-28 09:50:22.88	344.84	29.09	-45.5	-46.2	25.1	0.00e+00	0	46	0	2951741440	60	7991
2026-01-28 09:50:26.91	344.42	28.39	-45.4	-46.3	24.4	0.00e+00	0	46	0	2974810112	60	8051
2026-01-28 09:50:30.94	344.02	27.71	-45.5	-46.3	24.6	0.00e+00	0	46	0	2996830208	60	8103
2026-01-28 09:50:34.97	343.63	27.04	-45.5	-46.3	25.4	0.00e+00	0	46	0	3019898880	60	8097
2026-01-28 09:50:39.00	343.26	26.39	-45.3	-46.2	24.8	0.00e+00	0	46	0	3042967552	60	8016
2026-01-28 09:50:43.02	342.90	25.76	-45.4	-46.1	24.8	0.00e+00	0	46	0	3064987648	60	7931
2026-01-28 09:50:47.05	342.56	25.13	-45.7	-46.4	25.0	0.00e+00	0	46	0	3088056320	60	8146
2026-01-28 09:50:51.09	342.23	24.52	-45.9	-46.6	24.6	0.00e+00	0	46	0	3111124992	60	8366
2026-01-28 09:50:55.12	341.91	23.93	-45.9	-46.6	24.5	0.00e+00	0	46	0	3133145088	60	8376
2026-01-28 09:50:59.14	341.61	23.34	-45.7	-46.5	24.5	0.00e+00	0	46	0	3156213760	60	8236
2026-01-28 09:51:03.14	341.32	22.77	-45.8	-46.5	24.7	0.00e+00	0	46	0	3178233856	60	8267
2026-01-28 09:51:07.17	341.04	22.21	-46.1	-46.9	24.7	0.00e+00	0	46	0	3201302528	60	8663
2026-01-28 09:51:11.20	340.77	21.66	-46.4	-47.1	24.1	0.00e+00	0	46	0	3224371200	60	8845
2026-01-28 09:51:15.23	340.51	21.12	-46.3	-47.2	24.1	0.00e+00	0	46	0	3246391296	60	8949
2026-01-28 09:51:19.25	340.26	20.60	-46.2	-47.0	24.5	0.00e+00	0	46	0	3268411392	60	8797
2026-01-28 09:51:23.27	340.02	20.08	-46.1	-46.9	24.5	0.00e+00	0	46	0	3291480064	60	8674
2026-01-28 09:51:27.29	339.79	19.58	-46.2	-47.0	24.3	0.00e+00	0	46	0	3314548736	60	8790
2026-01-28 09:51:31.31	339.56	19.08	-46.4	-47.1	24.1	0.00e+00	0	46	0	3336568832	60	8830
2026-01-28 09:51:35.33	339.34	18.59	-46.5	-47.4	23.6	0.00e+00	0	46	0	3359637504	60	9216
2026-01-28 09:51:39.36	339.13	18.11	-46.9	-47.7	23.4	0.00e+00	0	46	0	3381657600	60	9555
2026-01-28 09:51:43.39	338.93	17.64	-47.0	-48.0	22.5	0.00e+00	0	46	0	3404726272	60	9794
2026-01-28 09:51:47.42	338.73	17.18	-46.9	-48.3	21.4	0.00e+00	0	46	0	3427794944	60	10201
2026-01-28 09:51:51.44	338.54	16.73	-47.4	-48.9	20.9	0.00e+00	0	46	0	3449815040	60	10938
2026-01-28 09:51:55.47	338.36	16.28	-47.7	-49.0	21.3	0.00e+00	0	46	0	3472883712	60	11034
2026-01-28 09:51:59.50	338.18	15.84	-48.5	-49.7	21.0	0.00e+00	0	46	0	3495952384	60	11924
2026-01-28 09:52:03.53	338.00	15.41	-49.1	-50.3	20.1	0.00e+00	0	46	0	3517972480	60	12783
2026-01-28 09:52:07.56	337.84	14.99	-49.7	-51.0	18.6	0.00e+00	0	46	0	3541041152	60	13941
2026-01-28 09:52:11.57	337.67	14.57	-49.8	-51.6	17.2	0.00e+00	0	46	0	3564109824	60	14957
2026-01-28 09:52:15.60	337.52	14.16	-50.3	-52.3	16.5	0.00e+00	0	46	0	3586129920	60	16168
2026-01-28 09:52:19.63	337.36	13.76	-51.2	-53.2	16.3	0.00e+00	0	46	0	3608150016	60	17922
2026-01-28 09:52:23.66	337.22	13.36	-51.6	-54.0	15.3	0.00e+00	0	46	0	3631218688	60	19745
2026-01-28 09:52:27.68	337.07	12.97	-51.9	-55.1	14.1	4.50e-06	0	46	0	3654287360	60	22202
2026-01-28 09:52:31.71	336.93	12.59	-52.6	-56.2	12.9	5.60e-05	0	46	0	3676307456	60	25253
2026-01-28 09:52:35.74	336.79	12.21	-53.2	-57.3	11.6	8.80e-04	0	46	0	3699376128	60	28817
2026-01-28 09:52:39.75	336.66	11.83	-53.2	-58.5	10.2	6.85e-03	0	46	0	3721396224	60	32908
2026-01-28 09:52:43.77	336.54	11.47	-53.4	-59.6	9.1	2.50e-02	0	46	0	3744464896	60	37447
2026-01-28 09:52:47.80	336.41	11.10	-53.7	-60.9	7.7	8.02e-02	0	46	0	3767533568	60	43229
2026-01-28 09:52:51.83	336.29	10.75	-52.3	-61.6	5.6	3.98e-01	0	46	0	3789553664	60	46872
2026-01-28 09:52:55.86	336.17	10.39	-49.6	-62.0	4.2	8.00e-01	0	47	0	3795845120	60	49370
2026-01-28 09:52:59.86	336.06	10.05	-47.2	-63.8	3.7	8.45e-01	0	46	104	3795845120	60	61004
2026-01-28 09:53:03.89	335.94	9.71	-47.7	-66.9	3.6	8.44e-01	0	46	104	3795845120	60	86904
2026-01-28 09:53:07.92	335.83	9.37	-47.5	-65.2	3.6	8.43e-01	0	46	104	3795845120	60	71285
2026-01-28 09:53:11.95	335.73	9.03	-50.2	-69.5	3.6	8.44e-01	0	46	104	3795845120	60	117599
2026-01-28 09:53:15.97	335.63	8.70	-47.7	-66.5	3.6	8.44e-01	0	46	104	3795845120	60	82504
2026-01-28 09:53:20.00	335.52	8.38	-54.2	-70.2	3.6	8.45e-01	0	47	104	3795845120	60	127418
2026-01-28 09:53:24.03	335.43	8.06	-52.5	-69.9	3.6	8.44e-01	0	47	104	3795845120	60	122017
2026-01-28 09:53:28.05	335.33	7.74	-54.0	-69.6	3.6	8.45e-01	0	47	104	3795845120	60	117796
2026-01-28 09:53:32.07	335.24	7.43	-52.6	-68.2	3.6	8.43e-01	0	47	104	3795845120	60	101012
2026-01-28 09:53:36.10	335.15	7.12	-54.3	-69.6	3.6	8.44e-01	0	46	104	3795845120	60	118001
2026-01-28 09:53:40.12	335.06	6.81	-51.9	-68.0	3.6	8.44e-01	0	47	104	3795845120	60	98003
2026-01-28 09:53:44.14	334.97	6.51	-55.0	-70.0	3.6	8.46e-01	0	46	104	3795845120	60	124269
2026-01-28 09:53:48.14	334.89	6.21	-52.6	-69.0	3.5	8.44e-01	0	47	104	3795845120	60	110061
2026-01-28 09:53:52.16	334.81	5.92	-52.4	-68.7	3.6	8.46e-01	0	47	104	3795845120	60	106512
2026-01-28 09:53:56.19	334.73	5.62	-57.8	-72.4	3.6	8.47e-01	0	47	104	3795845120	60	162830
2026-01-28 09:54:00.21	334.65	5.33	-57.6	-72.3	3.6	8.44e-01	0	47	104	3795845120	60	161347
2026-01-28 09:54:04.23	334.57	5.05	-58.6	-73.1	3.6	8.44e-01	0	47	104	3795845120	60	177563
2026-01-28 09:54:08.25	334.50	4.76	-55.9	-73.0	3.6	8.45e-01	0	47	104	3795845120	60	174594
2026-01-28 09:54:12.27	334.42	4.48	-57.3	-73.5	3.6	8.46e-01	0	47	104	3795845120	60	185559
2026-01-28 09:54:16.30	334.35	4.21	-56.9	-73.9	3.6	8.44e-01	0	47	104	3795845120	60	194505
2026-01-28 09:54:20.33	334.28	3.93	-57.0	-73.6	3.6	8.45e-01	0	47	104	3795845120	60	186747
2026-01-28 09:54:24.35	334.22	3.66	-57.2	-74.1	3.6	8.45e-01	0	47	104	3795845120	60	198400
2026-01-28 09:54:28.38	334.15	3.39	-57.1	-73.4	3.6	8.45e-01	0	47	104	3795845120	60	183708
2026-01-28 09:54:32.41	334.08	3.12	-57.1	-73.9	3.6	8.44e-01	0	46	104	3795845120	60	195010
2026-01-28 09:54:36.44	334.02	2.86	-57.3	-73.9	3.6	8.45e-01	0	47	104	3795845120	60	194673
2026-01-28 09:54:40.45	333.96	2.60	-56.9	-73.9	3.6	8.44e-01	0	47	104	3795845120	60	194707
2026-01-28 09:54:44.49	333.90	2.34	-57.2	-73.9	3.6	8.44e-01	0	47	104	3795845120	60	193682
2026-01-28 09:54:48.52	333.84	2.08	-57.3	-73.4	3.5	8.45e-01	0	47	104	3795845120	60	183582
2026-01-28 09:54:52.54	333.78	1.82	-57.2	-73.4	3.6	8.44e-01	0	47	104	3795845120	60	183259
2026-01-28 09:54:56.56	333.73	1.57	-57.2	-73.6	3.6	8.45e-01	0	46	104	3795845120	60	187085
2026-01-28 09:55:00.59	333.67	1.32	-57.0	-73.8	3.6	8.44e-01	0	46	104	3795845120	60	191395
2026-01-28 09:55:04.62	333.62	1.07	-57.0	-73.5	3.6	8.45e-01	0	46	104	3795845120	60	185337
2026-01-28 09:55:08.63	333.56	0.82	-57.0	-73.3	3.6	8.44e-01	0	46	104	3795845120	60	181512
2026-01-28 09:55:12.66	333.51	0.58	-57.0	-73.4	3.6	8.46e-01	0	47	104	3795845120	60	182905
2026-01-28 09:55:16.68	333.46	0.34	-56.9	-73.2	3.6	8.44e-01	0	47	104	3795845120	60	179446
2026-01-28 09:55:20.71	333.41	0.10	-57.0	-73.3	3.6	8.46e-01	0	46	104	3795845120	60	180908

#Closed at: 2026-01-28 09:55:23
#Recorded file [3795 MB]: D:/Data/35015_260128_125258.dat