passes_logs/2026/01/28/R3.2S-Naryan-Mar/R3.2S-Naryan-Mar__20260128_090348_NOAA_20_JPSS-1_rec.log

#Pass ID: 20260128_090348_NOAA 20 (JPSS-1)
#Satellite: NOAA 20 (JPSS-1)
#Configuration: NOAA 20
#almurnet v.1.7.20240730
#Start time: 2026-01-28 09:06:36

#Version: 2.2.20231116
#Station: R3.2S-Naryan-Mar
#Location: 53.008057 lon 67.646978 lat
#TLE: 1 43013U 17073A   26027.80586608  .00000156  00000+0  94940-4 0  9998
#TLE: 2 43013  98.7647 328.6108 0000947  21.3465 338.7750 14.19541216424550

#Time	Az	El	Level	Level2	SNR	BER	BlckErr	Temp	State	Recorded	gain1	gain2
2026-01-28 09:06:36.25	176.94	12.21	-58.8	-74.2	3.4	1.37e+00	0	45	0	0	60	200402
2026-01-28 09:06:40.27	177.13	12.59	-58.9	-75.6	3.6	1.51e+00	0	46	104	0	60	236140
2026-01-28 09:06:44.27	177.33	12.97	-58.9	-75.5	3.6	1.51e+00	0	46	104	0	60	233555
2026-01-28 09:06:48.26	177.53	13.35	-58.9	-75.5	3.6	1.51e+00	0	46	104	0	60	234173
2026-01-28 09:06:52.25	177.74	13.74	-58.8	-75.5	3.6	1.51e+00	0	46	104	0	60	233910
2026-01-28 09:06:56.24	177.95	14.14	-58.8	-75.4	3.6	1.51e+00	0	46	104	0	60	231051
2026-01-28 09:07:00.25	178.17	14.54	-58.8	-75.4	3.6	1.51e+00	0	46	104	0	60	231984
2026-01-28 09:07:04.25	178.40	14.95	-58.8	-75.5	3.6	1.51e+00	0	46	104	0	60	232743
2026-01-28 09:07:08.26	178.63	15.36	-58.8	-75.4	3.6	1.51e+00	0	46	104	0	60	229876
2026-01-28 09:07:12.24	178.86	15.78	-58.8	-75.4	3.6	1.51e+00	0	47	104	0	60	230236
2026-01-28 09:07:16.25	179.10	16.21	-58.8	-74.4	3.6	1.51e+00	0	47	104	0	60	205003
2026-01-28 09:07:20.26	179.35	16.65	-58.8	-74.2	3.6	1.51e+00	0	46	104	0	60	201967
2026-01-28 09:07:24.26	179.61	17.09	-58.5	-68.8	4.9	1.29e+00	0	46	0	0	60	108441
2026-01-28 09:07:28.26	179.87	17.55	-54.8	-57.5	17.1	0.00e+00	0	46	0	8388608	60	29221
2026-01-28 09:07:32.27	180.15	18.01	-53.5	-55.5	18.9	0.00e+00	0	46	0	15728640	60	23214
2026-01-28 09:07:36.26	180.42	18.47	-56.2	-59.8	15.0	1.38e+00	0	46	104	19922944	60	38460
2026-01-28 09:07:40.24	180.71	18.95	-54.9	-57.6	17.3	0.00e+00	0	46	0	3145728	60	29569
2026-01-28 09:07:44.24	181.00	19.43	-53.5	-55.3	19.1	0.00e+00	0	46	0	10485760	60	22913
2026-01-28 09:07:48.25	181.31	19.92	-52.4	-54.0	20.5	0.00e+00	0	46	0	17825792	60	19596
2026-01-28 09:07:52.27	181.63	20.43	-52.5	-54.0	20.5	0.00e+00	0	46	0	25165824	60	19730
2026-01-28 09:07:56.29	181.95	20.94	-52.3	-53.8	20.9	0.00e+00	0	46	0	33554432	60	19189
2026-01-28 09:08:00.29	182.29	21.46	-52.1	-53.5	21.2	0.00e+00	0	46	0	40894464	60	18547
2026-01-28 09:08:04.28	182.63	22.00	-52.1	-53.4	21.4	0.00e+00	0	46	0	48234496	60	18350
2026-01-28 09:08:08.29	182.99	22.54	-51.8	-53.1	21.8	0.00e+00	0	46	0	55574528	60	17627
2026-01-28 09:08:12.29	183.36	23.09	-51.7	-52.9	22.0	0.00e+00	0	46	0	62914560	60	17384
2026-01-28 09:08:16.29	183.74	23.65	-51.8	-53.0	22.0	0.00e+00	0	46	0	70254592	60	17584
2026-01-28 09:08:20.30	184.14	24.23	-51.8	-53.0	22.2	0.00e+00	0	46	0	77594624	60	17471
2026-01-28 09:08:24.31	184.55	24.82	-51.7	-52.9	22.2	0.00e+00	0	46	0	85983232	60	17389
2026-01-28 09:08:28.31	184.97	25.42	-51.6	-52.8	22.3	0.00e+00	0	46	0	93323264	60	17038
2026-01-28 09:08:32.32	185.42	26.03	-51.9	-53.1	22.1	0.00e+00	0	46	0	100663296	60	17722
2026-01-28 09:08:36.31	185.87	26.65	-52.3	-53.6	21.9	0.00e+00	0	46	0	108003328	60	18649
2026-01-28 09:08:40.32	186.35	27.29	-52.6	-53.9	21.6	0.00e+00	0	46	0	115343360	60	19396
2026-01-28 09:08:44.32	186.84	27.93	-52.8	-54.1	21.5	0.00e+00	0	46	0	122683392	60	19960
2026-01-28 09:08:48.32	187.36	28.59	-53.4	-54.9	20.8	0.00e+00	0	46	0	131072000	60	21821
2026-01-28 09:08:52.33	187.90	29.27	-54.3	-56.0	19.9	0.00e+00	0	46	0	138412032	60	24621
2026-01-28 09:08:56.36	188.46	29.97	-54.9	-56.8	19.0	0.00e+00	0	46	0	145752064	60	27103
2026-01-28 09:09:00.37	189.04	30.67	-55.6	-58.0	18.0	0.00e+00	0	46	0	153092096	60	30959
2026-01-28 09:09:04.36	189.65	31.38	-56.3	-58.8	17.4	0.00e+00	0	46	0	160432128	60	34129
2026-01-28 09:09:08.39	190.29	32.12	-56.3	-58.9	17.3	0.00e+00	0	46	0	167772160	60	34570
2026-01-28 09:09:12.38	190.95	32.87	-55.9	-58.2	18.0	0.00e+00	0	46	0	176160768	60	31722
2026-01-28 09:09:16.40	191.64	33.63	-55.3	-57.2	19.0	0.00e+00	0	46	0	183500800	60	28404
2026-01-28 09:09:20.42	192.37	34.41	-55.5	-57.5	18.8	0.00e+00	0	46	0	190840832	60	29342
2026-01-28 09:09:24.43	193.14	35.20	-55.5	-57.5	18.6	0.00e+00	0	46	0	198180864	60	29478
2026-01-28 09:09:28.44	193.94	36.00	-55.3	-57.3	19.0	0.00e+00	0	46	0	205520896	60	28564
2026-01-28 09:09:32.46	194.78	36.83	-54.9	-56.6	19.8	0.00e+00	0	46	0	213909504	60	26492
2026-01-28 09:09:36.48	195.66	37.66	-54.7	-56.4	20.0	0.00e+00	0	46	0	221249536	60	25922
2026-01-28 09:09:40.48	196.59	38.51	-55.1	-57.0	19.4	0.00e+00	0	46	0	228589568	60	27585
2026-01-28 09:09:44.50	197.57	39.37	-54.5	-56.1	20.3	0.00e+00	0	46	0	235929600	60	25058
2026-01-28 09:09:48.53	198.61	40.25	-53.7	-55.1	21.2	0.00e+00	0	46	0	243269632	60	22202
2026-01-28 09:09:52.55	199.70	41.13	-54.1	-55.6	20.8	0.00e+00	0	46	0	250609664	60	23581
2026-01-28 09:09:56.55	200.84	42.02	-53.9	-55.4	20.9	0.00e+00	0	46	0	257949696	60	23023
2026-01-28 09:10:00.55	202.05	42.92	-54.0	-55.5	20.7	0.00e+00	0	46	0	266338304	60	23255
2026-01-28 09:10:04.55	203.32	43.83	-54.5	-56.0	20.3	0.00e+00	0	46	0	273678336	60	24850
2026-01-28 09:10:08.55	204.68	44.74	-55.1	-56.8	19.6	0.00e+00	0	46	0	281018368	60	27225
2026-01-28 09:10:12.56	206.11	45.65	-55.9	-58.0	18.4	0.00e+00	0	46	0	288358400	60	31032
2026-01-28 09:10:16.57	207.62	46.57	-56.2	-58.4	18.0	0.00e+00	0	46	0	295698432	60	32622
2026-01-28 09:10:20.57	209.23	47.48	-58.0	-61.3	15.2	0.00e+00	0	46	0	304087040	60	45662
2026-01-28 09:10:24.58	210.93	48.39	-57.7	-60.7	15.9	0.00e+00	0	46	0	311427072	60	42389
2026-01-28 09:10:28.56	212.72	49.28	-58.2	-61.6	15.0	7.00e-07	0	46	0	318767104	60	47253
2026-01-28 09:10:32.57	214.63	50.17	-56.6	-58.8	17.7	0.00e+00	0	46	0	326107136	60	34236
2026-01-28 09:10:36.58	216.65	51.04	-56.1	-58.1	18.7	0.00e+00	0	46	0	333447168	60	31406
2026-01-28 09:10:40.58	218.79	51.88	-54.6	-56.2	20.4	0.00e+00	0	46	0	340787200	60	25234
2026-01-28 09:10:44.58	221.04	52.69	-54.5	-56.0	20.6	0.00e+00	0	46	0	349175808	60	24754
2026-01-28 09:10:48.59	223.43	53.47	-54.6	-56.1	20.3	0.00e+00	0	46	0	356515840	60	25151
2026-01-28 09:10:52.59	225.93	54.21	-53.5	-54.8	21.4	0.00e+00	0	46	0	363855872	60	21540
2026-01-28 09:10:56.60	228.57	54.90	-54.2	-55.7	20.6	0.00e+00	0	46	0	371195904	60	23901
2026-01-28 09:11:00.60	231.33	55.54	-53.6	-55.0	21.1	0.00e+00	0	46	0	378535936	60	22156
2026-01-28 09:11:04.60	234.21	56.12	-53.6	-55.0	21.3	0.00e+00	0	46	0	385875968	60	22111
2026-01-28 09:11:08.59	237.19	56.63	-54.1	-55.7	20.7	0.00e+00	0	46	0	393216000	60	23750
2026-01-28 09:11:12.60	240.30	57.07	-54.0	-55.5	20.8	0.00e+00	0	46	0	401604608	60	23222
2026-01-28 09:11:16.60	243.48	57.43	-55.4	-57.5	18.7	0.00e+00	0	46	0	408944640	60	29355
2026-01-28 09:11:20.59	246.74	57.70	-56.5	-59.2	16.9	0.00e+00	0	46	0	416284672	60	35760
2026-01-28 09:11:24.61	250.07	57.89	-55.6	-58.0	18.0	0.00e+00	0	46	0	423624704	60	31112
2026-01-28 09:11:28.62	253.43	57.99	-55.5	-58.2	17.7	0.00e+00	0	46	0	430964736	60	31738
2026-01-28 09:11:32.61	256.79	58.00	-55.5	-58.4	17.3	0.00e+00	0	46	0	438304768	60	32507
2026-01-28 09:11:36.61	260.15	57.92	-54.3	-57.0	18.7	0.00e+00	0	46	0	445644800	60	27630
2026-01-28 09:11:40.61	263.47	57.74	-53.9	-56.6	19.0	0.00e+00	0	46	0	454033408	60	26424
2026-01-28 09:11:44.63	266.76	57.48	-54.1	-57.8	17.7	0.00e+00	0	46	0	461373440	60	30473
2026-01-28 09:11:48.64	269.97	57.14	-54.2	-60.8	14.1	2.20e-06	0	46	0	468713472	60	43088
2026-01-28 09:11:52.67	273.10	56.71	-53.1	-58.8	15.6	0.00e+00	0	46	0	476053504	60	34113
2026-01-28 09:11:56.69	276.12	56.21	-52.8	-58.6	15.5	0.00e+00	0	46	0	483393536	60	33513
2026-01-28 09:12:00.72	279.04	55.64	-52.7	-56.8	17.8	0.00e+00	0	46	0	491782144	60	27188
2026-01-28 09:12:04.74	281.82	55.01	-51.4	-53.6	21.4	0.00e+00	0	46	0	499122176	60	18800
2026-01-28 09:12:08.76	284.48	54.32	-50.7	-52.1	23.4	0.00e+00	0	46	0	506462208	60	15784
2026-01-28 09:12:12.78	287.02	53.59	-50.9	-52.2	23.2	0.00e+00	0	46	0	513802240	60	16003
2026-01-28 09:12:16.80	289.42	52.81	-50.4	-52.3	22.6	0.00e+00	0	46	0	521142272	60	16106
2026-01-28 09:12:20.83	291.71	52.00	-50.9	-53.6	20.5	0.00e+00	0	46	0	529530880	60	18838
2026-01-28 09:12:24.84	293.86	51.16	-52.8	-57.7	16.9	0.00e+00	0	46	0	536870912	60	30236
2026-01-28 09:12:28.85	295.89	50.30	-54.8	-58.9	16.0	0.00e+00	0	46	0	544210944	60	34559
2026-01-28 09:12:32.88	297.82	49.41	-54.2	-57.8	17.7	0.00e+00	0	46	0	551550976	60	30299
2026-01-28 09:12:36.91	299.64	48.51	-55.7	-59.3	16.6	0.00e+00	0	46	0	558891008	60	36204
2026-01-28 09:12:40.92	301.35	47.61	-55.8	-59.0	17.1	0.00e+00	0	46	0	566231040	60	34942
2026-01-28 09:12:44.96	302.98	46.69	-54.8	-58.6	16.9	0.00e+00	0	46	0	574619648	60	33388
2026-01-28 09:12:48.98	304.51	45.78	-54.8	-60.5	15.3	0.00e+00	0	46	0	581959680	60	41655
2026-01-28 09:12:53.01	305.95	44.86	-54.7	-57.5	17.7	0.00e+00	0	46	0	589299712	60	29446
2026-01-28 09:12:57.03	307.31	43.95	-55.9	-58.7	17.6	0.00e+00	0	46	0	596639744	60	33589
2026-01-28 09:13:01.05	308.60	43.04	-55.6	-58.2	17.8	0.00e+00	0	46	0	603979776	60	31736
2026-01-28 09:13:05.06	309.82	42.14	-56.2	-59.8	16.3	0.00e+00	0	46	0	612368384	60	38108
2026-01-28 09:13:09.09	310.97	41.25	-54.8	-57.0	18.3	0.00e+00	0	46	0	619708416	60	27871
2026-01-28 09:13:13.10	312.06	40.37	-55.7	-59.1	16.8	0.00e+00	0	46	0	627048448	60	35387
2026-01-28 09:13:17.13	313.10	39.49	-55.3	-57.8	18.3	0.00e+00	0	46	0	634388480	60	30328
2026-01-28 09:13:21.16	314.09	38.63	-56.8	-60.5	14.3	0.00e+00	0	46	0	641728512	60	41274
2026-01-28 09:13:25.19	315.02	37.78	-54.8	-57.1	18.8	0.00e+00	0	46	0	650117120	60	28066
2026-01-28 09:13:29.20	315.91	36.95	-56.7	-60.1	15.2	0.00e+00	0	46	0	657457152	60	39518
2026-01-28 09:13:33.23	316.76	36.13	-54.1	-56.1	19.1	0.00e+00	0	46	0	664797184	60	25142
2026-01-28 09:13:37.25	317.56	35.33	-53.6	-55.3	20.7	0.00e+00	0	46	0	672137216	60	22720
2026-01-28 09:13:41.27	318.33	34.54	-56.0	-58.6	17.6	0.00e+00	0	46	0	679477248	60	33189
2026-01-28 09:13:45.28	319.06	33.76	-54.5	-56.6	19.5	0.00e+00	0	46	0	687865856	60	26379
2026-01-28 09:13:49.29	319.76	33.00	-54.6	-57.1	19.1	0.00e+00	0	46	0	695205888	60	28138
2026-01-28 09:13:53.30	320.42	32.26	-55.6	-58.2	17.8	0.00e+00	0	46	0	702545920	60	31857
2026-01-28 09:13:57.32	321.06	31.52	-56.0	-58.6	17.5	0.00e+00	0	46	0	709885952	60	33381
2026-01-28 09:14:01.33	321.67	30.81	-55.2	-57.6	18.6	0.00e+00	0	46	0	717225984	60	29766
2026-01-28 09:14:05.35	322.26	30.10	-55.1	-57.2	19.0	0.00e+00	0	46	0	724566016	60	28336
2026-01-28 09:14:09.37	322.82	29.41	-54.8	-57.8	18.2	0.00e+00	0	46	0	732954624	60	30474
2026-01-28 09:14:13.37	323.36	28.74	-54.5	-57.5	18.5	0.00e+00	0	46	0	740294656	60	29421
2026-01-28 09:14:17.38	323.88	28.08	-54.7	-56.9	19.1	0.00e+00	0	46	0	747634688	60	27525
2026-01-28 09:14:21.39	324.37	27.43	-55.0	-57.1	18.8	0.00e+00	0	46	0	754974720	60	27917
2026-01-28 09:14:25.41	324.85	26.80	-55.5	-57.6	18.3	0.00e+00	0	46	0	762314752	60	29739
2026-01-28 09:14:29.43	325.32	26.17	-55.5	-57.6	18.3	0.00e+00	0	46	0	769654784	60	29756
2026-01-28 09:14:33.45	325.76	25.56	-55.4	-57.5	18.4	0.00e+00	0	46	0	778043392	60	29439
2026-01-28 09:14:37.47	326.19	24.96	-54.7	-56.6	19.2	0.00e+00	0	46	0	785383424	60	26630
2026-01-28 09:14:41.48	326.60	24.38	-53.8	-55.6	20.0	0.00e+00	0	46	0	792723456	60	23705
2026-01-28 09:14:45.51	327.00	23.80	-53.9	-55.8	19.9	0.00e+00	0	46	0	800063488	60	24235
2026-01-28 09:14:49.54	327.39	23.23	-54.4	-56.6	19.0	0.00e+00	0	46	0	807403520	60	26578
2026-01-28 09:14:53.57	327.76	22.68	-54.4	-56.6	19.1	0.00e+00	0	46	0	815792128	60	26528
2026-01-28 09:14:57.60	328.13	22.13	-53.6	-55.5	20.2	0.00e+00	0	46	0	823132160	60	23345
2026-01-28 09:15:01.63	328.47	21.60	-53.2	-55.1	20.5	0.00e+00	0	46	0	830472192	60	22248
2026-01-28 09:15:05.66	328.81	21.08	-53.7	-55.4	20.2	0.00e+00	0	46	0	837812224	60	23187
2026-01-28 09:15:09.67	329.14	20.56	-53.8	-55.6	19.9	0.00e+00	0	46	0	846200832	60	23713
2026-01-28 09:15:13.68	329.46	20.06	-53.2	-55.4	19.8	0.00e+00	0	46	0	853540864	60	23142
2026-01-28 09:15:17.71	329.77	19.57	-53.0	-55.0	20.4	0.00e+00	0	46	0	860880896	60	21932
2026-01-28 09:15:21.74	330.06	19.08	-52.8	-54.4	21.1	0.00e+00	0	46	0	868220928	60	20444
2026-01-28 09:15:25.76	330.35	18.60	-52.5	-53.9	21.0	0.00e+00	0	46	0	875560960	60	19449
2026-01-28 09:15:29.78	330.64	18.14	-52.5	-54.1	20.4	0.00e+00	0	46	0	882900992	60	19918
2026-01-28 09:15:33.80	330.91	17.68	-52.3	-54.3	20.1	0.00e+00	0	46	0	891289600	60	20418
2026-01-28 09:15:37.83	331.18	17.22	-52.2	-55.0	19.7	0.00e+00	0	46	0	898629632	60	22155
2026-01-28 09:15:41.84	331.44	16.78	-52.9	-55.8	19.0	0.00e+00	0	46	0	905969664	60	24192
2026-01-28 09:15:45.87	331.69	16.34	-53.4	-56.2	18.4	0.00e+00	0	46	0	913309696	60	25437
2026-01-28 09:15:49.90	331.93	15.91	-53.8	-56.5	17.2	0.00e+00	0	46	0	920649728	60	26281
2026-01-28 09:15:53.93	332.17	15.49	-53.5	-56.8	16.7	0.00e+00	0	46	0	929038336	60	26977
2026-01-28 09:15:57.97	332.41	15.07	-53.5	-57.0	16.5	0.00e+00	0	46	0	936378368	60	27663
2026-01-28 09:16:01.99	332.63	14.66	-53.1	-57.4	15.7	0.00e+00	0	46	0	943718400	60	28969
2026-01-28 09:16:06.02	332.86	14.26	-54.0	-58.3	15.2	0.00e+00	0	46	0	951058432	60	32279
2026-01-28 09:16:10.05	333.07	13.86	-55.2	-59.3	14.7	7.00e-07	0	46	0	958398464	60	36103
2026-01-28 09:16:14.08	333.28	13.47	-55.9	-60.4	13.4	6.80e-06	0	46	0	966787072	60	41180
2026-01-28 09:16:18.10	333.49	13.09	-56.0	-61.4	12.0	2.60e-04	0	46	0	974127104	60	45942
2026-01-28 09:16:22.11	333.69	12.71	-56.1	-62.4	10.5	2.68e-03	0	47	0	981467136	60	51609
2026-01-28 09:16:26.14	333.89	12.34	-54.9	-63.2	8.6	2.62e-02	0	47	0	988807168	60	56899
2026-01-28 09:16:30.16	334.08	11.97	-52.8	-63.9	6.4	1.92e-01	0	46	0	996147200	60	61442
2026-01-28 09:16:34.18	334.27	11.61	-51.6	-64.4	5.3	4.98e-01	0	46	0	1004535808	60	65287
2026-01-28 09:16:38.20	334.45	11.25	-50.9	-65.3	4.6	7.01e-01	0	46	0	1011875840	60	72023
2026-01-28 09:16:42.22	334.63	10.90	-51.0	-66.4	4.3	8.78e-01	0	46	0	1019215872	60	81952
2026-01-28 09:16:46.25	334.81	10.55	-51.4	-67.6	4.0	1.18e+00	0	47	0	1026555904	60	93842
2026-01-28 09:16:50.26	334.98	10.21	-50.9	-69.5	3.8	1.50e+00	0	46	104	1027604480	60	116819
2026-01-28 09:16:54.29	335.15	9.87	-50.2	-69.6	3.6	1.51e+00	0	46	104	1027604480	60	117891
2026-01-28 09:16:58.31	335.31	9.53	-53.3	-71.7	3.6	1.51e+00	0	46	104	1027604480	60	150167
2026-01-28 09:17:02.34	335.47	9.20	-51.4	-70.9	3.6	1.51e+00	0	46	104	1027604480	60	137440
2026-01-28 09:17:06.36	335.63	8.88	-49.7	-69.8	3.6	1.51e+00	0	46	104	1027604480	60	121092
2026-01-28 09:17:10.38	335.79	8.56	-52.6	-72.4	3.6	1.51e+00	0	46	104	1027604480	60	163227
2026-01-28 09:17:14.41	335.94	8.24	-49.5	-71.5	3.6	1.51e+00	0	46	104	1027604480	60	146927
2026-01-28 09:17:18.44	336.09	7.92	-52.1	-71.6	3.6	1.51e+00	0	46	104	1027604480	60	149770
2026-01-28 09:17:22.46	336.24	7.61	-52.5	-72.5	3.6	1.51e+00	0	46	104	1027604480	60	164918
2026-01-28 09:17:26.48	336.38	7.31	-54.6	-72.4	3.6	1.51e+00	0	46	104	1027604480	60	162851
2026-01-28 09:17:30.51	336.53	7.00	-53.5	-72.3	3.6	1.51e+00	0	47	104	1027604480	60	162337
2026-01-28 09:17:34.54	336.67	6.70	-55.0	-72.8	3.6	1.51e+00	0	46	104	1027604480	60	171331
2026-01-28 09:17:38.57	336.80	6.40	-52.2	-71.6	3.6	1.51e+00	0	46	104	1027604480	60	148415
2026-01-28 09:17:42.59	336.94	6.11	-55.1	-73.2	3.6	1.51e+00	0	46	104	1027604480	60	179736
2026-01-28 09:17:46.61	337.07	5.82	-56.4	-74.3	3.6	1.51e+00	0	46	104	1027604480	60	202414
2026-01-28 09:17:50.65	337.20	5.53	-58.2	-76.9	3.6	1.51e+00	0	46	104	1027604480	60	273334
2026-01-28 09:17:54.67	337.33	5.25	-60.3	-77.6	3.6	1.51e+00	0	46	104	1027604480	60	298015
2026-01-28 09:17:58.68	337.45	4.97	-59.6	-77.5	3.6	1.51e+00	0	46	104	1027604480	60	292621
2026-01-28 09:18:02.71	337.58	4.69	-57.2	-76.5	3.6	1.51e+00	0	46	104	1027604480	60	260935
2026-01-28 09:18:06.73	337.70	4.42	-58.7	-77.6	3.6	1.51e+00	0	46	104	1027604480	60	296438
2026-01-28 09:18:10.75	337.82	4.14	-58.5	-77.5	3.6	1.51e+00	0	46	104	1027604480	60	292998
2026-01-28 09:18:14.76	337.94	3.87	-58.5	-77.6	3.6	1.51e+00	0	46	104	1027604480	60	298000
2026-01-28 09:18:18.77	338.05	3.61	-58.4	-77.5	3.6	1.51e+00	0	46	104	1027604480	60	293387
2026-01-28 09:18:22.80	338.17	3.34	-58.5	-77.5	3.6	1.51e+00	0	46	104	1027604480	60	292331
2026-01-28 09:18:26.83	338.28	3.08	-58.4	-77.8	3.6	1.51e+00	0	46	104	1027604480	60	303786
2026-01-28 09:18:30.86	338.39	2.82	-58.4	-77.4	3.6	1.51e+00	0	46	104	1027604480	60	291555
2026-01-28 09:18:34.88	338.50	2.56	-58.5	-77.5	3.6	1.51e+00	0	46	104	1027604480	60	294305
2026-01-28 09:18:38.91	338.61	2.31	-58.5	-77.6	3.6	1.51e+00	0	47	104	1027604480	60	296660
2026-01-28 09:18:42.94	338.72	2.05	-58.5	-77.8	3.6	1.51e+00	0	46	104	1027604480	60	303548
2026-01-28 09:18:46.97	338.82	1.80	-58.5	-77.6	3.6	1.51e+00	0	46	104	1027604480	60	296706
2026-01-28 09:18:50.99	338.92	1.55	-58.6	-77.8	3.6	1.51e+00	0	46	104	1027604480	60	302881
2026-01-28 09:18:55.02	339.03	1.31	-58.6	-77.6	3.6	1.51e+00	0	46	104	1027604480	60	295720
2026-01-28 09:18:59.05	339.13	1.06	-58.6	-77.8	3.6	1.51e+00	0	46	104	1027604480	60	302930
2026-01-28 09:19:03.07	339.23	0.82	-58.5	-77.6	3.6	1.51e+00	0	46	104	1027604480	60	296255
2026-01-28 09:19:07.08	339.33	0.58	-58.5	-77.7	3.6	1.51e+00	0	46	104	1027604480	60	302034
2026-01-28 09:19:11.10	339.42	0.34	-58.6	-77.6	3.6	1.51e+00	0	46	104	1027604480	60	298012
2026-01-28 09:19:15.14	339.52	0.10	-58.5	-77.4	3.6	1.51e+00	0	47	104	1027604480	60	290449

#Closed at: 2026-01-28 09:19:17
#Recorded file [1027 MB]: D:/Data/35015_260128_121858.dat6	1.51e+00	0	46	104	1027604480	60	3038177558
2026-01-28 09:17:44.50	337.00	5.97	-53.7	-73.1	3.6	1.51e+00	0	46	104	1027604480	60	176200
2026-01-28 09:17:48.52	337.13	5.69	-60.1	-76.8	3.6	1.51e+00	0	46	104	1027604480	60	269870
2026-01-28 09:17:52.55	337.26	5.40	-60.6	-77.3	3.6	1.51e+00	0	46	104	1027604480	60	287834
2026-01-28 09:17:56.56	337.39	5.12	-58.6	-77.0	3.6	1.51e+00	0	46	104	1027604480	60	278107
2026-01-28 09:18:00.59	337.51	4.84	-59.6	-78.0	3.6	1.51e+00	0	46	104	1027604480	60	311102
2026-01-28 09:18:04.61	337.64	4.56	-58.6	-77.5	3.6	1.51e+00	0	46	104	1027604480	60	295020
2026-01-28 09:18:08.63	337.76	4.29	-58.4	-77.5	3.6	1.51e+00	0	46	104	1027604480	60	294238
2026-01-28 09:18:12.65	337.88	4.02	-58.4	-77.6	3.6	1.51e+00	0	46	104	1027604480	60	296152
2026-01-28 09:18:16.66	337.99	3.75	-58.4	-77.8	3.6	1.51e+00	0	46	104	1027604480	60	303402
2026-01-28 09:18:20.67	338.11	3.48	-58.5	-77.8	3.6	1.51e+00	0	46	104	1027604480	60	303594
2026-01-28 09:18:24.70	338.22	3.22	-58.4	-77.5	3.6	1.51e+00	0	46	104	1027604480	60	293705
2026-01-28 09:18:28.73	338.33	2.96	-58.5	-77.4	3.6	1.51e+00	0	46	104	1027604480	60	291131
2026-01-28 09:18:32.75	338.44	2.70	-58.5	-77.6	3.6	1.51e+00	0	46	104	1027604480	60	296783
