passes_logs/2026/01/28/R3.2S-Naryan-Mar/R3.2S-Naryan-Mar__20260128_130238_FENGYUN_3E_rec.log

#Pass ID: 20260128_130238_FENGYUN 3E
#Satellite: FENGYUN 3E
#Configuration: FENGYUN 3E
#almurnet v.1.7.20240730
#Start time: 2026-01-28 13:02:43

#Version: 2.2.20231116
#Station: R3.2S-Naryan-Mar
#Location: 53.008057 lon 67.646978 lat
#TLE: 1 49008U 21062A   26027.83084825  .00000170  00000+0  10081-3 0  9997
#TLE: 2 49008  98.7501  32.8098 0002509 114.2687 245.8752 14.19888158236667

#Time	Az	El	Level	Level2	SNR	BER	BlckErr	Temp	State	Recorded	gain1	gain2
2026-01-28 13:02:43.24	164.30	0.30	-56.6	-59.4	3.4	0.00e+00	0	44	0	0	60	110799
2026-01-28 13:02:47.25	164.36	0.54	-60.9	-74.0	3.6	8.46e-01	0	46	104	0	60	195828
2026-01-28 13:02:51.29	164.42	0.79	-60.9	-74.0	3.6	8.45e-01	0	46	104	0	60	195705
2026-01-28 13:02:55.31	164.49	1.04	-59.2	-72.3	3.6	8.46e-01	0	46	104	0	60	160933
2026-01-28 13:02:59.33	164.55	1.29	-56.2	-70.6	3.6	8.45e-01	0	46	104	0	60	132732
2026-01-28 13:03:03.34	164.61	1.54	-55.9	-70.2	3.6	8.46e-01	0	46	104	0	60	126742
2026-01-28 13:03:07.37	164.68	1.79	-55.8	-70.1	3.6	8.45e-01	0	46	104	0	60	125736
2026-01-28 13:03:11.40	164.75	2.05	-55.8	-70.1	3.6	8.45e-01	0	46	104	0	60	125243
2026-01-28 13:03:15.42	164.81	2.31	-55.8	-70.0	3.6	8.44e-01	0	46	104	0	60	124552
2026-01-28 13:03:19.45	164.88	2.57	-55.8	-70.0	3.6	8.45e-01	0	46	104	0	60	123789
2026-01-28 13:03:23.48	164.95	2.83	-55.7	-70.0	3.6	8.45e-01	0	46	104	0	60	123276
2026-01-28 13:03:27.50	165.02	3.10	-55.7	-70.1	3.6	8.45e-01	0	46	104	0	60	124993
2026-01-28 13:03:31.52	165.09	3.36	-55.7	-69.7	3.6	8.45e-01	0	46	104	0	60	120085
2026-01-28 13:03:35.55	165.17	3.64	-55.6	-69.6	3.6	8.45e-01	0	47	104	0	60	117976
2026-01-28 13:03:39.57	165.24	3.91	-55.6	-69.9	3.6	8.45e-01	0	47	104	0	60	121985
2026-01-28 13:03:43.58	165.31	4.18	-55.5	-69.0	3.6	8.44e-01	0	46	104	0	60	110820
2026-01-28 13:03:47.60	165.39	4.46	-55.5	-68.6	3.6	8.45e-01	0	46	104	0	60	105443
2026-01-28 13:03:51.62	165.47	4.74	-54.6	-61.0	7.0	2.23e-01	0	47	0	4194304	60	43793
2026-01-28 13:03:55.64	165.55	5.03	-51.4	-54.4	13.6	8.00e-06	0	46	0	33554432	60	20676
2026-01-28 13:03:59.67	165.63	5.32	-48.5	-50.6	16.4	0.00e+00	0	46	0	62914560	60	13202
2026-01-28 13:04:03.68	165.71	5.61	-47.9	-49.9	16.7	0.00e+00	0	46	0	92274688	60	12226
2026-01-28 13:04:07.69	165.79	5.90	-49.6	-51.9	15.5	0.00e+00	0	46	0	120586240	60	15504
2026-01-28 13:04:11.70	165.87	6.20	-53.5	-58.2	5.8	7.69e-01	0	47	104	142606336	60	31871
2026-01-28 13:04:15.72	165.96	6.50	-53.0	-56.9	11.9	2.01e-03	0	46	0	6291456	60	27448
2026-01-28 13:04:19.74	166.04	6.80	-51.1	-53.8	14.0	3.40e-06	0	47	0	34603008	60	19297
2026-01-28 13:04:23.77	166.13	7.11	-48.8	-50.6	16.3	0.00e+00	0	47	0	65011712	60	13202
2026-01-28 13:04:27.79	166.22	7.42	-47.6	-49.2	17.2	0.00e+00	0	46	0	93323264	60	11259
2026-01-28 13:04:31.81	166.31	7.74	-47.7	-49.4	17.1	0.00e+00	0	47	0	122683392	60	11539
2026-01-28 13:04:35.84	166.41	8.06	-47.3	-48.8	17.4	0.00e+00	0	47	0	150994944	60	10838
2026-01-28 13:04:39.87	166.50	8.38	-46.8	-48.3	17.9	0.00e+00	0	47	0	180355072	60	10189
2026-01-28 13:04:43.90	166.60	8.71	-46.7	-48.2	18.1	0.00e+00	0	46	0	209715200	60	10029
2026-01-28 13:04:47.94	166.70	9.04	-46.5	-47.8	18.1	0.00e+00	0	47	0	239075328	60	9671
2026-01-28 13:04:51.96	166.80	9.38	-47.0	-47.8	21.3	0.00e+00	0	47	0	268435456	60	9637
2026-01-28 13:04:55.99	166.90	9.72	-46.9	-47.8	21.5	0.00e+00	0	47	0	296747008	60	9590
2026-01-28 13:05:00.01	167.01	10.07	-47.0	-47.8	21.6	0.00e+00	0	47	0	326107136	60	9664
2026-01-28 13:05:04.04	167.11	10.42	-46.8	-47.7	21.7	0.00e+00	0	47	0	354418688	60	9483
2026-01-28 13:05:08.07	167.22	10.77	-46.7	-47.5	21.8	0.00e+00	0	46	0	384827392	60	9314
2026-01-28 13:05:12.09	167.34	11.13	-46.7	-47.5	21.9	0.00e+00	0	47	0	413138944	60	9318
2026-01-28 13:05:16.11	167.45	11.50	-46.4	-47.2	22.2	0.00e+00	0	46	0	442499072	60	8937
2026-01-28 13:05:20.14	167.57	11.87	-46.4	-47.2	22.3	0.00e+00	0	46	0	470810624	60	8940
2026-01-28 13:05:24.16	167.69	12.25	-46.2	-47.0	22.4	0.00e+00	0	46	0	500170752	60	8758
2026-01-28 13:05:28.18	167.81	12.63	-46.0	-46.7	22.5	0.00e+00	0	47	0	529530880	60	8467
2026-01-28 13:05:32.21	167.93	13.02	-46.0	-46.7	22.7	0.00e+00	0	46	0	558891008	60	8464
2026-01-28 13:05:36.24	168.06	13.42	-45.8	-46.5	22.8	0.00e+00	0	46	0	587202560	60	8318
2026-01-28 13:05:40.27	168.19	13.82	-45.7	-46.4	23.0	0.00e+00	0	47	0	616562688	60	8183
2026-01-28 13:05:44.29	168.33	14.23	-45.5	-46.2	23.1	0.00e+00	0	47	0	645922816	60	7995
2026-01-28 13:05:48.32	168.46	14.65	-45.5	-46.2	23.1	0.00e+00	0	46	0	674234368	60	8035
2026-01-28 13:05:52.34	168.61	15.07	-45.4	-46.1	23.3	0.00e+00	0	47	0	703594496	60	7865
2026-01-28 13:05:56.38	168.75	15.50	-45.5	-46.2	23.2	0.00e+00	0	47	0	732954624	60	7962
2026-01-28 13:06:00.40	168.90	15.94	-45.4	-46.0	23.4	0.00e+00	0	47	0	762314752	60	7859
2026-01-28 13:06:04.43	169.05	16.38	-45.3	-46.0	23.3	0.00e+00	0	47	0	790626304	60	7830
2026-01-28 13:06:08.46	169.21	16.84	-45.2	-45.8	23.5	0.00e+00	0	47	0	819986432	60	7663
2026-01-28 13:06:12.47	169.37	17.30	-45.2	-45.9	23.6	0.00e+00	0	47	0	849346560	60	7703
2026-01-28 13:06:16.50	169.54	17.77	-45.3	-46.0	23.5	0.00e+00	0	47	0	878706688	60	7798
2026-01-28 13:06:20.54	169.71	18.25	-45.2	-45.9	23.6	0.00e+00	0	46	0	907018240	60	7697
2026-01-28 13:06:24.57	169.88	18.74	-45.2	-45.9	23.7	0.00e+00	0	46	0	936378368	60	7707
2026-01-28 13:06:28.59	170.06	19.24	-44.9	-45.6	23.9	0.00e+00	0	46	0	965738496	60	7453
2026-01-28 13:06:32.62	170.25	19.75	-44.6	-45.2	24.2	0.00e+00	0	46	0	994050048	60	7158
2026-01-28 13:06:36.65	170.44	20.27	-44.5	-45.1	24.3	0.00e+00	0	47	0	1024458752	60	7042
2026-01-28 13:06:40.68	170.64	20.80	-44.4	-45.0	24.5	0.00e+00	0	46	0	1052770304	60	6970
2026-01-28 13:06:44.70	170.85	21.34	-44.4	-45.0	24.6	0.00e+00	0	46	0	1082130432	60	6952
2026-01-28 13:06:48.73	171.06	21.89	-44.6	-45.2	24.5	0.00e+00	0	46	0	1110441984	60	7103
2026-01-28 13:06:52.75	171.28	22.46	-44.7	-45.3	24.4	0.00e+00	0	47	0	1139802112	60	7213
2026-01-28 13:06:56.77	171.51	23.03	-44.8	-45.4	24.4	0.00e+00	0	47	0	1169162240	60	7311
2026-01-28 13:07:00.79	171.74	23.62	-44.6	-45.2	24.6	0.00e+00	0	47	0	1198522368	60	7120
2026-01-28 13:07:04.81	171.98	24.22	-44.7	-45.3	24.5	0.00e+00	0	46	0	1226833920	60	7212
2026-01-28 13:07:08.83	172.23	24.84	-44.6	-45.2	24.5	0.00e+00	0	47	0	1256194048	60	7169
2026-01-28 13:07:12.85	172.50	25.47	-44.3	-44.9	25.0	0.00e+00	0	46	0	1285554176	60	6907
2026-01-28 13:07:16.88	172.77	26.11	-44.1	-44.7	25.3	0.00e+00	0	47	0	1313865728	60	6735
2026-01-28 13:07:20.91	173.05	26.78	-44.0	-44.6	25.4	0.00e+00	0	46	0	1343225856	60	6631
2026-01-28 13:07:24.92	173.34	27.45	-44.2	-44.7	25.3	0.00e+00	0	47	0	1371537408	60	6760
2026-01-28 13:07:28.94	173.65	28.14	-44.3	-44.9	25.2	0.00e+00	0	47	0	1400897536	60	6896
2026-01-28 13:07:32.97	173.97	28.85	-44.5	-45.2	25.0	0.00e+00	0	47	0	1430257664	60	7090
2026-01-28 13:07:37.00	174.30	29.58	-44.4	-45.0	25.2	0.00e+00	0	46	0	1459617792	60	6981
2026-01-28 13:07:41.02	174.65	30.33	-44.4	-45.0	25.3	0.00e+00	0	47	0	1487929344	60	6964
2026-01-28 13:07:45.05	175.01	31.09	-44.8	-45.4	25.1	0.00e+00	0	47	0	1517289472	60	7265
2026-01-28 13:07:49.08	175.40	31.88	-44.7	-45.3	25.2	0.00e+00	0	46	0	1546649600	60	7243
2026-01-28 13:07:53.10	175.79	32.68	-44.5	-45.1	25.6	0.00e+00	0	46	0	1576009728	60	7045
2026-01-28 13:07:57.12	176.21	33.50	-44.7	-45.3	25.5	0.00e+00	0	46	0	1604321280	60	7191
2026-01-28 13:08:01.14	176.65	34.34	-44.9	-45.4	25.4	0.00e+00	0	47	0	1633681408	60	7334
2026-01-28 13:08:05.17	177.11	35.21	-45.1	-45.7	25.2	0.00e+00	0	47	0	1663041536	60	7538
2026-01-28 13:08:09.19	177.60	36.10	-45.1	-45.7	25.4	0.00e+00	0	47	0	1691353088	60	7547
2026-01-28 13:08:13.19	178.11	37.01	-45.2	-45.8	25.2	0.00e+00	0	47	0	1720713216	60	7651
2026-01-28 13:08:17.21	178.65	37.94	-45.3	-45.8	25.3	0.00e+00	0	47	0	1749024768	60	7680
2026-01-28 13:08:21.25	179.23	38.90	-45.5	-46.1	25.1	0.00e+00	0	47	0	1778384896	60	7869
2026-01-28 13:08:25.26	179.84	39.88	-45.6	-46.2	24.9	0.00e+00	0	47	0	1807745024	60	8021
2026-01-28 13:08:29.29	180.48	40.89	-45.4	-46.0	25.2	0.00e+00	0	47	0	1837105152	60	7815
2026-01-28 13:08:33.31	181.17	41.92	-45.5	-46.1	25.2	0.00e+00	0	47	0	1865416704	60	7907
2026-01-28 13:08:37.35	181.90	42.98	-45.4	-46.0	25.0	0.00e+00	0	47	0	1894776832	60	7827
2026-01-28 13:08:41.37	182.68	44.06	-46.3	-46.9	24.7	0.00e+00	0	46	0	1924136960	60	8695
2026-01-28 13:08:45.39	183.51	45.17	-46.6	-47.2	24.5	0.00e+00	0	47	0	1953497088	60	8971
2026-01-28 13:08:49.41	184.41	46.30	-46.4	-47.0	24.5	0.00e+00	0	47	0	1981808640	60	8803
2026-01-28 13:08:53.44	185.37	47.45	-47.1	-47.7	24.0	0.00e+00	0	47	0	2011168768	60	9513
2026-01-28 13:08:57.46	186.40	48.63	-47.0	-47.7	23.9	0.00e+00	0	47	0	2040528896	60	9455
2026-01-28 13:09:01.49	187.52	49.83	-47.5	-48.2	23.6	0.00e+00	0	47	0	2068840448	60	10016
2026-01-28 13:09:05.51	188.72	51.05	-46.9	-47.5	24.3	0.00e+00	0	47	0	2098200576	60	9316
2026-01-28 13:09:09.54	190.03	52.29	-47.4	-48.1	23.6	0.00e+00	0	47	0	2127560704	60	9914
2026-01-28 13:09:13.58	191.46	53.55	-47.4	-48.1	23.8	0.00e+00	0	47	0	2156920832	60	9908
2026-01-28 13:09:17.60	193.01	54.81	-47.0	-47.7	23.9	0.00e+00	0	47	0	2185232384	60	9467
2026-01-28 13:09:21.62	194.70	56.09	-47.2	-47.8	23.9	0.00e+00	0	47	0	2214592512	60	9632
2026-01-28 13:09:25.64	196.55	57.36	-47.3	-47.9	24.0	0.00e+00	0	47	0	2242904064	60	9743
2026-01-28 13:09:29.67	198.58	58.64	-47.3	-48.0	24.1	0.00e+00	0	47	0	2273312768	60	9807
2026-01-28 13:09:33.69	200.81	59.90	-47.1	-47.7	24.2	0.00e+00	0	47	0	2301624320	60	9512
2026-01-28 13:09:37.71	203.27	61.15	-47.5	-48.1	24.2	0.00e+00	0	47	0	2330984448	60	9985
2026-01-28 13:09:41.74	205.99	62.38	-47.3	-47.9	24.2	0.00e+00	0	47	0	2359296000	60	9736
2026-01-28 13:09:45.76	208.99	63.56	-46.3	-46.8	25.0	0.00e+00	0	47	0	2388656128	60	8587
2026-01-28 13:09:49.79	212.30	64.69	-46.3	-46.9	25.0	0.00e+00	0	47	0	2418016256	60	8659
2026-01-28 13:09:53.81	215.93	65.76	-46.0	-46.5	25.3	0.00e+00	0	47	0	2447376384	60	8327
2026-01-28 13:09:57.84	219.93	66.74	-45.5	-46.1	25.6	0.00e+00	0	47	0	2475687936	60	7872
2026-01-28 13:10:01.87	224.30	67.62	-46.3	-46.9	25.1	0.00e+00	0	47	0	2505048064	60	8629
2026-01-28 13:10:05.90	229.03	68.38	-46.2	-46.8	25.1	0.00e+00	0	47	0	2534408192	60	8571
2026-01-28 13:10:09.92	234.08	69.01	-46.3	-46.9	24.9	0.00e+00	0	47	0	2562719744	60	8682
2026-01-28 13:10:13.95	239.44	69.47	-46.3	-46.9	25.0	0.00e+00	0	47	0	2592079872	60	8709
2026-01-28 13:10:17.98	245.01	69.77	-46.5	-47.1	24.9	0.00e+00	0	47	0	2621440000	60	8920
2026-01-28 13:10:22.01	250.70	69.88	-46.2	-46.8	25.2	0.00e+00	0	46	0	2650800128	60	8612
2026-01-28 13:10:26.03	256.39	69.81	-46.7	-47.4	24.7	0.00e+00	0	47	0	2679111680	60	9173
2026-01-28 13:10:30.05	261.98	69.55	-46.3	-47.0	24.8	0.00e+00	0	46	0	2708471808	60	8791
2026-01-28 13:10:34.08	267.39	69.12	-46.4	-47.2	24.7	0.00e+00	0	47	0	2737831936	60	8956
2026-01-28 13:10:38.12	272.53	68.53	-46.2	-47.0	25.0	0.00e+00	0	46	0	2766143488	60	8728
2026-01-28 13:10:42.14	277.32	67.80	-46.4	-47.1	24.4	0.00e+00	0	47	0	2795503616	60	8875
2026-01-28 13:10:46.16	281.76	66.95	-46.0	-46.7	24.9	0.00e+00	0	46	0	2824863744	60	8429
2026-01-28 13:10:50.19	285.84	65.99	-46.1	-46.7	24.6	0.00e+00	0	46	0	2854223872	60	8502
2026-01-28 13:10:54.21	289.55	64.94	-46.2	-46.8	24.5	0.00e+00	0	47	0	2882535424	60	8619
2026-01-28 13:10:58.22	292.91	63.83	-46.4	-47.1	24.2	0.00e+00	0	46	0	2911895552	60	8882
2026-01-28 13:11:02.23	295.97	62.66	-46.8	-47.5	23.8	0.00e+00	0	46	0	2940207104	60	9313
2026-01-28 13:11:06.26	298.75	61.45	-47.0	-47.7	23.7	0.00e+00	0	47	0	2970615808	60	9555
2026-01-28 13:11:10.29	301.27	60.21	-47.0	-47.8	23.3	0.00e+00	0	47	0	2998927360	60	9625
2026-01-28 13:11:14.31	303.55	58.95	-47.4	-48.1	23.0	0.00e+00	0	46	0	3028287488	60	10004
2026-01-28 13:11:18.32	305.61	57.68	-47.3	-48.1	23.1	0.00e+00	0	46	0	3056599040	60	9910
2026-01-28 13:11:22.34	307.50	56.41	-47.0	-47.7	23.4	0.00e+00	0	46	0	3085959168	60	9553
2026-01-28 13:11:26.37	309.23	55.13	-46.8	-47.5	23.6	0.00e+00	0	47	0	3115319296	60	9257
2026-01-28 13:11:30.40	310.81	53.87	-46.9	-47.6	23.2	0.00e+00	0	47	0	3144679424	60	9440
2026-01-28 13:11:34.42	312.26	52.62	-47.1	-47.9	22.5	0.00e+00	0	46	0	3172990976	60	9715
2026-01-28 13:11:38.45	313.59	51.38	-47.0	-47.7	22.9	0.00e+00	0	47	0	3202351104	60	9515
2026-01-28 13:11:42.48	314.82	50.15	-47.0	-47.7	23.0	0.00e+00	0	47	0	3231711232	60	9497
2026-01-28 13:11:46.50	315.96	48.95	-47.3	-48.0	23.1	0.00e+00	0	46	0	3260022784	60	9875
2026-01-28 13:11:50.53	317.01	47.77	-46.9	-47.6	23.8	0.00e+00	0	47	0	3289382912	60	9432
2026-01-28 13:11:54.56	317.99	46.61	-46.5	-47.1	24.4	0.00e+00	0	47	0	3318743040	60	8884
2026-01-28 13:11:58.59	318.90	45.48	-45.9	-46.6	24.7	0.00e+00	0	47	0	3348103168	60	8333
2026-01-28 13:12:02.62	319.75	44.37	-46.0	-46.6	24.6	0.00e+00	0	47	0	3376414720	60	8400
2026-01-28 13:12:06.65	320.54	43.28	-45.5	-46.1	24.2	0.00e+00	0	47	0	3405774848	60	7923
2026-01-28 13:12:10.66	321.28	42.23	-45.7	-46.3	24.4	0.00e+00	0	46	0	3435134976	60	8115
2026-01-28 13:12:14.70	321.98	41.19	-45.7	-46.3	24.1	0.00e+00	0	47	0	3463446528	60	8124
2026-01-28 13:12:18.72	322.64	40.18	-45.5	-46.2	24.8	0.00e+00	0	46	0	3492806656	60	7961
2026-01-28 13:12:22.75	323.25	39.19	-45.8	-46.4	24.7	0.00e+00	0	47	0	3522166784	60	8180
2026-01-28 13:12:26.78	323.84	38.23	-45.6	-46.2	24.6	0.00e+00	0	46	0	3551526912	60	7986
2026-01-28 13:12:30.81	324.39	37.29	-45.1	-45.8	24.9	0.00e+00	0	46	0	3579838464	60	7611
2026-01-28 13:12:34.84	324.91	36.37	-45.1	-45.7	24.6	0.00e+00	0	46	0	3609198592	60	7578
2026-01-28 13:12:38.87	325.40	35.48	-45.5	-46.1	24.5	0.00e+00	0	47	0	3638558720	60	7940
2026-01-28 13:12:42.89	325.87	34.61	-45.4	-46.0	24.5	0.00e+00	0	47	0	3667918848	60	7837
2026-01-28 13:12:46.91	326.32	33.77	-45.3	-46.0	24.7	0.00e+00	0	47	0	3696230400	60	7777
2026-01-28 13:12:50.94	326.74	32.94	-45.0	-45.6	25.1	0.00e+00	0	46	0	3725590528	60	7502
2026-01-28 13:12:54.98	327.15	32.13	-45.0	-45.6	25.4	0.00e+00	0	47	0	3754950656	60	7439
2026-01-28 13:12:59.00	327.53	31.35	-45.0	-45.6	25.2	0.00e+00	0	47	0	3783262208	60	7453
2026-01-28 13:13:03.03	327.90	30.58	-45.2	-45.7	24.9	0.00e+00	0	47	0	3812622336	60	7591
2026-01-28 13:13:07.06	328.25	29.83	-45.2	-45.8	24.6	0.00e+00	0	46	0	3841982464	60	7627
2026-01-28 13:13:11.09	328.59	29.10	-45.2	-45.8	24.6	0.00e+00	0	46	0	3871342592	60	7626
2026-01-28 13:13:15.11	328.91	28.39	-45.2	-45.9	24.4	0.00e+00	0	47	0	3899654144	60	7701
2026-01-28 13:13:19.14	329.22	27.70	-45.4	-46.1	24.2	0.00e+00	0	47	0	3929014272	60	7883
2026-01-28 13:13:23.17	329.52	27.02	-45.8	-46.5	24.1	0.00e+00	0	47	0	3958374400	60	8244
2026-01-28 13:13:27.19	329.81	26.36	-46.1	-46.8	23.7	0.00e+00	0	47	0	3987734528	60	8539
2026-01-28 13:13:31.22	330.08	25.71	-45.8	-46.5	24.2	0.00e+00	0	47	0	4016046080	60	8239
2026-01-28 13:13:35.24	330.35	25.08	-45.6	-46.2	24.5	0.00e+00	0	47	0	4045406208	60	8031
2026-01-28 13:13:39.27	330.60	24.46	-45.6	-46.2	24.5	0.00e+00	0	47	0	4074766336	60	8009
2026-01-28 13:13:43.29	330.85	23.86	-45.4	-46.0	24.7	0.00e+00	0	46	0	4103077888	60	7822
2026-01-28 13:13:47.31	331.09	23.27	-45.3	-45.9	24.7	0.00e+00	0	47	0	4132438016	60	7765
2026-01-28 13:13:51.33	331.32	22.69	-45.4	-46.1	24.4	0.00e+00	0	46	0	4160749568	60	7871
2026-01-28 13:13:55.35	331.54	22.12	-45.7	-46.4	24.2	0.00e+00	0	47	0	4191158272	60	8147
2026-01-28 13:13:59.38	331.76	21.57	-45.8	-46.5	24.0	0.00e+00	0	47	0	4219469824	60	8241
2026-01-28 13:14:03.40	331.96	21.03	-46.1	-46.8	23.8	0.00e+00	0	46	0	4248829952	60	8558
2026-01-28 13:14:07.43	332.17	20.50	-46.3	-47.0	23.6	0.00e+00	0	47	0	4277141504	60	8734
2026-01-28 13:14:11.46	332.36	19.98	-46.3	-47.0	23.7	0.00e+00	0	47	0	4307550208	60	8769
2026-01-28 13:14:15.48	332.55	19.47	-46.4	-47.1	23.7	0.00e+00	0	47	0	4335861760	60	8891
2026-01-28 13:14:19.50	332.74	18.97	-46.4	-47.1	23.6	0.00e+00	0	47	0	4365221888	60	8905
2026-01-28 13:14:23.53	332.91	18.48	-46.3	-47.0	23.8	0.00e+00	0	47	0	4393533440	60	8755
2026-01-28 13:14:27.55	333.09	18.00	-46.4	-47.1	23.5	0.00e+00	0	47	0	4422893568	60	8883
2026-01-28 13:14:31.57	333.26	17.53	-46.6	-47.3	23.2	0.00e+00	0	47	0	4452253696	60	9053
2026-01-28 13:14:35.60	333.42	17.06	-46.8	-47.5	22.9	0.00e+00	0	47	0	4480565248	60	9321
2026-01-28 13:14:39.63	333.58	16.61	-47.2	-48.0	22.2	0.00e+00	0	47	0	4509925376	60	9848
2026-01-28 13:14:43.66	333.74	16.16	-47.7	-48.6	21.3	0.00e+00	0	47	0	4539285504	60	10540
2026-01-28 13:14:47.69	333.89	15.72	-48.3	-49.2	20.7	0.00e+00	0	46	0	4568645632	60	11363
2026-01-28 13:14:51.72	334.04	15.29	-48.8	-49.9	20.0	0.00e+00	0	47	0	4596957184	60	12256
2026-01-28 13:14:55.75	334.18	14.87	-49.4	-50.5	19.2	0.00e+00	0	47	0	4626317312	60	13174
2026-01-28 13:14:59.78	334.32	14.45	-50.0	-51.3	18.2	0.00e+00	0	47	0	4655677440	60	14353
2026-01-28 13:15:03.80	334.46	14.04	-50.7	-52.1	17.2	0.00e+00	0	47	0	4685037568	60	15805
2026-01-28 13:15:07.83	334.59	13.64	-51.3	-53.0	16.3	0.00e+00	0	46	0	4713349120	60	17463
2026-01-28 13:15:11.86	334.72	13.24	-51.9	-53.9	15.3	0.00e+00	0	47	0	4742709248	60	19515
2026-01-28 13:15:15.90	334.85	12.85	-52.4	-54.9	14.3	0.00e+00	0	47	0	4772069376	60	21765
2026-01-28 13:15:19.92	334.98	12.47	-53.0	-55.9	13.1	1.60e-05	0	46	0	4800380928	60	24508
2026-01-28 13:15:23.96	335.10	12.09	-53.2	-57.0	11.8	3.36e-04	0	47	0	4830789632	60	27723
2026-01-28 13:15:27.98	335.22	11.72	-53.1	-58.2	10.5	3.07e-03	0	47	0	4859101184	60	31760
2026-01-28 13:15:32.00	335.34	11.35	-53.3	-59.4	9.2	1.73e-02	0	47	0	4888461312	60	36446
2026-01-28 13:15:36.02	335.45	10.99	-54.6	-60.6	7.7	7.23e-02	0	47	0	4916772864	60	42084
2026-01-28 13:15:40.06	335.57	10.63	-55.1	-61.8	6.4	1.97e-01	0	47	0	4946132992	60	48101
2026-01-28 13:15:44.08	335.68	10.28	-53.9	-62.9	5.2	6.90e-01	0	47	0	4970250240	60	54518
2026-01-28 13:15:48.11	335.78	9.93	-52.4	-64.3	4.3	8.07e-01	0	47	0	4972347392	60	64307
2026-01-28 13:15:52.14	335.89	9.59	-51.8	-66.8	3.7	8.34e-01	0	47	104	4972347392	60	86190
2026-01-28 13:15:56.16	335.99	9.26	-52.1	-67.9	3.7	8.44e-01	0	47	104	4972347392	60	97279
2026-01-28 13:16:00.18	336.10	8.92	-52.9	-68.7	3.6	8.45e-01	0	47	104	4972347392	60	106737
2026-01-28 13:16:04.20	336.20	8.60	-51.7	-69.1	3.6	8.46e-01	0	47	104	4972347392	60	111982
2026-01-28 13:16:08.22	336.29	8.27	-53.7	-70.1	3.6	8.44e-01	0	47	104	4972347392	60	125503
2026-01-28 13:16:12.25	336.39	7.95	-54.8	-70.0	3.6	8.46e-01	0	47	104	4972347392	60	123606
2026-01-28 13:16:16.27	336.49	7.64	-55.5	-70.0	3.6	8.44e-01	0	47	104	4972347392	60	124475
2026-01-28 13:16:20.30	336.58	7.32	-55.0	-70.1	3.6	8.45e-01	0	46	104	4972347392	60	125637
2026-01-28 13:16:24.33	336.67	7.02	-54.6	-70.3	3.6	8.45e-01	0	47	104	4972347392	60	127524
2026-01-28 13:16:28.36	336.76	6.71	-53.9	-70.0	3.6	8.45e-01	0	47	104	4972347392	60	123621
2026-01-28 13:16:32.39	336.85	6.41	-55.6	-68.9	3.6	8.45e-01	0	47	104	4972347392	60	108978
2026-01-28 13:16:36.42	336.94	6.11	-54.0	-69.9	3.6	8.46e-01	0	47	104	4972347392	60	122071
2026-01-28 13:16:40.45	337.02	5.82	-57.9	-71.9	3.6	8.45e-01	0	47	104	4972347392	60	153614
2026-01-28 13:16:44.47	337.11	5.52	-59.4	-72.6	3.6	8.45e-01	0	47	104	4972347392	60	166890
2026-01-28 13:16:48.50	337.19	5.24	-60.0	-73.1	3.6	8.46e-01	0	47	104	4972347392	60	177568
2026-01-28 13:16:52.52	337.27	4.95	-60.1	-73.7	3.6	8.46e-01	0	47	104	4972347392	60	188921
2026-01-28 13:16:56.56	337.35	4.67	-60.0	-73.6	3.6	8.46e-01	0	47	104	4972347392	60	187925
2026-01-28 13:17:00.59	337.43	4.39	-60.2	-73.7	3.6	8.45e-01	0	47	104	4972347392	60	189017
2026-01-28 13:17:04.62	337.51	4.11	-60.2	-73.7	3.5	8.45e-01	0	47	104	4972347392	60	188789
2026-01-28 13:17:08.65	337.59	3.84	-60.2	-73.7	3.6	8.45e-01	0	46	104	4972347392	60	189386
2026-01-28 13:17:12.67	337.67	3.57	-60.2	-73.8	3.6	8.45e-01	0	47	104	4972347392	60	190831
2026-01-28 13:17:16.69	337.74	3.30	-60.2	-73.7	3.6	8.46e-01	0	47	104	4972347392	60	189249
2026-01-28 13:17:20.72	337.82	3.04	-60.2	-73.7	3.6	8.45e-01	0	47	104	4972347392	60	188649
2026-01-28 13:17:24.75	337.89	2.77	-60.2	-73.7	3.5	8.46e-01	0	47	104	4972347392	60	190393
2026-01-28 13:17:28.77	337.96	2.51	-60.2	-73.7	3.6	8.45e-01	0	47	104	4972347392	60	189104
2026-01-28 13:17:32.80	338.03	2.25	-60.2	-73.6	3.6	8.45e-01	0	46	104	4972347392	60	186929
2026-01-28 13:17:36.83	338.10	2.00	-60.1	-73.6	3.6	8.46e-01	0	47	104	4972347392	60	188110
2026-01-28 13:17:40.86	338.17	1.74	-60.1	-73.6	3.6	8.45e-01	0	46	104	4972347392	60	187726
2026-01-28 13:17:44.88	338.24	1.49	-60.0	-73.6	3.6	8.46e-01	0	47	104	4972347392	60	186963
2026-01-28 13:17:48.91	338.31	1.24	-60.1	-73.6	3.6	8.46e-01	0	47	104	4972347392	60	188204
2026-01-28 13:17:52.93	338.38	1.00	-60.1	-73.6	3.6	8.45e-01	0	47	104	4972347392	60	187902
2026-01-28 13:17:56.95	338.44	0.75	-60.0	-73.6	3.6	8.45e-01	0	46	104	4972347392	60	188444
2026-01-28 13:18:00.97	338.51	0.51	-60.0	-73.7	3.6	8.44e-01	0	47	104	4972347392	60	188960
2026-01-28 13:18:05.00	338.57	0.27	-60.0	-73.6	3.6	8.44e-01	0	47	104	4972347392	60	187430
2026-01-28 13:18:09.02	338.64	0.03	-60.0	-73.6	3.6	8.46e-01	0	46	104	4972347392	60	188471

#Closed at: 2026-01-28 13:18:09
#Recorded file [4972 MB]: D:/Data/35015_260128_161555.dat