passes_logs/2026/01/28/R3.2S-Naryan-Mar/R3.2S-Naryan-Mar__20260128_204653_SUOMI_NPP_rec.log

#Pass ID: 20260128_204653_SUOMI NPP
#Satellite: SUOMI NPP
#Configuration: NPP
#almurnet v.1.7.20240730
#Start time: 2026-01-28 20:46:56

#Version: 2.2.20231116
#Station: R3.2S-Naryan-Mar
#Location: 53.008057 lon 67.646978 lat
#TLE: 1 37849U 11061A   26027.86188320  .00000172  00000+0  10275-3 0  9990
#TLE: 2 37849  98.7823 329.8005 0002088  41.4184 318.7150 14.19530883738530

#Time	Az	El	Level	Level2	SNR	BER	BlckErr	Temp	State	Recorded	gain1	gain2
2026-01-28 20:46:56.95	16.92	0.15	-60.8	-76.5	3.3	1.54e+00	0	45	0	0	60	261074
2026-01-28 20:47:00.97	17.21	0.35	-60.2	-78.1	3.6	1.51e+00	0	45	104	0	60	313955
2026-01-28 20:47:04.99	17.50	0.55	-55.1	-75.2	3.6	1.51e+00	0	45	104	0	60	225189
2026-01-28 20:47:09.02	17.79	0.76	-57.5	-76.7	3.5	1.51e+00	0	45	104	0	60	269086
2026-01-28 20:47:13.05	18.09	0.96	-51.9	-73.7	3.6	1.51e+00	0	45	104	0	60	190019
2026-01-28 20:47:17.08	18.39	1.16	-51.6	-73.6	3.6	1.51e+00	0	45	104	0	60	188533
2026-01-28 20:47:21.10	18.70	1.37	-51.7	-73.7	3.6	1.51e+00	0	45	104	0	60	189554
2026-01-28 20:47:25.12	19.00	1.58	-51.3	-73.4	3.6	1.51e+00	0	45	104	0	60	184093
2026-01-28 20:47:29.14	19.32	1.78	-51.7	-74.3	3.6	1.51e+00	0	45	104	0	60	203512
2026-01-28 20:47:33.17	19.63	1.99	-52.0	-73.7	3.6	1.51e+00	0	45	104	0	60	189521
2026-01-28 20:47:37.19	19.96	2.20	-51.9	-73.8	3.5	1.51e+00	0	45	104	0	60	192747
2026-01-28 20:47:41.21	20.28	2.41	-51.7	-73.9	3.6	1.51e+00	0	45	104	0	60	193877
2026-01-28 20:47:45.24	20.61	2.62	-51.8	-74.2	3.6	1.51e+00	0	45	104	0	60	201487
2026-01-28 20:47:49.27	20.95	2.83	-51.6	-73.7	3.6	1.51e+00	0	46	104	0	60	189621
2026-01-28 20:47:53.30	21.29	3.04	-51.7	-74.2	3.6	1.51e+00	0	46	104	0	60	200282
2026-01-28 20:47:57.32	21.63	3.26	-51.8	-74.0	3.6	1.51e+00	0	46	104	0	60	196240
2026-01-28 20:48:01.35	21.98	3.47	-51.8	-73.6	3.6	1.51e+00	0	46	104	0	60	187447
2026-01-28 20:48:05.38	22.33	3.69	-51.8	-74.0	3.6	1.51e+00	0	46	104	0	60	196202
2026-01-28 20:48:09.41	22.69	3.90	-52.0	-74.2	3.6	1.51e+00	0	46	104	0	60	199922
2026-01-28 20:48:13.42	23.05	4.12	-52.1	-74.0	3.6	1.51e+00	0	46	104	0	60	195975
2026-01-28 20:48:17.44	23.42	4.34	-52.3	-74.0	3.6	1.51e+00	0	46	104	0	60	195529
2026-01-28 20:48:21.46	23.79	4.55	-52.3	-73.8	3.6	1.51e+00	0	46	104	0	60	191522
2026-01-28 20:48:25.48	24.17	4.77	-52.3	-74.1	3.5	1.51e+00	0	46	104	0	60	197775
2026-01-28 20:48:29.50	24.56	4.99	-52.0	-74.2	3.6	1.51e+00	0	46	104	0	60	201215
2026-01-28 20:48:33.54	24.95	5.21	-52.1	-74.1	3.6	1.51e+00	0	46	104	0	60	199473
2026-01-28 20:48:37.57	25.34	5.43	-51.9	-73.7	3.6	1.51e+00	0	46	104	0	60	190310
2026-01-28 20:48:41.59	25.74	5.66	-51.9	-73.6	3.6	1.51e+00	0	46	104	0	60	188028
2026-01-28 20:48:45.61	26.15	5.88	-51.9	-73.7	3.6	1.51e+00	0	46	104	0	60	189214
2026-01-28 20:48:49.64	26.56	6.10	-51.4	-72.1	3.6	1.51e+00	0	46	104	0	60	157813
2026-01-28 20:48:53.67	26.98	6.33	-54.5	-59.8	12.7	7.00e-07	0	46	104	0	60	38360
2026-01-28 20:48:57.71	27.41	6.55	-52.7	-62.2	9.9	1.43e-02	0	46	0	7340032	60	50257
2026-01-28 20:49:01.72	27.84	6.78	-50.1	-58.7	12.3	1.49e-04	0	46	0	14680064	60	33873
2026-01-28 20:49:05.75	28.28	7.00	-54.0	-58.5	16.3	0.00e+00	0	46	0	22020096	60	32955
2026-01-28 20:49:09.79	28.73	7.23	-50.7	-57.1	14.4	2.20e-06	0	46	0	29360128	60	27917
2026-01-28 20:49:13.81	29.18	7.46	-50.1	-56.4	15.1	0.00e+00	0	46	0	36700160	60	25909
2026-01-28 20:49:17.83	29.63	7.69	-53.7	-56.8	16.5	0.00e+00	0	46	0	45088768	60	27146
2026-01-28 20:49:21.85	30.10	7.92	-54.1	-57.0	17.5	0.00e+00	0	46	0	52428800	60	27638
2026-01-28 20:49:25.88	30.57	8.15	-53.7	-56.7	16.8	0.00e+00	0	46	0	59768832	60	26768
2026-01-28 20:49:29.90	31.05	8.37	-53.2	-57.0	18.0	0.00e+00	0	46	0	67108864	60	27597
2026-01-28 20:49:33.92	31.54	8.60	-52.4	-57.0	16.8	0.00e+00	0	46	0	74448896	60	27848
2026-01-28 20:49:37.95	32.03	8.84	-52.5	-56.8	16.3	0.00e+00	0	46	0	82837504	60	27028
2026-01-28 20:49:41.98	32.53	9.07	-52.4	-56.6	16.6	0.00e+00	0	46	0	90177536	60	26497
2026-01-28 20:49:46.02	33.04	9.30	-53.4	-56.4	17.6	0.00e+00	0	46	0	97517568	60	25741
2026-01-28 20:49:50.04	33.56	9.53	-54.0	-56.2	18.1	0.00e+00	0	46	0	104857600	60	25158
2026-01-28 20:49:54.06	34.08	9.76	-53.2	-56.2	17.9	0.00e+00	0	46	0	112197632	60	25422
2026-01-28 20:49:58.08	34.62	9.99	-53.8	-56.3	18.3	0.00e+00	0	46	0	120586240	60	25499
2026-01-28 20:50:02.11	35.16	10.22	-53.2	-56.3	17.9	0.00e+00	0	46	0	127926272	60	25613
2026-01-28 20:50:06.14	35.71	10.45	-52.0	-56.3	17.1	0.00e+00	0	46	0	135266304	60	25590
2026-01-28 20:50:10.16	36.26	10.68	-53.7	-56.3	18.7	0.00e+00	0	46	0	142606336	60	25554
2026-01-28 20:50:14.19	36.83	10.92	-54.3	-56.4	18.5	0.00e+00	0	46	0	149946368	60	25800
2026-01-28 20:50:18.22	37.41	11.15	-52.9	-56.6	16.6	0.00e+00	0	46	0	158334976	60	26406
2026-01-28 20:50:22.25	37.99	11.38	-53.4	-56.0	18.3	0.00e+00	0	46	0	165675008	60	24700
2026-01-28 20:50:26.28	38.59	11.61	-53.7	-55.8	19.0	0.00e+00	0	46	0	173015040	60	24204
2026-01-28 20:50:30.29	39.18	11.84	-53.2	-56.0	18.1	0.00e+00	0	46	0	180355072	60	24625
2026-01-28 20:50:34.32	39.80	12.06	-53.1	-55.2	19.7	0.00e+00	0	46	0	187695104	60	22666
2026-01-28 20:50:38.34	40.42	12.29	-52.5	-54.9	19.3	0.00e+00	0	46	0	196083712	60	21705
2026-01-28 20:50:42.35	41.04	12.52	-53.4	-55.5	19.4	0.00e+00	0	46	0	203423744	60	23303
2026-01-28 20:50:46.37	41.68	12.74	-53.8	-55.7	18.9	0.00e+00	0	46	0	210763776	60	23767
2026-01-28 20:50:50.41	42.33	12.97	-53.8	-55.7	19.7	0.00e+00	0	46	0	218103808	60	23929
2026-01-28 20:50:54.41	42.98	13.19	-53.7	-55.4	19.8	0.00e+00	0	46	0	225443840	60	23100
2026-01-28 20:50:58.43	43.65	13.41	-54.1	-56.1	19.2	0.00e+00	0	46	0	233832448	60	24900
2026-01-28 20:51:02.43	44.32	13.63	-54.1	-55.9	19.4	0.00e+00	0	46	0	241172480	60	24384
2026-01-28 20:51:06.46	45.01	13.85	-53.8	-55.7	19.0	0.00e+00	0	46	0	248512512	60	23971
2026-01-28 20:51:10.48	45.71	14.07	-53.3	-55.5	19.5	0.00e+00	0	46	0	255852544	60	23426
2026-01-28 20:51:14.50	46.41	14.28	-53.3	-55.5	19.2	0.00e+00	0	46	0	263192576	60	23451
2026-01-28 20:51:18.52	47.13	14.50	-53.2	-55.8	19.3	0.00e+00	0	46	0	270532608	60	24139
2026-01-28 20:51:22.55	47.86	14.71	-53.7	-55.9	19.0	0.00e+00	0	46	0	278921216	60	24328
2026-01-28 20:51:26.58	48.60	14.91	-53.7	-56.6	17.7	0.00e+00	0	46	0	286261248	60	26554
2026-01-28 20:51:30.60	49.34	15.12	-54.0	-56.2	18.8	0.00e+00	0	46	0	293601280	60	25379
2026-01-28 20:51:34.62	50.10	15.32	-53.4	-56.0	19.1	0.00e+00	0	46	0	300941312	60	24856
2026-01-28 20:51:38.66	50.87	15.52	-53.1	-56.2	17.4	0.00e+00	0	46	0	308281344	60	25434
2026-01-28 20:51:42.68	51.64	15.72	-54.6	-57.0	18.2	0.00e+00	0	46	0	316669952	60	27750
2026-01-28 20:51:46.71	52.43	15.91	-54.4	-56.3	19.2	0.00e+00	0	46	0	324009984	60	25669
2026-01-28 20:51:50.73	53.23	16.10	-51.4	-56.4	16.8	0.00e+00	0	46	0	331350016	60	25905
2026-01-28 20:51:54.76	54.03	16.29	-51.5	-57.0	16.5	0.00e+00	0	46	0	338690048	60	27841
2026-01-28 20:51:58.78	54.85	16.47	-54.8	-57.2	18.4	0.00e+00	0	46	0	347078656	60	28354
2026-01-28 20:52:02.80	55.67	16.64	-54.8	-57.2	18.0	0.00e+00	0	46	0	354418688	60	28475
2026-01-28 20:52:06.83	56.51	16.82	-54.4	-56.4	19.3	0.00e+00	0	46	0	361758720	60	25760
2026-01-28 20:52:10.85	57.35	16.99	-53.5	-56.8	18.5	0.00e+00	0	46	0	369098752	60	27207
2026-01-28 20:52:14.88	58.21	17.15	-52.8	-56.2	18.6	0.00e+00	0	46	0	376438784	60	25351
2026-01-28 20:52:18.90	59.07	17.31	-54.5	-56.3	19.8	0.00e+00	0	46	0	383778816	60	25536
2026-01-28 20:52:22.93	59.94	17.46	-54.6	-56.6	18.8	0.00e+00	0	46	0	392167424	60	26504
2026-01-28 20:52:26.95	60.82	17.61	-52.6	-56.7	17.5	0.00e+00	0	46	0	399507456	60	26658
2026-01-28 20:52:30.98	61.71	17.75	-54.4	-56.2	20.1	0.00e+00	0	46	0	406847488	60	25367
2026-01-28 20:52:35.01	62.61	17.89	-54.6	-56.3	19.9	0.00e+00	0	46	0	414187520	60	25607
2026-01-28 20:52:39.04	63.51	18.02	-53.8	-56.7	17.9	0.00e+00	0	46	0	421527552	60	26944
2026-01-28 20:52:43.06	64.42	18.14	-54.2	-56.5	19.8	0.00e+00	0	46	0	429916160	60	26138
2026-01-28 20:52:47.09	65.34	18.26	-54.2	-56.1	20.0	0.00e+00	0	46	0	437256192	60	25068
2026-01-28 20:52:51.12	66.27	18.37	-55.1	-56.9	20.0	0.00e+00	0	46	0	444596224	60	27322
2026-01-28 20:52:55.13	67.20	18.47	-54.5	-56.2	20.7	0.00e+00	0	46	0	451936256	60	25178
2026-01-28 20:52:59.17	68.14	18.57	-55.1	-57.2	19.4	0.00e+00	0	46	0	460324864	60	28430
2026-01-28 20:53:03.17	69.08	18.66	-55.4	-57.0	19.9	0.00e+00	0	46	0	467664896	60	27592
2026-01-28 20:53:07.20	70.03	18.74	-55.5	-57.6	18.9	0.00e+00	0	46	0	475004928	60	29750
2026-01-28 20:53:11.22	70.98	18.82	-55.6	-57.4	19.2	0.00e+00	0	46	0	482344960	60	29101
2026-01-28 20:53:15.24	71.94	18.88	-56.0	-58.1	18.6	0.00e+00	0	46	0	489684992	60	31611
2026-01-28 20:53:19.27	72.90	18.94	-55.7	-57.6	19.2	0.00e+00	0	46	0	497025024	60	29619
2026-01-28 20:53:23.30	73.87	19.00	-55.9	-57.8	19.2	0.00e+00	0	46	0	505413632	60	30458
2026-01-28 20:53:27.32	74.83	19.04	-55.9	-57.8	19.1	0.00e+00	0	46	0	512753664	60	30325
2026-01-28 20:53:31.35	75.81	19.08	-56.1	-57.9	19.1	0.00e+00	0	46	0	520093696	60	30878
2026-01-28 20:53:35.38	76.78	19.11	-55.6	-57.6	19.3	0.00e+00	0	46	0	527433728	60	29611
2026-01-28 20:53:39.41	77.76	19.13	-56.1	-58.3	18.3	0.00e+00	0	46	0	534773760	60	32295
2026-01-28 20:53:43.43	78.73	19.14	-55.9	-58.1	18.4	0.00e+00	0	46	0	543162368	60	31375
2026-01-28 20:53:47.44	79.70	19.14	-55.7	-57.9	18.7	0.00e+00	0	46	0	550502400	60	30603
2026-01-28 20:53:51.45	80.68	19.14	-56.7	-58.4	19.6	0.00e+00	0	46	0	557842432	60	32693
2026-01-28 20:53:55.47	81.65	19.13	-56.9	-58.9	18.5	0.00e+00	0	46	0	565182464	60	34430
2026-01-28 20:53:59.48	82.62	19.11	-56.4	-58.7	18.9	0.00e+00	0	46	0	572522496	60	33693
2026-01-28 20:54:03.50	83.60	19.08	-56.1	-58.2	19.0	0.00e+00	0	46	0	580911104	60	31754
2026-01-28 20:54:07.52	84.57	19.04	-56.0	-58.0	19.2	0.00e+00	0	46	0	588251136	60	31286
2026-01-28 20:54:11.55	85.54	19.00	-55.8	-57.8	19.4	0.00e+00	0	46	0	595591168	60	30352
2026-01-28 20:54:15.57	86.50	18.95	-55.0	-56.9	19.4	0.00e+00	0	46	0	602931200	60	27442
2026-01-28 20:54:19.59	87.47	18.89	-55.4	-57.4	19.1	0.00e+00	0	46	0	610271232	60	28881
2026-01-28 20:54:23.61	88.43	18.82	-55.8	-57.5	19.5	0.00e+00	0	46	0	617611264	60	29456
2026-01-28 20:54:27.64	89.38	18.74	-55.8	-57.6	19.3	0.00e+00	0	46	0	625999872	60	29785
2026-01-28 20:54:31.66	90.33	18.66	-55.4	-57.2	19.3	0.00e+00	0	46	0	633339904	60	28452
2026-01-28 20:54:35.69	91.28	18.57	-56.4	-58.4	18.6	0.00e+00	0	46	0	640679936	60	32623
2026-01-28 20:54:39.71	92.22	18.48	-55.3	-57.2	19.3	0.00e+00	0	46	0	648019968	60	28359
2026-01-28 20:54:43.74	93.15	18.37	-54.8	-56.6	19.8	0.00e+00	0	46	0	655360000	60	26519
2026-01-28 20:54:47.77	94.08	18.26	-54.8	-56.6	19.7	0.00e+00	0	46	0	663748608	60	26391
2026-01-28 20:54:51.80	95.00	18.14	-53.9	-55.7	20.3	0.00e+00	0	46	0	671088640	60	24015
2026-01-28 20:54:55.82	95.91	18.02	-54.8	-56.6	19.9	0.00e+00	0	46	0	678428672	60	26561
2026-01-28 20:54:59.84	96.82	17.89	-54.0	-55.8	20.6	0.00e+00	0	46	0	685768704	60	24034
2026-01-28 20:55:03.86	97.72	17.75	-54.1	-56.0	20.0	0.00e+00	0	46	0	693108736	60	24802
2026-01-28 20:55:07.89	98.61	17.61	-54.4	-55.9	20.6	0.00e+00	0	46	0	701497344	60	24506
2026-01-28 20:55:11.91	99.49	17.46	-54.4	-56.4	19.4	0.00e+00	0	46	0	708837376	60	25851
2026-01-28 20:55:15.94	100.36	17.31	-54.2	-56.0	20.3	0.00e+00	0	46	0	716177408	60	24665
2026-01-28 20:55:19.96	101.23	17.15	-54.2	-56.3	19.4	0.00e+00	0	46	0	723517440	60	25729
2026-01-28 20:55:23.99	102.09	16.99	-54.1	-56.1	19.9	0.00e+00	0	46	0	730857472	60	24988
2026-01-28 20:55:28.00	102.93	16.82	-55.1	-57.2	19.1	0.00e+00	0	46	0	739246080	60	28258
2026-01-28 20:55:32.03	103.77	16.64	-55.0	-56.9	19.4	0.00e+00	0	46	0	746586112	60	27520
2026-01-28 20:55:36.06	104.60	16.47	-54.5	-56.2	19.9	0.00e+00	0	46	0	753926144	60	25392
2026-01-28 20:55:40.09	105.42	16.28	-54.4	-55.9	20.2	0.00e+00	0	46	0	761266176	60	24469
2026-01-28 20:55:44.11	106.23	16.10	-55.1	-57.1	19.0	0.00e+00	0	46	0	768606208	60	27967
2026-01-28 20:55:48.14	107.03	15.91	-55.9	-58.4	17.9	0.00e+00	0	46	0	776994816	60	32595
2026-01-28 20:55:52.18	107.82	15.71	-55.0	-57.5	18.0	0.00e+00	0	46	0	784334848	60	29444
2026-01-28 20:55:56.21	108.60	15.51	-54.2	-56.6	19.0	0.00e+00	0	46	0	791674880	60	26577
2026-01-28 20:56:00.23	109.37	15.31	-54.4	-56.3	19.4	0.00e+00	0	46	0	799014912	60	25696
2026-01-28 20:56:04.24	110.12	15.11	-55.8	-58.0	18.2	0.00e+00	0	46	0	806354944	60	31164
2026-01-28 20:56:08.27	110.87	14.90	-55.2	-57.2	18.8	0.00e+00	0	46	0	814743552	60	28465
2026-01-28 20:56:12.30	111.62	14.70	-55.1	-57.0	19.0	0.00e+00	0	46	0	822083584	60	27655
2026-01-28 20:56:16.32	112.34	14.48	-54.7	-56.4	19.5	0.00e+00	0	46	0	829423616	60	25890
2026-01-28 20:56:20.35	113.06	14.27	-54.8	-56.6	19.3	0.00e+00	0	46	0	836763648	60	26407
2026-01-28 20:56:24.38	113.77	14.05	-55.2	-57.1	18.9	0.00e+00	0	46	0	844103680	60	27915
2026-01-28 20:56:28.41	114.47	13.83	-54.7	-56.4	19.4	0.00e+00	0	46	0	852492288	60	25960
2026-01-28 20:56:32.43	115.16	13.61	-54.7	-56.4	19.5	0.00e+00	0	46	0	859832320	60	25906
2026-01-28 20:56:36.45	115.84	13.39	-54.8	-56.5	19.3	0.00e+00	0	46	0	867172352	60	26328
2026-01-28 20:56:40.48	116.51	13.17	-54.9	-56.6	19.2	0.00e+00	0	46	0	874512384	60	26584
2026-01-28 20:56:44.51	117.17	12.94	-54.6	-56.3	19.4	0.00e+00	0	46	0	881852416	60	25473
2026-01-28 20:56:48.52	117.82	12.72	-54.0	-55.5	20.1	0.00e+00	0	46	0	890241024	60	23388
2026-01-28 20:56:52.55	118.46	12.49	-54.1	-55.7	19.8	0.00e+00	0	46	0	897581056	60	23901
2026-01-28 20:56:56.59	119.10	12.26	-54.7	-56.5	19.2	0.00e+00	0	46	0	904921088	60	26151
2026-01-28 20:57:00.62	119.72	12.03	-54.0	-55.6	19.9	0.00e+00	0	46	0	912261120	60	23739
2026-01-28 20:57:04.64	120.33	11.80	-53.9	-55.5	19.8	0.00e+00	0	46	0	919601152	60	23311
2026-01-28 20:57:08.66	120.93	11.57	-54.5	-56.4	19.3	0.00e+00	0	46	0	926941184	60	25813
2026-01-28 20:57:12.69	121.53	11.34	-54.2	-56.0	19.4	0.00e+00	0	46	0	935329792	60	24618
2026-01-28 20:57:16.72	122.11	11.11	-54.6	-56.5	18.9	0.00e+00	0	46	0	942669824	60	26163
2026-01-28 20:57:20.74	122.69	10.87	-55.3	-57.4	18.1	0.00e+00	0	46	0	950009856	60	29039
2026-01-28 20:57:24.76	123.26	10.64	-54.6	-56.5	18.9	0.00e+00	0	46	0	957349888	60	26142
2026-01-28 20:57:28.77	123.81	10.41	-54.7	-56.6	18.8	0.00e+00	0	46	0	965738496	60	26397
2026-01-28 20:57:32.79	124.36	10.18	-54.8	-56.8	18.7	0.00e+00	0	46	0	973078528	60	26964
2026-01-28 20:57:36.81	124.90	9.95	-54.3	-56.2	19.1	0.00e+00	0	46	0	980418560	60	25218
2026-01-28 20:57:40.83	125.44	9.71	-54.5	-56.3	18.9	0.00e+00	0	46	0	987758592	60	25508
2026-01-28 20:57:44.85	125.96	9.48	-54.8	-56.9	18.4	0.00e+00	0	46	0	995098624	60	27273
2026-01-28 20:57:48.86	126.48	9.25	-54.5	-56.4	18.6	0.00e+00	0	46	0	1003487232	60	26013
2026-01-28 20:57:52.88	126.99	9.02	-54.4	-56.3	18.9	0.00e+00	0	46	0	1010827264	60	25511
2026-01-28 20:57:56.90	127.49	8.78	-54.9	-56.9	18.3	0.00e+00	0	46	0	1018167296	60	27521
2026-01-28 20:58:00.93	127.98	8.55	-54.8	-56.8	18.4	0.00e+00	0	46	0	1025507328	60	27109
2026-01-28 20:58:04.96	128.47	8.32	-54.1	-55.8	19.2	0.00e+00	0	46	0	1032847360	60	24281
2026-01-28 20:58:08.97	128.95	8.09	-54.2	-56.0	19.1	0.00e+00	0	46	0	1041235968	60	24655
2026-01-28 20:58:12.99	129.42	7.86	-54.9	-57.0	18.1	0.00e+00	0	46	0	1048576000	60	27730
2026-01-28 20:58:17.00	129.88	7.63	-55.5	-58.0	17.0	0.00e+00	0	46	0	1055916032	60	31020
2026-01-28 20:58:21.04	130.34	7.40	-55.6	-58.3	16.6	0.00e+00	0	46	0	1063256064	60	32238
2026-01-28 20:58:25.06	130.80	7.17	-56.2	-59.4	15.7	0.00e+00	0	46	0	1070596096	60	36448
2026-01-28 20:58:29.09	131.24	6.94	-56.3	-59.6	15.3	0.00e+00	0	46	0	1077936128	60	37254
2026-01-28 20:58:33.12	131.68	6.71	-56.0	-59.0	15.9	0.00e+00	0	46	0	1086324736	60	34900
2026-01-28 20:58:37.15	132.11	6.48	-55.5	-58.2	16.6	0.00e+00	0	46	0	1093664768	60	32018
2026-01-28 20:58:41.18	132.54	6.26	-55.6	-58.4	16.3	0.00e+00	0	46	0	1101004800	60	32547
2026-01-28 20:58:45.20	132.96	6.03	-55.5	-58.2	16.4	0.00e+00	0	46	0	1108344832	60	32016
2026-01-28 20:58:49.22	133.37	5.81	-61.2	-77.5	3.6	1.51e+00	0	46	104	1109393408	60	292753
2026-01-28 20:58:53.26	133.78	5.58	-62.0	-78.4	3.6	1.51e+00	0	46	104	1109393408	60	324504
2026-01-28 20:58:57.28	134.18	5.36	-62.9	-79.3	3.6	1.51e+00	0	46	104	1109393408	60	360556
2026-01-28 20:59:01.30	134.57	5.13	-62.0	-79.1	3.6	1.51e+00	0	46	104	1109393408	60	353285
2026-01-28 20:59:05.32	134.96	4.91	-62.7	-79.3	3.6	1.51e+00	0	46	104	1109393408	60	361456
2026-01-28 20:59:09.35	135.34	4.69	-62.5	-79.1	3.6	1.51e+00	0	46	104	1109393408	60	352083
2026-01-28 20:59:13.38	135.72	4.47	-62.4	-79.0	3.5	1.51e+00	0	46	104	1109393408	60	349729
2026-01-28 20:59:17.40	136.09	4.25	-62.4	-79.0	3.6	1.51e+00	0	46	104	1109393408	60	347932
2026-01-28 20:59:21.43	136.46	4.03	-62.3	-78.9	3.6	1.51e+00	0	46	104	1109393408	60	344808
2026-01-28 20:59:25.46	136.83	3.81	-62.2	-78.8	3.6	1.51e+00	0	46	104	1109393408	60	341732
2026-01-28 20:59:29.49	137.18	3.59	-62.1	-78.7	3.6	1.51e+00	0	46	104	1109393408	60	337300
2026-01-28 20:59:33.52	137.54	3.38	-62.1	-78.7	3.6	1.51e+00	0	46	104	1109393408	60	337366
2026-01-28 20:59:37.54	137.88	3.16	-62.0	-78.6	3.6	1.51e+00	0	46	104	1109393408	60	334661
2026-01-28 20:59:41.57	138.23	2.95	-62.1	-78.6	3.5	1.51e+00	0	46	104	1109393408	60	334989
2026-01-28 20:59:45.61	138.56	2.73	-62.1	-78.7	3.6	1.51e+00	0	46	104	1109393408	60	336377
2026-01-28 20:59:49.63	138.90	2.52	-62.0	-78.6	3.6	1.51e+00	0	46	104	1109393408	60	333343
2026-01-28 20:59:53.64	139.22	2.31	-62.0	-78.6	3.6	1.51e+00	0	46	104	1109393408	60	335305
2026-01-28 20:59:57.67	139.55	2.10	-62.1	-78.6	3.6	1.51e+00	0	46	104	1109393408	60	332439
2026-01-28 21:00:01.69	139.87	1.88	-62.0	-78.6	3.6	1.51e+00	0	46	104	1109393408	60	331800
2026-01-28 21:00:05.72	140.18	1.68	-62.0	-78.5	3.6	1.51e+00	0	46	104	1109393408	60	331131
2026-01-28 21:00:09.75	140.50	1.47	-62.0	-78.6	3.6	1.51e+00	0	46	104	1109393408	60	333361
2026-01-28 21:00:13.78	140.80	1.26	-62.0	-78.5	3.6	1.51e+00	0	46	104	1109393408	60	330307
2026-01-28 21:00:17.81	141.11	1.05	-62.0	-78.5	3.6	1.51e+00	0	46	104	1109393408	60	331042
2026-01-28 21:00:21.83	141.41	0.84	-62.0	-78.5	3.6	1.51e+00	0	46	104	1109393408	60	330543
2026-01-28 21:00:25.85	141.70	0.64	-62.0	-78.5	3.6	1.51e+00	0	46	104	1109393408	60	329189
2026-01-28 21:00:29.88	141.99	0.43	-62.0	-78.5	3.6	1.51e+00	0	46	104	1109393408	60	329242
2026-01-28 21:00:33.91	142.28	0.23	-62.0	-78.5	3.6	1.51e+00	0	47	104	1109393408	60	331386
2026-01-28 21:00:37.94	142.57	0.03	-62.0	-78.5	3.6	1.51e+00	0	46	104	1109393408	60	330950

#Closed at: 2026-01-28 21:00:41
#Recorded file [1109 MB]: D:/Data/35015_260128_235845.dat