passes_logs/2026/01/28/R3.2S-Naryan-Mar/R3.2S-Naryan-Mar__20260128_144217_TY-42_rec.log

#Pass ID: 20260128_144217_TY-42
#Satellite: TY-42
#Configuration: TY-42
#almurnet v.1.7.20240730
#Start time: 2026-01-28 14:42:17

#Version: 2.2.20231116
#Station: R3.2S-Naryan-Mar
#Location: 53.008057 lon 67.646978 lat
#TLE: 1 64048U 25103A   26028.22870370  .00008010  00000-0  38191-3 0 09994
#TLE: 2 64048 097.4119 103.3979 0001765 093.5114 028.5586 15.19170123 38824

#Time	Az	El	Level	Level2	SNR	BER	BlckErr	Temp	State	Recorded	gain1	gain2
2026-01-28 14:42:17.77	85.59	0.03	-56.0	-59.1	3.3	0.00e+00	0	44	0	0	60	106157
2026-01-28 14:42:20.79	85.31	0.19	-56.3	-60.7	3.6	0.00e+00	0	45	104	0	60	128402
2026-01-28 14:42:23.81	85.03	0.35	-57.6	-61.5	3.6	0.00e+00	0	46	104	0	60	141017
2026-01-28 14:42:26.82	84.75	0.52	-57.1	-61.1	3.6	0.00e+00	0	46	104	0	60	134967
2026-01-28 14:42:29.85	84.46	0.68	-56.4	-60.8	3.6	0.00e+00	0	46	104	0	60	129507
2026-01-28 14:42:32.87	84.17	0.85	-56.6	-60.2	3.6	0.00e+00	0	46	104	0	60	121221
2026-01-28 14:42:35.89	83.87	1.01	-54.4	-58.0	3.6	0.00e+00	0	46	104	0	60	93703
2026-01-28 14:42:38.91	83.57	1.18	-55.9	-58.9	3.6	0.00e+00	0	46	104	0	60	104141
2026-01-28 14:42:41.93	83.26	1.35	-55.0	-59.3	3.6	0.00e+00	0	46	104	0	60	109424
2026-01-28 14:42:44.95	82.95	1.51	-54.9	-58.0	3.6	0.00e+00	0	46	104	0	60	93577
2026-01-28 14:42:47.97	82.64	1.68	-54.8	-57.9	3.6	0.00e+00	0	46	104	0	60	93031
2026-01-28 14:42:50.99	82.32	1.85	-54.8	-57.9	3.6	0.00e+00	0	46	104	0	60	92476
2026-01-28 14:42:54.01	81.99	2.02	-54.7	-57.8	3.6	0.00e+00	0	46	104	0	60	92342
2026-01-28 14:42:57.02	81.66	2.19	-54.7	-57.8	3.6	0.00e+00	0	46	104	0	60	91751
2026-01-28 14:43:00.04	81.33	2.36	-54.7	-57.8	3.6	0.00e+00	0	46	104	0	60	91672
2026-01-28 14:43:03.06	80.99	2.53	-54.7	-57.7	3.6	0.00e+00	0	46	104	0	60	90804
2026-01-28 14:43:06.09	80.64	2.71	-54.7	-57.8	3.6	0.00e+00	0	46	104	0	60	91427
2026-01-28 14:43:09.10	80.29	2.88	-54.7	-57.8	3.6	0.00e+00	0	47	104	0	60	91349
2026-01-28 14:43:12.12	79.94	3.05	-54.7	-57.7	3.6	0.00e+00	0	47	104	0	60	91307
2026-01-28 14:43:15.13	79.58	3.22	-54.6	-57.8	3.6	0.00e+00	0	47	104	0	60	91357
2026-01-28 14:43:18.15	79.21	3.40	-54.6	-57.7	3.6	0.00e+00	0	47	104	0	60	91254
2026-01-28 14:43:21.18	78.83	3.57	-54.6	-57.8	3.6	0.00e+00	0	47	104	0	60	91642
2026-01-28 14:43:24.19	78.46	3.75	-54.6	-57.7	3.6	0.00e+00	0	47	104	0	60	91297
2026-01-28 14:43:27.20	78.07	3.92	-54.6	-57.7	3.6	0.00e+00	0	47	104	0	60	91221
2026-01-28 14:43:30.22	77.68	4.10	-54.6	-57.7	3.6	0.00e+00	0	47	104	0	60	90423
2026-01-28 14:43:33.25	77.29	4.28	-54.6	-57.7	3.6	0.00e+00	0	47	104	0	60	91164
2026-01-28 14:43:36.27	76.88	4.46	-54.6	-57.7	3.6	0.00e+00	0	47	104	0	60	90766
2026-01-28 14:43:39.30	76.47	4.63	-54.6	-57.7	3.6	0.00e+00	0	47	104	0	60	90699
2026-01-28 14:43:42.31	76.06	4.81	-54.6	-57.7	3.6	0.00e+00	0	47	104	0	60	90945
2026-01-28 14:43:45.31	75.64	4.99	-54.6	-57.7	3.6	0.00e+00	0	47	104	0	60	90848
2026-01-28 14:43:48.32	75.21	5.17	-54.5	-57.7	3.6	0.00e+00	0	47	104	0	60	90622
2026-01-28 14:43:51.35	74.77	5.35	-54.5	-57.7	3.6	0.00e+00	0	47	104	0	60	90697
2026-01-28 14:43:54.37	74.33	5.53	-54.5	-57.7	3.6	0.00e+00	0	47	104	0	60	90565
2026-01-28 14:43:57.38	73.88	5.70	-54.5	-57.6	3.6	0.00e+00	0	47	104	0	60	90131
2026-01-28 14:44:00.40	73.43	5.88	-54.5	-57.6	3.6	0.00e+00	0	47	104	0	60	90273
2026-01-28 14:44:03.41	72.96	6.06	-54.3	-57.1	3.6	0.00e+00	0	47	104	0	60	84934
2026-01-28 14:44:06.42	72.49	6.24	-53.1	-56.1	3.6	0.00e+00	0	47	104	0	60	75167
2026-01-28 14:44:09.44	72.02	6.42	-55.1	-58.4	3.6	0.00e+00	0	47	104	0	60	98628
2026-01-28 14:44:12.46	71.53	6.60	-55.5	-59.1	3.6	0.00e+00	0	47	104	0	60	106112
2026-01-28 14:44:15.48	71.04	6.79	-54.8	-58.0	3.6	0.00e+00	0	47	104	0	60	93520
2026-01-28 14:44:18.50	70.53	6.97	-54.8	-58.5	3.6	0.00e+00	0	47	104	0	60	99756
2026-01-28 14:44:21.52	70.02	7.15	-54.8	-57.6	3.6	0.00e+00	0	47	104	0	60	89731
2026-01-28 14:44:24.54	69.51	7.33	-54.7	-57.6	3.6	0.00e+00	0	47	104	0	60	89568
2026-01-28 14:44:27.56	68.98	7.51	-53.8	-57.0	3.6	0.00e+00	0	48	104	0	60	83468
2026-01-28 14:44:30.58	68.45	7.69	-54.7	-58.2	3.5	0.00e+00	0	47	104	0	60	96534
2026-01-28 14:44:33.60	67.90	7.87	-54.6	-57.8	3.6	0.00e+00	0	48	104	0	60	91465
2026-01-28 14:44:36.61	67.36	8.04	-54.8	-57.8	3.6	0.00e+00	0	47	104	0	60	91613
2026-01-28 14:44:39.63	66.80	8.22	-52.6	-55.8	3.6	0.00e+00	0	48	104	0	60	72615
2026-01-28 14:44:42.66	66.23	8.40	-52.6	-56.1	3.6	0.00e+00	0	48	104	0	60	75928
2026-01-28 14:44:45.68	65.65	8.58	-54.7	-58.3	3.6	0.00e+00	0	48	104	0	60	97257
2026-01-28 14:44:48.70	65.06	8.75	-54.2	-57.9	3.6	0.00e+00	0	48	104	0	60	93212
2026-01-28 14:44:51.72	64.47	8.93	-51.8	-57.5	3.5	0.00e+00	0	48	104	0	60	88938
2026-01-28 14:44:54.74	63.87	9.11	-51.8	-57.6	3.6	0.00e+00	0	48	104	0	60	89566
2026-01-28 14:44:57.76	63.26	9.28	-53.6	-57.9	3.6	0.00e+00	0	47	104	0	60	92972
2026-01-28 14:45:00.78	62.63	9.45	-53.4	-57.5	3.6	0.00e+00	0	48	104	0	60	89219
2026-01-28 14:45:03.81	62.00	9.62	-51.5	-56.6	3.6	0.00e+00	0	48	104	0	60	80400
2026-01-28 14:45:06.82	61.36	9.79	-50.1	-52.6	3.6	0.00e+00	0	48	104	0	60	50346
2026-01-28 14:45:09.84	60.71	9.96	-54.4	-57.3	3.6	0.00e+00	0	48	104	0	60	87040
2026-01-28 14:45:12.86	60.06	10.13	-52.2	-56.0	3.6	0.00e+00	0	48	104	0	60	75037
2026-01-28 14:45:15.88	59.39	10.30	-51.1	-53.8	3.6	0.00e+00	0	48	104	0	60	58265
2026-01-28 14:45:18.90	58.71	10.46	-52.2	-56.2	3.6	0.00e+00	0	48	104	0	60	76341
2026-01-28 14:45:21.91	58.03	10.62	-54.0	-58.0	3.6	0.00e+00	0	48	104	0	60	93766
2026-01-28 14:45:24.92	57.34	10.78	-52.2	-55.0	3.6	0.00e+00	0	48	104	0	60	66659
2026-01-28 14:45:27.93	56.63	10.94	-54.3	-57.3	3.6	0.00e+00	0	48	104	0	60	86703
2026-01-28 14:45:30.95	55.92	11.09	-50.8	-53.7	3.5	0.00e+00	0	48	104	0	60	57026
2026-01-28 14:45:33.98	55.19	11.25	-53.0	-55.6	3.6	0.00e+00	0	48	104	0	60	71373
2026-01-28 14:45:36.99	54.46	11.39	-50.3	-52.4	3.6	0.00e+00	0	48	104	0	60	49297
2026-01-28 14:45:40.01	53.72	11.54	-53.6	-56.8	3.6	0.00e+00	0	48	104	0	60	82295
2026-01-28 14:45:43.02	52.98	11.69	-52.8	-56.1	3.6	0.00e+00	0	48	104	0	60	75608
2026-01-28 14:45:46.03	52.22	11.83	-50.6	-53.1	3.6	0.00e+00	0	48	104	0	60	53437
2026-01-28 14:45:49.05	51.45	11.97	-52.6	-56.5	3.6	0.00e+00	0	48	104	0	60	78836
2026-01-28 14:45:52.08	50.67	12.10	-53.4	-55.9	3.6	0.00e+00	0	48	104	0	60	73548
2026-01-28 14:45:55.10	49.89	12.23	-51.4	-53.5	3.6	0.00e+00	0	48	104	0	60	56026
2026-01-28 14:45:58.11	49.09	12.36	-51.7	-55.2	3.6	0.00e+00	0	48	104	0	60	67950
2026-01-28 14:46:01.11	48.30	12.48	-51.1	-54.5	3.6	0.00e+00	0	48	104	0	60	63157
2026-01-28 14:46:04.12	47.49	12.60	-51.8	-55.2	3.6	0.00e+00	0	48	104	0	60	68192
2026-01-28 14:46:07.14	46.67	12.72	-54.0	-56.8	3.6	0.00e+00	0	48	104	0	60	82225
2026-01-28 14:46:10.16	45.85	12.83	-52.9	-55.7	3.6	0.00e+00	0	48	104	0	60	72213
2026-01-28 14:46:13.18	45.02	12.94	-54.7	-57.7	3.6	0.00e+00	0	48	104	0	60	91307
2026-01-28 14:46:16.19	44.18	13.04	-54.3	-57.0	3.6	0.00e+00	0	48	104	0	60	84104
2026-01-28 14:46:19.21	43.33	13.14	-54.7	-58.5	3.6	0.00e+00	0	48	104	0	60	99874
2026-01-28 14:46:22.24	42.48	13.23	-53.9	-57.3	3.6	0.00e+00	0	48	104	0	60	86315
2026-01-28 14:46:25.26	41.62	13.32	-54.7	-57.9	3.5	0.00e+00	0	48	104	0	60	92679
2026-01-28 14:46:28.29	40.75	13.40	-53.4	-57.0	3.6	0.00e+00	0	48	104	0	60	83438
2026-01-28 14:46:31.31	39.88	13.48	-54.7	-57.5	3.6	0.00e+00	0	48	104	0	60	88907
2026-01-28 14:46:34.33	39.00	13.55	-53.7	-57.4	3.6	0.00e+00	0	48	104	0	60	87545
2026-01-28 14:46:37.35	38.12	13.62	-54.0	-56.9	3.6	0.00e+00	0	48	104	0	60	83228
2026-01-28 14:46:40.38	37.23	13.68	-53.3	-56.8	3.6	0.00e+00	0	48	104	0	60	82184
2026-01-28 14:46:43.41	36.34	13.73	-54.3	-57.1	3.6	0.00e+00	0	48	104	0	60	84688
2026-01-28 14:46:46.42	35.45	13.78	-53.4	-56.8	3.6	0.00e+00	0	48	104	0	60	81800
2026-01-28 14:46:49.44	34.55	13.83	-53.1	-56.5	3.5	0.00e+00	0	48	104	0	60	79310
2026-01-28 14:46:52.46	33.65	13.86	-52.8	-56.9	3.6	0.00e+00	0	48	104	0	60	82617
2026-01-28 14:46:55.49	32.75	13.89	-52.4	-56.7	3.6	0.00e+00	0	48	104	0	60	81207
2026-01-28 14:46:58.51	31.84	13.92	-54.8	-58.3	3.6	0.00e+00	0	48	104	0	60	97455
2026-01-28 14:47:01.51	30.94	13.94	-53.4	-57.8	3.6	0.00e+00	0	48	104	0	60	91901
2026-01-28 14:47:04.53	30.04	13.95	-54.3	-57.7	3.6	0.00e+00	0	48	104	0	60	91317
2026-01-28 14:47:07.55	29.13	13.96	-53.7	-57.9	3.6	0.00e+00	0	48	104	0	60	92934
2026-01-28 14:47:10.57	28.22	13.96	-53.1	-57.8	3.6	0.00e+00	0	48	104	0	60	92151
2026-01-28 14:47:13.60	27.31	13.95	-51.4	-57.1	3.6	0.00e+00	0	48	104	0	60	84387
2026-01-28 14:47:16.62	26.40	13.94	-51.4	-57.1	3.6	0.00e+00	0	48	104	0	60	84363
2026-01-28 14:47:19.64	25.50	13.92	-51.6	-55.7	3.6	0.00e+00	0	48	104	0	60	72173
2026-01-28 14:47:22.65	24.60	13.90	-50.1	-54.6	3.6	0.00e+00	0	48	104	0	60	63288
2026-01-28 14:47:25.67	23.69	13.87	-48.4	-53.0	3.6	0.00e+00	0	48	104	0	60	52639
2026-01-28 14:47:28.70	22.79	13.83	-49.1	-53.0	3.6	0.00e+00	0	48	104	0	60	52747
2026-01-28 14:47:31.72	21.89	13.79	-45.6	-51.7	3.6	0.00e+00	0	48	104	0	60	45340
2026-01-28 14:47:34.74	21.00	13.74	-47.8	-52.5	3.6	0.00e+00	0	48	104	0	60	49899
2026-01-28 14:47:37.75	20.11	13.69	-51.3	-55.1	3.6	0.00e+00	0	48	104	0	60	67435
2026-01-28 14:47:40.75	19.23	13.63	-51.1	-54.2	3.6	0.00e+00	0	48	104	0	60	60556
2026-01-28 14:47:43.78	18.35	13.57	-50.0	-54.7	3.6	0.00e+00	0	48	104	0	60	64000
2026-01-28 14:47:46.79	17.47	13.50	-49.8	-54.8	3.6	0.00e+00	0	48	104	0	60	64978
2026-01-28 14:47:49.82	16.60	13.42	-53.6	-56.7	3.6	0.00e+00	0	48	104	0	60	80686
2026-01-28 14:47:52.83	15.74	13.34	-52.3	-56.8	3.6	0.00e+00	0	48	104	0	60	81582
2026-01-28 14:47:55.85	14.88	13.25	-49.7	-55.2	3.6	0.00e+00	0	48	104	0	60	68136
2026-01-28 14:47:58.87	14.02	13.16	-50.3	-55.7	3.6	0.00e+00	0	48	104	0	60	72215
2026-01-28 14:48:01.89	13.18	13.06	-52.9	-57.5	3.6	0.00e+00	0	48	104	0	60	88750
2026-01-28 14:48:04.91	12.34	12.96	-52.8	-57.0	3.6	0.00e+00	0	48	104	0	60	83395
2026-01-28 14:48:07.93	11.50	12.86	-50.4	-55.4	3.6	0.00e+00	0	48	104	0	60	69545
2026-01-28 14:48:10.94	10.68	12.75	-53.3	-57.6	3.6	0.00e+00	0	48	104	0	60	89898
2026-01-28 14:48:13.95	9.87	12.63	-52.8	-57.2	3.6	0.00e+00	0	48	104	0	60	85485
2026-01-28 14:48:16.96	9.06	12.51	-52.8	-58.3	3.6	0.00e+00	0	48	104	0	60	96733
2026-01-28 14:48:19.99	8.25	12.39	-54.7	-58.4	3.6	0.00e+00	0	48	104	0	60	98595
2026-01-28 14:48:23.01	7.46	12.26	-52.4	-57.0	3.6	0.00e+00	0	48	104	0	60	83744
2026-01-28 14:48:26.02	6.68	12.13	-52.2	-57.1	3.6	0.00e+00	0	48	104	0	60	84786
2026-01-28 14:48:29.04	5.90	12.00	-54.6	-58.6	3.6	0.00e+00	0	48	104	0	60	100466
2026-01-28 14:48:32.06	5.13	11.86	-54.7	-59.2	3.6	0.00e+00	0	48	104	0	60	107774
2026-01-28 14:48:35.08	4.37	11.72	-55.1	-59.1	3.6	0.00e+00	0	48	104	0	60	106928
2026-01-28 14:48:38.10	3.62	11.58	-54.4	-58.6	3.6	0.00e+00	0	48	104	0	60	100717
2026-01-28 14:48:41.13	2.88	11.43	-55.5	-59.2	3.5	0.00e+00	0	48	104	0	60	107746
2026-01-28 14:48:44.15	2.15	11.28	-53.5	-58.6	3.6	0.00e+00	0	48	104	0	60	100270
2026-01-28 14:48:47.16	1.43	11.13	-54.3	-58.5	3.6	0.00e+00	0	48	104	0	60	99900
2026-01-28 14:48:50.18	0.71	10.98	-55.0	-58.9	3.6	0.00e+00	0	48	104	0	60	103886
2026-01-28 14:48:53.20	0.01	10.82	-53.0	-57.7	3.6	0.00e+00	0	48	104	0	60	90802
2026-01-28 14:48:56.22	359.31	10.66	-51.7	-57.1	3.6	0.00e+00	0	48	104	0	60	85199
2026-01-28 14:48:59.24	358.62	10.50	-51.9	-57.1	3.6	0.00e+00	0	48	104	0	60	85118
2026-01-28 14:49:02.24	357.95	10.34	-51.0	-56.7	3.5	0.00e+00	0	48	104	0	60	80605
2026-01-28 14:49:05.26	357.28	10.17	-53.4	-57.8	3.6	0.00e+00	0	48	104	0	60	91749
2026-01-28 14:49:08.27	356.63	10.01	-53.5	-57.9	3.6	0.00e+00	0	48	104	0	60	92618
2026-01-28 14:49:11.30	355.98	9.84	-53.5	-57.9	3.6	0.00e+00	0	48	104	0	60	92969
2026-01-28 14:49:14.32	355.34	9.67	-54.0	-58.1	3.6	0.00e+00	0	48	104	0	60	94572
2026-01-28 14:49:17.34	354.71	9.50	-53.7	-57.8	3.6	0.00e+00	0	48	104	0	60	91411
2026-01-28 14:49:20.36	354.09	9.33	-53.2	-57.7	3.6	0.00e+00	0	48	104	0	60	90924
2026-01-28 14:49:23.37	353.48	9.15	-54.0	-58.0	3.6	0.00e+00	0	48	104	0	60	94262
2026-01-28 14:49:26.39	352.87	8.98	-53.3	-57.9	3.6	0.00e+00	0	48	104	0	60	92405
2026-01-28 14:49:29.41	352.28	8.80	-52.9	-57.6	3.6	0.00e+00	0	48	104	0	60	89960
2026-01-28 14:49:32.42	351.69	8.63	-53.8	-58.0	3.5	0.00e+00	0	48	104	0	60	93480
2026-01-28 14:49:35.45	351.12	8.45	-52.2	-57.5	3.6	0.00e+00	0	48	104	0	60	89182
2026-01-28 14:49:38.45	350.55	8.28	-51.2	-56.8	3.6	0.00e+00	0	48	104	0	60	81581
2026-01-28 14:49:41.47	349.99	8.10	-50.4	-56.5	3.6	0.00e+00	0	48	104	0	60	79006
2026-01-28 14:49:44.49	349.44	7.92	-53.1	-57.4	3.6	0.00e+00	0	48	104	0	60	88199
2026-01-28 14:49:47.50	348.90	7.74	-47.9	-55.0	3.6	0.00e+00	0	48	104	0	60	66248
2026-01-28 14:49:50.52	348.37	7.56	-49.9	-56.0	3.6	0.00e+00	0	48	104	0	60	74712
2026-01-28 14:49:53.54	347.84	7.38	-46.6	-53.8	3.6	0.00e+00	0	48	104	0	60	57862
2026-01-28 14:49:56.56	347.32	7.20	-45.7	-53.0	3.6	0.00e+00	0	48	104	0	60	52990
2026-01-28 14:49:59.58	346.81	7.02	-47.1	-54.3	3.6	0.00e+00	0	48	104	0	60	61388
2026-01-28 14:50:02.60	346.31	6.84	-46.7	-54.0	3.6	0.00e+00	0	48	104	0	60	58970
2026-01-28 14:50:05.62	345.82	6.66	-48.6	-55.2	3.6	0.00e+00	0	48	104	0	60	68097
2026-01-28 14:50:08.63	345.33	6.48	-48.1	-54.8	3.6	0.00e+00	0	48	104	0	60	65054
2026-01-28 14:50:11.65	344.86	6.30	-47.4	-54.3	3.6	0.00e+00	0	48	104	0	60	61198
2026-01-28 14:50:14.67	344.38	6.12	-50.9	-56.5	3.6	0.00e+00	0	48	104	0	60	78782
2026-01-28 14:50:17.68	343.92	5.94	-54.6	-58.2	3.6	0.00e+00	0	48	104	0	60	95897
2026-01-28 14:50:20.71	343.46	5.76	-55.4	-59.3	3.6	0.00e+00	0	48	104	0	60	109412
2026-01-28 14:50:23.71	343.02	5.59	-55.7	-59.6	3.6	0.00e+00	0	48	104	0	60	112391
2026-01-28 14:50:26.73	342.58	5.41	-56.3	-60.2	3.6	0.00e+00	0	48	104	0	60	121546
2026-01-28 14:50:29.75	342.14	5.23	-56.3	-60.1	3.6	0.00e+00	0	48	104	0	60	119040
2026-01-28 14:50:32.77	341.71	5.05	-56.8	-61.3	3.6	0.00e+00	0	48	104	0	60	137396
2026-01-28 14:50:35.80	341.29	4.87	-56.3	-60.6	3.6	0.00e+00	0	48	104	0	60	127438
2026-01-28 14:50:38.82	340.87	4.69	-56.3	-60.7	3.6	0.00e+00	0	48	104	0	60	127787
2026-01-28 14:50:41.84	340.46	4.52	-56.3	-60.6	3.6	0.00e+00	0	48	104	0	60	126311
2026-01-28 14:50:44.86	340.06	4.34	-56.2	-60.5	3.6	0.00e+00	0	48	104	0	60	124906
2026-01-28 14:50:47.87	339.67	4.16	-56.1	-60.5	3.6	0.00e+00	0	48	104	0	60	124899
2026-01-28 14:50:50.89	339.28	3.99	-56.1	-60.4	3.6	0.00e+00	0	48	104	0	60	124003
2026-01-28 14:50:53.91	338.89	3.81	-56.1	-60.4	3.6	0.00e+00	0	48	104	0	60	124375
2026-01-28 14:50:56.92	338.52	3.64	-56.1	-60.5	3.6	0.00e+00	0	48	104	0	60	124624
2026-01-28 14:50:59.94	338.14	3.46	-56.1	-60.4	3.6	0.00e+00	0	49	104	0	60	123505
2026-01-28 14:51:02.95	337.78	3.29	-56.0	-60.4	3.6	0.00e+00	0	48	104	0	60	123358
2026-01-28 14:51:05.97	337.42	3.12	-56.0	-60.3	3.6	0.00e+00	0	48	104	0	60	122897
2026-01-28 14:51:09.00	337.06	2.94	-56.0	-60.3	3.6	0.00e+00	0	48	104	0	60	122754
2026-01-28 14:51:12.02	336.71	2.77	-55.9	-60.3	3.5	0.00e+00	0	48	104	0	60	121822
2026-01-28 14:51:15.04	336.37	2.60	-55.8	-60.2	3.6	0.00e+00	0	48	104	0	60	120697
2026-01-28 14:51:18.06	336.03	2.43	-55.8	-60.1	3.6	0.00e+00	0	48	104	0	60	119983
2026-01-28 14:51:21.09	335.69	2.26	-55.8	-60.1	3.6	0.00e+00	0	48	104	0	60	119802
2026-01-28 14:51:24.11	335.36	2.09	-55.8	-60.1	3.6	0.00e+00	0	48	104	0	60	119991
2026-01-28 14:51:27.13	335.04	1.92	-55.8	-60.1	3.6	0.00e+00	0	48	104	0	60	120091
2026-01-28 14:51:30.16	334.72	1.75	-55.9	-60.1	3.5	0.00e+00	0	48	104	0	60	119796
2026-01-28 14:51:33.17	334.40	1.58	-55.8	-60.1	3.6	0.00e+00	0	48	104	0	60	119503
2026-01-28 14:51:36.19	334.09	1.41	-55.8	-60.1	3.6	0.00e+00	0	48	104	0	60	119713
2026-01-28 14:51:39.22	333.79	1.24	-55.8	-60.1	3.6	0.00e+00	0	48	104	0	60	119219
2026-01-28 14:51:42.24	333.49	1.08	-55.9	-60.1	3.6	0.00e+00	0	48	104	0	60	119318
2026-01-28 14:51:45.26	333.19	0.91	-55.8	-60.0	3.6	0.00e+00	0	48	104	0	60	118689
2026-01-28 14:51:48.27	332.90	0.75	-55.7	-60.1	3.6	0.00e+00	0	48	104	0	60	119095
2026-01-28 14:51:51.28	332.61	0.58	-55.7	-60.0	3.6	0.00e+00	0	48	104	0	60	118849
2026-01-28 14:51:54.29	332.33	0.42	-55.7	-60.0	3.6	0.00e+00	0	48	104	0	60	117670
2026-01-28 14:51:57.31	332.05	0.26	-55.7	-60.0	3.6	0.00e+00	0	48	104	0	60	117828
2026-01-28 14:52:00.33	331.77	0.09	-55.6	-60.0	3.6	0.00e+00	0	48	104	0	60	117850
2026-01-28 14:52:03.35	331.50	-0.07	-55.7	-60.0	3.6	0.00e+00	0	48	104	0	60	117822

#Closed at: 2026-01-28 14:52:04
#Recorded file [0 MB]: D:/Data/35015_260128_175052.dat