passes_logs/2026/01/28/R3.2S-Naryan-Mar/R3.2S-Naryan-Mar__20260128_172607_TY-40_rec.log

#Pass ID: 20260128_172607_TY-40
#Satellite: TY-40
#Configuration: TY-39
#almurnet v.1.7.20240730
#Start time: 2026-01-28 17:26:09

#Version: 2.2.20231116
#Station: R3.2S-Naryan-Mar
#Location: 53.008057 lon 67.646978 lat
#TLE: 1 56846U 23081A   26027.86322491  .00005171  00000-0  23026-3 0  9995
#TLE: 2 56846  97.3872 100.5479 0001461  75.1546 284.9852 15.21887283146669

#Time	Az	El	Level	Level2	SNR	BER	BlckErr	Temp	State	Recorded	gain1	gain2
2026-01-28 17:26:09.67	159.27	0.13	-55.8	-58.8	3.3	0.00e+00	0	44	0	0	60	103569
2026-01-28 17:26:12.68	159.29	0.33	-55.6	-59.3	3.5	0.00e+00	0	45	104	0	60	109316
2026-01-28 17:26:15.70	159.30	0.53	-56.0	-60.0	3.6	0.00e+00	0	45	104	0	60	118084
2026-01-28 17:26:18.71	159.32	0.73	-56.3	-60.6	3.5	0.00e+00	0	46	104	0	60	126628
2026-01-28 17:26:21.74	159.34	0.93	-56.7	-60.7	3.6	0.00e+00	0	46	104	0	60	128175
2026-01-28 17:26:24.76	159.36	1.13	-56.7	-60.5	3.5	0.00e+00	0	46	104	0	60	124895
2026-01-28 17:26:27.78	159.38	1.33	-55.5	-59.2	3.6	0.00e+00	0	46	104	0	60	107905
2026-01-28 17:26:30.80	159.40	1.54	-55.2	-58.9	3.6	0.00e+00	0	46	104	0	60	104084
2026-01-28 17:26:33.81	159.41	1.75	-55.1	-58.7	3.6	0.00e+00	0	46	104	0	60	102450
2026-01-28 17:26:36.83	159.43	1.96	-55.0	-58.6	3.6	0.00e+00	0	46	104	0	60	101198
2026-01-28 17:26:39.85	159.45	2.17	-54.9	-58.6	3.5	0.00e+00	0	46	104	0	60	100325
2026-01-28 17:26:42.87	159.47	2.39	-54.8	-58.5	3.6	0.00e+00	0	46	104	0	60	99501
2026-01-28 17:26:45.90	159.49	2.60	-54.8	-58.5	3.6	0.00e+00	0	46	104	0	60	99029
2026-01-28 17:26:48.91	159.51	2.82	-54.7	-58.5	3.6	0.00e+00	0	46	104	0	60	98989
2026-01-28 17:26:51.93	159.53	3.04	-54.8	-58.4	3.6	0.00e+00	0	46	104	0	60	98700
2026-01-28 17:26:54.94	159.55	3.27	-54.7	-58.5	3.6	0.00e+00	0	46	104	0	60	99106
2026-01-28 17:26:57.96	159.57	3.49	-54.7	-58.4	3.6	0.00e+00	0	47	104	0	60	98133
2026-01-28 17:27:00.99	159.59	3.72	-54.7	-58.4	3.6	0.00e+00	0	47	104	0	60	98761
2026-01-28 17:27:03.99	159.61	3.95	-54.7	-58.4	3.6	0.00e+00	0	47	104	0	60	98545
2026-01-28 17:27:07.02	159.63	4.19	-54.7	-58.4	3.6	0.00e+00	0	47	104	0	60	98424
2026-01-28 17:27:10.04	159.66	4.42	-54.7	-58.4	3.6	0.00e+00	0	47	104	0	60	98690
2026-01-28 17:27:13.06	159.68	4.66	-54.7	-58.4	3.6	0.00e+00	0	47	104	0	60	97944
2026-01-28 17:27:16.07	159.70	4.91	-54.7	-58.4	3.6	0.00e+00	0	47	104	0	60	98271
2026-01-28 17:27:19.10	159.72	5.15	-54.6	-58.4	3.6	0.00e+00	0	47	104	0	60	97857
2026-01-28 17:27:22.12	159.74	5.40	-54.6	-58.4	3.6	0.00e+00	0	47	104	0	60	98390
2026-01-28 17:27:25.14	159.77	5.65	-54.6	-58.4	3.6	0.00e+00	0	47	104	0	60	98177
2026-01-28 17:27:28.16	159.79	5.91	-54.6	-58.3	3.6	0.00e+00	0	47	104	0	60	97564
2026-01-28 17:27:31.18	159.81	6.17	-54.6	-58.4	3.6	0.00e+00	0	47	104	0	60	98931
2026-01-28 17:27:34.21	159.83	6.43	-54.7	-58.4	3.6	0.00e+00	0	47	104	0	60	98413
2026-01-28 17:27:37.21	159.86	6.69	-54.7	-58.4	3.6	0.00e+00	0	47	104	0	60	97980
2026-01-28 17:27:40.24	159.88	6.96	-54.9	-58.6	3.6	0.00e+00	0	47	104	0	60	100599
2026-01-28 17:27:43.26	159.91	7.24	-54.8	-58.6	3.6	0.00e+00	0	47	104	0	60	100258
2026-01-28 17:27:46.29	159.93	7.51	-54.7	-58.5	3.6	0.00e+00	0	47	104	0	60	99489
2026-01-28 17:27:49.30	159.96	7.79	-54.6	-58.4	3.6	0.00e+00	0	47	104	0	60	97865
2026-01-28 17:27:52.32	159.98	8.08	-54.9	-58.7	3.6	0.00e+00	0	47	104	0	60	101368
2026-01-28 17:27:55.33	160.01	8.37	-54.8	-58.5	3.6	0.00e+00	0	47	104	0	60	99907
2026-01-28 17:27:58.34	160.03	8.66	-54.7	-58.5	3.6	0.00e+00	0	47	104	0	60	98989
2026-01-28 17:28:01.36	160.06	8.96	-54.8	-58.5	3.6	0.00e+00	0	47	104	0	60	99971
2026-01-28 17:28:04.37	160.09	9.26	-55.0	-58.7	3.6	0.00e+00	0	47	104	0	60	101828
2026-01-28 17:28:07.39	160.11	9.57	-55.0	-58.7	3.6	0.00e+00	0	47	104	0	60	101998
2026-01-28 17:28:10.40	160.14	9.88	-54.9	-58.6	3.6	0.00e+00	0	47	104	0	60	101272
2026-01-28 17:28:13.40	160.17	10.20	-54.8	-58.6	3.6	0.00e+00	0	47	104	0	60	101086
2026-01-28 17:28:16.41	160.20	10.53	-55.1	-58.9	3.5	0.00e+00	0	47	104	0	60	103983
2026-01-28 17:28:19.43	160.23	10.86	-55.1	-58.8	3.6	0.00e+00	0	47	104	0	60	103428
2026-01-28 17:28:22.44	160.25	11.19	-55.0	-58.8	3.6	0.00e+00	0	47	104	0	60	103253
2026-01-28 17:28:25.44	160.28	11.53	-55.0	-58.8	3.6	0.00e+00	0	47	104	0	60	102479
2026-01-28 17:28:28.47	160.32	11.88	-55.3	-58.9	3.6	0.00e+00	0	48	104	0	60	104634
2026-01-28 17:28:31.48	160.35	12.24	-55.3	-59.0	3.6	0.00e+00	0	48	104	0	60	105915
2026-01-28 17:28:34.50	160.38	12.60	-55.2	-58.9	3.6	0.00e+00	0	48	104	0	60	104779
2026-01-28 17:28:37.53	160.41	12.97	-55.2	-59.0	3.6	0.00e+00	0	48	104	0	60	105202
2026-01-28 17:28:40.55	160.44	13.35	-55.4	-59.1	3.6	0.00e+00	0	48	104	0	60	106768
2026-01-28 17:28:43.57	160.48	13.74	-55.4	-59.2	3.6	0.00e+00	0	48	104	0	60	107293
2026-01-28 17:28:46.58	160.51	14.13	-55.3	-59.0	3.6	0.00e+00	0	48	104	0	60	105691
2026-01-28 17:28:49.60	160.55	14.53	-55.3	-59.0	3.6	0.00e+00	0	48	104	0	60	105988
2026-01-28 17:28:52.62	160.58	14.94	-55.4	-59.2	3.6	0.00e+00	0	48	104	0	60	107624
2026-01-28 17:28:55.64	160.62	15.36	-55.5	-59.2	3.6	0.00e+00	0	48	104	0	60	107666
2026-01-28 17:28:58.67	160.66	15.80	-55.5	-59.2	3.6	0.00e+00	0	48	104	0	60	107986
2026-01-28 17:29:01.69	160.70	16.24	-55.5	-59.2	3.6	0.00e+00	0	48	104	0	60	107986
2026-01-28 17:29:04.71	160.74	16.69	-55.6	-59.3	3.6	0.00e+00	0	48	104	0	60	109122
2026-01-28 17:29:07.73	160.78	17.15	-55.5	-59.2	3.6	0.00e+00	0	48	104	0	60	108503
2026-01-28 17:29:10.75	160.82	17.62	-55.6	-59.3	3.6	0.00e+00	0	48	104	0	60	109329
2026-01-28 17:29:13.77	160.86	18.11	-55.6	-59.4	3.6	0.00e+00	0	48	104	0	60	109917
2026-01-28 17:29:16.79	160.91	18.61	-55.7	-59.4	3.6	0.00e+00	0	48	104	0	60	110027
2026-01-28 17:29:19.81	160.95	19.12	-55.8	-59.5	3.6	0.00e+00	0	48	104	0	60	111855
2026-01-28 17:29:22.83	161.00	19.64	-55.8	-59.5	3.6	0.00e+00	0	48	104	0	60	112012
2026-01-28 17:29:25.86	161.05	20.18	-55.7	-59.5	3.6	0.00e+00	0	48	104	0	60	111504
2026-01-28 17:29:28.88	161.10	20.74	-55.8	-59.5	3.6	0.00e+00	0	48	104	0	60	112028
2026-01-28 17:29:31.90	161.15	21.31	-55.8	-59.5	3.6	0.00e+00	0	48	104	0	60	111936
2026-01-28 17:29:34.92	161.21	21.90	-55.8	-59.6	3.6	0.00e+00	0	48	104	0	60	112967
2026-01-28 17:29:37.95	161.26	22.50	-55.6	-59.4	3.6	0.00e+00	0	48	104	0	60	110484
2026-01-28 17:29:40.97	161.32	23.12	-55.8	-59.6	3.6	0.00e+00	0	48	104	0	60	113324
2026-01-28 17:29:44.00	161.38	23.77	-55.6	-59.5	3.6	0.00e+00	0	48	104	0	60	111228
2026-01-28 17:29:47.01	161.44	24.43	-55.8	-59.5	3.6	0.00e+00	0	48	104	0	60	112217
2026-01-28 17:29:50.03	161.50	25.11	-55.6	-59.5	3.6	0.00e+00	0	48	104	0	60	111208
2026-01-28 17:29:53.05	161.57	25.81	-55.7	-59.6	3.6	0.00e+00	0	48	104	0	60	112434
2026-01-28 17:29:56.07	161.64	26.54	-55.4	-59.2	3.6	0.00e+00	0	48	104	0	60	107679
2026-01-28 17:29:59.09	161.71	27.29	-55.6	-59.4	3.6	0.00e+00	0	48	104	0	60	109969
2026-01-28 17:30:02.11	161.79	28.07	-55.4	-59.2	3.6	0.00e+00	0	48	104	0	60	108424
2026-01-28 17:30:05.13	161.87	28.87	-55.7	-59.5	3.6	0.00e+00	0	48	104	0	60	111271
2026-01-28 17:30:08.15	161.95	29.71	-55.4	-59.3	3.6	0.00e+00	0	48	104	0	60	108841
2026-01-28 17:30:11.17	162.04	30.57	-55.6	-59.5	3.6	0.00e+00	0	48	104	0	60	111418
2026-01-28 17:30:14.18	162.13	31.46	-55.4	-59.3	3.6	0.00e+00	0	48	104	0	60	109477
2026-01-28 17:30:17.21	162.23	32.39	-55.7	-59.6	3.6	0.00e+00	0	48	104	0	60	112846
2026-01-28 17:30:20.23	162.34	33.36	-55.6	-59.6	3.6	0.00e+00	0	48	104	0	60	112810
2026-01-28 17:30:23.25	162.45	34.36	-55.6	-59.6	3.6	0.00e+00	0	48	104	0	60	112763
2026-01-28 17:30:26.26	162.56	35.39	-55.6	-59.6	3.6	0.00e+00	0	48	104	0	60	113000
2026-01-28 17:30:29.27	162.68	36.47	-55.8	-59.8	3.6	0.00e+00	0	48	104	0	60	115123
2026-01-28 17:30:32.30	162.82	37.59	-55.3	-59.3	3.6	0.00e+00	0	48	104	0	60	109431
2026-01-28 17:30:35.32	162.96	38.76	-55.3	-59.4	3.6	0.00e+00	0	48	104	0	60	109851
2026-01-28 17:30:38.34	163.11	39.97	-55.4	-59.4	3.6	0.00e+00	0	48	104	0	60	110565
2026-01-28 17:30:41.36	163.27	41.24	-55.4	-59.4	3.6	0.00e+00	0	48	104	0	60	110878
2026-01-28 17:30:44.38	163.45	42.55	-55.0	-59.2	3.6	0.00e+00	0	48	104	0	60	107799
2026-01-28 17:30:47.40	163.64	43.92	-54.9	-59.1	3.6	0.00e+00	0	48	104	0	60	106577
2026-01-28 17:30:50.43	163.85	45.35	-55.2	-59.4	3.6	0.00e+00	0	48	104	0	60	110509
2026-01-28 17:30:53.44	164.07	46.83	-55.3	-59.4	3.6	0.00e+00	0	48	104	0	60	110994
2026-01-28 17:30:56.45	164.32	48.37	-55.2	-59.4	3.6	0.00e+00	0	48	104	0	60	110771
2026-01-28 17:30:59.46	164.60	49.97	-55.5	-59.6	3.6	0.00e+00	0	48	104	0	60	112463
2026-01-28 17:31:02.47	164.91	51.63	-55.3	-59.3	3.6	0.00e+00	0	48	104	0	60	109305
2026-01-28 17:31:05.48	165.25	53.36	-55.1	-59.1	3.6	0.00e+00	0	48	104	0	60	106579
2026-01-28 17:31:08.50	165.64	55.17	-55.3	-59.3	3.6	0.00e+00	0	48	104	0	60	108693
2026-01-28 17:31:11.51	166.08	57.03	-54.6	-58.7	3.6	0.00e+00	0	48	104	0	60	102147
2026-01-28 17:31:14.53	166.58	58.97	-54.8	-58.8	3.6	0.00e+00	0	48	104	0	60	103549
2026-01-28 17:31:17.55	167.17	60.98	-55.2	-59.2	3.6	0.00e+00	0	48	104	0	60	107811
2026-01-28 17:31:20.58	167.86	63.06	-55.2	-59.2	3.6	0.00e+00	0	48	104	0	60	108030
2026-01-28 17:31:23.60	168.68	65.19	-55.8	-59.6	3.6	0.00e+00	0	48	104	0	60	112931
2026-01-28 17:31:26.62	169.68	67.39	-55.7	-59.4	3.6	0.00e+00	0	48	104	0	60	110600
2026-01-28 17:31:29.64	170.92	69.65	-55.7	-59.4	3.6	0.00e+00	0	48	104	0	60	110123
2026-01-28 17:31:32.65	172.49	71.94	-55.8	-59.5	3.6	0.00e+00	0	48	104	0	60	112088
2026-01-28 17:31:35.68	174.57	74.28	-55.6	-59.3	3.6	0.00e+00	0	48	104	0	60	109271
2026-01-28 17:31:38.68	177.38	76.63	-55.2	-59.1	3.6	0.00e+00	0	48	104	0	60	107259
2026-01-28 17:31:41.70	181.45	78.98	-54.5	-58.8	3.6	0.00e+00	0	48	104	0	60	103545
2026-01-28 17:31:44.72	187.76	81.28	-54.2	-58.8	3.6	0.00e+00	0	48	104	0	60	103087
2026-01-28 17:31:47.73	198.41	83.43	-54.1	-58.6	3.6	0.00e+00	0	48	104	0	60	100813
2026-01-28 17:31:50.75	218.01	85.16	-54.4	-58.9	3.6	0.00e+00	0	48	104	0	60	104734
2026-01-28 17:31:53.78	250.59	85.88	-55.4	-59.6	3.6	0.00e+00	0	48	104	0	60	113372
2026-01-28 17:31:56.80	282.61	85.10	-55.5	-59.5	3.6	0.00e+00	0	48	104	0	60	112040
2026-01-28 17:31:59.83	301.76	83.34	-54.7	-59.1	3.6	0.00e+00	0	48	104	0	60	106496
2026-01-28 17:32:02.84	312.13	81.19	-54.3	-58.8	3.6	0.00e+00	0	48	104	0	60	103606
2026-01-28 17:32:05.86	318.31	78.88	-55.0	-59.0	3.6	0.00e+00	0	48	104	0	60	104984
2026-01-28 17:32:08.88	322.32	76.53	-55.1	-59.1	3.6	0.00e+00	0	48	104	0	60	106130
2026-01-28 17:32:11.90	325.10	74.17	-56.2	-59.9	3.6	0.00e+00	0	48	104	0	60	116428
2026-01-28 17:32:14.92	327.14	71.84	-56.2	-60.1	3.6	0.00e+00	0	48	104	0	60	119618
2026-01-28 17:32:17.94	328.69	69.55	-55.9	-60.1	3.6	0.00e+00	0	48	104	0	60	119583
2026-01-28 17:32:20.95	329.91	67.31	-55.9	-59.9	3.6	0.00e+00	0	48	104	0	60	116524
2026-01-28 17:32:23.98	330.91	65.11	-56.4	-60.0	3.6	0.00e+00	0	48	104	0	60	118045
2026-01-28 17:32:26.99	331.72	62.99	-56.1	-59.8	3.6	0.00e+00	0	48	104	0	60	115236
2026-01-28 17:32:30.02	332.41	60.91	-55.4	-59.7	3.6	0.00e+00	0	48	104	0	60	114478
2026-01-28 17:32:33.04	332.99	58.92	-55.9	-59.9	3.6	0.00e+00	0	48	104	0	60	116628
2026-01-28 17:32:36.05	333.49	56.99	-56.0	-59.9	3.6	0.00e+00	0	48	104	0	60	116815
2026-01-28 17:32:39.06	333.93	55.13	-56.0	-60.0	3.6	0.00e+00	0	48	104	0	60	118453
2026-01-28 17:32:42.07	334.31	53.34	-55.9	-59.9	3.6	0.00e+00	0	48	104	0	60	117576
2026-01-28 17:32:45.10	334.65	51.61	-55.8	-59.9	3.6	0.00e+00	0	48	104	0	60	116401
2026-01-28 17:32:48.12	334.96	49.95	-56.2	-60.1	3.6	0.00e+00	0	48	104	0	60	119222
2026-01-28 17:32:51.14	335.24	48.35	-56.3	-60.2	3.6	0.00e+00	0	48	104	0	60	121198
2026-01-28 17:32:54.16	335.49	46.81	-56.0	-60.1	3.6	0.00e+00	0	48	104	0	60	119666
2026-01-28 17:32:57.17	335.71	45.34	-56.0	-60.2	3.6	0.00e+00	0	48	104	0	60	120796
2026-01-28 17:33:00.18	335.92	43.93	-56.4	-60.2	3.6	0.00e+00	0	48	104	0	60	120601
2026-01-28 17:33:03.21	336.11	42.56	-56.4	-60.1	3.6	0.00e+00	0	48	104	0	60	119327
2026-01-28 17:33:06.23	336.29	41.25	-56.2	-60.1	3.6	0.00e+00	0	48	104	0	60	120040
2026-01-28 17:33:09.25	336.45	40.00	-55.9	-59.8	3.6	0.00e+00	0	48	104	0	60	115849
2026-01-28 17:33:12.26	336.60	38.79	-56.2	-60.0	3.6	0.00e+00	0	48	104	0	60	118868
2026-01-28 17:33:15.28	336.74	37.63	-56.3	-60.1	3.6	0.00e+00	0	48	104	0	60	119504
2026-01-28 17:33:18.29	336.87	36.52	-56.2	-60.0	3.6	0.00e+00	0	48	104	0	60	117980
2026-01-28 17:33:21.31	337.00	35.44	-55.9	-59.9	3.6	0.00e+00	0	48	104	0	60	116671
2026-01-28 17:33:24.33	337.11	34.41	-55.7	-59.7	3.6	0.00e+00	0	48	104	0	60	113817
2026-01-28 17:33:27.35	337.22	33.42	-55.9	-59.9	3.6	0.00e+00	0	48	104	0	60	116671
2026-01-28 17:33:30.37	337.32	32.46	-55.7	-59.3	3.6	0.00e+00	0	48	104	0	60	109329
2026-01-28 17:33:33.39	337.42	31.53	-55.8	-59.7	3.6	0.00e+00	0	48	104	0	60	113671
2026-01-28 17:33:36.42	337.52	30.64	-55.6	-59.3	3.6	0.00e+00	0	48	104	0	60	109689
2026-01-28 17:33:39.44	337.60	29.78	-55.8	-59.5	3.6	0.00e+00	0	48	104	0	60	111331
2026-01-28 17:33:42.45	337.69	28.95	-55.2	-59.2	3.6	0.00e+00	0	48	104	0	60	107314
2026-01-28 17:33:45.47	337.77	28.15	-55.5	-59.3	3.6	0.00e+00	0	48	104	0	60	109237
2026-01-28 17:33:48.48	337.85	27.38	-56.0	-59.9	3.6	0.00e+00	0	48	104	0	60	116999
2026-01-28 17:33:51.50	337.92	26.63	-55.9	-59.8	3.6	0.00e+00	0	48	104	0	60	115499
2026-01-28 17:33:54.52	337.99	25.91	-55.9	-59.9	3.6	0.00e+00	0	48	104	0	60	116333
2026-01-28 17:33:57.53	338.06	25.21	-56.3	-60.0	3.6	0.00e+00	0	48	104	0	60	118061
2026-01-28 17:34:00.54	338.12	24.53	-56.2	-60.0	3.6	0.00e+00	0	48	104	0	60	118239
2026-01-28 17:34:03.54	338.18	23.87	-56.3	-60.1	3.6	0.00e+00	0	48	104	0	60	120104
2026-01-28 17:34:06.56	338.24	23.23	-55.8	-59.8	3.6	0.00e+00	0	48	104	0	60	115868
2026-01-28 17:34:09.57	338.30	22.62	-55.8	-59.8	3.6	0.00e+00	0	48	104	0	60	115030
2026-01-28 17:34:12.59	338.36	22.01	-55.2	-59.4	3.6	0.00e+00	0	48	104	0	60	109990
2026-01-28 17:34:15.60	338.41	21.43	-55.2	-59.3	3.5	0.00e+00	0	48	104	0	60	109366
2026-01-28 17:34:18.62	338.47	20.86	-55.4	-59.3	3.6	0.00e+00	0	48	104	0	60	109598
2026-01-28 17:34:21.64	338.52	20.31	-55.5	-59.5	3.6	0.00e+00	0	48	104	0	60	112337
2026-01-28 17:34:24.67	338.57	19.77	-55.4	-59.5	3.6	0.00e+00	0	48	104	0	60	111076
2026-01-28 17:34:27.69	338.61	19.25	-55.4	-59.4	3.6	0.00e+00	0	48	104	0	60	110398
2026-01-28 17:34:30.70	338.66	18.74	-55.6	-59.5	3.6	0.00e+00	0	48	104	0	60	111378
2026-01-28 17:34:33.72	338.71	18.24	-55.6	-59.6	3.6	0.00e+00	0	49	104	0	60	112636
2026-01-28 17:34:36.73	338.75	17.76	-55.6	-59.6	3.6	0.00e+00	0	48	104	0	60	112490
2026-01-28 17:34:39.74	338.79	17.29	-55.4	-59.5	3.6	0.00e+00	0	48	104	0	60	111290
2026-01-28 17:34:42.76	338.84	16.83	-54.9	-59.2	3.6	0.00e+00	0	48	104	0	60	108226
2026-01-28 17:34:45.78	338.88	16.38	-54.1	-58.9	3.6	0.00e+00	0	49	104	0	60	104133
2026-01-28 17:34:48.80	338.92	15.94	-55.3	-59.2	3.6	0.00e+00	0	48	104	0	60	107566
2026-01-28 17:34:51.81	338.96	15.51	-55.3	-59.1	3.6	0.00e+00	0	48	104	0	60	107026
2026-01-28 17:34:54.83	338.99	15.09	-54.5	-58.6	3.6	0.00e+00	0	48	104	0	60	100803
2026-01-28 17:34:57.85	339.03	14.68	-54.0	-58.4	3.6	0.00e+00	0	48	104	0	60	98968
2026-01-28 17:35:00.86	339.07	14.28	-54.7	-58.7	3.6	0.00e+00	0	48	104	0	60	102214
2026-01-28 17:35:03.88	339.10	13.89	-54.5	-58.6	3.6	0.00e+00	0	48	104	0	60	100534
2026-01-28 17:35:06.90	339.14	13.50	-53.5	-58.3	3.6	0.00e+00	0	48	104	0	60	97626
2026-01-28 17:35:09.91	339.17	13.12	-54.8	-58.6	3.6	0.00e+00	0	48	104	0	60	101009
2026-01-28 17:35:12.93	339.21	12.75	-54.0	-58.5	3.6	0.00e+00	0	48	104	0	60	98992
2026-01-28 17:35:15.95	339.24	12.39	-54.2	-58.1	3.6	0.00e+00	0	48	104	0	60	94923
2026-01-28 17:35:18.97	339.27	12.04	-54.5	-58.3	3.6	0.00e+00	0	48	104	0	60	97606
2026-01-28 17:35:22.00	339.31	11.69	-54.1	-58.0	3.6	0.00e+00	0	48	104	0	60	93811
2026-01-28 17:35:25.01	339.34	11.34	-53.8	-57.8	3.6	0.00e+00	0	48	104	0	60	92322
2026-01-28 17:35:28.03	339.37	11.01	-54.1	-58.1	3.5	0.00e+00	0	48	104	0	60	94730
2026-01-28 17:35:31.05	339.40	10.68	-54.3	-58.1	3.6	0.00e+00	0	48	104	0	60	94995
2026-01-28 17:35:34.08	339.43	10.35	-53.2	-57.7	3.6	0.00e+00	0	48	104	0	60	90773
2026-01-28 17:35:37.10	339.46	10.03	-54.0	-58.0	3.6	0.00e+00	0	48	104	0	60	93869
2026-01-28 17:35:40.13	339.49	9.72	-50.0	-56.2	3.6	0.00e+00	0	48	104	0	60	76103
2026-01-28 17:35:43.15	339.52	9.41	-48.7	-55.3	3.6	0.00e+00	0	48	104	0	60	68906
2026-01-28 17:35:46.17	339.54	9.11	-48.2	-55.3	3.6	0.00e+00	0	48	104	0	60	68690
2026-01-28 17:35:49.20	339.57	8.81	-49.4	-55.6	3.6	0.00e+00	0	48	104	0	60	71668
2026-01-28 17:35:52.22	339.60	8.52	-50.0	-56.2	3.6	0.00e+00	0	48	104	0	60	76725
2026-01-28 17:35:55.25	339.63	8.23	-51.9	-57.1	3.6	0.00e+00	0	49	104	0	60	84877
2026-01-28 17:35:58.27	339.65	7.94	-48.3	-55.0	3.6	0.00e+00	0	48	104	0	60	66900
2026-01-28 17:36:01.29	339.68	7.66	-49.4	-55.8	3.6	0.00e+00	0	48	104	0	60	72563
2026-01-28 17:36:04.31	339.71	7.38	-47.8	-55.0	3.6	0.00e+00	0	49	104	0	60	66198
2026-01-28 17:36:07.33	339.73	7.11	-49.4	-56.0	3.6	0.00e+00	0	48	104	0	60	74257
2026-01-28 17:36:10.34	339.76	6.84	-51.0	-56.5	3.6	0.00e+00	0	48	104	0	60	79101
2026-01-28 17:36:13.36	339.78	6.58	-49.1	-55.5	3.6	0.00e+00	0	48	104	0	60	70792
2026-01-28 17:36:16.38	339.81	6.32	-52.9	-57.4	3.6	0.00e+00	0	48	104	0	60	87467
2026-01-28 17:36:19.40	339.83	6.06	-49.0	-55.6	3.6	0.00e+00	0	48	104	0	60	71268
2026-01-28 17:36:22.42	339.86	5.80	-54.7	-58.7	3.6	0.00e+00	0	48	104	0	60	101846
2026-01-28 17:36:25.45	339.88	5.55	-55.6	-59.4	3.6	0.00e+00	0	48	104	0	60	110480
2026-01-28 17:36:28.47	339.91	5.30	-56.6	-60.5	3.6	0.00e+00	0	48	104	0	60	125041
2026-01-28 17:36:31.48	339.93	5.06	-56.2	-60.2	3.6	0.00e+00	0	48	104	0	60	120434
2026-01-28 17:36:34.49	339.95	4.82	-56.5	-60.3	3.6	0.00e+00	0	48	104	0	60	122525
2026-01-28 17:36:37.51	339.98	4.58	-55.4	-60.4	3.6	0.00e+00	0	48	104	0	60	124123
2026-01-28 17:36:40.53	340.00	4.34	-56.0	-60.3	3.6	0.00e+00	0	48	104	0	60	122413
2026-01-28 17:36:43.55	340.02	4.11	-56.0	-60.3	3.6	0.00e+00	0	48	104	0	60	122394
2026-01-28 17:36:46.57	340.05	3.88	-55.9	-60.2	3.5	0.00e+00	0	48	104	0	60	121371
2026-01-28 17:36:49.60	340.07	3.65	-55.9	-60.3	3.6	0.00e+00	0	48	104	0	60	122117
2026-01-28 17:36:52.61	340.09	3.42	-55.9	-60.2	3.6	0.00e+00	0	48	104	0	60	121011
2026-01-28 17:36:55.63	340.11	3.20	-55.9	-60.2	3.6	0.00e+00	0	48	104	0	60	121564
2026-01-28 17:36:58.66	340.13	2.98	-55.8	-60.1	3.6	0.00e+00	0	48	104	0	60	120223
2026-01-28 17:37:01.68	340.16	2.76	-55.8	-60.1	3.6	0.00e+00	0	48	104	0	60	119500
2026-01-28 17:37:04.70	340.18	2.54	-55.8	-60.1	3.6	0.00e+00	0	48	104	0	60	119155
2026-01-28 17:37:07.71	340.20	2.33	-55.8	-60.0	3.6	0.00e+00	0	48	104	0	60	118937
2026-01-28 17:37:10.73	340.22	2.12	-55.7	-60.0	3.6	0.00e+00	0	48	104	0	60	118539
2026-01-28 17:37:13.76	340.24	1.91	-55.7	-60.0	3.6	0.00e+00	0	48	104	0	60	118711
2026-01-28 17:37:16.78	340.26	1.70	-55.7	-60.0	3.6	0.00e+00	0	48	104	0	60	117783
2026-01-28 17:37:19.80	340.28	1.49	-55.5	-60.0	3.6	0.00e+00	0	48	104	0	60	117973
2026-01-28 17:37:22.82	340.30	1.29	-55.7	-60.0	3.6	0.00e+00	0	48	104	0	60	117949
2026-01-28 17:37:25.84	340.33	1.09	-55.7	-60.0	3.6	0.00e+00	0	48	104	0	60	117933
2026-01-28 17:37:28.86	340.35	0.89	-55.6	-59.9	3.6	0.00e+00	0	48	104	0	60	117539
2026-01-28 17:37:31.88	340.37	0.69	-55.6	-59.9	3.6	0.00e+00	0	48	104	0	60	116830
2026-01-28 17:37:34.90	340.39	0.49	-55.6	-60.0	3.6	0.00e+00	0	48	104	0	60	118229
2026-01-28 17:37:37.92	340.41	0.29	-55.7	-60.0	3.6	0.00e+00	0	48	104	0	60	117910
2026-01-28 17:37:40.94	340.43	0.10	-55.7	-60.0	3.6	0.00e+00	0	48	104	0	60	118219
2026-01-28 17:37:43.96	340.45	-0.09	-55.6	-59.9	3.6	0.00e+00	0	48	104	0	60	116960

#Closed at: 2026-01-28 17:37:44
#Recorded file [0 MB]: D:/Data/35015_260128_203653.dat