passes_logs/2026/01/28/R3.2S-Naryan-Mar/R3.2S-Naryan-Mar__20260128_080902_TY-40_rec.log

#Pass ID: 20260128_080902_TY-40
#Satellite: TY-40
#Configuration: TY-39
#almurnet v.1.7.20240730
#Start time: 2026-01-28 08:15:26

#Version: 2.2.20231116
#Station: R3.2S-Naryan-Mar
#Location: 53.008057 lon 67.646978 lat
#TLE: 1 56846U 23081A   26027.60022461  .00005238  00000+0  23320-3 0  9991
#TLE: 2 56846  97.3872 100.2896 0001467  75.3792 284.7607 15.21884924146621

#Time	Az	El	Level	Level2	SNR	BER	BlckErr	Temp	State	Recorded	gain1	gain2
2026-01-28 08:15:26.70	242.34	54.43	-59.6	-73.9	3.5	8.45e-01	0	46	0	0	60	194165
2026-01-28 08:15:28.70	240.93	53.46	-57.9	-61.6	3.6	0.00e+00	0	47	104	0	60	142522
2026-01-28 08:15:30.71	239.61	52.49	-57.9	-61.5	3.6	0.00e+00	0	47	104	0	60	141383
2026-01-28 08:15:32.73	238.37	51.52	-57.7	-61.3	3.6	0.00e+00	0	47	104	0	60	138160
2026-01-28 08:15:34.74	237.21	50.57	-57.5	-61.2	3.6	0.00e+00	0	47	104	0	60	135474
2026-01-28 08:15:36.76	236.12	49.62	-57.5	-61.2	3.6	0.00e+00	0	47	104	0	60	135244
2026-01-28 08:15:38.77	235.10	48.69	-57.5	-61.1	3.6	0.00e+00	0	47	104	0	60	134541
2026-01-28 08:15:40.78	234.14	47.77	-57.1	-60.8	3.6	0.00e+00	0	47	104	0	60	129693
2026-01-28 08:15:42.80	233.24	46.86	-57.0	-60.7	3.6	0.00e+00	0	47	104	0	60	128585
2026-01-28 08:15:44.81	232.39	45.97	-57.0	-60.7	3.5	0.00e+00	0	47	104	0	60	127853
2026-01-28 08:15:46.82	231.59	45.09	-56.9	-60.6	3.6	0.00e+00	0	47	104	0	60	126833
2026-01-28 08:15:48.83	230.83	44.23	-56.9	-60.7	3.6	0.00e+00	0	47	104	0	60	127717
2026-01-28 08:15:50.85	230.12	43.38	-56.9	-60.6	3.6	0.00e+00	0	47	104	0	60	126576
2026-01-28 08:15:52.86	229.44	42.56	-56.9	-60.6	3.6	0.00e+00	0	47	104	0	60	126716
2026-01-28 08:15:54.88	228.80	41.74	-56.9	-60.6	3.6	0.00e+00	0	47	104	0	60	127335
2026-01-28 08:15:56.89	228.19	40.94	-56.9	-60.6	3.6	0.00e+00	0	47	104	0	60	126357
2026-01-28 08:15:58.91	227.61	40.16	-56.8	-60.6	3.6	0.00e+00	0	47	104	0	60	126195
2026-01-28 08:16:00.93	227.05	39.39	-56.8	-60.5	3.6	0.00e+00	0	47	104	0	60	125519
2026-01-28 08:16:02.94	226.53	38.64	-56.8	-60.5	3.6	0.00e+00	0	47	104	0	60	125430
2026-01-28 08:16:04.96	226.03	37.91	-56.8	-60.5	3.5	0.00e+00	0	47	104	0	60	125677
2026-01-28 08:16:06.98	225.55	37.19	-56.8	-60.5	3.6	0.00e+00	0	47	104	0	60	124988
2026-01-28 08:16:08.99	225.10	36.49	-56.8	-60.5	3.6	0.00e+00	0	47	104	0	60	125448
2026-01-28 08:16:11.01	224.67	35.80	-56.8	-60.4	3.6	0.00e+00	0	47	104	0	60	124591
2026-01-28 08:16:13.02	224.25	35.12	-56.8	-60.5	3.6	0.00e+00	0	47	104	0	60	124845
2026-01-28 08:16:15.04	223.85	34.46	-56.7	-60.4	3.6	0.00e+00	0	47	104	0	60	123730
2026-01-28 08:16:17.06	223.47	33.82	-56.7	-60.5	3.6	0.00e+00	0	47	104	0	60	124676
2026-01-28 08:16:19.07	223.11	33.19	-56.7	-60.4	3.6	0.00e+00	0	47	104	0	60	123949
2026-01-28 08:16:21.08	222.76	32.58	-56.7	-60.4	3.6	0.00e+00	0	47	104	0	60	123756
2026-01-28 08:16:23.09	222.43	31.98	-56.7	-60.4	3.6	0.00e+00	0	47	104	0	60	123714
2026-01-28 08:16:25.10	222.10	31.39	-56.8	-60.5	3.6	0.00e+00	0	47	104	0	60	125204
2026-01-28 08:16:27.11	221.80	30.81	-56.9	-60.6	3.6	0.00e+00	0	47	104	0	60	126658
2026-01-28 08:16:29.13	221.50	30.25	-56.9	-60.6	3.5	0.00e+00	0	47	104	0	60	126078
2026-01-28 08:16:31.14	221.21	29.69	-56.9	-60.7	3.6	0.00e+00	0	47	104	0	60	128374
2026-01-28 08:16:33.14	220.94	29.16	-56.8	-60.6	3.5	0.00e+00	0	47	104	0	60	126623
2026-01-28 08:16:35.16	220.67	28.63	-56.9	-60.5	3.6	0.00e+00	0	47	104	0	60	125423
2026-01-28 08:16:37.17	220.41	28.11	-56.6	-60.4	3.6	0.00e+00	0	47	104	0	60	123388
2026-01-28 08:16:39.18	220.17	27.60	-56.7	-60.4	3.6	0.00e+00	0	48	104	0	60	123739
2026-01-28 08:16:41.20	219.93	27.10	-56.3	-60.1	3.6	0.00e+00	0	47	104	0	60	119373
2026-01-28 08:16:43.20	219.70	26.62	-56.5	-60.3	3.6	0.00e+00	0	47	104	0	60	122146
2026-01-28 08:16:45.21	219.47	26.15	-56.4	-60.0	3.6	0.00e+00	0	48	104	0	60	118840
2026-01-28 08:16:47.22	219.26	25.68	-56.4	-60.1	3.6	0.00e+00	0	48	104	0	60	120020
2026-01-28 08:16:49.24	219.05	25.22	-56.6	-60.3	3.6	0.00e+00	0	48	104	0	60	123007
2026-01-28 08:16:51.25	218.85	24.77	-56.7	-60.4	3.6	0.00e+00	0	48	104	0	60	123630
2026-01-28 08:16:53.27	218.65	24.33	-56.8	-60.4	3.6	0.00e+00	0	48	104	0	60	123906
2026-01-28 08:16:55.28	218.46	23.90	-56.8	-60.4	3.6	0.00e+00	0	48	104	0	60	123682
2026-01-28 08:16:57.30	218.28	23.47	-56.6	-60.2	3.6	0.00e+00	0	48	104	0	60	121439
2026-01-28 08:16:59.31	218.10	23.06	-56.8	-60.4	3.6	0.00e+00	0	48	104	0	60	124541
2026-01-28 08:17:01.32	217.93	22.65	-56.5	-60.1	3.6	0.00e+00	0	48	104	0	60	120082
2026-01-28 08:17:03.32	217.76	22.26	-56.6	-60.2	3.6	0.00e+00	0	48	104	0	60	121445
2026-01-28 08:17:05.33	217.60	21.87	-56.2	-59.9	3.6	0.00e+00	0	48	104	0	60	116970
2026-01-28 08:17:07.35	217.44	21.48	-56.6	-60.3	3.6	0.00e+00	0	48	104	0	60	121891
2026-01-28 08:17:09.36	217.29	21.10	-56.2	-59.8	3.6	0.00e+00	0	48	104	0	60	115429
2026-01-28 08:17:11.38	217.14	20.73	-56.4	-60.1	3.6	0.00e+00	0	48	104	0	60	119409
2026-01-28 08:17:13.39	217.00	20.36	-56.1	-59.7	3.6	0.00e+00	0	48	104	0	60	113833
2026-01-28 08:17:15.41	216.85	20.00	-56.2	-59.8	3.6	0.00e+00	0	48	104	0	60	116177
2026-01-28 08:17:17.41	216.72	19.65	-55.9	-59.6	3.6	0.00e+00	0	48	104	0	60	112553
2026-01-28 08:17:19.43	216.58	19.31	-55.9	-59.5	3.6	0.00e+00	0	48	104	0	60	111945
2026-01-28 08:17:21.44	216.46	18.97	-55.8	-59.4	3.6	0.00e+00	0	48	104	0	60	109841
2026-01-28 08:17:23.46	216.33	18.63	-55.9	-59.6	3.6	0.00e+00	0	48	104	0	60	112789
2026-01-28 08:17:25.47	216.21	18.30	-55.7	-59.3	3.6	0.00e+00	0	48	104	0	60	109720
2026-01-28 08:17:27.47	216.09	17.98	-55.7	-59.3	3.6	0.00e+00	0	48	104	0	60	109538
2026-01-28 08:17:29.48	215.97	17.66	-55.7	-59.4	3.6	0.00e+00	0	48	104	0	60	110324
2026-01-28 08:17:31.49	215.86	17.35	-55.7	-59.4	3.6	0.00e+00	0	48	104	0	60	110338
2026-01-28 08:17:33.50	215.75	17.04	-55.6	-59.2	3.6	0.00e+00	0	48	104	0	60	108339
2026-01-28 08:17:35.51	215.64	16.74	-55.7	-59.3	3.6	0.00e+00	0	48	104	0	60	109588
2026-01-28 08:17:37.52	215.53	16.44	-55.5	-59.2	3.6	0.00e+00	0	48	104	0	60	108124
2026-01-28 08:17:39.53	215.43	16.15	-55.8	-59.5	3.6	0.00e+00	0	48	104	0	60	112167
2026-01-28 08:17:41.54	215.33	15.86	-55.2	-58.9	3.6	0.00e+00	0	48	104	0	60	104587
2026-01-28 08:17:43.55	215.23	15.57	-55.5	-59.2	3.6	0.00e+00	0	48	104	0	60	108168
2026-01-28 08:17:45.57	215.14	15.29	-54.9	-58.7	3.6	0.00e+00	0	48	104	0	60	102442
2026-01-28 08:17:47.59	215.04	15.01	-55.3	-59.0	3.6	0.00e+00	0	48	104	0	60	105854
2026-01-28 08:17:49.60	214.95	14.74	-54.8	-58.7	3.6	0.00e+00	0	48	104	0	60	101826
2026-01-28 08:17:51.62	214.86	14.47	-55.2	-59.0	3.6	0.00e+00	0	48	104	0	60	105046
2026-01-28 08:17:53.63	214.77	14.20	-54.9	-58.7	3.6	0.00e+00	0	48	104	0	60	101653
2026-01-28 08:17:55.64	214.69	13.94	-55.1	-58.9	3.6	0.00e+00	0	48	104	0	60	104351
2026-01-28 08:17:57.65	214.61	13.68	-55.1	-58.8	3.6	0.00e+00	0	48	104	0	60	103019
2026-01-28 08:17:59.67	214.52	13.43	-55.2	-59.0	3.6	0.00e+00	0	48	104	0	60	105423
2026-01-28 08:18:01.68	214.45	13.18	-55.0	-58.7	3.5	0.00e+00	0	48	104	0	60	102020
2026-01-28 08:18:03.69	214.37	12.93	-55.2	-59.0	3.6	0.00e+00	0	48	104	0	60	104934
2026-01-28 08:18:05.70	214.29	12.68	-55.1	-58.8	3.6	0.00e+00	0	48	104	0	60	103200
2026-01-28 08:18:07.71	214.22	12.44	-55.2	-58.9	3.6	0.00e+00	0	48	104	0	60	103685
2026-01-28 08:18:09.72	214.14	12.20	-55.1	-58.7	3.6	0.00e+00	0	48	104	0	60	102416
2026-01-28 08:18:11.73	214.07	11.97	-55.2	-58.8	3.6	0.00e+00	0	48	104	0	60	103294
2026-01-28 08:18:13.74	214.00	11.73	-55.0	-58.8	3.6	0.00e+00	0	48	104	0	60	102835
2026-01-28 08:18:15.76	213.93	11.50	-55.1	-58.7	3.6	0.00e+00	0	48	104	0	60	102347
2026-01-28 08:18:17.77	213.87	11.28	-54.9	-58.7	3.6	0.00e+00	0	48	104	0	60	101526
2026-01-28 08:18:19.78	213.80	11.05	-55.0	-58.7	3.6	0.00e+00	0	48	104	0	60	102421
2026-01-28 08:18:21.79	213.74	10.83	-54.8	-58.6	3.6	0.00e+00	0	48	104	0	60	100545
2026-01-28 08:18:23.81	213.67	10.61	-54.9	-58.5	3.6	0.00e+00	0	48	104	0	60	100096
2026-01-28 08:18:25.82	213.61	10.39	-54.8	-58.5	3.6	0.00e+00	0	48	104	0	60	100035
2026-01-28 08:18:27.83	213.55	10.18	-54.7	-58.4	3.6	0.00e+00	0	48	104	0	60	98957
2026-01-28 08:18:29.85	213.49	9.97	-54.7	-58.4	3.6	0.00e+00	0	48	104	0	60	98080
2026-01-28 08:18:31.86	213.43	9.76	-54.6	-58.4	3.6	0.00e+00	0	48	104	0	60	98437
2026-01-28 08:18:33.87	213.38	9.55	-54.5	-58.2	3.6	0.00e+00	0	48	104	0	60	96478
2026-01-28 08:18:35.88	213.32	9.35	-54.7	-58.4	3.6	0.00e+00	0	48	104	0	60	98553
2026-01-28 08:18:37.89	213.26	9.14	-54.3	-58.0	3.6	0.00e+00	0	48	104	0	60	93924
2026-01-28 08:18:39.90	213.21	8.94	-54.7	-58.3	3.6	0.00e+00	0	48	104	0	60	97257
2026-01-28 08:18:41.91	213.16	8.75	-54.3	-58.0	3.6	0.00e+00	0	48	104	0	60	93605
2026-01-28 08:18:43.92	213.11	8.55	-54.5	-58.2	3.6	0.00e+00	0	48	104	0	60	95973
2026-01-28 08:18:45.94	213.06	8.36	-54.3	-57.9	3.6	0.00e+00	0	48	104	0	60	93016
2026-01-28 08:18:47.96	213.00	8.16	-54.4	-58.1	3.6	0.00e+00	0	48	104	0	60	94854
2026-01-28 08:18:49.96	212.96	7.97	-54.2	-57.8	3.6	0.00e+00	0	48	104	0	60	92320
2026-01-28 08:18:51.97	212.91	7.78	-54.3	-58.0	3.6	0.00e+00	0	48	104	0	60	94329
2026-01-28 08:18:53.98	212.86	7.60	-54.1	-57.7	3.6	0.00e+00	0	48	104	0	60	90364
2026-01-28 08:18:55.99	212.81	7.41	-54.2	-58.0	3.6	0.00e+00	0	48	104	0	60	93460
2026-01-28 08:18:58.00	212.77	7.23	-54.0	-57.6	3.6	0.00e+00	0	48	104	0	60	90181
2026-01-28 08:19:00.01	212.72	7.05	-54.2	-57.9	3.6	0.00e+00	0	48	104	0	60	93254
2026-01-28 08:19:02.02	212.68	6.87	-53.9	-57.5	3.6	0.00e+00	0	48	104	0	60	89135
2026-01-28 08:19:04.04	212.64	6.69	-54.1	-57.8	3.6	0.00e+00	0	48	104	0	60	91632
2026-01-28 08:19:06.05	212.59	6.51	-53.6	-57.3	3.6	0.00e+00	0	48	104	0	60	86767
2026-01-28 08:19:08.06	212.55	6.34	-53.9	-57.6	3.6	0.00e+00	0	48	104	0	60	89628
2026-01-28 08:19:10.06	212.51	6.17	-53.3	-56.9	3.6	0.00e+00	0	48	104	0	60	82516
2026-01-28 08:19:12.07	212.47	6.00	-53.3	-57.0	3.6	0.00e+00	0	48	104	0	60	83465
2026-01-28 08:19:14.08	212.43	5.83	-54.5	-58.1	3.6	0.00e+00	0	48	104	0	60	95517
2026-01-28 08:19:16.10	212.39	5.66	-55.5	-59.3	3.6	0.00e+00	0	48	104	0	60	109412
2026-01-28 08:19:18.11	212.35	5.49	-56.8	-60.6	3.5	0.00e+00	0	48	104	0	60	126098
2026-01-28 08:19:20.13	212.32	5.32	-57.3	-61.0	3.6	0.00e+00	0	48	104	0	60	133289
2026-01-28 08:19:22.14	212.28	5.16	-57.9	-61.6	3.6	0.00e+00	0	48	104	0	60	142546
2026-01-28 08:19:24.16	212.24	4.99	-58.1	-61.8	3.6	0.00e+00	0	48	104	0	60	146296
2026-01-28 08:19:26.17	212.21	4.83	-58.0	-61.7	3.6	0.00e+00	0	48	104	0	60	144241
2026-01-28 08:19:28.18	212.17	4.67	-57.4	-61.2	3.6	0.00e+00	0	48	104	0	60	135474
2026-01-28 08:19:30.19	212.14	4.51	-56.9	-61.2	3.6	0.00e+00	0	48	104	0	60	135323
2026-01-28 08:19:32.20	212.10	4.35	-57.3	-61.4	3.6	0.00e+00	0	48	104	0	60	138643
2026-01-28 08:19:34.22	212.07	4.20	-57.3	-61.4	3.6	0.00e+00	0	48	104	0	60	138364
2026-01-28 08:19:36.23	212.04	4.04	-57.3	-61.4	3.6	0.00e+00	0	48	104	0	60	138409
2026-01-28 08:19:38.25	212.00	3.89	-57.3	-61.4	3.6	0.00e+00	0	48	104	0	60	138790
2026-01-28 08:19:40.26	211.97	3.73	-57.3	-61.3	3.6	0.00e+00	0	48	104	0	60	138010
2026-01-28 08:19:42.27	211.94	3.58	-57.2	-61.3	3.6	0.00e+00	0	48	104	0	60	137720
2026-01-28 08:19:44.29	211.91	3.43	-57.2	-61.3	3.6	0.00e+00	0	48	104	0	60	137163
2026-01-28 08:19:46.31	211.88	3.28	-57.2	-61.3	3.6	0.00e+00	0	48	104	0	60	136836
2026-01-28 08:19:48.32	211.85	3.13	-57.2	-61.3	3.6	0.00e+00	0	48	104	0	60	136791
2026-01-28 08:19:50.34	211.82	2.98	-57.2	-61.3	3.6	0.00e+00	0	48	104	0	60	136670
2026-01-28 08:19:52.35	211.79	2.83	-57.1	-61.2	3.6	0.00e+00	0	48	104	0	60	136093
2026-01-28 08:19:54.37	211.76	2.69	-57.2	-61.2	3.6	0.00e+00	0	48	104	0	60	136569
2026-01-28 08:19:56.39	211.73	2.54	-57.2	-61.2	3.6	0.00e+00	0	48	104	0	60	136061
2026-01-28 08:19:58.40	211.71	2.40	-57.2	-61.3	3.5	0.00e+00	0	48	104	0	60	137381
2026-01-28 08:20:00.42	211.68	2.25	-57.2	-61.3	3.6	0.00e+00	0	48	104	0	60	137520
2026-01-28 08:20:02.43	211.65	2.11	-57.2	-61.3	3.6	0.00e+00	0	48	104	0	60	136951
2026-01-28 08:20:04.44	211.62	1.97	-57.2	-61.3	3.5	0.00e+00	0	48	104	0	60	137461
2026-01-28 08:20:06.45	211.60	1.83	-57.2	-61.3	3.6	0.00e+00	0	48	104	0	60	137318
2026-01-28 08:20:08.47	211.57	1.69	-57.2	-61.3	3.6	0.00e+00	0	48	104	0	60	137650
2026-01-28 08:20:10.48	211.55	1.55	-57.2	-61.3	3.6	0.00e+00	0	48	104	0	60	137361
2026-01-28 08:20:12.49	211.52	1.42	-57.2	-61.2	3.6	0.00e+00	0	48	104	0	60	135837
2026-01-28 08:20:14.50	211.50	1.28	-57.1	-61.2	3.6	0.00e+00	0	48	104	0	60	136591
2026-01-28 08:20:16.51	211.47	1.14	-57.1	-61.3	3.6	0.00e+00	0	48	104	0	60	136803
2026-01-28 08:20:18.53	211.45	1.01	-57.1	-61.2	3.6	0.00e+00	0	48	104	0	60	135914
2026-01-28 08:20:20.54	211.43	0.87	-57.1	-61.2	3.6	0.00e+00	0	48	104	0	60	136142
2026-01-28 08:20:22.55	211.40	0.74	-57.1	-61.2	3.6	0.00e+00	0	48	104	0	60	136183
2026-01-28 08:20:24.56	211.38	0.61	-57.1	-61.2	3.6	0.00e+00	0	48	104	0	60	136300
2026-01-28 08:20:26.58	211.36	0.47	-57.1	-61.2	3.6	0.00e+00	0	48	104	0	60	136360
2026-01-28 08:20:28.59	211.34	0.34	-57.1	-61.2	3.6	0.00e+00	0	48	104	0	60	135751
2026-01-28 08:20:30.60	211.31	0.21	-57.1	-61.2	3.6	0.00e+00	0	48	104	0	60	136233
2026-01-28 08:20:32.62	211.29	0.08	-57.1	-61.2	3.5	0.00e+00	0	48	104	0	60	136376

#Closed at: 2026-01-28 08:20:34
#Recorded file [0 MB]: D:/Data/35015_260128_111526.dat