passes_logs/2026/01/28/R3.2S-Naryan-Mar/R3.2S-Naryan-Mar__20260128_144422_FENGYUN_3E_rec.log

#Pass ID: 20260128_144422_FENGYUN 3E
#Satellite: FENGYUN 3E
#Configuration: FENGYUN 3E
#almurnet v.1.7.20240730
#Start time: 2026-01-28 14:52:10

#Version: 2.2.20231116
#Station: R3.2S-Naryan-Mar
#Location: 53.008057 lon 67.646978 lat
#TLE: 1 49008U 21062A   26027.83084825  .00000170  00000+0  10081-3 0  9997
#TLE: 2 49008  98.7501  32.8098 0002509 114.2687 245.8752 14.19888158236667

#Time	Az	El	Level	Level2	SNR	BER	BlckErr	Temp	State	Recorded	gain1	gain2
2026-01-28 14:52:10.34	285.86	23.91	-55.7	-59.1	3.3	0.00e+00	0	47	0	0	60	106078
2026-01-28 14:52:12.35	286.42	23.85	-56.8	-73.7	3.6	8.45e-01	0	48	104	0	60	190591
2026-01-28 14:52:14.37	286.98	23.79	-55.8	-73.9	3.6	8.46e-01	0	48	104	0	60	193905
2026-01-28 14:52:16.37	287.53	23.73	-56.3	-73.7	3.6	8.45e-01	0	48	104	0	60	190380
2026-01-28 14:52:18.39	288.09	23.66	-58.3	-73.5	3.6	8.44e-01	0	48	104	0	60	185733
2026-01-28 14:52:20.40	288.64	23.59	-58.9	-73.2	3.6	8.46e-01	0	48	104	0	60	178526
2026-01-28 14:52:22.42	289.19	23.52	-60.0	-73.2	3.6	8.45e-01	0	48	104	0	60	179460
2026-01-28 14:52:24.43	289.73	23.45	-60.0	-73.2	3.6	8.45e-01	0	48	104	0	60	179536
2026-01-28 14:52:26.44	290.28	23.37	-60.0	-73.1	3.6	8.45e-01	0	48	104	0	60	177967
2026-01-28 14:52:28.44	290.81	23.29	-60.0	-73.2	3.6	8.46e-01	0	48	104	0	60	178784
2026-01-28 14:52:30.45	291.35	23.21	-60.0	-73.2	3.6	8.46e-01	0	48	104	0	60	178481
2026-01-28 14:52:32.46	291.88	23.13	-60.0	-73.2	3.6	8.45e-01	0	48	104	0	60	178421
2026-01-28 14:52:34.48	292.42	23.04	-60.0	-73.2	3.6	8.46e-01	0	48	104	0	60	178730
2026-01-28 14:52:36.48	292.94	22.96	-60.0	-73.2	3.6	8.46e-01	0	48	104	0	60	179988
2026-01-28 14:52:38.49	293.47	22.87	-60.0	-73.2	3.6	8.45e-01	0	48	104	0	60	178526
2026-01-28 14:52:40.51	293.99	22.78	-60.0	-73.2	3.6	8.45e-01	0	48	104	0	60	179105
2026-01-28 14:52:42.52	294.51	22.68	-59.9	-72.6	3.6	8.45e-01	0	48	104	0	60	168044
2026-01-28 14:52:44.53	295.03	22.59	-59.9	-72.0	3.6	8.46e-01	0	48	104	0	60	156151
2026-01-28 14:52:46.55	295.54	22.49	-59.9	-72.4	3.6	8.46e-01	0	48	104	0	60	163181
2026-01-28 14:52:48.56	296.05	22.39	-59.9	-73.0	3.6	8.46e-01	0	48	104	0	60	175547
2026-01-28 14:52:50.57	296.56	22.29	-59.9	-73.1	3.6	8.45e-01	0	48	104	0	60	176225
2026-01-28 14:52:52.58	297.06	22.18	-59.9	-73.1	3.6	8.45e-01	0	48	104	0	60	177153
2026-01-28 14:52:54.59	297.56	22.08	-59.9	-73.1	3.6	8.46e-01	0	48	104	0	60	177124
2026-01-28 14:52:56.60	298.06	21.97	-59.9	-72.9	3.6	8.45e-01	0	48	104	0	60	173765
2026-01-28 14:52:58.61	298.55	21.86	-59.9	-72.7	3.6	8.45e-01	0	48	104	0	60	169377
2026-01-28 14:53:00.62	299.04	21.75	-59.9	-72.3	3.6	8.46e-01	0	48	104	0	60	162200
2026-01-28 14:53:02.64	299.53	21.64	-59.1	-65.1	6.0	3.22e-01	0	48	0	3145728	60	70107
2026-01-28 14:53:04.65	300.02	21.53	-55.7	-57.9	14.4	5.09e-04	0	48	0	17825792	60	30927
2026-01-28 14:53:06.67	300.50	21.41	-58.2	-67.3	4.3	8.45e-01	0	48	104	24117248	60	90986
2026-01-28 14:53:08.68	300.98	21.30	-57.8	-67.0	4.4	8.04e-01	0	47	0	1048576	60	88026
2026-01-28 14:53:10.68	301.45	21.18	-52.2	-53.4	18.5	0.00e+00	0	47	0	10485760	60	18228
2026-01-28 14:53:12.70	301.92	21.06	-50.9	-52.0	20.3	0.00e+00	0	47	0	25165824	60	15581
2026-01-28 14:53:14.71	302.38	20.94	-48.6	-49.6	22.4	0.00e+00	0	47	0	38797312	60	11783
2026-01-28 14:53:16.72	302.84	20.82	-47.8	-48.8	23.0	0.00e+00	0	47	0	53477376	60	10793
2026-01-28 14:53:18.74	303.30	20.69	-47.3	-48.3	23.4	0.00e+00	0	47	0	68157440	60	10187
2026-01-28 14:53:20.75	303.76	20.57	-47.3	-48.3	23.4	0.00e+00	0	47	0	82837504	60	10166
2026-01-28 14:53:22.77	304.21	20.45	-47.0	-47.8	23.8	0.00e+00	0	47	0	97517568	60	9629
2026-01-28 14:53:24.78	304.66	20.32	-47.0	-47.7	23.9	0.00e+00	0	48	0	112197632	60	9530
2026-01-28 14:53:26.79	305.10	20.19	-47.1	-47.7	23.9	0.00e+00	0	48	0	126877696	60	9539
2026-01-28 14:53:28.81	305.55	20.06	-47.2	-47.8	23.8	0.00e+00	0	47	0	141557760	60	9616
2026-01-28 14:53:30.81	305.98	19.93	-47.4	-48.1	23.6	0.00e+00	0	47	0	155189248	60	9931
2026-01-28 14:53:32.82	306.41	19.80	-47.5	-48.3	23.4	0.00e+00	0	47	0	169869312	60	10160
2026-01-28 14:53:34.84	306.85	19.67	-47.5	-48.4	23.3	0.00e+00	0	47	0	184549376	60	10253
2026-01-28 14:53:36.85	307.27	19.54	-47.3	-48.3	23.4	0.00e+00	0	47	0	199229440	60	10160
2026-01-28 14:53:38.86	307.69	19.41	-47.2	-48.2	23.4	0.00e+00	0	47	0	213909504	60	10094
2026-01-28 14:53:40.86	308.11	19.27	-47.3	-48.3	23.4	0.00e+00	0	48	0	228589568	60	10156
2026-01-28 14:53:42.88	308.53	19.14	-47.3	-48.2	23.4	0.00e+00	0	47	0	243269632	60	10128
2026-01-28 14:53:44.89	308.94	19.00	-47.4	-48.2	23.5	0.00e+00	0	47	0	256901120	60	10023
2026-01-28 14:53:46.90	309.35	18.87	-47.5	-48.3	23.3	0.00e+00	0	47	0	271581184	60	10129
2026-01-28 14:53:48.90	309.75	18.73	-47.7	-48.4	23.4	0.00e+00	0	47	0	286261248	60	10328
2026-01-28 14:53:50.91	310.15	18.60	-47.9	-48.7	23.0	0.00e+00	0	47	0	300941312	60	10631
2026-01-28 14:53:52.93	310.55	18.46	-47.9	-48.8	23.0	0.00e+00	0	47	0	314572800	60	10787
2026-01-28 14:53:54.94	310.94	18.32	-48.0	-48.9	22.9	0.00e+00	0	47	0	329252864	60	10947
2026-01-28 14:53:56.96	311.34	18.18	-47.9	-48.9	23.0	0.00e+00	0	47	0	344981504	60	10860
2026-01-28 14:53:58.97	311.72	18.04	-47.7	-48.8	23.0	0.00e+00	0	47	0	358612992	60	10800
2026-01-28 14:54:00.98	312.11	17.90	-47.7	-48.9	22.9	0.00e+00	0	47	0	373293056	60	10925
2026-01-28 14:54:02.98	312.49	17.76	-47.8	-48.9	23.0	0.00e+00	0	47	0	387973120	60	10897
2026-01-28 14:54:04.99	312.86	17.62	-47.9	-48.9	23.2	0.00e+00	0	47	0	402653184	60	10882
2026-01-28 14:54:06.99	313.23	17.48	-48.0	-48.8	23.2	0.00e+00	0	47	0	416284672	60	10772
2026-01-28 14:54:08.98	313.60	17.34	-48.1	-48.9	23.1	0.00e+00	0	47	0	430964736	60	10869
2026-01-28 14:54:10.95	313.96	17.21	-47.9	-48.8	23.2	0.00e+00	0	47	0	444596224	60	10752
2026-01-28 14:54:12.93	314.32	17.07	-47.8	-48.9	23.1	0.00e+00	0	47	0	459276288	60	10913
2026-01-28 14:54:14.94	314.68	16.92	-47.8	-49.1	22.8	0.00e+00	0	47	0	473956352	60	11145
2026-01-28 14:54:16.94	315.03	16.78	-47.9	-49.3	22.6	0.00e+00	0	47	0	488636416	60	11434
2026-01-28 14:54:18.94	315.39	16.64	-48.0	-49.4	22.4	0.00e+00	0	47	0	502267904	60	11600
2026-01-28 14:54:20.93	315.73	16.50	-48.1	-49.4	22.3	0.00e+00	0	47	0	516947968	60	11571
2026-01-28 14:54:22.91	316.07	16.36	-48.2	-49.3	22.5	0.00e+00	0	47	0	531628032	60	11391
2026-01-28 14:54:24.92	316.42	16.22	-48.0	-48.9	22.8	0.00e+00	0	47	0	546308096	60	10950
2026-01-28 14:54:26.92	316.76	16.08	-47.8	-48.8	22.8	0.00e+00	0	47	0	559939584	60	10824
2026-01-28 14:54:28.93	317.09	15.93	-47.6	-48.8	22.9	0.00e+00	0	47	0	574619648	60	10772
2026-01-28 14:54:30.94	317.43	15.79	-47.5	-48.7	22.8	0.00e+00	0	47	0	589299712	60	10720
2026-01-28 14:54:32.95	317.76	15.65	-47.5	-48.9	22.6	0.00e+00	0	47	0	603979776	60	10971
2026-01-28 14:54:34.96	318.09	15.50	-47.6	-49.1	22.4	0.00e+00	0	47	0	618659840	60	11116
2026-01-28 14:54:36.98	318.42	15.36	-47.9	-49.4	22.2	0.00e+00	0	47	0	633339904	60	11500
2026-01-28 14:54:38.99	318.74	15.22	-48.3	-49.7	21.9	0.00e+00	0	47	0	648019968	60	11968
2026-01-28 14:54:41.01	319.06	15.07	-48.5	-49.9	21.8	0.00e+00	0	47	0	662700032	60	12275
2026-01-28 14:54:43.02	319.38	14.93	-48.6	-49.9	21.6	0.00e+00	0	47	0	676331520	60	12310
2026-01-28 14:54:45.04	319.69	14.79	-48.3	-49.7	21.9	0.00e+00	0	47	0	691011584	60	11995
2026-01-28 14:54:47.04	320.00	14.64	-48.0	-49.6	22.0	0.00e+00	0	47	0	705691648	60	11855
2026-01-28 14:54:49.06	320.31	14.50	-47.8	-49.6	22.0	0.00e+00	0	47	0	720371712	60	11833
2026-01-28 14:54:51.07	320.62	14.36	-47.5	-49.6	22.1	0.00e+00	0	47	0	735051776	60	11821
2026-01-28 14:54:53.09	320.92	14.22	-47.5	-49.7	21.8	0.00e+00	0	47	0	749731840	60	11910
2026-01-28 14:54:55.09	321.22	14.07	-47.7	-49.8	21.7	0.00e+00	0	47	0	764411904	60	12079
2026-01-28 14:54:57.11	321.51	13.93	-48.2	-50.1	21.2	0.00e+00	0	47	0	778043392	60	12516
2026-01-28 14:54:59.12	321.81	13.79	-48.9	-50.5	20.8	0.00e+00	0	47	0	792723456	60	13151
2026-01-28 14:55:01.14	322.10	13.65	-49.7	-51.1	20.2	0.00e+00	0	47	0	807403520	60	13990
2026-01-28 14:55:03.14	322.39	13.51	-50.3	-51.6	19.6	0.00e+00	0	47	0	822083584	60	14937
2026-01-28 14:55:05.16	322.68	13.36	-50.4	-52.0	19.1	0.00e+00	0	47	0	835715072	60	15629
2026-01-28 14:55:07.17	322.96	13.22	-50.1	-52.3	18.9	0.00e+00	0	47	0	851443712	60	16108
2026-01-28 14:55:09.18	323.24	13.08	-50.0	-52.4	18.7	0.00e+00	0	47	0	866123776	60	16335
2026-01-28 14:55:11.18	323.52	12.94	-50.1	-52.6	18.4	0.00e+00	0	47	0	879755264	60	16722
2026-01-28 14:55:13.19	323.79	12.80	-50.2	-52.8	18.0	0.00e+00	0	47	0	894435328	60	17110
2026-01-28 14:55:15.20	324.06	12.66	-50.4	-52.9	17.8	0.00e+00	0	47	0	909115392	60	17349
2026-01-28 14:55:17.22	324.34	12.52	-50.4	-53.0	17.6	0.00e+00	0	47	0	923795456	60	17530
2026-01-28 14:55:19.24	324.60	12.38	-50.9	-53.3	17.2	0.00e+00	0	47	0	938475520	60	18100
2026-01-28 14:55:21.25	324.87	12.24	-51.5	-53.6	16.8	0.00e+00	0	47	0	952107008	60	18845
2026-01-28 14:55:23.26	325.13	12.10	-52.3	-54.1	16.2	0.00e+00	0	47	0	967835648	60	19890
2026-01-28 14:55:25.27	325.39	11.96	-52.8	-54.7	15.7	0.00e+00	0	47	0	982515712	60	21323
2026-01-28 14:55:27.26	325.65	11.82	-52.8	-55.3	15.0	0.00e+00	0	47	0	996147200	60	22894
2026-01-28 14:55:29.27	325.91	11.68	-52.6	-55.8	14.5	1.10e-06	0	47	0	1010827264	60	24146
2026-01-28 14:55:31.29	326.16	11.54	-52.6	-56.4	13.9	5.70e-06	0	47	0	1025507328	60	25781
2026-01-28 14:55:33.30	326.41	11.41	-52.7	-56.8	13.3	1.02e-05	0	47	0	1040187392	60	27020
2026-01-28 14:55:35.31	326.66	11.27	-53.4	-57.3	12.7	7.89e-05	0	47	0	1053818880	60	28780
2026-01-28 14:55:37.33	326.91	11.13	-53.8	-57.8	12.1	2.31e-04	0	47	0	1068498944	60	30468
2026-01-28 14:55:39.34	327.15	10.99	-54.2	-58.4	11.4	8.10e-04	0	47	0	1083179008	60	32709
2026-01-28 14:55:41.35	327.40	10.86	-54.3	-58.9	10.9	2.43e-03	0	47	0	1097859072	60	34546
2026-01-28 14:55:43.37	327.64	10.72	-54.5	-59.5	10.1	6.01e-03	0	47	0	1112539136	60	36829
2026-01-28 14:55:45.38	327.88	10.58	-54.8	-59.9	9.6	1.26e-02	0	47	0	1127219200	60	38922
2026-01-28 14:55:47.40	328.11	10.45	-55.3	-60.4	9.0	2.18e-02	0	47	0	1141899264	60	41210
2026-01-28 14:55:49.41	328.35	10.31	-55.9	-61.0	8.3	4.48e-02	0	47	0	1155530752	60	44122
2026-01-28 14:55:51.42	328.58	10.18	-56.1	-61.5	7.7	7.85e-02	0	47	0	1170210816	60	46654
2026-01-28 14:55:53.44	328.81	10.04	-56.2	-62.1	7.1	1.39e-01	0	47	0	1184890880	60	50088
2026-01-28 14:55:55.45	329.04	9.91	-56.1	-62.7	6.3	2.30e-01	0	47	0	1199570944	60	53490
2026-01-28 14:55:57.46	329.26	9.77	-56.2	-63.2	5.8	3.39e-01	0	47	0	1214251008	60	56801
2026-01-28 14:55:59.48	329.49	9.64	-56.4	-63.8	5.2	6.98e-01	0	47	0	1224736768	60	60819
2026-01-28 14:56:01.48	329.71	9.50	-56.7	-64.4	4.7	7.68e-01	0	47	0	1226833920	60	65261
2026-01-28 14:56:03.49	329.93	9.37	-56.9	-65.2	4.2	8.10e-01	0	47	0	1226833920	60	71218
2026-01-28 14:56:05.51	330.15	9.24	-57.1	-66.0	3.9	8.29e-01	0	47	0	1226833920	60	77977
2026-01-28 14:56:07.52	330.36	9.11	-57.2	-68.0	3.9	8.39e-01	0	47	104	1226833920	60	98853
2026-01-28 14:56:09.53	330.58	8.97	-57.1	-68.7	3.7	8.43e-01	0	47	104	1226833920	60	106220
2026-01-28 14:56:11.55	330.79	8.84	-57.2	-69.2	3.7	8.44e-01	0	47	104	1226833920	60	113002
2026-01-28 14:56:13.56	331.00	8.71	-57.2	-69.6	3.6	8.45e-01	0	47	104	1226833920	60	118946
2026-01-28 14:56:15.57	331.21	8.58	-57.0	-70.8	3.6	8.45e-01	0	47	104	1226833920	60	135565
2026-01-28 14:56:17.58	331.42	8.45	-56.9	-70.7	3.6	8.45e-01	0	47	104	1226833920	60	134950
2026-01-28 14:56:19.59	331.62	8.32	-57.4	-70.6	3.6	8.45e-01	0	47	104	1226833920	60	133444
2026-01-28 14:56:21.61	331.83	8.19	-57.0	-70.9	3.6	8.45e-01	0	47	104	1226833920	60	138213
2026-01-28 14:56:23.62	332.03	8.06	-57.0	-71.1	3.6	8.44e-01	0	47	104	1226833920	60	141176
2026-01-28 14:56:25.64	332.23	7.93	-54.9	-71.6	3.6	8.45e-01	0	47	104	1226833920	60	148394
2026-01-28 14:56:27.66	332.43	7.80	-56.9	-71.3	3.6	8.46e-01	0	47	104	1226833920	60	144171
2026-01-28 14:56:29.67	332.63	7.67	-56.0	-71.5	3.6	8.46e-01	0	47	104	1226833920	60	147238
2026-01-28 14:56:31.68	332.82	7.54	-57.2	-71.4	3.6	8.46e-01	0	47	104	1226833920	60	145264
2026-01-28 14:56:33.69	333.02	7.42	-57.7	-71.3	3.6	8.45e-01	0	47	104	1226833920	60	143849
2026-01-28 14:56:35.69	333.21	7.29	-57.5	-71.2	3.5	8.45e-01	0	47	104	1226833920	60	141745
2026-01-28 14:56:37.71	333.40	7.16	-56.8	-71.0	3.6	8.45e-01	0	47	104	1226833920	60	139082
2026-01-28 14:56:39.73	333.59	7.04	-57.3	-71.5	3.6	8.46e-01	0	47	104	1226833920	60	146985
2026-01-28 14:56:41.74	333.78	6.91	-55.7	-70.5	3.6	8.45e-01	0	47	104	1226833920	60	130914
2026-01-28 14:56:43.76	333.96	6.78	-56.1	-70.8	3.6	8.44e-01	0	47	104	1226833920	60	135126
2026-01-28 14:56:45.76	334.15	6.66	-55.6	-70.6	3.6	8.46e-01	0	47	104	1226833920	60	133099
2026-01-28 14:56:47.77	334.33	6.53	-57.4	-70.9	3.6	8.45e-01	0	47	104	1226833920	60	137230
2026-01-28 14:56:49.78	334.51	6.41	-55.4	-70.5	3.6	8.44e-01	0	47	104	1226833920	60	131332
2026-01-28 14:56:51.79	334.69	6.29	-56.9	-70.8	3.6	8.45e-01	0	47	104	1226833920	60	135820
2026-01-28 14:56:53.81	334.87	6.16	-55.6	-70.5	3.6	8.46e-01	0	47	104	1226833920	60	131893
2026-01-28 14:56:55.82	335.05	6.04	-54.9	-70.5	3.6	8.46e-01	0	47	104	1226833920	60	131905
2026-01-28 14:56:57.84	335.22	5.92	-50.6	-71.2	3.6	8.46e-01	0	47	104	1226833920	60	142345
2026-01-28 14:56:59.86	335.40	5.79	-58.9	-73.1	3.6	8.46e-01	0	47	104	1226833920	60	177877
2026-01-28 14:57:01.87	335.57	5.67	-60.1	-73.5	3.6	8.45e-01	0	47	104	1226833920	60	185675
2026-01-28 14:57:03.88	335.74	5.55	-57.3	-73.9	3.6	8.44e-01	0	47	104	1226833920	60	195137
2026-01-28 14:57:05.89	335.91	5.43	-60.1	-73.9	3.6	8.44e-01	0	47	104	1226833920	60	194722
2026-01-28 14:57:07.91	336.08	5.30	-60.3	-74.5	3.6	8.45e-01	0	47	104	1226833920	60	209035
2026-01-28 14:57:09.92	336.25	5.18	-61.0	-74.3	3.6	8.44e-01	0	47	104	1226833920	60	204166
2026-01-28 14:57:11.94	336.42	5.06	-59.1	-74.5	3.6	8.45e-01	0	47	104	1226833920	60	208637
2026-01-28 14:57:13.96	336.58	4.94	-56.6	-74.5	3.6	8.46e-01	0	47	104	1226833920	60	207286
2026-01-28 14:57:15.97	336.75	4.82	-57.3	-74.3	3.6	8.46e-01	0	47	104	1226833920	60	202586
2026-01-28 14:57:17.99	336.91	4.70	-57.3	-74.1	3.6	8.45e-01	0	47	104	1226833920	60	198110
2026-01-28 14:57:20.01	337.07	4.58	-57.3	-74.1	3.6	8.45e-01	0	47	104	1226833920	60	199449
2026-01-28 14:57:22.02	337.23	4.46	-57.3	-74.1	3.6	8.45e-01	0	47	104	1226833920	60	199043
2026-01-28 14:57:24.04	337.39	4.35	-57.3	-74.1	3.6	8.45e-01	0	47	104	1226833920	60	198447
2026-01-28 14:57:26.05	337.55	4.23	-57.3	-74.2	3.6	8.45e-01	0	47	104	1226833920	60	200471
2026-01-28 14:57:28.06	337.71	4.11	-57.3	-74.2	3.6	8.44e-01	0	47	104	1226833920	60	200200
2026-01-28 14:57:30.07	337.86	3.99	-57.5	-74.1	3.6	8.44e-01	0	47	104	1226833920	60	199002
2026-01-28 14:57:32.09	338.02	3.88	-57.3	-74.1	3.6	8.45e-01	0	47	104	1226833920	60	197842
2026-01-28 14:57:34.10	338.17	3.76	-57.3	-74.1	3.6	8.45e-01	0	47	104	1226833920	60	198529
2026-01-28 14:57:36.12	338.32	3.64	-57.4	-74.1	3.6	8.46e-01	0	47	104	1226833920	60	198276
2026-01-28 14:57:38.13	338.47	3.53	-57.3	-74.0	3.6	8.45e-01	0	47	104	1226833920	60	196115
2026-01-28 14:57:40.15	338.62	3.41	-57.3	-74.1	3.6	8.45e-01	0	47	104	1226833920	60	198249
2026-01-28 14:57:42.15	338.77	3.30	-57.1	-74.1	3.6	8.46e-01	0	47	104	1226833920	60	197782
2026-01-28 14:57:44.17	338.92	3.18	-57.1	-74.0	3.6	8.45e-01	0	47	104	1226833920	60	196522
2026-01-28 14:57:46.18	339.06	3.07	-57.1	-74.0	3.6	8.46e-01	0	47	104	1226833920	60	195559
2026-01-28 14:57:48.19	339.21	2.95	-57.0	-74.1	3.6	8.46e-01	0	47	104	1226833920	60	197922
2026-01-28 14:57:50.21	339.35	2.84	-57.0	-74.0	3.6	8.44e-01	0	47	104	1226833920	60	196575
2026-01-28 14:57:52.22	339.50	2.72	-56.9	-74.0	3.6	8.45e-01	0	47	104	1226833920	60	195345
2026-01-28 14:57:54.23	339.64	2.61	-57.1	-73.9	3.6	8.44e-01	0	47	104	1226833920	60	195201
2026-01-28 14:57:56.24	339.78	2.50	-57.0	-74.0	3.6	8.45e-01	0	47	104	1226833920	60	195621
2026-01-28 14:57:58.25	339.92	2.39	-57.0	-73.9	3.6	8.45e-01	0	47	104	1226833920	60	194253
2026-01-28 14:58:00.27	340.06	2.27	-57.0	-73.9	3.6	8.45e-01	0	47	104	1226833920	60	194742
2026-01-28 14:58:02.28	340.20	2.16	-56.9	-73.9	3.6	8.45e-01	0	47	104	1226833920	60	194403
2026-01-28 14:58:04.29	340.34	2.05	-57.0	-73.9	3.6	8.45e-01	0	47	104	1226833920	60	193212
2026-01-28 14:58:06.31	340.47	1.94	-57.0	-74.0	3.6	8.45e-01	0	47	104	1226833920	60	196061
2026-01-28 14:58:08.32	340.61	1.83	-56.9	-74.0	3.5	8.46e-01	0	47	104	1226833920	60	195637
2026-01-28 14:58:10.33	340.74	1.72	-56.9	-73.9	3.6	8.44e-01	0	47	104	1226833920	60	194556
2026-01-28 14:58:12.34	340.88	1.61	-57.0	-73.9	3.6	8.46e-01	0	47	104	1226833920	60	194185
2026-01-28 14:58:14.35	341.01	1.50	-56.9	-73.9	3.6	8.46e-01	0	47	104	1226833920	60	193650
2026-01-28 14:58:16.35	341.14	1.39	-56.9	-73.9	3.6	8.45e-01	0	47	104	1226833920	60	194757
2026-01-28 14:58:18.36	341.27	1.28	-57.0	-74.0	3.6	8.46e-01	0	47	104	1226833920	60	196921
2026-01-28 14:58:20.38	341.40	1.17	-57.0	-74.0	3.6	8.45e-01	0	47	104	1226833920	60	196204
2026-01-28 14:58:22.40	341.53	1.06	-57.0	-73.9	3.6	8.45e-01	0	47	104	1226833920	60	194617
2026-01-28 14:58:24.41	341.66	0.95	-56.9	-73.9	3.6	8.46e-01	0	47	104	1226833920	60	194079
2026-01-28 14:58:26.42	341.79	0.84	-57.0	-73.9	3.6	8.46e-01	0	47	104	1226833920	60	193253
2026-01-28 14:58:28.44	341.91	0.73	-56.9	-73.9	3.6	8.46e-01	0	47	104	1226833920	60	193026
2026-01-28 14:58:30.44	342.04	0.63	-57.1	-73.8	3.6	8.45e-01	0	47	104	1226833920	60	191618
2026-01-28 14:58:32.45	342.16	0.52	-57.1	-73.9	3.6	8.44e-01	0	47	104	1226833920	60	194584
2026-01-28 14:58:34.47	342.29	0.41	-57.1	-73.8	3.6	8.46e-01	0	47	104	1226833920	60	192335
2026-01-28 14:58:36.49	342.41	0.30	-56.9	-73.8	3.6	8.45e-01	0	47	104	1226833920	60	191352
2026-01-28 14:58:38.49	342.53	0.20	-56.9	-73.7	3.6	8.46e-01	0	47	104	1226833920	60	190616
2026-01-28 14:58:40.51	342.65	0.09	-56.8	-73.7	3.6	8.45e-01	0	47	104	1226833920	60	190711

#Closed at: 2026-01-28 14:58:42
#Recorded file [1226 MB]: D:/Data/35015_260128_175611.dat