passes_logs/2026/01/28/R3.2S-Naryan-Mar/R3.2S-Naryan-Mar__20260128_085120_AQUA_rec.log

#Pass ID: 20260128_085120_AQUA
#Satellite: AQUA
#Configuration: AQUA
#almurnet v.1.7.20240730
#Start time: 2026-01-28 08:58:46

#Version: 2.2.20231116
#Station: R3.2S-Naryan-Mar
#Location: 53.008057 lon 67.646978 lat
#TLE: 1 27424U 02022A   26027.63960626  .00001831  00000+0  37607-3 0  9998
#TLE: 2 27424  98.4102 354.2809 0001844  63.7090 108.5242 14.61867354262735

#Time	Az	El	Level	Level2	SNR	BER	BlckErr	Temp	State	Recorded	gain1	gain2
2026-01-28 08:58:46.52	24.94	38.19	-57.4	-76.6	3.5	1.51e+00	0	46	0	0	60	264093
2026-01-28 08:58:48.53	23.98	37.95	-57.1	-78.1	3.5	3.02e+01	0	47	104	0	60	304372
2026-01-28 08:58:50.54	23.04	37.70	-57.2	-78.6	3.5	3.02e+01	0	47	104	0	60	324030
2026-01-28 08:58:52.55	22.11	37.45	-57.7	-78.3	3.5	3.02e+01	0	47	104	0	60	314261
2026-01-28 08:58:54.57	21.19	37.19	-57.0	-78.0	3.5	3.02e+01	0	47	104	0	60	301577
2026-01-28 08:58:56.59	20.28	36.92	-56.8	-77.6	3.5	3.02e+01	0	47	104	0	60	289650
2026-01-28 08:58:58.61	19.39	36.64	-54.5	-77.5	3.5	3.02e+01	0	47	104	0	60	284407
2026-01-28 08:59:00.62	18.52	36.37	-55.8	-77.4	3.5	3.02e+01	0	47	104	0	60	280760
2026-01-28 08:59:02.64	17.67	36.08	-55.8	-77.4	3.5	3.02e+01	0	46	104	0	60	281792
2026-01-28 08:59:04.65	16.83	35.80	-55.8	-77.2	3.5	3.02e+01	0	47	104	0	60	277032
2026-01-28 08:59:06.66	16.00	35.51	-55.8	-77.3	3.5	3.02e+01	0	47	104	0	60	280062
2026-01-28 08:59:08.67	15.19	35.21	-55.7	-77.3	3.5	3.02e+01	0	47	104	0	60	279055
2026-01-28 08:59:10.69	14.40	34.92	-55.7	-77.3	3.5	3.02e+01	0	47	104	0	60	277298
2026-01-28 08:59:12.71	13.62	34.61	-55.7	-77.2	3.5	3.02e+01	0	47	104	0	60	276880
2026-01-28 08:59:14.72	12.85	34.31	-55.7	-77.3	3.5	3.02e+01	0	47	104	0	60	277537
2026-01-28 08:59:16.73	12.10	34.01	-55.7	-77.1	3.5	3.02e+01	0	47	104	0	60	272734
2026-01-28 08:59:18.75	11.36	33.70	-55.7	-77.0	3.5	3.02e+01	0	47	104	0	60	270875
2026-01-28 08:59:20.75	10.65	33.39	-55.7	-77.3	3.5	3.02e+01	0	46	104	0	60	278044
2026-01-28 08:59:22.77	9.94	33.08	-55.6	-77.1	3.5	3.02e+01	0	47	104	0	60	271104
2026-01-28 08:59:24.77	9.25	32.77	-55.6	-77.1	3.5	3.02e+01	0	46	104	0	60	272665
2026-01-28 08:59:26.78	8.57	32.45	-55.6	-77.0	3.5	3.02e+01	0	47	104	0	60	268377
2026-01-28 08:59:28.79	7.90	32.14	-55.6	-77.1	3.5	3.02e+01	0	47	104	0	60	271692
2026-01-28 08:59:30.81	7.25	31.82	-55.6	-76.9	3.5	3.02e+01	0	46	104	0	60	266193
2026-01-28 08:59:32.81	6.61	31.51	-55.6	-77.0	3.5	3.02e+01	0	46	104	0	60	268821
2026-01-28 08:59:34.82	5.99	31.20	-55.6	-77.2	3.5	3.02e+01	0	47	104	0	60	274126
2026-01-28 08:59:36.84	5.37	30.88	-55.5	-75.9	3.5	3.02e+01	0	47	104	0	60	236194
2026-01-28 08:59:38.85	4.77	30.56	-55.5	-76.3	3.5	3.02e+01	0	46	104	0	60	247793
2026-01-28 08:59:40.85	4.18	30.25	-55.3	-70.0	6.5	3.02e+01	0	46	104	0	60	120130
2026-01-28 08:59:42.87	3.60	29.93	-53.8	-59.6	17.1	3.02e+01	0	47	0	3670016	60	36183
2026-01-28 08:59:44.88	3.04	29.62	-48.5	-50.4	25.8	3.02e+01	0	46	0	7340032	60	12626
2026-01-28 08:59:46.89	2.48	29.31	-54.5	-69.3	7.5	3.02e+01	0	47	104	8912896	60	111363
2026-01-28 08:59:48.90	1.94	28.99	-55.0	-64.5	10.4	3.02e+01	0	46	0	3145728	60	63701
2026-01-28 08:59:50.91	1.41	28.68	-53.9	-61.8	16.2	3.02e+01	0	46	0	7340032	60	46940
2026-01-28 08:59:52.92	0.89	28.37	-51.0	-54.5	21.6	3.02e+01	0	46	0	11010048	60	20261
2026-01-28 08:59:54.94	0.38	28.06	-51.1	-54.9	21.7	3.02e+01	0	46	0	14680064	60	21073
2026-01-28 08:59:56.94	359.88	27.76	-50.6	-53.9	22.7	3.02e+01	0	46	0	18350080	60	18799
2026-01-28 08:59:58.95	359.39	27.45	-50.3	-52.9	23.6	3.02e+01	0	46	0	22544384	60	16760
2026-01-28 09:00:00.96	358.91	27.14	-49.2	-51.4	24.8	3.02e+01	0	46	0	26214400	60	14145
2026-01-28 09:00:02.97	358.43	26.84	-48.9	-51.0	25.1	3.02e+01	0	47	0	29884416	60	13523
2026-01-28 09:00:04.98	357.97	26.54	-48.9	-50.9	25.2	3.02e+01	0	46	0	33554432	60	13357
2026-01-28 09:00:06.99	357.52	26.24	-49.2	-51.3	24.8	3.02e+01	0	46	0	37224448	60	13894
2026-01-28 09:00:09.00	357.08	25.94	-49.3	-51.4	24.6	3.02e+01	0	46	0	40894464	60	14200
2026-01-28 09:00:11.00	356.64	25.64	-48.6	-50.8	25.1	3.02e+01	0	46	0	44564480	60	13220
2026-01-28 09:00:13.01	356.22	25.35	-48.5	-50.7	25.1	3.02e+01	0	47	0	48758784	60	12974
2026-01-28 09:00:15.03	355.80	25.05	-48.8	-50.8	24.9	3.02e+01	0	47	0	52428800	60	13224
2026-01-28 09:00:17.03	355.39	24.77	-48.9	-51.0	24.9	3.02e+01	0	47	0	56098816	60	13479
2026-01-28 09:00:19.04	354.99	24.48	-49.1	-51.1	24.9	3.02e+01	0	47	0	59768832	60	13660
2026-01-28 09:00:21.06	354.59	24.19	-49.0	-51.0	24.9	3.02e+01	0	47	0	63963136	60	13423
2026-01-28 09:00:23.07	354.20	23.90	-48.8	-50.7	25.2	3.02e+01	0	47	0	67633152	60	13045
2026-01-28 09:00:25.07	353.82	23.62	-48.8	-50.7	25.2	3.02e+01	0	46	0	71303168	60	13040
2026-01-28 09:00:27.08	353.45	23.34	-48.8	-50.7	25.2	3.02e+01	0	46	0	74973184	60	13041
2026-01-28 09:00:29.09	353.09	23.06	-49.0	-50.9	25.1	3.02e+01	0	46	0	78643200	60	13368
2026-01-28 09:00:31.10	352.73	22.78	-49.0	-51.0	25.0	3.02e+01	0	46	0	82313216	60	13488
2026-01-28 09:00:33.11	352.38	22.51	-48.8	-50.6	25.3	3.02e+01	0	46	0	85983232	60	12894
2026-01-28 09:00:35.12	352.03	22.23	-48.8	-50.5	25.4	3.02e+01	0	46	0	90177536	60	12783
2026-01-28 09:00:37.12	351.69	21.96	-48.7	-50.6	25.3	3.02e+01	0	46	0	93847552	60	12852
2026-01-28 09:00:39.14	351.36	21.69	-48.8	-50.6	25.4	3.02e+01	0	46	0	97517568	60	12872
2026-01-28 09:00:41.15	351.03	21.43	-48.8	-50.7	25.3	3.02e+01	0	46	0	101187584	60	12972
2026-01-28 09:00:43.15	350.71	21.16	-48.8	-50.6	25.3	3.02e+01	0	46	0	105381888	60	12964
2026-01-28 09:00:45.15	350.40	20.90	-48.7	-50.6	25.3	3.02e+01	0	46	0	109051904	60	12872
2026-01-28 09:00:47.16	350.09	20.64	-48.7	-50.7	25.3	3.02e+01	0	46	0	112721920	60	13016
2026-01-28 09:00:49.17	349.79	20.38	-48.7	-50.6	25.4	3.02e+01	0	46	0	116391936	60	12870
2026-01-28 09:00:51.18	349.49	20.13	-48.7	-50.6	25.4	3.02e+01	0	46	0	120061952	60	12836
2026-01-28 09:00:53.19	349.20	19.87	-48.5	-50.6	25.3	3.02e+01	0	46	0	123731968	60	12819
2026-01-28 09:00:55.20	348.91	19.62	-48.4	-50.5	25.3	3.02e+01	0	46	0	127401984	60	12766
2026-01-28 09:00:57.21	348.63	19.37	-48.5	-50.7	25.1	3.02e+01	0	46	0	131596288	60	13026
2026-01-28 09:00:59.20	348.35	19.13	-48.5	-50.5	25.2	3.02e+01	0	46	0	135266304	60	12810
2026-01-28 09:01:01.22	348.08	18.88	-48.4	-50.3	25.4	3.02e+01	0	46	0	138936320	60	12491
2026-01-28 09:01:03.22	347.81	18.64	-48.6	-50.5	25.3	3.02e+01	0	47	0	142606336	60	12687
2026-01-28 09:01:05.22	347.55	18.40	-48.6	-50.5	25.3	3.02e+01	0	46	0	146276352	60	12700
2026-01-28 09:01:07.24	347.29	18.15	-48.7	-50.6	25.2	3.02e+01	0	46	0	149946368	60	12937
2026-01-28 09:01:09.24	347.04	17.92	-48.6	-50.5	25.3	3.02e+01	0	46	0	154140672	60	12694
2026-01-28 09:01:11.25	346.79	17.68	-48.5	-50.4	25.4	3.02e+01	0	46	0	157810688	60	12606
2026-01-28 09:01:13.25	346.54	17.45	-48.8	-50.6	25.1	3.02e+01	0	46	0	161480704	60	12899
2026-01-28 09:01:15.26	346.30	17.22	-49.0	-50.9	24.9	3.02e+01	0	46	0	165150720	60	13299
2026-01-28 09:01:17.27	346.06	16.99	-48.9	-50.7	24.9	3.02e+01	0	46	0	169345024	60	13086
2026-01-28 09:01:19.29	345.83	16.76	-48.6	-50.4	25.0	3.02e+01	0	46	0	173015040	60	12641
2026-01-28 09:01:21.30	345.60	16.53	-48.4	-50.3	25.0	3.02e+01	0	46	0	176685056	60	12481
2026-01-28 09:01:23.31	345.37	16.30	-48.4	-50.3	25.0	3.02e+01	0	46	0	180355072	60	12453
2026-01-28 09:01:25.32	345.15	16.08	-48.7	-50.6	24.6	3.02e+01	0	46	0	184025088	60	12894
2026-01-28 09:01:27.33	344.93	15.86	-48.9	-50.9	24.3	3.02e+01	0	46	0	187695104	60	13362
2026-01-28 09:01:29.34	344.71	15.64	-48.9	-51.0	23.9	3.02e+01	0	47	0	191889408	60	13425
2026-01-28 09:01:31.34	344.50	15.42	-48.8	-51.0	23.7	3.02e+01	0	46	0	195559424	60	13566
2026-01-28 09:01:33.34	344.29	15.21	-48.9	-51.3	23.6	3.02e+01	0	46	0	199229440	60	13933
2026-01-28 09:01:35.35	344.09	15.00	-49.2	-51.6	23.4	3.02e+01	0	46	0	202899456	60	14529
2026-01-28 09:01:37.35	343.89	14.78	-49.4	-51.9	23.0	3.02e+01	0	46	0	206569472	60	14924
2026-01-28 09:01:39.36	343.69	14.57	-49.8	-52.3	22.5	3.02e+01	0	46	0	210763776	60	15657
2026-01-28 09:01:41.38	343.49	14.36	-50.1	-52.6	22.0	3.02e+01	0	46	0	214433792	60	16272
2026-01-28 09:01:43.39	343.30	14.16	-50.4	-53.0	21.8	3.02e+01	0	46	0	218103808	60	16963
2026-01-28 09:01:45.40	343.11	13.95	-50.6	-53.2	21.7	3.02e+01	0	46	0	221773824	60	17390
2026-01-28 09:01:47.41	342.92	13.75	-50.7	-53.4	21.4	3.02e+01	0	46	0	225443840	60	17790
2026-01-28 09:01:49.42	342.74	13.54	-50.8	-53.6	21.2	3.02e+01	0	46	0	229113856	60	18294
2026-01-28 09:01:51.43	342.56	13.34	-50.9	-53.9	20.8	3.02e+01	0	46	0	232783872	60	18938
2026-01-28 09:01:53.44	342.38	13.14	-51.2	-54.6	20.1	3.02e+01	0	46	0	236978176	60	20397
2026-01-28 09:01:55.46	342.20	12.94	-51.3	-54.9	19.6	3.02e+01	0	46	0	240648192	60	21262
2026-01-28 09:01:57.47	342.03	12.75	-51.5	-55.6	18.9	3.02e+01	0	46	0	244318208	60	22871
2026-01-28 09:01:59.48	341.85	12.55	-51.7	-55.9	18.5	3.02e+01	0	46	0	247988224	60	23851
2026-01-28 09:02:01.49	341.69	12.36	-52.1	-56.5	17.7	3.02e+01	0	46	0	252182528	60	25282
2026-01-28 09:02:03.50	341.52	12.17	-52.4	-57.1	17.1	3.02e+01	0	46	0	255852544	60	27181
2026-01-28 09:02:05.51	341.36	11.98	-52.6	-57.5	16.6	3.02e+01	0	46	0	259522560	60	28586
2026-01-28 09:02:07.51	341.20	11.79	-52.9	-58.2	15.9	3.02e+01	0	46	0	263192576	60	30907
2026-01-28 09:02:09.52	341.04	11.60	-53.0	-58.7	15.0	3.02e+01	0	46	0	266862592	60	32656
2026-01-28 09:02:11.52	340.88	11.42	-53.1	-59.6	14.3	3.02e+01	0	46	0	270532608	60	36139
2026-01-28 09:02:13.53	340.73	11.23	-53.1	-60.1	13.4	3.02e+01	0	47	0	274726912	60	38322
2026-01-28 09:02:15.54	340.58	11.05	-53.2	-60.7	12.7	3.02e+01	0	46	0	278396928	60	41390
2026-01-28 09:02:17.55	340.42	10.86	-53.1	-61.5	12.0	3.02e+01	0	46	0	282066944	60	45464
2026-01-28 09:02:19.57	340.28	10.68	-53.1	-62.2	11.4	3.02e+01	0	46	0	285736960	60	48904
2026-01-28 09:02:21.58	340.13	10.50	-53.0	-63.0	10.4	3.02e+01	0	46	0	289406976	60	53658
2026-01-28 09:02:23.59	339.99	10.32	-52.7	-63.7	9.5	3.02e+01	0	46	0	293601280	60	58507
2026-01-28 09:02:25.60	339.84	10.15	-52.3	-64.4	8.8	3.02e+01	0	47	0	297271296	60	63475
2026-01-28 09:02:27.61	339.70	9.97	-51.8	-65.3	7.8	3.02e+01	0	46	0	300941312	60	70295
2026-01-28 09:02:29.62	339.57	9.80	-51.3	-65.9	6.9	3.02e+01	0	46	0	304611328	60	75253
2026-01-28 09:02:31.63	339.43	9.62	-50.8	-66.8	6.2	3.02e+01	0	46	0	308281344	60	83071
2026-01-28 09:02:33.63	339.30	9.45	-50.3	-68.7	5.6	3.02e+01	0	46	104	310378496	60	103228
2026-01-28 09:02:35.64	339.16	9.28	-50.1	-69.5	3.8	3.02e+01	0	46	104	310378496	60	113446
2026-01-28 09:02:37.65	339.03	9.11	-50.0	-70.4	3.7	3.02e+01	0	47	104	310378496	60	126562
2026-01-28 09:02:39.66	338.90	8.94	-49.4	-72.0	3.8	3.02e+01	0	46	104	310378496	60	150744
2026-01-28 09:02:41.67	338.78	8.77	-48.7	-73.3	3.6	3.02e+01	0	46	104	310378496	60	175809
2026-01-28 09:02:43.68	338.65	8.61	-50.4	-73.4	3.6	3.02e+01	0	46	104	310378496	60	177312
2026-01-28 09:02:45.69	338.53	8.44	-50.3	-71.8	3.9	3.02e+01	0	46	104	310378496	60	147577
2026-01-28 09:02:47.70	338.40	8.28	-50.3	-73.2	3.5	3.02e+01	0	47	104	310378496	60	174681
2026-01-28 09:02:49.72	338.28	8.11	-50.1	-74.3	3.5	3.02e+01	0	46	104	310378496	60	197247
2026-01-28 09:02:51.73	338.16	7.95	-50.7	-74.4	3.5	3.02e+01	0	46	104	310378496	60	200767
2026-01-28 09:02:53.73	338.05	7.79	-50.8	-74.5	3.5	3.02e+01	0	47	104	310378496	60	201781
2026-01-28 09:02:55.74	337.93	7.63	-50.4	-74.6	3.5	3.02e+01	0	47	104	310378496	60	204739
2026-01-28 09:02:57.75	337.81	7.47	-51.9	-74.5	3.5	3.02e+01	0	47	104	310378496	60	202737
2026-01-28 09:02:59.76	337.70	7.31	-51.2	-74.7	3.5	3.02e+01	0	47	104	310378496	60	206543
2026-01-28 09:03:01.78	337.59	7.15	-52.2	-74.4	3.5	3.02e+01	0	47	104	310378496	60	200325
2026-01-28 09:03:03.78	337.48	7.00	-51.8	-74.6	3.5	3.02e+01	0	47	104	310378496	60	204485
2026-01-28 09:03:05.80	337.37	6.84	-52.1	-74.4	3.5	3.02e+01	0	46	104	310378496	60	199622
2026-01-28 09:03:07.82	337.26	6.69	-52.0	-74.4	3.5	3.02e+01	0	47	104	310378496	60	200315
2026-01-28 09:03:09.83	337.15	6.53	-52.8	-74.2	3.5	3.02e+01	0	47	104	310378496	60	194492
2026-01-28 09:03:11.85	337.05	6.38	-53.6	-74.2	3.5	3.02e+01	0	47	104	310378496	60	196181
2026-01-28 09:03:13.86	336.94	6.23	-52.4	-73.6	3.5	3.02e+01	0	47	104	310378496	60	181100
2026-01-28 09:03:15.87	336.84	6.08	-51.9	-73.1	3.5	3.02e+01	0	46	104	310378496	60	171174
2026-01-28 09:03:17.87	336.74	5.93	-52.4	-74.8	3.5	3.02e+01	0	47	104	310378496	60	207957
2026-01-28 09:03:19.88	336.64	5.78	-55.1	-76.1	3.5	3.02e+01	0	47	104	310378496	60	241907
2026-01-28 09:03:21.90	336.54	5.63	-54.6	-75.6	3.6	3.02e+01	0	47	104	310378496	60	229063
2026-01-28 09:03:23.91	336.44	5.48	-55.8	-76.5	3.5	3.02e+01	0	47	104	310378496	60	253321
2026-01-28 09:03:25.92	336.35	5.34	-56.2	-77.0	3.5	3.02e+01	0	47	104	310378496	60	268577
2026-01-28 09:03:27.93	336.25	5.19	-56.3	-77.0	3.5	3.02e+01	0	47	104	310378496	60	268901
2026-01-28 09:03:29.93	336.16	5.05	-56.0	-77.3	3.5	3.02e+01	0	47	104	310378496	60	278550
2026-01-28 09:03:31.94	336.06	4.90	-56.6	-77.5	3.5	3.02e+01	0	47	104	310378496	60	285927
2026-01-28 09:03:33.94	335.97	4.76	-55.3	-78.1	3.5	3.02e+01	0	47	104	310378496	60	304287
2026-01-28 09:03:35.95	335.88	4.62	-56.4	-78.3	3.5	3.02e+01	0	47	104	310378496	60	313284
2026-01-28 09:03:37.97	335.79	4.47	-56.4	-78.4	3.5	3.02e+01	0	47	104	310378496	60	315528
2026-01-28 09:03:39.98	335.70	4.33	-56.3	-78.3	3.5	3.02e+01	0	47	104	310378496	60	312250
2026-01-28 09:03:41.98	335.61	4.19	-56.3	-78.3	3.5	3.02e+01	0	46	104	310378496	60	311927
2026-01-28 09:03:43.99	335.53	4.05	-56.2	-78.2	3.5	3.02e+01	0	47	104	310378496	60	310752
2026-01-28 09:03:46.00	335.44	3.92	-56.2	-78.3	3.5	3.02e+01	0	47	104	310378496	60	311085
2026-01-28 09:03:48.00	335.36	3.78	-56.2	-78.2	3.5	3.02e+01	0	47	104	310378496	60	310040
2026-01-28 09:03:50.01	335.27	3.64	-56.2	-78.1	3.6	3.02e+01	0	47	104	310378496	60	304811
2026-01-28 09:03:52.02	335.19	3.50	-56.2	-78.1	3.5	3.02e+01	0	46	104	310378496	60	307336
2026-01-28 09:03:54.03	335.11	3.37	-56.1	-78.1	3.5	3.02e+01	0	47	104	310378496	60	305544
2026-01-28 09:03:56.03	335.03	3.23	-56.1	-78.1	3.5	3.02e+01	0	46	104	310378496	60	307326
2026-01-28 09:03:58.05	334.94	3.10	-56.2	-78.1	3.5	3.02e+01	0	47	104	310378496	60	306221
2026-01-28 09:04:00.05	334.87	2.96	-56.1	-78.2	3.5	3.02e+01	0	47	104	310378496	60	307630
2026-01-28 09:04:02.06	334.79	2.83	-56.1	-78.1	3.5	3.02e+01	0	47	104	310378496	60	305400
2026-01-28 09:04:04.06	334.71	2.70	-56.1	-78.1	3.5	3.02e+01	0	47	104	310378496	60	304959
2026-01-28 09:04:06.07	334.63	2.57	-56.1	-78.1	3.5	3.02e+01	0	47	104	310378496	60	304168
2026-01-28 09:04:08.08	334.56	2.44	-56.1	-78.0	3.5	3.02e+01	0	47	104	310378496	60	302574
2026-01-28 09:04:10.09	334.48	2.31	-56.1	-78.0	3.5	3.02e+01	0	47	104	310378496	60	301226
2026-01-28 09:04:12.10	334.41	2.17	-56.1	-78.0	3.5	3.02e+01	0	47	104	310378496	60	302679
2026-01-28 09:04:14.11	334.33	2.05	-56.0	-78.0	3.5	3.02e+01	0	47	104	310378496	60	303734
2026-01-28 09:04:16.13	334.26	1.92	-56.0	-78.1	3.5	3.02e+01	0	47	104	310378496	60	304829
2026-01-28 09:04:18.14	334.19	1.79	-56.1	-78.1	3.5	3.02e+01	0	47	104	310378496	60	306169
2026-01-28 09:04:20.15	334.11	1.66	-56.1	-78.0	3.5	3.02e+01	0	47	104	310378496	60	301844
2026-01-28 09:04:22.16	334.04	1.53	-56.0	-78.0	3.6	3.02e+01	0	47	104	310378496	60	302141
2026-01-28 09:04:24.17	333.97	1.41	-56.0	-77.9	3.5	3.02e+01	0	47	104	310378496	60	299370
2026-01-28 09:04:26.17	333.91	1.28	-56.0	-78.0	3.5	3.02e+01	0	47	104	310378496	60	301882
2026-01-28 09:04:28.17	333.84	1.16	-56.0	-78.0	3.5	3.02e+01	0	47	104	310378496	60	302375
2026-01-28 09:04:30.17	333.77	1.03	-56.0	-77.9	3.5	3.02e+01	0	47	104	310378496	60	299650
2026-01-28 09:04:32.18	333.70	0.91	-56.0	-78.0	3.5	3.02e+01	0	47	104	310378496	60	300541
2026-01-28 09:04:34.18	333.64	0.78	-55.9	-77.9	3.5	3.02e+01	0	47	104	310378496	60	298151
2026-01-28 09:04:36.17	333.57	0.66	-55.9	-77.8	3.5	3.02e+01	0	47	104	310378496	60	295833
2026-01-28 09:04:38.18	333.51	0.54	-55.8	-77.9	3.5	3.02e+01	0	47	104	310378496	60	298096
2026-01-28 09:04:40.19	333.44	0.42	-55.9	-77.9	3.5	3.02e+01	0	47	104	310378496	60	298600
2026-01-28 09:04:42.21	333.38	0.29	-55.8	-77.9	3.5	3.02e+01	0	47	104	310378496	60	299950
2026-01-28 09:04:44.22	333.31	0.17	-55.7	-77.8	3.5	3.02e+01	0	47	104	310378496	60	296316
2026-01-28 09:04:46.23	333.25	0.05	-55.7	-77.8	3.5	3.02e+01	0	46	104	310378496	60	294232
2026-01-28 09:04:48.25	333.19	-0.07	-55.8	-77.8	3.5	3.02e+01	0	47	104	310378496	60	295778

#Closed at: 2026-01-28 09:04:48
#Recorded file [310 MB]: D:/Data/35015_260128_120235.dat