passes_logs/2026/01/22/R2M6_AANII_01/R2M6_AANII_01__20260122_015444_NOAA_21_JPSS-2_rec.log

#Pass ID: 20260122_015444_NOAA 21 (JPSS-2)
#Satellite: NOAA 21 (JPSS-2)
#Configuration: NOAA 21
#almurnet v.1.7.20240730
#Start time: 2026-01-22 01:54:45

#Version: 2.2.20231116
#Station: R2M6_AANII_01
#Location: 30.233357 lon 59.946436 lat
#TLE: 1 54234U 22150A   26020.93347024  .00000206  00000+0  11859-3 0  9994
#TLE: 2 54234  98.7506 321.7615 0000627 245.8100 114.3011 14.19536899165654

#Time	Az	El	Level	Level2	SNR	BER	BlckErr	Temp	State	Recorded	gain1	gain2
2026-01-22 01:54:45.74	11.46	7.06	-31.8	-38.2	4.3	1.44e+00	0	44	0	0	23	7570
2026-01-22 01:54:48.76	11.23	7.27	-31.4	-36.4	7.7	9.05e-02	0	44	0	3145728	22	6415
2026-01-22 01:54:51.76	11.00	7.47	-31.6	-36.7	7.1	1.35e-01	0	44	0	12582912	23	6468
2026-01-22 01:54:54.77	10.76	7.68	-30.8	-34.2	9.3	2.25e-02	0	44	0	22020096	22	5360
2026-01-22 01:54:57.77	10.52	7.89	-29.7	-32.2	11.3	1.43e-03	0	44	0	30408704	20	4798
2026-01-22 01:55:00.78	10.28	8.10	-29.0	-30.7	12.8	6.10e-05	0	44	0	39845888	19	4406
2026-01-22 01:55:03.78	10.04	8.31	-28.8	-31.4	13.0	4.19e-05	0	44	0	49283072	17	4832
2026-01-22 01:55:06.80	9.79	8.52	-28.8	-31.3	13.1	4.34e-05	0	44	0	58720256	17	4798
2026-01-22 01:55:09.81	9.53	8.74	-28.7	-31.2	13.2	4.50e-05	0	44	0	68157440	17	4753
2026-01-22 01:55:12.81	9.28	8.95	-28.9	-31.0	13.0	5.34e-05	0	44	0	77594624	18	4598
2026-01-22 01:55:15.82	9.01	9.17	-28.6	-30.8	13.4	1.90e-05	0	44	0	87031808	17	4643
2026-01-22 01:55:18.81	8.75	9.39	-28.6	-30.7	13.5	9.10e-06	0	44	0	96468992	17	4607
2026-01-22 01:55:21.83	8.48	9.61	-28.5	-30.6	13.6	8.30e-06	0	44	0	105906176	17	4559
2026-01-22 01:55:24.84	8.21	9.83	-28.4	-30.4	13.7	5.30e-06	0	44	0	115343360	17	4495
2026-01-22 01:55:27.85	7.93	10.05	-28.4	-30.2	13.8	7.60e-06	0	44	0	124780544	17	4453
2026-01-22 01:55:30.85	7.65	10.27	-28.3	-30.1	13.9	4.50e-06	0	44	0	134217728	17	4415
2026-01-22 01:55:33.86	7.36	10.50	-28.4	-30.3	13.8	1.50e-06	0	44	0	143654912	17	4460
2026-01-22 01:55:36.88	7.07	10.72	-28.4	-30.3	13.8	4.50e-06	0	44	0	153092096	17	4474
2026-01-22 01:55:39.88	6.77	10.95	-28.3	-30.0	14.0	4.50e-06	0	44	0	162529280	17	4387
2026-01-22 01:55:42.88	6.47	11.18	-28.3	-29.9	14.1	3.80e-06	0	44	0	171966464	17	4349
2026-01-22 01:55:45.87	6.17	11.40	-28.4	-30.3	13.8	5.30e-06	0	44	0	181403648	17	4470
2026-01-22 01:55:48.87	5.86	11.63	-28.2	-30.3	14.1	0.00e+00	0	44	0	190840832	16	4567
2026-01-22 01:55:51.87	5.54	11.87	-28.3	-30.6	13.9	3.00e-06	0	44	0	200278016	16	4685
2026-01-22 01:55:54.86	5.22	12.10	-28.3	-30.6	14.0	7.00e-07	0	44	0	209715200	16	4669
2026-01-22 01:55:57.85	4.90	12.33	-28.3	-30.4	14.1	1.50e-06	0	44	0	219152384	16	4613
2026-01-22 01:56:00.85	4.56	12.57	-28.2	-30.2	14.3	3.00e-06	0	44	0	228589568	16	4537
2026-01-22 01:56:03.83	4.23	12.80	-28.0	-29.8	14.5	0.00e+00	0	45	0	236978176	16	4441
2026-01-22 01:56:06.83	3.89	13.04	-27.9	-29.6	14.7	7.00e-07	0	44	0	246415360	16	4353
2026-01-22 01:56:09.83	3.54	13.28	-28.0	-29.9	14.5	7.00e-07	0	44	0	255852544	16	4445
2026-01-22 01:56:12.84	3.18	13.52	-28.1	-30.0	14.4	0.00e+00	0	44	0	265289728	16	4484
2026-01-22 01:56:15.85	2.82	13.77	-28.0	-29.9	14.5	0.00e+00	0	44	0	274726912	16	4444
2026-01-22 01:56:18.86	2.46	14.01	-28.0	-29.9	14.5	0.00e+00	0	44	0	284164096	16	4443
2026-01-22 01:56:21.87	2.08	14.25	-28.0	-29.8	14.6	0.00e+00	0	44	0	293601280	16	4417
2026-01-22 01:56:24.88	1.70	14.50	-28.2	-30.2	14.4	7.00e-07	0	44	0	303038464	16	4529
2026-01-22 01:56:27.90	1.31	14.75	-28.0	-29.8	14.6	0.00e+00	0	45	0	312475648	16	4420
2026-01-22 01:56:30.91	0.92	15.00	-28.2	-30.3	14.4	7.00e-07	0	45	0	321912832	16	4552
2026-01-22 01:56:33.92	0.52	15.25	-27.9	-29.5	14.8	0.00e+00	0	45	0	331350016	16	4323
2026-01-22 01:56:36.93	0.11	15.50	-27.8	-29.8	14.7	7.00e-07	0	45	0	340787200	15	4544
2026-01-22 01:56:39.95	359.70	15.75	-27.8	-29.8	14.8	0.00e+00	0	45	0	350224384	15	4535
2026-01-22 01:56:42.95	359.28	16.01	-28.0	-30.2	14.6	0.00e+00	0	45	0	359661568	15	4667
2026-01-22 01:56:45.96	358.85	16.26	-28.2	-30.2	14.4	2.20e-06	0	45	0	369098752	16	4540
2026-01-22 01:56:48.96	358.42	16.52	-28.1	-29.9	14.6	0.00e+00	0	45	0	378535936	16	4443
2026-01-22 01:56:51.97	357.97	16.77	-27.7	-29.6	15.0	0.00e+00	0	45	0	387973120	15	4473
2026-01-22 01:56:54.99	357.52	17.03	-27.7	-29.5	15.0	0.00e+00	0	45	0	397410304	15	4446
2026-01-22 01:56:57.99	357.06	17.29	-27.9	-30.0	14.7	0.00e+00	0	45	0	406847488	15	4602
2026-01-22 01:57:01.01	356.59	17.55	-27.9	-29.9	13.9	7.00e-07	0	45	0	416284672	15	4565
2026-01-22 01:57:04.03	356.11	17.81	-27.8	-29.7	14.8	0.00e+00	0	45	0	425721856	15	4488
2026-01-22 01:57:07.03	355.63	18.07	-27.6	-29.3	15.2	2.22e-03	0	45	0	435159040	15	4393
2026-01-22 01:57:10.04	355.14	18.33	-27.7	-29.5	15.1	0.00e+00	0	45	0	444596224	15	4451
2026-01-22 01:57:13.03	354.64	18.59	-27.6	-29.3	15.2	0.00e+00	0	45	0	454033408	15	4390
2026-01-22 01:57:16.04	354.13	18.85	-27.7	-29.5	15.1	0.00e+00	0	45	0	463470592	15	4439
2026-01-22 01:57:19.05	353.61	19.11	-27.5	-29.6	15.3	0.00e+00	0	45	0	472907776	14	4566
2026-01-22 01:57:22.06	353.08	19.37	-27.5	-29.5	15.4	1.84e-03	0	45	0	482344960	14	4545
2026-01-22 01:57:25.07	352.54	19.64	-27.5	-29.5	15.4	0.00e+00	0	45	0	490733568	14	4545
2026-01-22 01:57:28.07	352.00	19.90	-27.3	-29.1	15.6	1.53e-03	0	45	0	500170752	14	4447
2026-01-22 01:57:31.08	351.44	20.16	-27.4	-29.3	15.6	1.08e-03	0	45	0	509607936	14	4483
2026-01-22 01:57:34.09	350.87	20.42	-27.4	-29.3	15.5	5.15e-04	0	45	0	519045120	14	4505
2026-01-22 01:57:37.10	350.29	20.68	-27.3	-29.1	15.7	4.60e-04	0	45	0	528482304	14	4445
2026-01-22 01:57:40.12	349.71	20.95	-27.9	-30.1	14.8	6.81e-04	0	45	0	537919488	15	4613
2026-01-22 01:57:43.12	349.11	21.21	-28.1	-30.0	14.8	5.04e-04	0	45	0	547356672	16	4452
2026-01-22 01:57:46.13	348.50	21.47	-28.0	-29.8	14.9	0.00e+00	0	45	0	556793856	16	4396
2026-01-22 01:57:49.14	347.88	21.73	-27.6	-28.8	15.5	8.69e-05	0	45	0	566231040	16	4129
2026-01-22 01:57:52.16	347.25	21.99	-27.0	-28.0	16.1	0.00e+00	0	45	0	575668224	15	4014
2026-01-22 01:57:55.16	346.62	22.24	-27.0	-27.9	16.1	0.00e+00	0	45	0	585105408	15	4010
2026-01-22 01:57:58.17	345.97	22.50	-27.0	-27.9	16.1	0.00e+00	0	45	0	594542592	15	4007
2026-01-22 01:58:01.16	345.31	22.75	-27.0	-28.0	16.1	0.00e+00	0	45	0	603979776	15	4020
2026-01-22 01:58:04.18	344.64	23.01	-26.9	-27.8	16.2	0.00e+00	0	44	0	613416960	15	3971
2026-01-22 01:58:07.19	343.95	23.26	-27.3	-28.5	15.8	0.00e+00	0	45	0	622854144	15	4164
2026-01-22 01:58:10.21	343.26	23.51	-27.2	-28.3	15.9	0.00e+00	0	45	0	632291328	15	4105
2026-01-22 01:58:13.21	342.55	23.75	-27.0	-27.9	16.1	0.00e+00	0	45	0	641728512	15	4011
2026-01-22 01:58:16.21	341.84	24.00	-27.0	-27.8	16.2	0.00e+00	0	45	0	651165696	15	3983
2026-01-22 01:58:19.22	341.11	24.24	-26.9	-28.3	16.2	0.00e+00	0	45	0	660602880	14	4200
2026-01-22 01:58:22.23	340.37	24.48	-26.9	-28.3	16.2	0.00e+00	0	45	0	670040064	14	4214
2026-01-22 01:58:25.24	339.62	24.71	-27.2	-28.9	15.9	0.00e+00	0	45	0	679477248	14	4370
2026-01-22 01:58:28.25	338.86	24.94	-27.2	-28.9	15.9	0.00e+00	0	45	0	688914432	14	4365
2026-01-22 01:58:31.25	338.09	25.17	-27.4	-29.3	15.7	0.00e+00	0	44	0	698351616	14	4476
2026-01-22 01:58:34.25	337.30	25.40	-27.3	-29.2	15.7	0.00e+00	0	45	0	707788800	14	4459
2026-01-22 01:58:37.26	336.51	25.62	-27.4	-29.4	15.6	0.00e+00	0	45	0	717225984	14	4518
2026-01-22 01:58:40.27	335.70	25.83	-27.2	-29.0	15.8	0.00e+00	0	44	0	726663168	14	4399
2026-01-22 01:58:43.28	334.88	26.04	-27.2	-28.9	15.9	0.00e+00	0	45	0	736100352	14	4356
2026-01-22 01:58:46.28	334.06	26.25	-27.4	-29.4	15.6	0.00e+00	0	45	0	744488960	14	4512
2026-01-22 01:58:49.28	333.22	26.45	-27.5	-29.0	15.6	0.00e+00	0	45	0	753926144	15	4285
2026-01-22 01:58:52.29	332.37	26.65	-27.7	-29.5	15.3	0.00e+00	0	45	0	763363328	15	4417
2026-01-22 01:58:55.30	331.51	26.84	-27.4	-29.4	15.6	0.00e+00	0	45	0	772800512	14	4508
2026-01-22 01:58:58.31	330.63	27.02	-27.2	-29.0	15.8	0.00e+00	0	45	0	782237696	14	4386
2026-01-22 01:59:01.33	329.75	27.20	-27.3	-28.7	15.8	0.00e+00	0	45	0	791674880	15	4199
2026-01-22 01:59:04.33	328.86	27.37	-27.1	-28.3	16.0	0.00e+00	0	45	0	801112064	15	4094
2026-01-22 01:59:07.34	327.96	27.54	-27.1	-28.1	16.1	0.00e+00	0	45	0	810549248	15	4038
2026-01-22 01:59:10.35	327.05	27.70	-27.1	-28.7	16.0	0.00e+00	0	45	0	819986432	14	4319
2026-01-22 01:59:13.35	326.13	27.85	-27.2	-28.9	15.9	0.00e+00	0	45	0	829423616	14	4361
2026-01-22 01:59:16.37	325.20	27.99	-27.2	-28.9	14.9	0.00e+00	0	45	0	838860800	14	4386
2026-01-22 01:59:19.38	324.26	28.13	-27.2	-28.8	15.9	0.00e+00	0	45	0	848297984	14	4338
2026-01-22 01:59:22.38	323.32	28.25	-27.1	-28.7	16.0	0.00e+00	0	45	0	857735168	14	4308
2026-01-22 01:59:25.39	322.37	28.37	-27.4	-29.2	15.7	0.00e+00	0	45	0	867172352	14	4463
2026-01-22 01:59:28.40	321.41	28.48	-27.7	-29.6	15.3	7.76e-04	0	45	0	876609536	15	4450
2026-01-22 01:59:31.40	320.45	28.59	-27.6	-29.3	15.4	0.00e+00	0	45	0	886046720	15	4361
2026-01-22 01:59:34.42	319.47	28.68	-28.0	-29.6	15.1	5.16e-04	0	45	0	895483904	16	4336
2026-01-22 01:59:37.42	318.50	28.76	-27.6	-29.2	15.5	0.00e+00	0	45	0	904921088	15	4335
2026-01-22 01:59:40.43	317.52	28.84	-27.8	-29.6	15.2	1.16e-03	0	45	0	914358272	15	4468
2026-01-22 01:59:43.44	316.53	28.91	-27.7	-29.5	15.3	1.16e-03	0	45	0	923795456	15	4416
2026-01-22 01:59:46.44	315.55	28.96	-27.6	-29.3	15.5	6.04e-04	0	45	0	933232640	15	4358
2026-01-22 01:59:49.45	314.55	29.01	-27.4	-28.9	15.6	1.52e-05	0	45	0	942669824	15	4255
2026-01-22 01:59:52.45	313.56	29.05	-27.4	-28.9	15.6	6.86e-05	0	45	0	952107008	15	4261
2026-01-22 01:59:55.45	312.56	29.08	-27.4	-29.3	15.7	3.43e-04	0	45	0	961544192	14	4473
2026-01-22 01:59:58.45	311.57	29.10	-27.1	-28.6	16.1	0.00e+00	0	45	0	970981376	14	4283
2026-01-22 02:00:01.47	310.56	29.11	-27.5	-29.5	15.6	4.85e-04	0	45	0	980418560	14	4533
2026-01-22 02:00:04.48	309.56	29.10	-27.5	-29.0	15.5	4.92e-04	0	45	0	989855744	15	4299
2026-01-22 02:00:07.51	308.56	29.09	-27.4	-28.9	15.6	5.61e-04	0	45	0	999292928	15	4251
2026-01-22 02:00:10.51	307.56	29.07	-27.3	-29.1	15.8	0.00e+00	0	45	0	1008730112	14	4440
2026-01-22 02:00:13.50	306.57	29.04	-27.6	-29.3	15.4	0.00e+00	0	44	0	1017118720	15	4365
2026-01-22 02:00:16.50	305.57	29.00	-27.3	-29.1	15.8	2.22e-03	0	45	0	1026555904	14	4416
2026-01-22 02:00:19.52	304.58	28.96	-27.6	-29.2	15.5	0.00e+00	0	45	0	1035993088	15	4349
2026-01-22 02:00:22.52	303.59	28.90	-27.5	-29.0	15.6	0.00e+00	0	45	0	1045430272	15	4279
2026-01-22 02:00:25.53	302.60	28.83	-27.5	-29.1	15.6	0.00e+00	0	45	0	1054867456	15	4307
2026-01-22 02:00:28.53	301.62	28.75	-27.4	-28.8	15.6	0.00e+00	0	45	0	1064304640	15	4239
2026-01-22 02:00:31.54	300.65	28.67	-27.0	-27.9	16.1	0.00e+00	0	44	0	1073741824	15	3996
2026-01-22 02:00:34.54	299.68	28.57	-27.4	-28.7	15.7	0.00e+00	0	45	0	1083179008	15	4217
2026-01-22 02:00:37.55	298.71	28.47	-27.4	-28.8	15.7	0.00e+00	0	45	0	1092616192	15	4235
2026-01-22 02:00:40.57	297.75	28.35	-27.5	-29.2	15.4	0.00e+00	0	44	0	1102053376	15	4341
2026-01-22 02:00:43.58	296.80	28.23	-27.5	-29.1	15.5	0.00e+00	0	45	0	1111490560	15	4308
2026-01-22 02:00:46.59	295.85	28.10	-27.6	-29.3	15.3	7.00e-07	0	45	0	1120927744	15	4381
2026-01-22 02:00:49.61	294.91	27.96	-27.9	-29.3	15.2	0.00e+00	0	45	0	1130364928	16	4271
2026-01-22 02:00:52.62	293.98	27.82	-27.3	-29.0	15.8	7.00e-07	0	45	0	1139802112	14	4415
2026-01-22 02:00:55.63	293.06	27.67	-27.6	-29.3	15.3	7.00e-07	0	45	0	1149239296	15	4376
2026-01-22 02:00:58.64	292.15	27.51	-27.6	-29.4	15.3	0.00e+00	0	45	0	1158676480	15	4400
2026-01-22 02:01:01.65	291.25	27.34	-27.5	-29.1	15.4	0.00e+00	0	45	0	1168113664	15	4323
2026-01-22 02:01:04.67	290.36	27.17	-27.3	-28.6	15.7	0.00e+00	0	45	0	1177550848	15	4174
2026-01-22 02:01:07.67	289.48	26.99	-27.4	-28.9	15.5	0.00e+00	0	45	0	1186988032	15	4254
2026-01-22 02:01:10.67	288.61	26.80	-27.7	-29.5	15.2	0.00e+00	0	45	0	1196425216	15	4447
2026-01-22 02:01:13.67	287.75	26.61	-27.5	-29.0	15.4	0.00e+00	0	45	0	1205862400	15	4291
2026-01-22 02:01:16.67	286.90	26.41	-27.4	-28.8	15.6	0.00e+00	0	45	0	1215299584	15	4233
2026-01-22 02:01:19.68	286.06	26.21	-27.1	-28.1	15.9	0.00e+00	0	45	0	1224736768	15	4068
2026-01-22 02:01:22.68	285.23	26.00	-26.8	-28.1	16.2	0.00e+00	0	45	0	1234173952	14	4153
2026-01-22 02:01:25.68	284.41	25.79	-27.4	-29.3	15.5	0.00e+00	0	45	0	1242562560	14	4491
2026-01-22 02:01:28.70	283.60	25.57	-27.5	-29.1	15.3	0.00e+00	0	45	0	1253048320	15	4325
2026-01-22 02:01:31.71	282.81	25.35	-27.1	-28.6	15.9	0.00e+00	0	45	0	1262485504	14	4306
2026-01-22 02:01:34.71	282.02	25.12	-27.3	-29.0	15.6	0.00e+00	0	45	0	1270874112	14	4417
2026-01-22 02:01:37.71	281.25	24.90	-27.2	-29.0	15.7	0.00e+00	0	45	0	1280311296	14	4398
2026-01-22 02:01:40.72	280.49	24.66	-26.9	-28.2	16.1	0.00e+00	0	45	0	1289748480	14	4185
2026-01-22 02:01:43.74	279.73	24.42	-27.2	-28.9	15.7	0.00e+00	0	45	0	1299185664	14	4365
2026-01-22 02:01:46.74	278.99	24.18	-27.8	-29.8	14.9	0.00e+00	0	45	0	1308622848	15	4526
2026-01-22 02:01:49.75	278.27	23.94	-27.1	-28.2	15.8	0.00e+00	0	45	0	1318060032	15	4081
2026-01-22 02:01:52.76	277.55	23.70	-27.0	-27.9	15.9	0.00e+00	0	45	0	1327497216	15	4010
2026-01-22 02:01:55.77	276.84	23.45	-27.1	-28.8	15.8	0.00e+00	0	45	0	1336934400	14	4341
2026-01-22 02:01:58.79	276.14	23.20	-27.2	-28.9	15.6	0.00e+00	0	45	0	1346371584	14	4392
2026-01-22 02:02:01.80	275.46	22.94	-26.8	-28.1	16.1	0.00e+00	0	45	0	1355808768	14	4166
2026-01-22 02:02:04.81	274.79	22.69	-26.8	-28.1	16.1	0.00e+00	0	45	0	1365245952	14	4175
2026-01-22 02:02:07.82	274.12	22.43	-27.2	-28.9	15.7	0.00e+00	0	45	0	1374683136	14	4383
2026-01-22 02:02:10.83	273.47	22.18	-27.0	-28.5	15.9	0.00e+00	0	45	0	1384120320	14	4273
2026-01-22 02:02:13.83	272.84	21.92	-26.8	-28.5	16.1	0.00e+00	0	45	0	1393557504	13	4395
2026-01-22 02:02:16.84	272.21	21.66	-27.1	-28.6	15.8	0.00e+00	0	45	0	1402994688	14	4317
2026-01-22 02:02:19.85	271.59	21.40	-27.4	-29.3	15.4	0.00e+00	0	45	0	1412431872	14	4510
2026-01-22 02:02:22.86	270.98	21.14	-27.2	-28.9	15.6	7.00e-07	0	45	0	1421869056	14	4400
2026-01-22 02:02:25.87	270.38	20.87	-27.1	-28.8	15.7	0.00e+00	0	45	0	1431306240	14	4358
2026-01-22 02:02:28.87	269.79	20.61	-27.3	-29.2	15.4	0.00e+00	0	45	0	1440743424	14	4488
2026-01-22 02:02:31.87	269.22	20.35	-27.9	-30.1	14.6	0.00e+00	0	45	0	1450180608	15	4645
2026-01-22 02:02:34.88	268.65	20.09	-27.2	-28.5	15.4	0.00e+00	0	45	0	1459617792	15	4182
2026-01-22 02:02:37.90	268.09	19.82	-27.0	-28.4	15.8	7.00e-07	0	45	0	1469054976	14	4261
2026-01-22 02:02:40.90	267.54	19.56	-27.1	-28.6	15.7	0.00e+00	0	45	0	1478492160	14	4319
2026-01-22 02:02:43.92	267.00	19.29	-27.1	-28.8	15.6	0.00e+00	0	45	0	1487929344	14	4370
2026-01-22 02:02:46.92	266.47	19.03	-27.0	-28.5	15.7	0.00e+00	0	45	0	1497366528	14	4288
2026-01-22 02:02:49.93	265.95	18.77	-26.8	-28.0	16.0	0.00e+00	0	45	0	1506803712	14	4134
2026-01-22 02:02:52.93	265.44	18.51	-26.9	-28.8	15.8	0.00e+00	0	45	0	1516240896	13	4477
2026-01-22 02:02:55.94	264.94	18.24	-26.9	-28.7	15.9	0.00e+00	0	45	0	1524629504	13	4448
2026-01-22 02:02:58.94	264.45	17.98	-27.3	-29.3	15.3	0.00e+00	0	45	0	1534066688	14	4507
2026-01-22 02:03:01.93	263.96	17.72	-27.2	-28.9	15.4	0.00e+00	0	45	0	1543503872	14	4407
2026-01-22 02:03:04.95	263.48	17.46	-27.2	-29.0	15.4	0.00e+00	0	45	0	1552941056	14	4431
2026-01-22 02:03:07.95	263.02	17.20	-27.3	-29.3	15.2	0.00e+00	0	45	0	1562378240	14	4513
2026-01-22 02:03:10.96	262.55	16.95	-27.4	-29.4	15.1	0.00e+00	0	45	0	1571815424	14	4537
2026-01-22 02:03:13.97	262.10	16.69	-27.4	-28.9	15.1	0.00e+00	0	45	0	1581252608	15	4297
2026-01-22 02:03:16.99	261.65	16.43	-27.5	-29.2	15.0	0.00e+00	0	45	0	1590689792	15	4372
2026-01-22 02:03:19.99	261.22	16.17	-27.5	-29.2	14.9	0.00e+00	0	45	0	1600126976	15	4368
2026-01-22 02:03:23.00	260.79	15.92	-27.4	-29.0	15.0	0.00e+00	0	45	0	1609564160	15	4304
2026-01-22 02:03:26.01	260.37	15.66	-27.5	-29.6	14.9	0.00e+00	0	45	0	1619001344	14	4612
2026-01-22 02:03:29.02	259.95	15.41	-27.4	-29.4	15.1	0.00e+00	0	45	0	1628438528	14	4536
2026-01-22 02:03:32.03	259.54	15.16	-27.5	-29.2	14.9	0.00e+00	0	45	0	1637875712	15	4377
2026-01-22 02:03:35.04	259.14	14.91	-27.7	-29.8	14.5	0.00e+00	0	45	0	1647312896	15	4548
2026-01-22 02:03:38.04	258.75	14.66	-27.8	-29.8	14.5	7.00e-07	0	45	0	1656750080	15	4568
2026-01-22 02:03:41.05	258.36	14.41	-27.4	-29.0	15.0	7.00e-07	0	45	0	1666187264	15	4320
2026-01-22 02:03:44.07	257.97	14.16	-27.5	-29.1	14.9	7.00e-07	0	45	0	1675624448	15	4350
2026-01-22 02:03:47.09	257.60	13.91	-27.8	-29.8	14.4	0.00e+00	0	45	0	1685061632	15	4570
2026-01-22 02:03:50.10	257.23	13.67	-27.4	-29.6	13.5	1.50e-06	0	45	0	1694498816	16	4635
2026-01-22 02:03:53.12	256.86	13.43	-28.0	-29.9	13.4	2.20e-06	0	45	0	1703936000	16	4467
2026-01-22 02:03:56.12	256.51	13.18	-27.8	-30.0	14.3	7.00e-07	0	45	0	1713373184	15	4606
2026-01-22 02:03:59.13	256.16	12.94	-27.7	-29.6	14.6	2.65e-03	0	45	0	1722810368	15	4483
2026-01-22 02:04:02.13	255.81	12.70	-27.4	-29.5	14.8	0.00e+00	0	45	0	1732247552	14	4583
2026-01-22 02:04:05.14	255.47	12.47	-27.6	-29.4	14.6	0.00e+00	0	45	0	1741684736	15	4442
2026-01-22 02:04:08.15	255.14	12.23	-27.9	-30.1	14.2	0.00e+00	0	45	0	1751121920	15	4651
2026-01-22 02:04:11.15	254.81	11.99	-28.2	-30.3	13.9	1.08e-03	0	45	0	1760559104	16	4584
2026-01-22 02:04:14.17	254.49	11.76	-28.2	-30.4	13.8	2.48e-03	0	45	0	1769996288	16	4620
2026-01-22 02:04:17.18	254.17	11.53	-27.9	-30.1	14.1	1.37e-05	0	45	0	1779433472	15	4652
2026-01-22 02:04:20.19	253.86	11.29	-27.7	-29.6	14.4	3.40e-03	0	45	0	1788870656	15	4499
2026-01-22 02:04:23.20	253.55	11.06	-27.7	-29.7	14.3	6.10e-06	0	45	0	1798307840	15	4542
2026-01-22 02:04:26.20	253.25	10.83	-27.8	-29.9	14.1	3.09e-03	0	45	0	1807745024	15	4612
2026-01-22 02:04:29.20	252.95	10.61	-28.2	-30.4	13.8	2.24e-03	0	45	0	1817182208	16	4633
2026-01-22 02:04:32.22	252.66	10.38	-28.4	-30.8	13.5	5.73e-04	0	45	0	1825570816	16	4778
2026-01-22 02:04:35.24	252.37	10.16	-28.4	-30.9	13.4	2.19e-04	0	45	0	1835008000	16	4807
2026-01-22 02:04:38.25	252.08	9.93	-28.4	-30.8	13.5	2.21e-05	0	45	0	1844445184	16	4769
2026-01-22 02:04:41.25	251.80	9.71	-28.5	-30.7	13.2	3.58e-05	0	45	0	1853882368	17	4626
2026-01-22 02:04:44.26	251.53	9.49	-28.5	-30.5	13.3	1.52e-05	0	45	0	1863319552	17	4576
2026-01-22 02:04:47.27	251.26	9.27	-28.5	-30.6	13.2	2.70e-04	0	45	0	1872756736	17	4604
2026-01-22 02:04:50.27	250.99	9.05	-28.6	-31.0	13.0	3.20e-05	0	45	0	1882193920	17	4717
2026-01-22 02:04:53.29	250.72	8.83	-28.6	-31.0	12.9	2.27e-04	0	45	0	1891631104	17	4735
2026-01-22 02:04:56.30	250.47	8.62	-28.9	-31.5	12.6	7.55e-05	0	45	0	1901068288	17	4907
2026-01-22 02:04:59.31	250.21	8.40	-28.9	-31.7	12.5	1.29e-04	0	45	0	1910505472	17	4975
2026-01-22 02:05:02.33	249.96	8.19	-29.1	-31.6	12.3	1.80e-04	0	45	0	1919942656	18	4803
2026-01-22 02:05:05.35	249.71	7.98	-29.1	-31.6	12.2	2.16e-04	0	45	0	1929379840	18	4830
2026-01-22 02:05:08.36	249.46	7.77	-29.1	-31.6	12.1	2.82e-04	0	45	0	1938817024	18	4832
2026-01-22 02:05:11.36	249.23	7.56	-29.1	-31.8	12.0	2.73e-04	0	45	0	1948254208	18	4907
2026-01-22 02:05:14.36	248.99	7.35	-29.2	-31.9	11.9	3.90e-04	0	45	0	1957691392	18	4949
2026-01-22 02:05:17.36	248.76	7.14	-29.3	-32.3	11.6	9.07e-04	0	45	0	1967128576	18	5085

#Closed at: 2026-01-22 02:05:20
#Recorded file [1970 MB]: D:/data/31010_260122_045447.dat