passes_logs/2026/01/22/R2M6_AANII_01/R2M6_AANII_01__20260122_010434_NOAA_20_JPSS-1_rec.log

#Pass ID: 20260122_010434_NOAA 20 (JPSS-1)
#Satellite: NOAA 20 (JPSS-1)
#Configuration: NOAA 20
#almurnet v.1.7.20240730
#Start time: 2026-01-22 01:04:35

#Version: 2.2.20231116
#Station: R2M6_AANII_01
#Location: 30.233357 lon 59.946436 lat
#TLE: 1 43013U 17073A   26021.46221703  .00000173  00000+0  10299-3 0  9999
#TLE: 2 43013  98.7644 322.3335 0001238  29.7597 330.3649 14.19538314423652

#Time	Az	El	Level	Level2	SNR	BER	BlckErr	Temp	State	Recorded	gain1	gain2
2026-01-22 01:04:35.67	14.69	7.08	-31.7	-37.3	5.2	1.24e+00	0	42	0	0	23	6847
2026-01-22 01:04:38.68	14.58	7.31	-31.5	-36.6	9.4	2.19e-02	0	42	0	1048576	23	6464
2026-01-22 01:04:41.67	14.48	7.54	-31.6	-36.8	9.4	1.07e-02	0	42	0	7340032	23	6525
2026-01-22 01:04:44.68	14.37	7.77	-31.1	-35.3	10.9	4.18e-03	0	42	0	12582912	22	5876
2026-01-22 01:04:47.68	14.26	8.00	-30.5	-34.0	12.2	3.05e-03	0	42	0	17825792	21	5412
2026-01-22 01:04:50.68	14.14	8.24	-30.3	-34.0	12.6	2.87e-03	0	42	0	24117248	20	5492
2026-01-22 01:04:53.69	14.03	8.47	-30.3	-34.0	12.6	2.66e-03	0	42	0	29360128	20	5485
2026-01-22 01:04:56.70	13.91	8.71	-30.4	-34.2	12.5	2.98e-03	0	43	0	35651584	20	5561
2026-01-22 01:04:59.71	13.79	8.96	-30.2	-33.6	12.9	2.86e-03	0	43	0	40894464	20	5340
2026-01-22 01:05:02.71	13.67	9.20	-30.3	-33.9	12.7	2.81e-03	0	43	0	46137344	20	5456
2026-01-22 01:05:05.73	13.54	9.45	-30.3	-33.8	12.8	3.20e-04	0	43	0	52428800	20	5410
2026-01-22 01:05:08.75	13.41	9.70	-30.2	-33.6	13.0	2.60e-03	0	43	0	57671680	20	5334
2026-01-22 01:05:11.76	13.28	9.95	-30.1	-33.4	13.2	2.63e-03	0	43	0	62914560	20	5212
2026-01-22 01:05:14.77	13.15	10.20	-30.2	-33.4	13.2	2.80e-03	0	43	0	69206016	20	5236
2026-01-22 01:05:17.78	13.02	10.45	-30.2	-33.6	13.0	2.74e-03	0	43	0	74448896	20	5323
2026-01-22 01:05:20.80	12.88	10.71	-30.3	-33.7	13.0	2.48e-03	0	43	0	80740352	20	5353
2026-01-22 01:05:23.82	12.74	10.98	-30.2	-33.6	13.1	2.59e-04	0	43	0	85983232	20	5302
2026-01-22 01:05:26.83	12.60	11.24	-30.1	-33.4	13.3	2.36e-04	0	43	0	91226112	20	5206
2026-01-22 01:05:29.84	12.45	11.50	-30.1	-33.2	13.4	1.60e-05	0	43	0	97517568	20	5142
2026-01-22 01:05:32.85	12.31	11.77	-30.1	-33.3	13.4	2.28e-05	0	43	0	102760448	20	5176
2026-01-22 01:05:35.86	12.15	12.05	-30.0	-33.0	13.6	2.90e-03	0	43	0	109051904	20	5079
2026-01-22 01:05:38.86	12.00	12.32	-30.2	-33.4	13.4	2.55e-03	0	43	0	114294784	20	5197
2026-01-22 01:05:41.87	11.84	12.60	-30.0	-32.9	13.7	2.23e-04	0	43	0	119537664	20	5029
2026-01-22 01:05:44.88	11.68	12.88	-30.1	-33.0	13.6	1.65e-04	0	43	0	125829120	20	5065
2026-01-22 01:05:47.89	11.52	13.16	-30.1	-33.3	13.5	1.47e-04	0	43	0	131072000	20	5158
2026-01-22 01:05:50.89	11.35	13.44	-30.1	-33.1	13.6	8.30e-06	0	43	0	136314880	20	5087
2026-01-22 01:05:53.90	11.18	13.73	-30.0	-32.9	13.7	6.10e-06	0	43	0	142606336	20	5032
2026-01-22 01:05:56.90	11.01	14.03	-30.0	-33.0	13.7	1.14e-05	0	43	0	147849216	20	5039
2026-01-22 01:05:59.91	10.83	14.32	-30.0	-33.2	14.0	1.83e-04	0	44	0	154140672	19	5238
2026-01-22 01:06:02.90	10.65	14.62	-29.9	-33.1	14.1	1.51e-04	0	43	0	159383552	19	5183
2026-01-22 01:06:05.92	10.46	14.92	-29.9	-33.1	14.1	1.62e-04	0	44	0	164626432	19	5175
2026-01-22 01:06:08.93	10.27	15.23	-30.1	-33.0	13.8	3.80e-06	0	44	0	170917888	20	5051
2026-01-22 01:06:11.94	10.08	15.54	-30.2	-33.3	13.6	9.10e-06	0	44	0	176160768	20	5146
2026-01-22 01:06:14.96	9.88	15.85	-30.3	-33.6	13.4	9.10e-06	0	44	0	181403648	20	5272
2026-01-22 01:06:17.96	9.68	16.17	-30.1	-33.1	13.8	5.30e-06	0	44	0	187695104	20	5092
2026-01-22 01:06:20.96	9.47	16.49	-30.0	-32.8	14.0	2.12e-03	0	44	0	192937984	20	4967
2026-01-22 01:06:23.97	9.26	16.81	-29.9	-32.6	14.1	2.36e-03	0	44	0	199229440	20	4895
2026-01-22 01:06:26.98	9.04	17.14	-30.0	-32.7	14.1	2.28e-03	0	44	0	204472320	20	4921
2026-01-22 01:06:29.98	8.82	17.47	-29.9	-33.0	14.3	1.50e-06	0	44	0	209715200	19	5133
2026-01-22 01:06:32.99	8.59	17.81	-29.9	-32.6	14.2	1.50e-06	0	44	0	216006656	20	4883
2026-01-22 01:06:36.00	8.36	18.15	-29.9	-32.8	14.4	0.00e+00	0	44	0	221249536	19	5068
2026-01-22 01:06:39.01	8.12	18.50	-29.8	-32.7	14.5	2.05e-03	0	44	0	226492416	19	5016
2026-01-22 01:06:42.02	7.88	18.84	-29.8	-32.7	14.5	2.35e-03	0	44	0	232783872	19	5030
2026-01-22 01:06:45.04	7.63	19.20	-29.8	-32.7	14.5	2.22e-03	0	44	0	238026752	19	5007
2026-01-22 01:06:48.05	7.37	19.56	-29.8	-32.7	14.6	2.02e-03	0	44	0	244318208	19	5026
2026-01-22 01:06:51.06	7.11	19.92	-30.2	-33.3	13.9	2.33e-03	0	44	0	249561088	20	5111
2026-01-22 01:06:54.06	6.84	20.29	-29.9	-32.6	14.2	2.22e-03	0	44	0	254803968	20	4934
2026-01-22 01:06:57.07	6.57	20.66	-30.1	-32.9	14.1	1.99e-03	0	44	0	261095424	20	4983
2026-01-22 01:07:00.07	6.28	21.04	-30.1	-32.8	14.2	2.26e-03	0	44	0	266338304	20	4947
2026-01-22 01:07:03.08	5.99	21.42	-30.3	-33.5	13.7	2.24e-03	0	44	0	272629760	20	5185
2026-01-22 01:07:06.08	5.70	21.80	-30.0	-32.6	14.3	2.02e-03	0	44	0	277872640	20	4875
2026-01-22 01:07:09.09	5.39	22.20	-30.2	-33.1	14.0	2.29e-03	0	44	0	283115520	20	5061
2026-01-22 01:07:12.09	5.08	22.59	-30.3	-33.4	13.8	3.00e-06	0	44	0	289406976	20	5156
2026-01-22 01:07:15.10	4.76	23.00	-30.4	-33.7	13.7	1.90e-04	0	44	0	294649856	20	5260
2026-01-22 01:07:18.11	4.43	23.40	-30.6	-33.7	13.3	2.46e-03	0	44	0	299892736	21	5161
2026-01-22 01:07:21.12	4.09	23.82	-30.8	-34.2	13.0	2.35e-03	0	44	0	306184192	21	5339
2026-01-22 01:07:24.12	3.74	24.23	-30.8	-34.4	12.9	2.18e-03	0	44	0	311427072	21	5436
2026-01-22 01:07:27.13	3.38	24.66	-31.2	-34.9	12.3	2.63e-03	0	44	0	317718528	22	5511
2026-01-22 01:07:30.15	3.01	25.09	-31.0	-34.3	12.7	8.77e-05	0	44	0	322961408	22	5283
2026-01-22 01:07:33.15	2.63	25.53	-31.3	-35.3	12.0	2.34e-04	0	44	0	328204288	22	5663
2026-01-22 01:07:36.16	2.24	25.97	-31.2	-34.9	12.3	1.66e-04	0	44	0	334495744	22	5529
2026-01-22 01:07:39.17	1.83	26.42	-31.4	-35.5	11.9	2.88e-04	0	44	0	339738624	22	5770
2026-01-22 01:07:42.18	1.42	26.87	-31.5	-35.2	11.8	6.08e-04	0	44	0	346030080	23	5512
2026-01-22 01:07:45.17	1.00	27.33	-31.6	-35.6	11.5	9.15e-04	0	44	0	351272960	23	5689
2026-01-22 01:07:48.17	0.56	27.79	-31.6	-35.5	11.6	6.81e-04	0	44	0	356515840	23	5670
2026-01-22 01:07:51.18	0.11	28.26	-31.6	-35.6	11.5	7.89e-04	0	44	0	362807296	23	5701
2026-01-22 01:07:54.19	359.64	28.74	-31.6	-35.5	11.7	6.06e-04	0	44	0	368050176	23	5630
2026-01-22 01:07:57.20	359.16	29.22	-31.3	-35.1	12.3	1.89e-04	0	44	0	373293056	22	5579
2026-01-22 01:08:00.22	358.66	29.71	-31.3	-35.0	12.3	2.32e-04	0	44	0	379584512	22	5553
2026-01-22 01:08:03.23	358.15	30.21	-31.2	-34.7	12.6	7.09e-05	0	44	0	384827392	22	5403
2026-01-22 01:08:06.23	357.62	30.71	-31.3	-35.0	12.4	2.83e-04	0	44	0	391118848	22	5530
2026-01-22 01:08:09.24	357.08	31.22	-31.4	-35.3	12.2	3.33e-04	0	44	0	396361728	22	5660
2026-01-22 01:08:12.26	356.51	31.73	-31.6	-35.5	11.7	3.76e-04	0	44	0	401604608	23	5639
2026-01-22 01:08:15.27	355.93	32.25	-31.6	-35.4	11.8	5.80e-04	0	44	0	407896064	23	5572
2026-01-22 01:08:18.28	355.33	32.78	-31.6	-35.5	11.7	6.64e-04	0	44	0	413138944	23	5637
2026-01-22 01:08:21.28	354.71	33.30	-31.6	-35.5	11.7	7.80e-04	0	44	0	418381824	23	5627
2026-01-22 01:08:24.29	354.07	33.84	-31.8	-36.2	11.2	1.35e-03	0	44	0	424673280	23	5953
2026-01-22 01:08:27.30	353.40	34.38	-31.9	-36.5	10.9	1.65e-03	0	44	0	429916160	23	6105
2026-01-22 01:08:30.30	352.72	34.92	-31.9	-36.3	11.2	1.81e-03	0	44	0	436207616	23	5996
2026-01-22 01:08:33.31	352.01	35.48	-31.7	-35.8	11.5	8.36e-04	0	44	0	441450496	23	5761
2026-01-22 01:08:36.32	351.27	36.03	-31.5	-35.1	12.0	3.49e-04	0	44	0	446693376	23	5444
2026-01-22 01:08:39.32	350.51	36.59	-31.3	-35.0	12.4	1.75e-04	0	44	0	452984832	22	5527
2026-01-22 01:08:42.32	349.72	37.15	-31.7	-35.7	11.6	6.26e-04	0	44	0	458227712	23	5728
2026-01-22 01:08:45.33	348.91	37.71	-31.9	-36.4	11.1	1.82e-03	0	44	0	463470592	23	6027
2026-01-22 01:08:48.33	348.06	38.28	-31.7	-35.8	11.6	6.74e-04	0	44	0	469762048	23	5774
2026-01-22 01:08:51.33	347.19	38.85	-31.8	-35.9	11.5	8.10e-04	0	44	0	475004928	23	5792
2026-01-22 01:08:54.33	346.29	39.42	-31.9	-36.3	11.2	1.43e-03	0	44	0	481296384	23	5981
2026-01-22 01:08:57.33	345.35	39.99	-31.9	-36.3	11.3	1.31e-03	0	44	0	486539264	23	5961
2026-01-22 01:09:00.35	344.37	40.56	-31.6	-35.5	11.9	3.96e-04	0	44	0	491782144	23	5594
2026-01-22 01:09:03.36	343.36	41.14	-31.6	-35.3	11.9	7.57e-04	0	44	0	498073600	23	5538
2026-01-22 01:09:06.36	342.32	41.71	-31.7	-35.5	11.9	5.70e-04	0	44	0	503316480	23	5618
2026-01-22 01:09:09.37	341.23	42.28	-32.1	-36.4	10.8	3.06e-03	0	44	0	508559360	24	5940
2026-01-22 01:09:12.38	340.11	42.84	-32.2	-37.0	10.4	3.49e-03	0	44	0	514850816	24	6198
2026-01-22 01:09:15.39	338.94	43.40	-31.7	-35.2	11.7	9.32e-04	0	44	0	520093696	24	5381
2026-01-22 01:09:18.40	337.74	43.96	-31.8	-36.1	11.5	6.97e-04	0	44	0	526385152	23	5859
2026-01-22 01:09:21.41	336.49	44.51	-31.8	-36.1	11.4	1.05e-03	0	44	0	531628032	23	5870
2026-01-22 01:09:24.42	335.20	45.05	-32.3	-37.1	10.3	4.18e-03	0	44	0	536870912	24	6286
2026-01-22 01:09:27.43	333.86	45.58	-32.1	-36.3	10.9	2.75e-03	0	44	0	543162368	24	5884
2026-01-22 01:09:30.44	332.47	46.10	-31.9	-35.9	11.2	2.20e-03	0	44	0	548405248	24	5679
2026-01-22 01:09:33.46	331.04	46.60	-31.7	-35.8	11.7	5.03e-04	0	44	0	553648128	23	5745
2026-01-22 01:09:36.46	329.57	47.10	-31.8	-36.0	11.6	4.95e-04	0	44	0	559939584	23	5816
2026-01-22 01:09:39.46	328.05	47.57	-31.2	-34.3	12.7	1.62e-04	0	44	0	565182464	23	5118
2026-01-22 01:09:42.47	326.48	48.03	-31.0	-34.6	13.1	1.98e-05	0	44	0	571473920	21	5462
2026-01-22 01:09:45.46	324.88	48.47	-31.3	-35.1	12.6	1.05e-04	0	44	0	576716800	22	5521
2026-01-22 01:09:48.48	323.21	48.89	-32.0	-36.6	11.2	1.08e-03	0	44	0	581959680	23	6090
2026-01-22 01:09:51.49	321.50	49.28	-32.1	-36.3	11.0	1.92e-03	0	44	0	588251136	24	5875
2026-01-22 01:09:54.50	319.75	49.65	-31.8	-35.9	11.6	6.96e-04	0	44	0	593494016	23	5792
2026-01-22 01:09:57.51	317.96	50.00	-31.9	-36.2	11.4	8.44e-04	0	44	0	598736896	23	5930
2026-01-22 01:10:00.52	316.13	50.32	-32.2	-36.8	10.4	3.70e-03	0	44	0	605028352	24	6116
2026-01-22 01:10:03.53	314.26	50.60	-32.1	-36.4	10.9	3.01e-03	0	44	0	610271232	24	5922
2026-01-22 01:10:06.54	312.35	50.86	-31.6	-35.2	12.2	3.19e-04	0	44	0	616562688	23	5469
2026-01-22 01:10:09.54	310.43	51.08	-30.8	-33.6	13.5	2.51e-05	0	44	0	621805568	22	4962
2026-01-22 01:10:12.55	308.46	51.27	-30.4	-33.4	14.3	7.00e-07	0	44	0	627048448	20	5085
2026-01-22 01:10:15.56	306.48	51.42	-30.2	-33.0	14.6	7.90e-04	0	44	0	633339904	20	4951
2026-01-22 01:10:18.56	304.48	51.54	-29.9	-32.3	15.0	0.00e+00	0	44	0	638582784	20	4715
2026-01-22 01:10:21.56	302.48	51.62	-29.6	-31.9	15.6	0.00e+00	0	44	0	643825664	19	4692
2026-01-22 01:10:24.56	300.46	51.66	-29.4	-31.9	15.9	0.00e+00	0	44	0	650117120	18	4818
2026-01-22 01:10:27.56	298.44	51.67	-29.1	-30.7	16.3	0.00e+00	0	44	0	655360000	19	4334
2026-01-22 01:10:30.57	296.41	51.64	-29.4	-31.3	16.0	0.00e+00	0	44	0	661651456	19	4510
2026-01-22 01:10:33.56	294.40	51.57	-29.7	-32.2	15.4	1.33e-04	0	44	0	666894336	19	4799
2026-01-22 01:10:36.57	292.39	51.47	-29.6	-31.9	15.6	3.04e-04	0	44	0	672137216	19	4695
2026-01-22 01:10:39.58	290.40	51.33	-29.8	-32.5	15.2	4.02e-04	0	44	0	678428672	19	4910
2026-01-22 01:10:42.59	288.43	51.15	-29.9	-32.7	15.1	6.65e-04	0	44	0	683671552	19	4946
2026-01-22 01:10:45.60	286.48	50.94	-29.7	-31.8	15.2	0.00e+00	0	44	0	688914432	20	4560
2026-01-22 01:10:48.61	284.57	50.70	-30.2	-32.9	14.6	8.25e-04	0	44	0	695205888	20	4911
2026-01-22 01:10:51.61	282.69	50.42	-30.0	-32.9	14.9	2.04e-04	0	44	0	700448768	19	5043
2026-01-22 01:10:54.62	280.84	50.12	-30.2	-32.9	14.6	2.22e-03	0	44	0	706740224	20	4955
2026-01-22 01:10:57.64	279.02	49.78	-31.0	-34.6	13.2	2.24e-03	0	44	0	711983104	21	5450
2026-01-22 01:11:00.64	277.26	49.42	-31.1	-34.4	13.0	1.68e-03	0	44	0	717225984	22	5263
2026-01-22 01:11:03.65	275.53	49.03	-31.3	-35.0	12.6	1.89e-03	0	44	0	723517440	22	5513
2026-01-22 01:11:06.66	273.85	48.62	-31.8	-36.1	11.4	1.15e-03	0	44	0	728760320	23	5883
2026-01-22 01:11:09.68	272.21	48.19	-31.8	-36.0	11.5	1.03e-03	0	44	0	735051776	23	5821
2026-01-22 01:11:12.69	270.62	47.73	-31.2	-34.8	12.7	1.88e-03	0	44	0	740294656	22	5407
2026-01-22 01:11:15.71	269.07	47.26	-31.5	-35.0	12.1	2.35e-03	0	44	0	745537536	23	5419
2026-01-22 01:11:18.71	267.58	46.77	-31.0	-34.2	13.0	1.44e-03	0	44	0	751828992	22	5205
2026-01-22 01:11:21.71	266.14	46.27	-31.0	-34.2	13.1	2.82e-05	0	44	0	757071872	22	5212
2026-01-22 01:11:24.71	264.74	45.76	-31.7	-35.8	11.6	6.68e-04	0	44	0	762314752	23	5747
2026-01-22 01:11:27.73	263.38	45.23	-31.5	-35.1	12.1	2.07e-04	0	44	0	768606208	23	5439
2026-01-22 01:11:30.73	262.07	44.69	-31.7	-35.8	11.6	4.66e-04	0	44	0	773849088	23	5737
2026-01-22 01:11:33.74	260.80	44.14	-32.1	-36.5	10.8	3.33e-03	0	44	0	780140544	24	5991
2026-01-22 01:11:36.75	259.58	43.59	-31.2	-34.3	12.6	1.97e-03	0	44	0	785383424	23	5141
2026-01-22 01:11:39.75	258.40	43.03	-31.1	-34.4	12.9	9.61e-05	0	44	0	790626304	22	5273
2026-01-22 01:11:42.75	257.26	42.46	-30.6	-33.5	13.7	3.00e-06	0	44	0	796917760	21	5046
2026-01-22 01:11:45.76	256.16	41.90	-30.6	-33.7	13.6	5.30e-06	0	44	0	802160640	21	5137
2026-01-22 01:11:48.78	255.09	41.32	-30.9	-34.4	13.1	1.14e-05	0	44	0	807403520	21	5384
2026-01-22 01:11:51.78	254.07	40.75	-31.2	-34.7	12.5	9.76e-05	0	44	0	813694976	22	5410
2026-01-22 01:11:54.78	253.08	40.18	-31.5	-35.3	11.8	5.48e-04	0	44	0	818937856	23	5572
2026-01-22 01:11:57.80	252.12	39.60	-31.8	-36.3	11.1	1.78e-03	0	44	0	825229312	23	6018
2026-01-22 01:12:00.80	251.20	39.03	-30.7	-34.7	11.5	8.78e-04	0	44	0	830472192	23	5705
2026-01-22 01:12:03.82	250.31	38.45	-32.0	-36.7	10.8	5.05e-03	0	44	0	835715072	23	6189
2026-01-22 01:12:06.82	249.45	37.88	-32.2	-36.9	10.3	4.39e-03	0	44	0	842006528	24	6210
2026-01-22 01:12:09.83	248.63	37.31	-32.1	-36.7	10.4	4.17e-03	0	44	0	847249408	24	6095
2026-01-22 01:12:12.84	247.82	36.75	-32.4	-37.6	9.7	1.15e-02	0	44	0	852492288	24	6613
2026-01-22 01:12:15.86	247.05	36.18	-32.2	-37.0	10.1	6.09e-03	0	44	0	858783744	24	6268
2026-01-22 01:12:18.87	246.30	35.62	-32.2	-36.9	10.2	1.01e-02	0	44	0	864026624	24	6240
2026-01-22 01:12:21.88	245.58	35.07	-31.7	-36.0	11.2	4.66e-03	0	44	0	870318080	23	5910
2026-01-22 01:12:24.88	244.88	34.52	-31.7	-35.9	11.3	3.88e-03	0	44	0	875560960	23	5820
2026-01-22 01:12:27.89	244.21	33.98	-31.6	-35.6	11.5	3.20e-03	0	44	0	880803840	23	5706
2026-01-22 01:12:30.89	243.56	33.44	-31.5	-35.3	11.7	6.38e-04	0	44	0	887095296	23	5584
2026-01-22 01:12:33.90	242.93	32.91	-31.2	-35.0	12.3	2.20e-04	0	44	0	892338176	22	5541
2026-01-22 01:12:36.91	242.32	32.38	-31.3	-35.1	12.2	1.01e-03	0	44	0	897581056	22	5578
2026-01-22 01:12:39.92	241.73	31.85	-31.6	-35.7	11.4	1.06e-03	0	44	0	903872512	23	5747
2026-01-22 01:12:42.93	241.16	31.34	-31.8	-36.3	10.9	3.18e-03	0	44	0	909115392	23	6049
2026-01-22 01:12:45.93	240.60	30.83	-32.0	-36.9	10.5	4.16e-03	0	44	0	915406848	23	6352
2026-01-22 01:12:48.94	240.07	30.32	-31.8	-36.5	10.7	2.35e-03	0	44	0	920649728	23	6149
2026-01-22 01:12:51.95	239.55	29.82	-31.7	-36.0	11.1	1.67e-03	0	44	0	925892608	23	5914
2026-01-22 01:12:54.96	239.04	29.33	-31.4	-34.9	11.9	6.16e-04	0	44	0	932184064	23	5426
2026-01-22 01:12:57.97	238.56	28.84	-31.1	-34.7	12.4	4.13e-04	0	44	0	937426944	22	5427
2026-01-22 01:13:00.97	238.08	28.36	-31.0	-34.3	12.7	1.62e-04	0	44	0	943718400	22	5265
2026-01-22 01:13:03.98	237.62	27.88	-31.0	-34.5	12.5	4.13e-04	0	44	0	948961280	22	5368
2026-01-22 01:13:06.99	237.18	27.42	-30.7	-34.0	13.1	1.26e-03	0	44	0	954204160	21	5294
2026-01-22 01:13:09.99	236.75	26.95	-30.7	-34.1	13.0	3.12e-05	0	44	0	960495616	21	5300
2026-01-22 01:13:13.00	236.32	26.50	-30.6	-33.9	13.1	3.89e-05	0	44	0	965738496	21	5243
2026-01-22 01:13:16.00	235.92	26.05	-30.8	-34.5	12.7	6.40e-05	0	44	0	970981376	21	5499
2026-01-22 01:13:19.00	235.52	25.60	-30.7	-34.2	12.9	5.87e-05	0	44	0	977272832	21	5381
2026-01-22 01:13:22.01	235.14	25.16	-30.6	-33.8	13.2	3.81e-05	0	44	0	982515712	21	5204
2026-01-22 01:13:25.02	234.76	24.73	-30.4	-33.7	13.5	7.28e-04	0	45	0	988807168	20	5295
2026-01-22 01:13:28.03	234.40	24.30	-30.3	-33.6	13.6	4.50e-06	0	44	0	994050048	20	5252
2026-01-22 01:13:31.04	234.04	23.88	-30.5	-34.0	13.3	1.52e-05	0	44	0	999292928	20	5393
2026-01-22 01:13:34.05	233.70	23.46	-30.6	-33.9	13.1	3.81e-05	0	44	0	1005584384	21	5254
2026-01-22 01:13:37.05	233.36	23.05	-30.6	-34.0	12.9	3.89e-05	0	44	0	1010827264	21	5308
2026-01-22 01:13:40.06	233.03	22.64	-30.7	-34.4	12.7	5.26e-05	0	44	0	1016070144	21	5459
2026-01-22 01:13:43.07	232.71	22.24	-30.4	-33.9	13.3	1.90e-05	0	44	0	1022361600	20	5395
2026-01-22 01:13:46.08	232.40	21.85	-30.6	-33.9	12.9	3.43e-05	0	44	0	1027604480	21	5280
2026-01-22 01:13:49.08	232.10	21.46	-30.4	-33.9	13.2	1.98e-05	0	44	0	1033895936	20	5401
2026-01-22 01:13:52.08	231.81	21.08	-30.5	-33.7	13.1	4.34e-05	0	44	0	1039138816	21	5192
2026-01-22 01:13:55.08	231.52	20.70	-30.3	-33.7	13.1	1.98e-05	0	44	0	1044381696	20	5333
2026-01-22 01:13:58.09	231.24	20.32	-30.4	-33.9	13.0	2.21e-05	0	44	0	1050673152	20	5415
2026-01-22 01:14:01.10	230.97	19.95	-30.5	-34.2	13.0	3.43e-05	0	44	0	1055916032	20	5518
2026-01-22 01:14:04.10	230.70	19.59	-30.3	-33.8	13.2	2.21e-05	0	44	0	1061158912	20	5370
2026-01-22 01:14:07.11	230.44	19.23	-30.2	-33.5	13.4	1.67e-05	0	44	0	1067450368	20	5258
2026-01-22 01:14:10.12	230.19	18.87	-30.4	-34.0	13.1	1.83e-05	0	44	0	1072693248	20	5432
2026-01-22 01:14:13.13	229.94	18.52	-30.4	-34.1	13.0	3.43e-05	0	44	0	1078984704	20	5481
2026-01-22 01:14:16.14	229.70	18.17	-30.7	-34.4	12.4	1.21e-04	0	44	0	1084227584	21	5511
2026-01-22 01:14:19.15	229.46	17.83	-30.9	-34.9	12.1	3.43e-04	0	44	0	1089470464	21	5713
2026-01-22 01:14:22.15	229.23	17.49	-30.8	-34.2	12.2	3.54e-04	0	44	0	1095761920	22	5329
2026-01-22 01:14:25.14	229.00	17.15	-30.7	-34.3	12.4	1.16e-04	0	44	0	1101004800	21	5460
2026-01-22 01:14:28.15	228.78	16.82	-30.6	-34.1	12.5	1.98e-04	0	44	0	1106247680	21	5404
2026-01-22 01:14:31.15	228.57	16.50	-30.5	-33.7	12.8	2.10e-04	0	44	0	1112539136	21	5227
2026-01-22 01:14:34.15	228.36	16.18	-30.4	-33.5	12.9	2.78e-04	0	44	0	1117782016	21	5161
2026-01-22 01:14:37.15	228.15	15.86	-30.5	-34.2	12.7	5.18e-05	0	44	0	1124073472	20	5565
2026-01-22 01:14:40.15	227.95	15.54	-30.7	-34.3	12.3	4.66e-04	0	44	0	1129316352	21	5493
2026-01-22 01:14:43.14	227.75	15.23	-30.7	-34.5	12.2	5.80e-04	0	44	0	1134559232	21	5556
2026-01-22 01:14:46.15	227.56	14.92	-30.7	-34.6	12.1	4.78e-04	0	44	0	1140850688	21	5606
2026-01-22 01:14:49.16	227.37	14.62	-30.7	-34.6	12.0	4.89e-04	0	44	0	1146093568	21	5637
2026-01-22 01:14:52.17	227.18	14.32	-30.7	-34.6	12.1	5.23e-04	0	44	0	1151336448	21	5613
2026-01-22 01:14:55.17	227.00	14.02	-30.7	-34.7	11.9	5.90e-04	0	44	0	1157627904	21	5697
2026-01-22 01:14:58.18	226.83	13.73	-30.8	-35.1	11.6	6.81e-04	0	45	0	1162870784	21	5887
2026-01-22 01:15:01.19	226.65	13.44	-30.9	-35.1	11.6	8.44e-04	0	44	0	1169162240	21	5861
2026-01-22 01:15:04.19	226.48	13.15	-31.0	-35.1	11.2	1.19e-03	0	44	0	1174405120	22	5772
2026-01-22 01:15:07.20	226.31	12.86	-31.1	-35.5	10.9	1.60e-03	0	44	0	1179648000	22	5936
2026-01-22 01:15:10.21	226.15	12.58	-31.0	-34.9	11.3	1.17e-03	0	45	0	1185939456	22	5660
2026-01-22 01:15:13.21	225.99	12.30	-30.9	-35.4	11.2	1.01e-03	0	44	0	1191182336	21	6009
2026-01-22 01:15:16.21	225.83	12.03	-31.0	-35.0	11.1	1.39e-03	0	44	0	1196425216	22	5714
2026-01-22 01:15:19.23	225.68	11.75	-30.9	-35.4	11.2	1.28e-03	0	44	0	1202716672	21	5998
2026-01-22 01:15:22.23	225.53	11.48	-30.9	-35.4	11.2	1.50e-03	0	44	0	1207959552	21	6050
2026-01-22 01:15:25.24	225.38	11.22	-31.0	-35.2	11.0	1.74e-03	0	44	0	1214251008	22	5806
2026-01-22 01:15:28.25	225.23	10.95	-30.9	-35.5	11.1	1.36e-03	0	45	0	1219493888	21	6088
2026-01-22 01:15:31.25	225.09	10.69	-31.2	-35.9	10.4	3.27e-03	0	44	0	1224736768	22	6180
2026-01-22 01:15:34.26	224.95	10.43	-31.3	-36.2	10.2	5.77e-03	0	44	0	1231028224	22	6339
2026-01-22 01:15:37.26	224.81	10.17	-31.3	-36.5	10.0	9.19e-03	0	44	0	1236271104	22	6479
2026-01-22 01:15:40.28	224.67	9.92	-31.1	-35.4	10.7	3.58e-03	0	44	0	1241513984	22	5965
2026-01-22 01:15:43.28	224.54	9.67	-31.0	-35.4	10.7	3.01e-03	0	45	0	1247805440	22	5926
2026-01-22 01:15:46.28	224.41	9.42	-31.0	-35.4	10.7	3.02e-03	0	44	0	1253048320	22	5954
2026-01-22 01:15:49.28	224.28	9.17	-31.1	-35.5	10.6	3.74e-03	0	44	0	1259339776	22	6009
2026-01-22 01:15:52.29	224.16	8.93	-31.0	-35.4	10.6	4.04e-03	0	44	0	1264582656	22	5974
2026-01-22 01:15:55.30	224.04	8.68	-31.1	-35.7	10.4	4.78e-03	0	45	0	1269825536	22	6109
2026-01-22 01:15:58.31	223.91	8.44	-31.1	-35.7	10.3	4.47e-03	0	44	0	1276116992	22	6137
2026-01-22 01:16:01.33	223.79	8.20	-31.1	-35.7	10.3	4.53e-03	0	44	0	1281359872	22	6116
2026-01-22 01:16:04.34	223.68	7.97	-31.2	-36.2	9.9	7.63e-03	0	44	0	1286602752	22	6380
2026-01-22 01:16:07.35	223.56	7.73	-31.1	-35.7	10.2	6.30e-03	0	45	0	1292894208	22	6155
2026-01-22 01:16:10.35	223.45	7.50	-31.1	-36.1	9.9	1.02e-02	0	44	0	1298137088	22	6334
2026-01-22 01:16:13.37	223.34	7.27	-31.1	-36.1	9.9	1.07e-02	0	45	0	1304428544	22	6363
2026-01-22 01:16:16.39	223.23	7.04	-33.3	-47.7	3.8	1.49e+00	0	44	104	1307574272	26	18858

#Closed at: 2026-01-22 01:16:19
#Recorded file [1307 MB]: D:/data/31010_260122_040437.dat