passes_logs/2026/01/22/R2M6_AANII_01/R2M6_AANII_01__20260122_105728_NOAA_20_JPSS-1_rec.log

#Pass ID: 20260122_105728_NOAA 20 (JPSS-1)
#Satellite: NOAA 20 (JPSS-1)
#Configuration: NOAA 20
#almurnet v.1.7.20240730
#Start time: 2026-01-22 10:57:28

#Version: 2.2.20231116
#Station: R2M6_AANII_01
#Location: 30.233357 lon 59.946436 lat
#TLE: 1 43013U 17073A   26021.46221703  .00000173  00000+0  10299-3 0  9999
#TLE: 2 43013  98.7644 322.3335 0001238  29.7597 330.3649 14.19538314423652

#Time	Az	El	Level	Level2	SNR	BER	BlckErr	Temp	State	Recorded	gain1	gain2
2026-01-22 10:57:28.87	180.15	7.03	-30.4	-34.6	5.5	1.18e+00	0	41	0	0	21	5820
2026-01-22 10:57:31.87	180.27	7.26	-31.0	-36.2	9.2	1.70e-02	0	41	0	1048576	22	6553
2026-01-22 10:57:34.89	180.39	7.49	-30.6	-34.5	10.6	4.48e-03	0	41	0	7340032	22	5668
2026-01-22 10:57:37.89	180.52	7.72	-30.4	-34.3	11.1	1.26e-03	0	42	0	12582912	21	5644
2026-01-22 10:57:40.90	180.65	7.95	-30.3	-33.9	11.5	1.39e-03	0	42	0	17825792	21	5475
2026-01-22 10:57:43.90	180.78	8.19	-30.1	-33.7	11.6	7.86e-04	0	42	0	24117248	21	5439
2026-01-22 10:57:46.91	180.91	8.42	-30.2	-33.8	11.6	7.77e-04	0	42	0	29360128	21	5412
2026-01-22 10:57:49.92	181.04	8.66	-30.1	-33.3	12.0	3.21e-04	0	42	0	35651584	21	5226
2026-01-22 10:57:52.92	181.18	8.90	-30.1	-33.4	11.9	5.64e-04	0	42	0	40894464	21	5254
2026-01-22 10:57:55.93	181.32	9.15	-30.0	-33.5	12.2	1.79e-04	0	42	0	46137344	20	5403
2026-01-22 10:57:58.94	181.46	9.39	-30.1	-33.7	12.1	2.89e-04	0	42	0	52428800	20	5479
2026-01-22 10:58:01.94	181.60	9.64	-29.9	-33.4	12.3	2.56e-04	0	42	0	57671680	20	5371
2026-01-22 10:58:04.95	181.74	9.89	-29.9	-33.2	12.5	1.08e-04	0	42	0	62914560	20	5251
2026-01-22 10:58:07.96	181.89	10.15	-29.9	-33.3	12.5	1.62e-04	0	42	0	69206016	20	5286
2026-01-22 10:58:10.97	182.04	10.40	-30.0	-33.3	12.5	3.12e-04	0	42	0	74448896	20	5301
2026-01-22 10:58:13.99	182.19	10.66	-30.0	-33.5	12.3	1.65e-04	0	42	0	80740352	20	5385
2026-01-22 10:58:16.99	182.35	10.92	-29.9	-33.3	12.6	2.50e-04	0	43	0	85983232	20	5277
2026-01-22 10:58:20.01	182.50	11.19	-30.0	-33.4	12.4	4.47e-04	0	43	0	91226112	20	5335
2026-01-22 10:58:23.03	182.66	11.45	-30.0	-33.4	12.5	2.05e-04	0	42	0	97517568	20	5317
2026-01-22 10:58:26.04	182.83	11.72	-30.0	-33.5	12.5	1.48e-04	0	43	0	102760448	20	5354
2026-01-22 10:58:29.05	182.99	12.00	-30.1	-33.7	12.4	4.74e-04	0	43	0	109051904	20	5427
2026-01-22 10:58:32.04	183.16	12.27	-30.2	-33.9	12.2	1.52e-04	0	43	0	114294784	20	5528
2026-01-22 10:58:35.06	183.33	12.55	-29.9	-33.2	12.7	9.07e-05	0	43	0	119537664	20	5260
2026-01-22 10:58:38.07	183.50	12.83	-30.0	-33.5	12.5	9.30e-05	0	43	0	125829120	20	5351
2026-01-22 10:58:41.09	183.68	13.11	-29.7	-32.5	13.2	2.36e-05	0	43	0	131072000	20	4962
2026-01-22 10:58:44.08	183.86	13.40	-29.7	-32.6	13.2	2.05e-05	0	43	0	136314880	20	4996
2026-01-22 10:58:47.08	184.05	13.69	-29.9	-33.0	12.9	2.27e-04	0	43	0	142606336	20	5144
2026-01-22 10:58:50.09	184.23	13.98	-29.7	-32.4	13.4	1.60e-04	0	43	0	147849216	20	4920
2026-01-22 10:58:53.11	184.42	14.28	-29.7	-32.4	13.3	2.37e-04	0	43	0	154140672	20	4914
2026-01-22 10:58:56.13	184.62	14.58	-29.7	-32.3	13.4	2.51e-05	0	43	0	159383552	20	4891
2026-01-22 10:58:59.14	184.82	14.88	-29.7	-32.4	13.4	3.91e-04	0	43	0	164626432	20	4903
2026-01-22 10:59:02.15	185.02	15.19	-29.7	-32.5	13.4	1.33e-04	0	43	0	170917888	20	4939
2026-01-22 10:59:05.16	185.23	15.50	-29.4	-32.2	13.9	3.80e-06	0	43	0	176160768	19	4955
2026-01-22 10:59:08.16	185.44	15.81	-29.5	-32.2	14.0	5.87e-05	0	43	0	181403648	19	4928
2026-01-22 10:59:11.18	185.65	16.13	-29.3	-32.2	13.8	3.00e-06	0	43	0	187695104	19	5019
2026-01-22 10:59:14.20	185.87	16.46	-29.5	-32.4	13.9	6.63e-05	0	43	0	192937984	19	4993
2026-01-22 10:59:17.21	186.10	16.78	-29.4	-32.0	14.2	2.20e-06	0	43	0	199229440	19	4864
2026-01-22 10:59:20.21	186.32	17.11	-29.3	-31.8	14.4	3.75e-04	0	43	0	204472320	19	4785
2026-01-22 10:59:23.23	186.56	17.45	-29.2	-31.5	14.5	3.20e-05	0	43	0	209715200	19	4697
2026-01-22 10:59:26.23	186.80	17.78	-29.2	-31.5	14.5	1.11e-04	0	43	0	216006656	19	4683
2026-01-22 10:59:29.24	187.04	18.12	-29.1	-31.4	14.6	0.00e+00	0	43	0	221249536	19	4651
2026-01-22 10:59:32.24	187.29	18.47	-29.0	-31.1	14.8	0.00e+00	0	43	0	227540992	19	4554
2026-01-22 10:59:35.24	187.54	18.82	-29.1	-31.2	14.8	1.50e-06	0	43	0	232783872	19	4591
2026-01-22 10:59:38.23	187.80	19.17	-29.1	-31.2	14.8	5.11e-05	0	43	0	238026752	19	4578
2026-01-22 10:59:41.24	188.06	19.53	-29.1	-31.2	14.8	2.20e-06	0	43	0	244318208	19	4606
2026-01-22 10:59:44.25	188.34	19.90	-29.0	-31.3	15.1	2.49e-04	0	44	0	249561088	18	4714
2026-01-22 10:59:47.27	188.62	20.27	-29.0	-31.4	15.0	0.00e+00	0	43	0	254803968	18	4771
2026-01-22 10:59:50.27	188.90	20.64	-28.8	-30.9	15.4	3.27e-04	0	43	0	261095424	18	4579
2026-01-22 10:59:53.27	189.19	21.02	-28.7	-30.7	15.5	2.22e-04	0	43	0	266338304	18	4529
2026-01-22 10:59:56.29	189.49	21.41	-28.7	-30.7	15.4	1.11e-04	0	43	0	272629760	18	4553
2026-01-22 10:59:59.29	189.79	21.79	-28.6	-30.5	15.6	0.00e+00	0	44	0	277872640	18	4473
2026-01-22 11:00:02.30	190.11	22.19	-28.5	-30.2	15.8	3.00e-06	0	43	0	283115520	18	4403
2026-01-22 11:00:05.32	190.43	22.59	-28.4	-30.1	15.9	0.00e+00	0	44	0	289406976	18	4337
2026-01-22 11:00:08.33	190.76	23.00	-28.3	-30.2	16.2	0.00e+00	0	43	0	294649856	17	4476
2026-01-22 11:00:11.32	191.09	23.41	-28.2	-30.0	16.3	1.91e-04	0	44	0	300941312	17	4408
2026-01-22 11:00:14.34	191.44	23.82	-28.4	-30.4	16.0	0.00e+00	0	44	0	306184192	17	4540
2026-01-22 11:00:17.35	191.80	24.25	-28.5	-30.7	15.9	8.39e-05	0	43	0	311427072	17	4641
2026-01-22 11:00:20.37	192.16	24.68	-28.5	-30.8	15.6	3.79e-04	0	43	0	317718528	17	4731
2026-01-22 11:00:23.38	192.54	25.11	-28.8	-31.3	15.6	1.77e-04	0	44	0	322961408	17	4802
2026-01-22 11:00:26.38	192.92	25.55	-28.9	-31.7	15.3	0.00e+00	0	44	0	328204288	17	4939
2026-01-22 11:00:29.39	193.32	26.00	-29.2	-31.8	15.0	7.00e-07	0	44	0	334495744	18	4871
2026-01-22 11:00:32.39	193.72	26.45	-29.3	-32.1	14.9	1.50e-06	0	44	0	339738624	18	4962
2026-01-22 11:00:35.41	194.14	26.91	-29.6	-32.4	14.4	0.00e+00	0	44	0	346030080	19	4968
2026-01-22 11:00:38.42	194.57	27.37	-29.8	-32.7	14.2	1.50e-06	0	44	0	351272960	19	5056
2026-01-22 11:00:41.42	195.01	27.84	-29.9	-33.0	14.0	2.01e-04	0	44	0	356515840	19	5185
2026-01-22 11:00:44.42	195.46	28.32	-30.0	-33.0	13.6	1.37e-05	0	44	0	362807296	20	5056
2026-01-22 11:00:47.43	195.93	28.80	-30.2	-33.5	13.3	3.75e-04	0	43	0	368050176	20	5267
2026-01-22 11:00:50.44	196.42	29.29	-30.2	-33.8	13.0	2.09e-04	0	44	0	373293056	20	5445
2026-01-22 11:00:53.45	196.91	29.79	-30.8	-34.6	12.3	4.36e-04	0	43	0	379584512	21	5579
2026-01-22 11:00:56.47	197.43	30.29	-31.2	-35.5	11.3	9.06e-04	0	44	0	384827392	22	5854
2026-01-22 11:00:59.48	197.95	30.80	-31.2	-35.3	11.5	9.80e-04	0	44	0	391118848	22	5785
2026-01-22 11:01:02.49	198.50	31.32	-31.1	-35.1	11.6	7.65e-04	0	44	0	396361728	22	5675
2026-01-22 11:01:05.50	199.06	31.84	-31.1	-34.9	11.8	4.32e-04	0	44	0	401604608	22	5596
2026-01-22 11:01:08.51	199.64	32.37	-30.8	-34.1	12.3	2.59e-04	0	44	0	407896064	22	5289
2026-01-22 11:01:11.52	200.24	32.90	-30.3	-33.2	13.3	2.00e-04	0	44	0	413138944	21	5023
2026-01-22 11:01:14.53	200.86	33.44	-30.2	-32.9	13.5	1.14e-05	0	44	0	419430400	21	4924
2026-01-22 11:01:17.52	201.49	33.99	-30.4	-33.3	13.2	2.97e-05	0	44	0	424673280	21	5053
2026-01-22 11:01:20.53	202.15	34.54	-30.3	-33.1	13.3	3.10e-04	0	44	0	429916160	21	4994
2026-01-22 11:01:23.55	202.84	35.10	-30.1	-32.6	13.7	2.68e-04	0	44	0	436207616	21	4793
2026-01-22 11:01:26.57	203.55	35.66	-30.1	-32.5	13.8	3.80e-06	0	44	0	441450496	21	4778
2026-01-22 11:01:29.58	204.28	36.23	-30.0	-32.4	13.9	1.69e-04	0	44	0	446693376	21	4733
2026-01-22 11:01:32.59	205.04	36.80	-29.9	-32.0	14.2	1.50e-06	0	44	0	452984832	21	4580
2026-01-22 11:01:35.59	205.82	37.38	-29.4	-31.4	14.9	0.00e+00	0	44	0	458227712	20	4484
2026-01-22 11:01:38.60	206.63	37.96	-29.6	-31.7	14.6	7.00e-07	0	44	0	464519168	20	4617
2026-01-22 11:01:41.61	207.47	38.55	-29.3	-31.5	15.2	1.36e-04	0	44	0	469762048	19	4628
2026-01-22 11:01:44.62	208.34	39.14	-29.2	-31.2	15.4	2.13e-05	0	44	0	475004928	19	4525
2026-01-22 11:01:47.63	209.24	39.73	-29.0	-30.8	15.6	9.90e-06	0	44	0	481296384	19	4404
2026-01-22 11:01:50.62	210.17	40.32	-29.1	-30.9	15.6	2.82e-05	0	44	0	486539264	19	4427
2026-01-22 11:01:53.64	211.14	40.91	-29.2	-31.1	15.5	0.00e+00	0	44	0	491782144	19	4500
2026-01-22 11:01:56.65	212.14	41.51	-29.3	-31.4	15.3	0.00e+00	0	44	0	498073600	19	4604
2026-01-22 11:01:59.67	213.19	42.10	-29.5	-31.9	15.0	3.80e-06	0	44	0	503316480	19	4738
2026-01-22 11:02:02.68	214.27	42.70	-29.5	-32.0	14.9	6.17e-05	0	44	0	509607936	19	4773
2026-01-22 11:02:05.69	215.39	43.29	-29.9	-33.0	14.3	2.20e-06	0	44	0	514850816	19	5147
2026-01-22 11:02:08.69	216.54	43.87	-30.0	-32.8	14.1	3.00e-06	0	44	0	520093696	20	4971
2026-01-22 11:02:11.70	217.75	44.46	-30.1	-33.2	13.9	6.79e-05	0	44	0	526385152	20	5089
2026-01-22 11:02:14.72	219.00	45.04	-30.9	-34.6	12.6	1.66e-04	0	44	0	531628032	21	5552
2026-01-22 11:02:17.72	220.29	45.61	-30.8	-33.9	12.8	2.07e-04	0	44	0	537919488	22	5176
2026-01-22 11:02:20.73	221.63	46.17	-31.2	-35.0	12.1	1.87e-04	0	44	0	543162368	22	5578
2026-01-22 11:02:23.73	223.01	46.72	-31.4	-35.2	11.5	8.57e-04	0	44	0	548405248	23	5555
2026-01-22 11:02:26.74	224.45	47.26	-30.9	-33.6	12.7	1.19e-04	0	44	0	554696704	23	4923
2026-01-22 11:02:29.75	225.94	47.79	-31.3	-35.5	11.8	2.20e-04	0	44	0	559939584	22	5797
2026-01-22 11:02:32.75	227.47	48.30	-30.9	-34.2	12.7	4.26e-04	0	44	0	565182464	22	5244
2026-01-22 11:02:35.76	229.05	48.80	-30.6	-33.3	13.2	3.43e-05	0	44	0	571473920	22	4930
2026-01-22 11:02:38.77	230.69	49.28	-30.6	-33.2	13.3	2.32e-04	0	44	0	576716800	22	4875
2026-01-22 11:02:41.78	232.38	49.73	-29.8	-32.3	14.5	3.68e-04	0	44	0	583008256	20	4776
2026-01-22 11:02:44.79	234.11	50.17	-30.0	-32.6	14.3	3.46e-04	0	44	0	588251136	20	4892
2026-01-22 11:02:47.80	235.90	50.58	-29.2	-31.0	15.7	0.00e+00	0	44	0	593494016	19	4453
2026-01-22 11:02:50.81	237.73	50.97	-29.4	-31.7	15.3	0.00e+00	0	44	0	599785472	19	4666
2026-01-22 11:02:53.81	239.60	51.32	-29.1	-31.1	15.5	3.18e-04	0	44	0	605028352	19	4527
2026-01-22 11:02:56.82	241.52	51.65	-29.3	-31.2	15.6	1.65e-04	0	44	0	610271232	19	4511
2026-01-22 11:02:59.83	243.49	51.95	-29.5	-32.0	15.1	7.00e-07	0	44	0	616562688	19	4793
2026-01-22 11:03:02.84	245.48	52.21	-29.2	-31.2	15.6	0.00e+00	0	44	0	621805568	19	4512
2026-01-22 11:03:05.85	247.51	52.44	-29.0	-30.6	15.9	0.00e+00	0	44	0	628097024	19	4334
2026-01-22 11:03:08.86	249.57	52.63	-29.7	-32.3	15.0	0.00e+00	0	44	0	633339904	19	4856
2026-01-22 11:03:11.87	251.66	52.78	-29.1	-30.8	15.8	6.56e-05	0	44	0	638582784	19	4390
2026-01-22 11:03:14.87	253.75	52.90	-29.6	-32.0	15.1	1.21e-04	0	44	0	644874240	19	4776
2026-01-22 11:03:17.88	255.87	52.98	-28.8	-30.3	16.1	0.00e+00	0	44	0	650117120	19	4243
2026-01-22 11:03:20.90	258.00	53.02	-29.2	-31.7	15.6	1.51e-04	0	44	0	655360000	18	4765
2026-01-22 11:03:23.90	260.12	53.01	-28.6	-30.1	16.6	1.11e-04	0	44	0	661651456	18	4294
2026-01-22 11:03:26.92	262.25	52.97	-28.4	-29.6	16.9	7.00e-07	0	44	0	666894336	18	4142
2026-01-22 11:03:29.93	264.37	52.89	-28.6	-30.9	16.3	0.00e+00	0	44	0	673185792	17	4664
2026-01-22 11:03:32.93	266.46	52.77	-28.7	-30.4	16.4	0.00e+00	0	44	0	678428672	18	4368
2026-01-22 11:03:35.94	268.54	52.62	-28.7	-30.3	16.5	0.00e+00	0	44	0	683671552	18	4338
2026-01-22 11:03:38.95	270.60	52.42	-28.6	-30.1	16.6	0.00e+00	0	44	0	689963008	18	4287
2026-01-22 11:03:41.97	272.63	52.19	-28.9	-30.9	16.1	1.32e-04	0	44	0	695205888	18	4535
2026-01-22 11:03:44.98	274.62	51.93	-29.4	-32.1	15.3	7.85e-05	0	44	0	701497344	18	4924
2026-01-22 11:03:47.99	276.58	51.63	-29.7	-32.5	14.8	5.30e-06	0	44	0	706740224	19	4922
2026-01-22 11:03:50.99	278.48	51.30	-31.2	-35.0	12.1	1.05e-04	0	44	0	711983104	22	5619
2026-01-22 11:03:54.00	280.36	50.94	-30.5	-32.9	13.6	2.21e-04	0	44	0	718274560	22	4771
2026-01-22 11:03:57.01	282.18	50.56	-31.4	-35.6	11.7	6.09e-04	0	44	0	723517440	22	5844
2026-01-22 11:04:00.02	283.96	50.14	-31.0	-34.5	12.5	5.26e-05	0	44	0	728760320	22	5342
2026-01-22 11:04:03.03	285.69	49.71	-31.5	-35.3	11.5	1.43e-03	0	44	0	735051776	23	5635
2026-01-22 11:04:06.02	287.36	49.25	-32.0	-36.5	10.3	2.72e-03	0	44	0	740294656	24	6049
2026-01-22 11:04:09.03	288.99	48.77	-31.6	-35.1	11.4	1.25e-03	0	44	0	746586112	24	5413
2026-01-22 11:04:12.03	290.56	48.28	-31.9	-36.2	10.6	3.85e-03	0	44	0	751828992	24	5890
2026-01-22 11:04:15.04	292.09	47.77	-31.8	-35.7	11.0	2.28e-03	0	44	0	757071872	24	5662
2026-01-22 11:04:18.04	293.57	47.24	-31.7	-35.6	11.1	1.89e-03	0	44	0	763363328	24	5609
2026-01-22 11:04:21.04	294.99	46.70	-31.1	-34.0	12.5	1.33e-04	0	44	0	768606208	23	5072
2026-01-22 11:04:24.05	296.37	46.15	-31.3	-34.8	12.0	3.35e-04	0	44	0	773849088	23	5386
2026-01-22 11:04:27.06	297.71	45.59	-31.6	-35.6	11.4	1.44e-03	0	44	0	780140544	23	5742
2026-01-22 11:04:30.07	299.00	45.02	-31.4	-34.9	11.9	2.88e-04	0	44	0	785383424	23	5420
2026-01-22 11:04:33.08	300.24	44.45	-31.1	-34.1	12.4	2.72e-04	0	44	0	791674880	23	5093
2026-01-22 11:04:36.08	301.43	43.87	-31.0	-34.0	12.5	9.46e-05	0	44	0	796917760	23	5049
2026-01-22 11:04:39.08	302.58	43.29	-31.4	-35.0	11.7	4.05e-04	0	44	0	802160640	23	5464
2026-01-22 11:04:42.10	303.70	42.70	-30.5	-33.0	13.5	1.85e-04	0	44	0	808452096	22	4798
2026-01-22 11:04:45.12	304.78	42.10	-31.5	-35.5	11.3	5.84e-04	0	44	0	813694976	23	5706
2026-01-22 11:04:48.13	305.82	41.51	-31.2	-34.4	12.1	3.45e-04	0	44	0	818937856	23	5232
2026-01-22 11:04:51.14	306.82	40.92	-31.4	-35.2	11.6	3.43e-04	0	44	0	825229312	23	5571
2026-01-22 11:04:54.15	307.78	40.33	-32.7	-38.8	8.1	3.98e-02	0	44	0	830472192	25	7311
2026-01-22 11:04:57.17	308.72	39.74	-32.3	-37.3	9.2	3.26e-02	0	44	0	836763648	25	6418
2026-01-22 11:05:00.17	309.61	39.15	-32.5	-38.0	8.7	2.47e-02	0	44	0	842006528	25	6777
2026-01-22 11:05:03.18	310.48	38.57	-32.2	-36.9	9.5	2.97e-02	0	44	0	847249408	25	6180
2026-01-22 11:05:06.19	311.31	37.98	-30.7	-33.4	13.2	1.90e-05	0	44	0	853540864	22	4937
2026-01-22 11:05:09.20	312.12	37.41	-32.5	-38.5	8.7	1.27e-02	0	44	0	858783744	24	7206
2026-01-22 11:05:12.21	312.90	36.83	-31.1	-34.1	12.2	1.71e-03	0	44	0	864026624	23	5123
2026-01-22 11:05:15.22	313.65	36.26	-30.6	-33.7	13.2	3.38e-04	0	44	0	870318080	21	5183
2026-01-22 11:05:18.23	314.38	35.70	-32.6	-38.6	8.2	3.22e-02	0	44	0	875560960	25	7197
2026-01-22 11:05:21.26	315.09	35.13	-30.6	-33.3	13.1	7.01e-05	0	44	0	881852416	22	4917
2026-01-22 11:05:24.25	315.77	34.58	-30.6	-33.7	13.2	2.05e-05	0	44	0	887095296	21	5171
2026-01-22 11:05:27.25	316.42	34.04	-32.2	-37.6	9.3	1.49e-02	0	44	0	892338176	24	6689
2026-01-22 11:05:30.25	317.06	33.49	-31.2	-34.7	11.8	7.18e-04	0	44	0	898629632	23	5343
2026-01-22 11:05:33.26	317.67	32.96	-31.2	-35.0	11.9	3.33e-04	0	44	0	903872512	22	5573
2026-01-22 11:05:36.28	318.27	32.42	-31.8	-36.8	10.3	2.21e-03	0	44	0	910163968	23	6346
2026-01-22 11:05:39.28	318.85	31.90	-32.6	-38.6	8.1	6.63e-02	0	44	0	915406848	25	7204
2026-01-22 11:05:42.28	319.41	31.38	-31.7	-35.6	10.8	5.25e-03	0	44	0	920649728	24	5652
2026-01-22 11:05:45.30	319.95	30.87	-31.3	-34.8	11.7	8.54e-04	0	44	0	926941184	23	5393
2026-01-22 11:05:48.32	320.48	30.36	-31.6	-35.9	10.9	1.92e-03	0	44	0	932184064	23	5892
2026-01-22 11:05:51.32	320.99	29.86	-31.8	-36.9	10.0	7.65e-03	0	44	0	937426944	23	6482
2026-01-22 11:05:54.33	321.49	29.37	-31.3	-35.0	11.5	1.11e-03	0	44	0	943718400	23	5506
2026-01-22 11:05:57.34	321.97	28.88	-31.3	-34.9	11.6	7.60e-04	0	44	0	948961280	23	5451
2026-01-22 11:06:00.35	322.44	28.40	-30.9	-34.3	12.4	1.31e-04	0	44	0	955252736	22	5311
2026-01-22 11:06:03.35	322.89	27.93	-31.2	-35.0	11.8	8.17e-04	0	44	0	960495616	22	5617
2026-01-22 11:06:06.35	323.33	27.46	-31.1	-34.8	12.0	1.55e-03	0	44	0	965738496	22	5530
2026-01-22 11:06:09.36	323.76	27.00	-31.0	-34.7	12.1	1.09e-03	0	44	0	972029952	22	5494
2026-01-22 11:06:12.37	324.18	26.55	-30.6	-33.5	12.8	9.68e-05	0	44	0	977272832	22	5024
2026-01-22 11:06:15.37	324.58	26.10	-30.5	-33.5	13.2	1.10e-04	0	44	0	982515712	21	5125
2026-01-22 11:06:18.37	324.98	25.66	-30.8	-34.5	12.5	1.17e-04	0	44	0	988807168	21	5501
2026-01-22 11:06:21.37	325.36	25.22	-31.0	-34.7	12.0	3.05e-04	0	44	0	994050048	22	5514
2026-01-22 11:06:24.39	325.74	24.79	-30.7	-33.8	12.6	1.65e-04	0	44	0	1000341504	22	5133
2026-01-22 11:06:27.40	326.10	24.36	-30.6	-33.6	12.8	8.06e-04	0	44	0	1005584384	22	5076
2026-01-22 11:06:30.41	326.46	23.94	-30.0	-32.3	13.9	9.90e-06	0	44	0	1010827264	21	4699
2026-01-22 11:06:33.41	326.80	23.53	-29.9	-32.5	14.1	3.77e-04	0	44	0	1017118720	20	4852
2026-01-22 11:06:36.41	327.14	23.12	-30.0	-32.9	13.8	3.28e-05	0	44	0	1022361600	20	5015
2026-01-22 11:06:39.41	327.47	22.72	-30.3	-33.5	13.4	1.52e-05	0	44	0	1027604480	20	5244
2026-01-22 11:06:42.42	327.79	22.32	-30.4	-33.9	13.2	2.01e-04	0	44	0	1033895936	20	5386
2026-01-22 11:06:45.43	328.11	21.93	-30.4	-33.8	13.2	4.22e-04	0	44	0	1039138816	20	5366
2026-01-22 11:06:48.44	328.41	21.54	-30.2	-33.4	13.4	1.44e-05	0	44	0	1045430272	20	5203
2026-01-22 11:06:51.45	328.71	21.16	-30.2	-33.4	13.4	1.44e-05	0	44	0	1050673152	20	5207
2026-01-22 11:06:54.44	329.00	20.78	-30.2	-33.3	13.5	2.97e-04	0	44	0	1055916032	20	5175
2026-01-22 11:06:57.46	329.29	20.41	-30.4	-34.0	13.0	3.28e-05	0	44	0	1062207488	20	5457
2026-01-22 11:07:00.47	329.57	20.04	-30.8	-34.5	12.2	3.46e-04	0	44	0	1067450368	21	5554
2026-01-22 11:07:03.48	329.84	19.68	-30.7	-34.3	12.4	4.11e-04	0	44	0	1072693248	21	5473
2026-01-22 11:07:06.49	330.11	19.32	-30.5	-33.8	12.7	2.57e-04	0	44	0	1078984704	21	5292
2026-01-22 11:07:09.49	330.37	18.97	-30.3	-33.3	13.1	3.73e-05	0	44	0	1084227584	21	5061
2026-01-22 11:07:12.50	330.62	18.62	-30.2	-32.9	13.3	1.90e-05	0	44	0	1090519040	21	4939
2026-01-22 11:07:15.51	330.87	18.27	-29.9	-32.8	13.7	5.99e-04	0	44	0	1095761920	20	4980
2026-01-22 11:07:18.53	331.12	17.93	-29.8	-32.3	13.9	2.20e-06	0	44	0	1101004800	20	4835
2026-01-22 11:07:21.55	331.36	17.59	-29.8	-32.3	14.0	3.00e-06	0	44	0	1107296256	20	4824
2026-01-22 11:07:24.55	331.59	17.26	-29.9	-32.6	13.8	5.60e-04	0	44	0	1112539136	20	4914
2026-01-22 11:07:27.56	331.82	16.94	-30.0	-33.0	13.5	1.52e-05	0	44	0	1117782016	20	5074
2026-01-22 11:07:30.58	332.05	16.61	-30.1	-33.3	13.3	2.13e-05	0	44	0	1124073472	20	5197
2026-01-22 11:07:33.60	332.27	16.29	-30.1	-33.4	13.2	2.36e-05	0	44	0	1129316352	20	5225
2026-01-22 11:07:36.61	332.49	15.97	-30.1	-33.4	13.1	4.34e-04	0	44	0	1135607808	20	5243
2026-01-22 11:07:39.63	332.70	15.66	-30.1	-33.3	13.2	4.07e-04	0	44	0	1140850688	20	5205
2026-01-22 11:07:42.63	332.91	15.35	-30.1	-33.4	13.1	2.36e-05	0	44	0	1146093568	20	5225
2026-01-22 11:07:45.64	333.11	15.05	-30.2	-33.7	12.9	4.61e-04	0	44	0	1152385024	20	5348
2026-01-22 11:07:48.66	333.31	14.74	-30.2	-33.5	13.0	3.12e-05	0	44	0	1157627904	20	5281
2026-01-22 11:07:51.68	333.51	14.44	-30.3	-33.8	12.8	7.47e-05	0	44	0	1163919360	20	5422
2026-01-22 11:07:54.68	333.70	14.15	-30.5	-34.2	12.2	1.80e-03	0	44	0	1169162240	21	5455
2026-01-22 11:07:57.69	333.89	13.86	-30.6	-34.5	11.9	1.14e-03	0	44	0	1174405120	21	5586
2026-01-22 11:08:00.67	334.08	13.57	-30.7	-34.7	11.7	4.44e-04	0	44	0	1180696576	21	5698
2026-01-22 11:08:03.69	334.26	13.29	-30.9	-35.1	11.4	7.52e-04	0	44	0	1185939456	21	5903
2026-01-22 11:08:06.70	334.44	13.00	-30.8	-34.9	11.5	1.02e-03	0	44	0	1192230912	21	5804
2026-01-22 11:08:09.72	334.62	12.72	-31.0	-35.2	10.9	1.55e-03	0	44	0	1197473792	22	5851
2026-01-22 11:08:12.73	334.79	12.45	-30.7	-34.0	11.8	7.22e-04	0	44	0	1202716672	22	5302
2026-01-22 11:08:15.74	334.96	12.17	-30.7	-34.2	11.6	1.25e-03	0	44	0	1209008128	22	5413
2026-01-22 11:08:18.74	335.13	11.90	-30.5	-33.7	12.0	3.17e-04	0	44	0	1214251008	22	5189
2026-01-22 11:08:21.76	335.29	11.63	-30.5	-34.2	11.9	2.91e-04	0	44	0	1220542464	21	5520
2026-01-22 11:08:24.77	335.45	11.37	-30.3	-33.5	12.4	7.12e-04	0	44	0	1225785344	21	5202
2026-01-22 11:08:27.78	335.61	11.11	-30.4	-33.7	12.3	1.58e-04	0	44	0	1231028224	21	5313
2026-01-22 11:08:30.77	335.77	10.85	-30.2	-33.4	12.5	1.32e-03	0	44	0	1237319680	21	5179
2026-01-22 11:08:33.79	335.92	10.59	-30.3	-33.8	12.1	1.47e-03	0	44	0	1242562560	21	5353
2026-01-22 11:08:36.80	336.08	10.34	-30.4	-33.9	12.0	7.46e-04	0	44	0	1247805440	21	5422
2026-01-22 11:08:39.80	336.23	10.08	-30.5	-34.4	11.7	4.79e-04	0	44	0	1254096896	21	5588
2026-01-22 11:08:42.81	336.37	9.83	-30.6	-34.6	11.5	9.34e-04	0	44	0	1259339776	21	5710
2026-01-22 11:08:45.82	336.52	9.59	-30.7	-35.0	11.2	1.74e-03	0	44	0	1265631232	21	5877
2026-01-22 11:08:48.82	336.66	9.34	-30.9	-35.5	10.8	4.47e-03	0	44	0	1270874112	21	6115
2026-01-22 11:08:51.82	336.80	9.10	-31.1	-36.0	10.0	8.85e-03	0	44	0	1276116992	22	6288
2026-01-22 11:08:54.83	336.94	8.86	-31.1	-35.8	10.2	7.44e-03	0	44	0	1282408448	22	6200
2026-01-22 11:08:57.84	337.07	8.62	-31.2	-36.1	10.0	6.90e-03	0	44	0	1287651328	22	6343
2026-01-22 11:09:00.85	337.21	8.38	-31.1	-35.9	10.1	8.08e-03	0	44	0	1292894208	22	6262
2026-01-22 11:09:03.86	337.34	8.15	-30.9	-35.2	10.6	3.63e-03	0	44	0	1299185664	22	5904
2026-01-22 11:09:06.87	337.47	7.92	-30.8	-35.1	10.5	7.10e-03	0	44	0	1304428544	22	5906
2026-01-22 11:09:09.89	337.60	7.69	-30.7	-35.0	11.0	2.25e-03	0	44	0	1310720000	21	5890
2026-01-22 11:09:12.91	337.73	7.46	-30.7	-35.0	11.0	1.86e-03	0	44	0	1315962880	21	5909
2026-01-22 11:09:15.91	337.85	7.23	-30.7	-35.2	10.8	4.00e-03	0	44	0	1321205760	21	6030
2026-01-22 11:09:18.91	337.98	7.01	-33.1	-47.0	3.8	1.22e+00	0	44	104	1326448640	26	17764

#Closed at: 2026-01-22 11:09:21
#Recorded file [1326 MB]: D:/data/31010_260122_135730.dat