passes_logs/2026/01/22/R2M6_AANII_01/R2M6_AANII_01__20260122_224509_SUOMI_NPP_rec.log

#Pass ID: 20260122_224509_SUOMI NPP
#Satellite: SUOMI NPP
#Configuration: NPP
#almurnet v.1.7.20240730
#Start time: 2026-01-22 22:45:10

#Version: 2.2.20231116
#Station: R2M6_AANII_01
#Location: 30.233357 lon 59.946436 lat
#TLE: 1 37849U 11061A   26022.50498765  .00000208  00000+0  11976-3 0  9992
#TLE: 2 37849  98.7820 324.4892 0002275  50.8149 309.3229 14.19528284737775

#Time	Az	El	Level	Level2	SNR	BER	BlckErr	Temp	State	Recorded	gain1	gain2
2026-01-22 22:45:10.89	30.82	7.08	-32.0	-37.4	4.8	1.28e+00	0	42	0	0	24	6656
2026-01-22 22:45:13.89	31.12	7.26	-32.5	-39.4	5.3	4.94e-01	0	42	0	1048576	25	7925
2026-01-22 22:45:16.90	31.42	7.45	-32.4	-39.1	5.8	3.20e-01	0	42	0	7340032	24	7787
2026-01-22 22:45:19.91	31.72	7.64	-32.1	-37.1	7.2	1.57e-01	0	42	0	12582912	24	6400
2026-01-22 22:45:22.92	32.03	7.82	-31.9	-36.8	7.9	6.95e-02	0	42	0	17825792	23	6319
2026-01-22 22:45:25.94	32.34	8.01	-32.2	-37.3	7.2	1.61e-01	0	42	0	24117248	24	6492
2026-01-22 22:45:28.96	32.66	8.20	-31.6	-34.7	9.2	2.40e-02	0	42	0	29360128	24	5139
2026-01-22 22:45:31.96	32.97	8.39	-31.3	-34.2	10.0	5.34e-03	0	42	0	35651584	23	5035
2026-01-22 22:45:34.95	33.29	8.58	-31.2	-33.7	10.4	5.17e-03	0	42	0	40894464	23	4826
2026-01-22 22:45:37.95	33.62	8.77	-31.0	-33.2	10.8	3.15e-03	0	42	0	46137344	23	4621
2026-01-22 22:45:40.95	33.95	8.96	-30.8	-32.6	11.3	1.10e-03	0	42	0	52428800	23	4397
2026-01-22 22:45:43.97	34.29	9.15	-30.6	-32.4	11.8	6.70e-04	0	43	0	57671680	22	4419
2026-01-22 22:45:46.97	34.62	9.34	-30.4	-31.8	12.3	1.93e-04	0	43	0	62914560	22	4202
2026-01-22 22:45:49.97	34.97	9.54	-30.6	-32.2	11.9	3.18e-04	0	43	0	69206016	22	4353
2026-01-22 22:45:52.97	35.31	9.73	-30.5	-31.9	12.2	2.16e-04	0	43	0	74448896	22	4253
2026-01-22 22:45:55.99	35.67	9.93	-30.5	-32.0	12.2	2.71e-04	0	43	0	80740352	22	4260
2026-01-22 22:45:59.00	36.02	10.12	-30.6	-32.3	12.0	3.95e-04	0	43	0	85983232	22	4364
2026-01-22 22:46:02.00	36.38	10.32	-30.7	-32.6	11.8	4.73e-04	0	43	0	91226112	22	4453
2026-01-22 22:46:05.02	36.75	10.51	-30.7	-32.7	11.7	4.95e-04	0	43	0	97517568	22	4488
2026-01-22 22:46:08.02	37.12	10.71	-30.6	-32.1	12.1	3.88e-04	0	43	0	102760448	22	4310
2026-01-22 22:46:11.04	37.50	10.91	-30.6	-32.2	12.1	1.95e-04	0	43	0	109051904	22	4316
2026-01-22 22:46:14.05	37.88	11.11	-30.7	-32.5	11.9	2.86e-04	0	43	0	114294784	22	4436
2026-01-22 22:46:17.06	38.26	11.30	-30.4	-32.2	12.4	9.91e-05	0	43	0	119537664	21	4425
2026-01-22 22:46:20.08	38.66	11.50	-30.4	-32.7	12.4	1.18e-04	0	43	0	125829120	20	4692
2026-01-22 22:46:23.07	39.05	11.70	-30.4	-32.6	12.6	8.23e-05	0	43	0	131072000	20	4628
2026-01-22 22:46:26.09	39.45	11.90	-30.2	-32.0	13.0	4.11e-05	0	43	0	136314880	20	4445
2026-01-22 22:46:29.08	39.86	12.10	-30.1	-31.8	13.1	2.67e-05	0	43	0	142606336	20	4378
2026-01-22 22:46:32.10	40.27	12.30	-30.1	-31.6	13.3	1.44e-05	0	43	0	147849216	20	4301
2026-01-22 22:46:35.12	40.69	12.50	-30.4	-32.4	12.8	6.17e-05	0	43	0	154140672	20	4547
2026-01-22 22:46:38.13	41.11	12.71	-30.4	-32.5	12.8	6.40e-05	0	43	0	159383552	20	4576
2026-01-22 22:46:41.13	41.54	12.91	-30.3	-32.2	13.0	3.35e-05	0	43	0	164626432	20	4481
2026-01-22 22:46:44.14	41.97	13.11	-30.3	-32.3	12.9	4.80e-05	0	43	0	170917888	20	4527
2026-01-22 22:46:47.13	42.41	13.31	-30.5	-32.2	12.7	9.30e-05	0	44	0	176160768	21	4389
2026-01-22 22:46:50.15	42.85	13.51	-30.4	-32.0	12.8	8.39e-05	0	43	0	181403648	21	4321
2026-01-22 22:46:53.16	43.31	13.71	-30.2	-31.9	13.2	2.13e-05	0	43	0	187695104	20	4372
2026-01-22 22:46:56.16	43.76	13.92	-30.1	-31.7	13.3	2.51e-05	0	43	0	192937984	20	4308
2026-01-22 22:46:59.17	44.23	14.12	-29.9	-31.2	13.6	6.10e-06	0	43	0	199229440	20	4165
2026-01-22 22:47:02.17	44.69	14.32	-30.1	-31.6	13.4	1.06e-05	0	43	0	204472320	20	4295
2026-01-22 22:47:05.18	45.17	14.52	-30.1	-31.6	13.4	1.90e-05	0	43	0	209715200	20	4280
2026-01-22 22:47:08.20	45.65	14.72	-30.2	-31.8	13.3	3.58e-05	0	43	0	216006656	20	4331
2026-01-22 22:47:11.20	46.14	14.93	-30.1	-31.6	13.5	1.14e-05	0	43	0	221249536	20	4259
2026-01-22 22:47:14.21	46.64	15.13	-30.0	-31.2	13.8	5.30e-06	0	43	0	226492416	20	4157
2026-01-22 22:47:17.22	47.14	15.33	-30.3	-32.1	13.2	2.36e-05	0	44	0	232783872	20	4427
2026-01-22 22:47:20.23	47.65	15.53	-30.4	-32.5	13.0	3.81e-05	0	44	0	238026752	20	4551
2026-01-22 22:47:23.24	48.16	15.73	-30.6	-32.5	12.6	1.05e-04	0	44	0	244318208	21	4466
2026-01-22 22:47:26.26	48.69	15.93	-30.1	-31.0	13.6	7.60e-06	0	44	0	249561088	21	3987
2026-01-22 22:47:29.26	49.21	16.13	-30.3	-31.6	13.2	1.44e-05	0	44	0	254803968	21	4182
2026-01-22 22:47:32.26	49.75	16.33	-30.2	-31.4	13.3	1.90e-05	0	44	0	261095424	21	4129
2026-01-22 22:47:35.28	50.29	16.53	-30.1	-31.1	13.6	1.22e-05	0	44	0	266338304	21	4030
2026-01-22 22:47:38.29	50.84	16.72	-30.0	-31.3	13.7	7.60e-06	0	44	0	272629760	20	4195
2026-01-22 22:47:41.30	51.40	16.92	-30.0	-31.2	13.8	6.80e-06	0	44	0	277872640	20	4156
2026-01-22 22:47:44.30	51.96	17.11	-29.9	-31.1	13.9	2.20e-06	0	44	0	283115520	20	4100
2026-01-22 22:47:47.30	52.53	17.31	-29.0	-30.2	13.7	2.20e-06	0	44	0	289406976	20	4157
2026-01-22 22:47:50.30	53.10	17.50	-30.1	-31.4	13.3	6.10e-06	0	44	0	294649856	20	4202
2026-01-22 22:47:53.31	53.69	17.69	-30.0	-31.2	13.8	5.30e-06	0	44	0	299892736	20	4145
2026-01-22 22:47:56.33	54.28	17.88	-30.2	-31.9	13.4	6.10e-06	0	44	0	306184192	20	4337
2026-01-22 22:47:59.34	54.88	18.07	-30.4	-32.2	13.2	8.30e-06	0	44	0	311427072	20	4450
2026-01-22 22:48:02.36	55.49	18.26	-30.5	-32.2	12.9	4.50e-05	0	44	0	317718528	21	4365
2026-01-22 22:48:05.35	56.10	18.44	-30.7	-32.6	12.6	1.22e-04	0	44	0	322961408	21	4490
2026-01-22 22:48:08.35	56.72	18.62	-30.2	-31.8	13.5	2.68e-04	0	44	0	328204288	20	4339
2026-01-22 22:48:11.36	57.35	18.81	-30.7	-32.7	12.6	4.45e-04	0	44	0	334495744	21	4511
2026-01-22 22:48:14.37	57.99	18.98	-30.7	-32.5	12.7	3.35e-04	0	44	0	339738624	21	4454
2026-01-22 22:48:17.39	58.63	19.16	-31.0	-33.4	12.1	5.27e-04	0	44	0	344981504	21	4756
2026-01-22 22:48:20.38	59.28	19.34	-31.1	-33.1	12.0	4.44e-04	0	44	0	351272960	22	4578
2026-01-22 22:48:23.39	59.94	19.51	-31.2	-33.5	11.8	4.26e-04	0	44	0	356515840	22	4711
2026-01-22 22:48:26.41	60.61	19.68	-31.3	-33.7	11.7	6.58e-04	0	44	0	362807296	22	4773
2026-01-22 22:48:29.43	61.28	19.85	-31.0	-32.9	12.2	3.13e-04	0	44	0	368050176	22	4502
2026-01-22 22:48:32.44	61.96	20.01	-30.8	-32.3	12.6	1.54e-04	0	44	0	373293056	22	4274
2026-01-22 22:48:35.45	62.65	20.17	-30.8	-32.8	12.6	3.31e-04	0	44	0	379584512	21	4552
2026-01-22 22:48:38.47	63.35	20.33	-30.7	-32.7	12.7	9.77e-04	0	44	0	384827392	21	4518
2026-01-22 22:48:41.47	64.05	20.49	-31.2	-33.5	11.8	1.88e-03	0	44	0	391118848	22	4695
2026-01-22 22:48:44.49	64.76	20.64	-30.8	-33.0	12.5	9.38e-05	0	44	0	396361728	21	4610
2026-01-22 22:48:47.50	65.47	20.79	-30.5	-32.2	12.9	5.64e-05	0	44	0	401604608	21	4340
2026-01-22 22:48:50.52	66.20	20.94	-30.6	-32.2	13.0	1.13e-03	0	44	0	407896064	21	4340
2026-01-22 22:48:53.52	66.92	21.08	-30.4	-32.2	13.3	3.57e-04	0	44	0	413138944	20	4438
2026-01-22 22:48:56.53	67.66	21.21	-30.7	-32.7	12.7	3.44e-04	0	44	0	418381824	21	4526
2026-01-22 22:48:59.53	68.40	21.35	-30.6	-32.2	13.0	5.41e-05	0	44	0	424673280	21	4358
2026-01-22 22:49:02.55	69.15	21.48	-30.3	-31.6	13.4	2.97e-05	0	44	0	429916160	21	4159
2026-01-22 22:49:05.55	69.90	21.60	-30.5	-31.9	13.2	1.83e-05	0	44	0	436207616	21	4268
2026-01-22 22:49:08.56	70.66	21.72	-30.6	-32.2	13.1	3.43e-05	0	44	0	441450496	21	4351
2026-01-22 22:49:11.58	71.43	21.84	-30.3	-31.5	13.4	1.60e-05	0	44	0	446693376	21	4137
2026-01-22 22:49:14.58	72.19	21.95	-29.8	-30.6	14.4	6.56e-05	0	44	0	452984832	20	3938
2026-01-22 22:49:17.60	72.97	22.06	-30.0	-31.1	14.1	1.50e-06	0	44	0	458227712	20	4099
2026-01-22 22:49:20.61	73.75	22.16	-29.9	-31.0	14.1	5.30e-06	0	44	0	464519168	20	4066
2026-01-22 22:49:23.60	74.54	22.25	-30.3	-32.1	13.5	8.30e-06	0	44	0	469762048	20	4393
2026-01-22 22:49:26.60	75.32	22.34	-30.5	-32.0	13.2	3.35e-05	0	44	0	475004928	21	4282
2026-01-22 22:49:29.60	76.12	22.43	-30.4	-31.8	13.3	1.29e-05	0	44	0	481296384	21	4226
2026-01-22 22:49:32.60	76.91	22.51	-30.8	-32.7	12.7	7.47e-05	0	44	0	486539264	21	4512
2026-01-22 22:49:35.61	77.72	22.59	-30.2	-31.3	13.6	9.90e-06	0	44	0	491782144	21	4085
2026-01-22 22:49:38.62	78.53	22.66	-30.5	-32.0	12.9	1.52e-05	0	44	0	498073600	21	4289
2026-01-22 22:49:41.62	79.33	22.72	-30.7	-32.6	12.7	8.69e-05	0	44	0	503316480	21	4491
2026-01-22 22:49:44.63	80.15	22.78	-30.4	-31.7	13.4	2.13e-05	0	44	0	508559360	21	4202
2026-01-22 22:49:47.63	80.96	22.83	-30.5	-31.9	13.2	1.29e-05	0	44	0	514850816	21	4265
2026-01-22 22:49:50.64	81.78	22.88	-30.1	-31.0	13.9	1.50e-06	0	44	0	520093696	21	3976
2026-01-22 22:49:53.65	82.61	22.92	-30.3	-31.4	13.6	6.10e-06	0	44	0	526385152	21	4106
2026-01-22 22:49:56.66	83.43	22.96	-30.0	-30.8	14.0	6.10e-06	0	44	0	531628032	21	3911
2026-01-22 22:49:59.67	84.26	22.99	-30.5	-31.9	13.2	1.52e-05	0	44	0	536870912	21	4268
2026-01-22 22:50:02.66	85.08	23.01	-30.7	-32.6	12.8	6.02e-05	0	44	0	543162368	21	4475
2026-01-22 22:50:05.67	85.91	23.03	-30.5	-32.1	13.1	3.43e-05	0	44	0	548405248	21	4320
2026-01-22 22:50:08.68	86.74	23.04	-30.3	-31.4	13.6	8.30e-06	0	44	0	553648128	21	4101
2026-01-22 22:50:11.69	87.57	23.04	-30.2	-31.2	13.7	6.17e-05	0	44	0	559939584	21	4045
2026-01-22 22:50:14.70	88.40	23.04	-30.1	-31.0	13.9	1.07e-04	0	44	0	565182464	21	3976
2026-01-22 22:50:17.71	89.23	23.04	-29.7	-30.5	14.5	1.03e-04	0	44	0	571473920	20	3917
2026-01-22 22:50:20.72	90.06	23.02	-29.7	-30.4	14.5	9.07e-05	0	44	0	576716800	20	3891
2026-01-22 22:50:23.72	90.88	23.00	-29.9	-31.0	14.2	1.31e-04	0	44	0	581959680	20	4064
2026-01-22 22:50:26.74	91.71	22.98	-30.3	-31.9	13.6	9.53e-05	0	44	0	588251136	20	4340
2026-01-22 22:50:29.76	92.54	22.95	-30.1	-31.5	13.8	7.00e-07	0	44	0	593494016	20	4230
2026-01-22 22:50:32.77	93.37	22.91	-30.1	-31.4	13.9	8.30e-06	0	44	0	599785472	20	4185
2026-01-22 22:50:35.78	94.19	22.87	-30.0	-31.2	14.0	3.00e-06	0	44	0	605028352	20	4141
2026-01-22 22:50:38.79	95.01	22.82	-29.8	-30.6	14.4	1.50e-06	0	44	0	610271232	20	3974
2026-01-22 22:50:41.80	95.83	22.76	-30.2	-31.7	13.7	4.50e-06	0	44	0	616562688	20	4286
2026-01-22 22:50:44.81	96.64	22.70	-30.0	-31.3	13.9	2.20e-06	0	44	0	621805568	20	4176
2026-01-22 22:50:47.81	97.45	22.64	-29.7	-30.5	14.4	3.80e-06	0	44	0	627048448	20	3944
2026-01-22 22:50:50.82	98.26	22.56	-29.6	-30.1	14.6	7.00e-07	0	44	0	633339904	20	3838
2026-01-22 22:50:53.83	99.06	22.49	-29.6	-30.2	14.5	7.00e-07	0	44	0	638582784	20	3857
2026-01-22 22:50:56.84	99.86	22.40	-29.7	-30.4	14.4	0.00e+00	0	44	0	644874240	20	3903
2026-01-22 22:50:59.85	100.66	22.31	-29.6	-30.2	14.5	3.80e-06	0	44	0	650117120	20	3875
2026-01-22 22:51:02.85	101.44	22.22	-29.6	-30.3	14.5	6.10e-06	0	44	0	655360000	20	3885
2026-01-22 22:51:05.85	102.23	22.12	-29.4	-29.8	14.8	3.80e-06	0	44	0	661651456	20	3765
2026-01-22 22:51:08.87	103.01	22.02	-29.4	-29.8	14.8	1.50e-06	0	44	0	666894336	20	3755
2026-01-22 22:51:11.88	103.79	21.91	-29.2	-29.7	15.2	0.00e+00	0	44	0	672137216	19	3806
2026-01-22 22:51:14.89	104.56	21.80	-28.9	-29.0	15.6	0.00e+00	0	44	0	678428672	19	3644
2026-01-22 22:51:17.90	105.33	21.68	-28.9	-29.3	15.7	0.00e+00	0	44	0	683671552	18	3794
2026-01-22 22:51:20.91	106.09	21.55	-29.1	-30.0	15.3	0.00e+00	0	44	0	689963008	18	3967
2026-01-22 22:51:23.92	106.84	21.43	-29.2	-30.1	15.2	0.00e+00	0	44	0	695205888	18	3995
2026-01-22 22:51:26.93	107.59	21.30	-29.1	-29.9	15.3	0.00e+00	0	44	0	700448768	18	3942
2026-01-22 22:51:29.94	108.33	21.16	-29.2	-30.1	15.2	0.00e+00	0	44	0	706740224	18	4024
2026-01-22 22:51:32.96	109.07	21.02	-29.4	-30.7	14.9	0.00e+00	0	44	0	711983104	18	4182
2026-01-22 22:51:35.97	109.79	20.88	-29.4	-30.7	14.8	0.00e+00	0	44	0	718274560	18	4186
2026-01-22 22:51:38.98	110.52	20.73	-29.2	-30.2	15.1	0.00e+00	0	44	0	723517440	18	4056
2026-01-22 22:51:41.99	111.23	20.58	-29.7	-31.1	14.3	7.00e-07	0	44	0	728760320	19	4198
2026-01-22 22:51:44.99	111.94	20.43	-30.3	-32.3	13.1	8.30e-06	0	44	0	735051776	20	4521
2026-01-22 22:51:48.01	112.64	20.27	-30.5	-32.2	12.8	5.87e-05	0	44	0	740294656	21	4396
2026-01-22 22:51:51.01	113.33	20.11	-30.4	-32.2	12.8	5.87e-05	0	44	0	745537536	21	4382
2026-01-22 22:51:54.03	114.02	19.94	-30.2	-31.4	13.2	3.28e-05	0	44	0	751828992	21	4160
2026-01-22 22:51:57.02	114.70	19.78	-30.2	-31.4	13.2	2.82e-05	0	44	0	757071872	21	4140
2026-01-22 22:52:00.02	115.37	19.61	-30.2	-31.4	13.3	4.88e-05	0	44	0	763363328	21	4128
2026-01-22 22:52:03.03	116.03	19.44	-30.2	-31.3	13.3	6.80e-06	0	44	0	768606208	21	4108
2026-01-22 22:52:06.04	116.69	19.26	-30.5	-32.3	12.6	7.85e-05	0	44	0	773849088	21	4447
2026-01-22 22:52:09.04	117.34	19.09	-30.5	-32.3	12.6	1.40e-04	0	44	0	780140544	21	4458
2026-01-22 22:52:12.04	117.98	18.91	-30.3	-31.8	12.9	2.51e-05	0	44	0	785383424	21	4282
2026-01-22 22:52:15.04	118.62	18.73	-30.4	-32.1	12.7	6.02e-05	0	44	0	790626304	21	4358
2026-01-22 22:52:18.05	119.25	18.54	-30.4	-32.0	12.8	1.03e-04	0	44	0	796917760	21	4324
2026-01-22 22:52:21.05	119.87	18.36	-30.4	-32.0	12.8	6.79e-05	0	44	0	802160640	21	4342
2026-01-22 22:52:24.06	120.48	18.17	-30.8	-33.2	12.0	2.33e-04	0	44	0	808452096	21	4741
2026-01-22 22:52:27.06	121.08	17.98	-30.8	-33.4	11.8	3.76e-04	0	44	0	813694976	21	4828
2026-01-22 22:52:30.08	121.69	17.79	-31.0	-33.8	11.5	4.80e-04	0	44	0	818937856	21	4980
2026-01-22 22:52:33.09	122.28	17.60	-30.4	-32.1	12.7	1.28e-04	0	44	0	825229312	21	4386
2026-01-22 22:52:36.09	122.86	17.41	-30.0	-30.9	13.4	1.29e-05	0	44	0	830472192	21	4005
2026-01-22 22:52:39.10	123.44	17.21	-29.4	-29.8	14.4	0.00e+00	0	44	0	835715072	20	3802
2026-01-22 22:52:42.11	124.01	17.02	-29.8	-31.0	13.7	7.00e-07	0	44	0	842006528	20	4127
2026-01-22 22:52:45.13	124.57	16.82	-30.0	-31.5	13.4	2.13e-05	0	44	0	847249408	20	4277
2026-01-22 22:52:48.15	125.13	16.62	-30.2	-32.2	12.9	4.80e-05	0	44	0	853540864	20	4493
2026-01-22 22:52:51.15	125.68	16.42	-30.8	-33.4	11.7	2.91e-04	0	44	0	858783744	21	4828
2026-01-22 22:52:54.17	126.22	16.22	-30.6	-32.8	12.0	3.64e-04	0	44	0	864026624	21	4641
2026-01-22 22:52:57.18	126.76	16.02	-30.1	-31.4	13.0	3.50e-05	0	44	0	870318080	21	4180
2026-01-22 22:53:00.19	127.29	15.82	-30.0	-31.1	13.2	2.59e-05	0	44	0	875560960	21	4056
2026-01-22 22:53:03.18	127.80	15.62	-30.3	-32.2	12.4	1.39e-04	0	44	0	880803840	21	4441
2026-01-22 22:53:06.19	128.32	15.42	-29.7	-31.2	13.2	2.44e-05	0	44	0	887095296	20	4265
2026-01-22 22:53:09.20	128.83	15.21	-29.6	-30.6	13.7	6.10e-06	0	44	0	892338176	20	4057
2026-01-22 22:53:12.22	129.33	15.01	-30.0	-31.6	13.0	1.75e-05	0	44	0	898629632	20	4336
2026-01-22 22:53:15.23	129.82	14.81	-30.3	-32.3	12.7	9.46e-05	0	44	0	903872512	20	4549
2026-01-22 22:53:18.24	130.31	14.60	-30.2	-32.1	12.7	4.95e-05	0	44	0	909115392	20	4524
2026-01-22 22:53:21.26	130.79	14.40	-30.5	-32.6	12.0	2.96e-04	0	44	0	915406848	21	4606
2026-01-22 22:53:24.26	131.27	14.20	-30.6	-33.0	11.7	4.78e-04	0	44	0	920649728	21	4710
2026-01-22 22:53:27.27	131.74	13.99	-30.0	-31.8	12.7	5.63e-04	0	44	0	926941184	20	4431
2026-01-22 22:53:30.28	132.20	13.79	-29.9	-32.0	13.0	1.68e-04	0	44	0	932184064	19	4616
2026-01-22 22:53:33.29	132.66	13.58	-30.3	-32.8	12.1	2.83e-04	0	44	0	937426944	20	4775
2026-01-22 22:53:36.29	133.11	13.38	-30.8	-33.5	11.2	1.33e-03	0	44	0	943718400	21	4932
2026-01-22 22:53:39.30	133.55	13.18	-30.6	-33.1	11.4	7.43e-04	0	44	0	948961280	21	4829
2026-01-22 22:53:42.31	133.99	12.97	-30.4	-32.6	11.7	5.47e-04	0	44	0	954204160	21	4668
2026-01-22 22:53:45.33	134.42	12.77	-30.4	-32.5	11.8	6.23e-04	0	44	0	960495616	21	4591
2026-01-22 22:53:48.35	134.85	12.56	-30.2	-31.8	12.3	3.27e-04	0	44	0	965738496	21	4342
2026-01-22 22:53:51.36	135.27	12.36	-29.7	-31.2	13.0	1.19e-04	0	44	0	972029952	20	4257
2026-01-22 22:53:54.37	135.69	12.16	-29.7	-31.1	13.1	7.55e-05	0	44	0	977272832	20	4235
2026-01-22 22:53:57.37	136.10	11.96	-29.8	-31.6	12.7	1.52e-04	0	44	0	982515712	20	4399
2026-01-22 22:54:00.38	136.50	11.76	-30.0	-32.1	12.2	8.26e-04	0	44	0	988807168	20	4625
2026-01-22 22:54:03.39	136.90	11.55	-29.8	-32.4	12.4	6.71e-04	0	44	0	994050048	19	4830
2026-01-22 22:54:06.40	137.30	11.35	-29.8	-32.2	12.6	5.00e-04	0	44	0	1000341504	19	4710
2026-01-22 22:54:09.41	137.69	11.15	-30.2	-32.7	11.8	7.64e-04	0	44	0	1005584384	20	4793
2026-01-22 22:54:12.41	138.07	10.95	-30.4	-33.2	11.5	6.71e-04	0	44	0	1010827264	20	4934
2026-01-22 22:54:15.41	138.45	10.75	-30.3	-32.5	11.6	8.14e-04	0	44	0	1017118720	21	4623
2026-01-22 22:54:18.41	138.82	10.56	-30.2	-32.1	11.8	5.89e-04	0	44	0	1022361600	21	4496
2026-01-22 22:54:21.42	139.19	10.36	-30.2	-32.1	11.9	6.64e-04	0	44	0	1027604480	21	4462
2026-01-22 22:54:24.43	139.55	10.16	-30.1	-31.8	12.0	3.11e-04	0	44	0	1033895936	21	4391
2026-01-22 22:54:27.45	139.91	9.96	-30.4	-32.8	11.3	8.54e-04	0	44	0	1039138816	21	4776
2026-01-22 22:54:30.46	140.27	9.76	-30.5	-33.4	10.8	2.87e-03	0	44	0	1045430272	21	5013
2026-01-22 22:54:33.46	140.62	9.57	-30.7	-34.0	10.3	7.33e-03	0	44	0	1050673152	21	5221
2026-01-22 22:54:36.47	140.96	9.37	-30.9	-34.4	10.0	7.29e-03	0	44	0	1055916032	21	5397
2026-01-22 22:54:39.49	141.31	9.18	-30.8	-34.0	10.2	7.73e-03	0	44	0	1062207488	21	5243
2026-01-22 22:54:42.49	141.64	8.98	-30.7	-33.9	10.1	4.42e-03	0	44	0	1067450368	21	5235
2026-01-22 22:54:45.50	141.98	8.79	-30.4	-33.1	10.7	2.55e-03	0	44	0	1072693248	21	4890
2026-01-22 22:54:48.50	142.30	8.60	-30.1	-32.4	11.1	1.87e-03	0	44	0	1078984704	21	4655
2026-01-22 22:54:51.51	142.63	8.41	-30.3	-33.4	10.2	4.72e-03	0	44	0	1084227584	21	5124
2026-01-22 22:54:54.50	142.95	8.22	-30.1	-32.7	10.7	3.29e-03	0	44	0	1090519040	21	4837
2026-01-22 22:54:57.52	143.27	8.03	-30.3	-33.0	10.5	3.03e-03	0	44	0	1095761920	21	4928
2026-01-22 22:55:00.53	143.58	7.84	-30.2	-33.1	10.4	2.53e-03	0	44	0	1101004800	20	5024
2026-01-22 22:55:03.54	143.89	7.65	-30.5	-33.6	10.1	5.85e-03	0	44	0	1107296256	21	5109
2026-01-22 22:55:06.55	144.19	7.46	-30.8	-34.5	9.4	1.42e-02	0	44	0	1112539136	21	5542
2026-01-22 22:55:09.56	144.49	7.27	-30.8	-34.5	9.4	1.84e-02	0	44	0	1117782016	21	5520
2026-01-22 22:55:12.57	144.79	7.08	-32.2	-44.7	3.8	4.96e-01	0	44	104	1123024896	24	15131

#Closed at: 2026-01-22 22:55:15
#Recorded file [1123 MB]: D:/data/31010_260123_014512.dat