passes_logs/2026/01/22/R2M6_AANII_01/R2M6_AANII_01__20260122_033524_AQUA_rec.log

#Pass ID: 20260122_033524_AQUA
#Satellite: AQUA
#Configuration: AQUA
#almurnet v.1.7.20240730
#Start time: 2026-01-22 03:36:45

#Version: 2.2.20231116
#Station: R2M6_AANII_01
#Location: 30.233357 lon 59.946436 lat
#TLE: 1 27424U 02022A   26020.90316333  .00002787  00000+0  56766-3 0  9999
#TLE: 2 27424  98.4095 347.4297 0002000  71.6339 309.8236 14.61840001261750

#Time	Az	El	Level	Level2	SNR	BER	BlckErr	Temp	State	Recorded	gain1	gain2
2026-01-22 03:36:45.61	357.38	13.08	-33.9	-43.3	3.8	8.47e-01	0	45	0	0	28	10551
2026-01-22 03:36:47.61	357.08	13.24	-34.5	-53.5	3.8	7.46e-01	0	45	104	0	30	32113
2026-01-22 03:36:49.62	356.77	13.40	-34.5	-53.5	3.8	7.44e-01	0	45	104	0	30	32103
2026-01-22 03:36:51.62	356.45	13.56	-34.4	-53.4	3.8	7.44e-01	0	45	104	0	30	32076
2026-01-22 03:36:53.62	356.14	13.72	-34.5	-53.4	3.8	7.46e-01	0	45	104	0	30	32071
2026-01-22 03:36:55.62	355.82	13.88	-34.5	-53.5	3.8	7.48e-01	0	45	104	0	30	32097
2026-01-22 03:36:57.63	355.49	14.05	-34.4	-53.4	3.8	7.45e-01	0	45	104	0	30	31848
2026-01-22 03:36:59.63	355.17	14.21	-34.4	-53.4	3.8	7.42e-01	0	45	104	0	30	32133
2026-01-22 03:37:01.63	354.83	14.37	-34.5	-53.5	3.8	7.45e-01	0	45	104	0	30	32085
2026-01-22 03:37:03.63	354.50	14.54	-34.5	-53.5	3.8	7.43e-01	0	45	104	0	30	32087
2026-01-22 03:37:05.64	354.16	14.70	-34.5	-53.5	3.8	7.43e-01	0	45	104	0	30	32135
2026-01-22 03:37:07.64	353.81	14.86	-34.5	-53.5	3.8	7.46e-01	0	45	104	0	30	32076
2026-01-22 03:37:09.65	353.46	15.03	-34.5	-53.4	3.8	7.47e-01	0	45	104	0	30	31881
2026-01-22 03:37:11.66	353.11	15.19	-34.3	-53.2	3.8	7.44e-01	0	44	104	0	30	31525
2026-01-22 03:37:13.67	352.75	15.36	-34.2	-52.8	3.8	7.44e-01	0	45	104	0	30	30870
2026-01-22 03:37:15.68	352.39	15.52	-34.0	-51.2	3.8	7.47e-01	0	45	104	0	30	26230
2026-01-22 03:37:17.69	352.02	15.69	-33.9	-50.4	3.8	7.45e-01	0	44	104	0	30	24035
2026-01-22 03:37:19.69	351.65	15.85	-33.9	-50.1	3.9	7.43e-01	0	44	104	0	30	23191
2026-01-22 03:37:21.69	351.28	16.02	-33.9	-50.4	3.8	7.45e-01	0	45	104	0	30	23977
2026-01-22 03:37:23.70	350.90	16.18	-33.9	-50.9	3.8	7.45e-01	0	44	104	0	30	25533
2026-01-22 03:37:25.71	350.52	16.35	-33.9	-52.2	3.8	7.45e-01	0	44	104	0	30	29280
2026-01-22 03:37:27.71	350.13	16.51	-33.9	-52.2	3.8	7.47e-01	0	44	104	0	30	29328
2026-01-22 03:37:29.72	349.73	16.68	-33.9	-52.0	3.8	7.49e-01	0	45	104	0	30	28939
2026-01-22 03:37:31.74	349.33	16.85	-33.9	-51.3	3.8	7.43e-01	0	44	104	0	30	26823
2026-01-22 03:37:33.74	348.93	17.01	-33.9	-50.6	3.8	7.43e-01	0	45	104	0	30	24533
2026-01-22 03:37:35.75	348.52	17.18	-33.9	-51.5	3.8	7.44e-01	0	44	104	0	30	27293
2026-01-22 03:37:37.75	348.11	17.34	-33.2	-41.4	9.8	6.25e-01	0	45	104	0	28	9266
2026-01-22 03:37:39.76	347.70	17.50	-32.1	-36.9	14.6	6.05e-01	0	45	0	2621440	26	6227
2026-01-22 03:37:41.76	347.27	17.67	-32.0	-36.4	15.1	6.02e-01	0	45	0	6291456	26	5962
2026-01-22 03:37:43.76	346.85	17.83	-31.8	-36.3	15.4	6.04e-01	0	45	0	9961472	25	6045
2026-01-22 03:37:45.78	346.41	18.00	-31.8	-36.3	15.4	6.03e-01	0	45	0	13631488	25	6032
2026-01-22 03:37:47.77	345.98	18.16	-31.2	-34.7	16.9	6.05e-01	0	45	0	17301504	24	5387
2026-01-22 03:37:49.79	345.54	18.32	-30.5	-33.2	18.2	6.04e-01	0	45	0	20971520	23	4899
2026-01-22 03:37:51.79	345.09	18.48	-30.0	-32.3	19.1	6.03e-01	0	44	0	25165824	22	4694
2026-01-22 03:37:53.79	344.64	18.64	-29.9	-32.1	19.2	6.04e-01	0	45	0	28835840	22	4626
2026-01-22 03:37:55.80	344.18	18.80	-29.9	-32.0	19.3	6.04e-01	0	45	0	32505856	22	4604
2026-01-22 03:37:57.80	343.72	18.96	-29.7	-32.1	19.5	6.04e-01	0	45	0	36175872	21	4752
2026-01-22 03:37:59.81	343.25	19.12	-29.8	-32.4	19.3	6.02e-01	0	45	0	39845888	21	4858
2026-01-22 03:38:01.81	342.78	19.28	-30.0	-32.7	19.2	6.02e-01	0	45	0	44040192	21	4953
2026-01-22 03:38:03.82	342.30	19.44	-30.0	-32.8	19.1	6.02e-01	0	45	0	47710208	21	4975
2026-01-22 03:38:05.84	341.81	19.59	-30.0	-32.8	19.1	6.04e-01	0	44	0	51380224	21	4978
2026-01-22 03:38:07.85	341.32	19.75	-29.8	-32.3	19.4	6.01e-01	0	44	0	55050240	21	4811
2026-01-22 03:38:09.85	340.83	19.90	-30.0	-32.9	19.1	6.02e-01	0	44	0	58720256	21	5009
2026-01-22 03:38:11.85	340.33	20.06	-29.9	-32.5	19.4	6.01e-01	0	44	0	62390272	21	4853
2026-01-22 03:38:13.85	339.83	20.21	-29.8	-32.3	19.5	6.05e-01	0	44	0	66060288	21	4795
2026-01-22 03:38:15.85	339.32	20.36	-29.9	-32.4	19.4	6.04e-01	0	45	0	70254592	21	4846
2026-01-22 03:38:17.85	338.81	20.51	-29.9	-32.5	19.3	6.02e-01	0	44	0	73924608	21	4869
2026-01-22 03:38:19.85	338.29	20.66	-29.9	-32.5	19.4	6.05e-01	0	44	0	77594624	21	4859
2026-01-22 03:38:21.87	337.76	20.80	-29.9	-32.6	19.3	6.04e-01	0	44	0	81264640	21	4905
2026-01-22 03:38:23.88	337.22	20.95	-30.1	-33.0	19.0	6.03e-01	0	45	0	84934656	21	5043
2026-01-22 03:38:25.89	336.69	21.09	-30.1	-33.1	19.0	6.01e-01	0	45	0	89128960	21	5099
2026-01-22 03:38:27.90	336.14	21.23	-30.2	-33.3	18.9	6.04e-01	0	44	0	92798976	21	5137
2026-01-22 03:38:29.91	335.59	21.37	-30.3	-33.6	18.7	6.01e-01	0	44	0	96468992	21	5260
2026-01-22 03:38:31.92	335.04	21.51	-30.0	-32.7	19.3	6.04e-01	0	45	0	100139008	21	4930
2026-01-22 03:38:33.92	334.48	21.65	-30.0	-32.9	19.1	6.05e-01	0	44	0	103809024	21	4992
2026-01-22 03:38:35.93	333.92	21.78	-30.0	-32.9	19.2	6.01e-01	0	44	0	107479040	21	4993
2026-01-22 03:38:37.94	333.35	21.91	-30.1	-33.0	19.1	6.01e-01	0	45	0	111673344	21	5030
2026-01-22 03:38:39.94	332.78	22.04	-30.0	-32.7	19.3	6.05e-01	0	44	0	115343360	21	4944
2026-01-22 03:38:41.95	332.20	22.17	-30.0	-32.9	19.1	6.04e-01	0	44	0	119013376	21	4997
2026-01-22 03:38:43.96	331.61	22.30	-30.0	-32.9	19.2	6.04e-01	0	45	0	122683392	21	4997
2026-01-22 03:38:45.95	331.03	22.42	-30.2	-33.3	18.9	6.02e-01	0	44	0	126353408	21	5164
2026-01-22 03:38:47.94	330.44	22.54	-30.1	-33.2	19.0	6.02e-01	0	44	0	130023424	21	5100
2026-01-22 03:38:49.95	329.84	22.66	-30.5	-34.1	18.4	6.04e-01	0	45	0	134217728	21	5472
2026-01-22 03:38:51.96	329.24	22.77	-30.2	-33.4	18.8	6.03e-01	0	44	0	137887744	21	5180
2026-01-22 03:38:53.98	328.62	22.88	-30.0	-32.8	19.3	6.01e-01	0	45	0	141557760	21	4951
2026-01-22 03:38:55.99	328.01	22.99	-29.9	-32.5	19.5	6.02e-01	0	44	0	145227776	21	4845
2026-01-22 03:38:57.98	327.40	23.10	-30.2	-33.2	19.0	6.02e-01	0	44	0	148897792	21	5115
2026-01-22 03:38:59.99	326.78	23.20	-30.0	-32.7	19.3	6.03e-01	0	45	0	153092096	21	4931
2026-01-22 03:39:02.00	326.15	23.30	-29.9	-32.6	19.4	6.03e-01	0	44	0	156762112	21	4913
2026-01-22 03:39:04.00	325.52	23.40	-30.2	-33.2	19.0	6.01e-01	0	45	0	160432128	21	5127
2026-01-22 03:39:06.00	324.89	23.50	-29.9	-32.6	19.4	6.02e-01	0	44	0	164102144	21	4884
2026-01-22 03:39:08.00	324.25	23.59	-30.1	-33.0	19.1	6.02e-01	0	44	0	167772160	21	5038
2026-01-22 03:39:10.01	323.61	23.67	-30.0	-32.7	19.3	6.02e-01	0	44	0	171442176	21	4932
2026-01-22 03:39:12.02	322.96	23.76	-30.2	-33.4	18.9	6.04e-01	0	44	0	175636480	21	5169
2026-01-22 03:39:14.03	322.31	23.84	-30.0	-32.8	19.3	6.02e-01	0	44	0	179306496	21	4968
2026-01-22 03:39:16.04	321.66	23.91	-29.9	-32.6	19.3	6.04e-01	0	44	0	182976512	21	4897
2026-01-22 03:39:18.05	321.00	23.99	-30.1	-32.9	19.2	6.04e-01	0	44	0	186646528	21	5004
2026-01-22 03:39:20.05	320.35	24.06	-30.0	-32.7	19.3	6.03e-01	0	44	0	190316544	21	4941
2026-01-22 03:39:22.05	319.69	24.12	-30.1	-33.0	19.1	6.02e-01	0	44	0	193986560	21	5041
2026-01-22 03:39:24.05	319.02	24.18	-30.2	-33.4	18.9	6.02e-01	0	44	0	198180864	21	5171
2026-01-22 03:39:26.06	318.35	24.24	-30.3	-33.6	18.8	6.04e-01	0	45	0	201850880	21	5251
2026-01-22 03:39:28.07	317.68	24.30	-30.5	-34.1	18.5	6.04e-01	0	44	0	205520896	21	5445
2026-01-22 03:39:30.09	317.01	24.35	-30.3	-33.5	18.7	6.05e-01	0	44	0	209190912	21	5234
2026-01-22 03:39:32.09	316.33	24.39	-30.5	-34.0	18.6	6.03e-01	0	44	0	212860928	21	5393
2026-01-22 03:39:34.10	315.65	24.43	-30.1	-33.1	19.1	6.00e-01	0	44	0	216530944	21	5080
2026-01-22 03:39:36.11	314.97	24.47	-30.3	-33.5	18.9	6.01e-01	0	44	0	220725248	21	5198
2026-01-22 03:39:38.11	314.30	24.51	-30.0	-32.8	19.3	6.01e-01	0	44	0	224395264	21	4949
2026-01-22 03:39:40.11	313.62	24.53	-29.9	-32.5	19.6	6.03e-01	0	44	0	228065280	21	4838
2026-01-22 03:39:42.12	312.93	24.56	-30.1	-33.0	19.2	6.03e-01	0	45	0	231735296	21	5013
2026-01-22 03:39:44.13	312.25	24.58	-30.0	-32.8	19.3	6.04e-01	0	45	0	235405312	21	4942
2026-01-22 03:39:46.13	311.56	24.60	-30.2	-33.1	19.1	6.04e-01	0	44	0	239599616	21	5079
2026-01-22 03:39:48.14	310.88	24.61	-30.3	-33.7	18.9	6.02e-01	0	45	0	243269632	21	5276
2026-01-22 03:39:50.14	310.19	24.62	-30.2	-33.4	19.0	6.03e-01	0	45	0	246939648	21	5163
2026-01-22 03:39:52.15	309.51	24.62	-30.6	-33.9	18.3	6.02e-01	0	44	0	250609664	22	5244
2026-01-22 03:39:54.14	308.83	24.62	-30.2	-32.8	19.0	6.02e-01	0	45	0	254279680	22	4854
2026-01-22 03:39:56.15	308.14	24.62	-30.2	-32.9	19.0	6.03e-01	0	44	0	257949696	22	4870
2026-01-22 03:39:58.16	307.45	24.61	-30.6	-33.7	18.5	6.03e-01	0	44	0	262144000	22	5188
2026-01-22 03:40:00.18	306.76	24.59	-30.0	-32.3	19.3	6.02e-01	0	45	0	265814016	22	4665
2026-01-22 03:40:02.19	306.07	24.57	-30.2	-32.7	19.1	6.02e-01	0	44	0	269484032	22	4815
2026-01-22 03:40:04.19	305.39	24.55	-30.5	-33.5	18.6	6.03e-01	0	44	0	273154048	22	5093
2026-01-22 03:40:06.19	304.71	24.53	-30.4	-33.3	18.6	6.03e-01	0	44	0	276824064	22	5044
2026-01-22 03:40:08.19	304.03	24.50	-30.4	-33.4	18.6	6.04e-01	0	44	0	280494080	22	5069
2026-01-22 03:40:10.19	303.35	24.46	-30.4	-33.4	18.7	6.03e-01	0	44	0	284688384	22	5047
2026-01-22 03:40:12.19	302.68	24.42	-30.5	-33.6	18.5	6.04e-01	0	45	0	288358400	22	5160
2026-01-22 03:40:14.20	302.00	24.38	-29.9	-32.1	19.1	6.04e-01	0	44	0	292028416	22	4602
2026-01-22 03:40:16.21	301.32	24.33	-29.9	-32.5	19.6	6.02e-01	0	44	0	295698432	21	4845
2026-01-22 03:40:18.22	300.65	24.28	-30.2	-32.8	19.1	6.02e-01	0	45	0	299368448	22	4845
2026-01-22 03:40:20.22	299.98	24.23	-31.0	-35.0	17.5	6.01e-01	0	45	0	303562752	22	5748
2026-01-22 03:40:22.23	299.31	24.17	-29.4	-31.4	19.3	6.03e-01	0	44	0	307232768	21	4540
2026-01-22 03:40:24.22	298.65	24.10	-30.0	-32.9	19.2	6.01e-01	0	44	0	310902784	21	4983
2026-01-22 03:40:26.23	297.99	24.04	-29.3	-31.4	20.3	6.04e-01	0	45	0	314572800	20	4601
2026-01-22 03:40:28.23	297.33	23.97	-29.9	-33.0	19.5	6.02e-01	0	44	0	318242816	20	5145
2026-01-22 03:40:30.25	296.67	23.89	-30.2	-33.3	19.0	6.01e-01	0	45	0	321912832	21	5145
2026-01-22 03:40:32.26	296.02	23.81	-30.4	-33.8	18.7	6.01e-01	0	45	0	326107136	21	5334
2026-01-22 03:40:34.27	295.37	23.73	-30.1	-33.1	18.9	6.05e-01	0	45	0	329777152	21	5060
2026-01-22 03:40:36.28	294.72	23.65	-30.0	-32.8	19.2	6.03e-01	0	44	0	333447168	21	4974
2026-01-22 03:40:38.29	294.08	23.56	-30.7	-34.1	18.1	6.06e-01	0	45	0	337117184	22	5369
2026-01-22 03:40:40.29	293.44	23.47	-30.3	-33.1	18.6	6.05e-01	0	45	0	340787200	22	4970
2026-01-22 03:40:42.28	292.81	23.37	-30.1	-33.1	19.0	6.03e-01	0	45	0	344457216	21	5074
2026-01-22 03:40:44.28	292.18	23.27	-30.2	-33.5	18.8	6.03e-01	0	44	0	348651520	21	5214
2026-01-22 03:40:46.28	291.56	23.17	-30.5	-33.7	18.4	6.05e-01	0	45	0	352321536	22	5177
2026-01-22 03:40:48.29	290.94	23.07	-29.9	-32.1	19.4	6.04e-01	0	45	0	355991552	22	4627
2026-01-22 03:40:50.30	290.32	22.96	-30.3	-33.8	18.6	6.05e-01	0	45	0	359661568	21	5344
2026-01-22 03:40:52.30	289.71	22.85	-30.2	-33.5	18.6	6.04e-01	0	44	0	363331584	21	5225
2026-01-22 03:40:54.31	289.10	22.74	-30.3	-33.5	18.6	6.03e-01	0	45	0	367001600	21	5248
2026-01-22 03:40:56.31	288.50	22.62	-29.9	-32.5	19.3	6.01e-01	0	45	0	371195904	21	4871
2026-01-22 03:40:58.32	287.90	22.50	-29.9	-32.5	19.3	6.02e-01	0	45	0	374865920	21	4860
2026-01-22 03:41:00.32	287.30	22.38	-29.6	-31.8	19.7	6.04e-01	0	45	0	378535936	21	4620
2026-01-22 03:41:02.34	286.71	22.26	-30.0	-32.7	19.0	6.02e-01	0	45	0	382205952	21	4945
2026-01-22 03:41:04.34	286.13	22.13	-30.1	-33.1	18.7	6.03e-01	0	45	0	385875968	21	5086
2026-01-22 03:41:06.34	285.55	22.00	-30.0	-33.0	18.9	6.03e-01	0	45	0	389545984	21	5042
2026-01-22 03:41:08.35	284.98	21.87	-30.2	-33.5	18.6	6.03e-01	0	45	0	393740288	21	5254
2026-01-22 03:41:10.36	284.41	21.74	-30.2	-33.5	18.7	6.04e-01	0	45	0	397410304	21	5249
2026-01-22 03:41:12.36	283.85	21.60	-30.2	-33.4	18.8	6.05e-01	0	45	0	401080320	21	5219
2026-01-22 03:41:14.36	283.29	21.47	-30.0	-32.8	19.2	6.02e-01	0	44	0	404750336	21	4974
2026-01-22 03:41:16.36	282.74	21.33	-29.9	-32.6	19.3	6.04e-01	0	45	0	408420352	21	4913
2026-01-22 03:41:18.37	282.19	21.19	-29.6	-31.8	19.7	6.01e-01	0	45	0	412090368	21	4618
2026-01-22 03:41:20.37	281.65	21.04	-30.3	-33.1	18.5	6.03e-01	0	45	0	416284672	22	4977
2026-01-22 03:41:22.38	281.11	20.90	-29.9	-32.1	19.2	6.02e-01	0	45	0	419954688	22	4645
2026-01-22 03:41:24.39	280.58	20.75	-30.0	-33.0	19.0	6.04e-01	0	45	0	423624704	21	5056
2026-01-22 03:41:26.40	280.05	20.60	-29.8	-32.2	19.4	6.03e-01	0	45	0	427294720	21	4788
2026-01-22 03:41:28.40	279.53	20.46	-30.0	-32.8	19.0	6.02e-01	0	45	0	430964736	21	5003
2026-01-22 03:41:30.40	279.01	20.31	-29.8	-32.4	19.3	6.03e-01	0	45	0	435159040	21	4856
2026-01-22 03:41:32.39	278.51	20.16	-29.9	-32.7	19.2	6.03e-01	0	45	0	438829056	21	4946
2026-01-22 03:41:34.39	278.00	20.00	-29.6	-31.9	19.6	6.04e-01	0	45	0	442499072	21	4660
2026-01-22 03:41:36.40	277.50	19.85	-29.8	-32.4	19.3	6.03e-01	0	45	0	446169088	21	4837
2026-01-22 03:41:38.41	277.01	19.69	-29.8	-32.3	19.3	6.03e-01	0	45	0	449839104	21	4830
2026-01-22 03:41:40.42	276.52	19.54	-29.8	-32.3	19.3	6.04e-01	0	45	0	453509120	21	4817
2026-01-22 03:41:42.44	276.03	19.38	-30.0	-32.9	18.9	6.02e-01	0	45	0	457179136	21	5046
2026-01-22 03:41:44.44	275.55	19.22	-29.8	-32.4	19.3	6.02e-01	0	45	0	461373440	21	4843
2026-01-22 03:41:46.44	275.08	19.06	-30.4	-34.1	18.2	6.04e-01	0	45	0	465043456	21	5516
2026-01-22 03:41:48.45	274.61	18.90	-30.3	-33.4	18.3	6.01e-01	0	45	0	468713472	22	5100
2026-01-22 03:41:50.46	274.15	18.74	-30.1	-32.7	18.7	6.05e-01	0	45	0	472383488	22	4872
2026-01-22 03:41:52.47	273.69	18.58	-30.2	-33.0	18.5	6.03e-01	0	45	0	476053504	22	4972
2026-01-22 03:41:54.47	273.24	18.42	-30.3	-33.1	18.4	6.04e-01	0	45	0	480247808	22	5006
2026-01-22 03:41:56.48	272.79	18.25	-29.9	-32.3	19.0	6.02e-01	0	45	0	483917824	22	4716
2026-01-22 03:41:58.48	272.35	18.09	-29.5	-31.7	19.6	6.03e-01	0	45	0	487587840	21	4617
2026-01-22 03:42:00.49	271.91	17.93	-29.6	-31.9	19.5	6.02e-01	0	45	0	491257856	21	4697
2026-01-22 03:42:02.49	271.48	17.77	-29.8	-32.4	19.1	6.02e-01	0	45	0	494927872	21	4864
2026-01-22 03:42:04.50	271.05	17.60	-29.6	-32.0	19.4	6.06e-01	0	45	0	498597888	21	4731
2026-01-22 03:42:06.50	270.63	17.44	-30.0	-32.9	18.8	6.02e-01	0	45	0	502792192	21	5059
2026-01-22 03:42:08.51	270.21	17.27	-30.1	-33.4	18.5	6.04e-01	0	45	0	506462208	21	5231
2026-01-22 03:42:10.53	269.79	17.10	-29.9	-32.8	18.9	6.00e-01	0	45	0	510132224	21	4998
2026-01-22 03:42:12.54	269.38	16.94	-30.1	-33.4	18.5	6.00e-01	0	45	0	513802240	21	5216
2026-01-22 03:42:14.55	268.98	16.77	-29.8	-32.4	19.0	6.02e-01	0	45	0	517472256	21	4883
2026-01-22 03:42:16.55	268.58	16.61	-29.5	-31.6	19.5	6.05e-01	0	45	0	521666560	21	4604
2026-01-22 03:42:18.56	268.19	16.44	-29.6	-32.0	19.3	6.03e-01	0	45	0	525336576	21	4741
2026-01-22 03:42:20.57	267.80	16.28	-29.5	-31.7	19.5	6.03e-01	0	45	0	529006592	21	4626
2026-01-22 03:42:22.58	267.41	16.11	-29.6	-31.9	19.4	6.01e-01	0	45	0	532676608	21	4701
2026-01-22 03:42:24.58	267.03	15.94	-29.6	-32.0	19.3	6.01e-01	0	45	0	536346624	21	4737
2026-01-22 03:42:26.59	266.66	15.78	-29.5	-31.8	19.4	6.01e-01	0	45	0	540016640	21	4679
2026-01-22 03:42:28.59	266.29	15.61	-29.5	-31.7	19.5	6.06e-01	0	45	0	544210944	21	4646
2026-01-22 03:42:30.60	265.92	15.45	-29.6	-32.1	19.2	6.04e-01	0	45	0	547880960	21	4776
2026-01-22 03:42:32.60	265.56	15.28	-29.6	-31.9	19.3	6.04e-01	0	45	0	551550976	21	4712
2026-01-22 03:42:34.60	265.20	15.12	-29.5	-31.8	19.4	6.01e-01	0	45	0	555220992	21	4669
2026-01-22 03:42:36.61	264.85	14.95	-29.6	-32.0	19.3	6.03e-01	0	45	0	558891008	21	4739
2026-01-22 03:42:38.61	264.50	14.79	-29.7	-32.2	19.2	6.03e-01	0	45	0	562561024	21	4806
2026-01-22 03:42:40.62	264.15	14.62	-29.6	-31.9	19.3	6.03e-01	0	45	0	566755328	21	4714
2026-01-22 03:42:42.62	263.81	14.46	-29.6	-32.0	19.3	6.04e-01	0	45	0	570425344	21	4732
2026-01-22 03:42:44.63	263.47	14.29	-29.7	-32.2	19.1	6.04e-01	0	45	0	574095360	21	4814
2026-01-22 03:42:46.64	263.14	14.13	-29.8	-32.4	18.9	6.02e-01	0	45	0	577765376	21	4900
2026-01-22 03:42:48.64	262.81	13.96	-29.8	-32.6	18.8	6.05e-01	0	45	0	581435392	21	4950
2026-01-22 03:42:50.65	262.49	13.80	-29.8	-32.6	18.8	6.01e-01	0	45	0	585105408	21	4965
2026-01-22 03:42:52.65	262.17	13.64	-29.8	-32.5	18.8	6.03e-01	0	45	0	589299712	21	4948
2026-01-22 03:42:54.64	261.85	13.48	-29.6	-32.1	19.1	6.03e-01	0	44	0	592969728	21	4805
2026-01-22 03:42:56.65	261.54	13.31	-29.6	-32.2	19.0	6.02e-01	0	45	0	596639744	21	4825
2026-01-22 03:42:58.64	261.23	13.15	-29.7	-32.3	18.9	6.04e-01	0	45	0	600309760	21	4880
2026-01-22 03:43:00.65	260.92	12.99	-29.6	-32.2	19.0	6.03e-01	0	45	0	603979776	21	4820
2026-01-22 03:43:02.65	260.62	12.83	-29.7	-32.3	18.9	6.02e-01	0	45	0	607649792	21	4883
2026-01-22 03:43:04.66	260.32	12.67	-29.8	-32.6	18.8	6.05e-01	0	45	0	611844096	21	4960
2026-01-22 03:43:06.67	260.02	12.51	-29.8	-32.6	18.7	6.02e-01	0	45	0	615514112	21	4983
2026-01-22 03:43:08.68	259.73	12.35	-29.7	-32.4	18.8	6.03e-01	0	45	0	619184128	21	4922
2026-01-22 03:43:10.68	259.44	12.19	-29.8	-32.6	18.7	6.04e-01	0	45	0	622854144	21	4962
2026-01-22 03:43:12.68	259.16	12.03	-29.9	-32.9	18.5	6.04e-01	0	45	0	626524160	21	5095
2026-01-22 03:43:14.68	258.87	11.88	-29.7	-32.5	18.8	6.03e-01	0	44	0	630194176	21	4928
2026-01-22 03:43:16.69	258.59	11.72	-29.8	-32.6	18.7	6.05e-01	0	45	0	634388480	21	4975
2026-01-22 03:43:18.70	258.32	11.56	-29.8	-32.8	18.5	6.04e-01	0	45	0	638058496	21	5062
2026-01-22 03:43:20.72	258.04	11.40	-29.9	-33.1	18.4	6.05e-01	0	45	0	641728512	21	5155
2026-01-22 03:43:22.73	257.77	11.25	-30.0	-33.2	18.2	6.02e-01	0	45	0	645398528	21	5218
2026-01-22 03:43:24.73	257.51	11.09	-29.8	-32.8	18.5	6.03e-01	0	45	0	649068544	21	5052
2026-01-22 03:43:26.74	257.25	10.94	-29.8	-32.6	18.6	6.02e-01	0	45	0	652738560	21	4987
2026-01-22 03:43:28.76	256.98	10.78	-29.8	-32.8	18.4	6.03e-01	0	45	0	656932864	21	5068
2026-01-22 03:43:30.76	256.73	10.63	-29.9	-33.1	18.2	6.05e-01	0	45	0	660602880	21	5185
2026-01-22 03:43:32.77	256.47	10.47	-30.0	-33.3	18.1	6.04e-01	0	45	0	664272896	21	5252
2026-01-22 03:43:34.78	256.22	10.32	-30.0	-33.4	18.1	6.03e-01	0	45	0	667942912	21	5279
2026-01-22 03:43:36.78	255.97	10.17	-30.1	-33.4	18.0	6.05e-01	0	45	0	671612928	21	5306
2026-01-22 03:43:38.79	255.73	10.01	-29.8	-32.8	18.4	6.03e-01	0	45	0	675807232	21	5052
2026-01-22 03:43:40.79	255.48	9.86	-29.9	-32.9	18.4	6.04e-01	0	45	0	679477248	21	5112
2026-01-22 03:43:42.80	255.24	9.71	-30.0	-33.2	18.2	6.03e-01	0	45	0	683147264	21	5224
2026-01-22 03:43:44.80	255.01	9.56	-29.9	-33.1	18.3	6.02e-01	0	45	0	686817280	21	5173
2026-01-22 03:43:46.80	254.77	9.41	-29.9	-33.2	18.2	6.03e-01	0	45	0	690487296	21	5207
2026-01-22 03:43:48.80	254.54	9.27	-29.9	-33.1	18.2	6.04e-01	0	45	0	694157312	21	5206
2026-01-22 03:43:50.80	254.31	9.12	-30.0	-33.4	18.0	6.02e-01	0	45	0	698351616	21	5293
2026-01-22 03:43:52.81	254.09	8.97	-30.2	-33.9	17.6	6.02e-01	0	45	0	702021632	21	5512
2026-01-22 03:43:54.81	253.86	8.82	-30.0	-33.5	17.9	6.05e-01	0	45	0	705691648	21	5342
2026-01-22 03:43:56.81	253.64	8.68	-30.2	-33.9	17.6	6.02e-01	0	45	0	709361664	21	5516
2026-01-22 03:43:58.82	253.42	8.53	-30.1	-33.8	17.7	6.04e-01	0	45	0	713031680	21	5469
2026-01-22 03:44:00.83	253.20	8.38	-30.2	-33.9	17.5	6.03e-01	0	45	0	716701696	21	5545
2026-01-22 03:44:02.83	252.99	8.24	-30.3	-34.1	17.4	6.03e-01	0	45	0	720896000	21	5626
2026-01-22 03:44:04.84	252.78	8.09	-30.1	-33.7	17.6	6.01e-01	0	45	0	724566016	21	5464
2026-01-22 03:44:06.86	252.57	7.95	-30.1	-33.7	17.6	6.05e-01	0	45	0	728236032	21	5449
2026-01-22 03:44:08.87	252.36	7.81	-30.1	-33.6	17.7	6.03e-01	0	45	0	731906048	21	5416
2026-01-22 03:44:10.87	252.15	7.66	-30.1	-33.8	17.6	6.02e-01	0	45	0	735576064	21	5504
2026-01-22 03:44:12.87	251.95	7.52	-30.2	-34.0	17.4	6.01e-01	0	45	0	739770368	21	5571
2026-01-22 03:44:14.87	251.75	7.38	-30.3	-34.3	17.2	6.03e-01	0	45	0	743440384	21	5706
2026-01-22 03:44:16.88	251.55	7.24	-30.3	-34.2	17.2	6.02e-01	0	45	0	747110400	21	5688
2026-01-22 03:44:18.88	251.36	7.10	-30.4	-34.6	17.0	6.04e-01	0	45	0	750780416	21	5844
2026-01-22 03:44:20.89	251.16	6.96	-33.7	-52.8	3.8	7.44e-01	0	45	104	751828992	28	32573
2026-01-22 03:44:22.89	250.97	6.82	-34.2	-53.3	3.8	7.51e-01	0	45	104	751828992	29	32564

#Closed at: 2026-01-22 03:44:23
#Recorded file [751 MB]: D:/data/31010_260122_063738.dat