passes_logs/2026/01/22/R2M6_AANII_01/R2M6_AANII_01__20260122_024515_NOAA_20_JPSS-1_rec.log

#Pass ID: 20260122_024515_NOAA 20 (JPSS-1)
#Satellite: NOAA 20 (JPSS-1)
#Configuration: NOAA 20
#almurnet v.1.7.20240730
#Start time: 2026-01-22 02:45:17

#Version: 2.2.20231116
#Station: R2M6_AANII_01
#Location: 30.233357 lon 59.946436 lat
#TLE: 1 43013U 17073A   26021.46221703  .00000173  00000+0  10299-3 0  9999
#TLE: 2 43013  98.7644 322.3335 0001238  29.7597 330.3649 14.19538314423652

#Time	Az	El	Level	Level2	SNR	BER	BlckErr	Temp	State	Recorded	gain1	gain2
2026-01-22 02:45:17.25	8.75	7.10	-32.6	-41.9	4.1	1.44e+00	0	42	0	0	26	10511
2026-01-22 02:45:20.27	8.42	7.27	-32.5	-40.5	5.3	5.57e-01	0	42	0	1048576	26	9051
2026-01-22 02:45:23.27	8.08	7.44	-32.5	-41.2	5.2	5.74e-01	0	42	0	7340032	25	9782
2026-01-22 02:45:26.28	7.74	7.61	-32.4	-39.8	6.0	4.21e-01	0	42	0	12582912	25	8514
2026-01-22 02:45:29.29	7.40	7.78	-31.9	-37.2	8.1	8.60e-02	0	42	0	17825792	25	6655
2026-01-22 02:45:32.30	7.05	7.95	-31.5	-36.1	9.4	1.77e-02	0	42	0	24117248	24	6094
2026-01-22 02:45:35.31	6.70	8.12	-31.5	-35.7	9.7	1.10e-02	0	42	0	29360128	24	5897
2026-01-22 02:45:38.32	6.34	8.30	-31.6	-36.1	9.5	1.47e-02	0	42	0	35651584	24	6090
2026-01-22 02:45:41.33	5.98	8.47	-31.2	-35.3	10.4	4.54e-03	0	42	0	40894464	23	5800
2026-01-22 02:45:44.32	5.62	8.64	-31.2	-35.4	10.4	4.95e-03	0	43	0	46137344	23	5820
2026-01-22 02:45:47.33	5.25	8.81	-31.2	-35.2	10.5	3.73e-03	0	43	0	52428800	23	5732
2026-01-22 02:45:50.34	4.87	8.98	-31.2	-35.7	10.5	4.42e-03	0	43	0	57671680	22	6094
2026-01-22 02:45:53.36	4.49	9.16	-31.2	-36.0	10.3	6.64e-03	0	43	0	63963136	22	6206
2026-01-22 02:45:56.36	4.11	9.33	-31.1	-35.4	10.8	2.92e-03	0	43	0	69206016	22	5915
2026-01-22 02:45:59.36	3.72	9.50	-31.0	-35.1	11.0	2.24e-03	0	43	0	74448896	22	5770
2026-01-22 02:46:02.37	3.33	9.67	-30.9	-34.7	11.4	1.20e-03	0	43	0	80740352	22	5586
2026-01-22 02:46:05.39	2.93	9.84	-31.0	-35.0	11.2	1.40e-03	0	43	0	85983232	22	5701
2026-01-22 02:46:08.40	2.53	10.01	-31.0	-35.1	11.1	1.90e-03	0	43	0	91226112	22	5788
2026-01-22 02:46:11.41	2.12	10.19	-31.0	-35.1	11.1	1.57e-03	0	43	0	97517568	22	5781
2026-01-22 02:46:14.42	1.71	10.36	-31.0	-35.0	11.2	1.38e-03	0	43	0	102760448	22	5699
2026-01-22 02:46:17.41	1.30	10.53	-31.0	-35.2	11.1	1.71e-03	0	43	0	109051904	22	5804
2026-01-22 02:46:20.42	0.87	10.70	-30.9	-35.3	11.3	1.48e-03	0	43	0	114294784	21	5967
2026-01-22 02:46:23.42	0.45	10.87	-31.0	-35.5	11.2	1.48e-03	0	43	0	119537664	21	6036
2026-01-22 02:46:26.43	0.02	11.04	-31.0	-35.1	11.2	1.75e-03	0	43	0	125829120	22	5735
2026-01-22 02:46:29.44	359.58	11.21	-30.9	-35.3	11.4	1.30e-03	0	43	0	131072000	21	5941
2026-01-22 02:46:32.44	359.14	11.37	-31.1	-35.3	11.1	1.33e-03	0	43	0	136314880	22	5842
2026-01-22 02:46:35.45	358.69	11.54	-31.1	-35.4	11.0	2.02e-03	0	43	0	142606336	22	5885
2026-01-22 02:46:38.45	358.24	11.71	-31.2	-35.5	11.0	2.14e-03	0	43	0	147849216	22	5922
2026-01-22 02:46:41.46	357.78	11.88	-31.2	-35.7	10.8	2.99e-03	0	44	0	154140672	22	6048
2026-01-22 02:46:44.46	357.32	12.04	-31.2	-35.6	10.9	2.57e-03	0	44	0	159383552	22	5988
2026-01-22 02:46:47.47	356.85	12.21	-31.3	-35.9	10.7	2.94e-03	0	43	0	164626432	22	6109
2026-01-22 02:46:50.48	356.37	12.37	-31.4	-36.2	10.5	5.08e-03	0	44	0	170917888	22	6263
2026-01-22 02:46:53.49	355.89	12.54	-31.4	-36.3	10.5	4.50e-03	0	44	0	176160768	22	6284
2026-01-22 02:46:56.50	355.41	12.70	-31.6	-36.3	10.0	9.00e-03	0	44	0	181403648	23	6217
2026-01-22 02:46:59.51	354.92	12.86	-31.3	-35.8	10.7	2.78e-03	0	44	0	187695104	22	6074
2026-01-22 02:47:02.52	354.42	13.02	-31.1	-35.2	11.2	1.58e-03	0	44	0	192937984	22	5791
2026-01-22 02:47:05.54	353.92	13.18	-31.0	-34.8	11.5	8.14e-04	0	44	0	199229440	22	5613
2026-01-22 02:47:08.55	353.41	13.34	-30.9	-35.1	11.6	1.03e-03	0	44	0	204472320	21	5850
2026-01-22 02:47:11.55	352.90	13.50	-30.7	-34.1	12.0	4.52e-04	0	44	0	209715200	22	5308
2026-01-22 02:47:14.57	352.38	13.66	-30.7	-34.5	12.1	3.36e-04	0	44	0	216006656	21	5595
2026-01-22 02:47:17.59	351.85	13.81	-30.7	-34.6	12.0	3.52e-04	0	44	0	221249536	21	5606
2026-01-22 02:47:20.59	351.32	13.96	-30.6	-34.3	12.2	1.85e-04	0	44	0	226492416	21	5498
2026-01-22 02:47:23.60	350.79	14.12	-30.6	-34.2	12.3	2.24e-04	0	44	0	232783872	21	5444
2026-01-22 02:47:26.61	350.24	14.27	-30.4	-34.2	12.7	8.08e-05	0	44	0	238026752	20	5552
2026-01-22 02:47:29.62	349.70	14.41	-30.5	-33.9	12.5	1.52e-04	0	44	0	244318208	21	5332
2026-01-22 02:47:32.62	349.15	14.56	-30.2	-33.6	13.1	1.83e-05	0	44	0	249561088	20	5310
2026-01-22 02:47:35.63	348.59	14.71	-29.2	-32.2	13.4	2.44e-05	0	44	0	254803968	20	5109
2026-01-22 02:47:38.64	348.03	14.85	-30.0	-32.9	13.3	5.30e-06	0	44	0	261095424	20	5040
2026-01-22 02:47:41.64	347.46	14.99	-30.1	-33.3	13.2	1.44e-05	0	44	0	266338304	20	5168
2026-01-22 02:47:44.65	346.89	15.13	-30.1	-33.2	13.4	6.10e-06	0	44	0	272629760	20	5163
2026-01-22 02:47:47.66	346.31	15.27	-30.0	-33.3	13.7	6.80e-06	0	44	0	277872640	19	5290
2026-01-22 02:47:50.67	345.72	15.40	-30.2	-33.4	13.3	2.05e-05	0	44	0	283115520	20	5224
2026-01-22 02:47:53.67	345.13	15.53	-30.2	-33.3	13.4	2.53e-04	0	44	0	289406976	20	5193
2026-01-22 02:47:56.68	344.54	15.66	-30.2	-33.5	13.2	2.72e-04	0	44	0	294649856	20	5256
2026-01-22 02:47:59.68	343.94	15.79	-30.3	-33.7	13.1	2.51e-05	0	44	0	299892736	20	5342
2026-01-22 02:48:02.68	343.33	15.91	-30.3	-33.8	13.1	3.89e-05	0	44	0	306184192	20	5385
2026-01-22 02:48:05.70	342.72	16.04	-30.3	-33.8	13.0	2.97e-05	0	44	0	311427072	20	5388
2026-01-22 02:48:08.71	342.10	16.16	-30.2	-33.6	13.2	4.04e-05	0	44	0	317718528	20	5282
2026-01-22 02:48:11.72	341.48	16.27	-29.8	-32.2	14.1	1.50e-06	0	44	0	322961408	20	4789
2026-01-22 02:48:14.73	340.86	16.39	-29.7	-32.6	14.2	1.73e-04	0	44	0	328204288	19	5021
2026-01-22 02:48:17.73	340.23	16.50	-29.8	-32.9	14.1	1.11e-04	0	44	0	334495744	19	5128
2026-01-22 02:48:20.74	339.59	16.60	-29.9	-33.1	14.0	2.20e-06	0	44	0	339738624	19	5177
2026-01-22 02:48:23.76	338.95	16.71	-30.1	-33.2	13.5	1.20e-04	0	44	0	346030080	20	5140
2026-01-22 02:48:26.78	338.30	16.81	-29.9	-32.9	14.1	3.00e-06	0	44	0	351272960	19	5137
2026-01-22 02:48:29.79	337.66	16.91	-30.3	-33.6	13.3	3.00e-06	0	44	0	356515840	20	5277
2026-01-22 02:48:32.79	337.00	17.00	-29.6	-31.8	14.4	1.50e-06	0	44	0	362807296	20	4637
2026-01-22 02:48:35.79	336.35	17.09	-29.7	-32.2	14.2	1.72e-04	0	44	0	368050176	20	4767
2026-01-22 02:48:38.81	335.69	17.18	-29.7	-32.5	14.3	4.59e-04	0	44	0	373293056	19	4988
2026-01-22 02:48:41.83	335.02	17.27	-29.8	-32.7	14.3	4.12e-04	0	44	0	379584512	19	5034
2026-01-22 02:48:44.84	334.35	17.35	-29.6	-32.4	14.4	2.36e-05	0	44	0	384827392	19	4939
2026-01-22 02:48:47.85	333.68	17.42	-29.5	-32.1	14.7	3.80e-06	0	44	0	391118848	19	4821
2026-01-22 02:48:50.85	333.00	17.50	-29.6	-32.3	14.5	2.16e-04	0	44	0	396361728	19	4908
2026-01-22 02:48:53.88	332.32	17.56	-29.9	-32.9	14.1	3.00e-06	0	44	0	401604608	19	5118
2026-01-22 02:48:56.89	331.64	17.63	-30.1	-33.2	13.6	3.77e-04	0	44	0	407896064	20	5122
2026-01-22 02:48:59.90	330.95	17.69	-30.4	-33.9	13.1	7.98e-04	0	44	0	413138944	20	5386
2026-01-22 02:49:02.91	330.27	17.75	-30.4	-34.1	13.0	5.48e-04	0	44	0	419430400	20	5461
2026-01-22 02:49:05.91	329.58	17.80	-30.1	-32.7	13.5	2.37e-04	0	44	0	424673280	21	4847
2026-01-22 02:49:08.92	328.89	17.85	-30.2	-33.3	13.5	4.39e-04	0	44	0	429916160	20	5181
2026-01-22 02:49:11.93	328.19	17.89	-30.3	-33.8	13.2	1.90e-05	0	44	0	436207616	20	5346
2026-01-22 02:49:14.94	327.49	17.93	-30.3	-33.8	13.2	3.20e-05	0	44	0	441450496	20	5353
2026-01-22 02:49:17.95	326.80	17.97	-30.2	-33.3	13.5	1.75e-05	0	44	0	446693376	20	5171
2026-01-22 02:49:20.96	326.10	18.00	-30.3	-33.8	13.2	2.05e-05	0	44	0	452984832	20	5358
2026-01-22 02:49:23.96	325.40	18.02	-30.3	-33.7	13.2	1.92e-04	0	44	0	458227712	20	5332
2026-01-22 02:49:26.97	324.69	18.05	-30.4	-33.9	13.1	4.57e-05	0	44	0	464519168	20	5406
2026-01-22 02:49:29.99	323.99	18.06	-30.4	-33.9	13.1	3.28e-05	0	44	0	469762048	20	5396
2026-01-22 02:49:33.00	323.28	18.08	-30.6	-34.1	12.6	9.07e-05	0	44	0	475004928	21	5384
2026-01-22 02:49:36.01	322.58	18.09	-30.8	-34.7	12.2	1.66e-04	0	44	0	481296384	21	5604
2026-01-22 02:49:39.02	321.87	18.09	-30.3	-33.2	13.2	3.35e-05	0	44	0	486539264	21	5022
2026-01-22 02:49:42.02	321.17	18.09	-30.2	-32.9	13.3	1.83e-05	0	44	0	491782144	21	4921
2026-01-22 02:49:45.03	320.47	18.09	-30.4	-33.6	12.9	4.42e-05	0	44	0	498073600	21	5177
2026-01-22 02:49:48.04	319.76	18.08	-31.2	-35.2	11.5	6.81e-04	0	44	0	503316480	22	5742
2026-01-22 02:49:51.05	319.06	18.06	-31.1	-34.8	11.8	6.04e-04	0	44	0	509607936	22	5568
2026-01-22 02:49:54.06	318.35	18.05	-31.2	-35.2	11.5	7.26e-04	0	44	0	514850816	22	5719
2026-01-22 02:49:57.07	317.65	18.02	-30.6	-33.5	12.7	1.18e-04	0	44	0	520093696	22	5019
2026-01-22 02:50:00.08	316.95	18.00	-30.3	-33.2	13.1	3.58e-05	0	44	0	526385152	21	5036
2026-01-22 02:50:03.09	316.25	17.97	-30.1	-32.6	13.5	2.13e-05	0	44	0	531628032	21	4823
2026-01-22 02:50:06.10	315.55	17.93	-29.8	-32.3	14.0	7.00e-07	0	44	0	537919488	20	4824
2026-01-22 02:50:09.11	314.85	17.89	-29.7	-32.2	14.1	7.00e-07	0	44	0	543162368	20	4767
2026-01-22 02:50:12.11	314.16	17.85	-29.9	-32.7	13.8	3.00e-06	0	44	0	548405248	20	4950
2026-01-22 02:50:15.12	313.47	17.80	-29.8	-32.8	14.1	5.30e-06	0	44	0	554696704	19	5103
2026-01-22 02:50:18.13	312.78	17.75	-29.7	-32.7	14.2	2.20e-06	0	44	0	559939584	19	5044
2026-01-22 02:50:21.14	312.09	17.69	-29.5	-32.1	14.6	0.00e+00	0	44	0	565182464	19	4849
2026-01-22 02:50:24.15	311.40	17.63	-29.3	-32.1	14.9	0.00e+00	0	44	0	571473920	18	4964
2026-01-22 02:50:27.16	310.72	17.56	-29.2	-31.8	15.0	0.00e+00	0	44	0	576716800	18	4863
2026-01-22 02:50:30.16	310.04	17.49	-29.5	-32.5	14.5	7.00e-07	0	44	0	583008256	18	5110
2026-01-22 02:50:33.17	309.37	17.42	-29.7	-32.5	14.3	2.20e-06	0	44	0	588251136	19	4984
2026-01-22 02:50:36.18	308.69	17.35	-29.7	-32.5	14.2	4.50e-06	0	44	0	593494016	19	4993
2026-01-22 02:50:39.19	308.02	17.27	-29.8	-32.7	14.1	0.00e+00	0	44	0	599785472	19	5072
2026-01-22 02:50:42.20	307.36	17.18	-29.9	-33.3	13.8	6.10e-06	0	44	0	605028352	19	5272
2026-01-22 02:50:45.21	306.69	17.09	-30.1	-33.3	13.3	1.14e-05	0	44	0	610271232	20	5196
2026-01-22 02:50:48.23	306.03	17.00	-29.9	-32.7	13.7	5.30e-06	0	44	0	616562688	20	4947
2026-01-22 02:50:51.23	305.38	16.91	-29.9	-32.7	13.7	5.30e-06	0	44	0	621805568	20	4970
2026-01-22 02:50:54.24	304.73	16.81	-29.9	-33.1	13.8	2.20e-06	0	44	0	628097024	19	5225
2026-01-22 02:50:57.24	304.09	16.71	-30.1	-33.1	13.4	6.10e-06	0	44	0	633339904	20	5124
2026-01-22 02:51:00.25	303.45	16.60	-30.3	-33.8	13.0	4.19e-05	0	44	0	638582784	20	5378
2026-01-22 02:51:03.26	302.81	16.50	-30.0	-33.1	13.4	1.52e-05	0	44	0	644874240	20	5097
2026-01-22 02:51:06.27	302.18	16.38	-29.9	-33.0	13.9	4.50e-06	0	44	0	650117120	19	5184
2026-01-22 02:51:09.29	301.55	16.27	-30.1	-33.1	13.4	6.80e-06	0	44	0	655360000	20	5128
2026-01-22 02:51:12.29	300.93	16.15	-30.1	-33.4	13.2	1.98e-05	0	44	0	661651456	20	5213
2026-01-22 02:51:15.30	300.31	16.03	-30.3	-33.7	13.0	2.67e-05	0	44	0	666894336	20	5356
2026-01-22 02:51:18.32	299.69	15.91	-29.9	-32.8	13.6	8.30e-06	0	44	0	673185792	20	5015
2026-01-22 02:51:21.33	299.09	15.79	-30.0	-33.0	13.5	8.30e-06	0	44	0	678428672	20	5083
2026-01-22 02:51:24.34	298.48	15.66	-30.1	-33.2	13.3	1.83e-05	0	44	0	683671552	20	5143
2026-01-22 02:51:27.35	297.89	15.53	-30.0	-33.0	13.4	1.75e-05	0	44	0	689963008	20	5093
2026-01-22 02:51:30.36	297.29	15.40	-30.1	-33.4	13.2	2.67e-05	0	44	0	695205888	20	5235
2026-01-22 02:51:33.37	296.71	15.26	-30.1	-33.3	13.2	2.44e-05	0	44	0	701497344	20	5190
2026-01-22 02:51:36.39	296.12	15.12	-30.2	-33.4	13.2	3.35e-05	0	44	0	706740224	20	5252
2026-01-22 02:51:39.40	295.55	14.98	-30.0	-33.0	13.4	1.90e-05	0	44	0	711983104	20	5092
2026-01-22 02:51:42.41	294.98	14.84	-30.1	-33.3	13.2	2.21e-05	0	44	0	718274560	20	5214
2026-01-22 02:51:45.42	294.41	14.70	-30.4	-34.0	12.7	8.85e-05	0	44	0	723517440	20	5487
2026-01-22 02:51:48.42	293.86	14.55	-30.3	-33.8	12.8	4.95e-05	0	44	0	728760320	20	5409
2026-01-22 02:51:51.42	293.30	14.41	-30.4	-34.3	12.5	6.79e-05	0	44	0	735051776	20	5595
2026-01-22 02:51:54.44	292.75	14.26	-30.5	-34.0	12.4	1.77e-04	0	44	0	740294656	21	5355
2026-01-22 02:51:57.45	292.21	14.11	-30.6	-34.3	12.1	2.84e-04	0	44	0	746586112	21	5513
2026-01-22 02:52:00.47	291.67	13.95	-30.6	-34.4	12.1	2.25e-04	0	44	0	751828992	21	5554
2026-01-22 02:52:03.48	291.14	13.80	-30.8	-35.1	11.6	7.03e-04	0	44	0	757071872	21	5844
2026-01-22 02:52:06.47	290.62	13.65	-30.8	-35.0	11.6	8.83e-04	0	44	0	763363328	21	5833
2026-01-22 02:52:09.48	290.10	13.49	-30.7	-34.5	11.9	4.64e-04	0	44	0	768606208	21	5617
2026-01-22 02:52:12.48	289.58	13.33	-30.6	-34.4	12.0	3.34e-04	0	44	0	773849088	21	5547
2026-01-22 02:52:15.49	289.07	13.17	-30.9	-35.4	11.3	8.66e-04	0	44	0	780140544	21	5996
2026-01-22 02:52:18.51	288.57	13.01	-31.2	-35.7	10.7	2.59e-03	0	44	0	785383424	22	6035
2026-01-22 02:52:21.51	288.07	12.85	-31.1	-35.4	10.9	2.59e-03	0	44	0	791674880	22	5917
2026-01-22 02:52:24.52	287.58	12.69	-31.2	-35.7	10.7	3.19e-03	0	44	0	796917760	22	6051
2026-01-22 02:52:27.53	287.09	12.53	-31.2	-35.8	10.6	3.56e-03	0	44	0	802160640	22	6097
2026-01-22 02:52:30.54	286.61	12.36	-31.1	-35.5	10.7	2.99e-03	0	44	0	808452096	22	5977
2026-01-22 02:52:33.56	286.13	12.20	-31.0	-35.6	11.0	1.80e-03	0	44	0	813694976	21	6110
2026-01-22 02:52:36.58	285.66	12.03	-30.8	-35.1	11.0	1.12e-03	0	44	0	819986432	21	5892
2026-01-22 02:52:39.58	285.19	11.86	-30.8	-35.2	11.1	9.86e-04	0	44	0	825229312	21	5923
2026-01-22 02:52:42.59	284.73	11.70	-31.0	-35.6	11.0	1.84e-03	0	44	0	830472192	21	6127
2026-01-22 02:52:45.61	284.28	11.53	-31.1	-35.4	10.7	2.72e-03	0	44	0	836763648	22	5949
2026-01-22 02:52:48.62	283.83	11.36	-30.7	-34.7	11.6	7.96e-04	0	44	0	842006528	21	5705
2026-01-22 02:52:51.62	283.38	11.19	-30.6	-34.5	11.7	2.86e-03	0	44	0	847249408	21	5638
2026-01-22 02:52:54.64	282.94	11.02	-30.7	-34.8	11.6	2.87e-03	0	44	0	853540864	21	5756
2026-01-22 02:52:57.65	282.51	10.85	-30.7	-34.8	11.5	1.06e-03	0	44	0	858783744	21	5744
2026-01-22 02:53:00.65	282.08	10.68	-30.5	-34.3	11.8	6.10e-04	0	44	0	865075200	21	5539
2026-01-22 02:53:03.65	281.66	10.51	-30.4	-34.5	12.0	3.62e-04	0	44	0	870318080	20	5746
2026-01-22 02:53:06.67	281.24	10.34	-30.4	-34.4	12.1	3.48e-04	0	44	0	875560960	20	5722
2026-01-22 02:53:09.68	280.82	10.16	-30.3	-34.1	12.3	1.93e-03	0	44	0	881852416	20	5588
2026-01-22 02:53:12.70	280.41	9.99	-30.3	-34.2	12.2	2.63e-03	0	44	0	887095296	20	5617
2026-01-22 02:53:15.70	280.01	9.82	-30.3	-34.2	12.1	2.86e-03	0	44	0	892338176	20	5649
2026-01-22 02:53:18.71	279.61	9.65	-30.3	-34.2	12.1	3.08e-03	0	44	0	898629632	20	5643
2026-01-22 02:53:21.71	279.21	9.48	-30.1	-33.5	12.6	2.61e-03	0	44	0	903872512	20	5340
2026-01-22 02:53:24.72	278.82	9.31	-29.9	-33.1	12.9	5.79e-05	0	44	0	910163968	20	5187
2026-01-22 02:53:27.73	278.44	9.13	-30.0	-33.2	12.8	1.54e-03	0	44	0	915406848	20	5205
2026-01-22 02:53:30.74	278.06	8.96	-30.0	-33.4	12.6	2.14e-03	0	44	0	920649728	20	5302
2026-01-22 02:53:33.75	277.68	8.79	-30.1	-33.7	12.4	2.55e-03	0	44	0	926941184	20	5420
2026-01-22 02:53:36.75	277.31	8.62	-30.0	-33.4	12.6	2.46e-03	0	44	0	932184064	20	5306
2026-01-22 02:53:39.77	276.94	8.44	-30.1	-33.7	12.4	2.30e-03	0	44	0	938475520	20	5436
2026-01-22 02:53:42.77	276.58	8.27	-30.2	-33.9	12.2	2.57e-03	0	44	0	943718400	20	5538
2026-01-22 02:53:45.79	276.22	8.10	-30.4	-34.6	11.6	3.66e-03	0	44	0	948961280	20	5846
2026-01-22 02:53:48.80	275.86	7.93	-30.6	-34.8	11.2	4.01e-03	0	44	0	955252736	21	5810
2026-01-22 02:53:51.81	275.51	7.75	-30.7	-35.0	11.0	6.21e-03	0	44	0	960495616	21	5910
2026-01-22 02:53:54.81	275.17	7.58	-30.4	-34.7	11.6	3.12e-03	0	44	0	965738496	20	5871
2026-01-22 02:53:57.82	274.83	7.41	-30.2	-33.9	12.1	2.72e-03	0	44	0	972029952	20	5556
2026-01-22 02:54:00.83	274.49	7.24	-30.3	-34.3	11.8	2.67e-03	0	44	0	977272832	20	5729
2026-01-22 02:54:03.84	274.16	7.07	-30.2	-34.0	12.0	1.90e-03	0	44	0	983564288	20	5581

#Closed at: 2026-01-22 02:54:06
#Recorded file [984 MB]: D:/data/31010_260122_054519.dat