passes_logs/2026/01/22/R2M6_AANII_01/R2M6_AANII_01__20260122_164114_FENGYUN_3E_rec.log

#Pass ID: 20260122_164114_FENGYUN 3E
#Satellite: FENGYUN 3E
#Configuration: FENGYUN 3E
#almurnet v.1.7.20240730
#Start time: 2026-01-22 16:41:15

#Version: 2.2.20231116
#Station: R2M6_AANII_01
#Location: 30.233357 lon 59.946436 lat
#TLE: 1 49008U 21062A   26021.55921410  .00000414  00000+0  21575-3 0  9991
#TLE: 2 49008  98.7483  26.6103 0002287 125.5068 234.6322 14.19887394235776

#Time	Az	El	Level	Level2	SNR	BER	BlckErr	Temp	State	Recorded	gain1	gain2
2026-01-22 16:41:15.33	231.14	7.05	-28.0	-29.3	5.6	7.29e-01	0	42	0	0	16	4192
2026-01-22 16:41:18.33	231.51	7.21	-28.5	-30.2	10.9	2.45e-03	0	42	0	7340032	17	4347
2026-01-22 16:41:21.33	231.87	7.37	-27.4	-29.0	11.0	6.55e-04	0	42	0	28311552	16	4335
2026-01-22 16:41:24.34	232.24	7.53	-27.3	-28.8	12.6	1.76e-04	0	42	0	50331648	14	4265
2026-01-22 16:41:27.34	232.62	7.68	-26.9	-28.3	13.2	1.17e-03	0	42	0	72351744	13	4211
2026-01-22 16:41:30.36	233.00	7.84	-27.0	-28.0	13.1	3.20e-05	0	42	0	93323264	14	4026
2026-01-22 16:41:33.38	233.38	8.00	-26.6	-27.6	13.7	5.70e-06	0	42	0	115343360	13	4036
2026-01-22 16:41:36.39	233.77	8.16	-27.0	-28.5	13.1	2.40e-05	0	42	0	137363456	13	4288
2026-01-22 16:41:39.40	234.16	8.32	-27.2	-28.6	12.8	1.36e-03	0	42	0	159383552	14	4198
2026-01-22 16:41:42.40	234.55	8.47	-27.0	-28.5	13.1	1.34e-03	0	43	0	180355072	13	4286
2026-01-22 16:41:45.42	234.95	8.63	-26.8	-28.1	13.4	1.01e-03	0	43	0	202375168	13	4157
2026-01-22 16:41:48.43	235.36	8.79	-26.4	-27.2	13.9	4.50e-06	0	43	0	224395264	13	3929
2026-01-22 16:41:51.44	235.76	8.94	-26.3	-27.5	14.1	0.00e+00	0	43	0	246415360	12	4099
2026-01-22 16:41:54.46	236.18	9.10	-26.3	-27.5	14.1	1.10e-03	0	43	0	267386880	12	4106
2026-01-22 16:41:57.46	236.59	9.26	-26.4	-27.5	14.1	1.67e-03	0	43	0	289406976	12	4124
2026-01-22 16:42:00.46	237.01	9.41	-26.2	-27.1	14.3	1.95e-03	0	43	0	311427072	12	4001
2026-01-22 16:42:03.48	237.44	9.57	-26.1	-26.9	14.4	0.00e+00	0	43	0	332398592	12	3958
2026-01-22 16:42:06.49	237.87	9.72	-26.1	-27.0	14.4	0.00e+00	0	43	0	354418688	12	3974
2026-01-22 16:42:09.50	238.30	9.88	-26.2	-27.1	14.3	1.10e-06	0	43	0	376438784	12	4011
2026-01-22 16:42:12.50	238.74	10.03	-26.1	-26.9	14.5	0.00e+00	0	43	0	398458880	12	3947
2026-01-22 16:42:15.50	239.18	10.18	-26.2	-27.1	14.4	2.20e-06	0	43	0	419430400	12	3995
2026-01-22 16:42:18.51	239.63	10.34	-26.4	-27.6	14.1	2.20e-06	0	43	0	441450496	12	4144
2026-01-22 16:42:21.53	240.08	10.49	-26.4	-27.2	14.0	5.70e-06	0	43	0	463470592	13	3916
2026-01-22 16:42:24.53	240.53	10.64	-26.1	-27.0	14.4	1.10e-06	0	43	0	484442112	12	3984
2026-01-22 16:42:27.52	240.99	10.79	-26.1	-26.9	14.5	1.10e-06	0	43	0	506462208	12	3952
2026-01-22 16:42:30.52	241.46	10.94	-25.9	-27.1	14.8	0.00e+00	0	43	0	527433728	11	4092
2026-01-22 16:42:33.53	241.93	11.09	-25.9	-26.9	14.9	0.00e+00	0	43	0	549453824	11	4044
2026-01-22 16:42:36.54	242.40	11.24	-25.9	-26.9	14.9	0.00e+00	0	43	0	571473920	11	4057
2026-01-22 16:42:39.55	242.88	11.39	-25.9	-26.9	14.9	0.00e+00	0	43	0	593494016	11	4055
2026-01-22 16:42:42.56	243.36	11.53	-25.9	-26.9	14.9	0.00e+00	0	44	0	614465536	11	4055
2026-01-22 16:42:45.57	243.85	11.68	-25.8	-26.7	15.0	0.00e+00	0	44	0	636485632	11	4008
2026-01-22 16:42:48.59	244.35	11.83	-25.7	-26.1	15.0	0.00e+00	0	43	0	658505728	12	3750
2026-01-22 16:42:51.60	244.84	11.97	-25.8	-26.7	15.0	0.00e+00	0	44	0	680525824	11	4013
2026-01-22 16:42:54.61	245.35	12.11	-25.9	-27.0	14.9	0.00e+00	0	44	0	701497344	11	4081
2026-01-22 16:42:57.62	245.86	12.25	-25.6	-26.3	15.3	0.00e+00	0	44	0	723517440	11	3907
2026-01-22 16:43:00.63	246.37	12.39	-24.8	-25.6	15.2	0.00e+00	0	44	0	745537536	11	3949
2026-01-22 16:43:03.63	246.88	12.53	-25.7	-26.5	15.2	0.00e+00	0	44	0	767557632	11	3945
2026-01-22 16:43:06.64	247.40	12.67	-25.6	-26.3	15.3	0.00e+00	0	44	0	788529152	11	3905
2026-01-22 16:43:09.66	247.93	12.81	-25.5	-26.5	15.5	0.00e+00	0	44	0	810549248	10	4057
2026-01-22 16:43:12.67	248.46	12.94	-25.7	-26.5	15.2	9.15e-04	0	44	0	832569344	11	3938
2026-01-22 16:43:15.67	249.00	13.08	-25.6	-26.2	15.4	1.01e-03	0	44	0	853540864	11	3876
2026-01-22 16:43:18.67	249.54	13.21	-25.4	-26.3	15.6	4.13e-04	0	44	0	875560960	10	4005
2026-01-22 16:43:21.68	250.08	13.34	-25.3	-26.1	15.7	0.00e+00	0	44	0	897581056	10	3945
2026-01-22 16:43:24.70	250.63	13.47	-25.3	-26.1	15.7	8.58e-05	0	44	0	919601152	10	3965
2026-01-22 16:43:27.70	251.19	13.59	-25.2	-25.8	15.9	3.12e-04	0	44	0	940572672	10	3886
2026-01-22 16:43:30.71	251.74	13.72	-25.1	-25.8	15.9	7.57e-04	0	44	0	962592768	10	3865
2026-01-22 16:43:33.72	252.31	13.84	-25.1	-26.1	16.0	7.94e-04	0	44	0	984612864	9	4064
2026-01-22 16:43:36.73	252.88	13.96	-25.2	-26.0	15.8	0.00e+00	0	44	0	1006632960	10	3915
2026-01-22 16:43:39.73	253.45	14.08	-25.0	-25.9	16.2	0.00e+00	0	44	0	1027604480	9	3997
2026-01-22 16:43:42.75	254.03	14.20	-25.0	-26.0	16.1	0.00e+00	0	44	0	1049624576	9	4023
2026-01-22 16:43:45.75	254.61	14.31	-25.3	-26.0	15.8	8.19e-04	0	44	0	1070596096	10	3943
2026-01-22 16:43:48.76	255.19	14.42	-25.2	-25.8	15.9	0.00e+00	0	44	0	1092616192	10	3882
2026-01-22 16:43:51.75	255.78	14.53	-25.1	-25.7	16.0	0.00e+00	0	44	0	1114636288	10	3862
2026-01-22 16:43:54.76	256.37	14.64	-25.2	-25.8	15.9	0.00e+00	0	44	0	1135607808	10	3879
2026-01-22 16:43:57.77	256.97	14.75	-25.1	-25.7	16.0	0.00e+00	0	44	0	1157627904	10	3863
2026-01-22 16:44:00.78	257.57	14.85	-25.1	-25.6	16.1	0.00e+00	0	44	0	1179648000	10	3821
2026-01-22 16:44:03.79	258.18	14.95	-24.9	-25.8	16.2	0.00e+00	0	44	0	1201668096	9	3972
2026-01-22 16:44:06.79	258.79	15.05	-24.9	-25.8	16.2	0.00e+00	0	44	0	1222639616	9	3973
2026-01-22 16:44:09.80	259.40	15.14	-25.1	-26.1	16.1	0.00e+00	0	44	0	1244659712	9	4053
2026-01-22 16:44:12.81	260.02	15.24	-25.2	-25.9	15.9	0.00e+00	0	44	0	1266679808	10	3908
2026-01-22 16:44:15.82	260.64	15.33	-24.9	-25.8	16.2	0.00e+00	0	44	0	1287651328	9	3990
2026-01-22 16:44:18.82	261.26	15.41	-24.9	-25.8	16.2	0.00e+00	0	44	0	1309671424	9	3989
2026-01-22 16:44:21.84	261.89	15.50	-25.5	-26.6	15.5	0.00e+00	0	44	0	1331691520	10	4071
2026-01-22 16:44:24.85	262.52	15.58	-24.8	-25.0	16.4	0.00e+00	0	44	0	1353711616	10	3696
2026-01-22 16:44:27.86	263.16	15.66	-24.7	-25.3	16.5	0.00e+00	0	44	0	1374683136	9	3857
2026-01-22 16:44:30.87	263.80	15.73	-24.7	-25.4	16.4	0.00e+00	0	44	0	1396703232	9	3889
2026-01-22 16:44:33.88	264.44	15.80	-24.9	-25.8	15.9	1.37e-05	0	44	0	1418723328	9	4002
2026-01-22 16:44:36.90	265.09	15.87	-24.9	-25.8	16.0	2.20e-06	0	44	0	1440743424	9	4005
2026-01-22 16:44:39.91	265.73	15.94	-24.8	-25.5	16.1	5.70e-06	0	44	0	1461714944	9	3923
2026-01-22 16:44:42.91	266.38	16.00	-24.8	-25.5	16.2	6.80e-06	0	44	0	1483735040	9	3909
2026-01-22 16:44:45.93	267.03	16.06	-24.8	-25.6	16.1	1.53e-03	0	44	0	1505755136	9	3941
2026-01-22 16:44:48.94	267.69	16.11	-24.9	-25.7	16.1	0.00e+00	0	44	0	1527775232	9	3967
2026-01-22 16:44:51.94	268.34	16.17	-24.9	-25.9	16.0	2.20e-06	0	44	0	1548746752	9	4019
2026-01-22 16:44:54.95	269.00	16.21	-24.7	-25.3	16.3	0.00e+00	0	44	0	1570766848	9	3859
2026-01-22 16:44:57.95	269.66	16.26	-24.8	-25.5	16.4	0.00e+00	0	44	0	1592786944	9	3911
2026-01-22 16:45:00.96	270.32	16.30	-24.7	-25.4	16.5	1.02e-03	0	44	0	1613758464	9	3883
2026-01-22 16:45:03.96	270.99	16.34	-24.7	-25.2	16.5	2.75e-04	0	44	0	1635778560	9	3845
2026-01-22 16:45:06.97	271.65	16.37	-24.8	-25.5	16.4	1.07e-03	0	44	0	1656750080	9	3918
2026-01-22 16:45:09.99	272.32	16.40	-24.9	-25.7	16.4	2.59e-04	0	44	0	1678770176	9	3948
2026-01-22 16:45:12.99	272.99	16.43	-24.7	-25.3	16.6	1.19e-03	0	44	0	1700790272	9	3855
2026-01-22 16:45:16.01	273.66	16.45	-24.6	-25.1	16.6	1.63e-03	0	44	0	1722810368	9	3823
2026-01-22 16:45:19.02	274.33	16.47	-24.7	-25.4	16.5	8.95e-04	0	44	0	1743781888	9	3874
2026-01-22 16:45:22.04	275.00	16.49	-24.9	-25.8	16.3	0.00e+00	0	44	0	1765801984	9	3993
2026-01-22 16:45:25.04	275.67	16.50	-25.0	-26.0	16.2	0.00e+00	0	44	0	1787822080	9	4035
2026-01-22 16:45:28.05	276.34	16.51	-25.1	-26.1	16.1	0.00e+00	0	44	0	1809842176	9	4059
2026-01-22 16:45:31.05	277.01	16.52	-25.7	-26.5	15.4	0.00e+00	0	44	0	1830813696	11	3945
2026-01-22 16:45:34.07	277.69	16.52	-25.3	-25.7	15.8	0.00e+00	0	44	0	1852833792	11	3745
2026-01-22 16:45:37.09	278.36	16.51	-24.6	-25.2	16.6	0.00e+00	0	44	0	1874853888	9	3850
2026-01-22 16:45:40.10	279.04	16.51	-24.6	-25.1	16.6	0.00e+00	0	44	0	1896873984	9	3830
2026-01-22 16:45:43.11	279.71	16.50	-24.5	-25.4	16.6	0.00e+00	0	44	0	1917845504	8	4012
2026-01-22 16:45:46.13	280.38	16.48	-24.9	-25.7	16.3	0.00e+00	0	44	0	1939865600	9	3972
2026-01-22 16:45:49.13	281.05	16.47	-24.8	-25.7	16.3	0.00e+00	0	44	0	1961885696	9	3955
2026-01-22 16:45:52.14	281.72	16.44	-24.9	-25.9	16.2	0.00e+00	0	44	0	1983905792	9	4011
2026-01-22 16:45:55.15	282.39	16.42	-24.9	-25.9	16.2	0.00e+00	0	44	0	2004877312	9	4005
2026-01-22 16:45:58.16	283.05	16.39	-25.1	-25.8	16.0	0.00e+00	0	44	0	2026897408	10	3881
2026-01-22 16:46:01.18	283.72	16.36	-24.8	-25.4	16.5	0.00e+00	0	44	0	2048917504	9	3896
2026-01-22 16:46:04.20	284.39	16.32	-24.7	-25.4	16.5	0.00e+00	0	44	0	2070937600	9	3874
2026-01-22 16:46:07.20	285.05	16.28	-24.8	-25.6	16.4	0.00e+00	0	44	0	2091909120	9	3918
2026-01-22 16:46:10.22	285.71	16.24	-24.8	-25.6	16.4	0.00e+00	0	44	0	2113929216	9	3924
2026-01-22 16:46:13.22	286.37	16.19	-24.8	-25.5	16.5	0.00e+00	0	44	0	2135949312	9	3896
2026-01-22 16:46:16.24	287.03	16.14	-24.1	-24.8	13.8	0.00e+00	0	44	0	2157969408	9	3924
2026-01-22 16:46:19.24	287.68	16.09	-24.8	-25.5	16.4	0.00e+00	0	44	0	2178940928	9	3900
2026-01-22 16:46:22.24	288.33	16.03	-24.9	-25.8	16.3	0.00e+00	0	44	0	2200961024	9	3986
2026-01-22 16:46:25.24	288.98	15.97	-24.8	-25.6	16.3	0.00e+00	0	44	0	2222981120	9	3933
2026-01-22 16:46:28.26	289.63	15.91	-24.9	-25.8	16.3	0.00e+00	0	44	0	2243952640	9	3976
2026-01-22 16:46:31.26	290.27	15.84	-25.2	-25.9	16.0	1.60e-03	0	44	0	2265972736	10	3893
2026-01-22 16:46:34.28	290.91	15.77	-25.2	-25.8	16.0	1.60e-03	0	44	0	2287992832	10	3886
2026-01-22 16:46:37.27	291.55	15.70	-25.1	-25.7	16.1	1.53e-03	0	44	0	2308964352	10	3838
2026-01-22 16:46:40.28	292.18	15.62	-25.0	-25.5	16.2	1.48e-03	0	44	0	2330984448	10	3810
2026-01-22 16:46:43.29	292.81	15.54	-25.2	-26.0	15.9	1.69e-03	0	44	0	2353004544	10	3909
2026-01-22 16:46:46.31	293.44	15.46	-25.1	-25.6	16.1	1.95e-03	0	44	0	2373976064	10	3819
2026-01-22 16:46:49.33	294.07	15.38	-24.9	-25.8	16.3	1.64e-03	0	44	0	2395996160	9	3979
2026-01-22 16:46:52.34	294.69	15.29	-25.1	-26.1	16.1	0.00e+00	0	44	0	2418016256	9	4058
2026-01-22 16:46:55.36	295.31	15.20	-25.2	-26.0	15.9	0.00e+00	0	44	0	2440036352	10	3915
2026-01-22 16:46:58.38	295.93	15.10	-25.3	-26.1	15.8	0.00e+00	0	44	0	2462056448	10	3961
2026-01-22 16:47:01.40	296.54	15.01	-25.1	-25.8	16.0	0.00e+00	0	44	0	2483027968	10	3862
2026-01-22 16:47:04.41	297.15	14.91	-25.5	-26.6	15.5	0.00e+00	0	44	0	2505048064	10	4080
2026-01-22 16:47:07.43	297.75	14.81	-25.3	-26.2	15.3	1.41e-04	0	44	0	2527068160	10	3989
2026-01-22 16:47:10.44	298.35	14.70	-25.3	-26.1	15.7	2.20e-06	0	44	0	2549088256	10	3949
2026-01-22 16:47:13.43	298.94	14.60	-25.7	-26.4	15.3	2.20e-06	0	44	0	2570059776	11	3925
2026-01-22 16:47:16.43	299.53	14.49	-25.2	-25.9	15.7	3.40e-06	0	44	0	2592079872	10	3895
2026-01-22 16:47:19.45	300.12	14.38	-25.2	-26.0	15.4	4.92e-05	0	44	0	2614099968	10	3919
2026-01-22 16:47:22.46	300.70	14.27	-25.4	-26.3	15.3	3.77e-05	0	44	0	2635071488	10	4001
2026-01-22 16:47:25.46	301.27	14.15	-25.6	-26.3	15.0	1.53e-04	0	44	0	2657091584	11	3891
2026-01-22 16:47:28.46	301.84	14.04	-25.4	-26.1	14.9	3.86e-04	0	44	0	2679111680	11	3859
2026-01-22 16:47:31.46	302.41	13.92	-25.5	-26.2	15.4	0.00e+00	0	44	0	2700083200	11	3861
2026-01-22 16:47:34.47	302.97	13.80	-25.5	-26.5	15.5	0.00e+00	0	44	0	2722103296	10	4059
2026-01-22 16:47:37.48	303.53	13.67	-25.5	-26.0	15.6	0.00e+00	0	44	0	2744123392	11	3814
2026-01-22 16:47:40.48	304.09	13.55	-25.5	-26.0	15.6	0.00e+00	0	44	0	2766143488	11	3812
2026-01-22 16:47:43.49	304.64	13.42	-25.5	-26.6	15.5	0.00e+00	0	44	0	2787115008	10	4082
2026-01-22 16:47:46.49	305.18	13.29	-25.6	-26.2	15.4	0.00e+00	0	44	0	2809135104	11	3883
2026-01-22 16:47:49.50	305.72	13.16	-25.5	-26.6	15.5	0.00e+00	0	44	0	2831155200	10	4085
2026-01-22 16:47:52.52	306.26	13.03	-25.7	-26.4	15.3	1.10e-06	0	44	0	2852126720	11	3911
2026-01-22 16:47:55.51	306.79	12.90	-25.7	-26.6	15.0	0.00e+00	0	44	0	2874146816	11	3972
2026-01-22 16:47:58.52	307.32	12.77	-26.0	-27.1	14.9	0.00e+00	0	44	0	2895118336	11	4085
2026-01-22 16:48:01.53	307.84	12.63	-25.8	-26.8	15.1	0.00e+00	0	44	0	2917138432	11	4018
2026-01-22 16:48:04.54	308.35	12.49	-25.9	-26.9	15.0	5.95e-05	0	44	0	2939158528	11	4050
2026-01-22 16:48:07.55	308.87	12.35	-25.8	-26.7	15.1	1.94e-04	0	44	0	2961178624	11	3998
2026-01-22 16:48:10.56	309.38	12.21	-25.8	-26.6	15.2	2.16e-04	0	44	0	2982150144	11	3971
2026-01-22 16:48:13.57	309.88	12.07	-25.9	-26.9	15.0	1.59e-04	0	44	0	3004170240	11	4041
2026-01-22 16:48:16.57	310.38	11.93	-26.0	-27.1	14.9	1.75e-04	0	44	0	3026190336	11	4106
2026-01-22 16:48:19.58	310.87	11.79	-26.0	-27.1	14.8	1.57e-04	0	44	0	3048210432	11	4110
2026-01-22 16:48:22.59	311.36	11.64	-26.1	-27.3	14.7	1.75e-04	0	44	0	3069181952	11	4135
2026-01-22 16:48:25.59	311.84	11.50	-26.0	-27.2	14.8	1.80e-04	0	44	0	3091202048	11	4109
2026-01-22 16:48:28.60	312.32	11.35	-26.3	-27.2	14.4	0.00e+00	0	44	0	3113222144	12	4028
2026-01-22 16:48:31.62	312.80	11.21	-26.3	-27.3	14.4	0.00e+00	0	44	0	3134193664	12	4046
2026-01-22 16:48:34.62	313.27	11.06	-26.2	-27.2	14.4	1.10e-06	0	44	0	3156213760	12	4030
2026-01-22 16:48:37.62	313.73	10.91	-26.1	-27.0	14.5	0.00e+00	0	44	0	3178233856	12	3967
2026-01-22 16:48:40.64	314.20	10.76	-26.0	-26.7	14.7	0.00e+00	0	44	0	3200253952	12	3885
2026-01-22 16:48:43.65	314.65	10.61	-26.1	-26.9	14.5	0.00e+00	0	44	0	3221225472	12	3947
2026-01-22 16:48:46.66	315.11	10.46	-26.2	-27.2	14.4	0.00e+00	0	44	0	3243245568	12	4020
2026-01-22 16:48:49.67	315.55	10.31	-26.5	-27.9	14.0	3.40e-06	0	44	0	3265265664	12	4202
2026-01-22 16:48:52.69	316.00	10.16	-26.6	-27.9	13.9	5.70e-06	0	44	0	3287285760	12	4213
2026-01-22 16:48:55.70	316.44	10.00	-27.0	-28.4	13.4	6.80e-06	0	44	0	3308257280	13	4233
2026-01-22 16:48:58.71	316.87	9.85	-26.4	-27.1	14.1	2.20e-06	0	44	0	3330277376	13	3885
2026-01-22 16:49:01.72	317.30	9.70	-26.3	-27.3	14.3	0.00e+00	0	44	0	3352297472	12	4059
2026-01-22 16:49:04.71	317.73	9.55	-26.1	-27.0	14.4	1.10e-06	0	44	0	3373268992	12	3979
2026-01-22 16:49:07.72	318.15	9.39	-26.2	-27.2	14.3	0.00e+00	0	44	0	3395289088	12	4022
2026-01-22 16:49:10.73	318.57	9.24	-26.6	-27.6	13.8	2.20e-06	0	44	0	3417309184	13	4033
2026-01-22 16:49:13.74	318.98	9.08	-26.9	-28.3	13.4	1.02e-05	0	44	0	3439329280	13	4216
2026-01-22 16:49:16.75	319.39	8.93	-27.1	-28.3	13.1	3.77e-05	0	44	0	3460300800	14	4098
2026-01-22 16:49:19.76	319.79	8.77	-26.9	-28.2	13.4	9.10e-06	0	44	0	3482320896	13	4194
2026-01-22 16:49:22.78	320.19	8.62	-26.9	-28.3	13.4	1.14e-05	0	44	0	3504340992	13	4209
2026-01-22 16:49:25.79	320.59	8.46	-26.8	-27.5	13.5	1.48e-05	0	44	0	3525312512	14	3900
2026-01-22 16:49:28.81	320.99	8.30	-26.9	-28.3	13.3	1.60e-05	0	44	0	3547332608	13	4223
2026-01-22 16:49:31.82	321.37	8.15	-26.6	-27.6	13.5	2.20e-06	0	44	0	3569352704	13	4020
2026-01-22 16:49:34.83	321.76	7.99	-26.8	-28.0	13.5	4.50e-06	0	44	0	3591372800	13	4146
2026-01-22 16:49:37.84	322.14	7.84	-26.5	-27.9	13.8	1.20e-03	0	44	0	3612344320	12	4202
2026-01-22 16:49:40.85	322.51	7.68	-26.8	-27.9	13.5	1.13e-03	0	44	0	3634364416	13	4114
2026-01-22 16:49:43.86	322.89	7.52	-26.9	-28.3	13.3	1.37e-03	0	44	0	3656384512	13	4202
2026-01-22 16:49:46.88	323.26	7.37	-27.1	-28.6	13.1	1.80e-03	0	44	0	3678404608	13	4311
2026-01-22 16:49:49.89	323.62	7.21	-27.3	-28.6	12.8	1.85e-03	0	44	0	3699376128	14	4197
2026-01-22 16:49:52.90	323.98	7.05	-33.0	-42.1	3.8	8.46e-01	0	44	104	3718250496	25	10333

#Closed at: 2026-01-22 16:49:55
#Recorded file [3718 MB]: D:/data/31010_260122_194117.dat