passes_logs/2026/01/22/R2M6_AANII_01/R2M6_AANII_01__20260122_085724_SUOMI_NPP_rec.log

#Pass ID: 20260122_085724_SUOMI NPP
#Satellite: SUOMI NPP
#Configuration: NPP
#almurnet v.1.7.20240730
#Start time: 2026-01-22 08:57:26

#Version: 2.2.20231116
#Station: R2M6_AANII_01
#Location: 30.233357 lon 59.946436 lat
#TLE: 1 37849U 11061A   26021.51818991  .00000201  00000+0  11636-3 0  9995
#TLE: 2 37849  98.7819 323.5108 0002300  52.3548 307.7836 14.19527793737637

#Time	Az	El	Level	Level2	SNR	BER	BlckErr	Temp	State	Recorded	gain1	gain2
2026-01-22 08:57:26.17	115.62	7.09	-31.4	-35.5	4.9	1.29e+00	0	41	0	0	24	5782
2026-01-22 08:57:29.17	115.41	7.30	-31.6	-36.5	7.4	1.02e-01	0	41	0	1048576	23	6319
2026-01-22 08:57:32.19	115.19	7.51	-31.9	-37.9	6.4	2.08e-01	0	41	0	7340032	23	7209
2026-01-22 08:57:35.20	114.98	7.73	-31.2	-34.6	8.9	4.16e-02	0	41	0	12582912	23	5336
2026-01-22 08:57:38.21	114.75	7.95	-30.7	-33.4	10.3	5.51e-03	0	41	0	17825792	22	4903
2026-01-22 08:57:41.22	114.53	8.16	-31.1	-34.5	9.5	9.71e-03	0	41	0	24117248	22	5351
2026-01-22 08:57:44.22	114.30	8.38	-30.9	-34.0	9.9	1.19e-02	0	41	0	29360128	22	5125
2026-01-22 08:57:47.22	114.06	8.60	-31.0	-34.2	9.7	1.30e-02	0	41	0	35651584	22	5219
2026-01-22 08:57:50.23	113.82	8.82	-30.6	-32.8	10.9	2.54e-03	0	42	0	40894464	22	4660
2026-01-22 08:57:53.24	113.58	9.04	-30.7	-33.0	10.8	2.32e-03	0	42	0	46137344	22	4705
2026-01-22 08:57:56.24	113.34	9.27	-30.4	-32.1	11.5	9.41e-04	0	42	0	52428800	22	4378
2026-01-22 08:57:59.25	113.09	9.50	-30.5	-32.4	11.3	1.36e-03	0	42	0	57671680	22	4467
2026-01-22 08:58:02.27	112.84	9.72	-30.6	-32.7	11.1	1.18e-03	0	42	0	63963136	22	4583
2026-01-22 08:58:05.28	112.58	9.95	-30.3	-31.8	11.8	5.65e-04	0	42	0	69206016	22	4266
2026-01-22 08:58:08.30	112.32	10.18	-30.4	-32.6	11.5	5.74e-04	0	42	0	74448896	21	4622
2026-01-22 08:58:11.32	112.05	10.42	-30.5	-33.0	11.3	1.41e-03	0	42	0	80740352	21	4778
2026-01-22 08:58:14.32	111.78	10.65	-30.5	-32.8	11.5	7.73e-04	0	42	0	85983232	21	4676
2026-01-22 08:58:17.33	111.51	10.89	-30.4	-32.4	11.8	4.82e-04	0	42	0	91226112	21	4530
2026-01-22 08:58:20.34	111.23	11.12	-30.4	-32.5	11.7	5.89e-04	0	42	0	97517568	21	4586
2026-01-22 08:58:23.34	110.94	11.36	-30.4	-32.3	12.0	3.40e-04	0	42	0	102760448	21	4484
2026-01-22 08:58:26.35	110.66	11.60	-30.2	-31.8	12.2	1.98e-04	0	42	0	109051904	21	4344
2026-01-22 08:58:29.35	110.36	11.84	-30.7	-33.3	11.3	9.52e-04	0	42	0	114294784	21	4848
2026-01-22 08:58:32.35	110.07	12.09	-30.4	-32.4	11.8	3.29e-04	0	42	0	119537664	21	4542
2026-01-22 08:58:35.35	109.76	12.33	-30.7	-33.3	11.3	1.22e-03	0	42	0	125829120	21	4850
2026-01-22 08:58:38.37	109.45	12.58	-31.2	-34.6	10.0	5.81e-03	0	42	0	131072000	22	5297
2026-01-22 08:58:41.38	109.14	12.83	-31.2	-34.5	10.1	1.13e-02	0	42	0	136314880	22	5233
2026-01-22 08:58:44.39	108.82	13.08	-30.5	-32.0	12.0	3.17e-04	0	42	0	142606336	22	4289
2026-01-22 08:58:47.40	108.49	13.33	-31.0	-33.6	10.8	2.38e-03	0	42	0	147849216	22	4885
2026-01-22 08:58:50.41	108.16	13.59	-30.6	-32.5	11.6	1.45e-03	0	42	0	154140672	22	4452
2026-01-22 08:58:53.43	107.82	13.84	-30.7	-32.6	11.6	4.78e-04	0	42	0	159383552	22	4495
2026-01-22 08:58:56.42	107.48	14.10	-30.6	-32.3	11.8	4.58e-04	0	42	0	164626432	22	4375
2026-01-22 08:58:59.44	107.13	14.36	-30.5	-31.9	12.1	2.37e-04	0	42	0	170917888	22	4255
2026-01-22 08:59:02.45	106.78	14.62	-30.4	-32.1	12.4	1.57e-04	0	42	0	176160768	21	4392
2026-01-22 08:59:05.45	106.42	14.88	-30.1	-31.4	12.9	5.56e-05	0	43	0	181403648	21	4168
2026-01-22 08:59:08.46	106.05	15.14	-30.1	-32.0	12.8	6.48e-05	0	42	0	187695104	20	4466
2026-01-22 08:59:11.47	105.67	15.41	-30.1	-31.9	12.8	8.69e-05	0	43	0	192937984	20	4418
2026-01-22 08:59:14.48	105.29	15.68	-30.1	-31.8	13.0	5.18e-05	0	43	0	199229440	20	4376
2026-01-22 08:59:17.50	104.90	15.95	-30.8	-33.4	11.5	6.01e-04	0	43	0	204472320	21	4882
2026-01-22 08:59:20.51	104.51	16.22	-30.7	-33.0	11.8	2.68e-04	0	43	0	209715200	21	4716
2026-01-22 08:59:23.51	104.10	16.49	-30.9	-33.8	11.2	9.76e-04	0	43	0	216006656	21	5014
2026-01-22 08:59:26.52	103.69	16.76	-31.1	-34.0	10.8	3.73e-03	0	43	0	221249536	22	4984
2026-01-22 08:59:29.53	103.27	17.04	-30.4	-31.7	12.5	9.91e-05	0	43	0	227540992	22	4175
2026-01-22 08:59:32.54	102.85	17.31	-30.8	-32.8	11.6	6.34e-04	0	43	0	232783872	22	4556
2026-01-22 08:59:35.56	102.41	17.59	-30.2	-31.5	13.0	4.88e-05	0	43	0	238026752	21	4184
2026-01-22 08:59:38.57	101.97	17.87	-30.4	-32.1	12.5	9.99e-05	0	43	0	244318208	21	4387
2026-01-22 08:59:41.58	101.52	18.15	-30.3	-31.8	12.7	9.91e-05	0	43	0	249561088	21	4295
2026-01-22 08:59:44.60	101.06	18.44	-30.2	-31.6	12.9	4.42e-05	0	43	0	254803968	21	4228
2026-01-22 08:59:47.61	100.59	18.72	-30.1	-31.3	13.1	3.35e-05	0	43	0	261095424	21	4125
2026-01-22 08:59:50.63	100.11	19.01	-30.2	-31.5	13.0	2.59e-05	0	43	0	266338304	21	4184
2026-01-22 08:59:53.64	99.62	19.29	-30.2	-31.7	12.8	4.11e-05	0	43	0	272629760	21	4271
2026-01-22 08:59:56.65	99.12	19.58	-30.2	-31.6	12.9	5.34e-05	0	43	0	277872640	21	4236
2026-01-22 08:59:59.65	98.62	19.87	-30.3	-32.0	12.5	1.65e-04	0	43	0	283115520	21	4394
2026-01-22 09:00:02.67	98.10	20.16	-29.9	-31.0	13.3	9.90e-06	0	43	0	289406976	21	4052
2026-01-22 09:00:05.69	97.58	20.45	-29.9	-31.2	13.4	1.44e-05	0	43	0	294649856	20	4221
2026-01-22 09:00:08.70	97.04	20.74	-29.6	-30.6	13.9	3.00e-06	0	43	0	300941312	20	4019
2026-01-22 09:00:11.70	96.50	21.03	-30.0	-31.6	13.3	1.29e-05	0	43	0	306184192	20	4318
2026-01-22 09:00:14.71	95.94	21.32	-30.3	-32.4	12.8	5.87e-05	0	43	0	311427072	20	4587
2026-01-22 09:00:17.72	95.37	21.61	-30.3	-32.5	12.7	6.71e-05	0	43	0	317718528	20	4609
2026-01-22 09:00:20.73	94.80	21.90	-30.7	-33.1	12.0	1.36e-04	0	43	0	322961408	21	4714
2026-01-22 09:00:23.73	94.21	22.20	-30.3	-31.7	12.9	2.74e-05	0	43	0	328204288	21	4253
2026-01-22 09:00:26.74	93.61	22.49	-30.1	-31.3	13.3	1.44e-05	0	43	0	334495744	21	4132
2026-01-22 09:00:29.76	93.00	22.78	-30.4	-32.2	12.6	6.94e-05	0	43	0	339738624	21	4430
2026-01-22 09:00:32.76	92.37	23.07	-30.2	-31.5	13.1	3.66e-05	0	43	0	346030080	21	4197
2026-01-22 09:00:35.76	91.74	23.37	-30.1	-31.3	13.2	3.20e-05	0	43	0	351272960	21	4120
2026-01-22 09:00:38.77	91.09	23.66	-30.4	-32.2	12.8	5.79e-05	0	43	0	356515840	21	4393
2026-01-22 09:00:41.78	90.44	23.95	-30.5	-32.5	12.5	1.99e-04	0	43	0	362807296	21	4486
2026-01-22 09:00:44.77	89.77	24.24	-30.2	-31.5	13.2	2.36e-05	0	43	0	368050176	21	4186
2026-01-22 09:00:47.78	89.08	24.52	-29.7	-30.5	14.1	6.80e-06	0	43	0	374341632	20	3978
2026-01-22 09:00:50.80	88.38	24.81	-29.6	-30.2	14.3	0.00e+00	0	43	0	379584512	20	3887
2026-01-22 09:00:53.81	87.67	25.10	-29.3	-30.1	14.7	7.00e-07	0	43	0	384827392	19	3936
2026-01-22 09:00:56.82	86.95	25.38	-29.1	-29.6	15.0	7.00e-07	0	43	0	391118848	19	3818
2026-01-22 09:00:59.84	86.21	25.66	-29.6	-30.9	14.2	1.50e-06	0	43	0	396361728	19	4182
2026-01-22 09:01:02.85	85.46	25.94	-29.9	-31.2	13.6	6.80e-06	0	43	0	401604608	20	4195
2026-01-22 09:01:05.85	84.70	26.22	-30.2	-32.2	13.1	6.63e-05	0	43	0	407896064	20	4505
2026-01-22 09:01:08.86	83.93	26.49	-30.1	-31.7	13.3	3.73e-05	0	43	0	413138944	20	4315
2026-01-22 09:01:11.87	83.14	26.76	-30.2	-32.0	13.2	1.67e-05	0	43	0	419430400	20	4439
2026-01-22 09:01:14.88	82.33	27.03	-30.4	-32.5	12.8	5.79e-05	0	43	0	424673280	20	4611
2026-01-22 09:01:17.89	81.52	27.29	-30.7	-32.9	12.4	8.16e-05	0	43	0	429916160	21	4622
2026-01-22 09:01:20.90	80.69	27.55	-30.1	-31.2	13.4	1.52e-05	0	43	0	436207616	21	4085
2026-01-22 09:01:23.89	79.85	27.81	-30.6	-32.6	12.5	7.17e-05	0	43	0	441450496	21	4534
2026-01-22 09:01:26.91	78.99	28.06	-31.1	-33.7	11.5	8.22e-04	0	43	0	446693376	22	4819
2026-01-22 09:01:29.93	78.12	28.30	-31.2	-33.8	11.4	8.95e-04	0	43	0	452984832	22	4853
2026-01-22 09:01:32.94	77.23	28.54	-31.3	-34.2	11.1	1.34e-03	0	43	0	458227712	22	5034
2026-01-22 09:01:35.94	76.34	28.78	-30.1	-31.1	13.5	5.49e-05	0	43	0	464519168	21	4051
2026-01-22 09:01:38.95	75.43	29.00	-30.2	-31.4	13.3	8.30e-06	0	43	0	469762048	21	4152
2026-01-22 09:01:41.95	74.51	29.22	-30.5	-32.5	12.6	3.43e-05	0	43	0	475004928	21	4496
2026-01-22 09:01:44.96	73.57	29.44	-30.6	-32.6	12.5	1.22e-04	0	43	0	481296384	21	4534
2026-01-22 09:01:47.97	72.63	29.65	-30.7	-32.8	12.4	1.36e-04	0	43	0	486539264	21	4622
2026-01-22 09:01:50.98	71.67	29.85	-30.5	-32.3	12.7	4.80e-05	0	43	0	492830720	21	4446
2026-01-22 09:01:53.99	70.70	30.04	-30.0	-31.0	13.7	7.60e-06	0	43	0	498073600	21	4020
2026-01-22 09:01:57.00	69.71	30.22	-30.4	-31.9	13.0	6.25e-05	0	43	0	503316480	21	4313
2026-01-22 09:02:00.01	68.72	30.40	-30.4	-31.9	13.0	6.33e-05	0	43	0	509607936	21	4322
2026-01-22 09:02:03.03	67.71	30.57	-30.0	-30.9	13.6	6.80e-06	0	43	0	514850816	21	4007
2026-01-22 09:02:06.04	66.70	30.73	-30.1	-31.1	13.6	6.10e-06	0	43	0	520093696	21	4067
2026-01-22 09:02:09.05	65.67	30.88	-30.1	-31.3	13.5	1.14e-05	0	43	0	526385152	21	4113
2026-01-22 09:02:12.05	64.64	31.01	-31.1	-33.5	11.6	2.61e-04	0	43	0	531628032	22	4783
2026-01-22 09:02:15.06	63.60	31.14	-31.3	-34.3	11.0	1.68e-03	0	43	0	537919488	22	5088
2026-01-22 09:02:18.07	62.55	31.26	-30.5	-31.9	12.6	8.08e-05	0	43	0	543162368	22	4220
2026-01-22 09:02:21.07	61.49	31.37	-30.9	-33.0	12.0	2.48e-04	0	43	0	548405248	22	4564
2026-01-22 09:02:24.08	60.43	31.47	-30.3	-31.8	13.2	1.98e-05	0	43	0	554696704	21	4248
2026-01-22 09:02:27.08	59.36	31.55	-31.2	-33.8	11.6	3.20e-04	0	43	0	559939584	22	4841
2026-01-22 09:02:30.08	58.29	31.63	-31.5	-34.1	10.8	2.99e-03	0	43	0	565182464	23	4890
2026-01-22 09:02:33.09	57.21	31.69	-31.2	-33.3	11.5	6.58e-04	0	43	0	571473920	23	4568
2026-01-22 09:02:36.11	56.12	31.75	-31.0	-32.8	11.8	7.09e-04	0	43	0	576716800	23	4424
2026-01-22 09:02:39.11	55.04	31.79	-31.2	-33.4	11.4	1.84e-03	0	43	0	583008256	23	4644
2026-01-22 09:02:42.13	53.95	31.82	-30.9	-32.3	11.9	3.07e-04	0	43	0	588251136	23	4267
2026-01-22 09:02:45.12	52.86	31.84	-31.2	-33.3	11.5	1.01e-03	0	43	0	593494016	23	4600
2026-01-22 09:02:48.13	51.77	31.84	-31.0	-32.5	12.0	3.06e-04	0	43	0	599785472	23	4316
2026-01-22 09:02:51.12	50.69	31.84	-30.6	-32.0	12.8	7.62e-05	0	43	0	605028352	22	4214
2026-01-22 09:02:54.13	49.60	31.82	-31.3	-34.1	11.4	1.98e-04	0	43	0	610271232	22	4963
2026-01-22 09:02:57.13	48.51	31.79	-31.4	-33.8	11.2	2.31e-03	0	43	0	616562688	23	4751
2026-01-22 09:03:00.13	47.43	31.75	-31.4	-33.7	11.2	1.10e-03	0	43	0	621805568	23	4709
2026-01-22 09:03:03.13	46.35	31.70	-31.5	-34.1	10.9	2.18e-03	0	43	0	628097024	23	4866
2026-01-22 09:03:06.14	45.27	31.64	-31.0	-32.7	12.0	3.32e-04	0	43	0	633339904	23	4371
2026-01-22 09:03:09.15	44.19	31.56	-31.1	-33.5	11.7	5.55e-04	0	43	0	638582784	22	4720
2026-01-22 09:03:12.17	43.12	31.47	-31.3	-34.2	11.2	9.10e-04	0	43	0	644874240	22	5020
2026-01-22 09:03:15.18	42.06	31.38	-30.8	-32.7	12.3	1.97e-04	0	43	0	650117120	22	4455
2026-01-22 09:03:18.19	41.00	31.27	-31.2	-33.8	11.4	5.88e-04	0	43	0	655360000	22	4865
2026-01-22 09:03:21.19	39.95	31.15	-31.4	-34.3	11.1	1.96e-03	0	43	0	661651456	22	5007
2026-01-22 09:03:24.20	38.91	31.03	-31.1	-33.6	11.6	5.75e-04	0	43	0	666894336	22	4773
2026-01-22 09:03:27.22	37.88	30.89	-31.0	-33.1	11.9	7.22e-04	0	43	0	673185792	22	4600
2026-01-22 09:03:30.23	36.85	30.74	-30.6	-32.0	12.6	9.15e-05	0	43	0	678428672	22	4231
2026-01-22 09:03:33.23	35.84	30.58	-30.5	-31.7	12.8	5.87e-05	0	43	0	683671552	22	4137
2026-01-22 09:03:36.23	34.84	30.42	-31.1	-33.6	11.7	7.78e-04	0	43	0	689963008	22	4763
2026-01-22 09:03:39.24	33.85	30.24	-31.2	-33.9	11.4	6.90e-04	0	43	0	695205888	22	4873
2026-01-22 09:03:42.26	32.87	30.06	-31.4	-33.8	11.0	2.04e-03	0	43	0	700448768	23	4761
2026-01-22 09:03:45.28	31.89	29.87	-31.5	-34.3	10.6	3.70e-03	0	43	0	706740224	23	4981
2026-01-22 09:03:48.29	30.93	29.67	-31.7	-35.0	10.1	5.06e-03	0	43	0	711983104	23	5267
2026-01-22 09:03:51.29	29.99	29.46	-31.0	-32.8	11.7	1.03e-03	0	43	0	718274560	23	4418
2026-01-22 09:03:54.30	29.06	29.25	-31.1	-33.1	11.5	6.78e-04	0	43	0	723517440	23	4520
2026-01-22 09:03:57.31	28.14	29.03	-30.9	-32.5	11.8	9.29e-04	0	43	0	728760320	23	4317
2026-01-22 09:04:00.32	27.23	28.80	-29.4	-29.7	14.6	0.00e+00	0	43	0	735051776	20	3753
2026-01-22 09:04:03.33	26.33	28.57	-29.4	-30.2	14.7	0.00e+00	0	43	0	740294656	19	3978
2026-01-22 09:04:06.32	25.46	28.33	-29.8	-31.5	13.9	3.00e-06	0	43	0	746586112	19	4340
2026-01-22 09:04:09.32	24.59	28.09	-30.9	-32.9	11.9	5.87e-04	0	43	0	751828992	22	4562
2026-01-22 09:04:12.31	23.74	27.84	-29.9	-30.6	13.8	2.20e-06	0	43	0	757071872	21	3910
2026-01-22 09:04:15.32	22.90	27.59	-31.5	-34.5	10.4	1.51e-03	0	43	0	763363328	23	5086
2026-01-22 09:04:18.33	22.07	27.33	-31.6	-34.9	10.1	1.56e-02	0	43	0	768606208	23	5215
2026-01-22 09:04:21.35	21.25	27.07	-31.3	-33.8	11.0	2.43e-03	0	43	0	773849088	23	4760
2026-01-22 09:04:24.35	20.45	26.80	-31.4	-33.8	11.0	2.04e-03	0	43	0	780140544	23	4774
2026-01-22 09:04:27.36	19.67	26.53	-30.8	-32.5	12.2	3.02e-04	0	43	0	785383424	22	4375
2026-01-22 09:04:30.37	18.89	26.26	-30.0	-30.7	13.7	6.10e-06	0	43	0	791674880	21	3939
2026-01-22 09:04:33.39	18.13	25.98	-29.7	-30.6	14.1	7.00e-07	0	43	0	796917760	20	3989
2026-01-22 09:04:36.41	17.38	25.70	-29.8	-30.9	13.8	3.80e-06	0	43	0	802160640	20	4088
2026-01-22 09:04:39.42	16.65	25.42	-29.9	-31.3	13.6	5.30e-06	0	43	0	808452096	20	4202
2026-01-22 09:04:42.43	15.92	25.14	-29.7	-30.8	14.0	6.10e-06	0	43	0	813694976	20	4047
2026-01-22 09:04:45.43	15.22	24.86	-29.8	-31.0	13.8	1.50e-06	0	43	0	818937856	20	4107
2026-01-22 09:04:48.44	14.52	24.57	-29.5	-30.0	14.3	1.50e-06	0	43	0	825229312	20	3840
2026-01-22 09:04:51.46	13.84	24.28	-28.8	-28.9	15.4	0.00e+00	0	43	0	830472192	19	3623
2026-01-22 09:04:54.46	13.17	24.00	-28.5	-28.7	15.9	0.00e+00	0	43	0	836763648	18	3653
2026-01-22 09:04:57.48	12.51	23.71	-29.2	-30.3	14.9	0.00e+00	0	43	0	842006528	18	4088
2026-01-22 09:05:00.48	11.87	23.42	-29.4	-30.4	14.5	7.00e-07	0	43	0	847249408	19	4016
2026-01-22 09:05:03.48	11.24	23.13	-29.0	-29.4	15.0	0.00e+00	0	43	0	853540864	19	3751
2026-01-22 09:05:06.49	10.62	22.84	-29.3	-30.0	14.7	0.00e+00	0	43	0	858783744	19	3912
2026-01-22 09:05:09.50	10.01	22.55	-29.2	-29.9	14.7	2.20e-06	0	43	0	864026624	19	3888
2026-01-22 09:05:12.51	9.41	22.25	-29.3	-30.0	14.7	0.00e+00	0	43	0	870318080	19	3924
2026-01-22 09:05:15.51	8.82	21.96	-29.2	-29.9	14.7	0.00e+00	0	43	0	875560960	19	3900
2026-01-22 09:05:18.52	8.25	21.67	-29.6	-30.9	14.1	2.20e-06	0	43	0	881852416	19	4168
2026-01-22 09:05:21.52	7.68	21.38	-30.1	-31.6	13.2	2.21e-05	0	43	0	887095296	20	4306
2026-01-22 09:05:24.53	7.13	21.09	-30.0	-31.5	13.3	1.98e-05	0	43	0	892338176	20	4287
2026-01-22 09:05:27.54	6.59	20.80	-29.6	-30.5	14.0	5.30e-06	0	43	0	898629632	20	3975
2026-01-22 09:05:30.53	6.06	20.51	-29.6	-30.4	14.0	3.00e-06	0	44	0	903872512	20	3942
2026-01-22 09:05:33.54	5.53	20.22	-29.5	-30.7	14.2	7.00e-07	0	43	0	909115392	19	4115
2026-01-22 09:05:36.54	5.02	19.94	-29.9	-31.7	13.5	4.50e-06	0	43	0	915406848	19	4433
2026-01-22 09:05:39.54	4.52	19.65	-30.3	-32.2	12.7	4.11e-05	0	43	0	920649728	20	4517
2026-01-22 09:05:42.55	4.02	19.37	-30.0	-31.6	13.2	1.67e-05	0	43	0	926941184	20	4317
2026-01-22 09:05:45.54	3.54	19.08	-29.7	-30.7	13.7	6.80e-06	0	43	0	932184064	20	4037
2026-01-22 09:05:48.54	3.07	18.80	-29.9	-31.4	13.3	1.83e-05	0	43	0	937426944	20	4238
2026-01-22 09:05:51.55	2.60	18.52	-30.2	-31.7	12.4	1.90e-04	0	43	0	943718400	21	4272
2026-01-22 09:05:54.55	2.15	18.24	-29.5	-30.4	13.9	3.00e-06	0	43	0	948961280	20	3954
2026-01-22 09:05:57.56	1.70	17.96	-29.5	-30.2	14.0	7.00e-07	0	43	0	954204160	20	3899
2026-01-22 09:06:00.57	1.26	17.68	-29.4	-30.5	14.2	2.20e-06	0	43	0	960495616	19	4064
2026-01-22 09:06:03.58	0.82	17.40	-29.6	-31.1	13.8	2.20e-06	0	43	0	965738496	19	4236
2026-01-22 09:06:06.59	0.40	17.13	-29.8	-31.6	13.5	1.52e-05	0	43	0	972029952	19	4409
2026-01-22 09:06:09.61	359.98	16.85	-29.8	-31.5	13.5	1.44e-05	0	43	0	977272832	19	4370
2026-01-22 09:06:12.62	359.57	16.58	-29.7	-31.3	13.6	7.60e-06	0	43	0	982515712	19	4315
2026-01-22 09:06:15.63	359.17	16.31	-29.9	-31.9	13.2	1.29e-05	0	43	0	988807168	19	4491
2026-01-22 09:06:18.64	358.77	16.04	-30.9	-33.7	11.2	5.52e-04	0	43	0	994050048	21	4999
2026-01-22 09:06:21.64	358.39	15.77	-31.1	-34.0	10.6	6.24e-03	0	43	0	999292928	22	5019
2026-01-22 09:06:24.65	358.01	15.50	-30.8	-33.1	11.3	1.36e-03	0	43	0	1005584384	22	4650
2026-01-22 09:06:27.66	357.63	15.24	-30.1	-31.3	12.8	1.20e-04	0	43	0	1010827264	21	4168
2026-01-22 09:06:30.67	357.27	14.98	-29.4	-30.1	13.9	3.80e-06	0	43	0	1017118720	20	3885
2026-01-22 09:06:33.68	356.91	14.71	-30.1	-32.0	12.6	6.10e-05	0	43	0	1022361600	20	4469
2026-01-22 09:06:36.69	356.55	14.46	-30.6	-32.9	11.6	5.26e-04	0	43	0	1027604480	21	4695
2026-01-22 09:06:39.69	356.21	14.20	-30.6	-33.0	11.5	8.91e-04	0	43	0	1033895936	21	4749
2026-01-22 09:06:42.68	355.87	13.94	-30.6	-32.9	11.6	9.46e-04	0	43	0	1039138816	21	4708
2026-01-22 09:06:45.69	355.53	13.69	-30.7	-33.3	11.3	7.16e-04	0	43	0	1044381696	21	4864
2026-01-22 09:06:48.70	355.20	13.44	-30.3	-32.1	12.1	3.84e-04	0	43	0	1050673152	21	4425
2026-01-22 09:06:51.70	354.88	13.18	-30.5	-32.6	11.7	5.11e-04	0	43	0	1055916032	21	4623
2026-01-22 09:06:54.71	354.56	12.93	-30.5	-32.7	11.6	6.36e-04	0	43	0	1062207488	21	4658
2026-01-22 09:06:57.73	354.25	12.69	-30.6	-33.1	11.4	1.11e-03	0	43	0	1067450368	21	4781
2026-01-22 09:07:00.74	353.94	12.44	-30.7	-33.3	11.2	1.34e-03	0	43	0	1072693248	21	4885
2026-01-22 09:07:03.74	353.64	12.20	-30.2	-32.0	12.1	2.68e-04	0	43	0	1078984704	21	4391
2026-01-22 09:07:06.75	353.35	11.95	-29.9	-31.1	12.7	7.01e-05	0	43	0	1084227584	21	4104
2026-01-22 09:07:09.75	353.06	11.71	-30.1	-31.5	12.4	8.54e-05	0	43	0	1089470464	21	4255
2026-01-22 09:07:12.76	352.77	11.47	-30.3	-32.3	11.9	4.23e-04	0	43	0	1095761920	21	4502
2026-01-22 09:07:15.77	352.49	11.23	-30.9	-34.0	10.5	2.28e-03	0	43	0	1101004800	21	5172
2026-01-22 09:07:18.79	352.21	11.00	-31.2	-34.7	9.7	1.08e-02	0	43	0	1107296256	22	5371
2026-01-22 09:07:21.81	351.94	10.76	-31.3	-35.2	9.4	1.78e-02	0	43	0	1112539136	22	5595
2026-01-22 09:07:24.81	351.67	10.53	-31.2	-34.8	9.6	1.33e-02	0	43	0	1117782016	22	5422
2026-01-22 09:07:27.83	351.40	10.29	-31.1	-34.5	9.8	9.36e-03	0	43	0	1124073472	22	5285
2026-01-22 09:07:30.84	351.15	10.06	-30.8	-33.5	10.5	3.70e-03	0	43	0	1129316352	22	4880
2026-01-22 09:07:33.84	350.89	9.84	-30.9	-33.5	10.5	2.93e-03	0	44	0	1135607808	22	4885
2026-01-22 09:07:36.85	350.64	9.61	-30.8	-33.2	10.7	2.50e-03	0	43	0	1140850688	22	4772
2026-01-22 09:07:39.86	350.39	9.38	-30.5	-32.5	11.2	1.39e-03	0	44	0	1146093568	22	4523
2026-01-22 09:07:42.87	350.15	9.16	-30.6	-32.7	11.1	2.10e-03	0	43	0	1152385024	22	4572
2026-01-22 09:07:45.88	349.91	8.94	-30.3	-32.3	11.6	6.26e-04	0	43	0	1157627904	21	4547
2026-01-22 09:07:48.89	349.68	8.72	-30.5	-33.1	11.1	1.20e-03	0	43	0	1162870784	21	4827
2026-01-22 09:07:51.90	349.44	8.50	-30.6	-33.5	10.7	2.72e-03	0	43	0	1169162240	21	5009
2026-01-22 09:07:54.91	349.22	8.28	-30.7	-33.7	10.5	4.11e-03	0	43	0	1174405120	21	5111
2026-01-22 09:07:57.93	348.99	8.06	-30.8	-34.2	10.1	6.90e-03	0	43	0	1180696576	21	5319
2026-01-22 09:08:00.93	348.77	7.84	-31.0	-34.7	9.7	1.00e-02	0	43	0	1185939456	21	5553
2026-01-22 09:08:03.95	348.55	7.63	-31.0	-34.4	9.5	1.87e-02	0	43	0	1191182336	22	5328
2026-01-22 09:08:06.95	348.34	7.42	-30.9	-34.1	9.7	1.03e-02	0	43	0	1197473792	22	5203
2026-01-22 09:08:09.97	348.13	7.21	-31.0	-34.4	9.5	1.58e-02	0	43	0	1202716672	22	5303
2026-01-22 09:08:12.98	347.92	7.00	-33.3	-45.7	3.8	1.49e+00	0	43	104	1205862400	26	14996

#Closed at: 2026-01-22 09:08:15
#Recorded file [1205 MB]: D:/data/31010_260122_115728.dat