passes_logs/2026/01/22/R2M6_AANII_01/R2M6_AANII_01__20260122_050540_FENGYUN_3E_rec.log

#Pass ID: 20260122_050540_FENGYUN 3E
#Satellite: FENGYUN 3E
#Configuration: FENGYUN 3E
#almurnet v.1.7.20240730
#Start time: 2026-01-22 05:11:19

#Version: 2.2.20231116
#Station: R2M6_AANII_01
#Location: 30.233357 lon 59.946436 lat
#TLE: 1 49008U 21062A   26021.55921410  .00000414  00000+0  21575-3 0  9991
#TLE: 2 49008  98.7483  26.6103 0002287 125.5068 234.6322 14.19887394235776

#Time	Az	El	Level	Level2	SNR	BER	BlckErr	Temp	State	Recorded	gain1	gain2
2026-01-22 05:11:19.13	314.64	61.56	-33.7	-44.9	3.8	8.46e-01	0	44	0	0	27	13150
2026-01-22 05:11:21.13	312.79	61.82	-34.0	-42.9	3.8	8.46e-01	0	44	104	0	29	10036
2026-01-22 05:11:23.13	310.90	62.06	-34.0	-42.9	3.8	8.46e-01	0	44	104	0	29	10001
2026-01-22 05:11:25.14	308.97	62.27	-34.0	-42.9	3.8	8.45e-01	0	44	104	0	29	10011
2026-01-22 05:11:27.15	307.00	62.45	-33.9	-42.8	3.8	8.46e-01	0	44	104	0	29	10048
2026-01-22 05:11:29.16	305.00	62.60	-33.9	-42.8	3.8	8.46e-01	0	44	104	0	29	9996
2026-01-22 05:11:31.16	303.00	62.73	-33.9	-42.7	3.8	8.46e-01	0	44	104	0	29	9917
2026-01-22 05:11:33.16	300.97	62.82	-33.9	-42.7	3.8	8.46e-01	0	45	104	0	29	9941
2026-01-22 05:11:35.17	298.92	62.89	-34.0	-42.9	3.8	8.46e-01	0	44	104	0	29	10028
2026-01-22 05:11:37.18	296.86	62.92	-34.0	-42.8	3.8	8.46e-01	0	44	104	0	29	9939
2026-01-22 05:11:39.18	294.81	62.92	-34.0	-43.0	3.8	8.46e-01	0	44	104	0	29	10054
2026-01-22 05:11:41.19	292.75	62.89	-34.0	-42.9	3.8	8.46e-01	0	44	104	0	29	10021
2026-01-22 05:11:43.19	290.71	62.83	-33.9	-42.8	3.8	8.46e-01	0	44	104	0	29	9958
2026-01-22 05:11:45.19	288.68	62.74	-34.0	-42.8	3.8	8.46e-01	0	44	104	0	29	9938
2026-01-22 05:11:47.20	286.66	62.62	-33.9	-42.8	3.8	8.46e-01	0	44	104	0	29	10006
2026-01-22 05:11:49.20	284.67	62.48	-33.9	-42.6	3.8	8.45e-01	0	44	104	0	29	9806
2026-01-22 05:11:51.21	282.70	62.30	-33.9	-42.6	3.8	8.45e-01	0	44	104	0	29	9766
2026-01-22 05:11:53.21	280.76	62.09	-33.9	-42.8	3.8	8.46e-01	0	44	104	0	28	10118
2026-01-22 05:11:55.22	278.86	61.86	-33.9	-42.9	3.8	8.46e-01	0	44	104	0	28	10176
2026-01-22 05:11:57.22	277.00	61.60	-33.8	-42.1	3.8	8.48e-01	0	44	104	0	28	9374
2026-01-22 05:11:59.23	275.17	61.32	-33.9	-42.8	3.8	8.46e-01	0	44	104	0	28	10054
2026-01-22 05:12:01.23	273.39	61.01	-33.9	-42.9	3.8	8.45e-01	0	44	104	0	28	10215
2026-01-22 05:12:03.24	271.65	60.68	-33.8	-42.4	3.8	8.46e-01	0	44	104	0	28	9720
2026-01-22 05:12:05.23	269.97	60.34	-33.8	-42.0	3.8	8.46e-01	0	44	104	0	28	9346
2026-01-22 05:12:07.23	268.33	59.97	-33.5	-40.2	3.9	8.46e-01	0	44	104	0	28	7810
2026-01-22 05:12:09.24	266.73	59.58	-32.1	-35.1	6.6	2.49e-01	0	44	0	3145728	25	5128
2026-01-22 05:12:11.24	265.18	59.17	-30.4	-31.8	9.7	5.47e-02	0	44	0	17825792	22	4221
2026-01-22 05:12:13.25	263.68	58.75	-25.2	-25.3	16.7	0.00e+00	0	44	0	32505856	11	3627
2026-01-22 05:12:15.26	262.22	58.32	-25.6	-26.1	16.2	0.00e+00	0	44	0	47185920	11	3814
2026-01-22 05:12:17.27	260.81	57.87	-26.1	-26.7	15.5	0.00e+00	0	44	0	60817408	12	3876
2026-01-22 05:12:19.28	259.45	57.40	-25.5	-25.5	16.3	0.00e+00	0	44	0	75497472	12	3579
2026-01-22 05:12:21.28	258.14	56.93	-25.4	-25.8	16.4	0.00e+00	0	44	0	90177536	11	3757
2026-01-22 05:12:23.29	256.87	56.45	-25.7	-26.5	16.0	0.00e+00	0	44	0	104857600	11	3913
2026-01-22 05:12:25.29	255.65	55.96	-24.6	-24.6	17.3	0.00e+00	0	44	0	119537664	10	3574
2026-01-22 05:12:27.30	254.47	55.46	-24.6	-24.6	17.3	0.00e+00	0	44	0	134217728	10	3579
2026-01-22 05:12:29.29	253.34	54.96	-24.4	-24.5	17.5	0.00e+00	0	44	0	147849216	9	3661
2026-01-22 05:12:31.30	252.24	54.44	-24.4	-24.6	17.5	0.00e+00	0	44	0	162529280	9	3691
2026-01-22 05:12:33.30	251.18	53.93	-24.8	-25.5	16.9	0.00e+00	0	44	0	177209344	9	3888
2026-01-22 05:12:35.30	250.16	53.41	-24.6	-25.1	17.2	0.00e+00	0	44	0	191889408	9	3796
2026-01-22 05:12:37.30	249.18	52.88	-24.7	-25.3	17.1	0.00e+00	0	44	0	206569472	9	3839
2026-01-22 05:12:39.31	248.22	52.35	-24.7	-25.2	17.1	0.00e+00	0	44	0	220200960	9	3835
2026-01-22 05:12:41.32	247.30	51.82	-24.9	-25.7	16.8	0.00e+00	0	44	0	234881024	9	3944
2026-01-22 05:12:43.32	246.42	51.29	-24.9	-25.2	16.9	0.00e+00	0	44	0	249561088	10	3708
2026-01-22 05:12:45.32	245.57	50.76	-24.8	-25.0	17.0	0.00e+00	0	44	0	264241152	10	3666
2026-01-22 05:12:47.32	244.75	50.23	-24.8	-25.1	16.9	0.00e+00	0	44	0	277872640	10	3698
2026-01-22 05:12:49.32	243.95	49.70	-24.0	-23.7	17.9	0.00e+00	0	44	0	292552704	9	3502
2026-01-22 05:12:51.33	243.18	49.16	-24.0	-23.8	17.8	0.00e+00	0	44	0	307232768	9	3510
2026-01-22 05:12:53.32	242.45	48.63	-24.3	-24.9	17.5	0.00e+00	0	44	0	321912832	8	3867
2026-01-22 05:12:55.32	241.73	48.11	-24.3	-24.3	17.5	0.00e+00	0	44	0	335544320	9	3625
2026-01-22 05:12:57.32	241.04	47.58	-24.2	-24.2	17.6	0.00e+00	0	44	0	350224384	9	3598
2026-01-22 05:12:59.33	240.37	47.05	-24.1	-24.0	17.7	0.00e+00	0	44	0	364904448	9	3560
2026-01-22 05:13:01.32	239.73	46.53	-23.9	-23.6	17.9	0.00e+00	0	44	0	379584512	9	3480
2026-01-22 05:13:03.32	239.10	46.01	-24.0	-24.2	17.9	0.00e+00	0	44	0	393216000	8	3707
2026-01-22 05:13:05.33	238.50	45.49	-23.8	-23.9	17.9	0.00e+00	0	44	0	407896064	8	3643
2026-01-22 05:13:07.33	237.91	44.98	-23.5	-23.1	18.3	0.00e+00	0	44	0	422576128	8	3465
2026-01-22 05:13:09.34	237.34	44.46	-23.3	-23.3	18.5	0.00e+00	0	45	0	437256192	7	3609
2026-01-22 05:13:11.34	236.80	43.96	-23.5	-23.8	18.3	1.10e-06	0	45	0	451936256	7	3707
2026-01-22 05:13:13.35	236.26	43.45	-23.1	-22.8	18.7	0.00e+00	0	45	0	466616320	7	3500
2026-01-22 05:13:15.35	235.75	42.95	-22.9	-22.9	18.8	0.00e+00	0	45	0	480247808	6	3627
2026-01-22 05:13:17.36	235.25	42.45	-22.9	-23.0	18.9	0.00e+00	0	45	0	494927872	6	3629
2026-01-22 05:13:19.36	234.77	41.96	-23.1	-23.3	18.7	0.00e+00	0	45	0	509607936	6	3705
2026-01-22 05:13:21.36	234.30	41.47	-23.0	-23.2	18.8	0.00e+00	0	45	0	524288000	6	3675
2026-01-22 05:13:23.37	233.84	40.99	-23.0	-23.1	18.8	0.00e+00	0	45	0	538968064	6	3668
2026-01-22 05:13:25.38	233.40	40.51	-22.9	-23.1	18.4	0.00e+00	0	45	0	552599552	6	3659
2026-01-22 05:13:27.37	232.97	40.04	-23.3	-23.7	18.5	0.00e+00	0	45	0	567279616	6	3807
2026-01-22 05:13:29.37	232.56	39.57	-23.3	-23.8	18.4	0.00e+00	0	44	0	581959680	6	3830
2026-01-22 05:13:31.38	232.15	39.10	-23.3	-23.7	18.5	0.00e+00	0	45	0	596639744	6	3803
2026-01-22 05:13:33.39	231.76	38.64	-23.2	-23.6	18.5	0.00e+00	0	45	0	611319808	6	3777
2026-01-22 05:13:35.38	231.38	38.18	-23.4	-24.0	18.3	0.00e+00	0	44	0	624951296	6	3857
2026-01-22 05:13:37.39	231.01	37.73	-23.3	-23.7	18.5	0.00e+00	0	44	0	639631360	6	3808
2026-01-22 05:13:39.39	230.65	37.28	-23.3	-23.9	18.4	0.00e+00	0	45	0	654311424	6	3833
2026-01-22 05:13:41.39	230.30	36.84	-23.5	-24.2	18.2	0.00e+00	0	45	0	668991488	6	3920
2026-01-22 05:13:43.40	229.96	36.40	-24.1	-24.5	17.6	0.00e+00	0	45	0	683671552	8	3764
2026-01-22 05:13:45.41	229.62	35.97	-23.5	-23.2	18.2	0.00e+00	0	45	0	697303040	8	3498
2026-01-22 05:13:47.41	229.30	35.54	-23.1	-23.0	18.6	0.00e+00	0	45	0	711983104	7	3542
2026-01-22 05:13:49.41	228.98	35.12	-22.7	-22.6	18.9	0.00e+00	0	45	0	726663168	6	3554
2026-01-22 05:13:51.41	228.68	34.70	-22.8	-22.8	18.7	0.00e+00	0	44	0	741343232	6	3596
2026-01-22 05:13:53.41	228.38	34.29	-22.5	-22.1	19.2	0.00e+00	0	45	0	754974720	6	3463
2026-01-22 05:13:55.42	228.09	33.87	-22.5	-22.2	19.2	0.00e+00	0	45	0	769654784	6	3476
2026-01-22 05:13:57.43	227.80	33.47	-22.6	-22.3	19.2	0.00e+00	0	45	0	784334848	6	3490
2026-01-22 05:13:59.44	227.53	33.07	-22.8	-22.7	18.9	0.00e+00	0	45	0	799014912	6	3584
2026-01-22 05:14:01.44	227.26	32.67	-22.8	-22.7	19.0	0.00e+00	0	45	0	813694976	6	3572
2026-01-22 05:14:03.44	226.99	32.28	-22.9	-23.1	18.8	0.00e+00	0	45	0	828375040	6	3654
2026-01-22 05:14:05.45	226.73	31.89	-23.0	-23.2	18.7	0.00e+00	0	45	0	842006528	6	3682
2026-01-22 05:14:07.46	226.48	31.51	-23.1	-23.4	18.5	0.00e+00	0	45	0	856686592	6	3737
2026-01-22 05:14:09.47	226.24	31.13	-23.1	-23.5	18.5	0.00e+00	0	45	0	871366656	6	3747
2026-01-22 05:14:11.48	226.00	30.75	-22.9	-23.0	18.8	0.00e+00	0	45	0	886046720	6	3647
2026-01-22 05:14:13.47	225.76	30.38	-22.9	-23.0	18.8	0.00e+00	0	44	0	899678208	6	3633
2026-01-22 05:14:15.48	225.54	30.02	-23.0	-23.2	18.6	0.00e+00	0	45	0	915406848	6	3692
2026-01-22 05:14:17.48	225.31	29.65	-23.0	-23.3	18.6	0.00e+00	0	45	0	929038336	6	3713
2026-01-22 05:14:19.49	225.09	29.30	-23.1	-23.5	18.5	0.00e+00	0	45	0	943718400	6	3748
2026-01-22 05:14:21.49	224.88	28.94	-23.2	-23.7	18.3	0.00e+00	0	45	0	958398464	6	3809
2026-01-22 05:14:23.50	224.67	28.59	-23.2	-23.7	18.3	0.00e+00	0	45	0	973078528	6	3803
2026-01-22 05:14:25.51	224.47	28.24	-23.0	-23.2	18.5	1.10e-06	0	45	0	986710016	6	3696
2026-01-22 05:14:27.51	224.27	27.90	-23.0	-23.2	18.6	0.00e+00	0	45	0	1001390080	6	3677
2026-01-22 05:14:29.51	224.07	27.56	-23.2	-23.6	18.4	0.00e+00	0	45	0	1016070144	6	3776
2026-01-22 05:14:31.51	223.88	27.23	-23.1	-23.3	18.5	0.00e+00	0	45	0	1030750208	6	3720
2026-01-22 05:14:33.51	223.70	26.90	-23.2	-23.7	18.3	0.00e+00	0	45	0	1044381696	6	3812
2026-01-22 05:14:35.52	223.51	26.57	-23.4	-24.1	18.1	0.00e+00	0	45	0	1059061760	6	3905
2026-01-22 05:14:37.52	223.34	26.25	-23.5	-24.3	18.0	0.00e+00	0	45	0	1073741824	6	3941
2026-01-22 05:14:39.52	223.16	25.93	-23.4	-24.2	18.1	0.00e+00	0	45	0	1088421888	6	3910
2026-01-22 05:14:41.52	222.99	25.61	-23.4	-24.2	18.1	0.00e+00	0	45	0	1103101952	6	3915
2026-01-22 05:14:43.51	222.82	25.30	-23.4	-24.0	18.1	0.00e+00	0	45	0	1116733440	6	3877
2026-01-22 05:14:45.52	222.66	24.99	-23.3	-23.9	18.2	0.00e+00	0	45	0	1131413504	6	3862
2026-01-22 05:14:47.52	222.49	24.69	-23.2	-23.6	18.3	0.00e+00	0	45	0	1146093568	6	3792
2026-01-22 05:14:49.53	222.34	24.38	-23.2	-23.7	18.3	0.00e+00	0	45	0	1160773632	6	3797
2026-01-22 05:14:51.53	222.18	24.08	-23.2	-23.6	18.3	0.00e+00	0	45	0	1174405120	6	3775
2026-01-22 05:14:53.53	222.03	23.79	-23.3	-23.8	18.2	0.00e+00	0	45	0	1189085184	6	3830
2026-01-22 05:14:55.54	221.88	23.49	-23.1	-23.5	18.3	0.00e+00	0	45	0	1203765248	6	3757
2026-01-22 05:14:57.54	221.73	23.20	-23.2	-23.7	18.3	0.00e+00	0	45	0	1218445312	6	3802
2026-01-22 05:14:59.55	221.59	22.91	-23.3	-23.8	18.2	0.00e+00	0	44	0	1233125376	6	3828
2026-01-22 05:15:01.56	221.45	22.63	-23.2	-23.6	18.3	0.00e+00	0	45	0	1247805440	6	3771
2026-01-22 05:15:03.56	221.31	22.35	-23.2	-23.7	18.3	0.00e+00	0	45	0	1261436928	6	3805
2026-01-22 05:15:05.58	221.17	22.06	-23.3	-23.9	18.1	0.00e+00	0	45	0	1276116992	6	3858
2026-01-22 05:15:07.59	221.04	21.79	-23.5	-24.2	17.9	0.00e+00	0	45	0	1290797056	6	3922
2026-01-22 05:15:09.59	220.91	21.52	-23.5	-24.2	18.0	0.00e+00	0	44	0	1305477120	6	3913
2026-01-22 05:15:11.60	220.78	21.24	-23.5	-24.4	17.9	0.00e+00	0	45	0	1320157184	6	3961
2026-01-22 05:15:13.61	220.65	20.98	-23.7	-24.1	17.7	0.00e+00	0	45	0	1333788672	7	3792
2026-01-22 05:15:15.60	220.53	20.71	-23.7	-24.1	17.7	0.00e+00	0	45	0	1348468736	7	3795
2026-01-22 05:15:17.61	220.41	20.45	-23.7	-24.2	17.7	0.00e+00	0	45	0	1363148800	7	3817
2026-01-22 05:15:19.62	220.29	20.19	-23.7	-24.2	17.6	0.00e+00	0	45	0	1377828864	7	3821
2026-01-22 05:15:21.62	220.17	19.93	-23.9	-24.5	17.5	0.00e+00	0	45	0	1392508928	7	3890
2026-01-22 05:15:23.63	220.05	19.68	-23.8	-24.4	17.6	0.00e+00	0	45	0	1406140416	7	3859
2026-01-22 05:15:25.63	219.94	19.43	-23.8	-24.4	17.5	0.00e+00	0	45	0	1420820480	7	3869
2026-01-22 05:15:27.64	219.83	19.17	-23.9	-24.7	17.4	4.50e-06	0	45	0	1435500544	7	3932
2026-01-22 05:15:29.65	219.72	18.93	-23.9	-24.7	17.3	0.00e+00	0	45	0	1450180608	7	3923
2026-01-22 05:15:31.65	219.61	18.68	-24.0	-24.8	17.3	0.00e+00	0	45	0	1464860672	7	3956
2026-01-22 05:15:33.65	219.51	18.44	-24.0	-24.9	17.2	1.10e-06	0	45	0	1479540736	7	3990
2026-01-22 05:15:35.66	219.40	18.20	-24.1	-24.6	17.1	0.00e+00	0	45	0	1493172224	8	3798
2026-01-22 05:15:37.66	219.30	17.96	-24.2	-24.8	17.0	0.00e+00	0	45	0	1507852288	8	3852
2026-01-22 05:15:39.67	219.20	17.72	-24.3	-24.9	16.9	2.20e-06	0	45	0	1522532352	8	3879
2026-01-22 05:15:41.68	219.10	17.49	-24.3	-25.1	16.9	0.00e+00	0	45	0	1537212416	8	3910
2026-01-22 05:15:43.67	219.00	17.26	-24.4	-25.2	16.8	0.00e+00	0	45	0	1550843904	8	3947
2026-01-22 05:15:45.68	218.91	17.03	-24.5	-25.4	16.7	0.00e+00	0	45	0	1565523968	8	4007
2026-01-22 05:15:47.69	218.81	16.80	-24.6	-25.5	16.6	0.00e+00	0	45	0	1580204032	8	4029
2026-01-22 05:15:49.70	218.72	16.57	-24.8	-25.6	16.3	0.00e+00	0	45	0	1594884096	9	3922
2026-01-22 05:15:51.70	218.63	16.35	-24.9	-25.8	16.2	0.00e+00	0	45	0	1609564160	9	3974
2026-01-22 05:15:53.71	218.54	16.13	-24.8	-25.4	16.4	0.00e+00	0	45	0	1624244224	9	3896
2026-01-22 05:15:55.71	218.45	15.91	-24.7	-25.3	16.4	0.00e+00	0	45	0	1637875712	9	3874
2026-01-22 05:15:57.71	218.36	15.69	-24.8	-25.6	16.3	0.00e+00	0	45	0	1652555776	9	3927
2026-01-22 05:15:59.72	218.27	15.47	-24.8	-25.7	16.2	0.00e+00	0	45	0	1667235840	9	3952
2026-01-22 05:16:01.72	218.19	15.26	-24.8	-25.5	16.3	0.00e+00	0	45	0	1681915904	9	3920
2026-01-22 05:16:03.72	218.11	15.05	-24.8	-25.7	16.2	0.00e+00	0	45	0	1695547392	9	3950
2026-01-22 05:16:05.73	218.02	14.84	-25.1	-26.2	15.9	0.00e+00	0	45	0	1710227456	9	4086
2026-01-22 05:16:07.73	217.94	14.63	-25.3	-26.2	15.6	0.00e+00	0	45	0	1724907520	10	3982
2026-01-22 05:16:09.73	217.86	14.42	-25.1	-25.6	15.9	0.00e+00	0	45	0	1739587584	10	3842
2026-01-22 05:16:11.73	217.78	14.22	-25.1	-25.7	15.7	0.00e+00	0	45	0	1753219072	10	3862
2026-01-22 05:16:13.73	217.71	14.01	-25.2	-25.8	15.8	0.00e+00	0	45	0	1767899136	10	3888
2026-01-22 05:16:15.73	217.63	13.81	-25.2	-26.0	15.7	0.00e+00	0	45	0	1782579200	10	3921
2026-01-22 05:16:17.73	217.56	13.61	-25.3	-26.1	15.6	0.00e+00	0	45	0	1797259264	10	3967
2026-01-22 05:16:19.74	217.48	13.41	-25.3	-26.3	15.5	0.00e+00	0	45	0	1811939328	10	3998
2026-01-22 05:16:21.74	217.41	13.22	-25.4	-26.5	15.4	0.00e+00	0	45	0	1826619392	10	4055
2026-01-22 05:16:23.76	217.34	13.02	-25.5	-26.5	15.3	0.00e+00	0	45	0	1840250880	10	4065
2026-01-22 05:16:25.75	217.27	12.83	-25.5	-26.2	15.2	0.00e+00	0	45	0	1854930944	11	3878
2026-01-22 05:16:27.76	217.20	12.63	-25.5	-26.2	15.2	0.00e+00	0	45	0	1869611008	11	3887
2026-01-22 05:16:29.75	217.13	12.44	-25.6	-26.3	15.1	0.00e+00	0	45	0	1884291072	11	3904
2026-01-22 05:16:31.76	217.06	12.25	-25.6	-26.4	15.1	0.00e+00	0	45	0	1897922560	11	3929
2026-01-22 05:16:33.77	216.99	12.06	-25.6	-26.4	15.1	0.00e+00	0	45	0	1912602624	11	3926
2026-01-22 05:16:35.78	216.93	11.87	-25.7	-26.5	15.0	0.00e+00	0	45	0	1927282688	11	3954
2026-01-22 05:16:37.78	216.86	11.69	-25.7	-26.6	14.9	0.00e+00	0	45	0	1941962752	11	3979
2026-01-22 05:16:39.79	216.80	11.50	-25.7	-26.6	14.9	0.00e+00	0	45	0	1956642816	11	3974
2026-01-22 05:16:41.81	216.73	11.32	-25.6	-26.4	15.0	0.00e+00	0	45	0	1971322880	11	3920
2026-01-22 05:16:43.81	216.67	11.14	-25.7	-26.5	14.9	0.00e+00	0	45	0	1984954368	11	3947
2026-01-22 05:16:45.82	216.61	10.96	-25.6	-26.4	15.0	1.10e-06	0	45	0	1999634432	11	3944
2026-01-22 05:16:47.82	216.55	10.78	-25.7	-26.5	14.9	1.10e-06	0	45	0	2014314496	11	3966
2026-01-22 05:16:49.83	216.49	10.60	-25.7	-26.6	14.8	1.10e-06	0	45	0	2028994560	11	3983
2026-01-22 05:16:51.83	216.43	10.43	-25.7	-26.6	14.8	0.00e+00	0	45	0	2043674624	11	3982
2026-01-22 05:16:53.85	216.37	10.25	-25.8	-26.7	14.8	0.00e+00	0	45	0	2058354688	11	4001
2026-01-22 05:16:55.85	216.31	10.07	-25.8	-26.8	14.7	1.10e-06	0	45	0	2071986176	11	4023
2026-01-22 05:16:57.85	216.25	9.90	-25.9	-26.9	14.6	0.00e+00	0	45	0	2086666240	11	4055
2026-01-22 05:16:59.86	216.20	9.73	-26.0	-27.1	14.5	0.00e+00	0	45	0	2101346304	11	4110
2026-01-22 05:17:01.86	216.14	9.56	-26.0	-27.1	14.5	0.00e+00	0	45	0	2116026368	11	4124
2026-01-22 05:17:03.86	216.09	9.39	-26.0	-27.3	14.4	0.00e+00	0	45	0	2129657856	11	4169
2026-01-22 05:17:05.86	216.03	9.22	-26.1	-27.1	14.1	0.00e+00	0	45	0	2144337920	12	3999
2026-01-22 05:17:07.87	215.98	9.05	-26.0	-26.8	14.3	3.40e-06	0	45	0	2159017984	12	3932
2026-01-22 05:17:09.88	215.93	8.89	-26.2	-27.3	14.0	1.10e-06	0	45	0	2173698048	12	4065
2026-01-22 05:17:11.89	215.87	8.72	-26.1	-27.1	14.1	2.20e-06	0	45	0	2188378112	12	4019
2026-01-22 05:17:13.89	215.82	8.56	-26.2	-27.3	14.0	6.80e-06	0	45	0	2203058176	12	4067
2026-01-22 05:17:15.90	215.77	8.40	-26.3	-27.4	13.9	6.80e-06	0	45	0	2216689664	12	4085
2026-01-22 05:17:17.90	215.72	8.23	-26.3	-27.3	13.9	4.50e-06	0	45	0	2231369728	12	4080
2026-01-22 05:17:19.90	215.67	8.07	-26.3	-27.5	13.8	6.80e-06	0	45	0	2246049792	12	4115
2026-01-22 05:17:21.92	215.62	7.91	-26.3	-27.5	13.8	8.00e-06	0	45	0	2260729856	12	4123
2026-01-22 05:17:23.93	215.57	7.75	-26.4	-27.6	13.7	1.25e-05	0	45	0	2274361344	12	4155
2026-01-22 05:17:25.93	215.52	7.60	-26.4	-27.7	13.6	1.02e-05	0	45	0	2290089984	12	4187
2026-01-22 05:17:27.94	215.48	7.44	-26.5	-27.4	13.5	1.37e-05	0	45	0	2303721472	13	3997
2026-01-22 05:17:29.96	215.43	7.28	-26.5	-27.4	13.5	1.60e-05	0	45	0	2318401536	13	3991
2026-01-22 05:17:31.96	215.38	7.13	-26.4	-27.3	13.5	1.48e-05	0	45	0	2333081600	13	3975
2026-01-22 05:17:33.96	215.34	6.97	-33.2	-42.8	3.8	8.47e-01	0	45	104	2336227328	26	10872

#Closed at: 2026-01-22 05:17:35
#Recorded file [2336 MB]: D:/data/31010_260122_081208.dat