passes_logs/2026/01/22/R2M6_AANII_01/R2M6_AANII_01__20260122_145819_FENGYUN_3E_rec.log

#Pass ID: 20260122_145819_FENGYUN 3E
#Satellite: FENGYUN 3E
#Configuration: FENGYUN 3E
#almurnet v.1.7.20240730
#Start time: 2026-01-22 14:58:18

#Version: 2.2.20231116
#Station: R2M6_AANII_01
#Location: 30.233357 lon 59.946436 lat
#TLE: 1 49008U 21062A   26021.55921410  .00000414  00000+0  21575-3 0  9991
#TLE: 2 49008  98.7483  26.6103 0002287 125.5068 234.6322 14.19887394235776

#Time	Az	El	Level	Level2	SNR	BER	BlckErr	Temp	State	Recorded	gain1	gain2
2026-01-22 14:58:18.18	171.68	6.93	-26.4	-28.4	5.7	7.60e-01	0	41	0	0	12	4533
2026-01-22 14:58:21.18	171.76	7.16	-28.1	-30.2	10.6	4.65e-03	0	41	0	7340032	16	4620
2026-01-22 14:58:24.18	171.83	7.39	-27.5	-28.8	11.5	1.07e-03	0	41	0	28311552	16	4176
2026-01-22 14:58:27.20	171.91	7.63	-26.1	-27.1	13.2	1.83e-05	0	42	0	50331648	13	4057
2026-01-22 14:58:30.22	171.99	7.87	-26.1	-27.5	13.3	2.40e-05	0	42	0	72351744	12	4264
2026-01-22 14:58:33.23	172.07	8.11	-25.9	-27.2	13.5	2.05e-05	0	42	0	94371840	12	4189
2026-01-22 14:58:36.25	172.15	8.35	-25.7	-26.8	13.7	6.80e-06	0	42	0	115343360	12	4071
2026-01-22 14:58:39.26	172.24	8.59	-25.5	-26.2	14.1	2.20e-06	0	42	0	137363456	12	3921
2026-01-22 14:58:42.27	172.32	8.84	-25.4	-26.6	14.3	0.00e+00	0	42	0	159383552	11	4102
2026-01-22 14:58:45.28	172.41	9.09	-25.5	-26.6	14.3	0.00e+00	0	42	0	181403648	11	4114
2026-01-22 14:58:48.30	172.50	9.34	-25.4	-26.5	14.4	4.50e-06	0	42	0	202375168	11	4079
2026-01-22 14:58:51.32	172.59	9.60	-25.4	-26.4	14.4	1.10e-06	0	42	0	224395264	11	4055
2026-01-22 14:58:54.32	172.68	9.85	-25.4	-26.3	14.5	0.00e+00	0	42	0	246415360	11	4027
2026-01-22 14:58:57.32	172.77	10.11	-25.4	-26.4	14.5	0.00e+00	0	43	0	267386880	11	4052
2026-01-22 14:59:00.33	172.86	10.37	-25.3	-26.3	14.6	0.00e+00	0	43	0	289406976	11	4008
2026-01-22 14:59:03.35	172.95	10.64	-25.3	-26.3	14.6	0.00e+00	0	43	0	311427072	11	4017
2026-01-22 14:59:06.36	173.05	10.90	-25.3	-26.2	14.7	0.00e+00	0	43	0	333447168	11	3986
2026-01-22 14:59:09.37	173.15	11.17	-25.3	-26.3	14.6	0.00e+00	0	43	0	354418688	11	4006
2026-01-22 14:59:12.37	173.25	11.45	-25.2	-26.0	14.8	0.00e+00	0	43	0	376438784	11	3938
2026-01-22 14:59:15.40	173.35	11.72	-25.1	-25.8	14.9	0.00e+00	0	43	0	398458880	11	3895
2026-01-22 14:59:18.41	173.45	12.00	-25.3	-26.2	14.7	1.10e-06	0	43	0	420478976	11	3990
2026-01-22 14:59:21.42	173.56	12.29	-25.0	-25.6	15.0	0.00e+00	0	43	0	441450496	11	3860
2026-01-22 14:59:24.43	173.66	12.57	-24.8	-25.5	15.4	0.00e+00	0	43	0	463470592	10	3932
2026-01-22 14:59:27.44	173.77	12.86	-24.8	-25.7	15.3	0.00e+00	0	43	0	485490688	10	3963
2026-01-22 14:59:30.46	173.88	13.15	-24.9	-25.8	15.2	0.00e+00	0	43	0	506462208	10	3996
2026-01-22 14:59:33.47	173.99	13.45	-24.9	-25.8	15.3	0.00e+00	0	43	0	528482304	10	3992
2026-01-22 14:59:36.48	174.11	13.75	-24.9	-25.7	15.3	0.00e+00	0	43	0	550502400	10	3983
2026-01-22 14:59:39.49	174.22	14.05	-24.7	-25.5	15.4	0.00e+00	0	43	0	572522496	10	3914
2026-01-22 14:59:42.50	174.34	14.36	-24.4	-25.4	15.7	0.00e+00	0	43	0	593494016	9	4001
2026-01-22 14:59:45.51	174.46	14.67	-24.2	-24.9	15.9	0.00e+00	0	43	0	615514112	9	3898
2026-01-22 14:59:48.52	174.59	14.99	-24.1	-24.6	16.1	0.00e+00	0	43	0	637534208	9	3807
2026-01-22 14:59:51.53	174.71	15.30	-24.0	-24.4	16.2	0.00e+00	0	43	0	659554304	9	3784
2026-01-22 14:59:54.55	174.84	15.63	-24.0	-24.4	16.2	0.00e+00	0	43	0	680525824	9	3788
2026-01-22 14:59:57.55	174.97	15.95	-23.9	-24.8	16.3	0.00e+00	0	43	0	702545920	8	3978
2026-01-22 15:00:00.56	175.10	16.29	-23.8	-24.5	16.4	0.00e+00	0	44	0	724566016	8	3914
2026-01-22 15:00:03.56	175.24	16.62	-23.7	-24.4	16.4	0.00e+00	0	43	0	745537536	8	3906
2026-01-22 15:00:06.57	175.38	16.96	-23.6	-24.2	16.5	0.00e+00	0	44	0	767557632	8	3856
2026-01-22 15:00:09.59	175.52	17.31	-23.4	-24.3	16.7	0.00e+00	0	43	0	789577728	7	3998
2026-01-22 15:00:12.60	175.67	17.66	-23.5	-24.4	16.7	0.00e+00	0	44	0	811597824	7	4017
2026-01-22 15:00:15.62	175.82	18.01	-23.2	-23.9	17.0	0.00e+00	0	43	0	832569344	7	3890
2026-01-22 15:00:18.63	175.97	18.37	-23.2	-23.8	17.0	0.00e+00	0	44	0	854589440	7	3874
2026-01-22 15:00:21.63	176.12	18.74	-23.4	-24.2	16.8	0.00e+00	0	44	0	876609536	7	3971
2026-01-22 15:00:24.64	176.28	19.11	-23.0	-23.3	17.3	0.00e+00	0	43	0	898629632	7	3748
2026-01-22 15:00:27.65	176.44	19.48	-23.3	-24.0	16.9	0.00e+00	0	44	0	919601152	7	3908
2026-01-22 15:00:30.65	176.61	19.86	-23.0	-23.3	17.3	0.00e+00	0	44	0	941621248	7	3750
2026-01-22 15:00:33.65	176.78	20.25	-22.9	-23.3	17.3	0.00e+00	0	43	0	963641344	7	3740
2026-01-22 15:00:36.66	176.95	20.64	-22.9	-23.8	17.3	0.00e+00	0	44	0	984612864	6	3967
2026-01-22 15:00:39.65	177.13	21.03	-22.9	-23.7	17.3	0.00e+00	0	44	0	1006632960	6	3953
2026-01-22 15:00:42.67	177.31	21.44	-22.8	-23.5	17.4	0.00e+00	0	44	0	1028653056	6	3893
2026-01-22 15:00:45.68	177.50	21.85	-23.1	-24.2	17.0	0.00e+00	0	44	0	1050673152	6	4083
2026-01-22 15:00:48.68	177.69	22.27	-23.0	-23.9	17.2	0.00e+00	0	44	0	1071644672	6	4009
2026-01-22 15:00:51.68	177.89	22.69	-23.0	-23.9	17.2	0.00e+00	0	44	0	1093664768	6	4023
2026-01-22 15:00:54.70	178.09	23.12	-23.0	-24.0	17.2	0.00e+00	0	44	0	1114636288	6	4034
2026-01-22 15:00:57.72	178.30	23.56	-22.7	-23.3	17.6	0.00e+00	0	44	0	1136656384	6	3846
2026-01-22 15:01:00.73	178.51	24.01	-22.7	-23.2	17.7	0.00e+00	0	44	0	1158676480	6	3834
2026-01-22 15:01:03.74	178.73	24.46	-23.0	-23.8	17.4	0.00e+00	0	44	0	1180696576	6	3967
2026-01-22 15:01:06.74	178.96	24.92	-22.6	-23.1	17.8	0.00e+00	0	44	0	1201668096	6	3798
2026-01-22 15:01:09.76	179.19	25.39	-22.5	-22.9	17.9	0.00e+00	0	44	0	1223688192	6	3742
2026-01-22 15:01:12.77	179.43	25.86	-22.7	-23.1	17.8	0.00e+00	0	44	0	1245708288	6	3801
2026-01-22 15:01:15.77	179.67	26.35	-22.6	-23.0	17.8	0.00e+00	0	44	0	1266679808	6	3769
2026-01-22 15:01:18.78	179.93	26.84	-22.6	-23.0	17.8	0.00e+00	0	44	0	1288699904	6	3781
2026-01-22 15:01:21.80	180.19	27.34	-22.3	-22.9	18.1	0.00e+00	0	44	0	1310720000	5	3860
2026-01-22 15:01:24.81	180.45	27.85	-22.1	-22.5	18.3	0.00e+00	0	44	0	1332740096	5	3771
2026-01-22 15:01:27.82	180.73	28.37	-22.0	-22.3	18.4	0.00e+00	0	44	0	1353711616	5	3722
2026-01-22 15:01:30.84	181.02	28.90	-22.0	-22.8	18.4	0.00e+00	0	44	0	1375731712	4	3947
2026-01-22 15:01:33.85	181.31	29.43	-21.9	-22.5	18.5	0.00e+00	0	44	0	1397751808	4	3877
2026-01-22 15:01:36.86	181.62	29.98	-21.9	-22.6	18.5	0.00e+00	0	44	0	1419771904	4	3883
2026-01-22 15:01:39.87	181.93	30.54	-22.1	-23.0	18.3	0.00e+00	0	44	0	1440743424	4	3986
2026-01-22 15:01:42.88	182.26	31.10	-22.3	-23.4	18.2	0.00e+00	0	44	0	1462763520	4	4071
2026-01-22 15:01:45.89	182.59	31.68	-22.7	-23.8	17.7	0.00e+00	0	44	0	1484783616	5	4071
2026-01-22 15:01:48.91	182.94	32.27	-22.6	-23.4	17.9	0.00e+00	0	44	0	1506803712	5	3969
2026-01-22 15:01:51.91	183.30	32.86	-22.5	-23.4	17.9	0.00e+00	0	44	0	1527775232	5	3962
2026-01-22 15:01:54.92	183.68	33.47	-22.5	-23.4	17.9	0.00e+00	0	44	0	1549795328	5	3975
2026-01-22 15:01:57.92	184.06	34.09	-22.5	-23.4	18.0	0.00e+00	0	44	0	1571815424	5	3964
2026-01-22 15:02:00.93	184.47	34.72	-22.4	-23.1	18.1	0.00e+00	0	44	0	1593835520	5	3913
2026-01-22 15:02:03.93	184.88	35.36	-22.2	-22.8	18.3	0.00e+00	0	44	0	1614807040	5	3827
2026-01-22 15:02:06.95	185.32	36.01	-22.7	-23.1	18.9	0.00e+00	0	44	0	1636827136	5	3778
2026-01-22 15:02:09.97	185.77	36.68	-22.9	-23.5	18.7	0.00e+00	0	44	0	1658847232	5	3854
2026-01-22 15:02:12.98	186.24	37.36	-23.1	-23.5	18.5	0.00e+00	0	44	0	1680867328	6	3756
2026-01-22 15:02:15.97	186.73	38.04	-23.3	-23.8	18.4	0.00e+00	0	44	0	1701838848	6	3812
2026-01-22 15:02:18.97	187.24	38.74	-23.8	-24.3	17.8	0.00e+00	0	44	0	1722810368	7	3842
2026-01-22 15:02:21.99	187.78	39.45	-23.1	-22.9	18.6	0.00e+00	0	44	0	1744830464	7	3522
2026-01-22 15:02:25.00	188.33	40.18	-23.1	-23.5	18.5	0.00e+00	0	44	0	1766850560	6	3757
2026-01-22 15:02:28.00	188.91	40.91	-23.0	-23.2	18.6	0.00e+00	0	44	0	1788870656	6	3685
2026-01-22 15:02:31.00	189.52	41.66	-23.1	-23.5	18.5	0.00e+00	0	44	0	1809842176	6	3751
2026-01-22 15:02:34.01	190.15	42.42	-23.0	-23.1	18.7	0.00e+00	0	44	0	1831862272	6	3657
2026-01-22 15:02:37.03	190.82	43.19	-23.2	-23.5	18.5	0.00e+00	0	44	0	1853882368	6	3757
2026-01-22 15:02:40.03	191.52	43.97	-23.5	-23.7	18.2	0.00e+00	0	44	0	1875902464	7	3692
2026-01-22 15:02:43.04	192.26	44.77	-23.3	-23.4	18.4	0.00e+00	0	44	0	1896873984	7	3633
2026-01-22 15:02:46.05	193.03	45.57	-23.5	-23.7	18.2	0.00e+00	0	44	0	1918894080	7	3700
2026-01-22 15:02:49.05	193.84	46.39	-23.5	-23.7	18.1	0.00e+00	0	44	0	1940914176	7	3678
2026-01-22 15:02:52.06	194.69	47.21	-23.9	-24.5	17.8	0.00e+00	0	44	0	1961885696	7	3872
2026-01-22 15:02:55.08	195.59	48.05	-23.9	-24.0	17.8	0.00e+00	0	44	0	1983905792	8	3657
2026-01-22 15:02:58.08	196.54	48.89	-24.2	-24.8	17.5	0.00e+00	0	44	0	2005925888	8	3836
2026-01-22 15:03:01.09	197.54	49.74	-24.4	-24.6	17.3	0.00e+00	0	44	0	2027945984	9	3695
2026-01-22 15:03:04.09	198.60	50.60	-24.6	-25.0	17.0	0.00e+00	0	44	0	2048917504	9	3786
2026-01-22 15:03:07.10	199.72	51.46	-24.1	-24.1	17.6	0.00e+00	0	44	0	2070937600	9	3573
2026-01-22 15:03:10.12	200.91	52.33	-25.1	-26.2	16.4	0.00e+00	0	44	0	2092957696	9	4091
2026-01-22 15:03:13.14	202.17	53.20	-24.7	-25.2	17.0	0.00e+00	0	44	0	2114977792	9	3836
2026-01-22 15:03:16.15	203.51	54.07	-24.7	-24.8	17.0	0.00e+00	0	44	0	2135949312	10	3641
2026-01-22 15:03:19.15	204.92	54.94	-24.2	-24.3	17.6	0.00e+00	0	44	0	2157969408	9	3612
2026-01-22 15:03:22.15	206.42	55.80	-24.3	-25.0	17.5	0.00e+00	0	44	0	2179989504	8	3878
2026-01-22 15:03:25.16	208.02	56.65	-24.2	-24.8	17.6	0.00e+00	0	44	0	2200961024	8	3825
2026-01-22 15:03:28.18	209.73	57.51	-25.3	-25.9	16.5	0.00e+00	0	44	0	2222981120	10	3895
2026-01-22 15:03:31.19	211.54	58.34	-25.2	-25.8	16.4	0.00e+00	0	44	0	2245001216	10	3852
2026-01-22 15:03:34.19	213.45	59.16	-24.3	-24.4	17.5	0.00e+00	0	44	0	2267021312	9	3643
2026-01-22 15:03:37.21	215.51	59.96	-24.3	-24.3	17.6	0.00e+00	0	44	0	2287992832	9	3617
2026-01-22 15:03:40.22	217.68	60.73	-24.6	-25.1	17.2	0.00e+00	0	44	0	2310012928	9	3795
2026-01-22 15:03:43.24	219.99	61.48	-24.1	-24.0	17.8	0.00e+00	0	44	0	2332033024	9	3565
2026-01-22 15:03:46.26	222.45	62.19	-23.4	-23.5	18.5	0.00e+00	0	44	0	2353004544	7	3648
2026-01-22 15:03:49.27	225.03	62.86	-23.4	-23.5	18.5	0.00e+00	0	44	0	2375024640	7	3650
2026-01-22 15:03:52.28	227.77	63.49	-23.1	-22.9	18.8	0.00e+00	0	44	0	2397044736	7	3503
2026-01-22 15:03:55.28	230.63	64.06	-23.4	-23.4	18.6	0.00e+00	0	44	0	2419064832	7	3626
2026-01-22 15:03:58.29	233.64	64.58	-23.0	-22.8	18.9	0.00e+00	0	44	0	2440036352	7	3492
2026-01-22 15:04:01.31	236.79	65.04	-23.3	-23.4	18.6	0.00e+00	0	44	0	2462056448	7	3612
2026-01-22 15:04:04.32	240.05	65.43	-23.4	-23.6	18.4	0.00e+00	0	44	0	2484076544	7	3665
2026-01-22 15:04:07.32	243.41	65.74	-23.2	-23.0	18.8	0.00e+00	0	44	0	2505048064	7	3537
2026-01-22 15:04:10.33	246.86	65.98	-22.8	-22.8	19.1	0.00e+00	0	44	0	2527068160	6	3582
2026-01-22 15:04:13.34	250.38	66.15	-22.8	-22.9	19.0	0.00e+00	0	44	0	2549088256	6	3604
2026-01-22 15:04:16.36	253.95	66.23	-22.9	-22.9	19.1	0.00e+00	0	44	0	2571108352	6	3612
2026-01-22 15:04:19.38	257.53	66.22	-22.5	-22.1	19.5	0.00e+00	0	44	0	2593128448	6	3445
2026-01-22 15:04:22.39	261.08	66.14	-23.0	-23.2	19.0	0.00e+00	0	44	0	2614099968	6	3673
2026-01-22 15:04:25.39	264.58	65.97	-22.9	-22.9	19.0	0.00e+00	0	44	0	2636120064	6	3614
2026-01-22 15:04:28.40	268.02	65.72	-23.4	-24.0	18.5	0.00e+00	0	44	0	2658140160	6	3861
2026-01-22 15:04:31.41	271.38	65.40	-23.7	-24.1	18.1	0.00e+00	0	44	0	2679111680	7	3779
2026-01-22 15:04:34.42	274.63	65.01	-23.7	-24.1	18.2	0.00e+00	0	44	0	2701131776	7	3771
2026-01-22 15:04:37.45	277.78	64.54	-23.4	-23.6	18.4	0.00e+00	0	44	0	2723151872	7	3669
2026-01-22 15:04:40.46	280.78	64.02	-23.5	-23.8	18.4	0.00e+00	0	44	0	2745171968	7	3706
2026-01-22 15:04:43.46	283.63	63.44	-23.9	-24.6	18.0	0.00e+00	0	44	0	2766143488	7	3895
2026-01-22 15:04:46.47	286.35	62.82	-24.2	-24.6	17.7	0.00e+00	0	44	0	2788163584	8	3793
2026-01-22 15:04:49.49	288.93	62.14	-24.3	-24.9	17.6	0.00e+00	0	44	0	2810183680	8	3846
2026-01-22 15:04:52.51	291.37	61.43	-24.0	-24.3	17.8	0.00e+00	0	44	0	2832203776	8	3715
2026-01-22 15:04:55.52	293.66	60.68	-24.4	-25.1	17.5	0.00e+00	0	44	0	2853175296	8	3908
2026-01-22 15:04:58.51	295.81	59.91	-24.6	-25.0	17.3	0.00e+00	0	44	0	2875195392	9	3761
2026-01-22 15:05:01.50	297.83	59.12	-24.3	-24.4	17.6	0.00e+00	0	44	0	2897215488	9	3635
2026-01-22 15:05:04.51	299.74	58.30	-24.4	-24.5	17.5	0.00e+00	0	44	0	2918187008	9	3661
2026-01-22 15:05:07.53	301.55	57.47	-24.5	-24.7	17.3	0.00e+00	0	44	0	2940207104	9	3712
2026-01-22 15:05:10.55	303.25	56.62	-24.8	-25.3	17.1	0.00e+00	0	44	0	2962227200	9	3852
2026-01-22 15:05:13.55	304.83	55.76	-24.8	-25.4	17.0	0.00e+00	0	44	0	2983198720	9	3872
2026-01-22 15:05:16.56	306.33	54.90	-24.8	-25.4	17.1	0.00e+00	0	44	0	3005218816	9	3860
2026-01-22 15:05:19.57	307.74	54.04	-24.8	-25.4	17.1	0.00e+00	0	44	0	3027238912	9	3866
2026-01-22 15:05:22.59	309.07	53.17	-24.7	-25.3	17.1	0.00e+00	0	44	0	3049259008	9	3838
2026-01-22 15:05:25.60	310.32	52.30	-25.1	-25.6	16.7	4.50e-06	0	44	0	3070230528	10	3801
2026-01-22 15:05:28.61	311.50	51.44	-25.5	-26.4	16.2	0.00e+00	0	44	0	3092250624	10	4007
2026-01-22 15:05:31.61	312.62	50.58	-25.0	-24.9	16.7	1.10e-06	0	44	0	3114270720	11	3548
2026-01-22 15:05:34.62	313.67	49.73	-25.0	-25.4	16.8	0.00e+00	0	44	0	3135242240	10	3760
2026-01-22 15:05:37.63	314.67	48.88	-24.2	-24.2	17.7	0.00e+00	0	44	0	3157262336	9	3586
2026-01-22 15:05:40.65	315.62	48.04	-24.2	-24.1	17.7	0.00e+00	0	44	0	3179282432	9	3569
2026-01-22 15:05:43.66	316.52	47.21	-24.1	-24.0	17.7	0.00e+00	0	44	0	3201302528	9	3557
2026-01-22 15:05:46.66	317.36	46.39	-23.9	-24.0	18.0	0.00e+00	0	44	0	3222274048	8	3646
2026-01-22 15:05:49.66	318.17	45.58	-23.5	-23.2	18.4	0.00e+00	0	44	0	3244294144	8	3489
2026-01-22 15:05:52.66	318.94	44.78	-23.7	-23.6	17.9	0.00e+00	0	44	0	3266314240	8	3566
2026-01-22 15:05:55.68	319.67	43.98	-23.7	-23.7	18.1	0.00e+00	0	44	0	3287285760	8	3594
2026-01-22 15:05:58.69	320.37	43.20	-22.8	-22.9	19.0	0.00e+00	0	44	0	3309305856	6	3602
2026-01-22 15:06:01.70	321.03	42.44	-23.2	-23.6	18.6	0.00e+00	0	44	0	3331325952	6	3772
2026-01-22 15:06:04.72	321.67	41.68	-23.3	-23.8	18.5	0.00e+00	0	44	0	3353346048	6	3815
2026-01-22 15:06:07.71	322.27	40.94	-23.2	-23.7	18.5	0.00e+00	0	44	0	3374317568	6	3786
2026-01-22 15:06:10.73	322.85	40.20	-23.1	-23.4	18.6	0.00e+00	0	44	0	3396337664	6	3729
2026-01-22 15:06:13.73	323.41	39.48	-23.4	-24.1	18.3	0.00e+00	0	44	0	3418357760	6	3887
2026-01-22 15:06:16.74	323.94	38.77	-23.7	-24.2	18.0	0.00e+00	0	44	0	3440377856	7	3797
2026-01-22 15:06:19.75	324.45	38.08	-23.4	-23.6	18.3	0.00e+00	0	44	0	3461349376	7	3671
2026-01-22 15:06:22.76	324.94	37.39	-23.1	-22.9	18.7	0.00e+00	0	44	0	3483369472	7	3524
2026-01-22 15:06:25.77	325.41	36.72	-22.7	-22.5	19.1	0.00e+00	0	44	0	3505389568	6	3531
2026-01-22 15:06:28.78	325.86	36.06	-22.6	-22.3	19.2	0.00e+00	0	44	0	3527409664	6	3488
2026-01-22 15:06:31.79	326.29	35.41	-22.9	-23.1	18.8	0.00e+00	0	44	0	3548381184	6	3651
2026-01-22 15:06:34.81	326.71	34.77	-23.0	-23.2	18.7	1.10e-06	0	44	0	3570401280	6	3682
2026-01-22 15:06:37.82	327.12	34.14	-23.2	-23.6	18.5	0.00e+00	0	44	0	3591372800	6	3765
2026-01-22 15:06:40.83	327.50	33.53	-23.0	-23.1	18.8	0.00e+00	0	44	0	3613392896	6	3669
2026-01-22 15:06:43.84	327.88	32.92	-22.9	-23.0	18.8	0.00e+00	0	44	0	3635412992	6	3633
2026-01-22 15:06:46.86	328.24	32.32	-22.9	-23.1	18.8	0.00e+00	0	44	0	3657433088	6	3663
2026-01-22 15:06:49.88	328.59	31.74	-22.8	-22.8	18.9	0.00e+00	0	44	0	3679453184	6	3592
2026-01-22 15:06:52.89	328.93	31.17	-22.8	-22.8	18.9	0.00e+00	0	44	0	3700424704	6	3587
2026-01-22 15:06:55.89	329.25	30.60	-23.0	-23.1	18.7	0.00e+00	0	44	0	3722444800	6	3660
2026-01-22 15:06:58.90	329.57	30.05	-23.1	-23.4	18.6	0.00e+00	0	44	0	3744464896	6	3718
2026-01-22 15:07:01.90	329.87	29.51	-23.1	-23.4	18.5	0.00e+00	0	44	0	3765436416	6	3726
2026-01-22 15:07:04.92	330.17	28.97	-23.2	-23.7	18.5	0.00e+00	0	44	0	3787456512	6	3783
2026-01-22 15:07:07.93	330.45	28.45	-23.2	-23.7	18.4	0.00e+00	0	44	0	3809476608	6	3790
2026-01-22 15:07:10.94	330.73	27.93	-23.4	-24.1	18.2	0.00e+00	0	44	0	3831496704	6	3890
2026-01-22 15:07:13.94	331.00	27.43	-23.4	-24.1	18.2	0.00e+00	0	44	0	3852468224	6	3892
2026-01-22 15:07:16.93	331.26	26.93	-23.4	-24.0	18.1	0.00e+00	0	44	0	3874488320	6	3876
2026-01-22 15:07:19.93	331.51	26.44	-23.4	-24.1	18.2	0.00e+00	0	44	0	3896508416	6	3893
2026-01-22 15:07:22.94	331.76	25.96	-23.7	-24.2	17.9	0.00e+00	0	44	0	3917479936	7	3798
2026-01-22 15:07:25.95	331.99	25.49	-23.4	-23.5	18.2	0.00e+00	0	44	0	3939500032	7	3651
2026-01-22 15:07:28.95	332.23	25.03	-23.3	-23.2	18.3	0.00e+00	0	44	0	3961520128	7	3593
2026-01-22 15:07:31.96	332.45	24.57	-23.0	-22.7	18.6	0.00e+00	0	44	0	3982491648	7	3469
2026-01-22 15:07:34.96	332.67	24.12	-23.0	-22.8	18.6	0.00e+00	0	44	0	4004511744	7	3492
2026-01-22 15:07:37.97	332.89	23.68	-23.2	-23.1	18.4	0.00e+00	0	44	0	4026531840	7	3571
2026-01-22 15:07:40.97	333.10	23.24	-23.4	-23.5	18.2	0.00e+00	0	44	0	4047503360	7	3649
2026-01-22 15:07:43.98	333.30	22.81	-23.6	-23.9	17.9	0.00e+00	0	44	0	4069523456	7	3739
2026-01-22 15:07:46.98	333.50	22.39	-23.6	-24.0	17.8	0.00e+00	0	44	0	4091543552	7	3771
2026-01-22 15:07:49.99	333.69	21.97	-23.8	-24.4	17.7	0.00e+00	0	44	0	4113563648	7	3853
2026-01-22 15:07:53.01	333.88	21.56	-24.0	-24.8	17.5	0.00e+00	0	44	0	4134535168	7	3942
2026-01-22 15:07:56.02	334.06	21.16	-24.0	-24.4	17.4	0.00e+00	0	44	0	4156555264	8	3754
2026-01-22 15:07:59.03	334.24	20.76	-24.1	-24.5	17.3	0.00e+00	0	44	0	4178575360	8	3765
2026-01-22 15:08:02.04	334.42	20.37	-24.4	-25.1	17.0	0.00e+00	0	44	0	4199546880	8	3908
2026-01-22 15:08:05.04	334.59	19.99	-24.0	-24.2	17.4	0.00e+00	0	44	0	4221566976	8	3714
2026-01-22 15:08:08.04	334.76	19.61	-24.1	-24.5	17.2	0.00e+00	0	44	0	4243587072	8	3779
2026-01-22 15:08:11.05	334.92	19.24	-24.2	-24.7	17.2	0.00e+00	0	44	0	4264558592	8	3817
2026-01-22 15:08:14.05	335.08	18.87	-24.2	-24.7	17.2	0.00e+00	0	44	0	4286578688	8	3815
2026-01-22 15:08:17.07	335.24	18.50	-24.2	-24.7	17.2	0.00e+00	0	44	0	4308598784	8	3817
2026-01-22 15:08:20.08	335.39	18.15	-24.4	-25.1	17.0	1.10e-06	0	44	0	4330618880	8	3916
2026-01-22 15:08:23.10	335.54	17.79	-24.7	-25.3	16.6	0.00e+00	0	44	0	4351590400	9	3866
2026-01-22 15:08:26.10	335.69	17.44	-24.6	-25.0	16.7	0.00e+00	0	44	0	4373610496	9	3799
2026-01-22 15:08:29.11	335.83	17.10	-24.8	-25.5	16.4	0.00e+00	0	44	0	4395630592	9	3920
2026-01-22 15:08:32.12	335.98	16.76	-24.7	-25.4	16.5	0.00e+00	0	44	0	4417650688	9	3879
2026-01-22 15:08:35.13	336.11	16.43	-24.7	-25.3	16.5	0.00e+00	0	44	0	4438622208	9	3872
2026-01-22 15:08:38.13	336.25	16.10	-24.8	-25.6	16.3	0.00e+00	0	44	0	4460642304	9	3935
2026-01-22 15:08:41.14	336.38	15.77	-24.8	-25.5	16.4	0.00e+00	0	44	0	4482662400	9	3897
2026-01-22 15:08:44.16	336.51	15.45	-24.9	-25.7	16.2	0.00e+00	0	44	0	4503633920	9	3947
2026-01-22 15:08:47.18	336.64	15.13	-24.8	-25.5	16.3	0.00e+00	0	44	0	4525654016	9	3917
2026-01-22 15:08:50.18	336.77	14.82	-24.9	-25.8	16.1	0.00e+00	0	44	0	4547674112	9	3992
2026-01-22 15:08:53.19	336.89	14.51	-24.9	-25.7	16.2	1.10e-06	0	44	0	4569694208	9	3947
2026-01-22 15:08:56.19	337.01	14.20	-25.1	-26.1	16.0	0.00e+00	0	44	0	4590665728	9	4052
2026-01-22 15:08:59.21	337.13	13.90	-25.0	-26.1	16.0	0.00e+00	0	44	0	4612685824	9	4053
2026-01-22 15:09:02.21	337.24	13.60	-25.2	-25.9	15.8	0.00e+00	0	44	0	4634705920	10	3906
2026-01-22 15:09:05.21	337.36	13.31	-25.3	-26.2	15.6	0.00e+00	0	44	0	4655677440	10	3977
2026-01-22 15:09:08.22	337.47	13.02	-25.6	-26.4	15.2	0.00e+00	0	44	0	4677697536	11	3916
2026-01-22 15:09:11.22	337.58	12.73	-25.8	-26.8	15.0	1.10e-06	0	44	0	4699717632	11	4018
2026-01-22 15:09:14.23	337.69	12.45	-25.9	-26.9	14.9	0.00e+00	0	44	0	4720689152	11	4046
2026-01-22 15:09:17.23	337.80	12.17	-25.8	-26.7	15.0	0.00e+00	0	44	0	4742709248	11	3997
2026-01-22 15:09:20.24	337.90	11.89	-25.8	-26.8	14.9	1.10e-06	0	44	0	4764729344	11	4037
2026-01-22 15:09:23.26	338.00	11.61	-25.9	-27.0	14.8	0.00e+00	0	44	0	4785700864	11	4077
2026-01-22 15:09:26.26	338.11	11.34	-26.0	-26.7	14.6	1.10e-06	0	44	0	4807720960	12	3914
2026-01-22 15:09:29.27	338.21	11.07	-26.0	-26.7	14.6	0.00e+00	0	44	0	4829741056	12	3904
2026-01-22 15:09:32.29	338.31	10.80	-26.1	-27.0	14.4	1.10e-06	0	44	0	4851761152	12	3978
2026-01-22 15:09:35.31	338.40	10.54	-26.0	-26.7	14.5	1.10e-06	0	44	0	4872732672	12	3908
2026-01-22 15:09:38.32	338.50	10.28	-26.1	-27.0	14.3	0.00e+00	0	44	0	4894752768	12	3993
2026-01-22 15:09:41.33	338.59	10.02	-26.1	-27.0	14.3	1.10e-06	0	44	0	4916772864	12	3969
2026-01-22 15:09:44.34	338.69	9.76	-26.1	-27.0	14.3	2.20e-06	0	44	0	4938792960	12	3972
2026-01-22 15:09:47.35	338.78	9.51	-26.1	-27.0	14.3	0.00e+00	0	44	0	4959764480	12	3992
2026-01-22 15:09:50.36	338.87	9.26	-26.1	-27.0	14.3	0.00e+00	0	44	0	4981784576	12	3987
2026-01-22 15:09:53.37	338.96	9.01	-26.2	-27.3	14.1	3.40e-06	0	44	0	5003804672	12	4047
2026-01-22 15:09:56.38	339.04	8.77	-26.3	-27.5	14.0	1.10e-06	0	44	0	5025824768	12	4104
2026-01-22 15:09:59.39	339.13	8.52	-26.3	-27.5	14.0	6.80e-06	0	44	0	5046796288	12	4108
2026-01-22 15:10:02.40	339.21	8.28	-26.5	-28.0	13.6	3.40e-06	0	44	0	5068816384	12	4251
2026-01-22 15:10:05.42	339.30	8.04	-26.9	-28.3	13.1	2.17e-05	0	44	0	5090836480	13	4231
2026-01-22 15:10:08.43	339.38	7.81	-26.9	-28.2	13.1	2.51e-05	0	44	0	5112856576	13	4198
2026-01-22 15:10:11.44	339.46	7.57	-27.1	-28.3	12.8	3.54e-05	0	44	0	5133828096	14	4130
2026-01-22 15:10:14.45	339.54	7.34	-26.8	-27.5	13.2	2.05e-05	0	44	0	5155848192	14	3905
2026-01-22 15:10:17.46	339.62	7.11	-32.7	-41.7	3.8	9.91e-02	0	44	0	5176819712	25	10111

#Closed at: 2026-01-22 15:10:19
#Recorded file [5176 MB]: D:/data/31010_260122_175820.dat