passes_logs/2026/01/22/R2M6_AANII_01/R2M6_AANII_01__20260122_131137_AQUA_rec.log

#Pass ID: 20260122_131137_AQUA
#Satellite: AQUA
#Configuration: AQUA
#almurnet v.1.7.20240730
#Start time: 2026-01-22 13:11:38

#Version: 2.2.20231116
#Station: R2M6_AANII_01
#Location: 30.233357 lon 59.946436 lat
#TLE: 1 27424U 02022A   26021.53721517  .00002456  00000+0  50140-3 0  9996
#TLE: 2 27424  98.4098 348.0744 0002012  70.1009  46.1672 14.61843091261845

#Time	Az	El	Level	Level2	SNR	BER	BlckErr	Temp	State	Recorded	gain1	gain2
2026-01-22 13:11:38.83	199.28	7.12	-31.1	-36.9	5.1	7.11e-01	0	40	0	0	23	7071
2026-01-22 13:11:41.85	199.54	7.34	-31.9	-39.1	12.3	6.12e-01	0	41	0	1572864	24	8256
2026-01-22 13:11:44.85	199.79	7.56	-31.5	-37.0	14.1	6.07e-01	0	41	0	7340032	24	6788
2026-01-22 13:11:47.86	200.06	7.79	-30.8	-35.0	15.9	6.05e-01	0	41	0	13107200	23	5836
2026-01-22 13:11:50.87	200.32	8.02	-30.5	-33.9	16.8	6.05e-01	0	41	0	18350080	23	5317
2026-01-22 13:11:53.88	200.59	8.25	-30.5	-34.0	16.7	6.06e-01	0	41	0	24117248	23	5370
2026-01-22 13:11:56.89	200.87	8.48	-30.0	-33.0	17.7	6.04e-01	0	41	0	29884416	22	5081
2026-01-22 13:11:59.90	201.15	8.71	-30.0	-32.9	17.8	6.06e-01	0	41	0	35651584	22	5039
2026-01-22 13:12:02.90	201.43	8.95	-30.1	-33.1	17.8	6.07e-01	0	41	0	41418752	22	5094
2026-01-22 13:12:05.91	201.72	9.18	-30.0	-33.0	17.9	6.02e-01	0	41	0	46661632	22	5060
2026-01-22 13:12:08.92	202.02	9.42	-30.0	-32.8	18.0	6.05e-01	0	41	0	52428800	22	4994
2026-01-22 13:12:11.93	202.32	9.66	-29.9	-32.7	18.1	6.08e-01	0	42	0	58195968	22	4943
2026-01-22 13:12:14.95	202.62	9.91	-29.8	-32.9	18.3	6.03e-01	0	41	0	63963136	21	5121
2026-01-22 13:12:17.96	202.93	10.15	-29.7	-32.6	18.5	6.08e-01	0	42	0	69206016	21	5001
2026-01-22 13:12:20.97	203.25	10.40	-29.7	-32.6	18.5	6.07e-01	0	42	0	74973184	21	4997
2026-01-22 13:12:23.98	203.57	10.65	-29.7	-32.6	18.5	6.06e-01	0	42	0	80740352	21	5003
2026-01-22 13:12:27.00	203.90	10.90	-29.9	-33.0	18.3	6.07e-01	0	42	0	86507520	21	5138
2026-01-22 13:12:30.01	204.23	11.16	-29.9	-33.1	18.2	6.07e-01	0	42	0	91750400	21	5193
2026-01-22 13:12:33.01	204.57	11.41	-29.7	-32.5	18.6	6.07e-01	0	42	0	97517568	21	4966
2026-01-22 13:12:36.02	204.92	11.67	-29.7	-32.5	18.6	6.06e-01	0	42	0	103284736	21	4958
2026-01-22 13:12:39.02	205.27	11.93	-29.6	-32.2	18.9	6.05e-01	0	42	0	109051904	21	4842
2026-01-22 13:12:42.04	205.63	12.19	-29.6	-32.3	18.8	6.05e-01	0	42	0	114819072	21	4877
2026-01-22 13:12:45.04	205.99	12.45	-29.5	-31.9	19.1	6.07e-01	0	42	0	120061952	21	4752
2026-01-22 13:12:48.05	206.36	12.72	-29.5	-32.0	19.1	6.06e-01	0	42	0	125829120	21	4767
2026-01-22 13:12:51.05	206.74	12.99	-29.4	-31.7	19.2	6.07e-01	0	42	0	131596288	21	4670
2026-01-22 13:12:54.06	207.13	13.26	-29.6	-32.0	19.1	6.06e-01	0	42	0	136839168	21	4784
2026-01-22 13:12:57.07	207.52	13.53	-29.3	-31.9	19.4	6.06e-01	0	42	0	142606336	20	4843
2026-01-22 13:13:00.09	207.92	13.81	-29.3	-31.9	19.4	6.08e-01	0	42	0	148373504	20	4854
2026-01-22 13:13:03.11	208.34	14.09	-29.4	-32.1	19.4	6.05e-01	0	42	0	154140672	20	4895
2026-01-22 13:13:06.12	208.75	14.37	-29.3	-31.8	19.6	6.06e-01	0	42	0	159907840	20	4799
2026-01-22 13:13:09.12	209.18	14.65	-29.4	-32.2	19.4	6.05e-01	0	42	0	165150720	20	4923
2026-01-22 13:13:12.14	209.61	14.93	-29.4	-32.1	19.5	6.07e-01	0	43	0	170917888	20	4894
2026-01-22 13:13:15.15	210.06	15.22	-29.4	-32.1	19.5	6.06e-01	0	43	0	176685056	20	4907
2026-01-22 13:13:18.17	210.51	15.51	-29.3	-31.8	19.7	6.06e-01	0	43	0	182452224	20	4797
2026-01-22 13:13:21.18	210.97	15.80	-29.4	-31.9	19.6	6.06e-01	0	42	0	188219392	20	4829
2026-01-22 13:13:24.19	211.44	16.10	-29.3	-31.9	19.6	6.05e-01	0	43	0	193462272	20	4828
2026-01-22 13:13:27.19	211.92	16.39	-29.3	-31.9	19.6	6.07e-01	0	43	0	199229440	20	4822
2026-01-22 13:13:30.20	212.41	16.69	-29.3	-31.8	19.7	6.07e-01	0	43	0	204996608	20	4806
2026-01-22 13:13:33.22	212.91	16.99	-29.4	-31.9	19.7	6.05e-01	0	43	0	210239488	20	4817
2026-01-22 13:13:36.24	213.42	17.29	-29.3	-31.7	19.9	6.07e-01	0	43	0	216006656	20	4736
2026-01-22 13:13:39.25	213.95	17.60	-29.3	-31.7	19.8	6.08e-01	0	43	0	221773824	20	4769
2026-01-22 13:13:42.27	214.48	17.90	-29.4	-31.9	19.7	6.04e-01	0	42	0	227540992	20	4826
2026-01-22 13:13:45.26	215.02	18.21	-29.4	-32.0	19.7	6.07e-01	0	43	0	233308160	20	4851
2026-01-22 13:13:48.27	215.57	18.52	-29.3	-31.8	19.8	6.03e-01	0	43	0	238551040	20	4791
2026-01-22 13:13:51.28	216.14	18.83	-29.3	-31.7	19.9	6.05e-01	0	43	0	244318208	20	4740
2026-01-22 13:13:54.29	216.72	19.14	-29.2	-31.5	20.0	6.07e-01	0	43	0	250085376	20	4698
2026-01-22 13:13:57.31	217.31	19.46	-29.3	-31.8	19.9	6.05e-01	0	43	0	255852544	20	4779
2026-01-22 13:14:00.32	217.92	19.77	-29.5	-32.2	19.6	6.06e-01	0	43	0	261095424	20	4926
2026-01-22 13:14:03.32	218.53	20.09	-29.3	-31.8	19.9	6.04e-01	0	43	0	266862592	20	4761
2026-01-22 13:14:06.33	219.16	20.41	-29.3	-31.7	20.0	6.08e-01	0	43	0	272629760	20	4731
2026-01-22 13:14:09.35	219.81	20.73	-29.3	-31.8	19.9	6.06e-01	0	43	0	278396928	20	4766
2026-01-22 13:14:12.37	220.47	21.05	-29.4	-31.9	19.8	6.07e-01	0	43	0	283639808	20	4819
2026-01-22 13:14:15.38	221.14	21.37	-29.3	-31.8	20.0	6.06e-01	0	43	0	289406976	20	4759
2026-01-22 13:14:18.38	221.82	21.69	-29.6	-32.4	19.6	6.08e-01	0	43	0	295174144	20	4993
2026-01-22 13:14:21.40	222.53	22.02	-29.7	-32.7	19.4	6.03e-01	0	43	0	300941312	20	5090
2026-01-22 13:14:24.41	223.24	22.34	-29.5	-32.1	19.8	6.07e-01	0	43	0	306708480	20	4870
2026-01-22 13:14:27.42	223.98	22.66	-29.6	-32.4	19.6	6.06e-01	0	43	0	311951360	20	4997
2026-01-22 13:14:30.43	224.72	22.98	-29.5	-32.2	19.8	6.08e-01	0	43	0	317718528	20	4902
2026-01-22 13:14:33.43	225.48	23.30	-29.4	-32.0	19.9	6.05e-01	0	43	0	323485696	20	4831
2026-01-22 13:14:36.45	226.27	23.62	-29.4	-32.0	19.9	6.04e-01	0	43	0	329252864	20	4854
2026-01-22 13:14:39.47	227.06	23.95	-29.6	-32.4	19.6	6.06e-01	0	43	0	334495744	20	4962
2026-01-22 13:14:42.48	227.88	24.26	-29.6	-32.5	19.6	6.05e-01	0	43	0	340262912	20	5017
2026-01-22 13:14:45.49	228.71	24.58	-29.6	-32.3	19.8	6.04e-01	0	43	0	346030080	20	4939
2026-01-22 13:14:48.49	229.55	24.89	-29.4	-32.0	19.9	6.07e-01	0	43	0	351797248	20	4839
2026-01-22 13:14:51.50	230.42	25.21	-29.8	-32.9	19.4	6.08e-01	0	43	0	357564416	20	5133
2026-01-22 13:14:54.52	231.30	25.52	-29.8	-33.0	19.4	6.08e-01	0	43	0	362807296	20	5164
2026-01-22 13:14:57.53	232.20	25.82	-29.6	-32.4	19.8	6.06e-01	0	43	0	368574464	20	4952
2026-01-22 13:15:00.55	233.12	26.13	-29.6	-32.4	19.7	6.06e-01	0	43	0	374341632	20	4966
2026-01-22 13:15:03.57	234.06	26.43	-29.7	-32.6	19.7	6.06e-01	0	43	0	380108800	20	5001
2026-01-22 13:15:06.58	235.01	26.72	-29.8	-32.9	19.5	6.07e-01	0	43	0	385875968	20	5130
2026-01-22 13:15:09.60	235.99	27.01	-30.1	-33.4	19.2	6.07e-01	0	43	0	391118848	20	5324
2026-01-22 13:15:12.61	236.98	27.30	-30.3	-33.8	18.7	6.07e-01	0	43	0	396886016	21	5344
2026-01-22 13:15:15.62	237.98	27.57	-29.7	-32.1	19.7	6.06e-01	0	43	0	402653184	21	4733
2026-01-22 13:15:18.63	239.01	27.85	-29.5	-31.6	20.1	6.07e-01	0	43	0	408420352	21	4556
2026-01-22 13:15:21.64	240.05	28.11	-29.6	-31.7	19.9	6.08e-01	0	43	0	413663232	21	4606
2026-01-22 13:15:24.65	241.11	28.37	-29.6	-31.7	20.0	6.08e-01	0	43	0	419430400	21	4583
2026-01-22 13:15:27.65	242.18	28.62	-30.0	-32.7	19.4	6.07e-01	0	43	0	425197568	21	4917
2026-01-22 13:15:30.67	243.28	28.86	-30.1	-33.0	19.2	6.05e-01	0	43	0	430964736	21	5035
2026-01-22 13:15:33.68	244.39	29.09	-30.0	-32.8	19.4	6.06e-01	0	43	0	436207616	21	4961
2026-01-22 13:15:36.68	245.52	29.32	-30.1	-33.0	19.2	6.05e-01	0	43	0	441974784	21	5030
2026-01-22 13:15:39.69	246.66	29.53	-29.4	-31.4	20.2	6.06e-01	0	43	0	447741952	21	4484
2026-01-22 13:15:42.70	247.82	29.73	-29.6	-31.8	20.0	6.05e-01	0	43	0	453509120	21	4624
2026-01-22 13:15:45.71	248.99	29.92	-29.5	-31.6	20.1	6.05e-01	0	43	0	458752000	21	4553
2026-01-22 13:15:48.73	250.18	30.10	-29.4	-31.8	20.2	6.05e-01	0	43	0	464519168	20	4746
2026-01-22 13:15:51.73	251.37	30.27	-29.4	-31.6	20.3	6.08e-01	0	43	0	470286336	20	4679
2026-01-22 13:15:54.72	252.57	30.43	-29.6	-32.2	20.0	6.07e-01	0	43	0	476053504	20	4874
2026-01-22 13:15:57.72	253.79	30.57	-29.4	-31.7	20.3	6.05e-01	0	43	0	481296384	20	4693
2026-01-22 13:16:00.73	255.02	30.70	-29.6	-32.2	20.0	6.05e-01	0	43	0	487063552	20	4866
2026-01-22 13:16:03.73	256.26	30.82	-29.3	-31.4	20.5	6.07e-01	0	43	0	492830720	20	4597
2026-01-22 13:16:06.75	257.52	30.92	-29.2	-31.2	20.6	6.06e-01	0	43	0	498597888	20	4541
2026-01-22 13:16:09.76	258.78	31.01	-29.2	-31.2	20.6	6.07e-01	0	43	0	503840768	20	4553
2026-01-22 13:16:12.76	260.04	31.08	-29.5	-32.0	20.2	6.07e-01	0	43	0	509607936	20	4801
2026-01-22 13:16:15.76	261.30	31.14	-29.5	-32.0	20.2	6.07e-01	0	43	0	515375104	20	4788
2026-01-22 13:16:18.77	262.57	31.19	-29.4	-31.7	20.4	6.06e-01	0	43	0	521142272	20	4681
2026-01-22 13:16:21.78	263.85	31.22	-29.4	-31.7	20.3	6.06e-01	0	43	0	526385152	20	4704
2026-01-22 13:16:24.78	265.12	31.23	-29.2	-31.3	20.6	6.09e-01	0	43	0	532152320	20	4555
2026-01-22 13:16:27.78	266.40	31.23	-29.0	-30.8	20.9	6.05e-01	0	43	0	537919488	20	4404
2026-01-22 13:16:30.78	267.67	31.22	-29.1	-31.0	20.7	6.07e-01	0	43	0	543162368	20	4467
2026-01-22 13:16:33.78	268.94	31.19	-28.9	-30.5	21.0	6.08e-01	0	43	0	548929536	20	4329
2026-01-22 13:16:36.79	270.22	31.14	-29.1	-31.0	20.7	6.05e-01	0	43	0	554696704	20	4461
2026-01-22 13:16:39.79	271.48	31.08	-29.1	-31.0	20.7	6.05e-01	0	43	0	560463872	20	4471
2026-01-22 13:16:42.80	272.74	31.01	-29.2	-31.2	20.6	6.07e-01	0	43	0	566231040	20	4534
2026-01-22 13:16:45.81	274.00	30.92	-29.3	-31.6	20.4	6.07e-01	0	43	0	571473920	20	4651
2026-01-22 13:16:48.81	275.24	30.82	-29.6	-32.1	20.1	6.06e-01	0	43	0	577241088	20	4838
2026-01-22 13:16:51.82	276.48	30.70	-29.4	-31.7	20.4	6.06e-01	0	43	0	583008256	20	4685
2026-01-22 13:16:54.83	277.71	30.57	-29.6	-32.3	19.9	6.08e-01	0	43	0	588775424	20	4900
2026-01-22 13:16:57.83	278.93	30.43	-29.2	-31.3	20.6	6.06e-01	0	43	0	594018304	20	4554
2026-01-22 13:17:00.82	280.13	30.27	-29.3	-31.6	20.4	6.07e-01	0	43	0	599785472	20	4648
2026-01-22 13:17:03.82	281.32	30.10	-29.1	-30.9	20.8	6.09e-01	0	43	0	605552640	20	4450
2026-01-22 13:17:06.83	282.50	29.92	-29.2	-31.2	20.5	6.07e-01	0	43	0	611319808	20	4554
2026-01-22 13:17:09.84	283.67	29.73	-29.2	-31.2	20.6	6.04e-01	0	43	0	616562688	20	4529
2026-01-22 13:17:12.86	284.83	29.53	-29.2	-31.2	20.6	6.07e-01	0	43	0	622329856	20	4526
2026-01-22 13:17:15.86	285.96	29.32	-29.5	-31.9	20.1	6.05e-01	0	43	0	628097024	20	4777
2026-01-22 13:17:18.87	287.09	29.09	-29.6	-32.3	19.9	6.05e-01	0	43	0	633339904	20	4904
2026-01-22 13:17:21.88	288.19	28.86	-29.9	-33.0	19.5	6.06e-01	0	43	0	639107072	20	5152
2026-01-22 13:17:24.89	289.28	28.62	-29.3	-31.6	20.3	6.06e-01	0	43	0	644874240	20	4654
2026-01-22 13:17:27.90	290.36	28.37	-29.3	-31.4	20.4	6.06e-01	0	43	0	650641408	20	4588
2026-01-22 13:17:30.91	291.41	28.12	-29.3	-31.4	20.4	6.05e-01	0	43	0	656408576	20	4609
2026-01-22 13:17:33.92	292.45	27.85	-29.3	-31.5	20.4	6.06e-01	0	43	0	661651456	20	4627
2026-01-22 13:17:36.92	293.47	27.58	-29.4	-31.6	20.3	6.06e-01	0	43	0	667418624	20	4672
2026-01-22 13:17:39.93	294.47	27.31	-29.5	-32.0	20.0	6.06e-01	0	43	0	673185792	20	4810
2026-01-22 13:17:42.93	295.45	27.02	-29.7	-32.4	19.8	6.07e-01	0	43	0	678952960	20	4921
2026-01-22 13:17:45.94	296.42	26.74	-29.8	-32.7	19.7	6.06e-01	0	43	0	684195840	20	5044
2026-01-22 13:17:48.95	297.37	26.44	-29.7	-32.4	19.8	6.06e-01	0	43	0	689963008	20	4928
2026-01-22 13:17:51.96	298.30	26.15	-29.8	-32.8	19.6	6.03e-01	0	43	0	695730176	20	5062
2026-01-22 13:17:54.98	299.22	25.85	-29.6	-32.2	19.9	6.06e-01	0	43	0	701497344	20	4868
2026-01-22 13:17:57.98	300.11	25.54	-29.5	-31.9	20.0	6.06e-01	0	43	0	706740224	20	4769
2026-01-22 13:18:00.99	300.99	25.24	-29.9	-32.9	19.5	6.07e-01	0	43	0	712507392	20	5124
2026-01-22 13:18:03.99	301.85	24.93	-29.9	-33.1	19.4	6.06e-01	0	43	0	718274560	20	5195
2026-01-22 13:18:07.00	302.69	24.61	-29.7	-32.4	19.8	6.05e-01	0	43	0	724041728	20	4953
2026-01-22 13:18:10.01	303.52	24.30	-29.6	-32.2	19.9	6.06e-01	0	43	0	729284608	20	4881
2026-01-22 13:18:13.02	304.33	23.98	-29.6	-32.3	19.9	6.09e-01	0	43	0	735051776	20	4908
2026-01-22 13:18:16.03	305.12	23.67	-29.7	-32.5	19.7	6.07e-01	0	43	0	740818944	20	4982
2026-01-22 13:18:19.05	305.90	23.35	-29.7	-32.4	19.8	6.07e-01	0	43	0	746586112	20	4952
2026-01-22 13:18:22.06	306.66	23.03	-29.6	-32.3	19.8	6.05e-01	0	43	0	751828992	20	4899
2026-01-22 13:18:25.07	307.41	22.71	-29.6	-32.3	19.8	6.05e-01	0	43	0	757596160	20	4921
2026-01-22 13:18:28.08	308.14	22.39	-29.6	-32.2	19.9	6.04e-01	0	43	0	763363328	20	4882
2026-01-22 13:18:31.09	308.85	22.07	-29.7	-32.7	19.6	6.05e-01	0	43	0	769130496	20	5045
2026-01-22 13:18:34.11	309.55	21.75	-29.6	-32.4	19.8	6.07e-01	0	43	0	774897664	20	4929
2026-01-22 13:18:37.12	310.23	21.43	-29.7	-32.5	19.7	6.04e-01	0	43	0	780140544	20	4987
2026-01-22 13:18:40.12	310.90	21.11	-29.5	-32.1	19.9	6.06e-01	0	43	0	785907712	20	4834
2026-01-22 13:18:43.12	311.55	20.79	-29.6	-32.2	19.8	6.04e-01	0	43	0	791674880	20	4877
2026-01-22 13:18:46.13	312.20	20.48	-29.5	-32.0	20.0	6.05e-01	0	43	0	797442048	20	4807
2026-01-22 13:18:49.14	312.82	20.16	-29.6	-32.4	19.7	6.07e-01	0	43	0	802684928	20	4950
2026-01-22 13:18:52.15	313.44	19.85	-29.7	-32.5	19.7	6.05e-01	0	43	0	808452096	20	4977
2026-01-22 13:18:55.15	314.04	19.53	-29.9	-33.0	19.3	6.07e-01	0	43	0	814219264	20	5174
2026-01-22 13:18:58.15	314.63	19.22	-29.5	-32.2	19.9	6.05e-01	0	43	0	819986432	20	4870
2026-01-22 13:19:01.16	315.21	18.91	-29.6	-32.4	19.7	6.06e-01	0	43	0	825229312	20	4938
2026-01-22 13:19:04.18	315.77	18.60	-29.8	-33.0	19.3	6.06e-01	0	43	0	830996480	20	5157
2026-01-22 13:19:07.19	316.33	18.29	-29.7	-32.6	19.5	6.05e-01	0	43	0	836763648	20	5025
2026-01-22 13:19:10.21	316.87	17.99	-29.6	-32.4	19.6	6.05e-01	0	43	0	842530816	20	4944
2026-01-22 13:19:13.22	317.40	17.68	-29.4	-31.8	20.0	6.04e-01	0	43	0	847773696	20	4766
2026-01-22 13:19:16.24	317.92	17.38	-29.4	-31.9	19.9	6.09e-01	0	43	0	853540864	20	4776
2026-01-22 13:19:19.25	318.43	17.08	-29.4	-31.7	20.0	6.07e-01	0	43	0	859308032	20	4721
2026-01-22 13:19:22.26	318.93	16.79	-29.3	-31.5	20.1	6.07e-01	0	43	0	865075200	20	4658
2026-01-22 13:19:25.27	319.42	16.49	-29.3	-31.7	20.0	6.07e-01	0	43	0	870842368	20	4709
2026-01-22 13:19:28.29	319.90	16.20	-29.5	-32.0	19.7	6.06e-01	0	43	0	876085248	20	4846
2026-01-22 13:19:31.29	320.37	15.91	-29.4	-32.0	19.7	6.04e-01	0	43	0	881852416	20	4831
2026-01-22 13:19:34.30	320.83	15.62	-29.4	-32.0	19.7	6.08e-01	0	43	0	887619584	20	4831
2026-01-22 13:19:37.31	321.28	15.33	-29.4	-31.9	19.8	6.06e-01	0	43	0	893386752	20	4787
2026-01-22 13:19:40.32	321.73	15.04	-29.5	-32.0	19.6	6.03e-01	0	43	0	898629632	20	4848
2026-01-22 13:19:43.31	322.16	14.76	-29.5	-32.0	19.6	6.02e-01	0	43	0	904396800	20	4850
2026-01-22 13:19:46.32	322.58	14.48	-29.5	-32.2	19.6	6.02e-01	0	43	0	910163968	20	4894
2026-01-22 13:19:49.33	323.00	14.21	-29.5	-32.2	19.6	6.04e-01	0	43	0	915931136	20	4915
2026-01-22 13:19:52.33	323.41	13.93	-29.5	-32.3	19.5	6.04e-01	0	43	0	921174016	20	4933
2026-01-22 13:19:55.34	323.81	13.66	-29.5	-32.1	19.6	6.02e-01	0	43	0	926941184	20	4886
2026-01-22 13:19:58.36	324.21	13.39	-29.4	-32.0	19.6	6.02e-01	0	43	0	932708352	20	4847
2026-01-22 13:20:01.37	324.59	13.12	-29.5	-32.2	19.5	6.04e-01	0	43	0	938475520	20	4915
2026-01-22 13:20:04.39	324.97	12.85	-29.7	-32.8	19.1	6.03e-01	0	43	0	944242688	20	5119
2026-01-22 13:20:07.40	325.35	12.58	-29.8	-33.0	19.0	6.01e-01	0	43	0	949485568	20	5211
2026-01-22 13:20:10.41	325.71	12.32	-29.7	-32.7	19.1	6.04e-01	0	43	0	955252736	20	5103
2026-01-22 13:20:13.42	326.07	12.06	-29.7	-32.9	19.0	6.05e-01	0	43	0	961019904	20	5160
2026-01-22 13:20:16.42	326.42	11.80	-29.7	-32.6	19.1	6.01e-01	0	43	0	966262784	20	5067
2026-01-22 13:20:19.42	326.77	11.55	-29.7	-32.8	19.1	6.03e-01	0	43	0	972029952	20	5132
2026-01-22 13:20:22.43	327.11	11.30	-29.7	-32.8	19.0	6.04e-01	0	43	0	977797120	20	5141
2026-01-22 13:20:25.44	327.44	11.04	-29.8	-33.0	19.0	6.02e-01	0	43	0	983564288	20	5203
2026-01-22 13:20:28.45	327.77	10.79	-29.9	-33.4	18.7	6.03e-01	0	43	0	989331456	20	5375
2026-01-22 13:20:31.46	328.09	10.55	-30.0	-33.6	18.5	6.04e-01	0	43	0	994574336	20	5449
2026-01-22 13:20:34.47	328.41	10.30	-29.9	-33.4	18.6	6.05e-01	0	43	0	1000341504	20	5381
2026-01-22 13:20:37.48	328.72	10.06	-29.9	-33.5	18.5	6.02e-01	0	43	0	1006108672	20	5422
2026-01-22 13:20:40.49	329.03	9.82	-30.1	-33.9	18.2	6.04e-01	0	43	0	1011875840	20	5590
2026-01-22 13:20:43.49	329.33	9.58	-30.2	-33.7	18.0	6.03e-01	0	43	0	1017118720	21	5383
2026-01-22 13:20:46.50	329.62	9.34	-30.0	-33.3	18.2	6.03e-01	0	43	0	1022885888	21	5248
2026-01-22 13:20:49.52	329.91	9.10	-30.2	-33.7	17.9	6.06e-01	0	43	0	1028653056	21	5404
2026-01-22 13:20:52.53	330.20	8.87	-30.1	-33.4	18.1	6.04e-01	0	43	0	1034420224	21	5297
2026-01-22 13:20:55.53	330.48	8.64	-30.2	-33.7	17.9	6.04e-01	0	43	0	1039663104	21	5406
2026-01-22 13:20:58.53	330.76	8.41	-30.3	-34.1	17.6	6.03e-01	0	43	0	1045430272	21	5590
2026-01-22 13:21:01.54	331.03	8.18	-30.1	-33.5	18.0	6.04e-01	0	43	0	1051197440	21	5354
2026-01-22 13:21:04.55	331.30	7.95	-30.1	-33.5	17.9	6.03e-01	0	43	0	1056964608	21	5352
2026-01-22 13:21:07.55	331.56	7.73	-30.2	-33.8	17.7	6.02e-01	0	43	0	1062207488	21	5465
2026-01-22 13:21:10.57	331.82	7.51	-30.3	-34.2	17.4	6.04e-01	0	43	0	1067974656	21	5630
2026-01-22 13:21:13.59	332.08	7.28	-30.3	-34.3	17.4	6.03e-01	0	43	0	1073741824	21	5667
2026-01-22 13:21:16.60	332.33	7.06	-33.5	-51.0	4.1	7.51e-01	0	43	104	1078984704	27	27189

#Closed at: 2026-01-22 13:21:19
#Recorded file [1078 MB]: D:/data/31010_260122_161140.dat