passes_logs/2026/01/22/R2M6_AANII_01/R2M6_AANII_01__20260122_230532_NOAA_20_JPSS-1_rec.log

#Pass ID: 20260122_230532_NOAA 20 (JPSS-1)
#Satellite: NOAA 20 (JPSS-1)
#Configuration: NOAA 20
#almurnet v.1.7.20240730
#Start time: 2026-01-22 23:05:32

#Version: 2.2.20231116
#Station: R2M6_AANII_01
#Location: 30.233357 lon 59.946436 lat
#TLE: 1 43013U 17073A   26022.44900781  .00000193  00000+0  11233-3 0  9999
#TLE: 2 43013  98.7645 323.3100 0001197  28.8413 331.2829 14.19538802423792

#Time	Az	El	Level	Level2	SNR	BER	BlckErr	Temp	State	Recorded	gain1	gain2
2026-01-22 23:05:32.99	26.54	7.04	-31.7	-37.7	5.1	1.21e+00	0	42	0	0	23	7144
2026-01-22 23:05:35.98	26.76	7.25	-32.3	-39.3	6.5	2.12e-01	0	41	0	1048576	25	8092
2026-01-22 23:05:38.98	26.99	7.46	-31.9	-37.5	8.4	6.77e-02	0	42	0	7340032	24	6863
2026-01-22 23:05:41.99	27.22	7.66	-31.3	-35.6	10.3	6.92e-03	0	42	0	12582912	23	5919
2026-01-22 23:05:45.01	27.45	7.88	-31.0	-34.5	11.2	1.93e-03	0	42	0	17825792	23	5405
2026-01-22 23:05:48.00	27.69	8.09	-31.2	-35.4	10.5	2.05e-03	0	42	0	24117248	23	5813
2026-01-22 23:05:51.00	27.93	8.30	-30.7	-34.0	11.9	4.42e-04	0	42	0	29360128	22	5312
2026-01-22 23:05:54.02	28.17	8.51	-30.9	-34.7	11.5	9.68e-04	0	42	0	35651584	22	5601
2026-01-22 23:05:57.03	28.42	8.73	-30.8	-34.5	11.6	7.35e-04	0	42	0	40894464	22	5488
2026-01-22 23:06:00.03	28.67	8.95	-31.0	-35.1	11.2	1.26e-03	0	42	0	46137344	22	5773
2026-01-22 23:06:03.04	28.92	9.16	-30.5	-33.9	12.4	2.84e-04	0	42	0	52428800	21	5331
2026-01-22 23:06:06.04	29.18	9.38	-30.5	-34.1	12.3	1.50e-04	0	42	0	57671680	21	5425
2026-01-22 23:06:09.05	29.44	9.61	-30.5	-33.9	12.5	1.29e-04	0	42	0	62914560	21	5327
2026-01-22 23:06:12.06	29.70	9.83	-30.5	-33.8	12.5	1.20e-04	0	43	0	69206016	21	5296
2026-01-22 23:06:15.07	29.97	10.05	-30.4	-33.7	12.6	9.76e-05	0	43	0	74448896	21	5265
2026-01-22 23:06:18.08	30.25	10.28	-30.4	-33.6	12.7	9.46e-05	0	43	0	80740352	21	5194
2026-01-22 23:06:21.10	30.52	10.51	-30.4	-33.7	12.7	7.62e-05	0	43	0	85983232	21	5239
2026-01-22 23:06:24.11	30.80	10.74	-30.4	-34.1	12.7	7.17e-05	0	43	0	91226112	20	5531
2026-01-22 23:06:27.12	31.09	10.97	-30.4	-34.2	12.7	5.87e-05	0	43	0	97517568	20	5561
2026-01-22 23:06:30.14	31.38	11.20	-30.2	-33.6	13.1	3.50e-05	0	43	0	102760448	20	5300
2026-01-22 23:06:33.15	31.67	11.44	-30.2	-33.4	13.3	3.50e-05	0	43	0	109051904	20	5228
2026-01-22 23:06:36.16	31.97	11.67	-30.3	-33.8	13.1	3.81e-05	0	43	0	114294784	20	5396
2026-01-22 23:06:39.16	32.27	11.91	-30.1	-33.3	13.3	1.22e-05	0	43	0	119537664	20	5198
2026-01-22 23:06:42.18	32.58	12.15	-30.0	-33.0	13.5	7.60e-06	0	43	0	125829120	20	5089
2026-01-22 23:06:45.19	32.90	12.39	-30.1	-33.2	13.4	1.60e-05	0	43	0	131072000	20	5162
2026-01-22 23:06:48.21	33.21	12.63	-30.2	-33.4	13.4	1.60e-05	0	43	0	136314880	20	5206
2026-01-22 23:06:51.22	33.54	12.88	-30.4	-34.1	12.9	5.34e-05	0	43	0	142606336	20	5516
2026-01-22 23:06:54.23	33.86	13.12	-30.5	-33.7	12.9	4.73e-05	0	43	0	147849216	21	5218
2026-01-22 23:06:57.24	34.20	13.37	-30.6	-34.1	12.6	6.86e-05	0	43	0	154140672	21	5381
2026-01-22 23:07:00.23	34.53	13.62	-30.4	-33.5	13.0	4.42e-05	0	43	0	159383552	21	5141
2026-01-22 23:07:03.24	34.88	13.87	-30.5	-33.7	13.0	5.41e-05	0	43	0	164626432	21	5195
2026-01-22 23:07:06.26	35.23	14.12	-30.3	-33.2	13.2	2.21e-05	0	43	0	170917888	21	5031
2026-01-22 23:07:09.28	35.59	14.38	-30.4	-33.4	13.1	2.59e-05	0	43	0	176160768	21	5105
2026-01-22 23:07:12.29	35.95	14.63	-30.5	-33.9	12.9	5.18e-05	0	43	0	181403648	21	5269
2026-01-22 23:07:15.30	36.31	14.89	-30.6	-33.9	12.8	6.33e-05	0	43	0	187695104	21	5302
2026-01-22 23:07:18.30	36.69	15.15	-30.4	-33.4	13.2	2.44e-05	0	43	0	192937984	21	5101
2026-01-22 23:07:21.32	37.07	15.41	-30.3	-33.2	13.4	2.28e-05	0	43	0	199229440	21	5010
2026-01-22 23:07:24.33	37.45	15.67	-30.4	-33.4	13.2	2.05e-05	0	43	0	204472320	21	5092
2026-01-22 23:07:27.34	37.85	15.93	-30.5	-33.8	13.0	3.81e-05	0	43	0	209715200	21	5218
2026-01-22 23:07:30.35	38.25	16.20	-30.3	-33.2	13.4	1.75e-05	0	43	0	216006656	21	4992
2026-01-22 23:07:33.35	38.65	16.47	-30.4	-33.2	13.4	1.75e-05	0	43	0	221249536	21	5012
2026-01-22 23:07:36.35	39.06	16.73	-30.4	-33.5	13.3	2.36e-05	0	44	0	227540992	21	5098
2026-01-22 23:07:39.36	39.48	17.00	-30.2	-32.8	13.7	4.50e-06	0	44	0	232783872	21	4866
2026-01-22 23:07:42.37	39.91	17.28	-30.3	-33.0	13.6	1.06e-05	0	43	0	238026752	21	4926
2026-01-22 23:07:45.37	40.35	17.55	-30.4	-33.3	13.5	1.44e-05	0	43	0	244318208	21	5022
2026-01-22 23:07:48.38	40.79	17.82	-30.3	-33.0	13.6	3.80e-06	0	44	0	249561088	21	4906
2026-01-22 23:07:51.39	41.24	18.10	-30.1	-32.5	13.9	4.50e-06	0	43	0	254803968	21	4756
2026-01-22 23:07:54.40	41.70	18.38	-30.1	-32.5	14.0	0.00e+00	0	43	0	261095424	21	4756
2026-01-22 23:07:57.41	42.17	18.66	-30.0	-32.3	14.1	1.50e-06	0	44	0	266338304	21	4688
2026-01-22 23:08:00.42	42.64	18.94	-29.8	-31.7	14.5	7.00e-07	0	44	0	272629760	21	4490
2026-01-22 23:08:03.43	43.13	19.22	-29.7	-31.8	14.8	0.00e+00	0	44	0	277872640	20	4628
2026-01-22 23:08:06.44	43.62	19.50	-29.5	-31.3	15.1	0.00e+00	0	43	0	283115520	20	4462
2026-01-22 23:08:09.45	44.12	19.79	-29.5	-31.4	15.0	0.00e+00	0	43	0	289406976	20	4501
2026-01-22 23:08:12.45	44.63	20.07	-29.5	-31.3	15.1	7.00e-07	0	43	0	294649856	20	4452
2026-01-22 23:08:15.45	45.15	20.36	-29.5	-31.4	15.0	0.00e+00	0	44	0	300941312	20	4486
2026-01-22 23:08:18.46	45.68	20.65	-29.6	-31.6	15.0	0.00e+00	0	44	0	306184192	20	4529
2026-01-22 23:08:21.45	46.22	20.93	-29.4	-31.2	15.2	0.00e+00	0	43	0	311427072	20	4428
2026-01-22 23:08:24.46	46.77	21.22	-29.3	-31.5	15.4	0.00e+00	0	43	0	317718528	19	4591
2026-01-22 23:08:27.48	47.33	21.51	-29.4	-31.7	15.0	0.00e+00	0	44	0	322961408	19	4661
2026-01-22 23:08:30.48	47.90	21.80	-29.5	-31.8	15.3	0.00e+00	0	43	0	328204288	19	4690
2026-01-22 23:08:33.49	48.48	22.09	-29.3	-31.4	15.4	0.00e+00	0	44	0	334495744	19	4585
2026-01-22 23:08:36.49	49.07	22.38	-29.1	-31.5	15.7	3.08e-04	0	44	0	339738624	18	4705
2026-01-22 23:08:39.50	49.67	22.67	-29.3	-31.8	15.5	3.20e-05	0	44	0	346030080	18	4812
2026-01-22 23:08:42.51	50.29	22.96	-29.3	-31.9	15.6	2.20e-06	0	44	0	351272960	18	4826
2026-01-22 23:08:45.52	50.91	23.26	-29.4	-32.0	15.4	0.00e+00	0	44	0	356515840	18	4881
2026-01-22 23:08:48.53	51.55	23.55	-29.4	-31.5	15.4	0.00e+00	0	44	0	362807296	19	4604
2026-01-22 23:08:51.54	52.20	23.84	-29.4	-31.6	15.3	0.00e+00	0	44	0	368050176	19	4646
2026-01-22 23:08:54.55	52.86	24.13	-29.5	-31.7	15.3	1.82e-04	0	44	0	373293056	19	4670
2026-01-22 23:08:57.55	53.53	24.42	-29.4	-32.0	15.5	1.17e-04	0	44	0	379584512	18	4875
2026-01-22 23:09:00.54	54.21	24.70	-29.7	-32.3	15.0	7.62e-05	0	44	0	384827392	19	4870
2026-01-22 23:09:03.55	54.91	24.99	-29.8	-32.5	14.9	0.00e+00	0	44	0	391118848	19	4921
2026-01-22 23:09:06.56	55.62	25.28	-29.9	-32.9	14.6	7.00e-07	0	44	0	396361728	19	5080
2026-01-22 23:09:09.56	56.34	25.56	-30.2	-33.1	14.1	0.00e+00	0	44	0	401604608	20	5030
2026-01-22 23:09:12.57	57.07	25.85	-30.2	-33.2	14.1	7.00e-07	0	44	0	407896064	20	5064
2026-01-22 23:09:15.59	57.82	26.13	-30.3	-33.4	14.0	6.80e-06	0	44	0	413138944	20	5131
2026-01-22 23:09:18.60	58.58	26.41	-30.5	-33.3	13.7	8.30e-06	0	44	0	418381824	21	4992
2026-01-22 23:09:21.61	59.36	26.68	-30.4	-33.0	13.9	4.57e-05	0	44	0	424673280	21	4894
2026-01-22 23:09:24.61	60.14	26.96	-30.5	-33.3	13.7	2.08e-04	0	44	0	429916160	21	4995
2026-01-22 23:09:27.62	60.94	27.23	-31.1	-34.6	12.6	7.70e-04	0	44	0	436207616	22	5380
2026-01-22 23:09:30.63	61.76	27.49	-31.2	-35.0	12.2	2.49e-04	0	44	0	441450496	22	5574
2026-01-22 23:09:33.64	62.58	27.76	-31.2	-34.8	12.4	1.27e-04	0	44	0	446693376	22	5454
2026-01-22 23:09:36.65	63.42	28.02	-31.1	-34.7	12.5	2.05e-04	0	44	0	452984832	22	5409
2026-01-22 23:09:39.66	64.28	28.27	-31.2	-34.9	12.3	4.13e-04	0	44	0	458227712	22	5504
2026-01-22 23:09:42.66	65.14	28.52	-31.1	-34.5	12.6	1.09e-04	0	44	0	463470592	22	5371
2026-01-22 23:09:45.67	66.02	28.77	-31.2	-34.8	12.4	1.40e-04	0	44	0	469762048	22	5464
2026-01-22 23:09:48.68	66.92	29.01	-30.9	-34.1	12.9	5.95e-05	0	44	0	475004928	22	5199
2026-01-22 23:09:51.68	67.82	29.25	-30.8	-33.7	13.2	3.20e-05	0	44	0	481296384	22	5030
2026-01-22 23:09:54.70	68.75	29.48	-31.1	-34.5	12.7	6.71e-05	0	44	0	486539264	22	5325
2026-01-22 23:09:57.71	69.68	29.70	-31.2	-34.7	12.5	1.27e-04	0	44	0	491782144	22	5428
2026-01-22 23:10:00.70	70.62	29.92	-31.1	-34.7	12.5	8.16e-05	0	44	0	498073600	22	5397
2026-01-22 23:10:03.70	71.58	30.13	-31.6	-35.5	11.7	4.42e-04	0	44	0	503316480	23	5643
2026-01-22 23:10:06.71	72.55	30.33	-32.1	-36.9	10.3	4.68e-03	0	44	0	508559360	24	6202
2026-01-22 23:10:09.72	73.53	30.53	-32.4	-37.6	9.6	1.17e-02	0	44	0	514850816	24	6608
2026-01-22 23:10:12.72	74.52	30.71	-32.1	-36.8	10.3	5.61e-03	0	44	0	520093696	24	6184
2026-01-22 23:10:15.74	75.53	30.89	-32.1	-36.7	10.3	3.82e-03	0	44	0	526385152	24	6124
2026-01-22 23:10:18.74	76.55	31.06	-32.1	-36.9	10.3	5.55e-03	0	44	0	531628032	24	6201
2026-01-22 23:10:21.75	77.57	31.22	-31.8	-35.9	11.0	1.95e-03	0	44	0	536870912	24	5732
2026-01-22 23:10:24.77	78.61	31.38	-31.9	-36.2	10.8	3.13e-03	0	44	0	543162368	24	5871
2026-01-22 23:10:27.78	79.66	31.52	-32.0	-36.4	10.6	3.59e-03	0	44	0	548405248	24	5959
2026-01-22 23:10:30.79	80.72	31.66	-32.0	-36.4	10.6	6.31e-03	0	44	0	554696704	24	5976
2026-01-22 23:10:33.80	81.78	31.78	-31.4	-34.5	11.9	4.20e-04	0	44	0	559939584	24	5157
2026-01-22 23:10:36.81	82.85	31.89	-31.5	-34.8	11.8	4.42e-04	0	44	0	565182464	24	5245
2026-01-22 23:10:39.82	83.93	32.00	-31.4	-34.4	12.1	3.00e-04	0	44	0	571473920	24	5082
2026-01-22 23:10:42.83	85.02	32.09	-31.5	-34.8	11.8	4.27e-04	0	44	0	576716800	24	5256
2026-01-22 23:10:45.85	86.11	32.17	-32.1	-36.6	10.4	3.21e-03	0	44	0	581959680	24	6069
2026-01-22 23:10:48.85	87.20	32.24	-31.8	-35.6	11.2	1.48e-03	0	44	0	588251136	24	5582
2026-01-22 23:10:51.86	88.30	32.30	-31.4	-34.4	12.1	3.99e-04	0	44	0	593494016	24	5089
2026-01-22 23:10:54.88	89.41	32.34	-31.4	-34.4	12.1	2.07e-04	0	44	0	599785472	24	5094
2026-01-22 23:10:57.90	90.52	32.38	-31.4	-34.4	12.0	2.71e-04	0	44	0	605028352	24	5101
2026-01-22 23:11:00.91	91.63	32.40	-31.2	-34.3	12.5	1.61e-04	0	44	0	610271232	23	5161
2026-01-22 23:11:03.92	92.74	32.42	-31.3	-34.7	12.2	1.74e-04	0	44	0	616562688	23	5318
2026-01-22 23:11:06.93	93.85	32.42	-31.5	-35.4	11.7	7.99e-04	0	44	0	621805568	23	5600
2026-01-22 23:11:09.94	94.96	32.40	-31.2	-34.5	12.3	3.15e-04	0	44	0	628097024	23	5227
2026-01-22 23:11:12.94	96.07	32.38	-31.6	-35.6	11.6	5.98e-04	0	44	0	633339904	23	5671
2026-01-22 23:11:15.95	97.18	32.35	-32.0	-36.4	10.7	2.85e-03	0	44	0	638582784	24	5951
2026-01-22 23:11:18.95	98.28	32.30	-31.9	-36.1	10.8	2.48e-03	0	44	0	644874240	24	5803
2026-01-22 23:11:21.96	99.38	32.24	-31.9	-36.0	10.9	1.59e-03	0	44	0	650117120	24	5759
2026-01-22 23:11:24.95	100.47	32.18	-32.1	-36.7	10.3	3.66e-03	0	44	0	655360000	24	6132
2026-01-22 23:11:27.95	101.56	32.10	-32.2	-37.1	10.1	7.19e-03	0	44	0	661651456	24	6340
2026-01-22 23:11:30.96	102.65	32.01	-32.2	-37.2	10.0	7.29e-03	0	44	0	666894336	24	6370
2026-01-22 23:11:33.97	103.73	31.90	-32.3	-37.3	9.9	8.78e-03	0	44	0	672137216	24	6442
2026-01-22 23:11:36.98	104.80	31.79	-32.3	-37.3	9.9	9.77e-03	0	44	0	678428672	24	6417
2026-01-22 23:11:39.98	105.87	31.67	-32.1	-36.7	10.4	5.88e-03	0	44	0	683671552	24	6122
2026-01-22 23:11:42.99	106.92	31.54	-32.2	-37.0	10.1	5.33e-03	0	44	0	689963008	24	6249
2026-01-22 23:11:46.00	107.97	31.39	-31.5	-34.9	11.6	7.65e-04	0	44	0	695205888	24	5306
2026-01-22 23:11:49.01	109.01	31.24	-31.8	-35.8	11.0	2.47e-03	0	44	0	700448768	24	5717
2026-01-22 23:11:52.03	110.05	31.08	-32.0	-36.5	10.4	3.30e-03	0	44	0	706740224	24	6061
2026-01-22 23:11:55.04	111.07	30.91	-31.8	-35.9	10.9	4.18e-03	0	44	0	711983104	24	5731
2026-01-22 23:11:58.06	112.08	30.73	-31.4	-34.6	11.8	4.43e-04	0	44	0	718274560	24	5205
2026-01-22 23:12:01.07	113.08	30.54	-31.4	-34.4	12.0	2.99e-04	0	44	0	723517440	24	5111
2026-01-22 23:12:04.08	114.07	30.35	-31.9	-36.3	10.6	2.75e-03	0	44	0	728760320	24	5950
2026-01-22 23:12:07.10	115.04	30.14	-32.0	-36.4	10.5	5.02e-03	0	44	0	735051776	24	5996
2026-01-22 23:12:10.10	116.00	29.93	-31.8	-35.9	10.8	2.31e-03	0	44	0	740294656	24	5768
2026-01-22 23:12:13.12	116.96	29.71	-31.6	-35.1	11.3	9.74e-04	0	44	0	745537536	24	5446
2026-01-22 23:12:16.12	117.89	29.49	-31.7	-35.6	11.0	1.84e-03	0	44	0	751828992	24	5635
2026-01-22 23:12:19.13	118.82	29.26	-32.0	-36.7	10.1	4.47e-03	0	44	0	757071872	24	6188
2026-01-22 23:12:22.15	119.73	29.02	-31.8	-36.0	10.7	3.23e-03	0	44	0	763363328	24	5813
2026-01-22 23:12:25.17	120.63	28.78	-31.6	-35.4	11.1	1.92e-03	0	44	0	768606208	24	5574
2026-01-22 23:12:28.19	121.52	28.53	-31.2	-34.5	12.1	3.40e-04	0	44	0	773849088	23	5249
2026-01-22 23:12:31.19	122.39	28.28	-31.1	-34.1	12.4	1.53e-04	0	44	0	780140544	23	5111
2026-01-22 23:12:34.20	123.25	28.02	-31.3	-34.7	11.9	3.58e-04	0	44	0	785383424	23	5360
2026-01-22 23:12:37.21	124.09	27.76	-31.5	-35.5	11.3	9.89e-04	0	44	0	791674880	23	5709
2026-01-22 23:12:40.20	124.92	27.50	-31.6	-35.8	11.1	1.86e-03	0	44	0	796917760	23	5832
2026-01-22 23:12:43.21	125.74	27.23	-30.5	-33.0	13.4	2.28e-05	0	44	0	802160640	22	4810
2026-01-22 23:12:46.22	126.54	26.96	-30.9	-34.2	12.6	4.80e-05	0	44	0	808452096	22	5272
2026-01-22 23:12:49.21	127.33	26.68	-30.6	-33.4	13.1	3.73e-05	0	44	0	813694976	22	4968
2026-01-22 23:12:52.21	128.10	26.41	-30.7	-34.2	12.9	1.37e-05	0	44	0	818937856	21	5388
2026-01-22 23:12:55.22	128.87	26.13	-31.9	-36.7	10.3	5.16e-03	0	44	0	825229312	23	6320
2026-01-22 23:12:58.23	129.62	25.84	-31.1	-34.3	12.1	2.31e-04	0	44	0	830472192	23	5179
2026-01-22 23:13:01.23	130.36	25.56	-31.5	-35.6	11.2	1.34e-03	0	44	0	836763648	23	5757
2026-01-22 23:13:04.24	131.08	25.27	-30.5	-33.1	13.3	2.51e-05	0	44	0	842006528	22	4842
2026-01-22 23:13:07.25	131.79	24.98	-30.7	-34.1	12.9	1.22e-05	0	44	0	847249408	21	5346
2026-01-22 23:13:10.27	132.50	24.69	-31.0	-34.5	12.3	3.22e-04	0	44	0	853540864	22	5389
2026-01-22 23:13:13.28	133.18	24.40	-30.1	-32.6	13.8	4.50e-06	0	44	0	858783744	21	4783
2026-01-22 23:13:16.29	133.86	24.11	-30.5	-33.7	13.1	1.52e-05	0	44	0	864026624	21	5211
2026-01-22 23:13:19.29	134.52	23.82	-30.0	-32.4	13.9	9.90e-06	0	44	0	870318080	21	4758
2026-01-22 23:13:22.29	135.17	23.53	-29.8	-32.9	14.3	1.50e-06	0	44	0	875560960	19	5135
2026-01-22 23:13:25.31	135.81	23.23	-30.3	-33.8	13.2	3.12e-05	0	44	0	881852416	20	5391
2026-01-22 23:13:28.33	136.44	22.94	-29.8	-32.4	14.1	3.00e-06	0	44	0	887095296	20	4871
2026-01-22 23:13:31.34	137.06	22.65	-29.6	-31.9	14.4	1.50e-06	0	44	0	892338176	20	4699
2026-01-22 23:13:34.34	137.66	22.35	-29.8	-33.1	14.1	7.00e-07	0	44	0	898629632	19	5213
2026-01-22 23:13:37.34	138.25	22.06	-29.8	-32.9	14.1	0.00e+00	0	44	0	903872512	19	5155
2026-01-22 23:13:40.33	138.83	21.77	-29.7	-32.5	14.4	7.00e-07	0	44	0	909115392	19	4979
2026-01-22 23:13:43.35	139.41	21.48	-29.6	-32.4	14.4	1.50e-06	0	44	0	915406848	19	4949
2026-01-22 23:13:46.36	139.97	21.18	-29.3	-32.1	14.9	0.00e+00	0	44	0	920649728	18	4983
2026-01-22 23:13:49.36	140.52	20.89	-29.0	-31.3	15.3	0.00e+00	0	44	0	926941184	18	4720
2026-01-22 23:13:52.37	141.06	20.60	-29.1	-31.6	15.2	0.00e+00	0	44	0	932184064	18	4824
2026-01-22 23:13:55.37	141.59	20.31	-29.2	-31.8	14.0	7.00e-07	0	44	0	937426944	18	4880
2026-01-22 23:13:58.38	142.12	20.03	-29.1	-31.6	15.1	1.32e-03	0	44	0	943718400	18	4801
2026-01-22 23:14:01.39	142.63	19.74	-29.3	-32.1	14.9	0.00e+00	0	44	0	948961280	18	4966
2026-01-22 23:14:04.41	143.14	19.45	-29.7	-32.6	14.3	7.00e-07	0	44	0	954204160	19	5011
2026-01-22 23:14:07.41	143.63	19.17	-29.9	-33.1	13.9	3.80e-06	0	44	0	960495616	19	5212
2026-01-22 23:14:10.42	144.12	18.88	-29.9	-33.3	13.7	3.80e-06	0	44	0	965738496	19	5306
2026-01-22 23:14:13.43	144.59	18.60	-30.1	-33.4	13.1	1.85e-03	0	44	0	972029952	20	5252
2026-01-22 23:14:16.45	145.06	18.32	-30.1	-33.3	13.2	1.70e-03	0	44	0	977272832	20	5238
2026-01-22 23:14:19.45	145.52	18.04	-30.0	-33.3	13.1	1.86e-03	0	44	0	982515712	20	5236
2026-01-22 23:14:22.46	145.97	17.76	-29.9	-33.4	13.5	2.25e-03	0	44	0	988807168	19	5366
2026-01-22 23:14:25.47	146.42	17.48	-30.3	-33.9	12.7	5.72e-05	0	44	0	994050048	20	5445
2026-01-22 23:14:28.48	146.86	17.21	-30.3	-34.0	12.6	1.27e-04	0	44	0	1000341504	20	5493
2026-01-22 23:14:31.48	147.28	16.93	-30.4	-34.4	12.3	2.48e-03	0	44	0	1005584384	20	5668
2026-01-22 23:14:34.49	147.70	16.66	-30.6	-34.5	11.9	2.55e-03	0	44	0	1010827264	21	5644
2026-01-22 23:14:37.50	148.12	16.39	-30.9	-35.6	11.0	4.62e-03	0	44	0	1017118720	21	6184
2026-01-22 23:14:40.51	148.53	16.12	-31.1	-35.8	10.5	8.46e-03	0	44	0	1022361600	22	6152
2026-01-22 23:14:43.53	148.93	15.85	-30.2	-34.0	12.4	2.39e-03	0	44	0	1027604480	20	5552
2026-01-22 23:14:46.54	149.32	15.59	-30.0	-33.4	12.9	2.46e-03	0	44	0	1033895936	20	5300
2026-01-22 23:14:49.55	149.71	15.32	-30.1	-33.7	12.6	8.01e-05	0	44	0	1039138816	20	5465
2026-01-22 23:14:52.56	150.09	15.06	-30.3	-34.3	12.1	2.48e-03	0	44	0	1045430272	20	5723
2026-01-22 23:14:55.56	150.46	14.80	-30.2	-34.2	12.2	2.85e-03	0	44	0	1050673152	20	5654
2026-01-22 23:14:58.58	150.83	14.54	-30.0	-33.4	12.6	2.67e-03	0	44	0	1055916032	20	5347
2026-01-22 23:15:01.58	151.19	14.28	-30.0	-33.8	12.8	2.42e-03	0	44	0	1062207488	19	5613
2026-01-22 23:15:04.58	151.54	14.03	-30.2	-34.0	12.2	1.07e-04	0	44	0	1067450368	20	5602
2026-01-22 23:15:07.60	151.89	13.77	-30.3	-34.6	11.7	5.82e-04	0	44	0	1072693248	20	5902
2026-01-22 23:15:10.62	152.24	13.52	-30.3	-34.6	11.7	6.51e-04	0	44	0	1078984704	20	5890
2026-01-22 23:15:13.63	152.58	13.27	-30.1	-34.0	12.1	2.28e-04	0	44	0	1084227584	20	5639
2026-01-22 23:15:16.63	152.91	13.02	-29.8	-33.5	12.9	4.50e-05	0	44	0	1090519040	19	5495
2026-01-22 23:15:19.63	153.23	12.77	-29.6	-33.1	13.1	4.19e-05	0	44	0	1095761920	19	5361
2026-01-22 23:15:22.64	153.56	12.53	-29.8	-33.6	12.8	5.03e-05	0	44	0	1101004800	19	5572
2026-01-22 23:15:25.65	153.87	12.28	-30.2	-34.1	12.1	2.43e-04	0	44	0	1107296256	20	5636
2026-01-22 23:15:28.66	154.18	12.04	-30.2	-34.1	12.1	1.96e-04	0	44	0	1112539136	20	5649
2026-01-22 23:15:31.67	154.49	11.80	-30.2	-34.0	12.1	3.04e-04	0	44	0	1117782016	20	5637
2026-01-22 23:15:34.68	154.79	11.56	-30.1	-34.1	12.0	4.07e-04	0	44	0	1124073472	20	5656
2026-01-22 23:15:37.70	155.09	11.32	-29.2	-33.3	11.6	4.16e-04	0	44	0	1129316352	20	5709
2026-01-22 23:15:40.71	155.39	11.08	-30.1	-33.7	11.4	1.78e-04	0	44	0	1135607808	20	5480
2026-01-22 23:15:43.72	155.67	10.85	-30.0	-33.4	12.4	2.21e-03	0	44	0	1140850688	20	5368
2026-01-22 23:15:46.74	155.96	10.62	-29.9	-33.5	12.4	2.50e-03	0	44	0	1146093568	20	5408
2026-01-22 23:15:49.75	156.24	10.39	-29.9	-33.6	12.3	1.73e-04	0	44	0	1152385024	20	5501
2026-01-22 23:15:52.76	156.51	10.16	-30.1	-34.0	11.9	2.49e-04	0	44	0	1157627904	20	5685
2026-01-22 23:15:55.77	156.79	9.93	-30.1	-34.1	12.0	2.56e-04	0	44	0	1163919360	20	5649
2026-01-22 23:15:58.78	157.05	9.70	-30.3	-34.3	11.9	4.11e-04	0	44	0	1169162240	20	5716
2026-01-22 23:16:01.79	157.32	9.48	-30.3	-34.5	11.6	2.75e-03	0	44	0	1174405120	20	5827
2026-01-22 23:16:04.79	157.58	9.25	-30.4	-34.7	11.5	2.86e-03	0	44	0	1180696576	20	5907
2026-01-22 23:16:07.80	157.83	9.03	-30.4	-34.9	11.3	3.25e-03	0	44	0	1185939456	20	6019
2026-01-22 23:16:10.81	158.09	8.81	-30.5	-35.1	11.1	3.67e-03	0	44	0	1191182336	20	6143
2026-01-22 23:16:13.82	158.33	8.59	-30.5	-34.6	11.2	1.58e-03	0	44	0	1197473792	21	5756
2026-01-22 23:16:16.83	158.58	8.38	-30.6	-35.0	10.9	1.70e-03	0	44	0	1202716672	21	5943
2026-01-22 23:16:19.84	158.82	8.16	-30.7	-35.5	10.5	5.77e-03	0	44	0	1209008128	21	6209
2026-01-22 23:16:22.84	159.06	7.95	-30.7	-35.3	10.6	5.12e-03	0	44	0	1214251008	21	6097
2026-01-22 23:16:25.85	159.29	7.73	-30.6	-35.1	10.7	5.15e-03	0	44	0	1219493888	21	6014
2026-01-22 23:16:28.87	159.53	7.52	-30.6	-35.4	10.4	6.17e-03	0	44	0	1225785344	21	6222
2026-01-22 23:16:31.87	159.75	7.31	-30.7	-35.8	10.0	9.73e-03	0	44	0	1231028224	21	6505
2026-01-22 23:16:34.88	159.98	7.10	-30.8	-36.2	9.7	1.02e-02	0	44	0	1237319680	21	6708

#Closed at: 2026-01-22 23:16:37
#Recorded file [1237 MB]: D:/data/31010_260123_020534.dat