passes_logs/2026/01/22/R2M6_AANII_01/R2M6_AANII_01__20260122_113333_AQUA_rec.log

#Pass ID: 20260122_113333_AQUA
#Satellite: AQUA
#Configuration: AQUA
#almurnet v.1.7.20240730
#Start time: 2026-01-22 11:33:35

#Version: 2.2.20231116
#Station: R2M6_AANII_01
#Location: 30.233357 lon 59.946436 lat
#TLE: 1 27424U 02022A   26021.53721517  .00002456  00000+0  50140-3 0  9996
#TLE: 2 27424  98.4098 348.0744 0002012  70.1009  46.1672 14.61843091261845

#Time	Az	El	Level	Level2	SNR	BER	BlckErr	Temp	State	Recorded	gain1	gain2
2026-01-22 11:33:35.26	143.44	7.13	-30.8	-36.9	5.1	7.09e-01	0	41	0	0	23	7304
2026-01-22 11:33:38.27	143.34	7.37	-31.0	-37.2	13.4	6.08e-01	0	41	0	1572864	23	7405
2026-01-22 11:33:41.28	143.25	7.62	-30.3	-35.7	14.8	6.08e-01	0	41	0	7340032	22	6737
2026-01-22 11:33:44.28	143.15	7.87	-30.0	-34.7	15.6	6.08e-01	0	42	0	13107200	22	6152
2026-01-22 11:33:47.29	143.04	8.13	-29.9	-34.5	16.1	6.06e-01	0	42	0	18350080	21	6162
2026-01-22 11:33:50.29	142.94	8.38	-29.8	-33.6	17.0	6.06e-01	0	42	0	24117248	21	5604
2026-01-22 11:33:53.31	142.83	8.64	-29.9	-33.7	17.0	6.06e-01	0	42	0	29884416	21	5613
2026-01-22 11:33:56.32	142.72	8.90	-29.9	-33.5	17.3	6.04e-01	0	42	0	35651584	21	5455
2026-01-22 11:33:59.33	142.61	9.17	-29.9	-33.7	17.2	6.06e-01	0	42	0	41418752	21	5531
2026-01-22 11:34:02.34	142.50	9.44	-30.0	-33.9	17.1	6.05e-01	0	42	0	46661632	21	5634
2026-01-22 11:34:05.36	142.38	9.71	-29.9	-33.5	17.4	6.08e-01	0	42	0	52428800	21	5437
2026-01-22 11:34:08.36	142.26	9.99	-29.8	-33.4	17.5	6.05e-01	0	42	0	58195968	21	5390
2026-01-22 11:34:11.37	142.14	10.26	-29.8	-33.2	17.7	6.07e-01	0	42	0	63963136	21	5325
2026-01-22 11:34:14.38	142.02	10.55	-29.6	-32.8	17.9	6.03e-01	0	42	0	69206016	21	5198
2026-01-22 11:34:17.38	141.89	10.83	-29.5	-32.4	18.2	6.04e-01	0	42	0	74973184	21	5042
2026-01-22 11:34:20.37	141.76	11.12	-29.4	-32.3	18.2	6.06e-01	0	42	0	80740352	21	4999
2026-01-22 11:34:23.37	141.63	11.41	-29.4	-32.6	18.3	6.06e-01	0	42	0	86507520	20	5218
2026-01-22 11:34:26.38	141.49	11.71	-29.4	-32.7	18.4	6.04e-01	0	42	0	91750400	20	5242
2026-01-22 11:34:29.39	141.36	12.01	-29.3	-32.4	18.5	6.06e-01	0	42	0	97517568	20	5130
2026-01-22 11:34:32.40	141.21	12.31	-29.4	-32.5	18.6	6.06e-01	0	42	0	103284736	20	5148
2026-01-22 11:34:35.40	141.07	12.62	-29.1	-32.0	18.8	6.07e-01	0	43	0	108527616	20	5002
2026-01-22 11:34:38.41	140.92	12.93	-29.1	-32.1	18.7	6.08e-01	0	43	0	114294784	20	5062
2026-01-22 11:34:41.41	140.77	13.25	-29.1	-32.2	18.7	6.04e-01	0	43	0	120061952	20	5152
2026-01-22 11:34:44.42	140.61	13.57	-29.1	-32.5	18.5	6.07e-01	0	43	0	125829120	20	5280
2026-01-22 11:34:47.43	140.45	13.89	-29.3	-32.5	18.6	6.07e-01	0	43	0	131596288	20	5213
2026-01-22 11:34:50.44	140.29	14.22	-29.4	-32.5	18.7	6.06e-01	0	43	0	136839168	20	5167
2026-01-22 11:34:53.44	140.12	14.56	-29.5	-32.8	18.6	6.08e-01	0	43	0	142606336	20	5274
2026-01-22 11:34:56.45	139.94	14.90	-29.1	-31.9	19.1	6.06e-01	0	43	0	148373504	20	4973
2026-01-22 11:34:59.46	139.77	15.24	-29.1	-31.9	19.2	6.07e-01	0	43	0	154140672	20	4948
2026-01-22 11:35:02.48	139.58	15.59	-29.1	-31.7	19.4	6.05e-01	0	43	0	159383552	20	4835
2026-01-22 11:35:05.49	139.40	15.95	-29.2	-32.0	19.2	6.07e-01	0	43	0	165150720	20	4939
2026-01-22 11:35:08.50	139.20	16.31	-29.2	-32.0	19.3	6.05e-01	0	43	0	170917888	20	4950
2026-01-22 11:35:11.50	139.01	16.68	-29.3	-32.3	19.0	6.06e-01	0	43	0	176685056	20	5089
2026-01-22 11:35:14.52	138.80	17.05	-29.2	-31.8	19.4	6.10e-01	0	43	0	181927936	20	4867
2026-01-22 11:35:17.53	138.60	17.43	-29.2	-31.9	19.4	6.06e-01	0	43	0	187695104	20	4898
2026-01-22 11:35:20.54	138.38	17.81	-29.3	-32.0	19.4	6.05e-01	0	43	0	193462272	20	4928
2026-01-22 11:35:23.54	138.16	18.20	-29.3	-32.2	19.3	6.03e-01	0	43	0	199229440	20	5006
2026-01-22 11:35:26.56	137.93	18.60	-29.4	-32.2	19.3	6.06e-01	0	43	0	204472320	20	4991
2026-01-22 11:35:29.56	137.70	19.01	-29.6	-32.7	19.1	6.07e-01	0	43	0	210239488	20	5145
2026-01-22 11:35:32.58	137.46	19.42	-29.5	-32.3	19.3	6.07e-01	0	43	0	216006656	20	4993
2026-01-22 11:35:35.58	137.21	19.84	-29.5	-32.4	19.3	6.04e-01	0	43	0	221773824	20	5031
2026-01-22 11:35:38.58	136.96	20.26	-29.3	-31.9	19.6	6.07e-01	0	43	0	227016704	20	4858
2026-01-22 11:35:41.57	136.70	20.69	-29.7	-32.8	19.1	6.05e-01	0	43	0	232783872	20	5189
2026-01-22 11:35:44.58	136.43	21.13	-29.7	-33.0	19.0	6.06e-01	0	43	0	238551040	20	5247
2026-01-22 11:35:47.59	136.15	21.58	-29.8	-33.1	18.9	6.08e-01	0	43	0	244318208	20	5298
2026-01-22 11:35:50.59	135.86	22.04	-29.6	-32.6	19.3	6.04e-01	0	43	0	249561088	20	5071
2026-01-22 11:35:53.61	135.56	22.50	-29.5	-32.6	19.3	6.08e-01	0	43	0	255328256	20	5098
2026-01-22 11:35:56.61	135.25	22.97	-29.6	-32.8	19.2	6.06e-01	0	43	0	261095424	20	5180
2026-01-22 11:35:59.62	134.94	23.46	-29.7	-32.8	19.2	6.06e-01	0	43	0	266862592	20	5172
2026-01-22 11:36:02.62	134.61	23.95	-29.8	-33.1	19.0	6.06e-01	0	43	0	272629760	20	5293
2026-01-22 11:36:05.63	134.27	24.45	-29.6	-32.5	19.3	6.07e-01	0	43	0	277872640	20	5061
2026-01-22 11:36:08.65	133.91	24.96	-29.5	-32.2	19.4	6.08e-01	0	43	0	283639808	20	4957
2026-01-22 11:36:11.66	133.55	25.48	-29.6	-32.6	19.5	6.06e-01	0	43	0	289406976	20	5036
2026-01-22 11:36:14.66	133.17	26.00	-29.7	-32.5	19.6	6.07e-01	0	43	0	295174144	20	5018
2026-01-22 11:36:17.66	132.78	26.54	-29.5	-32.0	19.9	6.05e-01	0	44	0	300417024	20	4813
2026-01-22 11:36:20.68	132.38	27.09	-29.3	-31.6	20.2	6.04e-01	0	44	0	306184192	20	4694
2026-01-22 11:36:23.69	131.96	27.65	-29.4	-31.9	20.0	6.06e-01	0	43	0	311951360	20	4800
2026-01-22 11:36:26.70	131.52	28.22	-29.2	-31.3	20.4	6.06e-01	0	43	0	317718528	20	4586
2026-01-22 11:36:29.70	131.07	28.80	-29.3	-31.5	20.3	6.06e-01	0	43	0	322961408	20	4647
2026-01-22 11:36:32.71	130.60	29.40	-29.1	-31.1	20.6	6.05e-01	0	43	0	328728576	20	4518
2026-01-22 11:36:35.72	130.11	30.00	-29.1	-31.1	20.6	6.05e-01	0	43	0	334495744	20	4528
2026-01-22 11:36:38.72	129.60	30.61	-29.1	-31.1	20.7	6.06e-01	0	43	0	340262912	20	4505
2026-01-22 11:36:41.74	129.06	31.24	-29.2	-31.3	20.5	6.05e-01	0	43	0	345505792	20	4581
2026-01-22 11:36:44.75	128.51	31.88	-29.1	-31.1	20.6	6.05e-01	0	43	0	351272960	20	4507
2026-01-22 11:36:47.76	127.94	32.53	-29.2	-31.3	20.5	6.05e-01	0	43	0	357040128	20	4587
2026-01-22 11:36:50.76	127.34	33.19	-29.5	-32.0	20.2	6.05e-01	0	43	0	362807296	20	4779
2026-01-22 11:36:53.78	126.71	33.87	-29.4	-31.8	20.3	6.06e-01	0	43	0	368050176	20	4734
2026-01-22 11:36:56.81	126.05	34.56	-29.8	-32.7	19.8	6.06e-01	0	43	0	373817344	20	5032
2026-01-22 11:36:59.82	125.36	35.26	-30.3	-33.4	19.0	6.05e-01	0	43	0	379584512	21	5193
2026-01-22 11:37:02.83	124.65	35.97	-30.2	-33.1	19.2	6.05e-01	0	43	0	385351680	21	5070
2026-01-22 11:37:05.83	123.90	36.69	-30.8	-34.5	18.1	6.06e-01	0	43	0	391118848	22	5463
2026-01-22 11:37:08.84	123.11	37.43	-30.3	-33.1	19.0	6.08e-01	0	43	0	396361728	22	4951
2026-01-22 11:37:11.85	122.29	38.17	-30.8	-34.3	18.3	6.07e-01	0	43	0	402128896	22	5402
2026-01-22 11:37:14.86	121.43	38.93	-30.7	-34.0	18.5	6.07e-01	0	43	0	407896064	22	5265
2026-01-22 11:37:17.86	120.53	39.69	-30.8	-34.3	18.3	6.05e-01	0	43	0	413663232	22	5379
2026-01-22 11:37:20.87	119.58	40.46	-31.0	-34.3	18.0	6.05e-01	0	43	0	418906112	23	5271
2026-01-22 11:37:23.87	118.58	41.24	-31.3	-35.2	17.4	6.05e-01	0	44	0	424673280	23	5647
2026-01-22 11:37:26.89	117.53	42.04	-31.1	-34.7	17.8	6.09e-01	0	44	0	430440448	23	5414
2026-01-22 11:37:29.90	116.43	42.84	-30.8	-33.6	18.5	6.07e-01	0	44	0	436207616	23	5003
2026-01-22 11:37:32.92	115.26	43.64	-30.6	-33.4	18.7	6.07e-01	0	43	0	441450496	23	4923
2026-01-22 11:37:35.93	114.04	44.45	-30.7	-33.5	18.6	6.05e-01	0	43	0	447217664	23	4952
2026-01-22 11:37:38.94	112.76	45.26	-30.4	-33.3	19.1	6.09e-01	0	43	0	452984832	22	4989
2026-01-22 11:37:41.95	111.40	46.07	-30.3	-32.9	19.3	6.07e-01	0	43	0	458752000	22	4872
2026-01-22 11:37:44.96	109.97	46.88	-30.5	-33.5	18.9	6.09e-01	0	43	0	463994880	22	5093
2026-01-22 11:37:47.97	108.47	47.68	-30.8	-34.3	18.4	6.08e-01	0	43	0	469762048	22	5394
2026-01-22 11:37:50.97	106.89	48.47	-30.6	-33.7	18.8	6.07e-01	0	43	0	475529216	22	5163
2026-01-22 11:37:53.98	105.22	49.26	-30.5	-33.4	19.1	6.06e-01	0	44	0	481296384	22	5034
2026-01-22 11:37:57.00	103.45	50.04	-30.5	-33.5	18.9	6.06e-01	0	44	0	486539264	22	5060
2026-01-22 11:37:59.93	101.65	50.77	-30.5	-33.4	19.1	6.03e-01	0	44	0	492306432	22	5018
2026-01-22 11:38:02.95	99.70	51.51	-30.6	-33.7	18.8	6.07e-01	0	44	0	498073600	22	5145
2026-01-22 11:38:05.96	97.66	52.23	-30.4	-33.3	19.2	6.07e-01	0	43	0	503840768	22	4984
2026-01-22 11:38:08.96	95.52	52.91	-29.9	-31.9	20.0	6.04e-01	0	43	0	509607936	22	4509
2026-01-22 11:38:11.97	93.28	53.56	-30.0	-32.7	19.7	6.07e-01	0	44	0	514850816	21	4910
2026-01-22 11:38:14.98	90.94	54.17	-29.9	-32.4	19.9	6.06e-01	0	44	0	520617984	21	4809
2026-01-22 11:38:17.99	88.49	54.74	-29.9	-32.4	19.9	6.06e-01	0	43	0	526385152	21	4788
2026-01-22 11:38:21.00	85.95	55.26	-30.1	-33.0	19.7	6.07e-01	0	44	0	532152320	21	4989
2026-01-22 11:38:24.01	83.32	55.73	-30.4	-33.7	19.2	6.05e-01	0	43	0	537395200	21	5226
2026-01-22 11:38:27.01	80.62	56.14	-30.7	-33.8	18.8	6.05e-01	0	44	0	543162368	22	5172
2026-01-22 11:38:30.02	77.83	56.49	-30.4	-33.1	19.3	6.06e-01	0	43	0	548929536	22	4923
2026-01-22 11:38:33.03	74.97	56.77	-30.6	-33.6	19.0	6.06e-01	0	43	0	554696704	22	5084
2026-01-22 11:38:36.05	72.05	56.99	-30.5	-33.4	19.1	6.06e-01	0	44	0	559939584	22	5013
2026-01-22 11:38:39.07	69.10	57.14	-30.6	-33.6	19.0	6.09e-01	0	44	0	565706752	22	5089
2026-01-22 11:38:42.07	66.14	57.21	-30.7	-34.0	18.6	6.04e-01	0	43	0	571473920	22	5261
2026-01-22 11:38:45.08	63.16	57.21	-30.3	-32.7	19.5	6.05e-01	0	43	0	577241088	22	4766
2026-01-22 11:38:48.08	60.20	57.14	-30.0	-32.0	20.0	6.06e-01	0	43	0	583008256	22	4527
2026-01-22 11:38:51.09	57.25	56.99	-30.0	-32.0	20.0	6.08e-01	0	44	0	588251136	22	4525
2026-01-22 11:38:54.11	54.34	56.77	-30.1	-32.4	19.7	6.06e-01	0	44	0	594018304	22	4663
2026-01-22 11:38:57.11	51.49	56.49	-30.4	-33.0	19.3	6.05e-01	0	43	0	599785472	22	4879
2026-01-22 11:39:00.12	48.71	56.14	-30.2	-32.5	19.6	6.07e-01	0	44	0	605552640	22	4699
2026-01-22 11:39:03.13	46.00	55.73	-30.6	-33.7	18.9	6.07e-01	0	43	0	610795520	22	5124
2026-01-22 11:39:06.14	43.37	55.26	-30.1	-32.3	19.7	6.06e-01	0	44	0	616562688	22	4655
2026-01-22 11:39:09.15	40.83	54.74	-29.9	-31.8	20.0	6.06e-01	0	44	0	622329856	22	4483
2026-01-22 11:39:12.16	38.40	54.17	-29.5	-31.2	20.5	6.03e-01	0	44	0	628097024	21	4421
2026-01-22 11:39:15.18	36.05	53.56	-29.4	-31.2	20.7	6.07e-01	0	44	0	633339904	21	4396
2026-01-22 11:39:18.18	33.82	52.91	-29.2	-31.1	20.9	6.09e-01	0	43	0	639107072	20	4489
2026-01-22 11:39:21.18	31.69	52.23	-29.4	-32.0	20.8	6.05e-01	0	43	0	644874240	19	4880
2026-01-22 11:39:24.19	29.65	51.52	-29.3	-31.8	21.0	6.07e-01	0	43	0	650641408	19	4819
2026-01-22 11:39:27.20	27.71	50.78	-29.4	-32.0	20.9	6.06e-01	0	44	0	655884288	19	4857
2026-01-22 11:39:30.21	25.87	50.03	-29.7	-32.5	20.1	6.08e-01	0	43	0	661651456	20	4928
2026-01-22 11:39:33.21	24.12	49.26	-29.4	-31.6	20.7	6.06e-01	0	44	0	667418624	20	4645
2026-01-22 11:39:36.22	22.46	48.48	-29.2	-31.1	21.0	6.06e-01	0	44	0	673185792	20	4487
2026-01-22 11:39:39.23	20.88	47.68	-29.4	-31.7	20.6	6.06e-01	0	43	0	678428672	20	4664
2026-01-22 11:39:42.24	19.38	46.88	-29.3	-31.5	20.7	6.05e-01	0	43	0	684195840	20	4591
2026-01-22 11:39:45.25	17.95	46.08	-29.4	-31.5	20.7	6.05e-01	0	44	0	689963008	20	4622
2026-01-22 11:39:48.25	16.61	45.27	-29.2	-31.0	20.9	6.05e-01	0	44	0	695730176	20	4464
2026-01-22 11:39:51.25	15.33	44.47	-29.4	-31.6	20.6	6.07e-01	0	44	0	700973056	20	4645
2026-01-22 11:39:54.25	14.12	43.67	-29.6	-32.2	20.3	6.07e-01	0	44	0	706740224	20	4829
2026-01-22 11:39:57.26	12.96	42.87	-30.2	-33.1	19.4	6.06e-01	0	44	0	712507392	21	5026
2026-01-22 11:40:00.28	11.86	42.07	-30.4	-33.7	19.1	6.07e-01	0	44	0	718274560	21	5241
2026-01-22 11:40:03.29	10.81	41.28	-30.6	-33.8	18.7	6.07e-01	0	44	0	723517440	22	5191
2026-01-22 11:40:06.30	9.82	40.50	-30.1	-32.4	19.6	6.05e-01	0	44	0	729284608	22	4674
2026-01-22 11:40:09.31	8.87	39.73	-30.6	-33.7	18.7	6.05e-01	0	44	0	735051776	22	5125
2026-01-22 11:40:12.32	7.97	38.97	-30.8	-34.3	18.3	6.09e-01	0	44	0	740818944	22	5374
2026-01-22 11:40:15.32	7.11	38.22	-30.6	-33.8	18.6	6.08e-01	0	44	0	746586112	22	5199
2026-01-22 11:40:18.34	6.29	37.48	-31.6	-35.6	17.8	6.05e-01	0	44	0	751828992	23	5730
2026-01-22 11:40:21.34	5.51	36.75	-30.0	-32.1	19.7	6.06e-01	0	44	0	757596160	22	4592
2026-01-22 11:40:24.34	4.77	36.03	-30.5	-33.5	18.8	6.08e-01	0	44	0	763363328	22	5071
2026-01-22 11:40:27.35	4.05	35.32	-30.0	-32.1	19.6	6.08e-01	0	44	0	769130496	22	4607
2026-01-22 11:40:30.37	3.37	34.62	-29.8	-32.3	19.8	6.07e-01	0	44	0	774373376	21	4759
2026-01-22 11:40:33.38	2.72	33.94	-29.5	-31.4	20.3	6.05e-01	0	44	0	780140544	21	4488
2026-01-22 11:40:36.39	2.09	33.27	-29.4	-31.7	20.4	6.06e-01	0	44	0	785907712	20	4692
2026-01-22 11:40:39.38	1.50	32.61	-29.4	-31.7	20.3	6.09e-01	0	44	0	791674880	20	4708
2026-01-22 11:40:42.39	0.92	31.96	-29.3	-31.5	20.4	6.09e-01	0	44	0	796917760	20	4630
2026-01-22 11:40:45.40	0.37	31.33	-29.0	-30.7	20.9	6.07e-01	0	44	0	802684928	20	4389
2026-01-22 11:40:48.40	359.84	30.71	-29.1	-31.1	20.6	6.04e-01	0	44	0	808452096	20	4529
2026-01-22 11:40:51.40	359.34	30.09	-29.1	-31.1	20.6	6.07e-01	0	44	0	814219264	20	4533
2026-01-22 11:40:54.42	358.85	29.49	-29.2	-31.1	20.6	6.03e-01	0	44	0	819462144	20	4513
2026-01-22 11:40:57.42	358.38	28.90	-29.3	-31.4	20.4	6.07e-01	0	44	0	825229312	20	4611
2026-01-22 11:41:00.43	357.93	28.32	-29.1	-31.1	20.6	6.08e-01	0	43	0	830996480	20	4508
2026-01-22 11:41:03.44	357.49	27.75	-29.3	-31.4	20.5	6.04e-01	0	43	0	836763648	20	4598
2026-01-22 11:41:06.45	357.07	27.20	-29.6	-32.1	20.0	6.07e-01	0	44	0	842006528	20	4851
2026-01-22 11:41:09.47	356.67	26.65	-29.6	-32.4	19.8	6.00e-01	0	44	0	847773696	20	4936
2026-01-22 11:41:12.47	356.28	26.11	-29.6	-32.2	19.9	6.01e-01	0	44	0	853540864	20	4879
2026-01-22 11:41:15.48	355.90	25.58	-29.4	-31.7	20.2	6.01e-01	0	44	0	859308032	20	4717
2026-01-22 11:41:18.49	355.54	25.07	-29.5	-31.9	20.1	6.00e-01	0	44	0	864550912	20	4774
2026-01-22 11:41:21.50	355.19	24.56	-29.6	-32.2	19.8	6.00e-01	0	44	0	870318080	20	4884
2026-01-22 11:41:24.52	354.85	24.06	-29.9	-33.0	19.3	6.01e-01	0	43	0	876085248	20	5140
2026-01-22 11:41:27.52	354.53	23.57	-30.0	-33.2	19.2	6.02e-01	0	44	0	881852416	20	5238
2026-01-22 11:41:30.54	354.21	23.09	-30.1	-33.5	19.1	6.05e-01	0	44	0	887619584	20	5331
2026-01-22 11:41:33.55	353.90	22.62	-29.7	-32.0	19.6	6.03e-01	0	44	0	892862464	21	4712
2026-01-22 11:41:36.55	353.61	22.16	-29.7	-32.1	19.5	5.99e-01	0	44	0	898629632	21	4727
2026-01-22 11:41:39.57	353.32	21.70	-29.8	-32.4	19.3	6.02e-01	0	44	0	904396800	21	4828
2026-01-22 11:41:42.57	353.04	21.25	-29.7	-32.1	19.5	6.06e-01	0	44	0	910163968	21	4743
2026-01-22 11:41:45.58	352.77	20.81	-29.7	-32.0	19.5	6.02e-01	0	44	0	915406848	21	4706
2026-01-22 11:41:48.59	352.51	20.38	-29.8	-32.2	19.4	6.04e-01	0	44	0	921174016	21	4796
2026-01-22 11:41:51.59	352.26	19.96	-29.9	-32.5	19.2	6.02e-01	0	44	0	926941184	21	4890
2026-01-22 11:41:54.59	352.02	19.54	-29.8	-32.3	19.3	6.04e-01	0	44	0	932708352	21	4825
2026-01-22 11:41:57.60	351.78	19.13	-29.7	-32.0	19.5	6.02e-01	0	44	0	937951232	21	4735
2026-01-22 11:42:00.62	351.54	18.73	-29.7	-32.0	19.5	6.02e-01	0	44	0	943718400	21	4726
2026-01-22 11:42:03.63	351.32	18.33	-29.7	-32.1	19.5	6.02e-01	0	44	0	949485568	21	4743
2026-01-22 11:42:06.62	351.10	17.95	-29.5	-31.7	19.6	6.01e-01	0	44	0	955252736	21	4630
2026-01-22 11:42:09.63	350.89	17.56	-29.6	-32.0	19.4	6.03e-01	0	44	0	960495616	21	4721
2026-01-22 11:42:12.63	350.68	17.19	-29.8	-32.4	19.2	6.03e-01	0	44	0	966262784	21	4840
2026-01-22 11:42:15.64	350.48	16.81	-29.6	-32.0	19.4	6.03e-01	0	44	0	972029952	21	4719
2026-01-22 11:42:18.65	350.29	16.45	-29.7	-32.3	19.2	6.03e-01	0	44	0	977797120	21	4818
2026-01-22 11:42:21.65	350.10	16.09	-29.6	-31.9	19.5	6.03e-01	0	44	0	983040000	21	4683
2026-01-22 11:42:24.66	349.91	15.73	-29.6	-31.8	19.5	6.01e-01	0	44	0	988807168	21	4679
2026-01-22 11:42:27.68	349.73	15.38	-29.6	-32.0	19.3	6.04e-01	0	44	0	994574336	21	4750
2026-01-22 11:42:30.67	349.56	15.04	-29.7	-32.2	19.2	6.04e-01	0	44	0	1000341504	21	4801
2026-01-22 11:42:33.68	349.39	14.70	-29.7	-32.2	19.2	5.98e-01	0	44	0	1005584384	21	4807
2026-01-22 11:42:36.69	349.22	14.37	-29.7	-32.2	19.2	6.03e-01	0	44	0	1011351552	21	4798
2026-01-22 11:42:39.70	349.06	14.04	-29.6	-32.0	19.2	6.00e-01	0	44	0	1017118720	21	4748
2026-01-22 11:42:42.71	348.90	13.71	-29.6	-32.1	19.2	6.07e-01	0	44	0	1022885888	21	4790
2026-01-22 11:42:45.72	348.75	13.39	-29.6	-32.1	19.2	6.03e-01	0	44	0	1028128768	21	4786
2026-01-22 11:42:48.72	348.60	13.08	-29.8	-32.5	18.9	6.03e-01	0	44	0	1033895936	21	4912
2026-01-22 11:42:51.73	348.45	12.77	-29.9	-32.8	18.7	6.06e-01	0	44	0	1039663104	21	5030
2026-01-22 11:42:54.73	348.31	12.46	-29.7	-32.2	19.1	6.00e-01	0	44	0	1045430272	21	4820
2026-01-22 11:42:57.74	348.17	12.16	-29.8	-32.6	18.8	6.03e-01	0	44	0	1050673152	21	4980
2026-01-22 11:43:00.75	348.03	11.86	-29.6	-32.2	19.1	6.03e-01	0	44	0	1056440320	21	4810
2026-01-22 11:43:03.77	347.89	11.56	-29.6	-32.1	19.0	6.00e-01	0	44	0	1062207488	21	4809
2026-01-22 11:43:06.77	347.76	11.27	-29.7	-32.3	18.9	6.03e-01	0	44	0	1067974656	21	4868
2026-01-22 11:43:09.78	347.64	10.98	-29.9	-32.8	18.6	6.03e-01	0	44	0	1073217536	21	5055
2026-01-22 11:43:12.79	347.51	10.70	-29.9	-32.8	18.6	6.00e-01	0	43	0	1078984704	21	5057
2026-01-22 11:43:15.80	347.39	10.42	-29.9	-32.8	18.5	6.04e-01	0	44	0	1084751872	21	5067
2026-01-22 11:43:18.81	347.27	10.14	-29.9	-33.1	18.4	6.02e-01	0	44	0	1090519040	21	5162
2026-01-22 11:43:21.80	347.16	9.87	-29.8	-32.8	18.6	6.03e-01	0	44	0	1095761920	21	5042
2026-01-22 11:43:24.82	347.04	9.59	-29.9	-33.1	18.3	6.02e-01	0	44	0	1101529088	21	5169
2026-01-22 11:43:27.83	346.93	9.33	-30.0	-33.4	18.1	6.05e-01	0	44	0	1107296256	21	5285
2026-01-22 11:43:30.83	346.82	9.06	-30.1	-33.4	18.0	6.02e-01	0	44	0	1113063424	21	5308
2026-01-22 11:43:33.83	346.72	8.80	-30.2	-33.8	17.8	6.00e-01	0	44	0	1118306304	21	5460
2026-01-22 11:43:36.84	346.61	8.54	-30.4	-34.3	17.4	6.03e-01	0	44	0	1124073472	21	5695
2026-01-22 11:43:39.84	346.51	8.29	-30.1	-33.5	17.9	6.04e-01	0	44	0	1129840640	21	5364
2026-01-22 11:43:42.85	346.41	8.03	-30.1	-33.7	17.7	6.04e-01	0	44	0	1135607808	21	5450
2026-01-22 11:43:45.85	346.31	7.78	-30.3	-34.2	17.4	6.03e-01	0	44	0	1140850688	21	5641
2026-01-22 11:43:48.85	346.22	7.54	-30.2	-34.0	17.4	6.02e-01	0	44	0	1146617856	21	5590
2026-01-22 11:43:51.86	346.12	7.29	-30.4	-34.6	17.0	6.02e-01	0	44	0	1152385024	21	5837
2026-01-22 11:43:54.86	346.03	7.05	-33.2	-46.1	4.3	7.31e-01	0	44	104	1157103616	27	15866

#Closed at: 2026-01-22 11:43:57
#Recorded file [1157 MB]: D:/data/31010_260122_143337.dat