passes_logs/2026/01/22/R2M6_AANII_01/R2M6_AANII_01__20260122_082821_NOAA_21_JPSS-2_rec.log

#Pass ID: 20260122_082821_NOAA 21 (JPSS-2)
#Satellite: NOAA 21 (JPSS-2)
#Configuration: NOAA 21
#almurnet v.1.7.20240730
#Start time: 2026-01-22 08:28:20

#Version: 2.2.20231116
#Station: R2M6_AANII_01
#Location: 30.233357 lon 59.946436 lat
#TLE: 1 54234U 22150A   26021.42686626  .00000211  00000+0  12107-3 0  9996
#TLE: 2 54234  98.7506 322.2490 0000636 241.9299 118.1812 14.19537149165725

#Time	Az	El	Level	Level2	SNR	BER	BlckErr	Temp	State	Recorded	gain1	gain2
2026-01-22 08:28:20.78	103.06	6.97	-31.3	-37.7	4.2	1.45e+00	0	40	0	0	23	7486
2026-01-22 08:28:23.79	102.80	7.17	-30.3	-34.0	8.8	3.03e-02	0	41	0	3145728	21	5565
2026-01-22 08:28:26.82	102.52	7.37	-30.3	-34.7	8.7	2.80e-02	0	41	0	12582912	20	5946
2026-01-22 08:28:29.83	102.25	7.57	-30.3	-34.2	8.7	4.07e-02	0	41	0	22020096	21	5608
2026-01-22 08:28:32.83	101.97	7.76	-29.3	-31.6	10.9	3.58e-03	0	41	0	30408704	20	4704
2026-01-22 08:28:35.84	101.69	7.96	-28.7	-30.9	12.1	2.72e-04	0	41	0	40894464	18	4644
2026-01-22 08:28:38.85	101.41	8.16	-28.8	-31.1	11.9	4.77e-04	0	41	0	49283072	18	4732
2026-01-22 08:28:41.86	101.12	8.36	-28.5	-30.9	12.4	1.41e-04	0	41	0	58720256	17	4778
2026-01-22 08:28:44.87	100.82	8.57	-28.1	-30.1	12.8	5.66e-04	0	41	0	68157440	17	4512
2026-01-22 08:28:47.88	100.52	8.77	-28.0	-29.6	13.3	1.60e-05	0	41	0	77594624	17	4339
2026-01-22 08:28:50.88	100.22	8.97	-28.1	-29.9	13.1	3.89e-05	0	41	0	87031808	17	4440
2026-01-22 08:28:53.89	99.92	9.18	-27.9	-29.3	13.5	6.80e-06	0	41	0	96468992	17	4244
2026-01-22 08:28:56.90	99.60	9.38	-28.0	-30.1	13.4	1.52e-05	0	42	0	105906176	16	4578
2026-01-22 08:28:59.93	99.29	9.59	-27.9	-29.9	13.5	2.82e-05	0	42	0	115343360	16	4539
2026-01-22 08:29:02.92	98.97	9.80	-28.0	-30.2	13.3	1.37e-05	0	42	0	124780544	16	4622
2026-01-22 08:29:05.93	98.64	10.00	-28.0	-30.2	13.3	1.90e-05	0	42	0	134217728	16	4622
2026-01-22 08:29:08.94	98.31	10.21	-27.9	-30.1	13.3	1.06e-05	0	42	0	143654912	16	4628
2026-01-22 08:29:11.95	97.98	10.42	-27.9	-29.9	13.6	8.30e-06	0	42	0	153092096	16	4534
2026-01-22 08:29:14.97	97.64	10.63	-27.7	-29.4	13.9	4.50e-06	0	42	0	162529280	16	4383
2026-01-22 08:29:17.98	97.29	10.85	-28.0	-30.0	13.6	9.90e-06	0	42	0	171966464	16	4563
2026-01-22 08:29:20.99	96.94	11.06	-27.6	-29.2	14.2	3.00e-06	0	42	0	181403648	16	4290
2026-01-22 08:29:24.00	96.59	11.27	-27.5	-29.4	14.2	7.00e-07	0	42	0	190840832	15	4480
2026-01-22 08:29:27.01	96.23	11.49	-27.5	-29.4	14.1	7.00e-07	0	42	0	200278016	15	4483
2026-01-22 08:29:30.02	95.86	11.70	-27.7	-29.8	13.9	3.80e-06	0	42	0	209715200	15	4598
2026-01-22 08:29:33.05	95.49	11.92	-27.6	-29.6	14.1	3.80e-06	0	42	0	219152384	15	4531
2026-01-22 08:29:36.06	95.11	12.13	-27.7	-29.8	14.0	1.50e-06	0	42	0	228589568	15	4591
2026-01-22 08:29:39.07	94.73	12.35	-27.5	-29.3	14.3	0.00e+00	0	42	0	238026752	15	4428
2026-01-22 08:29:42.08	94.34	12.57	-27.4	-29.2	14.4	6.88e-04	0	42	0	247463936	15	4406
2026-01-22 08:29:45.08	93.95	12.78	-27.5	-29.5	14.3	7.00e-07	0	42	0	256901120	15	4487
2026-01-22 08:29:48.10	93.55	13.00	-27.4	-29.2	14.5	2.20e-06	0	42	0	266338304	15	4393
2026-01-22 08:29:51.11	93.14	13.22	-27.2	-29.0	14.5	1.50e-06	0	42	0	275775488	15	4396
2026-01-22 08:29:54.12	92.73	13.44	-27.6	-29.7	14.2	2.20e-06	0	42	0	285212672	15	4557
2026-01-22 08:29:57.14	92.31	13.66	-27.6	-29.4	14.4	6.80e-06	0	42	0	294649856	15	4471
2026-01-22 08:30:00.14	91.89	13.88	-27.4	-29.2	14.6	0.00e+00	0	43	0	304087040	15	4400
2026-01-22 08:30:03.15	91.45	14.10	-27.5	-29.3	14.5	7.00e-07	0	42	0	313524224	15	4446
2026-01-22 08:30:06.16	91.02	14.32	-27.6	-29.6	14.5	9.90e-06	0	42	0	322961408	15	4500
2026-01-22 08:30:09.17	90.57	14.55	-27.7	-29.7	14.4	3.00e-06	0	42	0	332398592	15	4541
2026-01-22 08:30:12.17	90.12	14.77	-27.6	-29.5	14.5	2.20e-06	0	42	0	341835776	15	4505
2026-01-22 08:30:15.18	89.66	14.99	-27.5	-29.2	14.7	0.00e+00	0	43	0	350224384	15	4380
2026-01-22 08:30:18.18	89.20	15.21	-27.5	-29.3	14.7	0.00e+00	0	42	0	359661568	15	4406
2026-01-22 08:30:21.19	88.73	15.43	-27.6	-29.4	14.6	7.00e-07	0	42	0	370147328	15	4457
2026-01-22 08:30:24.21	88.25	15.66	-27.6	-29.4	14.7	7.00e-07	0	43	0	378535936	15	4436
2026-01-22 08:30:27.23	87.76	15.88	-27.4	-29.1	14.8	0.00e+00	0	42	0	387973120	15	4349
2026-01-22 08:30:30.24	87.26	16.10	-27.5	-29.2	14.8	0.00e+00	0	43	0	397410304	15	4393
2026-01-22 08:30:33.25	86.76	16.32	-27.5	-29.3	14.7	7.00e-07	0	43	0	406847488	15	4421
2026-01-22 08:30:36.26	86.25	16.54	-27.5	-29.3	14.8	0.00e+00	0	43	0	416284672	15	4407
2026-01-22 08:30:39.28	85.74	16.77	-27.2	-28.7	15.1	0.00e+00	0	42	0	425721856	15	4235
2026-01-22 08:30:42.28	85.21	16.99	-27.2	-28.5	15.2	0.00e+00	0	43	0	435159040	15	4195
2026-01-22 08:30:45.29	84.68	17.21	-27.4	-28.9	15.0	0.00e+00	0	43	0	444596224	15	4306
2026-01-22 08:30:48.29	84.14	17.43	-27.1	-28.8	15.3	6.83e-04	0	43	0	454033408	14	4383
2026-01-22 08:30:51.31	83.59	17.64	-26.9	-28.4	15.6	0.00e+00	0	43	0	463470592	14	4269
2026-01-22 08:30:54.32	83.04	17.86	-26.9	-28.3	15.7	0.00e+00	0	43	0	472907776	14	4228
2026-01-22 08:30:57.33	82.47	18.08	-27.0	-28.7	15.5	0.00e+00	0	43	0	482344960	14	4357
2026-01-22 08:31:00.32	81.90	18.30	-27.0	-28.6	15.5	0.00e+00	0	43	0	491782144	14	4316
2026-01-22 08:31:03.33	81.32	18.51	-27.1	-28.9	15.4	3.47e-04	0	43	0	501219328	14	4397
2026-01-22 08:31:06.34	80.73	18.72	-27.4	-29.5	15.0	7.00e-07	0	43	0	510656512	14	4584
2026-01-22 08:31:09.35	80.14	18.94	-27.2	-29.1	15.3	0.00e+00	0	43	0	520093696	14	4470
2026-01-22 08:31:12.36	79.53	19.15	-27.5	-29.2	15.0	0.00e+00	0	43	0	529530880	15	4367
2026-01-22 08:31:15.37	78.92	19.36	-27.2	-28.5	15.4	0.00e+00	0	43	0	538968064	15	4191
2026-01-22 08:31:18.40	78.29	19.57	-27.1	-28.4	15.4	0.00e+00	0	43	0	548405248	15	4152
2026-01-22 08:31:21.40	77.66	19.77	-27.0	-28.1	15.6	0.00e+00	0	43	0	557842432	15	4069
2026-01-22 08:31:24.40	77.02	19.97	-27.1	-28.8	15.5	0.00e+00	0	43	0	567279616	14	4368
2026-01-22 08:31:27.43	76.37	20.18	-27.2	-29.0	15.4	0.00e+00	0	43	0	576716800	14	4426
2026-01-22 08:31:30.45	75.71	20.38	-27.0	-28.6	15.6	0.00e+00	0	43	0	586153984	14	4327
2026-01-22 08:31:33.46	75.05	20.57	-27.2	-29.0	15.4	0.00e+00	0	43	0	595591168	14	4422
2026-01-22 08:31:36.46	74.37	20.77	-27.0	-28.5	15.7	0.00e+00	0	43	0	605028352	14	4288
2026-01-22 08:31:39.46	73.69	20.96	-27.0	-28.6	15.6	0.00e+00	0	43	0	614465536	14	4317
2026-01-22 08:31:42.47	73.00	21.15	-26.8	-28.0	15.9	0.00e+00	0	43	0	623902720	14	4163
2026-01-22 08:31:45.48	72.30	21.33	-26.8	-28.0	16.0	0.00e+00	0	43	0	633339904	14	4154
2026-01-22 08:31:48.49	71.60	21.52	-26.8	-28.0	16.0	0.00e+00	0	43	0	642777088	14	4151
2026-01-22 08:31:51.50	70.88	21.69	-27.0	-28.5	15.7	0.00e+00	0	43	0	652214272	14	4288
2026-01-22 08:31:54.51	70.16	21.87	-27.2	-29.0	15.5	2.50e-04	0	43	0	661651456	14	4417
2026-01-22 08:31:57.52	69.42	22.04	-27.3	-29.2	15.3	0.00e+00	0	43	0	671088640	14	4494
2026-01-22 08:32:00.53	68.68	22.21	-27.0	-28.5	15.7	0.00e+00	0	43	0	679477248	14	4283
2026-01-22 08:32:03.55	67.93	22.37	-26.9	-28.4	15.8	0.00e+00	0	43	0	689963008	14	4263
2026-01-22 08:32:06.57	67.17	22.53	-26.7	-27.9	16.1	0.00e+00	0	43	0	698351616	14	4120
2026-01-22 08:32:09.58	66.41	22.69	-26.8	-28.0	16.0	0.00e+00	0	43	0	707788800	14	4145
2026-01-22 08:32:12.58	65.64	22.84	-27.0	-28.6	15.7	7.00e-07	0	43	0	718274560	14	4304
2026-01-22 08:32:15.59	64.86	22.98	-26.9	-28.4	15.8	0.00e+00	0	43	0	726663168	14	4256
2026-01-22 08:32:18.59	64.08	23.12	-26.8	-28.0	16.1	0.00e+00	0	43	0	736100352	14	4145
2026-01-22 08:32:21.60	63.28	23.26	-27.0	-28.5	15.8	0.00e+00	0	43	0	745537536	14	4270
2026-01-22 08:32:24.60	62.48	23.38	-26.8	-28.2	16.0	0.00e+00	0	43	0	754974720	14	4188
2026-01-22 08:32:27.59	61.68	23.51	-26.6	-27.7	16.2	0.00e+00	0	43	0	764411904	14	4066
2026-01-22 08:32:30.61	60.87	23.63	-26.7	-28.3	16.1	0.00e+00	0	43	0	773849088	13	4338
2026-01-22 08:32:33.63	60.05	23.74	-26.7	-28.4	16.1	0.00e+00	0	43	0	783286272	13	4374
2026-01-22 08:32:36.64	59.22	23.85	-26.8	-28.6	16.0	0.00e+00	0	43	0	792723456	13	4436
2026-01-22 08:32:39.64	58.39	23.95	-26.7	-28.4	16.1	0.00e+00	0	43	0	802160640	13	4382
2026-01-22 08:32:42.66	57.56	24.04	-26.6	-28.1	16.3	0.00e+00	0	43	0	811597824	13	4275
2026-01-22 08:32:45.66	56.72	24.13	-26.8	-28.5	16.0	0.00e+00	0	43	0	821035008	13	4398
2026-01-22 08:32:48.68	55.87	24.21	-26.5	-27.8	16.4	0.00e+00	0	43	0	830472192	13	4204
2026-01-22 08:32:51.67	55.03	24.29	-26.4	-27.6	16.5	0.00e+00	0	43	0	839909376	13	4158
2026-01-22 08:32:54.68	54.18	24.36	-26.2	-27.2	16.7	0.00e+00	0	43	0	849346560	13	4054
2026-01-22 08:32:57.69	53.32	24.42	-26.3	-27.5	16.6	1.44e-05	0	43	0	858783744	13	4112
2026-01-22 08:33:00.71	52.46	24.48	-26.5	-27.9	16.4	1.29e-05	0	43	0	868220928	13	4221
2026-01-22 08:33:03.72	51.59	24.52	-26.6	-28.2	16.2	0.00e+00	0	43	0	877658112	13	4298
2026-01-22 08:33:06.73	50.73	24.57	-26.7	-28.2	16.2	0.00e+00	0	43	0	887095296	13	4315
2026-01-22 08:33:09.75	49.86	24.60	-26.8	-28.6	16.0	0.00e+00	0	43	0	896532480	13	4404
2026-01-22 08:33:12.77	48.99	24.63	-26.7	-28.3	16.1	0.00e+00	0	43	0	905969664	13	4336
2026-01-22 08:33:15.79	48.12	24.65	-26.6	-28.1	16.3	0.00e+00	0	43	0	915406848	13	4291
2026-01-22 08:33:18.80	47.25	24.66	-26.6	-28.2	16.2	0.00e+00	0	43	0	924844032	13	4310
2026-01-22 08:33:21.82	46.37	24.67	-26.7	-28.3	16.1	0.00e+00	0	43	0	934281216	13	4337
2026-01-22 08:33:24.84	45.50	24.66	-26.8	-28.6	16.0	0.00e+00	0	43	0	943718400	13	4425
2026-01-22 08:33:27.85	44.63	24.66	-26.8	-28.1	16.0	0.00e+00	0	43	0	953155584	14	4176
2026-01-22 08:33:30.86	43.76	24.64	-27.1	-28.7	15.7	0.00e+00	0	43	0	962592768	14	4332
2026-01-22 08:33:33.88	42.89	24.62	-26.7	-27.8	16.2	0.00e+00	0	43	0	972029952	14	4087
2026-01-22 08:33:36.88	42.02	24.59	-26.3	-27.6	16.6	0.00e+00	0	43	0	981467136	13	4140
2026-01-22 08:33:39.90	41.15	24.55	-26.4	-27.6	16.5	0.00e+00	0	43	0	990904320	13	4150
2026-01-22 08:33:42.91	40.29	24.50	-26.2	-27.2	16.7	0.00e+00	0	43	0	1000341504	13	4052
2026-01-22 08:33:45.91	39.43	24.45	-26.5	-27.8	16.4	0.00e+00	0	43	0	1009778688	13	4204
2026-01-22 08:33:48.92	38.58	24.39	-26.4	-27.7	16.5	0.00e+00	0	43	0	1019215872	13	4173
2026-01-22 08:33:51.93	37.72	24.33	-26.5	-27.8	16.4	0.00e+00	0	43	0	1027604480	13	4206
2026-01-22 08:33:54.94	36.87	24.26	-26.4	-27.7	16.4	0.00e+00	0	43	0	1038090240	13	4181
2026-01-22 08:33:57.95	36.03	24.18	-26.6	-28.1	16.3	0.00e+00	0	43	0	1046478848	13	4277
2026-01-22 08:34:00.98	35.18	24.09	-26.9	-28.8	15.8	0.00e+00	0	43	0	1055916032	13	4490
2026-01-22 08:34:03.99	34.34	24.00	-26.9	-28.8	15.8	0.00e+00	0	43	0	1066401792	13	4489
2026-01-22 08:34:07.00	33.51	23.90	-27.0	-28.4	15.8	0.00e+00	0	43	0	1074790400	14	4267
2026-01-22 08:34:10.00	32.69	23.80	-26.8	-28.1	16.0	0.00e+00	0	43	0	1084227584	14	4182
2026-01-22 08:34:13.01	31.87	23.69	-26.9	-28.4	15.8	0.00e+00	0	43	0	1093664768	14	4254
2026-01-22 08:34:16.03	31.05	23.57	-26.1	-27.6	16.1	1.14e-05	0	43	0	1103101952	13	4275
2026-01-22 08:34:19.04	30.24	23.45	-26.7	-28.4	16.1	0.00e+00	0	43	0	1112539136	13	4360
2026-01-22 08:34:22.06	29.44	23.33	-26.7	-28.4	16.0	0.00e+00	0	43	0	1121976320	13	4379
2026-01-22 08:34:25.06	28.64	23.20	-26.8	-28.5	16.0	0.00e+00	0	43	0	1131413504	13	4410
2026-01-22 08:34:28.07	27.86	23.06	-26.8	-28.6	15.9	0.00e+00	0	43	0	1140850688	13	4427
2026-01-22 08:34:31.08	27.07	22.92	-26.6	-28.2	16.1	0.00e+00	0	43	0	1150287872	13	4313
2026-01-22 08:34:34.08	26.30	22.77	-26.9	-28.7	15.8	0.00e+00	0	43	0	1159725056	13	4463
2026-01-22 08:34:37.10	25.54	22.62	-26.6	-28.2	16.1	0.00e+00	0	43	0	1169162240	13	4328
2026-01-22 08:34:40.12	24.77	22.46	-26.8	-28.6	15.9	0.00e+00	0	43	0	1178599424	13	4430
2026-01-22 08:34:43.12	24.03	22.30	-26.8	-28.5	15.9	0.00e+00	0	43	0	1188036608	13	4402
2026-01-22 08:34:46.13	23.28	22.13	-26.7	-28.4	16.0	0.00e+00	0	43	0	1197473792	13	4368
2026-01-22 08:34:49.14	22.55	21.97	-26.8	-28.0	15.9	0.00e+00	0	43	0	1206910976	14	4161
2026-01-22 08:34:52.15	21.82	21.79	-26.9	-28.2	15.8	0.00e+00	0	43	0	1216348160	14	4208
2026-01-22 08:34:55.17	21.10	21.62	-26.9	-28.3	15.7	0.00e+00	0	43	0	1225785344	14	4232
2026-01-22 08:34:58.16	20.40	21.44	-26.7	-27.8	16.0	0.00e+00	0	43	0	1235222528	14	4094
2026-01-22 08:35:01.17	19.69	21.25	-26.9	-28.2	15.8	0.00e+00	0	43	0	1244659712	14	4212
2026-01-22 08:35:04.18	19.00	21.07	-26.8	-28.0	15.9	0.00e+00	0	43	0	1254096896	14	4148
2026-01-22 08:35:07.20	18.31	20.88	-26.7	-27.8	16.0	0.00e+00	0	43	0	1263534080	14	4098
2026-01-22 08:35:10.21	17.64	20.69	-27.2	-29.0	15.4	0.00e+00	0	43	0	1272971264	14	4429
2026-01-22 08:35:13.22	16.97	20.49	-27.1	-28.8	15.5	0.00e+00	0	43	0	1282408448	14	4362
2026-01-22 08:35:16.22	16.31	20.29	-27.1	-28.7	15.5	0.00e+00	0	43	0	1291845632	14	4351
2026-01-22 08:35:19.24	15.66	20.09	-27.1	-28.7	15.5	0.00e+00	0	43	0	1301282816	14	4354
2026-01-22 08:35:22.25	15.02	19.89	-26.8	-28.1	15.6	0.00e+00	0	43	0	1310720000	14	4179
2026-01-22 08:35:25.26	14.38	19.69	-26.6	-27.7	15.9	0.00e+00	0	43	0	1320157184	14	4084
2026-01-22 08:35:28.27	13.76	19.48	-26.8	-28.2	15.7	0.00e+00	0	43	0	1329594368	14	4203
2026-01-22 08:35:31.28	13.14	19.27	-27.0	-28.5	15.6	0.00e+00	0	43	0	1339031552	14	4282
2026-01-22 08:35:34.29	12.54	19.06	-26.7	-27.9	15.9	0.00e+00	0	43	0	1348468736	14	4121
2026-01-22 08:35:37.30	11.94	18.85	-26.5	-27.5	16.0	0.00e+00	0	43	0	1357905920	14	4036
2026-01-22 08:35:40.31	11.35	18.64	-26.6	-28.2	15.9	7.00e-07	0	43	0	1367343104	13	4320
2026-01-22 08:35:43.32	10.76	18.43	-26.9	-28.8	15.7	0.00e+00	0	43	0	1375731712	13	4493
2026-01-22 08:35:46.33	10.19	18.21	-26.9	-28.9	15.4	0.00e+00	0	43	0	1385168896	13	4514
2026-01-22 08:35:49.33	9.63	18.00	-27.2	-29.0	15.1	0.00e+00	0	43	0	1394606080	14	4425
2026-01-22 08:35:52.33	9.07	17.78	-27.1	-28.8	15.2	0.00e+00	0	43	0	1404043264	14	4368
2026-01-22 08:35:55.35	8.52	17.56	-27.4	-29.5	14.8	7.00e-07	0	43	0	1413480448	14	4566
2026-01-22 08:35:58.37	7.97	17.34	-27.2	-29.1	14.9	0.00e+00	0	43	0	1422917632	14	4460
2026-01-22 08:36:01.38	7.44	17.12	-27.2	-29.0	14.9	0.00e+00	0	43	0	1432354816	14	4447
2026-01-22 08:36:04.38	6.92	16.91	-27.2	-28.9	15.1	0.00e+00	0	43	0	1441792000	14	4410
2026-01-22 08:36:07.38	6.40	16.69	-27.3	-29.2	15.1	0.00e+00	0	43	0	1451229184	14	4485
2026-01-22 08:36:10.39	5.89	16.46	-27.4	-29.5	14.9	0.00e+00	0	43	0	1460666368	14	4570
2026-01-22 08:36:13.40	5.39	16.24	-27.4	-29.4	15.0	0.00e+00	0	43	0	1470103552	14	4546
2026-01-22 08:36:16.41	4.89	16.02	-27.5	-29.2	14.7	0.00e+00	0	43	0	1479540736	15	4379
2026-01-22 08:36:19.43	4.40	15.80	-27.4	-28.9	14.7	0.00e+00	0	43	0	1488977920	15	4305
2026-01-22 08:36:22.44	3.92	15.58	-27.3	-28.9	14.7	0.00e+00	0	43	0	1498415104	15	4284
2026-01-22 08:36:25.46	3.45	15.36	-27.4	-28.9	14.7	0.00e+00	0	43	0	1507852288	15	4300
2026-01-22 08:36:28.48	2.98	15.14	-27.6	-29.5	14.4	1.63e-04	0	43	0	1517289472	15	4472
2026-01-22 08:36:31.50	2.52	14.91	-27.5	-29.2	14.6	0.00e+00	0	43	0	1526726656	15	4392
2026-01-22 08:36:34.51	2.07	14.69	-27.6	-29.4	14.5	1.50e-06	0	43	0	1536163840	15	4441
2026-01-22 08:36:37.51	1.62	14.47	-27.5	-29.2	14.6	0.00e+00	0	43	0	1545601024	15	4377
2026-01-22 08:36:40.53	1.18	14.25	-27.8	-30.0	14.2	7.00e-07	0	43	0	1555038208	15	4609
2026-01-22 08:36:43.55	0.75	14.03	-27.8	-30.0	14.2	3.80e-06	0	43	0	1564475392	15	4638
2026-01-22 08:36:46.57	0.32	13.81	-27.8	-30.1	14.1	3.64e-04	0	43	0	1573912576	15	4667
2026-01-22 08:36:49.58	359.90	13.59	-27.8	-30.0	14.1	0.00e+00	0	43	0	1583349760	15	4646
2026-01-22 08:36:52.58	359.49	13.37	-27.6	-29.5	14.5	0.00e+00	0	43	0	1592786944	15	4475
2026-01-22 08:36:55.58	359.08	13.15	-27.8	-30.1	14.1	7.00e-07	0	43	0	1602224128	15	4653
2026-01-22 08:36:58.59	358.68	12.94	-28.3	-30.6	13.7	6.80e-06	0	43	0	1611661312	16	4701
2026-01-22 08:37:01.60	358.29	12.72	-28.4	-30.8	13.5	5.30e-06	0	43	0	1621098496	16	4774
2026-01-22 08:37:04.61	357.90	12.50	-28.0	-29.9	14.1	7.00e-07	0	43	0	1630535680	16	4474
2026-01-22 08:37:07.62	357.52	12.28	-27.9	-29.7	14.2	7.00e-07	0	43	0	1639972864	16	4419
2026-01-22 08:37:10.61	357.14	12.07	-27.9	-29.7	14.1	3.80e-06	0	43	0	1649410048	16	4429
2026-01-22 08:37:13.62	356.77	11.86	-28.1	-30.1	13.8	5.30e-06	0	43	0	1658847232	16	4535
2026-01-22 08:37:16.63	356.41	11.64	-28.2	-30.5	13.6	1.14e-05	0	43	0	1668284416	16	4665
2026-01-22 08:37:19.65	356.04	11.43	-28.2	-30.5	13.6	7.60e-06	0	43	0	1677721600	16	4664
2026-01-22 08:37:22.66	355.69	11.21	-27.8	-29.5	14.1	1.50e-06	0	43	0	1687158784	16	4370
2026-01-22 08:37:25.66	355.34	11.00	-27.4	-29.1	14.4	1.50e-06	0	43	0	1695547392	15	4381
2026-01-22 08:37:28.67	355.00	10.79	-27.7	-29.8	14.1	7.00e-07	0	43	0	1704984576	15	4571
2026-01-22 08:37:31.68	354.66	10.58	-28.2	-30.5	13.6	7.60e-06	0	43	0	1714421760	16	4665
2026-01-22 08:37:34.69	354.32	10.37	-28.6	-30.9	13.0	2.74e-04	0	43	0	1723858944	17	4692
2026-01-22 08:37:37.71	353.99	10.16	-28.7	-31.2	12.8	6.63e-05	0	43	0	1733296128	17	4785
2026-01-22 08:37:40.73	353.66	9.95	-28.5	-30.7	13.0	3.58e-05	0	43	0	1742733312	17	4645
2026-01-22 08:37:43.73	353.34	9.75	-28.2	-30.6	13.4	3.55e-04	0	43	0	1752170496	16	4702
2026-01-22 08:37:46.73	353.03	9.54	-28.2	-30.5	13.5	2.44e-05	0	43	0	1761607680	16	4676
2026-01-22 08:37:49.74	352.72	9.34	-28.3	-30.7	13.4	1.29e-05	0	43	0	1771044864	16	4741
2026-01-22 08:37:52.76	352.41	9.13	-28.3	-30.9	13.2	2.59e-05	0	43	0	1780482048	16	4817
2026-01-22 08:37:55.77	352.11	8.93	-28.5	-30.8	13.0	2.97e-05	0	43	0	1789919232	17	4659
2026-01-22 08:37:58.77	351.81	8.73	-28.7	-31.2	12.7	6.79e-05	0	43	0	1799356416	17	4797
2026-01-22 08:38:01.77	351.52	8.52	-28.8	-31.4	12.6	1.07e-04	0	43	0	1808793600	17	4862
2026-01-22 08:38:04.79	351.23	8.32	-28.8	-31.4	12.5	1.11e-04	0	43	0	1818230784	17	4889
2026-01-22 08:38:07.79	350.95	8.12	-28.8	-31.5	12.4	1.29e-04	0	43	0	1827667968	17	4924
2026-01-22 08:38:10.80	350.66	7.92	-28.5	-30.7	12.9	4.57e-05	0	44	0	1837105152	17	4637
2026-01-22 08:38:13.82	350.39	7.73	-28.6	-30.9	12.8	5.03e-05	0	43	0	1846542336	17	4721
2026-01-22 08:38:16.83	350.11	7.53	-28.6	-31.1	12.7	5.95e-05	0	43	0	1855979520	17	4766
2026-01-22 08:38:19.84	349.84	7.33	-28.9	-31.7	12.2	2.11e-04	0	44	0	1865416704	17	4985
2026-01-22 08:38:22.85	349.58	7.14	-29.0	-31.7	12.0	3.24e-04	0	43	0	1874853888	18	4862

#Closed at: 2026-01-22 08:38:25
#Recorded file [1876 MB]: D:/data/31010_260122_112822.dat