passes_logs/2026/01/22/R2M6_AANII_01/R2M6_AANII_01__20260122_221548_NOAA_21_JPSS-2_rec.log

#Pass ID: 20260122_221548_NOAA 21 (JPSS-2)
#Satellite: NOAA 21 (JPSS-2)
#Configuration: NOAA 21
#almurnet v.1.7.20240730
#Start time: 2026-01-22 22:15:47

#Version: 2.2.20231116
#Station: R2M6_AANII_01
#Location: 30.233357 lon 59.946436 lat
#TLE: 1 54234U 22150A   26022.41365820  .00000211  00000+0  12084-3 0  9990
#TLE: 2 54234  98.7507 323.2240 0000658 234.5287 125.5828 14.19537645165864

#Time	Az	El	Level	Level2	SNR	BER	BlckErr	Temp	State	Recorded	gain1	gain2
2026-01-22 22:15:47.42	35.98	6.96	-31.2	-36.4	4.5	1.41e+00	0	42	0	0	23	6539
2026-01-22 22:15:50.42	36.34	7.12	-31.1	-35.0	8.2	5.89e-02	0	42	0	3145728	23	5685
2026-01-22 22:15:53.43	36.70	7.27	-31.1	-34.9	8.3	5.23e-02	0	42	0	12582912	23	5620
2026-01-22 22:15:56.44	37.07	7.43	-30.6	-34.0	9.3	2.28e-02	0	42	0	22020096	22	5299
2026-01-22 22:15:59.44	37.44	7.58	-29.5	-31.8	11.5	1.11e-03	0	42	0	30408704	20	4693
2026-01-22 22:16:02.45	37.81	7.74	-29.4	-32.0	11.9	4.16e-04	0	42	0	39845888	19	4830
2026-01-22 22:16:05.46	38.19	7.89	-29.2	-31.4	12.2	2.04e-04	0	42	0	49283072	19	4643
2026-01-22 22:16:08.47	38.58	8.05	-29.3	-31.7	12.1	2.91e-04	0	42	0	58720256	19	4729
2026-01-22 22:16:11.48	38.96	8.20	-29.2	-31.4	12.3	2.81e-04	0	42	0	68157440	19	4649
2026-01-22 22:16:14.49	39.36	8.36	-28.9	-30.5	12.9	6.40e-05	0	42	0	77594624	19	4355
2026-01-22 22:16:17.49	39.75	8.51	-28.9	-30.7	12.8	6.10e-05	0	42	0	87031808	19	4409
2026-01-22 22:16:20.50	40.15	8.66	-28.9	-30.7	12.8	5.95e-05	0	42	0	96468992	19	4411
2026-01-22 22:16:23.51	40.55	8.82	-29.0	-30.8	12.7	7.01e-05	0	42	0	105906176	19	4431
2026-01-22 22:16:26.51	40.96	8.97	-28.7	-30.6	13.2	2.05e-05	0	43	0	115343360	18	4466
2026-01-22 22:16:29.52	41.37	9.12	-28.6	-30.3	13.4	1.90e-05	0	42	0	124780544	18	4394
2026-01-22 22:16:32.53	41.79	9.28	-28.6	-30.3	13.3	1.90e-05	0	43	0	134217728	18	4398
2026-01-22 22:16:35.54	42.21	9.43	-28.7	-30.5	13.3	1.83e-05	0	43	0	143654912	18	4433
2026-01-22 22:16:38.55	42.63	9.58	-28.6	-30.2	13.4	1.29e-05	0	43	0	153092096	18	4363
2026-01-22 22:16:41.56	43.06	9.73	-28.5	-30.1	13.6	6.80e-06	0	43	0	162529280	18	4306
2026-01-22 22:16:44.56	43.49	9.88	-28.4	-29.9	13.7	5.30e-06	0	43	0	171966464	18	4259
2026-01-22 22:16:47.57	43.93	10.03	-28.5	-30.2	13.5	1.52e-05	0	43	0	181403648	18	4345
2026-01-22 22:16:50.58	44.37	10.18	-28.6	-30.2	13.5	9.90e-06	0	43	0	190840832	18	4362
2026-01-22 22:16:53.59	44.82	10.33	-28.3	-30.1	13.9	1.50e-06	0	43	0	200278016	17	4412
2026-01-22 22:16:56.59	45.26	10.48	-28.2	-29.8	14.0	1.50e-06	0	43	0	209715200	17	4342
2026-01-22 22:16:59.60	45.72	10.63	-28.3	-30.1	13.9	3.80e-06	0	43	0	219152384	17	4411
2026-01-22 22:17:02.61	46.18	10.78	-28.2	-29.9	14.0	3.00e-06	0	43	0	228589568	17	4365
2026-01-22 22:17:05.62	46.64	10.92	-28.5	-30.5	13.6	8.30e-06	0	43	0	238026752	17	4549
2026-01-22 22:17:08.63	47.11	11.07	-28.5	-30.7	13.6	9.90e-06	0	43	0	247463936	17	4590
2026-01-22 22:17:11.64	47.58	11.22	-28.3	-30.1	13.9	1.07e-04	0	43	0	256901120	17	4414
2026-01-22 22:17:14.64	48.06	11.36	-28.3	-30.0	14.0	3.80e-06	0	43	0	266338304	17	4404
2026-01-22 22:17:17.66	48.54	11.50	-28.4	-30.4	13.8	7.39e-04	0	43	0	275775488	17	4502
2026-01-22 22:17:20.68	49.03	11.65	-28.7	-31.0	13.4	1.22e-05	0	43	0	285212672	17	4689
2026-01-22 22:17:23.69	49.52	11.79	-28.6	-30.7	13.6	1.20e-04	0	43	0	294649856	17	4601
2026-01-22 22:17:26.70	50.02	11.93	-28.7	-30.9	13.5	4.11e-05	0	43	0	303038464	17	4663
2026-01-22 22:17:29.71	50.52	12.07	-29.0	-31.6	13.0	7.70e-05	0	43	0	312475648	17	4907
2026-01-22 22:17:32.71	51.02	12.20	-28.8	-30.8	13.3	7.32e-05	0	43	0	321912832	18	4511
2026-01-22 22:17:35.72	51.53	12.34	-28.4	-29.6	14.0	2.54e-04	0	43	0	331350016	18	4169
2026-01-22 22:17:38.73	52.05	12.48	-28.2	-29.9	14.2	3.76e-04	0	43	0	340787200	17	4340
2026-01-22 22:17:41.75	52.57	12.61	-28.4	-30.2	14.0	1.50e-06	0	43	0	350224384	17	4455
2026-01-22 22:17:44.77	53.09	12.74	-28.5	-30.6	13.7	1.60e-05	0	43	0	359661568	17	4574
2026-01-22 22:17:47.79	53.62	12.88	-28.5	-30.4	13.8	7.60e-06	0	44	0	369098752	17	4508
2026-01-22 22:17:50.79	54.15	13.01	-28.4	-30.2	14.0	2.20e-06	0	43	0	378535936	17	4433
2026-01-22 22:17:53.80	54.69	13.13	-28.4	-30.2	14.0	2.20e-06	0	43	0	387973120	17	4443
2026-01-22 22:17:56.82	55.24	13.26	-28.5	-30.4	13.9	4.50e-06	0	43	0	397410304	17	4508
2026-01-22 22:17:59.83	55.78	13.39	-28.5	-30.5	13.8	8.30e-06	0	43	0	406847488	17	4543
2026-01-22 22:18:02.83	56.33	13.51	-28.2	-30.2	14.3	0.00e+00	0	44	0	416284672	16	4550
2026-01-22 22:18:05.84	56.89	13.63	-28.1	-29.9	14.5	7.00e-07	0	44	0	425721856	16	4465
2026-01-22 22:18:08.84	57.44	13.75	-28.2	-30.3	14.2	7.00e-07	0	44	0	435159040	16	4588
2026-01-22 22:18:11.86	58.01	13.87	-28.2	-30.4	14.2	1.50e-06	0	44	0	444596224	16	4593
2026-01-22 22:18:14.87	58.58	13.98	-28.2	-30.2	14.4	7.00e-07	0	44	0	454033408	16	4538
2026-01-22 22:18:17.89	59.15	14.10	-27.9	-29.5	14.7	0.00e+00	0	43	0	463470592	16	4343
2026-01-22 22:18:20.91	59.73	14.21	-27.9	-29.6	14.7	0.00e+00	0	43	0	472907776	16	4371
2026-01-22 22:18:23.91	60.31	14.32	-28.2	-30.2	14.3	0.00e+00	0	43	0	482344960	16	4544
2026-01-22 22:18:26.93	60.90	14.42	-28.2	-30.2	14.4	0.00e+00	0	43	0	491782144	16	4536
2026-01-22 22:18:29.94	61.49	14.53	-28.1	-29.9	14.5	0.00e+00	0	43	0	501219328	16	4456
2026-01-22 22:18:32.95	62.08	14.63	-28.1	-30.0	14.5	0.00e+00	0	44	0	510656512	16	4490
2026-01-22 22:18:35.96	62.68	14.73	-27.8	-29.7	14.7	7.00e-07	0	44	0	520093696	15	4528
2026-01-22 22:18:38.97	63.28	14.83	-27.8	-29.9	14.7	0.00e+00	0	44	0	529530880	15	4565
2026-01-22 22:18:41.99	63.89	14.92	-27.8	-29.9	14.7	7.00e-07	0	44	0	538968064	15	4577
2026-01-22 22:18:44.99	64.50	15.01	-27.9	-30.1	14.5	1.50e-06	0	44	0	548405248	15	4635
2026-01-22 22:18:48.00	65.11	15.10	-27.8	-29.8	14.7	0.00e+00	0	44	0	557842432	15	4548
2026-01-22 22:18:51.01	65.73	15.19	-27.5	-29.2	15.1	1.44e-03	0	44	0	567279616	15	4380
2026-01-22 22:18:54.02	66.35	15.27	-27.9	-30.0	14.6	0.00e+00	0	44	0	576716800	15	4617
2026-01-22 22:18:57.04	66.97	15.36	-27.8	-29.8	14.7	1.22e-03	0	44	0	586153984	15	4560
2026-01-22 22:19:00.06	67.60	15.43	-28.0	-30.3	14.5	7.31e-04	0	44	0	595591168	15	4693
2026-01-22 22:19:03.07	68.23	15.51	-27.6	-29.4	15.0	6.81e-04	0	44	0	605028352	15	4424
2026-01-22 22:19:06.08	68.86	15.58	-27.9	-30.2	14.5	9.15e-04	0	44	0	614465536	15	4657
2026-01-22 22:19:09.08	69.50	15.65	-27.7	-29.6	14.8	4.89e-04	0	44	0	623902720	15	4493
2026-01-22 22:19:12.08	70.13	15.72	-27.8	-30.0	14.6	7.90e-04	0	44	0	633339904	15	4601
2026-01-22 22:19:15.10	70.78	15.78	-28.1	-30.1	14.4	1.50e-06	0	44	0	642777088	16	4505
2026-01-22 22:19:18.10	71.42	15.84	-28.2	-30.2	14.3	7.12e-04	0	44	0	651165696	16	4547
2026-01-22 22:19:21.10	72.06	15.89	-27.8	-29.2	15.0	0.00e+00	0	44	0	660602880	16	4259
2026-01-22 22:19:24.10	72.71	15.95	-27.8	-29.3	14.9	0.00e+00	0	44	0	670040064	16	4286
2026-01-22 22:19:27.12	73.36	16.00	-27.7	-29.0	15.1	3.75e-04	0	44	0	679477248	16	4197
2026-01-22 22:19:30.12	74.01	16.04	-27.6	-28.8	15.2	0.00e+00	0	44	0	688914432	16	4132
2026-01-22 22:19:33.13	74.67	16.09	-28.0	-29.7	14.7	0.00e+00	0	44	0	698351616	16	4405
2026-01-22 22:19:36.14	75.33	16.12	-28.0	-29.8	14.6	0.00e+00	0	44	0	707788800	16	4434
2026-01-22 22:19:39.15	75.98	16.16	-28.2	-30.2	14.4	0.00e+00	0	44	0	717225984	16	4527
2026-01-22 22:19:42.15	76.64	16.19	-28.1	-30.0	14.5	7.00e-07	0	44	0	726663168	16	4472
2026-01-22 22:19:45.16	77.30	16.22	-28.1	-30.0	14.5	7.00e-07	0	44	0	736100352	16	4482
2026-01-22 22:19:48.18	77.97	16.25	-27.8	-29.2	15.0	4.50e-06	0	44	0	745537536	16	4255
2026-01-22 22:19:51.18	78.63	16.27	-27.7	-29.5	14.9	0.00e+00	0	44	0	754974720	15	4467
2026-01-22 22:19:54.20	79.30	16.29	-27.5	-29.2	15.1	7.00e-07	0	44	0	764411904	15	4374
2026-01-22 22:19:57.21	79.96	16.30	-27.6	-29.4	14.9	0.00e+00	0	44	0	773849088	15	4441
2026-01-22 22:20:00.22	80.63	16.31	-27.8	-29.9	14.7	1.50e-06	0	44	0	783286272	15	4583
2026-01-22 22:20:03.23	81.29	16.32	-27.7	-29.6	14.9	0.00e+00	0	44	0	792723456	15	4490
2026-01-22 22:20:06.25	81.96	16.32	-27.7	-29.7	14.8	0.00e+00	0	44	0	802160640	15	4522
2026-01-22 22:20:09.27	82.63	16.32	-27.8	-29.9	14.7	1.50e-06	0	44	0	811597824	15	4573
2026-01-22 22:20:12.29	83.30	16.32	-27.5	-29.3	15.0	7.00e-07	0	44	0	821035008	15	4389
2026-01-22 22:20:15.29	83.96	16.31	-27.7	-29.6	14.9	0.00e+00	0	44	0	830472192	15	4477
2026-01-22 22:20:18.30	84.63	16.30	-27.6	-29.5	14.9	0.00e+00	0	44	0	839909376	15	4451
2026-01-22 22:20:21.30	85.29	16.28	-27.7	-29.6	14.8	0.00e+00	0	44	0	849346560	15	4485
2026-01-22 22:20:24.32	85.96	16.26	-27.8	-29.9	14.6	0.00e+00	0	44	0	858783744	15	4595
2026-01-22 22:20:27.34	86.63	16.24	-27.7	-29.6	14.8	0.00e+00	0	44	0	868220928	15	4501
2026-01-22 22:20:30.35	87.29	16.21	-27.8	-29.8	14.7	7.00e-07	0	44	0	877658112	15	4533
2026-01-22 22:20:33.36	87.95	16.18	-27.8	-30.0	14.6	0.00e+00	0	44	0	887095296	15	4599
2026-01-22 22:20:36.37	88.61	16.15	-27.8	-29.9	14.7	2.20e-06	0	44	0	896532480	15	4566
2026-01-22 22:20:39.37	89.27	16.12	-27.6	-29.4	14.9	0.00e+00	0	44	0	905969664	15	4433
2026-01-22 22:20:42.38	89.93	16.07	-27.6	-29.4	15.0	7.00e-07	0	44	0	915406848	15	4422
2026-01-22 22:20:45.39	90.58	16.03	-27.5	-29.2	15.0	0.00e+00	0	44	0	924844032	15	4361
2026-01-22 22:20:48.39	91.23	15.98	-27.7	-29.8	14.7	0.00e+00	0	44	0	934281216	15	4539
2026-01-22 22:20:51.38	91.88	15.93	-27.6	-29.5	14.8	0.00e+00	0	44	0	943718400	15	4466
2026-01-22 22:20:54.40	92.53	15.88	-27.6	-29.4	14.9	0.00e+00	0	44	0	952107008	15	4431
2026-01-22 22:20:57.41	93.18	15.82	-27.8	-29.9	14.6	0.00e+00	0	44	0	961544192	15	4585
2026-01-22 22:21:00.42	93.83	15.76	-27.7	-29.7	14.7	7.00e-07	0	44	0	972029952	15	4519
2026-01-22 22:21:03.45	94.47	15.70	-27.5	-29.3	15.0	0.00e+00	0	44	0	980418560	15	4388
2026-01-22 22:21:06.45	95.11	15.63	-27.4	-29.1	15.1	0.00e+00	0	44	0	989855744	15	4331
2026-01-22 22:21:09.46	95.75	15.56	-27.4	-29.0	15.1	0.00e+00	0	44	0	999292928	15	4313
2026-01-22 22:21:12.48	96.38	15.49	-27.4	-28.9	15.2	0.00e+00	0	44	0	1008730112	15	4288
2026-01-22 22:21:15.49	97.01	15.41	-27.4	-29.0	15.1	0.00e+00	0	44	0	1018167296	15	4322
2026-01-22 22:21:18.51	97.64	15.33	-27.6	-29.3	14.9	0.00e+00	0	44	0	1027604480	15	4409
2026-01-22 22:21:21.52	98.27	15.25	-27.5	-29.2	15.0	0.00e+00	0	44	0	1037041664	15	4366
2026-01-22 22:21:24.52	98.89	15.16	-27.7	-29.6	14.8	0.00e+00	0	44	0	1046478848	15	4479
2026-01-22 22:21:27.53	99.50	15.08	-27.6	-29.4	14.8	7.00e-07	0	44	0	1055916032	15	4434
2026-01-22 22:21:30.53	100.12	14.99	-27.6	-29.4	14.8	0.00e+00	0	44	0	1065353216	15	4442
2026-01-22 22:21:33.53	100.72	14.89	-27.3	-28.8	15.2	0.00e+00	0	44	0	1074790400	15	4264
2026-01-22 22:21:36.54	101.33	14.80	-27.4	-29.0	15.0	7.00e-07	0	44	0	1084227584	15	4332
2026-01-22 22:21:39.55	101.93	14.70	-27.4	-28.9	15.1	0.00e+00	0	44	0	1093664768	15	4284
2026-01-22 22:21:42.56	102.53	14.60	-27.4	-29.0	15.0	0.00e+00	0	44	0	1103101952	15	4315
2026-01-22 22:21:45.56	103.13	14.49	-27.3	-28.7	15.2	0.00e+00	0	44	0	1112539136	15	4236
2026-01-22 22:21:48.58	103.72	14.39	-27.3	-28.8	15.2	0.00e+00	0	44	0	1121976320	15	4264
2026-01-22 22:21:51.60	104.31	14.28	-27.5	-29.2	14.9	0.00e+00	0	44	0	1131413504	15	4374
2026-01-22 22:21:54.60	104.89	14.17	-27.6	-29.5	14.7	0.00e+00	0	44	0	1140850688	15	4473
2026-01-22 22:21:57.61	105.47	14.06	-27.8	-30.0	14.4	7.00e-07	0	44	0	1150287872	15	4614
2026-01-22 22:22:00.61	106.04	13.94	-27.6	-29.6	14.7	1.50e-06	0	44	0	1159725056	15	4486
2026-01-22 22:22:03.62	106.61	13.82	-27.8	-29.8	14.5	7.00e-07	0	44	0	1169162240	15	4553
2026-01-22 22:22:06.62	107.17	13.71	-27.9	-30.1	14.3	7.00e-07	0	44	0	1178599424	15	4635
2026-01-22 22:22:09.63	107.73	13.59	-28.0	-29.9	14.3	2.23e-04	0	44	0	1188036608	16	4473
2026-01-22 22:22:12.64	108.29	13.46	-28.1	-30.1	14.2	1.50e-06	0	44	0	1197473792	16	4523
2026-01-22 22:22:15.66	108.85	13.34	-27.8	-29.4	14.6	0.00e+00	0	44	0	1206910976	16	4330
2026-01-22 22:22:18.67	109.39	13.21	-27.9	-29.5	14.6	7.00e-07	0	44	0	1216348160	16	4342
2026-01-22 22:22:21.69	109.94	13.08	-28.0	-29.7	14.4	7.00e-07	0	44	0	1225785344	16	4415
2026-01-22 22:22:24.70	110.48	12.95	-28.2	-30.3	14.1	1.98e-05	0	44	0	1235222528	16	4577
2026-01-22 22:22:27.71	111.01	12.82	-28.2	-30.2	14.1	1.22e-05	0	44	0	1244659712	16	4556
2026-01-22 22:22:30.72	111.54	12.69	-28.2	-30.2	14.1	1.03e-04	0	44	0	1254096896	16	4549
2026-01-22 22:22:33.74	112.07	12.55	-28.2	-30.3	14.1	2.27e-04	0	44	0	1263534080	16	4586
2026-01-22 22:22:36.75	112.59	12.42	-28.2	-30.4	14.0	1.25e-04	0	44	0	1272971264	16	4627
2026-01-22 22:22:39.77	113.10	12.28	-28.5	-30.6	13.6	6.10e-06	0	44	0	1281359872	17	4572
2026-01-22 22:22:42.78	113.62	12.14	-28.3	-30.0	13.9	7.00e-07	0	44	0	1291845632	17	4400
2026-01-22 22:22:45.79	114.12	12.00	-28.3	-30.1	13.9	2.20e-06	0	44	0	1300234240	17	4419
2026-01-22 22:22:48.79	114.62	11.86	-28.4	-30.3	13.7	4.50e-06	0	44	0	1309671424	17	4482
2026-01-22 22:22:51.81	115.12	11.72	-28.3	-30.0	13.9	4.50e-06	0	44	0	1319108608	17	4397
2026-01-22 22:22:54.83	115.61	11.58	-28.4	-30.4	13.6	1.14e-05	0	44	0	1328545792	17	4527
2026-01-22 22:22:57.84	116.10	11.43	-28.4	-30.3	13.6	8.30e-06	0	44	0	1337982976	17	4496
2026-01-22 22:23:00.84	116.58	11.29	-28.4	-30.4	13.6	2.21e-05	0	44	0	1347420160	17	4529
2026-01-22 22:23:03.85	117.06	11.14	-28.5	-30.5	13.5	1.44e-05	0	44	0	1356857344	17	4552
2026-01-22 22:23:06.84	117.53	11.00	-28.5	-30.6	13.4	1.37e-05	0	44	0	1366294528	17	4591
2026-01-22 22:23:09.85	118.00	10.85	-28.6	-30.8	13.3	3.28e-05	0	44	0	1375731712	17	4638
2026-01-22 22:23:12.86	118.47	10.70	-28.7	-31.2	13.0	3.05e-05	0	44	0	1385168896	17	4775
2026-01-22 22:23:15.86	118.93	10.55	-28.6	-31.0	13.1	3.05e-05	0	44	0	1394606080	17	4716
2026-01-22 22:23:18.87	119.38	10.40	-28.9	-31.5	12.8	5.26e-05	0	44	0	1404043264	17	4884
2026-01-22 22:23:21.88	119.83	10.25	-28.5	-30.7	13.3	1.52e-05	0	44	0	1413480448	17	4609
2026-01-22 22:23:24.89	120.28	10.10	-28.6	-30.8	13.2	2.44e-05	0	44	0	1422917632	17	4636
2026-01-22 22:23:27.90	120.72	9.95	-28.5	-30.6	13.4	1.67e-05	0	44	0	1432354816	17	4582
2026-01-22 22:23:30.91	121.16	9.79	-28.6	-30.9	13.2	1.60e-05	0	44	0	1441792000	17	4668
2026-01-22 22:23:33.93	121.59	9.64	-28.5	-30.5	13.4	1.44e-05	0	44	0	1451229184	17	4561
2026-01-22 22:23:36.94	122.02	9.49	-28.5	-30.6	13.3	1.67e-05	0	44	0	1460666368	17	4585
2026-01-22 22:23:39.95	122.45	9.33	-28.5	-30.7	13.2	1.60e-05	0	44	0	1470103552	17	4638
2026-01-22 22:23:42.97	122.87	9.18	-28.5	-30.6	13.2	1.52e-05	0	44	0	1479540736	17	4605
2026-01-22 22:23:45.98	123.29	9.02	-28.7	-31.1	12.9	3.43e-05	0	44	0	1488977920	17	4755
2026-01-22 22:23:49.00	123.70	8.87	-28.7	-31.1	12.9	1.61e-04	0	44	0	1498415104	17	4763
2026-01-22 22:23:52.01	124.11	8.71	-28.9	-31.8	12.5	7.70e-05	0	44	0	1507852288	17	4985
2026-01-22 22:23:55.01	124.51	8.56	-29.2	-32.0	12.0	2.50e-04	0	44	0	1517289472	18	4978
2026-01-22 22:23:58.02	124.91	8.40	-29.0	-31.5	12.4	2.42e-04	0	44	0	1526726656	18	4785
2026-01-22 22:24:01.03	125.30	8.25	-29.1	-31.7	12.2	2.32e-04	0	44	0	1536163840	18	4872
2026-01-22 22:24:04.04	125.70	8.09	-29.3	-32.2	11.8	4.82e-04	0	44	0	1545601024	18	5040
2026-01-22 22:24:07.05	126.08	7.94	-28.9	-31.3	12.4	1.46e-04	0	44	0	1555038208	18	4710
2026-01-22 22:24:10.07	126.47	7.78	-29.1	-31.6	12.2	2.00e-04	0	44	0	1564475392	18	4839
2026-01-22 22:24:13.07	126.85	7.62	-29.0	-31.4	12.3	4.03e-04	0	44	0	1573912576	18	4765
2026-01-22 22:24:16.08	127.22	7.47	-29.1	-31.7	12.1	2.77e-04	0	44	0	1583349760	18	4872
2026-01-22 22:24:19.09	127.59	7.31	-29.1	-31.7	12.1	3.50e-04	0	44	0	1592786944	18	4861
2026-01-22 22:24:22.10	127.96	7.15	-29.1	-31.9	11.9	3.07e-04	0	44	0	1601175552	18	4931
2026-01-22 22:24:25.12	128.33	7.00	-33.2	-45.2	3.8	1.49e+00	0	44	104	1608515584	26	14278

#Closed at: 2026-01-22 22:24:27
#Recorded file [1608 MB]: D:/data/31010_260123_011549.dat