passes_logs/2026/01/22/R2M6_AANII_01/R2M6_AANII_01__20260122_004355_SUOMI_NPP_rec.log

#Pass ID: 20260122_004355_SUOMI NPP
#Satellite: SUOMI NPP
#Configuration: NPP
#almurnet v.1.7.20240730
#Start time: 2026-01-22 00:43:55

#Version: 2.2.20231116
#Station: R2M6_AANII_01
#Location: 30.233357 lon 59.946436 lat
#TLE: 1 37849U 11061A   26021.51818991  .00000201  00000+0  11636-3 0  9995
#TLE: 2 37849  98.7819 323.5108 0002300  52.3548 307.7836 14.19527793737637

#Time	Az	El	Level	Level2	SNR	BER	BlckErr	Temp	State	Recorded	gain1	gain2
2026-01-22 00:43:55.37	16.64	7.00	-32.0	-37.1	5.0	1.30e+00	0	41	0	0	23	6452
2026-01-22 00:43:58.37	16.60	7.23	-32.1	-37.1	7.4	1.02e-01	0	42	0	1048576	24	6369
2026-01-22 00:44:01.39	16.56	7.46	-31.9	-36.0	8.3	5.44e-02	0	42	0	7340032	24	5744
2026-01-22 00:44:04.40	16.52	7.70	-31.8	-36.0	8.7	3.32e-02	0	42	0	12582912	23	5817
2026-01-22 00:44:07.40	16.48	7.93	-31.6	-35.1	9.4	2.16e-02	0	42	0	17825792	23	5392
2026-01-22 00:44:10.41	16.43	8.17	-31.7	-35.2	9.4	2.05e-02	0	42	0	24117248	23	5430
2026-01-22 00:44:13.42	16.39	8.42	-31.7	-35.4	9.3	1.85e-02	0	42	0	29360128	23	5489
2026-01-22 00:44:16.43	16.35	8.66	-31.8	-35.6	9.1	1.50e-02	0	43	0	35651584	23	5614
2026-01-22 00:44:19.44	16.30	8.91	-31.9	-36.0	8.9	2.97e-02	0	43	0	40894464	23	5772
2026-01-22 00:44:22.44	16.26	9.16	-32.0	-35.9	8.6	4.38e-02	0	43	0	46137344	24	5663
2026-01-22 00:44:25.45	16.21	9.41	-31.7	-35.2	9.6	1.38e-02	0	42	0	52428800	23	5381
2026-01-22 00:44:28.46	16.16	9.66	-31.8	-35.3	9.5	1.80e-02	0	43	0	57671680	23	5425
2026-01-22 00:44:31.47	16.11	9.92	-30.9	-34.0	9.9	9.06e-03	0	43	0	63963136	23	5183
2026-01-22 00:44:34.48	16.06	10.18	-31.4	-34.5	9.9	4.20e-03	0	43	0	69206016	22	5138
2026-01-22 00:44:37.49	16.01	10.44	-31.1	-33.6	11.1	1.42e-03	0	43	0	74448896	22	4788
2026-01-22 00:44:40.48	15.96	10.71	-31.0	-33.6	11.5	7.24e-04	0	43	0	80740352	21	4900
2026-01-22 00:44:43.48	15.90	10.97	-31.0	-33.7	11.5	7.36e-04	0	43	0	85983232	21	4931
2026-01-22 00:44:46.49	15.85	11.25	-31.0	-33.6	11.6	5.09e-04	0	43	0	91226112	21	4870
2026-01-22 00:44:49.51	15.79	11.52	-31.2	-33.7	11.2	3.91e-03	0	43	0	97517568	22	4842
2026-01-22 00:44:52.52	15.73	11.80	-31.0	-33.3	11.5	7.12e-04	0	43	0	102760448	22	4672
2026-01-22 00:44:55.53	15.67	12.08	-30.9	-33.4	11.8	6.04e-04	0	43	0	109051904	21	4821
2026-01-22 00:44:58.54	15.61	12.36	-31.0	-33.5	11.8	6.15e-04	0	43	0	114294784	21	4844
2026-01-22 00:45:01.56	15.55	12.65	-31.1	-33.4	11.5	8.75e-04	0	43	0	119537664	22	4711
2026-01-22 00:45:04.57	15.49	12.94	-30.8	-33.2	12.0	3.00e-03	0	43	0	125829120	21	4720
2026-01-22 00:45:07.58	15.42	13.23	-31.2	-33.6	11.4	3.46e-03	0	43	0	131072000	22	4776
2026-01-22 00:45:10.59	15.36	13.53	-31.0	-33.0	11.8	2.94e-03	0	43	0	136314880	22	4557
2026-01-22 00:45:13.60	15.29	13.83	-31.1	-33.5	11.6	3.42e-03	0	43	0	142606336	22	4719
2026-01-22 00:45:16.62	15.22	14.14	-30.8	-33.2	12.1	2.91e-03	0	43	0	147849216	21	4702
2026-01-22 00:45:19.62	15.15	14.45	-30.7	-32.7	12.5	2.38e-03	0	43	0	154140672	21	4523
2026-01-22 00:45:22.64	15.08	14.76	-30.6	-32.3	12.8	2.61e-03	0	43	0	159383552	21	4387
2026-01-22 00:45:25.65	15.00	15.08	-30.8	-33.0	12.3	2.66e-03	0	43	0	164626432	21	4639
2026-01-22 00:45:28.66	14.92	15.40	-30.7	-32.7	12.5	2.44e-03	0	44	0	170917888	21	4536
2026-01-22 00:45:31.66	14.85	15.72	-30.5	-32.2	12.9	2.64e-03	0	44	0	176160768	21	4365
2026-01-22 00:45:34.67	14.76	16.05	-30.4	-32.2	13.2	2.46e-03	0	44	0	182452224	20	4449
2026-01-22 00:45:37.69	14.68	16.39	-30.2	-31.9	13.5	1.29e-03	0	44	0	187695104	20	4344
2026-01-22 00:45:40.70	14.60	16.72	-30.3	-32.0	13.4	1.67e-05	0	44	0	192937984	20	4384
2026-01-22 00:45:43.70	14.51	17.07	-30.1	-31.6	13.7	9.10e-06	0	44	0	199229440	20	4244
2026-01-22 00:45:46.71	14.42	17.41	-30.2	-31.7	13.6	3.80e-06	0	44	0	204472320	20	4279
2026-01-22 00:45:49.71	14.33	17.76	-30.1	-31.5	13.8	2.50e-03	0	44	0	209715200	20	4225
2026-01-22 00:45:52.72	14.23	18.12	-30.1	-31.4	13.8	2.37e-03	0	44	0	216006656	20	4198
2026-01-22 00:45:55.74	14.14	18.49	-30.1	-31.4	13.9	1.50e-06	0	44	0	221249536	20	4185
2026-01-22 00:45:58.76	14.04	18.86	-30.2	-31.8	13.6	3.80e-06	0	44	0	227540992	20	4306
2026-01-22 00:46:01.77	13.94	19.23	-30.1	-31.4	13.9	3.80e-06	0	44	0	232783872	20	4181
2026-01-22 00:46:04.78	13.83	19.61	-30.0	-31.1	14.1	6.80e-06	0	44	0	238026752	20	4096
2026-01-22 00:46:07.78	13.72	19.99	-30.1	-31.5	13.8	3.80e-06	0	44	0	244318208	20	4225
2026-01-22 00:46:10.78	13.61	20.38	-30.2	-31.8	13.7	7.60e-06	0	44	0	249561088	20	4308
2026-01-22 00:46:13.80	13.50	20.78	-30.3	-31.5	13.6	1.14e-05	0	44	0	254803968	21	4115
2026-01-22 00:46:16.81	13.38	21.18	-30.1	-31.4	13.9	6.80e-06	0	44	0	261095424	20	4191
2026-01-22 00:46:19.82	13.26	21.59	-30.0	-31.1	14.0	2.20e-06	0	44	0	266338304	20	4092
2026-01-22 00:46:22.82	13.13	22.01	-30.0	-31.1	14.2	0.00e+00	0	44	0	272629760	20	4099
2026-01-22 00:46:25.82	13.01	22.43	-29.9	-30.8	14.4	1.50e-06	0	44	0	277872640	20	3994
2026-01-22 00:46:28.83	12.87	22.86	-29.7	-30.7	14.7	0.00e+00	0	44	0	283115520	19	4058
2026-01-22 00:46:31.85	12.74	23.30	-29.9	-31.2	14.6	0.00e+00	0	44	0	289406976	19	4185
2026-01-22 00:46:34.86	12.60	23.74	-29.6	-30.4	15.0	3.28e-05	0	44	0	294649856	19	3974
2026-01-22 00:46:37.86	12.45	24.19	-29.5	-30.4	15.1	3.28e-05	0	44	0	300941312	19	3961
2026-01-22 00:46:40.87	12.30	24.65	-30.0	-31.4	14.4	3.05e-05	0	44	0	306184192	19	4252
2026-01-22 00:46:43.87	12.15	25.12	-30.3	-31.8	13.7	1.50e-06	0	44	0	311427072	20	4291
2026-01-22 00:46:46.86	11.99	25.59	-30.3	-31.4	13.7	9.90e-06	0	44	0	317718528	21	4069
2026-01-22 00:46:49.88	11.83	26.08	-30.3	-31.9	13.8	2.20e-06	0	44	0	322961408	20	4301
2026-01-22 00:46:52.88	11.66	26.57	-30.6	-32.0	13.5	2.20e-06	0	44	0	328204288	21	4261
2026-01-22 00:46:55.88	11.48	27.07	-31.2	-33.2	12.4	6.48e-05	0	44	0	334495744	22	4544
2026-01-22 00:46:58.89	11.30	27.58	-31.1	-33.1	12.4	1.50e-04	0	44	0	339738624	22	4511
2026-01-22 00:47:01.91	11.11	28.10	-31.6	-33.9	11.5	6.56e-04	0	44	0	346030080	23	4710
2026-01-22 00:47:04.92	10.91	28.63	-30.7	-31.8	13.3	3.81e-05	0	44	0	351272960	22	4098
2026-01-22 00:47:07.92	10.71	29.17	-30.6	-32.2	13.4	1.67e-05	0	44	0	356515840	21	4311
2026-01-22 00:47:10.93	10.50	29.72	-31.0	-32.7	12.7	9.91e-05	0	44	0	362807296	22	4362
2026-01-22 00:47:13.93	10.29	30.28	-31.2	-33.2	12.4	1.68e-04	0	44	0	368050176	22	4532
2026-01-22 00:47:16.94	10.06	30.85	-31.0	-32.8	12.7	4.80e-05	0	44	0	373293056	22	4396
2026-01-22 00:47:19.95	9.83	31.43	-31.3	-33.4	12.3	1.04e-04	0	44	0	379584512	22	4613
2026-01-22 00:47:22.96	9.59	32.02	-31.8	-33.9	11.2	2.39e-03	0	44	0	384827392	24	4623
2026-01-22 00:47:25.96	9.34	32.63	-32.1	-35.0	10.5	4.12e-03	0	44	0	391118848	24	5026
2026-01-22 00:47:28.97	9.07	33.24	-32.1	-34.9	10.6	4.19e-03	0	44	0	396361728	24	4981
2026-01-22 00:47:31.96	8.80	33.87	-32.5	-35.8	9.5	8.21e-03	0	44	0	401604608	25	5258
2026-01-22 00:47:34.97	8.52	34.51	-32.4	-35.4	9.8	1.51e-02	0	44	0	407896064	25	5098
2026-01-22 00:47:37.97	8.22	35.16	-31.9	-34.4	11.0	2.77e-03	0	44	0	413138944	24	4774
2026-01-22 00:47:40.97	7.92	35.82	-32.1	-34.9	10.6	2.86e-03	0	44	0	418381824	24	4965
2026-01-22 00:47:43.98	7.59	36.50	-32.7	-36.6	8.9	1.37e-02	0	44	0	424673280	25	5649
2026-01-22 00:47:46.99	7.26	37.19	-31.8	-34.1	11.1	3.04e-03	0	44	0	429916160	24	4667
2026-01-22 00:47:49.99	6.91	37.89	-31.1	-33.2	12.4	1.30e-04	0	44	0	436207616	22	4591
2026-01-22 00:47:53.00	6.54	38.61	-31.3	-33.0	12.2	1.59e-04	0	44	0	441450496	23	4378
2026-01-22 00:47:56.01	6.15	39.35	-31.7	-34.0	11.6	5.94e-04	0	44	0	446693376	23	4708
2026-01-22 00:47:59.02	5.75	40.10	-31.4	-33.2	12.2	2.78e-04	0	44	0	452984832	23	4436
2026-01-22 00:48:02.02	5.33	40.86	-31.4	-33.7	12.2	1.81e-04	0	44	0	458227712	22	4675
2026-01-22 00:48:05.03	4.88	41.63	-31.4	-33.2	12.2	2.14e-04	0	44	0	463470592	23	4439
2026-01-22 00:48:08.04	4.42	42.42	-31.7	-34.0	11.7	1.92e-04	0	44	0	469762048	23	4700
2026-01-22 00:48:11.04	3.93	43.23	-32.1	-34.8	10.8	2.96e-03	0	44	0	475004928	24	4908
2026-01-22 00:48:14.06	3.41	44.05	-32.1	-34.8	10.7	1.95e-03	0	44	0	481296384	24	4916
2026-01-22 00:48:17.06	2.87	44.89	-31.6	-33.3	11.8	8.21e-04	0	44	0	486539264	24	4374
2026-01-22 00:48:20.07	2.29	45.74	-31.0	-32.7	12.9	4.42e-05	0	44	0	491782144	22	4339
2026-01-22 00:48:23.08	1.68	46.60	-31.4	-33.1	12.3	1.97e-04	0	44	0	498073600	23	4402
2026-01-22 00:48:26.09	1.04	47.48	-31.2	-32.7	12.6	1.19e-04	0	44	0	503316480	23	4267
2026-01-22 00:48:29.09	0.36	48.38	-30.8	-32.1	13.2	7.60e-06	0	44	0	508559360	22	4171
2026-01-22 00:48:32.09	359.64	49.28	-30.6	-31.5	13.7	3.28e-05	0	44	0	514850816	22	3993
2026-01-22 00:48:35.09	358.87	50.20	-30.5	-31.8	13.5	2.20e-06	0	44	0	520093696	21	4163
2026-01-22 00:48:38.09	358.05	51.13	-30.2	-31.6	13.4	6.10e-06	0	44	0	526385152	20	4200
2026-01-22 00:48:41.09	357.18	52.08	-30.4	-32.1	13.8	3.80e-06	0	44	0	531628032	20	4367
2026-01-22 00:48:44.11	356.25	53.04	-30.0	-30.9	14.7	9.51e-04	0	44	0	536870912	20	3987
2026-01-22 00:48:47.11	355.26	54.01	-29.4	-30.0	15.6	0.00e+00	0	44	0	543162368	19	3843
2026-01-22 00:48:50.12	354.19	54.98	-30.0	-30.9	14.7	0.00e+00	0	44	0	548405248	20	3987
2026-01-22 00:48:53.13	353.05	55.97	-29.7	-30.6	15.2	0.00e+00	0	44	0	553648128	19	4009
2026-01-22 00:48:56.14	351.83	56.96	-30.6	-32.0	13.6	1.52e-05	0	44	0	559939584	21	4225
2026-01-22 00:48:59.15	350.51	57.96	-30.8	-32.4	13.4	1.14e-05	0	44	0	565182464	21	4348
2026-01-22 00:49:02.16	349.08	58.95	-30.4	-31.9	14.0	1.51e-03	0	44	0	571473920	20	4283
2026-01-22 00:49:05.16	347.55	59.95	-30.5	-31.8	13.8	4.26e-04	0	44	0	576716800	21	4181
2026-01-22 00:49:08.16	345.90	60.93	-31.1	-32.8	12.9	6.55e-04	0	44	0	581959680	22	4386
2026-01-22 00:49:11.18	344.10	61.92	-30.7	-32.1	13.6	1.35e-03	0	44	0	588251136	21	4273
2026-01-22 00:49:14.18	342.16	62.89	-30.0	-31.0	14.7	0.00e+00	0	44	0	593494016	20	4045
2026-01-22 00:49:17.19	340.05	63.84	-29.4	-29.9	15.7	0.00e+00	0	44	0	598736896	19	3809
2026-01-22 00:49:20.20	337.77	64.78	-29.5	-29.6	15.4	3.58e-04	0	44	0	605028352	20	3663
2026-01-22 00:49:23.20	335.29	65.68	-30.8	-32.8	13.1	2.10e-04	0	44	0	610271232	21	4483
2026-01-22 00:49:26.21	332.60	66.55	-31.9	-34.8	11.1	1.98e-03	0	44	0	616562688	23	5037
2026-01-22 00:49:29.22	329.69	67.37	-31.9	-34.2	11.0	2.38e-03	0	44	0	621805568	24	4731
2026-01-22 00:49:32.23	326.54	68.15	-30.3	-30.7	14.1	2.85e-04	0	44	0	627048448	22	3787
2026-01-22 00:49:35.24	323.15	68.87	-30.9	-32.4	13.1	6.63e-05	0	44	0	633339904	22	4263
2026-01-22 00:49:38.24	319.52	69.51	-31.6	-34.0	11.8	2.75e-04	0	44	0	638582784	23	4750
2026-01-22 00:49:41.25	315.64	70.08	-30.4	-31.6	14.0	3.05e-05	0	44	0	643825664	21	4108
2026-01-22 00:49:44.27	311.52	70.57	-31.2	-32.8	12.5	8.08e-05	0	44	0	650117120	23	4311
2026-01-22 00:49:47.26	307.25	70.95	-31.8	-34.4	11.4	2.65e-04	0	44	0	655360000	23	4877
2026-01-22 00:49:50.26	302.79	71.23	-32.9	-37.3	8.4	2.98e-02	0	45	0	661651456	25	6031
2026-01-22 00:49:53.28	298.19	71.40	-31.1	-32.5	12.7	1.63e-04	0	44	0	666894336	23	4199
2026-01-22 00:49:56.27	293.58	71.45	-31.7	-34.2	11.5	4.26e-04	0	44	0	672137216	23	4777
2026-01-22 00:49:59.28	288.94	71.40	-31.4	-32.8	12.1	3.17e-04	0	44	0	678428672	24	4232
2026-01-22 00:50:02.30	284.34	71.22	-31.5	-33.7	11.6	1.05e-03	0	44	0	683671552	23	4623
2026-01-22 00:50:05.31	279.88	70.94	-31.5	-33.7	11.9	2.40e-03	0	44	0	688914432	23	4597
2026-01-22 00:50:08.32	275.58	70.55	-32.1	-35.1	10.5	6.02e-03	0	44	0	695205888	24	5071
2026-01-22 00:50:11.33	271.48	70.06	-31.4	-33.4	12.0	8.05e-04	0	44	0	700448768	23	4498
2026-01-22 00:50:14.33	267.62	69.49	-31.2	-32.7	12.4	2.61e-04	0	44	0	706740224	23	4283
2026-01-22 00:50:17.35	263.97	68.84	-31.6	-33.3	11.9	9.51e-04	0	44	0	711983104	24	4391
2026-01-22 00:50:20.36	260.59	68.12	-30.5	-31.8	13.7	2.20e-06	0	44	0	717225984	21	4182
2026-01-22 00:50:23.38	257.43	67.34	-30.8	-32.6	13.2	1.60e-05	0	44	0	723517440	21	4442
2026-01-22 00:50:26.39	254.52	66.51	-30.2	-31.1	14.2	9.10e-06	0	44	0	728760320	21	3969
2026-01-22 00:50:29.40	251.84	65.63	-30.3	-31.8	13.9	2.20e-06	0	44	0	735051776	20	4283
2026-01-22 00:50:32.40	249.37	64.73	-29.2	-30.0	15.4	1.56e-04	0	44	0	740294656	18	3955
2026-01-22 00:50:35.41	247.09	63.79	-29.8	-30.9	14.3	2.20e-06	0	44	0	745537536	19	4106
2026-01-22 00:50:38.41	244.99	62.84	-29.6	-30.6	15.1	1.50e-06	0	44	0	751828992	19	4013
2026-01-22 00:50:41.42	243.05	61.86	-29.7	-30.7	15.0	2.20e-06	0	44	0	757071872	19	4053
2026-01-22 00:50:44.43	241.26	60.88	-29.3	-30.2	15.6	0.00e+00	0	44	0	762314752	18	4004
2026-01-22 00:50:47.44	239.61	59.88	-29.9	-31.2	14.8	1.50e-06	0	44	0	768606208	19	4202
2026-01-22 00:50:50.45	238.08	58.89	-29.7	-30.7	15.1	8.62e-05	0	44	0	773849088	19	4036
2026-01-22 00:50:53.45	236.66	57.89	-30.5	-31.9	13.5	6.38e-04	0	44	0	780140544	21	4235
2026-01-22 00:50:56.46	235.35	56.89	-30.4	-32.1	13.6	3.00e-06	0	44	0	785383424	20	4386
2026-01-22 00:50:59.47	234.12	55.90	-29.8	-30.9	14.9	0.00e+00	0	44	0	790626304	19	4111
2026-01-22 00:51:02.47	232.99	54.91	-29.2	-30.0	15.7	0.00e+00	0	44	0	796917760	18	3947
2026-01-22 00:51:05.47	231.93	53.93	-28.8	-29.2	16.2	2.56e-04	0	44	0	802160640	18	3744
2026-01-22 00:51:08.47	230.93	52.97	-30.2	-31.2	13.9	1.26e-03	0	44	0	807403520	21	4041
2026-01-22 00:51:11.49	230.00	52.00	-30.0	-31.2	14.0	6.14e-04	0	44	0	813694976	20	4118
2026-01-22 00:51:14.49	229.13	51.06	-30.6	-32.3	13.2	1.57e-04	0	44	0	818937856	21	4355
2026-01-22 00:51:17.50	228.32	50.12	-31.6	-34.1	11.3	1.74e-03	0	44	0	825229312	23	4823
2026-01-22 00:51:20.51	227.55	49.19	-30.7	-32.0	13.1	3.06e-04	0	44	0	830472192	22	4174
2026-01-22 00:51:23.51	226.83	48.29	-29.0	-29.1	15.8	3.80e-06	0	44	0	835715072	19	3635
2026-01-22 00:51:26.53	226.14	47.39	-29.0	-29.6	15.9	1.67e-05	0	44	0	842006528	18	3852
2026-01-22 00:51:29.54	225.50	46.50	-30.0	-31.1	14.1	1.22e-05	0	45	0	847249408	20	4095
2026-01-22 00:51:32.57	224.89	45.63	-30.4	-32.1	13.6	1.50e-06	0	44	0	852492288	20	4399
2026-01-22 00:51:35.58	224.31	44.78	-31.5	-34.0	11.2	1.09e-03	0	44	0	858783744	23	4752
2026-01-22 00:51:38.58	223.77	43.94	-31.5	-33.7	11.5	1.45e-03	0	44	0	864026624	23	4678
2026-01-22 00:51:41.59	223.25	43.12	-31.9	-35.1	10.5	3.14e-03	0	44	0	870318080	23	5200
2026-01-22 00:51:44.61	222.76	42.31	-32.1	-35.3	9.9	6.98e-03	0	44	0	875560960	24	5221
2026-01-22 00:51:47.62	222.29	41.51	-32.6	-36.9	8.3	4.78e-02	0	44	0	880803840	25	5906
2026-01-22 00:51:50.64	221.85	40.73	-31.5	-33.3	11.4	1.12e-03	0	44	0	887095296	24	4451
2026-01-22 00:51:53.64	221.43	39.97	-31.0	-32.5	12.3	4.15e-04	0	44	0	892338176	23	4247
2026-01-22 00:51:56.65	221.02	39.22	-31.7	-34.3	11.1	6.58e-04	0	44	0	898629632	23	4909
2026-01-22 00:51:59.66	220.64	38.49	-31.1	-32.6	12.2	8.73e-04	0	45	0	903872512	23	4274
2026-01-22 00:52:02.67	220.27	37.77	-31.4	-33.5	11.6	5.11e-04	0	44	0	909115392	23	4595
2026-01-22 00:52:05.68	219.92	37.06	-30.3	-31.4	13.6	1.58e-04	0	44	0	915406848	21	4101
2026-01-22 00:52:08.69	219.58	36.37	-30.5	-31.8	13.4	1.56e-04	0	44	0	920649728	21	4221
2026-01-22 00:52:11.70	219.26	35.69	-29.7	-30.3	14.7	1.40e-04	0	44	0	925892608	20	3881
2026-01-22 00:52:14.70	218.95	35.02	-29.5	-30.4	15.0	3.73e-05	0	44	0	932184064	19	3984
2026-01-22 00:52:17.72	218.65	34.37	-30.9	-33.2	12.4	2.51e-05	0	44	0	937426944	21	4680
2026-01-22 00:52:20.73	218.37	33.72	-31.4	-33.5	11.6	1.50e-03	0	44	0	943718400	23	4581
2026-01-22 00:52:23.73	218.10	33.10	-31.0	-32.9	12.4	2.89e-04	0	44	0	948961280	22	4471
2026-01-22 00:52:26.73	217.84	32.48	-31.1	-33.3	12.0	6.96e-04	0	44	0	954204160	22	4621
2026-01-22 00:52:29.73	217.58	31.88	-30.6	-31.7	13.1	4.95e-05	0	44	0	960495616	22	4101
2026-01-22 00:52:32.74	217.34	31.29	-30.9	-33.2	12.5	7.85e-05	0	45	0	965738496	21	4675
2026-01-22 00:52:35.76	217.11	30.70	-31.5	-34.1	11.1	2.18e-03	0	45	0	970981376	23	4808
2026-01-22 00:52:38.77	216.88	30.13	-31.6	-34.4	10.8	2.41e-03	0	44	0	977272832	23	4951
2026-01-22 00:52:41.79	216.66	29.57	-31.8	-35.1	10.4	3.75e-03	0	44	0	982515712	23	5208
2026-01-22 00:52:44.79	216.45	29.02	-32.2	-35.8	9.4	7.54e-03	0	44	0	988807168	24	5483
2026-01-22 00:52:47.80	216.25	28.48	-32.1	-35.4	9.7	1.44e-02	0	45	0	994050048	24	5280
2026-01-22 00:52:50.82	216.05	27.95	-31.9	-35.1	9.9	5.87e-03	0	45	0	999292928	24	5151
2026-01-22 00:52:53.84	215.86	27.42	-31.7	-34.7	10.5	3.66e-03	0	44	0	1005584384	23	5090
2026-01-22 00:52:56.85	215.68	26.91	-31.6	-34.4	10.8	3.61e-03	0	44	0	1010827264	23	4979
2026-01-22 00:52:59.86	215.50	26.41	-31.3	-33.4	11.4	1.09e-03	0	44	0	1017118720	23	4609
2026-01-22 00:53:02.86	215.33	25.92	-30.5	-32.1	13.0	1.31e-04	0	45	0	1022361600	21	4329
2026-01-22 00:53:05.87	215.17	25.43	-30.4	-32.2	13.2	1.26e-04	0	44	0	1027604480	20	4461
2026-01-22 00:53:08.88	215.01	24.96	-30.5	-32.3	13.0	1.08e-04	0	44	0	1033895936	21	4387
2026-01-22 00:53:11.89	214.85	24.49	-31.2	-33.6	11.7	8.08e-04	0	45	0	1039138816	22	4741
2026-01-22 00:53:14.90	214.70	24.03	-31.8	-35.0	10.2	5.08e-03	0	44	0	1044381696	23	5249
2026-01-22 00:53:17.91	214.55	23.58	-31.7	-34.8	10.3	6.52e-03	0	44	0	1050673152	23	5162
2026-01-22 00:53:20.92	214.41	23.13	-31.4	-34.3	11.1	1.20e-03	0	44	0	1055916032	22	5017
2026-01-22 00:53:23.93	214.27	22.69	-31.5	-34.6	10.9	1.49e-03	0	44	0	1062207488	22	5140
2026-01-22 00:53:26.94	214.14	22.26	-31.2	-33.6	11.6	7.51e-04	0	44	0	1067450368	22	4751
2026-01-22 00:53:29.94	214.01	21.84	-31.4	-34.2	11.1	1.34e-03	0	44	0	1072693248	22	5019
2026-01-22 00:53:32.94	213.89	21.43	-31.1	-33.5	11.6	7.15e-04	0	44	0	1078984704	22	4740
2026-01-22 00:53:35.95	213.76	21.02	-31.2	-33.8	11.4	8.26e-04	0	44	0	1084227584	22	4848
2026-01-22 00:53:38.95	213.64	20.61	-30.8	-33.1	12.1	2.42e-04	0	44	0	1089470464	21	4688
2026-01-22 00:53:41.94	213.53	20.22	-30.7	-32.8	12.3	2.22e-04	0	45	0	1095761920	21	4602
2026-01-22 00:53:44.95	213.42	19.83	-30.6	-32.5	12.5	1.36e-04	0	45	0	1101004800	21	4495
2026-01-22 00:53:47.95	213.31	19.44	-30.5	-32.3	12.6	8.01e-05	0	44	0	1107296256	21	4420
2026-01-22 00:53:50.96	213.20	19.06	-30.4	-31.9	12.9	6.17e-05	0	44	0	1112539136	21	4279
2026-01-22 00:53:53.97	213.10	18.69	-30.4	-32.4	12.9	4.11e-05	0	44	0	1117782016	20	4536
2026-01-22 00:53:56.97	213.00	18.32	-30.3	-32.1	13.1	2.59e-05	0	45	0	1124073472	20	4463
2026-01-22 00:53:59.99	212.90	17.96	-30.5	-32.3	12.6	7.62e-05	0	45	0	1129316352	21	4432
2026-01-22 00:54:03.00	212.80	17.60	-30.5	-32.4	12.5	1.19e-04	0	44	0	1134559232	21	4471
2026-01-22 00:54:06.00	212.71	17.25	-31.1	-33.5	11.3	6.58e-04	0	44	0	1140850688	22	4766
2026-01-22 00:54:09.00	212.62	16.90	-30.9	-33.1	11.6	1.29e-03	0	44	0	1146093568	22	4627
2026-01-22 00:54:12.01	212.53	16.56	-31.0	-33.4	11.3	9.47e-04	0	44	0	1152385024	22	4755
2026-01-22 00:54:15.02	212.44	16.22	-30.9	-33.1	11.6	1.06e-03	0	44	0	1157627904	22	4642
2026-01-22 00:54:18.03	212.36	15.88	-30.7	-33.1	11.9	5.23e-04	0	44	0	1162870784	21	4720
2026-01-22 00:54:21.04	212.27	15.56	-30.8	-33.3	11.7	5.98e-04	0	44	0	1169162240	21	4785
2026-01-22 00:54:24.04	212.19	15.23	-30.8	-33.2	11.8	1.01e-03	0	44	0	1174405120	21	4749
2026-01-22 00:54:27.04	212.11	14.91	-31.1	-33.7	11.1	1.02e-03	0	44	0	1179648000	22	4872
2026-01-22 00:54:30.05	212.04	14.59	-31.3	-34.5	10.4	3.71e-03	0	44	0	1185939456	22	5181
2026-01-22 00:54:33.06	211.96	14.28	-31.3	-34.6	10.3	4.94e-03	0	44	0	1191182336	22	5254
2026-01-22 00:54:36.06	211.89	13.97	-31.6	-34.9	9.7	1.15e-02	0	44	0	1197473792	23	5281
2026-01-22 00:54:39.06	211.82	13.67	-31.7	-35.3	9.5	1.22e-02	0	44	0	1202716672	23	5453
2026-01-22 00:54:42.05	211.75	13.37	-31.5	-35.1	9.9	8.98e-03	0	44	0	1207959552	22	5480
2026-01-22 00:54:45.06	211.68	13.07	-31.2	-34.2	10.6	4.07e-03	0	45	0	1214251008	22	5066
2026-01-22 00:54:48.07	211.61	12.78	-30.8	-33.0	11.4	1.67e-03	0	45	0	1219493888	22	4622
2026-01-22 00:54:51.09	211.55	12.49	-30.7	-33.3	11.5	9.18e-04	0	44	0	1224736768	21	4832
2026-01-22 00:54:54.09	211.48	12.20	-30.5	-32.5	12.1	3.92e-04	0	44	0	1231028224	21	4538
2026-01-22 00:54:57.10	211.42	11.92	-30.4	-32.4	12.1	4.29e-04	0	44	0	1236271104	21	4503
2026-01-22 00:55:00.10	211.36	11.64	-30.4	-32.2	12.2	2.03e-04	0	44	0	1242562560	21	4442
2026-01-22 00:55:03.10	211.30	11.36	-30.2	-31.7	12.5	1.24e-04	0	44	0	1247805440	21	4301
2026-01-22 00:55:06.11	211.24	11.08	-30.2	-31.7	12.5	1.34e-04	0	44	0	1253048320	21	4285
2026-01-22 00:55:09.12	211.18	10.81	-30.3	-32.0	12.2	1.73e-04	0	44	0	1259339776	21	4395
2026-01-22 00:55:12.13	211.12	10.54	-30.6	-32.9	11.6	4.54e-04	0	44	0	1264582656	21	4707
2026-01-22 00:55:15.14	211.07	10.28	-30.7	-33.3	11.3	9.68e-04	0	45	0	1269825536	21	4846
2026-01-22 00:55:18.14	211.02	10.02	-30.7	-33.3	11.3	1.04e-03	0	45	0	1276116992	21	4858
2026-01-22 00:55:21.15	210.96	9.76	-30.7	-33.5	11.2	1.14e-03	0	44	0	1281359872	21	4916
2026-01-22 00:55:24.15	210.91	9.50	-30.8	-33.5	11.1	1.36e-03	0	44	0	1287651328	21	4938
2026-01-22 00:55:27.16	210.86	9.24	-30.9	-34.0	10.7	2.66e-03	0	44	0	1292894208	21	5151
2026-01-22 00:55:30.16	210.81	8.99	-31.2	-34.5	10.0	9.83e-03	0	45	0	1298137088	22	5288
2026-01-22 00:55:33.17	210.76	8.74	-31.1	-34.1	10.2	6.84e-03	0	44	0	1304428544	22	5101
2026-01-22 00:55:36.18	210.71	8.50	-31.3	-34.8	9.7	1.12e-02	0	44	0	1309671424	22	5411
2026-01-22 00:55:39.21	210.67	8.25	-31.3	-34.9	9.6	9.94e-03	0	44	0	1314914304	22	5450
2026-01-22 00:55:42.21	210.62	8.01	-31.3	-34.8	9.6	1.17e-02	0	44	0	1321205760	22	5419
2026-01-22 00:55:45.23	210.58	7.77	-31.4	-35.3	9.2	2.26e-02	0	45	0	1326448640	22	5637
2026-01-22 00:55:48.24	210.53	7.53	-31.4	-35.6	9.0	2.47e-02	0	45	0	1332740096	22	5796
2026-01-22 00:55:51.25	210.49	7.29	-31.5	-35.3	8.8	3.07e-02	0	44	0	1337982976	23	5560
2026-01-22 00:55:54.26	210.45	7.06	-31.8	-36.5	8.2	2.41e-02	0	45	0	1343225856	23	6206

#Closed at: 2026-01-22 00:55:57
#Recorded file [1344 MB]: D:/data/31010_260122_034357.dat