passes_logs/2026/01/22/R2M6_AANII_01/R2M6_AANII_01__20260122_100658_NOAA_21_JPSS-2_rec.log

#Pass ID: 20260122_100658_NOAA 21 (JPSS-2)
#Satellite: NOAA 21 (JPSS-2)
#Configuration: NOAA 21
#almurnet v.1.7.20240730
#Start time: 2026-01-22 10:06:57

#Version: 2.2.20231116
#Station: R2M6_AANII_01
#Location: 30.233357 lon 59.946436 lat
#TLE: 1 54234U 22150A   26021.42686626  .00000211  00000+0  12107-3 0  9996
#TLE: 2 54234  98.7506 322.2490 0000636 241.9299 118.1812 14.19537149165725

#Time	Az	El	Level	Level2	SNR	BER	BlckErr	Temp	State	Recorded	gain1	gain2
2026-01-22 10:06:57.80	153.83	6.98	-29.5	-33.3	4.8	1.37e+00	0	43	0	0	20	5592
2026-01-22 10:07:00.81	153.81	7.21	-29.8	-33.4	9.4	2.05e-02	0	43	0	3145728	20	5438
2026-01-22 10:07:03.81	153.79	7.45	-29.4	-32.4	10.0	7.94e-03	0	43	0	12582912	20	5110
2026-01-22 10:07:06.81	153.77	7.69	-28.9	-31.7	10.9	2.36e-03	0	43	0	22020096	19	4995
2026-01-22 10:07:09.82	153.75	7.93	-28.8	-31.9	11.1	1.41e-03	0	43	0	30408704	18	5127
2026-01-22 10:07:12.82	153.73	8.17	-28.8	-31.9	11.2	1.47e-03	0	43	0	39845888	18	5104
2026-01-22 10:07:15.84	153.71	8.41	-28.5	-30.6	12.2	2.72e-04	0	43	0	49283072	18	4607
2026-01-22 10:07:18.84	153.69	8.66	-28.4	-30.3	12.4	1.34e-04	0	43	0	58720256	18	4511
2026-01-22 10:07:21.82	153.66	8.91	-28.3	-30.6	12.5	9.15e-05	0	43	0	68157440	17	4724
2026-01-22 10:07:24.82	153.64	9.16	-28.2	-30.5	12.6	1.04e-04	0	43	0	77594624	17	4693
2026-01-22 10:07:27.82	153.62	9.41	-28.0	-30.2	12.7	8.46e-05	0	43	0	87031808	17	4642
2026-01-22 10:07:30.81	153.59	9.67	-28.0	-30.1	12.8	5.49e-05	0	44	0	96468992	17	4570
2026-01-22 10:07:33.81	153.56	9.93	-28.0	-30.0	12.9	5.03e-05	0	44	0	105906176	17	4544
2026-01-22 10:07:36.82	153.54	10.19	-28.1	-30.0	13.0	3.81e-05	0	44	0	115343360	17	4513
2026-01-22 10:07:39.82	153.51	10.46	-28.1	-29.9	13.2	2.13e-05	0	44	0	124780544	17	4424
2026-01-22 10:07:42.82	153.48	10.73	-28.1	-29.8	13.3	1.29e-05	0	44	0	134217728	17	4381
2026-01-22 10:07:45.84	153.46	11.00	-28.1	-30.0	13.2	1.60e-05	0	44	0	143654912	17	4456
2026-01-22 10:07:48.85	153.43	11.27	-27.9	-29.4	13.6	1.06e-05	0	44	0	153092096	17	4284
2026-01-22 10:07:51.85	153.40	11.55	-27.9	-29.3	13.7	5.30e-06	0	44	0	162529280	17	4268
2026-01-22 10:07:54.87	153.37	11.83	-27.7	-29.6	13.8	7.00e-07	0	44	0	171966464	16	4442
2026-01-22 10:07:57.88	153.34	12.12	-27.7	-29.4	13.9	3.00e-06	0	44	0	181403648	16	4404
2026-01-22 10:08:00.86	153.31	12.40	-27.6	-29.4	13.9	3.80e-06	0	44	0	190840832	16	4407
2026-01-22 10:08:03.87	153.27	12.69	-27.6	-29.2	14.1	7.00e-07	0	44	0	200278016	16	4348
2026-01-22 10:08:06.88	153.24	12.99	-27.6	-29.1	14.2	1.50e-06	0	44	0	209715200	16	4291
2026-01-22 10:08:09.90	153.20	13.29	-27.6	-29.2	14.1	0.00e+00	0	44	0	219152384	16	4323
2026-01-22 10:08:12.91	153.17	13.59	-27.6	-29.0	14.3	7.00e-07	0	44	0	228589568	16	4265
2026-01-22 10:08:15.92	153.13	13.90	-27.5	-28.8	14.4	0.00e+00	0	44	0	236978176	16	4199
2026-01-22 10:08:18.93	153.10	14.20	-27.5	-28.8	14.5	0.00e+00	0	44	0	247463936	16	4200
2026-01-22 10:08:21.94	153.06	14.52	-27.4	-28.7	14.6	3.00e-06	0	44	0	255852544	16	4168
2026-01-22 10:08:24.96	153.02	14.84	-27.6	-29.1	14.3	0.00e+00	0	44	0	265289728	16	4284
2026-01-22 10:08:27.96	152.98	15.16	-27.7	-29.4	14.2	6.10e-06	0	44	0	274726912	16	4351
2026-01-22 10:08:30.97	152.94	15.48	-27.5	-28.9	14.5	3.80e-06	0	44	0	284164096	16	4227
2026-01-22 10:08:33.97	152.90	15.81	-27.6	-29.1	14.5	2.20e-06	0	44	0	293601280	16	4260
2026-01-22 10:08:36.97	152.85	16.15	-27.5	-28.8	14.7	2.20e-06	0	44	0	303038464	16	4170
2026-01-22 10:08:39.98	152.81	16.49	-27.6	-29.1	14.5	0.00e+00	0	44	0	312475648	16	4248
2026-01-22 10:08:43.00	152.76	16.83	-27.6	-29.1	14.5	0.00e+00	0	44	0	321912832	16	4261
2026-01-22 10:08:45.98	152.72	17.18	-27.7	-29.2	14.5	3.80e-06	0	44	0	331350016	16	4295
2026-01-22 10:08:48.98	152.67	17.53	-27.7	-29.3	14.5	0.00e+00	0	44	0	340787200	16	4318
2026-01-22 10:08:51.98	152.62	17.89	-27.7	-29.1	14.6	0.00e+00	0	44	0	350224384	16	4250
2026-01-22 10:08:55.01	152.57	18.26	-27.7	-29.1	14.7	7.00e-07	0	44	0	359661568	16	4240
2026-01-22 10:08:58.01	152.51	18.63	-27.8	-29.3	14.6	0.00e+00	0	44	0	369098752	16	4295
2026-01-22 10:09:01.02	152.46	19.00	-27.8	-29.4	14.6	0.00e+00	0	44	0	378535936	16	4315
2026-01-22 10:09:04.03	152.40	19.38	-27.7	-29.1	14.8	0.00e+00	0	44	0	387973120	16	4226
2026-01-22 10:09:07.04	152.35	19.77	-27.6	-28.8	15.0	0.00e+00	0	44	0	397410304	16	4153
2026-01-22 10:09:10.04	152.29	20.16	-27.5	-28.7	15.1	0.00e+00	0	44	0	406847488	16	4118
2026-01-22 10:09:13.04	152.23	20.56	-27.6	-28.9	14.9	0.00e+00	0	44	0	416284672	16	4179
2026-01-22 10:09:16.04	152.16	20.97	-27.5	-28.6	15.1	0.00e+00	0	44	0	425721856	16	4113
2026-01-22 10:09:19.04	152.10	21.38	-27.4	-28.5	15.2	0.00e+00	0	44	0	435159040	16	4069
2026-01-22 10:09:22.04	152.03	21.80	-27.0	-28.1	15.5	0.00e+00	0	44	0	444596224	15	4083
2026-01-22 10:09:25.05	151.97	22.22	-26.8	-28.1	15.9	0.00e+00	0	44	0	454033408	14	4178
2026-01-22 10:09:28.05	151.89	22.66	-26.6	-27.6	16.1	0.00e+00	0	44	0	462422016	14	4055
2026-01-22 10:09:31.06	151.82	23.10	-26.4	-27.2	16.4	0.00e+00	0	44	0	471859200	14	3956
2026-01-22 10:09:34.06	151.75	23.55	-26.4	-27.1	16.5	0.00e+00	0	44	0	481296384	14	3917
2026-01-22 10:09:37.07	151.67	24.00	-26.3	-27.0	16.5	0.00e+00	0	44	0	490733568	14	3886
2026-01-22 10:09:40.07	151.59	24.47	-26.3	-27.4	16.6	0.00e+00	0	44	0	500170752	13	4101
2026-01-22 10:09:43.06	151.51	24.94	-26.3	-27.5	16.6	0.00e+00	0	44	0	509607936	13	4113
2026-01-22 10:09:46.06	151.42	25.42	-26.5	-27.9	16.3	0.00e+00	0	44	0	519045120	13	4241
2026-01-22 10:09:49.07	151.33	25.91	-26.6	-28.2	16.2	0.00e+00	0	44	0	528482304	13	4316
2026-01-22 10:09:52.07	151.24	26.40	-26.9	-28.8	15.9	0.00e+00	0	44	0	537919488	13	4481
2026-01-22 10:09:55.08	151.14	26.91	-27.5	-29.5	15.3	0.00e+00	0	44	0	547356672	14	4566
2026-01-22 10:09:58.09	151.04	27.43	-27.7	-29.5	15.0	0.00e+00	0	44	0	556793856	15	4466
2026-01-22 10:10:01.09	150.94	27.96	-28.1	-30.0	14.6	7.00e-07	0	44	0	566231040	16	4482
2026-01-22 10:10:04.09	150.84	28.49	-28.3	-30.6	14.3	7.00e-07	0	44	0	575668224	16	4644
2026-01-22 10:10:07.11	150.73	29.04	-28.1	-30.0	14.7	7.00e-07	0	44	0	585105408	16	4467
2026-01-22 10:10:10.12	150.61	29.60	-28.0	-29.7	14.8	0.00e+00	0	44	0	594542592	16	4401
2026-01-22 10:10:13.12	150.49	30.17	-28.2	-30.3	14.5	7.00e-07	0	44	0	603979776	16	4562
2026-01-22 10:10:16.13	150.37	30.75	-27.9	-29.5	15.0	0.00e+00	0	44	0	613416960	16	4334
2026-01-22 10:10:19.14	150.24	31.35	-27.9	-29.6	15.0	0.00e+00	0	44	0	622854144	16	4342
2026-01-22 10:10:22.16	150.11	31.96	-26.8	-27.5	16.2	0.00e+00	0	44	0	632291328	15	3902
2026-01-22 10:10:25.16	149.97	32.57	-27.0	-28.5	15.9	0.00e+00	0	44	0	641728512	14	4283
2026-01-22 10:10:28.19	149.82	33.21	-27.3	-29.1	15.6	0.00e+00	0	44	0	651165696	14	4441
2026-01-22 10:10:31.19	149.67	33.85	-27.7	-29.5	15.1	0.00e+00	0	44	0	660602880	15	4446
2026-01-22 10:10:34.20	149.52	34.51	-27.7	-29.5	15.1	0.00e+00	0	44	0	670040064	15	4437
2026-01-22 10:10:37.20	149.35	35.18	-27.9	-29.9	14.9	0.00e+00	0	44	0	679477248	15	4576
2026-01-22 10:10:40.20	149.18	35.86	-28.6	-30.6	14.2	0.00e+00	0	44	0	688914432	17	4527
2026-01-22 10:10:43.21	149.00	36.56	-28.5	-30.4	14.3	0.00e+00	0	44	0	697303040	17	4455
2026-01-22 10:10:46.20	148.81	37.27	-28.3	-29.9	14.6	7.00e-07	0	44	0	706740224	17	4312
2026-01-22 10:10:49.21	148.62	38.00	-28.2	-29.7	14.7	0.00e+00	0	44	0	716177408	17	4261
2026-01-22 10:10:52.23	148.41	38.75	-28.3	-29.9	14.6	0.00e+00	0	44	0	725614592	17	4312
2026-01-22 10:10:55.24	148.19	39.51	-28.4	-30.1	14.5	7.00e-07	0	44	0	735051776	17	4373
2026-01-22 10:10:58.24	147.97	40.29	-28.2	-29.7	14.7	0.00e+00	0	44	0	744488960	17	4253
2026-01-22 10:11:01.24	147.73	41.08	-28.4	-30.2	14.5	7.00e-07	0	44	0	753926144	17	4396
2026-01-22 10:11:04.23	147.48	41.89	-28.9	-31.4	13.8	3.00e-06	0	44	0	763363328	17	4776
2026-01-22 10:11:07.23	147.21	42.72	-29.3	-31.7	13.3	1.29e-05	0	44	0	772800512	18	4749
2026-01-22 10:11:10.24	146.93	43.56	-29.4	-31.9	13.1	2.44e-05	0	44	0	782237696	18	4846
2026-01-22 10:11:13.25	146.64	44.43	-29.7	-32.2	12.7	8.54e-05	0	44	0	791674880	19	4796
2026-01-22 10:11:16.26	146.33	45.32	-30.0	-32.4	12.2	2.07e-04	0	44	0	801112064	20	4794
2026-01-22 10:11:19.27	145.99	46.22	-30.0	-32.4	12.2	2.94e-04	0	44	0	810549248	20	4769
2026-01-22 10:11:22.28	145.64	47.14	-29.9	-32.2	12.3	1.51e-04	0	44	0	819986432	20	4727
2026-01-22 10:11:25.28	145.27	48.08	-29.4	-31.1	13.0	4.04e-05	0	44	0	829423616	20	4370
2026-01-22 10:11:28.30	144.87	49.05	-29.4	-31.1	13.0	2.59e-05	0	44	0	838860800	20	4371
2026-01-22 10:11:31.30	144.44	50.02	-29.3	-30.9	13.1	3.20e-05	0	44	0	848297984	20	4318
2026-01-22 10:11:34.30	143.99	51.02	-29.1	-30.8	13.6	8.30e-06	0	44	0	857735168	19	4365
2026-01-22 10:11:37.30	143.51	52.04	-28.4	-29.6	14.6	3.00e-06	0	44	0	867172352	18	4139
2026-01-22 10:11:40.29	142.99	53.07	-28.4	-29.7	14.6	7.00e-07	0	44	0	876609536	18	4156
2026-01-22 10:11:43.30	142.43	54.13	-28.4	-30.0	14.7	1.50e-06	0	44	0	886046720	17	4348
2026-01-22 10:11:46.31	141.82	55.21	-28.1	-29.4	15.0	7.00e-07	0	44	0	895483904	17	4173
2026-01-22 10:11:49.32	141.17	56.31	-27.8	-29.2	15.4	0.00e+00	0	44	0	903872512	16	4216
2026-01-22 10:11:52.34	140.45	57.42	-27.2	-28.3	16.0	0.00e+00	0	44	0	914358272	15	4103
2026-01-22 10:11:55.34	139.68	58.55	-26.9	-27.7	16.4	7.00e-07	0	44	0	922746880	15	3956
2026-01-22 10:11:58.36	138.84	59.71	-26.7	-27.8	16.6	0.00e+00	0	44	0	932184064	14	4077
2026-01-22 10:12:01.37	137.92	60.87	-26.6	-27.5	16.8	7.00e-07	0	44	0	941621248	14	4009
2026-01-22 10:12:04.38	136.90	62.05	-26.3	-26.9	17.1	0.00e+00	0	44	0	951058432	14	3848
2026-01-22 10:12:07.38	135.79	63.23	-26.1	-27.0	17.3	1.50e-06	0	44	0	960495616	13	3983
2026-01-22 10:12:10.40	134.55	64.43	-26.4	-27.7	16.9	1.50e-06	0	44	0	969932800	13	4161
2026-01-22 10:12:13.40	133.18	65.64	-26.3	-27.4	17.1	0.00e+00	0	44	0	979369984	13	4084
2026-01-22 10:12:16.42	131.64	66.85	-26.1	-26.9	17.4	7.00e-07	0	44	0	988807168	13	3965
2026-01-22 10:12:19.44	129.92	68.07	-26.7	-28.4	16.5	0.00e+00	0	44	0	998244352	13	4345
2026-01-22 10:12:22.44	127.98	69.27	-26.3	-27.4	17.0	0.00e+00	0	44	0	1007681536	13	4089
2026-01-22 10:12:25.46	125.77	70.47	-25.9	-26.6	17.5	0.00e+00	0	44	0	1017118720	13	3879
2026-01-22 10:12:28.45	123.28	71.64	-25.8	-26.8	17.7	0.00e+00	0	44	0	1026555904	12	4025
2026-01-22 10:12:31.46	120.41	72.80	-26.3	-27.8	17.2	0.00e+00	0	44	0	1035993088	12	4294
2026-01-22 10:12:34.47	117.11	73.92	-26.1	-27.4	17.4	0.00e+00	0	44	0	1045430272	12	4183
2026-01-22 10:12:37.48	113.30	74.98	-25.8	-26.8	17.6	0.00e+00	0	44	0	1054867456	12	4041
2026-01-22 10:12:40.49	108.91	75.99	-25.9	-27.0	17.6	0.00e+00	0	45	0	1064304640	12	4088
2026-01-22 10:12:43.50	103.85	76.90	-25.6	-26.4	17.9	0.00e+00	0	45	0	1073741824	12	3925
2026-01-22 10:12:46.50	98.07	77.71	-25.9	-27.0	17.6	0.00e+00	0	44	0	1083179008	12	4080
2026-01-22 10:12:49.52	91.48	78.38	-26.6	-28.1	16.7	0.00e+00	0	44	0	1092616192	13	4266
2026-01-22 10:12:52.52	84.23	78.89	-26.9	-28.6	16.5	0.00e+00	0	45	0	1102053376	13	4400
2026-01-22 10:12:55.52	76.41	79.20	-26.7	-27.8	16.7	0.00e+00	0	44	0	1111490560	14	4076
2026-01-22 10:12:58.53	68.24	79.31	-26.4	-27.4	17.1	0.00e+00	0	44	0	1120927744	13	4084
2026-01-22 10:13:01.53	60.10	79.21	-26.5	-27.9	16.9	0.00e+00	0	44	0	1130364928	13	4200
2026-01-22 10:13:04.53	52.27	78.89	-26.6	-28.1	16.8	0.00e+00	0	45	0	1139802112	13	4259
2026-01-22 10:13:07.55	44.96	78.39	-26.5	-27.8	17.0	0.00e+00	0	45	0	1149239296	13	4179
2026-01-22 10:13:10.56	38.40	77.72	-26.4	-27.7	16.9	0.00e+00	0	45	0	1158676480	13	4147
2026-01-22 10:13:13.57	32.60	76.91	-26.0	-26.6	17.5	0.00e+00	0	44	0	1168113664	13	3882
2026-01-22 10:13:16.58	27.53	76.00	-25.8	-26.7	17.7	0.00e+00	0	45	0	1177550848	12	3996
2026-01-22 10:13:19.59	23.14	74.99	-25.6	-26.4	17.9	0.00e+00	0	45	0	1186988032	12	3930
2026-01-22 10:13:22.60	19.33	73.93	-26.8	-28.4	16.7	0.00e+00	0	45	0	1196425216	13	4332
2026-01-22 10:13:25.60	16.04	72.81	-25.5	-26.1	18.1	0.00e+00	0	45	0	1204813824	12	3848
2026-01-22 10:13:28.61	13.17	71.66	-25.9	-26.9	17.6	0.00e+00	0	45	0	1214251008	12	4053
2026-01-22 10:13:31.62	10.66	70.48	-25.1	-25.7	18.6	0.00e+00	0	45	0	1223688192	11	3873
2026-01-22 10:13:34.62	8.47	69.29	-26.6	-28.1	16.7	0.00e+00	0	45	0	1233125376	13	4268
2026-01-22 10:13:37.62	6.53	68.09	-26.9	-28.6	16.4	0.00e+00	0	45	0	1242562560	13	4410
2026-01-22 10:13:40.62	4.81	66.89	-27.6	-29.4	15.5	0.00e+00	0	45	0	1251999744	15	4411
2026-01-22 10:13:43.63	3.28	65.68	-25.6	-26.3	17.8	0.00e+00	0	44	0	1261436928	12	3915
2026-01-22 10:13:46.64	1.90	64.48	-26.3	-28.0	16.9	0.00e+00	0	44	0	1270874112	12	4347
2026-01-22 10:13:49.64	0.67	63.29	-27.1	-28.6	16.1	0.00e+00	0	45	0	1280311296	14	4279
2026-01-22 10:13:52.65	359.55	62.10	-27.0	-28.3	16.2	0.00e+00	0	45	0	1289748480	14	4205
2026-01-22 10:13:55.67	358.53	60.92	-28.7	-30.7	14.4	0.00e+00	0	44	0	1299185664	17	4543
2026-01-22 10:13:58.68	357.61	59.76	-27.9	-28.9	15.0	7.00e-07	0	45	0	1308622848	17	4052
2026-01-22 10:14:01.70	356.77	58.61	-26.7	-27.7	16.5	0.00e+00	0	44	0	1318060032	14	4052
2026-01-22 10:14:04.71	356.00	57.48	-28.4	-30.6	14.4	7.00e-07	0	44	0	1327497216	16	4631
2026-01-22 10:14:07.71	355.29	56.38	-28.1	-29.3	15.0	0.00e+00	0	45	0	1336934400	17	4142
2026-01-22 10:14:10.70	354.64	55.29	-27.2	-28.3	16.0	0.00e+00	0	45	0	1346371584	15	4090
2026-01-22 10:14:13.72	354.03	54.21	-27.9	-30.0	15.1	0.00e+00	0	45	0	1355808768	15	4582
2026-01-22 10:14:16.73	353.47	53.15	-29.0	-31.5	13.8	2.20e-06	0	45	0	1365245952	17	4804
2026-01-22 10:14:19.74	352.94	52.12	-28.9	-30.7	14.0	7.00e-07	0	44	0	1374683136	18	4430
2026-01-22 10:14:22.75	352.46	51.10	-28.8	-30.4	14.1	1.50e-06	0	45	0	1384120320	18	4342
2026-01-22 10:14:25.76	352.00	50.10	-29.0	-31.0	13.7	5.30e-06	0	45	0	1393557504	18	4528
2026-01-22 10:14:28.78	351.58	49.12	-30.1	-32.8	12.0	2.39e-04	0	44	0	1402994688	20	4914
2026-01-22 10:14:31.79	351.18	48.16	-29.5	-31.4	12.8	7.70e-05	0	45	0	1412431872	20	4436
2026-01-22 10:14:34.80	350.81	47.22	-28.9	-30.2	13.9	3.80e-06	0	45	0	1421869056	19	4196
2026-01-22 10:14:37.81	350.45	46.30	-29.5	-31.7	13.0	2.13e-05	0	45	0	1431306240	19	4639
2026-01-22 10:14:40.82	350.12	45.40	-29.9	-32.2	12.3	2.75e-04	0	45	0	1440743424	20	4701
2026-01-22 10:14:43.83	349.81	44.52	-29.4	-31.0	13.0	3.20e-05	0	45	0	1450180608	20	4315
2026-01-22 10:14:46.84	349.52	43.66	-29.5	-31.8	12.9	2.82e-05	0	45	0	1459617792	19	4674
2026-01-22 10:14:49.85	349.24	42.81	-29.9	-32.4	12.1	3.42e-04	0	44	0	1469054976	20	4768
2026-01-22 10:14:52.87	348.97	41.98	-29.0	-30.4	13.7	1.22e-05	0	44	0	1477443584	19	4258
2026-01-22 10:14:55.86	348.72	41.18	-29.0	-30.6	13.6	4.50e-06	0	44	0	1486880768	19	4298
2026-01-22 10:14:58.87	348.48	40.38	-29.4	-31.5	13.0	2.28e-05	0	45	0	1496317952	19	4584
2026-01-22 10:15:01.89	348.26	39.60	-29.3	-31.3	13.1	2.36e-05	0	45	0	1505755136	19	4521
2026-01-22 10:15:04.91	348.04	38.84	-29.2	-30.9	13.4	5.30e-06	0	44	0	1515192320	19	4398
2026-01-22 10:15:07.92	347.84	38.10	-29.2	-31.0	13.3	2.28e-05	0	45	0	1524629504	19	4438
2026-01-22 10:15:10.92	347.64	37.37	-28.5	-29.8	14.3	3.00e-06	0	45	0	1534066688	18	4198
2026-01-22 10:15:13.93	347.46	36.66	-28.1	-29.4	14.8	0.00e+00	0	44	0	1543503872	17	4195
2026-01-22 10:15:16.95	347.28	35.96	-28.0	-29.2	14.9	0.00e+00	0	44	0	1552941056	17	4127
2026-01-22 10:15:19.97	347.11	35.27	-28.2	-29.7	14.7	0.00e+00	0	45	0	1562378240	17	4264
2026-01-22 10:15:22.97	346.94	34.61	-28.3	-30.0	14.6	7.00e-07	0	44	0	1571815424	17	4336
2026-01-22 10:15:25.98	346.79	33.95	-28.1	-29.4	14.8	0.00e+00	0	45	0	1581252608	17	4194
2026-01-22 10:15:28.98	346.64	33.31	-27.9	-29.0	15.1	0.00e+00	0	45	0	1590689792	17	4066
2026-01-22 10:15:31.99	346.49	32.68	-27.5	-28.5	15.6	0.00e+00	0	44	0	1600126976	16	4041
2026-01-22 10:15:35.00	346.36	32.07	-27.5	-28.6	15.5	0.00e+00	0	45	0	1609564160	16	4082
2026-01-22 10:15:38.01	346.23	31.47	-27.8	-29.2	15.2	0.00e+00	0	45	0	1619001344	16	4239
2026-01-22 10:15:41.02	346.10	30.87	-28.0	-29.8	14.8	0.00e+00	0	44	0	1628438528	16	4407
2026-01-22 10:15:44.03	345.98	30.29	-28.2	-30.2	14.5	7.00e-07	0	45	0	1637875712	16	4527
2026-01-22 10:15:47.03	345.86	29.73	-27.8	-29.4	15.0	0.00e+00	0	45	0	1647312896	16	4285
2026-01-22 10:15:50.04	345.75	29.17	-27.8	-29.3	15.1	0.00e+00	0	45	0	1656750080	16	4263
2026-01-22 10:15:53.06	345.64	28.62	-27.7	-29.0	15.2	0.00e+00	0	45	0	1666187264	16	4192
2026-01-22 10:15:56.06	345.53	28.09	-27.7	-28.9	15.2	0.00e+00	0	44	0	1675624448	16	4162
2026-01-22 10:15:59.07	345.43	27.56	-27.3	-28.1	15.7	7.00e-07	0	45	0	1685061632	16	3937
2026-01-22 10:16:02.07	345.34	27.04	-26.9	-27.7	16.0	0.00e+00	0	45	0	1694498816	15	3969
2026-01-22 10:16:05.09	345.24	26.54	-26.8	-27.5	16.1	0.00e+00	0	44	0	1703936000	15	3902
2026-01-22 10:16:08.11	345.15	26.04	-26.9	-28.2	16.0	0.00e+00	0	44	0	1713373184	14	4183
2026-01-22 10:16:11.12	345.06	25.55	-26.7	-27.9	16.1	0.00e+00	0	44	0	1722810368	14	4110
2026-01-22 10:16:14.12	344.98	25.07	-26.8	-28.0	16.1	0.00e+00	0	45	0	1732247552	14	4135
2026-01-22 10:16:17.13	344.90	24.60	-26.9	-28.3	15.9	0.00e+00	0	44	0	1741684736	14	4223
2026-01-22 10:16:20.14	344.82	24.13	-27.3	-29.2	15.4	0.00e+00	0	45	0	1751121920	14	4459
2026-01-22 10:16:23.14	344.74	23.68	-27.4	-29.3	15.3	0.00e+00	0	44	0	1760559104	14	4504
2026-01-22 10:16:26.15	344.67	23.23	-27.3	-29.1	15.4	0.00e+00	0	44	0	1769996288	14	4460
2026-01-22 10:16:29.16	344.60	22.79	-27.0	-27.9	15.8	0.00e+00	0	44	0	1778384896	15	4012
2026-01-22 10:16:32.18	344.53	22.36	-26.7	-27.7	16.1	0.00e+00	0	44	0	1788870656	14	4077
2026-01-22 10:16:35.18	344.46	21.94	-26.8	-28.0	16.0	0.00e+00	0	45	0	1797259264	14	4136
2026-01-22 10:16:38.19	344.40	21.52	-26.7	-27.8	16.1	0.00e+00	0	44	0	1806696448	14	4084
2026-01-22 10:16:41.20	344.33	21.11	-26.8	-28.0	15.9	7.00e-07	0	44	0	1816133632	14	4149
2026-01-22 10:16:44.23	344.27	20.70	-26.7	-27.9	16.0	0.00e+00	0	44	0	1825570816	14	4124
2026-01-22 10:16:47.24	344.21	20.30	-26.8	-28.1	15.9	0.00e+00	0	44	0	1835008000	14	4185
2026-01-22 10:16:50.25	344.16	19.91	-26.9	-28.3	15.7	0.00e+00	0	44	0	1844445184	14	4224
2026-01-22 10:16:53.25	344.10	19.52	-27.0	-28.6	15.6	7.00e-07	0	44	0	1853882368	14	4310
2026-01-22 10:16:56.25	344.05	19.14	-27.0	-28.6	15.5	0.00e+00	0	44	0	1863319552	14	4326
2026-01-22 10:16:59.27	344.00	18.77	-27.2	-29.1	15.3	0.00e+00	0	44	0	1872756736	14	4442
2026-01-22 10:17:02.27	343.95	18.40	-27.4	-29.4	15.0	7.00e-07	0	44	0	1882193920	14	4556
2026-01-22 10:17:05.28	343.90	18.04	-27.8	-29.8	14.6	7.00e-07	0	44	0	1891631104	15	4548
2026-01-22 10:17:08.29	343.85	17.68	-27.7	-29.8	14.6	7.00e-07	0	44	0	1901068288	15	4543
2026-01-22 10:17:11.30	343.80	17.33	-27.9	-30.1	14.3	1.50e-06	0	44	0	1910505472	15	4647
2026-01-22 10:17:14.30	343.76	16.98	-28.1	-30.0	14.2	1.50e-06	0	44	0	1919942656	16	4493
2026-01-22 10:17:17.32	343.71	16.63	-28.0	-29.8	14.3	7.00e-07	0	44	0	1929379840	16	4442
2026-01-22 10:17:20.34	343.67	16.29	-28.0	-29.8	14.4	0.00e+00	0	44	0	1938817024	16	4438
2026-01-22 10:17:23.35	343.63	15.96	-28.0	-30.0	14.2	1.50e-06	0	44	0	1948254208	16	4484
2026-01-22 10:17:26.34	343.59	15.63	-28.1	-30.1	14.1	1.50e-06	0	44	0	1957691392	16	4535
2026-01-22 10:17:29.35	343.55	15.31	-28.0	-29.9	14.2	0.00e+00	0	44	0	1967128576	16	4470
2026-01-22 10:17:32.37	343.51	14.99	-28.0	-29.9	14.1	7.00e-07	0	44	0	1976565760	16	4481
2026-01-22 10:17:35.38	343.48	14.67	-28.0	-29.8	14.1	2.20e-06	0	44	0	1986002944	16	4433
2026-01-22 10:17:38.39	343.44	14.36	-28.0	-29.8	14.1	2.20e-06	0	44	0	1995440128	16	4451
2026-01-22 10:17:41.40	343.41	14.05	-28.0	-29.9	14.2	7.00e-07	0	44	0	2004877312	16	4459
2026-01-22 10:17:44.42	343.37	13.74	-28.1	-30.1	13.9	4.50e-06	0	44	0	2014314496	16	4525
2026-01-22 10:17:47.43	343.34	13.44	-28.0	-29.9	14.1	4.50e-06	0	44	0	2023751680	16	4479
2026-01-22 10:17:50.44	343.31	13.14	-28.0	-29.9	13.8	1.50e-06	0	44	0	2033188864	16	4491
2026-01-22 10:17:53.44	343.28	12.85	-28.1	-30.2	13.0	2.28e-05	0	44	0	2042626048	16	4584
2026-01-22 10:17:56.44	343.25	12.56	-28.2	-30.4	13.3	1.60e-05	0	44	0	2052063232	16	4618
2026-01-22 10:17:59.44	343.22	12.28	-28.4	-30.8	13.1	2.59e-05	0	44	0	2061500416	16	4767
2026-01-22 10:18:02.45	343.19	11.99	-28.5	-30.6	13.2	2.89e-05	0	44	0	2070937600	17	4584
2026-01-22 10:18:05.48	343.16	11.71	-28.5	-30.5	13.2	2.44e-05	0	44	0	2080374784	17	4559
2026-01-22 10:18:08.49	343.14	11.43	-28.4	-30.3	13.0	3.35e-05	0	44	0	2089811968	17	4515
2026-01-22 10:18:11.50	343.11	11.16	-28.3	-30.2	12.5	8.08e-05	0	44	0	2098200576	17	4467
2026-01-22 10:18:14.51	343.08	10.89	-28.4	-30.4	12.4	1.15e-04	0	44	0	2107637760	17	4521
2026-01-22 10:18:17.52	343.06	10.62	-28.5	-30.6	12.9	4.34e-05	0	44	0	2117074944	17	4603
2026-01-22 10:18:20.54	343.03	10.35	-28.6	-30.9	12.9	4.27e-05	0	44	0	2126512128	17	4697
2026-01-22 10:18:23.56	343.01	10.09	-28.7	-31.1	12.6	7.24e-05	0	44	0	2135949312	17	4750
2026-01-22 10:18:26.58	342.99	9.83	-28.8	-31.5	12.5	1.07e-04	0	44	0	2145386496	17	4895
2026-01-22 10:18:29.59	342.97	9.57	-28.7	-31.2	12.7	8.31e-05	0	44	0	2154823680	17	4796
2026-01-22 10:18:32.60	342.94	9.32	-28.8	-31.4	12.6	9.23e-05	0	44	0	2164260864	17	4853
2026-01-22 10:18:35.61	342.92	9.07	-28.8	-31.3	12.7	1.07e-04	0	44	0	2173698048	17	4842
2026-01-22 10:18:38.62	342.90	8.82	-28.9	-31.6	12.3	1.56e-04	0	44	0	2183135232	17	4954
2026-01-22 10:18:41.64	342.88	8.57	-28.9	-31.6	12.4	1.59e-04	0	44	0	2192572416	17	4948
2026-01-22 10:18:44.65	342.86	8.33	-29.0	-31.9	12.2	1.78e-04	0	44	0	2202009600	17	5040
2026-01-22 10:18:47.67	342.85	8.08	-29.1	-31.8	11.9	3.97e-04	0	44	0	2211446784	18	4888
2026-01-22 10:18:50.68	342.83	7.84	-29.3	-32.2	11.7	4.82e-04	0	44	0	2220883968	18	5054
2026-01-22 10:18:53.69	342.81	7.61	-29.4	-32.6	11.3	1.00e-03	0	44	0	2230321152	18	5217
2026-01-22 10:18:56.70	342.79	7.37	-29.4	-32.6	11.3	1.27e-03	0	44	0	2239758336	18	5215
2026-01-22 10:18:59.72	342.77	7.14	-29.4	-32.1	11.3	1.20e-03	0	44	0	2249195520	19	4920

#Closed at: 2026-01-22 10:19:02
#Recorded file [2253 MB]: D:/data/31010_260122_130659.dat