passes_logs/2026/01/22/R2M6_AANII_01/R2M6_AANII_01__20260122_095702_FENGYUN_3D_rec.log

#Pass ID: 20260122_095702_FENGYUN 3D
#Satellite: FENGYUN 3D
#Configuration: FENGYUN 3D
#almurnet v.1.7.20240730
#Start time: 2026-01-22 09:57:04

#Version: 2.2.20231116
#Station: R2M6_AANII_01
#Location: 30.233357 lon 59.946436 lat
#TLE: 1 43010U 17072A   26021.48744220  .00000253  00000+0  14133-3 0  9991
#TLE: 2 43010  98.9948 353.4037 0002485  97.2578 262.8880 14.19697766424177

#Time	Az	El	Level	Level2	SNR	BER	BlckErr	Temp	State	Recorded	gain1	gain2
2026-01-22 09:57:04.07	84.64	7.11	-30.6	-34.4	5.0	7.95e-01	0	41	0	0	22	5583
2026-01-22 09:57:07.08	84.30	7.28	-29.6	-32.2	10.0	1.08e-02	0	41	0	5242880	20	4877
2026-01-22 09:57:10.09	83.96	7.45	-29.5	-32.0	10.2	8.02e-03	0	41	0	22020096	20	4800
2026-01-22 09:57:13.10	83.62	7.62	-28.2	-30.1	12.5	2.75e-04	0	41	0	38797312	17	4473
2026-01-22 09:57:16.11	83.27	7.79	-27.3	-28.5	13.7	6.80e-06	0	41	0	55574528	16	4138
2026-01-22 09:57:19.12	82.91	7.96	-27.2	-28.7	13.7	8.00e-06	0	42	0	73400320	15	4312
2026-01-22 09:57:22.13	82.56	8.14	-26.9	-28.1	14.1	1.10e-06	0	42	0	90177536	15	4124
2026-01-22 09:57:25.14	82.19	8.31	-26.8	-28.3	14.3	0.00e+00	0	42	0	106954752	14	4294
2026-01-22 09:57:28.15	81.83	8.48	-26.6	-28.0	14.5	0.00e+00	0	42	0	123731968	14	4202
2026-01-22 09:57:31.15	81.46	8.65	-26.7	-28.0	14.5	3.40e-06	0	42	0	140509184	14	4215
2026-01-22 09:57:34.15	81.08	8.82	-26.5	-27.7	14.7	0.00e+00	0	42	0	157286400	14	4117
2026-01-22 09:57:37.16	80.70	8.99	-26.6	-27.8	14.6	1.10e-06	0	42	0	174063616	14	4159
2026-01-22 09:57:40.17	80.32	9.17	-26.7	-28.2	14.5	0.00e+00	0	42	0	190840832	14	4254
2026-01-22 09:57:43.18	79.93	9.34	-26.9	-28.7	14.2	3.40e-06	0	42	0	208666624	14	4395
2026-01-22 09:57:46.19	79.54	9.51	-26.9	-28.6	14.3	2.20e-06	0	42	0	225443840	14	4360
2026-01-22 09:57:49.20	79.14	9.68	-26.8	-28.3	14.4	2.20e-06	0	42	0	242221056	14	4282
2026-01-22 09:57:52.22	78.73	9.85	-26.6	-27.9	14.7	1.10e-06	0	42	0	258998272	14	4166
2026-01-22 09:57:55.22	78.32	10.02	-26.6	-27.9	14.7	0.00e+00	0	42	0	275775488	14	4185
2026-01-22 09:57:58.22	77.91	10.19	-26.6	-27.8	14.8	0.00e+00	0	43	0	292552704	14	4157
2026-01-22 09:58:01.22	77.50	10.36	-26.5	-27.7	14.8	1.10e-06	0	43	0	309329920	14	4132
2026-01-22 09:58:04.23	77.07	10.53	-26.4	-27.3	15.1	0.00e+00	0	43	0	327155712	14	4025
2026-01-22 09:58:07.24	76.65	10.70	-26.5	-27.6	14.9	1.10e-06	0	43	0	343932928	14	4080
2026-01-22 09:58:10.24	76.21	10.87	-26.5	-27.5	15.0	0.00e+00	0	43	0	360710144	14	4073
2026-01-22 09:58:13.25	75.78	11.04	-26.3	-27.6	15.2	0.00e+00	0	43	0	377487360	13	4189
2026-01-22 09:58:16.26	75.33	11.21	-26.2	-27.5	15.2	0.00e+00	0	43	0	394264576	13	4183
2026-01-22 09:58:19.26	74.89	11.38	-26.3	-27.6	15.2	0.00e+00	0	43	0	411041792	13	4189
2026-01-22 09:58:22.28	74.43	11.54	-26.3	-27.7	15.2	0.00e+00	0	43	0	428867584	13	4228
2026-01-22 09:58:25.28	73.97	11.71	-26.1	-27.3	15.4	0.00e+00	0	43	0	445644800	13	4115
2026-01-22 09:58:28.29	73.51	11.88	-26.2	-27.4	15.3	0.00e+00	0	43	0	462422016	13	4153
2026-01-22 09:58:31.30	73.04	12.04	-26.2	-27.4	15.3	0.00e+00	0	43	0	479199232	13	4157
2026-01-22 09:58:34.31	72.56	12.21	-26.2	-27.5	15.3	0.00e+00	0	43	0	495976448	13	4173
2026-01-22 09:58:37.30	72.09	12.37	-26.0	-26.9	15.6	0.00e+00	0	43	0	512753664	13	4026
2026-01-22 09:58:40.32	71.60	12.53	-25.7	-26.9	15.9	0.00e+00	0	43	0	529530880	12	4127
2026-01-22 09:58:43.33	71.11	12.69	-25.7	-26.9	16.0	0.00e+00	0	43	0	546308096	12	4106
2026-01-22 09:58:46.35	70.61	12.85	-25.7	-26.9	16.0	1.10e-06	0	43	0	564133888	12	4123
2026-01-22 09:58:49.35	70.11	13.01	-25.7	-26.9	16.0	0.00e+00	0	43	0	580911104	12	4125
2026-01-22 09:58:52.37	69.60	13.17	-25.7	-26.9	16.0	0.00e+00	0	43	0	597688320	12	4113
2026-01-22 09:58:55.38	69.09	13.33	-26.0	-27.4	15.8	0.00e+00	0	43	0	614465536	12	4232
2026-01-22 09:58:58.39	68.57	13.49	-25.7	-26.8	16.2	0.00e+00	0	43	0	631242752	12	4079
2026-01-22 09:59:01.41	68.04	13.64	-25.9	-27.1	16.0	0.00e+00	0	43	0	648019968	12	4148
2026-01-22 09:59:04.41	67.51	13.79	-25.8	-27.0	16.1	0.00e+00	0	43	0	664797184	12	4119
2026-01-22 09:59:07.42	66.98	13.95	-26.0	-27.3	15.9	0.00e+00	0	43	0	681574400	12	4204
2026-01-22 09:59:10.43	66.44	14.10	-25.7	-26.7	16.2	0.00e+00	0	43	0	699400192	12	4042
2026-01-22 09:59:13.46	65.89	14.24	-26.1	-27.5	15.8	0.00e+00	0	43	0	716177408	12	4261
2026-01-22 09:59:16.46	65.34	14.39	-26.2	-27.7	15.7	0.00e+00	0	43	0	732954624	12	4314
2026-01-22 09:59:19.45	64.78	14.54	-26.3	-28.0	15.5	0.00e+00	0	43	0	749731840	12	4401
2026-01-22 09:59:22.46	64.22	14.68	-26.1	-27.1	15.8	0.00e+00	0	43	0	766509056	13	4050
2026-01-22 09:59:25.47	63.65	14.82	-25.4	-26.1	16.6	0.00e+00	0	43	0	783286272	12	3906
2026-01-22 09:59:28.48	63.08	14.96	-25.4	-26.0	16.7	0.00e+00	0	43	0	801112064	12	3864
2026-01-22 09:59:31.49	62.50	15.10	-25.4	-26.0	16.7	0.00e+00	0	43	0	817889280	12	3860
2026-01-22 09:59:34.51	61.91	15.23	-25.3	-26.3	16.9	0.00e+00	0	43	0	834666496	11	4036
2026-01-22 09:59:37.52	61.32	15.36	-25.2	-26.1	17.0	0.00e+00	0	43	0	851443712	11	3989
2026-01-22 09:59:40.53	60.73	15.49	-25.1	-25.8	17.1	0.00e+00	0	43	0	868220928	11	3923
2026-01-22 09:59:43.54	60.13	15.62	-24.9	-25.5	17.3	0.00e+00	0	43	0	884998144	11	3860
2026-01-22 09:59:46.55	59.52	15.74	-24.9	-25.4	17.4	0.00e+00	0	43	0	902823936	11	3816
2026-01-22 09:59:49.56	58.91	15.87	-24.9	-25.9	17.4	0.00e+00	0	43	0	919601152	10	4054
2026-01-22 09:59:52.56	58.30	15.99	-24.9	-26.0	17.3	0.00e+00	0	43	0	936378368	10	4082
2026-01-22 09:59:55.57	57.68	16.10	-24.8	-25.7	17.5	0.00e+00	0	43	0	953155584	10	3992
2026-01-22 09:59:58.57	57.05	16.22	-24.6	-25.3	17.7	0.00e+00	0	43	0	969932800	10	3898
2026-01-22 10:00:01.58	56.42	16.33	-24.6	-25.3	17.7	0.00e+00	0	43	0	986710016	10	3910
2026-01-22 10:00:04.60	55.79	16.44	-24.8	-25.6	17.5	1.10e-06	0	43	0	1003487232	10	3990
2026-01-22 10:00:07.61	55.15	16.54	-24.9	-25.9	17.4	0.00e+00	0	43	0	1020264448	10	4063
2026-01-22 10:00:10.60	54.51	16.64	-25.1	-26.3	17.2	0.00e+00	0	43	0	1038090240	10	4152
2026-01-22 10:00:13.61	53.86	16.74	-24.9	-26.0	17.4	0.00e+00	0	43	0	1054867456	10	4078
2026-01-22 10:00:16.62	53.21	16.83	-24.8	-25.7	17.5	0.00e+00	0	43	0	1071644672	10	4004
2026-01-22 10:00:19.63	52.55	16.93	-25.0	-26.2	17.3	0.00e+00	0	43	0	1088421888	10	4124
2026-01-22 10:00:22.64	51.89	17.01	-25.0	-26.2	17.3	0.00e+00	0	43	0	1105199104	10	4119
2026-01-22 10:00:25.65	51.23	17.10	-25.1	-26.3	17.2	0.00e+00	0	44	0	1121976320	10	4159
2026-01-22 10:00:28.65	50.56	17.18	-24.9	-26.0	17.4	0.00e+00	0	43	0	1138753536	10	4079
2026-01-22 10:00:31.66	49.89	17.26	-24.9	-25.9	17.4	0.00e+00	0	43	0	1155530752	10	4055
2026-01-22 10:00:34.67	49.22	17.33	-24.6	-25.3	17.8	0.00e+00	0	43	0	1173356544	10	3897
2026-01-22 10:00:37.67	48.54	17.40	-24.6	-25.3	17.8	0.00e+00	0	44	0	1190133760	10	3908
2026-01-22 10:00:40.68	47.86	17.46	-24.6	-25.4	17.7	0.00e+00	0	44	0	1206910976	10	3919
2026-01-22 10:00:43.69	47.18	17.52	-24.4	-25.0	17.9	0.00e+00	0	43	0	1223688192	10	3831
2026-01-22 10:00:46.70	46.49	17.58	-24.4	-24.8	18.0	0.00e+00	0	44	0	1240465408	10	3792
2026-01-22 10:00:49.71	45.81	17.63	-24.4	-25.0	17.9	0.00e+00	0	44	0	1257242624	10	3833
2026-01-22 10:00:52.72	45.11	17.68	-24.3	-24.7	18.1	0.00e+00	0	43	0	1274019840	10	3770
2026-01-22 10:00:55.74	44.42	17.73	-24.4	-25.0	18.0	0.00e+00	0	44	0	1291845632	10	3830
2026-01-22 10:00:58.76	43.72	17.77	-24.7	-25.4	17.7	0.00e+00	0	44	0	1308622848	10	3938
2026-01-22 10:01:01.76	43.03	17.81	-24.6	-25.3	17.8	0.00e+00	0	44	0	1325400064	10	3912
2026-01-22 10:01:04.77	42.33	17.84	-24.5	-25.0	17.9	0.00e+00	0	44	0	1342177280	10	3842
2026-01-22 10:01:07.77	41.63	17.86	-24.2	-25.0	18.2	0.00e+00	0	44	0	1358954496	9	3945
2026-01-22 10:01:10.78	40.93	17.89	-24.1	-24.8	18.3	0.00e+00	0	44	0	1375731712	9	3903
2026-01-22 10:01:13.80	40.23	17.91	-24.3	-25.1	18.1	0.00e+00	0	44	0	1393557504	9	3970
2026-01-22 10:01:16.81	39.53	17.92	-24.2	-24.9	18.2	0.00e+00	0	43	0	1410334720	9	3913
2026-01-22 10:01:19.81	38.82	17.93	-24.3	-25.2	18.1	0.00e+00	0	44	0	1427111936	9	3983
2026-01-22 10:01:22.82	38.12	17.94	-24.5	-25.7	17.8	0.00e+00	0	44	0	1443889152	9	4108
2026-01-22 10:01:25.84	37.42	17.94	-24.6	-25.8	17.8	0.00e+00	0	44	0	1460666368	9	4136
2026-01-22 10:01:28.86	36.71	17.93	-24.7	-25.9	17.7	0.00e+00	0	43	0	1477443584	9	4174
2026-01-22 10:01:31.86	36.01	17.93	-24.5	-25.6	17.9	0.00e+00	0	44	0	1494220800	9	4096
2026-01-22 10:01:34.87	35.31	17.91	-24.1	-24.7	18.3	0.00e+00	0	43	0	1510998016	9	3873
2026-01-22 10:01:37.87	34.61	17.90	-24.1	-24.8	18.3	0.00e+00	0	44	0	1528823808	9	3903
2026-01-22 10:01:40.87	33.91	17.88	-24.0	-24.6	18.4	0.00e+00	0	43	0	1545601024	9	3840
2026-01-22 10:01:43.89	33.21	17.85	-24.4	-25.3	18.0	0.00e+00	0	43	0	1562378240	9	4016
2026-01-22 10:01:46.90	32.51	17.82	-24.3	-25.3	18.0	0.00e+00	0	44	0	1579155456	9	4006
2026-01-22 10:01:49.90	31.81	17.79	-24.6	-25.9	17.7	0.00e+00	0	44	0	1595932672	9	4151
2026-01-22 10:01:52.91	31.12	17.75	-24.5	-25.7	17.8	0.00e+00	0	44	0	1612709888	9	4115
2026-01-22 10:01:55.92	30.42	17.71	-24.5	-25.5	17.9	0.00e+00	0	44	0	1629487104	9	4069
2026-01-22 10:01:58.94	29.73	17.66	-24.3	-25.3	18.0	0.00e+00	0	44	0	1647312896	9	4003
2026-01-22 10:02:01.96	29.04	17.61	-24.5	-25.5	17.9	0.00e+00	0	44	0	1664090112	9	4065
2026-01-22 10:02:04.97	28.35	17.55	-24.5	-25.6	17.8	0.00e+00	0	44	0	1680867328	9	4094
2026-01-22 10:02:07.99	27.67	17.49	-24.4	-25.4	18.0	0.00e+00	0	43	0	1697644544	9	4044
2026-01-22 10:02:10.99	26.99	17.43	-24.4	-25.4	18.0	0.00e+00	0	44	0	1714421760	9	4043
2026-01-22 10:02:14.00	26.31	17.36	-24.7	-25.9	17.7	0.00e+00	0	44	0	1731198976	9	4175
2026-01-22 10:02:17.01	25.64	17.29	-24.6	-25.7	17.7	0.00e+00	0	44	0	1749024768	9	4122
2026-01-22 10:02:20.02	24.96	17.22	-24.4	-25.5	17.9	0.00e+00	0	43	0	1765801984	9	4051
2026-01-22 10:02:23.02	24.30	17.14	-24.4	-25.4	17.9	0.00e+00	0	44	0	1782579200	9	4031
2026-01-22 10:02:26.03	23.63	17.05	-24.3	-25.1	18.1	0.00e+00	0	43	0	1799356416	9	3969
2026-01-22 10:02:29.04	22.97	16.97	-24.7	-26.1	17.5	0.00e+00	0	44	0	1816133632	9	4222
2026-01-22 10:02:32.05	22.32	16.88	-24.8	-26.2	17.5	0.00e+00	0	44	0	1832910848	9	4240
2026-01-22 10:02:35.06	21.66	16.79	-24.7	-26.0	17.6	0.00e+00	0	44	0	1849688064	9	4197
2026-01-22 10:02:38.07	21.02	16.69	-24.6	-25.8	17.7	0.00e+00	0	43	0	1867513856	9	4139
2026-01-22 10:02:41.07	20.37	16.59	-24.5	-25.6	17.8	0.00e+00	0	44	0	1884291072	9	4089
2026-01-22 10:02:44.08	19.73	16.49	-24.6	-25.9	17.6	0.00e+00	0	44	0	1901068288	9	4167
2026-01-22 10:02:47.09	19.10	16.38	-24.8	-26.3	17.4	0.00e+00	0	44	0	1917845504	9	4267
2026-01-22 10:02:50.08	18.47	16.27	-24.7	-26.1	17.5	0.00e+00	0	44	0	1934622720	9	4211
2026-01-22 10:02:53.09	17.85	16.16	-24.9	-26.4	17.4	0.00e+00	0	44	0	1951399936	9	4285
2026-01-22 10:02:56.10	17.23	16.04	-25.5	-27.2	16.7	0.00e+00	0	44	0	1968177152	10	4406
2026-01-22 10:02:59.09	16.61	15.93	-24.9	-26.0	17.3	0.00e+00	0	44	0	1984954368	10	4087
2026-01-22 10:03:02.10	16.00	15.81	-25.1	-26.4	17.1	0.00e+00	0	44	0	2002780160	10	4173
2026-01-22 10:03:05.11	15.40	15.68	-25.2	-26.6	17.0	0.00e+00	0	44	0	2019557376	10	4225
2026-01-22 10:03:08.13	14.79	15.56	-24.9	-26.1	17.3	0.00e+00	0	44	0	2036334592	10	4093
2026-01-22 10:03:11.15	14.19	15.43	-25.0	-26.2	17.2	0.00e+00	0	44	0	2053111808	10	4128
2026-01-22 10:03:14.16	13.60	15.30	-25.1	-26.4	17.1	0.00e+00	0	44	0	2069889024	10	4184
2026-01-22 10:03:17.16	13.02	15.16	-25.2	-26.6	16.9	0.00e+00	0	44	0	2086666240	10	4240
2026-01-22 10:03:20.16	12.44	15.03	-25.3	-26.7	16.9	0.00e+00	0	44	0	2103443456	10	4267
2026-01-22 10:03:23.18	11.87	14.89	-25.4	-27.0	16.7	0.00e+00	0	44	0	2121269248	10	4332
2026-01-22 10:03:26.20	11.29	14.75	-25.5	-26.7	16.6	0.00e+00	0	44	0	2138046464	11	4142
2026-01-22 10:03:29.20	10.73	14.61	-25.3	-26.4	16.8	0.00e+00	0	44	0	2154823680	11	4057
2026-01-22 10:03:32.22	10.17	14.46	-25.4	-26.5	16.7	0.00e+00	0	44	0	2171600896	11	4092
2026-01-22 10:03:35.22	9.62	14.32	-25.4	-26.5	16.7	0.00e+00	0	44	0	2188378112	11	4106
2026-01-22 10:03:38.23	9.07	14.17	-25.6	-26.9	16.5	0.00e+00	0	44	0	2205155328	11	4200
2026-01-22 10:03:41.24	8.53	14.02	-25.5	-26.7	16.6	0.00e+00	0	44	0	2222981120	11	4159
2026-01-22 10:03:44.26	8.00	13.87	-25.6	-26.9	16.4	0.00e+00	0	44	0	2239758336	11	4211
2026-01-22 10:03:47.27	7.46	13.72	-25.5	-26.8	16.5	0.00e+00	0	44	0	2256535552	11	4189
2026-01-22 10:03:50.27	6.94	13.57	-25.3	-26.3	16.8	0.00e+00	0	44	0	2273312768	11	4045
2026-01-22 10:03:53.29	6.42	13.41	-25.4	-26.6	16.6	0.00e+00	0	44	0	2290089984	11	4118
2026-01-22 10:03:56.31	5.90	13.25	-25.6	-27.0	16.4	0.00e+00	0	44	0	2306867200	11	4218
2026-01-22 10:03:59.31	5.40	13.10	-25.3	-26.4	16.7	0.00e+00	0	44	0	2323644416	11	4072
2026-01-22 10:04:02.30	4.90	12.94	-25.6	-27.0	16.4	0.00e+00	0	44	0	2340421632	11	4224
2026-01-22 10:04:05.31	4.40	12.78	-25.7	-27.3	16.2	0.00e+00	0	44	0	2358247424	11	4307
2026-01-22 10:04:08.32	3.91	12.62	-25.8	-27.4	16.1	0.00e+00	0	43	0	2375024640	11	4344
2026-01-22 10:04:11.32	3.42	12.46	-26.0	-27.8	15.9	0.00e+00	0	44	0	2391801856	11	4445
2026-01-22 10:04:14.32	2.95	12.29	-25.9	-27.3	15.8	0.00e+00	0	44	0	2408579072	12	4199
2026-01-22 10:04:17.33	2.47	12.13	-25.9	-27.2	15.8	0.00e+00	0	44	0	2425356288	12	4187
2026-01-22 10:04:20.34	2.00	11.97	-26.1	-27.7	15.6	0.00e+00	0	44	0	2442133504	12	4305
2026-01-22 10:04:23.35	1.53	11.80	-26.1	-27.7	15.6	0.00e+00	0	44	0	2458910720	12	4306
2026-01-22 10:04:26.35	1.08	11.64	-26.1	-27.7	15.5	0.00e+00	0	44	0	2475687936	12	4309
2026-01-22 10:04:29.37	0.62	11.47	-26.2	-27.9	15.4	0.00e+00	0	44	0	2493513728	12	4356
2026-01-22 10:04:32.39	0.17	11.30	-26.4	-28.2	15.2	0.00e+00	0	44	0	2510290944	12	4455
2026-01-22 10:04:35.40	359.73	11.13	-26.2	-27.3	15.5	0.00e+00	0	44	0	2527068160	13	4086
2026-01-22 10:04:38.42	359.29	10.96	-26.3	-27.5	15.3	0.00e+00	0	44	0	2543845376	13	4147
2026-01-22 10:04:41.43	358.85	10.79	-26.2	-27.5	15.3	0.00e+00	0	44	0	2560622592	13	4140
2026-01-22 10:04:44.43	358.43	10.63	-26.1	-27.2	15.4	0.00e+00	0	44	0	2578448384	13	4074
2026-01-22 10:04:47.45	358.00	10.46	-26.3	-27.6	15.2	0.00e+00	0	44	0	2595225600	13	4174
2026-01-22 10:04:50.47	357.58	10.29	-26.4	-27.8	15.1	0.00e+00	0	44	0	2612002816	13	4233
2026-01-22 10:04:53.48	357.17	10.12	-26.4	-27.8	15.1	1.10e-06	0	44	0	2628780032	13	4232
2026-01-22 10:04:56.49	356.76	9.94	-26.3	-27.5	15.2	0.00e+00	0	44	0	2645557248	13	4159
2026-01-22 10:04:59.50	356.36	9.77	-26.6	-28.2	14.9	0.00e+00	0	44	0	2662334464	13	4351
2026-01-22 10:05:02.52	355.96	9.60	-26.6	-28.2	14.8	2.20e-06	0	44	0	2679111680	13	4345
2026-01-22 10:05:05.55	355.56	9.43	-26.8	-28.7	14.5	0.00e+00	0	44	0	2696937472	13	4497
2026-01-22 10:05:08.56	355.17	9.26	-26.9	-28.9	14.4	1.10e-06	0	44	0	2713714688	13	4539
2026-01-22 10:05:11.56	354.79	9.09	-27.1	-28.9	14.1	2.20e-06	0	44	0	2730491904	14	4428
2026-01-22 10:05:14.57	354.41	8.92	-26.8	-28.3	14.5	0.00e+00	0	44	0	2747269120	14	4258
2026-01-22 10:05:17.58	354.03	8.75	-26.8	-28.2	14.5	2.20e-06	0	44	0	2764046336	14	4241
2026-01-22 10:05:20.59	353.66	8.57	-26.8	-28.2	14.5	2.20e-06	0	44	0	2780823552	14	4239
2026-01-22 10:05:23.60	353.30	8.40	-26.7	-28.0	14.6	1.10e-06	0	44	0	2798649344	14	4183
2026-01-22 10:05:26.62	352.93	8.23	-26.7	-28.0	14.6	1.10e-06	0	44	0	2815426560	14	4192
2026-01-22 10:05:29.62	352.58	8.06	-26.9	-28.5	14.3	2.20e-06	0	44	0	2832203776	14	4319
2026-01-22 10:05:32.62	352.22	7.89	-26.9	-28.5	14.3	2.20e-06	0	44	0	2848980992	14	4323
2026-01-22 10:05:35.64	351.87	7.72	-26.9	-28.4	14.3	1.10e-06	0	44	0	2865758208	14	4294
2026-01-22 10:05:38.66	351.53	7.55	-27.0	-28.8	14.1	5.70e-06	0	44	0	2882535424	14	4412
2026-01-22 10:05:41.67	351.19	7.38	-27.4	-29.6	13.6	1.48e-05	0	44	0	2899312640	14	4647
2026-01-22 10:05:44.68	350.85	7.21	-27.2	-29.2	13.8	8.00e-06	0	44	0	2917138432	14	4520
2026-01-22 10:05:47.68	350.52	7.04	-32.7	-41.6	3.8	3.69e-02	0	44	104	2932867072	25	10073

#Closed at: 2026-01-22 10:05:50
#Recorded file [2932 MB]: D:/data/31010_260122_125705.dat