passes_logs/2026/01/22/R2M6_AANII_01/R2M6_AANII_01__20260122_064618_FENGYUN_3E_rec.log

#Pass ID: 20260122_064618_FENGYUN 3E
#Satellite: FENGYUN 3E
#Configuration: FENGYUN 3E
#almurnet v.1.7.20240730
#Start time: 2026-01-22 06:46:19

#Version: 2.2.20231116
#Station: R2M6_AANII_01
#Location: 30.233357 lon 59.946436 lat
#TLE: 1 49008U 21062A   26021.55921410  .00000414  00000+0  21575-3 0  9991
#TLE: 2 49008  98.7483  26.6103 0002287 125.5068 234.6322 14.19887394235776

#Time	Az	El	Level	Level2	SNR	BER	BlckErr	Temp	State	Recorded	gain1	gain2
2026-01-22 06:46:19.03	9.55	7.01	-31.2	-35.1	4.5	8.17e-01	0	41	0	0	23	5618
2026-01-22 06:46:22.03	9.25	7.20	-30.3	-33.0	7.8	8.72e-02	0	41	0	7340032	21	4886
2026-01-22 06:46:25.04	8.94	7.38	-30.2	-32.7	8.0	7.74e-02	0	41	0	28311552	21	4793
2026-01-22 06:46:28.04	8.64	7.56	-28.8	-30.2	10.7	4.20e-03	0	41	0	50331648	18	4241
2026-01-22 06:46:31.05	8.32	7.75	-27.7	-28.5	12.5	1.64e-04	0	41	0	72351744	16	3954
2026-01-22 06:46:34.06	8.00	7.93	-27.6	-28.4	12.5	1.09e-04	0	41	0	93323264	16	3922
2026-01-22 06:46:37.08	7.68	8.12	-27.2	-27.8	13.0	3.77e-05	0	42	0	115343360	15	3886
2026-01-22 06:46:40.08	7.36	8.30	-27.5	-28.7	12.5	1.22e-04	0	42	0	137363456	15	4118
2026-01-22 06:46:43.09	7.03	8.49	-27.5	-28.7	12.5	1.29e-04	0	42	0	159383552	15	4106
2026-01-22 06:46:46.11	6.69	8.67	-27.5	-28.7	12.5	1.43e-04	0	42	0	180355072	15	4122
2026-01-22 06:46:49.12	6.35	8.86	-27.4	-28.3	12.8	1.05e-04	0	42	0	202375168	15	4005
2026-01-22 06:46:52.13	6.01	9.05	-26.8	-27.6	13.4	1.71e-05	0	42	0	224395264	14	3931
2026-01-22 06:46:55.15	5.66	9.24	-26.9	-27.6	13.4	1.83e-05	0	42	0	246415360	14	3934
2026-01-22 06:46:58.15	5.30	9.42	-26.9	-27.7	13.4	1.94e-05	0	42	0	267386880	14	3947
2026-01-22 06:47:01.16	4.95	9.61	-26.8	-27.5	13.6	6.80e-06	0	42	0	289406976	14	3896
2026-01-22 06:47:04.15	4.59	9.80	-26.7	-27.2	13.7	3.40e-06	0	42	0	311427072	14	3832
2026-01-22 06:47:07.16	4.22	9.99	-26.8	-27.5	13.6	1.37e-05	0	42	0	332398592	14	3899
2026-01-22 06:47:10.17	3.85	10.18	-26.6	-27.1	13.8	6.80e-06	0	42	0	354418688	14	3806
2026-01-22 06:47:13.17	3.47	10.37	-26.6	-27.0	13.9	3.40e-06	0	43	0	376438784	14	3784
2026-01-22 06:47:16.18	3.09	10.56	-26.5	-26.7	14.0	2.20e-06	0	42	0	398458880	14	3711
2026-01-22 06:47:19.19	2.70	10.75	-26.7	-27.2	13.8	1.10e-06	0	43	0	419430400	14	3814
2026-01-22 06:47:22.21	2.31	10.94	-26.9	-27.7	13.5	8.00e-06	0	43	0	441450496	14	3950
2026-01-22 06:47:25.23	1.91	11.13	-26.8	-27.5	13.6	6.80e-06	0	43	0	462422016	14	3908
2026-01-22 06:47:28.23	1.50	11.32	-26.6	-27.0	13.9	9.10e-06	0	43	0	484442112	14	3766
2026-01-22 06:47:31.24	1.10	11.51	-26.5	-26.8	14.1	3.40e-06	0	43	0	506462208	14	3711
2026-01-22 06:47:34.25	0.68	11.70	-26.6	-27.1	13.9	6.80e-06	0	43	0	528482304	14	3790
2026-01-22 06:47:37.26	0.26	11.89	-26.2	-26.7	14.4	1.10e-06	0	43	0	549453824	13	3797
2026-01-22 06:47:40.26	359.84	12.08	-26.3	-26.9	14.3	0.00e+00	0	43	0	571473920	13	3842
2026-01-22 06:47:43.28	359.40	12.27	-26.2	-26.6	14.5	1.10e-06	0	43	0	593494016	13	3768
2026-01-22 06:47:46.28	358.97	12.46	-26.2	-26.7	14.4	0.00e+00	0	43	0	615514112	13	3802
2026-01-22 06:47:49.29	358.53	12.65	-26.4	-27.0	14.3	2.20e-06	0	43	0	636485632	13	3873
2026-01-22 06:47:52.30	358.08	12.84	-26.2	-26.5	14.5	2.20e-06	0	43	0	658505728	13	3750
2026-01-22 06:47:55.30	357.62	13.03	-26.0	-26.3	14.7	2.20e-06	0	43	0	680525824	13	3692
2026-01-22 06:47:58.31	357.16	13.22	-25.9	-26.3	14.9	0.00e+00	0	43	0	701497344	12	3807
2026-01-22 06:48:01.32	356.70	13.41	-25.7	-26.0	15.2	0.00e+00	0	43	0	723517440	12	3716
2026-01-22 06:48:04.32	356.22	13.60	-25.8	-26.1	15.0	0.00e+00	0	43	0	745537536	12	3761
2026-01-22 06:48:07.32	355.75	13.78	-26.0	-26.6	14.8	0.00e+00	0	43	0	766509056	12	3872
2026-01-22 06:48:10.33	355.26	13.97	-25.7	-26.1	15.1	0.00e+00	0	43	0	788529152	12	3741
2026-01-22 06:48:13.35	354.77	14.16	-25.8	-26.1	15.1	0.00e+00	0	43	0	810549248	12	3752
2026-01-22 06:48:16.36	354.27	14.34	-25.8	-26.2	15.1	0.00e+00	0	43	0	832569344	12	3782
2026-01-22 06:48:19.38	353.76	14.53	-25.8	-26.3	15.1	0.00e+00	0	43	0	853540864	12	3786
2026-01-22 06:48:22.39	353.25	14.71	-25.6	-25.7	15.4	0.00e+00	0	43	0	875560960	12	3651
2026-01-22 06:48:25.39	352.74	14.90	-25.6	-25.8	15.3	0.00e+00	0	43	0	897581056	12	3688
2026-01-22 06:48:28.41	352.21	15.08	-25.6	-25.7	15.4	0.00e+00	0	43	0	919601152	12	3653
2026-01-22 06:48:31.42	351.68	15.26	-25.6	-25.7	15.4	0.00e+00	0	43	0	940572672	12	3664
2026-01-22 06:48:34.43	351.15	15.44	-25.4	-25.3	15.6	0.00e+00	0	43	0	962592768	12	3573
2026-01-22 06:48:37.44	350.60	15.62	-25.4	-25.9	15.6	0.00e+00	0	43	0	984612864	11	3801
2026-01-22 06:48:40.44	350.05	15.80	-25.5	-26.0	15.6	0.00e+00	0	43	0	1006632960	11	3814
2026-01-22 06:48:43.44	349.50	15.97	-25.7	-26.4	15.4	0.00e+00	0	43	0	1027604480	11	3928
2026-01-22 06:48:46.45	348.94	16.15	-25.5	-26.1	15.6	0.00e+00	0	43	0	1049624576	11	3852
2026-01-22 06:48:49.46	348.37	16.32	-25.2	-25.4	16.0	0.00e+00	0	43	0	1070596096	11	3671
2026-01-22 06:48:52.46	347.79	16.49	-24.9	-24.7	16.3	0.00e+00	0	43	0	1092616192	11	3531
2026-01-22 06:48:55.47	347.21	16.66	-24.8	-25.1	16.4	0.00e+00	0	43	0	1114636288	10	3712
2026-01-22 06:48:58.48	346.62	16.83	-24.8	-25.0	16.4	0.00e+00	0	43	0	1136656384	10	3686
2026-01-22 06:49:01.49	346.02	16.99	-24.8	-25.0	16.4	0.00e+00	0	43	0	1157627904	10	3687
2026-01-22 06:49:04.51	345.41	17.15	-24.8	-25.0	16.5	0.00e+00	0	44	0	1179648000	10	3679
2026-01-22 06:49:07.52	344.80	17.32	-24.8	-25.1	16.4	0.00e+00	0	43	0	1201668096	10	3704
2026-01-22 06:49:10.53	344.19	17.47	-25.1	-25.6	16.1	0.00e+00	0	43	0	1223688192	10	3831
2026-01-22 06:49:13.53	343.57	17.63	-25.2	-25.9	16.0	0.00e+00	0	43	0	1244659712	10	3893
2026-01-22 06:49:16.54	342.94	17.78	-25.0	-25.5	16.2	0.00e+00	0	44	0	1266679808	10	3806
2026-01-22 06:49:19.54	342.30	17.93	-24.8	-25.1	16.4	0.00e+00	0	43	0	1288699904	10	3715
2026-01-22 06:49:22.55	341.66	18.08	-25.0	-25.5	16.2	0.00e+00	0	43	0	1309671424	10	3793
2026-01-22 06:49:25.55	341.01	18.23	-24.3	-24.5	17.0	0.00e+00	0	43	0	1331691520	9	3683
2026-01-22 06:49:28.56	340.36	18.37	-24.4	-24.6	16.9	0.00e+00	0	43	0	1353711616	9	3692
2026-01-22 06:49:31.58	339.69	18.51	-24.4	-24.7	16.9	0.00e+00	0	44	0	1374683136	9	3718
2026-01-22 06:49:34.58	339.03	18.65	-24.5	-25.0	16.8	0.00e+00	0	43	0	1396703232	9	3785
2026-01-22 06:49:37.59	338.35	18.78	-24.4	-24.7	16.9	0.00e+00	0	43	0	1418723328	9	3710
2026-01-22 06:49:40.61	337.67	18.91	-24.3	-24.5	17.0	0.00e+00	0	43	0	1440743424	9	3681
2026-01-22 06:49:43.63	336.98	19.03	-24.1	-24.1	17.2	0.00e+00	0	43	0	1462763520	9	3588
2026-01-22 06:49:46.64	336.29	19.16	-24.3	-24.5	17.0	0.00e+00	0	44	0	1483735040	9	3682
2026-01-22 06:49:49.65	335.60	19.27	-24.1	-24.1	17.2	0.00e+00	0	44	0	1505755136	9	3582
2026-01-22 06:49:52.66	334.89	19.39	-24.0	-23.8	17.4	0.00e+00	0	43	0	1527775232	9	3528
2026-01-22 06:49:55.68	334.18	19.50	-23.9	-23.7	17.4	0.00e+00	0	43	0	1548746752	9	3499
2026-01-22 06:49:58.68	333.47	19.60	-23.8	-23.8	17.7	0.00e+00	0	43	0	1570766848	8	3615
2026-01-22 06:50:01.67	332.76	19.71	-23.7	-23.7	17.7	0.00e+00	0	44	0	1592786944	8	3594
2026-01-22 06:50:04.68	332.04	19.80	-23.9	-24.1	17.5	0.00e+00	0	44	0	1613758464	8	3676
2026-01-22 06:50:07.69	331.31	19.90	-23.8	-23.9	17.6	0.00e+00	0	43	0	1635778560	8	3649
2026-01-22 06:50:10.69	330.58	19.99	-23.9	-24.2	17.5	0.00e+00	0	44	0	1657798656	8	3707
2026-01-22 06:50:13.70	329.85	20.07	-23.9	-24.0	17.5	0.00e+00	0	43	0	1678770176	8	3670
2026-01-22 06:50:16.70	329.11	20.15	-24.0	-24.4	17.3	0.00e+00	0	44	0	1700790272	8	3752
2026-01-22 06:50:19.72	328.36	20.22	-23.7	-23.7	17.7	0.00e+00	0	43	0	1722810368	8	3591
2026-01-22 06:50:22.73	327.62	20.29	-23.8	-23.9	17.6	0.00e+00	0	44	0	1744830464	8	3640
2026-01-22 06:50:25.74	326.87	20.36	-24.0	-24.3	17.4	0.00e+00	0	44	0	1765801984	8	3739
2026-01-22 06:50:28.75	326.11	20.42	-24.0	-24.4	17.4	0.00e+00	0	44	0	1787822080	8	3754
2026-01-22 06:50:31.76	325.36	20.47	-23.8	-23.8	17.7	0.00e+00	0	43	0	1809842176	8	3616
2026-01-22 06:50:34.77	324.60	20.52	-23.8	-23.8	17.7	0.00e+00	0	43	0	1830813696	8	3625
2026-01-22 06:50:37.78	323.84	20.56	-23.8	-23.9	17.7	0.00e+00	0	43	0	1852833792	8	3636
2026-01-22 06:50:40.79	323.07	20.60	-23.9	-24.0	17.6	0.00e+00	0	44	0	1874853888	8	3669
2026-01-22 06:50:43.80	322.31	20.64	-23.9	-24.2	17.5	0.00e+00	0	44	0	1896873984	8	3699
2026-01-22 06:50:46.82	321.54	20.67	-23.8	-23.9	17.6	0.00e+00	0	43	0	1917845504	8	3639
2026-01-22 06:50:49.83	320.77	20.69	-23.9	-24.1	17.5	0.00e+00	0	44	0	1939865600	8	3693
2026-01-22 06:50:52.83	320.00	20.71	-23.7	-23.8	17.7	0.00e+00	0	43	0	1961885696	8	3607
2026-01-22 06:50:55.84	319.23	20.72	-23.9	-24.2	17.5	0.00e+00	0	44	0	1983905792	8	3703
2026-01-22 06:50:58.86	318.46	20.72	-23.9	-24.0	17.5	0.00e+00	0	44	0	2004877312	8	3672
2026-01-22 06:51:01.88	317.69	20.72	-23.9	-24.1	17.5	0.00e+00	0	44	0	2026897408	8	3682
2026-01-22 06:51:04.88	316.92	20.72	-23.8	-23.9	17.6	0.00e+00	0	44	0	2048917504	8	3644
2026-01-22 06:51:07.88	316.15	20.71	-23.8	-23.9	17.6	1.10e-06	0	44	0	2070937600	8	3649
2026-01-22 06:51:10.88	315.38	20.69	-23.9	-24.1	17.5	0.00e+00	0	44	0	2091909120	8	3688
2026-01-22 06:51:13.89	314.62	20.67	-23.8	-23.9	17.6	0.00e+00	0	44	0	2113929216	8	3642
2026-01-22 06:51:16.91	313.85	20.65	-23.6	-23.6	17.7	0.00e+00	0	44	0	2135949312	8	3561
2026-01-22 06:51:19.92	313.08	20.62	-23.5	-23.3	17.9	0.00e+00	0	44	0	2156920832	8	3507
2026-01-22 06:51:22.93	312.31	20.58	-23.7	-23.8	17.7	0.00e+00	0	44	0	2178940928	8	3618
2026-01-22 06:51:25.93	311.55	20.54	-23.7	-23.7	17.7	0.00e+00	0	44	0	2200961024	8	3588
2026-01-22 06:51:28.93	310.80	20.49	-23.5	-23.3	17.9	0.00e+00	0	44	0	2222981120	8	3504
2026-01-22 06:51:31.95	310.04	20.44	-23.5	-23.3	17.9	0.00e+00	0	44	0	2243952640	8	3509
2026-01-22 06:51:34.95	309.28	20.38	-23.8	-23.9	17.6	0.00e+00	0	44	0	2265972736	8	3636
2026-01-22 06:51:37.96	308.53	20.32	-23.7	-23.7	17.7	0.00e+00	0	44	0	2286944256	8	3601
2026-01-22 06:51:40.97	307.78	20.25	-23.5	-23.3	17.9	0.00e+00	0	44	0	2308964352	8	3511
2026-01-22 06:51:43.97	307.04	20.18	-23.7	-23.6	17.7	0.00e+00	0	44	0	2330984448	8	3578
2026-01-22 06:51:46.97	306.30	20.10	-23.7	-23.7	17.6	0.00e+00	0	44	0	2351955968	8	3604
2026-01-22 06:51:49.98	305.56	20.02	-23.7	-23.7	17.7	0.00e+00	0	44	0	2373976064	8	3588
2026-01-22 06:51:53.00	304.82	19.93	-23.5	-23.3	17.9	0.00e+00	0	43	0	2395996160	8	3512
2026-01-22 06:51:56.01	304.09	19.84	-23.8	-23.8	17.6	0.00e+00	0	44	0	2418016256	8	3629
2026-01-22 06:51:59.02	303.37	19.74	-23.7	-23.7	17.7	0.00e+00	0	44	0	2438987776	8	3598
2026-01-22 06:52:02.03	302.65	19.64	-23.7	-23.8	17.6	0.00e+00	0	44	0	2461007872	8	3608
2026-01-22 06:52:05.03	301.93	19.54	-23.8	-23.8	17.6	0.00e+00	0	44	0	2483027968	8	3625
2026-01-22 06:52:08.05	301.22	19.43	-24.1	-24.6	17.2	0.00e+00	0	44	0	2505048064	8	3790
2026-01-22 06:52:11.05	300.52	19.31	-24.1	-24.5	17.2	0.00e+00	0	44	0	2526019584	8	3766
2026-01-22 06:52:14.07	299.81	19.20	-24.0	-24.3	17.3	0.00e+00	0	44	0	2548039680	8	3723
2026-01-22 06:52:17.08	299.12	19.07	-23.8	-24.0	17.5	0.00e+00	0	44	0	2570059776	8	3657
2026-01-22 06:52:20.09	298.43	18.95	-23.9	-24.2	17.4	0.00e+00	0	44	0	2592079872	8	3699
2026-01-22 06:52:23.11	297.74	18.82	-24.0	-24.3	17.3	0.00e+00	0	44	0	2613051392	8	3730
2026-01-22 06:52:26.12	297.07	18.69	-24.0	-24.3	17.3	0.00e+00	0	43	0	2635071488	8	3727
2026-01-22 06:52:29.13	296.39	18.55	-24.2	-24.8	17.0	0.00e+00	0	44	0	2657091584	8	3840
2026-01-22 06:52:32.14	295.73	18.42	-24.3	-24.9	17.0	0.00e+00	0	44	0	2679111680	8	3873
2026-01-22 06:52:35.15	295.07	18.27	-24.1	-24.6	17.1	0.00e+00	0	44	0	2700083200	8	3802
2026-01-22 06:52:38.17	294.41	18.13	-24.1	-24.5	17.1	0.00e+00	0	44	0	2722103296	8	3787
2026-01-22 06:52:41.19	293.76	17.98	-24.1	-24.4	17.2	0.00e+00	0	44	0	2744123392	8	3764
2026-01-22 06:52:44.20	293.12	17.83	-24.1	-24.6	17.1	0.00e+00	0	44	0	2766143488	8	3797
2026-01-22 06:52:47.20	292.49	17.68	-24.4	-25.1	16.8	0.00e+00	0	44	0	2787115008	8	3929
2026-01-22 06:52:50.23	291.86	17.52	-24.5	-24.9	16.7	0.00e+00	0	44	0	2809135104	9	3758
2026-01-22 06:52:53.24	291.24	17.36	-24.1	-24.1	17.1	0.00e+00	0	44	0	2831155200	9	3596
2026-01-22 06:52:56.25	290.62	17.20	-24.1	-24.0	17.1	0.00e+00	0	44	0	2853175296	9	3572
2026-01-22 06:52:59.27	290.01	17.04	-24.3	-24.5	16.9	0.00e+00	0	44	0	2874146816	9	3666
2026-01-22 06:53:02.28	289.41	16.87	-24.6	-25.2	16.5	0.00e+00	0	44	0	2896166912	9	3840
2026-01-22 06:53:05.30	288.81	16.70	-24.7	-25.3	16.4	0.00e+00	0	44	0	2918187008	9	3860
2026-01-22 06:53:08.30	288.23	16.54	-24.8	-25.5	16.3	0.00e+00	0	44	0	2939158528	9	3908
2026-01-22 06:53:11.32	287.64	16.36	-24.6	-25.1	16.5	0.00e+00	0	44	0	2961178624	9	3822
2026-01-22 06:53:14.33	287.07	16.19	-24.6	-25.1	16.5	0.00e+00	0	44	0	2983198720	9	3819
2026-01-22 06:53:17.34	286.50	16.02	-24.6	-25.1	16.5	0.00e+00	0	44	0	3005218816	9	3812
2026-01-22 06:53:20.35	285.94	15.84	-24.7	-25.4	16.3	0.00e+00	0	44	0	3026190336	9	3888
2026-01-22 06:53:23.36	285.39	15.66	-24.9	-25.8	16.1	0.00e+00	0	44	0	3048210432	9	3971
2026-01-22 06:53:26.37	284.84	15.48	-24.9	-25.7	16.1	0.00e+00	0	44	0	3070230528	9	3964
2026-01-22 06:53:29.38	284.30	15.30	-24.9	-25.3	16.1	0.00e+00	0	44	0	3092250624	10	3765
2026-01-22 06:53:32.40	283.76	15.12	-25.1	-25.6	15.9	0.00e+00	0	44	0	3113222144	10	3832
2026-01-22 06:53:35.41	283.23	14.94	-24.9	-25.3	16.0	0.00e+00	0	44	0	3135242240	10	3774
2026-01-22 06:53:38.41	282.71	14.76	-24.9	-25.3	16.0	0.00e+00	0	44	0	3157262336	10	3762
2026-01-22 06:53:41.42	282.20	14.57	-24.9	-25.3	16.0	0.00e+00	0	44	0	3178233856	10	3762
2026-01-22 06:53:44.43	281.69	14.39	-25.0	-25.5	15.9	0.00e+00	0	44	0	3200253952	10	3795
2026-01-22 06:53:47.44	281.18	14.20	-25.0	-25.5	15.9	0.00e+00	0	44	0	3222274048	10	3815
2026-01-22 06:53:50.46	280.69	14.01	-25.0	-25.6	15.9	0.00e+00	0	44	0	3244294144	10	3830
2026-01-22 06:53:53.46	280.20	13.83	-25.2	-25.9	15.7	0.00e+00	0	44	0	3265265664	10	3912
2026-01-22 06:53:56.48	279.71	13.64	-25.4	-26.3	15.4	0.00e+00	0	44	0	3287285760	10	4019
2026-01-22 06:53:59.48	279.24	13.45	-25.6	-26.2	15.2	0.00e+00	0	44	0	3309305856	11	3882
2026-01-22 06:54:02.50	278.76	13.26	-25.5	-26.1	15.3	0.00e+00	0	44	0	3331325952	11	3843
2026-01-22 06:54:05.51	278.30	13.07	-25.4	-25.9	15.4	0.00e+00	0	44	0	3352297472	11	3811
2026-01-22 06:54:08.52	277.84	12.88	-25.3	-25.6	15.5	0.00e+00	0	44	0	3374317568	11	3730
2026-01-22 06:54:11.51	277.39	12.69	-25.5	-26.0	15.3	0.00e+00	0	44	0	3396337664	11	3822
2026-01-22 06:54:14.53	276.94	12.50	-25.7	-26.4	15.0	0.00e+00	0	44	0	3418357760	11	3927
2026-01-22 06:54:17.53	276.50	12.31	-25.8	-26.7	14.9	1.10e-06	0	44	0	3439329280	11	3994
2026-01-22 06:54:20.55	276.06	12.12	-25.6	-26.3	15.1	0.00e+00	0	44	0	3461349376	11	3908
2026-01-22 06:54:23.56	275.63	11.93	-25.6	-26.4	15.0	0.00e+00	0	44	0	3483369472	11	3931
2026-01-22 06:54:26.57	275.21	11.73	-25.5	-26.2	15.1	0.00e+00	0	44	0	3504340992	11	3876
2026-01-22 06:54:29.58	274.79	11.54	-25.6	-26.2	15.1	0.00e+00	0	44	0	3526361088	11	3873
2026-01-22 06:54:32.60	274.38	11.35	-25.6	-26.3	15.0	0.00e+00	0	44	0	3548381184	11	3900
2026-01-22 06:54:35.62	273.97	11.16	-25.5	-26.1	15.1	0.00e+00	0	44	0	3569352704	11	3859
2026-01-22 06:54:38.62	273.57	10.97	-25.6	-26.2	15.1	0.00e+00	0	44	0	3591372800	11	3886
2026-01-22 06:54:41.63	273.17	10.78	-25.8	-26.9	14.7	0.00e+00	0	44	0	3613392896	11	4046
2026-01-22 06:54:44.63	272.78	10.59	-26.1	-27.0	14.3	0.00e+00	0	44	0	3635412992	12	3975
2026-01-22 06:54:47.63	272.39	10.40	-26.2	-27.1	14.1	0.00e+00	0	44	0	3656384512	12	4014
2026-01-22 06:54:50.63	272.01	10.21	-26.0	-26.8	14.3	1.10e-06	0	44	0	3678404608	12	3918
2026-01-22 06:54:53.65	271.63	10.02	-26.0	-26.7	14.4	1.10e-06	0	44	0	3700424704	12	3912
2026-01-22 06:54:56.67	271.26	9.83	-26.1	-27.0	14.2	0.00e+00	0	44	0	3721396224	12	3975
2026-01-22 06:54:59.67	270.90	9.64	-26.3	-27.4	13.9	2.20e-06	0	44	0	3743416320	12	4099
2026-01-22 06:55:02.68	270.53	9.45	-26.3	-27.4	14.0	2.20e-06	0	44	0	3765436416	12	4080
2026-01-22 06:55:05.68	270.18	9.26	-26.3	-27.5	13.9	5.70e-06	0	44	0	3786407936	12	4109
2026-01-22 06:55:08.69	269.83	9.07	-25.9	-26.5	14.5	2.20e-06	0	44	0	3808428032	12	3850
2026-01-22 06:55:11.71	269.48	8.88	-26.0	-26.8	14.3	1.10e-06	0	44	0	3830448128	12	3922
2026-01-22 06:55:14.71	269.13	8.70	-26.3	-27.4	13.9	2.20e-06	0	44	0	3852468224	12	4079
2026-01-22 06:55:17.73	268.79	8.51	-26.2	-27.3	13.9	2.20e-06	0	44	0	3873439744	12	4067
2026-01-22 06:55:20.75	268.46	8.32	-26.3	-27.4	13.9	6.80e-06	0	44	0	3895459840	12	4087
2026-01-22 06:55:23.76	268.13	8.14	-26.2	-27.1	14.0	1.10e-06	0	44	0	3917479936	12	4019
2026-01-22 06:55:26.77	267.80	7.95	-26.4	-27.5	13.7	6.80e-06	0	44	0	3939500032	12	4133
2026-01-22 06:55:29.77	267.48	7.76	-26.7	-27.9	13.2	2.17e-05	0	44	0	3960471552	13	4121
2026-01-22 06:55:32.77	267.17	7.58	-27.1	-28.3	12.6	9.15e-05	0	44	0	3982491648	14	4133
2026-01-22 06:55:35.78	266.85	7.40	-27.0	-28.2	12.7	7.89e-05	0	44	0	4004511744	14	4095
2026-01-22 06:55:38.78	266.54	7.21	-27.2	-28.5	12.5	1.04e-04	0	44	0	4026531840	14	4174
2026-01-22 06:55:41.79	266.24	7.03	-32.7	-41.5	3.8	8.46e-01	0	44	104	4044357632	25	9925

#Closed at: 2026-01-22 06:55:44
#Recorded file [4044 MB]: D:/data/31010_260122_094620.dat