passes_logs/2026/01/22/R2M6_AANII_01/R2M6_AANII_01__20260122_103641_SUOMI_NPP_rec.log

#Pass ID: 20260122_103641_SUOMI NPP
#Satellite: SUOMI NPP
#Configuration: NPP
#almurnet v.1.7.20240730
#Start time: 2026-01-22 10:36:42

#Version: 2.2.20231116
#Station: R2M6_AANII_01
#Location: 30.233357 lon 59.946436 lat
#TLE: 1 37849U 11061A   26021.51818991  .00000201  00000+0  11636-3 0  9995
#TLE: 2 37849  98.7819 323.5108 0002300  52.3548 307.7836 14.19527793737637

#Time	Az	El	Level	Level2	SNR	BER	BlckErr	Temp	State	Recorded	gain1	gain2
2026-01-22 10:36:42.28	166.85	7.07	-31.7	-37.2	4.6	1.37e+00	0	41	0	0	24	6779
2026-01-22 10:36:45.29	166.91	7.30	-31.7	-36.9	6.6	2.10e-01	0	42	0	1048576	24	6578
2026-01-22 10:36:48.31	166.96	7.54	-31.8	-37.4	6.3	2.69e-01	0	42	0	7340032	24	6840
2026-01-22 10:36:51.31	167.01	7.78	-31.9	-37.8	6.0	2.73e-01	0	42	0	12582912	24	7112
2026-01-22 10:36:54.32	167.06	8.02	-31.8	-37.1	6.5	2.74e-01	0	42	0	17825792	24	6665
2026-01-22 10:36:57.33	167.12	8.26	-31.7	-36.6	6.9	1.79e-01	0	42	0	24117248	24	6351
2026-01-22 10:37:00.35	167.17	8.51	-31.7	-36.4	7.0	1.75e-01	0	42	0	29360128	24	6242
2026-01-22 10:37:03.36	167.23	8.76	-31.2	-35.0	8.5	4.86e-02	0	42	0	35651584	23	5578
2026-01-22 10:37:06.37	167.28	9.01	-30.8	-33.5	9.7	1.12e-02	0	42	0	40894464	23	4889
2026-01-22 10:37:09.38	167.34	9.26	-30.9	-34.3	9.5	1.36e-02	0	42	0	46137344	22	5306
2026-01-22 10:37:12.38	167.40	9.51	-30.5	-32.7	10.7	3.90e-03	0	42	0	52428800	22	4670
2026-01-22 10:37:15.40	167.46	9.77	-30.4	-32.5	10.9	2.06e-03	0	42	0	57671680	22	4589
2026-01-22 10:37:18.42	167.52	10.03	-30.5	-32.7	10.8	3.11e-03	0	42	0	63963136	22	4650
2026-01-22 10:37:21.43	167.58	10.30	-30.6	-32.9	10.7	3.95e-03	0	42	0	69206016	22	4723
2026-01-22 10:37:24.43	167.64	10.56	-30.5	-32.7	10.8	2.81e-03	0	42	0	74448896	22	4650
2026-01-22 10:37:27.45	167.70	10.83	-30.6	-33.0	10.7	2.70e-03	0	43	0	80740352	22	4722
2026-01-22 10:37:30.47	167.76	11.10	-30.4	-32.2	11.3	1.21e-03	0	43	0	85983232	22	4453
2026-01-22 10:37:33.48	167.83	11.38	-30.0	-31.6	12.0	3.35e-04	0	43	0	92274688	21	4330
2026-01-22 10:37:36.49	167.89	11.66	-29.9	-31.4	12.2	2.55e-04	0	43	0	97517568	21	4271
2026-01-22 10:37:39.49	167.96	11.94	-29.7	-31.4	12.5	1.01e-04	0	43	0	102760448	20	4375
2026-01-22 10:37:42.50	168.03	12.22	-29.7	-31.5	12.5	1.16e-04	0	43	0	109051904	20	4413
2026-01-22 10:37:45.50	168.10	12.51	-29.4	-30.7	13.0	5.72e-05	0	43	0	114294784	20	4166
2026-01-22 10:37:48.51	168.17	12.80	-29.2	-30.7	13.4	1.14e-05	0	43	0	119537664	19	4244
2026-01-22 10:37:51.52	168.24	13.09	-29.1	-30.4	13.7	7.60e-06	0	43	0	125829120	19	4152
2026-01-22 10:37:54.52	168.31	13.39	-29.1	-30.3	13.7	3.80e-06	0	43	0	131072000	19	4120
2026-01-22 10:37:57.54	168.38	13.69	-29.1	-30.1	13.9	3.80e-06	0	43	0	137363456	19	4042
2026-01-22 10:38:00.54	168.46	14.00	-29.2	-30.3	13.8	1.50e-06	0	43	0	142606336	19	4084
2026-01-22 10:38:03.55	168.54	14.31	-29.4	-30.7	13.6	5.30e-06	0	43	0	147849216	19	4218
2026-01-22 10:38:06.57	168.61	14.62	-29.2	-30.3	13.8	6.80e-06	0	43	0	154140672	19	4091
2026-01-22 10:38:09.59	168.69	14.94	-29.3	-30.4	13.8	9.10e-06	0	43	0	159383552	19	4107
2026-01-22 10:38:12.59	168.77	15.26	-29.2	-30.3	13.9	4.50e-06	0	43	0	164626432	19	4080
2026-01-22 10:38:15.59	168.86	15.59	-29.3	-30.4	13.8	2.20e-06	0	43	0	170917888	19	4109
2026-01-22 10:38:18.61	168.94	15.92	-29.3	-30.5	13.9	2.20e-06	0	43	0	176160768	19	4103
2026-01-22 10:38:21.62	169.03	16.26	-29.3	-30.3	14.0	1.50e-06	0	43	0	182452224	19	4040
2026-01-22 10:38:24.63	169.11	16.60	-29.5	-30.7	13.8	3.80e-06	0	43	0	187695104	19	4157
2026-01-22 10:38:27.63	169.20	16.94	-29.2	-29.9	14.3	4.50e-06	0	43	0	192937984	19	3918
2026-01-22 10:38:30.64	169.29	17.29	-29.2	-30.1	14.2	7.60e-06	0	43	0	199229440	19	3979
2026-01-22 10:38:33.65	169.39	17.64	-29.2	-30.0	14.3	3.00e-06	0	43	0	204472320	19	3954
2026-01-22 10:38:36.66	169.48	18.00	-29.5	-30.8	13.8	5.30e-06	0	43	0	209715200	19	4162
2026-01-22 10:38:39.67	169.58	18.37	-29.5	-30.8	13.8	3.00e-06	0	43	0	216006656	19	4187
2026-01-22 10:38:42.68	169.68	18.74	-29.7	-31.3	13.5	4.50e-06	0	43	0	221249536	19	4323
2026-01-22 10:38:45.69	169.78	19.11	-29.7	-31.2	13.6	1.22e-05	0	43	0	227540992	19	4279
2026-01-22 10:38:48.69	169.88	19.49	-29.7	-31.3	13.5	1.37e-05	0	43	0	232783872	19	4337
2026-01-22 10:38:51.69	169.99	19.88	-29.8	-31.6	13.3	1.14e-05	0	44	0	238026752	19	4398
2026-01-22 10:38:54.71	170.10	20.27	-30.1	-31.9	12.7	5.79e-05	0	43	0	244318208	20	4442
2026-01-22 10:38:57.72	170.21	20.67	-30.1	-32.0	12.7	6.33e-05	0	44	0	249561088	20	4475
2026-01-22 10:39:00.74	170.32	21.08	-30.3	-32.3	12.5	8.69e-05	0	43	0	255852544	20	4574
2026-01-22 10:39:03.74	170.44	21.49	-30.3	-32.4	12.5	1.56e-04	0	43	0	261095424	20	4598
2026-01-22 10:39:06.75	170.56	21.91	-30.1	-31.8	12.9	6.02e-05	0	44	0	266338304	20	4388
2026-01-22 10:39:09.76	170.68	22.34	-30.2	-32.2	12.6	7.40e-05	0	44	0	272629760	20	4516
2026-01-22 10:39:12.77	170.80	22.77	-30.6	-32.9	11.8	2.95e-04	0	44	0	277872640	21	4670
2026-01-22 10:39:15.79	170.93	23.21	-30.4	-32.1	12.4	2.24e-04	0	44	0	283115520	21	4387
2026-01-22 10:39:18.80	171.07	23.66	-30.3	-31.8	12.6	8.01e-05	0	44	0	289406976	21	4298
2026-01-22 10:39:21.81	171.20	24.12	-30.0	-30.9	13.1	1.98e-05	0	44	0	294649856	21	4017
2026-01-22 10:39:24.81	171.34	24.58	-30.0	-30.9	13.1	4.50e-05	0	44	0	300941312	21	4001
2026-01-22 10:39:27.83	171.48	25.05	-29.9	-30.8	13.3	2.89e-05	0	44	0	306184192	21	3987
2026-01-22 10:39:30.83	171.63	25.53	-29.8	-30.8	13.6	5.30e-06	0	43	0	311427072	20	4078
2026-01-22 10:39:33.84	171.78	26.02	-30.0	-31.4	13.3	1.52e-05	0	44	0	317718528	20	4260
2026-01-22 10:39:36.84	171.94	26.52	-29.8	-31.1	13.5	8.30e-06	0	44	0	322961408	20	4151
2026-01-22 10:39:39.84	172.10	27.02	-30.1	-31.7	13.1	1.90e-05	0	43	0	329252864	20	4344
2026-01-22 10:39:42.85	172.27	27.54	-29.7	-30.7	13.8	1.44e-05	0	44	0	334495744	20	4023
2026-01-22 10:39:45.87	172.44	28.07	-29.8	-30.9	13.7	6.10e-06	0	44	0	339738624	20	4085
2026-01-22 10:39:48.87	172.61	28.60	-29.7	-30.7	13.7	7.60e-06	0	44	0	346030080	20	4023
2026-01-22 10:39:51.88	172.79	29.15	-30.0	-31.6	13.2	2.44e-05	0	44	0	351272960	20	4311
2026-01-22 10:39:54.88	172.98	29.70	-30.3	-31.8	12.8	6.40e-05	0	44	0	356515840	21	4268
2026-01-22 10:39:57.89	173.18	30.27	-30.6	-32.8	12.0	7.01e-05	0	43	0	362807296	21	4620
2026-01-22 10:40:00.90	173.38	30.85	-30.9	-33.7	11.4	4.69e-04	0	44	0	368050176	21	4953
2026-01-22 10:40:03.91	173.58	31.44	-31.3	-34.4	10.4	4.22e-03	0	44	0	374341632	22	5139
2026-01-22 10:40:06.93	173.80	32.04	-31.5	-34.4	10.2	7.70e-03	0	44	0	379584512	23	5062
2026-01-22 10:40:09.94	174.02	32.65	-31.4	-34.2	10.3	4.54e-03	0	44	0	384827392	23	4967
2026-01-22 10:40:12.95	174.25	33.28	-31.2	-33.6	10.9	1.66e-03	0	44	0	391118848	23	4722
2026-01-22 10:40:15.95	174.49	33.92	-30.7	-32.5	12.0	3.77e-04	0	44	0	396361728	22	4417
2026-01-22 10:40:18.97	174.74	34.57	-30.3	-31.7	12.8	3.43e-05	0	44	0	401604608	21	4235
2026-01-22 10:40:21.98	175.00	35.24	-30.2	-31.5	13.0	4.04e-05	0	44	0	407896064	21	4160
2026-01-22 10:40:24.98	175.27	35.91	-30.5	-32.4	12.4	6.79e-05	0	44	0	413138944	21	4468
2026-01-22 10:40:27.99	175.55	36.61	-30.6	-32.5	12.4	2.53e-04	0	44	0	419430400	21	4502
2026-01-22 10:40:31.00	175.84	37.31	-31.0	-33.5	11.4	6.31e-04	0	44	0	424673280	22	4761
2026-01-22 10:40:34.01	176.15	38.03	-31.6	-34.8	10.0	5.60e-03	0	44	0	429916160	23	5198
2026-01-22 10:40:37.01	176.47	38.77	-31.0	-32.7	11.6	9.98e-04	0	44	0	436207616	23	4402
2026-01-22 10:40:40.02	176.80	39.52	-30.9	-32.4	11.8	4.74e-04	0	44	0	441450496	23	4278
2026-01-22 10:40:43.03	177.15	40.29	-30.7	-32.3	12.3	2.05e-04	0	44	0	446693376	22	4334
2026-01-22 10:40:46.03	177.51	41.07	-31.0	-33.2	11.6	5.62e-04	0	44	0	452984832	22	4645
2026-01-22 10:40:49.03	177.89	41.86	-31.4	-34.0	10.6	3.58e-03	0	44	0	458227712	23	4872
2026-01-22 10:40:52.04	178.29	42.68	-31.5	-34.3	10.5	4.01e-03	0	44	0	464519168	23	4960
2026-01-22 10:40:55.05	178.71	43.51	-30.8	-32.5	12.1	1.20e-04	0	44	0	469762048	22	4393
2026-01-22 10:40:58.07	179.16	44.36	-30.7	-32.9	12.2	1.33e-04	0	44	0	475004928	21	4605
2026-01-22 10:41:01.07	179.62	45.22	-31.4	-34.5	10.7	1.32e-03	0	44	0	481296384	22	5140
2026-01-22 10:41:04.08	180.12	46.10	-31.4	-34.0	10.8	3.73e-03	0	44	0	486539264	23	4835
2026-01-22 10:41:07.10	180.64	47.00	-31.5	-34.3	10.5	3.32e-03	0	44	0	492830720	23	4965
2026-01-22 10:41:10.10	181.19	47.92	-30.9	-32.4	11.7	8.85e-04	0	44	0	498073600	23	4301
2026-01-22 10:41:13.11	181.77	48.85	-30.9	-32.4	11.9	3.46e-04	0	44	0	503316480	23	4295
2026-01-22 10:41:16.12	182.39	49.80	-30.4	-31.4	12.9	1.10e-04	0	44	0	509607936	22	4053
2026-01-22 10:41:19.13	183.05	50.76	-30.0	-30.8	13.6	6.10e-06	0	44	0	514850816	21	3963
2026-01-22 10:41:22.14	183.76	51.75	-29.1	-29.5	15.1	0.00e+00	0	44	0	520093696	19	3756
2026-01-22 10:41:25.15	184.51	52.74	-29.1	-29.6	15.1	7.00e-07	0	44	0	526385152	19	3796
2026-01-22 10:41:28.17	185.31	53.76	-28.1	-28.2	16.5	0.00e+00	0	44	0	531628032	17	3618
2026-01-22 10:41:31.17	186.17	54.78	-27.3	-26.7	17.6	0.00e+00	0	44	0	537919488	16	3359
2026-01-22 10:41:34.16	187.09	55.82	-27.0	-26.5	17.6	0.00e+00	0	44	0	543162368	15	3424
2026-01-22 10:41:37.16	188.08	56.87	-27.1	-26.8	17.7	0.00e+00	0	44	0	548405248	15	3474
2026-01-22 10:41:40.17	189.16	57.93	-27.1	-26.8	17.7	0.00e+00	0	44	0	554696704	15	3469
2026-01-22 10:41:43.18	190.32	59.01	-28.0	-28.8	16.6	0.00e+00	0	44	0	559939584	15	3964
2026-01-22 10:41:46.19	191.58	60.09	-28.4	-28.3	16.2	0.00e+00	0	44	0	565182464	18	3555
2026-01-22 10:41:49.20	192.95	61.18	-28.0	-28.4	16.8	0.00e+00	0	44	0	571473920	16	3750
2026-01-22 10:41:52.20	194.44	62.26	-27.6	-27.3	17.3	0.00e+00	0	44	0	576716800	16	3501
2026-01-22 10:41:55.21	196.07	63.35	-27.8	-27.8	17.1	0.00e+00	0	44	0	583008256	16	3610
2026-01-22 10:41:58.22	197.86	64.44	-27.5	-27.0	17.5	3.00e-06	0	44	0	588251136	16	3429
2026-01-22 10:42:01.23	199.82	65.51	-28.0	-28.7	16.8	0.00e+00	0	44	0	593494016	15	3936
2026-01-22 10:42:04.23	201.97	66.57	-28.8	-29.2	15.9	0.00e+00	0	44	0	599785472	18	3758
2026-01-22 10:42:07.24	204.36	67.61	-29.2	-30.0	15.5	0.00e+00	0	44	0	605028352	18	3966
2026-01-22 10:42:10.24	206.98	68.63	-30.4	-31.8	13.4	3.96e-05	0	44	0	610271232	21	4217
2026-01-22 10:42:13.25	209.90	69.61	-30.1	-31.3	14.0	3.80e-06	0	44	0	616562688	20	4170
2026-01-22 10:42:16.26	213.12	70.55	-30.8	-32.7	12.8	9.90e-06	0	44	0	621805568	21	4494
2026-01-22 10:42:19.27	216.67	71.43	-31.3	-33.3	11.8	3.99e-04	0	44	0	628097024	23	4518
2026-01-22 10:42:22.29	220.60	72.25	-30.2	-31.1	13.9	7.60e-06	0	44	0	633339904	21	3999
2026-01-22 10:42:25.29	224.88	72.98	-30.5	-31.8	13.5	1.75e-05	0	44	0	638582784	21	4220
2026-01-22 10:42:28.30	229.56	73.62	-29.9	-30.9	14.2	1.50e-06	0	44	0	644874240	20	4047
2026-01-22 10:42:31.31	234.59	74.15	-30.5	-32.1	13.2	9.90e-06	0	44	0	650117120	21	4296
2026-01-22 10:42:34.32	239.94	74.56	-29.1	-29.4	15.6	7.00e-07	0	44	0	655360000	19	3721
2026-01-22 10:42:37.33	245.55	74.83	-30.9	-32.7	12.5	1.29e-04	0	44	0	661651456	22	4397
2026-01-22 10:42:40.33	251.29	74.96	-30.0	-30.6	14.2	1.50e-06	0	44	0	666894336	21	3868
2026-01-22 10:42:43.33	257.08	74.95	-29.7	-30.9	14.6	0.00e+00	0	44	0	673185792	19	4126
2026-01-22 10:42:46.32	262.78	74.79	-30.2	-31.0	13.9	4.50e-06	0	44	0	678428672	21	3980
2026-01-22 10:42:49.33	268.34	74.48	-29.6	-30.6	14.9	0.00e+00	0	44	0	683671552	19	4034
2026-01-22 10:42:52.34	273.63	74.05	-30.4	-32.3	13.4	6.10e-06	0	44	0	689963008	20	4464
2026-01-22 10:42:55.35	278.58	73.50	-31.8	-34.9	10.5	1.96e-03	0	44	0	695205888	23	5135
2026-01-22 10:42:58.36	283.18	72.83	-30.8	-32.2	12.8	2.69e-04	0	44	0	700448768	22	4233
2026-01-22 10:43:01.37	287.39	72.08	-30.2	-31.3	13.7	1.50e-06	0	44	0	706740224	21	4053
2026-01-22 10:43:04.38	291.22	71.25	-32.3	-36.1	9.1	2.16e-02	0	44	0	711983104	24	5623
2026-01-22 10:43:07.39	294.71	70.36	-31.6	-33.9	10.9	2.58e-03	0	44	0	718274560	24	4661
2026-01-22 10:43:10.40	297.86	69.42	-31.6	-33.8	11.0	1.52e-03	0	44	0	723517440	24	4617
2026-01-22 10:43:13.40	300.70	68.43	-32.9	-38.2	7.1	8.41e-02	0	44	0	728760320	25	6674
2026-01-22 10:43:16.41	303.27	67.41	-32.0	-35.3	9.7	7.41e-03	0	44	0	735051776	24	5220
2026-01-22 10:43:19.42	305.61	66.37	-31.8	-33.9	10.5	1.53e-02	0	44	0	740294656	25	4591
2026-01-22 10:43:22.43	307.72	65.30	-29.9	-31.0	14.1	1.50e-06	0	44	0	746586112	20	4074
2026-01-22 10:43:25.44	309.65	64.23	-30.2	-31.2	13.6	9.38e-05	0	44	0	751828992	21	4036
2026-01-22 10:43:28.45	311.40	63.14	-29.7	-30.3	14.5	5.30e-06	0	44	0	757071872	20	3888
2026-01-22 10:43:31.46	313.00	62.06	-28.8	-29.6	15.8	0.00e+00	0	44	0	763363328	17	3975
2026-01-22 10:43:34.48	314.47	60.97	-29.8	-30.6	14.2	2.20e-06	0	44	0	768606208	20	3978
2026-01-22 10:43:37.48	315.81	59.89	-28.5	-28.9	16.2	0.00e+00	0	44	0	773849088	17	3790
2026-01-22 10:43:40.48	317.04	58.82	-30.1	-31.7	13.5	0.00e+00	0	44	0	780140544	20	4302
2026-01-22 10:43:43.49	318.19	57.75	-26.9	-26.4	17.9	0.00e+00	0	44	0	785383424	15	3379
2026-01-22 10:43:46.49	319.24	56.69	-29.1	-29.9	15.2	0.00e+00	0	44	0	791674880	18	3966
2026-01-22 10:43:49.50	320.22	55.65	-28.3	-28.5	16.3	0.00e+00	0	44	0	796917760	17	3691
2026-01-22 10:43:52.51	321.13	54.61	-28.6	-29.3	15.9	0.00e+00	0	44	0	802160640	17	3907
2026-01-22 10:43:55.53	321.98	53.59	-29.7	-30.6	14.1	9.90e-06	0	44	0	808452096	20	3978
2026-01-22 10:43:58.54	322.77	52.58	-28.4	-28.7	16.2	0.00e+00	0	44	0	813694976	17	3733
2026-01-22 10:44:01.55	323.51	51.59	-28.6	-28.8	15.8	0.00e+00	0	44	0	818937856	18	3668
2026-01-22 10:44:04.55	324.20	50.62	-29.3	-30.4	14.9	0.00e+00	0	44	0	825229312	18	4096
2026-01-22 10:44:07.56	324.85	49.66	-30.2	-31.9	13.4	5.30e-06	0	44	0	830472192	20	4371
2026-01-22 10:44:10.57	325.47	48.72	-31.0	-32.6	11.8	9.73e-04	0	44	0	836763648	23	4345
2026-01-22 10:44:13.58	326.04	47.79	-30.5	-32.3	12.7	3.43e-05	0	44	0	842006528	21	4404
2026-01-22 10:44:16.59	326.59	46.88	-32.5	-37.2	7.4	8.62e-02	0	44	0	847249408	25	6189
2026-01-22 10:44:19.59	327.10	46.00	-31.2	-33.2	11.2	7.09e-03	0	44	0	853540864	23	4563
2026-01-22 10:44:22.60	327.59	45.12	-30.4	-32.1	12.8	9.10e-06	0	44	0	858783744	21	4338
2026-01-22 10:44:25.60	328.05	44.27	-31.6	-34.5	10.4	1.68e-03	0	44	0	864026624	23	5056
2026-01-22 10:44:28.61	328.49	43.42	-31.8	-35.2	9.8	7.13e-03	0	44	0	870318080	23	5373
2026-01-22 10:44:31.62	328.91	42.60	-30.7	-32.2	12.3	3.44e-04	0	44	0	875560960	22	4308
2026-01-22 10:44:34.62	329.30	41.79	-30.1	-31.2	13.4	1.90e-05	0	44	0	881852416	21	4056
2026-01-22 10:44:37.62	329.68	41.01	-31.1	-33.5	11.4	5.02e-04	0	44	0	887095296	22	4766
2026-01-22 10:44:40.62	330.04	40.23	-30.4	-31.5	12.8	3.49e-04	0	44	0	892338176	22	4072
2026-01-22 10:44:43.63	330.39	39.47	-29.0	-29.4	15.0	7.00e-07	0	44	0	898629632	19	3739
2026-01-22 10:44:46.64	330.72	38.73	-30.4	-32.6	12.7	1.29e-05	0	44	0	903872512	20	4615
2026-01-22 10:44:49.64	331.03	38.00	-31.6	-34.6	10.1	6.05e-03	0	44	0	909115392	23	5121
2026-01-22 10:44:52.64	331.33	37.28	-30.6	-32.2	12.1	8.15e-04	0	44	0	915406848	22	4324
2026-01-22 10:44:55.64	331.62	36.59	-29.8	-31.0	13.6	5.30e-06	0	44	0	920649728	20	4123
2026-01-22 10:44:58.65	331.90	35.90	-30.3	-32.3	12.8	5.41e-05	0	44	0	926941184	20	4511
2026-01-22 10:45:01.66	332.17	35.22	-30.7	-33.0	11.9	2.84e-04	0	44	0	932184064	21	4673
2026-01-22 10:45:04.68	332.43	34.56	-31.4	-34.6	10.5	4.46e-03	0	44	0	937426944	22	5207
2026-01-22 10:45:07.68	332.68	33.92	-32.2	-36.8	8.0	5.18e-02	0	44	0	943718400	24	6103
2026-01-22 10:45:10.69	332.92	33.28	-31.7	-34.8	9.5	1.44e-02	0	44	0	948961280	24	5110
2026-01-22 10:45:13.70	333.15	32.66	-30.7	-32.3	12.0	4.85e-04	0	44	0	954204160	22	4363
2026-01-22 10:45:16.72	333.37	32.05	-29.9	-30.8	13.3	1.83e-05	0	44	0	960495616	21	3977
2026-01-22 10:45:19.73	333.59	31.46	-30.5	-32.3	12.4	2.21e-05	0	44	0	965738496	21	4435
2026-01-22 10:45:22.75	333.79	30.87	-30.6	-32.8	12.0	3.36e-04	0	44	0	972029952	21	4618
2026-01-22 10:45:25.75	333.99	30.30	-30.4	-32.2	12.4	1.35e-04	0	44	0	977272832	21	4402
2026-01-22 10:45:28.76	334.19	29.73	-30.3	-31.8	12.7	6.02e-05	0	44	0	982515712	21	4280
2026-01-22 10:45:31.76	334.38	29.18	-30.4	-32.2	12.3	1.43e-04	0	44	0	988807168	21	4422
2026-01-22 10:45:34.77	334.56	28.64	-30.3	-31.9	12.6	1.58e-04	0	44	0	994050048	21	4322
2026-01-22 10:45:37.77	334.73	28.11	-30.0	-31.0	13.1	4.04e-05	0	44	0	999292928	21	4036
2026-01-22 10:45:40.78	334.91	27.59	-29.4	-30.0	14.2	7.00e-07	0	44	0	1005584384	20	3832
2026-01-22 10:45:43.79	335.07	27.07	-29.0	-29.5	14.8	0.00e+00	0	44	0	1010827264	19	3774
2026-01-22 10:45:46.79	335.23	26.57	-28.7	-29.2	15.3	0.00e+00	0	44	0	1017118720	18	3806
2026-01-22 10:45:49.80	335.39	26.08	-29.4	-30.9	14.2	7.00e-07	0	44	0	1022361600	18	4282
2026-01-22 10:45:52.81	335.54	25.59	-30.2	-32.0	12.7	4.11e-05	0	44	0	1027604480	20	4467
2026-01-22 10:45:55.83	335.69	25.11	-30.2	-32.3	12.6	9.84e-05	0	44	0	1033895936	20	4554
2026-01-22 10:45:58.84	335.83	24.64	-29.8	-31.1	13.3	1.14e-05	0	44	0	1039138816	20	4160
2026-01-22 10:46:01.83	335.97	24.19	-28.7	-29.2	15.2	0.00e+00	0	44	0	1045430272	18	3806
2026-01-22 10:46:04.85	336.11	23.73	-28.3	-28.8	15.8	0.00e+00	0	44	0	1050673152	17	3799
2026-01-22 10:46:07.86	336.24	23.29	-28.1	-28.3	16.0	0.00e+00	0	44	0	1055916032	17	3668
2026-01-22 10:46:10.88	336.37	22.85	-28.1	-28.3	16.0	0.00e+00	0	44	0	1062207488	17	3660
2026-01-22 10:46:13.89	336.50	22.42	-28.4	-29.0	15.5	0.00e+00	0	44	0	1067450368	17	3841
2026-01-22 10:46:16.89	336.62	22.00	-28.7	-29.6	15.2	0.00e+00	0	44	0	1072693248	17	4009
2026-01-22 10:46:19.89	336.74	21.58	-29.1	-30.3	14.4	7.00e-07	0	44	0	1078984704	18	4112
2026-01-22 10:46:22.91	336.86	21.17	-29.4	-31.0	14.0	1.50e-06	0	44	0	1084227584	18	4337
2026-01-22 10:46:25.91	336.98	20.77	-29.2	-30.4	14.3	7.00e-07	0	44	0	1090519040	18	4132
2026-01-22 10:46:28.92	337.09	20.37	-28.4	-28.5	15.5	0.00e+00	0	44	0	1095761920	18	3644
2026-01-22 10:46:31.93	337.20	19.98	-28.4	-28.4	15.5	0.00e+00	0	44	0	1101004800	18	3620
2026-01-22 10:46:34.94	337.31	19.59	-28.0	-28.0	16.1	0.00e+00	0	44	0	1107296256	17	3588
2026-01-22 10:46:37.95	337.41	19.22	-27.8	-27.6	16.2	0.00e+00	0	44	0	1112539136	17	3513
2026-01-22 10:46:40.96	337.51	18.84	-27.9	-28.2	16.2	0.00e+00	0	44	0	1117782016	16	3733
2026-01-22 10:46:43.97	337.62	18.47	-28.3	-29.3	15.6	0.00e+00	0	44	0	1124073472	16	4017
2026-01-22 10:46:46.99	337.71	18.11	-28.5	-29.4	15.2	0.00e+00	0	44	0	1129316352	17	3951
2026-01-22 10:46:50.00	337.81	17.75	-28.8	-30.0	14.8	7.00e-07	0	44	0	1135607808	17	4127
2026-01-22 10:46:52.99	337.90	17.40	-28.9	-29.8	14.5	0.00e+00	0	44	0	1140850688	18	3990
2026-01-22 10:46:56.00	338.00	17.06	-29.2	-30.5	14.1	6.80e-06	0	44	0	1146093568	18	4192
2026-01-22 10:46:59.01	338.09	16.71	-29.3	-30.8	14.0	1.50e-06	0	44	0	1152385024	18	4277
2026-01-22 10:47:02.02	338.18	16.38	-29.4	-30.7	13.7	5.30e-06	0	44	0	1157627904	19	4143
2026-01-22 10:47:05.02	338.27	16.04	-29.3	-30.3	13.9	3.80e-06	0	44	0	1162870784	19	4038
2026-01-22 10:47:08.03	338.35	15.72	-29.5	-30.8	13.5	1.06e-05	0	44	0	1169162240	19	4204
2026-01-22 10:47:11.04	338.44	15.39	-29.3	-30.2	13.9	3.00e-06	0	44	0	1174405120	19	4020
2026-01-22 10:47:14.05	338.52	15.07	-29.4	-30.5	13.7	7.60e-06	0	44	0	1180696576	19	4102
2026-01-22 10:47:17.06	338.60	14.75	-29.5	-30.9	13.4	9.90e-06	0	44	0	1185939456	19	4234
2026-01-22 10:47:20.08	338.68	14.44	-29.7	-31.3	13.2	2.05e-05	0	44	0	1191182336	19	4366
2026-01-22 10:47:23.09	338.76	14.13	-30.0	-32.2	12.5	7.17e-05	0	44	0	1197473792	19	4666
2026-01-22 10:47:26.10	338.84	13.83	-30.2	-32.5	11.9	2.78e-04	0	44	0	1202716672	20	4696
2026-01-22 10:47:29.11	338.91	13.53	-30.5	-32.9	11.3	9.44e-04	0	44	0	1209008128	21	4726
2026-01-22 10:47:32.12	338.99	13.23	-30.5	-33.1	11.1	1.79e-03	0	44	0	1214251008	21	4815
2026-01-22 10:47:35.13	339.06	12.94	-30.7	-33.6	10.7	3.22e-03	0	44	0	1219493888	21	5025
2026-01-22 10:47:38.13	339.13	12.65	-30.7	-33.7	10.6	3.26e-03	0	44	0	1225785344	21	5059
2026-01-22 10:47:41.13	339.20	12.36	-30.7	-33.5	10.7	3.44e-03	0	44	0	1231028224	21	4998
2026-01-22 10:47:44.14	339.27	12.08	-30.5	-33.1	11.1	1.75e-03	0	44	0	1236271104	21	4824
2026-01-22 10:47:47.15	339.34	11.80	-30.4	-32.7	11.3	1.98e-03	0	44	0	1242562560	21	4683
2026-01-22 10:47:50.16	339.41	11.52	-30.4	-32.8	11.2	1.74e-03	0	44	0	1247805440	21	4733
2026-01-22 10:47:53.17	339.48	11.25	-30.5	-33.0	11.0	1.78e-03	0	44	0	1254096896	21	4806
2026-01-22 10:47:56.19	339.54	10.98	-30.4	-32.7	11.3	1.51e-03	0	44	0	1259339776	21	4677
2026-01-22 10:47:59.20	339.61	10.71	-30.2	-32.0	11.8	6.60e-04	0	44	0	1264582656	21	4442
2026-01-22 10:48:02.22	339.67	10.45	-29.8	-31.3	12.4	9.91e-05	0	44	0	1270874112	20	4308
2026-01-22 10:48:05.23	339.73	10.18	-29.7	-31.0	12.7	6.71e-05	0	44	0	1276116992	20	4204
2026-01-22 10:48:08.24	339.80	9.93	-29.6	-30.8	12.8	6.48e-05	0	44	0	1282408448	20	4156
2026-01-22 10:48:11.25	339.86	9.67	-29.5	-30.6	12.9	5.64e-05	0	44	0	1287651328	20	4082
2026-01-22 10:48:14.25	339.92	9.42	-29.5	-30.6	12.9	5.26e-05	0	44	0	1292894208	20	4095
2026-01-22 10:48:17.26	339.98	9.16	-29.4	-30.5	13.0	5.41e-05	0	44	0	1299185664	20	4044
2026-01-22 10:48:20.27	340.04	8.91	-29.4	-30.4	13.0	4.65e-05	0	44	0	1304428544	20	4045
2026-01-22 10:48:23.29	340.09	8.67	-29.3	-30.0	13.2	2.82e-05	0	44	0	1309671424	20	3934
2026-01-22 10:48:26.30	340.15	8.42	-29.4	-30.8	13.1	2.82e-05	0	44	0	1315962880	19	4237
2026-01-22 10:48:29.31	340.21	8.18	-29.5	-31.1	12.9	3.96e-05	0	44	0	1321205760	19	4321
2026-01-22 10:48:32.31	340.26	7.94	-29.3	-30.7	13.1	3.05e-05	0	44	0	1327497216	19	4206
2026-01-22 10:48:35.32	340.32	7.71	-29.2	-30.4	13.2	2.05e-05	0	44	0	1332740096	19	4130
2026-01-22 10:48:38.32	340.37	7.47	-29.2	-30.4	13.2	2.82e-05	0	44	0	1337982976	19	4139
2026-01-22 10:48:41.34	340.43	7.24	-29.3	-30.5	13.1	2.36e-05	0	44	0	1344274432	19	4177
2026-01-22 10:48:44.35	340.48	7.01	-32.9	-45.5	3.8	1.49e+00	0	44	104	1347420160	25	15373

#Closed at: 2026-01-22 10:48:47
#Recorded file [1347 MB]: D:/data/31010_260122_133644.dat