passes_logs/2026/01/22/R2M6_AANII_01/R2M6_AANII_01__20260122_032209_FENGYUN_3D_rec.log

#Pass ID: 20260122_032209_FENGYUN 3D
#Satellite: FENGYUN 3D
#Configuration: FENGYUN 3D
#almurnet v.1.7.20240730
#Start time: 2026-01-22 03:22:08

#Version: 2.2.20231116
#Station: R2M6_AANII_01
#Location: 30.233357 lon 59.946436 lat
#TLE: 1 43010U 17072A   26021.48744220  .00000253  00000+0  14133-3 0  9991
#TLE: 2 43010  98.9948 353.4037 0002485  97.2578 262.8880 14.19697766424177

#Time	Az	El	Level	Level2	SNR	BER	BlckErr	Temp	State	Recorded	gain1	gain2
2026-01-22 03:22:08.58	14.48	6.94	-30.7	-35.0	5.0	8.02e-01	0	42	0	0	21	5886
2026-01-22 03:22:11.58	14.35	7.16	-30.6	-34.6	8.1	5.20e-02	0	42	0	5242880	21	5679
2026-01-22 03:22:14.60	14.21	7.38	-30.3	-34.0	8.9	2.53e-02	0	42	0	22020096	20	5542
2026-01-22 03:22:17.61	14.07	7.61	-29.6	-32.1	10.3	5.30e-03	0	42	0	38797312	20	4793
2026-01-22 03:22:20.61	13.93	7.84	-28.8	-31.4	11.8	1.93e-04	0	42	0	55574528	17	4871
2026-01-22 03:22:23.62	13.79	8.07	-28.8	-31.5	11.8	2.69e-04	0	42	0	73400320	17	4903
2026-01-22 03:22:26.63	13.64	8.30	-28.3	-30.1	12.6	6.40e-05	0	42	0	90177536	17	4464
2026-01-22 03:22:29.63	13.49	8.53	-28.5	-31.1	12.4	6.06e-05	0	42	0	106954752	16	4867
2026-01-22 03:22:32.63	13.34	8.77	-27.6	-29.1	13.7	5.70e-06	0	42	0	123731968	16	4252
2026-01-22 03:22:35.64	13.19	9.01	-27.1	-28.9	14.2	2.20e-06	0	42	0	140509184	14	4423
2026-01-22 03:22:38.66	13.03	9.25	-27.1	-28.9	14.2	0.00e+00	0	42	0	157286400	14	4413
2026-01-22 03:22:41.66	12.87	9.49	-27.0	-28.7	14.4	0.00e+00	0	43	0	174063616	14	4354
2026-01-22 03:22:44.66	12.71	9.73	-27.3	-29.4	14.0	0.00e+00	0	43	0	190840832	14	4555
2026-01-22 03:22:47.66	12.55	9.98	-26.9	-28.9	14.5	0.00e+00	0	43	0	208666624	13	4529
2026-01-22 03:22:50.67	12.38	10.23	-26.8	-28.8	14.6	0.00e+00	0	43	0	225443840	13	4502
2026-01-22 03:22:53.69	12.21	10.48	-26.9	-28.9	14.5	0.00e+00	0	43	0	242221056	13	4526
2026-01-22 03:22:56.70	12.03	10.73	-27.0	-28.7	14.4	0.00e+00	0	43	0	258998272	14	4368
2026-01-22 03:22:59.71	11.85	10.99	-26.6	-28.2	15.0	0.00e+00	0	43	0	275775488	13	4333
2026-01-22 03:23:02.71	11.67	11.25	-26.6	-28.3	14.9	0.00e+00	0	43	0	292552704	13	4372
2026-01-22 03:23:05.73	11.49	11.51	-26.6	-28.2	15.0	0.00e+00	0	43	0	310378496	13	4337
2026-01-22 03:23:08.75	11.30	11.77	-26.6	-28.3	14.9	0.00e+00	0	43	0	327155712	13	4374
2026-01-22 03:23:11.75	11.11	12.04	-26.5	-27.9	15.2	0.00e+00	0	43	0	343932928	13	4254
2026-01-22 03:23:14.76	10.91	12.30	-26.4	-27.8	15.2	0.00e+00	0	43	0	360710144	13	4238
2026-01-22 03:23:17.78	10.71	12.58	-26.6	-28.1	15.1	0.00e+00	0	43	0	377487360	13	4321
2026-01-22 03:23:20.80	10.51	12.85	-26.4	-27.7	15.4	0.00e+00	0	43	0	394264576	13	4195
2026-01-22 03:23:23.81	10.30	13.13	-26.2	-27.8	15.6	0.00e+00	0	43	0	411041792	12	4334
2026-01-22 03:23:26.82	10.09	13.41	-26.2	-27.9	15.5	0.00e+00	0	43	0	428867584	12	4366
2026-01-22 03:23:29.82	9.87	13.69	-26.1	-27.5	15.8	0.00e+00	0	43	0	445644800	12	4261
2026-01-22 03:23:32.82	9.65	13.97	-26.1	-27.6	15.8	0.00e+00	0	44	0	462422016	12	4274
2026-01-22 03:23:35.83	9.43	14.26	-25.9	-27.2	16.0	0.00e+00	0	44	0	479199232	12	4162
2026-01-22 03:23:38.85	9.20	14.55	-26.0	-27.3	16.0	0.00e+00	0	43	0	495976448	12	4190
2026-01-22 03:23:41.85	8.97	14.84	-25.8	-26.8	16.2	0.00e+00	0	43	0	512753664	12	4076
2026-01-22 03:23:44.85	8.73	15.14	-25.8	-26.8	16.2	0.00e+00	0	44	0	529530880	12	4076
2026-01-22 03:23:47.85	8.48	15.44	-25.7	-26.8	16.2	0.00e+00	0	44	0	546308096	12	4068
2026-01-22 03:23:50.86	8.23	15.74	-25.6	-26.6	16.4	0.00e+00	0	44	0	564133888	12	4006
2026-01-22 03:23:53.87	7.98	16.04	-25.6	-26.5	16.5	0.00e+00	0	44	0	580911104	12	3991
2026-01-22 03:23:56.89	7.72	16.36	-25.7	-26.7	16.4	0.00e+00	0	44	0	597688320	12	4039
2026-01-22 03:23:59.90	7.45	16.67	-25.4	-25.9	16.8	0.00e+00	0	44	0	614465536	12	3853
2026-01-22 03:24:02.89	7.18	16.98	-25.4	-26.0	16.7	0.00e+00	0	44	0	631242752	12	3874
2026-01-22 03:24:05.90	6.91	17.30	-25.3	-25.9	16.8	0.00e+00	0	44	0	648019968	12	3850
2026-01-22 03:24:08.91	6.62	17.62	-25.3	-26.2	17.0	0.00e+00	0	44	0	664797184	11	4026
2026-01-22 03:24:11.92	6.33	17.95	-25.3	-26.3	17.0	0.00e+00	0	44	0	681574400	11	4035
2026-01-22 03:24:14.92	6.04	18.28	-25.2	-26.0	17.2	0.00e+00	0	44	0	699400192	11	3964
2026-01-22 03:24:17.93	5.73	18.61	-25.1	-25.9	17.2	0.00e+00	0	44	0	716177408	11	3936
2026-01-22 03:24:20.93	5.42	18.95	-25.1	-25.9	17.2	0.00e+00	0	44	0	732954624	11	3948
2026-01-22 03:24:23.93	5.10	19.29	-25.1	-25.9	17.3	0.00e+00	0	44	0	749731840	11	3933
2026-01-22 03:24:26.94	4.78	19.64	-24.8	-25.3	17.6	0.00e+00	0	44	0	766509056	11	3802
2026-01-22 03:24:29.95	4.45	19.98	-24.8	-25.6	17.7	0.00e+00	0	44	0	783286272	10	3985
2026-01-22 03:24:32.97	4.10	20.34	-24.6	-25.3	17.9	0.00e+00	0	44	0	800063488	10	3896
2026-01-22 03:24:35.96	3.76	20.69	-24.8	-25.6	17.7	0.00e+00	0	44	0	817889280	10	3981
2026-01-22 03:24:38.96	3.40	21.05	-24.8	-25.7	17.7	0.00e+00	0	44	0	834666496	10	3990
2026-01-22 03:24:41.97	3.03	21.42	-24.7	-25.5	17.8	0.00e+00	0	44	0	851443712	10	3958
2026-01-22 03:24:44.99	2.66	21.79	-24.3	-24.7	18.2	0.00e+00	0	44	0	868220928	10	3765
2026-01-22 03:24:48.00	2.27	22.16	-24.2	-25.0	18.3	0.00e+00	0	44	0	884998144	9	3933
2026-01-22 03:24:51.02	1.88	22.54	-24.3	-25.1	18.3	0.00e+00	0	44	0	901775360	9	3960
2026-01-22 03:24:54.03	1.47	22.92	-24.4	-25.4	18.1	0.00e+00	0	44	0	918552576	9	4029
2026-01-22 03:24:57.03	1.06	23.30	-24.4	-25.3	18.2	0.00e+00	0	44	0	936378368	9	4021
2026-01-22 03:25:00.04	0.63	23.69	-24.1	-24.8	18.4	0.00e+00	0	44	0	953155584	9	3900
2026-01-22 03:25:03.05	0.20	24.08	-23.8	-24.1	18.8	0.00e+00	0	44	0	969932800	9	3720
2026-01-22 03:25:06.06	359.75	24.48	-23.7	-24.3	19.0	0.00e+00	0	44	0	986710016	8	3876
2026-01-22 03:25:09.05	359.29	24.88	-23.9	-24.7	18.8	0.00e+00	0	44	0	1003487232	8	3977
2026-01-22 03:25:12.06	358.82	25.28	-23.9	-24.9	18.6	0.00e+00	0	44	0	1020264448	8	4022
2026-01-22 03:25:15.07	358.33	25.69	-24.0	-24.9	18.7	0.00e+00	0	44	0	1037041664	8	4028
2026-01-22 03:25:18.08	357.84	26.11	-23.8	-24.5	18.9	0.00e+00	0	44	0	1054867456	8	3927
2026-01-22 03:25:21.10	357.32	26.53	-24.2	-25.4	18.4	0.00e+00	0	44	0	1071644672	8	4138
2026-01-22 03:25:24.10	356.80	26.95	-23.5	-23.9	19.2	0.00e+00	0	44	0	1088421888	8	3789
2026-01-22 03:25:27.11	356.26	27.37	-23.5	-23.9	19.2	0.00e+00	0	44	0	1105199104	8	3785
2026-01-22 03:25:30.12	355.71	27.80	-23.4	-23.7	19.3	0.00e+00	0	44	0	1121976320	8	3744
2026-01-22 03:25:33.13	355.14	28.23	-23.4	-23.7	19.4	0.00e+00	0	44	0	1138753536	8	3746
2026-01-22 03:25:36.15	354.55	28.67	-23.4	-23.8	19.3	0.00e+00	0	44	0	1155530752	8	3770
2026-01-22 03:25:39.16	353.95	29.11	-23.5	-24.0	19.2	0.00e+00	0	44	0	1173356544	8	3798
2026-01-22 03:25:42.17	353.33	29.55	-23.2	-23.9	19.5	0.00e+00	0	44	0	1190133760	7	3897
2026-01-22 03:25:45.18	352.69	30.00	-23.1	-23.7	18.8	0.00e+00	0	44	0	1206910976	7	3846
2026-01-22 03:25:48.18	352.04	30.45	-23.1	-23.7	19.6	0.00e+00	0	44	0	1223688192	7	3833
2026-01-22 03:25:51.20	351.36	30.90	-22.9	-23.7	19.8	0.00e+00	0	44	0	1240465408	6	3943
2026-01-22 03:25:54.21	350.67	31.35	-23.0	-23.9	19.8	0.00e+00	0	44	0	1257242624	6	3993
2026-01-22 03:25:57.22	349.96	31.81	-23.1	-24.1	19.7	1.74e-04	0	44	0	1274019840	6	4050
2026-01-22 03:26:00.24	349.22	32.27	-23.3	-24.6	19.4	0.00e+00	0	44	0	1291845632	6	4181
2026-01-22 03:26:03.24	348.47	32.73	-23.1	-24.2	19.6	0.00e+00	0	44	0	1308622848	6	4080
2026-01-22 03:26:06.26	347.69	33.19	-23.3	-24.5	19.5	2.89e-04	0	44	0	1325400064	6	4143
2026-01-22 03:26:09.27	346.89	33.65	-23.0	-24.0	19.8	0.00e+00	0	44	0	1342177280	6	4017
2026-01-22 03:26:12.28	346.06	34.11	-23.3	-24.5	19.5	0.00e+00	0	44	0	1358954496	6	4141
2026-01-22 03:26:15.29	345.22	34.58	-23.1	-24.1	19.7	3.08e-05	0	44	0	1375731712	6	4042
2026-01-22 03:26:18.30	344.34	35.04	-23.0	-23.8	19.8	0.00e+00	0	44	0	1393557504	6	3984
2026-01-22 03:26:21.31	343.45	35.50	-23.1	-24.1	19.7	0.00e+00	0	44	0	1410334720	6	4049
2026-01-22 03:26:24.34	342.52	35.96	-23.0	-23.8	19.9	9.04e-05	0	44	0	1427111936	6	3973
2026-01-22 03:26:27.36	341.56	36.42	-23.0	-23.9	19.8	2.12e-04	0	44	0	1443889152	6	3984
2026-01-22 03:26:30.36	340.59	36.87	-22.9	-23.6	20.0	1.99e-04	0	44	0	1460666368	6	3924
2026-01-22 03:26:33.37	339.59	37.32	-22.9	-23.8	19.9	1.48e-04	0	44	0	1477443584	6	3965
2026-01-22 03:26:36.37	338.56	37.76	-22.9	-23.8	19.9	7.78e-05	0	44	0	1494220800	6	3967
2026-01-22 03:26:39.39	337.49	38.21	-23.1	-24.0	19.8	9.61e-05	0	44	0	1512046592	6	4030
2026-01-22 03:26:42.40	336.40	38.64	-23.3	-24.6	19.5	4.23e-05	0	44	0	1528823808	6	4161
2026-01-22 03:26:45.42	335.28	39.07	-23.2	-24.3	19.6	0.00e+00	0	44	0	1545601024	6	4100
2026-01-22 03:26:48.42	334.13	39.49	-23.1	-24.1	19.7	0.00e+00	0	44	0	1562378240	6	4036
2026-01-22 03:26:51.42	332.95	39.90	-23.2	-24.3	19.6	0.00e+00	0	44	0	1579155456	6	4093
2026-01-22 03:26:54.43	331.74	40.30	-22.9	-23.7	19.9	1.13e-04	0	44	0	1595932672	6	3951
2026-01-22 03:26:57.45	330.49	40.70	-22.7	-23.3	20.1	0.00e+00	0	44	0	1613758464	6	3848
2026-01-22 03:27:00.45	329.23	41.08	-22.8	-23.4	20.1	0.00e+00	0	44	0	1630535680	6	3891
2026-01-22 03:27:03.47	327.92	41.45	-22.8	-24.1	19.9	0.00e+00	0	44	0	1647312896	5	4161
2026-01-22 03:27:06.47	326.59	41.80	-22.9	-24.1	19.9	2.72e-04	0	44	0	1664090112	5	4166
2026-01-22 03:27:09.48	325.23	42.14	-22.8	-24.0	20.0	0.00e+00	0	44	0	1680867328	5	4142
2026-01-22 03:27:12.49	323.84	42.46	-22.6	-23.6	20.2	0.00e+00	0	44	0	1697644544	5	4034
2026-01-22 03:27:15.50	322.43	42.77	-22.6	-23.5	20.3	0.00e+00	0	44	0	1714421760	5	4006
2026-01-22 03:27:18.52	320.98	43.06	-22.7	-23.8	20.1	0.00e+00	0	44	0	1732247552	5	4098
2026-01-22 03:27:21.53	319.51	43.33	-23.0	-24.3	19.9	0.00e+00	0	44	0	1749024768	5	4214
2026-01-22 03:27:24.54	318.01	43.59	-22.7	-23.2	20.2	0.00e+00	0	44	0	1765801984	6	3827
2026-01-22 03:27:27.54	316.50	43.82	-22.6	-23.1	20.3	0.00e+00	0	44	0	1782579200	6	3797
2026-01-22 03:27:30.54	314.97	44.02	-22.9	-23.6	20.0	0.00e+00	0	44	0	1799356416	6	3935
2026-01-22 03:27:33.55	313.41	44.21	-22.8	-23.5	20.1	0.00e+00	0	44	0	1816133632	6	3899
2026-01-22 03:27:36.55	311.84	44.37	-22.7	-23.3	20.2	0.00e+00	0	44	0	1832910848	6	3861
2026-01-22 03:27:39.57	310.25	44.52	-22.7	-23.3	20.2	0.00e+00	0	44	0	1849688064	6	3848
2026-01-22 03:27:42.57	308.65	44.63	-22.6	-23.1	20.3	0.00e+00	0	44	0	1867513856	6	3796
2026-01-22 03:27:45.58	307.03	44.72	-22.7	-23.3	20.2	0.00e+00	0	44	0	1884291072	6	3863
2026-01-22 03:27:48.59	305.41	44.79	-22.8	-23.4	20.1	0.00e+00	0	44	0	1901068288	6	3879
2026-01-22 03:27:51.59	303.79	44.83	-22.7	-23.3	20.2	0.00e+00	0	44	0	1917845504	6	3848
2026-01-22 03:27:54.60	302.16	44.84	-22.7	-23.2	20.2	0.00e+00	0	44	0	1934622720	6	3830
2026-01-22 03:27:57.60	300.53	44.83	-22.4	-22.7	20.5	0.00e+00	0	44	0	1951399936	6	3716
2026-01-22 03:28:00.61	298.91	44.79	-22.4	-22.7	20.5	0.00e+00	0	44	0	1968177152	6	3720
2026-01-22 03:28:03.62	297.28	44.73	-22.7	-23.8	20.2	0.00e+00	0	44	0	1984954368	5	4077
2026-01-22 03:28:06.64	295.66	44.64	-22.1	-22.5	20.8	0.00e+00	0	44	0	2002780160	5	3767
2026-01-22 03:28:09.64	294.06	44.53	-22.3	-23.0	20.5	0.00e+00	0	44	0	2019557376	5	3895
2026-01-22 03:28:12.66	292.46	44.39	-22.8	-24.1	20.0	0.00e+00	0	44	0	2036334592	5	4148
2026-01-22 03:28:15.66	290.89	44.23	-22.6	-23.5	20.3	0.00e+00	0	44	0	2053111808	5	4011
2026-01-22 03:28:18.67	289.33	44.04	-22.7	-23.7	20.2	0.00e+00	0	44	0	2069889024	5	4068
2026-01-22 03:28:21.69	287.78	43.84	-22.5	-23.4	20.3	0.00e+00	0	44	0	2087714816	5	3992
2026-01-22 03:28:24.71	286.25	43.61	-22.3	-22.9	19.7	0.00e+00	0	44	0	2104492032	5	3859
2026-01-22 03:28:27.72	284.76	43.36	-22.4	-23.1	19.8	0.00e+00	0	44	0	2121269248	5	3932
2026-01-22 03:28:30.72	283.29	43.09	-22.6	-23.5	20.3	2.63e-05	0	44	0	2138046464	5	4002
2026-01-22 03:28:33.73	281.84	42.80	-22.4	-23.1	20.5	0.00e+00	0	44	0	2154823680	5	3910
2026-01-22 03:28:36.74	280.41	42.49	-22.2	-22.7	20.7	0.00e+00	0	44	0	2171600896	5	3814
2026-01-22 03:28:39.75	279.02	42.17	-22.2	-22.8	20.6	6.98e-05	0	44	0	2188378112	5	3849
2026-01-22 03:28:42.76	277.65	41.83	-22.4	-23.2	20.4	0.00e+00	0	44	0	2205155328	5	3935
2026-01-22 03:28:45.77	276.32	41.47	-22.4	-23.2	20.4	0.00e+00	0	44	0	2222981120	5	3949
2026-01-22 03:28:48.77	275.01	41.11	-22.4	-23.1	20.5	0.00e+00	0	44	0	2239758336	5	3913
2026-01-22 03:28:51.78	273.74	40.73	-22.4	-23.1	20.5	2.10e-04	0	44	0	2256535552	5	3909
2026-01-22 03:28:54.79	272.49	40.33	-22.7	-23.8	20.1	0.00e+00	0	44	0	2273312768	5	4076
2026-01-22 03:28:57.80	271.27	39.93	-22.6	-23.6	20.2	1.14e-05	0	44	0	2290089984	5	4042
2026-01-22 03:29:00.81	270.08	39.52	-22.6	-23.5	20.2	6.17e-05	0	44	0	2306867200	5	4017
2026-01-22 03:29:03.81	268.93	39.10	-22.7	-23.7	20.1	1.53e-04	0	44	0	2323644416	5	4055
2026-01-22 03:29:06.81	267.81	38.67	-22.4	-23.1	20.4	1.94e-04	0	44	0	2340421632	5	3919
2026-01-22 03:29:09.81	266.72	38.24	-22.6	-23.6	20.1	2.63e-04	0	44	0	2358247424	5	4047
2026-01-22 03:29:12.82	265.65	37.80	-22.4	-23.2	20.3	4.02e-04	0	44	0	2375024640	5	3933
2026-01-22 03:29:15.84	264.60	37.35	-22.6	-23.7	20.1	2.40e-04	0	44	0	2391801856	5	4058
2026-01-22 03:29:18.84	263.60	36.90	-22.7	-23.9	20.0	0.00e+00	0	44	0	2408579072	5	4109
2026-01-22 03:29:21.86	262.61	36.44	-22.4	-23.1	20.4	1.34e-04	0	44	0	2425356288	5	3908
2026-01-22 03:29:24.88	261.65	35.98	-22.3	-23.0	20.4	0.00e+00	0	44	0	2443182080	5	3887
2026-01-22 03:29:27.90	260.72	35.52	-22.3	-23.5	20.4	7.14e-04	0	44	0	2459959296	4	4124
2026-01-22 03:29:30.91	259.82	35.06	-22.5	-23.8	20.2	5.55e-04	0	44	0	2476736512	4	4210
2026-01-22 03:29:33.92	258.94	34.60	-22.4	-23.2	20.3	0.00e+00	0	44	0	2493513728	5	3937
2026-01-22 03:29:36.93	258.09	34.13	-22.3	-23.0	20.4	0.00e+00	0	44	0	2510290944	5	3906
2026-01-22 03:29:39.93	257.26	33.67	-22.3	-22.9	20.5	0.00e+00	0	44	0	2527068160	5	3866
2026-01-22 03:29:42.95	256.45	33.20	-22.5	-23.3	20.2	0.00e+00	0	44	0	2543845376	5	3977
2026-01-22 03:29:45.96	255.67	32.74	-22.4	-23.2	20.3	0.00e+00	0	44	0	2560622592	5	3942
2026-01-22 03:29:48.97	254.91	32.28	-22.4	-23.2	20.3	2.15e-04	0	44	0	2578448384	5	3936
2026-01-22 03:29:51.98	254.17	31.82	-22.7	-23.8	19.9	0.00e+00	0	44	0	2595225600	5	4094
2026-01-22 03:29:54.99	253.45	31.36	-22.4	-23.3	20.2	0.00e+00	0	44	0	2612002816	5	3955
2026-01-22 03:29:57.99	252.76	30.91	-22.9	-24.2	19.8	0.00e+00	0	44	0	2628780032	5	4186
2026-01-22 03:30:01.01	252.08	30.45	-23.1	-24.2	19.5	0.00e+00	0	44	0	2645557248	6	4087
2026-01-22 03:30:04.02	251.42	30.00	-23.1	-24.2	19.5	0.00e+00	0	44	0	2662334464	6	4066
2026-01-22 03:30:07.03	250.78	29.55	-22.8	-23.6	19.8	0.00e+00	0	44	0	2679111680	6	3921
2026-01-22 03:30:10.03	250.16	29.11	-22.8	-23.5	19.8	0.00e+00	0	44	0	2696937472	6	3910
2026-01-22 03:30:13.04	249.55	28.67	-23.1	-24.1	19.5	0.00e+00	0	44	0	2713714688	6	4047
2026-01-22 03:30:16.05	248.96	28.23	-23.1	-24.2	19.5	0.00e+00	0	44	0	2730491904	6	4076
2026-01-22 03:30:19.06	248.39	27.80	-23.2	-24.3	19.4	0.00e+00	0	44	0	2747269120	6	4092
2026-01-22 03:30:22.06	247.83	27.37	-23.1	-24.2	19.5	0.00e+00	0	44	0	2764046336	6	4067
2026-01-22 03:30:25.07	247.29	26.94	-23.6	-24.7	19.0	0.00e+00	0	44	0	2780823552	7	4085
2026-01-22 03:30:28.07	246.76	26.52	-23.6	-24.7	18.9	0.00e+00	0	44	0	2797600768	7	4092
2026-01-22 03:30:31.08	246.24	26.10	-23.9	-25.3	18.6	0.00e+00	0	44	0	2815426560	7	4232
2026-01-22 03:30:34.09	245.74	25.68	-23.4	-24.2	19.1	0.00e+00	0	44	0	2832203776	7	3970
2026-01-22 03:30:37.10	245.25	25.27	-23.4	-24.7	19.1	0.00e+00	0	44	0	2848980992	6	4202
2026-01-22 03:30:40.11	244.78	24.86	-23.3	-24.5	19.2	0.00e+00	0	44	0	2865758208	6	4153
2026-01-22 03:30:43.11	244.32	24.46	-23.3	-24.5	19.2	0.00e+00	0	44	0	2882535424	6	4164
2026-01-22 03:30:46.12	243.86	24.06	-23.2	-24.4	19.3	0.00e+00	0	44	0	2899312640	6	4118
2026-01-22 03:30:49.13	243.42	23.67	-23.2	-24.4	19.3	0.00e+00	0	44	0	2917138432	6	4117
2026-01-22 03:30:52.15	242.99	23.27	-23.2	-24.3	19.3	0.00e+00	0	44	0	2933915648	6	4104
2026-01-22 03:30:55.16	242.58	22.89	-23.6	-24.6	18.8	0.00e+00	0	44	0	2950692864	7	4069
2026-01-22 03:30:58.17	242.17	22.50	-23.8	-25.1	18.6	0.00e+00	0	44	0	2967470080	7	4182
2026-01-22 03:31:01.18	241.77	22.13	-23.7	-25.0	18.6	0.00e+00	0	44	0	2984247296	7	4157
2026-01-22 03:31:04.19	241.38	21.75	-23.8	-25.2	18.5	1.10e-06	0	44	0	3001024512	7	4211
2026-01-22 03:31:07.21	241.00	21.38	-24.1	-25.3	18.2	4.50e-06	0	44	0	3017801728	8	4125
2026-01-22 03:31:10.23	240.63	21.01	-23.9	-24.8	18.5	0.00e+00	0	44	0	3035627520	8	3997
2026-01-22 03:31:13.24	240.27	20.65	-23.7	-24.5	18.6	0.00e+00	0	44	0	3052404736	8	3927
2026-01-22 03:31:16.25	239.92	20.29	-23.8	-25.1	18.5	0.00e+00	0	44	0	3069181952	7	4186
2026-01-22 03:31:19.27	239.57	19.94	-24.1	-25.2	18.2	0.00e+00	0	44	0	3085959168	8	4111
2026-01-22 03:31:22.28	239.24	19.58	-24.4	-26.0	17.8	0.00e+00	0	44	0	3102736384	8	4305
2026-01-22 03:31:25.30	238.91	19.24	-24.8	-26.2	17.4	0.00e+00	0	44	0	3119513600	9	4237
2026-01-22 03:31:28.31	238.59	18.89	-24.4	-25.4	17.8	0.00e+00	0	44	0	3137339392	9	4048
2026-01-22 03:31:31.32	238.27	18.56	-24.6	-25.8	17.6	0.00e+00	0	44	0	3154116608	9	4128
2026-01-22 03:31:34.33	237.97	18.22	-24.8	-26.3	17.3	0.00e+00	0	44	0	3170893824	9	4280
2026-01-22 03:31:37.34	237.67	17.89	-25.2	-26.5	17.0	0.00e+00	0	44	0	3187671040	10	4211
2026-01-22 03:31:40.34	237.37	17.56	-25.1	-26.5	16.9	0.00e+00	0	44	0	3204448256	10	4213
2026-01-22 03:31:43.35	237.09	17.24	-25.5	-26.7	16.5	0.00e+00	0	44	0	3221225472	11	4155
2026-01-22 03:31:46.35	236.81	16.92	-24.9	-26.0	17.2	0.00e+00	0	44	0	3238002688	10	4086
2026-01-22 03:31:49.36	236.53	16.60	-24.9	-26.1	17.1	0.00e+00	0	44	0	3254779904	10	4104
2026-01-22 03:31:52.36	236.26	16.29	-24.9	-26.1	17.1	0.00e+00	0	44	0	3272605696	10	4099
2026-01-22 03:31:55.37	236.00	15.98	-25.1	-26.3	17.0	0.00e+00	0	44	0	3289382912	10	4168
2026-01-22 03:31:58.38	235.74	15.67	-25.1	-26.4	17.0	0.00e+00	0	44	0	3306160128	10	4178
2026-01-22 03:32:01.38	235.49	15.37	-25.2	-26.6	16.8	0.00e+00	0	44	0	3322937344	10	4227
2026-01-22 03:32:04.39	235.25	15.06	-25.2	-26.6	16.8	0.00e+00	0	44	0	3339714560	10	4239
2026-01-22 03:32:07.41	235.00	14.77	-25.3	-26.9	16.6	0.00e+00	0	44	0	3356491776	10	4311
2026-01-22 03:32:10.41	234.77	14.47	-25.5	-26.8	16.4	0.00e+00	0	44	0	3373268992	11	4175
2026-01-22 03:32:13.42	234.54	14.18	-25.5	-26.9	16.3	0.00e+00	0	44	0	3390046208	11	4212
2026-01-22 03:32:16.44	234.31	13.89	-25.6	-27.2	16.1	0.00e+00	0	44	0	3407872000	11	4287
2026-01-22 03:32:19.45	234.08	13.61	-25.6	-27.1	16.1	0.00e+00	0	44	0	3424649216	11	4263
2026-01-22 03:32:22.45	233.87	13.32	-25.7	-27.2	16.1	0.00e+00	0	44	0	3441426432	11	4278
2026-01-22 03:32:25.46	233.65	13.04	-25.7	-27.2	16.1	0.00e+00	0	44	0	3458203648	11	4287
2026-01-22 03:32:28.47	233.44	12.77	-25.7	-27.3	16.0	1.10e-06	0	44	0	3474980864	11	4312
2026-01-22 03:32:31.49	233.24	12.49	-25.8	-27.4	15.9	0.00e+00	0	44	0	3492806656	11	4351
2026-01-22 03:32:34.50	233.03	12.22	-25.9	-27.6	15.8	0.00e+00	0	44	0	3509583872	11	4411
2026-01-22 03:32:37.53	232.83	11.95	-25.8	-27.1	15.7	0.00e+00	0	44	0	3526361088	12	4151
2026-01-22 03:32:40.54	232.64	11.68	-25.8	-27.0	15.7	0.00e+00	0	44	0	3543138304	12	4146
2026-01-22 03:32:43.54	232.45	11.42	-25.9	-27.3	15.6	0.00e+00	0	44	0	3559915520	12	4201
2026-01-22 03:32:46.56	232.26	11.16	-25.8	-27.1	15.6	0.00e+00	0	44	0	3576692736	12	4155
2026-01-22 03:32:49.57	232.08	10.90	-25.9	-27.3	15.5	0.00e+00	0	44	0	3593469952	12	4209
2026-01-22 03:32:52.58	231.90	10.64	-26.0	-27.6	15.3	0.00e+00	0	44	0	3611295744	12	4283
2026-01-22 03:32:55.59	231.72	10.39	-26.2	-28.0	15.1	0.00e+00	0	44	0	3628072960	12	4404
2026-01-22 03:32:58.60	231.54	10.13	-26.1	-27.7	15.3	0.00e+00	0	44	0	3644850176	12	4324
2026-01-22 03:33:01.61	231.37	9.88	-26.3	-28.2	15.0	0.00e+00	0	44	0	3661627392	12	4476
2026-01-22 03:33:04.62	231.20	9.64	-26.5	-28.6	14.7	0.00e+00	0	44	0	3678404608	12	4576
2026-01-22 03:33:07.62	231.04	9.39	-26.7	-28.7	14.4	0.00e+00	0	44	0	3695181824	13	4494
2026-01-22 03:33:10.64	230.88	9.15	-26.6	-28.3	14.5	0.00e+00	0	44	0	3713007616	13	4388
2026-01-22 03:33:13.64	230.72	8.91	-26.5	-28.2	14.6	0.00e+00	0	44	0	3729784832	13	4362
2026-01-22 03:33:16.66	230.56	8.67	-26.4	-28.0	14.7	0.00e+00	0	44	0	3746562048	13	4295
2026-01-22 03:33:19.68	230.41	8.43	-26.4	-28.0	14.6	0.00e+00	0	44	0	3763339264	13	4302
2026-01-22 03:33:22.68	230.26	8.20	-26.5	-28.2	14.5	1.10e-06	0	44	0	3780116480	13	4363
2026-01-22 03:33:25.70	230.11	7.96	-26.5	-28.1	14.5	0.00e+00	0	44	0	3796893696	13	4348
2026-01-22 03:33:28.71	229.96	7.73	-26.6	-28.4	14.3	0.00e+00	0	44	0	3813670912	13	4434
2026-01-22 03:33:31.71	229.82	7.51	-26.5	-28.2	14.4	0.00e+00	0	44	0	3830448128	13	4378
2026-01-22 03:33:34.72	229.67	7.28	-26.7	-28.6	14.2	1.10e-06	0	45	0	3848273920	13	4481
2026-01-22 03:33:37.75	229.53	7.05	-32.8	-43.4	3.8	8.44e-01	0	44	104	3862953984	25	12228

#Closed at: 2026-01-22 03:33:40
#Recorded file [3862 MB]: D:/data/31010_260122_062210.dat