passes_logs/2026/01/22/R2M6_AANII_01/R2M6_AANII_01__20260122_050248_FENGYUN_3D_rec.log

#Pass ID: 20260122_050248_FENGYUN 3D
#Satellite: FENGYUN 3D
#Configuration: FENGYUN 3D
#almurnet v.1.7.20240730
#Start time: 2026-01-22 05:02:50

#Version: 2.2.20231116
#Station: R2M6_AANII_01
#Location: 30.233357 lon 59.946436 lat
#TLE: 1 43010U 17072A   26021.48744220  .00000253  00000+0  14133-3 0  9991
#TLE: 2 43010  98.9948 353.4037 0002485  97.2578 262.8880 14.19697766424177

#Time	Az	El	Level	Level2	SNR	BER	BlckErr	Temp	State	Recorded	gain1	gain2
2026-01-22 05:02:50.01	8.95	7.09	-31.2	-35.7	4.7	8.08e-01	0	42	0	0	23	6064
2026-01-22 05:02:53.00	8.60	7.25	-30.4	-33.4	8.5	4.90e-02	0	42	0	5242880	22	5089
2026-01-22 05:02:56.01	8.24	7.41	-30.7	-35.0	7.8	7.22e-02	0	42	0	22020096	21	5914
2026-01-22 05:02:59.01	7.88	7.57	-29.4	-31.6	10.5	6.74e-03	0	42	0	38797312	20	4644
2026-01-22 05:03:02.01	7.52	7.74	-28.2	-30.0	12.6	2.08e-04	0	42	0	55574528	17	4444
2026-01-22 05:03:05.02	7.15	7.90	-27.4	-28.5	13.9	9.10e-06	0	42	0	73400320	16	4102
2026-01-22 05:03:08.04	6.78	8.06	-27.1	-28.3	14.1	3.40e-06	0	42	0	90177536	15	4171
2026-01-22 05:03:11.06	6.40	8.22	-26.9	-28.0	14.3	1.10e-06	0	42	0	106954752	15	4074
2026-01-22 05:03:14.06	6.03	8.38	-26.9	-27.9	14.4	2.20e-06	0	43	0	123731968	15	4057
2026-01-22 05:03:17.07	5.64	8.55	-26.7	-28.1	14.5	1.10e-06	0	42	0	140509184	14	4205
2026-01-22 05:03:20.08	5.25	8.71	-26.7	-28.0	14.6	1.10e-06	0	43	0	157286400	14	4193
2026-01-22 05:03:23.10	4.86	8.87	-26.9	-28.5	14.4	1.10e-06	0	43	0	174063616	14	4308
2026-01-22 05:03:26.10	4.46	9.03	-27.0	-28.7	14.2	1.10e-06	0	43	0	190840832	14	4374
2026-01-22 05:03:29.10	4.06	9.19	-26.9	-28.4	14.4	1.10e-06	0	43	0	208666624	14	4300
2026-01-22 05:03:32.10	3.65	9.35	-27.1	-28.9	14.1	3.40e-06	0	43	0	225443840	14	4426
2026-01-22 05:03:35.12	3.24	9.51	-27.0	-28.6	14.3	1.10e-06	0	43	0	242221056	14	4364
2026-01-22 05:03:38.13	2.82	9.67	-26.7	-28.1	14.6	2.20e-06	0	43	0	258998272	14	4208
2026-01-22 05:03:41.14	2.40	9.83	-26.6	-27.8	14.8	0.00e+00	0	43	0	275775488	14	4140
2026-01-22 05:03:44.15	1.98	9.98	-26.6	-27.8	14.8	1.10e-06	0	43	0	292552704	14	4141
2026-01-22 05:03:47.15	1.55	10.14	-26.6	-27.9	14.8	1.10e-06	0	43	0	309329920	14	4150
2026-01-22 05:03:50.16	1.11	10.30	-26.6	-27.8	14.8	0.00e+00	0	43	0	327155712	14	4127
2026-01-22 05:03:53.16	0.68	10.45	-26.4	-27.4	15.0	0.00e+00	0	43	0	343932928	14	4024
2026-01-22 05:03:56.18	0.23	10.61	-26.3	-27.2	15.2	0.00e+00	0	43	0	360710144	14	3959
2026-01-22 05:03:59.19	359.78	10.77	-26.5	-27.5	15.0	0.00e+00	0	43	0	377487360	14	4051
2026-01-22 05:04:02.20	359.33	10.92	-26.5	-27.6	15.0	1.10e-06	0	43	0	394264576	14	4085
2026-01-22 05:04:05.21	358.87	11.07	-26.5	-27.5	15.1	0.00e+00	0	43	0	411041792	14	4035
2026-01-22 05:04:08.24	358.40	11.23	-26.2	-27.3	15.4	0.00e+00	0	43	0	428867584	13	4088
2026-01-22 05:04:11.25	357.93	11.38	-26.1	-27.1	15.6	0.00e+00	0	43	0	445644800	13	4040
2026-01-22 05:04:14.24	357.46	11.53	-26.2	-27.3	15.4	0.00e+00	0	44	0	462422016	13	4101
2026-01-22 05:04:17.23	356.98	11.68	-26.3	-27.6	15.3	0.00e+00	0	43	0	479199232	13	4180
2026-01-22 05:04:20.25	356.50	11.83	-26.1	-27.2	15.5	0.00e+00	0	43	0	495976448	13	4060
2026-01-22 05:04:23.26	356.01	11.98	-26.1	-27.1	15.6	0.00e+00	0	44	0	512753664	13	4035
2026-01-22 05:04:26.26	355.51	12.12	-25.8	-26.5	15.9	0.00e+00	0	43	0	529530880	13	3896
2026-01-22 05:04:29.27	355.01	12.27	-25.9	-27.2	15.8	0.00e+00	0	44	0	546308096	12	4180
2026-01-22 05:04:32.27	354.51	12.41	-26.0	-27.5	15.6	0.00e+00	0	44	0	564133888	12	4264
2026-01-22 05:04:35.29	354.00	12.55	-26.0	-27.4	15.7	0.00e+00	0	44	0	580911104	12	4238
2026-01-22 05:04:38.31	353.48	12.70	-26.0	-27.5	15.7	0.00e+00	0	43	0	597688320	12	4267
2026-01-22 05:04:41.31	352.97	12.83	-25.9	-27.1	15.9	0.00e+00	0	44	0	614465536	12	4150
2026-01-22 05:04:44.32	352.44	12.97	-25.7	-26.8	16.1	0.00e+00	0	44	0	631242752	12	4061
2026-01-22 05:04:47.33	351.91	13.11	-25.9	-27.1	15.9	0.00e+00	0	44	0	648019968	12	4164
2026-01-22 05:04:50.33	351.38	13.24	-26.0	-27.4	15.7	0.00e+00	0	44	0	664797184	12	4239
2026-01-22 05:04:53.34	350.84	13.38	-25.9	-27.1	16.0	0.00e+00	0	44	0	681574400	12	4150
2026-01-22 05:04:56.35	350.30	13.51	-25.7	-26.7	16.2	0.00e+00	0	44	0	699400192	12	4032
2026-01-22 05:04:59.36	349.75	13.64	-25.7	-26.7	16.2	0.00e+00	0	44	0	716177408	12	4040
2026-01-22 05:05:02.37	349.19	13.76	-25.9	-27.2	15.9	0.00e+00	0	44	0	732954624	12	4184
2026-01-22 05:05:05.37	348.64	13.89	-25.8	-27.0	16.0	0.00e+00	0	44	0	749731840	12	4132
2026-01-22 05:05:08.38	348.07	14.01	-25.8	-27.0	16.1	0.00e+00	0	44	0	766509056	12	4116
2026-01-22 05:05:11.39	347.50	14.13	-25.7	-26.7	16.2	0.00e+00	0	44	0	783286272	12	4043
2026-01-22 05:05:14.40	346.93	14.25	-25.5	-26.4	16.4	0.00e+00	0	44	0	800063488	12	3956
2026-01-22 05:05:17.39	346.36	14.37	-25.4	-26.2	16.5	0.00e+00	0	44	0	816840704	12	3908
2026-01-22 05:05:20.39	345.78	14.48	-25.3	-25.9	16.7	0.00e+00	0	44	0	834666496	12	3840
2026-01-22 05:05:23.39	345.19	14.59	-25.6	-26.4	16.4	0.00e+00	0	44	0	851443712	12	3970
2026-01-22 05:05:26.39	344.60	14.70	-25.4	-26.1	16.5	0.00e+00	0	44	0	868220928	12	3901
2026-01-22 05:05:29.41	344.00	14.81	-25.3	-26.3	16.8	0.00e+00	0	44	0	884998144	11	4053
2026-01-22 05:05:32.43	343.40	14.91	-25.2	-26.2	16.8	0.00e+00	0	44	0	901775360	11	4023
2026-01-22 05:05:35.45	342.80	15.01	-25.1	-25.9	17.0	0.00e+00	0	44	0	918552576	11	3950
2026-01-22 05:05:38.45	342.19	15.11	-25.2	-26.2	16.9	0.00e+00	0	44	0	935329792	11	4014
2026-01-22 05:05:41.46	341.58	15.21	-24.9	-25.6	17.2	0.00e+00	0	44	0	953155584	11	3862
2026-01-22 05:05:44.47	340.96	15.30	-24.9	-25.5	17.2	0.00e+00	0	44	0	969932800	11	3860
2026-01-22 05:05:47.48	340.34	15.39	-25.0	-25.8	17.1	0.00e+00	0	44	0	986710016	11	3913
2026-01-22 05:05:50.49	339.72	15.48	-25.2	-26.0	16.9	0.00e+00	0	44	0	1003487232	11	3978
2026-01-22 05:05:53.51	339.09	15.56	-25.3	-26.3	16.9	0.00e+00	0	44	0	1020264448	11	4038
2026-01-22 05:05:56.52	338.46	15.64	-25.2	-26.0	16.9	0.00e+00	0	44	0	1038090240	11	3977
2026-01-22 05:05:59.53	337.82	15.72	-25.0	-25.6	17.2	0.00e+00	0	44	0	1054867456	11	3882
2026-01-22 05:06:02.55	337.18	15.79	-25.1	-25.9	17.1	0.00e+00	0	44	0	1071644672	11	3939
2026-01-22 05:06:05.56	336.54	15.86	-25.0	-25.7	17.1	0.00e+00	0	44	0	1088421888	11	3910
2026-01-22 05:06:08.57	335.90	15.93	-24.9	-25.5	17.3	0.00e+00	0	44	0	1105199104	11	3848
2026-01-22 05:06:11.58	335.25	15.99	-24.8	-25.3	17.3	0.00e+00	0	44	0	1121976320	11	3814
2026-01-22 05:06:14.60	334.60	16.05	-24.8	-25.3	17.4	0.00e+00	0	44	0	1138753536	11	3811
2026-01-22 05:06:17.61	333.95	16.10	-24.9	-25.9	17.3	0.00e+00	0	44	0	1155530752	10	4040
2026-01-22 05:06:20.62	333.29	16.16	-25.2	-26.6	16.9	0.00e+00	0	44	0	1173356544	10	4237
2026-01-22 05:06:23.63	332.64	16.20	-24.9	-26.0	17.3	0.00e+00	0	44	0	1190133760	10	4073
2026-01-22 05:06:26.64	331.98	16.25	-25.0	-26.3	17.1	1.10e-06	0	44	0	1206910976	10	4140
2026-01-22 05:06:29.64	331.32	16.29	-25.2	-26.5	17.0	0.00e+00	0	44	0	1223688192	10	4219
2026-01-22 05:06:32.64	330.66	16.33	-24.8	-25.8	17.3	0.00e+00	0	44	0	1240465408	10	4036
2026-01-22 05:06:35.64	330.00	16.36	-25.0	-26.3	17.1	0.00e+00	0	44	0	1257242624	10	4148
2026-01-22 05:06:38.65	329.33	16.39	-24.7	-25.5	17.5	0.00e+00	0	44	0	1274019840	10	3964
2026-01-22 05:06:41.66	328.66	16.42	-24.6	-25.4	17.6	0.00e+00	0	44	0	1291845632	10	3925
2026-01-22 05:06:44.68	327.99	16.44	-24.8	-25.8	17.3	0.00e+00	0	44	0	1308622848	10	4034
2026-01-22 05:06:47.69	327.33	16.45	-24.6	-25.4	17.6	0.00e+00	0	44	0	1325400064	10	3927
2026-01-22 05:06:50.69	326.66	16.47	-24.6	-25.3	17.6	0.00e+00	0	44	0	1342177280	10	3899
2026-01-22 05:06:53.71	325.99	16.48	-24.6	-25.4	17.6	0.00e+00	0	44	0	1358954496	10	3924
2026-01-22 05:06:56.73	325.31	16.48	-24.6	-25.3	17.6	0.00e+00	0	44	0	1375731712	10	3900
2026-01-22 05:06:59.72	324.65	16.49	-24.6	-25.3	17.6	0.00e+00	0	44	0	1393557504	10	3906
2026-01-22 05:07:02.72	323.98	16.48	-24.7	-25.5	17.5	0.00e+00	0	44	0	1410334720	10	3965
2026-01-22 05:07:05.72	323.31	16.48	-24.7	-25.6	17.5	0.00e+00	0	44	0	1427111936	10	3985
2026-01-22 05:07:08.72	322.64	16.47	-24.8	-25.7	17.4	0.00e+00	0	44	0	1443889152	10	4010
2026-01-22 05:07:11.74	321.97	16.45	-24.9	-26.0	17.2	0.00e+00	0	44	0	1460666368	10	4091
2026-01-22 05:07:14.76	321.30	16.43	-24.8	-25.9	17.3	0.00e+00	0	44	0	1477443584	10	4045
2026-01-22 05:07:17.77	320.63	16.41	-25.0	-26.1	17.1	0.00e+00	0	44	0	1494220800	10	4115
2026-01-22 05:07:20.78	319.97	16.39	-24.7	-25.5	17.5	0.00e+00	0	44	0	1510998016	10	3948
2026-01-22 05:07:23.79	319.30	16.36	-24.7	-25.5	17.5	0.00e+00	0	44	0	1528823808	10	3949
2026-01-22 05:07:26.80	318.64	16.32	-24.7	-25.6	17.4	0.00e+00	0	44	0	1545601024	10	3979
2026-01-22 05:07:29.82	317.97	16.29	-24.6	-25.4	17.6	0.00e+00	0	44	0	1562378240	10	3930
2026-01-22 05:07:32.83	317.31	16.24	-24.7	-25.5	17.5	0.00e+00	0	44	0	1579155456	10	3958
2026-01-22 05:07:35.83	316.65	16.20	-24.6	-25.4	17.6	0.00e+00	0	44	0	1595932672	10	3923
2026-01-22 05:07:38.84	316.00	16.15	-24.8	-25.7	17.4	0.00e+00	0	44	0	1612709888	10	4001
2026-01-22 05:07:41.84	315.34	16.10	-24.9	-26.0	17.2	0.00e+00	0	44	0	1629487104	10	4090
2026-01-22 05:07:44.85	314.69	16.04	-24.9	-25.9	17.3	0.00e+00	0	44	0	1646264320	10	4057
2026-01-22 05:07:47.86	314.04	15.98	-24.6	-25.3	17.6	0.00e+00	0	44	0	1664090112	10	3904
2026-01-22 05:07:50.87	313.39	15.92	-25.0	-26.2	17.1	0.00e+00	0	44	0	1680867328	10	4134
2026-01-22 05:07:53.88	312.75	15.85	-24.9	-26.0	17.2	0.00e+00	0	44	0	1697644544	10	4074
2026-01-22 05:07:56.88	312.11	15.78	-24.9	-25.9	17.3	0.00e+00	0	44	0	1714421760	10	4048
2026-01-22 05:07:59.91	311.47	15.71	-24.8	-25.8	17.3	0.00e+00	0	44	0	1731198976	10	4032
2026-01-22 05:08:02.92	310.83	15.63	-24.8	-25.7	17.4	0.00e+00	0	44	0	1747976192	10	3996
2026-01-22 05:08:05.94	310.20	15.55	-25.0	-26.3	17.0	0.00e+00	0	44	0	1765801984	10	4151
2026-01-22 05:08:08.95	309.57	15.46	-24.9	-26.0	17.2	0.00e+00	0	44	0	1782579200	10	4068
2026-01-22 05:08:11.95	308.95	15.38	-25.1	-26.3	17.0	0.00e+00	0	44	0	1799356416	10	4157
2026-01-22 05:08:14.97	308.33	15.29	-25.3	-26.8	16.7	0.00e+00	0	44	0	1816133632	10	4291
2026-01-22 05:08:17.98	307.71	15.19	-25.2	-26.7	16.8	0.00e+00	0	44	0	1832910848	10	4268
2026-01-22 05:08:20.98	307.10	15.10	-25.4	-26.6	16.6	0.00e+00	0	44	0	1849688064	11	4122
2026-01-22 05:08:23.98	306.49	15.00	-25.2	-26.2	16.8	0.00e+00	0	44	0	1867513856	11	4014
2026-01-22 05:08:26.99	305.88	14.90	-25.1	-26.0	16.9	0.00e+00	0	44	0	1884291072	11	3971
2026-01-22 05:08:30.00	305.28	14.80	-25.2	-26.2	16.8	0.00e+00	0	44	0	1901068288	11	4016
2026-01-22 05:08:33.02	304.69	14.69	-25.3	-26.3	16.7	0.00e+00	0	44	0	1917845504	11	4040
2026-01-22 05:08:36.03	304.09	14.58	-25.3	-26.3	16.7	0.00e+00	0	44	0	1934622720	11	4062
2026-01-22 05:08:39.05	303.50	14.47	-25.5	-26.8	16.4	0.00e+00	0	44	0	1951399936	11	4166
2026-01-22 05:08:42.06	302.92	14.35	-25.3	-26.4	16.6	0.00e+00	0	44	0	1968177152	11	4077
2026-01-22 05:08:45.07	302.34	14.23	-25.4	-26.6	16.5	0.00e+00	0	44	0	1984954368	11	4134
2026-01-22 05:08:48.08	301.77	14.11	-25.4	-26.6	16.5	0.00e+00	0	44	0	2002780160	11	4137
2026-01-22 05:08:51.09	301.20	13.99	-25.4	-26.5	16.6	0.00e+00	0	44	0	2019557376	11	4099
2026-01-22 05:08:54.10	300.63	13.87	-25.2	-26.1	16.7	0.00e+00	0	44	0	2036334592	11	4012
2026-01-22 05:08:57.11	300.07	13.74	-25.4	-26.7	16.5	0.00e+00	0	44	0	2053111808	11	4148
2026-01-22 05:09:00.12	299.52	13.62	-25.6	-26.9	16.3	0.00e+00	0	44	0	2069889024	11	4208
2026-01-22 05:09:03.13	298.97	13.49	-25.5	-26.8	16.4	0.00e+00	0	44	0	2086666240	11	4179
2026-01-22 05:09:06.13	298.42	13.35	-25.5	-26.8	16.3	0.00e+00	0	44	0	2104492032	11	4185
2026-01-22 05:09:09.15	297.88	13.22	-25.3	-26.4	16.6	0.00e+00	0	44	0	2121269248	11	4070
2026-01-22 05:09:12.15	297.35	13.09	-25.4	-26.6	16.4	0.00e+00	0	44	0	2138046464	11	4130
2026-01-22 05:09:15.16	296.82	12.95	-25.5	-26.7	16.4	0.00e+00	0	44	0	2154823680	11	4149
2026-01-22 05:09:18.17	296.29	12.81	-25.5	-26.7	16.3	0.00e+00	0	44	0	2171600896	11	4165
2026-01-22 05:09:21.19	295.77	12.67	-25.7	-27.3	16.0	0.00e+00	0	44	0	2188378112	11	4313
2026-01-22 05:09:24.20	295.25	12.53	-25.9	-27.6	15.8	0.00e+00	0	44	0	2205155328	11	4410
2026-01-22 05:09:27.20	294.74	12.39	-26.2	-28.0	15.3	0.00e+00	0	44	0	2222981120	12	4388
2026-01-22 05:09:30.20	294.24	12.24	-26.6	-28.2	14.8	0.00e+00	0	44	0	2239758336	13	4345
2026-01-22 05:09:33.20	293.74	12.10	-26.4	-27.9	15.0	0.00e+00	0	44	0	2256535552	13	4263
2026-01-22 05:09:36.22	293.24	11.95	-25.9	-26.7	15.6	0.00e+00	0	44	0	2273312768	13	3960
2026-01-22 05:09:39.24	292.75	11.80	-25.9	-26.6	15.7	0.00e+00	0	44	0	2290089984	13	3938
2026-01-22 05:09:42.25	292.27	11.65	-25.8	-26.6	15.7	0.00e+00	0	44	0	2306867200	13	3915
2026-01-22 05:09:45.25	291.79	11.50	-26.2	-27.4	15.2	0.00e+00	0	44	0	2323644416	13	4144
2026-01-22 05:09:48.25	291.31	11.35	-26.4	-27.8	15.0	0.00e+00	0	44	0	2340421632	13	4226
2026-01-22 05:09:51.26	290.84	11.20	-25.7	-26.8	15.8	0.00e+00	0	45	0	2358247424	12	4072
2026-01-22 05:09:54.27	290.38	11.04	-26.0	-27.5	15.4	0.00e+00	0	44	0	2375024640	12	4279
2026-01-22 05:09:57.29	289.92	10.89	-25.9	-27.2	15.6	0.00e+00	0	45	0	2391801856	12	4191
2026-01-22 05:10:00.31	289.46	10.73	-25.9	-27.3	15.5	0.00e+00	0	44	0	2408579072	12	4207
2026-01-22 05:10:03.32	289.01	10.58	-26.1	-27.6	15.3	0.00e+00	0	44	0	2425356288	12	4298
2026-01-22 05:10:06.33	288.56	10.42	-26.3	-28.2	15.0	0.00e+00	0	44	0	2443182080	12	4459
2026-01-22 05:10:09.34	288.12	10.27	-26.3	-28.2	14.9	0.00e+00	0	44	0	2459959296	12	4480
2026-01-22 05:10:12.34	287.68	10.11	-26.6	-28.3	14.6	0.00e+00	0	44	0	2476736512	13	4389
2026-01-22 05:10:15.36	287.25	9.95	-26.7	-28.6	14.4	3.40e-06	0	45	0	2493513728	13	4466
2026-01-22 05:10:18.37	286.82	9.79	-26.5	-28.1	14.6	0.00e+00	0	44	0	2510290944	13	4341
2026-01-22 05:10:21.37	286.40	9.63	-26.7	-28.5	14.4	0.00e+00	0	44	0	2527068160	13	4446
2026-01-22 05:10:24.39	285.98	9.47	-26.4	-28.0	14.7	1.10e-06	0	44	0	2543845376	13	4300
2026-01-22 05:10:27.40	285.57	9.31	-26.4	-27.9	14.7	0.00e+00	0	44	0	2560622592	13	4275
2026-01-22 05:10:30.42	285.16	9.15	-26.7	-28.5	14.3	2.20e-06	0	44	0	2578448384	13	4448
2026-01-22 05:10:33.42	284.76	8.99	-26.5	-28.1	14.5	2.20e-06	0	45	0	2595225600	13	4345
2026-01-22 05:10:36.43	284.36	8.83	-26.6	-28.4	14.3	1.10e-06	0	44	0	2612002816	13	4437
2026-01-22 05:10:39.45	283.96	8.67	-26.6	-28.3	14.4	3.40e-06	0	44	0	2628780032	13	4380
2026-01-22 05:10:42.44	283.58	8.51	-26.6	-28.4	14.3	4.50e-06	0	44	0	2645557248	13	4429
2026-01-22 05:10:45.45	283.19	8.34	-26.8	-28.7	14.1	3.40e-06	0	44	0	2662334464	13	4528
2026-01-22 05:10:48.47	282.81	8.18	-26.6	-28.3	14.3	3.40e-06	0	44	0	2679111680	13	4402
2026-01-22 05:10:51.47	282.43	8.02	-26.6	-28.4	14.3	1.10e-06	0	44	0	2695888896	13	4433
2026-01-22 05:10:54.47	282.06	7.86	-26.8	-28.8	14.0	5.70e-06	0	44	0	2713714688	13	4540
2026-01-22 05:10:57.47	281.69	7.70	-26.7	-28.7	14.1	1.10e-06	0	44	0	2730491904	13	4507
2026-01-22 05:11:00.48	281.33	7.53	-26.7	-28.7	14.1	3.40e-06	0	44	0	2747269120	13	4510
2026-01-22 05:11:03.51	280.96	7.37	-26.8	-28.9	14.0	1.10e-06	0	44	0	2764046336	13	4561
2026-01-22 05:11:06.52	280.61	7.21	-26.9	-29.2	13.7	5.70e-06	0	44	0	2780823552	13	4667
2026-01-22 05:11:09.53	280.25	7.05	-32.6	-43.4	3.8	2.86e-05	0	44	0	2797600768	25	12438

#Closed at: 2026-01-22 05:11:12
#Recorded file [2797 MB]: D:/data/31010_260122_080251.dat