passes_logs/2026/01/22/R2M6_AANII_01/R2M6_AANII_01__20260122_014148_FENGYUN_3D_rec.log

#Pass ID: 20260122_014148_FENGYUN 3D
#Satellite: FENGYUN 3D
#Configuration: FENGYUN 3D
#almurnet v.1.7.20240730
#Start time: 2026-01-22 01:41:48

#Version: 2.2.20231116
#Station: R2M6_AANII_01
#Location: 30.233357 lon 59.946436 lat
#TLE: 1 43010U 17072A   26021.48744220  .00000253  00000+0  14133-3 0  9991
#TLE: 2 43010  98.9948 353.4037 0002485  97.2578 262.8880 14.19697766424177

#Time	Az	El	Level	Level2	SNR	BER	BlckErr	Temp	State	Recorded	gain1	gain2
2026-01-22 01:41:48.17	23.05	6.99	-28.7	-31.3	5.6	7.77e-01	0	42	0	0	17	4889
2026-01-22 01:41:51.16	23.18	7.22	-29.4	-32.3	10.2	4.61e-03	0	42	0	5242880	19	4994
2026-01-22 01:41:54.17	23.32	7.44	-29.0	-31.2	11.0	2.00e-03	0	42	0	22020096	19	4629
2026-01-22 01:41:57.18	23.47	7.67	-28.6	-31.2	11.6	5.45e-04	0	42	0	38797312	17	4845
2026-01-22 01:42:00.19	23.61	7.90	-27.9	-29.9	12.7	5.49e-05	0	42	0	55574528	16	4528
2026-01-22 01:42:03.19	23.75	8.13	-27.5	-29.4	13.2	1.37e-05	0	42	0	73400320	15	4484
2026-01-22 01:42:06.20	23.90	8.36	-28.3	-30.8	12.2	1.29e-04	0	42	0	90177536	16	4801
2026-01-22 01:42:09.19	24.05	8.59	-27.0	-28.4	13.9	4.50e-06	0	43	0	106954752	15	4199
2026-01-22 01:42:12.20	24.20	8.83	-26.5	-27.7	14.6	0.00e+00	0	43	0	123731968	14	4115
2026-01-22 01:42:15.21	24.36	9.07	-26.6	-28.4	14.5	0.00e+00	0	43	0	140509184	13	4410
2026-01-22 01:42:18.22	24.51	9.31	-26.8	-28.7	14.3	1.10e-06	0	43	0	157286400	13	4512
2026-01-22 01:42:21.22	24.67	9.55	-26.7	-28.4	14.2	2.20e-06	0	43	0	174063616	13	4422
2026-01-22 01:42:24.22	24.83	9.79	-26.7	-28.5	14.4	0.00e+00	0	43	0	190840832	13	4438
2026-01-22 01:42:27.23	25.00	10.04	-26.7	-28.7	14.3	0.00e+00	0	43	0	208666624	13	4486
2026-01-22 01:42:30.23	25.17	10.29	-26.5	-28.1	14.7	0.00e+00	0	43	0	225443840	13	4318
2026-01-22 01:42:33.24	25.33	10.54	-26.4	-28.5	14.8	0.00e+00	0	43	0	242221056	12	4550
2026-01-22 01:42:36.27	25.51	10.80	-26.7	-28.0	14.5	2.92e-04	0	43	0	258998272	14	4189
2026-01-22 01:42:39.27	25.68	11.05	-26.0	-27.5	15.4	0.00e+00	0	43	0	275775488	12	4281
2026-01-22 01:42:42.28	25.86	11.31	-26.0	-27.5	15.4	0.00e+00	0	43	0	292552704	12	4276
2026-01-22 01:42:45.29	26.04	11.57	-26.0	-27.5	15.4	1.43e-04	0	43	0	309329920	12	4280
2026-01-22 01:42:48.29	26.22	11.84	-25.8	-27.6	15.7	1.10e-04	0	44	0	326107136	11	4402
2026-01-22 01:42:51.30	26.41	12.11	-25.8	-27.5	15.8	1.53e-04	0	44	0	343932928	11	4362
2026-01-22 01:42:54.30	26.60	12.37	-25.7	-27.2	16.0	2.06e-04	0	44	0	360710144	11	4287
2026-01-22 01:42:57.30	26.79	12.65	-25.8	-27.5	15.8	2.20e-04	0	43	0	377487360	11	4370
2026-01-22 01:43:00.32	26.99	12.92	-26.0	-27.3	15.5	2.17e-04	0	43	0	394264576	12	4225
2026-01-22 01:43:03.32	27.19	13.20	-26.0	-27.6	15.5	0.00e+00	0	44	0	411041792	12	4281
2026-01-22 01:43:06.34	27.39	13.48	-26.0	-27.5	15.5	1.70e-04	0	44	0	427819008	12	4271
2026-01-22 01:43:09.34	27.60	13.77	-25.9	-27.8	15.7	1.38e-04	0	44	0	444596224	11	4448
2026-01-22 01:43:12.34	27.81	14.05	-25.8	-27.0	15.8	0.00e+00	0	43	0	461373440	12	4133
2026-01-22 01:43:15.35	28.03	14.34	-25.4	-26.6	16.4	0.00e+00	0	44	0	479199232	11	4124
2026-01-22 01:43:18.35	28.24	14.64	-25.4	-27.2	16.3	0.00e+00	0	44	0	495976448	10	4404
2026-01-22 01:43:21.35	28.47	14.93	-25.1	-26.3	16.8	0.00e+00	0	44	0	512753664	10	4178
2026-01-22 01:43:24.38	28.70	15.23	-25.1	-26.4	16.8	0.00e+00	0	44	0	529530880	10	4190
2026-01-22 01:43:27.38	28.93	15.54	-25.1	-26.5	16.8	0.00e+00	0	44	0	546308096	10	4210
2026-01-22 01:43:30.39	29.16	15.84	-24.9	-26.0	17.0	0.00e+00	0	44	0	563085312	10	4085
2026-01-22 01:43:33.40	29.40	16.15	-24.9	-26.5	17.0	0.00e+00	0	44	0	579862528	9	4341
2026-01-22 01:43:36.39	29.65	16.47	-25.0	-26.3	16.9	0.00e+00	0	44	0	596639744	10	4162
2026-01-22 01:43:39.40	29.90	16.78	-24.7	-25.6	17.3	0.00e+00	0	44	0	614465536	10	3976
2026-01-22 01:43:42.42	30.15	17.11	-24.7	-26.0	17.4	0.00e+00	0	44	0	631242752	9	4182
2026-01-22 01:43:45.42	30.41	17.43	-24.5	-25.7	17.5	0.00e+00	0	44	0	648019968	9	4116
2026-01-22 01:43:48.43	30.68	17.76	-24.5	-25.6	17.6	0.00e+00	0	44	0	664797184	9	4100
2026-01-22 01:43:51.42	30.95	18.09	-24.4	-25.9	14.6	0.00e+00	0	44	0	681574400	8	4279
2026-01-22 01:43:54.43	31.23	18.43	-24.4	-25.8	17.4	0.00e+00	0	44	0	698351616	8	4273
2026-01-22 01:43:57.44	31.51	18.77	-24.3	-25.8	17.8	0.00e+00	0	44	0	715128832	8	4253
2026-01-22 01:44:00.46	31.80	19.11	-24.3	-25.8	17.8	0.00e+00	0	44	0	732954624	8	4247
2026-01-22 01:44:03.48	32.10	19.46	-24.4	-25.8	17.8	0.00e+00	0	44	0	749731840	8	4265
2026-01-22 01:44:06.47	32.40	19.81	-24.1	-25.2	18.1	5.57e-04	0	44	0	766509056	8	4110
2026-01-22 01:44:09.48	32.71	20.17	-24.1	-25.3	18.0	3.27e-04	0	44	0	783286272	8	4140
2026-01-22 01:44:12.49	33.03	20.53	-24.1	-25.2	18.1	0.00e+00	0	44	0	800063488	8	4105
2026-01-22 01:44:15.51	33.35	20.90	-24.0	-25.2	18.2	0.00e+00	0	44	0	816840704	8	4095
2026-01-22 01:44:18.52	33.68	21.27	-23.8	-25.2	18.4	4.77e-04	0	44	0	834666496	7	4212
2026-01-22 01:44:21.52	34.02	21.65	-24.0	-25.5	18.2	0.00e+00	0	44	0	851443712	7	4297
2026-01-22 01:44:24.53	34.37	22.03	-24.6	-25.9	17.5	4.84e-04	0	44	0	868220928	9	4168
2026-01-22 01:44:27.54	34.72	22.41	-24.1	-24.8	18.1	4.74e-04	0	44	0	884998144	9	3900
2026-01-22 01:44:30.55	35.09	22.81	-24.1	-25.3	18.1	2.48e-04	0	44	0	901775360	8	4121
2026-01-22 01:44:33.57	35.46	23.20	-23.6	-24.2	18.7	1.85e-04	0	44	0	918552576	8	3865
2026-01-22 01:44:36.58	35.85	23.60	-23.4	-24.2	18.9	2.54e-04	0	44	0	935329792	7	3973
2026-01-22 01:44:39.59	36.24	24.01	-23.5	-24.6	18.8	3.32e-04	0	44	0	953155584	7	4057
2026-01-22 01:44:42.59	36.64	24.42	-23.3	-24.1	19.0	2.39e-04	0	44	0	969932800	7	3947
2026-01-22 01:44:45.60	37.05	24.83	-23.2	-24.0	19.1	2.48e-04	0	44	0	986710016	7	3913
2026-01-22 01:44:48.61	37.47	25.25	-23.2	-23.9	19.2	1.60e-04	0	44	0	1003487232	7	3887
2026-01-22 01:44:51.61	37.91	25.67	-23.1	-23.6	19.3	1.53e-04	0	44	0	1020264448	7	3818
2026-01-22 01:44:54.62	38.35	26.11	-23.1	-23.6	19.3	0.00e+00	0	44	0	1037041664	7	3813
2026-01-22 01:44:57.62	38.81	26.54	-23.1	-23.7	19.3	1.49e-04	0	44	0	1053818880	7	3837
2026-01-22 01:45:00.64	39.28	26.98	-23.0	-24.0	19.4	1.45e-04	0	44	0	1070596096	6	4029
2026-01-22 01:45:03.65	39.76	27.43	-23.0	-24.0	19.4	0.00e+00	0	44	0	1088421888	6	4040
2026-01-22 01:45:06.66	40.26	27.88	-23.0	-24.0	19.4	4.11e-05	0	44	0	1105199104	6	4022
2026-01-22 01:45:09.67	40.77	28.34	-22.9	-23.7	19.5	0.00e+00	0	44	0	1121976320	6	3958
2026-01-22 01:45:12.67	41.29	28.80	-23.0	-24.0	19.4	0.00e+00	0	44	0	1138753536	6	4034
2026-01-22 01:45:15.69	41.83	29.27	-23.0	-24.1	19.4	0.00e+00	0	44	0	1155530752	6	4041
2026-01-22 01:45:18.69	42.39	29.74	-23.0	-23.9	19.5	0.00e+00	0	44	0	1172307968	6	4003
2026-01-22 01:45:21.71	42.96	30.22	-22.9	-23.8	19.6	0.00e+00	0	44	0	1189085184	6	3978
2026-01-22 01:45:24.72	43.55	30.70	-23.1	-24.2	19.4	0.00e+00	0	44	0	1206910976	6	4073
2026-01-22 01:45:27.74	44.16	31.19	-23.2	-24.4	19.3	0.00e+00	0	44	0	1223688192	6	4133
2026-01-22 01:45:30.74	44.78	31.68	-23.0	-24.0	19.4	0.00e+00	0	44	0	1240465408	6	4032
2026-01-22 01:45:33.76	45.42	32.18	-22.8	-23.6	19.7	0.00e+00	0	44	0	1257242624	6	3933
2026-01-22 01:45:36.76	46.09	32.68	-23.3	-24.5	19.2	0.00e+00	0	44	0	1274019840	6	4155
2026-01-22 01:45:39.78	46.77	33.18	-23.2	-24.5	19.3	0.00e+00	0	44	0	1290797056	6	4139
2026-01-22 01:45:42.78	47.47	33.69	-23.2	-24.3	19.4	0.00e+00	0	44	0	1308622848	6	4104
2026-01-22 01:45:45.78	48.20	34.20	-23.0	-24.0	19.5	0.00e+00	0	45	0	1325400064	6	4024
2026-01-22 01:45:48.80	48.95	34.72	-22.9	-23.8	19.6	0.00e+00	0	44	0	1342177280	6	3971
2026-01-22 01:45:51.80	49.72	35.24	-22.9	-23.6	19.7	0.00e+00	0	44	0	1358954496	6	3939
2026-01-22 01:45:54.81	50.52	35.76	-22.6	-23.0	20.0	0.00e+00	0	44	0	1375731712	6	3796
2026-01-22 01:45:57.82	51.34	36.28	-22.7	-23.4	19.8	0.00e+00	0	44	0	1392508928	6	3886
2026-01-22 01:46:00.83	52.19	36.81	-22.8	-23.5	19.9	0.00e+00	0	44	0	1409286144	6	3897
2026-01-22 01:46:03.85	53.07	37.34	-22.6	-23.0	20.1	0.00e+00	0	44	0	1426063360	6	3799
2026-01-22 01:46:06.85	53.97	37.87	-22.6	-23.2	20.0	0.00e+00	0	44	0	1443889152	6	3834
2026-01-22 01:46:09.85	54.91	38.40	-22.6	-23.1	20.0	0.00e+00	0	44	0	1460666368	6	3815
2026-01-22 01:46:12.85	55.87	38.92	-22.3	-22.5	20.3	0.00e+00	0	44	0	1477443584	6	3679
2026-01-22 01:46:15.87	56.87	39.45	-22.7	-23.3	20.0	0.00e+00	0	44	0	1494220800	6	3857
2026-01-22 01:46:18.87	57.90	39.98	-22.7	-23.2	20.0	0.00e+00	0	44	0	1510998016	6	3849
2026-01-22 01:46:21.88	58.96	40.50	-22.6	-23.0	20.1	0.00e+00	0	44	0	1527775232	6	3800
2026-01-22 01:46:24.88	60.06	41.02	-22.6	-23.1	20.0	0.00e+00	0	44	0	1544552448	6	3820
2026-01-22 01:46:27.89	61.19	41.54	-22.7	-23.4	19.9	0.00e+00	0	44	0	1561329664	6	3879
2026-01-22 01:46:30.91	62.36	42.05	-22.7	-23.2	20.0	0.00e+00	0	44	0	1579155456	6	3847
2026-01-22 01:46:33.92	63.57	42.55	-22.7	-23.3	19.9	0.00e+00	0	44	0	1595932672	6	3865
2026-01-22 01:46:36.93	64.81	43.05	-23.2	-24.4	19.5	0.00e+00	0	44	0	1612709888	6	4112
2026-01-22 01:46:39.94	66.10	43.54	-22.8	-23.5	19.9	0.00e+00	0	44	0	1629487104	6	3896
2026-01-22 01:46:42.94	67.41	44.01	-22.8	-23.4	19.9	0.00e+00	0	44	0	1646264320	6	3887
2026-01-22 01:46:45.95	68.77	44.48	-23.1	-24.2	19.6	0.00e+00	0	44	0	1663041536	6	4067
2026-01-22 01:46:48.96	70.17	44.93	-23.1	-24.3	19.4	0.00e+00	0	44	0	1679818752	6	4095
2026-01-22 01:46:51.96	71.61	45.37	-23.1	-24.3	19.4	1.48e-05	0	44	0	1697644544	6	4109
2026-01-22 01:46:54.98	73.09	45.80	-23.0	-23.9	19.6	0.00e+00	0	45	0	1714421760	6	4007
2026-01-22 01:46:58.00	74.62	46.21	-23.7	-25.0	18.8	0.00e+00	0	44	0	1731198976	7	4162
2026-01-22 01:47:01.01	76.18	46.60	-23.4	-23.7	19.2	0.00e+00	0	45	0	1747976192	8	3757
2026-01-22 01:47:04.01	77.77	46.97	-22.7	-23.3	19.9	0.00e+00	0	44	0	1764753408	6	3868
2026-01-22 01:47:07.02	79.40	47.32	-22.7	-23.4	19.8	0.00e+00	0	44	0	1782579200	6	3899
2026-01-22 01:47:10.03	81.07	47.64	-22.7	-23.4	19.9	0.00e+00	0	44	0	1799356416	6	3883
2026-01-22 01:47:13.04	82.77	47.95	-23.2	-24.5	19.3	0.00e+00	0	44	0	1816133632	6	4148
2026-01-22 01:47:16.05	84.51	48.22	-23.1	-24.2	19.4	0.00e+00	0	44	0	1832910848	6	4079
2026-01-22 01:47:19.05	86.26	48.47	-23.4	-24.9	19.1	0.00e+00	0	44	0	1849688064	6	4249
2026-01-22 01:47:22.07	88.06	48.70	-23.1	-24.2	19.4	0.00e+00	0	45	0	1866465280	6	4085
2026-01-22 01:47:25.08	89.88	48.89	-23.2	-24.3	19.4	0.00e+00	0	44	0	1883242496	6	4107
2026-01-22 01:47:28.09	91.71	49.05	-23.3	-24.5	19.3	0.00e+00	0	44	0	1900019712	6	4176
2026-01-22 01:47:31.10	93.57	49.19	-22.9	-23.7	19.7	0.00e+00	0	45	0	1917845504	6	3963
2026-01-22 01:47:34.11	95.44	49.29	-22.9	-23.8	19.7	0.00e+00	0	44	0	1934622720	6	3983
2026-01-22 01:47:37.12	97.32	49.36	-23.0	-24.0	19.6	0.00e+00	0	44	0	1951399936	6	4040
2026-01-22 01:47:40.14	99.21	49.40	-22.8	-23.7	19.7	0.00e+00	0	45	0	1968177152	6	3961
2026-01-22 01:47:43.14	101.09	49.40	-23.1	-24.1	19.5	0.00e+00	0	45	0	1984954368	6	4062
2026-01-22 01:47:46.14	102.98	49.37	-23.0	-24.0	19.5	0.00e+00	0	45	0	2001731584	6	4046
2026-01-22 01:47:49.15	104.86	49.31	-22.9	-23.9	19.6	0.00e+00	0	44	0	2018508800	6	4006
2026-01-22 01:47:52.16	106.73	49.22	-22.9	-23.8	19.7	0.00e+00	0	45	0	2035286016	6	3980
2026-01-22 01:47:55.18	108.60	49.09	-22.9	-23.9	19.7	0.00e+00	0	44	0	2053111808	6	4000
2026-01-22 01:47:58.18	110.44	48.94	-22.9	-23.8	19.7	0.00e+00	0	44	0	2069889024	6	3995
2026-01-22 01:48:01.19	112.26	48.75	-22.6	-23.2	19.9	0.00e+00	0	45	0	2086666240	6	3854
2026-01-22 01:48:04.20	114.06	48.54	-22.8	-23.6	19.8	0.00e+00	0	45	0	2103443456	6	3936
2026-01-22 01:48:07.21	115.83	48.30	-23.1	-24.2	19.5	0.00e+00	0	45	0	2120220672	6	4096
2026-01-22 01:48:10.22	117.58	48.03	-22.7	-23.4	19.9	0.00e+00	0	44	0	2138046464	6	3894
2026-01-22 01:48:13.23	119.30	47.73	-23.2	-24.3	19.5	0.00e+00	0	45	0	2154823680	6	4120
2026-01-22 01:48:16.24	120.98	47.41	-23.1	-24.2	19.5	0.00e+00	0	44	0	2171600896	6	4070
2026-01-22 01:48:19.25	122.62	47.07	-23.2	-24.4	19.3	0.00e+00	0	45	0	2188378112	6	4144
2026-01-22 01:48:22.25	124.23	46.70	-23.1	-23.6	19.5	0.00e+00	0	44	0	2205155328	7	3839
2026-01-22 01:48:25.26	125.80	46.32	-22.9	-23.7	19.7	0.00e+00	0	44	0	2221932544	6	3970
2026-01-22 01:48:28.27	127.33	45.91	-23.0	-23.9	19.6	0.00e+00	0	44	0	2238709760	6	4016
2026-01-22 01:48:31.29	128.83	45.49	-23.0	-24.0	19.6	0.00e+00	0	44	0	2255486976	6	4041
2026-01-22 01:48:34.29	130.28	45.05	-23.2	-24.3	19.4	0.00e+00	0	44	0	2273312768	6	4118
2026-01-22 01:48:37.30	131.70	44.60	-22.9	-23.7	19.7	0.00e+00	0	45	0	2290089984	6	3969
2026-01-22 01:48:40.31	133.07	44.14	-23.2	-24.5	19.3	0.00e+00	0	44	0	2306867200	6	4163
2026-01-22 01:48:43.32	134.41	43.66	-23.3	-24.6	19.2	0.00e+00	0	45	0	2323644416	6	4186
2026-01-22 01:48:46.33	135.70	43.17	-23.2	-24.4	19.3	0.00e+00	0	45	0	2340421632	6	4149
2026-01-22 01:48:49.35	136.97	42.67	-22.8	-23.7	19.6	0.00e+00	0	44	0	2357198848	6	3964
2026-01-22 01:48:52.35	138.18	42.17	-22.9	-23.8	19.6	0.00e+00	0	45	0	2373976064	6	3987
2026-01-22 01:48:55.37	139.37	41.66	-23.4	-24.3	19.0	0.00e+00	0	45	0	2391801856	7	4016
2026-01-22 01:48:58.39	140.52	41.14	-22.7	-23.5	19.7	0.00e+00	0	45	0	2408579072	6	3907
2026-01-22 01:49:01.40	141.63	40.62	-23.0	-24.1	19.4	0.00e+00	0	45	0	2425356288	6	4075
2026-01-22 01:49:04.41	142.70	40.09	-22.3	-22.6	20.2	0.00e+00	0	44	0	2442133504	6	3713
2026-01-22 01:49:07.42	143.75	39.56	-22.6	-23.2	19.9	0.00e+00	0	44	0	2458910720	6	3851
2026-01-22 01:49:10.42	144.75	39.03	-22.6	-23.1	19.9	0.00e+00	0	44	0	2475687936	6	3826
2026-01-22 01:49:13.43	145.73	38.50	-22.9	-23.8	19.6	0.00e+00	0	45	0	2493513728	6	3985
2026-01-22 01:49:16.45	146.68	37.97	-22.7	-23.4	19.7	0.00e+00	0	45	0	2510290944	6	3914
2026-01-22 01:49:19.47	147.60	37.44	-22.5	-23.0	19.9	0.00e+00	0	45	0	2527068160	6	3809
2026-01-22 01:49:22.47	148.48	36.91	-22.8	-24.1	19.6	0.00e+00	0	45	0	2543845376	5	4189
2026-01-22 01:49:25.48	149.34	36.38	-22.9	-24.3	19.5	0.00e+00	0	44	0	2560622592	5	4239
2026-01-22 01:49:28.49	150.17	35.85	-22.9	-24.4	19.5	0.00e+00	0	45	0	2577399808	5	4253
2026-01-22 01:49:31.49	150.97	35.32	-22.6	-23.2	19.8	0.00e+00	0	45	0	2594177024	6	3850
2026-01-22 01:49:34.50	151.76	34.80	-22.5	-23.5	16.8	0.00e+00	0	45	0	2610954240	5	4038
2026-01-22 01:49:37.51	152.51	34.28	-22.8	-24.0	19.6	0.00e+00	0	45	0	2628780032	5	4176
2026-01-22 01:49:40.51	153.24	33.77	-22.8	-24.2	19.5	0.00e+00	0	45	0	2645557248	5	4200
2026-01-22 01:49:43.51	153.95	33.25	-22.9	-24.3	19.5	1.97e-04	0	45	0	2662334464	5	4228
2026-01-22 01:49:46.52	154.64	32.74	-22.9	-24.3	19.4	0.00e+00	0	45	0	2679111680	5	4247
2026-01-22 01:49:49.54	155.31	32.24	-23.0	-23.9	19.4	0.00e+00	0	44	0	2695888896	6	4028
2026-01-22 01:49:52.55	155.96	31.74	-22.9	-23.9	19.4	3.18e-04	0	44	0	2712666112	6	4013
2026-01-22 01:49:55.56	156.59	31.24	-23.2	-24.5	19.1	2.49e-04	0	45	0	2729443328	6	4176
2026-01-22 01:49:58.56	157.20	30.75	-23.3	-24.2	19.0	0.00e+00	0	45	0	2747269120	7	3987
2026-01-22 01:50:01.57	157.80	30.27	-23.3	-24.2	18.9	3.15e-04	0	45	0	2764046336	7	4002
2026-01-22 01:50:04.58	158.37	29.78	-23.2	-24.0	19.1	3.25e-04	0	45	0	2780823552	7	3944
2026-01-22 01:50:07.59	158.93	29.31	-23.0	-24.1	19.3	3.34e-04	0	44	0	2797600768	6	4074
2026-01-22 01:50:10.60	159.48	28.84	-23.1	-24.2	19.2	5.31e-04	0	44	0	2814377984	6	4094
2026-01-22 01:50:13.61	160.01	28.37	-23.1	-24.3	19.2	6.56e-04	0	44	0	2831155200	6	4129
2026-01-22 01:50:16.61	160.52	27.91	-23.2	-24.4	19.1	5.69e-04	0	44	0	2847932416	6	4147
2026-01-22 01:50:19.64	161.02	27.45	-23.1	-24.2	19.2	0.00e+00	0	44	0	2865758208	6	4083
2026-01-22 01:50:22.65	161.51	27.00	-23.0	-24.0	19.3	5.27e-04	0	45	0	2882535424	6	4056
2026-01-22 01:50:25.66	161.98	26.56	-23.0	-24.1	19.2	6.84e-04	0	44	0	2899312640	6	4085
2026-01-22 01:50:28.66	162.44	26.12	-23.2	-24.4	19.1	0.00e+00	0	44	0	2916089856	6	4161
2026-01-22 01:50:31.67	162.89	25.69	-23.1	-24.2	19.2	0.00e+00	0	44	0	2932867072	6	4084
2026-01-22 01:50:34.68	163.33	25.26	-23.4	-24.9	18.8	2.96e-04	0	44	0	2949644288	6	4274
2026-01-22 01:50:37.69	163.75	24.83	-23.7	-24.9	18.5	0.00e+00	0	44	0	2967470080	7	4160
2026-01-22 01:50:40.69	164.17	24.41	-23.8	-25.2	18.4	0.00e+00	0	45	0	2984247296	7	4239
2026-01-22 01:50:43.70	164.57	24.00	-23.9	-24.9	18.3	0.00e+00	0	44	0	3001024512	8	4059
2026-01-22 01:50:46.69	164.96	23.60	-23.7	-25.0	18.5	0.00e+00	0	44	0	3017801728	7	4190
2026-01-22 01:50:49.70	165.35	23.19	-23.8	-25.2	18.4	0.00e+00	0	44	0	3034578944	7	4225
2026-01-22 01:50:52.72	165.72	22.79	-23.7	-24.9	18.5	0.00e+00	0	44	0	3051356160	7	4166
2026-01-22 01:50:55.74	166.09	22.40	-24.1	-25.5	18.0	0.00e+00	0	45	0	3068133376	8	4201
2026-01-22 01:50:58.75	166.45	22.01	-24.2	-25.6	17.9	0.00e+00	0	45	0	3084910592	8	4241
2026-01-22 01:51:01.75	166.79	21.63	-24.3	-25.8	17.8	0.00e+00	0	45	0	3102736384	8	4285
2026-01-22 01:51:04.77	167.13	21.25	-24.0	-25.3	18.1	0.00e+00	0	44	0	3119513600	8	4140
2026-01-22 01:51:07.77	167.47	20.87	-24.0	-25.1	18.2	0.00e+00	0	44	0	3136290816	8	4084
2026-01-22 01:51:10.78	167.79	20.50	-24.2	-25.5	18.0	0.00e+00	0	44	0	3153068032	8	4195
2026-01-22 01:51:13.79	168.11	20.14	-24.1	-25.4	18.0	0.00e+00	0	44	0	3169845248	8	4172
2026-01-22 01:51:16.80	168.42	19.78	-24.4	-25.9	17.8	0.00e+00	0	45	0	3186622464	8	4306
2026-01-22 01:51:19.80	168.72	19.42	-24.3	-25.8	17.8	0.00e+00	0	45	0	3203399680	8	4286
2026-01-22 01:51:22.82	169.02	19.07	-24.5	-25.8	17.5	0.00e+00	0	44	0	3221225472	9	4156
2026-01-22 01:51:25.84	169.31	18.72	-24.5	-25.7	17.6	0.00e+00	0	45	0	3238002688	9	4140
2026-01-22 01:51:28.85	169.59	18.38	-24.4	-26.1	17.6	0.00e+00	0	44	0	3254779904	8	4344
2026-01-22 01:51:31.86	169.87	18.04	-24.7	-26.2	17.3	0.00e+00	0	44	0	3271557120	9	4265
2026-01-22 01:51:34.86	170.14	17.70	-24.8	-26.3	17.2	0.00e+00	0	44	0	3288334336	9	4283
2026-01-22 01:51:37.87	170.41	17.37	-24.9	-26.6	17.0	0.00e+00	0	44	0	3305111552	9	4370
2026-01-22 01:51:40.87	170.67	17.04	-25.1	-26.4	16.9	0.00e+00	0	44	0	3322937344	10	4214
2026-01-22 01:51:43.88	170.92	16.72	-25.0	-26.3	16.9	0.00e+00	0	44	0	3339714560	10	4184
2026-01-22 01:51:46.89	171.17	16.40	-25.0	-26.2	16.9	0.00e+00	0	45	0	3356491776	10	4165
2026-01-22 01:51:49.90	171.42	16.08	-25.1	-26.6	16.7	0.00e+00	0	44	0	3373268992	10	4265
2026-01-22 01:51:52.91	171.66	15.77	-25.3	-27.1	16.5	0.00e+00	0	44	0	3390046208	10	4393
2026-01-22 01:51:55.92	171.90	15.46	-25.5	-27.0	16.3	0.00e+00	0	45	0	3406823424	11	4256
2026-01-22 01:51:58.93	172.13	15.15	-25.6	-27.2	16.1	0.00e+00	0	45	0	3423600640	11	4320
2026-01-22 01:52:01.95	172.35	14.85	-25.8	-27.6	15.1	0.00e+00	0	45	0	3440377856	11	4435
2026-01-22 01:52:04.96	172.58	14.55	-25.7	-27.4	15.6	0.00e+00	0	44	0	3458203648	11	4368
2026-01-22 01:52:07.97	172.79	14.26	-25.7	-27.4	16.0	5.32e-04	0	44	0	3474980864	11	4370
2026-01-22 01:52:10.97	173.01	13.96	-25.8	-27.5	15.9	0.00e+00	0	45	0	3491758080	11	4400
2026-01-22 01:52:13.97	173.22	13.68	-25.8	-27.5	15.9	0.00e+00	0	45	0	3508535296	11	4392
2026-01-22 01:52:16.99	173.42	13.39	-25.8	-27.5	15.9	2.54e-04	0	44	0	3525312512	11	4402
2026-01-22 01:52:20.01	173.63	13.10	-25.8	-27.6	15.9	2.89e-04	0	45	0	3542089728	11	4404
2026-01-22 01:52:23.03	173.83	12.82	-25.9	-27.7	15.8	0.00e+00	0	44	0	3559915520	11	4458
2026-01-22 01:52:26.03	174.02	12.55	-26.2	-28.0	15.2	3.43e-04	0	44	0	3576692736	12	4431
2026-01-22 01:52:29.04	174.21	12.27	-26.0	-27.5	15.5	3.49e-04	0	45	0	3593469952	12	4281
2026-01-22 01:52:32.05	174.40	12.00	-26.3	-28.2	15.1	1.14e-05	0	44	0	3610247168	12	4469
2026-01-22 01:52:35.07	174.59	11.73	-26.3	-27.7	15.1	3.18e-04	0	45	0	3627024384	13	4232
2026-01-22 01:52:38.08	174.77	11.46	-26.2	-28.0	15.2	3.51e-04	0	44	0	3643801600	12	4409
2026-01-22 01:52:41.09	174.95	11.20	-26.2	-27.9	15.2	3.41e-04	0	45	0	3660578816	12	4401
2026-01-22 01:52:44.09	175.13	10.94	-26.3	-28.2	15.0	3.17e-04	0	45	0	3678404608	12	4469
2026-01-22 01:52:47.10	175.30	10.68	-26.2	-28.0	15.1	3.42e-04	0	45	0	3695181824	12	4434
2026-01-22 01:52:50.11	175.47	10.42	-26.5	-28.5	14.8	2.94e-04	0	45	0	3711959040	12	4577
2026-01-22 01:52:53.12	175.64	10.17	-26.6	-28.4	14.6	0.00e+00	0	45	0	3728736256	13	4413
2026-01-22 01:52:56.12	175.80	9.92	-26.7	-28.5	14.5	3.10e-04	0	44	0	3745513472	13	4461
2026-01-22 01:52:59.13	175.96	9.67	-26.7	-28.6	14.4	3.32e-04	0	45	0	3762290688	13	4487
2026-01-22 01:53:02.14	176.12	9.42	-26.5	-28.2	14.7	0.00e+00	0	44	0	3779067904	13	4359
2026-01-22 01:53:05.15	176.28	9.18	-26.5	-28.2	14.6	0.00e+00	0	44	0	3795845120	13	4377
2026-01-22 01:53:08.17	176.44	8.94	-26.1	-27.7	14.5	3.60e-04	0	45	0	3813670912	13	4317
2026-01-22 01:53:11.17	176.59	8.70	-26.6	-28.4	14.2	0.00e+00	0	45	0	3830448128	13	4417
2026-01-22 01:53:14.18	176.74	8.46	-26.7	-28.6	14.4	1.10e-06	0	45	0	3847225344	13	4485
2026-01-22 01:53:17.19	176.89	8.22	-26.7	-28.7	14.2	4.19e-04	0	45	0	3864002560	13	4530
2026-01-22 01:53:20.20	177.03	7.99	-27.0	-29.3	14.0	9.09e-04	0	45	0	3880779776	13	4687
2026-01-22 01:53:23.22	177.18	7.76	-27.2	-29.2	13.6	9.42e-04	0	45	0	3898605568	14	4563
2026-01-22 01:53:26.23	177.32	7.53	-27.1	-29.2	13.7	2.20e-06	0	44	0	3915382784	14	4552
2026-01-22 01:53:29.25	177.46	7.30	-27.2	-29.3	13.6	8.58e-04	0	44	0	3932160000	14	4586
2026-01-22 01:53:32.26	177.59	7.07	-29.4	-32.7	10.8	8.08e-04	0	44	0	3948937216	18	5256

#Closed at: 2026-01-22 01:53:34
#Recorded file [3948 MB]: D:/data/31010_260122_044150.dat