passes_logs/2026/01/22/R2M6_AANII_01/R2M6_AANII_01__20260122_235523_NOAA_21_JPSS-2_rec.log

#Pass ID: 20260122_235523_NOAA 21 (JPSS-2)
#Satellite: NOAA 21 (JPSS-2)
#Configuration: NOAA 21
#almurnet v.1.7.20240730
#Start time: 2026-01-22 23:55:23

#Version: 2.2.20231116
#Station: R2M6_AANII_01
#Location: 30.233357 lon 59.946436 lat
#TLE: 1 54234U 22150A   26022.41365820  .00000211  00000+0  12084-3 0  9990
#TLE: 2 54234  98.7507 323.2240 0000658 234.5287 125.5828 14.19537645165864

#Time	Az	El	Level	Level2	SNR	BER	BlckErr	Temp	State	Recorded	gain1	gain2
2026-01-22 23:55:23.15	20.42	6.96	-29.8	-33.8	4.8	1.38e+00	0	41	0	0	20	5710
2026-01-22 23:55:26.16	20.50	7.19	-30.0	-33.6	9.5	1.31e-02	0	41	0	3145728	20	5435
2026-01-22 23:55:29.17	20.58	7.42	-30.2	-34.2	9.1	1.87e-02	0	42	0	12582912	20	5712
2026-01-22 23:55:32.18	20.66	7.66	-29.6	-32.7	10.7	3.68e-03	0	42	0	22020096	19	5167
2026-01-22 23:55:35.20	20.75	7.89	-29.8	-33.4	10.2	5.24e-03	0	42	0	30408704	19	5436
2026-01-22 23:55:38.22	20.83	8.13	-29.1	-32.0	11.5	1.04e-03	0	42	0	40894464	18	5017
2026-01-22 23:55:41.22	20.92	8.37	-29.3	-31.9	11.3	1.46e-03	0	42	0	49283072	19	4864
2026-01-22 23:55:44.25	21.01	8.61	-29.1	-31.9	11.6	6.38e-04	0	42	0	58720256	18	4989
2026-01-22 23:55:47.25	21.10	8.85	-29.4	-32.7	11.1	1.16e-03	0	42	0	69206016	18	5259
2026-01-22 23:55:50.26	21.19	9.10	-28.5	-31.0	12.5	1.26e-04	0	42	0	77594624	17	4752
2026-01-22 23:55:53.27	21.28	9.35	-28.3	-30.7	13.0	4.42e-05	0	42	0	87031808	16	4789
2026-01-22 23:55:56.29	21.38	9.60	-28.0	-30.2	13.4	1.60e-05	0	42	0	96468992	16	4599
2026-01-22 23:55:59.30	21.47	9.85	-27.8	-30.2	13.5	1.90e-05	0	42	0	105906176	15	4726
2026-01-22 23:56:02.32	21.57	10.11	-27.8	-30.2	13.6	9.10e-06	0	42	0	115343360	15	4719
2026-01-22 23:56:05.33	21.66	10.37	-27.8	-30.0	13.7	6.48e-05	0	43	0	124780544	15	4676
2026-01-22 23:56:08.34	21.76	10.63	-27.7	-29.8	13.8	1.50e-06	0	43	0	134217728	15	4607
2026-01-22 23:56:11.35	21.86	10.89	-27.8	-30.1	13.7	7.60e-06	0	43	0	143654912	15	4687
2026-01-22 23:56:14.37	21.97	11.16	-27.7	-29.8	13.9	1.50e-06	0	43	0	153092096	15	4591
2026-01-22 23:56:17.38	22.07	11.43	-27.8	-30.2	13.7	9.90e-06	0	43	0	162529280	15	4711
2026-01-22 23:56:20.39	22.18	11.70	-27.5	-29.4	14.1	1.50e-06	0	43	0	171966464	15	4488
2026-01-22 23:56:23.39	22.28	11.97	-27.4	-29.2	14.3	0.00e+00	0	43	0	181403648	15	4405
2026-01-22 23:56:26.39	22.39	12.25	-27.4	-29.6	14.3	0.00e+00	0	43	0	190840832	14	4658
2026-01-22 23:56:29.40	22.50	12.53	-27.2	-29.3	14.6	0.00e+00	0	43	0	200278016	14	4542
2026-01-22 23:56:32.42	22.62	12.82	-27.2	-29.2	14.6	2.20e-06	0	43	0	209715200	14	4529
2026-01-22 23:56:35.42	22.73	13.11	-27.2	-29.2	14.6	0.00e+00	0	43	0	219152384	14	4517
2026-01-22 23:56:38.43	22.85	13.40	-27.4	-29.7	14.3	0.00e+00	0	43	0	228589568	14	4669
2026-01-22 23:56:41.44	22.97	13.69	-27.2	-29.1	14.7	7.00e-07	0	43	0	238026752	14	4497
2026-01-22 23:56:44.46	23.09	13.99	-27.1	-29.0	14.8	0.00e+00	0	43	0	247463936	14	4447
2026-01-22 23:56:47.47	23.21	14.29	-26.9	-28.5	15.1	0.00e+00	0	43	0	256901120	14	4329
2026-01-22 23:56:50.48	23.34	14.60	-27.0	-29.1	15.0	0.00e+00	0	43	0	266338304	13	4602
2026-01-22 23:56:53.49	23.47	14.91	-27.0	-28.7	15.0	0.00e+00	0	43	0	275775488	14	4370
2026-01-22 23:56:56.50	23.60	15.22	-27.1	-28.8	14.9	0.00e+00	0	43	0	285212672	14	4407
2026-01-22 23:56:59.50	23.73	15.54	-27.1	-29.0	14.9	0.00e+00	0	43	0	294649856	14	4452
2026-01-22 23:57:02.52	23.87	15.86	-27.1	-28.8	15.0	7.00e-07	0	43	0	304087040	14	4410
2026-01-22 23:57:05.53	24.00	16.19	-27.2	-29.1	14.8	0.00e+00	0	43	0	313524224	14	4493
2026-01-22 23:57:08.54	24.14	16.52	-27.0	-28.7	15.1	0.00e+00	0	43	0	322961408	14	4382
2026-01-22 23:57:11.55	24.29	16.85	-27.1	-28.9	15.0	3.08e-03	0	43	0	332398592	14	4412
2026-01-22 23:57:14.57	24.44	17.19	-27.3	-29.3	14.8	7.00e-07	0	43	0	341835776	14	4543
2026-01-22 23:57:17.59	24.59	17.54	-27.6	-29.6	14.3	2.03e-03	0	43	0	351272960	15	4524
2026-01-22 23:57:20.60	24.74	17.89	-27.4	-29.7	14.6	1.60e-03	0	43	0	360710144	14	4652
2026-01-22 23:57:23.61	24.90	18.24	-27.4	-29.6	14.6	5.80e-04	0	43	0	370147328	14	4621
2026-01-22 23:57:26.63	25.06	18.60	-27.7	-29.7	14.3	3.86e-04	0	43	0	379584512	15	4537
2026-01-22 23:57:29.65	25.22	18.96	-27.4	-29.1	14.7	3.75e-04	0	43	0	389021696	15	4363
2026-01-22 23:57:32.65	25.39	19.33	-27.4	-29.0	14.7	4.08e-04	0	43	0	397410304	15	4329
2026-01-22 23:57:35.65	25.56	19.70	-27.4	-29.1	14.7	0.00e+00	0	44	0	407896064	15	4376
2026-01-22 23:57:38.66	25.73	20.08	-27.2	-29.2	14.9	1.28e-03	0	44	0	417333248	14	4500
2026-01-22 23:57:41.67	25.91	20.47	-26.7	-28.5	15.6	0.00e+00	0	44	0	425721856	13	4430
2026-01-22 23:57:44.67	26.09	20.86	-26.5	-27.9	15.9	0.00e+00	0	43	0	435159040	13	4252
2026-01-22 23:57:47.69	26.28	21.25	-26.3	-28.0	16.2	0.00e+00	0	44	0	444596224	12	4376
2026-01-22 23:57:50.70	26.47	21.66	-26.1	-27.6	16.3	0.00e+00	0	44	0	454033408	12	4279
2026-01-22 23:57:53.71	26.67	22.07	-26.0	-27.4	16.5	0.00e+00	0	43	0	463470592	12	4216
2026-01-22 23:57:56.72	26.87	22.48	-26.0	-27.8	16.6	0.00e+00	0	44	0	472907776	11	4438
2026-01-22 23:57:59.73	27.08	22.90	-26.0	-27.3	16.6	0.00e+00	0	44	0	482344960	12	4193
2026-01-22 23:58:02.73	27.29	23.33	-26.0	-27.4	16.5	0.00e+00	0	44	0	491782144	12	4233
2026-01-22 23:58:05.75	27.51	23.77	-26.2	-27.7	16.3	0.00e+00	0	44	0	501219328	12	4315
2026-01-22 23:58:08.76	27.73	24.21	-26.4	-28.3	16.1	0.00e+00	0	44	0	510656512	12	4469
2026-01-22 23:58:11.77	27.96	24.66	-26.8	-28.5	15.7	0.00e+00	0	44	0	520093696	13	4415
2026-01-22 23:58:14.78	28.19	25.12	-26.5	-28.1	16.0	0.00e+00	0	44	0	529530880	13	4286
2026-01-22 23:58:17.79	28.44	25.58	-26.9	-28.8	15.6	0.00e+00	0	44	0	538968064	13	4484
2026-01-22 23:58:20.81	28.69	26.05	-26.9	-28.4	15.5	0.00e+00	0	44	0	548405248	14	4281
2026-01-22 23:58:23.81	28.94	26.53	-26.8	-28.2	15.7	0.00e+00	0	44	0	557842432	14	4212
2026-01-22 23:58:26.83	29.21	27.02	-27.0	-28.6	15.5	0.00e+00	0	44	0	567279616	14	4330
2026-01-22 23:58:29.83	29.48	27.52	-27.1	-28.7	15.4	0.00e+00	0	44	0	576716800	14	4360
2026-01-22 23:58:32.84	29.76	28.02	-27.1	-28.7	15.5	0.00e+00	0	44	0	586153984	14	4343
2026-01-22 23:58:35.86	30.05	28.54	-27.2	-29.0	15.3	0.00e+00	0	44	0	595591168	14	4428
2026-01-22 23:58:38.84	30.34	29.06	-27.2	-29.1	15.2	0.00e+00	0	44	0	605028352	14	4463
2026-01-22 23:58:41.85	30.65	29.59	-27.2	-29.0	15.3	0.00e+00	0	44	0	614465536	14	4433
2026-01-22 23:58:44.86	30.97	30.13	-27.2	-29.0	15.3	0.00e+00	0	44	0	623902720	14	4418
2026-01-22 23:58:47.87	31.30	30.68	-27.2	-29.0	15.4	0.00e+00	0	44	0	633339904	14	4423
2026-01-22 23:58:50.87	31.63	31.24	-26.7	-28.0	15.9	0.00e+00	0	44	0	642777088	14	4146
2026-01-22 23:58:53.87	31.98	31.81	-26.7	-27.8	16.0	0.00e+00	0	44	0	652214272	14	4103
2026-01-22 23:58:56.89	32.35	32.39	-27.0	-28.4	15.7	4.50e-06	0	44	0	661651456	14	4261
2026-01-22 23:58:59.91	32.72	32.98	-27.3	-29.2	15.3	1.50e-06	0	44	0	671088640	14	4491
2026-01-22 23:59:02.93	33.11	33.59	-27.2	-29.1	15.3	0.00e+00	0	43	0	680525824	14	4448
2026-01-22 23:59:05.92	33.51	34.20	-27.4	-29.4	15.2	0.00e+00	0	44	0	689963008	14	4540
2026-01-22 23:59:08.93	33.93	34.82	-27.8	-29.9	14.6	1.50e-06	0	43	0	698351616	15	4579
2026-01-22 23:59:11.95	34.37	35.46	-28.5	-30.9	13.9	2.20e-06	0	44	0	707788800	16	4744
2026-01-22 23:59:14.96	34.82	36.10	-28.8	-31.2	13.5	9.10e-06	0	44	0	718274560	17	4744
2026-01-22 23:59:17.97	35.29	36.76	-28.8	-30.8	13.5	1.83e-05	0	44	0	726663168	18	4493
2026-01-22 23:59:20.99	35.78	37.43	-29.0	-31.1	13.3	1.52e-05	0	44	0	736100352	18	4596
2026-01-22 23:59:24.01	36.29	38.11	-29.4	-32.0	12.7	5.18e-05	0	44	0	745537536	18	4906
2026-01-22 23:59:27.01	36.82	38.80	-29.2	-31.6	13.1	3.89e-05	0	44	0	754974720	18	4738
2026-01-22 23:59:30.02	37.37	39.50	-28.9	-31.0	13.4	1.22e-05	0	44	0	764411904	18	4547
2026-01-22 23:59:33.03	37.94	40.21	-28.9	-30.9	13.5	9.90e-06	0	44	0	773849088	18	4511
2026-01-22 23:59:36.03	38.54	40.93	-28.7	-30.4	13.8	2.20e-06	0	44	0	783286272	18	4382
2026-01-22 23:59:39.04	39.17	41.67	-28.4	-29.7	14.2	2.20e-06	0	44	0	792723456	18	4173
2026-01-22 23:59:42.03	39.83	42.41	-28.9	-31.0	13.5	1.44e-05	0	44	0	802160640	18	4534
2026-01-22 23:59:45.04	40.51	43.17	-29.1	-31.4	13.2	2.36e-05	0	44	0	811597824	18	4672
2026-01-22 23:59:48.05	41.24	43.94	-29.1	-31.4	13.2	2.97e-05	0	44	0	821035008	18	4668
2026-01-22 23:59:51.05	41.99	44.72	-29.4	-32.0	12.9	3.43e-05	0	44	0	830472192	18	4872
2026-01-22 23:59:54.07	42.79	45.51	-29.5	-31.8	12.7	1.02e-04	0	44	0	839909376	19	4715
2026-01-22 23:59:57.08	43.62	46.31	-29.4	-31.7	12.7	1.30e-04	0	44	0	849346560	19	4667
2026-01-23 00:00:00.09	44.50	47.12	-29.8	-32.5	12.3	1.60e-04	0	44	0	858783744	19	4952
2026-01-23 00:00:03.10	45.42	47.93	-29.8	-32.6	12.2	2.81e-04	0	44	0	868220928	19	4990
2026-01-23 00:00:06.11	46.40	48.76	-29.5	-31.9	12.7	8.23e-05	0	44	0	877658112	19	4724
2026-01-23 00:00:09.12	47.42	49.59	-29.6	-32.1	12.6	1.54e-04	0	44	0	887095296	19	4783
2026-01-23 00:00:12.12	48.50	50.42	-28.6	-30.2	14.0	7.00e-07	0	44	0	896532480	18	4304
2026-01-23 00:00:15.11	49.64	51.25	-28.4	-29.7	14.3	0.00e+00	0	44	0	905969664	18	4159
2026-01-23 00:00:18.13	50.85	52.10	-28.1	-29.5	14.7	7.00e-07	0	44	0	915406848	17	4232
2026-01-23 00:00:21.14	52.13	52.94	-28.0	-29.6	15.0	0.00e+00	0	44	0	924844032	16	4363
2026-01-23 00:00:24.15	53.49	53.79	-27.6	-29.3	15.2	0.00e+00	0	44	0	934281216	15	4391
2026-01-23 00:00:27.16	54.92	54.63	-27.4	-28.9	15.5	0.00e+00	0	44	0	943718400	15	4276
2026-01-23 00:00:30.18	56.45	55.47	-26.9	-27.6	16.2	0.00e+00	0	44	0	953155584	15	3936
2026-01-23 00:00:33.18	58.06	56.29	-26.2	-27.3	16.9	0.00e+00	0	44	0	962592768	13	4053
2026-01-23 00:00:36.18	59.77	57.10	-26.5	-27.8	16.6	0.00e+00	0	44	0	972029952	13	4190
2026-01-23 00:00:39.19	61.58	57.91	-26.9	-28.8	16.1	0.00e+00	0	44	0	980418560	13	4473
2026-01-23 00:00:42.19	63.50	58.69	-26.8	-28.6	16.2	0.00e+00	0	44	0	989855744	13	4407
2026-01-23 00:00:45.20	65.54	59.46	-26.1	-26.9	17.1	0.00e+00	0	44	0	999292928	13	3961
2026-01-23 00:00:48.22	67.71	60.20	-26.1	-27.1	17.1	0.00e+00	0	44	0	1008730112	13	3998
2026-01-23 00:00:51.22	69.99	60.91	-26.7	-28.4	16.4	0.00e+00	0	44	0	1018167296	13	4353
2026-01-23 00:00:54.24	72.41	61.58	-25.6	-26.4	17.7	0.00e+00	0	44	0	1027604480	12	3944
2026-01-23 00:00:57.25	74.96	62.22	-25.7	-27.0	17.7	0.00e+00	0	44	0	1037041664	11	4195
2026-01-23 00:01:00.27	77.65	62.81	-25.9	-26.9	17.4	0.00e+00	0	44	0	1046478848	12	4070
2026-01-23 00:01:03.26	80.44	63.35	-26.3	-27.8	17.0	0.00e+00	0	44	0	1055916032	12	4303
2026-01-23 00:01:06.27	83.37	63.84	-25.5	-26.2	17.8	0.00e+00	0	44	0	1065353216	12	3899
2026-01-23 00:01:09.29	86.43	64.27	-25.8	-26.8	17.5	0.00e+00	0	44	0	1074790400	12	4030
2026-01-23 00:01:12.30	89.58	64.63	-25.9	-27.0	17.3	0.00e+00	0	44	0	1084227584	12	4103
2026-01-23 00:01:15.32	92.84	64.92	-25.9	-27.5	17.5	0.00e+00	0	44	0	1093664768	11	4318
2026-01-23 00:01:18.33	96.17	65.14	-26.0	-27.2	17.3	0.00e+00	0	44	0	1103101952	12	4138
2026-01-23 00:01:21.35	99.55	65.29	-25.8	-27.2	17.7	0.00e+00	0	44	0	1112539136	11	4251
2026-01-23 00:01:24.34	102.94	65.35	-25.8	-26.7	17.5	0.00e+00	0	44	0	1121976320	12	4020
2026-01-23 00:01:27.36	106.37	65.34	-26.2	-27.7	17.1	0.00e+00	0	44	0	1131413504	12	4271
2026-01-23 00:01:30.36	109.77	65.25	-26.7	-28.2	16.6	0.00e+00	0	44	0	1140850688	13	4309
2026-01-23 00:01:33.38	113.14	65.09	-26.1	-27.4	17.3	0.00e+00	0	44	0	1150287872	12	4183
2026-01-23 00:01:36.39	116.45	64.85	-26.5	-27.9	16.8	0.00e+00	0	44	0	1159725056	13	4213
2026-01-23 00:01:39.39	119.66	64.54	-26.7	-28.3	16.5	0.00e+00	0	44	0	1169162240	13	4312
2026-01-23 00:01:42.39	122.78	64.16	-27.2	-28.9	16.0	7.00e-07	0	44	0	1178599424	14	4366
2026-01-23 00:01:45.41	125.82	63.71	-26.1	-26.9	17.2	0.00e+00	0	44	0	1188036608	13	3952
2026-01-23 00:01:48.41	128.71	63.21	-26.8	-28.1	16.4	0.00e+00	0	44	0	1197473792	14	4143
2026-01-23 00:01:51.42	131.48	62.65	-26.0	-27.3	17.3	0.00e+00	0	44	0	1206910976	12	4168
2026-01-23 00:01:54.41	134.11	62.05	-26.8	-28.5	16.4	0.00e+00	0	44	0	1216348160	13	4371
2026-01-23 00:01:57.43	136.64	61.40	-25.4	-25.9	18.1	0.00e+00	0	44	0	1225785344	12	3821
2026-01-23 00:02:00.43	139.02	60.72	-27.8	-29.9	15.1	0.00e+00	0	44	0	1235222528	15	4548
2026-01-23 00:02:03.44	141.27	60.00	-26.2	-27.2	17.1	0.00e+00	0	44	0	1244659712	13	4038
2026-01-23 00:02:06.46	143.41	59.24	-27.6	-29.3	14.8	0.00e+00	0	44	0	1254096896	15	4366
2026-01-23 00:02:09.48	145.43	58.47	-26.5	-27.3	16.6	0.00e+00	0	44	0	1263534080	14	3959
2026-01-23 00:02:12.48	147.32	57.68	-26.7	-28.3	16.5	0.00e+00	0	44	0	1272971264	13	4325
2026-01-23 00:02:15.49	149.11	56.87	-27.8	-29.8	15.1	0.00e+00	0	44	0	1281359872	15	4548
2026-01-23 00:02:18.51	150.81	56.04	-26.5	-27.4	16.7	1.69e-04	0	44	0	1291845632	14	3970
2026-01-23 00:02:21.52	152.40	55.21	-28.7	-30.8	13.9	1.50e-06	0	44	0	1300234240	17	4590
2026-01-23 00:02:24.52	153.89	54.37	-28.7	-30.7	14.1	4.90e-04	0	44	0	1309671424	17	4567
2026-01-23 00:02:27.53	155.31	53.53	-27.5	-28.4	15.8	0.00e+00	0	44	0	1319108608	16	4029
2026-01-23 00:02:30.54	156.64	52.68	-28.5	-30.2	14.5	1.07e-04	0	44	0	1328545792	17	4422
2026-01-23 00:02:33.55	157.91	51.83	-28.4	-30.1	14.2	1.61e-04	0	44	0	1337982976	17	4401
2026-01-23 00:02:36.57	159.10	50.98	-28.7	-30.7	14.1	7.40e-05	0	44	0	1347420160	17	4576
2026-01-23 00:02:39.58	160.23	50.14	-29.6	-32.0	12.8	2.78e-04	0	44	0	1356857344	19	4757
2026-01-23 00:02:42.59	161.30	49.30	-29.4	-31.5	13.1	5.56e-05	0	44	0	1366294528	19	4580
2026-01-23 00:02:45.60	162.31	48.47	-29.0	-30.9	13.7	3.46e-04	0	44	0	1375731712	18	4512
2026-01-23 00:02:48.61	163.27	47.65	-30.3	-33.5	11.4	8.86e-04	0	44	0	1385168896	20	5188
2026-01-23 00:02:51.62	164.18	46.83	-29.8	-32.6	12.3	8.50e-04	0	44	0	1394606080	19	4970
2026-01-23 00:02:54.65	165.06	46.01	-29.6	-32.0	12.6	8.69e-05	0	44	0	1404043264	19	4769
2026-01-23 00:02:57.67	165.88	45.21	-29.8	-32.5	12.4	1.03e-04	0	44	0	1413480448	19	4918
2026-01-23 00:03:00.67	166.66	44.42	-29.9	-32.4	12.0	2.94e-04	0	44	0	1422917632	20	4800
2026-01-23 00:03:03.68	167.41	43.64	-29.9	-32.5	12.0	5.08e-04	0	44	0	1432354816	20	4824
2026-01-23 00:03:06.69	168.12	42.87	-29.0	-30.6	13.6	1.14e-05	0	44	0	1441792000	19	4325
2026-01-23 00:03:09.71	168.80	42.11	-29.3	-31.3	13.1	4.42e-05	0	44	0	1451229184	19	4530
2026-01-23 00:03:12.72	169.45	41.36	-29.3	-31.3	13.2	2.28e-05	0	44	0	1460666368	19	4518
2026-01-23 00:03:15.73	170.07	40.63	-29.5	-31.8	12.8	4.65e-05	0	44	0	1470103552	19	4689
2026-01-23 00:03:18.75	170.67	39.90	-29.8	-32.7	12.3	1.33e-04	0	44	0	1479540736	19	4981
2026-01-23 00:03:21.75	171.23	39.19	-29.9	-32.3	12.1	2.60e-04	0	44	0	1488977920	20	4743
2026-01-23 00:03:24.76	171.78	38.49	-30.0	-32.7	11.8	5.21e-04	0	44	0	1498415104	20	4895
2026-01-23 00:03:27.77	172.30	37.80	-29.0	-30.6	13.4	2.36e-05	0	44	0	1507852288	19	4326
2026-01-23 00:03:30.78	172.80	37.12	-28.1	-29.5	14.7	0.00e+00	0	44	0	1517289472	17	4217
2026-01-23 00:03:33.79	173.28	36.45	-27.8	-29.2	15.1	0.00e+00	0	44	0	1526726656	16	4246
2026-01-23 00:03:36.81	173.75	35.80	-27.8	-29.2	15.1	0.00e+00	0	44	0	1536163840	16	4245
2026-01-23 00:03:39.82	174.19	35.15	-27.8	-29.3	15.0	0.00e+00	0	44	0	1545601024	16	4279
2026-01-23 00:03:42.84	174.62	34.52	-28.2	-30.2	14.5	1.50e-06	0	44	0	1555038208	16	4530
2026-01-23 00:03:45.84	175.04	33.90	-29.1	-31.5	13.2	2.44e-05	0	44	0	1564475392	18	4704
2026-01-23 00:03:48.85	175.43	33.28	-28.8	-30.6	13.7	6.80e-06	0	44	0	1573912576	18	4440
2026-01-23 00:03:51.84	175.82	32.69	-28.2	-29.6	14.5	3.00e-06	0	44	0	1583349760	17	4256
2026-01-23 00:03:54.84	176.19	32.10	-27.8	-29.2	15.1	0.00e+00	0	44	0	1592786944	16	4229
2026-01-23 00:03:57.85	176.54	31.52	-27.9	-29.5	14.9	0.00e+00	0	44	0	1601175552	16	4318
2026-01-23 00:04:00.86	176.89	30.95	-27.0	-27.9	15.8	0.00e+00	0	44	0	1611661312	15	4010
2026-01-23 00:04:03.87	177.22	30.39	-27.0	-28.5	15.8	7.62e-05	0	44	0	1621098496	14	4291
2026-01-23 00:04:06.87	177.55	29.84	-27.4	-29.4	15.3	0.00e+00	0	44	0	1629487104	14	4544
2026-01-23 00:04:09.88	177.86	29.30	-27.7	-29.7	14.8	8.62e-04	0	44	0	1638924288	15	4523
2026-01-23 00:04:12.89	178.16	28.77	-27.5	-29.2	15.1	1.99e-03	0	44	0	1648361472	15	4371
2026-01-23 00:04:15.91	178.46	28.24	-27.4	-29.5	15.2	2.84e-03	0	44	0	1657798656	14	4563
2026-01-23 00:04:18.92	178.74	27.73	-27.3	-29.1	15.4	3.01e-03	0	44	0	1667235840	14	4465
2026-01-23 00:04:21.93	179.02	27.22	-27.2	-29.0	15.5	3.43e-03	0	44	0	1676673024	14	4409
2026-01-23 00:04:24.95	179.29	26.72	-26.7	-28.4	16.0	3.36e-03	0	44	0	1686110208	13	4378
2026-01-23 00:04:27.96	179.55	26.24	-26.3	-27.4	16.5	1.22e-05	0	44	0	1695547392	13	4107
2026-01-23 00:04:30.97	179.80	25.76	-26.2	-27.7	16.7	2.75e-03	0	44	0	1704984576	12	4286
2026-01-23 00:04:33.97	180.05	25.29	-26.4	-28.1	16.4	1.44e-05	0	44	0	1714421760	12	4400
2026-01-23 00:04:36.98	180.29	24.82	-26.5	-27.8	16.3	9.90e-06	0	44	0	1723858944	13	4198
2026-01-23 00:04:39.98	180.52	24.37	-26.5	-28.3	16.3	0.00e+00	0	44	0	1733296128	12	4465
2026-01-23 00:04:42.98	180.74	23.92	-26.8	-28.6	15.8	0.00e+00	0	44	0	1742733312	13	4436
2026-01-23 00:04:46.00	180.96	23.48	-26.7	-28.3	16.0	2.63e-03	0	44	0	1752170496	13	4345
2026-01-23 00:04:49.01	181.18	23.04	-26.8	-28.6	15.8	0.00e+00	0	44	0	1761607680	13	4430
2026-01-23 00:04:52.02	181.39	22.61	-26.8	-28.7	15.8	0.00e+00	0	44	0	1771044864	13	4446
2026-01-23 00:04:55.03	181.59	22.19	-26.8	-28.7	15.8	0.00e+00	0	44	0	1780482048	13	4450
2026-01-23 00:04:58.03	181.79	21.78	-26.9	-28.8	15.7	0.00e+00	0	44	0	1789919232	13	4480
2026-01-23 00:05:01.04	181.98	21.37	-26.7	-28.3	15.9	0.00e+00	0	44	0	1799356416	13	4366
2026-01-23 00:05:04.05	182.17	20.97	-26.6	-28.2	16.0	0.00e+00	0	44	0	1808793600	13	4332
2026-01-23 00:05:07.07	182.36	20.57	-26.8	-28.7	15.7	0.00e+00	0	44	0	1818230784	13	4476
2026-01-23 00:05:10.08	182.54	20.18	-27.3	-29.3	15.1	0.00e+00	0	44	0	1827667968	14	4526
2026-01-23 00:05:13.08	182.71	19.80	-26.9	-28.3	15.6	0.00e+00	0	44	0	1837105152	14	4250
2026-01-23 00:05:16.10	182.88	19.41	-26.9	-29.0	15.5	0.00e+00	0	44	0	1846542336	13	4541
2026-01-23 00:05:19.10	183.05	19.04	-26.7	-28.5	15.8	0.00e+00	0	44	0	1855979520	13	4406
2026-01-23 00:05:22.11	183.21	18.67	-27.0	-29.0	15.5	0.00e+00	0	44	0	1865416704	13	4548
2026-01-23 00:05:25.12	183.37	18.31	-27.1	-28.9	15.2	0.00e+00	0	44	0	1874853888	14	4413
2026-01-23 00:05:28.13	183.53	17.95	-27.3	-29.2	15.0	0.00e+00	0	44	0	1884291072	14	4509
2026-01-23 00:05:31.14	183.68	17.60	-27.4	-29.4	14.9	0.00e+00	0	44	0	1893728256	14	4557
2026-01-23 00:05:34.14	183.83	17.25	-27.5	-29.3	14.7	0.00e+00	0	44	0	1902116864	15	4413
2026-01-23 00:05:37.14	183.98	16.91	-27.4	-29.5	14.9	4.50e-06	0	44	0	1911554048	14	4577
2026-01-23 00:05:40.15	184.12	16.57	-27.4	-29.4	14.9	7.00e-07	0	44	0	1922039808	14	4558
2026-01-23 00:05:43.16	184.27	16.24	-27.4	-29.4	14.9	0.00e+00	0	44	0	1930428416	14	4550
2026-01-23 00:05:46.17	184.40	15.91	-27.5	-29.7	14.8	0.00e+00	0	44	0	1939865600	14	4635
2026-01-23 00:05:49.18	184.54	15.58	-27.8	-29.8	14.4	7.00e-07	0	44	0	1949302784	15	4571
2026-01-23 00:05:52.19	184.67	15.26	-27.9	-30.2	14.1	7.00e-07	0	44	0	1958739968	15	4701
2026-01-23 00:05:55.20	184.80	14.94	-28.4	-30.8	13.7	4.50e-06	0	44	0	1968177152	16	4770
2026-01-23 00:05:58.22	184.93	14.63	-28.2	-29.9	13.9	3.00e-06	0	44	0	1977614336	17	4370
2026-01-23 00:06:01.23	185.05	14.32	-28.0	-30.0	14.1	2.20e-06	0	44	0	1987051520	16	4521
2026-01-23 00:06:04.23	185.18	14.01	-28.1	-30.1	14.1	2.20e-06	0	44	0	1996488704	16	4541
2026-01-23 00:06:07.24	185.30	13.71	-28.1	-30.2	14.0	7.00e-07	0	44	0	2005925888	16	4562
2026-01-23 00:06:10.26	185.42	13.41	-28.3	-30.5	13.7	6.80e-06	0	44	0	2015363072	16	4675
2026-01-23 00:06:13.28	185.53	13.12	-28.2	-30.3	13.9	3.80e-06	0	44	0	2024800256	16	4605
2026-01-23 00:06:16.28	185.65	12.83	-28.4	-30.9	13.5	8.30e-06	0	44	0	2034237440	16	4793
2026-01-23 00:06:19.28	185.76	12.54	-28.5	-31.0	13.4	1.14e-05	0	44	0	2043674624	16	4831
2026-01-23 00:06:22.30	185.87	12.25	-28.4	-30.4	13.5	9.90e-06	0	44	0	2053111808	17	4543
2026-01-23 00:06:25.32	185.98	11.97	-28.5	-30.5	13.4	1.83e-05	0	44	0	2062548992	17	4559
2026-01-23 00:06:28.32	186.08	11.69	-28.2	-29.9	13.7	2.20e-06	0	44	0	2071986176	17	4378
2026-01-23 00:06:31.34	186.19	11.42	-28.3	-30.2	13.5	8.30e-06	0	44	0	2081423360	17	4461
2026-01-23 00:06:34.34	186.29	11.15	-28.4	-30.5	13.4	1.98e-05	0	44	0	2090860544	17	4552
2026-01-23 00:06:37.35	186.39	10.88	-28.3	-30.1	13.6	6.10e-06	0	44	0	2100297728	17	4435
2026-01-23 00:06:40.36	186.49	10.61	-28.4	-30.9	13.3	1.52e-05	0	44	0	2109734912	16	4814
2026-01-23 00:06:43.38	186.59	10.34	-28.3	-30.7	13.4	1.67e-05	0	44	0	2119172096	16	4753
2026-01-23 00:06:46.39	186.68	10.08	-28.3	-30.8	13.4	1.29e-05	0	44	0	2128609280	16	4773
2026-01-23 00:06:49.40	186.78	9.82	-28.4	-30.9	13.3	1.44e-05	0	44	0	2138046464	16	4820
2026-01-23 00:06:52.40	186.87	9.57	-28.5	-30.7	13.1	2.89e-05	0	44	0	2147483648	17	4629
2026-01-23 00:06:55.40	186.96	9.32	-28.6	-31.0	12.9	3.66e-05	0	44	0	2156920832	17	4724
2026-01-23 00:06:58.41	187.05	9.07	-28.7	-31.3	12.7	5.18e-05	0	44	0	2166358016	17	4822
2026-01-23 00:07:01.43	187.14	8.82	-28.6	-30.9	12.9	3.66e-05	0	44	0	2175795200	17	4708
2026-01-23 00:07:04.44	187.23	8.57	-28.6	-31.0	12.9	4.88e-05	0	44	0	2185232384	17	4734
2026-01-23 00:07:07.45	187.32	8.33	-28.6	-31.1	12.8	4.73e-05	0	44	0	2194669568	17	4753
2026-01-23 00:07:10.47	187.40	8.09	-28.8	-31.5	12.5	1.36e-04	0	44	0	2204106752	17	4910
2026-01-23 00:07:13.48	187.48	7.85	-28.8	-31.6	12.4	1.50e-04	0	44	0	2213543936	17	4936
2026-01-23 00:07:16.49	187.57	7.61	-28.8	-31.6	12.4	1.65e-04	0	44	0	2221932544	17	4945
2026-01-23 00:07:19.50	187.65	7.38	-27.9	-30.7	11.6	3.62e-04	0	44	0	2231369728	18	4973
2026-01-23 00:07:22.51	187.73	7.14	-29.6	-32.6	11.1	4.44e-03	0	44	0	2241855488	19	5090

#Closed at: 2026-01-23 00:07:24
#Recorded file [2243 MB]: D:/data/31010_260123_025525.dat