passes_logs/2026/01/22/R2M6_AANII_01/R2M6_AANII_01__20260122_074004_NOAA_20_JPSS-1_rec.log

#Pass ID: 20260122_074004_NOAA 20 (JPSS-1)
#Satellite: NOAA 20 (JPSS-1)
#Configuration: NOAA 20
#almurnet v.1.7.20240730
#Start time: 2026-01-22 07:40:03

#Version: 2.2.20231116
#Station: R2M6_AANII_01
#Location: 30.233357 lon 59.946436 lat
#TLE: 1 43013U 17073A   26021.46221703  .00000173  00000+0  10299-3 0  9999
#TLE: 2 43013  98.7644 322.3335 0001238  29.7597 330.3649 14.19538314423652

#Time	Az	El	Level	Level2	SNR	BER	BlckErr	Temp	State	Recorded	gain1	gain2
2026-01-22 07:40:03.63	77.47	6.97	-32.6	-42.9	3.9	1.48e+00	0	41	0	0	26	11839
2026-01-22 07:40:05.63	77.23	7.07	-32.0	-38.7	6.5	2.38e-01	0	41	0	0	25	7781
2026-01-22 07:40:07.64	76.99	7.18	-31.9	-38.4	6.8	2.00e-01	0	41	0	3145728	25	7593
2026-01-22 07:40:09.66	76.75	7.28	-31.9	-37.9	7.1	1.45e-01	0	41	0	7340032	25	7240
2026-01-22 07:40:11.65	76.50	7.39	-31.8	-37.9	7.5	1.27e-01	0	41	0	10485760	24	7271
2026-01-22 07:40:13.65	76.26	7.49	-31.4	-36.2	9.0	3.25e-02	0	41	0	14680064	24	6237
2026-01-22 07:40:15.65	76.01	7.60	-31.3	-36.1	9.4	1.41e-02	0	41	0	17825792	23	6301
2026-01-22 07:40:17.66	75.76	7.70	-31.2	-35.8	9.6	1.17e-02	0	41	0	22020096	23	6136
2026-01-22 07:40:19.66	75.51	7.81	-31.2	-35.8	9.6	1.23e-02	0	41	0	26214400	23	6144
2026-01-22 07:40:21.66	75.25	7.91	-31.2	-35.7	9.8	1.20e-02	0	41	0	29360128	23	6058
2026-01-22 07:40:23.68	75.00	8.01	-31.2	-35.7	9.7	1.03e-02	0	41	0	33554432	23	6083
2026-01-22 07:40:25.68	74.74	8.12	-31.2	-35.9	9.6	1.07e-02	0	41	0	36700160	23	6186
2026-01-22 07:40:27.68	74.48	8.22	-31.0	-35.2	10.2	7.06e-03	0	41	0	40894464	23	5785
2026-01-22 07:40:29.69	74.22	8.33	-31.0	-34.9	10.5	4.12e-03	0	41	0	45088768	23	5656
2026-01-22 07:40:31.70	73.95	8.43	-30.9	-34.7	10.6	3.69e-03	0	41	0	48234496	23	5591
2026-01-22 07:40:33.70	73.69	8.53	-30.8	-34.4	10.8	2.49e-03	0	41	0	52428800	23	5446
2026-01-22 07:40:35.69	73.42	8.64	-30.9	-34.5	10.8	2.94e-03	0	41	0	55574528	23	5494
2026-01-22 07:40:37.70	73.15	8.74	-30.9	-34.6	10.8	2.30e-03	0	42	0	59768832	23	5493
2026-01-22 07:40:39.70	72.88	8.84	-30.9	-34.5	10.8	2.16e-03	0	42	0	62914560	23	5466
2026-01-22 07:40:41.72	72.61	8.94	-30.9	-34.6	10.7	3.23e-03	0	42	0	67108864	23	5521
2026-01-22 07:40:43.72	72.33	9.05	-30.9	-34.6	10.8	2.56e-03	0	42	0	71303168	23	5513
2026-01-22 07:40:45.72	72.06	9.15	-31.0	-34.9	10.5	3.25e-03	0	42	0	74448896	23	5652
2026-01-22 07:40:47.72	71.78	9.25	-31.0	-34.9	10.6	3.79e-03	0	42	0	78643200	23	5657
2026-01-22 07:40:49.71	71.50	9.35	-31.1	-35.3	10.3	3.83e-03	0	42	0	81788928	23	5818
2026-01-22 07:40:51.72	71.22	9.45	-31.1	-35.4	10.2	4.90e-03	0	42	0	85983232	23	5906
2026-01-22 07:40:53.73	70.93	9.55	-31.0	-34.9	10.6	4.82e-03	0	42	0	90177536	23	5651
2026-01-22 07:40:55.74	70.64	9.66	-31.0	-34.9	10.6	3.14e-03	0	42	0	93323264	23	5648
2026-01-22 07:40:57.75	70.35	9.76	-30.9	-34.6	10.9	2.59e-03	0	42	0	97517568	23	5496
2026-01-22 07:40:59.76	70.06	9.86	-30.8	-34.2	11.2	1.53e-03	0	42	0	100663296	23	5345
2026-01-22 07:41:01.77	69.77	9.96	-30.8	-34.6	11.3	1.08e-03	0	42	0	104857600	22	5590
2026-01-22 07:41:03.78	69.47	10.06	-30.8	-34.6	11.3	1.30e-03	0	42	0	108003328	22	5575
2026-01-22 07:41:05.79	69.18	10.16	-30.8	-34.6	11.3	1.15e-03	0	42	0	112197632	22	5597
2026-01-22 07:41:07.78	68.88	10.26	-30.8	-34.5	11.3	1.31e-03	0	42	0	116391936	22	5554
2026-01-22 07:41:09.79	68.58	10.36	-30.6	-34.0	11.7	5.39e-04	0	42	0	119537664	22	5311
2026-01-22 07:41:11.79	68.27	10.45	-30.6	-33.9	11.8	4.58e-04	0	42	0	123731968	22	5289
2026-01-22 07:41:13.80	67.97	10.55	-30.4	-33.5	12.1	3.37e-04	0	42	0	126877696	22	5112
2026-01-22 07:41:15.80	67.66	10.65	-30.4	-33.5	12.1	2.38e-04	0	42	0	131072000	22	5114
2026-01-22 07:41:17.80	67.35	10.75	-30.5	-33.7	12.0	4.19e-04	0	42	0	135266304	22	5208
2026-01-22 07:41:19.81	67.04	10.84	-30.5	-33.7	11.9	2.85e-04	0	42	0	138412032	22	5209
2026-01-22 07:41:21.82	66.73	10.94	-30.5	-33.6	12.1	3.10e-04	0	42	0	142606336	22	5146
2026-01-22 07:41:23.81	66.41	11.03	-30.6	-33.9	11.9	3.41e-04	0	42	0	145752064	22	5261
2026-01-22 07:41:25.81	66.10	11.13	-30.4	-33.4	12.2	2.24e-04	0	42	0	149946368	22	5071
2026-01-22 07:41:27.82	65.78	11.22	-30.2	-33.3	12.6	1.16e-04	0	42	0	153092096	21	5140
2026-01-22 07:41:29.83	65.45	11.32	-30.2	-33.2	12.7	9.00e-05	0	42	0	157286400	21	5094
2026-01-22 07:41:31.85	65.13	11.41	-30.3	-33.4	12.5	7.85e-05	0	42	0	161480704	21	5186
2026-01-22 07:41:33.86	64.80	11.51	-30.1	-33.1	12.8	7.70e-05	0	42	0	164626432	21	5042
2026-01-22 07:41:35.87	64.47	11.60	-30.1	-32.9	13.0	4.50e-05	0	42	0	168820736	21	4968
2026-01-22 07:41:37.87	64.14	11.69	-30.0	-32.8	13.0	3.28e-05	0	42	0	171966464	21	4945
2026-01-22 07:41:39.87	63.81	11.78	-30.1	-33.0	12.8	4.42e-05	0	42	0	176160768	21	5022
2026-01-22 07:41:41.89	63.47	11.87	-29.9	-32.4	13.2	2.59e-05	0	42	0	180355072	21	4815
2026-01-22 07:41:43.89	63.14	11.96	-29.9	-32.3	13.4	1.60e-05	0	42	0	183500800	21	4748
2026-01-22 07:41:45.90	62.80	12.05	-29.9	-32.4	13.3	1.37e-05	0	42	0	187695104	21	4788
2026-01-22 07:41:47.90	62.46	12.14	-29.9	-32.4	13.3	2.28e-05	0	42	0	190840832	21	4802
2026-01-22 07:41:49.91	62.11	12.23	-29.8	-32.1	13.5	1.29e-05	0	42	0	195035136	21	4703
2026-01-22 07:41:51.91	61.77	12.32	-29.8	-32.2	13.4	1.06e-05	0	42	0	199229440	21	4727
2026-01-22 07:41:53.91	61.42	12.41	-30.0	-32.6	13.1	2.44e-05	0	42	0	202375168	21	4873
2026-01-22 07:41:55.92	61.07	12.49	-30.0	-32.7	13.1	1.52e-05	0	43	0	206569472	21	4902
2026-01-22 07:41:57.94	60.72	12.58	-30.1	-33.0	12.9	3.58e-05	0	43	0	209715200	21	5019
2026-01-22 07:41:59.94	60.37	12.66	-30.0	-32.7	13.1	3.43e-05	0	42	0	213909504	21	4918
2026-01-22 07:42:01.95	60.01	12.75	-30.1	-32.8	13.0	3.58e-05	0	42	0	218103808	21	4952
2026-01-22 07:42:03.95	59.65	12.83	-30.3	-33.5	12.6	7.78e-05	0	43	0	221249536	21	5186
2026-01-22 07:42:05.97	59.29	12.91	-30.2	-33.2	12.8	5.72e-05	0	43	0	225443840	21	5095
2026-01-22 07:42:07.97	58.93	12.99	-30.3	-33.5	12.6	7.78e-05	0	43	0	228589568	21	5213
2026-01-22 07:42:09.98	58.57	13.07	-30.2	-33.3	12.7	6.17e-05	0	43	0	232783872	21	5115
2026-01-22 07:42:11.98	58.20	13.15	-30.2	-33.1	12.9	5.18e-05	0	43	0	236978176	21	5061
2026-01-22 07:42:13.99	57.84	13.23	-30.0	-32.7	13.1	3.43e-05	0	43	0	240123904	21	4906
2026-01-22 07:42:16.00	57.47	13.31	-30.0	-32.7	13.2	2.28e-05	0	43	0	244318208	21	4881
2026-01-22 07:42:18.00	57.09	13.39	-30.1	-33.0	13.0	3.73e-05	0	43	0	247463936	21	5010
2026-01-22 07:42:20.02	56.72	13.46	-30.2	-33.1	12.9	5.64e-05	0	43	0	251658240	21	5036
2026-01-22 07:42:22.03	56.34	13.54	-30.0	-32.6	13.3	1.52e-05	0	43	0	254803968	21	4848
2026-01-22 07:42:24.03	55.97	13.61	-30.0	-32.6	13.2	1.98e-05	0	43	0	258998272	21	4863
2026-01-22 07:42:26.03	55.59	13.69	-30.1	-32.9	13.1	1.60e-05	0	43	0	263192576	21	4962
2026-01-22 07:42:28.04	55.21	13.76	-29.8	-32.5	13.7	7.60e-06	0	43	0	266338304	20	4908
2026-01-22 07:42:30.04	54.83	13.83	-29.9	-32.7	13.5	6.80e-06	0	43	0	270532608	20	4999
2026-01-22 07:42:32.05	54.44	13.90	-30.0	-32.9	13.4	1.60e-05	0	43	0	273678336	20	5074
2026-01-22 07:42:34.05	54.05	13.97	-29.7	-32.2	13.8	2.20e-06	0	43	0	277872640	20	4825
2026-01-22 07:42:36.06	53.67	14.03	-29.8	-32.5	13.7	3.80e-06	0	43	0	282066944	20	4918
2026-01-22 07:42:38.06	53.28	14.10	-29.8	-32.5	13.7	8.30e-06	0	43	0	285212672	20	4920
2026-01-22 07:42:40.08	52.88	14.17	-29.6	-32.1	14.0	2.20e-06	0	42	0	289406976	20	4760
2026-01-22 07:42:42.08	52.49	14.23	-29.7	-32.2	13.9	2.20e-06	0	43	0	292552704	20	4802
2026-01-22 07:42:44.07	52.10	14.29	-29.9	-32.7	13.5	9.10e-06	0	43	0	296747008	20	5003
2026-01-22 07:42:46.07	51.70	14.35	-29.7	-32.4	13.8	4.50e-06	0	43	0	299892736	20	4865
2026-01-22 07:42:48.08	51.30	14.41	-29.8	-32.5	13.7	7.60e-06	0	43	0	304087040	20	4921
2026-01-22 07:42:50.09	50.90	14.47	-29.9	-32.7	13.5	6.80e-06	0	43	0	308281344	20	4997
2026-01-22 07:42:52.10	50.50	14.53	-29.8	-32.6	13.6	9.10e-06	0	43	0	311427072	20	4955
2026-01-22 07:42:54.10	50.10	14.59	-29.9	-32.9	13.4	6.80e-06	0	43	0	315621376	20	5070
2026-01-22 07:42:56.11	49.69	14.64	-30.0	-33.2	13.3	1.83e-05	0	43	0	318767104	20	5159
2026-01-22 07:42:58.11	49.29	14.70	-29.9	-32.8	13.5	1.67e-05	0	43	0	322961408	20	5008
2026-01-22 07:43:00.12	48.88	14.75	-30.1	-33.2	13.3	1.52e-05	0	43	0	327155712	20	5182
2026-01-22 07:43:02.12	48.47	14.80	-30.0	-33.0	13.4	1.06e-05	0	43	0	330301440	20	5107
2026-01-22 07:43:04.11	48.06	14.85	-30.1	-33.4	13.1	2.59e-05	0	43	0	334495744	20	5245
2026-01-22 07:43:06.11	47.65	14.90	-30.0	-33.1	13.3	2.05e-05	0	43	0	337641472	20	5145
2026-01-22 07:43:08.11	47.24	14.95	-30.0	-33.2	13.2	2.36e-05	0	43	0	341835776	20	5174
2026-01-22 07:43:10.12	46.83	14.99	-30.3	-33.8	12.9	4.73e-05	0	43	0	344981504	20	5394
2026-01-22 07:43:12.13	46.41	15.04	-30.2	-33.7	12.9	4.11e-05	0	43	0	349175808	20	5364
2026-01-22 07:43:14.13	45.99	15.08	-30.3	-33.9	12.8	5.34e-05	0	43	0	353370112	20	5444
2026-01-22 07:43:16.14	45.57	15.12	-30.3	-33.8	12.9	6.10e-05	0	43	0	356515840	20	5398
2026-01-22 07:43:18.14	45.16	15.16	-30.5	-34.1	12.3	1.14e-04	0	43	0	360710144	21	5405
2026-01-22 07:43:20.15	44.73	15.20	-30.0	-32.7	13.3	1.98e-05	0	43	0	363855872	21	4859
2026-01-22 07:43:22.15	44.31	15.24	-29.9	-32.3	13.6	6.80e-06	0	43	0	368050176	21	4738
2026-01-22 07:43:24.15	43.89	15.28	-30.0	-32.5	13.4	1.29e-05	0	43	0	372244480	21	4786
2026-01-22 07:43:26.15	43.47	15.31	-29.9	-32.3	13.5	1.37e-05	0	43	0	375390208	21	4743
2026-01-22 07:43:28.16	43.05	15.34	-29.9	-32.1	13.6	6.80e-06	0	43	0	379584512	21	4674
2026-01-22 07:43:30.16	42.62	15.37	-30.0	-32.6	13.3	9.10e-06	0	43	0	382730240	21	4854
2026-01-22 07:43:32.17	42.19	15.40	-30.0	-32.6	13.4	1.98e-05	0	43	0	386924544	21	4828
2026-01-22 07:43:34.17	41.77	15.43	-30.1	-32.8	13.2	1.44e-05	0	43	0	390070272	21	4922
2026-01-22 07:43:36.17	41.34	15.46	-30.2	-33.1	13.1	1.44e-05	0	43	0	394264576	21	5017
2026-01-22 07:43:38.17	40.91	15.48	-30.2	-33.1	13.0	3.96e-05	0	43	0	398458880	21	5014
2026-01-22 07:43:40.19	40.48	15.50	-30.2	-33.2	12.9	5.03e-05	0	43	0	401604608	21	5061
2026-01-22 07:43:42.18	40.06	15.53	-30.2	-33.0	13.1	2.89e-05	0	43	0	405798912	21	4987
2026-01-22 07:43:44.19	39.62	15.55	-30.2	-33.1	13.0	3.81e-05	0	43	0	408944640	21	5013
2026-01-22 07:43:46.19	39.20	15.56	-30.2	-33.0	13.1	2.97e-05	0	43	0	413138944	21	4977
2026-01-22 07:43:48.19	38.76	15.58	-30.2	-33.2	12.9	4.27e-05	0	43	0	417333248	21	5083
2026-01-22 07:43:50.19	38.33	15.60	-30.2	-33.1	13.0	3.81e-05	0	43	0	420478976	21	5043
2026-01-22 07:43:52.20	37.90	15.61	-30.2	-33.2	13.0	3.73e-05	0	43	0	424673280	21	5056
2026-01-22 07:43:54.20	37.47	15.62	-30.0	-32.6	13.3	2.36e-05	0	43	0	427819008	21	4852
2026-01-22 07:43:56.20	37.04	15.63	-30.1	-32.8	13.2	1.52e-05	0	43	0	432013312	21	4921
2026-01-22 07:43:58.21	36.60	15.64	-30.3	-33.4	12.8	5.26e-05	0	43	0	435159040	21	5122
2026-01-22 07:44:00.21	36.17	15.65	-30.4	-33.7	12.6	6.56e-05	0	43	0	439353344	21	5264
2026-01-22 07:44:02.23	35.73	15.65	-30.2	-33.0	13.1	3.89e-05	0	43	0	443547648	21	4986
2026-01-22 07:44:04.23	35.30	15.66	-30.1	-32.8	13.2	2.21e-05	0	43	0	446693376	21	4906
2026-01-22 07:44:06.23	34.87	15.66	-30.0	-32.5	13.4	4.50e-06	0	43	0	450887680	21	4812
2026-01-22 07:44:08.23	34.44	15.66	-30.1	-32.8	13.2	2.21e-05	0	43	0	454033408	21	4920
2026-01-22 07:44:10.23	34.00	15.66	-30.0	-32.4	13.5	1.22e-05	0	43	0	458227712	21	4774
2026-01-22 07:44:12.23	33.57	15.65	-30.0	-32.6	13.4	1.52e-05	0	43	0	462422016	21	4838
2026-01-22 07:44:14.23	33.14	15.65	-30.1	-32.9	13.2	2.13e-05	0	43	0	465567744	21	4946
2026-01-22 07:44:16.24	32.71	15.64	-30.2	-32.9	13.1	2.67e-05	0	43	0	469762048	21	4947
2026-01-22 07:44:18.25	32.27	15.64	-30.1	-32.9	13.2	2.97e-05	0	43	0	472907776	21	4934
2026-01-22 07:44:20.26	31.84	15.63	-30.1	-32.9	13.2	1.90e-05	0	43	0	477102080	21	4937
2026-01-22 07:44:22.26	31.41	15.61	-30.2	-32.9	13.1	3.35e-05	0	43	0	480247808	21	4959
2026-01-22 07:44:24.27	30.97	15.60	-30.2	-32.9	13.1	1.98e-05	0	43	0	484442112	21	4969
2026-01-22 07:44:26.27	30.54	15.59	-30.2	-33.0	13.1	2.82e-05	0	43	0	488636416	21	5001
2026-01-22 07:44:28.27	30.11	15.57	-30.2	-33.1	13.0	3.50e-05	0	43	0	491782144	21	5027
2026-01-22 07:44:30.28	29.68	15.55	-30.4	-33.5	12.7	4.57e-05	0	43	0	495976448	21	5187
2026-01-22 07:44:32.29	29.25	15.53	-30.4	-33.7	12.6	1.07e-04	0	43	0	499122176	21	5233
2026-01-22 07:44:34.30	28.82	15.51	-30.2	-33.2	12.9	4.73e-05	0	43	0	503316480	21	5051
2026-01-22 07:44:36.31	28.39	15.49	-30.2	-33.0	13.1	3.96e-05	0	43	0	507510784	21	4995
2026-01-22 07:44:38.31	27.96	15.47	-30.0	-32.5	13.4	1.06e-05	0	43	0	510656512	21	4789
2026-01-22 07:44:40.30	27.54	15.44	-30.0	-32.6	13.3	2.44e-05	0	43	0	514850816	21	4856
2026-01-22 07:44:42.31	27.11	15.41	-29.9	-32.4	13.5	1.22e-05	0	43	0	517996544	21	4767
2026-01-22 07:44:44.31	26.68	15.38	-30.1	-32.7	13.3	1.67e-05	0	43	0	522190848	21	4885
2026-01-22 07:44:46.32	26.26	15.35	-29.8	-32.4	13.8	4.50e-06	0	43	0	525336576	20	4863
2026-01-22 07:44:48.32	25.84	15.32	-29.7	-32.3	13.9	2.20e-06	0	43	0	529530880	20	4847
2026-01-22 07:44:50.34	25.41	15.29	-29.8	-32.5	13.8	6.10e-06	0	43	0	533725184	20	4888
2026-01-22 07:44:52.35	24.99	15.25	-29.9	-32.8	13.6	9.90e-06	0	43	0	536870912	20	4999
2026-01-22 07:44:54.35	24.57	15.22	-29.9	-32.7	13.6	9.10e-06	0	43	0	541065216	20	4993
2026-01-22 07:44:56.36	24.14	15.18	-30.0	-33.0	13.4	2.05e-05	0	43	0	544210944	20	5097
2026-01-22 07:44:58.37	23.72	15.14	-29.8	-32.6	13.7	3.80e-06	0	43	0	548405248	20	4925
2026-01-22 07:45:00.36	23.31	15.10	-29.9	-32.9	13.5	8.30e-06	0	43	0	552599552	20	5039
2026-01-22 07:45:02.37	22.89	15.05	-30.0	-32.9	13.5	7.60e-06	0	43	0	555745280	20	5066
2026-01-22 07:45:04.38	22.48	15.01	-30.0	-33.0	13.4	1.52e-05	0	43	0	559939584	20	5083
2026-01-22 07:45:06.39	22.06	14.96	-30.1	-33.3	13.2	1.98e-05	0	43	0	563085312	20	5210
2026-01-22 07:45:08.41	21.64	14.92	-30.2	-33.7	12.9	3.96e-05	0	43	0	567279616	20	5371
2026-01-22 07:45:10.42	21.23	14.87	-30.3	-33.9	12.8	5.95e-05	0	43	0	571473920	20	5456
2026-01-22 07:45:12.43	20.82	14.82	-30.3	-33.8	12.9	6.71e-05	0	43	0	574619648	20	5401
2026-01-22 07:45:14.44	20.41	14.77	-30.3	-33.9	12.8	5.79e-05	0	43	0	578813952	20	5423
2026-01-22 07:45:16.44	20.01	14.72	-30.4	-33.7	12.6	1.30e-04	0	43	0	581959680	21	5268
2026-01-22 07:45:18.43	19.60	14.66	-30.2	-33.0	13.1	3.81e-05	0	43	0	586153984	21	4978
2026-01-22 07:45:20.45	19.20	14.61	-30.2	-32.9	13.1	2.89e-05	0	43	0	590348288	21	4966
2026-01-22 07:45:22.46	18.79	14.55	-30.2	-33.2	12.9	3.81e-05	0	43	0	593494016	21	5084
2026-01-22 07:45:24.46	18.39	14.49	-30.1	-32.8	13.2	4.57e-05	0	43	0	597688320	21	4933
2026-01-22 07:45:26.47	17.99	14.44	-30.1	-32.7	13.3	1.52e-05	0	43	0	600834048	21	4862
2026-01-22 07:45:28.48	17.59	14.38	-30.0	-32.4	13.4	1.67e-05	0	43	0	605028352	21	4779
2026-01-22 07:45:30.48	17.20	14.31	-30.1	-32.8	13.2	2.82e-05	0	43	0	608174080	21	4916
2026-01-22 07:45:32.49	16.80	14.25	-29.9	-32.4	13.5	9.10e-06	0	43	0	612368384	21	4758
2026-01-22 07:45:34.50	16.41	14.19	-30.0	-32.5	13.4	1.14e-05	0	43	0	616562688	21	4794
2026-01-22 07:45:36.51	16.02	14.12	-30.0	-32.5	13.4	1.22e-05	0	43	0	619708416	21	4820
2026-01-22 07:45:38.51	15.63	14.06	-30.0	-32.5	13.4	3.05e-05	0	43	0	623902720	21	4813
2026-01-22 07:45:40.52	15.24	13.99	-29.8	-32.1	13.7	1.22e-05	0	43	0	627048448	21	4658
2026-01-22 07:45:42.52	14.85	13.92	-29.8	-32.1	13.6	1.22e-05	0	43	0	631242752	21	4684
2026-01-22 07:45:44.53	14.47	13.85	-29.9	-32.2	13.6	6.10e-06	0	43	0	635437056	21	4690
2026-01-22 07:45:46.53	14.09	13.78	-29.9	-32.3	13.5	1.44e-05	0	43	0	638582784	21	4739
2026-01-22 07:45:48.54	13.71	13.71	-29.8	-32.4	13.7	3.80e-06	0	43	0	642777088	20	4888
2026-01-22 07:45:50.54	13.33	13.64	-29.9	-32.9	13.4	7.60e-06	0	43	0	645922816	20	5051
2026-01-22 07:45:52.54	12.95	13.56	-30.0	-33.0	13.3	1.37e-05	0	43	0	650117120	20	5107
2026-01-22 07:45:54.56	12.58	13.49	-29.9	-32.9	13.5	1.98e-05	0	43	0	653262848	20	5039
2026-01-22 07:45:56.56	12.21	13.41	-29.9	-32.8	13.5	9.90e-06	0	43	0	657457152	20	5021
2026-01-22 07:45:58.57	11.83	13.34	-29.9	-32.7	13.5	2.05e-05	0	43	0	661651456	20	4989
2026-01-22 07:46:00.57	11.47	13.26	-29.7	-32.3	13.7	4.50e-06	0	43	0	664797184	20	4852
2026-01-22 07:46:02.58	11.10	13.18	-29.8	-32.5	13.6	4.50e-06	0	43	0	668991488	20	4927
2026-01-22 07:46:04.59	10.73	13.10	-29.9	-32.8	13.4	7.60e-06	0	43	0	672137216	20	5036
2026-01-22 07:46:06.60	10.37	13.02	-30.1	-33.2	13.2	2.13e-05	0	43	0	676331520	20	5189
2026-01-22 07:46:08.60	10.01	12.94	-30.2	-33.5	12.9	4.34e-05	0	43	0	680525824	20	5306
2026-01-22 07:46:10.61	9.65	12.86	-30.3	-33.8	12.8	5.79e-05	0	43	0	683671552	20	5414
2026-01-22 07:46:12.61	9.29	12.78	-30.3	-33.9	12.7	6.94e-05	0	43	0	687865856	20	5469
2026-01-22 07:46:14.62	8.94	12.69	-30.4	-34.1	12.5	9.91e-05	0	43	0	691011584	20	5538
2026-01-22 07:46:16.61	8.59	12.61	-30.5	-34.5	12.3	1.46e-04	0	43	0	695205888	20	5696
2026-01-22 07:46:18.62	8.24	12.53	-30.6	-34.3	12.0	3.63e-04	0	43	0	698351616	21	5499
2026-01-22 07:46:20.62	7.89	12.44	-30.6	-34.4	12.0	3.65e-04	0	43	0	702545920	21	5539
2026-01-22 07:46:22.63	7.54	12.35	-30.8	-34.9	11.6	5.39e-04	0	43	0	706740224	21	5766
2026-01-22 07:46:24.63	7.20	12.27	-30.8	-35.1	11.4	8.13e-04	0	43	0	709885952	21	5871
2026-01-22 07:46:26.64	6.86	12.18	-30.9	-35.4	11.3	1.02e-03	0	43	0	714080256	21	6016
2026-01-22 07:46:28.64	6.52	12.09	-31.0	-35.2	11.0	1.55e-03	0	43	0	717225984	22	5823
2026-01-22 07:46:30.66	6.18	12.00	-31.2	-35.6	10.7	3.44e-03	0	43	0	721420288	22	6017
2026-01-22 07:46:32.66	5.84	11.91	-31.0	-35.1	11.1	1.74e-03	0	43	0	725614592	22	5780
2026-01-22 07:46:34.66	5.51	11.82	-30.9	-34.8	11.3	1.23e-03	0	43	0	728760320	22	5653
2026-01-22 07:46:36.66	5.18	11.73	-31.0	-35.1	11.1	1.77e-03	0	43	0	732954624	22	5760
2026-01-22 07:46:38.67	4.85	11.64	-31.2	-35.6	10.7	2.88e-03	0	43	0	736100352	22	6026
2026-01-22 07:46:40.68	4.52	11.54	-31.3	-36.1	10.3	5.09e-03	0	43	0	740294656	22	6265
2026-01-22 07:46:42.68	4.19	11.45	-31.3	-36.2	10.3	5.65e-03	0	43	0	744488960	22	6298
2026-01-22 07:46:44.69	3.87	11.36	-31.3	-36.1	10.3	5.00e-03	0	43	0	747634688	22	6257
2026-01-22 07:46:46.70	3.55	11.26	-31.4	-36.4	10.1	5.80e-03	0	43	0	751828992	22	6416
2026-01-22 07:46:48.71	3.23	11.17	-31.4	-36.6	9.9	1.06e-02	0	43	0	754974720	22	6559
2026-01-22 07:46:50.72	2.91	11.07	-31.4	-36.6	9.9	7.67e-03	0	43	0	759169024	22	6531
2026-01-22 07:46:52.72	2.59	10.98	-31.6	-36.8	9.3	1.47e-02	0	43	0	762314752	23	6559
2026-01-22 07:46:54.73	2.28	10.88	-31.6	-36.8	9.3	1.55e-02	0	43	0	766509056	23	6551
2026-01-22 07:46:56.73	1.97	10.79	-31.4	-36.2	9.8	1.21e-02	0	43	0	770703360	23	6226
2026-01-22 07:46:58.73	1.66	10.69	-31.4	-35.9	10.1	6.98e-03	0	43	0	773849088	23	6046
2026-01-22 07:47:00.74	1.36	10.59	-31.3	-35.8	10.1	8.01e-03	0	43	0	778043392	23	6034
2026-01-22 07:47:02.74	1.05	10.50	-31.2	-35.3	10.5	4.03e-03	0	43	0	781189120	23	5773
2026-01-22 07:47:04.75	0.75	10.40	-31.2	-35.4	10.4	4.61e-03	0	43	0	785383424	23	5818
2026-01-22 07:47:06.76	0.45	10.30	-31.2	-35.3	10.4	4.53e-03	0	43	0	789577728	23	5799
2026-01-22 07:47:08.77	0.15	10.20	-31.1	-35.2	10.5	3.92e-03	0	43	0	792723456	23	5739
2026-01-22 07:47:10.77	359.85	10.10	-31.1	-35.0	10.6	4.65e-03	0	43	0	796917760	23	5678
2026-01-22 07:47:12.78	359.56	10.00	-31.0	-34.7	10.9	2.13e-03	0	43	0	800063488	23	5492
2026-01-22 07:47:14.78	359.27	9.90	-31.0	-34.7	10.8	2.35e-03	0	43	0	804257792	23	5524
2026-01-22 07:47:16.79	358.98	9.80	-31.0	-34.6	10.9	2.53e-03	0	43	0	808452096	23	5488
2026-01-22 07:47:18.79	358.69	9.70	-31.1	-34.9	10.7	2.58e-03	0	43	0	811597824	23	5599
2026-01-22 07:47:20.80	358.40	9.60	-30.9	-34.4	11.1	1.98e-03	0	43	0	815792128	23	5378
2026-01-22 07:47:22.80	358.12	9.50	-30.8	-34.2	11.2	1.44e-03	0	43	0	818937856	23	5309
2026-01-22 07:47:24.81	357.83	9.40	-30.8	-34.2	11.2	1.24e-03	0	43	0	823132160	23	5300
2026-01-22 07:47:26.82	357.55	9.30	-30.8	-34.1	11.2	1.33e-03	0	43	0	826277888	23	5260
2026-01-22 07:47:28.81	357.28	9.20	-30.7	-34.5	11.3	1.28e-03	0	43	0	830472192	22	5523
2026-01-22 07:47:30.82	357.00	9.09	-30.6	-34.1	11.6	6.60e-04	0	43	0	834666496	22	5364
2026-01-22 07:47:32.81	356.73	8.99	-30.6	-33.9	11.7	6.56e-04	0	43	0	837812224	22	5304
2026-01-22 07:47:34.82	356.46	8.89	-30.7	-34.4	11.3	8.21e-04	0	43	0	842006528	22	5512
2026-01-22 07:47:36.82	356.19	8.79	-30.7	-34.5	11.2	1.52e-03	0	43	0	845152256	22	5557
2026-01-22 07:47:38.83	355.92	8.69	-30.7	-34.3	11.4	9.18e-04	0	43	0	849346560	22	5473
2026-01-22 07:47:40.83	355.65	8.58	-30.6	-34.1	11.5	7.67e-04	0	43	0	853540864	22	5387
2026-01-22 07:47:42.84	355.39	8.48	-30.6	-34.1	11.5	1.04e-03	0	43	0	856686592	22	5368
2026-01-22 07:47:44.85	355.12	8.38	-30.4	-33.4	12.0	4.29e-04	0	43	0	860880896	22	5089
2026-01-22 07:47:46.86	354.86	8.27	-30.3	-33.2	12.1	2.59e-04	0	43	0	864026624	22	5025
2026-01-22 07:47:48.86	354.60	8.17	-30.3	-33.2	12.1	2.82e-04	0	43	0	868220928	22	5034
2026-01-22 07:47:50.87	354.35	8.07	-30.3	-33.3	12.0	4.36e-04	0	43	0	871366656	22	5072
2026-01-22 07:47:52.88	354.09	7.96	-30.2	-33.4	12.2	1.79e-04	0	43	0	875560960	21	5209
2026-01-22 07:47:54.90	353.84	7.86	-30.1	-33.1	12.5	1.20e-04	0	43	0	879755264	21	5088
2026-01-22 07:47:56.91	353.58	7.75	-30.1	-33.2	12.4	1.59e-04	0	43	0	882900992	21	5124
2026-01-22 07:47:58.91	353.34	7.65	-30.2	-33.3	12.3	2.28e-04	0	43	0	887095296	21	5182
2026-01-22 07:48:00.92	353.09	7.54	-30.3	-33.7	12.0	3.23e-04	0	43	0	890241024	21	5360
2026-01-22 07:48:02.93	352.84	7.44	-30.1	-33.1	12.4	1.83e-04	0	43	0	894435328	21	5110
2026-01-22 07:48:04.94	352.60	7.33	-30.1	-33.2	12.3	1.44e-04	0	43	0	898629632	21	5127
2026-01-22 07:48:06.94	352.36	7.23	-30.2	-33.4	12.2	2.43e-04	0	43	0	901775360	21	5215
2026-01-22 07:48:08.95	352.11	7.13	-30.1	-33.3	12.2	2.43e-04	0	43	0	905969664	21	5200
2026-01-22 07:48:10.96	351.88	7.02	-33.2	-47.2	3.8	1.01e+00	0	43	104	908066816	26	18064
2026-01-22 07:48:12.97	351.64	6.92	-33.6	-47.9	3.8	1.49e+00	0	43	104	908066816	27	18534

#Closed at: 2026-01-22 07:48:13
#Recorded file [908 MB]: D:/data/31010_260122_104005.dat