passes_logs/2026/01/22/R2M6_AANII_01/R2M6_AANII_01__20260122_022433_SUOMI_NPP_rec.log

#Pass ID: 20260122_022433_SUOMI NPP
#Satellite: SUOMI NPP
#Configuration: NPP
#almurnet v.1.7.20240730
#Start time: 2026-01-22 02:24:34

#Version: 2.2.20231116
#Station: R2M6_AANII_01
#Location: 30.233357 lon 59.946436 lat
#TLE: 1 37849U 11061A   26021.51818991  .00000201  00000+0  11636-3 0  9995
#TLE: 2 37849  98.7819 323.5108 0002300  52.3548 307.7836 14.19527793737637

#Time	Az	El	Level	Level2	SNR	BER	BlckErr	Temp	State	Recorded	gain1	gain2
2026-01-22 02:24:34.32	10.11	7.07	-32.5	-39.8	4.2	1.43e+00	0	42	0	0	25	8317
2026-01-22 02:24:37.32	9.83	7.26	-32.4	-39.1	5.7	4.05e-01	0	42	0	1048576	24	7839
2026-01-22 02:24:40.34	9.54	7.45	-32.4	-39.1	5.7	4.22e-01	0	42	0	7340032	24	7756
2026-01-22 02:24:43.34	9.25	7.65	-32.0	-36.6	7.5	1.57e-01	0	42	0	12582912	24	6151
2026-01-22 02:24:46.35	8.96	7.84	-31.3	-34.6	9.5	2.08e-02	0	42	0	17825792	23	5218
2026-01-22 02:24:49.37	8.66	8.03	-31.1	-34.1	10.3	5.64e-03	0	42	0	24117248	22	5096
2026-01-22 02:24:52.37	8.36	8.22	-31.0	-33.8	10.5	3.81e-03	0	42	0	29360128	22	4981
2026-01-22 02:24:55.38	8.05	8.42	-30.9	-33.5	10.8	2.62e-03	0	42	0	35651584	22	4847
2026-01-22 02:24:58.38	7.74	8.61	-31.0	-33.8	10.6	2.72e-03	0	43	0	40894464	22	4971
2026-01-22 02:25:01.40	7.42	8.81	-30.7	-32.9	11.2	1.36e-03	0	43	0	46137344	22	4608
2026-01-22 02:25:04.41	7.10	9.01	-30.8	-33.0	11.2	1.33e-03	0	43	0	52428800	22	4647
2026-01-22 02:25:07.42	6.78	9.20	-30.9	-33.3	11.0	1.49e-03	0	43	0	57671680	22	4746
2026-01-22 02:25:10.42	6.45	9.40	-30.9	-33.3	11.1	1.76e-03	0	43	0	63963136	22	4742
2026-01-22 02:25:13.43	6.12	9.60	-30.9	-33.5	10.9	1.82e-03	0	43	0	69206016	22	4826
2026-01-22 02:25:16.44	5.78	9.80	-30.9	-33.2	11.1	1.46e-03	0	43	0	74448896	22	4721
2026-01-22 02:25:19.46	5.44	10.00	-31.0	-33.8	10.7	2.21e-03	0	43	0	80740352	22	4948
2026-01-22 02:25:22.47	5.09	10.20	-31.2	-34.1	10.5	3.22e-03	0	43	0	85983232	22	5072
2026-01-22 02:25:25.48	4.74	10.40	-31.1	-34.0	10.6	3.95e-03	0	43	0	91226112	22	5014
2026-01-22 02:25:28.48	4.38	10.60	-31.0	-33.5	11.0	2.06e-03	0	43	0	97517568	22	4799
2026-01-22 02:25:31.49	4.02	10.80	-31.0	-33.5	11.0	2.18e-03	0	43	0	102760448	22	4815
2026-01-22 02:25:34.51	3.65	11.00	-31.0	-33.5	11.0	2.18e-03	0	43	0	109051904	22	4826
2026-01-22 02:25:37.52	3.28	11.21	-31.0	-33.4	11.1	2.04e-03	0	43	0	114294784	22	4777
2026-01-22 02:25:40.52	2.90	11.41	-30.8	-33.0	11.4	1.45e-03	0	43	0	119537664	22	4610
2026-01-22 02:25:43.53	2.51	11.61	-30.8	-32.9	11.5	1.19e-03	0	43	0	125829120	22	4599
2026-01-22 02:25:46.54	2.12	11.82	-30.9	-33.2	11.3	1.22e-03	0	44	0	131072000	22	4683
2026-01-22 02:25:49.54	1.73	12.02	-30.8	-32.7	11.6	9.40e-04	0	43	0	136314880	22	4528
2026-01-22 02:25:52.54	1.33	12.22	-30.6	-32.8	11.9	6.88e-04	0	44	0	142606336	21	4630
2026-01-22 02:25:55.54	0.93	12.43	-30.6	-32.8	11.9	5.58e-04	0	44	0	147849216	21	4648
2026-01-22 02:25:58.55	0.51	12.63	-30.7	-33.2	11.7	6.65e-04	0	44	0	154140672	21	4771
2026-01-22 02:26:01.56	0.10	12.84	-30.8	-33.3	11.6	1.17e-03	0	44	0	159383552	21	4801
2026-01-22 02:26:04.57	359.67	13.05	-30.6	-32.8	11.9	7.50e-04	0	43	0	164626432	21	4647
2026-01-22 02:26:07.59	359.24	13.25	-30.6	-32.9	12.0	7.51e-04	0	44	0	170917888	21	4678
2026-01-22 02:26:10.61	358.80	13.46	-30.4	-32.2	12.4	5.65e-04	0	44	0	176160768	21	4432
2026-01-22 02:26:13.61	358.36	13.66	-30.4	-32.2	12.4	5.87e-04	0	44	0	181403648	21	4424
2026-01-22 02:26:16.62	357.91	13.87	-30.6	-32.8	12.0	4.78e-04	0	44	0	187695104	21	4648
2026-01-22 02:26:19.63	357.46	14.08	-30.7	-33.2	11.7	6.26e-04	0	44	0	192937984	21	4787
2026-01-22 02:26:22.64	357.00	14.28	-30.7	-33.0	11.9	3.77e-04	0	44	0	199229440	21	4712
2026-01-22 02:26:25.65	356.53	14.49	-30.6	-32.8	12.1	2.94e-04	0	44	0	204472320	21	4625
2026-01-22 02:26:28.66	356.05	14.69	-30.5	-32.5	12.2	1.01e-03	0	44	0	209715200	21	4531
2026-01-22 02:26:31.67	355.57	14.90	-30.7	-33.1	11.8	1.21e-03	0	44	0	216006656	21	4743
2026-01-22 02:26:34.68	355.08	15.10	-30.8	-33.3	11.7	1.91e-03	0	44	0	221249536	21	4803
2026-01-22 02:26:37.69	354.58	15.31	-31.2	-34.1	10.8	2.13e-03	0	44	0	227540992	22	5033
2026-01-22 02:26:40.70	354.08	15.51	-31.1	-33.9	10.9	2.08e-03	0	44	0	232783872	22	4936
2026-01-22 02:26:43.72	353.57	15.72	-31.0	-33.5	11.2	9.79e-04	0	44	0	238026752	22	4799
2026-01-22 02:26:46.73	353.05	15.92	-31.0	-33.4	11.4	1.06e-03	0	44	0	244318208	22	4730
2026-01-22 02:26:49.74	352.53	16.12	-31.2	-33.9	11.0	1.89e-03	0	44	0	249561088	22	4953
2026-01-22 02:26:52.75	352.00	16.32	-31.0	-33.4	11.3	9.99e-04	0	44	0	254803968	22	4757
2026-01-22 02:26:55.75	351.46	16.52	-30.7	-33.0	12.0	3.65e-04	0	44	0	261095424	21	4691
2026-01-22 02:26:58.76	350.92	16.72	-31.4	-34.5	10.6	1.65e-03	0	44	0	266338304	22	5194
2026-01-22 02:27:01.76	350.36	16.92	-31.6	-34.8	10.0	5.69e-03	0	44	0	272629760	23	5216
2026-01-22 02:27:04.78	349.80	17.12	-31.5	-34.5	10.3	5.42e-03	0	44	0	277872640	23	5076
2026-01-22 02:27:07.77	349.24	17.31	-31.4	-34.2	10.6	3.83e-03	0	44	0	283115520	23	4928
2026-01-22 02:27:10.78	348.66	17.51	-31.3	-34.2	10.9	2.08e-03	0	44	0	289406976	22	5041
2026-01-22 02:27:13.78	348.08	17.70	-31.0	-33.4	11.5	8.91e-04	0	44	0	294649856	22	4715
2026-01-22 02:27:16.79	347.49	17.89	-30.7	-33.0	12.1	2.28e-04	0	44	0	299892736	21	4674
2026-01-22 02:27:19.81	346.89	18.08	-30.5	-32.5	12.3	3.34e-04	0	44	0	306184192	21	4530
2026-01-22 02:27:22.80	346.29	18.27	-30.1	-31.3	13.2	3.81e-05	0	44	0	311427072	21	4119
2026-01-22 02:27:25.81	345.67	18.45	-30.3	-32.3	12.9	2.28e-05	0	44	0	317718528	20	4528
2026-01-22 02:27:28.82	345.05	18.64	-30.5	-32.8	12.7	5.87e-05	0	44	0	322961408	20	4689
2026-01-22 02:27:31.82	344.43	18.82	-29.7	-30.6	14.0	2.20e-06	0	44	0	328204288	20	3992
2026-01-22 02:27:34.83	343.79	19.00	-29.6	-30.4	14.2	7.00e-07	0	44	0	334495744	20	3940
2026-01-22 02:27:37.84	343.15	19.17	-29.6	-30.5	14.0	1.50e-06	0	44	0	339738624	20	3972
2026-01-22 02:27:40.84	342.50	19.35	-29.5	-30.2	14.2	1.50e-06	0	44	0	346030080	20	3881
2026-01-22 02:27:43.85	341.84	19.52	-30.0	-31.4	13.5	5.30e-06	0	44	0	351272960	20	4243
2026-01-22 02:27:46.86	341.17	19.69	-29.8	-31.1	13.8	1.29e-05	0	44	0	356515840	20	4138
2026-01-22 02:27:49.88	340.49	19.85	-29.6	-30.3	14.2	0.00e+00	0	44	0	362807296	20	3912
2026-01-22 02:27:52.88	339.82	20.01	-29.8	-31.0	13.8	5.30e-06	0	44	0	368050176	20	4110
2026-01-22 02:27:55.89	339.13	20.17	-29.5	-30.1	14.4	7.00e-07	0	44	0	373293056	20	3851
2026-01-22 02:27:58.90	338.43	20.33	-29.4	-29.9	14.6	0.00e+00	0	44	0	379584512	20	3789
2026-01-22 02:28:01.91	337.73	20.48	-29.5	-30.6	14.5	0.00e+00	0	44	0	384827392	19	4067
2026-01-22 02:28:04.92	337.02	20.63	-29.1	-30.0	15.1	0.00e+00	0	44	0	391118848	18	3989
2026-01-22 02:28:07.93	336.30	20.78	-29.1	-30.1	15.1	0.00e+00	0	44	0	396361728	18	4009
2026-01-22 02:28:10.94	335.58	20.92	-29.4	-30.7	14.8	0.00e+00	0	44	0	401604608	18	4179
2026-01-22 02:28:13.95	334.85	21.05	-29.3	-30.4	15.0	0.00e+00	0	44	0	407896064	18	4098
2026-01-22 02:28:16.95	334.11	21.19	-29.4	-30.9	14.7	0.00e+00	0	44	0	413138944	18	4238
2026-01-22 02:28:19.96	333.37	21.31	-29.3	-30.0	15.0	0.00e+00	0	44	0	418381824	19	3889
2026-01-22 02:28:22.97	332.62	21.44	-28.9	-29.4	15.6	0.00e+00	0	44	0	424673280	18	3841
2026-01-22 02:28:25.98	331.87	21.56	-29.1	-29.9	15.3	0.00e+00	0	44	0	429916160	18	3977
2026-01-22 02:28:28.99	331.10	21.67	-28.8	-29.2	15.7	0.00e+00	0	44	0	436207616	18	3789
2026-01-22 02:28:32.00	330.34	21.78	-28.6	-29.3	15.9	0.00e+00	0	44	0	441450496	17	3894
2026-01-22 02:28:35.01	329.57	21.88	-29.2	-30.3	15.1	0.00e+00	0	44	0	446693376	18	4056
2026-01-22 02:28:38.01	328.79	21.98	-29.6	-30.7	14.5	1.50e-06	0	44	0	452984832	19	4078
2026-01-22 02:28:41.02	328.01	22.07	-29.9	-31.2	13.8	1.50e-06	0	44	0	458227712	20	4143
2026-01-22 02:28:44.02	327.23	22.16	-30.6	-32.6	12.6	9.46e-05	0	44	0	464519168	21	4505
2026-01-22 02:28:47.03	326.43	22.25	-30.3	-31.7	13.1	6.40e-05	0	44	0	469762048	21	4227
2026-01-22 02:28:50.03	325.64	22.32	-29.9	-31.2	13.8	8.30e-06	0	44	0	475004928	20	4153
2026-01-22 02:28:53.03	324.85	22.39	-30.2	-31.9	13.3	2.44e-05	0	44	0	481296384	20	4384
2026-01-22 02:28:56.04	324.04	22.46	-30.1	-31.7	13.4	1.52e-05	0	44	0	486539264	20	4312
2026-01-22 02:28:59.06	323.23	22.52	-30.3	-32.2	13.2	2.21e-05	0	44	0	491782144	20	4471
2026-01-22 02:29:02.07	322.43	22.57	-30.6	-32.4	12.7	9.30e-05	0	44	0	498073600	21	4449
2026-01-22 02:29:05.07	321.62	22.62	-30.4	-32.0	12.9	8.46e-05	0	44	0	503316480	21	4313
2026-01-22 02:29:08.10	320.80	22.66	-30.5	-32.2	12.8	4.19e-05	0	44	0	509607936	21	4400
2026-01-22 02:29:11.10	319.98	22.70	-31.0	-33.3	11.7	2.72e-04	0	44	0	514850816	22	4655
2026-01-22 02:29:14.12	319.16	22.73	-31.3	-34.2	10.9	1.43e-03	0	44	0	520093696	22	5030
2026-01-22 02:29:17.14	318.34	22.75	-31.0	-33.1	11.9	3.83e-04	0	44	0	526385152	22	4606
2026-01-22 02:29:20.15	317.52	22.77	-31.1	-33.5	11.5	4.95e-04	0	44	0	531628032	22	4763
2026-01-22 02:29:23.16	316.70	22.78	-31.2	-33.9	11.2	1.46e-03	0	44	0	536870912	22	4919
2026-01-22 02:29:26.17	315.88	22.78	-30.8	-32.7	12.1	3.02e-04	0	44	0	543162368	22	4473
2026-01-22 02:29:29.19	315.05	22.78	-30.5	-32.2	12.7	6.10e-05	0	44	0	548405248	21	4389
2026-01-22 02:29:32.19	314.24	22.77	-30.3	-31.8	13.0	5.11e-05	0	44	0	554696704	21	4253
2026-01-22 02:29:35.19	313.42	22.75	-30.5	-32.3	12.7	7.24e-05	0	44	0	559939584	21	4417
2026-01-22 02:29:38.21	312.60	22.73	-30.3	-31.8	12.9	3.58e-05	0	44	0	565182464	21	4256
2026-01-22 02:29:41.21	311.78	22.71	-30.3	-31.6	13.1	4.04e-05	0	44	0	571473920	21	4200
2026-01-22 02:29:44.22	310.96	22.67	-30.0	-31.0	13.6	7.60e-06	0	44	0	576716800	21	4009
2026-01-22 02:29:47.22	310.15	22.63	-29.6	-30.4	14.3	7.00e-07	0	44	0	583008256	20	3921
2026-01-22 02:29:50.24	309.33	22.59	-30.1	-31.6	13.5	6.80e-06	0	44	0	588251136	20	4290
2026-01-22 02:29:53.25	308.52	22.53	-29.9	-31.2	13.7	6.10e-06	0	44	0	593494016	20	4144
2026-01-22 02:29:56.24	307.72	22.48	-29.5	-30.1	14.5	7.00e-07	0	44	0	599785472	20	3846
2026-01-22 02:29:59.26	306.91	22.41	-29.3	-29.6	14.8	0.00e+00	0	44	0	605028352	20	3720
2026-01-22 02:30:02.26	306.12	22.34	-29.1	-29.5	15.2	0.00e+00	0	44	0	610271232	19	3770
2026-01-22 02:30:05.27	305.32	22.27	-29.0	-29.2	15.3	0.00e+00	0	44	0	616562688	19	3694
2026-01-22 02:30:08.28	304.53	22.19	-29.1	-29.4	15.2	0.00e+00	0	44	0	621805568	19	3743
2026-01-22 02:30:11.28	303.74	22.10	-29.3	-30.0	14.9	1.50e-06	0	44	0	628097024	19	3890
2026-01-22 02:30:14.29	302.96	22.01	-29.3	-29.9	15.0	0.00e+00	0	44	0	633339904	19	3874
2026-01-22 02:30:17.29	302.18	21.91	-28.9	-29.4	15.5	3.50e-05	0	44	0	638582784	18	3840
2026-01-22 02:30:20.30	301.40	21.81	-28.8	-29.3	15.6	0.00e+00	0	44	0	644874240	18	3798
2026-01-22 02:30:23.32	300.63	21.70	-29.5	-31.0	14.6	0.00e+00	0	44	0	650117120	18	4265
2026-01-22 02:30:26.33	299.87	21.59	-29.4	-30.2	14.7	1.50e-06	0	44	0	655360000	19	3951
2026-01-22 02:30:29.34	299.11	21.47	-29.2	-30.3	14.9	0.00e+00	0	44	0	661651456	18	4087
2026-01-22 02:30:32.35	298.36	21.34	-29.7	-31.1	14.2	2.20e-06	0	44	0	666894336	19	4220
2026-01-22 02:30:35.37	297.61	21.22	-30.0	-31.3	13.6	1.14e-05	0	44	0	673185792	20	4184
2026-01-22 02:30:38.39	296.87	21.09	-30.4	-32.6	12.8	6.48e-05	0	44	0	678428672	20	4617
2026-01-22 02:30:41.39	296.14	20.95	-30.3	-32.3	12.9	7.24e-05	0	44	0	683671552	20	4509
2026-01-22 02:30:44.40	295.41	20.81	-30.1	-31.6	13.3	1.67e-05	0	44	0	689963008	20	4314
2026-01-22 02:30:47.40	294.69	20.67	-30.1	-31.7	13.2	1.83e-05	0	44	0	695205888	20	4334
2026-01-22 02:30:50.41	293.98	20.52	-30.3	-32.4	12.8	5.95e-05	0	44	0	700448768	20	4578
2026-01-22 02:30:53.43	293.27	20.37	-30.2	-32.1	13.0	2.61e-04	0	44	0	706740224	20	4466
2026-01-22 02:30:56.46	292.56	20.21	-29.8	-31.4	13.9	6.40e-04	0	44	0	711983104	19	4312
2026-01-22 02:30:59.47	291.87	20.05	-29.8	-31.4	13.8	9.67e-04	0	44	0	718274560	19	4327
2026-01-22 02:31:02.47	291.19	19.89	-30.2	-32.0	13.1	9.51e-04	0	44	0	723517440	20	4431
2026-01-22 02:31:05.47	290.51	19.73	-30.6	-32.7	12.3	1.65e-03	0	44	0	728760320	21	4568
2026-01-22 02:31:08.47	289.85	19.56	-30.5	-32.6	12.3	1.37e-03	0	44	0	735051776	21	4543
2026-01-22 02:31:11.49	289.18	19.39	-30.6	-32.6	12.4	2.15e-04	0	44	0	740294656	21	4554
2026-01-22 02:31:14.49	288.53	19.21	-31.3	-34.5	10.6	2.59e-03	0	44	0	746586112	22	5181
2026-01-22 02:31:17.50	287.88	19.04	-31.3	-33.9	10.5	3.52e-03	0	44	0	751828992	23	4880
2026-01-22 02:31:20.50	287.24	18.86	-30.6	-32.2	12.2	7.19e-04	0	44	0	757071872	22	4322
2026-01-22 02:31:23.50	286.61	18.68	-29.7	-30.6	13.8	6.80e-06	0	44	0	763363328	20	4011
2026-01-22 02:31:26.51	285.99	18.49	-29.3	-30.2	14.3	1.94e-04	0	44	0	768606208	19	3995
2026-01-22 02:31:29.52	285.37	18.31	-29.5	-31.1	14.2	3.13e-04	0	44	0	773849088	18	4339
2026-01-22 02:31:32.52	284.76	18.12	-29.9	-31.8	13.5	7.60e-06	0	44	0	780140544	19	4460
2026-01-22 02:31:35.52	284.16	17.93	-29.7	-31.3	13.8	8.30e-06	0	44	0	785383424	19	4304
2026-01-22 02:31:38.53	283.56	17.74	-30.0	-31.5	13.2	2.05e-05	0	44	0	791674880	20	4298
2026-01-22 02:31:41.54	282.98	17.55	-30.3	-32.5	12.6	7.17e-05	0	44	0	796917760	20	4609
2026-01-22 02:31:44.56	282.40	17.35	-31.0	-33.4	11.2	2.94e-03	0	44	0	802160640	22	4772
2026-01-22 02:31:47.55	281.83	17.16	-30.6	-32.7	12.1	9.28e-04	0	44	0	808452096	21	4600
2026-01-22 02:31:50.55	281.26	16.96	-30.0	-31.7	13.1	6.56e-05	0	44	0	813694976	20	4356
2026-01-22 02:31:53.55	280.71	16.76	-29.8	-31.4	13.6	1.44e-05	0	44	0	818937856	19	4367
2026-01-22 02:31:56.55	280.16	16.56	-29.5	-30.9	13.9	8.30e-06	0	44	0	825229312	19	4190
2026-01-22 02:31:59.56	279.62	16.36	-29.7	-31.2	13.8	3.00e-06	0	44	0	830472192	19	4281
2026-01-22 02:32:02.58	279.08	16.16	-30.3	-32.5	12.5	1.03e-04	0	44	0	836763648	20	4646
2026-01-22 02:32:05.59	278.55	15.96	-30.4	-32.9	12.2	1.69e-04	0	44	0	842006528	20	4770
2026-01-22 02:32:08.60	278.03	15.75	-30.2	-32.2	12.7	7.40e-05	0	44	0	847249408	20	4529
2026-01-22 02:32:11.60	277.52	15.55	-30.2	-32.1	12.7	6.33e-05	0	44	0	853540864	20	4502
2026-01-22 02:32:14.62	277.01	15.35	-30.4	-32.8	12.2	1.27e-04	0	44	0	858783744	20	4763
2026-01-22 02:32:17.64	276.51	15.14	-30.2	-31.6	12.7	8.08e-05	0	44	0	864026624	21	4266
2026-01-22 02:32:20.64	276.02	14.94	-30.0	-31.0	13.1	3.96e-05	0	44	0	870318080	21	4051
2026-01-22 02:32:23.64	275.53	14.73	-29.7	-30.7	13.6	1.60e-05	0	44	0	875560960	20	4061
2026-01-22 02:32:26.65	275.05	14.52	-29.7	-31.3	13.6	1.22e-05	0	44	0	881852416	19	4327
2026-01-22 02:32:29.65	274.58	14.32	-28.7	-29.9	14.0	2.20e-06	0	44	0	887095296	19	4115
2026-01-22 02:32:32.66	274.12	14.11	-29.0	-30.0	13.8	1.54e-03	0	44	0	892338176	18	4026
2026-01-22 02:32:35.67	273.66	13.91	-29.0	-30.0	14.7	1.33e-03	0	44	0	898629632	18	4035
2026-01-22 02:32:38.69	273.20	13.70	-29.6	-30.9	13.8	6.80e-06	0	44	0	903872512	19	4209
2026-01-22 02:32:41.70	272.76	13.49	-30.0	-31.5	13.0	3.12e-05	0	44	0	909115392	20	4312
2026-01-22 02:32:44.70	272.32	13.29	-30.0	-31.7	12.9	4.42e-05	0	44	0	915406848	20	4382
2026-01-22 02:32:47.70	271.88	13.08	-29.7	-31.3	13.6	1.44e-05	0	44	0	920649728	19	4309
2026-01-22 02:32:50.71	271.46	12.87	-29.7	-31.2	13.6	9.10e-06	0	44	0	926941184	19	4285
2026-01-22 02:32:53.73	271.03	12.67	-29.7	-31.1	13.7	9.13e-04	0	44	0	932184064	19	4263
2026-01-22 02:32:56.73	270.62	12.46	-30.1	-31.8	12.8	3.66e-04	0	44	0	937426944	20	4414
2026-01-22 02:32:59.75	270.21	12.26	-30.3	-32.6	12.3	8.84e-04	0	44	0	943718400	20	4671
2026-01-22 02:33:02.76	269.80	12.05	-30.3	-32.5	12.3	2.71e-04	0	44	0	948961280	20	4632
2026-01-22 02:33:05.77	269.40	11.84	-30.1	-32.1	12.6	1.17e-04	0	44	0	954204160	20	4491
2026-01-22 02:33:08.78	269.01	11.64	-29.8	-31.7	13.2	3.35e-05	0	44	0	960495616	19	4453
2026-01-22 02:33:11.80	268.62	11.44	-29.4	-31.0	14.0	2.08e-03	0	44	0	965738496	18	4318
2026-01-22 02:33:14.80	268.24	11.23	-29.2	-30.5	14.3	2.15e-03	0	44	0	972029952	18	4172
2026-01-22 02:33:17.80	267.86	11.03	-29.8	-31.7	13.2	2.23e-03	0	44	0	977272832	19	4456
2026-01-22 02:33:20.81	267.49	10.83	-30.4	-32.8	12.0	2.45e-03	0	44	0	982515712	20	4758
2026-01-22 02:33:23.82	267.13	10.62	-30.4	-32.9	11.9	1.25e-03	0	44	0	988807168	20	4779
2026-01-22 02:33:26.83	266.76	10.42	-29.9	-31.5	12.8	3.84e-04	0	44	0	994050048	20	4311
2026-01-22 02:33:29.84	266.41	10.22	-29.9	-32.0	12.9	1.13e-04	0	44	0	1000341504	19	4563
2026-01-22 02:33:32.84	266.06	10.02	-30.0	-31.8	12.5	1.72e-03	0	44	0	1005584384	20	4434
2026-01-22 02:33:35.85	265.71	9.82	-30.0	-31.8	12.6	1.82e-03	0	44	0	1010827264	20	4419
2026-01-22 02:33:38.86	265.37	9.62	-30.2	-32.3	12.2	1.38e-03	0	44	0	1017118720	20	4617
2026-01-22 02:33:41.87	265.03	9.42	-30.4	-32.5	11.8	1.06e-03	0	44	0	1022361600	21	4555
2026-01-22 02:33:44.86	264.70	9.22	-30.8	-33.6	11.0	3.11e-03	0	44	0	1027604480	21	4973
2026-01-22 02:33:47.87	264.38	9.03	-30.5	-32.9	11.4	3.21e-03	0	44	0	1033895936	21	4709
2026-01-22 02:33:50.89	264.05	8.83	-30.5	-32.6	11.6	7.73e-04	0	45	0	1039138816	21	4626
2026-01-22 02:33:53.91	263.73	8.63	-30.6	-33.1	11.2	3.62e-03	0	44	0	1045430272	21	4793
2026-01-22 02:33:56.92	263.42	8.44	-30.7	-33.4	11.0	4.44e-03	0	44	0	1050673152	21	4911
2026-01-22 02:33:59.94	263.11	8.24	-31.0	-33.9	10.3	6.42e-03	0	44	0	1055916032	22	5055
2026-01-22 02:34:02.95	262.80	8.05	-31.1	-34.3	9.9	9.29e-03	0	44	0	1062207488	22	5218
2026-01-22 02:34:05.96	262.50	7.85	-30.9	-33.5	10.5	7.00e-03	0	45	0	1067450368	22	4886
2026-01-22 02:34:08.96	262.20	7.66	-30.6	-32.7	11.1	1.52e-03	0	44	0	1072693248	22	4566
2026-01-22 02:34:11.97	261.91	7.47	-30.4	-32.2	11.4	7.91e-04	0	44	0	1078984704	22	4392
2026-01-22 02:34:14.99	261.62	7.28	-30.5	-32.3	11.3	1.02e-03	0	45	0	1084227584	22	4456
2026-01-22 02:34:17.99	261.33	7.09	-30.7	-32.9	10.8	2.20e-03	0	44	0	1090519040	22	4680

#Closed at: 2026-01-22 02:34:20
#Recorded file [1090 MB]: D:/data/31010_260122_052436.dat