passes_logs/2026/01/22/R2M6_AANII_01/R2M6_AANII_01__20260122_001411_NOAA_21_JPSS-2_rec.log

#Pass ID: 20260122_001411_NOAA 21 (JPSS-2)
#Satellite: NOAA 21 (JPSS-2)
#Configuration: NOAA 21
#almurnet v.1.7.20240730
#Start time: 2026-01-22 00:14:12

#Version: 2.2.20231116
#Station: R2M6_AANII_01
#Location: 30.233357 lon 59.946436 lat
#TLE: 1 54234U 22150A   26020.93347024  .00000206  00000+0  11859-3 0  9994
#TLE: 2 54234  98.7506 321.7615 0000627 245.8100 114.3011 14.19536899165654

#Time	Az	El	Level	Level2	SNR	BER	BlckErr	Temp	State	Recorded	gain1	gain2
2026-01-22 00:14:12.97	18.67	7.13	-30.8	-36.6	4.5	1.42e+00	0	42	0	0	21	6958
2026-01-22 00:14:15.98	18.70	7.36	-30.9	-36.1	7.5	9.24e-02	0	42	0	3145728	21	6560
2026-01-22 00:14:18.99	18.73	7.59	-30.6	-35.0	8.4	5.23e-02	0	42	0	12582912	21	5942
2026-01-22 00:14:22.00	18.76	7.83	-30.4	-34.0	9.1	2.68e-02	0	42	0	22020096	21	5498
2026-01-22 00:14:25.02	18.79	8.07	-29.4	-32.6	11.2	1.99e-03	0	42	0	30408704	18	5232
2026-01-22 00:14:28.02	18.82	8.31	-28.6	-31.0	12.5	6.55e-04	0	42	0	40894464	17	4750
2026-01-22 00:14:31.03	18.85	8.56	-28.6	-31.1	12.5	6.58e-04	0	42	0	49283072	17	4793
2026-01-22 00:14:34.04	18.88	8.80	-28.4	-31.1	12.8	6.05e-04	0	42	0	58720256	16	4917
2026-01-22 00:14:37.05	18.91	9.05	-28.4	-30.7	12.8	6.28e-04	0	43	0	68157440	17	4661
2026-01-22 00:14:40.06	18.94	9.30	-28.2	-30.6	13.1	4.27e-05	0	43	0	77594624	16	4748
2026-01-22 00:14:43.06	18.97	9.55	-28.3	-30.8	13.0	5.93e-04	0	42	0	87031808	16	4816
2026-01-22 00:14:46.07	19.00	9.81	-28.1	-30.3	13.3	1.52e-05	0	43	0	96468992	16	4646
2026-01-22 00:14:49.08	19.03	10.07	-28.0	-30.1	13.5	5.29e-04	0	43	0	105906176	16	4581
2026-01-22 00:14:52.09	19.07	10.33	-27.9	-30.4	13.5	1.22e-05	0	43	0	115343360	15	4793
2026-01-22 00:14:55.11	19.10	10.60	-27.8	-30.2	13.6	6.80e-06	0	43	0	124780544	15	4738
2026-01-22 00:14:58.11	19.13	10.86	-27.8	-30.2	13.6	1.29e-05	0	43	0	134217728	15	4734
2026-01-22 00:15:01.12	19.17	11.13	-27.8	-30.2	13.7	9.10e-06	0	43	0	143654912	15	4710
2026-01-22 00:15:04.13	19.20	11.41	-27.8	-30.2	13.7	3.80e-06	0	43	0	153092096	15	4730
2026-01-22 00:15:07.13	19.24	11.68	-27.7	-29.8	13.9	3.00e-06	0	43	0	162529280	15	4597
2026-01-22 00:15:10.15	19.27	11.96	-27.6	-29.5	14.1	2.20e-06	0	43	0	171966464	15	4507
2026-01-22 00:15:13.16	19.31	12.25	-27.4	-29.5	14.4	0.00e+00	0	43	0	181403648	14	4625
2026-01-22 00:15:16.16	19.34	12.53	-27.2	-29.2	14.6	0.00e+00	0	43	0	190840832	14	4533
2026-01-22 00:15:19.16	19.38	12.82	-26.7	-28.6	14.7	0.00e+00	0	43	0	200278016	14	4459
2026-01-22 00:15:22.17	19.42	13.12	-27.2	-29.1	14.7	2.77e-04	0	43	0	209715200	14	4477
2026-01-22 00:15:25.19	19.45	13.41	-27.1	-29.0	14.8	0.00e+00	0	43	0	219152384	14	4465
2026-01-22 00:15:28.19	19.49	13.71	-27.1	-28.8	14.9	0.00e+00	0	43	0	228589568	14	4411
2026-01-22 00:15:31.21	19.53	14.02	-27.2	-29.1	14.7	2.27e-04	0	43	0	238026752	14	4493
2026-01-22 00:15:34.21	19.57	14.32	-27.2	-29.1	14.8	0.00e+00	0	43	0	247463936	14	4475
2026-01-22 00:15:37.22	19.61	14.64	-27.1	-29.0	14.8	1.62e-04	0	44	0	256901120	14	4464
2026-01-22 00:15:40.23	19.65	14.95	-27.1	-28.9	14.9	1.76e-04	0	43	0	266338304	14	4426
2026-01-22 00:15:43.25	19.69	15.27	-27.0	-28.7	15.0	1.72e-04	0	43	0	275775488	14	4361
2026-01-22 00:15:46.27	19.73	15.60	-27.1	-29.0	14.9	1.84e-04	0	44	0	285212672	14	4453
2026-01-22 00:15:49.27	19.77	15.93	-27.1	-29.0	14.9	1.73e-04	0	43	0	294649856	14	4444
2026-01-22 00:15:52.27	19.81	16.26	-27.2	-29.0	14.9	1.46e-04	0	44	0	304087040	14	4462
2026-01-22 00:15:55.28	19.86	16.60	-27.3	-29.2	14.8	0.00e+00	0	44	0	313524224	14	4526
2026-01-22 00:15:58.28	19.90	16.94	-27.4	-29.5	14.6	5.11e-05	0	44	0	322961408	14	4602
2026-01-22 00:16:01.29	19.94	17.29	-27.5	-29.7	14.5	0.00e+00	0	44	0	331350016	14	4660
2026-01-22 00:16:04.29	19.99	17.64	-27.3	-29.3	14.8	0.00e+00	0	44	0	340787200	14	4539
2026-01-22 00:16:07.29	20.04	18.00	-27.2	-29.1	14.9	0.00e+00	0	44	0	350224384	14	4475
2026-01-22 00:16:10.29	20.08	18.36	-27.1	-28.9	15.0	0.00e+00	0	44	0	359661568	14	4423
2026-01-22 00:16:13.30	20.13	18.73	-27.2	-29.0	15.0	7.40e-05	0	43	0	369098752	14	4445
2026-01-22 00:16:16.31	20.18	19.10	-27.2	-29.0	15.0	0.00e+00	0	44	0	378535936	14	4447
2026-01-22 00:16:19.32	20.23	19.48	-27.1	-28.7	15.2	6.62e-04	0	44	0	387973120	14	4375
2026-01-22 00:16:22.32	20.28	19.86	-27.0	-28.7	15.2	7.00e-07	0	44	0	397410304	14	4350
2026-01-22 00:16:25.33	20.33	20.26	-26.9	-28.4	15.4	0.00e+00	0	44	0	406847488	14	4272
2026-01-22 00:16:28.34	20.38	20.65	-26.8	-28.8	15.5	0.00e+00	0	44	0	416284672	13	4488
2026-01-22 00:16:31.35	20.44	21.06	-26.7	-28.4	15.6	0.00e+00	0	44	0	425721856	13	4394
2026-01-22 00:16:34.37	20.49	21.47	-26.6	-28.2	15.8	6.68e-04	0	44	0	435159040	13	4337
2026-01-22 00:16:37.37	20.55	21.89	-26.9	-28.8	15.5	0.00e+00	0	44	0	444596224	13	4493
2026-01-22 00:16:40.37	20.60	22.31	-26.8	-28.6	15.6	6.20e-04	0	44	0	454033408	13	4424
2026-01-22 00:16:43.38	20.66	22.74	-26.8	-28.6	15.6	0.00e+00	0	44	0	463470592	13	4442
2026-01-22 00:16:46.39	20.72	23.18	-26.2	-27.8	16.3	5.53e-04	0	44	0	472907776	12	4316
2026-01-22 00:16:49.40	20.78	23.63	-26.0	-27.4	16.5	5.07e-04	0	44	0	482344960	12	4224
2026-01-22 00:16:52.40	20.84	24.08	-26.0	-27.2	16.6	4.96e-04	0	44	0	491782144	12	4179
2026-01-22 00:16:55.41	20.91	24.55	-26.0	-27.4	16.6	5.11e-04	0	44	0	501219328	12	4209
2026-01-22 00:16:58.41	20.97	25.02	-26.1	-27.6	16.5	4.91e-04	0	44	0	510656512	12	4280
2026-01-22 00:17:01.42	21.04	25.50	-26.3	-28.1	16.2	4.84e-04	0	44	0	520093696	12	4397
2026-01-22 00:17:04.43	21.11	25.98	-26.6	-28.3	13.5	0.00e+00	0	44	0	529530880	13	4343
2026-01-22 00:17:07.46	21.18	26.49	-26.7	-28.4	15.8	3.23e-04	0	44	0	538968064	13	4386
2026-01-22 00:17:10.47	21.25	26.99	-26.9	-28.9	15.6	2.46e-04	0	44	0	548405248	13	4507
2026-01-22 00:17:13.48	21.32	27.51	-27.2	-29.0	15.2	1.79e-04	0	44	0	557842432	14	4434
2026-01-22 00:17:16.48	21.40	28.03	-27.3	-29.2	15.2	3.01e-03	0	44	0	567279616	14	4483
2026-01-22 00:17:19.49	21.48	28.57	-27.7	-29.7	14.6	2.78e-03	0	44	0	576716800	15	4519
2026-01-22 00:17:22.51	21.56	29.12	-27.5	-29.2	14.9	8.69e-05	0	44	0	585105408	15	4374
2026-01-22 00:17:25.52	21.64	29.68	-27.4	-29.5	15.1	2.50e-03	0	44	0	595591168	14	4569
2026-01-22 00:17:28.53	21.73	30.25	-27.2	-29.0	15.3	2.30e-03	0	44	0	603979776	14	4441
2026-01-22 00:17:31.52	21.81	30.83	-26.8	-28.7	15.8	1.91e-03	0	44	0	613416960	13	4446
2026-01-22 00:17:34.53	21.90	31.42	-26.7	-28.3	16.0	1.44e-03	0	44	0	622854144	13	4330
2026-01-22 00:17:37.54	22.00	32.02	-27.2	-29.1	15.3	9.97e-04	0	44	0	632291328	14	4453
2026-01-22 00:17:40.54	22.09	32.64	-27.5	-29.1	15.0	9.06e-04	0	44	0	641728512	15	4357
2026-01-22 00:17:43.55	22.19	33.27	-27.2	-29.0	15.4	0.00e+00	0	44	0	651165696	14	4440
2026-01-22 00:17:46.55	22.30	33.91	-27.4	-29.5	15.1	1.66e-03	0	44	0	660602880	14	4568
2026-01-22 00:17:49.56	22.41	34.57	-27.6	-29.5	14.9	0.00e+00	0	44	0	670040064	15	4456
2026-01-22 00:17:52.57	22.52	35.24	-27.9	-30.1	14.5	0.00e+00	0	44	0	679477248	15	4629
2026-01-22 00:17:55.58	22.63	35.93	-28.2	-30.1	14.4	1.50e-06	0	44	0	688914432	16	4521
2026-01-22 00:17:58.58	22.75	36.62	-28.5	-30.3	14.0	3.00e-06	0	44	0	698351616	17	4473
2026-01-22 00:18:01.58	22.88	37.34	-28.7	-31.0	13.6	6.80e-06	0	44	0	707788800	17	4682
2026-01-22 00:18:04.59	23.01	38.07	-28.7	-31.0	13.6	8.30e-06	0	44	0	717225984	17	4666
2026-01-22 00:18:07.60	23.14	38.82	-28.7	-30.9	13.7	4.50e-06	0	44	0	726663168	17	4641
2026-01-22 00:18:10.61	23.29	39.58	-28.4	-30.1	14.2	7.00e-07	0	44	0	736100352	17	4399
2026-01-22 00:18:13.64	23.43	40.37	-28.7	-30.8	13.8	2.20e-06	0	44	0	745537536	17	4624
2026-01-22 00:18:16.65	23.59	41.17	-29.0	-31.2	13.3	1.67e-05	0	44	0	754974720	18	4620
2026-01-22 00:18:19.66	23.75	41.99	-29.4	-32.1	12.7	8.62e-05	0	44	0	764411904	18	4925
2026-01-22 00:18:22.67	23.92	42.82	-29.8	-32.6	12.1	2.81e-04	0	44	0	773849088	19	4986
2026-01-22 00:18:25.68	24.10	43.68	-30.0	-32.6	11.8	4.43e-04	0	44	0	783286272	20	4866
2026-01-22 00:18:28.70	24.29	44.55	-30.1	-33.0	11.5	8.92e-04	0	44	0	792723456	20	5012
2026-01-22 00:18:31.72	24.49	45.45	-29.9	-32.5	11.8	5.46e-04	0	44	0	802160640	20	4845
2026-01-22 00:18:34.73	24.70	46.36	-29.9	-32.4	11.9	4.30e-04	0	44	0	811597824	20	4804
2026-01-22 00:18:37.74	24.92	47.30	-30.0	-32.6	11.8	5.41e-04	0	44	0	821035008	20	4871
2026-01-22 00:18:40.74	25.15	48.25	-29.2	-31.1	13.1	3.43e-05	0	44	0	830472192	19	4490
2026-01-22 00:18:43.76	25.40	49.23	-29.0	-30.5	13.5	1.83e-05	0	44	0	839909376	19	4310
2026-01-22 00:18:46.77	25.66	50.22	-28.7	-30.3	14.0	3.00e-06	0	44	0	849346560	18	4332
2026-01-22 00:18:49.78	25.94	51.24	-28.3	-29.8	14.4	7.00e-07	0	44	0	858783744	17	4293
2026-01-22 00:18:52.79	26.24	52.28	-28.3	-29.9	14.5	0.00e+00	0	44	0	868220928	17	4315
2026-01-22 00:18:55.79	26.56	53.34	-27.8	-29.3	15.1	0.00e+00	0	44	0	877658112	16	4259
2026-01-22 00:18:58.79	26.91	54.42	-27.5	-28.6	15.5	0.00e+00	0	44	0	886046720	16	4059
2026-01-22 00:19:01.80	27.28	55.53	-27.5	-28.6	15.5	0.00e+00	0	44	0	895483904	16	4074
2026-01-22 00:19:04.81	27.68	56.66	-27.8	-29.2	15.2	0.00e+00	0	44	0	904921088	16	4246
2026-01-22 00:19:07.82	28.12	57.81	-26.9	-27.7	16.2	0.00e+00	0	44	0	914358272	15	3941
2026-01-22 00:19:10.82	28.59	58.98	-26.8	-27.9	16.3	1.56e-04	0	44	0	923795456	14	4106
2026-01-22 00:19:13.84	29.11	60.17	-26.5	-27.3	16.7	8.01e-05	0	44	0	933232640	14	3954
2026-01-22 00:19:16.85	29.68	61.39	-26.2	-27.2	17.0	2.97e-05	0	44	0	942669824	13	4030
2026-01-22 00:19:19.87	30.30	62.63	-25.7	-26.7	17.5	0.00e+00	0	44	0	952107008	12	4021
2026-01-22 00:19:22.87	30.99	63.88	-25.7	-26.5	17.7	0.00e+00	0	44	0	961544192	12	3960
2026-01-22 00:19:25.87	31.76	65.14	-25.7	-26.6	17.6	1.07e-04	0	44	0	970981376	12	3991
2026-01-22 00:19:28.88	32.62	66.43	-26.0	-27.6	17.4	0.00e+00	0	44	0	980418560	11	4367
2026-01-22 00:19:31.88	33.59	67.73	-25.7	-27.2	17.7	0.00e+00	0	44	0	989855744	11	4239
2026-01-22 00:19:34.90	34.69	69.06	-25.9	-27.0	17.4	0.00e+00	0	44	0	999292928	12	4100
2026-01-22 00:19:37.91	35.95	70.39	-26.0	-27.6	17.4	0.00e+00	0	44	0	1008730112	11	4362
2026-01-22 00:19:40.90	37.40	71.72	-25.8	-27.3	17.6	4.38e-04	0	44	0	1018167296	11	4277
2026-01-22 00:19:43.91	39.10	73.06	-25.7	-27.1	17.7	0.00e+00	0	44	0	1027604480	11	4207
2026-01-22 00:19:46.91	41.10	74.39	-25.7	-27.1	17.8	0.00e+00	0	44	0	1037041664	11	4213
2026-01-22 00:19:49.91	43.49	75.72	-25.7	-27.1	17.8	0.00e+00	0	44	0	1046478848	11	4208
2026-01-22 00:19:52.93	46.40	77.04	-26.3	-27.8	16.9	0.00e+00	0	44	0	1055916032	12	4287
2026-01-22 00:19:55.93	49.95	78.33	-26.0	-27.3	17.3	0.00e+00	0	44	0	1065353216	12	4168
2026-01-22 00:19:58.94	54.41	79.57	-26.0	-27.2	17.4	0.00e+00	0	44	0	1074790400	12	4131
2026-01-22 00:20:01.94	60.04	80.75	-26.2	-27.7	17.2	0.00e+00	0	44	0	1084227584	12	4279
2026-01-22 00:20:04.95	67.25	81.81	-25.7	-26.5	17.8	0.00e+00	0	44	0	1093664768	12	3945
2026-01-22 00:20:07.95	76.43	82.72	-26.3	-27.8	17.1	0.00e+00	0	44	0	1103101952	12	4301
2026-01-22 00:20:10.96	87.89	83.39	-26.5	-27.8	16.9	0.00e+00	0	44	0	1111490560	13	4177
2026-01-22 00:20:13.96	101.25	83.75	-27.0	-28.8	16.4	0.00e+00	0	44	0	1120927744	13	4451
2026-01-22 00:20:16.97	115.45	83.75	-27.1	-28.5	16.3	0.00e+00	0	44	0	1130364928	14	4257
2026-01-22 00:20:19.98	128.83	83.38	-28.3	-30.2	14.9	0.00e+00	0	44	0	1139802112	16	4521
2026-01-22 00:20:23.00	140.28	82.70	-26.3	-26.9	17.1	0.00e+00	0	44	0	1149239296	14	3855
2026-01-22 00:20:26.01	149.44	81.78	-26.8	-28.0	16.5	0.00e+00	0	44	0	1158676480	14	4108
2026-01-22 00:20:29.02	156.61	80.71	-27.0	-28.3	16.4	0.00e+00	0	44	0	1168113664	14	4196
2026-01-22 00:20:32.03	162.22	79.53	-26.3	-27.4	17.1	0.00e+00	0	44	0	1177550848	13	4068
2026-01-22 00:20:35.03	166.63	78.29	-26.0	-27.2	17.5	0.00e+00	0	44	0	1186988032	12	4126
2026-01-22 00:20:38.04	170.18	77.00	-26.5	-27.8	16.8	0.00e+00	0	44	0	1196425216	13	4184
2026-01-22 00:20:41.05	173.07	75.68	-26.3	-27.8	17.1	0.00e+00	0	44	0	1205862400	12	4297
2026-01-22 00:20:44.06	175.45	74.34	-26.8	-28.0	16.4	0.00e+00	0	44	0	1215299584	14	4140
2026-01-22 00:20:47.06	177.44	73.00	-26.3	-27.4	17.1	6.10e-06	0	44	0	1224736768	13	4088
2026-01-22 00:20:50.07	179.13	71.66	-26.5	-27.9	16.8	0.00e+00	0	44	0	1234173952	13	4208
2026-01-22 00:20:53.07	180.57	70.32	-25.6	-26.4	17.9	4.50e-06	0	44	0	1243611136	12	3924
2026-01-22 00:20:56.08	181.83	68.99	-26.8	-28.5	16.5	3.00e-06	0	44	0	1253048320	13	4376
2026-01-22 00:20:59.10	182.93	67.67	-26.8	-28.5	16.5	0.00e+00	0	44	0	1262485504	13	4370
2026-01-22 00:21:02.12	183.90	66.35	-26.3	-27.3	16.9	2.20e-06	0	44	0	1271922688	13	4056
2026-01-22 00:21:05.12	184.75	65.07	-25.9	-26.4	17.5	0.00e+00	0	44	0	1281359872	13	3842
2026-01-22 00:21:08.12	185.52	63.79	-25.6	-26.4	17.7	0.00e+00	0	44	0	1290797056	12	3930
2026-01-22 00:21:11.12	186.20	62.54	-26.8	-28.4	16.5	0.00e+00	0	44	0	1300234240	13	4340
2026-01-22 00:21:14.12	186.82	61.31	-26.7	-27.8	16.5	0.00e+00	0	44	0	1309671424	14	4079
2026-01-22 00:21:17.13	187.39	60.09	-26.3	-27.4	17.0	0.00e+00	0	44	0	1319108608	13	4071
2026-01-22 00:21:20.14	187.90	58.90	-27.0	-28.5	16.2	0.00e+00	0	44	0	1328545792	14	4256
2026-01-22 00:21:23.15	188.38	57.72	-27.4	-28.8	15.8	0.00e+00	0	44	0	1337982976	15	4229
2026-01-22 00:21:26.16	188.81	56.57	-27.2	-28.8	16.0	0.00e+00	0	44	0	1347420160	14	4351
2026-01-22 00:21:29.15	189.21	55.44	-28.7	-30.8	14.2	0.00e+00	0	44	0	1356857344	17	4567
2026-01-22 00:21:32.16	189.58	54.33	-28.0	-29.2	15.1	0.00e+00	0	44	0	1365245952	17	4125
2026-01-22 00:21:35.16	189.92	53.25	-28.1	-29.3	15.1	0.00e+00	0	44	0	1374683136	17	4143
2026-01-22 00:21:38.17	190.24	52.18	-28.6	-30.4	14.3	0.00e+00	0	44	0	1385168896	17	4470
2026-01-22 00:21:41.18	190.54	51.14	-29.0	-30.9	13.8	3.80e-06	0	44	0	1393557504	18	4505
2026-01-22 00:21:44.19	190.82	50.12	-29.4	-32.1	13.1	3.12e-05	0	44	0	1402994688	18	4876
2026-01-22 00:21:47.19	191.08	49.12	-29.6	-32.1	12.9	7.55e-05	0	44	0	1412431872	19	4755
2026-01-22 00:21:50.21	191.33	48.14	-29.4	-32.0	13.2	1.98e-05	0	44	0	1421869056	18	4841
2026-01-22 00:21:53.21	191.56	47.19	-30.4	-33.5	11.5	7.98e-04	0	44	0	1431306240	20	5161
2026-01-22 00:21:56.20	191.78	46.26	-29.8	-32.0	12.4	1.67e-04	0	44	0	1440743424	20	4629
2026-01-22 00:21:59.22	191.99	45.34	-29.5	-31.6	13.0	3.35e-05	0	44	0	1450180608	19	4615
2026-01-22 00:22:02.23	192.19	44.44	-30.1	-32.9	11.9	5.03e-04	0	44	0	1459617792	20	4966
2026-01-22 00:22:05.24	192.37	43.56	-30.0	-32.6	12.0	2.90e-04	0	44	0	1469054976	20	4852
2026-01-22 00:22:08.24	192.55	42.71	-30.1	-32.8	11.9	3.57e-04	0	44	0	1478492160	20	4906
2026-01-22 00:22:11.24	192.72	41.87	-30.2	-33.2	11.6	9.20e-04	0	44	0	1487929344	20	5041
2026-01-22 00:22:14.24	192.88	41.06	-30.3	-33.3	11.5	1.12e-03	0	44	0	1497366528	20	5089
2026-01-22 00:22:17.24	193.03	40.26	-29.8	-32.6	12.4	1.54e-04	0	44	0	1506803712	19	4947
2026-01-22 00:22:20.25	193.18	39.47	-29.7	-32.2	12.6	1.16e-04	0	44	0	1516240896	19	4823
2026-01-22 00:22:23.26	193.32	38.70	-29.0	-30.9	13.7	6.10e-06	0	44	0	1525678080	18	4508
2026-01-22 00:22:26.26	193.46	37.96	-29.1	-31.3	13.4	9.90e-06	0	44	0	1535115264	18	4644
2026-01-22 00:22:29.26	193.58	37.22	-28.6	-30.0	14.2	1.50e-06	0	44	0	1544552448	18	4256
2026-01-22 00:22:32.27	193.71	36.50	-29.3	-31.8	13.2	2.05e-05	0	44	0	1553989632	18	4787
2026-01-22 00:22:35.28	193.83	35.80	-28.5	-30.3	14.3	1.50e-06	0	44	0	1563426816	17	4450
2026-01-22 00:22:38.30	193.94	35.11	-28.9	-31.3	13.7	9.90e-06	0	44	0	1572864000	17	4765
2026-01-22 00:22:41.31	194.05	34.44	-28.9	-31.3	13.1	2.20e-06	0	44	0	1582301184	17	4741
2026-01-22 00:22:44.33	194.16	33.77	-28.5	-30.8	14.3	7.00e-07	0	44	0	1591738368	16	4699
2026-01-22 00:22:47.34	194.26	33.13	-27.8	-29.7	15.0	3.30e-03	0	44	0	1601175552	15	4512
2026-01-22 00:22:50.34	194.36	32.50	-27.6	-29.2	15.2	0.00e+00	0	44	0	1610612736	15	4370
2026-01-22 00:22:53.35	194.46	31.88	-27.6	-29.3	15.1	3.71e-03	0	44	0	1619001344	15	4387
2026-01-22 00:22:56.37	194.55	31.27	-27.5	-29.1	15.2	2.24e-03	0	44	0	1629487104	15	4338
2026-01-22 00:22:59.39	194.64	30.67	-27.6	-29.2	15.2	3.49e-03	0	44	0	1637875712	15	4374
2026-01-22 00:23:02.40	194.73	30.09	-27.6	-29.4	15.1	3.86e-03	0	44	0	1647312896	15	4416
2026-01-22 00:23:05.41	194.81	29.52	-28.0	-30.2	14.6	3.97e-03	0	44	0	1656750080	15	4671
2026-01-22 00:23:08.41	194.89	28.96	-28.0	-29.8	14.7	3.52e-03	0	44	0	1666187264	16	4428
2026-01-22 00:23:11.41	194.97	28.41	-27.5	-29.0	15.2	3.90e-03	0	44	0	1675624448	15	4318
2026-01-22 00:23:14.42	195.05	27.88	-27.1	-28.7	15.7	4.05e-03	0	44	0	1685061632	14	4327
2026-01-22 00:23:17.43	195.12	27.35	-26.4	-27.8	16.4	3.68e-03	0	44	0	1694498816	13	4200
2026-01-22 00:23:20.44	195.19	26.83	-26.5	-27.9	16.4	1.60e-03	0	44	0	1703936000	13	4229
2026-01-22 00:23:23.44	195.26	26.32	-26.6	-28.0	16.3	3.91e-03	0	44	0	1713373184	13	4264
2026-01-22 00:23:26.45	195.33	25.82	-26.4	-28.3	16.4	0.00e+00	0	44	0	1722810368	12	4451
2026-01-22 00:23:29.47	195.40	25.33	-26.7	-28.4	16.0	3.89e-03	0	44	0	1732247552	13	4367
2026-01-22 00:23:32.48	195.46	24.85	-26.8	-28.6	15.9	0.00e+00	0	44	0	1741684736	13	4427
2026-01-22 00:23:35.49	195.53	24.38	-26.8	-28.7	15.9	0.00e+00	0	44	0	1751121920	13	4448
2026-01-22 00:23:38.50	195.59	23.91	-27.3	-29.1	15.3	0.00e+00	0	44	0	1760559104	14	4467
2026-01-22 00:23:41.51	195.65	23.46	-27.0	-28.5	15.7	0.00e+00	0	44	0	1769996288	14	4286
2026-01-22 00:23:44.53	195.71	23.01	-27.1	-28.8	15.5	0.00e+00	0	44	0	1779433472	14	4365
2026-01-22 00:23:47.54	195.77	22.57	-27.2	-28.9	15.4	0.00e+00	0	44	0	1788870656	14	4409
2026-01-22 00:23:50.54	195.82	22.13	-27.1	-28.8	15.4	0.00e+00	0	44	0	1798307840	14	4383
2026-01-22 00:23:53.54	195.88	21.71	-27.1	-28.7	15.4	0.00e+00	0	44	0	1807745024	14	4357
2026-01-22 00:23:56.55	195.93	21.29	-27.0	-28.6	15.5	2.53e-04	0	44	0	1817182208	14	4310
2026-01-22 00:23:59.55	195.98	20.88	-27.0	-28.7	15.5	0.00e+00	0	44	0	1826619392	14	4336
2026-01-22 00:24:02.56	196.04	20.47	-27.1	-28.7	15.4	2.14e-04	0	44	0	1836056576	14	4359
2026-01-22 00:24:05.58	196.09	20.07	-27.2	-29.1	15.2	1.62e-04	0	44	0	1845493760	14	4465
2026-01-22 00:24:08.58	196.14	19.68	-27.7	-29.6	14.7	2.32e-04	0	44	0	1854930944	15	4493
2026-01-22 00:24:11.59	196.18	19.30	-27.8	-29.9	14.5	1.76e-04	0	44	0	1864368128	15	4597
2026-01-22 00:24:14.60	196.23	18.91	-27.8	-29.9	14.5	1.14e-05	0	44	0	1873805312	15	4581
2026-01-22 00:24:17.61	196.28	18.54	-27.4	-29.0	14.9	3.05e-05	0	44	0	1883242496	15	4334
2026-01-22 00:24:20.62	196.32	18.17	-27.3	-28.8	15.1	0.00e+00	0	44	0	1892679680	15	4264
2026-01-22 00:24:23.63	196.37	17.81	-27.3	-28.7	15.1	0.00e+00	0	44	0	1902116864	15	4241
2026-01-22 00:24:26.63	196.41	17.45	-27.4	-29.5	14.9	0.00e+00	0	44	0	1911554048	14	4590
2026-01-22 00:24:29.64	196.46	17.10	-27.5	-29.7	14.8	0.00e+00	0	44	0	1919942656	14	4646
2026-01-22 00:24:32.65	196.50	16.75	-27.5	-29.8	13.9	7.00e-07	0	44	0	1929379840	14	4666
2026-01-22 00:24:35.67	196.54	16.40	-27.6	-29.4	14.6	0.00e+00	0	44	0	1938817024	15	4441
2026-01-22 00:24:38.68	196.58	16.06	-27.5	-29.7	14.7	0.00e+00	0	44	0	1948254208	14	4650
2026-01-22 00:24:41.69	196.62	15.73	-27.5	-29.7	14.7	2.60e-03	0	44	0	1957691392	14	4651
2026-01-22 00:24:44.70	196.66	15.40	-27.5	-29.2	14.7	0.00e+00	0	44	0	1967128576	15	4396
2026-01-22 00:24:47.71	196.70	15.07	-27.5	-29.6	14.8	3.06e-03	0	44	0	1976565760	14	4629
2026-01-22 00:24:50.73	196.74	14.75	-27.7	-29.8	14.4	1.50e-06	0	44	0	1986002944	15	4573
2026-01-22 00:24:53.74	196.77	14.44	-27.5	-29.3	14.6	3.32e-03	0	44	0	1995440128	15	4426
2026-01-22 00:24:56.73	196.81	14.12	-27.6	-29.6	14.5	3.67e-03	0	44	0	2004877312	15	4504
2026-01-22 00:24:59.74	196.85	13.82	-27.6	-29.4	14.5	3.73e-03	0	44	0	2014314496	15	4450
2026-01-22 00:25:02.76	196.88	13.51	-27.6	-29.5	14.5	3.37e-03	0	44	0	2023751680	15	4471
2026-01-22 00:25:05.77	196.92	13.21	-27.4	-29.6	14.7	7.00e-07	0	44	0	2033188864	14	4626
2026-01-22 00:25:08.77	196.95	12.91	-27.6	-29.4	14.5	3.77e-03	0	44	0	2042626048	15	4465
2026-01-22 00:25:11.79	196.99	12.62	-27.7	-29.7	14.3	7.00e-07	0	44	0	2052063232	15	4543
2026-01-22 00:25:14.80	197.02	12.33	-27.7	-29.8	14.2	3.80e-03	0	44	0	2061500416	15	4585
2026-01-22 00:25:17.82	197.06	12.04	-27.8	-29.9	14.2	3.00e-06	0	44	0	2070937600	15	4610
2026-01-22 00:25:20.83	197.09	11.76	-27.7	-29.9	14.2	1.50e-06	0	44	0	2080374784	15	4603
2026-01-22 00:25:23.85	197.12	11.47	-27.6	-29.5	14.4	7.00e-07	0	44	0	2089811968	15	4486
2026-01-22 00:25:26.86	197.15	11.20	-27.7	-29.7	14.3	7.00e-07	0	44	0	2099249152	15	4536
2026-01-22 00:25:29.87	197.18	10.92	-27.8	-30.0	14.0	3.00e-06	0	44	0	2108686336	15	4650
2026-01-22 00:25:32.88	197.22	10.65	-27.9	-30.3	13.9	5.30e-06	0	44	0	2118123520	15	4726
2026-01-22 00:25:35.88	197.25	10.38	-28.2	-30.4	13.7	6.80e-06	0	44	0	2127560704	16	4636
2026-01-22 00:25:38.89	197.28	10.12	-28.2	-30.5	13.6	9.10e-06	0	44	0	2136997888	16	4682
2026-01-22 00:25:41.91	197.31	9.86	-28.4	-30.9	13.3	1.22e-05	0	44	0	2146435072	16	4804
2026-01-22 00:25:44.92	197.34	9.60	-28.6	-30.8	13.0	4.73e-05	0	44	0	2155872256	17	4676
2026-01-22 00:25:47.93	197.37	9.34	-28.6	-31.0	12.9	4.50e-05	0	44	0	2165309440	17	4719
2026-01-22 00:25:50.94	197.39	9.09	-28.5	-30.7	13.1	3.12e-05	0	44	0	2174746624	17	4645
2026-01-22 00:25:53.94	197.42	8.83	-28.6	-31.0	12.9	4.65e-05	0	44	0	2184183808	17	4735
2026-01-22 00:25:56.95	197.45	8.59	-28.8	-31.6	12.5	9.00e-05	0	44	0	2193620992	17	4926
2026-01-22 00:25:59.96	197.48	8.34	-29.1	-31.7	12.1	2.02e-04	0	44	0	2203058176	18	4855
2026-01-22 00:26:02.96	197.51	8.10	-29.2	-32.1	11.8	4.24e-04	0	44	0	2212495360	18	5001
2026-01-22 00:26:05.97	197.53	7.85	-29.5	-32.4	11.2	1.26e-03	0	44	0	2220883968	19	5028
2026-01-22 00:26:08.97	197.56	7.61	-29.8	-33.1	10.8	2.82e-03	0	45	0	2230321152	19	5292
2026-01-22 00:26:11.97	197.59	7.38	-30.1	-33.6	10.0	8.54e-03	0	44	0	2239758336	20	5393
2026-01-22 00:26:14.98	197.61	7.14	-30.0	-33.7	10.3	4.14e-03	0	44	0	2249195520	19	5513

#Closed at: 2026-01-22 00:26:17
#Recorded file [2250 MB]: D:/data/31010_260122_031414.dat