passes_logs/2026/01/22/R2M6_AANII_01/R2M6_AANII_01__20260122_091729_NOAA_20_JPSS-1_rec.log

#Pass ID: 20260122_091729_NOAA 20 (JPSS-1)
#Satellite: NOAA 20 (JPSS-1)
#Configuration: NOAA 20
#almurnet v.1.7.20240730
#Start time: 2026-01-22 09:17:30

#Version: 2.2.20231116
#Station: R2M6_AANII_01
#Location: 30.233357 lon 59.946436 lat
#TLE: 1 43013U 17073A   26021.46221703  .00000173  00000+0  10299-3 0  9999
#TLE: 2 43013  98.7644 322.3335 0001238  29.7597 330.3649 14.19538314423652

#Time	Az	El	Level	Level2	SNR	BER	BlckErr	Temp	State	Recorded	gain1	gain2
2026-01-22 09:17:30.33	128.34	7.03	-31.3	-36.7	5.1	1.26e+00	0	41	0	0	24	6708
2026-01-22 09:17:33.33	128.19	7.25	-31.2	-36.6	8.6	4.29e-02	0	41	0	1048576	23	6676
2026-01-22 09:17:36.35	128.03	7.48	-31.1	-35.9	9.2	2.14e-02	0	41	0	7340032	23	6285
2026-01-22 09:17:39.37	127.87	7.71	-30.8	-35.4	10.0	6.84e-03	0	41	0	12582912	22	6121
2026-01-22 09:17:42.37	127.71	7.93	-31.0	-36.1	9.5	1.43e-02	0	41	0	17825792	22	6481
2026-01-22 09:17:45.39	127.55	8.16	-31.0	-36.0	9.6	1.23e-02	0	42	0	24117248	22	6421
2026-01-22 09:17:48.39	127.39	8.40	-30.9	-35.6	9.9	9.88e-03	0	42	0	29360128	22	6163
2026-01-22 09:17:51.40	127.22	8.63	-30.7	-34.7	10.7	2.91e-03	0	41	0	35651584	22	5722
2026-01-22 09:17:54.41	127.05	8.87	-30.9	-35.4	10.2	7.08e-03	0	42	0	40894464	22	6061
2026-01-22 09:17:57.42	126.87	9.10	-30.4	-33.8	11.4	1.20e-03	0	42	0	46137344	22	5313
2026-01-22 09:18:00.44	126.70	9.34	-30.2	-33.7	11.8	7.29e-04	0	42	0	52428800	21	5410
2026-01-22 09:18:03.45	126.52	9.59	-30.0	-33.2	12.2	2.25e-04	0	42	0	57671680	21	5150
2026-01-22 09:18:06.47	126.33	9.83	-30.2	-33.5	12.0	3.75e-04	0	42	0	63963136	21	5303
2026-01-22 09:18:09.48	126.15	10.08	-30.3	-33.9	11.8	7.06e-04	0	42	0	69206016	21	5444
2026-01-22 09:18:12.49	125.96	10.33	-30.4	-34.2	11.5	6.73e-04	0	42	0	74448896	21	5607
2026-01-22 09:18:15.50	125.77	10.58	-30.2	-33.7	11.9	4.91e-04	0	42	0	80740352	21	5355
2026-01-22 09:18:18.50	125.57	10.83	-30.3	-33.9	11.6	6.68e-04	0	42	0	85983232	21	5489
2026-01-22 09:18:21.51	125.37	11.08	-30.2	-33.6	11.7	7.16e-04	0	42	0	91226112	21	5369
2026-01-22 09:18:24.51	125.17	11.34	-30.0	-33.1	12.2	2.13e-04	0	42	0	97517568	21	5112
2026-01-22 09:18:27.52	124.96	11.60	-29.9	-32.6	12.5	1.71e-04	0	42	0	102760448	21	4946
2026-01-22 09:18:30.53	124.75	11.86	-30.1	-33.1	12.4	1.54e-04	0	42	0	109051904	21	5103
2026-01-22 09:18:33.53	124.53	12.13	-30.1	-33.0	12.5	1.40e-04	0	43	0	114294784	21	5059
2026-01-22 09:18:36.54	124.31	12.39	-30.1	-33.0	12.6	1.08e-04	0	43	0	119537664	21	5056
2026-01-22 09:18:39.55	124.09	12.66	-30.2	-33.4	12.3	1.21e-04	0	42	0	125829120	21	5223
2026-01-22 09:18:42.56	123.86	12.94	-30.2	-33.5	12.3	2.20e-04	0	43	0	131072000	21	5257
2026-01-22 09:18:45.57	123.63	13.21	-30.0	-32.8	12.8	7.32e-05	0	43	0	136314880	21	4984
2026-01-22 09:18:48.58	123.40	13.49	-30.0	-32.8	12.9	3.97e-04	0	43	0	142606336	21	4953
2026-01-22 09:18:51.57	123.16	13.77	-30.1	-33.1	12.7	6.17e-05	0	43	0	147849216	21	5084
2026-01-22 09:18:54.59	122.91	14.05	-30.1	-33.1	12.7	7.55e-05	0	43	0	154140672	21	5071
2026-01-22 09:18:57.61	122.66	14.34	-30.2	-33.2	12.7	2.77e-04	0	43	0	159383552	21	5086
2026-01-22 09:19:00.63	122.40	14.63	-30.1	-33.1	12.7	6.25e-05	0	43	0	164626432	21	5070
2026-01-22 09:19:03.63	122.14	14.92	-30.2	-33.2	12.7	7.47e-05	0	43	0	170917888	21	5075
2026-01-22 09:19:06.65	121.87	15.21	-30.2	-33.1	12.8	2.76e-04	0	43	0	176160768	21	5051
2026-01-22 09:19:09.65	121.60	15.51	-30.1	-33.0	12.9	6.02e-05	0	43	0	182452224	21	4993
2026-01-22 09:19:12.67	121.32	15.81	-30.0	-32.7	13.1	3.12e-05	0	43	0	187695104	21	4915
2026-01-22 09:19:15.68	121.04	16.11	-30.1	-33.0	12.9	4.27e-05	0	43	0	192937984	21	5021
2026-01-22 09:19:18.68	120.75	16.42	-30.1	-32.9	13.0	3.91e-04	0	43	0	199229440	21	5001
2026-01-22 09:19:21.69	120.46	16.73	-29.9	-32.5	13.3	1.75e-05	0	43	0	204472320	21	4821
2026-01-22 09:19:24.69	120.16	17.04	-30.0	-32.8	13.2	2.82e-05	0	43	0	209715200	21	4937
2026-01-22 09:19:27.70	119.85	17.35	-30.1	-33.1	12.9	4.27e-04	0	43	0	216006656	21	5049
2026-01-22 09:19:30.70	119.53	17.67	-30.1	-32.8	13.1	2.21e-05	0	43	0	221249536	21	4950
2026-01-22 09:19:33.71	119.21	17.99	-30.1	-32.8	13.2	3.96e-05	0	43	0	227540992	21	4948
2026-01-22 09:19:36.72	118.88	18.32	-29.9	-32.4	13.5	5.29e-04	0	43	0	232783872	21	4788
2026-01-22 09:19:39.73	118.55	18.65	-29.8	-32.1	13.6	1.06e-05	0	43	0	238026752	21	4690
2026-01-22 09:19:42.74	118.20	18.98	-29.9	-32.8	13.5	1.14e-05	0	43	0	244318208	20	5056
2026-01-22 09:19:45.76	117.85	19.32	-30.0	-33.1	13.4	1.90e-05	0	43	0	249561088	20	5144
2026-01-22 09:19:48.77	117.49	19.65	-30.0	-33.2	13.3	2.21e-05	0	43	0	254803968	20	5208
2026-01-22 09:19:51.79	117.12	20.00	-29.9	-33.0	13.4	1.52e-05	0	43	0	261095424	20	5132
2026-01-22 09:19:54.79	116.75	20.34	-30.1	-33.4	13.2	1.29e-05	0	43	0	266338304	20	5273
2026-01-22 09:19:57.80	116.36	20.69	-30.0	-33.3	13.2	1.52e-04	0	43	0	272629760	20	5253
2026-01-22 09:20:00.81	115.97	21.04	-30.1	-33.4	13.3	2.13e-05	0	43	0	277872640	20	5232
2026-01-22 09:20:03.83	115.56	21.40	-30.1	-33.3	13.3	1.98e-05	0	43	0	283115520	20	5208
2026-01-22 09:20:06.84	115.15	21.76	-30.2	-33.5	13.2	7.46e-04	0	43	0	289406976	20	5275
2026-01-22 09:20:09.85	114.73	22.12	-30.3	-33.7	13.1	3.28e-05	0	43	0	294649856	20	5366
2026-01-22 09:20:12.86	114.29	22.49	-30.2	-33.6	13.3	2.59e-05	0	43	0	300941312	20	5290
2026-01-22 09:20:15.86	113.85	22.86	-30.3	-33.9	13.1	6.48e-05	0	43	0	306184192	20	5429
2026-01-22 09:20:18.86	113.40	23.23	-30.4	-33.9	13.1	2.44e-05	0	43	0	311427072	20	5422
2026-01-22 09:20:21.88	112.93	23.61	-30.2	-33.6	13.4	1.29e-05	0	43	0	317718528	20	5277
2026-01-22 09:20:24.89	112.46	23.99	-30.3	-33.7	13.2	2.89e-05	0	43	0	322961408	20	5344
2026-01-22 09:20:27.90	111.97	24.37	-30.3	-33.7	13.2	2.82e-05	0	43	0	329252864	20	5335
2026-01-22 09:20:30.89	111.47	24.76	-30.3	-33.8	13.2	2.51e-05	0	43	0	334495744	20	5361
2026-01-22 09:20:33.90	110.95	25.15	-30.3	-33.8	13.2	2.44e-05	0	43	0	339738624	20	5383
2026-01-22 09:20:36.91	110.43	25.54	-30.3	-33.8	13.2	4.85e-04	0	43	0	346030080	20	5361
2026-01-22 09:20:39.92	109.89	25.94	-30.5	-34.2	13.0	2.74e-05	0	43	0	351272960	20	5508
2026-01-22 09:20:42.94	109.33	26.34	-30.8	-34.6	12.3	1.78e-04	0	43	0	356515840	21	5589
2026-01-22 09:20:45.94	108.76	26.74	-30.6	-34.1	12.8	7.47e-04	0	43	0	362807296	21	5352
2026-01-22 09:20:48.95	108.18	27.15	-30.9	-34.8	12.3	1.15e-04	0	43	0	368050176	21	5643
2026-01-22 09:20:51.95	107.58	27.55	-31.1	-35.0	11.8	4.84e-04	0	43	0	374341632	22	5639
2026-01-22 09:20:54.96	106.97	27.96	-31.4	-35.7	11.3	1.27e-03	0	43	0	379584512	22	5956
2026-01-22 09:20:57.96	106.34	28.37	-31.7	-36.4	10.4	3.17e-03	0	43	0	384827392	23	6191
2026-01-22 09:21:00.97	105.69	28.79	-31.8	-36.8	10.2	7.42e-03	0	43	0	391118848	23	6360
2026-01-22 09:21:03.98	105.03	29.21	-32.0	-37.3	9.8	8.68e-03	0	43	0	396361728	23	6645
2026-01-22 09:21:06.98	104.35	29.62	-31.6	-35.6	10.8	3.24e-03	0	43	0	401604608	24	5680
2026-01-22 09:21:09.99	103.65	30.04	-31.6	-35.5	10.9	2.15e-03	0	43	0	407896064	24	5602
2026-01-22 09:21:13.00	102.93	30.47	-31.8	-36.0	10.5	3.83e-03	0	43	0	413138944	24	5871
2026-01-22 09:21:16.02	102.19	30.89	-31.8	-36.0	10.6	2.84e-03	0	43	0	419430400	24	5845
2026-01-22 09:21:19.02	101.44	31.31	-31.9	-36.3	10.3	4.03e-03	0	44	0	424673280	24	6006
2026-01-22 09:21:22.02	100.66	31.73	-32.1	-37.1	9.7	8.55e-03	0	43	0	429916160	24	6392
2026-01-22 09:21:25.03	99.87	32.15	-32.1	-37.0	9.8	1.13e-02	0	43	0	436207616	24	6343
2026-01-22 09:21:28.05	99.04	32.58	-31.7	-35.8	10.7	3.74e-03	0	43	0	441450496	24	5761
2026-01-22 09:21:31.06	98.20	33.00	-31.4	-34.6	11.6	7.54e-04	0	43	0	446693376	24	5207
2026-01-22 09:21:34.07	97.34	33.42	-31.2	-34.7	11.9	4.03e-04	0	43	0	452984832	23	5343
2026-01-22 09:21:37.08	96.45	33.84	-31.1	-34.3	12.2	3.53e-04	0	43	0	458227712	23	5184
2026-01-22 09:21:40.10	95.54	34.26	-31.3	-35.0	11.7	4.08e-04	0	43	0	464519168	23	5483
2026-01-22 09:21:43.10	94.61	34.67	-31.5	-35.4	11.4	1.31e-03	0	43	0	469762048	23	5641
2026-01-22 09:21:46.11	93.66	35.08	-31.4	-35.0	11.7	5.78e-04	0	43	0	475004928	23	5503
2026-01-22 09:21:49.13	92.67	35.48	-31.6	-35.7	11.1	1.31e-03	0	43	0	481296384	23	5806
2026-01-22 09:21:52.13	91.67	35.88	-31.6	-35.8	11.2	1.55e-03	0	43	0	486539264	23	5848
2026-01-22 09:21:55.13	90.64	36.28	-31.9	-36.7	10.5	3.14e-03	0	44	0	491782144	23	6267
2026-01-22 09:21:58.13	89.59	36.66	-32.0	-37.0	10.3	4.61e-03	0	44	0	498073600	23	6424
2026-01-22 09:22:01.15	88.51	37.05	-32.0	-36.5	10.3	6.20e-03	0	43	0	503316480	24	6034
2026-01-22 09:22:04.17	87.40	37.42	-31.9	-36.2	10.6	4.12e-03	0	44	0	509607936	24	5898
2026-01-22 09:22:07.17	86.27	37.79	-31.8	-35.9	10.7	3.72e-03	0	44	0	514850816	24	5776
2026-01-22 09:22:10.18	85.11	38.15	-31.5	-34.8	11.6	8.31e-04	0	44	0	520093696	24	5297
2026-01-22 09:22:13.19	83.93	38.49	-31.4	-34.7	11.6	8.42e-04	0	44	0	526385152	24	5257
2026-01-22 09:22:16.20	82.73	38.83	-31.3	-34.8	11.9	4.03e-04	0	43	0	531628032	23	5399
2026-01-22 09:22:19.22	81.49	39.16	-31.3	-34.8	11.9	5.32e-04	0	43	0	537919488	23	5392
2026-01-22 09:22:22.22	80.24	39.47	-31.3	-34.9	11.9	4.88e-04	0	43	0	543162368	23	5422
2026-01-22 09:22:25.23	78.96	39.77	-30.8	-33.8	13.0	4.95e-05	0	44	0	548405248	22	5101
2026-01-22 09:22:28.24	77.65	40.05	-30.6	-33.3	13.3	9.10e-06	0	43	0	554696704	22	4917
2026-01-22 09:22:31.25	76.33	40.32	-30.4	-32.8	13.6	9.10e-06	0	43	0	559939584	22	4727
2026-01-22 09:22:34.26	74.98	40.58	-30.1	-32.3	14.3	2.05e-05	0	44	0	565182464	21	4645
2026-01-22 09:22:37.26	73.61	40.81	-30.1	-32.4	14.2	1.50e-06	0	43	0	571473920	21	4701
2026-01-22 09:22:40.26	72.23	41.03	-30.2	-32.6	14.1	4.50e-06	0	43	0	576716800	21	4735
2026-01-22 09:22:43.27	70.82	41.24	-29.8	-31.7	14.7	8.31e-05	0	44	0	583008256	21	4450
2026-01-22 09:22:46.27	69.41	41.42	-29.7	-31.9	14.8	0.00e+00	0	43	0	588251136	20	4623
2026-01-22 09:22:49.28	67.97	41.58	-29.7	-31.8	14.9	0.00e+00	0	43	0	593494016	20	4586
2026-01-22 09:22:52.30	66.51	41.73	-29.7	-31.8	14.9	3.00e-06	0	43	0	599785472	20	4608
2026-01-22 09:22:55.31	65.05	41.85	-29.8	-32.0	14.8	4.50e-06	0	43	0	605028352	20	4670
2026-01-22 09:22:58.32	63.57	41.95	-30.0	-32.6	14.4	1.50e-06	0	43	0	610271232	20	4884
2026-01-22 09:23:01.32	62.09	42.03	-30.1	-32.9	14.2	0.00e+00	0	43	0	616562688	20	4957
2026-01-22 09:23:04.33	60.61	42.09	-30.6	-33.8	13.4	6.10e-06	0	43	0	621805568	21	5184
2026-01-22 09:23:07.34	59.11	42.13	-30.6	-33.8	13.3	2.36e-05	0	44	0	628097024	21	5197
2026-01-22 09:23:10.35	57.62	42.15	-30.9	-34.5	12.9	4.19e-05	0	44	0	633339904	21	5445
2026-01-22 09:23:13.36	56.12	42.14	-31.1	-34.5	12.5	1.07e-04	0	43	0	638582784	22	5365
2026-01-22 09:23:16.37	54.62	42.11	-31.5	-35.3	11.7	5.45e-04	0	43	0	644874240	23	5581
2026-01-22 09:23:19.38	53.13	42.06	-31.5	-35.5	11.5	6.61e-04	0	43	0	650117120	23	5654
2026-01-22 09:23:22.40	51.64	41.99	-31.8	-36.4	10.9	1.90e-03	0	43	0	656408576	23	6102
2026-01-22 09:23:25.42	50.16	41.90	-32.4	-37.8	9.4	1.26e-02	0	44	0	661651456	24	6711
2026-01-22 09:23:28.43	48.69	41.78	-32.3	-37.6	9.6	1.49e-02	0	43	0	666894336	24	6631
2026-01-22 09:23:31.43	47.24	41.65	-32.5	-38.0	8.8	2.81e-02	0	43	0	673185792	25	6781
2026-01-22 09:23:34.44	45.80	41.49	-32.1	-36.4	10.1	9.88e-03	0	43	0	678428672	25	5870
2026-01-22 09:23:37.44	44.38	41.32	-31.7	-35.4	11.2	1.53e-03	0	43	0	683671552	24	5523
2026-01-22 09:23:40.45	42.96	41.13	-31.1	-34.2	12.4	2.19e-04	0	44	0	689963008	23	5143
2026-01-22 09:23:43.46	41.57	40.91	-30.9	-33.5	12.8	1.04e-04	0	44	0	695205888	23	4883
2026-01-22 09:23:46.47	40.20	40.68	-30.1	-32.5	14.2	3.00e-06	0	44	0	701497344	21	4724
2026-01-22 09:23:49.48	38.84	40.44	-30.1	-32.3	14.3	0.00e+00	0	43	0	706740224	21	4645
2026-01-22 09:23:52.48	37.51	40.18	-29.5	-31.4	15.2	0.00e+00	0	44	0	711983104	20	4463
2026-01-22 09:23:55.50	36.20	39.90	-29.2	-31.0	15.7	0.00e+00	0	43	0	718274560	19	4440
2026-01-22 09:23:58.52	34.90	39.60	-29.2	-31.0	15.7	0.00e+00	0	44	0	723517440	19	4457
2026-01-22 09:24:01.53	33.64	39.30	-29.0	-30.6	16.0	0.00e+00	0	44	0	728760320	19	4319
2026-01-22 09:24:04.54	32.40	38.98	-29.0	-30.6	15.9	0.00e+00	0	44	0	735051776	19	4331
2026-01-22 09:24:07.55	31.19	38.65	-29.3	-31.2	15.5	0.00e+00	0	44	0	740294656	19	4522
2026-01-22 09:24:10.55	30.00	38.31	-29.2	-31.1	15.7	0.00e+00	0	44	0	746586112	19	4469
2026-01-22 09:24:13.57	28.83	37.96	-29.5	-31.8	15.3	0.00e+00	0	44	0	751828992	19	4691
2026-01-22 09:24:16.58	27.69	37.59	-29.5	-31.8	15.3	0.00e+00	0	44	0	757071872	19	4691
2026-01-22 09:24:19.60	26.57	37.22	-29.6	-32.2	15.0	0.00e+00	0	44	0	763363328	19	4836
2026-01-22 09:24:22.60	25.49	36.85	-29.7	-32.5	14.7	0.00e+00	0	44	0	768606208	19	4960
2026-01-22 09:24:25.61	24.43	36.46	-29.9	-32.5	14.4	7.00e-07	0	44	0	774897664	20	4838
2026-01-22 09:24:28.62	23.39	36.07	-30.2	-33.2	13.9	3.00e-06	0	44	0	780140544	20	5073
2026-01-22 09:24:31.63	22.38	35.67	-30.3	-33.4	13.7	0.00e+00	0	44	0	785383424	20	5169
2026-01-22 09:24:34.65	21.38	35.27	-30.7	-34.1	13.0	2.51e-05	0	43	0	791674880	21	5342
2026-01-22 09:24:37.66	20.42	34.86	-30.8	-34.4	12.8	5.56e-05	0	44	0	796917760	21	5450
2026-01-22 09:24:40.66	19.48	34.46	-31.0	-34.4	12.5	1.37e-04	0	44	0	802160640	22	5314
2026-01-22 09:24:43.67	18.57	34.04	-31.5	-35.5	11.4	8.08e-04	0	44	0	808452096	23	5681
2026-01-22 09:24:46.68	17.68	33.63	-31.8	-36.6	10.5	5.33e-03	0	44	0	813694976	23	6208
2026-01-22 09:24:49.69	16.81	33.21	-31.8	-36.4	10.6	4.57e-03	0	44	0	819986432	23	6138
2026-01-22 09:24:52.70	15.96	32.79	-31.9	-36.7	10.3	3.64e-03	0	44	0	825229312	23	6296
2026-01-22 09:24:55.71	15.13	32.37	-32.2	-37.5	9.4	1.40e-02	0	44	0	830472192	24	6598
2026-01-22 09:24:58.73	14.33	31.95	-32.1	-36.9	9.8	1.30e-02	0	44	0	836763648	24	6315
2026-01-22 09:25:01.73	13.55	31.53	-31.7	-35.7	10.7	4.27e-03	0	44	0	842006528	24	5696
2026-01-22 09:25:04.75	12.78	31.11	-31.9	-36.2	10.3	3.79e-03	0	44	0	848297984	24	5970
2026-01-22 09:25:07.76	12.04	30.69	-31.8	-36.0	10.4	4.51e-03	0	43	0	853540864	24	5866
2026-01-22 09:25:10.77	11.31	30.27	-31.8	-36.2	10.3	5.01e-03	0	44	0	858783744	24	5956
2026-01-22 09:25:13.78	10.61	29.85	-31.6	-35.4	10.8	2.79e-03	0	44	0	865075200	24	5572
2026-01-22 09:25:16.78	9.93	29.43	-31.4	-34.7	11.3	1.04e-03	0	44	0	870318080	24	5292
2026-01-22 09:25:19.79	9.26	29.02	-31.2	-34.7	11.7	7.68e-04	0	44	0	875560960	23	5393
2026-01-22 09:25:22.80	8.61	28.60	-31.3	-34.9	11.5	1.44e-03	0	44	0	881852416	23	5486
2026-01-22 09:25:25.80	7.97	28.19	-30.9	-33.8	12.3	1.69e-04	0	43	0	887095296	23	5041
2026-01-22 09:25:28.81	7.35	27.78	-30.9	-34.3	12.3	1.46e-04	0	43	0	893386752	22	5328
2026-01-22 09:25:31.81	6.75	27.38	-30.6	-33.4	12.9	3.89e-05	0	44	0	898629632	22	4963
2026-01-22 09:25:34.82	6.17	26.97	-30.5	-33.1	13.1	2.89e-05	0	44	0	903872512	22	4871
2026-01-22 09:25:37.83	5.59	26.57	-30.3	-32.7	13.3	9.90e-06	0	44	0	910163968	22	4740
2026-01-22 09:25:40.84	5.04	26.17	-30.5	-33.2	13.0	5.03e-05	0	44	0	915406848	22	4896
2026-01-22 09:25:43.85	4.49	25.77	-30.7	-33.8	12.6	1.09e-04	0	44	0	920649728	22	5124
2026-01-22 09:25:46.86	3.96	25.38	-30.8	-34.1	12.3	8.85e-05	0	44	0	926941184	22	5243
2026-01-22 09:25:49.88	3.44	24.99	-30.8	-34.0	12.4	1.97e-04	0	44	0	932184064	22	5202
2026-01-22 09:25:52.88	2.94	24.60	-30.7	-33.9	12.4	1.37e-04	0	44	0	938475520	22	5191
2026-01-22 09:25:55.90	2.45	24.22	-30.5	-33.3	12.8	7.01e-05	0	43	0	943718400	22	4973
2026-01-22 09:25:58.91	1.97	23.84	-30.4	-33.0	13.0	2.97e-05	0	44	0	948961280	22	4837
2026-01-22 09:26:01.92	1.50	23.46	-30.3	-33.1	13.2	1.75e-05	0	44	0	955252736	21	4999
2026-01-22 09:26:04.92	1.05	23.09	-30.5	-33.7	12.8	2.51e-05	0	44	0	960495616	21	5227
2026-01-22 09:26:07.94	0.60	22.72	-30.6	-34.0	12.6	1.01e-04	0	44	0	966787072	21	5325
2026-01-22 09:26:10.95	0.16	22.35	-30.7	-34.4	12.3	1.44e-04	0	44	0	972029952	21	5504
2026-01-22 09:26:13.95	359.74	21.99	-30.7	-34.3	12.4	2.17e-04	0	43	0	977272832	21	5486
2026-01-22 09:26:16.96	359.33	21.63	-30.7	-34.3	12.3	1.54e-04	0	44	0	983564288	21	5476
2026-01-22 09:26:19.96	358.92	21.28	-30.3	-33.3	13.0	6.63e-05	0	44	0	988807168	21	5087
2026-01-22 09:26:22.97	358.53	20.92	-30.3	-33.4	12.9	5.34e-05	0	44	0	994050048	21	5122
2026-01-22 09:26:25.98	358.14	20.57	-30.6	-34.2	12.4	1.53e-04	0	44	0	1000341504	21	5447
2026-01-22 09:26:28.99	357.76	20.23	-30.4	-33.6	12.8	5.87e-05	0	43	0	1005584384	21	5198
2026-01-22 09:26:32.00	357.39	19.89	-30.4	-33.7	12.7	5.95e-05	0	44	0	1011875840	21	5240
2026-01-22 09:26:35.00	357.03	19.55	-30.3	-33.3	12.9	6.02e-05	0	44	0	1017118720	21	5100
2026-01-22 09:26:38.01	356.68	19.21	-30.4	-33.6	12.7	5.64e-05	0	44	0	1022361600	21	5194
2026-01-22 09:26:41.02	356.34	18.88	-30.3	-33.2	13.0	2.97e-05	0	43	0	1028653056	21	5072
2026-01-22 09:26:44.03	356.00	18.55	-30.4	-33.7	12.6	1.32e-04	0	44	0	1033895936	21	5249
2026-01-22 09:26:47.05	355.67	18.23	-30.5	-33.8	12.5	1.07e-04	0	44	0	1039138816	21	5317
2026-01-22 09:26:50.06	355.35	17.90	-30.5	-34.0	12.4	1.51e-04	0	44	0	1045430272	21	5370
2026-01-22 09:26:53.07	355.03	17.58	-30.4	-33.6	12.7	2.78e-04	0	44	0	1050673152	21	5203
2026-01-22 09:26:56.09	354.72	17.27	-30.4	-33.6	12.6	1.11e-04	0	44	0	1056964608	21	5217
2026-01-22 09:26:59.10	354.42	16.96	-30.5	-33.8	12.4	1.52e-04	0	44	0	1062207488	21	5318
2026-01-22 09:27:02.11	354.12	16.65	-30.4	-33.8	12.5	3.83e-04	0	44	0	1067450368	21	5297
2026-01-22 09:27:05.12	353.83	16.34	-30.4	-33.7	12.5	4.07e-04	0	44	0	1073741824	21	5281
2026-01-22 09:27:08.12	353.55	16.04	-30.6	-34.2	12.1	2.42e-04	0	44	0	1078984704	21	5481
2026-01-22 09:27:11.12	353.28	15.74	-30.7	-34.6	11.8	7.60e-04	0	44	0	1084227584	21	5638
2026-01-22 09:27:14.12	353.00	15.44	-30.6	-34.4	12.0	1.09e-03	0	44	0	1090519040	21	5577
2026-01-22 09:27:17.13	352.74	15.15	-30.5	-34.1	12.1	4.32e-04	0	44	0	1095761920	21	5456
2026-01-22 09:27:20.15	352.48	14.85	-30.5	-34.1	12.1	3.99e-04	0	44	0	1102053376	21	5451
2026-01-22 09:27:23.15	352.22	14.57	-30.6	-34.5	11.8	1.18e-03	0	44	0	1107296256	21	5619
2026-01-22 09:27:26.15	351.97	14.28	-30.8	-34.9	11.5	6.23e-04	0	44	0	1112539136	21	5806
2026-01-22 09:27:29.16	351.73	14.00	-30.8	-35.0	11.4	8.83e-04	0	44	0	1118830592	21	5846
2026-01-22 09:27:32.17	351.49	13.72	-30.9	-35.4	11.1	1.98e-03	0	44	0	1124073472	21	6059
2026-01-22 09:27:35.18	351.25	13.44	-30.6	-34.6	11.6	8.44e-04	0	44	0	1130364928	21	5684
2026-01-22 09:27:38.20	351.02	13.17	-30.7	-34.7	11.5	1.14e-03	0	44	0	1135607808	21	5755
2026-01-22 09:27:41.21	350.79	12.89	-30.6	-34.6	11.6	1.45e-03	0	44	0	1140850688	21	5679
2026-01-22 09:27:44.22	350.57	12.62	-30.5	-34.4	11.8	1.31e-03	0	43	0	1147142144	21	5603
2026-01-22 09:27:47.23	350.35	12.36	-30.7	-34.8	11.4	9.43e-04	0	44	0	1152385024	21	5798
2026-01-22 09:27:50.25	350.13	12.09	-30.8	-35.1	11.2	1.51e-03	0	44	0	1157627904	21	5922
2026-01-22 09:27:53.27	349.92	11.83	-30.9	-35.5	11.0	2.50e-03	0	44	0	1163919360	21	6090
2026-01-22 09:27:56.27	349.72	11.57	-31.1	-35.7	10.3	3.49e-03	0	44	0	1169162240	22	6141
2026-01-22 09:27:59.28	349.51	11.31	-31.1	-35.9	10.3	5.00e-03	0	44	0	1175453696	22	6202
2026-01-22 09:28:02.29	349.32	11.05	-31.0	-35.3	10.7	3.64e-03	0	44	0	1180696576	22	5929
2026-01-22 09:28:05.29	349.12	10.80	-30.9	-35.2	10.7	3.74e-03	0	44	0	1185939456	22	5861
2026-01-22 09:28:08.31	348.93	10.55	-30.9	-34.9	10.9	2.86e-03	0	44	0	1192230912	22	5756
2026-01-22 09:28:11.31	348.74	10.30	-31.0	-35.3	10.6	4.23e-03	0	44	0	1197473792	22	5907
2026-01-22 09:28:14.31	348.56	10.06	-31.0	-35.3	10.5	4.60e-03	0	44	0	1202716672	22	5934
2026-01-22 09:28:17.32	348.37	9.81	-30.9	-35.3	10.5	4.19e-03	0	44	0	1209008128	22	5947
2026-01-22 09:28:20.33	348.20	9.57	-30.9	-35.2	10.6	4.15e-03	0	44	0	1214251008	22	5901
2026-01-22 09:28:23.35	348.02	9.33	-31.0	-35.4	10.4	5.63e-03	0	44	0	1220542464	22	6012
2026-01-22 09:28:26.36	347.85	9.09	-30.9	-35.3	10.4	5.08e-03	0	44	0	1225785344	22	5961
2026-01-22 09:28:29.37	347.68	8.86	-31.0	-35.6	10.2	6.78e-03	0	44	0	1231028224	22	6087
2026-01-22 09:28:32.38	347.51	8.62	-31.1	-35.8	10.0	8.55e-03	0	44	0	1237319680	22	6234
2026-01-22 09:28:35.38	347.35	8.39	-31.1	-35.9	9.9	9.79e-03	0	44	0	1242562560	22	6258
2026-01-22 09:28:38.37	347.19	8.16	-31.1	-36.1	9.7	1.15e-02	0	44	0	1248854016	22	6414
2026-01-22 09:28:41.39	347.03	7.93	-30.9	-35.5	10.1	7.24e-03	0	44	0	1254096896	22	6072
2026-01-22 09:28:44.40	346.88	7.71	-30.9	-35.5	10.1	6.97e-03	0	44	0	1259339776	22	6106
2026-01-22 09:28:47.40	346.72	7.48	-31.1	-36.1	9.6	1.25e-02	0	44	0	1265631232	22	6426
2026-01-22 09:28:50.42	346.57	7.26	-31.1	-36.4	9.3	1.82e-02	0	44	0	1270874112	22	6582
2026-01-22 09:28:53.42	346.42	7.04	-33.1	-47.1	3.8	1.49e+00	0	44	104	1275068416	26	17952

#Closed at: 2026-01-22 09:28:56
#Recorded file [1275 MB]: D:/data/31010_260122_121732.dat