passes_logs/2026/01/22/R2M6_AANII_01/R2M6_AANII_01__20260122_121914_SUOMI_NPP_rec.log

#Pass ID: 20260122_121914_SUOMI NPP
#Satellite: SUOMI NPP
#Configuration: NPP
#almurnet v.1.7.20240730
#Start time: 2026-01-22 12:19:15

#Version: 2.2.20231116
#Station: R2M6_AANII_01
#Location: 30.233357 lon 59.946436 lat
#TLE: 1 37849U 11061A   26021.51818991  .00000201  00000+0  11636-3 0  9995
#TLE: 2 37849  98.7819 323.5108 0002300  52.3548 307.7836 14.19527793737637

#Time	Az	El	Level	Level2	SNR	BER	BlckErr	Temp	State	Recorded	gain1	gain2
2026-01-22 12:19:15.26	224.80	7.07	-31.2	-34.8	5.2	1.19e+00	0	41	0	0	23	5456
2026-01-22 12:19:18.25	225.14	7.24	-31.6	-36.1	7.3	1.17e-01	0	41	0	1048576	24	6038
2026-01-22 12:19:21.26	225.48	7.41	-31.4	-34.8	8.5	5.10e-02	0	42	0	7340032	24	5333
2026-01-22 12:19:24.28	225.83	7.58	-31.2	-34.7	9.0	2.90e-02	0	42	0	12582912	23	5338
2026-01-22 12:19:27.30	226.18	7.75	-30.6	-32.9	10.7	4.33e-03	0	42	0	17825792	22	4690
2026-01-22 12:19:30.30	226.54	7.93	-30.7	-33.2	10.6	2.46e-03	0	42	0	24117248	22	4789
2026-01-22 12:19:33.31	226.89	8.10	-30.7	-33.3	10.5	4.43e-03	0	42	0	29360128	22	4808
2026-01-22 12:19:36.32	227.26	8.27	-30.6	-32.9	10.8	2.10e-03	0	42	0	35651584	22	4667
2026-01-22 12:19:39.32	227.62	8.44	-30.4	-32.3	11.3	1.10e-03	0	42	0	40894464	22	4437
2026-01-22 12:19:42.33	227.99	8.61	-30.3	-32.3	11.7	5.15e-04	0	42	0	46137344	21	4522
2026-01-22 12:19:45.34	228.37	8.79	-30.3	-32.5	11.6	9.19e-04	0	42	0	52428800	21	4592
2026-01-22 12:19:48.35	228.75	8.96	-30.2	-31.9	12.0	3.03e-04	0	42	0	57671680	21	4390
2026-01-22 12:19:51.35	229.13	9.13	-30.2	-31.9	12.0	3.90e-04	0	43	0	62914560	21	4403
2026-01-22 12:19:54.35	229.52	9.30	-30.1	-31.8	12.0	2.36e-04	0	43	0	69206016	21	4361
2026-01-22 12:19:57.36	229.91	9.48	-30.3	-32.2	11.8	4.78e-04	0	42	0	74448896	21	4470
2026-01-22 12:20:00.37	230.31	9.65	-30.2	-32.0	11.9	4.88e-04	0	42	0	80740352	21	4434
2026-01-22 12:20:03.37	230.71	9.82	-30.4	-32.4	11.7	6.38e-04	0	43	0	85983232	21	4545
2026-01-22 12:20:06.36	231.11	9.99	-30.3	-32.2	11.8	3.52e-04	0	43	0	91226112	21	4484
2026-01-22 12:20:09.37	231.52	10.16	-30.4	-32.6	11.5	8.50e-04	0	43	0	97517568	21	4626
2026-01-22 12:20:12.38	231.94	10.34	-30.5	-32.7	11.5	5.87e-04	0	43	0	102760448	21	4658
2026-01-22 12:20:15.40	232.36	10.51	-30.6	-33.0	11.3	1.22e-03	0	43	0	108003328	21	4757
2026-01-22 12:20:18.41	232.79	10.68	-30.2	-31.9	12.1	2.91e-04	0	43	0	114294784	21	4365
2026-01-22 12:20:21.42	233.22	10.85	-30.3	-32.1	12.0	2.11e-04	0	43	0	119537664	21	4444
2026-01-22 12:20:24.42	233.65	11.03	-30.2	-31.9	12.2	1.63e-04	0	43	0	125829120	21	4350
2026-01-22 12:20:27.44	234.09	11.20	-30.1	-31.6	12.3	2.10e-04	0	43	0	131072000	21	4279
2026-01-22 12:20:30.45	234.54	11.37	-30.0	-31.2	12.7	7.01e-05	0	43	0	136314880	21	4138
2026-01-22 12:20:33.46	234.99	11.54	-30.1	-31.4	12.5	9.53e-05	0	43	0	142606336	21	4210
2026-01-22 12:20:36.47	235.44	11.71	-30.0	-31.3	12.6	1.04e-04	0	43	0	147849216	21	4157
2026-01-22 12:20:39.47	235.90	11.88	-30.0	-31.3	12.7	1.01e-04	0	43	0	154140672	21	4162
2026-01-22 12:20:42.48	236.37	12.05	-30.3	-32.0	12.1	2.17e-04	0	43	0	159383552	21	4405
2026-01-22 12:20:45.48	236.84	12.22	-30.4	-32.3	11.9	3.44e-04	0	43	0	164626432	21	4510
2026-01-22 12:20:48.50	237.32	12.39	-30.3	-32.0	12.2	2.59e-04	0	43	0	170917888	21	4387
2026-01-22 12:20:51.51	237.80	12.56	-30.1	-31.4	12.6	9.84e-05	0	43	0	176160768	21	4179
2026-01-22 12:20:54.52	238.28	12.72	-30.2	-31.7	12.4	1.15e-04	0	43	0	181403648	21	4296
2026-01-22 12:20:57.52	238.78	12.89	-30.0	-31.2	12.7	1.11e-04	0	43	0	187695104	21	4138
2026-01-22 12:21:00.52	239.27	13.05	-29.7	-30.9	13.3	2.05e-05	0	43	0	192937984	20	4110
2026-01-22 12:21:03.53	239.77	13.22	-29.8	-31.1	13.3	2.82e-05	0	43	0	199229440	20	4172
2026-01-22 12:21:06.55	240.28	13.38	-29.8	-31.1	13.2	1.98e-05	0	43	0	204472320	20	4174
2026-01-22 12:21:09.56	240.80	13.55	-29.9	-31.5	13.0	4.80e-05	0	43	0	209715200	20	4301
2026-01-22 12:21:12.57	241.32	13.71	-29.8	-31.2	13.2	3.20e-05	0	43	0	216006656	20	4193
2026-01-22 12:21:15.59	241.84	13.87	-29.8	-31.0	13.3	1.83e-05	0	43	0	221249536	20	4140
2026-01-22 12:21:18.61	242.38	14.03	-29.8	-31.0	13.3	8.30e-06	0	43	0	226492416	20	4155
2026-01-22 12:21:21.62	242.91	14.19	-29.8	-31.1	13.3	1.44e-05	0	44	0	232783872	20	4167
2026-01-22 12:21:24.63	243.45	14.34	-29.9	-31.4	13.1	2.82e-05	0	43	0	238026752	20	4256
2026-01-22 12:21:27.63	244.00	14.50	-30.0	-31.7	12.9	3.35e-05	0	43	0	244318208	20	4347
2026-01-22 12:21:30.63	244.55	14.65	-30.0	-31.7	12.9	4.95e-05	0	43	0	249561088	20	4370
2026-01-22 12:21:33.65	245.11	14.81	-29.9	-31.2	13.2	1.29e-05	0	43	0	254803968	20	4193
2026-01-22 12:21:36.66	245.67	14.96	-30.0	-31.5	13.1	1.83e-05	0	43	0	261095424	20	4288
2026-01-22 12:21:39.67	246.24	15.11	-30.2	-32.3	12.5	1.16e-04	0	43	0	266338304	20	4544
2026-01-22 12:21:42.67	246.82	15.25	-30.3	-32.3	12.5	8.77e-05	0	43	0	272629760	20	4566
2026-01-22 12:21:45.69	247.40	15.40	-30.3	-32.3	12.5	1.08e-04	0	44	0	277872640	20	4544
2026-01-22 12:21:48.69	247.98	15.54	-30.5	-32.9	12.1	2.27e-04	0	43	0	283115520	20	4779
2026-01-22 12:21:51.70	248.57	15.68	-30.5	-32.4	12.0	4.68e-04	0	43	0	289406976	21	4514
2026-01-22 12:21:54.73	249.17	15.83	-30.4	-32.1	12.4	1.30e-04	0	44	0	294649856	21	4394
2026-01-22 12:21:57.74	249.77	15.96	-30.4	-32.1	12.4	1.81e-04	0	44	0	299892736	21	4380
2026-01-22 12:22:00.75	250.38	16.10	-30.4	-32.1	12.4	8.85e-05	0	44	0	306184192	21	4395
2026-01-22 12:22:03.76	250.99	16.23	-30.3	-32.5	11.7	1.35e-02	0	43	0	311427072	21	4601
2026-01-22 12:22:06.77	251.61	16.36	-30.3	-32.1	12.1	5.51e-03	0	44	0	317718528	21	4431
2026-01-22 12:22:09.77	252.23	16.49	-30.4	-32.5	11.9	3.51e-03	0	44	0	322961408	21	4550
2026-01-22 12:22:12.79	252.86	16.62	-30.5	-32.9	11.5	8.33e-03	0	44	0	328204288	21	4712
2026-01-22 12:22:15.80	253.50	16.74	-30.3	-32.5	11.7	1.43e-02	0	44	0	334495744	21	4601
2026-01-22 12:22:18.80	254.13	16.86	-30.2	-32.0	12.1	1.38e-02	0	44	0	339738624	21	4413
2026-01-22 12:22:21.81	254.78	16.98	-30.3	-32.1	12.1	1.09e-02	0	44	0	346030080	21	4416
2026-01-22 12:22:24.81	255.42	17.09	-30.1	-31.3	13.0	5.59e-04	0	44	0	351272960	21	4123
2026-01-22 12:22:27.82	256.07	17.20	-30.4	-32.0	12.5	1.14e-04	0	44	0	356515840	21	4362
2026-01-22 12:22:30.83	256.73	17.31	-30.6	-32.8	12.0	3.84e-04	0	44	0	362807296	21	4631
2026-01-22 12:22:33.84	257.39	17.41	-29.5	-31.9	12.4	1.96e-02	0	44	0	368050176	19	4731
2026-01-22 12:22:36.85	258.06	17.52	-30.0	-31.7	12.5	1.82e-02	0	44	0	373293056	20	4367
2026-01-22 12:22:39.84	258.72	17.61	-30.4	-32.0	12.4	3.17e-04	0	44	0	379584512	21	4366
2026-01-22 12:22:42.85	259.40	17.71	-29.9	-31.0	12.6	1.18e-02	0	44	0	384827392	21	4100
2026-01-22 12:22:45.86	260.08	17.80	-29.5	-30.9	12.8	1.88e-02	0	44	0	391118848	20	4219
2026-01-22 12:22:48.86	260.76	17.89	-29.8	-30.9	13.6	1.06e-05	0	44	0	396361728	20	4100
2026-01-22 12:22:51.87	261.44	17.97	-29.7	-30.8	13.7	3.80e-06	0	44	0	401604608	20	4058
2026-01-22 12:22:54.88	262.13	18.05	-30.1	-31.7	13.1	2.67e-05	0	44	0	407896064	20	4334
2026-01-22 12:22:57.89	262.83	18.13	-30.0	-31.5	13.2	4.34e-05	0	44	0	413138944	20	4283
2026-01-22 12:23:00.90	263.52	18.20	-29.9	-31.3	13.4	8.30e-06	0	44	0	418381824	20	4218
2026-01-22 12:23:03.92	264.22	18.27	-29.4	-29.9	14.2	2.20e-06	0	44	0	424673280	20	3821
2026-01-22 12:23:06.93	264.93	18.34	-29.5	-30.0	14.2	7.00e-07	0	44	0	429916160	20	3835
2026-01-22 12:23:09.93	265.63	18.40	-29.8	-30.9	13.7	6.80e-06	0	44	0	436207616	20	4086
2026-01-22 12:23:12.94	266.34	18.46	-29.3	-29.6	14.5	7.00e-07	0	43	0	441450496	20	3720
2026-01-22 12:23:15.94	267.05	18.51	-29.8	-30.8	13.7	5.30e-06	0	44	0	446693376	20	4050
2026-01-22 12:23:18.95	267.76	18.56	-30.1	-31.8	13.0	2.51e-05	0	44	0	452984832	20	4368
2026-01-22 12:23:21.96	268.47	18.60	-30.3	-32.4	12.7	4.65e-05	0	44	0	458227712	20	4567
2026-01-22 12:23:24.96	269.19	18.64	-30.7	-32.9	12.0	2.53e-04	0	44	0	463470592	21	4631
2026-01-22 12:23:27.96	269.91	18.68	-30.2	-31.4	13.0	4.04e-05	0	44	0	469762048	21	4144
2026-01-22 12:23:30.96	270.62	18.71	-30.5	-32.3	12.4	1.04e-04	0	44	0	475004928	21	4430
2026-01-22 12:23:33.98	271.35	18.74	-30.6	-32.5	12.2	2.37e-04	0	44	0	481296384	21	4515
2026-01-22 12:23:37.00	272.07	18.76	-30.5	-32.2	12.5	1.20e-04	0	44	0	486539264	21	4390
2026-01-22 12:23:40.00	272.79	18.78	-30.5	-32.2	12.4	1.05e-04	0	44	0	491782144	21	4401
2026-01-22 12:23:43.01	273.52	18.79	-30.3	-31.8	12.8	5.64e-05	0	44	0	498073600	21	4256
2026-01-22 12:23:46.03	274.24	18.80	-30.5	-32.2	12.5	9.61e-05	0	44	0	503316480	21	4403
2026-01-22 12:23:49.03	274.97	18.81	-30.4	-31.9	12.7	8.23e-05	0	44	0	509607936	21	4311
2026-01-22 12:23:52.04	275.69	18.81	-30.4	-32.0	12.6	1.27e-04	0	44	0	514850816	21	4334
2026-01-22 12:23:55.05	276.42	18.80	-30.4	-32.1	12.6	6.63e-05	0	44	0	520093696	21	4374
2026-01-22 12:23:58.06	277.14	18.80	-30.5	-32.3	12.4	1.40e-04	0	44	0	526385152	21	4435
2026-01-22 12:24:01.07	277.86	18.78	-30.7	-32.9	12.0	2.67e-04	0	44	0	531628032	21	4634
2026-01-22 12:24:04.08	278.59	18.77	-30.6	-32.6	12.2	2.27e-04	0	44	0	536870912	21	4535
2026-01-22 12:24:07.10	279.31	18.74	-30.4	-32.1	12.6	8.85e-05	0	44	0	543162368	21	4353
2026-01-22 12:24:10.10	280.03	18.72	-30.3	-31.9	12.7	4.11e-05	0	44	0	548405248	21	4297
2026-01-22 12:24:13.12	280.75	18.69	-30.6	-32.6	12.2	1.21e-04	0	44	0	554696704	21	4537
2026-01-22 12:24:16.12	281.47	18.65	-30.6	-32.7	12.1	1.88e-04	0	44	0	559939584	21	4568
2026-01-22 12:24:19.12	282.18	18.62	-30.7	-32.9	12.0	4.00e-04	0	44	0	565182464	21	4657
2026-01-22 12:24:22.14	282.90	18.57	-30.7	-32.9	12.0	4.57e-04	0	44	0	571473920	21	4622
2026-01-22 12:24:25.14	283.61	18.52	-30.6	-32.8	12.1	2.42e-04	0	44	0	576716800	21	4597
2026-01-22 12:24:28.16	284.32	18.47	-30.3	-31.9	12.7	7.47e-05	0	44	0	581959680	21	4299
2026-01-22 12:24:31.15	285.02	18.42	-30.3	-31.6	12.8	5.79e-05	0	44	0	588251136	21	4216
2026-01-22 12:24:34.16	285.73	18.36	-30.1	-31.2	13.2	2.21e-05	0	44	0	593494016	21	4092
2026-01-22 12:24:37.17	286.43	18.29	-30.5	-32.4	12.3	1.41e-04	0	44	0	599785472	21	4469
2026-01-22 12:24:40.17	287.13	18.23	-30.6	-32.8	12.0	2.25e-04	0	44	0	605028352	21	4598
2026-01-22 12:24:43.19	287.83	18.15	-30.5	-32.3	12.4	1.14e-04	0	44	0	610271232	21	4426
2026-01-22 12:24:46.20	288.52	18.08	-30.3	-31.9	12.6	1.19e-04	0	44	0	616562688	21	4320
2026-01-22 12:24:49.21	289.21	18.00	-30.3	-31.8	12.7	4.80e-05	0	44	0	621805568	21	4283
2026-01-22 12:24:52.21	289.89	17.92	-30.0	-31.1	13.2	2.44e-05	0	44	0	627048448	21	4053
2026-01-22 12:24:55.22	290.57	17.83	-30.4	-32.0	12.6	8.31e-05	0	44	0	633339904	21	4343
2026-01-22 12:24:58.23	291.25	17.74	-30.1	-31.4	13.0	3.81e-05	0	44	0	638582784	21	4146
2026-01-22 12:25:01.24	291.92	17.65	-29.9	-30.8	13.3	1.52e-05	0	44	0	644874240	21	3990
2026-01-22 12:25:04.25	292.59	17.55	-30.2	-31.5	12.8	3.96e-05	0	44	0	650117120	21	4195
2026-01-22 12:25:07.25	293.26	17.45	-29.8	-30.4	13.6	9.10e-06	0	44	0	655360000	21	3861
2026-01-22 12:25:10.25	293.91	17.35	-29.7	-30.7	13.7	3.80e-06	0	44	0	661651456	20	4037
2026-01-22 12:25:13.25	294.57	17.24	-29.6	-30.4	13.9	1.50e-06	0	44	0	666894336	20	3951
2026-01-22 12:25:16.26	295.22	17.13	-29.7	-30.6	13.8	6.80e-06	0	44	0	672137216	20	3992
2026-01-22 12:25:19.26	295.86	17.02	-29.7	-30.7	13.7	1.29e-05	0	44	0	678428672	20	4025
2026-01-22 12:25:22.27	296.51	16.90	-29.8	-30.9	13.6	6.80e-06	0	44	0	683671552	20	4094
2026-01-22 12:25:25.29	297.15	16.78	-29.7	-30.7	13.8	6.80e-06	0	44	0	689963008	20	4022
2026-01-22 12:25:28.29	297.78	16.66	-29.8	-31.0	13.5	9.10e-06	0	44	0	695205888	20	4110
2026-01-22 12:25:31.31	298.40	16.54	-29.9	-31.2	13.3	2.21e-05	0	44	0	700448768	20	4201
2026-01-22 12:25:34.32	299.03	16.41	-29.9	-31.1	13.3	1.14e-05	0	44	0	706740224	20	4166
2026-01-22 12:25:37.32	299.64	16.28	-29.8	-31.0	13.4	4.50e-06	0	44	0	711983104	20	4137
2026-01-22 12:25:40.33	300.25	16.15	-30.2	-32.1	12.7	5.95e-05	0	44	0	718274560	20	4480
2026-01-22 12:25:43.33	300.86	16.02	-29.9	-31.2	13.3	2.44e-05	0	44	0	723517440	20	4191
2026-01-22 12:25:46.35	301.46	15.88	-29.8	-31.0	13.5	1.06e-05	0	44	0	728760320	20	4118
2026-01-22 12:25:49.37	302.06	15.74	-30.4	-32.8	12.2	1.52e-04	0	44	0	735051776	20	4705
2026-01-22 12:25:52.37	302.65	15.60	-30.5	-32.4	12.1	2.67e-04	0	44	0	740294656	21	4501
2026-01-22 12:25:55.38	303.23	15.46	-30.2	-31.6	12.7	6.10e-05	0	44	0	745537536	21	4218
2026-01-22 12:25:58.39	303.81	15.32	-29.9	-30.9	13.2	2.13e-05	0	44	0	751828992	21	4009
2026-01-22 12:26:01.41	304.39	15.17	-29.9	-31.2	13.2	2.13e-05	0	44	0	757071872	20	4191
2026-01-22 12:26:04.42	304.95	15.02	-30.0	-31.4	13.1	3.43e-05	0	44	0	763363328	20	4270
2026-01-22 12:26:07.43	305.52	14.88	-30.4	-32.8	12.1	1.23e-04	0	44	0	768606208	20	4740
2026-01-22 12:26:10.43	306.07	14.72	-30.9	-33.8	11.2	1.35e-03	0	44	0	773849088	21	5010
2026-01-22 12:26:13.43	306.62	14.57	-31.0	-33.5	11.0	1.97e-03	0	44	0	780140544	22	4802
2026-01-22 12:26:16.45	307.17	14.42	-30.8	-33.1	11.3	1.12e-03	0	44	0	785383424	22	4642
2026-01-22 12:26:19.45	307.71	14.26	-30.8	-33.0	11.3	9.39e-04	0	44	0	790626304	22	4616
2026-01-22 12:26:22.45	308.24	14.11	-30.2	-31.8	12.6	2.20e-04	0	44	0	796917760	21	4286
2026-01-22 12:26:25.46	308.77	13.95	-30.1	-31.5	12.7	7.09e-05	0	44	0	802160640	21	4200
2026-01-22 12:26:28.47	309.30	13.79	-30.4	-32.1	12.3	2.01e-04	0	44	0	808452096	21	4402
2026-01-22 12:26:31.47	309.81	13.63	-30.5	-32.5	12.0	3.72e-04	0	44	0	813694976	21	4517
2026-01-22 12:26:34.48	310.33	13.47	-30.6	-32.9	11.7	4.11e-04	0	44	0	818937856	21	4676
2026-01-22 12:26:37.49	310.84	13.31	-30.8	-33.3	11.4	9.69e-04	0	44	0	825229312	21	4834
2026-01-22 12:26:40.50	311.34	13.15	-30.5	-32.5	12.0	3.27e-04	0	44	0	830472192	21	4521
2026-01-22 12:26:43.50	311.83	12.98	-30.2	-31.6	12.6	9.07e-05	0	44	0	835715072	21	4241
2026-01-22 12:26:46.51	312.32	12.82	-30.3	-32.1	12.3	1.32e-04	0	44	0	842006528	21	4390
2026-01-22 12:26:49.51	312.81	12.65	-30.5	-32.5	11.9	4.07e-04	0	44	0	847249408	21	4538
2026-01-22 12:26:52.52	313.29	12.49	-30.3	-32.0	12.2	2.39e-04	0	44	0	853540864	21	4381
2026-01-22 12:26:55.54	313.77	12.32	-30.0	-31.0	12.9	3.89e-05	0	44	0	858783744	21	4058
2026-01-22 12:26:58.54	314.24	12.15	-30.1	-31.5	12.6	4.73e-05	0	44	0	864026624	21	4213
2026-01-22 12:27:01.55	314.70	11.99	-30.1	-31.4	12.6	5.03e-05	0	44	0	870318080	21	4198
2026-01-22 12:27:04.56	315.16	11.82	-30.0	-31.2	12.9	5.49e-05	0	44	0	875560960	21	4103
2026-01-22 12:27:07.57	315.62	11.65	-30.0	-31.1	12.8	6.63e-05	0	44	0	881852416	21	4098
2026-01-22 12:27:10.58	316.07	11.48	-30.3	-31.9	12.4	1.32e-04	0	44	0	887095296	21	4322
2026-01-22 12:27:13.59	316.51	11.31	-30.2	-31.8	12.4	1.20e-04	0	44	0	892338176	21	4305
2026-01-22 12:27:16.59	316.95	11.14	-29.9	-30.8	13.0	5.56e-05	0	44	0	898629632	21	3991
2026-01-22 12:27:19.58	317.39	10.97	-29.7	-30.8	13.3	1.98e-05	0	44	0	903872512	20	4076
2026-01-22 12:27:22.58	317.82	10.80	-29.7	-30.8	13.3	2.21e-05	0	44	0	909115392	20	4081
2026-01-22 12:27:25.59	318.24	10.63	-29.8	-31.0	13.1	2.44e-05	0	44	0	915406848	20	4168
2026-01-22 12:27:28.60	318.66	10.46	-29.9	-31.4	12.9	3.73e-05	0	44	0	920649728	20	4274
2026-01-22 12:27:31.62	319.08	10.29	-30.1	-32.1	12.4	9.07e-05	0	44	0	926941184	20	4508
2026-01-22 12:27:34.63	319.49	10.12	-30.4	-32.8	11.9	2.77e-04	0	44	0	932184064	20	4769
2026-01-22 12:27:37.64	319.90	9.95	-30.6	-33.0	11.3	1.10e-03	0	44	0	937426944	21	4762
2026-01-22 12:27:40.66	320.30	9.78	-30.6	-33.0	11.4	1.06e-03	0	44	0	943718400	21	4729
2026-01-22 12:27:43.67	320.70	9.61	-30.0	-31.3	12.6	1.08e-04	0	44	0	948961280	21	4177
2026-01-22 12:27:46.68	321.09	9.44	-30.0	-31.2	12.5	1.62e-04	0	44	0	954204160	21	4148
2026-01-22 12:27:49.68	321.48	9.26	-30.1	-31.5	12.4	1.27e-04	0	44	0	960495616	21	4223
2026-01-22 12:27:52.69	321.87	9.09	-30.4	-32.4	11.7	6.79e-04	0	44	0	965738496	21	4539
2026-01-22 12:27:55.69	322.24	8.92	-30.6	-33.0	11.3	1.17e-03	0	44	0	972029952	21	4768
2026-01-22 12:27:58.69	322.62	8.75	-30.6	-33.0	11.3	9.37e-04	0	44	0	977272832	21	4763
2026-01-22 12:28:01.70	322.99	8.58	-30.6	-33.0	11.3	1.13e-03	0	44	0	982515712	21	4758
2026-01-22 12:28:04.72	323.36	8.41	-30.6	-33.1	11.1	1.73e-03	0	44	0	988807168	21	4818
2026-01-22 12:28:07.74	323.72	8.24	-30.8	-33.9	10.6	2.69e-03	0	44	0	994050048	21	5110
2026-01-22 12:28:10.74	324.08	8.07	-30.7	-33.6	10.7	3.26e-03	0	44	0	999292928	21	5007
2026-01-22 12:28:13.75	324.44	7.90	-30.7	-33.4	10.9	2.85e-03	0	44	0	1005584384	21	4911
2026-01-22 12:28:16.76	324.79	7.73	-30.9	-34.0	10.4	3.82e-03	0	44	0	1010827264	21	5178
2026-01-22 12:28:19.78	325.14	7.56	-31.0	-34.1	10.0	6.29e-03	0	44	0	1017118720	22	5114
2026-01-22 12:28:22.79	325.48	7.39	-30.9	-33.7	10.3	5.91e-03	0	44	0	1022361600	22	4956
2026-01-22 12:28:25.79	325.82	7.23	-30.7	-33.0	10.7	2.84e-03	0	44	0	1027604480	22	4701
2026-01-22 12:28:28.79	326.16	7.06	-33.1	-45.1	3.8	1.09e+00	0	44	104	1032847360	26	14299

#Closed at: 2026-01-22 12:28:31
#Recorded file [1032 MB]: D:/data/31010_260122_151917.dat