passes_logs/2026/01/22/R2M6_AANII_01/R2M6_AANII_01__20260122_114832_NOAA_21_JPSS-2_rec.log

#Pass ID: 20260122_114832_NOAA 21 (JPSS-2)
#Satellite: NOAA 21 (JPSS-2)
#Configuration: NOAA 21
#almurnet v.1.7.20240730
#Start time: 2026-01-22 11:48:33

#Version: 2.2.20231116
#Station: R2M6_AANII_01
#Location: 30.233357 lon 59.946436 lat
#TLE: 1 54234U 22150A   26021.42686626  .00000211  00000+0  12107-3 0  9996
#TLE: 2 54234  98.7506 322.2490 0000636 241.9299 118.1812 14.19537149165725

#Time	Az	El	Level	Level2	SNR	BER	BlckErr	Temp	State	Recorded	gain1	gain2
2026-01-22 11:48:33.80	208.71	7.08	-29.2	-32.3	4.9	1.30e+00	0	43	0	0	19	5188
2026-01-22 11:48:36.80	208.98	7.27	-30.1	-33.9	9.5	1.27e-02	0	43	0	3145728	20	5556
2026-01-22 11:48:39.81	209.25	7.47	-29.5	-32.0	10.8	3.58e-03	0	43	0	12582912	20	4817
2026-01-22 11:48:42.81	209.52	7.67	-29.2	-31.7	11.5	7.44e-04	0	43	0	22020096	19	4798
2026-01-22 11:48:45.82	209.80	7.87	-29.4	-32.2	11.1	1.18e-03	0	43	0	30408704	19	4977
2026-01-22 11:48:48.84	210.08	8.07	-29.0	-31.2	11.9	4.53e-04	0	43	0	39845888	19	4620
2026-01-22 11:48:51.85	210.37	8.28	-29.0	-31.1	12.0	3.97e-04	0	43	0	49283072	19	4588
2026-01-22 11:48:54.87	210.66	8.48	-28.8	-30.9	12.4	1.91e-04	0	43	0	58720256	18	4637
2026-01-22 11:48:57.88	210.95	8.68	-28.6	-30.6	12.7	1.01e-04	0	43	0	68157440	18	4512
2026-01-22 11:49:00.89	211.25	8.89	-28.5	-30.4	12.8	4.80e-05	0	43	0	77594624	18	4443
2026-01-22 11:49:03.91	211.55	9.10	-28.5	-30.3	12.8	4.27e-05	0	43	0	87031808	18	4431
2026-01-22 11:49:06.91	211.85	9.30	-28.3	-29.8	13.2	1.98e-05	0	43	0	96468992	18	4263
2026-01-22 11:49:09.93	212.16	9.51	-28.1	-29.8	13.5	1.06e-05	0	43	0	105906176	17	4382
2026-01-22 11:49:12.95	212.48	9.72	-28.1	-29.7	13.6	5.30e-06	0	43	0	115343360	17	4347
2026-01-22 11:49:15.97	212.80	9.94	-28.1	-29.7	13.6	8.30e-06	0	43	0	124780544	17	4351
2026-01-22 11:49:18.98	213.12	10.15	-28.0	-29.5	13.7	3.00e-06	0	43	0	134217728	17	4289
2026-01-22 11:49:21.99	213.45	10.36	-27.9	-29.3	13.9	3.80e-06	0	43	0	143654912	17	4228
2026-01-22 11:49:24.99	213.78	10.57	-27.9	-29.2	13.9	0.00e+00	0	43	0	153092096	17	4208
2026-01-22 11:49:28.01	214.12	10.79	-27.8	-29.1	14.0	3.00e-06	0	43	0	162529280	17	4154
2026-01-22 11:49:31.02	214.46	11.00	-27.9	-29.2	14.0	3.00e-06	0	43	0	171966464	17	4192
2026-01-22 11:49:34.04	214.80	11.22	-27.7	-29.2	14.3	1.50e-06	0	43	0	181403648	16	4294
2026-01-22 11:49:37.04	215.15	11.44	-27.8	-29.6	14.1	3.00e-06	0	43	0	190840832	16	4394
2026-01-22 11:49:40.04	215.51	11.66	-27.9	-29.8	14.0	7.00e-07	0	43	0	200278016	16	4467
2026-01-22 11:49:43.04	215.87	11.88	-27.7	-29.4	14.2	7.00e-07	0	44	0	209715200	16	4345
2026-01-22 11:49:46.05	216.24	12.10	-27.9	-29.8	14.0	3.80e-06	0	43	0	219152384	16	4477
2026-01-22 11:49:49.05	216.61	12.32	-27.6	-28.9	14.6	1.50e-06	0	43	0	228589568	16	4206
2026-01-22 11:49:52.04	216.98	12.54	-27.4	-28.5	14.7	0.00e+00	0	43	0	238026752	16	4111
2026-01-22 11:49:55.05	217.36	12.76	-27.4	-28.6	14.7	0.00e+00	0	44	0	247463936	16	4114
2026-01-22 11:49:58.05	217.75	12.99	-27.2	-28.5	14.9	0.00e+00	0	44	0	256901120	15	4217
2026-01-22 11:50:01.07	218.15	13.21	-27.1	-28.5	14.9	0.00e+00	0	44	0	266338304	15	4216
2026-01-22 11:50:04.08	218.55	13.44	-27.3	-28.9	14.7	0.00e+00	0	44	0	275775488	15	4325
2026-01-22 11:50:07.09	218.95	13.67	-27.4	-29.1	14.6	0.00e+00	0	44	0	285212672	15	4380
2026-01-22 11:50:10.11	219.37	13.89	-27.4	-29.2	14.6	0.00e+00	0	43	0	294649856	15	4399
2026-01-22 11:50:13.12	219.78	14.12	-27.4	-29.2	14.6	0.00e+00	0	44	0	304087040	15	4402
2026-01-22 11:50:16.13	220.21	14.35	-27.6	-29.5	14.4	1.50e-06	0	44	0	313524224	15	4494
2026-01-22 11:50:19.14	220.64	14.58	-27.4	-29.1	14.7	0.00e+00	0	43	0	322961408	15	4378
2026-01-22 11:50:22.14	221.08	14.81	-27.4	-29.1	14.7	7.00e-07	0	44	0	331350016	15	4377
2026-01-22 11:50:25.14	221.52	15.04	-27.4	-29.2	14.6	1.50e-06	0	44	0	340787200	15	4392
2026-01-22 11:50:28.15	221.97	15.27	-27.4	-29.2	14.7	0.00e+00	0	44	0	350224384	15	4391
2026-01-22 11:50:31.16	222.43	15.51	-27.4	-29.1	14.7	0.00e+00	0	44	0	359661568	15	4358
2026-01-22 11:50:34.18	222.89	15.74	-27.4	-29.0	14.8	0.00e+00	0	44	0	369098752	15	4326
2026-01-22 11:50:37.19	223.36	15.97	-27.6	-29.5	14.5	0.00e+00	0	44	0	378535936	15	4474
2026-01-22 11:50:40.19	223.84	16.21	-27.6	-29.6	14.5	7.00e-07	0	44	0	387973120	15	4509
2026-01-22 11:50:43.18	224.32	16.44	-27.7	-29.8	14.4	0.00e+00	0	44	0	397410304	15	4564
2026-01-22 11:50:46.20	224.82	16.67	-27.8	-30.0	14.3	0.00e+00	0	44	0	406847488	15	4619
2026-01-22 11:50:49.22	225.32	16.91	-28.0	-30.0	14.2	2.20e-06	0	44	0	416284672	16	4497
2026-01-22 11:50:52.23	225.83	17.14	-28.0	-29.8	14.3	0.00e+00	0	44	0	425721856	16	4454
2026-01-22 11:50:55.24	226.35	17.38	-27.9	-29.7	14.4	2.20e-06	0	44	0	435159040	16	4402
2026-01-22 11:50:58.25	226.87	17.61	-27.9	-29.6	14.5	7.00e-07	0	44	0	444596224	16	4396
2026-01-22 11:51:01.25	227.40	17.85	-28.1	-30.2	14.1	7.00e-07	0	44	0	454033408	16	4563
2026-01-22 11:51:04.27	227.94	18.08	-27.9	-29.7	14.4	7.00e-07	0	44	0	463470592	16	4412
2026-01-22 11:51:07.28	228.49	18.32	-28.0	-29.8	14.4	7.00e-07	0	44	0	472907776	16	4444
2026-01-22 11:51:10.30	229.05	18.55	-27.8	-29.4	14.6	0.00e+00	0	44	0	482344960	16	4322
2026-01-22 11:51:13.30	229.61	18.78	-27.9	-29.5	14.5	0.00e+00	0	44	0	491782144	16	4359
2026-01-22 11:51:16.31	230.19	19.02	-27.8	-29.3	14.7	1.50e-06	0	44	0	501219328	16	4307
2026-01-22 11:51:19.32	230.77	19.25	-27.8	-29.3	14.7	0.00e+00	0	44	0	510656512	16	4295
2026-01-22 11:51:22.34	231.36	19.48	-27.9	-29.7	14.5	0.00e+00	0	44	0	520093696	16	4406
2026-01-22 11:51:25.34	231.96	19.71	-27.6	-29.0	14.9	3.00e-06	0	44	0	529530880	16	4206
2026-01-22 11:51:28.36	232.57	19.94	-27.5	-28.6	15.2	0.00e+00	0	44	0	538968064	16	4096
2026-01-22 11:51:31.37	233.19	20.17	-27.1	-28.2	15.5	0.00e+00	0	44	0	548405248	15	4098
2026-01-22 11:51:34.38	233.81	20.40	-27.1	-28.2	15.4	2.20e-06	0	44	0	557842432	15	4095
2026-01-22 11:51:37.39	234.45	20.62	-26.9	-27.8	15.7	3.80e-06	0	44	0	567279616	15	4008
2026-01-22 11:51:40.41	235.10	20.85	-27.0	-28.0	15.6	4.50e-06	0	44	0	576716800	15	4061
2026-01-22 11:51:43.44	235.75	21.07	-26.8	-28.1	15.9	0.00e+00	0	44	0	586153984	14	4163
2026-01-22 11:51:46.44	236.41	21.29	-26.6	-27.5	16.2	0.00e+00	0	44	0	595591168	14	4031
2026-01-22 11:51:49.45	237.09	21.51	-26.5	-27.5	16.2	0.00e+00	0	44	0	605028352	14	4029
2026-01-22 11:51:52.46	237.77	21.73	-26.8	-28.1	15.9	0.00e+00	0	44	0	614465536	14	4189
2026-01-22 11:51:55.48	238.46	21.94	-26.6	-27.6	16.1	0.00e+00	0	44	0	623902720	14	4055
2026-01-22 11:51:58.49	239.16	22.16	-26.6	-27.5	16.2	0.00e+00	0	44	0	633339904	14	4033
2026-01-22 11:52:01.50	239.87	22.36	-26.7	-27.8	16.1	0.00e+00	0	44	0	642777088	14	4095
2026-01-22 11:52:04.51	240.59	22.57	-26.4	-27.3	16.4	0.00e+00	0	44	0	652214272	14	3957
2026-01-22 11:52:07.52	241.32	22.77	-26.5	-27.3	16.3	0.00e+00	0	44	0	661651456	14	3977
2026-01-22 11:52:10.53	242.05	22.98	-26.5	-27.4	16.3	0.00e+00	0	44	0	671088640	14	3994
2026-01-22 11:52:13.54	242.80	23.17	-26.6	-27.5	16.2	0.00e+00	0	44	0	679477248	14	4030
2026-01-22 11:52:16.55	243.56	23.37	-26.7	-27.7	16.1	0.00e+00	0	44	0	688914432	14	4074
2026-01-22 11:52:19.55	244.32	23.55	-26.8	-28.0	16.0	7.00e-07	0	44	0	698351616	14	4158
2026-01-22 11:52:22.56	245.09	23.74	-26.5	-27.4	16.3	0.00e+00	0	44	0	707788800	14	3992
2026-01-22 11:52:25.57	245.87	23.92	-26.6	-27.6	16.2	0.00e+00	0	44	0	717225984	14	4037
2026-01-22 11:52:28.58	246.66	24.10	-26.7	-27.8	16.1	0.00e+00	0	44	0	726663168	14	4106
2026-01-22 11:52:31.59	247.46	24.27	-26.8	-28.2	15.9	0.00e+00	0	44	0	736100352	14	4188
2026-01-22 11:52:34.60	248.27	24.44	-27.0	-28.5	15.7	0.00e+00	0	44	0	745537536	14	4274
2026-01-22 11:52:37.60	249.09	24.60	-27.0	-28.6	15.7	0.00e+00	0	44	0	754974720	14	4299
2026-01-22 11:52:40.61	249.91	24.76	-27.2	-28.9	15.5	0.00e+00	0	44	0	764411904	14	4393
2026-01-22 11:52:43.61	250.74	24.91	-26.9	-28.3	15.9	0.00e+00	0	44	0	773849088	14	4214
2026-01-22 11:52:46.62	251.58	25.06	-27.4	-29.4	15.3	0.00e+00	0	44	0	783286272	14	4528
2026-01-22 11:52:49.63	252.43	25.20	-27.2	-29.1	15.4	0.00e+00	0	44	0	792723456	14	4447
2026-01-22 11:52:52.64	253.29	25.34	-27.2	-29.0	15.5	0.00e+00	0	44	0	802160640	14	4420
2026-01-22 11:52:55.64	254.14	25.47	-26.9	-28.2	15.9	0.00e+00	0	44	0	811597824	14	4207
2026-01-22 11:52:58.65	255.01	25.59	-27.0	-28.5	15.8	0.00e+00	0	44	0	821035008	14	4269
2026-01-22 11:53:01.66	255.89	25.71	-26.9	-28.2	15.9	0.00e+00	0	44	0	830472192	14	4202
2026-01-22 11:53:04.67	256.77	25.82	-27.0	-28.5	15.7	0.00e+00	0	44	0	839909376	14	4294
2026-01-22 11:53:07.69	257.66	25.93	-26.8	-28.2	16.0	0.00e+00	0	44	0	849346560	14	4193
2026-01-22 11:53:10.70	258.55	26.02	-26.9	-28.4	15.8	0.00e+00	0	44	0	858783744	14	4249
2026-01-22 11:53:13.71	259.45	26.11	-26.9	-28.4	15.8	0.00e+00	0	44	0	868220928	14	4245
2026-01-22 11:53:16.72	260.35	26.20	-26.9	-28.3	15.9	0.00e+00	0	44	0	877658112	14	4226
2026-01-22 11:53:19.74	261.27	26.27	-26.7	-27.9	16.1	7.00e-07	0	44	0	887095296	14	4127
2026-01-22 11:53:22.76	262.18	26.34	-26.5	-27.4	16.4	0.00e+00	0	44	0	896532480	14	3979
2026-01-22 11:53:25.78	263.10	26.40	-26.6	-27.7	16.2	0.00e+00	0	44	0	905969664	14	4059
2026-01-22 11:53:28.79	264.02	26.46	-26.7	-27.7	16.2	0.00e+00	0	44	0	915406848	14	4072
2026-01-22 11:53:31.80	264.94	26.50	-26.8	-28.1	16.0	0.00e+00	0	44	0	924844032	14	4181
2026-01-22 11:53:34.81	265.86	26.54	-27.1	-28.7	15.7	0.00e+00	0	44	0	934281216	14	4322
2026-01-22 11:53:37.82	266.78	26.57	-26.6	-27.7	16.2	0.00e+00	0	44	0	943718400	14	4056
2026-01-22 11:53:40.83	267.71	26.59	-26.8	-28.1	16.0	0.00e+00	0	44	0	953155584	14	4159
2026-01-22 11:53:43.85	268.64	26.61	-26.6	-27.5	16.3	0.00e+00	0	44	0	962592768	14	4022
2026-01-22 11:53:46.86	269.57	26.61	-26.7	-27.8	16.1	0.00e+00	0	44	0	972029952	14	4101
2026-01-22 11:53:49.87	270.50	26.61	-26.6	-27.5	16.3	0.00e+00	0	44	0	981467136	14	4027
2026-01-22 11:53:52.87	271.42	26.60	-26.5	-27.3	16.4	0.00e+00	0	44	0	990904320	14	3967
2026-01-22 11:53:55.88	272.35	26.59	-26.5	-27.4	16.3	0.00e+00	0	44	0	999292928	14	3994
2026-01-22 11:53:58.88	273.27	26.56	-26.3	-26.9	16.6	0.00e+00	0	44	0	1008730112	14	3874
2026-01-22 11:54:01.90	274.20	26.53	-26.3	-27.3	16.7	0.00e+00	0	44	0	1018167296	13	4079
2026-01-22 11:54:04.91	275.12	26.49	-26.4	-27.7	16.5	0.00e+00	0	44	0	1027604480	13	4172
2026-01-22 11:54:07.92	276.04	26.44	-26.4	-27.6	16.5	0.00e+00	0	44	0	1037041664	13	4156
2026-01-22 11:54:10.93	276.95	26.39	-26.4	-27.6	16.5	0.00e+00	0	44	0	1046478848	13	4145
2026-01-22 11:54:13.93	277.86	26.32	-26.4	-27.8	16.4	0.00e+00	0	44	0	1055916032	13	4190
2026-01-22 11:54:16.95	278.78	26.25	-26.5	-27.9	16.3	0.00e+00	0	44	0	1065353216	13	4232
2026-01-22 11:54:19.96	279.68	26.17	-26.5	-27.8	16.4	0.00e+00	0	44	0	1074790400	13	4197
2026-01-22 11:54:22.96	280.58	26.09	-26.4	-27.6	16.5	0.00e+00	0	44	0	1084227584	13	4156
2026-01-22 11:54:25.96	281.47	26.00	-26.4	-27.7	16.5	0.00e+00	0	44	0	1093664768	13	4162
2026-01-22 11:54:28.97	282.36	25.90	-26.6	-28.2	16.2	0.00e+00	0	44	0	1103101952	13	4297
2026-01-22 11:54:31.98	283.24	25.79	-26.6	-28.0	16.3	0.00e+00	0	44	0	1112539136	13	4262
2026-01-22 11:54:34.99	284.12	25.68	-26.4	-27.7	16.5	0.00e+00	0	44	0	1121976320	13	4162
2026-01-22 11:54:37.99	284.99	25.56	-26.4	-27.7	16.4	0.00e+00	0	44	0	1131413504	13	4176
2026-01-22 11:54:41.01	285.86	25.44	-26.7	-28.3	16.1	0.00e+00	0	44	0	1140850688	13	4337
2026-01-22 11:54:44.02	286.72	25.31	-26.5	-27.9	16.3	0.00e+00	0	44	0	1150287872	13	4224
2026-01-22 11:54:47.02	287.56	25.17	-26.5	-27.9	16.4	0.00e+00	0	44	0	1159725056	13	4232
2026-01-22 11:54:50.03	288.41	25.03	-26.5	-28.0	16.3	0.00e+00	0	44	0	1169162240	13	4244
2026-01-22 11:54:53.03	289.24	24.88	-26.6	-28.2	16.2	0.00e+00	0	44	0	1178599424	13	4302
2026-01-22 11:54:56.04	290.07	24.73	-26.8	-28.5	16.0	0.00e+00	0	44	0	1188036608	13	4383
2026-01-22 11:54:59.06	290.89	24.57	-26.7	-28.3	16.1	0.00e+00	0	44	0	1197473792	13	4331
2026-01-22 11:55:02.07	291.70	24.40	-26.6	-28.0	16.2	0.00e+00	0	44	0	1206910976	13	4261
2026-01-22 11:55:05.09	292.51	24.23	-26.4	-27.7	16.4	0.00e+00	0	44	0	1216348160	13	4182
2026-01-22 11:55:08.10	293.30	24.06	-26.5	-28.0	16.3	0.00e+00	0	44	0	1225785344	13	4243
2026-01-22 11:55:11.12	294.09	23.88	-26.9	-28.8	15.8	0.00e+00	0	44	0	1235222528	13	4470
2026-01-22 11:55:14.13	294.87	23.70	-26.7	-28.4	16.0	0.00e+00	0	44	0	1244659712	13	4368
2026-01-22 11:55:17.15	295.64	23.51	-26.7	-28.3	16.1	0.00e+00	0	44	0	1254096896	13	4340
2026-01-22 11:55:20.16	296.40	23.32	-26.6	-28.1	16.2	0.00e+00	0	44	0	1263534080	13	4273
2026-01-22 11:55:23.15	297.14	23.13	-26.6	-28.1	16.2	0.00e+00	0	44	0	1272971264	13	4271
2026-01-22 11:55:26.15	297.88	22.94	-26.5	-27.9	16.2	0.00e+00	0	44	0	1281359872	13	4242
2026-01-22 11:55:29.15	298.61	22.74	-26.6	-28.1	16.2	0.00e+00	0	44	0	1290797056	13	4282
2026-01-22 11:55:32.17	299.34	22.53	-26.8	-28.6	15.9	0.00e+00	0	44	0	1300234240	13	4410
2026-01-22 11:55:35.17	300.05	22.33	-26.7	-28.4	16.0	0.00e+00	0	44	0	1309671424	13	4375
2026-01-22 11:55:38.18	300.75	22.12	-26.7	-28.4	16.0	0.00e+00	0	44	0	1319108608	13	4356
2026-01-22 11:55:41.18	301.44	21.91	-26.7	-28.4	16.0	0.00e+00	0	44	0	1328545792	13	4369
2026-01-22 11:55:44.19	302.13	21.70	-26.8	-28.5	15.9	0.00e+00	0	44	0	1337982976	13	4385
2026-01-22 11:55:47.20	302.81	21.48	-26.8	-28.5	15.9	0.00e+00	0	44	0	1347420160	13	4395
2026-01-22 11:55:50.22	303.47	21.26	-26.9	-28.7	15.8	0.00e+00	0	44	0	1356857344	13	4458
2026-01-22 11:55:53.24	304.13	21.04	-26.9	-28.8	15.8	0.00e+00	0	44	0	1366294528	13	4484
2026-01-22 11:55:56.23	304.78	20.82	-27.0	-28.5	15.6	0.00e+00	0	44	0	1375731712	14	4282
2026-01-22 11:55:59.24	305.42	20.60	-26.8	-28.1	15.9	0.00e+00	0	44	0	1385168896	14	4171
2026-01-22 11:56:02.24	306.05	20.38	-27.1	-28.9	15.4	0.00e+00	0	44	0	1394606080	14	4386
2026-01-22 11:56:05.25	306.67	20.15	-26.7	-27.9	16.0	0.00e+00	0	44	0	1404043264	14	4137
2026-01-22 11:56:08.25	307.28	19.92	-26.8	-28.0	15.9	0.00e+00	0	44	0	1413480448	14	4165
2026-01-22 11:56:11.26	307.88	19.70	-26.9	-28.2	15.8	0.00e+00	0	44	0	1422917632	14	4209
2026-01-22 11:56:14.28	308.48	19.47	-27.1	-28.8	15.5	0.00e+00	0	44	0	1432354816	14	4357
2026-01-22 11:56:17.28	309.06	19.24	-27.1	-28.7	15.5	0.00e+00	0	44	0	1441792000	14	4351
2026-01-22 11:56:20.30	309.64	19.01	-27.2	-29.0	15.3	0.00e+00	0	44	0	1451229184	14	4436
2026-01-22 11:56:23.31	310.21	18.78	-27.0	-28.6	15.5	0.00e+00	0	44	0	1460666368	14	4315
2026-01-22 11:56:26.31	310.77	18.54	-27.1	-28.8	15.5	0.00e+00	0	44	0	1470103552	14	4356
2026-01-22 11:56:29.31	311.32	18.31	-27.3	-29.1	15.3	0.00e+00	0	44	0	1479540736	14	4458
2026-01-22 11:56:32.31	311.87	18.08	-26.9	-28.3	15.7	0.00e+00	0	44	0	1488977920	14	4237
2026-01-22 11:56:35.33	312.41	17.85	-27.0	-28.4	15.6	0.00e+00	0	44	0	1498415104	14	4266
2026-01-22 11:56:38.33	312.93	17.62	-27.2	-29.0	15.3	0.00e+00	0	44	0	1507852288	14	4415
2026-01-22 11:56:41.35	313.45	17.38	-27.2	-29.0	15.3	0.00e+00	0	44	0	1517289472	14	4437
2026-01-22 11:56:44.36	313.97	17.15	-27.2	-29.0	15.3	0.00e+00	0	44	0	1526726656	14	4431
2026-01-22 11:56:47.36	314.47	16.92	-27.4	-29.4	15.1	0.00e+00	0	44	0	1536163840	14	4541
2026-01-22 11:56:50.36	314.97	16.69	-27.4	-29.0	15.0	0.00e+00	0	44	0	1545601024	15	4311
2026-01-22 11:56:53.37	315.46	16.45	-27.5	-29.1	14.9	0.00e+00	0	44	0	1553989632	15	4348
2026-01-22 11:56:56.38	315.94	16.22	-27.6	-29.3	14.8	7.00e-07	0	44	0	1563426816	15	4417
2026-01-22 11:56:59.39	316.42	15.99	-27.5	-29.2	14.8	0.00e+00	0	44	0	1572864000	15	4380
2026-01-22 11:57:02.40	316.89	15.76	-27.6	-29.3	14.7	0.00e+00	0	44	0	1582301184	15	4416
2026-01-22 11:57:05.41	317.35	15.53	-27.6	-29.5	14.7	0.00e+00	0	44	0	1591738368	15	4460
2026-01-22 11:57:08.41	317.80	15.30	-27.6	-29.4	14.6	0.00e+00	0	44	0	1601175552	15	4447
2026-01-22 11:57:11.43	318.25	15.07	-27.5	-29.2	14.8	0.00e+00	0	44	0	1610612736	15	4379
2026-01-22 11:57:14.45	318.69	14.84	-27.6	-29.5	14.6	0.00e+00	0	44	0	1620049920	15	4470
2026-01-22 11:57:17.45	319.13	14.61	-27.9	-30.1	14.2	7.00e-07	0	44	0	1629487104	15	4669
2026-01-22 11:57:20.46	319.56	14.38	-27.9	-30.2	14.1	2.20e-06	0	44	0	1638924288	15	4696
2026-01-22 11:57:23.48	319.98	14.16	-28.3	-30.6	13.8	6.80e-06	0	44	0	1648361472	16	4678
2026-01-22 11:57:26.49	320.40	13.93	-27.9	-29.7	14.3	7.00e-07	0	44	0	1657798656	16	4404
2026-01-22 11:57:29.50	320.81	13.70	-27.8	-29.5	14.5	7.00e-07	0	44	0	1667235840	16	4349
2026-01-22 11:57:32.51	321.21	13.48	-27.7	-29.2	14.6	0.00e+00	0	44	0	1676673024	16	4268
2026-01-22 11:57:35.53	321.61	13.25	-27.8	-29.4	14.4	7.00e-07	0	44	0	1686110208	16	4339
2026-01-22 11:57:38.53	322.00	13.03	-28.1	-30.1	14.0	3.00e-06	0	44	0	1695547392	16	4546
2026-01-22 11:57:41.54	322.39	12.81	-28.2	-30.3	13.9	1.50e-06	0	44	0	1704984576	16	4615
2026-01-22 11:57:44.56	322.77	12.59	-28.3	-30.5	13.7	5.30e-06	0	44	0	1714421760	16	4672
2026-01-22 11:57:47.56	323.15	12.37	-28.3	-30.7	13.6	7.60e-06	0	44	0	1723858944	16	4717
2026-01-22 11:57:50.57	323.52	12.15	-28.4	-30.4	13.5	1.44e-05	0	44	0	1733296128	17	4541
2026-01-22 11:57:53.58	323.88	11.93	-28.1	-29.7	13.9	3.00e-06	0	44	0	1742733312	17	4306
2026-01-22 11:57:56.59	324.24	11.71	-28.2	-29.8	13.8	4.50e-06	0	44	0	1752170496	17	4341
2026-01-22 11:57:59.60	324.60	11.50	-28.3	-30.1	13.6	1.06e-05	0	44	0	1761607680	17	4434
2026-01-22 11:58:02.63	324.95	11.28	-28.2	-30.0	13.7	3.80e-06	0	44	0	1771044864	17	4403
2026-01-22 11:58:05.65	325.29	11.06	-28.2	-29.8	13.8	6.10e-06	0	44	0	1780482048	17	4354
2026-01-22 11:58:08.65	325.63	10.85	-28.2	-30.0	13.7	4.50e-06	0	44	0	1789919232	17	4391
2026-01-22 11:58:11.66	325.97	10.64	-28.4	-30.3	13.4	6.10e-06	0	44	0	1799356416	17	4500
2026-01-22 11:58:14.66	326.30	10.43	-28.3	-30.1	13.6	6.80e-06	0	44	0	1808793600	17	4431
2026-01-22 11:58:17.68	326.63	10.22	-28.3	-30.0	13.6	7.60e-06	0	44	0	1818230784	17	4416
2026-01-22 11:58:20.68	326.95	10.01	-28.2	-29.9	13.7	1.06e-05	0	44	0	1827667968	17	4374
2026-01-22 11:58:23.68	327.26	9.80	-28.3	-30.1	13.5	6.80e-06	0	44	0	1837105152	17	4436
2026-01-22 11:58:26.68	327.58	9.59	-28.3	-30.2	13.4	2.05e-05	0	44	0	1846542336	17	4483
2026-01-22 11:58:29.68	327.88	9.39	-28.5	-30.6	13.2	1.52e-05	0	44	0	1854930944	17	4585
2026-01-22 11:58:32.69	328.19	9.18	-28.6	-30.9	13.0	4.04e-05	0	44	0	1864368128	17	4690
2026-01-22 11:58:35.70	328.49	8.98	-28.7	-31.1	12.9	5.03e-05	0	44	0	1873805312	17	4760
2026-01-22 11:58:38.71	328.79	8.77	-28.6	-31.0	12.9	5.11e-05	0	44	0	1883242496	17	4737
2026-01-22 11:58:41.72	329.08	8.57	-28.6	-31.0	12.9	5.26e-05	0	44	0	1892679680	17	4720
2026-01-22 11:58:44.73	329.37	8.37	-28.6	-30.9	13.0	3.66e-05	0	44	0	1902116864	17	4702
2026-01-22 11:58:47.73	329.65	8.17	-28.8	-31.5	12.5	8.01e-05	0	44	0	1911554048	17	4901
2026-01-22 11:58:50.76	329.94	7.97	-28.8	-31.5	12.4	1.39e-04	0	44	0	1920991232	17	4901
2026-01-22 11:58:53.77	330.22	7.77	-28.9	-31.3	12.3	1.81e-04	0	44	0	1930428416	18	4725
2026-01-22 11:58:56.79	330.49	7.57	-29.0	-31.5	12.1	2.30e-04	0	44	0	1939865600	18	4788
2026-01-22 11:58:59.79	330.76	7.38	-29.2	-32.1	11.8	4.20e-04	0	44	0	1949302784	18	5007
2026-01-22 11:59:02.79	331.03	7.18	-29.2	-32.1	11.6	7.48e-04	0	44	0	1958739968	18	5011
2026-01-22 11:59:05.80	331.29	6.99	-33.4	-45.7	3.8	1.49e+00	0	44	104	1963982848	26	14776

#Closed at: 2026-01-22 11:59:08
#Recorded file [1963 MB]: D:/data/31010_260122_144835.dat