passes_logs/2026/01/21/planumMaritime01/planumMaritime01__20260121_071635_METOP-B_rec.log

#Pass ID: 20260121_071635_METOP-B
#Satellite: METOP-B
#Configuration: METOP-B
#Start time: 2026-01-21 07:16:40.990940

#LorettStation: 1.0.0 05.05.2024
#Station: planumMaritime01
#Location: 37.49445 lon 55.92918 lat
#TLE: 1 38771U 12049A   26019.94551733  .00000167  00000+0  96318-4 0  9991
#TLE: 2 38771  98.6740  74.2464 0003159  66.7138 293.4371 14.21424229692207

#Time	Az	El	Level	SNR
2026-01-21 07:16:43.162573	16.4	10.2	-66.9	0.0
2026-01-21 07:16:45.421305	16.4	10.4	-66.9	0.0
2026-01-21 07:16:47.671134	16.4	10.6	-66.0	0.0
2026-01-21 07:16:49.922284	16.4	10.8	-60.9	0.0
2026-01-21 07:16:52.171878	16.5	11.0	-62.0	0.0
2026-01-21 07:16:54.422311	16.5	11.2	-58.5	0.0
2026-01-21 07:16:56.673558	16.5	11.4	-60.8	0.0
2026-01-21 07:16:58.924141	16.5	11.6	-58.9	0.0
2026-01-21 07:17:01.179203	16.5	11.8	-60.0	0.0
2026-01-21 07:17:03.431427	16.5	12.0	-58.5	0.0
2026-01-21 07:17:05.682599	16.5	12.2	-61.8	0.0
2026-01-21 07:17:07.935685	16.5	12.5	-59.8	0.0
2026-01-21 07:17:10.187287	16.5	12.7	-61.6	0.0
2026-01-21 07:17:12.442301	16.5	12.9	-62.6	0.0
2026-01-21 07:17:14.695344	16.5	13.1	-58.4	0.0
2026-01-21 07:17:16.949155	16.5	13.3	-62.3	0.0
2026-01-21 07:17:19.204577	16.5	13.6	-62.4	0.0
2026-01-21 07:17:21.456553	16.5	13.8	-62.2	0.0
2026-01-21 07:17:23.710625	16.5	14.0	-57.6	0.0
2026-01-21 07:17:25.964307	16.6	14.3	-56.1	0.0
2026-01-21 07:17:28.219170	16.6	14.5	-60.9	0.0
2026-01-21 07:17:30.472943	16.6	14.7	-58.9	0.0
2026-01-21 07:17:32.726951	16.6	15.0	-62.8	0.0
2026-01-21 07:17:34.983270	16.6	15.2	-59.1	0.0
2026-01-21 07:17:37.235206	16.6	15.5	-60.6	0.0
2026-01-21 07:17:39.487769	16.6	15.7	-57.1	0.0
2026-01-21 07:17:41.741951	16.6	15.9	-61.5	0.0
2026-01-21 07:17:43.993633	16.6	16.2	-58.3	0.0
2026-01-21 07:17:46.245509	16.6	16.5	-60.8	0.0
2026-01-21 07:17:48.499448	16.6	16.7	-62.4	0.0
2026-01-21 07:17:50.752177	16.6	17.0	-58.3	0.0
2026-01-21 07:17:53.003582	16.6	17.2	-63.4	0.0
2026-01-21 07:17:55.256641	16.6	17.5	-62.2	0.0
2026-01-21 07:17:57.509435	16.6	17.8	-61.4	0.0
2026-01-21 07:17:59.761586	16.6	18.0	-61.3	0.0
2026-01-21 07:18:02.014507	16.7	18.3	-64.3	0.0
2026-01-21 07:18:04.263539	16.7	18.6	-60.9	0.0
2026-01-21 07:18:06.515505	16.7	18.9	-58.6	0.0
2026-01-21 07:18:08.770464	16.7	19.2	-61.5	0.0
2026-01-21 07:18:11.023082	16.7	19.4	-59.7	0.0
2026-01-21 07:18:13.276288	16.7	19.7	-63.9	0.0
2026-01-21 07:18:15.528349	16.7	20.0	-58.9	0.0
2026-01-21 07:18:17.779645	16.7	20.3	-63.8	0.0
2026-01-21 07:18:20.031758	16.7	20.6	-59.9	0.0
2026-01-21 07:18:22.283340	16.7	20.9	-60.0	0.0
2026-01-21 07:18:24.537977	16.7	21.2	-64.8	0.0
2026-01-21 07:18:26.789573	16.7	21.5	-57.8	0.0
2026-01-21 07:18:29.041399	16.7	21.9	-60.2	0.0
2026-01-21 07:18:31.296165	16.7	22.2	-60.5	0.0
2026-01-21 07:18:33.548917	16.7	22.5	-62.3	0.0
2026-01-21 07:18:35.802518	16.7	22.8	-61.7	0.0
2026-01-21 07:18:38.060824	16.7	23.2	-65.3	0.0
2026-01-21 07:18:40.315807	16.7	23.5	-62.5	0.0
2026-01-21 07:18:42.570385	16.7	23.8	-61.5	0.0
2026-01-21 07:18:44.823450	16.7	24.2	-64.7	0.0
2026-01-21 07:18:47.076603	16.8	24.5	-63.2	0.0
2026-01-21 07:18:49.329018	16.8	24.9	-65.0	0.0
2026-01-21 07:18:51.585280	16.8	25.3	-65.9	0.0
2026-01-21 07:18:53.838545	16.8	25.6	-65.5	0.0
2026-01-21 07:18:56.094503	16.8	26.0	-66.0	0.0
2026-01-21 07:18:58.347282	16.8	26.4	-62.0	0.0
2026-01-21 07:19:00.601509	16.8	26.8	-66.2	0.0
2026-01-21 07:19:02.854338	16.8	27.1	-62.5	0.0
2026-01-21 07:19:05.106381	16.8	27.5	-64.5	0.0
2026-01-21 07:19:07.357414	16.8	27.9	-60.7	0.0
2026-01-21 07:19:09.615246	16.8	28.3	-64.0	0.0
2026-01-21 07:19:11.866815	16.8	28.7	-60.6	0.0
2026-01-21 07:19:14.122747	16.8	29.2	-65.0	0.0
2026-01-21 07:19:16.376143	16.8	29.6	-64.8	0.0
2026-01-21 07:19:18.627566	16.8	30.0	-62.3	0.0
2026-01-21 07:19:20.885028	16.8	30.5	-64.9	0.0
2026-01-21 07:19:23.137442	16.8	30.9	-66.5	0.0
2026-01-21 07:19:25.391536	16.8	31.3	-64.4	0.0
2026-01-21 07:19:27.642651	16.8	31.8	-65.3	0.0
2026-01-21 07:19:29.895287	16.8	32.3	-67.3	0.0
2026-01-21 07:19:32.147940	16.8	32.7	-67.6	0.0
2026-01-21 07:19:34.401901	16.8	33.2	-64.4	0.0
2026-01-21 07:19:36.654307	16.8	33.7	-67.3	0.0
2026-01-21 07:19:38.905844	16.8	34.2	-65.8	0.0
2026-01-21 07:19:41.157065	16.8	34.7	-67.2	0.0
2026-01-21 07:19:43.408282	16.8	35.2	-65.8	0.0
2026-01-21 07:19:45.660101	16.8	35.7	-68.1	0.0
2026-01-21 07:19:47.908903	16.8	36.3	-67.1	0.0
2026-01-21 07:19:50.159844	16.8	36.8	-69.2	0.0
2026-01-21 07:19:52.414522	16.8	37.3	-68.6	0.0
2026-01-21 07:19:54.668480	16.8	37.9	-67.1	2.6
2026-01-21 07:19:56.920968	16.8	38.5	-69.7	3.6
2026-01-21 07:19:59.171256	16.8	39.0	-70.3	1.7
2026-01-21 07:20:01.423977	16.8	39.6	-70.1	2.3
2026-01-21 07:20:03.674032	16.8	40.2	-68.9	0.9
2026-01-21 07:20:05.928345	16.8	40.8	-70.9	4.4
2026-01-21 07:20:08.181997	16.8	41.4	-71.7	5.2
2026-01-21 07:20:10.431304	16.8	42.0	-67.8	0.7
2026-01-21 07:20:12.681497	16.8	42.7	-70.7	4.3
2026-01-21 07:20:14.936894	16.8	43.3	-68.5	2.4
2026-01-21 07:20:17.192196	16.8	44.0	-69.7	4.3
2026-01-21 07:20:19.446526	16.8	44.6	-68.9	3.4
2026-01-21 07:20:21.698760	16.8	45.3	-70.2	2.3
2026-01-21 07:20:23.950118	16.8	46.0	-70.6	4.2
2026-01-21 07:20:26.201725	16.7	46.7	-70.0	3.7
2026-01-21 07:20:28.454224	16.7	47.4	-70.1	5.6
2026-01-21 07:20:30.704518	16.7	48.2	-68.9	4.0
2026-01-21 07:20:32.955054	16.7	48.9	-69.4	6.6
2026-01-21 07:20:35.209586	16.7	49.7	-70.5	6.4
2026-01-21 07:20:37.464727	16.7	50.4	-70.6	6.9
2026-01-21 07:20:39.717017	16.7	51.2	-69.5	4.0
2026-01-21 07:20:41.970221	16.7	52.0	-71.2	8.4
2026-01-21 07:20:44.224941	16.6	52.8	-70.7	7.9
2026-01-21 07:20:46.476491	16.6	53.6	-69.4	6.1
2026-01-21 07:20:48.725884	16.6	54.5	-71.1	7.5
2026-01-21 07:20:50.977722	16.6	55.3	-71.4	8.0
2026-01-21 07:20:53.230605	16.6	56.2	-69.4	2.4
2026-01-21 07:20:55.483288	16.5	57.0	-70.8	5.9
2026-01-21 07:20:57.731821	16.5	57.9	-70.3	6.2
2026-01-21 07:20:59.983397	16.5	58.8	-70.6	5.4
2026-01-21 07:21:02.236487	16.4	59.7	-71.5	6.1
2026-01-21 07:21:04.489217	16.4	60.7	-70.4	4.9
2026-01-21 07:21:06.741089	16.4	61.6	-71.2	6.0
2026-01-21 07:21:08.993441	16.3	62.6	-70.7	4.8
2026-01-21 07:21:11.246715	16.3	63.5	-70.6	5.3
2026-01-21 07:21:13.501373	16.2	64.5	-69.5	4.7
2026-01-21 07:21:15.754099	16.2	65.5	-70.7	5.9
2026-01-21 07:21:18.008024	16.1	66.5	-71.5	6.7
2026-01-21 07:21:20.258658	16.0	67.6	-70.9	6.8
2026-01-21 07:21:22.514622	16.0	68.6	-70.5	0.2
2026-01-21 07:21:24.766313	15.9	69.6	-69.9	3.1
2026-01-21 07:21:27.018129	15.8	70.7	-71.3	4.1
2026-01-21 07:21:29.272154	15.7	71.8	-70.4	3.8
2026-01-21 07:21:31.523343	15.5	72.9	-70.4	3.7
2026-01-21 07:21:33.774624	15.4	73.9	-71.9	5.4
2026-01-21 07:21:36.025009	15.2	75.0	-72.1	5.1
2026-01-21 07:21:38.276743	15.0	76.2	-72.6	6.5
2026-01-21 07:21:40.529329	14.8	77.3	-72.0	3.8
2026-01-21 07:21:42.782198	14.5	78.4	-71.9	5.7
2026-01-21 07:21:45.037259	14.1	79.5	-71.8	6.3
2026-01-21 07:21:47.290566	13.7	80.7	-71.7	5.1
2026-01-21 07:21:49.540653	13.1	81.8	-72.2	3.5
2026-01-21 07:21:51.795844	12.3	83.0	-72.9	8.2
2026-01-21 07:21:54.046176	11.3	84.1	-71.5	3.3
2026-01-21 07:21:56.297835	9.6	85.3	-70.7	4.3
2026-01-21 07:21:58.547764	7.0	86.4	-71.2	5.6
2026-01-21 07:22:00.802969	1.8	87.6	-71.8	6.3
2026-01-21 07:22:03.056511	347.7	88.7	-72.3	7.2
2026-01-21 07:22:05.309908	286.6	89.3	-71.8	6.4
2026-01-21 07:22:07.562420	227.3	88.6	-71.6	8.3
2026-01-21 07:22:09.814459	213.7	87.5	-71.7	6.8
2026-01-21 07:22:12.063755	208.6	86.4	-73.1	8.4
2026-01-21 07:22:14.316897	206.0	85.3	-72.3	5.6
2026-01-21 07:22:16.569655	204.4	84.1	-72.7	8.5
2026-01-21 07:22:18.822283	203.3	82.9	-72.4	8.2
2026-01-21 07:22:21.072115	202.6	81.8	-73.6	8.6
2026-01-21 07:22:23.322025	202.0	80.6	-73.4	7.5
2026-01-21 07:22:25.576257	201.5	79.5	-73.7	9.9
2026-01-21 07:22:27.828533	201.2	78.4	-72.4	7.2
2026-01-21 07:22:30.078166	200.9	77.2	-73.9	9.5
2026-01-21 07:22:32.326791	200.7	76.1	-73.5	8.5
2026-01-21 07:22:34.578803	200.5	75.0	-73.8	8.6
2026-01-21 07:22:36.832487	200.3	73.9	-73.9	8.9
2026-01-21 07:22:39.082918	200.1	72.8	-74.0	8.8
2026-01-21 07:22:41.333379	200.0	71.7	-74.4	8.6
2026-01-21 07:22:43.586126	199.9	70.7	-74.0	8.0
2026-01-21 07:22:45.839725	199.8	69.6	-74.1	8.6
2026-01-21 07:22:48.086313	199.7	68.6	-74.4	9.3
2026-01-21 07:22:50.336481	199.6	67.5	-74.0	9.4
2026-01-21 07:22:52.586274	199.6	66.5	-73.8	9.4
2026-01-21 07:22:54.836303	199.5	65.5	-73.2	9.8
2026-01-21 07:22:57.084972	199.4	64.5	-73.0	10.5
2026-01-21 07:22:59.334386	199.4	63.5	-73.1	11.0
2026-01-21 07:23:01.588039	199.3	62.5	-72.9	11.0
2026-01-21 07:23:03.843406	199.3	61.6	-72.7	10.3
2026-01-21 07:23:06.094136	199.3	60.6	-73.1	10.6
2026-01-21 07:23:08.347603	199.2	59.7	-73.5	10.0
2026-01-21 07:23:10.600320	199.2	58.8	-73.7	10.1
2026-01-21 07:23:12.853166	199.2	57.9	-73.9	9.7
2026-01-21 07:23:15.106504	199.1	57.0	-74.1	8.4
2026-01-21 07:23:17.363092	199.1	56.1	-74.4	9.1
2026-01-21 07:23:19.616255	199.1	55.2	-73.9	8.6
2026-01-21 07:23:21.867029	199.1	54.4	-73.7	10.4
2026-01-21 07:23:24.118243	199.0	53.6	-73.6	9.7
2026-01-21 07:23:26.367479	199.0	52.7	-73.5	10.6
2026-01-21 07:23:28.620277	199.0	51.9	-73.5	11.6
2026-01-21 07:23:30.874154	199.0	51.1	-73.5	10.8
2026-01-21 07:23:33.128306	199.0	50.4	-73.5	10.6
2026-01-21 07:23:35.380860	199.0	49.6	-73.6	10.5
2026-01-21 07:23:37.633432	198.9	48.8	-73.6	10.0
2026-01-21 07:23:39.886800	198.9	48.1	-74.0	10.1
2026-01-21 07:23:42.136002	198.9	47.4	-74.2	10.1
2026-01-21 07:23:44.387307	198.9	46.6	-74.0	10.1
2026-01-21 07:23:46.638250	198.9	45.9	-73.8	9.5
2026-01-21 07:23:48.885629	198.9	45.2	-73.8	9.9
2026-01-21 07:23:51.137839	198.9	44.6	-73.3	10.0
2026-01-21 07:23:53.391035	198.9	43.9	-73.1	9.7
2026-01-21 07:23:55.641871	198.9	43.2	-72.7	9.9
2026-01-21 07:23:57.898537	198.9	42.6	-72.8	9.3
2026-01-21 07:24:00.151210	198.9	41.9	-72.4	8.0
2026-01-21 07:24:02.402419	198.9	41.3	-72.3	7.7
2026-01-21 07:24:04.655781	198.9	40.7	-72.4	7.4
2026-01-21 07:24:06.908085	198.8	40.1	-72.1	6.4
2026-01-21 07:24:09.158708	198.8	39.5	-72.3	5.9
2026-01-21 07:24:11.412195	198.8	38.9	-72.2	6.0
2026-01-21 07:24:13.662817	198.8	38.3	-72.4	5.6
2026-01-21 07:24:15.919048	198.8	37.8	-72.3	4.5
2026-01-21 07:24:18.170172	198.8	37.2	-71.8	4.4
2026-01-21 07:24:20.423308	198.8	36.7	-71.6	4.0
2026-01-21 07:24:22.674572	198.8	36.1	-71.8	4.9
2026-01-21 07:24:24.926387	198.8	35.6	-71.4	4.4
2026-01-21 07:24:27.178885	198.8	35.1	-71.2	4.0
2026-01-21 07:24:29.430920	198.8	34.6	-71.1	5.4
2026-01-21 07:24:31.684738	198.8	34.1	-71.2	4.5
2026-01-21 07:24:33.935027	198.8	33.6	-70.5	3.4
2026-01-21 07:24:36.183918	198.8	33.1	-70.8	4.8
2026-01-21 07:24:38.435023	198.8	32.6	-70.8	3.9
2026-01-21 07:24:40.686835	198.8	32.1	-70.9	3.7
2026-01-21 07:24:42.939972	198.8	31.7	-70.8	3.2
2026-01-21 07:24:45.192776	198.8	31.2	-70.5	1.1
2026-01-21 07:24:47.444020	198.8	30.8	-70.5	2.0
2026-01-21 07:24:49.697076	198.8	30.3	-70.8	2.1
2026-01-21 07:24:51.947562	198.8	29.9	-70.2	1.8
2026-01-21 07:24:54.202529	198.8	29.5	-70.4	1.1
2026-01-21 07:24:56.452499	198.8	29.0	-70.5	1.8
2026-01-21 07:24:58.704112	198.8	28.6	-70.5	2.1
2026-01-21 07:25:00.956438	198.8	28.2	-70.6	1.4
2026-01-21 07:25:03.209542	198.8	27.8	-71.0	0.0
2026-01-21 07:25:05.462383	198.8	27.4	-70.5	0.0
2026-01-21 07:25:07.714106	198.8	27.0	-70.3	0.0
2026-01-21 07:25:09.965198	198.8	26.6	-70.7	0.0
2026-01-21 07:25:12.217607	198.8	26.2	-71.2	0.2
2026-01-21 07:25:14.469623	198.8	25.9	-71.5	0.0
2026-01-21 07:25:16.720121	198.8	25.5	-71.0	1.1
2026-01-21 07:25:18.970061	198.9	25.1	-71.1	0.0
2026-01-21 07:25:21.221069	198.9	24.8	-70.8	0.0
2026-01-21 07:25:23.471578	198.9	24.4	-70.6	0.0
2026-01-21 07:25:25.722174	198.9	24.1	-71.4	2.3
2026-01-21 07:25:27.972117	198.9	23.7	-71.2	0.2
2026-01-21 07:25:30.224954	198.9	23.4	-71.0	1.2
2026-01-21 07:25:32.479895	198.9	23.0	-71.1	0.0
2026-01-21 07:25:34.733411	198.9	22.7	-70.5	0.0
2026-01-21 07:25:36.988724	198.9	22.4	-71.3	0.0
2026-01-21 07:25:39.243325	198.9	22.0	-70.9	0.0
2026-01-21 07:25:41.498087	198.9	21.7	-70.8	0.0
2026-01-21 07:25:43.746343	198.9	21.4	-71.2	0.0
2026-01-21 07:25:45.998567	198.9	21.1	-71.2	0.0
2026-01-21 07:25:48.252046	198.9	20.8	-71.2	1.0
2026-01-21 07:25:50.504562	198.9	20.5	-71.2	0.0
2026-01-21 07:25:52.760057	198.9	20.2	-71.3	0.0
2026-01-21 07:25:55.014398	198.9	19.9	-71.1	0.0
2026-01-21 07:25:57.266571	198.9	19.6	-71.5	0.0
2026-01-21 07:25:59.518384	198.9	19.3	-71.0	0.0
2026-01-21 07:26:01.769880	198.9	19.0	-71.1	0.0
2026-01-21 07:26:04.023921	198.9	18.7	-71.0	0.0
2026-01-21 07:26:06.276954	198.9	18.4	-71.4	0.0
2026-01-21 07:26:08.530760	198.9	18.2	-71.0	0.0
2026-01-21 07:26:10.785202	198.9	17.9	-70.6	0.0
2026-01-21 07:26:13.036286	198.9	17.6	-71.3	0.0
2026-01-21 07:26:15.288059	198.9	17.3	-72.0	0.0
2026-01-21 07:26:17.536020	198.9	17.1	-72.3	0.0
2026-01-21 07:26:19.787396	198.9	16.8	-71.8	0.0
2026-01-21 07:26:22.039228	199.0	16.6	-70.7	0.0
2026-01-21 07:26:24.290530	199.0	16.3	-71.7	0.0
2026-01-21 07:26:26.540540	199.0	16.0	-71.3	0.0
2026-01-21 07:26:28.793568	199.0	15.8	-71.4	0.0
2026-01-21 07:26:31.046689	199.0	15.5	-71.9	0.0
2026-01-21 07:26:33.298797	199.0	15.3	-72.0	0.0
2026-01-21 07:26:35.551672	199.0	15.0	-71.4	0.0
2026-01-21 07:26:37.802599	199.0	14.8	-71.3	0.0
2026-01-21 07:26:40.053888	199.0	14.6	-70.9	0.0
2026-01-21 07:26:42.305296	199.0	14.3	-71.2	0.0
2026-01-21 07:26:44.556004	199.0	14.1	-71.9	0.0
2026-01-21 07:26:46.807387	199.0	13.9	-72.3	0.0
2026-01-21 07:26:49.058302	199.0	13.6	-71.5	0.0
2026-01-21 07:26:51.311464	199.0	13.4	-71.4	0.0
2026-01-21 07:26:53.561759	199.0	13.2	-71.9	0.0
2026-01-21 07:26:55.813790	199.0	13.0	-72.1	0.0
2026-01-21 07:26:58.068792	199.0	12.7	-72.3	0.0
2026-01-21 07:27:00.319481	199.0	12.5	-72.1	0.0
2026-01-21 07:27:02.568873	199.0	12.3	-71.5	0.0
2026-01-21 07:27:04.820991	199.0	12.1	-71.3	0.0
2026-01-21 07:27:07.073700	199.0	11.9	-72.2	0.0
2026-01-21 07:27:09.325019	199.0	11.7	-71.6	0.0
2026-01-21 07:27:11.574217	199.1	11.4	-73.0	0.0
2026-01-21 07:27:13.828106	199.1	11.2	-72.1	0.0
2026-01-21 07:27:16.080265	199.1	11.0	-71.5	0.0
2026-01-21 07:27:18.330524	199.1	10.8	-72.2	0.0
2026-01-21 07:27:20.583868	199.1	10.6	-75.8	0.0
2026-01-21 07:27:22.837584	199.1	10.4	-77.6	0.0
2026-01-21 07:27:25.088980	199.1	10.2	-77.9	0.0
#Closed at: 2026-01-21 07:16:35.996771