passes_logs/2026/01/21/planumMaritime01/planumMaritime01__20260121_184746_METOP-B_rec.log

#Pass ID: 20260121_184746_METOP-B
#Satellite: METOP-B
#Configuration: METOP-B
#Start time: 2026-01-21 18:47:51.010229

#LorettStation: 1.0.0 05.05.2024
#Station: planumMaritime01
#Location: 37.49445 lon 55.92918 lat
#TLE: 1 38771U 12049A   26020.93100023  .00000294  00000+0  15455-3 0  9997
#TLE: 2 38771  98.6739  75.2147 0003130  64.7720 295.3782 14.21425606692340

#Time	Az	El	Level	SNR
2026-01-21 18:47:53.179832	208.3	10.2	-79.0	0.0
2026-01-21 18:47:55.431228	208.6	10.3	-77.3	0.0
2026-01-21 18:47:57.683121	208.8	10.5	-74.8	0.0
2026-01-21 18:47:59.934261	209.0	10.7	-72.7	0.0
2026-01-21 18:48:02.185631	209.3	10.8	-71.8	0.0
2026-01-21 18:48:04.436172	209.5	11.0	-70.8	0.0
2026-01-21 18:48:06.686061	209.8	11.2	-70.4	0.0
2026-01-21 18:48:08.938228	210.0	11.3	-70.2	0.0
2026-01-21 18:48:11.191066	210.3	11.5	-70.0	0.0
2026-01-21 18:48:13.443630	210.5	11.7	-70.7	0.0
2026-01-21 18:48:15.695626	210.8	11.8	-70.6	0.0
2026-01-21 18:48:17.949799	211.0	12.0	-69.4	0.0
2026-01-21 18:48:20.204917	211.3	12.2	-70.4	0.0
2026-01-21 18:48:22.459896	211.5	12.4	-69.3	0.0
2026-01-21 18:48:24.712810	211.8	12.5	-70.5	0.0
2026-01-21 18:48:26.966272	212.1	12.7	-69.3	0.0
2026-01-21 18:48:29.219048	212.4	12.9	-70.2	0.0
2026-01-21 18:48:31.474781	212.6	13.1	-69.6	0.0
2026-01-21 18:48:33.728785	212.9	13.2	-71.3	0.0
2026-01-21 18:48:35.980920	213.2	13.4	-71.5	0.0
2026-01-21 18:48:38.235906	213.5	13.6	-70.8	0.0
2026-01-21 18:48:40.489663	213.8	13.8	-72.0	0.0
2026-01-21 18:48:42.741584	214.1	14.0	-71.4	0.0
2026-01-21 18:48:44.997241	214.4	14.1	-71.3	0.0
2026-01-21 18:48:47.247937	214.7	14.3	-70.7	0.0
2026-01-21 18:48:49.501953	215.0	14.5	-71.4	0.0
2026-01-21 18:48:51.754149	215.3	14.7	-72.5	3.9
2026-01-21 18:48:54.006809	215.6	14.9	-71.2	0.3
2026-01-21 18:48:56.260271	215.9	15.1	-71.9	1.3
2026-01-21 18:48:58.514209	216.2	15.2	-72.7	3.7
2026-01-21 18:49:00.772972	216.6	15.4	-72.3	0.7
2026-01-21 18:49:03.026843	216.9	15.6	-71.8	2.1
2026-01-21 18:49:05.277519	217.2	15.8	-72.2	3.6
2026-01-21 18:49:07.531335	217.5	16.0	-72.0	0.7
2026-01-21 18:49:09.785471	217.9	16.2	-71.8	1.9
2026-01-21 18:49:12.038013	218.2	16.4	-72.5	2.7
2026-01-21 18:49:14.293752	218.6	16.6	-72.5	3.1
2026-01-21 18:49:16.548712	218.9	16.7	-72.8	5.0
2026-01-21 18:49:18.800457	219.3	16.9	-72.3	3.6
2026-01-21 18:49:21.055359	219.6	17.1	-73.0	2.0
2026-01-21 18:49:23.309207	220.0	17.3	-72.7	3.2
2026-01-21 18:49:25.563253	220.4	17.5	-72.6	4.1
2026-01-21 18:49:27.813872	220.8	17.7	-73.0	5.0
2026-01-21 18:49:30.067242	221.1	17.9	-72.6	4.4
2026-01-21 18:49:32.318325	221.5	18.1	-73.1	4.2
2026-01-21 18:49:34.570636	221.9	18.3	-73.0	4.5
2026-01-21 18:49:36.822334	222.3	18.5	-73.2	4.5
2026-01-21 18:49:39.074611	222.7	18.7	-73.1	5.7
2026-01-21 18:49:41.326576	223.1	18.8	-73.3	6.6
2026-01-21 18:49:43.580242	223.5	19.0	-73.4	7.0
2026-01-21 18:49:45.834584	223.9	19.2	-73.3	6.7
2026-01-21 18:49:48.089937	224.3	19.4	-72.9	6.2
2026-01-21 18:49:50.345902	224.8	19.6	-73.3	7.1
2026-01-21 18:49:52.598602	225.2	19.8	-73.6	8.5
2026-01-21 18:49:54.852499	225.6	20.0	-72.9	8.1
2026-01-21 18:49:57.107389	226.1	20.2	-73.4	7.0
2026-01-21 18:49:59.362322	226.5	20.4	-73.3	7.9
2026-01-21 18:50:01.614999	227.0	20.6	-73.6	7.2
2026-01-21 18:50:03.866746	227.4	20.8	-73.0	7.0
2026-01-21 18:50:06.119483	227.9	21.0	-72.9	6.4
2026-01-21 18:50:08.372364	228.3	21.1	-73.7	8.3
2026-01-21 18:50:10.626133	228.8	21.3	-73.6	7.6
2026-01-21 18:50:12.879801	229.3	21.5	-73.8	7.5
2026-01-21 18:50:15.134912	229.8	21.7	-73.5	7.6
2026-01-21 18:50:17.386446	230.3	21.9	-73.9	7.5
2026-01-21 18:50:19.638862	230.8	22.1	-73.8	6.9
2026-01-21 18:50:21.892190	231.3	22.3	-73.4	6.6
2026-01-21 18:50:24.147894	231.8	22.5	-73.6	8.1
2026-01-21 18:50:26.398956	232.3	22.7	-73.3	7.7
2026-01-21 18:50:28.650071	232.8	22.8	-73.2	8.0
2026-01-21 18:50:30.902001	233.3	23.0	-73.5	7.1
2026-01-21 18:50:33.151288	233.8	23.2	-73.4	7.9
2026-01-21 18:50:35.403607	234.4	23.4	-73.2	7.6
2026-01-21 18:50:37.653159	234.9	23.6	-73.4	7.8
2026-01-21 18:50:39.907302	235.5	23.7	-73.2	6.8
2026-01-21 18:50:42.159815	236.0	23.9	-73.2	6.5
2026-01-21 18:50:44.408963	236.6	24.1	-73.0	7.9
2026-01-21 18:50:46.662293	237.2	24.3	-72.8	8.2
2026-01-21 18:50:48.914537	237.7	24.4	-73.1	8.3
2026-01-21 18:50:51.170932	238.3	24.6	-72.5	7.8
2026-01-21 18:50:53.425938	238.9	24.8	-73.0	7.8
2026-01-21 18:50:55.677496	239.5	24.9	-73.2	8.0
2026-01-21 18:50:57.933190	240.1	25.1	-73.1	7.7
2026-01-21 18:51:00.185924	240.7	25.3	-73.2	7.0
2026-01-21 18:51:02.438030	241.3	25.4	-72.7	7.9
2026-01-21 18:51:04.687774	241.9	25.6	-73.1	8.8
2026-01-21 18:51:06.939505	242.5	25.7	-72.8	8.2
2026-01-21 18:51:09.191842	243.2	25.9	-73.1	8.9
2026-01-21 18:51:11.481878	243.8	26.0	-73.1	8.0
2026-01-21 18:51:13.734899	244.5	26.2	-72.7	8.3
2026-01-21 18:51:15.984176	245.1	26.3	-73.2	9.1
2026-01-21 18:51:18.236352	245.8	26.5	-72.1	7.3
2026-01-21 18:51:20.490890	246.4	26.6	-72.8	6.9
2026-01-21 18:51:22.743540	247.1	26.7	-72.8	7.8
2026-01-21 18:51:24.998340	247.7	26.9	-72.9	8.0
2026-01-21 18:51:27.251989	248.4	27.0	-72.7	8.4
2026-01-21 18:51:29.503194	249.1	27.1	-72.8	7.6
2026-01-21 18:51:31.757125	249.8	27.2	-73.0	8.8
2026-01-21 18:51:34.009970	250.5	27.3	-72.8	7.3
2026-01-21 18:51:36.264781	251.2	27.4	-72.6	7.2
2026-01-21 18:51:38.515817	251.8	27.6	-72.7	5.7
2026-01-21 18:51:40.768473	252.5	27.7	-72.6	7.6
2026-01-21 18:51:43.019082	253.3	27.8	-72.7	6.6
2026-01-21 18:51:45.272897	254.0	27.8	-72.9	7.9
2026-01-21 18:51:47.526883	254.7	27.9	-72.3	6.1
2026-01-21 18:51:49.778684	255.4	28.0	-72.7	6.2
2026-01-21 18:51:52.029307	256.1	28.1	-72.5	6.2
2026-01-21 18:51:54.280511	256.8	28.2	-73.0	8.3
2026-01-21 18:51:56.534608	257.6	28.2	-72.9	6.1
2026-01-21 18:51:58.786280	258.3	28.3	-72.1	6.7
2026-01-21 18:52:01.039094	259.0	28.4	-71.4	6.4
2026-01-21 18:52:03.292886	259.8	28.4	-71.1	5.6
2026-01-21 18:52:05.548264	260.5	28.5	-71.3	7.3
2026-01-21 18:52:07.802245	261.3	28.5	-72.1	7.7
2026-01-21 18:52:10.052185	262.0	28.6	-71.4	6.8
2026-01-21 18:52:12.306360	262.7	28.6	-71.0	5.2
2026-01-21 18:52:14.560438	263.5	28.6	-71.9	7.3
2026-01-21 18:52:16.816257	264.2	28.7	-71.5	5.7
2026-01-21 18:52:19.075135	265.0	28.7	-70.0	3.3
2026-01-21 18:52:21.326132	265.7	28.7	-71.0	5.3
2026-01-21 18:52:23.578371	266.5	28.7	-71.8	6.2
2026-01-21 18:52:25.829323	267.2	28.7	-72.0	6.4
2026-01-21 18:52:28.081293	268.0	28.7	-71.9	5.7
2026-01-21 18:52:30.332942	268.7	28.7	-71.3	5.0
2026-01-21 18:52:32.586370	269.5	28.7	-71.5	7.2
2026-01-21 18:52:34.839338	270.2	28.7	-70.9	6.3
2026-01-21 18:52:37.092242	271.0	28.7	-72.0	4.2
2026-01-21 18:52:39.348311	271.7	28.6	-70.8	5.2
2026-01-21 18:52:41.599600	272.5	28.6	-70.7	3.9
2026-01-21 18:52:43.853403	273.2	28.6	-70.2	3.5
2026-01-21 18:52:46.104172	274.0	28.5	-70.3	5.3
2026-01-21 18:52:48.355897	274.7	28.5	-69.9	2.9
2026-01-21 18:52:50.608626	275.4	28.4	-69.8	3.9
2026-01-21 18:52:52.864109	276.2	28.4	-70.2	5.0
2026-01-21 18:52:55.117522	276.9	28.3	-70.2	5.5
2026-01-21 18:52:57.372389	277.6	28.3	-69.9	3.3
2026-01-21 18:52:59.627249	278.4	28.2	-68.4	2.9
2026-01-21 18:53:01.881946	279.1	28.1	-70.1	3.3
2026-01-21 18:53:04.136836	279.8	28.0	-68.9	0.0
2026-01-21 18:53:06.391746	280.5	27.9	-68.3	0.9
2026-01-21 18:53:08.646754	281.2	27.9	-69.8	0.6
2026-01-21 18:53:10.899148	282.0	27.8	-69.0	0.0
2026-01-21 18:53:13.153709	282.7	27.7	-70.0	0.9
2026-01-21 18:53:15.405496	283.4	27.6	-69.4	2.1
2026-01-21 18:53:17.658857	284.1	27.5	-69.8	2.2
2026-01-21 18:53:19.912906	284.7	27.3	-68.7	0.0
2026-01-21 18:53:22.167522	285.4	27.2	-66.9	0.0
2026-01-21 18:53:24.420972	286.1	27.1	-67.5	0.0
2026-01-21 18:53:26.674049	286.8	27.0	-67.2	0.0
2026-01-21 18:53:28.927923	287.5	26.9	-67.6	0.0
2026-01-21 18:53:31.182747	288.1	26.7	-68.5	0.0
2026-01-21 18:53:33.436927	288.8	26.6	-67.6	0.0
2026-01-21 18:53:35.689080	289.4	26.5	-66.1	0.0
2026-01-21 18:53:37.941868	290.1	26.3	-67.4	0.0
2026-01-21 18:53:40.197182	290.7	26.2	-66.6	0.0
2026-01-21 18:53:42.450881	291.4	26.1	-67.5	0.0
2026-01-21 18:53:44.704659	292.0	25.9	-67.1	0.0
2026-01-21 18:53:46.960526	292.6	25.8	-65.9	0.0
2026-01-21 18:53:49.217489	293.3	25.6	-67.3	0.0
2026-01-21 18:53:51.472970	293.9	25.4	-67.4	0.0
2026-01-21 18:53:53.727012	294.5	25.3	-67.7	0.0
2026-01-21 18:53:55.983039	295.1	25.1	-69.4	1.0
2026-01-21 18:53:58.236894	295.7	25.0	-67.2	0.0
2026-01-21 18:54:00.490680	296.3	24.8	-68.3	0.0
2026-01-21 18:54:02.745923	296.9	24.6	-69.1	0.0
2026-01-21 18:54:05.000168	297.4	24.5	-68.5	0.0
2026-01-21 18:54:07.255185	298.0	24.3	-68.3	0.0
2026-01-21 18:54:09.509451	298.6	24.1	-68.4	0.0
2026-01-21 18:54:11.757576	299.1	24.0	-68.2	0.0
2026-01-21 18:54:14.009443	299.7	23.8	-65.3	0.0
2026-01-21 18:54:16.263435	300.2	23.6	-65.5	0.0
2026-01-21 18:54:18.519226	300.8	23.4	-66.7	0.0
2026-01-21 18:54:20.774361	301.3	23.2	-66.7	0.0
2026-01-21 18:54:23.026363	301.8	23.1	-65.5	0.0
2026-01-21 18:54:25.280249	302.4	22.9	-63.8	0.0
2026-01-21 18:54:27.535817	302.9	22.7	-64.9	0.0
2026-01-21 18:54:29.790852	303.4	22.5	-66.5	0.0
2026-01-21 18:54:32.044133	303.9	22.3	-66.9	0.0
2026-01-21 18:54:34.299140	304.4	22.1	-67.0	0.0
2026-01-21 18:54:36.555375	304.9	22.0	-64.8	0.0
2026-01-21 18:54:38.808245	305.4	21.8	-65.3	0.0
2026-01-21 18:54:41.060567	305.9	21.6	-67.4	0.0
2026-01-21 18:54:43.313507	306.3	21.4	-64.5	0.0
2026-01-21 18:54:45.566048	306.8	21.2	-69.9	0.0
2026-01-21 18:54:47.821417	307.3	21.0	-68.3	0.0
2026-01-21 18:54:50.073387	307.7	20.8	-70.0	0.0
2026-01-21 18:54:52.324287	308.2	20.6	-69.9	0.0
2026-01-21 18:54:54.581485	308.6	20.5	-65.9	0.0
2026-01-21 18:54:56.835152	309.1	20.3	-67.5	0.0
2026-01-21 18:54:59.086872	309.5	20.1	-66.1	0.0
2026-01-21 18:55:01.339740	310.0	19.9	-65.1	0.0
2026-01-21 18:55:03.595740	310.4	19.7	-64.7	0.0
2026-01-21 18:55:05.850235	310.8	19.5	-65.0	0.0
2026-01-21 18:55:08.105374	311.2	19.3	-66.0	0.0
2026-01-21 18:55:10.361112	311.6	19.1	-64.9	0.0
2026-01-21 18:55:12.617319	312.0	18.9	-64.5	0.0
2026-01-21 18:55:14.875548	312.4	18.7	-63.5	0.0
2026-01-21 18:55:17.127767	312.8	18.5	-65.4	0.0
2026-01-21 18:55:19.381513	313.2	18.4	-66.6	0.0
2026-01-21 18:55:21.635542	313.6	18.2	-63.5	0.0
2026-01-21 18:55:23.887767	314.0	18.0	-65.2	0.0
2026-01-21 18:55:26.145236	314.4	17.8	-65.4	0.0
2026-01-21 18:55:28.397777	314.8	17.6	-68.3	0.0
2026-01-21 18:55:30.652250	315.1	17.4	-68.4	0.0
2026-01-21 18:55:32.909211	315.5	17.2	-67.6	0.0
2026-01-21 18:55:35.164643	315.9	17.0	-67.0	0.0
2026-01-21 18:55:37.418095	316.2	16.8	-66.2	0.0
2026-01-21 18:55:39.668049	316.6	16.7	-66.8	0.0
2026-01-21 18:55:41.919868	316.9	16.5	-65.5	0.0
2026-01-21 18:55:44.178380	317.2	16.3	-65.9	0.0
2026-01-21 18:55:46.431716	317.6	16.1	-64.9	0.0
2026-01-21 18:55:48.684635	317.9	15.9	-66.6	0.0
2026-01-21 18:55:50.942061	318.3	15.7	-64.7	0.0
2026-01-21 18:55:53.196286	318.6	15.5	-66.1	0.0
2026-01-21 18:55:55.452108	318.9	15.4	-61.8	0.0
2026-01-21 18:55:57.708030	319.2	15.2	-65.5	0.0
2026-01-21 18:55:59.957716	319.5	15.0	-65.0	0.0
2026-01-21 18:56:02.211071	319.9	14.8	-66.0	0.0
2026-01-21 18:56:04.464841	320.2	14.6	-66.3	0.0
2026-01-21 18:56:06.720215	320.5	14.4	-63.8	0.0
2026-01-21 18:56:08.972255	320.8	14.3	-66.8	0.0
2026-01-21 18:56:11.225609	321.1	14.1	-64.9	0.0
2026-01-21 18:56:13.474507	321.4	13.9	-67.6	0.0
2026-01-21 18:56:15.726362	321.6	13.7	-61.5	0.0
2026-01-21 18:56:17.980114	321.9	13.6	-63.8	0.0
2026-01-21 18:56:20.231722	322.2	13.4	-67.4	0.0
2026-01-21 18:56:22.484536	322.5	13.2	-67.0	0.0
2026-01-21 18:56:24.740114	322.8	13.0	-65.6	0.0
2026-01-21 18:56:26.990538	323.0	12.8	-63.4	0.0
2026-01-21 18:56:29.245160	323.3	12.7	-62.9	0.0
2026-01-21 18:56:31.496888	323.6	12.5	-66.4	0.0
2026-01-21 18:56:33.751737	323.9	12.3	-66.4	0.0
2026-01-21 18:56:36.005616	324.1	12.2	-65.0	0.0
2026-01-21 18:56:38.260812	324.4	12.0	-63.5	0.0
2026-01-21 18:56:40.512214	324.6	11.8	-62.2	0.0
2026-01-21 18:56:42.762057	324.9	11.6	-62.0	0.0
2026-01-21 18:56:45.017577	325.1	11.5	-62.4	0.0
2026-01-21 18:56:47.268632	325.4	11.3	-64.8	0.0
2026-01-21 18:56:49.522462	325.6	11.1	-63.9	0.0
2026-01-21 18:56:51.774965	325.9	11.0	-63.5	0.0
2026-01-21 18:56:54.025174	326.1	10.8	-66.3	0.0
2026-01-21 18:56:56.276317	326.3	10.6	-67.3	0.0
2026-01-21 18:56:58.532224	326.6	10.5	-68.0	0.0
2026-01-21 18:57:00.787539	326.8	10.3	-71.3	0.0
2026-01-21 18:57:03.042304	327.0	10.1	-72.2	0.0
#Closed at: 2026-01-21 18:47:46.016210