passes_logs/2026/01/21/planumMaritime01/planumMaritime01__20260121_152922_METOP-B_rec.log

#Pass ID: 20260121_152922_METOP-B
#Satellite: METOP-B
#Configuration: METOP-B
#Start time: 2026-01-21 15:29:27.209647

#LorettStation: 1.0.0 05.05.2024
#Station: planumMaritime01
#Location: 37.49445 lon 55.92918 lat
#TLE: 1 38771U 12049A   26020.93100023  .00000294  00000+0  15455-3 0  9997
#TLE: 2 38771  98.6739  75.2147 0003130  64.7720 295.3782 14.21425606692340

#Time	Az	El	Level	SNR
2026-01-21 15:29:29.378617	83.7	10.1	-64.9	0.0
2026-01-21 15:29:30.505098	83.5	10.2	-69.5	0.0
2026-01-21 15:29:31.630717	83.3	10.2	-69.6	0.0
2026-01-21 15:29:32.756378	83.2	10.3	-69.8	0.0
2026-01-21 15:29:33.882464	83.0	10.4	-71.5	0.0
2026-01-21 15:29:35.008523	82.8	10.4	-71.3	0.0
2026-01-21 15:29:36.135522	82.7	10.5	-71.9	0.0
2026-01-21 15:29:37.262967	82.5	10.5	-70.1	0.0
2026-01-21 15:29:38.389312	82.4	10.6	-70.3	0.0
2026-01-21 15:29:39.515817	82.2	10.7	-67.7	0.0
2026-01-21 15:29:40.641034	82.0	10.7	-64.6	0.0
2026-01-21 15:29:41.768817	81.8	10.8	-65.3	0.0
2026-01-21 15:29:42.896030	81.7	10.8	-66.0	0.0
2026-01-21 15:29:44.021717	81.5	10.9	-65.8	0.0
2026-01-21 15:29:45.148726	81.3	11.0	-65.2	0.0
2026-01-21 15:29:46.275093	81.2	11.0	-62.9	0.0
2026-01-21 15:29:47.399895	81.0	11.1	-66.1	0.0
2026-01-21 15:29:48.525298	80.8	11.1	-66.6	0.0
2026-01-21 15:29:49.650985	80.6	11.2	-65.7	0.0
2026-01-21 15:29:50.778428	80.5	11.3	-66.5	0.0
2026-01-21 15:29:51.904597	80.3	11.3	-65.2	0.0
2026-01-21 15:29:53.030564	80.1	11.4	-65.3	0.0
2026-01-21 15:29:54.156396	79.9	11.4	-64.0	0.0
2026-01-21 15:29:55.283089	79.8	11.5	-66.0	0.0
2026-01-21 15:29:56.410588	79.6	11.6	-65.4	0.0
2026-01-21 15:29:57.538121	79.4	11.6	-64.2	0.0
2026-01-21 15:29:58.663416	79.2	11.7	-63.8	0.0
2026-01-21 15:29:59.789564	79.1	11.7	-64.9	0.0
2026-01-21 15:30:00.917186	78.9	11.8	-64.7	0.0
2026-01-21 15:30:02.043738	78.7	11.8	-64.4	0.0
2026-01-21 15:30:03.170494	78.5	11.9	-64.9	0.0
2026-01-21 15:30:04.295558	78.3	12.0	-65.5	0.0
2026-01-21 15:30:05.423037	78.1	12.0	-65.2	0.0
2026-01-21 15:30:06.548354	78.0	12.1	-65.2	0.0
2026-01-21 15:30:07.674423	77.8	12.1	-66.7	0.0
2026-01-21 15:30:08.801313	77.6	12.2	-65.2	0.0
2026-01-21 15:30:09.928016	77.4	12.3	-65.2	0.0
2026-01-21 15:30:11.054000	77.2	12.3	-62.5	0.0
2026-01-21 15:30:12.180661	77.0	12.4	-65.4	0.0
2026-01-21 15:30:13.308809	76.8	12.4	-65.2	0.0
2026-01-21 15:30:14.438435	76.6	12.5	-64.1	0.0
2026-01-21 15:30:15.563994	76.5	12.5	-64.3	0.0
2026-01-21 15:30:16.689835	76.3	12.6	-64.5	0.0
2026-01-21 15:30:17.816325	76.1	12.6	-66.6	0.0
2026-01-21 15:30:18.941721	75.9	12.7	-65.2	0.0
2026-01-21 15:30:20.073211	75.7	12.8	-66.7	0.0
2026-01-21 15:30:21.199697	75.5	12.8	-65.1	0.0
2026-01-21 15:30:22.327004	75.3	12.9	-67.7	0.0
2026-01-21 15:30:23.452568	75.1	12.9	-64.6	0.0
2026-01-21 15:30:24.578708	74.9	13.0	-64.1	0.0
2026-01-21 15:30:25.708234	74.7	13.0	-66.3	0.0
2026-01-21 15:30:26.836422	74.5	13.1	-65.9	0.0
2026-01-21 15:30:27.963204	74.3	13.1	-65.1	0.0
2026-01-21 15:30:29.091486	74.1	13.2	-65.1	0.0
2026-01-21 15:30:30.218108	73.9	13.2	-65.7	0.0
2026-01-21 15:30:31.344402	73.7	13.3	-66.2	0.0
2026-01-21 15:30:32.471927	73.5	13.4	-65.7	0.0
2026-01-21 15:30:33.598452	73.3	13.4	-62.5	0.0
2026-01-21 15:30:34.726212	73.1	13.5	-65.8	0.0
2026-01-21 15:30:35.853589	72.9	13.5	-66.3	0.0
2026-01-21 15:30:36.979469	72.7	13.6	-64.7	0.0
2026-01-21 15:30:38.105105	72.5	13.6	-65.6	0.0
2026-01-21 15:30:39.231175	72.3	13.7	-66.2	0.0
2026-01-21 15:30:40.356173	72.1	13.7	-66.8	0.0
2026-01-21 15:30:41.481508	71.9	13.8	-64.0	0.0
2026-01-21 15:30:42.607338	71.7	13.8	-65.7	0.0
2026-01-21 15:30:43.732384	71.5	13.9	-66.2	0.0
2026-01-21 15:30:44.859208	71.3	13.9	-64.3	0.0
2026-01-21 15:30:45.985523	71.0	14.0	-63.7	0.0
2026-01-21 15:30:47.112804	70.8	14.0	-64.3	0.0
2026-01-21 15:30:48.239322	70.6	14.1	-65.6	0.0
2026-01-21 15:30:49.366558	70.4	14.1	-64.8	0.0
2026-01-21 15:30:50.492096	70.2	14.2	-65.3	0.0
2026-01-21 15:30:51.619407	70.0	14.2	-64.4	0.0
2026-01-21 15:30:52.746021	69.8	14.3	-64.8	0.0
2026-01-21 15:30:53.870977	69.6	14.3	-65.3	0.0
2026-01-21 15:30:54.997728	69.3	14.4	-63.4	0.0
2026-01-21 15:30:56.125035	69.1	14.4	-65.6	0.0
2026-01-21 15:30:57.252528	68.9	14.5	-64.2	0.0
2026-01-21 15:30:58.380527	68.7	14.5	-64.8	0.0
2026-01-21 15:30:59.507471	68.5	14.5	-65.3	0.0
2026-01-21 15:31:00.634829	68.3	14.6	-65.3	0.0
2026-01-21 15:31:01.761387	68.0	14.6	-64.5	0.0
2026-01-21 15:31:02.887654	67.8	14.7	-65.0	0.0
2026-01-21 15:31:04.013416	67.6	14.7	-65.5	0.0
2026-01-21 15:31:05.139490	67.4	14.8	-64.4	0.0
2026-01-21 15:31:06.264535	67.1	14.8	-64.6	0.0
2026-01-21 15:31:07.393222	66.9	14.9	-64.9	0.0
2026-01-21 15:31:08.518410	66.7	14.9	-63.5	0.0
2026-01-21 15:31:09.644057	66.5	15.0	-65.3	0.0
2026-01-21 15:31:10.771422	66.3	15.0	-64.9	0.0
2026-01-21 15:31:11.898585	66.0	15.0	-65.9	0.0
2026-01-21 15:31:13.025369	65.8	15.1	-64.4	0.0
2026-01-21 15:31:14.153717	65.6	15.1	-64.6	0.0
2026-01-21 15:31:15.279994	65.3	15.2	-61.7	0.0
2026-01-21 15:31:16.406471	65.1	15.2	-64.7	0.0
2026-01-21 15:31:17.532848	64.9	15.2	-63.4	0.0
2026-01-21 15:31:18.659301	64.7	15.3	-64.0	0.0
2026-01-21 15:31:19.785630	64.4	15.3	-62.7	0.0
2026-01-21 15:31:20.911958	64.2	15.4	-61.9	0.0
2026-01-21 15:31:22.036351	64.0	15.4	-61.9	0.0
2026-01-21 15:31:23.161529	63.7	15.4	-62.6	0.0
2026-01-21 15:31:24.288536	63.5	15.5	-64.0	0.0
2026-01-21 15:31:25.416051	63.3	15.5	-63.2	0.0
2026-01-21 15:31:26.547202	63.0	15.6	-64.7	0.0
2026-01-21 15:31:27.673757	62.8	15.6	-64.3	0.0
2026-01-21 15:31:28.799953	62.6	15.6	-64.9	0.0
2026-01-21 15:31:29.926580	62.3	15.7	-64.6	0.0
2026-01-21 15:31:31.052559	62.1	15.7	-62.2	0.0
2026-01-21 15:31:32.182696	61.9	15.7	-65.8	0.0
2026-01-21 15:31:33.306485	61.6	15.8	-65.8	0.0
2026-01-21 15:31:34.432978	61.4	15.8	-65.3	0.0
2026-01-21 15:31:35.559327	61.1	15.8	-66.0	0.0
2026-01-21 15:31:36.685755	60.9	15.9	-65.5	0.0
2026-01-21 15:31:37.813049	60.7	15.9	-65.8	0.0
2026-01-21 15:31:38.938599	60.4	15.9	-66.1	0.0
2026-01-21 15:31:40.064906	60.2	16.0	-64.9	0.0
2026-01-21 15:31:41.192276	59.9	16.0	-65.0	0.0
2026-01-21 15:31:42.317772	59.7	16.0	-64.9	0.0
2026-01-21 15:31:43.443279	59.5	16.1	-63.4	0.0
2026-01-21 15:31:44.570747	59.2	16.1	-66.0	0.0
2026-01-21 15:31:45.697044	59.0	16.1	-65.8	0.0
2026-01-21 15:31:46.822087	58.7	16.2	-65.0	0.0
2026-01-21 15:31:47.948408	58.5	16.2	-64.5	0.0
2026-01-21 15:31:49.074200	58.2	16.2	-64.3	0.0
2026-01-21 15:31:50.198500	58.0	16.2	-64.4	0.0
2026-01-21 15:31:51.324641	57.8	16.3	-64.9	0.0
2026-01-21 15:31:52.451374	57.5	16.3	-65.4	0.0
2026-01-21 15:31:53.577007	57.3	16.3	-63.6	0.0
2026-01-21 15:31:54.703647	57.0	16.3	-63.3	0.0
2026-01-21 15:31:55.830315	56.8	16.4	-64.4	0.0
2026-01-21 15:31:56.956934	56.5	16.4	-63.5	0.0
2026-01-21 15:31:58.083172	56.3	16.4	-63.8	0.0
2026-01-21 15:31:59.209656	56.0	16.4	-64.2	0.0
2026-01-21 15:32:00.333868	55.8	16.5	-65.1	0.0
2026-01-21 15:32:01.461420	55.5	16.5	-64.6	0.0
2026-01-21 15:32:02.588175	55.3	16.5	-64.8	0.0
2026-01-21 15:32:03.714344	55.0	16.5	-65.5	0.0
2026-01-21 15:32:04.841747	54.8	16.6	-65.1	0.0
2026-01-21 15:32:05.969000	54.5	16.6	-65.4	0.0
2026-01-21 15:32:07.094373	54.3	16.6	-64.1	0.0
2026-01-21 15:32:08.221353	54.0	16.6	-65.4	0.0
2026-01-21 15:32:09.347522	53.8	16.6	-65.6	0.0
2026-01-21 15:32:10.474812	53.5	16.7	-65.9	0.0
2026-01-21 15:32:11.601528	53.3	16.7	-65.9	0.0
2026-01-21 15:32:12.727592	53.0	16.7	-63.6	0.0
2026-01-21 15:32:13.853863	52.8	16.7	-64.3	0.0
2026-01-21 15:32:14.980384	52.5	16.7	-63.9	0.0
2026-01-21 15:32:16.107073	52.3	16.7	-62.2	0.0
2026-01-21 15:32:17.234363	52.0	16.8	-63.3	0.0
2026-01-21 15:32:18.360412	51.8	16.8	-64.8	0.0
2026-01-21 15:32:19.484541	51.5	16.8	-64.0	0.0
2026-01-21 15:32:20.610414	51.2	16.8	-63.7	0.0
2026-01-21 15:32:21.736233	51.0	16.8	-63.3	0.0
2026-01-21 15:32:22.863870	50.7	16.8	-62.7	0.0
2026-01-21 15:32:23.991686	50.5	16.8	-64.0	0.0
2026-01-21 15:32:25.116356	50.2	16.8	-62.1	0.0
2026-01-21 15:32:26.241481	50.0	16.9	-62.3	0.0
2026-01-21 15:32:27.366883	49.7	16.9	-63.6	0.0
2026-01-21 15:32:28.494863	49.5	16.9	-62.3	0.0
2026-01-21 15:32:29.622229	49.2	16.9	-63.0	0.0
2026-01-21 15:32:30.747465	48.9	16.9	-61.8	0.0
2026-01-21 15:32:31.873638	48.7	16.9	-57.5	0.0
2026-01-21 15:32:32.999763	48.4	16.9	-53.8	0.0
2026-01-21 15:32:34.126100	48.2	16.9	-61.6	0.0
2026-01-21 15:32:35.251546	47.9	16.9	-54.0	0.0
2026-01-21 15:32:36.377766	47.7	16.9	-61.8	0.0
2026-01-21 15:32:37.504418	47.4	16.9	-62.3	0.0
2026-01-21 15:32:38.629330	47.2	16.9	-62.6	0.0
2026-01-21 15:32:39.756299	46.9	16.9	-63.5	0.0
2026-01-21 15:32:40.887476	46.6	16.9	-61.5	0.0
2026-01-21 15:32:42.015084	46.4	16.9	-61.0	0.0
2026-01-21 15:32:43.141539	46.1	16.9	-60.0	0.0
2026-01-21 15:32:44.266168	45.9	16.9	-62.6	0.0
2026-01-21 15:32:45.393024	45.6	16.9	-60.9	0.0
2026-01-21 15:32:46.519592	45.4	16.9	-60.9	0.0
2026-01-21 15:32:47.648140	45.1	16.9	-61.1	0.0
2026-01-21 15:32:48.773831	44.8	16.9	-50.0	0.0
2026-01-21 15:32:49.898869	44.6	16.9	-56.7	0.0
2026-01-21 15:32:51.025228	44.3	16.9	-53.7	0.0
2026-01-21 15:32:52.154056	44.1	16.9	-60.6	0.0
2026-01-21 15:32:53.280161	43.8	16.9	-50.3	0.0
2026-01-21 15:32:54.407204	43.6	16.9	-60.6	0.0
2026-01-21 15:32:55.533974	43.3	16.9	-60.3	0.0
2026-01-21 15:32:56.658601	43.0	16.9	-58.0	0.0
2026-01-21 15:32:57.785788	42.8	16.9	-58.8	0.0
2026-01-21 15:32:58.913571	42.5	16.9	-58.3	0.0
2026-01-21 15:33:00.037444	42.3	16.9	-60.7	0.0
2026-01-21 15:33:01.164287	42.0	16.9	-60.3	0.0
2026-01-21 15:33:02.290848	41.8	16.9	-59.9	0.0
2026-01-21 15:33:03.416689	41.5	16.9	-57.1	0.0
2026-01-21 15:33:04.544201	41.3	16.9	-52.0	0.0
2026-01-21 15:33:05.671150	41.0	16.9	-55.4	0.0
2026-01-21 15:33:06.800933	40.7	16.8	-58.1	0.0
2026-01-21 15:33:07.927552	40.5	16.8	-48.4	0.0
2026-01-21 15:33:09.054847	40.2	16.8	-57.6	0.0
2026-01-21 15:33:10.181996	40.0	16.8	-56.9	0.0
2026-01-21 15:33:11.308721	39.7	16.8	-52.0	0.0
2026-01-21 15:33:12.434138	39.5	16.8	-55.0	0.0
2026-01-21 15:33:13.561865	39.2	16.8	-54.9	0.0
2026-01-21 15:33:14.686841	39.0	16.8	-48.3	0.0
2026-01-21 15:33:15.813268	38.7	16.7	-49.4	0.0
2026-01-21 15:33:16.940361	38.5	16.7	-58.5	0.0
2026-01-21 15:33:18.066309	38.2	16.7	-56.2	0.0
2026-01-21 15:33:19.193111	38.0	16.7	-57.8	0.0
2026-01-21 15:33:20.318391	37.7	16.7	-56.2	0.0
2026-01-21 15:33:21.444253	37.5	16.7	-58.5	0.0
2026-01-21 15:33:22.570224	37.2	16.6	-56.7	0.0
2026-01-21 15:33:23.698168	36.9	16.6	-58.4	0.0
2026-01-21 15:33:24.823881	36.7	16.6	-58.9	0.0
2026-01-21 15:33:25.949671	36.4	16.6	-58.7	0.0
2026-01-21 15:33:27.076856	36.2	16.6	-53.3	0.0
2026-01-21 15:33:28.203701	35.9	16.5	-57.5	0.0
2026-01-21 15:33:29.329430	35.7	16.5	-57.7	0.0
2026-01-21 15:33:30.457478	35.4	16.5	-58.8	0.0
2026-01-21 15:33:31.584670	35.2	16.5	-59.8	0.0
2026-01-21 15:33:32.710669	35.0	16.5	-58.3	0.0
2026-01-21 15:33:33.837973	34.7	16.4	-56.6	0.0
2026-01-21 15:33:34.966222	34.5	16.4	-55.4	0.0
2026-01-21 15:33:36.092402	34.2	16.4	-54.9	0.0
2026-01-21 15:33:37.216785	34.0	16.4	-56.0	0.0
2026-01-21 15:33:38.341907	33.7	16.3	-57.8	0.0
2026-01-21 15:33:39.469628	33.5	16.3	-57.2	0.0
2026-01-21 15:33:40.595467	33.2	16.3	-58.9	0.0
2026-01-21 15:33:41.723041	33.0	16.3	-53.5	0.0
2026-01-21 15:33:42.848815	32.7	16.2	-59.1	0.0
2026-01-21 15:33:43.978334	32.5	16.2	-54.0	0.0
2026-01-21 15:33:45.104190	32.2	16.2	-56.3	0.0
2026-01-21 15:33:46.231046	32.0	16.1	-56.7	0.0
2026-01-21 15:33:47.357077	31.8	16.1	-58.2	0.0
2026-01-21 15:33:48.482615	31.5	16.1	-57.3	0.0
2026-01-21 15:33:49.607906	31.3	16.1	-56.5	0.0
2026-01-21 15:33:50.732619	31.0	16.0	-57.8	0.0
2026-01-21 15:33:51.857265	30.8	16.0	-57.7	0.0
2026-01-21 15:33:52.981778	30.6	16.0	-56.5	0.0
2026-01-21 15:33:54.108230	30.3	15.9	-57.6	0.0
2026-01-21 15:33:55.235276	30.1	15.9	-56.4	0.0
2026-01-21 15:33:56.361074	29.8	15.9	-54.3	0.0
2026-01-21 15:33:57.488301	29.6	15.8	-56.9	0.0
2026-01-21 15:33:58.614897	29.4	15.8	-56.2	0.0
2026-01-21 15:33:59.739691	29.1	15.8	-57.2	0.0
2026-01-21 15:34:00.865749	28.9	15.7	-56.4	0.0
2026-01-21 15:34:01.992067	28.7	15.7	-57.5	0.0
2026-01-21 15:34:03.119026	28.4	15.6	-56.0	0.0
2026-01-21 15:34:04.244153	28.2	15.6	-57.2	0.0
2026-01-21 15:34:05.369740	28.0	15.6	-58.0	0.0
2026-01-21 15:34:06.495660	27.7	15.5	-56.0	0.0
2026-01-21 15:34:07.621696	27.5	15.5	-57.7	0.0
2026-01-21 15:34:08.748605	27.3	15.5	-57.5	0.0
2026-01-21 15:34:09.875348	27.0	15.4	-56.2	0.0
2026-01-21 15:34:11.000681	26.8	15.4	-57.5	0.0
2026-01-21 15:34:12.126963	26.6	15.3	-58.0	0.0
2026-01-21 15:34:13.252992	26.3	15.3	-58.7	0.0
2026-01-21 15:34:14.379480	26.1	15.3	-56.3	0.0
2026-01-21 15:34:15.506295	25.9	15.2	-58.8	0.0
2026-01-21 15:34:16.634925	25.6	15.2	-57.2	0.0
2026-01-21 15:34:17.761482	25.4	15.1	-59.0	0.0
2026-01-21 15:34:18.888515	25.2	15.1	-58.4	0.0
2026-01-21 15:34:20.014623	25.0	15.1	-58.5	0.0
2026-01-21 15:34:21.141633	24.7	15.0	-57.6	0.0
2026-01-21 15:34:22.269487	24.5	15.0	-57.6	0.0
2026-01-21 15:34:23.395094	24.3	14.9	-56.7	0.0
2026-01-21 15:34:24.522749	24.1	14.9	-56.8	0.0
2026-01-21 15:34:25.647082	23.8	14.8	-56.3	0.0
2026-01-21 15:34:26.773209	23.6	14.8	-56.4	0.0
2026-01-21 15:34:27.899640	23.4	14.8	-58.4	0.0
2026-01-21 15:34:29.024275	23.2	14.7	-58.8	0.0
2026-01-21 15:34:30.152365	23.0	14.7	-58.7	0.0
2026-01-21 15:34:31.279526	22.7	14.6	-55.7	0.0
2026-01-21 15:34:32.405391	22.5	14.6	-57.7	0.0
2026-01-21 15:34:33.532181	22.3	14.5	-55.6	0.0
2026-01-21 15:34:34.659609	22.1	14.5	-57.3	0.0
2026-01-21 15:34:35.786689	21.9	14.4	-58.4	0.0
2026-01-21 15:34:36.913510	21.7	14.4	-58.3	0.0
2026-01-21 15:34:38.038600	21.4	14.3	-57.2	0.0
2026-01-21 15:34:39.162723	21.2	14.3	-57.5	0.0
2026-01-21 15:34:40.288626	21.0	14.2	-57.1	0.0
2026-01-21 15:34:41.420039	20.8	14.2	-57.4	0.0
2026-01-21 15:34:42.546582	20.6	14.1	-57.8	0.0
2026-01-21 15:34:43.673296	20.4	14.1	-58.7	0.0
2026-01-21 15:34:44.798892	20.2	14.0	-59.3	0.0
2026-01-21 15:34:45.925049	20.0	14.0	-57.6	0.0
2026-01-21 15:34:47.053438	19.7	14.0	-56.1	0.0
2026-01-21 15:34:48.178981	19.5	13.9	-57.6	0.0
2026-01-21 15:34:49.305452	19.3	13.9	-58.0	0.0
2026-01-21 15:34:50.432476	19.1	13.8	-57.7	0.0
2026-01-21 15:34:51.559190	18.9	13.7	-57.7	0.0
2026-01-21 15:34:52.691371	18.7	13.7	-59.8	0.0
2026-01-21 15:34:53.818236	18.5	13.6	-58.0	0.0
2026-01-21 15:34:54.944296	18.3	13.6	-58.6	0.0
2026-01-21 15:34:56.071147	18.1	13.5	-59.9	0.0
2026-01-21 15:34:57.197964	17.9	13.5	-59.6	0.0
2026-01-21 15:34:58.323663	17.7	13.4	-57.4	0.0
2026-01-21 15:34:59.453434	17.5	13.4	-54.3	0.0
2026-01-21 15:35:00.581434	17.3	13.3	-59.4	0.0
2026-01-21 15:35:01.707153	17.1	13.3	-60.1	0.0
2026-01-21 15:35:02.834506	16.9	13.2	-60.4	0.0
2026-01-21 15:35:03.960706	16.7	13.2	-60.3	0.0
2026-01-21 15:35:05.086294	16.5	13.1	-60.2	0.0
2026-01-21 15:35:06.213433	16.3	13.1	-58.8	0.0
2026-01-21 15:35:07.339946	16.1	13.0	-59.4	0.0
2026-01-21 15:35:08.466505	15.9	13.0	-61.6	0.0
2026-01-21 15:35:09.593494	15.7	12.9	-61.2	0.0
2026-01-21 15:35:10.717551	15.5	12.8	-60.9	0.0
2026-01-21 15:35:11.844437	15.3	12.8	-61.6	0.0
2026-01-21 15:35:12.969572	15.1	12.7	-60.7	0.0
2026-01-21 15:35:14.096193	14.9	12.7	-60.3	0.0
2026-01-21 15:35:15.222717	14.8	12.6	-59.9	0.0
2026-01-21 15:35:16.349085	14.6	12.6	-60.1	0.0
2026-01-21 15:35:17.475803	14.4	12.5	-61.0	0.0
2026-01-21 15:35:18.603107	14.2	12.5	-61.2	0.0
2026-01-21 15:35:19.729603	14.0	12.4	-61.0	0.0
2026-01-21 15:35:20.855584	13.8	12.3	-62.3	0.0
2026-01-21 15:35:21.982148	13.6	12.3	-62.4	0.0
2026-01-21 15:35:23.108529	13.4	12.2	-59.6	0.0
2026-01-21 15:35:24.235640	13.3	12.2	-61.9	0.0
2026-01-21 15:35:25.362224	13.1	12.1	-61.7	0.0
2026-01-21 15:35:26.488397	12.9	12.1	-62.3	0.0
2026-01-21 15:35:27.615003	12.7	12.0	-61.5	0.0
2026-01-21 15:35:28.740327	12.5	11.9	-61.0	0.0
2026-01-21 15:35:29.871116	12.3	11.9	-61.1	0.0
2026-01-21 15:35:30.998322	12.2	11.8	-60.3	0.0
2026-01-21 15:35:32.123877	12.0	11.8	-59.3	0.0
2026-01-21 15:35:33.251121	11.8	11.7	-61.2	0.0
2026-01-21 15:35:34.376659	11.6	11.7	-60.1	0.0
2026-01-21 15:35:35.507055	11.4	11.6	-59.8	0.0
2026-01-21 15:35:36.634688	11.3	11.5	-60.5	0.0
2026-01-21 15:35:37.760639	11.1	11.5	-58.0	0.0
2026-01-21 15:35:38.886810	10.9	11.4	-56.1	0.0
2026-01-21 15:35:40.013834	10.7	11.4	-58.7	0.0
2026-01-21 15:35:41.141340	10.6	11.3	-61.2	0.0
2026-01-21 15:35:42.267284	10.4	11.2	-61.0	0.0
2026-01-21 15:35:43.392888	10.2	11.2	-59.3	0.0
2026-01-21 15:35:44.520432	10.0	11.1	-59.2	0.0
2026-01-21 15:35:45.648044	9.9	11.1	-60.2	0.0
2026-01-21 15:35:46.776986	9.7	11.0	-57.3	0.0
2026-01-21 15:35:47.904590	9.5	10.9	-63.4	0.0
2026-01-21 15:35:49.032314	9.4	10.9	-62.4	0.0
2026-01-21 15:35:50.160508	9.2	10.8	-60.4	0.0
2026-01-21 15:35:51.289036	9.0	10.8	-57.4	0.0
2026-01-21 15:35:52.416373	8.9	10.7	-62.9	0.0
2026-01-21 15:35:53.542850	8.7	10.6	-64.5	0.0
2026-01-21 15:35:54.669181	8.5	10.6	-63.1	0.0
2026-01-21 15:35:55.796951	8.4	10.5	-69.8	0.0
2026-01-21 15:35:56.924053	8.2	10.5	-69.7	0.0
2026-01-21 15:35:58.051440	8.0	10.4	-70.0	0.0
2026-01-21 15:35:59.178895	7.9	10.3	-69.7	0.0
2026-01-21 15:36:00.304384	7.7	10.3	-69.3	0.0
2026-01-21 15:36:01.431706	7.5	10.2	-69.6	0.0
2026-01-21 15:36:02.558173	7.4	10.2	-68.7	0.0
2026-01-21 15:36:03.685057	7.2	10.1	-70.5	0.0
2026-01-21 15:36:04.811449	7.1	10.0	-71.7	0.0
#Closed at: 2026-01-21 15:29:22.215513