passes_logs/2026/01/21/planumMaritime01/planumMaritime01__20260121_170636_METOP-B_rec.log

#Pass ID: 20260121_170636_METOP-B
#Satellite: METOP-B
#Configuration: METOP-B
#Start time: 2026-01-21 17:06:41.404216

#LorettStation: 1.0.0 05.05.2024
#Station: planumMaritime01
#Location: 37.49445 lon 55.92918 lat
#TLE: 1 38771U 12049A   26020.93100023  .00000294  00000+0  15455-3 0  9997
#TLE: 2 38771  98.6739  75.2147 0003130  64.7720 295.3782 14.21425606692340

#Time	Az	El	Level	SNR
2026-01-21 17:06:43.582748	146.0	10.2	-74.7	0.0
2026-01-21 17:06:45.836804	145.9	10.4	-74.3	0.0
2026-01-21 17:06:48.088132	145.8	10.6	-75.4	0.0
2026-01-21 17:06:50.341982	145.8	10.8	-74.6	0.2
2026-01-21 17:06:52.594532	145.7	11.0	-73.6	0.0
2026-01-21 17:06:54.846453	145.6	11.2	-73.5	1.9
2026-01-21 17:06:57.099359	145.5	11.4	-73.9	4.0
2026-01-21 17:06:59.353016	145.5	11.6	-73.7	0.1
2026-01-21 17:07:01.605961	145.4	11.8	-73.9	1.7
2026-01-21 17:07:03.857092	145.3	12.0	-74.6	3.9
2026-01-21 17:07:06.107508	145.2	12.2	-73.9	2.2
2026-01-21 17:07:08.363092	145.1	12.4	-74.0	3.8
2026-01-21 17:07:10.619684	145.1	12.7	-74.7	4.0
2026-01-21 17:07:12.871335	145.0	12.9	-74.4	2.9
2026-01-21 17:07:15.121622	144.9	13.1	-73.9	1.8
2026-01-21 17:07:17.372410	144.8	13.3	-73.5	2.4
2026-01-21 17:07:19.625663	144.7	13.5	-73.2	0.0
2026-01-21 17:07:21.877670	144.6	13.8	-74.1	3.8
2026-01-21 17:07:24.129700	144.5	14.0	-73.6	3.1
2026-01-21 17:07:26.383470	144.5	14.2	-73.5	2.4
2026-01-21 17:07:28.636822	144.4	14.5	-74.4	4.0
2026-01-21 17:07:30.893109	144.3	14.7	-74.4	3.3
2026-01-21 17:07:33.144657	144.2	14.9	-74.4	3.0
2026-01-21 17:07:35.397037	144.1	15.2	-74.3	3.9
2026-01-21 17:07:37.649705	144.0	15.4	-74.3	4.6
2026-01-21 17:07:39.903242	143.9	15.7	-74.7	4.2
2026-01-21 17:07:42.156836	143.8	15.9	-73.8	3.8
2026-01-21 17:07:44.412049	143.7	16.1	-74.6	5.0
2026-01-21 17:07:46.664811	143.6	16.4	-73.5	3.6
2026-01-21 17:07:48.918413	143.4	16.6	-73.3	1.9
2026-01-21 17:07:51.171580	143.3	16.9	-74.7	3.6
2026-01-21 17:07:53.423494	143.2	17.2	-74.2	2.7
2026-01-21 17:07:55.677275	143.1	17.4	-74.4	4.5
2026-01-21 17:07:57.928792	143.0	17.7	-74.6	5.1
2026-01-21 17:08:00.180180	142.9	18.0	-74.2	5.6
2026-01-21 17:08:02.434879	142.8	18.2	-73.7	3.5
2026-01-21 17:08:04.688052	142.6	18.5	-74.3	5.1
2026-01-21 17:08:06.942954	142.5	18.8	-74.2	4.4
2026-01-21 17:08:09.195823	142.4	19.0	-74.0	5.3
2026-01-21 17:08:11.451202	142.2	19.3	-74.1	4.4
2026-01-21 17:08:13.702996	142.1	19.6	-73.9	4.9
2026-01-21 17:08:15.957077	142.0	19.9	-74.1	4.5
2026-01-21 17:08:18.209125	141.8	20.2	-73.0	4.1
2026-01-21 17:08:20.463291	141.7	20.5	-73.9	5.5
2026-01-21 17:08:22.717886	141.6	20.8	-73.6	5.4
2026-01-21 17:08:24.971016	141.4	21.1	-73.1	4.1
2026-01-21 17:08:27.226078	141.3	21.4	-73.1	4.2
2026-01-21 17:08:29.480332	141.1	21.7	-73.9	6.0
2026-01-21 17:08:31.731555	140.9	22.0	-73.5	5.5
2026-01-21 17:08:33.982970	140.8	22.3	-73.1	5.9
2026-01-21 17:08:36.233273	140.6	22.6	-73.7	4.6
2026-01-21 17:08:38.484007	140.5	22.9	-73.5	6.2
2026-01-21 17:08:40.735724	140.3	23.3	-73.2	5.9
2026-01-21 17:08:42.988630	140.1	23.6	-72.6	5.5
2026-01-21 17:08:45.241465	139.9	23.9	-72.9	6.9
2026-01-21 17:08:47.496580	139.8	24.3	-72.2	5.2
2026-01-21 17:08:49.748948	139.6	24.6	-73.1	5.0
2026-01-21 17:08:52.001555	139.4	25.0	-72.2	5.2
2026-01-21 17:08:54.255580	139.2	25.3	-73.1	5.8
2026-01-21 17:08:56.505752	139.0	25.7	-72.2	5.6
2026-01-21 17:08:58.757683	138.8	26.0	-73.0	6.0
2026-01-21 17:09:01.008513	138.6	26.4	-73.1	6.8
2026-01-21 17:09:03.262528	138.4	26.7	-72.5	5.3
2026-01-21 17:09:05.512978	138.1	27.1	-72.7	6.0
2026-01-21 17:09:07.763255	137.9	27.5	-72.0	5.2
2026-01-21 17:09:10.016887	137.7	27.9	-72.8	5.9
2026-01-21 17:09:12.273384	137.5	28.3	-71.6	3.3
2026-01-21 17:09:14.525217	137.2	28.6	-73.1	7.0
2026-01-21 17:09:16.772346	137.0	29.0	-72.3	6.4
2026-01-21 17:09:19.024334	136.7	29.4	-72.6	7.1
2026-01-21 17:09:21.279428	136.5	29.8	-72.8	6.7
2026-01-21 17:09:23.530560	136.2	30.3	-72.9	7.2
2026-01-21 17:09:25.780445	135.9	30.7	-72.7	7.0
2026-01-21 17:09:28.032755	135.6	31.1	-72.2	4.4
2026-01-21 17:09:30.283914	135.3	31.5	-72.3	6.3
2026-01-21 17:09:32.541544	135.0	31.9	-72.6	6.7
2026-01-21 17:09:34.793279	134.7	32.4	-72.5	6.4
2026-01-21 17:09:37.050288	134.4	32.8	-72.0	6.5
2026-01-21 17:09:39.303293	134.1	33.3	-71.9	5.7
2026-01-21 17:09:41.555097	133.8	33.7	-71.9	3.3
2026-01-21 17:09:43.809037	133.4	34.2	-72.7	8.7
2026-01-21 17:09:46.062135	133.1	34.7	-72.3	7.9
2026-01-21 17:09:48.315814	132.7	35.1	-71.9	7.3
2026-01-21 17:09:50.566195	132.4	35.6	-72.0	5.4
2026-01-21 17:09:52.817503	132.0	36.1	-72.0	7.1
2026-01-21 17:09:55.070384	131.6	36.6	-72.0	6.5
2026-01-21 17:09:57.320788	131.2	37.1	-72.3	6.4
2026-01-21 17:09:59.572887	130.7	37.6	-72.1	8.6
2026-01-21 17:10:01.823727	130.3	38.1	-71.6	7.5
2026-01-21 17:10:04.077711	129.9	38.6	-71.1	6.4
2026-01-21 17:10:06.331228	129.4	39.1	-71.6	4.8
2026-01-21 17:10:08.582151	128.9	39.6	-70.9	5.1
2026-01-21 17:10:10.832844	128.4	40.2	-70.4	4.8
2026-01-21 17:10:13.082395	127.9	40.7	-71.2	5.2
2026-01-21 17:10:15.332721	127.4	41.2	-70.4	3.3
2026-01-21 17:10:17.585126	126.9	41.8	-70.9	5.3
2026-01-21 17:10:19.835393	126.3	42.3	-70.2	4.3
2026-01-21 17:10:22.088379	125.7	42.9	-70.2	5.9
2026-01-21 17:10:24.338341	125.1	43.4	-70.7	5.4
2026-01-21 17:10:26.591984	124.5	44.0	-70.2	5.5
2026-01-21 17:10:28.843044	123.8	44.6	-67.2	0.8
2026-01-21 17:10:31.098223	123.2	45.1	-69.3	4.2
2026-01-21 17:10:33.349212	122.5	45.7	-69.8	2.2
2026-01-21 17:10:35.600356	121.7	46.3	-68.6	3.7
2026-01-21 17:10:37.852608	121.0	46.9	-69.1	3.3
2026-01-21 17:10:40.105102	120.2	47.5	-70.2	5.1
2026-01-21 17:10:42.356970	119.4	48.0	-69.7	6.0
2026-01-21 17:10:44.611594	118.6	48.6	-70.7	7.0
2026-01-21 17:10:46.862814	117.7	49.2	-69.8	4.3
2026-01-21 17:10:49.115356	116.8	49.8	-68.1	1.2
2026-01-21 17:10:51.367718	115.8	50.4	-69.8	4.3
2026-01-21 17:10:53.617905	114.8	51.0	-70.4	3.0
2026-01-21 17:10:55.873854	113.8	51.6	-69.0	0.0
2026-01-21 17:10:58.127291	112.8	52.2	-68.1	0.0
2026-01-21 17:11:00.376970	111.7	52.7	-68.6	2.6
2026-01-21 17:11:02.629784	110.5	53.3	-67.9	3.3
2026-01-21 17:11:04.883114	109.3	53.9	-67.6	0.0
2026-01-21 17:11:07.136398	108.1	54.4	-68.2	0.0
2026-01-21 17:11:09.391152	106.8	55.0	-69.0	5.1
2026-01-21 17:11:11.642776	105.4	55.5	-69.1	3.0
2026-01-21 17:11:13.895416	104.0	56.1	-68.3	2.8
2026-01-21 17:11:16.146557	102.6	56.6	-68.3	3.9
2026-01-21 17:11:18.399428	101.1	57.1	-67.3	2.9
2026-01-21 17:11:20.652372	99.5	57.6	-68.1	2.4
2026-01-21 17:11:22.907642	97.9	58.1	-68.4	3.1
2026-01-21 17:11:25.162708	96.2	58.5	-68.6	1.2
2026-01-21 17:11:27.415745	94.5	59.0	-67.5	1.9
2026-01-21 17:11:29.667965	92.7	59.4	-67.6	0.0
2026-01-21 17:11:31.921799	90.8	59.8	-69.3	1.0
2026-01-21 17:11:34.172838	88.9	60.1	-68.7	3.1
2026-01-21 17:11:36.427464	87.0	60.5	-68.5	4.4
2026-01-21 17:11:38.681067	85.0	60.8	-67.5	0.0
2026-01-21 17:11:40.934183	82.9	61.0	-67.1	0.3
2026-01-21 17:11:43.186086	80.8	61.3	-67.4	0.0
2026-01-21 17:11:45.439169	78.7	61.5	-68.4	2.7
2026-01-21 17:11:47.693694	76.5	61.7	-68.5	0.0
2026-01-21 17:11:49.944763	74.3	61.8	-68.0	0.6
2026-01-21 17:11:52.197455	72.1	61.9	-67.1	1.4
2026-01-21 17:11:54.454293	69.8	62.0	-68.0	2.1
2026-01-21 17:11:56.707976	67.6	62.0	-66.6	2.4
2026-01-21 17:11:58.965318	65.4	62.0	-67.5	3.4
2026-01-21 17:12:01.218113	63.1	62.0	-67.5	2.9
2026-01-21 17:12:03.468968	60.9	61.9	-66.7	0.0
2026-01-21 17:12:05.722217	58.7	61.8	-67.2	1.0
2026-01-21 17:12:07.978491	56.5	61.6	-66.9	0.0
2026-01-21 17:12:10.228957	54.3	61.4	-66.0	0.5
2026-01-21 17:12:12.483006	52.2	61.2	-67.2	0.0
2026-01-21 17:12:14.735733	50.1	60.9	-67.7	0.9
2026-01-21 17:12:16.989187	48.1	60.6	-66.9	0.0
2026-01-21 17:12:19.242156	46.1	60.3	-67.1	0.0
2026-01-21 17:12:21.496821	44.2	60.0	-67.5	0.0
2026-01-21 17:12:23.750363	42.3	59.6	-68.9	1.4
2026-01-21 17:12:26.006268	40.5	59.2	-69.3	3.1
2026-01-21 17:12:28.260598	38.7	58.8	-68.2	0.6
2026-01-21 17:12:30.513520	37.0	58.3	-68.6	0.0
2026-01-21 17:12:32.770560	35.3	57.9	-68.7	0.0
2026-01-21 17:12:35.026365	33.7	57.4	-68.5	0.0
2026-01-21 17:12:37.279431	32.2	56.9	-70.0	2.7
2026-01-21 17:12:39.537027	30.7	56.4	-70.2	4.5
2026-01-21 17:12:41.789884	29.3	55.9	-69.6	2.5
2026-01-21 17:12:44.042890	27.9	55.3	-70.2	4.1
2026-01-21 17:12:46.294384	26.6	54.8	-70.0	1.9
2026-01-21 17:12:48.544436	25.3	54.2	-69.7	2.5
2026-01-21 17:12:50.797914	24.1	53.7	-70.1	3.6
2026-01-21 17:12:53.051309	22.9	53.1	-69.0	2.7
2026-01-21 17:12:55.303845	21.8	52.5	-69.6	2.7
2026-01-21 17:12:57.557774	20.7	51.9	-69.2	1.8
2026-01-21 17:12:59.812090	19.7	51.4	-69.5	1.0
2026-01-21 17:13:02.065919	18.7	50.8	-69.1	4.0
2026-01-21 17:13:04.322254	17.7	50.2	-70.3	5.4
2026-01-21 17:13:06.578346	16.8	49.6	-69.0	0.0
2026-01-21 17:13:08.830521	15.9	49.0	-68.2	0.0
2026-01-21 17:13:11.081217	15.0	48.4	-70.6	4.1
2026-01-21 17:13:13.336334	14.2	47.8	-69.2	1.5
2026-01-21 17:13:15.592244	13.4	47.3	-69.1	2.3
2026-01-21 17:13:17.846019	12.6	46.7	-69.8	2.1
2026-01-21 17:13:20.099856	11.9	46.1	-68.8	0.0
2026-01-21 17:13:22.355706	11.2	45.5	-67.8	0.0
2026-01-21 17:13:24.610260	10.5	44.9	-67.7	0.0
2026-01-21 17:13:26.864086	9.8	44.4	-67.6	0.0
2026-01-21 17:13:29.118291	9.2	43.8	-67.0	0.0
2026-01-21 17:13:31.373834	8.6	43.3	-66.7	0.0
2026-01-21 17:13:33.626770	8.0	42.7	-65.9	0.0
2026-01-21 17:13:35.882720	7.4	42.1	-65.9	0.0
2026-01-21 17:13:38.135469	6.8	41.6	-64.9	0.0
2026-01-21 17:13:40.392776	6.3	41.1	-65.5	0.0
2026-01-21 17:13:42.649167	5.8	40.5	-64.0	0.0
2026-01-21 17:13:44.901843	5.3	40.0	-64.0	0.0
2026-01-21 17:13:47.157027	4.8	39.5	-62.4	0.0
2026-01-21 17:13:49.413707	4.3	39.0	-63.1	0.0
2026-01-21 17:13:51.665623	3.9	38.4	-62.1	0.0
2026-01-21 17:13:53.920285	3.4	37.9	-64.6	0.0
2026-01-21 17:13:56.172932	3.0	37.4	-62.4	0.0
2026-01-21 17:13:58.426888	2.6	36.9	-64.2	0.0
2026-01-21 17:14:00.678540	2.2	36.4	-64.3	0.0
2026-01-21 17:14:02.931510	1.8	36.0	-61.5	0.0
2026-01-21 17:14:05.185275	1.4	35.5	-61.3	0.0
2026-01-21 17:14:07.437235	1.1	35.0	-62.0	0.0
2026-01-21 17:14:09.688858	0.7	34.5	-63.7	0.0
2026-01-21 17:14:11.941980	0.4	34.1	-62.7	0.0
2026-01-21 17:14:14.194576	0.0	33.6	-62.0	0.0
2026-01-21 17:14:16.447283	359.7	33.2	-63.6	0.0
2026-01-21 17:14:18.699707	359.4	32.7	-64.1	0.0
2026-01-21 17:14:20.950669	359.1	32.3	-62.1	0.0
2026-01-21 17:14:23.200129	358.8	31.9	-61.3	0.0
2026-01-21 17:14:25.451413	358.5	31.4	-61.0	0.0
2026-01-21 17:14:27.705206	358.2	31.0	-59.2	0.0
2026-01-21 17:14:29.957084	357.9	30.6	-60.6	0.0
2026-01-21 17:14:32.210969	357.7	30.2	-60.0	0.0
2026-01-21 17:14:34.465821	357.4	29.8	-60.2	0.0
2026-01-21 17:14:36.721554	357.1	29.4	-61.6	0.0
2026-01-21 17:14:38.974405	356.9	29.0	-62.0	0.0
2026-01-21 17:14:41.229898	356.7	28.6	-61.7	0.0
2026-01-21 17:14:43.482102	356.4	28.2	-60.8	0.0
2026-01-21 17:14:45.736370	356.2	27.8	-63.2	0.0
2026-01-21 17:14:47.988521	356.0	27.4	-62.2	0.0
2026-01-21 17:14:50.239159	355.7	27.1	-60.0	0.0
2026-01-21 17:14:52.492835	355.5	26.7	-63.9	0.0
2026-01-21 17:14:54.746138	355.3	26.3	-62.6	0.0
2026-01-21 17:14:56.998234	355.1	26.0	-62.6	0.0
2026-01-21 17:14:59.248221	354.9	25.6	-60.6	0.0
2026-01-21 17:15:01.502185	354.7	25.3	-59.6	0.0
2026-01-21 17:15:03.754165	354.5	24.9	-58.9	0.0
2026-01-21 17:15:06.006618	354.3	24.6	-63.2	0.0
2026-01-21 17:15:08.260502	354.2	24.3	-60.3	0.0
2026-01-21 17:15:10.514259	354.0	23.9	-61.8	0.0
2026-01-21 17:15:12.768534	353.8	23.6	-62.7	0.0
2026-01-21 17:15:15.020891	353.6	23.3	-63.2	0.0
2026-01-21 17:15:17.274093	353.5	22.9	-60.0	0.0
2026-01-21 17:15:19.526750	353.3	22.6	-62.8	0.0
2026-01-21 17:15:21.780548	353.1	22.3	-63.9	0.0
2026-01-21 17:15:24.032356	353.0	22.0	-61.3	0.0
2026-01-21 17:15:26.287221	352.8	21.7	-62.2	0.0
2026-01-21 17:15:28.538494	352.7	21.4	-63.2	0.0
2026-01-21 17:15:30.791811	352.5	21.1	-60.5	0.0
2026-01-21 17:15:33.046055	352.4	20.8	-61.8	0.0
2026-01-21 17:15:35.298895	352.2	20.5	-61.8	0.0
2026-01-21 17:15:37.549091	352.1	20.2	-62.4	0.0
2026-01-21 17:15:39.802852	352.0	19.9	-61.8	0.0
2026-01-21 17:15:42.056388	351.8	19.6	-62.2	0.0
2026-01-21 17:15:44.307601	351.7	19.3	-64.0	0.0
2026-01-21 17:15:46.561452	351.6	19.1	-63.8	0.0
2026-01-21 17:15:48.816285	351.5	18.8	-63.0	0.0
2026-01-21 17:15:51.066096	351.3	18.5	-62.4	0.0
2026-01-21 17:15:53.319731	351.2	18.3	-62.2	0.0
2026-01-21 17:15:55.572605	351.1	18.0	-64.8	0.0
2026-01-21 17:15:57.825724	351.0	17.7	-63.8	0.0
2026-01-21 17:16:00.078135	350.9	17.5	-64.1	0.0
2026-01-21 17:16:02.331816	350.8	17.2	-64.4	0.0
2026-01-21 17:16:04.586975	350.6	16.9	-63.6	0.0
2026-01-21 17:16:06.840667	350.5	16.7	-64.2	0.0
2026-01-21 17:16:09.093555	350.4	16.4	-65.2	0.0
2026-01-21 17:16:11.350174	350.3	16.2	-65.3	0.0
2026-01-21 17:16:13.602345	350.2	15.9	-66.3	0.0
2026-01-21 17:16:15.855866	350.1	15.7	-65.1	0.0
2026-01-21 17:16:18.110169	350.0	15.5	-67.6	0.0
2026-01-21 17:16:20.362674	349.9	15.2	-65.9	0.0
2026-01-21 17:16:22.617404	349.8	15.0	-66.1	0.0
2026-01-21 17:16:24.870317	349.7	14.8	-66.1	0.0
2026-01-21 17:16:27.120779	349.6	14.5	-66.7	0.0
2026-01-21 17:16:29.375746	349.6	14.3	-66.7	0.0
2026-01-21 17:16:31.629399	349.5	14.1	-67.0	0.0
2026-01-21 17:16:33.882218	349.4	13.8	-63.4	0.0
2026-01-21 17:16:36.135658	349.3	13.6	-64.6	0.0
2026-01-21 17:16:38.386707	349.2	13.4	-65.9	0.0
2026-01-21 17:16:40.640244	349.1	13.2	-65.1	0.0
2026-01-21 17:16:42.891619	349.0	13.0	-63.5	0.0
2026-01-21 17:16:45.148370	349.0	12.7	-63.9	0.0
2026-01-21 17:16:47.400287	348.9	12.5	-64.8	0.0
2026-01-21 17:16:49.653649	348.8	12.3	-64.9	0.0
2026-01-21 17:16:51.904182	348.7	12.1	-65.2	0.0
2026-01-21 17:16:54.157555	348.7	11.9	-64.6	0.0
2026-01-21 17:16:56.410155	348.6	11.7	-66.0	0.0
2026-01-21 17:16:58.663089	348.5	11.5	-63.6	0.0
2026-01-21 17:17:00.916671	348.4	11.3	-64.5	0.0
2026-01-21 17:17:03.170361	348.4	11.1	-65.7	0.0
2026-01-21 17:17:05.427015	348.3	10.9	-66.5	0.0
2026-01-21 17:17:07.677329	348.2	10.7	-63.4	0.0
2026-01-21 17:17:09.930158	348.2	10.5	-61.8	0.0
2026-01-21 17:17:12.184455	348.1	10.3	-66.6	0.0
2026-01-21 17:17:14.438013	348.0	10.1	-74.4	0.0
#Closed at: 2026-01-21 17:06:36.410458