passes_logs/2026/01/21/planumMaritime01/planumMaritime01__20260121_105734_METEOR-M2_4_rec.log

#Pass ID: 20260121_105734_METEOR-M2 4
#Satellite: METEOR-M2 4
#Configuration: METEOR-M2 4
#Start time: 2026-01-21 10:57:39.099773

#LorettStation: 1.0.0 05.05.2024
#Station: planumMaritime01
#Location: 37.49445 lon 55.92918 lat
#TLE: 1 59051U 24039A   26019.97187307  .00000054  00000+0  43773-4 0  9994
#TLE: 2 59051  98.6823 341.2920 0006107 234.4548 125.6060 14.22408047 98192

#Time	Az	El	Level	SNR
2026-01-21 10:57:41.281193	147.7	10.2	-80.5	0.0
2026-01-21 10:57:43.545879	147.7	10.4	-79.5	0.0
2026-01-21 10:57:45.812876	147.6	10.6	-78.8	0.0
2026-01-21 10:57:48.083205	147.5	10.8	-77.7	3.2
2026-01-21 10:57:50.353917	147.5	11.0	-76.8	6.4
2026-01-21 10:57:52.624859	147.4	11.2	-76.3	4.8
2026-01-21 10:57:54.895681	147.3	11.4	-76.2	5.7
2026-01-21 10:57:57.155384	147.3	11.6	-76.3	5.2
2026-01-21 10:57:59.423520	147.2	11.8	-76.7	5.9
2026-01-21 10:58:01.693735	147.1	12.0	-76.6	4.7
2026-01-21 10:58:03.965664	147.1	12.3	-76.3	5.0
2026-01-21 10:58:06.235917	147.0	12.5	-77.1	6.9
2026-01-21 10:58:08.505900	146.9	12.7	-77.6	7.5
2026-01-21 10:58:10.776277	146.9	12.9	-77.5	7.1
2026-01-21 10:58:13.045048	146.8	13.1	-77.1	6.2
2026-01-21 10:58:15.313773	146.7	13.4	-77.7	6.5
2026-01-21 10:58:17.584611	146.6	13.6	-77.7	7.2
2026-01-21 10:58:19.855385	146.5	13.8	-77.2	7.6
2026-01-21 10:58:22.126618	146.5	14.0	-76.9	6.7
2026-01-21 10:58:24.391388	146.4	14.3	-76.9	6.8
2026-01-21 10:58:26.660724	146.3	14.5	-77.3	6.4
2026-01-21 10:58:28.929958	146.2	14.7	-77.6	6.1
2026-01-21 10:58:31.200508	146.1	15.0	-77.4	6.7
2026-01-21 10:58:33.473752	146.0	15.2	-77.5	7.3
2026-01-21 10:58:35.753031	146.0	15.5	-77.0	8.0
2026-01-21 10:58:38.028344	145.9	15.7	-76.9	6.6
2026-01-21 10:58:40.307578	145.8	16.0	-77.4	8.2
2026-01-21 10:58:42.583042	145.7	16.2	-77.0	7.5
2026-01-21 10:58:44.861013	145.6	16.5	-77.3	7.2
2026-01-21 10:58:47.133942	145.5	16.7	-77.2	7.1
2026-01-21 10:58:49.409718	145.4	17.0	-77.6	7.7
2026-01-21 10:58:51.683045	145.3	17.2	-76.9	7.1
2026-01-21 10:58:53.963819	145.2	17.5	-77.6	7.7
2026-01-21 10:58:56.241497	145.1	17.8	-77.7	9.6
2026-01-21 10:58:58.515722	145.0	18.1	-77.1	5.7
2026-01-21 10:59:00.790576	144.9	18.3	-77.2	8.2
2026-01-21 10:59:03.067141	144.8	18.6	-77.4	8.4
2026-01-21 10:59:05.343498	144.7	18.9	-77.2	8.6
2026-01-21 10:59:07.621220	144.5	19.2	-77.0	7.2
2026-01-21 10:59:09.898191	144.4	19.5	-77.2	7.8
2026-01-21 10:59:12.174961	144.3	19.7	-77.3	9.3
2026-01-21 10:59:14.452407	144.2	20.0	-77.0	7.2
2026-01-21 10:59:16.729955	144.1	20.3	-77.4	8.0
2026-01-21 10:59:19.004638	143.9	20.6	-77.0	7.4
2026-01-21 10:59:21.281085	143.8	20.9	-77.7	9.9
2026-01-21 10:59:23.558887	143.7	21.2	-77.4	7.7
2026-01-21 10:59:25.835280	143.5	21.5	-77.8	9.0
2026-01-21 10:59:28.108052	143.4	21.9	-77.4	8.8
2026-01-21 10:59:30.385654	143.3	22.2	-77.5	9.0
2026-01-21 10:59:32.661666	143.1	22.5	-77.2	9.0
2026-01-21 10:59:34.935846	143.0	22.8	-77.3	8.5
2026-01-21 10:59:37.217480	142.8	23.1	-76.8	6.6
2026-01-21 10:59:39.492963	142.7	23.5	-77.2	9.3
2026-01-21 10:59:41.767097	142.5	23.8	-76.9	7.9
2026-01-21 10:59:44.039955	142.4	24.2	-77.5	9.8
2026-01-21 10:59:46.315053	142.2	24.5	-77.3	9.1
2026-01-21 10:59:48.593714	142.0	24.9	-77.1	8.9
2026-01-21 10:59:50.866203	141.9	25.2	-76.6	7.0
2026-01-21 10:59:53.142216	141.7	25.6	-76.3	6.9
2026-01-21 10:59:55.416750	141.5	25.9	-76.3	7.4
2026-01-21 10:59:57.691766	141.3	26.3	-76.6	8.2
2026-01-21 10:59:59.968937	141.1	26.7	-76.6	7.6
2026-01-21 11:00:02.247082	140.9	27.0	-76.5	7.3
2026-01-21 11:00:04.527256	140.7	27.4	-76.4	8.2
2026-01-21 11:00:06.809129	140.5	27.8	-76.3	6.6
2026-01-21 11:00:09.090020	140.3	28.2	-76.8	8.5
2026-01-21 11:00:11.364897	140.1	28.6	-77.1	9.5
2026-01-21 11:00:13.639306	139.9	29.0	-76.6	9.2
2026-01-21 11:00:15.916935	139.7	29.4	-76.0	6.4
2026-01-21 11:00:18.191826	139.4	29.8	-76.6	9.5
2026-01-21 11:00:20.466471	139.2	30.3	-76.6	9.4
2026-01-21 11:00:22.744272	139.0	30.7	-76.8	8.0
2026-01-21 11:00:25.021882	138.7	31.1	-75.9	7.0
2026-01-21 11:00:27.297019	138.5	31.5	-77.0	9.2
2026-01-21 11:00:29.572039	138.2	32.0	-77.1	8.4
2026-01-21 11:00:31.853100	137.9	32.4	-76.9	6.8
2026-01-21 11:00:34.128796	137.6	32.9	-76.6	7.4
2026-01-21 11:00:36.404984	137.4	33.4	-76.7	6.3
2026-01-21 11:00:38.683765	137.1	33.8	-76.5	6.2
2026-01-21 11:00:40.960981	136.8	34.3	-76.1	6.1
2026-01-21 11:00:43.238213	136.4	34.8	-76.2	6.5
2026-01-21 11:00:45.512379	136.1	35.3	-76.5	5.8
2026-01-21 11:00:47.789218	135.8	35.7	-75.8	5.0
2026-01-21 11:00:50.064437	135.4	36.2	-76.1	5.0
2026-01-21 11:00:52.344951	135.1	36.8	-75.8	6.6
2026-01-21 11:00:54.621063	134.7	37.3	-75.9	5.2
2026-01-21 11:00:56.892754	134.3	37.8	-76.4	6.2
2026-01-21 11:00:59.161843	134.0	38.3	-75.8	4.8
2026-01-21 11:01:01.426744	133.6	38.8	-76.0	5.2
2026-01-21 11:01:03.690447	133.1	39.4	-76.2	6.7
2026-01-21 11:01:05.957187	132.7	39.9	-75.4	4.4
2026-01-21 11:01:08.223949	132.3	40.5	-75.7	5.9
2026-01-21 11:01:10.489114	131.8	41.0	-75.3	4.0
2026-01-21 11:01:12.751734	131.3	41.6	-74.9	4.3
2026-01-21 11:01:15.016696	130.8	42.1	-75.9	5.1
2026-01-21 11:01:17.285264	130.3	42.7	-76.4	6.5
2026-01-21 11:01:19.550100	129.8	43.3	-76.5	5.9
2026-01-21 11:01:21.813995	129.3	43.9	-75.6	3.8
2026-01-21 11:01:24.078847	128.7	44.5	-75.9	3.5
2026-01-21 11:01:26.344978	128.1	45.1	-75.5	2.4
2026-01-21 11:01:28.609557	127.5	45.7	-75.5	3.2
2026-01-21 11:01:30.884221	126.8	46.3	-75.0	2.4
2026-01-21 11:01:33.160833	126.2	46.9	-75.1	2.5
2026-01-21 11:01:35.437870	125.5	47.5	-75.0	2.5
2026-01-21 11:01:37.717246	124.7	48.2	-75.4	2.7
2026-01-21 11:01:39.991955	124.0	48.8	-75.3	2.9
2026-01-21 11:01:42.265965	123.2	49.4	-76.0	5.4
2026-01-21 11:01:44.532108	122.4	50.1	-75.1	1.4
2026-01-21 11:01:46.802707	121.5	50.7	-76.4	5.0
2026-01-21 11:01:49.071138	120.6	51.3	-76.2	2.6
2026-01-21 11:01:51.337907	119.7	52.0	-76.3	3.1
2026-01-21 11:01:53.607220	118.8	52.6	-76.5	3.8
2026-01-21 11:01:55.875297	117.7	53.2	-76.9	0.0
2026-01-21 11:01:58.145534	116.7	53.9	-75.6	2.3
2026-01-21 11:02:00.416310	115.6	54.5	-76.4	5.2
2026-01-21 11:02:02.686420	114.4	55.2	-77.4	4.2
2026-01-21 11:02:04.947366	113.2	55.8	-75.6	3.5
2026-01-21 11:02:07.214029	111.9	56.4	-75.3	1.5
2026-01-21 11:02:09.483458	110.6	57.0	-76.5	2.1
2026-01-21 11:02:11.750842	109.2	57.6	-75.2	0.0
2026-01-21 11:02:14.014899	107.8	58.2	-77.0	1.9
2026-01-21 11:02:16.283893	106.3	58.8	-76.7	0.0
2026-01-21 11:02:18.553255	104.7	59.4	-77.9	0.0
2026-01-21 11:02:20.819998	103.1	59.9	-78.0	0.9
2026-01-21 11:02:23.086637	101.4	60.4	-76.4	0.0
2026-01-21 11:02:25.352617	99.6	61.0	-75.3	0.0
2026-01-21 11:02:27.620047	97.7	61.4	-73.5	0.0
2026-01-21 11:02:29.891554	95.8	61.9	-77.0	4.0
2026-01-21 11:02:32.166577	93.7	62.4	-76.0	3.5
2026-01-21 11:02:34.441244	91.7	62.8	-75.0	0.7
2026-01-21 11:02:36.714051	89.5	63.2	-75.4	0.0
2026-01-21 11:02:38.987262	87.3	63.5	-77.8	2.7
2026-01-21 11:02:41.264208	85.0	63.8	-75.2	0.0
2026-01-21 11:02:43.537480	82.6	64.1	-75.6	0.0
2026-01-21 11:02:45.812316	80.2	64.3	-74.4	0.0
2026-01-21 11:02:48.091094	77.8	64.5	-75.9	2.3
2026-01-21 11:02:50.369900	75.3	64.7	-73.7	0.0
2026-01-21 11:02:52.644182	72.8	64.8	-76.1	0.0
2026-01-21 11:02:54.924153	70.2	64.9	-75.8	0.0
2026-01-21 11:02:57.202018	67.7	64.9	-76.5	0.0
2026-01-21 11:02:59.475766	65.1	64.9	-75.4	0.0
2026-01-21 11:03:01.751409	62.6	64.8	-74.9	0.0
2026-01-21 11:03:04.025315	60.0	64.7	-75.9	0.0
2026-01-21 11:03:06.301790	57.5	64.6	-74.1	0.0
2026-01-21 11:03:08.576429	55.1	64.4	-75.6	0.0
2026-01-21 11:03:10.847460	52.7	64.1	-74.4	0.0
2026-01-21 11:03:13.117837	50.3	63.9	-75.3	0.0
2026-01-21 11:03:15.388091	48.0	63.6	-76.3	0.0
2026-01-21 11:03:17.659242	45.8	63.2	-75.0	0.2
2026-01-21 11:03:19.929048	43.7	62.8	-76.4	0.2
2026-01-21 11:03:22.202494	41.6	62.4	-74.4	0.0
2026-01-21 11:03:24.476151	39.5	62.0	-74.3	0.0
2026-01-21 11:03:26.747048	37.6	61.5	-76.3	0.0
2026-01-21 11:03:29.018968	35.7	61.0	-74.9	0.0
2026-01-21 11:03:31.290249	33.9	60.5	-77.0	1.9
2026-01-21 11:03:33.561068	32.2	60.0	-74.3	0.0
2026-01-21 11:03:35.834559	30.5	59.4	-76.1	0.0
2026-01-21 11:03:38.106824	29.0	58.9	-75.9	3.0
2026-01-21 11:03:40.376800	27.4	58.3	-76.4	0.6
2026-01-21 11:03:42.648822	26.0	57.7	-76.9	0.0
2026-01-21 11:03:44.919135	24.6	57.1	-76.8	1.2
2026-01-21 11:03:47.191409	23.3	56.5	-77.3	2.3
2026-01-21 11:03:49.462609	22.0	55.9	-76.0	0.5
2026-01-21 11:03:51.733367	20.8	55.2	-76.2	1.0
2026-01-21 11:03:54.003427	19.6	54.6	-76.7	1.1
2026-01-21 11:03:56.272033	18.5	54.0	-76.7	1.1
2026-01-21 11:03:58.535305	17.5	53.3	-76.5	2.5
2026-01-21 11:04:00.805150	16.5	52.7	-74.6	0.0
2026-01-21 11:04:03.073305	15.5	52.1	-75.8	2.2
2026-01-21 11:04:05.343814	14.5	51.4	-77.1	4.3
2026-01-21 11:04:07.613790	13.7	50.8	-75.7	1.7
2026-01-21 11:04:09.882377	12.8	50.2	-74.3	0.0
2026-01-21 11:04:12.151813	12.0	49.5	-75.1	0.0
2026-01-21 11:04:14.422697	11.2	48.9	-76.2	3.0
2026-01-21 11:04:16.693790	10.4	48.3	-75.2	0.7
2026-01-21 11:04:18.966048	9.7	47.6	-74.4	0.0
2026-01-21 11:04:21.239902	9.0	47.0	-75.3	1.8
2026-01-21 11:04:23.517659	8.4	46.4	-72.9	0.0
2026-01-21 11:04:25.794213	7.7	45.8	-73.8	0.0
2026-01-21 11:04:28.070730	7.1	45.2	-75.0	0.0
2026-01-21 11:04:30.347805	6.5	44.6	-73.9	0.0
2026-01-21 11:04:32.623785	5.9	44.0	-73.5	0.0
2026-01-21 11:04:34.901346	5.4	43.4	-72.0	0.0
2026-01-21 11:04:37.174568	4.8	42.8	-72.6	0.0
2026-01-21 11:04:39.455016	4.3	42.3	-72.0	0.0
2026-01-21 11:04:41.728742	3.8	41.7	-72.5	0.0
2026-01-21 11:04:44.008549	3.3	41.1	-73.1	0.0
2026-01-21 11:04:46.287996	2.9	40.6	-72.2	0.0
2026-01-21 11:04:48.565629	2.4	40.0	-71.3	0.0
2026-01-21 11:04:50.837383	2.0	39.5	-70.5	0.0
2026-01-21 11:04:53.099443	1.6	38.9	-70.4	0.0
2026-01-21 11:04:55.366426	1.2	38.4	-70.7	0.0
2026-01-21 11:04:57.632499	0.8	37.9	-70.2	0.0
2026-01-21 11:04:59.900563	0.4	37.4	-69.4	0.0
2026-01-21 11:05:02.166188	0.1	36.9	-68.6	0.0
2026-01-21 11:05:04.428495	359.7	36.4	-70.7	0.0
2026-01-21 11:05:06.694564	359.4	35.9	-69.7	0.0
2026-01-21 11:05:08.958038	359.0	35.4	-68.1	0.0
2026-01-21 11:05:11.224769	358.7	34.9	-68.7	0.0
2026-01-21 11:05:13.489162	358.4	34.4	-69.7	0.0
2026-01-21 11:05:15.751971	358.1	34.0	-69.8	0.0
2026-01-21 11:05:18.017462	357.8	33.5	-69.2	0.0
2026-01-21 11:05:20.281437	357.5	33.0	-70.2	0.0
2026-01-21 11:05:22.543908	357.3	32.6	-69.9	0.0
2026-01-21 11:05:24.821595	357.0	32.1	-69.5	0.0
2026-01-21 11:05:27.096176	356.7	31.7	-71.8	0.0
2026-01-21 11:05:29.370973	356.5	31.3	-70.3	0.0
2026-01-21 11:05:31.648884	356.2	30.8	-69.8	0.0
2026-01-21 11:05:33.922895	356.0	30.4	-69.9	0.0
2026-01-21 11:05:36.197107	355.7	30.0	-70.6	0.0
2026-01-21 11:05:38.472781	355.5	29.6	-70.1	0.0
2026-01-21 11:05:40.746405	355.3	29.2	-69.1	0.0
2026-01-21 11:05:43.021780	355.1	28.8	-69.9	0.0
2026-01-21 11:05:45.296404	354.9	28.4	-69.9	0.0
2026-01-21 11:05:47.571681	354.7	28.0	-68.8	0.0
2026-01-21 11:05:49.846238	354.5	27.6	-69.2	0.0
2026-01-21 11:05:52.122531	354.3	27.2	-71.0	0.0
2026-01-21 11:05:54.397112	354.1	26.8	-70.9	0.0
2026-01-21 11:05:56.669700	353.9	26.5	-70.7	0.0
2026-01-21 11:05:58.944845	353.7	26.1	-71.4	0.0
2026-01-21 11:06:01.218721	353.5	25.7	-70.7	0.0
2026-01-21 11:06:03.492773	353.3	25.4	-68.7	0.0
2026-01-21 11:06:05.764752	353.2	25.0	-69.0	0.0
2026-01-21 11:06:08.037945	353.0	24.7	-69.0	0.0
2026-01-21 11:06:10.312099	352.8	24.3	-69.7	0.0
2026-01-21 11:06:12.578522	352.7	24.0	-69.3	0.0
2026-01-21 11:06:14.841762	352.5	23.7	-69.6	0.0
2026-01-21 11:06:17.107029	352.4	23.3	-69.8	0.0
2026-01-21 11:06:19.376606	352.2	23.0	-69.7	0.0
2026-01-21 11:06:21.643464	352.1	22.7	-69.3	0.0
2026-01-21 11:06:23.913606	351.9	22.4	-69.8	0.0
2026-01-21 11:06:26.182853	351.8	22.0	-70.1	0.0
2026-01-21 11:06:28.457293	351.7	21.7	-70.4	0.0
2026-01-21 11:06:30.722617	351.5	21.4	-68.1	0.0
2026-01-21 11:06:32.990466	351.4	21.1	-68.6	0.0
2026-01-21 11:06:35.257830	351.3	20.8	-71.1	0.0
2026-01-21 11:06:37.523945	351.2	20.5	-70.5	0.0
2026-01-21 11:06:39.784376	351.0	20.2	-70.9	0.0
2026-01-21 11:06:42.051229	350.9	19.9	-70.4	0.0
2026-01-21 11:06:44.313417	350.8	19.6	-71.8	0.0
2026-01-21 11:06:46.579182	350.7	19.4	-70.3	0.0
2026-01-21 11:06:48.849342	350.6	19.1	-69.7	0.0
2026-01-21 11:06:51.116646	350.5	18.8	-70.1	0.0
2026-01-21 11:06:53.384059	350.4	18.5	-70.9	0.0
2026-01-21 11:06:55.652546	350.2	18.3	-70.8	0.0
2026-01-21 11:06:57.921963	350.1	18.0	-70.6	0.0
2026-01-21 11:07:00.183259	350.0	17.7	-70.2	0.0
2026-01-21 11:07:02.447807	349.9	17.5	-69.2	0.0
2026-01-21 11:07:04.713459	349.8	17.2	-68.7	0.0
2026-01-21 11:07:06.978502	349.7	16.9	-70.9	0.0
2026-01-21 11:07:09.243339	349.7	16.7	-70.0	0.0
2026-01-21 11:07:11.510711	349.6	16.4	-71.3	0.0
2026-01-21 11:07:13.776386	349.5	16.2	-70.3	0.0
2026-01-21 11:07:16.044758	349.4	15.9	-70.2	0.0
2026-01-21 11:07:18.310778	349.3	15.7	-71.2	0.0
2026-01-21 11:07:20.575612	349.2	15.4	-72.9	0.0
2026-01-21 11:07:22.842814	349.1	15.2	-69.5	0.0
2026-01-21 11:07:25.115122	349.0	15.0	-71.2	0.0
2026-01-21 11:07:27.391792	349.0	14.7	-73.3	0.0
2026-01-21 11:07:29.670051	348.9	14.5	-71.7	0.0
2026-01-21 11:07:31.941892	348.8	14.3	-70.9	0.0
2026-01-21 11:07:34.219395	348.7	14.0	-71.7	0.0
2026-01-21 11:07:36.493798	348.6	13.8	-70.1	0.0
2026-01-21 11:07:38.765383	348.6	13.6	-72.4	0.0
2026-01-21 11:07:41.038511	348.5	13.3	-69.9	0.0
2026-01-21 11:07:43.314823	348.4	13.1	-70.3	0.0
2026-01-21 11:07:45.588770	348.3	12.9	-72.3	0.0
2026-01-21 11:07:47.862593	348.3	12.7	-71.2	0.0
2026-01-21 11:07:50.134844	348.2	12.5	-70.7	0.0
2026-01-21 11:07:52.409898	348.1	12.3	-72.2	0.0
2026-01-21 11:07:54.684927	348.1	12.0	-72.2	0.0
2026-01-21 11:07:56.958711	348.0	11.8	-70.9	0.0
2026-01-21 11:07:59.232025	347.9	11.6	-69.9	0.0
2026-01-21 11:08:01.507367	347.9	11.4	-70.9	0.0
2026-01-21 11:08:03.778861	347.8	11.2	-73.1	0.0
2026-01-21 11:08:06.055809	347.8	11.0	-70.6	0.0
2026-01-21 11:08:08.338673	347.7	10.8	-71.0	0.0
2026-01-21 11:08:10.611002	347.6	10.6	-69.9	0.0
2026-01-21 11:08:12.890854	347.6	10.4	-66.1	0.0
2026-01-21 11:08:15.164842	347.5	10.2	-70.8	0.0
#Closed at: 2026-01-21 10:57:34.106880