passes_logs/2026/01/21/planumMaritime01/planumMaritime01__20260121_174443_METOP-C_rec.log

#Pass ID: 20260121_174443_METOP-C
#Satellite: METOP-C
#Configuration: METOP-C
#Start time: 2026-01-21 17:44:48.204134

#LorettStation: 1.0.0 05.05.2024
#Station: planumMaritime01
#Location: 37.49445 lon 55.92918 lat
#TLE: 1 43689U 18087A   26020.95760914  .00000315  00000+0  16376-3 0  9999
#TLE: 2 43689  98.6867  83.1145 0000854 172.1455 187.9736 14.21501717373913

#Time	Az	El	Level	SNR
2026-01-21 17:44:50.379346	149.9	10.2	-75.4	0.0
2026-01-21 17:44:52.634308	149.9	10.4	-75.3	0.0
2026-01-21 17:44:54.883959	149.8	10.6	-74.0	0.0
2026-01-21 17:44:57.135919	149.8	10.8	-72.3	0.0
2026-01-21 17:44:59.390638	149.7	11.0	-71.3	0.0
2026-01-21 17:45:01.644559	149.7	11.2	-70.4	0.0
2026-01-21 17:45:03.896684	149.6	11.4	-71.5	0.0
2026-01-21 17:45:06.149469	149.6	11.6	-72.3	0.0
2026-01-21 17:45:08.403506	149.5	11.8	-72.2	0.0
2026-01-21 17:45:10.652590	149.5	12.0	-72.5	0.0
2026-01-21 17:45:12.903852	149.4	12.2	-72.1	0.0
2026-01-21 17:45:15.156530	149.4	12.5	-72.4	0.0
2026-01-21 17:45:17.408766	149.3	12.7	-71.7	0.0
2026-01-21 17:45:19.660034	149.2	12.9	-72.6	0.7
2026-01-21 17:45:21.913970	149.2	13.1	-72.2	2.7
2026-01-21 17:45:24.167377	149.1	13.3	-71.2	0.0
2026-01-21 17:45:26.418464	149.1	13.6	-72.4	0.9
2026-01-21 17:45:28.671710	149.0	13.8	-72.4	2.3
2026-01-21 17:45:30.929158	148.9	14.0	-72.9	3.8
2026-01-21 17:45:33.181663	148.9	14.3	-72.8	2.6
2026-01-21 17:45:35.434738	148.8	14.5	-72.7	2.2
2026-01-21 17:45:37.687193	148.7	14.7	-71.3	0.0
2026-01-21 17:45:39.940911	148.7	15.0	-72.2	0.6
2026-01-21 17:45:42.191796	148.6	15.2	-72.3	0.0
2026-01-21 17:45:44.443453	148.5	15.5	-73.0	2.0
2026-01-21 17:45:46.699734	148.4	15.7	-73.2	3.3
2026-01-21 17:45:48.952920	148.4	15.9	-73.9	2.3
2026-01-21 17:45:51.204360	148.3	16.2	-73.6	4.5
2026-01-21 17:45:53.456025	148.2	16.4	-73.1	4.1
2026-01-21 17:45:55.708847	148.1	16.7	-72.0	1.5
2026-01-21 17:45:57.963502	148.1	17.0	-73.7	5.1
2026-01-21 17:46:00.220126	148.0	17.2	-73.0	2.1
2026-01-21 17:46:02.472211	147.9	17.5	-73.3	5.1
2026-01-21 17:46:04.725709	147.8	17.8	-73.4	4.9
2026-01-21 17:46:06.978253	147.7	18.0	-73.0	4.1
2026-01-21 17:46:09.228768	147.6	18.3	-72.9	2.8
2026-01-21 17:46:11.480637	147.5	18.6	-73.4	4.7
2026-01-21 17:46:13.735104	147.4	18.9	-72.5	4.8
2026-01-21 17:46:15.988654	147.4	19.1	-72.6	4.0
2026-01-21 17:46:18.238964	147.3	19.4	-72.4	5.8
2026-01-21 17:46:20.489469	147.2	19.7	-73.1	6.3
2026-01-21 17:46:22.741003	147.1	20.0	-73.6	5.9
2026-01-21 17:46:24.993482	147.0	20.3	-73.1	5.0
2026-01-21 17:46:27.247200	146.9	20.6	-73.2	6.3
2026-01-21 17:46:29.500410	146.8	20.9	-72.8	5.2
2026-01-21 17:46:31.751188	146.6	21.2	-72.4	4.3
2026-01-21 17:46:34.004578	146.5	21.5	-73.4	6.7
2026-01-21 17:46:36.258143	146.4	21.8	-72.3	4.9
2026-01-21 17:46:38.512326	146.3	22.1	-72.5	4.7
2026-01-21 17:46:40.767066	146.2	22.5	-72.8	4.5
2026-01-21 17:46:43.019841	146.1	22.8	-73.1	7.0
2026-01-21 17:46:45.273624	145.9	23.1	-72.1	5.2
2026-01-21 17:46:47.527832	145.8	23.4	-72.2	5.9
2026-01-21 17:46:49.781799	145.7	23.8	-72.3	7.2
2026-01-21 17:46:52.036168	145.6	24.1	-72.1	5.9
2026-01-21 17:46:54.286795	145.4	24.5	-71.7	4.6
2026-01-21 17:46:56.539673	145.3	24.8	-71.7	6.0
2026-01-21 17:46:58.794298	145.2	25.2	-72.9	9.0
2026-01-21 17:47:01.046799	145.0	25.5	-72.8	7.8
2026-01-21 17:47:03.297003	144.9	25.9	-72.0	7.0
2026-01-21 17:47:05.547894	144.7	26.3	-71.5	5.3
2026-01-21 17:47:07.800544	144.6	26.6	-72.1	6.7
2026-01-21 17:47:10.054076	144.4	27.0	-72.6	7.4
2026-01-21 17:47:12.308762	144.2	27.4	-72.3	7.0
2026-01-21 17:47:14.562627	144.1	27.8	-72.0	6.8
2026-01-21 17:47:16.816041	143.9	28.2	-71.6	5.1
2026-01-21 17:47:19.068206	143.7	28.6	-72.2	5.0
2026-01-21 17:47:21.320943	143.5	29.0	-71.8	5.3
2026-01-21 17:47:23.571080	143.4	29.4	-72.4	5.8
2026-01-21 17:47:25.824548	143.2	29.8	-72.3	6.2
2026-01-21 17:47:28.076148	143.0	30.2	-71.7	6.7
2026-01-21 17:47:30.330330	142.8	30.6	-71.4	4.8
2026-01-21 17:47:32.583509	142.6	31.1	-71.3	5.1
2026-01-21 17:47:34.834495	142.4	31.5	-71.7	7.0
2026-01-21 17:47:37.087118	142.1	32.0	-71.3	5.2
2026-01-21 17:47:39.340364	141.9	32.4	-72.4	10.2
2026-01-21 17:47:41.592240	141.7	32.9	-70.8	6.4
2026-01-21 17:47:43.846524	141.5	33.3	-71.9	8.5
2026-01-21 17:47:46.097827	141.2	33.8	-72.4	9.0
2026-01-21 17:47:48.356630	141.0	34.3	-72.4	9.6
2026-01-21 17:47:50.608716	140.7	34.8	-72.0	7.2
2026-01-21 17:47:52.857715	140.4	35.3	-72.7	9.1
2026-01-21 17:47:55.108863	140.2	35.8	-71.9	6.9
2026-01-21 17:47:57.363795	139.9	36.3	-72.1	8.8
2026-01-21 17:47:59.613612	139.6	36.8	-72.5	9.0
2026-01-21 17:48:01.864950	139.3	37.3	-72.6	8.2
2026-01-21 17:48:04.115366	139.0	37.8	-71.8	7.5
2026-01-21 17:48:06.366284	138.6	38.4	-72.0	7.9
2026-01-21 17:48:08.617201	138.3	38.9	-72.8	10.8
2026-01-21 17:48:10.870400	138.0	39.5	-72.1	8.7
2026-01-21 17:48:13.120019	137.6	40.0	-72.8	10.3
2026-01-21 17:48:15.373344	137.2	40.6	-72.3	9.8
2026-01-21 17:48:17.627752	136.8	41.1	-72.2	7.6
2026-01-21 17:48:19.878304	136.5	41.7	-71.9	9.2
2026-01-21 17:48:22.134771	136.0	42.3	-71.7	8.8
2026-01-21 17:48:24.386253	135.6	42.9	-71.4	8.2
2026-01-21 17:48:26.638625	135.2	43.5	-69.9	6.6
2026-01-21 17:48:28.888071	134.7	44.1	-71.0	6.9
2026-01-21 17:48:31.141290	134.2	44.7	-71.7	8.7
2026-01-21 17:48:33.394299	133.7	45.4	-72.1	8.5
2026-01-21 17:48:35.645126	133.2	46.0	-71.2	7.1
2026-01-21 17:48:37.901290	132.7	46.6	-71.5	7.4
2026-01-21 17:48:40.154566	132.1	47.3	-71.8	8.1
2026-01-21 17:48:42.406625	131.5	47.9	-70.6	6.8
2026-01-21 17:48:44.658095	130.9	48.6	-71.3	8.4
2026-01-21 17:48:46.907452	130.2	49.3	-71.3	8.0
2026-01-21 17:48:49.163251	129.6	49.9	-71.7	7.3
2026-01-21 17:48:51.415663	128.9	50.6	-71.2	8.4
2026-01-21 17:48:53.668205	128.1	51.3	-70.1	7.0
2026-01-21 17:48:55.922244	127.3	52.0	-71.4	8.4
2026-01-21 17:48:58.174580	126.5	52.7	-71.6	6.5
2026-01-21 17:49:00.427463	125.7	53.4	-71.0	6.6
2026-01-21 17:49:02.680512	124.8	54.1	-69.9	5.8
2026-01-21 17:49:04.932364	123.9	54.8	-71.2	6.7
2026-01-21 17:49:07.185724	122.9	55.5	-70.7	5.7
2026-01-21 17:49:09.437545	121.9	56.2	-71.2	7.2
2026-01-21 17:49:11.688348	120.8	56.9	-71.0	6.7
2026-01-21 17:49:13.944625	119.6	57.6	-70.8	4.0
2026-01-21 17:49:16.194949	118.4	58.3	-70.9	5.1
2026-01-21 17:49:18.447176	117.2	59.0	-70.1	3.3
2026-01-21 17:49:20.699496	115.8	59.7	-70.1	4.4
2026-01-21 17:49:22.951220	114.4	60.3	-70.2	5.7
2026-01-21 17:49:25.202741	112.9	61.0	-69.4	3.0
2026-01-21 17:49:27.457551	111.4	61.7	-68.4	3.9
2026-01-21 17:49:29.709165	109.7	62.3	-69.1	3.4
2026-01-21 17:49:31.963021	108.0	62.9	-69.0	4.9
2026-01-21 17:49:34.220354	106.1	63.6	-69.5	5.1
2026-01-21 17:49:36.472584	104.2	64.1	-68.5	1.0
2026-01-21 17:49:38.730048	102.2	64.7	-69.2	4.6
2026-01-21 17:49:40.981397	100.0	65.3	-69.8	6.1
2026-01-21 17:49:43.234753	97.8	65.8	-69.8	5.9
2026-01-21 17:49:45.486049	95.4	66.3	-70.1	2.5
2026-01-21 17:49:47.740023	93.0	66.7	-70.0	1.2
2026-01-21 17:49:49.994402	90.4	67.1	-69.2	1.3
2026-01-21 17:49:52.246146	87.8	67.5	-68.3	0.0
2026-01-21 17:49:54.499320	85.1	67.8	-68.9	0.0
2026-01-21 17:49:56.751076	82.3	68.1	-69.1	0.0
2026-01-21 17:49:59.004830	79.4	68.3	-68.9	0.0
2026-01-21 17:50:01.254247	76.4	68.5	-68.1	0.0
2026-01-21 17:50:03.506192	73.5	68.6	-68.2	0.0
2026-01-21 17:50:05.759393	70.5	68.7	-68.4	0.0
2026-01-21 17:50:08.011997	67.4	68.7	-68.5	0.0
2026-01-21 17:50:10.266367	64.4	68.6	-68.0	0.0
2026-01-21 17:50:12.521591	61.4	68.5	-69.1	0.0
2026-01-21 17:50:14.776556	58.4	68.4	-68.7	0.0
2026-01-21 17:50:17.031349	55.5	68.2	-68.9	0.0
2026-01-21 17:50:19.287294	52.7	67.9	-69.2	0.0
2026-01-21 17:50:21.541513	49.9	67.6	-69.3	2.2
2026-01-21 17:50:23.793745	47.2	67.3	-69.3	0.8
2026-01-21 17:50:26.047886	44.7	66.9	-68.2	0.8
2026-01-21 17:50:28.303724	42.2	66.4	-68.7	2.4
2026-01-21 17:50:30.557255	39.8	66.0	-68.3	2.5
2026-01-21 17:50:32.809815	37.5	65.5	-69.1	1.8
2026-01-21 17:50:35.068704	35.3	64.9	-69.2	5.4
2026-01-21 17:50:37.320220	33.3	64.4	-68.7	3.0
2026-01-21 17:50:39.569065	31.3	63.8	-67.8	1.0
2026-01-21 17:50:41.821709	29.4	63.2	-67.9	3.1
2026-01-21 17:50:44.074765	27.7	62.6	-68.5	2.1
2026-01-21 17:50:46.326136	26.0	61.9	-68.3	5.4
2026-01-21 17:50:48.576560	24.4	61.3	-67.9	4.8
2026-01-21 17:50:50.828822	22.9	60.6	-68.8	1.1
2026-01-21 17:50:53.082266	21.4	60.0	-69.0	5.9
2026-01-21 17:50:55.333697	20.0	59.3	-69.1	3.9
2026-01-21 17:50:57.584558	18.8	58.6	-70.4	5.4
2026-01-21 17:50:59.838469	17.5	57.9	-70.4	6.6
2026-01-21 17:51:02.088973	16.4	57.2	-69.3	4.7
2026-01-21 17:51:04.340551	15.3	56.5	-69.9	3.3
2026-01-21 17:51:06.591675	14.2	55.8	-70.1	4.0
2026-01-21 17:51:08.845212	13.2	55.1	-70.1	5.8
2026-01-21 17:51:11.097585	12.2	54.4	-69.4	1.0
2026-01-21 17:51:13.352632	11.3	53.7	-68.6	1.2
2026-01-21 17:51:15.602434	10.5	53.0	-71.0	6.3
2026-01-21 17:51:17.853864	9.7	52.3	-69.9	6.0
2026-01-21 17:51:20.108287	8.9	51.6	-69.0	4.9
2026-01-21 17:51:22.363083	8.1	50.9	-69.6	5.7
2026-01-21 17:51:24.613901	7.4	50.3	-68.8	5.1
2026-01-21 17:51:26.865369	6.7	49.6	-68.4	1.5
2026-01-21 17:51:29.117242	6.1	48.9	-68.0	4.0
2026-01-21 17:51:31.366917	5.4	48.3	-68.1	2.6
2026-01-21 17:51:33.620646	4.8	47.6	-68.5	4.2
2026-01-21 17:51:35.873508	4.3	47.0	-68.3	3.4
2026-01-21 17:51:38.124278	3.7	46.3	-67.5	3.9
2026-01-21 17:51:40.376406	3.2	45.7	-69.2	3.7
2026-01-21 17:51:42.626709	2.7	45.1	-67.4	2.7
2026-01-21 17:51:44.882022	2.2	44.5	-67.9	0.0
2026-01-21 17:51:47.134888	1.7	43.8	-66.5	0.0
2026-01-21 17:51:49.387846	1.3	43.2	-65.1	0.0
2026-01-21 17:51:51.641502	0.8	42.6	-64.3	0.0
2026-01-21 17:51:53.898583	0.4	42.0	-64.7	0.0
2026-01-21 17:51:56.150793	0.0	41.5	-65.4	0.0
2026-01-21 17:51:58.405350	359.6	40.9	-64.9	0.0
2026-01-21 17:52:00.658991	359.2	40.3	-63.5	0.0
2026-01-21 17:52:02.913335	358.9	39.8	-66.1	0.0
2026-01-21 17:52:05.166642	358.5	39.2	-63.4	0.0
2026-01-21 17:52:07.418778	358.2	38.7	-62.8	0.0
2026-01-21 17:52:09.673391	357.9	38.1	-64.2	0.0
2026-01-21 17:52:11.925688	357.5	37.6	-63.2	0.0
2026-01-21 17:52:14.177848	357.2	37.1	-63.0	0.0
2026-01-21 17:52:16.431080	356.9	36.6	-60.4	0.0
2026-01-21 17:52:18.683693	356.7	36.1	-61.2	0.0
2026-01-21 17:52:20.935295	356.4	35.6	-61.8	0.0
2026-01-21 17:52:23.186451	356.1	35.1	-61.1	0.0
2026-01-21 17:52:25.438291	355.9	34.6	-63.4	0.0
2026-01-21 17:52:27.693163	355.6	34.1	-62.8	0.0
2026-01-21 17:52:29.946821	355.4	33.6	-64.2	0.0
2026-01-21 17:52:32.199094	355.1	33.2	-63.3	0.0
2026-01-21 17:52:34.451025	354.9	32.7	-63.9	0.0
2026-01-21 17:52:36.701275	354.7	32.3	-64.1	0.0
2026-01-21 17:52:38.953574	354.4	31.8	-64.0	0.0
2026-01-21 17:52:41.207009	354.2	31.4	-63.4	0.0
2026-01-21 17:52:43.460268	354.0	30.9	-64.1	0.0
2026-01-21 17:52:45.714003	353.8	30.5	-63.3	0.0
2026-01-21 17:52:47.967215	353.6	30.1	-63.0	0.0
2026-01-21 17:52:50.221611	353.4	29.7	-62.9	0.0
2026-01-21 17:52:52.475489	353.3	29.3	-60.8	0.0
2026-01-21 17:52:54.729828	353.1	28.9	-64.4	0.0
2026-01-21 17:52:56.981380	352.9	28.5	-63.5	0.0
2026-01-21 17:52:59.234348	352.7	28.1	-63.7	0.0
2026-01-21 17:53:01.486114	352.6	27.7	-64.1	0.0
2026-01-21 17:53:03.742631	352.4	27.3	-64.8	0.0
2026-01-21 17:53:05.994249	352.2	26.9	-64.7	0.0
2026-01-21 17:53:08.247576	352.1	26.5	-62.1	0.0
2026-01-21 17:53:10.498969	351.9	26.2	-64.3	0.0
2026-01-21 17:53:12.751074	351.8	25.8	-62.9	0.0
2026-01-21 17:53:15.003506	351.6	25.4	-61.8	0.0
2026-01-21 17:53:17.255673	351.5	25.1	-62.9	0.0
2026-01-21 17:53:19.507756	351.4	24.7	-63.2	0.0
2026-01-21 17:53:21.763859	351.2	24.4	-63.4	0.0
2026-01-21 17:53:24.016734	351.1	24.1	-64.2	0.0
2026-01-21 17:53:26.272998	351.0	23.7	-65.1	0.0
2026-01-21 17:53:28.524828	350.8	23.4	-63.8	0.0
2026-01-21 17:53:30.778607	350.7	23.1	-62.6	0.0
2026-01-21 17:53:33.033277	350.6	22.7	-62.9	0.0
2026-01-21 17:53:35.285809	350.5	22.4	-64.2	0.0
2026-01-21 17:53:37.536562	350.4	22.1	-62.6	0.0
2026-01-21 17:53:39.788957	350.3	21.8	-63.9	0.0
2026-01-21 17:53:42.040247	350.2	21.5	-63.6	0.0
2026-01-21 17:53:44.293525	350.0	21.2	-62.9	0.0
2026-01-21 17:53:46.543754	349.9	20.9	-64.2	0.0
2026-01-21 17:53:48.796542	349.8	20.6	-63.6	0.0
2026-01-21 17:53:51.050201	349.7	20.3	-62.9	0.0
2026-01-21 17:53:53.303745	349.6	20.0	-63.4	0.0
2026-01-21 17:53:55.554500	349.5	19.7	-64.1	0.0
2026-01-21 17:53:57.805082	349.4	19.4	-64.8	0.0
2026-01-21 17:54:00.057102	349.4	19.1	-64.7	0.0
2026-01-21 17:54:02.311279	349.3	18.8	-63.4	0.0
2026-01-21 17:54:04.560402	349.2	18.6	-65.1	0.0
2026-01-21 17:54:06.815264	349.1	18.3	-64.4	0.0
2026-01-21 17:54:09.066105	349.0	18.0	-63.5	0.0
2026-01-21 17:54:11.318623	348.9	17.8	-65.8	0.0
2026-01-21 17:54:13.570714	348.8	17.5	-63.1	0.0
2026-01-21 17:54:15.823452	348.8	17.2	-63.7	0.0
2026-01-21 17:54:18.077262	348.7	17.0	-65.1	0.0
2026-01-21 17:54:20.329569	348.6	16.7	-65.8	0.0
2026-01-21 17:54:22.579998	348.5	16.5	-65.7	0.0
2026-01-21 17:54:24.836645	348.5	16.2	-66.3	0.0
2026-01-21 17:54:27.089444	348.4	16.0	-65.9	0.0
2026-01-21 17:54:29.340232	348.3	15.7	-65.1	0.0
2026-01-21 17:54:31.590498	348.2	15.5	-65.3	0.0
2026-01-21 17:54:33.844305	348.2	15.2	-65.5	0.0
2026-01-21 17:54:36.095491	348.1	15.0	-64.9	0.0
2026-01-21 17:54:38.351067	348.0	14.8	-63.6	0.0
2026-01-21 17:54:40.604258	348.0	14.5	-65.2	0.0
2026-01-21 17:54:42.859191	347.9	14.3	-66.4	0.0
2026-01-21 17:54:45.112079	347.8	14.1	-65.9	0.0
2026-01-21 17:54:47.365248	347.8	13.8	-65.1	0.0
2026-01-21 17:54:49.619478	347.7	13.6	-65.1	0.0
2026-01-21 17:54:51.870275	347.7	13.4	-64.7	0.0
2026-01-21 17:54:54.121351	347.6	13.2	-65.5	0.0
2026-01-21 17:54:56.373771	347.5	12.9	-66.3	0.0
2026-01-21 17:54:58.626742	347.5	12.7	-65.6	0.0
2026-01-21 17:55:00.877491	347.4	12.5	-64.2	0.0
2026-01-21 17:55:03.135647	347.4	12.3	-65.9	0.0
2026-01-21 17:55:05.390734	347.3	12.1	-65.8	0.0
2026-01-21 17:55:07.643491	347.3	11.9	-66.1	0.0
2026-01-21 17:55:09.898320	347.2	11.7	-64.9	0.0
2026-01-21 17:55:12.150036	347.2	11.5	-63.8	0.0
2026-01-21 17:55:14.406603	347.1	11.2	-65.4	0.0
2026-01-21 17:55:16.660094	347.1	11.0	-65.9	0.0
2026-01-21 17:55:18.912252	347.0	10.8	-65.9	0.0
2026-01-21 17:55:21.164257	347.0	10.6	-62.9	0.0
2026-01-21 17:55:23.416491	346.9	10.4	-65.1	0.0
2026-01-21 17:55:25.666915	346.9	10.2	-66.6	0.0
2026-01-21 17:55:27.922589	346.8	10.1	-69.8	0.0
#Closed at: 2026-01-21 17:44:43.210532