passes_logs/2026/01/21/planumMaritime01/planumMaritime01__20260121_010801_METEOR-M2_4_rec.log

#Pass ID: 20260121_010801_METEOR-M2 4
#Satellite: METEOR-M2 4
#Configuration: METEOR-M2 4
#Start time: 2026-01-21 01:08:06.890820

#LorettStation: 1.0.0 05.05.2024
#Station: planumMaritime01
#Location: 37.49445 lon 55.92918 lat
#TLE: 1 59051U 24039A   26019.97187307  .00000054  00000+0  43773-4 0  9994
#TLE: 2 59051  98.6823 341.2920 0006107 234.4548 125.6060 14.22408047 98192

#Time	Az	El	Level	SNR
2026-01-21 01:08:09.055258	15.8	10.2	-78.9	0.0
2026-01-21 01:08:11.321938	15.8	10.4	-78.5	0.0
2026-01-21 01:08:13.590456	15.8	10.6	-75.3	0.0
2026-01-21 01:08:15.860395	15.8	10.8	-74.2	0.0
2026-01-21 01:08:18.131530	15.8	11.0	-72.5	0.0
2026-01-21 01:08:20.403177	15.8	11.2	-73.5	0.0
2026-01-21 01:08:22.675979	15.8	11.4	-73.0	0.0
2026-01-21 01:08:24.946263	15.8	11.6	-74.3	0.0
2026-01-21 01:08:27.218493	15.8	11.8	-72.3	0.0
2026-01-21 01:08:29.490689	15.8	12.0	-73.2	0.0
2026-01-21 01:08:31.764958	15.8	12.3	-73.3	0.0
2026-01-21 01:08:34.040135	15.8	12.5	-72.7	0.0
2026-01-21 01:08:36.313901	15.8	12.7	-73.4	0.0
2026-01-21 01:08:38.585874	15.8	12.9	-73.8	0.0
2026-01-21 01:08:40.858051	15.8	13.1	-73.8	0.0
2026-01-21 01:08:43.130457	15.8	13.4	-72.5	0.0
2026-01-21 01:08:45.388012	15.8	13.6	-72.2	0.0
2026-01-21 01:08:47.645939	15.8	13.8	-73.3	0.0
2026-01-21 01:08:49.904223	15.8	14.0	-71.4	0.0
2026-01-21 01:08:52.160997	15.8	14.3	-72.0	0.0
2026-01-21 01:08:54.417088	15.8	14.5	-74.6	0.0
2026-01-21 01:08:56.678856	15.8	14.8	-74.2	0.0
2026-01-21 01:08:58.934751	15.7	15.0	-74.7	0.0
2026-01-21 01:09:01.193633	15.7	15.2	-71.9	0.0
2026-01-21 01:09:03.452292	15.7	15.5	-72.4	0.0
2026-01-21 01:09:05.708822	15.7	15.7	-72.9	0.0
2026-01-21 01:09:07.972371	15.7	16.0	-75.2	0.0
2026-01-21 01:09:10.237709	15.7	16.2	-73.8	0.0
2026-01-21 01:09:12.501478	15.7	16.5	-74.7	0.0
2026-01-21 01:09:14.766214	15.7	16.7	-73.3	0.0
2026-01-21 01:09:17.030481	15.7	17.0	-70.1	0.0
2026-01-21 01:09:19.293055	15.7	17.3	-72.9	0.0
2026-01-21 01:09:21.555052	15.7	17.5	-73.7	0.0
2026-01-21 01:09:23.824602	15.7	17.8	-75.1	0.0
2026-01-21 01:09:26.088265	15.6	18.1	-72.5	0.0
2026-01-21 01:09:28.359974	15.6	18.3	-75.1	0.0
2026-01-21 01:09:30.630767	15.6	18.6	-73.9	0.0
2026-01-21 01:09:32.908489	15.6	18.9	-73.0	0.0
2026-01-21 01:09:35.180897	15.6	19.2	-73.2	0.0
2026-01-21 01:09:37.454199	15.6	19.5	-75.1	0.0
2026-01-21 01:09:39.727024	15.6	19.8	-73.8	0.0
2026-01-21 01:09:42.001699	15.6	20.1	-72.6	0.0
2026-01-21 01:09:44.280626	15.5	20.4	-73.4	0.0
2026-01-21 01:09:46.555314	15.5	20.7	-74.6	0.0
2026-01-21 01:09:48.830384	15.5	21.0	-74.4	0.0
2026-01-21 01:09:51.106474	15.5	21.3	-74.6	1.3
2026-01-21 01:09:53.379215	15.5	21.6	-73.0	0.0
2026-01-21 01:09:55.650955	15.5	21.9	-73.5	0.1
2026-01-21 01:09:57.925469	15.5	22.3	-73.3	0.0
2026-01-21 01:10:00.200657	15.4	22.6	-74.5	0.0
2026-01-21 01:10:02.474795	15.4	22.9	-74.1	0.0
2026-01-21 01:10:04.750774	15.4	23.3	-74.7	0.0
2026-01-21 01:10:07.023147	15.4	23.6	-73.9	0.0
2026-01-21 01:10:09.296798	15.4	23.9	-74.2	0.0
2026-01-21 01:10:11.568777	15.3	24.3	-73.9	0.5
2026-01-21 01:10:13.843216	15.3	24.6	-73.3	0.9
2026-01-21 01:10:16.119654	15.3	25.0	-73.9	0.0
2026-01-21 01:10:18.396008	15.3	25.4	-74.9	0.4
2026-01-21 01:10:20.670326	15.3	25.7	-75.2	0.0
2026-01-21 01:10:22.941552	15.2	26.1	-73.6	1.4
2026-01-21 01:10:25.215026	15.2	26.5	-74.3	0.0
2026-01-21 01:10:27.489397	15.2	26.9	-75.6	4.4
2026-01-21 01:10:29.760537	15.2	27.3	-75.5	2.5
2026-01-21 01:10:32.033922	15.1	27.7	-75.4	4.9
2026-01-21 01:10:34.305709	15.1	28.1	-75.2	4.5
2026-01-21 01:10:36.581012	15.1	28.5	-74.6	3.2
2026-01-21 01:10:38.855904	15.0	28.9	-74.9	4.3
2026-01-21 01:10:41.131091	15.0	29.3	-75.9	6.0
2026-01-21 01:10:43.412463	15.0	29.7	-75.7	3.1
2026-01-21 01:10:45.690059	15.0	30.2	-75.5	3.3
2026-01-21 01:10:47.966396	14.9	30.6	-76.2	5.0
2026-01-21 01:10:50.240866	14.9	31.1	-75.3	5.4
2026-01-21 01:10:52.517450	14.8	31.5	-75.8	6.9
2026-01-21 01:10:54.792855	14.8	32.0	-75.8	7.6
2026-01-21 01:10:57.067260	14.8	32.5	-76.5	5.8
2026-01-21 01:10:59.339476	14.7	32.9	-76.1	7.7
2026-01-21 01:11:01.612864	14.7	33.4	-75.8	4.7
2026-01-21 01:11:03.880868	14.6	33.9	-77.0	6.1
2026-01-21 01:11:06.145922	14.6	34.4	-75.8	7.4
2026-01-21 01:11:08.409141	14.6	34.9	-75.4	4.1
2026-01-21 01:11:10.667211	14.5	35.4	-76.5	7.1
2026-01-21 01:11:12.933339	14.5	36.0	-77.5	7.3
2026-01-21 01:11:15.204160	14.4	36.5	-76.2	5.5
2026-01-21 01:11:17.470786	14.4	37.0	-77.3	7.5
2026-01-21 01:11:19.739234	14.3	37.6	-77.4	8.0
2026-01-21 01:11:22.009556	14.2	38.1	-76.7	5.8
2026-01-21 01:11:24.277752	14.2	38.7	-77.9	9.7
2026-01-21 01:11:26.546433	14.1	39.3	-78.1	8.5
2026-01-21 01:11:28.816192	14.0	39.9	-78.2	9.6
2026-01-21 01:11:31.085043	14.0	40.5	-77.6	7.5
2026-01-21 01:11:33.357647	13.9	41.1	-78.0	8.0
2026-01-21 01:11:35.635165	13.8	41.7	-77.7	8.0
2026-01-21 01:11:37.908376	13.8	42.4	-77.4	9.1
2026-01-21 01:11:40.184561	13.7	43.0	-78.3	11.1
2026-01-21 01:11:42.460091	13.6	43.7	-78.4	9.8
2026-01-21 01:11:44.734862	13.5	44.3	-78.7	10.8
2026-01-21 01:11:47.010188	13.4	45.0	-78.3	8.8
2026-01-21 01:11:49.285587	13.3	45.7	-78.3	11.0
2026-01-21 01:11:51.557854	13.2	46.4	-79.0	10.5
2026-01-21 01:11:53.832202	13.1	47.1	-78.8	10.8
2026-01-21 01:11:56.104693	13.0	47.8	-79.1	11.5
2026-01-21 01:11:58.381972	12.9	48.6	-79.3	10.9
2026-01-21 01:12:00.654567	12.7	49.3	-79.7	10.7
2026-01-21 01:12:02.924204	12.6	50.1	-79.8	10.8
2026-01-21 01:12:05.200912	12.5	50.9	-80.1	9.4
2026-01-21 01:12:07.474229	12.3	51.7	-80.4	9.9
2026-01-21 01:12:09.745843	12.2	52.5	-80.9	10.2
2026-01-21 01:12:12.016217	12.0	53.3	-80.8	8.6
2026-01-21 01:12:14.285917	11.8	54.1	-80.9	8.2
2026-01-21 01:12:16.558584	11.6	55.0	-80.7	7.3
2026-01-21 01:12:18.829608	11.4	55.8	-80.4	7.8
2026-01-21 01:12:21.107801	11.2	56.7	-80.6	8.3
2026-01-21 01:12:23.380953	11.0	57.6	-80.2	9.6
2026-01-21 01:12:25.660946	10.7	58.5	-80.3	8.3
2026-01-21 01:12:27.933047	10.5	59.4	-79.7	9.2
2026-01-21 01:12:30.201284	10.2	60.3	-80.0	9.8
2026-01-21 01:12:32.475749	9.9	61.2	-79.3	8.0
2026-01-21 01:12:34.745878	9.6	62.2	-79.6	8.9
2026-01-21 01:12:37.016697	9.2	63.1	-80.0	8.7
2026-01-21 01:12:39.286921	8.8	64.1	-80.3	7.4
2026-01-21 01:12:41.559057	8.4	65.1	-79.7	7.2
2026-01-21 01:12:43.830945	8.0	66.1	-80.0	9.8
2026-01-21 01:12:46.104632	7.5	67.1	-79.2	8.5
2026-01-21 01:12:48.377039	6.9	68.1	-78.7	8.0
2026-01-21 01:12:50.647149	6.3	69.2	-79.2	10.8
2026-01-21 01:12:52.918752	5.6	70.2	-78.6	9.9
2026-01-21 01:12:55.193185	4.8	71.2	-76.8	5.2
2026-01-21 01:12:57.463071	4.0	72.3	-79.4	10.8
2026-01-21 01:12:59.733163	3.0	73.4	-78.6	9.9
2026-01-21 01:13:02.003836	1.9	74.4	-79.1	7.4
2026-01-21 01:13:04.267973	0.6	75.5	-79.7	9.6
2026-01-21 01:13:06.524735	359.1	76.5	-79.3	7.2
2026-01-21 01:13:08.780112	357.3	77.6	-79.8	8.5
2026-01-21 01:13:11.039261	355.2	78.7	-78.0	4.9
2026-01-21 01:13:13.297406	352.6	79.7	-79.5	8.5
2026-01-21 01:13:15.558259	349.5	80.7	-79.7	11.7
2026-01-21 01:13:17.814326	345.6	81.7	-79.8	10.7
2026-01-21 01:13:20.077430	340.6	82.6	-79.9	10.5
2026-01-21 01:13:22.338876	334.2	83.5	-79.7	10.3
2026-01-21 01:13:24.598831	325.9	84.3	-80.5	11.9
2026-01-21 01:13:26.861351	315.3	84.9	-80.3	12.0
2026-01-21 01:13:29.135455	302.2	85.3	-80.0	10.5
2026-01-21 01:13:31.411909	287.5	85.5	-79.2	12.8
2026-01-21 01:13:33.689865	272.9	85.3	-79.7	12.7
2026-01-21 01:13:35.964222	260.1	84.9	-79.7	13.2
2026-01-21 01:13:38.238003	249.8	84.2	-80.0	12.6
2026-01-21 01:13:40.513174	241.8	83.4	-80.6	12.1
2026-01-21 01:13:42.790132	235.6	82.5	-80.4	12.2
2026-01-21 01:13:45.068850	230.8	81.5	-80.4	12.5
2026-01-21 01:13:47.343947	227.0	80.5	-80.6	13.2
2026-01-21 01:13:49.620328	223.9	79.5	-80.0	12.5
2026-01-21 01:13:51.895426	221.5	78.5	-79.7	13.7
2026-01-21 01:13:54.171099	219.4	77.4	-79.9	13.7
2026-01-21 01:13:56.448284	217.7	76.3	-79.9	13.0
2026-01-21 01:13:58.726751	216.2	75.2	-80.3	13.7
2026-01-21 01:14:01.004234	214.9	74.2	-80.7	12.9
2026-01-21 01:14:03.285019	213.8	73.1	-80.3	12.9
2026-01-21 01:14:05.558090	212.9	72.0	-80.3	13.2
2026-01-21 01:14:07.832024	212.0	71.0	-80.2	13.8
2026-01-21 01:14:10.105795	211.3	69.9	-80.4	13.1
2026-01-21 01:14:12.382832	210.6	68.9	-80.5	13.3
2026-01-21 01:14:14.660022	210.0	67.9	-80.6	13.7
2026-01-21 01:14:16.930648	209.5	66.8	-81.6	11.6
2026-01-21 01:14:19.205980	209.0	65.8	-81.2	11.4
2026-01-21 01:14:21.481180	208.5	64.8	-81.3	12.1
2026-01-21 01:14:23.756072	208.1	63.8	-81.5	12.0
2026-01-21 01:14:26.034409	207.7	62.9	-81.7	11.9
2026-01-21 01:14:28.307774	207.4	61.9	-81.9	11.6
2026-01-21 01:14:30.582689	207.1	61.0	-82.0	11.7
2026-01-21 01:14:32.855426	206.8	60.0	-82.0	11.0
2026-01-21 01:14:35.131537	206.5	59.1	-81.9	10.7
2026-01-21 01:14:37.404941	206.2	58.2	-82.3	10.1
2026-01-21 01:14:39.684852	206.0	57.3	-82.2	10.9
2026-01-21 01:14:41.958012	205.8	56.4	-82.3	11.0
2026-01-21 01:14:44.229381	205.6	55.5	-82.0	11.0
2026-01-21 01:14:46.503490	205.4	54.7	-82.0	11.4
2026-01-21 01:14:48.780545	205.2	53.8	-82.5	10.0
2026-01-21 01:14:51.055712	205.0	53.0	-82.1	10.9
2026-01-21 01:14:53.327142	204.8	52.2	-81.5	11.8
2026-01-21 01:14:55.604706	204.7	51.4	-81.6	11.9
2026-01-21 01:14:57.879922	204.5	50.6	-81.6	12.0
2026-01-21 01:15:00.154627	204.4	49.8	-81.6	12.6
2026-01-21 01:15:02.432616	204.3	49.0	-81.4	12.6
2026-01-21 01:15:04.702240	204.1	48.3	-81.0	12.7
2026-01-21 01:15:06.974558	204.0	47.5	-80.9	12.9
2026-01-21 01:15:09.248131	203.9	46.8	-80.9	13.3
2026-01-21 01:15:11.526142	203.8	46.1	-80.8	13.2
2026-01-21 01:15:13.796168	203.7	45.4	-80.8	13.7
2026-01-21 01:15:16.067901	203.6	44.7	-80.5	13.8
2026-01-21 01:15:18.337942	203.5	44.0	-80.9	13.5
2026-01-21 01:15:20.594265	203.4	43.4	-80.4	14.2
2026-01-21 01:15:22.856530	203.3	42.7	-80.3	14.1
2026-01-21 01:15:25.114649	203.3	42.1	-80.4	13.3
2026-01-21 01:15:27.374618	203.2	41.4	-80.4	13.2
2026-01-21 01:15:29.630619	203.1	40.8	-80.3	13.5
2026-01-21 01:15:31.893643	203.0	40.2	-80.3	14.1
2026-01-21 01:15:34.165822	203.0	39.6	-80.0	13.2
2026-01-21 01:15:36.437012	202.9	39.0	-79.9	12.6
2026-01-21 01:15:38.710215	202.8	38.4	-79.8	14.2
2026-01-21 01:15:40.979712	202.8	37.9	-79.8	12.9
2026-01-21 01:15:43.251189	202.7	37.3	-79.6	12.4
2026-01-21 01:15:45.519429	202.7	36.7	-79.8	13.9
2026-01-21 01:15:47.789063	202.6	36.2	-79.7	13.9
2026-01-21 01:15:50.055100	202.5	35.7	-79.8	12.3
2026-01-21 01:15:52.324502	202.5	35.1	-80.0	12.7
2026-01-21 01:15:54.594082	202.4	34.6	-79.5	11.5
2026-01-21 01:15:56.861871	202.4	34.1	-79.4	13.4
2026-01-21 01:15:59.132001	202.4	33.6	-79.6	14.1
2026-01-21 01:16:01.397215	202.3	33.1	-79.2	13.6
2026-01-21 01:16:03.670488	202.3	32.6	-79.3	13.1
2026-01-21 01:16:05.943758	202.2	32.2	-79.4	13.0
2026-01-21 01:16:08.216729	202.2	31.7	-79.5	11.8
2026-01-21 01:16:10.489448	202.2	31.2	-80.0	12.2
2026-01-21 01:16:12.759935	202.1	30.8	-78.7	10.0
2026-01-21 01:16:15.037029	202.1	30.3	-78.9	12.8
2026-01-21 01:16:17.308081	202.0	29.9	-79.2	14.0
2026-01-21 01:16:19.572631	202.0	29.5	-79.3	12.5
2026-01-21 01:16:21.841110	202.0	29.0	-78.8	11.6
2026-01-21 01:16:24.114752	201.9	28.6	-78.6	10.0
2026-01-21 01:16:26.387591	201.9	28.2	-78.7	12.6
2026-01-21 01:16:28.663213	201.9	27.8	-78.5	8.2
2026-01-21 01:16:30.938147	201.9	27.4	-78.7	11.1
2026-01-21 01:16:33.215878	201.8	27.0	-78.7	9.9
2026-01-21 01:16:35.490280	201.8	26.6	-78.8	11.1
2026-01-21 01:16:37.766621	201.8	26.2	-78.6	11.6
2026-01-21 01:16:40.033119	201.8	25.8	-79.3	12.0
2026-01-21 01:16:42.301792	201.7	25.4	-78.9	11.8
2026-01-21 01:16:44.574015	201.7	25.1	-78.4	11.5
2026-01-21 01:16:46.849599	201.7	24.7	-78.8	10.5
2026-01-21 01:16:49.123097	201.7	24.3	-78.8	13.1
2026-01-21 01:16:51.397016	201.6	24.0	-77.9	7.4
2026-01-21 01:16:53.667443	201.6	23.6	-78.8	13.4
2026-01-21 01:16:55.939493	201.6	23.3	-78.7	12.1
2026-01-21 01:16:58.209245	201.6	23.0	-79.2	12.6
2026-01-21 01:17:00.485047	201.6	22.6	-79.0	10.9
2026-01-21 01:17:02.760034	201.5	22.3	-79.2	10.4
2026-01-21 01:17:05.037518	201.5	22.0	-78.7	11.3
2026-01-21 01:17:07.310506	201.5	21.6	-78.4	8.8
2026-01-21 01:17:09.583975	201.5	21.3	-78.9	9.7
2026-01-21 01:17:11.857420	201.5	21.0	-79.2	12.2
2026-01-21 01:17:14.129807	201.4	20.7	-79.0	9.8
2026-01-21 01:17:16.402031	201.4	20.4	-78.5	10.6
2026-01-21 01:17:18.675870	201.4	20.1	-78.7	13.1
2026-01-21 01:17:20.947380	201.4	19.8	-78.7	7.9
2026-01-21 01:17:23.216651	201.4	19.5	-78.9	6.8
2026-01-21 01:17:25.494150	201.4	19.2	-78.4	10.8
2026-01-21 01:17:27.770144	201.4	18.9	-78.9	8.7
2026-01-21 01:17:30.044837	201.3	18.6	-78.9	6.1
2026-01-21 01:17:32.319569	201.3	18.3	-78.7	7.9
2026-01-21 01:17:34.592351	201.3	18.0	-78.8	8.0
2026-01-21 01:17:36.857608	201.3	17.8	-78.8	10.1
2026-01-21 01:17:39.118463	201.3	17.5	-79.3	11.1
2026-01-21 01:17:41.380043	201.3	17.2	-78.6	5.9
2026-01-21 01:17:43.636954	201.3	17.0	-79.0	9.1
2026-01-21 01:17:45.894220	201.3	16.7	-78.6	6.9
2026-01-21 01:17:48.147203	201.3	16.4	-78.6	5.5
2026-01-21 01:17:50.404596	201.2	16.2	-79.3	10.5
2026-01-21 01:17:52.665138	201.2	15.9	-79.1	8.2
2026-01-21 01:17:54.923061	201.2	15.7	-79.3	8.2
2026-01-21 01:17:57.180216	201.2	15.4	-79.2	8.2
2026-01-21 01:17:59.446240	201.2	15.2	-79.3	6.9
2026-01-21 01:18:01.716802	201.2	14.9	-79.3	11.6
2026-01-21 01:18:03.983128	201.2	14.7	-79.3	8.3
2026-01-21 01:18:06.249302	201.2	14.5	-79.1	9.4
2026-01-21 01:18:08.515158	201.2	14.2	-79.6	8.8
2026-01-21 01:18:10.781245	201.2	14.0	-79.9	11.0
2026-01-21 01:18:13.045663	201.2	13.7	-79.4	7.9
2026-01-21 01:18:15.311466	201.1	13.5	-79.7	8.3
2026-01-21 01:18:17.575778	201.1	13.3	-80.0	8.1
2026-01-21 01:18:19.844984	201.1	13.1	-79.6	8.6
2026-01-21 01:18:22.122394	201.1	12.8	-79.8	10.2
2026-01-21 01:18:24.399558	201.1	12.6	-79.7	7.6
2026-01-21 01:18:26.673545	201.1	12.4	-79.5	6.9
2026-01-21 01:18:28.947524	201.1	12.2	-79.1	6.9
2026-01-21 01:18:31.222656	201.1	11.9	-79.9	5.3
2026-01-21 01:18:33.498205	201.1	11.7	-79.4	6.7
2026-01-21 01:18:35.773648	201.1	11.5	-79.8	7.4
2026-01-21 01:18:38.048405	201.1	11.3	-80.0	9.9
2026-01-21 01:18:40.322379	201.1	11.1	-80.2	10.5
2026-01-21 01:18:42.598712	201.1	10.9	-79.5	4.9
2026-01-21 01:18:44.876472	201.1	10.7	-83.1	4.3
2026-01-21 01:18:47.153579	201.1	10.5	-85.6	0.0
2026-01-21 01:18:49.427368	201.1	10.3	-85.6	0.9
2026-01-21 01:18:51.708543	201.0	10.1	-86.1	0.0
#Closed at: 2026-01-21 01:08:01.897262