passes_logs/2026/01/21/planumMaritime01/planumMaritime01__20260121_075449_METOP-C_rec.log

#Pass ID: 20260121_075449_METOP-C
#Satellite: METOP-C
#Configuration: METOP-C
#Start time: 2026-01-21 07:54:54.707166

#LorettStation: 1.0.0 05.05.2024
#Station: planumMaritime01
#Location: 37.49445 lon 55.92918 lat
#TLE: 1 43689U 18087A   26019.90179106  .00000159  00000+0  92796-4 0  9996
#TLE: 2 43689  98.6868  82.0755 0000796 174.2820 185.8367 14.21500134373765

#Time	Az	El	Level	SNR
2026-01-21 07:54:56.882070	15.2	10.2	-63.9	0.0
2026-01-21 07:54:59.137852	15.2	10.4	-62.7	0.0
2026-01-21 07:55:01.389585	15.2	10.6	-61.1	0.0
2026-01-21 07:55:03.639475	15.2	10.8	-61.3	0.0
2026-01-21 07:55:05.891733	15.2	11.0	-58.9	0.0
2026-01-21 07:55:08.144271	15.2	11.2	-58.8	0.0
2026-01-21 07:55:10.401836	15.2	11.4	-60.3	0.0
2026-01-21 07:55:12.655740	15.2	11.6	-62.0	0.0
2026-01-21 07:55:14.909823	15.1	11.8	-59.5	0.0
2026-01-21 07:55:17.165263	15.1	12.0	-60.5	0.0
2026-01-21 07:55:19.417705	15.1	12.2	-61.9	0.0
2026-01-21 07:55:21.674123	15.1	12.5	-62.8	0.0
2026-01-21 07:55:23.929538	15.1	12.7	-59.8	0.0
2026-01-21 07:55:26.184713	15.1	12.9	-59.4	0.0
2026-01-21 07:55:28.438643	15.0	13.1	-62.5	0.0
2026-01-21 07:55:30.691559	15.0	13.3	-59.1	0.0
2026-01-21 07:55:32.946421	15.0	13.6	-60.1	0.0
2026-01-21 07:55:35.197124	15.0	13.8	-63.7	0.0
2026-01-21 07:55:37.449807	15.0	14.0	-63.4	0.0
2026-01-21 07:55:39.703650	15.0	14.3	-63.0	0.0
2026-01-21 07:55:41.957455	14.9	14.5	-61.6	0.0
2026-01-21 07:55:44.212443	14.9	14.7	-61.9	0.0
2026-01-21 07:55:46.467784	14.9	15.0	-63.5	0.0
2026-01-21 07:55:48.719346	14.9	15.2	-61.2	0.0
2026-01-21 07:55:50.974416	14.9	15.4	-61.3	0.0
2026-01-21 07:55:53.227673	14.8	15.7	-62.4	0.0
2026-01-21 07:55:55.481162	14.8	15.9	-61.3	0.0
2026-01-21 07:55:57.733640	14.8	16.2	-61.0	0.0
2026-01-21 07:55:59.986049	14.8	16.4	-61.9	0.0
2026-01-21 07:56:02.239603	14.7	16.7	-60.1	0.0
2026-01-21 07:56:04.497107	14.7	17.0	-63.2	0.0
2026-01-21 07:56:06.749573	14.7	17.2	-60.5	0.0
2026-01-21 07:56:09.004437	14.7	17.5	-62.0	0.0
2026-01-21 07:56:11.260691	14.6	17.8	-63.6	0.0
2026-01-21 07:56:13.512996	14.6	18.0	-63.5	0.0
2026-01-21 07:56:15.766034	14.6	18.3	-62.6	0.0
2026-01-21 07:56:18.020675	14.6	18.6	-62.3	0.0
2026-01-21 07:56:20.274421	14.5	18.9	-61.7	0.0
2026-01-21 07:56:22.526743	14.5	19.1	-64.3	0.0
2026-01-21 07:56:24.781599	14.5	19.4	-61.4	0.0
2026-01-21 07:56:27.035852	14.4	19.7	-63.5	0.0
2026-01-21 07:56:29.291156	14.4	20.0	-60.0	0.0
2026-01-21 07:56:31.545441	14.4	20.3	-64.6	0.0
2026-01-21 07:56:33.799420	14.3	20.6	-64.6	0.0
2026-01-21 07:56:36.053222	14.3	20.9	-62.6	0.0
2026-01-21 07:56:38.310288	14.3	21.2	-63.0	0.0
2026-01-21 07:56:40.561984	14.2	21.5	-62.3	0.0
2026-01-21 07:56:42.815053	14.2	21.8	-60.3	0.0
2026-01-21 07:56:45.066698	14.2	22.2	-62.1	0.0
2026-01-21 07:56:47.319503	14.1	22.5	-59.9	0.0
2026-01-21 07:56:49.572759	14.1	22.8	-61.5	0.0
2026-01-21 07:56:51.827197	14.1	23.1	-59.6	0.0
2026-01-21 07:56:54.084036	14.0	23.5	-61.5	0.0
2026-01-21 07:56:56.341806	14.0	23.8	-61.0	0.0
2026-01-21 07:56:58.597157	13.9	24.2	-62.4	0.0
2026-01-21 07:57:00.857166	13.9	24.5	-60.3	0.0
2026-01-21 07:57:03.109619	13.8	24.9	-62.2	0.0
2026-01-21 07:57:05.365359	13.8	25.2	-58.9	0.0
2026-01-21 07:57:07.623769	13.7	25.6	-61.9	0.0
2026-01-21 07:57:09.875857	13.7	26.0	-63.6	0.0
2026-01-21 07:57:12.130198	13.6	26.3	-60.2	0.0
2026-01-21 07:57:14.380238	13.6	26.7	-60.2	0.0
2026-01-21 07:57:16.635854	13.5	27.1	-64.6	0.0
2026-01-21 07:57:18.891747	13.5	27.5	-60.0	0.0
2026-01-21 07:57:21.146381	13.4	27.9	-66.1	0.0
2026-01-21 07:57:23.400758	13.4	28.3	-65.0	0.0
2026-01-21 07:57:25.652890	13.3	28.7	-63.5	0.0
2026-01-21 07:57:27.907630	13.2	29.1	-62.1	0.0
2026-01-21 07:57:30.160736	13.2	29.5	-62.5	0.0
2026-01-21 07:57:32.417419	13.1	29.9	-64.4	0.0
2026-01-21 07:57:34.670193	13.0	30.4	-63.4	0.0
2026-01-21 07:57:36.927719	13.0	30.8	-64.6	0.0
2026-01-21 07:57:39.183526	12.9	31.3	-66.5	0.0
2026-01-21 07:57:41.435705	12.8	31.7	-66.3	0.0
2026-01-21 07:57:43.692488	12.7	32.2	-66.4	0.0
2026-01-21 07:57:45.948543	12.7	32.6	-66.6	0.0
2026-01-21 07:57:48.203012	12.6	33.1	-67.5	0.0
2026-01-21 07:57:50.457494	12.5	33.6	-67.8	0.0
2026-01-21 07:57:52.711640	12.4	34.1	-68.6	0.0
2026-01-21 07:57:54.965407	12.3	34.6	-65.3	0.0
2026-01-21 07:57:57.225118	12.2	35.1	-67.8	0.0
2026-01-21 07:57:59.477841	12.1	35.6	-66.3	0.0
2026-01-21 07:58:01.731836	12.0	36.1	-67.3	0.0
2026-01-21 07:58:03.984979	11.9	36.7	-67.5	0.0
2026-01-21 07:58:06.237174	11.8	37.2	-66.5	0.0
2026-01-21 07:58:08.494998	11.7	37.8	-64.7	0.0
2026-01-21 07:58:10.751673	11.6	38.3	-65.5	0.0
2026-01-21 07:58:13.003419	11.5	38.9	-69.2	0.0
2026-01-21 07:58:15.258182	11.3	39.5	-68.1	0.0
2026-01-21 07:58:17.507828	11.2	40.0	-70.0	0.4
2026-01-21 07:58:19.758267	11.1	40.6	-68.6	0.0
2026-01-21 07:58:22.010696	10.9	41.2	-69.6	3.4
2026-01-21 07:58:24.264631	10.8	41.8	-69.9	5.2
2026-01-21 07:58:26.516531	10.6	42.5	-69.0	3.3
2026-01-21 07:58:28.772169	10.5	43.1	-68.5	6.2
2026-01-21 07:58:31.023762	10.3	43.8	-68.4	5.2
2026-01-21 07:58:33.273880	10.1	44.4	-69.8	6.7
2026-01-21 07:58:35.526005	9.9	45.1	-70.1	7.6
2026-01-21 07:58:37.777942	9.8	45.8	-69.9	3.9
2026-01-21 07:58:40.028851	9.6	46.4	-70.7	5.3
2026-01-21 07:58:42.281027	9.3	47.2	-69.9	3.8
2026-01-21 07:58:44.535562	9.1	47.9	-69.4	3.8
2026-01-21 07:58:46.787860	8.9	48.6	-72.1	8.2
2026-01-21 07:58:49.040554	8.7	49.3	-71.6	4.2
2026-01-21 07:58:51.290786	8.4	50.1	-71.2	6.7
2026-01-21 07:58:53.543990	8.1	50.8	-70.3	4.6
2026-01-21 07:58:55.796943	7.9	51.6	-72.1	10.9
2026-01-21 07:58:58.047243	7.6	52.4	-71.8	10.3
2026-01-21 07:59:00.300729	7.3	53.2	-70.6	7.9
2026-01-21 07:59:02.552730	6.9	54.0	-71.9	7.9
2026-01-21 07:59:04.801878	6.6	54.8	-72.6	6.8
2026-01-21 07:59:07.053375	6.2	55.6	-72.5	10.0
2026-01-21 07:59:09.314762	5.8	56.5	-71.8	8.1
2026-01-21 07:59:11.568732	5.4	57.3	-71.4	6.4
2026-01-21 07:59:13.818661	5.0	58.2	-70.9	6.8
2026-01-21 07:59:16.070214	4.5	59.1	-71.3	9.9
2026-01-21 07:59:18.322722	4.0	60.0	-70.8	5.6
2026-01-21 07:59:20.575350	3.4	60.9	-71.1	3.8
2026-01-21 07:59:22.828355	2.8	61.8	-70.8	8.0
2026-01-21 07:59:25.082455	2.2	62.7	-70.9	11.1
2026-01-21 07:59:27.332807	1.5	63.6	-69.6	4.6
2026-01-21 07:59:29.586623	0.8	64.6	-70.3	1.4
2026-01-21 07:59:31.838295	359.9	65.5	-71.5	8.8
2026-01-21 07:59:34.092818	359.1	66.5	-72.1	7.2
2026-01-21 07:59:36.345042	358.1	67.4	-72.5	6.7
2026-01-21 07:59:38.600871	357.0	68.4	-72.3	5.7
2026-01-21 07:59:40.853771	355.9	69.4	-72.0	4.4
2026-01-21 07:59:43.110183	354.6	70.3	-72.9	3.2
2026-01-21 07:59:45.363172	353.1	71.3	-73.3	5.6
2026-01-21 07:59:47.616108	351.5	72.2	-73.1	3.8
2026-01-21 07:59:49.869968	349.7	73.2	-72.0	6.6
2026-01-21 07:59:52.126068	347.7	74.1	-71.7	7.2
2026-01-21 07:59:54.379977	345.4	75.1	-69.8	0.8
2026-01-21 07:59:56.631442	342.8	76.0	-71.3	6.4
2026-01-21 07:59:58.884429	339.8	76.9	-71.2	6.8
2026-01-21 08:00:01.138908	336.4	77.7	-71.8	8.7
2026-01-21 08:00:03.391117	332.4	78.5	-71.7	9.8
2026-01-21 08:00:05.642429	327.9	79.3	-72.4	11.2
2026-01-21 08:00:07.895280	322.8	79.9	-72.5	10.0
2026-01-21 08:00:10.154044	316.9	80.5	-72.1	10.4
2026-01-21 08:00:12.407024	310.3	81.0	-70.8	6.9
2026-01-21 08:00:14.657758	303.1	81.3	-72.9	10.4
2026-01-21 08:00:16.907541	295.4	81.5	-72.2	9.4
2026-01-21 08:00:19.161782	287.5	81.6	-71.7	7.5
2026-01-21 08:00:21.413865	279.6	81.5	-71.8	9.3
2026-01-21 08:00:23.668670	272.1	81.2	-72.3	9.9
2026-01-21 08:00:25.920641	265.2	80.8	-73.0	11.0
2026-01-21 08:00:28.171125	258.9	80.3	-73.0	9.5
2026-01-21 08:00:30.422885	253.4	79.7	-73.7	10.1
2026-01-21 08:00:32.677113	248.5	78.9	-73.9	10.0
2026-01-21 08:00:34.929268	244.2	78.2	-73.9	10.4
2026-01-21 08:00:37.178680	240.5	77.3	-73.9	12.1
2026-01-21 08:00:39.433158	237.3	76.5	-73.9	11.3
2026-01-21 08:00:41.688242	234.5	75.6	-73.8	11.4
2026-01-21 08:00:43.938739	232.0	74.7	-74.2	11.2
2026-01-21 08:00:46.193958	229.8	73.7	-73.9	10.2
2026-01-21 08:00:48.445003	227.9	72.8	-74.4	11.6
2026-01-21 08:00:50.696509	226.2	71.8	-74.8	10.5
2026-01-21 08:00:52.948439	224.7	70.9	-75.4	9.9
2026-01-21 08:00:55.200100	223.3	69.9	-75.1	10.6
2026-01-21 08:00:57.451896	222.1	68.9	-74.4	10.8
2026-01-21 08:00:59.703056	220.9	68.0	-75.1	12.1
2026-01-21 08:01:01.955159	219.9	67.0	-74.7	11.4
2026-01-21 08:01:04.206047	219.0	66.0	-74.3	12.1
2026-01-21 08:01:06.458485	218.1	65.1	-73.9	12.5
2026-01-21 08:01:08.711826	217.4	64.1	-73.7	11.1
2026-01-21 08:01:10.966984	216.6	63.2	-73.4	11.6
2026-01-21 08:01:13.218582	216.0	62.3	-73.6	11.4
2026-01-21 08:01:15.469281	215.3	61.4	-73.3	12.3
2026-01-21 08:01:17.722633	214.8	60.5	-73.4	13.2
2026-01-21 08:01:19.973938	214.2	59.6	-73.1	10.5
2026-01-21 08:01:22.225613	213.7	58.7	-73.5	12.9
2026-01-21 08:01:24.476853	213.3	57.8	-73.5	12.3
2026-01-21 08:01:26.728766	212.8	56.9	-73.8	11.0
2026-01-21 08:01:28.986499	212.4	56.1	-74.0	10.6
2026-01-21 08:01:31.241536	212.1	55.2	-73.3	9.8
2026-01-21 08:01:33.493198	211.7	54.4	-73.5	11.2
2026-01-21 08:01:35.749875	211.4	53.6	-73.3	10.6
2026-01-21 08:01:38.002796	211.0	52.8	-73.6	12.5
2026-01-21 08:01:40.256912	210.7	52.0	-73.4	11.8
2026-01-21 08:01:42.517013	210.4	51.2	-73.3	11.5
2026-01-21 08:01:44.766685	210.2	50.4	-73.2	11.9
2026-01-21 08:01:47.019739	209.9	49.7	-73.7	12.8
2026-01-21 08:01:49.271129	209.7	48.9	-73.9	13.2
2026-01-21 08:01:51.524341	209.4	48.2	-74.2	12.2
2026-01-21 08:01:53.778686	209.2	47.5	-74.2	12.7
2026-01-21 08:01:56.030932	209.0	46.8	-74.7	13.0
2026-01-21 08:01:58.285238	208.8	46.1	-75.0	12.9
2026-01-21 08:02:00.536943	208.6	45.4	-75.0	13.2
2026-01-21 08:02:02.788961	208.4	44.7	-74.6	13.3
2026-01-21 08:02:05.039844	208.2	44.0	-74.8	13.4
2026-01-21 08:02:07.292327	208.1	43.4	-74.4	13.2
2026-01-21 08:02:09.545680	207.9	42.7	-74.7	13.4
2026-01-21 08:02:11.800315	207.7	42.1	-74.2	12.9
2026-01-21 08:02:14.052313	207.6	41.5	-73.9	13.2
2026-01-21 08:02:16.304282	207.4	40.9	-73.7	13.4
2026-01-21 08:02:18.558549	207.3	40.3	-73.8	12.0
2026-01-21 08:02:20.810942	207.2	39.7	-73.5	12.1
2026-01-21 08:02:23.064909	207.0	39.1	-73.5	10.8
2026-01-21 08:02:25.318448	206.9	38.5	-73.9	11.5
2026-01-21 08:02:27.573350	206.8	37.9	-73.4	10.2
2026-01-21 08:02:29.825054	206.7	37.4	-73.1	8.9
2026-01-21 08:02:32.076216	206.6	36.8	-73.2	9.1
2026-01-21 08:02:34.327602	206.5	36.3	-72.8	8.5
2026-01-21 08:02:36.577217	206.4	35.8	-73.1	7.3
2026-01-21 08:02:38.832178	206.3	35.3	-72.9	9.0
2026-01-21 08:02:41.081808	206.2	34.7	-72.4	6.6
2026-01-21 08:02:43.335144	206.1	34.2	-72.4	7.6
2026-01-21 08:02:45.589544	206.0	33.7	-72.2	7.5
2026-01-21 08:02:47.841029	205.9	33.3	-72.6	6.7
2026-01-21 08:02:50.093000	205.8	32.8	-72.5	7.4
2026-01-21 08:02:52.344401	205.7	32.3	-72.4	5.6
2026-01-21 08:02:54.594639	205.6	31.8	-72.2	5.3
2026-01-21 08:02:56.845057	205.6	31.4	-72.3	6.5
2026-01-21 08:02:59.103563	205.5	30.9	-72.1	4.9
2026-01-21 08:03:01.357127	205.4	30.5	-71.8	6.3
2026-01-21 08:03:03.610384	205.3	30.0	-71.7	5.4
2026-01-21 08:03:05.867308	205.3	29.6	-71.9	5.7
2026-01-21 08:03:08.121361	205.2	29.2	-71.6	4.5
2026-01-21 08:03:10.372424	205.1	28.8	-71.1	5.7
2026-01-21 08:03:12.625398	205.1	28.4	-70.9	3.1
2026-01-21 08:03:14.877940	205.0	28.0	-70.8	2.6
2026-01-21 08:03:17.130025	205.0	27.6	-70.7	1.8
2026-01-21 08:03:19.383884	204.9	27.2	-70.9	0.1
2026-01-21 08:03:21.637968	204.8	26.8	-70.7	0.0
2026-01-21 08:03:23.890042	204.8	26.4	-71.6	2.3
2026-01-21 08:03:26.140833	204.7	26.0	-71.8	2.7
2026-01-21 08:03:28.395899	204.7	25.6	-71.2	1.3
2026-01-21 08:03:30.648647	204.6	25.3	-70.7	0.0
2026-01-21 08:03:32.902760	204.6	24.9	-71.5	1.9
2026-01-21 08:03:35.154762	204.5	24.5	-71.1	0.0
2026-01-21 08:03:37.411297	204.5	24.2	-71.2	4.1
2026-01-21 08:03:39.665945	204.4	23.8	-70.1	0.4
2026-01-21 08:03:41.920825	204.4	23.5	-70.4	0.0
2026-01-21 08:03:44.172443	204.3	23.2	-71.1	0.0
2026-01-21 08:03:46.425333	204.3	22.8	-71.2	0.0
2026-01-21 08:03:48.677597	204.3	22.5	-70.5	0.0
2026-01-21 08:03:50.931739	204.2	22.2	-70.8	0.0
2026-01-21 08:03:53.184358	204.2	21.8	-71.0	0.0
2026-01-21 08:03:55.436670	204.1	21.5	-71.2	0.0
2026-01-21 08:03:57.688597	204.1	21.2	-71.8	2.1
2026-01-21 08:03:59.941078	204.1	20.9	-71.4	0.0
2026-01-21 08:04:02.195932	204.0	20.6	-71.2	1.6
2026-01-21 08:04:04.450166	204.0	20.3	-72.1	1.7
2026-01-21 08:04:06.704508	204.0	20.0	-72.5	0.0
2026-01-21 08:04:08.958889	203.9	19.7	-72.0	0.0
2026-01-21 08:04:11.212780	203.9	19.4	-71.2	0.0
2026-01-21 08:04:13.462975	203.9	19.1	-71.3	0.0
2026-01-21 08:04:15.720090	203.8	18.8	-72.2	0.0
2026-01-21 08:04:17.971647	203.8	18.6	-71.8	0.0
2026-01-21 08:04:20.221921	203.8	18.3	-71.8	0.0
2026-01-21 08:04:22.474657	203.7	18.0	-71.7	0.0
2026-01-21 08:04:24.727119	203.7	17.7	-71.6	0.0
2026-01-21 08:04:26.983139	203.7	17.5	-71.5	0.0
2026-01-21 08:04:29.233693	203.7	17.2	-71.5	0.0
2026-01-21 08:04:31.483892	203.6	16.9	-72.8	0.0
2026-01-21 08:04:33.740574	203.6	16.7	-71.4	0.0
2026-01-21 08:04:35.993434	203.6	16.4	-71.9	0.0
2026-01-21 08:04:38.246947	203.6	16.1	-71.9	0.0
2026-01-21 08:04:40.504703	203.5	15.9	-71.4	0.0
2026-01-21 08:04:42.756933	203.5	15.6	-71.8	0.0
2026-01-21 08:04:45.011657	203.5	15.4	-71.4	0.0
2026-01-21 08:04:47.261152	203.5	15.2	-71.5	0.0
2026-01-21 08:04:49.515179	203.4	14.9	-71.5	0.0
2026-01-21 08:04:51.764771	203.4	14.7	-72.3	0.0
2026-01-21 08:04:54.018031	203.4	14.4	-71.6	0.0
2026-01-21 08:04:56.270210	203.4	14.2	-71.6	0.0
2026-01-21 08:04:58.523568	203.4	14.0	-72.1	0.0
2026-01-21 08:05:00.780351	203.3	13.7	-71.8	0.0
2026-01-21 08:05:03.032727	203.3	13.5	-71.9	0.0
2026-01-21 08:05:05.287812	203.3	13.3	-72.0	0.0
2026-01-21 08:05:07.539417	203.3	13.0	-71.7	0.0
2026-01-21 08:05:09.792977	203.3	12.8	-72.3	0.0
2026-01-21 08:05:12.048240	203.2	12.6	-72.8	0.0
2026-01-21 08:05:14.302487	203.2	12.4	-73.2	0.0
2026-01-21 08:05:16.554585	203.2	12.2	-72.0	0.0
2026-01-21 08:05:18.806597	203.2	12.0	-71.6	0.0
2026-01-21 08:05:21.062073	203.2	11.7	-72.0	0.0
2026-01-21 08:05:23.316016	203.2	11.5	-72.6	0.0
2026-01-21 08:05:25.570023	203.1	11.3	-72.4	0.0
2026-01-21 08:05:27.822710	203.1	11.1	-73.6	0.0
2026-01-21 08:05:30.076680	203.1	10.9	-72.7	0.0
2026-01-21 08:05:32.326211	203.1	10.7	-73.5	0.0
2026-01-21 08:05:34.577141	203.1	10.5	-78.9	0.0
2026-01-21 08:05:36.829908	203.1	10.3	-79.6	0.0
2026-01-21 08:05:39.085256	203.0	10.1	-79.8	0.0
#Closed at: 2026-01-21 07:54:49.713790