passes_logs/2026/01/21/planumMaritime01/planumMaritime01__20260121_123847_METEOR-M2_4_rec.log

#Pass ID: 20260121_123847_METEOR-M2 4
#Satellite: METEOR-M2 4
#Configuration: METEOR-M2 4
#Start time: 2026-01-21 12:38:52.143120

#LorettStation: 1.0.0 05.05.2024
#Station: planumMaritime01
#Location: 37.49445 lon 55.92918 lat
#TLE: 1 59051U 24039A   26020.95667625  .00000091  00000+0  60497-4 0  9993
#TLE: 2 59051  98.6825 342.2619 0006126 231.1027 128.9605 14.22408473 98337

#Time	Az	El	Level	SNR
2026-01-21 12:38:54.316719	210.3	10.2	-83.5	0.0
2026-01-21 12:38:56.591358	210.5	10.3	-83.5	0.0
2026-01-21 12:38:58.862257	210.8	10.5	-83.0	0.0
2026-01-21 12:39:01.135567	211.0	10.6	-82.1	0.0
2026-01-21 12:39:03.412310	211.3	10.8	-80.3	3.4
2026-01-21 12:39:05.689896	211.5	11.0	-78.4	6.0
2026-01-21 12:39:07.968571	211.8	11.2	-77.5	7.2
2026-01-21 12:39:10.245220	212.0	11.3	-77.4	6.0
2026-01-21 12:39:12.511917	212.3	11.5	-77.1	6.3
2026-01-21 12:39:14.773881	212.5	11.7	-77.0	5.6
2026-01-21 12:39:17.034643	212.8	11.8	-77.3	6.2
2026-01-21 12:39:19.300667	213.1	12.0	-77.5	5.7
2026-01-21 12:39:21.564858	213.3	12.2	-77.4	5.4
2026-01-21 12:39:23.834106	213.6	12.3	-77.8	5.8
2026-01-21 12:39:26.101906	213.9	12.5	-77.8	6.9
2026-01-21 12:39:28.367244	214.2	12.7	-78.0	8.2
2026-01-21 12:39:30.642771	214.5	12.9	-78.0	8.1
2026-01-21 12:39:32.920125	214.7	13.0	-77.6	7.6
2026-01-21 12:39:35.194678	215.0	13.2	-78.0	8.3
2026-01-21 12:39:37.468181	215.3	13.4	-77.5	7.9
2026-01-21 12:39:39.740716	215.6	13.6	-77.6	7.8
2026-01-21 12:39:42.014954	215.9	13.7	-77.2	8.6
2026-01-21 12:39:44.288196	216.2	13.9	-77.8	8.6
2026-01-21 12:39:46.557254	216.5	14.1	-77.3	6.9
2026-01-21 12:39:48.821054	216.8	14.3	-77.7	8.2
2026-01-21 12:39:51.078239	217.2	14.4	-77.7	8.5
2026-01-21 12:39:53.338296	217.5	14.6	-77.4	8.3
2026-01-21 12:39:55.598298	217.8	14.8	-77.6	8.9
2026-01-21 12:39:57.857015	218.1	15.0	-77.4	9.1
2026-01-21 12:40:00.117564	218.5	15.2	-77.7	9.3
2026-01-21 12:40:02.372198	218.8	15.3	-77.5	9.5
2026-01-21 12:40:04.630538	219.1	15.5	-77.7	9.4
2026-01-21 12:40:06.889107	219.5	15.7	-77.8	9.6
2026-01-21 12:40:09.150370	219.8	15.9	-77.7	9.5
2026-01-21 12:40:11.425471	220.2	16.1	-77.4	9.4
2026-01-21 12:40:13.701650	220.5	16.2	-77.8	8.5
2026-01-21 12:40:15.978797	220.9	16.4	-77.7	10.2
2026-01-21 12:40:18.254313	221.2	16.6	-77.8	9.5
2026-01-21 12:40:20.529692	221.6	16.8	-77.8	8.9
2026-01-21 12:40:22.800979	222.0	17.0	-77.8	9.7
2026-01-21 12:40:25.077531	222.3	17.2	-78.0	8.7
2026-01-21 12:40:27.352624	222.7	17.3	-77.7	8.6
2026-01-21 12:40:29.622342	223.1	17.5	-78.0	10.3
2026-01-21 12:40:31.890512	223.5	17.7	-77.8	9.5
2026-01-21 12:40:34.158658	223.9	17.9	-77.8	9.8
2026-01-21 12:40:36.433671	224.3	18.1	-77.6	8.5
2026-01-21 12:40:38.712696	224.7	18.3	-77.8	9.6
2026-01-21 12:40:40.989955	225.1	18.5	-78.0	10.2
2026-01-21 12:40:43.269075	225.5	18.6	-78.1	10.5
2026-01-21 12:40:45.536098	225.9	18.8	-77.6	9.8
2026-01-21 12:40:47.812148	226.4	19.0	-77.2	7.4
2026-01-21 12:40:50.091478	226.8	19.2	-77.5	9.7
2026-01-21 12:40:52.365197	227.2	19.4	-77.6	10.1
2026-01-21 12:40:54.638004	227.7	19.6	-77.6	9.2
2026-01-21 12:40:56.916613	228.1	19.8	-77.8	8.6
2026-01-21 12:40:59.189876	228.6	19.9	-77.6	10.7
2026-01-21 12:41:01.468929	229.0	20.1	-77.2	9.2
2026-01-21 12:41:03.743254	229.5	20.3	-77.2	9.4
2026-01-21 12:41:06.019144	229.9	20.5	-77.5	9.8
2026-01-21 12:41:08.293162	230.4	20.7	-77.5	9.4
2026-01-21 12:41:10.565507	230.9	20.9	-77.8	10.8
2026-01-21 12:41:12.843146	231.4	21.0	-77.5	10.3
2026-01-21 12:41:15.118561	231.9	21.2	-77.1	7.9
2026-01-21 12:41:17.390711	232.4	21.4	-77.4	8.8
2026-01-21 12:41:19.666722	232.9	21.6	-77.4	10.3
2026-01-21 12:41:21.939985	233.4	21.7	-77.8	10.9
2026-01-21 12:41:24.208866	233.9	21.9	-77.6	10.6
2026-01-21 12:41:26.472966	234.4	22.1	-77.8	11.1
2026-01-21 12:41:28.738453	234.9	22.3	-77.4	10.2
2026-01-21 12:41:31.005203	235.4	22.4	-77.8	11.4
2026-01-21 12:41:33.276672	236.0	22.6	-77.8	9.5
2026-01-21 12:41:35.546477	236.5	22.8	-77.9	11.4
2026-01-21 12:41:37.816791	237.0	23.0	-77.1	8.3
2026-01-21 12:41:40.081935	237.6	23.1	-77.6	10.2
2026-01-21 12:41:42.348239	238.1	23.3	-77.4	9.5
2026-01-21 12:41:44.609668	238.7	23.4	-77.1	8.4
2026-01-21 12:41:46.875613	239.3	23.6	-78.0	11.3
2026-01-21 12:41:49.144602	239.8	23.8	-77.6	10.2
2026-01-21 12:41:51.412155	240.4	23.9	-77.8	11.6
2026-01-21 12:41:53.675864	241.0	24.1	-77.4	11.9
2026-01-21 12:41:55.940654	241.6	24.2	-77.3	12.0
2026-01-21 12:41:58.206254	242.2	24.4	-77.4	11.9
2026-01-21 12:42:00.474136	242.8	24.5	-77.5	11.8
2026-01-21 12:42:02.738626	243.4	24.7	-77.5	11.3
2026-01-21 12:42:04.994361	244.0	24.8	-77.7	10.9
2026-01-21 12:42:07.249595	244.6	25.0	-77.4	9.9
2026-01-21 12:42:09.503925	245.2	25.1	-77.1	10.7
2026-01-21 12:42:11.761955	245.8	25.2	-77.4	10.7
2026-01-21 12:42:14.022210	246.5	25.4	-76.6	9.3
2026-01-21 12:42:16.275575	247.1	25.5	-76.8	10.9
2026-01-21 12:42:18.529815	247.7	25.6	-77.4	11.0
2026-01-21 12:42:20.786316	248.4	25.7	-77.0	10.3
2026-01-21 12:42:23.038839	249.0	25.9	-76.8	10.0
2026-01-21 12:42:25.299329	249.7	26.0	-77.1	10.9
2026-01-21 12:42:27.569345	250.4	26.1	-76.8	9.8
2026-01-21 12:42:29.838091	251.0	26.2	-77.0	10.1
2026-01-21 12:42:32.116646	251.7	26.3	-76.7	10.7
2026-01-21 12:42:34.391464	252.4	26.4	-76.8	10.7
2026-01-21 12:42:36.668600	253.0	26.5	-77.0	10.9
2026-01-21 12:42:38.941790	253.7	26.6	-76.8	10.6
2026-01-21 12:42:41.216680	254.4	26.7	-76.9	9.7
2026-01-21 12:42:43.490866	255.1	26.8	-76.5	8.8
2026-01-21 12:42:45.764707	255.8	26.9	-76.5	9.5
2026-01-21 12:42:48.042657	256.5	27.0	-76.5	9.1
2026-01-21 12:42:50.313263	257.2	27.0	-77.0	10.9
2026-01-21 12:42:52.581565	257.9	27.1	-76.6	10.0
2026-01-21 12:42:54.850013	258.6	27.2	-76.8	8.2
2026-01-21 12:42:57.116977	259.3	27.2	-76.9	9.7
2026-01-21 12:42:59.384051	260.0	27.3	-76.9	10.6
2026-01-21 12:43:01.652379	260.8	27.3	-76.8	9.5
2026-01-21 12:43:03.921371	261.5	27.4	-76.0	6.6
2026-01-21 12:43:06.190367	262.2	27.4	-76.5	9.4
2026-01-21 12:43:08.462154	262.9	27.5	-76.7	9.8
2026-01-21 12:43:10.739528	263.6	27.5	-76.4	9.7
2026-01-21 12:43:13.013881	264.4	27.5	-76.6	8.7
2026-01-21 12:43:15.290593	265.1	27.5	-76.3	7.2
2026-01-21 12:43:17.566001	265.8	27.6	-77.0	8.7
2026-01-21 12:43:19.840649	266.5	27.6	-77.0	8.8
2026-01-21 12:43:22.115466	267.3	27.6	-75.3	4.3
2026-01-21 12:43:24.393148	268.0	27.6	-76.5	9.5
2026-01-21 12:43:26.673614	268.7	27.6	-76.1	6.4
2026-01-21 12:43:28.944051	269.5	27.6	-76.1	7.6
2026-01-21 12:43:31.218455	270.2	27.6	-76.6	9.4
2026-01-21 12:43:33.492430	270.9	27.6	-76.6	8.9
2026-01-21 12:43:35.768897	271.6	27.5	-76.7	8.3
2026-01-21 12:43:38.046891	272.4	27.5	-76.4	7.4
2026-01-21 12:43:40.321562	273.1	27.5	-76.6	8.0
2026-01-21 12:43:42.600503	273.8	27.4	-75.1	4.5
2026-01-21 12:43:44.878025	274.5	27.4	-77.0	9.0
2026-01-21 12:43:47.146419	275.2	27.4	-75.0	3.8
2026-01-21 12:43:49.415184	276.0	27.3	-76.4	7.4
2026-01-21 12:43:51.684662	276.7	27.3	-75.8	6.8
2026-01-21 12:43:53.950831	277.4	27.2	-74.9	5.7
2026-01-21 12:43:56.221014	278.1	27.1	-75.7	4.8
2026-01-21 12:43:58.492451	278.8	27.1	-75.8	6.1
2026-01-21 12:44:00.762144	279.5	27.0	-74.0	2.8
2026-01-21 12:44:03.028310	280.2	26.9	-75.1	4.5
2026-01-21 12:44:05.297593	280.9	26.8	-74.8	5.4
2026-01-21 12:44:07.568814	281.6	26.8	-74.2	2.4
2026-01-21 12:44:09.837035	282.3	26.7	-75.6	3.4
2026-01-21 12:44:12.110015	283.0	26.6	-74.6	2.9
2026-01-21 12:44:14.383247	283.6	26.5	-74.1	3.9
2026-01-21 12:44:16.651233	284.3	26.4	-74.5	4.9
2026-01-21 12:44:18.921399	285.0	26.3	-74.0	4.4
2026-01-21 12:44:21.193182	285.7	26.2	-74.7	0.9
2026-01-21 12:44:23.466932	286.3	26.1	-74.9	5.7
2026-01-21 12:44:25.740588	287.0	25.9	-72.7	0.0
2026-01-21 12:44:28.008111	287.6	25.8	-73.4	0.8
2026-01-21 12:44:30.280265	288.3	25.7	-75.0	3.5
2026-01-21 12:44:32.547527	288.9	25.6	-73.7	3.6
2026-01-21 12:44:34.818079	289.6	25.5	-74.2	2.2
2026-01-21 12:44:37.086138	290.2	25.3	-72.4	0.4
2026-01-21 12:44:39.357778	290.8	25.2	-72.9	2.4
2026-01-21 12:44:41.629308	291.4	25.1	-73.1	1.4
2026-01-21 12:44:43.897690	292.1	24.9	-73.4	0.0
2026-01-21 12:44:46.163973	292.7	24.8	-74.2	3.1
2026-01-21 12:44:48.434746	293.3	24.6	-74.0	1.6
2026-01-21 12:44:50.703915	293.9	24.5	-73.2	0.0
2026-01-21 12:44:52.978913	294.5	24.3	-72.7	4.2
2026-01-21 12:44:55.251588	295.1	24.2	-72.9	0.8
2026-01-21 12:44:57.525707	295.6	24.0	-72.6	0.0
2026-01-21 12:44:59.801315	296.2	23.9	-71.8	0.0
2026-01-21 12:45:02.073198	296.8	23.7	-73.5	2.6
2026-01-21 12:45:04.341742	297.4	23.6	-72.7	0.0
2026-01-21 12:45:06.608612	297.9	23.4	-71.9	0.5
2026-01-21 12:45:08.875135	298.5	23.2	-73.1	0.0
2026-01-21 12:45:11.141444	299.0	23.1	-73.4	0.0
2026-01-21 12:45:13.407050	299.6	22.9	-73.5	1.6
2026-01-21 12:45:15.670401	300.1	22.7	-72.7	0.0
2026-01-21 12:45:17.936193	300.6	22.6	-74.2	1.5
2026-01-21 12:45:20.204772	301.2	22.4	-74.1	0.0
2026-01-21 12:45:22.473359	301.7	22.2	-74.5	1.6
2026-01-21 12:45:24.746850	302.2	22.1	-72.7	0.0
2026-01-21 12:45:27.025285	302.7	21.9	-70.3	0.0
2026-01-21 12:45:29.303198	303.2	21.7	-73.5	0.1
2026-01-21 12:45:31.579887	303.7	21.5	-74.5	0.0
2026-01-21 12:45:33.851982	304.2	21.3	-74.2	0.0
2026-01-21 12:45:36.125212	304.7	21.2	-73.6	1.8
2026-01-21 12:45:38.399825	305.2	21.0	-74.6	1.1
2026-01-21 12:45:40.671432	305.7	20.8	-73.8	0.0
2026-01-21 12:45:42.945227	306.1	20.6	-72.8	0.0
2026-01-21 12:45:45.217973	306.6	20.5	-71.5	0.0
2026-01-21 12:45:47.492872	307.1	20.3	-70.2	0.0
2026-01-21 12:45:49.765566	307.5	20.1	-72.0	0.0
2026-01-21 12:45:52.036049	308.0	19.9	-73.6	0.0
2026-01-21 12:45:54.310845	308.4	19.7	-71.6	0.0
2026-01-21 12:45:56.582112	308.9	19.5	-71.9	0.0
2026-01-21 12:45:58.850150	309.3	19.4	-71.2	0.0
2026-01-21 12:46:01.115997	309.7	19.2	-71.1	0.0
2026-01-21 12:46:03.384042	310.2	19.0	-71.3	0.0
2026-01-21 12:46:05.651014	310.6	18.8	-72.6	0.0
2026-01-21 12:46:07.918000	311.0	18.6	-74.5	0.0
2026-01-21 12:46:10.187078	311.4	18.4	-71.8	0.0
2026-01-21 12:46:12.452737	311.8	18.3	-70.6	0.0
2026-01-21 12:46:14.728000	312.2	18.1	-72.8	0.0
2026-01-21 12:46:17.002744	312.6	17.9	-72.4	0.0
2026-01-21 12:46:19.277274	313.0	17.7	-73.3	0.2
2026-01-21 12:46:21.553990	313.4	17.5	-71.3	0.0
2026-01-21 12:46:23.828185	313.8	17.3	-72.6	0.0
2026-01-21 12:46:26.099906	314.1	17.2	-72.2	0.0
2026-01-21 12:46:28.378827	314.5	17.0	-72.0	0.0
2026-01-21 12:46:30.648071	314.9	16.8	-72.0	0.0
2026-01-21 12:46:32.903830	315.2	16.6	-70.8	0.0
2026-01-21 12:46:35.159725	315.6	16.4	-72.7	0.0
2026-01-21 12:46:37.412164	316.0	16.3	-72.8	0.0
2026-01-21 12:46:39.664636	316.3	16.1	-72.2	0.0
2026-01-21 12:46:41.917937	316.7	15.9	-71.9	0.0
2026-01-21 12:46:44.175428	317.0	15.7	-71.0	0.0
2026-01-21 12:46:46.432296	317.3	15.5	-72.6	0.0
2026-01-21 12:46:48.684936	317.7	15.4	-72.4	0.0
2026-01-21 12:46:50.937450	318.0	15.2	-73.0	0.0
2026-01-21 12:46:53.193005	318.3	15.0	-72.4	0.0
2026-01-21 12:46:55.446410	318.6	14.8	-72.4	0.0
2026-01-21 12:46:57.698853	319.0	14.7	-74.1	0.0
2026-01-21 12:46:59.963754	319.3	14.5	-74.3	0.0
2026-01-21 12:47:02.228441	319.6	14.3	-73.9	0.0
2026-01-21 12:47:04.495157	319.9	14.1	-74.2	0.0
2026-01-21 12:47:06.762566	320.2	13.9	-73.0	0.0
2026-01-21 12:47:09.028824	320.5	13.8	-71.5	0.0
2026-01-21 12:47:11.298841	320.8	13.6	-71.4	0.0
2026-01-21 12:47:13.564993	321.1	13.4	-70.7	0.0
2026-01-21 12:47:15.830716	321.4	13.3	-72.4	0.0
2026-01-21 12:47:18.098058	321.7	13.1	-72.6	0.0
2026-01-21 12:47:20.366362	322.0	12.9	-73.9	0.0
2026-01-21 12:47:22.640834	322.2	12.7	-71.2	0.0
2026-01-21 12:47:24.915137	322.5	12.6	-73.3	0.0
2026-01-21 12:47:27.189068	322.8	12.4	-72.6	0.0
2026-01-21 12:47:29.464039	323.1	12.2	-72.7	0.0
2026-01-21 12:47:31.735732	323.4	12.1	-73.0	0.0
2026-01-21 12:47:34.010066	323.6	11.9	-71.6	0.0
2026-01-21 12:47:36.288186	323.9	11.7	-72.0	0.0
2026-01-21 12:47:38.558395	324.1	11.5	-72.5	0.0
2026-01-21 12:47:40.824453	324.4	11.4	-70.6	0.0
2026-01-21 12:47:43.090332	324.7	11.2	-72.8	0.0
2026-01-21 12:47:45.357753	324.9	11.1	-73.5	0.0
2026-01-21 12:47:47.624902	325.2	10.9	-72.7	0.0
2026-01-21 12:47:49.889332	325.4	10.7	-73.8	0.0
2026-01-21 12:47:52.157099	325.7	10.6	-73.6	0.0
2026-01-21 12:47:54.422840	325.9	10.4	-74.4	0.0
2026-01-21 12:47:56.698632	326.1	10.2	-76.2	0.0
2026-01-21 12:47:58.971651	326.4	10.1	-77.2	0.0
#Closed at: 2026-01-21 12:38:47.148007