passes_logs/2026/01/21/planumMaritime01/planumMaritime01__20260121_062935_METEOR-M2_3_rec.log

#Pass ID: 20260121_062935_METEOR-M2 3
#Satellite: METEOR-M2 3
#Configuration: METEOR-M2 3
#Start time: 2026-01-21 06:29:40.247226

#LorettStation: 1.0.0 05.05.2024
#Station: planumMaritime01
#Location: 37.49445 lon 55.92918 lat
#TLE: 1 57166U 23091A   26019.98490498  .00000035  00000+0  34315-4 0  9996
#TLE: 2 57166  98.6319  77.8458 0003107 230.7688 129.3216 14.24031181133429

#Time	Az	El	Level	SNR
2026-01-21 06:29:42.419925	29.3	10.2	-75.0	0.0
2026-01-21 06:29:44.682940	29.5	10.3	-77.5	0.0
2026-01-21 06:29:46.947531	29.7	10.5	-74.8	0.0
2026-01-21 06:29:49.211551	29.9	10.7	-71.0	0.0
2026-01-21 06:29:51.476312	30.1	10.9	-66.1	0.0
2026-01-21 06:29:53.740118	30.3	11.1	-62.3	0.0
2026-01-21 06:29:56.006650	30.5	11.2	-62.9	0.0
2026-01-21 06:29:58.274519	30.7	11.4	-62.6	0.0
2026-01-21 06:30:00.540667	30.9	11.6	-66.3	0.0
2026-01-21 06:30:02.807369	31.2	11.8	-63.9	0.0
2026-01-21 06:30:05.069994	31.4	12.0	-65.2	0.0
2026-01-21 06:30:07.333383	31.6	12.2	-64.2	0.0
2026-01-21 06:30:09.597165	31.8	12.4	-61.2	0.0
2026-01-21 06:30:11.858573	32.0	12.5	-63.4	0.0
2026-01-21 06:30:14.120446	32.3	12.7	-62.0	0.0
2026-01-21 06:30:16.389612	32.5	12.9	-65.7	0.0
2026-01-21 06:30:18.660345	32.7	13.1	-63.9	0.0
2026-01-21 06:30:20.936983	32.9	13.3	-62.4	0.0
2026-01-21 06:30:23.209692	33.2	13.5	-65.3	0.0
2026-01-21 06:30:25.483304	33.4	13.7	-66.8	0.0
2026-01-21 06:30:27.758352	33.7	13.9	-66.7	0.0
2026-01-21 06:30:30.032348	33.9	14.1	-62.7	0.0
2026-01-21 06:30:32.306324	34.2	14.3	-64.5	0.0
2026-01-21 06:30:34.580363	34.4	14.5	-65.3	0.0
2026-01-21 06:30:36.837402	34.7	14.7	-63.7	0.0
2026-01-21 06:30:39.092102	34.9	14.9	-60.3	0.0
2026-01-21 06:30:41.349550	35.2	15.1	-65.9	0.0
2026-01-21 06:30:43.604173	35.4	15.3	-68.1	0.0
2026-01-21 06:30:45.862920	35.7	15.5	-64.8	0.0
2026-01-21 06:30:48.119993	36.0	15.7	-65.4	0.0
2026-01-21 06:30:50.375219	36.3	15.9	-65.0	0.0
2026-01-21 06:30:52.628441	36.5	16.1	-66.7	0.0
2026-01-21 06:30:54.884714	36.8	16.4	-65.5	0.0
2026-01-21 06:30:57.145183	37.1	16.6	-66.5	0.0
2026-01-21 06:30:59.402046	37.4	16.8	-66.1	0.0
2026-01-21 06:31:01.678401	37.7	17.0	-67.0	0.0
2026-01-21 06:31:03.953807	38.0	17.2	-68.2	0.0
2026-01-21 06:31:06.226278	38.3	17.4	-66.1	0.0
2026-01-21 06:31:08.502913	38.6	17.7	-68.8	0.0
2026-01-21 06:31:10.780034	38.9	17.9	-67.5	0.0
2026-01-21 06:31:13.054639	39.2	18.1	-66.5	0.0
2026-01-21 06:31:15.330926	39.6	18.3	-70.1	0.0
2026-01-21 06:31:17.607414	39.9	18.5	-71.4	0.0
2026-01-21 06:31:19.883170	40.2	18.8	-70.8	0.0
2026-01-21 06:31:22.161373	40.6	19.0	-67.8	0.0
2026-01-21 06:31:24.436222	40.9	19.2	-68.3	0.0
2026-01-21 06:31:26.713846	41.3	19.5	-70.2	0.0
2026-01-21 06:31:28.997421	41.6	19.7	-69.5	0.0
2026-01-21 06:31:31.273724	42.0	19.9	-63.9	0.0
2026-01-21 06:31:33.547888	42.3	20.2	-66.0	0.0
2026-01-21 06:31:35.820704	42.7	20.4	-70.7	0.0
2026-01-21 06:31:38.092154	43.1	20.6	-72.6	0.0
2026-01-21 06:31:40.364649	43.5	20.9	-69.1	0.0
2026-01-21 06:31:42.634388	43.8	21.1	-70.7	0.0
2026-01-21 06:31:44.904742	44.2	21.3	-71.4	0.0
2026-01-21 06:31:47.173219	44.6	21.6	-69.9	0.0
2026-01-21 06:31:49.443364	45.0	21.8	-72.3	0.0
2026-01-21 06:31:51.716727	45.4	22.0	-70.6	0.0
2026-01-21 06:31:53.993200	45.9	22.3	-71.8	0.0
2026-01-21 06:31:56.267376	46.3	22.5	-72.9	0.0
2026-01-21 06:31:58.540518	46.7	22.8	-74.3	0.0
2026-01-21 06:32:00.815523	47.1	23.0	-73.8	1.3
2026-01-21 06:32:03.075992	47.6	23.3	-73.6	0.0
2026-01-21 06:32:05.336536	48.0	23.5	-73.8	1.2
2026-01-21 06:32:07.595895	48.5	23.7	-73.9	0.5
2026-01-21 06:32:09.854243	48.9	24.0	-70.2	0.0
2026-01-21 06:32:12.114088	49.4	24.2	-70.0	0.0
2026-01-21 06:32:14.379521	49.9	24.5	-72.3	0.0
2026-01-21 06:32:16.639142	50.4	24.7	-73.4	2.7
2026-01-21 06:32:18.902778	50.9	25.0	-71.8	0.0
2026-01-21 06:32:21.166678	51.4	25.2	-72.6	0.0
2026-01-21 06:32:23.442422	51.9	25.5	-74.2	1.5
2026-01-21 06:32:25.716628	52.4	25.7	-73.4	0.0
2026-01-21 06:32:27.989798	52.9	26.0	-73.4	3.2
2026-01-21 06:32:30.262960	53.4	26.2	-73.7	3.7
2026-01-21 06:32:32.537965	54.0	26.5	-74.8	4.9
2026-01-21 06:32:34.808200	54.5	26.7	-74.2	2.6
2026-01-21 06:32:37.073456	55.1	26.9	-73.7	1.7
2026-01-21 06:32:39.334712	55.6	27.2	-73.3	1.3
2026-01-21 06:32:41.597401	56.2	27.4	-73.4	3.5
2026-01-21 06:32:43.850699	56.8	27.7	-74.5	4.8
2026-01-21 06:32:46.110723	57.4	27.9	-74.7	4.3
2026-01-21 06:32:48.371676	58.0	28.2	-74.8	5.7
2026-01-21 06:32:50.631703	58.6	28.4	-73.8	4.2
2026-01-21 06:32:52.887310	59.2	28.6	-74.1	5.8
2026-01-21 06:32:55.147604	59.8	28.9	-75.1	6.0
2026-01-21 06:32:57.404471	60.5	29.1	-75.0	7.3
2026-01-21 06:32:59.664224	61.1	29.3	-74.8	4.9
2026-01-21 06:33:01.923039	61.7	29.6	-75.0	3.8
2026-01-21 06:33:04.193015	62.4	29.8	-74.0	4.8
2026-01-21 06:33:06.466854	63.1	30.0	-74.5	5.9
2026-01-21 06:33:08.741696	63.8	30.3	-74.2	3.7
2026-01-21 06:33:11.017374	64.5	30.5	-72.9	3.9
2026-01-21 06:33:13.290243	65.2	30.7	-74.7	4.9
2026-01-21 06:33:15.563676	65.9	30.9	-75.5	6.8
2026-01-21 06:33:17.836558	66.6	31.1	-75.6	7.4
2026-01-21 06:33:20.108893	67.3	31.3	-76.6	8.7
2026-01-21 06:33:22.385640	68.1	31.5	-75.7	7.5
2026-01-21 06:33:24.658041	68.8	31.7	-75.7	5.2
2026-01-21 06:33:26.926338	69.6	31.9	-76.3	7.8
2026-01-21 06:33:29.198382	70.3	32.1	-75.9	7.3
2026-01-21 06:33:31.469582	71.1	32.3	-75.9	5.6
2026-01-21 06:33:33.742346	71.9	32.5	-76.3	9.4
2026-01-21 06:33:36.019473	72.7	32.7	-75.0	5.6
2026-01-21 06:33:38.284678	73.5	32.9	-74.7	5.0
2026-01-21 06:33:40.554814	74.3	33.0	-75.3	7.8
2026-01-21 06:33:42.816086	75.1	33.2	-75.3	5.2
2026-01-21 06:33:45.073684	75.9	33.4	-74.8	6.8
2026-01-21 06:33:47.334039	76.8	33.5	-75.3	8.7
2026-01-21 06:33:49.591828	77.6	33.7	-75.2	7.5
2026-01-21 06:33:51.855378	78.5	33.8	-75.8	7.8
2026-01-21 06:33:54.114580	79.3	33.9	-75.3	6.2
2026-01-21 06:33:56.375518	80.2	34.1	-75.4	6.6
2026-01-21 06:33:58.636077	81.0	34.2	-76.1	8.4
2026-01-21 06:34:00.904806	81.9	34.3	-76.2	7.5
2026-01-21 06:34:03.170625	82.8	34.4	-77.0	9.4
2026-01-21 06:34:05.440818	83.7	34.5	-75.9	5.4
2026-01-21 06:34:07.708670	84.6	34.6	-76.6	9.8
2026-01-21 06:34:09.973918	85.5	34.7	-76.6	8.1
2026-01-21 06:34:12.242068	86.4	34.8	-76.7	8.7
2026-01-21 06:34:14.509269	87.3	34.9	-76.3	8.2
2026-01-21 06:34:16.776167	88.2	34.9	-77.1	11.0
2026-01-21 06:34:19.046641	89.1	35.0	-75.8	6.6
2026-01-21 06:34:21.316294	90.0	35.0	-76.4	8.3
2026-01-21 06:34:23.586381	91.0	35.1	-77.0	10.1
2026-01-21 06:34:25.860602	91.9	35.1	-76.3	7.8
2026-01-21 06:34:28.141409	92.8	35.1	-76.3	9.7
2026-01-21 06:34:30.411746	93.8	35.1	-75.8	6.4
2026-01-21 06:34:32.681091	94.7	35.2	-76.1	8.4
2026-01-21 06:34:34.957744	95.6	35.2	-75.9	8.1
2026-01-21 06:34:37.229064	96.5	35.1	-74.2	4.5
2026-01-21 06:34:39.505113	97.5	35.1	-76.7	8.4
2026-01-21 06:34:41.780273	98.4	35.1	-75.4	4.4
2026-01-21 06:34:44.056943	99.3	35.1	-76.8	9.1
2026-01-21 06:34:46.331764	100.2	35.0	-76.7	8.2
2026-01-21 06:34:48.605969	101.2	35.0	-76.6	8.5
2026-01-21 06:34:50.865748	102.1	34.9	-76.5	8.4
2026-01-21 06:34:53.128419	103.0	34.9	-75.2	5.5
2026-01-21 06:34:55.389022	103.9	34.8	-76.2	10.0
2026-01-21 06:34:57.646315	104.8	34.7	-76.4	9.2
2026-01-21 06:34:59.903569	105.7	34.6	-75.8	9.8
2026-01-21 06:35:02.163250	106.6	34.5	-75.7	9.5
2026-01-21 06:35:04.419183	107.5	34.4	-76.3	9.9
2026-01-21 06:35:06.678252	108.4	34.3	-75.3	6.6
2026-01-21 06:35:08.940930	109.2	34.2	-76.1	8.2
2026-01-21 06:35:11.200609	110.1	34.1	-76.6	9.9
2026-01-21 06:35:13.463942	111.0	33.9	-76.3	7.6
2026-01-21 06:35:15.739203	111.8	33.8	-77.4	11.1
2026-01-21 06:35:18.014934	112.7	33.7	-76.8	11.2
2026-01-21 06:35:20.290270	113.5	33.5	-76.9	10.2
2026-01-21 06:35:22.564049	114.4	33.3	-77.2	10.5
2026-01-21 06:35:24.839398	115.2	33.2	-77.3	11.9
2026-01-21 06:35:27.115920	116.0	33.0	-77.0	10.1
2026-01-21 06:35:29.388927	116.8	32.8	-77.3	12.5
2026-01-21 06:35:31.659439	117.6	32.7	-77.0	11.6
2026-01-21 06:35:33.935133	118.4	32.5	-76.6	9.6
2026-01-21 06:35:36.204631	119.2	32.3	-77.8	12.0
2026-01-21 06:35:38.475954	120.0	32.1	-76.8	10.9
2026-01-21 06:35:40.745865	120.8	31.9	-76.8	9.9
2026-01-21 06:35:43.014359	121.5	31.7	-77.6	12.1
2026-01-21 06:35:45.283264	122.3	31.5	-77.1	10.4
2026-01-21 06:35:47.550947	123.0	31.3	-77.4	12.0
2026-01-21 06:35:49.820031	123.7	31.1	-77.4	12.5
2026-01-21 06:35:52.085625	124.5	30.9	-77.7	11.9
2026-01-21 06:35:54.354540	125.2	30.6	-77.4	11.2
2026-01-21 06:35:56.623979	125.9	30.4	-77.9	13.0
2026-01-21 06:35:58.890564	126.6	30.2	-77.4	10.4
2026-01-21 06:36:01.165290	127.3	30.0	-77.5	10.1
2026-01-21 06:36:03.441177	127.9	29.7	-77.6	10.5
2026-01-21 06:36:05.717141	128.6	29.5	-77.5	10.1
2026-01-21 06:36:07.989364	129.3	29.3	-77.4	11.4
2026-01-21 06:36:10.259836	129.9	29.0	-77.5	10.8
2026-01-21 06:36:12.528522	130.5	28.8	-78.0	12.1
2026-01-21 06:36:14.796338	131.2	28.6	-78.4	12.9
2026-01-21 06:36:17.067275	131.8	28.3	-78.3	12.5
2026-01-21 06:36:19.334792	132.4	28.1	-78.3	12.5
2026-01-21 06:36:21.609441	133.0	27.8	-78.2	11.3
2026-01-21 06:36:23.883406	133.6	27.6	-77.7	11.7
2026-01-21 06:36:26.150362	134.2	27.3	-77.6	11.0
2026-01-21 06:36:28.421362	134.7	27.1	-77.9	12.5
2026-01-21 06:36:30.693861	135.3	26.9	-78.1	11.4
2026-01-21 06:36:32.966590	135.9	26.6	-77.9	12.1
2026-01-21 06:36:35.238489	136.4	26.4	-77.6	11.7
2026-01-21 06:36:37.510799	137.0	26.1	-77.3	11.4
2026-01-21 06:36:39.782142	137.5	25.9	-77.8	11.3
2026-01-21 06:36:42.060495	138.0	25.6	-77.7	11.1
2026-01-21 06:36:44.330494	138.5	25.4	-77.4	12.4
2026-01-21 06:36:46.604428	139.0	25.1	-77.3	10.9
2026-01-21 06:36:48.872451	139.5	24.9	-77.8	12.8
2026-01-21 06:36:51.133307	140.0	24.6	-77.7	11.2
2026-01-21 06:36:53.391410	140.5	24.4	-77.3	11.8
2026-01-21 06:36:55.648274	141.0	24.1	-77.7	11.6
2026-01-21 06:36:57.908200	141.4	23.9	-77.2	12.1
2026-01-21 06:37:00.163626	141.9	23.6	-77.3	10.8
2026-01-21 06:37:02.419923	142.4	23.4	-77.4	9.8
2026-01-21 06:37:04.679736	142.8	23.1	-77.6	10.9
2026-01-21 06:37:06.936861	143.2	22.9	-77.8	10.0
2026-01-21 06:37:09.194338	143.7	22.6	-77.9	11.2
2026-01-21 06:37:11.455375	144.1	22.4	-77.7	10.2
2026-01-21 06:37:13.723862	144.5	22.2	-78.0	11.5
2026-01-21 06:37:15.996130	144.9	21.9	-77.9	10.9
2026-01-21 06:37:18.268190	145.4	21.7	-77.7	10.6
2026-01-21 06:37:20.538562	145.8	21.4	-78.2	11.1
2026-01-21 06:37:22.810977	146.2	21.2	-77.6	8.9
2026-01-21 06:37:25.081089	146.5	20.9	-77.8	9.0
2026-01-21 06:37:27.349131	146.9	20.7	-77.6	8.6
2026-01-21 06:37:29.618518	147.3	20.5	-77.8	10.7
2026-01-21 06:37:31.887057	147.7	20.2	-77.7	8.5
2026-01-21 06:37:34.161315	148.0	20.0	-78.0	9.7
2026-01-21 06:37:36.438761	148.4	19.8	-77.8	8.8
2026-01-21 06:37:38.699060	148.8	19.5	-76.0	4.1
2026-01-21 06:37:40.966441	149.1	19.3	-77.7	9.9
2026-01-21 06:37:43.240402	149.5	19.1	-77.8	9.4
2026-01-21 06:37:45.509411	149.8	18.8	-77.4	8.5
2026-01-21 06:37:47.765889	150.1	18.6	-77.3	7.6
2026-01-21 06:37:50.017604	150.5	18.4	-77.8	8.5
2026-01-21 06:37:52.267265	150.8	18.2	-78.1	7.9
2026-01-21 06:37:54.519566	151.1	17.9	-75.4	2.2
2026-01-21 06:37:56.766068	151.4	17.7	-77.0	7.3
2026-01-21 06:37:59.012104	151.7	17.5	-77.6	9.4
2026-01-21 06:38:01.262584	152.0	17.3	-77.5	9.4
2026-01-21 06:38:03.529208	152.4	17.1	-77.9	9.5
2026-01-21 06:38:05.796461	152.7	16.8	-77.5	8.8
2026-01-21 06:38:08.067403	152.9	16.6	-78.3	6.6
2026-01-21 06:38:10.335321	153.2	16.4	-78.4	9.6
2026-01-21 06:38:12.604152	153.5	16.2	-78.2	9.9
2026-01-21 06:38:14.875793	153.8	16.0	-78.8	10.1
2026-01-21 06:38:17.139865	154.1	15.8	-79.0	8.1
2026-01-21 06:38:19.410363	154.4	15.6	-78.4	8.6
2026-01-21 06:38:21.677732	154.6	15.3	-78.7	7.1
2026-01-21 06:38:23.950645	154.9	15.1	-78.5	7.9
2026-01-21 06:38:26.216904	155.2	14.9	-78.2	6.2
2026-01-21 06:38:28.482015	155.4	14.7	-78.6	7.7
2026-01-21 06:38:30.756041	155.7	14.5	-78.2	7.4
2026-01-21 06:38:33.022277	155.9	14.3	-78.6	8.4
2026-01-21 06:38:35.291352	156.2	14.1	-78.3	7.3
2026-01-21 06:38:37.562311	156.4	13.9	-78.9	8.4
2026-01-21 06:38:39.830629	156.7	13.7	-78.7	6.9
2026-01-21 06:38:42.098372	156.9	13.5	-79.1	6.5
2026-01-21 06:38:44.370731	157.2	13.3	-79.0	6.7
2026-01-21 06:38:46.644702	157.4	13.1	-78.8	7.7
2026-01-21 06:38:48.916229	157.6	12.9	-79.0	7.3
2026-01-21 06:38:51.186062	157.9	12.7	-79.1	8.1
2026-01-21 06:38:53.461644	158.1	12.5	-79.3	6.2
2026-01-21 06:38:55.733891	158.3	12.3	-79.5	7.8
2026-01-21 06:38:58.003435	158.5	12.2	-79.6	8.3
2026-01-21 06:39:00.256966	158.8	12.0	-79.4	7.3
2026-01-21 06:39:02.514486	159.0	11.8	-79.5	7.4
2026-01-21 06:39:04.775630	159.2	11.6	-79.8	5.7
2026-01-21 06:39:07.035981	159.4	11.4	-79.2	6.7
2026-01-21 06:39:09.295030	159.6	11.2	-78.9	6.9
2026-01-21 06:39:11.553156	159.8	11.0	-79.8	6.6
2026-01-21 06:39:13.813274	160.0	10.9	-79.3	5.7
2026-01-21 06:39:16.069352	160.2	10.7	-80.7	1.3
2026-01-21 06:39:18.328308	160.4	10.5	-80.5	0.0
2026-01-21 06:39:20.585575	160.6	10.3	-83.0	0.0
2026-01-21 06:39:22.844525	160.8	10.1	-85.1	0.0
#Closed at: 2026-01-21 06:29:35.252462