passes_logs/2026/01/21/R2M6_AANII_01/R2M6_AANII_01__20260121_025710_AQUA_rec.log

#Pass ID: 20260121_025710_AQUA
#Satellite: AQUA
#Configuration: AQUA
#almurnet v.1.7.20240730
#Start time: 2026-01-21 02:57:12

#Version: 2.2.20231116
#Station: R2M6_AANII_01
#Location: 30.233357 lon 59.946436 lat
#TLE: 1 27424U 02022A   26020.30984080  .00001497  00000+0  30942-3 0  9998
#TLE: 2 27424  98.4092 346.8266 0001984  71.7888  69.0903 14.61835321261661

#Time	Az	El	Level	Level2	SNR	BER	BlckErr	Temp	State	Recorded	gain1	gain2
2026-01-21 02:57:12.64	11.09	7.15	-31.3	-47.2	3.8	7.41e-01	0	42	0	0	25	22414
2026-01-21 02:57:15.65	10.91	7.38	-32.4	-47.5	3.8	7.41e-01	0	42	104	0	25	20561
2026-01-21 02:57:18.67	10.73	7.62	-32.1	-46.4	3.8	7.47e-01	0	42	104	0	25	18685
2026-01-21 02:57:21.67	10.55	7.86	-31.5	-45.3	3.8	7.44e-01	0	42	104	0	23	17641
2026-01-21 02:57:24.67	10.36	8.10	-31.3	-44.7	3.8	7.46e-01	0	42	104	0	23	16852
2026-01-21 02:57:27.67	10.17	8.34	-30.9	-44.3	3.8	7.43e-01	0	42	104	0	22	16683
2026-01-21 02:57:30.67	9.98	8.58	-31.2	-44.5	3.8	7.47e-01	0	42	104	0	23	16604
2026-01-21 02:57:33.67	9.78	8.83	-32.0	-46.4	3.8	7.42e-01	0	43	104	0	24	18963
2026-01-21 02:57:36.68	9.58	9.08	-32.7	-48.0	3.8	7.44e-01	0	42	104	0	26	20920
2026-01-21 02:57:39.69	9.38	9.34	-33.0	-49.1	3.8	7.42e-01	0	42	104	0	26	23089
2026-01-21 02:57:42.69	9.17	9.59	-33.3	-50.2	3.8	7.45e-01	0	43	104	0	27	25054
2026-01-21 02:57:45.71	8.95	9.85	-33.5	-51.2	3.8	7.45e-01	0	43	104	0	27	27509
2026-01-21 02:57:48.72	8.73	10.11	-33.6	-51.5	3.8	7.47e-01	0	43	104	0	27	28394
2026-01-21 02:57:51.73	8.51	10.37	-33.4	-50.6	3.8	7.45e-01	0	43	104	0	27	26006
2026-01-21 02:57:54.75	8.28	10.64	-33.3	-49.8	3.8	7.45e-01	0	43	104	0	27	23930
2026-01-21 02:57:57.75	8.05	10.91	-32.8	-48.2	3.8	7.45e-01	0	43	104	0	26	21124
2026-01-21 02:58:00.77	7.81	11.18	-32.0	-45.6	3.8	7.44e-01	0	43	104	0	25	17350
2026-01-21 02:58:03.78	7.57	11.46	-31.6	-45.0	3.8	7.45e-01	0	43	104	0	24	16787
2026-01-21 02:58:06.80	7.32	11.74	-31.8	-45.5	3.8	7.45e-01	0	43	104	0	24	17512
2026-01-21 02:58:09.82	7.06	12.02	-31.2	-44.2	3.8	7.44e-01	0	43	104	0	23	16144
2026-01-21 02:58:12.82	6.80	12.30	-31.2	-44.4	3.8	7.41e-01	0	43	104	0	23	16320
2026-01-21 02:58:15.84	6.54	12.59	-31.0	-43.8	3.8	7.43e-01	0	43	104	0	23	15634
2026-01-21 02:58:18.86	6.27	12.88	-30.9	-43.9	3.8	7.46e-01	0	43	104	0	22	16064
2026-01-21 02:58:21.87	5.99	13.17	-31.8	-45.4	3.8	7.46e-01	0	43	104	0	24	17298
2026-01-21 02:58:24.89	5.71	13.47	-32.8	-47.7	3.8	7.48e-01	0	43	104	0	26	20088
2026-01-21 02:58:27.91	5.42	13.77	-33.2	-48.7	3.8	7.46e-01	0	43	104	0	27	21582
2026-01-21 02:58:30.92	5.12	14.08	-33.4	-49.9	3.8	7.45e-01	0	44	104	0	27	23913
2026-01-21 02:58:33.93	4.82	14.38	-33.6	-50.6	3.8	7.41e-01	0	43	104	0	28	25337
2026-01-21 02:58:36.95	4.51	14.70	-33.5	-50.3	3.8	7.47e-01	0	43	104	0	28	24636
2026-01-21 02:58:39.97	4.19	15.01	-33.5	-49.8	3.8	7.45e-01	0	43	104	0	28	23528
2026-01-21 02:58:42.98	3.86	15.33	-33.3	-49.1	3.8	7.47e-01	0	43	104	0	27	22246
2026-01-21 02:58:45.99	3.53	15.65	-32.7	-47.1	3.8	7.42e-01	0	44	104	0	26	19023
2026-01-21 02:58:49.01	3.19	15.98	-31.5	-45.0	3.8	7.44e-01	0	43	104	0	23	17117
2026-01-21 02:58:52.01	2.84	16.31	-30.7	-43.4	3.8	7.45e-01	0	44	104	0	22	15525
2026-01-21 02:58:55.03	2.48	16.64	-30.7	-43.4	3.8	7.42e-01	0	44	104	0	22	15451
2026-01-21 02:58:58.04	2.12	16.98	-30.9	-43.7	3.8	7.45e-01	0	44	104	0	22	15859
2026-01-21 02:59:01.04	1.74	17.32	-31.0	-44.2	3.8	7.41e-01	0	44	104	0	22	16400
2026-01-21 02:59:04.05	1.36	17.66	-31.9	-45.6	3.8	7.43e-01	0	44	104	0	24	17437
2026-01-21 02:59:07.06	0.96	18.01	-31.3	-44.5	3.8	7.45e-01	0	44	104	0	23	16433
2026-01-21 02:59:10.06	0.56	18.37	-31.7	-45.1	3.8	7.44e-01	0	44	104	0	24	16827
2026-01-21 02:59:13.07	0.15	18.72	-32.9	-47.7	3.8	7.48e-01	0	44	104	0	26	19934
2026-01-21 02:59:16.09	359.72	19.09	-33.5	-49.8	3.8	7.45e-01	0	44	104	0	27	23308
2026-01-21 02:59:19.09	359.28	19.45	-33.6	-49.7	3.8	7.46e-01	0	44	104	0	28	22960
2026-01-21 02:59:22.10	358.84	19.82	-33.9	-51.0	3.8	7.42e-01	0	44	104	0	28	25940
2026-01-21 02:59:25.11	358.38	20.20	-33.7	-50.5	3.8	7.44e-01	0	44	104	0	28	24627
2026-01-21 02:59:28.12	357.90	20.58	-33.4	-49.1	3.8	7.45e-01	0	44	104	0	27	21889
2026-01-21 02:59:31.13	357.42	20.96	-33.1	-48.0	3.8	7.46e-01	0	44	104	0	27	19918
2026-01-21 02:59:34.15	356.92	21.35	-32.7	-46.8	3.8	7.46e-01	0	44	104	0	26	18409
2026-01-21 02:59:37.16	356.41	21.74	-31.6	-44.6	3.8	7.41e-01	0	44	104	0	24	16107
2026-01-21 02:59:40.18	355.88	22.14	-30.8	-43.4	3.8	7.45e-01	0	44	104	0	22	15418
2026-01-21 02:59:43.19	355.34	22.54	-30.6	-43.4	3.8	7.45e-01	0	44	104	0	21	15737
2026-01-21 02:59:46.20	354.78	22.94	-31.0	-44.1	3.8	7.43e-01	0	44	104	0	22	16226
2026-01-21 02:59:49.22	354.21	23.35	-31.5	-44.7	3.8	7.45e-01	0	44	104	0	23	16567
2026-01-21 02:59:52.23	353.62	23.76	-32.4	-46.3	3.8	7.46e-01	0	44	104	0	25	17979
2026-01-21 02:59:55.24	353.01	24.18	-32.5	-46.3	3.8	7.44e-01	0	44	104	0	26	17559
2026-01-21 02:59:58.25	352.39	24.60	-32.2	-45.8	3.8	7.45e-01	0	44	104	0	25	17134
2026-01-21 03:00:01.26	351.75	25.02	-33.1	-48.1	3.8	7.44e-01	0	44	104	0	26	20369
2026-01-21 03:00:04.28	351.09	25.45	-33.7	-49.6	3.8	7.45e-01	0	44	104	0	28	22507
2026-01-21 03:00:07.29	350.41	25.88	-33.7	-49.5	3.8	7.45e-01	0	44	104	0	28	22377
2026-01-21 03:00:10.30	349.71	26.32	-33.8	-50.2	3.8	7.42e-01	0	44	104	0	28	23839
2026-01-21 03:00:13.31	349.00	26.75	-33.8	-50.2	3.8	7.42e-01	0	44	104	0	28	23696
2026-01-21 03:00:16.32	348.26	27.19	-33.2	-48.1	3.8	7.47e-01	0	44	104	0	27	19993
2026-01-21 03:00:19.32	347.50	27.64	-32.9	-47.6	3.8	7.47e-01	0	44	104	0	26	19412
2026-01-21 03:00:22.34	346.71	28.08	-32.0	-45.3	3.8	7.42e-01	0	44	104	0	25	16499
2026-01-21 03:00:25.35	345.91	28.53	-31.1	-43.7	3.8	7.44e-01	0	44	104	0	23	15365
2026-01-21 03:00:28.35	345.08	28.97	-30.3	-42.7	3.8	7.43e-01	0	44	104	0	21	14956
2026-01-21 03:00:31.36	344.22	29.42	-30.4	-42.9	3.8	7.41e-01	0	44	104	0	21	15161
2026-01-21 03:00:34.37	343.34	29.87	-30.4	-42.8	3.8	7.43e-01	0	44	104	0	21	15059
2026-01-21 03:00:37.38	342.44	30.32	-31.1	-43.7	3.8	7.45e-01	0	44	104	0	23	15284
2026-01-21 03:00:40.40	341.50	30.77	-32.2	-45.7	3.8	7.44e-01	0	44	104	0	25	16996
2026-01-21 03:00:43.41	340.54	31.21	-33.2	-48.0	3.8	7.47e-01	0	44	104	0	27	19639
2026-01-21 03:00:46.42	339.55	31.66	-32.9	-47.5	3.8	7.41e-01	0	44	104	0	26	19336
2026-01-21 03:00:49.43	338.53	32.10	-32.8	-46.9	3.8	7.47e-01	0	44	104	0	26	18273
2026-01-21 03:00:52.45	337.49	32.54	-33.6	-49.0	3.8	7.45e-01	0	44	104	0	28	21163
2026-01-21 03:00:55.46	336.41	32.97	-33.3	-48.2	3.8	7.45e-01	0	44	104	0	27	20004
2026-01-21 03:00:58.47	335.30	33.40	-33.1	-47.7	3.8	7.43e-01	0	44	104	0	27	19247
2026-01-21 03:01:01.49	334.16	33.83	-33.5	-48.8	3.8	7.42e-01	0	44	104	0	28	20906
2026-01-21 03:01:04.50	333.00	34.25	-32.9	-47.4	3.8	7.47e-01	0	44	104	0	26	19107
2026-01-21 03:01:07.51	331.80	34.66	-32.1	-45.3	3.8	7.45e-01	0	44	104	0	25	16462
2026-01-21 03:01:10.52	330.57	35.06	-32.0	-44.9	3.8	7.43e-01	0	44	104	0	25	15989
2026-01-21 03:01:13.54	329.30	35.45	-31.1	-43.7	3.8	7.44e-01	0	44	104	0	23	15260
2026-01-21 03:01:16.55	328.01	35.83	-30.9	-43.5	3.8	7.46e-01	0	44	104	0	22	15309
2026-01-21 03:01:19.56	326.69	36.20	-31.0	-43.7	3.8	7.44e-01	0	44	104	0	22	15597
2026-01-21 03:01:22.57	325.33	36.55	-31.6	-44.5	3.8	7.45e-01	0	44	104	0	24	15822
2026-01-21 03:01:25.58	323.95	36.90	-32.0	-45.5	3.8	7.48e-01	0	44	104	0	24	17017
2026-01-21 03:01:28.59	322.54	37.22	-33.0	-47.6	3.8	7.45e-01	0	44	104	0	26	19260
2026-01-21 03:01:31.60	321.09	37.53	-33.7	-49.2	3.8	7.44e-01	0	44	104	0	28	21640
2026-01-21 03:01:34.62	319.62	37.82	-33.9	-50.3	3.8	7.46e-01	0	44	104	0	28	23833
2026-01-21 03:01:37.62	318.13	38.09	-33.6	-49.0	3.8	7.44e-01	0	44	104	0	28	21150
2026-01-21 03:01:40.64	316.60	38.34	-33.8	-50.1	3.8	7.46e-01	0	44	104	0	28	23268
2026-01-21 03:01:43.64	315.06	38.57	-33.4	-48.2	3.8	7.43e-01	0	44	104	0	28	19760
2026-01-21 03:01:46.66	313.49	38.78	-32.6	-46.4	3.8	7.46e-01	0	44	104	0	26	17526
2026-01-21 03:01:49.67	311.90	38.97	-32.7	-46.6	3.8	7.43e-01	0	44	104	0	26	17741
2026-01-21 03:01:52.68	310.30	39.13	-32.9	-46.7	3.8	7.44e-01	0	44	104	0	27	17770
2026-01-21 03:01:55.68	308.69	39.27	-32.0	-44.8	3.8	7.45e-01	0	44	104	0	25	15820
2026-01-21 03:01:58.69	307.06	39.38	-31.9	-45.2	3.8	7.46e-01	0	44	104	0	24	16511
2026-01-21 03:02:01.69	305.42	39.47	-31.1	-43.6	3.8	7.47e-01	0	44	104	0	23	15184
2026-01-21 03:02:04.70	303.77	39.52	-30.8	-43.3	3.8	7.44e-01	0	44	104	0	22	15235
2026-01-21 03:02:07.70	302.12	39.56	-31.1	-44.1	3.8	7.42e-01	0	44	104	0	22	16238
2026-01-21 03:02:10.72	300.46	39.56	-31.9	-45.2	3.8	7.46e-01	0	44	104	0	24	16602
2026-01-21 03:02:13.73	298.80	39.54	-32.2	-45.8	3.8	7.43e-01	0	44	104	0	25	17203
2026-01-21 03:02:16.74	297.15	39.50	-33.0	-47.9	3.8	7.48e-01	0	44	104	0	26	20117
2026-01-21 03:02:19.75	295.50	39.42	-33.6	-49.6	3.8	7.47e-01	0	44	104	0	28	22825
2026-01-21 03:02:22.77	293.86	39.33	-33.9	-50.6	3.8	7.47e-01	0	44	104	0	28	24727
2026-01-21 03:02:25.78	292.23	39.20	-33.8	-50.3	3.8	7.42e-01	0	44	104	0	28	23988
2026-01-21 03:02:28.79	290.62	39.05	-33.7	-49.7	3.8	7.41e-01	0	44	104	0	28	22542
2026-01-21 03:02:31.80	289.02	38.88	-33.1	-47.2	3.8	7.42e-01	0	44	104	0	27	18134
2026-01-21 03:02:34.81	287.44	38.68	-32.0	-45.0	3.8	7.46e-01	0	44	104	0	25	15923
2026-01-21 03:02:37.82	285.89	38.46	-31.3	-44.5	3.8	7.42e-01	0	44	104	0	23	16383
2026-01-21 03:02:40.82	284.36	38.22	-31.5	-45.3	3.8	7.42e-01	0	44	104	0	23	17652
2026-01-21 03:02:43.82	282.85	37.95	-31.2	-43.8	3.8	7.45e-01	0	44	104	0	23	15386
2026-01-21 03:02:46.83	281.36	37.67	-31.3	-44.0	3.8	7.45e-01	0	44	104	0	23	15619
2026-01-21 03:02:49.85	279.90	37.37	-31.2	-43.4	3.8	7.47e-01	0	44	104	0	23	14710
2026-01-21 03:02:52.88	278.46	37.05	-30.6	-42.9	3.8	7.44e-01	0	44	104	0	22	14849
2026-01-21 03:02:55.89	277.06	36.72	-30.8	-43.4	3.8	7.47e-01	0	44	104	0	22	15402
2026-01-21 03:02:58.90	275.69	36.37	-31.5	-44.9	3.8	7.45e-01	0	44	104	0	23	16816
2026-01-21 03:03:01.92	274.34	36.00	-32.3	-45.4	3.8	7.42e-01	0	44	104	0	25	16167
2026-01-21 03:03:04.93	273.03	35.63	-32.9	-48.2	3.8	7.43e-01	0	44	104	0	26	21156
2026-01-21 03:03:07.94	271.75	35.24	-33.5	-48.3	3.8	7.44e-01	0	44	104	0	27	19987
2026-01-21 03:03:10.96	270.50	34.84	-33.7	-50.8	3.8	7.48e-01	0	44	104	0	28	25666
2026-01-21 03:03:13.97	269.28	34.43	-33.5	-49.3	3.8	7.45e-01	0	44	104	0	28	22163
2026-01-21 03:03:17.00	268.09	34.01	-33.3	-47.9	3.8	7.44e-01	0	44	104	0	27	19388
2026-01-21 03:03:20.01	266.93	33.59	-32.6	-45.9	3.8	7.41e-01	0	44	104	0	26	16687
2026-01-21 03:03:23.02	265.81	33.16	-31.6	-44.1	3.8	7.42e-01	0	44	104	0	24	15301
2026-01-21 03:03:26.02	264.72	32.73	-30.5	-33.9	5.3	7.08e-01	0	44	0	0	22	5355
2026-01-21 03:03:29.03	263.66	32.29	-30.2	-33.7	5.3	7.06e-01	0	44	0	2097152	21	5396
2026-01-21 03:03:32.04	262.62	31.85	-30.0	-33.7	5.3	7.04e-01	0	44	0	4194304	20	5520
2026-01-21 03:03:35.04	261.62	31.40	-30.0	-33.8	5.3	7.06e-01	0	44	0	4718592	20	5563
2026-01-21 03:03:38.05	260.64	30.96	-30.0	-33.7	5.3	7.05e-01	0	44	0	4718592	20	5548
2026-01-21 03:03:41.06	259.69	30.51	-29.7	-33.0	5.3	7.05e-01	0	44	0	4718592	20	5250
2026-01-21 03:03:44.07	258.77	30.06	-30.1	-33.5	5.3	7.05e-01	0	44	0	4718592	21	5322
2026-01-21 03:03:47.09	257.87	29.61	-30.1	-33.5	5.3	7.07e-01	0	44	0	4718592	21	5334
2026-01-21 03:03:50.09	257.01	29.16	-30.1	-34.1	5.3	7.08e-01	0	44	0	4718592	20	5676
2026-01-21 03:03:53.10	256.16	28.71	-30.0	-33.8	5.3	7.11e-01	0	44	0	4718592	20	5587
2026-01-21 03:03:56.12	255.34	28.26	-30.3	-34.0	5.3	7.05e-01	0	44	0	4718592	21	5555
2026-01-21 03:03:59.13	254.54	27.81	-29.7	-33.0	5.3	7.06e-01	0	44	0	4718592	20	5262
2026-01-21 03:04:02.14	253.76	27.37	-30.0	-33.8	5.3	7.07e-01	0	44	0	4718592	20	5598
2026-01-21 03:04:05.15	253.01	26.92	-30.4	-34.3	5.3	7.08e-01	0	44	0	4718592	21	5672
2026-01-21 03:04:08.16	252.28	26.48	-30.0	-33.8	5.3	7.08e-01	0	44	0	4718592	20	5595
2026-01-21 03:04:11.17	251.57	26.05	-30.2	-33.9	5.3	7.07e-01	0	44	0	4718592	21	5525
2026-01-21 03:04:14.18	250.88	25.61	-29.9	-33.6	5.3	7.06e-01	0	44	0	4718592	20	5484
2026-01-21 03:04:17.19	250.21	25.18	-30.0	-33.9	5.3	7.10e-01	0	44	0	4718592	20	5616
2026-01-21 03:04:20.20	249.56	24.75	-30.4	-34.4	5.3	7.10e-01	0	44	0	4718592	21	5689
2026-01-21 03:04:23.21	248.92	24.33	-30.2	-33.8	5.3	7.10e-01	0	44	0	4718592	21	5465
2026-01-21 03:04:26.22	248.31	23.91	-30.0	-33.9	5.3	7.09e-01	0	44	0	4718592	20	5638
2026-01-21 03:04:29.24	247.71	23.49	-30.3	-34.2	5.3	7.08e-01	0	44	0	4718592	21	5636
2026-01-21 03:04:32.25	247.13	23.08	-30.0	-34.0	5.3	7.08e-01	0	44	0	4718592	20	5659
2026-01-21 03:04:35.27	246.56	22.67	-30.3	-34.1	5.3	7.07e-01	0	44	0	4718592	21	5574
2026-01-21 03:04:38.28	246.01	22.27	-30.3	-34.2	5.3	7.10e-01	0	44	0	4718592	21	5655
2026-01-21 03:04:41.30	245.47	21.87	-30.3	-34.1	5.3	7.07e-01	0	44	0	4718592	21	5605
2026-01-21 03:04:44.31	244.95	21.47	-30.2	-34.1	5.3	7.07e-01	0	44	0	4718592	21	5581
2026-01-21 03:04:47.33	244.44	21.08	-30.0	-34.0	5.3	7.09e-01	0	44	0	4718592	20	5690
2026-01-21 03:04:50.34	243.94	20.69	-30.0	-33.8	5.3	7.04e-01	0	44	0	4718592	20	5620
2026-01-21 03:04:53.36	243.46	20.31	-30.1	-34.2	5.3	7.06e-01	0	44	0	4718592	20	5770
2026-01-21 03:04:56.37	242.99	19.93	-30.1	-33.7	5.3	7.07e-01	0	44	0	4718592	21	5456
2026-01-21 03:04:59.38	242.54	19.56	-30.2	-34.0	5.3	7.07e-01	0	44	0	4718592	21	5577
2026-01-21 03:05:02.38	242.09	19.19	-30.6	-35.0	5.2	7.10e-01	0	44	0	4718592	21	5974
2026-01-21 03:05:05.39	241.66	18.82	-30.5	-34.8	5.3	7.09e-01	0	44	0	4718592	21	5935
2026-01-21 03:05:08.40	241.24	18.46	-30.0	-33.6	5.3	7.10e-01	0	44	0	4718592	21	5402
2026-01-21 03:05:11.41	240.83	18.10	-30.1	-33.8	5.3	7.06e-01	0	44	0	4718592	21	5509
2026-01-21 03:05:14.42	240.42	17.75	-30.1	-34.2	5.3	7.03e-01	0	44	0	4718592	20	5774
2026-01-21 03:05:17.43	240.03	17.40	-30.2	-33.9	5.3	7.09e-01	0	44	0	4718592	21	5556
2026-01-21 03:05:20.43	239.65	17.06	-30.3	-34.3	5.3	7.06e-01	0	44	0	4718592	21	5731
2026-01-21 03:05:23.45	239.28	16.72	-30.2	-34.2	5.3	7.06e-01	0	44	0	4718592	21	5679
2026-01-21 03:05:26.46	238.91	16.38	-29.9	-33.9	5.3	7.07e-01	0	44	0	4718592	20	5677
2026-01-21 03:05:29.46	238.56	16.05	-29.9	-33.8	5.4	7.04e-01	0	44	0	4718592	20	5637
2026-01-21 03:05:32.46	238.21	15.72	-30.0	-34.2	5.3	7.05e-01	0	44	0	4718592	20	5797
2026-01-21 03:05:35.48	237.87	15.40	-29.9	-34.1	5.3	7.04e-01	0	44	0	4718592	19	5833
2026-01-21 03:05:38.49	237.54	15.07	-29.9	-33.9	5.3	7.04e-01	0	44	0	4718592	20	5698
2026-01-21 03:05:41.51	237.22	14.76	-30.3	-34.4	5.2	7.05e-01	0	44	0	4718592	21	5776
2026-01-21 03:05:44.52	236.90	14.44	-30.0	-34.2	5.3	7.06e-01	0	44	0	4718592	20	5817
2026-01-21 03:05:47.53	236.60	14.13	-30.0	-33.7	5.3	7.07e-01	0	44	0	4718592	21	5492
2026-01-21 03:05:50.54	236.29	13.83	-30.1	-33.9	5.3	7.08e-01	0	44	0	4718592	21	5589
2026-01-21 03:05:53.56	236.00	13.52	-30.0	-33.7	5.3	7.07e-01	0	44	0	4718592	21	5516
2026-01-21 03:05:56.55	235.71	13.22	-30.1	-34.3	5.3	7.06e-01	0	44	0	4718592	20	5898
2026-01-21 03:05:59.56	235.43	12.93	-30.2	-34.4	5.3	7.08e-01	0	44	0	4718592	21	5799
2026-01-21 03:06:02.55	235.16	12.64	-30.0	-34.3	5.3	7.07e-01	0	44	0	4718592	20	5869
2026-01-21 03:06:05.56	234.89	12.35	-30.0	-33.8	5.2	7.09e-01	0	44	0	4718592	21	5572
2026-01-21 03:06:08.57	234.62	12.06	-30.0	-34.3	5.2	7.07e-01	0	44	0	4718592	20	5889
2026-01-21 03:06:11.59	234.36	11.78	-30.3	-34.7	5.2	7.06e-01	0	44	0	4718592	21	5928
2026-01-21 03:06:14.60	234.11	11.50	-30.2	-34.2	5.2	7.06e-01	0	44	0	4718592	21	5743
2026-01-21 03:06:17.61	233.86	11.22	-30.3	-34.6	5.2	7.07e-01	0	44	0	4718592	21	5906
2026-01-21 03:06:20.63	233.62	10.94	-30.1	-34.2	5.3	7.04e-01	0	44	0	4718592	21	5727
2026-01-21 03:06:23.64	233.38	10.67	-30.2	-34.3	5.3	7.05e-01	0	44	0	4718592	21	5770
2026-01-21 03:06:26.66	233.15	10.40	-30.2	-34.4	5.2	7.04e-01	0	44	0	4718592	21	5827
2026-01-21 03:06:29.67	232.92	10.14	-30.3	-34.7	5.3	7.07e-01	0	44	0	4718592	21	5983
2026-01-21 03:06:32.68	232.69	9.87	-30.4	-35.0	5.3	7.06e-01	0	44	0	4718592	21	6083
2026-01-21 03:06:35.69	232.47	9.61	-30.5	-35.1	5.2	7.05e-01	0	44	0	4718592	21	6173
2026-01-21 03:06:38.70	232.26	9.36	-30.2	-33.8	18.0	6.02e-01	0	44	0	524288	21	5408
2026-01-21 03:06:41.70	232.05	9.10	-30.3	-33.8	18.0	6.01e-01	0	44	0	6291456	21	5445
2026-01-21 03:06:44.72	231.84	8.85	-30.3	-33.9	17.9	6.02e-01	0	44	0	12058624	21	5469
2026-01-21 03:06:47.73	231.64	8.60	-30.3	-34.1	17.7	6.00e-01	0	44	0	17825792	21	5556
2026-01-21 03:06:50.74	231.44	8.35	-30.5	-34.5	17.5	6.03e-01	0	44	0	23592960	21	5737
2026-01-21 03:06:53.74	231.25	8.11	-30.4	-34.4	17.5	5.99e-01	0	44	0	28835840	21	5712
2026-01-21 03:06:56.75	231.05	7.86	-30.5	-34.6	17.3	6.02e-01	0	44	0	34603008	21	5808
2026-01-21 03:06:59.78	230.87	7.62	-30.8	-35.1	16.6	6.02e-01	0	44	0	40370176	22	5896
2026-01-21 03:07:02.79	230.68	7.38	-30.7	-35.0	16.7	6.01e-01	0	44	0	46137344	22	5857
2026-01-21 03:07:05.79	230.50	7.15	-30.6	-34.7	16.7	6.01e-01	0	44	0	51380224	22	5772

#Closed at: 2026-01-21 03:07:08
#Recorded file [52 MB]: D:/data/31010_260121_060638.dat