passes_logs/2026/01/21/R2M6_AANII_01/R2M6_AANII_01__20260121_010245_SUOMI_NPP_rec.log

#Pass ID: 20260121_010245_SUOMI NPP
#Satellite: SUOMI NPP
#Configuration: NPP
#almurnet v.1.7.20240730
#Start time: 2026-01-21 01:02:45

#Version: 2.2.20231116
#Station: R2M6_AANII_01
#Location: 30.233357 lon 59.946436 lat
#TLE: 1 37849U 11061A   26020.31993517  .00000142  00000+0  88240-4 0  9990
#TLE: 2 37849  98.7818 322.3228 0002330  54.3778 305.7615 14.19527005737466

#Time	Az	El	Level	Level2	SNR	BER	BlckErr	Temp	State	Recorded	gain1	gain2
2026-01-21 01:02:45.95	15.19	7.07	-31.9	-36.3	5.1	1.28e+00	0	42	0	0	23	6020
2026-01-21 01:02:48.96	15.10	7.30	-32.1	-36.6	7.8	6.94e-02	0	42	0	1048576	24	6084
2026-01-21 01:02:51.97	15.01	7.53	-31.9	-36.4	8.4	2.88e-02	0	42	0	7340032	23	6005
2026-01-21 01:02:54.99	14.92	7.76	-32.1	-36.4	8.1	5.06e-02	0	42	0	12582912	24	5938
2026-01-21 01:02:58.00	14.82	8.00	-31.9	-35.7	8.7	5.73e-02	0	42	0	18874368	24	5548
2026-01-21 01:03:01.01	14.73	8.24	-31.3	-34.4	10.4	7.17e-03	0	42	0	24117248	22	5160
2026-01-21 01:03:04.01	14.63	8.47	-30.7	-33.0	11.8	7.32e-04	0	43	0	29360128	21	4698
2026-01-21 01:03:07.01	14.53	8.71	-30.6	-32.8	12.1	2.62e-04	0	43	0	35651584	21	4598
2026-01-21 01:03:10.02	14.43	8.96	-30.6	-32.6	12.2	2.35e-04	0	43	0	40894464	21	4548
2026-01-21 01:03:13.03	14.32	9.20	-30.6	-32.7	12.1	3.00e-04	0	43	0	46137344	21	4585
2026-01-21 01:03:16.04	14.22	9.45	-30.4	-32.5	12.7	1.07e-04	0	43	0	52428800	20	4574
2026-01-21 01:03:19.05	14.11	9.70	-30.2	-32.1	13.0	3.12e-05	0	43	0	57671680	20	4441
2026-01-21 01:03:22.06	14.00	9.96	-30.2	-31.9	13.1	3.28e-05	0	43	0	63963136	20	4380
2026-01-21 01:03:25.07	13.89	10.21	-30.1	-31.8	13.2	1.90e-05	0	43	0	69206016	20	4348
2026-01-21 01:03:28.08	13.78	10.47	-30.0	-31.3	13.5	2.13e-05	0	43	0	74448896	20	4205
2026-01-21 01:03:31.09	13.66	10.73	-30.1	-31.5	13.4	1.14e-05	0	43	0	80740352	20	4269
2026-01-21 01:03:34.10	13.54	11.00	-30.2	-32.0	13.0	3.28e-05	0	43	0	85983232	20	4425
2026-01-21 01:03:37.11	13.42	11.26	-30.3	-32.3	12.9	4.27e-05	0	43	0	91226112	20	4501
2026-01-21 01:03:40.12	13.30	11.53	-30.4	-32.4	12.8	3.96e-05	0	43	0	97517568	20	4559
2026-01-21 01:03:43.12	13.17	11.80	-29.9	-31.0	13.8	2.97e-04	0	44	0	102760448	20	4097
2026-01-21 01:03:46.14	13.04	12.08	-30.0	-31.3	13.7	5.30e-06	0	43	0	109051904	20	4178
2026-01-21 01:03:49.15	12.91	12.36	-29.9	-31.5	13.9	2.20e-06	0	44	0	114294784	19	4323
2026-01-21 01:03:52.15	12.78	12.64	-29.8	-31.1	14.1	1.50e-06	0	43	0	119537664	19	4223
2026-01-21 01:03:55.15	12.64	12.92	-29.9	-31.0	13.8	1.50e-06	0	43	0	125829120	20	4098
2026-01-21 01:03:58.15	12.50	13.20	-29.8	-31.4	14.0	1.90e-04	0	43	0	131072000	19	4282
2026-01-21 01:04:01.16	12.36	13.49	-29.9	-30.9	13.9	2.30e-04	0	44	0	136314880	20	4058
2026-01-21 01:04:04.17	12.22	13.79	-29.9	-31.6	13.9	2.10e-04	0	44	0	142606336	19	4349
2026-01-21 01:04:07.18	12.07	14.09	-29.9	-31.6	13.9	1.98e-04	0	44	0	147849216	19	4345
2026-01-21 01:04:10.18	11.92	14.39	-29.9	-31.4	14.0	3.00e-06	0	44	0	154140672	19	4292
2026-01-21 01:04:13.18	11.76	14.69	-29.9	-31.1	13.9	3.80e-06	0	44	0	159383552	20	4103
2026-01-21 01:04:16.18	11.60	14.99	-30.0	-31.4	13.7	2.23e-04	0	44	0	164626432	20	4205
2026-01-21 01:04:19.18	11.44	15.31	-29.9	-31.4	14.1	2.44e-04	0	44	0	170917888	19	4281
2026-01-21 01:04:22.20	11.27	15.62	-30.0	-31.4	13.7	2.50e-04	0	44	0	176160768	20	4194
2026-01-21 01:04:25.21	11.10	15.94	-29.8	-31.1	14.3	2.30e-04	0	44	0	181403648	19	4198
2026-01-21 01:04:28.21	10.93	16.26	-29.7	-30.8	14.5	2.14e-04	0	44	0	187695104	19	4103
2026-01-21 01:04:31.22	10.75	16.59	-29.6	-30.6	14.6	1.88e-04	0	44	0	192937984	19	4049
2026-01-21 01:04:34.23	10.57	16.92	-29.7	-31.0	14.5	1.92e-04	0	44	0	199229440	19	4166
2026-01-21 01:04:37.24	10.38	17.26	-29.9	-31.4	14.2	1.51e-04	0	44	0	204472320	19	4286
2026-01-21 01:04:40.24	10.19	17.59	-29.6	-30.8	14.6	1.43e-04	0	44	0	209715200	19	4093
2026-01-21 01:04:43.23	10.00	17.94	-29.7	-30.8	14.5	1.28e-04	0	44	0	216006656	19	4112
2026-01-21 01:04:46.25	9.80	18.29	-29.7	-30.9	14.6	4.11e-05	0	44	0	221249536	19	4114
2026-01-21 01:04:49.26	9.59	18.64	-29.1	-30.4	14.4	5.79e-05	0	44	0	226492416	19	4179
2026-01-21 01:04:52.27	9.38	19.00	-29.5	-30.4	14.6	0.00e+00	0	44	0	232783872	19	3978
2026-01-21 01:04:55.29	9.17	19.36	-29.9	-31.4	14.2	0.00e+00	0	44	0	238026752	19	4284
2026-01-21 01:04:58.30	8.95	19.73	-30.4	-32.2	13.4	1.13e-04	0	44	0	244318208	20	4439
2026-01-21 01:05:01.31	8.72	20.10	-30.5	-31.9	13.2	1.71e-04	0	44	0	249561088	21	4241
2026-01-21 01:05:04.32	8.49	20.48	-30.8	-32.7	12.7	2.09e-04	0	44	0	254803968	21	4493
2026-01-21 01:05:07.34	8.25	20.86	-30.4	-32.2	13.4	1.79e-04	0	44	0	261095424	20	4430
2026-01-21 01:05:10.37	8.00	21.25	-30.4	-31.6	13.5	1.90e-05	0	44	0	266338304	21	4155
2026-01-21 01:05:13.38	7.75	21.65	-30.7	-32.6	12.8	4.11e-05	0	44	0	272629760	21	4461
2026-01-21 01:05:16.38	7.49	22.04	-30.1	-30.9	13.9	2.89e-05	0	44	0	277872640	21	3949
2026-01-21 01:05:19.39	7.23	22.45	-30.3	-31.8	13.8	1.15e-04	0	44	0	283115520	20	4283
2026-01-21 01:05:22.40	6.95	22.86	-29.8	-30.5	14.5	1.27e-04	0	44	0	289406976	20	3922
2026-01-21 01:05:25.41	6.67	23.28	-30.0	-31.0	14.2	9.46e-05	0	44	0	294649856	20	4063
2026-01-21 01:05:28.41	6.38	23.70	-30.3	-31.8	13.7	1.13e-04	0	44	0	300941312	20	4298
2026-01-21 01:05:31.43	6.09	24.13	-30.4	-32.2	13.6	8.30e-06	0	44	0	306184192	20	4417
2026-01-21 01:05:34.43	5.78	24.56	-30.6	-32.3	12.1	2.14e-04	0	44	0	311427072	21	4352
2026-01-21 01:05:37.43	5.47	25.00	-30.7	-32.5	12.8	1.88e-04	0	44	0	317718528	21	4408
2026-01-21 01:05:40.45	5.15	25.45	-31.0	-33.2	12.6	1.77e-04	0	44	0	322961408	21	4636
2026-01-21 01:05:43.47	4.81	25.91	-30.5	-31.7	13.5	1.76e-04	0	44	0	328204288	21	4176
2026-01-21 01:05:46.48	4.47	26.37	-30.6	-32.2	13.3	1.51e-04	0	44	0	334495744	21	4322
2026-01-21 01:05:49.50	4.11	26.84	-31.1	-33.0	12.5	2.12e-03	0	44	0	339738624	22	4464
2026-01-21 01:05:52.50	3.75	27.32	-31.0	-32.7	12.7	2.59e-03	0	44	0	346030080	22	4379
2026-01-21 01:05:55.51	3.37	27.80	-31.1	-33.1	12.4	2.53e-03	0	44	0	351272960	22	4527
2026-01-21 01:05:58.52	2.98	28.29	-30.9	-32.5	12.8	1.50e-04	0	44	0	356515840	22	4331
2026-01-21 01:06:01.54	2.58	28.79	-31.5	-33.6	11.7	4.68e-04	0	44	0	362807296	23	4591
2026-01-21 01:06:04.54	2.17	29.29	-31.6	-33.9	11.6	3.13e-03	0	44	0	368050176	23	4697
2026-01-21 01:06:07.54	1.74	29.80	-31.5	-33.7	11.8	3.16e-03	0	44	0	373293056	23	4610
2026-01-21 01:06:10.54	1.30	30.32	-31.0	-32.5	12.9	2.71e-03	0	44	0	379584512	22	4309
2026-01-21 01:06:13.55	0.85	30.84	-31.2	-33.3	12.4	2.38e-03	0	44	0	384827392	22	4569
2026-01-21 01:06:16.55	0.38	31.37	-31.0	-32.7	12.8	2.22e-03	0	44	0	391118848	22	4382
2026-01-21 01:06:19.56	359.89	31.92	-30.9	-32.8	13.0	2.35e-03	0	44	0	396361728	21	4505
2026-01-21 01:06:22.57	359.38	32.47	-31.1	-33.0	12.6	2.24e-03	0	44	0	401604608	22	4469
2026-01-21 01:06:25.57	358.86	33.02	-31.5	-33.9	12.0	2.30e-03	0	44	0	407896064	22	4773
2026-01-21 01:06:28.59	358.32	33.59	-31.6	-33.8	11.7	2.88e-03	0	44	0	413138944	23	4661
2026-01-21 01:06:31.60	357.76	34.16	-31.4	-33.3	12.1	2.78e-03	0	44	0	419430400	23	4453
2026-01-21 01:06:34.62	357.18	34.74	-31.7	-34.0	11.7	3.26e-03	0	44	0	424673280	23	4730
2026-01-21 01:06:37.63	356.57	35.33	-32.1	-34.8	10.7	3.83e-03	0	44	0	429916160	24	4915
2026-01-21 01:06:40.63	355.95	35.92	-32.0	-34.6	10.9	1.52e-03	0	44	0	436207616	24	4834
2026-01-21 01:06:43.64	355.30	36.52	-32.6	-36.0	9.4	1.57e-02	0	45	0	441450496	25	5372
2026-01-21 01:06:46.64	354.63	37.12	-32.5	-35.9	9.6	1.60e-02	0	45	0	446693376	25	5306
2026-01-21 01:06:49.64	353.93	37.74	-31.9	-34.2	11.2	4.34e-03	0	44	0	452984832	24	4688
2026-01-21 01:06:52.65	353.20	38.36	-31.9	-34.6	11.3	2.82e-03	0	45	0	458227712	23	4939
2026-01-21 01:06:55.65	352.45	38.98	-31.8	-34.4	11.5	7.36e-04	0	45	0	464519168	23	4850
2026-01-21 01:06:58.66	351.66	39.61	-32.1	-34.9	10.7	1.44e-03	0	44	0	469762048	24	4961
2026-01-21 01:07:01.67	350.84	40.25	-32.6	-36.0	9.5	1.67e-02	0	44	0	475004928	25	5343
2026-01-21 01:07:04.67	349.99	40.89	-32.9	-37.4	8.5	3.20e-02	0	44	0	481296384	25	6003
2026-01-21 01:07:07.68	349.10	41.53	-33.4	-38.7	7.1	1.30e-01	0	44	0	486539264	26	6683
2026-01-21 01:07:10.68	348.18	42.18	-33.0	-37.3	8.3	5.47e-02	0	45	0	491782144	26	5867
2026-01-21 01:07:13.69	347.22	42.83	-32.9	-36.8	8.6	7.17e-02	0	44	0	498073600	26	5601
2026-01-21 01:07:16.70	346.22	43.49	-32.2	-34.6	10.6	9.23e-03	0	44	0	503316480	25	4761
2026-01-21 01:07:19.71	345.18	44.14	-31.9	-34.0	11.5	1.28e-03	0	45	0	509607936	24	4616
2026-01-21 01:07:22.73	344.08	44.80	-31.4	-33.6	12.3	2.37e-04	0	44	0	514850816	22	4652
2026-01-21 01:07:25.74	342.95	45.45	-31.7	-34.1	11.3	8.07e-04	0	45	0	520093696	23	4725
2026-01-21 01:07:28.75	341.77	46.10	-31.5	-33.4	12.2	2.17e-04	0	45	0	526385152	23	4486
2026-01-21 01:07:31.75	340.54	46.74	-31.1	-32.9	12.8	7.09e-05	0	45	0	531628032	22	4387
2026-01-21 01:07:34.77	339.25	47.39	-31.5	-33.8	12.3	1.83e-03	0	44	0	536870912	22	4722
2026-01-21 01:07:37.79	337.90	48.02	-30.7	-32.1	13.7	1.60e-03	0	45	0	543162368	21	4262
2026-01-21 01:07:40.80	336.51	48.65	-31.3	-33.3	12.3	2.06e-03	0	45	0	548405248	22	4545
2026-01-21 01:07:43.81	335.05	49.27	-31.3	-33.5	12.5	5.18e-05	0	44	0	554696704	22	4611
2026-01-21 01:07:46.82	333.54	49.87	-31.4	-33.7	12.3	1.42e-04	0	44	0	559939584	22	4689
2026-01-21 01:07:49.82	331.97	50.46	-30.5	-31.6	14.0	8.30e-06	0	44	0	565182464	21	4107
2026-01-21 01:07:52.84	330.33	51.03	-29.6	-30.4	15.5	1.87e-03	0	45	0	571473920	19	3941
2026-01-21 01:07:55.85	328.63	51.58	-29.7	-30.6	15.3	1.64e-03	0	45	0	576716800	19	4008
2026-01-21 01:07:58.86	326.87	52.12	-31.1	-32.8	13.0	5.43e-04	0	45	0	583008256	22	4384
2026-01-21 01:08:01.86	325.05	52.62	-31.4	-33.7	12.4	1.15e-03	0	45	0	588251136	22	4680
2026-01-21 01:08:04.86	323.17	53.10	-31.1	-32.2	13.1	7.62e-05	0	45	0	593494016	23	4090
2026-01-21 01:08:07.87	321.22	53.56	-31.7	-34.2	11.7	2.31e-04	0	45	0	599785472	23	4754
2026-01-21 01:08:10.88	319.21	53.98	-30.0	-30.4	14.8	1.99e-04	0	45	0	605028352	21	3770
2026-01-21 01:08:13.89	317.14	54.37	-30.5	-32.1	14.1	2.90e-04	0	44	0	610271232	20	4348
2026-01-21 01:08:16.90	315.01	54.72	-30.5	-31.7	14.0	1.23e-03	0	44	0	616562688	21	4130
2026-01-21 01:08:19.90	312.85	55.04	-29.2	-29.5	16.0	4.05e-04	0	45	0	621805568	19	3702
2026-01-21 01:08:22.91	310.63	55.31	-30.7	-32.2	13.7	3.09e-04	0	44	0	628097024	21	4264
2026-01-21 01:08:25.90	308.38	55.55	-29.8	-30.4	15.1	0.00e+00	0	44	0	633339904	20	3865
2026-01-21 01:08:28.92	306.08	55.74	-28.8	-29.5	16.5	0.00e+00	0	44	0	638582784	17	3890
2026-01-21 01:08:31.93	303.75	55.88	-29.1	-29.6	16.2	0.00e+00	0	44	0	644874240	18	3836
2026-01-21 01:08:34.93	301.42	55.98	-28.0	-27.6	17.6	1.23e-03	0	45	0	650117120	17	3429
2026-01-21 01:08:37.93	299.07	56.03	-28.5	-29.2	17.0	5.10e-04	0	45	0	655360000	16	3912
2026-01-21 01:08:40.94	296.71	56.03	-28.6	-29.1	16.7	2.08e-04	0	45	0	661651456	17	3801
2026-01-21 01:08:43.95	294.35	55.99	-28.3	-28.8	17.2	0.00e+00	0	44	0	666894336	16	3803
2026-01-21 01:08:46.96	292.00	55.90	-28.5	-28.8	16.9	0.00e+00	0	44	0	673185792	17	3717
2026-01-21 01:08:49.97	289.68	55.76	-28.5	-28.8	16.9	0.00e+00	0	44	0	678428672	17	3711
2026-01-21 01:08:52.98	287.38	55.58	-28.5	-28.9	16.8	0.00e+00	0	45	0	683671552	17	3745
2026-01-21 01:08:55.99	285.11	55.35	-28.5	-28.8	16.9	0.00e+00	0	44	0	689963008	17	3719
2026-01-21 01:08:58.99	282.89	55.08	-28.4	-28.5	17.0	0.00e+00	0	45	0	695205888	17	3658
2026-01-21 01:09:02.00	280.70	54.77	-28.2	-28.2	17.2	0.00e+00	0	44	0	700448768	17	3573
2026-01-21 01:09:05.01	278.57	54.42	-28.7	-29.3	16.7	0.00e+00	0	44	0	706740224	17	3839
2026-01-21 01:09:08.02	276.49	54.04	-29.4	-30.5	15.7	0.00e+00	0	44	0	711983104	18	4078
2026-01-21 01:09:11.03	274.47	53.62	-29.0	-29.5	16.2	0.00e+00	0	44	0	718274560	18	3817
2026-01-21 01:09:14.04	272.51	53.17	-29.8	-30.9	15.1	1.50e-06	0	44	0	723517440	19	4070
2026-01-21 01:09:17.06	270.60	52.69	-29.7	-30.1	15.3	0.00e+00	0	44	0	728760320	20	3768
2026-01-21 01:09:20.07	268.76	52.18	-30.7	-32.1	13.6	1.14e-05	0	44	0	735051776	21	4258
2026-01-21 01:09:23.08	266.99	51.65	-30.1	-30.8	14.5	7.00e-07	0	44	0	740294656	21	3865
2026-01-21 01:09:26.09	265.28	51.10	-30.6	-32.1	13.7	3.00e-06	0	44	0	745537536	21	4253
2026-01-21 01:09:29.11	263.63	50.52	-30.5	-31.6	14.0	7.60e-06	0	45	0	751828992	21	4086
2026-01-21 01:09:32.12	262.04	49.94	-29.9	-31.1	14.9	0.00e+00	0	45	0	757071872	19	4152
2026-01-21 01:09:35.13	260.52	49.33	-30.9	-32.8	13.2	5.30e-06	0	44	0	763363328	21	4480
2026-01-21 01:09:38.14	259.05	48.72	-31.2	-33.1	12.8	2.82e-05	0	44	0	768606208	22	4481
2026-01-21 01:09:41.15	257.65	48.09	-30.8	-32.5	13.3	1.67e-05	0	44	0	773849088	21	4388
2026-01-21 01:09:44.16	256.30	47.46	-32.8	-37.1	8.7	1.40e-02	0	44	0	780140544	25	5881
2026-01-21 01:09:47.16	255.01	46.82	-32.9	-36.1	8.6	4.56e-02	0	45	0	785383424	27	5229
2026-01-21 01:09:50.16	253.77	46.17	-32.4	-35.4	9.8	1.87e-02	0	44	0	791674880	25	5096
2026-01-21 01:09:53.18	252.57	45.52	-32.0	-34.8	10.7	3.10e-03	0	44	0	796917760	24	4925
2026-01-21 01:09:56.19	251.43	44.86	-30.9	-31.9	13.0	1.10e-04	0	44	0	802160640	23	4015
2026-01-21 01:09:59.20	250.33	44.20	-31.3	-33.6	12.2	3.02e-04	0	44	0	808452096	22	4656
2026-01-21 01:10:02.22	249.27	43.55	-32.0	-34.5	10.6	8.74e-03	0	44	0	813694976	24	4833
2026-01-21 01:10:05.23	248.26	42.89	-32.2	-35.5	10.1	2.12e-03	0	45	0	818937856	24	5242
2026-01-21 01:10:08.24	247.29	42.24	-32.5	-35.9	9.3	1.35e-02	0	44	0	825229312	25	5326
2026-01-21 01:10:11.26	246.36	41.58	-31.4	-32.9	11.9	8.37e-04	0	45	0	830472192	24	4255
2026-01-21 01:10:14.27	245.47	40.93	-31.5	-33.6	11.8	2.79e-04	0	45	0	836763648	23	4563
2026-01-21 01:10:17.28	244.61	40.29	-32.2	-35.5	10.0	5.05e-03	0	44	0	842006528	24	5252
2026-01-21 01:10:20.29	243.78	39.65	-32.4	-36.1	9.6	1.51e-02	0	44	0	847249408	24	5537
2026-01-21 01:10:23.30	242.99	39.02	-31.7	-33.9	11.2	1.24e-03	0	44	0	853540864	24	4606
2026-01-21 01:10:26.32	242.23	38.38	-31.6	-34.1	11.4	2.29e-03	0	45	0	858783744	23	4783
2026-01-21 01:10:29.34	241.49	37.76	-32.1	-35.2	10.2	3.11e-03	0	45	0	865075200	24	5127
2026-01-21 01:10:32.35	240.78	37.14	-32.1	-35.0	10.4	8.34e-03	0	44	0	870318080	24	5052
2026-01-21 01:10:35.36	240.11	36.53	-32.1	-35.1	10.3	7.48e-03	0	45	0	875560960	24	5107
2026-01-21 01:10:38.36	239.45	35.93	-31.2	-32.8	12.3	3.42e-04	0	45	0	881852416	23	4319
2026-01-21 01:10:41.38	238.82	35.33	-31.6	-33.9	11.4	7.13e-04	0	45	0	887095296	23	4727
2026-01-21 01:10:44.39	238.21	34.74	-32.3	-36.0	9.6	9.58e-03	0	45	0	892338176	24	5484
2026-01-21 01:10:47.40	237.63	34.16	-31.1	-32.4	12.4	2.82e-04	0	45	0	898629632	23	4215
2026-01-21 01:10:50.41	237.06	33.59	-30.1	-31.8	12.6	7.09e-05	0	45	0	903872512	22	4384
2026-01-21 01:10:53.42	236.52	33.02	-31.2	-33.4	11.6	3.78e-04	0	45	0	910163968	22	4611
2026-01-21 01:10:56.42	235.99	32.46	-31.5	-34.2	11.5	3.17e-04	0	45	0	915406848	22	4933
2026-01-21 01:10:59.44	235.48	31.91	-31.6	-34.2	11.3	1.50e-03	0	45	0	920649728	23	4827
2026-01-21 01:11:02.44	234.99	31.37	-32.0	-34.8	10.3	4.09e-03	0	45	0	926941184	24	5007
2026-01-21 01:11:05.46	234.51	30.83	-32.2	-35.6	9.8	1.70e-02	0	44	0	932184064	24	5341
2026-01-21 01:11:08.46	234.06	30.30	-31.4	-33.6	11.6	8.40e-04	0	44	0	938475520	23	4607
2026-01-21 01:11:11.46	233.61	29.78	-30.6	-32.2	13.3	2.84e-04	0	45	0	943718400	21	4327
2026-01-21 01:11:14.47	233.18	29.27	-30.9	-33.0	12.6	2.86e-04	0	44	0	948961280	21	4614
2026-01-21 01:11:17.48	232.76	28.76	-31.2	-33.5	12.0	3.22e-04	0	44	0	955252736	22	4681
2026-01-21 01:11:20.49	232.36	28.26	-31.5	-34.2	11.4	6.07e-04	0	44	0	960495616	22	4954
2026-01-21 01:11:23.50	231.97	27.77	-30.2	-31.2	13.8	2.51e-05	0	45	0	965738496	21	4033
2026-01-21 01:11:26.50	231.59	27.29	-29.9	-31.5	14.3	1.39e-03	0	44	0	972029952	19	4294
2026-01-21 01:11:29.51	231.22	26.81	-30.2	-31.7	13.7	9.92e-04	0	45	0	977272832	20	4269
2026-01-21 01:11:32.53	230.87	26.34	-30.1	-31.5	13.8	3.30e-04	0	45	0	983564288	20	4229
2026-01-21 01:11:35.54	230.52	25.87	-30.5	-32.0	13.2	8.21e-04	0	45	0	988807168	21	4296
2026-01-21 01:11:38.54	230.19	25.42	-30.7	-32.7	12.8	1.44e-03	0	44	0	994050048	21	4506
2026-01-21 01:11:41.53	229.86	24.97	-30.1	-31.6	13.7	1.06e-05	0	45	0	1000341504	20	4253
2026-01-21 01:11:44.54	229.54	24.53	-29.8	-31.1	14.5	2.01e-03	0	45	0	1005584384	19	4192
2026-01-21 01:11:47.55	229.24	24.09	-30.1	-31.6	13.6	2.06e-03	0	45	0	1010827264	20	4276
2026-01-21 01:11:50.57	228.93	23.66	-30.2	-31.8	13.6	2.34e-03	0	45	0	1017118720	20	4317
2026-01-21 01:11:53.58	228.64	23.23	-30.2	-31.8	13.5	5.19e-04	0	45	0	1022361600	20	4339
2026-01-21 01:11:56.59	228.36	22.81	-30.6	-32.4	12.8	1.88e-03	0	45	0	1028653056	21	4441
2026-01-21 01:11:59.61	228.08	22.40	-31.3	-33.9	11.4	6.58e-04	0	45	0	1033895936	22	4888
2026-01-21 01:12:02.61	227.82	21.99	-31.3	-33.9	11.4	1.15e-03	0	45	0	1039138816	22	4884
2026-01-21 01:12:05.62	227.56	21.59	-30.6	-32.4	12.8	1.70e-04	0	44	0	1045430272	21	4425
2026-01-21 01:12:08.62	227.30	21.20	-30.7	-32.9	12.4	2.62e-04	0	45	0	1050673152	21	4595
2026-01-21 01:12:11.62	227.05	20.81	-31.2	-33.7	11.5	3.39e-03	0	45	0	1055916032	22	4792
2026-01-21 01:12:14.63	226.81	20.42	-31.3	-34.1	11.2	3.72e-03	0	45	0	1062207488	22	4937
2026-01-21 01:12:17.63	226.58	20.04	-30.5	-32.1	12.9	2.16e-04	0	45	0	1067450368	21	4324
2026-01-21 01:12:20.64	226.35	19.67	-30.0	-31.4	13.7	8.92e-05	0	45	0	1073741824	20	4197
2026-01-21 01:12:23.66	226.12	19.30	-29.9	-31.0	13.9	1.05e-04	0	45	0	1078984704	20	4104
2026-01-21 01:12:26.66	225.91	18.94	-30.1	-31.6	13.5	9.61e-05	0	45	0	1084227584	20	4268
2026-01-21 01:12:29.67	225.69	18.58	-30.3	-32.3	13.0	2.97e-05	0	45	0	1090519040	20	4485
2026-01-21 01:12:32.68	225.49	18.22	-30.5	-32.2	12.7	5.34e-05	0	45	0	1095761920	21	4388
2026-01-21 01:12:35.69	225.28	17.87	-30.8	-33.1	12.1	1.34e-04	0	45	0	1101004800	21	4683
2026-01-21 01:12:38.70	225.09	17.53	-30.8	-33.2	12.1	2.59e-04	0	45	0	1107296256	21	4717
2026-01-21 01:12:41.71	224.89	17.19	-31.1	-33.5	11.2	5.10e-04	0	45	0	1112539136	22	4764
2026-01-21 01:12:44.73	224.70	16.85	-31.2	-33.8	10.9	1.55e-03	0	45	0	1118830592	22	4855
2026-01-21 01:12:47.72	224.52	16.52	-31.3	-34.2	10.9	1.27e-03	0	44	0	1124073472	22	5008
2026-01-21 01:12:50.72	224.34	16.19	-31.2	-33.8	11.2	1.36e-03	0	45	0	1129316352	22	4866
2026-01-21 01:12:53.74	224.16	15.87	-31.1	-33.7	11.2	1.04e-03	0	45	0	1135607808	22	4849
2026-01-21 01:12:56.75	223.99	15.55	-30.9	-33.6	11.6	2.07e-03	0	45	0	1140850688	21	4889
2026-01-21 01:12:59.76	223.82	15.23	-30.9	-33.6	11.6	2.33e-03	0	45	0	1147142144	21	4918
2026-01-21 01:13:02.77	223.66	14.92	-31.0	-33.8	11.5	1.32e-03	0	45	0	1152385024	21	4964
2026-01-21 01:13:05.78	223.49	14.61	-31.1	-33.6	11.1	2.03e-03	0	44	0	1157627904	22	4808
2026-01-21 01:13:08.79	223.34	14.30	-31.1	-33.5	11.2	1.23e-03	0	45	0	1163919360	22	4789
2026-01-21 01:13:11.80	223.18	14.00	-31.1	-33.7	11.0	3.95e-03	0	44	0	1169162240	22	4872
2026-01-21 01:13:14.82	223.03	13.70	-30.9	-33.6	11.4	1.93e-03	0	45	0	1174405120	21	4921
2026-01-21 01:13:17.83	222.88	13.41	-31.1	-33.6	11.1	2.57e-03	0	45	0	1180696576	22	4822
2026-01-21 01:13:20.84	222.74	13.12	-31.0	-33.4	11.3	2.49e-03	0	45	0	1185939456	22	4739
2026-01-21 01:13:23.86	222.59	12.83	-31.2	-34.0	10.8	3.84e-03	0	45	0	1192230912	22	4967
2026-01-21 01:13:26.86	222.46	12.54	-31.5	-34.7	9.9	9.43e-03	0	45	0	1197473792	23	5191
2026-01-21 01:13:29.87	222.32	12.26	-31.6	-35.2	9.4	1.65e-02	0	45	0	1202716672	23	5417
2026-01-21 01:13:32.89	222.18	11.98	-31.8	-35.8	9.0	2.49e-02	0	45	0	1209008128	23	5703
2026-01-21 01:13:35.90	222.05	11.71	-31.8	-35.9	8.9	4.38e-02	0	45	0	1214251008	23	5750
2026-01-21 01:13:38.90	221.93	11.43	-31.4	-34.5	9.8	1.22e-02	0	45	0	1220542464	23	5145
2026-01-21 01:13:41.91	221.80	11.16	-31.3	-34.7	10.1	7.51e-03	0	44	0	1225785344	22	5317
2026-01-21 01:13:44.93	221.68	10.90	-31.2	-34.3	10.4	6.12e-03	0	45	0	1231028224	22	5118
2026-01-21 01:13:47.94	221.55	10.63	-31.1	-34.0	10.6	2.99e-03	0	45	0	1237319680	22	5002
2026-01-21 01:13:50.95	221.44	10.37	-30.9	-33.9	11.0	2.04e-03	0	45	0	1242562560	21	5067
2026-01-21 01:13:53.95	221.32	10.11	-30.8	-33.4	11.3	1.28e-03	0	45	0	1247805440	21	4891
2026-01-21 01:13:56.96	221.20	9.85	-31.0	-33.7	10.8	2.19e-03	0	44	0	1254096896	22	4889
2026-01-21 01:13:59.97	221.09	9.60	-31.0	-33.6	10.8	2.79e-03	0	45	0	1259339776	22	4863
2026-01-21 01:14:02.98	220.98	9.35	-31.1	-34.1	10.4	4.84e-03	0	45	0	1265631232	22	5089
2026-01-21 01:14:05.99	220.87	9.10	-31.2	-34.4	10.1	6.55e-03	0	44	0	1270874112	22	5202
2026-01-21 01:14:08.99	220.77	8.85	-31.3	-34.8	9.8	1.37e-02	0	45	0	1276116992	22	5369
2026-01-21 01:14:11.99	220.66	8.61	-31.3	-34.9	9.7	1.35e-02	0	45	0	1282408448	22	5438
2026-01-21 01:14:15.00	220.56	8.37	-31.2	-34.5	10.0	9.05e-03	0	45	0	1287651328	22	5256
2026-01-21 01:14:18.01	220.46	8.13	-31.2	-34.5	10.0	7.01e-03	0	45	0	1292894208	22	5264
2026-01-21 01:14:21.02	220.36	7.89	-31.0	-33.9	10.4	6.64e-03	0	45	0	1299185664	22	5005
2026-01-21 01:14:24.04	220.26	7.65	-31.1	-34.1	10.2	7.35e-03	0	45	0	1304428544	22	5120
2026-01-21 01:14:27.04	220.17	7.42	-31.1	-34.2	10.1	5.96e-03	0	45	0	1310720000	22	5141
2026-01-21 01:14:30.05	220.07	7.19	-31.2	-34.5	9.9	7.64e-03	0	44	0	1315962880	22	5280

#Closed at: 2026-01-21 01:14:32
#Recorded file [1318 MB]: D:/data/31010_260121_040247.dat