passes_logs/2026/01/21/R2M6_AANII_01/R2M6_AANII_01__20260121_091548_SUOMI_NPP_rec.log

#Pass ID: 20260121_091548_SUOMI NPP
#Satellite: SUOMI NPP
#Configuration: NPP
#almurnet v.1.7.20240730
#Start time: 2026-01-21 09:15:48

#Version: 2.2.20231116
#Station: R2M6_AANII_01
#Location: 30.233357 lon 59.946436 lat
#TLE: 1 37849U 11061A   26020.31993517  .00000142  00000+0  88240-4 0  9990
#TLE: 2 37849  98.7818 322.3228 0002330  54.3778 305.7615 14.19527005737466

#Time	Az	El	Level	Level2	SNR	BER	BlckErr	Temp	State	Recorded	gain1	gain2
2026-01-21 09:15:48.40	125.22	6.99	-31.4	-34.9	5.2	1.27e+00	0	41	0	0	24	5351
2026-01-21 09:15:51.40	125.05	7.21	-31.9	-37.7	6.9	1.33e-01	0	41	0	1048576	23	6990
2026-01-21 09:15:54.39	124.88	7.43	-32.4	-39.9	5.1	5.77e-01	0	41	0	7340032	24	8615
2026-01-21 09:15:57.40	124.71	7.66	-31.5	-35.0	8.6	8.68e-02	0	41	0	12582912	24	5382
2026-01-21 09:16:00.42	124.54	7.88	-30.5	-32.4	11.5	9.99e-04	0	41	0	17825792	22	4461
2026-01-21 09:16:03.43	124.36	8.11	-30.6	-32.6	11.4	8.58e-04	0	41	0	24117248	22	4515
2026-01-21 09:16:06.44	124.18	8.34	-31.2	-34.6	10.0	6.98e-03	0	42	0	29360128	22	5298
2026-01-21 09:16:09.45	123.99	8.57	-31.3	-34.9	9.8	1.15e-02	0	42	0	35651584	22	5409
2026-01-21 09:16:12.46	123.81	8.80	-30.6	-32.5	11.6	7.27e-04	0	42	0	40894464	22	4463
2026-01-21 09:16:15.46	123.62	9.03	-30.6	-32.5	11.6	6.83e-04	0	42	0	46137344	22	4453
2026-01-21 09:16:18.48	123.42	9.27	-31.1	-34.1	10.5	4.76e-03	0	42	0	52428800	22	5067
2026-01-21 09:16:21.49	123.23	9.51	-31.4	-34.3	9.9	9.66e-03	0	42	0	57671680	23	5069
2026-01-21 09:16:24.50	123.03	9.75	-30.8	-33.0	11.4	8.69e-04	0	42	0	62914560	22	4628
2026-01-21 09:16:27.50	122.82	9.99	-30.6	-32.4	11.8	4.66e-04	0	42	0	69206016	22	4412
2026-01-21 09:16:30.51	122.62	10.24	-31.3	-34.4	10.4	3.84e-03	0	42	0	74448896	22	5178
2026-01-21 09:16:33.51	122.41	10.48	-31.7	-35.6	9.1	2.58e-02	0	42	0	80740352	23	5622
2026-01-21 09:16:36.52	122.19	10.73	-31.2	-33.8	10.5	5.29e-03	0	42	0	85983232	23	4809
2026-01-21 09:16:39.53	121.97	10.98	-31.0	-33.0	11.1	1.54e-03	0	42	0	91226112	23	4524
2026-01-21 09:16:42.54	121.75	11.23	-31.4	-34.1	10.4	3.52e-03	0	42	0	97517568	23	4934
2026-01-21 09:16:45.54	121.52	11.49	-31.3	-33.9	10.5	4.03e-03	0	42	0	102760448	23	4855
2026-01-21 09:16:48.55	121.29	11.74	-30.7	-32.6	11.9	4.04e-04	0	42	0	109051904	22	4438
2026-01-21 09:16:51.56	121.06	12.00	-30.5	-32.3	12.4	1.43e-04	0	43	0	114294784	21	4455
2026-01-21 09:16:54.57	120.82	12.26	-30.6	-32.7	12.1	1.82e-04	0	43	0	119537664	21	4596
2026-01-21 09:16:57.60	120.58	12.53	-30.7	-33.1	11.9	3.75e-04	0	43	0	125829120	21	4721
2026-01-21 09:17:00.60	120.33	12.79	-30.8	-33.4	11.6	4.53e-04	0	43	0	131072000	21	4831
2026-01-21 09:17:03.62	120.08	13.06	-30.8	-33.2	11.8	7.88e-04	0	42	0	136314880	21	4760
2026-01-21 09:17:06.63	119.82	13.34	-30.7	-33.0	12.0	2.54e-04	0	43	0	142606336	21	4686
2026-01-21 09:17:09.63	119.56	13.61	-30.7	-32.8	12.1	2.01e-04	0	43	0	147849216	21	4616
2026-01-21 09:17:12.63	119.29	13.88	-31.0	-33.3	11.4	9.65e-04	0	43	0	154140672	22	4693
2026-01-21 09:17:15.65	119.02	14.16	-30.6	-32.0	12.4	1.99e-04	0	43	0	159383552	22	4246
2026-01-21 09:17:18.66	118.74	14.44	-30.5	-31.9	12.5	1.01e-04	0	43	0	164626432	22	4198
2026-01-21 09:17:21.68	118.45	14.73	-30.9	-32.8	11.9	2.49e-04	0	43	0	170917888	22	4496
2026-01-21 09:17:24.68	118.17	15.01	-31.0	-33.1	11.7	4.78e-04	0	43	0	176160768	22	4617
2026-01-21 09:17:27.68	117.87	15.30	-30.8	-32.5	12.1	5.64e-04	0	43	0	181403648	22	4385
2026-01-21 09:17:30.68	117.57	15.59	-31.0	-33.3	11.6	5.07e-04	0	43	0	187695104	22	4682
2026-01-21 09:17:33.68	117.27	15.88	-31.1	-33.5	11.4	1.02e-03	0	43	0	192937984	22	4767
2026-01-21 09:17:36.70	116.95	16.18	-30.9	-32.9	11.9	2.82e-04	0	43	0	199229440	22	4546
2026-01-21 09:17:39.70	116.64	16.48	-31.0	-33.2	11.7	3.63e-04	0	43	0	204472320	22	4646
2026-01-21 09:17:42.72	116.31	16.78	-30.6	-32.0	12.5	1.77e-04	0	43	0	209715200	22	4239
2026-01-21 09:17:45.74	115.97	17.09	-30.4	-31.3	13.0	4.04e-05	0	43	0	216006656	22	4017
2026-01-21 09:17:48.75	115.63	17.40	-30.3	-31.5	13.4	1.75e-05	0	43	0	221249536	21	4140
2026-01-21 09:17:51.77	115.29	17.71	-30.2	-31.3	13.5	1.67e-05	0	43	0	227540992	21	4079
2026-01-21 09:17:54.79	114.93	18.02	-30.3	-31.5	13.3	2.13e-05	0	43	0	232783872	21	4132
2026-01-21 09:17:57.79	114.57	18.34	-30.6	-32.5	12.7	7.40e-05	0	43	0	238026752	21	4469
2026-01-21 09:18:00.80	114.20	18.66	-30.5	-32.3	12.8	4.57e-05	0	43	0	244318208	21	4417
2026-01-21 09:18:03.80	113.82	18.98	-30.5	-32.2	12.9	5.41e-05	0	43	0	249561088	21	4366
2026-01-21 09:18:06.80	113.44	19.30	-30.4	-31.8	13.2	3.50e-05	0	43	0	254803968	21	4254
2026-01-21 09:18:09.81	113.05	19.63	-30.7	-32.7	12.6	6.40e-05	0	43	0	261095424	21	4518
2026-01-21 09:18:12.82	112.64	19.96	-30.9	-32.7	12.3	2.20e-04	0	43	0	266338304	22	4447
2026-01-21 09:18:15.83	112.23	20.30	-30.9	-32.8	12.2	1.15e-04	0	43	0	272629760	22	4466
2026-01-21 09:18:18.84	111.81	20.63	-31.1	-33.4	11.9	7.50e-04	0	43	0	277872640	22	4683
2026-01-21 09:18:21.84	111.38	20.97	-30.9	-32.8	12.4	2.11e-04	0	43	0	283115520	22	4447
2026-01-21 09:18:24.86	110.94	21.32	-31.0	-33.1	12.1	2.54e-04	0	43	0	289406976	22	4574
2026-01-21 09:18:27.87	110.49	21.66	-31.2	-33.7	11.8	6.20e-04	0	43	0	294649856	22	4774
2026-01-21 09:18:30.88	110.03	22.01	-31.2	-33.4	12.0	3.23e-04	0	43	0	300941312	22	4657
2026-01-21 09:18:33.89	109.55	22.36	-30.8	-32.2	12.8	8.16e-05	0	43	0	306184192	22	4257
2026-01-21 09:18:36.90	109.07	22.71	-30.8	-32.3	12.8	1.12e-04	0	43	0	311427072	22	4267
2026-01-21 09:18:39.91	108.58	23.07	-30.3	-30.9	13.7	9.90e-06	0	43	0	317718528	22	3843
2026-01-21 09:18:42.92	108.07	23.43	-30.5	-31.9	13.4	2.05e-05	0	43	0	322961408	21	4245
2026-01-21 09:18:45.92	107.56	23.79	-30.3	-31.7	13.4	1.44e-05	0	43	0	328204288	21	4200
2026-01-21 09:18:48.92	107.03	24.15	-30.2	-31.2	13.8	6.80e-06	0	43	0	334495744	21	4064
2026-01-21 09:18:51.91	106.49	24.51	-30.2	-31.3	13.8	5.30e-06	0	43	0	339738624	21	4073
2026-01-21 09:18:54.91	105.94	24.88	-30.7	-32.8	12.8	5.03e-05	0	43	0	346030080	21	4538
2026-01-21 09:18:57.92	105.37	25.25	-31.0	-32.8	12.5	1.09e-04	0	43	0	351272960	22	4466
2026-01-21 09:19:00.93	104.79	25.62	-31.4	-34.3	11.5	5.62e-04	0	43	0	356515840	22	4987
2026-01-21 09:19:03.93	104.19	26.00	-31.4	-33.6	11.7	7.10e-04	0	43	0	362807296	23	4661
2026-01-21 09:19:06.94	103.58	26.37	-31.6	-34.5	10.8	1.29e-03	0	43	0	368050176	23	5033
2026-01-21 09:19:09.95	102.96	26.75	-31.5	-34.2	11.2	2.26e-03	0	43	0	373293056	23	4872
2026-01-21 09:19:12.96	102.32	27.13	-31.7	-34.7	10.8	1.49e-03	0	43	0	379584512	23	5098
2026-01-21 09:19:15.96	101.66	27.51	-31.2	-33.2	11.9	6.53e-04	0	44	0	384827392	23	4501
2026-01-21 09:19:18.99	100.99	27.89	-31.2	-33.2	12.0	5.62e-04	0	43	0	391118848	23	4492
2026-01-21 09:19:21.99	100.30	28.27	-31.0	-32.4	12.5	1.29e-04	0	44	0	396361728	23	4248
2026-01-21 09:19:25.00	99.60	28.65	-31.2	-32.9	12.2	3.04e-04	0	44	0	401604608	23	4406
2026-01-21 09:19:28.00	98.88	29.04	-31.3	-33.4	11.9	2.46e-04	0	44	0	407896064	23	4553
2026-01-21 09:19:31.01	98.14	29.42	-31.5	-34.0	11.4	3.16e-04	0	43	0	413138944	23	4763
2026-01-21 09:19:34.01	97.38	29.80	-31.8	-34.9	10.8	3.22e-03	0	43	0	418381824	23	5147
2026-01-21 09:19:37.02	96.61	30.18	-31.8	-34.8	10.9	2.10e-03	0	43	0	424673280	23	5099
2026-01-21 09:19:40.03	95.82	30.56	-31.8	-34.1	11.1	1.84e-03	0	44	0	429916160	24	4726
2026-01-21 09:19:43.04	95.00	30.94	-32.1	-35.3	10.3	4.55e-03	0	44	0	436207616	24	5192
2026-01-21 09:19:46.05	94.17	31.32	-31.8	-34.4	10.8	2.26e-03	0	43	0	441450496	24	4844
2026-01-21 09:19:49.06	93.32	31.69	-32.0	-34.9	10.5	4.40e-03	0	43	0	446693376	24	5035
2026-01-21 09:19:52.08	92.44	32.07	-32.3	-36.3	9.4	1.47e-02	0	44	0	452984832	24	5688
2026-01-21 09:19:55.08	91.55	32.43	-32.3	-36.2	9.4	1.59e-02	0	44	0	458227712	24	5676
2026-01-21 09:19:58.10	90.64	32.80	-32.2	-35.5	9.6	1.76e-02	0	44	0	464519168	25	5246
2026-01-21 09:20:01.10	89.71	33.16	-32.2	-35.7	9.4	2.08e-02	0	43	0	469762048	25	5336
2026-01-21 09:20:04.10	88.76	33.52	-32.6	-37.0	8.5	3.05e-02	0	44	0	475004928	25	5982
2026-01-21 09:20:07.12	87.78	33.87	-32.9	-37.9	7.2	9.79e-02	0	43	0	481296384	26	6404
2026-01-21 09:20:10.14	86.78	34.22	-33.1	-39.0	6.5	1.98e-01	0	44	0	486539264	26	7119
2026-01-21 09:20:13.15	85.76	34.56	-31.8	-34.4	10.8	4.99e-03	0	43	0	491782144	24	4865
2026-01-21 09:20:16.16	84.72	34.89	-32.1	-35.5	10.0	4.47e-03	0	44	0	498073600	24	5348
2026-01-21 09:20:19.16	83.66	35.22	-32.5	-36.9	8.5	3.21e-02	0	44	0	503316480	25	5926
2026-01-21 09:20:22.17	82.58	35.54	-32.4	-36.2	9.0	1.99e-02	0	44	0	509607936	25	5584
2026-01-21 09:20:25.18	81.48	35.84	-32.2	-35.6	9.4	1.03e-02	0	44	0	514850816	25	5333
2026-01-21 09:20:28.19	80.35	36.14	-31.9	-34.4	10.4	6.87e-03	0	44	0	520093696	25	4789
2026-01-21 09:20:31.20	79.21	36.43	-31.4	-33.3	11.7	5.32e-04	0	44	0	526385152	24	4459
2026-01-21 09:20:34.19	78.05	36.71	-31.3	-33.5	11.7	4.82e-04	0	44	0	531628032	23	4634
2026-01-21 09:20:37.21	76.87	36.98	-31.0	-32.6	12.5	1.18e-04	0	44	0	536870912	23	4313
2026-01-21 09:20:40.21	75.67	37.23	-30.9	-32.2	12.7	1.50e-04	0	44	0	543162368	23	4197
2026-01-21 09:20:43.22	74.45	37.47	-30.5	-31.7	13.4	1.14e-05	0	44	0	548405248	22	4111
2026-01-21 09:20:46.23	73.21	37.70	-30.8	-32.5	12.8	1.17e-04	0	44	0	554696704	22	4375
2026-01-21 09:20:49.25	71.95	37.92	-31.2	-33.6	12.0	2.30e-04	0	43	0	559939584	22	4782
2026-01-21 09:20:52.24	70.68	38.12	-30.3	-31.2	13.7	3.58e-05	0	44	0	565182464	22	3970
2026-01-21 09:20:55.24	69.40	38.30	-29.1	-29.4	15.9	0.00e+00	0	44	0	571473920	19	3718
2026-01-21 09:20:58.25	68.10	38.47	-29.7	-30.8	15.0	7.00e-07	0	44	0	576716800	19	4100
2026-01-21 09:21:01.25	66.79	38.62	-29.7	-30.7	15.0	0.00e+00	0	44	0	581959680	19	4069
2026-01-21 09:21:04.25	65.47	38.76	-30.6	-32.1	13.6	3.00e-06	0	44	0	588251136	21	4291
2026-01-21 09:21:07.26	64.13	38.88	-29.8	-30.6	14.7	7.00e-07	0	43	0	593494016	20	3965
2026-01-21 09:21:10.27	62.79	38.98	-29.9	-30.8	14.7	0.00e+00	0	43	0	599785472	20	3997
2026-01-21 09:21:13.29	61.43	39.06	-29.9	-30.9	14.6	0.00e+00	0	43	0	605028352	20	4025
2026-01-21 09:21:16.30	60.07	39.13	-29.6	-30.1	15.1	0.00e+00	0	43	0	610271232	20	3809
2026-01-21 09:21:19.31	58.71	39.17	-30.3	-31.9	14.0	0.00e+00	0	43	0	616562688	20	4337
2026-01-21 09:21:22.30	57.35	39.20	-30.7	-32.6	13.1	1.44e-05	0	44	0	621805568	21	4493
2026-01-21 09:21:25.31	55.98	39.21	-31.1	-32.5	12.5	3.99e-04	0	44	0	627048448	23	4272
2026-01-21 09:21:28.32	54.61	39.21	-31.2	-33.4	12.3	1.86e-04	0	44	0	633339904	22	4644
2026-01-21 09:21:31.32	53.25	39.18	-31.4	-33.5	11.9	3.69e-04	0	44	0	638582784	23	4594
2026-01-21 09:21:34.33	51.88	39.13	-31.4	-33.7	11.8	4.52e-04	0	44	0	644874240	23	4686
2026-01-21 09:21:37.34	50.53	39.07	-32.1	-35.4	10.1	5.04e-03	0	43	0	650117120	24	5293
2026-01-21 09:21:40.35	49.17	38.99	-32.0	-35.2	10.1	6.27e-03	0	44	0	655360000	24	5226
2026-01-21 09:21:43.36	47.83	38.89	-32.2	-36.0	9.6	1.21e-02	0	44	0	661651456	24	5594
2026-01-21 09:21:46.38	46.49	38.77	-32.4	-36.8	9.0	1.26e-02	0	44	0	666894336	24	5985
2026-01-21 09:21:49.39	45.16	38.64	-32.1	-35.6	9.9	7.40e-03	0	43	0	672137216	24	5390
2026-01-21 09:21:52.41	43.84	38.49	-32.2	-36.1	9.4	2.55e-02	0	44	0	678428672	24	5655
2026-01-21 09:21:55.40	42.55	38.32	-33.0	-39.5	6.4	2.04e-01	0	44	0	683671552	25	7640
2026-01-21 09:21:58.40	41.27	38.14	-32.0	-35.0	9.8	9.84e-03	0	44	0	689963008	25	5083
2026-01-21 09:22:01.40	40.00	37.94	-31.7	-34.3	10.9	2.80e-03	0	44	0	695205888	24	4823
2026-01-21 09:22:04.42	38.74	37.73	-31.8	-34.6	10.6	2.93e-03	0	44	0	700448768	24	4978
2026-01-21 09:22:07.44	37.50	37.50	-30.3	-30.9	13.9	1.06e-05	0	43	0	706740224	22	3858
2026-01-21 09:22:10.44	36.28	37.26	-30.0	-30.7	14.2	1.50e-06	0	44	0	711983104	21	3896
2026-01-21 09:22:13.45	35.08	37.01	-30.0	-30.7	14.2	7.00e-07	0	44	0	717225984	21	3913
2026-01-21 09:22:16.45	33.90	36.74	-30.3	-31.6	13.6	1.90e-05	0	44	0	723517440	21	4166
2026-01-21 09:22:19.46	32.74	36.47	-30.8	-32.8	12.9	1.75e-05	0	44	0	728760320	21	4563
2026-01-21 09:22:22.48	31.59	36.18	-31.2	-33.7	11.9	4.74e-04	0	44	0	735051776	22	4799
2026-01-21 09:22:25.49	30.46	35.88	-30.7	-32.1	13.0	1.01e-04	0	44	0	740294656	22	4215
2026-01-21 09:22:28.49	29.37	35.58	-30.4	-31.7	13.6	3.00e-06	0	44	0	745537536	21	4197
2026-01-21 09:22:31.48	28.29	35.26	-30.9	-33.1	12.6	3.20e-05	0	44	0	751828992	21	4644
2026-01-21 09:22:34.49	27.23	34.94	-30.7	-32.1	13.0	3.12e-05	0	44	0	757071872	22	4208
2026-01-21 09:22:37.51	26.19	34.61	-30.9	-32.9	12.9	3.20e-05	0	44	0	763363328	21	4544
2026-01-21 09:22:40.51	25.18	34.27	-31.5	-33.7	11.7	7.93e-04	0	44	0	768606208	23	4645
2026-01-21 09:22:43.52	24.18	33.93	-31.9	-34.6	10.6	5.32e-03	0	44	0	773849088	24	4906
2026-01-21 09:22:46.54	23.20	33.58	-31.9	-34.7	10.5	3.20e-03	0	44	0	780140544	24	4959
2026-01-21 09:22:49.55	22.25	33.22	-31.8	-34.4	10.6	5.72e-03	0	44	0	785383424	24	4850
2026-01-21 09:22:52.56	21.32	32.86	-32.2	-35.8	9.7	1.32e-02	0	43	0	790626304	24	5437
2026-01-21 09:22:55.56	20.41	32.50	-32.1	-35.2	10.0	1.09e-02	0	44	0	796917760	24	5157
2026-01-21 09:22:58.56	19.52	32.13	-32.5	-36.2	9.0	2.15e-02	0	44	0	802160640	25	5518
2026-01-21 09:23:01.57	18.65	31.76	-32.1	-34.8	10.1	4.65e-03	0	44	0	808452096	25	4904
2026-01-21 09:23:04.58	17.80	31.39	-31.5	-33.2	11.6	9.44e-04	0	44	0	813694976	24	4399
2026-01-21 09:23:07.58	16.97	31.01	-31.0	-32.3	12.6	7.85e-05	0	44	0	818937856	23	4187
2026-01-21 09:23:10.59	16.15	30.63	-31.8	-34.8	10.8	2.22e-03	0	44	0	825229312	23	5102
2026-01-21 09:23:13.61	15.36	30.25	-32.8	-37.9	7.6	6.88e-02	0	44	0	830472192	25	6422
2026-01-21 09:23:16.62	14.58	29.88	-32.2	-35.2	9.6	1.51e-02	0	44	0	835715072	25	5094
2026-01-21 09:23:19.62	13.83	29.50	-32.1	-34.9	9.8	9.73e-03	0	43	0	842006528	25	4987
2026-01-21 09:23:22.63	13.09	29.11	-32.3	-35.4	9.5	8.77e-03	0	43	0	847249408	25	5185
2026-01-21 09:23:25.64	12.37	28.73	-32.1	-34.8	9.9	6.35e-03	0	44	0	853540864	25	4941
2026-01-21 09:23:28.65	11.67	28.35	-31.4	-33.1	11.6	1.20e-03	0	44	0	858783744	24	4373
2026-01-21 09:23:31.65	10.98	27.97	-31.3	-33.3	11.7	7.23e-04	0	44	0	864026624	23	4542
2026-01-21 09:23:34.65	10.31	27.60	-31.4	-33.7	11.5	1.07e-03	0	44	0	870318080	23	4680
2026-01-21 09:23:37.65	9.66	27.22	-31.4	-33.5	11.6	9.86e-04	0	44	0	875560960	23	4586
2026-01-21 09:23:40.66	9.02	26.84	-30.8	-32.3	12.8	5.03e-05	0	43	0	880803840	22	4275
2026-01-21 09:23:43.66	8.40	26.47	-30.7	-32.0	13.0	2.44e-05	0	44	0	887095296	22	4205
2026-01-21 09:23:46.68	7.79	26.09	-30.8	-32.4	12.7	1.84e-04	0	44	0	892338176	22	4311
2026-01-21 09:23:49.68	7.20	25.72	-30.6	-31.9	13.0	2.97e-05	0	44	0	898629632	22	4169
2026-01-21 09:23:52.67	6.62	25.35	-31.1	-33.3	12.1	3.07e-04	0	44	0	903872512	22	4625
2026-01-21 09:23:55.67	6.05	24.98	-31.4	-34.3	11.2	1.07e-03	0	44	0	909115392	22	5006
2026-01-21 09:23:58.68	5.50	24.62	-31.7	-34.6	10.7	2.80e-03	0	44	0	915406848	23	5039
2026-01-21 09:24:01.70	4.96	24.25	-31.5	-34.1	11.0	2.30e-03	0	44	0	920649728	23	4853
2026-01-21 09:24:04.71	4.43	23.89	-30.7	-32.1	12.7	8.54e-05	0	44	0	925892608	22	4243
2026-01-21 09:24:07.71	3.91	23.53	-30.5	-31.4	13.2	3.12e-05	0	44	0	932184064	22	4032
2026-01-21 09:24:10.72	3.41	23.17	-30.6	-31.7	13.0	4.50e-05	0	44	0	937426944	22	4114
2026-01-21 09:24:13.72	2.92	22.82	-30.8	-32.4	12.5	1.16e-04	0	44	0	943718400	22	4337
2026-01-21 09:24:16.72	2.44	22.47	-30.4	-31.3	13.2	3.89e-05	0	44	0	948961280	22	4007
2026-01-21 09:24:19.73	1.97	22.12	-30.8	-32.3	12.6	6.56e-05	0	44	0	954204160	22	4305
2026-01-21 09:24:22.75	1.51	21.77	-31.7	-34.8	10.4	3.23e-03	0	44	0	960495616	23	5156
2026-01-21 09:24:25.75	1.06	21.43	-31.5	-34.1	10.9	3.09e-03	0	44	0	965738496	23	4877
2026-01-21 09:24:28.75	0.62	21.09	-31.3	-33.6	11.3	9.88e-04	0	44	0	970981376	23	4656
2026-01-21 09:24:31.76	0.19	20.75	-31.3	-33.4	11.4	1.26e-03	0	44	0	977272832	23	4603
2026-01-21 09:24:34.77	359.77	20.41	-30.8	-32.0	12.4	2.27e-04	0	44	0	982515712	23	4119
2026-01-21 09:24:37.79	359.36	20.08	-30.9	-32.3	12.1	2.67e-04	0	44	0	988807168	23	4216
2026-01-21 09:24:40.80	358.96	19.75	-30.9	-32.4	12.1	3.16e-04	0	44	0	994050048	23	4257
2026-01-21 09:24:43.80	358.57	19.42	-30.4	-31.5	13.0	6.56e-05	0	44	0	999292928	22	4066
2026-01-21 09:24:46.82	358.18	19.10	-30.1	-31.2	13.5	9.10e-06	0	44	0	1005584384	21	4056
2026-01-21 09:24:49.83	357.80	18.78	-30.4	-32.0	12.9	4.50e-05	0	44	0	1010827264	21	4325
2026-01-21 09:24:52.84	357.43	18.46	-30.9	-33.6	11.9	3.36e-04	0	44	0	1016070144	21	4860
2026-01-21 09:24:55.84	357.08	18.14	-31.2	-33.9	11.3	1.12e-03	0	44	0	1022361600	22	4901
2026-01-21 09:24:58.85	356.72	17.83	-31.3	-34.0	11.2	1.28e-03	0	44	0	1027604480	22	4945
2026-01-21 09:25:01.86	356.38	17.52	-30.9	-32.8	12.0	3.13e-04	0	44	0	1033895936	22	4490
2026-01-21 09:25:04.87	356.04	17.21	-31.0	-33.2	11.7	8.84e-04	0	44	0	1039138816	22	4636
2026-01-21 09:25:07.88	355.71	16.91	-31.1	-33.5	11.5	1.03e-03	0	44	0	1044381696	22	4748
2026-01-21 09:25:10.90	355.38	16.61	-31.3	-34.2	11.0	1.81e-03	0	44	0	1050673152	22	5007
2026-01-21 09:25:13.91	355.06	16.31	-31.5	-34.4	10.4	3.89e-03	0	44	0	1055916032	23	5039
2026-01-21 09:25:16.92	354.75	16.01	-31.5	-34.6	10.2	5.98e-03	0	44	0	1062207488	23	5094
2026-01-21 09:25:19.94	354.45	15.72	-31.0	-32.7	11.6	8.20e-04	0	44	0	1067450368	23	4407
2026-01-21 09:25:22.95	354.15	15.43	-31.0	-32.9	11.5	6.50e-04	0	44	0	1072693248	23	4440
2026-01-21 09:25:25.96	353.86	15.14	-30.7	-32.3	12.3	2.34e-04	0	44	0	1078984704	22	4329
2026-01-21 09:25:28.97	353.57	14.85	-30.6	-32.1	12.4	1.72e-04	0	44	0	1084227584	22	4281
2026-01-21 09:25:31.97	353.29	14.57	-30.7	-32.5	12.1	5.34e-04	0	44	0	1089470464	22	4407
2026-01-21 09:25:34.98	353.01	14.29	-30.5	-31.7	12.6	1.14e-04	0	44	0	1095761920	22	4164
2026-01-21 09:25:37.99	352.74	14.01	-30.5	-32.0	12.4	1.35e-04	0	44	0	1101004800	22	4249
2026-01-21 09:25:40.99	352.48	13.74	-30.5	-31.9	12.5	1.84e-04	0	44	0	1107296256	22	4212
2026-01-21 09:25:44.01	352.22	13.47	-30.8	-32.8	11.8	4.02e-04	0	44	0	1112539136	22	4543
2026-01-21 09:25:47.01	351.96	13.20	-31.1	-33.7	11.2	1.29e-03	0	44	0	1117782016	22	4856
2026-01-21 09:25:50.01	351.71	12.93	-31.3	-34.2	10.7	3.02e-03	0	44	0	1124073472	22	5067
2026-01-21 09:25:53.02	351.46	12.66	-31.3	-34.5	10.4	4.41e-03	0	44	0	1129316352	22	5199
2026-01-21 09:25:56.03	351.22	12.40	-31.4	-34.6	10.3	5.11e-03	0	44	0	1134559232	22	5251
2026-01-21 09:25:59.04	350.99	12.14	-31.3	-34.6	10.4	5.73e-03	0	44	0	1140850688	22	5221
2026-01-21 09:26:02.06	350.75	11.88	-31.4	-34.8	10.2	4.86e-03	0	44	0	1146093568	22	5342
2026-01-21 09:26:05.07	350.52	11.62	-31.4	-35.0	10.0	7.80e-03	0	44	0	1152385024	22	5403
2026-01-21 09:26:08.06	350.30	11.37	-31.5	-34.8	9.7	9.60e-03	0	44	0	1157627904	23	5267
2026-01-21 09:26:11.07	350.08	11.12	-31.6	-35.2	9.5	1.21e-02	0	44	0	1162870784	23	5413
2026-01-21 09:26:14.08	349.87	10.87	-31.4	-34.3	10.0	1.06e-02	0	44	0	1169162240	23	5054
2026-01-21 09:26:17.09	349.65	10.62	-31.3	-33.9	10.4	5.07e-03	0	44	0	1174405120	23	4871
2026-01-21 09:26:20.09	349.45	10.38	-31.3	-34.2	10.1	8.13e-03	0	44	0	1179648000	23	5005
2026-01-21 09:26:23.08	349.24	10.14	-31.1	-33.4	10.6	3.19e-03	0	44	0	1185939456	23	4713
2026-01-21 09:26:26.08	349.04	9.89	-31.1	-33.5	10.6	3.27e-03	0	44	0	1191182336	23	4720
2026-01-21 09:26:29.08	348.84	9.66	-31.1	-33.6	10.5	5.11e-03	0	44	0	1197473792	23	4764
2026-01-21 09:26:32.09	348.65	9.42	-31.3	-34.0	10.2	6.27e-03	0	44	0	1202716672	23	4949
2026-01-21 09:26:35.11	348.46	9.18	-31.3	-34.3	9.9	8.03e-03	0	44	0	1207959552	23	5068
2026-01-21 09:26:38.10	348.27	8.95	-31.3	-34.2	10.0	7.97e-03	0	44	0	1214251008	23	5042
2026-01-21 09:26:41.11	348.09	8.72	-31.3	-34.3	9.9	8.82e-03	0	44	0	1219493888	23	5071
2026-01-21 09:26:44.12	347.90	8.49	-31.4	-34.6	9.7	1.11e-02	0	44	0	1224736768	23	5186
2026-01-21 09:26:47.14	347.72	8.26	-31.4	-34.6	9.5	1.40e-02	0	44	0	1231028224	23	5224
2026-01-21 09:26:50.15	347.55	8.03	-31.5	-35.2	9.1	1.87e-02	0	44	0	1236271104	23	5490
2026-01-21 09:26:53.15	347.38	7.81	-31.7	-35.8	8.6	2.58e-02	0	44	0	1242562560	23	5770
2026-01-21 09:26:56.16	347.21	7.58	-31.7	-35.8	8.5	3.67e-02	0	44	0	1247805440	23	5803
2026-01-21 09:26:59.17	347.04	7.36	-31.7	-35.9	8.5	4.41e-02	0	44	0	1253048320	23	5850
2026-01-21 09:27:02.18	346.87	7.14	-31.6	-35.7	8.6	3.22e-02	0	44	0	1259339776	23	5743

#Closed at: 2026-01-21 09:27:05
#Recorded file [1261 MB]: D:/data/31010_260121_121550.dat