passes_logs/2026/01/21/R2M6_AANII_01/R2M6_AANII_01__20260121_020043_FENGYUN_3D_rec.log

#Pass ID: 20260121_020043_FENGYUN 3D
#Satellite: FENGYUN 3D
#Configuration: FENGYUN 3D
#almurnet v.1.7.20240730
#Start time: 2026-01-21 02:00:45

#Version: 2.2.20231116
#Station: R2M6_AANII_01
#Location: 30.233357 lon 59.946436 lat
#TLE: 1 43010U 17072A   26020.28933472  .00000051  00000+0  46008-4 0  9990
#TLE: 2 43010  98.9944 352.1871 0002476  99.7001 260.4455 14.19696838424006

#Time	Az	El	Level	Level2	SNR	BER	BlckErr	Temp	State	Recorded	gain1	gain2
2026-01-21 02:00:45.69	21.06	7.14	-29.8	-33.2	5.4	7.89e-01	0	42	0	0	19	5363
2026-01-21 02:00:48.70	21.14	7.37	-29.8	-33.2	9.8	1.81e-02	0	42	0	5242880	19	5340
2026-01-21 02:00:51.70	21.23	7.60	-29.0	-31.4	11.4	1.89e-03	0	42	0	22020096	18	4789
2026-01-21 02:00:54.72	21.32	7.84	-29.1	-31.8	11.2	2.04e-03	0	43	0	38797312	18	4914
2026-01-21 02:00:57.73	21.40	8.08	-28.2	-30.2	12.5	4.74e-04	0	43	0	55574528	17	4487
2026-01-21 02:01:00.73	21.49	8.31	-27.3	-29.1	13.6	3.48e-04	0	43	0	73400320	15	4388
2026-01-21 02:01:03.74	21.58	8.56	-27.4	-29.7	13.5	2.89e-04	0	43	0	90177536	14	4677
2026-01-21 02:01:06.75	21.68	8.80	-26.8	-28.8	14.4	3.96e-04	0	43	0	106954752	13	4514
2026-01-21 02:01:09.75	21.77	9.04	-26.9	-29.1	14.2	3.83e-04	0	43	0	123731968	13	4602
2026-01-21 02:01:12.77	21.86	9.29	-27.1	-28.9	14.1	5.70e-06	0	43	0	140509184	14	4423
2026-01-21 02:01:15.77	21.96	9.54	-27.3	-29.4	13.8	9.61e-05	0	43	0	157286400	14	4586
2026-01-21 02:01:18.79	22.06	9.79	-27.5	-29.4	13.5	3.70e-04	0	43	0	175112192	15	4481
2026-01-21 02:01:21.81	22.16	10.05	-27.4	-29.2	13.6	1.71e-05	0	43	0	191889408	15	4410
2026-01-21 02:01:24.82	22.26	10.31	-27.4	-29.7	13.7	6.80e-06	0	43	0	208666624	14	4670
2026-01-21 02:01:27.83	22.36	10.57	-26.9	-28.5	14.4	2.20e-06	0	44	0	225443840	14	4304
2026-01-21 02:01:30.84	22.46	10.83	-26.6	-28.4	14.8	1.10e-06	0	43	0	242221056	13	4396
2026-01-21 02:01:33.86	22.57	11.10	-26.4	-27.9	15.0	0.00e+00	0	43	0	258998272	13	4280
2026-01-21 02:01:36.87	22.67	11.37	-26.7	-28.4	14.8	0.00e+00	0	44	0	275775488	13	4402
2026-01-21 02:01:39.88	22.78	11.64	-26.6	-28.3	14.8	0.00e+00	0	44	0	293601280	13	4374
2026-01-21 02:01:42.89	22.89	11.92	-26.6	-28.3	14.9	1.10e-06	0	44	0	310378496	13	4364
2026-01-21 02:01:45.90	23.00	12.19	-26.5	-28.1	15.0	0.00e+00	0	43	0	327155712	13	4309
2026-01-21 02:01:48.92	23.12	12.48	-26.2	-27.9	15.4	0.00e+00	0	44	0	343932928	12	4376
2026-01-21 02:01:51.94	23.23	12.76	-26.0	-27.5	15.6	0.00e+00	0	43	0	360710144	12	4261
2026-01-21 02:01:54.95	23.35	13.05	-26.0	-27.3	15.7	0.00e+00	0	44	0	378535936	12	4205
2026-01-21 02:01:57.95	23.47	13.34	-25.9	-27.1	15.8	0.00e+00	0	44	0	395313152	12	4159
2026-01-21 02:02:00.95	23.59	13.63	-25.9	-27.6	14.2	0.00e+00	0	44	0	412090368	11	4387
2026-01-21 02:02:03.96	23.72	13.93	-25.8	-27.3	16.1	0.00e+00	0	44	0	428867584	11	4324
2026-01-21 02:02:06.97	23.85	14.23	-25.6	-27.0	16.3	4.27e-04	0	44	0	445644800	11	4228
2026-01-21 02:02:09.98	23.97	14.54	-25.6	-26.9	16.3	0.00e+00	0	44	0	462422016	11	4217
2026-01-21 02:02:12.98	24.11	14.85	-25.5	-26.9	16.4	0.00e+00	0	44	0	479199232	11	4198
2026-01-21 02:02:15.99	24.24	15.16	-25.4	-26.6	16.5	7.63e-04	0	44	0	495976448	11	4138
2026-01-21 02:02:19.00	24.38	15.48	-25.7	-27.3	16.2	7.15e-04	0	44	0	513802240	11	4305
2026-01-21 02:02:22.01	24.52	15.80	-25.7	-27.2	16.3	0.00e+00	0	44	0	530579456	11	4280
2026-01-21 02:02:25.02	24.66	16.12	-25.7	-27.3	16.2	4.93e-04	0	44	0	547356672	11	4300
2026-01-21 02:02:28.04	24.80	16.45	-25.4	-27.1	16.6	4.07e-04	0	44	0	564133888	10	4375
2026-01-21 02:02:31.04	24.95	16.79	-26.2	-27.7	15.6	3.88e-04	0	44	0	580911104	12	4321
2026-01-21 02:02:34.04	25.10	17.12	-25.8	-27.0	16.1	3.25e-04	0	44	0	597688320	12	4113
2026-01-21 02:02:37.06	25.26	17.47	-25.8	-27.4	16.2	2.86e-04	0	44	0	614465536	11	4334
2026-01-21 02:02:40.07	25.41	17.82	-25.7	-26.7	16.3	2.57e-04	0	44	0	631242752	12	4047
2026-01-21 02:02:43.08	25.57	18.17	-25.5	-26.8	16.6	0.00e+00	0	44	0	649068544	11	4175
2026-01-21 02:02:46.09	25.74	18.53	-25.3	-26.8	16.8	2.59e-04	0	44	0	665845760	10	4285
2026-01-21 02:02:49.09	25.90	18.89	-25.0	-26.2	17.2	3.92e-04	0	44	0	682622976	10	4134
2026-01-21 02:02:52.10	26.08	19.25	-25.1	-26.4	17.1	0.00e+00	0	44	0	699400192	10	4182
2026-01-21 02:02:55.11	26.25	19.63	-24.3	-25.2	18.0	0.00e+00	0	44	0	716177408	9	3990
2026-01-21 02:02:58.12	26.43	20.01	-24.3	-25.6	18.0	3.77e-05	0	44	0	732954624	8	4202
2026-01-21 02:03:01.13	26.61	20.39	-24.3	-25.7	18.0	0.00e+00	0	44	0	749731840	8	4219
2026-01-21 02:03:04.14	26.80	20.78	-24.3	-25.6	18.0	0.00e+00	0	44	0	767557632	8	4211
2026-01-21 02:03:07.16	27.00	21.18	-24.3	-25.6	18.1	0.00e+00	0	44	0	784334848	8	4190
2026-01-21 02:03:10.17	27.19	21.58	-24.4	-26.0	17.9	0.00e+00	0	44	0	801112064	8	4305
2026-01-21 02:03:13.19	27.40	21.99	-24.5	-25.6	17.8	0.00e+00	0	44	0	817889280	9	4093
2026-01-21 02:03:16.18	27.60	22.40	-24.5	-25.7	17.8	0.00e+00	0	44	0	834666496	9	4117
2026-01-21 02:03:19.19	27.81	22.82	-24.2	-24.9	18.2	0.00e+00	0	45	0	851443712	9	3916
2026-01-21 02:03:22.19	28.03	23.25	-24.1	-24.8	18.3	0.00e+00	0	44	0	869269504	9	3892
2026-01-21 02:03:25.20	28.25	23.68	-23.9	-24.8	18.6	0.00e+00	0	44	0	886046720	8	4010
2026-01-21 02:03:28.21	28.48	24.12	-23.8	-24.6	18.7	0.00e+00	0	44	0	902823936	8	3951
2026-01-21 02:03:31.22	28.72	24.57	-23.9	-24.8	18.6	0.00e+00	0	44	0	919601152	8	3998
2026-01-21 02:03:34.23	28.96	25.03	-23.9	-24.8	18.6	0.00e+00	0	44	0	936378368	8	4003
2026-01-21 02:03:37.23	29.21	25.49	-23.8	-24.7	18.6	0.00e+00	0	44	0	953155584	8	3983
2026-01-21 02:03:40.24	29.47	25.96	-23.5	-24.0	19.0	0.00e+00	0	44	0	969932800	8	3814
2026-01-21 02:03:43.24	29.73	26.44	-23.3	-24.0	19.2	0.00e+00	0	44	0	987758592	7	3925
2026-01-21 02:03:46.25	30.00	26.92	-23.3	-24.1	19.2	0.00e+00	0	44	0	1004535808	7	3944
2026-01-21 02:03:49.26	30.28	27.42	-23.5	-24.4	19.0	0.00e+00	0	44	0	1021313024	7	4016
2026-01-21 02:03:52.27	30.57	27.92	-23.8	-25.2	18.6	0.00e+00	0	44	0	1038090240	7	4214
2026-01-21 02:03:55.29	30.87	28.44	-23.8	-25.0	18.8	0.00e+00	0	44	0	1054867456	7	4173
2026-01-21 02:03:58.30	31.17	28.96	-23.6	-24.8	18.9	0.00e+00	0	45	0	1071644672	7	4106
2026-01-21 02:04:01.31	31.49	29.49	-23.9	-24.9	18.6	0.00e+00	0	44	0	1088421888	8	4017
2026-01-21 02:04:04.32	31.81	30.03	-23.3	-23.6	19.3	0.00e+00	0	45	0	1105199104	8	3714
2026-01-21 02:04:07.33	32.15	30.58	-23.3	-24.0	19.3	0.00e+00	0	44	0	1123024896	7	3913
2026-01-21 02:04:10.33	32.50	31.13	-23.6	-24.6	19.0	0.00e+00	0	44	0	1139802112	7	4073
2026-01-21 02:04:13.34	32.86	31.70	-23.6	-24.8	19.0	0.00e+00	0	44	0	1156579328	7	4097
2026-01-21 02:04:16.35	33.23	32.28	-23.5	-24.6	19.1	0.00e+00	0	44	0	1173356544	7	4052
2026-01-21 02:04:19.36	33.62	32.87	-23.6	-24.7	19.0	6.75e-05	0	44	0	1190133760	7	4085
2026-01-21 02:04:22.37	34.02	33.47	-23.6	-24.7	19.0	1.66e-04	0	45	0	1206910976	7	4093
2026-01-21 02:04:25.38	34.43	34.07	-23.1	-23.7	19.5	7.78e-05	0	45	0	1223688192	7	3852
2026-01-21 02:04:28.40	34.86	34.70	-23.3	-24.2	19.3	4.46e-05	0	45	0	1241513984	7	3959
2026-01-21 02:04:31.41	35.31	35.33	-23.2	-23.9	19.5	0.00e+00	0	44	0	1258291200	7	3887
2026-01-21 02:04:34.43	35.77	35.97	-23.3	-24.1	19.4	0.00e+00	0	44	0	1275068416	7	3942
2026-01-21 02:04:37.45	36.25	36.63	-23.1	-23.6	19.7	0.00e+00	0	44	0	1291845632	7	3812
2026-01-21 02:04:40.47	36.76	37.29	-23.0	-23.5	19.7	0.00e+00	0	45	0	1308622848	7	3795
2026-01-21 02:04:43.48	37.28	37.97	-22.9	-23.3	19.8	0.00e+00	0	44	0	1325400064	7	3752
2026-01-21 02:04:46.50	37.82	38.66	-22.8	-23.1	19.9	0.00e+00	0	45	0	1343225856	7	3695
2026-01-21 02:04:49.51	38.39	39.35	-22.9	-23.7	19.9	0.00e+00	0	44	0	1360003072	6	3940
2026-01-21 02:04:52.52	38.98	40.06	-23.0	-23.9	19.7	0.00e+00	0	44	0	1376780288	6	4007
2026-01-21 02:04:55.54	39.60	40.78	-23.2	-24.4	19.5	0.00e+00	0	45	0	1393557504	6	4115
2026-01-21 02:04:58.53	40.24	41.51	-23.5	-24.5	19.2	0.00e+00	0	44	0	1410334720	7	4021
2026-01-21 02:05:01.54	40.91	42.25	-23.4	-24.3	19.4	0.00e+00	0	44	0	1427111936	7	3995
2026-01-21 02:05:04.55	41.62	43.00	-23.5	-24.4	19.3	0.00e+00	0	45	0	1444937728	7	4012
2026-01-21 02:05:07.56	42.36	43.77	-23.5	-24.5	19.3	0.00e+00	0	44	0	1461714944	7	4026
2026-01-21 02:05:10.56	43.13	44.54	-23.6	-24.7	19.2	0.00e+00	0	44	0	1478492160	7	4071
2026-01-21 02:05:13.57	43.94	45.32	-23.7	-24.9	19.1	0.00e+00	0	44	0	1495269376	7	4121
2026-01-21 02:05:16.57	44.79	46.11	-23.7	-24.8	19.2	0.00e+00	0	44	0	1512046592	7	4095
2026-01-21 02:05:19.58	45.69	46.91	-23.3	-24.1	19.5	0.00e+00	0	44	0	1528823808	7	3936
2026-01-21 02:05:22.60	46.64	47.72	-23.5	-24.5	19.3	0.00e+00	0	44	0	1545601024	7	4029
2026-01-21 02:05:25.62	47.63	48.53	-24.2	-25.4	18.6	0.00e+00	0	45	0	1563426816	8	4159
2026-01-21 02:05:28.62	48.68	49.35	-23.9	-24.9	19.0	0.00e+00	0	44	0	1580204032	8	4006
2026-01-21 02:05:31.63	49.78	50.18	-24.3	-25.7	18.5	0.00e+00	0	44	0	1596981248	8	4208
2026-01-21 02:05:34.64	50.95	51.01	-23.9	-24.9	18.9	0.00e+00	0	45	0	1613758464	8	4009
2026-01-21 02:05:37.66	52.18	51.84	-24.4	-25.8	18.5	0.00e+00	0	44	0	1630535680	8	4238
2026-01-21 02:05:40.67	53.48	52.67	-24.3	-25.1	18.6	0.00e+00	0	45	0	1647312896	9	3944
2026-01-21 02:05:43.69	54.87	53.50	-24.1	-24.7	18.8	0.00e+00	0	45	0	1664090112	9	3849
2026-01-21 02:05:46.69	56.32	54.32	-24.2	-24.9	18.7	0.00e+00	0	45	0	1681915904	9	3913
2026-01-21 02:05:49.69	57.85	55.14	-24.4	-25.4	18.5	0.00e+00	0	44	0	1698693120	9	4021
2026-01-21 02:05:52.71	59.49	55.95	-24.3	-25.2	18.6	0.00e+00	0	44	0	1715470336	9	3966
2026-01-21 02:05:55.72	61.22	56.75	-24.3	-25.1	18.6	0.00e+00	0	44	0	1732247552	9	3958
2026-01-21 02:05:58.74	63.06	57.54	-24.3	-25.2	18.6	0.00e+00	0	45	0	1749024768	9	3971
2026-01-21 02:06:01.75	65.00	58.30	-23.9	-24.3	19.1	0.00e+00	0	45	0	1765801984	9	3752
2026-01-21 02:06:04.76	67.05	59.05	-23.9	-24.3	19.1	0.00e+00	0	44	0	1783627776	9	3770
2026-01-21 02:06:07.77	69.21	59.76	-23.6	-24.2	19.4	0.00e+00	0	45	0	1800404992	8	3842
2026-01-21 02:06:10.78	71.50	60.45	-23.2	-23.9	19.8	0.00e+00	0	45	0	1817182208	7	3882
2026-01-21 02:06:13.81	73.93	61.11	-23.0	-23.5	20.0	0.00e+00	0	45	0	1833959424	7	3782
2026-01-21 02:06:16.81	76.45	61.72	-23.5	-24.4	19.6	0.00e+00	0	45	0	1850736640	7	3995
2026-01-21 02:06:19.81	79.10	62.28	-22.7	-23.4	20.1	0.00e+00	0	44	0	1867513856	6	3888
2026-01-21 02:06:22.82	81.88	62.80	-22.9	-23.7	20.0	0.00e+00	0	44	0	1884291072	6	3965
2026-01-21 02:06:25.83	84.77	63.26	-22.7	-23.3	20.2	0.00e+00	0	44	0	1902116864	6	3857
2026-01-21 02:06:28.85	87.79	63.66	-22.9	-23.8	19.9	0.00e+00	0	45	0	1918894080	6	3991
2026-01-21 02:06:31.86	90.88	64.00	-23.1	-24.2	19.8	0.00e+00	0	45	0	1935671296	6	4069
2026-01-21 02:06:34.86	94.05	64.27	-22.5	-23.0	20.4	0.00e+00	0	45	0	1952448512	6	3785
2026-01-21 02:06:37.87	97.30	64.47	-22.8	-24.1	20.0	0.00e+00	0	45	0	1969225728	5	4176
2026-01-21 02:06:40.87	100.58	64.60	-22.6	-23.7	20.2	0.00e+00	0	45	0	1986002944	5	4065
2026-01-21 02:06:43.88	103.90	64.65	-22.6	-23.5	20.3	0.00e+00	0	45	0	2002780160	5	4029
2026-01-21 02:06:46.89	107.23	64.63	-22.7	-23.8	20.2	2.97e-05	0	45	0	2019557376	5	4082
2026-01-21 02:06:49.90	110.53	64.53	-22.7	-23.3	20.2	0.00e+00	0	45	0	2037383168	6	3863
2026-01-21 02:06:52.91	113.80	64.35	-23.0	-24.1	19.9	0.00e+00	0	45	0	2054160384	6	4040
2026-01-21 02:06:55.92	117.01	64.11	-23.1	-24.1	19.9	0.00e+00	0	45	0	2070937600	6	4053
2026-01-21 02:06:58.93	120.14	63.79	-22.9	-23.8	20.0	1.01e-04	0	44	0	2087714816	6	3976
2026-01-21 02:07:01.94	123.18	63.41	-22.9	-23.7	20.1	9.95e-05	0	44	0	2104492032	6	3943
2026-01-21 02:07:04.95	126.12	62.97	-23.5	-24.5	19.4	8.81e-05	0	45	0	2122317824	7	4046
2026-01-21 02:07:07.97	128.95	62.47	-23.3	-24.1	19.7	0.00e+00	0	45	0	2139095040	7	3935
2026-01-21 02:07:10.98	131.66	61.92	-23.3	-24.7	19.6	0.00e+00	0	44	0	2155872256	6	4195
2026-01-21 02:07:14.00	134.25	61.32	-23.2	-23.9	19.7	0.00e+00	0	44	0	2172649472	7	3902
2026-01-21 02:07:17.01	136.71	60.68	-23.4	-24.3	19.6	0.00e+00	0	44	0	2189426688	7	3984
2026-01-21 02:07:20.00	139.03	60.01	-23.8	-25.1	19.2	0.00e+00	0	45	0	2206203904	7	4189
2026-01-21 02:07:23.01	141.24	59.30	-23.7	-24.8	19.3	0.00e+00	0	45	0	2222981120	7	4111
2026-01-21 02:07:26.01	143.33	58.57	-23.6	-24.7	19.3	0.00e+00	0	45	0	2239758336	7	4094
2026-01-21 02:07:29.03	145.32	57.81	-24.1	-25.2	18.9	0.00e+00	0	45	0	2257584128	8	4107
2026-01-21 02:07:32.03	147.18	57.03	-24.5	-26.0	18.5	0.00e+00	0	45	0	2274361344	8	4312
2026-01-21 02:07:35.04	148.95	56.24	-24.9	-26.4	18.0	0.00e+00	0	45	0	2291138560	9	4302
2026-01-21 02:07:38.06	150.63	55.42	-24.7	-26.0	18.2	0.00e+00	0	45	0	2307915776	9	4203
2026-01-21 02:07:41.07	152.20	54.60	-25.0	-26.3	17.8	1.54e-04	0	45	0	2324692992	10	4143
2026-01-21 02:07:44.07	153.69	53.78	-24.8	-25.8	18.1	3.04e-04	0	44	0	2341470208	10	4017
2026-01-21 02:07:47.08	155.10	52.95	-24.8	-26.3	18.0	0.00e+00	0	45	0	2359296000	9	4273
2026-01-21 02:07:50.08	156.42	52.12	-23.9	-24.3	19.1	2.29e-04	0	45	0	2376073216	9	3770
2026-01-21 02:07:53.10	157.69	51.28	-24.0	-25.0	18.9	1.54e-04	0	45	0	2392850432	8	4041
2026-01-21 02:07:56.09	158.87	50.46	-23.8	-24.7	19.1	3.20e-05	0	45	0	2409627648	8	3976
2026-01-21 02:07:59.10	160.00	49.63	-23.7	-24.5	19.2	0.00e+00	0	45	0	2426404864	8	3926
2026-01-21 02:08:02.10	161.06	48.80	-23.6	-24.3	19.3	2.25e-04	0	45	0	2443182080	8	3874
2026-01-21 02:08:05.11	162.08	47.98	-23.5	-24.1	19.3	2.44e-04	0	45	0	2459959296	8	3841
2026-01-21 02:08:08.12	163.04	47.17	-23.8	-24.6	19.0	0.00e+00	0	44	0	2476736512	8	3957
2026-01-21 02:08:11.13	163.96	46.36	-24.1	-25.3	18.7	0.00e+00	0	45	0	2493513728	8	4137
2026-01-21 02:08:14.14	164.83	45.57	-23.6	-24.2	19.3	0.00e+00	0	45	0	2511339520	8	3858
2026-01-21 02:08:17.15	165.66	44.78	-23.4	-24.3	19.4	0.00e+00	0	45	0	2528116736	7	4002
2026-01-21 02:08:20.16	166.45	44.00	-23.4	-24.2	19.4	0.00e+00	0	45	0	2544893952	7	3981
2026-01-21 02:08:23.17	167.20	43.23	-23.1	-24.2	19.6	0.00e+00	0	44	0	2561671168	6	4091
2026-01-21 02:08:26.19	167.92	42.47	-23.3	-24.6	19.4	0.00e+00	0	45	0	2578448384	6	4197
2026-01-21 02:08:29.19	168.60	41.72	-23.3	-24.5	19.4	0.00e+00	0	45	0	2595225600	6	4174
2026-01-21 02:08:32.21	169.26	40.98	-23.2	-24.4	19.5	0.00e+00	0	45	0	2613051392	6	4135
2026-01-21 02:08:35.22	169.89	40.25	-23.0	-24.0	19.7	1.10e-06	0	45	0	2629828608	6	4030
2026-01-21 02:08:38.22	170.48	39.54	-23.2	-24.3	19.5	3.40e-06	0	44	0	2646605824	6	4122
2026-01-21 02:08:41.24	171.06	38.83	-23.0	-24.1	19.6	0.00e+00	0	45	0	2663383040	6	4064
2026-01-21 02:08:44.26	171.62	38.14	-22.9	-23.9	19.7	2.20e-06	0	45	0	2680160256	6	4013
2026-01-21 02:08:47.27	172.14	37.45	-22.8	-23.5	19.9	0.00e+00	0	45	0	2696937472	6	3926
2026-01-21 02:08:50.27	172.65	36.78	-23.0	-24.1	19.6	2.20e-06	0	45	0	2713714688	6	4062
2026-01-21 02:08:53.28	173.14	36.12	-23.0	-23.9	19.6	0.00e+00	0	45	0	2731540480	6	4025
2026-01-21 02:08:56.30	173.61	35.47	-22.9	-23.7	19.8	0.00e+00	0	45	0	2748317696	6	3967
2026-01-21 02:08:59.31	174.06	34.84	-23.1	-24.2	19.6	0.00e+00	0	45	0	2765094912	6	4077
2026-01-21 02:09:02.32	174.50	34.21	-23.2	-24.4	19.3	0.00e+00	0	45	0	2781872128	6	4152
2026-01-21 02:09:05.33	174.92	33.59	-23.3	-24.6	19.3	0.00e+00	0	44	0	2798649344	6	4191
2026-01-21 02:09:08.34	175.32	32.99	-23.3	-24.7	19.3	0.00e+00	0	45	0	2815426560	6	4206
2026-01-21 02:09:11.34	175.71	32.40	-23.4	-24.8	19.2	1.28e-04	0	45	0	2833252352	6	4229
2026-01-21 02:09:14.37	176.09	31.81	-23.6	-24.7	19.0	0.00e+00	0	45	0	2850029568	7	4099
2026-01-21 02:09:17.38	176.45	31.23	-23.6	-24.8	18.9	0.00e+00	0	45	0	2866806784	7	4133
2026-01-21 02:09:20.38	176.80	30.67	-23.5	-24.6	19.0	6.24e-04	0	45	0	2883584000	7	4075
2026-01-21 02:09:23.39	177.14	30.12	-23.4	-24.3	19.2	7.30e-04	0	45	0	2900361216	7	3990
2026-01-21 02:09:26.40	177.47	29.57	-23.5	-24.6	19.0	6.52e-04	0	45	0	2917138432	7	4066
2026-01-21 02:09:29.42	177.79	29.03	-23.5	-24.5	19.0	7.39e-04	0	45	0	2933915648	7	4051
2026-01-21 02:09:32.42	178.10	28.51	-23.5	-24.7	18.9	7.59e-04	0	45	0	2951741440	7	4099
2026-01-21 02:09:35.43	178.40	27.99	-23.5	-24.6	19.0	7.04e-04	0	45	0	2968518656	7	4065
2026-01-21 02:09:38.44	178.69	27.48	-23.4	-24.4	19.1	0.00e+00	0	45	0	2985295872	7	4018
2026-01-21 02:09:41.45	178.97	26.98	-23.5	-24.5	19.0	7.61e-04	0	45	0	3002073088	7	4054
2026-01-21 02:09:44.45	179.24	26.49	-23.6	-24.9	18.8	6.72e-04	0	45	0	3018850304	7	4143
2026-01-21 02:09:47.46	179.51	26.01	-23.7	-25.1	18.7	0.00e+00	0	45	0	3035627520	7	4198
2026-01-21 02:09:50.48	179.77	25.53	-23.7	-25.0	18.8	0.00e+00	0	45	0	3052404736	7	4165
2026-01-21 02:09:53.49	180.02	25.06	-23.7	-24.9	18.7	6.21e-04	0	45	0	3070230528	7	4158
2026-01-21 02:09:56.50	180.26	24.60	-23.4	-24.3	19.0	0.00e+00	0	45	0	3087007744	7	4004
2026-01-21 02:09:59.49	180.50	24.15	-23.5	-24.6	18.9	0.00e+00	0	45	0	3103784960	7	4069
2026-01-21 02:10:02.51	180.73	23.70	-23.7	-24.9	18.7	0.00e+00	0	44	0	3120562176	7	4157
2026-01-21 02:10:05.51	180.95	23.27	-23.9	-25.4	18.5	0.00e+00	0	45	0	3137339392	7	4293
2026-01-21 02:10:08.53	181.17	22.83	-24.2	-25.5	18.2	0.00e+00	0	45	0	3154116608	8	4203
2026-01-21 02:10:11.54	181.38	22.41	-24.2	-25.6	18.1	0.00e+00	0	45	0	3171942400	8	4234
2026-01-21 02:10:14.55	181.59	21.99	-24.3	-25.8	18.0	0.00e+00	0	45	0	3188719616	8	4285
2026-01-21 02:10:17.56	181.79	21.58	-24.4	-25.9	18.0	0.00e+00	0	45	0	3205496832	8	4297
2026-01-21 02:10:20.56	181.99	21.17	-24.5	-25.7	17.8	0.00e+00	0	45	0	3222274048	9	4131
2026-01-21 02:10:23.59	182.18	20.77	-24.6	-25.8	17.7	0.00e+00	0	45	0	3239051264	9	4163
2026-01-21 02:10:26.60	182.37	20.38	-24.7	-26.1	17.6	0.00e+00	0	45	0	3255828480	9	4244
2026-01-21 02:10:29.61	182.55	19.99	-24.9	-26.6	17.3	0.00e+00	0	45	0	3272605696	9	4373
2026-01-21 02:10:32.61	182.73	19.61	-25.0	-26.2	17.3	0.00e+00	0	45	0	3289382912	10	4137
2026-01-21 02:10:35.62	182.91	19.23	-24.8	-26.3	17.5	0.00e+00	0	45	0	3307208704	9	4280
2026-01-21 02:10:38.63	183.08	18.86	-25.0	-26.2	17.3	0.00e+00	0	45	0	3323985920	10	4143
2026-01-21 02:10:41.63	183.25	18.50	-24.9	-26.5	17.3	0.00e+00	0	45	0	3340763136	9	4335
2026-01-21 02:10:44.65	183.41	18.14	-25.0	-26.3	17.2	0.00e+00	0	45	0	3357540352	10	4160
2026-01-21 02:10:47.65	183.57	17.78	-25.2	-26.6	17.0	0.00e+00	0	45	0	3374317568	10	4244
2026-01-21 02:10:50.65	183.73	17.43	-25.0	-26.2	17.2	1.37e-04	0	45	0	3391094784	10	4144
2026-01-21 02:10:53.66	183.88	17.09	-25.1	-26.5	17.0	0.00e+00	0	45	0	3407872000	10	4233
2026-01-21 02:10:56.69	184.03	16.74	-25.2	-26.7	16.9	0.00e+00	0	45	0	3425697792	10	4273
2026-01-21 02:10:59.70	184.18	16.41	-25.4	-27.2	16.7	1.03e-04	0	45	0	3442475008	10	4406
2026-01-21 02:11:02.70	184.32	16.08	-25.7	-27.4	16.3	1.19e-04	0	45	0	3459252224	11	4344
2026-01-21 02:11:05.71	184.46	15.75	-25.9	-27.2	16.0	0.00e+00	0	45	0	3476029440	12	4206
2026-01-21 02:11:08.71	184.60	15.43	-26.1	-27.7	15.7	1.30e-04	0	45	0	3492806656	12	4336
2026-01-21 02:11:11.72	184.73	15.11	-26.3	-28.0	15.5	1.36e-04	0	45	0	3509583872	12	4416
2026-01-21 02:11:14.73	184.87	14.79	-25.9	-27.8	16.0	1.27e-04	0	44	0	3526361088	11	4452
2026-01-21 02:11:17.74	185.00	14.48	-26.3	-28.1	15.5	1.52e-04	0	45	0	3544186880	12	4435
2026-01-21 02:11:20.75	185.12	14.17	-26.8	-28.8	14.9	1.43e-04	0	45	0	3560964096	13	4505
2026-01-21 02:11:23.76	185.25	13.87	-26.4	-27.7	15.4	1.43e-04	0	45	0	3577741312	13	4214
2026-01-21 02:11:26.76	185.37	13.57	-26.4	-28.3	15.3	1.10e-06	0	45	0	3594518528	12	4498
2026-01-21 02:11:29.77	185.49	13.27	-25.9	-27.2	15.9	1.38e-04	0	45	0	3611295744	12	4186
2026-01-21 02:11:32.80	185.61	12.98	-25.8	-27.0	16.0	1.32e-04	0	45	0	3628072960	12	4129
2026-01-21 02:11:35.80	185.73	12.69	-25.8	-27.1	16.0	0.00e+00	0	45	0	3644850176	12	4150
2026-01-21 02:11:38.81	185.84	12.40	-25.9	-27.2	15.9	0.00e+00	0	45	0	3662675968	12	4197
2026-01-21 02:11:41.82	185.96	12.12	-26.1	-27.6	15.7	1.20e-04	0	45	0	3679453184	12	4294
2026-01-21 02:11:44.84	186.07	11.84	-26.0	-27.5	15.7	0.00e+00	0	45	0	3696230400	12	4270
2026-01-21 02:11:47.85	186.18	11.56	-26.2	-27.9	15.4	0.00e+00	0	45	0	3713007616	12	4390
2026-01-21 02:11:50.85	186.28	11.29	-26.3	-28.2	15.3	0.00e+00	0	45	0	3729784832	12	4464
2026-01-21 02:11:53.86	186.39	11.02	-26.5	-28.2	15.0	4.50e-06	0	45	0	3746562048	13	4345
2026-01-21 02:11:56.87	186.49	10.75	-26.5	-28.2	15.0	4.50e-06	0	44	0	3763339264	13	4347
2026-01-21 02:11:59.87	186.59	10.48	-26.7	-28.5	14.8	0.00e+00	0	45	0	3780116480	13	4440
2026-01-21 02:12:02.88	186.69	10.22	-26.8	-28.8	14.6	2.20e-06	0	45	0	3797942272	13	4521
2026-01-21 02:12:05.90	186.79	9.96	-26.9	-28.9	14.5	2.20e-06	0	45	0	3814719488	13	4575
2026-01-21 02:12:08.91	186.89	9.70	-27.0	-28.8	14.3	6.80e-06	0	45	0	3831496704	14	4418
2026-01-21 02:12:11.92	186.98	9.45	-26.9	-29.0	14.4	2.20e-06	0	45	0	3848273920	13	4596
2026-01-21 02:12:14.93	187.07	9.20	-27.3	-29.3	13.9	1.14e-05	0	45	0	3865051136	14	4577
2026-01-21 02:12:17.94	187.17	8.95	-26.9	-28.5	14.4	1.10e-06	0	45	0	3882876928	14	4337
2026-01-21 02:12:20.94	187.26	8.70	-26.8	-28.9	14.4	1.10e-06	0	45	0	3899654144	13	4574
2026-01-21 02:12:23.95	187.35	8.45	-26.9	-29.2	14.2	4.50e-06	0	45	0	3916431360	13	4641
2026-01-21 02:12:26.96	187.43	8.21	-27.2	-29.2	13.9	6.80e-06	0	45	0	3933208576	14	4555
2026-01-21 02:12:29.97	187.52	7.97	-27.2	-29.3	13.2	1.14e-05	0	45	0	3949985792	14	4578
2026-01-21 02:12:32.98	187.61	7.73	-27.3	-29.5	13.7	1.02e-05	0	45	0	3966763008	14	4640
2026-01-21 02:12:35.99	187.69	7.50	-27.4	-29.2	13.6	1.94e-05	0	45	0	3983540224	15	4442
2026-01-21 02:12:39.00	187.77	7.26	-27.4	-29.6	13.6	1.11e-03	0	45	0	4000317440	14	4684
2026-01-21 02:12:42.01	187.86	7.03	-33.2	-44.5	3.8	8.47e-01	0	45	104	4013948928	26	13153

#Closed at: 2026-01-21 02:12:44
#Recorded file [4013 MB]: D:/data/31010_260121_050047.dat