passes_logs/2026/01/21/R2M6_AANII_01/R2M6_AANII_01__20260121_070532_FENGYUN_3E_rec.log

#Pass ID: 20260121_070532_FENGYUN 3E
#Satellite: FENGYUN 3E
#Configuration: FENGYUN 3E
#almurnet v.1.7.20240730
#Start time: 2026-01-21 07:05:32

#Version: 2.2.20231116
#Station: R2M6_AANII_01
#Location: 30.233357 lon 59.946436 lat
#TLE: 1 49008U 21062A   26020.29079360  .00000161  00000+0  96807-4 0  9999
#TLE: 2 49008  98.7481  25.3569 0002259 127.4136 232.7246 14.19885851235592

#Time	Az	El	Level	Level2	SNR	BER	BlckErr	Temp	State	Recorded	gain1	gain2
2026-01-21 07:05:32.59	8.62	7.00	-31.1	-34.4	4.7	8.06e-01	0	42	0	0	23	5246
2026-01-21 07:05:35.59	8.28	7.17	-30.5	-33.2	8.0	6.79e-02	0	42	0	7340032	21	4912
2026-01-21 07:05:38.60	7.94	7.34	-30.5	-33.2	8.0	7.33e-02	0	42	0	28311552	21	4906
2026-01-21 07:05:41.61	7.60	7.51	-30.3	-32.5	8.5	5.87e-02	0	42	0	50331648	21	4652
2026-01-21 07:05:44.61	7.25	7.67	-28.9	-29.9	10.9	2.68e-03	0	42	0	72351744	19	4040
2026-01-21 07:05:47.62	6.90	7.84	-28.2	-29.0	12.1	2.66e-04	0	42	0	93323264	17	3987
2026-01-21 07:05:50.63	6.54	8.01	-28.0	-29.2	12.4	1.29e-04	0	42	0	115343360	16	4123
2026-01-21 07:05:53.63	6.18	8.18	-27.6	-28.2	13.0	4.23e-05	0	42	0	137363456	16	3860
2026-01-21 07:05:56.64	5.81	8.34	-27.6	-28.1	13.1	2.63e-05	0	43	0	158334976	16	3838
2026-01-21 07:05:59.65	5.44	8.51	-27.6	-28.1	13.0	3.66e-05	0	43	0	180355072	16	3842
2026-01-21 07:06:02.67	5.06	8.68	-27.4	-27.8	13.2	2.74e-05	0	43	0	202375168	16	3771
2026-01-21 07:06:05.66	4.69	8.85	-27.6	-28.3	13.0	5.49e-05	0	43	0	224395264	16	3876
2026-01-21 07:06:08.66	4.30	9.02	-27.7	-28.3	13.0	5.26e-05	0	43	0	245366784	16	3893
2026-01-21 07:06:11.68	3.91	9.18	-27.8	-28.6	12.8	7.32e-05	0	43	0	267386880	16	3955
2026-01-21 07:06:14.69	3.52	9.35	-27.7	-28.5	12.9	5.60e-05	0	43	0	289406976	16	3929
2026-01-21 07:06:17.70	3.12	9.52	-27.6	-28.3	13.1	3.43e-05	0	43	0	311427072	16	3876
2026-01-21 07:06:20.72	2.72	9.69	-27.0	-27.5	13.7	1.14e-05	0	43	0	332398592	15	3775
2026-01-21 07:06:23.73	2.31	9.85	-26.8	-27.4	14.0	3.40e-06	0	43	0	354418688	14	3868
2026-01-21 07:06:26.75	1.89	10.02	-26.8	-27.3	14.1	2.20e-06	0	43	0	376438784	14	3834
2026-01-21 07:06:29.77	1.48	10.19	-27.0	-27.8	13.8	0.00e+00	0	43	0	398458880	14	3963
2026-01-21 07:06:32.77	1.05	10.35	-27.0	-27.8	13.8	6.80e-06	0	43	0	419430400	14	3967
2026-01-21 07:06:35.78	0.63	10.52	-27.0	-28.0	13.7	5.70e-06	0	43	0	441450496	14	4005
2026-01-21 07:06:38.79	0.20	10.68	-27.1	-28.0	13.6	1.02e-05	0	43	0	463470592	14	4016
2026-01-21 07:06:41.80	359.76	10.85	-27.1	-28.1	13.7	8.00e-06	0	43	0	484442112	14	4023
2026-01-21 07:06:44.81	359.32	11.01	-27.0	-27.9	13.7	4.50e-06	0	43	0	506462208	14	3995
2026-01-21 07:06:47.81	358.87	11.17	-26.8	-27.5	14.0	3.40e-06	0	43	0	528482304	14	3868
2026-01-21 07:06:50.82	358.42	11.34	-26.8	-27.4	14.1	5.70e-06	0	44	0	549453824	14	3853
2026-01-21 07:06:53.84	357.96	11.50	-26.8	-27.3	14.1	0.00e+00	0	43	0	571473920	14	3822
2026-01-21 07:06:56.84	357.50	11.66	-26.7	-27.2	14.2	0.00e+00	0	44	0	593494016	14	3795
2026-01-21 07:06:59.84	357.03	11.82	-26.8	-27.4	14.1	0.00e+00	0	44	0	615514112	14	3858
2026-01-21 07:07:02.85	356.56	11.98	-26.9	-27.5	14.0	5.70e-06	0	44	0	636485632	14	3881
2026-01-21 07:07:05.85	356.08	12.14	-26.8	-27.4	14.1	3.40e-06	0	44	0	658505728	14	3867
2026-01-21 07:07:08.86	355.60	12.30	-26.6	-26.9	14.4	0.00e+00	0	44	0	680525824	14	3743
2026-01-21 07:07:11.87	355.11	12.45	-26.6	-27.0	14.3	2.20e-06	0	44	0	701497344	14	3749
2026-01-21 07:07:14.87	354.61	12.61	-26.6	-26.9	14.4	2.20e-06	0	44	0	723517440	14	3741
2026-01-21 07:07:17.88	354.12	12.76	-26.5	-26.6	14.6	0.00e+00	0	44	0	745537536	14	3662
2026-01-21 07:07:20.89	353.61	12.92	-26.6	-26.9	14.4	1.10e-06	0	44	0	766509056	14	3727
2026-01-21 07:07:23.90	353.10	13.07	-26.4	-27.1	14.6	0.00e+00	0	44	0	788529152	13	3872
2026-01-21 07:07:26.91	352.58	13.22	-26.1	-26.3	15.0	1.10e-06	0	44	0	810549248	13	3686
2026-01-21 07:07:29.91	352.06	13.37	-26.2	-26.5	14.9	1.10e-06	0	44	0	832569344	13	3742
2026-01-21 07:07:32.93	351.54	13.52	-26.1	-26.4	15.0	0.00e+00	0	44	0	853540864	13	3703
2026-01-21 07:07:35.95	351.00	13.66	-26.1	-26.4	15.0	0.00e+00	0	44	0	875560960	13	3705
2026-01-21 07:07:38.95	350.47	13.81	-26.2	-26.6	14.9	0.00e+00	0	44	0	897581056	13	3767
2026-01-21 07:07:41.96	349.92	13.95	-26.2	-26.6	14.9	0.00e+00	0	44	0	919601152	13	3752
2026-01-21 07:07:44.97	349.38	14.09	-26.2	-26.5	14.9	0.00e+00	0	44	0	940572672	13	3739
2026-01-21 07:07:47.99	348.82	14.23	-26.1	-26.4	15.0	0.00e+00	0	44	0	962592768	13	3717
2026-01-21 07:07:50.99	348.26	14.37	-26.0	-26.1	15.2	0.00e+00	0	44	0	984612864	13	3640
2026-01-21 07:07:54.01	347.70	14.50	-25.8	-26.2	15.4	0.00e+00	0	44	0	1006632960	12	3752
2026-01-21 07:07:57.03	347.13	14.64	-25.9	-26.3	15.4	0.00e+00	0	44	0	1027604480	12	3777
2026-01-21 07:08:00.04	346.55	14.77	-25.8	-26.2	15.4	0.00e+00	0	44	0	1049624576	12	3755
2026-01-21 07:08:03.05	345.97	14.90	-25.9	-26.5	15.3	0.00e+00	0	44	0	1071644672	12	3827
2026-01-21 07:08:06.05	345.39	15.03	-25.9	-26.4	15.3	0.00e+00	0	44	0	1092616192	12	3807
2026-01-21 07:08:09.06	344.80	15.15	-26.0	-26.6	15.3	0.00e+00	0	44	0	1114636288	12	3845
2026-01-21 07:08:12.07	344.21	15.27	-25.9	-26.3	15.4	0.00e+00	0	44	0	1136656384	12	3778
2026-01-21 07:08:15.09	343.61	15.39	-25.8	-26.2	15.5	0.00e+00	0	44	0	1157627904	12	3769
2026-01-21 07:08:18.10	343.00	15.51	-25.8	-26.2	15.5	0.00e+00	0	44	0	1179648000	12	3752
2026-01-21 07:08:21.11	342.39	15.62	-25.6	-25.7	15.8	0.00e+00	0	44	0	1201668096	12	3642
2026-01-21 07:08:24.11	341.78	15.73	-25.4	-25.3	16.0	0.00e+00	0	44	0	1223688192	12	3562
2026-01-21 07:08:27.12	341.16	15.84	-25.5	-25.5	15.9	0.00e+00	0	44	0	1244659712	12	3602
2026-01-21 07:08:30.13	340.54	15.95	-25.6	-25.8	15.7	0.00e+00	0	44	0	1266679808	12	3662
2026-01-21 07:08:33.15	339.91	16.05	-25.8	-26.2	15.5	0.00e+00	0	44	0	1288699904	12	3749
2026-01-21 07:08:36.15	339.28	16.15	-25.6	-25.6	15.8	0.00e+00	0	44	0	1310720000	12	3619
2026-01-21 07:08:39.16	338.64	16.25	-25.6	-25.7	15.8	0.00e+00	0	44	0	1331691520	12	3644
2026-01-21 07:08:42.17	338.00	16.34	-25.9	-26.4	15.4	0.00e+00	0	44	0	1353711616	12	3808
2026-01-21 07:08:45.18	337.36	16.43	-26.0	-26.6	15.3	0.00e+00	0	44	0	1375731712	12	3856
2026-01-21 07:08:48.19	336.71	16.52	-25.9	-26.3	15.4	0.00e+00	0	44	0	1396703232	12	3781
2026-01-21 07:08:51.20	336.06	16.60	-25.6	-25.7	15.8	0.00e+00	0	44	0	1418723328	12	3637
2026-01-21 07:08:54.21	335.40	16.68	-25.7	-25.9	15.7	0.00e+00	0	44	0	1440743424	12	3701
2026-01-21 07:08:57.23	334.74	16.75	-25.3	-25.6	16.2	0.00e+00	0	44	0	1462763520	11	3730
2026-01-21 07:09:00.23	334.08	16.83	-25.3	-25.6	16.2	0.00e+00	0	44	0	1483735040	11	3713
2026-01-21 07:09:03.24	333.42	16.89	-25.2	-25.3	16.3	0.00e+00	0	44	0	1505755136	11	3647
2026-01-21 07:09:06.25	332.75	16.96	-25.1	-25.2	16.4	0.00e+00	0	44	0	1527775232	11	3620
2026-01-21 07:09:09.27	332.08	17.02	-25.1	-25.0	16.5	0.00e+00	0	44	0	1549795328	11	3592
2026-01-21 07:09:12.29	331.40	17.08	-25.0	-25.0	16.5	0.00e+00	0	44	0	1571815424	11	3579
2026-01-21 07:09:15.31	330.72	17.13	-24.9	-25.2	16.7	0.00e+00	0	44	0	1592786944	10	3719
2026-01-21 07:09:18.32	330.04	17.18	-25.1	-25.7	16.4	0.00e+00	0	44	0	1614807040	10	3826
2026-01-21 07:09:21.33	329.36	17.22	-25.1	-25.7	16.4	0.00e+00	0	44	0	1636827136	10	3831
2026-01-21 07:09:24.35	328.68	17.26	-25.2	-25.8	16.3	0.00e+00	0	44	0	1658847232	10	3876
2026-01-21 07:09:27.36	327.99	17.30	-25.1	-25.7	16.4	0.00e+00	0	44	0	1679818752	10	3845
2026-01-21 07:09:30.36	327.31	17.33	-25.1	-25.7	16.4	0.00e+00	0	44	0	1701838848	10	3847
2026-01-21 07:09:33.37	326.62	17.36	-24.9	-25.1	16.7	0.00e+00	0	44	0	1722810368	10	3704
2026-01-21 07:09:36.37	325.94	17.39	-24.9	-25.2	16.7	0.00e+00	0	44	0	1744830464	10	3724
2026-01-21 07:09:39.39	325.24	17.41	-24.7	-24.8	16.9	0.00e+00	0	44	0	1766850560	10	3633
2026-01-21 07:09:42.40	324.55	17.42	-24.9	-25.2	16.6	0.00e+00	0	44	0	1788870656	10	3726
2026-01-21 07:09:45.41	323.86	17.43	-25.0	-25.5	16.5	0.00e+00	0	44	0	1809842176	10	3800
2026-01-21 07:09:48.41	323.17	17.44	-25.1	-25.6	16.4	0.00e+00	0	44	0	1831862272	10	3819
2026-01-21 07:09:51.42	322.48	17.44	-25.0	-25.4	16.6	0.00e+00	0	44	0	1853882368	10	3762
2026-01-21 07:09:54.43	321.79	17.44	-25.2	-25.8	16.3	0.00e+00	0	44	0	1874853888	10	3866
2026-01-21 07:09:57.44	321.09	17.44	-25.3	-26.1	16.1	0.00e+00	0	44	0	1896873984	10	3948
2026-01-21 07:10:00.45	320.40	17.43	-25.4	-26.2	16.1	0.00e+00	0	44	0	1918894080	10	3972
2026-01-21 07:10:03.46	319.71	17.41	-25.2	-25.8	16.3	0.00e+00	0	44	0	1940914176	10	3853
2026-01-21 07:10:06.47	319.02	17.39	-24.9	-25.2	16.6	0.00e+00	0	44	0	1961885696	10	3729
2026-01-21 07:10:09.47	318.33	17.37	-25.1	-25.6	16.4	0.00e+00	0	44	0	1983905792	10	3817
2026-01-21 07:10:12.49	317.64	17.34	-25.2	-25.9	16.3	0.00e+00	0	44	0	2005925888	10	3885
2026-01-21 07:10:15.50	316.96	17.31	-25.0	-25.3	16.6	0.00e+00	0	44	0	2027945984	10	3759
2026-01-21 07:10:18.51	316.27	17.28	-25.0	-25.4	16.5	0.00e+00	0	44	0	2048917504	10	3779
2026-01-21 07:10:21.50	315.59	17.24	-24.8	-25.0	16.7	0.00e+00	0	44	0	2070937600	10	3691
2026-01-21 07:10:24.50	314.91	17.20	-24.9	-25.3	16.6	0.00e+00	0	44	0	2092957696	10	3743
2026-01-21 07:10:27.51	314.23	17.15	-25.0	-25.3	16.6	0.00e+00	0	44	0	2113929216	10	3759
2026-01-21 07:10:30.52	313.55	17.10	-25.0	-25.4	16.5	0.00e+00	0	44	0	2135949312	10	3781
2026-01-21 07:10:33.53	312.88	17.04	-25.1	-25.6	16.4	0.00e+00	0	44	0	2157969408	10	3808
2026-01-21 07:10:36.54	312.20	16.98	-24.9	-25.2	16.6	0.00e+00	0	44	0	2179989504	10	3728
2026-01-21 07:10:39.54	311.54	16.92	-25.0	-25.5	16.5	0.00e+00	0	45	0	2200961024	10	3794
2026-01-21 07:10:42.54	310.87	16.85	-25.1	-25.7	16.4	0.00e+00	0	44	0	2222981120	10	3843
2026-01-21 07:10:45.56	310.20	16.78	-25.2	-25.9	16.2	0.00e+00	0	44	0	2245001216	10	3893
2026-01-21 07:10:48.58	309.54	16.71	-25.3	-26.0	16.2	0.00e+00	0	45	0	2265972736	10	3918
2026-01-21 07:10:51.58	308.89	16.63	-25.1	-25.7	16.4	0.00e+00	0	45	0	2287992832	10	3833
2026-01-21 07:10:54.59	308.23	16.55	-25.1	-25.7	16.3	0.00e+00	0	45	0	2308964352	10	3835
2026-01-21 07:10:57.59	307.58	16.46	-25.4	-26.3	16.0	0.00e+00	0	45	0	2330984448	10	3980
2026-01-21 07:11:00.61	306.93	16.37	-25.4	-26.2	16.1	0.00e+00	0	45	0	2353004544	10	3949
2026-01-21 07:11:03.62	306.29	16.28	-25.5	-26.5	15.9	0.00e+00	0	44	0	2375024640	10	4026
2026-01-21 07:11:06.63	305.65	16.18	-25.2	-25.3	16.3	0.00e+00	0	44	0	2395996160	11	3646
2026-01-21 07:11:09.64	305.02	16.09	-25.4	-25.9	16.0	0.00e+00	0	45	0	2418016256	11	3778
2026-01-21 07:11:12.65	304.39	15.98	-25.4	-25.7	16.0	0.00e+00	0	44	0	2440036352	11	3733
2026-01-21 07:11:15.65	303.76	15.88	-25.3	-25.4	16.2	0.00e+00	0	44	0	2462056448	11	3680
2026-01-21 07:11:18.65	303.14	15.77	-25.4	-25.8	16.0	0.00e+00	0	45	0	2483027968	11	3757
2026-01-21 07:11:21.66	302.53	15.66	-25.6	-26.3	15.7	0.00e+00	0	44	0	2505048064	11	3881
2026-01-21 07:11:24.67	301.91	15.55	-25.6	-26.3	15.7	0.00e+00	0	45	0	2527068160	11	3885
2026-01-21 07:11:27.68	301.30	15.43	-25.6	-26.1	15.8	0.00e+00	0	45	0	2548039680	11	3842
2026-01-21 07:11:30.68	300.70	15.31	-25.4	-25.8	15.9	0.00e+00	0	45	0	2570059776	11	3768
2026-01-21 07:11:33.70	300.10	15.19	-25.5	-25.9	15.9	0.00e+00	0	45	0	2592079872	11	3795
2026-01-21 07:11:36.71	299.51	15.07	-25.7	-26.4	15.6	0.00e+00	0	44	0	2614099968	11	3913
2026-01-21 07:11:39.73	298.92	14.94	-25.7	-26.4	15.6	0.00e+00	0	44	0	2635071488	11	3909
2026-01-21 07:11:42.74	298.34	14.81	-25.8	-26.6	15.5	1.10e-06	0	44	0	2657091584	11	3952
2026-01-21 07:11:45.75	297.76	14.68	-25.7	-26.5	15.5	0.00e+00	0	44	0	2679111680	11	3936
2026-01-21 07:11:48.75	297.19	14.55	-25.6	-26.3	15.6	0.00e+00	0	44	0	2701131776	11	3879
2026-01-21 07:11:51.76	296.62	14.41	-25.7	-26.4	15.6	0.00e+00	0	45	0	2722103296	11	3922
2026-01-21 07:11:54.76	296.06	14.28	-25.7	-26.5	15.5	0.00e+00	0	44	0	2744123392	11	3934
2026-01-21 07:11:57.77	295.50	14.14	-26.0	-27.1	15.2	0.00e+00	0	44	0	2766143488	11	4071
2026-01-21 07:12:00.78	294.95	14.00	-26.0	-27.0	15.2	0.00e+00	0	44	0	2787115008	11	4069
2026-01-21 07:12:03.79	294.40	13.86	-25.9	-26.9	15.3	0.00e+00	0	44	0	2809135104	11	4028
2026-01-21 07:12:06.79	293.86	13.71	-26.0	-27.1	15.1	0.00e+00	0	44	0	2831155200	11	4091
2026-01-21 07:12:09.81	293.32	13.56	-25.7	-26.5	15.4	0.00e+00	0	44	0	2853175296	11	3944
2026-01-21 07:12:12.82	292.79	13.42	-25.8	-26.7	15.4	0.00e+00	0	45	0	2874146816	11	3976
2026-01-21 07:12:15.83	292.27	13.27	-25.7	-26.5	15.5	0.00e+00	0	44	0	2896166912	11	3929
2026-01-21 07:12:18.82	291.75	13.12	-25.9	-26.9	15.2	0.00e+00	0	44	0	2917138432	11	4026
2026-01-21 07:12:21.83	291.24	12.97	-26.0	-26.6	15.0	0.00e+00	0	45	0	2939158528	12	3859
2026-01-21 07:12:24.83	290.73	12.81	-26.3	-27.2	14.7	0.00e+00	0	44	0	2961178624	12	4017
2026-01-21 07:12:27.85	290.22	12.66	-26.3	-27.2	14.7	2.20e-06	0	45	0	2983198720	12	4007
2026-01-21 07:12:30.86	289.72	12.50	-26.4	-27.5	14.5	1.10e-06	0	45	0	3004170240	12	4099
2026-01-21 07:12:33.86	289.23	12.35	-26.5	-27.8	14.3	0.00e+00	0	44	0	3026190336	12	4172
2026-01-21 07:12:36.86	288.75	12.19	-26.2	-27.0	14.7	0.00e+00	0	45	0	3048210432	12	3970
2026-01-21 07:12:39.87	288.26	12.03	-26.5	-27.7	14.3	1.10e-06	0	45	0	3069181952	12	4148
2026-01-21 07:12:42.89	287.78	11.87	-27.0	-28.4	13.7	5.70e-06	0	44	0	3091202048	13	4209
2026-01-21 07:12:45.90	287.31	11.71	-26.4	-27.0	14.5	1.10e-06	0	44	0	3113222144	13	3856
2026-01-21 07:12:48.92	286.84	11.55	-26.3	-26.8	14.6	0.00e+00	0	44	0	3135242240	13	3805
2026-01-21 07:12:51.92	286.38	11.39	-26.4	-27.1	14.3	2.20e-06	0	44	0	3156213760	13	3889
2026-01-21 07:12:54.93	285.93	11.22	-26.3	-26.8	14.5	0.00e+00	0	44	0	3178233856	13	3829
2026-01-21 07:12:57.95	285.47	11.06	-26.3	-26.9	14.4	1.10e-06	0	45	0	3200253952	13	3835
2026-01-21 07:13:00.97	285.03	10.89	-26.4	-27.1	14.3	0.00e+00	0	45	0	3222274048	13	3899
2026-01-21 07:13:03.98	284.58	10.73	-26.4	-27.0	14.3	2.20e-06	0	44	0	3243245568	13	3859
2026-01-21 07:13:06.99	284.15	10.56	-26.5	-27.4	14.1	1.10e-06	0	45	0	3265265664	13	3955
2026-01-21 07:13:09.99	283.72	10.40	-26.5	-27.3	14.1	0.00e+00	0	44	0	3287285760	13	3952
2026-01-21 07:13:12.99	283.29	10.23	-26.7	-27.7	13.9	2.20e-06	0	45	0	3309305856	13	4052
2026-01-21 07:13:16.01	282.87	10.07	-26.7	-27.6	13.9	1.10e-06	0	44	0	3330277376	13	4032
2026-01-21 07:13:19.02	282.45	9.90	-26.8	-28.1	13.7	3.40e-06	0	45	0	3352297472	13	4141
2026-01-21 07:13:22.02	282.04	9.73	-26.5	-27.3	14.1	1.10e-06	0	44	0	3374317568	13	3948
2026-01-21 07:13:25.03	281.64	9.56	-26.8	-27.9	13.8	4.50e-06	0	45	0	3395289088	13	4084
2026-01-21 07:13:28.04	281.23	9.40	-26.6	-27.5	14.0	2.20e-06	0	45	0	3417309184	13	3992
2026-01-21 07:13:31.04	280.84	9.23	-26.8	-28.0	13.6	5.70e-06	0	44	0	3439329280	13	4127
2026-01-21 07:13:34.05	280.44	9.06	-26.9	-28.2	13.5	1.94e-05	0	45	0	3460300800	13	4174
2026-01-21 07:13:37.06	280.05	8.89	-27.0	-28.5	13.3	1.71e-05	0	45	0	3482320896	13	4270
2026-01-21 07:13:40.07	279.67	8.72	-27.1	-28.1	13.3	3.08e-05	0	45	0	3504340992	14	4056
2026-01-21 07:13:43.08	279.29	8.56	-26.9	-27.8	13.5	9.10e-06	0	45	0	3525312512	14	3967
2026-01-21 07:13:46.09	278.92	8.39	-26.9	-27.7	13.5	1.83e-05	0	44	0	3547332608	14	3956
2026-01-21 07:13:49.10	278.55	8.22	-27.0	-27.9	13.4	1.83e-05	0	45	0	3569352704	14	4008
2026-01-21 07:13:52.10	278.18	8.05	-26.9	-27.7	13.4	1.60e-05	0	45	0	3591372800	14	3951
2026-01-21 07:13:55.11	277.82	7.88	-26.9	-27.8	13.4	1.71e-05	0	44	0	3612344320	14	3970
2026-01-21 07:13:58.12	277.46	7.71	-27.2	-28.3	13.1	4.34e-05	0	45	0	3634364416	14	4107
2026-01-21 07:14:01.13	277.11	7.54	-27.1	-28.2	13.1	3.43e-05	0	45	0	3656384512	14	4076
2026-01-21 07:14:04.13	276.76	7.38	-27.2	-28.4	13.0	3.89e-05	0	44	0	3677356032	14	4127
2026-01-21 07:14:07.14	276.41	7.21	-27.2	-28.4	12.9	4.80e-05	0	45	0	3699376128	14	4149
2026-01-21 07:14:10.15	276.07	7.04	-33.2	-42.7	3.8	8.45e-01	0	45	104	3715104768	26	10802

#Closed at: 2026-01-21 07:14:12
#Recorded file [3715 MB]: D:/data/31010_260121_100534.dat