passes_logs/2026/01/21/R2M6_AANII_01/R2M6_AANII_01__20260121_011936_AQUA_rec.log

#Pass ID: 20260121_011936_AQUA
#Satellite: AQUA
#Configuration: AQUA
#almurnet v.1.7.20240730
#Start time: 2026-01-21 01:19:37

#Version: 2.2.20231116
#Station: R2M6_AANII_01
#Location: 30.233357 lon 59.946436 lat
#TLE: 1 27424U 02022A   26020.30984080  .00001497  00000+0  30942-3 0  9998
#TLE: 2 27424  98.4092 346.8266 0001984  71.7888  69.0903 14.61835321261661

#Time	Az	El	Level	Level2	SNR	BER	BlckErr	Temp	State	Recorded	gain1	gain2
2026-01-21 01:19:37.72	23.37	7.12	-31.4	-45.9	3.8	7.45e-01	0	42	0	0	23	19108
2026-01-21 01:19:40.72	23.53	7.36	-31.6	-45.9	3.8	7.43e-01	0	42	104	0	24	18720
2026-01-21 01:19:43.73	23.69	7.60	-31.2	-45.2	3.8	7.44e-01	0	42	104	0	23	17966
2026-01-21 01:19:46.73	23.86	7.84	-30.7	-44.1	3.8	7.46e-01	0	42	104	0	22	16845
2026-01-21 01:19:49.74	24.03	8.08	-30.5	-44.0	3.8	7.44e-01	0	43	104	0	21	17050
2026-01-21 01:19:52.76	24.20	8.33	-30.9	-44.7	3.8	7.44e-01	0	43	104	0	22	17654
2026-01-21 01:19:55.78	24.38	8.58	-31.4	-45.9	3.8	7.44e-01	0	43	104	0	23	19074
2026-01-21 01:19:58.79	24.56	8.83	-31.5	-46.1	3.8	7.45e-01	0	43	104	0	23	19329
2026-01-21 01:20:01.79	24.74	9.08	-32.0	-47.2	3.8	7.45e-01	0	43	104	0	24	20653
2026-01-21 01:20:04.81	24.92	9.34	-32.5	-48.9	3.8	7.45e-01	0	43	104	0	25	23676
2026-01-21 01:20:07.82	25.11	9.60	-33.1	-51.2	3.8	7.44e-01	0	43	104	0	26	28973
2026-01-21 01:20:10.82	25.30	9.86	-33.3	-51.9	3.8	7.46e-01	0	43	104	0	27	30650
2026-01-21 01:20:13.82	25.49	10.12	-33.3	-52.2	3.8	7.44e-01	0	43	104	0	27	31706
2026-01-21 01:20:16.83	25.69	10.39	-33.3	-51.9	3.8	7.47e-01	0	43	104	0	27	30649
2026-01-21 01:20:19.84	25.89	10.66	-32.0	-49.3	3.8	7.44e-01	0	43	104	0	27	26374
2026-01-21 01:20:22.85	26.10	10.93	-32.7	-48.7	3.8	7.44e-01	0	43	104	0	26	22901
2026-01-21 01:20:25.85	26.31	11.21	-32.2	-47.2	3.8	7.44e-01	0	43	104	0	25	20363
2026-01-21 01:20:28.87	26.52	11.49	-31.4	-45.6	3.8	7.44e-01	0	43	104	0	23	18432
2026-01-21 01:20:31.86	26.74	11.77	-30.8	-44.0	3.8	7.44e-01	0	43	104	0	22	16558
2026-01-21 01:20:34.87	26.96	12.06	-30.2	-43.2	3.8	7.44e-01	0	44	104	0	21	15907
2026-01-21 01:20:37.88	27.19	12.35	-30.1	-42.8	3.8	7.42e-01	0	43	104	0	21	15528
2026-01-21 01:20:40.90	27.42	12.65	-30.2	-42.9	3.8	7.42e-01	0	44	104	0	21	15569
2026-01-21 01:20:43.92	27.66	12.94	-30.8	-44.2	3.8	7.44e-01	0	44	104	0	22	16719
2026-01-21 01:20:46.93	27.90	13.25	-31.4	-45.3	3.8	7.44e-01	0	44	104	0	23	17849
2026-01-21 01:20:49.95	28.15	13.55	-32.0	-46.8	3.8	7.47e-01	0	44	104	0	24	19745
2026-01-21 01:20:52.95	28.40	13.86	-32.7	-48.4	3.8	7.43e-01	0	44	104	0	26	21986
2026-01-21 01:20:55.97	28.65	14.17	-33.2	-50.3	3.8	7.45e-01	0	44	104	0	27	25788
2026-01-21 01:20:58.98	28.92	14.49	-33.5	-47.7	5.0	7.10e-01	0	44	0	0	27	18514
2026-01-21 01:21:01.98	29.18	14.81	-33.3	-44.7	7.0	6.61e-01	0	44	0	3145728	27	13314
2026-01-21 01:21:04.99	29.46	15.14	-33.1	-42.5	9.0	6.32e-01	0	44	0	8912896	27	10578
2026-01-21 01:21:08.00	29.74	15.47	-32.9	-40.8	10.5	6.16e-01	0	44	0	14680064	27	8972
2026-01-21 01:21:11.01	30.02	15.80	-31.8	-36.7	14.7	6.00e-01	0	44	0	19922944	25	6349
2026-01-21 01:21:14.03	30.32	16.14	-30.7	-34.5	17.4	6.00e-01	0	44	0	25690112	22	5580
2026-01-21 01:21:17.05	30.62	16.49	-30.1	-33.2	18.5	6.01e-01	0	44	0	31457280	21	5187
2026-01-21 01:21:20.06	30.93	16.83	-30.3	-33.8	18.1	6.02e-01	0	44	0	37224448	21	5419
2026-01-21 01:21:23.07	31.24	17.19	-29.6	-32.4	19.3	6.00e-01	0	44	0	42467328	20	4976
2026-01-21 01:21:26.07	31.56	17.54	-29.7	-32.8	19.1	6.03e-01	0	44	0	48234496	20	5136
2026-01-21 01:21:29.08	31.89	17.91	-29.5	-32.3	19.4	6.03e-01	0	44	0	54001664	20	4939
2026-01-21 01:21:32.09	32.23	18.27	-29.7	-32.7	19.2	6.00e-01	0	44	0	59768832	20	5086
2026-01-21 01:21:35.11	32.58	18.65	-29.7	-32.8	19.2	6.01e-01	0	44	0	65011712	20	5113
2026-01-21 01:21:38.12	32.94	19.03	-29.8	-33.0	19.1	5.97e-01	0	44	0	70778880	20	5186
2026-01-21 01:21:41.13	33.30	19.41	-29.6	-32.3	19.4	5.99e-01	0	44	0	76546048	20	4956
2026-01-21 01:21:44.13	33.67	19.80	-29.8	-33.0	19.1	6.01e-01	0	44	0	82313216	20	5190
2026-01-21 01:21:47.14	34.06	20.19	-29.5	-32.1	19.7	6.01e-01	0	44	0	88080384	20	4861
2026-01-21 01:21:50.15	34.45	20.60	-29.7	-32.6	19.3	6.02e-01	0	44	0	93323264	20	5043
2026-01-21 01:21:53.15	34.86	21.00	-29.6	-32.4	19.5	6.02e-01	0	44	0	99090432	20	4959
2026-01-21 01:21:56.17	35.27	21.41	-29.5	-32.2	19.6	6.03e-01	0	44	0	104857600	20	4886
2026-01-21 01:21:59.17	35.70	21.83	-29.6	-32.3	19.6	5.99e-01	0	44	0	110100480	20	4940
2026-01-21 01:22:02.18	36.14	22.26	-29.6	-32.4	18.8	6.01e-01	0	44	0	115867648	20	4969
2026-01-21 01:22:05.16	36.59	22.68	-29.7	-32.6	19.3	6.04e-01	0	44	0	121634816	20	5039
2026-01-21 01:22:08.18	37.05	23.12	-29.7	-32.6	19.5	6.04e-01	0	44	0	127401984	20	5017
2026-01-21 01:22:11.19	37.53	23.57	-29.6	-32.5	19.6	6.01e-01	0	44	0	133169152	20	4976
2026-01-21 01:22:14.20	38.03	24.02	-29.7	-32.5	19.5	6.00e-01	0	44	0	138412032	20	4992
2026-01-21 01:22:17.21	38.53	24.47	-29.6	-32.3	19.6	6.02e-01	0	44	0	144179200	20	4931
2026-01-21 01:22:20.22	39.06	24.94	-29.5	-31.9	19.9	6.01e-01	0	44	0	149946368	20	4794
2026-01-21 01:22:23.22	39.59	25.40	-29.6	-32.2	19.7	6.03e-01	0	44	0	155713536	20	4897
2026-01-21 01:22:26.23	40.15	25.88	-29.5	-32.0	19.9	6.04e-01	0	44	0	160956416	20	4821
2026-01-21 01:22:29.23	40.72	26.36	-29.6	-32.2	19.8	6.01e-01	0	44	0	166723584	20	4891
2026-01-21 01:22:32.24	41.31	26.85	-29.6	-32.3	19.7	6.02e-01	0	44	0	172490752	20	4912
2026-01-21 01:22:35.25	41.92	27.35	-29.9	-33.1	19.3	6.01e-01	0	44	0	178257920	20	5191
2026-01-21 01:22:38.26	42.55	27.85	-29.6	-32.4	19.7	6.01e-01	0	44	0	183500800	20	4940
2026-01-21 01:22:41.26	43.20	28.36	-29.6	-32.2	19.9	6.00e-01	0	44	0	189267968	20	4869
2026-01-21 01:22:44.27	43.87	28.87	-29.7	-32.6	19.6	6.02e-01	0	44	0	195035136	20	5017
2026-01-21 01:22:47.27	44.56	29.39	-29.5	-31.9	20.1	6.01e-01	0	44	0	200802304	20	4784
2026-01-21 01:22:50.29	45.28	29.92	-29.4	-31.8	20.2	6.01e-01	0	44	0	206045184	20	4722
2026-01-21 01:22:53.30	46.02	30.45	-29.5	-32.1	20.0	6.01e-01	0	44	0	211812352	20	4842
2026-01-21 01:22:56.33	46.79	30.99	-29.6	-32.2	19.9	6.00e-01	0	44	0	217579520	20	4875
2026-01-21 01:22:59.33	47.58	31.53	-29.4	-31.8	20.2	6.00e-01	0	44	0	223346688	20	4737
2026-01-21 01:23:02.34	48.40	32.08	-29.7	-32.4	19.8	6.01e-01	0	44	0	229113856	20	4926
2026-01-21 01:23:05.34	49.25	32.63	-29.8	-32.7	19.7	5.99e-01	0	44	0	234356736	20	5033
2026-01-21 01:23:08.35	50.13	33.19	-30.0	-33.2	19.4	6.00e-01	0	44	0	240123904	20	5199
2026-01-21 01:23:11.36	51.04	33.75	-29.8	-32.6	19.7	6.01e-01	0	44	0	245891072	20	4997
2026-01-21 01:23:14.37	51.98	34.32	-29.9	-33.0	19.6	6.01e-01	0	45	0	251133952	20	5125
2026-01-21 01:23:17.38	52.96	34.88	-30.0	-33.3	19.3	6.03e-01	0	44	0	256901120	20	5263
2026-01-21 01:23:20.38	53.97	35.45	-30.3	-33.6	18.9	6.02e-01	0	44	0	262668288	21	5231
2026-01-21 01:23:23.38	55.01	36.02	-30.2	-33.2	19.1	6.00e-01	0	44	0	268435456	21	5090
2026-01-21 01:23:26.40	56.10	36.59	-30.4	-33.9	18.7	6.02e-01	0	44	0	274202624	21	5344
2026-01-21 01:23:29.41	57.23	37.15	-30.6	-33.8	18.5	6.00e-01	0	44	0	279445504	22	5224
2026-01-21 01:23:32.40	58.38	37.72	-30.7	-34.0	18.3	6.00e-01	0	44	0	285212672	22	5282
2026-01-21 01:23:35.41	59.59	38.28	-30.2	-33.1	19.2	6.04e-01	0	44	0	290979840	21	5068
2026-01-21 01:23:38.40	60.83	38.83	-30.0	-33.3	19.4	6.02e-01	0	44	0	296222720	20	5239
2026-01-21 01:23:41.41	62.12	39.39	-29.9	-32.9	19.7	6.01e-01	0	44	0	301989888	20	5092
2026-01-21 01:23:44.42	63.46	39.93	-30.1	-33.0	19.4	6.01e-01	0	44	0	307757056	21	5011
2026-01-21 01:23:47.44	64.85	40.47	-30.4	-33.6	18.8	6.01e-01	0	44	0	313524224	21	5259
2026-01-21 01:23:50.45	66.28	41.00	-30.0	-33.3	19.4	6.03e-01	0	44	0	319291392	20	5256
2026-01-21 01:23:53.45	67.75	41.51	-30.1	-33.0	19.2	5.99e-01	0	44	0	324534272	21	5020
2026-01-21 01:23:56.46	69.27	42.01	-30.0	-33.1	19.6	6.01e-01	0	45	0	330301440	20	5161
2026-01-21 01:23:59.47	70.85	42.50	-29.3	-31.6	20.4	6.02e-01	0	45	0	336068608	20	4643
2026-01-21 01:24:02.48	72.47	42.97	-29.5	-31.9	20.3	6.01e-01	0	44	0	341835776	20	4738
2026-01-21 01:24:05.50	74.14	43.42	-29.2	-31.1	20.8	6.01e-01	0	44	0	347078656	20	4485
2026-01-21 01:24:08.51	75.86	43.85	-29.3	-31.9	20.6	6.01e-01	0	45	0	352845824	19	4862
2026-01-21 01:24:11.51	77.61	44.25	-29.5	-32.4	20.3	6.02e-01	0	44	0	358612992	19	5030
2026-01-21 01:24:14.51	79.41	44.62	-29.6	-32.6	20.2	6.00e-01	0	45	0	364380160	19	5101
2026-01-21 01:24:17.53	81.26	44.97	-29.6	-32.2	20.1	6.01e-01	0	45	0	369623040	20	4844
2026-01-21 01:24:20.55	83.16	45.30	-30.0	-33.1	19.5	6.00e-01	0	44	0	375390208	20	5166
2026-01-21 01:24:23.56	85.08	45.58	-29.6	-31.7	20.1	6.00e-01	0	44	0	381157376	21	4580
2026-01-21 01:24:26.58	87.04	45.84	-29.8	-32.2	19.9	6.01e-01	0	44	0	386924544	21	4722
2026-01-21 01:24:29.59	89.03	46.06	-29.9	-32.4	19.7	6.04e-01	0	44	0	392691712	21	4810
2026-01-21 01:24:32.60	91.05	46.25	-30.0	-32.6	19.6	6.03e-01	0	44	0	397934592	21	4864
2026-01-21 01:24:35.61	93.08	46.39	-30.2	-33.2	19.2	6.02e-01	0	44	0	403701760	21	5077
2026-01-21 01:24:38.62	95.13	46.50	-29.7	-32.0	20.0	6.02e-01	0	44	0	409468928	21	4670
2026-01-21 01:24:41.62	97.19	46.57	-29.9	-32.4	19.7	6.02e-01	0	45	0	414711808	21	4791
2026-01-21 01:24:44.63	99.26	46.60	-29.9	-32.3	19.8	6.02e-01	0	44	0	420478976	21	4779
2026-01-21 01:24:47.63	101.33	46.59	-29.9	-32.3	19.8	6.00e-01	0	45	0	426246144	21	4775
2026-01-21 01:24:50.65	103.40	46.54	-29.8	-32.2	19.9	6.02e-01	0	45	0	432013312	21	4730
2026-01-21 01:24:53.65	105.46	46.45	-30.3	-33.5	19.1	6.04e-01	0	45	0	437780480	21	5186
2026-01-21 01:24:56.67	107.51	46.32	-29.9	-32.5	19.7	6.01e-01	0	44	0	443023360	21	4820
2026-01-21 01:24:59.67	109.53	46.16	-30.1	-32.8	19.4	6.02e-01	0	45	0	448790528	21	4947
2026-01-21 01:25:02.66	111.52	45.96	-30.3	-33.5	19.1	6.00e-01	0	45	0	454557696	21	5189
2026-01-21 01:25:05.68	113.50	45.72	-30.0	-32.6	19.6	6.02e-01	0	44	0	460324864	21	4873
2026-01-21 01:25:08.68	115.44	45.45	-30.3	-33.4	19.2	6.01e-01	0	44	0	465567744	21	5150
2026-01-21 01:25:11.69	117.35	45.14	-30.4	-33.5	19.1	6.00e-01	0	44	0	471334912	21	5199
2026-01-21 01:25:14.70	119.22	44.81	-30.2	-33.0	19.4	6.03e-01	0	44	0	477102080	21	5011
2026-01-21 01:25:17.71	121.05	44.44	-30.2	-33.1	19.3	6.02e-01	0	44	0	482869248	21	5052
2026-01-21 01:25:20.72	122.84	44.05	-30.2	-33.2	19.2	6.02e-01	0	45	0	488112128	21	5085
2026-01-21 01:25:23.72	124.57	43.63	-30.3	-33.4	19.2	6.01e-01	0	44	0	493879296	21	5155
2026-01-21 01:25:26.75	126.28	43.19	-30.3	-33.4	19.2	6.00e-01	0	45	0	499646464	21	5145
2026-01-21 01:25:29.75	127.92	42.73	-30.1	-33.0	19.4	6.01e-01	0	44	0	505413632	21	5005
2026-01-21 01:25:32.76	129.52	42.26	-30.3	-33.5	19.1	6.00e-01	0	45	0	510656512	21	5172
2026-01-21 01:25:35.77	131.08	41.76	-30.4	-33.7	19.0	6.01e-01	0	44	0	516423680	21	5269
2026-01-21 01:25:38.78	132.58	41.25	-30.2	-32.8	19.2	6.00e-01	0	45	0	522190848	22	4862
2026-01-21 01:25:41.80	134.04	40.72	-30.4	-33.3	18.7	6.00e-01	0	44	0	527958016	22	5001
2026-01-21 01:25:44.80	135.45	40.19	-30.5	-33.9	18.8	6.01e-01	0	44	0	533200896	21	5357
2026-01-21 01:25:47.81	136.81	39.65	-30.5	-33.9	18.8	6.01e-01	0	45	0	538968064	21	5341
2026-01-21 01:25:50.82	138.13	39.09	-30.7	-34.0	18.5	5.99e-01	0	45	0	544735232	22	5241
2026-01-21 01:25:53.83	139.41	38.54	-31.0	-34.8	18.0	6.01e-01	0	44	0	550502400	22	5565
2026-01-21 01:25:56.83	140.63	37.97	-30.9	-34.5	18.2	6.03e-01	0	44	0	556269568	22	5449
2026-01-21 01:25:59.84	141.82	37.41	-30.7	-34.0	18.5	5.99e-01	0	44	0	561512448	22	5269
2026-01-21 01:26:02.85	142.97	36.84	-30.1	-33.0	19.4	6.02e-01	0	45	0	567279616	21	4989
2026-01-21 01:26:05.86	144.08	36.26	-30.2	-33.2	19.2	6.01e-01	0	45	0	573046784	21	5092
2026-01-21 01:26:08.87	145.15	35.69	-30.2	-33.1	19.3	6.01e-01	0	45	0	578289664	21	5034
2026-01-21 01:26:11.87	146.17	35.12	-29.9	-32.9	19.7	6.01e-01	0	44	0	584056832	20	5088
2026-01-21 01:26:14.88	147.17	34.55	-29.6	-32.1	20.2	6.03e-01	0	44	0	589824000	20	4831
2026-01-21 01:26:17.89	148.13	33.98	-29.4	-31.8	20.3	6.01e-01	0	44	0	595591168	20	4716
2026-01-21 01:26:20.89	149.06	33.42	-29.4	-32.2	20.4	6.00e-01	0	45	0	601358336	19	4965
2026-01-21 01:26:23.90	149.96	32.86	-29.3	-31.9	20.6	6.00e-01	0	45	0	606601216	19	4862
2026-01-21 01:26:26.90	150.82	32.30	-29.5	-32.3	20.4	6.01e-01	0	45	0	612368384	19	4982
2026-01-21 01:26:29.91	151.65	31.75	-29.4	-32.0	20.5	6.00e-01	0	44	0	618135552	19	4903
2026-01-21 01:26:32.92	152.46	31.20	-29.2	-31.7	20.7	6.00e-01	0	44	0	623902720	19	4789
2026-01-21 01:26:35.92	153.24	30.66	-29.2	-31.6	20.8	6.01e-01	0	45	0	629145600	19	4749
2026-01-21 01:26:38.93	154.00	30.12	-29.3	-31.9	20.5	6.03e-01	0	44	0	634912768	19	4869
2026-01-21 01:26:41.93	154.73	29.59	-29.4	-32.0	20.4	6.01e-01	0	45	0	640679936	19	4908
2026-01-21 01:26:44.94	155.43	29.06	-29.4	-32.1	20.4	6.04e-01	0	45	0	646447104	19	4934
2026-01-21 01:26:47.95	156.12	28.54	-29.5	-32.4	20.2	5.99e-01	0	45	0	651689984	19	5042
2026-01-21 01:26:50.96	156.78	28.02	-29.6	-32.3	19.9	6.03e-01	0	44	0	657457152	20	4893
2026-01-21 01:26:53.98	157.42	27.51	-29.6	-32.2	19.9	6.01e-01	0	44	0	663224320	20	4863
2026-01-21 01:26:56.98	158.04	27.01	-29.8	-32.7	19.6	6.00e-01	0	44	0	668991488	20	5032
2026-01-21 01:26:59.98	158.64	26.52	-29.6	-32.3	19.8	5.99e-01	0	45	0	674234368	20	4914
2026-01-21 01:27:02.98	159.22	26.03	-29.9	-33.0	19.4	5.99e-01	0	45	0	680001536	20	5144
2026-01-21 01:27:05.99	159.78	25.55	-29.6	-32.3	19.8	6.02e-01	0	44	0	685768704	20	4914
2026-01-21 01:27:09.00	160.33	25.08	-29.7	-32.5	19.7	6.02e-01	0	45	0	691535872	20	4987
2026-01-21 01:27:12.00	160.86	24.61	-29.7	-32.5	19.6	5.99e-01	0	44	0	696778752	20	5004
2026-01-21 01:27:15.00	161.37	24.15	-29.8	-32.9	19.4	6.04e-01	0	44	0	702545920	20	5149
2026-01-21 01:27:18.01	161.87	23.69	-29.8	-32.9	19.5	6.02e-01	0	45	0	708313088	20	5114
2026-01-21 01:27:21.02	162.36	23.24	-29.8	-32.7	19.5	6.02e-01	0	44	0	714080256	20	5065
2026-01-21 01:27:24.02	162.83	22.80	-30.0	-33.3	19.1	6.00e-01	0	44	0	719323136	20	5282
2026-01-21 01:27:27.03	163.29	22.36	-29.9	-33.2	19.2	6.05e-01	0	45	0	725090304	20	5270
2026-01-21 01:27:30.03	163.73	21.94	-30.0	-33.5	18.9	6.02e-01	0	45	0	730857472	20	5413
2026-01-21 01:27:33.05	164.17	21.51	-29.6	-32.5	19.5	6.00e-01	0	44	0	736624640	20	5032
2026-01-21 01:27:36.06	164.59	21.09	-29.6	-32.6	19.4	6.01e-01	0	45	0	741867520	20	5050
2026-01-21 01:27:39.07	165.00	20.68	-29.6	-32.9	18.3	6.02e-01	0	44	0	747634688	19	5286
2026-01-21 01:27:42.09	165.40	20.27	-29.6	-32.5	19.5	6.01e-01	0	45	0	753401856	20	4991
2026-01-21 01:27:45.09	165.79	19.87	-29.6	-32.4	19.6	6.00e-01	0	45	0	759169024	20	4947
2026-01-21 01:27:48.10	166.17	19.48	-29.6	-32.3	19.7	6.01e-01	0	45	0	764411904	20	4929
2026-01-21 01:27:51.11	166.53	19.09	-29.6	-32.8	19.7	5.98e-01	0	44	0	770179072	19	5196
2026-01-21 01:27:54.12	166.89	18.71	-29.5	-32.2	19.6	6.02e-01	0	45	0	775946240	20	4899
2026-01-21 01:27:57.13	167.24	18.33	-29.5	-32.6	19.7	6.02e-01	0	45	0	781713408	19	5139
2026-01-21 01:28:00.13	167.59	17.96	-29.5	-32.6	19.8	6.01e-01	0	45	0	787480576	19	5136
2026-01-21 01:28:03.15	167.92	17.59	-29.5	-32.7	19.7	6.01e-01	0	45	0	792723456	19	5195
2026-01-21 01:28:06.15	168.24	17.23	-29.5	-32.3	19.5	5.99e-01	0	45	0	798490624	20	4935
2026-01-21 01:28:09.16	168.56	16.87	-29.5	-32.8	19.6	6.00e-01	0	45	0	804257792	19	5211
2026-01-21 01:28:12.17	168.87	16.52	-30.0	-33.5	18.8	6.00e-01	0	45	0	810024960	20	5379
2026-01-21 01:28:15.18	169.17	16.17	-29.5	-32.7	19.6	6.00e-01	0	45	0	815267840	19	5199
2026-01-21 01:28:18.19	169.47	15.83	-29.6	-32.9	19.5	6.03e-01	0	45	0	821035008	19	5251
2026-01-21 01:28:21.18	169.76	15.50	-29.9	-33.3	18.8	6.01e-01	0	45	0	826802176	20	5317
2026-01-21 01:28:24.19	170.04	15.16	-29.7	-32.9	19.1	5.98e-01	0	45	0	832569344	20	5179
2026-01-21 01:28:27.20	170.31	14.83	-29.6	-32.7	19.2	6.02e-01	0	44	0	837812224	20	5108
2026-01-21 01:28:30.21	170.58	14.51	-29.5	-32.9	19.3	6.01e-01	0	45	0	843579392	19	5333
2026-01-21 01:28:33.22	170.85	14.19	-29.5	-32.5	19.1	6.02e-01	0	45	0	849346560	20	5085
2026-01-21 01:28:36.23	171.11	13.87	-29.7	-33.0	18.9	6.01e-01	0	44	0	855113728	20	5240
2026-01-21 01:28:39.24	171.36	13.56	-29.7	-32.9	19.0	6.01e-01	0	45	0	860356608	20	5189
2026-01-21 01:28:42.24	171.60	13.25	-29.9	-33.5	18.6	6.02e-01	0	45	0	866123776	20	5407
2026-01-21 01:28:45.25	171.85	12.95	-29.5	-32.4	19.3	6.00e-01	0	45	0	871890944	20	5009
2026-01-21 01:28:48.27	172.08	12.64	-29.6	-32.7	19.0	6.01e-01	0	45	0	877658112	20	5123
2026-01-21 01:28:51.28	172.32	12.35	-29.7	-32.7	19.0	6.00e-01	0	45	0	882900992	20	5126
2026-01-21 01:28:54.29	172.54	12.05	-29.7	-32.9	18.9	6.00e-01	0	45	0	888668160	20	5182
2026-01-21 01:28:57.30	172.77	11.76	-29.7	-32.9	18.9	6.01e-01	0	45	0	894435328	20	5186
2026-01-21 01:29:00.30	172.98	11.48	-29.7	-32.8	19.0	6.00e-01	0	44	0	900202496	20	5149
2026-01-21 01:29:03.32	173.20	11.19	-29.7	-32.9	18.9	6.00e-01	0	45	0	905445376	20	5190
2026-01-21 01:29:06.32	173.41	10.91	-29.9	-33.4	18.5	6.02e-01	0	45	0	911212544	20	5386
2026-01-21 01:29:09.33	173.61	10.64	-30.0	-33.6	18.4	6.02e-01	0	45	0	916979712	20	5447
2026-01-21 01:29:12.33	173.81	10.37	-30.5	-34.7	17.4	5.98e-01	0	45	0	922746880	21	5801
2026-01-21 01:29:15.33	174.01	10.10	-30.5	-34.5	17.5	6.01e-01	0	45	0	927989760	21	5702
2026-01-21 01:29:18.34	174.21	9.83	-30.7	-34.5	17.1	6.02e-01	0	45	0	933756928	22	5627
2026-01-21 01:29:21.34	174.40	9.56	-30.5	-34.5	17.4	5.99e-01	0	45	0	939524096	21	5742
2026-01-21 01:29:24.35	174.58	9.30	-30.1	-33.5	18.0	6.01e-01	0	45	0	945291264	21	5311
2026-01-21 01:29:27.36	174.77	9.04	-30.1	-33.9	18.0	5.99e-01	0	45	0	950534144	20	5582
2026-01-21 01:29:30.37	174.95	8.79	-30.1	-34.0	18.0	6.00e-01	0	44	0	956301312	20	5626
2026-01-21 01:29:33.38	175.13	8.53	-30.2	-33.9	17.7	6.02e-01	0	45	0	962068480	21	5481
2026-01-21 01:29:36.40	175.30	8.28	-30.1	-34.0	17.9	6.03e-01	0	44	0	967835648	20	5668
2026-01-21 01:29:39.41	175.47	8.03	-30.2	-33.8	17.7	6.03e-01	0	45	0	973078528	21	5474
2026-01-21 01:29:42.43	175.64	7.79	-30.2	-34.0	17.6	6.01e-01	0	45	0	978845696	21	5537
2026-01-21 01:29:45.43	175.81	7.54	-30.3	-34.1	17.4	6.01e-01	0	45	0	984612864	21	5617
2026-01-21 01:29:48.45	175.97	7.30	-30.4	-34.5	17.1	6.02e-01	0	45	0	990380032	21	5799
2026-01-21 01:29:51.46	176.13	7.06	-33.4	-52.4	3.5	7.52e-01	0	45	104	995622912	27	32079

#Closed at: 2026-01-21 01:29:54
#Recorded file [995 MB]: D:/data/31010_260121_042058.dat