passes_logs/2026/01/21/R2M6_AANII_01/R2M6_AANII_01__20260121_002111_FENGYUN_3D_rec.log

#Pass ID: 20260121_002111_FENGYUN 3D
#Satellite: FENGYUN 3D
#Configuration: FENGYUN 3D
#almurnet v.1.7.20240730
#Start time: 2026-01-21 00:21:13

#Version: 2.2.20231116
#Station: R2M6_AANII_01
#Location: 30.233357 lon 59.946436 lat
#TLE: 1 43010U 17072A   26020.28933472  .00000051  00000+0  46008-4 0  9990
#TLE: 2 43010  98.9944 352.1871 0002476  99.7001 260.4455 14.19696838424006

#Time	Az	El	Level	Level2	SNR	BER	BlckErr	Temp	State	Recorded	gain1	gain2
2026-01-21 00:21:13.22	37.03	7.08	-29.5	-32.2	5.5	7.52e-01	0	42	0	0	19	4901
2026-01-21 00:21:16.22	37.40	7.23	-29.9	-32.1	10.3	5.35e-03	0	42	0	5242880	21	4674
2026-01-21 00:21:19.23	37.77	7.38	-29.3	-31.7	11.4	7.28e-04	0	42	0	22020096	19	4723
2026-01-21 00:21:22.25	38.14	7.54	-28.7	-30.5	12.4	1.01e-04	0	42	0	38797312	18	4469
2026-01-21 00:21:25.26	38.52	7.69	-27.9	-29.3	13.5	4.50e-06	0	43	0	55574528	17	4197
2026-01-21 00:21:28.26	38.90	7.84	-27.8	-29.1	13.7	1.10e-06	0	43	0	73400320	17	4137
2026-01-21 00:21:31.28	39.29	8.00	-27.6	-29.0	14.1	1.10e-06	0	43	0	90177536	16	4215
2026-01-21 00:21:34.28	39.67	8.15	-27.5	-28.8	14.2	1.10e-06	0	43	0	106954752	16	4161
2026-01-21 00:21:37.28	40.07	8.30	-27.1	-28.3	14.6	0.00e+00	0	43	0	123731968	15	4150
2026-01-21 00:21:40.27	40.46	8.46	-27.1	-28.4	14.5	1.10e-06	0	43	0	140509184	15	4174
2026-01-21 00:21:43.28	40.86	8.61	-27.1	-28.3	14.6	0.00e+00	0	43	0	157286400	15	4141
2026-01-21 00:21:46.30	41.27	8.76	-27.1	-28.3	14.6	1.10e-06	0	43	0	174063616	15	4142
2026-01-21 00:21:49.31	41.68	8.91	-27.1	-28.4	14.6	1.10e-06	0	43	0	190840832	15	4165
2026-01-21 00:21:52.33	42.09	9.07	-27.0	-28.1	14.7	0.00e+00	0	43	0	208666624	15	4093
2026-01-21 00:21:55.33	42.51	9.22	-27.1	-28.4	14.6	0.00e+00	0	43	0	225443840	15	4179
2026-01-21 00:21:58.35	42.94	9.37	-27.1	-28.2	14.7	0.00e+00	0	43	0	242221056	15	4121
2026-01-21 00:22:01.35	43.36	9.52	-27.1	-28.2	14.8	0.00e+00	0	43	0	258998272	15	4110
2026-01-21 00:22:04.37	43.79	9.67	-27.1	-28.2	14.7	0.00e+00	0	44	0	275775488	15	4122
2026-01-21 00:22:07.39	44.23	9.82	-27.1	-28.8	14.7	0.00e+00	0	44	0	293601280	14	4394
2026-01-21 00:22:10.41	44.67	9.97	-26.8	-28.7	15.0	0.00e+00	0	44	0	310378496	13	4468
2026-01-21 00:22:13.42	45.11	10.12	-26.7	-28.5	15.1	0.00e+00	0	44	0	327155712	13	4398
2026-01-21 00:22:16.43	45.56	10.27	-26.6	-28.1	15.4	0.00e+00	0	43	0	343932928	13	4305
2026-01-21 00:22:19.42	46.01	10.41	-26.6	-28.3	15.3	0.00e+00	0	44	0	360710144	13	4337
2026-01-21 00:22:22.43	46.47	10.56	-26.7	-28.5	15.2	0.00e+00	0	44	0	377487360	13	4395
2026-01-21 00:22:25.44	46.93	10.70	-26.7	-28.3	15.3	0.00e+00	0	44	0	394264576	13	4348
2026-01-21 00:22:28.45	47.40	10.85	-26.6	-28.3	15.4	0.00e+00	0	44	0	411041792	13	4338
2026-01-21 00:22:31.46	47.87	10.99	-26.5	-28.0	15.5	0.00e+00	0	44	0	428867584	13	4260
2026-01-21 00:22:34.46	48.34	11.14	-26.4	-27.7	15.6	0.00e+00	0	44	0	445644800	13	4196
2026-01-21 00:22:37.47	48.82	11.28	-26.7	-28.3	15.3	0.00e+00	0	44	0	462422016	13	4351
2026-01-21 00:22:40.48	49.30	11.42	-26.7	-28.4	15.3	0.00e+00	0	44	0	479199232	13	4383
2026-01-21 00:22:43.49	49.79	11.56	-26.8	-28.6	15.2	0.00e+00	0	44	0	495976448	13	4417
2026-01-21 00:22:46.49	50.28	11.70	-26.5	-27.8	15.6	0.00e+00	0	44	0	512753664	13	4217
2026-01-21 00:22:49.51	50.78	11.84	-26.4	-27.6	15.8	0.00e+00	0	44	0	529530880	13	4167
2026-01-21 00:22:52.52	51.29	11.98	-26.1	-27.1	16.0	0.00e+00	0	44	0	546308096	13	4030
2026-01-21 00:22:55.52	51.79	12.11	-26.2	-27.2	16.0	0.00e+00	0	44	0	564133888	13	4044
2026-01-21 00:22:58.54	52.30	12.25	-26.2	-27.2	16.0	0.00e+00	0	44	0	580911104	13	4054
2026-01-21 00:23:01.54	52.82	12.38	-26.4	-27.7	15.8	0.00e+00	0	44	0	597688320	13	4170
2026-01-21 00:23:04.55	53.34	12.51	-26.2	-27.3	16.0	0.00e+00	0	44	0	614465536	13	4076
2026-01-21 00:23:07.56	53.86	12.64	-26.3	-27.4	15.9	0.00e+00	0	44	0	631242752	13	4110
2026-01-21 00:23:10.57	54.39	12.77	-26.3	-28.0	15.8	0.00e+00	0	44	0	648019968	12	4377
2026-01-21 00:23:13.58	54.93	12.90	-26.1	-27.5	16.1	0.00e+00	0	44	0	665845760	12	4234
2026-01-21 00:23:16.59	55.47	13.03	-25.9	-27.1	16.4	0.00e+00	0	44	0	682622976	12	4124
2026-01-21 00:23:19.61	56.01	13.15	-26.1	-27.6	16.1	0.00e+00	0	44	0	699400192	12	4255
2026-01-21 00:23:22.62	56.56	13.27	-26.2	-27.8	16.0	0.00e+00	0	44	0	716177408	12	4322
2026-01-21 00:23:25.62	57.11	13.40	-26.1	-27.6	16.1	0.00e+00	0	44	0	732954624	12	4279
2026-01-21 00:23:28.62	57.66	13.51	-26.1	-27.5	16.2	0.00e+00	0	44	0	749731840	12	4248
2026-01-21 00:23:31.64	58.23	13.63	-25.8	-26.9	16.2	0.00e+00	0	44	0	766509056	12	4090
2026-01-21 00:23:34.65	58.79	13.75	-26.1	-27.6	16.1	0.00e+00	0	44	0	784334848	12	4259
2026-01-21 00:23:37.67	59.36	13.86	-25.8	-26.9	16.5	0.00e+00	0	44	0	801112064	12	4077
2026-01-21 00:23:40.67	59.94	13.97	-25.6	-26.4	16.8	0.00e+00	0	44	0	817889280	12	3959
2026-01-21 00:23:43.68	60.51	14.08	-25.6	-26.3	16.9	0.00e+00	0	44	0	834666496	12	3934
2026-01-21 00:23:46.70	61.10	14.19	-25.6	-27.0	16.8	2.68e-04	0	44	0	851443712	11	4213
2026-01-21 00:23:49.72	61.69	14.29	-25.7	-27.1	16.7	1.48e-05	0	44	0	868220928	11	4244
2026-01-21 00:23:52.72	62.27	14.39	-25.9	-27.5	16.5	0.00e+00	0	44	0	884998144	11	4358
2026-01-21 00:23:55.73	62.87	14.49	-25.7	-26.7	16.7	3.96e-04	0	44	0	902823936	12	4033
2026-01-21 00:23:58.72	63.46	14.59	-25.8	-27.3	16.7	3.98e-04	0	44	0	919601152	11	4287
2026-01-21 00:24:01.73	64.06	14.69	-25.7	-26.6	16.7	3.20e-04	0	44	0	936378368	12	4013
2026-01-21 00:24:04.75	64.67	14.78	-25.8	-27.3	16.7	3.39e-04	0	44	0	953155584	11	4288
2026-01-21 00:24:07.75	65.28	14.87	-25.8	-27.4	16.6	5.50e-04	0	44	0	969932800	11	4320
2026-01-21 00:24:10.77	65.89	14.96	-25.5	-26.6	17.0	3.80e-04	0	44	0	986710016	11	4119
2026-01-21 00:24:13.77	66.51	15.04	-25.7	-27.1	16.8	5.68e-04	0	45	0	1003487232	11	4233
2026-01-21 00:24:16.79	67.13	15.12	-25.6	-26.9	16.9	0.00e+00	0	45	0	1021313024	11	4187
2026-01-21 00:24:19.81	67.76	15.20	-25.6	-26.9	16.9	3.76e-04	0	44	0	1038090240	11	4187
2026-01-21 00:24:22.82	68.38	15.28	-25.5	-26.6	17.1	0.00e+00	0	44	0	1054867456	11	4111
2026-01-21 00:24:25.84	69.01	15.35	-25.7	-27.2	16.8	0.00e+00	0	45	0	1071644672	11	4267
2026-01-21 00:24:28.84	69.64	15.42	-25.9	-27.6	16.5	0.00e+00	0	44	0	1088421888	11	4371
2026-01-21 00:24:31.85	70.28	15.48	-25.8	-27.4	16.6	0.00e+00	0	45	0	1105199104	11	4326
2026-01-21 00:24:34.86	70.92	15.55	-25.9	-27.2	16.4	0.00e+00	0	45	0	1123024896	12	4145
2026-01-21 00:24:37.87	71.56	15.61	-25.8	-26.8	16.6	0.00e+00	0	44	0	1139802112	12	4059
2026-01-21 00:24:40.88	72.20	15.66	-26.1	-27.5	16.3	0.00e+00	0	45	0	1156579328	12	4239
2026-01-21 00:24:43.87	72.84	15.72	-25.4	-26.5	17.2	0.00e+00	0	45	0	1173356544	11	4084
2026-01-21 00:24:46.88	73.49	15.77	-25.7	-27.1	16.8	0.00e+00	0	45	0	1190133760	11	4235
2026-01-21 00:24:49.90	74.14	15.82	-25.8	-27.3	16.7	0.00e+00	0	44	0	1206910976	11	4283
2026-01-21 00:24:52.90	74.79	15.86	-25.9	-27.7	16.3	0.00e+00	0	45	0	1223688192	11	4422
2026-01-21 00:24:55.91	75.44	15.90	-25.6	-27.0	16.8	0.00e+00	0	45	0	1240465408	11	4215
2026-01-21 00:24:58.91	76.10	15.94	-25.7	-27.2	16.7	0.00e+00	0	44	0	1258291200	11	4279
2026-01-21 00:25:01.92	76.75	15.97	-25.3	-26.4	17.0	0.00e+00	0	45	0	1275068416	11	4086
2026-01-21 00:25:04.93	77.41	16.00	-25.5	-26.7	16.9	0.00e+00	0	44	0	1291845632	11	4147
2026-01-21 00:25:07.95	78.07	16.03	-25.4	-26.5	17.0	0.00e+00	0	45	0	1308622848	11	4092
2026-01-21 00:25:10.97	78.73	16.05	-25.3	-26.3	17.1	0.00e+00	0	45	0	1325400064	11	4058
2026-01-21 00:25:13.98	79.40	16.07	-25.2	-26.2	17.2	0.00e+00	0	44	0	1343225856	11	4015
2026-01-21 00:25:16.99	80.06	16.08	-25.4	-26.5	17.0	0.00e+00	0	44	0	1360003072	11	4100
2026-01-21 00:25:19.98	80.72	16.10	-25.4	-26.5	17.0	0.00e+00	0	45	0	1376780288	11	4110
2026-01-21 00:25:22.99	81.38	16.10	-25.4	-26.6	17.0	0.00e+00	0	45	0	1393557504	11	4117
2026-01-21 00:25:25.99	82.04	16.11	-25.6	-26.9	16.7	0.00e+00	0	45	0	1410334720	11	4216
2026-01-21 00:25:29.00	82.71	16.11	-25.6	-27.0	16.7	0.00e+00	0	45	0	1427111936	11	4221
2026-01-21 00:25:32.02	83.37	16.11	-25.6	-27.0	16.7	0.00e+00	0	45	0	1443889152	11	4238
2026-01-21 00:25:35.02	84.03	16.10	-25.5	-26.8	16.8	3.09e-04	0	45	0	1460666368	11	4177
2026-01-21 00:25:38.02	84.69	16.09	-25.5	-26.9	16.8	2.40e-04	0	45	0	1478492160	11	4190
2026-01-21 00:25:41.04	85.36	16.08	-25.3	-26.4	17.0	0.00e+00	0	45	0	1495269376	11	4070
2026-01-21 00:25:44.06	86.02	16.06	-25.5	-26.8	16.8	0.00e+00	0	45	0	1512046592	11	4185
2026-01-21 00:25:47.08	86.69	16.04	-25.7	-27.3	16.5	7.43e-05	0	44	0	1528823808	11	4326
2026-01-21 00:25:50.08	87.35	16.02	-25.6	-26.9	16.7	1.17e-04	0	45	0	1545601024	11	4221
2026-01-21 00:25:53.09	88.01	15.99	-25.6	-27.0	16.7	3.66e-05	0	45	0	1562378240	11	4238
2026-01-21 00:25:56.10	88.66	15.96	-25.4	-26.7	16.9	6.75e-05	0	45	0	1579155456	11	4147
2026-01-21 00:25:59.11	89.32	15.92	-25.5	-26.7	16.8	1.40e-04	0	45	0	1595932672	11	4167
2026-01-21 00:26:02.13	89.98	15.89	-25.5	-26.9	16.7	0.00e+00	0	45	0	1613758464	11	4203
2026-01-21 00:26:05.15	90.63	15.84	-25.7	-27.2	16.6	0.00e+00	0	44	0	1630535680	11	4303
2026-01-21 00:26:08.15	91.28	15.80	-25.6	-27.0	16.6	1.77e-04	0	45	0	1647312896	11	4242
2026-01-21 00:26:11.15	91.93	15.75	-25.7	-27.2	16.6	2.18e-04	0	45	0	1664090112	11	4279
2026-01-21 00:26:14.16	92.58	15.70	-25.6	-27.1	16.6	2.20e-06	0	45	0	1680867328	11	4265
2026-01-21 00:26:17.18	93.23	15.64	-25.7	-27.2	16.6	1.10e-06	0	45	0	1698693120	11	4278
2026-01-21 00:26:20.20	93.87	15.58	-25.8	-27.4	16.4	0.00e+00	0	45	0	1715470336	11	4351
2026-01-21 00:26:23.20	94.51	15.52	-25.8	-27.5	16.4	0.00e+00	0	45	0	1732247552	11	4385
2026-01-21 00:26:26.20	95.15	15.46	-25.8	-27.5	16.4	0.00e+00	0	45	0	1749024768	11	4360
2026-01-21 00:26:29.20	95.78	15.39	-25.8	-27.4	16.4	0.00e+00	0	45	0	1765801984	11	4346
2026-01-21 00:26:32.21	96.42	15.32	-25.8	-27.4	16.4	0.00e+00	0	45	0	1782579200	11	4332
2026-01-21 00:26:35.23	97.05	15.24	-25.7	-27.2	16.5	0.00e+00	0	45	0	1799356416	11	4288
2026-01-21 00:26:38.24	97.67	15.17	-25.6	-27.1	16.5	0.00e+00	0	45	0	1816133632	11	4264
2026-01-21 00:26:41.24	98.30	15.09	-25.6	-27.1	16.5	0.00e+00	0	44	0	1833959424	11	4262
2026-01-21 00:26:44.24	98.91	15.01	-25.8	-27.3	16.4	0.00e+00	0	45	0	1850736640	11	4326
2026-01-21 00:26:47.23	99.53	14.92	-25.8	-27.4	16.4	0.00e+00	0	45	0	1867513856	11	4341
2026-01-21 00:26:50.25	100.14	14.83	-25.7	-27.2	16.5	0.00e+00	0	45	0	1884291072	11	4297
2026-01-21 00:26:53.25	100.75	14.74	-25.8	-27.5	16.4	0.00e+00	0	44	0	1901068288	11	4365
2026-01-21 00:26:56.25	101.35	14.65	-25.8	-27.5	16.3	0.00e+00	0	45	0	1917845504	11	4371
2026-01-21 00:26:59.26	101.96	14.55	-25.9	-27.7	16.2	0.00e+00	0	45	0	1934622720	11	4429
2026-01-21 00:27:02.25	102.55	14.45	-26.0	-27.5	16.0	0.00e+00	0	45	0	1951399936	12	4262
2026-01-21 00:27:05.25	103.14	14.35	-26.0	-27.5	16.0	0.00e+00	0	44	0	1968177152	12	4247
2026-01-21 00:27:08.28	103.74	14.25	-26.1	-27.6	15.9	0.00e+00	0	44	0	1986002944	12	4277
2026-01-21 00:27:11.28	104.32	14.14	-26.1	-27.6	15.9	0.00e+00	0	45	0	2002780160	12	4286
2026-01-21 00:27:14.27	104.90	14.03	-26.0	-27.5	16.0	0.00e+00	0	45	0	2019557376	12	4275
2026-01-21 00:27:17.26	105.48	13.92	-26.0	-27.4	16.0	0.00e+00	0	45	0	2036334592	12	4228
2026-01-21 00:27:20.26	106.05	13.81	-25.9	-27.2	16.1	0.00e+00	0	44	0	2053111808	12	4184
2026-01-21 00:27:23.27	106.62	13.70	-26.3	-28.0	15.7	0.00e+00	0	45	0	2069889024	12	4382
2026-01-21 00:27:26.28	107.19	13.58	-26.3	-28.1	15.7	0.00e+00	0	45	0	2086666240	12	4415
2026-01-21 00:27:29.29	107.75	13.46	-26.5	-28.1	15.4	0.00e+00	0	45	0	2103443456	13	4299
2026-01-21 00:27:32.28	108.30	13.34	-26.2	-27.4	15.8	0.00e+00	0	45	0	2120220672	13	4119
2026-01-21 00:27:35.30	108.86	13.22	-26.0	-27.0	16.0	0.00e+00	0	45	0	2138046464	13	4020
2026-01-21 00:27:38.31	109.41	13.09	-26.2	-27.4	15.7	0.00e+00	0	45	0	2154823680	13	4123
2026-01-21 00:27:41.33	109.95	12.97	-26.2	-27.4	15.7	0.00e+00	0	45	0	2171600896	13	4117
2026-01-21 00:27:44.33	110.49	12.84	-26.3	-27.5	15.7	1.10e-06	0	45	0	2188378112	13	4154
2026-01-21 00:27:47.33	111.02	12.71	-26.3	-27.5	15.7	0.00e+00	0	45	0	2205155328	13	4143
2026-01-21 00:27:50.34	111.55	12.58	-26.2	-27.4	15.7	0.00e+00	0	45	0	2221932544	13	4132
2026-01-21 00:27:53.35	112.08	12.45	-26.2	-27.5	15.7	0.00e+00	0	45	0	2238709760	13	4147
2026-01-21 00:27:56.36	112.60	12.31	-26.4	-27.8	15.4	0.00e+00	0	45	0	2255486976	13	4240
2026-01-21 00:27:59.37	113.12	12.18	-26.5	-27.9	15.4	0.00e+00	0	45	0	2273312768	13	4273
2026-01-21 00:28:02.38	113.63	12.04	-26.5	-28.0	15.3	0.00e+00	0	45	0	2290089984	13	4285
2026-01-21 00:28:05.39	114.14	11.90	-26.5	-28.1	15.2	0.00e+00	0	45	0	2306867200	13	4312
2026-01-21 00:28:08.40	114.64	11.77	-26.6	-28.3	15.1	0.00e+00	0	45	0	2323644416	13	4363
2026-01-21 00:28:11.40	115.13	11.63	-26.7	-28.6	14.9	0.00e+00	0	45	0	2340421632	13	4454
2026-01-21 00:28:14.42	115.63	11.48	-26.7	-28.5	15.0	0.00e+00	0	45	0	2357198848	13	4428
2026-01-21 00:28:17.43	116.12	11.34	-26.6	-28.4	15.1	0.00e+00	0	45	0	2375024640	13	4388
2026-01-21 00:28:20.43	116.60	11.20	-26.7	-28.6	14.9	0.00e+00	0	45	0	2391801856	13	4450
2026-01-21 00:28:23.44	117.08	11.05	-26.8	-28.7	14.9	0.00e+00	0	45	0	2408579072	13	4472
2026-01-21 00:28:26.45	117.56	10.91	-26.8	-28.7	14.8	0.00e+00	0	45	0	2425356288	13	4486
2026-01-21 00:28:29.46	118.03	10.76	-26.9	-29.0	14.7	0.00e+00	0	45	0	2442133504	13	4567
2026-01-21 00:28:32.46	118.49	10.62	-27.0	-29.1	14.6	0.00e+00	0	45	0	2458910720	13	4591
2026-01-21 00:28:35.46	118.95	10.47	-26.9	-29.0	14.7	0.00e+00	0	45	0	2475687936	13	4558
2026-01-21 00:28:38.46	119.41	10.32	-27.3	-29.4	14.2	1.10e-06	0	45	0	2492465152	14	4569
2026-01-21 00:28:41.47	119.86	10.17	-27.4	-29.5	14.1	1.10e-06	0	45	0	2509242368	14	4623
2026-01-21 00:28:44.48	120.31	10.02	-27.5	-29.3	13.9	3.40e-06	0	45	0	2527068160	15	4449
2026-01-21 00:28:47.51	120.76	9.87	-27.2	-29.2	14.2	2.20e-06	0	45	0	2543845376	14	4522
2026-01-21 00:28:50.52	121.20	9.72	-27.1	-29.0	14.3	1.10e-06	0	45	0	2560622592	14	4452
2026-01-21 00:28:53.53	121.63	9.57	-27.1	-28.9	14.4	1.10e-06	0	45	0	2577399808	14	4443
2026-01-21 00:28:56.53	122.06	9.42	-27.0	-28.8	14.4	0.00e+00	0	45	0	2594177024	14	4410
2026-01-21 00:28:59.53	122.49	9.27	-27.0	-28.8	14.4	0.00e+00	0	45	0	2610954240	14	4416
2026-01-21 00:29:02.54	122.91	9.11	-27.0	-28.7	14.4	0.00e+00	0	45	0	2628780032	14	4384
2026-01-21 00:29:05.55	123.33	8.96	-27.0	-28.7	14.5	0.00e+00	0	45	0	2645557248	14	4370
2026-01-21 00:29:08.57	123.74	8.81	-27.0	-28.7	14.3	0.00e+00	0	45	0	2662334464	14	4372
2026-01-21 00:29:11.58	124.15	8.65	-27.1	-28.9	14.4	0.00e+00	0	45	0	2679111680	14	4430
2026-01-21 00:29:14.59	124.56	8.50	-27.3	-29.3	14.0	2.20e-06	0	45	0	2695888896	14	4575
2026-01-21 00:29:17.61	124.96	8.34	-27.3	-29.5	13.9	7.43e-05	0	45	0	2712666112	14	4626
2026-01-21 00:29:20.63	125.36	8.19	-27.4	-29.7	13.8	2.20e-06	0	45	0	2730491904	14	4684
2026-01-21 00:29:23.65	125.75	8.03	-27.7	-29.9	13.4	1.25e-05	0	45	0	2747269120	15	4624
2026-01-21 00:29:26.66	126.14	7.88	-27.7	-29.9	13.3	1.85e-04	0	45	0	2764046336	15	4643
2026-01-21 00:29:29.66	126.52	7.72	-27.7	-30.0	13.3	7.78e-05	0	45	0	2780823552	15	4656
2026-01-21 00:29:32.66	126.90	7.57	-27.7	-29.8	13.3	1.25e-05	0	45	0	2797600768	15	4624
2026-01-21 00:29:35.67	127.28	7.41	-27.9	-30.4	13.0	2.54e-04	0	45	0	2814377984	15	4790
2026-01-21 00:29:38.68	127.65	7.26	-28.3	-30.8	12.7	3.38e-04	0	45	0	2831155200	16	4787
2026-01-21 00:29:41.68	128.02	7.10	-28.2	-30.6	12.7	1.46e-04	0	45	0	2848980992	16	4741

#Closed at: 2026-01-21 00:29:44
#Recorded file [2852 MB]: D:/data/31010_260121_032115.dat