passes_logs/2026/01/21/R2M6_AANII_01/R2M6_AANII_01__20260121_232414_NOAA_20_JPSS-1_rec.log

#Pass ID: 20260121_232414_NOAA 20 (JPSS-1)
#Satellite: NOAA 20 (JPSS-1)
#Configuration: NOAA 20
#almurnet v.1.7.20240730
#Start time: 2026-01-21 23:24:16

#Version: 2.2.20231116
#Station: R2M6_AANII_01
#Location: 30.233357 lon 59.946436 lat
#TLE: 1 43013U 17073A   26021.46221703  .00000173  00000+0  10299-3 0  9999
#TLE: 2 43013  98.7644 322.3335 0001238  29.7597 330.3649 14.19538314423652

#Time	Az	El	Level	Level2	SNR	BER	BlckErr	Temp	State	Recorded	gain1	gain2
2026-01-21 23:24:16.61	24.06	7.12	-31.6	-38.1	4.9	1.28e+00	0	42	0	0	23	7684
2026-01-21 23:24:19.62	24.23	7.34	-31.7	-38.8	7.0	1.74e-01	0	42	0	1048576	23	8125
2026-01-21 23:24:22.63	24.40	7.56	-31.4	-37.3	8.1	7.78e-02	0	42	0	7340032	23	7081
2026-01-21 23:24:25.64	24.58	7.78	-31.5	-37.9	8.1	4.74e-02	0	42	0	12582912	22	7558
2026-01-21 23:24:28.64	24.76	8.00	-31.4	-37.5	8.5	3.24e-02	0	42	0	17825792	22	7268
2026-01-21 23:24:31.66	24.94	8.23	-31.3	-37.2	8.7	4.03e-02	0	42	0	24117248	22	7099
2026-01-21 23:24:34.67	25.13	8.45	-31.5	-37.6	8.1	5.32e-02	0	43	0	29360128	23	7220
2026-01-21 23:24:37.67	25.31	8.68	-31.3	-37.1	8.8	3.18e-02	0	43	0	35651584	22	7016
2026-01-21 23:24:40.69	25.50	8.91	-30.9	-36.0	10.0	8.39e-03	0	42	0	40894464	21	6471
2026-01-21 23:24:43.70	25.70	9.15	-30.7	-35.5	10.4	5.16e-03	0	43	0	46137344	21	6210
2026-01-21 23:24:46.70	25.89	9.38	-30.8	-35.6	10.3	5.29e-03	0	43	0	52428800	21	6277
2026-01-21 23:24:49.71	26.09	9.62	-30.9	-36.1	9.9	7.83e-03	0	43	0	57671680	21	6542
2026-01-21 23:24:52.72	26.29	9.85	-31.1	-36.1	9.7	1.16e-02	0	43	0	63963136	22	6393
2026-01-21 23:24:55.74	26.50	10.09	-31.0	-35.7	10.0	9.49e-03	0	43	0	69206016	22	6173
2026-01-21 23:24:58.74	26.70	10.34	-31.2	-36.4	9.5	1.16e-02	0	43	0	74448896	22	6570
2026-01-21 23:25:01.75	26.91	10.58	-30.6	-34.4	11.0	2.87e-03	0	43	0	80740352	22	5547
2026-01-21 23:25:04.76	27.13	10.83	-30.4	-34.2	11.5	1.46e-03	0	43	0	85983232	21	5582
2026-01-21 23:25:07.78	27.35	11.08	-30.3	-34.4	11.8	5.07e-04	0	43	0	91226112	20	5758
2026-01-21 23:25:10.79	27.57	11.33	-30.3	-34.4	11.8	4.65e-04	0	43	0	97517568	20	5758
2026-01-21 23:25:13.80	27.79	11.58	-30.6	-34.7	11.2	1.51e-03	0	43	0	102760448	21	5767
2026-01-21 23:25:16.81	28.02	11.84	-30.2	-33.5	12.1	5.42e-04	0	43	0	109051904	21	5261
2026-01-21 23:25:19.81	28.25	12.09	-30.1	-33.3	12.3	3.16e-04	0	43	0	114294784	21	5164
2026-01-21 23:25:22.82	28.49	12.36	-30.0	-33.5	12.5	4.68e-04	0	43	0	119537664	20	5349
2026-01-21 23:25:25.82	28.73	12.62	-30.0	-33.3	12.6	3.77e-04	0	44	0	125829120	20	5272
2026-01-21 23:25:28.83	28.97	12.88	-30.0	-33.3	12.7	6.94e-05	0	43	0	131072000	20	5265
2026-01-21 23:25:31.83	29.22	13.15	-29.9	-33.6	12.9	3.89e-05	0	43	0	136314880	19	5481
2026-01-21 23:25:34.84	29.47	13.42	-29.9	-33.4	13.0	2.74e-05	0	44	0	142606336	19	5400
2026-01-21 23:25:37.84	29.73	13.69	-29.9	-33.5	13.0	2.97e-05	0	44	0	147849216	19	5440
2026-01-21 23:25:40.84	29.99	13.97	-29.9	-33.6	13.0	1.01e-03	0	44	0	154140672	19	5475
2026-01-21 23:25:43.85	30.26	14.24	-30.0	-33.3	12.7	9.29e-04	0	44	0	159383552	20	5279
2026-01-21 23:25:46.86	30.53	14.52	-29.9	-33.0	13.0	4.80e-05	0	44	0	164626432	20	5159
2026-01-21 23:25:49.86	30.80	14.81	-29.8	-33.3	13.2	2.21e-05	0	44	0	170917888	19	5345
2026-01-21 23:25:52.86	31.08	15.09	-29.7	-32.9	13.5	7.60e-06	0	44	0	176160768	19	5187
2026-01-21 23:25:55.87	31.37	15.38	-29.8	-33.2	13.3	1.75e-05	0	43	0	181403648	19	5333
2026-01-21 23:25:58.89	31.66	15.67	-30.0	-33.2	12.9	2.74e-05	0	44	0	187695104	20	5222
2026-01-21 23:26:01.90	31.96	15.97	-30.1	-33.4	12.7	7.40e-05	0	44	0	192937984	20	5316
2026-01-21 23:26:04.92	32.26	16.27	-30.3	-34.0	12.4	1.28e-04	0	43	0	199229440	20	5531
2026-01-21 23:26:07.93	32.57	16.57	-30.4	-34.4	12.1	1.62e-04	0	44	0	204472320	20	5704
2026-01-21 23:26:10.93	32.89	16.87	-30.5	-34.3	11.9	9.47e-04	0	44	0	209715200	21	5531
2026-01-21 23:26:13.93	33.21	17.17	-30.2	-33.8	12.5	1.23e-04	0	44	0	216006656	20	5474
2026-01-21 23:26:16.94	33.53	17.48	-30.3	-33.9	12.2	1.96e-04	0	44	0	221249536	20	5505
2026-01-21 23:26:19.94	33.87	17.79	-30.1	-33.4	12.8	5.41e-05	0	44	0	226492416	20	5289
2026-01-21 23:26:22.96	34.21	18.11	-30.3	-34.1	12.4	1.19e-04	0	44	0	232783872	20	5580
2026-01-21 23:26:25.96	34.55	18.43	-30.0	-33.1	13.1	2.59e-05	0	44	0	238026752	20	5155
2026-01-21 23:26:28.96	34.91	18.75	-30.1	-33.3	12.9	2.85e-04	0	44	0	244318208	20	5239
2026-01-21 23:26:31.97	35.27	19.07	-30.2	-33.7	12.7	2.72e-04	0	44	0	249561088	20	5392
2026-01-21 23:26:34.97	35.64	19.40	-30.4	-34.4	12.3	1.23e-04	0	44	0	254803968	20	5682
2026-01-21 23:26:37.98	36.01	19.73	-30.5	-34.1	12.2	2.08e-04	0	44	0	261095424	21	5444
2026-01-21 23:26:40.98	36.40	20.07	-30.2	-33.7	12.7	7.40e-05	0	44	0	266338304	20	5382
2026-01-21 23:26:43.99	36.79	20.40	-30.3	-34.0	12.6	1.01e-04	0	44	0	272629760	20	5512
2026-01-21 23:26:47.00	37.19	20.75	-30.5	-34.5	12.2	4.22e-04	0	44	0	277872640	20	5731
2026-01-21 23:26:50.01	37.60	21.09	-30.7	-34.7	11.8	6.17e-04	0	44	0	283115520	21	5702
2026-01-21 23:26:53.02	38.02	21.44	-30.5	-34.0	12.3	2.49e-04	0	44	0	289406976	21	5402
2026-01-21 23:26:56.03	38.45	21.79	-30.4	-33.7	12.5	1.21e-04	0	44	0	294649856	21	5272
2026-01-21 23:26:59.03	38.89	22.14	-30.3	-33.5	12.7	7.01e-05	0	44	0	299892736	21	5180
2026-01-21 23:27:02.05	39.34	22.50	-30.5	-34.1	12.3	1.33e-04	0	44	0	306184192	21	5413
2026-01-21 23:27:05.06	39.79	22.86	-30.2	-33.1	12.9	1.17e-04	0	44	0	311427072	21	5036
2026-01-21 23:27:08.08	40.26	23.23	-30.1	-32.8	13.1	4.95e-05	0	44	0	317718528	21	4932
2026-01-21 23:27:11.07	40.74	23.59	-30.0	-32.5	13.4	2.36e-05	0	44	0	322961408	21	4815
2026-01-21 23:27:14.08	41.23	23.97	-29.9	-32.3	13.5	1.60e-05	0	44	0	328204288	21	4737
2026-01-21 23:27:17.09	41.73	24.34	-29.9	-32.4	13.5	1.37e-05	0	44	0	334495744	21	4766
2026-01-21 23:27:20.10	42.25	24.72	-29.9	-32.3	13.5	1.22e-05	0	44	0	339738624	21	4731
2026-01-21 23:27:23.11	42.77	25.10	-29.9	-32.3	13.6	1.44e-05	0	44	0	344981504	21	4741
2026-01-21 23:27:26.12	43.31	25.48	-29.9	-32.2	13.7	9.90e-06	0	44	0	351272960	21	4680
2026-01-21 23:27:29.13	43.86	25.87	-29.8	-32.3	13.9	7.00e-07	0	44	0	356515840	20	4843
2026-01-21 23:27:32.13	44.42	26.26	-29.9	-32.6	13.7	6.80e-06	0	44	0	362807296	20	4935
2026-01-21 23:27:35.15	45.00	26.65	-30.0	-32.8	13.5	9.10e-06	0	44	0	368050176	20	5013
2026-01-21 23:27:38.17	45.60	27.05	-30.2	-33.5	13.2	1.75e-05	0	44	0	373293056	20	5256
2026-01-21 23:27:41.18	46.21	27.44	-30.3	-33.8	13.0	2.67e-05	0	44	0	379584512	20	5361
2026-01-21 23:27:44.18	46.83	27.84	-30.4	-34.0	12.9	5.03e-05	0	44	0	384827392	20	5466
2026-01-21 23:27:47.19	47.46	28.24	-30.4	-33.9	12.9	4.95e-05	0	44	0	391118848	20	5435
2026-01-21 23:27:50.20	48.12	28.65	-30.5	-33.8	12.7	8.31e-05	0	44	0	396361728	21	5277
2026-01-21 23:27:53.20	48.79	29.05	-30.7	-34.3	12.4	1.17e-04	0	44	0	401604608	21	5463
2026-01-21 23:27:56.21	49.47	29.46	-30.9	-35.0	11.9	2.97e-04	0	44	0	407896064	21	5761
2026-01-21 23:27:59.22	50.18	29.87	-30.9	-34.9	12.0	3.81e-04	0	44	0	413138944	21	5721
2026-01-21 23:28:02.23	50.90	30.28	-30.8	-34.7	12.1	2.90e-04	0	44	0	418381824	21	5651
2026-01-21 23:28:05.24	51.64	30.69	-31.0	-34.9	11.6	8.10e-04	0	44	0	424673280	22	5633
2026-01-21 23:28:08.24	52.39	31.10	-30.8	-34.2	12.2	1.98e-04	0	44	0	429916160	22	5313
2026-01-21 23:28:11.25	53.17	31.51	-30.9	-34.3	12.1	2.30e-04	0	44	0	436207616	22	5364
2026-01-21 23:28:14.27	53.97	31.93	-31.2	-35.5	11.2	1.40e-03	0	44	0	441450496	22	5906
2026-01-21 23:28:17.28	54.79	32.34	-31.5	-35.8	10.7	3.31e-03	0	44	0	446693376	23	5916
2026-01-21 23:28:20.28	55.63	32.75	-31.5	-35.8	10.7	2.66e-03	0	44	0	452984832	23	5929
2026-01-21 23:28:23.28	56.48	33.16	-31.8	-36.8	10.0	6.96e-03	0	44	0	458227712	23	6441
2026-01-21 23:28:26.29	57.36	33.57	-31.8	-36.9	9.9	9.79e-03	0	44	0	463470592	23	6466
2026-01-21 23:28:29.30	58.27	33.97	-32.0	-37.3	9.2	1.53e-02	0	44	0	469762048	24	6584
2026-01-21 23:28:32.31	59.19	34.38	-32.2	-38.1	8.5	4.24e-02	0	44	0	475004928	24	7064
2026-01-21 23:28:35.32	60.14	34.78	-32.3	-38.3	8.4	4.42e-02	0	44	0	481296384	24	7192
2026-01-21 23:28:38.33	61.11	35.17	-32.3	-38.3	8.5	4.34e-02	0	44	0	486539264	24	7178
2026-01-21 23:28:41.33	62.10	35.56	-32.3	-38.2	8.6	3.74e-02	0	44	0	491782144	24	7129
2026-01-21 23:28:44.34	63.12	35.95	-31.9	-36.8	9.6	1.82e-02	0	44	0	498073600	24	6312
2026-01-21 23:28:47.36	64.17	36.34	-31.6	-35.6	10.5	4.80e-03	0	44	0	503316480	24	5721
2026-01-21 23:28:50.37	65.23	36.71	-31.5	-35.3	10.8	2.57e-03	0	44	0	509607936	24	5571
2026-01-21 23:28:53.38	66.33	37.08	-31.8	-36.3	10.0	7.93e-03	0	44	0	514850816	24	6068
2026-01-21 23:28:56.38	67.44	37.44	-31.2	-35.0	11.4	1.43e-03	0	44	0	520093696	23	5521
2026-01-21 23:28:59.40	68.58	37.80	-30.9	-33.8	12.3	1.69e-04	0	44	0	526385152	23	5022
2026-01-21 23:29:02.40	69.74	38.14	-31.3	-35.0	11.4	8.22e-04	0	44	0	531628032	23	5550
2026-01-21 23:29:05.41	70.93	38.47	-31.2	-34.6	11.7	6.10e-04	0	44	0	536870912	23	5359
2026-01-21 23:29:08.41	72.14	38.80	-31.5	-35.8	10.8	1.92e-03	0	44	0	543162368	23	5890
2026-01-21 23:29:11.41	73.37	39.11	-31.7	-36.3	10.6	3.08e-03	0	44	0	548405248	23	6124
2026-01-21 23:29:14.43	74.64	39.41	-31.9	-37.1	9.9	7.70e-03	0	44	0	554696704	23	6541
2026-01-21 23:29:17.43	75.92	39.70	-31.7	-36.3	10.5	6.50e-03	0	44	0	559939584	23	6153
2026-01-21 23:29:20.43	77.22	39.97	-31.2	-34.7	11.6	8.28e-04	0	44	0	565182464	23	5402
2026-01-21 23:29:23.44	78.54	40.23	-31.5	-35.7	10.9	1.28e-03	0	44	0	571473920	23	5832
2026-01-21 23:29:26.45	79.89	40.47	-31.6	-36.1	10.6	3.93e-03	0	44	0	576716800	23	6032
2026-01-21 23:29:29.46	81.26	40.70	-31.1	-34.7	11.5	8.88e-04	0	44	0	581959680	23	5451
2026-01-21 23:29:32.47	82.64	40.91	-32.0	-37.0	9.6	1.13e-02	0	44	0	588251136	24	6399
2026-01-21 23:29:35.47	84.04	41.10	-31.8	-36.2	10.2	6.01e-03	0	44	0	593494016	24	6003
2026-01-21 23:29:38.48	85.46	41.28	-31.8	-36.1	10.3	6.59e-03	0	44	0	599785472	24	5922
2026-01-21 23:29:41.49	86.89	41.43	-32.3	-38.1	8.8	1.98e-02	0	44	0	605028352	24	7041
2026-01-21 23:29:44.49	88.33	41.57	-32.0	-36.7	9.8	1.20e-02	0	44	0	610271232	24	6234
2026-01-21 23:29:47.50	89.79	41.69	-31.5	-35.3	10.9	1.64e-03	0	44	0	616562688	24	5537
2026-01-21 23:29:50.51	91.26	41.79	-31.7	-35.9	10.5	7.01e-03	0	44	0	621805568	24	5799
2026-01-21 23:29:53.52	92.73	41.86	-30.8	-33.5	12.6	1.34e-04	0	44	0	627048448	23	4895
2026-01-21 23:29:56.53	94.22	41.92	-31.4	-35.8	11.4	6.57e-04	0	44	0	633339904	22	5981
2026-01-21 23:29:59.54	95.70	41.95	-31.7	-36.2	10.6	3.63e-03	0	44	0	638582784	23	6074
2026-01-21 23:30:02.55	97.19	41.97	-31.2	-34.7	11.7	9.02e-04	0	44	0	644874240	23	5377
2026-01-21 23:30:05.55	98.67	41.96	-30.8	-33.4	12.6	1.07e-04	0	44	0	650117120	23	4891
2026-01-21 23:30:08.55	100.16	41.93	-31.5	-35.6	11.1	8.24e-04	0	44	0	655360000	23	5783
2026-01-21 23:30:11.56	101.64	41.88	-30.9	-33.9	12.3	2.70e-04	0	44	0	661651456	23	5051
2026-01-21 23:30:14.57	103.12	41.81	-31.6	-36.0	10.8	2.69e-03	0	44	0	666894336	23	6005
2026-01-21 23:30:17.57	104.58	41.72	-31.5	-35.6	11.1	1.81e-03	0	44	0	672137216	23	5757
2026-01-21 23:30:20.57	106.04	41.61	-31.0	-34.1	12.2	3.00e-04	0	44	0	678428672	23	5157
2026-01-21 23:30:23.57	107.49	41.48	-31.2	-34.8	11.7	3.45e-04	0	44	0	683671552	23	5422
2026-01-21 23:30:26.59	108.93	41.33	-31.8	-36.3	10.2	8.08e-03	0	44	0	689963008	24	6015
2026-01-21 23:30:29.60	110.36	41.16	-31.5	-35.5	11.2	7.27e-04	0	44	0	695205888	23	5740
2026-01-21 23:30:32.62	111.77	40.97	-31.3	-34.9	11.6	2.10e-03	0	44	0	700448768	23	5482
2026-01-21 23:30:35.64	113.17	40.77	-31.3	-35.0	11.6	6.74e-04	0	44	0	706740224	23	5492
2026-01-21 23:30:38.64	114.54	40.55	-30.8	-33.9	12.7	8.46e-05	0	44	0	711983104	22	5148
2026-01-21 23:30:41.65	115.90	40.31	-31.6	-36.0	10.8	2.73e-03	0	44	0	717225984	23	5974
2026-01-21 23:30:44.66	117.23	40.05	-30.2	-32.9	13.7	1.22e-05	0	44	0	723517440	21	4878
2026-01-21 23:30:47.67	118.55	39.78	-30.3	-33.2	13.4	1.90e-05	0	44	0	728760320	21	4999
2026-01-21 23:30:50.67	119.84	39.50	-29.8	-32.2	14.4	3.00e-06	0	44	0	735051776	20	4745
2026-01-21 23:30:53.67	121.10	39.20	-30.1	-33.1	13.8	6.80e-06	0	44	0	740294656	20	5094
2026-01-21 23:30:56.68	122.35	38.89	-29.8	-32.2	14.4	1.06e-05	0	44	0	745537536	20	4769
2026-01-21 23:30:59.69	123.57	38.57	-29.7	-31.9	14.5	1.50e-06	0	44	0	751828992	20	4670
2026-01-21 23:31:02.69	124.77	38.24	-29.5	-31.9	14.9	0.00e+00	0	44	0	757071872	19	4765
2026-01-21 23:31:05.70	125.94	37.90	-29.5	-31.6	14.8	7.00e-07	0	44	0	762314752	20	4563
2026-01-21 23:31:08.71	127.10	37.54	-29.4	-31.6	15.1	0.00e+00	0	44	0	768606208	19	4670
2026-01-21 23:31:11.72	128.22	37.18	-29.5	-32.1	14.9	0.00e+00	0	44	0	773849088	19	4806
2026-01-21 23:31:14.73	129.32	36.81	-30.0	-32.7	14.0	2.20e-06	0	44	0	780140544	20	4936
2026-01-21 23:31:17.73	130.40	36.44	-29.8	-32.4	14.3	0.00e+00	0	44	0	785383424	20	4817
2026-01-21 23:31:20.75	131.46	36.06	-30.3	-33.6	13.4	1.29e-05	0	44	0	790626304	20	5282
2026-01-21 23:31:23.75	132.48	35.67	-30.4	-33.9	13.2	1.90e-05	0	44	0	796917760	20	5413
2026-01-21 23:31:26.75	133.48	35.28	-29.9	-32.7	14.0	1.50e-06	0	44	0	802160640	20	4952
2026-01-21 23:31:29.75	134.46	34.88	-30.1	-33.1	13.7	4.50e-06	0	44	0	807403520	20	5088
2026-01-21 23:31:32.76	135.42	34.48	-31.2	-35.1	11.7	6.48e-04	0	44	0	813694976	22	5699
2026-01-21 23:31:35.77	136.36	34.07	-29.9	-32.1	14.0	5.30e-06	0	44	0	818937856	21	4646
2026-01-21 23:31:38.77	137.27	33.67	-31.6	-36.0	10.7	1.70e-03	0	44	0	825229312	23	5987
2026-01-21 23:31:41.78	138.16	33.26	-30.7	-33.7	12.7	2.10e-04	0	44	0	830472192	22	5086
2026-01-21 23:31:44.79	139.02	32.85	-30.4	-33.3	13.2	1.14e-05	0	44	0	835715072	21	5069
2026-01-21 23:31:47.81	139.88	32.43	-31.1	-35.1	11.7	1.24e-03	0	44	0	842006528	22	5679
2026-01-21 23:31:50.81	140.70	32.02	-30.0	-32.4	13.8	3.00e-06	0	44	0	847249408	21	4749
2026-01-21 23:31:53.82	141.50	31.60	-31.8	-36.8	10.0	3.11e-03	0	44	0	853540864	23	6437
2026-01-21 23:31:56.81	142.29	31.19	-30.5	-33.2	13.0	1.19e-04	0	44	0	858783744	22	4893
2026-01-21 23:31:59.81	143.05	30.78	-30.5	-33.8	12.9	3.96e-05	0	44	0	864026624	21	5234
2026-01-21 23:32:02.80	143.79	30.37	-31.8	-36.7	10.1	7.59e-03	0	45	0	870318080	23	6375
2026-01-21 23:32:05.81	144.52	29.95	-30.7	-33.8	12.5	1.60e-04	0	44	0	875560960	22	5153
2026-01-21 23:32:08.83	145.24	29.54	-30.8	-34.5	12.4	1.34e-04	0	44	0	880803840	21	5543
2026-01-21 23:32:11.84	145.93	29.13	-31.7	-36.4	10.3	4.70e-03	0	44	0	887095296	23	6194
2026-01-21 23:32:14.85	146.61	28.72	-29.6	-31.8	14.4	2.20e-06	0	44	0	892338176	20	4641
2026-01-21 23:32:17.85	147.26	28.32	-30.4	-33.9	13.1	6.10e-06	0	44	0	897581056	20	5414
2026-01-21 23:32:20.86	147.91	27.91	-31.2	-35.3	11.4	1.35e-03	0	44	0	903872512	22	5782
2026-01-21 23:32:23.87	148.54	27.51	-29.5	-31.5	14.6	7.00e-07	0	44	0	909115392	20	4534
2026-01-21 23:32:26.87	149.15	27.11	-29.6	-32.4	14.4	0.00e+00	0	44	0	915406848	19	4938
2026-01-21 23:32:29.89	149.75	26.71	-30.4	-34.1	12.9	5.26e-05	0	44	0	920649728	20	5524
2026-01-21 23:32:32.88	150.33	26.32	-29.9	-32.6	13.8	1.14e-05	0	44	0	925892608	20	4930
2026-01-21 23:32:35.89	150.90	25.92	-29.5	-32.0	14.6	7.00e-07	0	44	0	932184064	19	4831
2026-01-21 23:32:38.90	151.46	25.53	-30.0	-32.9	13.6	1.50e-06	0	44	0	937426944	20	5046
2026-01-21 23:32:41.90	152.00	25.15	-30.5	-33.8	12.7	9.15e-05	0	44	0	942669824	21	5285
2026-01-21 23:32:44.91	152.53	24.76	-30.5	-33.9	12.6	1.08e-04	0	44	0	948961280	21	5303
2026-01-21 23:32:47.91	153.04	24.38	-29.6	-31.8	14.3	7.00e-07	0	44	0	954204160	20	4648
2026-01-21 23:32:50.91	153.55	24.01	-29.3	-31.7	14.7	0.00e+00	0	44	0	960495616	19	4715
2026-01-21 23:32:53.92	154.04	23.63	-29.6	-32.5	14.2	1.50e-06	0	44	0	965738496	19	5001
2026-01-21 23:32:56.92	154.52	23.26	-29.9	-33.2	13.7	6.10e-06	0	44	0	970981376	19	5270
2026-01-21 23:32:59.94	155.00	22.89	-29.9	-33.3	13.7	5.30e-06	0	44	0	977272832	19	5284
2026-01-21 23:33:02.95	155.46	22.53	-30.0	-33.4	13.6	1.06e-05	0	44	0	982515712	19	5325
2026-01-21 23:33:05.95	155.91	22.17	-29.9	-33.1	13.8	1.50e-06	0	44	0	987758592	19	5232
2026-01-21 23:33:08.96	156.35	21.81	-30.0	-32.9	13.5	9.10e-06	0	44	0	994050048	20	5059
2026-01-21 23:33:11.97	156.78	21.46	-30.2	-33.7	13.0	3.96e-05	0	44	0	999292928	20	5361
2026-01-21 23:33:14.98	157.21	21.10	-30.3	-33.4	12.8	1.07e-04	0	44	0	1005584384	21	5176
2026-01-21 23:33:17.99	157.62	20.76	-30.0	-33.3	13.2	3.20e-05	0	44	0	1010827264	20	5229
2026-01-21 23:33:20.99	158.02	20.41	-30.0	-33.2	13.2	2.28e-05	0	44	0	1016070144	20	5185
2026-01-21 23:33:23.99	158.42	20.07	-30.1	-33.4	13.1	2.82e-05	0	44	0	1022361600	20	5242
2026-01-21 23:33:27.00	158.80	19.73	-29.3	-32.9	12.8	5.34e-05	0	44	0	1027604480	20	5448
2026-01-21 23:33:30.02	159.18	19.40	-30.2	-33.6	12.9	6.25e-05	0	44	0	1033895936	20	5321
2026-01-21 23:33:33.02	159.55	19.07	-30.0	-33.2	13.2	1.75e-05	0	44	0	1039138816	20	5197
2026-01-21 23:33:36.02	159.92	18.74	-29.9	-33.2	13.5	9.90e-06	0	44	0	1044381696	19	5290
2026-01-21 23:33:39.03	160.27	18.42	-30.3	-34.1	12.6	7.01e-05	0	44	0	1050673152	20	5528
2026-01-21 23:33:42.04	160.62	18.10	-30.3	-34.2	12.5	1.16e-04	0	44	0	1055916032	20	5584
2026-01-21 23:33:45.04	160.96	17.78	-30.6	-34.4	11.9	2.72e-03	0	44	0	1061158912	21	5598
2026-01-21 23:33:48.05	161.30	17.46	-30.9	-35.4	11.1	3.42e-03	0	44	0	1067450368	21	6083
2026-01-21 23:33:51.06	161.62	17.15	-30.5	-34.4	12.2	2.09e-04	0	44	0	1072693248	20	5697
2026-01-21 23:33:54.06	161.95	16.84	-30.3	-34.2	12.3	1.79e-04	0	44	0	1077936128	20	5634
2026-01-21 23:33:57.06	162.26	16.54	-30.3	-34.2	12.2	1.72e-04	0	44	0	1084227584	20	5683
2026-01-21 23:34:00.07	162.57	16.23	-30.2	-34.3	12.1	2.66e-03	0	44	0	1089470464	20	5770
2026-01-21 23:34:03.08	162.87	15.93	-30.1	-34.0	12.3	2.41e-03	0	44	0	1095761920	20	5621
2026-01-21 23:34:06.09	163.17	15.64	-30.0	-33.7	12.4	2.24e-03	0	44	0	1101004800	20	5507
2026-01-21 23:34:09.10	163.46	15.34	-30.2	-34.1	12.2	2.65e-03	0	44	0	1106247680	20	5665
2026-01-21 23:34:12.11	163.75	15.05	-30.3	-34.3	12.2	2.52e-03	0	44	0	1112539136	20	5696
2026-01-21 23:34:15.12	164.03	14.76	-30.5	-34.7	11.9	2.75e-03	0	44	0	1117782016	20	5846
2026-01-21 23:34:18.12	164.31	14.48	-30.6	-34.5	11.6	3.52e-03	0	44	0	1124073472	21	5685
2026-01-21 23:34:21.13	164.58	14.19	-30.7	-34.9	11.3	3.57e-03	0	44	0	1129316352	21	5886
2026-01-21 23:34:24.14	164.85	13.91	-30.7	-35.0	11.2	3.73e-03	0	44	0	1134559232	21	5931
2026-01-21 23:34:27.15	165.11	13.64	-30.8	-35.7	10.7	4.79e-03	0	44	0	1140850688	21	6279
2026-01-21 23:34:30.16	165.36	13.36	-30.7	-35.2	11.1	4.17e-03	0	44	0	1146093568	21	6023
2026-01-21 23:34:33.17	165.62	13.09	-30.9	-35.7	10.7	5.45e-03	0	44	0	1152385024	21	6270
2026-01-21 23:34:36.18	165.87	12.82	-30.6	-35.0	11.2	1.91e-03	0	44	0	1157627904	21	5919
2026-01-21 23:34:39.19	166.11	12.55	-30.4	-34.8	11.6	1.01e-03	0	44	0	1162870784	20	5977
2026-01-21 23:34:42.19	166.35	12.29	-30.2	-34.2	12.1	5.55e-04	0	44	0	1169162240	20	5667
2026-01-21 23:34:45.20	166.58	12.03	-30.2	-34.0	12.2	2.53e-03	0	44	0	1174405120	20	5578
2026-01-21 23:34:48.21	166.82	11.77	-30.3	-34.4	11.9	2.78e-03	0	44	0	1179648000	20	5748
2026-01-21 23:34:51.22	167.04	11.51	-30.3	-34.4	11.9	2.41e-03	0	44	0	1185939456	20	5744
2026-01-21 23:34:54.23	167.27	11.25	-30.7	-35.1	11.0	1.40e-03	0	44	0	1191182336	21	5953
2026-01-21 23:34:57.25	167.49	11.00	-30.4	-34.7	11.6	8.96e-04	0	44	0	1197473792	20	5889
2026-01-21 23:35:00.26	167.71	10.75	-30.6	-34.9	11.1	1.61e-03	0	44	0	1202716672	21	5878
2026-01-21 23:35:03.26	167.92	10.50	-30.8	-35.4	10.8	3.17e-03	0	44	0	1207959552	21	6126
2026-01-21 23:35:06.28	168.13	10.25	-30.9	-35.8	10.4	4.52e-03	0	44	0	1214251008	21	6346
2026-01-21 23:35:09.29	168.34	10.01	-30.9	-36.0	10.2	6.29e-03	0	44	0	1219493888	21	6462
2026-01-21 23:35:12.30	168.54	9.76	-30.9	-36.0	10.2	4.99e-03	0	44	0	1224736768	21	6461
2026-01-21 23:35:15.31	168.74	9.52	-30.7	-35.3	10.7	4.18e-03	0	44	0	1231028224	21	6115
2026-01-21 23:35:18.31	168.94	9.29	-30.6	-34.9	10.9	2.75e-03	0	44	0	1236271104	21	5961
2026-01-21 23:35:21.31	169.13	9.05	-30.7	-35.6	10.4	4.12e-03	0	44	0	1242562560	21	6269
2026-01-21 23:35:24.31	169.32	8.82	-30.7	-35.5	10.2	5.33e-03	0	44	0	1247805440	21	6274
2026-01-21 23:35:27.33	169.51	8.58	-30.8	-35.9	10.1	8.20e-03	0	44	0	1253048320	21	6471
2026-01-21 23:35:30.34	169.70	8.35	-30.7	-35.4	10.5	4.72e-03	0	44	0	1259339776	21	6199
2026-01-21 23:35:33.34	169.88	8.13	-30.7	-35.5	10.3	7.71e-03	0	44	0	1264582656	21	6284
2026-01-21 23:35:36.34	170.06	7.90	-30.8	-36.0	9.9	8.45e-03	0	44	0	1269825536	21	6572
2026-01-21 23:35:39.35	170.23	7.67	-30.9	-36.4	9.6	1.33e-02	0	44	0	1276116992	21	6788
2026-01-21 23:35:42.36	170.41	7.45	-30.8	-36.0	9.9	8.67e-03	0	44	0	1281359872	21	6526
2026-01-21 23:35:45.38	170.58	7.23	-30.9	-36.3	9.6	1.30e-02	0	44	0	1287651328	21	6716
2026-01-21 23:35:48.37	170.75	7.01	-32.8	-47.2	3.8	1.49e+00	0	44	104	1290797056	25	18978

#Closed at: 2026-01-21 23:35:51
#Recorded file [1290 MB]: D:/data/31010_260122_022418.dat