passes_logs/2026/01/21/R2M6_AANII_01/R2M6_AANII_01__20260121_102544_NOAA_21_JPSS-2_rec.log

#Pass ID: 20260121_102544_NOAA 21 (JPSS-2)
#Satellite: NOAA 21 (JPSS-2)
#Configuration: NOAA 21
#almurnet v.1.7.20240730
#Start time: 2026-01-21 10:25:45

#Version: 2.2.20231116
#Station: R2M6_AANII_01
#Location: 30.233357 lon 59.946436 lat
#TLE: 1 54234U 22150A   26020.29910383  .00000141  00000+0  87571-4 0  9990
#TLE: 2 54234  98.7506 321.1348 0000615 250.8428 109.2682 14.19536295165564

#Time	Az	El	Level	Level2	SNR	BER	BlckErr	Temp	State	Recorded	gain1	gain2
2026-01-21 10:25:45.40	163.55	7.04	-31.7	-38.6	4.2	1.45e+00	0	42	0	0	24	7963
2026-01-21 10:25:48.40	163.58	7.28	-30.3	-33.5	9.3	2.28e-02	0	42	0	3145728	22	5202
2026-01-21 10:25:51.43	163.61	7.51	-29.9	-32.8	10.1	7.32e-03	0	42	0	12582912	21	5014
2026-01-21 10:25:54.42	163.64	7.75	-29.9	-32.8	10.1	6.38e-03	0	42	0	22020096	21	5008
2026-01-21 10:25:57.42	163.68	7.99	-29.9	-32.6	10.3	5.48e-03	0	42	0	30408704	21	4943
2026-01-21 10:26:00.43	163.71	8.23	-29.6	-32.4	10.8	2.89e-03	0	42	0	39845888	20	4949
2026-01-21 10:26:03.43	163.75	8.48	-29.1	-31.5	11.7	5.63e-04	0	42	0	49283072	19	4743
2026-01-21 10:26:06.43	163.78	8.73	-29.4	-32.2	11.3	1.13e-03	0	42	0	58720256	19	4993
2026-01-21 10:26:09.44	163.82	8.98	-29.5	-32.4	11.2	1.33e-03	0	42	0	68157440	19	5061
2026-01-21 10:26:12.44	163.85	9.23	-29.6	-32.8	11.0	1.87e-03	0	42	0	77594624	19	5201
2026-01-21 10:26:15.43	163.89	9.48	-29.8	-33.4	10.7	2.89e-03	0	42	0	87031808	19	5406
2026-01-21 10:26:18.44	163.93	9.74	-30.4	-34.5	9.5	1.60e-02	0	42	0	96468992	20	5777
2026-01-21 10:26:21.45	163.96	10.00	-30.2	-34.0	9.9	9.93e-03	0	42	0	105906176	20	5553
2026-01-21 10:26:24.45	164.00	10.26	-30.3	-34.2	9.8	1.06e-02	0	42	0	115343360	20	5636
2026-01-21 10:26:27.46	164.04	10.53	-29.5	-32.1	11.2	2.13e-03	0	42	0	124780544	20	4826
2026-01-21 10:26:30.47	164.08	10.80	-28.7	-31.0	12.6	1.12e-04	0	42	0	134217728	18	4695
2026-01-21 10:26:33.48	164.12	11.07	-28.7	-30.9	12.6	1.03e-04	0	42	0	143654912	18	4648
2026-01-21 10:26:36.47	164.16	11.35	-28.5	-30.4	13.1	2.89e-05	0	42	0	153092096	18	4458
2026-01-21 10:26:39.47	164.20	11.62	-28.6	-30.5	13.1	4.19e-05	0	42	0	162529280	18	4474
2026-01-21 10:26:42.45	164.24	11.90	-27.9	-29.5	13.9	1.14e-05	0	42	0	171966464	17	4289
2026-01-21 10:26:45.46	164.28	12.19	-27.8	-29.1	14.2	2.20e-06	0	42	0	181403648	17	4187
2026-01-21 10:26:48.47	164.32	12.48	-27.8	-29.6	14.2	7.00e-07	0	42	0	190840832	16	4430
2026-01-21 10:26:51.46	164.37	12.77	-27.8	-29.5	14.3	1.50e-06	0	42	0	200278016	16	4392
2026-01-21 10:26:54.46	164.41	13.06	-27.8	-29.5	14.3	7.00e-07	0	42	0	208666624	16	4397
2026-01-21 10:26:57.46	164.46	13.36	-27.8	-29.6	14.3	7.00e-07	0	42	0	218103808	16	4402
2026-01-21 10:27:00.46	164.50	13.66	-27.8	-29.6	14.3	1.50e-06	0	42	0	227540992	16	4416
2026-01-21 10:27:03.48	164.55	13.97	-27.8	-29.6	14.3	1.50e-06	0	42	0	236978176	16	4402
2026-01-21 10:27:06.48	164.59	14.28	-27.7	-29.3	14.5	2.20e-06	0	42	0	246415360	16	4331
2026-01-21 10:27:09.48	164.64	14.59	-27.7	-29.1	14.6	0.00e+00	0	42	0	255852544	16	4259
2026-01-21 10:27:12.48	164.69	14.91	-27.7	-29.2	14.6	7.00e-07	0	42	0	265289728	16	4278
2026-01-21 10:27:15.46	164.74	15.23	-27.9	-29.6	14.4	0.00e+00	0	42	0	274726912	16	4374
2026-01-21 10:27:18.47	164.79	15.55	-27.9	-29.7	14.4	0.00e+00	0	42	0	284164096	16	4421
2026-01-21 10:27:21.48	164.84	15.88	-27.8	-29.5	14.4	7.00e-07	0	42	0	293601280	16	4367
2026-01-21 10:27:24.49	164.89	16.22	-27.6	-29.1	14.7	0.00e+00	0	42	0	303038464	16	4263
2026-01-21 10:27:27.49	164.95	16.56	-27.6	-28.9	14.8	0.00e+00	0	42	0	312475648	16	4211
2026-01-21 10:27:30.48	165.00	16.90	-27.7	-29.1	14.8	7.00e-07	0	42	0	321912832	16	4244
2026-01-21 10:27:33.47	165.05	17.25	-27.8	-29.5	14.6	0.00e+00	0	42	0	331350016	16	4345
2026-01-21 10:27:36.49	165.11	17.61	-27.8	-29.5	14.6	0.00e+00	0	42	0	340787200	16	4346
2026-01-21 10:27:39.49	165.17	17.97	-27.8	-29.4	14.6	0.00e+00	0	42	0	350224384	16	4336
2026-01-21 10:27:42.48	165.22	18.33	-27.9	-29.6	14.6	0.00e+00	0	42	0	359661568	16	4382
2026-01-21 10:27:45.50	165.28	18.70	-27.7	-29.2	14.8	7.00e-07	0	42	0	369098752	16	4269
2026-01-21 10:27:48.51	165.35	19.08	-27.8	-29.4	14.7	7.00e-07	0	42	0	378535936	16	4324
2026-01-21 10:27:51.50	165.41	19.46	-27.8	-29.3	14.8	0.00e+00	0	42	0	387973120	16	4291
2026-01-21 10:27:54.51	165.47	19.85	-27.9	-29.5	14.7	0.00e+00	0	42	0	396361728	16	4347
2026-01-21 10:27:57.51	165.54	20.24	-27.5	-28.8	15.1	0.00e+00	0	42	0	405798912	16	4159
2026-01-21 10:28:00.52	165.60	20.64	-27.5	-28.6	15.2	0.00e+00	0	42	0	415236096	16	4114
2026-01-21 10:28:03.52	165.67	21.05	-26.9	-27.8	15.7	0.00e+00	0	42	0	424673280	15	4021
2026-01-21 10:28:06.53	165.74	21.46	-26.6	-27.8	16.0	0.00e+00	0	42	0	434110464	14	4113
2026-01-21 10:28:09.54	165.81	21.88	-26.8	-28.2	15.8	0.00e+00	0	42	0	443547648	14	4226
2026-01-21 10:28:12.56	165.88	22.31	-26.4	-27.2	16.4	7.00e-07	0	43	0	452984832	14	3964
2026-01-21 10:28:15.57	165.96	22.75	-26.3	-27.1	16.5	1.50e-06	0	42	0	462422016	14	3921
2026-01-21 10:28:18.57	166.03	23.19	-26.3	-27.0	16.6	6.80e-06	0	42	0	471859200	14	3901
2026-01-21 10:28:21.56	166.11	23.64	-26.2	-27.2	16.7	8.30e-06	0	43	0	481296384	13	4063
2026-01-21 10:28:24.57	166.19	24.10	-26.3	-27.6	16.5	7.60e-06	0	42	0	490733568	13	4147
2026-01-21 10:28:27.58	166.27	24.56	-26.5	-28.0	16.3	9.90e-06	0	43	0	500170752	13	4264
2026-01-21 10:28:30.58	166.36	25.04	-26.8	-28.6	16.0	0.00e+00	0	42	0	509607936	13	4425
2026-01-21 10:28:33.58	166.44	25.52	-27.0	-28.9	15.8	0.00e+00	0	42	0	519045120	13	4527
2026-01-21 10:28:36.58	166.53	26.01	-27.2	-29.1	15.5	0.00e+00	0	42	0	528482304	14	4449
2026-01-21 10:28:39.58	166.62	26.51	-27.5	-29.7	15.2	0.00e+00	0	43	0	537919488	14	4640
2026-01-21 10:28:42.57	166.72	27.02	-27.8	-30.0	14.7	0.00e+00	0	42	0	547356672	15	4615
2026-01-21 10:28:45.57	166.81	27.53	-27.8	-29.4	15.0	7.00e-07	0	42	0	556793856	16	4307
2026-01-21 10:28:48.57	166.91	28.06	-27.9	-29.5	14.9	0.00e+00	0	42	0	566231040	16	4353
2026-01-21 10:28:51.56	167.02	28.60	-27.8	-29.3	15.0	0.00e+00	0	42	0	574619648	16	4279
2026-01-21 10:28:54.57	167.12	29.15	-27.7	-29.0	15.3	0.00e+00	0	42	0	584056832	16	4188
2026-01-21 10:28:57.58	167.23	29.71	-27.7	-29.0	15.2	0.00e+00	0	42	0	593494016	16	4204
2026-01-21 10:29:00.58	167.34	30.28	-27.4	-28.4	15.6	0.00e+00	0	42	0	602931200	16	4037
2026-01-21 10:29:03.58	167.46	30.87	-27.4	-28.4	15.6	0.00e+00	0	42	0	612368384	16	4031
2026-01-21 10:29:06.58	167.58	31.46	-27.3	-28.1	15.8	0.00e+00	0	42	0	621805568	16	3955
2026-01-21 10:29:09.58	167.70	32.07	-27.2	-28.4	15.7	0.00e+00	0	42	0	631242752	15	4138
2026-01-21 10:29:12.58	167.83	32.69	-27.1	-28.3	15.8	0.00e+00	0	42	0	640679936	15	4103
2026-01-21 10:29:15.60	167.97	33.33	-27.2	-28.5	15.7	0.00e+00	0	42	0	650117120	15	4175
2026-01-21 10:29:18.62	168.11	33.98	-27.5	-29.2	15.3	0.00e+00	0	42	0	659554304	15	4373
2026-01-21 10:29:21.63	168.25	34.64	-28.0	-30.2	14.8	0.00e+00	0	42	0	668991488	15	4662
2026-01-21 10:29:24.62	168.40	35.31	-28.3	-30.5	14.5	7.00e-07	0	42	0	678428672	16	4618
2026-01-21 10:29:27.62	168.55	36.00	-28.4	-30.6	14.4	1.50e-06	0	42	0	687865856	16	4657
2026-01-21 10:29:30.62	168.72	36.70	-28.6	-30.5	14.2	1.50e-06	0	42	0	697303040	17	4512
2026-01-21 10:29:33.62	168.88	37.42	-28.8	-31.1	13.9	1.50e-06	0	42	0	706740224	17	4677
2026-01-21 10:29:36.62	169.06	38.15	-29.1	-31.2	13.5	6.80e-06	0	42	0	716177408	18	4608
2026-01-21 10:29:39.62	169.24	38.90	-28.7	-30.4	14.0	9.10e-06	0	42	0	725614592	18	4375
2026-01-21 10:29:42.62	169.43	39.66	-28.8	-30.6	13.9	3.00e-06	0	42	0	735051776	18	4425
2026-01-21 10:29:45.62	169.63	40.45	-28.8	-30.5	14.0	1.50e-06	0	43	0	744488960	18	4384
2026-01-21 10:29:48.63	169.84	41.25	-29.1	-31.2	13.6	6.80e-06	0	42	0	752877568	18	4594
2026-01-21 10:29:51.64	170.06	42.07	-29.3	-31.8	13.2	2.21e-05	0	42	0	762314752	18	4799
2026-01-21 10:29:54.63	170.29	42.90	-29.8	-32.4	12.5	9.30e-05	0	42	0	771751936	19	4893
2026-01-21 10:29:57.62	170.53	43.75	-29.9	-32.7	12.4	1.41e-04	0	42	0	781189120	19	4979
2026-01-21 10:30:00.62	170.79	44.62	-29.9	-32.3	12.3	1.94e-04	0	42	0	790626304	20	4739
2026-01-21 10:30:03.63	171.06	45.52	-29.9	-32.4	12.3	1.56e-04	0	42	0	800063488	20	4774
2026-01-21 10:30:06.64	171.34	46.43	-30.5	-33.8	11.4	8.69e-04	0	42	0	809500672	20	5288
2026-01-21 10:30:09.66	171.65	47.37	-30.5	-33.3	11.4	1.24e-03	0	42	0	818937856	21	4970
2026-01-21 10:30:12.66	171.97	48.32	-29.9	-31.9	12.2	2.15e-04	0	42	0	828375040	21	4499
2026-01-21 10:30:15.68	172.31	49.30	-29.6	-31.5	12.8	7.40e-05	0	42	0	837812224	20	4485
2026-01-21 10:30:18.69	172.67	50.29	-29.3	-31.2	13.4	2.36e-05	0	42	0	847249408	19	4489
2026-01-21 10:30:21.70	173.05	51.31	-28.8	-30.4	14.1	1.50e-06	0	42	0	856686592	18	4358
2026-01-21 10:30:24.70	173.46	52.34	-28.5	-29.8	14.5	0.00e+00	0	42	0	866123776	18	4181
2026-01-21 10:30:27.70	173.90	53.39	-28.4	-29.6	14.7	0.00e+00	0	42	0	875560960	18	4117
2026-01-21 10:30:30.70	174.38	54.47	-27.7	-29.0	15.5	0.00e+00	0	42	0	884998144	16	4169
2026-01-21 10:30:33.71	174.89	55.57	-27.8	-29.3	15.5	0.00e+00	0	42	0	894435328	16	4248
2026-01-21 10:30:36.72	175.44	56.69	-27.8	-29.2	15.5	0.00e+00	0	42	0	903872512	16	4227
2026-01-21 10:30:39.74	176.04	57.83	-27.5	-28.4	15.9	0.00e+00	0	42	0	913309696	16	4020
2026-01-21 10:30:42.74	176.69	58.98	-27.4	-28.7	15.8	0.00e+00	0	42	0	922746880	15	4209
2026-01-21 10:30:45.75	177.40	60.16	-27.2	-28.4	16.1	0.00e+00	0	42	0	932184064	15	4136
2026-01-21 10:30:48.76	178.17	61.36	-26.5	-27.2	17.0	0.00e+00	0	42	0	941621248	14	3921
2026-01-21 10:30:51.76	179.02	62.56	-26.3	-26.9	17.2	0.00e+00	0	42	0	951058432	14	3837
2026-01-21 10:30:54.75	179.96	63.78	-26.1	-26.9	17.4	0.00e+00	0	42	0	959447040	13	3943
2026-01-21 10:30:57.76	181.01	65.03	-26.2	-27.0	17.4	0.00e+00	0	42	0	969932800	13	3988
2026-01-21 10:31:00.75	182.17	66.27	-26.1	-26.9	17.5	0.00e+00	0	42	0	979369984	13	3950
2026-01-21 10:31:03.76	183.48	67.53	-26.1	-26.9	17.4	0.00e+00	0	42	0	987758592	13	3955
2026-01-21 10:31:06.76	184.96	68.80	-26.5	-27.8	16.9	0.00e+00	0	42	0	997195776	13	4180
2026-01-21 10:31:09.77	186.64	70.07	-26.5	-27.8	17.0	0.00e+00	0	42	0	1006632960	13	4189
2026-01-21 10:31:12.77	188.57	71.34	-26.7	-28.1	16.8	0.00e+00	0	42	0	1016070144	13	4258
2026-01-21 10:31:15.79	190.80	72.61	-26.9	-28.6	16.6	0.00e+00	0	42	0	1025507328	13	4383
2026-01-21 10:31:18.79	193.38	73.85	-26.6	-28.0	16.9	0.00e+00	0	42	0	1034944512	13	4240
2026-01-21 10:31:21.79	196.41	75.08	-26.3	-27.4	17.1	0.00e+00	0	42	0	1044381696	13	4071
2026-01-21 10:31:24.80	200.01	76.26	-26.4	-27.6	17.2	0.00e+00	0	42	0	1053818880	13	4110
2026-01-21 10:31:27.79	204.25	77.39	-26.4	-27.4	17.3	0.00e+00	0	42	0	1063256064	13	4081
2026-01-21 10:31:30.79	209.35	78.45	-26.5	-27.8	17.2	0.00e+00	0	42	0	1072693248	13	4164
2026-01-21 10:31:33.79	215.43	79.41	-25.9	-26.5	17.8	0.00e+00	0	42	0	1082130432	13	3839
2026-01-21 10:31:36.79	222.66	80.24	-25.9	-26.5	17.8	0.00e+00	0	42	0	1091567616	13	3844
2026-01-21 10:31:39.80	231.11	80.89	-26.5	-27.8	17.2	0.00e+00	0	42	0	1101004800	13	4184
2026-01-21 10:31:42.81	240.63	81.31	-26.5	-27.7	17.2	0.00e+00	0	42	0	1110441984	13	4148
2026-01-21 10:31:45.82	250.83	81.49	-26.3	-27.4	17.4	0.00e+00	0	42	0	1119879168	13	4054
2026-01-21 10:31:48.84	261.16	81.39	-26.1	-26.9	17.7	0.00e+00	0	42	0	1129316352	13	3948
2026-01-21 10:31:51.84	270.88	81.03	-26.1	-26.8	17.7	0.00e+00	0	42	0	1138753536	13	3917
2026-01-21 10:31:54.84	279.62	80.44	-26.4	-27.5	17.3	0.00e+00	0	42	0	1148190720	13	4094
2026-01-21 10:31:57.86	287.22	79.65	-27.1	-28.5	16.6	0.00e+00	0	42	0	1157627904	14	4233
2026-01-21 10:32:00.86	293.60	78.73	-26.2	-27.6	17.6	0.00e+00	0	42	0	1167065088	12	4221
2026-01-21 10:32:03.85	298.93	77.70	-25.9	-27.0	17.8	0.00e+00	0	42	0	1176502272	12	4063
2026-01-21 10:32:06.87	303.42	76.57	-25.8	-26.8	17.9	0.00e+00	0	42	0	1185939456	12	4020
2026-01-21 10:32:09.88	307.18	75.40	-26.4	-27.6	17.2	0.00e+00	0	42	0	1194328064	13	4128
2026-01-21 10:32:12.88	310.34	74.19	-26.6	-27.9	16.9	0.00e+00	0	42	0	1203765248	13	4214
2026-01-21 10:32:15.88	313.04	72.95	-26.6	-28.1	16.9	0.00e+00	0	42	0	1213202432	13	4250
2026-01-21 10:32:18.90	315.36	71.69	-26.2	-27.1	17.4	0.00e+00	0	42	0	1222639616	13	4001
2026-01-21 10:32:21.90	317.35	70.43	-27.0	-28.8	16.5	0.00e+00	0	42	0	1232076800	13	4460
2026-01-21 10:32:24.91	319.10	69.15	-25.7	-26.5	17.9	0.00e+00	0	42	0	1241513984	12	3957
2026-01-21 10:32:27.91	320.62	67.89	-26.8	-28.5	16.6	0.00e+00	0	42	0	1250951168	13	4378
2026-01-21 10:32:30.92	321.98	66.63	-27.3	-29.2	16.0	0.00e+00	0	43	0	1260388352	14	4435
2026-01-21 10:32:33.93	323.18	65.37	-26.5	-27.2	17.0	0.00e+00	0	43	0	1269825536	14	3904
2026-01-21 10:32:36.95	324.26	64.13	-28.8	-31.0	14.3	1.50e-06	0	43	0	1279262720	17	4636
2026-01-21 10:32:39.96	325.23	62.90	-26.3	-26.9	17.2	0.00e+00	0	42	0	1288699904	14	3846
2026-01-21 10:32:42.96	326.10	61.69	-26.6	-28.1	16.7	0.00e+00	0	42	0	1298137088	13	4245
2026-01-21 10:32:45.97	326.90	60.50	-29.0	-31.0	14.0	1.50e-06	0	42	0	1307574272	18	4513
2026-01-21 10:32:48.98	327.62	59.32	-26.1	-27.0	17.4	0.00e+00	0	42	0	1317011456	13	3964
2026-01-21 10:32:52.00	328.29	58.15	-27.2	-28.9	16.1	0.00e+00	0	43	0	1326448640	14	4370
2026-01-21 10:32:55.01	328.90	57.01	-29.2	-31.6	13.6	7.60e-06	0	42	0	1335885824	18	4732
2026-01-21 10:32:58.02	329.46	55.89	-28.0	-29.1	15.2	0.00e+00	0	43	0	1345323008	17	4082
2026-01-21 10:33:01.02	329.98	54.80	-27.8	-29.3	15.3	0.00e+00	0	43	0	1354760192	16	4242
2026-01-21 10:33:04.03	330.47	53.72	-29.3	-31.6	13.5	6.10e-06	0	42	0	1364197376	18	4698
2026-01-21 10:33:07.04	330.92	52.66	-29.8	-32.3	12.8	6.17e-05	0	42	0	1373634560	19	4845
2026-01-21 10:33:10.06	331.34	51.62	-29.4	-31.5	13.3	1.52e-05	0	43	0	1383071744	19	4555
2026-01-21 10:33:13.07	331.73	50.60	-30.3	-33.3	11.7	1.89e-04	0	42	0	1392508928	20	5071
2026-01-21 10:33:16.07	332.10	49.61	-30.6	-33.5	11.3	1.40e-03	0	43	0	1401946112	21	5031
2026-01-21 10:33:19.08	332.44	48.63	-30.0	-32.0	12.2	2.62e-04	0	42	0	1411383296	21	4520
2026-01-21 10:33:22.08	332.76	47.68	-29.5	-31.3	13.0	4.88e-05	0	43	0	1420820480	20	4401
2026-01-21 10:33:25.08	333.07	46.75	-28.7	-30.2	14.3	7.00e-07	0	43	0	1430257664	18	4284
2026-01-21 10:33:28.09	333.36	45.83	-29.5	-31.8	13.1	1.90e-05	0	43	0	1439694848	19	4651
2026-01-21 10:33:31.10	333.63	44.94	-30.7	-33.9	11.0	1.55e-03	0	43	0	1449132032	21	5194
2026-01-21 10:33:34.12	333.90	44.06	-30.1	-32.2	12.0	4.03e-04	0	43	0	1458569216	21	4613
2026-01-21 10:33:37.12	334.14	43.20	-29.7	-31.7	12.7	7.17e-05	0	43	0	1466957824	20	4521
2026-01-21 10:33:40.13	334.38	42.36	-29.8	-32.0	12.5	9.61e-05	0	43	0	1476395008	20	4638
2026-01-21 10:33:43.15	334.60	41.54	-29.6	-31.5	12.7	7.70e-05	0	43	0	1485832192	20	4475
2026-01-21 10:33:46.16	334.81	40.74	-30.2	-33.1	11.7	4.54e-04	0	43	0	1495269376	20	5025
2026-01-21 10:33:49.17	335.02	39.95	-30.6	-33.6	11.1	1.66e-03	0	43	0	1504706560	21	5094
2026-01-21 10:33:52.18	335.21	39.18	-29.6	-31.5	12.7	8.31e-05	0	43	0	1514143744	20	4484
2026-01-21 10:33:55.19	335.40	38.43	-29.1	-30.7	13.6	1.29e-05	0	43	0	1523580928	19	4334
2026-01-21 10:33:58.20	335.58	37.69	-28.7	-30.2	14.2	1.50e-06	0	43	0	1533018112	18	4305
2026-01-21 10:34:01.21	335.75	36.97	-28.9	-30.7	13.9	3.00e-06	0	43	0	1542455296	18	4454
2026-01-21 10:34:04.23	335.91	36.26	-28.3	-29.4	14.6	0.00e+00	0	43	0	1551892480	18	4085
2026-01-21 10:34:07.24	336.07	35.57	-28.5	-30.3	14.3	7.00e-07	0	43	0	1561329664	17	4430
2026-01-21 10:34:10.26	336.22	34.89	-28.7	-30.8	14.1	1.50e-06	0	43	0	1570766848	17	4585
2026-01-21 10:34:13.28	336.37	34.23	-28.7	-30.7	14.1	2.20e-06	0	43	0	1580204032	17	4576
2026-01-21 10:34:16.29	336.51	33.58	-28.5	-30.3	14.3	1.50e-06	0	43	0	1589641216	17	4445
2026-01-21 10:34:19.29	336.65	32.95	-28.3	-30.0	14.5	7.00e-07	0	43	0	1599078400	17	4341
2026-01-21 10:34:22.30	336.78	32.33	-28.1	-29.5	14.7	0.00e+00	0	43	0	1608515584	17	4221
2026-01-21 10:34:25.30	336.90	31.72	-27.5	-28.6	15.5	0.00e+00	0	43	0	1617952768	16	4062
2026-01-21 10:34:28.31	337.03	31.12	-26.8	-27.6	16.2	0.00e+00	0	43	0	1627389952	15	3925
2026-01-21 10:34:31.31	337.15	30.54	-27.0	-28.0	15.9	0.00e+00	0	43	0	1636827136	15	4039
2026-01-21 10:34:34.32	337.26	29.96	-27.3	-28.7	15.6	0.00e+00	0	43	0	1646264320	15	4209
2026-01-21 10:34:37.34	337.37	29.40	-27.5	-29.1	15.3	0.00e+00	0	43	0	1655701504	15	4340
2026-01-21 10:34:40.34	337.48	28.85	-28.0	-30.2	14.7	0.00e+00	0	43	0	1665138688	15	4652
2026-01-21 10:34:43.34	337.58	28.31	-28.2	-30.1	14.6	0.00e+00	0	43	0	1674575872	16	4518
2026-01-21 10:34:46.34	337.69	27.78	-28.3	-30.5	14.4	1.50e-06	0	43	0	1684013056	16	4611
2026-01-21 10:34:49.35	337.79	27.26	-28.4	-30.7	14.3	0.00e+00	0	43	0	1693450240	16	4680
2026-01-21 10:34:52.37	337.88	26.75	-28.2	-30.2	14.5	7.00e-07	0	43	0	1702887424	16	4548
2026-01-21 10:34:55.37	337.98	26.25	-27.8	-29.2	15.1	0.00e+00	0	43	0	1712324608	16	4252
2026-01-21 10:34:58.37	338.07	25.76	-27.6	-28.8	15.3	0.00e+00	0	43	0	1721761792	16	4123
2026-01-21 10:35:01.38	338.15	25.28	-27.6	-28.9	15.2	0.00e+00	0	43	0	1731198976	16	4165
2026-01-21 10:35:04.39	338.24	24.80	-27.5	-28.6	15.4	0.00e+00	0	43	0	1739587584	16	4097
2026-01-21 10:35:07.39	338.33	24.34	-27.4	-28.5	15.4	0.00e+00	0	43	0	1749024768	16	4050
2026-01-21 10:35:10.40	338.41	23.88	-27.0	-28.1	15.8	0.00e+00	0	43	0	1759510528	15	4063
2026-01-21 10:35:13.41	338.49	23.43	-27.0	-28.0	15.8	0.00e+00	0	43	0	1767899136	15	4038
2026-01-21 10:35:16.42	338.57	22.98	-27.0	-28.0	15.7	0.00e+00	0	43	0	1777336320	15	4050
2026-01-21 10:35:19.42	338.64	22.55	-27.1	-28.2	15.6	0.00e+00	0	43	0	1786773504	15	4101
2026-01-21 10:35:22.44	338.72	22.12	-26.9	-27.8	15.8	0.00e+00	0	43	0	1796210688	15	3996
2026-01-21 10:35:25.45	338.79	21.70	-27.0	-27.9	15.8	0.00e+00	0	43	0	1805647872	15	4018
2026-01-21 10:35:28.46	338.86	21.29	-27.0	-28.0	15.7	0.00e+00	0	43	0	1815085056	15	4051
2026-01-21 10:35:31.47	338.93	20.88	-27.0	-28.1	15.6	0.00e+00	0	43	0	1824522240	15	4067
2026-01-21 10:35:34.48	339.00	20.48	-27.1	-28.2	15.6	0.00e+00	0	43	0	1833959424	15	4090
2026-01-21 10:35:37.48	339.07	20.08	-27.4	-28.9	15.2	0.00e+00	0	43	0	1843396608	15	4301
2026-01-21 10:35:40.48	339.13	19.70	-27.6	-29.4	14.8	7.00e-07	0	43	0	1852833792	15	4442
2026-01-21 10:35:43.49	339.20	19.31	-28.2	-30.4	14.2	7.00e-07	0	43	0	1862270976	16	4595
2026-01-21 10:35:46.49	339.26	18.94	-28.4	-30.8	13.9	2.20e-06	0	43	0	1871708160	16	4725
2026-01-21 10:35:49.50	339.32	18.57	-29.1	-31.5	12.9	6.40e-05	0	43	0	1881145344	18	4736
2026-01-21 10:35:52.51	339.38	18.20	-28.8	-30.8	13.3	3.12e-05	0	43	0	1890582528	18	4502
2026-01-21 10:35:55.53	339.44	17.84	-28.1	-29.6	14.3	2.20e-06	0	43	0	1900019712	17	4280
2026-01-21 10:35:58.54	339.50	17.48	-28.3	-30.1	14.0	1.50e-06	0	43	0	1909456896	17	4409
2026-01-21 10:36:01.55	339.56	17.13	-28.5	-30.5	13.7	3.00e-06	0	43	0	1918894080	17	4549
2026-01-21 10:36:04.55	339.61	16.79	-28.3	-30.0	14.0	3.00e-06	0	43	0	1928331264	17	4370
2026-01-21 10:36:07.55	339.67	16.45	-28.3	-30.0	14.0	2.20e-06	0	43	0	1937768448	17	4379
2026-01-21 10:36:10.56	339.72	16.12	-28.4	-30.3	13.9	7.60e-06	0	43	0	1947205632	17	4458
2026-01-21 10:36:13.57	339.78	15.79	-28.2	-29.8	14.1	2.20e-06	0	43	0	1956642816	17	4314
2026-01-21 10:36:16.59	339.83	15.46	-28.3	-30.1	13.9	2.20e-06	0	43	0	1966080000	17	4412
2026-01-21 10:36:19.59	339.88	15.14	-28.5	-30.4	13.7	9.90e-06	0	43	0	1975517184	17	4518
2026-01-21 10:36:22.59	339.93	14.82	-28.6	-30.7	13.6	1.52e-05	0	43	0	1984954368	17	4584
2026-01-21 10:36:25.59	339.98	14.51	-28.4	-30.3	13.7	7.60e-06	0	43	0	1993342976	17	4489
2026-01-21 10:36:28.61	340.03	14.20	-28.5	-30.5	13.6	1.22e-05	0	43	0	2003828736	17	4539
2026-01-21 10:36:31.62	340.08	13.89	-28.8	-31.2	13.1	1.67e-05	0	43	0	2013265920	17	4777
2026-01-21 10:36:34.62	340.13	13.59	-28.8	-31.2	13.1	3.73e-05	0	43	0	2021654528	17	4772
2026-01-21 10:36:37.62	340.17	13.29	-28.8	-31.2	13.2	2.13e-05	0	43	0	2031091712	17	4762
2026-01-21 10:36:40.64	340.22	12.99	-28.7	-31.0	13.2	1.98e-05	0	43	0	2040528896	17	4720
2026-01-21 10:36:43.65	340.27	12.70	-28.9	-31.5	12.9	4.65e-05	0	43	0	2049966080	17	4870
2026-01-21 10:36:46.66	340.31	12.41	-29.2	-31.8	12.5	1.52e-04	0	43	0	2059403264	18	4842
2026-01-21 10:36:49.66	340.36	12.13	-29.3	-32.0	12.3	1.98e-04	0	43	0	2068840448	18	4922
2026-01-21 10:36:52.67	340.40	11.85	-29.3	-32.0	12.3	2.27e-04	0	43	0	2078277632	18	4929
2026-01-21 10:36:55.68	340.44	11.57	-29.5	-32.5	11.9	3.35e-04	0	43	0	2087714816	18	5113
2026-01-21 10:36:58.68	340.49	11.30	-28.9	-30.7	12.8	7.47e-05	0	43	0	2097152000	19	4395
2026-01-21 10:37:01.70	340.53	11.02	-28.9	-31.0	12.8	4.34e-05	0	43	0	2106589184	18	4608
2026-01-21 10:37:04.72	340.57	10.75	-29.2	-31.8	12.3	1.72e-04	0	43	0	2116026368	18	4858
2026-01-21 10:37:07.73	340.61	10.49	-29.2	-31.9	12.2	2.17e-04	0	43	0	2125463552	18	4922
2026-01-21 10:37:10.74	340.65	10.22	-28.7	-30.7	12.9	4.19e-05	0	43	0	2134900736	18	4512
2026-01-21 10:37:13.74	340.69	9.97	-28.5	-30.0	13.4	1.83e-05	0	43	0	2144337920	18	4314
2026-01-21 10:37:16.76	340.73	9.71	-28.7	-30.5	13.0	2.59e-05	0	43	0	2153775104	18	4472
2026-01-21 10:37:19.77	340.77	9.45	-28.9	-31.0	12.7	9.15e-05	0	43	0	2163212288	18	4626
2026-01-21 10:37:22.78	340.81	9.20	-28.7	-30.5	13.0	4.19e-05	0	43	0	2172649472	18	4467
2026-01-21 10:37:25.76	340.85	8.95	-28.7	-30.7	12.8	5.87e-05	0	43	0	2182086656	18	4528
2026-01-21 10:37:28.78	340.89	8.70	-28.7	-30.8	12.7	7.47e-05	0	43	0	2191523840	18	4540
2026-01-21 10:37:31.78	340.92	8.46	-28.9	-31.3	12.4	1.20e-04	0	43	0	2200961024	18	4709
2026-01-21 10:37:34.79	340.96	8.22	-29.0	-31.5	12.3	1.85e-04	0	43	0	2210398208	18	4773
2026-01-21 10:37:37.80	341.00	7.98	-29.1	-31.8	12.1	2.84e-04	0	43	0	2219835392	18	4893
2026-01-21 10:37:40.81	341.03	7.74	-29.2	-31.9	11.9	4.16e-04	0	43	0	2229272576	18	4937
2026-01-21 10:37:43.82	341.07	7.50	-29.0	-31.5	12.1	2.91e-04	0	43	0	2238709760	18	4803
2026-01-21 10:37:46.83	341.11	7.27	-29.1	-31.8	11.9	4.06e-04	0	43	0	2248146944	18	4903
2026-01-21 10:37:49.84	341.14	7.04	-33.0	-44.8	3.8	1.46e+00	0	43	104	2255486976	26	14013
2026-01-21 10:37:52.85	341.18	6.81	-33.8	-45.9	3.8	1.49e+00	0	43	104	2255486976	27	14544

#Closed at: 2026-01-21 10:37:53
#Recorded file [2255 MB]: D:/data/31010_260121_132547.dat