passes_logs/2026/01/21/R2M6_AANII_01/R2M6_AANII_01__20260121_133431_FENGYUN_3D_rec.log

#Pass ID: 20260121_133431_FENGYUN 3D
#Satellite: FENGYUN 3D
#Configuration: FENGYUN 3D
#almurnet v.1.7.20240730
#Start time: 2026-01-21 13:34:32

#Version: 2.2.20231116
#Station: R2M6_AANII_01
#Location: 30.233357 lon 59.946436 lat
#TLE: 1 43010U 17072A   26020.92362722 -.00000077  00000+0 -14488-4 0  9992
#TLE: 2 43010  98.9946 352.8312 0002486  99.3651 260.7806 14.19696535424099

#Time	Az	El	Level	Level2	SNR	BER	BlckErr	Temp	State	Recorded	gain1	gain2
2026-01-21 13:34:32.87	198.66	7.12	-28.0	-30.0	5.7	7.65e-01	0	42	0	0	16	4548
2026-01-21 13:34:35.88	198.88	7.33	-28.9	-31.8	11.5	5.18e-04	0	42	0	5242880	17	5012
2026-01-21 13:34:38.88	199.11	7.54	-28.0	-29.5	12.9	2.86e-05	0	42	0	22020096	17	4294
2026-01-21 13:34:41.89	199.34	7.75	-27.6	-29.2	13.5	1.25e-05	0	42	0	38797312	16	4293
2026-01-21 13:34:44.90	199.57	7.97	-27.5	-28.8	13.7	1.02e-05	0	42	0	55574528	16	4192
2026-01-21 13:34:47.91	199.80	8.18	-27.5	-28.8	13.8	5.70e-06	0	42	0	73400320	16	4183
2026-01-21 13:34:50.91	200.04	8.40	-27.2	-28.5	14.1	1.14e-05	0	42	0	90177536	15	4221
2026-01-21 13:34:53.92	200.28	8.62	-26.7	-28.1	14.7	0.00e+00	0	42	0	106954752	14	4194
2026-01-21 13:34:56.94	200.53	8.84	-26.8	-28.3	14.5	5.70e-06	0	42	0	123731968	14	4259
2026-01-21 13:34:59.96	200.77	9.06	-26.8	-28.1	14.7	1.10e-06	0	42	0	140509184	14	4193
2026-01-21 13:35:02.97	201.03	9.29	-26.8	-28.1	14.7	0.00e+00	0	42	0	157286400	14	4198
2026-01-21 13:35:05.97	201.28	9.51	-26.5	-27.5	15.1	0.00e+00	0	43	0	174063616	14	4039
2026-01-21 13:35:08.97	201.54	9.74	-26.6	-27.8	14.9	0.00e+00	0	43	0	190840832	14	4130
2026-01-21 13:35:11.98	201.80	9.97	-26.7	-27.9	14.9	0.00e+00	0	43	0	208666624	14	4160
2026-01-21 13:35:15.00	202.07	10.20	-26.6	-27.7	15.0	0.00e+00	0	43	0	225443840	14	4108
2026-01-21 13:35:18.00	202.34	10.43	-26.5	-27.6	15.1	0.00e+00	0	43	0	242221056	14	4075
2026-01-21 13:35:21.01	202.62	10.66	-26.5	-27.5	15.2	1.10e-06	0	43	0	258998272	14	4047
2026-01-21 13:35:24.03	202.90	10.90	-26.2	-27.3	15.6	0.00e+00	0	43	0	275775488	13	4082
2026-01-21 13:35:27.05	203.18	11.14	-26.2	-27.3	15.6	0.00e+00	0	43	0	293601280	13	4102
2026-01-21 13:35:30.05	203.47	11.37	-26.4	-27.7	15.4	0.00e+00	0	43	0	310378496	13	4209
2026-01-21 13:35:33.06	203.77	11.61	-26.2	-27.3	15.6	0.00e+00	0	43	0	327155712	13	4096
2026-01-21 13:35:36.06	204.06	11.85	-26.2	-27.3	15.6	0.00e+00	0	43	0	343932928	13	4084
2026-01-21 13:35:39.07	204.37	12.10	-26.4	-27.7	15.4	0.00e+00	0	43	0	360710144	13	4197
2026-01-21 13:35:42.08	204.67	12.34	-25.8	-26.4	16.1	0.00e+00	0	43	0	377487360	13	3876
2026-01-21 13:35:45.09	204.99	12.59	-25.9	-27.2	16.0	0.00e+00	0	43	0	394264576	12	4161
2026-01-21 13:35:48.10	205.30	12.84	-26.1	-27.6	15.8	0.00e+00	0	43	0	411041792	12	4270
2026-01-21 13:35:51.12	205.63	13.09	-25.8	-26.9	16.3	0.00e+00	0	43	0	428867584	12	4084
2026-01-21 13:35:54.12	205.95	13.34	-25.8	-26.9	16.3	0.00e+00	0	43	0	445644800	12	4086
2026-01-21 13:35:57.14	206.29	13.60	-25.8	-26.8	16.3	0.00e+00	0	43	0	462422016	12	4069
2026-01-21 13:36:00.14	206.63	13.85	-25.8	-27.0	16.2	0.00e+00	0	43	0	479199232	12	4118
2026-01-21 13:36:03.15	206.97	14.11	-25.8	-26.9	16.3	0.00e+00	0	44	0	495976448	12	4084
2026-01-21 13:36:06.16	207.32	14.37	-26.0	-27.3	16.1	0.00e+00	0	43	0	512753664	12	4192
2026-01-21 13:36:09.16	207.68	14.63	-25.6	-26.6	16.5	0.00e+00	0	43	0	529530880	12	4009
2026-01-21 13:36:12.16	208.04	14.89	-25.5	-26.3	16.6	0.00e+00	0	44	0	546308096	12	3937
2026-01-21 13:36:15.17	208.41	15.15	-25.5	-26.2	16.7	0.00e+00	0	43	0	564133888	12	3910
2026-01-21 13:36:18.19	208.79	15.42	-25.5	-26.2	16.7	0.00e+00	0	43	0	580911104	12	3914
2026-01-21 13:36:21.21	209.17	15.69	-25.4	-26.1	16.8	0.00e+00	0	43	0	597688320	12	3896
2026-01-21 13:36:24.22	209.56	15.96	-25.3	-25.9	16.9	0.00e+00	0	44	0	614465536	12	3847
2026-01-21 13:36:27.23	209.95	16.23	-25.4	-26.1	16.8	0.00e+00	0	44	0	631242752	12	3899
2026-01-21 13:36:30.24	210.36	16.51	-25.3	-26.4	17.0	0.00e+00	0	44	0	649068544	11	4069
2026-01-21 13:36:33.25	210.77	16.78	-25.3	-26.4	17.0	0.00e+00	0	44	0	665845760	11	4053
2026-01-21 13:36:36.25	211.18	17.06	-25.2	-26.2	17.1	0.00e+00	0	44	0	682622976	11	4010
2026-01-21 13:36:39.26	211.61	17.34	-25.2	-26.1	17.2	0.00e+00	0	44	0	699400192	11	3978
2026-01-21 13:36:42.27	212.04	17.62	-25.2	-26.1	17.2	0.00e+00	0	44	0	716177408	11	3991
2026-01-21 13:36:45.29	212.48	17.90	-25.2	-26.1	17.2	0.00e+00	0	44	0	732954624	11	3993
2026-01-21 13:36:48.28	212.93	18.18	-25.1	-25.8	17.4	0.00e+00	0	44	0	749731840	11	3919
2026-01-21 13:36:51.30	213.39	18.47	-24.9	-25.5	17.6	0.00e+00	0	44	0	766509056	11	3844
2026-01-21 13:36:54.32	213.85	18.76	-24.8	-25.3	17.7	0.00e+00	0	44	0	784334848	11	3784
2026-01-21 13:36:57.33	214.33	19.05	-24.9	-25.4	17.7	0.00e+00	0	44	0	801112064	11	3811
2026-01-21 13:37:00.35	214.81	19.34	-24.7	-25.5	17.8	0.00e+00	0	44	0	817889280	10	3950
2026-01-21 13:37:03.36	215.30	19.63	-24.7	-25.6	17.9	0.00e+00	0	44	0	834666496	10	3968
2026-01-21 13:37:06.37	215.80	19.92	-24.8	-25.7	17.8	0.00e+00	0	44	0	851443712	10	3997
2026-01-21 13:37:09.37	216.31	20.21	-24.6	-25.3	18.0	0.00e+00	0	44	0	869269504	10	3894
2026-01-21 13:37:12.40	216.83	20.51	-24.6	-25.3	18.0	0.00e+00	0	44	0	886046720	10	3893
2026-01-21 13:37:15.41	217.36	20.81	-24.6	-25.3	18.0	0.00e+00	0	44	0	902823936	10	3895
2026-01-21 13:37:18.42	217.90	21.10	-24.6	-25.4	18.0	0.00e+00	0	44	0	919601152	10	3915
2026-01-21 13:37:21.43	218.45	21.40	-24.7	-25.4	18.0	0.00e+00	0	44	0	936378368	10	3935
2026-01-21 13:37:24.45	219.02	21.70	-24.6	-25.2	18.1	0.00e+00	0	44	0	953155584	10	3883
2026-01-21 13:37:27.46	219.59	22.00	-24.7	-25.6	17.9	0.00e+00	0	44	0	969932800	10	3969
2026-01-21 13:37:30.48	220.17	22.30	-24.0	-24.5	18.7	0.00e+00	0	44	0	987758592	9	3820
2026-01-21 13:37:33.49	220.76	22.60	-24.1	-24.7	18.6	4.50e-06	0	44	0	1004535808	9	3874
2026-01-21 13:37:36.51	221.37	22.91	-24.1	-24.7	18.7	2.20e-06	0	44	0	1021313024	9	3864
2026-01-21 13:37:39.52	221.99	23.21	-24.0	-24.5	18.8	0.00e+00	0	44	0	1038090240	9	3817
2026-01-21 13:37:42.53	222.61	23.51	-23.9	-24.4	18.8	2.20e-06	0	44	0	1054867456	9	3790
2026-01-21 13:37:45.54	223.25	23.81	-23.9	-24.3	18.8	4.50e-06	0	44	0	1072693248	9	3783
2026-01-21 13:37:48.55	223.90	24.11	-23.8	-24.1	19.0	4.50e-06	0	44	0	1089470464	9	3736
2026-01-21 13:37:51.55	224.57	24.41	-23.7	-24.3	19.1	0.00e+00	0	44	0	1106247680	8	3885
2026-01-21 13:37:54.56	225.24	24.71	-23.8	-24.6	19.0	0.00e+00	0	44	0	1123024896	8	3948
2026-01-21 13:37:57.57	225.93	25.01	-24.0	-25.1	18.7	3.40e-06	0	44	0	1139802112	8	4073
2026-01-21 13:38:00.60	226.64	25.31	-24.0	-25.0	18.8	0.00e+00	0	44	0	1156579328	8	4058
2026-01-21 13:38:03.61	227.35	25.61	-23.9	-24.9	18.9	0.00e+00	0	44	0	1173356544	8	4013
2026-01-21 13:38:06.62	228.08	25.91	-23.6	-24.2	19.3	0.00e+00	0	44	0	1190133760	8	3851
2026-01-21 13:38:09.63	228.82	26.20	-23.8	-24.6	19.0	0.00e+00	0	44	0	1207959552	8	3948
2026-01-21 13:38:12.65	229.58	26.50	-23.4	-23.8	19.4	0.00e+00	0	44	0	1224736768	8	3761
2026-01-21 13:38:15.66	230.35	26.79	-23.6	-24.2	19.2	0.00e+00	0	44	0	1241513984	8	3860
2026-01-21 13:38:18.67	231.13	27.08	-23.4	-23.8	19.5	0.00e+00	0	44	0	1258291200	8	3762
2026-01-21 13:38:21.68	231.93	27.36	-23.1	-23.7	19.8	0.00e+00	0	44	0	1275068416	7	3836
2026-01-21 13:38:24.69	232.74	27.64	-23.2	-23.9	19.6	0.00e+00	0	44	0	1292894208	7	3889
2026-01-21 13:38:27.69	233.56	27.92	-23.3	-24.0	19.7	0.00e+00	0	44	0	1309671424	7	3907
2026-01-21 13:38:30.70	234.40	28.20	-23.2	-23.9	19.7	0.00e+00	0	44	0	1326448640	7	3881
2026-01-21 13:38:33.73	235.26	28.47	-23.2	-23.9	19.7	0.00e+00	0	44	0	1343225856	7	3875
2026-01-21 13:38:36.74	236.13	28.74	-23.1	-23.7	19.8	0.00e+00	0	44	0	1360003072	7	3830
2026-01-21 13:38:39.74	237.00	29.00	-23.7	-24.9	19.2	0.00e+00	0	44	0	1376780288	7	4124
2026-01-21 13:38:42.76	237.90	29.26	-23.3	-24.0	19.7	0.00e+00	0	44	0	1393557504	7	3906
2026-01-21 13:38:45.77	238.81	29.51	-23.4	-24.2	19.5	0.00e+00	0	44	0	1410334720	7	3964
2026-01-21 13:38:48.78	239.74	29.76	-23.1	-23.5	19.9	0.00e+00	0	44	0	1428160512	7	3801
2026-01-21 13:38:51.79	240.67	30.00	-23.4	-24.3	19.5	0.00e+00	0	44	0	1444937728	7	3992
2026-01-21 13:38:54.80	241.62	30.23	-23.3	-24.0	19.7	0.00e+00	0	44	0	1461714944	7	3914
2026-01-21 13:38:57.81	242.59	30.46	-23.4	-24.2	19.6	0.00e+00	0	44	0	1478492160	7	3944
2026-01-21 13:39:00.82	243.57	30.68	-23.3	-24.1	19.6	0.00e+00	0	44	0	1495269376	7	3932
2026-01-21 13:39:03.83	244.56	30.89	-23.1	-23.7	19.9	0.00e+00	0	44	0	1513095168	7	3832
2026-01-21 13:39:06.85	245.56	31.10	-22.9	-23.1	20.2	0.00e+00	0	44	0	1529872384	7	3697
2026-01-21 13:39:09.87	246.58	31.30	-23.3	-24.1	19.7	0.00e+00	0	44	0	1546649600	7	3923
2026-01-21 13:39:12.87	247.60	31.49	-23.4	-24.3	19.6	0.00e+00	0	44	0	1563426816	7	3970
2026-01-21 13:39:15.88	248.64	31.67	-23.2	-23.7	19.8	0.00e+00	0	44	0	1580204032	7	3848
2026-01-21 13:39:18.89	249.69	31.84	-23.1	-23.6	19.9	0.00e+00	0	44	0	1596981248	7	3817
2026-01-21 13:39:21.90	250.75	32.00	-23.1	-23.7	19.9	0.00e+00	0	44	0	1613758464	7	3839
2026-01-21 13:39:24.92	251.83	32.15	-23.2	-23.8	19.8	0.00e+00	0	44	0	1630535680	7	3858
2026-01-21 13:39:27.93	252.91	32.29	-23.2	-23.8	19.8	0.00e+00	0	44	0	1648361472	7	3852
2026-01-21 13:39:30.94	253.99	32.42	-22.8	-23.5	20.2	0.00e+00	0	44	0	1665138688	6	3885
2026-01-21 13:39:33.93	255.08	32.54	-23.2	-24.4	19.8	0.00e+00	0	44	0	1681915904	6	4114
2026-01-21 13:39:36.94	256.19	32.64	-23.1	-24.0	19.9	0.00e+00	0	44	0	1698693120	6	4014
2026-01-21 13:39:39.95	257.30	32.74	-23.3	-24.5	19.7	0.00e+00	0	44	0	1715470336	6	4131
2026-01-21 13:39:42.96	258.42	32.83	-23.3	-24.5	19.7	0.00e+00	0	44	0	1732247552	6	4145
2026-01-21 13:39:45.97	259.54	32.90	-23.1	-24.1	19.9	0.00e+00	0	44	0	1749024768	6	4049
2026-01-21 13:39:48.96	260.66	32.96	-23.0	-23.9	20.0	0.00e+00	0	44	0	1765801984	6	4003
2026-01-21 13:39:51.96	261.78	33.01	-23.0	-23.9	20.0	0.00e+00	0	44	0	1783627776	6	4002
2026-01-21 13:39:54.98	262.92	33.05	-22.9	-23.6	20.2	0.00e+00	0	44	0	1800404992	6	3931
2026-01-21 13:39:58.00	264.06	33.07	-23.2	-24.3	19.8	0.00e+00	0	44	0	1817182208	6	4101
2026-01-21 13:40:01.02	265.20	33.09	-23.4	-24.7	19.6	0.00e+00	0	44	0	1833959424	6	4196
2026-01-21 13:40:04.03	266.34	33.09	-23.8	-25.0	19.2	0.00e+00	0	44	0	1850736640	7	4151
2026-01-21 13:40:07.04	267.48	33.08	-23.3	-24.0	19.7	0.00e+00	0	44	0	1868562432	7	3915
2026-01-21 13:40:10.05	268.61	33.05	-23.2	-23.8	19.9	0.00e+00	0	44	0	1885339648	7	3852
2026-01-21 13:40:13.06	269.74	33.02	-23.0	-23.4	20.0	0.00e+00	0	44	0	1902116864	7	3771
2026-01-21 13:40:16.07	270.87	32.97	-23.3	-23.9	19.8	0.00e+00	0	44	0	1918894080	7	3890
2026-01-21 13:40:19.08	272.00	32.91	-23.2	-23.8	19.9	0.00e+00	0	44	0	1935671296	7	3847
2026-01-21 13:40:22.09	273.12	32.84	-23.3	-24.1	19.7	0.00e+00	0	44	0	1952448512	7	3923
2026-01-21 13:40:25.10	274.24	32.75	-23.3	-24.1	19.7	0.00e+00	0	44	0	1969225728	7	3923
2026-01-21 13:40:28.11	275.35	32.66	-23.3	-24.1	19.7	0.00e+00	0	44	0	1987051520	7	3929
2026-01-21 13:40:31.11	276.45	32.55	-23.5	-24.3	19.5	0.00e+00	0	44	0	2003828736	7	3981
2026-01-21 13:40:34.13	277.55	32.43	-23.7	-24.3	19.3	0.00e+00	0	44	0	2020605952	8	3879
2026-01-21 13:40:37.12	278.63	32.31	-23.1	-23.7	19.9	0.00e+00	0	44	0	2037383168	7	3827
2026-01-21 13:40:40.13	279.71	32.17	-23.5	-24.5	19.5	0.00e+00	0	44	0	2054160384	7	4028
2026-01-21 13:40:43.14	280.78	32.02	-23.3	-24.1	19.7	0.00e+00	0	44	0	2070937600	7	3937
2026-01-21 13:40:46.15	281.84	31.86	-23.4	-24.2	19.6	0.00e+00	0	44	0	2087714816	7	3955
2026-01-21 13:40:49.15	282.88	31.69	-23.1	-23.6	19.9	0.00e+00	0	44	0	2104492032	7	3821
2026-01-21 13:40:52.15	283.92	31.51	-23.5	-24.4	19.5	0.00e+00	0	44	0	2122317824	7	4010
2026-01-21 13:40:55.16	284.94	31.33	-23.2	-23.9	19.8	0.00e+00	0	44	0	2139095040	7	3875
2026-01-21 13:40:58.17	285.96	31.13	-23.6	-24.6	19.4	0.00e+00	0	44	0	2155872256	7	4059
2026-01-21 13:41:01.18	286.96	30.93	-23.4	-24.3	19.6	0.00e+00	0	44	0	2172649472	7	3967
2026-01-21 13:41:04.19	287.95	30.72	-23.6	-24.7	19.4	0.00e+00	0	44	0	2189426688	7	4066
2026-01-21 13:41:07.20	288.93	30.50	-23.5	-24.4	19.5	0.00e+00	0	44	0	2206203904	7	4012
2026-01-21 13:41:10.21	289.89	30.27	-23.5	-24.5	19.5	0.00e+00	0	44	0	2222981120	7	4016
2026-01-21 13:41:13.22	290.84	30.04	-23.4	-24.2	19.6	0.00e+00	0	44	0	2239758336	7	3960
2026-01-21 13:41:16.23	291.78	29.80	-23.4	-24.3	19.6	0.00e+00	0	44	0	2257584128	7	3980
2026-01-21 13:41:19.24	292.70	29.56	-23.6	-24.6	19.4	0.00e+00	0	44	0	2274361344	7	4062
2026-01-21 13:41:22.26	293.61	29.30	-23.6	-24.7	19.3	0.00e+00	0	44	0	2291138560	7	4085
2026-01-21 13:41:25.26	294.50	29.05	-23.6	-24.6	19.4	0.00e+00	0	44	0	2307915776	7	4051
2026-01-21 13:41:28.28	295.38	28.79	-23.6	-24.7	19.4	0.00e+00	0	44	0	2324692992	7	4070
2026-01-21 13:41:31.28	296.25	28.52	-23.7	-24.8	19.3	0.00e+00	0	44	0	2341470208	7	4094
2026-01-21 13:41:34.30	297.10	28.25	-23.5	-24.5	19.5	0.00e+00	0	44	0	2359296000	7	4025
2026-01-21 13:41:37.29	297.94	27.98	-23.6	-24.5	19.4	0.00e+00	0	44	0	2376073216	7	4036
2026-01-21 13:41:40.30	298.76	27.70	-23.7	-24.8	19.3	0.00e+00	0	44	0	2392850432	7	4107
2026-01-21 13:41:43.32	299.57	27.42	-23.6	-24.6	19.4	0.00e+00	0	44	0	2409627648	7	4058
2026-01-21 13:41:46.34	300.37	27.14	-24.0	-25.0	18.9	0.00e+00	0	44	0	2426404864	8	4053
2026-01-21 13:41:49.35	301.15	26.85	-23.8	-24.6	19.2	0.00e+00	0	44	0	2443182080	8	3933
2026-01-21 13:41:52.35	301.92	26.57	-23.9	-24.7	19.1	0.00e+00	0	44	0	2459959296	8	3968
2026-01-21 13:41:55.36	302.67	26.28	-24.0	-24.9	19.0	0.00e+00	0	44	0	2477785088	8	4021
2026-01-21 13:41:58.37	303.42	25.98	-23.9	-24.8	19.0	0.00e+00	0	44	0	2494562304	8	3987
2026-01-21 13:42:01.38	304.14	25.69	-23.8	-24.5	19.2	0.00e+00	0	44	0	2511339520	8	3919
2026-01-21 13:42:04.38	304.86	25.39	-23.9	-24.9	19.0	0.00e+00	0	44	0	2528116736	8	4005
2026-01-21 13:42:07.39	305.56	25.10	-24.0	-24.9	18.9	0.00e+00	0	44	0	2544893952	8	4016
2026-01-21 13:42:10.41	306.25	24.80	-24.2	-25.5	18.7	0.00e+00	0	44	0	2561671168	8	4161
2026-01-21 13:42:13.42	306.92	24.50	-24.1	-25.1	18.8	0.00e+00	0	44	0	2578448384	8	4061
2026-01-21 13:42:16.43	307.59	24.20	-24.1	-25.1	18.8	0.00e+00	0	44	0	2595225600	8	4071
2026-01-21 13:42:19.44	308.24	23.90	-24.2	-25.5	18.7	0.00e+00	0	44	0	2613051392	8	4152
2026-01-21 13:42:22.44	308.88	23.60	-24.1	-25.2	18.8	0.00e+00	0	44	0	2629828608	8	4088
2026-01-21 13:42:25.45	309.51	23.30	-24.2	-25.5	18.7	0.00e+00	0	44	0	2646605824	8	4151
2026-01-21 13:42:28.46	310.12	23.00	-24.3	-25.7	18.5	0.00e+00	0	44	0	2663383040	8	4214
2026-01-21 13:42:31.47	310.73	22.71	-24.6	-25.8	18.2	0.00e+00	0	44	0	2680160256	9	4122
2026-01-21 13:42:34.47	311.32	22.41	-24.6	-25.7	18.2	0.00e+00	0	44	0	2696937472	9	4108
2026-01-21 13:42:37.49	311.90	22.11	-24.7	-26.0	18.1	0.00e+00	0	44	0	2714763264	9	4169
2026-01-21 13:42:40.50	312.47	21.81	-24.7	-25.9	18.1	0.00e+00	0	44	0	2731540480	9	4153
2026-01-21 13:42:43.50	313.03	21.51	-24.9	-26.4	17.9	0.00e+00	0	44	0	2748317696	9	4272
2026-01-21 13:42:46.50	313.58	21.22	-25.0	-26.1	17.7	0.00e+00	0	44	0	2765094912	10	4101
2026-01-21 13:42:49.51	314.12	20.92	-25.2	-26.5	17.5	0.00e+00	0	44	0	2781872128	10	4196
2026-01-21 13:42:52.52	314.65	20.63	-25.0	-26.1	17.7	0.00e+00	0	44	0	2798649344	10	4094
2026-01-21 13:42:55.53	315.17	20.34	-25.0	-26.2	17.7	0.00e+00	0	44	0	2815426560	10	4114
2026-01-21 13:42:58.53	315.68	20.05	-25.1	-26.4	17.6	0.00e+00	0	44	0	2832203776	10	4177
2026-01-21 13:43:01.53	316.18	19.76	-25.0	-26.1	17.7	0.00e+00	0	44	0	2848980992	10	4088
2026-01-21 13:43:04.55	316.67	19.47	-24.9	-26.0	17.8	0.00e+00	0	44	0	2866806784	10	4055
2026-01-21 13:43:07.56	317.16	19.18	-25.1	-26.4	17.5	0.00e+00	0	44	0	2883584000	10	4178
2026-01-21 13:43:10.57	317.63	18.89	-25.3	-26.7	17.3	0.00e+00	0	44	0	2900361216	10	4256
2026-01-21 13:43:13.57	318.10	18.61	-25.5	-27.1	17.1	0.00e+00	0	44	0	2917138432	10	4359
2026-01-21 13:43:16.59	318.56	18.32	-25.7	-27.2	16.8	0.00e+00	0	44	0	2933915648	11	4262
2026-01-21 13:43:19.59	319.00	18.04	-25.8	-27.4	16.7	0.00e+00	0	44	0	2950692864	11	4318
2026-01-21 13:43:22.60	319.45	17.76	-25.9	-27.1	16.5	0.00e+00	0	44	0	2968518656	12	4126
2026-01-21 13:43:25.61	319.88	17.48	-25.7	-26.7	16.7	0.00e+00	0	44	0	2985295872	12	4039
2026-01-21 13:43:28.62	320.31	17.20	-25.7	-26.7	16.7	0.00e+00	0	44	0	3002073088	12	4015
2026-01-21 13:43:31.62	320.72	16.93	-25.7	-26.7	16.7	0.00e+00	0	44	0	3018850304	12	4018
2026-01-21 13:43:34.64	321.14	16.66	-25.8	-26.9	16.6	0.00e+00	0	44	0	3035627520	12	4074
2026-01-21 13:43:37.65	321.54	16.38	-25.8	-27.0	16.5	0.00e+00	0	44	0	3052404736	12	4095
2026-01-21 13:43:40.66	321.94	16.11	-25.9	-27.0	16.5	0.00e+00	0	44	0	3069181952	12	4101
2026-01-21 13:43:43.67	322.33	15.84	-25.9	-27.0	16.5	0.00e+00	0	44	0	3087007744	12	4111
2026-01-21 13:43:46.68	322.71	15.58	-25.8	-26.8	16.6	0.00e+00	0	44	0	3103784960	12	4066
2026-01-21 13:43:49.69	323.09	15.31	-25.8	-26.9	16.5	0.00e+00	0	44	0	3120562176	12	4088
2026-01-21 13:43:52.70	323.46	15.05	-25.9	-27.1	16.4	0.00e+00	0	44	0	3137339392	12	4125
2026-01-21 13:43:55.72	323.83	14.79	-26.0	-27.4	16.2	0.00e+00	0	44	0	3154116608	12	4204
2026-01-21 13:43:58.73	324.18	14.53	-26.3	-27.9	15.9	0.00e+00	0	44	0	3170893824	12	4348
2026-01-21 13:44:01.73	324.53	14.27	-26.3	-28.0	15.9	0.00e+00	0	44	0	3187671040	12	4363
2026-01-21 13:44:04.74	324.88	14.01	-26.3	-28.0	15.8	0.00e+00	0	44	0	3205496832	12	4371
2026-01-21 13:44:07.76	325.22	13.76	-26.0	-27.4	16.2	0.00e+00	0	44	0	3222274048	12	4205
2026-01-21 13:44:10.77	325.56	13.51	-26.1	-27.6	16.1	0.00e+00	0	44	0	3239051264	12	4260
2026-01-21 13:44:13.78	325.89	13.26	-26.4	-28.1	15.7	0.00e+00	0	44	0	3255828480	12	4408
2026-01-21 13:44:16.77	326.21	13.01	-26.4	-28.3	15.6	0.00e+00	0	44	0	3272605696	12	4464
2026-01-21 13:44:19.78	326.53	12.76	-26.8	-28.2	15.1	0.00e+00	0	44	0	3289382912	14	4212
2026-01-21 13:44:22.79	326.85	12.52	-26.6	-27.6	15.4	0.00e+00	0	44	0	3307208704	14	4056
2026-01-21 13:44:25.81	327.16	12.27	-26.6	-27.7	15.4	0.00e+00	0	44	0	3323985920	14	4084
2026-01-21 13:44:28.83	327.46	12.03	-26.8	-28.0	15.2	0.00e+00	0	44	0	3340763136	14	4169
2026-01-21 13:44:31.84	327.76	11.79	-26.9	-28.5	14.9	0.00e+00	0	44	0	3357540352	14	4283
2026-01-21 13:44:34.85	328.06	11.55	-26.9	-28.4	15.0	0.00e+00	0	44	0	3374317568	14	4260
2026-01-21 13:44:37.86	328.35	11.31	-27.0	-28.5	14.8	0.00e+00	0	44	0	3391094784	14	4298
2026-01-21 13:44:40.87	328.63	11.08	-26.8	-28.2	15.0	0.00e+00	0	44	0	3407872000	14	4207
2026-01-21 13:44:43.90	328.92	10.84	-26.9	-28.4	14.9	0.00e+00	0	44	0	3425697792	14	4260
2026-01-21 13:44:46.91	329.20	10.61	-27.1	-28.8	14.6	1.10e-06	0	44	0	3442475008	14	4380
2026-01-21 13:44:49.92	329.47	10.38	-27.1	-28.8	14.6	0.00e+00	0	44	0	3459252224	14	4381
2026-01-21 13:44:52.92	329.74	10.15	-27.4	-29.5	14.3	0.00e+00	0	44	0	3476029440	14	4577
2026-01-21 13:44:55.93	330.00	9.92	-27.3	-29.4	14.3	0.00e+00	0	44	0	3492806656	14	4545
2026-01-21 13:44:58.94	330.27	9.70	-27.4	-29.6	14.2	0.00e+00	0	45	0	3509583872	14	4612
2026-01-21 13:45:01.96	330.53	9.47	-27.4	-29.1	14.2	0.00e+00	0	44	0	3527409664	15	4348
2026-01-21 13:45:04.96	330.78	9.25	-27.6	-29.4	14.0	2.20e-06	0	44	0	3544186880	15	4430
2026-01-21 13:45:07.96	331.03	9.03	-27.3	-28.9	14.2	1.10e-06	0	44	0	3560964096	15	4296
2026-01-21 13:45:10.97	331.28	8.81	-27.4	-29.0	14.1	1.10e-06	0	44	0	3577741312	15	4334
2026-01-21 13:45:13.99	331.52	8.59	-27.6	-29.5	13.8	3.40e-06	0	44	0	3594518528	15	4482
2026-01-21 13:45:17.00	331.76	8.38	-27.7	-29.6	13.7	5.70e-06	0	44	0	3611295744	15	4516
2026-01-21 13:45:20.02	332.00	8.16	-27.7	-29.7	13.6	8.00e-06	0	44	0	3628072960	15	4549
2026-01-21 13:45:23.03	332.23	7.95	-27.6	-29.5	13.8	5.70e-06	0	45	0	3644850176	15	4474
2026-01-21 13:45:26.03	332.46	7.74	-27.7	-29.7	13.6	3.40e-06	0	45	0	3662675968	15	4533
2026-01-21 13:45:29.04	332.69	7.53	-27.6	-29.6	13.6	6.80e-06	0	44	0	3679453184	15	4518
2026-01-21 13:45:32.06	332.91	7.32	-27.6	-29.5	13.7	5.70e-06	0	44	0	3696230400	15	4481
2026-01-21 13:45:35.07	333.14	7.11	-27.6	-29.4	13.7	9.10e-06	0	44	0	3713007616	15	4465

#Closed at: 2026-01-21 13:45:37
#Recorded file [3715 MB]: D:/data/31010_260121_163434.dat