passes_logs/2026/01/21/R2M6_AANII_01/R2M6_AANII_01__20260121_120801_NOAA_21_JPSS-2_rec.log

#Pass ID: 20260121_120801_NOAA 21 (JPSS-2)
#Satellite: NOAA 21 (JPSS-2)
#Configuration: NOAA 21
#almurnet v.1.7.20240730
#Start time: 2026-01-21 12:08:30

#Version: 2.2.20231116
#Station: R2M6_AANII_01
#Location: 30.233357 lon 59.946436 lat
#TLE: 1 54234U 22150A   26020.29910383  .00000141  00000+0  87571-4 0  9990
#TLE: 2 54234  98.7506 321.1348 0000615 250.8428 109.2682 14.19536295165564

#Time	Az	El	Level	Level2	SNR	BER	BlckErr	Temp	State	Recorded	gain1	gain2
2026-01-21 12:08:30.06	223.55	8.69	-34.0	-43.8	3.8	8.47e-01	0	44	0	0	27	11157
2026-01-21 12:08:33.06	223.90	8.87	-34.5	-45.9	3.8	1.49e+00	0	44	104	0	30	13341
2026-01-21 12:08:36.05	224.26	9.05	-34.5	-45.9	3.8	1.49e+00	0	45	104	0	30	13329
2026-01-21 12:08:39.05	224.63	9.24	-34.4	-45.8	3.8	1.49e+00	0	45	104	0	30	13322
2026-01-21 12:08:42.06	224.99	9.42	-34.4	-45.8	3.8	1.49e+00	0	44	104	0	30	13287
2026-01-21 12:08:45.06	225.37	9.60	-34.4	-45.7	3.8	1.49e+00	0	44	104	0	30	13240
2026-01-21 12:08:48.07	225.75	9.79	-34.5	-45.7	3.8	1.49e+00	0	45	104	0	30	13195
2026-01-21 12:08:51.08	226.13	9.97	-34.4	-45.6	3.8	1.49e+00	0	44	104	0	30	13145
2026-01-21 12:08:54.08	226.51	10.15	-34.2	-45.8	3.8	1.49e+00	0	45	104	0	29	13692
2026-01-21 12:08:57.10	226.91	10.34	-34.1	-45.6	3.8	1.49e+00	0	44	104	0	29	13574
2026-01-21 12:09:00.10	227.30	10.52	-33.9	-45.3	3.8	1.49e+00	0	45	104	0	29	13370
2026-01-21 12:09:03.12	227.71	10.71	-33.5	-44.7	3.8	1.49e+00	0	44	104	0	28	13060
2026-01-21 12:09:06.13	228.11	10.89	-33.4	-45.0	3.8	1.49e+00	0	45	104	0	27	13725
2026-01-21 12:09:09.14	228.53	11.08	-33.3	-44.5	3.8	1.49e+00	0	44	104	0	27	12999
2026-01-21 12:09:12.16	228.95	11.26	-33.4	-44.9	3.8	1.49e+00	0	44	104	0	27	13560
2026-01-21 12:09:15.17	229.37	11.45	-32.7	-39.8	4.8	9.98e-01	0	44	104	0	26	8126
2026-01-21 12:09:18.20	229.80	11.64	-30.2	-32.9	10.7	4.84e-03	0	44	0	7340032	21	4941
2026-01-21 12:09:21.21	230.23	11.82	-28.6	-30.3	13.5	1.44e-05	0	44	0	16777216	18	4377
2026-01-21 12:09:24.22	230.67	12.01	-29.4	-32.3	12.2	1.47e-04	0	45	0	26214400	18	5025
2026-01-21 12:09:27.24	231.11	12.19	-29.6	-32.2	12.0	4.07e-04	0	44	0	35651584	19	4864
2026-01-21 12:09:30.25	231.56	12.38	-28.9	-30.5	13.1	4.27e-05	0	44	0	45088768	19	4330
2026-01-21 12:09:33.26	232.02	12.56	-28.7	-30.6	13.3	1.98e-05	0	44	0	54525952	18	4456
2026-01-21 12:09:36.27	232.48	12.75	-28.5	-30.1	13.6	9.90e-06	0	44	0	63963136	18	4322
2026-01-21 12:09:39.27	232.94	12.93	-28.5	-30.0	13.7	6.10e-06	0	44	0	73400320	18	4289
2026-01-21 12:09:42.28	233.41	13.11	-28.4	-29.9	13.8	6.10e-06	0	44	0	81788928	18	4248
2026-01-21 12:09:45.28	233.89	13.30	-28.4	-29.7	13.9	8.30e-06	0	44	0	91226112	18	4202
2026-01-21 12:09:48.29	234.37	13.48	-28.4	-29.8	13.9	2.20e-06	0	44	0	100663296	18	4237
2026-01-21 12:09:51.29	234.85	13.66	-28.3	-30.0	14.1	2.20e-06	0	44	0	110100480	17	4384
2026-01-21 12:09:54.29	235.35	13.84	-28.5	-30.6	13.7	6.10e-06	0	44	0	119537664	17	4548
2026-01-21 12:09:57.29	235.85	14.02	-28.3	-30.0	14.1	3.00e-06	0	44	0	128974848	17	4379
2026-01-21 12:10:00.29	236.35	14.20	-28.5	-30.5	13.8	3.00e-06	0	44	0	138412032	17	4522
2026-01-21 12:10:03.32	236.86	14.39	-28.2	-29.8	14.2	2.20e-06	0	44	0	147849216	17	4314
2026-01-21 12:10:06.33	237.38	14.56	-28.3	-30.0	14.1	7.00e-07	0	44	0	157286400	17	4387
2026-01-21 12:10:09.33	237.90	14.74	-28.3	-30.0	14.1	7.00e-07	0	44	0	166723584	17	4381
2026-01-21 12:10:12.32	238.43	14.92	-28.3	-30.0	14.2	1.50e-06	0	44	0	176160768	17	4362
2026-01-21 12:10:15.33	238.97	15.09	-28.3	-30.0	14.2	3.00e-06	0	44	0	185597952	17	4366
2026-01-21 12:10:18.34	239.51	15.27	-28.3	-30.1	14.1	2.20e-06	0	44	0	195035136	17	4389
2026-01-21 12:10:21.34	240.06	15.44	-28.3	-30.0	14.2	1.50e-06	0	44	0	204472320	17	4371
2026-01-21 12:10:24.33	240.61	15.61	-28.3	-30.1	14.2	7.00e-07	0	44	0	213909504	17	4392
2026-01-21 12:10:27.33	241.17	15.79	-28.3	-30.0	14.2	7.00e-07	0	44	0	223346688	17	4362
2026-01-21 12:10:30.33	241.73	15.95	-28.5	-30.4	14.0	3.80e-06	0	44	0	232783872	17	4483
2026-01-21 12:10:33.33	242.30	16.12	-28.6	-30.7	13.8	5.30e-06	0	44	0	242221056	17	4581
2026-01-21 12:10:36.33	242.88	16.29	-28.7	-30.9	13.7	3.80e-06	0	44	0	251658240	17	4627
2026-01-21 12:10:39.33	243.46	16.45	-28.5	-30.4	14.0	2.20e-06	0	44	0	261095424	17	4489
2026-01-21 12:10:42.34	244.06	16.62	-28.5	-30.5	14.0	2.20e-06	0	44	0	269484032	17	4509
2026-01-21 12:10:45.34	244.65	16.78	-28.2	-29.7	14.4	3.80e-06	0	44	0	278921216	17	4293
2026-01-21 12:10:48.35	245.26	16.94	-28.3	-29.9	14.3	0.00e+00	0	44	0	288358400	17	4339
2026-01-21 12:10:51.36	245.87	17.10	-28.2	-29.8	14.4	0.00e+00	0	44	0	297795584	17	4297
2026-01-21 12:10:54.36	246.48	17.25	-28.1	-29.5	14.6	7.00e-07	0	44	0	307232768	17	4208
2026-01-21 12:10:57.36	247.10	17.40	-28.2	-29.6	14.5	7.00e-07	0	44	0	316669952	17	4249
2026-01-21 12:11:00.36	247.73	17.55	-28.0	-29.3	14.7	0.00e+00	0	44	0	326107136	17	4173
2026-01-21 12:11:03.37	248.36	17.70	-28.0	-29.3	14.7	0.00e+00	0	44	0	335544320	17	4173
2026-01-21 12:11:06.37	249.00	17.85	-28.2	-29.7	14.5	0.00e+00	0	44	0	344981504	17	4288
2026-01-21 12:11:09.39	249.65	17.99	-27.9	-29.0	14.9	0.00e+00	0	44	0	354418688	17	4081
2026-01-21 12:11:12.40	250.31	18.13	-27.9	-29.4	14.9	0.00e+00	0	44	0	363855872	16	4309
2026-01-21 12:11:15.41	250.96	18.27	-28.0	-29.7	14.8	7.00e-07	0	44	0	373293056	16	4391
2026-01-21 12:11:18.42	251.63	18.41	-28.1	-30.0	14.7	7.00e-07	0	44	0	382730240	16	4474
2026-01-21 12:11:21.44	252.30	18.54	-28.1	-30.0	14.6	0.00e+00	0	44	0	392167424	16	4463
2026-01-21 12:11:24.44	252.97	18.67	-28.2	-30.2	14.5	0.00e+00	0	44	0	401604608	16	4530
2026-01-21 12:11:27.44	253.65	18.79	-27.8	-29.2	15.1	0.00e+00	0	44	0	411041792	16	4238
2026-01-21 12:11:30.44	254.34	18.91	-27.8	-29.2	15.1	0.00e+00	0	44	0	420478976	16	4241
2026-01-21 12:11:33.43	255.03	19.03	-27.8	-29.3	15.1	0.00e+00	0	44	0	429916160	16	4273
2026-01-21 12:11:36.43	255.72	19.14	-27.8	-29.2	15.1	0.00e+00	0	44	0	439353344	16	4236
2026-01-21 12:11:39.44	256.42	19.26	-27.5	-28.6	15.5	0.00e+00	0	44	0	448790528	16	4071
2026-01-21 12:11:42.45	257.13	19.36	-27.6	-28.8	15.4	0.00e+00	0	44	0	458227712	16	4120
2026-01-21 12:11:45.46	257.84	19.47	-27.8	-29.1	15.2	0.00e+00	0	44	0	467664896	16	4229
2026-01-21 12:11:48.46	258.55	19.57	-27.6	-28.8	15.4	0.00e+00	0	44	0	477102080	16	4120
2026-01-21 12:11:51.45	259.27	19.66	-27.6	-28.8	15.3	0.00e+00	0	44	0	485490688	16	4144
2026-01-21 12:11:54.45	259.99	19.75	-27.5	-28.5	15.5	0.00e+00	0	44	0	494927872	16	4052
2026-01-21 12:11:57.44	260.72	19.84	-27.4	-28.3	15.6	0.00e+00	0	45	0	504365056	16	4002
2026-01-21 12:12:00.44	261.45	19.92	-27.4	-28.3	15.7	0.00e+00	0	44	0	513802240	16	4006
2026-01-21 12:12:03.45	262.18	20.00	-27.5	-28.7	15.5	0.00e+00	0	44	0	523239424	16	4102
2026-01-21 12:12:06.45	262.92	20.08	-27.4	-28.4	15.6	0.00e+00	0	44	0	532676608	16	4025
2026-01-21 12:12:09.45	263.66	20.15	-27.5	-28.6	15.5	0.00e+00	0	44	0	542113792	16	4072
2026-01-21 12:12:12.46	264.41	20.21	-27.6	-28.8	15.4	0.00e+00	0	44	0	551550976	16	4138
2026-01-21 12:12:15.48	265.16	20.27	-27.4	-28.4	15.6	0.00e+00	0	45	0	560988160	16	4027
2026-01-21 12:12:18.49	265.91	20.33	-27.5	-28.6	15.5	0.00e+00	0	44	0	570425344	16	4083
2026-01-21 12:12:21.48	266.66	20.38	-27.7	-28.9	15.3	0.00e+00	0	44	0	579862528	16	4173
2026-01-21 12:12:24.47	267.42	20.42	-27.5	-28.6	15.5	0.00e+00	0	45	0	589299712	16	4083
2026-01-21 12:12:27.47	268.17	20.47	-27.5	-28.5	15.6	0.00e+00	0	44	0	598736896	16	4040
2026-01-21 12:12:30.47	268.93	20.50	-27.4	-28.3	15.7	0.00e+00	0	44	0	608174080	16	4004
2026-01-21 12:12:33.48	269.69	20.53	-27.5	-28.6	15.6	0.00e+00	0	44	0	617611264	16	4067
2026-01-21 12:12:36.49	270.46	20.56	-27.6	-28.7	15.5	7.00e-07	0	44	0	627048448	16	4101
2026-01-21 12:12:39.48	271.22	20.58	-27.5	-28.7	15.5	0.00e+00	0	44	0	636485632	16	4092
2026-01-21 12:12:42.48	271.98	20.60	-27.7	-29.1	15.3	0.00e+00	0	44	0	645922816	16	4199
2026-01-21 12:12:45.48	272.75	20.61	-27.6	-28.8	15.4	0.00e+00	0	44	0	654311424	16	4127
2026-01-21 12:12:48.47	273.51	20.61	-27.7	-29.1	15.3	0.00e+00	0	44	0	663748608	16	4212
2026-01-21 12:12:51.48	274.27	20.62	-28.0	-29.6	14.9	0.00e+00	0	44	0	673185792	16	4356
2026-01-21 12:12:54.49	275.04	20.61	-27.5	-28.5	15.5	0.00e+00	0	45	0	682622976	16	4050
2026-01-21 12:12:57.50	275.81	20.60	-27.6	-28.7	15.5	0.00e+00	0	45	0	692060160	16	4094
2026-01-21 12:13:00.50	276.57	20.59	-27.5	-28.6	15.5	0.00e+00	0	45	0	701497344	16	4067
2026-01-21 12:13:03.51	277.34	20.57	-27.6	-28.7	15.4	7.00e-07	0	44	0	710934528	16	4116
2026-01-21 12:13:06.53	278.10	20.55	-27.7	-29.0	15.3	0.00e+00	0	44	0	720371712	16	4180
2026-01-21 12:13:09.53	278.86	20.52	-27.5	-28.6	15.5	7.00e-07	0	45	0	729808896	16	4086
2026-01-21 12:13:12.53	279.62	20.48	-27.7	-29.0	15.3	0.00e+00	0	45	0	739246080	16	4188
2026-01-21 12:13:15.53	280.38	20.44	-27.7	-28.9	15.3	0.00e+00	0	44	0	748683264	16	4169
2026-01-21 12:13:18.53	281.13	20.40	-27.7	-29.0	15.3	7.00e-07	0	45	0	758120448	16	4177
2026-01-21 12:13:21.54	281.89	20.35	-27.7	-28.9	15.4	0.00e+00	0	44	0	767557632	16	4160
2026-01-21 12:13:24.55	282.64	20.30	-27.6	-28.8	15.4	0.00e+00	0	44	0	776994816	16	4131
2026-01-21 12:13:27.56	283.39	20.24	-27.8	-29.3	15.1	7.00e-07	0	45	0	786432000	16	4272
2026-01-21 12:13:30.58	284.14	20.17	-27.5	-28.6	15.5	0.00e+00	0	44	0	795869184	16	4069
2026-01-21 12:13:33.59	284.88	20.11	-27.6	-28.8	15.4	0.00e+00	0	44	0	805306368	16	4115
2026-01-21 12:13:36.60	285.62	20.03	-27.6	-28.7	15.5	0.00e+00	0	45	0	814743552	16	4112
2026-01-21 12:13:39.61	286.36	19.96	-27.6	-28.7	15.5	0.00e+00	0	45	0	824180736	16	4093
2026-01-21 12:13:42.61	287.09	19.88	-27.5	-28.5	15.6	0.00e+00	0	45	0	833617920	16	4054
2026-01-21 12:13:45.61	287.81	19.79	-27.3	-28.2	15.7	0.00e+00	0	45	0	843055104	16	3973
2026-01-21 12:13:48.61	288.54	19.70	-27.2	-28.4	15.8	0.00e+00	0	45	0	852492288	15	4134
2026-01-21 12:13:51.62	289.26	19.61	-27.2	-28.5	15.7	0.00e+00	0	45	0	861929472	15	4163
2026-01-21 12:13:54.65	289.98	19.51	-27.3	-28.7	15.6	0.00e+00	0	44	0	871366656	15	4206
2026-01-21 12:13:57.65	290.69	19.41	-27.6	-29.4	15.2	0.00e+00	0	45	0	879755264	15	4400
2026-01-21 12:14:00.66	291.39	19.30	-27.8	-29.9	14.9	0.00e+00	0	45	0	890241024	15	4549
2026-01-21 12:14:03.67	292.09	19.19	-27.5	-29.1	15.3	0.00e+00	0	44	0	899678208	15	4317
2026-01-21 12:14:06.68	292.79	19.08	-27.4	-29.0	15.4	0.00e+00	0	45	0	908066816	15	4291
2026-01-21 12:14:09.68	293.48	18.97	-27.2	-28.5	15.7	0.00e+00	0	44	0	917504000	15	4164
2026-01-21 12:14:12.69	294.17	18.85	-27.5	-29.2	15.3	0.00e+00	0	44	0	926941184	15	4352
2026-01-21 12:14:15.70	294.85	18.72	-27.6	-29.2	15.3	0.00e+00	0	45	0	936378368	15	4360
2026-01-21 12:14:18.71	295.52	18.60	-27.5	-29.1	15.3	0.00e+00	0	45	0	945815552	15	4333
2026-01-21 12:14:21.73	296.20	18.46	-27.6	-29.3	15.2	0.00e+00	0	45	0	955252736	15	4382
2026-01-21 12:14:24.72	296.86	18.33	-27.5	-29.1	15.3	0.00e+00	0	45	0	964689920	15	4340
2026-01-21 12:14:27.74	297.52	18.20	-27.5	-29.1	15.2	0.00e+00	0	45	0	974127104	15	4341
2026-01-21 12:14:30.75	298.17	18.06	-27.4	-28.9	15.4	0.00e+00	0	45	0	983564288	15	4270
2026-01-21 12:14:33.75	298.81	17.92	-27.6	-29.3	15.2	0.00e+00	0	45	0	993001472	15	4389
2026-01-21 12:14:36.76	299.45	17.77	-27.8	-29.8	14.9	0.00e+00	0	45	0	1002438656	15	4531
2026-01-21 12:14:39.77	300.09	17.63	-27.9	-30.0	14.7	7.00e-07	0	45	0	1011875840	15	4602
2026-01-21 12:14:42.77	300.72	17.48	-27.9	-29.6	14.8	0.00e+00	0	45	0	1021313024	16	4360
2026-01-21 12:14:45.79	301.34	17.33	-28.0	-29.7	14.8	0.00e+00	0	45	0	1030750208	16	4394
2026-01-21 12:14:48.80	301.96	17.17	-28.1	-30.0	14.6	0.00e+00	0	45	0	1040187392	16	4483
2026-01-21 12:14:51.81	302.57	17.02	-28.3	-30.4	14.4	1.50e-06	0	45	0	1049624576	16	4586
2026-01-21 12:14:54.81	303.17	16.86	-28.1	-30.0	14.6	0.00e+00	0	45	0	1059061760	16	4479
2026-01-21 12:14:57.81	303.76	16.70	-28.0	-29.7	14.7	0.00e+00	0	45	0	1068498944	16	4395
2026-01-21 12:15:00.83	304.36	16.54	-28.0	-29.6	14.8	0.00e+00	0	45	0	1077936128	16	4372
2026-01-21 12:15:03.84	304.94	16.38	-28.1	-29.9	14.6	7.00e-07	0	45	0	1087373312	16	4453
2026-01-21 12:15:06.84	305.52	16.21	-28.3	-30.5	14.2	7.00e-07	0	45	0	1096810496	16	4634
2026-01-21 12:15:09.85	306.09	16.05	-28.5	-30.9	14.1	7.00e-07	0	45	0	1106247680	16	4742
2026-01-21 12:15:12.86	306.66	15.88	-28.0	-29.2	14.8	7.00e-07	0	45	0	1115684864	17	4133
2026-01-21 12:15:15.85	307.22	15.71	-28.0	-29.2	14.8	0.00e+00	0	45	0	1125122048	17	4129
2026-01-21 12:15:18.87	307.77	15.54	-28.0	-29.2	14.7	0.00e+00	0	45	0	1134559232	17	4148
2026-01-21 12:15:21.88	308.32	15.37	-28.4	-30.2	14.1	1.50e-06	0	45	0	1143996416	17	4427
2026-01-21 12:15:24.89	308.87	15.19	-28.3	-30.0	14.2	1.50e-06	0	45	0	1153433600	17	4377
2026-01-21 12:15:27.89	309.40	15.02	-28.4	-30.1	14.1	0.00e+00	0	45	0	1161822208	17	4396
2026-01-21 12:15:30.90	309.93	14.84	-28.2	-29.6	14.4	7.00e-07	0	45	0	1171259392	17	4261
2026-01-21 12:15:33.91	310.45	14.67	-28.1	-29.5	14.4	7.00e-07	0	45	0	1180696576	17	4238
2026-01-21 12:15:36.93	310.97	14.49	-28.3	-30.0	14.2	3.00e-06	0	45	0	1190133760	17	4362
2026-01-21 12:15:39.95	311.49	14.31	-28.2	-29.8	14.3	0.00e+00	0	45	0	1199570944	17	4326
2026-01-21 12:15:42.95	311.99	14.13	-28.3	-30.0	14.1	2.20e-06	0	45	0	1209008128	17	4380
2026-01-21 12:15:45.96	312.49	13.95	-28.4	-30.1	14.0	7.00e-07	0	45	0	1218445312	17	4414
2026-01-21 12:15:48.98	312.99	13.77	-28.3	-29.9	14.2	7.00e-07	0	45	0	1227882496	17	4345
2026-01-21 12:15:51.99	313.48	13.59	-28.3	-29.9	14.2	1.50e-06	0	45	0	1237319680	17	4354
2026-01-21 12:15:55.01	313.96	13.41	-28.3	-29.9	14.2	7.00e-07	0	45	0	1246756864	17	4352
2026-01-21 12:15:58.01	314.43	13.23	-28.3	-30.0	14.1	1.50e-06	0	45	0	1256194048	17	4368
2026-01-21 12:16:01.02	314.91	13.05	-28.5	-30.4	13.8	7.00e-07	0	45	0	1265631232	17	4502
2026-01-21 12:16:04.04	315.37	12.86	-28.4	-30.2	14.0	4.50e-06	0	45	0	1275068416	17	4428
2026-01-21 12:16:07.05	315.83	12.68	-28.2	-29.7	14.2	1.50e-06	0	45	0	1284505600	17	4282
2026-01-21 12:16:10.05	316.29	12.50	-28.3	-30.0	14.0	3.00e-06	0	45	0	1293942784	17	4392
2026-01-21 12:16:13.06	316.74	12.32	-28.4	-30.2	13.9	3.00e-06	0	45	0	1303379968	17	4447
2026-01-21 12:16:16.06	317.18	12.13	-28.6	-30.7	13.6	8.30e-06	0	45	0	1312817152	17	4604
2026-01-21 12:16:19.07	317.62	11.95	-28.8	-31.1	13.3	2.13e-05	0	45	0	1322254336	17	4725
2026-01-21 12:16:22.08	318.05	11.77	-29.0	-31.3	13.0	3.89e-05	0	45	0	1331691520	18	4657
2026-01-21 12:16:25.10	318.48	11.58	-28.7	-30.5	13.4	1.37e-05	0	45	0	1341128704	18	4409
2026-01-21 12:16:28.11	318.90	11.40	-28.5	-30.0	13.7	9.10e-06	0	45	0	1350565888	18	4272
2026-01-21 12:16:31.13	319.32	11.22	-28.6	-30.1	13.6	6.80e-06	0	45	0	1360003072	18	4313
2026-01-21 12:16:34.14	319.73	11.03	-28.7	-30.6	13.3	1.67e-05	0	45	0	1369440256	18	4460
2026-01-21 12:16:37.14	320.14	10.85	-29.0	-31.1	12.9	5.26e-05	0	45	0	1378877440	18	4620
2026-01-21 12:16:40.15	320.54	10.67	-29.0	-31.2	12.9	5.03e-05	0	45	0	1388314624	18	4651
2026-01-21 12:16:43.16	320.94	10.48	-29.1	-31.4	12.7	6.17e-05	0	45	0	1397751808	18	4728
2026-01-21 12:16:46.17	321.33	10.30	-29.3	-31.9	12.5	1.22e-04	0	45	0	1407188992	18	4885
2026-01-21 12:16:49.18	321.72	10.12	-29.3	-32.0	12.3	1.35e-04	0	45	0	1416626176	18	4926
2026-01-21 12:16:52.19	322.11	9.94	-29.4	-32.3	12.2	1.99e-04	0	45	0	1426063360	18	5009
2026-01-21 12:16:55.20	322.49	9.75	-29.4	-31.8	12.2	2.80e-04	0	45	0	1435500544	19	4734
2026-01-21 12:16:58.21	322.86	9.57	-29.1	-31.0	12.6	8.39e-05	0	45	0	1444937728	19	4495
2026-01-21 12:17:01.23	323.23	9.39	-29.4	-31.7	12.2	2.10e-04	0	45	0	1454374912	19	4709
2026-01-21 12:17:04.24	323.60	9.21	-29.2	-31.3	12.4	1.78e-04	0	45	0	1463812096	19	4595
2026-01-21 12:17:07.25	323.96	9.03	-29.0	-30.8	12.7	8.85e-05	0	45	0	1473249280	19	4423
2026-01-21 12:17:10.25	324.32	8.85	-29.2	-31.3	12.4	1.13e-04	0	45	0	1481637888	19	4588
2026-01-21 12:17:13.26	324.67	8.67	-29.2	-31.2	12.5	1.33e-04	0	45	0	1492123648	19	4551
2026-01-21 12:17:16.28	325.02	8.49	-29.3	-31.6	12.1	3.21e-04	0	45	0	1501560832	19	4692
2026-01-21 12:17:19.28	325.36	8.31	-29.3	-31.7	12.0	2.41e-04	0	45	0	1509949440	19	4729
2026-01-21 12:17:22.29	325.71	8.13	-29.7	-32.5	11.5	9.43e-04	0	45	0	1519386624	19	5009
2026-01-21 12:17:25.28	326.04	7.95	-29.2	-31.4	12.3	2.41e-04	0	45	0	1528823808	19	4618
2026-01-21 12:17:28.29	326.37	7.78	-29.2	-31.3	12.3	1.83e-04	0	45	0	1538260992	19	4591
2026-01-21 12:17:31.30	326.70	7.60	-29.5	-32.2	11.7	6.65e-04	0	45	0	1547698176	19	4916
2026-01-21 12:17:34.30	327.03	7.42	-29.7	-32.6	11.4	9.32e-04	0	45	0	1557135360	19	5055
2026-01-21 12:17:37.30	327.35	7.25	-29.6	-32.5	11.4	9.51e-04	0	45	0	1566572544	19	5028
2026-01-21 12:17:40.31	327.66	7.07	-29.9	-33.3	11.2	1.62e-03	0	45	0	1576009728	19	5304
2026-01-21 12:17:43.30	327.98	6.89	-34.0	-46.3	3.8	1.49e+00	0	45	104	1576009728	27	14842

#Closed at: 2026-01-21 12:17:43
#Recorded file [1576 MB]: D:/data/31010_260121_150915.dat