passes_logs/2026/01/21/R2M6_AANII_01/R2M6_AANII_01__20260121_230346_SUOMI_NPP_rec.log

#Pass ID: 20260121_230346_SUOMI NPP
#Satellite: SUOMI NPP
#Configuration: NPP
#almurnet v.1.7.20240730
#Start time: 2026-01-21 23:03:48

#Version: 2.2.20231116
#Station: R2M6_AANII_01
#Location: 30.233357 lon 59.946436 lat
#TLE: 1 37849U 11061A   26021.51818991  .00000201  00000+0  11636-3 0  9995
#TLE: 2 37849  98.7819 323.5108 0002300  52.3548 307.7836 14.19527793737637

#Time	Az	El	Level	Level2	SNR	BER	BlckErr	Temp	State	Recorded	gain1	gain2
2026-01-21 23:03:48.48	27.62	7.10	-31.7	-36.4	5.0	1.24e+00	0	42	0	0	23	6188
2026-01-21 23:03:51.50	27.87	7.30	-31.9	-36.7	7.4	1.43e-01	0	42	0	1048576	24	6188
2026-01-21 23:03:54.51	28.11	7.51	-31.4	-34.9	9.2	3.10e-02	0	42	0	7340032	23	5356
2026-01-21 23:03:57.51	28.36	7.71	-31.0	-33.7	10.6	5.05e-03	0	42	0	12582912	22	4916
2026-01-21 23:04:00.52	28.61	7.92	-30.8	-33.6	11.0	2.93e-03	0	42	0	17825792	21	4993
2026-01-21 23:04:03.54	28.87	8.12	-30.6	-32.9	11.5	9.02e-04	0	42	0	24117248	21	4709
2026-01-21 23:04:06.56	29.13	8.33	-30.5	-32.7	11.7	8.32e-04	0	42	0	29360128	21	4620
2026-01-21 23:04:09.57	29.40	8.54	-30.5	-32.6	11.9	4.44e-04	0	43	0	35651584	21	4591
2026-01-21 23:04:12.58	29.67	8.75	-30.5	-32.5	12.0	3.59e-04	0	43	0	40894464	21	4544
2026-01-21 23:04:15.59	29.94	8.96	-30.5	-32.5	11.9	3.60e-04	0	43	0	46137344	21	4554
2026-01-21 23:04:18.59	30.21	9.18	-30.5	-32.6	12.0	2.75e-04	0	43	0	52428800	21	4559
2026-01-21 23:04:21.61	30.49	9.39	-30.7	-33.1	11.6	6.36e-04	0	43	0	57671680	21	4744
2026-01-21 23:04:24.62	30.77	9.61	-30.7	-33.1	11.6	6.78e-04	0	43	0	63963136	21	4752
2026-01-21 23:04:27.62	31.06	9.82	-30.6	-32.8	11.9	3.08e-04	0	43	0	69206016	21	4625
2026-01-21 23:04:30.62	31.35	10.04	-30.3	-32.5	12.3	1.04e-04	0	43	0	74448896	20	4637
2026-01-21 23:04:33.61	31.64	10.26	-30.2	-32.1	12.7	1.07e-04	0	43	0	80740352	20	4480
2026-01-21 23:04:36.63	31.94	10.48	-30.2	-32.1	12.7	5.49e-05	0	43	0	85983232	20	4471
2026-01-21 23:04:39.64	32.25	10.70	-30.5	-32.5	12.1	1.50e-04	0	43	0	91226112	21	4538
2026-01-21 23:04:42.64	32.55	10.93	-30.8	-33.3	11.5	6.38e-04	0	43	0	97517568	21	4824
2026-01-21 23:04:45.65	32.87	11.15	-30.9	-33.8	11.2	9.28e-04	0	43	0	102760448	21	5004
2026-01-21 23:04:48.65	33.18	11.38	-31.1	-33.6	11.1	7.92e-04	0	43	0	109051904	22	4812
2026-01-21 23:04:51.66	33.50	11.60	-31.1	-33.8	11.0	1.22e-03	0	43	0	114294784	22	4895
2026-01-21 23:04:54.68	33.83	11.83	-30.8	-32.7	11.8	6.39e-04	0	43	0	119537664	22	4479
2026-01-21 23:04:57.68	34.16	12.06	-30.8	-33.4	11.6	6.31e-04	0	43	0	125829120	21	4840
2026-01-21 23:05:00.69	34.50	12.29	-30.8	-33.4	11.6	6.07e-04	0	43	0	131072000	21	4828
2026-01-21 23:05:03.69	34.84	12.53	-30.8	-33.4	11.6	6.73e-04	0	43	0	136314880	21	4832
2026-01-21 23:05:06.70	35.19	12.76	-29.9	-31.5	12.6	9.68e-05	0	43	0	142606336	21	4342
2026-01-21 23:05:09.72	35.54	13.00	-30.4	-32.0	12.6	1.10e-04	0	44	0	147849216	21	4337
2026-01-21 23:05:12.73	35.90	13.23	-30.3	-31.9	12.7	8.85e-05	0	44	0	154140672	21	4304
2026-01-21 23:05:15.74	36.26	13.47	-30.3	-31.7	12.9	4.11e-05	0	43	0	159383552	21	4244
2026-01-21 23:05:18.75	36.63	13.71	-30.0	-31.1	13.3	2.44e-05	0	44	0	164626432	21	4062
2026-01-21 23:05:21.76	37.00	13.95	-29.9	-30.6	13.6	7.60e-06	0	44	0	170917888	21	3923
2026-01-21 23:05:24.78	37.39	14.20	-30.0	-31.0	13.3	1.06e-05	0	44	0	176160768	21	4036
2026-01-21 23:05:27.80	37.78	14.44	-30.3	-31.7	12.9	4.19e-05	0	44	0	182452224	21	4249
2026-01-21 23:05:30.81	38.17	14.69	-30.4	-32.1	12.6	6.86e-05	0	44	0	187695104	21	4356
2026-01-21 23:05:33.81	38.57	14.93	-30.5	-32.2	12.6	8.39e-05	0	44	0	192937984	21	4387
2026-01-21 23:05:36.83	38.97	15.18	-30.6	-32.5	12.3	1.52e-04	0	44	0	199229440	21	4511
2026-01-21 23:05:39.84	39.39	15.43	-30.8	-33.1	12.0	2.67e-04	0	44	0	204472320	21	4699
2026-01-21 23:05:42.85	39.81	15.68	-30.4	-31.8	12.9	5.56e-05	0	44	0	209715200	21	4270
2026-01-21 23:05:45.86	40.23	15.93	-30.1	-31.7	13.3	1.83e-05	0	44	0	216006656	20	4335
2026-01-21 23:05:48.87	40.66	16.18	-30.0	-31.3	13.6	7.60e-06	0	44	0	221249536	20	4210
2026-01-21 23:05:51.88	41.10	16.43	-30.1	-31.5	13.4	1.06e-05	0	44	0	227540992	20	4267
2026-01-21 23:05:54.89	41.55	16.69	-29.9	-31.0	13.8	9.90e-06	0	44	0	232783872	20	4108
2026-01-21 23:05:57.90	42.01	16.94	-29.8	-30.8	14.0	4.50e-06	0	44	0	238026752	20	4049
2026-01-21 23:06:00.90	42.47	17.20	-29.6	-30.2	14.4	1.50e-06	0	44	0	244318208	20	3864
2026-01-21 23:06:03.91	42.94	17.46	-29.6	-30.2	14.4	7.00e-07	0	44	0	249561088	20	3865
2026-01-21 23:06:06.93	43.42	17.71	-29.7	-30.5	14.2	1.50e-06	0	44	0	255852544	20	3937
2026-01-21 23:06:09.93	43.90	17.97	-29.7	-30.5	14.2	7.00e-07	0	44	0	261095424	20	3944
2026-01-21 23:06:12.93	44.39	18.23	-29.9	-31.1	13.9	3.80e-06	0	44	0	266338304	20	4107
2026-01-21 23:06:15.95	44.90	18.49	-29.7	-30.4	14.3	0.00e+00	0	44	0	272629760	20	3916
2026-01-21 23:06:18.96	45.41	18.75	-29.7	-30.4	14.4	0.00e+00	0	44	0	277872640	20	3914
2026-01-21 23:06:21.96	45.92	19.01	-29.7	-30.4	14.3	1.50e-06	0	44	0	283115520	20	3924
2026-01-21 23:06:24.97	46.45	19.28	-29.5	-30.3	14.8	0.00e+00	0	44	0	289406976	19	3971
2026-01-21 23:06:27.98	46.99	19.54	-29.3	-30.0	15.0	0.00e+00	0	44	0	294649856	19	3915
2026-01-21 23:06:30.99	47.53	19.80	-29.6	-31.0	14.1	1.50e-06	0	44	0	300941312	18	4278
2026-01-21 23:06:34.00	48.09	20.06	-29.5	-30.5	14.6	3.31e-04	0	44	0	306184192	19	4037
2026-01-21 23:06:37.02	48.66	20.33	-29.4	-30.2	14.9	7.00e-07	0	44	0	311427072	19	3939
2026-01-21 23:06:40.02	49.23	20.59	-29.3	-30.4	15.1	0.00e+00	0	44	0	317718528	18	4088
2026-01-21 23:06:43.02	49.81	20.85	-29.4	-30.6	15.0	0.00e+00	0	44	0	322961408	18	4143
2026-01-21 23:06:46.03	50.40	21.11	-29.2	-30.1	15.3	0.00e+00	0	44	0	328204288	18	4001
2026-01-21 23:06:49.02	51.00	21.37	-29.5	-30.3	14.9	0.00e+00	0	44	0	334495744	19	3959
2026-01-21 23:06:52.03	51.62	21.64	-29.8	-31.1	14.3	1.98e-05	0	44	0	339738624	19	4200
2026-01-21 23:06:55.05	52.24	21.90	-29.9	-31.3	14.2	3.96e-05	0	44	0	346030080	19	4260
2026-01-21 23:06:58.05	52.87	22.16	-29.8	-31.3	14.4	4.53e-04	0	44	0	351272960	19	4240
2026-01-21 23:07:01.06	53.52	22.42	-29.8	-30.7	14.3	1.50e-06	0	44	0	356515840	20	3980
2026-01-21 23:07:04.08	54.18	22.68	-29.7	-30.9	14.6	0.00e+00	0	44	0	362807296	19	4115
2026-01-21 23:07:07.08	54.84	22.93	-29.8	-31.1	14.5	0.00e+00	0	44	0	368050176	19	4173
2026-01-21 23:07:10.08	55.51	23.19	-29.8	-31.2	14.4	0.00e+00	0	44	0	374341632	19	4200
2026-01-21 23:07:13.09	56.20	23.44	-29.9	-31.0	14.1	3.20e-05	0	44	0	379584512	20	4059
2026-01-21 23:07:16.10	56.90	23.70	-29.6	-30.0	14.7	6.10e-05	0	44	0	384827392	20	3804
2026-01-21 23:07:19.10	57.61	23.95	-29.8	-30.6	14.4	5.56e-05	0	44	0	391118848	20	3962
2026-01-21 23:07:22.10	58.32	24.19	-29.9	-30.9	14.3	3.43e-05	0	44	0	396361728	20	4035
2026-01-21 23:07:25.11	59.06	24.44	-30.2	-31.7	13.7	4.50e-06	0	44	0	401604608	20	4277
2026-01-21 23:07:28.12	59.80	24.68	-29.7	-30.4	14.6	1.37e-05	0	44	0	407896064	20	3887
2026-01-21 23:07:31.13	60.55	24.92	-29.6	-30.1	14.7	1.18e-04	0	44	0	413138944	20	3819
2026-01-21 23:07:34.12	61.31	25.16	-29.6	-30.5	14.9	1.50e-04	0	44	0	418381824	19	4000
2026-01-21 23:07:37.13	62.09	25.40	-30.1	-31.3	13.9	5.11e-05	0	44	0	424673280	20	4159
2026-01-21 23:07:40.15	62.88	25.63	-30.2	-31.7	13.7	1.60e-05	0	44	0	429916160	20	4284
2026-01-21 23:07:43.16	63.68	25.86	-29.9	-30.9	14.2	1.50e-06	0	44	0	436207616	20	4046
2026-01-21 23:07:46.16	64.49	26.08	-30.9	-33.1	12.5	6.56e-05	0	44	0	441450496	21	4647
2026-01-21 23:07:49.15	65.31	26.30	-30.6	-31.8	13.1	5.56e-05	0	44	0	446693376	22	4126
2026-01-21 23:07:52.16	66.14	26.51	-29.6	-30.2	14.7	0.00e+00	0	44	0	452984832	20	3844
2026-01-21 23:07:55.17	66.99	26.72	-30.5	-32.5	13.3	9.90e-06	0	44	0	458227712	20	4528
2026-01-21 23:07:58.18	67.84	26.93	-30.7	-32.4	13.0	8.46e-05	0	44	0	464519168	21	4414
2026-01-21 23:08:01.19	68.71	27.13	-30.7	-32.7	12.8	6.25e-05	0	44	0	469762048	21	4486
2026-01-21 23:08:04.18	69.58	27.32	-30.5	-31.9	13.3	1.60e-05	0	44	0	475004928	21	4254
2026-01-21 23:08:07.19	70.47	27.51	-30.1	-30.8	14.0	2.20e-06	0	44	0	481296384	21	3925
2026-01-21 23:08:10.19	71.36	27.69	-30.8	-32.7	12.8	5.11e-05	0	44	0	486539264	21	4513
2026-01-21 23:08:13.21	72.27	27.87	-30.2	-31.1	13.9	3.00e-06	0	44	0	491782144	21	3988
2026-01-21 23:08:16.22	73.19	28.04	-30.6	-32.3	13.1	1.29e-05	0	44	0	498073600	21	4357
2026-01-21 23:08:19.23	74.11	28.20	-31.5	-33.7	11.5	8.71e-04	0	44	0	503316480	23	4658
2026-01-21 23:08:22.24	75.05	28.36	-31.3	-33.2	11.9	2.24e-04	0	44	0	509607936	23	4485
2026-01-21 23:08:25.24	75.99	28.50	-31.8	-34.7	10.8	1.59e-03	0	44	0	514850816	23	5024
2026-01-21 23:08:28.24	76.94	28.64	-31.7	-34.4	11.0	1.05e-03	0	44	0	520093696	23	4892
2026-01-21 23:08:31.26	77.91	28.78	-32.2	-35.7	9.7	8.55e-03	0	44	0	526385152	24	5395
2026-01-21 23:08:34.26	78.87	28.90	-31.2	-32.8	12.2	3.65e-04	0	44	0	531628032	23	4325
2026-01-21 23:08:37.28	79.85	29.02	-31.1	-32.7	12.2	2.03e-04	0	44	0	536870912	23	4309
2026-01-21 23:08:40.27	80.83	29.13	-30.9	-32.1	12.6	1.64e-04	0	44	0	543162368	23	4121
2026-01-21 23:08:43.29	81.82	29.23	-30.5	-32.1	13.3	7.60e-06	0	44	0	548405248	21	4291
2026-01-21 23:08:46.29	82.81	29.32	-30.6	-32.3	13.1	4.11e-05	0	44	0	554696704	21	4361
2026-01-21 23:08:49.30	83.81	29.40	-30.5	-32.0	13.3	2.28e-05	0	44	0	559939584	21	4264
2026-01-21 23:08:52.31	84.82	29.47	-30.3	-31.4	13.7	7.60e-06	0	44	0	565182464	21	4086
2026-01-21 23:08:55.31	85.82	29.53	-29.8	-30.7	14.6	8.30e-06	0	44	0	571473920	20	3962
2026-01-21 23:08:58.31	86.83	29.59	-30.6	-32.3	13.2	1.98e-05	0	44	0	576716800	21	4372
2026-01-21 23:09:01.33	87.85	29.63	-30.6	-32.1	13.3	2.13e-05	0	44	0	581959680	21	4302
2026-01-21 23:09:04.35	88.88	29.67	-31.0	-32.8	12.5	1.12e-04	0	44	0	588251136	22	4433
2026-01-21 23:09:07.35	89.89	29.69	-30.6	-31.7	13.3	2.21e-05	0	44	0	593494016	22	4075
2026-01-21 23:09:10.36	90.92	29.71	-30.8	-32.3	12.9	1.75e-04	0	44	0	599785472	22	4265
2026-01-21 23:09:13.37	91.94	29.71	-31.3	-33.6	12.0	6.30e-04	0	44	0	605028352	22	4693
2026-01-21 23:09:16.37	92.96	29.71	-31.6	-34.1	11.3	6.26e-04	0	44	0	610271232	23	4802
2026-01-21 23:09:19.38	93.98	29.69	-30.8	-32.4	12.7	7.40e-05	0	44	0	616562688	22	4307
2026-01-21 23:09:22.38	95.00	29.67	-31.1	-33.0	12.3	1.42e-04	0	44	0	621805568	22	4520
2026-01-21 23:09:25.39	96.02	29.64	-31.7	-34.7	10.7	1.52e-03	0	44	0	627048448	23	5062
2026-01-21 23:09:28.39	97.03	29.59	-30.9	-32.0	12.6	1.79e-04	0	44	0	633339904	23	4119
2026-01-21 23:09:31.39	98.04	29.54	-31.1	-32.6	12.2	2.03e-04	0	44	0	638582784	23	4275
2026-01-21 23:09:34.41	99.06	29.48	-31.2	-33.1	11.9	4.00e-04	0	44	0	644874240	23	4455
2026-01-21 23:09:37.42	100.07	29.41	-31.6	-34.2	11.1	1.73e-03	0	44	0	650117120	23	4869
2026-01-21 23:09:40.43	101.07	29.33	-31.6	-34.3	11.0	1.38e-03	0	44	0	655360000	23	4880
2026-01-21 23:09:43.44	102.06	29.24	-31.7	-34.6	10.8	3.07e-03	0	44	0	661651456	23	5018
2026-01-21 23:09:46.45	103.06	29.14	-31.7	-34.4	11.0	1.62e-03	0	44	0	666894336	23	4922
2026-01-21 23:09:49.46	104.04	29.03	-32.8	-37.7	7.6	7.69e-02	0	44	0	672137216	25	6353
2026-01-21 23:09:52.46	105.02	28.91	-32.1	-34.9	9.8	1.57e-02	0	44	0	678428672	25	4944
2026-01-21 23:09:55.48	105.99	28.79	-32.2	-35.3	9.5	2.07e-02	0	44	0	683671552	25	5114
2026-01-21 23:09:58.49	106.96	28.66	-32.0	-34.5	10.2	9.12e-03	0	44	0	689963008	25	4790
2026-01-21 23:10:01.49	107.91	28.52	-31.5	-33.2	11.4	1.05e-03	0	44	0	695205888	24	4415
2026-01-21 23:10:04.50	108.86	28.37	-31.6	-33.8	11.0	1.28e-03	0	44	0	700448768	24	4612
2026-01-21 23:10:07.50	109.79	28.21	-31.4	-33.2	11.4	1.15e-03	0	44	0	706740224	24	4388
2026-01-21 23:10:10.52	110.72	28.05	-31.2	-32.8	12.0	1.85e-04	0	44	0	711983104	23	4354
2026-01-21 23:10:13.54	111.65	27.88	-31.2	-33.1	11.9	1.87e-04	0	45	0	718274560	23	4443
2026-01-21 23:10:16.55	112.56	27.70	-31.7	-34.6	10.7	3.44e-03	0	44	0	723517440	23	5020
2026-01-21 23:10:19.55	113.46	27.52	-31.7	-34.5	10.8	3.01e-03	0	44	0	728760320	23	4978
2026-01-21 23:10:22.56	114.35	27.33	-32.2	-35.7	9.5	1.12e-02	0	44	0	735051776	24	5417
2026-01-21 23:10:25.57	115.23	27.14	-32.1	-34.9	9.7	1.21e-02	0	44	0	740294656	25	4982
2026-01-21 23:10:28.58	116.10	26.94	-31.7	-34.2	10.7	2.38e-03	0	44	0	745537536	24	4777
2026-01-21 23:10:31.59	116.96	26.73	-31.9	-34.9	10.1	8.05e-03	0	45	0	751828992	24	5101
2026-01-21 23:10:34.59	117.80	26.52	-31.7	-34.4	10.4	3.12e-03	0	44	0	757071872	24	4889
2026-01-21 23:10:37.60	118.64	26.30	-31.7	-34.3	10.4	4.72e-03	0	44	0	763363328	24	4850
2026-01-21 23:10:40.60	119.46	26.08	-31.5	-33.6	11.0	1.54e-03	0	45	0	768606208	24	4562
2026-01-21 23:10:43.61	120.28	25.86	-31.7	-34.3	10.5	2.30e-03	0	45	0	773849088	24	4818
2026-01-21 23:10:46.61	121.08	25.63	-31.6	-33.7	10.9	3.89e-03	0	44	0	780140544	24	4614
2026-01-21 23:10:49.62	121.87	25.40	-31.2	-33.5	11.7	3.58e-04	0	44	0	785383424	22	4703
2026-01-21 23:10:52.62	122.65	25.16	-31.0	-33.0	12.1	4.23e-04	0	44	0	790626304	22	4523
2026-01-21 23:10:55.63	123.42	24.93	-30.7	-32.2	12.7	5.41e-05	0	44	0	796917760	22	4256
2026-01-21 23:10:58.65	124.18	24.68	-31.0	-32.9	12.1	5.52e-04	0	44	0	802160640	22	4508
2026-01-21 23:11:01.66	124.92	24.44	-30.0	-30.7	13.9	4.50e-06	0	44	0	808452096	21	3910
2026-01-21 23:11:04.67	125.66	24.19	-30.6	-32.6	12.6	6.94e-05	0	44	0	813694976	21	4504
2026-01-21 23:11:07.67	126.38	23.94	-30.9	-33.4	12.1	2.51e-04	0	44	0	818937856	21	4777
2026-01-21 23:11:10.69	127.09	23.69	-30.0	-30.9	13.7	1.75e-05	0	44	0	825229312	21	3969
2026-01-21 23:11:13.69	127.79	23.43	-31.0	-33.0	12.0	3.78e-04	0	44	0	830472192	22	4561
2026-01-21 23:11:16.69	128.48	23.18	-30.4	-31.4	13.0	5.11e-05	0	44	0	835715072	22	4039
2026-01-21 23:11:19.70	129.16	22.92	-30.4	-31.8	13.0	1.60e-05	0	44	0	842006528	21	4261
2026-01-21 23:11:22.72	129.83	22.66	-29.9	-30.6	13.8	2.05e-05	0	44	0	847249408	21	3898
2026-01-21 23:11:25.72	130.49	22.40	-30.2	-31.3	13.4	1.83e-05	0	44	0	853540864	21	4108
2026-01-21 23:11:28.72	131.13	22.14	-31.8	-35.4	9.9	2.98e-03	0	44	0	858783744	23	5412
2026-01-21 23:11:31.72	131.77	21.88	-31.2	-33.3	11.3	2.35e-03	0	44	0	864026624	23	4577
2026-01-21 23:11:34.74	132.40	21.62	-30.3	-31.2	13.1	3.43e-05	0	44	0	870318080	22	3995
2026-01-21 23:11:37.75	133.01	21.35	-30.6	-32.5	12.6	1.01e-04	0	44	0	875560960	21	4495
2026-01-21 23:11:40.75	133.62	21.09	-29.5	-30.1	14.4	7.00e-07	0	44	0	880803840	20	3843
2026-01-21 23:11:43.76	134.21	20.82	-29.4	-30.2	14.7	0.00e+00	0	44	0	887095296	19	3942
2026-01-21 23:11:46.78	134.80	20.56	-29.9	-31.6	13.8	2.20e-06	0	44	0	892338176	19	4391
2026-01-21 23:11:49.78	135.37	20.29	-29.8	-31.0	13.8	6.10e-06	0	44	0	898629632	20	4092
2026-01-21 23:11:52.79	135.94	20.03	-30.1	-31.8	13.3	8.30e-06	0	44	0	903872512	20	4338
2026-01-21 23:11:55.79	136.50	19.77	-30.4	-32.5	12.7	6.94e-05	0	44	0	909115392	20	4599
2026-01-21 23:11:58.80	137.04	19.50	-29.6	-30.4	14.0	6.80e-06	0	44	0	915406848	20	3953
2026-01-21 23:12:01.81	137.58	19.24	-29.5	-30.6	14.3	7.00e-07	0	44	0	920649728	19	4100
2026-01-21 23:12:04.82	138.11	18.97	-29.8	-31.5	13.8	3.80e-06	0	44	0	926941184	19	4347
2026-01-21 23:12:07.83	138.63	18.71	-29.8	-31.4	13.6	5.30e-06	0	44	0	932184064	19	4362
2026-01-21 23:12:10.84	139.15	18.45	-29.3	-30.7	14.3	3.12e-04	0	44	0	937426944	18	4257
2026-01-21 23:12:13.85	139.65	18.18	-29.5	-31.2	14.1	1.50e-06	0	44	0	943718400	18	4385
2026-01-21 23:12:16.86	140.14	17.92	-29.6	-30.9	14.0	2.20e-06	0	44	0	948961280	19	4180
2026-01-21 23:12:19.85	140.63	17.66	-29.5	-30.7	14.1	2.20e-06	0	45	0	954204160	19	4128
2026-01-21 23:12:22.86	141.11	17.40	-29.3	-30.8	14.3	7.00e-07	0	44	0	960495616	18	4266
2026-01-21 23:12:25.86	141.58	17.15	-29.3	-30.7	14.3	1.50e-06	0	45	0	965738496	18	4245
2026-01-21 23:12:28.87	142.04	16.89	-29.5	-30.7	14.0	1.40e-03	0	45	0	972029952	19	4139
2026-01-21 23:12:31.88	142.50	16.63	-29.7	-31.4	13.5	1.20e-03	0	44	0	977272832	19	4341
2026-01-21 23:12:34.88	142.94	16.38	-29.5	-30.8	13.8	1.08e-03	0	44	0	982515712	19	4160
2026-01-21 23:12:37.89	143.38	16.12	-29.5	-30.8	13.8	4.50e-06	0	44	0	988807168	19	4174
2026-01-21 23:12:40.89	143.82	15.87	-30.0	-31.6	12.8	2.74e-05	0	44	0	994050048	20	4339
2026-01-21 23:12:43.90	144.24	15.61	-30.5	-32.7	11.7	2.27e-03	0	44	0	999292928	21	4643
2026-01-21 23:12:46.90	144.66	15.36	-30.5	-32.7	11.7	2.60e-03	0	45	0	1005584384	21	4627
2026-01-21 23:12:49.90	145.07	15.11	-30.2	-32.5	12.2	2.16e-03	0	44	0	1010827264	20	4653
2026-01-21 23:12:52.90	145.48	14.86	-30.4	-32.8	12.0	2.07e-03	0	44	0	1016070144	20	4785
2026-01-21 23:12:55.91	145.88	14.62	-30.5	-33.1	11.4	2.37e-03	0	44	0	1022361600	21	4816
2026-01-21 23:12:58.93	146.27	14.37	-30.8	-34.2	10.4	5.75e-03	0	44	0	1027604480	21	5344
2026-01-21 23:13:01.93	146.66	14.12	-30.8	-34.5	10.1	1.16e-02	0	44	0	1033895936	21	5490
2026-01-21 23:13:04.95	147.04	13.88	-30.9	-35.2	9.5	2.37e-02	0	44	0	1039138816	21	5865
2026-01-21 23:13:07.95	147.42	13.64	-30.8	-34.3	10.3	6.79e-03	0	44	0	1044381696	21	5404
2026-01-21 23:13:10.95	147.78	13.40	-30.7	-33.9	10.6	6.74e-03	0	45	0	1050673152	21	5205
2026-01-21 23:13:13.97	148.15	13.16	-30.8	-33.9	10.6	6.05e-03	0	44	0	1055916032	21	5162
2026-01-21 23:13:16.98	148.51	12.92	-30.5	-32.7	11.6	1.01e-03	0	44	0	1062207488	21	4668
2026-01-21 23:13:19.98	148.86	12.68	-30.5	-33.4	11.3	6.85e-04	0	44	0	1067450368	20	5058
2026-01-21 23:13:22.98	149.20	12.44	-30.1	-32.5	12.0	2.70e-04	0	44	0	1072693248	20	4706
2026-01-21 23:13:25.98	149.54	12.21	-30.2	-32.5	11.9	4.69e-04	0	44	0	1078984704	20	4727
2026-01-21 23:13:28.98	149.88	11.98	-30.4	-33.2	11.5	3.13e-03	0	44	0	1084227584	20	4950
2026-01-21 23:13:31.99	150.21	11.75	-30.3	-33.1	11.4	3.12e-03	0	44	0	1089470464	20	5004
2026-01-21 23:13:35.00	150.54	11.51	-30.2	-33.3	11.1	1.68e-03	0	44	0	1095761920	20	5132
2026-01-21 23:13:38.00	150.86	11.29	-30.1	-33.1	11.1	1.67e-03	0	44	0	1101004800	20	5091
2026-01-21 23:13:41.00	151.17	11.06	-30.0	-32.8	11.4	9.58e-04	0	44	0	1106247680	20	4966
2026-01-21 23:13:44.01	151.49	10.83	-30.2	-33.2	11.1	1.22e-03	0	45	0	1112539136	20	5068
2026-01-21 23:13:47.02	151.79	10.61	-30.3	-33.5	10.9	1.73e-03	0	45	0	1117782016	20	5169
2026-01-21 23:13:50.03	152.10	10.38	-30.4	-33.8	10.7	2.95e-03	0	44	0	1124073472	20	5304
2026-01-21 23:13:53.04	152.40	10.16	-30.3	-33.7	10.6	4.63e-03	0	44	0	1129316352	20	5331
2026-01-21 23:13:56.06	152.69	9.94	-30.5	-34.4	10.0	6.41e-03	0	44	0	1134559232	20	5659
2026-01-21 23:13:59.07	152.98	9.72	-30.1	-33.0	11.1	2.17e-03	0	44	0	1140850688	20	5032
2026-01-21 23:14:02.07	153.27	9.50	-30.1	-32.9	11.2	1.08e-03	0	45	0	1146093568	20	4931
2026-01-21 23:14:05.09	153.55	9.28	-29.9	-32.5	11.6	6.83e-04	0	44	0	1152385024	20	4818
2026-01-21 23:14:08.09	153.83	9.07	-30.0	-33.1	11.5	6.19e-04	0	44	0	1157627904	19	5150
2026-01-21 23:14:11.09	154.10	8.85	-30.0	-32.5	11.5	1.60e-03	0	44	0	1162870784	20	4799
2026-01-21 23:14:14.09	154.37	8.64	-30.2	-32.9	11.2	3.71e-03	0	44	0	1169162240	20	4951
2026-01-21 23:14:17.09	154.63	8.43	-30.0	-32.6	11.4	1.17e-03	0	44	0	1174405120	20	4879
2026-01-21 23:14:20.08	154.89	8.22	-29.9	-32.6	11.3	1.23e-03	0	45	0	1179648000	20	4912
2026-01-21 23:14:23.09	155.15	8.01	-29.9	-32.5	11.4	1.05e-03	0	45	0	1185939456	20	4851
2026-01-21 23:14:26.11	155.41	7.80	-30.2	-33.1	11.1	1.25e-03	0	45	0	1191182336	20	5012
2026-01-21 23:14:29.11	155.66	7.59	-30.4	-33.3	11.1	3.55e-03	0	45	0	1196425216	20	5038
2026-01-21 23:14:32.12	155.91	7.39	-30.5	-33.5	10.9	3.59e-03	0	45	0	1202716672	20	5133
2026-01-21 23:14:35.13	156.15	7.18	-30.5	-33.9	10.5	5.56e-03	0	45	0	1207959552	20	5329

#Closed at: 2026-01-21 23:14:38
#Recorded file [1211 MB]: D:/data/31010_260122_020350.dat