passes_logs/2026/01/21/R2M6_AANII_01/R2M6_AANII_01__20260121_030408_NOAA_20_JPSS-1_rec.log

#Pass ID: 20260121_030408_NOAA 20 (JPSS-1)
#Satellite: NOAA 20 (JPSS-1)
#Configuration: NOAA 20
#almurnet v.1.7.20240730
#Start time: 2026-01-21 03:07:14

#Version: 2.2.20231116
#Station: R2M6_AANII_01
#Location: 30.233357 lon 59.946436 lat
#TLE: 1 43013U 17073A   26020.26397077  .00000127  00000+0  80954-4 0  9999
#TLE: 2 43013  98.7643 321.1479 0001288  31.3158 328.8095 14.19537595423482

#Time	Az	El	Level	Level2	SNR	BER	BlckErr	Temp	State	Recorded	gain1	gain2
2026-01-21 03:07:14.81	337.47	14.80	-34.0	-53.6	3.8	7.44e-01	0	44	0	0	28	34188
2026-01-21 03:07:16.80	337.06	14.84	-34.6	-48.7	3.8	1.49e+00	0	44	104	0	29	18377
2026-01-21 03:07:18.81	336.65	14.88	-34.6	-48.9	3.8	1.49e+00	0	44	104	0	29	18681
2026-01-21 03:07:20.82	336.23	14.92	-34.6	-48.8	3.8	1.49e+00	0	44	104	0	29	18441
2026-01-21 03:07:22.82	335.82	14.96	-34.5	-48.7	3.8	1.49e+00	0	44	104	0	29	18406
2026-01-21 03:07:24.82	335.40	14.99	-34.5	-48.6	3.8	1.49e+00	0	44	104	0	29	18297
2026-01-21 03:07:26.81	334.98	15.03	-34.5	-49.1	3.8	1.49e+00	0	44	104	0	28	19292
2026-01-21 03:07:28.82	334.56	15.06	-34.5	-49.1	3.8	1.49e+00	0	44	104	0	28	19391
2026-01-21 03:07:30.83	334.14	15.09	-34.5	-49.1	3.8	1.49e+00	0	44	104	0	28	19352
2026-01-21 03:07:32.84	333.72	15.12	-34.5	-48.7	3.8	1.49e+00	0	44	104	0	29	18334
2026-01-21 03:07:34.85	333.30	15.15	-34.5	-48.7	3.8	1.49e+00	0	44	104	0	29	18348
2026-01-21 03:07:36.85	332.88	15.18	-34.5	-48.7	3.8	1.49e+00	0	44	104	0	29	18344
2026-01-21 03:07:38.86	332.45	15.20	-34.5	-48.6	3.8	1.49e+00	0	44	104	0	29	18271
2026-01-21 03:07:40.87	332.03	15.22	-34.4	-49.0	3.8	1.49e+00	0	44	104	0	28	19259
2026-01-21 03:07:42.87	331.60	15.25	-34.4	-48.9	3.8	1.49e+00	0	44	104	0	28	19081
2026-01-21 03:07:44.87	331.18	15.27	-34.2	-48.6	3.8	1.49e+00	0	44	104	0	28	18735
2026-01-21 03:07:46.88	330.75	15.29	-34.0	-48.1	3.8	1.49e+00	0	44	104	0	28	18174
2026-01-21 03:07:48.89	330.32	15.30	-33.9	-48.3	3.8	1.49e+00	0	44	104	0	27	18829
2026-01-21 03:07:50.90	329.89	15.32	-33.9	-48.2	3.8	1.49e+00	0	44	104	0	27	18722
2026-01-21 03:07:52.90	329.47	15.33	-33.9	-48.2	3.8	1.49e+00	0	44	104	0	27	18766
2026-01-21 03:07:54.91	329.04	15.35	-33.9	-48.2	3.8	1.49e+00	0	44	104	0	27	18718
2026-01-21 03:07:56.91	328.61	15.36	-33.9	-47.9	3.8	1.49e+00	0	44	104	0	27	18128
2026-01-21 03:07:58.93	328.18	15.37	-33.9	-48.0	3.8	1.49e+00	0	44	104	0	27	18254
2026-01-21 03:08:00.94	327.75	15.37	-33.9	-48.4	3.8	1.49e+00	0	44	104	0	27	19060
2026-01-21 03:08:02.95	327.32	15.38	-33.9	-48.0	3.8	1.49e+00	0	44	104	0	27	18319
2026-01-21 03:08:04.96	326.89	15.38	-33.8	-46.0	3.8	1.49e+00	0	44	104	0	27	14819
2026-01-21 03:08:06.97	326.46	15.39	-33.1	-40.8	6.1	1.24e+00	0	44	104	0	26	8730
2026-01-21 03:08:08.97	326.03	15.39	-32.2	-37.4	9.4	2.65e-01	0	44	104	0	24	6549
2026-01-21 03:08:10.98	325.60	15.39	-32.2	-37.5	9.4	1.29e-02	0	44	0	2097152	24	6605
2026-01-21 03:08:12.99	325.17	15.39	-32.1	-37.0	9.7	1.16e-02	0	44	0	6291456	24	6350
2026-01-21 03:08:14.99	324.74	15.38	-32.1	-37.2	9.5	1.37e-02	0	44	0	9437184	24	6484
2026-01-21 03:08:17.00	324.31	15.38	-32.1	-37.1	9.7	1.80e-02	0	44	0	13631488	24	6375
2026-01-21 03:08:19.00	323.88	15.37	-31.4	-35.1	11.6	1.15e-03	0	44	0	17825792	23	5518
2026-01-21 03:08:21.00	323.45	15.36	-30.8	-34.4	12.8	2.61e-03	0	44	0	20971520	21	5443
2026-01-21 03:08:23.01	323.02	15.35	-30.9	-34.6	12.6	1.33e-04	0	44	0	25165824	21	5523
2026-01-21 03:08:25.02	322.59	15.34	-31.2	-34.9	12.0	2.90e-03	0	44	0	28311552	22	5565
2026-01-21 03:08:27.03	322.16	15.33	-31.3	-35.4	11.7	6.23e-04	0	44	0	32505856	22	5768
2026-01-21 03:08:29.04	321.74	15.31	-31.4	-35.7	11.5	9.93e-04	0	44	0	36700160	22	5898
2026-01-21 03:08:31.04	321.31	15.30	-31.1	-34.8	12.1	3.68e-04	0	44	0	39845888	22	5512
2026-01-21 03:08:33.05	320.88	15.28	-31.1	-34.9	12.1	2.49e-04	0	44	0	44040192	22	5538
2026-01-21 03:08:35.05	320.46	15.26	-31.1	-34.8	12.1	2.55e-04	0	44	0	47185920	22	5528
2026-01-21 03:08:37.05	320.03	15.24	-30.7	-34.3	12.8	8.69e-05	0	44	0	51380224	21	5403
2026-01-21 03:08:39.05	319.61	15.21	-30.9	-34.6	12.6	9.99e-05	0	44	0	55574528	21	5544
2026-01-21 03:08:41.06	319.18	15.19	-30.9	-34.1	12.6	1.16e-04	0	44	0	58720256	22	5233
2026-01-21 03:08:43.06	318.76	15.16	-30.8	-34.5	12.5	1.78e-04	0	44	0	62914560	21	5522
2026-01-21 03:08:45.07	318.34	15.14	-31.0	-34.9	12.3	1.29e-04	0	44	0	66060288	21	5695
2026-01-21 03:08:47.08	317.91	15.11	-31.0	-34.6	12.2	1.94e-04	0	44	0	70254592	22	5446
2026-01-21 03:08:49.08	317.49	15.08	-31.0	-34.4	12.3	2.55e-04	0	44	0	73400320	22	5345
2026-01-21 03:08:51.09	317.07	15.04	-30.9	-34.3	12.4	1.88e-04	0	44	0	77594624	22	5289
2026-01-21 03:08:53.10	316.65	15.01	-30.6	-33.8	13.0	4.11e-05	0	44	0	81788928	21	5236
2026-01-21 03:08:55.10	316.23	14.98	-30.6	-33.8	13.1	2.97e-05	0	44	0	84934656	21	5223
2026-01-21 03:08:57.12	315.81	14.94	-30.5	-34.0	13.2	2.44e-05	0	44	0	89128960	20	5409
2026-01-21 03:08:59.13	315.39	14.90	-30.4	-33.9	13.4	1.44e-05	0	44	0	92274688	20	5353
2026-01-21 03:09:01.14	314.98	14.86	-30.4	-33.9	13.3	2.51e-05	0	44	0	96468992	20	5381
2026-01-21 03:09:03.14	314.57	14.82	-30.4	-33.7	13.5	1.81e-03	0	44	0	100663296	20	5294
2026-01-21 03:09:05.14	314.15	14.78	-30.4	-33.8	13.4	3.80e-04	0	44	0	103809024	20	5346
2026-01-21 03:09:07.15	313.74	14.74	-30.6	-33.8	13.0	8.95e-04	0	44	0	108003328	21	5237
2026-01-21 03:09:09.16	313.33	14.69	-30.6	-33.9	13.0	5.03e-05	0	44	0	111149056	21	5263
2026-01-21 03:09:11.16	312.92	14.64	-30.6	-33.8	12.9	2.49e-04	0	44	0	115343360	21	5233
2026-01-21 03:09:13.17	312.51	14.60	-30.5	-33.6	13.2	4.60e-04	0	44	0	118489088	21	5141
2026-01-21 03:09:15.18	312.10	14.55	-30.5	-33.6	13.2	2.67e-05	0	44	0	122683392	21	5158
2026-01-21 03:09:17.18	311.70	14.50	-30.5	-34.0	13.3	2.62e-03	0	44	0	126877696	20	5410
2026-01-21 03:09:19.19	311.29	14.44	-30.7	-34.2	12.8	3.29e-04	0	44	0	130023424	21	5379
2026-01-21 03:09:21.20	310.89	14.39	-30.8	-34.5	12.5	2.18e-03	0	44	0	134217728	21	5514
2026-01-21 03:09:23.21	310.49	14.34	-31.0	-34.6	12.1	2.20e-03	0	44	0	137363456	22	5462
2026-01-21 03:09:25.21	310.09	14.28	-31.0	-34.5	12.2	1.93e-03	0	44	0	141557760	22	5392
2026-01-21 03:09:27.22	309.69	14.22	-30.9	-34.8	12.3	2.50e-03	0	44	0	145752064	21	5624
2026-01-21 03:09:29.23	309.29	14.16	-31.1	-34.9	11.9	3.54e-03	0	44	0	148897792	22	5566
2026-01-21 03:09:31.24	308.90	14.11	-31.0	-34.6	12.1	6.64e-04	0	44	0	153092096	22	5454
2026-01-21 03:09:33.25	308.50	14.04	-30.7	-34.3	12.6	2.44e-03	0	44	0	156237824	21	5437
2026-01-21 03:09:35.26	308.11	13.98	-30.7	-34.1	12.7	2.85e-03	0	44	0	160432128	21	5371
2026-01-21 03:09:37.27	307.72	13.92	-30.8	-34.5	12.5	2.52e-04	0	44	0	164626432	21	5520
2026-01-21 03:09:39.27	307.33	13.86	-30.7	-34.3	12.6	2.39e-03	0	44	0	167772160	21	5440
2026-01-21 03:09:41.27	306.95	13.79	-30.7	-34.4	12.6	2.41e-03	0	44	0	171966464	21	5467
2026-01-21 03:09:43.27	306.56	13.72	-30.6	-33.9	12.8	6.17e-05	0	44	0	175112192	21	5292
2026-01-21 03:09:45.28	306.18	13.66	-30.6	-34.1	12.7	2.34e-03	0	44	0	179306496	21	5363
2026-01-21 03:09:47.28	305.80	13.59	-30.5	-33.6	13.0	3.96e-05	0	44	0	182452224	21	5178
2026-01-21 03:09:49.29	305.42	13.52	-30.5	-33.8	12.8	4.95e-05	0	44	0	186646528	21	5254
2026-01-21 03:09:51.30	305.04	13.45	-30.6	-34.1	12.7	8.23e-05	0	44	0	190840832	21	5383
2026-01-21 03:09:53.30	304.66	13.38	-30.5	-33.8	12.9	5.87e-05	0	44	0	193986560	21	5241
2026-01-21 03:09:55.31	304.29	13.30	-30.5	-33.7	12.9	6.63e-05	0	44	0	198180864	21	5192
2026-01-21 03:09:57.32	303.92	13.23	-30.5	-34.1	13.0	3.28e-05	0	44	0	201326592	20	5484
2026-01-21 03:09:59.33	303.54	13.15	-30.6	-34.1	12.6	1.76e-03	0	44	0	205520896	21	5387
2026-01-21 03:10:01.34	303.17	13.08	-30.3	-33.3	13.2	3.43e-05	0	44	0	209715200	21	5066
2026-01-21 03:10:03.34	302.81	13.00	-30.4	-34.0	13.1	1.65e-03	0	44	0	212860928	20	5432
2026-01-21 03:10:05.35	302.44	12.92	-30.5	-34.2	12.9	4.27e-05	0	44	0	217055232	20	5532
2026-01-21 03:10:07.35	302.08	12.85	-30.6	-34.1	12.5	1.30e-04	0	44	0	220200960	21	5385
2026-01-21 03:10:09.36	301.72	12.77	-30.4	-34.1	12.5	4.50e-05	0	44	0	224395264	20	5481
2026-01-21 03:10:11.36	301.36	12.69	-30.7	-34.2	12.5	8.85e-05	0	44	0	228589568	21	5434
2026-01-21 03:10:13.37	301.00	12.61	-30.5	-34.3	12.8	9.68e-05	0	44	0	231735296	20	5560
2026-01-21 03:10:15.38	300.65	12.52	-30.6	-34.0	12.6	7.24e-05	0	44	0	235929600	21	5351
2026-01-21 03:10:17.37	300.30	12.44	-30.6	-34.1	12.6	1.02e-04	0	44	0	239075328	21	5374
2026-01-21 03:10:19.38	299.95	12.36	-30.7	-34.3	12.5	1.11e-04	0	44	0	243269632	21	5451
2026-01-21 03:10:21.39	299.60	12.27	-30.8	-34.7	12.1	1.79e-04	0	44	0	246415360	21	5635
2026-01-21 03:10:23.40	299.25	12.19	-30.8	-34.6	12.1	2.96e-04	0	44	0	250609664	21	5613
2026-01-21 03:10:25.41	298.90	12.10	-30.7	-34.3	12.4	1.67e-04	0	44	0	254803968	21	5467
2026-01-21 03:10:27.41	298.56	12.02	-30.7	-34.3	12.4	1.71e-03	0	44	0	257949696	21	5471
2026-01-21 03:10:29.40	298.22	11.93	-30.8	-34.8	11.9	2.40e-04	0	44	0	262144000	21	5674
2026-01-21 03:10:31.40	297.89	11.84	-31.2	-35.4	11.0	2.41e-03	0	44	0	265289728	22	5824
2026-01-21 03:10:33.41	297.55	11.76	-31.2	-35.4	11.3	1.51e-03	0	44	0	269484032	22	5826
2026-01-21 03:10:35.41	297.21	11.67	-31.1	-35.0	11.5	8.13e-04	0	44	0	273678336	22	5687
2026-01-21 03:10:37.42	296.88	11.58	-31.1	-35.2	11.4	9.86e-04	0	44	0	276824064	22	5747
2026-01-21 03:10:39.43	296.55	11.49	-31.1	-35.1	11.4	8.88e-04	0	44	0	281018368	22	5714
2026-01-21 03:10:41.44	296.22	11.40	-31.2	-35.5	11.2	2.69e-03	0	44	0	284164096	22	5888
2026-01-21 03:10:43.44	295.89	11.31	-31.2	-35.5	11.1	1.43e-03	0	44	0	288358400	22	5889
2026-01-21 03:10:45.45	295.57	11.21	-31.3	-35.8	10.9	2.84e-03	0	44	0	292552704	22	6071
2026-01-21 03:10:47.44	295.25	11.12	-31.4	-36.1	10.7	2.74e-03	0	44	0	295698432	22	6184
2026-01-21 03:10:49.45	294.93	11.03	-31.5	-36.1	10.3	6.38e-03	0	44	0	299892736	23	6100
2026-01-21 03:10:51.46	294.61	10.93	-31.5	-36.1	10.3	7.23e-03	0	44	0	303038464	23	6111
2026-01-21 03:10:53.47	294.29	10.84	-31.5	-36.1	10.2	5.56e-03	0	44	0	307232768	23	6103
2026-01-21 03:10:55.48	293.98	10.75	-31.6	-36.3	10.0	1.07e-02	0	44	0	310378496	23	6235
2026-01-21 03:10:57.49	293.66	10.65	-31.7	-36.7	9.8	9.91e-03	0	44	0	314572800	23	6414
2026-01-21 03:10:59.50	293.35	10.56	-31.7	-36.9	9.5	1.48e-02	0	44	0	318767104	23	6567
2026-01-21 03:11:01.51	293.05	10.46	-31.7	-37.0	9.5	1.75e-02	0	44	0	321912832	23	6617
2026-01-21 03:11:03.50	292.74	10.36	-31.7	-37.0	9.5	1.68e-02	0	44	0	326107136	23	6623
2026-01-21 03:11:05.51	292.44	10.27	-31.7	-37.0	9.5	1.60e-02	0	44	0	329252864	23	6573
2026-01-21 03:11:07.52	292.13	10.17	-31.8	-37.2	9.3	2.18e-02	0	44	0	333447168	23	6730
2026-01-21 03:11:09.54	291.83	10.07	-31.8	-37.3	9.2	2.58e-02	0	44	0	337641472	23	6791
2026-01-21 03:11:11.55	291.53	9.97	-31.7	-36.7	9.7	1.48e-02	0	44	0	340787200	23	6470
2026-01-21 03:11:13.56	291.24	9.88	-31.7	-37.1	9.4	1.67e-02	0	44	0	344981504	23	6677
2026-01-21 03:11:15.56	290.94	9.78	-31.8	-37.5	9.0	2.73e-02	0	44	0	348127232	23	6928
2026-01-21 03:11:17.56	290.65	9.68	-31.8	-37.4	9.0	2.95e-02	0	45	0	352321536	23	6868
2026-01-21 03:11:19.57	290.36	9.58	-31.7	-37.0	9.4	2.11e-02	0	44	0	356515840	23	6632
2026-01-21 03:11:21.57	290.08	9.48	-31.7	-36.9	9.3	1.65e-02	0	44	0	359661568	23	6597
2026-01-21 03:11:23.58	289.79	9.38	-31.7	-37.0	9.2	1.81e-02	0	44	0	363855872	23	6659
2026-01-21 03:11:25.58	289.51	9.28	-31.6	-36.7	9.5	1.53e-02	0	44	0	367001600	23	6494
2026-01-21 03:11:27.59	289.22	9.18	-31.5	-36.5	9.7	1.21e-02	0	44	0	371195904	23	6365
2026-01-21 03:11:29.59	288.94	9.08	-31.5	-36.6	9.6	1.67e-02	0	44	0	374341632	23	6417
2026-01-21 03:11:31.59	288.67	8.98	-31.5	-36.5	9.6	1.74e-02	0	44	0	378535936	23	6390
2026-01-21 03:11:33.59	288.39	8.88	-31.4	-36.6	9.9	9.10e-03	0	44	0	382730240	22	6559
2026-01-21 03:11:35.59	288.12	8.78	-31.4	-36.6	9.9	8.99e-03	0	44	0	385875968	22	6542
2026-01-21 03:11:37.60	287.85	8.68	-31.4	-36.6	9.9	1.41e-02	0	44	0	390070272	22	6537
2026-01-21 03:11:39.61	287.57	8.58	-31.3	-36.4	10.0	7.36e-03	0	44	0	393216000	22	6447
2026-01-21 03:11:41.62	287.31	8.47	-31.4	-36.7	9.7	1.58e-02	0	44	0	397410304	22	6661
2026-01-21 03:11:43.61	287.04	8.37	-31.3	-36.5	9.8	1.03e-02	0	44	0	401604608	22	6533
2026-01-21 03:11:45.63	286.77	8.27	-31.4	-36.6	9.7	1.10e-02	0	44	0	404750336	22	6578
2026-01-21 03:11:47.64	286.51	8.17	-31.3	-36.3	10.0	9.92e-03	0	44	0	408944640	22	6443
2026-01-21 03:11:49.63	286.25	8.07	-31.2	-36.0	10.2	6.96e-03	0	44	0	412090368	22	6264
2026-01-21 03:11:51.63	285.99	7.96	-31.0	-35.2	10.7	3.60e-03	0	44	0	416284672	22	5883
2026-01-21 03:11:53.64	285.74	7.86	-30.9	-35.7	10.7	2.74e-03	0	44	0	419430400	21	6246
2026-01-21 03:11:55.64	285.48	7.76	-30.8	-35.2	11.0	4.96e-03	0	44	0	423624704	21	5983
2026-01-21 03:11:57.65	285.23	7.65	-30.8	-35.4	11.0	2.13e-03	0	44	0	427819008	21	6082
2026-01-21 03:11:59.65	284.98	7.55	-30.8	-35.3	11.0	1.91e-03	0	44	0	430964736	21	6020
2026-01-21 03:12:01.66	284.73	7.45	-30.8	-35.2	11.0	2.09e-03	0	44	0	435159040	21	5987
2026-01-21 03:12:03.67	284.48	7.34	-30.7	-35.1	11.1	1.95e-03	0	44	0	438304768	21	5952
2026-01-21 03:12:05.68	284.23	7.24	-30.8	-35.3	10.9	1.46e-03	0	44	0	442499072	21	6047
2026-01-21 03:12:07.68	283.99	7.14	-30.6	-34.6	11.5	1.13e-03	0	44	0	446693376	21	5715
2026-01-21 03:12:09.68	283.75	7.03	-33.1	-47.2	3.8	1.04e+00	0	44	104	449839104	26	18207
2026-01-21 03:12:11.69	283.50	6.93	-34.0	-48.6	3.8	1.49e+00	0	44	104	449839104	27	19260

#Closed at: 2026-01-21 03:12:12
#Recorded file [449 MB]: D:/data/31010_260121_060809.dat