passes_logs/2026/01/21/R2M6_AANII_01/R2M6_AANII_01__20260121_123258_AQUA_rec.log

#Pass ID: 20260121_123258_AQUA
#Satellite: AQUA
#Configuration: AQUA
#almurnet v.1.7.20240730
#Start time: 2026-01-21 12:32:59

#Version: 2.2.20231116
#Station: R2M6_AANII_01
#Location: 30.233357 lon 59.946436 lat
#TLE: 1 27424U 02022A   26020.30984080  .00001497  00000+0  30942-3 0  9998
#TLE: 2 27424  98.4092 346.8266 0001984  71.7888  69.0903 14.61835321261661

#Time	Az	El	Level	Level2	SNR	BER	BlckErr	Temp	State	Recorded	gain1	gain2
2026-01-21 12:32:59.04	176.64	7.03	-30.6	-35.4	5.2	7.06e-01	0	42	0	0	22	6286
2026-01-21 12:33:02.05	176.76	7.28	-31.2	-37.0	5.2	7.08e-01	0	42	0	0	23	6997
2026-01-21 12:33:05.06	176.87	7.52	-31.1	-36.6	5.2	7.07e-01	0	42	0	0	23	6774
2026-01-21 12:33:08.07	176.99	7.77	-31.0	-36.1	5.2	7.07e-01	0	42	0	0	23	6498
2026-01-21 12:33:11.09	177.11	8.02	-31.1	-36.4	5.2	7.09e-01	0	42	0	0	23	6622
2026-01-21 12:33:14.10	177.23	8.28	-30.8	-35.3	5.2	7.06e-01	0	42	0	0	23	6073
2026-01-21 12:33:17.12	177.36	8.54	-30.3	-34.4	5.3	7.06e-01	0	42	0	0	22	5781
2026-01-21 12:33:20.12	177.49	8.79	-30.6	-35.2	5.2	7.06e-01	0	42	0	0	22	6125
2026-01-21 12:33:23.14	177.62	9.06	-30.2	-34.2	5.3	7.08e-01	0	42	0	0	22	5671
2026-01-21 12:33:26.15	177.75	9.32	-30.2	-34.1	5.3	7.08e-01	0	42	0	0	22	5624
2026-01-21 12:33:29.16	177.88	9.59	-30.1	-33.7	5.3	7.07e-01	0	42	0	0	22	5450
2026-01-21 12:33:32.17	178.02	9.86	-30.2	-34.1	5.3	7.09e-01	0	42	0	0	22	5648
2026-01-21 12:33:35.18	178.16	10.14	-30.2	-34.1	5.3	7.08e-01	0	42	0	0	22	5611
2026-01-21 12:33:38.18	178.30	10.42	-30.2	-34.1	5.3	7.05e-01	0	42	0	0	22	5634
2026-01-21 12:33:41.19	178.45	10.70	-30.5	-34.7	5.3	7.04e-01	0	42	0	0	22	5887
2026-01-21 12:33:44.20	178.59	10.98	-30.2	-34.0	5.3	7.10e-01	0	42	0	0	22	5554
2026-01-21 12:33:47.22	178.74	11.27	-30.3	-34.1	5.3	7.08e-01	0	43	0	0	22	5626
2026-01-21 12:33:50.23	178.90	11.57	-30.1	-33.7	5.3	7.05e-01	0	42	0	0	22	5428
2026-01-21 12:33:53.23	179.05	11.86	-30.0	-33.3	5.3	7.07e-01	0	43	0	0	22	5294
2026-01-21 12:33:56.24	179.21	12.16	-29.9	-33.2	5.3	7.09e-01	0	43	0	0	22	5243
2026-01-21 12:33:59.26	179.38	12.47	-30.0	-33.3	5.3	7.07e-01	0	43	0	0	22	5280
2026-01-21 12:34:02.27	179.54	12.78	-30.1	-33.5	5.3	7.07e-01	0	43	0	0	22	5362
2026-01-21 12:34:05.29	179.72	13.09	-29.9	-33.1	5.3	7.05e-01	0	43	0	0	22	5196
2026-01-21 12:34:08.29	179.89	13.41	-29.8	-33.4	5.3	7.07e-01	0	43	0	0	21	5410
2026-01-21 12:34:11.31	180.07	13.73	-29.9	-33.4	5.3	7.09e-01	0	43	0	0	21	5429
2026-01-21 12:34:14.32	180.25	14.06	-29.7	-32.9	5.3	7.04e-01	0	43	0	0	21	5226
2026-01-21 12:34:17.34	180.44	14.39	-29.8	-33.3	5.3	7.08e-01	0	43	0	0	21	5387
2026-01-21 12:34:20.35	180.63	14.72	-30.0	-33.7	5.3	7.09e-01	0	43	0	0	21	5531
2026-01-21 12:34:23.35	180.82	15.06	-29.9	-33.5	5.3	7.07e-01	0	43	0	0	21	5437
2026-01-21 12:34:26.36	181.02	15.41	-29.7	-32.9	5.3	7.08e-01	0	43	0	0	21	5217
2026-01-21 12:34:29.38	181.22	15.76	-29.6	-32.7	5.3	7.09e-01	0	43	0	0	21	5154
2026-01-21 12:34:32.39	181.43	16.12	-29.7	-33.0	5.3	7.05e-01	0	43	0	0	21	5259
2026-01-21 12:34:35.39	181.65	16.48	-29.9	-33.5	5.3	7.08e-01	0	43	0	0	21	5432
2026-01-21 12:34:38.40	181.87	16.85	-30.0	-33.8	5.3	7.04e-01	0	43	0	0	21	5571
2026-01-21 12:34:41.41	182.09	17.22	-29.9	-33.6	5.3	7.05e-01	0	43	0	0	21	5510
2026-01-21 12:34:44.42	182.32	17.60	-29.8	-33.3	5.3	7.06e-01	0	43	0	0	21	5399
2026-01-21 12:34:47.44	182.56	17.98	-29.5	-32.6	5.3	7.04e-01	0	43	0	0	21	5101
2026-01-21 12:34:50.44	182.80	18.37	-29.6	-32.7	5.3	7.07e-01	0	43	0	0	21	5169
2026-01-21 12:34:53.45	183.05	18.77	-29.6	-32.6	5.3	7.04e-01	0	43	0	0	21	5122
2026-01-21 12:34:56.46	183.30	19.18	-29.6	-32.8	5.3	7.07e-01	0	43	0	0	21	5204
2026-01-21 12:34:59.47	183.57	19.59	-29.6	-32.7	5.3	7.09e-01	0	43	0	0	21	5166
2026-01-21 12:35:02.49	183.84	20.01	-29.4	-32.6	5.3	7.05e-01	0	43	0	0	20	5244
2026-01-21 12:35:05.50	184.12	20.44	-29.6	-33.2	5.3	7.08e-01	0	43	0	0	20	5472
2026-01-21 12:35:08.52	184.40	20.87	-29.7	-33.5	5.3	7.07e-01	0	43	0	0	20	5555
2026-01-21 12:35:11.52	184.70	21.31	-29.6	-33.1	5.3	7.07e-01	0	43	0	0	20	5432
2026-01-21 12:35:14.54	185.00	21.76	-29.6	-33.2	5.3	7.06e-01	0	43	0	0	20	5464
2026-01-21 12:35:17.54	185.31	22.22	-29.7	-33.5	5.3	7.07e-01	0	43	0	0	20	5561
2026-01-21 12:35:20.56	185.63	22.68	-29.8	-33.6	5.3	7.07e-01	0	43	0	0	20	5592
2026-01-21 12:35:23.58	185.97	23.16	-29.7	-33.4	5.3	7.04e-01	0	43	0	0	20	5505
2026-01-21 12:35:26.58	186.31	23.64	-29.9	-33.9	5.3	7.07e-01	0	43	0	0	20	5691
2026-01-21 12:35:29.59	186.66	24.13	-30.1	-34.3	5.3	7.06e-01	0	43	0	0	20	5856
2026-01-21 12:35:32.60	187.02	24.63	-30.2	-34.2	5.3	7.06e-01	0	43	0	0	21	5647
2026-01-21 12:35:35.60	187.40	25.14	-30.2	-34.0	5.3	7.06e-01	0	43	0	0	21	5565
2026-01-21 12:35:38.61	187.79	25.66	-30.3	-34.3	5.3	7.06e-01	0	43	0	0	21	5675
2026-01-21 12:35:41.62	188.19	26.19	-29.8	-32.9	5.3	7.06e-01	0	43	0	0	21	5163
2026-01-21 12:35:44.63	188.60	26.73	-29.8	-32.9	5.3	7.08e-01	0	43	0	0	21	5153
2026-01-21 12:35:47.63	189.03	27.27	-29.6	-32.5	5.3	7.05e-01	0	43	0	0	21	5015
2026-01-21 12:35:50.64	189.48	27.83	-29.6	-32.4	5.3	7.05e-01	0	43	0	0	21	4964
2026-01-21 12:35:53.66	189.94	28.41	-29.6	-32.3	5.3	7.07e-01	0	43	0	0	21	4947
2026-01-21 12:35:56.68	190.42	28.99	-29.5	-32.1	5.4	7.07e-01	0	43	0	0	21	4878
2026-01-21 12:35:59.67	190.91	29.58	-29.6	-32.3	5.3	7.06e-01	0	43	0	0	21	4931
2026-01-21 12:36:02.68	191.43	30.18	-29.5	-32.2	5.3	7.03e-01	0	43	0	0	21	4906
2026-01-21 12:36:05.69	191.96	30.80	-29.5	-32.2	5.3	7.05e-01	0	43	0	0	21	4890
2026-01-21 12:36:08.70	192.52	31.42	-29.6	-32.4	5.4	7.04e-01	0	43	0	0	21	4970
2026-01-21 12:36:11.71	193.10	32.06	-29.7	-32.7	5.3	7.07e-01	0	44	0	0	21	5073
2026-01-21 12:36:14.72	193.70	32.71	-29.9	-33.2	5.3	7.06e-01	0	43	0	0	21	5253
2026-01-21 12:36:17.73	194.33	33.37	-30.0	-33.4	5.3	7.06e-01	0	43	0	0	21	5306
2026-01-21 12:36:20.74	194.98	34.04	-29.9	-33.2	5.3	7.05e-01	0	44	0	0	21	5240
2026-01-21 12:36:23.76	195.66	34.73	-30.3	-34.1	5.3	7.06e-01	0	44	0	0	21	5569
2026-01-21 12:36:26.76	196.37	35.43	-30.5	-34.1	5.3	7.05e-01	0	44	0	0	22	5448
2026-01-21 12:36:29.76	197.11	36.13	-30.6	-34.5	5.3	7.08e-01	0	44	0	0	22	5641
2026-01-21 12:36:32.77	197.89	36.85	-30.9	-35.3	5.3	7.07e-01	0	44	0	0	22	5978
2026-01-21 12:36:35.77	198.70	37.58	-30.7	-34.7	5.3	7.08e-01	0	44	0	0	22	5681
2026-01-21 12:36:38.79	199.55	38.32	-30.9	-35.1	5.3	7.08e-01	0	44	0	0	22	5889
2026-01-21 12:36:41.79	200.44	39.07	-30.5	-34.1	5.3	7.06e-01	0	44	0	0	22	5442
2026-01-21 12:36:44.81	201.37	39.84	-30.6	-34.3	5.3	7.06e-01	0	44	0	0	22	5515
2026-01-21 12:36:47.82	202.35	40.61	-30.4	-33.9	5.3	7.09e-01	0	44	0	0	22	5372
2026-01-21 12:36:50.82	203.37	41.38	-30.3	-33.4	5.3	7.05e-01	0	44	0	0	22	5201
2026-01-21 12:36:53.82	204.44	42.17	-29.8	-32.9	5.3	7.02e-01	0	44	0	0	21	5112
2026-01-21 12:36:56.84	205.57	42.96	-29.7	-32.5	5.3	7.05e-01	0	44	0	0	21	4983
2026-01-21 12:36:59.85	206.76	43.76	-29.2	-31.9	5.3	7.08e-01	0	43	0	0	20	4896
2026-01-21 12:37:02.87	208.01	44.56	-29.3	-32.1	5.3	7.06e-01	0	44	0	0	20	4972
2026-01-21 12:37:05.87	209.32	45.36	-29.1	-31.5	5.3	7.04e-01	0	44	0	0	20	4782
2026-01-21 12:37:08.87	210.70	46.16	-29.2	-31.8	5.3	7.09e-01	0	44	0	0	20	4863
2026-01-21 12:37:11.87	212.15	46.96	-29.3	-32.1	5.3	7.07e-01	0	44	0	0	20	4954
2026-01-21 12:37:14.89	213.68	47.75	-29.8	-33.4	5.3	7.08e-01	0	43	0	0	20	5440
2026-01-21 12:37:17.89	215.29	48.54	-29.6	-32.9	5.3	7.06e-01	0	44	0	0	20	5224
2026-01-21 12:37:20.91	216.98	49.32	-29.6	-32.9	5.3	7.10e-01	0	44	0	0	20	5238
2026-01-21 12:37:23.92	218.77	50.08	-29.7	-33.1	5.3	7.08e-01	0	44	0	0	20	5320
2026-01-21 12:37:26.92	220.63	50.83	-29.7	-33.1	5.3	7.06e-01	0	44	0	0	20	5290
2026-01-21 12:37:29.92	222.59	51.55	-29.2	-31.7	5.3	7.09e-01	0	44	0	0	20	4819
2026-01-21 12:37:32.94	224.66	52.26	-29.4	-32.4	5.3	7.08e-01	0	44	0	0	20	5066
2026-01-21 12:37:35.94	226.81	52.93	-29.4	-32.2	5.3	7.08e-01	0	43	0	0	20	4997
2026-01-21 12:37:38.94	229.07	53.56	-29.6	-32.7	5.3	7.09e-01	0	44	0	0	20	5157
2026-01-21 12:37:41.94	231.41	54.16	-29.9	-33.5	5.3	7.09e-01	0	44	0	0	20	5459
2026-01-21 12:37:44.96	233.88	54.72	-30.0	-33.6	5.3	7.07e-01	0	44	0	0	20	5500
2026-01-21 12:37:47.97	236.43	55.23	-30.0	-33.6	5.3	7.09e-01	0	44	0	0	20	5491
2026-01-21 12:37:50.98	239.06	55.69	-30.3	-34.0	5.3	7.09e-01	0	44	0	0	21	5519
2026-01-21 12:37:53.99	241.78	56.09	-30.8	-34.7	5.3	7.05e-01	0	44	0	0	22	5659
2026-01-21 12:37:57.01	244.58	56.43	-30.5	-33.9	5.3	7.09e-01	0	44	0	0	22	5349
2026-01-21 12:38:00.01	247.43	56.71	-30.7	-34.5	5.3	7.08e-01	0	44	0	0	22	5558
2026-01-21 12:38:03.03	250.34	56.92	-30.9	-34.9	5.3	7.10e-01	0	44	0	0	22	5735
2026-01-21 12:38:06.04	253.29	57.05	-31.2	-35.2	5.3	7.08e-01	0	43	0	0	23	5751
2026-01-21 12:38:09.05	256.25	57.12	-31.1	-35.0	5.3	7.08e-01	0	44	0	0	23	5631
2026-01-21 12:38:12.05	259.21	57.12	-31.3	-35.6	5.3	7.09e-01	0	44	0	0	23	5919
2026-01-21 12:38:15.06	262.17	57.04	-30.9	-34.5	5.3	7.08e-01	0	44	0	0	23	5423
2026-01-21 12:38:18.08	265.12	56.89	-31.1	-35.0	5.3	7.09e-01	0	44	0	0	23	5638
2026-01-21 12:38:21.08	268.01	56.68	-31.1	-35.1	5.3	7.08e-01	0	44	0	0	23	5704
2026-01-21 12:38:24.08	270.84	56.39	-30.9	-34.6	5.3	7.09e-01	0	44	0	0	23	5475
2026-01-21 12:38:27.10	273.63	56.04	-31.2	-35.3	5.2	7.08e-01	0	44	0	0	23	5799
2026-01-21 12:38:30.10	276.33	55.64	-30.6	-34.3	5.3	7.07e-01	0	43	0	0	22	5521
2026-01-21 12:38:33.11	278.95	55.17	-30.6	-34.2	5.3	7.08e-01	0	44	0	0	22	5458
2026-01-21 12:38:36.11	281.48	54.66	-30.6	-34.2	5.3	7.08e-01	0	44	0	0	22	5448
2026-01-21 12:38:39.12	283.91	54.10	-30.5	-33.8	5.3	7.07e-01	0	44	0	0	22	5301
2026-01-21 12:38:42.13	286.26	53.50	-30.6	-34.2	5.3	7.07e-01	0	44	0	0	22	5437
2026-01-21 12:38:45.14	288.50	52.85	-30.9	-35.0	5.3	7.06e-01	0	44	0	0	22	5778
2026-01-21 12:38:48.14	290.64	52.18	-30.6	-34.1	5.3	7.12e-01	0	44	0	0	22	5403
2026-01-21 12:38:51.15	292.68	51.48	-30.8	-34.7	5.3	7.09e-01	0	44	0	0	22	5638
2026-01-21 12:38:54.17	294.64	50.75	-31.1	-35.0	5.3	7.07e-01	0	44	0	0	23	5649
2026-01-21 12:38:57.17	296.49	50.01	-31.0	-34.8	5.3	7.05e-01	0	44	0	0	23	5570
2026-01-21 12:39:00.19	298.26	49.24	-31.1	-35.0	5.3	7.08e-01	0	44	0	0	23	5635
2026-01-21 12:39:03.20	299.94	48.47	-31.2	-35.4	5.3	7.09e-01	0	44	0	0	23	5824
2026-01-21 12:39:06.20	301.53	47.68	-30.8	-34.2	5.3	7.09e-01	0	44	0	0	23	5336
2026-01-21 12:39:09.20	303.04	46.89	-30.7	-33.9	5.3	7.08e-01	0	43	0	0	23	5216
2026-01-21 12:39:12.21	304.48	46.10	-30.7	-33.9	5.3	7.10e-01	0	44	0	0	23	5206
2026-01-21 12:39:15.21	305.85	45.30	-30.6	-33.8	5.3	7.11e-01	0	44	0	0	23	5173
2026-01-21 12:39:18.23	307.16	44.50	-30.7	-33.9	5.3	7.05e-01	0	44	0	0	23	5226
2026-01-21 12:39:21.23	308.39	43.70	-30.6	-33.7	5.3	7.07e-01	0	44	0	0	23	5134
2026-01-21 12:39:24.25	309.57	42.91	-30.8	-34.3	5.3	7.07e-01	0	44	0	0	23	5359
2026-01-21 12:39:27.26	310.69	42.12	-30.8	-34.3	5.3	7.10e-01	0	44	0	0	23	5361
2026-01-21 12:39:30.27	311.76	41.34	-30.9	-34.6	5.3	7.06e-01	0	44	0	0	23	5477
2026-01-21 12:39:33.29	312.78	40.56	-31.3	-35.6	5.3	7.08e-01	0	44	0	0	23	5915
2026-01-21 12:39:36.29	313.75	39.80	-31.2	-35.4	5.2	7.08e-01	0	44	0	0	23	5816
2026-01-21 12:39:39.30	314.67	39.04	-31.1	-34.9	5.3	7.08e-01	0	44	0	0	23	5630
2026-01-21 12:39:42.32	315.56	38.30	-31.2	-35.3	5.3	7.09e-01	0	44	0	0	23	5773
2026-01-21 12:39:45.33	316.40	37.56	-30.7	-34.0	5.3	7.06e-01	0	44	0	0	23	5247
2026-01-21 12:39:48.35	317.21	36.83	-30.6	-33.7	5.3	7.05e-01	0	44	0	0	23	5141
2026-01-21 12:39:51.36	317.98	36.12	-30.3	-33.5	5.3	7.07e-01	0	44	0	0	22	5209
2026-01-21 12:39:54.36	318.71	35.42	-29.8	-32.7	5.3	7.09e-01	0	44	0	0	21	5009
2026-01-21 12:39:57.37	319.42	34.72	-29.9	-32.9	5.3	7.09e-01	0	44	0	0	21	5100
2026-01-21 12:40:00.38	320.10	34.04	-29.8	-32.7	5.3	7.05e-01	0	44	0	0	21	5021
2026-01-21 12:40:03.39	320.75	33.38	-29.5	-31.9	5.3	7.08e-01	0	44	0	0	21	4754
2026-01-21 12:40:06.40	321.37	32.72	-29.3	-32.1	5.3	7.09e-01	0	44	0	0	20	4948
2026-01-21 12:40:09.41	321.97	32.07	-29.4	-32.3	5.3	7.07e-01	0	44	0	0	20	5019
2026-01-21 12:40:12.41	322.54	31.44	-29.3	-32.1	5.3	7.08e-01	0	44	0	0	20	4939
2026-01-21 12:40:15.43	323.10	30.82	-29.5	-32.4	5.3	7.03e-01	0	44	0	0	20	5057
2026-01-21 12:40:18.44	323.63	30.21	-29.6	-32.8	5.3	7.05e-01	0	44	0	0	20	5186
2026-01-21 12:40:21.46	324.15	29.61	-29.6	-32.7	5.3	7.09e-01	0	44	0	0	20	5139
2026-01-21 12:40:24.47	324.64	29.02	-29.7	-32.9	5.3	7.07e-01	0	44	0	0	20	5239
2026-01-21 12:40:27.47	325.11	28.44	-29.6	-32.9	5.3	7.08e-01	0	44	0	0	20	5214
2026-01-21 12:40:30.47	325.57	27.88	-29.8	-33.3	5.3	7.09e-01	0	44	0	0	20	5362
2026-01-21 12:40:33.49	326.02	27.32	-30.0	-33.8	5.3	7.06e-01	0	44	0	0	20	5588
2026-01-21 12:40:36.51	326.45	26.78	-30.0	-33.8	5.3	7.10e-01	0	44	0	0	20	5583
2026-01-21 12:40:39.52	326.86	26.24	-30.2	-33.8	5.3	7.09e-01	0	44	0	0	21	5469
2026-01-21 12:40:42.52	327.26	25.72	-30.3	-33.9	5.3	7.05e-01	0	44	0	0	21	5495
2026-01-21 12:40:45.53	327.65	25.20	-30.2	-33.7	5.3	7.06e-01	0	44	0	0	21	5412
2026-01-21 12:40:48.53	328.02	24.70	-30.1	-33.5	5.3	7.05e-01	0	44	0	0	21	5362
2026-01-21 12:40:51.56	328.39	24.20	-30.1	-33.6	5.3	7.05e-01	0	44	0	0	21	5365
2026-01-21 12:40:54.58	328.74	23.71	-30.1	-33.6	5.3	7.05e-01	0	44	0	0	21	5389
2026-01-21 12:40:57.58	329.08	23.23	-30.2	-33.8	5.3	7.10e-01	0	44	0	0	21	5451
2026-01-21 12:41:00.60	329.41	22.76	-30.2	-33.9	5.3	7.06e-01	0	44	0	0	21	5505
2026-01-21 12:41:03.62	329.74	22.29	-30.2	-34.0	5.3	7.05e-01	0	44	0	0	21	5520
2026-01-21 12:41:06.63	330.05	21.84	-30.5	-34.7	5.3	7.11e-01	0	44	0	0	21	5804
2026-01-21 12:41:09.65	330.35	21.39	-30.2	-33.4	5.3	7.07e-01	0	44	0	0	22	5180
2026-01-21 12:41:12.65	330.64	20.96	-30.1	-33.1	5.3	7.05e-01	0	44	0	0	22	5075
2026-01-21 12:41:15.66	330.93	20.53	-29.9	-32.6	5.3	7.06e-01	0	44	0	0	22	4909
2026-01-21 12:41:18.67	331.21	20.10	-29.9	-32.6	5.3	7.06e-01	0	44	0	0	22	4902
2026-01-21 12:41:21.68	331.48	19.69	-29.9	-33.0	5.3	7.08e-01	0	44	0	0	21	5167
2026-01-21 12:41:24.69	331.74	19.28	-29.9	-33.1	5.3	7.07e-01	0	44	0	0	21	5198
2026-01-21 12:41:27.70	332.00	18.87	-29.9	-33.1	5.3	7.09e-01	0	44	0	0	21	5203
2026-01-21 12:41:30.72	332.25	18.48	-29.9	-33.2	5.3	7.08e-01	0	44	0	0	21	5235
2026-01-21 12:41:33.71	332.49	18.09	-29.9	-33.2	5.3	7.02e-01	0	44	0	0	21	5266
2026-01-21 12:41:36.72	332.73	17.71	-29.9	-33.3	5.3	7.05e-01	0	44	0	0	21	5292
2026-01-21 12:41:39.74	332.96	17.33	-29.9	-33.0	5.3	7.03e-01	0	44	0	0	21	5197
2026-01-21 12:41:42.75	333.18	16.96	-30.0	-33.4	5.3	7.07e-01	0	44	0	0	21	5342
2026-01-21 12:41:45.77	333.40	16.59	-29.9	-33.3	5.3	7.05e-01	0	44	0	0	21	5302
2026-01-21 12:41:48.78	333.62	16.23	-30.1	-33.8	5.3	7.11e-01	0	44	0	0	21	5504
2026-01-21 12:41:51.79	333.83	15.88	-29.9	-33.2	5.3	7.08e-01	0	44	0	0	21	5255
2026-01-21 12:41:54.81	334.04	15.53	-30.1	-33.8	5.3	7.07e-01	0	44	0	0	21	5508
2026-01-21 12:41:57.81	334.23	15.19	-30.0	-33.5	5.3	7.02e-01	0	44	0	0	21	5389
2026-01-21 12:42:00.82	334.43	14.85	-30.1	-33.9	5.3	7.06e-01	0	44	0	0	21	5545
2026-01-21 12:42:03.83	334.62	14.51	-30.0	-33.5	5.3	7.06e-01	0	44	0	0	21	5402
2026-01-21 12:42:06.83	334.81	14.19	-30.1	-33.9	5.3	7.07e-01	0	44	0	0	21	5552
2026-01-21 12:42:09.85	334.99	13.86	-30.0	-33.6	5.3	7.08e-01	0	44	0	0	21	5423
2026-01-21 12:42:12.87	335.17	13.54	-30.0	-33.5	5.3	7.06e-01	0	44	0	0	21	5416
2026-01-21 12:42:15.88	335.35	13.23	-29.9	-33.4	5.3	7.06e-01	0	44	0	0	21	5366
2026-01-21 12:42:18.89	335.52	12.91	-30.1	-33.9	5.3	7.04e-01	0	44	0	0	21	5549
2026-01-21 12:42:21.90	335.69	12.61	-30.1	-33.9	5.3	7.08e-01	0	44	0	0	21	5545
2026-01-21 12:42:24.89	335.85	12.31	-30.2	-34.0	5.2	7.04e-01	0	44	0	0	21	5618
2026-01-21 12:42:27.90	336.01	12.01	-30.3	-34.4	5.2	7.10e-01	0	44	0	0	21	5760
2026-01-21 12:42:30.91	336.17	11.71	-30.1	-33.9	5.3	7.06e-01	0	44	0	0	21	5572
2026-01-21 12:42:33.91	336.33	11.42	-30.2	-34.1	5.3	7.10e-01	0	44	0	0	21	5661
2026-01-21 12:42:36.92	336.48	11.13	-30.3	-34.4	5.3	7.06e-01	0	44	0	0	21	5772
2026-01-21 12:42:39.94	336.63	10.85	-30.2	-34.1	5.3	7.05e-01	0	44	0	0	21	5644
2026-01-21 12:42:42.95	336.78	10.57	-30.3	-34.4	5.3	7.06e-01	0	44	0	0	21	5773
2026-01-21 12:42:45.96	336.92	10.29	-30.3	-34.4	5.2	7.04e-01	0	44	0	0	21	5792
2026-01-21 12:42:48.96	337.06	10.02	-30.3	-34.4	5.3	7.08e-01	0	44	0	0	21	5775
2026-01-21 12:42:51.97	337.20	9.75	-30.3	-34.6	5.3	7.06e-01	0	44	0	0	21	5896
2026-01-21 12:42:54.97	337.33	9.48	-30.5	-35.0	5.2	7.06e-01	0	44	0	0	21	6079
2026-01-21 12:42:57.98	337.47	9.22	-30.4	-34.9	5.2	7.07e-01	0	44	0	0	21	6014
2026-01-21 12:43:00.98	337.60	8.96	-30.6	-35.4	5.3	7.08e-01	0	44	0	0	21	6254
2026-01-21 12:43:04.01	337.73	8.70	-30.4	-34.9	5.2	7.08e-01	0	44	0	0	21	6046
2026-01-21 12:43:07.02	337.86	8.44	-30.5	-35.1	5.2	7.05e-01	0	44	0	0	21	6146
2026-01-21 12:43:10.04	337.98	8.19	-30.7	-35.2	5.2	7.07e-01	0	44	0	0	22	6078
2026-01-21 12:43:13.05	338.11	7.94	-30.7	-35.3	5.2	7.07e-01	0	44	0	0	22	6107
2026-01-21 12:43:16.05	338.23	7.69	-30.6	-35.0	5.2	7.08e-01	0	44	0	0	22	5964
2026-01-21 12:43:19.07	338.35	7.44	-30.6	-35.1	5.2	7.08e-01	0	44	0	0	22	6021
2026-01-21 12:43:22.09	338.46	7.20	-30.7	-35.3	5.2	7.10e-01	0	44	0	0	22	6119
2026-01-21 12:43:25.10	338.58	6.96	-34.0	-53.5	3.8	7.48e-01	0	44	104	0	28	34010

#Closed at: 2026-01-21 12:43:27
#Recorded file [0 MB]: D:/data/31010_260121_154319.dat