passes_logs/2026/01/21/R2M6_AANII_01/R2M6_AANII_01__20260121_003300_NOAA_21_JPSS-2_rec.log

#Pass ID: 20260121_003300_NOAA 21 (JPSS-2)
#Satellite: NOAA 21 (JPSS-2)
#Configuration: NOAA 21
#almurnet v.1.7.20240730
#Start time: 2026-01-21 00:33:01

#Version: 2.2.20231116
#Station: R2M6_AANII_01
#Location: 30.233357 lon 59.946436 lat
#TLE: 1 54234U 22150A   26020.29910383  .00000141  00000+0  87571-4 0  9990
#TLE: 2 54234  98.7506 321.1348 0000615 250.8428 109.2682 14.19536295165564

#Time	Az	El	Level	Level2	SNR	BER	BlckErr	Temp	State	Recorded	gain1	gain2
2026-01-21 00:33:01.21	17.04	7.08	-31.0	-35.9	4.6	1.39e+00	0	43	0	0	22	6280
2026-01-21 00:33:04.21	17.02	7.31	-31.5	-36.1	7.5	9.78e-02	0	43	0	3145728	23	6107
2026-01-21 00:33:07.22	17.00	7.54	-30.5	-34.3	10.1	9.11e-03	0	43	0	12582912	20	5596
2026-01-21 00:33:10.22	16.97	7.78	-30.4	-34.1	10.3	6.04e-03	0	43	0	22020096	20	5496
2026-01-21 00:33:13.23	16.95	8.02	-30.0	-32.9	11.1	1.68e-03	0	43	0	30408704	20	5027
2026-01-21 00:33:16.24	16.92	8.26	-29.8	-32.9	11.5	4.99e-03	0	43	0	39845888	19	5138
2026-01-21 00:33:19.24	16.90	8.50	-29.4	-32.1	12.4	1.88e-04	0	43	0	49283072	18	4961
2026-01-21 00:33:22.24	16.87	8.75	-29.6	-32.2	12.0	4.61e-03	0	43	0	58720256	19	4882
2026-01-21 00:33:25.25	16.84	8.99	-29.7	-32.6	11.8	4.86e-04	0	44	0	68157440	19	5001
2026-01-21 00:33:28.25	16.82	9.24	-29.8	-32.7	11.7	4.41e-03	0	44	0	77594624	19	5040
2026-01-21 00:33:31.27	16.79	9.50	-29.5	-31.9	12.3	4.58e-03	0	43	0	87031808	19	4765
2026-01-21 00:33:34.27	16.76	9.75	-29.0	-31.6	13.2	4.22e-03	0	44	0	96468992	17	4871
2026-01-21 00:33:37.28	16.73	10.01	-29.0	-31.3	13.0	3.86e-03	0	44	0	105906176	18	4661
2026-01-21 00:33:40.29	16.70	10.27	-28.9	-31.5	13.2	1.98e-05	0	44	0	115343360	17	4840
2026-01-21 00:33:43.28	16.67	10.53	-28.9	-31.5	13.3	4.26e-03	0	44	0	124780544	17	4824
2026-01-21 00:33:46.30	16.63	10.80	-28.7	-31.0	13.6	3.82e-03	0	44	0	134217728	17	4690
2026-01-21 00:33:49.31	16.60	11.07	-28.7	-30.9	13.6	4.29e-03	0	44	0	143654912	17	4659
2026-01-21 00:33:52.32	16.57	11.35	-28.8	-31.0	13.6	9.10e-06	0	44	0	153092096	17	4688
2026-01-21 00:33:55.32	16.53	11.62	-28.4	-30.6	14.1	7.00e-07	0	44	0	162529280	16	4661
2026-01-21 00:33:58.33	16.50	11.90	-28.3	-30.4	14.3	4.15e-03	0	44	0	171966464	16	4604
2026-01-21 00:34:01.35	16.46	12.18	-28.2	-30.2	14.4	1.50e-06	0	44	0	181403648	16	4548
2026-01-21 00:34:04.35	16.42	12.47	-28.2	-30.2	14.5	7.00e-07	0	44	0	190840832	16	4544
2026-01-21 00:34:07.37	16.38	12.76	-28.2	-30.1	14.5	1.50e-06	0	44	0	200278016	16	4504
2026-01-21 00:34:10.37	16.34	13.05	-27.8	-30.0	14.3	3.48e-04	0	44	0	209715200	15	4606
2026-01-21 00:34:13.37	16.30	13.34	-27.9	-30.1	14.1	7.79e-04	0	44	0	219152384	15	4656
2026-01-21 00:34:16.37	16.26	13.64	-28.2	-30.4	13.8	4.02e-03	0	44	0	228589568	16	4614
2026-01-21 00:34:19.38	16.22	13.94	-28.2	-30.5	13.7	5.22e-03	0	44	0	238026752	16	4652
2026-01-21 00:34:22.40	16.17	14.25	-28.2	-30.4	13.9	1.78e-03	0	44	0	247463936	16	4639
2026-01-21 00:34:25.41	16.13	14.56	-28.3	-30.4	14.5	0.00e+00	0	44	0	256901120	16	4584
2026-01-21 00:34:28.41	16.08	14.88	-28.3	-30.4	14.4	1.50e-06	0	44	0	266338304	16	4595
2026-01-21 00:34:31.43	16.03	15.20	-28.3	-30.3	14.6	0.00e+00	0	44	0	275775488	16	4563
2026-01-21 00:34:34.43	15.99	15.52	-28.3	-30.3	14.6	0.00e+00	0	44	0	284164096	16	4551
2026-01-21 00:34:37.43	15.93	15.85	-28.2	-30.1	14.7	0.00e+00	0	44	0	293601280	16	4500
2026-01-21 00:34:40.44	15.88	16.18	-28.2	-30.2	14.7	0.00e+00	0	44	0	303038464	16	4525
2026-01-21 00:34:43.44	15.83	16.51	-28.2	-30.1	14.8	0.00e+00	0	45	0	312475648	16	4479
2026-01-21 00:34:46.44	15.78	16.85	-28.2	-30.0	14.8	0.00e+00	0	44	0	321912832	16	4473
2026-01-21 00:34:49.46	15.72	17.20	-28.2	-30.2	14.8	0.00e+00	0	45	0	331350016	16	4512
2026-01-21 00:34:52.47	15.66	17.55	-28.3	-30.4	14.6	7.00e-07	0	45	0	340787200	16	4590
2026-01-21 00:34:55.48	15.60	17.91	-28.3	-30.4	14.6	0.00e+00	0	45	0	350224384	16	4583
2026-01-21 00:34:58.49	15.54	18.27	-28.6	-30.6	14.2	7.00e-07	0	45	0	359661568	17	4531
2026-01-21 00:35:01.49	15.48	18.63	-28.8	-31.0	14.0	7.00e-07	0	45	0	369098752	17	4659
2026-01-21 00:35:04.50	15.41	19.01	-27.9	-29.9	14.3	0.00e+00	0	45	0	378535936	17	4524
2026-01-21 00:35:07.51	15.34	19.38	-28.5	-30.7	14.5	7.00e-07	0	45	0	387973120	16	4671
2026-01-21 00:35:10.53	15.28	19.77	-28.7	-30.8	14.2	3.00e-06	0	45	0	397410304	17	4579
2026-01-21 00:35:13.54	15.20	20.16	-28.2	-30.0	15.0	0.00e+00	0	45	0	406847488	16	4451
2026-01-21 00:35:16.55	15.13	20.55	-28.2	-30.2	14.9	4.45e-03	0	45	0	416284672	16	4510
2026-01-21 00:35:19.54	15.06	20.95	-27.8	-29.8	15.2	0.00e+00	0	45	0	425721856	15	4510
2026-01-21 00:35:22.54	14.98	21.36	-27.8	-29.7	15.2	3.95e-03	0	45	0	435159040	15	4486
2026-01-21 00:35:25.55	14.90	21.77	-27.5	-29.5	15.7	4.03e-03	0	45	0	444596224	14	4542
2026-01-21 00:35:28.56	14.82	22.20	-27.3	-29.1	15.9	4.07e-03	0	45	0	454033408	14	4416
2026-01-21 00:35:31.57	14.73	22.62	-27.3	-29.0	16.0	3.76e-03	0	45	0	463470592	14	4390
2026-01-21 00:35:34.58	14.64	23.06	-27.1	-28.7	16.2	2.31e-03	0	45	0	472907776	14	4309
2026-01-21 00:35:37.58	14.55	23.50	-27.1	-28.6	16.2	4.01e-03	0	45	0	482344960	14	4293
2026-01-21 00:35:40.59	14.46	23.95	-27.0	-28.3	16.3	3.62e-03	0	45	0	491782144	14	4206
2026-01-21 00:35:43.60	14.36	24.41	-27.1	-28.7	16.2	4.11e-03	0	45	0	501219328	14	4306
2026-01-21 00:35:46.60	14.26	24.88	-27.0	-28.4	16.4	3.96e-03	0	45	0	509607936	14	4231
2026-01-21 00:35:49.61	14.16	25.35	-27.2	-28.8	16.2	2.00e-04	0	45	0	520093696	14	4328
2026-01-21 00:35:52.62	14.05	25.84	-27.3	-29.0	16.0	4.08e-03	0	45	0	529530880	14	4401
2026-01-21 00:35:55.62	13.94	26.33	-27.6	-29.2	15.7	0.00e+00	0	45	0	537919488	15	4340
2026-01-21 00:35:58.62	13.83	26.83	-28.0	-30.1	15.2	3.64e-03	0	45	0	547356672	15	4585
2026-01-21 00:36:01.63	13.71	27.34	-28.3	-30.3	15.0	0.00e+00	0	45	0	556793856	16	4519
2026-01-21 00:36:04.65	13.59	27.86	-28.5	-30.3	14.8	0.00e+00	0	45	0	566231040	17	4413
2026-01-21 00:36:07.66	13.46	28.39	-28.5	-30.3	14.7	0.00e+00	0	45	0	575668224	17	4422
2026-01-21 00:36:10.67	13.33	28.93	-28.5	-30.3	14.8	0.00e+00	0	45	0	585105408	17	4408
2026-01-21 00:36:13.67	13.19	29.48	-28.1	-29.9	15.3	0.00e+00	0	45	0	594542592	16	4397
2026-01-21 00:36:16.68	13.05	30.04	-28.0	-29.5	15.5	0.00e+00	0	45	0	603979776	16	4286
2026-01-21 00:36:19.69	12.90	30.62	-27.7	-29.5	15.6	0.00e+00	0	45	0	613416960	15	4399
2026-01-21 00:36:22.70	12.75	31.20	-27.9	-29.8	15.5	0.00e+00	0	45	0	622854144	15	4496
2026-01-21 00:36:25.70	12.59	31.80	-27.8	-29.6	15.6	0.00e+00	0	45	0	632291328	15	4424
2026-01-21 00:36:28.71	12.42	32.40	-27.9	-29.9	15.4	0.00e+00	0	45	0	641728512	15	4521
2026-01-21 00:36:31.72	12.25	33.02	-28.2	-30.0	15.2	0.00e+00	0	45	0	651165696	16	4434
2026-01-21 00:36:34.73	12.07	33.66	-28.2	-30.0	15.3	0.00e+00	0	45	0	660602880	16	4438
2026-01-21 00:36:37.72	11.88	34.30	-28.7	-30.5	14.8	0.00e+00	0	45	0	670040064	17	4465
2026-01-21 00:36:40.74	11.69	34.96	-29.0	-30.9	14.3	0.00e+00	0	45	0	679477248	18	4463
2026-01-21 00:36:43.75	11.48	35.63	-29.4	-31.8	13.7	5.30e-06	0	45	0	688914432	18	4750
2026-01-21 00:36:46.77	11.27	36.32	-29.4	-31.3	13.7	7.60e-06	0	45	0	698351616	19	4489
2026-01-21 00:36:49.78	11.04	37.02	-29.5	-31.5	13.7	8.30e-06	0	45	0	707788800	19	4535
2026-01-21 00:36:52.79	10.81	37.74	-29.4	-31.8	13.8	5.30e-06	0	45	0	717225984	18	4748
2026-01-21 00:36:55.79	10.56	38.47	-29.3	-31.5	14.0	2.20e-06	0	45	0	726663168	18	4649
2026-01-21 00:36:58.80	10.31	39.22	-29.1	-31.0	14.3	2.20e-06	0	45	0	736100352	18	4503
2026-01-21 00:37:01.81	10.04	39.98	-29.1	-31.1	14.2	2.20e-06	0	45	0	745537536	18	4517
2026-01-21 00:37:04.82	9.75	40.76	-29.1	-31.2	14.1	1.50e-06	0	45	0	754974720	18	4541
2026-01-21 00:37:07.83	9.46	41.55	-29.0	-30.9	14.3	3.00e-06	0	45	0	764411904	18	4468
2026-01-21 00:37:10.84	9.14	42.36	-29.3	-31.6	14.0	6.10e-06	0	45	0	773849088	18	4676
2026-01-21 00:37:13.85	8.81	43.19	-29.9	-32.5	13.1	3.43e-05	0	45	0	783286272	19	4856
2026-01-21 00:37:16.84	8.46	44.03	-30.3	-33.1	12.3	1.69e-04	0	45	0	791674880	20	4955
2026-01-21 00:37:19.85	8.10	44.90	-30.7	-33.6	11.7	4.14e-04	0	45	0	801112064	21	5030
2026-01-21 00:37:22.87	7.70	45.78	-30.7	-33.6	11.7	5.80e-04	0	45	0	810549248	21	5010
2026-01-21 00:37:25.89	7.29	46.69	-30.4	-32.7	12.3	4.61e-04	0	45	0	819986432	21	4707
2026-01-21 00:37:28.90	6.85	47.60	-29.6	-31.8	13.5	1.79e-04	0	45	0	830472192	19	4636
2026-01-21 00:37:31.92	6.38	48.54	-29.4	-31.3	13.9	1.68e-04	0	45	0	838860800	19	4466
2026-01-21 00:37:34.94	5.88	49.50	-29.3	-31.5	14.1	1.28e-04	0	45	0	848297984	18	4641
2026-01-21 00:37:37.95	5.35	50.47	-30.0	-32.6	13.1	1.52e-04	0	45	0	857735168	19	4898
2026-01-21 00:37:40.97	4.78	51.47	-29.5	-31.4	13.8	3.80e-06	0	45	0	867172352	19	4499
2026-01-21 00:37:43.97	4.18	52.47	-29.4	-31.8	13.9	7.00e-07	0	45	0	876609536	18	4726
2026-01-21 00:37:46.99	3.52	53.50	-29.3	-31.6	14.0	3.00e-06	0	45	0	886046720	18	4666
2026-01-21 00:37:50.00	2.82	54.55	-28.9	-30.5	14.7	7.00e-07	0	45	0	895483904	18	4343
2026-01-21 00:37:53.02	2.07	55.61	-28.5	-30.2	15.1	0.00e+00	0	45	0	904921088	17	4356
2026-01-21 00:37:56.03	1.25	56.69	-28.4	-30.0	15.2	0.00e+00	0	45	0	914358272	17	4313
2026-01-21 00:37:59.05	0.37	57.78	-28.0	-29.5	15.8	0.00e+00	0	45	0	923795456	16	4277
2026-01-21 00:38:02.06	359.41	58.89	-27.7	-29.4	15.9	0.00e+00	0	45	0	933232640	15	4375
2026-01-21 00:38:05.07	358.36	60.00	-27.9	-29.7	15.8	0.00e+00	0	45	0	942669824	15	4466
2026-01-21 00:38:08.08	357.22	61.13	-27.2	-28.7	16.6	0.00e+00	0	45	0	952107008	14	4294
2026-01-21 00:38:11.09	355.97	62.27	-27.1	-28.6	16.7	0.00e+00	0	45	0	961544192	14	4263
2026-01-21 00:38:14.09	354.60	63.41	-27.0	-28.4	16.8	0.00e+00	0	45	0	970981376	14	4220
2026-01-21 00:38:17.11	353.08	64.56	-26.7	-27.7	17.1	0.00e+00	0	45	0	980418560	14	4038
2026-01-21 00:38:20.12	351.41	65.70	-26.9	-28.6	16.9	0.00e+00	0	45	0	989855744	13	4378
2026-01-21 00:38:23.13	349.55	66.84	-27.0	-28.4	16.8	0.00e+00	0	45	0	999292928	14	4213
2026-01-21 00:38:26.13	347.48	67.97	-27.0	-28.4	16.7	0.00e+00	0	45	0	1008730112	14	4212
2026-01-21 00:38:29.14	345.16	69.09	-26.4	-27.6	17.3	0.00e+00	0	45	0	1018167296	13	4121
2026-01-21 00:38:32.16	342.55	70.18	-26.3	-27.8	17.5	0.00e+00	0	45	0	1027604480	12	4281
2026-01-21 00:38:35.17	339.63	71.25	-26.2	-27.0	17.7	0.00e+00	0	45	0	1037041664	13	3975
2026-01-21 00:38:38.18	336.34	72.27	-26.4	-27.6	17.4	0.00e+00	0	45	0	1046478848	13	4108
2026-01-21 00:38:41.19	332.63	73.23	-26.4	-28.0	17.4	0.00e+00	0	45	0	1055916032	12	4323
2026-01-21 00:38:44.21	328.45	74.14	-26.5	-27.6	17.3	0.00e+00	0	45	0	1065353216	13	4124
2026-01-21 00:38:47.22	323.78	74.95	-26.6	-28.1	17.1	0.00e+00	0	45	0	1074790400	13	4233
2026-01-21 00:38:50.24	318.57	75.66	-26.7	-28.2	17.0	0.00e+00	0	45	0	1084227584	13	4282
2026-01-21 00:38:53.26	312.85	76.25	-26.5	-27.7	17.2	1.44e-05	0	45	0	1093664768	13	4147
2026-01-21 00:38:56.26	306.71	76.70	-26.4	-28.0	17.3	6.07e-04	0	45	0	1103101952	12	4330
2026-01-21 00:38:59.27	300.19	76.99	-26.8	-28.4	16.8	0.00e+00	0	45	0	1112539136	13	4334
2026-01-21 00:39:02.28	293.45	77.10	-27.2	-28.8	16.4	1.11e-04	0	45	0	1121976320	14	4338
2026-01-21 00:39:05.29	286.68	77.05	-26.9	-28.2	16.7	0.00e+00	0	45	0	1131413504	14	4180
2026-01-21 00:39:08.31	280.04	76.81	-26.7	-28.2	16.9	2.45e-04	0	45	0	1140850688	13	4295
2026-01-21 00:39:11.32	273.74	76.42	-26.9	-28.6	16.7	7.28e-04	0	45	0	1150287872	13	4386
2026-01-21 00:39:14.33	267.87	75.88	-26.7	-28.1	16.9	2.42e-03	0	45	0	1159725056	13	4255
2026-01-21 00:39:17.33	262.52	75.21	-26.1	-27.5	17.5	3.54e-03	0	45	0	1169162240	12	4197
2026-01-21 00:39:20.35	257.65	74.42	-26.1	-27.5	17.5	6.82e-04	0	45	0	1178599424	12	4196
2026-01-21 00:39:23.34	253.34	73.56	-26.5	-27.8	17.0	3.51e-03	0	45	0	1186988032	13	4186
2026-01-21 00:39:26.34	249.48	72.61	-26.2	-27.5	17.5	0.00e+00	0	45	0	1196425216	12	4211
2026-01-21 00:39:29.35	246.05	71.61	-26.9	-28.8	16.6	3.55e-03	0	45	0	1205862400	13	4439
2026-01-21 00:39:32.37	242.99	70.55	-26.2	-27.6	17.4	0.00e+00	0	45	0	1215299584	12	4220
2026-01-21 00:39:35.38	240.28	69.47	-26.6	-28.1	16.9	0.00e+00	0	45	0	1224736768	13	4248
2026-01-21 00:39:38.38	237.87	68.36	-25.9	-27.0	17.7	0.00e+00	0	45	0	1234173952	12	4077
2026-01-21 00:39:41.40	235.70	67.23	-27.0	-28.5	16.3	0.00e+00	0	45	0	1243611136	14	4244
2026-01-21 00:39:44.41	233.77	66.09	-27.2	-28.8	16.2	0.00e+00	0	45	0	1253048320	14	4330
2026-01-21 00:39:47.41	232.03	64.94	-26.4	-27.6	17.0	0.00e+00	0	45	0	1262485504	13	4127
2026-01-21 00:39:50.42	230.46	63.79	-27.2	-28.4	16.1	0.00e+00	0	45	0	1271922688	15	4119
2026-01-21 00:39:53.43	229.04	62.65	-25.9	-27.4	17.8	0.00e+00	0	45	0	1281359872	11	4290
2026-01-21 00:39:56.45	227.74	61.50	-27.1	-28.5	16.3	0.00e+00	0	45	0	1290797056	14	4229
2026-01-21 00:39:59.45	226.56	60.37	-27.9	-29.4	15.0	7.00e-07	0	45	0	1300234240	16	4262
2026-01-21 00:40:02.46	225.48	59.25	-26.6	-28.0	16.8	0.00e+00	0	45	0	1309671424	13	4238
2026-01-21 00:40:05.47	224.50	58.13	-28.7	-30.8	14.4	7.00e-07	0	45	0	1319108608	17	4586
2026-01-21 00:40:08.48	223.59	57.03	-28.5	-29.7	14.6	7.00e-07	0	45	0	1328545792	18	4164
2026-01-21 00:40:11.49	222.75	55.95	-26.3	-27.3	17.1	0.00e+00	0	45	0	1337982976	13	4033
2026-01-21 00:40:14.50	221.97	54.88	-28.3	-30.2	14.9	0.00e+00	0	45	0	1347420160	16	4515
2026-01-21 00:40:17.50	221.25	53.83	-29.5	-31.7	13.2	2.89e-05	0	45	0	1356857344	19	4623
2026-01-21 00:40:20.51	220.58	52.79	-28.4	-30.1	14.8	7.00e-07	0	45	0	1366294528	17	4342
2026-01-21 00:40:23.51	219.96	51.78	-28.8	-30.8	14.2	7.00e-07	0	45	0	1375731712	17	4576
2026-01-21 00:40:26.53	219.38	50.77	-29.9	-32.3	12.5	7.17e-05	0	45	0	1385168896	20	4713
2026-01-21 00:40:29.54	218.83	49.79	-29.1	-30.7	13.8	1.67e-05	0	45	0	1394606080	19	4319
2026-01-21 00:40:32.54	218.32	48.83	-29.1	-31.0	13.9	3.00e-06	0	45	0	1404043264	18	4525
2026-01-21 00:40:35.53	217.85	47.89	-29.0	-31.0	13.9	3.80e-06	0	45	0	1413480448	18	4502
2026-01-21 00:40:38.53	217.40	46.96	-29.5	-32.1	12.1	9.10e-06	0	45	0	1422917632	18	4851
2026-01-21 00:40:41.54	216.97	46.05	-29.8	-32.5	12.5	2.42e-03	0	45	0	1432354816	19	4903
2026-01-21 00:40:44.54	216.57	45.17	-29.6	-31.9	13.1	3.12e-05	0	45	0	1440743424	19	4679
2026-01-21 00:40:47.55	216.20	44.29	-29.6	-31.8	13.1	9.90e-06	0	45	0	1450180608	19	4665
2026-01-21 00:40:50.54	215.84	43.44	-30.1	-32.7	12.3	2.67e-04	0	45	0	1459617792	20	4846
2026-01-21 00:40:53.56	215.50	42.60	-29.5	-32.1	13.3	1.14e-05	0	45	0	1469054976	18	4856
2026-01-21 00:40:56.58	215.18	41.77	-30.0	-32.8	12.5	2.05e-03	0	45	0	1478492160	19	5014
2026-01-21 00:40:59.59	214.87	40.97	-30.2	-33.0	12.0	5.04e-04	0	45	0	1487929344	20	4965
2026-01-21 00:41:02.60	214.58	40.18	-29.3	-31.7	13.4	2.09e-03	0	45	0	1497366528	18	4742
2026-01-21 00:41:05.61	214.31	39.41	-29.3	-31.6	13.5	1.73e-03	0	45	0	1506803712	18	4703
2026-01-21 00:41:08.61	214.04	38.66	-29.8	-32.5	12.7	3.20e-03	0	45	0	1516240896	19	4900
2026-01-21 00:41:11.62	213.79	37.92	-29.9	-32.8	12.5	3.17e-03	0	45	0	1525678080	19	5006
2026-01-21 00:41:14.64	213.55	37.19	-29.5	-31.7	13.1	3.15e-03	0	45	0	1535115264	19	4631
2026-01-21 00:41:17.66	213.32	36.48	-29.0	-31.0	13.9	2.20e-03	0	45	0	1544552448	18	4517
2026-01-21 00:41:20.66	213.11	35.79	-28.7	-30.8	14.3	7.00e-07	0	45	0	1553989632	17	4566
2026-01-21 00:41:23.67	212.90	35.10	-29.1	-31.3	13.7	1.45e-03	0	45	0	1563426816	18	4617
2026-01-21 00:41:26.68	212.70	34.44	-28.8	-31.1	14.1	3.00e-06	0	45	0	1572864000	17	4661
2026-01-21 00:41:29.68	212.50	33.79	-28.8	-31.1	14.1	4.50e-06	0	45	0	1582301184	17	4659
2026-01-21 00:41:32.69	212.32	33.15	-29.0	-31.1	13.8	3.80e-06	0	45	0	1591738368	18	4558
2026-01-21 00:41:35.70	212.14	32.52	-28.8	-30.9	14.1	3.00e-06	0	45	0	1601175552	17	4621
2026-01-21 00:41:38.71	211.97	31.90	-28.6	-30.4	14.4	7.00e-07	0	45	0	1610612736	17	4467
2026-01-21 00:41:41.73	211.81	31.30	-28.4	-30.7	14.6	0.00e+00	0	45	0	1620049920	16	4651
2026-01-21 00:41:44.73	211.65	30.71	-27.6	-29.2	15.5	0.00e+00	0	45	0	1629487104	15	4342
2026-01-21 00:41:47.74	211.50	30.13	-27.2	-28.7	16.0	0.00e+00	0	45	0	1638924288	14	4322
2026-01-21 00:41:50.75	211.36	29.56	-27.2	-28.8	16.0	0.00e+00	0	45	0	1648361472	14	4332
2026-01-21 00:41:53.76	211.21	29.01	-27.0	-28.3	16.2	0.00e+00	0	45	0	1657798656	14	4215
2026-01-21 00:41:56.77	211.08	28.46	-27.2	-28.8	15.9	0.00e+00	0	45	0	1667235840	14	4341
2026-01-21 00:41:59.78	210.95	27.92	-27.3	-29.2	15.7	0.00e+00	0	45	0	1676673024	14	4459
2026-01-21 00:42:02.80	210.82	27.40	-27.5	-29.5	15.5	0.00e+00	0	45	0	1686110208	14	4555
2026-01-21 00:42:05.81	210.70	26.88	-27.3	-29.1	15.8	0.00e+00	0	45	0	1695547392	14	4422
2026-01-21 00:42:08.83	210.58	26.37	-27.3	-29.2	15.7	0.00e+00	0	45	0	1704984576	14	4452
2026-01-21 00:42:11.84	210.47	25.87	-27.2	-28.8	15.9	0.00e+00	0	45	0	1714421760	14	4345
2026-01-21 00:42:14.85	210.36	25.39	-27.4	-29.3	15.6	0.00e+00	0	45	0	1723858944	14	4493
2026-01-21 00:42:17.86	210.25	24.91	-27.7	-29.4	15.2	3.80e-06	0	45	0	1733296128	15	4417
2026-01-21 00:42:20.86	210.15	24.44	-27.7	-29.5	15.2	7.00e-07	0	45	0	1742733312	15	4446
2026-01-21 00:42:23.87	210.05	23.97	-27.7	-29.7	15.1	7.00e-07	0	45	0	1752170496	15	4496
2026-01-21 00:42:26.87	209.95	23.52	-27.7	-29.6	15.1	1.50e-06	0	45	0	1760559104	15	4460
2026-01-21 00:42:29.87	209.86	23.07	-27.5	-29.1	15.4	0.00e+00	0	45	0	1769996288	15	4335
2026-01-21 00:42:32.87	209.77	22.63	-27.5	-29.2	15.3	7.00e-07	0	45	0	1779433472	15	4360
2026-01-21 00:42:35.87	209.68	22.20	-27.9	-29.4	15.0	0.00e+00	0	45	0	1788870656	16	4307
2026-01-21 00:42:38.87	209.60	21.78	-27.4	-29.4	15.5	0.00e+00	0	45	0	1798307840	14	4523
2026-01-21 00:42:41.89	209.52	21.36	-27.6	-29.2	15.2	0.00e+00	0	45	0	1807745024	15	4369
2026-01-21 00:42:44.90	209.44	20.95	-27.0	-28.6	15.9	0.00e+00	0	45	0	1817182208	14	4302
2026-01-21 00:42:47.89	209.36	20.54	-27.3	-29.2	15.5	0.00e+00	0	45	0	1826619392	14	4464
2026-01-21 00:42:50.90	209.28	20.14	-27.0	-28.5	15.9	0.00e+00	0	45	0	1836056576	14	4265
2026-01-21 00:42:53.90	209.21	19.75	-27.1	-28.7	15.8	1.98e-05	0	45	0	1845493760	14	4335
2026-01-21 00:42:56.91	209.14	19.37	-27.1	-28.7	15.8	7.60e-06	0	45	0	1854930944	14	4344
2026-01-21 00:42:59.93	209.07	18.98	-27.2	-28.9	15.7	0.00e+00	0	45	0	1864368128	14	4390
2026-01-21 00:43:02.94	209.00	18.61	-27.3	-29.1	15.5	8.77e-05	0	45	0	1873805312	14	4447
2026-01-21 00:43:05.95	208.93	18.24	-27.4	-29.4	15.3	1.91e-04	0	45	0	1883242496	14	4536
2026-01-21 00:43:08.96	208.87	17.88	-27.5	-29.6	15.2	1.37e-04	0	45	0	1892679680	14	4589
2026-01-21 00:43:11.97	208.81	17.52	-27.6	-29.3	15.1	1.81e-04	0	45	0	1902116864	15	4394
2026-01-21 00:43:14.98	208.75	17.16	-27.6	-29.5	15.0	7.00e-07	0	45	0	1911554048	15	4446
2026-01-21 00:43:18.00	208.69	16.81	-27.6	-29.4	15.0	2.15e-04	0	45	0	1920991232	15	4411
2026-01-21 00:43:21.00	208.63	16.47	-27.8	-29.8	14.7	0.00e+00	0	45	0	1930428416	15	4548
2026-01-21 00:43:24.00	208.57	16.13	-27.9	-30.2	14.5	2.52e-04	0	45	0	1939865600	15	4659
2026-01-21 00:43:27.00	208.52	15.80	-28.0	-30.2	14.4	7.00e-07	0	45	0	1949302784	15	4674
2026-01-21 00:43:30.00	208.47	15.47	-27.9	-30.2	14.5	0.00e+00	0	45	0	1958739968	15	4673
2026-01-21 00:43:33.01	208.42	15.14	-28.2	-30.3	14.3	1.50e-06	0	45	0	1968177152	16	4586
2026-01-21 00:43:36.02	208.36	14.82	-28.3	-30.6	14.1	3.00e-06	0	45	0	1977614336	16	4673
2026-01-21 00:43:39.02	208.32	14.51	-28.4	-30.9	13.9	3.00e-06	0	45	0	1986002944	16	4750
2026-01-21 00:43:42.04	208.27	14.19	-28.8	-30.6	13.5	1.67e-05	0	45	0	1995440128	18	4452
2026-01-21 00:43:45.06	208.22	13.88	-28.5	-30.6	13.7	9.10e-06	0	45	0	2005925888	17	4554
2026-01-21 00:43:48.06	208.17	13.58	-28.6	-30.7	13.7	6.10e-06	0	45	0	2014314496	17	4587
2026-01-21 00:43:51.07	208.13	13.28	-28.6	-30.8	13.6	7.60e-06	0	45	0	2023751680	17	4626
2026-01-21 00:43:54.08	208.09	12.98	-28.4	-30.3	13.9	3.00e-06	0	45	0	2033188864	17	4470
2026-01-21 00:43:57.08	208.04	12.69	-28.6	-30.7	13.6	3.80e-06	0	45	0	2042626048	17	4602
2026-01-21 00:44:00.09	208.00	12.39	-28.5	-30.6	13.6	1.06e-05	0	45	0	2052063232	17	4571
2026-01-21 00:44:03.11	207.96	12.11	-28.6	-30.7	13.5	1.37e-05	0	45	0	2061500416	17	4591
2026-01-21 00:44:06.13	207.92	11.82	-29.0	-31.3	12.9	4.27e-05	0	45	0	2070937600	18	4674
2026-01-21 00:44:09.13	207.88	11.54	-28.5	-30.6	13.6	9.10e-06	0	45	0	2080374784	17	4579
2026-01-21 00:44:12.14	207.85	11.26	-28.5	-30.6	13.5	4.50e-06	0	45	0	2089811968	17	4570
2026-01-21 00:44:15.16	207.81	10.99	-28.5	-31.0	13.6	9.10e-06	0	45	0	2099249152	16	4806
2026-01-21 00:44:18.17	207.77	10.72	-28.5	-30.6	13.5	3.80e-06	0	45	0	2108686336	17	4588
2026-01-21 00:44:21.18	207.74	10.45	-28.7	-31.1	13.2	2.28e-05	0	45	0	2118123520	17	4735
2026-01-21 00:44:24.19	207.70	10.18	-28.6	-30.7	13.4	7.60e-06	0	45	0	2127560704	17	4610
2026-01-21 00:44:27.19	207.67	9.92	-27.8	-30.1	13.3	1.14e-05	0	45	0	2136997888	17	4662
2026-01-21 00:44:30.21	207.64	9.66	-28.6	-30.8	13.3	2.21e-05	0	45	0	2146435072	17	4644
2026-01-21 00:44:33.21	207.60	9.40	-28.6	-30.8	13.3	1.52e-05	0	45	0	2155872256	17	4647
2026-01-21 00:44:36.22	207.57	9.15	-28.7	-31.1	13.1	3.78e-03	0	45	0	2165309440	17	4738
2026-01-21 00:44:39.23	207.54	8.90	-28.7	-31.0	13.1	2.67e-05	0	45	0	2174746624	17	4715
2026-01-21 00:44:42.25	207.51	8.64	-28.7	-31.0	13.1	4.13e-03	0	45	0	2184183808	17	4713
2026-01-21 00:44:45.25	207.48	8.40	-28.8	-31.4	12.8	6.17e-05	0	45	0	2193620992	17	4844
2026-01-21 00:44:48.26	207.45	8.15	-29.2	-31.7	12.3	4.02e-03	0	45	0	2203058176	18	4850
2026-01-21 00:44:51.27	207.42	7.91	-29.0	-31.8	12.5	4.35e-03	0	45	0	2212495360	17	4990
2026-01-21 00:44:54.28	207.40	7.67	-29.1	-31.7	12.3	4.30e-03	0	45	0	2221932544	18	4851
2026-01-21 00:44:57.28	207.37	7.43	-29.1	-31.7	12.2	3.88e-03	0	45	0	2231369728	18	4849
2026-01-21 00:45:00.28	207.34	7.20	-29.1	-31.7	12.2	2.19e-04	0	45	0	2240806912	18	4856

#Closed at: 2026-01-21 00:45:02
#Recorded file [2243 MB]: D:/data/31010_260121_033303.dat