passes_logs/2026/01/21/R2M6_AANII_01/R2M6_AANII_01__20260121_021337_NOAA_21_JPSS-2_rec.log

#Pass ID: 20260121_021337_NOAA 21 (JPSS-2)
#Satellite: NOAA 21 (JPSS-2)
#Configuration: NOAA 21
#almurnet v.1.7.20240730
#Start time: 2026-01-21 02:13:36

#Version: 2.2.20231116
#Station: R2M6_AANII_01
#Location: 30.233357 lon 59.946436 lat
#TLE: 1 54234U 22150A   26020.29910383  .00000141  00000+0  87571-4 0  9990
#TLE: 2 54234  98.7506 321.1348 0000615 250.8428 109.2682 14.19536295165564

#Time	Az	El	Level	Level2	SNR	BER	BlckErr	Temp	State	Recorded	gain1	gain2
2026-01-21 02:13:36.86	10.51	6.98	-33.3	-45.4	3.8	1.49e+00	0	44	0	0	26	14482
2026-01-21 02:13:39.87	10.24	7.17	-32.6	-39.6	5.0	1.46e+00	0	44	104	0	25	8103
2026-01-21 02:13:42.88	9.97	7.37	-31.9	-37.4	6.9	1.76e-01	0	44	0	6291456	23	6829
2026-01-21 02:13:45.87	9.70	7.56	-31.6	-36.4	7.5	1.04e-01	0	44	0	15728640	23	6257
2026-01-21 02:13:48.88	9.42	7.76	-31.5	-36.3	8.0	7.22e-02	0	44	0	25165824	22	6283
2026-01-21 02:13:51.90	9.14	7.96	-31.5	-35.8	8.0	6.85e-02	0	44	0	34603008	23	5952
2026-01-21 02:13:54.92	8.85	8.15	-30.4	-33.4	10.5	4.75e-03	0	44	0	44040192	21	5109
2026-01-21 02:13:57.92	8.56	8.35	-30.0	-32.7	11.3	9.09e-04	0	44	0	53477376	20	4945
2026-01-21 02:14:00.94	8.26	8.55	-30.1	-33.2	11.0	2.09e-03	0	44	0	62914560	20	5117
2026-01-21 02:14:03.96	7.96	8.75	-30.0	-33.2	11.4	8.48e-04	0	44	0	72351744	19	5225
2026-01-21 02:14:06.97	7.66	8.95	-29.6	-32.2	12.1	3.83e-04	0	44	0	81788928	19	4869
2026-01-21 02:14:09.98	7.35	9.16	-29.2	-31.7	12.8	7.32e-05	0	44	0	91226112	18	4807
2026-01-21 02:14:12.99	7.04	9.36	-29.3	-31.9	12.7	9.61e-05	0	44	0	100663296	18	4850
2026-01-21 02:14:16.00	6.72	9.56	-29.3	-31.9	12.7	8.31e-05	0	44	0	110100480	18	4845
2026-01-21 02:14:19.02	6.40	9.77	-29.3	-31.9	12.7	6.79e-05	0	44	0	119537664	18	4848
2026-01-21 02:14:22.03	6.07	9.97	-29.6	-32.1	12.3	2.37e-04	0	44	0	128974848	19	4818
2026-01-21 02:14:25.04	5.74	10.18	-28.7	-30.9	13.6	6.80e-06	0	44	0	138412032	17	4649
2026-01-21 02:14:28.06	5.40	10.38	-28.5	-30.4	13.9	2.20e-06	0	44	0	147849216	17	4492
2026-01-21 02:14:31.07	5.06	10.59	-28.4	-30.8	14.0	3.00e-06	0	44	0	157286400	16	4710
2026-01-21 02:14:34.08	4.72	10.80	-28.7	-31.0	13.6	3.00e-06	0	44	0	166723584	17	4661
2026-01-21 02:14:37.09	4.36	11.01	-28.7	-30.9	13.7	5.30e-06	0	44	0	176160768	17	4645
2026-01-21 02:14:40.09	4.01	11.22	-28.6	-30.6	13.7	4.50e-06	0	44	0	185597952	17	4551
2026-01-21 02:14:43.10	3.65	11.43	-28.5	-30.4	14.0	1.50e-06	0	44	0	195035136	17	4487
2026-01-21 02:14:46.11	3.28	11.64	-28.4	-30.6	14.2	1.24e-04	0	44	0	204472320	16	4662
2026-01-21 02:14:49.12	2.91	11.85	-28.6	-30.7	13.9	5.30e-06	0	44	0	213909504	17	4571
2026-01-21 02:14:52.13	2.53	12.06	-28.6	-30.7	13.8	1.94e-04	0	44	0	223346688	17	4583
2026-01-21 02:14:55.13	2.15	12.27	-28.6	-30.7	13.9	8.30e-06	0	44	0	232783872	17	4567
2026-01-21 02:14:58.13	1.76	12.49	-28.4	-30.3	14.2	1.94e-04	0	44	0	242221056	17	4434
2026-01-21 02:15:01.12	1.37	12.70	-28.3	-30.5	14.3	1.33e-04	0	44	0	251658240	16	4610
2026-01-21 02:15:04.11	0.97	12.91	-28.3	-30.5	14.3	0.00e+00	0	44	0	261095424	16	4633
2026-01-21 02:15:07.12	0.56	13.13	-28.5	-30.3	14.2	2.74e-05	0	45	0	269484032	17	4451
2026-01-21 02:15:10.11	0.15	13.34	-28.3	-30.4	14.4	2.51e-05	0	45	0	278921216	16	4576
2026-01-21 02:15:13.10	359.73	13.55	-28.2	-30.1	14.7	9.00e-05	0	45	0	288358400	16	4497
2026-01-21 02:15:16.11	359.31	13.77	-28.2	-30.2	14.6	1.76e-04	0	45	0	297795584	16	4521
2026-01-21 02:15:19.12	358.88	13.99	-28.2	-30.1	14.6	2.27e-04	0	45	0	307232768	16	4506
2026-01-21 02:15:22.13	358.44	14.20	-28.3	-30.4	14.5	2.00e-04	0	45	0	316669952	16	4591
2026-01-21 02:15:25.14	357.99	14.42	-28.4	-30.6	14.4	1.50e-06	0	45	0	326107136	16	4629
2026-01-21 02:15:28.16	357.54	14.64	-28.3	-30.3	14.5	2.30e-04	0	45	0	335544320	16	4555
2026-01-21 02:15:31.16	357.08	14.85	-28.6	-30.6	14.1	3.32e-04	0	45	0	344981504	17	4515
2026-01-21 02:15:34.17	356.62	15.07	-28.6	-30.5	14.2	2.20e-06	0	45	0	354418688	17	4507
2026-01-21 02:15:37.17	356.15	15.29	-27.7	-29.6	13.7	7.00e-07	0	45	0	363855872	17	4466
2026-01-21 02:15:40.18	355.67	15.50	-28.6	-30.5	13.9	7.00e-07	0	45	0	373293056	17	4508
2026-01-21 02:15:43.18	355.18	15.72	-28.7	-30.8	14.0	4.50e-06	0	45	0	382730240	17	4596
2026-01-21 02:15:46.19	354.69	15.93	-28.7	-30.9	14.0	3.00e-06	0	45	0	392167424	17	4612
2026-01-21 02:15:49.20	354.19	16.15	-28.5	-30.4	14.3	7.00e-07	0	45	0	401604608	17	4463
2026-01-21 02:15:52.20	353.68	16.37	-28.4	-30.7	14.4	6.42e-04	0	45	0	411041792	16	4665
2026-01-21 02:15:55.22	353.16	16.58	-28.3	-30.4	14.6	7.00e-07	0	45	0	420478976	16	4587
2026-01-21 02:15:58.23	352.64	16.80	-28.4	-30.5	14.6	4.54e-04	0	45	0	429916160	16	4596
2026-01-21 02:16:01.23	352.11	17.01	-28.2	-30.1	14.8	0.00e+00	0	45	0	439353344	16	4483
2026-01-21 02:16:04.24	351.57	17.22	-28.3	-30.3	14.7	4.12e-04	0	45	0	448790528	16	4534
2026-01-21 02:16:07.25	351.02	17.44	-27.9	-29.9	15.0	3.29e-04	0	45	0	458227712	15	4559
2026-01-21 02:16:10.26	350.47	17.65	-27.8	-29.7	15.2	2.84e-04	0	45	0	466616320	15	4495
2026-01-21 02:16:13.27	349.91	17.86	-28.2	-30.2	14.8	3.66e-04	0	45	0	477102080	16	4507
2026-01-21 02:16:16.29	349.34	18.07	-28.2	-30.0	14.9	3.91e-04	0	45	0	486539264	16	4462
2026-01-21 02:16:19.29	348.76	18.28	-28.1	-29.8	15.1	3.64e-04	0	45	0	494927872	16	4395
2026-01-21 02:16:22.30	348.17	18.48	-27.6	-29.3	15.4	0.00e+00	0	45	0	504365056	15	4373
2026-01-21 02:16:25.31	347.58	18.69	-27.8	-29.7	15.2	1.86e-04	0	45	0	513802240	15	4485
2026-01-21 02:16:28.31	346.98	18.89	-27.7	-29.5	15.3	0.00e+00	0	45	0	523239424	15	4426
2026-01-21 02:16:31.33	346.36	19.10	-27.8	-29.7	15.2	0.00e+00	0	45	0	532676608	15	4498
2026-01-21 02:16:34.34	345.74	19.30	-28.1	-29.8	13.9	0.00e+00	0	45	0	542113792	16	4396
2026-01-21 02:16:37.34	345.12	19.49	-27.7	-29.6	15.3	0.00e+00	0	45	0	551550976	15	4456
2026-01-21 02:16:40.35	344.48	19.69	-27.8	-29.8	15.2	7.00e-07	0	45	0	560988160	15	4502
2026-01-21 02:16:43.37	343.83	19.89	-27.7	-29.5	15.3	0.00e+00	0	45	0	570425344	15	4430
2026-01-21 02:16:46.37	343.18	20.08	-27.7	-29.4	15.4	3.78e-03	0	45	0	579862528	15	4404
2026-01-21 02:16:49.39	342.52	20.27	-27.4	-29.3	15.7	4.34e-03	0	45	0	589299712	14	4488
2026-01-21 02:16:52.40	341.85	20.45	-27.5	-29.0	15.6	0.00e+00	0	45	0	598736896	15	4300
2026-01-21 02:16:55.40	341.18	20.64	-27.4	-29.3	15.8	3.96e-03	0	45	0	608174080	14	4468
2026-01-21 02:16:58.40	340.49	20.82	-27.5	-29.1	15.6	4.54e-03	0	45	0	617611264	15	4307
2026-01-21 02:17:01.39	339.80	20.99	-27.6	-29.3	15.5	4.34e-03	0	45	0	627048448	15	4372
2026-01-21 02:17:04.40	339.10	21.17	-27.7	-29.5	15.4	4.02e-03	0	45	0	636485632	15	4423
2026-01-21 02:17:07.42	338.39	21.34	-27.8	-29.7	15.3	4.34e-03	0	45	0	645922816	15	4475
2026-01-21 02:17:10.42	337.67	21.51	-27.5	-29.0	15.7	4.31e-03	0	45	0	655360000	15	4284
2026-01-21 02:17:13.43	336.95	21.67	-27.2	-28.9	16.0	0.00e+00	0	45	0	664797184	14	4369
2026-01-21 02:17:16.45	336.21	21.83	-27.2	-28.9	16.0	4.36e-03	0	45	0	674234368	14	4370
2026-01-21 02:17:19.45	335.47	21.99	-27.5	-29.1	15.6	0.00e+00	0	45	0	683671552	15	4301
2026-01-21 02:17:22.46	334.73	22.14	-27.7	-29.6	15.4	0.00e+00	0	45	0	693108736	15	4449
2026-01-21 02:17:25.47	333.97	22.29	-27.6	-29.3	15.5	0.00e+00	0	45	0	702545920	15	4370
2026-01-21 02:17:28.49	333.20	22.43	-27.5	-29.0	15.7	0.00e+00	0	45	0	711983104	15	4274
2026-01-21 02:17:31.49	332.44	22.57	-27.4	-29.2	15.8	0.00e+00	0	45	0	721420288	14	4452
2026-01-21 02:17:34.50	331.66	22.70	-27.4	-29.4	15.7	0.00e+00	0	45	0	730857472	14	4494
2026-01-21 02:17:37.53	330.87	22.83	-27.5	-29.0	15.7	0.00e+00	0	45	0	740294656	15	4284
2026-01-21 02:17:40.53	330.08	22.95	-27.6	-29.3	15.5	0.00e+00	0	45	0	749731840	15	4359
2026-01-21 02:17:43.53	329.29	23.07	-27.8	-29.6	14.4	9.91e-05	0	45	0	759169024	15	4458
2026-01-21 02:17:46.53	328.49	23.18	-27.6	-29.3	15.5	0.00e+00	0	45	0	767557632	15	4371
2026-01-21 02:17:49.54	327.68	23.29	-27.5	-29.1	15.6	0.00e+00	0	45	0	776994816	15	4305
2026-01-21 02:17:52.55	326.87	23.39	-27.4	-29.2	15.9	0.00e+00	0	45	0	786432000	14	4463
2026-01-21 02:17:55.56	326.05	23.48	-27.2	-29.0	16.0	1.58e-04	0	45	0	795869184	14	4380
2026-01-21 02:17:58.57	325.23	23.57	-27.4	-29.3	15.9	0.00e+00	0	45	0	805306368	14	4484
2026-01-21 02:18:01.58	324.40	23.65	-27.6	-29.3	15.6	0.00e+00	0	45	0	814743552	15	4361
2026-01-21 02:18:04.58	323.57	23.73	-27.6	-29.2	15.6	4.52e-04	0	45	0	824180736	15	4348
2026-01-21 02:18:07.59	322.73	23.80	-27.4	-29.3	15.8	0.00e+00	0	45	0	833617920	14	4479
2026-01-21 02:18:10.60	321.89	23.86	-27.6	-29.4	15.5	9.64e-04	0	45	0	843055104	15	4385
2026-01-21 02:18:13.61	321.05	23.92	-27.3	-29.1	15.9	2.57e-03	0	45	0	852492288	14	4413
2026-01-21 02:18:16.62	320.21	23.97	-27.4	-29.3	15.8	2.29e-03	0	45	0	861929472	14	4478
2026-01-21 02:18:19.62	319.36	24.01	-27.3	-29.1	15.9	2.22e-03	0	45	0	871366656	14	4436
2026-01-21 02:18:22.64	318.51	24.05	-26.5	-28.2	15.0	1.99e-03	0	45	0	880803840	14	4405
2026-01-21 02:18:25.64	317.66	24.08	-27.2	-28.8	14.6	5.87e-04	0	45	0	890241024	14	4342
2026-01-21 02:18:28.64	316.80	24.10	-27.3	-29.0	15.9	4.78e-03	0	45	0	899678208	14	4407
2026-01-21 02:18:31.66	315.95	24.12	-27.5	-29.0	15.7	2.88e-04	0	45	0	909115392	15	4279
2026-01-21 02:18:34.66	315.09	24.13	-27.5	-29.4	15.8	4.33e-03	0	45	0	918552576	14	4521
2026-01-21 02:18:37.66	314.24	24.13	-27.5	-28.9	15.7	0.00e+00	0	45	0	927989760	15	4267
2026-01-21 02:18:40.67	313.38	24.12	-27.5	-29.5	15.7	4.50e-03	0	45	0	937426944	14	4533
2026-01-21 02:18:43.69	312.52	24.11	-27.9	-30.0	15.1	4.48e-03	0	45	0	946864128	15	4571
2026-01-21 02:18:46.70	311.67	24.09	-27.7	-29.4	15.5	0.00e+00	0	45	0	956301312	15	4400
2026-01-21 02:18:49.70	310.82	24.07	-27.6	-29.3	15.6	4.20e-03	0	45	0	965738496	15	4358
2026-01-21 02:18:52.71	309.96	24.04	-27.3	-29.1	15.9	1.85e-03	0	45	0	975175680	14	4409
2026-01-21 02:18:55.73	309.11	24.00	-27.2	-28.8	16.1	3.65e-03	0	45	0	984612864	14	4340
2026-01-21 02:18:58.73	308.27	23.95	-27.2	-28.8	16.0	2.37e-03	0	45	0	994050048	14	4345
2026-01-21 02:19:01.74	307.42	23.90	-27.1	-28.7	16.1	3.98e-03	0	45	0	1003487232	14	4320
2026-01-21 02:19:04.73	306.58	23.84	-27.3	-29.0	15.9	3.57e-03	0	45	0	1012924416	14	4406
2026-01-21 02:19:07.74	305.74	23.78	-27.2	-28.9	16.0	0.00e+00	0	45	0	1021313024	14	4369
2026-01-21 02:19:10.75	304.91	23.70	-27.5	-29.4	15.7	4.59e-03	0	45	0	1030750208	14	4520
2026-01-21 02:19:13.76	304.07	23.63	-27.1	-28.6	16.1	0.00e+00	0	45	0	1041235968	14	4295
2026-01-21 02:19:16.76	303.25	23.54	-27.2	-28.8	16.0	4.40e-03	0	45	0	1049624576	14	4335
2026-01-21 02:19:19.78	302.42	23.45	-27.3	-29.1	15.9	0.00e+00	0	45	0	1059061760	14	4433
2026-01-21 02:19:22.79	301.61	23.35	-27.4	-29.3	15.8	0.00e+00	0	45	0	1068498944	14	4480
2026-01-21 02:19:25.80	300.79	23.25	-27.3	-29.1	15.9	0.00e+00	0	45	0	1077936128	14	4420
2026-01-21 02:19:28.81	299.98	23.14	-27.1	-28.6	16.1	0.00e+00	0	45	0	1087373312	14	4274
2026-01-21 02:19:31.82	299.18	23.03	-27.0	-28.5	16.1	0.00e+00	0	45	0	1096810496	14	4269
2026-01-21 02:19:34.85	298.38	22.91	-27.6	-29.3	15.5	0.00e+00	0	45	0	1106247680	15	4369
2026-01-21 02:19:37.86	297.59	22.78	-27.4	-28.8	15.7	0.00e+00	0	45	0	1115684864	15	4238
2026-01-21 02:19:40.86	296.81	22.65	-27.5	-29.0	15.5	0.00e+00	0	45	0	1125122048	15	4286
2026-01-21 02:19:43.87	296.04	22.52	-27.4	-29.4	15.6	0.00e+00	0	45	0	1134559232	14	4514
2026-01-21 02:19:46.88	295.27	22.38	-27.6	-29.3	15.3	0.00e+00	0	45	0	1143996416	15	4390
2026-01-21 02:19:49.88	294.51	22.24	-27.6	-29.4	15.3	0.00e+00	0	45	0	1153433600	15	4394
2026-01-21 02:19:52.90	293.75	22.09	-27.7	-29.6	15.2	0.00e+00	0	45	0	1162870784	15	4461
2026-01-21 02:19:55.92	293.00	21.93	-27.5	-28.9	15.5	0.00e+00	0	45	0	1172307968	15	4270
2026-01-21 02:19:58.91	292.26	21.78	-27.7	-29.6	15.2	0.00e+00	0	45	0	1181745152	15	4473
2026-01-21 02:20:01.92	291.53	21.61	-27.9	-30.0	15.0	0.00e+00	0	45	0	1191182336	15	4572
2026-01-21 02:20:04.92	290.80	21.45	-27.7	-29.5	15.3	0.00e+00	0	45	0	1200619520	15	4430
2026-01-21 02:20:07.93	290.09	21.28	-27.7	-29.5	15.2	0.00e+00	0	45	0	1210056704	15	4416
2026-01-21 02:20:10.92	289.38	21.11	-28.2	-30.1	14.8	0.00e+00	0	45	0	1219493888	16	4492
2026-01-21 02:20:13.94	288.68	20.93	-28.1	-29.8	15.0	0.00e+00	0	45	0	1228931072	16	4404
2026-01-21 02:20:16.94	287.99	20.75	-27.8	-29.7	15.1	0.00e+00	0	45	0	1238368256	15	4490
2026-01-21 02:20:19.95	287.30	20.57	-27.6	-29.3	15.3	0.00e+00	0	45	0	1247805440	15	4375
2026-01-21 02:20:22.97	286.62	20.38	-27.5	-29.0	15.5	0.00e+00	0	45	0	1257242624	15	4294
2026-01-21 02:20:25.98	285.95	20.20	-27.5	-29.0	15.5	0.00e+00	0	45	0	1266679808	15	4294
2026-01-21 02:20:29.00	285.29	20.00	-27.5	-29.0	15.5	0.00e+00	0	45	0	1276116992	15	4281
2026-01-21 02:20:32.01	284.64	19.81	-27.8	-29.7	15.1	0.00e+00	0	45	0	1285554176	15	4510
2026-01-21 02:20:35.02	283.99	19.61	-27.3	-29.2	15.6	7.62e-05	0	45	0	1294991360	14	4479
2026-01-21 02:20:38.02	283.36	19.42	-27.8	-29.8	15.0	0.00e+00	0	45	0	1304428544	15	4508
2026-01-21 02:20:41.03	282.73	19.22	-27.6	-29.3	15.2	0.00e+00	0	45	0	1313865728	15	4385
2026-01-21 02:20:44.04	282.11	19.02	-28.3	-30.5	14.4	9.46e-05	0	45	0	1322254336	16	4611
2026-01-21 02:20:47.06	281.50	18.81	-27.4	-28.9	15.4	0.00e+00	0	45	0	1331691520	15	4268
2026-01-21 02:20:50.08	280.89	18.60	-27.4	-29.3	15.5	0.00e+00	0	45	0	1342177280	14	4504
2026-01-21 02:20:53.09	280.30	18.40	-27.8	-29.9	14.9	0.00e+00	0	45	0	1350565888	15	4545
2026-01-21 02:20:56.09	279.71	18.19	-27.5	-29.1	15.3	0.00e+00	0	45	0	1360003072	15	4335
2026-01-21 02:20:59.10	279.14	17.98	-27.4	-28.9	15.4	0.00e+00	0	45	0	1369440256	15	4278
2026-01-21 02:21:02.12	278.56	17.77	-27.8	-29.8	14.9	0.00e+00	0	45	0	1378877440	15	4541
2026-01-21 02:21:05.12	278.00	17.56	-28.2	-30.2	14.5	7.00e-07	0	45	0	1388314624	16	4539
2026-01-21 02:21:08.14	277.45	17.34	-27.9	-29.9	14.7	0.00e+00	0	45	0	1397751808	15	4574
2026-01-21 02:21:11.15	276.90	17.13	-27.7	-29.5	15.0	0.00e+00	0	45	0	1407188992	15	4451
2026-01-21 02:21:14.16	276.36	16.92	-27.5	-29.0	15.2	0.00e+00	0	45	0	1416626176	15	4316
2026-01-21 02:21:17.18	275.83	16.70	-27.6	-29.3	15.1	0.00e+00	0	45	0	1426063360	15	4381
2026-01-21 02:21:20.19	275.30	16.48	-27.6	-29.5	15.0	7.00e-07	0	45	0	1435500544	15	4432
2026-01-21 02:21:23.20	274.79	16.27	-28.1	-30.0	14.6	7.00e-07	0	45	0	1444937728	16	4489
2026-01-21 02:21:26.20	274.28	16.05	-28.4	-30.6	14.3	2.20e-06	0	45	0	1454374912	16	4665
2026-01-21 02:21:29.20	273.78	15.84	-28.3	-30.0	14.3	0.00e+00	0	45	0	1463812096	17	4358
2026-01-21 02:21:32.22	273.29	15.62	-28.8	-31.2	13.5	6.10e-06	0	45	0	1473249280	17	4753
2026-01-21 02:21:35.22	272.80	15.40	-29.0	-31.3	13.1	2.51e-05	0	45	0	1482686464	18	4644
2026-01-21 02:21:38.23	272.32	15.18	-28.9	-31.4	13.4	9.10e-06	0	45	0	1492123648	17	4794
2026-01-21 02:21:41.25	271.85	14.96	-28.4	-30.2	14.2	2.20e-06	0	45	0	1501560832	17	4411
2026-01-21 02:21:44.26	271.38	14.75	-28.2	-30.2	14.4	7.00e-07	0	45	0	1510998016	16	4545
2026-01-21 02:21:47.29	270.92	14.53	-28.3	-30.5	14.2	2.20e-06	0	45	0	1520435200	16	4623
2026-01-21 02:21:50.29	270.47	14.31	-27.7	-29.7	13.1	0.00e+00	0	45	0	1529872384	15	4513
2026-01-21 02:21:53.30	270.02	14.09	-27.9	-30.0	11.5	7.00e-07	0	45	0	1539309568	16	4576
2026-01-21 02:21:56.30	269.59	13.88	-28.3	-30.4	14.2	3.00e-06	0	45	0	1548746752	16	4594
2026-01-21 02:21:59.30	269.16	13.66	-28.2	-30.2	14.3	7.00e-07	0	45	0	1558183936	16	4545
2026-01-21 02:22:02.31	268.73	13.44	-28.3	-30.4	14.2	7.10e-03	0	45	0	1567621120	16	4616
2026-01-21 02:22:05.33	268.31	13.23	-28.5	-30.5	13.8	7.00e-07	0	45	0	1577058304	17	4532
2026-01-21 02:22:08.34	267.89	13.01	-28.6	-30.6	13.7	4.32e-03	0	45	0	1586495488	17	4564
2026-01-21 02:22:11.35	267.49	12.80	-28.5	-31.0	13.8	6.15e-03	0	45	0	1595932672	16	4789
2026-01-21 02:22:14.37	267.08	12.58	-28.2	-30.4	14.1	6.70e-03	0	45	0	1605369856	16	4603
2026-01-21 02:22:17.38	266.69	12.37	-27.9	-30.2	14.4	6.75e-03	0	45	0	1614807040	15	4653
2026-01-21 02:22:20.41	266.30	12.15	-28.5	-30.5	13.7	7.62e-03	0	45	0	1624244224	17	4529
2026-01-21 02:22:23.42	265.91	11.94	-28.9	-31.4	13.2	7.92e-03	0	45	0	1633681408	17	4831
2026-01-21 02:22:26.43	265.53	11.73	-28.8	-31.3	13.2	2.44e-05	0	45	0	1643118592	17	4781
2026-01-21 02:22:29.44	265.16	11.51	-28.9	-31.4	13.1	6.01e-03	0	45	0	1652555776	17	4819
2026-01-21 02:22:32.46	264.79	11.30	-28.7	-30.9	13.4	1.37e-05	0	45	0	1661992960	17	4679
2026-01-21 02:22:35.46	264.43	11.09	-28.5	-30.6	13.5	3.56e-03	0	45	0	1671430144	17	4574
2026-01-21 02:22:38.46	264.08	10.88	-28.7	-31.1	13.2	2.05e-05	0	45	0	1680867328	17	4738
2026-01-21 02:22:41.47	263.72	10.67	-29.0	-31.4	12.7	8.31e-05	0	45	0	1690304512	18	4728
2026-01-21 02:22:44.47	263.38	10.47	-29.1	-31.5	12.6	9.30e-05	0	45	0	1698693120	18	4773
2026-01-21 02:22:47.49	263.04	10.26	-28.9	-31.5	13.0	5.56e-05	0	45	0	1708130304	17	4871
2026-01-21 02:22:50.51	262.70	10.05	-28.8	-31.3	13.0	3.16e-03	0	45	0	1717567488	17	4825
2026-01-21 02:22:53.53	262.36	9.84	-28.6	-30.8	13.4	7.60e-06	0	45	0	1727004672	17	4638
2026-01-21 02:22:56.53	262.04	9.64	-28.9	-31.6	12.8	5.95e-05	0	45	0	1736441856	17	4918
2026-01-21 02:22:59.54	261.72	9.43	-29.6	-32.4	11.7	6.61e-04	0	45	0	1745879040	19	4982
2026-01-21 02:23:02.54	261.40	9.23	-30.0	-33.0	10.8	3.26e-03	0	45	0	1755316224	20	5111
2026-01-21 02:23:05.55	261.09	9.03	-30.2	-33.8	10.3	5.73e-03	0	45	0	1764753408	20	5412
2026-01-21 02:23:08.56	260.78	8.82	-29.9	-33.3	11.0	1.84e-03	0	45	0	1774190592	19	5311
2026-01-21 02:23:11.58	260.47	8.62	-30.3	-34.1	10.0	6.34e-03	0	45	0	1783627776	20	5542
2026-01-21 02:23:14.57	260.17	8.42	-29.5	-32.3	11.6	1.02e-03	0	45	0	1793064960	19	4957
2026-01-21 02:23:17.57	259.88	8.22	-28.9	-31.7	12.6	1.23e-04	0	45	0	1802502144	17	4964
2026-01-21 02:23:20.57	259.59	8.03	-29.1	-31.6	12.3	1.55e-04	0	45	0	1811939328	18	4818
2026-01-21 02:23:23.58	259.30	7.83	-29.3	-32.2	11.9	3.38e-04	0	45	0	1821376512	18	5023
2026-01-21 02:23:26.59	259.01	7.63	-29.4	-32.6	11.7	5.06e-04	0	45	0	1830813696	18	5170
2026-01-21 02:23:29.61	258.73	7.43	-29.6	-32.5	11.3	1.10e-03	0	45	0	1840250880	19	5058
2026-01-21 02:23:32.62	258.46	7.24	-29.3	-32.2	10.6	4.22e-04	0	45	0	1849688064	18	5038
2026-01-21 02:23:35.61	258.18	7.05	-32.9	-45.2	3.8	1.47e+00	0	45	104	1858076672	25	14790

#Closed at: 2026-01-21 02:23:38
#Recorded file [1858 MB]: D:/data/31010_260121_051340.dat