passes_logs/2026/01/21/R2M6_AANII_01/R2M6_AANII_01__20260121_024325_SUOMI_NPP_rec.log

#Pass ID: 20260121_024325_SUOMI NPP
#Satellite: SUOMI NPP
#Configuration: NPP
#almurnet v.1.7.20240730
#Start time: 2026-01-21 02:43:27

#Version: 2.2.20231116
#Station: R2M6_AANII_01
#Location: 30.233357 lon 59.946436 lat
#TLE: 1 37849U 11061A   26020.31993517  .00000142  00000+0  88240-4 0  9990
#TLE: 2 37849  98.7818 322.3228 0002330  54.3778 305.7615 14.19527005737466

#Time	Az	El	Level	Level2	SNR	BER	BlckErr	Temp	State	Recorded	gain1	gain2
2026-01-21 02:43:27.33	9.05	7.12	-32.7	-40.1	4.2	1.44e+00	0	42	0	0	25	8496
2026-01-21 02:43:30.33	8.73	7.30	-32.5	-38.9	5.7	3.79e-01	0	42	0	1048576	25	7496
2026-01-21 02:43:33.35	8.41	7.47	-32.5	-38.2	6.2	3.43e-01	0	42	0	7340032	25	6992
2026-01-21 02:43:36.35	8.08	7.65	-31.9	-35.9	8.4	8.32e-02	0	42	0	12582912	24	5687
2026-01-21 02:43:39.36	7.75	7.83	-31.5	-34.8	9.6	1.63e-02	0	42	0	17825792	23	5254
2026-01-21 02:43:42.37	7.41	8.00	-31.6	-35.1	9.4	1.90e-02	0	42	0	24117248	23	5400
2026-01-21 02:43:45.38	7.07	8.18	-31.7	-35.5	9.0	2.42e-02	0	43	0	29360128	23	5581
2026-01-21 02:43:48.39	6.72	8.36	-31.8	-35.9	8.8	3.94e-02	0	43	0	35651584	23	5773
2026-01-21 02:43:51.39	6.37	8.54	-31.7	-35.3	9.4	1.52e-02	0	43	0	40894464	23	5479
2026-01-21 02:43:54.39	6.02	8.71	-31.7	-35.3	9.3	1.59e-02	0	43	0	46137344	23	5494
2026-01-21 02:43:57.39	5.66	8.89	-31.7	-35.3	9.4	1.73e-02	0	43	0	52428800	23	5458
2026-01-21 02:44:00.41	5.30	9.07	-31.6	-34.9	9.7	1.73e-02	0	43	0	57671680	23	5282
2026-01-21 02:44:03.41	4.93	9.25	-31.4	-34.8	10.1	7.59e-03	0	43	0	62914560	22	5336
2026-01-21 02:44:06.41	4.56	9.43	-31.3	-34.5	10.4	5.23e-03	0	43	0	69206016	22	5206
2026-01-21 02:44:09.42	4.18	9.61	-31.3	-34.5	10.4	4.03e-03	0	43	0	74448896	22	5183
2026-01-21 02:44:12.43	3.80	9.79	-31.2	-34.3	10.6	3.63e-03	0	43	0	80740352	22	5112
2026-01-21 02:44:15.44	3.41	9.97	-31.2	-34.2	10.0	3.40e-03	0	43	0	85983232	22	5071
2026-01-21 02:44:18.45	3.02	10.15	-31.5	-35.0	10.0	6.87e-03	0	43	0	91226112	22	5419
2026-01-21 02:44:21.45	2.62	10.32	-31.4	-34.9	10.1	9.83e-03	0	43	0	97517568	22	5387
2026-01-21 02:44:24.45	2.22	10.50	-31.3	-34.4	10.6	4.17e-03	0	43	0	102760448	22	5146
2026-01-21 02:44:27.44	1.82	10.68	-31.1	-33.8	11.0	1.83e-03	0	43	0	108003328	22	4921
2026-01-21 02:44:30.44	1.41	10.86	-31.2	-34.0	10.9	2.13e-03	0	43	0	114294784	22	4969
2026-01-21 02:44:33.45	0.99	11.04	-31.1	-33.7	11.1	1.60e-03	0	43	0	119537664	22	4862
2026-01-21 02:44:36.46	0.57	11.22	-31.0	-33.5	11.2	1.27e-03	0	43	0	125829120	22	4809
2026-01-21 02:44:39.46	0.14	11.39	-31.1	-33.8	11.0	4.23e-03	0	43	0	131072000	22	4914
2026-01-21 02:44:42.48	359.71	11.57	-31.3	-34.5	10.5	6.75e-03	0	44	0	136314880	22	5176
2026-01-21 02:44:45.48	359.27	11.75	-31.1	-33.9	11.0	2.49e-03	0	44	0	142606336	22	4926
2026-01-21 02:44:48.48	358.83	11.93	-31.5	-35.0	10.2	5.02e-03	0	43	0	147849216	22	5385
2026-01-21 02:44:51.49	358.38	12.10	-31.5	-34.6	10.1	8.52e-03	0	43	0	153092096	23	5125
2026-01-21 02:44:54.49	357.92	12.28	-31.4	-34.6	10.5	8.75e-03	0	44	0	159383552	22	5214
2026-01-21 02:44:57.49	357.47	12.45	-31.2	-33.9	11.0	3.68e-03	0	44	0	164626432	22	4913
2026-01-21 02:45:00.49	357.00	12.63	-31.4	-34.6	10.5	5.64e-03	0	44	0	170917888	22	5201
2026-01-21 02:45:03.50	356.53	12.80	-31.6	-34.7	10.1	9.47e-03	0	44	0	176160768	23	5172
2026-01-21 02:45:06.52	356.05	12.98	-31.4	-34.6	10.7	5.35e-03	0	44	0	181403648	22	5195
2026-01-21 02:45:09.53	355.57	13.15	-31.4	-34.8	10.4	5.52e-03	0	44	0	187695104	22	5286
2026-01-21 02:45:12.54	355.08	13.32	-31.5	-34.8	10.5	3.91e-03	0	44	0	192937984	22	5279
2026-01-21 02:45:15.54	354.58	13.49	-31.4	-34.5	10.7	4.98e-03	0	44	0	198180864	22	5169
2026-01-21 02:45:18.55	354.08	13.66	-31.5	-34.3	10.4	6.10e-03	0	44	0	204472320	23	4997
2026-01-21 02:45:21.56	353.58	13.83	-31.5	-34.6	10.2	7.61e-03	0	44	0	209715200	23	5143
2026-01-21 02:45:24.57	353.06	14.00	-31.5	-34.5	10.4	5.77e-03	0	44	0	216006656	23	5054
2026-01-21 02:45:27.59	352.54	14.17	-31.7	-35.0	9.9	7.18e-03	0	44	0	221249536	23	5293
2026-01-21 02:45:30.60	352.02	14.34	-31.8	-35.5	9.5	1.43e-02	0	44	0	226492416	23	5527
2026-01-21 02:45:33.62	351.49	14.50	-31.6	-34.8	10.1	8.66e-03	0	44	0	232783872	23	5188
2026-01-21 02:45:36.63	350.95	14.66	-31.3	-33.7	10.9	3.04e-03	0	44	0	238026752	23	4748
2026-01-21 02:45:39.64	350.41	14.83	-30.8	-33.4	11.9	4.60e-04	0	44	0	244318208	21	4833
2026-01-21 02:45:42.66	349.86	14.99	-30.6	-32.6	12.4	2.40e-03	0	44	0	249561088	21	4544
2026-01-21 02:45:45.65	349.30	15.14	-30.5	-32.4	12.6	8.85e-05	0	44	0	254803968	21	4456
2026-01-21 02:45:48.66	348.74	15.30	-30.7	-32.8	12.2	3.06e-04	0	44	0	261095424	21	4602
2026-01-21 02:45:51.67	348.18	15.46	-30.7	-32.9	12.3	1.21e-04	0	44	0	266338304	21	4631
2026-01-21 02:45:54.67	347.61	15.61	-30.7	-33.0	12.2	1.63e-04	0	44	0	271581184	21	4672
2026-01-21 02:45:57.69	347.03	15.76	-30.8	-33.3	12.0	4.87e-04	0	44	0	277872640	21	4779
2026-01-21 02:46:00.70	346.44	15.91	-30.3	-31.8	12.9	6.48e-05	0	44	0	283115520	21	4292
2026-01-21 02:46:03.71	345.85	16.06	-30.1	-31.6	13.5	1.22e-05	0	44	0	289406976	20	4300
2026-01-21 02:46:06.70	345.26	16.20	-30.3	-32.2	13.1	1.98e-05	0	44	0	294649856	20	4494
2026-01-21 02:46:09.72	344.65	16.34	-30.1	-31.7	13.4	9.10e-06	0	44	0	299892736	20	4327
2026-01-21 02:46:12.73	344.05	16.48	-30.1	-31.6	13.4	1.67e-05	0	44	0	306184192	20	4299
2026-01-21 02:46:15.74	343.43	16.62	-30.4	-32.5	12.9	2.67e-05	0	44	0	311427072	20	4597
2026-01-21 02:46:18.75	342.81	16.75	-30.1	-31.6	13.6	7.60e-06	0	44	0	317718528	20	4299
2026-01-21 02:46:21.76	342.19	16.89	-30.1	-31.7	13.4	1.60e-05	0	44	0	322961408	20	4324
2026-01-21 02:46:24.76	341.56	17.02	-30.2	-31.9	13.4	1.90e-05	0	44	0	328204288	20	4372
2026-01-21 02:46:27.76	340.93	17.14	-30.4	-32.3	13.1	1.18e-04	0	44	0	334495744	20	4500
2026-01-21 02:46:30.77	340.29	17.26	-30.0	-31.3	13.7	1.55e-04	0	44	0	339738624	20	4176
2026-01-21 02:46:33.78	339.64	17.39	-30.1	-31.5	13.5	7.60e-06	0	44	0	344981504	20	4256
2026-01-21 02:46:36.79	338.99	17.50	-30.1	-31.6	13.5	6.80e-06	0	44	0	351272960	20	4284
2026-01-21 02:46:39.79	338.33	17.62	-30.4	-32.3	13.1	2.10e-04	0	44	0	356515840	20	4510
2026-01-21 02:46:42.81	337.67	17.73	-29.9	-31.1	13.9	9.99e-05	0	44	0	362807296	20	4133
2026-01-21 02:46:45.82	337.00	17.83	-29.6	-30.7	14.5	2.28e-05	0	44	0	368050176	19	4102
2026-01-21 02:46:48.83	336.33	17.94	-29.6	-30.8	14.4	1.50e-06	0	44	0	373293056	19	4134
2026-01-21 02:46:51.84	335.66	18.04	-29.3	-30.0	15.0	0.00e+00	0	44	0	379584512	19	3903
2026-01-21 02:46:54.85	334.98	18.13	-29.6	-30.7	14.5	0.00e+00	0	44	0	384827392	19	4086
2026-01-21 02:46:57.85	334.29	18.22	-29.7	-30.6	14.3	2.36e-05	0	44	0	390070272	20	3961
2026-01-21 02:47:00.86	333.60	18.31	-29.7	-30.9	14.4	1.50e-06	0	44	0	396361728	19	4129
2026-01-21 02:47:03.87	332.91	18.39	-29.9	-31.5	14.1	1.50e-06	0	44	0	401604608	19	4322
2026-01-21 02:47:06.87	332.22	18.47	-30.2	-31.7	13.5	7.60e-06	0	44	0	407896064	20	4316
2026-01-21 02:47:09.89	331.51	18.55	-30.1	-31.5	13.6	3.15e-04	0	44	0	413138944	20	4252
2026-01-21 02:47:12.89	330.81	18.62	-30.2	-31.9	13.4	5.61e-04	0	44	0	418381824	20	4366
2026-01-21 02:47:15.90	330.11	18.69	-30.6	-32.4	12.8	2.83e-04	0	44	0	424673280	21	4430
2026-01-21 02:47:18.91	329.40	18.75	-30.2	-31.7	13.5	2.26e-04	0	44	0	429916160	20	4315
2026-01-21 02:47:21.92	328.68	18.81	-29.9	-31.4	14.1	2.62e-04	0	44	0	435159040	19	4302
2026-01-21 02:47:24.92	327.97	18.86	-30.4	-32.0	12.9	1.07e-04	0	44	0	441450496	21	4329
2026-01-21 02:47:27.93	327.25	18.91	-30.6	-32.5	12.7	6.87e-04	0	44	0	446693376	21	4461
2026-01-21 02:47:30.93	326.53	18.96	-30.3	-32.0	13.3	3.39e-04	0	44	0	452984832	20	4417
2026-01-21 02:47:33.94	325.81	19.00	-30.9	-33.5	12.0	5.43e-04	0	44	0	458227712	21	4826
2026-01-21 02:47:36.94	325.09	19.03	-31.2	-33.9	11.3	1.22e-03	0	44	0	463470592	22	4921
2026-01-21 02:47:39.96	324.36	19.06	-30.6	-32.7	12.5	1.86e-04	0	44	0	469762048	21	4548
2026-01-21 02:47:42.96	323.64	19.09	-30.4	-32.0	13.0	2.43e-04	0	44	0	475004928	21	4316
2026-01-21 02:47:45.98	322.91	19.11	-30.6	-32.7	12.5	1.23e-04	0	44	0	480247808	21	4553
2026-01-21 02:47:48.97	322.18	19.13	-30.5	-32.4	12.7	1.53e-04	0	44	0	486539264	21	4465
2026-01-21 02:47:51.97	321.46	19.14	-30.0	-31.5	13.5	2.44e-05	0	44	0	491782144	20	4256
2026-01-21 02:47:54.98	320.72	19.15	-30.0	-31.4	13.7	4.50e-06	0	44	0	498073600	20	4219
2026-01-21 02:47:57.99	319.99	19.15	-30.4	-32.5	11.8	4.04e-05	0	44	0	503316480	20	4570
2026-01-21 02:48:01.00	319.26	19.14	-30.5	-32.3	12.6	7.17e-05	0	44	0	508559360	21	4428
2026-01-21 02:48:04.01	318.53	19.14	-30.3	-32.2	13.1	3.89e-05	0	44	0	514850816	20	4485
2026-01-21 02:48:07.02	317.80	19.12	-30.3	-32.2	13.1	1.22e-05	0	44	0	520093696	20	4484
2026-01-21 02:48:10.04	317.07	19.11	-30.6	-32.4	12.7	2.31e-03	0	44	0	526385152	21	4459
2026-01-21 02:48:13.05	316.34	19.08	-31.1	-33.6	11.4	2.89e-03	0	44	0	531628032	22	4792
2026-01-21 02:48:16.06	315.62	19.06	-31.1	-33.4	11.6	3.14e-03	0	44	0	536870912	22	4720
2026-01-21 02:48:19.06	314.89	19.03	-30.4	-31.9	13.0	2.86e-04	0	44	0	543162368	21	4302
2026-01-21 02:48:22.08	314.17	18.99	-30.4	-32.4	13.1	2.30e-04	0	44	0	548405248	20	4523
2026-01-21 02:48:25.08	313.45	18.95	-30.1	-31.6	13.6	3.80e-06	0	44	0	553648128	20	4273
2026-01-21 02:48:28.10	312.72	18.90	-30.1	-31.7	13.5	2.39e-03	0	44	0	559939584	20	4311
2026-01-21 02:48:31.10	312.01	18.85	-30.0	-31.4	13.7	2.16e-03	0	44	0	565182464	20	4233
2026-01-21 02:48:34.11	311.29	18.80	-29.8	-31.3	14.1	2.49e-03	0	44	0	571473920	19	4261
2026-01-21 02:48:37.12	310.58	18.74	-29.4	-30.8	14.8	2.37e-03	0	44	0	576716800	18	4225
2026-01-21 02:48:40.13	309.87	18.67	-29.2	-30.2	15.1	2.10e-03	0	44	0	581959680	18	4037
2026-01-21 02:48:43.14	309.16	18.60	-29.2	-30.3	15.1	2.24e-03	0	44	0	588251136	18	4054
2026-01-21 02:48:46.16	308.46	18.53	-29.7	-30.9	14.4	2.44e-03	0	44	0	593494016	19	4154
2026-01-21 02:48:49.15	307.76	18.46	-29.8	-31.3	14.2	2.52e-03	0	44	0	598736896	19	4278
2026-01-21 02:48:52.15	307.07	18.37	-29.9	-31.1	13.9	2.75e-03	0	45	0	605028352	20	4124
2026-01-21 02:48:55.15	306.38	18.29	-29.4	-30.9	13.5	2.27e-03	0	44	0	610271232	20	4279
2026-01-21 02:48:58.15	305.69	18.20	-30.1	-31.6	13.1	1.43e-03	0	44	0	616562688	20	4291
2026-01-21 02:49:01.17	305.00	18.11	-30.6	-32.5	12.3	7.47e-05	0	44	0	621805568	21	4491
2026-01-21 02:49:04.17	304.32	18.01	-30.9	-33.3	12.1	2.54e-04	0	44	0	627048448	21	4767
2026-01-21 02:49:07.18	303.65	17.91	-30.8	-33.2	12.1	6.93e-04	0	44	0	633339904	21	4712
2026-01-21 02:49:10.19	302.98	17.81	-30.8	-33.0	12.2	1.64e-03	0	44	0	638582784	21	4664
2026-01-21 02:49:13.19	302.31	17.70	-30.7	-32.4	12.3	5.56e-04	0	44	0	643825664	22	4361
2026-01-21 02:49:16.21	301.65	17.59	-30.8	-33.3	12.0	4.41e-04	0	44	0	650117120	21	4760
2026-01-21 02:49:19.22	300.99	17.47	-31.0	-33.6	11.9	4.42e-04	0	44	0	655360000	21	4865
2026-01-21 02:49:22.22	300.34	17.36	-30.4	-32.0	12.8	6.86e-05	0	44	0	661651456	21	4335
2026-01-21 02:49:25.22	299.70	17.23	-30.4	-32.5	12.9	1.28e-04	0	44	0	666894336	20	4577
2026-01-21 02:49:28.22	299.06	17.11	-30.3	-32.3	13.0	9.61e-05	0	44	0	672137216	20	4511
2026-01-21 02:49:31.24	298.42	16.98	-30.3	-32.3	13.0	2.21e-05	0	44	0	678428672	20	4523
2026-01-21 02:49:34.25	297.79	16.85	-29.9	-31.1	13.8	2.20e-06	0	44	0	683671552	20	4125
2026-01-21 02:49:37.25	297.17	16.72	-29.7	-31.0	14.2	7.00e-07	0	44	0	688914432	19	4186
2026-01-21 02:49:40.26	296.55	16.59	-29.9	-31.5	13.9	3.00e-06	0	44	0	695205888	19	4334
2026-01-21 02:49:43.28	295.93	16.45	-29.9	-31.6	13.8	3.77e-04	0	44	0	700448768	19	4383
2026-01-21 02:49:46.29	295.32	16.31	-30.6	-32.7	12.3	1.34e-03	0	44	0	706740224	21	4571
2026-01-21 02:49:49.31	294.72	16.16	-30.7	-33.0	11.7	9.01e-04	0	44	0	711983104	21	4688
2026-01-21 02:49:52.31	294.12	16.02	-30.8	-33.1	11.0	5.87e-04	0	44	0	717225984	21	4712
2026-01-21 02:49:55.31	293.53	15.87	-31.0	-33.4	11.4	1.60e-03	0	44	0	723517440	22	4719
2026-01-21 02:49:58.32	292.95	15.72	-31.3	-34.2	10.9	4.82e-03	0	44	0	728760320	22	5037
2026-01-21 02:50:01.33	292.37	15.57	-30.8	-33.1	11.9	3.02e-03	0	44	0	735051776	21	4718
2026-01-21 02:50:04.33	291.80	15.41	-30.3	-32.2	12.9	2.71e-04	0	44	0	740294656	20	4510
2026-01-21 02:50:07.35	291.23	15.26	-30.3	-32.4	12.8	8.03e-04	0	44	0	745537536	20	4564
2026-01-21 02:50:10.35	290.67	15.10	-30.4	-32.1	12.5	1.17e-03	0	44	0	751828992	21	4395
2026-01-21 02:50:13.37	290.11	14.94	-30.3	-32.3	12.8	6.07e-04	0	44	0	757071872	20	4553
2026-01-21 02:50:16.38	289.57	14.78	-30.6	-32.8	12.1	3.50e-03	0	44	0	762314752	21	4638
2026-01-21 02:50:19.39	289.02	14.62	-30.4	-32.7	12.5	3.93e-03	0	44	0	768606208	20	4691
2026-01-21 02:50:22.41	288.48	14.45	-30.1	-32.0	12.9	2.61e-03	0	44	0	773849088	20	4446
2026-01-21 02:50:25.42	287.95	14.29	-30.5	-32.4	12.3	2.34e-03	0	44	0	780140544	21	4492
2026-01-21 02:50:28.44	287.43	14.12	-31.0	-33.9	11.2	3.49e-03	0	44	0	785383424	21	5034
2026-01-21 02:50:31.45	286.91	13.95	-31.5	-34.8	9.7	1.21e-02	0	44	0	790626304	23	5283
2026-01-21 02:50:34.45	286.39	13.79	-31.6	-35.0	9.6	1.86e-02	0	44	0	796917760	23	5383
2026-01-21 02:50:37.46	285.89	13.62	-31.4	-34.5	10.1	1.42e-02	0	44	0	802160640	23	5120
2026-01-21 02:50:40.46	285.39	13.44	-31.3	-34.6	10.4	8.66e-03	0	44	0	807403520	22	5261
2026-01-21 02:50:43.49	284.89	13.27	-31.1	-33.8	10.8	5.71e-03	0	44	0	813694976	22	4948
2026-01-21 02:50:46.50	284.40	13.10	-30.8	-33.5	11.4	4.05e-03	0	44	0	818937856	21	4902
2026-01-21 02:50:49.50	283.92	12.93	-31.1	-33.8	10.9	1.74e-03	0	44	0	825229312	22	4915
2026-01-21 02:50:52.51	283.44	12.75	-31.1	-34.0	10.7	3.05e-03	0	44	0	830472192	22	5013
2026-01-21 02:50:55.53	282.96	12.58	-30.7	-33.1	11.6	9.23e-04	0	44	0	835715072	21	4757
2026-01-21 02:50:58.55	282.49	12.40	-30.4	-32.6	12.4	3.13e-03	0	44	0	842006528	20	4657
2026-01-21 02:51:01.55	282.04	12.22	-30.4	-32.3	12.2	3.18e-03	0	44	0	847249408	21	4465
2026-01-21 02:51:04.56	281.58	12.05	-30.5	-33.0	12.1	1.69e-03	0	45	0	853540864	20	4802
2026-01-21 02:51:07.58	281.13	11.87	-30.7	-33.3	11.5	6.14e-04	0	44	0	858783744	21	4819
2026-01-21 02:51:10.59	280.68	11.69	-30.9	-33.6	11.3	9.80e-04	0	44	0	864026624	21	4953
2026-01-21 02:51:13.61	280.24	11.51	-30.8	-33.5	11.3	1.16e-03	0	44	0	870318080	21	4897
2026-01-21 02:51:16.63	279.81	11.33	-30.6	-32.8	11.8	7.26e-04	0	44	0	875560960	21	4633
2026-01-21 02:51:19.63	279.38	11.15	-30.3	-32.3	12.5	1.65e-04	0	44	0	881852416	20	4576
2026-01-21 02:51:22.65	278.96	10.97	-30.0	-31.5	13.1	3.73e-05	0	44	0	887095296	20	4295
2026-01-21 02:51:25.66	278.54	10.80	-30.0	-31.9	13.1	1.22e-05	0	44	0	892338176	19	4524
2026-01-21 02:51:28.68	278.12	10.62	-30.0	-31.7	12.9	4.11e-05	0	44	0	898629632	20	4369
2026-01-21 02:51:31.69	277.72	10.44	-30.4	-32.7	12.2	1.72e-04	0	44	0	903872512	20	4720
2026-01-21 02:51:34.69	277.31	10.26	-30.3	-32.6	12.3	2.39e-04	0	44	0	909115392	20	4657
2026-01-21 02:51:37.69	276.92	10.08	-30.1	-32.0	12.6	8.39e-05	0	44	0	915406848	20	4458
2026-01-21 02:51:40.69	276.53	9.90	-30.2	-32.2	12.6	7.32e-05	0	44	0	920649728	20	4519
2026-01-21 02:51:43.70	276.14	9.72	-30.1	-31.9	12.7	1.36e-04	0	44	0	926941184	20	4426
2026-01-21 02:51:46.71	275.76	9.54	-30.1	-31.9	12.6	7.24e-05	0	44	0	932184064	20	4445
2026-01-21 02:51:49.72	275.38	9.36	-30.3	-32.5	12.3	2.85e-04	0	44	0	937426944	20	4642
2026-01-21 02:51:52.73	275.00	9.18	-30.5	-32.7	11.7	3.17e-04	0	44	0	943718400	21	4630
2026-01-21 02:51:55.73	274.64	9.00	-30.7	-33.2	11.4	7.09e-04	0	44	0	948961280	21	4817
2026-01-21 02:51:58.73	274.27	8.82	-30.6	-33.1	11.4	1.06e-03	0	44	0	954204160	21	4794
2026-01-21 02:52:01.73	273.91	8.65	-30.5	-33.1	11.8	1.09e-03	0	44	0	960495616	20	4853
2026-01-21 02:52:04.75	273.56	8.47	-30.4	-32.9	11.9	6.78e-04	0	44	0	965738496	20	4794
2026-01-21 02:52:07.76	273.21	8.29	-30.5	-32.7	11.7	8.82e-04	0	44	0	972029952	21	4629
2026-01-21 02:52:10.77	272.86	8.11	-30.4	-32.4	11.9	1.02e-03	0	44	0	977272832	21	4526
2026-01-21 02:52:13.76	272.52	7.93	-30.9	-34.0	10.7	3.35e-03	0	44	0	982515712	21	5135
2026-01-21 02:52:16.78	272.18	7.75	-31.3	-35.1	9.5	7.26e-03	0	44	0	988807168	22	5522
2026-01-21 02:52:19.78	271.85	7.58	-31.4	-34.9	9.2	2.19e-02	0	44	0	994050048	23	5390
2026-01-21 02:52:22.78	271.52	7.40	-31.3	-34.4	9.6	1.48e-02	0	44	0	999292928	23	5140
2026-01-21 02:52:25.79	271.19	7.22	-31.3	-35.2	9.4	1.39e-02	0	44	0	1005584384	22	5586
2026-01-21 02:52:28.79	270.87	7.05	-33.2	-45.0	3.8	5.33e-01	0	44	104	1010827264	26	14074

#Closed at: 2026-01-21 02:52:31
#Recorded file [1010 MB]: D:/data/31010_260121_054329.dat