passes_logs/2026/01/21/R2M6_AANII_01/R2M6_AANII_01__20260121_075810_NOAA_20_JPSS-1_rec.log

#Pass ID: 20260121_075810_NOAA 20 (JPSS-1)
#Satellite: NOAA 20 (JPSS-1)
#Configuration: NOAA 20
#almurnet v.1.7.20240730
#Start time: 2026-01-21 07:58:11

#Version: 2.2.20231116
#Station: R2M6_AANII_01
#Location: 30.233357 lon 59.946436 lat
#TLE: 1 43013U 17073A   26020.26397077  .00000127  00000+0  80954-4 0  9999
#TLE: 2 43013  98.7643 321.1479 0001288  31.3158 328.8095 14.19537595423482

#Time	Az	El	Level	Level2	SNR	BER	BlckErr	Temp	State	Recorded	gain1	gain2
2026-01-21 07:58:11.26	86.90	7.07	-32.2	-39.3	4.7	1.30e+00	0	41	0	0	25	8178
2026-01-21 07:58:14.27	86.57	7.25	-32.0	-38.0	7.3	1.17e-01	0	42	0	1048576	25	7222
2026-01-21 07:58:17.28	86.24	7.42	-31.9	-37.6	7.6	1.16e-01	0	42	0	7340032	25	6929
2026-01-21 07:58:20.28	85.90	7.59	-31.5	-36.1	9.2	2.39e-02	0	42	0	12582912	24	6165
2026-01-21 07:58:23.29	85.56	7.77	-31.3	-35.6	9.7	1.16e-02	0	42	0	17825792	24	5876
2026-01-21 07:58:26.30	85.21	7.94	-31.3	-35.5	9.8	1.09e-02	0	42	0	24117248	24	5801
2026-01-21 07:58:29.30	84.86	8.11	-31.4	-35.8	9.6	1.28e-02	0	42	0	29360128	24	5983
2026-01-21 07:58:32.32	84.51	8.29	-31.3	-35.5	9.9	8.86e-03	0	42	0	35651584	24	5823
2026-01-21 07:58:35.32	84.15	8.46	-31.2	-35.6	10.2	5.68e-03	0	42	0	40894464	23	5939
2026-01-21 07:58:38.32	83.78	8.64	-31.3	-35.8	10.0	7.89e-03	0	42	0	46137344	23	6043
2026-01-21 07:58:41.32	83.42	8.81	-31.3	-35.5	10.3	5.19e-03	0	42	0	52428800	23	5903
2026-01-21 07:58:44.33	83.04	8.98	-31.3	-35.6	10.3	5.51e-03	0	43	0	57671680	23	5907
2026-01-21 07:58:47.34	82.67	9.16	-31.2	-35.4	10.5	4.19e-03	0	43	0	62914560	23	5839
2026-01-21 07:58:50.35	82.28	9.33	-31.4	-35.9	10.2	6.14e-03	0	43	0	69206016	23	6049
2026-01-21 07:58:53.36	81.90	9.51	-31.3	-35.6	10.4	4.35e-03	0	43	0	74448896	23	5895
2026-01-21 07:58:56.37	81.50	9.68	-31.3	-35.5	10.5	4.72e-03	0	43	0	80740352	23	5863
2026-01-21 07:58:59.39	81.11	9.86	-31.3	-35.4	10.6	3.44e-03	0	43	0	85983232	23	5822
2026-01-21 07:59:02.40	80.70	10.03	-31.2	-35.3	10.7	3.24e-03	0	43	0	91226112	23	5753
2026-01-21 07:59:05.41	80.30	10.21	-31.2	-35.0	10.9	2.24e-03	0	43	0	97517568	23	5619
2026-01-21 07:59:08.43	79.89	10.38	-31.2	-35.1	10.8	2.37e-03	0	43	0	102760448	23	5675
2026-01-21 07:59:11.43	79.47	10.56	-31.1	-35.0	11.0	2.19e-03	0	43	0	109051904	23	5590
2026-01-21 07:59:14.44	79.05	10.73	-31.2	-35.2	10.8	2.33e-03	0	43	0	114294784	23	5693
2026-01-21 07:59:17.45	78.62	10.90	-31.3	-35.6	10.5	4.48e-03	0	43	0	119537664	23	5905
2026-01-21 07:59:20.46	78.19	11.08	-31.3	-35.5	10.6	2.80e-03	0	43	0	125829120	23	5824
2026-01-21 07:59:23.48	77.75	11.25	-31.3	-35.5	10.6	3.37e-03	0	43	0	131072000	23	5836
2026-01-21 07:59:26.48	77.31	11.42	-31.3	-35.4	10.7	2.69e-03	0	43	0	136314880	23	5799
2026-01-21 07:59:29.49	76.86	11.59	-31.3	-35.4	10.7	3.01e-03	0	43	0	142606336	23	5780
2026-01-21 07:59:32.50	76.41	11.76	-31.3	-35.4	10.7	2.68e-03	0	43	0	147849216	23	5796
2026-01-21 07:59:35.50	75.96	11.93	-31.4	-35.8	10.5	3.82e-03	0	43	0	154140672	23	5951
2026-01-21 07:59:38.50	75.49	12.10	-31.5	-36.0	10.3	6.59e-03	0	43	0	159383552	23	6066
2026-01-21 07:59:41.51	75.02	12.27	-31.2	-35.1	11.0	2.13e-03	0	43	0	164626432	23	5634
2026-01-21 07:59:44.51	74.55	12.44	-31.1	-34.7	11.3	1.15e-03	0	43	0	170917888	23	5463
2026-01-21 07:59:47.50	74.07	12.61	-31.1	-34.8	11.3	1.18e-03	0	44	0	176160768	23	5489
2026-01-21 07:59:50.51	73.59	12.78	-31.1	-34.6	11.4	1.11e-03	0	43	0	181403648	23	5386
2026-01-21 07:59:53.52	73.10	12.94	-31.0	-34.5	11.5	7.12e-04	0	43	0	187695104	23	5365
2026-01-21 07:59:56.53	72.60	13.11	-30.8	-34.1	12.2	2.31e-04	0	43	0	192937984	22	5294
2026-01-21 07:59:59.54	72.10	13.27	-30.7	-33.9	12.4	1.57e-04	0	43	0	199229440	22	5197
2026-01-21 08:00:02.54	71.59	13.43	-30.6	-33.7	12.5	1.68e-04	0	43	0	204472320	22	5128
2026-01-21 08:00:05.55	71.08	13.60	-30.6	-33.6	12.6	9.76e-05	0	43	0	209715200	22	5098
2026-01-21 08:00:08.56	70.56	13.76	-30.6	-33.5	12.6	1.17e-04	0	43	0	216006656	22	5064
2026-01-21 08:00:11.57	70.04	13.92	-30.6	-33.5	12.7	1.02e-04	0	44	0	221249536	22	5046
2026-01-21 08:00:14.58	69.51	14.07	-30.5	-33.4	12.7	6.79e-05	0	44	0	226492416	22	4993
2026-01-21 08:00:17.58	68.97	14.23	-30.3	-32.7	13.3	3.12e-05	0	44	0	232783872	22	4747
2026-01-21 08:00:20.58	68.43	14.38	-30.3	-33.1	13.2	1.90e-05	0	44	0	238026752	21	5010
2026-01-21 08:00:23.58	67.89	14.54	-30.3	-33.3	13.2	1.90e-05	0	44	0	244318208	21	5061
2026-01-21 08:00:26.59	67.33	14.69	-30.3	-33.1	13.3	1.29e-05	0	44	0	249561088	21	4982
2026-01-21 08:00:29.61	66.77	14.84	-30.2	-32.9	13.4	1.83e-05	0	43	0	254803968	21	4915
2026-01-21 08:00:32.61	66.21	14.99	-30.4	-33.4	13.1	1.44e-05	0	44	0	261095424	21	5107
2026-01-21 08:00:35.61	65.64	15.13	-30.5	-33.6	13.0	4.73e-05	0	44	0	266338304	21	5192
2026-01-21 08:00:38.61	65.07	15.27	-30.5	-33.8	12.9	6.02e-05	0	44	0	272629760	21	5247
2026-01-21 08:00:41.62	64.48	15.42	-30.6	-34.0	12.8	6.56e-05	0	44	0	277872640	21	5312
2026-01-21 08:00:44.64	63.90	15.56	-30.6	-33.9	12.8	6.10e-05	0	44	0	283115520	21	5303
2026-01-21 08:00:47.64	63.31	15.69	-30.6	-34.0	12.7	7.17e-05	0	44	0	289406976	21	5346
2026-01-21 08:00:50.64	62.71	15.83	-30.7	-34.4	12.5	1.84e-04	0	44	0	294649856	21	5501
2026-01-21 08:00:53.65	62.11	15.96	-30.4	-33.4	13.2	2.89e-05	0	44	0	299892736	21	5087
2026-01-21 08:00:56.66	61.50	16.09	-30.3	-33.1	13.4	1.37e-05	0	44	0	306184192	21	4960
2026-01-21 08:00:59.67	60.88	16.22	-30.0	-32.4	13.9	3.80e-06	0	44	0	311427072	21	4728
2026-01-21 08:01:02.67	60.27	16.34	-30.3	-33.0	13.5	1.06e-05	0	44	0	317718528	21	4938
2026-01-21 08:01:05.68	59.64	16.46	-30.1	-32.5	13.8	5.30e-06	0	44	0	322961408	21	4762
2026-01-21 08:01:08.69	59.01	16.58	-30.0	-32.3	13.9	4.50e-06	0	44	0	328204288	21	4697
2026-01-21 08:01:11.69	58.38	16.70	-29.8	-31.8	14.3	1.50e-06	0	44	0	334495744	21	4532
2026-01-21 08:01:14.70	57.74	16.81	-29.8	-32.2	14.3	7.00e-07	0	44	0	339738624	20	4762
2026-01-21 08:01:17.71	57.10	16.92	-29.7	-31.9	14.5	0.00e+00	0	44	0	344981504	20	4672
2026-01-21 08:01:20.72	56.45	17.03	-29.8	-32.3	14.3	7.00e-07	0	44	0	351272960	20	4791
2026-01-21 08:01:23.72	55.80	17.13	-29.9	-32.6	14.1	1.50e-06	0	44	0	356515840	20	4909
2026-01-21 08:01:26.70	55.15	17.23	-30.0	-32.7	14.0	5.30e-06	0	44	0	361758720	20	4941
2026-01-21 08:01:29.72	54.48	17.33	-29.8	-32.4	14.3	7.00e-07	0	44	0	368050176	20	4810
2026-01-21 08:01:32.73	53.82	17.42	-29.9	-32.6	14.1	1.50e-06	0	44	0	373293056	20	4906
2026-01-21 08:01:35.74	53.15	17.51	-30.0	-32.7	14.1	2.20e-06	0	44	0	379584512	20	4911
2026-01-21 08:01:38.76	52.47	17.59	-30.0	-32.9	14.0	3.80e-06	0	44	0	384827392	20	4998
2026-01-21 08:01:41.76	51.80	17.68	-30.2	-33.3	13.7	6.10e-06	0	44	0	390070272	20	5168
2026-01-21 08:01:44.77	51.12	17.75	-30.4	-33.7	13.4	1.52e-05	0	44	0	396361728	20	5310
2026-01-21 08:01:47.78	50.43	17.83	-30.5	-33.8	13.1	2.36e-05	0	44	0	401604608	21	5209
2026-01-21 08:01:50.79	49.74	17.90	-30.2	-32.9	13.6	1.75e-05	0	44	0	407896064	21	4912
2026-01-21 08:01:53.79	49.05	17.96	-30.3	-33.0	13.6	6.80e-06	0	44	0	413138944	21	4938
2026-01-21 08:01:56.80	48.36	18.02	-30.4	-33.3	13.3	1.83e-05	0	44	0	418381824	21	5055
2026-01-21 08:01:59.80	47.67	18.08	-30.6	-33.8	13.1	2.36e-05	0	44	0	424673280	21	5215
2026-01-21 08:02:02.81	46.97	18.13	-30.7	-34.1	12.9	4.50e-05	0	44	0	429916160	21	5343
2026-01-21 08:02:05.82	46.27	18.18	-30.8	-34.5	12.6	1.02e-04	0	44	0	435159040	21	5505
2026-01-21 08:02:08.83	45.56	18.23	-30.9	-34.7	12.4	1.10e-04	0	44	0	441450496	21	5623
2026-01-21 08:02:11.83	44.86	18.27	-30.8	-34.6	12.5	1.25e-04	0	44	0	446693376	21	5563
2026-01-21 08:02:14.82	44.16	18.30	-30.8	-34.5	12.6	1.50e-04	0	44	0	452984832	21	5512
2026-01-21 08:02:17.82	43.45	18.33	-30.8	-34.6	12.5	9.76e-05	0	44	0	458227712	21	5546
2026-01-21 08:02:20.82	42.74	18.36	-30.9	-34.7	12.4	1.27e-04	0	44	0	463470592	21	5578
2026-01-21 08:02:23.83	42.03	18.38	-30.8	-34.4	12.6	7.78e-05	0	44	0	469762048	21	5467
2026-01-21 08:02:26.84	41.32	18.40	-30.7	-34.2	12.7	8.92e-05	0	44	0	475004928	21	5395
2026-01-21 08:02:29.85	40.61	18.41	-30.7	-34.2	12.7	7.01e-05	0	44	0	480247808	21	5388
2026-01-21 08:02:32.86	39.89	18.42	-30.7	-34.3	12.7	1.14e-04	0	44	0	486539264	21	5438
2026-01-21 08:02:35.87	39.18	18.42	-30.4	-33.5	13.2	3.81e-05	0	44	0	491782144	21	5118
2026-01-21 08:02:38.88	38.47	18.42	-30.4	-33.5	13.2	2.05e-05	0	44	0	498073600	21	5117
2026-01-21 08:02:41.89	37.75	18.42	-30.4	-33.4	13.3	2.51e-05	0	44	0	503316480	21	5093
2026-01-21 08:02:44.90	37.04	18.41	-30.3	-33.1	13.5	1.14e-05	0	44	0	508559360	21	4970
2026-01-21 08:02:47.91	36.33	18.39	-30.2	-32.9	13.6	8.30e-06	0	44	0	514850816	21	4894
2026-01-21 08:02:50.92	35.62	18.37	-30.2	-32.8	13.7	5.30e-06	0	44	0	520093696	21	4844
2026-01-21 08:02:53.93	34.91	18.35	-30.2	-32.7	13.7	8.30e-06	0	44	0	525336576	21	4847
2026-01-21 08:02:56.93	34.20	18.32	-30.0	-32.2	14.0	1.50e-06	0	44	0	531628032	21	4674
2026-01-21 08:02:59.94	33.49	18.29	-29.9	-31.9	14.2	4.50e-06	0	44	0	536870912	21	4567
2026-01-21 08:03:02.94	32.79	18.25	-29.9	-31.9	14.2	7.00e-07	0	44	0	543162368	21	4573
2026-01-21 08:03:05.96	32.08	18.21	-29.8	-31.8	14.3	7.00e-07	0	44	0	548405248	21	4527
2026-01-21 08:03:08.96	31.38	18.17	-29.8	-32.2	14.4	1.50e-06	0	44	0	553648128	20	4762
2026-01-21 08:03:11.97	30.68	18.12	-29.9	-32.6	14.1	0.00e+00	0	44	0	559939584	20	4911
2026-01-21 08:03:14.99	29.98	18.06	-29.8	-32.3	14.3	3.00e-06	0	44	0	565182464	20	4797
2026-01-21 08:03:18.01	29.29	18.00	-30.1	-33.1	13.8	3.00e-06	0	44	0	571473920	20	5063
2026-01-21 08:03:21.03	28.59	17.94	-30.0	-32.7	14.0	0.00e+00	0	44	0	576716800	20	4935
2026-01-21 08:03:24.04	27.90	17.87	-30.0	-32.9	13.9	1.50e-06	0	44	0	581959680	20	5007
2026-01-21 08:03:27.05	27.22	17.80	-30.0	-32.8	14.0	2.20e-06	0	44	0	588251136	20	4972
2026-01-21 08:03:30.06	26.54	17.73	-30.1	-33.0	13.8	3.00e-06	0	44	0	593494016	20	5045
2026-01-21 08:03:33.07	25.86	17.65	-30.2	-33.2	13.7	4.50e-06	0	44	0	598736896	20	5128
2026-01-21 08:03:36.09	25.18	17.56	-30.2	-33.4	13.6	1.37e-05	0	44	0	605028352	20	5196
2026-01-21 08:03:39.08	24.52	17.48	-30.2	-33.2	13.6	4.50e-06	0	44	0	610271232	20	5127
2026-01-21 08:03:42.09	23.85	17.39	-30.3	-33.8	13.3	2.13e-05	0	44	0	616562688	20	5341
2026-01-21 08:03:45.10	23.19	17.29	-30.4	-34.0	13.1	3.12e-05	0	44	0	621805568	20	5448
2026-01-21 08:03:48.11	22.53	17.20	-30.4	-33.4	13.2	3.89e-05	0	44	0	627048448	21	5089
2026-01-21 08:03:51.11	21.87	17.09	-30.3	-33.0	13.4	1.14e-05	0	44	0	633339904	21	4951
2026-01-21 08:03:54.13	21.22	16.99	-30.3	-33.2	13.3	1.52e-05	0	44	0	638582784	21	5026
2026-01-21 08:03:57.14	20.58	16.88	-30.4	-33.4	13.2	3.81e-05	0	44	0	643825664	21	5073
2026-01-21 08:04:00.15	19.94	16.77	-30.3	-33.0	13.4	1.75e-05	0	44	0	650117120	21	4954
2026-01-21 08:04:03.16	19.30	16.66	-30.4	-33.4	13.2	2.28e-05	0	44	0	655360000	21	5097
2026-01-21 08:04:06.18	18.67	16.54	-30.3	-33.2	13.4	1.67e-05	0	44	0	661651456	21	4996
2026-01-21 08:04:09.17	18.05	16.42	-30.3	-33.0	13.4	1.14e-05	0	44	0	666894336	21	4962
2026-01-21 08:04:12.18	17.43	16.30	-30.5	-33.7	12.9	4.73e-05	0	44	0	672137216	21	5209
2026-01-21 08:04:15.19	16.81	16.17	-30.8	-34.6	12.4	1.56e-04	0	44	0	678428672	21	5572
2026-01-21 08:04:18.20	16.20	16.04	-30.7	-34.3	12.5	1.36e-04	0	44	0	683671552	21	5475
2026-01-21 08:04:21.20	15.60	15.91	-30.6	-34.1	12.7	1.14e-04	0	44	0	688914432	21	5383
2026-01-21 08:04:24.22	15.00	15.78	-30.6	-34.1	12.7	7.85e-05	0	44	0	695205888	21	5364
2026-01-21 08:04:27.23	14.40	15.64	-30.7	-34.2	12.6	9.61e-05	0	44	0	700448768	21	5423
2026-01-21 08:04:30.23	13.82	15.51	-30.6	-34.1	12.7	8.01e-05	0	44	0	706740224	21	5363
2026-01-21 08:04:33.24	13.24	15.37	-30.6	-34.1	12.6	8.08e-05	0	44	0	711983104	21	5356
2026-01-21 08:04:36.26	12.66	15.22	-30.6	-34.2	12.6	9.46e-05	0	44	0	717225984	21	5394
2026-01-21 08:04:39.27	12.09	15.08	-30.8	-34.5	12.3	1.81e-04	0	44	0	723517440	21	5564
2026-01-21 08:04:42.27	11.52	14.93	-30.8	-34.8	12.1	2.46e-04	0	44	0	728760320	21	5674
2026-01-21 08:04:45.28	10.96	14.79	-30.9	-34.9	12.0	3.11e-04	0	44	0	735051776	21	5739
2026-01-21 08:04:48.28	10.41	14.64	-31.0	-34.8	11.8	4.99e-04	0	44	0	740294656	22	5551
2026-01-21 08:04:51.29	9.86	14.48	-30.8	-34.2	12.2	1.91e-04	0	44	0	745537536	22	5291
2026-01-21 08:04:54.29	9.32	14.33	-31.0	-34.8	11.8	3.91e-04	0	44	0	751828992	22	5551
2026-01-21 08:04:57.30	8.78	14.18	-31.2	-35.3	11.4	9.23e-04	0	44	0	757071872	22	5773
2026-01-21 08:05:00.31	8.25	14.02	-31.2	-35.3	11.4	1.03e-03	0	44	0	762314752	22	5784
2026-01-21 08:05:03.32	7.72	13.86	-31.2	-35.4	11.3	1.22e-03	0	44	0	768606208	22	5851
2026-01-21 08:05:06.33	7.20	13.70	-31.3	-35.6	11.1	1.39e-03	0	44	0	773849088	22	5937
2026-01-21 08:05:09.33	6.69	13.54	-31.2	-35.3	11.3	1.03e-03	0	44	0	780140544	22	5814
2026-01-21 08:05:12.34	6.18	13.38	-31.1	-35.1	11.4	8.54e-04	0	44	0	785383424	22	5731
2026-01-21 08:05:15.36	5.68	13.22	-31.2	-35.4	11.2	1.06e-03	0	44	0	790626304	22	5866
2026-01-21 08:05:18.37	5.18	13.05	-31.2	-35.3	11.3	1.17e-03	0	44	0	796917760	22	5815
2026-01-21 08:05:21.39	4.69	12.89	-31.2	-35.5	11.1	1.82e-03	0	44	0	802160640	22	5913
2026-01-21 08:05:24.38	4.20	12.72	-31.0	-35.0	11.5	7.90e-04	0	44	0	807403520	22	5656
2026-01-21 08:05:27.39	3.72	12.56	-31.0	-34.8	11.6	5.84e-04	0	44	0	813694976	22	5594
2026-01-21 08:05:30.40	3.25	12.39	-30.8	-34.3	12.0	3.62e-04	0	44	0	818937856	22	5356
2026-01-21 08:05:33.40	2.78	12.22	-30.7	-34.0	12.1	2.66e-04	0	44	0	825229312	22	5256
2026-01-21 08:05:36.41	2.31	12.05	-30.7	-34.0	12.1	2.63e-04	0	44	0	830472192	22	5264
2026-01-21 08:05:39.42	1.86	11.88	-30.8	-34.3	11.9	4.08e-04	0	44	0	835715072	22	5392
2026-01-21 08:05:42.43	1.40	11.71	-30.8	-34.3	11.9	4.26e-04	0	44	0	842006528	22	5404
2026-01-21 08:05:45.45	0.95	11.54	-30.6	-33.8	12.3	1.65e-04	0	44	0	847249408	22	5166
2026-01-21 08:05:48.46	0.51	11.37	-30.4	-33.1	12.7	9.15e-05	0	44	0	853540864	22	4929
2026-01-21 08:05:51.47	0.07	11.20	-30.4	-33.0	12.8	6.48e-05	0	44	0	858783744	22	4892
2026-01-21 08:05:54.47	359.64	11.02	-30.5	-33.3	12.5	1.32e-04	0	44	0	864026624	22	5005
2026-01-21 08:05:57.47	359.22	10.85	-30.4	-33.1	12.6	8.62e-05	0	44	0	870318080	22	4928
2026-01-21 08:06:00.48	358.79	10.68	-30.2	-33.0	13.0	4.19e-05	0	44	0	875560960	21	4996
2026-01-21 08:06:03.49	358.38	10.51	-30.1	-32.8	13.1	2.28e-05	0	44	0	880803840	21	4902
2026-01-21 08:06:06.49	357.97	10.33	-30.2	-33.1	12.9	5.64e-05	0	44	0	887095296	21	5030
2026-01-21 08:06:09.49	357.56	10.16	-30.2	-33.2	12.8	6.17e-05	0	44	0	892338176	21	5081
2026-01-21 08:06:12.51	357.16	9.99	-30.3	-33.6	12.5	8.85e-05	0	44	0	897581056	21	5221
2026-01-21 08:06:15.52	356.76	9.81	-30.5	-34.2	12.1	2.40e-04	0	44	0	903872512	21	5473
2026-01-21 08:06:18.54	356.37	9.64	-30.5	-34.1	12.1	2.28e-04	0	44	0	909115392	21	5463
2026-01-21 08:06:21.55	355.98	9.46	-30.6	-34.5	11.8	4.78e-04	0	44	0	915406848	21	5634
2026-01-21 08:06:24.55	355.60	9.29	-30.6	-34.3	12.0	4.11e-04	0	44	0	920649728	21	5543
2026-01-21 08:06:27.56	355.22	9.11	-30.4	-33.7	12.3	2.14e-04	0	44	0	925892608	21	5286
2026-01-21 08:06:30.55	354.85	8.94	-30.2	-33.3	12.7	1.37e-04	0	44	0	932184064	21	5115
2026-01-21 08:06:33.56	354.48	8.77	-30.3	-33.4	12.5	8.39e-05	0	44	0	937426944	21	5184
2026-01-21 08:06:36.57	354.12	8.59	-30.4	-33.7	12.2	1.72e-04	0	44	0	943718400	21	5315
2026-01-21 08:06:39.56	353.76	8.42	-30.4	-33.9	12.1	2.37e-04	0	44	0	948961280	21	5380
2026-01-21 08:06:42.57	353.40	8.25	-30.5	-34.3	11.8	3.76e-04	0	44	0	954204160	21	5554
2026-01-21 08:06:45.57	353.05	8.07	-30.6	-34.6	11.5	6.88e-04	0	44	0	960495616	21	5700
2026-01-21 08:06:48.57	352.71	7.90	-30.8	-35.0	11.3	1.33e-03	0	44	0	965738496	21	5862
2026-01-21 08:06:51.58	352.36	7.73	-30.8	-35.0	11.2	1.24e-03	0	44	0	970981376	21	5891
2026-01-21 08:06:54.59	352.03	7.55	-30.8	-35.1	11.1	1.35e-03	0	44	0	977272832	21	5952
2026-01-21 08:06:57.59	351.69	7.38	-30.8	-35.3	11.0	1.89e-03	0	44	0	982515712	21	6027
2026-01-21 08:07:00.59	351.36	7.21	-30.9	-35.4	10.8	2.24e-03	0	44	0	987758592	21	6104
2026-01-21 08:07:03.59	351.04	7.04	-33.0	-45.4	4.1	5.00e-03	0	44	0	994050048	25	14961

#Closed at: 2026-01-21 08:07:06
#Recorded file [994 MB]: D:/data/31010_260121_105813.dat