passes_logs/2026/01/21/R2M6_AANII_01/R2M6_AANII_01__20260121_052452_FENGYUN_3E_rec.log

#Pass ID: 20260121_052452_FENGYUN 3E
#Satellite: FENGYUN 3E
#Configuration: FENGYUN 3E
#almurnet v.1.7.20240730
#Start time: 2026-01-21 05:24:53

#Version: 2.2.20231116
#Station: R2M6_AANII_01
#Location: 30.233357 lon 59.946436 lat
#TLE: 1 49008U 21062A   26020.29079360  .00000161  00000+0  96807-4 0  9999
#TLE: 2 49008  98.7481  25.3569 0002259 127.4136 232.7246 14.19885851235592

#Time	Az	El	Level	Level2	SNR	BER	BlckErr	Temp	State	Recorded	gain1	gain2
2026-01-21 05:24:53.20	14.38	7.07	-29.9	-32.3	5.2	7.87e-01	0	42	0	0	20	4738
2026-01-21 05:24:56.20	14.26	7.30	-30.2	-32.9	8.3	6.92e-02	0	42	0	7340032	20	4924
2026-01-21 05:24:59.22	14.14	7.53	-30.1	-32.6	8.6	4.28e-02	0	42	0	28311552	20	4799
2026-01-21 05:25:02.22	14.03	7.75	-28.8	-30.6	11.0	2.73e-03	0	42	0	50331648	17	4450
2026-01-21 05:25:05.23	13.90	7.99	-27.5	-29.1	12.7	7.32e-05	0	42	0	72351744	14	4312
2026-01-21 05:25:08.24	13.78	8.22	-26.9	-28.1	13.6	4.04e-04	0	42	0	93323264	13	4145
2026-01-21 05:25:11.24	13.65	8.46	-26.9	-28.1	13.6	4.40e-04	0	42	0	115343360	13	4160
2026-01-21 05:25:14.25	13.52	8.69	-26.9	-28.2	13.6	1.02e-05	0	42	0	137363456	13	4179
2026-01-21 05:25:17.26	13.39	8.93	-26.8	-28.1	13.7	3.40e-06	0	42	0	159383552	13	4143
2026-01-21 05:25:20.27	13.26	9.18	-26.8	-27.9	13.8	8.00e-06	0	43	0	180355072	13	4097
2026-01-21 05:25:23.27	13.12	9.42	-26.6	-27.4	14.1	3.40e-06	0	43	0	202375168	13	3964
2026-01-21 05:25:26.29	12.99	9.67	-26.6	-27.4	14.1	1.10e-06	0	43	0	224395264	13	3971
2026-01-21 05:25:29.30	12.84	9.92	-26.7	-27.8	13.9	2.20e-06	0	43	0	246415360	13	4072
2026-01-21 05:25:32.32	12.70	10.17	-26.7	-27.7	14.0	4.50e-06	0	43	0	267386880	13	4039
2026-01-21 05:25:35.34	12.55	10.43	-26.6	-27.4	14.2	0.00e+00	0	43	0	289406976	13	3959
2026-01-21 05:25:38.35	12.40	10.68	-26.6	-27.4	14.2	2.20e-06	0	43	0	311427072	13	3965
2026-01-21 05:25:41.36	12.25	10.94	-26.5	-27.3	14.2	4.50e-06	0	43	0	333447168	13	3945
2026-01-21 05:25:44.37	12.10	11.20	-26.6	-27.9	14.2	2.20e-06	0	43	0	354418688	12	4207
2026-01-21 05:25:47.38	11.94	11.47	-26.6	-27.4	14.2	4.50e-06	0	43	0	376438784	13	3958
2026-01-21 05:25:50.38	11.78	11.73	-26.3	-27.3	14.5	0.00e+00	0	43	0	398458880	12	4034
2026-01-21 05:25:53.39	11.61	12.00	-26.3	-27.2	14.6	0.00e+00	0	43	0	419430400	12	4016
2026-01-21 05:25:56.40	11.45	12.27	-26.2	-27.0	14.8	1.10e-06	0	43	0	441450496	12	3962
2026-01-21 05:25:59.40	11.28	12.55	-26.1	-26.9	14.8	0.00e+00	0	43	0	463470592	12	3944
2026-01-21 05:26:02.40	11.10	12.83	-26.0	-26.6	15.0	1.10e-06	0	43	0	484442112	12	3870
2026-01-21 05:26:05.41	10.92	13.11	-26.0	-27.1	15.1	0.00e+00	0	43	0	506462208	11	4074
2026-01-21 05:26:08.42	10.74	13.39	-25.8	-26.6	15.4	0.00e+00	0	43	0	528482304	11	3948
2026-01-21 05:26:11.42	10.56	13.68	-25.8	-26.6	15.4	0.00e+00	0	43	0	549453824	11	3964
2026-01-21 05:26:14.43	10.37	13.97	-25.8	-26.6	15.5	0.00e+00	0	43	0	571473920	11	3953
2026-01-21 05:26:17.45	10.17	14.26	-25.6	-26.3	15.6	0.00e+00	0	44	0	593494016	11	3880
2026-01-21 05:26:20.45	9.98	14.56	-25.5	-26.0	13.6	0.00e+00	0	44	0	615514112	11	3808
2026-01-21 05:26:23.47	9.77	14.86	-25.5	-26.0	15.8	0.00e+00	0	44	0	636485632	11	3814
2026-01-21 05:26:26.48	9.57	15.16	-25.4	-26.3	16.0	1.61e-03	0	44	0	658505728	10	3985
2026-01-21 05:26:29.50	9.36	15.47	-25.4	-26.3	15.9	0.00e+00	0	44	0	680525824	10	3995
2026-01-21 05:26:32.50	9.14	15.78	-25.3	-26.1	16.1	0.00e+00	0	44	0	702545920	10	3938
2026-01-21 05:26:35.52	8.92	16.09	-25.3	-26.0	16.2	1.51e-03	0	44	0	723517440	10	3914
2026-01-21 05:26:38.53	8.70	16.41	-25.1	-25.7	16.3	1.47e-03	0	44	0	745537536	10	3846
2026-01-21 05:26:41.55	8.47	16.73	-24.8	-25.6	16.7	1.52e-03	0	44	0	767557632	9	3917
2026-01-21 05:26:44.56	8.23	17.05	-24.8	-25.5	16.7	1.56e-03	0	44	0	789577728	9	3890
2026-01-21 05:26:47.55	7.99	17.38	-24.8	-25.4	16.7	0.00e+00	0	44	0	810549248	9	3887
2026-01-21 05:26:50.57	7.75	17.71	-24.8	-25.5	16.7	1.51e-03	0	44	0	832569344	9	3900
2026-01-21 05:26:53.58	7.49	18.05	-24.5	-24.9	17.1	1.41e-03	0	44	0	854589440	9	3749
2026-01-21 05:26:56.58	7.24	18.39	-24.6	-25.5	17.0	1.34e-03	0	44	0	875560960	8	3997
2026-01-21 05:26:59.60	6.97	18.73	-24.6	-25.5	17.0	0.00e+00	0	44	0	897581056	8	4000
2026-01-21 05:27:02.61	6.70	19.08	-24.6	-25.1	17.0	0.00e+00	0	44	0	919601152	9	3798
2026-01-21 05:27:05.62	6.43	19.44	-24.5	-24.9	17.1	0.00e+00	0	44	0	941621248	9	3750
2026-01-21 05:27:08.63	6.14	19.79	-24.7	-25.2	16.9	0.00e+00	0	44	0	962592768	9	3818
2026-01-21 05:27:11.64	5.85	20.15	-24.3	-24.9	17.4	0.00e+00	0	44	0	984612864	8	3852
2026-01-21 05:27:14.66	5.55	20.52	-24.1	-24.5	17.5	0.00e+00	0	44	0	1006632960	8	3776
2026-01-21 05:27:17.67	5.25	20.89	-24.1	-24.6	17.6	0.00e+00	0	44	0	1028653056	8	3781
2026-01-21 05:27:20.67	4.94	21.27	-24.0	-24.3	17.7	0.00e+00	0	44	0	1049624576	8	3721
2026-01-21 05:27:23.68	4.61	21.65	-23.9	-24.1	17.8	0.00e+00	0	44	0	1071644672	8	3682
2026-01-21 05:27:26.68	4.29	22.03	-24.3	-24.9	17.4	0.00e+00	0	44	0	1092616192	8	3867
2026-01-21 05:27:29.68	3.95	22.42	-24.3	-25.0	17.4	0.00e+00	0	44	0	1114636288	8	3876
2026-01-21 05:27:32.69	3.60	22.81	-24.3	-25.0	17.4	0.00e+00	0	44	0	1136656384	8	3883
2026-01-21 05:27:35.70	3.25	23.21	-24.2	-24.7	17.5	0.00e+00	0	44	0	1157627904	8	3818
2026-01-21 05:27:38.70	2.88	23.62	-24.3	-24.9	17.5	0.00e+00	0	44	0	1179648000	8	3862
2026-01-21 05:27:41.71	2.51	24.03	-24.5	-25.3	17.3	0.00e+00	0	44	0	1201668096	8	3953
2026-01-21 05:27:44.71	2.12	24.44	-24.5	-24.8	17.3	0.00e+00	0	44	0	1223688192	9	3729
2026-01-21 05:27:47.73	1.72	24.86	-24.5	-25.3	17.3	0.00e+00	0	44	0	1244659712	8	3946
2026-01-21 05:27:50.74	1.32	25.29	-24.4	-25.1	17.4	0.00e+00	0	44	0	1266679808	8	3916
2026-01-21 05:27:53.74	0.90	25.71	-24.2	-24.7	17.6	0.00e+00	0	44	0	1288699904	8	3811
2026-01-21 05:27:56.74	0.47	26.15	-24.2	-24.2	17.7	0.00e+00	0	44	0	1309671424	9	3594
2026-01-21 05:27:59.76	0.02	26.59	-23.6	-24.0	18.2	0.00e+00	0	44	0	1331691520	7	3748
2026-01-21 05:28:02.78	359.57	27.04	-23.0	-23.1	15.1	0.00e+00	0	44	0	1353711616	7	3658
2026-01-21 05:28:05.79	359.10	27.49	-23.4	-23.4	18.5	0.00e+00	0	44	0	1375731712	7	3625
2026-01-21 05:28:08.80	358.61	27.95	-23.6	-23.9	18.3	1.24e-03	0	44	0	1397751808	7	3724
2026-01-21 05:28:11.81	358.12	28.41	-23.8	-24.3	18.1	1.32e-03	0	44	0	1418723328	7	3824
2026-01-21 05:28:14.82	357.60	28.88	-23.7	-24.1	18.2	1.10e-03	0	44	0	1440743424	7	3770
2026-01-21 05:28:17.82	357.08	29.35	-24.1	-24.5	17.7	0.00e+00	0	44	0	1462763520	8	3765
2026-01-21 05:28:20.83	356.53	29.83	-23.7	-24.1	18.2	1.21e-03	0	44	0	1483735040	7	3778
2026-01-21 05:28:23.84	355.97	30.31	-24.1	-24.4	17.8	8.07e-04	0	44	0	1505755136	8	3745
2026-01-21 05:28:26.85	355.39	30.80	-24.2	-24.6	17.7	9.28e-04	0	44	0	1527775232	8	3786
2026-01-21 05:28:29.86	354.80	31.29	-24.2	-24.6	17.7	9.37e-04	0	44	0	1549795328	8	3785
2026-01-21 05:28:32.86	354.18	31.79	-23.9	-24.1	18.1	0.00e+00	0	44	0	1570766848	8	3666
2026-01-21 05:28:35.87	353.55	32.29	-23.6	-24.0	18.3	0.00e+00	0	44	0	1592786944	7	3756
2026-01-21 05:28:38.88	352.89	32.80	-23.8	-23.9	18.2	8.79e-04	0	44	0	1614807040	8	3624
2026-01-21 05:28:41.88	352.22	33.31	-23.8	-24.2	18.2	8.56e-04	0	44	0	1635778560	7	3810
2026-01-21 05:28:44.89	351.52	33.82	-23.9	-24.5	18.1	9.61e-04	0	44	0	1657798656	7	3861
2026-01-21 05:28:47.90	350.80	34.34	-23.9	-24.1	18.1	0.00e+00	0	44	0	1678770176	8	3672
2026-01-21 05:28:50.91	350.05	34.86	-23.6	-24.0	18.3	0.00e+00	0	44	0	1700790272	7	3750
2026-01-21 05:28:53.93	349.28	35.39	-23.7	-24.2	18.2	0.00e+00	0	44	0	1722810368	7	3799
2026-01-21 05:28:56.94	348.48	35.91	-23.7	-24.0	18.3	0.00e+00	0	44	0	1744830464	7	3756
2026-01-21 05:28:59.95	347.66	36.44	-23.6	-24.0	18.3	0.00e+00	0	44	0	1766850560	7	3755
2026-01-21 05:29:02.96	346.81	36.98	-23.4	-23.5	18.6	0.00e+00	0	44	0	1787822080	7	3638
2026-01-21 05:29:05.96	345.94	37.51	-23.7	-24.0	18.3	0.00e+00	0	44	0	1809842176	7	3754
2026-01-21 05:29:08.98	345.03	38.04	-23.5	-23.6	18.6	0.00e+00	0	44	0	1831862272	7	3669
2026-01-21 05:29:12.00	344.09	38.58	-23.6	-24.0	18.4	0.00e+00	0	44	0	1853882368	7	3746
2026-01-21 05:29:15.02	343.11	39.11	-23.8	-24.3	18.3	0.00e+00	0	44	0	1874853888	7	3811
2026-01-21 05:29:18.03	342.11	39.64	-23.5	-23.7	18.5	0.00e+00	0	44	0	1896873984	7	3686
2026-01-21 05:29:21.04	341.07	40.17	-23.7	-24.1	18.3	0.00e+00	0	44	0	1918894080	7	3783
2026-01-21 05:29:24.05	340.00	40.70	-24.1	-24.9	17.9	0.00e+00	0	44	0	1940914176	7	3972
2026-01-21 05:29:27.06	338.90	41.22	-24.4	-25.2	17.6	0.00e+00	0	44	0	1961885696	8	3919
2026-01-21 05:29:30.07	337.75	41.73	-24.0	-24.3	18.0	0.00e+00	0	44	0	1983905792	8	3713
2026-01-21 05:29:33.07	336.58	42.24	-23.5	-23.8	18.5	0.00e+00	0	44	0	2005925888	7	3710
2026-01-21 05:29:36.06	335.37	42.74	-23.7	-24.2	18.3	0.00e+00	0	44	0	2026897408	7	3794
2026-01-21 05:29:39.07	334.11	43.24	-23.7	-24.1	18.4	0.00e+00	0	44	0	2048917504	7	3777
2026-01-21 05:29:42.09	332.81	43.72	-23.6	-24.0	18.4	0.00e+00	0	44	0	2070937600	7	3750
2026-01-21 05:29:45.10	331.47	44.20	-24.0	-24.7	18.0	0.00e+00	0	44	0	2091909120	7	3914
2026-01-21 05:29:48.10	330.10	44.66	-23.6	-23.8	18.5	0.00e+00	0	44	0	2113929216	7	3708
2026-01-21 05:29:51.10	328.69	45.10	-23.7	-24.1	18.4	0.00e+00	0	44	0	2135949312	7	3779
2026-01-21 05:29:54.11	327.24	45.53	-24.1	-24.5	18.0	0.00e+00	0	44	0	2157969408	8	3752
2026-01-21 05:29:57.12	325.74	45.95	-24.2	-24.6	17.9	0.00e+00	0	44	0	2178940928	8	3784
2026-01-21 05:30:00.13	324.20	46.35	-24.0	-24.2	18.1	0.00e+00	0	44	0	2200961024	8	3688
2026-01-21 05:30:03.15	322.62	46.73	-24.3	-24.8	17.8	0.00e+00	0	44	0	2222981120	8	3824
2026-01-21 05:30:06.17	321.01	47.09	-24.1	-24.4	18.0	0.00e+00	0	44	0	2245001216	8	3736
2026-01-21 05:30:09.17	319.36	47.42	-24.4	-25.1	17.6	0.00e+00	0	44	0	2265972736	8	3911
2026-01-21 05:30:12.18	317.68	47.73	-24.2	-24.6	17.9	0.00e+00	0	44	0	2287992832	8	3787
2026-01-21 05:30:15.19	315.96	48.02	-24.3	-24.8	17.8	0.00e+00	0	44	0	2308964352	8	3835
2026-01-21 05:30:18.19	314.22	48.27	-24.6	-24.9	17.5	0.00e+00	0	44	0	2330984448	9	3750
2026-01-21 05:30:21.20	312.45	48.51	-24.7	-25.2	17.4	0.00e+00	0	44	0	2353004544	9	3813
2026-01-21 05:30:24.21	310.65	48.71	-24.2	-24.2	17.9	0.00e+00	0	44	0	2375024640	9	3592
2026-01-21 05:30:27.21	308.83	48.88	-24.5	-24.8	17.5	0.00e+00	0	44	0	2395996160	9	3733
2026-01-21 05:30:30.23	306.98	49.02	-24.6	-25.1	17.5	0.00e+00	0	44	0	2418016256	9	3790
2026-01-21 05:30:33.24	305.13	49.13	-24.3	-24.5	17.7	0.00e+00	0	44	0	2440036352	9	3645
2026-01-21 05:30:36.24	303.27	49.20	-25.0	-25.8	17.1	0.00e+00	0	44	0	2461007872	9	3960
2026-01-21 05:30:39.25	301.39	49.25	-24.7	-25.3	17.3	0.00e+00	0	44	0	2483027968	9	3839
2026-01-21 05:30:42.26	299.51	49.26	-24.7	-25.3	17.3	0.00e+00	0	44	0	2505048064	9	3844
2026-01-21 05:30:45.27	297.63	49.24	-24.7	-25.3	17.4	0.00e+00	0	44	0	2527068160	9	3831
2026-01-21 05:30:48.27	295.77	49.18	-24.1	-24.0	18.0	0.00e+00	0	44	0	2548039680	9	3544
2026-01-21 05:30:51.29	293.89	49.09	-24.5	-24.8	17.6	0.00e+00	0	44	0	2570059776	9	3732
2026-01-21 05:30:54.29	292.05	48.97	-24.6	-25.1	17.5	0.00e+00	0	44	0	2592079872	9	3787
2026-01-21 05:30:57.29	290.22	48.82	-24.8	-25.5	17.2	0.00e+00	0	44	0	2613051392	9	3895
2026-01-21 05:31:00.29	288.41	48.64	-24.6	-25.0	17.5	0.00e+00	0	44	0	2635071488	9	3772
2026-01-21 05:31:03.29	286.62	48.43	-24.3	-24.4	17.6	0.00e+00	0	44	0	2657091584	9	3636
2026-01-21 05:31:06.30	284.85	48.19	-24.3	-24.3	17.8	0.00e+00	0	44	0	2678063104	9	3621
2026-01-21 05:31:09.31	283.11	47.92	-24.4	-25.0	17.7	0.00e+00	0	44	0	2700083200	8	3876
2026-01-21 05:31:12.32	281.40	47.63	-24.5	-24.8	17.6	0.00e+00	0	44	0	2722103296	9	3729
2026-01-21 05:31:15.33	279.73	47.31	-24.1	-24.4	18.0	0.00e+00	0	44	0	2744123392	8	3737
2026-01-21 05:31:18.35	278.09	46.96	-24.2	-24.7	17.9	0.00e+00	0	44	0	2765094912	8	3802
2026-01-21 05:31:21.36	276.48	46.60	-24.4	-25.1	17.7	0.00e+00	0	44	0	2787115008	8	3897
2026-01-21 05:31:24.37	274.92	46.21	-23.9	-24.0	18.3	0.00e+00	0	44	0	2809135104	8	3648
2026-01-21 05:31:27.38	273.39	45.80	-24.1	-24.4	18.0	0.00e+00	0	44	0	2831155200	8	3747
2026-01-21 05:31:30.40	271.90	45.38	-23.5	-23.3	18.6	0.00e+00	0	44	0	2852126720	8	3497
2026-01-21 05:31:33.39	270.47	44.94	-23.3	-23.7	16.9	0.00e+00	0	44	0	2874146816	7	3794
2026-01-21 05:31:36.41	269.06	44.49	-23.9	-24.6	18.1	0.00e+00	0	44	0	2896166912	7	3887
2026-01-21 05:31:39.41	267.70	44.02	-24.1	-24.5	17.9	1.33e-03	0	44	0	2917138432	8	3759
2026-01-21 05:31:42.42	266.37	43.54	-24.0	-24.3	18.0	1.16e-03	0	44	0	2939158528	8	3717
2026-01-21 05:31:45.43	265.09	43.05	-23.3	-23.8	18.7	1.15e-03	0	44	0	2961178624	6	3813
2026-01-21 05:31:48.44	263.84	42.55	-23.6	-24.0	18.4	0.00e+00	0	44	0	2982150144	7	3755
2026-01-21 05:31:51.45	262.63	42.04	-23.5	-23.7	18.5	1.27e-03	0	44	0	3004170240	7	3687
2026-01-21 05:31:54.45	261.47	41.53	-23.7	-24.1	18.3	1.58e-03	0	44	0	3026190336	7	3784
2026-01-21 05:31:57.47	260.33	41.01	-23.7	-24.2	18.2	1.28e-03	0	44	0	3048210432	7	3808
2026-01-21 05:32:00.47	259.24	40.49	-23.7	-24.2	18.2	1.29e-03	0	44	0	3069181952	7	3801
2026-01-21 05:32:03.47	258.18	39.96	-23.6	-24.0	18.4	1.42e-03	0	44	0	3091202048	7	3748
2026-01-21 05:32:06.48	257.15	39.43	-23.9	-24.5	18.1	0.00e+00	0	44	0	3113222144	7	3862
2026-01-21 05:32:09.49	256.16	38.89	-23.4	-23.6	18.6	0.00e+00	0	44	0	3134193664	7	3656
2026-01-21 05:32:12.50	255.20	38.36	-23.3	-23.8	18.6	1.43e-03	0	44	0	3156213760	6	3814
2026-01-21 05:32:15.50	254.27	37.83	-23.5	-24.3	18.4	0.00e+00	0	44	0	3178233856	6	3920
2026-01-21 05:32:18.50	253.37	37.29	-23.7	-24.1	18.2	0.00e+00	0	44	0	3200253952	7	3789
2026-01-21 05:32:21.51	252.50	36.76	-23.4	-23.4	18.6	0.00e+00	0	44	0	3221225472	7	3631
2026-01-21 05:32:24.52	251.66	36.23	-23.2	-23.5	18.8	0.00e+00	0	44	0	3243245568	6	3748
2026-01-21 05:32:27.53	250.84	35.69	-23.1	-23.4	18.8	0.00e+00	0	44	0	3265265664	6	3711
2026-01-21 05:32:30.54	250.05	35.17	-23.6	-24.0	18.3	0.00e+00	0	44	0	3286237184	7	3744
2026-01-21 05:32:33.56	249.28	34.64	-24.2	-24.7	17.6	0.00e+00	0	44	0	3308257280	8	3817
2026-01-21 05:32:36.57	248.54	34.11	-23.9	-24.0	18.1	0.00e+00	0	45	0	3330277376	8	3644
2026-01-21 05:32:39.57	247.83	33.60	-23.1	-22.9	18.8	0.00e+00	0	45	0	3352297472	7	3525
2026-01-21 05:32:42.57	247.14	33.08	-23.4	-24.0	18.5	0.00e+00	0	44	0	3373268992	6	3865
2026-01-21 05:32:45.59	246.46	32.57	-23.7	-24.2	18.1	0.00e+00	0	44	0	3395289088	7	3809
2026-01-21 05:32:48.61	245.81	32.06	-23.3	-23.8	18.6	0.00e+00	0	44	0	3417309184	6	3817
2026-01-21 05:32:51.61	245.18	31.56	-23.1	-23.4	18.7	0.00e+00	0	44	0	3439329280	6	3734
2026-01-21 05:32:54.61	244.57	31.06	-23.3	-23.8	18.5	0.00e+00	0	44	0	3460300800	6	3812
2026-01-21 05:32:57.62	243.98	30.57	-23.0	-23.3	18.8	0.00e+00	0	44	0	3482320896	6	3690
2026-01-21 05:33:00.64	243.40	30.08	-23.2	-23.7	18.6	0.00e+00	0	44	0	3503292416	6	3797
2026-01-21 05:33:03.64	242.85	29.60	-23.5	-24.3	18.3	0.00e+00	0	44	0	3525312512	6	3941
2026-01-21 05:33:06.65	242.31	29.12	-23.7	-24.2	18.1	0.00e+00	0	44	0	3547332608	7	3793
2026-01-21 05:33:09.65	241.78	28.65	-23.8	-24.4	17.9	0.00e+00	0	44	0	3569352704	7	3846
2026-01-21 05:33:12.66	241.27	28.18	-23.7	-24.1	18.1	0.00e+00	0	44	0	3590324224	7	3770
2026-01-21 05:33:15.67	240.78	27.72	-23.7	-24.1	18.1	0.00e+00	0	44	0	3612344320	7	3775
2026-01-21 05:33:18.68	240.30	27.26	-24.1	-25.0	17.6	0.00e+00	0	45	0	3634364416	7	3981
2026-01-21 05:33:21.69	239.83	26.81	-24.3	-24.4	17.4	0.00e+00	0	44	0	3655335936	9	3655
2026-01-21 05:33:24.71	239.38	26.36	-24.3	-24.5	17.4	0.00e+00	0	44	0	3677356032	9	3659
2026-01-21 05:33:27.72	238.93	25.92	-23.9	-23.6	17.8	4.23e-05	0	44	0	3699376128	9	3476
2026-01-21 05:33:30.72	238.51	25.48	-23.6	-24.0	18.1	6.13e-04	0	44	0	3721396224	7	3749
2026-01-21 05:33:33.73	238.09	25.05	-23.4	-24.0	18.3	8.03e-04	0	44	0	3742367744	6	3851
2026-01-21 05:33:36.75	237.68	24.63	-23.4	-23.9	18.3	2.77e-04	0	44	0	3764387840	6	3850
2026-01-21 05:33:39.76	237.29	24.21	-23.4	-24.0	18.3	1.10e-06	0	44	0	3786407936	6	3858
2026-01-21 05:33:42.77	236.90	23.79	-23.6	-24.4	18.1	0.00e+00	0	44	0	3808428032	6	3962
2026-01-21 05:33:45.77	236.53	23.38	-23.9	-24.7	17.7	2.09e-04	0	44	0	3829399552	7	3917
2026-01-21 05:33:48.77	236.17	22.98	-24.2	-24.8	17.4	6.13e-04	0	44	0	3851419648	8	3845
2026-01-21 05:33:51.78	235.81	22.58	-23.8	-24.4	17.8	0.00e+00	0	44	0	3873439744	7	3849
2026-01-21 05:33:54.80	235.46	22.19	-23.9	-24.5	17.7	0.00e+00	0	44	0	3895459840	7	3869
2026-01-21 05:33:57.80	235.13	21.80	-23.8	-24.3	17.9	0.00e+00	0	44	0	3916431360	7	3818
2026-01-21 05:34:00.81	234.80	21.41	-23.9	-24.6	17.7	0.00e+00	0	44	0	3938451456	7	3896
2026-01-21 05:34:03.81	234.48	21.04	-24.0	-24.8	17.6	0.00e+00	0	44	0	3960471552	7	3932
2026-01-21 05:34:06.82	234.17	20.66	-24.2	-24.7	17.4	0.00e+00	0	45	0	3981443072	8	3807
2026-01-21 05:34:09.84	233.86	20.29	-24.3	-24.9	17.2	0.00e+00	0	44	0	4003463168	8	3871
2026-01-21 05:34:12.85	233.56	19.92	-24.6	-25.5	16.9	0.00e+00	0	44	0	4025483264	8	4014
2026-01-21 05:34:15.85	233.28	19.56	-24.6	-25.1	16.9	0.00e+00	0	44	0	4047503360	9	3810
2026-01-21 05:34:18.86	232.99	19.20	-24.7	-25.2	16.8	0.00e+00	0	44	0	4068474880	9	3829
2026-01-21 05:34:21.88	232.71	18.85	-24.6	-25.1	16.9	0.00e+00	0	44	0	4090494976	9	3807
2026-01-21 05:34:24.87	232.45	18.50	-24.5	-25.4	16.9	0.00e+00	0	44	0	4111466496	8	3982
2026-01-21 05:34:27.89	232.18	18.16	-24.6	-25.1	16.8	0.00e+00	0	44	0	4133486592	9	3813
2026-01-21 05:34:30.90	231.92	17.82	-24.6	-25.2	16.7	0.00e+00	0	44	0	4155506688	9	3827
2026-01-21 05:34:33.90	231.67	17.48	-24.9	-25.7	16.4	0.00e+00	0	44	0	4177526784	9	3966
2026-01-21 05:34:36.91	231.43	17.15	-25.1	-25.7	16.2	0.00e+00	0	44	0	4198498304	10	3850
2026-01-21 05:34:39.92	231.18	16.82	-25.2	-25.9	16.1	0.00e+00	0	44	0	4220518400	10	3891
2026-01-21 05:34:42.94	230.95	16.50	-25.2	-25.9	16.1	0.00e+00	0	44	0	4242538496	10	3891
2026-01-21 05:34:45.95	230.72	16.18	-25.4	-26.2	15.9	0.00e+00	0	44	0	4264558592	10	3979
2026-01-21 05:34:48.96	230.49	15.86	-25.4	-26.3	15.8	0.00e+00	0	44	0	4285530112	10	3998
2026-01-21 05:34:51.97	230.27	15.55	-25.5	-25.9	15.7	0.00e+00	0	44	0	4307550208	11	3806
2026-01-21 05:34:54.98	230.06	15.24	-25.6	-26.7	15.6	0.00e+00	0	44	0	4329570304	10	4095
2026-01-21 05:34:57.98	229.85	14.93	-25.7	-26.5	15.4	0.00e+00	0	44	0	4350541824	11	3945
2026-01-21 05:35:01.00	229.64	14.63	-25.7	-26.4	15.4	0.00e+00	0	44	0	4372561920	11	3920
2026-01-21 05:35:04.00	229.44	14.33	-25.7	-26.5	15.4	0.00e+00	0	44	0	4394582016	11	3946
2026-01-21 05:35:07.01	229.24	14.04	-25.7	-26.4	15.4	0.00e+00	0	44	0	4416602112	11	3922
2026-01-21 05:35:10.03	229.04	13.74	-25.7	-26.4	15.3	0.00e+00	0	44	0	4437573632	11	3926
2026-01-21 05:35:13.03	228.85	13.45	-25.8	-26.7	15.2	4.34e-05	0	44	0	4459593728	11	3982
2026-01-21 05:35:16.05	228.67	13.16	-25.8	-26.7	15.2	1.34e-04	0	44	0	4481613824	11	3985
2026-01-21 05:35:19.06	228.48	12.88	-26.0	-27.2	14.9	2.23e-04	0	44	0	4503633920	11	4113
2026-01-21 05:35:22.07	228.30	12.60	-26.0	-26.7	14.8	0.00e+00	0	44	0	4524605440	12	3903
2026-01-21 05:35:25.07	228.13	12.32	-26.2	-27.1	14.5	3.05e-04	0	45	0	4546625536	12	3983
2026-01-21 05:35:28.08	227.96	12.05	-26.3	-27.3	14.4	2.97e-04	0	44	0	4568645632	12	4057
2026-01-21 05:35:31.10	227.79	11.78	-26.3	-27.4	14.3	2.93e-04	0	44	0	4589617152	12	4080
2026-01-21 05:35:34.10	227.62	11.51	-26.4	-27.6	14.2	2.20e-06	0	44	0	4611637248	12	4120
2026-01-21 05:35:37.12	227.46	11.24	-26.5	-27.7	14.1	2.20e-06	0	44	0	4633657344	12	4150
2026-01-21 05:35:40.12	227.30	10.98	-26.7	-27.9	13.7	8.00e-06	0	44	0	4654628864	13	4089
2026-01-21 05:35:43.13	227.14	10.72	-26.6	-27.6	13.8	4.50e-06	0	44	0	4676648960	13	4020
2026-01-21 05:35:46.13	226.99	10.46	-26.8	-27.9	13.7	3.72e-04	0	44	0	4698669056	13	4094
2026-01-21 05:35:49.14	226.84	10.20	-26.8	-28.0	13.5	1.02e-05	0	44	0	4719640576	13	4143
2026-01-21 05:35:52.15	226.69	9.95	-26.8	-28.1	13.5	5.70e-06	0	44	0	4741660672	13	4150
2026-01-21 05:35:55.16	226.55	9.70	-27.1	-28.1	13.2	1.94e-05	0	44	0	4763680768	14	4069
2026-01-21 05:35:58.17	226.40	9.45	-27.0	-28.5	13.3	3.66e-05	0	44	0	4785700864	13	4269
2026-01-21 05:36:01.17	226.26	9.20	-27.0	-28.1	13.3	1.14e-05	0	44	0	4806672384	14	4043
2026-01-21 05:36:04.17	226.13	8.96	-27.3	-28.6	12.9	7.66e-05	0	45	0	4828692480	14	4196
2026-01-21 05:36:07.19	225.99	8.71	-27.1	-28.2	13.1	2.86e-05	0	44	0	4850712576	14	4099
2026-01-21 05:36:10.20	225.86	8.47	-27.1	-28.2	13.1	2.74e-05	0	44	0	4872732672	14	4095
2026-01-21 05:36:13.21	225.73	8.24	-27.2	-28.5	12.9	6.52e-05	0	44	0	4893704192	14	4176
2026-01-21 05:36:16.22	225.60	8.00	-27.2	-28.4	12.9	7.20e-05	0	44	0	4915724288	14	4144
2026-01-21 05:36:19.23	225.47	7.77	-27.0	-28.6	13.0	5.49e-05	0	44	0	4937744384	13	4324
2026-01-21 05:36:22.25	225.35	7.53	-27.1	-28.2	13.0	4.69e-05	0	45	0	4959764480	14	4083
2026-01-21 05:36:25.26	225.23	7.30	-27.0	-28.5	13.0	3.54e-05	0	44	0	4980736000	13	4283
2026-01-21 05:36:28.27	225.11	7.07	-29.8	-32.3	9.2	4.92e-05	0	44	0	5002756096	19	4838

#Closed at: 2026-01-21 05:36:30
#Recorded file [5002 MB]: D:/data/31010_260121_082455.dat