passes_logs/2026/01/21/R2M6_AANII_01/R2M6_AANII_01__20260121_101520_FENGYUN_3D_rec.log

#Pass ID: 20260121_101520_FENGYUN 3D
#Satellite: FENGYUN 3D
#Configuration: FENGYUN 3D
#almurnet v.1.7.20240730
#Start time: 2026-01-21 10:15:21

#Version: 2.2.20231116
#Station: R2M6_AANII_01
#Location: 30.233357 lon 59.946436 lat
#TLE: 1 43010U 17072A   26020.28933472  .00000051  00000+0  46008-4 0  9990
#TLE: 2 43010  98.9944 352.1871 0002476  99.7001 260.4455 14.19696838424006

#Time	Az	El	Level	Level2	SNR	BER	BlckErr	Temp	State	Recorded	gain1	gain2
2026-01-21 10:15:21.66	94.42	7.07	-31.5	-42.2	3.8	8.46e-01	0	40	0	0	24	12233
2026-01-21 10:15:24.67	94.12	7.25	-31.4	-41.9	3.8	8.45e-01	0	40	104	0	24	12043
2026-01-21 10:15:27.68	93.81	7.44	-31.4	-41.8	3.8	8.45e-01	0	41	104	0	24	11896
2026-01-21 10:15:30.70	93.50	7.63	-31.6	-40.8	3.8	8.46e-01	0	41	104	0	24	10316
2026-01-21 10:15:33.70	93.19	7.81	-31.2	-36.4	5.9	6.03e-01	0	41	0	1048576	23	6519
2026-01-21 10:15:36.71	92.88	8.00	-30.5	-33.7	8.5	5.92e-02	0	41	0	17825792	22	5221
2026-01-21 10:15:39.72	92.55	8.19	-30.5	-34.1	8.7	3.56e-02	0	41	0	34603008	21	5468
2026-01-21 10:15:42.73	92.23	8.38	-29.6	-32.0	10.5	7.15e-03	0	41	0	51380224	20	4774
2026-01-21 10:15:45.74	91.90	8.57	-28.5	-30.3	12.3	4.06e-04	0	41	0	69206016	18	4426
2026-01-21 10:15:48.74	91.57	8.76	-27.9	-29.4	13.2	3.20e-05	0	41	0	85983232	17	4249
2026-01-21 10:15:51.75	91.23	8.95	-27.5	-28.9	13.8	1.25e-05	0	41	0	102760448	16	4220
2026-01-21 10:15:54.76	90.89	9.14	-27.1	-28.5	14.1	0.00e+00	0	41	0	119537664	15	4220
2026-01-21 10:15:57.76	90.54	9.33	-27.1	-28.4	14.2	1.10e-06	0	41	0	136314880	15	4204
2026-01-21 10:16:00.78	90.19	9.52	-27.2	-28.7	14.2	2.20e-06	0	41	0	153092096	15	4262
2026-01-21 10:16:03.78	89.83	9.71	-27.1	-28.5	14.2	3.40e-06	0	41	0	169869312	15	4228
2026-01-21 10:16:06.78	89.47	9.90	-27.1	-28.5	14.3	3.40e-06	0	42	0	186646528	15	4204
2026-01-21 10:16:09.79	89.10	10.10	-27.0	-28.3	14.4	2.20e-06	0	41	0	204472320	15	4170
2026-01-21 10:16:12.81	88.73	10.29	-27.1	-28.4	14.4	1.10e-06	0	42	0	221249536	15	4179
2026-01-21 10:16:15.81	88.35	10.48	-27.0	-28.1	14.6	0.00e+00	0	42	0	238026752	15	4096
2026-01-21 10:16:18.82	87.97	10.68	-26.7	-28.0	15.0	0.00e+00	0	42	0	254803968	14	4185
2026-01-21 10:16:21.84	87.58	10.87	-26.8	-28.2	14.9	1.10e-06	0	42	0	271581184	14	4228
2026-01-21 10:16:24.85	87.19	11.07	-26.9	-28.4	14.8	1.10e-06	0	42	0	288358400	14	4303
2026-01-21 10:16:27.85	86.80	11.26	-26.9	-28.4	14.8	0.00e+00	0	42	0	305135616	14	4286
2026-01-21 10:16:30.87	86.39	11.46	-26.8	-28.2	14.9	0.00e+00	0	42	0	322961408	14	4226
2026-01-21 10:16:33.89	85.98	11.65	-26.7	-27.9	15.1	0.00e+00	0	42	0	339738624	14	4158
2026-01-21 10:16:36.90	85.57	11.85	-26.7	-28.0	15.1	1.10e-06	0	42	0	356515840	14	4159
2026-01-21 10:16:39.90	85.15	12.04	-26.6	-27.8	15.2	0.00e+00	0	42	0	373293056	14	4134
2026-01-21 10:16:42.91	84.72	12.24	-26.5	-27.5	15.4	0.00e+00	0	42	0	390070272	14	4055
2026-01-21 10:16:45.93	84.29	12.43	-26.5	-27.4	15.5	0.00e+00	0	42	0	406847488	14	4025
2026-01-21 10:16:48.95	83.85	12.63	-26.5	-27.6	15.3	0.00e+00	0	42	0	424673280	14	4076
2026-01-21 10:16:51.95	83.41	12.82	-26.4	-27.3	15.5	0.00e+00	0	42	0	441450496	14	3996
2026-01-21 10:16:54.97	82.96	13.02	-26.6	-27.8	15.3	0.00e+00	0	42	0	458227712	14	4128
2026-01-21 10:16:57.98	82.51	13.21	-26.3	-27.2	15.6	0.00e+00	0	42	0	475004928	14	3964
2026-01-21 10:17:01.01	82.04	13.41	-26.2	-27.4	15.8	0.00e+00	0	42	0	491782144	13	4113
2026-01-21 10:17:04.02	81.57	13.60	-26.3	-27.6	15.6	0.00e+00	0	42	0	509607936	13	4189
2026-01-21 10:17:07.03	81.10	13.80	-26.4	-27.9	15.6	0.00e+00	0	42	0	526385152	13	4245
2026-01-21 10:17:10.03	80.62	13.99	-26.3	-27.5	15.7	0.00e+00	0	42	0	543162368	13	4149
2026-01-21 10:17:13.03	80.14	14.18	-26.1	-27.1	16.0	0.00e+00	0	42	0	559939584	13	4050
2026-01-21 10:17:16.04	79.65	14.37	-26.0	-26.9	16.1	0.00e+00	0	42	0	576716800	13	3981
2026-01-21 10:17:19.05	79.15	14.56	-26.2	-27.2	15.9	0.00e+00	0	42	0	593494016	13	4076
2026-01-21 10:17:22.07	78.64	14.76	-26.0	-26.9	16.1	0.00e+00	0	42	0	610271232	13	3990
2026-01-21 10:17:25.07	78.13	14.95	-26.2	-27.3	15.9	0.00e+00	0	42	0	627048448	13	4103
2026-01-21 10:17:28.08	77.61	15.13	-26.1	-27.1	16.0	0.00e+00	0	42	0	644874240	13	4056
2026-01-21 10:17:31.09	77.08	15.32	-25.9	-26.7	16.3	0.00e+00	0	42	0	661651456	13	3950
2026-01-21 10:17:34.11	76.55	15.51	-25.8	-26.5	16.4	0.00e+00	0	42	0	678428672	13	3896
2026-01-21 10:17:37.12	76.01	15.70	-25.6	-26.6	16.6	0.00e+00	0	42	0	695205888	12	4022
2026-01-21 10:17:40.13	75.47	15.88	-25.6	-26.6	16.6	0.00e+00	0	42	0	711983104	12	4025
2026-01-21 10:17:43.14	74.91	16.07	-25.7	-26.7	16.6	0.00e+00	0	42	0	728760320	12	4045
2026-01-21 10:17:46.14	74.36	16.25	-25.6	-26.6	16.6	0.00e+00	0	42	0	745537536	12	4027
2026-01-21 10:17:49.16	73.79	16.43	-25.4	-26.2	16.9	0.00e+00	0	42	0	763363328	12	3920
2026-01-21 10:17:52.17	73.21	16.61	-25.7	-26.7	16.7	0.00e+00	0	42	0	780140544	12	4035
2026-01-21 10:17:55.17	72.64	16.79	-25.9	-27.1	16.4	0.00e+00	0	42	0	796917760	12	4148
2026-01-21 10:17:58.18	72.05	16.96	-25.9	-27.1	16.5	0.00e+00	0	42	0	813694976	12	4142
2026-01-21 10:18:01.19	71.45	17.14	-25.7	-26.6	16.8	0.00e+00	0	42	0	830472192	12	4015
2026-01-21 10:18:04.20	70.85	17.31	-25.4	-26.1	17.1	0.00e+00	0	42	0	847249408	12	3874
2026-01-21 10:18:07.22	70.24	17.48	-25.4	-26.0	17.1	0.00e+00	0	42	0	865075200	12	3867
2026-01-21 10:18:10.24	69.63	17.65	-25.3	-26.2	17.4	0.00e+00	0	42	0	881852416	11	4012
2026-01-21 10:18:13.24	69.01	17.81	-25.4	-26.5	17.2	0.00e+00	0	42	0	898629632	11	4081
2026-01-21 10:18:16.26	68.38	17.97	-25.2	-26.1	17.4	0.00e+00	0	42	0	915406848	11	3984
2026-01-21 10:18:19.26	67.74	18.13	-25.6	-26.9	17.0	0.00e+00	0	42	0	932184064	11	4176
2026-01-21 10:18:22.27	67.10	18.29	-25.1	-25.8	17.6	0.00e+00	0	43	0	948961280	11	3914
2026-01-21 10:18:25.28	66.45	18.45	-25.0	-25.6	17.8	0.00e+00	0	42	0	965738496	11	3855
2026-01-21 10:18:28.30	65.80	18.60	-25.0	-25.5	17.8	0.00e+00	0	42	0	983564288	11	3849
2026-01-21 10:18:31.31	65.13	18.75	-25.0	-25.6	17.7	0.00e+00	0	43	0	1000341504	11	3862
2026-01-21 10:18:34.32	64.47	18.90	-25.2	-26.0	17.6	0.00e+00	0	42	0	1017118720	11	3943
2026-01-21 10:18:37.32	63.79	19.04	-25.2	-26.0	17.6	0.00e+00	0	43	0	1033895936	11	3949
2026-01-21 10:18:40.32	63.11	19.18	-25.1	-25.9	17.6	0.00e+00	0	42	0	1050673152	11	3933
2026-01-21 10:18:43.34	62.42	19.31	-25.0	-25.6	17.8	0.00e+00	0	43	0	1067450368	11	3849
2026-01-21 10:18:46.36	61.73	19.45	-25.3	-26.2	17.5	0.00e+00	0	42	0	1085276160	11	3997
2026-01-21 10:18:49.36	61.03	19.57	-25.2	-26.1	17.6	0.00e+00	0	43	0	1102053376	11	3979
2026-01-21 10:18:52.37	60.33	19.70	-25.1	-25.8	17.7	0.00e+00	0	42	0	1118830592	11	3905
2026-01-21 10:18:55.37	59.62	19.82	-24.9	-25.3	18.0	0.00e+00	0	42	0	1135607808	11	3795
2026-01-21 10:18:58.40	58.90	19.94	-24.8	-25.6	18.0	0.00e+00	0	42	0	1152385024	10	3973
2026-01-21 10:19:01.40	58.18	20.05	-24.6	-25.3	18.2	0.00e+00	0	43	0	1169162240	10	3892
2026-01-21 10:19:04.40	57.45	20.16	-24.5	-25.1	18.4	0.00e+00	0	42	0	1185939456	10	3840
2026-01-21 10:19:07.41	56.72	20.26	-24.6	-25.3	18.2	0.00e+00	0	43	0	1203765248	10	3906
2026-01-21 10:19:10.41	55.99	20.36	-24.4	-24.9	18.5	0.00e+00	0	43	0	1220542464	10	3807
2026-01-21 10:19:13.42	55.24	20.45	-24.5	-25.1	18.3	0.00e+00	0	43	0	1237319680	10	3844
2026-01-21 10:19:16.44	54.50	20.54	-24.6	-25.2	18.3	0.00e+00	0	43	0	1254096896	10	3880
2026-01-21 10:19:19.45	53.75	20.63	-24.8	-25.8	18.0	0.00e+00	0	43	0	1270874112	10	4003
2026-01-21 10:19:22.46	52.99	20.71	-24.7	-25.5	18.1	0.00e+00	0	42	0	1287651328	10	3952
2026-01-21 10:19:25.47	52.23	20.78	-24.7	-25.4	18.2	0.00e+00	0	42	0	1304428544	10	3917
2026-01-21 10:19:28.48	51.47	20.85	-24.7	-25.4	18.2	0.00e+00	0	43	0	1321205760	10	3923
2026-01-21 10:19:31.49	50.71	20.92	-24.8	-25.7	18.1	0.00e+00	0	43	0	1339031552	10	3995
2026-01-21 10:19:34.50	49.94	20.98	-24.6	-25.3	18.3	0.00e+00	0	42	0	1355808768	10	3895
2026-01-21 10:19:37.51	49.17	21.03	-24.5	-25.0	18.4	0.00e+00	0	43	0	1372585984	10	3815
2026-01-21 10:19:40.51	48.40	21.08	-24.2	-24.8	18.8	0.00e+00	0	43	0	1389363200	9	3890
2026-01-21 10:19:43.52	47.62	21.12	-24.3	-25.1	18.6	0.00e+00	0	43	0	1406140416	9	3950
2026-01-21 10:19:46.52	46.84	21.16	-24.5	-25.6	18.4	0.00e+00	0	43	0	1422917632	9	4070
2026-01-21 10:19:49.54	46.06	21.19	-24.7	-25.9	18.2	0.00e+00	0	43	0	1439694848	9	4157
2026-01-21 10:19:52.56	45.28	21.22	-24.4	-25.3	18.5	0.00e+00	0	43	0	1457520640	9	3999
2026-01-21 10:19:55.58	44.49	21.24	-24.1	-24.8	18.8	0.00e+00	0	42	0	1474297856	9	3874
2026-01-21 10:19:58.58	43.71	21.26	-24.4	-25.4	18.5	0.00e+00	0	42	0	1491075072	9	4025
2026-01-21 10:20:01.59	42.93	21.27	-24.6	-25.7	18.3	0.00e+00	0	43	0	1507852288	9	4098
2026-01-21 10:20:04.61	42.14	21.27	-24.7	-26.1	18.1	0.00e+00	0	43	0	1524629504	9	4189
2026-01-21 10:20:07.61	41.36	21.27	-24.4	-25.3	18.5	0.00e+00	0	42	0	1541406720	9	3991
2026-01-21 10:20:10.62	40.58	21.26	-24.3	-25.1	18.6	0.00e+00	0	43	0	1559232512	9	3960
2026-01-21 10:20:13.64	39.79	21.25	-24.5	-25.5	18.4	0.00e+00	0	43	0	1576009728	9	4041
2026-01-21 10:20:16.63	39.01	21.23	-24.2	-25.0	18.6	0.00e+00	0	43	0	1592786944	9	3934
2026-01-21 10:20:19.65	38.23	21.21	-24.2	-25.0	18.6	0.00e+00	0	43	0	1609564160	9	3931
2026-01-21 10:20:22.67	37.45	21.18	-24.2	-24.9	18.6	0.00e+00	0	43	0	1626341376	9	3909
2026-01-21 10:20:25.67	36.67	21.14	-24.3	-25.2	18.5	0.00e+00	0	43	0	1643118592	9	3976
2026-01-21 10:20:28.67	35.90	21.10	-24.3	-25.1	18.6	0.00e+00	0	43	0	1659895808	9	3946
2026-01-21 10:20:31.67	35.13	21.05	-24.3	-25.1	18.6	0.00e+00	0	43	0	1676673024	9	3944
2026-01-21 10:20:34.68	34.36	21.00	-24.1	-24.7	18.7	0.00e+00	0	43	0	1694498816	9	3866
2026-01-21 10:20:37.69	33.59	20.94	-24.1	-24.7	18.7	0.00e+00	0	43	0	1711276032	9	3869
2026-01-21 10:20:40.68	32.83	20.88	-24.2	-24.8	18.7	0.00e+00	0	43	0	1728053248	9	3897
2026-01-21 10:20:43.69	32.07	20.81	-24.2	-24.9	18.6	0.00e+00	0	43	0	1744830464	9	3918
2026-01-21 10:20:46.69	31.31	20.74	-24.4	-25.4	18.4	0.00e+00	0	43	0	1761607680	9	4033
2026-01-21 10:20:49.70	30.55	20.66	-24.0	-24.5	18.9	0.00e+00	0	43	0	1778384896	9	3809
2026-01-21 10:20:52.70	29.81	20.58	-24.2	-25.0	18.6	0.00e+00	0	43	0	1795162112	9	3929
2026-01-21 10:20:55.70	29.06	20.49	-24.3	-25.2	18.5	0.00e+00	0	43	0	1811939328	9	3967
2026-01-21 10:20:58.71	28.32	20.40	-24.4	-25.3	18.4	0.00e+00	0	43	0	1829765120	9	3994
2026-01-21 10:21:01.72	27.58	20.30	-24.5	-25.6	18.3	0.00e+00	0	43	0	1846542336	9	4083
2026-01-21 10:21:04.71	26.85	20.20	-24.5	-25.5	18.3	0.00e+00	0	42	0	1863319552	9	4038
2026-01-21 10:21:07.72	26.13	20.10	-24.3	-25.1	18.5	0.00e+00	0	42	0	1880096768	9	3955
2026-01-21 10:21:10.72	25.41	19.99	-24.3	-25.1	18.5	0.00e+00	0	43	0	1896873984	9	3961
2026-01-21 10:21:13.74	24.69	19.87	-24.5	-25.6	18.3	0.00e+00	0	43	0	1913651200	9	4071
2026-01-21 10:21:16.76	23.97	19.75	-24.7	-25.9	18.1	0.00e+00	0	43	0	1930428416	9	4162
2026-01-21 10:21:19.77	23.27	19.63	-24.7	-26.0	18.1	0.00e+00	0	43	0	1948254208	9	4172
2026-01-21 10:21:22.77	22.57	19.50	-24.6	-25.9	18.1	0.00e+00	0	43	0	1965031424	9	4145
2026-01-21 10:21:25.77	21.88	19.37	-24.7	-26.0	18.0	0.00e+00	0	42	0	1981808640	9	4170
2026-01-21 10:21:28.77	21.19	19.24	-24.6	-25.8	18.1	0.00e+00	0	43	0	1998585856	9	4121
2026-01-21 10:21:31.78	20.51	19.10	-25.0	-26.6	17.7	0.00e+00	0	43	0	2015363072	9	4325
2026-01-21 10:21:34.79	19.83	18.96	-25.0	-26.0	17.7	0.00e+00	0	43	0	2032140288	10	4072
2026-01-21 10:21:37.80	19.16	18.81	-24.9	-25.9	17.8	0.00e+00	0	43	0	2048917504	10	4034
2026-01-21 10:21:40.81	18.50	18.67	-25.0	-26.1	17.7	0.00e+00	0	43	0	2065694720	10	4103
2026-01-21 10:21:43.82	17.84	18.52	-25.2	-26.5	17.5	0.00e+00	0	43	0	2083520512	10	4192
2026-01-21 10:21:46.81	17.20	18.36	-25.2	-26.4	17.5	0.00e+00	0	43	0	2100297728	10	4175
2026-01-21 10:21:49.83	16.55	18.21	-25.2	-26.6	17.4	0.00e+00	0	42	0	2117074944	10	4230
2026-01-21 10:21:52.84	15.92	18.05	-25.0	-26.2	17.6	0.00e+00	0	42	0	2133852160	10	4118
2026-01-21 10:21:55.85	15.29	17.89	-25.0	-26.1	17.7	0.00e+00	0	42	0	2150629376	10	4084
2026-01-21 10:21:58.85	14.67	17.72	-25.1	-26.3	17.6	0.00e+00	0	43	0	2167406592	10	4139
2026-01-21 10:22:01.87	14.05	17.56	-25.2	-26.6	17.4	0.00e+00	0	42	0	2184183808	10	4216
2026-01-21 10:22:04.89	13.44	17.39	-25.2	-26.6	17.4	0.00e+00	0	43	0	2200961024	10	4227
2026-01-21 10:22:07.90	12.84	17.22	-25.3	-26.8	17.3	0.00e+00	0	43	0	2218786816	10	4283
2026-01-21 10:22:10.90	12.24	17.04	-25.5	-26.7	17.1	0.00e+00	0	43	0	2235564032	11	4136
2026-01-21 10:22:13.90	11.66	16.87	-25.6	-26.8	17.0	0.00e+00	0	43	0	2252341248	11	4164
2026-01-21 10:22:16.91	11.08	16.69	-25.7	-27.1	16.8	0.00e+00	0	43	0	2269118464	11	4247
2026-01-21 10:22:19.93	10.50	16.51	-25.6	-27.0	16.9	0.00e+00	0	43	0	2285895680	11	4214
2026-01-21 10:22:22.94	9.93	16.33	-25.5	-26.7	17.0	0.00e+00	0	43	0	2302672896	11	4127
2026-01-21 10:22:25.93	9.38	16.15	-25.4	-26.5	17.1	0.00e+00	0	42	0	2319450112	11	4084
2026-01-21 10:22:28.94	8.82	15.97	-25.3	-26.3	17.3	1.10e-06	0	43	0	2336227328	11	4018
2026-01-21 10:22:31.95	8.28	15.79	-25.3	-26.2	17.3	0.00e+00	0	43	0	2354053120	11	4015
2026-01-21 10:22:34.97	7.74	15.60	-25.4	-26.6	17.1	0.00e+00	0	43	0	2370830336	11	4107
2026-01-21 10:22:37.97	7.21	15.42	-25.5	-26.7	17.0	0.00e+00	0	43	0	2387607552	11	4137
2026-01-21 10:22:40.98	6.68	15.23	-25.5	-26.7	17.0	0.00e+00	0	43	0	2404384768	11	4142
2026-01-21 10:22:43.99	6.16	15.04	-25.5	-26.7	17.0	0.00e+00	0	43	0	2421161984	11	4123
2026-01-21 10:22:46.99	5.65	14.85	-25.5	-26.8	16.9	0.00e+00	0	43	0	2437939200	11	4156
2026-01-21 10:22:50.01	5.14	14.66	-25.7	-27.1	16.7	0.00e+00	0	43	0	2454716416	11	4239
2026-01-21 10:22:53.02	4.64	14.47	-25.8	-27.2	16.6	0.00e+00	0	43	0	2472542208	11	4278
2026-01-21 10:22:56.04	4.15	14.28	-25.9	-27.6	16.4	0.00e+00	0	43	0	2489319424	11	4372
2026-01-21 10:22:59.04	3.66	14.09	-26.0	-27.3	16.3	0.00e+00	0	43	0	2506096640	12	4175
2026-01-21 10:23:02.06	3.18	13.89	-26.4	-28.1	15.8	0.00e+00	0	43	0	2522873856	12	4413
2026-01-21 10:23:05.08	2.70	13.70	-26.4	-28.2	15.7	0.00e+00	0	43	0	2539651072	12	4426
2026-01-21 10:23:08.10	2.23	13.51	-26.6	-28.1	15.5	0.00e+00	0	43	0	2556428288	13	4301
2026-01-21 10:23:11.10	1.78	13.31	-26.2	-27.3	15.9	0.00e+00	0	43	0	2574254080	13	4081
2026-01-21 10:23:14.11	1.32	13.12	-26.0	-26.9	16.1	0.00e+00	0	43	0	2591031296	13	3976
2026-01-21 10:23:17.11	0.87	12.93	-26.4	-27.6	15.7	0.00e+00	0	43	0	2607808512	13	4166
2026-01-21 10:23:20.11	0.43	12.73	-26.4	-27.8	15.6	0.00e+00	0	43	0	2624585728	13	4204
2026-01-21 10:23:23.13	359.99	12.54	-26.6	-28.3	15.3	0.00e+00	0	43	0	2641362944	13	4352
2026-01-21 10:23:26.14	359.56	12.34	-26.1	-27.1	15.9	0.00e+00	0	43	0	2658140160	13	4035
2026-01-21 10:23:29.14	359.14	12.15	-26.3	-27.5	15.7	1.10e-06	0	42	0	2674917376	13	4146
2026-01-21 10:23:32.14	358.72	11.95	-26.4	-27.7	15.6	0.00e+00	0	42	0	2691694592	13	4179
2026-01-21 10:23:35.16	358.30	11.76	-26.5	-27.9	15.4	0.00e+00	0	43	0	2709520384	13	4255
2026-01-21 10:23:38.16	357.89	11.57	-26.4	-27.7	15.5	0.00e+00	0	43	0	2726297600	13	4200
2026-01-21 10:23:41.18	357.49	11.37	-26.5	-28.1	15.3	0.00e+00	0	43	0	2743074816	13	4290
2026-01-21 10:23:44.20	357.09	11.18	-26.6	-28.2	15.2	0.00e+00	0	43	0	2759852032	13	4324
2026-01-21 10:23:47.21	356.70	10.98	-26.5	-28.0	15.3	0.00e+00	0	43	0	2776629248	13	4260
2026-01-21 10:23:50.21	356.31	10.79	-26.7	-28.4	15.0	0.00e+00	0	43	0	2794455040	13	4390
2026-01-21 10:23:53.22	355.93	10.60	-26.7	-28.5	15.0	0.00e+00	0	43	0	2811232256	13	4420
2026-01-21 10:23:56.23	355.56	10.40	-26.9	-28.8	14.8	0.00e+00	0	43	0	2828009472	13	4480
2026-01-21 10:23:59.25	355.18	10.21	-26.8	-28.6	15.0	0.00e+00	0	43	0	2844786688	13	4428
2026-01-21 10:24:02.27	354.81	10.02	-26.9	-29.0	14.7	0.00e+00	0	43	0	2861563904	13	4558
2026-01-21 10:24:05.28	354.45	9.82	-26.9	-28.8	14.8	0.00e+00	0	43	0	2878341120	13	4511
2026-01-21 10:24:08.29	354.10	9.63	-26.8	-28.8	14.8	1.10e-06	0	42	0	2895118336	13	4496
2026-01-21 10:24:11.30	353.74	9.44	-26.9	-29.0	14.7	0.00e+00	0	43	0	2912944128	13	4554
2026-01-21 10:24:14.29	353.40	9.25	-27.2	-29.1	14.3	1.10e-06	0	42	0	2929721344	14	4466
2026-01-21 10:24:17.31	353.06	9.06	-27.2	-29.2	14.3	3.40e-06	0	43	0	2946498560	14	4494
2026-01-21 10:24:20.31	352.72	8.87	-27.4	-29.6	13.9	9.10e-06	0	42	0	2963275776	14	4631
2026-01-21 10:24:23.31	352.39	8.68	-27.7	-29.7	13.6	1.60e-05	0	42	0	2980052992	15	4538
2026-01-21 10:24:26.32	352.06	8.49	-27.4	-29.2	13.9	1.14e-05	0	43	0	2996830208	15	4384
2026-01-21 10:24:29.32	351.73	8.30	-27.6	-29.5	13.7	1.37e-05	0	43	0	3013607424	15	4472
2026-01-21 10:24:32.33	351.41	8.12	-27.4	-29.0	14.0	3.40e-06	0	42	0	3030384640	15	4337
2026-01-21 10:24:35.33	351.10	7.93	-27.3	-28.8	14.0	4.50e-06	0	43	0	3048210432	15	4294
2026-01-21 10:24:38.33	350.79	7.74	-27.4	-29.0	13.9	5.70e-06	0	42	0	3064987648	15	4354
2026-01-21 10:24:41.33	350.48	7.56	-27.6	-29.5	13.6	8.00e-06	0	43	0	3081764864	15	4494
2026-01-21 10:24:44.32	350.18	7.37	-27.5	-29.4	13.6	1.25e-05	0	43	0	3098542080	15	4469
2026-01-21 10:24:47.33	349.88	7.19	-27.6	-29.5	13.6	1.60e-05	0	42	0	3115319296	15	4488
2026-01-21 10:24:50.34	349.58	7.00	-33.3	-43.9	3.8	8.41e-01	0	43	104	3127902208	26	12233

#Closed at: 2026-01-21 10:24:53
#Recorded file [3127 MB]: D:/data/31010_260121_131532.dat