passes_logs/2026/01/21/R2M6_AANII_01/R2M6_AANII_01__20260121_093601_NOAA_20_JPSS-1_rec.log

#Pass ID: 20260121_093601_NOAA 20 (JPSS-1)
#Satellite: NOAA 20 (JPSS-1)
#Configuration: NOAA 20
#almurnet v.1.7.20240730
#Start time: 2026-01-21 09:36:02

#Version: 2.2.20231116
#Station: R2M6_AANII_01
#Location: 30.233357 lon 59.946436 lat
#TLE: 1 43013U 17073A   26020.26397077  .00000127  00000+0  80954-4 0  9999
#TLE: 2 43013  98.7643 321.1479 0001288  31.3158 328.8095 14.19537595423482

#Time	Az	El	Level	Level2	SNR	BER	BlckErr	Temp	State	Recorded	gain1	gain2
2026-01-21 09:36:02.57	137.82	7.10	-31.2	-36.3	5.3	1.23e+00	0	41	0	0	23	6467
2026-01-21 09:36:05.57	137.72	7.33	-31.1	-35.8	9.5	1.56e-02	0	41	0	1048576	23	6199
2026-01-21 09:36:08.57	137.61	7.56	-30.9	-35.0	10.1	8.07e-03	0	41	0	7340032	23	5807
2026-01-21 09:36:11.58	137.50	7.80	-30.5	-34.1	11.3	1.34e-03	0	41	0	12582912	22	5454
2026-01-21 09:36:14.59	137.39	8.03	-30.5	-33.9	11.6	6.47e-04	0	41	0	17825792	22	5338
2026-01-21 09:36:17.61	137.28	8.27	-30.5	-34.0	11.5	8.43e-04	0	41	0	24117248	22	5394
2026-01-21 09:36:20.61	137.17	8.51	-30.5	-33.9	11.6	7.22e-04	0	41	0	29360128	22	5330
2026-01-21 09:36:23.62	137.05	8.76	-30.4	-33.7	11.7	5.65e-04	0	41	0	35651584	22	5293
2026-01-21 09:36:26.62	136.93	9.00	-30.4	-33.7	11.7	5.48e-04	0	41	0	40894464	22	5288
2026-01-21 09:36:29.64	136.81	9.25	-30.4	-33.7	11.8	4.99e-04	0	42	0	46137344	22	5262
2026-01-21 09:36:32.65	136.69	9.50	-30.4	-33.7	11.8	5.39e-04	0	42	0	52428800	22	5261
2026-01-21 09:36:35.66	136.56	9.75	-30.2	-33.6	12.2	1.62e-04	0	42	0	57671680	21	5326
2026-01-21 09:36:38.67	136.44	10.00	-30.2	-33.6	12.3	1.75e-04	0	42	0	63963136	21	5298
2026-01-21 09:36:41.67	136.31	10.26	-30.4	-34.1	12.0	2.55e-04	0	42	0	69206016	21	5493
2026-01-21 09:36:44.68	136.18	10.52	-30.4	-33.9	12.2	2.21e-04	0	42	0	74448896	21	5425
2026-01-21 09:36:47.70	136.04	10.78	-30.4	-33.9	12.2	1.99e-04	0	42	0	80740352	21	5417
2026-01-21 09:36:50.70	135.90	11.04	-30.2	-33.5	12.6	1.18e-04	0	42	0	85983232	21	5242
2026-01-21 09:36:53.69	135.77	11.31	-30.3	-33.6	12.5	1.04e-04	0	42	0	91226112	21	5288
2026-01-21 09:36:56.71	135.62	11.58	-30.3	-33.7	12.4	1.56e-04	0	42	0	97517568	21	5326
2026-01-21 09:36:59.72	135.48	11.85	-30.2	-33.7	12.4	1.67e-04	0	42	0	102760448	21	5372
2026-01-21 09:37:02.74	135.33	12.13	-30.4	-34.3	12.0	2.96e-04	0	42	0	109051904	21	5612
2026-01-21 09:37:05.74	135.18	12.41	-30.2	-33.6	12.5	1.95e-04	0	42	0	114294784	21	5300
2026-01-21 09:37:08.74	135.02	12.69	-30.1	-33.1	12.9	3.43e-05	0	42	0	119537664	21	5098
2026-01-21 09:37:11.74	134.87	12.97	-30.1	-33.2	12.8	5.64e-05	0	42	0	125829120	21	5130
2026-01-21 09:37:14.74	134.71	13.26	-30.3	-33.6	12.6	8.16e-05	0	42	0	131072000	21	5291
2026-01-21 09:37:17.75	134.54	13.55	-30.2	-33.4	12.8	8.23e-05	0	42	0	136314880	21	5180
2026-01-21 09:37:20.76	134.38	13.84	-30.2	-33.2	12.9	5.41e-05	0	42	0	142606336	21	5089
2026-01-21 09:37:23.77	134.20	14.14	-30.1	-33.0	13.0	3.66e-05	0	42	0	147849216	21	5066
2026-01-21 09:37:26.78	134.03	14.44	-30.0	-33.2	12.8	5.26e-05	0	42	0	154140672	21	5173
2026-01-21 09:37:29.79	133.85	14.75	-30.0	-33.1	12.9	7.32e-05	0	42	0	159383552	21	5136
2026-01-21 09:37:32.78	133.67	15.05	-30.0	-33.0	13.0	7.24e-05	0	42	0	164626432	21	5091
2026-01-21 09:37:35.79	133.48	15.36	-30.1	-33.1	13.1	4.34e-05	0	42	0	170917888	21	5070
2026-01-21 09:37:38.80	133.29	15.68	-30.2	-33.1	13.3	2.59e-05	0	43	0	176160768	21	5000
2026-01-21 09:37:41.82	133.10	16.00	-30.2	-33.0	13.3	1.67e-05	0	43	0	181403648	21	4954
2026-01-21 09:37:44.82	132.90	16.32	-30.0	-32.4	13.7	8.30e-06	0	42	0	187695104	21	4791
2026-01-21 09:37:47.82	132.70	16.65	-30.2	-33.0	13.3	1.29e-05	0	43	0	192937984	21	5010
2026-01-21 09:37:50.83	132.49	16.98	-30.2	-33.1	13.3	1.60e-05	0	43	0	199229440	21	5011
2026-01-21 09:37:53.85	132.28	17.31	-30.2	-33.0	13.5	6.10e-06	0	43	0	204472320	21	4934
2026-01-21 09:37:56.86	132.06	17.65	-30.1	-32.7	13.7	6.10e-06	0	42	0	209715200	21	4828
2026-01-21 09:37:59.85	131.84	17.99	-30.2	-33.1	13.4	2.05e-05	0	43	0	216006656	21	5008
2026-01-21 09:38:02.86	131.61	18.34	-30.1	-32.7	13.6	1.29e-05	0	43	0	221249536	21	4874
2026-01-21 09:38:05.87	131.38	18.69	-30.3	-33.2	13.3	7.60e-06	0	43	0	226492416	21	5052
2026-01-21 09:38:08.88	131.14	19.05	-30.4	-33.4	13.3	1.22e-05	0	43	0	232783872	21	5085
2026-01-21 09:38:11.90	130.89	19.41	-30.4	-33.4	13.3	2.44e-05	0	43	0	238026752	21	5105
2026-01-21 09:38:14.92	130.64	19.78	-30.2	-33.0	13.6	9.10e-06	0	43	0	244318208	21	4962
2026-01-21 09:38:17.93	130.38	20.15	-30.5	-33.7	13.2	1.98e-05	0	43	0	249561088	21	5199
2026-01-21 09:38:20.94	130.11	20.53	-30.5	-33.7	13.2	2.89e-05	0	43	0	254803968	21	5196
2026-01-21 09:38:23.96	129.84	20.91	-30.5	-33.7	13.2	1.98e-05	0	43	0	261095424	21	5193
2026-01-21 09:38:26.97	129.56	21.30	-30.7	-34.0	13.1	5.18e-05	0	43	0	266338304	21	5304
2026-01-21 09:38:29.98	129.28	21.69	-30.8	-34.2	13.0	4.57e-05	0	43	0	272629760	21	5374
2026-01-21 09:38:32.99	128.99	22.09	-30.7	-34.1	13.1	2.67e-05	0	43	0	277872640	21	5306
2026-01-21 09:38:36.00	128.69	22.49	-30.6	-34.0	13.2	3.20e-05	0	43	0	283115520	21	5270
2026-01-21 09:38:39.00	128.38	22.90	-30.8	-34.3	13.0	3.50e-05	0	43	0	289406976	21	5397
2026-01-21 09:38:42.01	128.06	23.31	-30.9	-34.5	12.8	3.43e-05	0	43	0	294649856	21	5494
2026-01-21 09:38:45.03	127.73	23.73	-31.1	-34.8	12.4	1.56e-04	0	43	0	300941312	22	5469
2026-01-21 09:38:48.04	127.40	24.16	-31.2	-35.1	12.2	1.81e-04	0	43	0	306184192	22	5590
2026-01-21 09:38:51.05	127.05	24.59	-31.2	-34.8	12.4	1.94e-04	0	43	0	311427072	22	5495
2026-01-21 09:38:54.05	126.70	25.02	-31.1	-34.8	12.4	2.17e-04	0	43	0	317718528	22	5492
2026-01-21 09:38:57.05	126.34	25.46	-31.2	-35.2	12.1	2.46e-04	0	43	0	322961408	22	5672
2026-01-21 09:39:00.07	125.96	25.91	-31.4	-35.7	11.8	5.30e-04	0	43	0	328204288	22	5886
2026-01-21 09:39:03.08	125.57	26.37	-31.5	-35.3	11.8	5.53e-04	0	43	0	334495744	23	5570
2026-01-21 09:39:06.07	125.18	26.83	-31.4	-34.8	12.1	3.23e-04	0	43	0	339738624	23	5357
2026-01-21 09:39:09.08	124.77	27.30	-31.3	-34.7	12.3	1.80e-04	0	43	0	346030080	23	5291
2026-01-21 09:39:12.08	124.35	27.77	-31.4	-34.9	12.2	2.55e-04	0	43	0	351272960	23	5392
2026-01-21 09:39:15.09	123.91	28.25	-31.2	-34.4	12.5	1.16e-04	0	43	0	356515840	23	5172
2026-01-21 09:39:18.10	123.46	28.74	-31.2	-34.3	12.6	1.17e-04	0	43	0	362807296	23	5149
2026-01-21 09:39:21.11	123.00	29.23	-31.2	-34.4	12.5	1.12e-04	0	43	0	368050176	23	5203
2026-01-21 09:39:24.12	122.52	29.73	-31.2	-34.4	12.5	1.01e-04	0	43	0	373293056	23	5185
2026-01-21 09:39:27.13	122.03	30.24	-31.4	-34.8	12.3	1.89e-04	0	43	0	379584512	23	5324
2026-01-21 09:39:30.13	121.52	30.75	-31.4	-34.8	12.2	2.17e-04	0	43	0	384827392	23	5355
2026-01-21 09:39:33.15	120.99	31.27	-31.3	-34.7	12.4	2.10e-04	0	43	0	391118848	23	5289
2026-01-21 09:39:36.15	120.45	31.80	-31.5	-35.2	12.0	3.18e-04	0	43	0	396361728	23	5488
2026-01-21 09:39:39.16	119.89	32.33	-31.7	-35.9	11.5	8.38e-04	0	43	0	401604608	23	5810
2026-01-21 09:39:42.17	119.31	32.87	-31.8	-36.1	11.4	9.28e-04	0	43	0	407896064	23	5912
2026-01-21 09:39:45.18	118.71	33.41	-32.0	-36.3	10.9	1.82e-03	0	43	0	413138944	24	5873
2026-01-21 09:39:48.19	118.09	33.96	-32.0	-36.1	11.1	1.66e-03	0	43	0	418381824	24	5797
2026-01-21 09:39:51.21	117.44	34.52	-31.9	-35.9	11.2	1.68e-03	0	43	0	424673280	24	5704
2026-01-21 09:39:54.21	116.78	35.08	-31.7	-35.3	11.7	5.85e-04	0	43	0	429916160	24	5411
2026-01-21 09:39:57.22	116.09	35.65	-31.6	-34.8	12.1	3.02e-04	0	43	0	436207616	24	5191
2026-01-21 09:40:00.22	115.37	36.22	-31.7	-35.0	11.9	5.16e-04	0	43	0	441450496	24	5280
2026-01-21 09:40:03.23	114.63	36.80	-31.5	-34.5	12.3	2.05e-04	0	43	0	446693376	24	5094
2026-01-21 09:40:06.23	113.87	37.38	-31.5	-34.4	12.3	2.01e-04	0	43	0	452984832	24	5055
2026-01-21 09:40:09.25	113.07	37.97	-31.6	-34.6	12.3	1.57e-04	0	43	0	458227712	24	5137
2026-01-21 09:40:12.25	112.25	38.56	-31.9	-35.6	11.6	6.35e-04	0	43	0	463470592	24	5508
2026-01-21 09:40:15.26	111.39	39.16	-31.9	-35.7	11.5	8.75e-04	0	43	0	469762048	24	5561
2026-01-21 09:40:18.26	110.51	39.75	-32.0	-35.9	11.4	9.64e-04	0	43	0	475004928	24	5657
2026-01-21 09:40:21.27	109.58	40.35	-31.9	-35.6	11.6	5.66e-04	0	43	0	481296384	24	5513
2026-01-21 09:40:24.28	108.63	40.95	-31.7	-34.9	12.1	3.07e-04	0	43	0	486539264	24	5222
2026-01-21 09:40:27.29	107.64	41.55	-32.0	-35.9	11.4	7.86e-04	0	43	0	491782144	24	5648
2026-01-21 09:40:30.30	106.60	42.15	-32.4	-37.4	10.3	3.07e-03	0	43	0	498073600	24	6382
2026-01-21 09:40:33.32	105.53	42.76	-32.3	-36.6	10.6	3.56e-03	0	43	0	503316480	25	5866
2026-01-21 09:40:36.32	104.42	43.35	-31.8	-34.9	11.8	6.41e-04	0	43	0	509607936	25	5122
2026-01-21 09:40:39.33	103.27	43.95	-32.1	-36.2	11.3	1.15e-03	0	43	0	514850816	24	5778
2026-01-21 09:40:42.34	102.07	44.53	-32.0	-35.8	11.5	7.67e-04	0	43	0	520093696	24	5625
2026-01-21 09:40:45.35	100.83	45.12	-32.4	-37.1	10.6	4.54e-03	0	43	0	526385152	24	6224
2026-01-21 09:40:48.36	99.54	45.69	-32.0	-35.9	11.5	1.23e-03	0	43	0	531628032	24	5652
2026-01-21 09:40:51.37	98.21	46.26	-31.7	-35.0	12.2	3.11e-04	0	43	0	536870912	24	5251
2026-01-21 09:40:54.39	96.82	46.82	-31.7	-34.9	12.2	1.77e-04	0	43	0	543162368	24	5238
2026-01-21 09:40:57.40	95.38	47.37	-31.9	-35.6	11.8	5.62e-04	0	43	0	548405248	24	5516
2026-01-21 09:41:00.41	93.90	47.90	-31.3	-34.3	13.0	5.11e-05	0	43	0	554696704	23	5076
2026-01-21 09:41:03.42	92.36	48.42	-31.4	-34.7	12.7	5.41e-05	0	43	0	559939584	23	5234
2026-01-21 09:41:06.43	90.77	48.92	-31.7	-35.4	12.3	1.43e-04	0	43	0	565182464	23	5523
2026-01-21 09:41:09.43	89.14	49.40	-32.2	-36.7	10.9	1.53e-03	0	43	0	571473920	24	6007
2026-01-21 09:41:12.45	87.44	49.86	-32.1	-36.3	11.2	1.70e-03	0	43	0	576716800	24	5864
2026-01-21 09:41:15.46	85.70	50.29	-31.8	-35.4	11.9	5.02e-04	0	43	0	581959680	24	5439
2026-01-21 09:41:18.46	83.91	50.70	-31.7	-35.2	11.9	3.71e-04	0	43	0	588251136	24	5374
2026-01-21 09:41:21.46	82.08	51.09	-32.2	-36.7	10.9	2.17e-03	0	43	0	593494016	24	6059
2026-01-21 09:41:24.47	80.19	51.44	-32.0	-36.1	11.3	1.18e-03	0	43	0	599785472	24	5806
2026-01-21 09:41:27.47	78.27	51.76	-31.5	-34.7	12.4	3.66e-04	0	43	0	605028352	24	5179
2026-01-21 09:41:30.49	76.30	52.06	-30.2	-32.4	14.8	7.00e-07	0	43	0	610271232	21	4666
2026-01-21 09:41:33.50	74.29	52.32	-29.7	-31.8	15.5	0.00e+00	0	43	0	616562688	20	4572
2026-01-21 09:41:36.51	72.25	52.54	-28.8	-30.1	16.9	0.00e+00	0	43	0	621805568	19	4160
2026-01-21 09:41:39.52	70.18	52.72	-28.5	-29.9	17.2	0.00e+00	0	43	0	628097024	18	4196
2026-01-21 09:41:42.53	68.09	52.87	-28.5	-30.3	17.3	0.00e+00	0	43	0	633339904	17	4432
2026-01-21 09:41:45.54	65.99	52.97	-28.4	-30.1	17.3	0.00e+00	0	43	0	638582784	17	4379
2026-01-21 09:41:48.56	63.86	53.04	-28.6	-30.6	17.1	0.00e+00	0	43	0	644874240	17	4533
2026-01-21 09:41:51.55	61.75	53.07	-28.7	-30.8	17.0	0.00e+00	0	43	0	650117120	17	4572
2026-01-21 09:41:54.55	59.62	53.06	-29.1	-31.1	16.6	0.00e+00	0	43	0	655360000	18	4569
2026-01-21 09:41:57.55	57.51	53.00	-28.7	-30.2	17.0	0.00e+00	0	43	0	661651456	18	4298
2026-01-21 09:42:00.56	55.40	52.91	-29.0	-31.1	16.6	0.00e+00	0	43	0	666894336	18	4543
2026-01-21 09:42:03.57	53.30	52.77	-29.0	-31.0	16.7	0.00e+00	0	43	0	673185792	18	4511
2026-01-21 09:42:06.57	51.23	52.60	-28.7	-30.2	17.1	0.00e+00	0	43	0	678428672	18	4306
2026-01-21 09:42:09.58	49.19	52.39	-28.5	-29.9	17.3	0.00e+00	0	43	0	683671552	18	4196
2026-01-21 09:42:12.58	47.18	52.15	-28.9	-30.7	16.8	0.00e+00	0	43	0	689963008	18	4448
2026-01-21 09:42:15.58	45.21	51.87	-29.9	-32.8	15.2	0.00e+00	0	43	0	695205888	19	5016
2026-01-21 09:42:18.59	43.27	51.56	-30.4	-33.6	14.3	0.00e+00	0	43	0	700448768	20	5229
2026-01-21 09:42:21.60	41.37	51.21	-30.7	-33.9	13.7	6.10e-06	0	43	0	706740224	21	5213
2026-01-21 09:42:24.61	39.52	50.84	-31.0	-34.3	13.2	1.98e-05	0	43	0	711983104	22	5268
2026-01-21 09:42:27.61	37.72	50.44	-31.3	-35.3	12.5	1.34e-04	0	43	0	717225984	22	5694
2026-01-21 09:42:30.60	35.97	50.02	-31.3	-34.8	12.5	1.11e-04	0	43	0	723517440	23	5361
2026-01-21 09:42:33.62	34.26	49.56	-31.6	-35.7	11.9	3.40e-04	0	43	0	728760320	23	5732
2026-01-21 09:42:36.64	32.60	49.09	-31.4	-34.7	12.6	9.76e-05	0	43	0	735051776	23	5292
2026-01-21 09:42:39.64	31.00	48.60	-31.5	-35.2	12.3	1.70e-04	0	43	0	740294656	23	5498
2026-01-21 09:42:42.64	29.46	48.09	-31.5	-35.2	12.2	1.81e-04	0	43	0	745537536	23	5517
2026-01-21 09:42:45.64	27.96	47.57	-32.0	-36.4	11.0	1.87e-03	0	43	0	751828992	24	5989
2026-01-21 09:42:48.64	26.52	47.03	-32.5	-38.2	9.6	8.90e-03	0	43	0	757071872	24	6928
2026-01-21 09:42:51.64	25.12	46.48	-32.4	-37.8	9.9	8.00e-03	0	43	0	762314752	24	6706
2026-01-21 09:42:54.66	23.77	45.92	-32.4	-37.3	9.9	9.03e-03	0	43	0	768606208	25	6344
2026-01-21 09:42:57.67	22.46	45.35	-32.6	-37.9	9.4	1.95e-02	0	43	0	773849088	25	6638
2026-01-21 09:43:00.68	21.21	44.77	-32.3	-36.8	10.3	5.48e-03	0	43	0	780140544	25	6019
2026-01-21 09:43:03.68	20.00	44.18	-32.2	-36.5	10.6	4.67e-03	0	43	0	785383424	25	5856
2026-01-21 09:43:06.69	18.84	43.59	-31.8	-35.5	11.6	4.65e-04	0	43	0	790626304	24	5516
2026-01-21 09:43:09.70	17.71	43.00	-31.8	-35.4	11.8	3.83e-04	0	43	0	796917760	24	5480
2026-01-21 09:43:12.72	16.63	42.40	-32.1	-36.5	10.9	3.54e-03	0	43	0	802160640	24	5944
2026-01-21 09:43:15.73	15.59	41.80	-31.9	-35.9	11.4	1.26e-03	0	43	0	808452096	24	5686
2026-01-21 09:43:18.74	14.58	41.20	-32.4	-37.5	10.1	5.47e-03	0	43	0	813694976	24	6505
2026-01-21 09:43:21.75	13.62	40.61	-32.4	-37.1	10.1	6.50e-03	0	43	0	818937856	25	6171
2026-01-21 09:43:24.76	12.69	40.01	-32.8	-38.4	9.1	2.00e-02	0	43	0	825229312	25	6868
2026-01-21 09:43:27.76	11.79	39.42	-32.3	-36.7	10.3	6.75e-03	0	43	0	830472192	25	6011
2026-01-21 09:43:30.78	10.92	38.82	-32.1	-36.3	10.5	5.24e-03	0	43	0	835715072	25	5840
2026-01-21 09:43:33.79	10.09	38.23	-32.2	-36.5	10.4	6.24e-03	0	43	0	842006528	25	5938
2026-01-21 09:43:36.80	9.29	37.64	-32.1	-36.3	10.4	4.64e-03	0	43	0	847249408	25	5903
2026-01-21 09:43:39.80	8.52	37.06	-31.9	-35.7	11.0	1.71e-03	0	43	0	853540864	25	5524
2026-01-21 09:43:42.81	7.77	36.49	-32.1	-36.4	10.4	4.28e-03	0	43	0	858783744	25	5866
2026-01-21 09:43:45.82	7.05	35.91	-32.2	-36.7	10.2	5.38e-03	0	43	0	864026624	25	6029
2026-01-21 09:43:48.83	6.35	35.34	-31.6	-35.2	11.6	7.81e-04	0	43	0	870318080	24	5418
2026-01-21 09:43:51.83	5.68	34.78	-31.7	-35.4	11.5	6.35e-04	0	43	0	875560960	24	5517
2026-01-21 09:43:54.82	5.04	34.23	-31.8	-35.8	11.1	1.33e-03	0	43	0	880803840	24	5706
2026-01-21 09:43:57.83	4.41	33.68	-31.6	-35.5	11.3	9.31e-04	0	43	0	887095296	24	5618
2026-01-21 09:44:00.85	3.80	33.13	-31.6	-35.2	11.5	1.03e-03	0	43	0	892338176	24	5495
2026-01-21 09:44:03.85	3.22	32.59	-31.6	-35.2	11.5	1.00e-03	0	43	0	898629632	24	5486
2026-01-21 09:44:06.85	2.65	32.06	-31.7	-35.8	11.0	1.45e-03	0	43	0	903872512	24	5769
2026-01-21 09:44:09.87	2.10	31.54	-31.9	-36.3	10.6	3.38e-03	0	43	0	909115392	24	6037
2026-01-21 09:44:12.88	1.57	31.02	-31.8	-35.9	11.0	2.21e-03	0	44	0	915406848	24	5797
2026-01-21 09:44:15.89	1.06	30.50	-31.9	-36.4	10.5	4.06e-03	0	43	0	920649728	24	6044
2026-01-21 09:44:18.91	0.56	29.99	-31.8	-36.0	10.9	3.35e-03	0	43	0	925892608	24	5858
2026-01-21 09:44:21.93	0.08	29.49	-31.3	-34.5	12.0	3.44e-04	0	43	0	932184064	24	5166
2026-01-21 09:44:24.93	359.61	29.00	-31.4	-34.7	11.8	4.61e-04	0	43	0	937426944	24	5288
2026-01-21 09:44:27.94	359.16	28.51	-31.4	-34.7	11.8	7.44e-04	0	43	0	943718400	24	5272
2026-01-21 09:44:30.95	358.72	28.03	-31.2	-34.6	12.1	3.21e-04	0	43	0	948961280	23	5347
2026-01-21 09:44:33.97	358.30	27.55	-30.8	-33.6	12.8	6.02e-05	0	43	0	954204160	23	4964
2026-01-21 09:44:36.97	357.89	27.09	-30.9	-33.8	12.6	1.07e-04	0	43	0	960495616	23	5046
2026-01-21 09:44:39.96	357.49	26.63	-31.2	-34.7	12.1	2.30e-04	0	43	0	965738496	23	5386
2026-01-21 09:44:42.97	357.10	26.17	-31.0	-34.4	12.2	2.11e-04	0	43	0	972029952	23	5290
2026-01-21 09:44:45.99	356.72	25.72	-31.2	-34.6	12.1	2.29e-04	0	43	0	977272832	23	5327
2026-01-21 09:44:49.00	356.35	25.28	-30.8	-34.1	12.8	5.87e-05	0	43	0	982515712	22	5226
2026-01-21 09:44:52.02	356.00	24.84	-30.9	-34.3	12.7	5.64e-05	0	43	0	988807168	22	5316
2026-01-21 09:44:55.02	355.65	24.41	-30.4	-33.1	13.4	9.90e-06	0	43	0	994050048	22	4870
2026-01-21 09:44:58.02	355.32	23.99	-30.4	-32.8	13.6	1.06e-05	0	43	0	999292928	22	4774
2026-01-21 09:45:01.02	354.99	23.57	-30.3	-32.7	13.7	8.30e-06	0	43	0	1005584384	22	4735
2026-01-21 09:45:04.02	354.67	23.15	-30.5	-33.2	13.4	1.67e-05	0	44	0	1010827264	22	4899
2026-01-21 09:45:07.03	354.36	22.75	-30.7	-33.6	13.1	2.51e-05	0	43	0	1017118720	22	5040
2026-01-21 09:45:10.04	354.06	22.34	-30.9	-34.0	12.8	5.18e-05	0	43	0	1022361600	22	5189
2026-01-21 09:45:13.05	353.77	21.95	-30.8	-33.8	12.9	4.57e-05	0	43	0	1027604480	22	5118
2026-01-21 09:45:16.06	353.48	21.55	-30.9	-34.2	12.7	7.01e-05	0	43	0	1033895936	22	5226
2026-01-21 09:45:19.06	353.20	21.17	-30.9	-34.0	12.9	5.56e-05	0	43	0	1039138816	22	5150
2026-01-21 09:45:22.06	352.93	20.79	-30.8	-33.8	12.9	5.11e-05	0	43	0	1044381696	22	5104
2026-01-21 09:45:25.07	352.67	20.41	-30.7	-33.7	13.0	5.64e-05	0	43	0	1050673152	22	5038
2026-01-21 09:45:28.08	352.41	20.04	-30.6	-33.2	13.3	1.67e-05	0	43	0	1055916032	22	4880
2026-01-21 09:45:31.09	352.16	19.67	-30.6	-33.3	13.3	2.67e-05	0	44	0	1062207488	22	4907
2026-01-21 09:45:34.10	351.91	19.31	-30.6	-33.4	13.2	1.60e-05	0	43	0	1067450368	22	4949
2026-01-21 09:45:37.11	351.67	18.95	-30.7	-33.7	13.0	4.57e-05	0	43	0	1072693248	22	5053
2026-01-21 09:45:40.11	351.44	18.60	-30.6	-33.3	13.2	2.82e-05	0	43	0	1078984704	22	4930
2026-01-21 09:45:43.12	351.21	18.25	-30.7	-33.5	13.1	3.73e-05	0	43	0	1084227584	22	4984
2026-01-21 09:45:46.13	350.99	17.91	-30.9	-34.3	12.5	8.92e-05	0	43	0	1089470464	22	5287
2026-01-21 09:45:49.14	350.77	17.57	-31.0	-34.4	12.4	1.04e-04	0	43	0	1095761920	22	5330
2026-01-21 09:45:52.15	350.56	17.23	-31.0	-34.4	12.4	1.46e-04	0	43	0	1101004800	22	5345
2026-01-21 09:45:55.16	350.35	16.90	-30.8	-34.1	12.6	1.08e-04	0	43	0	1107296256	22	5210
2026-01-21 09:45:58.17	350.15	16.57	-30.7	-33.7	12.9	6.40e-05	0	43	0	1112539136	22	5054
2026-01-21 09:46:01.16	349.95	16.25	-30.8	-34.0	12.6	7.93e-05	0	43	0	1117782016	22	5178
2026-01-21 09:46:04.18	349.76	15.93	-30.8	-33.8	12.7	7.47e-05	0	43	0	1124073472	22	5130
2026-01-21 09:46:07.18	349.57	15.62	-30.9	-34.3	12.4	1.72e-04	0	43	0	1129316352	22	5318
2026-01-21 09:46:10.19	349.38	15.31	-30.9	-34.2	12.4	1.46e-04	0	43	0	1134559232	22	5275
2026-01-21 09:46:13.20	349.20	15.00	-30.9	-34.2	12.4	1.70e-04	0	43	0	1140850688	22	5281
2026-01-21 09:46:16.21	349.02	14.69	-31.0	-34.5	12.1	2.23e-04	0	43	0	1146093568	22	5404
2026-01-21 09:46:19.22	348.85	14.39	-31.0	-34.6	12.0	4.07e-04	0	43	0	1152385024	22	5470
2026-01-21 09:46:22.22	348.68	14.09	-31.1	-34.9	11.8	4.36e-04	0	43	0	1157627904	22	5584
2026-01-21 09:46:25.22	348.51	13.80	-31.0	-34.9	11.8	4.06e-04	0	43	0	1162870784	22	5583
2026-01-21 09:46:28.23	348.35	13.51	-31.1	-35.1	11.6	6.06e-04	0	43	0	1169162240	22	5713
2026-01-21 09:46:31.25	348.19	13.22	-31.2	-35.3	11.5	8.79e-04	0	44	0	1174405120	22	5769
2026-01-21 09:46:34.27	348.03	12.93	-31.1	-35.1	11.5	8.43e-04	0	43	0	1180696576	22	5715
2026-01-21 09:46:37.27	347.88	12.65	-31.1	-35.1	11.5	7.43e-04	0	43	0	1185939456	22	5717
2026-01-21 09:46:40.27	347.73	12.38	-31.1	-35.0	11.6	7.26e-04	0	43	0	1191182336	22	5643
2026-01-21 09:46:43.28	347.59	12.10	-31.1	-35.2	11.4	9.33e-04	0	43	0	1197473792	22	5751
2026-01-21 09:46:46.29	347.44	11.83	-31.1	-35.2	11.3	1.03e-03	0	43	0	1202716672	22	5777
2026-01-21 09:46:49.28	347.30	11.56	-31.1	-35.3	11.3	1.20e-03	0	43	0	1207959552	22	5798
2026-01-21 09:46:52.29	347.16	11.29	-31.2	-35.5	11.1	1.56e-03	0	43	0	1214251008	22	5905
2026-01-21 09:46:55.30	347.03	11.03	-31.3	-36.0	10.6	3.36e-03	0	43	0	1219493888	22	6181
2026-01-21 09:46:58.31	346.89	10.76	-31.2	-35.5	11.0	1.80e-03	0	43	0	1225785344	22	5916
2026-01-21 09:47:01.32	346.76	10.50	-31.2	-35.6	11.0	2.19e-03	0	43	0	1231028224	22	5949
2026-01-21 09:47:04.33	346.64	10.25	-31.2	-35.7	10.9	2.70e-03	0	43	0	1236271104	22	6035
2026-01-21 09:47:07.34	346.51	9.99	-31.3	-36.1	10.6	3.37e-03	0	43	0	1242562560	22	6212
2026-01-21 09:47:10.35	346.39	9.74	-31.4	-36.5	10.2	5.98e-03	0	43	0	1247805440	22	6438
2026-01-21 09:47:13.35	346.27	9.49	-31.5	-36.5	10.2	6.00e-03	0	43	0	1253048320	22	6442
2026-01-21 09:47:16.36	346.15	9.24	-31.5	-36.4	9.8	9.15e-03	0	43	0	1259339776	23	6284
2026-01-21 09:47:19.37	346.03	9.00	-31.6	-36.8	9.5	1.62e-02	0	43	0	1264582656	23	6505
2026-01-21 09:47:22.38	345.92	8.76	-31.7	-36.9	9.4	1.44e-02	0	43	0	1270874112	23	6581
2026-01-21 09:47:25.38	345.81	8.52	-31.8	-37.3	9.0	2.32e-02	0	43	0	1276116992	23	6846
2026-01-21 09:47:28.38	345.70	8.28	-31.7	-37.0	9.2	2.11e-02	0	44	0	1281359872	23	6650
2026-01-21 09:47:31.39	345.59	8.04	-31.7	-37.0	9.2	2.00e-02	0	43	0	1287651328	23	6676
2026-01-21 09:47:34.41	345.48	7.81	-31.6	-36.9	9.3	2.10e-02	0	43	0	1292894208	23	6602
2026-01-21 09:47:37.41	345.38	7.58	-31.6	-36.9	9.2	1.77e-02	0	43	0	1298137088	23	6610
2026-01-21 09:47:40.42	345.27	7.35	-31.6	-36.9	9.1	2.00e-02	0	44	0	1304428544	23	6648
2026-01-21 09:47:43.42	345.17	7.12	-31.6	-37.0	9.1	2.16e-02	0	43	0	1309671424	23	6690

#Closed at: 2026-01-21 09:47:46
#Recorded file [1311 MB]: D:/data/31010_260121_123604.dat