passes_logs/2026/01/21/R2M6_AANII_01/R2M6_AANII_01__20260121_111633_NOAA_20_JPSS-1_rec.log

#Pass ID: 20260121_111633_NOAA 20 (JPSS-1)
#Satellite: NOAA 20 (JPSS-1)
#Configuration: NOAA 20
#almurnet v.1.7.20240730
#Start time: 2026-01-21 11:16:34

#Version: 2.2.20231116
#Station: R2M6_AANII_01
#Location: 30.233357 lon 59.946436 lat
#TLE: 1 43013U 17073A   26020.26397077  .00000127  00000+0  80954-4 0  9999
#TLE: 2 43013  98.7643 321.1479 0001288  31.3158 328.8095 14.19537595423482

#Time	Az	El	Level	Level2	SNR	BER	BlckErr	Temp	State	Recorded	gain1	gain2
2026-01-21 11:16:34.01	190.48	7.03	-31.0	-35.3	5.4	1.19e+00	0	41	0	0	23	5927
2026-01-21 11:16:37.01	190.66	7.25	-31.4	-36.8	8.8	2.92e-02	0	41	0	1048576	23	6704
2026-01-21 11:16:40.02	190.84	7.47	-31.0	-35.1	10.1	7.10e-03	0	41	0	7340032	23	5779
2026-01-21 11:16:43.04	191.02	7.69	-31.0	-35.1	10.2	6.07e-03	0	41	0	12582912	23	5770
2026-01-21 11:16:46.05	191.20	7.92	-31.0	-35.2	10.1	6.52e-03	0	41	0	17825792	23	5822
2026-01-21 11:16:49.05	191.39	8.14	-31.0	-35.1	10.2	6.99e-03	0	42	0	24117248	23	5775
2026-01-21 11:16:52.06	191.58	8.37	-30.8	-34.4	10.7	4.09e-03	0	42	0	29360128	23	5437
2026-01-21 11:16:55.06	191.77	8.60	-30.7	-34.4	11.1	1.64e-03	0	42	0	35651584	22	5560
2026-01-21 11:16:58.06	191.97	8.83	-30.6	-34.3	11.1	1.52e-03	0	42	0	40894464	22	5513
2026-01-21 11:17:01.07	192.17	9.06	-30.6	-34.1	11.3	1.14e-03	0	42	0	46137344	22	5420
2026-01-21 11:17:04.08	192.37	9.30	-30.6	-34.2	11.3	1.06e-03	0	42	0	52428800	22	5444
2026-01-21 11:17:07.08	192.57	9.53	-30.6	-34.1	11.5	1.11e-03	0	42	0	57671680	22	5401
2026-01-21 11:17:10.09	192.78	9.77	-30.6	-34.1	11.6	6.33e-04	0	42	0	62914560	22	5354
2026-01-21 11:17:13.09	192.99	10.01	-30.6	-34.0	11.7	6.83e-04	0	42	0	69206016	22	5339
2026-01-21 11:17:16.10	193.21	10.26	-30.6	-34.0	11.6	6.23e-04	0	42	0	74448896	22	5367
2026-01-21 11:17:19.11	193.42	10.50	-30.5	-34.0	11.4	7.92e-04	0	42	0	80740352	22	5388
2026-01-21 11:17:22.12	193.65	10.75	-30.1	-33.7	11.5	6.74e-04	0	42	0	85983232	21	5427
2026-01-21 11:17:25.13	193.87	11.00	-30.1	-33.6	11.4	9.11e-04	0	42	0	91226112	21	5422
2026-01-21 11:17:28.13	194.10	11.25	-30.0	-33.4	11.5	7.79e-04	0	43	0	97517568	21	5351
2026-01-21 11:17:31.15	194.33	11.50	-30.4	-34.0	11.8	4.09e-04	0	42	0	102760448	21	5499
2026-01-21 11:17:34.15	194.57	11.76	-30.3	-33.7	12.3	2.52e-04	0	43	0	108003328	21	5317
2026-01-21 11:17:37.16	194.81	12.02	-30.4	-33.9	12.2	2.37e-04	0	43	0	114294784	21	5384
2026-01-21 11:17:40.17	195.05	12.28	-30.2	-33.4	12.5	1.71e-04	0	42	0	119537664	21	5186
2026-01-21 11:17:43.17	195.30	12.54	-30.2	-33.2	12.6	9.07e-05	0	43	0	125829120	21	5106
2026-01-21 11:17:46.16	195.55	12.80	-30.3	-33.4	12.4	1.17e-04	0	43	0	131072000	21	5200
2026-01-21 11:17:49.18	195.81	13.07	-30.1	-33.0	12.6	9.99e-05	0	43	0	136314880	21	5057
2026-01-21 11:17:52.19	196.07	13.34	-29.9	-32.7	12.6	9.46e-05	0	43	0	142606336	21	4941
2026-01-21 11:17:55.20	196.34	13.62	-29.8	-32.5	12.6	1.14e-04	0	43	0	147849216	21	4897
2026-01-21 11:17:58.21	196.61	13.89	-30.0	-33.0	12.4	1.17e-04	0	43	0	153092096	21	5052
2026-01-21 11:18:01.21	196.89	14.17	-30.0	-32.9	12.7	6.79e-05	0	43	0	159383552	21	5008
2026-01-21 11:18:04.21	197.17	14.45	-30.0	-32.7	13.1	4.57e-05	0	43	0	164626432	21	4893
2026-01-21 11:18:07.22	197.46	14.73	-30.0	-32.6	13.2	2.21e-05	0	43	0	170917888	21	4864
2026-01-21 11:18:10.23	197.75	15.02	-30.0	-32.6	13.3	1.52e-05	0	43	0	176160768	21	4854
2026-01-21 11:18:13.25	198.05	15.31	-30.2	-33.1	13.0	2.97e-05	0	43	0	181403648	21	5030
2026-01-21 11:18:16.26	198.35	15.60	-30.3	-33.4	12.9	4.95e-05	0	43	0	187695104	21	5128
2026-01-21 11:18:19.27	198.66	15.89	-30.2	-33.0	13.2	2.36e-05	0	43	0	192937984	21	4965
2026-01-21 11:18:22.29	198.97	16.19	-30.3	-33.3	13.0	4.42e-05	0	43	0	199229440	21	5094
2026-01-21 11:18:25.30	199.30	16.49	-30.3	-33.2	13.1	2.67e-05	0	43	0	204472320	21	5058
2026-01-21 11:18:28.31	199.62	16.79	-30.3	-33.3	13.0	2.67e-05	0	43	0	209715200	21	5071
2026-01-21 11:18:31.29	199.95	17.09	-30.2	-32.9	13.3	1.29e-05	0	43	0	216006656	21	4923
2026-01-21 11:18:34.29	200.29	17.40	-30.2	-32.9	13.3	2.36e-05	0	43	0	221249536	21	4924
2026-01-21 11:18:37.30	200.64	17.71	-30.0	-32.4	13.6	9.10e-06	0	43	0	226492416	21	4754
2026-01-21 11:18:40.31	200.99	18.03	-30.0	-32.5	13.6	7.60e-06	0	43	0	232783872	21	4789
2026-01-21 11:18:43.32	201.35	18.34	-30.1	-32.8	13.4	1.67e-05	0	43	0	238026752	21	4915
2026-01-21 11:18:46.33	201.72	18.67	-30.1	-32.8	13.5	7.60e-06	0	43	0	244318208	21	4878
2026-01-21 11:18:49.33	202.10	18.99	-30.2	-33.1	13.3	1.75e-05	0	43	0	249561088	21	4984
2026-01-21 11:18:52.34	202.48	19.31	-30.1	-32.8	13.5	8.30e-06	0	43	0	254803968	21	4876
2026-01-21 11:18:55.34	202.87	19.64	-30.3	-33.2	13.3	1.22e-05	0	43	0	261095424	21	5019
2026-01-21 11:18:58.35	203.27	19.98	-30.5	-33.8	12.9	4.11e-05	0	43	0	266338304	21	5249
2026-01-21 11:19:01.36	203.68	20.31	-30.5	-33.7	13.0	5.79e-05	0	43	0	271581184	21	5213
2026-01-21 11:19:04.37	204.10	20.65	-30.4	-33.5	13.1	3.05e-05	0	43	0	277872640	21	5140
2026-01-21 11:19:07.38	204.52	20.99	-30.4	-33.5	12.9	3.94e-03	0	43	0	283115520	21	5179
2026-01-21 11:19:10.40	204.96	21.34	-30.5	-33.9	12.7	6.24e-03	0	43	0	289406976	21	5324
2026-01-21 11:19:13.42	205.41	21.69	-30.4	-33.6	13.0	2.72e-03	0	43	0	294649856	21	5187
2026-01-21 11:19:16.42	205.86	22.04	-30.4	-33.7	12.8	6.30e-03	0	43	0	299892736	21	5285
2026-01-21 11:19:19.43	206.33	22.39	-30.3	-33.3	13.3	2.05e-05	0	43	0	306184192	21	5048
2026-01-21 11:19:22.43	206.80	22.75	-30.4	-33.4	13.2	2.51e-05	0	43	0	311427072	21	5110
2026-01-21 11:19:25.44	207.29	23.11	-30.6	-33.9	12.9	2.51e-05	0	43	0	317718528	21	5292
2026-01-21 11:19:28.45	207.79	23.47	-30.7	-34.3	12.7	7.62e-05	0	43	0	322961408	21	5426
2026-01-21 11:19:31.46	208.29	23.84	-30.6	-33.8	13.0	3.50e-05	0	43	0	328204288	21	5251
2026-01-21 11:19:34.47	208.82	24.21	-30.6	-34.0	12.9	6.63e-05	0	44	0	334495744	21	5318
2026-01-21 11:19:37.48	209.35	24.58	-30.5	-33.8	13.1	2.67e-05	0	43	0	339738624	21	5220
2026-01-21 11:19:40.49	209.89	24.95	-30.6	-33.8	13.0	1.33e-04	0	44	0	344981504	21	5251
2026-01-21 11:19:43.50	210.45	25.33	-30.6	-34.0	12.8	1.99e-03	0	43	0	351272960	21	5329
2026-01-21 11:19:46.52	211.03	25.71	-30.7	-34.1	12.8	8.44e-04	0	43	0	356515840	21	5371
2026-01-21 11:19:49.53	211.61	26.09	-30.8	-34.5	12.6	8.39e-05	0	43	0	362807296	21	5516
2026-01-21 11:19:52.54	212.21	26.48	-30.9	-34.6	12.6	9.68e-05	0	43	0	368050176	21	5559
2026-01-21 11:19:55.55	212.82	26.86	-30.9	-34.7	12.6	7.85e-05	0	43	0	373293056	21	5590
2026-01-21 11:19:58.55	213.45	27.25	-30.9	-34.8	12.5	1.51e-04	0	43	0	379584512	21	5625
2026-01-21 11:20:01.56	214.09	27.64	-30.8	-34.5	12.7	7.62e-05	0	43	0	384827392	21	5512
2026-01-21 11:20:04.57	214.75	28.03	-31.0	-34.6	12.4	1.65e-04	0	44	0	391118848	22	5426
2026-01-21 11:20:07.58	215.42	28.43	-31.1	-34.9	12.1	2.39e-04	0	44	0	396361728	22	5574
2026-01-21 11:20:10.59	216.11	28.82	-31.3	-35.3	11.8	4.07e-04	0	43	0	401604608	22	5758
2026-01-21 11:20:13.60	216.82	29.22	-31.2	-35.2	11.9	3.84e-04	0	43	0	407896064	22	5696
2026-01-21 11:20:16.61	217.55	29.61	-31.4	-35.7	11.5	2.06e-03	0	43	0	413138944	22	5924
2026-01-21 11:20:19.62	218.29	30.01	-31.3	-34.9	11.8	5.72e-04	0	43	0	418381824	23	5424
2026-01-21 11:20:22.63	219.05	30.41	-31.3	-34.8	12.0	3.70e-04	0	43	0	424673280	23	5373
2026-01-21 11:20:25.63	219.83	30.81	-31.2	-34.7	12.0	3.58e-04	0	44	0	429916160	23	5346
2026-01-21 11:20:28.64	220.63	31.20	-31.4	-35.1	11.8	7.49e-04	0	43	0	436207616	23	5512
2026-01-21 11:20:31.65	221.44	31.60	-31.4	-35.0	11.8	4.45e-04	0	43	0	441450496	23	5487
2026-01-21 11:20:34.66	222.28	31.99	-31.6	-35.7	11.3	1.11e-03	0	43	0	446693376	23	5809
2026-01-21 11:20:37.68	223.14	32.39	-31.5	-35.6	11.4	9.10e-04	0	43	0	452984832	23	5726
2026-01-21 11:20:40.68	224.02	32.78	-31.8	-36.4	10.8	2.50e-03	0	44	0	458227712	23	6143
2026-01-21 11:20:43.69	224.92	33.17	-32.0	-37.1	10.2	4.02e-03	0	44	0	463470592	23	6516
2026-01-21 11:20:46.70	225.84	33.55	-32.1	-37.0	10.0	8.56e-03	0	44	0	469762048	24	6324
2026-01-21 11:20:49.71	226.78	33.94	-32.2	-37.3	9.7	1.11e-02	0	44	0	475004928	24	6487
2026-01-21 11:20:52.71	227.74	34.31	-32.3	-37.9	9.2	2.30e-02	0	43	0	481296384	24	6856
2026-01-21 11:20:55.73	228.73	34.69	-32.5	-38.1	8.7	3.87e-02	0	43	0	486539264	25	6899
2026-01-21 11:20:58.74	229.74	35.06	-32.1	-36.4	10.1	6.92e-03	0	44	0	491782144	25	5922
2026-01-21 11:21:01.75	230.77	35.42	-32.1	-36.7	9.9	9.39e-03	0	44	0	498073600	25	6060
2026-01-21 11:21:04.75	231.82	35.78	-32.3	-37.1	9.5	1.27e-02	0	44	0	503316480	25	6302
2026-01-21 11:21:07.75	232.89	36.13	-32.0	-36.1	10.4	6.94e-03	0	44	0	508559360	25	5763
2026-01-21 11:21:10.77	234.00	36.47	-32.0	-36.1	10.4	3.53e-03	0	43	0	514850816	25	5736
2026-01-21 11:21:13.78	235.12	36.81	-32.1	-36.4	10.2	3.84e-03	0	43	0	520093696	25	5894
2026-01-21 11:21:16.78	236.26	37.13	-32.1	-36.2	10.3	6.12e-03	0	44	0	526385152	25	5788
2026-01-21 11:21:19.79	237.42	37.45	-31.7	-35.3	11.3	1.04e-03	0	44	0	531628032	24	5494
2026-01-21 11:21:22.78	238.60	37.75	-31.7	-35.4	11.3	1.07e-03	0	44	0	536870912	24	5505
2026-01-21 11:21:25.78	239.81	38.04	-31.7	-35.5	11.2	1.41e-03	0	44	0	543162368	24	5576
2026-01-21 11:21:28.80	241.05	38.33	-31.8	-35.7	11.0	2.70e-03	0	44	0	548405248	24	5674
2026-01-21 11:21:31.81	242.30	38.60	-32.0	-36.4	10.5	3.60e-03	0	44	0	553648128	24	5994
2026-01-21 11:21:34.82	243.57	38.85	-31.9	-36.1	10.7	4.87e-03	0	44	0	559939584	24	5852
2026-01-21 11:21:37.84	244.86	39.09	-32.0	-36.5	10.5	5.42e-03	0	44	0	565182464	24	6019
2026-01-21 11:21:40.85	246.17	39.32	-32.0	-36.7	10.3	7.87e-03	0	44	0	571473920	24	6140
2026-01-21 11:21:43.86	247.50	39.53	-31.7	-35.3	11.5	8.42e-04	0	43	0	576716800	24	5447
2026-01-21 11:21:46.87	248.85	39.73	-31.8	-35.6	11.2	1.71e-03	0	44	0	581959680	24	5596
2026-01-21 11:21:49.89	250.21	39.91	-31.4	-34.3	12.2	3.22e-04	0	44	0	588251136	24	5070
2026-01-21 11:21:52.90	251.58	40.07	-31.6	-35.6	11.7	4.26e-04	0	44	0	593494016	23	5693
2026-01-21 11:21:55.92	252.97	40.22	-31.9	-35.8	11.1	1.93e-03	0	44	0	599785472	24	5691
2026-01-21 11:21:58.93	254.37	40.35	-31.3	-34.2	12.2	3.79e-04	0	44	0	605028352	24	5006
2026-01-21 11:22:01.93	255.77	40.45	-32.2	-36.8	10.4	1.83e-03	0	44	0	610271232	24	6165
2026-01-21 11:22:04.94	257.19	40.54	-32.2	-37.0	10.3	1.04e-02	0	43	0	616562688	24	6243
2026-01-21 11:22:07.96	258.62	40.61	-32.1	-36.6	10.5	2.49e-03	0	43	0	621805568	24	6047
2026-01-21 11:22:10.96	260.04	40.67	-32.9	-39.4	8.1	4.86e-02	0	44	0	628097024	25	7577
2026-01-21 11:22:13.97	261.47	40.70	-32.5	-37.5	9.5	1.70e-02	0	44	0	633339904	25	6414
2026-01-21 11:22:16.97	262.90	40.71	-32.1	-36.1	10.5	3.20e-03	0	44	0	638582784	25	5731
2026-01-21 11:22:19.98	264.33	40.70	-32.4	-37.1	9.9	7.65e-03	0	44	0	644874240	25	6182
2026-01-21 11:22:22.99	265.77	40.67	-31.9	-35.4	11.1	2.29e-03	0	44	0	650117120	25	5387
2026-01-21 11:22:25.99	267.19	40.63	-32.3	-36.6	10.2	2.57e-03	0	44	0	655360000	25	5928
2026-01-21 11:22:28.99	268.61	40.56	-31.6	-35.0	11.7	5.32e-04	0	44	0	661651456	24	5324
2026-01-21 11:22:31.99	270.02	40.48	-31.6	-35.0	11.7	5.02e-04	0	44	0	666894336	24	5305
2026-01-21 11:22:35.01	271.43	40.37	-31.6	-35.1	11.7	7.32e-04	0	44	0	672137216	24	5346
2026-01-21 11:22:38.01	272.82	40.25	-32.0	-36.4	10.8	2.26e-03	0	44	0	678428672	24	5919
2026-01-21 11:22:41.01	274.21	40.11	-32.2	-37.0	10.2	5.47e-03	0	44	0	683671552	24	6262
2026-01-21 11:22:44.02	275.58	39.95	-32.5	-37.9	9.6	1.14e-02	0	44	0	689963008	24	6709
2026-01-21 11:22:47.03	276.94	39.77	-32.4	-37.1	9.8	1.12e-02	0	44	0	695205888	25	6208
2026-01-21 11:22:50.04	278.29	39.58	-32.2	-36.4	10.4	3.16e-03	0	43	0	700448768	25	5861
2026-01-21 11:22:53.05	279.61	39.37	-31.9	-35.4	11.1	1.98e-03	0	44	0	706740224	25	5382
2026-01-21 11:22:56.05	280.92	39.15	-32.7	-38.2	9.0	1.39e-02	0	44	0	711983104	25	6826
2026-01-21 11:22:59.06	282.21	38.91	-31.7	-35.4	11.4	1.57e-03	0	44	0	717225984	24	5511
2026-01-21 11:23:02.07	283.49	38.66	-32.1	-36.4	10.7	1.90e-03	0	44	0	723517440	24	5961
2026-01-21 11:23:05.07	284.74	38.39	-31.3	-34.1	12.4	2.07e-04	0	44	0	728760320	24	4941
2026-01-21 11:23:08.10	285.98	38.11	-31.6	-35.4	11.8	4.13e-04	0	44	0	735051776	23	5598
2026-01-21 11:23:11.11	287.19	37.82	-29.8	-31.6	14.9	0.00e+00	0	44	0	740294656	21	4414
2026-01-21 11:23:14.12	288.38	37.52	-30.5	-33.3	13.9	1.50e-06	0	44	0	745537536	21	4982
2026-01-21 11:23:17.13	289.55	37.21	-30.2	-32.5	14.4	1.50e-06	0	44	0	751828992	21	4711
2026-01-21 11:23:20.13	290.69	36.89	-30.2	-32.5	14.4	1.50e-06	0	44	0	757071872	21	4691
2026-01-21 11:23:23.15	291.82	36.56	-29.6	-31.4	15.4	0.00e+00	0	44	0	763363328	20	4444
2026-01-21 11:23:26.16	292.92	36.22	-30.8	-34.2	13.3	1.14e-05	0	44	0	768606208	21	5314
2026-01-21 11:23:29.17	293.99	35.87	-29.8	-31.9	15.1	0.00e+00	0	44	0	773849088	20	4617
2026-01-21 11:23:32.17	295.05	35.52	-31.1	-34.5	12.8	2.28e-05	0	44	0	780140544	22	5327
2026-01-21 11:23:35.18	296.08	35.16	-30.4	-32.4	14.1	7.00e-07	0	44	0	785383424	22	4579
2026-01-21 11:23:38.20	297.09	34.79	-30.9	-34.3	13.2	2.51e-05	0	44	0	790626304	21	5362
2026-01-21 11:23:41.22	298.08	34.42	-30.0	-31.9	14.8	0.00e+00	0	44	0	796917760	21	4497
2026-01-21 11:23:44.23	299.05	34.04	-31.0	-34.7	13.0	1.14e-05	0	44	0	802160640	21	5499
2026-01-21 11:23:47.24	299.99	33.66	-30.9	-33.9	13.1	4.80e-05	0	44	0	808452096	22	5106
2026-01-21 11:23:50.24	300.91	33.28	-31.5	-35.3	11.9	2.10e-04	0	44	0	813694976	23	5553
2026-01-21 11:23:53.26	301.82	32.89	-31.5	-35.3	11.8	9.87e-04	0	44	0	818937856	23	5543
2026-01-21 11:23:56.26	302.69	32.51	-31.5	-35.1	12.0	1.62e-04	0	44	0	825229312	23	5449
2026-01-21 11:23:59.28	303.55	32.11	-31.9	-36.1	10.9	4.17e-03	0	44	0	830472192	24	5822
2026-01-21 11:24:02.30	304.40	31.72	-30.9	-33.4	13.1	2.36e-05	0	44	0	836763648	23	4814
2026-01-21 11:24:05.31	305.22	31.33	-32.3	-37.3	9.9	5.55e-03	0	44	0	842006528	24	6454
2026-01-21 11:24:08.31	306.01	30.93	-32.0	-36.5	10.6	5.64e-03	0	44	0	847249408	24	5994
2026-01-21 11:24:11.32	306.79	30.54	-32.0	-36.4	10.6	3.55e-03	0	44	0	853540864	24	5986
2026-01-21 11:24:14.33	307.56	30.14	-32.3	-37.1	9.7	1.98e-02	0	44	0	858783744	25	6201
2026-01-21 11:24:17.35	308.30	29.75	-31.4	-34.4	12.0	3.36e-04	0	44	0	864026624	24	5090
2026-01-21 11:24:20.36	309.03	29.35	-32.1	-36.9	10.2	4.06e-03	0	44	0	870318080	24	6215
2026-01-21 11:24:23.37	309.74	28.96	-31.5	-34.7	11.8	1.86e-03	0	44	0	875560960	24	5211
2026-01-21 11:24:26.37	310.43	28.57	-30.4	-32.7	13.8	3.80e-06	0	44	0	881852416	22	4672
2026-01-21 11:24:29.38	311.11	28.18	-31.4	-35.5	11.9	4.12e-04	0	44	0	887095296	22	5792
2026-01-21 11:24:32.39	311.77	27.79	-30.3	-32.3	14.1	3.80e-06	0	44	0	892338176	22	4547
2026-01-21 11:24:35.40	312.41	27.40	-29.9	-31.9	14.6	0.00e+00	0	44	0	898629632	21	4508
2026-01-21 11:24:38.39	313.04	27.02	-30.3	-33.0	13.9	1.50e-06	0	44	0	903872512	21	4896
2026-01-21 11:24:41.40	313.65	26.63	-29.3	-30.9	15.5	0.00e+00	0	44	0	909115392	20	4306
2026-01-21 11:24:44.42	314.25	26.25	-29.2	-31.0	15.8	0.00e+00	0	44	0	915406848	19	4444
2026-01-21 11:24:47.44	314.84	25.87	-30.0	-32.6	14.4	7.00e-07	0	44	0	920649728	20	4856
2026-01-21 11:24:50.45	315.42	25.49	-30.0	-32.7	14.3	2.20e-06	0	44	0	926941184	20	4904
2026-01-21 11:24:53.45	315.97	25.12	-29.4	-31.1	15.3	0.00e+00	0	44	0	932184064	20	4366
2026-01-21 11:24:56.46	316.52	24.75	-29.5	-31.8	15.3	0.00e+00	0	44	0	937426944	19	4687
2026-01-21 11:24:59.47	317.06	24.38	-30.1	-32.9	14.2	2.20e-06	0	43	0	943718400	20	4973
2026-01-21 11:25:02.48	317.58	24.01	-29.4	-31.2	15.2	0.00e+00	0	44	0	948961280	20	4408
2026-01-21 11:25:05.49	318.09	23.64	-29.7	-31.8	14.8	0.00e+00	0	44	0	955252736	20	4602
2026-01-21 11:25:08.50	318.59	23.28	-30.3	-33.4	13.8	1.50e-06	0	44	0	960495616	20	5165
2026-01-21 11:25:11.51	319.08	22.92	-30.7	-34.2	13.0	1.67e-05	0	44	0	965738496	21	5344
2026-01-21 11:25:14.52	319.55	22.57	-30.1	-32.5	14.1	7.00e-07	0	44	0	972029952	21	4717
2026-01-21 11:25:17.53	320.02	22.22	-30.0	-32.1	14.3	7.00e-07	0	44	0	977272832	21	4610
2026-01-21 11:25:20.54	320.48	21.87	-30.2	-32.8	13.8	3.00e-06	0	44	0	982515712	21	4854
2026-01-21 11:25:23.54	320.92	21.52	-29.9	-31.8	14.4	7.00e-07	0	44	0	988807168	21	4515
2026-01-21 11:25:26.56	321.36	21.18	-29.7	-32.0	14.7	7.00e-07	0	44	0	994050048	20	4665
2026-01-21 11:25:29.57	321.79	20.84	-30.1	-33.0	14.0	7.00e-07	0	44	0	1000341504	20	5026
2026-01-21 11:25:32.58	322.21	20.50	-30.3	-33.5	13.7	7.60e-06	0	44	0	1005584384	20	5203
2026-01-21 11:25:35.58	322.62	20.17	-30.4	-33.4	13.4	2.59e-05	0	44	0	1010827264	21	5073
2026-01-21 11:25:38.59	323.02	19.84	-30.4	-33.4	13.4	1.29e-05	0	44	0	1017118720	21	5058
2026-01-21 11:25:41.60	323.42	19.51	-30.7	-34.2	12.8	4.27e-05	0	44	0	1022361600	21	5364
2026-01-21 11:25:44.61	323.80	19.18	-31.2	-35.0	12.0	2.07e-04	0	44	0	1028653056	22	5593
2026-01-21 11:25:47.63	324.18	18.86	-31.1	-34.8	12.0	3.81e-04	0	44	0	1033895936	22	5533
2026-01-21 11:25:50.64	324.55	18.54	-30.8	-34.0	12.6	7.55e-05	0	44	0	1039138816	22	5188
2026-01-21 11:25:53.65	324.92	18.23	-30.5	-33.1	13.2	4.65e-05	0	44	0	1045430272	22	4847
2026-01-21 11:25:56.65	325.27	17.91	-30.4	-33.3	13.3	8.30e-06	0	44	0	1050673152	21	5026
2026-01-21 11:25:59.67	325.62	17.60	-30.8	-34.5	12.5	5.34e-05	0	44	0	1055916032	21	5512
2026-01-21 11:26:02.67	325.96	17.30	-31.0	-34.5	12.2	2.80e-04	0	43	0	1062207488	22	5400
2026-01-21 11:26:05.66	326.30	16.99	-30.8	-34.1	12.4	1.41e-04	0	44	0	1067450368	22	5243
2026-01-21 11:26:08.67	326.62	16.69	-30.7	-33.9	12.6	2.09e-04	0	44	0	1073741824	22	5170
2026-01-21 11:26:11.68	326.95	16.40	-30.5	-33.1	13.1	3.12e-05	0	44	0	1078984704	22	4863
2026-01-21 11:26:14.69	327.26	16.10	-30.6	-33.4	12.9	5.72e-05	0	44	0	1084227584	22	4977
2026-01-21 11:26:17.70	327.58	15.81	-30.6	-33.5	12.8	6.25e-05	0	44	0	1090519040	22	5036
2026-01-21 11:26:20.69	327.88	15.52	-30.7	-33.9	12.5	1.34e-04	0	44	0	1095761920	22	5187
2026-01-21 11:26:23.69	328.18	15.23	-30.8	-34.1	12.3	2.30e-04	0	44	0	1101004800	22	5251
2026-01-21 11:26:26.71	328.47	14.95	-30.6	-33.6	12.6	1.19e-04	0	44	0	1107296256	22	5075
2026-01-21 11:26:29.73	328.76	14.66	-30.5	-33.1	13.0	6.63e-05	0	44	0	1112539136	22	4890
2026-01-21 11:26:32.74	329.05	14.38	-30.4	-33.0	13.0	5.49e-05	0	44	0	1118830592	22	4851
2026-01-21 11:26:35.74	329.33	14.11	-30.7	-33.7	12.4	1.10e-04	0	44	0	1124073472	22	5136
2026-01-21 11:26:38.74	329.60	13.84	-30.9	-34.6	11.9	3.33e-04	0	44	0	1129316352	22	5469
2026-01-21 11:26:41.74	329.87	13.56	-31.0	-34.9	11.6	5.90e-04	0	44	0	1135607808	22	5639
2026-01-21 11:26:44.75	330.13	13.30	-31.2	-35.6	11.2	1.43e-03	0	44	0	1140850688	22	5923
2026-01-21 11:26:47.76	330.39	13.03	-31.1	-35.1	11.4	8.86e-04	0	43	0	1146093568	22	5729
2026-01-21 11:26:50.77	330.65	12.76	-31.0	-34.8	11.7	6.58e-04	0	44	0	1152385024	22	5568
2026-01-21 11:26:53.78	330.90	12.50	-31.1	-35.1	11.4	7.11e-04	0	44	0	1157627904	22	5733
2026-01-21 11:26:56.78	331.15	12.24	-30.6	-33.8	12.3	2.60e-04	0	44	0	1163919360	22	5175
2026-01-21 11:26:59.79	331.39	11.99	-30.7	-33.9	12.2	1.98e-04	0	44	0	1169162240	22	5241
2026-01-21 11:27:02.81	331.63	11.73	-30.7	-33.9	12.1	2.05e-04	0	44	0	1174405120	22	5239
2026-01-21 11:27:05.82	331.87	11.48	-30.9	-34.6	11.6	6.76e-04	0	44	0	1180696576	22	5537
2026-01-21 11:27:08.83	332.10	11.23	-31.0	-35.0	11.4	8.67e-04	0	44	0	1185939456	22	5691
2026-01-21 11:27:11.83	332.32	10.98	-31.2	-35.5	11.0	1.98e-03	0	44	0	1191182336	22	5925
2026-01-21 11:27:14.83	332.55	10.73	-31.2	-35.8	10.7	2.77e-03	0	44	0	1197473792	22	6068
2026-01-21 11:27:17.84	332.77	10.49	-31.4	-36.3	10.3	4.04e-03	0	44	0	1202716672	22	6337
2026-01-21 11:27:20.86	332.99	10.25	-31.3	-36.0	10.5	3.21e-03	0	44	0	1209008128	22	6182
2026-01-21 11:27:23.86	333.20	10.01	-31.3	-36.2	10.4	5.59e-03	0	44	0	1214251008	22	6294
2026-01-21 11:27:26.87	333.41	9.77	-31.2	-35.3	10.6	5.14e-03	0	44	0	1219493888	23	5772
2026-01-21 11:27:29.88	333.62	9.53	-31.0	-34.6	11.1	1.72e-03	0	44	0	1225785344	23	5427
2026-01-21 11:27:32.88	333.82	9.30	-31.1	-34.9	10.8	2.43e-03	0	44	0	1231028224	23	5590
2026-01-21 11:27:35.89	334.02	9.07	-31.1	-35.0	10.8	2.77e-03	0	44	0	1237319680	23	5623
2026-01-21 11:27:38.90	334.22	8.84	-31.2	-35.3	10.5	4.00e-03	0	44	0	1242562560	23	5797
2026-01-21 11:27:41.91	334.42	8.61	-31.3	-35.6	10.3	5.31e-03	0	44	0	1247805440	23	5930
2026-01-21 11:27:44.91	334.61	8.38	-31.5	-36.4	9.7	7.16e-03	0	44	0	1254096896	23	6316
2026-01-21 11:27:47.93	334.80	8.16	-31.5	-36.6	9.5	1.18e-02	0	44	0	1259339776	23	6455
2026-01-21 11:27:50.93	334.99	7.93	-31.6	-36.8	9.3	1.63e-02	0	44	0	1264582656	23	6576
2026-01-21 11:27:53.94	335.17	7.71	-31.4	-36.2	9.7	1.04e-02	0	44	0	1270874112	23	6246
2026-01-21 11:27:56.94	335.36	7.49	-31.6	-37.0	9.0	2.01e-02	0	44	0	1276116992	23	6689
2026-01-21 11:27:59.95	335.54	7.27	-31.6	-37.0	9.0	2.36e-02	0	44	0	1282408448	23	6689
2026-01-21 11:28:02.95	335.71	7.06	-33.3	-47.3	3.8	1.49e+00	0	43	104	1286602752	26	18123

#Closed at: 2026-01-21 11:28:05
#Recorded file [1286 MB]: D:/data/31010_260121_141635.dat