passes_logs/2026/01/21/R2M6_AANII_01/R2M6_AANII_01__20260121_151739_FENGYUN_3E_rec.log

#Pass ID: 20260121_151739_FENGYUN 3E
#Satellite: FENGYUN 3E
#Configuration: FENGYUN 3E
#almurnet v.1.7.20240730
#Start time: 2026-01-21 15:17:40

#Version: 2.2.20231116
#Station: R2M6_AANII_01
#Location: 30.233357 lon 59.946436 lat
#TLE: 1 49008U 21062A   26020.99547197  .00000101  00000+0  68509-4 0  9996
#TLE: 2 49008  98.7483  26.0531 0002292 127.4634 232.6751 14.19886023235694

#Time	Az	El	Level	Level2	SNR	BER	BlckErr	Temp	State	Recorded	gain1	gain2
2026-01-21 15:17:40.96	182.04	7.14	-26.9	-28.4	5.7	7.56e-01	0	42	0	0	14	4248
2026-01-21 15:17:43.97	182.18	7.37	-27.2	-28.4	12.2	2.41e-04	0	42	0	7340032	15	4153
2026-01-21 15:17:46.97	182.31	7.60	-27.3	-29.3	12.0	2.82e-04	0	42	0	28311552	14	4498
2026-01-21 15:17:49.98	182.45	7.83	-27.2	-28.8	12.3	1.09e-04	0	43	0	50331648	14	4373
2026-01-21 15:17:52.99	182.59	8.06	-27.5	-29.6	11.9	3.24e-04	0	43	0	72351744	14	4578
2026-01-21 15:17:55.99	182.73	8.30	-28.4	-30.7	10.9	1.74e-03	0	43	0	93323264	16	4696
2026-01-21 15:17:59.00	182.87	8.53	-27.2	-28.4	12.4	1.43e-04	0	43	0	115343360	15	4134
2026-01-21 15:18:02.01	183.02	8.77	-26.7	-27.8	13.0	3.31e-05	0	43	0	137363456	14	4077
2026-01-21 15:18:05.02	183.16	9.01	-26.8	-28.0	12.9	3.89e-05	0	43	0	159383552	14	4138
2026-01-21 15:18:08.04	183.32	9.26	-26.2	-27.2	13.6	9.10e-06	0	43	0	180355072	13	4034
2026-01-21 15:18:11.04	183.47	9.50	-26.4	-27.7	13.4	5.70e-06	0	43	0	202375168	13	4170
2026-01-21 15:18:14.05	183.62	9.75	-26.4	-27.6	13.4	3.40e-06	0	43	0	224395264	13	4137
2026-01-21 15:18:17.06	183.78	10.00	-26.1	-27.1	13.7	9.10e-06	0	43	0	245366784	13	3997
2026-01-21 15:18:20.07	183.94	10.25	-26.0	-27.3	13.9	3.40e-06	0	43	0	267386880	12	4165
2026-01-21 15:18:23.06	184.10	10.51	-25.9	-27.0	14.1	1.10e-06	0	43	0	289406976	12	4081
2026-01-21 15:18:26.06	184.26	10.77	-25.8	-26.8	14.2	2.20e-06	0	44	0	310378496	12	4027
2026-01-21 15:18:29.06	184.43	11.02	-25.9	-27.0	14.1	1.10e-06	0	43	0	332398592	12	4087
2026-01-21 15:18:32.07	184.60	11.29	-26.1	-27.5	13.9	1.10e-06	0	43	0	354418688	12	4229
2026-01-21 15:18:35.08	184.78	11.55	-25.6	-26.4	14.5	0.00e+00	0	44	0	376438784	12	3927
2026-01-21 15:18:38.08	184.95	11.82	-25.6	-26.3	14.6	1.10e-06	0	44	0	397410304	12	3907
2026-01-21 15:18:41.09	185.13	12.09	-25.6	-26.3	14.5	0.00e+00	0	44	0	419430400	12	3924
2026-01-21 15:18:44.10	185.32	12.36	-25.6	-26.8	14.6	1.10e-06	0	44	0	440401920	11	4145
2026-01-21 15:18:47.11	185.50	12.64	-25.4	-26.4	14.9	0.00e+00	0	44	0	462422016	11	4022
2026-01-21 15:18:50.12	185.69	12.92	-25.3	-26.1	15.1	0.00e+00	0	44	0	484442112	11	3954
2026-01-21 15:18:53.13	185.88	13.20	-25.3	-26.2	15.0	0.00e+00	0	44	0	506462208	11	3993
2026-01-21 15:18:56.14	186.08	13.49	-25.2	-26.0	15.2	0.00e+00	0	44	0	527433728	11	3930
2026-01-21 15:18:59.15	186.28	13.78	-25.3	-26.0	15.2	0.00e+00	0	44	0	549453824	11	3944
2026-01-21 15:19:02.14	186.48	14.07	-25.0	-25.6	15.4	0.00e+00	0	44	0	571473920	11	3846
2026-01-21 15:19:05.15	186.69	14.36	-25.0	-26.0	15.5	0.00e+00	0	44	0	592445440	10	4063
2026-01-21 15:19:08.17	186.90	14.66	-25.0	-26.0	15.5	0.00e+00	0	44	0	614465536	10	4047
2026-01-21 15:19:11.17	187.12	14.96	-24.9	-25.9	15.5	0.00e+00	0	44	0	636485632	10	4040
2026-01-21 15:19:14.18	187.34	15.27	-24.8	-25.6	15.7	0.00e+00	0	44	0	658505728	10	3943
2026-01-21 15:19:17.19	187.56	15.57	-24.8	-25.6	15.7	0.00e+00	0	44	0	679477248	10	3965
2026-01-21 15:19:20.21	187.79	15.89	-24.9	-25.8	15.6	0.00e+00	0	44	0	701497344	10	3998
2026-01-21 15:19:23.23	188.03	16.20	-24.6	-25.3	15.9	0.00e+00	0	44	0	723517440	10	3869
2026-01-21 15:19:26.24	188.26	16.52	-24.7	-25.4	15.8	0.00e+00	0	44	0	745537536	10	3901
2026-01-21 15:19:29.24	188.51	16.85	-24.6	-25.2	16.0	0.00e+00	0	44	0	766509056	10	3847
2026-01-21 15:19:32.25	188.76	17.17	-24.5	-25.4	16.1	0.00e+00	0	44	0	788529152	9	4005
2026-01-21 15:19:35.26	189.01	17.50	-24.3	-25.1	16.3	0.00e+00	0	44	0	810549248	9	3921
2026-01-21 15:19:38.26	189.27	17.84	-24.0	-24.4	16.7	0.00e+00	0	44	0	831520768	9	3760
2026-01-21 15:19:41.27	189.53	18.18	-23.8	-24.4	16.9	0.00e+00	0	44	0	853540864	8	3874
2026-01-21 15:19:44.27	189.80	18.52	-23.7	-24.3	17.0	0.00e+00	0	44	0	875560960	8	3831
2026-01-21 15:19:47.27	190.08	18.87	-23.8	-24.4	17.0	0.00e+00	0	44	0	897581056	8	3872
2026-01-21 15:19:50.28	190.36	19.22	-23.8	-24.4	17.0	0.00e+00	0	44	0	918552576	8	3868
2026-01-21 15:19:53.29	190.65	19.57	-23.8	-24.3	17.0	0.00e+00	0	44	0	940572672	8	3849
2026-01-21 15:19:56.30	190.94	19.93	-23.8	-24.4	17.0	0.00e+00	0	44	0	962592768	8	3854
2026-01-21 15:19:59.30	191.24	20.30	-23.8	-24.5	16.9	0.00e+00	0	44	0	983564288	8	3890
2026-01-21 15:20:02.31	191.55	20.67	-23.8	-24.5	16.9	0.00e+00	0	44	0	1005584384	8	3896
2026-01-21 15:20:05.31	191.87	21.04	-23.6	-24.0	17.2	0.00e+00	0	44	0	1026555904	8	3770
2026-01-21 15:20:08.31	192.19	21.42	-23.5	-23.9	17.2	0.00e+00	0	44	0	1048576000	8	3749
2026-01-21 15:20:11.33	192.52	21.80	-23.3	-23.8	17.5	0.00e+00	0	44	0	1070596096	7	3840
2026-01-21 15:20:14.35	192.86	22.19	-23.1	-23.6	17.6	0.00e+00	0	45	0	1092616192	7	3792
2026-01-21 15:20:17.35	193.21	22.59	-23.2	-24.3	17.5	0.00e+00	0	45	0	1113587712	6	4078
2026-01-21 15:20:20.36	193.56	22.99	-23.4	-24.6	17.3	0.00e+00	0	45	0	1135607808	6	4150
2026-01-21 15:20:23.37	193.93	23.39	-23.6	-24.5	17.1	0.00e+00	0	45	0	1157627904	7	4034
2026-01-21 15:20:26.38	194.30	23.80	-23.5	-24.5	17.1	0.00e+00	0	44	0	1179648000	7	4022
2026-01-21 15:20:29.39	194.69	24.21	-23.6	-24.6	17.0	0.00e+00	0	44	0	1200619520	7	4063
2026-01-21 15:20:32.39	195.08	24.63	-23.3	-24.1	17.4	0.00e+00	0	45	0	1222639616	7	3910
2026-01-21 15:20:35.39	195.49	25.06	-23.3	-24.0	17.4	0.00e+00	0	44	0	1244659712	7	3903
2026-01-21 15:20:38.39	195.90	25.49	-23.3	-23.9	17.5	0.00e+00	0	45	0	1265631232	7	3870
2026-01-21 15:20:41.41	196.33	25.92	-23.2	-23.8	17.5	0.00e+00	0	45	0	1287651328	7	3855
2026-01-21 15:20:44.42	196.77	26.37	-23.3	-23.8	17.6	0.00e+00	0	45	0	1309671424	7	3853
2026-01-21 15:20:47.42	197.22	26.81	-23.1	-23.5	17.7	0.00e+00	0	45	0	1331691520	7	3780
2026-01-21 15:20:50.43	197.68	27.27	-23.0	-23.9	17.7	0.00e+00	0	44	0	1352663040	6	3982
2026-01-21 15:20:53.44	198.15	27.72	-22.8	-23.6	17.8	0.00e+00	0	45	0	1374683136	6	3906
2026-01-21 15:20:56.45	198.64	28.19	-22.9	-23.6	17.8	0.00e+00	0	45	0	1396703232	6	3913
2026-01-21 15:20:59.45	199.15	28.66	-22.5	-23.3	18.2	0.00e+00	0	45	0	1417674752	5	3933
2026-01-21 15:21:02.47	199.67	29.13	-22.6	-23.5	18.1	0.00e+00	0	45	0	1439694848	5	3989
2026-01-21 15:21:05.46	200.20	29.61	-22.9	-24.0	18.0	0.00e+00	0	44	0	1461714944	5	4109
2026-01-21 15:21:08.46	200.74	30.10	-22.8	-23.8	18.1	0.00e+00	0	44	0	1482686464	5	4039
2026-01-21 15:21:11.47	201.31	30.59	-23.3	-24.3	17.7	0.00e+00	0	44	0	1504706560	6	4050
2026-01-21 15:21:14.49	201.89	31.09	-23.3	-24.5	17.6	0.00e+00	0	45	0	1526726656	6	4121
2026-01-21 15:21:17.49	202.49	31.59	-23.2	-24.2	17.8	0.00e+00	0	45	0	1548746752	6	4037
2026-01-21 15:21:20.50	203.11	32.10	-22.9	-23.5	18.1	0.00e+00	0	45	0	1569718272	6	3874
2026-01-21 15:21:23.50	203.75	32.61	-22.8	-23.4	18.1	0.00e+00	0	44	0	1591738368	6	3864
2026-01-21 15:21:26.51	204.41	33.13	-22.7	-23.3	18.1	0.00e+00	0	45	0	1613758464	6	3838
2026-01-21 15:21:29.52	205.09	33.65	-22.7	-23.1	18.2	0.00e+00	0	45	0	1635778560	6	3790
2026-01-21 15:21:32.53	205.79	34.18	-22.7	-23.6	18.3	0.00e+00	0	45	0	1656750080	5	3997
2026-01-21 15:21:35.54	206.51	34.71	-22.8	-24.0	18.1	0.00e+00	0	45	0	1678770176	5	4100
2026-01-21 15:21:38.55	207.26	35.24	-23.3	-24.4	17.6	0.00e+00	0	44	0	1699741696	6	4084
2026-01-21 15:21:41.56	208.03	35.78	-23.0	-23.8	17.9	0.00e+00	0	45	0	1721761792	6	3949
2026-01-21 15:21:44.57	208.83	36.33	-23.1	-24.1	17.7	0.00e+00	0	45	0	1743781888	6	4033
2026-01-21 15:21:47.58	209.66	36.87	-23.0	-23.7	18.0	0.00e+00	0	45	0	1765801984	6	3928
2026-01-21 15:21:50.59	210.51	37.42	-22.7	-23.0	18.4	0.00e+00	0	45	0	1786773504	6	3754
2026-01-21 15:21:53.60	211.39	37.97	-22.8	-23.3	18.3	0.00e+00	0	45	0	1808793600	6	3801
2026-01-21 15:21:56.60	212.30	38.52	-23.5	-24.2	18.5	0.00e+00	0	45	0	1830813696	6	3912
2026-01-21 15:21:59.60	213.24	39.07	-23.7	-24.1	18.3	0.00e+00	0	44	0	1851785216	7	3786
2026-01-21 15:22:02.61	214.21	39.62	-23.9	-24.5	18.0	0.00e+00	0	45	0	1873805312	7	3865
2026-01-21 15:22:05.62	215.22	40.17	-23.9	-24.6	18.0	0.00e+00	0	45	0	1895825408	7	3894
2026-01-21 15:22:08.62	216.25	40.72	-23.9	-24.5	18.2	0.00e+00	0	45	0	1917845504	7	3859
2026-01-21 15:22:11.63	217.33	41.26	-24.2	-24.7	17.8	0.00e+00	0	45	0	1938817024	8	3816
2026-01-21 15:22:14.64	218.44	41.81	-25.0	-25.9	16.9	0.00e+00	0	45	0	1960837120	9	3986
2026-01-21 15:22:17.64	219.59	42.34	-25.0	-25.4	16.9	0.00e+00	0	44	0	1982857216	10	3777
2026-01-21 15:22:20.65	220.77	42.88	-24.4	-24.1	17.6	0.00e+00	0	45	0	2003828736	10	3487
2026-01-21 15:22:23.66	222.00	43.41	-23.7	-23.7	18.3	0.00e+00	0	44	0	2025848832	8	3585
2026-01-21 15:22:26.68	223.27	43.93	-24.0	-24.3	18.1	0.00e+00	0	45	0	2047868928	8	3715
2026-01-21 15:22:29.68	224.58	44.44	-23.8	-23.9	18.2	0.00e+00	0	45	0	2069889024	8	3630
2026-01-21 15:22:32.68	225.92	44.94	-23.7	-23.7	18.4	0.00e+00	0	45	0	2090860544	8	3583
2026-01-21 15:22:35.70	227.32	45.43	-24.0	-24.3	18.1	0.00e+00	0	45	0	2112880640	8	3709
2026-01-21 15:22:38.72	228.76	45.91	-23.9	-24.1	18.2	0.00e+00	0	45	0	2134900736	8	3683
2026-01-21 15:22:41.73	230.24	46.37	-24.0	-24.3	18.1	0.00e+00	0	45	0	2156920832	8	3713
2026-01-21 15:22:44.74	231.76	46.82	-25.0	-25.8	17.0	0.00e+00	0	45	0	2177892352	9	3968
2026-01-21 15:22:47.75	233.32	47.24	-24.3	-24.5	17.8	0.00e+00	0	45	0	2199912448	9	3649
2026-01-21 15:22:50.77	234.94	47.66	-24.8	-25.5	17.2	0.00e+00	0	45	0	2221932544	9	3884
2026-01-21 15:22:53.78	236.58	48.04	-24.2	-24.2	17.9	0.00e+00	0	45	0	2243952640	9	3586
2026-01-21 15:22:56.80	238.28	48.41	-24.6	-24.9	17.6	0.00e+00	0	45	0	2264924160	9	3746
2026-01-21 15:22:59.81	240.00	48.75	-24.7	-25.3	17.4	0.00e+00	0	45	0	2286944256	9	3837
2026-01-21 15:23:02.83	241.77	49.07	-24.6	-24.9	17.6	0.00e+00	0	45	0	2308964352	9	3753
2026-01-21 15:23:05.84	243.57	49.36	-24.7	-25.2	17.4	0.00e+00	0	45	0	2329935872	9	3811
2026-01-21 15:23:08.84	245.39	49.62	-25.0	-25.4	17.1	0.00e+00	0	45	0	2351955968	10	3759
2026-01-21 15:23:11.84	247.25	49.85	-24.6	-24.4	17.5	0.00e+00	0	45	0	2373976064	10	3537
2026-01-21 15:23:14.86	249.14	50.05	-25.0	-25.9	17.1	0.00e+00	0	45	0	2394947584	9	3979
2026-01-21 15:23:17.87	251.04	50.22	-25.0	-25.2	17.2	0.00e+00	0	45	0	2416967680	10	3724
2026-01-21 15:23:20.88	252.97	50.35	-25.1	-25.7	17.0	0.00e+00	0	45	0	2438987776	10	3826
2026-01-21 15:23:23.89	254.91	50.46	-24.5	-24.3	17.6	0.00e+00	0	45	0	2461007872	10	3500
2026-01-21 15:23:26.89	256.86	50.52	-24.0	-24.2	18.2	0.00e+00	0	45	0	2481979392	8	3677
2026-01-21 15:23:29.90	258.82	50.56	-24.8	-25.4	17.3	0.00e+00	0	45	0	2503999488	9	3867
2026-01-21 15:23:32.92	260.79	50.55	-24.8	-25.0	17.3	0.00e+00	0	45	0	2526019584	10	3655
2026-01-21 15:23:35.93	262.74	50.52	-24.8	-24.9	17.3	0.00e+00	0	45	0	2548039680	10	3651
2026-01-21 15:23:38.93	264.69	50.45	-25.0	-25.3	17.1	0.00e+00	0	45	0	2569011200	10	3733
2026-01-21 15:23:41.95	266.64	50.34	-25.0	-25.3	17.1	0.00e+00	0	45	0	2591031296	10	3743
2026-01-21 15:23:44.96	268.56	50.20	-25.3	-26.0	16.7	0.00e+00	0	45	0	2613051392	10	3907
2026-01-21 15:23:47.97	270.46	50.03	-24.9	-25.1	17.2	0.00e+00	0	45	0	2635071488	10	3685
2026-01-21 15:23:50.97	272.34	49.83	-25.2	-25.7	16.9	0.00e+00	0	45	0	2656043008	10	3835
2026-01-21 15:23:53.97	274.19	49.60	-24.4	-24.2	17.7	0.00e+00	0	45	0	2678063104	10	3485
2026-01-21 15:23:56.97	276.01	49.34	-24.6	-24.9	17.5	0.00e+00	0	45	0	2700083200	9	3749
2026-01-21 15:23:59.98	277.80	49.05	-24.5	-24.8	17.6	0.00e+00	0	45	0	2721054720	9	3736
2026-01-21 15:24:02.99	279.56	48.73	-24.4	-24.5	17.8	0.00e+00	0	45	0	2743074816	9	3665
2026-01-21 15:24:06.00	281.28	48.39	-24.8	-25.3	17.3	0.00e+00	0	45	0	2765094912	9	3854
2026-01-21 15:24:09.02	282.97	48.02	-24.9	-25.6	17.2	0.00e+00	0	45	0	2787115008	9	3902
2026-01-21 15:24:12.02	284.60	47.63	-24.7	-25.2	17.4	0.00e+00	0	45	0	2808086528	9	3812
2026-01-21 15:24:15.03	286.20	47.22	-24.6	-25.1	17.5	0.00e+00	0	45	0	2830106624	9	3780
2026-01-21 15:24:18.04	287.76	46.79	-24.6	-25.0	17.6	0.00e+00	0	45	0	2852126720	9	3754
2026-01-21 15:24:21.05	289.27	46.35	-24.1	-23.9	18.1	0.00e+00	0	45	0	2873098240	9	3532
2026-01-21 15:24:24.07	290.75	45.88	-24.0	-23.8	18.1	0.00e+00	0	45	0	2895118336	9	3502
2026-01-21 15:24:27.08	292.18	45.41	-24.3	-24.5	17.7	0.00e+00	0	45	0	2917138432	9	3649
2026-01-21 15:24:30.09	293.57	44.92	-24.1	-24.0	18.0	0.00e+00	0	45	0	2938109952	9	3559
2026-01-21 15:24:33.11	294.92	44.42	-24.1	-23.9	18.1	0.00e+00	0	45	0	2960130048	9	3525
2026-01-21 15:24:36.12	296.22	43.91	-24.4	-24.7	17.7	0.00e+00	0	45	0	2982150144	9	3699
2026-01-21 15:24:39.13	297.48	43.39	-25.0	-25.8	17.1	0.00e+00	0	45	0	3004170240	9	3971
2026-01-21 15:24:42.15	298.71	42.86	-24.6	-24.6	17.5	0.00e+00	0	45	0	3025141760	10	3575
2026-01-21 15:24:45.15	299.89	42.33	-24.3	-24.3	17.7	0.00e+00	0	45	0	3047161856	9	3613
2026-01-21 15:24:48.17	301.03	41.79	-23.5	-23.2	18.7	0.00e+00	0	45	0	3069181952	8	3478
2026-01-21 15:24:51.18	302.14	41.25	-23.7	-23.6	18.4	0.00e+00	0	45	0	3091202048	8	3564
2026-01-21 15:24:54.19	303.21	40.70	-24.1	-24.4	18.0	0.00e+00	0	45	0	3112173568	8	3747
2026-01-21 15:24:57.20	304.25	40.16	-23.9	-24.0	18.2	0.00e+00	0	45	0	3134193664	8	3647
2026-01-21 15:25:00.21	305.25	39.61	-23.6	-23.5	18.5	0.00e+00	0	45	0	3156213760	8	3533
2026-01-21 15:25:03.21	306.21	39.06	-24.0	-24.1	18.1	0.00e+00	0	45	0	3177185280	8	3682
2026-01-21 15:25:06.21	307.15	38.51	-24.1	-24.5	17.8	0.00e+00	0	45	0	3199205376	8	3766
2026-01-21 15:25:09.22	308.05	37.97	-23.7	-23.6	18.3	0.00e+00	0	45	0	3221225472	8	3570
2026-01-21 15:25:12.22	308.93	37.42	-23.4	-23.4	18.7	0.00e+00	0	45	0	3243245568	7	3625
2026-01-21 15:25:15.22	309.77	36.88	-23.5	-23.8	18.5	0.00e+00	0	45	0	3264217088	7	3705
2026-01-21 15:25:18.23	310.60	36.34	-23.5	-23.8	18.5	0.00e+00	0	45	0	3286237184	7	3700
2026-01-21 15:25:21.23	311.39	35.80	-23.8	-24.3	18.3	0.00e+00	0	45	0	3308257280	7	3831
2026-01-21 15:25:24.24	312.16	35.26	-23.8	-24.4	18.2	0.00e+00	0	45	0	3329228800	7	3849
2026-01-21 15:25:27.26	312.91	34.73	-23.3	-23.4	18.7	0.00e+00	0	45	0	3351248896	7	3617
2026-01-21 15:25:30.28	313.63	34.20	-23.6	-23.8	18.5	0.00e+00	0	45	0	3373268992	7	3706
2026-01-21 15:25:33.29	314.33	33.67	-23.3	-23.3	18.8	0.00e+00	0	45	0	3395289088	7	3595
2026-01-21 15:25:36.29	315.00	33.16	-23.9	-24.5	18.2	0.00e+00	0	45	0	3416260608	7	3873
2026-01-21 15:25:39.30	315.66	32.64	-24.1	-24.5	18.0	0.00e+00	0	45	0	3438280704	8	3763
2026-01-21 15:25:42.30	316.30	32.13	-23.9	-24.1	18.2	0.00e+00	0	45	0	3459252224	8	3661
2026-01-21 15:25:45.30	316.91	31.63	-24.0	-24.2	18.1	0.00e+00	0	45	0	3481272320	8	3700
2026-01-21 15:25:48.31	317.51	31.13	-23.7	-23.6	18.3	0.00e+00	0	45	0	3503292416	8	3565
2026-01-21 15:25:51.31	318.09	30.64	-23.6	-23.4	18.4	0.00e+00	0	45	0	3524263936	8	3525
2026-01-21 15:25:54.32	318.65	30.15	-23.7	-23.5	18.4	0.00e+00	0	45	0	3546284032	8	3548
2026-01-21 15:25:57.33	319.20	29.66	-23.8	-23.9	18.1	0.00e+00	0	45	0	3568304128	8	3637
2026-01-21 15:26:00.33	319.73	29.19	-24.2	-24.7	17.7	0.00e+00	0	45	0	3590324224	8	3816
2026-01-21 15:26:03.35	320.25	28.71	-24.0	-24.2	18.0	0.00e+00	0	45	0	3611295744	8	3705
2026-01-21 15:26:06.35	320.75	28.25	-24.0	-24.2	18.0	0.00e+00	0	45	0	3633315840	8	3700
2026-01-21 15:26:09.36	321.24	27.78	-23.9	-24.0	18.0	0.00e+00	0	45	0	3655335936	8	3660
2026-01-21 15:26:12.37	321.72	27.33	-23.9	-24.0	18.0	0.00e+00	0	45	0	3677356032	8	3650
2026-01-21 15:26:15.38	322.18	26.88	-23.9	-24.0	18.0	0.00e+00	0	45	0	3698327552	8	3651
2026-01-21 15:26:18.40	322.63	26.43	-24.2	-24.7	17.7	0.00e+00	0	45	0	3720347648	8	3808
2026-01-21 15:26:21.40	323.07	25.99	-24.1	-24.4	17.8	0.00e+00	0	45	0	3742367744	8	3737
2026-01-21 15:26:24.40	323.49	25.56	-24.2	-24.6	17.7	0.00e+00	0	45	0	3763339264	8	3798
2026-01-21 15:26:27.40	323.91	25.13	-24.1	-24.6	17.7	0.00e+00	0	45	0	3785359360	8	3783
2026-01-21 15:26:30.42	324.31	24.71	-24.0	-24.4	17.8	0.00e+00	0	45	0	3807379456	8	3742
2026-01-21 15:26:33.43	324.71	24.29	-24.1	-24.6	17.6	0.00e+00	0	45	0	3829399552	8	3783
2026-01-21 15:26:36.45	325.09	23.88	-23.8	-23.9	18.0	0.00e+00	0	45	0	3850371072	8	3644
2026-01-21 15:26:39.45	325.47	23.47	-23.9	-24.1	17.8	0.00e+00	0	45	0	3872391168	8	3676
2026-01-21 15:26:42.45	325.83	23.07	-23.9	-24.2	17.9	0.00e+00	0	45	0	3894411264	8	3689
2026-01-21 15:26:45.45	326.19	22.68	-23.9	-24.1	17.9	0.00e+00	0	45	0	3915382784	8	3674
2026-01-21 15:26:48.47	326.54	22.28	-24.0	-24.3	17.7	0.00e+00	0	45	0	3937402880	8	3718
2026-01-21 15:26:51.48	326.88	21.90	-24.2	-24.6	17.6	0.00e+00	0	45	0	3959422976	8	3784
2026-01-21 15:26:54.49	327.21	21.51	-24.3	-24.8	17.4	0.00e+00	0	45	0	3981443072	8	3846
2026-01-21 15:26:57.50	327.53	21.14	-24.3	-25.0	17.3	0.00e+00	0	45	0	4002414592	8	3887
2026-01-21 15:27:00.50	327.85	20.77	-24.5	-25.4	17.1	0.00e+00	0	45	0	4024434688	8	3981
2026-01-21 15:27:03.51	328.16	20.40	-24.4	-24.6	17.3	0.00e+00	0	45	0	4045406208	9	3688
2026-01-21 15:27:06.52	328.46	20.04	-24.6	-25.1	17.0	0.00e+00	0	45	0	4067426304	9	3793
2026-01-21 15:27:09.54	328.76	19.68	-24.6	-25.1	16.9	0.00e+00	0	45	0	4089446400	9	3810
2026-01-21 15:27:12.55	329.05	19.32	-24.5	-24.8	17.1	0.00e+00	0	45	0	4111466496	9	3742
2026-01-21 15:27:15.56	329.33	18.97	-24.5	-24.9	17.1	0.00e+00	0	45	0	4132438016	9	3747
2026-01-21 15:27:18.56	329.60	18.63	-24.7	-25.3	16.8	0.00e+00	0	45	0	4154458112	9	3856
2026-01-21 15:27:21.57	329.88	18.29	-24.8	-25.5	16.7	0.00e+00	0	45	0	4176478208	9	3885
2026-01-21 15:27:24.59	330.14	17.95	-25.0	-25.3	16.6	0.00e+00	0	45	0	4198498304	10	3746
2026-01-21 15:27:27.59	330.40	17.62	-25.0	-25.4	16.6	0.00e+00	0	45	0	4219469824	10	3764
2026-01-21 15:27:30.60	330.66	17.29	-24.9	-25.3	16.6	0.00e+00	0	45	0	4241489920	10	3741
2026-01-21 15:27:33.61	330.90	16.96	-25.0	-25.4	16.5	0.00e+00	0	45	0	4263510016	10	3770
2026-01-21 15:27:36.60	331.15	16.64	-25.1	-25.6	16.4	0.00e+00	0	45	0	4284481536	10	3817
2026-01-21 15:27:39.61	331.39	16.32	-25.4	-26.2	16.0	0.00e+00	0	45	0	4306501632	10	3970
2026-01-21 15:27:42.62	331.62	16.01	-25.3	-26.0	16.2	0.00e+00	0	45	0	4328521728	10	3902
2026-01-21 15:27:45.63	331.85	15.70	-25.4	-26.3	15.9	0.00e+00	0	45	0	4350541824	10	3993
2026-01-21 15:27:48.64	332.08	15.39	-25.4	-26.2	16.0	0.00e+00	0	45	0	4371513344	10	3965
2026-01-21 15:27:51.66	332.30	15.09	-25.5	-26.5	15.8	0.00e+00	0	45	0	4393533440	10	4041
2026-01-21 15:27:54.66	332.52	14.79	-25.6	-26.1	15.7	0.00e+00	0	45	0	4415553536	11	3845
2026-01-21 15:27:57.67	332.73	14.49	-26.0	-27.0	15.4	0.00e+00	0	45	0	4437573632	11	4062
2026-01-21 15:28:00.67	332.94	14.20	-25.7	-26.4	15.7	0.00e+00	0	45	0	4458545152	11	3905
2026-01-21 15:28:03.67	333.14	13.91	-25.8	-26.6	15.5	0.00e+00	0	45	0	4480565248	11	3959
2026-01-21 15:28:06.68	333.35	13.62	-25.9	-26.9	15.3	0.00e+00	0	45	0	4502585344	11	4025
2026-01-21 15:28:09.70	333.54	13.34	-25.8	-26.1	15.3	0.00e+00	0	45	0	4523556864	12	3746
2026-01-21 15:28:12.70	333.74	13.06	-25.9	-26.3	15.2	0.00e+00	0	45	0	4545576960	12	3782
2026-01-21 15:28:15.71	333.93	12.78	-25.9	-26.4	15.1	0.00e+00	0	45	0	4567597056	12	3820
2026-01-21 15:28:18.72	334.12	12.51	-26.0	-26.7	15.0	0.00e+00	0	45	0	4589617152	12	3890
2026-01-21 15:28:21.73	334.30	12.23	-26.1	-26.9	14.8	0.00e+00	0	45	0	4610588672	12	3932
2026-01-21 15:28:24.73	334.48	11.96	-26.4	-27.6	14.5	0.00e+00	0	45	0	4632608768	12	4109
2026-01-21 15:28:27.73	334.66	11.70	-26.5	-27.6	14.4	0.00e+00	0	45	0	4653580288	12	4127
2026-01-21 15:28:30.76	334.84	11.43	-26.6	-27.5	14.2	0.00e+00	0	45	0	4675600384	13	3980
2026-01-21 15:28:33.77	335.01	11.17	-26.7	-27.2	14.1	0.00e+00	0	45	0	4697620480	14	3812
2026-01-21 15:28:36.78	335.18	10.91	-26.7	-27.1	14.1	1.10e-06	0	45	0	4719640576	14	3784
2026-01-21 15:28:39.78	335.35	10.66	-26.8	-27.4	13.9	2.20e-06	0	45	0	4740612096	14	3872
2026-01-21 15:28:42.79	335.51	10.40	-26.9	-27.5	13.8	1.10e-06	0	45	0	4762632192	14	3901
2026-01-21 15:28:45.80	335.68	10.15	-27.0	-27.8	13.7	4.50e-06	0	45	0	4784652288	14	3965
2026-01-21 15:28:48.82	335.84	9.90	-26.8	-27.5	13.8	3.40e-06	0	45	0	4806672384	14	3898
2026-01-21 15:28:51.83	335.99	9.65	-26.9	-27.7	13.7	3.40e-06	0	45	0	4827643904	14	3924
2026-01-21 15:28:54.83	336.15	9.41	-26.9	-27.8	13.6	5.70e-06	0	45	0	4849664000	14	3954
2026-01-21 15:28:57.84	336.30	9.17	-27.0	-27.9	13.5	1.37e-05	0	45	0	4871684096	14	3984
2026-01-21 15:29:00.85	336.45	8.93	-27.2	-28.4	13.3	1.37e-05	0	45	0	4892655616	14	4113
2026-01-21 15:29:03.85	336.60	8.69	-27.2	-28.3	13.3	1.14e-05	0	45	0	4914675712	14	4089
2026-01-21 15:29:06.85	336.74	8.46	-27.2	-28.3	13.3	1.25e-05	0	45	0	4936695808	14	4092
2026-01-21 15:29:09.86	336.89	8.22	-27.2	-28.4	13.2	2.05e-05	0	45	0	4958715904	14	4117
2026-01-21 15:29:12.87	337.03	7.99	-27.5	-29.0	12.8	3.77e-05	0	45	0	4979687424	14	4300
2026-01-21 15:29:15.88	337.17	7.76	-27.3	-28.7	13.0	3.54e-05	0	45	0	5001707520	14	4209
2026-01-21 15:29:18.89	337.31	7.53	-27.5	-29.1	12.7	5.83e-05	0	45	0	5023727616	14	4318
2026-01-21 15:29:21.91	337.44	7.30	-27.6	-28.8	12.6	8.58e-05	0	45	0	5044699136	15	4140
2026-01-21 15:29:24.91	337.58	7.08	-27.7	-29.0	12.4	1.48e-04	0	45	0	5066719232	15	4205

#Closed at: 2026-01-21 15:29:27
#Recorded file [5069 MB]: D:/data/31010_260121_181742.dat