passes_logs/2026/01/21/R2M6_AANII_01/R2M6_AANII_01__20260121_115332_FENGYUN_3D_rec.log

#Pass ID: 20260121_115332_FENGYUN 3D
#Satellite: FENGYUN 3D
#Configuration: FENGYUN 3D
#almurnet v.1.7.20240730
#Start time: 2026-01-21 11:53:31

#Version: 2.2.20231116
#Station: R2M6_AANII_01
#Location: 30.233357 lon 59.946436 lat
#TLE: 1 43010U 17072A   26020.28933472  .00000051  00000+0  46008-4 0  9990
#TLE: 2 43010  98.9944 352.1871 0002476  99.7001 260.4455 14.19696838424006

#Time	Az	El	Level	Level2	SNR	BER	BlckErr	Temp	State	Recorded	gain1	gain2
2026-01-21 11:53:31.72	145.13	6.96	-28.8	-30.9	5.5	7.81e-01	0	41	0	0	19	4553
2026-01-21 11:53:34.73	145.07	7.20	-28.8	-31.2	11.1	1.48e-03	0	41	0	5242880	18	4762
2026-01-21 11:53:37.75	145.00	7.43	-28.7	-31.1	11.3	7.88e-04	0	42	0	22020096	18	4710
2026-01-21 11:53:40.76	144.94	7.67	-29.1	-32.2	10.5	3.23e-03	0	42	0	38797312	18	5097
2026-01-21 11:53:43.75	144.87	7.90	-28.2	-30.4	12.0	2.30e-04	0	42	0	55574528	17	4619
2026-01-21 11:53:46.76	144.80	8.14	-27.8	-29.5	12.6	9.72e-05	0	42	0	73400320	17	4365
2026-01-21 11:53:49.76	144.73	8.39	-27.7	-29.8	12.6	5.37e-05	0	42	0	90177536	16	4597
2026-01-21 11:53:52.77	144.66	8.63	-27.3	-28.8	13.4	1.14e-05	0	42	0	106954752	16	4243
2026-01-21 11:53:55.79	144.59	8.88	-27.4	-28.8	13.4	1.02e-05	0	42	0	123731968	16	4228
2026-01-21 11:53:58.81	144.51	9.13	-27.3	-29.1	13.3	6.80e-06	0	42	0	140509184	15	4467
2026-01-21 11:54:01.82	144.44	9.38	-26.9	-28.3	13.9	3.40e-06	0	42	0	157286400	15	4210
2026-01-21 11:54:04.82	144.36	9.64	-26.9	-28.2	14.0	2.20e-06	0	42	0	174063616	15	4167
2026-01-21 11:54:07.84	144.29	9.90	-27.1	-29.1	13.7	4.50e-06	0	42	0	191889408	14	4545
2026-01-21 11:54:10.86	144.21	10.16	-26.8	-28.5	14.1	0.00e+00	0	42	0	208666624	14	4363
2026-01-21 11:54:13.87	144.12	10.42	-27.0	-28.8	14.0	1.04e-04	0	42	0	225443840	14	4426
2026-01-21 11:54:16.88	144.04	10.69	-26.9	-28.7	14.1	0.00e+00	0	42	0	242221056	14	4399
2026-01-21 11:54:19.88	143.96	10.95	-27.0	-28.9	14.0	1.10e-06	0	42	0	258998272	14	4445
2026-01-21 11:54:22.89	143.87	11.23	-27.0	-28.7	14.1	2.20e-06	0	43	0	275775488	14	4414
2026-01-21 11:54:25.90	143.78	11.50	-26.8	-28.4	14.3	1.10e-06	0	43	0	293601280	14	4310
2026-01-21 11:54:28.90	143.69	11.78	-26.8	-28.3	14.4	0.00e+00	0	43	0	310378496	14	4285
2026-01-21 11:54:31.91	143.60	12.06	-26.7	-28.2	14.5	0.00e+00	0	43	0	327155712	14	4249
2026-01-21 11:54:34.92	143.51	12.34	-26.8	-28.4	14.4	0.00e+00	0	43	0	343932928	14	4302
2026-01-21 11:54:37.92	143.41	12.63	-26.6	-28.0	14.6	0.00e+00	0	43	0	360710144	14	4230
2026-01-21 11:54:40.94	143.32	12.92	-26.4	-27.6	14.9	0.00e+00	0	43	0	377487360	14	4111
2026-01-21 11:54:43.94	143.22	13.21	-26.4	-27.5	14.8	0.00e+00	0	43	0	394264576	14	4107
2026-01-21 11:54:46.96	143.11	13.51	-26.3	-27.3	15.0	0.00e+00	0	43	0	411041792	14	4028
2026-01-21 11:54:49.97	143.01	13.81	-26.4	-27.9	15.0	0.00e+00	0	43	0	428867584	13	4308
2026-01-21 11:54:52.98	142.90	14.12	-26.2	-27.5	15.2	0.00e+00	0	43	0	445644800	13	4177
2026-01-21 11:54:55.97	142.79	14.42	-26.1	-27.3	15.4	0.00e+00	0	43	0	462422016	13	4116
2026-01-21 11:54:58.98	142.68	14.74	-26.0	-27.1	15.5	0.00e+00	0	43	0	479199232	13	4060
2026-01-21 11:55:02.00	142.57	15.05	-25.7	-27.0	15.9	0.00e+00	0	43	0	495976448	12	4143
2026-01-21 11:55:05.02	142.45	15.38	-25.6	-26.6	16.0	0.00e+00	0	43	0	512753664	12	4063
2026-01-21 11:55:08.03	142.33	15.70	-25.5	-26.4	16.2	0.00e+00	0	43	0	530579456	12	3985
2026-01-21 11:55:11.05	142.21	16.03	-25.4	-26.2	16.3	0.00e+00	0	43	0	547356672	12	3934
2026-01-21 11:55:14.06	142.08	16.36	-25.4	-26.1	16.5	0.00e+00	0	43	0	564133888	12	3905
2026-01-21 11:55:17.07	141.96	16.70	-25.4	-26.1	16.5	0.00e+00	0	43	0	580911104	12	3915
2026-01-21 11:55:20.10	141.82	17.05	-25.3	-26.4	16.7	0.00e+00	0	43	0	597688320	11	4091
2026-01-21 11:55:23.10	141.69	17.39	-25.3	-26.3	16.8	0.00e+00	0	43	0	614465536	11	4070
2026-01-21 11:55:26.10	141.55	17.74	-25.3	-26.4	16.8	0.00e+00	0	43	0	631242752	11	4084
2026-01-21 11:55:29.10	141.41	18.10	-25.3	-26.3	16.8	0.00e+00	0	43	0	649068544	11	4072
2026-01-21 11:55:32.11	141.27	18.46	-25.2	-26.3	16.9	2.20e-06	0	43	0	665845760	11	4057
2026-01-21 11:55:35.12	141.12	18.83	-25.2	-26.2	17.0	0.00e+00	0	43	0	682622976	11	4051
2026-01-21 11:55:38.13	140.97	19.20	-25.1	-26.1	17.1	1.10e-06	0	43	0	699400192	11	4008
2026-01-21 11:55:41.14	140.81	19.58	-25.2	-26.1	17.1	0.00e+00	0	43	0	716177408	11	4012
2026-01-21 11:55:44.15	140.65	19.96	-25.4	-26.7	16.8	0.00e+00	0	43	0	732954624	11	4170
2026-01-21 11:55:47.16	140.48	20.35	-25.3	-26.4	17.0	0.00e+00	0	43	0	749731840	11	4088
2026-01-21 11:55:50.18	140.31	20.74	-25.2	-26.1	17.1	0.00e+00	0	44	0	767557632	11	4028
2026-01-21 11:55:53.19	140.14	21.15	-24.9	-25.6	17.4	1.10e-06	0	44	0	784334848	11	3882
2026-01-21 11:55:56.20	139.96	21.55	-24.8	-25.8	17.6	0.00e+00	0	43	0	801112064	10	4035
2026-01-21 11:55:59.21	139.78	21.97	-24.6	-25.4	17.8	0.00e+00	0	43	0	817889280	10	3937
2026-01-21 11:56:02.22	139.59	22.39	-24.7	-25.7	17.7	0.00e+00	0	43	0	834666496	10	4007
2026-01-21 11:56:05.24	139.39	22.81	-24.6	-25.3	17.9	0.00e+00	0	43	0	851443712	10	3907
2026-01-21 11:56:08.25	139.19	23.25	-24.5	-25.2	17.9	0.00e+00	0	44	0	869269504	10	3903
2026-01-21 11:56:11.26	138.99	23.69	-24.5	-25.1	18.1	0.00e+00	0	44	0	886046720	10	3865
2026-01-21 11:56:14.27	138.78	24.13	-24.3	-24.7	18.3	0.00e+00	0	43	0	902823936	10	3768
2026-01-21 11:56:17.28	138.56	24.59	-24.4	-25.4	18.1	0.00e+00	0	43	0	919601152	9	4039
2026-01-21 11:56:20.29	138.33	25.05	-24.2	-25.1	18.3	0.00e+00	0	43	0	936378368	9	3978
2026-01-21 11:56:23.29	138.10	25.52	-24.0	-24.7	18.5	0.00e+00	0	44	0	953155584	9	3874
2026-01-21 11:56:26.31	137.86	26.00	-24.1	-24.8	18.5	0.00e+00	0	44	0	969932800	9	3889
2026-01-21 11:56:29.32	137.61	26.49	-23.8	-24.3	18.8	0.00e+00	0	44	0	987758592	9	3775
2026-01-21 11:56:32.32	137.36	26.98	-24.2	-25.0	18.4	0.00e+00	0	44	0	1004535808	9	3954
2026-01-21 11:56:35.33	137.09	27.48	-24.1	-24.8	18.6	0.00e+00	0	43	0	1021313024	9	3894
2026-01-21 11:56:38.33	136.82	27.99	-23.9	-24.5	18.8	0.00e+00	0	44	0	1038090240	9	3825
2026-01-21 11:56:41.34	136.54	28.51	-24.1	-24.7	18.6	0.00e+00	0	44	0	1054867456	9	3883
2026-01-21 11:56:44.35	136.25	29.04	-23.8	-24.2	18.9	0.00e+00	0	43	0	1071644672	9	3769
2026-01-21 11:56:47.35	135.95	29.58	-23.9	-24.4	18.8	0.00e+00	0	44	0	1088421888	9	3810
2026-01-21 11:56:50.36	135.64	30.12	-23.8	-24.6	19.0	0.00e+00	0	44	0	1105199104	8	3954
2026-01-21 11:56:53.37	135.31	30.68	-23.5	-24.0	19.3	0.00e+00	0	43	0	1123024896	8	3808
2026-01-21 11:56:56.38	134.98	31.25	-23.5	-24.0	19.3	0.00e+00	0	44	0	1139802112	8	3810
2026-01-21 11:56:59.40	134.63	31.83	-23.6	-24.3	19.1	0.00e+00	0	44	0	1156579328	8	3902
2026-01-21 11:57:02.41	134.27	32.42	-23.6	-24.2	19.2	0.00e+00	0	44	0	1173356544	8	3868
2026-01-21 11:57:05.42	133.90	33.01	-23.3	-23.6	19.5	0.00e+00	0	44	0	1190133760	8	3727
2026-01-21 11:57:08.43	133.51	33.62	-23.4	-24.4	19.3	0.00e+00	0	44	0	1207959552	7	4019
2026-01-21 11:57:11.43	133.11	34.24	-23.4	-24.4	19.3	0.00e+00	0	44	0	1224736768	7	4036
2026-01-21 11:57:14.43	132.69	34.87	-23.5	-24.5	19.3	0.00e+00	0	43	0	1241513984	7	4054
2026-01-21 11:57:17.45	132.25	35.51	-23.4	-24.3	19.4	0.00e+00	0	44	0	1258291200	7	3993
2026-01-21 11:57:20.46	131.79	36.16	-23.2	-24.0	19.6	0.00e+00	0	44	0	1275068416	7	3921
2026-01-21 11:57:23.46	131.32	36.82	-23.3	-24.2	19.5	0.00e+00	0	44	0	1291845632	7	3970
2026-01-21 11:57:26.46	130.83	37.50	-23.5	-24.6	19.3	0.00e+00	0	44	0	1308622848	7	4073
2026-01-21 11:57:29.47	130.32	38.18	-23.7	-24.9	19.2	0.00e+00	0	44	0	1325400064	7	4133
2026-01-21 11:57:32.48	129.78	38.88	-23.8	-25.0	19.2	0.00e+00	0	44	0	1343225856	7	4171
2026-01-21 11:57:35.48	129.22	39.59	-23.6	-24.8	19.3	0.00e+00	0	44	0	1360003072	7	4117
2026-01-21 11:57:38.49	128.63	40.31	-23.4	-24.4	19.5	0.00e+00	0	44	0	1376780288	7	4023
2026-01-21 11:57:41.50	128.02	41.04	-23.7	-24.9	19.2	0.00e+00	0	44	0	1393557504	7	4136
2026-01-21 11:57:44.51	127.37	41.78	-23.6	-24.7	19.4	0.00e+00	0	44	0	1410334720	7	4088
2026-01-21 11:57:47.54	126.69	42.54	-23.8	-25.2	19.1	0.00e+00	0	44	0	1427111936	7	4220
2026-01-21 11:57:50.55	125.99	43.30	-23.9	-25.3	19.0	0.00e+00	0	44	0	1443889152	7	4246
2026-01-21 11:57:53.56	125.24	44.07	-23.8	-25.2	19.1	0.00e+00	0	44	0	1460666368	7	4223
2026-01-21 11:57:56.56	124.47	44.85	-24.3	-25.8	18.7	0.00e+00	0	44	0	1478492160	8	4245
2026-01-21 11:57:59.58	123.64	45.65	-23.8	-24.6	19.2	0.00e+00	0	44	0	1495269376	8	3959
2026-01-21 11:58:02.58	122.78	46.45	-24.1	-25.2	19.0	0.00e+00	0	44	0	1512046592	8	4094
2026-01-21 11:58:05.58	121.88	47.26	-24.2	-25.4	18.9	0.00e+00	0	44	0	1528823808	8	4141
2026-01-21 11:58:08.59	120.92	48.07	-24.2	-25.5	18.9	0.00e+00	0	44	0	1545601024	8	4161
2026-01-21 11:58:11.60	119.91	48.90	-24.4	-26.0	18.7	0.00e+00	0	44	0	1562378240	8	4282
2026-01-21 11:58:14.61	118.85	49.72	-25.0	-26.2	18.0	0.00e+00	0	44	0	1579155456	10	4119
2026-01-21 11:58:17.62	117.72	50.56	-25.3	-26.7	17.8	0.00e+00	0	44	0	1595932672	10	4259
2026-01-21 11:58:20.62	116.53	51.39	-25.2	-26.0	17.9	0.00e+00	0	44	0	1613758464	11	3969
2026-01-21 11:58:23.64	115.27	52.23	-24.9	-25.9	18.2	0.00e+00	0	44	0	1630535680	10	4044
2026-01-21 11:58:26.65	113.94	53.06	-25.2	-26.6	17.9	0.00e+00	0	44	0	1647312896	10	4216
2026-01-21 11:58:29.67	112.52	53.90	-24.8	-25.7	18.4	0.00e+00	0	44	0	1664090112	10	3984
2026-01-21 11:58:32.66	111.03	54.72	-24.6	-25.3	18.6	0.00e+00	0	44	0	1680867328	10	3897
2026-01-21 11:58:35.68	109.44	55.54	-24.1	-24.7	19.1	0.00e+00	0	44	0	1698693120	9	3862
2026-01-21 11:58:38.69	107.76	56.35	-24.5	-25.5	18.7	0.00e+00	0	44	0	1715470336	9	4067
2026-01-21 11:58:41.70	105.98	57.14	-24.9	-26.4	18.3	0.00e+00	0	44	0	1732247552	9	4297
2026-01-21 11:58:44.71	104.10	57.92	-24.4	-25.3	18.8	0.00e+00	0	44	0	1749024768	9	4001
2026-01-21 11:58:47.72	102.10	58.67	-24.5	-25.6	18.6	0.00e+00	0	44	0	1765801984	9	4084
2026-01-21 11:58:50.73	99.99	59.40	-24.3	-25.1	18.9	0.00e+00	0	44	0	1782579200	9	3953
2026-01-21 11:58:53.72	97.77	60.10	-24.4	-25.4	18.8	0.00e+00	0	44	0	1799356416	9	4016
2026-01-21 11:58:56.73	95.42	60.77	-24.1	-24.7	19.1	0.00e+00	0	44	0	1817182208	9	3878
2026-01-21 11:58:59.73	92.95	61.39	-24.1	-25.3	19.1	0.00e+00	0	44	0	1833959424	8	4117
2026-01-21 11:59:02.71	90.38	61.97	-24.1	-25.2	19.1	0.00e+00	0	44	0	1849688064	8	4083
2026-01-21 11:59:05.73	87.65	62.51	-23.5	-24.1	19.7	0.00e+00	0	44	0	1867513856	8	3824
2026-01-21 11:59:08.74	84.81	63.00	-23.8	-24.5	19.5	0.00e+00	0	44	0	1884291072	8	3935
2026-01-21 11:59:11.75	81.86	63.42	-23.7	-24.4	19.5	0.00e+00	0	44	0	1901068288	8	3906
2026-01-21 11:59:14.76	78.80	63.78	-23.2	-23.8	20.1	0.00e+00	0	44	0	1917845504	7	3863
2026-01-21 11:59:17.78	75.66	64.08	-22.7	-23.4	20.5	0.00e+00	0	44	0	1934622720	6	3876
2026-01-21 11:59:20.80	72.44	64.30	-22.7	-23.3	20.5	0.00e+00	0	44	0	1952448512	6	3863
2026-01-21 11:59:23.79	69.19	64.45	-23.1	-24.1	20.3	0.00e+00	0	44	0	1969225728	6	4041
2026-01-21 11:59:26.79	65.91	64.53	-22.7	-23.1	20.8	0.00e+00	0	44	0	1986002944	6	3804
2026-01-21 11:59:29.81	62.59	64.53	-22.6	-23.0	20.9	0.00e+00	0	44	0	2002780160	6	3771
2026-01-21 11:59:32.82	59.30	64.46	-22.4	-22.7	21.0	0.00e+00	0	44	0	2019557376	6	3709
2026-01-21 11:59:35.82	56.05	64.31	-22.7	-23.2	20.7	0.00e+00	0	44	0	2036334592	6	3832
2026-01-21 11:59:38.81	52.86	64.08	-22.7	-23.3	20.7	0.00e+00	0	44	0	2053111808	6	3846
2026-01-21 11:59:41.83	49.71	63.79	-23.1	-24.1	20.3	0.00e+00	0	44	0	2069889024	6	4027
2026-01-21 11:59:44.85	46.65	63.43	-23.2	-24.4	20.2	0.00e+00	0	44	0	2087714816	6	4098
2026-01-21 11:59:47.86	43.70	63.00	-23.3	-24.5	20.1	0.00e+00	0	44	0	2104492032	6	4128
2026-01-21 11:59:50.87	40.86	62.52	-23.7	-24.8	19.7	0.00e+00	0	44	0	2121269248	7	4086
2026-01-21 11:59:53.87	38.15	61.99	-23.6	-24.6	19.8	0.00e+00	0	44	0	2138046464	7	4055
2026-01-21 11:59:56.88	35.55	61.41	-23.7	-24.7	19.7	0.00e+00	0	44	0	2154823680	7	4079
2026-01-21 11:59:59.90	33.07	60.78	-23.7	-24.8	19.7	0.00e+00	0	44	0	2171600896	7	4091
2026-01-21 12:00:02.91	30.71	60.11	-23.6	-24.6	19.8	0.00e+00	0	44	0	2188378112	7	4041
2026-01-21 12:00:05.92	28.49	59.41	-23.8	-25.1	19.5	0.00e+00	0	44	0	2206203904	7	4157
2026-01-21 12:00:08.93	26.38	58.68	-24.1	-25.2	19.2	0.00e+00	0	44	0	2222981120	8	4081
2026-01-21 12:00:11.94	24.38	57.93	-24.5	-25.9	18.9	0.00e+00	0	44	0	2239758336	8	4265
2026-01-21 12:00:14.95	22.50	57.15	-24.2	-25.3	19.1	0.00e+00	0	44	0	2256535552	8	4109
2026-01-21 12:00:17.96	20.72	56.36	-24.1	-25.2	19.2	0.00e+00	0	44	0	2273312768	8	4069
2026-01-21 12:00:20.98	19.04	55.55	-23.9	-24.3	19.4	0.00e+00	0	44	0	2290089984	9	3764
2026-01-21 12:00:23.98	17.46	54.74	-24.3	-25.2	18.9	0.00e+00	0	44	0	2307915776	9	3964
2026-01-21 12:00:26.98	15.97	53.92	-24.2	-24.8	19.2	0.00e+00	0	44	0	2324692992	9	3872
2026-01-21 12:00:29.99	14.56	53.09	-24.1	-24.7	19.2	0.00e+00	0	44	0	2341470208	9	3854
2026-01-21 12:00:33.00	13.23	52.26	-24.4	-25.2	18.9	0.00e+00	0	44	0	2358247424	9	3979
2026-01-21 12:00:36.00	11.98	51.43	-24.2	-24.9	19.0	0.00e+00	0	44	0	2375024640	9	3907
2026-01-21 12:00:39.01	10.79	50.60	-23.9	-24.3	19.3	0.00e+00	0	44	0	2391801856	9	3764
2026-01-21 12:00:42.02	9.67	49.77	-23.9	-24.3	19.4	0.00e+00	0	44	0	2408579072	9	3750
2026-01-21 12:00:45.02	8.60	48.94	-23.5	-23.8	19.8	0.00e+00	0	44	0	2425356288	8	3748
2026-01-21 12:00:48.04	7.59	48.12	-23.4	-23.7	19.9	0.00e+00	0	44	0	2443182080	8	3728
2026-01-21 12:00:51.05	6.64	47.30	-23.6	-24.2	19.6	0.00e+00	0	44	0	2459959296	8	3838
2026-01-21 12:00:54.06	5.73	46.50	-23.2	-23.8	20.1	0.00e+00	0	44	0	2476736512	7	3851
2026-01-21 12:00:57.08	4.87	45.70	-23.0	-23.4	20.2	0.00e+00	0	44	0	2493513728	7	3773
2026-01-21 12:01:00.08	4.05	44.91	-23.2	-23.7	20.0	0.00e+00	0	44	0	2510290944	7	3840
2026-01-21 12:01:03.08	3.27	44.13	-23.6	-24.7	19.5	0.00e+00	0	44	0	2527068160	7	4088
2026-01-21 12:01:06.09	2.53	43.36	-23.8	-25.0	19.4	0.00e+00	0	44	0	2543845376	7	4146
2026-01-21 12:01:09.11	1.82	42.59	-23.5	-24.3	19.7	0.00e+00	0	44	0	2560622592	7	3982
2026-01-21 12:01:12.12	1.15	41.84	-23.3	-24.1	19.9	0.00e+00	0	44	0	2578448384	7	3924
2026-01-21 12:01:15.13	0.51	41.10	-22.9	-23.2	20.2	0.00e+00	0	44	0	2595225600	7	3730
2026-01-21 12:01:18.13	359.90	40.38	-22.9	-23.3	20.2	0.00e+00	0	44	0	2612002816	7	3737
2026-01-21 12:01:21.14	359.31	39.66	-23.1	-23.6	20.0	0.00e+00	0	44	0	2628780032	7	3804
2026-01-21 12:01:24.14	358.75	38.96	-23.3	-24.0	19.8	0.00e+00	0	44	0	2645557248	7	3913
2026-01-21 12:01:27.15	358.22	38.26	-23.4	-24.2	19.7	0.00e+00	0	44	0	2662334464	7	3963
2026-01-21 12:01:30.17	357.70	37.58	-23.0	-23.5	20.1	0.00e+00	0	44	0	2679111680	7	3783
2026-01-21 12:01:33.17	357.21	36.91	-23.1	-23.7	20.0	0.00e+00	0	44	0	2695888896	7	3830
2026-01-21 12:01:36.16	356.74	36.25	-23.0	-23.4	20.1	0.00e+00	0	44	0	2713714688	7	3767
2026-01-21 12:01:39.16	356.29	35.60	-23.2	-23.8	19.9	0.00e+00	0	44	0	2730491904	7	3863
2026-01-21 12:01:42.17	355.85	34.96	-23.3	-23.9	19.8	0.00e+00	0	44	0	2747269120	7	3889
2026-01-21 12:01:45.17	355.44	34.34	-22.9	-23.2	20.2	0.00e+00	0	44	0	2764046336	7	3720
2026-01-21 12:01:48.18	355.04	33.72	-23.2	-23.9	19.8	0.00e+00	0	44	0	2780823552	7	3881
2026-01-21 12:01:51.19	354.65	33.11	-23.3	-24.1	19.6	0.00e+00	0	44	0	2797600768	7	3945
2026-01-21 12:01:54.19	354.28	32.52	-23.5	-24.5	19.5	0.00e+00	0	44	0	2814377984	7	4033
2026-01-21 12:01:57.21	353.92	31.93	-23.5	-24.5	19.4	0.00e+00	0	44	0	2832203776	7	4028
2026-01-21 12:02:00.22	353.57	31.35	-23.6	-24.6	19.4	0.00e+00	0	44	0	2848980992	7	4059
2026-01-21 12:02:03.24	353.24	30.79	-23.3	-24.1	19.6	0.00e+00	0	44	0	2865758208	7	3933
2026-01-21 12:02:06.25	352.91	30.23	-23.4	-24.3	19.5	0.00e+00	0	44	0	2882535424	7	3980
2026-01-21 12:02:09.26	352.60	29.68	-23.7	-24.9	19.3	0.00e+00	0	44	0	2899312640	7	4118
2026-01-21 12:02:12.27	352.30	29.15	-23.8	-25.0	19.1	0.00e+00	0	44	0	2916089856	7	4163
2026-01-21 12:02:15.28	352.01	28.62	-23.7	-24.8	19.2	0.00e+00	0	44	0	2933915648	7	4106
2026-01-21 12:02:18.29	351.73	28.10	-23.6	-24.6	19.3	0.00e+00	0	44	0	2950692864	7	4061
2026-01-21 12:02:21.30	351.46	27.59	-23.5	-24.5	19.4	0.00e+00	0	44	0	2967470080	7	4020
2026-01-21 12:02:24.30	351.20	27.09	-23.5	-24.5	19.4	0.00e+00	0	44	0	2984247296	7	4038
2026-01-21 12:02:27.31	350.95	26.60	-23.7	-24.8	19.2	0.00e+00	0	44	0	3001024512	7	4116
2026-01-21 12:02:30.33	350.70	26.11	-23.8	-25.1	19.0	0.00e+00	0	44	0	3017801728	7	4190
2026-01-21 12:02:33.34	350.46	25.64	-23.8	-25.1	19.0	0.00e+00	0	44	0	3034578944	7	4176
2026-01-21 12:02:36.34	350.23	25.17	-23.8	-25.0	19.1	0.00e+00	0	44	0	3052404736	7	4144
2026-01-21 12:02:39.35	350.01	24.71	-23.9	-25.2	19.0	0.00e+00	0	44	0	3069181952	7	4206
2026-01-21 12:02:42.37	349.79	24.25	-24.1	-25.3	18.7	0.00e+00	0	44	0	3085959168	8	4102
2026-01-21 12:02:45.38	349.58	23.81	-24.3	-25.8	18.5	0.00e+00	0	44	0	3102736384	8	4235
2026-01-21 12:02:48.39	349.38	23.37	-24.7	-26.0	18.0	0.00e+00	0	44	0	3119513600	9	4193
2026-01-21 12:02:51.39	349.18	22.94	-24.4	-25.3	18.4	0.00e+00	0	44	0	3136290816	9	4011
2026-01-21 12:02:54.40	348.98	22.51	-24.3	-25.1	18.5	0.00e+00	0	44	0	3153068032	9	3957
2026-01-21 12:02:57.40	348.80	22.09	-24.3	-25.0	18.5	0.00e+00	0	44	0	3169845248	9	3939
2026-01-21 12:03:00.39	348.62	21.68	-24.3	-25.1	18.5	0.00e+00	0	44	0	3187671040	9	3953
2026-01-21 12:03:03.42	348.44	21.28	-24.4	-25.4	18.3	0.00e+00	0	44	0	3204448256	9	4032
2026-01-21 12:03:06.43	348.27	20.88	-24.5	-25.7	18.1	0.00e+00	0	44	0	3221225472	9	4092
2026-01-21 12:03:09.45	348.10	20.48	-24.7	-25.9	18.0	0.00e+00	0	44	0	3238002688	9	4152
2026-01-21 12:03:12.45	347.94	20.09	-24.7	-26.1	17.9	0.00e+00	0	44	0	3254779904	9	4203
2026-01-21 12:03:15.46	347.78	19.71	-24.9	-26.4	17.7	0.00e+00	0	44	0	3271557120	9	4271
2026-01-21 12:03:18.48	347.62	19.33	-24.9	-26.4	17.7	0.00e+00	0	44	0	3289382912	9	4277
2026-01-21 12:03:21.49	347.47	18.96	-25.2	-26.5	17.4	0.00e+00	0	44	0	3306160128	10	4195
2026-01-21 12:03:24.49	347.33	18.60	-25.0	-26.2	17.5	0.00e+00	0	44	0	3322937344	10	4131
2026-01-21 12:03:27.48	347.18	18.24	-25.2	-26.6	17.3	0.00e+00	0	44	0	3339714560	10	4229
2026-01-21 12:03:30.48	347.04	17.88	-25.3	-26.9	17.1	0.00e+00	0	44	0	3356491776	10	4293
2026-01-21 12:03:33.48	346.91	17.53	-25.4	-27.0	17.1	0.00e+00	0	44	0	3373268992	10	4343
2026-01-21 12:03:36.49	346.78	17.19	-25.6	-26.9	16.8	0.00e+00	0	44	0	3390046208	11	4191
2026-01-21 12:03:39.50	346.65	16.85	-25.6	-27.0	16.8	0.00e+00	0	44	0	3406823424	11	4207
2026-01-21 12:03:42.51	346.52	16.51	-25.6	-27.0	16.8	0.00e+00	0	44	0	3423600640	11	4207
2026-01-21 12:03:45.52	346.40	16.18	-25.7	-27.1	16.7	0.00e+00	0	44	0	3440377856	11	4256
2026-01-21 12:03:48.52	346.28	15.85	-25.8	-27.4	16.5	0.00e+00	0	44	0	3458203648	11	4335
2026-01-21 12:03:51.52	346.16	15.53	-25.9	-27.2	16.2	0.00e+00	0	44	0	3474980864	12	4174
2026-01-21 12:03:54.54	346.05	15.21	-25.8	-27.0	16.4	0.00e+00	0	44	0	3491758080	12	4105
2026-01-21 12:03:57.56	345.93	14.89	-25.9	-27.1	16.3	0.00e+00	0	44	0	3508535296	12	4149
2026-01-21 12:04:00.58	345.82	14.58	-25.9	-27.2	16.2	0.00e+00	0	44	0	3525312512	12	4170
2026-01-21 12:04:03.59	345.72	14.27	-26.1	-27.6	16.0	0.00e+00	0	44	0	3543138304	12	4274
2026-01-21 12:04:06.60	345.61	13.96	-25.9	-27.2	16.1	0.00e+00	0	44	0	3559915520	12	4180
2026-01-21 12:04:09.61	345.51	13.66	-26.0	-27.3	16.1	0.00e+00	0	44	0	3576692736	12	4188
2026-01-21 12:04:12.63	345.41	13.37	-25.8	-27.0	16.2	0.00e+00	0	44	0	3593469952	12	4124
2026-01-21 12:04:15.64	345.31	13.07	-26.0	-27.3	16.0	0.00e+00	0	44	0	3610247168	12	4203
2026-01-21 12:04:18.63	345.22	12.78	-26.0	-27.4	15.9	0.00e+00	0	44	0	3627024384	12	4223
2026-01-21 12:04:21.65	345.13	12.50	-26.1	-27.7	15.8	0.00e+00	0	44	0	3643801600	12	4287
2026-01-21 12:04:24.66	345.03	12.21	-26.3	-28.1	15.5	0.00e+00	0	44	0	3660578816	12	4410
2026-01-21 12:04:27.67	344.94	11.93	-26.2	-27.9	15.6	1.10e-06	0	44	0	3678404608	12	4354
2026-01-21 12:04:30.68	344.86	11.66	-26.3	-28.1	15.5	0.00e+00	0	44	0	3695181824	12	4420
2026-01-21 12:04:33.70	344.77	11.38	-26.5	-27.9	15.3	0.00e+00	0	44	0	3711959040	13	4243
2026-01-21 12:04:36.72	344.69	11.11	-26.7	-28.3	15.1	1.10e-06	0	44	0	3728736256	13	4376
2026-01-21 12:04:39.72	344.61	10.84	-26.7	-28.4	15.0	0.00e+00	0	44	0	3745513472	13	4381
2026-01-21 12:04:42.73	344.53	10.58	-26.8	-28.8	14.8	0.00e+00	0	44	0	3763339264	13	4493
2026-01-21 12:04:45.75	344.45	10.31	-26.8	-28.6	14.9	1.10e-06	0	44	0	3780116480	13	4444
2026-01-21 12:04:48.76	344.37	10.05	-27.1	-28.8	14.5	0.00e+00	0	44	0	3796893696	14	4398
2026-01-21 12:04:51.77	344.29	9.79	-27.1	-29.0	14.4	0.00e+00	0	44	0	3813670912	14	4437
2026-01-21 12:04:54.78	344.22	9.54	-26.9	-28.4	14.7	0.00e+00	0	44	0	3830448128	14	4265
2026-01-21 12:04:57.78	344.15	9.29	-27.0	-28.6	14.5	0.00e+00	0	44	0	3847225344	14	4348
2026-01-21 12:05:00.80	344.08	9.04	-27.5	-29.4	13.7	4.50e-06	0	44	0	3864002560	15	4439
2026-01-21 12:05:03.82	344.01	8.79	-27.2	-28.7	14.1	1.10e-06	0	44	0	3880779776	15	4264
2026-01-21 12:05:06.83	343.94	8.54	-27.4	-29.0	13.9	3.40e-06	0	44	0	3898605568	15	4346
2026-01-21 12:05:09.84	343.87	8.30	-27.3	-28.9	14.0	0.00e+00	0	44	0	3915382784	15	4310
2026-01-21 12:05:12.85	343.81	8.06	-27.5	-29.4	13.6	4.50e-06	0	44	0	3932160000	15	4449
2026-01-21 12:05:15.86	343.74	7.82	-27.3	-28.9	13.9	1.10e-06	0	44	0	3948937216	15	4323
2026-01-21 12:05:18.87	343.68	7.59	-27.6	-29.5	13.5	1.48e-05	0	44	0	3965714432	15	4495
2026-01-21 12:05:21.88	343.62	7.35	-27.3	-28.8	13.9	2.20e-06	0	44	0	3983540224	15	4288
2026-01-21 12:05:24.89	343.56	7.12	-27.5	-29.3	13.6	9.10e-06	0	44	0	4000317440	15	4445

#Closed at: 2026-01-21 12:05:27
#Recorded file [4003 MB]: D:/data/31010_260121_145333.dat