passes_logs/2026/01/21/R2M6_AANII_01/R2M6_AANII_01__20260121_034110_FENGYUN_3D_rec.log

#Pass ID: 20260121_034110_FENGYUN 3D
#Satellite: FENGYUN 3D
#Configuration: FENGYUN 3D
#almurnet v.1.7.20240730
#Start time: 2026-01-21 03:41:12

#Version: 2.2.20231116
#Station: R2M6_AANII_01
#Location: 30.233357 lon 59.946436 lat
#TLE: 1 43010U 17072A   26020.28933472  .00000051  00000+0  46008-4 0  9990
#TLE: 2 43010  98.9944 352.1871 0002476  99.7001 260.4455 14.19696838424006

#Time	Az	El	Level	Level2	SNR	BER	BlckErr	Temp	State	Recorded	gain1	gain2
2026-01-21 03:41:12.11	13.14	7.12	-30.4	-34.3	5.2	7.92e-01	0	42	0	0	20	5638
2026-01-21 03:41:15.13	12.95	7.34	-30.5	-34.1	8.8	2.86e-02	0	42	0	5242880	21	5441
2026-01-21 03:41:18.12	12.77	7.56	-30.0	-33.0	9.9	8.38e-03	0	42	0	22020096	20	5085
2026-01-21 03:41:21.12	12.58	7.78	-29.9	-32.8	10.1	4.95e-03	0	42	0	38797312	20	5013
2026-01-21 03:41:24.13	12.39	8.00	-29.9	-33.0	10.5	1.69e-03	0	42	0	55574528	19	5184
2026-01-21 03:41:27.14	12.19	8.22	-28.3	-30.1	13.0	3.66e-05	0	42	0	73400320	17	4431
2026-01-21 03:41:30.15	11.99	8.45	-27.8	-29.5	13.8	4.50e-06	0	43	0	90177536	16	4350
2026-01-21 03:41:33.16	11.79	8.67	-27.5	-29.2	14.0	4.50e-06	0	42	0	106954752	15	4388
2026-01-21 03:41:36.17	11.59	8.90	-27.5	-29.3	13.9	3.40e-06	0	42	0	123731968	15	4432
2026-01-21 03:41:39.18	11.38	9.13	-27.4	-29.5	13.8	2.20e-06	0	42	0	140509184	14	4603
2026-01-21 03:41:42.20	11.17	9.36	-27.5	-29.7	14.0	1.10e-06	0	42	0	157286400	14	4638
2026-01-21 03:41:45.21	10.95	9.59	-27.4	-29.5	14.2	0.00e+00	0	43	0	174063616	14	4575
2026-01-21 03:41:48.21	10.73	9.83	-27.3	-29.3	14.3	2.44e-04	0	43	0	191889408	14	4538
2026-01-21 03:41:51.22	10.51	10.06	-27.2	-29.1	14.4	2.23e-04	0	43	0	208666624	14	4478
2026-01-21 03:41:54.22	10.28	10.30	-27.3	-29.3	14.4	1.10e-06	0	43	0	225443840	14	4521
2026-01-21 03:41:57.22	10.05	10.54	-27.1	-28.8	14.6	2.02e-04	0	43	0	242221056	14	4373
2026-01-21 03:42:00.23	9.82	10.78	-27.2	-29.0	14.5	1.86e-04	0	43	0	258998272	14	4438
2026-01-21 03:42:03.24	9.58	11.03	-27.0	-28.6	14.8	1.74e-04	0	43	0	275775488	14	4331
2026-01-21 03:42:06.25	9.33	11.27	-27.1	-28.8	14.6	0.00e+00	0	43	0	292552704	14	4391
2026-01-21 03:42:09.26	9.09	11.52	-26.8	-28.6	15.1	1.75e-04	0	43	0	310378496	13	4442
2026-01-21 03:42:12.27	8.83	11.77	-26.8	-28.6	15.1	1.89e-04	0	43	0	327155712	13	4426
2026-01-21 03:42:15.29	8.58	12.03	-26.9	-28.4	15.0	0.00e+00	0	43	0	343932928	14	4264
2026-01-21 03:42:18.30	8.32	12.28	-26.8	-28.6	15.1	1.53e-04	0	43	0	360710144	13	4423
2026-01-21 03:42:21.31	8.05	12.54	-26.8	-28.7	15.1	1.40e-04	0	43	0	377487360	13	4455
2026-01-21 03:42:24.31	7.78	12.79	-26.8	-28.6	15.2	0.00e+00	0	43	0	394264576	13	4448
2026-01-21 03:42:27.32	7.50	13.05	-26.7	-28.5	15.2	0.00e+00	0	43	0	411041792	13	4393
2026-01-21 03:42:30.33	7.22	13.32	-26.6	-28.1	15.4	5.14e-05	0	43	0	428867584	13	4287
2026-01-21 03:42:33.34	6.94	13.58	-26.7	-28.3	15.3	0.00e+00	0	43	0	445644800	13	4347
2026-01-21 03:42:36.34	6.65	13.85	-26.6	-28.2	15.4	0.00e+00	0	43	0	462422016	13	4321
2026-01-21 03:42:39.34	6.35	14.11	-26.5	-28.0	15.5	0.00e+00	0	43	0	479199232	13	4266
2026-01-21 03:42:42.35	6.05	14.39	-26.3	-27.5	15.8	0.00e+00	0	44	0	495976448	13	4138
2026-01-21 03:42:45.36	5.74	14.66	-26.3	-27.9	15.9	0.00e+00	0	44	0	512753664	12	4353
2026-01-21 03:42:48.36	5.42	14.93	-26.1	-27.6	16.1	0.00e+00	0	43	0	529530880	12	4258
2026-01-21 03:42:51.37	5.10	15.21	-26.1	-27.4	16.2	0.00e+00	0	44	0	546308096	12	4216
2026-01-21 03:42:54.39	4.78	15.49	-26.0	-27.4	16.2	0.00e+00	0	44	0	564133888	12	4208
2026-01-21 03:42:57.39	4.44	15.77	-26.2	-27.7	16.1	0.00e+00	0	44	0	580911104	12	4297
2026-01-21 03:43:00.40	4.10	16.06	-26.2	-27.7	16.1	0.00e+00	0	43	0	597688320	12	4278
2026-01-21 03:43:03.41	3.76	16.34	-26.0	-27.3	16.3	0.00e+00	0	44	0	614465536	12	4179
2026-01-21 03:43:06.42	3.40	16.63	-25.8	-27.4	16.6	0.00e+00	0	44	0	631242752	11	4329
2026-01-21 03:43:09.44	3.04	16.93	-25.7	-27.2	16.8	0.00e+00	0	44	0	648019968	11	4257
2026-01-21 03:43:12.45	2.67	17.22	-25.5	-26.8	17.0	0.00e+00	0	44	0	664797184	11	4154
2026-01-21 03:43:15.45	2.30	17.51	-25.5	-26.8	17.0	0.00e+00	0	44	0	681574400	11	4167
2026-01-21 03:43:18.45	1.92	17.81	-25.6	-26.9	17.0	0.00e+00	0	44	0	699400192	11	4179
2026-01-21 03:43:21.46	1.53	18.11	-25.6	-26.8	17.0	0.00e+00	0	44	0	716177408	11	4168
2026-01-21 03:43:24.47	1.13	18.42	-25.6	-26.9	16.9	0.00e+00	0	44	0	732954624	11	4177
2026-01-21 03:43:27.49	0.72	18.72	-25.5	-26.6	17.1	0.00e+00	0	44	0	749731840	11	4109
2026-01-21 03:43:30.49	0.30	19.03	-25.3	-26.7	13.6	0.00e+00	0	44	0	766509056	10	4240
2026-01-21 03:43:33.49	359.88	19.34	-25.2	-26.5	17.5	0.00e+00	0	44	0	783286272	10	4194
2026-01-21 03:43:36.50	359.45	19.65	-25.2	-26.5	17.5	0.00e+00	0	44	0	800063488	10	4191
2026-01-21 03:43:39.50	359.01	19.96	-25.2	-26.6	17.4	1.17e-03	0	44	0	817889280	10	4213
2026-01-21 03:43:42.52	358.55	20.28	-25.1	-26.3	17.5	0.00e+00	0	44	0	834666496	10	4157
2026-01-21 03:43:45.53	358.09	20.60	-25.0	-26.2	17.6	0.00e+00	0	44	0	851443712	10	4132
2026-01-21 03:43:48.53	357.62	20.91	-24.9	-25.9	17.8	1.16e-03	0	44	0	868220928	10	4045
2026-01-21 03:43:51.54	357.14	21.24	-24.9	-26.4	17.8	1.26e-03	0	44	0	884998144	9	4290
2026-01-21 03:43:54.55	356.65	21.56	-24.9	-25.9	17.8	0.00e+00	0	44	0	901775360	10	4041
2026-01-21 03:43:57.56	356.14	21.89	-25.0	-26.0	17.8	9.86e-04	0	44	0	919601152	10	4073
2026-01-21 03:44:00.57	355.63	22.21	-24.6	-25.4	18.1	8.09e-04	0	44	0	936378368	10	3915
2026-01-21 03:44:03.57	355.11	22.54	-24.4	-25.3	18.4	7.59e-04	0	44	0	953155584	9	4012
2026-01-21 03:44:06.58	354.57	22.87	-24.5	-25.7	18.2	7.26e-04	0	44	0	969932800	9	4097
2026-01-21 03:44:09.58	354.02	23.20	-24.8	-26.1	18.0	8.19e-04	0	44	0	986710016	9	4209
2026-01-21 03:44:12.60	353.46	23.54	-24.4	-25.3	18.4	8.28e-04	0	44	0	1003487232	9	3999
2026-01-21 03:44:15.62	352.89	23.88	-24.2	-25.3	18.7	0.00e+00	0	44	0	1020264448	8	4122
2026-01-21 03:44:18.63	352.30	24.21	-24.3	-25.6	18.5	0.00e+00	0	44	0	1038090240	8	4191
2026-01-21 03:44:21.65	351.70	24.55	-24.7	-25.9	18.1	7.20e-04	0	44	0	1054867456	9	4162
2026-01-21 03:44:24.67	351.09	24.89	-24.4	-25.4	18.4	0.00e+00	0	44	0	1071644672	9	4026
2026-01-21 03:44:27.69	350.46	25.23	-24.2	-25.5	18.6	0.00e+00	0	44	0	1088421888	8	4174
2026-01-21 03:44:30.70	349.82	25.57	-23.9	-24.7	19.0	0.00e+00	0	44	0	1105199104	8	3974
2026-01-21 03:44:33.69	349.18	25.91	-23.9	-24.9	19.0	0.00e+00	0	44	0	1121976320	8	4006
2026-01-21 03:44:36.69	348.51	26.25	-24.0	-24.9	18.9	0.00e+00	0	44	0	1138753536	8	4018
2026-01-21 03:44:39.70	347.83	26.58	-23.9	-24.7	19.1	0.00e+00	0	44	0	1155530752	8	3975
2026-01-21 03:44:42.70	347.14	26.92	-23.7	-24.3	19.3	0.00e+00	0	44	0	1173356544	8	3861
2026-01-21 03:44:45.70	346.43	27.26	-23.4	-23.7	19.6	0.00e+00	0	44	0	1190133760	8	3731
2026-01-21 03:44:48.70	345.70	27.60	-23.6	-24.6	19.3	0.00e+00	0	44	0	1206910976	7	4048
2026-01-21 03:44:51.71	344.96	27.93	-23.6	-24.6	19.3	0.00e+00	0	44	0	1223688192	7	4056
2026-01-21 03:44:54.73	344.20	28.27	-23.5	-24.4	19.5	0.00e+00	0	44	0	1240465408	7	4005
2026-01-21 03:44:57.74	343.42	28.61	-23.5	-24.4	19.5	0.00e+00	0	44	0	1257242624	7	3994
2026-01-21 03:45:00.74	342.64	28.94	-23.5	-24.5	19.4	0.00e+00	0	44	0	1274019840	7	4034
2026-01-21 03:45:03.76	341.83	29.27	-23.6	-24.5	19.4	0.00e+00	0	44	0	1290797056	7	4034
2026-01-21 03:45:06.77	341.00	29.59	-23.5	-24.5	19.4	0.00e+00	0	44	0	1308622848	7	4030
2026-01-21 03:45:09.78	340.16	29.92	-23.4	-24.2	19.5	0.00e+00	0	44	0	1325400064	7	3965
2026-01-21 03:45:12.79	339.30	30.24	-23.5	-24.4	19.4	0.00e+00	0	44	0	1342177280	7	4010
2026-01-21 03:45:15.79	338.43	30.55	-23.6	-24.6	19.4	0.00e+00	0	44	0	1358954496	7	4055
2026-01-21 03:45:18.80	337.53	30.86	-23.2	-23.8	19.8	1.14e-05	0	44	0	1375731712	7	3855
2026-01-21 03:45:21.83	336.61	31.17	-23.3	-24.5	19.7	0.00e+00	0	44	0	1393557504	6	4151
2026-01-21 03:45:24.83	335.69	31.48	-23.2	-24.3	19.8	0.00e+00	0	44	0	1410334720	6	4086
2026-01-21 03:45:27.85	334.74	31.77	-23.2	-24.4	19.7	5.32e-04	0	44	0	1427111936	6	4119
2026-01-21 03:45:30.86	333.78	32.06	-23.3	-24.5	19.7	3.57e-04	0	44	0	1443889152	6	4129
2026-01-21 03:45:33.86	332.80	32.35	-23.1	-24.1	19.9	0.00e+00	0	44	0	1460666368	6	4041
2026-01-21 03:45:36.88	331.80	32.62	-23.1	-24.2	19.9	8.01e-04	0	44	0	1477443584	6	4064
2026-01-21 03:45:39.89	330.78	32.89	-23.1	-24.1	19.9	9.75e-04	0	44	0	1494220800	6	4047
2026-01-21 03:45:42.90	329.75	33.15	-23.1	-24.2	19.8	1.10e-03	0	44	0	1510998016	6	4061
2026-01-21 03:45:45.91	328.70	33.41	-23.0	-24.0	20.0	1.13e-03	0	44	0	1528823808	6	4007
2026-01-21 03:45:48.91	327.64	33.65	-22.9	-23.8	20.1	9.77e-04	0	44	0	1545601024	6	3960
2026-01-21 03:45:51.92	326.56	33.88	-23.0	-23.9	20.0	1.07e-03	0	44	0	1562378240	6	3996
2026-01-21 03:45:54.93	325.46	34.11	-23.1	-24.0	19.9	0.00e+00	0	44	0	1579155456	6	4028
2026-01-21 03:45:57.94	324.35	34.32	-23.0	-24.0	20.0	5.01e-04	0	44	0	1595932672	6	4016
2026-01-21 03:46:00.95	323.22	34.52	-23.0	-23.9	20.0	7.40e-04	0	44	0	1612709888	6	3989
2026-01-21 03:46:03.96	322.08	34.71	-23.0	-23.8	20.1	0.00e+00	0	44	0	1629487104	6	3977
2026-01-21 03:46:06.97	320.93	34.89	-22.9	-24.3	20.1	0.00e+00	0	44	0	1647312896	5	4199
2026-01-21 03:46:09.98	319.76	35.06	-22.8	-23.5	20.2	0.00e+00	0	44	0	1664090112	6	3907
2026-01-21 03:46:12.98	318.59	35.21	-23.2	-24.3	19.8	0.00e+00	0	44	0	1680867328	6	4094
2026-01-21 03:46:16.00	317.40	35.35	-23.3	-24.6	19.6	0.00e+00	0	44	0	1697644544	6	4163
2026-01-21 03:46:19.01	316.20	35.48	-23.2	-24.3	19.8	0.00e+00	0	44	0	1714421760	6	4087
2026-01-21 03:46:22.01	314.99	35.59	-23.2	-24.2	19.8	0.00e+00	0	44	0	1731198976	6	4074
2026-01-21 03:46:25.01	313.78	35.69	-22.7	-23.3	20.3	0.00e+00	0	44	0	1747976192	6	3855
2026-01-21 03:46:28.02	312.56	35.78	-23.2	-24.2	19.9	0.00e+00	0	44	0	1765801984	6	4076
2026-01-21 03:46:31.04	311.33	35.85	-23.0	-23.9	20.0	0.00e+00	0	44	0	1782579200	6	4000
2026-01-21 03:46:34.04	310.10	35.90	-22.8	-23.6	20.2	0.00e+00	0	44	0	1799356416	6	3917
2026-01-21 03:46:37.05	308.86	35.94	-22.7	-23.4	20.3	0.00e+00	0	44	0	1816133632	6	3867
2026-01-21 03:46:40.05	307.63	35.97	-22.8	-24.1	20.2	0.00e+00	0	44	0	1832910848	5	4146
2026-01-21 03:46:43.07	306.38	35.97	-22.9	-24.1	20.2	0.00e+00	0	44	0	1849688064	5	4155
2026-01-21 03:46:46.08	305.14	35.97	-23.5	-24.4	19.6	0.00e+00	0	44	0	1867513856	7	3995
2026-01-21 03:46:49.09	303.90	35.95	-22.8	-23.5	20.2	0.00e+00	0	44	0	1884291072	6	3907
2026-01-21 03:46:52.09	302.67	35.91	-22.7	-23.8	20.3	0.00e+00	0	44	0	1901068288	5	4072
2026-01-21 03:46:55.10	301.44	35.86	-22.8	-23.5	20.3	0.00e+00	0	44	0	1917845504	6	3887
2026-01-21 03:46:58.11	300.21	35.79	-22.5	-23.4	20.5	2.40e-05	0	44	0	1934622720	5	3983
2026-01-21 03:47:01.12	298.98	35.71	-22.8	-23.9	20.3	0.00e+00	0	44	0	1951399936	5	4101
2026-01-21 03:47:04.13	297.77	35.61	-23.1	-24.0	20.0	0.00e+00	0	44	0	1968177152	6	4027
2026-01-21 03:47:07.13	296.56	35.50	-23.3	-24.5	19.8	0.00e+00	0	44	0	1984954368	6	4129
2026-01-21 03:47:10.13	295.36	35.38	-23.0	-23.8	20.1	7.32e-05	0	44	0	2002780160	6	3968
2026-01-21 03:47:13.14	294.17	35.24	-22.7	-23.2	20.4	0.00e+00	0	44	0	2019557376	6	3826
2026-01-21 03:47:16.15	292.99	35.09	-22.5	-23.4	20.5	0.00e+00	0	44	0	2036334592	5	3997
2026-01-21 03:47:19.17	291.82	34.93	-23.0	-24.4	20.0	6.98e-05	0	44	0	2053111808	5	4218
2026-01-21 03:47:22.17	290.66	34.75	-23.1	-23.7	19.9	1.36e-04	0	44	0	2069889024	7	3840
2026-01-21 03:47:25.17	289.52	34.56	-22.4	-23.2	20.6	0.00e+00	0	44	0	2086666240	5	3932
2026-01-21 03:47:28.19	288.39	34.36	-22.5	-23.5	20.4	0.00e+00	0	44	0	2103443456	5	4002
2026-01-21 03:47:31.19	287.27	34.15	-22.7	-23.8	20.2	0.00e+00	0	44	0	2120220672	5	4091
2026-01-21 03:47:34.20	286.17	33.93	-23.3	-24.6	19.6	0.00e+00	0	44	0	2138046464	6	4168
2026-01-21 03:47:37.21	285.08	33.69	-23.3	-24.1	19.6	0.00e+00	0	44	0	2154823680	7	3926
2026-01-21 03:47:40.23	284.01	33.45	-23.3	-24.6	19.6	0.00e+00	0	44	0	2171600896	6	4166
2026-01-21 03:47:43.23	282.96	33.20	-23.0	-23.8	20.0	0.00e+00	0	44	0	2188378112	6	3979
2026-01-21 03:47:46.24	281.92	32.94	-22.9	-23.7	20.0	0.00e+00	0	44	0	2205155328	6	3953
2026-01-21 03:47:49.25	280.90	32.67	-22.8	-23.4	20.2	0.00e+00	0	44	0	2221932544	6	3883
2026-01-21 03:47:52.27	279.89	32.39	-23.1	-24.0	19.9	0.00e+00	0	44	0	2239758336	6	4029
2026-01-21 03:47:55.28	278.90	32.11	-22.9	-23.7	20.1	0.00e+00	0	44	0	2256535552	6	3938
2026-01-21 03:47:58.28	277.94	31.82	-23.3	-24.6	19.6	0.00e+00	0	44	0	2273312768	6	4159
2026-01-21 03:48:01.29	276.98	31.52	-23.4	-24.8	19.5	0.00e+00	0	44	0	2290089984	6	4216
2026-01-21 03:48:04.30	276.05	31.22	-23.8	-25.0	19.1	0.00e+00	0	44	0	2306867200	7	4148
2026-01-21 03:48:07.32	275.13	30.91	-24.4	-25.4	18.4	0.00e+00	0	44	0	2323644416	9	4018
2026-01-21 03:48:10.34	274.23	30.60	-24.1	-25.1	18.8	0.00e+00	0	44	0	2340421632	8	4072
2026-01-21 03:48:13.35	273.34	30.28	-24.3	-25.1	18.6	0.00e+00	0	44	0	2358247424	9	3951
2026-01-21 03:48:16.35	272.48	29.96	-23.3	-23.5	19.6	0.00e+00	0	44	0	2375024640	8	3691
2026-01-21 03:48:19.37	271.63	29.64	-23.4	-24.9	19.4	0.00e+00	0	44	0	2391801856	6	4233
2026-01-21 03:48:22.37	270.80	29.31	-23.4	-24.3	19.4	0.00e+00	0	44	0	2408579072	7	3970
2026-01-21 03:48:25.40	269.98	28.98	-23.5	-24.4	19.3	0.00e+00	0	44	0	2425356288	7	4003
2026-01-21 03:48:28.41	269.18	28.65	-23.0	-23.4	19.9	0.00e+00	0	44	0	2442133504	7	3763
2026-01-21 03:48:31.41	268.41	28.31	-23.1	-24.1	19.7	0.00e+00	0	44	0	2458910720	6	4055
2026-01-21 03:48:34.41	267.64	27.98	-23.2	-24.2	19.7	0.00e+00	0	44	0	2476736512	6	4077
2026-01-21 03:48:37.41	266.90	27.64	-23.4	-24.7	19.4	0.00e+00	0	44	0	2493513728	6	4188
2026-01-21 03:48:40.42	266.17	27.30	-23.4	-24.3	16.9	0.00e+00	0	44	0	2510290944	7	3987
2026-01-21 03:48:43.43	265.45	26.96	-23.5	-24.4	19.3	0.00e+00	0	44	0	2527068160	7	4011
2026-01-21 03:48:46.43	264.75	26.62	-23.4	-24.1	19.4	0.00e+00	0	44	0	2543845376	7	3942
2026-01-21 03:48:49.43	264.06	26.28	-23.8	-25.1	19.0	0.00e+00	0	44	0	2560622592	7	4167
2026-01-21 03:48:52.44	263.39	25.94	-23.9	-24.8	18.9	0.00e+00	0	44	0	2577399808	8	3999
2026-01-21 03:48:55.45	262.73	25.60	-23.7	-24.4	19.0	0.00e+00	0	44	0	2594177024	8	3897
2026-01-21 03:48:58.46	262.09	25.26	-23.8	-25.0	19.0	6.73e-04	0	44	0	2610954240	7	4159
2026-01-21 03:49:01.46	261.46	24.92	-24.0	-25.0	18.7	9.80e-04	0	44	0	2628780032	8	4057
2026-01-21 03:49:04.46	260.85	24.58	-24.1	-25.2	18.6	0.00e+00	0	44	0	2645557248	8	4096
2026-01-21 03:49:07.47	260.24	24.24	-24.0	-25.1	18.7	1.07e-03	0	44	0	2662334464	8	4056
2026-01-21 03:49:10.49	259.65	23.91	-24.3	-25.6	18.4	1.31e-03	0	44	0	2679111680	8	4185
2026-01-21 03:49:13.50	259.07	23.57	-24.4	-25.8	18.3	1.46e-03	0	44	0	2695888896	8	4257
2026-01-21 03:49:16.52	258.51	23.23	-24.1	-25.2	18.6	9.83e-04	0	44	0	2713714688	8	4081
2026-01-21 03:49:19.53	257.95	22.90	-23.9	-24.7	18.8	1.53e-04	0	44	0	2730491904	8	3970
2026-01-21 03:49:22.54	257.41	22.57	-23.8	-24.6	18.9	1.41e-03	0	44	0	2747269120	8	3947
2026-01-21 03:49:25.55	256.88	22.23	-23.9	-25.3	18.7	0.00e+00	0	44	0	2764046336	7	4243
2026-01-21 03:49:28.56	256.36	21.90	-24.0	-25.0	18.6	1.36e-03	0	44	0	2780823552	8	4038
2026-01-21 03:49:31.58	255.86	21.58	-24.2	-25.4	18.4	6.42e-04	0	44	0	2797600768	8	4153
2026-01-21 03:49:34.59	255.36	21.25	-24.2	-25.4	18.4	0.00e+00	0	44	0	2814377984	8	4153
2026-01-21 03:49:37.60	254.87	20.93	-24.0	-25.1	18.5	0.00e+00	0	44	0	2832203776	8	4073
2026-01-21 03:49:40.60	254.40	20.61	-24.1	-25.2	18.4	0.00e+00	0	44	0	2848980992	8	4094
2026-01-21 03:49:43.60	253.93	20.29	-24.1	-25.3	18.4	0.00e+00	0	44	0	2865758208	8	4113
2026-01-21 03:49:46.62	253.48	19.97	-24.2	-25.4	18.4	0.00e+00	0	44	0	2882535424	8	4149
2026-01-21 03:49:49.63	253.03	19.65	-24.3	-25.7	18.2	0.00e+00	0	44	0	2899312640	8	4231
2026-01-21 03:49:52.63	252.59	19.34	-24.4	-25.9	18.0	0.00e+00	0	44	0	2916089856	8	4279
2026-01-21 03:49:55.63	252.17	19.03	-24.7	-26.1	17.7	0.00e+00	0	44	0	2932867072	9	4209
2026-01-21 03:49:58.63	251.75	18.72	-24.6	-25.8	17.8	0.00e+00	0	44	0	2949644288	9	4134
2026-01-21 03:50:01.64	251.34	18.42	-24.7	-25.9	17.7	0.00e+00	0	44	0	2967470080	9	4171
2026-01-21 03:50:04.66	250.93	18.11	-24.8	-26.1	17.6	0.00e+00	0	44	0	2984247296	9	4226
2026-01-21 03:50:07.68	250.53	17.81	-25.1	-26.3	17.3	0.00e+00	0	44	0	3001024512	10	4147
2026-01-21 03:50:10.69	250.15	17.51	-25.6	-27.0	16.6	0.00e+00	0	44	0	3017801728	11	4223
2026-01-21 03:50:13.69	249.77	17.21	-25.3	-26.8	17.0	0.00e+00	0	44	0	3034578944	10	4293
2026-01-21 03:50:16.70	249.40	16.92	-25.4	-26.9	16.9	0.00e+00	0	44	0	3051356160	10	4318
2026-01-21 03:50:19.71	249.03	16.62	-25.5	-26.7	16.8	0.00e+00	0	44	0	3068133376	11	4135
2026-01-21 03:50:22.72	248.68	16.33	-24.8	-25.9	16.2	0.00e+00	0	44	0	3085959168	11	4081
2026-01-21 03:50:25.73	248.32	16.04	-25.8	-27.3	16.0	0.00e+00	0	44	0	3102736384	11	4315
2026-01-21 03:50:28.75	247.98	15.76	-25.7	-27.1	16.5	0.00e+00	0	44	0	3119513600	11	4246
2026-01-21 03:50:31.75	247.64	15.47	-25.7	-27.1	16.5	0.00e+00	0	44	0	3136290816	11	4256
2026-01-21 03:50:34.77	247.31	15.19	-25.7	-27.1	16.5	0.00e+00	0	44	0	3153068032	11	4244
2026-01-21 03:50:37.79	246.99	14.91	-25.8	-27.4	16.3	1.91e-03	0	44	0	3169845248	11	4324
2026-01-21 03:50:40.80	246.67	14.64	-26.0	-27.8	16.1	6.84e-04	0	44	0	3187671040	11	4441
2026-01-21 03:50:43.82	246.36	14.36	-25.9	-27.6	16.1	1.72e-03	0	44	0	3204448256	11	4397
2026-01-21 03:50:46.82	246.05	14.09	-25.9	-27.6	16.1	1.46e-03	0	44	0	3221225472	11	4400
2026-01-21 03:50:49.84	245.75	13.82	-25.9	-27.2	16.0	1.57e-03	0	44	0	3238002688	12	4173
2026-01-21 03:50:52.86	245.45	13.55	-26.1	-27.7	15.7	1.54e-03	0	44	0	3254779904	12	4302
2026-01-21 03:50:55.88	245.16	13.28	-26.0	-27.5	15.8	1.72e-03	0	44	0	3272605696	12	4249
2026-01-21 03:50:58.89	244.88	13.02	-26.2	-27.9	15.5	1.99e-03	0	44	0	3289382912	12	4373
2026-01-21 03:51:01.89	244.60	12.76	-26.3	-28.0	15.5	2.01e-03	0	44	0	3306160128	12	4388
2026-01-21 03:51:04.90	244.33	12.50	-26.3	-28.0	15.5	0.00e+00	0	44	0	3322937344	12	4382
2026-01-21 03:51:07.91	244.06	12.24	-26.3	-28.0	15.4	1.43e-03	0	44	0	3339714560	12	4405
2026-01-21 03:51:10.92	243.79	11.99	-26.3	-28.1	15.4	0.00e+00	0	44	0	3356491776	12	4427
2026-01-21 03:51:13.92	243.53	11.73	-26.3	-28.1	15.3	0.00e+00	0	44	0	3373268992	12	4425
2026-01-21 03:51:16.93	243.28	11.48	-26.8	-28.7	14.7	0.00e+00	0	44	0	3390046208	13	4487
2026-01-21 03:51:19.95	243.02	11.23	-26.7	-28.5	14.8	1.21e-03	0	44	0	3407872000	13	4424
2026-01-21 03:51:22.96	242.78	10.99	-26.6	-28.3	14.9	1.10e-06	0	44	0	3424649216	13	4363
2026-01-21 03:51:25.98	242.54	10.74	-26.7	-28.4	14.8	1.10e-06	0	44	0	3441426432	13	4408
2026-01-21 03:51:28.98	242.30	10.50	-26.4	-28.4	15.1	0.00e+00	0	44	0	3458203648	12	4512
2026-01-21 03:51:31.98	242.06	10.26	-26.5	-28.1	15.0	0.00e+00	0	44	0	3474980864	13	4331
2026-01-21 03:51:34.99	241.83	10.02	-26.6	-28.4	14.8	0.00e+00	0	44	0	3491758080	13	4390
2026-01-21 03:51:37.99	241.61	9.78	-26.8	-28.7	14.6	1.10e-06	0	44	0	3508535296	13	4487
2026-01-21 03:51:41.00	241.39	9.54	-26.9	-29.1	14.4	0.00e+00	0	44	0	3525312512	13	4598
2026-01-21 03:51:44.01	241.17	9.31	-26.9	-28.9	14.5	0.00e+00	0	44	0	3543138304	13	4545
2026-01-21 03:51:47.02	240.95	9.08	-27.3	-29.5	13.8	2.20e-06	0	44	0	3559915520	14	4597
2026-01-21 03:51:50.02	240.74	8.85	-26.8	-28.6	14.6	0.00e+00	0	44	0	3576692736	13	4472
2026-01-21 03:51:53.03	240.53	8.62	-27.0	-29.1	14.3	0.00e+00	0	44	0	3593469952	13	4604
2026-01-21 03:51:56.04	240.33	8.39	-26.9	-29.0	14.3	1.10e-06	0	44	0	3610247168	13	4570
2026-01-21 03:51:59.06	240.12	8.17	-26.9	-28.9	14.3	0.00e+00	0	44	0	3627024384	13	4547
2026-01-21 03:52:02.06	239.93	7.94	-26.9	-29.0	14.2	1.10e-06	0	44	0	3644850176	13	4596
2026-01-21 03:52:05.07	239.73	7.72	-27.3	-29.4	13.7	1.10e-06	0	44	0	3661627392	14	4582
2026-01-21 03:52:08.08	239.54	7.50	-27.5	-29.5	13.4	6.80e-06	0	44	0	3678404608	15	4496
2026-01-21 03:52:11.08	239.35	7.28	-27.4	-29.7	13.5	8.00e-06	0	44	0	3695181824	14	4680
2026-01-21 03:52:14.09	239.16	7.07	-33.1	-43.9	3.8	8.47e-01	0	44	104	3708813312	26	12528

#Closed at: 2026-01-21 03:52:16
#Recorded file [3708 MB]: D:/data/31010_260121_064114.dat