passes_logs/2026/01/21/R2M6_AANII_01/R2M6_AANII_01__20260121_223418_NOAA_21_JPSS-2_rec.log

#Pass ID: 20260121_223418_NOAA 21 (JPSS-2)
#Satellite: NOAA 21 (JPSS-2)
#Configuration: NOAA 21
#almurnet v.1.7.20240730
#Start time: 2026-01-21 22:34:18

#Version: 2.2.20231116
#Station: R2M6_AANII_01
#Location: 30.233357 lon 59.946436 lat
#TLE: 1 54234U 22150A   26020.93347024  .00000206  00000+0  11859-3 0  9994
#TLE: 2 54234  98.7506 321.7615 0000627 245.8100 114.3011 14.19536899165654

#Time	Az	El	Level	Level2	SNR	BER	BlckErr	Temp	State	Recorded	gain1	gain2
2026-01-21 22:34:18.92	31.81	7.03	-30.8	-36.1	4.6	1.38e+00	0	42	0	0	21	6631
2026-01-21 22:34:21.93	32.12	7.21	-32.0	-39.0	5.4	4.41e-01	0	42	0	3145728	23	8063
2026-01-21 22:34:24.94	32.44	7.39	-31.3	-35.9	7.4	1.33e-01	0	42	0	12582912	23	6122
2026-01-21 22:34:27.96	32.76	7.57	-30.5	-33.6	9.5	1.51e-02	0	42	0	22020096	22	5130
2026-01-21 22:34:30.96	33.08	7.75	-30.2	-33.8	10.0	5.51e-03	0	42	0	30408704	20	5445
2026-01-21 22:34:33.96	33.40	7.93	-29.9	-32.7	11.0	1.90e-03	0	42	0	39845888	20	4971
2026-01-21 22:34:36.97	33.73	8.11	-29.8	-32.9	11.3	1.33e-03	0	42	0	49283072	19	5142
2026-01-21 22:34:39.98	34.07	8.29	-29.5	-32.1	11.8	5.58e-04	0	42	0	58720256	19	4853
2026-01-21 22:34:42.99	34.40	8.47	-29.4	-31.8	12.1	2.45e-04	0	42	0	68157440	19	4749
2026-01-21 22:34:46.00	34.74	8.66	-29.5	-32.1	11.9	3.68e-04	0	43	0	77594624	19	4855
2026-01-21 22:34:49.01	35.09	8.84	-29.3	-31.7	12.1	2.53e-04	0	43	0	87031808	19	4716
2026-01-21 22:34:52.02	35.44	9.02	-29.4	-31.9	12.0	3.04e-04	0	43	0	96468992	19	4794
2026-01-21 22:34:55.03	35.80	9.21	-29.0	-30.8	12.7	8.54e-05	0	43	0	105906176	19	4446
2026-01-21 22:34:58.05	36.16	9.39	-29.1	-31.0	12.6	8.23e-05	0	43	0	115343360	19	4492
2026-01-21 22:35:01.06	36.52	9.58	-29.0	-30.8	12.8	8.16e-05	0	43	0	124780544	19	4423
2026-01-21 22:35:04.07	36.89	9.76	-28.9	-31.1	12.9	2.37e-04	0	43	0	134217728	18	4637
2026-01-21 22:35:07.08	37.26	9.95	-28.9	-31.0	13.0	3.43e-05	0	43	0	143654912	18	4595
2026-01-21 22:35:10.09	37.64	10.13	-28.7	-30.5	13.3	1.60e-05	0	43	0	153092096	18	4427
2026-01-21 22:35:13.10	38.02	10.32	-28.8	-30.9	13.1	3.35e-05	0	43	0	162529280	18	4544
2026-01-21 22:35:16.11	38.40	10.51	-28.8	-30.8	13.2	1.24e-04	0	43	0	171966464	18	4519
2026-01-21 22:35:19.12	38.79	10.69	-28.7	-30.5	13.4	1.49e-04	0	43	0	181403648	18	4435
2026-01-21 22:35:22.12	39.19	10.88	-28.7	-30.5	13.4	1.92e-04	0	43	0	190840832	18	4438
2026-01-21 22:35:25.12	39.59	11.07	-28.9	-30.9	13.2	4.50e-05	0	43	0	200278016	18	4567
2026-01-21 22:35:28.13	39.99	11.26	-29.0	-31.3	12.9	5.79e-05	0	43	0	209715200	18	4700
2026-01-21 22:35:31.14	40.40	11.44	-29.1	-31.5	12.8	2.04e-04	0	43	0	219152384	18	4748
2026-01-21 22:35:34.15	40.82	11.63	-28.8	-30.7	13.3	1.11e-04	0	43	0	228589568	18	4487
2026-01-21 22:35:37.15	41.24	11.82	-28.8	-30.7	13.4	1.52e-05	0	43	0	238026752	18	4492
2026-01-21 22:35:40.15	41.66	12.01	-28.8	-30.8	13.3	1.75e-05	0	43	0	247463936	18	4511
2026-01-21 22:35:43.15	42.09	12.19	-28.7	-30.6	13.5	1.14e-05	0	43	0	256901120	18	4443
2026-01-21 22:35:46.17	42.53	12.38	-28.6	-30.2	13.7	4.50e-06	0	43	0	266338304	18	4346
2026-01-21 22:35:49.17	42.97	12.57	-28.6	-30.1	13.8	5.30e-06	0	43	0	275775488	18	4306
2026-01-21 22:35:52.18	43.42	12.76	-28.5	-30.1	13.8	2.20e-06	0	43	0	285212672	18	4296
2026-01-21 22:35:55.20	43.88	12.95	-28.5	-30.4	13.9	2.20e-06	0	43	0	294649856	17	4488
2026-01-21 22:35:58.21	44.34	13.13	-28.4	-30.2	14.0	4.50e-06	0	44	0	303038464	17	4452
2026-01-21 22:36:01.22	44.80	13.32	-28.6	-30.7	13.8	3.00e-06	0	43	0	312475648	17	4592
2026-01-21 22:36:04.24	45.27	13.51	-28.4	-30.2	14.0	0.00e+00	0	44	0	322961408	17	4438
2026-01-21 22:36:07.23	45.75	13.70	-28.5	-30.4	14.0	4.50e-06	0	44	0	331350016	17	4481
2026-01-21 22:36:10.25	46.23	13.88	-28.4	-30.3	14.1	2.20e-06	0	44	0	340787200	17	4445
2026-01-21 22:36:13.25	46.72	14.07	-28.6	-30.7	13.8	4.50e-06	0	44	0	350224384	17	4567
2026-01-21 22:36:16.27	47.21	14.25	-28.6	-30.6	13.9	6.10e-06	0	44	0	359661568	17	4558
2026-01-21 22:36:19.28	47.71	14.44	-28.7	-30.9	13.7	4.50e-06	0	44	0	369098752	17	4627
2026-01-21 22:36:22.29	48.22	14.62	-28.3	-30.1	14.2	0.00e+00	0	44	0	378535936	17	4385
2026-01-21 22:36:25.28	48.73	14.81	-28.3	-29.9	14.3	7.00e-07	0	44	0	387973120	17	4331
2026-01-21 22:36:28.29	49.24	14.99	-28.4	-30.2	14.2	3.80e-06	0	44	0	397410304	17	4426
2026-01-21 22:36:31.30	49.77	15.17	-28.4	-30.3	14.1	2.20e-06	0	44	0	406847488	17	4450
2026-01-21 22:36:34.31	50.30	15.35	-28.5	-30.5	14.0	2.20e-06	0	44	0	416284672	17	4511
2026-01-21 22:36:37.33	50.84	15.54	-28.0	-29.8	14.2	5.30e-06	0	44	0	425721856	17	4397
2026-01-21 22:36:40.35	51.38	15.72	-28.5	-30.9	13.6	1.50e-06	0	44	0	435159040	16	4753
2026-01-21 22:36:43.35	51.93	15.89	-28.4	-30.2	14.2	3.80e-06	0	44	0	444596224	17	4435
2026-01-21 22:36:46.35	52.49	16.07	-28.1	-30.0	14.6	7.00e-07	0	44	0	454033408	16	4483
2026-01-21 22:36:49.36	53.05	16.25	-28.2	-30.2	14.5	0.00e+00	0	44	0	463470592	16	4544
2026-01-21 22:36:52.37	53.62	16.42	-28.3	-30.5	14.3	5.89e-04	0	44	0	472907776	16	4628
2026-01-21 22:36:55.38	54.20	16.59	-28.4	-30.6	14.3	1.50e-06	0	44	0	482344960	16	4661
2026-01-21 22:36:58.39	54.78	16.77	-28.2	-30.2	14.6	7.85e-04	0	44	0	491782144	16	4517
2026-01-21 22:37:01.40	55.37	16.94	-28.4	-30.6	14.3	0.00e+00	0	44	0	501219328	16	4651
2026-01-21 22:37:04.40	55.96	17.10	-28.4	-30.1	14.3	2.84e-04	0	44	0	510656512	17	4396
2026-01-21 22:37:07.41	56.56	17.27	-28.3	-29.8	14.5	8.29e-04	0	44	0	520093696	17	4309
2026-01-21 22:37:10.41	57.17	17.43	-28.1	-30.0	14.7	9.06e-04	0	44	0	529530880	16	4463
2026-01-21 22:37:13.41	57.78	17.60	-28.0	-29.7	14.9	5.81e-04	0	44	0	538968064	16	4375
2026-01-21 22:37:16.42	58.40	17.76	-28.0	-29.7	14.9	2.59e-04	0	44	0	548405248	16	4368
2026-01-21 22:37:19.41	59.02	17.91	-27.8	-29.8	14.9	6.49e-04	0	44	0	556793856	15	4547
2026-01-21 22:37:22.42	59.66	18.07	-27.8	-29.7	15.0	4.55e-04	0	44	0	566231040	15	4502
2026-01-21 22:37:25.42	60.30	18.22	-27.6	-29.4	15.2	1.75e-04	0	44	0	576716800	15	4407
2026-01-21 22:37:28.43	60.94	18.37	-27.6	-29.2	15.2	3.43e-05	0	44	0	585105408	15	4363
2026-01-21 22:37:31.43	61.59	18.52	-27.6	-29.4	15.2	0.00e+00	0	44	0	594542592	15	4412
2026-01-21 22:37:34.43	62.25	18.67	-27.6	-29.4	15.2	2.66e-04	0	44	0	603979776	15	4410
2026-01-21 22:37:37.43	62.91	18.81	-27.5	-29.1	15.4	0.00e+00	0	44	0	613416960	15	4316
2026-01-21 22:37:40.45	63.59	18.95	-27.5	-29.0	15.4	0.00e+00	0	44	0	622854144	15	4310
2026-01-21 22:37:43.46	64.27	19.09	-27.4	-29.3	15.5	0.00e+00	0	44	0	632291328	14	4505
2026-01-21 22:37:46.46	64.95	19.22	-27.3	-29.2	15.6	0.00e+00	0	44	0	641728512	14	4476
2026-01-21 22:37:49.46	65.63	19.35	-27.3	-29.2	15.6	0.00e+00	0	44	0	651165696	14	4460
2026-01-21 22:37:52.46	66.33	19.47	-27.3	-29.1	15.7	0.00e+00	0	44	0	660602880	14	4423
2026-01-21 22:37:55.47	67.03	19.60	-27.3	-29.1	15.6	0.00e+00	0	44	0	670040064	14	4449
2026-01-21 22:37:58.48	67.73	19.72	-27.1	-28.8	15.8	0.00e+00	0	44	0	679477248	14	4345
2026-01-21 22:38:01.50	68.45	19.83	-27.3	-29.2	15.6	0.00e+00	0	44	0	688914432	14	4481
2026-01-21 22:38:04.51	69.16	19.95	-27.4	-29.3	15.5	0.00e+00	0	44	0	698351616	14	4493
2026-01-21 22:38:07.51	69.88	20.05	-27.1	-28.7	15.9	7.00e-07	0	44	0	707788800	14	4318
2026-01-21 22:38:10.52	70.61	20.16	-27.3	-29.2	15.6	0.00e+00	0	44	0	717225984	14	4453
2026-01-21 22:38:13.53	71.34	20.26	-27.3	-29.0	15.7	0.00e+00	0	44	0	726663168	14	4422
2026-01-21 22:38:16.54	72.08	20.35	-27.4	-29.3	15.5	0.00e+00	0	44	0	736100352	14	4503
2026-01-21 22:38:19.56	72.82	20.45	-27.4	-29.4	15.5	0.00e+00	0	44	0	745537536	14	4532
2026-01-21 22:38:22.57	73.57	20.53	-27.3	-29.2	15.6	0.00e+00	0	44	0	754974720	14	4479
2026-01-21 22:38:25.57	74.31	20.61	-27.2	-29.0	15.8	0.00e+00	0	44	0	764411904	14	4399
2026-01-21 22:38:28.59	75.07	20.69	-27.4	-29.4	15.5	7.00e-07	0	44	0	773849088	14	4531
2026-01-21 22:38:31.59	75.82	20.77	-27.2	-28.9	15.8	0.00e+00	0	44	0	783286272	14	4390
2026-01-21 22:38:34.60	76.58	20.83	-27.2	-28.9	15.8	0.00e+00	0	44	0	792723456	14	4371
2026-01-21 22:38:37.61	77.34	20.90	-27.3	-29.0	15.8	0.00e+00	0	44	0	802160640	14	4418
2026-01-21 22:38:40.61	78.11	20.96	-27.2	-29.0	15.8	0.00e+00	0	44	0	810549248	14	4409
2026-01-21 22:38:43.61	78.87	21.01	-27.2	-29.0	15.8	0.00e+00	0	44	0	819986432	14	4400
2026-01-21 22:38:46.63	79.65	21.06	-27.3	-29.2	15.7	0.00e+00	0	44	0	830472192	14	4454
2026-01-21 22:38:49.65	80.43	21.10	-27.3	-29.1	15.7	0.00e+00	0	44	0	838860800	14	4430
2026-01-21 22:38:52.64	81.20	21.14	-27.3	-29.1	15.7	0.00e+00	0	44	0	848297984	14	4444
2026-01-21 22:38:55.66	81.98	21.17	-27.4	-29.5	15.5	0.00e+00	0	44	0	857735168	14	4548
2026-01-21 22:38:58.66	82.75	21.20	-27.4	-28.8	15.6	0.00e+00	0	44	0	867172352	15	4250
2026-01-21 22:39:01.67	83.53	21.22	-27.1	-28.2	15.9	0.00e+00	0	44	0	876609536	15	4093
2026-01-21 22:39:04.68	84.32	21.24	-27.1	-28.2	15.9	0.00e+00	0	44	0	886046720	15	4090
2026-01-21 22:39:07.69	85.10	21.25	-27.1	-28.2	15.9	0.00e+00	0	44	0	895483904	15	4084
2026-01-21 22:39:10.69	85.88	21.26	-27.2	-28.5	15.8	0.00e+00	0	44	0	904921088	15	4163
2026-01-21 22:39:13.70	86.66	21.26	-27.2	-28.5	15.8	0.00e+00	0	44	0	914358272	15	4161
2026-01-21 22:39:16.71	87.44	21.25	-27.4	-28.9	15.6	0.00e+00	0	44	0	923795456	15	4258
2026-01-21 22:39:19.73	88.23	21.24	-27.4	-28.8	15.6	0.00e+00	0	44	0	933232640	15	4252
2026-01-21 22:39:22.74	89.01	21.23	-27.2	-28.5	15.8	0.00e+00	0	44	0	942669824	15	4149
2026-01-21 22:39:25.74	89.79	21.21	-27.1	-28.2	15.9	0.00e+00	0	44	0	952107008	15	4090
2026-01-21 22:39:28.76	90.57	21.18	-27.2	-28.5	15.8	0.00e+00	0	44	0	961544192	15	4164
2026-01-21 22:39:31.76	91.35	21.15	-27.1	-28.3	15.9	0.00e+00	0	44	0	970981376	15	4099
2026-01-21 22:39:34.76	92.13	21.12	-27.4	-28.9	15.6	0.00e+00	0	44	0	980418560	15	4262
2026-01-21 22:39:37.78	92.90	21.08	-27.5	-29.1	15.5	0.00e+00	0	44	0	989855744	15	4317
2026-01-21 22:39:40.79	93.68	21.03	-27.5	-29.2	15.4	0.00e+00	0	44	0	999292928	15	4343
2026-01-21 22:39:43.80	94.45	20.98	-27.2	-28.4	15.8	0.00e+00	0	44	0	1008730112	15	4139
2026-01-21 22:39:46.81	95.22	20.92	-27.2	-28.4	15.8	0.00e+00	0	44	0	1018167296	15	4137
2026-01-21 22:39:49.81	95.98	20.86	-27.1	-28.3	15.9	0.00e+00	0	44	0	1027604480	15	4101
2026-01-21 22:39:52.82	96.74	20.79	-27.0	-28.0	16.0	0.00e+00	0	44	0	1037041664	15	4035
2026-01-21 22:39:55.84	97.51	20.72	-27.0	-28.1	16.0	0.00e+00	0	44	0	1046478848	15	4058
2026-01-21 22:39:58.85	98.26	20.65	-27.0	-28.0	16.0	0.00e+00	0	44	0	1055916032	15	4027
2026-01-21 22:40:01.87	99.02	20.56	-27.4	-28.8	15.6	0.00e+00	0	44	0	1065353216	15	4235
2026-01-21 22:40:04.87	99.76	20.48	-27.5	-29.0	15.5	0.00e+00	0	44	0	1074790400	15	4308
2026-01-21 22:40:07.86	100.50	20.39	-27.1	-28.3	15.8	0.00e+00	0	44	0	1084227584	15	4103
2026-01-21 22:40:10.88	101.25	20.30	-27.1	-28.3	15.8	0.00e+00	0	44	0	1093664768	15	4102
2026-01-21 22:40:13.89	101.98	20.20	-27.1	-28.2	15.9	0.00e+00	0	44	0	1103101952	15	4085
2026-01-21 22:40:16.91	102.71	20.09	-27.1	-28.1	15.9	0.00e+00	0	44	0	1111490560	15	4061
2026-01-21 22:40:19.90	103.44	19.99	-27.0	-28.0	16.0	0.00e+00	0	44	0	1120927744	15	4026
2026-01-21 22:40:22.91	104.16	19.88	-27.1	-28.7	15.9	0.00e+00	0	44	0	1130364928	14	4327
2026-01-21 22:40:25.91	104.87	19.76	-27.1	-28.8	15.8	0.00e+00	0	44	0	1139802112	14	4354
2026-01-21 22:40:28.93	105.58	19.64	-27.3	-29.1	15.6	0.00e+00	0	44	0	1149239296	14	4443
2026-01-21 22:40:31.94	106.29	19.52	-27.3	-28.7	15.5	0.00e+00	0	44	0	1158676480	15	4232
2026-01-21 22:40:34.94	106.99	19.39	-27.3	-28.6	15.6	2.74e-05	0	44	0	1168113664	15	4191
2026-01-21 22:40:37.94	107.68	19.27	-27.2	-28.4	15.7	7.00e-07	0	44	0	1177550848	15	4137
2026-01-21 22:40:40.94	108.36	19.13	-27.2	-28.5	15.6	1.20e-04	0	44	0	1186988032	15	4183
2026-01-21 22:40:43.95	109.05	19.00	-27.3	-28.6	15.6	0.00e+00	0	44	0	1196425216	15	4193
2026-01-21 22:40:46.97	109.73	18.86	-27.5	-29.1	15.3	1.33e-04	0	44	0	1205862400	15	4322
2026-01-21 22:40:49.98	110.40	18.71	-27.5	-29.1	15.3	2.55e-04	0	44	0	1215299584	15	4338
2026-01-21 22:40:52.97	111.06	18.57	-27.4	-28.9	15.4	2.73e-04	0	44	0	1224736768	15	4268
2026-01-21 22:40:55.97	111.71	18.42	-27.4	-28.9	15.4	9.38e-05	0	44	0	1234173952	15	4274
2026-01-21 22:40:58.98	112.36	18.27	-27.1	-28.1	15.8	9.10e-06	0	44	0	1243611136	15	4062
2026-01-21 22:41:01.99	113.01	18.12	-27.5	-29.2	15.2	0.00e+00	0	44	0	1253048320	15	4363
2026-01-21 22:41:05.00	113.65	17.96	-27.6	-29.4	15.0	6.10e-06	0	44	0	1262485504	15	4433
2026-01-21 22:41:08.00	114.28	17.80	-27.6	-29.5	15.0	9.10e-06	0	44	0	1271922688	15	4455
2026-01-21 22:41:11.00	114.91	17.64	-27.7	-29.5	15.0	0.00e+00	0	44	0	1281359872	15	4461
2026-01-21 22:41:14.01	115.53	17.48	-27.6	-29.5	15.0	6.10e-06	0	44	0	1290797056	15	4440
2026-01-21 22:41:17.01	116.14	17.32	-27.7	-29.7	14.9	6.10e-06	0	44	0	1300234240	15	4517
2026-01-21 22:41:20.02	116.74	17.15	-28.2	-30.3	14.4	6.80e-06	0	44	0	1309671424	16	4569
2026-01-21 22:41:23.03	117.34	16.98	-28.3	-30.5	14.3	9.10e-06	0	44	0	1319108608	16	4624
2026-01-21 22:41:26.04	117.94	16.81	-28.1	-30.1	14.5	0.00e+00	0	44	0	1328545792	16	4503
2026-01-21 22:41:29.04	118.52	16.64	-27.9	-29.6	14.7	3.00e-06	0	44	0	1336934400	16	4375
2026-01-21 22:41:32.06	119.11	16.46	-28.0	-29.9	14.6	0.00e+00	0	44	0	1346371584	16	4449
2026-01-21 22:41:35.07	119.68	16.29	-28.1	-30.1	14.5	0.00e+00	0	44	0	1356857344	16	4511
2026-01-21 22:41:38.08	120.25	16.11	-28.2	-30.3	14.3	1.50e-06	0	44	0	1365245952	16	4563
2026-01-21 22:41:41.08	120.81	15.93	-28.2	-30.2	14.4	0.00e+00	0	44	0	1374683136	16	4543
2026-01-21 22:41:44.09	121.36	15.75	-28.2	-30.3	14.3	0.00e+00	0	44	0	1384120320	16	4575
2026-01-21 22:41:47.10	121.91	15.57	-28.0	-29.8	14.6	2.20e-06	0	44	0	1393557504	16	4423
2026-01-21 22:41:50.11	122.45	15.39	-27.9	-29.5	14.8	7.00e-07	0	44	0	1402994688	16	4341
2026-01-21 22:41:53.13	122.99	15.21	-27.9	-29.6	14.7	7.00e-07	0	44	0	1412431872	16	4383
2026-01-21 22:41:56.13	123.52	15.02	-28.2	-30.2	14.3	1.50e-06	0	44	0	1421869056	16	4540
2026-01-21 22:41:59.14	124.04	14.84	-28.1	-29.9	14.4	0.00e+00	0	44	0	1431306240	16	4476
2026-01-21 22:42:02.14	124.56	14.65	-28.2	-30.4	14.2	7.00e-07	0	44	0	1440743424	16	4607
2026-01-21 22:42:05.15	125.07	14.47	-27.9	-29.6	14.7	1.50e-06	0	44	0	1450180608	16	4369
2026-01-21 22:42:08.16	125.57	14.28	-27.9	-29.5	14.7	7.00e-07	0	44	0	1459617792	16	4336
2026-01-21 22:42:11.18	126.07	14.09	-28.2	-30.2	14.2	7.00e-07	0	44	0	1469054976	16	4568
2026-01-21 22:42:14.20	126.57	13.90	-28.0	-29.8	14.5	7.00e-07	0	44	0	1478492160	16	4418
2026-01-21 22:42:17.20	127.05	13.72	-28.2	-30.4	14.1	2.20e-06	0	44	0	1487929344	16	4602
2026-01-21 22:42:20.20	127.53	13.53	-28.2	-30.3	14.2	3.00e-06	0	44	0	1497366528	16	4575
2026-01-21 22:42:23.22	128.01	13.34	-28.3	-30.6	13.9	1.50e-06	0	44	0	1506803712	16	4695
2026-01-21 22:42:26.23	128.48	13.15	-28.3	-30.6	13.9	3.00e-06	0	44	0	1516240896	16	4696
2026-01-21 22:42:29.24	128.94	12.96	-28.7	-30.9	13.4	1.22e-05	0	44	0	1525678080	17	4680
2026-01-21 22:42:32.24	129.39	12.77	-28.5	-30.5	13.6	9.10e-06	0	44	0	1535115264	17	4553
2026-01-21 22:42:35.25	129.85	12.58	-28.5	-30.6	13.6	3.80e-06	0	44	0	1544552448	17	4586
2026-01-21 22:42:38.25	130.29	12.39	-28.4	-30.3	13.7	3.80e-06	0	44	0	1553989632	17	4502
2026-01-21 22:42:41.26	130.73	12.20	-28.3	-30.1	13.9	1.70e-04	0	44	0	1563426816	17	4422
2026-01-21 22:42:44.26	131.16	12.01	-28.4	-30.4	13.6	4.94e-04	0	44	0	1572864000	17	4513
2026-01-21 22:42:47.28	131.60	11.82	-28.5	-30.6	13.5	5.12e-04	0	44	0	1582301184	17	4604
2026-01-21 22:42:50.28	132.02	11.63	-28.6	-30.8	13.4	4.31e-04	0	44	0	1591738368	17	4652
2026-01-21 22:42:53.29	132.44	11.44	-28.6	-30.9	13.3	6.76e-04	0	44	0	1601175552	17	4700
2026-01-21 22:42:56.30	132.85	11.25	-28.7	-31.2	13.1	8.07e-04	0	44	0	1610612736	17	4767
2026-01-21 22:42:59.31	133.26	11.06	-28.6	-30.9	13.2	1.98e-05	0	44	0	1620049920	17	4703
2026-01-21 22:43:02.33	133.66	10.87	-28.6	-31.0	13.1	5.31e-04	0	44	0	1629487104	17	4746
2026-01-21 22:43:05.33	134.06	10.68	-28.7	-31.3	12.9	4.65e-05	0	44	0	1637875712	17	4834
2026-01-21 22:43:08.33	134.45	10.50	-28.8	-31.4	12.8	7.17e-05	0	44	0	1647312896	17	4872
2026-01-21 22:43:11.34	134.84	10.31	-28.8	-31.5	12.8	5.72e-05	0	44	0	1656750080	17	4872
2026-01-21 22:43:14.36	135.23	10.12	-28.9	-31.6	12.7	9.38e-05	0	44	0	1666187264	17	4935
2026-01-21 22:43:17.37	135.61	9.93	-28.9	-31.8	12.5	1.11e-04	0	44	0	1675624448	17	5001
2026-01-21 22:43:20.38	135.98	9.74	-29.0	-31.3	12.5	1.25e-04	0	44	0	1685061632	18	4724
2026-01-21 22:43:23.39	136.35	9.55	-28.9	-31.3	12.5	1.24e-04	0	44	0	1694498816	18	4718
2026-01-21 22:43:26.38	136.71	9.37	-29.0	-31.4	12.4	1.48e-04	0	45	0	1703936000	18	4777
2026-01-21 22:43:29.38	137.07	9.18	-28.9	-31.3	12.4	1.08e-04	0	44	0	1713373184	18	4754
2026-01-21 22:43:32.40	137.43	9.00	-28.8	-30.9	12.6	8.54e-05	0	44	0	1722810368	18	4619
2026-01-21 22:43:35.41	137.78	8.81	-29.1	-31.7	12.1	2.91e-04	0	44	0	1732247552	18	4862
2026-01-21 22:43:38.42	138.13	8.63	-29.3	-32.3	11.7	5.19e-04	0	44	0	1741684736	18	5065
2026-01-21 22:43:41.43	138.48	8.44	-29.3	-32.4	11.6	6.10e-04	0	44	0	1751121920	18	5128
2026-01-21 22:43:44.45	138.82	8.26	-29.8	-33.2	10.7	3.26e-03	0	44	0	1760559104	19	5353
2026-01-21 22:43:47.45	139.15	8.07	-29.1	-31.4	11.9	4.78e-04	0	44	0	1769996288	19	4672
2026-01-21 22:43:50.46	139.48	7.89	-29.2	-32.0	11.8	3.86e-04	0	44	0	1779433472	18	4985
2026-01-21 22:43:53.47	139.81	7.71	-29.4	-32.5	11.4	1.09e-03	0	44	0	1788870656	18	5163
2026-01-21 22:43:56.48	140.13	7.52	-28.9	-31.5	11.9	3.73e-04	0	44	0	1798307840	18	4867
2026-01-21 22:43:59.48	140.45	7.34	-28.8	-31.5	11.8	4.08e-04	0	44	0	1807745024	18	4912
2026-01-21 22:44:02.50	140.77	7.16	-28.9	-32.3	11.5	8.06e-04	0	44	0	1817182208	17	5316

#Closed at: 2026-01-21 22:44:05
#Recorded file [1822 MB]: D:/data/31010_260122_013420.dat