passes_logs/2026/01/21/R2M6_AANII_01/R2M6_AANII_01__20260121_105536_SUOMI_NPP_rec.log

#Pass ID: 20260121_105536_SUOMI NPP
#Satellite: SUOMI NPP
#Configuration: NPP
#almurnet v.1.7.20240730
#Start time: 2026-01-21 10:55:35

#Version: 2.2.20231116
#Station: R2M6_AANII_01
#Location: 30.233357 lon 59.946436 lat
#TLE: 1 37849U 11061A   26020.31993517  .00000142  00000+0  88240-4 0  9990
#TLE: 2 37849  98.7818 322.3228 0002330  54.3778 305.7615 14.19527005737466

#Time	Az	El	Level	Level2	SNR	BER	BlckErr	Temp	State	Recorded	gain1	gain2
2026-01-21 10:55:35.68	176.77	6.95	-30.7	-33.4	5.4	1.22e+00	0	40	0	0	22	4884
2026-01-21 10:55:38.68	176.87	7.18	-31.4	-35.3	8.4	5.17e-02	0	41	0	1048576	23	5645
2026-01-21 10:55:41.69	176.98	7.41	-31.1	-34.0	9.4	2.36e-02	0	41	0	7340032	23	5046
2026-01-21 10:55:44.70	177.09	7.64	-30.6	-32.8	10.8	3.16e-03	0	41	0	12582912	22	4636
2026-01-21 10:55:47.70	177.20	7.87	-30.5	-32.5	11.1	1.43e-03	0	41	0	17825792	22	4516
2026-01-21 10:55:50.71	177.31	8.11	-30.6	-32.7	11.1	2.24e-03	0	41	0	24117248	22	4576
2026-01-21 10:55:53.73	177.42	8.35	-30.8	-33.5	10.5	2.73e-03	0	41	0	29360128	22	4866
2026-01-21 10:55:56.74	177.53	8.59	-30.9	-33.8	10.4	4.12e-03	0	41	0	35651584	22	4984
2026-01-21 10:55:59.75	177.65	8.84	-30.8	-33.1	10.8	2.69e-03	0	41	0	40894464	22	4720
2026-01-21 10:56:02.75	177.77	9.08	-30.6	-32.6	11.2	1.94e-03	0	41	0	46137344	22	4544
2026-01-21 10:56:05.75	177.88	9.33	-30.1	-31.7	12.2	2.43e-04	0	41	0	52428800	21	4324
2026-01-21 10:56:08.76	178.01	9.58	-30.3	-32.1	12.0	2.43e-04	0	41	0	57671680	21	4439
2026-01-21 10:56:11.77	178.13	9.83	-30.5	-32.6	11.6	4.03e-04	0	42	0	62914560	21	4629
2026-01-21 10:56:14.78	178.25	10.09	-30.5	-32.6	11.7	5.02e-04	0	42	0	69206016	21	4616
2026-01-21 10:56:17.79	178.38	10.35	-30.3	-32.2	12.0	3.56e-04	0	42	0	74448896	21	4457
2026-01-21 10:56:20.80	178.51	10.61	-30.5	-32.7	11.6	5.29e-04	0	42	0	80740352	21	4644
2026-01-21 10:56:23.81	178.64	10.87	-30.6	-32.8	11.5	6.21e-04	0	42	0	85983232	21	4685
2026-01-21 10:56:26.81	178.77	11.14	-30.4	-32.4	11.8	6.23e-04	0	42	0	91226112	21	4542
2026-01-21 10:56:29.81	178.91	11.40	-30.0	-31.2	12.8	7.70e-05	0	42	0	97517568	21	4118
2026-01-21 10:56:32.82	179.05	11.68	-30.0	-31.2	12.7	6.56e-05	0	42	0	102760448	21	4144
2026-01-21 10:56:35.81	179.19	11.95	-29.9	-30.8	13.0	4.65e-05	0	42	0	108003328	21	4016
2026-01-21 10:56:38.82	179.33	12.23	-29.9	-30.9	13.0	2.51e-05	0	42	0	114294784	21	4043
2026-01-21 10:56:41.81	179.48	12.51	-29.8	-31.0	13.3	2.59e-05	0	42	0	119537664	20	4151
2026-01-21 10:56:44.83	179.62	12.79	-29.8	-31.2	13.2	3.05e-05	0	42	0	125829120	20	4205
2026-01-21 10:56:47.85	179.78	13.08	-29.9	-31.2	13.2	1.98e-05	0	42	0	131072000	20	4215
2026-01-21 10:56:50.85	179.93	13.37	-30.0	-31.6	12.9	3.20e-05	0	43	0	136314880	20	4341
2026-01-21 10:56:53.85	180.09	13.66	-30.0	-31.5	13.1	4.04e-05	0	43	0	142606336	20	4298
2026-01-21 10:56:56.85	180.24	13.96	-30.0	-31.7	12.9	3.73e-05	0	42	0	147849216	20	4365
2026-01-21 10:56:59.88	180.41	14.26	-30.0	-31.5	13.1	4.11e-05	0	42	0	153092096	20	4291
2026-01-21 10:57:02.89	180.57	14.57	-29.9	-31.3	13.3	6.33e-05	0	43	0	159383552	20	4223
2026-01-21 10:57:05.91	180.74	14.87	-29.8	-30.9	13.5	9.90e-06	0	42	0	164626432	20	4100
2026-01-21 10:57:08.92	180.92	15.19	-29.6	-30.5	13.7	8.30e-06	0	42	0	170917888	20	3988
2026-01-21 10:57:11.93	181.09	15.50	-29.7	-30.7	13.7	7.60e-06	0	43	0	176160768	20	4030
2026-01-21 10:57:14.94	181.27	15.82	-29.8	-31.0	13.5	9.90e-06	0	42	0	181403648	20	4139
2026-01-21 10:57:17.95	181.45	16.14	-29.9	-31.2	13.4	9.10e-06	0	43	0	187695104	20	4190
2026-01-21 10:57:20.97	181.64	16.47	-29.8	-31.1	13.5	1.67e-05	0	43	0	192937984	20	4146
2026-01-21 10:57:23.98	181.83	16.80	-29.7	-30.8	13.6	3.80e-06	0	42	0	199229440	20	4083
2026-01-21 10:57:26.98	182.03	17.14	-29.7	-30.7	13.7	3.00e-06	0	42	0	204472320	20	4035
2026-01-21 10:57:29.99	182.23	17.48	-29.7	-30.7	13.8	5.30e-06	0	43	0	209715200	20	4040
2026-01-21 10:57:33.00	182.43	17.82	-29.9	-31.4	13.3	6.80e-06	0	43	0	216006656	20	4252
2026-01-21 10:57:36.00	182.64	18.17	-30.0	-31.7	13.2	6.80e-06	0	43	0	221249536	20	4343
2026-01-21 10:57:39.01	182.85	18.53	-30.0	-31.6	13.2	1.60e-05	0	43	0	226492416	20	4339
2026-01-21 10:57:42.01	183.06	18.88	-30.0	-31.6	13.2	1.22e-05	0	43	0	232783872	20	4330
2026-01-21 10:57:45.02	183.29	19.25	-30.0	-31.7	13.2	2.36e-05	0	43	0	238026752	20	4341
2026-01-21 10:57:48.03	183.51	19.62	-30.2	-32.1	12.9	2.89e-05	0	43	0	244318208	20	4502
2026-01-21 10:57:51.04	183.75	19.99	-30.3	-32.3	12.8	5.95e-05	0	43	0	249561088	20	4575
2026-01-21 10:57:54.05	183.98	20.37	-30.4	-32.7	12.6	8.77e-05	0	43	0	254803968	20	4673
2026-01-21 10:57:57.05	184.23	20.75	-30.4	-32.8	12.5	8.92e-05	0	43	0	261095424	20	4725
2026-01-21 10:58:00.06	184.48	21.14	-30.0	-31.6	13.4	1.44e-05	0	43	0	266338304	20	4304
2026-01-21 10:58:03.08	184.73	21.54	-29.8	-30.9	13.7	6.80e-06	0	43	0	271581184	20	4108
2026-01-21 10:58:06.09	184.99	21.94	-29.5	-30.1	14.3	3.00e-06	0	43	0	277872640	20	3874
2026-01-21 10:58:09.09	185.26	22.35	-29.4	-29.9	14.4	0.00e+00	0	43	0	283115520	20	3815
2026-01-21 10:58:12.09	185.54	22.76	-29.2	-29.9	14.9	7.00e-07	0	43	0	289406976	19	3888
2026-01-21 10:58:15.10	185.82	23.18	-29.0	-29.4	15.2	0.00e+00	0	43	0	294649856	19	3756
2026-01-21 10:58:18.11	186.11	23.60	-29.0	-29.2	15.4	0.00e+00	0	43	0	299892736	19	3690
2026-01-21 10:58:21.12	186.41	24.04	-29.0	-29.2	15.3	0.00e+00	0	43	0	306184192	19	3692
2026-01-21 10:58:24.12	186.71	24.47	-29.2	-29.6	15.1	0.00e+00	0	43	0	311427072	19	3797
2026-01-21 10:58:27.12	187.03	24.92	-29.2	-29.8	15.1	0.00e+00	0	43	0	317718528	19	3841
2026-01-21 10:58:30.13	187.35	25.37	-29.3	-29.9	15.0	7.00e-07	0	43	0	322961408	19	3869
2026-01-21 10:58:33.14	187.68	25.83	-29.1	-29.5	15.2	0.00e+00	0	43	0	328204288	19	3772
2026-01-21 10:58:36.15	188.02	26.29	-29.0	-29.2	15.4	0.00e+00	0	43	0	334495744	19	3681
2026-01-21 10:58:39.16	188.37	26.76	-28.9	-28.9	15.6	0.00e+00	0	43	0	339738624	19	3595
2026-01-21 10:58:42.18	188.74	27.24	-29.0	-29.6	15.6	0.00e+00	0	43	0	346030080	18	3864
2026-01-21 10:58:45.20	189.11	27.73	-28.9	-29.5	15.6	0.00e+00	0	43	0	351272960	18	3830
2026-01-21 10:58:48.20	189.49	28.23	-29.4	-30.1	14.9	0.00e+00	0	43	0	356515840	19	3914
2026-01-21 10:58:51.21	189.89	28.73	-29.3	-29.8	15.2	0.00e+00	0	43	0	362807296	19	3827
2026-01-21 10:58:54.21	190.29	29.24	-29.6	-30.8	14.6	0.00e+00	0	43	0	368050176	19	4092
2026-01-21 10:58:57.22	190.71	29.75	-30.0	-31.1	14.0	2.20e-06	0	43	0	373293056	20	4099
2026-01-21 10:59:00.23	191.15	30.28	-30.5	-32.0	13.1	2.13e-05	0	43	0	379584512	21	4305
2026-01-21 10:59:03.24	191.59	30.81	-30.9	-33.3	12.3	1.36e-04	0	43	0	384827392	21	4710
2026-01-21 10:59:06.24	192.06	31.35	-31.2	-33.5	12.0	4.01e-04	0	43	0	391118848	22	4698
2026-01-21 10:59:09.24	192.53	31.90	-31.4	-34.2	11.3	1.05e-03	0	43	0	396361728	22	4975
2026-01-21 10:59:12.24	193.02	32.46	-31.3	-33.4	11.5	4.35e-04	0	43	0	401604608	23	4573
2026-01-21 10:59:15.24	193.53	33.02	-31.1	-32.8	12.0	3.10e-04	0	43	0	407896064	23	4348
2026-01-21 10:59:18.25	194.06	33.59	-31.0	-32.8	12.4	1.33e-04	0	43	0	413138944	22	4443
2026-01-21 10:59:21.26	194.61	34.18	-31.1	-33.1	12.1	2.70e-04	0	43	0	418381824	22	4564
2026-01-21 10:59:24.27	195.18	34.77	-31.3	-33.9	11.7	3.91e-04	0	43	0	424673280	22	4821
2026-01-21 10:59:27.27	195.76	35.36	-31.2	-33.0	11.9	5.81e-04	0	43	0	429916160	23	4439
2026-01-21 10:59:30.28	196.37	35.97	-31.2	-33.0	11.9	3.69e-04	0	43	0	435159040	23	4431
2026-01-21 10:59:33.28	197.00	36.58	-30.7	-32.0	13.0	3.81e-05	0	43	0	441450496	22	4183
2026-01-21 10:59:36.29	197.65	37.20	-30.6	-31.7	13.1	3.35e-05	0	43	0	446693376	22	4090
2026-01-21 10:59:39.29	198.33	37.83	-30.8	-32.2	12.9	8.62e-05	0	43	0	452984832	22	4249
2026-01-21 10:59:42.30	199.04	38.47	-30.7	-32.0	13.1	6.17e-05	0	43	0	458227712	22	4171
2026-01-21 10:59:45.32	199.78	39.12	-31.0	-32.8	12.5	8.16e-05	0	43	0	463470592	22	4431
2026-01-21 10:59:48.33	200.54	39.77	-30.9	-32.5	12.7	1.04e-04	0	43	0	469762048	22	4326
2026-01-21 10:59:51.34	201.33	40.43	-30.4	-31.6	13.6	6.80e-06	0	43	0	475004928	21	4135
2026-01-21 10:59:54.34	202.16	41.09	-30.4	-31.6	13.6	2.59e-05	0	43	0	481296384	21	4121
2026-01-21 10:59:57.34	203.02	41.75	-29.9	-30.4	14.3	7.00e-07	0	43	0	486539264	21	3814
2026-01-21 11:00:00.36	203.92	42.43	-30.8	-32.8	12.8	3.73e-05	0	43	0	491782144	21	4540
2026-01-21 11:00:03.36	204.85	43.11	-30.5	-32.0	13.3	3.20e-05	0	43	0	498073600	21	4273
2026-01-21 11:00:06.37	205.82	43.79	-30.8	-32.7	13.0	1.75e-05	0	43	0	503316480	21	4471
2026-01-21 11:00:09.38	206.84	44.47	-31.1	-33.0	12.5	1.40e-04	0	43	0	508559360	22	4479
2026-01-21 11:00:12.39	207.90	45.16	-30.9	-32.4	12.8	6.94e-05	0	43	0	514850816	22	4290
2026-01-21 11:00:15.40	209.01	45.85	-31.5	-33.9	11.4	6.97e-04	0	43	0	520093696	23	4735
2026-01-21 11:00:18.40	210.16	46.53	-31.0	-32.3	12.4	1.78e-04	0	43	0	526385152	23	4184
2026-01-21 11:00:21.41	211.37	47.22	-31.7	-34.4	11.2	1.33e-03	0	43	0	531628032	23	4915
2026-01-21 11:00:24.42	212.63	47.90	-32.5	-36.5	8.9	2.21e-02	0	43	0	536870912	25	5656
2026-01-21 11:00:27.44	213.95	48.58	-32.3	-35.7	9.4	1.83e-02	0	43	0	543162368	25	5301
2026-01-21 11:00:30.44	215.32	49.25	-31.9	-34.4	10.8	1.57e-03	0	43	0	548405248	24	4818
2026-01-21 11:00:33.46	216.76	49.91	-32.2	-35.6	9.9	7.60e-03	0	43	0	553648128	24	5312
2026-01-21 11:00:36.46	218.25	50.57	-31.4	-33.4	11.9	2.16e-04	0	43	0	559939584	23	4519
2026-01-21 11:00:39.48	219.82	51.21	-31.1	-32.5	12.5	1.18e-04	0	43	0	565182464	23	4247
2026-01-21 11:00:42.49	221.45	51.84	-31.0	-32.1	12.8	3.89e-05	0	43	0	571473920	23	4101
2026-01-21 11:00:45.49	223.14	52.44	-30.8	-32.2	13.1	2.59e-05	0	43	0	576716800	22	4237
2026-01-21 11:00:48.50	224.91	53.04	-29.8	-30.5	14.7	7.00e-07	0	43	0	581959680	20	3914
2026-01-21 11:00:51.51	226.75	53.61	-29.4	-29.6	15.2	0.00e+00	0	43	0	588251136	20	3667
2026-01-21 11:00:54.52	228.66	54.15	-30.1	-31.3	14.3	0.00e+00	0	43	0	593494016	20	4124
2026-01-21 11:00:57.52	230.63	54.67	-29.4	-30.0	15.4	0.00e+00	0	43	0	598736896	19	3858
2026-01-21 11:01:00.52	232.68	55.15	-29.5	-29.7	15.2	2.20e-06	0	43	0	605028352	20	3688
2026-01-21 11:01:03.53	234.80	55.61	-29.5	-30.3	15.3	0.00e+00	0	43	0	610271232	19	3933
2026-01-21 11:01:06.54	236.99	56.03	-29.0	-29.5	16.0	0.00e+00	0	43	0	616562688	18	3820
2026-01-21 11:01:09.55	239.24	56.41	-29.8	-30.4	14.8	0.00e+00	0	43	0	621805568	20	3878
2026-01-21 11:01:12.57	241.55	56.75	-29.7	-30.7	15.1	0.00e+00	0	43	0	627048448	19	4033
2026-01-21 11:01:15.58	243.91	57.05	-30.2	-31.6	14.2	0.00e+00	0	43	0	633339904	20	4217
2026-01-21 11:01:18.59	246.32	57.30	-30.6	-31.5	13.6	2.36e-05	0	43	0	638582784	22	3998
2026-01-21 11:01:21.60	248.77	57.50	-31.3	-33.6	12.2	6.48e-05	0	43	0	644874240	22	4683
2026-01-21 11:01:24.61	251.26	57.66	-31.9	-34.8	11.1	7.93e-04	0	43	0	650117120	23	5047
2026-01-21 11:01:27.62	253.76	57.76	-31.9	-34.4	11.0	1.13e-03	0	43	0	655360000	24	4773
2026-01-21 11:01:30.63	256.28	57.81	-31.8	-33.9	11.4	3.20e-03	0	43	0	661651456	24	4586
2026-01-21 11:01:33.64	258.81	57.82	-30.5	-31.3	13.7	1.60e-05	0	43	0	666894336	22	3938
2026-01-21 11:01:36.64	261.32	57.77	-30.5	-31.1	14.0	1.98e-05	0	43	0	672137216	22	3887
2026-01-21 11:01:39.64	263.82	57.66	-29.4	-29.6	15.3	0.00e+00	0	43	0	678428672	20	3655
2026-01-21 11:01:42.64	266.29	57.51	-29.6	-30.4	15.3	0.00e+00	0	43	0	683671552	19	3955
2026-01-21 11:01:45.66	268.75	57.31	-29.4	-30.0	15.7	0.00e+00	0	43	0	689963008	19	3838
2026-01-21 11:01:48.67	271.16	57.07	-30.0	-31.0	14.6	0.00e+00	0	43	0	695205888	20	4045
2026-01-21 11:01:51.68	273.52	56.77	-29.3	-29.3	15.5	0.00e+00	0	43	0	700448768	20	3587
2026-01-21 11:01:54.69	275.83	56.44	-30.6	-32.2	13.4	7.60e-06	0	43	0	706740224	21	4318
2026-01-21 11:01:57.70	278.08	56.06	-30.5	-31.3	13.7	1.14e-05	0	43	0	711983104	22	3958
2026-01-21 11:02:00.70	280.26	55.64	-29.0	-29.1	16.0	0.00e+00	0	43	0	717225984	19	3623
2026-01-21 11:02:03.71	282.39	55.19	-29.9	-30.9	14.6	0.00e+00	0	43	0	723517440	20	4008
2026-01-21 11:02:06.73	284.45	54.71	-29.5	-29.7	15.3	0.00e+00	0	43	0	728760320	20	3684
2026-01-21 11:02:09.72	286.42	54.19	-30.6	-32.0	13.6	6.80e-06	0	43	0	735051776	21	4260
2026-01-21 11:02:12.73	288.33	53.65	-29.9	-30.3	14.7	0.00e+00	0	43	0	740294656	21	3749
2026-01-21 11:02:15.75	290.17	53.09	-29.4	-29.6	15.4	0.00e+00	0	43	0	745537536	20	3659
2026-01-21 11:02:18.75	291.94	52.50	-30.3	-31.9	14.1	1.50e-06	0	43	0	751828992	20	4286
2026-01-21 11:02:21.76	293.64	51.89	-32.5	-36.4	9.6	4.73e-03	0	43	0	757071872	24	5666
2026-01-21 11:02:24.76	295.26	51.27	-30.9	-32.4	13.1	3.50e-05	0	43	0	762314752	22	4268
2026-01-21 11:02:27.76	296.82	50.64	-31.8	-33.9	11.3	1.88e-03	0	43	0	768606208	24	4587
2026-01-21 11:02:30.76	298.32	49.99	-32.6	-36.3	9.2	1.99e-02	0	43	0	773849088	25	5507
2026-01-21 11:02:33.78	299.76	49.33	-31.0	-32.1	12.9	1.52e-04	0	43	0	780140544	23	4080
2026-01-21 11:02:36.78	301.13	48.66	-31.3	-33.1	12.1	1.79e-04	0	43	0	785383424	23	4410
2026-01-21 11:02:39.78	302.45	47.99	-32.0	-34.5	10.7	3.89e-03	0	43	0	790626304	24	4852
2026-01-21 11:02:42.79	303.71	47.31	-30.1	-30.8	14.3	2.20e-06	0	43	0	796917760	21	3901
2026-01-21 11:02:45.80	304.92	46.63	-31.2	-32.6	12.5	1.57e-04	0	43	0	802160640	23	4255
2026-01-21 11:02:48.80	306.07	45.95	-31.6	-33.8	11.7	2.07e-04	0	43	0	807403520	23	4653
2026-01-21 11:02:51.82	307.18	45.26	-32.0	-34.3	10.6	5.65e-03	0	43	0	813694976	25	4679
2026-01-21 11:02:54.82	308.24	44.58	-32.3	-35.2	9.9	6.17e-03	0	43	0	818937856	25	5042
2026-01-21 11:02:57.82	309.26	43.90	-33.0	-37.7	7.5	9.20e-02	0	43	0	825229312	26	6158
2026-01-21 11:03:00.83	310.24	43.22	-33.4	-39.5	6.5	2.24e-01	0	44	0	830472192	26	7299
2026-01-21 11:03:03.84	311.17	42.54	-33.5	-39.6	6.1	3.66e-01	0	43	0	835715072	27	7294
2026-01-21 11:03:06.85	312.07	41.87	-33.4	-38.8	6.4	3.51e-01	0	43	0	842006528	27	6755
2026-01-21 11:03:09.86	312.94	41.21	-32.9	-36.5	8.1	1.14e-01	0	43	0	847249408	27	5454
2026-01-21 11:03:12.86	313.76	40.55	-32.3	-35.3	9.8	8.33e-03	0	43	0	852492288	25	5101
2026-01-21 11:03:15.85	314.56	39.90	-32.3	-35.3	9.8	1.44e-02	0	43	0	858783744	25	5101
2026-01-21 11:03:18.86	315.32	39.25	-32.1	-34.5	10.3	1.61e-02	0	43	0	864026624	25	4796
2026-01-21 11:03:21.87	316.06	38.61	-31.1	-32.4	12.5	1.07e-04	0	44	0	870318080	23	4209
2026-01-21 11:03:24.88	316.77	37.97	-32.7	-37.1	8.3	6.14e-02	0	43	0	875560960	25	5954
2026-01-21 11:03:27.88	317.45	37.35	-30.9	-32.1	12.8	7.70e-05	0	43	0	880803840	23	4112
2026-01-21 11:03:30.89	318.10	36.73	-31.1	-32.6	12.3	8.23e-05	0	43	0	887095296	23	4287
2026-01-21 11:03:33.90	318.74	36.11	-32.0	-35.2	10.1	9.29e-03	0	44	0	892338176	24	5169
2026-01-21 11:03:36.91	319.35	35.51	-30.9	-32.1	12.7	1.28e-04	0	43	0	897581056	23	4132
2026-01-21 11:03:39.92	319.94	34.91	-30.6	-31.6	13.3	1.52e-05	0	44	0	903872512	22	4058
2026-01-21 11:03:42.94	320.51	34.32	-32.1	-35.5	9.9	4.36e-03	0	43	0	909115392	24	5316
2026-01-21 11:03:45.94	321.05	33.75	-32.7	-36.9	8.4	4.95e-02	0	44	0	915406848	25	5884
2026-01-21 11:03:48.95	321.58	33.17	-30.7	-32.0	13.1	8.54e-05	0	43	0	920649728	22	4163
2026-01-21 11:03:51.96	322.10	32.61	-30.2	-31.2	13.9	2.20e-06	0	44	0	925892608	21	4041
2026-01-21 11:03:54.96	322.59	32.06	-31.8	-34.8	10.6	1.12e-03	0	43	0	932184064	23	5136
2026-01-21 11:03:57.98	323.07	31.51	-31.9	-34.7	10.5	7.31e-03	0	43	0	937426944	24	4956
2026-01-21 11:04:01.00	323.54	30.97	-31.7	-34.0	10.9	2.51e-03	0	43	0	943718400	24	4694
2026-01-21 11:04:04.01	323.99	30.43	-31.6	-33.6	11.2	1.04e-03	0	43	0	948961280	24	4530
2026-01-21 11:04:07.02	324.42	29.91	-32.7	-37.0	8.3	2.30e-02	0	44	0	954204160	25	5944
2026-01-21 11:04:10.03	324.84	29.40	-32.1	-35.2	9.5	2.94e-02	0	44	0	960495616	25	5155
2026-01-21 11:04:13.05	325.25	28.89	-30.3	-32.1	12.5	1.42e-04	0	44	0	965738496	22	4424
2026-01-21 11:04:16.06	325.65	28.39	-28.2	-30.8	13.9	3.80e-06	0	43	0	970981376	17	4848
2026-01-21 11:04:19.08	326.04	27.89	-26.2	-30.9	13.3	1.22e-05	0	43	0	977272832	13	6155
2026-01-21 11:04:22.09	326.41	27.41	-25.7	-30.8	13.2	2.59e-05	0	43	0	982515712	12	6444
2026-01-21 11:04:25.10	326.78	26.93	-25.4	-31.2	12.4	8.92e-05	0	43	0	988807168	12	7039
2026-01-21 11:04:28.12	327.13	26.46	-25.8	-32.7	11.9	2.20e-04	0	43	0	994050048	11	7964
2026-01-21 11:04:31.13	327.47	25.99	-27.3	-33.1	11.8	3.65e-04	0	44	0	999292928	14	7018
2026-01-21 11:04:34.15	327.81	25.53	-30.0	-34.1	11.5	6.02e-04	0	44	0	1005584384	19	5754
2026-01-21 11:04:37.14	328.13	25.09	-31.1	-33.8	11.4	1.57e-03	0	44	0	1010827264	22	4927
2026-01-21 11:04:40.15	328.44	24.64	-30.5	-32.3	12.4	4.16e-04	0	43	0	1017118720	22	4421
2026-01-21 11:04:43.16	328.75	24.21	-29.5	-30.8	13.8	6.80e-06	0	44	0	1022361600	20	4185
2026-01-21 11:04:46.17	329.05	23.78	-29.5	-31.5	13.7	4.50e-06	0	43	0	1027604480	19	4521
2026-01-21 11:04:49.19	329.34	23.35	-29.9	-32.5	13.0	1.67e-05	0	44	0	1033895936	19	4848
2026-01-21 11:04:52.20	329.63	22.93	-30.4	-33.5	12.0	2.81e-04	0	43	0	1039138816	20	5122
2026-01-21 11:04:55.20	329.91	22.52	-30.6	-33.2	11.9	4.34e-04	0	44	0	1044381696	21	4879
2026-01-21 11:04:58.21	330.18	22.12	-30.6	-33.1	12.1	1.97e-04	0	44	0	1050673152	21	4777
2026-01-21 11:05:01.21	330.44	21.72	-30.3	-32.0	12.8	5.56e-05	0	44	0	1055916032	21	4393
2026-01-21 11:05:04.23	330.70	21.32	-30.4	-32.3	12.6	8.31e-05	0	44	0	1062207488	21	4470
2026-01-21 11:05:07.25	330.95	20.94	-30.6	-32.7	12.5	1.25e-04	0	44	0	1067450368	21	4560
2026-01-21 11:05:10.26	331.19	20.55	-30.1	-31.2	13.4	2.28e-05	0	43	0	1072693248	21	4093
2026-01-21 11:05:13.26	331.43	20.18	-29.7	-30.6	14.1	7.00e-07	0	44	0	1078984704	20	3990
2026-01-21 11:05:16.27	331.67	19.80	-29.8	-30.7	14.1	3.00e-06	0	43	0	1084227584	20	4009
2026-01-21 11:05:19.28	331.90	19.44	-29.6	-30.4	14.2	7.00e-07	0	44	0	1089470464	20	3945
2026-01-21 11:05:22.29	332.12	19.07	-29.8	-31.0	13.8	4.50e-06	0	44	0	1095761920	20	4107
2026-01-21 11:05:25.30	332.34	18.72	-29.9	-31.1	13.7	3.00e-06	0	43	0	1101004800	20	4156
2026-01-21 11:05:28.31	332.55	18.36	-29.9	-31.2	13.7	3.80e-06	0	43	0	1107296256	20	4189
2026-01-21 11:05:31.32	332.76	18.01	-30.1	-31.7	13.3	1.14e-05	0	44	0	1112539136	20	4337
2026-01-21 11:05:34.34	332.97	17.67	-30.2	-32.0	13.1	2.59e-05	0	43	0	1117782016	20	4438
2026-01-21 11:05:37.36	333.17	17.33	-30.6	-32.7	12.3	2.04e-04	0	44	0	1124073472	21	4578
2026-01-21 11:05:40.38	333.37	16.99	-30.7	-32.9	12.1	1.94e-04	0	44	0	1129316352	21	4665
2026-01-21 11:05:43.39	333.56	16.66	-30.8	-33.1	11.9	2.98e-04	0	44	0	1135607808	21	4722
2026-01-21 11:05:46.40	333.75	16.34	-30.9	-33.5	11.7	5.80e-04	0	44	0	1140850688	21	4866
2026-01-21 11:05:49.40	333.94	16.02	-31.0	-33.8	11.5	5.99e-04	0	43	0	1146093568	21	4997
2026-01-21 11:05:52.40	334.12	15.70	-31.1	-33.5	11.3	1.98e-03	0	44	0	1152385024	22	4779
2026-01-21 11:05:55.41	334.29	15.38	-30.6	-32.1	12.3	1.88e-04	0	43	0	1157627904	22	4284
2026-01-21 11:05:58.42	334.47	15.07	-30.4	-31.6	12.6	9.84e-05	0	44	0	1162870784	22	4132
2026-01-21 11:06:01.42	334.64	14.77	-30.4	-31.5	12.7	1.05e-04	0	44	0	1169162240	22	4083
2026-01-21 11:06:04.42	334.81	14.46	-30.1	-31.1	13.2	2.59e-05	0	44	0	1174405120	21	4066
2026-01-21 11:06:07.43	334.97	14.16	-29.8	-30.5	13.5	1.44e-05	0	44	0	1180696576	21	3890
2026-01-21 11:06:10.44	335.13	13.87	-29.8	-30.3	13.7	8.30e-06	0	44	0	1185939456	21	3835
2026-01-21 11:06:13.45	335.29	13.58	-29.8	-30.9	13.6	6.10e-06	0	44	0	1191182336	20	4084
2026-01-21 11:06:16.45	335.45	13.29	-29.9	-31.2	13.4	9.10e-06	0	43	0	1197473792	20	4185
2026-01-21 11:06:19.46	335.60	13.00	-30.0	-31.6	13.1	2.67e-05	0	43	0	1202716672	20	4306
2026-01-21 11:06:22.47	335.75	12.72	-30.2	-32.1	12.7	8.23e-05	0	43	0	1207959552	20	4484
2026-01-21 11:06:25.48	335.90	12.44	-30.4	-32.6	12.4	1.47e-04	0	43	0	1214251008	20	4642
2026-01-21 11:06:28.50	336.05	12.16	-30.6	-32.8	11.8	4.81e-04	0	44	0	1219493888	21	4651
2026-01-21 11:06:31.50	336.19	11.89	-30.7	-33.0	11.8	4.74e-04	0	43	0	1225785344	21	4714
2026-01-21 11:06:34.51	336.33	11.62	-30.8	-33.3	11.5	8.92e-04	0	44	0	1231028224	21	4805
2026-01-21 11:06:37.52	336.47	11.35	-30.9	-33.2	11.2	1.65e-03	0	44	0	1236271104	22	4707
2026-01-21 11:06:40.52	336.61	11.08	-30.4	-31.7	12.2	2.17e-04	0	43	0	1242562560	22	4194
2026-01-21 11:06:43.53	336.74	10.82	-30.4	-31.7	12.3	2.29e-04	0	43	0	1247805440	22	4171
2026-01-21 11:06:46.54	336.87	10.56	-30.3	-31.8	12.4	1.31e-04	0	44	0	1254096896	21	4321
2026-01-21 11:06:49.55	337.00	10.30	-30.2	-31.8	12.4	9.99e-05	0	44	0	1259339776	21	4306
2026-01-21 11:06:52.55	337.13	10.05	-30.2	-31.6	12.5	8.39e-05	0	43	0	1264582656	21	4255
2026-01-21 11:06:55.56	337.25	9.80	-30.2	-31.8	12.4	1.22e-04	0	44	0	1270874112	21	4328
2026-01-21 11:06:58.57	337.38	9.55	-30.2	-31.8	12.4	1.65e-04	0	44	0	1276116992	21	4300
2026-01-21 11:07:01.58	337.50	9.30	-30.3	-31.9	12.3	1.85e-04	0	44	0	1281359872	21	4352
2026-01-21 11:07:04.59	337.62	9.05	-30.3	-32.0	12.2	1.94e-04	0	44	0	1287651328	21	4387
2026-01-21 11:07:07.60	337.74	8.81	-30.4	-32.3	11.9	3.60e-04	0	44	0	1292894208	21	4481
2026-01-21 11:07:10.62	337.86	8.57	-30.5	-32.8	11.5	8.52e-04	0	44	0	1299185664	21	4667
2026-01-21 11:07:13.63	337.97	8.33	-30.5	-32.8	11.6	7.04e-04	0	43	0	1304428544	21	4659
2026-01-21 11:07:16.64	338.08	8.09	-30.6	-33.2	11.2	1.22e-03	0	44	0	1309671424	21	4813
2026-01-21 11:07:19.64	338.20	7.86	-30.6	-33.1	11.2	1.36e-03	0	44	0	1315962880	21	4793
2026-01-21 11:07:22.64	338.31	7.63	-30.8	-33.6	10.8	2.05e-03	0	44	0	1321205760	21	5013
2026-01-21 11:07:25.64	338.41	7.40	-31.0	-33.9	10.2	5.62e-03	0	43	0	1326448640	22	5053
2026-01-21 11:07:28.64	338.52	7.17	-31.0	-34.2	10.0	7.19e-03	0	43	0	1332740096	22	5148

#Closed at: 2026-01-21 11:07:31
#Recorded file [1333 MB]: D:/data/31010_260121_135537.dat