passes_logs/2026/01/21/R2M6_AANII_01/R2M6_AANII_01__20260121_012325_NOAA_20_JPSS-1_rec.log

#Pass ID: 20260121_012325_NOAA 20 (JPSS-1)
#Satellite: NOAA 20 (JPSS-1)
#Configuration: NOAA 20
#almurnet v.1.7.20240730
#Start time: 2026-01-21 01:30:01

#Version: 2.2.20231116
#Station: R2M6_AANII_01
#Location: 30.233357 lon 59.946436 lat
#TLE: 1 43013U 17073A   26020.26397077  .00000127  00000+0  80954-4 0  9999
#TLE: 2 43013  98.7643 321.1479 0001288  31.3158 328.8095 14.19537595423482

#Time	Az	El	Level	Level2	SNR	BER	BlckErr	Temp	State	Recorded	gain1	gain2
2026-01-21 01:30:01.01	278.92	38.11	-34.0	-53.4	3.8	7.43e-01	0	44	0	0	28	33625
2026-01-21 01:30:03.01	278.13	37.90	-34.1	-48.5	3.8	1.49e+00	0	44	104	0	28	18780
2026-01-21 01:30:05.01	277.34	37.68	-34.3	-48.7	3.8	1.49e+00	0	44	104	0	28	18925
2026-01-21 01:30:07.01	276.57	37.47	-34.3	-48.8	3.8	1.49e+00	0	45	104	0	28	19054
2026-01-21 01:30:09.03	275.80	37.24	-34.4	-48.9	3.8	1.49e+00	0	45	104	0	28	19087
2026-01-21 01:30:11.04	275.04	37.02	-34.4	-48.9	3.8	1.49e+00	0	45	104	0	28	19172
2026-01-21 01:30:13.05	274.29	36.78	-34.4	-48.9	3.8	1.49e+00	0	45	104	0	28	19134
2026-01-21 01:30:15.06	273.56	36.55	-34.4	-48.9	3.8	1.49e+00	0	45	104	0	28	19144
2026-01-21 01:30:17.06	272.84	36.31	-33.6	-48.1	3.8	1.49e+00	0	45	104	0	28	19230
2026-01-21 01:30:19.06	272.13	36.07	-34.4	-49.0	3.8	1.49e+00	0	45	104	0	28	19271
2026-01-21 01:30:21.07	271.42	35.82	-34.4	-48.9	3.8	1.49e+00	0	45	104	0	28	19168
2026-01-21 01:30:23.07	270.73	35.58	-34.4	-48.9	3.8	1.49e+00	0	44	104	0	28	19097
2026-01-21 01:30:25.08	270.05	35.33	-34.4	-48.9	3.8	1.49e+00	0	45	104	0	28	19078
2026-01-21 01:30:27.10	269.38	35.07	-34.3	-48.7	3.8	1.49e+00	0	45	104	0	28	18885
2026-01-21 01:30:29.11	268.71	34.81	-34.2	-48.5	3.8	1.49e+00	0	45	104	0	28	18628
2026-01-21 01:30:31.12	268.06	34.56	-34.1	-48.2	3.8	1.49e+00	0	45	104	0	28	18153
2026-01-21 01:30:33.13	267.42	34.30	-34.1	-48.3	3.8	1.49e+00	0	45	104	0	28	18354
2026-01-21 01:30:35.12	266.80	34.04	-34.1	-48.3	3.8	1.49e+00	0	45	104	0	28	18434
2026-01-21 01:30:37.13	266.18	33.77	-34.1	-48.3	3.8	1.49e+00	0	45	104	0	28	18404
2026-01-21 01:30:39.14	265.57	33.51	-34.1	-48.0	3.8	1.49e+00	0	45	104	0	28	17877
2026-01-21 01:30:41.15	264.97	33.24	-34.1	-48.0	3.8	1.49e+00	0	45	104	0	28	17875
2026-01-21 01:30:43.16	264.38	32.97	-34.1	-48.0	3.8	1.49e+00	0	45	104	0	28	17912
2026-01-21 01:30:45.17	263.79	32.70	-34.1	-47.9	3.8	1.49e+00	0	45	104	0	28	17692
2026-01-21 01:30:47.18	263.22	32.43	-34.0	-47.2	3.8	1.49e+00	0	45	104	0	28	16381
2026-01-21 01:30:49.19	262.66	32.16	-33.9	-45.9	3.8	1.49e+00	0	45	104	0	28	14261
2026-01-21 01:30:51.19	262.11	31.89	-34.0	-45.7	3.9	1.48e+00	0	45	104	0	27	13854
2026-01-21 01:30:53.21	261.56	31.62	-33.7	-42.6	5.1	1.44e+00	0	45	104	0	27	10051
2026-01-21 01:30:55.22	261.03	31.35	-32.7	-38.3	8.9	4.50e-02	0	45	0	2097152	25	6849
2026-01-21 01:30:57.23	260.51	31.08	-32.8	-39.0	8.3	4.58e-02	0	45	0	5242880	25	7307
2026-01-21 01:30:59.24	259.99	30.80	-32.4	-37.2	9.6	1.62e-02	0	45	0	9437184	25	6281
2026-01-21 01:31:01.25	259.48	30.53	-32.0	-36.5	10.5	3.92e-03	0	45	0	13631488	24	6009
2026-01-21 01:31:03.26	258.98	30.26	-32.0	-36.3	10.7	4.22e-03	0	45	0	16777216	24	5892
2026-01-21 01:31:05.26	258.49	29.99	-31.7	-35.4	11.3	1.03e-03	0	45	0	20971520	24	5511
2026-01-21 01:31:07.27	258.01	29.72	-31.7	-35.8	11.5	1.50e-03	0	45	0	24117248	23	5770
2026-01-21 01:31:09.28	257.54	29.44	-31.5	-35.3	11.8	6.10e-04	0	45	0	28311552	23	5549
2026-01-21 01:31:11.28	257.07	29.17	-31.5	-35.3	11.8	5.34e-04	0	45	0	32505856	23	5554
2026-01-21 01:31:13.29	256.61	28.90	-31.4	-35.1	12.0	2.06e-03	0	45	0	35651584	23	5468
2026-01-21 01:31:15.31	256.16	28.63	-31.4	-35.5	12.0	3.75e-04	0	45	0	39845888	22	5754
2026-01-21 01:31:17.31	255.72	28.36	-31.4	-35.5	11.9	2.28e-03	0	45	0	42991616	22	5762
2026-01-21 01:31:19.31	255.28	28.10	-31.1	-34.7	12.5	1.33e-04	0	45	0	47185920	22	5413
2026-01-21 01:31:21.31	254.86	27.83	-31.0	-34.2	12.8	6.79e-05	0	45	0	51380224	22	5236
2026-01-21 01:31:23.32	254.44	27.56	-31.0	-34.4	12.7	7.70e-05	0	45	0	54525952	22	5293
2026-01-21 01:31:25.33	254.02	27.30	-30.9	-34.1	12.9	5.34e-05	0	45	0	58720256	22	5187
2026-01-21 01:31:27.33	253.62	27.03	-31.0	-34.2	12.8	9.68e-05	0	45	0	61865984	22	5251
2026-01-21 01:31:29.34	253.22	26.77	-30.9	-34.6	12.9	6.56e-05	0	45	0	66060288	21	5496
2026-01-21 01:31:31.35	252.82	26.50	-30.7	-34.1	13.1	2.74e-03	0	45	0	69206016	21	5305
2026-01-21 01:31:33.36	252.43	26.24	-30.6	-33.9	13.3	1.83e-05	0	45	0	73400320	21	5212
2026-01-21 01:31:35.36	252.05	25.98	-30.6	-33.7	13.4	1.60e-05	0	45	0	77594624	21	5145
2026-01-21 01:31:37.37	251.68	25.72	-30.7	-34.0	13.2	1.90e-05	0	45	0	80740352	21	5275
2026-01-21 01:31:39.37	251.31	25.46	-30.6	-33.7	13.5	1.60e-05	0	45	0	84934656	21	5132
2026-01-21 01:31:41.38	250.95	25.21	-30.4	-33.2	13.7	9.10e-06	0	45	0	88080384	21	4957
2026-01-21 01:31:43.38	250.59	24.95	-30.4	-33.7	13.7	6.80e-06	0	45	0	92274688	20	5257
2026-01-21 01:31:45.39	250.24	24.70	-30.5	-33.5	13.5	1.44e-05	0	45	0	96468992	21	5086
2026-01-21 01:31:47.40	249.90	24.44	-30.6	-33.8	13.3	1.90e-05	0	45	0	99614720	21	5189
2026-01-21 01:31:49.42	249.56	24.19	-30.9	-34.5	11.4	5.79e-05	0	45	0	103809024	21	5469
2026-01-21 01:31:51.41	249.22	23.94	-30.8	-34.4	12.9	3.50e-05	0	45	0	106954752	21	5415
2026-01-21 01:31:53.41	248.90	23.69	-30.8	-34.4	12.8	5.72e-05	0	44	0	111149056	21	5442
2026-01-21 01:31:55.41	248.58	23.44	-30.8	-34.4	12.8	4.12e-03	0	45	0	115343360	21	5420
2026-01-21 01:31:57.42	248.26	23.20	-30.8	-34.5	12.7	5.95e-05	0	45	0	118489088	21	5464
2026-01-21 01:31:59.42	247.94	22.95	-31.1	-34.7	12.1	1.72e-04	0	45	0	122683392	22	5470
2026-01-21 01:32:01.42	247.64	22.71	-31.2	-35.1	12.0	2.53e-04	0	45	0	125829120	22	5612
2026-01-21 01:32:03.42	247.33	22.47	-31.2	-35.1	11.9	3.49e-04	0	45	0	130023424	22	5617
2026-01-21 01:32:05.43	247.04	22.23	-31.1	-34.6	12.3	2.83e-04	0	45	0	133169152	22	5431
2026-01-21 01:32:07.43	246.74	21.99	-30.9	-34.7	12.6	8.69e-05	0	45	0	137363456	21	5559
2026-01-21 01:32:09.43	246.45	21.75	-30.9	-34.8	12.5	7.32e-04	0	45	0	141557760	21	5609
2026-01-21 01:32:11.43	246.17	21.51	-31.0	-34.4	12.5	1.27e-04	0	45	0	144703488	22	5336
2026-01-21 01:32:13.44	245.89	21.28	-31.1	-34.9	12.1	7.52e-04	0	45	0	148897792	22	5542
2026-01-21 01:32:15.44	245.61	21.05	-31.1	-34.8	12.1	2.38e-04	0	45	0	152043520	22	5516
2026-01-21 01:32:17.44	245.34	20.81	-31.0	-34.6	12.2	2.10e-04	0	45	0	156237824	22	5446
2026-01-21 01:32:19.45	245.07	20.58	-31.0	-35.0	12.3	1.89e-04	0	45	0	159383552	21	5709
2026-01-21 01:32:21.46	244.81	20.35	-31.0	-35.0	12.3	1.55e-04	0	45	0	163577856	21	5702
2026-01-21 01:32:23.47	244.55	20.12	-31.1	-34.7	12.2	1.51e-03	0	45	0	167772160	22	5474
2026-01-21 01:32:25.48	244.29	19.90	-31.0	-34.7	12.2	2.04e-04	0	45	0	170917888	22	5466
2026-01-21 01:32:27.48	244.04	19.67	-30.9	-34.8	12.3	3.40e-03	0	45	0	175112192	21	5647
2026-01-21 01:32:29.49	243.79	19.45	-30.9	-34.9	12.3	1.03e-03	0	45	0	178257920	21	5645
2026-01-21 01:32:31.49	243.55	19.23	-30.9	-34.8	12.4	2.70e-03	0	45	0	182452224	21	5614
2026-01-21 01:32:33.50	243.31	19.01	-31.0	-34.9	12.3	2.02e-03	0	45	0	186646528	21	5683
2026-01-21 01:32:35.51	243.07	18.79	-30.7	-34.2	12.7	7.93e-05	0	45	0	189792256	21	5396
2026-01-21 01:32:37.51	242.83	18.57	-30.7	-34.2	12.8	6.79e-05	0	45	0	193986560	21	5368
2026-01-21 01:32:39.52	242.60	18.35	-30.8	-34.4	12.6	2.53e-04	0	45	0	197132288	21	5484
2026-01-21 01:32:41.53	242.37	18.14	-30.8	-34.5	12.5	4.93e-04	0	45	0	201326592	21	5528
2026-01-21 01:32:43.54	242.15	17.92	-30.9	-34.7	12.4	7.64e-04	0	45	0	205520896	21	5591
2026-01-21 01:32:45.55	241.93	17.71	-30.9	-34.7	12.3	1.11e-03	0	45	0	208666624	21	5620
2026-01-21 01:32:47.55	241.71	17.50	-30.8	-34.6	12.4	5.45e-04	0	45	0	212860928	21	5568
2026-01-21 01:32:49.56	241.50	17.29	-30.8	-34.6	12.4	1.43e-04	0	45	0	216006656	21	5545
2026-01-21 01:32:51.55	241.29	17.08	-30.9	-34.8	12.2	3.07e-03	0	45	0	220200960	21	5644
2026-01-21 01:32:53.55	241.08	16.88	-30.8	-34.6	12.4	3.32e-04	0	45	0	223346688	21	5569
2026-01-21 01:32:55.56	240.87	16.67	-30.9	-34.7	12.3	3.30e-03	0	45	0	227540992	21	5632
2026-01-21 01:32:57.56	240.67	16.47	-31.0	-35.1	12.0	3.87e-03	0	45	0	231735296	21	5804
2026-01-21 01:32:59.57	240.47	16.26	-31.1	-34.9	11.8	3.33e-03	0	45	0	234881024	22	5602
2026-01-21 01:33:01.58	240.27	16.06	-30.7	-34.2	12.6	4.62e-03	0	45	0	239075328	21	5412
2026-01-21 01:33:03.59	240.07	15.86	-30.5	-33.7	12.9	4.95e-05	0	45	0	242221056	21	5198
2026-01-21 01:33:05.59	239.88	15.66	-30.4	-33.6	13.0	2.21e-03	0	45	0	246415360	21	5158
2026-01-21 01:33:07.59	239.69	15.46	-30.4	-34.1	13.0	3.58e-05	0	45	0	250609664	20	5463
2026-01-21 01:33:09.60	239.51	15.27	-30.7	-34.3	12.5	3.18e-03	0	45	0	253755392	21	5442
2026-01-21 01:33:11.61	239.32	15.07	-30.8	-34.7	12.2	1.72e-04	0	45	0	257949696	21	5619
2026-01-21 01:33:13.62	239.14	14.88	-31.0	-34.8	11.7	5.45e-04	0	44	0	261095424	22	5575
2026-01-21 01:33:15.63	238.96	14.68	-31.1	-34.9	11.7	5.84e-04	0	45	0	265289728	22	5621
2026-01-21 01:33:17.63	238.78	14.49	-31.1	-35.2	11.5	8.86e-04	0	45	0	269484032	22	5728
2026-01-21 01:33:19.64	238.61	14.30	-31.0	-34.7	11.8	1.91e-03	0	45	0	272629760	22	5530
2026-01-21 01:33:21.64	238.43	14.11	-30.9	-34.9	12.0	3.26e-04	0	45	0	276824064	21	5741
2026-01-21 01:33:23.65	238.26	13.93	-30.8	-34.7	12.1	2.85e-04	0	45	0	279969792	21	5659
2026-01-21 01:33:25.65	238.09	13.74	-30.9	-34.9	11.9	4.42e-04	0	44	0	284164096	21	5744
2026-01-21 01:33:27.66	237.93	13.55	-30.9	-35.0	11.9	3.58e-04	0	45	0	288358400	21	5783
2026-01-21 01:33:29.67	237.76	13.37	-30.9	-35.0	11.9	5.30e-04	0	45	0	291504128	21	5756
2026-01-21 01:33:31.67	237.60	13.19	-31.0	-34.9	11.6	7.82e-04	0	45	0	295698432	22	5628
2026-01-21 01:33:33.68	237.44	13.00	-31.0	-34.9	11.5	8.05e-04	0	45	0	298844160	22	5635
2026-01-21 01:33:35.68	237.28	12.82	-31.1	-35.2	11.3	9.95e-04	0	45	0	303038464	22	5773
2026-01-21 01:33:37.68	237.13	12.65	-31.2	-35.4	11.1	1.37e-03	0	45	0	306184192	22	5878
2026-01-21 01:33:39.69	236.97	12.47	-31.2	-35.5	11.0	1.60e-03	0	45	0	310378496	22	5939
2026-01-21 01:33:41.69	236.82	12.29	-31.1	-35.4	11.1	1.73e-03	0	45	0	314572800	22	5851
2026-01-21 01:33:43.69	236.67	12.11	-31.2	-35.5	11.0	2.01e-03	0	45	0	317718528	22	5935
2026-01-21 01:33:45.70	236.52	11.94	-31.2	-35.7	10.9	2.01e-03	0	45	0	321912832	22	6012
2026-01-21 01:33:47.70	236.38	11.76	-30.3	-34.8	10.7	2.40e-03	0	45	0	325058560	22	6046
2026-01-21 01:33:49.70	236.23	11.59	-31.3	-36.1	10.5	3.70e-03	0	45	0	329252864	22	6215
2026-01-21 01:33:51.70	236.09	11.42	-31.4	-36.4	9.9	4.49e-03	0	45	0	332398592	22	6394
2026-01-21 01:33:53.71	235.95	11.25	-31.4	-36.5	10.2	5.46e-03	0	45	0	336592896	22	6423
2026-01-21 01:33:55.71	235.81	11.08	-31.7	-36.9	9.5	1.15e-02	0	45	0	340787200	23	6583
2026-01-21 01:33:57.73	235.67	10.91	-31.7	-37.0	9.4	1.13e-02	0	45	0	343932928	23	6609
2026-01-21 01:33:59.74	235.54	10.74	-31.5	-36.2	9.9	1.02e-02	0	45	0	348127232	23	6215
2026-01-21 01:34:01.75	235.40	10.57	-31.5	-36.2	10.0	7.77e-03	0	45	0	351272960	23	6207
2026-01-21 01:34:03.75	235.27	10.41	-31.5	-36.5	9.8	1.43e-02	0	45	0	355467264	23	6340
2026-01-21 01:34:05.75	235.14	10.24	-31.4	-36.3	10.2	8.78e-03	0	45	0	359661568	22	6361
2026-01-21 01:34:07.76	235.01	10.08	-31.4	-36.4	10.1	8.23e-03	0	45	0	362807296	22	6430
2026-01-21 01:34:09.77	234.88	9.91	-31.6	-36.6	9.6	9.55e-03	0	45	0	367001600	23	6403
2026-01-21 01:34:11.77	234.75	9.75	-31.5	-36.3	9.9	1.25e-02	0	44	0	370147328	23	6247
2026-01-21 01:34:13.78	234.63	9.59	-31.5	-36.3	9.8	1.13e-02	0	45	0	374341632	23	6276
2026-01-21 01:34:15.78	234.50	9.43	-31.5	-36.5	9.6	1.36e-02	0	45	0	378535936	23	6389
2026-01-21 01:34:17.78	234.38	9.27	-31.6	-36.9	9.3	1.29e-02	0	45	0	381681664	23	6591
2026-01-21 01:34:19.79	234.26	9.11	-31.4	-36.2	9.8	1.35e-02	0	45	0	385875968	23	6208
2026-01-21 01:34:21.79	234.14	8.95	-31.5	-36.7	9.9	1.14e-02	0	45	0	389021696	22	6606
2026-01-21 01:34:23.80	234.02	8.79	-31.4	-36.5	10.0	1.09e-02	0	45	0	393216000	22	6472
2026-01-21 01:34:25.80	233.90	8.64	-31.4	-36.1	9.9	1.11e-02	0	45	0	396361728	23	6177
2026-01-21 01:34:27.80	233.79	8.48	-31.4	-36.8	9.7	1.30e-02	0	45	0	400556032	22	6639
2026-01-21 01:34:29.80	233.67	8.33	-31.6	-36.8	9.3	1.77e-02	0	45	0	404750336	23	6570
2026-01-21 01:34:31.82	233.56	8.17	-31.7	-37.2	9.0	2.73e-02	0	45	0	407896064	23	6770
2026-01-21 01:34:33.82	233.45	8.02	-31.7	-37.2	8.9	3.51e-02	0	45	0	412090368	23	6802
2026-01-21 01:34:35.84	233.33	7.87	-31.6	-36.8	9.2	2.39e-02	0	45	0	415236096	23	6580
2026-01-21 01:34:37.85	233.22	7.72	-31.6	-37.0	9.1	2.28e-02	0	45	0	419430400	23	6672
2026-01-21 01:34:39.85	233.12	7.57	-31.6	-36.9	9.2	2.32e-02	0	45	0	423624704	23	6607
2026-01-21 01:34:41.85	233.01	7.42	-31.7	-37.2	8.9	2.96e-02	0	45	0	426770432	23	6833
2026-01-21 01:34:43.86	232.90	7.27	-31.7	-37.2	8.9	3.15e-02	0	45	0	430964736	23	6823
2026-01-21 01:34:45.86	232.80	7.12	-31.6	-37.2	8.8	2.76e-02	0	45	0	434110464	23	6809
2026-01-21 01:34:47.87	232.69	6.97	-33.6	-47.8	3.8	1.49e+00	0	45	104	435159040	27	18429
2026-01-21 01:34:49.88	232.59	6.83	-34.0	-48.1	3.8	1.49e+00	0	45	104	435159040	28	18231

#Closed at: 2026-01-21 01:34:50
#Recorded file [435 MB]: D:/data/31010_260121_043053.dat