passes_logs/2026/01/21/R2M6_AANII_01/R2M6_AANII_01__20260121_084638_NOAA_21_JPSS-2_rec.log

#Pass ID: 20260121_084638_NOAA 21 (JPSS-2)
#Satellite: NOAA 21 (JPSS-2)
#Configuration: NOAA 21
#almurnet v.1.7.20240730
#Start time: 2026-01-21 08:46:40

#Version: 2.2.20231116
#Station: R2M6_AANII_01
#Location: 30.233357 lon 59.946436 lat
#TLE: 1 54234U 22150A   26020.29910383  .00000141  00000+0  87571-4 0  9990
#TLE: 2 54234  98.7506 321.1348 0000615 250.8428 109.2682 14.19536295165564

#Time	Az	El	Level	Level2	SNR	BER	BlckErr	Temp	State	Recorded	gain1	gain2
2026-01-21 08:46:40.18	112.43	7.11	-30.9	-35.2	4.6	1.40e+00	0	42	0	0	23	5872
2026-01-21 08:46:43.18	112.21	7.31	-30.5	-33.6	9.6	1.33e-02	0	42	0	3145728	22	5126
2026-01-21 08:46:46.19	111.97	7.52	-30.1	-33.0	10.4	5.63e-03	0	42	0	12582912	21	4979
2026-01-21 08:46:49.18	111.74	7.73	-29.4	-31.4	11.9	5.52e-04	0	42	0	22020096	20	4544
2026-01-21 08:46:52.17	111.50	7.94	-29.5	-32.2	11.8	4.37e-04	0	42	0	30408704	19	4907
2026-01-21 08:46:55.19	111.26	8.16	-29.3	-31.6	12.2	2.17e-04	0	42	0	39845888	19	4694
2026-01-21 08:46:58.19	111.02	8.37	-29.4	-31.9	12.0	3.36e-04	0	42	0	49283072	19	4791
2026-01-21 08:47:01.19	110.77	8.59	-29.0	-30.7	12.8	6.10e-05	0	42	0	58720256	19	4400
2026-01-21 08:47:04.20	110.52	8.80	-29.0	-30.7	12.8	5.87e-05	0	42	0	68157440	19	4409
2026-01-21 08:47:07.21	110.26	9.02	-28.9	-30.6	12.9	5.41e-05	0	42	0	77594624	19	4367
2026-01-21 08:47:10.22	110.00	9.24	-28.9	-30.7	12.9	5.95e-05	0	42	0	87031808	19	4390
2026-01-21 08:47:13.23	109.73	9.46	-29.0	-30.8	12.9	5.03e-05	0	42	0	96468992	19	4415
2026-01-21 08:47:16.23	109.47	9.68	-29.0	-30.8	12.9	5.18e-05	0	43	0	105906176	19	4412
2026-01-21 08:47:19.24	109.19	9.91	-28.9	-30.4	13.1	3.05e-05	0	43	0	115343360	19	4314
2026-01-21 08:47:22.26	108.91	10.13	-28.9	-30.5	13.0	3.20e-05	0	43	0	124780544	19	4341
2026-01-21 08:47:25.28	108.63	10.36	-28.8	-30.4	13.2	1.98e-05	0	43	0	134217728	19	4292
2026-01-21 08:47:28.29	108.34	10.59	-28.7	-30.4	13.5	1.60e-05	0	43	0	143654912	18	4395
2026-01-21 08:47:31.30	108.05	10.82	-28.6	-30.4	13.5	1.14e-05	0	43	0	153092096	18	4386
2026-01-21 08:47:34.31	107.76	11.05	-28.6	-30.2	13.6	9.90e-06	0	43	0	162529280	18	4354
2026-01-21 08:47:37.32	107.45	11.28	-28.5	-30.0	13.8	3.00e-06	0	43	0	171966464	18	4291
2026-01-21 08:47:40.34	107.15	11.52	-28.3	-29.6	14.0	1.50e-06	0	43	0	181403648	18	4168
2026-01-21 08:47:43.33	106.84	11.75	-28.1	-29.7	14.3	1.50e-06	0	43	0	190840832	17	4284
2026-01-21 08:47:46.34	106.52	11.99	-28.0	-29.4	14.4	0.00e+00	0	43	0	200278016	17	4219
2026-01-21 08:47:49.33	106.20	12.22	-28.0	-29.3	14.6	7.00e-07	0	43	0	209715200	17	4176
2026-01-21 08:47:52.34	105.88	12.46	-27.9	-29.2	14.6	0.00e+00	0	43	0	219152384	17	4146
2026-01-21 08:47:55.36	105.54	12.71	-28.0	-29.2	14.6	0.00e+00	0	43	0	228589568	17	4164
2026-01-21 08:47:58.38	105.21	12.95	-28.0	-29.3	14.6	7.00e-07	0	43	0	238026752	17	4184
2026-01-21 08:48:01.38	104.86	13.19	-27.9	-29.2	14.7	0.00e+00	0	43	0	247463936	17	4141
2026-01-21 08:48:04.39	104.51	13.44	-28.0	-29.3	14.6	7.00e-07	0	43	0	256901120	17	4170
2026-01-21 08:48:07.39	104.16	13.68	-27.9	-29.0	14.9	0.00e+00	0	43	0	266338304	17	4079
2026-01-21 08:48:10.41	103.80	13.93	-28.0	-29.2	14.7	7.00e-07	0	43	0	275775488	17	4138
2026-01-21 08:48:13.41	103.43	14.18	-27.9	-29.2	14.8	7.00e-07	0	43	0	284164096	17	4137
2026-01-21 08:48:16.41	103.06	14.43	-28.1	-29.5	14.6	7.00e-07	0	43	0	293601280	17	4234
2026-01-21 08:48:19.43	102.68	14.68	-28.0	-29.3	14.8	0.00e+00	0	43	0	303038464	17	4160
2026-01-21 08:48:22.44	102.29	14.94	-28.0	-29.3	14.7	0.00e+00	0	43	0	312475648	17	4169
2026-01-21 08:48:25.45	101.90	15.19	-28.0	-29.2	14.8	1.50e-06	0	43	0	321912832	17	4153
2026-01-21 08:48:28.46	101.50	15.45	-28.1	-29.4	14.7	7.00e-07	0	43	0	331350016	17	4198
2026-01-21 08:48:31.48	101.09	15.70	-28.2	-29.6	14.6	7.00e-07	0	43	0	340787200	17	4254
2026-01-21 08:48:34.50	100.67	15.96	-28.3	-30.0	14.4	7.00e-07	0	43	0	350224384	17	4350
2026-01-21 08:48:37.50	100.25	16.22	-28.0	-29.3	14.8	0.00e+00	0	43	0	359661568	17	4171
2026-01-21 08:48:40.51	99.82	16.48	-28.1	-29.3	14.8	1.50e-06	0	43	0	369098752	17	4174
2026-01-21 08:48:43.51	99.38	16.74	-28.2	-29.6	14.7	7.00e-07	0	44	0	378535936	17	4251
2026-01-21 08:48:46.52	98.94	17.01	-28.3	-29.8	14.6	1.50e-06	0	44	0	387973120	17	4310
2026-01-21 08:48:49.53	98.49	17.27	-28.3	-29.8	14.6	1.50e-06	0	44	0	397410304	17	4303
2026-01-21 08:48:52.55	98.02	17.54	-28.1	-29.4	14.8	7.00e-07	0	44	0	406847488	17	4192
2026-01-21 08:48:55.55	97.56	17.80	-28.1	-29.5	14.8	0.00e+00	0	44	0	416284672	17	4212
2026-01-21 08:48:58.56	97.08	18.07	-28.1	-29.4	14.9	0.00e+00	0	44	0	425721856	17	4195
2026-01-21 08:49:01.57	96.59	18.34	-28.1	-29.5	14.8	0.00e+00	0	44	0	435159040	17	4215
2026-01-21 08:49:04.58	96.10	18.60	-27.9	-29.0	15.2	0.00e+00	0	43	0	444596224	17	4061
2026-01-21 08:49:07.59	95.59	18.87	-28.0	-29.2	15.0	0.00e+00	0	44	0	454033408	17	4122
2026-01-21 08:49:10.59	95.08	19.14	-28.0	-29.1	15.1	0.00e+00	0	43	0	463470592	17	4109
2026-01-21 08:49:13.61	94.56	19.41	-27.8	-28.8	15.3	7.00e-07	0	44	0	472907776	17	4020
2026-01-21 08:49:16.62	94.03	19.68	-27.7	-29.1	15.4	0.00e+00	0	44	0	482344960	16	4198
2026-01-21 08:49:19.63	93.48	19.95	-27.7	-29.0	15.5	0.00e+00	0	44	0	491782144	16	4176
2026-01-21 08:49:22.64	92.93	20.22	-27.8	-29.2	15.4	0.00e+00	0	44	0	501219328	16	4221
2026-01-21 08:49:25.65	92.37	20.49	-27.8	-29.2	15.4	0.00e+00	0	44	0	510656512	16	4230
2026-01-21 08:49:28.66	91.80	20.76	-27.6	-28.7	15.7	0.00e+00	0	44	0	520093696	16	4085
2026-01-21 08:49:31.66	91.22	21.03	-27.5	-28.5	15.8	0.00e+00	0	44	0	529530880	16	4051
2026-01-21 08:49:34.68	90.63	21.30	-27.5	-28.6	15.8	0.00e+00	0	44	0	538968064	16	4057
2026-01-21 08:49:37.69	90.03	21.57	-27.7	-29.0	15.5	0.00e+00	0	44	0	548405248	16	4182
2026-01-21 08:49:40.69	89.42	21.84	-27.7	-29.0	15.6	0.00e+00	0	44	0	557842432	16	4170
2026-01-21 08:49:43.70	88.79	22.11	-27.6	-28.7	15.7	0.00e+00	0	43	0	567279616	16	4093
2026-01-21 08:49:46.71	88.16	22.38	-27.7	-29.0	15.5	0.00e+00	0	44	0	576716800	16	4179
2026-01-21 08:49:49.71	87.52	22.64	-27.5	-28.5	15.9	0.00e+00	0	44	0	585105408	16	4042
2026-01-21 08:49:52.73	86.86	22.91	-27.4	-28.3	16.0	0.00e+00	0	44	0	595591168	16	3976
2026-01-21 08:49:55.76	86.18	23.17	-27.1	-28.1	16.2	0.00e+00	0	44	0	603979776	15	4042
2026-01-21 08:49:58.76	85.51	23.44	-27.2	-28.3	16.1	0.00e+00	0	44	0	613416960	15	4107
2026-01-21 08:50:01.78	84.81	23.70	-27.2	-28.4	16.1	0.00e+00	0	44	0	623902720	15	4124
2026-01-21 08:50:04.78	84.11	23.95	-27.4	-28.7	15.9	0.00e+00	0	44	0	632291328	15	4204
2026-01-21 08:50:07.80	83.40	24.21	-27.5	-28.9	15.8	0.00e+00	0	44	0	641728512	15	4268
2026-01-21 08:50:10.81	82.67	24.46	-27.5	-29.1	15.7	0.00e+00	0	44	0	651165696	15	4313
2026-01-21 08:50:13.82	81.93	24.72	-27.5	-29.1	15.7	0.00e+00	0	44	0	660602880	15	4296
2026-01-21 08:50:16.83	81.18	24.96	-27.6	-29.3	15.6	0.00e+00	0	44	0	670040064	15	4356
2026-01-21 08:50:19.84	80.42	25.21	-27.6	-29.2	15.7	0.00e+00	0	44	0	679477248	15	4319
2026-01-21 08:50:22.85	79.65	25.45	-27.5	-29.1	15.7	0.00e+00	0	44	0	688914432	15	4299
2026-01-21 08:50:25.86	78.86	25.69	-27.4	-28.8	15.9	0.00e+00	0	44	0	698351616	15	4219
2026-01-21 08:50:28.87	78.07	25.92	-27.6	-29.2	15.7	0.00e+00	0	44	0	707788800	15	4331
2026-01-21 08:50:31.88	77.26	26.15	-27.8	-29.6	15.4	0.00e+00	0	44	0	717225984	15	4447
2026-01-21 08:50:34.89	76.44	26.38	-27.8	-29.7	15.4	0.00e+00	0	44	0	726663168	15	4480
2026-01-21 08:50:37.90	75.61	26.60	-28.0	-30.1	15.2	0.00e+00	0	44	0	736100352	15	4586
2026-01-21 08:50:40.91	74.76	26.81	-27.7	-29.5	15.5	0.00e+00	0	44	0	745537536	15	4416
2026-01-21 08:50:43.93	73.91	27.02	-27.7	-29.4	15.6	0.00e+00	0	44	0	754974720	15	4393
2026-01-21 08:50:46.94	73.04	27.23	-27.7	-29.4	15.6	0.00e+00	0	44	0	764411904	15	4381
2026-01-21 08:50:49.94	72.17	27.43	-27.4	-28.9	15.9	0.00e+00	0	44	0	773849088	15	4242
2026-01-21 08:50:52.96	71.27	27.62	-27.4	-28.8	15.9	0.00e+00	0	44	0	783286272	15	4218
2026-01-21 08:50:55.97	70.38	27.81	-27.5	-28.9	15.8	0.00e+00	0	44	0	792723456	15	4262
2026-01-21 08:50:58.98	69.47	27.99	-27.5	-29.0	15.8	0.00e+00	0	44	0	802160640	15	4269
2026-01-21 08:51:02.00	68.54	28.16	-27.6	-29.3	15.6	0.00e+00	0	44	0	811597824	15	4371
2026-01-21 08:51:05.02	67.61	28.32	-27.6	-29.3	15.7	0.00e+00	0	44	0	821035008	15	4359
2026-01-21 08:51:08.02	66.68	28.48	-27.9	-29.9	15.3	0.00e+00	0	44	0	830472192	15	4542
2026-01-21 08:51:11.03	65.73	28.63	-28.0	-29.6	15.4	0.00e+00	0	44	0	839909376	16	4338
2026-01-21 08:51:14.04	64.77	28.77	-28.1	-29.8	15.3	0.00e+00	0	44	0	849346560	16	4388
2026-01-21 08:51:17.06	63.81	28.91	-28.0	-29.5	15.4	0.00e+00	0	44	0	858783744	16	4315
2026-01-21 08:51:20.06	62.84	29.03	-27.7	-29.0	15.7	0.00e+00	0	44	0	868220928	16	4164
2026-01-21 08:51:23.06	61.86	29.15	-28.0	-29.6	15.4	0.00e+00	0	44	0	877658112	16	4332
2026-01-21 08:51:26.07	60.88	29.25	-28.1	-29.8	15.2	7.00e-07	0	44	0	887095296	16	4389
2026-01-21 08:51:29.06	59.89	29.35	-28.5	-30.7	14.8	7.00e-07	0	44	0	896532480	16	4662
2026-01-21 08:51:32.08	58.89	29.44	-27.9	-29.4	15.5	0.00e+00	0	44	0	905969664	16	4274
2026-01-21 08:51:35.09	57.89	29.52	-27.9	-29.5	15.4	0.00e+00	0	44	0	915406848	16	4301
2026-01-21 08:51:38.10	56.88	29.59	-28.0	-29.7	15.3	0.00e+00	0	44	0	924844032	16	4348
2026-01-21 08:51:41.10	55.87	29.65	-27.7	-28.9	15.8	0.00e+00	0	44	0	933232640	16	4132
2026-01-21 08:51:44.11	54.86	29.70	-27.5	-28.4	16.0	0.00e+00	0	44	0	942669824	16	4003
2026-01-21 08:51:47.12	53.84	29.74	-27.7	-28.8	15.8	0.00e+00	0	44	0	952107008	16	4115
2026-01-21 08:51:50.12	52.82	29.77	-27.9	-29.3	15.5	0.00e+00	0	44	0	961544192	16	4256
2026-01-21 08:51:53.14	51.80	29.79	-27.9	-29.5	15.5	0.00e+00	0	44	0	970981376	16	4291
2026-01-21 08:51:56.14	50.78	29.80	-27.7	-28.9	15.8	0.00e+00	0	44	0	980418560	16	4124
2026-01-21 08:51:59.14	49.76	29.80	-27.8	-29.1	15.7	0.00e+00	0	44	0	989855744	16	4186
2026-01-21 08:52:02.14	48.74	29.78	-27.8	-29.0	15.7	0.00e+00	0	44	0	999292928	16	4173
2026-01-21 08:52:05.15	47.72	29.76	-28.3	-30.4	14.9	0.00e+00	0	44	0	1008730112	16	4548
2026-01-21 08:52:08.17	46.69	29.73	-28.3	-30.4	14.9	0.00e+00	0	44	0	1018167296	16	4555
2026-01-21 08:52:11.17	45.68	29.69	-28.0	-29.6	15.4	0.00e+00	0	44	0	1027604480	16	4328
2026-01-21 08:52:14.16	44.67	29.64	-28.0	-29.6	15.4	0.00e+00	0	44	0	1037041664	16	4334
2026-01-21 08:52:17.17	43.66	29.58	-27.7	-28.9	15.7	0.00e+00	0	44	0	1046478848	16	4141
2026-01-21 08:52:20.17	42.66	29.51	-27.9	-29.3	15.6	0.00e+00	0	44	0	1055916032	16	4254
2026-01-21 08:52:23.19	41.66	29.43	-28.0	-29.5	15.4	0.00e+00	0	44	0	1065353216	16	4303
2026-01-21 08:52:26.19	40.66	29.34	-27.9	-29.3	15.5	0.00e+00	0	44	0	1074790400	16	4241
2026-01-21 08:52:29.20	39.67	29.24	-27.9	-29.4	15.4	0.00e+00	0	44	0	1084227584	16	4280
2026-01-21 08:52:32.20	38.69	29.13	-27.8	-29.2	15.6	0.00e+00	0	44	0	1093664768	16	4205
2026-01-21 08:52:35.20	37.72	29.01	-28.0	-29.7	15.3	0.00e+00	0	44	0	1103101952	16	4353
2026-01-21 08:52:38.21	36.75	28.88	-28.3	-30.4	14.9	0.00e+00	0	44	0	1112539136	16	4552
2026-01-21 08:52:41.22	35.79	28.75	-28.1	-29.8	15.3	0.00e+00	0	44	0	1121976320	16	4373
2026-01-21 08:52:44.23	34.84	28.61	-28.1	-29.8	15.2	0.00e+00	0	44	0	1131413504	16	4382
2026-01-21 08:52:47.24	33.90	28.45	-28.0	-29.6	15.3	0.00e+00	0	44	0	1140850688	16	4326
2026-01-21 08:52:50.25	32.96	28.30	-28.0	-29.6	15.3	0.00e+00	0	44	0	1150287872	16	4344
2026-01-21 08:52:53.26	32.04	28.13	-27.8	-29.1	15.6	0.00e+00	0	44	0	1158676480	16	4178
2026-01-21 08:52:56.27	31.12	27.96	-27.8	-29.2	15.5	0.00e+00	0	44	0	1168113664	16	4212
2026-01-21 08:52:59.28	30.22	27.78	-27.8	-29.1	15.6	0.00e+00	0	44	0	1178599424	16	4203
2026-01-21 08:53:02.30	29.32	27.59	-27.5	-28.4	16.0	0.00e+00	0	44	0	1186988032	16	4012
2026-01-21 08:53:05.30	28.44	27.40	-28.1	-29.9	15.1	7.00e-07	0	44	0	1196425216	16	4427
2026-01-21 08:53:08.31	27.56	27.20	-28.4	-30.5	14.7	7.00e-07	0	44	0	1205862400	16	4606
2026-01-21 08:53:11.33	26.70	26.99	-28.3	-30.3	14.9	0.00e+00	0	44	0	1215299584	16	4550
2026-01-21 08:53:14.34	25.85	26.78	-27.9	-29.3	15.4	0.00e+00	0	44	0	1224736768	16	4256
2026-01-21 08:53:17.35	25.01	26.56	-27.6	-28.7	15.7	0.00e+00	0	44	0	1234173952	16	4101
2026-01-21 08:53:20.36	24.18	26.34	-27.6	-28.7	15.7	0.00e+00	0	44	0	1243611136	16	4101
2026-01-21 08:53:23.36	23.37	26.12	-28.2	-30.0	15.0	0.00e+00	0	44	0	1253048320	16	4458
2026-01-21 08:53:26.37	22.57	25.89	-28.1	-29.3	15.1	7.00e-07	0	44	0	1262485504	17	4140
2026-01-21 08:53:29.36	21.78	25.66	-27.3	-28.0	16.1	0.00e+00	0	44	0	1271922688	16	3907
2026-01-21 08:53:32.38	21.00	25.42	-27.2	-28.5	16.0	0.00e+00	0	44	0	1281359872	15	4139
2026-01-21 08:53:35.38	20.23	25.18	-27.7	-29.4	15.4	0.00e+00	0	44	0	1290797056	15	4402
2026-01-21 08:53:38.38	19.48	24.94	-27.4	-28.9	15.7	0.00e+00	0	44	0	1300234240	15	4267
2026-01-21 08:53:41.39	18.73	24.69	-27.7	-29.4	15.4	0.00e+00	0	44	0	1309671424	15	4394
2026-01-21 08:53:44.39	18.00	24.44	-27.8	-29.8	15.2	0.00e+00	0	44	0	1319108608	15	4515
2026-01-21 08:53:47.39	17.28	24.19	-27.6	-29.3	15.5	0.00e+00	0	44	0	1328545792	15	4365
2026-01-21 08:53:50.40	16.57	23.93	-27.5	-29.0	15.6	0.00e+00	0	44	0	1337982976	15	4283
2026-01-21 08:53:53.41	15.87	23.67	-27.9	-29.9	15.1	0.00e+00	0	44	0	1347420160	15	4542
2026-01-21 08:53:56.42	15.19	23.41	-28.2	-30.1	14.9	7.00e-07	0	44	0	1356857344	16	4473
2026-01-21 08:53:59.43	14.51	23.15	-27.5	-28.6	15.7	0.00e+00	0	44	0	1366294528	16	4057
2026-01-21 08:54:02.43	13.85	22.89	-27.6	-28.7	15.6	0.00e+00	0	44	0	1375731712	16	4079
2026-01-21 08:54:05.43	13.20	22.63	-27.4	-28.3	15.8	0.00e+00	0	44	0	1385168896	16	3985
2026-01-21 08:54:08.44	12.56	22.36	-27.4	-28.3	15.9	0.00e+00	0	44	0	1394606080	16	3984
2026-01-21 08:54:11.43	11.94	22.10	-27.6	-28.7	15.6	0.00e+00	0	44	0	1404043264	16	4099
2026-01-21 08:54:14.44	11.32	21.83	-27.7	-28.9	15.5	0.00e+00	0	44	0	1412431872	16	4162
2026-01-21 08:54:17.44	10.71	21.56	-27.7	-29.1	15.4	0.00e+00	0	44	0	1421869056	16	4199
2026-01-21 08:54:20.45	10.11	21.29	-27.6	-28.7	15.6	0.00e+00	0	44	0	1431306240	16	4084
2026-01-21 08:54:23.47	9.52	21.02	-27.6	-28.8	15.6	0.00e+00	0	44	0	1440743424	16	4116
2026-01-21 08:54:26.48	8.95	20.75	-27.8	-29.2	15.3	0.00e+00	0	44	0	1450180608	16	4221
2026-01-21 08:54:29.49	8.38	20.48	-28.1	-29.9	14.9	0.00e+00	0	44	0	1459617792	16	4418
2026-01-21 08:54:32.51	7.82	20.21	-27.9	-29.4	15.1	0.00e+00	0	44	0	1469054976	16	4301
2026-01-21 08:54:35.52	7.27	19.94	-27.6	-28.9	15.4	0.00e+00	0	44	0	1478492160	16	4136
2026-01-21 08:54:38.53	6.74	19.67	-27.3	-28.0	15.9	0.00e+00	0	44	0	1487929344	16	3922
2026-01-21 08:54:41.54	6.21	19.41	-27.0	-27.9	16.1	0.00e+00	0	44	0	1497366528	15	4009
2026-01-21 08:54:44.55	5.69	19.14	-27.4	-29.0	15.5	0.00e+00	0	44	0	1506803712	15	4280
2026-01-21 08:54:47.55	5.18	18.87	-27.8	-29.7	15.1	0.00e+00	0	44	0	1516240896	15	4486
2026-01-21 08:54:50.56	4.68	18.60	-27.7	-29.6	15.1	7.00e-07	0	44	0	1525678080	15	4476
2026-01-21 08:54:53.58	4.19	18.34	-27.8	-29.7	15.0	0.00e+00	0	44	0	1535115264	15	4508
2026-01-21 08:54:56.59	3.71	18.07	-28.2	-30.2	14.6	0.00e+00	0	44	0	1544552448	16	4524
2026-01-21 08:54:59.61	3.23	17.80	-28.2	-30.3	14.6	1.50e-06	0	44	0	1553989632	16	4544
2026-01-21 08:55:02.62	2.77	17.54	-28.2	-30.2	14.6	0.00e+00	0	44	0	1563426816	16	4520
2026-01-21 08:55:05.62	2.31	17.28	-28.2	-30.2	14.6	0.00e+00	0	44	0	1572864000	16	4518
2026-01-21 08:55:08.64	1.86	17.01	-28.0	-29.6	14.9	0.00e+00	0	44	0	1582301184	16	4362
2026-01-21 08:55:11.64	1.42	16.75	-28.2	-30.2	14.6	0.00e+00	0	44	0	1591738368	16	4517
2026-01-21 08:55:14.66	0.99	16.49	-28.4	-30.7	14.2	7.00e-07	0	44	0	1601175552	16	4685
2026-01-21 08:55:17.67	0.56	16.23	-28.4	-30.2	14.2	7.00e-07	0	44	0	1610612736	17	4425
2026-01-21 08:55:20.69	0.14	15.97	-28.2	-29.7	14.6	7.00e-07	0	44	0	1620049920	17	4264
2026-01-21 08:55:23.69	359.73	15.71	-28.0	-29.2	14.8	0.00e+00	0	44	0	1629487104	17	4131
2026-01-21 08:55:26.70	359.33	15.46	-28.1	-29.4	14.7	0.00e+00	0	44	0	1638924288	17	4201
2026-01-21 08:55:29.71	358.93	15.20	-28.3	-29.9	14.3	0.00e+00	0	44	0	1648361472	17	4346
2026-01-21 08:55:32.72	358.54	14.95	-28.4	-30.1	14.2	5.30e-06	0	44	0	1657798656	17	4393
2026-01-21 08:55:35.70	358.16	14.70	-28.2	-29.8	14.4	1.50e-06	0	44	0	1667235840	17	4314
2026-01-21 08:55:38.70	357.79	14.45	-28.0	-29.2	14.7	0.00e+00	0	44	0	1676673024	17	4143
2026-01-21 08:55:41.72	357.41	14.20	-27.9	-29.1	14.7	0.00e+00	0	44	0	1685061632	17	4123
2026-01-21 08:55:44.73	357.05	13.95	-28.0	-29.2	14.7	0.00e+00	0	44	0	1694498816	17	4144
2026-01-21 08:55:47.73	356.69	13.71	-28.2	-29.8	14.3	3.00e-06	0	44	0	1704984576	17	4300
2026-01-21 08:55:50.73	356.34	13.46	-28.6	-30.6	13.8	3.00e-06	0	44	0	1713373184	17	4546
2026-01-21 08:55:53.74	356.00	13.22	-28.7	-31.1	13.5	7.60e-06	0	44	0	1722810368	17	4695
2026-01-21 08:55:56.77	355.65	12.97	-28.6	-30.6	13.8	6.10e-06	0	44	0	1732247552	17	4563
2026-01-21 08:55:59.78	355.32	12.73	-28.5	-30.4	13.9	5.30e-06	0	44	0	1741684736	17	4491
2026-01-21 08:56:02.79	354.99	12.49	-28.5	-30.4	13.9	4.50e-06	0	44	0	1751121920	17	4501
2026-01-21 08:56:05.80	354.67	12.25	-28.5	-30.5	13.8	6.10e-06	0	44	0	1760559104	17	4520
2026-01-21 08:56:08.81	354.35	12.02	-28.8	-31.2	13.3	1.52e-05	0	44	0	1769996288	17	4757
2026-01-21 08:56:11.82	354.04	11.78	-29.0	-31.6	13.1	2.28e-05	0	44	0	1779433472	17	4902
2026-01-21 08:56:14.84	353.73	11.55	-29.2	-31.6	12.8	5.18e-05	0	44	0	1788870656	18	4767
2026-01-21 08:56:17.85	353.43	11.31	-29.2	-31.8	12.7	7.62e-05	0	44	0	1798307840	18	4829
2026-01-21 08:56:20.86	353.13	11.08	-29.0	-31.2	13.0	2.89e-05	0	44	0	1807745024	18	4637
2026-01-21 08:56:23.87	352.84	10.85	-29.1	-31.4	12.9	3.96e-05	0	44	0	1817182208	18	4704
2026-01-21 08:56:26.88	352.55	10.62	-28.8	-30.6	13.4	2.21e-05	0	44	0	1826619392	18	4464
2026-01-21 08:56:29.89	352.27	10.40	-28.8	-30.8	13.3	1.67e-05	0	44	0	1836056576	18	4504
2026-01-21 08:56:32.92	351.98	10.17	-29.1	-31.4	12.8	4.34e-05	0	44	0	1845493760	18	4723
2026-01-21 08:56:35.93	351.71	9.95	-29.3	-32.1	12.4	1.41e-04	0	44	0	1854930944	18	4936
2026-01-21 08:56:38.93	351.44	9.72	-29.5	-32.1	12.0	3.18e-04	0	44	0	1864368128	19	4836
2026-01-21 08:56:41.94	351.18	9.50	-29.7	-32.5	11.7	5.06e-04	0	44	0	1873805312	19	4981
2026-01-21 08:56:44.95	350.91	9.28	-29.7	-32.6	11.6	7.25e-04	0	44	0	1883242496	19	5023
2026-01-21 08:56:47.95	350.66	9.06	-29.4	-31.9	12.1	2.86e-04	0	44	0	1892679680	19	4766
2026-01-21 08:56:50.97	350.40	8.84	-29.4	-31.7	12.2	2.08e-04	0	44	0	1902116864	19	4700
2026-01-21 08:56:53.98	350.15	8.63	-29.0	-30.9	12.7	9.68e-05	0	44	0	1911554048	19	4452
2026-01-21 08:56:56.98	349.91	8.41	-29.1	-30.9	12.6	7.93e-05	0	44	0	1920991232	19	4460
2026-01-21 08:56:59.99	349.67	8.20	-29.1	-31.1	12.5	1.06e-04	0	44	0	1930428416	19	4507
2026-01-21 08:57:03.00	349.43	7.99	-29.2	-31.4	12.3	1.88e-04	0	44	0	1939865600	19	4635
2026-01-21 08:57:06.01	349.19	7.78	-29.5	-32.0	11.9	4.37e-04	0	44	0	1949302784	19	4835
2026-01-21 08:57:09.01	348.96	7.57	-29.5	-32.2	11.7	5.16e-04	0	44	0	1958739968	19	4911
2026-01-21 08:57:12.03	348.73	7.36	-29.5	-32.1	11.7	5.52e-04	0	44	0	1968177152	19	4879
2026-01-21 08:57:15.03	348.51	7.15	-29.8	-32.8	11.2	1.12e-03	0	44	0	1977614336	19	5136

#Closed at: 2026-01-21 08:57:17
#Recorded file [1981 MB]: D:/data/31010_260121_114642.dat