passes_logs/2026/01/20/PlanumMoscow/PlanumMoscow__20260120_012833_METEOR-M2_4_rec.log

#Pass ID: 20260120_012833_METEOR-M2 4
#Satellite: METEOR-M2 4
#Configuration: METEOR-M2 4
#Start time: 2026-01-20 01:28:38.454868

#LorettStation: 1.0.0 05.05.2024
#Station: PlanumMoscow
#Location: 37.6253844 lon 55.6713361 lat
#TLE: 1 59051U 24039A   25293.94737965  .00000087  00000+0  58459-4 0  9998
#TLE: 2 59051  98.6671 251.7071 0007726 135.4772 224.7028 14.22388966 85257

#Time	Az	El	Level	SNR
2026-01-20 01:32:16.917512	2.7	28.4	-54.8	0.0
2026-01-20 01:32:19.162531	2.4	28.8	-55.2	0.0
2026-01-20 01:32:21.406080	2.2	29.2	-55.5	0.0
2026-01-20 01:32:23.649108	1.9	29.6	-55.4	0.0
2026-01-20 01:32:25.892160	1.6	30.0	-55.4	0.0
2026-01-20 01:32:28.135188	1.3	30.4	-55.2	0.0
2026-01-20 01:32:30.378755	1.1	30.8	-55.3	0.0
2026-01-20 01:32:32.622773	0.8	31.2	-55.3	0.0
2026-01-20 01:32:34.867309	0.5	31.6	-55.4	0.0
2026-01-20 01:32:37.110857	0.2	32.0	-55.3	0.0
2026-01-20 01:32:39.354868	359.9	32.5	-55.4	0.0
2026-01-20 01:32:41.598888	359.5	32.9	-55.8	0.0
2026-01-20 01:32:43.841451	359.2	33.3	-56.1	0.0
2026-01-20 01:32:46.083479	358.9	33.8	-56.1	0.0
2026-01-20 01:32:48.330013	358.5	34.2	-56.0	0.0
2026-01-20 01:32:50.573084	358.1	34.7	-56.0	0.0
2026-01-20 01:32:52.816120	357.8	35.1	-56.2	0.0
2026-01-20 01:32:55.060174	357.4	35.6	-56.2	0.0
2026-01-20 01:32:57.304681	357.0	36.1	-56.3	0.0
2026-01-20 01:32:59.548692	356.6	36.6	-57.0	0.0
2026-01-20 01:33:01.791288	356.2	37.0	-57.0	0.0
2026-01-20 01:33:04.038318	355.7	37.5	-56.7	0.0
2026-01-20 01:33:06.281866	355.3	38.0	-56.7	0.6
2026-01-20 01:33:08.526404	354.8	38.5	-56.9	0.0
2026-01-20 01:33:10.770950	354.3	39.0	-57.2	0.2
2026-01-20 01:33:13.014961	353.9	39.5	-57.1	0.2
2026-01-20 01:33:15.259477	353.3	40.1	-57.2	0.2
2026-01-20 01:33:17.503520	352.8	40.6	-57.5	0.1
2026-01-20 01:33:19.747541	352.3	41.1	-57.7	1.4
2026-01-20 01:33:21.991576	351.7	41.6	-57.7	0.8
2026-01-20 01:33:24.236596	351.1	42.2	-57.8	0.0
2026-01-20 01:33:26.480638	350.6	42.7	-57.8	1.4
2026-01-20 01:33:28.725154	349.9	43.2	-57.9	1.7
2026-01-20 01:33:30.969661	349.3	43.8	-58.0	2.1
2026-01-20 01:33:33.214192	348.6	44.3	-58.1	1.6
2026-01-20 01:33:35.457718	347.9	44.9	-58.2	2.2
2026-01-20 01:33:37.701761	347.2	45.4	-58.1	0.8
2026-01-20 01:33:39.945781	346.5	46.0	-58.4	1.1
2026-01-20 01:33:42.188334	345.7	46.6	-58.8	1.2
2026-01-20 01:33:44.431849	344.9	47.1	-58.9	1.5
2026-01-20 01:33:46.677356	344.1	47.7	-58.9	0.5
2026-01-20 01:33:48.921399	343.3	48.3	-58.8	1.6
2026-01-20 01:33:51.165926	342.4	48.8	-58.9	1.9
2026-01-20 01:33:53.409968	341.5	49.4	-59.0	1.7
2026-01-20 01:33:55.653996	340.5	49.9	-59.0	2.0
2026-01-20 01:33:57.900556	339.5	50.5	-59.6	1.7
2026-01-20 01:34:00.145569	338.5	51.1	-59.6	2.1
2026-01-20 01:34:02.390076	337.4	51.6	-59.3	1.2
2026-01-20 01:34:04.634087	336.3	52.2	-59.3	1.8
2026-01-20 01:34:06.878105	335.2	52.7	-59.3	2.2
2026-01-20 01:34:09.123160	334.0	53.3	-59.4	1.5
2026-01-20 01:34:11.367676	332.8	53.8	-59.5	1.8
2026-01-20 01:34:13.611718	331.5	54.3	-59.3	1.1
2026-01-20 01:34:15.855242	330.1	54.8	-59.3	1.0
2026-01-20 01:34:18.099749	328.8	55.3	-59.4	1.2
2026-01-20 01:34:20.344298	327.3	55.8	-59.5	1.2
2026-01-20 01:34:22.588813	325.8	56.3	-59.5	1.5
2026-01-20 01:34:24.833359	324.3	56.8	-59.4	0.1
2026-01-20 01:34:27.077371	322.7	57.2	-59.3	0.4
2026-01-20 01:34:29.321423	321.1	57.6	-59.3	0.0
2026-01-20 01:34:31.570444	319.4	58.1	-59.4	0.0
2026-01-20 01:34:33.814991	317.7	58.4	-59.4	0.0
2026-01-20 01:34:36.059506	315.9	58.8	-59.1	0.0
2026-01-20 01:34:38.304013	314.0	59.1	-59.3	0.0
2026-01-20 01:34:40.547571	312.2	59.5	-59.8	0.0
2026-01-20 01:34:42.792087	310.2	59.7	-60.0	0.0
2026-01-20 01:34:45.035633	308.3	60.0	-60.0	0.0
2026-01-20 01:34:47.279157	306.2	60.2	-59.9	0.0
2026-01-20 01:34:49.523193	304.2	60.4	-60.0	0.0
2026-01-20 01:34:51.767708	302.1	60.6	-60.2	0.0
2026-01-20 01:34:54.011719	300.0	60.7	-60.0	0.0
2026-01-20 01:34:56.256265	297.9	60.8	-60.4	0.0
2026-01-20 01:34:58.500781	295.8	60.9	-60.8	0.4
2026-01-20 01:35:00.744823	293.7	60.9	-60.7	1.0
2026-01-20 01:35:02.988842	291.5	60.9	-60.5	0.5
2026-01-20 01:35:05.232909	289.4	60.8	-60.5	1.9
2026-01-20 01:35:07.477425	287.3	60.8	-60.6	2.2
2026-01-20 01:35:09.720966	285.2	60.6	-61.2	1.6
2026-01-20 01:35:11.964986	283.1	60.5	-60.9	0.7
2026-01-20 01:35:14.209493	281.0	60.3	-61.2	0.5
2026-01-20 01:35:16.452562	279.0	60.1	-61.5	1.6
2026-01-20 01:35:18.701583	277.0	59.9	-61.7	2.6
2026-01-20 01:35:20.945634	275.1	59.6	-61.7	3.5
2026-01-20 01:35:23.189645	273.2	59.3	-61.7	3.8
2026-01-20 01:35:25.433188	271.3	59.0	-61.7	4.0
2026-01-20 01:35:27.678209	269.5	58.6	-61.9	3.6
2026-01-20 01:35:29.922244	267.7	58.2	-62.1	3.4
2026-01-20 01:35:32.166750	266.0	57.8	-62.3	2.8
2026-01-20 01:35:34.411266	264.4	57.4	-62.2	2.3
2026-01-20 01:35:36.655812	262.7	57.0	-62.2	2.9
2026-01-20 01:35:38.900368	261.2	56.5	-62.6	3.2
2026-01-20 01:35:41.144874	259.7	56.0	-62.4	3.2
2026-01-20 01:35:43.388895	258.2	55.5	-62.7	4.3
2026-01-20 01:35:45.632442	256.8	55.0	-62.6	4.6
2026-01-20 01:35:47.876957	255.5	54.5	-62.6	4.7
2026-01-20 01:35:50.119977	254.1	54.0	-62.5	4.3
2026-01-20 01:35:52.363530	252.9	53.5	-62.9	3.9
2026-01-20 01:35:54.606586	251.7	52.9	-63.0	4.1
2026-01-20 01:35:56.851143	250.5	52.4	-63.9	4.8
2026-01-20 01:35:59.095164	249.4	51.8	-63.7	3.2
2026-01-20 01:36:01.338730	248.3	51.3	-63.8	4.7
2026-01-20 01:36:03.583245	247.2	50.7	-63.2	5.3
2026-01-20 01:36:05.828752	246.2	50.2	-64.0	5.5
2026-01-20 01:36:08.073302	245.3	49.6	-64.4	5.6
2026-01-20 01:36:10.322818	244.3	49.0	-64.0	7.3
2026-01-20 01:36:12.566879	243.4	48.5	-64.0	6.7
2026-01-20 01:36:14.810923	242.6	47.9	-64.4	6.8
2026-01-20 01:36:17.055429	241.7	47.3	-64.7	7.5
2026-01-20 01:36:19.300945	240.9	46.8	-65.2	6.2
2026-01-20 01:36:21.544956	240.1	46.2	-65.5	7.5
2026-01-20 01:36:23.788023	239.4	45.6	-64.9	6.9
2026-01-20 01:36:26.032043	238.7	45.1	-64.9	8.5
2026-01-20 01:36:28.276095	238.0	44.5	-65.4	8.1
2026-01-20 01:36:30.520115	237.3	44.0	-64.5	7.1
2026-01-20 01:36:32.764158	236.6	43.4	-65.0	8.9
2026-01-20 01:36:35.008666	236.0	42.9	-65.3	7.3
2026-01-20 01:36:37.252709	235.4	42.3	-65.5	9.0
2026-01-20 01:36:39.496233	234.8	41.8	-65.3	9.0
2026-01-20 01:36:41.740740	234.2	41.2	-65.0	10.2
2026-01-20 01:36:43.984297	233.7	40.7	-64.9	10.0
2026-01-20 01:36:46.227820	233.2	40.2	-64.8	9.1
2026-01-20 01:36:48.471872	232.6	39.7	-63.8	6.6
2026-01-20 01:36:50.716388	232.1	39.1	-64.3	9.1
2026-01-20 01:36:52.960422	231.7	38.6	-65.0	10.5
2026-01-20 01:36:55.204935	231.2	38.1	-63.9	8.5
2026-01-20 01:36:57.450443	230.7	37.6	-65.3	11.0
2026-01-20 01:36:59.693982	230.3	37.1	-64.7	10.9
2026-01-20 01:37:01.938498	229.9	36.7	-64.9	10.7
2026-01-20 01:37:04.183549	229.4	36.2	-64.6	10.4
2026-01-20 01:37:06.427561	229.0	35.7	-64.6	9.4
2026-01-20 01:37:08.672116	228.7	35.2	-64.4	11.5
2026-01-20 01:37:10.916631	228.3	34.8	-64.3	9.2
2026-01-20 01:37:13.161138	227.9	34.3	-63.2	7.0
2026-01-20 01:37:15.405686	227.5	33.8	-64.9	11.7
2026-01-20 01:37:17.649705	227.2	33.4	-63.5	9.9
2026-01-20 01:37:19.893262	226.9	32.9	-63.2	9.8
2026-01-20 01:37:22.137768	226.5	32.5	-63.8	9.8
2026-01-20 01:37:24.381315	226.2	32.1	-64.0	9.9
2026-01-20 01:37:26.625831	225.9	31.6	-63.9	10.6
2026-01-20 01:37:28.872851	225.6	31.2	-63.3	10.9
2026-01-20 01:37:31.119398	225.3	30.8	-63.7	10.4
2026-01-20 01:37:33.363914	225.0	30.4	-64.0	10.2
2026-01-20 01:37:35.607963	224.7	30.0	-63.5	9.1
2026-01-20 01:37:37.851983	224.5	29.6	-64.5	10.5
2026-01-20 01:37:40.095520	224.2	29.2	-63.2	9.2
2026-01-20 01:37:42.340027	223.9	28.8	-63.9	10.4
2026-01-20 01:37:44.586543	223.7	28.4	-63.6	9.7
2026-01-20 01:37:46.831097	223.4	28.0	-64.4	10.8
2026-01-20 01:37:49.075612	223.2	27.6	-63.8	10.0
2026-01-20 01:37:51.321626	222.9	27.3	-63.8	10.5
2026-01-20 01:37:53.566679	222.7	26.9	-64.5	10.9
2026-01-20 01:37:55.810690	222.5	26.5	-64.4	9.6
2026-01-20 01:37:58.055227	222.3	26.2	-65.0	11.1
2026-01-20 01:38:00.299244	222.1	25.8	-64.6	10.7
2026-01-20 01:38:02.542294	221.8	25.5	-63.7	9.2
2026-01-20 01:38:04.786801	221.6	25.1	-64.9	10.6
2026-01-20 01:38:07.034331	221.4	24.8	-64.6	10.0
2026-01-20 01:38:09.279373	221.2	24.4	-64.3	10.4
2026-01-20 01:38:11.523393	221.1	24.1	-64.0	10.0
2026-01-20 01:38:13.767900	220.9	23.7	-64.9	10.1
2026-01-20 01:38:16.012959	220.7	23.4	-64.4	9.8
2026-01-20 01:38:18.257474	220.5	23.1	-64.0	9.4
2026-01-20 01:38:20.501525	220.3	22.8	-64.1	8.5
2026-01-20 01:38:22.746050	220.2	22.5	-63.8	8.2
2026-01-20 01:38:24.995591	220.0	22.1	-63.6	7.8
2026-01-20 01:38:27.240097	219.8	21.8	-63.7	8.0
2026-01-20 01:38:29.483639	219.7	21.5	-63.6	8.2
2026-01-20 01:38:31.749706	219.5	21.2	-63.5	8.1
2026-01-20 01:38:33.994213	219.3	20.9	-63.5	7.4
2026-01-20 01:38:36.255262	219.2	20.6	-63.4	7.9
2026-01-20 01:38:38.504769	219.0	20.3	-63.7	7.7
2026-01-20 01:38:40.747840	218.9	20.0	-63.7	7.2
2026-01-20 01:38:42.991355	218.7	19.8	-63.6	7.2
2026-01-20 01:38:45.239390	218.6	19.5	-63.4	7.6
2026-01-20 01:38:47.483441	218.5	19.2	-63.4	7.1
2026-01-20 01:38:49.726965	218.3	18.9	-63.6	7.7
2026-01-20 01:38:51.970506	218.2	18.6	-63.8	7.6
2026-01-20 01:38:54.213534	218.1	18.4	-63.6	7.4
2026-01-20 01:38:56.456572	217.9	18.1	-64.1	7.6
2026-01-20 01:38:58.698136	217.8	17.8	-64.0	7.5
2026-01-20 01:39:00.941194	217.7	17.6	-64.1	7.8
2026-01-20 01:39:03.185750	217.6	17.3	-64.0	7.6
2026-01-20 01:39:05.429761	217.5	17.1	-64.2	7.6
2026-01-20 01:39:07.671789	217.3	16.8	-64.2	7.2
2026-01-20 01:39:09.914323	217.2	16.5	-64.5	8.2
2026-01-20 01:39:12.157845	217.1	16.3	-64.8	7.8
2026-01-20 01:39:14.402393	217.0	16.0	-65.2	8.5
2026-01-20 01:39:16.645918	216.9	15.8	-65.1	8.6
2026-01-20 01:39:18.889434	216.8	15.6	-65.4	8.8
2026-01-20 01:39:21.134504	216.7	15.3	-65.6	9.0
2026-01-20 01:39:23.378571	216.6	15.1	-65.8	9.3
2026-01-20 01:39:25.620104	216.5	14.8	-66.0	9.4
2026-01-20 01:39:27.863667	216.4	14.6	-66.0	10.2
2026-01-20 01:39:30.107678	216.3	14.4	-66.1	9.3
2026-01-20 01:39:32.352195	216.2	14.1	-66.9	10.3
2026-01-20 01:39:34.596215	216.1	13.9	-66.8	10.5
2026-01-20 01:39:36.839739	216.0	13.7	-66.4	10.4
2026-01-20 01:39:39.084255	215.9	13.5	-66.9	11.2
2026-01-20 01:39:41.327276	215.8	13.2	-66.6	10.0
2026-01-20 01:39:43.570791	215.7	13.0	-66.6	10.1
2026-01-20 01:39:45.813810	215.6	12.8	-66.5	10.1
2026-01-20 01:39:48.057326	215.5	12.6	-66.3	10.1
2026-01-20 01:39:50.300344	215.4	12.4	-66.7	10.7
2026-01-20 01:39:52.543860	215.4	12.2	-66.7	10.7
2026-01-20 01:39:54.787872	215.3	12.0	-66.8	10.0
2026-01-20 01:39:57.030893	215.2	11.7	-66.8	9.8
2026-01-20 01:39:59.274904	215.1	11.5	-67.0	10.6
2026-01-20 01:40:01.514419	215.0	11.3	-66.9	10.8
2026-01-20 01:40:03.754925	215.0	11.1	-67.0	10.6
2026-01-20 01:40:05.991943	214.9	10.9	-67.1	11.0
2026-01-20 01:40:08.231457	214.8	10.7	-67.0	10.3
2026-01-20 01:40:10.469963	214.7	10.5	-67.4	11.0
2026-01-20 01:40:12.708496	214.7	10.3	-67.6	11.3
2026-01-20 01:40:14.946506	214.6	10.1	-67.0	9.6
2026-01-20 01:40:17.182019	214.5	9.9	-67.7	11.2
2026-01-20 01:40:19.423533	214.5	9.7	-67.3	11.1
2026-01-20 01:40:21.661047	214.4	9.6	-67.5	10.4
2026-01-20 01:40:23.902057	214.3	9.4	-67.5	10.5
2026-01-20 01:40:26.143077	214.2	9.2	-67.1	9.5
2026-01-20 01:40:28.385088	214.2	9.0	-67.2	9.0
2026-01-20 01:40:30.624118	214.1	8.8	-66.8	8.6
2026-01-20 01:40:32.866639	214.1	8.6	-66.3	8.1
2026-01-20 01:40:35.105145	214.0	8.4	-66.4	7.7
2026-01-20 01:40:37.348155	213.9	8.3	-66.0	8.0
2026-01-20 01:40:39.591680	213.9	8.1	-66.1	6.9
2026-01-20 01:40:41.835691	213.8	7.9	-65.7	5.9
2026-01-20 01:40:44.077719	213.7	7.7	-65.5	6.1
2026-01-20 01:40:46.318243	213.7	7.5	-65.0	5.5
2026-01-20 01:40:48.558757	213.6	7.4	-65.1	4.9
2026-01-20 01:40:50.801264	213.6	7.2	-65.3	4.9
2026-01-20 01:40:53.045275	213.5	7.0	-65.2	5.0
2026-01-20 01:40:55.289286	213.4	6.8	-64.9	4.5
2026-01-20 01:40:57.527306	213.4	6.7	-64.6	4.8
2026-01-20 01:40:59.764821	213.3	6.5	-64.7	4.8
2026-01-20 01:41:02.003839	213.3	6.3	-64.7	3.7
2026-01-20 01:41:04.246354	213.2	6.2	-64.6	3.8
2026-01-20 01:41:06.493888	213.2	6.0	-64.8	4.4
2026-01-20 01:41:08.737407	213.1	5.8	-69.5	2.5
2026-01-20 01:41:10.977417	213.1	5.7	-69.5	0.0
2026-01-20 01:41:13.220428	213.0	5.5	-69.5	0.0
2026-01-20 01:41:15.460934	213.0	5.3	-70.5	0.0
2026-01-20 01:41:17.702457	212.9	5.2	-67.7	0.0
2026-01-20 01:41:19.941971	212.9	5.0	-66.9	0.0
#Closed at: 2026-01-20 01:28:33.455669