passes_logs/2026/01/20/PlanumMoscow/PlanumMoscow__20260120_111748_METEOR-M2_4_rec.log

#Pass ID: 20260120_111748_METEOR-M2 4
#Satellite: METEOR-M2 4
#Configuration: METEOR-M2 4
#Start time: 2026-01-20 11:17:53.156331

#LorettStation: 1.0.0 05.05.2024
#Station: PlanumMoscow
#Location: 37.6253844 lon 55.6713361 lat
#TLE: 1 59051U 24039A   25293.94737965  .00000087  00000+0  58459-4 0  9998
#TLE: 2 59051  98.6671 251.7071 0007726 135.4772 224.7028 14.22388966 85257

#Time	Az	El	Level	SNR
2026-01-20 11:21:31.557754	160.7	29.8	-64.3	13.0
2026-01-20 11:21:33.802269	160.7	30.2	-64.4	13.2
2026-01-20 11:21:36.046281	160.7	30.6	-64.7	13.7
2026-01-20 11:21:38.289300	160.6	31.1	-65.0	13.6
2026-01-20 11:21:40.534817	160.6	31.5	-65.5	14.3
2026-01-20 11:21:42.780837	160.6	32.0	-64.6	12.9
2026-01-20 11:21:45.024352	160.6	32.5	-65.0	13.6
2026-01-20 11:21:47.268859	160.6	32.9	-65.2	14.0
2026-01-20 11:21:49.512871	160.6	33.4	-64.9	12.5
2026-01-20 11:21:51.758395	160.6	33.9	-65.2	14.0
2026-01-20 11:21:54.001415	160.6	34.4	-64.9	13.9
2026-01-20 11:21:56.245426	160.6	34.9	-65.2	13.5
2026-01-20 11:21:58.487958	160.6	35.4	-65.1	13.5
2026-01-20 11:22:00.731474	160.6	35.9	-65.1	13.4
2026-01-20 11:22:02.974493	160.6	36.5	-65.2	13.9
2026-01-20 11:22:05.216521	160.5	37.0	-65.1	13.4
2026-01-20 11:22:07.458548	160.5	37.6	-65.4	14.0
2026-01-20 11:22:09.702559	160.5	38.1	-65.5	13.0
2026-01-20 11:22:11.946570	160.5	38.7	-65.4	14.9
2026-01-20 11:22:14.190581	160.5	39.3	-65.2	13.5
2026-01-20 11:22:16.437617	160.5	39.8	-65.5	14.7
2026-01-20 11:22:18.680139	160.5	40.4	-65.5	13.4
2026-01-20 11:22:20.926647	160.4	41.0	-65.7	13.2
2026-01-20 11:22:23.169170	160.4	41.7	-65.3	13.1
2026-01-20 11:22:25.412693	160.4	42.3	-65.2	12.2
2026-01-20 11:22:27.656705	160.4	42.9	-65.7	13.3
2026-01-20 11:22:29.899724	160.4	43.6	-65.9	13.1
2026-01-20 11:22:32.142745	160.3	44.2	-65.4	12.1
2026-01-20 11:22:34.387252	160.3	44.9	-66.1	13.6
2026-01-20 11:22:36.635777	160.3	45.6	-66.1	13.8
2026-01-20 11:22:38.881293	160.3	46.3	-66.0	12.8
2026-01-20 11:22:41.125809	160.2	47.0	-66.7	13.6
2026-01-20 11:22:43.370333	160.2	47.7	-66.1	12.5
2026-01-20 11:22:45.614353	160.2	48.4	-66.4	12.6
2026-01-20 11:22:47.858364	160.1	49.2	-66.5	12.8
2026-01-20 11:22:50.102376	160.1	49.9	-66.6	12.3
2026-01-20 11:22:52.346388	160.1	50.7	-67.0	12.1
2026-01-20 11:22:54.590895	160.0	51.5	-67.0	12.4
2026-01-20 11:22:56.834906	160.0	52.3	-67.1	11.8
2026-01-20 11:22:59.078918	159.9	53.1	-67.3	11.0
2026-01-20 11:23:01.322433	159.9	53.9	-67.4	10.8
2026-01-20 11:23:03.563965	159.8	54.7	-67.3	9.4
2026-01-20 11:23:05.808481	159.8	55.6	-67.5	10.3
2026-01-20 11:23:08.051996	159.7	56.5	-67.5	9.3
2026-01-20 11:23:10.296503	159.7	57.3	-67.8	8.9
2026-01-20 11:23:12.542020	159.6	58.2	-67.9	9.1
2026-01-20 11:23:14.785041	159.5	59.1	-67.8	8.7
2026-01-20 11:23:17.029052	159.4	60.0	-67.7	10.1
2026-01-20 11:23:19.272566	159.4	61.0	-67.8	10.8
2026-01-20 11:23:21.515584	159.3	61.9	-67.8	11.1
2026-01-20 11:23:23.759100	159.2	62.9	-66.9	10.0
2026-01-20 11:23:26.003617	159.1	63.8	-66.8	11.1
2026-01-20 11:23:28.246636	158.9	64.8	-67.0	11.1
2026-01-20 11:23:30.490152	158.8	65.8	-67.7	10.8
2026-01-20 11:23:32.733171	158.7	66.8	-67.6	9.8
2026-01-20 11:23:34.977678	158.5	67.8	-67.7	10.2
2026-01-20 11:23:37.221203	158.3	68.9	-67.5	10.7
2026-01-20 11:23:39.465710	158.1	69.9	-67.4	12.0
2026-01-20 11:23:41.708737	157.9	71.0	-67.7	12.2
2026-01-20 11:23:43.951260	157.7	72.0	-66.8	12.5
2026-01-20 11:23:46.198785	157.4	73.1	-67.4	13.5
2026-01-20 11:23:48.441804	157.0	74.2	-66.9	12.2
2026-01-20 11:23:50.685816	156.7	75.3	-66.8	12.1
2026-01-20 11:23:52.928339	156.2	76.4	-67.2	12.7
2026-01-20 11:23:55.170875	155.7	77.5	-66.8	11.8
2026-01-20 11:23:57.414885	155.1	78.6	-67.0	11.6
2026-01-20 11:23:59.657907	154.3	79.7	-67.4	11.1
2026-01-20 11:24:01.901919	153.3	80.8	-67.3	10.3
2026-01-20 11:24:04.146435	152.1	82.0	-67.0	9.7
2026-01-20 11:24:06.390446	150.4	83.1	-67.0	10.2
2026-01-20 11:24:08.634953	148.1	84.2	-67.1	11.0
2026-01-20 11:24:10.880477	144.6	85.3	-66.3	11.3
2026-01-20 11:24:13.123992	139.0	86.4	-66.3	12.2
2026-01-20 11:24:15.366524	128.8	87.4	-66.1	11.0
2026-01-20 11:24:17.610534	106.9	88.3	-66.2	11.0
2026-01-20 11:24:19.854562	64.7	88.6	-65.9	9.4
2026-01-20 11:24:22.097087	28.4	88.1	-65.9	10.5
2026-01-20 11:24:24.342098	11.4	87.1	-65.6	11.1
2026-01-20 11:24:26.585118	3.1	86.1	-65.8	11.4
2026-01-20 11:24:28.829634	358.4	85.0	-66.0	12.9
2026-01-20 11:24:31.073645	355.4	83.9	-65.4	11.1
2026-01-20 11:24:33.317161	353.3	82.7	-65.7	10.2
2026-01-20 11:24:35.562676	351.8	81.6	-65.5	9.9
2026-01-20 11:24:37.807183	350.6	80.5	-65.9	10.6
2026-01-20 11:24:40.051194	349.7	79.4	-66.7	10.4
2026-01-20 11:24:42.295205	349.0	78.2	-66.7	9.7
2026-01-20 11:24:44.540226	348.4	77.1	-65.8	8.7
2026-01-20 11:24:46.784733	347.9	76.0	-65.2	9.2
2026-01-20 11:24:49.027761	347.5	74.9	-65.6	10.2
2026-01-20 11:24:51.272791	347.1	73.8	-65.3	9.3
2026-01-20 11:24:53.515810	346.8	72.8	-65.4	9.9
2026-01-20 11:24:55.760317	346.5	71.7	-64.8	7.5
2026-01-20 11:24:58.003345	346.3	70.6	-64.8	7.3
2026-01-20 11:25:00.248366	346.1	69.6	-64.6	6.5
2026-01-20 11:25:02.491881	345.9	68.6	-64.4	4.5
2026-01-20 11:25:04.730394	345.7	67.5	-64.8	5.0
2026-01-20 11:25:06.969413	345.6	66.5	-65.8	8.2
2026-01-20 11:25:09.206927	345.4	65.5	-64.6	5.4
2026-01-20 11:25:11.444432	345.3	64.5	-64.8	6.1
2026-01-20 11:25:13.686955	345.2	63.6	-64.2	6.3
2026-01-20 11:25:15.930975	345.1	62.6	-64.3	4.8
2026-01-20 11:25:18.173985	345.0	61.7	-64.2	5.9
2026-01-20 11:25:20.417501	344.9	60.7	-66.1	7.2
2026-01-20 11:25:22.661021	344.8	59.8	-65.7	6.1
2026-01-20 11:25:24.904537	344.7	58.9	-65.5	5.7
2026-01-20 11:25:27.147556	344.7	58.0	-65.5	5.0
2026-01-20 11:25:29.391063	344.6	57.1	-65.8	6.8
2026-01-20 11:25:31.631073	344.5	56.3	-65.6	5.2
2026-01-20 11:25:33.870083	344.5	55.4	-65.1	5.6
2026-01-20 11:25:36.109101	344.4	54.6	-64.9	4.4
2026-01-20 11:25:38.347615	344.4	53.7	-65.7	5.7
2026-01-20 11:25:40.590642	344.3	52.9	-65.8	5.8
2026-01-20 11:25:42.831148	344.3	52.1	-66.1	6.2
2026-01-20 11:25:45.072158	344.2	51.3	-65.6	4.8
2026-01-20 11:25:47.309186	344.2	50.6	-65.8	4.6
2026-01-20 11:25:49.552212	344.2	49.8	-66.0	6.7
2026-01-20 11:25:51.796223	344.1	49.0	-65.7	4.8
2026-01-20 11:25:54.032737	344.1	48.3	-65.5	4.7
2026-01-20 11:25:56.269746	344.1	47.6	-64.7	4.8
2026-01-20 11:25:58.507756	344.1	46.9	-64.7	5.1
2026-01-20 11:26:00.747766	344.0	46.2	-66.0	8.1
2026-01-20 11:26:02.986279	344.0	45.5	-65.6	5.1
2026-01-20 11:26:05.225307	344.0	44.8	-64.9	5.9
2026-01-20 11:26:07.463820	344.0	44.2	-65.5	8.4
2026-01-20 11:26:09.704831	343.9	43.5	-64.3	6.4
2026-01-20 11:26:11.943849	343.9	42.9	-64.4	8.6
2026-01-20 11:26:14.183370	343.9	42.2	-64.5	7.9
2026-01-20 11:26:16.421876	343.9	41.6	-64.2	7.8
2026-01-20 11:26:18.661390	343.9	41.0	-64.2	8.0
2026-01-20 11:26:20.904408	343.8	40.4	-63.4	5.8
2026-01-20 11:26:23.141418	343.8	39.8	-64.2	7.8
2026-01-20 11:26:25.379932	343.8	39.2	-63.4	6.3
2026-01-20 11:26:27.620438	343.8	38.6	-63.5	7.4
2026-01-20 11:26:29.861460	343.8	38.1	-63.1	6.2
2026-01-20 11:26:32.100488	343.8	37.5	-63.4	6.6
2026-01-20 11:26:34.339011	343.8	37.0	-63.1	6.7
2026-01-20 11:26:36.582030	343.8	36.5	-63.9	6.7
2026-01-20 11:26:38.822536	343.7	35.9	-63.3	6.6
2026-01-20 11:26:41.066059	343.7	35.4	-65.2	8.3
2026-01-20 11:26:43.310078	343.7	34.9	-63.7	7.1
2026-01-20 11:26:45.553592	343.7	34.4	-64.2	8.6
2026-01-20 11:26:47.798117	343.7	33.9	-63.5	7.2
2026-01-20 11:26:50.043128	343.7	33.4	-64.0	7.0
2026-01-20 11:26:52.287138	343.7	32.9	-62.9	5.8
2026-01-20 11:26:54.528149	343.7	32.5	-64.1	6.9
2026-01-20 11:26:56.771672	343.7	32.0	-64.3	8.6
2026-01-20 11:26:59.009681	343.7	31.6	-63.3	7.0
2026-01-20 11:27:01.248699	343.7	31.1	-64.1	8.4
2026-01-20 11:27:03.492222	343.7	30.7	-64.4	8.7
2026-01-20 11:27:05.729735	343.7	30.2	-62.9	5.9
2026-01-20 11:27:07.968752	343.7	29.8	-63.7	7.2
2026-01-20 11:27:10.210267	343.6	29.4	-62.8	6.7
2026-01-20 11:27:12.449294	343.6	29.0	-63.9	9.0
2026-01-20 11:27:14.686808	343.6	28.6	-62.6	5.8
2026-01-20 11:27:16.923817	343.6	28.2	-63.8	9.0
2026-01-20 11:27:19.165334	343.6	27.8	-64.2	8.0
2026-01-20 11:27:21.404343	343.6	27.4	-63.2	7.6
2026-01-20 11:27:23.642858	343.6	27.0	-63.9	7.1
2026-01-20 11:27:25.880380	343.6	26.6	-64.2	7.8
2026-01-20 11:27:28.119389	343.6	26.2	-64.8	10.1
2026-01-20 11:27:30.359399	343.6	25.9	-63.5	9.7
2026-01-20 11:27:32.601913	343.6	25.5	-63.9	8.9
2026-01-20 11:27:34.838427	343.6	25.1	-63.5	7.7
2026-01-20 11:27:37.076436	343.6	24.8	-64.7	9.2
2026-01-20 11:27:39.318968	343.6	24.4	-63.5	6.0
2026-01-20 11:27:41.557977	343.6	24.1	-64.3	7.4
2026-01-20 11:27:43.795483	343.6	23.7	-63.8	6.3
2026-01-20 11:27:46.035998	343.6	23.4	-64.6	8.4
2026-01-20 11:27:48.276007	343.6	23.1	-64.8	8.0
2026-01-20 11:27:50.512537	343.6	22.7	-64.4	9.6
2026-01-20 11:27:52.750554	343.6	22.4	-64.9	8.5
2026-01-20 11:27:54.992077	343.6	22.1	-64.8	7.8
2026-01-20 11:27:57.230592	343.6	21.8	-65.2	10.1
2026-01-20 11:27:59.467106	343.6	21.5	-65.3	9.1
2026-01-20 11:28:01.705637	343.6	21.2	-65.1	9.3
2026-01-20 11:28:03.944142	343.6	20.8	-64.8	8.3
2026-01-20 11:28:06.187161	343.6	20.5	-65.1	8.5
2026-01-20 11:28:08.423178	343.6	20.3	-64.6	7.8
2026-01-20 11:28:10.664684	343.6	20.0	-63.9	6.8
2026-01-20 11:28:12.904694	343.6	19.7	-63.4	7.3
2026-01-20 11:28:15.145724	343.6	19.4	-64.2	7.5
2026-01-20 11:28:17.385238	343.6	19.1	-65.0	8.9
2026-01-20 11:28:19.628257	343.6	18.8	-64.8	8.3
2026-01-20 11:28:21.866275	343.6	18.5	-64.5	7.8
2026-01-20 11:28:24.103285	343.6	18.3	-65.0	7.8
2026-01-20 11:28:26.341294	343.7	18.0	-64.2	7.3
2026-01-20 11:28:28.584809	343.7	17.7	-64.7	6.8
2026-01-20 11:28:30.828324	343.7	17.5	-64.8	8.0
2026-01-20 11:28:33.073344	343.7	17.2	-63.5	5.8
2026-01-20 11:28:35.317851	343.7	16.9	-64.1	5.5
2026-01-20 11:28:37.562366	343.7	16.7	-64.4	6.4
2026-01-20 11:28:39.804385	343.7	16.4	-63.5	5.8
2026-01-20 11:28:42.044892	343.7	16.2	-64.3	6.5
2026-01-20 11:28:44.282405	343.7	15.9	-63.2	5.1
2026-01-20 11:28:46.523423	343.7	15.7	-63.9	7.3
2026-01-20 11:28:48.764929	343.7	15.4	-63.4	6.0
2026-01-20 11:28:51.004443	343.7	15.2	-63.6	5.9
2026-01-20 11:28:53.243471	343.7	14.9	-64.0	6.3
2026-01-20 11:28:55.487490	343.7	14.7	-63.2	4.2
2026-01-20 11:28:57.724508	343.7	14.5	-63.7	7.4
2026-01-20 11:28:59.966014	343.7	14.2	-62.8	3.8
2026-01-20 11:29:02.208025	343.7	14.0	-63.6	4.4
2026-01-20 11:29:04.449531	343.7	13.8	-63.0	5.0
2026-01-20 11:29:06.690037	343.7	13.6	-63.7	5.6
2026-01-20 11:29:08.932055	343.7	13.3	-63.8	6.1
2026-01-20 11:29:11.171569	343.7	13.1	-63.3	4.6
2026-01-20 11:29:13.410579	343.7	12.9	-63.2	4.0
2026-01-20 11:29:15.650589	343.7	12.7	-63.5	4.0
2026-01-20 11:29:17.892095	343.7	12.5	-62.8	1.7
2026-01-20 11:29:20.132114	343.7	12.2	-63.1	3.7
2026-01-20 11:29:22.372124	343.7	12.0	-62.3	3.6
2026-01-20 11:29:24.610141	343.8	11.8	-63.2	4.8
2026-01-20 11:29:26.852159	343.8	11.6	-63.1	3.4
2026-01-20 11:29:29.094169	343.8	11.4	-62.1	2.9
2026-01-20 11:29:31.332675	343.8	11.2	-63.2	4.3
2026-01-20 11:29:33.574189	343.8	11.0	-63.3	3.2
2026-01-20 11:29:35.815703	343.8	10.8	-63.5	6.0
2026-01-20 11:29:38.058217	343.8	10.6	-62.9	3.0
2026-01-20 11:29:40.299245	343.8	10.4	-63.5	5.7
2026-01-20 11:29:42.541767	343.8	10.2	-63.0	4.8
2026-01-20 11:29:44.780282	343.8	10.0	-63.5	5.7
2026-01-20 11:29:47.022302	343.8	9.8	-62.6	5.2
2026-01-20 11:29:49.265823	343.8	9.6	-62.8	3.5
2026-01-20 11:29:51.508868	343.8	9.4	-62.1	3.0
2026-01-20 11:29:53.749408	343.8	9.2	-63.1	4.4
2026-01-20 11:29:55.993419	343.8	9.1	-63.1	5.4
2026-01-20 11:29:58.237430	343.8	8.9	-62.9	4.4
2026-01-20 11:30:00.480448	343.8	8.7	-63.5	2.8
2026-01-20 11:30:02.718467	343.8	8.5	-62.3	4.3
2026-01-20 11:30:04.962477	343.9	8.3	-62.1	3.0
2026-01-20 11:30:07.205497	343.9	8.1	-62.4	0.9
2026-01-20 11:30:09.454510	343.9	8.0	-62.8	3.4
2026-01-20 11:30:11.698024	343.9	7.8	-62.6	0.9
2026-01-20 11:30:13.941539	343.9	7.6	-62.4	4.6
2026-01-20 11:30:16.187055	343.9	7.4	-63.5	4.4
2026-01-20 11:30:18.431562	343.9	7.3	-61.3	1.8
2026-01-20 11:30:20.673590	343.9	7.1	-62.4	3.6
2026-01-20 11:30:22.916114	343.9	6.9	-63.0	2.3
2026-01-20 11:30:25.161133	343.9	6.7	-61.4	0.0
2026-01-20 11:30:27.404648	343.9	6.6	-61.8	0.0
2026-01-20 11:30:29.648163	343.9	6.4	-61.5	0.0
2026-01-20 11:30:31.891680	343.9	6.2	-62.8	0.0
2026-01-20 11:30:34.138195	343.9	6.1	-61.9	0.0
2026-01-20 11:30:36.382206	343.9	5.9	-65.4	0.5
2026-01-20 11:30:38.626713	343.9	5.7	-64.9	0.0
2026-01-20 11:30:40.871751	344.0	5.6	-66.0	0.0
2026-01-20 11:30:43.114273	344.0	5.4	-65.3	0.0
2026-01-20 11:30:45.357798	344.0	5.2	-63.6	0.0
2026-01-20 11:30:47.600321	344.0	5.1	-65.6	0.0
#Closed at: 2026-01-20 11:17:48.158287