passes_logs/2026/01/20/PlanumMoscow/PlanumMoscow__20260120_190723_METOP-B_rec.log

#Pass ID: 20260120_190723_METOP-B
#Satellite: METOP-B
#Configuration: METOP-B
#Start time: 2026-01-20 19:07:28.413016

#LorettStation: 1.0.0 05.05.2024
#Station: PlanumMoscow
#Location: 37.6253844 lon 55.6713361 lat
#TLE: 1 38771U 12049A   25293.92766658  .00000266  00000+0  14193-3 0  9996
#TLE: 2 38771  98.6882 344.7603 0001609 341.5209  18.5909 14.21379342679275

#Time	Az	El	Level	SNR
2026-01-20 19:11:06.860107	246.3	18.1	-61.3	0.0
2026-01-20 19:11:07.983368	246.6	18.2	-62.3	0.0
2026-01-20 19:11:09.104621	246.8	18.2	-61.9	0.0
2026-01-20 19:11:10.224874	247.0	18.3	-60.9	0.0
2026-01-20 19:11:11.346165	247.3	18.3	-58.6	0.0
2026-01-20 19:11:12.468418	247.5	18.4	-61.9	0.0
2026-01-20 19:11:13.587671	247.8	18.4	-62.1	0.0
2026-01-20 19:11:14.714430	248.0	18.5	-60.0	0.0
2026-01-20 19:11:15.835683	248.3	18.5	-58.0	0.0
2026-01-20 19:11:16.957936	248.5	18.6	-58.3	0.0
2026-01-20 19:11:18.080190	248.8	18.7	-61.3	0.0
2026-01-20 19:11:19.203443	249.0	18.7	-62.6	0.0
2026-01-20 19:11:20.323696	249.3	18.8	-60.5	0.0
2026-01-20 19:11:21.443949	249.6	18.8	-61.5	0.0
2026-01-20 19:11:22.561202	249.8	18.9	-62.3	0.0
2026-01-20 19:11:23.680959	250.1	18.9	-61.8	0.0
2026-01-20 19:11:24.799212	250.3	19.0	-60.8	0.0
2026-01-20 19:11:25.917464	250.6	19.0	-59.0	0.0
2026-01-20 19:11:27.036717	250.8	19.1	-59.8	0.0
2026-01-20 19:11:28.153969	251.1	19.1	-58.8	0.0
2026-01-20 19:11:29.272222	251.3	19.2	-60.6	0.0
2026-01-20 19:11:30.391475	251.6	19.2	-62.9	0.0
2026-01-20 19:11:31.509727	251.9	19.2	-60.4	0.0
2026-01-20 19:11:32.631485	252.1	19.3	-61.0	0.0
2026-01-20 19:11:33.751738	252.4	19.3	-60.8	0.0
2026-01-20 19:11:34.870991	252.7	19.4	-62.2	0.0
2026-01-20 19:11:35.990748	252.9	19.4	-60.9	0.0
2026-01-20 19:11:37.111001	253.2	19.5	-60.0	0.0
2026-01-20 19:11:38.230253	253.5	19.5	-59.9	0.0
2026-01-20 19:11:39.350506	253.7	19.6	-61.6	0.0
2026-01-20 19:11:40.471760	254.0	19.6	-60.3	0.0
2026-01-20 19:11:41.591020	254.3	19.6	-62.1	0.0
2026-01-20 19:11:42.709273	254.5	19.7	-63.1	0.0
2026-01-20 19:11:43.829526	254.8	19.7	-61.3	0.0
2026-01-20 19:11:44.947778	255.1	19.8	-60.1	0.0
2026-01-20 19:11:46.069031	255.3	19.8	-60.6	0.0
2026-01-20 19:11:47.189284	255.6	19.8	-61.6	0.0
2026-01-20 19:11:48.310538	255.9	19.9	-61.1	0.0
2026-01-20 19:11:49.433791	256.1	19.9	-61.9	0.0
2026-01-20 19:11:50.553548	256.4	20.0	-61.0	0.0
2026-01-20 19:11:51.676802	256.7	20.0	-60.4	0.0
2026-01-20 19:11:52.797055	257.0	20.0	-60.7	0.0
2026-01-20 19:11:53.915307	257.2	20.1	-61.5	0.0
2026-01-20 19:11:55.035560	257.5	20.1	-61.4	0.0
2026-01-20 19:11:56.153813	257.8	20.1	-59.4	0.0
2026-01-20 19:11:57.273065	258.1	20.2	-61.6	0.0
2026-01-20 19:11:58.394319	258.3	20.2	-60.6	0.0
2026-01-20 19:11:59.514076	258.6	20.2	-62.9	0.0
2026-01-20 19:12:00.635329	258.9	20.3	-60.0	0.0
2026-01-20 19:12:01.754086	259.2	20.3	-63.6	0.0
2026-01-20 19:12:02.876340	259.5	20.3	-61.1	0.0
2026-01-20 19:12:03.995593	259.7	20.4	-61.7	0.0
2026-01-20 19:12:05.114845	260.0	20.4	-62.2	0.0
2026-01-20 19:12:06.235098	260.3	20.4	-62.2	0.0
2026-01-20 19:12:07.355351	260.6	20.4	-62.7	0.0
2026-01-20 19:12:08.478109	260.9	20.5	-61.7	0.0
2026-01-20 19:12:09.598362	261.2	20.5	-61.9	0.0
2026-01-20 19:12:10.717119	261.4	20.5	-63.3	0.0
2026-01-20 19:12:11.839372	261.7	20.6	-63.6	0.0
2026-01-20 19:12:12.958625	262.0	20.6	-61.3	0.0
2026-01-20 19:12:14.080878	262.3	20.6	-60.9	0.0
2026-01-20 19:12:15.201131	262.6	20.6	-61.4	0.0
2026-01-20 19:12:16.321889	262.9	20.6	-62.3	0.0
2026-01-20 19:12:17.443142	263.1	20.7	-61.2	0.0
2026-01-20 19:12:18.563395	263.4	20.7	-61.6	0.0
2026-01-20 19:12:19.683648	263.7	20.7	-62.3	0.0
2026-01-20 19:12:20.804901	264.0	20.7	-61.2	0.0
2026-01-20 19:12:21.926659	264.3	20.8	-62.9	0.0
2026-01-20 19:12:23.048912	264.6	20.8	-63.7	0.0
2026-01-20 19:12:24.171166	264.9	20.8	-61.7	0.0
2026-01-20 19:12:25.292924	265.2	20.8	-61.2	0.0
2026-01-20 19:12:26.415177	265.4	20.8	-63.0	0.0
2026-01-20 19:12:27.537431	265.7	20.8	-62.1	0.0
2026-01-20 19:12:28.659685	266.0	20.9	-63.7	0.0
2026-01-20 19:12:29.781938	266.3	20.9	-63.4	0.0
2026-01-20 19:12:30.904191	266.6	20.9	-64.5	0.0
2026-01-20 19:12:32.026445	266.9	20.9	-64.1	0.0
2026-01-20 19:12:33.150707	267.2	20.9	-62.1	0.0
2026-01-20 19:12:34.272960	267.5	20.9	-63.0	0.0
2026-01-20 19:12:35.388212	267.8	20.9	-64.2	0.0
2026-01-20 19:12:36.506464	268.1	20.9	-63.7	0.0
2026-01-20 19:12:37.626717	268.4	20.9	-63.6	0.0
2026-01-20 19:12:38.744970	268.6	21.0	-63.5	0.0
2026-01-20 19:12:39.865223	268.9	21.0	-64.3	0.0
2026-01-20 19:12:40.984476	269.2	21.0	-62.8	0.0
2026-01-20 19:12:42.105233	269.5	21.0	-64.8	0.0
2026-01-20 19:12:43.225486	269.8	21.0	-64.6	0.0
2026-01-20 19:12:44.345739	270.1	21.0	-65.3	0.0
2026-01-20 19:12:45.464991	270.4	21.0	-66.0	0.0
2026-01-20 19:12:46.586749	270.7	21.0	-64.0	0.0
2026-01-20 19:12:47.708002	271.0	21.0	-63.6	0.0
2026-01-20 19:12:48.828255	271.3	21.0	-64.3	0.0
2026-01-20 19:12:49.949509	271.6	21.0	-65.3	0.0
2026-01-20 19:12:51.068265	271.8	21.0	-64.8	0.0
2026-01-20 19:12:52.187518	272.1	21.0	-62.9	0.0
2026-01-20 19:12:53.307771	272.4	21.0	-63.2	0.0
2026-01-20 19:12:54.430025	272.7	21.0	-65.1	0.0
2026-01-20 19:12:55.551278	273.0	21.0	-65.1	0.0
2026-01-20 19:12:56.672531	273.3	21.0	-64.9	0.0
2026-01-20 19:12:57.793784	273.6	21.0	-64.2	0.0
2026-01-20 19:12:58.912541	273.9	21.0	-64.9	0.0
2026-01-20 19:13:00.036299	274.2	21.0	-64.4	0.0
2026-01-20 19:13:01.157552	274.5	21.0	-65.0	0.0
2026-01-20 19:13:02.278806	274.8	21.0	-64.8	0.0
2026-01-20 19:13:03.398058	275.1	21.0	-65.4	0.0
2026-01-20 19:13:04.519312	275.3	20.9	-64.9	0.0
2026-01-20 19:13:05.639565	275.6	20.9	-65.4	0.0
2026-01-20 19:13:06.761818	275.9	20.9	-65.9	0.4
2026-01-20 19:13:07.883080	276.2	20.9	-65.3	0.0
2026-01-20 19:13:09.005333	276.5	20.9	-66.7	0.4
2026-01-20 19:13:10.126596	276.8	20.9	-66.4	1.8
2026-01-20 19:13:11.247849	277.1	20.9	-66.4	1.9
2026-01-20 19:13:12.370103	277.4	20.9	-65.3	0.0
2026-01-20 19:13:13.490869	277.7	20.9	-65.6	0.0
2026-01-20 19:13:14.611642	278.0	20.8	-65.9	0.4
2026-01-20 19:13:15.731399	278.2	20.8	-65.1	0.0
2026-01-20 19:13:16.852156	278.5	20.8	-66.1	1.2
2026-01-20 19:13:17.972409	278.8	20.8	-66.3	1.7
2026-01-20 19:13:19.093166	279.1	20.8	-66.1	0.0
2026-01-20 19:13:20.211419	279.4	20.8	-65.6	0.0
2026-01-20 19:13:21.329176	279.7	20.7	-66.0	0.0
2026-01-20 19:13:22.447429	280.0	20.7	-64.2	0.0
2026-01-20 19:13:23.568682	280.3	20.7	-65.5	0.5
2026-01-20 19:13:24.687439	280.5	20.7	-66.2	2.7
2026-01-20 19:13:25.807701	280.8	20.6	-66.7	2.0
2026-01-20 19:13:26.927962	281.1	20.6	-66.5	1.9
2026-01-20 19:13:28.048719	281.4	20.6	-67.0	2.9
2026-01-20 19:13:29.169475	281.7	20.6	-66.8	1.4
2026-01-20 19:13:30.287736	282.0	20.6	-66.9	2.1
2026-01-20 19:13:31.409989	282.3	20.5	-66.6	2.0
2026-01-20 19:13:32.530242	282.5	20.5	-66.7	3.1
2026-01-20 19:13:33.652505	282.8	20.5	-67.5	3.4
2026-01-20 19:13:34.774758	283.1	20.4	-67.1	0.0
2026-01-20 19:13:35.893020	283.4	20.4	-67.6	2.0
2026-01-20 19:13:37.013273	283.7	20.4	-67.1	2.5
2026-01-20 19:13:38.134030	283.9	20.4	-67.1	2.4
2026-01-20 19:13:39.256283	284.2	20.3	-67.1	2.5
2026-01-20 19:13:40.377040	284.5	20.3	-66.4	0.0
2026-01-20 19:13:41.496293	284.8	20.3	-67.0	2.1
2026-01-20 19:13:42.615562	285.1	20.2	-67.1	2.7
2026-01-20 19:13:43.734823	285.3	20.2	-67.2	2.3
2026-01-20 19:13:44.854580	285.6	20.2	-67.3	2.4
2026-01-20 19:13:45.974841	285.9	20.1	-66.8	0.9
2026-01-20 19:13:47.094102	286.2	20.1	-67.1	2.9
2026-01-20 19:13:48.212859	286.4	20.1	-67.3	3.5
2026-01-20 19:13:49.333616	286.7	20.0	-66.5	1.1
2026-01-20 19:13:50.452382	287.0	20.0	-66.7	0.0
2026-01-20 19:13:51.572634	287.3	20.0	-66.9	0.0
2026-01-20 19:13:52.692391	287.5	19.9	-67.0	2.6
2026-01-20 19:13:53.810660	287.8	19.9	-65.6	0.4
2026-01-20 19:13:54.929922	288.1	19.8	-66.5	1.0
2026-01-20 19:13:56.048190	288.3	19.8	-65.9	0.0
2026-01-20 19:13:57.169444	288.6	19.8	-67.0	2.1
2026-01-20 19:13:58.289712	288.9	19.7	-67.5	1.0
2026-01-20 19:13:59.410974	289.1	19.7	-67.1	1.2
2026-01-20 19:14:00.532227	289.4	19.6	-67.0	2.5
2026-01-20 19:14:01.652480	289.7	19.6	-67.3	2.4
2026-01-20 19:14:02.773238	289.9	19.6	-66.9	2.6
2026-01-20 19:14:03.895996	290.2	19.5	-67.2	2.5
2026-01-20 19:14:05.013256	290.5	19.5	-67.5	2.9
2026-01-20 19:14:06.134014	290.7	19.4	-67.4	0.1
2026-01-20 19:14:07.256267	291.0	19.4	-67.4	0.5
2026-01-20 19:14:08.378024	291.3	19.3	-67.4	0.0
2026-01-20 19:14:09.498781	291.5	19.3	-67.6	2.4
2026-01-20 19:14:10.617538	291.8	19.3	-67.2	2.5
2026-01-20 19:14:11.737303	292.1	19.2	-67.2	2.4
2026-01-20 19:14:12.855555	292.3	19.2	-67.5	2.7
2026-01-20 19:14:13.973824	292.6	19.1	-67.7	3.1
2026-01-20 19:14:15.093085	292.8	19.1	-67.5	2.9
2026-01-20 19:14:16.215338	293.1	19.0	-66.4	0.2
2026-01-20 19:14:17.337592	293.3	19.0	-67.4	2.2
2026-01-20 19:14:18.458349	293.6	18.9	-67.7	2.9
2026-01-20 19:14:19.579603	293.8	18.9	-67.5	0.0
2026-01-20 19:14:20.699856	294.1	18.8	-67.5	1.7
2026-01-20 19:14:21.821613	294.4	18.8	-67.3	2.5
2026-01-20 19:14:22.941883	294.6	18.7	-67.2	2.8
2026-01-20 19:14:24.061641	294.9	18.7	-67.7	2.4
2026-01-20 19:14:25.179893	295.1	18.6	-67.8	2.6
2026-01-20 19:14:26.299650	295.4	18.6	-67.6	3.1
2026-01-20 19:14:27.420911	295.6	18.5	-67.2	2.7
2026-01-20 19:14:28.543165	295.9	18.5	-67.5	2.5
2026-01-20 19:14:29.664418	296.1	18.4	-67.7	1.2
2026-01-20 19:14:30.786175	296.3	18.3	-67.9	2.4
2026-01-20 19:14:31.908429	296.6	18.3	-68.3	2.8
2026-01-20 19:14:33.030186	296.8	18.2	-67.9	3.3
2026-01-20 19:14:34.152951	297.1	18.2	-67.9	3.3
2026-01-20 19:14:35.272708	297.3	18.1	-67.6	3.3
2026-01-20 19:14:36.391969	297.6	18.1	-67.8	3.3
2026-01-20 19:14:37.512222	297.8	18.0	-68.0	3.8
2026-01-20 19:14:38.633979	298.0	18.0	-67.8	4.4
2026-01-20 19:14:39.753253	298.3	17.9	-67.8	4.0
2026-01-20 19:14:40.873514	298.5	17.8	-67.4	3.4
2026-01-20 19:14:41.999273	298.8	17.8	-67.7	2.7
2026-01-20 19:14:43.118534	299.0	17.7	-67.9	4.2
2026-01-20 19:14:44.237795	299.2	17.7	-67.6	3.8
2026-01-20 19:14:45.359065	299.5	17.6	-67.7	3.8
2026-01-20 19:14:46.478868	299.7	17.6	-67.4	4.4
2026-01-20 19:14:47.600625	299.9	17.5	-67.2	3.1
2026-01-20 19:14:48.721879	300.2	17.4	-67.5	3.3
2026-01-20 19:14:49.842141	300.4	17.4	-67.8	3.8
2026-01-20 19:14:50.967899	300.6	17.3	-67.4	4.5
2026-01-20 19:14:52.088152	300.9	17.3	-67.6	4.2
2026-01-20 19:14:53.207909	301.1	17.2	-67.5	4.0
2026-01-20 19:14:54.326666	301.3	17.1	-66.7	2.6
2026-01-20 19:14:55.447919	301.5	17.1	-67.1	3.2
2026-01-20 19:14:56.567676	301.8	17.0	-66.7	1.2
2026-01-20 19:14:57.688938	302.0	17.0	-67.1	2.6
2026-01-20 19:14:58.809191	302.2	16.9	-67.4	3.6
2026-01-20 19:14:59.929956	302.4	16.8	-67.5	4.0
2026-01-20 19:15:01.046208	302.7	16.8	-67.3	3.7
2026-01-20 19:15:02.166470	302.9	16.7	-67.2	2.3
2026-01-20 19:15:03.288228	303.1	16.6	-67.3	3.3
2026-01-20 19:15:04.409987	303.3	16.6	-66.3	2.1
2026-01-20 19:15:05.531745	303.5	16.5	-67.4	3.4
2026-01-20 19:15:06.653503	303.8	16.5	-67.7	3.9
2026-01-20 19:15:07.775756	304.0	16.4	-67.5	3.8
2026-01-20 19:15:08.897515	304.2	16.3	-67.3	3.2
2026-01-20 19:15:10.019768	304.4	16.3	-67.0	3.7
2026-01-20 19:15:11.141526	304.6	16.2	-66.9	2.7
2026-01-20 19:15:12.263779	304.8	16.1	-66.7	1.6
2026-01-20 19:15:13.385050	305.0	16.1	-67.0	3.7
2026-01-20 19:15:14.507312	305.3	16.0	-67.3	4.3
2026-01-20 19:15:15.629070	305.5	15.9	-67.2	3.2
2026-01-20 19:15:16.750828	305.7	15.9	-66.7	2.8
2026-01-20 19:15:17.873082	305.9	15.8	-67.2	2.2
2026-01-20 19:15:18.995335	306.1	15.7	-67.0	2.3
2026-01-20 19:15:20.117093	306.3	15.7	-67.0	1.8
2026-01-20 19:15:21.238365	306.5	15.6	-67.3	2.2
2026-01-20 19:15:22.359142	306.7	15.5	-66.8	1.3
2026-01-20 19:15:23.481404	306.9	15.5	-67.3	3.4
2026-01-20 19:15:24.602170	307.1	15.4	-67.0	1.9
2026-01-20 19:15:25.724424	307.3	15.3	-67.1	1.5
2026-01-20 19:15:26.845686	307.5	15.3	-66.9	2.0
2026-01-20 19:15:27.966947	307.7	15.2	-66.7	0.0
2026-01-20 19:15:29.089201	307.9	15.1	-67.1	2.3
2026-01-20 19:15:30.211454	308.1	15.1	-67.3	1.8
2026-01-20 19:15:31.335212	308.3	15.0	-66.8	0.0
2026-01-20 19:15:32.457466	308.5	14.9	-66.3	0.0
2026-01-20 19:15:33.579720	308.7	14.9	-66.3	0.9
2026-01-20 19:15:34.700493	308.9	14.8	-66.4	0.0
2026-01-20 19:15:35.821291	309.1	14.7	-66.6	0.0
2026-01-20 19:15:36.942058	309.3	14.7	-66.9	0.5
2026-01-20 19:15:38.062824	309.5	14.6	-67.3	0.9
2026-01-20 19:15:39.183591	309.7	14.5	-66.4	0.0
2026-01-20 19:15:40.307846	309.9	14.5	-65.9	0.0
2026-01-20 19:15:41.429603	310.1	14.4	-66.8	0.0
2026-01-20 19:15:42.551856	310.3	14.3	-66.9	0.0
2026-01-20 19:15:43.673614	310.4	14.3	-67.2	0.8
2026-01-20 19:15:44.795868	310.6	14.2	-66.8	1.6
2026-01-20 19:15:45.917625	310.8	14.1	-66.5	0.0
2026-01-20 19:15:47.039879	311.0	14.0	-66.5	0.0
2026-01-20 19:15:48.166638	311.2	14.0	-66.3	2.7
2026-01-20 19:15:49.288395	311.4	13.9	-66.4	0.0
2026-01-20 19:15:50.410649	311.6	13.8	-66.6	0.0
2026-01-20 19:15:51.532407	311.7	13.8	-66.2	0.0
2026-01-20 19:15:52.654661	311.9	13.7	-65.8	0.0
2026-01-20 19:15:53.776418	312.1	13.6	-66.6	1.7
2026-01-20 19:15:54.898671	312.3	13.6	-65.9	0.0
2026-01-20 19:15:56.022439	312.5	13.5	-66.2	0.0
2026-01-20 19:15:57.144197	312.6	13.4	-66.5	1.2
2026-01-20 19:15:58.265956	312.8	13.4	-66.5	0.0
2026-01-20 19:15:59.388209	313.0	13.3	-66.1	0.0
2026-01-20 19:16:00.510462	313.2	13.2	-65.4	0.0
2026-01-20 19:16:01.632220	313.3	13.1	-64.9	0.0
2026-01-20 19:16:02.753978	313.5	13.1	-65.7	0.0
2026-01-20 19:16:03.877746	313.7	13.0	-66.8	0.0
2026-01-20 19:16:04.999504	313.9	12.9	-66.3	0.0
2026-01-20 19:16:06.121757	314.0	12.9	-65.8	0.0
2026-01-20 19:16:07.243515	314.2	12.8	-66.2	0.0
2026-01-20 19:16:08.365768	314.4	12.7	-66.2	0.0
2026-01-20 19:16:09.487526	314.6	12.7	-67.1	0.3
2026-01-20 19:16:10.608292	314.7	12.6	-66.7	0.0
2026-01-20 19:16:11.730050	314.9	12.5	-66.9	0.0
2026-01-20 19:16:12.850320	315.1	12.5	-66.6	0.0
2026-01-20 19:16:13.972574	315.2	12.4	-66.8	0.0
2026-01-20 19:16:15.094332	315.4	12.3	-66.4	0.0
2026-01-20 19:16:16.216585	315.6	12.2	-65.3	0.0
2026-01-20 19:16:17.338344	315.7	12.2	-67.3	0.0
2026-01-20 19:16:18.460102	315.9	12.1	-66.6	0.0
2026-01-20 19:16:19.581860	316.0	12.0	-66.1	0.0
2026-01-20 19:16:20.706628	316.2	12.0	-67.1	0.0
2026-01-20 19:16:21.829387	316.4	11.9	-67.1	0.0
2026-01-20 19:16:22.951145	316.5	11.8	-66.9	0.0
2026-01-20 19:16:24.072902	316.7	11.8	-66.9	0.0
2026-01-20 19:16:25.195156	316.9	11.7	-66.7	0.0
2026-01-20 19:16:26.317409	317.0	11.6	-67.2	0.0
2026-01-20 19:16:27.439663	317.2	11.5	-66.4	0.0
2026-01-20 19:16:28.561421	317.3	11.5	-66.7	0.0
2026-01-20 19:16:29.687180	317.5	11.4	-66.6	0.0
2026-01-20 19:16:30.809433	317.6	11.3	-67.3	0.2
2026-01-20 19:16:31.930696	317.8	11.3	-66.8	0.0
2026-01-20 19:16:33.052454	317.9	11.2	-67.1	0.0
2026-01-20 19:16:34.173717	318.1	11.1	-66.4	0.0
2026-01-20 19:16:35.295475	318.3	11.1	-66.6	0.0
2026-01-20 19:16:36.416737	318.4	11.0	-66.8	0.0
2026-01-20 19:16:37.539990	318.6	10.9	-67.0	0.0
2026-01-20 19:16:38.662244	318.7	10.8	-66.8	0.4
2026-01-20 19:16:39.784001	318.9	10.8	-67.0	0.0
2026-01-20 19:16:40.904769	319.0	10.7	-67.0	0.0
2026-01-20 19:16:42.026527	319.2	10.6	-66.3	0.0
2026-01-20 19:16:43.148285	319.3	10.6	-66.8	0.0
2026-01-20 19:16:44.270043	319.4	10.5	-66.2	0.0
2026-01-20 19:16:45.393313	319.6	10.4	-66.6	0.0
2026-01-20 19:16:46.514574	319.7	10.4	-66.8	0.0
2026-01-20 19:16:47.636332	319.9	10.3	-66.2	0.0
2026-01-20 19:16:48.757098	320.0	10.2	-67.1	0.0
2026-01-20 19:16:49.879351	320.2	10.1	-65.6	0.0
2026-01-20 19:16:51.000614	320.3	10.1	-66.7	0.0
2026-01-20 19:16:52.122867	320.5	10.0	-66.6	0.0
2026-01-20 19:16:53.246635	320.6	9.9	-66.1	0.0
2026-01-20 19:16:54.367896	320.7	9.9	-66.2	0.0
2026-01-20 19:16:55.490654	320.9	9.8	-65.1	0.0
2026-01-20 19:16:56.611916	321.0	9.7	-65.8	0.0
2026-01-20 19:16:57.733178	321.2	9.7	-66.2	0.0
2026-01-20 19:16:58.854440	321.3	9.6	-66.4	0.0
2026-01-20 19:16:59.976197	321.4	9.5	-65.0	0.0
2026-01-20 19:17:01.100460	321.6	9.5	-66.5	0.0
2026-01-20 19:17:02.222218	321.7	9.4	-65.2	0.0
2026-01-20 19:17:03.343985	321.8	9.3	-66.6	0.0
2026-01-20 19:17:04.466238	322.0	9.3	-65.5	0.0
2026-01-20 19:17:05.587996	322.1	9.2	-65.6	0.0
2026-01-20 19:17:06.709259	322.3	9.1	-65.9	0.0
2026-01-20 19:17:07.831512	322.4	9.0	-65.5	0.0
2026-01-20 19:17:08.952280	322.5	9.0	-66.3	0.0
2026-01-20 19:17:10.079038	322.7	8.9	-65.2	0.0
2026-01-20 19:17:11.201292	322.8	8.8	-66.4	0.0
2026-01-20 19:17:12.323049	322.9	8.8	-66.4	0.0
2026-01-20 19:17:13.444312	323.0	8.7	-66.1	0.0
2026-01-20 19:17:14.566566	323.2	8.6	-66.7	0.0
2026-01-20 19:17:15.688323	323.3	8.6	-66.1	0.0
2026-01-20 19:17:16.809089	323.4	8.5	-66.1	0.0
2026-01-20 19:17:17.934343	323.6	8.4	-65.9	0.0
2026-01-20 19:17:19.056101	323.7	8.4	-66.6	0.3
2026-01-20 19:17:20.178354	323.8	8.3	-65.7	0.0
2026-01-20 19:17:21.300607	323.9	8.2	-66.4	0.0
2026-01-20 19:17:22.422365	324.1	8.2	-66.4	0.0
2026-01-20 19:17:23.543132	324.2	8.1	-65.9	0.0
2026-01-20 19:17:24.664393	324.3	8.0	-66.1	0.0
2026-01-20 19:17:25.791152	324.4	8.0	-65.8	0.0
2026-01-20 19:17:26.913405	324.6	7.9	-66.2	0.0
2026-01-20 19:17:28.035162	324.7	7.8	-66.3	0.0
2026-01-20 19:17:29.156920	324.8	7.8	-66.5	0.0
2026-01-20 19:17:30.279174	324.9	7.7	-66.1	0.0
2026-01-20 19:17:31.400436	325.1	7.6	-66.3	0.0
2026-01-20 19:17:32.522194	325.2	7.6	-65.7	0.0
2026-01-20 19:17:33.646457	325.3	7.5	-65.9	0.0
2026-01-20 19:17:34.769710	325.4	7.4	-65.6	0.0
2026-01-20 19:17:35.890972	325.5	7.4	-65.8	0.0
2026-01-20 19:17:37.012234	325.7	7.3	-66.1	0.0
2026-01-20 19:17:38.133992	325.8	7.2	-66.2	0.0
2026-01-20 19:17:39.255760	325.9	7.2	-65.1	0.0
2026-01-20 19:17:40.377518	326.0	7.1	-65.3	0.0
2026-01-20 19:17:41.500789	326.1	7.0	-65.5	0.0
2026-01-20 19:17:42.622051	326.2	7.0	-65.0	0.0
2026-01-20 19:17:43.743809	326.4	6.9	-66.0	0.0
2026-01-20 19:17:44.865576	326.5	6.8	-65.5	0.0
2026-01-20 19:17:45.987334	326.6	6.8	-65.0	0.0
2026-01-20 19:17:47.109587	326.7	6.7	-64.4	0.0
2026-01-20 19:17:48.231345	326.8	6.6	-66.1	0.0
2026-01-20 19:17:49.357104	326.9	6.6	-65.9	0.0
2026-01-20 19:17:50.480358	327.0	6.5	-65.2	0.0
2026-01-20 19:17:51.602621	327.2	6.4	-65.2	0.0
2026-01-20 19:17:52.724379	327.3	6.4	-65.8	0.0
2026-01-20 19:17:53.846632	327.4	6.3	-66.3	0.0
2026-01-20 19:17:54.968886	327.5	6.2	-65.7	0.0
2026-01-20 19:17:56.090157	327.6	6.2	-66.7	0.0
2026-01-20 19:17:57.210429	327.7	6.1	-65.4	0.0
2026-01-20 19:17:58.336702	327.8	6.0	-65.3	0.0
2026-01-20 19:17:59.458956	327.9	6.0	-66.8	0.0
2026-01-20 19:18:00.579722	328.0	5.9	-67.4	0.0
2026-01-20 19:18:01.700985	328.2	5.8	-69.5	0.0
2026-01-20 19:18:02.823238	328.3	5.8	-68.1	0.0
2026-01-20 19:18:03.944500	328.4	5.7	-68.3	0.0
2026-01-20 19:18:05.065267	328.5	5.6	-69.1	0.0
2026-01-20 19:18:06.189529	328.6	5.6	-70.2	0.0
2026-01-20 19:18:07.311287	328.7	5.5	-69.2	0.0
2026-01-20 19:18:08.433541	328.8	5.5	-69.2	0.0
2026-01-20 19:18:09.554803	328.9	5.4	-70.0	0.0
2026-01-20 19:18:10.677056	329.0	5.3	-70.7	0.0
2026-01-20 19:18:11.799310	329.1	5.3	-69.0	0.0
2026-01-20 19:18:12.921068	329.2	5.2	-68.2	0.0
2026-01-20 19:18:14.042826	329.3	5.1	-68.6	0.0
2026-01-20 19:18:15.164087	329.4	5.1	-69.0	0.0
2026-01-20 19:18:16.286341	329.5	5.0	-69.2	0.0
#Closed at: 2026-01-20 19:07:23.414328