passes_logs/2026/01/20/PlanumMoscow/PlanumMoscow__20260120_172534_METOP-B_rec.log

#Pass ID: 20260120_172534_METOP-B
#Satellite: METOP-B
#Configuration: METOP-B
#Start time: 2026-01-20 17:25:39.962464

#LorettStation: 1.0.0 05.05.2024
#Station: PlanumMoscow
#Location: 37.6253844 lon 55.6713361 lat
#TLE: 1 38771U 12049A   25293.92766658  .00000266  00000+0  14193-3 0  9996
#TLE: 2 38771  98.6882 344.7603 0001609 341.5209  18.5909 14.21379342679275

#Time	Az	El	Level	SNR
2026-01-20 17:29:18.432761	156.1	29.8	-63.8	10.0
2026-01-20 17:29:20.674284	156.0	30.3	-64.2	9.9
2026-01-20 17:29:22.913295	155.9	30.7	-64.4	9.7
2026-01-20 17:29:25.153305	155.9	31.1	-64.6	9.5
2026-01-20 17:29:27.393315	155.8	31.6	-64.2	8.2
2026-01-20 17:29:29.631829	155.8	32.1	-64.7	9.5
2026-01-20 17:29:31.868334	155.7	32.5	-64.5	9.2
2026-01-20 17:29:34.105848	155.6	33.0	-64.6	9.5
2026-01-20 17:29:36.345354	155.6	33.5	-64.7	9.4
2026-01-20 17:29:38.582374	155.5	34.0	-64.7	10.2
2026-01-20 17:29:40.819888	155.4	34.5	-64.3	9.5
2026-01-20 17:29:43.057393	155.3	35.0	-64.6	9.5
2026-01-20 17:29:45.294412	155.3	35.5	-64.6	10.1
2026-01-20 17:29:47.535918	155.2	36.0	-64.7	9.6
2026-01-20 17:29:49.774938	155.1	36.5	-64.9	9.6
2026-01-20 17:29:52.013443	155.0	37.1	-64.6	9.3
2026-01-20 17:29:54.249948	154.9	37.6	-64.5	10.0
2026-01-20 17:29:56.488958	154.8	38.2	-64.4	8.5
2026-01-20 17:29:58.728481	154.7	38.7	-64.1	8.7
2026-01-20 17:30:00.970510	154.6	39.3	-64.5	9.6
2026-01-20 17:30:03.211025	154.5	39.9	-64.1	9.7
2026-01-20 17:30:05.455036	154.4	40.5	-63.9	8.9
2026-01-20 17:30:07.699047	154.3	41.1	-64.3	9.9
2026-01-20 17:30:09.943059	154.2	41.7	-64.5	10.7
2026-01-20 17:30:12.187070	154.0	42.3	-64.6	10.0
2026-01-20 17:30:14.431595	153.9	43.0	-64.7	10.6
2026-01-20 17:30:16.676101	153.8	43.6	-64.6	9.9
2026-01-20 17:30:18.921113	153.6	44.3	-64.7	9.2
2026-01-20 17:30:21.165620	153.5	45.0	-65.6	10.6
2026-01-20 17:30:23.409135	153.3	45.6	-65.5	10.4
2026-01-20 17:30:25.652191	153.2	46.3	-65.8	10.4
2026-01-20 17:30:27.894715	153.0	47.0	-65.0	9.3
2026-01-20 17:30:30.138726	152.8	47.8	-65.5	10.2
2026-01-20 17:30:32.382737	152.6	48.5	-65.3	10.5
2026-01-20 17:30:34.626748	152.5	49.2	-65.3	11.1
2026-01-20 17:30:36.870760	152.2	50.0	-65.3	11.3
2026-01-20 17:30:39.114770	152.0	50.7	-65.0	11.3
2026-01-20 17:30:41.356798	151.8	51.5	-65.0	10.9
2026-01-20 17:30:43.600810	151.6	52.3	-64.9	10.4
2026-01-20 17:30:45.844339	151.3	53.1	-64.9	10.2
2026-01-20 17:30:48.095352	151.0	53.9	-65.3	9.7
2026-01-20 17:30:50.338877	150.8	54.7	-65.4	10.0
2026-01-20 17:30:52.582888	150.5	55.6	-65.1	9.3
2026-01-20 17:30:54.825908	150.1	56.4	-65.3	9.4
2026-01-20 17:30:57.072937	149.8	57.3	-65.2	8.4
2026-01-20 17:30:59.316451	149.4	58.2	-66.1	9.5
2026-01-20 17:31:01.560462	149.0	59.1	-65.9	9.1
2026-01-20 17:31:03.803482	148.6	60.0	-65.9	10.2
2026-01-20 17:31:06.047494	148.2	60.9	-65.4	10.3
2026-01-20 17:31:08.292001	147.7	61.8	-65.3	9.7
2026-01-20 17:31:10.535030	147.2	62.7	-65.7	9.7
2026-01-20 17:31:12.780537	146.6	63.7	-66.0	9.8
2026-01-20 17:31:15.025044	146.0	64.6	-65.9	9.1
2026-01-20 17:31:17.268561	145.3	65.6	-65.7	9.2
2026-01-20 17:31:19.513067	144.6	66.6	-66.1	9.2
2026-01-20 17:31:21.758078	143.8	67.5	-66.3	9.1
2026-01-20 17:31:24.001593	142.9	68.5	-66.4	9.4
2026-01-20 17:31:26.245109	141.9	69.5	-66.4	9.4
2026-01-20 17:31:28.488145	140.8	70.5	-66.1	9.0
2026-01-20 17:31:30.730669	139.6	71.5	-66.5	7.6
2026-01-20 17:31:32.973698	138.3	72.5	-67.0	8.6
2026-01-20 17:31:35.218205	136.8	73.5	-66.7	8.5
2026-01-20 17:31:37.463730	135.0	74.5	-66.1	6.4
2026-01-20 17:31:39.706254	133.0	75.5	-67.0	7.5
2026-01-20 17:31:41.949274	130.8	76.4	-66.0	6.0
2026-01-20 17:31:44.197800	128.1	77.4	-67.2	6.7
2026-01-20 17:31:46.441314	125.0	78.3	-67.8	6.3
2026-01-20 17:31:48.684334	121.4	79.2	-67.6	5.9
2026-01-20 17:31:50.927850	117.1	80.1	-67.6	5.0
2026-01-20 17:31:53.174366	112.1	80.9	-67.2	4.9
2026-01-20 17:31:55.418378	106.1	81.6	-66.7	4.9
2026-01-20 17:31:57.661893	99.1	82.2	-67.6	6.5
2026-01-20 17:31:59.903921	91.1	82.6	-67.3	5.7
2026-01-20 17:32:02.150933	82.2	83.0	-67.5	5.5
2026-01-20 17:32:04.395440	72.7	83.1	-67.6	5.6
2026-01-20 17:32:06.639452	63.1	83.0	-68.0	5.2
2026-01-20 17:32:08.882968	53.9	82.8	-67.9	5.5
2026-01-20 17:32:11.126979	45.6	82.3	-67.5	6.2
2026-01-20 17:32:13.370990	38.3	81.8	-67.1	5.7
2026-01-20 17:32:15.615497	32.0	81.1	-67.1	4.6
2026-01-20 17:32:17.859524	26.7	80.3	-67.4	4.7
2026-01-20 17:32:20.104040	22.2	79.5	-67.5	4.7
2026-01-20 17:32:22.346562	18.3	78.6	-67.4	5.5
2026-01-20 17:32:24.589591	15.1	77.7	-67.8	5.4
2026-01-20 17:32:26.833106	12.3	76.8	-66.9	3.8
2026-01-20 17:32:29.077118	9.9	75.8	-66.8	5.2
2026-01-20 17:32:31.320633	7.9	74.8	-67.0	4.7
2026-01-20 17:32:33.566655	6.1	73.8	-66.8	4.9
2026-01-20 17:32:35.809675	4.5	72.8	-66.5	4.8
2026-01-20 17:32:38.053190	3.1	71.8	-66.6	5.1
2026-01-20 17:32:40.294740	1.8	70.8	-66.8	4.8
2026-01-20 17:32:42.539784	0.7	69.8	-66.6	4.2
2026-01-20 17:32:44.781316	359.7	68.9	-66.7	4.8
2026-01-20 17:32:47.023838	358.8	67.9	-67.1	4.8
2026-01-20 17:32:49.267858	358.0	66.9	-66.8	3.5
2026-01-20 17:32:51.516375	357.2	65.9	-66.4	3.9
2026-01-20 17:32:53.760386	356.5	65.0	-66.0	4.2
2026-01-20 17:32:56.004893	355.9	64.0	-65.9	4.2
2026-01-20 17:32:58.249408	355.3	63.1	-65.7	5.0
2026-01-20 17:33:00.492435	354.8	62.1	-65.7	5.1
2026-01-20 17:33:02.734959	354.3	61.2	-66.3	5.1
2026-01-20 17:33:04.977491	353.8	60.3	-66.3	2.3
2026-01-20 17:33:07.224007	353.4	59.4	-66.5	4.0
2026-01-20 17:33:09.467523	353.0	58.5	-66.2	1.6
2026-01-20 17:33:11.711535	352.6	57.6	-66.5	3.6
2026-01-20 17:33:13.958051	352.3	56.8	-66.8	5.2
2026-01-20 17:33:16.201565	351.9	55.9	-66.6	4.5
2026-01-20 17:33:18.445577	351.6	55.1	-66.1	4.8
2026-01-20 17:33:20.690084	351.3	54.2	-64.0	2.5
2026-01-20 17:33:22.934608	351.1	53.4	-65.8	6.0
2026-01-20 17:33:25.178619	350.8	52.6	-64.6	5.3
2026-01-20 17:33:27.422134	350.6	51.8	-65.1	6.5
2026-01-20 17:33:29.666154	350.3	51.1	-64.9	5.7
2026-01-20 17:33:31.910165	350.1	50.3	-65.1	6.3
2026-01-20 17:33:34.156177	349.9	49.5	-64.9	6.8
2026-01-20 17:33:36.398205	349.7	48.8	-64.8	5.9
2026-01-20 17:33:38.641722	349.5	48.1	-65.6	6.0
2026-01-20 17:33:40.883757	349.4	47.4	-65.4	6.0
2026-01-20 17:33:43.128263	349.2	46.6	-64.9	4.0
2026-01-20 17:33:45.371779	349.0	46.0	-65.3	7.0
2026-01-20 17:33:47.615790	348.9	45.3	-65.1	7.3
2026-01-20 17:33:49.859314	348.7	44.6	-64.9	7.4
2026-01-20 17:33:52.102829	348.6	43.9	-64.4	7.8
2026-01-20 17:33:54.346841	348.4	43.3	-64.4	8.0
2026-01-20 17:33:56.590852	348.3	42.6	-64.5	8.5
2026-01-20 17:33:58.834367	348.2	42.0	-64.5	7.9
2026-01-20 17:34:01.077386	348.1	41.4	-64.6	8.3
2026-01-20 17:34:03.320901	347.9	40.8	-64.7	6.7
2026-01-20 17:34:05.565408	347.8	40.2	-64.6	5.4
2026-01-20 17:34:07.809419	347.7	39.6	-64.9	7.5
2026-01-20 17:34:10.054438	347.6	39.0	-65.1	7.6
2026-01-20 17:34:12.298450	347.5	38.5	-64.8	7.0
2026-01-20 17:34:14.542460	347.4	37.9	-64.2	6.2
2026-01-20 17:34:16.784983	347.3	37.4	-63.5	6.7
2026-01-20 17:34:19.029995	347.3	36.8	-64.0	8.2
2026-01-20 17:34:21.273510	347.2	36.3	-63.5	6.1
2026-01-20 17:34:23.519017	347.1	35.8	-64.0	6.8
2026-01-20 17:34:25.763038	347.0	35.2	-63.5	6.6
2026-01-20 17:34:28.009059	346.9	34.7	-63.9	7.4
2026-01-20 17:34:30.253071	346.9	34.2	-62.5	8.2
2026-01-20 17:34:32.497578	346.8	33.7	-63.3	8.6
2026-01-20 17:34:34.746094	346.7	33.3	-63.6	6.0
2026-01-20 17:34:36.990106	346.7	32.8	-63.9	6.7
2026-01-20 17:34:39.233126	346.6	32.3	-64.1	6.5
2026-01-20 17:34:41.476642	346.5	31.9	-64.1	7.1
2026-01-20 17:34:43.720670	346.5	31.4	-64.3	7.7
2026-01-20 17:34:45.963203	346.4	31.0	-64.4	7.1
2026-01-20 17:34:48.204239	346.3	30.5	-64.0	7.1
2026-01-20 17:34:50.447761	346.3	30.1	-63.3	4.3
2026-01-20 17:34:52.691772	346.2	29.7	-63.7	6.8
2026-01-20 17:34:54.935784	346.2	29.2	-63.3	5.4
2026-01-20 17:34:57.179300	346.1	28.8	-63.4	5.0
2026-01-20 17:34:59.423312	346.1	28.4	-63.1	6.7
2026-01-20 17:35:01.666339	346.0	28.0	-62.9	5.4
2026-01-20 17:35:03.908862	346.0	27.6	-64.5	7.5
2026-01-20 17:35:06.151881	346.0	27.2	-64.3	7.9
2026-01-20 17:35:08.399902	345.9	26.8	-64.0	7.1
2026-01-20 17:35:10.642941	345.9	26.5	-64.2	7.6
2026-01-20 17:35:12.888456	345.8	26.1	-64.5	7.9
2026-01-20 17:35:15.134477	345.8	25.7	-63.0	5.7
2026-01-20 17:35:17.378489	345.7	25.3	-64.2	6.5
2026-01-20 17:35:19.622995	345.7	25.0	-64.0	7.4
2026-01-20 17:35:21.869007	345.7	24.6	-64.7	5.9
2026-01-20 17:35:24.118019	345.6	24.3	-64.8	6.9
2026-01-20 17:35:26.362526	345.6	23.9	-63.8	5.0
2026-01-20 17:35:28.606538	345.6	23.6	-63.4	6.4
2026-01-20 17:35:30.853055	345.5	23.3	-64.1	5.4
2026-01-20 17:35:33.095580	345.5	22.9	-63.7	5.4
2026-01-20 17:35:35.339102	345.5	22.6	-63.1	5.6
2026-01-20 17:35:37.583113	345.4	22.3	-63.5	4.6
2026-01-20 17:35:39.826140	345.4	22.0	-64.4	5.8
2026-01-20 17:35:42.068664	345.4	21.6	-64.4	4.7
2026-01-20 17:35:44.311187	345.4	21.3	-64.5	5.2
2026-01-20 17:35:46.554215	345.3	21.0	-64.2	5.4
2026-01-20 17:35:48.801723	345.3	20.7	-64.5	5.8
2026-01-20 17:35:51.045238	345.3	20.4	-64.2	6.8
2026-01-20 17:35:53.287265	345.2	20.1	-64.2	6.4
2026-01-20 17:35:55.536284	345.2	19.8	-64.5	5.5
2026-01-20 17:35:57.779304	345.2	19.5	-64.0	5.9
2026-01-20 17:36:00.023315	345.2	19.2	-63.8	4.9
2026-01-20 17:36:02.267829	345.2	19.0	-63.9	5.1
2026-01-20 17:36:04.511840	345.1	18.7	-63.5	1.8
2026-01-20 17:36:06.756346	345.1	18.4	-64.4	3.8
2026-01-20 17:36:09.000358	345.1	18.1	-64.7	4.6
2026-01-20 17:36:11.243873	345.1	17.9	-64.6	3.8
2026-01-20 17:36:13.488389	345.1	17.6	-64.3	4.0
2026-01-20 17:36:15.732400	345.0	17.3	-64.3	4.0
2026-01-20 17:36:17.975420	345.0	17.1	-64.7	3.7
2026-01-20 17:36:20.218440	345.0	16.8	-64.9	4.3
2026-01-20 17:36:22.461956	345.0	16.6	-64.6	4.3
2026-01-20 17:36:24.705471	345.0	16.3	-64.7	4.2
2026-01-20 17:36:26.948491	344.9	16.0	-64.3	3.9
2026-01-20 17:36:29.195502	344.9	15.8	-64.6	3.9
2026-01-20 17:36:31.438522	344.9	15.6	-65.2	3.2
2026-01-20 17:36:33.682038	344.9	15.3	-64.5	3.6
2026-01-20 17:36:35.930555	344.9	15.1	-65.4	4.5
2026-01-20 17:36:38.174069	344.9	14.8	-64.5	3.9
2026-01-20 17:36:40.418585	344.8	14.6	-63.6	2.2
2026-01-20 17:36:42.660613	344.8	14.4	-64.6	1.9
2026-01-20 17:36:44.907138	344.8	14.1	-64.6	2.3
2026-01-20 17:36:47.150673	344.8	13.9	-64.5	3.7
2026-01-20 17:36:49.394197	344.8	13.7	-64.5	2.6
2026-01-20 17:36:51.642713	344.8	13.4	-64.6	1.7
2026-01-20 17:36:53.884742	344.8	13.2	-64.1	0.0
2026-01-20 17:36:56.128762	344.8	13.0	-65.2	2.8
2026-01-20 17:36:58.372781	344.7	12.8	-64.3	0.9
2026-01-20 17:37:00.615305	344.7	12.6	-63.9	0.0
2026-01-20 17:37:02.859812	344.7	12.3	-65.3	0.0
2026-01-20 17:37:05.103824	344.7	12.1	-65.5	2.6
2026-01-20 17:37:07.345852	344.7	11.9	-65.0	2.9
2026-01-20 17:37:09.589367	344.7	11.7	-64.9	2.4
2026-01-20 17:37:11.832386	344.7	11.5	-65.5	3.3
2026-01-20 17:37:14.076397	344.7	11.3	-64.7	2.0
2026-01-20 17:37:16.321931	344.7	11.1	-64.6	0.3
2026-01-20 17:37:18.563465	344.7	10.9	-64.5	3.0
2026-01-20 17:37:20.805493	344.6	10.7	-64.7	0.0
2026-01-20 17:37:23.051009	344.6	10.5	-64.1	1.3
2026-01-20 17:37:25.295019	344.6	10.3	-64.5	2.1
2026-01-20 17:37:27.539535	344.6	10.1	-64.4	1.4
2026-01-20 17:37:29.782556	344.6	9.9	-64.0	0.7
2026-01-20 17:37:32.025575	344.6	9.7	-63.7	0.7
2026-01-20 17:37:34.268595	344.6	9.5	-64.5	0.0
2026-01-20 17:37:36.510623	344.6	9.3	-65.0	2.8
2026-01-20 17:37:38.753148	344.6	9.1	-63.8	0.0
2026-01-20 17:37:40.998663	344.6	9.0	-64.0	0.0
2026-01-20 17:37:43.241683	344.6	8.8	-64.0	0.0
2026-01-20 17:37:45.486198	344.6	8.6	-65.1	0.0
2026-01-20 17:37:47.732713	344.6	8.4	-64.9	1.2
2026-01-20 17:37:49.976723	344.5	8.2	-64.6	0.0
2026-01-20 17:37:52.220734	344.5	8.0	-64.6	0.0
2026-01-20 17:37:54.464745	344.5	7.9	-64.0	0.0
2026-01-20 17:37:56.709765	344.5	7.7	-64.5	0.0
2026-01-20 17:37:58.952786	344.5	7.5	-63.5	0.0
2026-01-20 17:38:01.197292	344.5	7.3	-64.0	0.0
2026-01-20 17:38:03.440312	344.5	7.2	-63.3	0.0
2026-01-20 17:38:05.686323	344.5	7.0	-63.3	0.0
2026-01-20 17:38:07.930345	344.5	6.8	-63.8	0.0
2026-01-20 17:38:10.175357	344.5	6.6	-63.7	0.0
2026-01-20 17:38:12.419882	344.5	6.5	-63.9	0.0
2026-01-20 17:38:14.663398	344.5	6.3	-64.5	0.0
2026-01-20 17:38:16.906425	344.5	6.1	-64.1	0.0
2026-01-20 17:38:19.149446	344.5	6.0	-66.6	0.0
2026-01-20 17:38:21.392969	344.5	5.8	-67.9	0.0
2026-01-20 17:38:23.635989	344.5	5.6	-67.6	0.0
2026-01-20 17:38:25.880000	344.5	5.5	-68.2	0.0
2026-01-20 17:38:28.126021	344.5	5.3	-69.4	0.0
2026-01-20 17:38:30.369536	344.5	5.1	-69.9	0.0
2026-01-20 17:38:32.613548	344.5	5.0	-70.5	0.0
#Closed at: 2026-01-20 17:25:34.963944