passes_logs/2026/01/20/PlanumMoscow/PlanumMoscow__20260120_073552_METOP-B_rec.log

#Pass ID: 20260120_073552_METOP-B
#Satellite: METOP-B
#Configuration: METOP-B
#Start time: 2026-01-20 07:35:57.698937

#LorettStation: 1.0.0 05.05.2024
#Station: PlanumMoscow
#Location: 37.6253844 lon 55.6713361 lat
#TLE: 1 38771U 12049A   25293.92766658  .00000266  00000+0  14193-3 0  9996
#TLE: 2 38771  98.6882 344.7603 0001609 341.5209  18.5909 14.21379342679275

#Time	Az	El	Level	SNR
2026-01-20 07:39:36.096993	5.4	28.8	-58.6	0.0
2026-01-20 07:39:38.340510	5.2	29.2	-58.7	0.0
2026-01-20 07:39:40.590018	5.0	29.6	-59.2	0.0
2026-01-20 07:39:42.834029	4.8	30.0	-60.1	1.4
2026-01-20 07:39:45.078040	4.5	30.5	-59.0	0.0
2026-01-20 07:39:47.321557	4.3	30.9	-59.6	0.0
2026-01-20 07:39:49.565091	4.1	31.3	-60.4	1.4
2026-01-20 07:39:51.808111	3.8	31.7	-58.0	0.0
2026-01-20 07:39:54.051131	3.6	32.2	-61.4	4.6
2026-01-20 07:39:56.297666	3.3	32.6	-60.8	2.2
2026-01-20 07:39:58.541189	3.1	33.1	-59.8	0.0
2026-01-20 07:40:00.783711	2.8	33.5	-60.8	3.6
2026-01-20 07:40:03.025723	2.5	34.0	-60.3	1.5
2026-01-20 07:40:05.268733	2.2	34.5	-61.2	3.2
2026-01-20 07:40:07.509239	2.0	34.9	-60.4	1.9
2026-01-20 07:40:09.751250	1.7	35.4	-61.0	2.2
2026-01-20 07:40:11.994764	1.3	35.9	-60.5	2.2
2026-01-20 07:40:14.240776	1.0	36.4	-60.8	4.1
2026-01-20 07:40:16.482802	0.7	36.9	-60.6	1.8
2026-01-20 07:40:18.731318	0.3	37.4	-61.1	2.3
2026-01-20 07:40:20.975344	360.0	37.9	-59.8	3.5
2026-01-20 07:40:23.219850	359.6	38.4	-60.0	3.8
2026-01-20 07:40:25.462870	359.2	39.0	-60.3	2.0
2026-01-20 07:40:27.705394	358.9	39.5	-61.4	6.6
2026-01-20 07:40:29.948414	358.4	40.1	-60.6	3.7
2026-01-20 07:40:32.188937	358.0	40.6	-61.1	2.4
2026-01-20 07:40:34.429451	357.6	41.2	-60.3	4.4
2026-01-20 07:40:36.673462	357.1	41.7	-59.4	0.2
2026-01-20 07:40:38.916473	356.7	42.3	-61.2	5.7
2026-01-20 07:40:41.157509	356.2	42.9	-61.3	5.7
2026-01-20 07:40:43.399040	355.7	43.4	-62.6	5.9
2026-01-20 07:40:45.641067	355.2	44.0	-62.7	7.8
2026-01-20 07:40:47.884582	354.6	44.6	-62.7	7.1
2026-01-20 07:40:50.127106	354.1	45.2	-62.7	8.3
2026-01-20 07:40:52.368115	353.5	45.8	-62.4	6.5
2026-01-20 07:40:54.611630	352.9	46.5	-62.8	9.4
2026-01-20 07:40:56.853648	352.3	47.1	-62.2	8.2
2026-01-20 07:40:59.096171	351.6	47.7	-63.0	8.8
2026-01-20 07:41:01.340182	350.9	48.3	-62.9	7.7
2026-01-20 07:41:03.581697	350.2	49.0	-62.7	7.3
2026-01-20 07:41:05.823219	349.5	49.6	-62.8	7.6
2026-01-20 07:41:08.061741	348.7	50.2	-63.5	7.9
2026-01-20 07:41:10.305248	347.9	50.9	-62.6	6.4
2026-01-20 07:41:12.545770	347.0	51.5	-63.7	8.4
2026-01-20 07:41:14.787284	346.2	52.2	-63.7	8.2
2026-01-20 07:41:17.029302	345.2	52.8	-64.0	8.1
2026-01-20 07:41:19.270321	344.3	53.5	-63.7	8.6
2026-01-20 07:41:21.511368	343.3	54.1	-63.3	8.2
2026-01-20 07:41:23.754378	342.2	54.8	-63.4	7.8
2026-01-20 07:41:25.995469	341.1	55.4	-63.0	7.3
2026-01-20 07:41:28.236536	340.0	56.1	-63.4	9.6
2026-01-20 07:41:30.479086	338.7	56.7	-63.2	7.4
2026-01-20 07:41:32.723610	337.5	57.3	-63.4	8.2
2026-01-20 07:41:34.967621	336.1	58.0	-63.7	8.7
2026-01-20 07:41:37.209648	334.7	58.6	-63.9	8.4
2026-01-20 07:41:39.452219	333.3	59.2	-63.6	8.0
2026-01-20 07:41:41.695246	331.8	59.8	-63.6	8.3
2026-01-20 07:41:43.982813	330.1	60.4	-63.7	8.6
2026-01-20 07:41:46.226824	328.4	60.9	-63.8	7.9
2026-01-20 07:41:48.469348	326.7	61.5	-63.9	7.9
2026-01-20 07:41:50.712367	324.9	62.0	-63.5	7.8
2026-01-20 07:41:52.956379	322.9	62.5	-63.1	7.6
2026-01-20 07:41:55.200390	320.9	63.0	-63.2	7.5
2026-01-20 07:41:57.443914	318.9	63.5	-63.8	6.8
2026-01-20 07:41:59.686428	316.7	63.9	-63.9	7.4
2026-01-20 07:42:01.929943	314.5	64.3	-64.2	7.2
2026-01-20 07:42:04.173459	312.2	64.6	-64.4	7.5
2026-01-20 07:42:06.417470	309.8	65.0	-64.6	8.1
2026-01-20 07:42:08.660976	307.4	65.3	-64.1	6.6
2026-01-20 07:42:10.904988	304.9	65.5	-64.6	7.4
2026-01-20 07:42:13.149999	302.3	65.7	-64.7	5.9
2026-01-20 07:42:15.391010	299.7	65.9	-64.5	8.2
2026-01-20 07:42:17.635021	297.1	66.0	-64.8	8.1
2026-01-20 07:42:19.878041	294.5	66.0	-64.4	8.4
2026-01-20 07:42:22.119077	291.8	66.0	-64.4	7.3
2026-01-20 07:42:24.363097	289.2	66.0	-63.9	6.1
2026-01-20 07:42:26.605621	286.5	65.9	-64.7	8.4
2026-01-20 07:42:28.847640	283.9	65.8	-64.1	7.1
2026-01-20 07:42:31.088651	281.3	65.7	-63.5	5.6
2026-01-20 07:42:33.331166	278.8	65.4	-63.8	5.8
2026-01-20 07:42:35.574177	276.3	65.2	-63.9	5.7
2026-01-20 07:42:37.815195	273.9	64.9	-64.1	6.2
2026-01-20 07:42:40.056718	271.5	64.6	-63.9	5.9
2026-01-20 07:42:42.300241	269.2	64.2	-64.3	5.9
2026-01-20 07:42:44.544252	267.0	63.8	-63.6	5.8
2026-01-20 07:42:46.788263	264.9	63.4	-63.7	5.6
2026-01-20 07:42:49.032283	262.8	62.9	-63.4	5.6
2026-01-20 07:42:51.275799	260.8	62.4	-62.2	5.6
2026-01-20 07:42:53.519314	258.9	61.9	-62.5	5.0
2026-01-20 07:42:55.762829	257.1	61.4	-62.5	4.3
2026-01-20 07:42:58.004840	255.4	60.8	-62.7	5.6
2026-01-20 07:43:00.247859	253.7	60.2	-62.5	3.4
2026-01-20 07:43:02.492366	252.1	59.7	-62.3	5.4
2026-01-20 07:43:04.735889	250.6	59.1	-63.4	5.9
2026-01-20 07:43:06.978909	249.1	58.4	-62.6	4.8
2026-01-20 07:43:09.221434	247.8	57.8	-62.1	4.4
2026-01-20 07:43:11.465445	246.4	57.2	-61.8	2.0
2026-01-20 07:43:13.709456	245.2	56.6	-62.1	4.8
2026-01-20 07:43:15.951484	244.0	55.9	-61.5	4.1
2026-01-20 07:43:18.194495	242.8	55.3	-62.1	5.8
2026-01-20 07:43:20.438011	241.7	54.6	-61.6	5.2
2026-01-20 07:43:22.681526	240.7	54.0	-60.7	1.6
2026-01-20 07:43:24.923060	239.7	53.3	-61.4	3.1
2026-01-20 07:43:27.165584	238.7	52.7	-61.3	3.4
2026-01-20 07:43:29.406107	237.8	52.0	-61.5	2.7
2026-01-20 07:43:31.649125	236.9	51.4	-61.0	3.4
2026-01-20 07:43:33.892648	236.1	50.7	-61.2	2.8
2026-01-20 07:43:36.134676	235.3	50.1	-60.8	3.0
2026-01-20 07:43:38.378687	234.5	49.4	-60.1	2.4
2026-01-20 07:43:40.620211	233.8	48.8	-60.3	4.2
2026-01-20 07:43:42.863230	233.1	48.1	-60.0	3.1
2026-01-20 07:43:45.104745	232.4	47.5	-60.6	2.7
2026-01-20 07:43:47.348260	231.7	46.9	-60.0	2.2
2026-01-20 07:43:49.589289	231.1	46.3	-59.6	0.9
2026-01-20 07:43:51.831804	230.5	45.7	-59.7	2.7
2026-01-20 07:43:54.072814	229.9	45.1	-59.9	4.3
2026-01-20 07:43:56.317330	229.4	44.4	-60.0	2.0
2026-01-20 07:43:58.558340	228.8	43.9	-60.0	2.3
2026-01-20 07:44:00.801351	228.3	43.3	-60.0	3.7
2026-01-20 07:44:03.043369	227.8	42.7	-60.2	4.3
2026-01-20 07:44:05.287380	227.3	42.1	-60.5	4.5
2026-01-20 07:44:07.526911	226.9	41.5	-60.6	5.2
2026-01-20 07:44:09.770922	226.4	41.0	-59.5	0.5
2026-01-20 07:44:12.015437	226.0	40.4	-59.6	4.3
2026-01-20 07:44:14.259944	225.6	39.9	-60.2	2.3
2026-01-20 07:44:16.499476	225.2	39.3	-59.4	5.1
2026-01-20 07:44:18.739496	224.8	38.8	-59.9	3.0
2026-01-20 07:44:20.984508	224.4	38.3	-59.9	2.8
2026-01-20 07:44:23.227519	224.0	37.7	-60.8	6.2
2026-01-20 07:44:25.471530	223.7	37.2	-60.5	4.8
2026-01-20 07:44:27.715541	223.4	36.7	-60.6	4.6
2026-01-20 07:44:29.959057	223.0	36.2	-58.6	2.9
2026-01-20 07:44:32.202093	222.7	35.7	-56.9	0.0
2026-01-20 07:44:34.445112	222.4	35.2	-57.7	1.4
2026-01-20 07:44:36.687138	222.1	34.7	-58.9	3.5
2026-01-20 07:44:38.930156	221.8	34.3	-61.1	4.3
2026-01-20 07:44:41.170165	221.5	33.8	-58.6	4.7
2026-01-20 07:44:43.413177	221.2	33.3	-59.2	0.5
2026-01-20 07:44:45.654693	221.0	32.9	-60.4	5.2
2026-01-20 07:44:47.897703	220.7	32.4	-58.6	0.6
2026-01-20 07:44:50.138226	220.4	32.0	-58.7	2.0
2026-01-20 07:44:52.380236	220.2	31.5	-58.8	2.5
2026-01-20 07:44:54.622759	220.0	31.1	-60.9	6.4
2026-01-20 07:44:56.865780	219.7	30.7	-60.4	4.2
2026-01-20 07:44:59.107303	219.5	30.3	-61.4	3.3
2026-01-20 07:45:01.346818	219.3	29.8	-60.2	2.6
2026-01-20 07:45:03.592829	219.1	29.4	-60.6	4.6
2026-01-20 07:45:05.836841	218.9	29.0	-60.8	4.6
2026-01-20 07:45:08.082862	218.6	28.6	-60.5	4.2
2026-01-20 07:45:10.325386	218.4	28.2	-60.9	5.9
2026-01-20 07:45:12.568406	218.3	27.8	-60.7	5.9
2026-01-20 07:45:14.811921	218.1	27.5	-61.3	6.2
2026-01-20 07:45:17.054941	217.9	27.1	-61.1	5.7
2026-01-20 07:45:19.298953	217.7	26.7	-59.4	0.0
2026-01-20 07:45:21.542964	217.5	26.3	-61.2	5.4
2026-01-20 07:45:23.784992	217.3	26.0	-61.4	4.6
2026-01-20 07:45:26.029004	217.2	25.6	-61.2	4.7
2026-01-20 07:45:28.272531	217.0	25.3	-59.8	1.8
2026-01-20 07:45:30.516542	216.9	24.9	-58.8	0.0
2026-01-20 07:45:32.762067	216.7	24.6	-61.6	4.9
2026-01-20 07:45:35.003600	216.5	24.2	-60.9	1.4
2026-01-20 07:45:37.247611	216.4	23.9	-60.7	0.2
2026-01-20 07:45:39.491127	216.2	23.5	-61.0	3.3
2026-01-20 07:45:41.739147	216.1	23.2	-61.1	4.8
2026-01-20 07:45:43.983174	216.0	22.9	-60.5	4.5
2026-01-20 07:45:46.227186	215.8	22.6	-60.0	3.3
2026-01-20 07:45:48.470207	215.7	22.2	-61.3	0.0
2026-01-20 07:45:50.714713	215.6	21.9	-62.3	4.5
2026-01-20 07:45:52.959220	215.4	21.6	-62.4	4.6
2026-01-20 07:45:55.203232	215.3	21.3	-62.0	6.1
2026-01-20 07:45:57.446252	215.2	21.0	-62.7	3.9
2026-01-20 07:45:59.690263	215.1	20.7	-62.0	5.4
2026-01-20 07:46:01.934274	214.9	20.4	-62.5	5.8
2026-01-20 07:46:04.178285	214.8	20.1	-62.6	5.5
2026-01-20 07:46:06.425308	214.7	19.8	-62.9	6.1
2026-01-20 07:46:08.668327	214.6	19.5	-62.4	3.5
2026-01-20 07:46:10.911346	214.5	19.3	-63.0	6.1
2026-01-20 07:46:13.155862	214.4	19.0	-63.2	5.5
2026-01-20 07:46:15.398394	214.3	18.7	-62.6	6.3
2026-01-20 07:46:17.641429	214.2	18.4	-62.8	2.5
2026-01-20 07:46:19.884448	214.1	18.1	-63.7	4.7
2026-01-20 07:46:22.127963	214.0	17.9	-61.5	4.4
2026-01-20 07:46:24.371974	213.9	17.6	-62.9	5.8
2026-01-20 07:46:26.614002	213.8	17.4	-62.4	3.2
2026-01-20 07:46:28.858012	213.7	17.1	-61.5	1.5
2026-01-20 07:46:31.106024	213.6	16.8	-62.0	2.4
2026-01-20 07:46:33.350035	213.5	16.6	-63.5	4.1
2026-01-20 07:46:35.593551	213.4	16.3	-64.0	5.1
2026-01-20 07:46:37.836571	213.3	16.1	-63.8	5.6
2026-01-20 07:46:40.080086	213.2	15.8	-63.0	3.7
2026-01-20 07:46:42.323601	213.2	15.6	-63.1	3.3
2026-01-20 07:46:44.567611	213.1	15.3	-63.8	4.6
2026-01-20 07:46:46.810632	213.0	15.1	-62.3	0.2
2026-01-20 07:46:49.054642	212.9	14.9	-63.7	2.1
2026-01-20 07:46:51.298157	212.8	14.6	-63.7	6.0
2026-01-20 07:46:53.543691	212.8	14.4	-63.8	4.7
2026-01-20 07:46:55.786215	212.7	14.2	-63.9	4.8
2026-01-20 07:46:58.028243	212.6	13.9	-63.8	4.3
2026-01-20 07:47:00.271768	212.5	13.7	-64.0	4.9
2026-01-20 07:47:02.517789	212.5	13.5	-63.4	0.0
2026-01-20 07:47:04.761810	212.4	13.3	-63.7	3.9
2026-01-20 07:47:07.005821	212.3	13.0	-63.0	0.0
2026-01-20 07:47:09.249346	212.2	12.8	-62.8	0.0
2026-01-20 07:47:11.492862	212.2	12.6	-62.6	0.5
2026-01-20 07:47:13.736377	212.1	12.4	-63.9	4.0
2026-01-20 07:47:15.979903	212.0	12.2	-63.6	2.7
2026-01-20 07:47:18.225419	212.0	12.0	-62.9	0.7
2026-01-20 07:47:20.469934	211.9	11.7	-63.2	0.0
2026-01-20 07:47:22.713954	211.9	11.5	-60.9	3.2
2026-01-20 07:47:24.956479	211.8	11.3	-63.1	3.2
2026-01-20 07:47:27.199499	211.7	11.1	-61.8	0.0
2026-01-20 07:47:29.442034	211.7	10.9	-64.2	3.9
2026-01-20 07:47:31.684061	211.6	10.7	-64.0	3.5
2026-01-20 07:47:33.926586	211.6	10.5	-63.9	2.9
2026-01-20 07:47:36.171123	211.5	10.3	-64.0	2.1
2026-01-20 07:47:38.415133	211.4	10.1	-63.0	2.4
2026-01-20 07:47:40.657658	211.4	9.9	-63.2	0.0
2026-01-20 07:47:42.902182	211.3	9.7	-63.0	0.0
2026-01-20 07:47:45.144717	211.3	9.5	-61.0	0.0
2026-01-20 07:47:47.386754	211.2	9.4	-61.9	0.0
2026-01-20 07:47:49.628286	211.2	9.2	-60.7	0.0
2026-01-20 07:47:51.873307	211.1	9.0	-62.0	0.0
2026-01-20 07:47:54.116823	211.1	8.8	-62.7	0.0
2026-01-20 07:47:56.360834	211.0	8.6	-62.3	0.0
2026-01-20 07:47:58.604349	211.0	8.4	-61.8	0.0
2026-01-20 07:48:00.847370	210.9	8.2	-62.6	0.0
2026-01-20 07:48:03.090885	210.9	8.1	-62.5	0.0
2026-01-20 07:48:05.334896	210.8	7.9	-62.2	0.0
2026-01-20 07:48:07.578917	210.8	7.7	-63.1	0.0
2026-01-20 07:48:09.822928	210.7	7.5	-62.6	0.0
2026-01-20 07:48:12.066444	210.7	7.4	-61.6	0.0
2026-01-20 07:48:14.310455	210.6	7.2	-63.3	0.0
2026-01-20 07:48:16.553473	210.6	7.0	-63.1	0.0
2026-01-20 07:48:18.796989	210.5	6.8	-62.5	0.0
2026-01-20 07:48:21.041010	210.5	6.7	-59.2	0.0
2026-01-20 07:48:23.284029	210.5	6.5	-60.3	0.0
2026-01-20 07:48:25.528536	210.4	6.3	-61.2	0.0
2026-01-20 07:48:27.773052	210.4	6.2	-59.4	0.0
2026-01-20 07:48:30.016567	210.3	6.0	-58.8	0.0
2026-01-20 07:48:32.261083	210.3	5.8	-62.3	0.0
2026-01-20 07:48:34.505094	210.3	5.7	-62.5	0.0
2026-01-20 07:48:36.750105	210.2	5.5	-67.1	0.0
2026-01-20 07:48:38.991637	210.2	5.3	-69.9	0.0
2026-01-20 07:48:41.235162	210.1	5.2	-69.5	0.0
2026-01-20 07:48:43.479174	210.1	5.0	-69.6	0.0
#Closed at: 2026-01-20 07:35:52.699514