passes_logs/2026/01/20/PlanumMoscow/PlanumMoscow__20260120_081304_METOP-C_rec.log

#Pass ID: 20260120_081304_METOP-C
#Satellite: METOP-C
#Configuration: METOP-C
#Start time: 2026-01-20 08:13:09.788935

#LorettStation: 1.0.0 05.05.2024
#Station: PlanumMoscow
#Location: 37.6253844 lon 55.6713361 lat
#TLE: 1 43689U 18087A   25293.88981035  .00000265  00000+0  14109-3 0  9997
#TLE: 2 43689  98.7006 352.4487 0002041 122.1097 238.0279 14.21482740360838

#Time	Az	El	Level	SNR
2026-01-20 08:16:48.219853	2.6	28.4	-61.0	0.0
2026-01-20 08:16:50.468370	2.3	28.8	-60.1	0.0
2026-01-20 08:16:52.712382	2.1	29.2	-62.0	0.0
2026-01-20 08:16:54.956402	1.8	29.6	-61.0	0.0
2026-01-20 08:16:57.199919	1.5	30.0	-57.9	0.0
2026-01-20 08:16:59.442938	1.3	30.4	-60.5	0.0
2026-01-20 08:17:01.685461	1.0	30.8	-59.4	0.0
2026-01-20 08:17:03.928978	0.7	31.2	-61.1	0.0
2026-01-20 08:17:06.173990	0.4	31.6	-62.3	0.0
2026-01-20 08:17:08.418497	0.1	32.0	-62.3	0.0
2026-01-20 08:17:10.661517	359.8	32.5	-61.5	0.0
2026-01-20 08:17:12.905529	359.4	32.9	-61.9	0.0
2026-01-20 08:17:15.149044	359.1	33.3	-60.2	0.0
2026-01-20 08:17:17.393056	358.7	33.8	-60.9	0.0
2026-01-20 08:17:19.639068	358.4	34.2	-60.5	0.0
2026-01-20 08:17:21.882583	358.0	34.7	-62.2	0.0
2026-01-20 08:17:24.124613	357.7	35.1	-60.9	0.0
2026-01-20 08:17:26.366642	357.3	35.6	-62.5	0.0
2026-01-20 08:17:28.610176	356.9	36.1	-63.0	0.0
2026-01-20 08:17:30.852710	356.5	36.6	-63.2	0.0
2026-01-20 08:17:33.096721	356.0	37.0	-63.7	0.0
2026-01-20 08:17:35.340237	355.6	37.5	-64.1	0.0
2026-01-20 08:17:37.583754	355.1	38.0	-65.0	0.0
2026-01-20 08:17:39.828271	354.7	38.5	-62.8	0.0
2026-01-20 08:17:42.072282	354.2	39.0	-64.5	0.0
2026-01-20 08:17:44.323306	353.7	39.5	-65.6	0.0
2026-01-20 08:17:46.566327	353.2	40.0	-64.8	0.0
2026-01-20 08:17:48.809842	352.7	40.6	-65.4	0.0
2026-01-20 08:17:51.053863	352.1	41.1	-64.2	0.0
2026-01-20 08:17:53.295894	351.6	41.6	-64.9	0.0
2026-01-20 08:17:55.539906	351.0	42.1	-64.7	0.0
2026-01-20 08:17:57.784941	350.4	42.7	-64.9	0.0
2026-01-20 08:18:00.028457	349.8	43.2	-65.7	0.0
2026-01-20 08:18:02.271973	349.1	43.8	-65.5	0.0
2026-01-20 08:18:04.515984	348.5	44.3	-66.0	0.0
2026-01-20 08:18:06.759995	347.8	44.8	-66.7	0.0
2026-01-20 08:18:09.004006	347.0	45.4	-66.7	0.0
2026-01-20 08:18:11.247026	346.3	46.0	-65.6	0.0
2026-01-20 08:18:13.490541	345.5	46.5	-66.1	0.0
2026-01-20 08:18:15.734553	344.7	47.1	-66.1	0.0
2026-01-20 08:18:17.978068	343.9	47.6	-66.0	0.0
2026-01-20 08:18:20.221088	343.1	48.2	-67.0	0.0
2026-01-20 08:18:22.467100	342.2	48.8	-67.3	0.0
2026-01-20 08:18:24.711616	341.3	49.3	-66.8	0.0
2026-01-20 08:18:26.957131	340.3	49.9	-66.7	0.0
2026-01-20 08:18:29.201143	339.3	50.4	-67.0	0.0
2026-01-20 08:18:31.445154	338.3	51.0	-67.1	0.0
2026-01-20 08:18:33.689670	337.2	51.5	-68.3	0.0
2026-01-20 08:18:35.938682	336.1	52.1	-67.2	0.0
2026-01-20 08:18:38.182694	335.0	52.6	-67.4	0.0
2026-01-20 08:18:40.425219	333.8	53.2	-65.2	0.0
2026-01-20 08:18:42.668735	332.5	53.7	-65.1	0.0
2026-01-20 08:18:44.913242	331.2	54.2	-65.5	0.0
2026-01-20 08:18:47.157253	329.9	54.7	-65.7	0.0
2026-01-20 08:18:49.399778	328.5	55.2	-65.5	0.0
2026-01-20 08:18:51.644817	327.1	55.7	-67.1	0.0
2026-01-20 08:18:53.889334	325.6	56.2	-65.1	0.0
2026-01-20 08:18:56.132353	324.1	56.6	-65.0	0.0
2026-01-20 08:18:58.375869	322.5	57.1	-66.8	0.0
2026-01-20 08:19:00.619880	320.9	57.5	-66.1	0.0
2026-01-20 08:19:02.862404	319.2	57.9	-67.2	0.0
2026-01-20 08:19:05.105920	317.5	58.3	-66.6	0.0
2026-01-20 08:19:07.349437	315.7	58.6	-66.4	0.0
2026-01-20 08:19:09.594448	313.9	59.0	-66.5	0.0
2026-01-20 08:19:11.838459	312.0	59.3	-66.8	0.0
2026-01-20 08:19:14.067504	310.1	59.6	-67.0	0.0
2026-01-20 08:19:16.316517	308.1	59.8	-67.0	0.0
2026-01-20 08:19:18.558547	306.1	60.0	-66.0	0.0
2026-01-20 08:19:20.802559	304.1	60.2	-66.8	0.0
2026-01-20 08:19:23.044113	302.1	60.4	-66.7	0.0
2026-01-20 08:19:25.288620	300.0	60.5	-65.9	0.0
2026-01-20 08:19:27.532632	297.9	60.6	-67.0	0.0
2026-01-20 08:19:29.776157	295.8	60.7	-67.1	0.0
2026-01-20 08:19:32.019673	293.7	60.7	-67.2	0.0
2026-01-20 08:19:34.263683	291.6	60.7	-67.4	0.0
2026-01-20 08:19:36.508199	289.5	60.6	-66.4	0.0
2026-01-20 08:19:38.752210	287.4	60.5	-66.9	0.0
2026-01-20 08:19:40.996222	285.3	60.4	-67.1	0.0
2026-01-20 08:19:43.240234	283.2	60.3	-65.9	0.0
2026-01-20 08:19:45.484245	281.2	60.1	-66.7	0.0
2026-01-20 08:19:47.727265	279.2	59.9	-66.7	0.0
2026-01-20 08:19:49.972781	277.2	59.7	-66.0	0.0
2026-01-20 08:19:52.216792	275.3	59.4	-66.3	0.0
2026-01-20 08:19:54.460309	273.4	59.1	-65.4	0.0
2026-01-20 08:19:56.707825	271.5	58.8	-65.7	0.0
2026-01-20 08:19:58.951837	269.7	58.4	-65.6	0.0
2026-01-20 08:20:01.193865	268.0	58.0	-66.0	0.0
2026-01-20 08:20:03.439380	266.3	57.6	-65.6	0.0
2026-01-20 08:20:05.683391	264.6	57.2	-66.3	0.0
2026-01-20 08:20:07.927403	263.0	56.8	-65.1	0.0
2026-01-20 08:20:10.170919	261.5	56.3	-64.0	0.0
2026-01-20 08:20:12.415931	260.0	55.9	-64.5	0.0
2026-01-20 08:20:14.659447	258.5	55.4	-64.5	0.0
2026-01-20 08:20:16.901481	257.1	54.9	-65.2	0.0
2026-01-20 08:20:19.147500	255.8	54.4	-64.4	0.0
2026-01-20 08:20:21.392007	254.5	53.9	-64.1	0.0
2026-01-20 08:20:23.635027	253.2	53.3	-63.8	0.0
2026-01-20 08:20:25.880038	252.0	52.8	-64.5	0.0
2026-01-20 08:20:28.123059	250.8	52.3	-64.9	0.0
2026-01-20 08:20:30.373071	249.7	51.7	-62.9	0.0
2026-01-20 08:20:32.617082	248.6	51.2	-63.6	0.0
2026-01-20 08:20:34.861093	247.6	50.6	-62.6	0.0
2026-01-20 08:20:37.104609	246.6	50.0	-63.9	0.0
2026-01-20 08:20:39.347134	245.6	49.5	-63.8	0.0
2026-01-20 08:20:41.590164	244.7	48.9	-62.8	0.0
2026-01-20 08:20:43.833682	243.8	48.4	-62.5	0.0
2026-01-20 08:20:46.077198	242.9	47.8	-61.3	0.0
2026-01-20 08:20:48.320713	242.1	47.2	-64.0	0.0
2026-01-20 08:20:50.565220	241.3	46.7	-63.5	0.0
2026-01-20 08:20:52.810230	240.5	46.1	-63.5	0.0
2026-01-20 08:20:55.054242	239.7	45.5	-62.1	0.0
2026-01-20 08:20:57.296280	239.0	45.0	-62.8	0.0
2026-01-20 08:20:59.541797	238.3	44.4	-62.5	0.0
2026-01-20 08:21:01.784321	237.6	43.9	-61.8	0.0
2026-01-20 08:21:04.028827	237.0	43.3	-62.4	0.0
2026-01-20 08:21:06.272847	236.3	42.8	-60.9	0.0
2026-01-20 08:21:08.516372	235.7	42.3	-61.7	0.0
2026-01-20 08:21:10.758407	235.1	41.7	-62.4	0.0
2026-01-20 08:21:13.002914	234.6	41.2	-62.8	0.0
2026-01-20 08:21:15.248935	234.0	40.7	-61.8	0.0
2026-01-20 08:21:17.493441	233.5	40.1	-61.2	0.0
2026-01-20 08:21:19.736957	233.0	39.6	-60.9	0.0
2026-01-20 08:21:21.979977	232.5	39.1	-62.8	0.0
2026-01-20 08:21:24.222501	232.0	38.6	-60.5	0.0
2026-01-20 08:21:26.466513	231.5	38.1	-61.3	0.0
2026-01-20 08:21:28.710029	231.1	37.6	-61.5	0.0
2026-01-20 08:21:30.954069	230.6	37.1	-61.6	0.0
2026-01-20 08:21:33.199595	230.2	36.6	-61.2	0.0
2026-01-20 08:21:35.444102	229.8	36.2	-61.7	0.0
2026-01-20 08:21:37.688113	229.4	35.7	-59.6	0.0
2026-01-20 08:21:39.934134	229.0	35.2	-61.8	0.0
2026-01-20 08:21:42.178146	228.6	34.7	-61.2	0.0
2026-01-20 08:21:44.422158	228.2	34.3	-60.7	0.0
2026-01-20 08:21:46.666168	227.9	33.8	-62.6	0.0
2026-01-20 08:21:48.913199	227.5	33.4	-61.6	0.0
2026-01-20 08:21:51.156219	227.2	32.9	-60.7	0.0
2026-01-20 08:21:53.400238	226.8	32.5	-63.3	0.0
2026-01-20 08:21:55.643268	226.5	32.1	-59.9	0.0
2026-01-20 08:21:57.887279	226.2	31.6	-62.1	0.0
2026-01-20 08:22:00.131290	225.9	31.2	-60.2	0.0
2026-01-20 08:22:02.373815	225.6	30.8	-59.9	0.0
2026-01-20 08:22:04.618332	225.3	30.4	-59.1	0.0
2026-01-20 08:22:06.861363	225.0	30.0	-59.7	0.0
2026-01-20 08:22:09.104889	224.7	29.6	-61.3	0.0
2026-01-20 08:22:11.347909	224.5	29.2	-62.2	0.0
2026-01-20 08:22:13.592427	224.2	28.8	-62.5	0.0
2026-01-20 08:22:15.836439	224.0	28.4	-61.5	0.0
2026-01-20 08:22:18.080945	223.7	28.0	-62.7	0.0
2026-01-20 08:22:20.323470	223.5	27.6	-62.2	0.0
2026-01-20 08:22:22.566491	223.2	27.3	-60.0	0.0
2026-01-20 08:22:24.809511	223.0	26.9	-62.6	0.0
2026-01-20 08:22:27.053523	222.8	26.5	-61.0	0.0
2026-01-20 08:22:29.302041	222.5	26.2	-60.4	0.0
2026-01-20 08:22:31.544565	222.3	25.8	-62.3	0.0
2026-01-20 08:22:33.787586	222.1	25.5	-62.0	0.0
2026-01-20 08:22:36.034617	221.9	25.1	-61.9	0.0
2026-01-20 08:22:38.278637	221.7	24.8	-61.4	0.0
2026-01-20 08:22:40.521162	221.5	24.4	-62.1	0.0
2026-01-20 08:22:42.765173	221.3	24.1	-62.3	0.0
2026-01-20 08:22:45.008203	221.1	23.8	-61.5	0.0
2026-01-20 08:22:47.250728	220.9	23.4	-60.7	0.0
2026-01-20 08:22:49.494739	220.8	23.1	-63.7	0.0
2026-01-20 08:22:51.737264	220.6	22.8	-62.4	0.0
2026-01-20 08:22:53.985277	220.4	22.5	-62.3	0.0
2026-01-20 08:22:56.228792	220.2	22.2	-63.3	0.0
2026-01-20 08:22:58.473299	220.1	21.9	-62.4	0.0
2026-01-20 08:23:00.716319	219.9	21.6	-62.3	0.0
2026-01-20 08:23:02.959835	219.8	21.3	-62.5	0.0
2026-01-20 08:23:05.202857	219.6	21.0	-63.8	0.0
2026-01-20 08:23:07.445381	219.4	20.7	-63.8	0.0
2026-01-20 08:23:09.689392	219.3	20.4	-61.4	0.0
2026-01-20 08:23:11.932908	219.1	20.1	-61.6	0.0
2026-01-20 08:23:14.176920	219.0	19.8	-63.1	0.0
2026-01-20 08:23:16.421940	218.9	19.5	-64.1	0.0
2026-01-20 08:23:18.665456	218.7	19.2	-63.4	0.0
2026-01-20 08:23:20.908972	218.6	19.0	-61.9	0.0
2026-01-20 08:23:23.152488	218.4	18.7	-63.3	0.0
2026-01-20 08:23:25.397509	218.3	18.4	-62.6	0.0
2026-01-20 08:23:27.642016	218.2	18.1	-61.3	0.0
2026-01-20 08:23:29.885533	218.1	17.9	-63.1	0.0
2026-01-20 08:23:32.129048	217.9	17.6	-63.8	2.7
2026-01-20 08:23:34.373060	217.8	17.4	-64.2	0.4
2026-01-20 08:23:36.616081	217.7	17.1	-63.8	3.3
2026-01-20 08:23:38.860100	217.6	16.8	-63.5	2.7
2026-01-20 08:23:41.102129	217.5	16.6	-63.8	0.4
2026-01-20 08:23:43.346140	217.3	16.3	-63.1	2.3
2026-01-20 08:23:45.589158	217.2	16.1	-63.7	0.0
2026-01-20 08:23:47.833169	217.1	15.8	-64.2	3.2
2026-01-20 08:23:50.076706	217.0	15.6	-64.8	3.3
2026-01-20 08:23:52.319728	216.9	15.4	-62.9	0.0
2026-01-20 08:23:54.563252	216.8	15.1	-64.5	4.4
2026-01-20 08:23:56.807263	216.7	14.9	-64.6	1.6
2026-01-20 08:23:59.052788	216.6	14.7	-65.2	4.5
2026-01-20 08:24:01.297799	216.5	14.4	-64.4	5.3
2026-01-20 08:24:03.541314	216.4	14.2	-64.8	5.7
2026-01-20 08:24:05.784840	216.3	14.0	-64.7	3.5
2026-01-20 08:24:08.028853	216.2	13.7	-64.4	4.8
2026-01-20 08:24:10.272863	216.1	13.5	-64.6	4.8
2026-01-20 08:24:12.516876	216.0	13.3	-62.7	1.8
2026-01-20 08:24:14.759897	215.9	13.1	-64.4	4.4
2026-01-20 08:24:17.003412	215.8	12.9	-64.1	3.5
2026-01-20 08:24:19.247928	215.8	12.6	-63.7	3.2
2026-01-20 08:24:21.491443	215.7	12.4	-63.0	4.2
2026-01-20 08:24:23.734959	215.6	12.2	-63.7	0.2
2026-01-20 08:24:25.979970	215.5	12.0	-64.4	4.5
2026-01-20 08:24:28.224477	215.4	11.8	-64.4	5.1
2026-01-20 08:24:30.467497	215.3	11.6	-62.4	0.0
2026-01-20 08:24:32.711509	215.3	11.4	-64.9	3.1
2026-01-20 08:24:34.956025	215.2	11.2	-64.8	4.1
2026-01-20 08:24:37.199540	215.1	11.0	-64.7	5.1
2026-01-20 08:24:39.443551	215.0	10.8	-64.7	4.8
2026-01-20 08:24:41.687067	215.0	10.6	-62.9	1.4
2026-01-20 08:24:43.931573	214.9	10.4	-62.9	4.2
2026-01-20 08:24:46.175593	214.8	10.2	-64.2	4.7
2026-01-20 08:24:48.420100	214.7	10.0	-64.9	4.6
2026-01-20 08:24:50.664111	214.7	9.8	-64.7	4.4
2026-01-20 08:24:52.909628	214.6	9.6	-64.6	2.8
2026-01-20 08:24:55.154658	214.5	9.4	-64.6	4.6
2026-01-20 08:24:57.397184	214.5	9.2	-64.1	3.3
2026-01-20 08:24:59.641195	214.4	9.0	-64.2	2.8
2026-01-20 08:25:01.884215	214.3	8.8	-65.3	3.4
2026-01-20 08:25:04.125226	214.3	8.7	-64.1	0.0
2026-01-20 08:25:06.365236	214.2	8.5	-64.1	5.3
2026-01-20 08:25:08.606761	214.1	8.3	-64.8	5.2
2026-01-20 08:25:10.850276	214.1	8.1	-65.1	1.7
2026-01-20 08:25:13.092295	214.0	7.9	-63.8	3.2
2026-01-20 08:25:15.331305	213.9	7.8	-64.6	4.2
2026-01-20 08:25:17.571333	213.9	7.6	-61.2	0.0
2026-01-20 08:25:19.813360	213.8	7.4	-64.5	4.4
2026-01-20 08:25:22.056371	213.8	7.2	-62.3	1.1
2026-01-20 08:25:24.297383	213.7	7.1	-64.6	3.2
2026-01-20 08:25:26.535898	213.7	6.9	-64.6	3.6
2026-01-20 08:25:28.778918	213.6	6.7	-64.6	4.1
2026-01-20 08:25:31.019937	213.5	6.5	-63.7	1.6
2026-01-20 08:25:33.260958	213.5	6.4	-60.3	0.0
2026-01-20 08:25:35.501969	213.4	6.2	-59.7	0.0
2026-01-20 08:25:37.742510	213.4	6.0	-60.9	0.0
2026-01-20 08:25:39.983034	213.3	5.9	-59.8	0.0
2026-01-20 08:25:42.226045	213.3	5.7	-64.7	0.0
2026-01-20 08:25:44.470056	213.2	5.6	-67.0	0.0
2026-01-20 08:25:46.711571	213.2	5.4	-70.2	0.0
2026-01-20 08:25:48.951085	213.1	5.2	-70.1	0.0
2026-01-20 08:25:51.188591	213.1	5.1	-69.8	0.0
#Closed at: 2026-01-20 08:13:04.789982