passes_logs/2026/01/24/R4.6S_Anadyr/R4.6S_Anadyr__20260124_175349_FENGYUN_3D_rec.log

#Pass ID: 20260124_175349_FENGYUN 3D
#Satellite: FENGYUN 3D
#Configuration: FENGYUN 3D
#almurnet v.1.7.20251203
#Start time: 2026-01-24 17:53:50

#Version: 2.2.20231116
#Station: R4.6S_Anadyr
#Location: 177.4865 lon 64.73178 lat
#TLE: 1 43010U 17072A   26024.16556041  .00000326  00000+0  17587-3 0  9998
#TLE: 2 43010  98.9960 356.1242 0002491  92.2506 267.8955 14.19700380424559

#Time	Az	El	Level	Level2	SNR	BER	BlckErr	Temp	State	Recorded	gain1	gain2
2026-01-24 17:53:50.96	24.02	0.10	-52.4	-67.3	3.5	1.51e+00	0	38	0	0	60	83620
2026-01-24 17:53:54.99	23.92	0.34	-52.5	-64.6	3.6	8.45e-01	0	39	104	0	60	61490
2026-01-24 17:53:59.03	23.82	0.58	-52.2	-64.4	3.6	8.44e-01	0	39	104	0	60	59854
2026-01-24 17:54:03.07	23.72	0.82	-52.0	-64.2	3.6	8.44e-01	0	39	104	0	60	58407
2026-01-24 17:54:07.11	23.62	1.07	-52.2	-64.3	3.6	8.46e-01	0	39	104	0	60	59541
2026-01-24 17:54:11.15	23.51	1.31	-51.2	-63.4	3.6	8.45e-01	0	40	104	0	60	53190
2026-01-24 17:54:15.19	23.41	1.56	-50.3	-62.4	3.6	8.45e-01	0	40	104	0	60	47556
2026-01-24 17:54:19.24	23.30	1.81	-50.1	-62.1	3.6	8.46e-01	0	39	104	0	60	46234
2026-01-24 17:54:23.27	23.18	2.06	-50.1	-61.9	3.6	8.44e-01	0	40	104	0	60	45079
2026-01-24 17:54:27.32	23.07	2.32	-50.2	-62.3	3.6	8.46e-01	0	40	104	0	60	47209
2026-01-24 17:54:31.36	22.95	2.57	-50.0	-61.2	3.6	8.46e-01	0	40	104	0	60	41359
2026-01-24 17:54:35.40	22.83	2.83	-49.9	-60.0	3.7	8.44e-01	0	40	104	0	60	36243
2026-01-24 17:54:39.44	22.71	3.09	-50.4	-61.8	3.6	8.45e-01	0	40	104	0	60	44380
2026-01-24 17:54:43.48	22.59	3.36	-48.1	-51.9	9.0	1.96e-02	0	40	0	10485760	60	14190
2026-01-24 17:54:47.52	22.46	3.62	-44.7	-46.5	14.8	4.50e-06	0	40	0	33554432	60	7619
2026-01-24 17:54:51.56	22.33	3.89	-43.0	-44.5	14.4	0.00e+00	0	40	0	55574528	52	9599
2026-01-24 17:54:55.60	22.20	4.16	-40.9	-41.9	19.4	0.00e+00	0	40	0	71303168	54	6334
2026-01-24 17:54:59.64	22.07	4.43	-38.8	-39.7	21.7	0.00e+00	0	40	0	94371840	50	6192
2026-01-24 17:55:03.68	21.93	4.71	-38.3	-39.0	22.6	0.00e+00	0	40	0	117440512	50	5739
2026-01-24 17:55:07.72	21.79	4.99	-38.7	-39.5	21.9	0.00e+00	0	40	0	139460608	50	6060
2026-01-24 17:55:11.76	21.65	5.27	-38.3	-39.1	22.4	0.00e+00	0	40	0	162529280	50	5817
2026-01-24 17:55:15.80	21.50	5.55	-38.1	-38.8	22.6	0.00e+00	0	40	0	185597952	48	6304
2026-01-24 17:55:19.84	21.35	5.84	-39.1	-39.9	21.9	0.00e+00	0	40	0	207618048	52	5671
2026-01-24 17:55:23.88	21.20	6.13	-38.2	-39.0	22.3	0.00e+00	0	40	0	230686720	50	5720
2026-01-24 17:55:27.92	21.04	6.42	-38.6	-39.5	22.2	0.00e+00	0	40	0	253755392	48	6779
2026-01-24 17:55:31.96	20.88	6.72	-38.0	-38.7	22.8	0.00e+00	0	40	0	275775488	48	6243
2026-01-24 17:55:36.00	20.72	7.02	-37.9	-38.6	22.9	0.00e+00	0	40	0	298844160	50	5484
2026-01-24 17:55:40.04	20.55	7.32	-37.9	-38.7	23.0	0.00e+00	0	40	0	321912832	48	6207
2026-01-24 17:55:44.08	20.38	7.62	-37.9	-38.6	23.0	0.00e+00	0	40	0	344981504	48	6138
2026-01-24 17:55:48.11	20.21	7.93	-37.6	-38.4	23.3	0.00e+00	0	40	0	367001600	48	5990
2026-01-24 17:55:52.15	20.03	8.24	-38.3	-39.1	22.9	0.00e+00	0	40	0	390070272	50	5786
2026-01-24 17:55:56.19	19.84	8.56	-38.6	-39.3	23.2	0.00e+00	0	40	0	412090368	50	5913
2026-01-24 17:56:00.22	19.65	8.88	-39.4	-40.2	22.2	0.00e+00	0	40	0	435159040	50	6603
2026-01-24 17:56:04.27	19.46	9.20	-39.8	-40.6	21.7	0.00e+00	0	40	0	458227712	50	6889
2026-01-24 17:56:08.30	19.26	9.53	-38.5	-39.3	22.7	0.00e+00	0	40	0	480247808	50	5919
2026-01-24 17:56:12.34	19.06	9.86	-40.8	-41.7	21.2	0.00e+00	0	40	0	503316480	52	6977
2026-01-24 17:56:16.38	18.86	10.20	-37.0	-37.7	24.0	0.00e+00	0	40	0	526385152	48	5533
2026-01-24 17:56:20.42	18.64	10.54	-37.8	-38.6	23.6	0.00e+00	0	40	0	549453824	48	6130
2026-01-24 17:56:24.46	18.43	10.88	-36.8	-37.4	24.4	0.00e+00	0	40	0	571473920	46	6031
2026-01-24 17:56:28.50	18.20	11.23	-37.0	-37.7	24.2	0.00e+00	0	40	0	594542592	46	6220
2026-01-24 17:56:32.53	17.97	11.58	-37.3	-38.0	23.9	0.00e+00	0	40	0	616562688	46	6423
2026-01-24 17:56:36.57	17.74	11.94	-37.4	-38.1	24.2	0.00e+00	0	40	0	639631360	46	6539
2026-01-24 17:56:40.61	17.50	12.30	-37.0	-37.7	24.2	0.00e+00	0	40	0	662700032	46	6223
2026-01-24 17:56:44.65	17.25	12.67	-36.9	-37.6	24.5	0.00e+00	0	40	0	684720128	46	6131
2026-01-24 17:56:48.68	16.99	13.04	-36.3	-36.9	25.0	0.00e+00	0	40	0	707788800	46	5692
2026-01-24 17:56:52.72	16.73	13.42	-36.7	-37.4	24.6	0.00e+00	0	40	0	730857472	46	5984
2026-01-24 17:56:56.76	16.46	13.80	-36.2	-36.8	25.1	0.00e+00	0	40	0	752877568	46	5627
2026-01-24 17:57:00.80	16.19	14.19	-36.2	-36.9	25.3	0.00e+00	0	40	0	775946240	46	5657
2026-01-24 17:57:04.84	15.90	14.59	-36.3	-37.0	25.0	0.00e+00	0	40	0	799014912	46	5743
2026-01-24 17:57:08.88	15.61	14.99	-35.9	-36.5	25.3	0.00e+00	0	40	0	822083584	46	5439
2026-01-24 17:57:12.92	15.31	15.39	-35.7	-36.4	25.5	0.00e+00	0	40	0	844103680	44	6014
2026-01-24 17:57:16.96	15.00	15.81	-35.6	-36.3	25.7	0.00e+00	0	40	0	867172352	44	5915
2026-01-24 17:57:20.99	14.68	16.22	-35.1	-35.8	26.0	0.00e+00	0	40	0	889192448	44	5578
2026-01-24 17:57:25.03	14.36	16.65	-35.2	-35.9	25.9	0.00e+00	0	40	0	912261120	44	5649
2026-01-24 17:57:29.07	14.02	17.08	-35.5	-36.1	25.8	0.00e+00	0	40	0	935329792	44	5819
2026-01-24 17:57:33.11	13.67	17.51	-35.2	-35.8	26.1	0.00e+00	0	40	0	957349888	44	5597
2026-01-24 17:57:37.15	13.31	17.96	-35.7	-36.4	25.9	0.00e+00	0	40	0	980418560	44	5984
2026-01-24 17:57:41.19	12.94	18.41	-34.9	-35.5	26.3	0.00e+00	0	40	0	1003487232	44	5397
2026-01-24 17:57:45.23	12.56	18.87	-34.9	-35.5	26.4	0.00e+00	0	40	0	1026555904	44	5424
2026-01-24 17:57:49.27	12.17	19.33	-35.0	-35.6	26.2	0.00e+00	0	41	0	1048576000	44	5501
2026-01-24 17:57:53.31	11.76	19.81	-34.8	-35.5	26.4	0.00e+00	0	41	0	1071644672	44	5404
2026-01-24 17:57:57.35	11.34	20.29	-34.6	-35.2	26.7	0.00e+00	0	41	0	1093664768	42	5877
2026-01-24 17:58:01.39	10.90	20.77	-34.1	-34.7	27.0	0.00e+00	0	41	0	1116733440	42	5545
2026-01-24 17:58:05.42	10.46	21.27	-34.0	-34.6	27.1	0.00e+00	0	41	0	1139802112	42	5490
2026-01-24 17:58:09.46	9.99	21.77	-34.1	-34.7	27.1	0.00e+00	0	40	0	1161822208	42	5533
2026-01-24 17:58:13.50	9.51	22.28	-33.9	-34.5	27.3	0.00e+00	0	41	0	1184890880	42	5417
2026-01-24 17:58:17.54	9.02	22.80	-34.0	-34.6	27.1	0.00e+00	0	41	0	1207959552	42	5467
2026-01-24 17:58:21.58	8.50	23.33	-33.9	-34.5	27.2	0.00e+00	0	41	0	1231028224	42	5422
2026-01-24 17:58:25.62	7.97	23.87	-33.8	-34.5	27.3	0.00e+00	0	41	0	1253048320	42	5387
2026-01-24 17:58:29.65	7.42	24.41	-33.7	-34.3	27.4	0.00e+00	0	41	0	1276116992	40	5938
2026-01-24 17:58:33.69	6.85	24.96	-33.6	-34.3	27.5	0.00e+00	0	41	0	1298137088	40	5907
2026-01-24 17:58:37.72	6.26	25.52	-33.4	-34.1	27.6	0.00e+00	0	41	0	1321205760	40	5765
2026-01-24 17:58:41.76	5.64	26.09	-33.1	-33.7	27.9	0.00e+00	0	41	0	1344274432	40	5520
2026-01-24 17:58:45.80	5.01	26.67	-33.0	-33.7	28.0	0.00e+00	0	41	0	1366294528	40	5515
2026-01-24 17:58:49.84	4.35	27.26	-33.2	-33.8	27.9	0.00e+00	0	41	0	1389363200	40	5586
2026-01-24 17:58:53.88	3.66	27.85	-33.4	-34.0	27.7	0.00e+00	0	41	0	1412431872	40	5724
2026-01-24 17:58:57.92	2.94	28.46	-33.3	-33.9	27.8	0.00e+00	0	41	0	1435500544	40	5673
2026-01-24 17:59:01.96	2.20	29.07	-33.1	-33.7	28.0	0.00e+00	0	41	0	1457520640	40	5540
2026-01-24 17:59:06.00	1.43	29.69	-33.1	-33.7	28.1	0.00e+00	0	41	0	1480589312	40	5542
2026-01-24 17:59:10.03	0.63	30.31	-32.9	-33.5	28.1	0.00e+00	0	41	0	1502609408	40	5420
2026-01-24 17:59:14.07	359.79	30.95	-33.1	-33.7	28.0	0.00e+00	0	41	0	1525678080	40	5527
2026-01-24 17:59:18.11	358.92	31.59	-32.8	-33.4	28.1	0.00e+00	0	41	0	1548746752	38	5993
2026-01-24 17:59:22.15	358.02	32.24	-33.0	-33.6	28.2	0.00e+00	0	41	0	1570766848	38	6128
2026-01-24 17:59:26.19	357.08	32.89	-33.1	-33.7	27.9	0.00e+00	0	41	0	1593835520	38	6206
2026-01-24 17:59:30.23	356.09	33.55	-32.8	-33.4	28.1	0.00e+00	0	41	0	1616904192	38	6014
2026-01-24 17:59:34.26	355.07	34.21	-33.0	-33.7	28.0	0.00e+00	0	41	0	1638924288	38	6175
2026-01-24 17:59:38.30	354.01	34.87	-33.0	-33.6	28.2	0.00e+00	0	41	0	1661992960	38	6168
2026-01-24 17:59:42.33	352.90	35.54	-33.2	-33.9	27.9	0.00e+00	0	41	0	1685061632	38	6321
2026-01-24 17:59:46.37	351.74	36.21	-33.6	-34.2	27.7	0.00e+00	0	41	0	1707081728	40	5888
2026-01-24 17:59:50.41	350.53	36.88	-33.0	-33.6	27.9	0.00e+00	0	41	0	1730150400	40	5480
2026-01-24 17:59:54.45	349.27	37.54	-32.9	-33.5	28.1	0.00e+00	0	41	0	1753219072	38	6046
2026-01-24 17:59:58.49	347.96	38.21	-32.7	-33.3	28.2	0.00e+00	0	41	0	1775239168	38	5939
2026-01-24 18:00:02.53	346.60	38.87	-33.4	-34.1	27.8	0.00e+00	0	41	0	1798307840	38	6468
2026-01-24 18:00:06.57	345.17	39.52	-32.9	-33.5	28.0	0.00e+00	0	41	0	1821376512	38	6091
2026-01-24 18:00:10.61	343.69	40.16	-32.9	-33.5	28.2	0.00e+00	0	41	0	1843396608	38	6080
2026-01-24 18:00:14.65	342.15	40.80	-33.3	-33.9	27.9	0.00e+00	0	41	0	1866465280	38	6334
2026-01-24 18:00:18.69	340.55	41.41	-32.7	-33.3	28.4	0.00e+00	0	41	0	1889533952	38	5914
2026-01-24 18:00:22.72	338.89	42.01	-32.9	-33.5	28.3	0.00e+00	0	41	0	1911554048	38	6063
2026-01-24 18:00:26.76	337.16	42.60	-33.5	-34.2	27.8	0.00e+00	0	41	0	1934622720	38	6541
2026-01-24 18:00:30.80	335.37	43.16	-33.2	-33.8	28.0	0.00e+00	0	41	0	1957691392	40	5614
2026-01-24 18:00:34.84	333.51	43.70	-33.1	-33.7	28.2	0.00e+00	0	41	0	1979711488	40	5509
2026-01-24 18:00:38.87	331.60	44.21	-33.2	-33.7	28.1	0.00e+00	0	41	0	2002780160	40	5537
2026-01-24 18:00:42.91	329.62	44.68	-33.2	-33.8	27.9	0.00e+00	0	41	0	2025848832	40	5620
2026-01-24 18:00:46.95	327.59	45.13	-33.1	-33.7	28.1	0.00e+00	0	41	0	2047868928	40	5547
2026-01-24 18:00:50.99	325.50	45.54	-33.4	-34.0	28.0	0.00e+00	0	41	0	2070937600	40	5723
2026-01-24 18:00:55.03	323.35	45.91	-33.4	-34.1	27.8	0.00e+00	0	41	0	2094006272	40	5801
2026-01-24 18:00:59.07	321.16	46.23	-33.6	-34.2	27.9	0.00e+00	0	41	0	2116026368	40	5857
2026-01-24 18:01:03.11	318.92	46.51	-33.7	-34.3	27.8	0.00e+00	0	41	0	2139095040	40	5914
2026-01-24 18:01:07.15	316.65	46.75	-33.9	-34.5	27.6	0.00e+00	0	41	0	2162163712	40	6036
2026-01-24 18:01:11.19	314.35	46.93	-33.6	-34.2	27.8	0.00e+00	0	41	0	2184183808	40	5860
2026-01-24 18:01:15.23	312.02	47.06	-34.0	-34.7	27.6	0.00e+00	0	41	0	2207252480	40	6187
2026-01-24 18:01:19.27	309.67	47.15	-33.7	-34.3	27.9	0.00e+00	0	41	0	2230321152	40	5923
2026-01-24 18:01:23.30	307.33	47.18	-33.4	-34.0	28.1	0.00e+00	0	41	0	2252341248	40	5711
2026-01-24 18:01:27.34	304.97	47.15	-33.3	-33.9	28.0	0.00e+00	0	41	0	2275409920	40	5685
2026-01-24 18:01:31.38	302.63	47.08	-33.8	-34.4	27.5	0.00e+00	0	41	0	2298478592	40	6006
2026-01-24 18:01:35.42	300.30	46.95	-33.5	-34.2	27.9	0.00e+00	0	41	0	2320498688	40	5835
2026-01-24 18:01:39.46	297.99	46.77	-33.3	-33.9	28.0	0.00e+00	0	41	0	2343567360	40	5635
2026-01-24 18:01:43.49	295.72	46.54	-33.2	-33.8	28.0	0.00e+00	0	41	0	2366636032	40	5586
2026-01-24 18:01:47.53	293.47	46.26	-33.1	-33.7	28.1	0.00e+00	0	41	0	2388656128	40	5528
2026-01-24 18:01:51.57	291.28	45.94	-32.8	-33.3	28.4	0.00e+00	0	41	0	2411724800	38	5948
2026-01-24 18:01:55.61	289.12	45.58	-32.8	-33.4	28.2	0.00e+00	0	41	0	2433744896	38	5981
2026-01-24 18:01:59.65	287.02	45.17	-33.2	-33.8	27.9	0.00e+00	0	41	0	2456813568	38	6268
2026-01-24 18:02:03.69	284.98	44.73	-33.4	-34.0	28.1	0.00e+00	0	41	0	2479882240	38	6405
2026-01-24 18:02:07.73	282.99	44.25	-32.8	-33.4	28.4	0.00e+00	0	41	0	2502950912	38	5983
2026-01-24 18:02:11.77	281.07	43.75	-32.9	-33.6	28.6	0.00e+00	0	41	0	2524971008	38	6131
2026-01-24 18:02:15.81	279.20	43.21	-33.0	-33.6	28.4	0.00e+00	0	41	0	2548039680	38	6156
2026-01-24 18:02:19.85	277.40	42.65	-32.8	-33.4	28.5	0.00e+00	0	41	0	2571108352	38	6011
2026-01-24 18:02:23.89	275.66	42.07	-32.7	-33.2	28.4	0.00e+00	0	41	0	2593128448	38	5889
2026-01-24 18:02:27.93	273.99	41.47	-33.0	-33.7	28.3	0.00e+00	0	41	0	2616197120	38	6202
2026-01-24 18:02:31.97	272.37	40.85	-33.4	-34.1	28.1	0.00e+00	0	41	0	2639265792	38	6480
2026-01-24 18:02:36.00	270.83	40.22	-33.1	-33.8	28.2	0.00e+00	0	41	0	2661285888	40	5592
2026-01-24 18:02:40.04	269.34	39.57	-33.0	-33.6	28.2	0.00e+00	0	41	0	2684354560	40	5464
2026-01-24 18:02:44.08	267.90	38.92	-33.0	-33.7	28.0	0.00e+00	0	41	0	2707423232	40	5547
2026-01-24 18:02:48.12	266.53	38.26	-32.8	-33.3	28.3	0.00e+00	0	41	0	2729443328	40	5314
2026-01-24 18:02:52.16	265.21	37.59	-33.0	-33.6	28.0	0.00e+00	0	41	0	2752512000	40	5476
2026-01-24 18:02:56.20	263.94	36.92	-33.2	-33.7	28.2	0.00e+00	0	41	0	2775580672	38	6200
2026-01-24 18:03:00.24	262.73	36.25	-32.9	-33.6	28.0	0.00e+00	0	41	0	2797600768	38	6129
2026-01-24 18:03:04.28	261.56	35.58	-33.5	-34.1	28.0	0.00e+00	0	41	0	2820669440	38	6499
2026-01-24 18:03:08.32	260.44	34.91	-32.9	-33.6	28.5	0.00e+00	0	41	0	2843738112	40	5442
2026-01-24 18:03:12.36	259.37	34.24	-32.7	-33.2	28.5	0.00e+00	0	41	0	2865758208	38	5852
2026-01-24 18:03:16.40	258.34	33.58	-33.0	-33.5	28.3	0.00e+00	0	41	0	2888826880	38	6071
2026-01-24 18:03:20.45	257.34	32.92	-33.3	-33.9	28.2	0.00e+00	0	41	0	2911895552	38	6365
2026-01-24 18:03:24.48	256.40	32.26	-33.2	-33.8	28.1	0.00e+00	0	41	0	2933915648	38	6305
2026-01-24 18:03:28.53	255.48	31.61	-33.7	-34.3	27.6	0.00e+00	0	41	0	2956984320	40	5912
2026-01-24 18:03:32.56	254.61	30.97	-33.6	-34.1	27.6	0.00e+00	0	41	0	2980052992	40	5820
2026-01-24 18:03:36.59	253.77	30.33	-33.8	-34.5	27.6	0.00e+00	0	41	0	3002073088	40	6043
2026-01-24 18:03:40.63	252.96	29.70	-33.4	-34.0	27.6	0.00e+00	0	41	0	3025141760	40	5713
2026-01-24 18:03:44.67	252.19	29.08	-33.4	-34.1	27.7	0.00e+00	0	41	0	3048210432	40	5770
2026-01-24 18:03:48.71	251.44	28.47	-33.6	-34.1	27.6	0.00e+00	0	41	0	3070230528	40	5814
2026-01-24 18:03:52.75	250.72	27.86	-33.7	-34.3	27.5	0.00e+00	0	41	0	3093299200	40	5960
2026-01-24 18:03:56.79	250.03	27.26	-33.9	-34.4	27.5	0.00e+00	0	41	0	3116367872	40	6012
2026-01-24 18:04:00.83	249.36	26.67	-33.9	-34.5	27.4	0.00e+00	0	41	0	3138387968	40	6046
2026-01-24 18:04:04.86	248.72	26.09	-33.9	-34.5	27.4	0.00e+00	0	41	0	3161456640	40	6045
2026-01-24 18:04:08.90	248.10	25.52	-33.6	-34.2	27.5	0.00e+00	0	41	0	3184525312	40	5858
2026-01-24 18:04:12.94	247.50	24.96	-33.6	-34.3	27.3	0.00e+00	0	41	0	3206545408	40	5911
2026-01-24 18:04:16.98	246.93	24.40	-33.3	-34.0	27.6	0.00e+00	0	41	0	3229614080	40	5706
2026-01-24 18:04:21.02	246.37	23.85	-33.4	-34.0	27.7	0.00e+00	0	41	0	3252682752	40	5712
2026-01-24 18:04:25.06	245.84	23.32	-33.4	-34.0	27.4	0.00e+00	0	41	0	3274702848	40	5724
2026-01-24 18:04:29.09	245.32	22.79	-33.4	-34.0	27.6	0.00e+00	0	41	0	3297771520	40	5702
2026-01-24 18:04:33.13	244.82	22.26	-33.7	-34.3	27.3	0.00e+00	0	41	0	3320840192	40	5960
2026-01-24 18:04:37.17	244.34	21.75	-34.0	-34.7	27.0	0.00e+00	0	41	0	3342860288	40	6237
2026-01-24 18:04:41.21	243.87	21.24	-34.6	-35.2	26.8	0.00e+00	0	41	0	3365928960	40	6556
2026-01-24 18:04:45.25	243.42	20.75	-34.2	-34.7	27.0	0.00e+00	0	41	0	3388997632	40	6220
2026-01-24 18:04:49.29	242.98	20.26	-34.2	-34.8	27.0	0.00e+00	0	41	0	3411017728	40	6275
2026-01-24 18:04:53.33	242.55	19.77	-34.4	-34.9	26.8	0.00e+00	0	41	0	3434086400	40	6377
2026-01-24 18:04:57.36	242.15	19.30	-34.5	-35.0	26.8	0.00e+00	0	41	0	3456106496	40	6434
2026-01-24 18:05:01.40	241.75	18.83	-34.7	-35.2	26.7	0.00e+00	0	41	0	3479175168	42	5878
2026-01-24 18:05:05.44	241.36	18.37	-35.4	-36.0	26.1	0.00e+00	0	41	0	3502243840	42	6404
2026-01-24 18:05:09.48	240.99	17.92	-35.2	-35.8	26.0	0.00e+00	0	41	0	3525312512	44	5590
2026-01-24 18:05:13.51	240.63	17.48	-34.7	-35.3	26.3	0.00e+00	0	41	0	3547332608	42	5919
2026-01-24 18:05:17.55	240.28	17.04	-35.0	-35.5	26.2	0.00e+00	0	41	0	3570401280	42	6089
2026-01-24 18:05:21.59	239.93	16.60	-35.3	-35.9	26.0	0.00e+00	0	41	0	3593469952	42	6328
2026-01-24 18:05:25.63	239.60	16.18	-35.4	-36.0	25.7	0.00e+00	0	41	0	3615490048	42	6438
2026-01-24 18:05:29.67	239.28	15.76	-35.7	-36.3	25.6	0.00e+00	0	41	0	3638558720	44	5938
2026-01-24 18:05:33.70	238.97	15.35	-35.5	-36.1	25.7	0.00e+00	0	41	0	3660578816	44	5793
2026-01-24 18:05:37.74	238.67	14.94	-36.6	-37.3	25.1	0.00e+00	0	41	0	3683647488	44	6655
2026-01-24 18:05:41.78	238.37	14.54	-36.4	-37.2	24.9	0.00e+00	0	41	0	3706716160	44	6548
2026-01-24 18:05:45.82	238.08	14.14	-36.8	-37.4	24.8	0.00e+00	0	41	0	3729784832	46	5980
2026-01-24 18:05:49.86	237.80	13.75	-36.9	-37.6	24.5	0.00e+00	0	41	0	3751804928	46	6158
2026-01-24 18:05:53.90	237.53	13.37	-36.9	-37.5	24.3	0.00e+00	0	41	0	3774873600	46	6086
2026-01-24 18:05:57.94	237.27	12.99	-37.9	-38.5	23.3	0.00e+00	0	41	0	3797942272	48	6089
2026-01-24 18:06:01.98	237.01	12.61	-38.6	-39.4	23.1	0.00e+00	0	41	0	3819962368	50	5987
2026-01-24 18:06:06.01	236.76	12.25	-38.6	-39.5	22.9	0.00e+00	0	41	0	3843031040	50	6036
2026-01-24 18:06:10.06	236.51	11.88	-39.2	-39.9	22.1	0.00e+00	0	41	0	3865051136	50	6367
2026-01-24 18:06:14.10	236.27	11.52	-39.2	-40.1	21.8	0.00e+00	0	41	0	3888119808	50	6530
2026-01-24 18:06:18.14	236.04	11.17	-40.0	-40.9	21.3	0.00e+00	0	41	0	3911188480	52	6358
2026-01-24 18:06:22.18	235.82	10.82	-40.4	-41.3	20.7	0.00e+00	0	41	0	3934257152	52	6660
2026-01-24 18:06:26.22	235.59	10.47	-40.6	-41.6	20.5	0.00e+00	0	41	0	3956277248	52	6907
2026-01-24 18:06:30.26	235.38	10.13	-41.0	-41.9	20.0	0.00e+00	0	41	0	3979345920	54	6374
2026-01-24 18:06:34.29	235.17	9.79	-42.0	-43.0	19.6	0.00e+00	0	41	0	4002414592	56	6396
2026-01-24 18:06:38.33	234.96	9.46	-42.4	-43.4	19.1	0.00e+00	0	41	0	4024434688	56	6717
2026-01-24 18:06:42.37	234.76	9.13	-42.8	-44.0	18.3	0.00e+00	0	41	0	4047503360	56	7217
2026-01-24 18:06:46.41	234.57	8.81	-43.8	-45.1	17.3	0.00e+00	0	41	0	4069523456	58	7254
2026-01-24 18:06:50.45	234.38	8.49	-44.0	-45.5	16.6	0.00e+00	0	41	0	4092592128	60	6813
2026-01-24 18:06:54.49	234.19	8.17	-44.5	-46.0	15.9	0.00e+00	0	41	0	4115660800	60	7229
2026-01-24 18:06:58.52	234.01	7.86	-45.0	-46.6	15.4	0.00e+00	0	42	0	4138729472	60	7737
2026-01-24 18:07:02.56	233.83	7.55	-45.4	-47.2	14.6	0.00e+00	0	41	0	4160749568	60	8248
2026-01-24 18:07:06.60	233.65	7.24	-46.2	-48.3	13.5	9.10e-06	0	41	0	4183818240	60	9391
2026-01-24 18:07:10.65	233.48	6.94	-46.7	-49.0	12.6	1.15e-04	0	41	0	4206886912	60	10142
2026-01-24 18:07:14.68	233.32	6.64	-46.7	-49.2	12.1	3.87e-04	0	41	0	4228907008	60	10470
2026-01-24 18:07:18.72	233.15	6.34	-47.5	-50.5	10.9	3.32e-03	0	42	0	4251975680	60	12042
2026-01-24 18:07:22.76	232.99	6.05	-47.8	-50.9	10.4	8.42e-03	0	41	0	4273995776	60	12676
2026-01-24 18:07:26.80	232.84	5.76	-48.5	-52.0	9.4	1.62e-02	0	41	0	4297064448	60	14387
2026-01-24 18:07:30.84	232.68	5.47	-49.0	-53.2	7.5	6.47e-02	0	42	0	4320133120	60	16604
2026-01-24 18:07:34.88	232.53	5.19	-48.2	-51.4	10.6	6.53e-02	0	42	0	4343201792	60	13363
2026-01-24 18:07:38.92	232.39	4.90	-49.2	-54.1	6.7	1.81e-01	0	42	0	4365221888	60	18275
2026-01-24 18:07:42.95	232.24	4.63	-49.1	-53.6	7.2	2.84e-01	0	42	0	4388290560	60	17355
2026-01-24 18:07:46.99	232.10	4.35	-49.1	-54.1	6.4	2.29e-01	0	42	0	4411359232	60	18345
2026-01-24 18:07:51.02	231.97	4.08	-49.0	-54.6	5.3	6.32e-01	0	42	0	4429185024	60	19423
2026-01-24 18:07:55.06	231.83	3.80	-49.3	-55.7	4.4	7.67e-01	0	41	0	4440719360	60	21914
2026-01-24 18:07:59.10	231.70	3.54	-49.1	-55.5	4.4	7.58e-01	0	42	0	4442816512	60	21565
2026-01-24 18:08:03.14	231.57	3.27	-49.3	-56.8	3.8	8.21e-01	0	42	0	4443865088	60	24875
2026-01-24 18:08:07.18	231.44	3.01	-49.3	-57.7	3.8	8.37e-01	0	42	104	4443865088	60	27835
2026-01-24 18:08:11.22	231.32	2.75	-51.8	-63.9	3.6	8.45e-01	0	42	104	4443865088	60	56878
2026-01-24 18:08:15.26	231.19	2.49	-52.0	-64.1	3.6	8.46e-01	0	42	104	4443865088	60	57902
2026-01-24 18:08:19.30	231.07	2.23	-52.1	-64.3	3.6	8.47e-01	0	42	104	4443865088	60	59221
2026-01-24 18:08:23.34	230.96	1.97	-52.3	-64.5	3.6	8.45e-01	0	42	104	4443865088	60	60518
2026-01-24 18:08:27.38	230.84	1.72	-52.3	-64.6	3.6	8.46e-01	0	42	104	4443865088	60	61164
2026-01-24 18:08:31.42	230.73	1.47	-52.5	-64.6	3.6	8.46e-01	0	41	104	4443865088	60	61283
2026-01-24 18:08:35.46	230.61	1.22	-52.7	-64.8	3.6	8.46e-01	0	42	104	4443865088	60	62797
2026-01-24 18:08:39.50	230.50	0.98	-52.7	-64.8	3.6	8.45e-01	0	41	104	4443865088	60	63002
2026-01-24 18:08:43.54	230.40	0.73	-52.0	-64.1	3.6	8.45e-01	0	41	104	4443865088	60	58137
2026-01-24 18:08:47.58	230.29	0.49	-53.0	-65.1	3.6	8.46e-01	0	41	104	4443865088	60	65132
2026-01-24 18:08:51.62	230.19	0.25	-52.6	-64.7	3.6	8.45e-01	0	42	104	4443865088	60	62329
2026-01-24 18:08:55.66	230.09	0.01	-52.5	-64.6	3.6	8.46e-01	0	41	104	4443865088	60	61391

#Closed at: 2026-01-24 18:08:56
#Recorded file [4443 MB]: D:/lorett/data/35029_260125_055350.dat