passes_logs/2026/01/24/R4.6S_Anadyr/R4.6S_Anadyr__20260124_193347_FENGYUN_3D_rec.log

#Pass ID: 20260124_193347_FENGYUN 3D
#Satellite: FENGYUN 3D
#Configuration: FENGYUN 3D
#almurnet v.1.7.20251203
#Start time: 2026-01-24 19:33:49

#Version: 2.2.20231116
#Station: R4.6S_Anadyr
#Location: 177.4865 lon 64.73178 lat
#TLE: 1 43010U 17072A   26024.16556041  .00000326  00000+0  17587-3 0  9998
#TLE: 2 43010  98.9960 356.1242 0002491  92.2506 267.8955 14.19700380424559

#Time	Az	El	Level	Level2	SNR	BER	BlckErr	Temp	State	Recorded	gain1	gain2
2026-01-24 19:33:49.69	32.72	0.11	-52.5	-67.5	3.5	1.51e+00	0	38	0	0	60	85834
2026-01-24 19:33:53.72	32.49	0.32	-52.8	-65.0	3.6	8.45e-01	0	39	104	0	60	63964
2026-01-24 19:33:57.76	32.25	0.54	-53.2	-65.4	3.6	8.45e-01	0	39	104	0	60	67608
2026-01-24 19:34:01.80	32.00	0.76	-52.1	-64.2	3.6	8.45e-01	0	40	104	0	60	58874
2026-01-24 19:34:05.83	31.75	0.98	-51.8	-64.0	3.6	8.45e-01	0	40	104	0	60	57222
2026-01-24 19:34:09.87	31.50	1.20	-51.8	-63.9	3.6	8.46e-01	0	40	104	0	60	56777
2026-01-24 19:34:13.91	31.24	1.42	-51.1	-63.2	3.6	8.47e-01	0	40	104	0	60	52263
2026-01-24 19:34:17.95	30.98	1.64	-50.3	-62.4	3.6	8.45e-01	0	40	104	0	60	47575
2026-01-24 19:34:21.99	30.72	1.86	-50.2	-62.4	3.6	8.44e-01	0	40	104	0	60	47648
2026-01-24 19:34:26.03	30.45	2.09	-50.1	-61.9	3.6	8.45e-01	0	40	104	0	60	44883
2026-01-24 19:34:30.07	30.17	2.31	-50.1	-61.8	3.6	8.45e-01	0	40	104	0	60	44543
2026-01-24 19:34:34.10	29.89	2.54	-50.1	-62.3	3.6	8.45e-01	0	40	104	0	60	47023
2026-01-24 19:34:38.14	29.61	2.77	-50.0	-60.8	3.6	8.46e-01	0	40	104	0	60	39773
2026-01-24 19:34:42.18	29.32	3.00	-49.9	-59.3	3.8	8.44e-01	0	40	104	0	60	33181
2026-01-24 19:34:46.22	29.03	3.23	-44.2	-45.8	15.1	0.00e+00	0	40	0	14680064	58	7950
2026-01-24 19:34:50.26	28.73	3.46	-41.9	-42.9	18.8	3.40e-06	0	40	0	34603008	60	5076
2026-01-24 19:34:54.29	28.43	3.69	-40.5	-41.5	19.9	0.00e+00	0	40	0	46137344	54	6037
2026-01-24 19:34:58.33	28.13	3.93	-39.8	-40.7	20.5	0.00e+00	0	40	0	69206016	52	6189
2026-01-24 19:35:02.33	27.82	4.16	-38.4	-39.2	22.4	0.00e+00	0	40	0	91226112	50	5877
2026-01-24 19:35:06.37	27.50	4.40	-40.1	-41.0	20.2	0.00e+00	0	40	0	114294784	54	5753
2026-01-24 19:35:10.41	27.17	4.64	-39.1	-39.9	21.7	0.00e+00	0	40	0	137363456	52	5671
2026-01-24 19:35:14.45	26.85	4.88	-39.8	-40.7	21.1	0.00e+00	0	40	0	159383552	54	5506
2026-01-24 19:35:18.48	26.51	5.12	-40.5	-41.5	20.1	0.00e+00	0	40	0	182452224	54	6035
2026-01-24 19:35:22.52	26.17	5.36	-39.3	-40.2	21.6	0.00e+00	0	40	0	204472320	52	5867
2026-01-24 19:35:26.56	25.82	5.60	-40.4	-41.3	20.6	0.00e+00	0	40	0	227540992	54	5952
2026-01-24 19:35:30.60	25.47	5.85	-40.6	-41.6	20.5	0.00e+00	0	40	0	250609664	54	6107
2026-01-24 19:35:34.63	25.11	6.09	-39.5	-40.4	21.4	0.00e+00	0	40	0	272629760	50	6699
2026-01-24 19:35:38.67	24.75	6.34	-38.8	-39.6	22.1	0.00e+00	0	40	0	295698432	50	6151
2026-01-24 19:35:42.70	24.38	6.58	-38.2	-39.0	22.4	0.00e+00	0	40	0	318767104	50	5696
2026-01-24 19:35:46.74	24.00	6.83	-38.7	-39.5	22.5	0.00e+00	0	40	0	340787200	50	6069
2026-01-24 19:35:50.77	23.62	7.08	-38.5	-39.3	22.6	0.00e+00	0	40	0	363855872	50	5955
2026-01-24 19:35:54.81	23.22	7.33	-37.8	-38.5	23.3	0.00e+00	0	40	0	386924544	48	6073
2026-01-24 19:35:58.85	22.83	7.59	-38.8	-39.7	22.3	0.00e+00	0	41	0	408944640	50	6180
2026-01-24 19:36:02.88	22.42	7.84	-37.9	-38.7	23.2	0.00e+00	0	41	0	432013312	50	5515
2026-01-24 19:36:06.91	22.01	8.09	-38.2	-39.0	23.2	0.00e+00	0	41	0	455081984	50	5710
2026-01-24 19:36:10.94	21.59	8.35	-38.5	-39.2	22.9	0.00e+00	0	41	0	477102080	50	5877
2026-01-24 19:36:14.98	21.16	8.61	-38.8	-39.6	22.4	0.00e+00	0	41	0	500170752	50	6110
2026-01-24 19:36:19.01	20.72	8.86	-37.9	-38.7	23.3	0.00e+00	0	41	0	523239424	50	5512
2026-01-24 19:36:23.05	20.28	9.12	-37.8	-38.5	23.4	0.00e+00	0	41	0	545259520	48	6084
2026-01-24 19:36:27.08	19.83	9.38	-38.3	-39.1	23.6	0.00e+00	0	41	0	568328192	48	6520
2026-01-24 19:36:31.13	19.36	9.65	-37.5	-38.2	23.8	0.00e+00	0	41	0	590348288	48	5881
2026-01-24 19:36:35.16	18.89	9.91	-37.8	-38.6	23.6	0.00e+00	0	41	0	613416960	48	6117
2026-01-24 19:36:39.19	18.42	10.17	-37.5	-38.3	23.8	0.00e+00	0	41	0	636485632	48	5906
2026-01-24 19:36:43.23	17.93	10.43	-37.0	-37.7	24.3	0.00e+00	0	41	0	658505728	46	6195
2026-01-24 19:36:47.26	17.43	10.70	-37.4	-38.1	24.0	0.00e+00	0	41	0	681574400	48	5803
2026-01-24 19:36:51.29	16.93	10.96	-37.9	-38.6	23.4	0.00e+00	0	41	0	704643072	48	6172
2026-01-24 19:36:55.33	16.41	11.23	-37.2	-37.9	24.1	0.00e+00	0	41	0	726663168	48	5687
2026-01-24 19:36:59.36	15.89	11.49	-36.8	-37.5	24.6	0.00e+00	0	41	0	749731840	46	6051
2026-01-24 19:37:03.40	15.35	11.76	-36.8	-37.5	24.7	0.00e+00	0	41	0	772800512	46	6100
2026-01-24 19:37:07.43	14.81	12.03	-36.9	-37.7	24.5	0.00e+00	0	41	0	794820608	46	6177
2026-01-24 19:37:11.46	14.25	12.29	-36.5	-37.2	24.8	0.00e+00	0	41	0	817889280	46	5859
2026-01-24 19:37:15.50	13.69	12.56	-36.3	-37.0	25.1	0.00e+00	0	41	0	840957952	46	5704
2026-01-24 19:37:19.54	13.11	12.83	-36.6	-37.3	25.0	0.00e+00	0	41	0	862978048	46	5911
2026-01-24 19:37:23.57	12.52	13.10	-36.8	-37.5	24.9	0.00e+00	0	41	0	886046720	46	6055
2026-01-24 19:37:27.61	11.93	13.36	-36.6	-37.3	24.9	0.00e+00	0	41	0	909115392	46	5906
2026-01-24 19:37:31.65	11.32	13.63	-36.3	-37.0	25.3	0.00e+00	0	41	0	931135488	46	5725
2026-01-24 19:37:35.69	10.69	13.90	-36.4	-37.1	25.3	0.00e+00	0	41	0	954204160	46	5783
2026-01-24 19:37:39.72	10.06	14.16	-36.5	-37.2	25.1	0.00e+00	0	41	0	976224256	46	5886
2026-01-24 19:37:43.76	9.42	14.43	-36.2	-36.9	25.5	0.00e+00	0	41	0	999292928	46	5651
2026-01-24 19:37:47.79	8.76	14.69	-35.5	-36.2	25.7	0.00e+00	0	41	0	1022361600	44	5844
2026-01-24 19:37:51.83	8.10	14.96	-36.0	-36.7	25.4	0.00e+00	0	41	0	1044381696	44	6210
2026-01-24 19:37:55.87	7.42	15.22	-36.2	-36.8	25.5	0.00e+00	0	41	0	1067450368	44	6308
2026-01-24 19:37:59.91	6.72	15.48	-35.8	-36.5	25.6	0.00e+00	0	41	0	1090519040	44	6038
2026-01-24 19:38:03.94	6.02	15.74	-35.7	-36.4	25.7	0.00e+00	0	41	0	1113587712	44	5991
2026-01-24 19:38:07.98	5.30	16.00	-35.8	-36.4	25.8	0.00e+00	0	41	0	1135607808	44	6007
2026-01-24 19:38:12.02	4.57	16.26	-35.8	-36.4	25.8	0.00e+00	0	41	0	1158676480	44	6008
2026-01-24 19:38:16.06	3.83	16.51	-36.6	-37.3	25.5	0.00e+00	0	41	0	1180696576	44	6631
2026-01-24 19:38:20.10	3.07	16.76	-36.1	-36.8	25.5	0.00e+00	0	41	0	1203765248	46	5617
2026-01-24 19:38:24.14	2.31	17.01	-35.6	-36.2	25.9	0.00e+00	0	41	0	1226833920	44	5870
2026-01-24 19:38:28.18	1.52	17.26	-35.3	-35.9	26.1	0.00e+00	0	41	0	1248854016	44	5685
2026-01-24 19:38:32.21	0.73	17.50	-35.7	-36.4	25.8	0.00e+00	0	41	0	1271922688	44	5998
2026-01-24 19:38:36.25	359.92	17.74	-35.4	-36.1	26.2	0.00e+00	0	41	0	1294991360	44	5786
2026-01-24 19:38:40.30	359.10	17.98	-35.3	-36.0	26.3	0.00e+00	0	41	0	1318060032	42	6393
2026-01-24 19:38:44.34	358.27	18.21	-35.2	-35.8	26.1	0.00e+00	0	41	0	1340080128	42	6294
2026-01-24 19:38:48.37	357.42	18.43	-35.2	-35.9	26.3	0.00e+00	0	41	0	1363148800	42	6336
2026-01-24 19:38:52.40	356.57	18.66	-35.3	-36.0	26.4	0.00e+00	0	41	0	1385168896	44	5728
2026-01-24 19:38:56.44	355.69	18.88	-34.6	-35.2	26.7	0.00e+00	0	41	0	1408237568	42	5878
2026-01-24 19:39:00.48	354.81	19.09	-34.6	-35.2	26.7	0.00e+00	0	41	0	1431306240	42	5872
2026-01-24 19:39:04.52	353.91	19.30	-34.4	-35.1	26.8	0.00e+00	0	41	0	1453326336	42	5801
2026-01-24 19:39:08.55	353.01	19.50	-34.6	-35.3	26.9	0.00e+00	0	41	0	1476395008	42	5943
2026-01-24 19:39:12.59	352.08	19.69	-34.8	-35.4	27.0	0.00e+00	0	41	0	1499463680	42	5995
2026-01-24 19:39:16.63	351.15	19.88	-34.4	-35.1	27.0	0.00e+00	0	41	0	1521483776	42	5777
2026-01-24 19:39:20.67	350.21	20.07	-34.9	-35.6	26.5	0.00e+00	0	41	0	1544552448	42	6108
2026-01-24 19:39:24.71	349.25	20.24	-34.7	-35.4	26.7	0.00e+00	0	41	0	1567621120	42	5991
2026-01-24 19:39:28.74	348.29	20.41	-35.4	-36.1	26.2	0.00e+00	0	41	0	1589641216	42	6485
2026-01-24 19:39:32.77	347.31	20.57	-34.8	-35.5	26.7	0.00e+00	0	41	0	1612709888	42	6068
2026-01-24 19:39:36.81	346.32	20.73	-34.7	-35.3	27.0	0.00e+00	0	41	0	1635778560	42	5944
2026-01-24 19:39:40.86	345.32	20.87	-35.3	-36.0	26.8	0.00e+00	0	41	0	1657798656	44	5725
2026-01-24 19:39:44.90	344.32	21.01	-36.4	-37.0	25.8	0.00e+00	0	41	0	1680867328	44	6428
2026-01-24 19:39:48.94	343.30	21.13	-35.2	-35.8	26.8	0.00e+00	0	41	0	1703936000	42	6313
2026-01-24 19:39:52.97	342.28	21.25	-35.1	-35.8	26.9	0.00e+00	0	41	0	1725956096	42	6270
2026-01-24 19:39:57.01	341.25	21.36	-35.6	-36.3	26.6	0.00e+00	0	41	0	1749024768	42	6665
2026-01-24 19:40:01.05	340.21	21.46	-34.8	-35.5	26.9	0.00e+00	0	41	0	1772093440	44	5388
2026-01-24 19:40:05.09	339.16	21.55	-34.6	-35.2	26.9	0.00e+00	0	41	0	1794113536	42	5887
2026-01-24 19:40:09.12	338.11	21.63	-34.9	-35.6	27.1	0.00e+00	0	41	0	1817182208	42	6104
2026-01-24 19:40:13.17	337.06	21.70	-35.1	-35.8	26.8	0.00e+00	0	41	0	1840250880	42	6264
2026-01-24 19:40:17.21	335.99	21.76	-34.5	-35.1	27.3	0.00e+00	0	41	0	1862270976	42	5814
2026-01-24 19:40:21.24	334.93	21.81	-34.6	-35.3	27.1	0.00e+00	0	41	0	1885339648	42	5915
2026-01-24 19:40:25.27	333.87	21.85	-34.3	-35.0	27.4	0.00e+00	0	41	0	1908408320	42	5703
2026-01-24 19:40:29.31	332.80	21.88	-34.8	-35.4	26.9	0.00e+00	0	41	0	1930428416	42	6017
2026-01-24 19:40:33.35	331.73	21.90	-34.9	-35.5	27.1	0.00e+00	0	41	0	1953497088	42	6068
2026-01-24 19:40:37.39	330.65	21.90	-34.3	-34.9	27.3	0.00e+00	0	41	0	1976565760	42	5652
2026-01-24 19:40:41.42	329.58	21.90	-34.9	-35.6	27.3	0.00e+00	0	41	0	1998585856	42	6106
2026-01-24 19:40:45.46	328.51	21.89	-34.4	-35.1	27.2	0.00e+00	0	41	0	2021654528	42	5762
2026-01-24 19:40:49.50	327.44	21.86	-35.2	-35.9	26.7	0.00e+00	0	41	0	2044723200	42	6326
2026-01-24 19:40:53.54	326.37	21.82	-35.3	-35.9	27.0	0.00e+00	0	41	0	2066743296	42	6360
2026-01-24 19:40:57.58	325.30	21.78	-35.0	-35.6	27.2	0.00e+00	0	41	0	2089811968	42	6167
2026-01-24 19:41:01.62	324.24	21.72	-34.6	-35.2	27.3	0.00e+00	0	41	0	2112880640	42	5871
2026-01-24 19:41:05.66	323.18	21.65	-34.7	-35.4	27.4	0.00e+00	0	41	0	2134900736	42	5971
2026-01-24 19:41:09.70	322.13	21.58	-34.6	-35.2	27.4	0.00e+00	0	41	0	2157969408	42	5854
2026-01-24 19:41:13.73	321.09	21.49	-34.7	-35.3	27.3	0.00e+00	0	41	0	2181038080	42	5953
2026-01-24 19:41:17.78	320.04	21.39	-34.0	-34.6	27.4	0.00e+00	0	41	0	2203058176	42	5493
2026-01-24 19:41:21.82	319.01	21.29	-34.4	-35.0	27.1	0.00e+00	0	41	0	2226126848	42	5709
2026-01-24 19:41:25.85	317.98	21.17	-34.5	-35.1	27.4	0.00e+00	0	41	0	2249195520	42	5767
2026-01-24 19:41:29.89	316.96	21.05	-34.3	-34.8	27.2	0.00e+00	0	41	0	2271215616	42	5625
2026-01-24 19:41:33.93	315.95	20.91	-34.0	-34.6	27.4	0.00e+00	0	41	0	2294284288	42	5495
2026-01-24 19:41:37.97	314.95	20.77	-34.2	-34.9	27.2	0.00e+00	0	41	0	2317352960	42	5667
2026-01-24 19:41:42.01	313.96	20.62	-34.9	-35.6	26.7	0.00e+00	0	41	0	2339373056	42	6156
2026-01-24 19:41:46.05	312.98	20.46	-34.9	-35.6	26.9	0.00e+00	0	41	0	2362441728	42	6140
2026-01-24 19:41:50.09	312.00	20.29	-34.8	-35.4	27.2	0.00e+00	0	41	0	2385510400	42	5977
2026-01-24 19:41:54.12	311.04	20.12	-34.8	-35.4	27.2	0.00e+00	0	41	0	2407530496	42	5995
2026-01-24 19:41:58.16	310.09	19.94	-34.9	-35.6	27.0	0.00e+00	0	41	0	2430599168	42	6109
2026-01-24 19:42:02.19	309.16	19.75	-34.7	-35.4	27.0	0.00e+00	0	41	0	2453667840	42	5972
2026-01-24 19:42:06.24	308.23	19.56	-35.0	-35.7	26.8	0.00e+00	0	41	0	2475687936	42	6211
2026-01-24 19:42:10.27	307.32	19.36	-34.6	-35.3	27.1	0.00e+00	0	41	0	2498756608	42	5912
2026-01-24 19:42:14.31	306.41	19.15	-34.9	-35.5	26.9	0.00e+00	0	41	0	2521825280	42	6080
2026-01-24 19:42:18.35	305.52	18.94	-35.3	-35.9	26.7	0.00e+00	0	41	0	2543845376	42	6346
2026-01-24 19:42:22.39	304.65	18.72	-35.7	-36.3	26.5	0.00e+00	0	41	0	2566914048	42	6637
2026-01-24 19:42:26.42	303.78	18.50	-35.4	-36.0	26.5	0.00e+00	0	41	0	2588934144	44	5743
2026-01-24 19:42:30.46	302.93	18.27	-35.3	-36.0	26.5	0.00e+00	0	41	0	2612002816	44	5702
2026-01-24 19:42:34.50	302.09	18.04	-35.5	-36.2	26.5	0.00e+00	0	41	0	2635071488	44	5843
2026-01-24 19:42:38.53	301.27	17.81	-34.9	-35.6	26.6	0.00e+00	0	41	0	2657091584	44	5443
2026-01-24 19:42:42.57	300.45	17.57	-34.9	-35.6	26.6	0.00e+00	0	41	0	2680160256	42	6172
2026-01-24 19:42:46.61	299.65	17.33	-35.1	-35.8	26.4	0.00e+00	0	41	0	2703228928	42	6291
2026-01-24 19:42:50.64	298.87	17.08	-35.4	-36.1	26.4	0.00e+00	0	41	0	2726297600	42	6484
2026-01-24 19:42:54.68	298.09	16.83	-35.5	-36.1	26.1	0.00e+00	0	41	0	2748317696	42	6487
2026-01-24 19:42:58.72	297.33	16.58	-35.3	-35.9	26.1	0.00e+00	0	41	0	2771386368	42	6383
2026-01-24 19:43:02.76	296.58	16.33	-35.5	-36.2	25.9	0.00e+00	0	41	0	2793406464	44	5874
2026-01-24 19:43:06.79	295.85	16.07	-35.4	-35.9	26.0	0.00e+00	0	41	0	2816475136	44	5682
2026-01-24 19:43:10.83	295.12	15.81	-35.5	-36.2	26.0	0.00e+00	0	41	0	2839543808	44	5843
2026-01-24 19:43:14.87	294.41	15.55	-35.6	-36.2	26.0	0.00e+00	0	41	0	2861563904	44	5848
2026-01-24 19:43:18.91	293.72	15.29	-36.0	-36.7	25.7	0.00e+00	0	41	0	2884632576	44	6196
2026-01-24 19:43:22.94	293.03	15.03	-35.7	-36.4	25.7	0.00e+00	0	41	0	2907701248	44	6030
2026-01-24 19:43:26.98	292.36	14.76	-36.4	-37.0	25.4	0.00e+00	0	41	0	2929721344	46	5745
2026-01-24 19:43:31.02	291.69	14.50	-35.7	-36.3	25.7	0.00e+00	0	41	0	2952790016	44	5934
2026-01-24 19:43:35.06	291.04	14.23	-36.1	-36.7	25.5	0.00e+00	0	41	0	2975858688	44	6186
2026-01-24 19:43:39.10	290.41	13.97	-36.0	-36.8	25.3	0.00e+00	0	41	0	2997878784	44	6246
2026-01-24 19:43:43.14	289.78	13.70	-36.3	-37.0	25.2	0.00e+00	0	41	0	3020947456	44	6408
2026-01-24 19:43:47.17	289.17	13.43	-36.2	-36.8	25.1	0.00e+00	0	41	0	3044016128	44	6286
2026-01-24 19:43:51.21	288.56	13.16	-36.4	-37.0	25.0	0.00e+00	0	41	0	3066036224	44	6432
2026-01-24 19:43:55.25	287.97	12.90	-36.2	-37.0	25.1	0.00e+00	0	41	0	3089104896	44	6416
2026-01-24 19:43:59.28	287.39	12.63	-37.2	-37.9	24.4	0.00e+00	0	41	0	3112173568	46	6336
2026-01-24 19:44:03.32	286.82	12.36	-37.6	-38.3	24.0	0.00e+00	0	41	0	3134193664	48	5935
2026-01-24 19:44:07.36	286.26	12.09	-38.0	-38.7	24.0	0.00e+00	0	41	0	3157262336	50	5531
2026-01-24 19:44:11.40	285.71	11.82	-37.2	-37.8	24.3	0.00e+00	0	41	0	3180331008	48	5629
2026-01-24 19:44:15.44	285.16	11.56	-37.0	-37.6	24.4	0.00e+00	0	41	0	3202351104	46	6151
2026-01-24 19:44:19.48	284.63	11.29	-36.8	-37.4	24.6	0.00e+00	0	41	0	3225419776	46	5990
2026-01-24 19:44:23.52	284.11	11.02	-37.1	-37.7	24.4	0.00e+00	0	42	0	3248488448	46	6235
2026-01-24 19:44:27.55	283.60	10.76	-37.1	-37.9	24.2	0.00e+00	0	42	0	3270508544	46	6356
2026-01-24 19:44:31.59	283.10	10.49	-37.2	-38.0	24.3	0.00e+00	0	41	0	3293577216	46	6452
2026-01-24 19:44:35.63	282.61	10.23	-37.0	-37.6	24.3	0.00e+00	0	41	0	3315597312	46	6160
2026-01-24 19:44:39.66	282.13	9.96	-37.3	-37.9	24.0	0.00e+00	0	41	0	3338665984	46	6388
2026-01-24 19:44:43.70	281.65	9.70	-37.7	-38.3	23.6	0.00e+00	0	41	0	3361734656	46	6668
2026-01-24 19:44:47.74	281.18	9.44	-37.7	-38.4	23.6	0.00e+00	0	42	0	3384803328	48	6006
2026-01-24 19:44:51.78	280.73	9.18	-37.7	-38.4	23.4	0.00e+00	0	42	0	3406823424	48	6013
2026-01-24 19:44:55.81	280.28	8.92	-38.0	-38.8	23.1	0.00e+00	0	41	0	3429892096	48	6299
2026-01-24 19:44:59.85	279.84	8.66	-36.9	-37.6	24.2	0.00e+00	0	42	0	3452960768	48	5440
2026-01-24 19:45:03.89	279.40	8.40	-38.4	-39.1	22.9	0.00e+00	0	41	0	3474980864	48	6535
2026-01-24 19:45:07.93	278.98	8.15	-38.3	-39.0	23.0	0.00e+00	0	41	0	3498049536	50	5703
2026-01-24 19:45:11.97	278.56	7.89	-37.8	-38.5	23.3	0.00e+00	0	41	0	3520069632	50	5433
2026-01-24 19:45:16.01	278.15	7.64	-38.1	-38.9	22.9	0.00e+00	0	42	0	3543138304	50	5664
2026-01-24 19:45:20.05	277.75	7.38	-37.8	-38.5	23.3	0.00e+00	0	42	0	3566206976	50	5402
2026-01-24 19:45:24.09	277.35	7.13	-38.1	-38.8	23.1	0.00e+00	0	42	0	3589275648	48	6255
2026-01-24 19:45:28.13	276.96	6.88	-38.1	-38.9	23.0	0.00e+00	0	41	0	3611295744	48	6384
2026-01-24 19:45:32.16	276.58	6.63	-38.2	-39.1	22.9	0.00e+00	0	42	0	3634364416	48	6474
2026-01-24 19:45:36.20	276.20	6.38	-38.8	-39.5	22.3	0.00e+00	0	42	0	3657433088	50	6054
2026-01-24 19:45:40.23	275.84	6.13	-38.5	-39.2	22.6	0.00e+00	0	42	0	3679453184	50	5844
2026-01-24 19:45:44.27	275.47	5.89	-38.6	-39.5	22.5	0.00e+00	0	42	0	3702521856	50	6073
2026-01-24 19:45:48.31	275.12	5.64	-38.9	-39.7	22.2	0.00e+00	0	41	0	3724541952	50	6189
2026-01-24 19:45:52.34	274.77	5.40	-38.9	-39.8	21.9	0.00e+00	0	42	0	3747610624	50	6316
2026-01-24 19:45:56.38	274.42	5.16	-37.9	-38.7	22.7	0.00e+00	0	42	0	3770679296	48	6200
2026-01-24 19:46:00.42	274.08	4.92	-38.9	-39.7	22.1	0.00e+00	0	42	0	3792699392	52	5518
2026-01-24 19:46:04.45	273.75	4.68	-39.6	-40.5	21.3	0.00e+00	0	42	0	3815768064	50	6775
2026-01-24 19:46:08.49	273.42	4.44	-39.1	-39.9	21.8	0.00e+00	0	42	0	3838836736	50	6333
2026-01-24 19:46:12.53	273.10	4.20	-39.3	-40.1	21.8	0.00e+00	0	42	0	3860856832	50	6524
2026-01-24 19:46:16.57	272.79	3.96	-39.9	-40.7	21.1	0.00e+00	0	42	0	3883925504	52	6223
2026-01-24 19:46:20.61	272.48	3.73	-39.1	-39.9	21.3	0.00e+00	0	42	0	3906994176	50	6385
2026-01-24 19:46:24.64	272.17	3.50	-39.0	-39.8	21.8	0.00e+00	0	42	0	3929014272	52	5599
2026-01-24 19:46:28.68	271.87	3.26	-41.2	-42.1	19.8	0.00e+00	0	42	0	3952082944	56	5819
2026-01-24 19:46:32.72	271.57	3.03	-41.2	-42.3	18.9	0.00e+00	0	42	0	3975151616	52	7483
2026-01-24 19:46:36.76	271.28	2.80	-51.4	-63.5	3.6	8.45e-01	0	42	104	3978297344	60	54222
2026-01-24 19:46:40.80	271.00	2.57	-51.8	-63.9	3.6	8.44e-01	0	42	104	3978297344	60	56683
2026-01-24 19:46:44.84	270.71	2.34	-51.9	-64.0	3.6	8.46e-01	0	42	104	3978297344	60	57072
2026-01-24 19:46:48.87	270.44	2.12	-51.7	-63.8	3.6	8.44e-01	0	42	104	3978297344	60	56249
2026-01-24 19:46:52.91	270.16	1.89	-52.0	-64.1	3.6	8.45e-01	0	42	104	3978297344	60	58050
2026-01-24 19:46:56.95	269.89	1.67	-52.0	-64.1	3.6	8.45e-01	0	42	104	3978297344	60	58178
2026-01-24 19:47:00.99	269.63	1.45	-52.0	-64.1	3.6	8.47e-01	0	42	104	3978297344	60	57732
2026-01-24 19:47:05.03	269.37	1.22	-52.3	-64.3	3.6	8.45e-01	0	42	104	3978297344	60	59610
2026-01-24 19:47:09.06	269.11	1.00	-52.7	-64.9	3.6	8.45e-01	0	42	104	3978297344	60	63205
2026-01-24 19:47:13.10	268.86	0.78	-52.4	-64.5	3.6	8.47e-01	0	42	104	3978297344	60	60488
2026-01-24 19:47:17.14	268.61	0.56	-52.5	-64.6	3.6	8.44e-01	0	42	104	3978297344	60	61130
2026-01-24 19:47:21.18	268.37	0.35	-53.0	-65.1	3.6	8.45e-01	0	42	104	3978297344	60	64840
2026-01-24 19:47:25.22	268.13	0.13	-52.3	-64.5	3.5	8.46e-01	0	42	104	3978297344	60	60561
2026-01-24 19:47:29.26	267.89	-0.08	-53.3	-65.4	3.6	8.46e-01	0	42	104	3978297344	60	66954

#Closed at: 2026-01-24 19:47:30
#Recorded file [3978 MB]: D:/lorett/data/35029_260125_073349.dat