passes_logs/2026/01/24/R4.6S_Anadyr/R4.6S_Anadyr__20260124_233116_SUOMI_NPP_rec.log

#Pass ID: 20260124_233116_SUOMI NPP
#Satellite: SUOMI NPP
#Configuration: NPP
#almurnet v.1.7.20251203
#Start time: 2026-01-24 23:31:18

#Version: 2.2.20231116
#Station: R4.6S_Anadyr
#Location: 177.4865 lon 64.73178 lat
#TLE: 1 37849U 11061A   26024.54906732  .00000185  00000+0  10878-3 0  9990
#TLE: 2 37849  98.7821 326.5159 0002200  47.3746 312.7615 14.19529340738061

#Time	Az	El	Level	Level2	SNR	BER	BlckErr	Temp	State	Recorded	gain1	gain2
2026-01-24 23:31:18.26	137.18	0.13	-51.3	-63.9	3.4	1.52e+00	0	39	0	0	60	54817
2026-01-24 23:31:22.30	137.11	0.38	-51.3	-66.5	3.6	1.51e+00	0	40	104	0	60	76409
2026-01-24 23:31:26.33	137.03	0.62	-51.2	-66.4	3.6	1.51e+00	0	40	104	0	60	75564
2026-01-24 23:31:30.38	136.96	0.87	-51.1	-66.3	3.6	1.51e+00	0	40	104	0	60	74488
2026-01-24 23:31:34.42	136.88	1.11	-50.8	-66.0	3.6	1.51e+00	0	40	104	0	60	72176
2026-01-24 23:31:38.45	136.80	1.36	-50.6	-65.7	3.6	1.51e+00	0	41	104	0	60	70065
2026-01-24 23:31:42.49	136.72	1.62	-49.7	-64.9	3.6	1.51e+00	0	41	104	0	60	63894
2026-01-24 23:31:46.53	136.64	1.87	-49.7	-64.9	3.6	1.51e+00	0	41	104	0	60	63356
2026-01-24 23:31:50.57	136.55	2.13	-49.7	-64.5	3.6	1.51e+00	0	41	104	0	60	60756
2026-01-24 23:31:54.61	136.47	2.39	-49.7	-64.8	3.6	1.51e+00	0	41	104	0	60	62941
2026-01-24 23:31:58.65	136.38	2.65	-49.7	-64.6	3.6	1.51e+00	0	41	104	0	60	61557
2026-01-24 23:32:02.69	136.29	2.91	-49.6	-63.6	3.6	1.51e+00	0	41	104	0	60	54878
2026-01-24 23:32:06.72	136.20	3.18	-49.7	-64.8	3.6	1.51e+00	0	41	104	0	60	62869
2026-01-24 23:32:10.76	136.11	3.45	-48.9	-55.5	8.0	3.09e-01	0	41	0	1048576	60	21498
2026-01-24 23:32:14.80	136.01	3.72	-44.9	-47.1	16.8	0.00e+00	0	41	0	8388608	60	8218
2026-01-24 23:32:18.84	135.92	3.99	-48.6	-55.0	6.5	0.00e+00	0	41	0	12582912	60	20244
2026-01-24 23:32:22.87	135.82	4.27	-44.3	-46.3	17.4	0.00e+00	0	41	0	15728640	60	7478
2026-01-24 23:32:26.90	135.72	4.54	-43.4	-45.0	19.1	0.00e+00	0	41	0	23068672	60	6420
2026-01-24 23:32:30.94	135.61	4.83	-42.6	-44.1	19.8	0.00e+00	0	41	0	30408704	58	6470
2026-01-24 23:32:34.98	135.51	5.11	-41.3	-42.5	21.2	0.00e+00	0	41	0	38797312	56	6079
2026-01-24 23:32:39.02	135.40	5.40	-41.3	-42.4	21.3	0.00e+00	0	41	0	46137344	56	6020
2026-01-24 23:32:43.05	135.29	5.69	-41.8	-43.0	20.8	0.00e+00	0	41	0	53477376	56	6435
2026-01-24 23:32:47.08	135.18	5.98	-41.6	-42.8	21.1	0.00e+00	0	41	0	60817408	56	6311
2026-01-24 23:32:51.11	135.06	6.28	-41.6	-42.8	21.1	0.00e+00	0	41	0	68157440	56	6288
2026-01-24 23:32:55.15	134.95	6.58	-41.5	-42.7	21.2	0.00e+00	0	41	0	76546048	56	6216
2026-01-24 23:32:59.18	134.83	6.88	-41.3	-42.5	21.3	0.00e+00	0	41	0	83886080	56	6074
2026-01-24 23:33:03.22	134.70	7.19	-41.6	-42.8	21.1	0.00e+00	0	41	0	91226112	56	6311
2026-01-24 23:33:07.25	134.58	7.50	-41.2	-42.4	21.7	0.00e+00	0	41	0	98566144	56	5974
2026-01-24 23:33:11.29	134.45	7.82	-41.1	-42.3	21.5	0.00e+00	0	41	0	105906176	56	5946
2026-01-24 23:33:15.32	134.31	8.14	-41.2	-42.4	21.5	0.00e+00	0	41	0	114294784	56	6006
2026-01-24 23:33:19.36	134.18	8.46	-41.1	-42.2	21.7	0.00e+00	0	41	0	121634816	56	5891
2026-01-24 23:33:23.39	134.04	8.79	-40.6	-41.6	22.1	0.00e+00	0	41	0	128974848	54	6171
2026-01-24 23:33:27.43	133.90	9.12	-40.6	-41.6	22.2	0.00e+00	0	41	0	136314880	54	6163
2026-01-24 23:33:31.47	133.75	9.45	-40.8	-41.9	21.9	0.00e+00	0	41	0	144703488	54	6346
2026-01-24 23:33:35.51	133.60	9.79	-40.8	-41.8	22.0	0.00e+00	0	41	0	152043520	54	6314
2026-01-24 23:33:39.54	133.45	10.13	-40.5	-41.5	22.3	0.00e+00	0	41	0	159383552	54	6063
2026-01-24 23:33:43.58	133.29	10.48	-40.2	-41.2	22.7	0.00e+00	0	41	0	166723584	54	5865
2026-01-24 23:33:47.61	133.13	10.84	-40.5	-41.5	22.4	0.00e+00	0	41	0	174063616	54	6077
2026-01-24 23:33:51.65	132.97	11.19	-40.2	-41.2	22.7	0.00e+00	0	41	0	182452224	54	5861
2026-01-24 23:33:55.69	132.80	11.56	-40.1	-41.0	22.8	0.00e+00	0	41	0	189792256	54	5739
2026-01-24 23:33:59.73	132.62	11.93	-39.4	-40.3	23.3	0.00e+00	0	41	0	197132288	52	5905
2026-01-24 23:34:03.76	132.44	12.30	-39.9	-40.8	22.9	0.00e+00	0	41	0	204472320	52	6297
2026-01-24 23:34:07.80	132.26	12.68	-39.8	-40.7	23.1	0.00e+00	0	41	0	212860928	52	6240
2026-01-24 23:34:11.84	132.07	13.06	-39.6	-40.6	23.2	0.00e+00	0	41	0	220200960	52	6113
2026-01-24 23:34:15.87	131.87	13.45	-39.4	-40.2	23.5	0.00e+00	0	41	0	227540992	52	5895
2026-01-24 23:34:19.91	131.67	13.85	-39.6	-40.6	23.3	0.00e+00	0	42	0	234881024	52	6107
2026-01-24 23:34:23.94	131.47	14.25	-39.6	-40.5	23.3	0.00e+00	0	41	0	242221056	52	6081
2026-01-24 23:34:27.99	131.25	14.66	-39.8	-40.7	23.2	0.00e+00	0	42	0	250609664	52	6206
2026-01-24 23:34:32.02	131.04	15.08	-39.7	-40.6	23.2	0.00e+00	0	41	0	257949696	52	6169
2026-01-24 23:34:36.06	130.81	15.50	-39.7	-40.6	23.2	0.00e+00	0	42	0	265289728	52	6168
2026-01-24 23:34:40.10	130.58	15.93	-39.4	-40.3	23.5	0.00e+00	0	41	0	272629760	52	5932
2026-01-24 23:34:44.13	130.34	16.37	-39.5	-40.5	23.3	0.00e+00	0	41	0	281018368	52	6034
2026-01-24 23:34:48.17	130.09	16.81	-39.5	-40.4	23.4	0.00e+00	0	41	0	288358400	52	6000
2026-01-24 23:34:52.21	129.84	17.26	-39.4	-40.3	23.5	0.00e+00	0	41	0	295698432	52	5911
2026-01-24 23:34:56.25	129.58	17.72	-39.8	-40.8	23.2	0.00e+00	0	41	0	303038464	52	6278
2026-01-24 23:35:00.28	129.31	18.19	-40.1	-41.1	23.0	0.00e+00	0	42	0	310378496	52	6504
2026-01-24 23:35:04.32	129.02	18.67	-39.6	-40.5	23.4	0.00e+00	0	42	0	318767104	52	6094
2026-01-24 23:35:08.36	128.74	19.15	-39.9	-40.9	23.2	0.00e+00	0	41	0	326107136	52	6348
2026-01-24 23:35:12.39	128.44	19.64	-39.7	-40.6	23.3	0.00e+00	0	41	0	333447168	52	6117
2026-01-24 23:35:16.43	128.13	20.15	-40.1	-41.0	23.1	0.00e+00	0	41	0	340787200	52	6421
2026-01-24 23:35:20.47	127.81	20.66	-40.4	-41.4	22.8	0.00e+00	0	41	0	348127232	52	6727
2026-01-24 23:35:24.51	127.47	21.18	-40.5	-41.4	22.7	0.00e+00	0	41	0	356515840	54	6030
2026-01-24 23:35:28.55	127.13	21.71	-40.7	-41.8	22.4	0.00e+00	0	41	0	363855872	54	6271
2026-01-24 23:35:32.58	126.78	22.25	-40.5	-41.5	22.6	0.00e+00	0	41	0	371195904	54	6080
2026-01-24 23:35:36.62	126.41	22.81	-40.8	-41.8	22.5	0.00e+00	0	42	0	378535936	54	6261
2026-01-24 23:35:40.66	126.02	23.37	-40.7	-41.7	22.6	0.00e+00	0	41	0	386924544	54	6212
2026-01-24 23:35:44.69	125.63	23.94	-40.9	-41.9	22.5	0.00e+00	0	41	0	394264576	54	6328
2026-01-24 23:35:48.73	125.21	24.53	-41.8	-43.0	21.5	0.00e+00	0	41	0	401604608	56	6430
2026-01-24 23:35:52.77	124.78	25.12	-41.3	-42.4	22.0	0.00e+00	0	41	0	408944640	56	6006
2026-01-24 23:35:56.80	124.34	25.73	-41.2	-42.2	22.2	0.00e+00	0	41	0	416284672	56	5872
2026-01-24 23:36:00.84	123.87	26.35	-41.4	-42.5	22.0	0.00e+00	0	41	0	424673280	56	6064
2026-01-24 23:36:04.88	123.39	26.98	-42.0	-43.1	21.5	0.00e+00	0	41	0	432013312	56	6522
2026-01-24 23:36:08.91	122.89	27.63	-41.1	-42.2	22.3	0.00e+00	0	41	0	439353344	56	5837
2026-01-24 23:36:12.95	122.36	28.29	-40.7	-41.7	22.1	0.00e+00	0	41	0	446693376	54	6212
2026-01-24 23:36:16.99	121.81	28.96	-41.0	-42.0	22.4	0.00e+00	0	41	0	455081984	54	6421
2026-01-24 23:36:21.02	121.24	29.64	-42.2	-43.3	21.2	0.00e+00	0	41	0	462422016	56	6674
2026-01-24 23:36:25.06	120.65	30.34	-42.3	-43.4	21.3	0.00e+00	0	41	0	469762048	56	6756
2026-01-24 23:36:29.10	120.02	31.05	-43.0	-44.3	20.4	0.00e+00	0	41	0	477102080	58	6680
2026-01-24 23:36:33.14	119.37	31.78	-42.0	-43.2	21.1	0.00e+00	0	41	0	484442112	58	5844
2026-01-24 23:36:37.17	118.69	32.51	-43.7	-45.2	19.7	0.00e+00	0	41	0	492830720	58	7372
2026-01-24 23:36:41.21	117.97	33.27	-42.6	-43.8	21.0	0.00e+00	0	41	0	500170752	58	6291
2026-01-24 23:36:45.25	117.22	34.03	-44.6	-46.3	18.9	0.00e+00	0	41	0	507510784	60	7449
2026-01-24 23:36:49.28	116.43	34.81	-45.0	-46.8	18.3	0.00e+00	0	41	0	514850816	60	7866
2026-01-24 23:36:53.31	115.61	35.60	-43.7	-45.1	19.8	0.00e+00	0	41	0	522190848	60	6504
2026-01-24 23:36:57.35	114.74	36.41	-43.0	-44.3	20.6	0.00e+00	0	41	0	530579456	60	5923
2026-01-24 23:37:01.35	113.83	37.21	-40.6	-41.6	22.2	0.00e+00	0	41	0	537919488	54	6115
2026-01-24 23:37:05.38	112.87	38.04	-41.7	-42.8	21.9	0.00e+00	0	41	0	545259520	56	6271
2026-01-24 23:37:09.41	111.86	38.88	-43.3	-44.6	20.2	0.00e+00	0	41	0	552599552	58	6907
2026-01-24 23:37:13.45	110.79	39.73	-44.0	-45.5	19.5	0.00e+00	0	41	0	559939584	60	6811
2026-01-24 23:37:17.49	109.67	40.59	-43.8	-45.2	19.8	0.00e+00	0	41	0	568328192	60	6560
2026-01-24 23:37:21.52	108.48	41.45	-44.4	-46.0	19.1	0.00e+00	0	41	0	575668224	60	7244
2026-01-24 23:37:25.55	107.24	42.32	-41.9	-43.0	21.5	0.00e+00	0	41	0	583008256	58	5707
2026-01-24 23:37:29.59	105.91	43.19	-42.5	-43.8	21.3	0.00e+00	0	41	0	590348288	56	7012
2026-01-24 23:37:33.62	104.52	44.07	-43.8	-45.3	19.6	0.00e+00	0	41	0	598736896	60	6638
2026-01-24 23:37:37.66	103.04	44.95	-44.3	-46.0	19.1	0.00e+00	0	41	0	606076928	60	7181
2026-01-24 23:37:41.70	101.48	45.82	-43.2	-44.5	20.5	0.00e+00	0	41	0	613416960	60	6080
2026-01-24 23:37:45.73	99.83	46.68	-41.6	-42.6	21.9	0.00e+00	0	41	0	620756992	56	6124
2026-01-24 23:37:49.77	98.09	47.54	-42.6	-43.8	21.0	0.00e+00	0	41	0	628097024	56	7032
2026-01-24 23:37:53.81	96.24	48.38	-42.5	-43.7	21.2	0.00e+00	0	41	0	636485632	58	6216
2026-01-24 23:37:57.85	94.30	49.21	-42.5	-43.8	21.2	0.00e+00	0	41	0	643825664	58	6249
2026-01-24 23:38:01.88	92.25	50.01	-39.5	-40.4	23.7	0.00e+00	0	41	0	651165696	52	5971
2026-01-24 23:38:05.92	90.09	50.78	-39.7	-40.6	23.7	0.00e+00	0	41	0	658505728	52	6132
2026-01-24 23:38:09.95	87.82	51.52	-41.1	-42.2	22.4	0.00e+00	0	41	0	666894336	54	6574
2026-01-24 23:38:13.99	85.44	52.23	-40.7	-41.8	22.7	0.00e+00	0	41	0	674234368	54	6254
2026-01-24 23:38:18.03	82.94	52.88	-40.7	-41.6	22.9	0.00e+00	0	41	0	681574400	54	6173
2026-01-24 23:38:22.06	80.33	53.49	-39.5	-40.4	23.8	0.00e+00	0	41	0	688914432	52	5972
2026-01-24 23:38:26.10	77.62	54.04	-40.4	-41.3	23.2	0.00e+00	0	41	0	696254464	52	6665
2026-01-24 23:38:30.14	74.80	54.53	-39.3	-40.2	24.0	0.00e+00	0	41	0	704643072	52	5848
2026-01-24 23:38:34.17	71.90	54.95	-39.6	-40.6	23.8	0.00e+00	0	41	0	711983104	52	6108
2026-01-24 23:38:38.21	68.92	55.30	-38.2	-39.1	24.9	0.00e+00	0	41	0	719323136	50	5767
2026-01-24 23:38:42.25	65.86	55.57	-38.6	-39.5	24.4	0.00e+00	0	41	0	726663168	50	6069
2026-01-24 23:38:46.28	62.77	55.76	-37.0	-37.7	25.6	0.00e+00	0	41	0	735051776	48	5522
2026-01-24 23:38:50.32	59.63	55.87	-37.9	-38.7	24.9	0.00e+00	0	41	0	742391808	48	6212
2026-01-24 23:38:54.36	56.48	55.89	-37.7	-38.5	25.2	0.00e+00	0	41	0	749731840	48	6045
2026-01-24 23:38:58.40	53.34	55.83	-38.0	-38.8	24.9	0.00e+00	0	41	0	757071872	48	6313
2026-01-24 23:39:02.44	50.21	55.68	-38.3	-39.1	24.9	0.00e+00	0	41	0	764411904	48	6505
2026-01-24 23:39:06.48	47.13	55.46	-37.1	-37.9	25.5	0.00e+00	0	41	0	772800512	46	6321
2026-01-24 23:39:10.51	44.12	55.15	-37.1	-37.9	25.6	0.00e+00	0	41	0	780140544	46	6320
2026-01-24 23:39:14.55	41.17	54.77	-37.0	-37.7	25.7	0.00e+00	0	41	0	787480576	46	6244
2026-01-24 23:39:18.58	38.31	54.32	-38.5	-39.3	24.6	0.00e+00	0	41	0	794820608	50	5951
2026-01-24 23:39:22.62	35.55	53.80	-40.3	-41.2	23.1	0.00e+00	0	41	0	803209216	52	6585
2026-01-24 23:39:26.65	32.89	53.22	-40.1	-41.0	23.4	0.00e+00	0	41	0	810549248	54	5719
2026-01-24 23:39:30.69	30.33	52.59	-40.6	-41.6	23.0	0.00e+00	0	41	0	817889280	54	6120
2026-01-24 23:39:34.72	27.89	51.92	-40.5	-41.4	23.3	0.00e+00	0	41	0	825229312	52	6764
2026-01-24 23:39:38.76	25.56	51.20	-39.1	-39.9	24.3	0.00e+00	0	41	0	832569344	52	5691
2026-01-24 23:39:42.79	23.35	50.45	-40.3	-41.2	23.4	0.00e+00	0	41	0	840957952	52	6566
2026-01-24 23:39:46.83	21.24	49.66	-41.2	-42.2	22.5	0.00e+00	0	41	0	848297984	54	6545
2026-01-24 23:39:50.86	19.25	48.85	-41.9	-42.9	21.9	0.00e+00	0	41	0	855638016	56	6379
2026-01-24 23:39:54.90	17.35	48.02	-44.5	-46.1	19.0	0.00e+00	0	41	0	862978048	60	7323
2026-01-24 23:39:58.93	15.56	47.17	-42.8	-44.0	21.2	0.00e+00	0	41	0	870318080	60	5738
2026-01-24 23:40:02.97	13.87	46.32	-42.6	-43.8	21.1	0.00e+00	0	41	0	878706688	58	6296
2026-01-24 23:40:07.01	12.26	45.45	-42.6	-43.8	21.1	0.00e+00	0	41	0	886046720	56	7039
2026-01-24 23:40:11.04	10.74	44.58	-43.0	-44.2	21.0	0.00e+00	0	41	0	893386752	60	5856
2026-01-24 23:40:15.08	9.31	43.70	-42.6	-43.8	21.2	0.00e+00	0	41	0	900726784	58	6283
2026-01-24 23:40:19.12	7.95	42.83	-40.5	-41.5	23.0	0.00e+00	0	41	0	909115392	54	6046
2026-01-24 23:40:23.16	6.66	41.96	-42.3	-43.5	21.4	0.00e+00	0	41	0	916455424	56	6836
2026-01-24 23:40:27.20	5.44	41.09	-43.9	-45.4	19.8	0.00e+00	0	41	0	923795456	60	6715
2026-01-24 23:40:31.24	4.28	40.23	-43.6	-45.0	20.2	0.00e+00	0	41	0	931135488	58	7172
2026-01-24 23:40:35.27	3.19	39.39	-43.5	-44.9	20.0	0.00e+00	0	41	0	938475520	60	6361
2026-01-24 23:40:39.31	2.15	38.54	-44.6	-46.3	19.0	0.00e+00	0	41	0	946864128	60	7439
2026-01-24 23:40:43.35	1.16	37.71	-42.3	-43.5	21.5	0.00e+00	0	41	0	954204160	58	6036
2026-01-24 23:40:47.39	0.23	36.89	-42.8	-44.0	20.9	0.00e+00	0	41	0	961544192	58	6441
2026-01-24 23:40:51.43	359.34	36.08	-42.8	-44.0	20.9	0.00e+00	0	41	0	968884224	58	6443
2026-01-24 23:40:55.46	358.49	35.29	-42.8	-44.0	21.0	0.00e+00	0	41	0	976224256	56	7209
2026-01-24 23:40:59.50	357.69	34.51	-43.5	-44.9	20.3	0.00e+00	0	41	0	984612864	60	6326
2026-01-24 23:41:03.54	356.92	33.74	-43.4	-44.8	20.5	0.00e+00	0	41	0	991952896	60	6315
2026-01-24 23:41:07.58	356.18	32.98	-43.1	-44.4	20.6	0.00e+00	0	41	0	999292928	60	6017
2026-01-24 23:41:11.61	355.49	32.24	-42.8	-44.1	20.9	0.00e+00	0	41	0	1006632960	58	6515
2026-01-24 23:41:15.65	354.82	31.51	-43.1	-44.5	20.4	0.00e+00	0	41	0	1015021568	58	6778
2026-01-24 23:41:19.69	354.18	30.79	-42.6	-43.8	21.3	0.00e+00	0	41	0	1022361600	58	6259
2026-01-24 23:41:23.73	353.57	30.09	-41.5	-42.5	22.2	0.00e+00	0	41	0	1029701632	56	6091
2026-01-24 23:41:27.77	352.99	29.40	-40.4	-41.4	23.1	0.00e+00	0	41	0	1037041664	54	5975
2026-01-24 23:41:31.80	352.43	28.72	-42.2	-43.4	21.4	0.00e+00	0	41	0	1044381696	56	6736
2026-01-24 23:41:35.83	351.90	28.06	-42.3	-43.4	21.3	0.00e+00	0	41	0	1052770304	56	6765
2026-01-24 23:41:39.87	351.39	27.41	-42.5	-43.7	21.2	0.00e+00	0	41	0	1060110336	56	6939
2026-01-24 23:41:43.91	350.89	26.78	-41.5	-42.6	22.1	0.00e+00	0	41	0	1067450368	56	6109
2026-01-24 23:41:47.95	350.42	26.15	-41.6	-42.7	21.9	0.00e+00	0	41	0	1074790400	56	6243
2026-01-24 23:41:51.99	349.97	25.54	-43.0	-44.3	20.6	0.00e+00	0	41	0	1083179008	58	6672
2026-01-24 23:41:56.03	349.53	24.94	-42.5	-43.7	21.0	0.00e+00	0	41	0	1090519040	58	6193
2026-01-24 23:42:00.06	349.11	24.35	-42.8	-44.0	20.8	0.00e+00	0	41	0	1097859072	58	6445
2026-01-24 23:42:04.10	348.71	23.77	-41.9	-43.0	21.7	0.00e+00	0	41	0	1105199104	58	5722
2026-01-24 23:42:08.13	348.32	23.20	-41.6	-42.7	21.8	0.00e+00	0	41	0	1112539136	56	6185
2026-01-24 23:42:12.17	347.95	22.65	-41.3	-42.3	22.2	0.00e+00	0	41	0	1120927744	56	5951
2026-01-24 23:42:16.20	347.59	22.10	-40.6	-41.6	22.8	0.00e+00	0	41	0	1128267776	54	6139
2026-01-24 23:42:20.24	347.24	21.57	-41.0	-42.1	22.3	0.00e+00	0	41	0	1135607808	54	6477
2026-01-24 23:42:24.27	346.90	21.04	-42.9	-44.2	20.6	0.00e+00	0	41	0	1142947840	58	6593
2026-01-24 23:42:28.31	346.58	20.53	-43.4	-44.9	20.0	0.00e+00	0	41	0	1150287872	58	7142
2026-01-24 23:42:32.35	346.27	20.02	-42.7	-44.0	20.6	0.00e+00	0	41	0	1158676480	58	6448
2026-01-24 23:42:36.38	345.97	19.53	-41.6	-42.7	21.9	0.00e+00	0	41	0	1166016512	56	6197
2026-01-24 23:42:40.42	345.67	19.04	-40.5	-41.5	22.8	0.00e+00	0	41	0	1173356544	54	6046
2026-01-24 23:42:44.45	345.39	18.56	-39.8	-40.7	23.5	0.00e+00	0	41	0	1180696576	52	6181
2026-01-24 23:42:48.49	345.12	18.09	-39.5	-40.3	23.7	0.00e+00	0	41	0	1189085184	52	5942
2026-01-24 23:42:52.53	344.85	17.63	-40.2	-41.1	23.0	0.00e+00	0	41	0	1196425216	52	6526
2026-01-24 23:42:56.57	344.60	17.17	-40.8	-41.8	22.5	0.00e+00	0	41	0	1203765248	54	6254
2026-01-24 23:43:00.60	344.35	16.72	-41.1	-42.1	22.2	0.00e+00	0	41	0	1211105280	54	6501
2026-01-24 23:43:04.64	344.11	16.28	-41.5	-42.5	22.0	0.00e+00	0	41	0	1218445312	54	6845
2026-01-24 23:43:08.67	343.87	15.85	-42.3	-43.6	21.2	0.00e+00	0	41	0	1226833920	56	6852
2026-01-24 23:43:12.71	343.65	15.43	-42.6	-43.9	20.8	0.00e+00	0	41	0	1234173952	56	7130
2026-01-24 23:43:16.74	343.43	15.01	-42.9	-44.2	20.4	0.00e+00	0	41	0	1241513984	58	6615
2026-01-24 23:43:20.78	343.22	14.60	-42.3	-43.6	20.9	0.00e+00	0	41	0	1248854016	58	6133
2026-01-24 23:43:24.82	343.01	14.19	-41.5	-42.7	21.5	0.00e+00	0	41	0	1257242624	56	6210
2026-01-24 23:43:28.86	342.81	13.79	-41.4	-42.5	21.8	0.00e+00	0	41	0	1264582656	56	6099
2026-01-24 23:43:32.89	342.61	13.40	-41.3	-42.5	21.7	0.00e+00	0	41	0	1271922688	56	6056
2026-01-24 23:43:36.93	342.42	13.01	-41.6	-42.8	21.5	0.00e+00	0	41	0	1279262720	56	6279
2026-01-24 23:43:40.96	342.24	12.63	-42.2	-43.5	21.0	0.00e+00	0	41	0	1286602752	56	6783
2026-01-24 23:43:45.00	342.06	12.26	-42.0	-43.3	21.2	0.00e+00	0	41	0	1294991360	56	6630
2026-01-24 23:43:49.03	341.88	11.89	-42.2	-43.5	20.9	0.00e+00	0	41	0	1302331392	56	6817
2026-01-24 23:43:53.07	341.71	11.52	-42.6	-44.0	20.6	0.00e+00	0	41	0	1309671424	56	7196
2026-01-24 23:43:57.11	341.55	11.16	-42.0	-43.2	21.2	0.00e+00	0	41	0	1317011456	56	6557
2026-01-24 23:44:01.14	341.39	10.81	-42.1	-43.3	21.1	0.00e+00	0	41	0	1325400064	56	6644
2026-01-24 23:44:05.18	341.23	10.46	-42.1	-43.4	21.0	0.00e+00	0	42	0	1332740096	56	6713
2026-01-24 23:44:09.21	341.08	10.11	-42.5	-43.7	20.6	0.00e+00	0	41	0	1340080128	56	6987
2026-01-24 23:44:13.25	340.93	9.77	-42.6	-43.9	20.6	0.00e+00	0	41	0	1347420160	58	6339
2026-01-24 23:44:17.29	340.79	9.43	-42.5	-43.9	20.5	0.00e+00	0	41	0	1354760192	58	6332
2026-01-24 23:44:21.33	340.64	9.10	-42.8	-44.2	19.9	0.00e+00	0	42	0	1363148800	58	6579
2026-01-24 23:44:25.36	340.51	8.77	-43.8	-45.4	19.0	0.00e+00	0	41	0	1370488832	60	6703
2026-01-24 23:44:29.40	340.37	8.45	-43.7	-45.3	19.1	0.00e+00	0	42	0	1377828864	60	6636
2026-01-24 23:44:33.43	340.24	8.13	-43.8	-45.4	19.1	0.00e+00	0	42	0	1385168896	60	6693
2026-01-24 23:44:37.47	340.11	7.81	-44.3	-46.0	18.5	0.00e+00	0	41	0	1393557504	60	7176
2026-01-24 23:44:41.50	339.99	7.50	-44.2	-45.9	18.5	0.00e+00	0	41	0	1400897536	60	7092
2026-01-24 23:44:45.55	339.87	7.19	-43.8	-45.4	19.0	0.00e+00	0	42	0	1408237568	60	6730
2026-01-24 23:44:49.58	339.75	6.89	-44.0	-45.6	18.8	0.00e+00	0	42	0	1415577600	60	6871
2026-01-24 23:44:53.62	339.63	6.59	-43.8	-45.4	18.8	0.00e+00	0	42	0	1422917632	60	6758
2026-01-24 23:44:57.66	339.52	6.29	-44.0	-45.7	18.6	0.00e+00	0	42	0	1431306240	60	6975
2026-01-24 23:45:01.70	339.41	5.99	-43.8	-45.4	18.5	0.00e+00	0	42	0	1438646272	60	6767
2026-01-24 23:45:05.74	339.30	5.70	-44.0	-45.8	18.1	0.00e+00	0	42	0	1445986304	60	7042
2026-01-24 23:45:09.77	339.19	5.41	-44.9	-47.2	16.2	0.00e+00	0	42	0	1453326336	60	8309
2026-01-24 23:45:13.81	339.09	5.12	-45.6	-48.5	14.5	0.00e+00	0	42	0	1460666368	60	9609
2026-01-24 23:45:17.85	338.99	4.84	-45.3	-48.7	13.3	1.20e-04	0	42	0	1469054976	60	9862
2026-01-24 23:45:21.88	338.89	4.56	-46.2	-52.0	8.9	4.90e-02	0	42	0	1476395008	60	14319
2026-01-24 23:45:25.92	338.80	4.28	-46.5	-55.5	4.6	5.31e-01	0	42	0	1483735040	60	21483
2026-01-24 23:45:29.96	338.70	4.01	-46.4	-58.5	3.6	1.50e+00	0	42	104	1486880768	60	30580
2026-01-24 23:45:34.00	338.61	3.74	-46.4	-61.0	3.6	1.51e+00	0	42	104	1486880768	60	40561
2026-01-24 23:45:38.04	338.52	3.47	-46.5	-61.2	3.6	1.51e+00	0	42	104	1486880768	60	41695
2026-01-24 23:45:42.07	338.43	3.20	-46.4	-61.5	3.6	1.51e+00	0	42	104	1486880768	60	42827
2026-01-24 23:45:46.11	338.34	2.94	-46.2	-61.4	3.6	1.51e+00	0	42	104	1486880768	60	42462
2026-01-24 23:45:50.15	338.26	2.68	-50.9	-66.1	3.6	1.51e+00	0	42	104	1486880768	60	73015
2026-01-24 23:45:54.19	338.18	2.42	-51.3	-66.5	3.6	1.51e+00	0	42	104	1486880768	60	76291
2026-01-24 23:45:58.23	338.09	2.16	-51.4	-66.6	3.6	1.51e+00	0	42	104	1486880768	60	77252
2026-01-24 23:46:02.27	338.02	1.90	-51.1	-66.5	3.6	1.51e+00	0	42	104	1486880768	60	76426
2026-01-24 23:46:06.31	337.94	1.65	-51.2	-66.5	3.6	1.51e+00	0	42	104	1486880768	60	76021
2026-01-24 23:46:10.34	337.86	1.40	-51.3	-66.5	3.6	1.51e+00	0	42	104	1486880768	60	76463
2026-01-24 23:46:14.38	337.79	1.15	-51.3	-66.5	3.5	1.51e+00	0	42	104	1486880768	60	76402
2026-01-24 23:46:18.41	337.71	0.90	-51.3	-66.5	3.6	1.51e+00	0	42	104	1486880768	60	76340
2026-01-24 23:46:22.45	337.64	0.66	-51.4	-66.5	3.6	1.51e+00	0	42	104	1486880768	60	76715
2026-01-24 23:46:26.50	337.57	0.42	-51.4	-66.6	3.6	1.51e+00	0	42	104	1486880768	60	76935
2026-01-24 23:46:30.54	337.50	0.18	-51.4	-66.5	3.6	1.51e+00	0	42	104	1486880768	60	76728
2026-01-24 23:46:34.57	337.44	-0.06	-51.4	-66.6	3.6	1.51e+00	0	42	104	1486880768	60	77557

#Closed at: 2026-01-24 23:46:35
#Recorded file [1486 MB]: D:/lorett/data/35029_260125_113118.dat