passes_logs/2026/01/24/R4.6S_Anadyr/R4.6S_Anadyr__20260124_165619_SUOMI_NPP_rec.log

#Pass ID: 20260124_165619_SUOMI NPP
#Satellite: SUOMI NPP
#Configuration: NPP
#almurnet v.1.7.20251203
#Start time: 2026-01-24 16:56:20

#Version: 2.2.20231116
#Station: R4.6S_Anadyr
#Location: 177.4865 lon 64.73178 lat
#TLE: 1 37849U 11061A   26024.12615439  .00000221  00000+0  12601-3 0  9992
#TLE: 2 37849  98.7821 326.0966 0002215  48.1259 312.0106 14.19529288738009

#Time	Az	El	Level	Level2	SNR	BER	BlckErr	Temp	State	Recorded	gain1	gain2
2026-01-24 16:56:20.36	28.30	0.06	-52.6	-70.3	3.5	3.02e+01	0	39	0	0	60	125377
2026-01-24 16:56:24.39	28.10	0.28	-52.4	-67.6	3.6	1.51e+00	0	40	104	0	60	86438
2026-01-24 16:56:28.43	27.90	0.51	-51.9	-67.1	3.6	1.51e+00	0	40	104	0	60	82146
2026-01-24 16:56:32.47	27.70	0.73	-51.9	-67.1	3.6	1.51e+00	0	40	104	0	60	82186
2026-01-24 16:56:36.51	27.49	0.96	-51.5	-66.7	3.6	1.51e+00	0	40	104	0	60	78118
2026-01-24 16:56:40.56	27.28	1.19	-51.5	-66.7	3.6	1.51e+00	0	40	104	0	60	78570
2026-01-24 16:56:44.60	27.07	1.42	-50.4	-65.5	3.6	1.51e+00	0	40	104	0	60	67807
2026-01-24 16:56:48.64	26.86	1.66	-50.2	-65.3	3.6	1.51e+00	0	40	104	0	60	66822
2026-01-24 16:56:52.68	26.64	1.89	-50.1	-65.4	3.6	1.51e+00	0	40	104	0	60	66995
2026-01-24 16:56:56.72	26.41	2.13	-50.1	-65.0	3.6	1.51e+00	0	40	104	0	60	64644
2026-01-24 16:57:00.76	26.18	2.36	-50.2	-65.4	3.6	1.51e+00	0	41	104	0	60	66927
2026-01-24 16:57:04.80	25.95	2.60	-50.2	-65.3	3.6	1.51e+00	0	40	104	0	60	66511
2026-01-24 16:57:08.84	25.72	2.84	-50.3	-64.8	3.6	1.51e+00	0	41	104	0	60	62895
2026-01-24 16:57:12.88	25.48	3.08	-50.1	-63.4	3.6	1.51e+00	0	41	104	0	60	53202
2026-01-24 16:57:16.93	25.23	3.33	-49.1	-54.9	9.7	5.40e-04	0	41	0	4194304	60	20186
2026-01-24 16:57:20.96	24.98	3.57	-49.0	-55.4	8.2	1.02e+00	67	41	104	7340032	60	21190
2026-01-24 16:57:25.00	24.73	3.82	-47.6	-51.3	13.1	4.91e-03	0	41	0	9437184	60	13241
2026-01-24 16:57:29.04	24.47	4.07	-46.5	-49.2	15.5	1.50e-06	0	41	0	16777216	60	10392
2026-01-24 16:57:33.08	24.21	4.32	-46.1	-48.5	16.1	0.00e+00	0	41	0	25165824	60	9618
2026-01-24 16:57:37.12	23.94	4.57	-46.0	-48.4	16.0	0.00e+00	46	41	0	32505856	60	9507
2026-01-24 16:57:41.15	23.67	4.82	-44.5	-46.2	18.6	0.00e+00	0	41	0	39845888	60	7402
2026-01-24 16:57:45.19	23.40	5.08	-45.0	-46.9	18.3	0.00e+00	33	41	0	47185920	60	8001
2026-01-24 16:57:49.23	23.11	5.34	-44.9	-46.8	17.8	0.00e+00	0	41	0	54525952	60	7924
2026-01-24 16:57:53.27	22.83	5.60	-43.7	-45.2	19.3	0.00e+00	92	41	0	62914560	60	6608
2026-01-24 16:57:57.32	22.53	5.86	-44.5	-46.2	18.5	0.00e+00	0	41	0	70254592	60	7384
2026-01-24 16:58:01.36	22.23	6.12	-43.8	-45.3	19.4	0.00e+00	0	41	0	77594624	60	6654
2026-01-24 16:58:05.40	21.93	6.39	-44.8	-46.5	18.4	0.00e+00	68	41	0	84934656	60	7680
2026-01-24 16:58:09.45	21.62	6.65	-44.2	-45.8	19.0	0.00e+00	0	41	0	93323264	60	7008
2026-01-24 16:58:13.49	21.30	6.92	-44.9	-46.6	18.3	0.00e+00	0	41	0	100663296	60	7767
2026-01-24 16:58:17.53	20.98	7.19	-43.9	-45.4	19.3	0.00e+00	0	41	0	108003328	60	6751
2026-01-24 16:58:21.56	20.65	7.46	-43.5	-45.0	19.8	0.00e+00	92	41	0	115343360	60	6396
2026-01-24 16:58:25.60	20.32	7.74	-43.2	-44.5	20.1	0.00e+00	0	41	0	122683392	60	6092
2026-01-24 16:58:29.64	19.97	8.02	-43.0	-44.4	20.4	0.00e+00	0	41	0	131072000	60	5970
2026-01-24 16:58:33.68	19.62	8.29	-43.2	-44.5	20.4	0.00e+00	0	41	0	138412032	60	6069
2026-01-24 16:58:37.71	19.27	8.57	-43.2	-44.5	20.3	0.00e+00	71	41	0	145752064	58	6810
2026-01-24 16:58:41.75	18.91	8.86	-43.2	-44.5	20.2	0.00e+00	0	41	0	153092096	58	6803
2026-01-24 16:58:45.79	18.54	9.14	-43.3	-44.6	20.2	0.00e+00	0	41	0	161480704	58	6867
2026-01-24 16:58:49.83	18.16	9.43	-43.4	-44.8	20.1	0.00e+00	0	41	0	168820736	58	7024
2026-01-24 16:58:53.87	17.77	9.72	-43.1	-44.4	20.4	0.00e+00	82	41	0	176160768	58	6719
2026-01-24 16:58:57.91	17.38	10.01	-43.1	-44.4	20.3	0.00e+00	0	41	0	183500800	58	6734
2026-01-24 16:59:01.95	16.97	10.30	-43.2	-44.5	20.6	0.00e+00	0	41	0	190840832	58	6804
2026-01-24 16:59:05.99	16.56	10.60	-42.9	-44.2	20.5	0.00e+00	16	41	0	199229440	58	6592
2026-01-24 16:59:10.02	16.15	10.89	-43.3	-44.6	20.2	0.00e+00	0	41	0	206569472	58	6920
2026-01-24 16:59:14.06	15.72	11.19	-42.8	-44.1	20.8	0.00e+00	0	41	0	213909504	58	6524
2026-01-24 16:59:18.10	15.28	11.49	-43.2	-44.5	20.4	0.00e+00	0	41	0	221249536	58	6817
2026-01-24 16:59:22.14	14.83	11.80	-43.6	-45.0	19.9	0.00e+00	52	41	0	229638144	60	6451
2026-01-24 16:59:26.18	14.38	12.10	-43.6	-45.0	20.0	0.00e+00	0	41	0	236978176	60	6419
2026-01-24 16:59:30.22	13.91	12.41	-42.6	-43.9	21.0	0.00e+00	0	41	0	244318208	58	6334
2026-01-24 16:59:34.26	13.43	12.72	-42.6	-43.8	21.1	0.00e+00	0	41	0	251658240	58	6263
2026-01-24 16:59:38.30	12.95	13.03	-42.3	-43.4	21.6	0.00e+00	65	41	0	258998272	58	6028
2026-01-24 16:59:42.34	12.45	13.34	-42.7	-44.0	21.0	0.00e+00	0	41	0	267386880	58	6393
2026-01-24 16:59:46.38	11.94	13.66	-42.5	-43.7	21.2	0.00e+00	0	41	0	274726912	58	6208
2026-01-24 16:59:50.42	11.42	13.97	-42.9	-44.2	20.6	0.00e+00	51	41	0	282066944	58	6596
2026-01-24 16:59:54.46	10.89	14.29	-42.7	-43.9	21.3	0.00e+00	0	41	0	289406976	58	6349
2026-01-24 16:59:58.50	10.35	14.61	-42.2	-43.3	21.5	0.00e+00	0	41	0	297795584	58	5960
2026-01-24 17:00:02.54	9.79	14.93	-41.9	-43.0	21.8	0.00e+00	0	41	0	305135616	56	6411
2026-01-24 17:00:06.58	9.22	15.26	-41.7	-42.7	22.1	0.00e+00	81	41	0	312475648	56	6222
2026-01-24 17:00:10.62	8.64	15.58	-41.3	-42.3	22.4	0.00e+00	0	41	0	319815680	56	5938
2026-01-24 17:00:14.65	8.05	15.90	-41.6	-42.6	22.3	0.00e+00	0	41	0	327155712	56	6134
2026-01-24 17:00:18.69	7.44	16.23	-41.6	-42.7	22.2	0.00e+00	9	41	0	335544320	56	6197
2026-01-24 17:00:22.73	6.82	16.56	-41.5	-42.6	22.2	0.00e+00	82	41	0	342884352	56	6118
2026-01-24 17:00:26.77	6.19	16.89	-41.7	-42.8	22.1	0.00e+00	0	41	0	350224384	56	6259
2026-01-24 17:00:30.81	5.54	17.22	-41.7	-42.7	21.9	0.00e+00	0	41	0	357564416	56	6212
2026-01-24 17:00:34.85	4.87	17.55	-41.9	-43.0	21.9	0.00e+00	12	41	0	365953024	56	6460
2026-01-24 17:00:38.89	4.20	17.87	-42.0	-43.0	22.1	0.00e+00	0	41	0	373293056	56	6447
2026-01-24 17:00:42.94	3.50	18.21	-42.5	-43.7	21.5	0.00e+00	0	41	0	380633088	58	6213
2026-01-24 17:00:46.97	2.79	18.53	-42.0	-43.2	21.7	0.00e+00	0	41	0	387973120	58	5832
2026-01-24 17:00:51.01	2.07	18.86	-42.3	-43.4	21.6	0.00e+00	49	41	0	395313152	58	6024
2026-01-24 17:00:55.05	1.33	19.19	-42.1	-43.2	21.8	0.00e+00	0	41	0	403701760	58	5871
2026-01-24 17:00:59.09	0.57	19.52	-41.7	-42.7	22.0	0.00e+00	0	41	0	411041792	56	6245
2026-01-24 17:01:03.13	359.80	19.85	-41.9	-42.9	22.0	0.00e+00	0	41	0	418381824	56	6370
2026-01-24 17:01:07.16	359.01	20.17	-42.4	-43.5	21.5	0.00e+00	92	41	0	425721856	56	6810
2026-01-24 17:01:11.20	358.20	20.50	-41.3	-42.3	22.5	0.00e+00	0	41	0	434110464	56	5924
2026-01-24 17:01:15.24	357.37	20.82	-41.0	-42.0	22.7	0.00e+00	0	41	0	441450496	54	6431
2026-01-24 17:01:19.28	356.53	21.14	-42.1	-43.2	21.8	0.00e+00	74	41	0	448790528	56	6563
2026-01-24 17:01:23.32	355.67	21.46	-42.1	-43.2	21.9	0.00e+00	92	41	0	456130560	56	6604
2026-01-24 17:01:27.36	354.79	21.77	-40.5	-41.5	23.2	0.00e+00	0	41	0	463470592	54	6066
2026-01-24 17:01:31.40	353.89	22.08	-40.3	-41.2	23.2	0.00e+00	0	41	0	471859200	54	5892
2026-01-24 17:01:35.44	352.98	22.39	-40.8	-41.8	22.9	0.00e+00	91	41	0	479199232	54	6293
2026-01-24 17:01:39.48	352.04	22.69	-40.9	-41.9	23.0	0.00e+00	0	41	0	486539264	54	6372
2026-01-24 17:01:43.52	351.09	22.99	-39.7	-40.5	23.9	0.00e+00	0	41	0	493879296	54	5426
2026-01-24 17:01:47.56	350.12	23.28	-40.6	-41.5	23.3	0.00e+00	0	41	0	502267904	52	6828
2026-01-24 17:01:51.60	349.13	23.57	-39.2	-40.0	24.5	0.00e+00	74	41	0	509607936	52	5698
2026-01-24 17:01:55.64	348.12	23.85	-39.9	-40.8	23.3	0.00e+00	0	41	0	516947968	52	6279
2026-01-24 17:01:59.68	347.10	24.12	-39.9	-40.8	23.9	0.00e+00	0	40	0	524288000	52	6287
2026-01-24 17:02:03.72	346.05	24.38	-40.7	-41.6	23.2	0.00e+00	0	41	0	531628032	52	6881
2026-01-24 17:02:07.76	344.99	24.64	-40.1	-41.0	23.4	0.00e+00	71	41	0	540016640	54	5723
2026-01-24 17:02:11.80	343.91	24.89	-40.7	-41.6	23.3	0.00e+00	0	41	0	547356672	54	6171
2026-01-24 17:02:15.84	342.82	25.13	-40.2	-41.1	23.5	0.00e+00	0	40	0	554696704	52	6475
2026-01-24 17:02:19.88	341.70	25.36	-40.4	-41.4	23.4	0.00e+00	9	41	0	562036736	54	5966
2026-01-24 17:02:23.92	340.58	25.58	-40.7	-41.6	23.2	0.00e+00	0	41	0	570425344	54	6139
2026-01-24 17:02:27.96	339.43	25.79	-40.1	-40.9	23.8	0.00e+00	0	41	0	577765376	54	5675
2026-01-24 17:02:32.00	338.27	25.99	-40.2	-41.1	23.7	0.00e+00	0	41	0	585105408	52	6498
2026-01-24 17:02:36.03	337.10	26.18	-39.3	-40.2	24.0	0.00e+00	71	41	0	592445440	52	5832
2026-01-24 17:02:40.08	335.91	26.35	-40.9	-41.8	23.1	0.00e+00	0	41	0	600834048	54	6280
2026-01-24 17:02:44.11	334.72	26.51	-41.3	-42.3	22.7	0.00e+00	0	41	0	608174080	54	6680
2026-01-24 17:02:48.16	333.50	26.66	-42.3	-43.4	21.8	0.00e+00	0	41	0	615514112	56	6746
2026-01-24 17:02:52.19	332.28	26.80	-41.3	-42.3	22.7	0.00e+00	92	41	0	622854144	56	5898
2026-01-24 17:02:56.23	331.05	26.92	-42.3	-43.4	21.9	0.00e+00	0	41	0	630194176	56	6703
2026-01-24 17:03:00.27	329.81	27.03	-42.4	-43.5	21.8	0.00e+00	0	41	0	638582784	56	6795
2026-01-24 17:03:04.31	328.56	27.12	-41.7	-42.7	22.4	0.00e+00	74	41	0	645922816	56	6200
2026-01-24 17:03:08.35	327.30	27.20	-42.0	-43.0	22.1	0.00e+00	0	41	0	653262848	56	6443
2026-01-24 17:03:12.39	326.04	27.26	-41.5	-42.5	22.6	0.00e+00	0	41	0	660602880	56	6078
2026-01-24 17:03:16.43	324.77	27.31	-41.6	-42.6	22.4	0.00e+00	0	40	0	668991488	56	6153
2026-01-24 17:03:20.47	323.50	27.34	-43.1	-44.4	20.9	0.00e+00	92	41	0	676331520	58	6725
2026-01-24 17:03:24.51	322.23	27.35	-41.4	-42.4	22.7	0.00e+00	0	41	0	683671552	56	5977
2026-01-24 17:03:28.55	320.96	27.35	-41.3	-42.3	22.6	0.00e+00	0	41	0	691011584	56	5952
2026-01-24 17:03:32.59	319.69	27.34	-41.5	-42.5	22.5	0.00e+00	0	41	0	698351616	56	6095
2026-01-24 17:03:36.63	318.42	27.31	-41.4	-42.4	22.5	0.00e+00	92	41	0	706740224	56	6020
2026-01-24 17:03:40.67	317.15	27.26	-40.8	-41.8	23.1	0.00e+00	0	41	0	714080256	56	5587
2026-01-24 17:03:44.71	315.89	27.20	-41.4	-42.5	22.6	0.00e+00	0	41	0	721420288	54	6783
2026-01-24 17:03:48.75	314.63	27.12	-41.8	-42.8	22.4	0.00e+00	57	41	0	728760320	56	6286
2026-01-24 17:03:52.79	313.38	27.03	-38.9	-39.6	24.8	0.00e+00	27	40	0	737148928	52	5478
2026-01-24 17:03:56.83	312.14	26.92	-39.9	-40.8	23.8	0.00e+00	0	41	0	744488960	52	6260
2026-01-24 17:04:00.87	310.90	26.80	-40.1	-41.0	23.7	0.00e+00	0	40	0	751828992	52	6416
2026-01-24 17:04:04.91	309.68	26.67	-40.1	-41.0	23.8	0.00e+00	16	41	0	759169024	52	6403
2026-01-24 17:04:08.95	308.46	26.52	-40.6	-41.6	23.3	0.00e+00	0	41	0	766509056	52	6858
2026-01-24 17:04:12.99	307.26	26.36	-41.5	-42.5	22.5	0.00e+00	0	41	0	774897664	56	6076
2026-01-24 17:04:17.03	306.07	26.18	-41.1	-42.0	23.1	0.00e+00	0	41	0	782237696	56	5746
2026-01-24 17:04:21.07	304.90	26.00	-40.8	-41.7	23.3	0.00e+00	78	41	0	789577728	54	6223
2026-01-24 17:04:25.10	303.74	25.80	-41.6	-42.6	22.5	0.00e+00	0	41	0	796917760	54	6900
2026-01-24 17:04:29.14	302.59	25.59	-41.8	-42.9	22.4	0.00e+00	0	41	0	805306368	56	6331
2026-01-24 17:04:33.18	301.46	25.37	-42.3	-43.4	21.8	0.00e+00	57	41	0	812646400	56	6768
2026-01-24 17:04:37.22	300.35	25.14	-42.4	-43.5	22.0	0.00e+00	87	41	0	819986432	56	6821
2026-01-24 17:04:41.26	299.25	24.90	-42.3	-43.4	21.7	0.00e+00	0	41	0	827326464	56	6751
2026-01-24 17:04:45.30	298.17	24.65	-41.7	-42.7	22.5	0.00e+00	0	41	0	834666496	56	6200
2026-01-24 17:04:49.34	297.10	24.39	-41.8	-42.7	22.3	0.00e+00	13	41	0	843055104	56	6245
2026-01-24 17:04:53.38	296.06	24.13	-41.9	-42.9	22.4	0.00e+00	0	41	0	850395136	56	6350
2026-01-24 17:04:57.42	295.03	23.86	-41.0	-41.9	23.0	0.00e+00	0	41	0	857735168	54	6355
2026-01-24 17:05:01.46	294.02	23.58	-42.4	-43.4	21.9	0.00e+00	0	41	0	865075200	56	6755
2026-01-24 17:05:05.50	293.02	23.29	-42.3	-43.3	22.1	0.00e+00	81	41	0	873463808	58	5961
2026-01-24 17:05:09.54	292.05	23.00	-41.0	-41.9	23.2	0.00e+00	0	41	0	880803840	56	5676
2026-01-24 17:05:13.58	291.09	22.70	-42.3	-43.4	21.9	0.00e+00	0	41	0	888143872	56	6736
2026-01-24 17:05:17.62	290.16	22.40	-42.0	-43.0	22.3	0.00e+00	0	41	0	895483904	56	6458
2026-01-24 17:05:21.66	289.24	22.09	-40.2	-41.0	23.8	0.00e+00	92	41	0	902823936	54	5736
2026-01-24 17:05:25.70	288.34	21.78	-39.9	-40.8	23.8	0.00e+00	0	41	0	911212544	54	5584
2026-01-24 17:05:29.74	287.46	21.47	-39.7	-40.5	24.1	0.00e+00	0	41	0	918552576	52	6055
2026-01-24 17:05:33.78	286.59	21.15	-39.6	-40.5	24.0	0.00e+00	71	41	0	925892608	52	6040
2026-01-24 17:05:37.82	285.74	20.83	-40.2	-41.1	23.6	0.00e+00	0	41	0	933232640	52	6498
2026-01-24 17:05:41.87	284.91	20.50	-40.7	-41.6	23.1	0.00e+00	0	41	0	941621248	54	6170
2026-01-24 17:05:45.91	284.10	20.18	-41.3	-42.4	22.6	0.00e+00	0	41	0	948961280	54	6695
2026-01-24 17:05:49.95	283.31	19.85	-40.3	-41.2	23.4	0.00e+00	72	41	0	956301312	54	5873
2026-01-24 17:05:53.99	282.53	19.53	-40.5	-41.4	23.3	0.00e+00	0	41	0	963641344	54	6020
2026-01-24 17:05:58.03	281.77	19.20	-39.5	-40.3	24.0	0.00e+00	0	41	0	970981376	52	5930
2026-01-24 17:06:02.07	281.03	18.87	-39.4	-40.2	24.0	0.00e+00	0	41	0	979369984	52	5896
2026-01-24 17:06:06.11	280.30	18.54	-40.2	-41.1	23.6	0.00e+00	87	41	0	986710016	52	6502
2026-01-24 17:06:10.15	279.58	18.20	-40.2	-41.1	23.8	0.00e+00	0	41	0	994050048	52	6468
2026-01-24 17:06:14.19	278.89	17.87	-40.1	-41.0	23.6	0.00e+00	0	41	0	1001390080	52	6427
2026-01-24 17:06:18.23	278.21	17.54	-40.5	-41.5	23.3	0.00e+00	71	41	0	1009778688	52	6776
2026-01-24 17:06:22.27	277.54	17.21	-40.4	-41.4	23.2	0.00e+00	0	41	0	1017118720	52	6705
2026-01-24 17:06:26.31	276.89	16.88	-39.6	-40.5	23.9	0.00e+00	0	41	0	1024458752	52	6050
2026-01-24 17:06:30.35	276.25	16.55	-40.0	-40.8	23.3	0.00e+00	0	41	0	1031798784	52	6308
2026-01-24 17:06:34.39	275.63	16.23	-41.2	-42.2	22.7	0.00e+00	43	41	0	1039138816	54	6592
2026-01-24 17:06:38.43	275.02	15.90	-40.8	-41.8	22.9	0.00e+00	0	41	0	1047527424	54	6269
2026-01-24 17:06:42.47	274.42	15.57	-40.4	-41.3	23.3	0.00e+00	0	41	0	1054867456	54	5934
2026-01-24 17:06:46.51	273.84	15.25	-40.3	-41.2	23.3	0.00e+00	0	41	0	1062207488	54	5853
2026-01-24 17:06:50.55	273.27	14.92	-41.9	-43.0	22.2	0.00e+00	92	41	0	1069547520	56	6398
2026-01-24 17:06:54.59	272.71	14.60	-42.2	-43.3	22.0	0.00e+00	0	41	0	1077936128	56	6642
2026-01-24 17:06:58.63	272.16	14.28	-40.5	-41.4	23.3	0.00e+00	0	41	0	1085276160	54	5986
2026-01-24 17:07:02.67	271.63	13.96	-40.8	-41.7	23.1	0.00e+00	66	41	0	1092616192	54	6218
2026-01-24 17:07:06.71	271.10	13.65	-41.4	-42.4	22.5	0.00e+00	63	41	0	1099956224	54	6741
2026-01-24 17:07:10.75	270.59	13.33	-40.9	-41.8	23.1	0.00e+00	0	41	0	1107296256	54	6277
2026-01-24 17:07:14.79	270.09	13.02	-40.9	-41.9	22.9	0.00e+00	0	41	0	1115684864	54	6340
2026-01-24 17:07:18.83	269.60	12.70	-41.4	-42.4	22.5	0.00e+00	67	41	0	1123024896	54	6700
2026-01-24 17:07:22.87	269.12	12.39	-42.8	-44.0	21.1	0.00e+00	0	41	0	1130364928	58	6407
2026-01-24 17:07:26.91	268.65	12.09	-42.6	-43.7	21.4	0.00e+00	0	41	0	1137704960	58	6214
2026-01-24 17:07:30.95	268.19	11.78	-42.2	-43.3	22.0	0.00e+00	0	41	0	1146093568	58	5926
2026-01-24 17:07:34.99	267.74	11.48	-41.8	-42.9	21.9	0.00e+00	90	41	0	1153433600	56	6336
2026-01-24 17:07:39.03	267.30	11.17	-42.4	-43.5	21.4	0.00e+00	0	41	0	1160773632	56	6817
2026-01-24 17:07:43.07	266.87	10.87	-42.5	-43.7	21.3	0.00e+00	0	41	0	1168113664	56	6953
2026-01-24 17:07:47.11	266.45	10.58	-42.2	-43.3	21.4	0.00e+00	33	41	0	1175453696	58	5953
2026-01-24 17:07:51.15	266.04	10.28	-42.0	-43.0	21.7	0.00e+00	41	41	0	1183842304	56	6455
2026-01-24 17:07:55.19	265.63	9.99	-41.3	-42.3	22.2	0.00e+00	0	41	0	1191182336	56	5904
2026-01-24 17:07:59.23	265.24	9.70	-41.6	-42.6	22.0	0.00e+00	0	41	0	1198522368	56	6141
2026-01-24 17:08:03.26	264.85	9.41	-42.6	-43.8	20.8	0.00e+00	64	41	0	1205862400	56	7046
2026-01-24 17:08:07.30	264.47	9.12	-44.0	-45.3	20.1	0.00e+00	0	41	0	1214251008	60	6685
2026-01-24 17:08:11.34	264.09	8.83	-43.9	-45.3	20.0	0.00e+00	0	41	0	1221591040	60	6629
2026-01-24 17:08:15.38	263.73	8.55	-43.8	-45.1	20.1	0.00e+00	0	41	0	1228931072	60	6525
2026-01-24 17:08:19.42	263.37	8.27	-43.6	-45.0	20.0	0.00e+00	91	41	0	1236271104	60	6423
2026-01-24 17:08:23.46	263.02	7.99	-43.2	-44.5	20.4	0.00e+00	0	41	0	1243611136	60	6079
2026-01-24 17:08:27.50	262.67	7.71	-43.6	-45.0	20.0	0.00e+00	0	41	0	1251999744	60	6437
2026-01-24 17:08:31.54	262.33	7.44	-44.0	-45.5	19.6	0.00e+00	0	41	0	1259339776	60	6789
2026-01-24 17:08:35.58	262.00	7.17	-44.5	-46.2	18.8	0.00e+00	87	41	0	1266679808	60	7348
2026-01-24 17:08:39.62	261.68	6.89	-43.7	-45.2	19.7	0.00e+00	0	41	0	1274019840	60	6579
2026-01-24 17:08:43.65	261.36	6.63	-43.0	-44.3	20.3	0.00e+00	0	41	0	1282408448	58	6644
2026-01-24 17:08:47.69	261.05	6.36	-43.1	-44.4	20.2	0.00e+00	0	41	0	1289748480	58	6704
2026-01-24 17:08:51.73	260.74	6.09	-42.6	-43.9	20.7	0.00e+00	0	41	0	1297088512	56	7092
2026-01-24 17:08:55.77	260.44	5.83	-43.6	-45.1	19.3	0.00e+00	0	41	0	1304428544	58	7268
2026-01-24 17:08:59.81	260.14	5.57	-44.1	-45.7	19.1	0.00e+00	0	41	0	1311768576	60	6981
2026-01-24 17:09:03.85	259.85	5.31	-44.2	-45.8	19.0	0.00e+00	92	41	0	1320157184	60	7015
2026-01-24 17:09:07.88	259.57	5.05	-45.0	-46.8	17.9	0.00e+00	0	41	0	1327497216	60	7933
2026-01-24 17:09:11.92	259.29	4.80	-45.0	-46.9	17.8	0.00e+00	0	41	0	1334837248	60	7955
2026-01-24 17:09:15.96	259.01	4.54	-44.7	-46.4	18.3	0.00e+00	0	41	0	1342177280	60	7580
2026-01-24 17:09:20.00	258.74	4.29	-44.5	-46.3	18.3	0.00e+00	89	41	0	1350565888	60	7424
2026-01-24 17:09:24.04	258.48	4.04	-44.7	-46.5	18.3	0.00e+00	0	41	0	1357905920	60	7660
2026-01-24 17:09:28.08	258.22	3.79	-44.7	-46.6	17.9	0.00e+00	0	41	0	1365245952	60	7715
2026-01-24 17:09:32.11	257.96	3.54	-45.5	-47.6	16.7	0.00e+00	33	41	0	1372585984	60	8700
2026-01-24 17:09:36.15	257.71	3.30	-44.4	-46.2	17.9	0.00e+00	63	41	0	1379926016	60	7355
2026-01-24 17:09:40.19	257.46	3.05	-45.4	-47.5	16.4	0.00e+00	0	41	0	1388314624	60	8575
2026-01-24 17:09:44.23	257.22	2.81	-51.4	-66.6	3.6	1.51e+00	0	41	104	1390411776	60	77494
2026-01-24 17:09:48.27	256.98	2.57	-51.7	-66.8	3.6	1.51e+00	0	41	104	1390411776	60	79474
2026-01-24 17:09:52.31	256.75	2.33	-51.8	-67.0	3.6	1.51e+00	0	41	104	1390411776	60	80948
2026-01-24 17:09:56.35	256.52	2.09	-51.7	-66.9	3.6	1.51e+00	0	41	104	1390411776	60	80097
2026-01-24 17:10:00.40	256.29	1.86	-51.7	-66.9	3.6	1.51e+00	0	41	104	1390411776	60	80395
2026-01-24 17:10:04.44	256.07	1.62	-51.7	-67.0	3.6	1.51e+00	0	41	104	1390411776	60	81115
2026-01-24 17:10:08.48	255.85	1.39	-51.8	-67.0	3.6	1.51e+00	0	41	104	1390411776	60	81087
2026-01-24 17:10:12.52	255.63	1.16	-51.9	-67.1	3.5	1.51e+00	0	41	104	1390411776	60	82014
2026-01-24 17:10:16.56	255.42	0.93	-51.9	-67.1	3.6	1.51e+00	0	41	104	1390411776	60	81917
2026-01-24 17:10:20.60	255.21	0.70	-51.8	-67.0	3.6	1.51e+00	0	41	104	1390411776	60	80571
2026-01-24 17:10:24.64	255.00	0.47	-52.1	-67.3	3.6	1.51e+00	0	41	104	1390411776	60	83937
2026-01-24 17:10:28.68	254.80	0.25	-52.3	-67.5	3.6	1.51e+00	0	41	104	1390411776	60	85404
2026-01-24 17:10:32.72	254.60	0.02	-52.5	-67.7	3.6	1.51e+00	0	41	104	1390411776	60	87374

#Closed at: 2026-01-24 17:10:34
#Recorded file [1390 MB]: D:/lorett/data/35029_260125_045620.dat