passes_logs/2026/01/24/R4.6S_Anadyr/R4.6S_Anadyr__20260124_185606_NOAA_20_JPSS-1_rec.log

#Pass ID: 20260124_185606_NOAA 20 (JPSS-1)
#Satellite: NOAA 20 (JPSS-1)
#Configuration: NOAA 20
#almurnet v.1.7.20251203
#Start time: 2026-01-24 18:56:09

#Version: 2.2.20231116
#Station: R4.6S_Anadyr
#Location: 177.4865 lon 64.73178 lat
#TLE: 1 43013U 17073A   26024.14064826  .00000217  00000+0  12382-3 0  9992
#TLE: 2 43013  98.7646 324.9839 0001118  26.6217 333.5016 14.19539758424032

#Time	Az	El	Level	Level2	SNR	BER	BlckErr	Temp	State	Recorded	gain1	gain2
2026-01-24 18:56:09.11	46.22	0.15	-53.1	-66.9	3.3	1.54e+00	0	40	0	0	60	80072
2026-01-24 18:56:12.14	46.00	0.29	-52.7	-67.9	3.6	1.51e+00	0	40	104	0	60	89759
2026-01-24 18:56:15.17	45.77	0.44	-53.1	-68.3	3.6	1.51e+00	0	40	104	0	60	94294
2026-01-24 18:56:18.20	45.53	0.59	-52.2	-67.4	3.6	1.51e+00	0	40	104	0	60	85019
2026-01-24 18:56:21.22	45.30	0.74	-52.2	-67.4	3.6	1.51e+00	0	40	104	0	60	85150
2026-01-24 18:56:24.25	45.07	0.89	-51.7	-66.9	3.6	1.51e+00	0	40	104	0	60	80331
2026-01-24 18:56:27.28	44.83	1.04	-51.5	-66.7	3.6	1.51e+00	0	40	104	0	60	78410
2026-01-24 18:56:30.32	44.58	1.19	-50.9	-66.1	3.6	1.51e+00	0	40	104	0	60	73299
2026-01-24 18:56:33.35	44.34	1.34	-50.2	-65.4	3.6	1.51e+00	0	40	104	0	60	67361
2026-01-24 18:56:36.37	44.10	1.49	-50.2	-65.4	3.6	1.51e+00	0	40	104	0	60	67315
2026-01-24 18:56:39.41	43.85	1.64	-50.3	-65.5	3.6	1.51e+00	0	40	104	0	60	67833
2026-01-24 18:56:42.44	43.59	1.79	-50.1	-65.3	3.6	1.51e+00	0	40	104	0	60	66904
2026-01-24 18:56:45.47	43.34	1.94	-50.3	-65.6	3.6	1.51e+00	0	41	104	0	60	68559
2026-01-24 18:56:48.50	43.08	2.10	-50.4	-65.5	3.6	1.51e+00	0	41	104	0	60	68187
2026-01-24 18:56:51.53	42.82	2.25	-50.3	-65.4	3.6	1.51e+00	0	41	104	0	60	67134
2026-01-24 18:56:54.56	42.56	2.40	-50.4	-65.6	3.6	1.51e+00	0	41	104	0	60	69051
2026-01-24 18:56:57.59	42.29	2.55	-50.5	-65.7	3.6	1.51e+00	0	41	104	0	60	69520
2026-01-24 18:57:00.61	42.03	2.70	-50.4	-65.1	3.6	1.51e+00	0	41	104	0	60	65046
2026-01-24 18:57:03.64	41.76	2.86	-50.3	-62.8	3.6	1.51e+00	0	41	104	0	60	49635
2026-01-24 18:57:06.67	41.48	3.01	-48.4	-53.1	11.7	1.35e-03	0	41	0	3145728	60	16292
2026-01-24 18:57:09.70	41.20	3.16	-47.2	-50.7	13.1	1.02e+00	0	41	104	7340032	60	12371
2026-01-24 18:57:12.72	40.92	3.32	-46.8	-49.8	5.9	1.50e+00	21	41	104	10485760	60	11178
2026-01-24 18:57:15.75	40.64	3.47	-46.7	-49.3	16.0	0.00e+00	0	41	0	13631488	60	10498
2026-01-24 18:57:18.79	40.35	3.63	-45.1	-47.0	17.7	0.00e+00	0	41	0	19922944	60	8065
2026-01-24 18:57:21.81	40.07	3.78	-47.1	-50.1	14.4	0.00e+00	0	41	0	25165824	60	11557
2026-01-24 18:57:24.83	39.77	3.93	-46.3	-48.7	16.3	0.00e+00	0	41	0	31457280	60	9834
2026-01-24 18:57:27.86	39.48	4.09	-46.6	-49.0	16.2	1.50e-06	0	41	0	36700160	60	10245
2026-01-24 18:57:30.89	39.18	4.24	-45.7	-47.8	16.9	0.00e+00	0	41	0	41943040	60	8854
2026-01-24 18:57:33.92	38.88	4.40	-46.4	-48.8	15.8	0.00e+00	0	41	0	48234496	60	9948
2026-01-24 18:57:36.95	38.57	4.55	-45.0	-46.7	18.2	0.00e+00	0	41	0	53477376	60	7853
2026-01-24 18:57:39.97	38.26	4.71	-46.7	-49.2	16.0	0.00e+00	0	41	0	59768832	60	10373
2026-01-24 18:57:43.00	37.95	4.86	-45.0	-46.8	18.1	0.00e+00	0	41	0	65011712	60	7900
2026-01-24 18:57:46.03	37.63	5.02	-45.9	-48.0	17.5	0.00e+00	0	41	0	70254592	60	9028
2026-01-24 18:57:49.06	37.31	5.17	-45.5	-47.3	18.1	0.00e+00	0	41	0	76546048	60	8348
2026-01-24 18:57:52.08	36.99	5.33	-45.3	-47.1	18.3	0.00e+00	0	41	0	81788928	60	8162
2026-01-24 18:57:55.11	36.67	5.48	-45.2	-46.9	18.3	0.00e+00	0	41	0	88080384	60	8021
2026-01-24 18:57:58.14	36.34	5.64	-45.7	-47.7	17.4	0.00e+00	0	41	0	93323264	60	8782
2026-01-24 18:58:01.17	36.00	5.79	-44.7	-46.3	18.5	0.00e+00	0	41	0	99614720	60	7494
2026-01-24 18:58:04.20	35.67	5.95	-45.1	-46.9	18.2	0.00e+00	0	41	0	104857600	60	7982
2026-01-24 18:58:07.23	35.32	6.11	-44.7	-46.3	18.8	0.00e+00	0	41	0	110100480	60	7462
2026-01-24 18:58:10.25	34.98	6.26	-44.3	-45.9	19.1	0.00e+00	0	41	0	116391936	60	7098
2026-01-24 18:58:13.28	34.63	6.42	-44.5	-46.1	18.9	0.00e+00	0	41	0	121634816	60	7302
2026-01-24 18:58:16.31	34.28	6.57	-44.6	-46.2	18.7	0.00e+00	0	41	0	127926272	60	7398
2026-01-24 18:58:19.34	33.92	6.73	-43.7	-45.1	19.8	0.00e+00	0	41	0	133169152	60	6524
2026-01-24 18:58:22.37	33.56	6.88	-44.3	-45.9	19.1	0.00e+00	0	41	0	138412032	60	7139
2026-01-24 18:58:25.40	33.20	7.04	-44.4	-46.0	19.1	0.00e+00	0	41	0	144703488	60	7239
2026-01-24 18:58:28.43	32.83	7.19	-44.0	-45.4	19.5	0.00e+00	0	41	0	149946368	60	6763
2026-01-24 18:58:31.45	32.46	7.35	-44.5	-46.1	19.6	0.00e+00	0	41	0	156237824	60	7258
2026-01-24 18:58:34.48	32.08	7.50	-44.2	-45.6	19.9	0.00e+00	0	41	0	161480704	60	6926
2026-01-24 18:58:37.51	31.70	7.65	-44.9	-46.5	18.8	0.00e+00	0	41	0	166723584	60	7600
2026-01-24 18:58:40.54	31.32	7.81	-44.8	-46.3	19.2	0.00e+00	0	41	0	173015040	60	7503
2026-01-24 18:58:43.57	30.93	7.96	-43.8	-45.2	20.1	0.00e+00	0	41	0	178257920	60	6555
2026-01-24 18:58:46.60	30.54	8.11	-45.2	-47.0	19.3	0.00e+00	0	41	0	184549376	60	8050
2026-01-24 18:58:49.63	30.14	8.27	-45.7	-47.4	18.6	0.00e+00	0	41	0	189792256	60	8512
2026-01-24 18:58:52.66	29.74	8.42	-44.4	-45.9	19.5	0.00e+00	0	41	0	196083712	60	7151
2026-01-24 18:58:55.68	29.33	8.57	-44.2	-45.7	19.6	0.00e+00	0	41	0	201326592	60	6972
2026-01-24 18:58:58.71	28.92	8.72	-44.0	-45.4	20.0	0.00e+00	0	41	0	206569472	60	6705
2026-01-24 18:59:01.74	28.51	8.87	-44.1	-45.6	20.0	0.00e+00	0	41	0	212860928	60	6869
2026-01-24 18:59:04.77	28.09	9.02	-43.9	-45.3	20.1	0.00e+00	0	41	0	218103808	60	6667
2026-01-24 18:59:07.80	27.67	9.17	-43.9	-45.3	19.8	0.00e+00	0	41	0	224395264	60	6618
2026-01-24 18:59:10.83	27.24	9.32	-43.7	-45.0	20.5	0.00e+00	0	41	0	229638144	60	6395
2026-01-24 18:59:13.86	26.81	9.47	-44.2	-45.6	19.8	0.00e+00	0	41	0	234881024	60	6890
2026-01-24 18:59:16.89	26.37	9.62	-43.9	-45.3	20.1	0.00e+00	0	41	0	241172480	60	6646
2026-01-24 18:59:19.92	25.93	9.76	-43.6	-44.9	20.5	0.00e+00	0	41	0	246415360	60	6348
2026-01-24 18:59:22.95	25.48	9.91	-44.0	-45.4	20.0	0.00e+00	0	41	0	252706816	60	6725
2026-01-24 18:59:25.98	25.03	10.06	-43.6	-44.9	20.3	0.00e+00	0	41	0	257949696	60	6372
2026-01-24 18:59:29.00	24.58	10.20	-43.6	-44.9	20.6	0.00e+00	0	41	0	264241152	60	6336
2026-01-24 18:59:32.03	24.12	10.34	-42.9	-44.1	21.2	0.00e+00	0	41	0	269484032	60	5816
2026-01-24 18:59:35.06	23.66	10.49	-42.7	-43.8	21.5	0.00e+00	0	41	0	274726912	58	6279
2026-01-24 18:59:38.09	23.19	10.63	-42.4	-43.5	21.7	0.00e+00	0	41	0	281018368	58	6055
2026-01-24 18:59:41.12	22.71	10.77	-42.8	-44.0	21.4	0.00e+00	0	41	0	286261248	58	6407
2026-01-24 18:59:44.14	22.24	10.91	-42.1	-43.2	22.0	0.00e+00	0	41	0	292552704	58	5856
2026-01-24 18:59:47.17	21.75	11.05	-42.3	-43.4	22.0	0.00e+00	0	41	0	297795584	58	6010
2026-01-24 18:59:50.21	21.27	11.18	-42.4	-43.6	21.7	0.00e+00	0	41	0	303038464	58	6131
2026-01-24 18:59:53.24	20.77	11.32	-41.8	-42.8	21.8	0.00e+00	0	41	0	309329920	58	5626
2026-01-24 18:59:56.26	20.28	11.45	-41.8	-42.9	22.4	0.00e+00	0	41	0	314572800	56	6322
2026-01-24 18:59:59.28	19.78	11.58	-41.6	-42.6	22.4	0.00e+00	0	41	0	320864256	56	6168
2026-01-24 19:00:02.31	19.27	11.72	-41.3	-42.4	22.7	0.00e+00	0	41	0	326107136	56	5968
2026-01-24 19:00:05.34	18.76	11.85	-41.2	-42.2	23.0	0.00e+00	0	41	0	332398592	56	5841
2026-01-24 19:00:08.37	18.25	11.97	-41.1	-42.0	23.1	0.00e+00	0	41	0	337641472	56	5748
2026-01-24 19:00:11.40	17.73	12.10	-41.1	-42.1	23.0	0.00e+00	0	41	0	342884352	56	5767
2026-01-24 19:00:14.42	17.21	12.23	-41.3	-42.3	22.9	0.00e+00	0	41	0	349175808	56	5906
2026-01-24 19:00:17.45	16.68	12.35	-41.6	-42.6	22.6	0.00e+00	0	41	0	354418688	56	6112
2026-01-24 19:00:20.48	16.15	12.47	-41.8	-42.8	22.5	0.00e+00	0	41	0	360710144	56	6288
2026-01-24 19:00:23.51	15.61	12.59	-41.8	-42.8	22.5	0.00e+00	0	41	0	365953024	56	6312
2026-01-24 19:00:26.54	15.07	12.71	-41.5	-42.5	22.6	0.00e+00	0	41	0	371195904	56	6091
2026-01-24 19:00:29.57	14.52	12.82	-41.7	-42.7	22.4	0.00e+00	0	41	0	377487360	56	6194
2026-01-24 19:00:32.59	13.97	12.94	-41.4	-42.4	22.5	0.00e+00	0	41	0	382730240	56	6027
2026-01-24 19:00:35.62	13.42	13.05	-41.6	-42.6	22.6	0.00e+00	0	41	0	389021696	56	6152
2026-01-24 19:00:38.65	12.86	13.16	-41.9	-42.9	22.4	0.00e+00	0	41	0	394264576	56	6380
2026-01-24 19:00:41.68	12.30	13.27	-42.0	-43.0	22.2	0.00e+00	0	41	0	400556032	56	6456
2026-01-24 19:00:44.71	11.73	13.37	-41.6	-42.7	22.6	0.00e+00	0	41	0	405798912	56	6179
2026-01-24 19:00:47.73	11.16	13.47	-41.3	-42.3	22.2	0.00e+00	0	41	0	411041792	56	5951
2026-01-24 19:00:50.76	10.58	13.57	-41.2	-42.1	23.1	0.00e+00	0	41	0	417333248	56	5804
2026-01-24 19:00:53.78	10.01	13.67	-41.7	-42.7	22.7	0.00e+00	0	41	0	422576128	56	6235
2026-01-24 19:00:56.81	9.42	13.76	-41.6	-42.6	22.9	0.00e+00	0	41	0	428867584	56	6160
2026-01-24 19:00:59.84	8.84	13.86	-41.2	-42.2	23.0	0.00e+00	0	41	0	434110464	56	5861
2026-01-24 19:01:02.87	8.25	13.95	-41.2	-42.1	23.3	0.00e+00	0	41	0	439353344	56	5802
2026-01-24 19:01:05.90	7.65	14.03	-41.3	-42.2	23.1	0.00e+00	0	41	0	445644800	56	5892
2026-01-24 19:01:08.93	7.06	14.12	-41.2	-42.1	23.1	0.00e+00	0	41	0	450887680	56	5814
2026-01-24 19:01:11.95	6.46	14.20	-41.1	-42.1	23.2	0.00e+00	0	40	0	457179136	56	5769
2026-01-24 19:01:14.98	5.85	14.28	-41.1	-42.1	23.1	0.00e+00	0	41	0	462422016	56	5769
2026-01-24 19:01:18.01	5.25	14.35	-41.2	-42.1	23.0	0.00e+00	0	41	0	467664896	56	5813
2026-01-24 19:01:21.04	4.64	14.43	-41.4	-42.4	22.8	0.00e+00	0	40	0	473956352	56	6008
2026-01-24 19:01:24.06	4.02	14.49	-41.6	-42.6	22.7	0.00e+00	0	41	0	479199232	56	6140
2026-01-24 19:01:27.09	3.41	14.56	-41.3	-42.3	22.9	0.00e+00	0	41	0	485490688	56	5941
2026-01-24 19:01:30.12	2.79	14.62	-41.8	-42.8	22.6	0.00e+00	0	41	0	490733568	56	6259
2026-01-24 19:01:33.15	2.17	14.68	-42.1	-43.2	22.1	0.00e+00	0	41	0	497025024	56	6583
2026-01-24 19:01:36.19	1.54	14.74	-41.8	-42.8	22.5	0.00e+00	0	41	0	502267904	56	6316
2026-01-24 19:01:39.21	0.92	14.79	-42.0	-43.1	22.2	0.00e+00	0	41	0	507510784	56	6482
2026-01-24 19:01:42.24	0.29	14.84	-41.1	-42.1	23.0	0.00e+00	0	41	0	513802240	56	5776
2026-01-24 19:01:45.27	359.66	14.89	-41.3	-42.2	23.0	0.00e+00	0	41	0	519045120	56	5889
2026-01-24 19:01:48.30	359.03	14.93	-41.4	-42.4	23.0	0.00e+00	0	41	0	525336576	56	5999
2026-01-24 19:01:51.33	358.39	14.97	-41.4	-42.3	23.0	0.00e+00	0	41	0	530579456	56	5963
2026-01-24 19:01:54.36	357.76	15.01	-41.7	-42.7	22.7	0.00e+00	0	41	0	535822336	56	6187
2026-01-24 19:01:57.39	357.12	15.04	-42.0	-43.1	22.3	0.00e+00	0	41	0	542113792	56	6483
2026-01-24 19:02:00.42	356.48	15.07	-41.8	-42.8	22.8	0.00e+00	0	41	0	547356672	56	6295
2026-01-24 19:02:03.44	355.84	15.10	-41.9	-43.0	22.5	0.00e+00	0	41	0	553648128	56	6397
2026-01-24 19:02:06.46	355.20	15.12	-41.5	-42.5	22.8	0.00e+00	0	41	0	558891008	56	6065
2026-01-24 19:02:09.49	354.56	15.14	-41.9	-42.9	22.8	0.00e+00	0	41	0	565182464	56	6349
2026-01-24 19:02:12.52	353.92	15.15	-41.8	-42.8	22.6	0.00e+00	0	41	0	570425344	56	6246
2026-01-24 19:02:15.55	353.28	15.16	-41.8	-42.8	22.7	0.00e+00	0	41	0	575668224	56	6307
2026-01-24 19:02:18.58	352.63	15.17	-41.9	-42.9	22.8	0.00e+00	0	41	0	581959680	56	6318
2026-01-24 19:02:21.60	351.99	15.18	-41.8	-42.8	22.7	0.00e+00	0	41	0	587202560	56	6299
2026-01-24 19:02:24.63	351.35	15.18	-41.8	-42.8	22.7	0.00e+00	0	41	0	593494016	56	6250
2026-01-24 19:02:27.66	350.70	15.17	-41.6	-42.6	22.7	0.00e+00	0	41	0	598736896	56	6120
2026-01-24 19:02:30.69	350.06	15.17	-41.2	-42.2	23.1	0.00e+00	0	41	0	603979776	56	5864
2026-01-24 19:02:33.72	349.42	15.16	-41.4	-42.3	23.0	0.00e+00	0	41	0	610271232	56	5961
2026-01-24 19:02:36.74	348.78	15.14	-41.8	-42.8	22.8	0.00e+00	0	41	0	615514112	56	6260
2026-01-24 19:02:39.77	348.13	15.12	-42.1	-43.1	22.5	0.00e+00	0	41	0	621805568	56	6494
2026-01-24 19:02:42.80	347.49	15.10	-42.2	-43.3	22.1	0.00e+00	0	41	0	627048448	56	6667
2026-01-24 19:02:45.83	346.85	15.08	-42.2	-43.2	22.3	0.00e+00	0	41	0	633339904	56	6611
2026-01-24 19:02:48.86	346.21	15.05	-41.7	-42.7	22.8	0.00e+00	0	41	0	638582784	56	6238
2026-01-24 19:02:51.89	345.58	15.02	-41.9	-42.9	22.7	0.00e+00	0	41	0	643825664	56	6351
2026-01-24 19:02:54.91	344.94	14.98	-42.1	-43.2	22.3	0.00e+00	0	41	0	650117120	56	6555
2026-01-24 19:02:57.94	344.31	14.94	-42.2	-43.3	22.4	0.00e+00	0	41	0	655360000	56	6646
2026-01-24 19:03:00.97	343.67	14.90	-42.2	-43.3	22.2	0.00e+00	0	41	0	661651456	56	6650
2026-01-24 19:03:04.00	343.04	14.86	-42.0	-43.0	22.9	0.00e+00	0	41	0	666894336	58	5729
2026-01-24 19:03:07.03	342.41	14.81	-41.9	-43.0	22.8	0.00e+00	0	41	0	672137216	58	5710
2026-01-24 19:03:10.06	341.79	14.75	-41.7	-42.8	22.9	0.00e+00	0	41	0	678428672	56	6287
2026-01-24 19:03:13.09	341.16	14.70	-41.9	-43.0	23.1	0.00e+00	0	41	0	683671552	56	6415
2026-01-24 19:03:16.12	340.54	14.64	-41.8	-42.9	23.0	0.00e+00	0	41	0	689963008	56	6365
2026-01-24 19:03:19.14	339.92	14.58	-41.7	-42.8	22.8	0.00e+00	0	41	0	695205888	56	6280
2026-01-24 19:03:22.17	339.31	14.51	-41.7	-42.7	22.8	0.00e+00	0	41	0	701497344	56	6242
2026-01-24 19:03:25.20	338.69	14.44	-41.7	-42.7	22.9	0.00e+00	0	41	0	706740224	56	6233
2026-01-24 19:03:28.23	338.08	14.37	-41.8	-42.8	22.6	0.00e+00	0	41	0	711983104	56	6306
2026-01-24 19:03:31.26	337.47	14.30	-42.1	-43.2	22.3	0.00e+00	0	41	0	718274560	56	6570
2026-01-24 19:03:34.29	336.87	14.22	-42.2	-43.2	22.2	0.00e+00	0	41	0	723517440	56	6595
2026-01-24 19:03:37.31	336.27	14.14	-42.0	-43.0	22.5	0.00e+00	0	41	0	729808896	56	6462
2026-01-24 19:03:40.34	335.67	14.05	-42.3	-43.4	22.2	0.00e+00	0	41	0	735051776	56	6707
2026-01-24 19:03:43.37	335.08	13.97	-42.2	-43.3	22.2	0.00e+00	0	41	0	740294656	56	6637
2026-01-24 19:03:46.40	334.48	13.88	-42.3	-43.4	22.0	0.00e+00	0	41	0	746586112	56	6722
2026-01-24 19:03:49.43	333.90	13.79	-42.3	-43.4	22.2	0.00e+00	0	41	0	751828992	58	5978
2026-01-24 19:03:52.45	333.31	13.69	-41.9	-43.0	22.5	0.00e+00	0	41	0	758120448	58	5696
2026-01-24 19:03:55.48	332.73	13.60	-41.8	-42.8	22.7	0.00e+00	0	41	0	763363328	56	6258
2026-01-24 19:03:58.51	332.16	13.50	-41.7	-42.7	22.6	0.00e+00	0	41	0	768606208	56	6186
2026-01-24 19:04:01.54	331.59	13.39	-42.1	-43.1	22.7	0.00e+00	0	41	0	774897664	56	6466
2026-01-24 19:04:04.56	331.02	13.29	-41.7	-42.7	22.7	0.00e+00	0	41	0	780140544	56	6214
2026-01-24 19:04:07.59	330.45	13.18	-41.4	-42.4	22.6	0.00e+00	0	41	0	786432000	56	5999
2026-01-24 19:04:10.62	329.89	13.07	-41.6	-42.6	22.7	0.00e+00	0	41	0	791674880	56	6167
2026-01-24 19:04:13.65	329.34	12.96	-41.6	-42.6	22.8	0.00e+00	0	41	0	797966336	56	6131
2026-01-24 19:04:16.68	328.79	12.85	-41.4	-42.4	22.9	0.00e+00	0	41	0	803209216	56	5992
2026-01-24 19:04:19.71	328.24	12.73	-41.2	-42.1	23.2	0.00e+00	0	41	0	808452096	56	5807
2026-01-24 19:04:22.74	327.70	12.62	-41.3	-42.3	23.0	0.00e+00	0	41	0	814743552	56	5917
2026-01-24 19:04:25.77	327.16	12.50	-41.4	-42.4	23.0	0.00e+00	0	41	0	819986432	56	5967
2026-01-24 19:04:28.80	326.62	12.38	-41.8	-42.7	22.7	0.00e+00	0	41	0	826277888	56	6241
2026-01-24 19:04:31.83	326.09	12.25	-42.4	-43.4	22.3	0.00e+00	0	41	0	831520768	56	6731
2026-01-24 19:04:34.86	325.57	12.13	-43.0	-44.2	21.9	0.00e+00	0	41	0	836763648	56	7353
2026-01-24 19:04:37.89	325.05	12.00	-42.9	-44.0	21.7	0.00e+00	0	41	0	843055104	58	6435
2026-01-24 19:04:40.91	324.53	11.88	-42.6	-43.7	21.8	0.00e+00	0	41	0	848297984	58	6182
2026-01-24 19:04:43.94	324.02	11.75	-42.8	-44.0	21.7	0.00e+00	0	41	0	854589440	58	6408
2026-01-24 19:04:46.97	323.52	11.61	-43.3	-44.5	21.1	0.00e+00	0	41	0	859832320	58	6838
2026-01-24 19:04:50.00	323.01	11.48	-43.5	-44.7	21.1	0.00e+00	0	41	0	866123776	60	6217
2026-01-24 19:04:53.03	322.52	11.35	-43.5	-44.7	20.9	0.00e+00	0	41	0	871366656	60	6222
2026-01-24 19:04:56.05	322.02	11.21	-43.7	-44.9	20.8	0.00e+00	0	41	0	876609536	60	6365
2026-01-24 19:04:59.08	321.54	11.08	-43.7	-45.0	20.6	0.00e+00	0	41	0	882900992	60	6405
2026-01-24 19:05:02.11	321.05	10.94	-44.1	-45.5	20.1	0.00e+00	0	41	0	888143872	60	6783
2026-01-24 19:05:05.14	320.57	10.80	-44.2	-45.5	20.3	0.00e+00	0	41	0	894435328	60	6828
2026-01-24 19:05:08.18	320.10	10.66	-44.6	-46.0	19.6	0.00e+00	0	41	0	899678208	60	7236
2026-01-24 19:05:11.21	319.63	10.52	-44.4	-45.8	20.0	0.00e+00	0	41	0	904921088	60	7043
2026-01-24 19:05:14.24	319.16	10.38	-44.2	-45.5	20.2	0.00e+00	0	41	0	911212544	60	6800
2026-01-24 19:05:17.26	318.70	10.23	-44.6	-46.1	19.6	0.00e+00	0	41	0	916455424	60	7254
2026-01-24 19:05:20.29	318.25	10.09	-44.9	-46.4	19.6	0.00e+00	0	41	0	922746880	60	7529
2026-01-24 19:05:23.31	317.80	9.94	-45.2	-46.7	19.4	0.00e+00	0	41	0	927989760	60	7858
2026-01-24 19:05:26.34	317.35	9.80	-45.3	-46.9	19.2	0.00e+00	0	41	0	934281216	60	7986
2026-01-24 19:05:29.36	316.91	9.65	-44.4	-45.9	19.7	0.00e+00	0	41	0	939524096	60	7100
2026-01-24 19:05:32.40	316.47	9.50	-44.6	-46.0	19.6	0.00e+00	0	41	0	944766976	60	7240
2026-01-24 19:05:35.42	316.04	9.36	-44.4	-45.9	19.7	0.00e+00	0	41	0	951058432	60	7095
2026-01-24 19:05:38.45	315.61	9.21	-44.2	-45.6	20.1	0.00e+00	0	41	0	956301312	60	6855
2026-01-24 19:05:41.48	315.18	9.06	-44.2	-45.6	19.8	0.00e+00	0	41	0	962592768	60	6893
2026-01-24 19:05:44.51	314.76	8.91	-44.6	-46.0	19.8	0.00e+00	0	41	0	967835648	60	7253
2026-01-24 19:05:47.54	314.35	8.76	-44.9	-46.4	19.5	0.00e+00	0	41	0	973078528	60	7559
2026-01-24 19:05:50.56	313.94	8.60	-43.8	-45.1	20.7	0.00e+00	0	41	0	979369984	60	6469
2026-01-24 19:05:53.59	313.53	8.45	-43.8	-45.1	20.6	0.00e+00	0	41	0	984612864	60	6507
2026-01-24 19:05:56.62	313.13	8.30	-43.8	-45.1	20.5	0.00e+00	0	41	0	990904320	60	6482
2026-01-24 19:05:59.65	312.73	8.15	-43.9	-45.2	20.5	0.00e+00	0	41	0	996147200	60	6579
2026-01-24 19:06:02.68	312.33	8.00	-43.5	-44.7	20.9	0.00e+00	0	41	0	1002438656	60	6235
2026-01-24 19:06:05.71	311.94	7.84	-43.1	-44.3	21.1	0.00e+00	0	41	0	1007681536	60	5934
2026-01-24 19:06:08.74	311.56	7.69	-42.5	-43.6	21.9	0.00e+00	0	41	0	1012924416	58	6105
2026-01-24 19:06:11.77	311.18	7.53	-43.3	-44.5	20.7	0.00e+00	0	41	0	1019215872	58	6799
2026-01-24 19:06:14.80	310.80	7.38	-43.1	-44.3	21.0	0.00e+00	0	41	0	1024458752	60	5916
2026-01-24 19:06:17.82	310.43	7.23	-43.9	-45.2	20.6	0.00e+00	0	41	0	1030750208	60	6557
2026-01-24 19:06:20.86	310.05	7.07	-43.3	-44.5	21.2	0.00e+00	0	41	0	1035993088	60	6072
2026-01-24 19:06:23.88	309.69	6.92	-42.8	-44.0	21.3	0.00e+00	0	41	0	1041235968	58	6436
2026-01-24 19:06:26.91	309.33	6.76	-43.3	-44.6	21.1	0.00e+00	0	41	0	1047527424	58	6853
2026-01-24 19:06:29.94	308.97	6.61	-42.5	-43.6	21.9	0.00e+00	0	41	0	1052770304	58	6132
2026-01-24 19:06:32.97	308.62	6.45	-43.4	-44.6	20.7	0.00e+00	0	41	0	1059061760	58	6898
2026-01-24 19:06:35.99	308.27	6.30	-42.8	-43.9	21.5	0.00e+00	0	41	0	1064304640	58	6368
2026-01-24 19:06:39.02	307.92	6.14	-42.6	-43.7	21.4	0.00e+00	0	41	0	1070596096	58	6242
2026-01-24 19:06:42.05	307.58	5.98	-42.2	-43.3	21.7	0.00e+00	0	41	0	1075838976	58	5960
2026-01-24 19:06:45.08	307.24	5.83	-42.9	-44.1	21.2	0.00e+00	0	41	0	1081081856	58	6492
2026-01-24 19:06:48.11	306.91	5.67	-43.0	-44.2	21.1	0.00e+00	0	41	0	1087373312	58	6559
2026-01-24 19:06:51.14	306.58	5.52	-43.6	-45.0	20.1	0.00e+00	0	41	0	1092616192	60	6428
2026-01-24 19:06:54.16	306.25	5.36	-42.8	-44.1	21.1	0.00e+00	0	41	0	1098907648	58	6476
2026-01-24 19:06:57.20	305.92	5.21	-42.8	-44.1	20.9	0.00e+00	0	41	0	1104150528	58	6475
2026-01-24 19:07:00.22	305.60	5.05	-42.2	-43.3	21.4	0.00e+00	0	41	0	1109393408	58	5962
2026-01-24 19:07:03.25	305.29	4.90	-43.8	-45.1	20.1	0.00e+00	0	41	0	1115684864	60	6539
2026-01-24 19:07:06.28	304.97	4.74	-43.6	-45.0	20.1	0.00e+00	0	41	0	1120927744	58	7177
2026-01-24 19:07:09.31	304.66	4.59	-42.3	-43.4	21.6	0.00e+00	0	41	0	1127219200	58	6000
2026-01-24 19:07:12.34	304.36	4.43	-43.6	-45.0	20.2	0.00e+00	0	41	0	1132462080	60	6415
2026-01-24 19:07:15.36	304.05	4.28	-45.0	-46.6	18.6	0.00e+00	0	41	0	1137704960	60	7768
2026-01-24 19:07:18.39	303.75	4.12	-44.4	-46.0	18.8	0.00e+00	0	41	0	1143996416	60	7204
2026-01-24 19:07:21.42	303.46	3.97	-45.6	-47.5	18.2	0.00e+00	0	41	0	1149239296	60	8536
2026-01-24 19:07:24.45	303.16	3.81	-43.8	-45.2	19.9	0.00e+00	0	41	0	1155530752	60	6581
2026-01-24 19:07:27.48	302.87	3.66	-43.6	-45.0	20.1	0.00e+00	0	41	0	1160773632	60	6403
2026-01-24 19:07:30.51	302.58	3.50	-44.9	-46.5	18.7	0.00e+00	0	41	0	1167065088	60	7675
2026-01-24 19:07:33.54	302.30	3.35	-44.5	-46.1	19.0	0.00e+00	0	41	0	1172307968	60	7325
2026-01-24 19:07:36.57	302.02	3.20	-44.8	-46.5	19.0	0.00e+00	0	41	0	1177550848	60	7615
2026-01-24 19:07:39.60	301.74	3.04	-44.7	-46.3	19.0	0.00e+00	0	41	0	1183842304	60	7480
2026-01-24 19:07:42.63	301.47	2.89	-52.0	-67.2	3.6	1.51e+00	0	41	104	1184890880	60	82910
2026-01-24 19:07:45.66	301.19	2.74	-52.3	-67.5	3.6	1.51e+00	0	41	104	1184890880	60	86061
2026-01-24 19:07:48.68	300.92	2.58	-52.3	-67.5	3.6	1.51e+00	0	41	104	1184890880	60	85966
2026-01-24 19:07:51.71	300.66	2.43	-52.4	-67.6	3.6	1.51e+00	0	41	104	1184890880	60	86993
2026-01-24 19:07:54.74	300.39	2.28	-52.5	-67.7	3.6	1.51e+00	0	41	104	1184890880	60	88165
2026-01-24 19:07:57.77	300.13	2.13	-52.3	-67.6	3.6	1.51e+00	0	41	104	1184890880	60	86513
2026-01-24 19:08:00.80	299.88	1.98	-52.4	-67.6	3.6	1.51e+00	0	41	104	1184890880	60	86980
2026-01-24 19:08:03.83	299.62	1.82	-52.1	-67.4	3.6	1.51e+00	0	41	104	1184890880	60	84312
2026-01-24 19:08:06.86	299.37	1.67	-52.2	-67.4	3.6	1.51e+00	0	41	104	1184890880	60	84569
2026-01-24 19:08:09.88	299.12	1.52	-52.2	-67.4	3.6	1.51e+00	0	41	104	1184890880	60	84785
2026-01-24 19:08:12.91	298.87	1.37	-52.5	-67.7	3.6	1.51e+00	0	41	104	1184890880	60	87387
2026-01-24 19:08:15.94	298.63	1.22	-52.8	-68.1	3.6	1.51e+00	0	41	104	1184890880	60	91380
2026-01-24 19:08:18.97	298.38	1.07	-52.7	-67.9	3.6	1.51e+00	0	41	104	1184890880	60	89448
2026-01-24 19:08:22.01	298.14	0.92	-52.4	-67.6	3.6	1.51e+00	0	41	104	1184890880	60	86815
2026-01-24 19:08:25.04	297.91	0.77	-52.2	-67.3	3.6	1.51e+00	0	41	104	1184890880	60	84230
2026-01-24 19:08:28.06	297.67	0.62	-52.5	-67.8	3.6	1.51e+00	0	41	104	1184890880	60	88224
2026-01-24 19:08:31.09	297.44	0.47	-52.4	-67.6	3.6	1.51e+00	0	41	104	1184890880	60	86934
2026-01-24 19:08:34.12	297.21	0.33	-52.5	-67.7	3.6	1.51e+00	0	41	104	1184890880	60	87749
2026-01-24 19:08:37.15	296.98	0.18	-52.7	-67.9	3.6	1.51e+00	0	41	104	1184890880	60	89725
2026-01-24 19:08:40.18	296.76	0.03	-52.5	-67.8	3.6	1.51e+00	0	41	104	1184890880	60	88355

#Closed at: 2026-01-24 19:08:43
#Recorded file [1184 MB]: D:/lorett/data/35029_260125_065609.dat