passes_logs/2026/01/24/R4.6S_Anadyr/R4.6S_Anadyr__20260124_235140_NOAA_20_JPSS-1_rec.log

#Pass ID: 20260124_235140_NOAA 20 (JPSS-1)
#Satellite: NOAA 20 (JPSS-1)
#Configuration: NOAA 20
#almurnet v.1.7.20251203
#Start time: 2026-01-24 23:51:42

#Version: 2.2.20231116
#Station: R4.6S_Anadyr
#Location: 177.4865 lon 64.73178 lat
#TLE: 1 43013U 17073A   26024.42258823  .00000183  00000+0  10747-3 0  9990
#TLE: 2 43013  98.7646 325.2629 0001105  25.8644 334.2587 14.19539754424075

#Time	Az	El	Level	Level2	SNR	BER	BlckErr	Temp	State	Recorded	gain1	gain2
2026-01-24 23:51:42.58	147.34	0.15	-51.4	-66.4	3.5	1.51e+00	0	39	0	0	60	75194
2026-01-24 23:51:46.62	147.31	0.40	-51.4	-66.5	3.6	1.51e+00	0	40	104	0	60	76484
2026-01-24 23:51:50.65	147.28	0.64	-51.3	-66.5	3.6	1.51e+00	0	40	104	0	60	76399
2026-01-24 23:51:54.69	147.25	0.89	-51.2	-66.4	3.6	1.51e+00	0	40	104	0	60	75129
2026-01-24 23:51:58.73	147.22	1.14	-50.9	-66.1	3.5	1.51e+00	0	40	104	0	60	72561
2026-01-24 23:52:02.77	147.19	1.40	-50.5	-65.6	3.6	1.51e+00	0	40	104	0	60	69271
2026-01-24 23:52:06.81	147.16	1.65	-49.3	-64.6	3.6	1.51e+00	0	40	104	0	60	61100
2026-01-24 23:52:10.85	147.13	1.91	-49.3	-64.3	3.6	1.51e+00	0	40	104	0	60	58988
2026-01-24 23:52:14.89	147.10	2.17	-49.3	-64.2	3.6	1.51e+00	0	40	104	0	60	58633
2026-01-24 23:52:18.93	147.06	2.43	-49.3	-64.4	3.6	1.51e+00	0	40	104	0	60	60231
2026-01-24 23:52:22.97	147.03	2.70	-49.3	-64.5	3.6	1.51e+00	0	40	104	0	60	60589
2026-01-24 23:52:27.01	147.00	2.96	-49.3	-64.6	3.6	1.51e+00	0	41	104	0	60	61219
2026-01-24 23:52:31.05	146.96	3.23	-49.1	-61.7	3.6	1.51e+00	0	41	104	0	60	44178
2026-01-24 23:52:35.09	146.92	3.50	-48.0	-53.6	9.4	2.06e-02	0	40	0	5242880	60	17365
2026-01-24 23:52:39.13	146.89	3.78	-45.7	-48.5	14.9	0.00e+00	0	41	0	12582912	60	9635
2026-01-24 23:52:43.17	146.85	4.06	-49.4	-63.0	3.6	3.71e-01	0	41	104	14680064	60	51290
2026-01-24 23:52:47.20	146.81	4.34	-44.0	-45.9	18.1	0.00e+00	0	41	0	19922944	60	7133
2026-01-24 23:52:51.24	146.77	4.62	-43.3	-44.9	19.1	0.00e+00	0	41	0	27262976	60	6330
2026-01-24 23:52:55.28	146.73	4.91	-43.4	-45.0	19.1	0.00e+00	0	40	0	34603008	60	6434
2026-01-24 23:52:59.32	146.68	5.20	-43.6	-45.2	18.9	0.00e+00	0	41	0	42991616	60	6582
2026-01-24 23:53:03.35	146.64	5.49	-43.4	-44.9	19.2	0.00e+00	0	41	0	50331648	60	6369
2026-01-24 23:53:07.39	146.60	5.78	-43.9	-45.6	18.7	0.00e+00	0	41	0	57671680	60	6862
2026-01-24 23:53:11.42	146.55	6.08	-43.5	-45.0	19.2	0.00e+00	0	41	0	65011712	60	6449
2026-01-24 23:53:15.46	146.50	6.39	-43.3	-44.9	19.4	0.00e+00	0	41	0	73400320	60	6320
2026-01-24 23:53:19.50	146.45	6.69	-43.0	-44.5	19.9	0.00e+00	0	41	0	80740352	60	6034
2026-01-24 23:53:23.53	146.40	7.00	-42.9	-44.3	20.0	0.00e+00	0	41	0	88080384	58	6619
2026-01-24 23:53:27.57	146.35	7.31	-43.3	-44.7	19.8	0.00e+00	0	41	0	95420416	58	6952
2026-01-24 23:53:31.61	146.30	7.63	-42.8	-44.1	20.3	0.00e+00	0	41	0	102760448	58	6508
2026-01-24 23:53:35.65	146.25	7.95	-42.2	-43.4	21.0	0.00e+00	0	41	0	111149056	58	6014
2026-01-24 23:53:39.68	146.19	8.28	-42.5	-43.7	20.6	0.00e+00	0	41	0	118489088	58	6245
2026-01-24 23:53:43.72	146.14	8.61	-42.3	-43.5	20.9	0.00e+00	0	41	0	125829120	58	6079
2026-01-24 23:53:47.76	146.08	8.94	-42.4	-43.7	20.9	0.00e+00	0	41	0	133169152	58	6196
2026-01-24 23:53:51.80	146.02	9.28	-42.0	-43.1	21.3	0.00e+00	0	41	0	141557760	58	5828
2026-01-24 23:53:55.83	145.96	9.63	-42.2	-43.5	21.0	0.00e+00	0	41	0	148897792	58	6049
2026-01-24 23:53:59.87	145.89	9.97	-42.3	-43.5	21.0	0.00e+00	0	41	0	156237824	58	6043
2026-01-24 23:54:03.91	145.83	10.33	-41.6	-42.7	21.9	0.00e+00	0	41	0	163577856	56	6219
2026-01-24 23:54:07.95	145.76	10.69	-41.6	-42.7	21.8	0.00e+00	0	41	0	170917888	56	6235
2026-01-24 23:54:11.98	145.69	11.05	-41.5	-42.6	21.9	0.00e+00	0	41	0	179306496	56	6121
2026-01-24 23:54:16.02	145.62	11.42	-41.4	-42.5	22.0	0.00e+00	0	41	0	186646528	56	6069
2026-01-24 23:54:20.06	145.55	11.79	-41.5	-42.6	22.0	0.00e+00	0	41	0	193986560	56	6125
2026-01-24 23:54:24.10	145.47	12.17	-40.7	-41.7	22.8	0.00e+00	0	41	0	201326592	54	6219
2026-01-24 23:54:28.13	145.39	12.56	-40.7	-41.7	22.7	0.00e+00	0	41	0	209715200	54	6195
2026-01-24 23:54:32.17	145.31	12.95	-40.9	-41.9	22.5	0.00e+00	0	41	0	217055232	54	6357
2026-01-24 23:54:36.21	145.23	13.35	-40.4	-41.4	23.0	0.00e+00	0	41	0	224395264	54	6007
2026-01-24 23:54:40.24	145.14	13.75	-40.8	-41.8	22.8	0.00e+00	0	41	0	231735296	54	6288
2026-01-24 23:54:44.27	145.06	14.16	-40.2	-41.1	23.2	0.00e+00	0	41	0	239075328	54	5820
2026-01-24 23:54:48.31	144.96	14.58	-40.6	-41.6	23.1	0.00e+00	0	41	0	247463936	54	6111
2026-01-24 23:54:52.35	144.87	15.01	-40.5	-41.5	23.1	0.00e+00	0	41	0	254803968	54	6042
2026-01-24 23:54:56.38	144.77	15.44	-39.9	-40.8	23.7	0.00e+00	0	41	0	262144000	54	5579
2026-01-24 23:55:00.42	144.67	15.88	-39.8	-40.7	23.8	0.00e+00	0	41	0	269484032	54	5539
2026-01-24 23:55:04.45	144.57	16.33	-39.9	-40.8	23.7	0.00e+00	0	41	0	277872640	54	5619
2026-01-24 23:55:08.49	144.46	16.79	-39.6	-40.5	24.0	0.00e+00	0	41	0	285212672	52	6082
2026-01-24 23:55:12.53	144.35	17.26	-39.4	-40.3	24.3	0.00e+00	0	41	0	292552704	52	5899
2026-01-24 23:55:16.56	144.23	17.73	-39.6	-40.4	24.1	0.00e+00	0	41	0	299892736	52	5999
2026-01-24 23:55:20.60	144.12	18.22	-39.6	-40.5	24.1	0.00e+00	0	41	0	307232768	52	6074
2026-01-24 23:55:24.64	143.99	18.71	-39.2	-40.1	24.4	0.00e+00	0	41	0	315621376	52	5775
2026-01-24 23:55:28.68	143.86	19.22	-39.1	-39.9	24.6	0.00e+00	0	41	0	322961408	52	5676
2026-01-24 23:55:32.72	143.73	19.73	-39.2	-40.0	24.5	0.00e+00	0	41	0	330301440	52	5721
2026-01-24 23:55:36.75	143.59	20.25	-38.9	-39.7	24.7	0.00e+00	0	41	0	337641472	52	5544
2026-01-24 23:55:40.79	143.45	20.79	-38.8	-39.6	24.9	0.00e+00	0	41	0	344981504	50	6128
2026-01-24 23:55:44.83	143.30	21.34	-38.9	-39.7	24.7	0.00e+00	0	41	0	353370112	50	6234
2026-01-24 23:55:48.86	143.15	21.90	-38.9	-39.7	24.8	0.00e+00	0	41	0	360710144	50	6212
2026-01-24 23:55:52.90	142.98	22.47	-39.1	-39.9	24.6	0.00e+00	0	41	0	368050176	50	6360
2026-01-24 23:55:56.94	142.82	23.05	-38.9	-39.7	24.8	0.00e+00	0	41	0	375390208	50	6239
2026-01-24 23:56:00.98	142.64	23.65	-39.3	-40.1	24.4	0.00e+00	0	41	0	383778816	50	6522
2026-01-24 23:56:05.01	142.46	24.26	-39.3	-40.2	24.4	0.00e+00	0	41	0	391118848	50	6561
2026-01-24 23:56:09.05	142.27	24.89	-39.5	-40.4	24.2	0.00e+00	0	41	0	398458880	50	6730
2026-01-24 23:56:13.09	142.07	25.53	-40.0	-41.0	23.8	0.00e+00	0	41	0	405798912	52	6394
2026-01-24 23:56:17.13	141.87	26.19	-40.4	-41.3	23.4	0.00e+00	0	41	0	413138944	52	6685
2026-01-24 23:56:21.16	141.65	26.86	-40.6	-41.5	23.4	0.00e+00	0	41	0	421527552	52	6813
2026-01-24 23:56:25.20	141.43	27.55	-41.0	-41.9	23.0	0.00e+00	0	41	0	428867584	54	6378
2026-01-24 23:56:29.24	141.19	28.25	-41.3	-42.3	22.6	0.00e+00	0	41	0	436207616	54	6687
2026-01-24 23:56:33.27	140.94	28.97	-42.0	-43.0	22.0	0.00e+00	0	41	0	443547648	56	6463
2026-01-24 23:56:37.30	140.68	29.71	-42.8	-43.9	21.3	0.00e+00	0	41	0	451936256	56	7155
2026-01-24 23:56:41.34	140.41	30.47	-42.9	-44.1	21.1	0.00e+00	0	41	0	459276288	58	6514
2026-01-24 23:56:45.38	140.12	31.26	-43.2	-44.5	20.8	0.00e+00	0	41	0	466616320	58	6790
2026-01-24 23:56:49.41	139.82	32.05	-43.5	-44.9	20.4	0.00e+00	0	41	0	473956352	58	7099
2026-01-24 23:56:53.45	139.50	32.88	-43.8	-45.1	20.2	0.00e+00	0	41	0	481296384	60	6537
2026-01-24 23:56:57.49	139.17	33.72	-44.1	-45.5	19.9	0.00e+00	0	41	0	489684992	60	6798
2026-01-24 23:57:01.52	138.81	34.59	-44.4	-45.9	19.6	0.00e+00	0	41	0	497025024	60	7138
2026-01-24 23:57:05.56	138.44	35.48	-43.6	-44.9	20.5	0.00e+00	0	41	0	504365056	60	6360
2026-01-24 23:57:09.60	138.04	36.39	-43.2	-44.4	21.1	0.00e+00	0	41	0	511705088	60	5984
2026-01-24 23:57:13.64	137.62	37.33	-43.2	-44.5	20.9	0.00e+00	0	41	0	519045120	60	6044
2026-01-24 23:57:17.68	137.18	38.29	-43.3	-44.6	20.8	0.00e+00	0	41	0	527433728	60	6114
2026-01-24 23:57:21.71	136.70	39.28	-44.3	-45.8	19.9	0.00e+00	0	41	0	534773760	60	7038
2026-01-24 23:57:25.75	136.20	40.30	-43.9	-45.3	20.3	0.00e+00	0	41	0	542113792	60	6623
2026-01-24 23:57:29.79	135.66	41.34	-43.6	-44.9	20.5	0.00e+00	0	41	0	549453824	60	6372
2026-01-24 23:57:33.82	135.08	42.41	-43.5	-44.7	20.7	0.00e+00	0	41	0	557842432	60	6224
2026-01-24 23:57:37.86	134.46	43.51	-43.5	-44.8	20.6	0.00e+00	0	41	0	565182464	60	6291
2026-01-24 23:57:41.89	133.80	44.63	-42.2	-43.3	22.1	0.00e+00	0	41	0	572522496	58	5914
2026-01-24 23:57:45.94	133.09	45.79	-42.1	-43.2	22.1	0.00e+00	0	41	0	579862528	58	5883
2026-01-24 23:57:49.97	132.32	46.97	-42.3	-43.4	21.9	0.00e+00	0	41	0	587202560	58	6003
2026-01-24 23:57:54.01	131.49	48.18	-42.0	-43.0	22.3	0.00e+00	0	41	0	595591168	58	5748
2026-01-24 23:57:58.05	130.59	49.42	-41.9	-42.9	22.3	0.00e+00	0	41	0	602931200	58	5694
2026-01-24 23:58:02.09	129.61	50.68	-40.9	-41.8	23.5	0.00e+00	0	41	0	610271232	56	5595
2026-01-24 23:58:06.13	128.54	51.97	-39.7	-40.6	24.4	0.00e+00	0	41	0	617611264	52	6129
2026-01-24 23:58:10.16	127.38	53.28	-40.1	-41.0	24.1	0.00e+00	0	41	0	625999872	52	6412
2026-01-24 23:58:14.20	126.10	54.62	-40.5	-41.4	23.7	0.00e+00	0	41	0	633339904	52	6736
2026-01-24 23:58:18.24	124.70	55.97	-41.1	-42.1	23.0	0.00e+00	0	41	0	640679936	54	6489
2026-01-24 23:58:22.28	123.15	57.34	-43.8	-45.2	20.2	0.00e+00	0	41	0	648019968	60	6545
2026-01-24 23:58:26.31	121.44	58.72	-43.8	-45.1	20.4	0.00e+00	0	41	0	655360000	60	6482
2026-01-24 23:58:30.35	119.53	60.10	-41.9	-42.9	22.4	0.00e+00	0	41	0	663748608	58	5680
2026-01-24 23:58:34.39	117.41	61.48	-40.9	-41.9	23.3	0.00e+00	0	41	0	671088640	56	5635
2026-01-24 23:58:38.43	115.03	62.85	-39.5	-40.3	24.5	0.00e+00	0	41	0	678428672	52	5912
2026-01-24 23:58:42.46	112.38	64.20	-40.6	-41.5	23.7	0.00e+00	0	41	0	685768704	52	6791
2026-01-24 23:58:46.50	109.39	65.52	-42.0	-43.0	22.4	0.00e+00	0	41	0	694157312	56	6417
2026-01-24 23:58:50.54	106.03	66.80	-43.1	-44.2	21.3	0.00e+00	0	41	0	701497344	58	6614
2026-01-24 23:58:54.58	102.24	68.00	-43.5	-44.8	20.7	0.00e+00	0	41	0	708837376	60	6287
2026-01-24 23:58:58.61	98.01	69.13	-43.0	-44.2	21.3	0.00e+00	0	41	0	716177408	60	5837
2026-01-24 23:59:02.64	93.27	70.14	-41.9	-42.9	22.6	0.00e+00	0	41	0	723517440	56	6348
2026-01-24 23:59:06.68	88.02	71.02	-41.3	-42.2	23.1	0.00e+00	0	41	0	731906048	56	5879
2026-01-24 23:59:10.71	82.28	71.75	-41.0	-41.9	23.5	0.00e+00	0	41	0	739246080	56	5656
2026-01-24 23:59:14.75	76.10	72.29	-42.5	-43.6	22.0	0.00e+00	0	41	0	746586112	56	6881
2026-01-24 23:59:18.79	69.58	72.62	-43.5	-44.8	20.8	0.00e+00	0	41	0	753926144	58	7013
2026-01-24 23:59:22.83	62.88	72.74	-42.8	-43.9	21.7	0.00e+00	0	41	0	762314752	58	6322
2026-01-24 23:59:26.86	56.20	72.62	-42.2	-43.2	22.3	0.00e+00	0	41	0	769654784	56	6605
2026-01-24 23:59:30.90	49.68	72.29	-40.8	-41.7	23.6	0.00e+00	0	41	0	776994816	56	5513
2026-01-24 23:59:34.94	43.50	71.75	-41.2	-42.2	23.1	0.00e+00	0	41	0	784334848	54	6549
2026-01-24 23:59:38.98	37.75	71.03	-42.0	-43.0	22.5	0.00e+00	0	41	0	791674880	56	6410
2026-01-24 23:59:43.01	32.51	70.15	-43.2	-44.3	21.2	0.00e+00	0	42	0	800063488	58	6691
2026-01-24 23:59:47.05	27.77	69.13	-43.6	-44.8	21.0	0.00e+00	0	42	0	807403520	58	7065
2026-01-24 23:59:51.09	23.53	68.01	-44.9	-46.5	19.4	0.00e+00	0	41	0	814743552	60	7609
2026-01-24 23:59:55.12	19.76	66.81	-42.9	-44.1	21.4	0.00e+00	0	42	0	822083584	60	5780
2026-01-24 23:59:59.16	16.39	65.54	-41.1	-42.1	23.3	0.00e+00	0	41	0	830472192	56	5782
2026-01-25 00:00:03.20	13.41	64.22	-39.4	-40.2	24.9	0.00e+00	0	41	0	837812224	52	5843
2026-01-25 00:00:07.23	10.75	62.87	-38.7	-39.4	25.3	0.00e+00	0	42	0	845152256	50	6028
2026-01-25 00:00:11.27	8.38	61.51	-39.4	-40.2	24.7	0.00e+00	0	41	0	852492288	50	6593
2026-01-25 00:00:15.31	6.26	60.13	-42.4	-43.5	22.1	0.00e+00	0	41	0	859832320	56	6797
2026-01-25 00:00:19.35	4.35	58.75	-43.4	-44.6	20.8	0.00e+00	0	42	0	868220928	58	6925
2026-01-25 00:00:23.38	2.65	57.38	-43.8	-45.0	20.6	0.00e+00	0	41	0	875560960	60	6464
2026-01-25 00:00:27.42	1.10	56.01	-41.9	-42.9	22.5	0.00e+00	0	42	0	882900992	58	5679
2026-01-25 00:00:31.46	359.69	54.66	-40.2	-41.1	24.1	0.00e+00	0	41	0	890241024	54	5799
2026-01-25 00:00:35.49	358.42	53.33	-40.4	-41.3	23.9	0.00e+00	0	42	0	897581056	54	5962
2026-01-25 00:00:39.53	357.26	52.02	-40.1	-40.9	24.2	0.00e+00	0	42	0	905969664	54	5660
2026-01-25 00:00:43.57	356.19	50.74	-42.1	-43.1	22.3	0.00e+00	0	41	0	913309696	56	6510
2026-01-25 00:00:47.61	355.21	49.48	-42.4	-43.5	22.0	0.00e+00	0	42	0	920649728	58	6050
2026-01-25 00:00:51.64	354.32	48.25	-43.1	-44.4	21.2	0.00e+00	0	41	0	927989760	58	6694
2026-01-25 00:00:55.68	353.49	47.04	-42.4	-43.5	22.0	0.00e+00	0	41	0	936378368	58	6088
2026-01-25 00:00:59.72	352.72	45.86	-42.4	-43.5	22.0	0.00e+00	0	42	0	943718400	58	6075
2026-01-25 00:01:03.76	352.01	44.71	-42.8	-44.0	21.5	0.00e+00	0	42	0	951058432	58	6414
2026-01-25 00:01:07.80	351.34	43.58	-43.1	-44.3	21.3	0.00e+00	0	42	0	958398464	58	6655
2026-01-25 00:01:11.83	350.73	42.49	-43.8	-45.1	20.6	0.00e+00	0	42	0	965738496	60	6494
2026-01-25 00:01:15.87	350.15	41.42	-43.6	-44.9	20.7	0.00e+00	0	42	0	974127104	60	6322
2026-01-25 00:01:19.90	349.62	40.39	-43.9	-45.2	20.4	0.00e+00	0	41	0	981467136	60	6605
2026-01-25 00:01:23.94	349.11	39.37	-43.6	-44.8	20.7	0.00e+00	0	41	0	988807168	60	6314
2026-01-25 00:01:27.98	348.64	38.38	-43.1	-44.2	21.4	0.00e+00	0	41	0	996147200	60	5873
2026-01-25 00:01:32.01	348.19	37.43	-42.6	-43.7	21.8	0.00e+00	0	41	0	1004535808	58	6193
2026-01-25 00:01:36.05	347.77	36.49	-42.7	-43.8	21.6	0.00e+00	0	42	0	1011875840	58	6282
2026-01-25 00:01:40.09	347.38	35.58	-42.9	-44.1	21.4	0.00e+00	0	42	0	1019215872	58	6491
2026-01-25 00:01:44.13	347.01	34.69	-43.9	-45.3	20.3	0.00e+00	0	42	0	1026555904	60	6660
2026-01-25 00:01:48.17	346.65	33.83	-43.4	-44.6	20.9	0.00e+00	0	42	0	1033895936	60	6138
2026-01-25 00:01:52.21	346.32	32.99	-43.6	-44.9	20.7	0.00e+00	0	42	0	1042284544	60	6368
2026-01-25 00:01:56.25	346.00	32.17	-43.8	-45.2	20.4	0.00e+00	0	42	0	1049624576	60	6566
2026-01-25 00:02:00.28	345.70	31.37	-44.6	-46.2	19.5	0.00e+00	0	42	0	1056964608	60	7351
2026-01-25 00:02:04.32	345.42	30.59	-44.6	-46.1	19.5	0.00e+00	0	42	0	1064304640	60	7320
2026-01-25 00:02:08.36	345.14	29.83	-44.1	-45.5	20.0	0.00e+00	0	42	0	1072693248	60	6780
2026-01-25 00:02:12.39	344.89	29.09	-43.6	-44.9	20.6	0.00e+00	0	42	0	1080033280	60	6352
2026-01-25 00:02:16.42	344.64	28.37	-43.5	-44.7	20.7	0.00e+00	0	42	0	1087373312	60	6237
2026-01-25 00:02:20.46	344.41	27.67	-42.9	-44.1	21.3	0.00e+00	0	42	0	1094713344	60	5795
2026-01-25 00:02:24.50	344.18	26.98	-42.3	-43.4	21.8	0.00e+00	0	42	0	1102053376	58	6029
2026-01-25 00:02:28.54	343.97	26.31	-42.1	-43.2	22.1	0.00e+00	0	42	0	1110441984	58	5882
2026-01-25 00:02:32.57	343.76	25.66	-42.3	-43.5	21.8	0.00e+00	0	42	0	1117782016	58	6051
2026-01-25 00:02:36.61	343.57	25.02	-42.2	-43.3	22.0	0.00e+00	0	42	0	1125122048	58	5937
2026-01-25 00:02:40.65	343.38	24.40	-41.9	-43.0	22.2	0.00e+00	0	42	0	1132462080	58	5697
2026-01-25 00:02:44.69	343.20	23.79	-41.3	-42.2	22.9	0.00e+00	0	42	0	1139802112	56	5883
2026-01-25 00:02:48.73	343.03	23.19	-41.2	-42.2	22.8	0.00e+00	0	42	0	1148190720	56	5833
2026-01-25 00:02:52.77	342.86	22.61	-41.3	-42.3	22.8	0.00e+00	0	42	0	1155530752	56	5923
2026-01-25 00:02:56.81	342.70	22.04	-41.6	-42.7	22.4	0.00e+00	0	42	0	1162870784	56	6199
2026-01-25 00:03:00.84	342.55	21.48	-41.7	-42.7	22.4	0.00e+00	0	42	0	1170210816	56	6195
2026-01-25 00:03:04.87	342.40	20.93	-41.9	-43.0	22.2	0.00e+00	0	42	0	1178599424	56	6428
2026-01-25 00:03:08.91	342.26	20.40	-42.3	-43.5	21.8	0.00e+00	0	42	0	1185939456	56	6790
2026-01-25 00:03:12.94	342.12	19.88	-42.6	-43.8	21.4	0.00e+00	0	42	0	1193279488	56	7026
2026-01-25 00:03:16.98	341.99	19.36	-42.9	-44.1	21.0	0.00e+00	0	42	0	1200619520	58	6523
2026-01-25 00:03:21.02	341.87	18.86	-42.8	-44.0	21.2	0.00e+00	0	42	0	1207959552	58	6404
2026-01-25 00:03:25.05	341.75	18.37	-42.6	-43.8	21.3	0.00e+00	0	42	0	1216348160	58	6278
2026-01-25 00:03:29.09	341.63	17.88	-42.7	-43.9	21.2	0.00e+00	0	42	0	1223688192	58	6372
2026-01-25 00:03:33.13	341.52	17.41	-42.7	-43.9	21.1	0.00e+00	0	42	0	1231028224	58	6375
2026-01-25 00:03:37.17	341.41	16.94	-42.7	-44.0	21.1	0.00e+00	0	42	0	1238368256	58	6416
2026-01-25 00:03:41.21	341.30	16.49	-43.1	-44.4	20.6	0.00e+00	0	42	0	1246756864	58	6766
2026-01-25 00:03:45.25	341.20	16.04	-43.1	-44.5	20.6	0.00e+00	0	42	0	1254096896	58	6789
2026-01-25 00:03:49.29	341.10	15.60	-43.2	-44.7	20.4	0.00e+00	0	42	0	1261436928	58	6959
2026-01-25 00:03:53.32	341.01	15.16	-43.2	-44.7	20.4	0.00e+00	0	42	0	1268776960	58	6938
2026-01-25 00:03:57.35	340.92	14.74	-43.2	-44.7	20.3	0.00e+00	0	42	0	1276116992	58	7000
2026-01-25 00:04:01.39	340.83	14.32	-43.4	-44.9	20.2	0.00e+00	0	42	0	1284505600	58	7131
2026-01-25 00:04:05.43	340.74	13.91	-43.2	-44.6	20.4	0.00e+00	0	42	0	1291845632	58	6915
2026-01-25 00:04:09.47	340.66	13.50	-43.3	-44.7	20.4	0.00e+00	0	42	0	1299185664	58	6993
2026-01-25 00:04:13.51	340.58	13.11	-43.0	-44.3	20.6	0.00e+00	0	42	0	1306525696	58	6691
2026-01-25 00:04:17.55	340.50	12.72	-43.1	-44.5	20.4	0.00e+00	0	42	0	1314914304	58	6833
2026-01-25 00:04:21.59	340.42	12.33	-42.9	-44.3	20.7	0.00e+00	0	42	0	1322254336	58	6616
2026-01-25 00:04:25.63	340.35	11.95	-43.1	-44.4	20.4	0.00e+00	0	42	0	1329594368	58	6752
2026-01-25 00:04:29.67	340.28	11.58	-43.0	-44.3	20.6	0.00e+00	0	42	0	1336934400	58	6659
2026-01-25 00:04:33.70	340.21	11.21	-43.1	-44.4	20.5	0.00e+00	0	42	0	1344274432	58	6742
2026-01-25 00:04:37.74	340.15	10.85	-43.5	-44.9	20.0	0.00e+00	0	42	0	1352663040	60	6352
2026-01-25 00:04:41.78	340.08	10.49	-43.4	-44.9	20.1	0.00e+00	0	42	0	1360003072	60	6354
2026-01-25 00:04:45.82	340.02	10.14	-43.6	-45.0	19.8	0.00e+00	0	42	0	1367343104	60	6455
2026-01-25 00:04:49.86	339.96	9.79	-43.8	-45.3	19.7	0.00e+00	0	41	0	1374683136	60	6644
2026-01-25 00:04:53.90	339.90	9.45	-43.8	-45.3	19.4	0.00e+00	0	41	0	1383071744	60	6643
2026-01-25 00:04:57.94	339.84	9.11	-44.0	-45.6	19.1	0.00e+00	0	41	0	1390411776	60	6860
2026-01-25 00:05:01.98	339.79	8.77	-44.0	-45.6	19.1	0.00e+00	0	41	0	1397751808	60	6884
2026-01-25 00:05:06.02	339.73	8.44	-44.5	-46.3	18.5	0.00e+00	0	41	0	1405091840	60	7427
2026-01-25 00:05:10.05	339.68	8.12	-44.0	-45.6	19.2	0.00e+00	0	41	0	1412431872	60	6895
2026-01-25 00:05:14.09	339.63	7.80	-43.9	-45.5	19.2	0.00e+00	0	41	0	1420820480	60	6819
2026-01-25 00:05:18.13	339.58	7.48	-44.2	-45.8	18.9	0.00e+00	0	41	0	1428160512	60	7041
2026-01-25 00:05:22.16	339.53	7.17	-44.2	-45.9	18.7	0.00e+00	0	41	0	1435500544	60	7106
2026-01-25 00:05:26.20	339.49	6.86	-44.1	-45.8	18.5	0.00e+00	0	41	0	1442840576	60	7047
2026-01-25 00:05:30.24	339.44	6.55	-43.5	-44.9	19.6	0.00e+00	0	41	0	1450180608	60	6389
2026-01-25 00:05:34.28	339.40	6.25	-43.3	-44.7	19.7	0.00e+00	0	41	0	1458569216	60	6215
2026-01-25 00:05:38.32	339.36	5.95	-44.3	-46.0	18.3	0.00e+00	0	41	0	1465909248	60	7209
2026-01-25 00:05:42.36	339.32	5.66	-44.6	-46.5	17.6	0.00e+00	0	41	0	1473249280	60	7681
2026-01-25 00:05:46.40	339.28	5.36	-44.9	-47.1	16.0	0.00e+00	0	41	0	1480589312	60	8186
2026-01-25 00:05:50.43	339.24	5.08	-46.2	-49.5	14.0	3.80e-06	0	41	0	1488977920	60	10782
2026-01-25 00:05:54.47	339.20	4.79	-46.4	-50.7	11.7	4.55e-04	0	41	0	1496317952	60	12387
2026-01-25 00:05:58.51	339.16	4.51	-47.3	-54.8	6.4	1.72e-01	0	41	0	1503657984	60	19925
2026-01-25 00:06:02.55	339.13	4.23	-47.0	-55.3	5.2	3.43e-01	0	41	0	1510998016	60	21147
2026-01-25 00:06:06.58	339.09	3.95	-46.9	-59.6	3.6	1.51e+00	0	41	104	1514143744	60	34644
2026-01-25 00:06:10.62	339.06	3.68	-36.1	-59.5	4.1	1.51e+00	0	41	104	1514143744	48	67827
2026-01-25 00:06:14.66	339.03	3.41	-32.6	-60.9	3.9	1.51e+00	0	41	104	1514143744	38	142070
2026-01-25 00:06:18.69	338.99	3.14	-46.5	-61.6	3.6	1.51e+00	0	41	104	1514143744	60	43647
2026-01-25 00:06:22.74	338.96	2.87	-50.3	-65.5	3.5	1.51e+00	0	41	104	1514143744	60	68391
2026-01-25 00:06:26.78	338.93	2.61	-51.2	-66.4	3.6	1.51e+00	0	41	104	1514143744	60	75277
2026-01-25 00:06:30.81	338.90	2.34	-51.5	-66.7	3.5	1.51e+00	0	41	104	1514143744	60	78043
2026-01-25 00:06:34.85	338.87	2.09	-51.5	-66.8	3.6	1.51e+00	0	41	104	1514143744	60	78760
2026-01-25 00:06:38.89	338.85	1.83	-51.3	-66.6	3.6	1.51e+00	0	41	104	1514143744	60	77409
2026-01-25 00:06:42.93	338.82	1.57	-51.4	-66.6	3.6	1.51e+00	0	41	104	1514143744	60	77255
2026-01-25 00:06:46.97	338.79	1.32	-51.4	-66.6	3.6	1.51e+00	0	41	104	1514143744	60	77505
2026-01-25 00:06:51.01	338.77	1.07	-51.4	-66.6	3.6	1.51e+00	0	41	104	1514143744	60	77464
2026-01-25 00:06:55.05	338.74	0.82	-51.5	-66.7	3.6	1.51e+00	0	41	104	1514143744	60	78115
2026-01-25 00:06:59.09	338.72	0.58	-51.6	-66.8	3.6	1.51e+00	0	41	104	1514143744	60	79088
2026-01-25 00:07:03.12	338.70	0.33	-51.6	-66.8	3.6	1.51e+00	0	41	104	1514143744	60	79302
2026-01-25 00:07:07.16	338.67	0.09	-51.6	-66.8	3.6	1.51e+00	0	42	104	1514143744	60	78692
2026-01-25 00:07:11.20	338.65	-0.15	-51.6	-66.8	3.6	1.51e+00	0	41	104	1514143744	60	79110

#Closed at: 2026-01-25 00:07:11
#Recorded file [1514 MB]: D:/lorett/data/35029_260125_115142.dat