passes_logs/2026/01/24/R4.6S_Anadyr/R4.6S_Anadyr__20260124_230147_NOAA_21_JPSS-2_rec.log

#Pass ID: 20260124_230147_NOAA 21 (JPSS-2)
#Satellite: NOAA 21 (JPSS-2)
#Configuration: NOAA-21
#almurnet v.1.7.20251203
#Start time: 2026-01-24 23:01:52

#Version: 2.2.20231116
#Station: R4.6S_Anadyr
#Location: 177.4865 lon 64.73178 lat
#TLE: 1 54234U 22150A   26024.45772595  .00000201  00000+0  11607-3 0  9996
#TLE: 2 54234  98.7508 325.2435 0000728 220.7365 139.3757 14.19538765166156

#Time	Az	El	Level	Level2	SNR	BER	BlckErr	Temp	State	Recorded	gain1	gain2
2026-01-24 23:01:52.84	127.09	0.31	-51.5	-53.2	5.7	0.00e+00	0	39	0	0	60	55801
2026-01-24 23:01:56.87	126.97	0.55	-52.0	-64.8	3.5	1.52e+00	0	41	104	0	60	60995
2026-01-24 23:02:00.91	126.85	0.79	-51.7	-64.5	3.5	1.52e+00	0	41	104	0	60	58917
2026-01-24 23:02:04.95	126.73	1.03	-52.1	-64.9	3.5	1.51e+00	0	41	104	0	60	61381
2026-01-24 23:02:08.99	126.60	1.28	-52.2	-65.0	3.5	1.52e+00	0	41	104	0	60	62553
2026-01-24 23:02:13.03	126.47	1.52	-52.0	-64.9	3.5	1.52e+00	0	41	104	0	60	61409
2026-01-24 23:02:17.07	126.34	1.77	-51.6	-64.5	3.5	1.52e+00	0	41	104	0	60	58651
2026-01-24 23:02:21.11	126.21	2.02	-51.7	-64.5	3.5	1.52e+00	0	41	104	0	60	58928
2026-01-24 23:02:25.15	126.08	2.28	-51.7	-64.6	3.5	1.51e+00	0	41	104	0	60	59374
2026-01-24 23:02:29.19	125.94	2.53	-51.6	-64.5	3.5	1.52e+00	0	41	104	0	60	58767
2026-01-24 23:02:33.23	125.80	2.79	-51.5	-64.3	3.5	1.52e+00	0	41	104	0	60	57551
2026-01-24 23:02:37.27	125.66	3.05	-51.4	-64.2	3.5	1.52e+00	0	41	104	0	60	56909
2026-01-24 23:02:41.31	125.52	3.31	-51.6	-64.4	3.5	1.52e+00	0	41	104	0	60	58125
2026-01-24 23:02:45.35	125.37	3.58	-51.5	-64.3	3.5	1.52e+00	0	41	104	0	60	57698
2026-01-24 23:02:49.39	125.22	3.84	-51.5	-64.3	3.5	1.52e+00	0	41	104	0	60	57441
2026-01-24 23:02:53.43	125.06	4.11	-51.3	-64.1	3.5	1.52e+00	0	42	104	0	60	56254
2026-01-24 23:02:57.47	124.91	4.38	-51.2	-64.0	3.5	1.52e+00	0	42	104	0	60	55828
2026-01-24 23:03:01.51	124.75	4.66	-51.3	-64.1	3.5	1.51e+00	0	42	104	0	60	56480
2026-01-24 23:03:05.54	124.58	4.93	-51.3	-64.2	3.5	1.52e+00	0	42	104	0	60	56889
2026-01-24 23:03:09.58	124.42	5.21	-51.3	-64.1	3.5	1.52e+00	0	42	104	0	60	56142
2026-01-24 23:03:13.62	124.25	5.49	-51.4	-64.3	3.5	1.52e+00	0	42	104	0	60	57482
2026-01-24 23:03:17.66	124.08	5.78	-51.3	-64.2	3.5	1.52e+00	0	42	104	0	60	56641
2026-01-24 23:03:21.70	123.90	6.07	-51.3	-64.1	3.5	1.52e+00	0	42	104	0	60	56483
2026-01-24 23:03:25.74	123.72	6.36	-51.2	-64.1	3.5	1.52e+00	0	42	104	0	60	56201
2026-01-24 23:03:29.78	123.53	6.65	-51.2	-64.0	3.5	1.52e+00	0	42	104	0	60	55809
2026-01-24 23:03:33.82	123.34	6.95	-51.2	-64.1	3.5	1.52e+00	0	42	104	0	60	55973
2026-01-24 23:03:37.86	123.15	7.25	-51.2	-64.0	3.5	1.52e+00	0	42	104	0	60	55639
2026-01-24 23:03:41.90	122.95	7.55	-51.2	-64.0	3.5	1.52e+00	0	42	104	0	60	55496
2026-01-24 23:03:45.93	122.75	7.85	-51.2	-64.0	3.5	1.52e+00	0	42	104	0	60	55877
2026-01-24 23:03:49.98	122.55	8.17	-51.2	-64.0	3.5	1.52e+00	0	42	104	0	60	55903
2026-01-24 23:03:54.02	122.34	8.48	-51.2	-64.1	3.5	1.51e+00	0	42	104	0	60	56031
2026-01-24 23:03:58.06	122.12	8.80	-51.3	-64.1	3.5	1.52e+00	0	42	104	0	60	56189
2026-01-24 23:04:02.10	121.90	9.12	-51.2	-64.1	3.5	1.52e+00	0	42	104	0	60	55960
2026-01-24 23:04:06.14	121.67	9.44	-51.2	-64.0	3.5	1.52e+00	0	42	104	0	60	55663
2026-01-24 23:04:10.18	121.44	9.77	-51.2	-64.1	3.5	1.52e+00	0	42	104	0	60	55979
2026-01-24 23:04:14.22	121.21	10.10	-51.2	-64.0	3.5	1.52e+00	0	42	104	0	60	55816
2026-01-24 23:04:18.26	120.96	10.43	-51.2	-64.0	3.5	1.52e+00	0	42	104	0	60	55854
2026-01-24 23:04:22.29	120.72	10.77	-51.2	-64.1	3.5	1.52e+00	0	42	104	0	60	56121
2026-01-24 23:04:26.34	120.46	11.12	-51.2	-64.0	3.5	1.52e+00	0	42	104	0	60	55754
2026-01-24 23:04:30.37	120.20	11.47	-51.1	-64.0	3.5	1.52e+00	0	42	104	0	60	55668
2026-01-24 23:04:34.41	119.93	11.82	-51.2	-64.0	3.5	1.52e+00	0	42	104	0	60	55520
2026-01-24 23:04:38.46	119.66	12.18	-51.1	-64.0	3.5	1.51e+00	0	42	104	0	60	55315
2026-01-24 23:04:42.50	119.38	12.54	-51.2	-64.0	3.5	1.52e+00	0	42	104	0	60	55783
2026-01-24 23:04:46.54	119.09	12.90	-51.2	-64.0	3.5	1.52e+00	0	42	104	0	60	55804
2026-01-24 23:04:50.58	118.79	13.28	-51.2	-64.0	3.5	1.52e+00	0	42	104	0	60	55860
2026-01-24 23:04:54.62	118.49	13.65	-51.2	-64.0	3.5	1.52e+00	0	42	104	0	60	55558
2026-01-24 23:04:58.67	118.17	14.03	-51.2	-63.9	3.5	1.51e+00	0	42	104	0	60	55278
2026-01-24 23:05:02.71	117.85	14.42	-51.1	-64.0	3.5	1.52e+00	0	42	104	0	60	55403
2026-01-24 23:05:06.74	117.53	14.81	-51.1	-64.0	3.5	1.51e+00	0	42	104	0	60	55415
2026-01-24 23:05:10.78	117.19	15.21	-51.1	-63.9	3.5	1.52e+00	0	42	104	0	60	55142
2026-01-24 23:05:14.82	116.84	15.61	-51.1	-64.0	3.5	1.52e+00	0	42	104	0	60	55550
2026-01-24 23:05:18.86	116.48	16.02	-51.1	-64.0	3.5	1.52e+00	0	42	104	0	60	55378
2026-01-24 23:05:22.90	116.11	16.43	-51.1	-64.0	3.5	1.52e+00	0	42	104	0	60	55431
2026-01-24 23:05:26.94	115.73	16.85	-51.1	-64.0	3.5	1.52e+00	0	42	104	0	60	55557
2026-01-24 23:05:30.98	115.34	17.28	-51.1	-64.0	3.5	1.52e+00	0	42	104	0	60	55583
2026-01-24 23:05:35.01	114.94	17.71	-51.1	-64.0	3.5	1.52e+00	0	42	104	0	60	55400
2026-01-24 23:05:39.05	114.53	18.14	-51.1	-64.0	3.5	1.52e+00	0	42	104	0	60	55560
2026-01-24 23:05:43.08	114.10	18.59	-51.1	-64.0	3.5	1.52e+00	0	42	104	0	60	55457
2026-01-24 23:05:47.12	113.67	19.04	-51.1	-63.9	3.5	1.52e+00	0	42	104	0	60	55218
2026-01-24 23:05:51.16	113.21	19.49	-51.1	-63.9	3.5	1.51e+00	0	42	104	0	60	55238
2026-01-24 23:05:55.20	112.75	19.96	-51.1	-64.0	3.5	1.52e+00	0	42	104	0	60	55451
2026-01-24 23:05:59.25	112.26	20.43	-51.1	-63.9	3.5	1.52e+00	0	42	104	0	60	54875
2026-01-24 23:06:03.29	111.77	20.90	-51.1	-64.0	3.5	1.52e+00	0	42	104	0	60	55525
2026-01-24 23:06:07.33	111.25	21.39	-51.2	-64.0	3.5	1.51e+00	0	42	104	0	60	55798
2026-01-24 23:06:11.37	110.73	21.88	-51.1	-64.0	3.5	1.52e+00	0	42	104	0	60	55421
2026-01-24 23:06:15.41	110.18	22.37	-51.1	-64.0	3.5	1.52e+00	0	42	104	0	60	55348
2026-01-24 23:06:19.45	109.61	22.88	-51.1	-63.9	3.5	1.52e+00	0	42	104	0	60	55217
2026-01-24 23:06:23.49	109.03	23.39	-51.1	-63.9	3.5	1.51e+00	0	42	104	0	60	55005
2026-01-24 23:06:27.53	108.43	23.91	-51.1	-64.0	3.5	1.52e+00	0	42	104	0	60	55623
2026-01-24 23:06:31.56	107.80	24.43	-51.1	-63.9	3.5	1.52e+00	0	42	104	0	60	55187
2026-01-24 23:06:35.60	107.16	24.96	-51.1	-63.9	3.5	1.52e+00	0	42	104	0	60	54800
2026-01-24 23:06:39.64	106.49	25.50	-51.1	-63.9	3.5	1.52e+00	0	42	104	0	60	55127
2026-01-24 23:06:43.68	105.80	26.04	-51.1	-63.9	3.5	1.52e+00	0	42	104	0	60	55217
2026-01-24 23:06:47.72	105.08	26.59	-51.1	-63.9	3.5	1.52e+00	0	42	104	0	60	54947
2026-01-24 23:06:51.76	104.34	27.15	-51.1	-63.9	3.5	1.52e+00	0	42	104	0	60	55014
2026-01-24 23:06:55.80	103.57	27.71	-51.0	-63.8	3.5	1.51e+00	0	42	104	0	60	54608
2026-01-24 23:06:59.84	102.77	28.28	-51.0	-63.9	3.5	1.51e+00	0	42	104	0	60	54940
2026-01-24 23:07:03.88	101.94	28.85	-51.1	-63.9	3.5	1.52e+00	0	42	104	0	60	54741
2026-01-24 23:07:07.92	101.09	29.43	-51.0	-63.9	3.5	1.52e+00	0	42	104	0	60	54701
2026-01-24 23:07:11.96	100.20	30.01	-51.0	-63.9	3.5	1.52e+00	0	42	104	0	60	54768
2026-01-24 23:07:16.00	99.28	30.59	-51.0	-63.9	3.5	1.52e+00	0	42	104	0	60	54732
2026-01-24 23:07:20.04	98.32	31.18	-51.0	-63.9	3.5	1.52e+00	0	42	104	0	60	54678
2026-01-24 23:07:24.08	97.33	31.77	-51.0	-63.8	3.5	1.52e+00	0	42	104	0	60	54311
2026-01-24 23:07:28.12	96.30	32.37	-51.0	-63.8	3.5	1.52e+00	0	42	104	0	60	54579
2026-01-24 23:07:32.16	95.23	32.96	-51.0	-63.8	3.5	1.52e+00	0	42	104	0	60	54673
2026-01-24 23:07:36.19	94.13	33.55	-51.0	-63.9	3.5	1.52e+00	0	42	104	0	60	54707
2026-01-24 23:07:40.23	92.98	34.15	-51.0	-63.8	3.5	1.51e+00	0	42	104	0	60	54587
2026-01-24 23:07:44.27	91.79	34.74	-51.0	-63.8	3.5	1.52e+00	0	42	104	0	60	54618
2026-01-24 23:07:48.31	90.55	35.32	-51.0	-63.8	3.5	1.52e+00	0	42	104	0	60	54434
2026-01-24 23:07:52.34	89.27	35.90	-51.0	-63.9	3.5	1.52e+00	0	42	104	0	60	54937
2026-01-24 23:07:56.38	87.95	36.48	-51.0	-63.8	3.5	1.52e+00	0	42	104	0	60	54496
2026-01-24 23:08:00.42	86.57	37.04	-51.0	-63.8	3.5	1.51e+00	0	42	104	0	60	54480
2026-01-24 23:08:04.46	85.15	37.60	-51.0	-63.8	3.5	1.52e+00	0	42	104	0	60	54611
2026-01-24 23:08:08.50	83.68	38.14	-51.0	-63.8	3.5	1.52e+00	0	42	104	0	60	54155
2026-01-24 23:08:12.53	82.16	38.67	-51.0	-63.8	3.5	1.52e+00	0	42	104	0	60	54292
2026-01-24 23:08:16.57	80.59	39.19	-50.9	-63.7	3.5	1.51e+00	0	42	104	0	60	54026
2026-01-24 23:08:20.61	78.97	39.68	-50.9	-63.8	3.5	1.52e+00	0	42	104	0	60	54402
2026-01-24 23:08:24.65	77.30	40.16	-50.9	-63.7	3.5	1.52e+00	0	42	104	0	60	53997
2026-01-24 23:08:28.69	75.58	40.61	-50.9	-63.8	3.5	1.52e+00	0	42	104	0	60	54061
2026-01-24 23:08:32.73	73.81	41.04	-50.9	-63.7	3.5	1.52e+00	0	42	104	0	60	53932
2026-01-24 23:08:36.77	72.00	41.45	-50.9	-63.7	3.5	1.52e+00	0	42	104	0	60	53854
2026-01-24 23:08:40.81	70.14	41.82	-50.9	-63.8	3.5	1.52e+00	0	42	104	0	60	54118
2026-01-24 23:08:44.86	68.23	42.16	-50.9	-63.7	3.5	1.52e+00	0	42	104	0	60	53693
2026-01-24 23:08:48.89	66.30	42.47	-50.9	-63.7	3.5	1.52e+00	0	42	104	0	60	54029
2026-01-24 23:08:52.93	64.33	42.74	-50.9	-63.7	3.5	1.52e+00	0	42	104	0	60	53683
2026-01-24 23:08:56.97	62.32	42.98	-50.7	-63.6	3.5	1.52e+00	0	42	104	0	60	52935
2026-01-24 23:09:01.01	60.29	43.18	-50.7	-63.5	3.5	1.52e+00	0	42	104	0	60	52741
2026-01-24 23:09:05.05	58.24	43.33	-50.6	-63.6	3.5	1.52e+00	0	42	104	0	60	53229
2026-01-24 23:09:09.09	56.16	43.45	-50.6	-63.6	3.5	1.52e+00	0	42	104	0	60	53250
2026-01-24 23:09:13.13	54.08	43.52	-50.6	-63.6	3.5	1.52e+00	0	42	104	0	60	53274
2026-01-24 23:09:17.17	51.99	43.55	-50.7	-63.6	3.5	1.52e+00	0	42	104	0	60	53032
2026-01-24 23:09:21.21	49.90	43.54	-50.7	-63.6	3.5	1.52e+00	0	42	104	0	60	52938
2026-01-24 23:09:25.25	47.81	43.48	-50.8	-63.6	3.5	1.52e+00	0	42	104	0	60	53094
2026-01-24 23:09:29.29	45.73	43.39	-50.8	-63.5	3.5	1.52e+00	0	42	104	0	60	52596
2026-01-24 23:09:33.33	43.67	43.25	-50.8	-63.5	3.5	1.52e+00	0	42	104	0	60	52678
2026-01-24 23:09:37.36	41.64	43.07	-50.7	-63.6	3.5	1.52e+00	0	42	104	0	60	53119
2026-01-24 23:09:41.40	39.62	42.85	-50.5	-63.5	3.5	1.52e+00	0	42	104	0	60	52619
2026-01-24 23:09:45.44	37.63	42.59	-50.5	-63.5	3.5	1.52e+00	0	42	104	0	60	52783
2026-01-24 23:09:49.48	35.68	42.30	-50.3	-63.5	3.5	1.52e+00	0	42	104	0	60	52479
2026-01-24 23:09:53.52	33.77	41.97	-50.3	-63.5	3.5	1.52e+00	0	42	104	0	60	52400
2026-01-24 23:09:57.56	31.89	41.62	-50.4	-63.5	3.5	1.52e+00	0	42	104	0	60	52573
2026-01-24 23:10:01.60	30.06	41.23	-50.6	-63.5	3.5	1.51e+00	0	42	104	0	60	52545
2026-01-24 23:10:05.64	28.28	40.81	-50.6	-63.5	3.5	1.52e+00	0	42	104	0	60	52357
2026-01-24 23:10:09.68	26.54	40.37	-50.7	-63.5	3.5	1.52e+00	0	42	104	0	60	52651
2026-01-24 23:10:13.71	24.86	39.90	-50.7	-63.5	3.5	1.52e+00	0	42	104	0	60	52281
2026-01-24 23:10:17.75	23.22	39.42	-50.7	-63.5	3.5	1.51e+00	0	42	104	0	60	52217
2026-01-24 23:10:21.80	21.62	38.91	-50.7	-63.5	3.5	1.52e+00	0	42	104	0	60	52476
2026-01-24 23:10:25.84	20.08	38.39	-50.7	-63.4	3.5	1.52e+00	0	42	104	0	60	52198
2026-01-24 23:10:29.88	18.59	37.85	-50.7	-63.4	3.5	1.52e+00	0	42	104	0	60	51991
2026-01-24 23:10:33.91	17.16	37.30	-50.6	-63.4	3.5	1.51e+00	0	42	104	0	60	52127
2026-01-24 23:10:37.95	15.76	36.74	-50.6	-63.3	3.5	1.51e+00	0	42	104	0	60	51598
2026-01-24 23:10:41.99	14.42	36.17	-50.5	-63.3	3.5	1.52e+00	0	42	104	0	60	51563
2026-01-24 23:10:46.03	13.12	35.59	-50.1	-63.3	3.5	1.52e+00	0	42	104	0	60	51543
2026-01-24 23:10:50.07	11.87	35.01	-50.0	-63.3	3.5	1.52e+00	0	42	104	0	60	51308
2026-01-24 23:10:54.11	10.66	34.42	-50.0	-63.3	3.5	1.52e+00	0	42	104	0	60	51581
2026-01-24 23:10:58.15	9.50	33.83	-50.1	-63.3	3.5	1.52e+00	0	42	104	0	60	51485
2026-01-24 23:11:02.18	8.38	33.24	-50.4	-63.3	3.5	1.52e+00	0	42	104	0	60	51205
2026-01-24 23:11:06.22	7.30	32.65	-50.5	-63.3	3.5	1.52e+00	0	42	104	0	60	51368
2026-01-24 23:11:10.27	6.25	32.06	-50.5	-63.3	3.5	1.52e+00	0	42	104	0	60	51482
2026-01-24 23:11:14.31	5.25	31.47	-50.5	-63.3	3.5	1.52e+00	0	42	104	0	60	51240
2026-01-24 23:11:18.34	4.28	30.88	-50.5	-63.3	3.5	1.52e+00	0	42	104	0	60	51299
2026-01-24 23:11:22.38	3.35	30.30	-50.4	-63.3	3.5	1.52e+00	0	42	104	0	60	51288
2026-01-24 23:11:26.42	2.45	29.72	-50.5	-63.2	3.5	1.52e+00	0	42	104	0	60	50796
2026-01-24 23:11:30.46	1.58	29.14	-50.5	-63.3	3.5	1.52e+00	0	42	104	0	60	51028
2026-01-24 23:11:34.50	0.74	28.57	-50.4	-63.2	3.5	1.51e+00	0	42	104	0	60	50750
2026-01-24 23:11:38.53	359.94	28.00	-50.5	-63.2	3.5	1.52e+00	0	42	104	0	60	50981
2026-01-24 23:11:42.58	359.16	27.44	-50.4	-63.2	3.5	1.52e+00	0	42	104	0	60	50736
2026-01-24 23:11:46.62	358.41	26.88	-50.4	-63.2	3.5	1.52e+00	0	42	104	0	60	50541
2026-01-24 23:11:50.66	357.68	26.33	-50.4	-63.1	3.5	1.52e+00	0	42	104	0	60	50400
2026-01-24 23:11:54.70	356.98	25.78	-50.4	-63.2	3.5	1.52e+00	0	42	104	0	60	50605
2026-01-24 23:11:58.74	356.30	25.25	-50.4	-63.2	3.5	1.52e+00	0	42	104	0	60	50788
2026-01-24 23:12:02.78	355.65	24.71	-50.4	-63.2	3.5	1.52e+00	0	42	104	0	60	50602
2026-01-24 23:12:06.81	355.02	24.19	-50.3	-63.1	3.5	1.52e+00	0	42	104	0	60	50272
2026-01-24 23:12:10.85	354.41	23.67	-50.3	-63.2	3.5	1.51e+00	0	42	104	0	60	50486
2026-01-24 23:12:14.89	353.82	23.16	-50.2	-63.1	3.5	1.52e+00	0	42	104	0	60	50049
2026-01-24 23:12:18.93	353.25	22.66	-50.1	-63.0	3.5	1.52e+00	0	42	104	0	60	49502
2026-01-24 23:12:22.97	352.70	22.16	-50.2	-63.1	3.5	1.52e+00	0	42	104	0	60	49959
2026-01-24 23:12:27.01	352.16	21.67	-50.2	-63.0	3.5	1.52e+00	0	42	104	0	60	49721
2026-01-24 23:12:31.05	351.65	21.18	-50.0	-62.9	3.5	1.52e+00	0	42	104	0	60	49205
2026-01-24 23:12:35.09	351.14	20.70	-50.1	-62.9	3.5	1.52e+00	0	42	104	0	60	49175
2026-01-24 23:12:39.13	350.66	20.23	-49.9	-62.9	3.5	1.52e+00	0	42	104	0	60	48900
2026-01-24 23:12:43.17	350.19	19.77	-49.9	-62.9	3.5	1.52e+00	0	42	104	0	60	48951
2026-01-24 23:12:47.20	349.73	19.31	-49.9	-62.8	3.5	1.52e+00	0	42	104	0	60	48543
2026-01-24 23:12:51.24	349.29	18.86	-49.9	-62.8	3.5	1.52e+00	0	42	104	0	60	48653
2026-01-24 23:12:55.28	348.86	18.41	-49.8	-62.7	3.5	1.52e+00	0	42	104	0	60	48088
2026-01-24 23:12:59.32	348.45	17.97	-49.8	-62.7	3.5	1.52e+00	0	42	104	0	60	47836
2026-01-24 23:13:03.36	348.04	17.54	-49.8	-62.6	3.5	1.52e+00	0	42	104	0	60	47587
2026-01-24 23:13:07.40	347.65	17.11	-49.7	-62.5	3.5	1.52e+00	0	42	104	0	60	46944
2026-01-24 23:13:11.44	347.27	16.69	-49.6	-62.6	3.5	1.52e+00	0	42	104	0	60	47234
2026-01-24 23:13:15.48	346.90	16.28	-50.6	-63.4	3.5	1.52e+00	0	42	104	0	60	51862
2026-01-24 23:13:19.53	346.54	15.87	-51.0	-63.8	3.5	1.52e+00	0	42	104	0	60	54627
2026-01-24 23:13:23.56	346.19	15.47	-51.1	-64.0	3.5	1.52e+00	0	42	104	0	60	55545
2026-01-24 23:13:27.60	345.85	15.07	-51.2	-64.1	3.5	1.52e+00	0	42	104	0	60	56102
2026-01-24 23:13:31.64	345.52	14.67	-51.3	-64.1	3.5	1.52e+00	0	42	104	0	60	56565
2026-01-24 23:13:35.68	345.19	14.29	-51.2	-64.1	3.5	1.52e+00	0	42	104	0	60	56517
2026-01-24 23:13:39.72	344.88	13.90	-51.1	-64.0	3.5	1.52e+00	0	42	104	0	60	55494
2026-01-24 23:13:43.75	344.58	13.53	-50.8	-63.8	3.5	1.52e+00	0	42	104	0	60	54122
2026-01-24 23:13:47.79	344.28	13.16	-38.7	-39.8	22.4	0.00e+00	0	42	0	1048576	52	5416
2026-01-24 23:13:51.83	343.99	12.79	-38.8	-40.1	21.9	2.85e-04	0	42	0	8388608	50	6313
2026-01-24 23:13:55.86	343.71	12.43	-39.2	-40.3	22.0	0.00e+00	0	42	0	20971520	52	5766
2026-01-24 23:13:59.90	343.44	12.07	-39.2	-40.4	22.0	0.00e+00	0	42	0	33554432	52	5794
2026-01-24 23:14:03.93	343.17	11.72	-39.2	-40.5	19.2	0.00e+00	0	42	0	46137344	52	5921
2026-01-24 23:14:07.97	342.91	11.37	-39.1	-40.4	20.2	0.00e+00	0	42	0	58720256	50	6501
2026-01-24 23:14:12.01	342.65	11.02	-39.2	-40.3	21.8	0.00e+00	0	42	0	71303168	50	6485
2026-01-24 23:14:16.04	342.40	10.68	-39.3	-40.4	21.7	0.00e+00	0	42	0	83886080	50	6569
2026-01-24 23:14:20.08	342.16	10.34	-39.1	-40.2	21.8	0.00e+00	0	42	0	96468992	50	6411
2026-01-24 23:14:24.12	341.93	10.01	-39.2	-40.3	21.7	0.00e+00	0	42	0	109051904	50	6442
2026-01-24 23:14:28.16	341.69	9.68	-39.1	-40.2	21.8	0.00e+00	0	42	0	121634816	50	6386
2026-01-24 23:14:32.20	341.47	9.36	-39.0	-40.1	21.9	0.00e+00	0	42	0	134217728	50	6313
2026-01-24 23:14:36.24	341.25	9.04	-39.2	-40.2	21.8	0.00e+00	0	42	0	146800640	50	6423
2026-01-24 23:14:40.27	341.03	8.72	-39.2	-40.3	21.7	0.00e+00	0	42	0	159383552	50	6460
2026-01-24 23:14:44.30	340.82	8.41	-38.9	-39.9	22.0	0.00e+00	0	42	0	171966464	50	6164
2026-01-24 23:14:48.35	340.62	8.10	-39.3	-40.4	21.5	0.00e+00	0	42	0	184549376	50	6521
2026-01-24 23:14:52.38	340.42	7.79	-39.3	-40.4	21.6	0.00e+00	0	42	0	197132288	50	6541
2026-01-24 23:14:56.42	340.22	7.49	-39.8	-40.9	21.0	0.00e+00	0	42	0	209715200	50	6927
2026-01-24 23:15:00.46	340.03	7.18	-40.0	-41.2	20.7	0.00e+00	0	42	0	222298112	52	6371
2026-01-24 23:15:04.49	339.84	6.89	-40.5	-41.7	20.5	0.00e+00	0	42	0	234881024	52	6734
2026-01-24 23:15:08.53	339.66	6.59	-40.2	-41.3	20.7	0.00e+00	0	42	0	247463936	52	6484
2026-01-24 23:15:12.57	339.48	6.30	-39.8	-40.9	20.9	0.00e+00	0	42	0	260046848	54	5486
2026-01-24 23:15:16.61	339.30	6.01	-40.1	-41.2	20.7	0.00e+00	0	42	0	272629760	52	6393
2026-01-24 23:15:20.65	339.13	5.73	-40.2	-41.4	20.3	0.00e+00	0	42	0	285212672	52	6535
2026-01-24 23:15:24.68	338.97	5.45	-42.0	-43.5	18.2	0.00e+00	0	42	0	297795584	56	6616
2026-01-24 23:15:28.72	338.80	5.17	-42.2	-43.8	17.3	0.00e+00	0	42	0	310378496	56	6822
2026-01-24 23:15:32.76	338.64	4.89	-43.6	-45.8	14.6	1.50e-06	0	42	0	322961408	60	6882
2026-01-24 23:15:36.80	338.48	4.61	-45.2	-49.0	10.0	2.45e-03	0	42	0	335544320	60	9864
2026-01-24 23:15:40.83	338.33	4.34	-46.0	-51.7	7.1	6.14e-02	0	42	0	348127232	60	13474
2026-01-24 23:15:44.87	338.17	4.07	-46.3	-55.8	4.2	7.23e-01	0	42	104	351272960	60	21714
2026-01-24 23:15:48.91	338.03	3.81	-46.2	-58.9	3.5	1.51e+00	0	42	104	351272960	60	30958
2026-01-24 23:15:52.95	337.88	3.54	-46.2	-58.9	3.5	1.52e+00	0	42	104	351272960	60	30925
2026-01-24 23:15:56.98	337.74	3.28	-46.2	-59.0	3.5	1.52e+00	0	42	104	351272960	60	31214
2026-01-24 23:16:01.02	337.60	3.02	-46.4	-59.2	3.5	1.52e+00	0	42	104	351272960	60	31827
2026-01-24 23:16:05.06	337.46	2.76	-50.6	-63.5	3.5	1.52e+00	0	42	104	351272960	60	52457
2026-01-24 23:16:09.10	337.33	2.51	-51.1	-63.9	3.5	1.52e+00	0	42	104	351272960	60	55293
2026-01-24 23:16:13.14	337.19	2.25	-51.3	-64.2	3.5	1.52e+00	0	42	104	351272960	60	56813
2026-01-24 23:16:17.17	337.07	2.00	-51.1	-64.1	3.5	1.52e+00	0	42	104	351272960	60	56230
2026-01-24 23:16:21.21	336.94	1.75	-51.1	-64.0	3.5	1.51e+00	0	42	104	351272960	60	55855
2026-01-24 23:16:25.25	336.81	1.50	-51.2	-64.1	3.5	1.52e+00	0	42	104	351272960	60	56030
2026-01-24 23:16:29.29	336.69	1.26	-51.3	-64.1	3.5	1.52e+00	0	42	104	351272960	60	56445
2026-01-24 23:16:33.33	336.57	1.01	-51.3	-64.1	3.5	1.52e+00	0	42	104	351272960	60	56488
2026-01-24 23:16:37.37	336.45	0.77	-51.3	-64.1	3.5	1.52e+00	0	42	104	351272960	60	56423
2026-01-24 23:16:41.41	336.34	0.53	-51.3	-64.1	3.5	1.52e+00	0	42	104	351272960	60	56519
2026-01-24 23:16:45.44	336.23	0.29	-51.3	-64.2	3.5	1.52e+00	0	42	104	351272960	60	56669
2026-01-24 23:16:49.48	336.11	0.06	-51.4	-64.2	3.5	1.52e+00	0	42	104	351272960	60	56880

#Closed at: 2026-01-24 23:16:51
#Recorded file [351 MB]: D:/lorett/data/35029_260125_110152.dat