passes_logs/2026/01/24/R4.6S_Anadyr/R4.6S_Anadyr__20260124_040917_FENGYUN_3D_rec.log

#Pass ID: 20260124_040917_FENGYUN 3D
#Satellite: FENGYUN 3D
#Configuration: FENGYUN 3D
#almurnet v.1.7.20251203
#Start time: 2026-01-24 04:09:20

#Version: 2.2.20231116
#Station: R4.6S_Anadyr
#Location: 177.4865 lon 64.73178 lat
#TLE: 1 43010U 17072A   26023.60174628  .00000324  00000+0  17481-3 0  9994
#TLE: 2 43010  98.9958 355.5514 0002482  93.7422 266.4037 14.19699955424476

#Time	Az	El	Level	Level2	SNR	BER	BlckErr	Temp	State	Recorded	gain1	gain2
2026-01-24 04:09:20.30	204.81	0.15	-51.4	-66.4	3.5	1.51e+00	0	39	0	0	60	75107
2026-01-24 04:09:24.34	205.06	0.37	-51.5	-63.6	3.6	8.45e-01	0	40	104	0	60	54708
2026-01-24 04:09:28.38	205.30	0.59	-51.0	-63.4	3.6	8.46e-01	0	40	104	0	60	53311
2026-01-24 04:09:32.42	205.56	0.80	-51.2	-63.3	3.6	8.46e-01	0	40	104	0	60	53096
2026-01-24 04:09:36.46	205.81	1.02	-51.0	-63.2	3.6	8.46e-01	0	40	104	0	60	52402
2026-01-24 04:09:40.50	206.07	1.25	-50.7	-62.8	3.5	8.44e-01	0	40	104	0	60	50048
2026-01-24 04:09:44.54	206.33	1.47	-49.7	-61.6	3.6	8.45e-01	0	40	104	0	60	43704
2026-01-24 04:09:48.58	206.60	1.69	-49.6	-61.8	3.6	8.45e-01	0	40	104	0	60	44235
2026-01-24 04:09:52.62	206.87	1.92	-49.6	-61.7	3.6	8.46e-01	0	40	104	0	60	44110
2026-01-24 04:09:56.66	207.14	2.14	-49.6	-61.6	3.6	8.45e-01	0	40	104	0	60	43309
2026-01-24 04:10:00.69	207.42	2.37	-49.5	-61.3	3.6	8.45e-01	0	40	104	0	60	41973
2026-01-24 04:10:04.73	207.70	2.60	-49.5	-61.4	3.6	8.46e-01	0	40	104	0	60	42709
2026-01-24 04:10:08.77	207.99	2.83	-49.1	-57.8	4.1	8.35e-01	0	41	104	0	60	28104
2026-01-24 04:10:12.81	208.28	3.06	-47.8	-51.9	8.2	1.99e-01	0	41	0	2097152	60	14298
2026-01-24 04:10:16.85	208.57	3.29	-43.5	-45.1	15.6	0.00e+00	0	40	0	25165824	60	6494
2026-01-24 04:10:20.89	208.87	3.53	-39.2	-40.1	19.3	7.91e-01	0	41	104	39845888	52	5773
2026-01-24 04:10:24.93	209.18	3.76	-40.2	-41.2	19.8	0.00e+00	0	41	0	58720256	54	5877
2026-01-24 04:10:28.97	209.49	4.00	-40.2	-41.2	19.7	0.00e+00	0	40	0	81788928	52	6565
2026-01-24 04:10:33.01	209.80	4.24	-39.4	-40.3	21.2	0.00e+00	0	40	0	103809024	52	5933
2026-01-24 04:10:37.04	210.12	4.48	-39.7	-40.7	20.4	0.00e+00	0	41	0	126877696	50	6931
2026-01-24 04:10:41.08	210.44	4.72	-38.1	-39.0	22.2	0.00e+00	0	41	0	149946368	50	5699
2026-01-24 04:10:45.12	210.77	4.96	-38.1	-38.9	22.2	0.00e+00	0	41	0	173015040	48	6388
2026-01-24 04:10:49.15	211.10	5.21	-37.8	-38.5	22.9	0.00e+00	0	41	0	195035136	48	6089
2026-01-24 04:10:53.19	211.44	5.45	-38.2	-39.0	22.1	0.00e+00	0	41	0	218103808	48	6436
2026-01-24 04:10:57.23	211.79	5.70	-37.3	-38.0	23.1	0.00e+00	0	41	0	240123904	48	5750
2026-01-24 04:11:01.27	212.14	5.95	-37.8	-38.6	22.7	0.00e+00	0	41	0	263192576	48	6125
2026-01-24 04:11:05.30	212.49	6.20	-37.3	-38.1	23.1	0.00e+00	0	41	0	286261248	48	5771
2026-01-24 04:11:09.34	212.85	6.45	-37.7	-38.5	22.7	0.00e+00	0	41	0	308281344	48	6073
2026-01-24 04:11:13.38	213.22	6.71	-37.7	-38.5	22.8	0.00e+00	0	41	0	331350016	48	6059
2026-01-24 04:11:17.43	213.60	6.96	-37.4	-38.2	22.8	0.00e+00	0	41	0	354418688	48	5851
2026-01-24 04:11:21.47	213.98	7.22	-37.4	-38.2	23.0	0.00e+00	0	41	0	377487360	48	5863
2026-01-24 04:11:25.51	214.37	7.48	-37.1	-37.8	23.3	0.00e+00	0	41	0	399507456	48	5607
2026-01-24 04:11:29.55	214.76	7.74	-37.7	-38.5	22.7	0.00e+00	0	41	0	422576128	48	6080
2026-01-24 04:11:33.59	215.16	8.00	-36.8	-37.5	23.6	0.00e+00	0	41	0	444596224	46	6047
2026-01-24 04:11:37.62	215.57	8.26	-37.1	-37.9	23.3	0.00e+00	0	41	0	467664896	46	6318
2026-01-24 04:11:41.66	215.98	8.52	-36.8	-37.5	23.8	0.00e+00	0	41	0	490733568	46	6083
2026-01-24 04:11:45.70	216.40	8.79	-36.4	-37.1	24.0	0.00e+00	0	41	0	512753664	46	5812
2026-01-24 04:11:49.74	216.83	9.06	-37.2	-37.9	23.3	0.00e+00	0	41	0	535822336	46	6389
2026-01-24 04:11:53.78	217.27	9.32	-36.6	-37.3	23.9	0.00e+00	0	41	0	558891008	46	5927
2026-01-24 04:11:57.82	217.72	9.59	-36.9	-37.6	23.7	0.00e+00	0	41	0	581959680	46	6139
2026-01-24 04:12:01.86	218.17	9.87	-36.7	-37.4	23.9	0.00e+00	0	41	0	603979776	46	6001
2026-01-24 04:12:05.90	218.63	10.14	-36.3	-37.0	24.2	0.00e+00	0	41	0	627048448	46	5752
2026-01-24 04:12:09.94	219.10	10.41	-36.5	-37.2	24.2	0.00e+00	0	41	0	649068544	46	5876
2026-01-24 04:12:13.98	219.58	10.69	-36.2	-36.9	24.3	0.00e+00	0	41	0	672137216	46	5695
2026-01-24 04:12:18.02	220.06	10.97	-36.2	-36.9	24.3	0.00e+00	0	41	0	695205888	46	5659
2026-01-24 04:12:22.06	220.56	11.24	-35.9	-36.6	24.7	0.00e+00	0	41	0	717225984	46	5440
2026-01-24 04:12:26.10	221.07	11.52	-36.1	-36.8	24.5	0.00e+00	0	41	0	740294656	44	6284
2026-01-24 04:12:30.14	221.58	11.81	-36.1	-36.8	24.5	0.00e+00	0	41	0	763363328	44	6287
2026-01-24 04:12:34.18	222.10	12.09	-35.9	-36.6	24.7	0.00e+00	0	41	0	786432000	44	6121
2026-01-24 04:12:38.23	222.64	12.37	-36.4	-37.1	24.2	0.00e+00	0	41	0	808452096	44	6518
2026-01-24 04:12:42.27	223.18	12.66	-36.2	-36.9	24.5	0.00e+00	0	41	0	831520768	44	6350
2026-01-24 04:12:46.30	223.74	12.94	-35.5	-36.2	25.1	0.00e+00	0	41	0	853540864	44	5878
2026-01-24 04:12:50.34	224.30	13.23	-35.7	-36.3	24.9	0.00e+00	0	41	0	876609536	44	5955
2026-01-24 04:12:54.38	224.88	13.51	-36.0	-36.7	24.6	0.00e+00	0	41	0	899678208	44	6180
2026-01-24 04:12:58.42	225.46	13.80	-35.5	-36.2	25.1	0.00e+00	0	41	0	922746880	44	5860
2026-01-24 04:13:02.45	226.06	14.09	-35.4	-36.1	25.2	0.00e+00	0	41	0	944766976	44	5800
2026-01-24 04:13:06.49	226.67	14.38	-35.2	-35.8	25.4	0.00e+00	0	41	0	967835648	44	5616
2026-01-24 04:13:10.53	227.29	14.67	-34.8	-35.5	25.8	0.00e+00	0	41	0	990904320	42	6062
2026-01-24 04:13:14.57	227.92	14.96	-34.9	-35.5	25.7	0.00e+00	0	41	0	1012924416	42	6075
2026-01-24 04:13:18.61	228.56	15.25	-35.0	-35.6	25.6	0.00e+00	0	41	0	1035993088	42	6158
2026-01-24 04:13:22.64	229.22	15.54	-34.9	-35.6	25.7	0.00e+00	0	41	0	1058013184	42	6128
2026-01-24 04:13:26.68	229.89	15.82	-35.1	-35.8	25.5	0.00e+00	0	41	0	1081081856	42	6264
2026-01-24 04:13:30.72	230.57	16.11	-34.7	-35.3	26.0	0.00e+00	0	41	0	1104150528	42	5949
2026-01-24 04:13:34.76	231.26	16.40	-34.9	-35.5	25.8	0.00e+00	0	41	0	1126170624	42	6087
2026-01-24 04:13:38.80	231.97	16.69	-34.7	-35.3	25.9	0.00e+00	0	41	0	1149239296	42	5955
2026-01-24 04:13:42.83	232.69	16.98	-34.6	-35.3	26.0	0.00e+00	0	41	0	1172307968	42	5921
2026-01-24 04:13:46.87	233.42	17.27	-34.4	-35.0	26.2	0.00e+00	0	41	0	1195376640	42	5751
2026-01-24 04:13:50.91	234.17	17.55	-34.4	-35.0	26.2	0.00e+00	0	41	0	1217396736	42	5748
2026-01-24 04:13:54.95	234.93	17.83	-34.5	-35.1	26.1	0.00e+00	0	41	0	1240465408	42	5819
2026-01-24 04:13:58.99	235.70	18.12	-34.3	-35.0	26.3	0.00e+00	0	41	0	1262485504	42	5721
2026-01-24 04:14:03.03	236.49	18.40	-34.3	-34.9	26.3	0.00e+00	0	41	0	1285554176	42	5681
2026-01-24 04:14:07.06	237.30	18.67	-34.3	-34.9	26.4	0.00e+00	0	41	0	1308622848	42	5661
2026-01-24 04:14:11.10	238.11	18.95	-34.2	-34.8	26.5	0.00e+00	0	41	0	1330642944	42	5580
2026-01-24 04:14:15.13	238.94	19.22	-34.0	-34.6	26.6	0.00e+00	0	41	0	1353711616	42	5495
2026-01-24 04:14:19.17	239.79	19.49	-34.0	-34.6	26.6	0.00e+00	0	41	0	1376780288	42	5479
2026-01-24 04:14:23.21	240.65	19.76	-34.1	-34.8	26.4	0.00e+00	0	41	0	1398800384	42	5586
2026-01-24 04:14:27.25	241.53	20.02	-34.0	-34.6	26.4	0.00e+00	0	41	0	1421869056	42	5491
2026-01-24 04:14:31.29	242.42	20.28	-34.0	-34.6	26.6	0.00e+00	0	42	0	1444937728	42	5461
2026-01-24 04:14:35.33	243.32	20.54	-33.9	-34.6	26.7	0.00e+00	0	41	0	1466957824	42	5473
2026-01-24 04:14:39.37	244.24	20.79	-33.9	-34.5	26.6	0.00e+00	0	41	0	1490026496	40	6097
2026-01-24 04:14:43.41	245.18	21.03	-33.7	-34.4	26.8	0.00e+00	0	42	0	1513095168	40	5982
2026-01-24 04:14:47.45	246.13	21.27	-33.4	-34.0	27.1	0.00e+00	0	42	0	1535115264	40	5747
2026-01-24 04:14:51.49	247.09	21.50	-33.9	-34.5	26.6	0.00e+00	0	41	0	1558183936	40	6102
2026-01-24 04:14:55.52	248.06	21.73	-33.8	-34.5	26.7	0.00e+00	0	41	0	1581252608	40	6068
2026-01-24 04:14:59.57	249.06	21.95	-33.6	-34.3	26.9	0.00e+00	0	41	0	1604321280	40	5905
2026-01-24 04:15:03.61	250.06	22.17	-33.6	-34.2	27.0	0.00e+00	0	42	0	1626341376	40	5858
2026-01-24 04:15:07.64	251.08	22.38	-32.9	-33.5	27.4	0.00e+00	0	42	0	1649410048	40	5430
2026-01-24 04:15:11.68	252.11	22.58	-33.2	-33.8	27.2	0.00e+00	0	42	0	1671430144	40	5628
2026-01-24 04:15:15.72	253.15	22.77	-33.4	-34.0	27.1	0.00e+00	0	42	0	1694498816	40	5741
2026-01-24 04:15:19.76	254.21	22.95	-33.1	-33.8	27.2	0.00e+00	0	42	0	1717567488	40	5575
2026-01-24 04:15:23.80	255.28	23.12	-33.3	-33.9	27.1	0.00e+00	0	42	0	1739587584	40	5689
2026-01-24 04:15:27.84	256.35	23.29	-33.1	-33.6	27.4	0.00e+00	0	42	0	1762656256	40	5501
2026-01-24 04:15:31.88	257.44	23.45	-33.1	-33.7	27.3	0.00e+00	0	42	0	1785724928	40	5534
2026-01-24 04:15:35.92	258.54	23.59	-32.9	-33.6	27.4	0.00e+00	0	42	0	1808793600	40	5464
2026-01-24 04:15:39.96	259.65	23.73	-32.8	-33.4	27.5	0.00e+00	0	41	0	1830813696	40	5375
2026-01-24 04:15:44.00	260.77	23.85	-33.1	-33.8	27.3	0.00e+00	0	42	0	1853882368	40	5584
2026-01-24 04:15:48.04	261.90	23.97	-32.8	-33.4	27.6	0.00e+00	0	42	0	1875902464	40	5359
2026-01-24 04:15:52.08	263.04	24.07	-32.9	-33.5	27.5	0.00e+00	0	42	0	1898971136	38	6056
2026-01-24 04:15:56.11	264.17	24.16	-32.8	-33.4	27.6	0.00e+00	0	42	0	1922039808	38	5989
2026-01-24 04:16:00.15	265.32	24.25	-33.0	-33.6	27.5	0.00e+00	0	42	0	1944059904	38	6136
2026-01-24 04:16:04.19	266.48	24.32	-32.8	-33.4	27.6	0.00e+00	0	42	0	1967128576	38	6019
2026-01-24 04:16:08.23	267.63	24.37	-33.1	-33.7	27.3	0.00e+00	0	42	0	1990197248	38	6201
2026-01-24 04:16:12.27	268.80	24.42	-32.9	-33.5	27.6	0.00e+00	0	42	0	2013265920	38	6067
2026-01-24 04:16:16.31	269.96	24.45	-33.0	-33.6	27.3	0.00e+00	0	42	0	2035286016	38	6168
2026-01-24 04:16:20.35	271.13	24.47	-32.8	-33.3	27.7	0.00e+00	0	42	0	2058354688	38	5947
2026-01-24 04:16:24.39	272.29	24.48	-33.0	-33.7	27.4	0.00e+00	0	42	0	2080374784	38	6174
2026-01-24 04:16:28.43	273.46	24.48	-33.0	-33.6	27.4	0.00e+00	0	42	0	2103443456	38	6159
2026-01-24 04:16:32.47	274.63	24.47	-33.1	-33.7	27.3	0.00e+00	0	42	0	2126512128	38	6234
2026-01-24 04:16:36.51	275.79	24.44	-33.0	-33.6	27.3	0.00e+00	0	42	0	2148532224	38	6156
2026-01-24 04:16:40.54	276.95	24.40	-32.7	-33.2	27.7	0.00e+00	0	42	0	2171600896	38	5892
2026-01-24 04:16:44.58	278.11	24.35	-32.9	-33.5	27.5	0.00e+00	0	42	0	2194669568	38	6076
2026-01-24 04:16:48.63	279.27	24.28	-33.0	-33.7	27.4	0.00e+00	0	42	0	2217738240	38	6185
2026-01-24 04:16:52.66	280.41	24.21	-32.9	-33.5	27.5	0.00e+00	0	42	0	2239758336	38	6073
2026-01-24 04:16:56.70	281.56	24.12	-32.8	-33.5	27.6	0.00e+00	0	42	0	2262827008	38	6062
2026-01-24 04:17:00.74	282.69	24.02	-32.8	-33.4	27.6	0.00e+00	0	42	0	2284847104	38	5999
2026-01-24 04:17:04.78	283.82	23.91	-33.0	-33.6	27.4	0.00e+00	0	42	0	2307915776	38	6162
2026-01-24 04:17:08.81	284.94	23.80	-32.9	-33.5	27.5	0.00e+00	0	42	0	2330984448	38	6098
2026-01-24 04:17:12.85	286.05	23.66	-33.2	-33.8	27.4	0.00e+00	0	42	0	2353004544	38	6305
2026-01-24 04:17:16.89	287.16	23.52	-33.3	-33.8	27.2	0.00e+00	0	42	0	2376073216	38	6308
2026-01-24 04:17:20.93	288.25	23.37	-33.5	-34.2	27.1	0.00e+00	0	42	0	2399141888	38	6606
2026-01-24 04:17:24.97	289.33	23.21	-33.1	-33.7	27.3	0.00e+00	0	42	0	2422210560	38	6186
2026-01-24 04:17:29.01	290.40	23.04	-33.2	-33.8	27.2	0.00e+00	0	42	0	2444230656	38	6266
2026-01-24 04:17:33.05	291.46	22.87	-33.3	-34.0	27.2	0.00e+00	0	42	0	2467299328	38	6445
2026-01-24 04:17:37.08	292.51	22.68	-33.6	-34.1	27.0	0.00e+00	0	42	0	2489319424	38	6526
2026-01-24 04:17:41.12	293.54	22.49	-33.4	-34.0	27.3	0.00e+00	0	42	0	2512388096	38	6405
2026-01-24 04:17:45.16	294.56	22.28	-33.7	-34.3	27.1	0.00e+00	0	42	0	2535456768	38	6689
2026-01-24 04:17:49.20	295.57	22.07	-33.4	-34.0	27.4	0.00e+00	0	42	0	2557476864	40	5748
2026-01-24 04:17:53.24	296.57	21.86	-33.5	-34.1	27.2	0.00e+00	0	42	0	2580545536	40	5819
2026-01-24 04:17:57.27	297.55	21.63	-33.7	-34.3	27.0	0.00e+00	0	42	0	2603614208	40	5938
2026-01-24 04:18:01.31	298.51	21.40	-33.9	-34.5	26.8	0.00e+00	0	42	0	2625634304	40	6051
2026-01-24 04:18:05.35	299.47	21.17	-33.7	-34.4	26.9	0.00e+00	0	42	0	2648702976	40	5975
2026-01-24 04:18:09.38	300.40	20.93	-33.9	-34.6	26.9	0.00e+00	0	42	0	2671771648	40	6110
2026-01-24 04:18:13.42	301.33	20.68	-33.6	-34.2	27.1	0.00e+00	0	42	0	2693791744	40	5888
2026-01-24 04:18:17.46	302.24	20.43	-33.9	-34.4	26.8	0.00e+00	0	42	0	2716860416	40	6006
2026-01-24 04:18:21.50	303.13	20.18	-34.0	-34.6	26.7	0.00e+00	0	42	0	2739929088	40	6158
2026-01-24 04:18:25.54	304.01	19.92	-33.9	-34.4	26.8	0.00e+00	0	42	0	2761949184	40	6020
2026-01-24 04:18:29.58	304.88	19.65	-34.1	-34.7	26.6	0.00e+00	0	42	0	2785017856	40	6216
2026-01-24 04:18:33.62	305.73	19.39	-34.0	-34.7	26.7	0.00e+00	0	42	0	2808086528	40	6175
2026-01-24 04:18:37.66	306.57	19.12	-34.7	-35.3	26.2	0.00e+00	0	42	0	2830106624	42	5904
2026-01-24 04:18:41.70	307.39	18.85	-34.4	-35.0	26.4	0.00e+00	0	42	0	2853175296	42	5729
2026-01-24 04:18:45.74	308.20	18.57	-34.7	-35.3	26.2	0.00e+00	0	42	0	2876243968	42	5926
2026-01-24 04:18:49.78	308.99	18.29	-34.5	-35.1	26.3	0.00e+00	0	42	0	2898264064	42	5768
2026-01-24 04:18:53.82	309.77	18.01	-34.9	-35.5	25.8	0.00e+00	0	42	0	2921332736	42	6088
2026-01-24 04:18:57.86	310.54	17.73	-34.7	-35.4	25.8	0.00e+00	0	42	0	2944401408	42	5996
2026-01-24 04:19:01.90	311.29	17.45	-34.8	-35.4	25.9	0.00e+00	0	42	0	2966421504	42	5968
2026-01-24 04:19:05.94	312.03	17.17	-35.1	-35.8	25.7	0.00e+00	0	42	0	2989490176	42	6249
2026-01-24 04:19:09.98	312.75	16.88	-34.9	-35.6	25.9	0.00e+00	0	42	0	3012558848	42	6137
2026-01-24 04:19:14.02	313.47	16.60	-35.1	-35.8	25.7	0.00e+00	0	42	0	3034578944	42	6263
2026-01-24 04:19:18.06	314.17	16.31	-35.4	-36.2	25.4	0.00e+00	0	42	0	3057647616	42	6572
2026-01-24 04:19:22.09	314.85	16.02	-35.1	-35.8	25.6	0.00e+00	0	42	0	3080716288	44	5588
2026-01-24 04:19:26.13	315.52	15.74	-35.2	-35.8	25.6	0.00e+00	0	42	0	3102736384	44	5571
2026-01-24 04:19:30.17	316.18	15.45	-35.6	-36.3	25.3	0.00e+00	0	42	0	3125805056	44	5939
2026-01-24 04:19:34.21	316.83	15.16	-35.5	-36.2	25.3	0.00e+00	0	42	0	3148873728	44	5875
2026-01-24 04:19:38.24	317.47	14.87	-35.3	-36.1	25.4	0.00e+00	0	42	0	3170893824	44	5790
2026-01-24 04:19:42.28	318.09	14.59	-35.4	-36.1	25.3	0.00e+00	0	42	0	3193962496	44	5765
2026-01-24 04:19:46.32	318.71	14.30	-35.6	-36.2	25.2	0.00e+00	0	42	0	3217031168	44	5890
2026-01-24 04:19:50.35	319.31	14.01	-35.7	-36.4	25.0	0.00e+00	0	42	0	3239051264	44	6025
2026-01-24 04:19:54.40	319.90	13.73	-35.5	-36.1	25.2	0.00e+00	0	42	0	3262119936	44	5814
2026-01-24 04:19:58.44	320.48	13.44	-35.7	-36.3	25.1	0.00e+00	0	42	0	3285188608	44	5917
2026-01-24 04:20:02.47	321.05	13.16	-36.0	-36.7	24.7	0.00e+00	0	42	0	3307208704	44	6179
2026-01-24 04:20:06.51	321.60	12.88	-36.0	-36.7	24.7	0.00e+00	0	42	0	3330277376	44	6177
2026-01-24 04:20:10.55	322.15	12.59	-36.5	-37.3	24.2	0.00e+00	0	42	0	3353346048	44	6644
2026-01-24 04:20:14.59	322.69	12.31	-36.5	-37.3	24.3	0.00e+00	0	42	0	3375366144	44	6654
2026-01-24 04:20:18.63	323.22	12.03	-36.4	-37.1	24.3	0.00e+00	0	42	0	3398434816	44	6518
2026-01-24 04:20:22.67	323.74	11.75	-36.6	-37.2	24.1	0.00e+00	0	42	0	3421503488	44	6599
2026-01-24 04:20:26.71	324.25	11.47	-36.6	-37.3	24.1	0.00e+00	0	41	0	3443523584	44	6692
2026-01-24 04:20:30.75	324.75	11.20	-36.6	-37.2	24.1	0.00e+00	0	41	0	3466592256	44	6570
2026-01-24 04:20:34.80	325.24	10.92	-36.9	-37.7	23.8	0.00e+00	0	41	0	3489660928	46	6191
2026-01-24 04:20:38.84	325.73	10.65	-36.8	-37.5	23.9	0.00e+00	0	41	0	3511681024	46	6051
2026-01-24 04:20:42.88	326.20	10.37	-37.1	-37.8	23.6	0.00e+00	0	41	0	3534749696	46	6299
2026-01-24 04:20:46.92	326.66	10.10	-37.4	-38.1	23.3	0.00e+00	0	41	0	3557818368	46	6474
2026-01-24 04:20:50.95	327.12	9.83	-37.0	-37.7	23.6	0.00e+00	0	41	0	3579838464	46	6183
2026-01-24 04:20:54.99	327.57	9.56	-37.0	-37.8	23.6	0.00e+00	0	41	0	3602907136	46	6267
2026-01-24 04:20:59.03	328.01	9.30	-37.5	-38.4	23.0	0.00e+00	0	41	0	3625975808	46	6693
2026-01-24 04:21:03.07	328.45	9.03	-36.9	-37.6	23.7	0.00e+00	0	41	0	3647995904	48	5440
2026-01-24 04:21:07.11	328.87	8.77	-37.4	-38.1	23.1	0.00e+00	0	41	0	3671064576	48	5792
2026-01-24 04:21:11.15	329.29	8.50	-37.5	-38.3	22.8	0.00e+00	0	41	0	3694133248	48	5957
2026-01-24 04:21:15.19	329.70	8.24	-38.2	-39.1	22.2	0.00e+00	0	41	0	3716153344	48	6526
2026-01-24 04:21:19.23	330.11	7.98	-38.1	-39.0	22.2	0.00e+00	0	41	0	3739222016	48	6435
2026-01-24 04:21:23.27	330.51	7.72	-37.7	-38.4	22.6	0.00e+00	0	41	0	3762290688	48	6001
2026-01-24 04:21:27.31	330.90	7.47	-37.6	-38.3	22.9	0.00e+00	0	41	0	3784310784	48	5933
2026-01-24 04:21:31.35	331.29	7.21	-38.1	-39.0	22.2	0.00e+00	0	41	0	3807379456	48	6422
2026-01-24 04:21:35.39	331.66	6.96	-37.5	-38.3	22.8	0.00e+00	0	41	0	3830448128	48	5932
2026-01-24 04:21:39.43	332.04	6.70	-38.9	-39.7	21.4	0.00e+00	0	41	0	3852468224	50	6215
2026-01-24 04:21:43.47	332.40	6.45	-38.4	-39.3	21.8	0.00e+00	0	41	0	3875536896	48	6637
2026-01-24 04:21:47.51	332.77	6.20	-38.4	-39.3	21.7	0.00e+00	0	41	0	3898605568	48	6664
2026-01-24 04:21:51.55	333.12	5.96	-38.1	-38.9	21.7	0.00e+00	0	41	0	3920625664	48	6348
2026-01-24 04:21:55.58	333.47	5.71	-40.0	-41.1	19.3	0.00e+00	0	41	0	3943694336	52	6486
2026-01-24 04:21:59.62	333.81	5.47	-40.4	-41.6	17.9	0.00e+00	0	41	0	3966763008	54	6152
2026-01-24 04:22:03.66	334.15	5.22	-43.0	-45.0	13.5	1.10e-06	0	41	0	3988783104	58	7252
2026-01-24 04:22:07.70	334.48	4.98	-44.7	-48.1	9.6	1.86e-02	0	41	0	4011851776	60	9218
2026-01-24 04:22:11.74	334.81	4.74	-45.6	-50.6	6.0	1.77e-01	0	41	0	4034920448	60	12244
2026-01-24 04:22:15.77	335.14	4.50	-46.1	-53.4	4.0	8.17e-01	0	41	0	4045406208	60	16874
2026-01-24 04:22:19.81	335.45	4.26	-46.0	-55.6	3.8	8.44e-01	0	41	104	4045406208	60	21797
2026-01-24 04:22:23.85	335.77	4.03	-46.2	-56.8	3.6	8.44e-01	0	41	104	4045406208	60	24971
2026-01-24 04:22:27.88	336.08	3.79	-46.2	-58.1	3.6	8.47e-01	0	41	104	4045406208	60	29087
2026-01-24 04:22:31.92	336.38	3.56	-46.2	-58.2	3.6	8.45e-01	0	41	104	4045406208	60	29363
2026-01-24 04:22:35.96	336.68	3.33	-46.2	-58.3	3.6	8.45e-01	0	41	104	4045406208	60	29552
2026-01-24 04:22:39.99	336.97	3.10	-46.2	-58.2	3.6	8.46e-01	0	41	104	4045406208	60	29550
2026-01-24 04:22:44.03	337.26	2.87	-50.4	-62.5	3.6	8.44e-01	0	41	104	4045406208	60	48309
2026-01-24 04:22:48.07	337.55	2.64	-51.1	-63.2	3.6	8.45e-01	0	41	104	4045406208	60	52245
2026-01-24 04:22:52.11	337.83	2.41	-51.3	-63.3	3.6	8.45e-01	0	41	104	4045406208	60	53157
2026-01-24 04:22:56.15	338.11	2.19	-51.3	-63.5	3.6	8.46e-01	0	41	104	4045406208	60	53794
2026-01-24 04:23:00.18	338.39	1.97	-51.1	-63.2	3.6	8.45e-01	0	41	104	4045406208	60	52336
2026-01-24 04:23:04.22	338.66	1.74	-51.2	-63.4	3.6	8.46e-01	0	41	104	4045406208	60	53232
2026-01-24 04:23:08.26	338.93	1.52	-51.3	-63.4	3.6	8.46e-01	0	42	104	4045406208	60	53367
2026-01-24 04:23:12.30	339.19	1.30	-51.3	-63.5	3.6	8.46e-01	0	41	104	4045406208	60	53784
2026-01-24 04:23:16.34	339.45	1.08	-51.3	-63.4	3.6	8.45e-01	0	41	104	4045406208	60	53402
2026-01-24 04:23:20.38	339.71	0.86	-51.3	-63.4	3.6	8.46e-01	0	41	104	4045406208	60	53663
2026-01-24 04:23:24.42	339.96	0.65	-51.3	-63.4	3.6	8.45e-01	0	41	104	4045406208	60	53607
2026-01-24 04:23:28.46	340.21	0.43	-51.4	-63.5	3.6	8.45e-01	0	41	104	4045406208	60	54051
2026-01-24 04:23:32.50	340.46	0.22	-51.4	-63.5	3.6	8.45e-01	0	41	104	4045406208	60	53843
2026-01-24 04:23:36.53	340.70	0.00	-51.5	-63.6	3.6	8.46e-01	0	41	104	4045406208	60	54752

#Closed at: 2026-01-24 04:23:36
#Recorded file [4045 MB]: D:/lorett/data/35029_260124_160920.dat