passes_logs/2026/01/24/R4.6S_Anadyr/R4.6S_Anadyr__20260124_010038_NOAA_21_JPSS-2_rec.log

#Pass ID: 20260124_010038_NOAA 21 (JPSS-2)
#Satellite: NOAA 21 (JPSS-2)
#Configuration: NOAA-21
#almurnet v.1.7.20251203
#Start time: 2026-01-24 01:00:41

#Version: 2.2.20231116
#Station: R4.6S_Anadyr
#Location: 177.4865 lon 64.73178 lat
#TLE: 1 54234U 22150A   26023.61190495  .00000215  00000+0  12293-3 0  9993
#TLE: 2 54234  98.7508 324.4078 0000700 226.6110 133.5008 14.19538339166032

#Time	Az	El	Level	Level2	SNR	BER	BlckErr	Temp	State	Recorded	gain1	gain2
2026-01-24 01:00:41.14	176.29	0.16	-51.0	-65.9	3.5	1.51e+00	0	39	0	0	60	71656
2026-01-24 01:00:45.18	176.40	0.40	-51.2	-64.0	3.5	1.52e+00	0	40	104	0	60	55545
2026-01-24 01:00:49.21	176.52	0.64	-51.0	-64.0	3.5	1.52e+00	0	41	104	0	60	55406
2026-01-24 01:00:53.25	176.63	0.89	-51.0	-63.9	3.5	1.52e+00	0	41	104	0	60	55040
2026-01-24 01:00:57.29	176.74	1.13	-50.7	-63.8	3.5	1.52e+00	0	41	104	0	60	54253
2026-01-24 01:01:01.33	176.86	1.38	-50.7	-63.5	3.5	1.52e+00	0	41	104	0	60	52503
2026-01-24 01:01:05.37	176.98	1.63	-49.8	-62.6	3.5	1.52e+00	0	41	104	0	60	47154
2026-01-24 01:01:09.41	177.10	1.88	-49.6	-62.5	3.5	1.52e+00	0	41	104	0	60	46559
2026-01-24 01:01:13.45	177.22	2.13	-49.7	-62.4	3.5	1.52e+00	0	41	104	0	60	46359
2026-01-24 01:01:17.48	177.35	2.39	-49.6	-62.4	3.5	1.52e+00	0	41	104	0	60	46160
2026-01-24 01:01:21.52	177.47	2.65	-49.6	-62.3	3.5	1.52e+00	0	41	104	0	60	45520
2026-01-24 01:01:25.55	177.60	2.91	-49.4	-60.0	3.5	1.51e+00	0	41	104	0	60	35231
2026-01-24 01:01:29.60	177.73	3.17	-49.5	-61.4	3.5	1.52e+00	0	41	104	0	60	41312
2026-01-24 01:01:33.64	177.86	3.43	-45.1	-47.4	14.5	5.30e-06	123	41	0	8388608	60	8257
2026-01-24 01:01:37.67	178.00	3.70	-41.3	-42.6	19.0	0.00e+00	123	41	0	20971520	56	5963
2026-01-24 01:01:41.71	178.13	3.97	-42.8	-44.4	16.5	0.00e+00	122	41	0	33554432	56	7368
2026-01-24 01:01:45.75	178.27	4.24	-42.9	-44.5	17.0	0.00e+00	123	41	0	39845888	58	6599
2026-01-24 01:01:49.80	178.41	4.52	-43.0	-44.6	17.7	0.00e+00	121	41	0	52428800	58	6661
2026-01-24 01:01:53.83	178.56	4.80	-42.3	-43.8	17.6	0.00e+00	122	41	0	65011712	58	6078
2026-01-24 01:01:57.87	178.70	5.08	-41.6	-43.0	18.7	0.00e+00	122	41	0	77594624	56	6253
2026-01-24 01:02:01.89	178.85	5.36	-41.3	-42.7	19.2	0.00e+00	121	41	0	90177536	56	5996
2026-01-24 01:02:05.93	179.00	5.65	-40.6	-41.8	20.1	0.00e+00	123	41	0	102760448	54	6114
2026-01-24 01:02:09.97	179.16	5.93	-40.8	-42.1	20.0	0.00e+00	120	41	0	115343360	54	6302
2026-01-24 01:02:14.01	179.31	6.23	-40.4	-41.5	20.3	0.00e+00	122	41	0	127926272	54	5926
2026-01-24 01:02:18.05	179.48	6.52	-39.7	-40.9	21.0	0.00e+00	122	41	0	140509184	52	6148
2026-01-24 01:02:22.08	179.64	6.82	-39.9	-41.0	20.9	0.00e+00	120	41	0	153092096	52	6265
2026-01-24 01:02:26.12	179.80	7.12	-39.6	-40.7	21.1	0.00e+00	123	41	0	165675008	52	6051
2026-01-24 01:02:30.16	179.97	7.43	-39.4	-40.4	21.4	0.00e+00	122	41	0	178257920	52	5857
2026-01-24 01:02:34.20	180.15	7.74	-39.1	-40.1	21.6	0.00e+00	121	41	0	190840832	52	5636
2026-01-24 01:02:38.24	180.32	8.05	-39.1	-40.2	21.7	0.00e+00	120	41	0	203423744	52	5670
2026-01-24 01:02:42.28	180.50	8.37	-38.9	-40.0	21.8	0.00e+00	123	41	0	216006656	52	5536
2026-01-24 01:02:46.32	180.68	8.69	-38.7	-39.8	22.0	0.00e+00	122	41	0	228589568	50	6075
2026-01-24 01:02:50.35	180.87	9.01	-38.7	-39.7	22.2	0.00e+00	122	41	0	242221056	50	6012
2026-01-24 01:02:54.40	181.06	9.34	-38.4	-39.4	22.3	0.00e+00	123	41	0	253755392	50	5835
2026-01-24 01:02:58.44	181.26	9.67	-38.3	-39.3	22.4	0.00e+00	123	41	0	267386880	50	5736
2026-01-24 01:03:02.48	181.46	10.01	-38.2	-39.1	22.6	0.00e+00	120	41	0	279969792	50	5659
2026-01-24 01:03:06.52	181.66	10.35	-38.2	-39.2	22.6	0.00e+00	123	41	0	292552704	50	5715
2026-01-24 01:03:10.56	181.87	10.70	-37.9	-38.8	22.8	0.00e+00	123	41	0	305135616	50	5466
2026-01-24 01:03:14.60	182.08	11.05	-37.7	-38.7	23.0	0.00e+00	123	41	0	317718528	48	6027
2026-01-24 01:03:18.64	182.30	11.40	-37.9	-38.9	22.9	0.00e+00	123	41	0	330301440	48	6141
2026-01-24 01:03:22.69	182.52	11.76	-37.6	-38.6	23.1	0.00e+00	120	41	0	342884352	48	5960
2026-01-24 01:03:26.73	182.75	12.13	-37.5	-38.4	23.2	0.00e+00	123	41	0	355467264	48	5843
2026-01-24 01:03:30.77	182.98	12.50	-37.4	-38.4	23.3	0.00e+00	123	41	0	368050176	48	5805
2026-01-24 01:03:34.81	183.22	12.87	-37.4	-38.4	23.3	0.00e+00	123	41	0	380633088	48	5810
2026-01-24 01:03:38.85	183.46	13.25	-37.4	-38.3	23.4	0.00e+00	123	41	0	393216000	48	5764
2026-01-24 01:03:42.89	183.72	13.64	-37.2	-38.1	23.5	0.00e+00	122	41	0	405798912	48	5659
2026-01-24 01:03:46.93	183.97	14.03	-37.2	-38.1	23.6	0.00e+00	123	41	0	418381824	48	5611
2026-01-24 01:03:50.97	184.24	14.43	-37.2	-38.1	23.6	0.00e+00	122	41	0	430964736	48	5655
2026-01-24 01:03:55.01	184.50	14.83	-37.1	-38.0	23.7	0.00e+00	120	41	0	443547648	48	5584
2026-01-24 01:03:59.05	184.78	15.24	-37.0	-38.0	23.8	0.00e+00	123	41	0	456130560	48	5532
2026-01-24 01:04:03.09	185.07	15.66	-36.9	-37.9	24.0	0.00e+00	122	41	0	468713472	48	5473
2026-01-24 01:04:07.13	185.36	16.08	-37.0	-38.0	23.8	0.00e+00	122	41	0	481296384	48	5531
2026-01-24 01:04:11.16	185.66	16.51	-37.1	-38.0	23.8	0.00e+00	122	41	0	493879296	48	5553
2026-01-24 01:04:15.20	185.97	16.95	-37.3	-38.2	23.6	0.00e+00	122	41	0	506462208	48	5712
2026-01-24 01:04:19.25	186.28	17.39	-37.6	-38.5	23.4	0.00e+00	123	41	0	519045120	48	5921
2026-01-24 01:04:23.29	186.61	17.85	-37.1	-38.1	23.6	0.00e+00	122	41	0	531628032	48	5616
2026-01-24 01:04:27.33	186.94	18.30	-37.3	-38.2	23.6	0.00e+00	123	41	0	544210944	48	5697
2026-01-24 01:04:31.37	187.29	18.77	-37.4	-38.3	23.5	0.00e+00	122	41	0	557842432	48	5780
2026-01-24 01:04:35.41	187.65	19.25	-37.4	-38.4	23.4	0.00e+00	123	41	0	570425344	48	5804
2026-01-24 01:04:39.45	188.01	19.73	-37.2	-38.2	23.5	0.00e+00	123	41	0	583008256	48	5667
2026-01-24 01:04:43.49	188.39	20.22	-36.9	-37.9	23.7	0.00e+00	123	41	0	595591168	48	5471
2026-01-24 01:04:47.53	188.78	20.72	-36.8	-37.7	23.9	0.00e+00	123	41	0	608174080	48	5362
2026-01-24 01:04:51.56	189.18	21.23	-36.7	-37.6	24.0	0.00e+00	122	41	0	620756992	46	5966
2026-01-24 01:04:55.60	189.59	21.75	-36.5	-37.5	24.1	0.00e+00	122	41	0	633339904	46	5872
2026-01-24 01:04:59.64	190.02	22.27	-36.4	-37.3	24.3	0.00e+00	123	41	0	645922816	46	5744
2026-01-24 01:05:03.68	190.47	22.81	-36.0	-36.9	24.8	0.00e+00	122	41	0	658505728	46	5505
2026-01-24 01:05:07.71	190.92	23.35	-36.0	-36.8	24.7	0.00e+00	122	41	0	671088640	46	5466
2026-01-24 01:05:11.75	191.40	23.91	-36.0	-36.9	24.7	0.00e+00	120	41	0	683671552	46	5521
2026-01-24 01:05:15.79	191.89	24.48	-35.8	-36.7	24.9	0.00e+00	123	41	0	696254464	46	5371
2026-01-24 01:05:19.82	192.39	25.05	-35.9	-36.7	24.9	0.00e+00	122	41	0	708837376	44	6040
2026-01-24 01:05:23.87	192.92	25.64	-36.2	-37.1	24.6	0.00e+00	123	41	0	721420288	44	6318
2026-01-24 01:05:27.90	193.46	26.24	-36.4	-37.3	24.5	0.00e+00	122	42	0	734003200	44	6459
2026-01-24 01:05:31.94	194.03	26.84	-36.5	-37.4	24.4	0.00e+00	123	41	0	746586112	44	6531
2026-01-24 01:05:35.98	194.62	27.46	-36.8	-37.7	24.3	0.00e+00	123	41	0	759169024	46	6002
2026-01-24 01:05:40.02	195.23	28.09	-37.1	-38.0	23.9	0.00e+00	123	42	0	771751936	46	6272
2026-01-24 01:05:44.05	195.86	28.73	-37.1	-38.0	23.8	0.00e+00	120	42	0	784334848	46	6258
2026-01-24 01:05:48.09	196.52	29.38	-37.3	-38.3	23.8	0.00e+00	123	41	0	796917760	46	6451
2026-01-24 01:05:52.13	197.20	30.05	-37.4	-38.4	23.5	0.00e+00	122	42	0	809500672	46	6524
2026-01-24 01:05:56.17	197.92	30.72	-37.3	-38.2	23.7	0.00e+00	123	41	0	822083584	46	6388
2026-01-24 01:06:00.21	198.66	31.41	-37.1	-38.1	24.0	0.00e+00	122	42	0	834666496	46	6278
2026-01-24 01:06:04.25	199.44	32.10	-37.0	-37.9	24.1	0.00e+00	122	42	0	847249408	46	6149
2026-01-24 01:06:08.29	200.25	32.81	-37.0	-37.9	24.2	0.00e+00	123	42	0	859832320	46	6143
2026-01-24 01:06:12.34	201.09	33.53	-37.6	-38.5	23.7	0.00e+00	122	42	0	872415232	46	6600
2026-01-24 01:06:16.38	201.98	34.26	-38.0	-38.9	23.4	0.00e+00	121	42	0	884998144	48	6156
2026-01-24 01:06:20.41	202.89	34.99	-38.4	-39.4	23.0	0.00e+00	123	42	0	898629632	48	6526
2026-01-24 01:06:24.45	203.86	35.74	-38.9	-39.9	22.6	0.00e+00	123	42	0	911212544	50	6204
2026-01-24 01:06:28.49	204.86	36.49	-39.2	-40.3	22.3	0.00e+00	123	42	0	923795456	50	6428
2026-01-24 01:06:32.53	205.92	37.25	-39.2	-40.2	22.4	0.00e+00	120	42	0	936378368	50	6395
2026-01-24 01:06:36.57	207.02	38.02	-38.6	-39.6	22.8	0.00e+00	120	42	0	948961280	50	5981
2026-01-24 01:06:40.61	208.18	38.80	-39.0	-40.0	22.6	0.00e+00	123	42	0	961544192	50	6236
2026-01-24 01:06:44.65	209.39	39.57	-38.8	-39.7	22.7	0.00e+00	122	42	0	974127104	50	6058
2026-01-24 01:06:48.69	210.66	40.35	-39.2	-40.3	22.2	0.00e+00	122	42	0	986710016	50	6447
2026-01-24 01:06:52.73	212.00	41.14	-39.5	-40.5	22.1	0.00e+00	122	42	0	999292928	50	6632
2026-01-24 01:06:56.77	213.39	41.92	-39.8	-40.9	21.7	0.00e+00	122	42	0	1011875840	52	6135
2026-01-24 01:07:00.81	214.86	42.69	-39.6	-40.7	21.9	0.00e+00	122	42	0	1024458752	52	5999
2026-01-24 01:07:04.86	216.40	43.47	-40.5	-41.6	21.2	0.00e+00	122	42	0	1037041664	52	6718
2026-01-24 01:07:08.90	218.01	44.23	-39.9	-41.0	21.7	0.00e+00	123	42	0	1049624576	52	6246
2026-01-24 01:07:12.93	219.69	44.98	-40.2	-41.3	21.4	0.00e+00	123	42	0	1062207488	52	6473
2026-01-24 01:07:16.97	221.46	45.72	-40.2	-41.2	21.5	0.00e+00	123	42	0	1074790400	52	6415
2026-01-24 01:07:21.00	223.31	46.44	-40.1	-41.2	21.6	0.00e+00	123	42	0	1087373312	52	6398
2026-01-24 01:07:25.04	225.25	47.14	-39.7	-40.7	21.8	0.00e+00	122	42	0	1099956224	52	6064
2026-01-24 01:07:29.08	227.27	47.82	-39.5	-40.5	22.2	0.00e+00	120	42	0	1112539136	52	5902
2026-01-24 01:07:33.12	229.38	48.46	-39.7	-40.7	21.9	0.00e+00	123	42	0	1125122048	52	6064
2026-01-24 01:07:37.16	231.57	49.08	-39.6	-40.6	22.1	0.00e+00	123	42	0	1137704960	52	5974
2026-01-24 01:07:41.20	233.85	49.65	-39.1	-40.1	22.2	0.00e+00	123	42	0	1150287872	52	5623
2026-01-24 01:07:45.24	236.22	50.18	-39.8	-40.9	21.9	0.00e+00	122	42	0	1162870784	52	6146
2026-01-24 01:07:49.28	238.66	50.67	-39.2	-40.2	22.4	0.00e+00	123	42	0	1175453696	52	5684
2026-01-24 01:07:53.32	241.18	51.10	-38.6	-39.6	22.9	0.00e+00	123	42	0	1188036608	50	5943
2026-01-24 01:07:57.36	243.77	51.48	-38.8	-39.8	22.5	0.00e+00	123	42	0	1200619520	50	6081
2026-01-24 01:08:01.40	246.41	51.80	-38.4	-39.4	22.8	0.00e+00	122	42	0	1213202432	50	5812
2026-01-24 01:08:05.44	249.11	52.06	-38.1	-39.0	23.0	0.00e+00	123	42	0	1225785344	50	5594
2026-01-24 01:08:09.47	251.85	52.25	-39.1	-40.1	22.5	0.00e+00	123	42	0	1239416832	50	6302
2026-01-24 01:08:13.51	254.62	52.38	-38.6	-39.5	23.0	0.00e+00	122	42	0	1251999744	50	5913
2026-01-24 01:08:17.55	257.40	52.44	-38.4	-39.4	23.0	0.00e+00	122	42	0	1264582656	50	5813
2026-01-24 01:08:21.60	260.20	52.43	-38.1	-39.1	23.4	0.00e+00	122	42	0	1277165568	48	6325
2026-01-24 01:08:25.63	262.97	52.35	-38.0	-38.9	23.3	0.00e+00	122	42	0	1289748480	48	6204
2026-01-24 01:08:29.67	265.73	52.20	-38.7	-39.7	22.7	0.00e+00	122	42	0	1302331392	50	6036
2026-01-24 01:08:33.70	268.45	51.99	-38.6	-39.6	22.7	0.00e+00	122	42	0	1314914304	50	5943
2026-01-24 01:08:37.74	271.14	51.71	-39.5	-40.5	22.2	0.00e+00	120	42	0	1327497216	52	5868
2026-01-24 01:08:41.78	273.77	51.38	-38.7	-39.6	23.1	0.00e+00	122	42	0	1340080128	50	5987
2026-01-24 01:08:45.83	276.34	50.98	-38.7	-39.7	22.7	0.00e+00	123	42	0	1352663040	50	6011
2026-01-24 01:08:49.87	278.83	50.53	-39.4	-40.5	22.4	0.00e+00	123	42	0	1365245952	50	6578
2026-01-24 01:08:53.91	281.25	50.04	-39.8	-40.9	21.7	0.00e+00	122	42	0	1377828864	52	6164
2026-01-24 01:08:57.95	283.59	49.49	-39.2	-40.3	22.3	0.00e+00	122	42	0	1390411776	52	5733
2026-01-24 01:09:01.99	285.84	48.91	-39.6	-40.6	22.0	0.00e+00	122	42	0	1402994688	52	5973
2026-01-24 01:09:06.03	288.01	48.29	-40.1	-41.1	21.8	0.00e+00	123	42	0	1415577600	52	6344
2026-01-24 01:09:10.07	290.09	47.64	-39.9	-40.9	21.7	0.00e+00	123	42	0	1428160512	52	6189
2026-01-24 01:09:14.11	292.08	46.96	-40.2	-41.2	21.8	0.00e+00	120	42	0	1440743424	52	6418
2026-01-24 01:09:18.15	293.99	46.25	-40.3	-41.3	21.6	0.00e+00	121	42	0	1453326336	52	6488
2026-01-24 01:09:22.19	295.81	45.53	-39.4	-40.4	22.3	0.00e+00	122	42	0	1465909248	52	5858
2026-01-24 01:09:26.24	297.56	44.79	-40.0	-41.1	21.6	0.00e+00	123	42	0	1478492160	52	6345
2026-01-24 01:09:30.28	299.22	44.03	-40.1	-41.1	21.8	0.00e+00	122	42	0	1491075072	52	6313
2026-01-24 01:09:34.31	300.80	43.27	-41.4	-42.7	20.4	0.00e+00	122	42	0	1503657984	54	6749
2026-01-24 01:09:38.35	302.31	42.50	-39.8	-40.9	22.0	0.00e+00	120	42	0	1516240896	54	5484
2026-01-24 01:09:42.39	303.76	41.72	-39.9	-41.0	21.9	0.00e+00	123	42	0	1528823808	52	6227
2026-01-24 01:09:46.43	305.13	40.95	-39.1	-40.2	22.6	0.00e+00	123	42	0	1541406720	52	5662
2026-01-24 01:09:50.47	306.44	40.17	-40.7	-41.9	21.2	0.00e+00	123	42	0	1555038208	52	6904
2026-01-24 01:09:54.51	307.69	39.39	-40.1	-41.2	21.5	0.00e+00	123	42	0	1567621120	54	5665
2026-01-24 01:09:58.54	308.89	38.62	-39.7	-40.8	22.1	0.00e+00	120	42	0	1580204032	52	6095
2026-01-24 01:10:02.58	310.02	37.85	-39.4	-40.4	22.1	0.00e+00	122	42	0	1592786944	52	5820
2026-01-24 01:10:06.62	311.11	37.09	-39.2	-40.2	22.6	0.00e+00	123	42	0	1605369856	52	5712
2026-01-24 01:10:10.66	312.15	36.33	-38.5	-39.5	22.9	0.00e+00	123	42	0	1617952768	50	5881
2026-01-24 01:10:14.71	313.15	35.58	-39.0	-40.0	22.7	0.00e+00	123	42	0	1630535680	50	6226
2026-01-24 01:10:18.75	314.10	34.84	-38.9	-39.9	22.8	0.00e+00	123	42	0	1643118592	50	6187
2026-01-24 01:10:22.79	315.01	34.11	-40.3	-41.3	21.7	0.00e+00	122	42	0	1655701504	52	6492
2026-01-24 01:10:26.83	315.88	33.39	-38.7	-39.6	23.1	0.00e+00	123	42	0	1668284416	50	5975
2026-01-24 01:10:30.87	316.71	32.68	-38.3	-39.3	23.3	0.00e+00	123	42	0	1680867328	50	5758
2026-01-24 01:10:34.91	317.51	31.98	-37.6	-38.5	23.9	0.00e+00	123	42	0	1693450240	48	5917
2026-01-24 01:10:38.94	318.27	31.29	-37.3	-38.2	24.0	0.00e+00	123	42	0	1706033152	48	5706
2026-01-24 01:10:42.98	319.01	30.61	-37.4	-38.4	24.0	0.00e+00	123	42	0	1718616064	48	5792
2026-01-24 01:10:47.03	319.71	29.94	-36.9	-37.8	24.4	0.00e+00	122	42	0	1731198976	48	5420
2026-01-24 01:10:51.06	320.39	29.29	-37.2	-38.1	24.2	0.00e+00	123	42	0	1743781888	48	5634
2026-01-24 01:10:55.10	321.04	28.64	-37.6	-38.5	23.9	0.00e+00	122	42	0	1756364800	48	5920
2026-01-24 01:10:59.14	321.67	28.01	-37.3	-38.2	24.2	0.00e+00	122	42	0	1768947712	48	5696
2026-01-24 01:11:03.18	322.27	27.38	-37.0	-37.9	24.3	0.00e+00	122	42	0	1781530624	48	5516
2026-01-24 01:11:07.22	322.85	26.77	-36.8	-37.7	24.5	0.00e+00	122	42	0	1794113536	48	5360
2026-01-24 01:11:11.26	323.42	26.17	-36.6	-37.5	24.6	0.00e+00	122	42	0	1806696448	46	5885
2026-01-24 01:11:15.30	323.96	25.58	-36.6	-37.5	24.5	0.00e+00	123	42	0	1819279360	46	5893
2026-01-24 01:11:19.34	324.48	25.00	-36.9	-37.7	24.4	0.00e+00	123	42	0	1831862272	46	6061
2026-01-24 01:11:23.38	324.98	24.43	-37.1	-38.0	24.3	0.00e+00	122	42	0	1844445184	46	6244
2026-01-24 01:11:27.42	325.47	23.87	-37.2	-38.2	24.1	0.00e+00	123	42	0	1857028096	46	6367
2026-01-24 01:11:31.46	325.94	23.31	-37.4	-38.4	23.7	0.00e+00	120	42	0	1870659584	46	6512
2026-01-24 01:11:35.50	326.39	22.77	-37.6	-38.6	23.7	0.00e+00	122	42	0	1882193920	46	6672
2026-01-24 01:11:39.54	326.83	22.24	-37.4	-38.3	23.8	0.00e+00	122	42	0	1895825408	46	6486
2026-01-24 01:11:43.58	327.26	21.72	-37.3	-38.3	23.8	0.00e+00	123	42	0	1908408320	46	6431
2026-01-24 01:11:47.61	327.67	21.21	-37.1	-38.0	24.0	0.00e+00	121	42	0	1920991232	46	6267
2026-01-24 01:11:51.65	328.07	20.70	-37.2	-38.1	24.0	0.00e+00	123	42	0	1933574144	46	6334
2026-01-24 01:11:55.70	328.46	20.21	-37.1	-38.0	24.2	0.00e+00	123	42	0	1946157056	46	6265
2026-01-24 01:11:59.73	328.83	19.72	-37.3	-38.2	24.0	0.00e+00	121	42	0	1958739968	46	6400
2026-01-24 01:12:03.77	329.20	19.24	-37.6	-38.5	23.7	0.00e+00	122	42	0	1971322880	46	6623
2026-01-24 01:12:07.82	329.55	18.77	-37.4	-38.4	23.7	0.00e+00	123	42	0	1983905792	46	6506
2026-01-24 01:12:11.85	329.89	18.31	-37.5	-38.4	23.6	0.00e+00	122	42	0	1996488704	46	6558
2026-01-24 01:12:15.89	330.23	17.86	-37.3	-38.2	23.6	0.00e+00	122	42	0	2009071616	46	6398
2026-01-24 01:12:19.93	330.55	17.41	-37.4	-38.4	23.6	0.00e+00	123	42	0	2021654528	46	6520
2026-01-24 01:12:23.97	330.87	16.97	-37.1	-38.0	24.0	0.00e+00	122	42	0	2034237440	46	6270
2026-01-24 01:12:28.01	331.18	16.53	-37.2	-38.2	23.9	0.00e+00	123	42	0	2046820352	46	6351
2026-01-24 01:12:32.05	331.48	16.11	-37.2	-38.1	23.9	0.00e+00	123	42	0	2059403264	46	6350
2026-01-24 01:12:36.09	331.77	15.69	-37.4	-38.4	23.7	0.00e+00	123	42	0	2071986176	46	6500
2026-01-24 01:12:40.13	332.05	15.28	-37.7	-38.7	23.5	0.00e+00	120	42	0	2084569088	48	6017
2026-01-24 01:12:44.17	332.33	14.87	-38.0	-38.9	23.3	0.00e+00	120	42	0	2097152000	48	6178
2026-01-24 01:12:48.22	332.60	14.47	-38.3	-39.2	23.1	0.00e+00	123	42	0	2109734912	48	6408
2026-01-24 01:12:52.26	332.86	14.07	-38.2	-39.2	22.9	0.00e+00	120	42	0	2122317824	48	6404
2026-01-24 01:12:56.30	333.12	13.68	-38.3	-39.3	22.8	0.00e+00	123	42	0	2134900736	48	6468
2026-01-24 01:13:00.34	333.37	13.30	-38.4	-39.4	22.7	0.00e+00	123	42	0	2147483648	48	6534
2026-01-24 01:13:04.38	333.62	12.92	-38.3	-39.3	22.8	0.00e+00	127	42	0	2160066560	48	6484
2026-01-24 01:13:08.42	333.86	12.55	-38.5	-39.5	22.6	0.00e+00	122	42	0	2172649472	48	6577
2026-01-24 01:13:12.46	334.09	12.18	-38.4	-39.4	22.7	0.00e+00	123	42	0	2186280960	48	6529
2026-01-24 01:13:16.50	334.32	11.82	-38.7	-39.7	22.4	0.00e+00	122	42	0	2198863872	50	6009
2026-01-24 01:13:20.55	334.54	11.46	-38.7	-39.7	22.4	0.00e+00	123	42	0	2211446784	50	6005
2026-01-24 01:13:24.59	334.76	11.11	-38.8	-39.8	22.3	0.00e+00	123	42	0	2224029696	50	6091
2026-01-24 01:13:28.62	334.98	10.77	-38.9	-39.9	22.2	0.00e+00	121	42	0	2236612608	50	6166
2026-01-24 01:13:32.66	335.19	10.42	-38.9	-39.9	22.2	0.00e+00	123	42	0	2249195520	50	6184
2026-01-24 01:13:36.70	335.39	10.08	-39.0	-40.0	22.1	0.00e+00	120	42	0	2261778432	50	6232
2026-01-24 01:13:40.74	335.59	9.75	-39.0	-40.0	22.1	0.00e+00	120	42	0	2274361344	50	6267
2026-01-24 01:13:44.78	335.79	9.42	-39.0	-40.0	22.1	0.00e+00	120	42	0	2286944256	50	6244
2026-01-24 01:13:48.81	335.98	9.09	-39.0	-40.1	22.0	0.00e+00	123	42	0	2299527168	50	6298
2026-01-24 01:13:52.85	336.17	8.77	-39.0	-40.1	22.0	0.00e+00	120	42	0	2312110080	50	6293
2026-01-24 01:13:56.89	336.36	8.45	-39.0	-40.0	21.9	0.00e+00	123	42	0	2324692992	50	6261
2026-01-24 01:14:00.93	336.54	8.14	-39.2	-40.3	21.8	0.00e+00	120	42	0	2337275904	50	6448
2026-01-24 01:14:04.97	336.72	7.83	-39.5	-40.6	21.5	0.00e+00	123	42	0	2349858816	50	6653
2026-01-24 01:14:09.00	336.89	7.52	-39.6	-40.7	21.4	0.00e+00	120	43	0	2362441728	50	6747
2026-01-24 01:14:13.03	337.06	7.22	-39.8	-40.9	21.2	0.00e+00	123	42	0	2375024640	52	6160
2026-01-24 01:14:17.07	337.23	6.92	-39.9	-41.0	21.0	0.00e+00	122	42	0	2387607552	52	6250
2026-01-24 01:14:21.11	337.40	6.62	-39.8	-40.9	21.2	0.00e+00	120	42	0	2400190464	52	6179
2026-01-24 01:14:25.15	337.56	6.33	-39.9	-41.0	21.0	0.00e+00	123	42	0	2412773376	52	6235
2026-01-24 01:14:29.18	337.72	6.04	-39.9	-41.1	20.8	0.00e+00	122	42	0	2425356288	52	6301
2026-01-24 01:14:33.23	337.87	5.75	-40.4	-41.6	20.1	0.00e+00	123	42	0	2437939200	52	6702
2026-01-24 01:14:37.26	338.03	5.47	-41.1	-42.5	18.9	0.00e+00	123	42	0	2450522112	54	6577
2026-01-24 01:14:41.31	338.18	5.18	-42.5	-44.2	17.2	0.00e+00	122	42	0	2463105024	56	7154
2026-01-24 01:14:45.35	338.33	4.91	-43.6	-45.8	14.9	0.00e+00	123	42	0	2475687936	58	7704
2026-01-24 01:14:49.39	338.48	4.63	-44.9	-48.1	12.0	2.99e-04	123	42	0	2488270848	60	8881
2026-01-24 01:14:53.43	338.62	4.36	-45.9	-50.8	8.1	5.67e-02	122	42	0	2500853760	60	12237
2026-01-24 01:14:57.47	338.76	4.09	-46.3	-55.0	4.6	1.03e+00	123	42	104	2508193792	60	19695
2026-01-24 01:15:01.51	338.90	3.82	-46.2	-58.8	3.5	1.52e+00	0	42	104	2508193792	60	30525
2026-01-24 01:15:05.54	339.04	3.55	-46.3	-58.7	3.5	1.52e+00	0	43	104	2508193792	60	30310
2026-01-24 01:15:09.58	339.18	3.29	-46.2	-59.1	3.5	1.52e+00	0	42	104	2508193792	60	31811
2026-01-24 01:15:13.61	339.31	3.03	-46.4	-59.3	3.5	1.52e+00	0	42	104	2508193792	60	32315
2026-01-24 01:15:17.65	339.44	2.77	-50.7	-63.6	3.5	1.52e+00	0	42	104	2508193792	60	52938
2026-01-24 01:15:21.69	339.57	2.51	-51.2	-64.1	3.5	1.52e+00	0	42	104	2508193792	60	56143
2026-01-24 01:15:25.73	339.70	2.26	-51.4	-64.3	3.5	1.52e+00	0	42	104	2508193792	60	57434
2026-01-24 01:15:29.77	339.82	2.01	-51.3	-64.2	3.5	1.52e+00	0	42	104	2508193792	60	57244
2026-01-24 01:15:33.81	339.95	1.76	-51.3	-64.2	3.5	1.52e+00	0	43	104	2508193792	60	56843
2026-01-24 01:15:37.85	340.07	1.51	-51.3	-64.2	3.5	1.52e+00	0	43	104	2508193792	60	56751
2026-01-24 01:15:41.89	340.19	1.27	-51.4	-64.3	3.5	1.52e+00	0	42	104	2508193792	60	57389
2026-01-24 01:15:45.93	340.31	1.02	-51.4	-64.2	3.5	1.52e+00	0	43	104	2508193792	60	57078
2026-01-24 01:15:49.97	340.43	0.78	-51.3	-64.2	3.5	1.51e+00	0	43	104	2508193792	60	56991
2026-01-24 01:15:54.01	340.54	0.54	-51.3	-64.2	3.5	1.52e+00	0	43	104	2508193792	60	56874
2026-01-24 01:15:58.05	340.66	0.30	-51.3	-64.2	3.5	1.52e+00	0	43	104	2508193792	60	57009
2026-01-24 01:16:02.09	340.77	0.07	-51.3	-64.2	3.5	1.52e+00	0	42	104	2508193792	60	57108

#Closed at: 2026-01-24 01:16:04
#Recorded file [2508 MB]: D:/lorett/data/35029_260124_130041.dat