passes_logs/2026/01/24/R4.6S_Anadyr/R4.6S_Anadyr__20260124_022739_FENGYUN_3D_rec.log

#Pass ID: 20260124_022739_FENGYUN 3D
#Satellite: FENGYUN 3D
#Configuration: FENGYUN 3D
#almurnet v.1.7.20251203
#Start time: 2026-01-24 02:27:40

#Version: 2.2.20231116
#Station: R4.6S_Anadyr
#Location: 177.4865 lon 64.73178 lat
#TLE: 1 43010U 17072A   26023.60174628  .00000324  00000+0  17481-3 0  9994
#TLE: 2 43010  98.9958 355.5514 0002482  93.7422 266.4037 14.19699955424476

#Time	Az	El	Level	Level2	SNR	BER	BlckErr	Temp	State	Recorded	gain1	gain2
2026-01-24 02:27:40.54	160.70	0.06	-51.4	-66.4	3.5	1.51e+00	0	39	0	0	60	75212
2026-01-24 02:27:44.58	160.74	0.30	-51.4	-63.5	3.6	8.45e-01	0	40	104	0	60	54061
2026-01-24 02:27:48.62	160.78	0.54	-51.2	-63.4	3.6	8.44e-01	0	40	104	0	60	53247
2026-01-24 02:27:52.66	160.82	0.79	-51.2	-63.2	3.6	8.45e-01	0	40	104	0	60	52512
2026-01-24 02:27:56.69	160.86	1.04	-50.8	-63.0	3.6	8.46e-01	0	40	104	0	60	51178
2026-01-24 02:28:00.73	160.90	1.29	-49.4	-61.5	3.6	8.46e-01	0	40	104	0	60	42823
2026-01-24 02:28:04.77	160.94	1.55	-49.6	-61.3	3.6	8.45e-01	0	40	104	0	60	42101
2026-01-24 02:28:08.81	160.98	1.80	-49.6	-61.3	3.6	8.45e-01	0	40	104	0	60	42125
2026-01-24 02:28:12.85	161.02	2.06	-49.7	-61.8	3.6	8.45e-01	0	40	104	0	60	44478
2026-01-24 02:28:16.89	161.06	2.32	-49.6	-61.5	3.6	8.46e-01	0	40	104	0	60	42719
2026-01-24 02:28:20.92	161.10	2.58	-49.3	-58.3	3.7	8.42e-01	0	40	104	0	60	29664
2026-01-24 02:28:24.97	161.15	2.85	-49.5	-61.0	3.6	8.46e-01	0	41	104	0	60	40675
2026-01-24 02:28:29.01	161.19	3.12	-48.1	-52.6	7.3	1.43e-01	0	40	0	7340032	60	15450
2026-01-24 02:28:33.04	161.24	3.39	-43.9	-45.6	15.6	1.10e-06	0	41	0	30408704	60	6860
2026-01-24 02:28:37.08	161.28	3.66	-41.8	-43.0	17.8	0.00e+00	0	41	0	52428800	56	6394
2026-01-24 02:28:41.12	161.33	3.94	-49.3	-59.3	3.6	8.14e-01	0	41	104	61865984	60	33277
2026-01-24 02:28:45.16	161.37	4.22	-42.5	-43.7	17.0	0.00e+00	0	41	0	68157440	60	5560
2026-01-24 02:28:49.20	161.42	4.50	-42.0	-43.2	17.7	0.00e+00	0	41	0	91226112	56	6596
2026-01-24 02:28:53.24	161.47	4.79	-40.3	-41.2	19.3	0.00e+00	0	41	0	113246208	54	5884
2026-01-24 02:28:57.28	161.51	5.07	-40.4	-41.4	19.4	0.00e+00	0	41	0	136314880	54	6020
2026-01-24 02:29:01.30	161.56	5.36	-39.8	-40.7	20.4	0.00e+00	0	41	0	159383552	52	6239
2026-01-24 02:29:05.34	161.61	5.66	-39.5	-40.4	20.8	0.00e+00	0	41	0	181403648	52	6004
2026-01-24 02:29:09.38	161.66	5.96	-38.6	-39.4	21.5	0.00e+00	0	41	0	204472320	50	6031
2026-01-24 02:29:13.41	161.71	6.26	-37.9	-38.7	22.4	0.00e+00	0	41	0	227540992	48	6195
2026-01-24 02:29:17.45	161.77	6.56	-37.4	-38.2	22.9	0.00e+00	0	41	0	249561088	48	5838
2026-01-24 02:29:21.49	161.82	6.87	-37.4	-38.1	23.0	0.00e+00	0	41	0	272629760	48	5815
2026-01-24 02:29:25.53	161.87	7.18	-37.3	-38.1	22.9	0.00e+00	0	41	0	295698432	48	5804
2026-01-24 02:29:29.57	161.93	7.50	-37.2	-37.9	23.2	0.00e+00	0	41	0	317718528	48	5647
2026-01-24 02:29:33.60	161.98	7.82	-37.0	-37.7	23.5	0.00e+00	0	41	0	340787200	46	6226
2026-01-24 02:29:37.64	162.04	8.14	-36.7	-37.4	23.6	0.00e+00	0	41	0	362807296	46	6005
2026-01-24 02:29:41.68	162.10	8.47	-36.9	-37.7	23.5	0.00e+00	0	41	0	385875968	46	6183
2026-01-24 02:29:45.72	162.15	8.80	-37.3	-38.0	23.2	0.00e+00	0	41	0	408944640	46	6457
2026-01-24 02:29:49.76	162.21	9.14	-37.1	-37.8	23.5	0.00e+00	0	41	0	432013312	46	6270
2026-01-24 02:29:53.80	162.27	9.48	-36.8	-37.6	23.6	0.00e+00	0	41	0	454033408	46	6110
2026-01-24 02:29:57.84	162.33	9.83	-36.8	-37.5	23.7	0.00e+00	0	41	0	477102080	46	6080
2026-01-24 02:30:01.88	162.40	10.18	-36.4	-37.2	24.1	0.00e+00	0	41	0	500170752	46	5835
2026-01-24 02:30:05.92	162.46	10.54	-36.3	-37.0	24.1	0.00e+00	0	41	0	522190848	46	5735
2026-01-24 02:30:09.96	162.53	10.90	-36.4	-37.1	24.0	0.00e+00	0	41	0	545259520	46	5812
2026-01-24 02:30:14.00	162.59	11.27	-36.5	-37.2	24.1	0.00e+00	0	41	0	567279616	46	5886
2026-01-24 02:30:18.04	162.66	11.64	-36.2	-36.9	24.3	0.00e+00	0	41	0	590348288	46	5675
2026-01-24 02:30:22.07	162.73	12.02	-36.2	-36.9	24.5	0.00e+00	0	41	0	613416960	46	5639
2026-01-24 02:30:26.12	162.80	12.40	-36.4	-37.1	24.2	0.00e+00	0	41	0	636485632	46	5767
2026-01-24 02:30:30.16	162.87	12.79	-36.5	-37.2	24.2	0.00e+00	0	41	0	658505728	46	5871
2026-01-24 02:30:34.19	162.95	13.19	-36.2	-36.9	24.4	0.00e+00	0	41	0	681574400	46	5648
2026-01-24 02:30:38.23	163.02	13.59	-36.0	-36.6	24.6	0.00e+00	0	41	0	704643072	44	6154
2026-01-24 02:30:42.27	163.10	14.00	-35.8	-36.5	24.9	0.00e+00	0	41	0	726663168	44	6049
2026-01-24 02:30:46.31	163.18	14.42	-35.4	-36.1	25.1	0.00e+00	0	41	0	749731840	44	5783
2026-01-24 02:30:50.35	163.26	14.85	-35.4	-36.1	25.2	0.00e+00	0	41	0	771751936	44	5768
2026-01-24 02:30:54.39	163.34	15.28	-35.0	-35.7	25.6	0.00e+00	0	41	0	794820608	44	5515
2026-01-24 02:30:58.42	163.43	15.72	-35.0	-35.6	25.6	0.00e+00	0	41	0	817889280	44	5501
2026-01-24 02:31:02.46	163.51	16.17	-34.8	-35.4	25.8	0.00e+00	0	41	0	840957952	44	5341
2026-01-24 02:31:06.50	163.60	16.62	-34.5	-35.1	26.1	0.00e+00	0	41	0	862978048	42	5802
2026-01-24 02:31:10.54	163.70	17.09	-34.6	-35.2	25.9	0.00e+00	0	41	0	886046720	42	5877
2026-01-24 02:31:14.58	163.79	17.56	-34.2	-34.9	26.3	0.00e+00	0	41	0	909115392	42	5650
2026-01-24 02:31:18.62	163.89	18.04	-34.3	-34.9	26.3	0.00e+00	0	41	0	931135488	42	5678
2026-01-24 02:31:22.66	163.99	18.54	-34.1	-34.8	26.4	0.00e+00	0	41	0	954204160	42	5576
2026-01-24 02:31:26.70	164.09	19.04	-34.3	-34.9	26.4	0.00e+00	0	41	0	977272832	42	5687
2026-01-24 02:31:30.74	164.19	19.55	-33.9	-34.5	26.7	0.00e+00	0	41	0	999292928	42	5398
2026-01-24 02:31:34.78	164.30	20.08	-33.9	-34.5	26.8	0.00e+00	0	41	0	1022361600	42	5427
2026-01-24 02:31:38.82	164.41	20.61	-33.5	-34.1	27.0	0.00e+00	0	41	0	1045430272	40	5806
2026-01-24 02:31:42.86	164.53	21.16	-33.7	-34.3	26.9	0.00e+00	0	41	0	1067450368	40	5910
2026-01-24 02:31:46.90	164.65	21.72	-33.5	-34.1	27.0	0.00e+00	0	41	0	1090519040	40	5812
2026-01-24 02:31:50.94	164.77	22.29	-33.4	-34.0	27.2	0.00e+00	0	41	0	1113587712	40	5712
2026-01-24 02:31:54.98	164.90	22.88	-32.9	-33.6	27.5	0.00e+00	0	41	0	1135607808	40	5444
2026-01-24 02:31:59.02	165.03	23.47	-33.0	-33.7	27.5	0.00e+00	0	41	0	1158676480	40	5503
2026-01-24 02:32:03.05	165.16	24.08	-33.0	-33.6	27.5	0.00e+00	0	41	0	1180696576	40	5499
2026-01-24 02:32:07.09	165.30	24.71	-33.3	-33.9	27.3	0.00e+00	0	41	0	1203765248	40	5661
2026-01-24 02:32:11.13	165.45	25.35	-33.2	-33.8	27.4	0.00e+00	0	41	0	1226833920	40	5598
2026-01-24 02:32:15.17	165.60	26.01	-32.7	-33.4	27.6	0.00e+00	0	41	0	1249902592	38	5965
2026-01-24 02:32:19.21	165.76	26.68	-32.7	-33.3	27.7	0.00e+00	0	42	0	1271922688	38	5932
2026-01-24 02:32:23.24	165.92	27.37	-32.8	-33.4	27.7	0.00e+00	0	41	0	1294991360	38	5987
2026-01-24 02:32:27.28	166.09	28.08	-32.8	-33.4	27.7	0.00e+00	0	41	0	1318060032	38	6011
2026-01-24 02:32:31.32	166.27	28.81	-32.5	-33.1	28.0	0.00e+00	0	41	0	1340080128	38	5794
2026-01-24 02:32:35.36	166.45	29.55	-32.7	-33.4	27.7	0.00e+00	0	41	0	1363148800	38	5976
2026-01-24 02:32:39.40	166.64	30.32	-32.7	-33.3	27.8	0.00e+00	0	42	0	1385168896	38	5947
2026-01-24 02:32:43.44	166.85	31.11	-32.5	-33.1	28.0	0.00e+00	0	41	0	1408237568	38	5775
2026-01-24 02:32:47.48	167.06	31.92	-32.6	-33.2	27.9	0.00e+00	0	41	0	1431306240	38	5851
2026-01-24 02:32:51.52	167.28	32.75	-32.5	-33.1	28.0	0.00e+00	0	42	0	1454374912	38	5796
2026-01-24 02:32:55.56	167.51	33.60	-32.0	-32.6	28.4	0.00e+00	0	42	0	1476395008	38	5464
2026-01-24 02:32:59.60	167.75	34.48	-32.0	-32.6	28.3	0.00e+00	0	41	0	1499463680	36	6143
2026-01-24 02:33:03.64	168.01	35.38	-32.4	-33.1	28.1	0.00e+00	0	42	0	1522532352	36	6475
2026-01-24 02:33:07.68	168.28	36.31	-32.2	-32.8	28.2	0.00e+00	0	42	0	1544552448	36	6299
2026-01-24 02:33:11.72	168.57	37.26	-31.9	-32.5	28.4	0.00e+00	0	41	0	1567621120	36	6076
2026-01-24 02:33:15.76	168.87	38.24	-32.1	-32.7	28.4	0.00e+00	0	42	0	1590689792	36	6234
2026-01-24 02:33:19.80	169.19	39.25	-32.4	-33.0	28.1	0.00e+00	0	42	0	1612709888	36	6423
2026-01-24 02:33:23.84	169.53	40.29	-32.4	-32.9	28.1	0.00e+00	0	42	0	1635778560	36	6371
2026-01-24 02:33:27.88	169.89	41.36	-32.8	-33.4	27.7	0.00e+00	0	42	0	1658847232	38	5988
2026-01-24 02:33:31.92	170.28	42.46	-32.6	-33.2	27.9	0.00e+00	0	42	0	1680867328	38	5888
2026-01-24 02:33:35.96	170.69	43.60	-32.4	-33.0	28.2	0.00e+00	0	42	0	1703936000	38	5704
2026-01-24 02:33:39.99	171.13	44.76	-32.6	-33.1	28.0	0.00e+00	0	42	0	1727004672	38	5827
2026-01-24 02:33:44.03	171.61	45.96	-33.1	-33.7	27.6	0.00e+00	0	42	0	1749024768	38	6215
2026-01-24 02:33:48.07	172.12	47.19	-32.2	-32.8	28.2	0.00e+00	0	42	0	1772093440	38	5594
2026-01-24 02:33:52.11	172.67	48.46	-32.7	-33.3	27.9	0.00e+00	0	42	0	1795162112	38	5956
2026-01-24 02:33:56.15	173.27	49.77	-33.1	-33.7	27.6	0.00e+00	0	42	0	1817182208	38	6208
2026-01-24 02:34:00.18	173.92	51.10	-33.5	-34.1	27.2	0.00e+00	0	42	0	1840250880	40	5789
2026-01-24 02:34:04.22	174.64	52.47	-34.0	-34.6	26.8	0.00e+00	0	42	0	1863319552	40	6124
2026-01-24 02:34:08.26	175.42	53.88	-33.7	-34.3	27.2	0.00e+00	0	42	0	1885339648	40	5929
2026-01-24 02:34:12.29	176.28	55.32	-34.1	-34.7	26.9	0.00e+00	0	42	0	1908408320	40	6208
2026-01-24 02:34:16.34	177.23	56.79	-33.7	-34.4	27.1	0.00e+00	0	42	0	1931476992	40	5988
2026-01-24 02:34:20.38	178.29	58.30	-33.3	-34.0	27.4	0.00e+00	0	42	0	1953497088	40	5696
2026-01-24 02:34:24.41	179.48	59.83	-32.8	-33.4	27.8	0.00e+00	0	42	0	1976565760	38	6023
2026-01-24 02:34:28.46	180.82	61.39	-32.7	-33.3	27.9	0.00e+00	0	42	0	1999634432	38	5922
2026-01-24 02:34:32.50	182.33	62.98	-32.1	-32.7	28.4	0.00e+00	0	42	0	2021654528	36	6199
2026-01-24 02:34:36.54	184.06	64.58	-32.1	-32.7	28.4	0.00e+00	0	42	0	2044723200	36	6195
2026-01-24 02:34:40.58	186.04	66.19	-32.2	-32.8	28.3	0.00e+00	0	42	0	2067791872	36	6278
2026-01-24 02:34:44.62	188.35	67.80	-32.1	-32.8	28.4	0.00e+00	0	42	0	2089811968	36	6247
2026-01-24 02:34:48.66	191.04	69.41	-31.6	-32.1	28.7	0.00e+00	0	42	0	2112880640	36	5816
2026-01-24 02:34:52.70	194.22	70.99	-31.6	-32.2	28.7	0.00e+00	0	42	0	2135949312	36	5850
2026-01-24 02:34:56.74	198.01	72.53	-31.4	-32.0	28.8	0.00e+00	0	42	0	2157969408	36	5758
2026-01-24 02:35:00.78	202.55	74.01	-31.5	-32.1	28.8	0.00e+00	0	42	0	2181038080	34	6534
2026-01-24 02:35:04.82	208.02	75.38	-30.7	-31.3	29.5	0.00e+00	0	42	0	2204106752	34	5912
2026-01-24 02:35:08.85	214.58	76.61	-30.6	-31.1	29.5	0.00e+00	0	42	0	2226126848	34	5828
2026-01-24 02:35:12.89	222.41	77.65	-30.7	-31.3	29.4	0.00e+00	0	42	0	2249195520	34	5952
2026-01-24 02:35:16.93	231.52	78.44	-30.7	-31.3	29.6	0.00e+00	0	42	0	2272264192	34	5913
2026-01-24 02:35:20.96	241.66	78.90	-31.2	-31.8	29.2	0.00e+00	0	42	0	2294284288	34	6293
2026-01-24 02:35:25.01	252.39	79.00	-30.5	-31.1	29.5	0.00e+00	0	42	0	2317352960	34	5799
2026-01-24 02:35:29.04	262.89	78.73	-30.9	-31.5	28.8	0.00e+00	0	42	0	2340421632	34	6070
2026-01-24 02:35:33.08	272.61	78.11	-30.7	-31.4	29.4	0.00e+00	0	42	0	2362441728	34	5972
2026-01-24 02:35:37.12	281.14	77.20	-31.0	-31.6	29.2	0.00e+00	0	42	0	2385510400	34	6124
2026-01-24 02:35:41.16	288.37	76.06	-31.0	-31.7	29.2	0.00e+00	0	42	0	2408579072	34	6174
2026-01-24 02:35:45.20	294.41	74.76	-31.2	-31.9	29.1	0.00e+00	0	42	0	2430599168	34	6345
2026-01-24 02:35:49.23	299.41	73.34	-31.4	-31.9	28.9	0.00e+00	0	42	0	2453667840	34	6351
2026-01-24 02:35:53.27	303.57	71.83	-31.9	-32.5	28.6	0.00e+00	0	42	0	2476736512	36	6070
2026-01-24 02:35:57.32	307.07	70.27	-31.7	-32.2	28.8	0.00e+00	0	42	0	2498756608	36	5871
2026-01-24 02:36:01.36	310.01	68.67	-32.3	-32.9	28.4	0.00e+00	0	42	0	2521825280	36	6363
2026-01-24 02:36:05.40	312.51	67.07	-32.0	-32.6	28.5	0.00e+00	0	42	0	2544893952	36	6119
2026-01-24 02:36:09.44	314.66	65.46	-31.7	-32.3	28.7	0.00e+00	0	42	0	2566914048	36	5906
2026-01-24 02:36:13.47	316.51	63.86	-32.2	-32.7	28.2	0.00e+00	0	42	0	2589982720	36	6245
2026-01-24 02:36:17.51	318.14	62.27	-32.4	-32.9	28.4	0.00e+00	0	42	0	2613051392	38	5675
2026-01-24 02:36:21.55	319.56	60.70	-32.6	-33.2	28.1	0.00e+00	0	42	0	2635071488	38	5858
2026-01-24 02:36:25.59	320.83	59.15	-33.1	-33.7	27.8	0.00e+00	0	42	0	2658140160	38	6191
2026-01-24 02:36:29.64	321.96	57.63	-33.5	-34.2	27.4	0.00e+00	0	42	0	2681208832	38	6569
2026-01-24 02:36:33.74	322.98	56.12	-34.1	-34.8	26.8	0.00e+00	0	42	0	2703228928	40	6315
2026-01-24 02:36:37.78	323.89	54.67	-34.0	-34.7	26.9	0.00e+00	0	42	0	2726297600	40	6232
2026-01-24 02:36:41.82	324.71	53.25	-33.8	-34.5	27.0	0.00e+00	0	42	0	2749366272	40	6045
2026-01-24 02:36:45.86	325.46	51.86	-33.0	-33.7	27.7	0.00e+00	0	42	0	2771386368	40	5547
2026-01-24 02:36:49.89	326.14	50.51	-32.9	-33.4	27.9	0.00e+00	0	42	0	2794455040	38	6023
2026-01-24 02:36:53.94	326.77	49.19	-33.0	-33.7	27.6	0.00e+00	0	42	0	2817523712	38	6200
2026-01-24 02:36:57.98	327.35	47.91	-33.0	-33.5	27.7	0.00e+00	0	42	0	2839543808	38	6090
2026-01-24 02:37:02.02	327.88	46.66	-33.2	-33.8	27.7	0.00e+00	0	42	0	2862612480	38	6249
2026-01-24 02:37:06.05	328.37	45.45	-32.7	-33.3	27.9	0.00e+00	0	42	0	2885681152	38	5900
2026-01-24 02:37:10.09	328.83	44.27	-32.5	-33.2	28.1	0.00e+00	0	42	0	2907701248	38	5833
2026-01-24 02:37:14.14	329.26	43.12	-32.9	-33.4	27.9	0.00e+00	0	42	0	2930769920	38	5995
2026-01-24 02:37:18.18	329.66	42.01	-32.5	-33.0	28.2	0.00e+00	0	42	0	2953838592	38	5734
2026-01-24 02:37:22.21	330.04	40.93	-32.0	-32.5	28.4	0.00e+00	0	42	0	2975858688	38	5421
2026-01-24 02:37:26.25	330.39	39.88	-31.9	-32.5	28.5	0.00e+00	0	42	0	2998927360	38	5429
2026-01-24 02:37:30.30	330.72	38.85	-32.3	-32.8	28.2	0.00e+00	0	42	0	3021996032	38	5607
2026-01-24 02:37:34.34	331.03	37.86	-32.1	-32.6	28.2	0.00e+00	0	42	0	3044016128	38	5483
2026-01-24 02:37:38.38	331.33	36.89	-32.3	-32.8	28.3	0.00e+00	0	42	0	3067084800	38	5590
2026-01-24 02:37:42.42	331.61	35.95	-32.4	-33.0	28.1	0.00e+00	0	42	0	3090153472	38	5704
2026-01-24 02:37:46.45	331.87	35.04	-32.4	-33.1	28.1	0.00e+00	0	42	0	3112173568	38	5780
2026-01-24 02:37:50.49	332.12	34.16	-32.4	-33.1	28.1	0.00e+00	0	42	0	3135242240	38	5782
2026-01-24 02:37:54.53	332.36	33.29	-32.4	-32.9	28.3	0.00e+00	0	42	0	3158310912	38	5671
2026-01-24 02:37:58.57	332.59	32.45	-32.3	-32.8	28.2	0.00e+00	0	42	0	3181379584	38	5623
2026-01-24 02:38:02.61	332.81	31.64	-32.6	-33.3	28.1	0.00e+00	0	42	0	3203399680	38	5906
2026-01-24 02:38:06.65	333.02	30.84	-32.6	-33.3	27.9	0.00e+00	0	42	0	3226468352	38	5931
2026-01-24 02:38:10.69	333.22	30.07	-32.6	-33.3	27.9	0.00e+00	0	42	0	3248488448	38	5954
2026-01-24 02:38:14.73	333.41	29.31	-32.6	-33.3	27.9	0.00e+00	0	42	0	3271557120	38	5933
2026-01-24 02:38:18.77	333.59	28.58	-32.9	-33.6	27.8	0.00e+00	0	42	0	3294625792	38	6128
2026-01-24 02:38:22.81	333.76	27.86	-32.8	-33.4	27.8	0.00e+00	0	42	0	3316645888	38	5969
2026-01-24 02:38:26.84	333.93	27.16	-32.8	-33.6	27.7	0.00e+00	0	42	0	3339714560	38	6106
2026-01-24 02:38:30.88	334.09	26.48	-33.0	-33.5	27.6	0.00e+00	0	42	0	3362783232	38	6077
2026-01-24 02:38:34.92	334.25	25.82	-33.0	-33.6	27.6	0.00e+00	0	42	0	3384803328	38	6170
2026-01-24 02:38:38.96	334.40	25.17	-32.9	-33.4	27.7	0.00e+00	0	42	0	3407872000	38	6033
2026-01-24 02:38:43.00	334.54	24.54	-33.2	-33.7	27.5	0.00e+00	0	42	0	3430940672	38	6219
2026-01-24 02:38:47.04	334.68	23.92	-33.2	-33.8	27.4	0.00e+00	0	42	0	3452960768	38	6262
2026-01-24 02:38:51.09	334.82	23.32	-33.5	-34.0	27.2	0.00e+00	0	42	0	3476029440	38	6451
2026-01-24 02:38:55.13	334.95	22.73	-33.5	-34.1	27.1	0.00e+00	0	42	0	3499098112	38	6477
2026-01-24 02:38:59.17	335.08	22.15	-33.5	-34.1	27.1	0.00e+00	0	42	0	3521118208	38	6482
2026-01-24 02:39:03.20	335.20	21.59	-33.8	-34.5	26.9	0.00e+00	0	42	0	3544186880	40	6096
2026-01-24 02:39:07.24	335.32	21.03	-33.7	-34.4	26.9	0.00e+00	0	42	0	3567255552	40	5989
2026-01-24 02:39:11.28	335.44	20.49	-34.0	-34.6	26.8	0.00e+00	0	42	0	3589275648	40	6164
2026-01-24 02:39:15.31	335.55	19.97	-34.2	-34.8	26.5	0.00e+00	0	42	0	3612344320	40	6256
2026-01-24 02:39:19.35	335.66	19.45	-34.3	-35.0	26.4	0.00e+00	0	42	0	3635412992	40	6451
2026-01-24 02:39:23.39	335.76	18.94	-34.2	-34.9	26.4	0.00e+00	0	42	0	3657433088	42	5667
2026-01-24 02:39:27.43	335.87	18.45	-34.5	-35.2	26.4	0.00e+00	0	42	0	3680501760	42	5835
2026-01-24 02:39:31.47	335.97	17.96	-34.6	-35.1	26.1	0.00e+00	0	42	0	3703570432	42	5805
2026-01-24 02:39:35.51	336.06	17.48	-34.8	-35.3	26.1	0.00e+00	0	42	0	3725590528	42	5960
2026-01-24 02:39:39.54	336.16	17.01	-34.8	-35.4	26.1	0.00e+00	0	42	0	3748659200	42	5986
2026-01-24 02:39:43.58	336.25	16.55	-34.9	-35.5	25.8	0.00e+00	0	42	0	3771727872	42	6084
2026-01-24 02:39:47.63	336.34	16.10	-35.2	-35.7	25.7	0.00e+00	0	42	0	3793747968	42	6243
2026-01-24 02:39:51.67	336.43	15.66	-35.2	-35.8	25.5	0.00e+00	0	42	0	3816816640	42	6306
2026-01-24 02:39:55.71	336.52	15.22	-35.6	-36.2	25.1	0.00e+00	0	42	0	3839885312	42	6572
2026-01-24 02:39:59.75	336.60	14.79	-35.5	-36.2	25.2	0.00e+00	0	42	0	3861905408	44	5837
2026-01-24 02:40:03.79	336.68	14.37	-35.7	-36.5	25.1	0.00e+00	0	42	0	3884974080	44	6061
2026-01-24 02:40:07.83	336.77	13.96	-35.8	-36.4	25.0	0.00e+00	0	42	0	3908042752	44	5978
2026-01-24 02:40:11.87	336.84	13.55	-35.9	-36.6	24.9	0.00e+00	0	42	0	3931111424	44	6150
2026-01-24 02:40:15.91	336.92	13.15	-36.0	-36.6	24.8	0.00e+00	0	42	0	3953131520	44	6128
2026-01-24 02:40:19.95	337.00	12.76	-35.9	-36.5	24.8	0.00e+00	0	42	0	3976200192	44	6087
2026-01-24 02:40:23.98	337.07	12.38	-35.8	-36.5	24.9	0.00e+00	0	42	0	3998220288	44	6094
2026-01-24 02:40:28.02	337.14	11.99	-35.9	-36.5	24.8	0.00e+00	0	42	0	4021288960	44	6044
2026-01-24 02:40:32.06	337.22	11.62	-36.2	-36.9	24.5	0.00e+00	0	42	0	4044357632	44	6322
2026-01-24 02:40:36.10	337.29	11.25	-36.7	-37.5	24.1	0.00e+00	0	42	0	4066377728	44	6790
2026-01-24 02:40:40.13	337.35	10.89	-36.4	-37.0	24.3	0.00e+00	0	42	0	4089446400	44	6422
2026-01-24 02:40:44.17	337.42	10.53	-36.9	-37.6	23.8	0.00e+00	0	42	0	4112515072	46	6108
2026-01-24 02:40:48.21	337.49	10.18	-36.5	-37.2	24.1	0.00e+00	0	42	0	4134535168	46	5836
2026-01-24 02:40:52.25	337.55	9.83	-36.4	-37.1	24.1	0.00e+00	0	42	0	4157603840	46	5773
2026-01-24 02:40:56.29	337.62	9.48	-36.8	-37.6	23.8	0.00e+00	0	42	0	4180672512	46	6143
2026-01-24 02:41:00.33	337.68	9.14	-36.8	-37.4	23.9	0.00e+00	0	42	0	4202692608	46	6010
2026-01-24 02:41:04.37	337.74	8.81	-36.7	-37.3	23.9	0.00e+00	0	42	0	4225761280	46	5921
2026-01-24 02:41:08.41	337.80	8.48	-37.0	-37.8	23.5	0.00e+00	0	42	0	4248829952	46	6312
2026-01-24 02:41:12.45	337.86	8.15	-37.3	-38.1	23.2	0.00e+00	0	42	0	4270850048	46	6477
2026-01-24 02:41:16.49	337.92	7.83	-37.0	-37.7	23.4	0.00e+00	0	42	0	4293918720	46	6181
2026-01-24 02:41:20.53	337.98	7.51	-37.4	-38.1	23.1	0.00e+00	0	42	0	4316987392	48	5812
2026-01-24 02:41:24.56	338.04	7.20	-37.4	-38.1	23.2	0.00e+00	0	42	0	4339007488	48	5787
2026-01-24 02:41:28.60	338.10	6.89	-37.2	-38.0	23.2	0.00e+00	0	42	0	4362076160	48	5715
2026-01-24 02:41:32.64	338.15	6.59	-37.5	-38.3	23.0	0.00e+00	0	42	0	4385144832	48	5947
2026-01-24 02:41:36.68	338.21	6.28	-37.7	-38.6	22.7	0.00e+00	0	42	0	4407164928	48	6131
2026-01-24 02:41:40.72	338.26	5.98	-37.6	-38.4	22.6	0.00e+00	0	42	0	4430233600	48	5986
2026-01-24 02:41:44.76	338.31	5.69	-37.7	-38.6	22.2	0.00e+00	0	42	0	4453302272	48	6116
2026-01-24 02:41:48.80	338.37	5.40	-39.1	-40.0	20.6	0.00e+00	0	42	0	4475322368	50	6451
2026-01-24 02:41:52.84	338.42	5.11	-40.0	-41.0	18.8	0.00e+00	0	42	0	4498391040	52	6440
2026-01-24 02:41:56.89	338.47	4.82	-41.9	-43.4	16.1	0.00e+00	0	42	0	4521459712	54	7530
2026-01-24 02:42:00.92	338.52	4.54	-43.8	-46.3	12.0	3.66e-05	0	42	0	4544528384	58	8374
2026-01-24 02:42:04.96	338.57	4.26	-45.3	-49.8	7.3	8.03e-02	0	42	0	4566548480	60	11121
2026-01-24 02:42:09.00	338.62	3.98	-46.2	-53.4	4.0	8.27e-01	0	42	0	4575985664	60	16908
2026-01-24 02:42:13.04	338.67	3.71	-46.4	-57.4	3.6	8.46e-01	0	42	104	4575985664	60	26791
2026-01-24 02:42:17.08	338.72	3.43	-46.6	-58.7	3.6	8.45e-01	0	42	104	4575985664	60	31200
2026-01-24 02:42:21.12	338.77	3.16	-46.5	-58.5	3.6	8.45e-01	0	42	104	4575985664	60	30296
2026-01-24 02:42:25.15	338.81	2.90	-50.3	-62.4	3.6	8.45e-01	0	42	104	4575985664	60	47805
2026-01-24 02:42:29.20	338.86	2.63	-51.1	-63.2	3.6	8.46e-01	0	42	104	4575985664	60	52499
2026-01-24 02:42:33.24	338.91	2.37	-51.4	-63.5	3.6	8.47e-01	0	42	104	4575985664	60	53797
2026-01-24 02:42:37.28	338.95	2.11	-51.2	-63.5	3.6	8.46e-01	0	42	104	4575985664	60	54376
2026-01-24 02:42:41.32	339.00	1.86	-51.3	-63.5	3.6	8.45e-01	0	42	104	4575985664	60	53961
2026-01-24 02:42:45.36	339.04	1.60	-51.3	-63.5	3.6	8.46e-01	0	42	104	4575985664	60	53783
2026-01-24 02:42:49.41	339.09	1.35	-51.4	-63.4	3.6	8.45e-01	0	42	104	4575985664	60	53727
2026-01-24 02:42:53.45	339.13	1.10	-51.4	-63.6	3.6	8.45e-01	0	42	104	4575985664	60	54546
2026-01-24 02:42:57.49	339.18	0.85	-51.5	-63.6	3.6	8.46e-01	0	42	104	4575985664	60	54907
2026-01-24 02:43:01.53	339.22	0.61	-51.5	-63.6	3.6	8.45e-01	0	42	104	4575985664	60	54651
2026-01-24 02:43:05.57	339.26	0.36	-51.7	-63.8	3.6	8.45e-01	0	42	104	4575985664	60	55857
2026-01-24 02:43:09.61	339.31	0.12	-51.5	-63.6	3.6	8.46e-01	0	42	104	4575985664	60	54930
2026-01-24 02:43:13.65	339.35	-0.12	-51.4	-63.5	3.6	8.45e-01	0	42	104	4575985664	60	54340

#Closed at: 2026-01-24 02:43:14
#Recorded file [4575 MB]: D:/lorett/data/35029_260124_142740.dat