passes_logs/2026/01/24/R4.6S_Anadyr/R4.6S_Anadyr__20260124_161957_AQUA_rec.log

#Pass ID: 20260124_161957_AQUA
#Satellite: AQUA
#Configuration: AQUA
#almurnet v.1.7.20251203
#Start time: 2026-01-24 16:20:00

#Version: 2.2.20231116
#Station: R4.6S_Anadyr
#Location: 177.4865 lon 64.73178 lat
#TLE: 1 27424U 02022A   26024.20619094  .00002210  00000+0  45203-3 0  9991
#TLE: 2 27424  98.4098 350.7890 0001920  67.0508  46.8248 14.61855013262230

#Time	Az	El	Level	Level2	SNR	BER	BlckErr	Temp	State	Recorded	gain1	gain2
2026-01-24 16:20:00.83	19.78	0.19	-54.0	-70.3	3.3	3.02e+01	0	40	0	0	60	126162
2026-01-24 16:20:04.86	19.81	0.44	-52.4	-70.3	3.5	3.02e+01	0	40	104	0	60	125318
2026-01-24 16:20:08.90	19.84	0.69	-52.6	-70.4	3.5	3.02e+01	0	40	104	0	60	127007
2026-01-24 16:20:12.94	19.87	0.95	-52.3	-70.1	3.5	3.02e+01	0	40	104	0	60	122637
2026-01-24 16:20:16.98	19.90	1.21	-51.6	-69.2	3.5	3.02e+01	0	40	104	0	60	111326
2026-01-24 16:20:21.02	19.93	1.47	-50.9	-68.5	3.5	3.02e+01	0	40	104	0	60	102512
2026-01-24 16:20:25.06	19.96	1.73	-50.7	-68.1	3.5	3.02e+01	0	40	104	0	60	97431
2026-01-24 16:20:29.10	19.99	1.99	-50.9	-68.6	3.5	3.02e+01	0	40	104	0	60	104034
2026-01-24 16:20:33.14	20.02	2.26	-50.8	-68.6	3.5	3.02e+01	0	40	104	0	60	103562
2026-01-24 16:20:37.18	20.05	2.53	-50.5	-67.0	3.5	3.02e+01	0	40	104	0	60	85791
2026-01-24 16:20:41.22	20.08	2.81	-50.4	-66.9	3.5	3.02e+01	0	40	104	0	60	84783
2026-01-24 16:20:45.25	20.11	3.08	-50.0	-65.2	3.5	3.02e+01	0	40	104	0	60	70145
2026-01-24 16:20:49.29	20.14	3.36	-46.2	-57.7	3.5	3.02e+01	0	41	104	0	60	29529
2026-01-24 16:20:53.33	20.17	3.64	-45.1	-56.2	3.5	3.02e+01	0	40	104	0	60	24940
2026-01-24 16:20:57.37	20.20	3.93	-40.1	-50.4	3.5	3.02e+01	0	40	104	0	54	17934
2026-01-24 16:21:01.41	20.23	4.22	-50.4	-65.7	3.5	3.02e+01	0	41	104	0	60	74509
2026-01-24 16:21:05.44	20.27	4.51	-40.6	-51.0	3.5	3.02e+01	0	41	104	0	56	17177
2026-01-24 16:21:09.47	20.30	4.81	-50.6	-67.1	3.5	3.02e+01	0	41	104	0	60	87398
2026-01-24 16:21:13.51	20.33	5.11	-41.8	-52.3	3.5	3.02e+01	0	41	104	0	60	15826
2026-01-24 16:21:17.55	20.37	5.41	-49.5	-63.5	3.6	3.02e+01	0	41	104	0	60	57738
2026-01-24 16:21:21.59	20.40	5.72	-40.8	-51.2	3.5	3.02e+01	0	41	104	0	56	17611
2026-01-24 16:21:25.63	20.43	6.04	-50.3	-65.7	3.5	3.02e+01	0	41	104	0	60	73794
2026-01-24 16:21:29.66	20.47	6.35	-40.6	-51.0	3.5	3.02e+01	0	41	104	0	54	19222
2026-01-24 16:21:33.69	20.50	6.67	-47.7	-59.9	3.6	3.02e+01	0	41	104	0	60	37951
2026-01-24 16:21:37.73	20.54	7.00	-39.9	-50.2	3.5	3.02e+01	0	41	104	0	54	17618
2026-01-24 16:21:41.76	20.57	7.33	-42.9	-53.5	3.5	3.02e+01	0	41	104	0	60	18225
2026-01-24 16:21:45.80	20.61	7.66	-40.8	-51.2	3.5	3.02e+01	0	41	104	0	56	17567
2026-01-24 16:21:49.83	20.65	8.00	-46.0	-57.1	3.5	3.02e+01	0	41	104	0	60	27679
2026-01-24 16:21:53.87	20.68	8.35	-51.4	-69.1	3.5	3.02e+01	0	41	104	0	60	109944
2026-01-24 16:21:57.90	20.72	8.70	-41.9	-52.3	3.6	3.02e+01	0	41	104	0	60	15820
2026-01-24 16:22:01.93	20.76	9.05	-48.7	-61.3	3.5	3.02e+01	0	41	104	0	60	44712
2026-01-24 16:22:05.97	20.80	9.41	-44.6	-55.4	3.5	3.02e+01	0	41	104	0	60	22539
2026-01-24 16:22:10.00	20.84	9.78	-40.9	-51.2	3.6	3.02e+01	0	41	104	0	58	15762
2026-01-24 16:22:14.04	20.88	10.15	-41.4	-51.7	3.5	3.02e+01	0	41	104	0	58	16607
2026-01-24 16:22:18.07	20.92	10.53	-40.8	-51.1	3.5	3.02e+01	0	41	104	0	58	15494
2026-01-24 16:22:22.11	20.96	10.92	-46.6	-58.2	3.5	3.02e+01	0	41	104	0	60	31153
2026-01-24 16:22:26.14	21.00	11.31	-50.9	-68.6	3.5	3.02e+01	0	41	104	0	60	103710
2026-01-24 16:22:30.17	21.04	11.71	-40.8	-51.1	3.5	3.02e+01	0	41	104	0	56	17400
2026-01-24 16:22:34.21	21.09	12.12	-40.4	-50.7	3.5	3.02e+01	0	41	104	0	56	16622
2026-01-24 16:22:38.24	21.13	12.54	-40.7	-51.0	3.5	3.02e+01	0	41	104	0	56	17113
2026-01-24 16:22:42.28	21.17	12.96	-39.9	-50.2	3.5	3.02e+01	0	41	104	0	54	17525
2026-01-24 16:22:46.31	21.22	13.39	-43.5	-54.0	3.6	3.02e+01	0	41	104	0	60	19308
2026-01-24 16:22:50.35	21.27	13.83	-40.9	-51.2	3.5	3.02e+01	0	41	104	0	56	17558
2026-01-24 16:22:54.39	21.31	14.28	-43.4	-53.9	3.5	3.02e+01	0	41	104	0	60	19177
2026-01-24 16:22:58.42	21.36	14.74	-39.7	-49.9	3.5	3.02e+01	0	41	104	0	54	16928
2026-01-24 16:23:02.46	21.41	15.21	-39.7	-49.9	3.5	3.02e+01	0	41	104	0	54	16961
2026-01-24 16:23:06.49	21.46	15.69	-40.5	-50.8	3.5	3.02e+01	0	41	104	0	54	18813
2026-01-24 16:23:10.53	21.52	16.18	-42.3	-52.8	3.5	3.02e+01	0	41	104	0	60	16738
2026-01-24 16:23:14.56	21.57	16.68	-41.0	-51.3	3.5	3.02e+01	0	41	104	0	52	22405
2026-01-24 16:23:18.60	21.62	17.20	-44.0	-54.5	3.5	3.02e+01	0	41	104	0	60	20496
2026-01-24 16:23:22.64	21.68	17.72	-45.9	-56.9	3.6	3.02e+01	0	41	104	0	58	30344
2026-01-24 16:23:26.67	21.74	18.26	-43.1	-53.6	3.5	3.02e+01	0	41	104	0	60	18351
2026-01-24 16:23:30.70	21.80	18.81	-47.3	-58.7	3.5	3.02e+01	0	41	104	0	60	33089
2026-01-24 16:23:34.75	21.86	19.38	-38.6	-48.8	3.6	3.02e+01	0	41	104	0	52	16744
2026-01-24 16:23:38.78	21.92	19.95	-51.6	-67.6	3.5	3.02e+01	0	41	104	0	60	92578
2026-01-24 16:23:42.81	21.98	20.55	-44.3	-55.0	3.5	3.02e+01	0	41	104	0	60	21521
2026-01-24 16:23:46.85	22.05	21.16	-51.8	-68.5	3.5	3.02e+01	0	41	104	0	60	102236
2026-01-24 16:23:50.88	22.12	21.78	-42.9	-53.4	3.5	3.02e+01	0	41	104	0	60	18084
2026-01-24 16:23:54.92	22.19	22.43	-51.9	-68.7	3.5	3.02e+01	0	41	104	0	60	105340
2026-01-24 16:23:58.95	22.26	23.09	-39.8	-50.1	3.5	3.02e+01	0	41	104	0	54	17441
2026-01-24 16:24:02.98	22.34	23.77	-52.1	-69.7	3.5	3.02e+01	0	41	104	0	60	117272
2026-01-24 16:24:07.02	22.42	24.47	-40.9	-51.2	3.6	3.02e+01	0	41	104	0	56	17541
2026-01-24 16:24:11.05	22.50	25.19	-51.9	-69.2	3.5	3.02e+01	0	41	104	0	60	111523
2026-01-24 16:24:15.09	22.58	25.94	-45.6	-56.5	3.5	3.02e+01	0	41	104	0	60	25638
2026-01-24 16:24:19.12	22.67	26.71	-52.0	-69.1	3.5	3.02e+01	0	41	104	0	60	109741
2026-01-24 16:24:23.15	22.76	27.50	-41.2	-51.5	3.5	3.02e+01	0	41	104	0	58	16269
2026-01-24 16:24:27.19	22.86	28.31	-52.1	-69.1	3.5	3.02e+01	0	41	104	0	60	109783
2026-01-24 16:24:31.22	22.96	29.16	-38.9	-49.1	3.5	3.02e+01	0	41	104	0	52	17380
2026-01-24 16:24:35.25	23.07	30.03	-52.0	-69.1	3.5	3.02e+01	0	41	104	0	60	109551
2026-01-24 16:24:39.29	23.18	30.93	-43.3	-53.8	3.5	3.02e+01	0	42	104	0	60	18774
2026-01-24 16:24:43.33	23.29	31.86	-52.4	-70.0	3.5	3.02e+01	0	42	104	0	60	121174
2026-01-24 16:24:47.36	23.42	32.82	-42.3	-52.7	3.5	3.02e+01	0	42	104	0	58	18564
2026-01-24 16:24:51.40	23.54	33.82	-52.3	-69.8	3.5	3.02e+01	0	41	104	0	60	119022
2026-01-24 16:24:55.43	23.68	34.86	-46.3	-57.2	3.5	3.02e+01	0	41	104	0	60	27942
2026-01-24 16:24:59.47	23.83	35.93	-45.6	-56.5	3.6	3.02e+01	0	42	104	0	60	25784
2026-01-24 16:25:03.51	23.98	37.04	-43.2	-53.7	3.5	3.02e+01	0	42	104	0	60	18686
2026-01-24 16:25:07.54	24.14	38.19	-51.9	-68.3	3.6	3.02e+01	0	42	104	0	60	100172
2026-01-24 16:25:11.57	24.32	39.39	-45.2	-56.0	3.5	3.02e+01	0	42	104	0	60	24269
2026-01-24 16:25:15.61	24.51	40.63	-51.1	-65.3	3.5	3.02e+01	0	42	104	0	60	71006
2026-01-24 16:25:19.65	24.71	41.92	-42.7	-53.0	3.5	3.02e+01	0	42	104	0	60	17265
2026-01-24 16:25:23.69	24.93	43.25	-48.8	-60.8	3.5	3.02e+01	0	41	104	0	60	42274
2026-01-24 16:25:27.72	25.16	44.64	-40.7	-50.9	3.6	3.02e+01	0	41	104	0	56	17046
2026-01-24 16:25:31.76	25.42	46.08	-44.0	-54.4	3.5	3.02e+01	0	42	104	0	60	20298
2026-01-24 16:25:35.80	25.70	47.57	-43.2	-53.7	3.5	3.02e+01	0	41	104	0	60	18607
2026-01-24 16:25:39.83	26.01	49.12	-48.9	-60.8	3.5	3.02e+01	0	42	104	0	60	42199
2026-01-24 16:25:43.87	26.35	50.73	-42.1	-52.4	3.5	3.02e+01	0	42	104	0	58	18084
2026-01-24 16:25:47.91	26.73	52.40	-50.1	-62.9	3.5	3.02e+01	0	41	104	0	60	53867
2026-01-24 16:25:51.94	27.15	54.13	-38.8	-48.9	3.5	3.02e+01	0	41	104	0	52	17063
2026-01-24 16:25:55.98	27.63	55.92	-49.8	-62.2	3.5	3.02e+01	0	42	104	0	60	49654
2026-01-24 16:26:00.02	28.17	57.77	-43.5	-53.9	3.5	3.02e+01	0	41	104	0	60	19172
2026-01-24 16:26:04.06	28.80	59.68	-49.5	-61.8	3.5	3.02e+01	0	41	104	0	60	47322
2026-01-24 16:26:08.09	29.51	61.65	-45.4	-56.0	3.5	3.02e+01	0	41	104	0	60	24249
2026-01-24 16:26:12.13	30.36	63.68	-51.5	-65.7	3.5	3.02e+01	0	41	104	0	60	74264
2026-01-24 16:26:16.17	31.37	65.77	-45.0	-55.5	3.5	3.02e+01	0	41	104	0	60	23001
2026-01-24 16:26:20.20	32.58	67.90	-49.9	-62.4	3.6	3.02e+01	0	41	104	0	60	50498
2026-01-24 16:26:24.23	34.08	70.08	-44.6	-55.2	3.5	3.02e+01	0	41	104	0	60	22096
2026-01-24 16:26:28.27	35.98	72.29	-49.2	-61.6	3.5	3.02e+01	0	41	104	0	60	46139
2026-01-24 16:26:32.30	38.46	74.53	-43.8	-45.4	25.0	3.02e+01	59	41	0	0	60	7146
2026-01-24 16:26:36.34	41.81	76.77	-44.9	-46.7	24.2	3.02e+01	57	41	0	7340032	60	8292
2026-01-24 16:26:40.37	46.56	78.98	-42.0	-43.4	26.6	3.02e+01	56	41	0	15204352	58	6407
2026-01-24 16:26:44.41	53.72	81.12	-40.8	-42.1	27.8	3.02e+01	58	41	0	22544384	56	6152
2026-01-24 16:26:48.44	65.13	83.05	-39.7	-40.9	28.5	3.02e+01	58	41	0	30408704	54	6063
2026-01-24 16:26:52.48	83.99	84.53	-39.9	-41.1	28.5	3.02e+01	59	41	0	37748736	54	6180
2026-01-24 16:26:56.51	111.24	85.09	-40.4	-41.6	28.0	3.02e+01	59	41	0	45613056	54	6553
2026-01-24 16:27:00.55	138.22	84.46	-39.1	-40.3	28.9	3.02e+01	62	41	0	52953088	52	6321
2026-01-24 16:27:04.59	156.56	82.94	-39.5	-40.7	28.4	3.02e+01	59	41	0	60817408	52	6639
2026-01-24 16:27:08.63	167.68	80.99	-39.6	-40.8	28.4	3.02e+01	60	41	0	68157440	52	6709
2026-01-24 16:27:12.66	174.64	78.85	-39.8	-41.1	28.3	3.02e+01	58	41	0	75497472	54	6157
2026-01-24 16:27:16.70	179.29	76.63	-42.1	-43.5	26.6	3.02e+01	58	41	0	83361792	58	6452
2026-01-24 16:27:20.74	182.59	74.38	-43.8	-45.3	25.2	3.02e+01	58	41	0	90701824	60	7119
2026-01-24 16:27:24.78	185.02	72.14	-43.4	-44.9	25.6	3.02e+01	61	41	0	98566144	60	6738
2026-01-24 16:27:28.81	186.89	69.93	-43.0	-44.5	25.4	3.02e+01	59	41	0	105906176	60	6476
2026-01-24 16:27:32.84	188.37	67.75	-43.4	-45.0	24.9	3.02e+01	62	41	0	113770496	60	6841
2026-01-24 16:27:36.88	189.58	65.61	-42.9	-44.4	25.5	3.02e+01	44	41	0	121110528	60	6385
2026-01-24 16:27:40.91	190.57	63.53	-41.0	-42.3	27.3	3.02e+01	61	41	0	128450560	56	6327
2026-01-24 16:27:44.95	191.40	61.50	-40.4	-41.6	27.8	3.02e+01	55	41	0	136314880	56	5830
2026-01-24 16:27:48.99	192.12	59.52	-42.3	-43.7	26.5	3.02e+01	59	41	0	143654912	56	7459
2026-01-24 16:27:53.02	192.73	57.62	-39.6	-40.9	28.4	3.02e+01	57	41	0	151519232	54	6005
2026-01-24 16:27:57.06	193.27	55.76	-38.3	-39.4	29.5	3.02e+01	64	41	0	158859264	52	5704
2026-01-24 16:28:01.09	193.74	53.97	-37.9	-39.1	29.7	3.02e+01	40	41	0	166723584	50	6195
2026-01-24 16:28:05.12	194.16	52.25	-37.8	-39.0	29.8	3.02e+01	61	41	0	174063616	50	6081
2026-01-24 16:28:09.16	194.54	50.58	-38.8	-40.0	29.1	3.02e+01	53	41	0	181927936	52	6123
2026-01-24 16:28:13.19	194.87	48.97	-38.8	-40.0	29.0	3.02e+01	57	41	0	189267968	52	6087
2026-01-24 16:28:17.22	195.18	47.42	-39.5	-40.7	29.0	3.02e+01	52	41	0	196608000	52	6643
2026-01-24 16:28:21.26	195.46	45.92	-39.4	-40.6	29.0	3.02e+01	61	41	0	204472320	54	5844
2026-01-24 16:28:25.30	195.72	44.48	-40.0	-41.2	29.2	3.02e+01	51	41	0	211812352	52	7010
2026-01-24 16:28:29.33	195.95	43.10	-40.2	-41.5	28.7	3.02e+01	59	41	0	219676672	54	6443
2026-01-24 16:28:33.36	196.17	41.76	-40.3	-41.6	28.5	3.02e+01	51	41	0	227016704	54	6525
2026-01-24 16:28:37.40	196.37	40.47	-40.0	-41.3	28.0	3.02e+01	59	41	0	234881024	54	6312
2026-01-24 16:28:41.44	196.55	39.23	-40.0	-41.3	28.1	3.02e+01	48	41	0	242221056	54	6285
2026-01-24 16:28:45.47	196.73	38.04	-40.6	-41.9	27.6	3.02e+01	58	41	0	249561088	56	6033
2026-01-24 16:28:49.51	196.89	36.88	-41.1	-42.4	27.8	3.02e+01	43	41	0	257425408	56	6406
2026-01-24 16:28:53.55	197.04	35.77	-39.7	-41.0	28.4	3.02e+01	61	41	0	264765440	54	6065
2026-01-24 16:28:57.59	197.18	34.69	-38.8	-40.0	29.1	3.02e+01	57	41	0	272629760	52	6119
2026-01-24 16:29:01.62	197.32	33.66	-37.9	-39.1	29.6	3.02e+01	57	41	0	279969792	50	6163
2026-01-24 16:29:05.66	197.45	32.66	-38.2	-39.4	29.6	3.02e+01	61	41	0	287834112	50	6351
2026-01-24 16:29:09.70	197.57	31.70	-38.0	-39.2	29.7	3.02e+01	58	41	0	295174144	50	6207
2026-01-24 16:29:13.73	197.68	30.76	-37.9	-39.1	29.7	3.02e+01	56	41	0	302514176	50	6192
2026-01-24 16:29:17.77	197.79	29.86	-38.4	-39.6	29.7	3.02e+01	58	41	0	310378496	50	6514
2026-01-24 16:29:21.81	197.89	28.99	-38.4	-39.6	29.4	3.02e+01	61	41	0	317718528	50	6531
2026-01-24 16:29:25.85	197.99	28.14	-38.3	-39.5	29.6	3.02e+01	62	41	0	325582848	50	6432
2026-01-24 16:29:29.89	198.09	27.32	-38.6	-39.8	29.5	3.02e+01	64	41	0	332922880	50	6652
2026-01-24 16:29:33.92	198.18	26.53	-38.7	-39.9	29.1	3.02e+01	60	41	0	340787200	52	6047
2026-01-24 16:29:37.96	198.26	25.77	-38.8	-40.0	29.2	3.02e+01	58	41	0	348127232	52	6117
2026-01-24 16:29:42.00	198.35	25.02	-39.3	-40.6	28.5	3.02e+01	60	41	0	355991552	52	6526
2026-01-24 16:29:46.04	198.43	24.30	-39.3	-40.5	28.8	3.02e+01	61	41	0	363331584	52	6477
2026-01-24 16:29:50.07	198.50	23.60	-38.9	-40.2	28.9	3.02e+01	58	41	0	370671616	52	6215
2026-01-24 16:29:54.11	198.58	22.91	-39.3	-40.6	28.7	3.02e+01	59	41	0	378535936	52	6526
2026-01-24 16:29:58.14	198.65	22.25	-38.9	-40.1	28.9	3.02e+01	58	41	0	385875968	52	6161
2026-01-24 16:30:02.17	198.72	21.61	-38.8	-40.0	28.9	3.02e+01	57	41	0	393740288	52	6088
2026-01-24 16:30:06.21	198.79	20.98	-38.9	-40.1	28.9	3.02e+01	47	41	0	401080320	52	6181
2026-01-24 16:30:10.24	198.85	20.37	-38.8	-40.0	29.1	3.02e+01	57	41	0	408944640	52	6131
2026-01-24 16:30:14.28	198.91	19.78	-39.1	-40.3	28.7	3.02e+01	46	41	0	416284672	52	6324
2026-01-24 16:30:18.32	198.97	19.20	-38.9	-40.1	29.1	3.02e+01	58	41	0	423624704	52	6186
2026-01-24 16:30:22.36	199.03	18.63	-39.4	-40.6	28.7	3.02e+01	54	41	0	431489024	52	6535
2026-01-24 16:30:26.39	199.09	18.08	-38.8	-40.0	28.9	3.02e+01	58	41	0	438829056	52	6114
2026-01-24 16:30:30.43	199.14	17.54	-38.9	-40.1	28.8	3.02e+01	49	41	0	446693376	52	6170
2026-01-24 16:30:34.47	199.20	17.02	-38.4	-39.6	28.8	3.02e+01	61	41	0	454033408	52	5820
2026-01-24 16:30:38.50	199.25	16.50	-38.4	-39.7	28.9	3.02e+01	58	41	0	461897728	52	5866
2026-01-24 16:30:42.54	199.30	16.00	-38.3	-39.5	29.0	3.02e+01	61	41	0	469237760	52	5741
2026-01-24 16:30:46.57	199.35	15.51	-38.4	-39.6	28.9	3.02e+01	45	41	0	476577792	50	6538
2026-01-24 16:30:50.61	199.40	15.03	-38.4	-39.7	28.9	3.02e+01	56	41	0	484442112	52	5867
2026-01-24 16:30:54.65	199.45	14.56	-38.6	-39.8	28.7	3.02e+01	46	41	0	491782144	52	5988
2026-01-24 16:30:58.68	199.49	14.10	-38.8	-40.0	28.7	3.02e+01	58	41	0	499646464	52	6089
2026-01-24 16:31:02.72	199.54	13.65	-38.1	-39.3	29.2	3.02e+01	46	41	0	506986496	52	5600
2026-01-24 16:31:06.75	199.58	13.21	-38.3	-39.5	29.1	3.02e+01	59	41	0	514850816	52	5756
2026-01-24 16:31:10.78	199.63	12.78	-38.6	-39.8	29.1	3.02e+01	44	41	0	522190848	52	5965
2026-01-24 16:31:14.82	199.67	12.36	-38.6	-39.9	28.9	3.02e+01	59	41	0	529530880	52	6004
2026-01-24 16:31:18.86	199.71	11.94	-38.8	-40.0	28.8	3.02e+01	52	41	0	537395200	52	6130
2026-01-24 16:31:22.89	199.75	11.53	-38.7	-39.9	28.9	3.02e+01	58	41	0	544735232	52	6021
2026-01-24 16:31:26.93	199.79	11.13	-38.3	-39.5	28.8	3.02e+01	58	41	0	552599552	52	5777
2026-01-24 16:31:30.97	199.83	10.74	-39.3	-40.6	28.5	3.02e+01	60	41	0	559939584	52	6502
2026-01-24 16:31:35.00	199.87	10.35	-39.2	-40.5	28.6	3.02e+01	58	41	0	567803904	52	6434
2026-01-24 16:31:39.04	199.91	9.97	-38.8	-40.0	28.6	3.02e+01	61	41	0	575143936	52	6122
2026-01-24 16:31:43.08	199.94	9.59	-39.3	-40.6	28.3	3.02e+01	60	41	0	582483968	52	6507
2026-01-24 16:31:47.12	199.98	9.23	-39.6	-40.8	28.2	3.02e+01	58	41	0	590348288	52	6707
2026-01-24 16:31:51.15	200.01	8.87	-39.6	-40.9	28.2	3.02e+01	57	41	0	597688320	52	6748
2026-01-24 16:31:55.19	200.05	8.51	-39.2	-40.4	28.1	3.02e+01	59	41	0	605552640	52	6409
2026-01-24 16:31:59.23	200.08	8.16	-39.8	-41.1	27.7	3.02e+01	56	41	0	612892672	52	6891
2026-01-24 16:32:03.26	200.12	7.81	-39.6	-40.9	27.9	3.02e+01	60	41	0	620756992	54	6044
2026-01-24 16:32:07.30	200.15	7.47	-39.8	-41.0	27.7	3.02e+01	59	41	0	628097024	54	6131
2026-01-24 16:32:11.34	200.19	7.14	-39.8	-41.1	27.6	3.02e+01	60	41	0	635437056	54	6165
2026-01-24 16:32:15.37	200.22	6.81	-39.9	-41.2	27.2	3.02e+01	60	41	0	643301376	54	6241
2026-01-24 16:32:19.41	200.25	6.48	-40.3	-41.6	26.8	3.02e+01	63	41	0	650641408	54	6545
2026-01-24 16:32:23.45	200.28	6.16	-40.5	-41.8	26.7	3.02e+01	60	41	0	658505728	54	6702
2026-01-24 16:32:27.49	200.31	5.85	-40.5	-41.9	26.7	3.02e+01	53	41	0	665845760	54	6729
2026-01-24 16:32:31.52	200.34	5.53	-41.1	-42.5	26.6	3.02e+01	59	41	0	673710080	56	6449
2026-01-24 16:32:35.55	200.37	5.23	-40.8	-42.1	26.7	3.02e+01	52	41	0	681050112	56	6195
2026-01-24 16:32:39.59	200.40	4.92	-41.2	-42.6	26.0	3.02e+01	60	41	0	688914432	56	6568
2026-01-24 16:32:43.62	200.43	4.62	-41.5	-43.0	25.8	3.02e+01	49	41	0	696254464	56	6822
2026-01-24 16:32:47.66	200.46	4.32	-41.4	-42.9	26.0	3.02e+01	59	41	0	703594496	56	6750
2026-01-24 16:32:51.70	200.49	4.03	-40.8	-42.2	26.1	3.02e+01	52	41	0	711458816	56	6250
2026-01-24 16:32:55.73	200.52	3.74	-41.5	-43.0	25.3	3.02e+01	62	41	0	718798848	56	6867
2026-01-24 16:32:59.77	200.55	3.46	-41.1	-42.6	25.6	3.02e+01	48	41	0	726663168	56	6529
2026-01-24 16:33:03.81	200.58	3.17	-40.1	-41.5	26.4	3.02e+01	56	41	0	734003200	56	5766
2026-01-24 16:33:07.84	200.60	2.89	-51.5	-69.4	3.5	3.02e+01	0	41	104	739246080	60	114174
2026-01-24 16:33:11.88	200.63	2.62	-52.1	-70.1	3.5	3.02e+01	0	41	104	739246080	60	122556
2026-01-24 16:33:15.93	200.66	2.34	-52.7	-70.6	3.5	3.02e+01	0	41	104	739246080	60	130073
2026-01-24 16:33:19.96	200.68	2.07	-52.4	-70.3	3.5	3.02e+01	0	41	104	739246080	60	126579
2026-01-24 16:33:24.00	200.71	1.80	-52.9	-70.7	3.5	3.02e+01	0	41	104	739246080	60	132155
2026-01-24 16:33:28.04	200.74	1.54	-52.5	-70.3	3.5	3.02e+01	0	41	104	739246080	60	126266
2026-01-24 16:33:32.08	200.76	1.27	-52.8	-70.7	3.5	3.02e+01	0	41	104	739246080	60	131389
2026-01-24 16:33:36.12	200.79	1.01	-52.8	-70.6	3.5	3.02e+01	0	41	104	739246080	60	129884
2026-01-24 16:33:40.17	200.81	0.76	-52.5	-70.3	3.5	3.02e+01	0	41	104	739246080	60	126458
2026-01-24 16:33:44.20	200.84	0.50	-52.8	-70.7	3.5	3.02e+01	0	41	104	739246080	60	131550
2026-01-24 16:33:48.25	200.86	0.25	-53.1	-71.0	3.5	3.02e+01	0	41	104	739246080	60	136166
2026-01-24 16:33:52.29	200.89	-0.00	-52.7	-70.5	3.5	3.02e+01	0	41	104	739246080	60	128818

#Closed at: 2026-01-24 16:33:53
#Recorded file [739 MB]: D:/lorett/data/35029_260125_042000.dat