passes_logs/2026/01/24/R4.6S_Anadyr/R4.6S_Anadyr__20260124_033549_NOAA_20_JPSS-1_rec.log

#Pass ID: 20260124_033549_NOAA 20 (JPSS-1)
#Satellite: NOAA 20 (JPSS-1)
#Configuration: NOAA 20
#almurnet v.1.7.20251203
#Start time: 2026-01-24 03:35:53

#Version: 2.2.20231116
#Station: R4.6S_Anadyr
#Location: 177.4865 lon 64.73178 lat
#TLE: 1 43013U 17073A   26023.57676825  .00000205  00000+0  11821-3 0  9990
#TLE: 2 43013  98.7645 324.4259 0001147  27.0566 333.0670 14.19539368423954

#Time	Az	El	Level	Level2	SNR	BER	BlckErr	Temp	State	Recorded	gain1	gain2
2026-01-24 03:35:53.43	249.06	0.13	-51.9	-65.7	3.3	1.54e+00	0	40	0	0	60	69466
2026-01-24 03:35:56.46	249.37	0.25	-52.1	-67.3	3.6	1.51e+00	0	41	104	0	60	83756
2026-01-24 03:35:59.48	249.67	0.36	-51.7	-67.0	3.6	1.51e+00	0	41	104	0	60	80587
2026-01-24 03:36:02.51	249.98	0.48	-51.6	-66.9	3.6	1.51e+00	0	41	104	0	60	80270
2026-01-24 03:36:05.54	250.29	0.59	-51.6	-66.8	3.6	1.51e+00	0	41	104	0	60	79493
2026-01-24 03:36:08.57	250.61	0.70	-51.4	-66.6	3.6	1.51e+00	0	41	104	0	60	77615
2026-01-24 03:36:11.60	250.92	0.82	-51.2	-66.4	3.6	1.51e+00	0	41	104	0	60	75728
2026-01-24 03:36:14.63	251.24	0.93	-50.7	-65.8	3.6	1.51e+00	0	41	104	0	60	70837
2026-01-24 03:36:17.66	251.56	1.04	-49.6	-64.8	3.6	1.51e+00	0	41	104	0	60	62588
2026-01-24 03:36:20.68	251.89	1.16	-49.5	-64.6	3.6	1.51e+00	0	41	104	0	60	61398
2026-01-24 03:36:23.71	252.21	1.27	-49.6	-64.8	3.6	1.51e+00	0	41	104	0	60	62641
2026-01-24 03:36:26.74	252.54	1.38	-49.5	-64.7	3.6	1.51e+00	0	41	104	0	60	62087
2026-01-24 03:36:29.77	252.87	1.49	-49.4	-64.6	3.6	1.51e+00	0	41	104	0	60	61179
2026-01-24 03:36:32.80	253.20	1.60	-49.4	-64.6	3.6	1.51e+00	0	41	104	0	60	61418
2026-01-24 03:36:35.77	253.53	1.71	-49.5	-64.7	3.6	1.51e+00	0	41	104	0	60	61917
2026-01-24 03:36:38.80	253.87	1.82	-49.4	-64.5	3.6	1.51e+00	0	41	104	0	60	61019
2026-01-24 03:36:41.83	254.21	1.93	-49.4	-64.6	3.6	1.51e+00	0	41	104	0	60	61654
2026-01-24 03:36:44.86	254.55	2.04	-49.4	-64.5	3.6	1.51e+00	0	41	104	0	60	60417
2026-01-24 03:36:47.89	254.89	2.15	-49.4	-64.6	3.6	1.51e+00	0	41	104	0	60	61478
2026-01-24 03:36:50.92	255.24	2.26	-49.4	-64.6	3.6	1.51e+00	0	41	104	0	60	61213
2026-01-24 03:36:53.95	255.59	2.37	-49.3	-64.4	3.6	1.51e+00	0	41	104	0	60	59762
2026-01-24 03:36:56.98	255.94	2.48	-49.3	-64.3	3.6	1.51e+00	0	41	104	0	60	59094
2026-01-24 03:37:00.01	256.30	2.59	-49.3	-64.4	3.6	1.51e+00	0	41	104	0	60	60149
2026-01-24 03:37:03.05	256.65	2.69	-49.3	-64.5	3.6	1.51e+00	0	41	104	0	60	60426
2026-01-24 03:37:06.07	257.01	2.80	-49.3	-63.5	3.6	1.51e+00	0	41	104	0	60	53883
2026-01-24 03:37:09.10	257.38	2.91	-49.2	-61.7	3.8	1.51e+00	0	41	104	0	60	44154
2026-01-24 03:37:12.13	257.74	3.01	-48.8	-56.9	5.8	5.46e-01	39	41	0	4194304	60	25358
2026-01-24 03:37:15.16	258.11	3.12	-49.2	-61.6	3.7	1.37e+00	0	41	104	5242880	60	43668
2026-01-24 03:37:18.18	258.47	3.22	-42.8	-44.3	19.6	0.00e+00	91	41	0	6291456	60	5914
2026-01-24 03:37:21.21	258.85	3.33	-43.5	-45.2	19.0	0.00e+00	91	41	0	11534336	60	6555
2026-01-24 03:37:24.24	259.22	3.43	-42.5	-43.9	19.7	0.00e+00	33	41	0	17825792	58	6334
2026-01-24 03:37:27.27	259.60	3.53	-43.1	-44.6	19.3	0.00e+00	90	41	0	23068672	60	6140
2026-01-24 03:37:30.29	259.98	3.64	-42.8	-44.2	19.7	0.00e+00	92	41	0	29360128	58	6589
2026-01-24 03:37:33.32	260.36	3.74	-43.4	-45.1	18.6	0.00e+00	92	41	0	34603008	58	7275
2026-01-24 03:37:36.35	260.74	3.84	-42.4	-43.8	19.7	0.00e+00	92	41	0	39845888	58	6283
2026-01-24 03:37:39.38	261.13	3.94	-42.9	-44.3	19.4	0.00e+00	92	41	0	46137344	58	6690
2026-01-24 03:37:42.41	261.52	4.04	-43.9	-45.6	18.5	0.00e+00	0	41	0	51380224	60	6911
2026-01-24 03:37:45.44	261.91	4.14	-44.3	-46.1	17.8	0.00e+00	92	41	0	57671680	60	7272
2026-01-24 03:37:48.47	262.31	4.24	-43.1	-44.6	19.3	0.00e+00	91	41	0	62914560	58	6926
2026-01-24 03:37:51.50	262.70	4.34	-43.4	-45.0	19.1	0.00e+00	91	41	0	69206016	58	7174
2026-01-24 03:37:54.53	263.10	4.43	-44.3	-46.0	17.9	0.00e+00	69	41	0	74448896	60	7248
2026-01-24 03:37:57.56	263.51	4.53	-44.8	-46.8	17.3	0.00e+00	92	41	0	79691776	60	7893
2026-01-24 03:38:00.58	263.91	4.62	-43.5	-45.1	19.0	0.00e+00	92	41	0	85983232	60	6471
2026-01-24 03:38:03.61	264.32	4.72	-43.7	-45.3	18.9	0.00e+00	59	41	0	91226112	60	6692
2026-01-24 03:38:06.64	264.73	4.81	-48.2	-52.8	14.5	1.08e+00	92	41	104	95420416	60	15756
2026-01-24 03:38:09.67	265.14	4.90	-42.5	-43.8	20.5	0.00e+00	92	41	0	99614720	60	5606
2026-01-24 03:38:12.70	265.55	5.00	-43.3	-44.8	19.7	0.00e+00	2	41	0	105906176	60	6271
2026-01-24 03:38:15.73	265.97	5.09	-43.0	-44.4	19.6	0.00e+00	92	41	0	111149056	60	5995
2026-01-24 03:38:18.76	266.39	5.18	-43.3	-44.8	19.3	0.00e+00	92	41	0	116391936	60	6312
2026-01-24 03:38:21.79	266.81	5.26	-43.6	-45.2	19.1	0.00e+00	15	41	0	122683392	60	6588
2026-01-24 03:38:24.82	267.24	5.35	-42.5	-43.8	20.4	0.00e+00	92	41	0	127926272	58	6269
2026-01-24 03:38:27.85	267.67	5.44	-42.9	-44.3	20.0	0.00e+00	91	41	0	134217728	58	6689
2026-01-24 03:38:30.88	268.10	5.52	-43.6	-45.1	19.3	0.00e+00	92	41	0	139460608	58	7320
2026-01-24 03:38:33.91	268.53	5.61	-43.0	-44.4	19.8	0.00e+00	92	41	0	144703488	58	6729
2026-01-24 03:38:36.94	268.96	5.69	-44.0	-45.7	18.7	0.00e+00	92	41	0	150994944	60	6963
2026-01-24 03:38:39.97	269.40	5.78	-43.3	-44.8	19.4	0.00e+00	92	41	0	156237824	60	6257
2026-01-24 03:38:43.00	269.84	5.86	-43.6	-45.2	19.1	0.00e+00	6	41	0	162529280	60	6557
2026-01-24 03:38:46.03	270.28	5.94	-43.9	-45.5	19.0	0.00e+00	92	41	0	167772160	60	6784
2026-01-24 03:38:49.06	270.72	6.02	-42.3	-43.6	20.6	0.00e+00	92	41	0	174063616	58	6127
2026-01-24 03:38:52.09	271.17	6.09	-44.6	-46.5	17.8	0.00e+00	0	41	0	179306496	60	7628
2026-01-24 03:38:55.11	271.62	6.17	-44.6	-46.4	18.1	0.00e+00	92	41	0	184549376	60	7531
2026-01-24 03:38:58.14	272.07	6.25	-44.5	-46.3	18.0	0.00e+00	90	41	0	190840832	60	7457
2026-01-24 03:39:01.17	272.52	6.32	-43.8	-45.4	19.0	0.00e+00	81	41	0	196083712	60	6700
2026-01-24 03:39:04.19	272.97	6.39	-43.7	-45.3	19.1	0.00e+00	90	41	0	202375168	60	6621
2026-01-24 03:39:07.22	273.43	6.46	-43.5	-45.0	19.3	0.00e+00	89	41	0	207618048	60	6415
2026-01-24 03:39:10.25	273.89	6.53	-43.9	-45.5	19.0	0.00e+00	90	41	0	212860928	60	6799
2026-01-24 03:39:13.28	274.35	6.60	-43.9	-45.5	18.9	0.00e+00	1	41	0	219152384	60	6803
2026-01-24 03:39:16.30	274.81	6.67	-43.5	-45.1	19.2	0.00e+00	92	41	0	224395264	60	6479
2026-01-24 03:39:19.33	275.28	6.74	-44.2	-46.0	18.2	0.00e+00	91	41	0	230686720	60	7181
2026-01-24 03:39:22.36	275.75	6.80	-43.5	-45.0	19.4	0.00e+00	0	41	0	235929600	60	6425
2026-01-24 03:39:25.38	276.21	6.86	-43.5	-45.0	19.3	0.00e+00	92	41	0	241172480	60	6461
2026-01-24 03:39:28.41	276.69	6.93	-42.6	-43.9	20.5	0.00e+00	92	41	0	247463936	58	6323
2026-01-24 03:39:31.44	277.16	6.99	-43.4	-44.9	19.4	0.00e+00	0	41	0	252706816	58	7123
2026-01-24 03:39:34.47	277.63	7.04	-43.7	-45.2	19.0	0.00e+00	92	41	0	258998272	60	6599
2026-01-24 03:39:37.50	278.11	7.10	-44.0	-45.6	18.9	0.00e+00	92	41	0	264241152	60	6893
2026-01-24 03:39:40.52	278.59	7.16	-43.7	-45.2	19.4	0.00e+00	92	41	0	270532608	60	6607
2026-01-24 03:39:43.55	279.07	7.21	-43.9	-45.5	18.9	0.00e+00	92	41	0	275775488	60	6841
2026-01-24 03:39:46.58	279.55	7.26	-44.0	-45.6	18.9	0.00e+00	92	41	0	281018368	60	6882
2026-01-24 03:39:49.61	280.03	7.31	-43.7	-45.3	19.2	0.00e+00	92	41	0	287309824	60	6619
2026-01-24 03:39:52.64	280.52	7.36	-44.2	-45.9	18.6	0.00e+00	69	41	0	292552704	60	7145
2026-01-24 03:39:55.67	281.01	7.41	-44.2	-45.9	18.5	0.00e+00	92	41	0	298844160	60	7116
2026-01-24 03:39:58.70	281.49	7.46	-43.9	-45.5	19.0	0.00e+00	92	41	0	304087040	60	6790
2026-01-24 03:40:01.72	281.98	7.50	-43.8	-45.3	19.2	0.00e+00	0	41	0	309329920	60	6648
2026-01-24 03:40:04.75	282.47	7.54	-43.9	-45.5	19.1	0.00e+00	92	41	0	315621376	60	6801
2026-01-24 03:40:07.77	282.96	7.58	-44.1	-45.7	19.0	0.00e+00	92	41	0	320864256	60	6951
2026-01-24 03:40:10.80	283.46	7.62	-43.7	-45.3	19.2	0.00e+00	92	41	0	327155712	60	6619
2026-01-24 03:40:13.84	283.95	7.66	-44.1	-45.7	19.0	0.00e+00	92	41	0	332398592	60	6978
2026-01-24 03:40:16.86	284.45	7.69	-43.9	-45.4	19.1	0.00e+00	92	41	0	338690048	60	6749
2026-01-24 03:40:19.89	284.95	7.73	-43.8	-45.3	19.2	0.00e+00	92	41	0	343932928	60	6680
2026-01-24 03:40:22.92	285.44	7.76	-43.7	-45.2	19.3	0.00e+00	49	41	0	349175808	60	6592
2026-01-24 03:40:25.95	285.94	7.79	-43.7	-45.1	19.5	0.00e+00	92	41	0	355467264	60	6538
2026-01-24 03:40:28.97	286.44	7.82	-44.0	-45.6	19.0	0.00e+00	90	41	0	360710144	60	6918
2026-01-24 03:40:32.00	286.94	7.84	-43.9	-45.4	19.2	0.00e+00	66	41	0	367001600	60	6752
2026-01-24 03:40:35.03	287.45	7.87	-44.8	-46.6	17.8	0.00e+00	92	41	0	372244480	60	7725
2026-01-24 03:40:38.06	287.95	7.89	-44.4	-46.1	18.4	0.00e+00	92	41	0	377487360	60	7318
2026-01-24 03:40:41.09	288.45	7.91	-44.4	-46.1	18.5	0.00e+00	0	41	0	383778816	60	7268
2026-01-24 03:40:44.12	288.96	7.93	-44.0	-45.7	18.9	0.00e+00	27	41	0	389021696	60	6928
2026-01-24 03:40:47.14	289.46	7.95	-44.2	-45.8	19.0	0.00e+00	90	41	0	395313152	60	7033
2026-01-24 03:40:50.18	289.96	7.96	-44.4	-46.1	18.2	0.00e+00	92	41	0	400556032	60	7286
2026-01-24 03:40:53.21	290.47	7.98	-44.8	-46.6	18.1	0.00e+00	54	41	0	406847488	60	7734
2026-01-24 03:40:56.24	290.98	7.99	-44.8	-46.6	18.0	0.00e+00	92	41	0	412090368	60	7701
2026-01-24 03:40:59.27	291.48	8.00	-44.7	-46.4	18.1	0.00e+00	92	41	0	417333248	60	7585
2026-01-24 03:41:02.30	291.99	8.01	-45.2	-47.2	17.6	0.00e+00	1	41	0	423624704	60	8263
2026-01-24 03:41:05.32	292.49	8.01	-44.2	-45.8	18.9	0.00e+00	92	41	0	428867584	60	7088
2026-01-24 03:41:08.35	293.00	8.02	-43.9	-45.4	19.2	0.00e+00	90	41	0	435159040	60	6747
2026-01-24 03:41:11.38	293.51	8.02	-44.2	-45.8	18.9	0.00e+00	56	41	0	440401920	60	7028
2026-01-24 03:41:14.41	294.01	8.02	-44.7	-46.4	18.1	0.00e+00	5	41	0	445644800	60	7568
2026-01-24 03:41:17.43	294.52	8.02	-43.8	-45.4	19.3	0.00e+00	92	41	0	451936256	60	6697
2026-01-24 03:41:20.46	295.03	8.01	-43.8	-45.3	19.4	0.00e+00	75	41	0	457179136	60	6680
2026-01-24 03:41:23.49	295.53	8.01	-43.0	-44.3	20.3	0.00e+00	0	41	0	463470592	60	5944
2026-01-24 03:41:26.52	296.04	8.00	-43.7	-45.2	19.6	0.00e+00	92	41	0	468713472	60	6593
2026-01-24 03:41:29.54	296.54	7.99	-43.8	-45.3	19.5	0.00e+00	92	41	0	475004928	60	6618
2026-01-24 03:41:32.57	297.05	7.98	-43.8	-45.3	19.3	0.00e+00	73	41	0	480247808	60	6668
2026-01-24 03:41:35.60	297.55	7.96	-44.3	-45.9	18.6	0.00e+00	92	41	0	485490688	60	7135
2026-01-24 03:41:38.63	298.06	7.95	-42.9	-44.2	20.4	0.00e+00	92	42	0	491782144	60	5866
2026-01-24 03:41:41.66	298.56	7.93	-42.8	-44.0	20.6	0.00e+00	0	41	0	497025024	58	6458
2026-01-24 03:41:44.69	299.07	7.91	-42.8	-44.0	20.5	0.00e+00	92	41	0	503316480	58	6463
2026-01-24 03:41:47.72	299.57	7.89	-42.6	-43.8	20.6	0.00e+00	92	41	0	508559360	58	6314
2026-01-24 03:41:50.74	300.07	7.87	-43.1	-44.4	20.2	0.00e+00	18	41	0	513802240	58	6769
2026-01-24 03:41:53.77	300.57	7.84	-42.4	-43.6	20.9	0.00e+00	55	41	0	520093696	58	6165
2026-01-24 03:41:56.80	301.07	7.82	-42.4	-43.6	20.9	0.00e+00	92	41	0	525336576	58	6128
2026-01-24 03:41:59.83	301.57	7.79	-42.7	-44.0	20.5	0.00e+00	92	41	0	531628032	58	6443
2026-01-24 03:42:02.86	302.07	7.76	-42.7	-43.9	20.6	0.00e+00	7	41	0	536870912	58	6384
2026-01-24 03:42:05.88	302.56	7.73	-43.0	-44.3	20.2	0.00e+00	90	41	0	542113792	58	6662
2026-01-24 03:42:08.91	303.06	7.69	-42.5	-43.7	20.7	0.00e+00	90	41	0	548405248	58	6211
2026-01-24 03:42:11.94	303.56	7.66	-42.8	-44.1	20.4	0.00e+00	20	41	0	553648128	58	6508
2026-01-24 03:42:14.96	304.05	7.62	-43.0	-44.4	20.1	0.00e+00	90	41	0	559939584	58	6736
2026-01-24 03:42:18.00	304.54	7.58	-43.0	-44.4	20.1	0.00e+00	92	41	0	565182464	58	6723
2026-01-24 03:42:21.02	305.03	7.54	-43.0	-44.4	20.1	0.00e+00	0	41	0	571473920	58	6697
2026-01-24 03:42:24.05	305.52	7.50	-43.3	-44.8	19.7	0.00e+00	92	41	0	576716800	58	7011
2026-01-24 03:42:27.08	306.01	7.46	-43.5	-44.9	19.5	0.00e+00	92	41	0	581959680	58	7162
2026-01-24 03:42:30.11	306.50	7.41	-43.1	-44.5	19.8	0.00e+00	27	41	0	588251136	58	6833
2026-01-24 03:42:33.13	306.98	7.36	-43.8	-45.4	19.1	0.00e+00	27	41	0	593494016	60	6718
2026-01-24 03:42:36.16	307.46	7.31	-43.1	-44.4	20.0	0.00e+00	92	41	0	599785472	60	6029
2026-01-24 03:42:39.19	307.95	7.26	-42.7	-44.0	20.5	0.00e+00	92	41	0	605028352	58	6409
2026-01-24 03:42:42.22	308.43	7.21	-43.2	-44.6	19.8	0.00e+00	0	41	0	610271232	58	6897
2026-01-24 03:42:45.25	308.91	7.16	-43.4	-44.8	19.5	0.00e+00	90	42	0	616562688	58	7086
2026-01-24 03:42:48.28	309.38	7.10	-43.4	-44.9	19.6	0.00e+00	92	41	0	621805568	58	7096
2026-01-24 03:42:51.31	309.86	7.05	-42.5	-43.8	20.5	0.00e+00	0	41	0	628097024	58	6279
2026-01-24 03:42:54.34	310.33	6.99	-43.0	-44.4	20.1	0.00e+00	24	41	0	633339904	58	6716
2026-01-24 03:42:57.37	310.80	6.93	-42.4	-43.6	20.7	0.00e+00	92	42	0	639631360	58	6151
2026-01-24 03:43:00.40	311.27	6.87	-41.6	-42.8	21.5	0.00e+00	68	41	0	644874240	56	6265
2026-01-24 03:43:03.43	311.74	6.80	-42.8	-44.1	20.3	0.00e+00	56	41	0	650117120	58	6492
2026-01-24 03:43:06.46	312.21	6.74	-42.3	-43.6	20.8	0.00e+00	92	41	0	656408576	58	6130
2026-01-24 03:43:09.48	312.67	6.67	-42.5	-43.7	20.6	0.00e+00	91	41	0	661651456	56	6979
2026-01-24 03:43:12.51	313.13	6.61	-43.0	-44.4	19.9	0.00e+00	0	41	0	667942912	58	6711
2026-01-24 03:43:15.54	313.59	6.54	-42.4	-43.7	20.6	0.00e+00	77	41	0	673185792	58	6195
2026-01-24 03:43:18.57	314.05	6.47	-42.4	-43.6	20.6	0.00e+00	92	41	0	678428672	58	6149
2026-01-24 03:43:21.60	314.50	6.40	-42.7	-44.0	20.3	0.00e+00	0	41	0	684720128	58	6456
2026-01-24 03:43:24.63	314.96	6.33	-42.2	-43.4	20.8	0.00e+00	92	41	0	689963008	58	6000
2026-01-24 03:43:27.65	315.41	6.25	-42.5	-43.8	20.4	0.00e+00	92	41	0	696254464	58	6315
2026-01-24 03:43:30.68	315.86	6.18	-42.5	-43.8	20.3	0.00e+00	0	42	0	701497344	58	6286
2026-01-24 03:43:33.71	316.30	6.10	-43.1	-44.5	19.8	0.00e+00	0	41	0	707788800	58	6801
2026-01-24 03:43:36.74	316.75	6.02	-44.0	-45.7	18.7	0.00e+00	92	42	0	713031680	60	6963
2026-01-24 03:43:39.77	317.19	5.95	-44.0	-45.7	18.9	0.00e+00	0	42	0	718274560	60	6951
2026-01-24 03:43:42.79	317.63	5.87	-43.3	-44.7	19.4	0.00e+00	2	42	0	724566016	60	6240
2026-01-24 03:43:45.82	318.06	5.78	-43.7	-45.3	19.2	0.00e+00	92	41	0	729808896	60	6640
2026-01-24 03:43:48.85	318.50	5.70	-43.1	-44.6	19.8	0.00e+00	91	42	0	736100352	60	6127
2026-01-24 03:43:51.88	318.93	5.62	-43.1	-44.5	19.8	0.00e+00	0	41	0	741343232	58	6833
2026-01-24 03:43:54.90	319.36	5.54	-44.0	-45.7	18.9	0.00e+00	0	42	0	746586112	60	6959
2026-01-24 03:43:57.93	319.79	5.45	-43.4	-45.0	19.2	0.00e+00	91	42	0	752877568	58	7184
2026-01-24 03:44:00.96	320.21	5.37	-44.4	-46.2	18.2	0.00e+00	57	41	0	758120448	60	7401
2026-01-24 03:44:03.99	320.64	5.28	-44.1	-45.8	18.5	0.00e+00	59	42	0	764411904	60	7035
2026-01-24 03:44:07.02	321.06	5.19	-45.3	-47.5	16.7	0.00e+00	91	42	0	769654784	60	8559
2026-01-24 03:44:10.05	321.48	5.10	-43.7	-45.3	19.0	0.00e+00	0	42	0	775946240	60	6646
2026-01-24 03:44:13.08	321.89	5.01	-45.5	-47.8	16.4	0.00e+00	2	42	0	781189120	60	8879
2026-01-24 03:44:16.10	322.30	4.92	-43.8	-45.5	18.7	0.00e+00	92	42	0	786432000	60	6830
2026-01-24 03:44:19.13	322.71	4.83	-44.2	-46.0	18.6	0.00e+00	2	42	0	792723456	60	7178
2026-01-24 03:44:22.16	323.12	4.74	-45.4	-47.6	16.6	0.00e+00	20	42	0	797966336	60	8635
2026-01-24 03:44:25.19	323.53	4.64	-45.3	-47.5	16.7	0.00e+00	92	42	0	804257792	60	8531
2026-01-24 03:44:28.22	323.93	4.55	-45.9	-48.4	15.7	0.00e+00	92	42	0	809500672	60	9466
2026-01-24 03:44:31.25	324.33	4.45	-46.8	-49.9	14.1	7.00e-07	2	42	0	814743552	60	11312
2026-01-24 03:44:34.27	324.73	4.36	-46.9	-50.1	14.4	6.80e-06	0	42	0	821035008	60	11510
2026-01-24 03:44:37.30	325.12	4.26	-45.4	-47.6	16.4	0.00e+00	92	42	0	826277888	60	8717
2026-01-24 03:44:40.33	325.52	4.16	-46.1	-48.9	14.8	0.00e+00	24	42	0	832569344	60	10047
2026-01-24 03:44:43.36	325.91	4.07	-45.1	-47.3	16.6	0.00e+00	0	42	0	837812224	60	8417
2026-01-24 03:44:46.39	326.30	3.97	-45.2	-47.5	16.7	0.00e+00	68	42	0	844103680	60	8547
2026-01-24 03:44:49.42	326.68	3.87	-45.7	-48.2	15.5	0.00e+00	85	42	0	849346560	60	9247
2026-01-24 03:44:52.45	327.07	3.77	-45.7	-48.3	15.7	0.00e+00	0	42	0	854589440	60	9347
2026-01-24 03:44:55.48	327.45	3.67	-45.3	-47.6	16.3	0.00e+00	5	42	0	860880896	60	8715
2026-01-24 03:44:58.51	327.82	3.56	-43.5	-45.1	18.7	0.00e+00	90	42	0	866123776	60	6529
2026-01-24 03:45:01.53	328.20	3.46	-43.5	-45.2	18.7	0.00e+00	23	42	0	872415232	60	6541
2026-01-24 03:45:04.56	328.57	3.36	-46.1	-49.0	14.9	2.82e-05	62	42	0	877658112	60	10245
2026-01-24 03:45:07.59	328.94	3.26	-46.6	-50.2	13.0	0.00e+00	92	42	0	882900992	60	11755
2026-01-24 03:45:10.62	329.31	3.15	-44.6	-46.9	16.1	0.00e+00	5	42	0	889192448	60	7987
2026-01-24 03:45:13.65	329.68	3.05	-46.0	-49.3	13.9	6.88e-04	8	42	0	894435328	60	10537
2026-01-24 03:45:16.67	330.04	2.94	-50.1	-65.4	3.6	1.51e+00	0	42	104	897581056	60	67040
2026-01-24 03:45:19.71	330.40	2.84	-50.9	-66.1	3.6	1.51e+00	0	42	104	897581056	60	72547
2026-01-24 03:45:22.73	330.76	2.73	-51.2	-66.4	3.6	1.51e+00	0	42	104	897581056	60	75288
2026-01-24 03:45:25.77	331.11	2.63	-51.3	-66.5	3.6	1.51e+00	0	42	104	897581056	60	75981
2026-01-24 03:45:28.80	331.47	2.52	-51.3	-66.5	3.6	1.51e+00	0	42	104	897581056	60	76478
2026-01-24 03:45:31.83	331.82	2.41	-51.2	-66.5	3.6	1.51e+00	0	42	104	897581056	60	76086
2026-01-24 03:45:34.86	332.17	2.30	-51.2	-66.5	3.6	1.51e+00	0	42	104	897581056	60	76695
2026-01-24 03:45:37.89	332.51	2.20	-51.2	-66.4	3.6	1.51e+00	0	42	104	897581056	60	75497
2026-01-24 03:45:40.92	332.85	2.09	-51.2	-66.4	3.6	1.51e+00	0	42	104	897581056	60	75394
2026-01-24 03:45:43.95	333.20	1.98	-51.3	-66.4	3.6	1.51e+00	0	42	104	897581056	60	75947
2026-01-24 03:45:46.97	333.53	1.87	-51.3	-66.5	3.6	1.51e+00	0	42	104	897581056	60	76145
2026-01-24 03:45:50.00	333.87	1.76	-51.3	-66.5	3.6	1.51e+00	0	42	104	897581056	60	76701
2026-01-24 03:45:53.03	334.20	1.65	-51.3	-66.4	3.6	1.51e+00	0	42	104	897581056	60	75728
2026-01-24 03:45:56.06	334.54	1.54	-51.4	-66.6	3.6	1.51e+00	0	42	104	897581056	60	76939
2026-01-24 03:45:59.09	334.86	1.43	-51.3	-66.5	3.6	1.51e+00	0	42	104	897581056	60	76356
2026-01-24 03:46:02.12	335.19	1.32	-51.4	-66.7	3.6	1.51e+00	0	42	104	897581056	60	77755
2026-01-24 03:46:05.15	335.52	1.21	-51.2	-66.5	3.6	1.51e+00	0	42	104	897581056	60	76060
2026-01-24 03:46:08.18	335.84	1.10	-51.4	-66.6	3.6	1.51e+00	0	42	104	897581056	60	77054
2026-01-24 03:46:11.22	336.16	0.99	-51.3	-66.5	3.6	1.51e+00	0	42	104	897581056	60	76676
2026-01-24 03:46:14.25	336.48	0.87	-51.3	-66.5	3.6	1.51e+00	0	42	104	897581056	60	76805
2026-01-24 03:46:17.28	336.79	0.76	-51.4	-66.7	3.6	1.51e+00	0	42	104	897581056	60	77803
2026-01-24 03:46:20.31	337.11	0.65	-51.3	-66.4	3.6	1.51e+00	0	42	104	897581056	60	75822
2026-01-24 03:46:23.33	337.42	0.54	-51.4	-66.6	3.6	1.51e+00	0	42	104	897581056	60	77508
2026-01-24 03:46:26.36	337.73	0.42	-51.3	-66.5	3.6	1.51e+00	0	42	104	897581056	60	76332
2026-01-24 03:46:29.40	338.03	0.31	-51.5	-66.7	3.6	1.51e+00	0	42	104	897581056	60	78600
2026-01-24 03:46:32.43	338.34	0.20	-51.4	-66.6	3.6	1.51e+00	0	42	104	897581056	60	77153
2026-01-24 03:46:35.46	338.64	0.08	-51.4	-66.6	3.6	1.51e+00	0	42	104	897581056	60	77382
2026-01-24 03:46:38.49	338.94	-0.03	-51.4	-66.6	3.6	1.51e+00	0	42	104	897581056	60	77369

#Closed at: 2026-01-24 03:46:39
#Recorded file [897 MB]: D:/lorett/data/35029_260124_153553.dat