passes_logs/2026/01/24/R4.6S_Anadyr/R4.6S_Anadyr__20260124_001025_NOAA_20_JPSS-1_rec.log

#Pass ID: 20260124_001025_NOAA 20 (JPSS-1)
#Satellite: NOAA 20 (JPSS-1)
#Configuration: NOAA 20
#almurnet v.1.7.20251203
#Start time: 2026-01-24 00:10:26

#Version: 2.2.20231116
#Station: R4.6S_Anadyr
#Location: 177.4865 lon 64.73178 lat
#TLE: 1 43013U 17073A   26023.57676825  .00000205  00000+0  11821-3 0  9990
#TLE: 2 43013  98.7645 324.4259 0001147  27.0566 333.0670 14.19539368423954

#Time	Az	El	Level	Level2	SNR	BER	BlckErr	Temp	State	Recorded	gain1	gain2
2026-01-24 00:10:26.31	155.08	0.07	-51.1	-66.0	3.5	1.51e+00	0	39	0	0	60	72175
2026-01-24 00:10:30.34	155.09	0.32	-51.1	-66.3	3.6	1.51e+00	0	40	104	0	60	74581
2026-01-24 00:10:34.38	155.10	0.56	-51.1	-66.2	3.6	1.51e+00	0	40	104	0	60	74170
2026-01-24 00:10:38.42	155.11	0.81	-51.0	-66.2	3.6	1.51e+00	0	40	104	0	60	73755
2026-01-24 00:10:42.45	155.12	1.06	-50.6	-65.8	3.6	1.51e+00	0	40	104	0	60	70252
2026-01-24 00:10:46.49	155.13	1.31	-49.2	-64.4	3.6	1.51e+00	0	40	104	0	60	59776
2026-01-24 00:10:50.53	155.14	1.57	-48.4	-63.6	3.6	1.51e+00	0	41	104	0	60	54749
2026-01-24 00:10:54.57	155.14	1.83	-48.4	-63.6	3.6	1.51e+00	0	41	104	0	60	54843
2026-01-24 00:10:58.61	155.15	2.08	-48.4	-63.5	3.6	1.51e+00	0	41	104	0	60	54371
2026-01-24 00:11:02.65	155.16	2.35	-48.4	-63.7	3.6	1.51e+00	0	41	104	0	60	55229
2026-01-24 00:11:06.68	155.17	2.61	-48.3	-63.3	3.6	1.51e+00	0	41	104	0	60	52928
2026-01-24 00:11:10.73	155.18	2.88	-48.3	-62.5	3.6	1.51e+00	0	41	104	0	60	48106
2026-01-24 00:11:14.77	155.19	3.15	-48.3	-62.9	3.6	1.51e+00	0	41	104	0	60	50585
2026-01-24 00:11:18.81	155.19	3.42	-48.0	-57.3	4.6	8.80e-01	92	41	0	1048576	60	26338
2026-01-24 00:11:22.85	155.20	3.69	-47.9	-56.0	5.5	4.44e-01	0	41	0	8388608	60	22811
2026-01-24 00:11:26.88	155.21	3.97	-48.3	-61.9	3.6	9.24e-01	0	41	104	11534336	60	45118
2026-01-24 00:11:30.92	155.22	4.25	-46.9	-51.7	11.1	3.43e-03	90	41	0	11534336	60	13840
2026-01-24 00:11:34.95	155.23	4.53	-46.6	-51.1	11.4	1.28e-03	90	41	0	18874368	60	13043
2026-01-24 00:11:38.99	155.23	4.82	-46.8	-51.6	11.1	1.87e-03	2	41	0	26214400	60	13748
2026-01-24 00:11:43.03	155.24	5.11	-46.9	-51.5	11.1	1.83e-03	91	41	0	34603008	60	13623
2026-01-24 00:11:47.06	155.25	5.40	-46.8	-51.1	11.7	5.55e-04	92	41	0	41943040	60	12915
2026-01-24 00:11:51.10	155.26	5.70	-46.6	-50.6	12.5	9.68e-05	92	41	0	49283072	60	12195
2026-01-24 00:11:55.14	155.26	5.99	-46.4	-50.1	12.8	6.33e-05	6	41	0	56623104	60	11592
2026-01-24 00:11:59.18	155.27	6.30	-46.3	-49.7	13.4	1.22e-05	90	41	0	65011712	60	11082
2026-01-24 00:12:03.22	155.28	6.60	-46.1	-49.5	13.8	7.60e-06	90	41	0	72351744	60	10739
2026-01-24 00:12:07.26	155.29	6.91	-46.0	-49.1	14.1	7.00e-07	92	41	0	79691776	60	10347
2026-01-24 00:12:11.30	155.29	7.23	-45.8	-48.8	14.5	0.00e+00	0	41	0	87031808	60	9903
2026-01-24 00:12:15.34	155.30	7.55	-45.8	-48.7	14.6	7.00e-07	91	41	0	94371840	60	9881
2026-01-24 00:12:19.38	155.31	7.87	-46.0	-49.0	14.3	7.00e-07	92	41	0	102760448	60	10191
2026-01-24 00:12:23.42	155.31	8.19	-46.0	-49.1	14.1	0.00e+00	92	41	0	110100480	60	10362
2026-01-24 00:12:27.45	155.32	8.52	-46.0	-49.1	14.2	1.50e-06	0	41	0	117440512	60	10257
2026-01-24 00:12:31.49	155.33	8.86	-46.0	-49.1	14.1	2.20e-06	92	41	0	124780544	60	10328
2026-01-24 00:12:35.53	155.33	9.20	-46.1	-49.3	13.9	6.10e-06	90	41	0	133169152	60	10591
2026-01-24 00:12:39.57	155.34	9.54	-46.2	-49.4	14.0	2.20e-06	92	41	0	140509184	60	10707
2026-01-24 00:12:43.61	155.34	9.89	-46.0	-48.9	14.6	0.00e+00	9	41	0	147849216	60	10110
2026-01-24 00:12:47.64	155.35	10.24	-45.6	-48.3	15.4	0.00e+00	92	41	0	155189248	60	9365
2026-01-24 00:12:51.68	155.36	10.60	-45.4	-47.8	15.9	0.00e+00	92	41	0	162529280	60	8906
2026-01-24 00:12:55.72	155.36	10.96	-45.4	-47.8	15.9	0.00e+00	88	41	0	170917888	60	8872
2026-01-24 00:12:59.75	155.37	11.33	-45.2	-47.5	16.3	0.00e+00	83	41	0	178257920	60	8616
2026-01-24 00:13:03.79	155.37	11.71	-45.2	-47.5	16.4	0.00e+00	91	41	0	185597952	60	8604
2026-01-24 00:13:07.83	155.38	12.09	-45.1	-47.3	16.5	0.00e+00	93	41	0	192937984	60	8387
2026-01-24 00:13:11.86	155.38	12.47	-45.2	-47.6	16.3	0.00e+00	40	41	0	201326592	60	8631
2026-01-24 00:13:15.90	155.38	12.87	-45.2	-47.5	16.2	0.00e+00	90	41	0	208666624	60	8605
2026-01-24 00:13:19.93	155.39	13.27	-45.1	-47.5	16.1	0.00e+00	92	41	0	216006656	60	8545
2026-01-24 00:13:23.97	155.39	13.67	-45.0	-47.3	16.5	0.00e+00	92	41	0	223346688	60	8346
2026-01-24 00:13:28.01	155.40	14.09	-44.9	-47.1	16.8	0.00e+00	18	41	0	230686720	60	8215
2026-01-24 00:13:32.04	155.40	14.51	-44.6	-46.7	17.2	0.00e+00	91	41	0	239075328	60	7824
2026-01-24 00:13:36.08	155.40	14.93	-44.5	-46.6	17.3	0.00e+00	92	41	0	246415360	60	7749
2026-01-24 00:13:40.12	155.40	15.37	-44.7	-46.7	17.2	0.00e+00	90	41	0	253755392	60	7850
2026-01-24 00:13:44.15	155.41	15.81	-44.5	-46.5	17.5	0.00e+00	74	41	0	261095424	60	7651
2026-01-24 00:13:48.19	155.41	16.26	-44.3	-46.3	17.6	0.00e+00	92	41	0	269484032	60	7474
2026-01-24 00:13:52.23	155.41	16.72	-44.1	-46.0	17.9	0.00e+00	91	41	0	276824064	60	7217
2026-01-24 00:13:56.27	155.41	17.19	-43.9	-45.8	18.0	0.00e+00	92	41	0	284164096	60	7026
2026-01-24 00:14:00.31	155.41	17.67	-43.6	-45.4	18.3	0.00e+00	0	41	0	291504128	60	6706
2026-01-24 00:14:04.34	155.41	18.16	-43.1	-44.7	19.1	0.00e+00	92	42	0	298844160	60	6238
2026-01-24 00:14:08.38	155.41	18.65	-42.3	-43.6	20.4	0.00e+00	92	41	0	307232768	58	6159
2026-01-24 00:14:12.41	155.41	19.16	-41.3	-42.4	22.0	0.00e+00	92	42	0	314572800	56	6015
2026-01-24 00:14:16.45	155.41	19.68	-40.8	-41.7	22.7	0.00e+00	0	42	0	321912832	56	5566
2026-01-24 00:14:20.49	155.41	20.21	-40.3	-41.2	23.2	0.00e+00	92	42	0	329252864	54	5886
2026-01-24 00:14:24.53	155.41	20.75	-40.1	-41.0	23.4	0.00e+00	91	41	0	337641472	54	5733
2026-01-24 00:14:28.56	155.41	21.30	-40.0	-40.9	23.4	0.00e+00	92	41	0	344981504	54	5695
2026-01-24 00:14:32.61	155.40	21.87	-40.0	-40.9	23.5	0.00e+00	14	42	0	352321536	54	5688
2026-01-24 00:14:36.64	155.40	22.44	-39.9	-40.8	23.7	0.00e+00	90	42	0	359661568	54	5621
2026-01-24 00:14:40.68	155.39	23.03	-39.9	-40.7	23.8	0.00e+00	90	42	0	367001600	54	5566
2026-01-24 00:14:44.71	155.39	23.64	-39.8	-40.6	23.9	0.00e+00	70	42	0	375390208	54	5501
2026-01-24 00:14:48.75	155.38	24.26	-39.7	-40.6	24.0	0.00e+00	87	42	0	382730240	52	6115
2026-01-24 00:14:52.79	155.38	24.89	-39.7	-40.5	24.1	0.00e+00	90	41	0	390070272	52	6091
2026-01-24 00:14:56.82	155.37	25.54	-39.9	-40.7	23.8	0.00e+00	92	42	0	397410304	52	6242
2026-01-24 00:15:00.86	155.36	26.21	-40.1	-41.0	23.6	0.00e+00	90	42	0	404750336	52	6455
2026-01-24 00:15:04.90	155.35	26.89	-40.5	-41.4	23.3	0.00e+00	92	42	0	413138944	52	6726
2026-01-24 00:15:08.94	155.34	27.59	-40.8	-41.8	22.9	0.00e+00	92	42	0	420478976	54	6287
2026-01-24 00:15:12.98	155.33	28.31	-41.4	-42.4	22.4	0.00e+00	92	42	0	427819008	54	6738
2026-01-24 00:15:17.01	155.32	29.05	-42.3	-43.4	21.6	0.00e+00	46	42	0	435159040	56	6729
2026-01-24 00:15:21.05	155.30	29.81	-43.2	-44.5	20.5	0.00e+00	92	42	0	443547648	58	6810
2026-01-24 00:15:25.09	155.29	30.59	-43.7	-45.1	20.0	0.00e+00	92	42	0	450887680	58	7269
2026-01-24 00:15:29.12	155.27	31.39	-43.6	-45.0	20.2	0.00e+00	92	42	0	458227712	60	6407
2026-01-24 00:15:33.16	155.25	32.21	-43.3	-44.6	20.5	0.00e+00	32	42	0	465567744	60	6171
2026-01-24 00:15:37.19	155.23	33.05	-42.6	-43.8	21.2	0.00e+00	92	42	0	472907776	58	6260
2026-01-24 00:15:41.23	155.21	33.92	-41.9	-42.9	22.0	0.00e+00	90	42	0	481296384	58	5691
2026-01-24 00:15:45.27	155.19	34.82	-41.1	-42.1	22.9	0.00e+00	90	42	0	488636416	56	5765
2026-01-24 00:15:49.31	155.16	35.74	-39.7	-40.6	24.1	0.00e+00	0	42	0	495976448	54	5478
2026-01-24 00:15:53.34	155.14	36.69	-39.0	-39.8	24.7	0.00e+00	91	42	0	503316480	52	5591
2026-01-24 00:15:57.38	155.10	37.67	-38.8	-39.6	24.9	0.00e+00	92	42	0	511705088	50	6113
2026-01-24 00:16:01.42	155.07	38.68	-38.8	-39.6	25.0	0.00e+00	91	42	0	519045120	50	6132
2026-01-24 00:16:05.46	155.03	39.71	-39.1	-39.9	24.7	0.00e+00	1	42	0	526385152	50	6345
2026-01-24 00:16:09.50	154.99	40.78	-39.3	-40.1	24.5	0.00e+00	92	42	0	533725184	50	6496
2026-01-24 00:16:13.53	154.95	41.88	-39.6	-40.4	24.3	0.00e+00	92	42	0	541065216	50	6745
2026-01-24 00:16:17.57	154.90	43.02	-39.6	-40.5	24.2	0.00e+00	14	42	0	549453824	52	6064
2026-01-24 00:16:21.61	154.85	44.19	-39.6	-40.4	24.2	0.00e+00	5	42	0	556793856	52	6002
2026-01-24 00:16:25.65	154.79	45.40	-41.5	-42.5	22.4	0.00e+00	92	42	0	564133888	54	6818
2026-01-24 00:16:29.68	154.73	46.64	-43.3	-44.7	20.4	0.00e+00	92	42	0	571473920	58	6946
2026-01-24 00:16:33.72	154.66	47.92	-42.8	-44.0	21.0	0.00e+00	36	42	0	579862528	58	6433
2026-01-24 00:16:37.75	154.58	49.24	-42.6	-43.8	21.3	0.00e+00	92	42	0	587202560	58	6248
2026-01-24 00:16:41.79	154.49	50.61	-41.5	-42.5	22.5	0.00e+00	90	42	0	594542592	56	6099
2026-01-24 00:16:45.83	154.40	52.01	-38.9	-39.7	24.8	0.00e+00	92	42	0	601882624	52	5543
2026-01-24 00:16:49.87	154.29	53.46	-38.6	-39.4	25.1	0.00e+00	0	42	0	609222656	50	6020
2026-01-24 00:16:53.90	154.17	54.94	-38.7	-39.5	24.9	0.00e+00	92	42	0	617611264	50	6094
2026-01-24 00:16:57.94	154.04	56.47	-41.1	-42.1	22.8	0.00e+00	92	42	0	624951296	54	6489
2026-01-24 00:17:01.98	153.89	58.04	-42.6	-43.8	21.3	0.00e+00	90	42	0	632291328	56	7019
2026-01-24 00:17:06.02	153.71	59.66	-42.2	-43.3	21.9	0.00e+00	0	42	0	639631360	56	6687
2026-01-24 00:17:10.06	153.51	61.32	-39.3	-40.2	24.4	0.00e+00	92	42	0	646971392	52	5838
2026-01-24 00:17:14.09	153.29	63.02	-38.4	-39.2	25.2	0.00e+00	92	42	0	655360000	50	5852
2026-01-24 00:17:18.13	153.02	64.76	-39.1	-39.9	24.5	0.00e+00	90	42	0	662700032	50	6369
2026-01-24 00:17:22.17	152.70	66.54	-42.0	-43.0	22.0	0.00e+00	0	42	0	670040064	56	6449
2026-01-24 00:17:26.21	152.33	68.36	-42.4	-43.6	21.5	0.00e+00	90	42	0	677380096	56	6872
2026-01-24 00:17:30.24	151.87	70.22	-42.3	-43.5	21.5	0.00e+00	90	42	0	685768704	58	6052
2026-01-24 00:17:34.28	151.31	72.11	-42.8	-44.1	21.0	0.00e+00	0	42	0	693108736	58	6476
2026-01-24 00:17:38.32	150.61	74.04	-44.5	-46.1	19.3	0.00e+00	0	42	0	700448768	60	7296
2026-01-24 00:17:42.36	149.69	75.99	-43.6	-45.0	20.3	0.00e+00	90	42	0	707788800	60	6442
2026-01-24 00:17:46.40	148.46	77.96	-44.6	-46.2	19.0	0.00e+00	92	42	0	715128832	60	7412
2026-01-24 00:17:50.43	146.73	79.95	-40.8	-41.8	23.2	0.00e+00	0	42	0	723517440	56	5573
2026-01-24 00:17:54.47	144.11	81.94	-43.5	-44.8	20.4	0.00e+00	66	42	0	730857472	58	7017
2026-01-24 00:17:58.51	139.73	83.93	-40.0	-40.9	24.0	0.00e+00	92	42	0	738197504	54	5638
2026-01-24 00:18:02.55	131.16	85.85	-38.5	-39.3	25.3	0.00e+00	92	42	0	745537536	48	6636
2026-01-24 00:18:06.58	109.52	87.54	-40.4	-41.3	24.0	0.00e+00	50	42	0	753926144	52	6631
2026-01-24 00:18:10.62	54.02	88.14	-38.4	-39.1	25.3	0.00e+00	92	42	0	761266176	50	5816
2026-01-24 00:18:14.66	13.08	86.91	-41.9	-42.9	22.4	0.00e+00	92	42	0	768606208	56	6389
2026-01-24 00:18:18.69	358.77	85.09	-39.3	-40.1	24.4	0.00e+00	38	42	0	775946240	52	5788
2026-01-24 00:18:22.72	352.41	83.13	-40.9	-41.8	23.1	0.00e+00	54	42	0	783286272	52	7058
2026-01-24 00:18:26.76	348.91	81.14	-41.6	-42.6	22.7	0.00e+00	92	42	0	791674880	56	6168
2026-01-24 00:18:30.80	346.71	79.15	-40.3	-41.2	23.5	0.00e+00	92	42	0	799014912	52	6548
2026-01-24 00:18:34.83	345.22	77.17	-41.8	-42.8	22.4	0.00e+00	0	42	0	806354944	56	6278
2026-01-24 00:18:38.87	344.13	75.21	-43.4	-44.7	20.4	0.00e+00	38	42	0	813694976	58	6982
2026-01-24 00:18:42.91	343.31	73.27	-41.9	-43.0	22.2	0.00e+00	92	42	0	821035008	56	6422
2026-01-24 00:18:46.95	342.67	71.36	-40.9	-41.8	23.0	0.00e+00	92	42	0	829423616	56	5605
2026-01-24 00:18:50.99	342.15	69.49	-43.4	-44.7	20.2	0.00e+00	2	42	0	836763648	58	7000
2026-01-24 00:18:55.03	341.73	67.65	-44.8	-46.5	18.7	0.00e+00	7	42	0	844103680	60	7632
2026-01-24 00:18:59.07	341.38	65.84	-42.9	-44.2	21.0	0.00e+00	92	42	0	851443712	60	5854
2026-01-24 00:19:03.10	341.09	64.08	-38.9	-39.7	24.9	0.00e+00	90	42	0	859832320	52	5520
2026-01-24 00:19:07.14	340.84	62.36	-37.8	-38.5	25.7	0.00e+00	0	42	0	867172352	48	6091
2026-01-24 00:19:11.18	340.62	60.68	-40.9	-41.9	23.0	0.00e+00	52	42	0	874512384	54	6362
2026-01-24 00:19:15.21	340.44	59.05	-41.7	-42.8	22.2	0.00e+00	90	42	0	881852416	56	6265
2026-01-24 00:19:19.25	340.27	57.45	-43.6	-45.0	20.3	0.00e+00	92	42	0	889192448	60	6462
2026-01-24 00:19:23.28	340.13	55.91	-40.3	-41.1	23.5	0.00e+00	0	42	0	897581056	54	5828
2026-01-24 00:19:27.31	340.00	54.40	-40.5	-41.5	23.2	0.00e+00	0	41	0	904921088	54	6067
2026-01-24 00:19:31.35	339.89	52.93	-38.9	-39.7	24.8	0.00e+00	92	41	0	912261120	50	6232
2026-01-24 00:19:35.39	339.79	51.51	-41.3	-42.3	22.5	0.00e+00	92	42	0	919601152	54	6637
2026-01-24 00:19:39.43	339.70	50.13	-41.5	-42.5	22.4	0.00e+00	0	41	0	927989760	56	6096
2026-01-24 00:19:43.47	339.61	48.78	-45.9	-48.2	16.9	0.00e+00	74	41	0	935329792	60	9241
2026-01-24 00:19:47.50	339.54	47.48	-41.8	-42.9	22.2	0.00e+00	92	42	0	942669824	58	5646
2026-01-24 00:19:51.54	339.47	46.22	-42.3	-43.4	21.7	0.00e+00	92	41	0	950009856	56	6721
2026-01-24 00:19:55.57	339.41	45.00	-42.3	-43.5	21.6	0.00e+00	50	41	0	957349888	58	6077
2026-01-24 00:19:59.60	339.36	43.81	-39.4	-40.2	24.5	0.00e+00	92	41	0	965738496	52	5859
2026-01-24 00:20:03.64	339.31	42.66	-40.9	-41.9	22.9	0.00e+00	92	41	0	973078528	52	7110
2026-01-24 00:20:07.68	339.27	41.54	-42.5	-43.7	21.3	0.00e+00	35	41	0	980418560	58	6229
2026-01-24 00:20:11.71	339.22	40.45	-41.0	-42.0	22.8	0.00e+00	0	41	0	987758592	56	5736
2026-01-24 00:20:15.75	339.19	39.40	-42.7	-43.9	21.1	0.00e+00	92	41	0	996147200	56	7165
2026-01-24 00:20:19.79	339.15	38.38	-45.4	-47.4	17.9	0.00e+00	92	41	0	1003487232	60	8464
2026-01-24 00:20:23.82	339.12	37.39	-43.3	-44.7	20.5	0.00e+00	0	41	0	1010827264	60	6194
2026-01-24 00:20:27.86	339.09	36.42	-42.3	-43.4	21.6	0.00e+00	0	41	0	1018167296	58	5998
2026-01-24 00:20:31.90	339.07	35.49	-43.4	-44.7	20.3	0.00e+00	92	41	0	1025507328	58	6970
2026-01-24 00:20:35.93	339.04	34.58	-46.2	-48.5	16.6	0.00e+00	92	41	0	1033895936	60	9665
2026-01-24 00:20:39.97	339.02	33.70	-46.1	-48.4	16.8	0.00e+00	48	41	0	1041235968	60	9461
2026-01-24 00:20:44.00	339.00	32.84	-44.1	-45.5	19.6	0.00e+00	0	41	0	1048576000	60	6831
2026-01-24 00:20:48.04	338.98	32.01	-43.2	-44.5	20.6	0.00e+00	92	41	0	1055916032	60	6063
2026-01-24 00:20:52.08	338.97	31.19	-43.4	-44.8	20.3	0.00e+00	92	41	0	1064304640	60	6246
2026-01-24 00:20:56.11	338.95	30.41	-44.7	-46.4	18.7	0.00e+00	0	41	0	1071644672	60	7582
2026-01-24 00:21:00.15	338.94	29.64	-44.9	-46.7	18.5	0.00e+00	12	41	0	1078984704	60	7809
2026-01-24 00:21:04.19	338.93	28.89	-43.6	-45.0	19.9	0.00e+00	92	41	0	1086324736	60	6425
2026-01-24 00:21:08.23	338.92	28.16	-42.4	-43.6	21.4	0.00e+00	0	41	0	1093664768	58	6126
2026-01-24 00:21:12.26	338.91	27.45	-41.1	-42.0	22.8	0.00e+00	0	41	0	1102053376	56	5750
2026-01-24 00:21:16.30	338.90	26.76	-40.7	-41.7	23.0	0.00e+00	0	41	0	1109393408	54	6192
2026-01-24 00:21:20.34	338.89	26.09	-40.5	-41.5	23.1	0.00e+00	92	41	0	1116733440	54	6057
2026-01-24 00:21:24.38	338.89	25.43	-40.8	-41.8	22.9	0.00e+00	48	41	0	1124073472	54	6258
2026-01-24 00:21:28.41	338.88	24.79	-40.7	-41.7	22.9	0.00e+00	49	41	0	1131413504	54	6179
2026-01-24 00:21:32.45	338.88	24.16	-40.4	-41.3	23.3	0.00e+00	92	41	0	1139802112	54	5929
2026-01-24 00:21:36.49	338.87	23.55	-39.6	-40.4	24.1	0.00e+00	55	41	0	1147142144	52	6031
2026-01-24 00:21:40.53	338.87	22.95	-39.4	-40.2	24.2	0.00e+00	56	41	0	1154482176	52	5886
2026-01-24 00:21:44.57	338.87	22.36	-39.5	-40.4	24.1	0.00e+00	31	41	0	1161822208	52	5983
2026-01-24 00:21:48.61	338.87	21.79	-39.5	-40.3	24.1	0.00e+00	92	41	0	1170210816	52	5936
2026-01-24 00:21:52.64	338.87	21.24	-39.5	-40.3	24.1	0.00e+00	0	41	0	1177550848	52	5964
2026-01-24 00:21:56.68	338.87	20.69	-39.8	-40.7	23.8	0.00e+00	32	41	0	1184890880	52	6175
2026-01-24 00:22:00.72	338.87	20.15	-40.1	-41.0	23.5	0.00e+00	49	41	0	1192230912	52	6429
2026-01-24 00:22:04.76	338.87	19.63	-40.3	-41.3	23.1	0.00e+00	92	41	0	1199570944	52	6634
2026-01-24 00:22:08.79	338.87	19.12	-40.4	-41.3	23.2	0.00e+00	51	41	0	1207959552	52	6683
2026-01-24 00:22:12.83	338.87	18.62	-40.4	-41.4	23.2	0.00e+00	2	41	0	1215299584	52	6716
2026-01-24 00:22:16.87	338.87	18.12	-40.6	-41.6	22.9	0.00e+00	14	41	0	1222639616	52	6874
2026-01-24 00:22:20.91	338.88	17.64	-40.4	-41.4	23.0	0.00e+00	92	41	0	1229979648	52	6753
2026-01-24 00:22:24.95	338.88	17.17	-40.4	-41.4	23.0	0.00e+00	53	41	0	1238368256	52	6762
2026-01-24 00:22:28.98	338.88	16.70	-40.5	-41.5	22.9	0.00e+00	0	41	0	1245708288	52	6836
2026-01-24 00:22:33.02	338.89	16.25	-40.5	-41.6	22.9	0.00e+00	0	41	0	1253048320	52	6861
2026-01-24 00:22:37.06	338.89	15.80	-40.6	-41.7	22.8	0.00e+00	92	41	0	1260388352	52	6934
2026-01-24 00:22:41.10	338.90	15.36	-40.5	-41.5	22.9	0.00e+00	29	41	0	1267728384	52	6829
2026-01-24 00:22:45.13	338.90	14.93	-40.6	-41.7	22.7	0.00e+00	29	41	0	1276116992	54	6183
2026-01-24 00:22:49.17	338.91	14.51	-40.6	-41.7	22.7	0.00e+00	11	41	0	1283457024	54	6177
2026-01-24 00:22:53.21	338.92	14.09	-40.5	-41.6	22.8	0.00e+00	92	41	0	1290797056	54	6109
2026-01-24 00:22:57.24	338.92	13.68	-40.8	-41.9	22.5	0.00e+00	2	41	0	1298137088	54	6355
2026-01-24 00:23:01.29	338.93	13.28	-40.9	-42.0	22.4	0.00e+00	0	41	0	1306525696	54	6408
2026-01-24 00:23:05.32	338.93	12.88	-41.2	-42.3	22.0	0.00e+00	26	41	0	1313865728	54	6659
2026-01-24 00:23:09.36	338.94	12.49	-41.1	-42.3	22.1	0.00e+00	60	41	0	1321205760	54	6647
2026-01-24 00:23:13.39	338.95	12.11	-41.2	-42.4	22.0	0.00e+00	6	41	0	1328545792	54	6737
2026-01-24 00:23:17.43	338.96	11.73	-41.2	-42.4	22.0	0.00e+00	5	41	0	1335885824	54	6753
2026-01-24 00:23:21.47	338.96	11.36	-41.4	-42.6	21.8	0.00e+00	92	41	0	1344274432	54	6862
2026-01-24 00:23:25.50	338.97	10.99	-41.4	-42.6	21.7	0.00e+00	38	41	0	1351614464	54	6864
2026-01-24 00:23:29.54	338.98	10.63	-41.4	-42.7	21.5	0.00e+00	0	41	0	1358954496	54	6946
2026-01-24 00:23:33.58	338.99	10.28	-41.4	-42.6	21.5	0.00e+00	59	41	0	1366294528	54	6863
2026-01-24 00:23:37.62	339.00	9.93	-41.4	-42.7	21.5	0.00e+00	92	41	0	1374683136	54	6933
2026-01-24 00:23:41.66	339.01	9.58	-41.3	-42.6	21.6	0.00e+00	7	41	0	1382023168	54	6849
2026-01-24 00:23:45.70	339.02	9.24	-41.5	-42.7	21.5	0.00e+00	27	41	0	1389363200	54	6966
2026-01-24 00:23:49.74	339.03	8.90	-41.4	-42.6	21.5	0.00e+00	22	41	0	1396703232	54	6887
2026-01-24 00:23:53.77	339.04	8.57	-41.6	-42.8	21.4	0.00e+00	91	41	0	1404043264	54	7010
2026-01-24 00:23:57.81	339.05	8.24	-41.4	-42.6	21.5	0.00e+00	54	41	0	1412431872	54	6861
2026-01-24 00:24:01.85	339.06	7.92	-41.5	-42.7	21.4	0.00e+00	2	41	0	1419771904	54	6938
2026-01-24 00:24:05.89	339.07	7.60	-41.8	-43.1	21.2	0.00e+00	0	41	0	1427111936	56	6469
2026-01-24 00:24:09.93	339.08	7.29	-41.9	-43.2	20.8	0.00e+00	92	41	0	1434451968	56	6574
2026-01-24 00:24:13.97	339.09	6.97	-42.1	-43.3	20.9	0.00e+00	55	41	0	1441792000	56	6671
2026-01-24 00:24:18.00	339.10	6.67	-42.0	-43.3	20.7	0.00e+00	62	41	0	1450180608	56	6628
2026-01-24 00:24:22.04	339.11	6.36	-41.8	-43.0	20.9	0.00e+00	0	41	0	1457520640	56	6450
2026-01-24 00:24:26.08	339.12	6.06	-41.8	-43.1	20.7	0.00e+00	91	42	0	1464860672	56	6494
2026-01-24 00:24:30.12	339.13	5.76	-42.2	-43.5	19.8	0.00e+00	57	41	0	1472200704	56	6831
2026-01-24 00:24:34.16	339.14	5.47	-42.4	-43.9	19.3	0.00e+00	0	41	0	1480589312	56	7139
2026-01-24 00:24:38.19	339.15	5.18	-43.4	-45.4	17.4	0.00e+00	89	41	0	1487929344	58	7568
2026-01-24 00:24:42.23	339.16	4.89	-44.6	-47.5	14.6	0.00e+00	0	41	0	1495269376	60	8570
2026-01-24 00:24:46.28	339.17	4.61	-45.5	-50.5	10.4	2.13e-03	21	42	0	1502609408	60	12071
2026-01-24 00:24:50.31	339.19	4.33	-46.0	-53.2	6.8	1.22e-01	0	42	0	1509949440	60	16473
2026-01-24 00:24:54.35	339.20	4.05	-46.2	-56.1	4.0	9.85e-01	92	42	0	1518338048	60	23094
2026-01-24 00:24:58.39	339.21	3.77	-46.1	-60.0	3.6	1.51e+00	0	42	104	1518338048	60	35940
2026-01-24 00:25:02.43	339.22	3.50	-46.1	-61.1	3.6	1.51e+00	0	42	104	1518338048	60	41161
2026-01-24 00:25:06.46	339.23	3.23	-46.1	-61.2	3.6	1.51e+00	0	42	104	1518338048	60	41716
2026-01-24 00:25:10.50	339.25	2.96	-47.2	-62.3	3.6	1.51e+00	0	42	104	1518338048	60	47295
2026-01-24 00:25:14.55	339.26	2.70	-50.6	-65.8	3.6	1.51e+00	0	42	104	1518338048	60	70580
2026-01-24 00:25:18.59	339.27	2.43	-50.9	-66.1	3.6	1.51e+00	0	42	104	1518338048	60	73032
2026-01-24 00:25:22.63	339.28	2.17	-51.0	-66.2	3.6	1.51e+00	0	42	104	1518338048	60	74041
2026-01-24 00:25:26.67	339.30	1.92	-50.9	-66.1	3.6	1.51e+00	0	42	104	1518338048	60	73191
2026-01-24 00:25:30.71	339.31	1.66	-50.9	-66.1	3.6	1.51e+00	0	42	104	1518338048	60	72850
2026-01-24 00:25:34.75	339.32	1.41	-51.0	-66.2	3.6	1.51e+00	0	42	104	1518338048	60	73764
2026-01-24 00:25:38.79	339.34	1.16	-51.0	-66.2	3.6	1.51e+00	0	42	104	1518338048	60	73956
2026-01-24 00:25:42.82	339.35	0.91	-51.0	-66.2	3.6	1.51e+00	0	42	104	1518338048	60	73807
2026-01-24 00:25:46.86	339.36	0.66	-51.0	-66.2	3.6	1.51e+00	0	42	104	1518338048	60	73895
2026-01-24 00:25:50.90	339.37	0.42	-51.0	-66.2	3.6	1.51e+00	0	42	104	1518338048	60	73853
2026-01-24 00:25:54.94	339.39	0.17	-51.0	-66.2	3.6	1.51e+00	0	42	104	1518338048	60	73685
2026-01-24 00:25:58.98	339.40	-0.07	-51.0	-66.2	3.6	1.51e+00	0	42	104	1518338048	60	73797

#Closed at: 2026-01-24 00:25:59
#Recorded file [1518 MB]: D:/lorett/data/35029_260124_121026.dat