passes_logs/2026/01/24/R4.6S_Anadyr/R4.6S_Anadyr__20260124_025801_AQUA_rec.log

#Pass ID: 20260124_025801_AQUA
#Satellite: AQUA
#Configuration: AQUA
#almurnet v.1.7.20251203
#Start time: 2026-01-24 02:58:03

#Version: 2.2.20231116
#Station: R4.6S_Anadyr
#Location: 177.4865 lon 64.73178 lat
#TLE: 1 27424U 02022A   26023.58972979  .00001888  00000+0  38753-3 0  9997
#TLE: 2 27424  98.4100 350.1620 0001948  68.5331  43.0280 14.61852003262140

#Time	Az	El	Level	Level2	SNR	BER	BlckErr	Temp	State	Recorded	gain1	gain2
2026-01-24 02:58:03.64	183.01	0.15	-51.5	-63.2	3.5	8.46e-01	0	39	0	0	60	52516
2026-01-24 02:58:07.68	183.17	0.39	-52.0	-70.0	3.5	3.03e+01	0	40	104	0	60	121567
2026-01-24 02:58:11.72	183.33	0.63	-51.9	-69.9	3.5	3.03e+01	0	40	104	0	60	119943
2026-01-24 02:58:15.76	183.49	0.88	-51.8	-69.6	3.5	3.03e+01	0	40	104	0	60	116201
2026-01-24 02:58:19.80	183.65	1.13	-51.5	-69.2	3.5	3.03e+01	0	40	104	0	60	111344
2026-01-24 02:58:23.84	183.82	1.38	-51.0	-68.8	3.5	3.03e+01	0	40	104	0	60	106537
2026-01-24 02:58:27.87	183.99	1.64	-50.0	-68.0	3.5	3.03e+01	0	40	104	0	60	96872
2026-01-24 02:58:31.91	184.16	1.89	-50.0	-68.0	3.5	3.03e+01	0	41	104	0	60	96483
2026-01-24 02:58:35.95	184.34	2.15	-50.0	-67.9	3.5	3.03e+01	0	41	104	0	60	95060
2026-01-24 02:58:39.99	184.52	2.41	-50.0	-68.0	3.5	3.03e+01	0	41	104	0	60	96117
2026-01-24 02:58:44.04	184.70	2.68	-50.0	-67.7	3.5	3.03e+01	0	41	104	0	60	93652
2026-01-24 02:58:48.08	184.89	2.94	-49.8	-63.4	4.5	3.03e+01	0	41	104	0	60	56693
2026-01-24 02:58:52.11	185.08	3.21	-49.9	-65.5	3.8	3.03e+01	0	41	104	0	60	72651
2026-01-24 02:58:56.15	185.27	3.48	-45.7	-48.6	18.8	3.03e+01	91	41	0	4718592	60	10327
2026-01-24 02:59:00.20	185.47	3.76	-42.5	-44.3	23.2	3.03e+01	88	41	0	12058624	60	6349
2026-01-24 02:59:04.23	185.67	4.03	-49.5	-60.1	6.7	3.03e+01	90	41	0	19922944	60	39004
2026-01-24 02:59:08.27	185.87	4.31	-40.8	-42.4	25.1	3.03e+01	90	41	0	24641536	56	6365
2026-01-24 02:59:12.30	186.08	4.59	-42.3	-44.1	23.5	3.03e+01	90	41	0	32505856	58	6936
2026-01-24 02:59:16.34	186.29	4.88	-41.8	-43.5	24.6	3.03e+01	92	41	0	39845888	56	7224
2026-01-24 02:59:20.38	186.51	5.17	-42.0	-43.8	24.0	3.03e+01	92	41	0	47710208	58	6673
2026-01-24 02:59:24.42	186.73	5.46	-41.4	-43.1	24.3	3.03e+01	91	41	0	55050240	58	6141
2026-01-24 02:59:28.46	186.95	5.76	-41.0	-42.5	25.4	3.03e+01	90	41	0	62914560	56	6480
2026-01-24 02:59:32.49	187.18	6.06	-40.0	-41.5	26.5	3.03e+01	90	41	0	70254592	56	5726
2026-01-24 02:59:36.53	187.42	6.36	-40.2	-41.7	25.9	3.03e+01	92	41	0	77594624	54	6630
2026-01-24 02:59:40.57	187.66	6.67	-39.9	-41.4	26.4	3.03e+01	90	41	0	85458944	54	6358
2026-01-24 02:59:44.60	187.90	6.98	-39.8	-41.3	26.7	3.03e+01	92	41	0	92798976	54	6295
2026-01-24 02:59:48.64	188.15	7.29	-39.3	-40.7	27.2	3.03e+01	92	41	0	100663296	54	5872
2026-01-24 02:59:52.68	188.41	7.61	-40.1	-41.6	26.4	3.03e+01	91	41	0	108003328	54	6499
2026-01-24 02:59:56.72	188.67	7.93	-39.8	-41.2	26.5	3.03e+01	90	41	0	115867648	54	6254
2026-01-24 03:00:00.76	188.94	8.26	-40.2	-41.6	26.5	3.03e+01	88	41	0	123207680	54	6570
2026-01-24 03:00:04.80	189.22	8.59	-39.9	-41.3	26.4	3.03e+01	92	41	0	130547712	54	6327
2026-01-24 03:00:08.84	189.50	8.92	-39.3	-40.6	27.3	3.03e+01	92	41	0	138412032	54	5811
2026-01-24 03:00:12.88	189.79	9.26	-39.3	-40.6	27.3	3.03e+01	92	41	0	145752064	54	5837
2026-01-24 03:00:16.91	190.08	9.60	-39.4	-40.8	27.1	3.03e+01	89	41	0	153616384	54	5949
2026-01-24 03:00:20.95	190.39	9.95	-39.2	-40.6	27.4	3.03e+01	89	41	0	160956416	54	5805
2026-01-24 03:00:24.99	190.70	10.31	-39.2	-40.5	27.4	3.03e+01	89	41	0	168820736	54	5758
2026-01-24 03:00:29.03	191.01	10.67	-39.4	-40.8	27.2	3.03e+01	92	41	0	176160768	54	5947
2026-01-24 03:00:33.07	191.34	11.03	-38.9	-40.2	27.7	3.03e+01	92	41	0	184025088	54	5581
2026-01-24 03:00:37.10	191.67	11.40	-39.0	-40.3	27.8	3.03e+01	90	41	0	191365120	52	6295
2026-01-24 03:00:41.14	192.02	11.77	-39.0	-40.3	27.7	3.03e+01	90	41	0	198705152	52	6304
2026-01-24 03:00:45.18	192.37	12.15	-38.7	-40.0	28.0	3.03e+01	92	41	0	206569472	52	6116
2026-01-24 03:00:49.22	192.73	12.54	-38.9	-40.2	27.8	3.03e+01	92	41	0	213909504	52	6259
2026-01-24 03:00:53.25	193.10	12.93	-38.8	-40.1	27.9	3.03e+01	92	41	0	221773824	52	6158
2026-01-24 03:00:57.29	193.49	13.33	-38.8	-40.0	28.0	3.03e+01	91	41	0	229113856	52	6130
2026-01-24 03:01:01.33	193.88	13.74	-38.5	-39.8	28.2	3.03e+01	91	41	0	236978176	52	5940
2026-01-24 03:01:05.37	194.28	14.15	-38.4	-39.7	28.3	3.03e+01	91	41	0	244318208	52	5867
2026-01-24 03:01:09.40	194.70	14.56	-38.4	-39.6	28.5	3.03e+01	91	41	0	252182528	52	5843
2026-01-24 03:01:13.44	195.13	14.99	-38.3	-39.6	28.4	3.03e+01	92	41	0	259522560	52	5799
2026-01-24 03:01:17.48	195.57	15.42	-38.4	-39.6	28.4	3.03e+01	95	41	0	266862592	52	5845
2026-01-24 03:01:21.52	196.02	15.86	-38.2	-39.5	28.5	3.03e+01	90	41	0	274726912	52	5741
2026-01-24 03:01:25.55	196.49	16.30	-38.1	-39.3	28.7	3.03e+01	92	41	0	282066944	52	5646
2026-01-24 03:01:29.59	196.98	16.75	-38.4	-39.7	28.4	3.03e+01	91	41	0	289931264	52	5861
2026-01-24 03:01:33.63	197.47	17.21	-38.2	-39.5	28.5	3.03e+01	91	41	0	297271296	52	5739
2026-01-24 03:01:37.67	197.99	17.68	-38.2	-39.4	28.6	3.03e+01	92	41	0	305135616	52	5684
2026-01-24 03:01:41.70	198.52	18.16	-38.1	-39.3	28.7	3.03e+01	92	41	0	312475648	52	5653
2026-01-24 03:01:45.74	199.07	18.64	-38.3	-39.5	28.6	3.03e+01	91	41	0	319815680	52	5773
2026-01-24 03:01:49.78	199.63	19.13	-38.3	-39.5	28.6	3.03e+01	92	41	0	327680000	52	5786
2026-01-24 03:01:53.81	200.22	19.63	-38.2	-39.4	28.7	3.03e+01	91	41	0	335020032	52	5713
2026-01-24 03:01:57.85	200.83	20.14	-38.3	-39.5	28.6	3.03e+01	91	41	0	342884352	52	5774
2026-01-24 03:02:01.89	201.45	20.66	-38.5	-39.8	28.4	3.03e+01	91	41	0	350224384	52	5942
2026-01-24 03:02:05.92	202.10	21.18	-38.3	-39.6	28.6	3.03e+01	91	41	0	358088704	52	5794
2026-01-24 03:02:09.96	202.77	21.72	-38.6	-39.8	28.4	3.03e+01	90	41	0	365428736	52	5983
2026-01-24 03:02:14.00	203.47	22.26	-38.7	-39.9	28.3	3.03e+01	92	41	0	373293056	52	6039
2026-01-24 03:02:18.04	204.19	22.81	-38.4	-39.6	28.5	3.03e+01	92	41	0	380633088	52	5837
2026-01-24 03:02:22.08	204.94	23.37	-38.5	-39.7	28.5	3.03e+01	92	41	0	387973120	52	5924
2026-01-24 03:02:26.11	205.72	23.93	-38.6	-39.8	28.4	3.03e+01	92	41	0	395837440	52	5975
2026-01-24 03:02:30.15	206.52	24.51	-38.5	-39.7	28.5	3.03e+01	92	41	0	403177472	52	5911
2026-01-24 03:02:34.18	207.36	25.09	-38.5	-39.7	28.5	3.03e+01	92	41	0	411041792	52	5898
2026-01-24 03:02:38.22	208.23	25.69	-38.5	-39.7	28.5	3.03e+01	91	41	0	418381824	52	5903
2026-01-24 03:02:42.26	209.13	26.29	-38.5	-39.7	28.5	3.03e+01	91	41	0	426246144	52	5921
2026-01-24 03:02:46.29	210.06	26.89	-38.6	-39.9	28.4	3.03e+01	92	41	0	433586176	52	6015
2026-01-24 03:02:50.33	211.04	27.50	-38.7	-40.0	28.3	3.03e+01	92	42	0	440926208	52	6067
2026-01-24 03:02:54.37	212.06	28.12	-38.6	-39.9	28.5	3.03e+01	92	41	0	448790528	52	6017
2026-01-24 03:02:58.40	213.11	28.75	-38.4	-39.7	28.6	3.03e+01	92	42	0	456130560	52	5866
2026-01-24 03:03:02.44	214.21	29.37	-38.6	-39.8	28.5	3.03e+01	92	42	0	463994880	52	5989
2026-01-24 03:03:06.48	215.35	30.01	-38.8	-40.0	28.3	3.03e+01	90	42	0	471334912	52	6103
2026-01-24 03:03:10.51	216.53	30.64	-38.8	-40.0	28.5	3.03e+01	92	42	0	479199232	52	6121
2026-01-24 03:03:14.55	217.77	31.28	-38.7	-40.0	28.5	3.03e+01	91	42	0	486539264	52	6082
2026-01-24 03:03:18.59	219.06	31.92	-38.8	-40.0	28.4	3.03e+01	90	42	0	493879296	52	6116
2026-01-24 03:03:22.63	220.40	32.55	-38.8	-40.1	28.3	3.03e+01	91	41	0	501743616	52	6151
2026-01-24 03:03:26.66	221.79	33.18	-38.7	-40.0	28.4	3.03e+01	91	41	0	509083648	52	6079
2026-01-24 03:03:30.70	223.24	33.81	-39.1	-40.4	28.1	3.03e+01	91	42	0	516947968	52	6395
2026-01-24 03:03:34.74	224.74	34.43	-39.2	-40.5	28.1	3.03e+01	91	42	0	524288000	52	6437
2026-01-24 03:03:38.78	226.31	35.04	-39.1	-40.3	28.1	3.03e+01	92	42	0	532152320	52	6350
2026-01-24 03:03:42.81	227.93	35.64	-39.4	-40.7	27.8	3.03e+01	92	42	0	539492352	52	6580
2026-01-24 03:03:46.85	229.62	36.23	-39.1	-40.4	28.1	3.03e+01	92	42	0	547356672	52	6392
2026-01-24 03:03:50.89	231.36	36.80	-39.0	-40.3	28.1	3.03e+01	92	42	0	554696704	52	6279
2026-01-24 03:03:54.93	233.17	37.35	-38.8	-40.1	28.3	3.03e+01	92	42	0	562036736	52	6150
2026-01-24 03:03:58.97	235.04	37.88	-39.0	-40.2	28.2	3.03e+01	90	42	0	569901056	52	6266
2026-01-24 03:04:03.01	236.97	38.38	-38.9	-40.1	28.4	3.03e+01	89	42	0	577241088	52	6182
2026-01-24 03:04:07.05	238.96	38.85	-38.6	-39.8	28.6	3.03e+01	92	42	0	585105408	52	5977
2026-01-24 03:04:11.09	241.00	39.29	-38.7	-40.0	28.5	3.03e+01	91	42	0	592445440	52	6082
2026-01-24 03:04:15.14	243.11	39.69	-38.7	-39.9	28.6	3.03e+01	92	42	0	600309760	52	6020
2026-01-24 03:04:19.18	245.26	40.06	-38.4	-39.6	28.8	3.03e+01	92	42	0	607649792	52	5842
2026-01-24 03:04:23.22	247.46	40.38	-38.2	-39.5	29.0	3.03e+01	92	42	0	615514112	52	5729
2026-01-24 03:04:27.26	249.69	40.67	-38.3	-39.5	28.9	3.03e+01	92	41	0	622854144	52	5754
2026-01-24 03:04:31.30	251.97	40.90	-38.1	-39.4	29.0	3.03e+01	92	41	0	630194176	52	5666
2026-01-24 03:04:35.34	254.27	41.09	-38.4	-39.6	28.8	3.03e+01	92	42	0	638058496	52	5806
2026-01-24 03:04:39.37	256.59	41.22	-38.2	-39.5	29.0	3.03e+01	90	42	0	645398528	52	5737
2026-01-24 03:04:43.41	258.94	41.31	-38.0	-39.2	29.2	3.03e+01	92	42	0	653262848	52	5575
2026-01-24 03:04:47.45	261.29	41.34	-38.2	-39.4	29.1	3.03e+01	92	42	0	660602880	50	6368
2026-01-24 03:04:51.48	263.63	41.32	-38.1	-39.3	29.1	3.03e+01	91	42	0	668467200	50	6290
2026-01-24 03:04:55.52	265.98	41.25	-38.3	-39.5	29.0	3.03e+01	90	42	0	675807232	52	5774
2026-01-24 03:04:59.56	268.31	41.13	-38.8	-40.0	28.6	3.03e+01	92	42	0	683671552	52	6112
2026-01-24 03:05:03.60	270.62	40.95	-38.6	-39.8	28.7	3.03e+01	91	42	0	691011584	52	5968
2026-01-24 03:05:07.63	272.89	40.73	-38.7	-40.0	28.6	3.03e+01	92	42	0	698351616	52	6086
2026-01-24 03:05:11.67	275.14	40.46	-38.8	-40.0	28.6	3.03e+01	92	42	0	706215936	52	6101
2026-01-24 03:05:15.71	277.34	40.15	-38.7	-40.0	28.5	3.03e+01	92	42	0	713555968	52	6065
2026-01-24 03:05:19.74	279.50	39.80	-38.7	-39.9	28.6	3.03e+01	91	42	0	721420288	52	6040
2026-01-24 03:05:23.78	281.61	39.40	-38.8	-40.0	28.5	3.03e+01	92	42	0	728760320	52	6105
2026-01-24 03:05:27.82	283.66	38.97	-38.7	-39.9	28.6	3.03e+01	92	42	0	736624640	52	6032
2026-01-24 03:05:31.85	285.66	38.51	-39.5	-40.8	27.9	3.03e+01	92	42	0	743964672	52	6712
2026-01-24 03:05:35.89	287.60	38.02	-38.4	-39.6	28.9	3.03e+01	92	42	0	751304704	52	5856
2026-01-24 03:05:39.92	289.47	37.50	-38.3	-39.5	28.9	3.03e+01	92	42	0	759169024	52	5784
2026-01-24 03:05:43.96	291.29	36.96	-38.3	-39.6	29.0	3.03e+01	91	42	0	766509056	52	5793
2026-01-24 03:05:47.99	293.05	36.40	-38.2	-39.5	29.0	3.03e+01	89	42	0	774373376	52	5741
2026-01-24 03:05:52.02	294.74	35.82	-37.8	-39.1	29.3	3.03e+01	92	42	0	781713408	50	6135
2026-01-24 03:05:56.06	296.38	35.23	-37.6	-38.9	29.5	3.03e+01	91	42	0	789577728	50	5998
2026-01-24 03:06:00.10	297.96	34.62	-37.6	-38.8	29.6	3.03e+01	92	42	0	796917760	50	5948
2026-01-24 03:06:04.14	299.47	34.01	-37.2	-38.4	29.9	3.03e+01	85	42	0	804257792	50	5668
2026-01-24 03:06:08.17	300.93	33.39	-37.3	-38.5	29.8	3.03e+01	92	42	0	812122112	50	5740
2026-01-24 03:06:12.21	302.34	32.76	-37.0	-38.2	30.0	3.03e+01	92	42	0	819462144	50	5566
2026-01-24 03:06:16.25	303.69	32.13	-36.8	-38.0	30.1	3.03e+01	92	42	0	827326464	48	6113
2026-01-24 03:06:20.28	304.98	31.50	-36.9	-38.1	30.0	3.03e+01	91	42	0	834666496	48	6178
2026-01-24 03:06:24.32	306.23	30.86	-37.0	-38.2	30.0	3.03e+01	92	42	0	842530816	48	6253
2026-01-24 03:06:28.35	307.42	30.23	-37.1	-38.2	30.0	3.03e+01	90	42	0	849870848	48	6276
2026-01-24 03:06:32.39	308.58	29.60	-37.0	-38.2	30.0	3.03e+01	90	42	0	857210880	48	6268
2026-01-24 03:06:36.43	309.68	28.97	-37.2	-38.4	29.8	3.03e+01	91	42	0	865075200	48	6351
2026-01-24 03:06:40.47	310.75	28.35	-37.4	-38.6	29.7	3.03e+01	89	42	0	872415232	48	6533
2026-01-24 03:06:44.50	311.77	27.74	-37.3	-38.5	29.7	3.03e+01	92	42	0	880279552	48	6424
2026-01-24 03:06:48.53	312.75	27.13	-37.5	-38.6	29.6	3.03e+01	58	42	0	887619584	48	6571
2026-01-24 03:06:52.57	313.70	26.52	-37.7	-39.0	29.4	3.03e+01	61	42	0	895483904	48	6806
2026-01-24 03:06:56.60	314.61	25.93	-37.7	-38.9	29.4	3.03e+01	58	42	0	902823936	48	6793
2026-01-24 03:07:00.65	315.49	25.33	-37.7	-38.9	29.4	3.03e+01	57	42	0	910688256	50	6029
2026-01-24 03:07:04.68	316.33	24.75	-37.9	-39.2	29.3	3.03e+01	58	42	0	918028288	50	6219
2026-01-24 03:07:08.72	317.14	24.18	-38.0	-39.3	29.2	3.03e+01	57	42	0	925368320	50	6284
2026-01-24 03:07:12.76	317.92	23.61	-38.2	-39.5	28.9	3.03e+01	59	42	0	933232640	50	6427
2026-01-24 03:07:16.80	318.68	23.05	-38.3	-39.5	29.0	3.03e+01	60	42	0	940572672	50	6473
2026-01-24 03:07:20.84	319.41	22.50	-37.8	-39.0	29.2	3.03e+01	60	42	0	948436992	50	6125
2026-01-24 03:07:24.88	320.11	21.96	-37.6	-38.8	29.4	3.03e+01	61	42	0	955777024	50	5948
2026-01-24 03:07:28.91	320.79	21.43	-37.7	-38.9	29.4	3.03e+01	44	42	0	963641344	50	6024
2026-01-24 03:07:32.95	321.44	20.90	-37.7	-38.9	29.3	3.03e+01	59	42	0	970981376	50	6020
2026-01-24 03:07:36.99	322.08	20.39	-37.8	-39.0	29.4	3.03e+01	58	42	0	978845696	50	6124
2026-01-24 03:07:41.03	322.69	19.88	-37.7	-38.9	29.3	3.03e+01	60	42	0	986185728	50	6053
2026-01-24 03:07:45.06	323.28	19.38	-38.0	-39.3	29.0	3.03e+01	44	42	0	993525760	50	6303
2026-01-24 03:07:49.10	323.85	18.89	-37.5	-38.7	29.5	3.03e+01	59	42	0	1001390080	50	5888
2026-01-24 03:07:53.13	324.40	18.41	-37.6	-38.7	29.5	3.03e+01	45	41	0	1008730112	50	5926
2026-01-24 03:07:57.17	324.94	17.93	-37.6	-38.8	29.4	3.03e+01	58	41	0	1016594432	50	5970
2026-01-24 03:08:01.21	325.46	17.46	-37.6	-38.8	29.3	3.03e+01	47	41	0	1023934464	50	5993
2026-01-24 03:08:05.24	325.96	17.00	-37.7	-38.9	29.2	3.03e+01	52	42	0	1031798784	50	6008
2026-01-24 03:08:09.28	326.45	16.55	-37.6	-38.8	29.2	3.03e+01	46	42	0	1039138816	50	5933
2026-01-24 03:08:13.31	326.92	16.11	-37.7	-38.9	29.2	3.03e+01	55	42	0	1047003136	50	6042
2026-01-24 03:08:17.36	327.38	15.67	-37.6	-38.8	29.2	3.03e+01	46	42	0	1054343168	50	5979
2026-01-24 03:08:21.39	327.83	15.24	-37.6	-38.8	29.2	3.03e+01	61	42	0	1061683200	50	5979
2026-01-24 03:08:25.44	328.26	14.81	-37.5	-38.7	29.2	3.03e+01	46	42	0	1069547520	50	5912
2026-01-24 03:08:29.48	328.68	14.40	-37.5	-38.8	29.1	3.03e+01	59	42	0	1076887552	50	5930
2026-01-24 03:08:33.52	329.09	13.99	-37.8	-39.1	28.9	3.03e+01	49	41	0	1084751872	50	6146
2026-01-24 03:08:37.55	329.49	13.58	-37.8	-39.1	28.8	3.03e+01	58	41	0	1092091904	50	6138
2026-01-24 03:08:41.59	329.88	13.18	-38.2	-39.5	28.4	3.03e+01	56	41	0	1099956224	50	6431
2026-01-24 03:08:45.63	330.25	12.79	-38.1	-39.3	28.5	3.03e+01	61	41	0	1107296256	50	6317
2026-01-24 03:08:49.67	330.62	12.41	-38.2	-39.5	28.4	3.03e+01	58	41	0	1115160576	50	6464
2026-01-24 03:08:53.71	330.98	12.03	-38.0	-39.3	28.6	3.03e+01	57	41	0	1122500608	50	6287
2026-01-24 03:08:57.74	331.32	11.65	-38.1	-39.4	28.5	3.03e+01	60	41	0	1129840640	50	6356
2026-01-24 03:09:01.78	331.66	11.28	-38.1	-39.4	28.4	3.03e+01	58	41	0	1137704960	50	6353
2026-01-24 03:09:05.81	331.99	10.92	-38.4	-39.7	28.2	3.03e+01	59	41	0	1145044992	50	6625
2026-01-24 03:09:09.85	332.31	10.56	-38.4	-39.7	28.2	3.03e+01	58	41	0	1152909312	52	5901
2026-01-24 03:09:13.88	332.63	10.21	-38.5	-39.7	28.1	3.03e+01	57	41	0	1160249344	52	5913
2026-01-24 03:09:17.92	332.93	9.86	-38.7	-40.0	27.9	3.03e+01	60	41	0	1168113664	52	6095
2026-01-24 03:09:21.95	333.23	9.52	-38.8	-40.2	27.7	3.03e+01	55	41	0	1175453696	52	6214
2026-01-24 03:09:25.99	333.53	9.18	-39.0	-40.4	27.5	3.03e+01	58	41	0	1182793728	52	6371
2026-01-24 03:09:30.03	333.81	8.84	-39.2	-40.6	27.2	3.03e+01	55	41	0	1190658048	52	6520
2026-01-24 03:09:34.07	334.09	8.51	-39.1	-40.4	27.4	3.03e+01	59	41	0	1197998080	52	6364
2026-01-24 03:09:38.11	334.36	8.19	-39.2	-40.5	27.3	3.03e+01	58	41	0	1205862400	52	6475
2026-01-24 03:09:42.15	334.63	7.86	-39.2	-40.6	27.2	3.03e+01	63	41	0	1213202432	52	6509
2026-01-24 03:09:46.19	334.89	7.55	-39.6	-41.0	26.8	3.03e+01	62	41	0	1221066752	52	6823
2026-01-24 03:09:50.22	335.15	7.23	-39.1	-40.4	27.2	3.03e+01	45	41	0	1228406784	52	6415
2026-01-24 03:09:54.26	335.40	6.92	-39.2	-40.5	27.0	3.03e+01	59	41	0	1236271104	52	6490
2026-01-24 03:09:58.30	335.64	6.62	-39.4	-40.8	26.8	3.03e+01	48	41	0	1243611136	52	6693
2026-01-24 03:10:02.34	335.88	6.31	-40.0	-41.4	26.1	3.03e+01	61	41	0	1250951168	54	6378
2026-01-24 03:10:06.38	336.11	6.01	-40.1	-41.6	25.8	3.03e+01	53	41	0	1258815488	54	6520
2026-01-24 03:10:10.41	336.34	5.72	-41.1	-42.7	24.2	3.03e+01	61	41	0	1266155520	54	7455
2026-01-24 03:10:14.46	336.57	5.43	-42.1	-44.0	22.5	3.03e+01	49	41	0	1274019840	58	6840
2026-01-24 03:10:18.49	336.79	5.14	-44.0	-46.8	19.2	3.03e+01	59	41	0	1281359872	60	8425
2026-01-24 03:10:22.53	337.01	4.85	-44.8	-48.3	17.3	3.03e+01	51	41	0	1289224192	60	10017
2026-01-24 03:10:26.57	337.22	4.57	-46.2	-52.2	12.6	3.03e+01	60	41	0	1296564224	60	15647
2026-01-24 03:10:30.61	337.43	4.29	-46.6	-54.3	10.1	3.03e+01	48	41	0	1304428544	60	19901
2026-01-24 03:10:34.64	337.63	4.01	-47.1	-59.4	3.9	3.03e+01	0	41	104	1311244288	60	35888
2026-01-24 03:10:38.68	337.83	3.74	-47.2	-62.1	4.0	3.03e+01	0	41	104	1311244288	60	49059
2026-01-24 03:10:42.72	338.03	3.47	-47.0	-64.7	3.5	3.03e+01	0	41	104	1311244288	60	66082
2026-01-24 03:10:46.75	338.22	3.20	-47.2	-64.3	3.5	3.03e+01	0	41	104	1311244288	60	63026
2026-01-24 03:10:50.80	338.41	2.94	-50.2	-68.1	3.5	3.03e+01	0	41	104	1311244288	60	97534
2026-01-24 03:10:54.84	338.60	2.67	-51.4	-69.2	3.5	3.03e+01	0	41	104	1311244288	60	110573
2026-01-24 03:10:58.88	338.78	2.41	-51.7	-69.5	3.5	3.03e+01	0	41	104	1311244288	60	115389
2026-01-24 03:11:02.92	338.96	2.15	-51.7	-69.6	3.5	3.03e+01	0	41	104	1311244288	60	116129
2026-01-24 03:11:06.95	339.14	1.90	-51.6	-69.5	3.5	3.03e+01	0	41	104	1311244288	60	114762
2026-01-24 03:11:10.99	339.31	1.64	-51.5	-69.6	3.5	3.03e+01	0	41	104	1311244288	60	115801
2026-01-24 03:11:15.03	339.49	1.39	-51.9	-69.7	3.5	3.03e+01	0	41	104	1311244288	60	117527
2026-01-24 03:11:19.07	339.66	1.14	-51.9	-69.7	3.5	3.03e+01	0	41	104	1311244288	60	117315
2026-01-24 03:11:23.11	339.82	0.90	-51.9	-69.7	3.5	3.03e+01	0	41	104	1311244288	60	118086
2026-01-24 03:11:27.15	339.98	0.65	-51.8	-69.6	3.5	3.03e+01	0	41	104	1311244288	60	116161
2026-01-24 03:11:31.19	340.15	0.41	-51.8	-69.6	3.5	3.03e+01	0	42	104	1311244288	60	116640
2026-01-24 03:11:35.23	340.30	0.17	-51.9	-69.7	3.5	3.03e+01	0	41	104	1311244288	60	117372
2026-01-24 03:11:39.26	340.46	-0.07	-51.9	-69.7	3.5	3.03e+01	0	41	104	1311244288	60	116930

#Closed at: 2026-01-24 03:11:40
#Recorded file [1311 MB]: D:/lorett/data/35029_260124_145803.dat