passes_logs/2026/01/24/R4.6S_Anadyr/R4.6S_Anadyr__20260124_015144_NOAA_20_JPSS-1_rec.log

#Pass ID: 20260124_015144_NOAA 20 (JPSS-1)
#Satellite: NOAA 20 (JPSS-1)
#Configuration: NOAA 20
#almurnet v.1.7.20251203
#Start time: 2026-01-24 01:51:45

#Version: 2.2.20231116
#Station: R4.6S_Anadyr
#Location: 177.4865 lon 64.73178 lat
#TLE: 1 43013U 17073A   26023.57676825  .00000205  00000+0  11821-3 0  9990
#TLE: 2 43013  98.7645 324.4259 0001147  27.0566 333.0670 14.19539368423954

#Time	Az	El	Level	Level2	SNR	BER	BlckErr	Temp	State	Recorded	gain1	gain2
2026-01-24 01:51:45.62	198.46	0.06	-51.4	-66.3	3.6	1.51e+00	0	39	0	0	60	74870
2026-01-24 01:51:49.66	198.67	0.28	-51.5	-66.7	3.6	1.51e+00	0	40	104	0	60	78068
2026-01-24 01:51:53.70	198.89	0.50	-51.3	-66.6	3.6	1.51e+00	0	40	104	0	60	77387
2026-01-24 01:51:57.73	199.11	0.73	-51.2	-66.5	3.6	1.51e+00	0	40	104	0	60	76717
2026-01-24 01:52:01.76	199.33	0.96	-51.0	-66.3	3.6	1.51e+00	0	41	104	0	60	74281
2026-01-24 01:52:05.81	199.56	1.18	-50.6	-65.9	3.6	1.51e+00	0	41	104	0	60	70953
2026-01-24 01:52:09.85	199.79	1.41	-49.1	-64.3	3.6	1.51e+00	0	41	104	0	60	59260
2026-01-24 01:52:13.89	200.02	1.65	-49.0	-64.2	3.6	1.51e+00	0	41	104	0	60	58816
2026-01-24 01:52:17.93	200.25	1.88	-49.0	-64.2	3.6	1.51e+00	0	41	104	0	60	58733
2026-01-24 01:52:21.97	200.49	2.11	-49.0	-64.2	3.6	1.51e+00	0	41	104	0	60	58451
2026-01-24 01:52:26.01	200.74	2.35	-48.9	-64.1	3.6	1.51e+00	0	41	104	0	60	58116
2026-01-24 01:52:30.04	200.98	2.59	-48.9	-63.5	3.6	1.51e+00	0	41	104	0	60	54123
2026-01-24 01:52:34.09	201.23	2.83	-48.9	-63.8	3.6	1.51e+00	0	41	104	0	60	56132
2026-01-24 01:52:38.12	201.49	3.07	-48.2	-55.7	6.8	5.34e-01	92	41	0	0	60	22040
2026-01-24 01:52:42.16	201.74	3.31	-47.0	-51.5	11.2	2.24e-03	92	41	0	7340032	60	13631
2026-01-24 01:52:46.20	202.01	3.55	-48.5	-62.0	3.6	9.84e-01	0	41	104	10485760	60	45746
2026-01-24 01:52:50.24	202.27	3.80	-44.4	-47.4	13.9	1.60e-05	90	41	0	12582912	60	8474
2026-01-24 01:52:54.27	202.54	4.05	-44.9	-47.3	16.0	0.00e+00	92	41	0	19922944	60	8395
2026-01-24 01:52:58.31	202.82	4.30	-44.4	-46.3	17.5	0.00e+00	92	41	0	28311552	60	7490
2026-01-24 01:53:02.35	203.10	4.55	-44.1	-45.9	18.1	0.00e+00	24	41	0	35651584	60	7161
2026-01-24 01:53:06.39	203.38	4.80	-44.2	-46.0	18.3	0.00e+00	89	41	0	42991616	60	7193
2026-01-24 01:53:10.42	203.67	5.05	-44.4	-46.1	18.2	0.00e+00	92	41	0	50331648	60	7319
2026-01-24 01:53:14.46	203.96	5.31	-43.8	-45.4	18.9	0.00e+00	92	41	0	58720256	60	6714
2026-01-24 01:53:18.50	204.26	5.57	-44.1	-45.8	18.6	0.00e+00	57	41	0	66060288	60	7019
2026-01-24 01:53:22.53	204.57	5.83	-43.9	-45.5	19.0	0.00e+00	92	41	0	73400320	60	6803
2026-01-24 01:53:26.57	204.87	6.09	-43.7	-45.3	19.2	0.00e+00	92	41	0	80740352	60	6624
2026-01-24 01:53:30.61	205.19	6.36	-43.4	-44.9	19.5	0.00e+00	90	41	0	88080384	60	6351
2026-01-24 01:53:34.65	205.51	6.62	-43.2	-44.6	19.8	0.00e+00	0	41	0	96468992	60	6152
2026-01-24 01:53:38.69	205.83	6.89	-43.2	-44.6	19.8	0.00e+00	92	41	0	103809024	60	6128
2026-01-24 01:53:42.72	206.16	7.16	-42.8	-44.1	20.3	0.00e+00	90	41	0	111149056	58	6526
2026-01-24 01:53:46.76	206.50	7.43	-42.3	-43.6	20.8	0.00e+00	92	41	0	118489088	58	6126
2026-01-24 01:53:50.80	206.84	7.71	-42.2	-43.5	21.0	0.00e+00	58	41	0	126877696	58	6044
2026-01-24 01:53:54.84	207.19	7.99	-42.3	-43.5	20.9	0.00e+00	91	41	0	134217728	58	6074
2026-01-24 01:53:58.88	207.55	8.27	-42.7	-44.0	20.5	0.00e+00	92	41	0	141557760	58	6454
2026-01-24 01:54:02.91	207.91	8.55	-42.0	-43.2	21.3	0.00e+00	92	41	0	148897792	58	5852
2026-01-24 01:54:06.95	208.28	8.83	-41.9	-43.1	21.5	0.00e+00	92	42	0	156237824	56	6477
2026-01-24 01:54:10.98	208.65	9.12	-41.7	-42.8	21.7	0.00e+00	92	42	0	164626432	56	6312
2026-01-24 01:54:15.02	209.04	9.40	-41.5	-42.6	21.9	0.00e+00	91	42	0	171966464	56	6134
2026-01-24 01:54:19.06	209.43	9.69	-41.4	-42.5	22.0	0.00e+00	63	42	0	179306496	56	6080
2026-01-24 01:54:23.10	209.83	9.99	-41.5	-42.6	22.1	0.00e+00	92	42	0	186646528	56	6119
2026-01-24 01:54:27.14	210.23	10.28	-41.4	-42.5	22.1	0.00e+00	92	42	0	195035136	56	6069
2026-01-24 01:54:31.18	210.65	10.58	-41.5	-42.5	22.0	0.00e+00	90	42	0	202375168	56	6087
2026-01-24 01:54:35.22	211.07	10.88	-41.2	-42.2	22.5	0.00e+00	0	42	0	209715200	56	5856
2026-01-24 01:54:39.26	211.50	11.18	-41.1	-42.2	22.5	0.00e+00	92	42	0	217055232	56	5839
2026-01-24 01:54:43.30	211.94	11.48	-41.1	-42.1	22.6	0.00e+00	92	42	0	224395264	56	5798
2026-01-24 01:54:47.34	212.39	11.79	-40.9	-41.9	22.7	0.00e+00	91	42	0	232783872	56	5666
2026-01-24 01:54:51.38	212.84	12.10	-41.0	-42.0	22.7	0.00e+00	0	42	0	240123904	56	5698
2026-01-24 01:54:55.42	213.31	12.41	-41.2	-42.2	22.5	0.00e+00	92	42	0	247463936	56	5896
2026-01-24 01:54:59.46	213.78	12.72	-41.3	-42.3	22.4	0.00e+00	92	42	0	254803968	56	5935
2026-01-24 01:55:03.49	214.27	13.04	-41.3	-42.4	22.4	0.00e+00	92	42	0	263192576	56	5983
2026-01-24 01:55:07.53	214.76	13.36	-41.4	-42.4	22.3	0.00e+00	49	42	0	270532608	56	6001
2026-01-24 01:55:11.57	215.27	13.68	-41.2	-42.2	22.5	0.00e+00	92	42	0	277872640	56	5891
2026-01-24 01:55:15.61	215.79	14.00	-41.4	-42.5	22.4	0.00e+00	92	42	0	285212672	56	6051
2026-01-24 01:55:19.65	216.32	14.32	-41.4	-42.5	22.3	0.00e+00	92	42	0	292552704	56	6047
2026-01-24 01:55:23.68	216.85	14.65	-41.6	-42.6	22.3	0.00e+00	0	42	0	300941312	56	6144
2026-01-24 01:55:27.72	217.40	14.98	-41.4	-42.5	22.3	0.00e+00	92	42	0	308281344	56	6049
2026-01-24 01:55:31.76	217.97	15.31	-41.5	-42.5	22.2	0.00e+00	90	42	0	315621376	56	6094
2026-01-24 01:55:35.80	218.54	15.64	-41.5	-42.6	22.3	0.00e+00	90	42	0	322961408	56	6109
2026-01-24 01:55:39.84	219.13	15.97	-41.3	-42.3	22.6	0.00e+00	69	42	0	331350016	56	5939
2026-01-24 01:55:43.87	219.73	16.31	-41.5	-42.5	22.3	0.00e+00	92	42	0	338690048	56	6081
2026-01-24 01:55:47.91	220.34	16.65	-41.4	-42.4	22.4	0.00e+00	91	42	0	346030080	56	6022
2026-01-24 01:55:51.95	220.97	16.99	-41.3	-42.3	22.5	0.00e+00	91	42	0	353370112	56	5947
2026-01-24 01:55:55.99	221.61	17.33	-40.9	-41.9	22.9	0.00e+00	91	42	0	360710144	56	5670
2026-01-24 01:56:00.03	222.26	17.67	-40.9	-41.9	22.9	0.00e+00	92	42	0	369098752	56	5656
2026-01-24 01:56:04.07	222.93	18.01	-40.3	-41.2	23.5	0.00e+00	92	42	0	376438784	54	5871
2026-01-24 01:56:08.11	223.62	18.35	-40.0	-40.9	23.8	0.00e+00	66	42	0	383778816	54	5688
2026-01-24 01:56:12.15	224.32	18.70	-40.1	-41.0	23.7	0.00e+00	90	42	0	391118848	54	5740
2026-01-24 01:56:16.18	225.03	19.04	-39.9	-40.8	24.0	0.00e+00	92	42	0	399507456	54	5568
2026-01-24 01:56:20.22	225.76	19.39	-40.1	-41.1	23.7	0.00e+00	92	42	0	406847488	54	5766
2026-01-24 01:56:24.26	226.51	19.74	-39.9	-40.8	24.0	0.00e+00	0	42	0	414187520	54	5592
2026-01-24 01:56:28.30	227.27	20.08	-39.8	-40.7	24.1	0.00e+00	92	42	0	421527552	52	6209
2026-01-24 01:56:32.34	228.05	20.43	-39.6	-40.4	24.2	0.00e+00	90	42	0	428867584	52	6011
2026-01-24 01:56:36.38	228.85	20.77	-39.3	-40.2	24.5	0.00e+00	92	42	0	437256192	52	5846
2026-01-24 01:56:40.42	229.66	21.12	-39.2	-40.1	24.5	0.00e+00	10	42	0	444596224	52	5767
2026-01-24 01:56:44.45	230.49	21.46	-38.9	-39.7	24.9	0.00e+00	92	42	0	451936256	52	5566
2026-01-24 01:56:48.49	231.34	21.80	-38.8	-39.6	24.9	0.00e+00	92	42	0	459276288	50	6169
2026-01-24 01:56:52.52	232.21	22.14	-39.4	-40.2	24.5	0.00e+00	90	42	0	467664896	50	6603
2026-01-24 01:56:56.56	233.10	22.47	-39.8	-40.7	24.1	0.00e+00	50	42	0	475004928	52	6200
2026-01-24 01:57:00.60	234.01	22.81	-39.8	-40.7	24.1	0.00e+00	92	42	0	482344960	52	6205
2026-01-24 01:57:04.63	234.93	23.14	-39.8	-40.7	24.2	0.00e+00	92	42	0	489684992	52	6175
2026-01-24 01:57:08.67	235.88	23.47	-39.9	-40.8	24.1	0.00e+00	92	42	0	497025024	52	6269
2026-01-24 01:57:12.70	236.84	23.79	-40.1	-40.9	24.0	0.00e+00	65	42	0	505413632	52	6383
2026-01-24 01:57:16.74	237.82	24.11	-40.4	-41.3	23.5	0.00e+00	92	42	0	512753664	52	6688
2026-01-24 01:57:20.78	238.83	24.42	-40.6	-41.6	23.4	0.00e+00	92	42	0	520093696	52	6851
2026-01-24 01:57:24.82	239.85	24.73	-40.5	-41.4	23.5	0.00e+00	29	42	0	527433728	52	6761
2026-01-24 01:57:28.86	240.89	25.04	-40.6	-41.5	23.4	0.00e+00	75	42	0	535822336	52	6787
2026-01-24 01:57:32.90	241.95	25.33	-41.0	-42.0	23.0	0.00e+00	92	42	0	543162368	54	6404
2026-01-24 01:57:36.94	243.03	25.62	-41.5	-42.5	22.6	0.00e+00	92	42	0	550502400	54	6772
2026-01-24 01:57:40.97	244.13	25.90	-42.2	-43.3	21.9	0.00e+00	70	42	0	557842432	56	6659
2026-01-24 01:57:45.01	245.25	26.17	-42.4	-43.5	21.7	0.00e+00	92	42	0	565182464	56	6779
2026-01-24 01:57:49.05	246.39	26.44	-42.6	-43.8	21.5	0.00e+00	90	42	0	573571072	56	7008
2026-01-24 01:57:53.08	247.54	26.69	-42.8	-43.9	21.3	0.00e+00	92	42	0	580911104	58	6379
2026-01-24 01:57:57.12	248.72	26.94	-42.6	-43.8	21.5	0.00e+00	0	42	0	588251136	58	6250
2026-01-24 01:58:01.16	249.91	27.17	-42.5	-43.7	21.5	0.00e+00	92	42	0	595591168	58	6178
2026-01-24 01:58:05.19	251.11	27.39	-42.3	-43.3	21.9	0.00e+00	92	42	0	603979776	58	5963
2026-01-24 01:58:09.23	252.34	27.60	-42.4	-43.5	21.6	0.00e+00	92	42	0	611319808	58	6102
2026-01-24 01:58:13.27	253.58	27.80	-42.5	-43.6	21.7	0.00e+00	0	42	0	618659840	58	6128
2026-01-24 01:58:17.30	254.83	27.98	-43.3	-44.5	20.8	0.00e+00	91	42	0	625999872	58	6839
2026-01-24 01:58:21.34	256.10	28.15	-44.3	-45.7	19.7	0.00e+00	91	42	0	633339904	60	6999
2026-01-24 01:58:25.37	257.37	28.31	-43.9	-45.3	20.2	0.00e+00	91	42	0	641728512	60	6664
2026-01-24 01:58:29.41	258.66	28.45	-43.2	-44.5	20.9	0.00e+00	10	42	0	649068544	60	6036
2026-01-24 01:58:33.45	259.97	28.58	-43.2	-44.4	20.9	0.00e+00	92	42	0	656408576	60	6027
2026-01-24 01:58:37.49	261.28	28.69	-43.6	-44.9	20.5	0.00e+00	92	42	0	663748608	60	6359
2026-01-24 01:58:41.53	262.60	28.79	-43.7	-45.0	20.5	0.00e+00	91	42	0	671088640	60	6423
2026-01-24 01:58:45.56	263.92	28.87	-43.5	-44.8	20.7	0.00e+00	0	42	0	679477248	60	6306
2026-01-24 01:58:49.60	265.26	28.94	-42.9	-44.1	21.3	0.00e+00	91	42	0	686817280	60	5801
2026-01-24 01:58:53.64	266.59	28.98	-42.8	-44.0	21.2	0.00e+00	91	42	0	694157312	58	6444
2026-01-24 01:58:57.68	267.94	29.02	-42.6	-43.7	21.6	0.00e+00	0	42	0	701497344	58	6228
2026-01-24 01:59:01.71	269.27	29.03	-42.4	-43.6	21.6	0.00e+00	66	42	0	709885952	58	6107
2026-01-24 01:59:05.75	270.62	29.03	-43.3	-44.5	20.8	0.00e+00	92	42	0	717225984	58	6848
2026-01-24 01:59:09.79	271.96	29.01	-41.8	-42.9	22.4	0.00e+00	92	42	0	724566016	58	5638
2026-01-24 01:59:13.82	273.30	28.97	-41.9	-43.0	22.3	0.00e+00	11	42	0	731906048	56	6392
2026-01-24 01:59:17.86	274.63	28.92	-42.5	-43.6	21.8	0.00e+00	89	41	0	739246080	56	6874
2026-01-24 01:59:21.90	275.96	28.85	-41.8	-42.8	22.4	0.00e+00	92	41	0	747634688	56	6317
2026-01-24 01:59:25.93	277.28	28.77	-42.9	-44.1	21.2	0.00e+00	92	41	0	754974720	58	6496
2026-01-24 01:59:29.97	278.60	28.67	-42.4	-43.5	21.8	0.00e+00	23	41	0	762314752	58	6056
2026-01-24 01:59:34.01	279.91	28.55	-42.7	-43.8	21.5	0.00e+00	90	41	0	769654784	58	6298
2026-01-24 01:59:38.04	281.20	28.42	-44.5	-46.0	19.5	0.00e+00	91	41	0	778043392	60	7233
2026-01-24 01:59:42.08	282.49	28.27	-43.2	-44.4	21.1	0.00e+00	92	41	0	785383424	60	5977
2026-01-24 01:59:46.12	283.76	28.11	-42.5	-43.6	21.6	0.00e+00	2	41	0	792723456	58	6154
2026-01-24 01:59:50.16	285.02	27.94	-42.2	-43.3	22.0	0.00e+00	92	41	0	800063488	58	5902
2026-01-24 01:59:54.20	286.27	27.75	-42.3	-43.4	21.8	0.00e+00	92	41	0	807403520	58	6028
2026-01-24 01:59:58.23	287.50	27.55	-41.5	-42.5	22.8	0.00e+00	92	41	0	815792128	56	6054
2026-01-24 02:00:02.27	288.72	27.34	-40.7	-41.6	23.5	0.00e+00	8	41	0	823132160	54	6168
2026-01-24 02:00:06.30	289.92	27.11	-40.7	-41.6	23.5	0.00e+00	91	41	0	830472192	54	6137
2026-01-24 02:00:10.34	291.10	26.88	-40.8	-41.7	23.3	0.00e+00	92	41	0	837812224	54	6244
2026-01-24 02:00:14.38	292.27	26.63	-40.8	-41.7	23.3	0.00e+00	19	41	0	845152256	54	6206
2026-01-24 02:00:18.42	293.41	26.38	-40.9	-41.8	23.2	0.00e+00	0	41	0	853540864	54	6303
2026-01-24 02:00:22.45	294.54	26.11	-40.8	-41.8	23.2	0.00e+00	92	41	0	860880896	54	6275
2026-01-24 02:00:26.50	295.65	25.84	-41.1	-42.1	22.9	0.00e+00	90	41	0	868220928	54	6508
2026-01-24 02:00:30.53	296.74	25.56	-41.3	-42.3	22.8	0.00e+00	67	41	0	875560960	54	6664
2026-01-24 02:00:34.57	297.82	25.27	-40.4	-41.3	23.6	0.00e+00	0	41	0	883949568	54	5939
2026-01-24 02:00:38.61	298.87	24.97	-41.3	-42.3	22.8	0.00e+00	92	41	0	891289600	54	6664
2026-01-24 02:00:42.66	299.90	24.67	-41.5	-42.5	22.6	0.00e+00	90	41	0	898629632	54	6836
2026-01-24 02:00:46.69	300.92	24.36	-41.0	-42.0	23.0	0.00e+00	64	41	0	905969664	54	6406
2026-01-24 02:00:50.73	301.91	24.05	-40.4	-41.3	23.6	0.00e+00	24	41	0	913309696	54	5939
2026-01-24 02:00:54.77	302.89	23.73	-40.6	-41.5	23.4	0.00e+00	90	41	0	921698304	54	6084
2026-01-24 02:00:58.81	303.84	23.41	-41.2	-42.2	22.8	0.00e+00	0	41	0	929038336	54	6591
2026-01-24 02:01:02.85	304.78	23.08	-40.4	-41.3	23.6	0.00e+00	0	41	0	936378368	54	5910
2026-01-24 02:01:06.88	305.69	22.75	-40.8	-41.8	23.2	0.00e+00	91	41	0	943718400	54	6265
2026-01-24 02:01:10.92	306.59	22.42	-40.6	-41.5	23.4	0.00e+00	91	41	0	952107008	54	6097
2026-01-24 02:01:14.96	307.47	22.08	-42.2	-43.3	22.0	0.00e+00	0	41	0	959447040	56	6616
2026-01-24 02:01:19.00	308.33	21.75	-41.5	-42.5	22.6	0.00e+00	0	41	0	966787072	56	6069
2026-01-24 02:01:23.04	309.18	21.41	-42.6	-43.8	21.4	0.00e+00	92	41	0	974127104	56	7026
2026-01-24 02:01:27.08	310.00	21.07	-42.0	-43.0	22.1	0.00e+00	90	42	0	981467136	56	6439
2026-01-24 02:01:31.12	310.81	20.73	-42.1	-43.1	22.0	0.00e+00	0	41	0	989855744	56	6539
2026-01-24 02:01:35.16	311.60	20.38	-41.5	-42.5	22.6	0.00e+00	13	41	0	997195776	56	6075
2026-01-24 02:01:39.19	312.37	20.04	-41.6	-42.6	22.4	0.00e+00	92	42	0	1004535808	56	6168
2026-01-24 02:01:43.23	313.13	19.70	-42.3	-43.4	21.7	0.00e+00	92	41	0	1011875840	58	6002
2026-01-24 02:01:47.27	313.87	19.35	-41.4	-42.4	22.7	0.00e+00	0	41	0	1020264448	56	5979
2026-01-24 02:01:51.30	314.59	19.01	-42.4	-43.5	21.6	0.00e+00	0	41	0	1027604480	56	6813
2026-01-24 02:01:55.34	315.30	18.67	-41.8	-42.8	22.3	0.00e+00	92	41	0	1034944512	56	6295
2026-01-24 02:01:59.38	315.99	18.33	-41.2	-42.2	22.7	0.00e+00	92	41	0	1042284544	56	5855
2026-01-24 02:02:03.42	316.67	17.99	-41.5	-42.6	22.5	0.00e+00	6	41	0	1049624576	56	6126
2026-01-24 02:02:07.45	317.34	17.65	-41.5	-42.5	22.5	0.00e+00	0	41	0	1058013184	56	6103
2026-01-24 02:02:11.49	317.98	17.31	-41.7	-42.7	22.3	0.00e+00	91	42	0	1065353216	56	6229
2026-01-24 02:02:15.53	318.62	16.97	-41.4	-42.4	22.5	0.00e+00	92	41	0	1072693248	56	5990
2026-01-24 02:02:19.57	319.24	16.64	-40.7	-41.7	23.2	0.00e+00	66	41	0	1080033280	56	5517
2026-01-24 02:02:23.61	319.85	16.30	-40.9	-41.9	22.9	0.00e+00	90	41	0	1088421888	54	6329
2026-01-24 02:02:27.64	320.45	15.97	-40.9	-41.8	23.0	0.00e+00	92	41	0	1095761920	54	6290
2026-01-24 02:02:31.68	321.03	15.64	-40.8	-41.7	23.1	0.00e+00	6	41	0	1103101952	54	6216
2026-01-24 02:02:35.72	321.60	15.31	-40.7	-41.7	23.1	0.00e+00	0	41	0	1110441984	54	6195
2026-01-24 02:02:39.75	322.16	14.98	-41.0	-42.0	22.8	0.00e+00	91	42	0	1117782016	54	6445
2026-01-24 02:02:43.79	322.70	14.66	-41.3	-42.3	22.5	0.00e+00	91	41	0	1126170624	54	6659
2026-01-24 02:02:47.83	323.24	14.33	-41.2	-42.2	22.6	0.00e+00	0	41	0	1133510656	54	6601
2026-01-24 02:02:51.88	323.76	14.01	-41.3	-42.3	22.5	0.00e+00	0	42	0	1140850688	54	6663
2026-01-24 02:02:55.92	324.28	13.69	-41.3	-42.4	22.4	0.00e+00	92	41	0	1148190720	54	6700
2026-01-24 02:02:59.95	324.78	13.38	-41.1	-42.2	22.6	0.00e+00	92	41	0	1156579328	54	6544
2026-01-24 02:03:03.99	325.27	13.06	-41.6	-42.7	22.1	0.00e+00	15	41	0	1163919360	54	6940
2026-01-24 02:03:08.03	325.76	12.75	-42.2	-43.4	21.5	0.00e+00	15	41	0	1171259392	56	6700
2026-01-24 02:03:12.07	326.23	12.44	-42.8	-44.1	20.8	0.00e+00	92	41	0	1178599424	58	6509
2026-01-24 02:03:16.11	326.69	12.13	-42.9	-44.2	20.7	0.00e+00	0	41	0	1185939456	58	6557
2026-01-24 02:03:20.14	327.15	11.83	-42.8	-44.1	20.6	0.00e+00	64	41	0	1194328064	58	6480
2026-01-24 02:03:24.18	327.59	11.52	-42.7	-43.9	20.9	0.00e+00	17	41	0	1201668096	58	6371
2026-01-24 02:03:28.22	328.03	11.22	-42.9	-44.2	20.7	0.00e+00	92	41	0	1209008128	58	6552
2026-01-24 02:03:32.25	328.46	10.92	-42.7	-44.0	20.9	0.00e+00	0	41	0	1216348160	58	6394
2026-01-24 02:03:36.29	328.88	10.63	-42.6	-43.8	21.0	0.00e+00	65	41	0	1224736768	58	6294
2026-01-24 02:03:40.33	329.29	10.33	-42.5	-43.8	20.9	0.00e+00	0	42	0	1232076800	58	6249
2026-01-24 02:03:44.37	329.70	10.04	-42.8	-44.1	20.7	0.00e+00	91	41	0	1239416832	58	6490
2026-01-24 02:03:48.40	330.09	9.75	-42.7	-44.0	20.7	0.00e+00	18	41	0	1246756864	58	6437
2026-01-24 02:03:52.44	330.48	9.46	-42.8	-44.1	20.6	0.00e+00	5	41	0	1254096896	58	6474
2026-01-24 02:03:56.48	330.87	9.18	-41.9	-43.0	21.5	0.00e+00	37	42	0	1262485504	58	5731
2026-01-24 02:04:00.52	331.24	8.89	-41.7	-42.8	21.7	0.00e+00	81	42	0	1269825536	56	6314
2026-01-24 02:04:04.55	331.61	8.61	-42.1	-43.2	21.3	0.00e+00	26	42	0	1277165568	56	6599
2026-01-24 02:04:08.59	331.97	8.33	-42.6	-43.9	20.7	0.00e+00	22	42	0	1284505600	56	7143
2026-01-24 02:04:12.63	332.33	8.06	-42.8	-44.2	20.3	0.00e+00	46	42	0	1291845632	58	6562
2026-01-24 02:04:16.67	332.68	7.78	-42.7	-44.0	20.5	0.00e+00	0	42	0	1300234240	58	6453
2026-01-24 02:04:20.70	333.02	7.51	-42.5	-43.7	20.6	0.00e+00	62	42	0	1307574272	58	6232
2026-01-24 02:04:24.74	333.36	7.24	-42.4	-43.7	20.8	0.00e+00	63	42	0	1314914304	58	6174
2026-01-24 02:04:28.78	333.69	6.97	-42.4	-43.6	20.7	0.00e+00	92	42	0	1322254336	58	6149
2026-01-24 02:04:32.82	334.01	6.71	-42.3	-43.6	20.5	0.00e+00	19	42	0	1330642944	58	6150
2026-01-24 02:04:36.86	334.33	6.44	-42.7	-44.1	19.9	0.00e+00	0	42	0	1337982976	58	6531
2026-01-24 02:04:40.89	334.65	6.18	-43.1	-44.7	18.9	0.00e+00	0	42	0	1345323008	58	7007
2026-01-24 02:04:44.93	334.96	5.92	-43.6	-45.4	17.9	0.00e+00	92	42	0	1352663040	58	7563
2026-01-24 02:04:48.96	335.26	5.66	-44.1	-46.4	16.3	0.00e+00	60	42	0	1360003072	60	7579
2026-01-24 02:04:53.00	335.56	5.41	-44.8	-47.7	14.4	7.00e-07	0	42	0	1368391680	60	8821
2026-01-24 02:04:57.04	335.86	5.15	-45.5	-49.7	11.8	2.59e-04	0	42	0	1375731712	60	11057
2026-01-24 02:05:01.07	336.15	4.90	-46.2	-51.7	9.4	1.06e-02	90	42	0	1383071744	60	13907
2026-01-24 02:05:05.10	336.43	4.65	-46.4	-53.6	6.9	1.37e-01	0	42	0	1390411776	60	17235
2026-01-24 02:05:09.13	336.71	4.40	-46.6	-55.0	4.9	5.48e-01	60	42	0	1398800384	60	20316
2026-01-24 02:05:13.17	336.99	4.15	-46.5	-56.7	3.9	1.30e+00	0	42	0	1405091840	60	24816
2026-01-24 02:05:17.20	337.26	3.91	-46.5	-59.4	3.6	1.48e+00	0	42	104	1405091840	60	33790
2026-01-24 02:05:21.23	337.53	3.67	-46.5	-60.3	3.6	1.51e+00	0	42	104	1405091840	60	37243
2026-01-24 02:05:25.27	337.79	3.42	-46.1	-61.2	3.6	1.51e+00	0	42	104	1405091840	60	41741
2026-01-24 02:05:29.30	338.05	3.18	-46.2	-61.3	3.6	1.51e+00	0	42	104	1405091840	60	42024
2026-01-24 02:05:33.35	338.31	2.95	-46.3	-61.5	3.6	1.51e+00	0	42	104	1405091840	60	43047
2026-01-24 02:05:37.39	338.56	2.71	-50.9	-66.1	3.6	1.51e+00	0	42	104	1405091840	60	72709
2026-01-24 02:05:41.42	338.81	2.47	-51.3	-66.5	3.6	1.51e+00	0	42	104	1405091840	60	76032
2026-01-24 02:05:45.46	339.05	2.24	-51.4	-66.6	3.6	1.51e+00	0	42	104	1405091840	60	76981
2026-01-24 02:05:49.50	339.29	2.01	-51.3	-66.5	3.6	1.51e+00	0	42	104	1405091840	60	76429
2026-01-24 02:05:53.54	339.53	1.78	-51.2	-66.4	3.5	1.51e+00	0	42	104	1405091840	60	75912
2026-01-24 02:05:57.58	339.77	1.55	-51.3	-66.5	3.6	1.51e+00	0	42	104	1405091840	60	76822
2026-01-24 02:06:01.62	340.00	1.32	-51.3	-66.5	3.6	1.51e+00	0	42	104	1405091840	60	76517
2026-01-24 02:06:05.66	340.23	1.09	-51.3	-66.5	3.6	1.51e+00	0	42	104	1405091840	60	76744
2026-01-24 02:06:09.70	340.45	0.87	-51.4	-66.5	3.6	1.51e+00	0	42	104	1405091840	60	76769
2026-01-24 02:06:13.74	340.67	0.64	-51.4	-66.6	3.6	1.51e+00	0	42	104	1405091840	60	77085
2026-01-24 02:06:17.78	340.89	0.42	-51.4	-66.5	3.6	1.51e+00	0	42	104	1405091840	60	76600
2026-01-24 02:06:21.83	341.11	0.20	-51.4	-66.6	3.6	1.51e+00	0	42	104	1405091840	60	77211
2026-01-24 02:06:25.86	341.32	-0.02	-51.4	-66.6	3.6	1.51e+00	0	42	104	1405091840	60	77258

#Closed at: 2026-01-24 02:06:27
#Recorded file [1405 MB]: D:/lorett/data/35029_260124_135145.dat