passes_logs/2026/01/24/R4.6S_Anadyr/R4.6S_Anadyr__20260124_075416_TY-42_rec.log

#Pass ID: 20260124_075416_TY-42
#Satellite: TY-42
#Configuration: TY-42_900M
#almurnet v.1.7.20251203
#Start time: 2026-01-24 07:54:48

#Version: 2.2.20231116
#Station: R4.6S_Anadyr
#Location: 177.4865 lon 64.73178 lat
#TLE: 1 64048U 25103A   26023.66790509  .00008008  00000-0  38191-3 0 09999
#TLE: 2 64048 097.4117 098.9223 0001893 091.9782 302.8981 15.19160197 38139

#Time	Az	El	Level	Level2	SNR	BER	BlckErr	Temp	State	Recorded	gain1	gain2
2026-01-24 07:54:48.97	115.58	2.00	-51.9	-69.5	3.6	3.02e+01	0	39	0	0	60	115436
2026-01-24 07:54:52.00	115.35	2.20	-49.0	-51.7	6.1	0.00e+00	0	40	104	0	60	47010
2026-01-24 07:54:55.03	115.12	2.39	-49.1	-51.7	6.1	0.00e+00	0	41	104	0	60	47118
2026-01-24 07:54:58.06	114.88	2.59	-49.1	-51.7	6.1	0.00e+00	0	41	104	0	60	47107
2026-01-24 07:55:01.09	114.64	2.79	-49.0	-51.6	6.1	0.00e+00	0	41	104	0	60	46791
2026-01-24 07:55:04.12	114.39	2.99	-49.1	-51.7	6.1	0.00e+00	0	41	104	0	60	47169
2026-01-24 07:55:07.15	114.14	3.19	-49.0	-51.7	6.1	0.00e+00	0	41	104	0	60	46988
2026-01-24 07:55:10.18	113.89	3.39	-49.0	-51.6	6.1	0.00e+00	0	41	104	0	60	46786
2026-01-24 07:55:13.21	113.63	3.60	-49.0	-51.7	6.1	0.00e+00	0	41	104	0	60	46942
2026-01-24 07:55:16.24	113.37	3.80	-49.1	-51.7	6.1	0.00e+00	0	41	104	0	60	47092
2026-01-24 07:55:19.27	113.10	4.01	-49.1	-51.7	6.1	0.00e+00	0	41	104	0	60	47276
2026-01-24 07:55:22.29	112.82	4.22	-49.0	-51.7	6.1	0.00e+00	0	41	104	0	60	47241
2026-01-24 07:55:25.32	112.55	4.43	-49.3	-52.0	6.1	0.00e+00	0	41	104	0	60	48808
2026-01-24 07:55:28.35	112.26	4.64	-50.3	-52.9	6.1	0.00e+00	0	41	104	0	60	53885
2026-01-24 07:55:31.38	111.97	4.86	-49.8	-52.4	6.1	0.00e+00	0	41	104	0	60	50892
2026-01-24 07:55:34.41	111.68	5.08	-50.0	-52.5	6.1	0.00e+00	0	42	104	0	60	51574
2026-01-24 07:55:37.43	111.38	5.29	-50.4	-53.0	6.1	0.00e+00	0	42	104	0	60	54403
2026-01-24 07:55:40.46	111.07	5.51	-50.4	-52.9	6.1	0.00e+00	0	41	104	0	60	54283
2026-01-24 07:55:43.49	110.76	5.73	-49.4	-51.4	6.2	0.00e+00	0	42	104	0	60	45589
2026-01-24 07:55:46.52	110.44	5.96	-34.9	-35.4	14.1	1.68e-01	0	42	0	218103808	46	16064
2026-01-24 07:55:49.54	110.11	6.18	-32.8	-33.3	14.9	2.17e-02	0	42	0	562036736	42	16022
2026-01-24 07:55:52.57	109.78	6.41	-31.1	-31.6	15.6	3.86e-03	0	42	0	897581056	38	16546
2026-01-24 07:55:55.60	109.44	6.64	-30.1	-30.6	16.1	8.12e-04	0	42	0	1241513984	36	16519
2026-01-24 07:55:58.63	109.10	6.87	-30.5	-31.0	15.9	2.34e-04	0	42	0	1585446912	34	19488
2026-01-24 07:56:01.66	108.75	7.10	-30.2	-30.7	16.0	5.12e-04	0	42	0	1920991232	34	18830
2026-01-24 07:56:04.69	108.39	7.33	-30.0	-30.5	16.0	1.63e-04	0	42	0	2264924160	34	18411
2026-01-24 07:56:07.72	108.02	7.57	-29.7	-30.3	16.2	7.08e-05	0	43	0	2600468480	34	17810
2026-01-24 07:56:10.75	107.64	7.81	-29.5	-30.0	16.3	1.25e-04	0	42	0	2944401408	34	17316
2026-01-24 07:56:13.77	107.26	8.05	-29.5	-30.0	16.2	9.80e-05	0	42	0	3279945728	34	17352
2026-01-24 07:56:16.80	106.87	8.29	-29.5	-30.0	16.3	8.17e-05	0	43	0	3623878656	34	17279
2026-01-24 07:56:19.84	106.47	8.54	-29.7	-30.2	16.3	1.47e-04	0	43	0	3967811584	34	17739
2026-01-24 07:56:22.86	106.07	8.78	-29.4	-29.9	16.4	1.20e-04	0	42	0	4311744512	34	17072
2026-01-24 07:56:25.90	105.65	9.03	-28.5	-29.1	16.5	2.72e-05	0	43	0	4647288832	32	17449
2026-01-24 07:56:28.93	105.22	9.28	-28.6	-29.1	16.5	4.35e-05	0	43	0	4991221760	32	17585
2026-01-24 07:56:31.96	104.79	9.53	-28.5	-29.0	16.7	2.72e-05	0	43	0	5335154688	32	17295
2026-01-24 07:56:34.99	104.34	9.79	-28.9	-29.4	16.6	1.63e-05	0	43	0	5670699008	32	18027
2026-01-24 07:56:38.02	103.89	10.04	-28.5	-29.0	16.7	3.81e-05	0	43	0	6014631936	32	17311
2026-01-24 07:56:41.04	103.43	10.30	-28.6	-29.0	16.7	5.40e-06	0	43	0	6358564864	32	17397
2026-01-24 07:56:44.07	102.95	10.56	-29.0	-29.5	16.6	1.08e-05	0	43	0	6694109184	32	18238
2026-01-24 07:56:47.11	102.47	10.83	-28.7	-29.2	16.6	4.90e-05	0	43	0	7038042112	32	17630
2026-01-24 07:56:50.14	101.97	11.09	-28.8	-29.2	16.8	1.63e-05	0	43	0	7381975040	32	17800
2026-01-24 07:56:53.17	101.46	11.36	-28.1	-28.6	17.0	1.08e-05	0	43	0	7717519360	32	16496
2026-01-24 07:56:56.20	100.95	11.63	-27.8	-28.2	17.0	5.40e-06	0	43	0	8061452288	32	15820
2026-01-24 07:56:59.22	100.42	11.90	-28.0	-28.5	17.0	5.40e-06	0	43	0	8396996608	30	18334
2026-01-24 07:57:02.25	99.88	12.17	-27.7	-28.1	17.0	0.00e+00	0	43	0	8740929536	30	17585
2026-01-24 07:57:05.27	99.32	12.44	-27.6	-28.1	17.0	0.00e+00	0	43	0	9076473856	30	17530
2026-01-24 07:57:08.30	98.76	12.72	-27.4	-27.9	17.2	0.00e+00	0	43	0	9420406784	30	17012
2026-01-24 07:57:11.33	98.18	12.99	-27.5	-28.0	17.1	0.00e+00	0	43	0	9755951104	30	17307
2026-01-24 07:57:14.36	97.58	13.27	-26.9	-27.4	17.3	5.40e-06	0	43	0	10099884032	30	16217
2026-01-24 07:57:17.38	96.98	13.55	-27.0	-27.5	17.2	0.00e+00	0	43	0	10443816960	30	16339
2026-01-24 07:57:20.41	96.36	13.83	-26.9	-27.4	17.2	5.40e-06	0	43	0	10779361280	30	16223
2026-01-24 07:57:23.44	95.72	14.12	-26.9	-27.4	17.2	0.00e+00	0	43	0	11123294208	28	18034
2026-01-24 07:57:26.47	95.07	14.40	-26.7	-27.2	17.2	0.00e+00	0	43	0	11458838528	28	17726
2026-01-24 07:57:29.50	94.40	14.68	-26.5	-27.0	17.3	0.00e+00	0	43	0	11802771456	28	17344
2026-01-24 07:57:32.53	93.72	14.97	-26.5	-27.0	17.1	0.00e+00	0	43	0	12146704384	28	17215
2026-01-24 07:57:35.56	93.03	15.26	-26.5	-27.0	17.2	0.00e+00	0	43	0	12490637312	28	17272
2026-01-24 07:57:38.59	92.31	15.54	-26.3	-26.8	17.2	0.00e+00	0	43	0	12826181632	28	16838
2026-01-24 07:57:41.62	91.59	15.83	-26.0	-26.5	17.2	0.00e+00	0	43	0	13170114560	28	16270
2026-01-24 07:57:44.64	90.84	16.12	-25.8	-26.3	17.3	0.00e+00	0	43	0	13514047488	28	16014
2026-01-24 07:57:47.67	90.08	16.41	-25.7	-26.2	17.3	0.00e+00	0	43	0	13849591808	26	17648
2026-01-24 07:57:50.70	89.30	16.69	-25.7	-26.2	17.3	0.00e+00	0	43	0	14193524736	26	17632
2026-01-24 07:57:53.73	88.50	16.98	-25.6	-26.1	17.3	0.00e+00	0	43	0	14537457664	26	17478
2026-01-24 07:57:56.76	87.69	17.27	-25.6	-26.1	17.3	0.00e+00	0	43	0	14873001984	26	17453
2026-01-24 07:57:59.79	86.85	17.55	-25.3	-25.7	17.4	0.00e+00	0	43	0	15216934912	26	16750
2026-01-24 07:58:02.82	86.00	17.83	-25.4	-25.9	17.4	0.00e+00	0	43	0	15552479232	26	17041
2026-01-24 07:58:05.85	85.13	18.12	-25.4	-25.8	17.4	0.00e+00	0	43	0	15896412160	26	16907
2026-01-24 07:58:08.88	84.24	18.39	-25.2	-25.6	17.0	0.00e+00	0	43	0	16240345088	26	16593
2026-01-24 07:58:11.91	83.33	18.67	-25.2	-25.7	17.2	0.00e+00	0	43	0	16575889408	26	16637
2026-01-24 07:58:14.94	82.40	18.94	-25.1	-25.6	17.4	0.00e+00	0	43	0	16919822336	26	16464
2026-01-24 07:58:17.97	81.46	19.22	-24.9	-25.4	17.4	0.00e+00	0	43	0	17255366656	26	16085
2026-01-24 07:58:21.00	80.49	19.48	-25.1	-25.5	17.4	0.00e+00	0	43	0	17599299584	26	16408
2026-01-24 07:58:24.03	79.51	19.74	-24.8	-25.2	17.3	0.00e+00	0	43	0	17934843904	24	17745
2026-01-24 07:58:27.06	78.50	20.00	-24.7	-25.2	17.2	0.00e+00	0	43	0	18278776832	24	17639
2026-01-24 07:58:30.09	77.48	20.25	-24.6	-25.0	17.4	0.00e+00	0	43	0	18622709760	24	17395
2026-01-24 07:58:33.11	76.44	20.50	-24.5	-25.0	17.4	0.00e+00	0	43	0	18958254080	24	17248
2026-01-24 07:58:36.14	75.37	20.74	-24.6	-25.0	17.4	0.00e+00	0	43	0	19302187008	24	17344
2026-01-24 07:58:39.17	74.29	20.98	-24.3	-24.8	17.4	0.00e+00	0	43	0	19637731328	24	16824
2026-01-24 07:58:42.20	73.19	21.20	-24.3	-24.7	17.0	0.00e+00	0	43	0	19981664256	24	16795
2026-01-24 07:58:45.23	72.07	21.42	-24.2	-24.6	17.3	0.00e+00	0	43	0	20325597184	24	16578
2026-01-24 07:58:48.26	70.94	21.63	-24.2	-24.6	17.3	0.00e+00	0	43	0	20669530112	24	16510
2026-01-24 07:58:51.29	69.79	21.83	-24.0	-24.4	17.3	0.00e+00	0	43	0	21005074432	24	16183
2026-01-24 07:58:54.31	68.62	22.03	-24.1	-24.5	17.2	0.00e+00	0	43	0	21349007360	24	16372
2026-01-24 07:58:57.34	67.43	22.21	-24.0	-24.5	17.3	0.00e+00	0	43	0	21692940288	24	16251
2026-01-24 07:59:00.36	66.24	22.38	-24.3	-24.7	17.2	0.00e+00	0	43	0	22028484608	24	16750
2026-01-24 07:59:03.39	65.02	22.54	-24.1	-24.6	17.0	0.00e+00	0	43	0	22372417536	24	16499
2026-01-24 07:59:06.42	63.79	22.69	-24.0	-24.5	17.1	0.00e+00	0	43	0	22707961856	24	16253
2026-01-24 07:59:09.44	62.56	22.83	-23.9	-24.4	17.1	0.00e+00	0	44	0	23051894784	24	16074
2026-01-24 07:59:12.47	61.30	22.95	-24.1	-24.5	17.0	0.00e+00	0	44	0	23387439104	24	16322
2026-01-24 07:59:15.51	60.04	23.07	-23.9	-24.3	16.9	0.00e+00	0	43	0	23731372032	24	15996
2026-01-24 07:59:18.54	58.76	23.17	-24.0	-24.4	16.9	0.00e+00	0	43	0	24075304960	24	16090
2026-01-24 07:59:21.56	57.48	23.25	-24.0	-24.4	16.6	0.00e+00	0	43	0	24410849280	24	16215
2026-01-24 07:59:24.59	56.19	23.32	-24.2	-24.6	16.8	0.00e+00	0	44	0	24754782208	24	16517
2026-01-24 07:59:27.62	54.90	23.38	-24.1	-24.5	16.9	0.00e+00	0	44	0	25090326528	24	16304
2026-01-24 07:59:30.65	53.60	23.43	-24.1	-24.5	16.9	0.00e+00	0	43	0	25434259456	24	16294
2026-01-24 07:59:33.67	52.30	23.46	-24.0	-24.4	16.6	0.00e+00	0	44	0	25769803776	24	16155
2026-01-24 07:59:36.71	50.99	23.47	-24.0	-24.4	16.9	0.00e+00	0	44	0	26113736704	24	16087
2026-01-24 07:59:39.73	49.69	23.47	-24.0	-24.5	16.9	0.00e+00	0	44	0	26457669632	24	16244
2026-01-24 07:59:42.76	48.39	23.46	-24.0	-24.4	17.0	0.00e+00	0	44	0	26793213952	24	16183
2026-01-24 07:59:45.79	47.08	23.43	-24.1	-24.5	17.1	0.00e+00	0	44	0	27137146880	24	16410
2026-01-24 07:59:48.82	45.78	23.39	-23.9	-24.4	17.1	0.00e+00	0	44	0	27481079808	24	16146
2026-01-24 07:59:51.85	44.49	23.33	-24.0	-24.5	17.1	0.00e+00	0	44	0	27816624128	24	16244
2026-01-24 07:59:54.88	43.20	23.26	-23.9	-24.4	17.2	0.00e+00	0	44	0	28160557056	24	16121
2026-01-24 07:59:57.91	41.92	23.17	-24.0	-24.5	17.2	0.00e+00	0	44	0	28504489984	24	16402
2026-01-24 08:00:00.94	40.65	23.07	-24.4	-24.9	17.3	0.00e+00	0	44	0	28840034304	24	17195
2026-01-24 08:00:03.97	39.38	22.96	-51.3	-53.8	6.1	0.00e+00	0	43	104	28915531776	60	60267
2026-01-24 08:00:07.00	38.13	22.84	-51.2	-53.7	6.1	0.00e+00	0	44	104	28915531776	60	58976
2026-01-24 08:00:10.03	36.89	22.70	-51.2	-53.7	6.1	0.00e+00	0	43	104	28915531776	60	59487
2026-01-24 08:00:13.05	35.67	22.55	-51.2	-53.8	6.1	0.00e+00	0	43	104	28915531776	60	59852
2026-01-24 08:00:16.09	34.45	22.39	-51.4	-53.9	6.1	0.00e+00	0	44	104	28915531776	60	60477
2026-01-24 08:00:19.11	33.26	22.22	-51.6	-54.1	6.1	0.00e+00	0	43	104	28915531776	60	62073
2026-01-24 08:00:22.14	32.07	22.04	-51.5	-54.0	6.1	0.00e+00	0	43	104	28915531776	60	61237
2026-01-24 08:00:25.17	30.91	21.85	-51.6	-54.1	6.1	0.00e+00	0	43	104	28915531776	60	61835
2026-01-24 08:00:28.20	29.75	21.65	-51.6	-54.1	6.1	0.00e+00	0	43	104	28915531776	60	61815
2026-01-24 08:00:31.23	28.62	21.44	-51.5	-54.0	6.1	0.00e+00	0	43	104	28915531776	60	61282
2026-01-24 08:00:34.26	27.50	21.22	-51.4	-54.0	6.0	0.00e+00	0	43	104	28915531776	60	61186
2026-01-24 08:00:37.29	26.41	21.00	-51.5	-54.0	6.1	0.00e+00	0	43	104	28915531776	60	61128
2026-01-24 08:00:40.32	25.33	20.76	-51.5	-54.0	6.1	0.00e+00	0	43	104	28915531776	60	61521
2026-01-24 08:00:43.35	24.27	20.52	-51.5	-54.0	6.1	0.00e+00	0	43	104	28915531776	60	61405
2026-01-24 08:00:46.38	23.23	20.28	-51.4	-53.8	6.1	0.00e+00	0	43	104	28915531776	60	60325
2026-01-24 08:00:49.40	22.21	20.03	-51.6	-54.0	6.1	0.00e+00	0	43	104	28915531776	60	61268
2026-01-24 08:00:52.44	21.20	19.77	-51.5	-54.0	6.1	0.00e+00	0	43	104	28915531776	60	61169
2026-01-24 08:00:55.47	20.22	19.51	-51.5	-53.9	6.1	0.00e+00	0	43	104	28915531776	60	61018
2026-01-24 08:00:58.50	19.25	19.24	-51.4	-53.9	6.1	0.00e+00	0	43	104	28915531776	60	60819
2026-01-24 08:01:01.52	18.31	18.98	-51.5	-54.0	6.1	0.00e+00	0	43	104	28915531776	60	61130
2026-01-24 08:01:04.54	17.39	18.70	-51.5	-54.0	6.0	0.00e+00	0	43	104	28915531776	60	61081
2026-01-24 08:01:07.57	16.48	18.43	-51.4	-53.9	6.1	0.00e+00	0	43	104	28915531776	60	60366
2026-01-24 08:01:10.60	15.60	18.15	-51.4	-53.9	6.1	0.00e+00	0	43	104	28915531776	60	60606
2026-01-24 08:01:13.62	14.73	17.87	-51.5	-54.0	6.1	0.00e+00	0	43	104	28915531776	60	61069
2026-01-24 08:01:16.65	13.88	17.59	-51.4	-53.9	6.1	0.00e+00	0	43	104	28915531776	60	60550
2026-01-24 08:01:19.67	13.05	17.31	-51.4	-53.9	6.1	0.00e+00	0	43	104	28915531776	60	60449
2026-01-24 08:01:22.70	12.24	17.02	-51.3	-53.8	6.1	0.00e+00	0	43	104	28915531776	60	60262
2026-01-24 08:01:25.73	11.45	16.74	-51.4	-53.9	6.1	0.00e+00	0	43	104	28915531776	60	60704
2026-01-24 08:01:28.76	10.67	16.45	-51.4	-53.9	6.1	0.00e+00	0	43	104	28915531776	60	60406
2026-01-24 08:01:31.79	9.91	16.17	-51.4	-53.8	6.1	0.00e+00	0	43	104	28915531776	60	60150
2026-01-24 08:01:34.82	9.16	15.88	-51.3	-53.8	6.1	0.00e+00	0	43	104	28915531776	60	60105
2026-01-24 08:01:37.84	8.44	15.59	-51.3	-53.8	6.1	0.00e+00	0	43	104	28915531776	60	59998
2026-01-24 08:01:40.86	7.73	15.31	-51.3	-53.8	6.1	0.00e+00	0	43	104	28915531776	60	60094
2026-01-24 08:01:43.89	7.04	15.02	-51.3	-53.7	6.1	0.00e+00	0	43	104	28915531776	60	59531
2026-01-24 08:01:46.92	6.36	14.74	-51.3	-53.8	6.1	0.00e+00	0	43	104	28915531776	60	59789
2026-01-24 08:01:49.95	5.70	14.46	-51.3	-53.7	6.1	0.00e+00	0	43	104	28915531776	60	59587
2026-01-24 08:01:52.97	5.05	14.17	-51.3	-53.8	6.1	0.00e+00	0	43	104	28915531776	60	59861
2026-01-24 08:01:56.00	4.42	13.89	-51.3	-53.7	6.1	0.00e+00	0	43	104	28915531776	60	59457
2026-01-24 08:01:59.04	3.80	13.61	-51.3	-53.7	6.1	0.00e+00	0	43	104	28915531776	60	59477
2026-01-24 08:02:02.06	3.19	13.33	-51.3	-53.7	6.1	0.00e+00	0	43	104	28915531776	60	59639
2026-01-24 08:02:05.09	2.60	13.06	-51.3	-53.7	6.1	0.00e+00	0	43	104	28915531776	60	59477
2026-01-24 08:02:08.12	2.02	12.78	-51.2	-53.6	6.1	0.00e+00	0	43	104	28915531776	60	58908
2026-01-24 08:02:11.15	1.46	12.51	-51.2	-53.7	6.1	0.00e+00	0	43	104	28915531776	60	59044
2026-01-24 08:02:14.18	0.91	12.23	-51.1	-53.6	6.1	0.00e+00	0	43	104	28915531776	60	58654
2026-01-24 08:02:17.20	0.37	11.96	-51.2	-53.7	6.1	0.00e+00	0	43	104	28915531776	60	59130
2026-01-24 08:02:20.23	359.84	11.69	-51.2	-53.7	6.1	0.00e+00	0	43	104	28915531776	60	59251
2026-01-24 08:02:23.26	359.32	11.43	-51.0	-53.6	6.1	0.00e+00	0	43	104	28915531776	60	58286
2026-01-24 08:02:26.29	358.82	11.16	-51.1	-53.6	6.1	0.00e+00	0	43	104	28915531776	60	58657
2026-01-24 08:02:29.32	358.32	10.90	-51.1	-53.5	6.1	0.00e+00	0	43	104	28915531776	60	58214
2026-01-24 08:02:32.35	357.84	10.64	-51.1	-53.6	6.1	0.00e+00	0	43	104	28915531776	60	58448
2026-01-24 08:02:35.38	357.37	10.38	-51.0	-53.4	6.1	0.00e+00	0	43	104	28915531776	60	57569
2026-01-24 08:02:38.41	356.91	10.12	-51.0	-53.4	6.1	0.00e+00	0	43	104	28915531776	60	57287
2026-01-24 08:02:41.44	356.46	9.86	-51.0	-53.4	6.1	0.00e+00	0	43	104	28915531776	60	57616
2026-01-24 08:02:44.48	356.01	9.61	-51.0	-53.5	6.1	0.00e+00	0	43	104	28915531776	60	57878
2026-01-24 08:02:47.51	355.58	9.36	-51.0	-53.4	6.1	0.00e+00	0	43	104	28915531776	60	57394
2026-01-24 08:02:50.54	355.16	9.11	-50.8	-53.3	6.1	0.00e+00	0	43	104	28915531776	60	56579
2026-01-24 08:02:53.56	354.74	8.86	-50.9	-53.4	6.1	0.00e+00	0	43	104	28915531776	60	57154
2026-01-24 08:02:56.59	354.34	8.61	-50.9	-53.3	6.1	0.00e+00	0	43	104	28915531776	60	56763
2026-01-24 08:02:59.62	353.94	8.37	-50.9	-53.3	6.1	0.00e+00	0	43	104	28915531776	60	56857
2026-01-24 08:03:02.65	353.55	8.13	-50.8	-53.2	6.1	0.00e+00	0	43	104	28915531776	60	56182
2026-01-24 08:03:05.67	353.17	7.89	-50.9	-53.4	6.1	0.00e+00	0	43	104	28915531776	60	57235
2026-01-24 08:03:08.70	352.80	7.65	-50.9	-53.4	6.1	0.00e+00	0	43	104	28915531776	60	57047
2026-01-24 08:03:11.73	352.43	7.42	-50.8	-53.2	6.1	0.00e+00	0	43	104	28915531776	60	56275
2026-01-24 08:03:14.76	352.08	7.18	-50.7	-53.2	6.1	0.00e+00	0	43	104	28915531776	60	56053
2026-01-24 08:03:17.79	351.73	6.95	-50.7	-53.2	6.1	0.00e+00	0	43	104	28915531776	60	55781
2026-01-24 08:03:20.82	351.38	6.72	-50.7	-53.2	6.1	0.00e+00	0	43	104	28915531776	60	55745
2026-01-24 08:03:23.85	351.05	6.49	-50.7	-53.2	6.1	0.00e+00	0	43	104	28915531776	60	55701
2026-01-24 08:03:26.87	350.72	6.27	-50.7	-53.2	6.1	0.00e+00	0	44	104	28915531776	60	55893
2026-01-24 08:03:29.90	350.39	6.04	-50.7	-53.1	6.1	0.00e+00	0	43	104	28915531776	60	55601
2026-01-24 08:03:32.93	350.08	5.82	-50.7	-53.2	6.1	0.00e+00	0	43	104	28915531776	60	56009
2026-01-24 08:03:35.96	349.77	5.60	-50.7	-53.1	6.1	0.00e+00	0	43	104	28915531776	60	55402
2026-01-24 08:03:38.98	349.46	5.38	-50.6	-53.1	6.1	0.00e+00	0	43	104	28915531776	60	55192
2026-01-24 08:03:42.01	349.16	5.17	-50.6	-53.1	6.1	0.00e+00	0	44	104	28915531776	60	55253
2026-01-24 08:03:45.04	348.87	4.95	-50.7	-53.1	6.1	0.00e+00	0	43	104	28915531776	60	55526
2026-01-24 08:03:48.07	348.58	4.74	-50.4	-52.9	6.1	0.00e+00	0	43	104	28915531776	60	53906
2026-01-24 08:03:51.09	348.30	4.52	-49.5	-52.0	6.1	0.00e+00	0	43	104	28915531776	60	48815
2026-01-24 08:03:54.12	348.03	4.31	-48.7	-51.2	6.1	0.00e+00	0	43	104	28915531776	60	44549
2026-01-24 08:03:57.15	347.75	4.11	-48.1	-50.6	6.1	0.00e+00	0	43	104	28915531776	60	41411
2026-01-24 08:04:00.18	347.49	3.90	-48.3	-50.8	6.1	0.00e+00	0	44	104	28915531776	60	42424
2026-01-24 08:04:03.21	347.23	3.69	-48.7	-51.2	6.1	0.00e+00	0	44	104	28915531776	60	44319
2026-01-24 08:04:06.24	346.97	3.49	-46.9	-49.4	6.1	0.00e+00	0	44	104	28915531776	60	36085
2026-01-24 08:04:09.27	346.72	3.29	-46.8	-49.3	6.0	0.00e+00	0	43	104	28915531776	60	35832
2026-01-24 08:04:12.30	346.47	3.08	-46.7	-49.2	6.1	0.00e+00	0	44	104	28915531776	60	35513
2026-01-24 08:04:15.33	346.23	2.88	-50.2	-52.7	6.1	0.00e+00	0	44	104	28915531776	60	53157
2026-01-24 08:04:18.36	345.99	2.69	-51.3	-53.9	6.1	0.00e+00	0	44	104	28915531776	60	60558
2026-01-24 08:04:21.39	345.75	2.49	-51.6	-54.1	6.0	0.00e+00	0	43	104	28915531776	60	62109
2026-01-24 08:04:24.42	345.52	2.29	-51.5	-54.0	6.1	0.00e+00	0	44	104	28915531776	60	61585
2026-01-24 08:04:27.45	345.30	2.10	-51.8	-54.3	6.1	0.00e+00	0	44	104	28915531776	60	63221
2026-01-24 08:04:30.48	345.07	1.91	-51.8	-54.2	6.1	0.00e+00	0	44	104	28915531776	60	63163
2026-01-24 08:04:33.51	344.85	1.72	-51.9	-54.4	6.1	0.00e+00	0	44	104	28915531776	60	64217
2026-01-24 08:04:36.54	344.64	1.53	-52.0	-54.4	6.1	0.00e+00	0	44	104	28915531776	60	64339
2026-01-24 08:04:39.57	344.43	1.34	-52.1	-54.6	6.1	0.00e+00	0	44	104	28915531776	60	65750
2026-01-24 08:04:42.59	344.22	1.15	-51.9	-54.4	6.1	0.00e+00	0	44	104	28915531776	60	64340
2026-01-24 08:04:45.62	344.02	0.97	-52.2	-54.6	6.1	0.00e+00	0	44	104	28915531776	60	66066
2026-01-24 08:04:48.65	343.82	0.78	-51.9	-54.4	6.1	0.00e+00	0	44	104	28915531776	60	64150
2026-01-24 08:04:51.68	343.62	0.60	-52.0	-54.4	6.1	0.00e+00	0	43	104	28915531776	60	64549
2026-01-24 08:04:54.71	343.43	0.41	-51.9	-54.4	6.1	0.00e+00	0	43	104	28915531776	60	64107
2026-01-24 08:04:57.74	343.23	0.23	-51.9	-54.4	6.1	0.00e+00	0	44	104	28915531776	60	64388
2026-01-24 08:05:00.77	343.05	0.05	-51.9	-54.4	6.1	0.00e+00	0	44	104	28915531776	60	64335
2026-01-24 08:05:03.80	342.86	-0.13	-52.0	-54.4	6.1	0.00e+00	0	44	104	28915531776	60	64591

#Closed at: 2026-01-24 08:05:04
#Recorded file [28915 MB]: D:/lorett/data/35029_260124_195448.dat