passes_logs/2026/01/24/R4.6S_Anadyr/R4.6S_Anadyr__20260124_115520_SUOMI_NPP_rec.log

#Pass ID: 20260124_115520_SUOMI NPP
#Satellite: SUOMI NPP
#Configuration: NPP
#almurnet v.1.7.20251203
#Start time: 2026-01-24 11:55:21

#Version: 2.2.20231116
#Station: R4.6S_Anadyr
#Location: 177.4865 lon 64.73178 lat
#TLE: 1 37849U 11061A   26024.12615439  .00000221  00000+0  12601-3 0  9992
#TLE: 2 37849  98.7821 326.0966 0002215  48.1259 312.0106 14.19529288738009

#Time	Az	El	Level	Level2	SNR	BER	BlckErr	Temp	State	Recorded	gain1	gain2
2026-01-24 11:55:21.94	20.05	0.06	-51.9	-64.6	3.4	1.52e+00	0	39	0	0	60	59285
2026-01-24 11:55:24.97	20.32	0.19	-52.3	-67.5	3.6	1.51e+00	0	40	104	0	60	85771
2026-01-24 11:55:28.00	20.59	0.32	-51.7	-66.9	3.6	1.51e+00	0	40	104	0	60	79892
2026-01-24 11:55:31.02	20.86	0.45	-51.6	-66.8	3.6	1.51e+00	0	40	104	0	60	79144
2026-01-24 11:55:34.05	21.14	0.58	-51.4	-66.7	3.6	1.51e+00	0	40	104	0	60	77873
2026-01-24 11:55:37.08	21.42	0.71	-51.2	-66.5	3.6	1.51e+00	0	40	104	0	60	76295
2026-01-24 11:55:40.11	21.70	0.84	-51.0	-66.3	3.6	1.51e+00	0	40	104	0	60	74293
2026-01-24 11:55:43.14	21.98	0.97	-50.7	-65.9	3.6	1.51e+00	0	40	104	0	60	71588
2026-01-24 11:55:46.17	22.27	1.10	-49.9	-65.1	3.6	1.51e+00	0	40	104	0	60	65173
2026-01-24 11:55:49.20	22.55	1.23	-49.8	-65.0	3.6	1.51e+00	0	40	104	0	60	64257
2026-01-24 11:55:52.23	22.84	1.36	-49.8	-64.9	3.6	1.51e+00	0	40	104	0	60	63864
2026-01-24 11:55:55.26	23.14	1.49	-49.8	-64.9	3.6	1.51e+00	0	40	104	0	60	63778
2026-01-24 11:55:58.29	23.43	1.63	-49.7	-64.9	3.6	1.51e+00	0	40	104	0	60	63359
2026-01-24 11:56:01.32	23.73	1.76	-49.7	-64.9	3.6	1.51e+00	0	40	104	0	60	63762
2026-01-24 11:56:04.35	24.03	1.89	-49.7	-64.9	3.6	1.51e+00	0	40	104	0	60	63385
2026-01-24 11:56:07.38	24.33	2.02	-49.7	-64.9	3.6	1.51e+00	0	40	104	0	60	63428
2026-01-24 11:56:10.41	24.63	2.15	-49.7	-64.6	3.6	1.51e+00	0	40	104	0	60	61346
2026-01-24 11:56:13.44	24.94	2.28	-49.7	-64.7	3.6	1.51e+00	0	40	104	0	60	62371
2026-01-24 11:56:16.46	25.25	2.41	-49.7	-64.9	3.6	1.51e+00	0	40	104	0	60	63346
2026-01-24 11:56:19.49	25.56	2.54	-49.7	-63.4	3.6	1.51e+00	0	40	104	0	60	53292
2026-01-24 11:56:22.52	25.88	2.67	-48.8	-55.4	7.8	2.97e-01	0	41	0	1048576	60	21387
2026-01-24 11:56:25.55	26.20	2.80	-44.9	-47.0	17.2	0.00e+00	0	40	0	6291456	60	8136
2026-01-24 11:56:28.58	26.52	2.93	-45.1	-47.3	17.1	0.00e+00	0	40	0	12582912	60	8346
2026-01-24 11:56:31.62	26.84	3.07	-44.6	-46.5	17.4	3.77e-03	0	41	0	17825792	60	7677
2026-01-24 11:56:34.64	27.16	3.20	-49.5	-61.4	4.0	1.51e+00	0	41	104	22020096	60	42412
2026-01-24 11:56:37.67	27.49	3.33	-44.3	-46.1	17.8	0.00e+00	0	41	0	25165824	60	7328
2026-01-24 11:56:40.70	27.82	3.46	-45.7	-48.2	15.8	0.00e+00	0	41	0	31457280	60	9273
2026-01-24 11:56:43.72	28.16	3.59	-46.6	-49.5	14.5	0.00e+00	0	41	0	36700160	60	10808
2026-01-24 11:56:46.75	28.50	3.72	-44.6	-46.5	17.7	0.00e+00	0	41	0	41943040	60	7636
2026-01-24 11:56:49.78	28.84	3.85	-42.4	-43.8	19.6	0.00e+00	0	41	0	48234496	58	6257
2026-01-24 11:56:52.80	29.18	3.98	-44.1	-45.9	18.3	0.00e+00	0	41	0	53477376	60	7106
2026-01-24 11:56:55.83	29.52	4.11	-44.5	-46.3	17.9	0.00e+00	0	41	0	59768832	60	7472
2026-01-24 11:56:58.86	29.87	4.23	-41.2	-42.3	21.5	0.00e+00	0	41	0	65011712	56	5942
2026-01-24 11:57:01.89	30.22	4.36	-44.3	-46.1	18.1	0.00e+00	0	41	0	71303168	60	7258
2026-01-24 11:57:04.92	30.58	4.49	-43.1	-44.6	19.6	0.00e+00	0	41	0	76546048	58	6892
2026-01-24 11:57:07.94	30.93	4.62	-42.9	-44.3	19.9	0.00e+00	0	41	0	81788928	60	5901
2026-01-24 11:57:10.97	31.29	4.75	-42.3	-43.6	20.4	0.00e+00	0	41	0	88080384	58	6147
2026-01-24 11:57:14.00	31.66	4.88	-42.3	-43.5	20.7	0.00e+00	0	41	0	93323264	58	6100
2026-01-24 11:57:17.02	32.02	5.00	-43.1	-44.5	19.7	0.00e+00	0	41	0	99614720	60	6091
2026-01-24 11:57:20.05	32.39	5.13	-43.5	-45.0	19.2	0.00e+00	0	41	0	104857600	60	6456
2026-01-24 11:57:23.07	32.77	5.26	-41.7	-42.9	20.9	0.00e+00	0	41	0	110100480	58	5677
2026-01-24 11:57:26.10	33.14	5.38	-43.5	-45.0	19.3	0.00e+00	0	41	0	116391936	58	7222
2026-01-24 11:57:29.12	33.52	5.51	-41.5	-42.7	21.3	0.00e+00	0	41	0	121634816	56	6211
2026-01-24 11:57:32.15	33.90	5.63	-43.5	-45.0	19.2	0.00e+00	0	41	0	127926272	58	7197
2026-01-24 11:57:35.18	34.29	5.76	-41.3	-42.5	21.5	0.00e+00	0	41	0	133169152	56	6038
2026-01-24 11:57:38.20	34.67	5.88	-42.9	-44.3	19.8	0.00e+00	0	41	0	139460608	60	5917
2026-01-24 11:57:41.22	35.06	6.01	-43.8	-45.3	19.1	0.00e+00	0	41	0	144703488	60	6675
2026-01-24 11:57:44.24	35.46	6.13	-43.8	-45.3	19.1	0.00e+00	0	41	0	149946368	60	6681
2026-01-24 11:57:47.27	35.86	6.25	-42.2	-43.4	20.7	0.00e+00	0	41	0	156237824	58	6025
2026-01-24 11:57:50.30	36.26	6.38	-43.0	-44.5	19.5	0.00e+00	0	41	0	161480704	58	6772
2026-01-24 11:57:53.33	36.66	6.50	-43.1	-44.5	19.8	0.00e+00	0	41	0	167772160	58	6780
2026-01-24 11:57:56.36	37.07	6.62	-42.7	-44.0	20.3	0.00e+00	0	41	0	173015040	58	6392
2026-01-24 11:57:59.38	37.48	6.74	-43.6	-45.1	19.3	0.00e+00	0	41	0	178257920	60	6501
2026-01-24 11:58:02.40	37.89	6.86	-44.1	-45.7	19.1	0.00e+00	0	41	0	184549376	60	7001
2026-01-24 11:58:05.42	38.31	6.98	-42.3	-43.5	20.7	0.00e+00	0	41	0	189792256	58	6088
2026-01-24 11:58:08.45	38.73	7.10	-42.2	-43.5	20.9	0.00e+00	0	41	0	196083712	58	6034
2026-01-24 11:58:11.48	39.16	7.22	-42.8	-44.1	20.3	0.00e+00	0	41	0	201326592	58	6498
2026-01-24 11:58:14.50	39.58	7.33	-42.9	-44.3	20.0	0.00e+00	0	41	0	206569472	58	6659
2026-01-24 11:58:17.53	40.01	7.45	-43.3	-44.7	19.7	0.00e+00	0	41	0	212860928	58	6973
2026-01-24 11:58:20.56	40.45	7.57	-43.3	-44.7	19.7	0.00e+00	0	41	0	218103808	58	6979
2026-01-24 11:58:23.58	40.88	7.68	-43.0	-44.4	20.0	0.00e+00	0	41	0	224395264	58	6698
2026-01-24 11:58:26.61	41.32	7.79	-43.4	-44.9	19.4	0.00e+00	0	41	0	229638144	58	7115
2026-01-24 11:58:29.64	41.77	7.91	-42.5	-43.7	20.7	0.00e+00	0	41	0	234881024	58	6222
2026-01-24 11:58:32.66	42.22	8.02	-42.8	-44.1	20.3	0.00e+00	0	41	0	241172480	58	6528
2026-01-24 11:58:35.69	42.67	8.13	-42.9	-44.3	19.7	0.00e+00	0	41	0	246415360	58	6671
2026-01-24 11:58:38.72	43.12	8.24	-43.2	-44.6	20.0	0.00e+00	0	41	0	252706816	60	6115
2026-01-24 11:58:41.75	43.58	8.35	-43.3	-44.6	19.9	0.00e+00	0	41	0	257949696	60	6172
2026-01-24 11:58:44.78	44.04	8.46	-44.3	-45.9	19.0	0.00e+00	0	41	0	264241152	60	7163
2026-01-24 11:58:47.81	44.50	8.56	-43.6	-45.1	19.5	0.00e+00	0	41	0	269484032	60	6521
2026-01-24 11:58:50.83	44.97	8.67	-42.9	-44.2	20.4	0.00e+00	0	41	0	274726912	60	5877
2026-01-24 11:58:53.86	45.44	8.77	-43.3	-44.7	19.6	0.00e+00	0	41	0	281018368	58	6973
2026-01-24 11:58:56.88	45.91	8.87	-43.1	-44.5	20.0	0.00e+00	0	41	0	286261248	58	6834
2026-01-24 11:58:59.91	46.39	8.98	-43.0	-44.3	20.1	0.00e+00	0	41	0	292552704	58	6689
2026-01-24 11:59:02.94	46.87	9.08	-43.1	-44.5	20.1	0.00e+00	0	41	0	297795584	58	6824
2026-01-24 11:59:05.96	47.35	9.17	-43.0	-44.3	20.1	0.00e+00	0	41	0	303038464	58	6674
2026-01-24 11:59:08.99	47.84	9.27	-42.5	-43.8	20.7	0.00e+00	0	41	0	309329920	58	6263
2026-01-24 11:59:12.02	48.33	9.37	-42.4	-43.6	20.8	0.00e+00	0	41	0	314572800	58	6155
2026-01-24 11:59:15.04	48.82	9.46	-42.4	-43.6	20.8	0.00e+00	0	41	0	320864256	58	6163
2026-01-24 11:59:18.07	49.32	9.56	-43.2	-44.6	20.1	0.00e+00	0	41	0	326107136	58	6865
2026-01-24 11:59:21.09	49.82	9.65	-43.0	-44.3	20.3	0.00e+00	0	41	0	331350016	60	5958
2026-01-24 11:59:24.12	50.32	9.74	-43.0	-44.4	20.3	0.00e+00	0	41	0	337641472	60	5973
2026-01-24 11:59:27.14	50.82	9.83	-42.8	-44.1	20.4	0.00e+00	0	41	0	342884352	58	6523
2026-01-24 11:59:30.16	51.33	9.91	-42.7	-44.0	20.5	0.00e+00	0	41	0	349175808	58	6421
2026-01-24 11:59:33.19	51.84	10.00	-42.5	-43.8	20.7	0.00e+00	0	41	0	354418688	58	6254
2026-01-24 11:59:36.22	52.35	10.08	-42.5	-43.7	20.8	0.00e+00	0	41	0	360710144	58	6204
2026-01-24 11:59:39.25	52.87	10.16	-43.5	-45.0	19.7	0.00e+00	0	41	0	365953024	58	7195
2026-01-24 11:59:42.28	53.39	10.24	-44.0	-45.6	19.1	0.00e+00	0	41	0	371195904	60	6894
2026-01-24 11:59:45.30	53.91	10.32	-43.9	-45.5	19.3	0.00e+00	0	41	0	377487360	60	6772
2026-01-24 11:59:48.33	54.44	10.40	-43.8	-45.3	19.7	0.00e+00	0	41	0	382730240	60	6619
2026-01-24 11:59:51.36	54.96	10.47	-43.3	-44.6	20.1	0.00e+00	0	41	0	389021696	60	6165
2026-01-24 11:59:54.38	55.49	10.55	-43.1	-44.4	20.2	0.00e+00	0	41	0	394264576	60	6015
2026-01-24 11:59:57.41	56.03	10.62	-42.3	-43.5	21.0	0.00e+00	0	41	0	399507456	58	6038
2026-01-24 12:00:00.43	56.56	10.69	-41.9	-43.0	21.4	0.00e+00	0	41	0	405798912	56	6452
2026-01-24 12:00:03.46	57.10	10.75	-42.9	-44.2	20.2	0.00e+00	0	41	0	411041792	58	6578
2026-01-24 12:00:06.49	57.64	10.82	-42.7	-44.0	20.5	0.00e+00	0	41	0	417333248	58	6430
2026-01-24 12:00:09.51	58.18	10.88	-43.5	-45.0	19.7	0.00e+00	0	41	0	422576128	58	7178
2026-01-24 12:00:12.54	58.72	10.94	-44.0	-45.6	19.3	0.00e+00	0	41	0	427819008	60	6882
2026-01-24 12:00:15.57	59.27	11.00	-44.0	-45.5	19.3	0.00e+00	0	41	0	434110464	60	6797
2026-01-24 12:00:18.59	59.82	11.05	-42.6	-43.9	20.6	0.00e+00	0	41	0	439353344	58	6333
2026-01-24 12:00:21.62	60.37	11.11	-42.4	-43.6	20.8	0.00e+00	0	41	0	445644800	58	6172
2026-01-24 12:00:24.65	60.92	11.16	-43.4	-44.8	19.8	0.00e+00	0	41	0	450887680	58	7064
2026-01-24 12:00:27.67	61.47	11.21	-43.3	-44.6	20.0	0.00e+00	0	41	0	457179136	58	6927
2026-01-24 12:00:30.70	62.03	11.26	-43.7	-45.2	19.4	0.00e+00	0	41	0	462422016	58	7392
2026-01-24 12:00:33.73	62.59	11.30	-45.3	-47.3	17.6	0.00e+00	0	41	0	467664896	60	8407
2026-01-24 12:00:36.75	63.15	11.34	-44.3	-46.0	18.8	0.00e+00	0	41	0	473956352	60	7182
2026-01-24 12:00:39.78	63.71	11.38	-43.8	-45.3	19.5	0.00e+00	0	42	0	479199232	60	6675
2026-01-24 12:00:42.80	64.27	11.42	-43.2	-44.5	20.2	0.00e+00	0	41	0	485490688	60	6103
2026-01-24 12:00:45.82	64.83	11.46	-43.5	-44.9	19.9	0.00e+00	0	42	0	490733568	60	6352
2026-01-24 12:00:48.85	65.40	11.49	-42.8	-44.1	20.5	0.00e+00	0	41	0	495976448	58	6467
2026-01-24 12:00:51.88	65.97	11.52	-42.4	-43.7	20.9	0.00e+00	0	41	0	502267904	58	6176
2026-01-24 12:00:54.90	66.53	11.55	-42.5	-43.8	20.7	0.00e+00	0	41	0	507510784	58	6255
2026-01-24 12:00:57.93	67.10	11.57	-42.4	-43.7	20.7	0.00e+00	0	41	0	513802240	58	6192
2026-01-24 12:01:00.96	67.67	11.60	-42.1	-43.2	21.2	0.00e+00	0	41	0	519045120	56	6610
2026-01-24 12:01:03.98	68.24	11.62	-42.4	-43.6	20.9	0.00e+00	0	41	0	524288000	56	6904
2026-01-24 12:01:07.01	68.81	11.64	-42.0	-43.2	21.4	0.00e+00	0	42	0	530579456	56	6569
2026-01-24 12:01:10.04	69.39	11.65	-42.1	-43.3	21.2	0.00e+00	0	41	0	535822336	56	6628
2026-01-24 12:01:13.07	69.96	11.66	-42.3	-43.5	21.0	0.00e+00	0	41	0	542113792	56	6794
2026-01-24 12:01:16.10	70.53	11.67	-41.7	-42.8	21.7	0.00e+00	0	42	0	547356672	56	6314
2026-01-24 12:01:19.12	71.10	11.68	-41.7	-42.8	21.7	0.00e+00	0	41	0	553648128	56	6291
2026-01-24 12:01:22.15	71.68	11.69	-42.0	-43.3	21.4	0.00e+00	0	41	0	558891008	56	6619
2026-01-24 12:01:25.18	72.25	11.69	-42.0	-43.3	21.2	0.00e+00	0	41	0	564133888	56	6643
2026-01-24 12:01:28.20	72.83	11.69	-41.7	-42.9	21.6	0.00e+00	0	42	0	570425344	56	6323
2026-01-24 12:01:31.23	73.40	11.69	-42.2	-43.4	21.2	0.00e+00	0	41	0	575668224	56	6728
2026-01-24 12:01:34.26	73.97	11.68	-41.9	-43.0	21.5	0.00e+00	0	42	0	581959680	56	6447
2026-01-24 12:01:37.28	74.55	11.67	-41.6	-42.7	21.7	0.00e+00	0	42	0	587202560	56	6214
2026-01-24 12:01:40.31	75.12	11.66	-40.8	-41.9	22.4	0.00e+00	0	42	0	592445440	56	5640
2026-01-24 12:01:43.33	75.69	11.65	-41.0	-42.1	22.2	0.00e+00	0	41	0	598736896	56	5799
2026-01-24 12:01:46.36	76.26	11.64	-40.5	-41.5	22.5	0.00e+00	0	42	0	603979776	54	6090
2026-01-24 12:01:49.39	76.84	11.62	-40.5	-41.5	22.5	0.00e+00	0	42	0	610271232	54	6087
2026-01-24 12:01:52.42	77.41	11.60	-41.5	-42.7	21.6	0.00e+00	0	42	0	615514112	54	6936
2026-01-24 12:01:55.45	77.98	11.58	-41.2	-42.2	22.0	0.00e+00	0	41	0	620756992	54	6595
2026-01-24 12:01:58.47	78.55	11.55	-40.4	-41.4	22.6	0.00e+00	0	42	0	627048448	54	5983
2026-01-24 12:02:01.50	79.12	11.52	-40.7	-41.7	22.3	0.00e+00	0	42	0	632291328	54	6214
2026-01-24 12:02:04.52	79.68	11.49	-41.0	-42.1	22.1	0.00e+00	0	42	0	638582784	54	6491
2026-01-24 12:02:07.55	80.25	11.46	-40.7	-41.8	22.1	0.00e+00	0	41	0	643825664	54	6270
2026-01-24 12:02:10.57	80.81	11.42	-40.6	-41.6	22.6	0.00e+00	0	42	0	650117120	54	6116
2026-01-24 12:02:13.60	81.38	11.39	-40.7	-41.7	22.5	0.00e+00	0	41	0	655360000	54	6205
2026-01-24 12:02:16.63	81.94	11.35	-41.2	-42.2	22.0	0.00e+00	0	42	0	660602880	54	6613
2026-01-24 12:02:19.66	82.50	11.30	-41.0	-42.1	22.2	0.00e+00	0	42	0	666894336	54	6479
2026-01-24 12:02:22.68	83.06	11.26	-40.9	-41.9	22.1	0.00e+00	0	42	0	672137216	54	6382
2026-01-24 12:02:25.71	83.62	11.21	-41.2	-42.2	21.8	0.00e+00	0	42	0	678428672	54	6603
2026-01-24 12:02:28.74	84.17	11.16	-41.2	-42.3	22.0	0.00e+00	0	42	0	683671552	54	6669
2026-01-24 12:02:31.76	84.72	11.11	-40.6	-41.5	22.6	0.00e+00	0	42	0	688914432	54	6095
2026-01-24 12:02:34.79	85.28	11.06	-40.2	-41.2	22.9	0.00e+00	0	42	0	695205888	54	5832
2026-01-24 12:02:37.82	85.83	11.00	-40.1	-41.0	23.0	0.00e+00	0	42	0	700448768	54	5756
2026-01-24 12:02:40.84	86.37	10.94	-39.7	-40.6	23.2	0.00e+00	0	42	0	706740224	52	6170
2026-01-24 12:02:43.87	86.92	10.88	-39.9	-40.8	23.1	0.00e+00	0	41	0	711983104	52	6305
2026-01-24 12:02:46.90	87.46	10.82	-40.1	-41.1	22.9	0.00e+00	0	41	0	718274560	52	6474
2026-01-24 12:02:49.93	88.01	10.76	-40.7	-41.8	22.4	0.00e+00	0	42	0	723517440	52	7013
2026-01-24 12:02:52.96	88.55	10.69	-40.3	-41.3	22.7	0.00e+00	0	42	0	728760320	52	6683
2026-01-24 12:02:55.99	89.08	10.62	-40.0	-41.1	23.0	0.00e+00	0	41	0	735051776	52	6466
2026-01-24 12:02:59.02	89.62	10.55	-40.3	-41.3	22.8	0.00e+00	0	42	0	740294656	52	6649
2026-01-24 12:03:02.04	90.15	10.48	-40.3	-41.3	22.8	0.00e+00	0	41	0	746586112	52	6632
2026-01-24 12:03:05.07	90.68	10.40	-39.9	-40.8	23.1	0.00e+00	0	41	0	751828992	52	6308
2026-01-24 12:03:08.10	91.20	10.32	-40.0	-40.9	23.0	0.00e+00	0	41	0	757071872	52	6357
2026-01-24 12:03:11.13	91.73	10.25	-40.2	-41.2	22.7	0.00e+00	0	42	0	763363328	52	6571
2026-01-24 12:03:14.16	92.25	10.17	-40.2	-41.2	22.9	0.00e+00	0	41	0	768606208	52	6598
2026-01-24 12:03:17.19	92.77	10.08	-40.4	-41.4	22.5	0.00e+00	0	42	0	774897664	52	6713
2026-01-24 12:03:20.22	93.28	10.00	-40.9	-42.0	22.0	0.00e+00	0	42	0	780140544	54	6427
2026-01-24 12:03:23.24	93.80	9.91	-41.9	-43.1	21.2	0.00e+00	0	41	0	785383424	56	6509
2026-01-24 12:03:26.27	94.31	9.83	-41.9	-43.1	21.2	0.00e+00	0	42	0	791674880	56	6469
2026-01-24 12:03:29.30	94.81	9.74	-42.0	-43.2	21.2	0.00e+00	0	41	0	796917760	56	6563
2026-01-24 12:03:32.32	95.32	9.65	-42.0	-43.2	21.0	0.00e+00	0	41	0	803209216	56	6612
2026-01-24 12:03:35.35	95.82	9.55	-42.0	-43.1	21.2	0.00e+00	0	41	0	808452096	56	6528
2026-01-24 12:03:38.38	96.31	9.46	-41.9	-43.1	21.1	0.00e+00	0	41	0	814743552	56	6465
2026-01-24 12:03:41.40	96.81	9.37	-42.1	-43.3	21.0	0.00e+00	0	41	0	819986432	56	6684
2026-01-24 12:03:44.43	97.30	9.27	-42.5	-43.9	20.4	0.00e+00	0	41	0	825229312	56	7120
2026-01-24 12:03:47.46	97.79	9.17	-42.4	-43.8	20.5	0.00e+00	0	41	0	831520768	58	6272
2026-01-24 12:03:50.49	98.27	9.07	-42.5	-43.8	20.4	0.00e+00	0	41	0	836763648	58	6311
2026-01-24 12:03:53.52	98.76	8.97	-43.0	-44.4	20.0	0.00e+00	0	41	0	843055104	58	6703
2026-01-24 12:03:56.55	99.24	8.87	-43.3	-44.7	19.5	0.00e+00	0	41	0	848297984	58	6965
2026-01-24 12:03:59.57	99.71	8.76	-43.2	-44.6	19.7	0.00e+00	0	41	0	853540864	58	6897
2026-01-24 12:04:02.60	100.18	8.66	-43.1	-44.5	19.9	0.00e+00	0	41	0	859832320	58	6770
2026-01-24 12:04:05.62	100.65	8.55	-43.1	-44.5	20.0	0.00e+00	0	41	0	865075200	58	6781
2026-01-24 12:04:08.65	101.12	8.45	-43.1	-44.5	19.9	0.00e+00	0	41	0	871366656	58	6824
2026-01-24 12:04:11.68	101.58	8.34	-43.0	-44.3	20.1	0.00e+00	0	41	0	876609536	58	6684
2026-01-24 12:04:14.71	102.04	8.23	-43.0	-44.4	19.9	0.00e+00	0	41	0	882900992	58	6764
2026-01-24 12:04:17.74	102.49	8.12	-43.0	-44.6	19.7	0.00e+00	0	41	0	888143872	58	6851
2026-01-24 12:04:20.76	102.95	8.01	-43.4	-45.1	19.2	0.00e+00	0	41	0	893386752	58	7256
2026-01-24 12:04:23.79	103.40	7.89	-43.3	-44.9	19.3	0.00e+00	0	41	0	899678208	60	6362
2026-01-24 12:04:26.82	103.84	7.78	-43.1	-44.6	19.7	0.00e+00	0	41	0	904921088	60	6146
2026-01-24 12:04:29.85	104.28	7.67	-42.3	-43.7	20.4	0.00e+00	0	41	0	911212544	58	6181
2026-01-24 12:04:32.88	104.72	7.55	-42.0	-43.3	21.0	0.00e+00	0	41	0	916455424	58	5918
2026-01-24 12:04:35.91	105.16	7.43	-42.8	-44.1	20.1	0.00e+00	0	41	0	921698304	58	6509
2026-01-24 12:04:38.94	105.59	7.32	-42.6	-43.9	20.4	0.00e+00	0	41	0	927989760	58	6333
2026-01-24 12:04:41.96	106.02	7.20	-43.3	-44.8	19.7	0.00e+00	0	41	0	933232640	58	7009
2026-01-24 12:04:44.99	106.45	7.08	-42.5	-43.9	20.1	0.00e+00	0	41	0	939524096	58	6366
2026-01-24 12:04:48.02	106.87	6.96	-42.5	-43.9	20.2	0.00e+00	0	41	0	944766976	58	6372
2026-01-24 12:04:51.05	107.29	6.84	-42.6	-44.1	20.2	0.00e+00	0	41	0	950009856	58	6497
2026-01-24 12:04:54.08	107.70	6.72	-42.5	-43.9	20.2	0.00e+00	0	41	0	956301312	58	6338
2026-01-24 12:04:57.10	108.12	6.60	-42.2	-43.5	20.5	0.00e+00	0	41	0	961544192	58	6061
2026-01-24 12:05:00.13	108.52	6.47	-42.3	-43.7	20.5	0.00e+00	0	41	0	967835648	56	6932
2026-01-24 12:05:03.16	108.93	6.35	-42.2	-43.5	20.6	0.00e+00	0	41	0	973078528	56	6772
2026-01-24 12:05:06.19	109.33	6.23	-42.7	-44.1	20.1	0.00e+00	0	41	0	979369984	58	6489
2026-01-24 12:05:09.21	109.73	6.10	-42.0	-43.2	20.8	0.00e+00	0	41	0	984612864	56	6566
2026-01-24 12:05:12.25	110.13	5.98	-41.7	-42.9	21.1	0.00e+00	0	41	0	989855744	56	6378
2026-01-24 12:05:15.27	110.52	5.85	-41.3	-42.5	21.3	0.00e+00	0	41	0	996147200	56	6073
2026-01-24 12:05:18.30	110.91	5.73	-42.1	-43.3	20.7	0.00e+00	0	41	0	1001390080	56	6657
2026-01-24 12:05:21.33	111.30	5.60	-41.9	-43.2	20.8	0.00e+00	0	41	0	1007681536	56	6598
2026-01-24 12:05:24.35	111.68	5.47	-42.3	-43.6	20.2	0.00e+00	0	41	0	1012924416	58	6168
2026-01-24 12:05:27.38	112.06	5.35	-41.9	-43.2	20.7	0.00e+00	0	41	0	1018167296	58	5886
2026-01-24 12:05:30.41	112.44	5.22	-42.8	-44.3	19.6	0.00e+00	0	41	0	1024458752	58	6683
2026-01-24 12:05:33.44	112.81	5.09	-43.2	-44.8	19.1	0.00e+00	0	41	0	1029701632	58	7037
2026-01-24 12:05:36.47	113.18	4.96	-42.2	-43.5	20.4	0.00e+00	0	41	0	1035993088	58	6089
2026-01-24 12:05:39.50	113.55	4.83	-41.8	-43.1	20.7	0.00e+00	0	41	0	1041235968	56	6485
2026-01-24 12:05:42.53	113.91	4.71	-41.9	-43.1	20.5	0.00e+00	0	41	0	1047527424	56	6509
2026-01-24 12:05:45.55	114.27	4.58	-42.3	-43.7	20.2	0.00e+00	0	41	0	1052770304	56	6951
2026-01-24 12:05:48.58	114.63	4.45	-43.5	-45.2	18.5	0.00e+00	0	41	0	1058013184	58	7374
2026-01-24 12:05:51.61	114.99	4.32	-43.6	-45.3	18.9	0.00e+00	0	41	0	1064304640	60	6649
2026-01-24 12:05:54.64	115.34	4.19	-43.7	-45.5	18.2	0.00e+00	0	41	0	1069547520	58	7633
2026-01-24 12:05:57.66	115.69	4.06	-43.1	-44.9	19.0	0.00e+00	0	41	0	1075838976	58	7109
2026-01-24 12:06:00.69	116.03	3.93	-42.1	-43.5	20.1	0.00e+00	0	41	0	1081081856	58	6068
2026-01-24 12:06:03.72	116.38	3.79	-44.4	-46.4	17.6	0.00e+00	0	41	0	1086324736	60	7542
2026-01-24 12:06:06.75	116.72	3.66	-43.3	-45.0	18.9	0.00e+00	0	41	0	1092616192	60	6403
2026-01-24 12:06:09.78	117.05	3.53	-44.2	-46.1	17.7	0.00e+00	0	41	0	1097859072	60	7312
2026-01-24 12:06:12.81	117.39	3.40	-43.8	-45.7	18.2	0.00e+00	0	41	0	1104150528	60	6968
2026-01-24 12:06:15.84	117.72	3.27	-43.0	-44.7	19.0	0.00e+00	0	41	0	1109393408	60	6182
2026-01-24 12:06:18.87	118.05	3.14	-44.0	-46.0	17.4	0.00e+00	0	41	0	1115684864	60	7204
2026-01-24 12:06:21.89	118.38	3.01	-44.3	-46.4	17.1	0.00e+00	0	41	0	1120927744	60	7533
2026-01-24 12:06:24.92	118.70	2.87	-50.4	-65.9	3.6	1.51e+00	0	41	104	1121976320	60	70929
2026-01-24 12:06:27.95	119.02	2.74	-51.0	-66.3	3.6	1.51e+00	0	41	104	1121976320	60	74726
2026-01-24 12:06:30.98	119.34	2.61	-51.2	-66.5	3.6	1.51e+00	0	41	104	1121976320	60	75967
2026-01-24 12:06:34.01	119.65	2.48	-51.3	-66.5	3.6	1.51e+00	0	41	104	1121976320	60	76446
2026-01-24 12:06:37.04	119.97	2.35	-51.3	-66.6	3.6	1.51e+00	0	41	104	1121976320	60	76864
2026-01-24 12:06:40.07	120.27	2.21	-51.3	-66.5	3.6	1.51e+00	0	41	104	1121976320	60	76660
2026-01-24 12:06:43.10	120.58	2.08	-51.3	-66.5	3.6	1.51e+00	0	41	104	1121976320	60	76822
2026-01-24 12:06:46.13	120.89	1.95	-51.4	-66.6	3.6	1.51e+00	0	41	104	1121976320	60	77226
2026-01-24 12:06:49.15	121.19	1.82	-51.5	-66.7	3.6	1.51e+00	0	41	104	1121976320	60	78080
2026-01-24 12:06:52.19	121.49	1.68	-51.4	-66.6	3.6	1.51e+00	0	41	104	1121976320	60	77435
2026-01-24 12:06:55.21	121.78	1.55	-51.6	-66.8	3.6	1.51e+00	0	41	104	1121976320	60	79248
2026-01-24 12:06:58.24	122.08	1.42	-51.7	-66.8	3.6	1.51e+00	0	41	104	1121976320	60	79502
2026-01-24 12:07:01.27	122.37	1.29	-51.6	-66.8	3.6	1.51e+00	0	41	104	1121976320	60	79060
2026-01-24 12:07:04.30	122.66	1.15	-51.6	-66.8	3.6	1.51e+00	0	41	104	1121976320	60	78977
2026-01-24 12:07:07.33	122.95	1.02	-51.6	-66.8	3.6	1.51e+00	0	41	104	1121976320	60	79058
2026-01-24 12:07:10.36	123.23	0.89	-51.5	-66.7	3.6	1.51e+00	0	41	104	1121976320	60	78498
2026-01-24 12:07:13.39	123.51	0.76	-51.6	-66.8	3.6	1.51e+00	0	41	104	1121976320	60	79164
2026-01-24 12:07:16.42	123.79	0.63	-51.9	-67.1	3.6	1.51e+00	0	41	104	1121976320	60	81928
2026-01-24 12:07:19.45	124.07	0.49	-51.9	-67.1	3.6	1.51e+00	0	41	104	1121976320	60	81933
2026-01-24 12:07:22.48	124.35	0.36	-51.6	-66.8	3.5	1.51e+00	0	41	104	1121976320	60	79035
2026-01-24 12:07:25.50	124.62	0.23	-51.6	-66.8	3.6	1.51e+00	0	41	104	1121976320	60	79192
2026-01-24 12:07:28.53	124.89	0.10	-51.9	-67.1	3.6	1.51e+00	0	41	104	1121976320	60	81533

#Closed at: 2026-01-24 12:07:30
#Recorded file [1121 MB]: D:/lorett/data/35029_260124_235521.dat