passes_logs/2026/01/24/R4.6S_Anadyr/R4.6S_Anadyr__20260124_153642_NOAA_20_JPSS-1_rec.log

#Pass ID: 20260124_153642_NOAA 20 (JPSS-1)
#Satellite: NOAA 20 (JPSS-1)
#Configuration: NOAA 20
#almurnet v.1.7.20251203
#Start time: 2026-01-24 15:36:44

#Version: 2.2.20231116
#Station: R4.6S_Anadyr
#Location: 177.4865 lon 64.73178 lat
#TLE: 1 43013U 17073A   26024.14064826  .00000217  00000+0  12382-3 0  9992
#TLE: 2 43013  98.7646 324.9839 0001118  26.6217 333.5016 14.19539758424032

#Time	Az	El	Level	Level2	SNR	BER	BlckErr	Temp	State	Recorded	gain1	gain2
2026-01-24 15:36:44.05	22.82	0.10	-52.1	-67.0	3.5	1.51e+00	0	39	0	0	60	81208
2026-01-24 15:36:48.09	22.74	0.34	-51.9	-67.1	3.6	1.51e+00	0	40	104	0	60	82005
2026-01-24 15:36:52.13	22.66	0.58	-51.7	-66.9	3.6	1.51e+00	0	40	104	0	60	80438
2026-01-24 15:36:56.17	22.58	0.83	-51.6	-66.9	3.6	1.51e+00	0	40	104	0	60	80091
2026-01-24 15:37:00.22	22.49	1.07	-51.3	-66.5	3.6	1.51e+00	0	40	104	0	60	76779
2026-01-24 15:37:04.26	22.41	1.32	-50.9	-66.1	3.6	1.51e+00	0	40	104	0	60	73199
2026-01-24 15:37:08.30	22.32	1.57	-50.1	-65.2	3.6	1.51e+00	0	41	104	0	60	66061
2026-01-24 15:37:12.34	22.23	1.82	-50.0	-64.4	3.6	1.51e+00	0	41	104	0	60	60201
2026-01-24 15:37:16.38	22.14	2.08	-50.0	-64.6	3.6	1.51e+00	0	41	104	0	60	61567
2026-01-24 15:37:20.43	22.04	2.33	-50.0	-65.2	3.6	1.51e+00	0	41	104	0	60	65636
2026-01-24 15:37:24.47	21.94	2.59	-50.0	-64.4	3.6	1.51e+00	0	41	104	0	60	59706
2026-01-24 15:37:28.51	21.85	2.85	-50.0	-64.1	3.6	1.51e+00	0	41	104	0	60	57840
2026-01-24 15:37:32.55	21.75	3.11	-49.9	-63.0	3.7	1.51e+00	0	41	104	0	60	51054
2026-01-24 15:37:36.59	21.64	3.38	-48.1	-52.3	11.7	5.81e-03	72	41	0	5242880	60	14903
2026-01-24 15:37:40.63	21.54	3.65	-47.8	-51.6	13.0	2.45e-04	92	41	0	12582912	60	13817
2026-01-24 15:37:44.67	21.43	3.92	-46.8	-49.8	8.7	1.49e+00	7	41	104	15728640	60	11107
2026-01-24 15:37:48.71	21.33	4.19	-42.8	-44.1	20.0	1.68e-02	18	41	0	17825792	60	5815
2026-01-24 15:37:52.75	21.21	4.46	-43.1	-44.5	19.9	0.00e+00	0	41	0	25165824	58	6804
2026-01-24 15:37:56.78	21.10	4.74	-43.2	-44.6	19.8	0.00e+00	90	41	0	32505856	58	6913
2026-01-24 15:38:00.82	20.98	5.02	-42.0	-43.2	21.1	0.00e+00	5	41	0	39845888	58	5841
2026-01-24 15:38:04.85	20.87	5.30	-42.2	-43.3	21.4	0.00e+00	74	41	0	47185920	58	5957
2026-01-24 15:38:08.89	20.74	5.59	-44.5	-46.2	18.6	0.00e+00	0	41	0	55574528	60	7342
2026-01-24 15:38:12.93	20.62	5.88	-43.8	-45.3	19.5	0.00e+00	90	41	0	62914560	60	6669
2026-01-24 15:38:16.97	20.49	6.17	-41.3	-42.4	22.3	0.00e+00	75	41	0	70254592	56	5984
2026-01-24 15:38:21.00	20.36	6.47	-42.2	-43.4	21.2	0.00e+00	0	41	0	77594624	58	5979
2026-01-24 15:38:25.04	20.23	6.77	-42.7	-43.9	21.3	0.00e+00	0	41	0	85983232	58	6362
2026-01-24 15:38:29.08	20.09	7.07	-42.6	-43.8	20.9	0.00e+00	92	41	0	93323264	56	7038
2026-01-24 15:38:33.11	19.95	7.38	-41.2	-42.2	22.6	0.00e+00	2	41	0	100663296	58	5244
2026-01-24 15:38:37.14	19.81	7.68	-42.1	-43.2	21.7	0.00e+00	0	41	0	108003328	58	5861
2026-01-24 15:38:41.18	19.67	8.00	-41.4	-42.4	22.6	0.00e+00	76	41	0	115343360	56	6001
2026-01-24 15:38:45.22	19.52	8.31	-40.5	-41.4	23.1	0.00e+00	5	40	0	123731968	54	6026
2026-01-24 15:38:49.26	19.36	8.63	-42.8	-44.0	21.0	0.00e+00	0	41	0	131072000	58	6414
2026-01-24 15:38:53.30	19.21	8.96	-40.7	-41.6	23.0	0.00e+00	0	41	0	138412032	54	6154
2026-01-24 15:38:57.33	19.05	9.29	-41.3	-42.3	22.5	0.00e+00	92	41	0	145752064	56	5935
2026-01-24 15:39:01.36	18.88	9.62	-40.7	-41.6	23.2	0.00e+00	0	41	0	154140672	54	6135
2026-01-24 15:39:05.40	18.71	9.95	-41.2	-42.3	22.7	0.00e+00	0	41	0	161480704	54	6623
2026-01-24 15:39:09.44	18.54	10.29	-41.2	-42.2	22.7	0.00e+00	6	41	0	168820736	54	6549
2026-01-24 15:39:13.48	18.36	10.64	-41.5	-42.5	22.3	0.00e+00	91	41	0	176160768	54	6816
2026-01-24 15:39:17.52	18.18	10.99	-41.8	-42.8	22.0	0.00e+00	5	41	0	183500800	54	7063
2026-01-24 15:39:21.55	17.99	11.34	-41.1	-42.1	22.9	0.00e+00	0	41	0	191889408	54	6498
2026-01-24 15:39:25.59	17.80	11.70	-40.6	-41.5	23.3	0.00e+00	0	41	0	199229440	54	6061
2026-01-24 15:39:29.63	17.60	12.07	-40.7	-41.6	23.1	0.00e+00	92	41	0	206569472	54	6166
2026-01-24 15:39:33.66	17.40	12.44	-40.7	-41.7	23.1	0.00e+00	8	41	0	213909504	54	6210
2026-01-24 15:39:37.70	17.19	12.81	-40.6	-41.5	23.4	0.00e+00	7	41	0	221249536	54	6084
2026-01-24 15:39:41.74	16.97	13.19	-41.0	-41.9	23.0	0.00e+00	0	41	0	229638144	54	6367
2026-01-24 15:39:45.77	16.75	13.58	-40.6	-41.5	23.2	0.00e+00	90	41	0	236978176	54	6061
2026-01-24 15:39:49.80	16.53	13.97	-40.8	-41.7	23.0	0.00e+00	0	41	0	244318208	54	6232
2026-01-24 15:39:53.84	16.29	14.37	-40.9	-41.8	22.9	0.00e+00	3	41	0	251658240	54	6316
2026-01-24 15:39:57.87	16.05	14.77	-40.3	-41.2	23.7	0.00e+00	7	41	0	260046848	54	5832
2026-01-24 15:40:01.91	15.80	15.18	-40.2	-41.0	23.7	0.00e+00	92	41	0	267386880	54	5756
2026-01-24 15:40:05.95	15.55	15.60	-40.2	-41.1	23.7	0.00e+00	0	41	0	274726912	54	5816
2026-01-24 15:40:09.98	15.29	16.02	-40.5	-41.4	23.4	0.00e+00	80	41	0	282066944	54	6010
2026-01-24 15:40:14.02	15.02	16.45	-40.4	-41.3	23.4	0.00e+00	0	41	0	289406976	54	5919
2026-01-24 15:40:18.06	14.74	16.89	-40.0	-40.9	23.8	0.00e+00	90	41	0	297795584	54	5670
2026-01-24 15:40:22.10	14.45	17.33	-40.1	-41.0	23.9	0.00e+00	0	41	0	305135616	54	5705
2026-01-24 15:40:26.14	14.15	17.78	-40.2	-41.1	23.9	0.00e+00	0	41	0	312475648	54	5767
2026-01-24 15:40:30.17	13.85	18.24	-40.3	-41.2	23.6	0.00e+00	80	41	0	319815680	54	5883
2026-01-24 15:40:34.21	13.53	18.71	-40.3	-41.2	23.7	0.00e+00	0	41	0	328204288	54	5864
2026-01-24 15:40:38.25	13.20	19.18	-40.5	-41.4	23.6	0.00e+00	74	41	0	335544320	54	6012
2026-01-24 15:40:42.29	12.87	19.66	-40.3	-41.2	23.7	0.00e+00	0	41	0	342884352	54	5875
2026-01-24 15:40:46.32	12.52	20.15	-40.5	-41.4	23.5	0.00e+00	92	41	0	350224384	54	5979
2026-01-24 15:40:50.36	12.16	20.65	-41.1	-42.1	22.9	0.00e+00	0	41	0	357564416	54	6491
2026-01-24 15:40:54.39	11.79	21.16	-40.2	-41.1	23.9	0.00e+00	73	41	0	365953024	54	5799
2026-01-24 15:40:58.43	11.40	21.68	-40.4	-41.3	23.8	0.00e+00	0	41	0	373293056	54	5952
2026-01-24 15:41:02.47	11.00	22.21	-40.7	-41.6	23.4	0.00e+00	92	41	0	380633088	54	6145
2026-01-24 15:41:06.51	10.58	22.74	-40.8	-41.8	23.5	0.00e+00	5	41	0	387973120	54	6259
2026-01-24 15:41:10.55	10.15	23.29	-41.4	-42.4	22.9	0.00e+00	0	41	0	395313152	54	6715
2026-01-24 15:41:14.58	9.71	23.85	-41.6	-42.6	22.7	0.00e+00	72	41	0	403701760	54	6868
2026-01-24 15:41:18.62	9.25	24.41	-42.1	-43.2	22.2	0.00e+00	94	41	0	411041792	56	6540
2026-01-24 15:41:22.66	8.77	24.99	-42.2	-43.3	22.2	0.00e+00	5	41	0	418381824	56	6624
2026-01-24 15:41:26.69	8.27	25.57	-42.3	-43.4	22.1	0.00e+00	11	41	0	425721856	56	6725
2026-01-24 15:41:30.73	7.75	26.17	-42.5	-43.5	22.0	0.00e+00	0	41	0	434110464	56	6835
2026-01-24 15:41:34.77	7.21	26.78	-42.6	-43.7	21.8	0.00e+00	92	41	0	441450496	58	6219
2026-01-24 15:41:38.81	6.65	27.40	-43.2	-44.4	21.1	0.00e+00	0	41	0	448790528	58	6747
2026-01-24 15:41:42.85	6.07	28.03	-43.2	-44.3	21.2	0.00e+00	77	41	0	456130560	58	6687
2026-01-24 15:41:46.88	5.46	28.67	-43.2	-44.4	21.2	0.00e+00	0	41	0	463470592	58	6755
2026-01-24 15:41:50.92	4.83	29.32	-43.1	-44.3	21.2	0.00e+00	90	41	0	471859200	58	6649
2026-01-24 15:41:54.96	4.17	29.99	-42.4	-43.5	21.9	0.00e+00	4	41	0	479199232	58	6088
2026-01-24 15:41:58.99	3.48	30.66	-42.7	-43.8	21.7	0.00e+00	0	41	0	486539264	58	6291
2026-01-24 15:42:03.02	2.76	31.35	-42.8	-44.0	21.4	0.00e+00	0	41	0	493879296	58	6411
2026-01-24 15:42:07.06	2.01	32.04	-43.3	-44.5	21.1	0.00e+00	92	41	0	502267904	58	6841
2026-01-24 15:42:11.10	1.23	32.75	-43.6	-44.9	20.7	0.00e+00	0	41	0	509607936	58	7123
2026-01-24 15:42:15.13	0.41	33.47	-43.4	-44.7	20.9	0.00e+00	0	41	0	516947968	58	6931
2026-01-24 15:42:19.16	359.55	34.19	-43.8	-45.2	20.5	0.00e+00	91	41	0	524288000	60	6560
2026-01-24 15:42:23.20	358.65	34.93	-43.9	-45.3	20.5	0.00e+00	20	41	0	531628032	60	6656
2026-01-24 15:42:27.24	357.71	35.68	-43.4	-44.6	21.1	0.00e+00	0	41	0	540016640	60	6123
2026-01-24 15:42:31.28	356.73	36.43	-43.2	-44.4	21.2	0.00e+00	0	41	0	547356672	60	6028
2026-01-24 15:42:35.31	355.69	37.20	-42.9	-44.1	21.4	0.00e+00	92	41	0	554696704	58	6475
2026-01-24 15:42:39.35	354.61	37.96	-43.2	-44.4	21.2	0.00e+00	0	41	0	562036736	58	6710
2026-01-24 15:42:43.39	353.47	38.74	-43.3	-44.5	21.1	0.00e+00	0	41	0	570425344	58	6776
2026-01-24 15:42:47.42	352.28	39.52	-43.1	-44.3	21.2	0.00e+00	81	41	0	577765376	58	6633
2026-01-24 15:42:51.46	351.03	40.30	-43.2	-44.4	21.3	0.00e+00	92	41	0	585105408	58	6719
2026-01-24 15:42:55.49	349.72	41.08	-43.0	-44.2	21.4	0.00e+00	0	41	0	592445440	58	6557
2026-01-24 15:42:59.53	348.34	41.86	-42.6	-43.7	21.8	0.00e+00	6	41	0	599785472	58	6195
2026-01-24 15:43:03.57	346.89	42.64	-44.0	-45.4	20.5	0.00e+00	81	41	0	608174080	60	6703
2026-01-24 15:43:07.61	345.36	43.41	-44.3	-45.7	20.0	0.00e+00	92	41	0	615514112	60	6993
2026-01-24 15:43:11.64	343.77	44.17	-43.4	-44.6	21.1	0.00e+00	82	41	0	622854144	60	6155
2026-01-24 15:43:15.68	342.09	44.92	-43.7	-45.0	20.7	0.00e+00	6	41	0	630194176	60	6447
2026-01-24 15:43:19.72	340.34	45.66	-44.4	-45.8	20.1	0.00e+00	0	41	0	638582784	60	7070
2026-01-24 15:43:23.75	338.50	46.38	-42.8	-43.9	21.8	0.00e+00	92	41	0	645922816	60	5681
2026-01-24 15:43:27.79	336.57	47.07	-42.4	-43.4	21.8	0.00e+00	0	41	0	653262848	58	6028
2026-01-24 15:43:31.83	334.56	47.74	-42.6	-43.7	21.9	0.00e+00	0	41	0	660602880	58	6243
2026-01-24 15:43:35.87	332.46	48.39	-42.1	-43.1	22.4	0.00e+00	4	41	0	667942912	58	5803
2026-01-24 15:43:39.91	330.27	48.99	-42.9	-44.0	21.5	0.00e+00	92	41	0	676331520	58	6452
2026-01-24 15:43:43.94	328.00	49.56	-43.5	-44.7	21.0	0.00e+00	2	41	0	683671552	58	6960
2026-01-24 15:43:47.97	325.65	50.08	-43.2	-44.4	21.2	0.00e+00	82	41	0	691011584	58	6712
2026-01-24 15:43:52.01	323.22	50.56	-43.2	-44.3	21.3	0.00e+00	0	41	0	698351616	58	6682
2026-01-24 15:43:56.04	320.71	50.98	-43.0	-44.1	21.7	0.00e+00	92	41	0	705691648	60	5816
2026-01-24 15:44:00.08	318.14	51.35	-42.1	-43.2	22.4	0.00e+00	0	41	0	714080256	58	5834
2026-01-24 15:44:04.12	315.50	51.65	-40.1	-40.9	24.3	0.00e+00	0	41	0	721420288	54	5695
2026-01-24 15:44:08.15	312.82	51.90	-39.1	-39.9	25.1	0.00e+00	76	41	0	728760320	52	5641
2026-01-24 15:44:12.19	310.09	52.08	-38.2	-39.0	26.0	0.00e+00	81	41	0	736100352	50	5702
2026-01-24 15:44:16.23	307.34	52.19	-38.7	-39.4	25.6	0.00e+00	0	41	0	744488960	50	6021
2026-01-24 15:44:20.27	304.57	52.23	-38.8	-39.6	25.5	0.00e+00	3	41	0	751828992	50	6150
2026-01-24 15:44:24.31	301.80	52.21	-39.0	-39.8	25.3	0.00e+00	90	41	0	759169024	50	6248
2026-01-24 15:44:28.34	299.05	52.11	-39.3	-40.1	25.0	0.00e+00	0	41	0	766509056	50	6512
2026-01-24 15:44:32.38	296.32	51.95	-39.8	-40.6	24.8	0.00e+00	82	41	0	773849088	52	6124
2026-01-24 15:44:36.42	293.62	51.72	-39.2	-40.0	25.2	0.00e+00	81	41	0	782237696	52	5750
2026-01-24 15:44:40.46	290.97	51.42	-39.5	-40.3	24.9	0.00e+00	92	41	0	789577728	52	5921
2026-01-24 15:44:44.49	288.38	51.07	-39.5	-40.3	25.0	0.00e+00	5	41	0	796917760	52	5932
2026-01-24 15:44:48.53	285.85	50.66	-40.5	-41.4	23.9	0.00e+00	5	41	0	804257792	52	6734
2026-01-24 15:44:52.57	283.40	50.19	-41.7	-42.7	22.8	0.00e+00	0	41	0	812646400	54	6957
2026-01-24 15:44:56.61	281.02	49.68	-42.4	-43.5	22.1	0.00e+00	92	41	0	819986432	56	6785
2026-01-24 15:45:00.64	278.73	49.12	-43.2	-44.3	21.5	0.00e+00	82	41	0	827326464	58	6664
2026-01-24 15:45:04.67	276.52	48.52	-43.0	-44.2	21.4	0.00e+00	4	41	0	834666496	58	6559
2026-01-24 15:45:08.71	274.40	47.89	-43.0	-44.1	21.5	0.00e+00	6	41	0	842006528	58	6506
2026-01-24 15:45:12.75	272.36	47.22	-42.4	-43.5	22.1	0.00e+00	92	41	0	850395136	58	6078
2026-01-24 15:45:16.78	270.42	46.53	-43.1	-44.3	21.5	0.00e+00	0	41	0	857735168	58	6620
2026-01-24 15:45:20.82	268.56	45.81	-42.4	-43.5	22.1	0.00e+00	3	41	0	865075200	58	6080
2026-01-24 15:45:24.85	266.78	45.08	-43.1	-44.3	21.3	0.00e+00	19	41	0	872415232	58	6619
2026-01-24 15:45:28.88	265.09	44.33	-42.6	-43.7	22.0	0.00e+00	91	41	0	879755264	58	6219
2026-01-24 15:45:32.92	263.47	43.57	-42.2	-43.2	22.3	0.00e+00	0	41	0	888143872	58	5876
2026-01-24 15:45:36.96	261.93	42.79	-42.1	-43.1	22.6	0.00e+00	0	41	0	895483904	56	6484
2026-01-24 15:45:40.99	260.46	42.02	-42.4	-43.4	22.2	0.00e+00	83	41	0	902823936	56	6761
2026-01-24 15:45:45.03	259.06	41.23	-43.1	-44.2	21.3	0.00e+00	68	41	0	910163968	58	6599
2026-01-24 15:45:49.07	257.73	40.45	-44.2	-45.6	20.1	0.00e+00	4	41	0	918552576	60	6872
2026-01-24 15:45:53.10	256.46	39.67	-44.0	-45.3	20.4	0.00e+00	2	41	0	925892608	60	6663
2026-01-24 15:45:57.14	255.25	38.88	-44.9	-46.4	19.4	0.00e+00	86	41	0	933232640	60	7543
2026-01-24 15:46:01.18	254.10	38.11	-44.2	-45.6	20.2	0.00e+00	12	41	0	940572672	60	6883
2026-01-24 15:46:05.21	253.00	37.34	-44.5	-45.9	19.8	0.00e+00	80	41	0	947912704	60	7117
2026-01-24 15:46:09.25	251.96	36.57	-44.5	-45.9	19.9	0.00e+00	0	41	0	956301312	60	7140
2026-01-24 15:46:13.29	250.96	35.81	-44.2	-45.6	20.3	0.00e+00	92	41	0	963641344	60	6879
2026-01-24 15:46:17.33	250.00	35.06	-43.8	-45.1	20.6	0.00e+00	2	41	0	970981376	60	6490
2026-01-24 15:46:21.37	249.09	34.32	-44.0	-45.3	20.5	0.00e+00	76	41	0	978321408	60	6623
2026-01-24 15:46:25.41	248.22	33.58	-43.6	-44.8	21.1	0.00e+00	74	41	0	986710016	60	6296
2026-01-24 15:46:29.44	247.39	32.86	-42.5	-43.5	22.0	0.00e+00	90	41	0	994050048	58	6099
2026-01-24 15:46:33.48	246.60	32.15	-43.4	-44.6	21.0	0.00e+00	5	41	0	1001390080	58	6867
2026-01-24 15:46:37.52	245.84	31.45	-43.5	-44.7	20.7	0.00e+00	5	41	0	1008730112	58	6975
2026-01-24 15:46:41.55	245.11	30.76	-43.4	-44.6	20.9	0.00e+00	0	41	0	1016070144	58	6907
2026-01-24 15:46:45.59	244.41	30.08	-43.4	-44.5	21.1	0.00e+00	92	41	0	1024458752	58	6845
2026-01-24 15:46:49.63	243.75	29.41	-43.5	-44.7	20.9	0.00e+00	0	41	0	1031798784	58	6952
2026-01-24 15:46:53.66	243.11	28.75	-42.8	-43.9	21.7	0.00e+00	11	41	0	1039138816	58	6356
2026-01-24 15:46:57.70	242.49	28.11	-42.5	-43.5	22.1	0.00e+00	0	41	0	1046478848	58	6082
2026-01-24 15:47:01.74	241.90	27.47	-42.0	-43.0	22.5	0.00e+00	91	41	0	1054867456	58	5716
2026-01-24 15:47:05.78	241.33	26.85	-42.4	-43.5	22.1	0.00e+00	80	41	0	1062207488	58	6075
2026-01-24 15:47:09.81	240.79	26.24	-42.4	-43.5	22.0	0.00e+00	2	41	0	1069547520	58	6063
2026-01-24 15:47:13.86	240.26	25.63	-41.9	-42.9	22.4	0.00e+00	0	41	0	1076887552	58	5653
2026-01-24 15:47:17.89	239.76	25.04	-41.6	-42.6	22.8	0.00e+00	92	41	0	1084227584	56	6117
2026-01-24 15:47:21.93	239.27	24.46	-42.0	-43.0	22.5	0.00e+00	0	41	0	1092616192	56	6415
2026-01-24 15:47:25.97	238.80	23.89	-42.1	-43.2	22.3	0.00e+00	0	41	0	1099956224	56	6555
2026-01-24 15:47:30.00	238.35	23.33	-41.9	-43.0	22.4	0.00e+00	0	41	0	1107296256	56	6396
2026-01-24 15:47:34.04	237.92	22.78	-41.7	-42.7	22.6	0.00e+00	92	41	0	1114636288	56	6184
2026-01-24 15:47:38.08	237.50	22.24	-41.7	-42.7	22.7	0.00e+00	3	41	0	1121976320	56	6216
2026-01-24 15:47:42.12	237.09	21.71	-41.8	-42.8	22.7	0.00e+00	0	41	0	1130364928	56	6300
2026-01-24 15:47:46.16	236.70	21.19	-41.6	-42.6	22.7	0.00e+00	91	41	0	1137704960	56	6156
2026-01-24 15:47:50.20	236.32	20.68	-41.6	-42.5	22.7	0.00e+00	55	41	0	1145044992	56	6099
2026-01-24 15:47:54.24	235.95	20.18	-41.8	-42.8	22.5	0.00e+00	0	41	0	1152385024	56	6314
2026-01-24 15:47:58.28	235.60	19.68	-41.9	-43.0	22.4	0.00e+00	3	41	0	1160773632	56	6397
2026-01-24 15:48:02.32	235.26	19.20	-41.8	-42.8	22.5	0.00e+00	92	41	0	1168113664	56	6282
2026-01-24 15:48:06.35	234.93	18.72	-41.8	-42.8	22.5	0.00e+00	0	41	0	1175453696	56	6291
2026-01-24 15:48:10.39	234.61	18.25	-42.3	-43.4	22.0	0.00e+00	0	41	0	1182793728	56	6701
2026-01-24 15:48:14.43	234.30	17.79	-42.2	-43.3	21.9	0.00e+00	76	41	0	1190133760	56	6619
2026-01-24 15:48:18.46	234.00	17.33	-42.2	-43.3	22.1	0.00e+00	92	41	0	1198522368	58	5936
2026-01-24 15:48:22.50	233.70	16.89	-41.8	-42.8	22.4	0.00e+00	11	41	0	1205862400	58	5600
2026-01-24 15:48:26.54	233.42	16.45	-41.9	-43.0	22.2	0.00e+00	0	41	0	1213202432	56	6400
2026-01-24 15:48:30.58	233.15	16.02	-42.2	-43.3	22.1	0.00e+00	59	41	0	1220542464	56	6630
2026-01-24 15:48:34.61	232.88	15.59	-42.8	-43.9	21.3	0.00e+00	91	41	0	1228931072	58	6376
2026-01-24 15:48:38.65	232.62	15.17	-43.2	-44.5	20.9	0.00e+00	13	41	0	1236271104	58	6793
2026-01-24 15:48:42.68	232.37	14.76	-43.6	-45.0	20.4	0.00e+00	6	41	0	1243611136	58	7171
2026-01-24 15:48:46.72	232.13	14.35	-43.1	-44.3	21.0	0.00e+00	6	41	0	1250951168	58	6640
2026-01-24 15:48:50.76	231.89	13.95	-43.2	-44.4	20.8	0.00e+00	92	41	0	1258291200	58	6731
2026-01-24 15:48:54.80	231.66	13.56	-43.2	-44.5	20.6	0.00e+00	69	42	0	1266679808	58	6798
2026-01-24 15:48:58.84	231.43	13.17	-43.9	-45.3	19.9	0.00e+00	76	41	0	1274019840	60	6649
2026-01-24 15:49:02.87	231.21	12.79	-43.9	-45.3	19.9	0.00e+00	68	41	0	1281359872	60	6685
2026-01-24 15:49:06.91	231.00	12.41	-44.3	-45.8	19.4	0.00e+00	92	41	0	1288699904	60	7027
2026-01-24 15:49:10.95	230.79	12.04	-44.4	-46.0	19.1	0.00e+00	2	42	0	1297088512	60	7203
2026-01-24 15:49:14.99	230.59	11.67	-44.1	-45.5	19.7	0.00e+00	0	42	0	1304428544	60	6828
2026-01-24 15:49:19.03	230.40	11.31	-44.4	-45.9	19.2	0.00e+00	92	41	0	1311768576	60	7129
2026-01-24 15:49:23.07	230.20	10.96	-44.8	-46.5	18.6	0.00e+00	12	41	0	1319108608	60	7665
2026-01-24 15:49:27.10	230.02	10.61	-45.1	-46.9	18.1	0.00e+00	8	42	0	1326448640	60	8010
2026-01-24 15:49:31.14	229.84	10.26	-45.5	-47.4	17.7	0.00e+00	0	41	0	1334837248	60	8447
2026-01-24 15:49:35.18	229.66	9.92	-45.5	-47.4	17.6	0.00e+00	91	42	0	1342177280	60	8465
2026-01-24 15:49:39.22	229.49	9.58	-45.7	-47.7	17.2	0.00e+00	0	41	0	1349517312	60	8791
2026-01-24 15:49:43.26	229.32	9.24	-46.1	-48.3	16.6	0.00e+00	73	42	0	1356857344	60	9437
2026-01-24 15:49:47.30	229.15	8.91	-46.0	-48.2	16.6	0.00e+00	2	42	0	1365245952	60	9330
2026-01-24 15:49:51.33	228.99	8.59	-46.3	-48.7	16.0	0.00e+00	90	41	0	1372585984	60	9809
2026-01-24 15:49:55.37	228.84	8.27	-46.5	-49.0	15.8	0.00e+00	0	42	0	1379926016	60	10140
2026-01-24 15:49:59.41	228.68	7.95	-46.6	-49.1	15.6	0.00e+00	0	42	0	1387266048	60	10347
2026-01-24 15:50:03.45	228.53	7.63	-47.2	-50.1	14.5	0.00e+00	0	41	0	1394606080	60	11583
2026-01-24 15:50:07.48	228.39	7.32	-47.5	-50.8	13.9	7.00e-07	92	42	0	1402994688	60	12505
2026-01-24 15:50:11.52	228.24	7.02	-47.3	-50.5	14.1	7.00e-07	0	42	0	1410334720	60	12077
2026-01-24 15:50:15.56	228.10	6.71	-47.7	-51.2	13.1	4.27e-05	70	42	0	1417674752	60	13089
2026-01-24 15:50:19.60	227.97	6.41	-47.2	-50.3	14.1	7.60e-06	0	42	0	1425014784	60	11835
2026-01-24 15:50:23.64	227.83	6.12	-47.0	-50.0	14.2	3.39e-04	92	41	0	1433403392	60	11372
2026-01-24 15:50:27.67	227.70	5.82	-47.9	-51.8	13.1	5.79e-05	16	41	0	1440743424	60	14013
2026-01-24 15:50:31.71	227.57	5.53	-47.3	-50.7	13.6	3.51e-03	7	42	0	1448083456	60	12330
2026-01-24 15:50:35.74	227.45	5.25	-47.7	-51.8	12.1	1.42e-04	0	42	0	1455423488	60	14070
2026-01-24 15:50:39.78	227.33	4.96	-47.8	-52.2	11.4	5.39e-04	92	42	0	1462763520	60	14660
2026-01-24 15:50:43.82	227.21	4.68	-47.9	-52.5	11.2	1.54e-03	11	42	0	1471152128	60	15249
2026-01-24 15:50:47.86	227.09	4.40	-48.2	-53.6	9.5	9.23e-03	70	42	0	1478492160	60	17349
2026-01-24 15:50:51.89	226.97	4.13	-47.7	-52.5	10.6	3.61e-03	57	42	0	1485832192	60	15293
2026-01-24 15:50:55.93	226.86	3.85	-47.9	-53.5	9.5	1.68e-02	91	42	0	1493172224	60	17151
2026-01-24 15:50:59.97	226.75	3.58	-47.7	-53.0	9.7	3.55e-02	68	42	0	1501560832	60	16139
2026-01-24 15:51:04.00	226.64	3.31	-47.8	-53.7	8.3	3.35e-02	0	42	0	1508900864	60	17446
2026-01-24 15:51:08.04	226.54	3.05	-48.1	-55.1	7.3	6.49e-02	74	42	0	1516240896	60	20453
2026-01-24 15:51:12.08	226.43	2.78	-51.1	-66.3	3.6	1.51e+00	0	42	104	1517289472	60	74733
2026-01-24 15:51:16.12	226.33	2.52	-51.5	-66.6	3.6	1.51e+00	0	42	104	1517289472	60	77604
2026-01-24 15:51:20.16	226.23	2.26	-51.6	-66.8	3.6	1.51e+00	0	42	104	1517289472	60	79092
2026-01-24 15:51:24.20	226.13	2.01	-51.1	-66.7	3.6	1.51e+00	0	42	104	1517289472	60	78538
2026-01-24 15:51:28.24	226.04	1.75	-51.5	-66.7	3.6	1.51e+00	0	42	104	1517289472	60	78603
2026-01-24 15:51:32.28	225.94	1.50	-51.5	-66.7	3.6	1.51e+00	0	42	104	1517289472	60	78163
2026-01-24 15:51:36.32	225.85	1.25	-51.5	-66.8	3.6	1.51e+00	0	42	104	1517289472	60	78874
2026-01-24 15:51:40.36	225.76	1.00	-51.6	-66.8	3.6	1.51e+00	0	42	104	1517289472	60	78914
2026-01-24 15:51:44.40	225.67	0.76	-51.6	-66.8	3.6	1.51e+00	0	42	104	1517289472	60	78788
2026-01-24 15:51:48.45	225.58	0.51	-51.7	-66.9	3.6	1.51e+00	0	42	104	1517289472	60	79739
2026-01-24 15:51:52.49	225.50	0.27	-51.8	-67.0	3.6	1.51e+00	0	42	104	1517289472	60	80682
2026-01-24 15:51:56.53	225.41	0.03	-51.7	-66.9	3.6	1.51e+00	0	42	104	1517289472	60	79945

#Closed at: 2026-01-24 15:51:58
#Recorded file [1517 MB]: D:/lorett/data/35029_260125_033644.dat