passes_logs/2026/01/24/R4.6S_Anadyr/R4.6S_Anadyr__20260124_133540_SUOMI_NPP_rec.log

#Pass ID: 20260124_133540_SUOMI NPP
#Satellite: SUOMI NPP
#Configuration: NPP
#almurnet v.1.7.20251203
#Start time: 2026-01-24 13:35:43

#Version: 2.2.20231116
#Station: R4.6S_Anadyr
#Location: 177.4865 lon 64.73178 lat
#TLE: 1 37849U 11061A   26024.12615439  .00000221  00000+0  12601-3 0  9992
#TLE: 2 37849  98.7821 326.0966 0002215  48.1259 312.0106 14.19529288738009

#Time	Az	El	Level	Level2	SNR	BER	BlckErr	Temp	State	Recorded	gain1	gain2
2026-01-24 13:35:43.01	19.01	0.14	-51.6	-64.1	3.4	1.52e+00	0	38	0	0	60	56240
2026-01-24 13:35:47.04	19.17	0.37	-51.9	-67.1	3.6	1.51e+00	0	40	104	0	60	81921
2026-01-24 13:35:51.09	19.34	0.60	-51.7	-66.8	3.6	1.51e+00	0	40	104	0	60	79314
2026-01-24 13:35:55.13	19.51	0.83	-51.1	-66.5	3.6	1.51e+00	0	40	104	0	60	75995
2026-01-24 13:35:59.17	19.68	1.07	-50.9	-66.2	3.6	1.51e+00	0	40	104	0	60	73928
2026-01-24 13:36:03.21	19.85	1.31	-50.5	-65.7	3.6	1.51e+00	0	40	104	0	60	69603
2026-01-24 13:36:07.25	20.03	1.54	-49.8	-65.0	3.6	1.51e+00	0	40	104	0	60	63978
2026-01-24 13:36:11.29	20.21	1.79	-49.7	-64.9	3.6	1.51e+00	0	40	104	0	60	63476
2026-01-24 13:36:15.33	20.39	2.03	-49.7	-64.9	3.6	1.51e+00	0	40	104	0	60	63813
2026-01-24 13:36:19.37	20.57	2.27	-49.7	-64.9	3.6	1.51e+00	0	40	104	0	60	63406
2026-01-24 13:36:23.41	20.76	2.52	-49.6	-63.6	3.6	1.51e+00	0	40	104	0	60	55007
2026-01-24 13:36:27.45	20.95	2.77	-49.7	-63.6	3.6	1.51e+00	0	40	104	0	60	54716
2026-01-24 13:36:31.50	21.14	3.02	-48.6	-54.5	8.9	3.60e-02	0	40	0	4194304	60	19219
2026-01-24 13:36:35.52	21.34	3.27	-44.3	-46.3	17.4	0.00e+00	79	40	0	11534336	60	7500
2026-01-24 13:36:39.56	21.54	3.52	-46.7	-50.0	13.8	7.60e-06	0	40	0	18874368	60	11451
2026-01-24 13:36:43.60	21.74	3.78	-49.1	-57.7	4.3	0.00e+00	0	40	0	26214400	60	27671
2026-01-24 13:36:47.64	21.94	4.04	-45.5	-47.9	15.5	0.00e+00	79	40	0	27262976	60	8985
2026-01-24 13:36:51.67	22.15	4.30	-44.9	-47.0	17.1	0.00e+00	0	40	0	34603008	60	8074
2026-01-24 13:36:55.71	22.36	4.56	-44.5	-46.4	17.3	0.00e+00	0	40	0	41943040	60	7543
2026-01-24 13:36:59.75	22.58	4.83	-44.1	-45.9	17.9	0.00e+00	0	40	0	49283072	60	7146
2026-01-24 13:37:03.78	22.80	5.09	-46.0	-48.5	15.1	0.00e+00	82	40	0	57671680	60	9633
2026-01-24 13:37:07.81	23.02	5.36	-46.1	-48.6	15.7	0.00e+00	0	40	0	65011712	60	9780
2026-01-24 13:37:11.84	23.24	5.63	-46.4	-49.1	14.8	3.00e-06	0	40	0	72351744	60	10291
2026-01-24 13:37:15.88	23.47	5.91	-45.7	-47.9	16.5	3.00e-06	0	40	0	79691776	60	8981
2026-01-24 13:37:19.91	23.71	6.19	-45.5	-47.7	16.7	0.00e+00	69	40	0	87031808	60	8721
2026-01-24 13:37:23.95	23.95	6.47	-44.0	-45.7	18.6	0.00e+00	0	40	0	95420416	60	6946
2026-01-24 13:37:27.99	24.19	6.75	-44.0	-45.6	18.8	0.00e+00	0	40	0	102760448	60	6900
2026-01-24 13:37:32.03	24.44	7.03	-43.0	-44.4	19.7	0.00e+00	0	40	0	110100480	60	6015
2026-01-24 13:37:36.07	24.69	7.32	-42.6	-43.9	20.4	0.00e+00	67	40	0	117440512	58	6322
2026-01-24 13:37:40.10	24.94	7.61	-42.5	-43.9	20.4	0.00e+00	0	40	0	125829120	58	6323
2026-01-24 13:37:44.13	25.20	7.91	-42.2	-43.4	20.7	0.00e+00	0	40	0	133169152	58	5998
2026-01-24 13:37:48.17	25.47	8.20	-42.7	-44.0	20.0	0.00e+00	6	41	0	140509184	58	6460
2026-01-24 13:37:52.20	25.74	8.50	-42.9	-44.3	20.0	0.00e+00	0	41	0	147849216	58	6662
2026-01-24 13:37:56.24	26.02	8.81	-42.5	-43.8	20.5	0.00e+00	0	41	0	155189248	58	6289
2026-01-24 13:38:00.28	26.30	9.11	-42.8	-44.1	20.2	0.00e+00	0	40	0	163577856	58	6539
2026-01-24 13:38:04.32	26.58	9.42	-42.3	-43.6	20.7	0.00e+00	92	41	0	170917888	58	6133
2026-01-24 13:38:08.35	26.88	9.74	-41.9	-43.1	21.1	0.00e+00	0	41	0	178257920	58	5806
2026-01-24 13:38:12.39	27.18	10.05	-42.2	-43.4	20.9	0.00e+00	0	41	0	185597952	56	6768
2026-01-24 13:38:16.43	27.48	10.37	-41.7	-42.8	21.3	0.00e+00	0	41	0	193986560	56	6317
2026-01-24 13:38:20.46	27.79	10.70	-41.5	-42.6	21.6	0.00e+00	90	41	0	201326592	56	6156
2026-01-24 13:38:24.49	28.11	11.02	-41.4	-42.5	21.8	0.00e+00	0	41	0	208666624	56	6044
2026-01-24 13:38:28.53	28.43	11.35	-41.5	-42.6	21.7	0.00e+00	0	41	0	216006656	56	6104
2026-01-24 13:38:32.56	28.77	11.69	-41.8	-42.9	21.3	0.00e+00	5	41	0	223346688	56	6386
2026-01-24 13:38:36.60	29.10	12.02	-42.0	-43.2	21.2	0.00e+00	0	41	0	231735296	56	6552
2026-01-24 13:38:40.63	29.45	12.37	-41.4	-42.6	21.6	0.00e+00	0	41	0	239075328	56	6110
2026-01-24 13:38:44.67	29.80	12.71	-41.1	-42.1	22.2	0.00e+00	0	41	0	246415360	56	5803
2026-01-24 13:38:48.71	30.17	13.06	-41.0	-42.1	22.1	0.00e+00	5	41	0	253755392	54	6485
2026-01-24 13:38:52.75	30.54	13.42	-40.8	-41.9	22.3	0.00e+00	0	41	0	261095424	54	6320
2026-01-24 13:38:56.78	30.92	13.77	-40.8	-41.8	22.4	0.00e+00	0	41	0	269484032	54	6254
2026-01-24 13:39:00.82	31.30	14.14	-40.7	-41.7	22.5	0.00e+00	0	41	0	276824064	54	6229
2026-01-24 13:39:04.85	31.70	14.50	-40.6	-41.6	22.5	0.00e+00	73	41	0	284164096	54	6152
2026-01-24 13:39:08.89	32.11	14.87	-41.0	-42.0	22.2	0.00e+00	0	41	0	291504128	54	6462
2026-01-24 13:39:12.93	32.52	15.25	-41.2	-42.3	22.1	0.00e+00	0	41	0	299892736	54	6655
2026-01-24 13:39:16.96	32.95	15.63	-41.2	-42.3	21.8	0.00e+00	0	41	0	307232768	54	6652
2026-01-24 13:39:21.00	33.39	16.02	-41.1	-42.2	22.2	0.00e+00	92	41	0	314572800	54	6571
2026-01-24 13:39:25.04	33.83	16.40	-40.7	-41.7	22.4	0.00e+00	0	41	0	321912832	54	6195
2026-01-24 13:39:29.07	34.29	16.80	-40.6	-41.6	22.5	0.00e+00	0	41	0	329252864	54	6139
2026-01-24 13:39:33.11	34.76	17.20	-40.8	-41.8	22.5	0.00e+00	92	41	0	337641472	54	6256
2026-01-24 13:39:37.15	35.25	17.60	-40.9	-42.0	22.4	0.00e+00	0	41	0	344981504	54	6412
2026-01-24 13:39:41.18	35.74	18.01	-41.5	-42.6	21.7	0.00e+00	0	41	0	352321536	54	6863
2026-01-24 13:39:45.21	36.25	18.42	-41.7	-42.9	21.7	0.00e+00	0	41	0	359661568	56	6331
2026-01-24 13:39:49.25	36.77	18.84	-41.3	-42.4	22.0	0.00e+00	90	41	0	367001600	56	5986
2026-01-24 13:39:53.29	37.31	19.26	-41.2	-42.3	22.1	0.00e+00	0	41	0	375390208	56	5916
2026-01-24 13:39:57.33	37.86	19.69	-41.3	-42.4	22.1	0.00e+00	0	41	0	382730240	56	5979
2026-01-24 13:40:01.37	38.43	20.12	-41.4	-42.5	22.0	0.00e+00	6	41	0	390070272	56	6080
2026-01-24 13:40:05.40	39.01	20.56	-41.4	-42.4	22.0	0.00e+00	40	41	0	397410304	56	6033
2026-01-24 13:40:09.44	39.61	21.00	-41.7	-42.9	21.6	0.00e+00	0	41	0	405798912	56	6324
2026-01-24 13:40:13.47	40.22	21.45	-40.8	-41.8	22.4	0.00e+00	0	41	0	413138944	56	5614
2026-01-24 13:40:17.51	40.86	21.90	-41.1	-42.1	22.3	0.00e+00	7	41	0	420478976	54	6488
2026-01-24 13:40:21.55	41.51	22.36	-40.8	-41.8	22.5	0.00e+00	60	41	0	427819008	54	6297
2026-01-24 13:40:25.59	42.18	22.82	-40.8	-41.9	22.6	0.00e+00	0	41	0	435159040	54	6323
2026-01-24 13:40:29.62	42.87	23.28	-40.5	-41.5	22.9	0.00e+00	0	41	0	443547648	54	6043
2026-01-24 13:40:33.66	43.58	23.75	-40.4	-41.4	22.9	0.00e+00	92	41	0	450887680	54	5973
2026-01-24 13:40:37.70	44.31	24.23	-41.1	-42.2	22.3	0.00e+00	0	41	0	458227712	54	6549
2026-01-24 13:40:41.74	45.06	24.70	-41.1	-42.2	22.3	0.00e+00	0	41	0	465567744	54	6545
2026-01-24 13:40:45.78	45.84	25.18	-40.8	-41.7	22.8	0.00e+00	0	41	0	473956352	54	6239
2026-01-24 13:40:49.82	46.64	25.67	-40.0	-40.9	23.1	0.00e+00	91	41	0	481296384	54	5676
2026-01-24 13:40:53.86	47.46	26.16	-40.3	-41.2	23.1	0.00e+00	0	41	0	488636416	54	5874
2026-01-24 13:40:57.90	48.31	26.65	-40.3	-41.2	23.0	0.00e+00	0	41	0	495976448	54	5884
2026-01-24 13:41:01.93	49.18	27.14	-40.4	-41.3	23.0	0.00e+00	0	41	0	503316480	54	5959
2026-01-24 13:41:05.97	50.08	27.63	-39.9	-40.8	23.4	0.00e+00	92	41	0	511705088	54	5607
2026-01-24 13:41:10.01	51.01	28.13	-40.3	-41.3	23.2	0.00e+00	0	41	0	519045120	52	6616
2026-01-24 13:41:14.05	51.97	28.62	-40.9	-42.0	22.9	0.00e+00	0	41	0	526385152	54	6399
2026-01-24 13:41:18.09	52.96	29.12	-40.9	-42.0	22.5	0.00e+00	10	41	0	533725184	54	6393
2026-01-24 13:41:22.13	53.98	29.62	-41.5	-42.6	22.0	0.00e+00	16	41	0	542113792	54	6888
2026-01-24 13:41:26.17	55.03	30.11	-42.0	-43.1	21.7	0.00e+00	0	41	0	549453824	58	5803
2026-01-24 13:41:30.21	56.11	30.60	-42.1	-43.3	21.1	0.00e+00	0	41	0	556793856	56	6623
2026-01-24 13:41:34.25	57.22	31.09	-43.9	-45.4	19.6	0.00e+00	91	41	0	564133888	60	6757
2026-01-24 13:41:38.29	58.37	31.58	-44.4	-46.0	19.1	0.00e+00	0	41	0	571473920	60	7173
2026-01-24 13:41:42.33	59.55	32.06	-44.1	-45.7	19.4	0.00e+00	0	41	0	579862528	60	6940
2026-01-24 13:41:46.37	60.77	32.54	-45.0	-46.9	18.2	0.00e+00	9	41	0	587202560	60	7998
2026-01-24 13:41:50.41	62.02	33.00	-44.6	-46.3	19.0	0.00e+00	92	41	0	594542592	60	7430
2026-01-24 13:41:54.45	63.31	33.46	-45.7	-47.8	17.6	0.00e+00	0	41	0	601882624	60	8849
2026-01-24 13:41:58.49	64.63	33.92	-44.5	-46.1	19.3	0.00e+00	0	41	0	610271232	60	7327
2026-01-24 13:42:02.53	66.00	34.36	-44.4	-46.0	19.2	0.00e+00	12	41	0	617611264	60	7232
2026-01-24 13:42:06.57	67.39	34.79	-45.0	-46.9	18.4	0.00e+00	4	41	0	624951296	60	7974
2026-01-24 13:42:10.61	68.82	35.20	-41.8	-42.9	21.8	0.00e+00	0	41	0	632291328	56	6364
2026-01-24 13:42:14.65	70.29	35.60	-43.7	-45.1	19.9	0.00e+00	0	41	0	639631360	60	6519
2026-01-24 13:42:18.69	71.80	35.99	-41.2	-42.3	22.2	0.00e+00	92	41	0	648019968	56	5915
2026-01-24 13:42:22.73	73.34	36.35	-41.6	-42.7	21.9	0.00e+00	0	41	0	655360000	56	6226
2026-01-24 13:42:26.77	74.91	36.70	-40.5	-41.5	22.7	0.00e+00	0	41	0	662700032	54	6044
2026-01-24 13:42:30.81	76.51	37.03	-41.0	-42.1	22.5	0.00e+00	0	41	0	670040064	54	6472
2026-01-24 13:42:34.85	78.15	37.33	-41.5	-42.5	22.1	0.00e+00	92	41	0	678428672	56	6102
2026-01-24 13:42:38.89	79.82	37.61	-41.0	-42.0	22.5	0.00e+00	0	41	0	685768704	56	5735
2026-01-24 13:42:42.92	81.50	37.87	-41.0	-42.0	22.5	0.00e+00	0	41	0	693108736	54	6443
2026-01-24 13:42:46.97	83.23	38.10	-42.3	-43.6	21.1	0.00e+00	17	41	0	700448768	56	6869
2026-01-24 13:42:51.01	84.97	38.30	-41.2	-42.2	22.3	0.00e+00	92	41	0	707788800	56	5855
2026-01-24 13:42:55.05	86.73	38.47	-41.3	-42.4	22.1	0.00e+00	0	41	0	716177408	54	6704
2026-01-24 13:42:59.09	88.51	38.62	-43.0	-44.3	20.6	0.00e+00	0	41	0	723517440	58	6640
2026-01-24 13:43:03.14	90.30	38.73	-41.7	-42.8	21.9	0.00e+00	13	41	0	730857472	56	6298
2026-01-24 13:43:07.18	92.11	38.82	-42.1	-43.3	21.4	0.00e+00	0	41	0	738197504	56	6623
2026-01-24 13:43:11.21	93.92	38.87	-43.9	-45.4	19.9	0.00e+00	0	41	0	746586112	60	6705
2026-01-24 13:43:15.25	95.73	38.89	-40.9	-41.9	22.7	0.00e+00	0	41	0	753926144	56	5655
2026-01-24 13:43:19.29	97.55	38.88	-40.4	-41.4	23.0	0.00e+00	92	41	0	761266176	52	6721
2026-01-24 13:43:23.33	99.36	38.84	-41.0	-42.0	22.5	0.00e+00	0	41	0	768606208	54	6399
2026-01-24 13:43:27.37	101.17	38.76	-41.3	-42.3	22.3	0.00e+00	0	41	0	776994816	56	5947
2026-01-24 13:43:31.41	102.97	38.66	-40.4	-41.4	23.0	0.00e+00	9	41	0	784334848	54	5983
2026-01-24 13:43:35.44	104.75	38.52	-41.2	-42.3	22.2	0.00e+00	92	41	0	791674880	56	5906
2026-01-24 13:43:39.48	106.52	38.36	-40.5	-41.5	22.8	0.00e+00	0	41	0	799014912	54	6040
2026-01-24 13:43:43.52	108.27	38.17	-41.8	-42.9	21.6	0.00e+00	0	41	0	806354944	54	7161
2026-01-24 13:43:47.56	109.99	37.94	-39.9	-40.8	23.5	0.00e+00	9	41	0	814743552	52	6279
2026-01-24 13:43:51.60	111.70	37.70	-40.1	-41.1	23.4	0.00e+00	0	41	0	822083584	54	5783
2026-01-24 13:43:55.63	113.37	37.42	-42.6	-44.0	20.9	0.00e+00	0	41	0	829423616	56	7175
2026-01-24 13:43:59.67	115.02	37.13	-40.2	-41.2	23.2	0.00e+00	0	41	0	836763648	54	5834
2026-01-24 13:44:03.71	116.64	36.81	-38.1	-38.9	24.7	0.00e+00	92	41	0	844103680	50	5657
2026-01-24 13:44:07.75	118.23	36.46	-40.7	-41.7	22.6	0.00e+00	0	41	0	852492288	54	6206
2026-01-24 13:44:11.78	119.77	36.10	-39.4	-40.3	23.9	0.00e+00	0	41	0	859832320	52	5924
2026-01-24 13:44:15.82	121.29	35.72	-37.9	-38.7	24.9	0.00e+00	0	41	0	867172352	48	6230
2026-01-24 13:44:19.86	122.78	35.33	-40.7	-41.7	22.7	0.00e+00	92	41	0	874512384	54	6185
2026-01-24 13:44:23.90	124.23	34.92	-41.7	-42.8	21.9	0.00e+00	0	41	0	882900992	56	6273
2026-01-24 13:44:27.94	125.64	34.49	-41.3	-42.3	22.0	0.00e+00	0	41	0	890241024	56	5933
2026-01-24 13:44:31.98	127.01	34.05	-44.0	-45.5	19.6	0.00e+00	0	41	0	897581056	60	6789
2026-01-24 13:44:36.02	128.35	33.60	-43.8	-45.3	19.4	0.00e+00	0	41	0	904921088	60	6653
2026-01-24 13:44:40.05	129.65	33.14	-43.4	-44.8	20.2	0.00e+00	0	41	0	912261120	60	6283
2026-01-24 13:44:44.09	130.92	32.67	-44.1	-45.7	19.3	0.00e+00	0	41	0	920649728	60	6934
2026-01-24 13:44:48.13	132.15	32.20	-43.9	-45.5	19.5	0.00e+00	8	41	0	927989760	60	6797
2026-01-24 13:44:52.16	133.35	31.72	-42.3	-43.5	21.3	0.00e+00	0	41	0	935329792	58	6040
2026-01-24 13:44:56.20	134.51	31.23	-43.0	-44.3	20.4	0.00e+00	18	41	0	942669824	56	7450
2026-01-24 13:45:00.24	135.64	30.74	-41.8	-43.0	21.6	0.00e+00	0	41	0	951058432	58	5698
2026-01-24 13:45:04.27	136.73	30.25	-42.8	-44.1	20.6	0.00e+00	54	41	0	958398464	58	6530
2026-01-24 13:45:08.31	137.79	29.75	-39.3	-40.1	23.9	0.00e+00	0	41	0	965738496	52	5797
2026-01-24 13:45:12.35	138.82	29.25	-41.5	-42.6	22.0	0.00e+00	0	41	0	973078528	56	6149
2026-01-24 13:45:16.39	139.82	28.75	-39.7	-40.5	23.4	0.00e+00	0	41	0	980418560	52	6100
2026-01-24 13:45:20.43	140.79	28.25	-41.0	-42.1	22.6	0.00e+00	92	41	0	988807168	54	6499
2026-01-24 13:45:24.46	141.73	27.76	-38.0	-38.8	24.7	0.00e+00	0	41	0	996147200	50	5595
2026-01-24 13:45:28.50	142.64	27.26	-39.2	-40.1	23.8	0.00e+00	0	42	0	1003487232	50	6471
2026-01-24 13:45:32.54	143.53	26.76	-38.0	-38.8	24.8	0.00e+00	8	41	0	1010827264	50	5576
2026-01-24 13:45:36.58	144.39	26.27	-39.1	-40.0	23.8	0.00e+00	0	41	0	1019215872	50	6443
2026-01-24 13:45:40.61	145.22	25.78	-38.1	-38.9	24.6	0.00e+00	0	41	0	1026555904	50	5667
2026-01-24 13:45:44.65	146.03	25.29	-38.1	-38.9	24.6	0.00e+00	0	42	0	1033895936	48	6365
2026-01-24 13:45:48.69	146.82	24.81	-38.6	-39.4	24.2	0.00e+00	92	42	0	1041235968	50	5991
2026-01-24 13:45:52.72	147.58	24.33	-37.8	-38.6	24.2	0.00e+00	0	42	0	1048576000	48	6139
2026-01-24 13:45:56.76	148.32	23.85	-38.0	-38.8	24.7	0.00e+00	0	42	0	1056964608	48	6249
2026-01-24 13:46:00.80	149.03	23.37	-38.5	-39.4	24.3	0.00e+00	0	42	0	1064304640	48	6711
2026-01-24 13:46:04.84	149.73	22.90	-38.9	-39.8	24.0	0.00e+00	92	42	0	1071644672	50	6273
2026-01-24 13:46:08.88	150.41	22.44	-38.3	-39.1	24.5	0.00e+00	0	42	0	1078984704	50	5813
2026-01-24 13:46:12.91	151.07	21.98	-38.8	-39.6	24.2	0.00e+00	0	42	0	1086324736	50	6127
2026-01-24 13:46:16.94	151.70	21.53	-39.3	-40.1	23.7	0.00e+00	47	42	0	1094713344	50	6523
2026-01-24 13:46:20.98	152.32	21.07	-38.7	-39.5	24.2	0.00e+00	0	42	0	1102053376	50	6052
2026-01-24 13:46:25.02	152.93	20.63	-39.6	-40.5	23.3	0.00e+00	0	42	0	1109393408	50	6822
2026-01-24 13:46:29.05	153.52	20.19	-40.9	-42.0	22.2	0.00e+00	0	42	0	1116733440	54	6420
2026-01-24 13:46:33.09	154.09	19.75	-40.8	-41.9	22.3	0.00e+00	78	42	0	1125122048	54	6335
2026-01-24 13:46:37.13	154.64	19.32	-41.0	-42.1	21.8	0.00e+00	7	42	0	1132462080	54	6509
2026-01-24 13:46:41.16	155.18	18.89	-42.2	-43.5	20.6	0.00e+00	0	42	0	1139802112	56	6826
2026-01-24 13:46:45.20	155.71	18.47	-42.2	-43.5	20.7	0.00e+00	0	42	0	1147142144	56	6774
2026-01-24 13:46:49.24	156.22	18.05	-40.7	-41.7	22.1	0.00e+00	92	42	0	1154482176	54	6239
2026-01-24 13:46:53.27	156.72	17.64	-40.6	-41.6	22.3	0.00e+00	0	42	0	1162870784	54	6142
2026-01-24 13:46:57.31	157.21	17.23	-40.3	-41.3	22.8	0.00e+00	0	42	0	1170210816	54	5908
2026-01-24 13:47:01.34	157.68	16.83	-40.2	-41.2	22.7	0.00e+00	0	41	0	1177550848	54	5884
2026-01-24 13:47:05.38	158.15	16.43	-39.6	-40.5	23.3	0.00e+00	92	42	0	1184890880	52	6080
2026-01-24 13:47:09.42	158.60	16.04	-40.1	-41.0	23.0	0.00e+00	0	41	0	1193279488	52	6437
2026-01-24 13:47:13.45	159.04	15.65	-40.6	-41.6	22.5	0.00e+00	0	42	0	1200619520	52	6880
2026-01-24 13:47:17.49	159.46	15.27	-41.2	-42.3	21.9	0.00e+00	65	42	0	1207959552	54	6656
2026-01-24 13:47:21.53	159.88	14.89	-40.9	-41.9	22.2	0.00e+00	0	42	0	1215299584	54	6383
2026-01-24 13:47:25.56	160.29	14.52	-41.0	-42.1	22.0	0.00e+00	0	42	0	1222639616	54	6481
2026-01-24 13:47:29.61	160.69	14.14	-41.0	-42.0	22.0	0.00e+00	0	42	0	1231028224	54	6427
2026-01-24 13:47:33.64	161.08	13.78	-41.8	-43.0	21.3	0.00e+00	87	42	0	1238368256	56	6415
2026-01-24 13:47:37.67	161.46	13.42	-41.9	-43.1	21.2	0.00e+00	0	42	0	1245708288	56	6533
2026-01-24 13:47:41.71	161.83	13.06	-41.5	-42.6	21.6	0.00e+00	0	42	0	1253048320	56	6163
2026-01-24 13:47:45.75	162.19	12.71	-40.5	-41.6	22.5	0.00e+00	0	42	0	1260388352	54	6112
2026-01-24 13:47:49.78	162.55	12.36	-40.3	-41.3	22.5	0.00e+00	52	42	0	1268776960	54	5945
2026-01-24 13:47:53.82	162.90	12.01	-40.1	-41.1	22.8	0.00e+00	0	42	0	1276116992	54	5776
2026-01-24 13:47:57.86	163.24	11.67	-40.7	-41.7	22.4	0.00e+00	0	42	0	1283457024	54	6181
2026-01-24 13:48:01.89	163.57	11.34	-41.1	-42.1	22.0	0.00e+00	7	42	0	1290797056	54	6499
2026-01-24 13:48:05.93	163.89	11.00	-41.8	-43.0	21.2	0.00e+00	76	42	0	1299185664	56	6407
2026-01-24 13:48:09.97	164.21	10.67	-42.5	-43.8	20.5	0.00e+00	0	42	0	1306525696	58	6282
2026-01-24 13:48:14.01	164.52	10.35	-42.6	-43.9	20.4	0.00e+00	0	42	0	1313865728	58	6370
2026-01-24 13:48:18.04	164.83	10.02	-42.7	-44.0	20.3	0.00e+00	0	42	0	1321205760	58	6412
2026-01-24 13:48:22.08	165.13	9.70	-42.5	-43.8	20.4	0.00e+00	0	42	0	1328545792	58	6289
2026-01-24 13:48:26.11	165.42	9.39	-42.5	-43.8	20.3	0.00e+00	0	42	0	1336934400	58	6296
2026-01-24 13:48:30.15	165.70	9.08	-42.0	-43.2	20.9	0.00e+00	30	42	0	1344274432	58	5854
2026-01-24 13:48:34.19	165.99	8.77	-42.2	-43.4	20.7	0.00e+00	92	42	0	1351614464	58	6033
2026-01-24 13:48:38.22	166.26	8.46	-42.2	-43.5	20.7	0.00e+00	0	42	0	1358954496	58	6048
2026-01-24 13:48:42.26	166.53	8.16	-42.4	-43.7	20.5	0.00e+00	0	42	0	1367343104	58	6182
2026-01-24 13:48:46.30	166.80	7.86	-42.6	-43.9	20.3	0.00e+00	0	42	0	1374683136	58	6336
2026-01-24 13:48:50.33	167.05	7.56	-42.8	-44.2	19.8	0.00e+00	89	42	0	1382023168	58	6559
2026-01-24 13:48:54.37	167.31	7.27	-43.1	-44.6	19.6	0.00e+00	0	41	0	1389363200	58	6857
2026-01-24 13:48:58.41	167.56	6.98	-42.6	-43.9	20.2	0.00e+00	0	42	0	1396703232	58	6386
2026-01-24 13:49:02.45	167.81	6.69	-42.5	-43.8	20.2	0.00e+00	81	42	0	1405091840	58	6293
2026-01-24 13:49:06.48	168.05	6.41	-43.0	-44.4	19.7	0.00e+00	92	42	0	1412431872	58	6744
2026-01-24 13:49:10.52	168.28	6.12	-42.6	-43.9	20.1	0.00e+00	0	42	0	1419771904	58	6371
2026-01-24 13:49:14.56	168.52	5.84	-43.4	-45.0	18.9	0.00e+00	0	41	0	1427111936	58	7182
2026-01-24 13:49:18.60	168.74	5.57	-43.9	-45.6	18.6	0.00e+00	49	41	0	1435500544	60	6862
2026-01-24 13:49:22.64	168.97	5.29	-43.7	-45.3	18.8	0.00e+00	0	41	0	1442840576	60	6664
2026-01-24 13:49:26.67	169.19	5.02	-44.2	-46.0	18.0	0.00e+00	0	41	0	1450180608	60	7246
2026-01-24 13:49:30.71	169.40	4.75	-44.7	-46.7	17.4	0.00e+00	0	41	0	1457520640	60	7803
2026-01-24 13:49:34.75	169.62	4.48	-45.1	-47.2	17.0	0.00e+00	92	41	0	1464860672	60	8305
2026-01-24 13:49:38.78	169.83	4.22	-44.9	-47.0	17.3	0.00e+00	0	41	0	1473249280	60	8119
2026-01-24 13:49:42.82	170.03	3.96	-45.0	-47.2	16.8	0.00e+00	0	41	0	1480589312	60	8235
2026-01-24 13:49:46.86	170.23	3.70	-45.7	-48.3	15.6	0.00e+00	16	41	0	1487929344	60	9356
2026-01-24 13:49:50.89	170.43	3.44	-46.2	-49.2	14.4	0.00e+00	92	41	0	1495269376	60	10399
2026-01-24 13:49:54.92	170.63	3.18	-45.1	-47.4	16.0	0.00e+00	0	41	0	1503657984	60	8506
2026-01-24 13:49:58.96	170.82	2.93	-50.3	-65.5	3.6	1.51e+00	0	41	104	1507852288	60	68227
2026-01-24 13:50:03.00	171.01	2.68	-50.9	-66.0	3.6	1.51e+00	0	41	104	1507852288	60	72360
2026-01-24 13:50:07.05	171.20	2.43	-51.0	-66.3	3.6	1.51e+00	0	41	104	1507852288	60	74276
2026-01-24 13:50:11.09	171.38	2.18	-51.0	-66.3	3.6	1.51e+00	0	41	104	1507852288	60	74333
2026-01-24 13:50:15.13	171.56	1.93	-51.1	-66.3	3.6	1.51e+00	0	41	104	1507852288	60	74943
2026-01-24 13:50:19.17	171.74	1.69	-51.3	-66.4	3.6	1.51e+00	0	41	104	1507852288	60	75838
2026-01-24 13:50:23.21	171.92	1.45	-51.2	-66.4	3.6	1.51e+00	0	41	104	1507852288	60	75663
2026-01-24 13:50:27.25	172.09	1.21	-51.2	-66.4	3.6	1.51e+00	0	41	104	1507852288	60	75704
2026-01-24 13:50:31.29	172.26	0.97	-51.2	-66.4	3.6	1.51e+00	0	41	104	1507852288	60	75864
2026-01-24 13:50:35.33	172.43	0.73	-51.4	-66.5	3.6	1.51e+00	0	41	104	1507852288	60	76796
2026-01-24 13:50:39.37	172.59	0.50	-51.3	-66.5	3.6	1.51e+00	0	41	104	1507852288	60	76483
2026-01-24 13:50:43.41	172.76	0.26	-51.4	-66.6	3.6	1.51e+00	0	41	104	1507852288	60	76899
2026-01-24 13:50:47.45	172.92	0.03	-51.3	-66.5	3.6	1.51e+00	0	41	104	1507852288	60	76249

#Closed at: 2026-01-24 13:50:50
#Recorded file [1507 MB]: D:/lorett/data/35029_260125_013542.dat