passes_logs/2026/01/24/R4.6S_Anadyr/R4.6S_Anadyr__20260124_031359_SUOMI_NPP_rec.log

#Pass ID: 20260124_031359_SUOMI NPP
#Satellite: SUOMI NPP
#Configuration: NPP
#almurnet v.1.7.20251203
#Start time: 2026-01-24 03:14:02

#Version: 2.2.20231116
#Station: R4.6S_Anadyr
#Location: 177.4865 lon 64.73178 lat
#TLE: 1 37849U 11061A   26023.63275593  .00000212  00000+0  12133-3 0  9990
#TLE: 2 37849  98.7820 325.6074 0002234  48.9695 311.1673 14.19528901737937

#Time	Az	El	Level	Level2	SNR	BER	BlckErr	Temp	State	Recorded	gain1	gain2
2026-01-24 03:14:02.88	235.39	0.15	-51.7	-65.5	3.3	1.54e+00	0	40	0	0	60	68284
2026-01-24 03:14:05.90	235.66	0.28	-51.7	-66.9	3.6	1.51e+00	0	40	104	0	60	80244
2026-01-24 03:14:08.94	235.94	0.41	-51.3	-66.6	3.6	1.51e+00	0	41	104	0	60	76958
2026-01-24 03:14:11.97	236.22	0.55	-50.9	-66.5	3.6	1.51e+00	0	41	104	0	60	76697
2026-01-24 03:14:15.00	236.50	0.68	-51.2	-66.4	3.6	1.51e+00	0	41	104	0	60	75779
2026-01-24 03:14:18.03	236.78	0.81	-51.2	-66.3	3.6	1.51e+00	0	41	104	0	60	75071
2026-01-24 03:14:21.06	237.06	0.94	-51.0	-66.2	3.6	1.51e+00	0	41	104	0	60	73417
2026-01-24 03:14:24.09	237.35	1.07	-50.2	-65.4	3.6	1.51e+00	0	41	104	0	60	66996
2026-01-24 03:14:27.12	237.64	1.21	-48.6	-63.8	3.6	1.51e+00	0	41	104	0	60	56106
2026-01-24 03:14:30.15	237.93	1.34	-48.6	-63.8	3.6	1.51e+00	0	41	104	0	60	55750
2026-01-24 03:14:33.18	238.22	1.47	-48.6	-63.7	3.6	1.51e+00	0	41	104	0	60	55641
2026-01-24 03:14:36.21	238.52	1.60	-48.6	-63.7	3.6	1.51e+00	0	41	104	0	60	55650
2026-01-24 03:14:39.24	238.82	1.74	-48.6	-63.8	3.6	1.51e+00	0	41	104	0	60	55886
2026-01-24 03:14:42.27	239.12	1.87	-48.6	-63.8	3.6	1.51e+00	0	41	104	0	60	55985
2026-01-24 03:14:45.30	239.42	2.00	-48.6	-63.7	3.6	1.51e+00	0	41	104	0	60	55628
2026-01-24 03:14:48.32	239.73	2.13	-48.6	-63.6	3.6	1.51e+00	0	41	104	0	60	54433
2026-01-24 03:14:51.35	240.04	2.26	-48.6	-63.5	3.6	1.51e+00	0	41	104	0	60	54198
2026-01-24 03:14:54.38	240.35	2.40	-48.5	-63.1	3.6	1.51e+00	0	41	104	0	60	51819
2026-01-24 03:14:57.41	240.66	2.53	-48.5	-63.0	3.6	1.51e+00	0	41	104	0	60	51097
2026-01-24 03:15:00.44	240.98	2.66	-48.5	-63.1	3.6	1.51e+00	0	41	104	0	60	51914
2026-01-24 03:15:03.47	241.30	2.79	-48.5	-63.2	3.6	1.51e+00	0	41	104	0	60	51951
2026-01-24 03:15:06.50	241.62	2.92	-48.5	-62.9	3.6	1.51e+00	0	41	104	0	60	50280
2026-01-24 03:15:09.53	241.95	3.06	-48.4	-61.9	3.6	1.51e+00	0	41	104	0	60	44996
2026-01-24 03:15:12.56	242.28	3.19	-47.3	-52.6	10.2	1.04e+00	87	41	104	0	60	15377
2026-01-24 03:15:15.59	242.61	3.32	-47.1	-51.7	10.6	4.62e-04	0	41	0	4194304	60	13965
2026-01-24 03:15:18.62	242.94	3.45	-47.5	-52.7	10.0	1.51e-02	92	41	0	9437184	60	15511
2026-01-24 03:15:21.65	243.28	3.58	-47.1	-51.6	11.3	1.99e-03	92	41	0	15728640	60	13703
2026-01-24 03:15:24.68	243.62	3.71	-46.7	-50.7	12.3	1.25e-03	0	41	0	20971520	60	12334
2026-01-24 03:15:27.71	243.96	3.84	-46.9	-51.0	12.0	5.29e-04	92	41	0	27262976	60	12769
2026-01-24 03:15:30.74	244.31	3.97	-46.6	-50.3	13.1	2.27e-04	87	41	0	32505856	60	11848
2026-01-24 03:15:33.77	244.66	4.10	-46.3	-49.6	13.8	1.75e-05	3	41	0	37748736	60	10863
2026-01-24 03:15:36.80	245.01	4.23	-46.4	-49.8	13.4	3.00e-06	0	41	0	44040192	60	11165
2026-01-24 03:15:39.82	245.36	4.36	-44.6	-46.7	16.3	0.00e+00	92	41	0	49283072	60	7854
2026-01-24 03:15:42.86	245.72	4.49	-45.7	-48.4	15.5	6.10e-06	90	41	0	55574528	60	9475
2026-01-24 03:15:45.89	246.08	4.62	-45.3	-47.7	15.9	0.00e+00	0	41	0	60817408	60	8812
2026-01-24 03:15:48.92	246.44	4.75	-45.3	-47.7	16.1	0.00e+00	88	41	0	67108864	60	8735
2026-01-24 03:15:51.94	246.81	4.88	-44.6	-46.7	17.2	0.00e+00	92	41	0	72351744	60	7775
2026-01-24 03:15:54.97	247.18	5.01	-44.1	-45.9	18.0	0.00e+00	0	41	0	77594624	60	7161
2026-01-24 03:15:58.00	247.55	5.14	-44.3	-46.2	17.8	0.00e+00	91	41	0	83886080	60	7364
2026-01-24 03:16:01.03	247.93	5.26	-43.0	-44.5	19.4	0.00e+00	78	41	0	89128960	60	6042
2026-01-24 03:16:04.07	248.31	5.39	-43.4	-44.9	18.9	0.00e+00	0	41	0	95420416	58	7167
2026-01-24 03:16:07.09	248.69	5.52	-43.8	-45.5	18.6	0.00e+00	0	41	0	100663296	60	6799
2026-01-24 03:16:10.12	249.08	5.64	-43.3	-44.9	19.1	0.00e+00	92	42	0	105906176	60	6348
2026-01-24 03:16:13.15	249.46	5.77	-42.9	-44.4	19.7	0.00e+00	92	41	0	112197632	60	5967
2026-01-24 03:16:16.18	249.86	5.90	-42.7	-44.1	20.1	0.00e+00	0	41	0	117440512	58	6509
2026-01-24 03:16:19.21	250.25	6.02	-42.3	-43.7	20.3	0.00e+00	91	41	0	123731968	58	6182
2026-01-24 03:16:22.24	250.65	6.15	-43.0	-44.4	19.6	0.00e+00	92	41	0	128974848	58	6756
2026-01-24 03:16:25.27	251.05	6.27	-43.4	-44.9	19.1	0.00e+00	0	41	0	135266304	58	7138
2026-01-24 03:16:28.30	251.46	6.39	-42.6	-44.0	20.1	0.00e+00	92	41	0	140509184	58	6413
2026-01-24 03:16:31.33	251.87	6.51	-42.4	-43.7	20.3	0.00e+00	92	41	0	145752064	58	6194
2026-01-24 03:16:34.36	252.28	6.64	-42.6	-44.0	20.0	0.00e+00	90	41	0	152043520	58	6409
2026-01-24 03:16:37.39	252.69	6.76	-42.9	-44.3	19.7	0.00e+00	0	41	0	157286400	58	6655
2026-01-24 03:16:40.42	253.11	6.88	-43.1	-44.6	19.6	0.00e+00	92	41	0	163577856	58	6868
2026-01-24 03:16:43.44	253.53	7.00	-43.1	-44.5	19.7	0.00e+00	92	41	0	168820736	58	6820
2026-01-24 03:16:46.47	253.96	7.12	-43.1	-44.6	19.6	0.00e+00	0	42	0	174063616	58	6858
2026-01-24 03:16:49.50	254.38	7.23	-42.7	-44.1	20.0	0.00e+00	90	41	0	180355072	58	6486
2026-01-24 03:16:52.53	254.82	7.35	-43.6	-45.1	19.0	0.00e+00	90	42	0	185597952	58	7327
2026-01-24 03:16:55.56	255.25	7.47	-42.7	-44.0	20.1	0.00e+00	0	42	0	191889408	58	6435
2026-01-24 03:16:58.58	255.69	7.58	-43.0	-44.4	19.7	0.00e+00	0	42	0	197132288	58	6749
2026-01-24 03:17:01.61	256.13	7.70	-43.1	-44.5	19.7	0.00e+00	90	41	0	203423744	58	6778
2026-01-24 03:17:04.64	256.57	7.81	-42.9	-44.3	19.9	0.00e+00	92	42	0	208666624	58	6652
2026-01-24 03:17:07.67	257.02	7.92	-42.5	-43.8	20.2	0.00e+00	0	42	0	213909504	58	6259
2026-01-24 03:17:10.70	257.47	8.04	-42.8	-44.1	20.0	0.00e+00	90	42	0	220200960	58	6514
2026-01-24 03:17:13.73	257.93	8.15	-43.1	-44.5	19.7	0.00e+00	92	41	0	225443840	58	6795
2026-01-24 03:17:16.75	258.39	8.26	-43.4	-44.9	19.4	0.00e+00	0	41	0	231735296	58	7111
2026-01-24 03:17:19.78	258.85	8.36	-43.3	-44.7	19.6	0.00e+00	91	42	0	236978176	58	6994
2026-01-24 03:17:22.81	259.31	8.47	-43.1	-44.5	19.7	0.00e+00	66	42	0	242221056	58	6815
2026-01-24 03:17:25.84	259.78	8.58	-42.9	-44.3	19.8	0.00e+00	6	42	0	248512512	58	6666
2026-01-24 03:17:28.87	260.25	8.68	-43.2	-44.6	19.7	0.00e+00	0	42	0	253755392	58	6902
2026-01-24 03:17:31.90	260.73	8.79	-43.5	-45.1	19.2	0.00e+00	92	42	0	260046848	58	7262
2026-01-24 03:17:34.93	261.21	8.89	-43.9	-45.5	18.9	0.00e+00	90	41	0	265289728	60	6831
2026-01-24 03:17:37.96	261.69	8.99	-43.5	-44.9	19.5	0.00e+00	0	42	0	271581184	60	6383
2026-01-24 03:17:40.99	262.17	9.09	-43.8	-45.3	19.2	0.00e+00	92	42	0	276824064	60	6665
2026-01-24 03:17:44.02	262.66	9.19	-43.9	-45.5	18.9	0.00e+00	92	42	0	282066944	60	6846
2026-01-24 03:17:47.04	263.15	9.29	-43.5	-45.0	19.4	0.00e+00	0	42	0	288358400	60	6415
2026-01-24 03:17:50.07	263.64	9.38	-43.5	-45.0	19.5	0.00e+00	92	42	0	293601280	60	6391
2026-01-24 03:17:53.10	264.14	9.48	-43.2	-44.7	19.8	0.00e+00	71	42	0	299892736	60	6186
2026-01-24 03:17:56.13	264.64	9.57	-43.4	-44.9	19.7	0.00e+00	57	41	0	305135616	60	6356
2026-01-24 03:17:59.15	265.14	9.66	-43.6	-45.0	19.5	0.00e+00	6	42	0	310378496	60	6445
2026-01-24 03:18:02.18	265.65	9.75	-43.5	-44.9	19.6	0.00e+00	92	42	0	316669952	60	6390
2026-01-24 03:18:05.21	266.16	9.84	-42.9	-44.3	20.2	0.00e+00	91	42	0	321912832	60	5908
2026-01-24 03:18:08.24	266.67	9.92	-42.4	-43.7	20.5	0.00e+00	0	42	0	328204288	58	6211
2026-01-24 03:18:11.27	267.18	10.01	-42.7	-44.0	20.4	0.00e+00	91	42	0	333447168	58	6404
2026-01-24 03:18:14.30	267.70	10.09	-43.4	-44.8	19.5	0.00e+00	90	42	0	339738624	58	7062
2026-01-24 03:18:17.33	268.22	10.17	-43.2	-44.6	19.9	0.00e+00	0	42	0	344981504	58	6859
2026-01-24 03:18:20.36	268.74	10.25	-43.2	-44.6	19.6	0.00e+00	21	42	0	350224384	58	6861
2026-01-24 03:18:23.38	269.27	10.33	-43.0	-44.4	20.0	0.00e+00	68	42	0	356515840	58	6741
2026-01-24 03:18:26.41	269.80	10.40	-42.8	-44.1	20.2	0.00e+00	92	42	0	361758720	58	6532
2026-01-24 03:18:29.44	270.33	10.47	-42.9	-44.3	20.3	0.00e+00	0	42	0	368050176	58	6636
2026-01-24 03:18:32.47	270.86	10.55	-43.2	-44.6	19.8	0.00e+00	91	41	0	373293056	58	6917
2026-01-24 03:18:35.49	271.40	10.61	-43.8	-45.3	19.3	0.00e+00	92	42	0	378535936	60	6634
2026-01-24 03:18:38.52	271.93	10.68	-43.8	-45.4	19.2	0.00e+00	0	42	0	384827392	60	6695
2026-01-24 03:18:41.55	272.48	10.75	-43.0	-44.3	20.2	0.00e+00	92	42	0	390070272	60	5950
2026-01-24 03:18:44.58	273.02	10.81	-42.6	-43.8	20.5	0.00e+00	92	42	0	396361728	58	6313
2026-01-24 03:18:47.61	273.56	10.87	-43.0	-44.4	19.9	0.00e+00	0	42	0	401604608	58	6699
2026-01-24 03:18:50.64	274.11	10.93	-42.7	-44.0	20.4	0.00e+00	0	42	0	407896064	58	6406
2026-01-24 03:18:53.67	274.66	10.99	-42.2	-43.4	20.9	0.00e+00	90	42	0	413138944	58	6000
2026-01-24 03:18:56.69	275.21	11.04	-43.2	-44.6	19.8	0.00e+00	21	42	0	418381824	58	6893
2026-01-24 03:18:59.72	275.76	11.09	-43.1	-44.4	20.0	0.00e+00	0	42	0	424673280	58	6753
2026-01-24 03:19:02.75	276.32	11.14	-42.6	-43.8	20.5	0.00e+00	90	42	0	429916160	58	6310
2026-01-24 03:19:05.78	276.88	11.19	-43.6	-45.0	19.4	0.00e+00	92	42	0	436207616	58	7217
2026-01-24 03:19:08.81	277.43	11.24	-44.4	-46.0	18.6	0.00e+00	0	42	0	441450496	60	7229
2026-01-24 03:19:11.84	278.00	11.28	-43.0	-44.3	20.2	0.00e+00	56	42	0	446693376	60	5941
2026-01-24 03:19:14.87	278.56	11.32	-42.8	-44.1	20.3	0.00e+00	91	42	0	452984832	58	6497
2026-01-24 03:19:17.90	279.12	11.36	-43.4	-44.8	19.7	0.00e+00	2	42	0	458227712	58	7083
2026-01-24 03:19:20.93	279.68	11.39	-43.6	-45.0	19.4	0.00e+00	0	42	0	464519168	58	7216
2026-01-24 03:19:23.95	280.25	11.43	-44.1	-45.7	19.0	0.00e+00	92	42	0	469762048	60	6965
2026-01-24 03:19:26.98	280.82	11.46	-44.9	-46.7	18.1	0.00e+00	92	42	0	475004928	60	7835
2026-01-24 03:19:30.01	281.38	11.49	-44.5	-46.2	18.5	0.00e+00	0	42	0	481296384	60	7410
2026-01-24 03:19:33.03	281.95	11.51	-43.6	-45.0	19.6	0.00e+00	91	42	0	486539264	60	6449
2026-01-24 03:19:36.06	282.52	11.54	-43.7	-45.3	19.4	0.00e+00	90	42	0	492830720	60	6621
2026-01-24 03:19:39.09	283.09	11.56	-43.5	-44.9	19.7	0.00e+00	0	42	0	498073600	60	6386
2026-01-24 03:19:42.12	283.66	11.58	-43.1	-44.4	20.2	0.00e+00	92	42	0	504365056	60	5980
2026-01-24 03:19:45.15	284.24	11.59	-42.6	-43.9	20.6	0.00e+00	75	42	0	509607936	58	6326
2026-01-24 03:19:48.17	284.81	11.60	-42.8	-44.1	20.3	0.00e+00	4	42	0	514850816	58	6471
2026-01-24 03:19:51.20	285.38	11.62	-42.7	-43.9	20.4	0.00e+00	0	42	0	521142272	58	6386
2026-01-24 03:19:54.23	285.95	11.62	-42.9	-44.2	20.3	0.00e+00	92	42	0	526385152	58	6595
2026-01-24 03:19:57.26	286.53	11.63	-43.1	-44.4	20.1	0.00e+00	92	42	0	532676608	58	6751
2026-01-24 03:20:00.29	287.10	11.63	-42.7	-44.0	20.5	0.00e+00	0	42	0	537919488	58	6443
2026-01-24 03:20:03.31	287.67	11.63	-42.4	-43.6	20.8	0.00e+00	92	42	0	543162368	58	6141
2026-01-24 03:20:06.34	288.25	11.63	-42.8	-44.1	20.4	0.00e+00	90	42	0	549453824	58	6483
2026-01-24 03:20:09.37	288.82	11.63	-42.1	-43.3	21.1	0.00e+00	0	42	0	554696704	58	5942
2026-01-24 03:20:12.40	289.39	11.62	-42.2	-43.4	21.0	0.00e+00	0	42	0	560988160	58	6004
2026-01-24 03:20:15.43	289.97	11.61	-42.3	-43.5	21.1	0.00e+00	92	42	0	566231040	58	6041
2026-01-24 03:20:18.46	290.54	11.60	-42.1	-43.2	21.2	0.00e+00	19	42	0	572522496	58	5885
2026-01-24 03:20:21.48	291.11	11.58	-42.3	-43.5	21.0	0.00e+00	0	42	0	577765376	58	6051
2026-01-24 03:20:24.51	291.68	11.57	-42.5	-43.8	20.7	0.00e+00	92	42	0	583008256	58	6270
2026-01-24 03:20:27.54	292.25	11.55	-42.4	-43.6	20.9	0.00e+00	90	42	0	589299712	58	6113
2026-01-24 03:20:30.57	292.82	11.52	-42.0	-43.2	21.2	0.00e+00	30	42	0	594542592	58	5861
2026-01-24 03:20:33.60	293.39	11.50	-42.0	-43.2	21.3	0.00e+00	53	42	0	600834048	58	5858
2026-01-24 03:20:36.63	293.96	11.47	-42.2	-43.4	21.1	0.00e+00	50	42	0	606076928	58	5990
2026-01-24 03:20:39.65	294.52	11.44	-41.6	-42.6	21.8	0.00e+00	0	42	0	611319808	56	6164
2026-01-24 03:20:42.68	295.09	11.41	-41.5	-42.6	21.8	0.00e+00	0	42	0	617611264	56	6159
2026-01-24 03:20:45.71	295.65	11.38	-41.9	-43.0	21.5	0.00e+00	92	42	0	622854144	56	6419
2026-01-24 03:20:48.74	296.21	11.34	-41.7	-42.8	21.6	0.00e+00	3	42	0	629145600	56	6315
2026-01-24 03:20:51.77	296.78	11.30	-41.3	-42.4	21.8	0.00e+00	0	42	0	634388480	56	5976
2026-01-24 03:20:54.79	297.33	11.26	-41.5	-42.5	21.8	0.00e+00	92	42	0	640679936	56	6092
2026-01-24 03:20:57.82	297.89	11.21	-41.8	-42.9	21.6	0.00e+00	92	42	0	645922816	56	6356
2026-01-24 03:21:00.84	298.45	11.17	-41.5	-42.6	21.8	0.00e+00	0	42	0	651165696	56	6164
2026-01-24 03:21:03.87	299.00	11.12	-41.2	-42.3	21.9	0.00e+00	21	42	0	657457152	56	5910
2026-01-24 03:21:06.90	299.55	11.07	-41.2	-42.3	22.0	0.00e+00	92	42	0	662700032	56	5919
2026-01-24 03:21:09.93	300.11	11.01	-41.8	-42.9	21.5	0.00e+00	0	42	0	668991488	56	6345
2026-01-24 03:21:12.96	300.66	10.96	-42.3	-43.5	21.1	0.00e+00	0	42	0	674234368	56	6811
2026-01-24 03:21:15.98	301.20	10.90	-42.2	-43.3	20.9	0.00e+00	60	42	0	679477248	56	6683
2026-01-24 03:21:19.02	301.75	10.84	-43.0	-44.3	20.1	0.00e+00	92	42	0	685768704	58	6662
2026-01-24 03:21:22.05	302.29	10.78	-42.4	-43.6	20.8	0.00e+00	0	42	0	691011584	58	6162
2026-01-24 03:21:25.07	302.83	10.72	-41.4	-42.5	21.7	0.00e+00	92	42	0	697303040	56	6088
2026-01-24 03:21:28.10	303.37	10.65	-41.2	-42.3	21.7	0.00e+00	54	42	0	702545920	56	5911
2026-01-24 03:21:31.13	303.90	10.58	-40.9	-41.9	22.3	0.00e+00	0	42	0	707788800	56	5682
2026-01-24 03:21:34.15	304.43	10.51	-40.2	-41.1	22.7	0.00e+00	0	42	0	714080256	54	5825
2026-01-24 03:21:37.18	304.96	10.44	-40.6	-41.6	22.6	0.00e+00	77	42	0	719323136	54	6108
2026-01-24 03:21:40.21	305.49	10.37	-40.7	-41.7	22.3	0.00e+00	30	42	0	725614592	54	6238
2026-01-24 03:21:43.24	306.02	10.29	-41.1	-42.2	21.9	0.00e+00	30	42	0	730857472	54	6566
2026-01-24 03:21:46.27	306.54	10.21	-41.1	-42.2	21.9	0.00e+00	92	42	0	737148928	54	6550
2026-01-24 03:21:49.30	307.06	10.13	-40.8	-41.8	22.1	0.00e+00	92	42	0	742391808	54	6311
2026-01-24 03:21:52.32	307.57	10.05	-41.0	-42.0	21.9	0.00e+00	0	42	0	747634688	54	6417
2026-01-24 03:21:55.35	308.09	9.97	-41.0	-42.0	22.0	0.00e+00	92	42	0	753926144	54	6444
2026-01-24 03:21:58.38	308.60	9.89	-40.5	-41.5	22.3	0.00e+00	79	42	0	759169024	54	6102
2026-01-24 03:22:01.41	309.11	9.80	-40.6	-41.6	22.4	0.00e+00	0	42	0	765460480	54	6128
2026-01-24 03:22:04.44	309.61	9.71	-40.8	-41.9	22.2	0.00e+00	0	42	0	770703360	54	6336
2026-01-24 03:22:07.47	310.12	9.62	-40.9	-42.0	22.0	0.00e+00	80	42	0	775946240	54	6421
2026-01-24 03:22:10.50	310.62	9.53	-41.1	-42.2	21.9	0.00e+00	81	42	0	782237696	54	6579
2026-01-24 03:22:13.53	311.11	9.44	-41.1	-42.2	21.8	0.00e+00	0	42	0	787480576	54	6577
2026-01-24 03:22:16.55	311.60	9.34	-42.5	-43.8	20.8	0.00e+00	92	42	0	793772032	56	7021
2026-01-24 03:22:19.58	312.10	9.25	-42.9	-44.3	20.1	0.00e+00	90	42	0	799014912	58	6627
2026-01-24 03:22:22.61	312.58	9.15	-42.5	-43.7	20.5	0.00e+00	0	42	0	805306368	58	6241
2026-01-24 03:22:25.64	313.07	9.05	-42.9	-44.2	19.9	0.00e+00	0	42	0	810549248	58	6581
2026-01-24 03:22:28.67	313.55	8.95	-43.3	-44.7	19.6	0.00e+00	92	42	0	815792128	58	7004
2026-01-24 03:22:31.70	314.02	8.85	-42.6	-43.9	20.4	0.00e+00	0	42	0	822083584	58	6346
2026-01-24 03:22:34.73	314.50	8.75	-43.0	-44.4	19.9	0.00e+00	0	42	0	827326464	58	6754
2026-01-24 03:22:37.75	314.97	8.65	-43.0	-44.4	19.9	0.00e+00	87	42	0	833617920	58	6693
2026-01-24 03:22:40.78	315.44	8.54	-44.2	-45.9	18.6	0.00e+00	5	42	0	838860800	60	7131
2026-01-24 03:22:43.81	315.90	8.44	-43.9	-45.5	19.2	0.00e+00	0	42	0	844103680	60	6832
2026-01-24 03:22:46.83	316.36	8.33	-43.3	-44.8	19.7	0.00e+00	70	41	0	850395136	60	6248
2026-01-24 03:22:49.86	316.82	8.22	-43.8	-45.3	19.1	0.00e+00	74	42	0	855638016	60	6692
2026-01-24 03:22:52.89	317.27	8.11	-44.6	-46.4	18.2	0.00e+00	0	42	0	861929472	60	7581
2026-01-24 03:22:55.92	317.73	8.00	-44.4	-46.2	18.2	0.00e+00	0	41	0	867172352	60	7367
2026-01-24 03:22:58.95	318.17	7.89	-44.1	-45.7	18.7	0.00e+00	92	41	0	873463808	60	6976
2026-01-24 03:23:01.98	318.62	7.78	-44.1	-45.9	18.5	0.00e+00	0	42	0	878706688	60	7089
2026-01-24 03:23:05.01	319.06	7.66	-44.1	-45.9	18.3	0.00e+00	0	42	0	883949568	60	7116
2026-01-24 03:23:08.03	319.50	7.55	-43.8	-45.4	19.0	0.00e+00	70	41	0	890241024	60	6719
2026-01-24 03:23:11.06	319.93	7.44	-45.0	-47.0	17.5	0.00e+00	92	41	0	895483904	60	8093
2026-01-24 03:23:14.09	320.36	7.32	-44.8	-46.7	17.8	0.00e+00	0	42	0	901775360	60	7862
2026-01-24 03:23:17.12	320.79	7.20	-44.1	-45.8	18.5	0.00e+00	72	41	0	907018240	60	7053
2026-01-24 03:23:20.15	321.22	7.09	-44.1	-45.8	18.4	0.00e+00	70	41	0	912261120	60	7030
2026-01-24 03:23:23.18	321.64	6.97	-44.4	-46.2	18.0	0.00e+00	0	42	0	918552576	60	7402
2026-01-24 03:23:26.20	322.05	6.85	-43.8	-45.4	18.8	0.00e+00	0	41	0	923795456	60	6756
2026-01-24 03:23:29.23	322.47	6.73	-43.7	-45.4	18.9	0.00e+00	67	42	0	930086912	60	6699
2026-01-24 03:23:32.26	322.88	6.61	-43.7	-45.3	19.0	0.00e+00	0	41	0	935329792	60	6657
2026-01-24 03:23:35.29	323.29	6.49	-44.1	-45.8	18.4	0.00e+00	0	41	0	941621248	60	7049
2026-01-24 03:23:38.32	323.69	6.37	-43.5	-45.1	19.0	0.00e+00	92	41	0	946864128	60	6509
2026-01-24 03:23:41.35	324.10	6.24	-43.7	-45.4	18.9	0.00e+00	92	41	0	952107008	60	6699
2026-01-24 03:23:44.38	324.50	6.12	-43.7	-45.4	18.8	0.00e+00	0	41	0	958398464	60	6704
2026-01-24 03:23:47.41	324.89	6.00	-44.2	-45.9	18.3	0.00e+00	0	41	0	963641344	60	7138
2026-01-24 03:23:50.43	325.28	5.87	-43.8	-45.5	18.6	0.00e+00	91	41	0	969932800	60	6797
2026-01-24 03:23:53.46	325.67	5.75	-44.1	-45.8	18.4	0.00e+00	0	41	0	975175680	60	7068
2026-01-24 03:23:56.49	326.06	5.63	-43.8	-45.4	18.7	0.00e+00	0	41	0	980418560	60	6746
2026-01-24 03:23:59.52	326.44	5.50	-43.4	-45.0	18.9	0.00e+00	81	41	0	986710016	60	6435
2026-01-24 03:24:02.54	326.82	5.37	-43.4	-45.0	18.9	0.00e+00	9	41	0	991952896	60	6431
2026-01-24 03:24:05.57	327.19	5.25	-42.2	-43.5	20.3	0.00e+00	0	41	0	998244352	58	6051
2026-01-24 03:24:08.60	327.57	5.12	-42.8	-44.3	19.7	0.00e+00	0	41	0	1003487232	58	6616
2026-01-24 03:24:11.63	327.94	5.00	-43.4	-45.0	18.8	0.00e+00	1	41	0	1008730112	58	7252
2026-01-24 03:24:14.65	328.30	4.87	-42.7	-44.1	19.6	0.00e+00	0	41	0	1015021568	58	6533
2026-01-24 03:24:17.68	328.67	4.74	-42.4	-43.8	19.8	0.00e+00	0	41	0	1020264448	58	6289
2026-01-24 03:24:20.71	329.03	4.61	-42.4	-43.8	19.8	0.00e+00	69	41	0	1026555904	58	6306
2026-01-24 03:24:23.74	329.39	4.49	-42.8	-44.3	19.4	0.00e+00	0	41	0	1031798784	58	6674
2026-01-24 03:24:26.77	329.74	4.36	-43.6	-45.2	18.7	0.00e+00	0	41	0	1038090240	60	6610
2026-01-24 03:24:29.80	330.09	4.23	-43.1	-44.6	19.2	0.00e+00	0	41	0	1043333120	60	6147
2026-01-24 03:24:32.82	330.44	4.10	-44.1	-45.9	18.1	0.00e+00	2	41	0	1048576000	60	7146
2026-01-24 03:24:35.85	330.79	3.97	-44.0	-45.9	17.7	0.00e+00	0	41	0	1054867456	60	7119
2026-01-24 03:24:38.88	331.13	3.84	-44.1	-46.0	17.6	0.00e+00	0	41	0	1060110336	60	7238
2026-01-24 03:24:41.91	331.47	3.71	-44.8	-47.2	15.8	0.00e+00	0	41	0	1066401792	60	8318
2026-01-24 03:24:44.94	331.81	3.58	-46.1	-50.4	11.7	6.80e-06	0	41	0	1071644672	60	11969
2026-01-24 03:24:47.97	332.14	3.45	-46.4	-52.8	7.8	2.78e-02	0	41	0	1076887552	60	15826
2026-01-24 03:24:50.99	332.47	3.32	-46.5	-56.3	4.0	7.02e-01	71	41	0	1083179008	60	23728
2026-01-24 03:24:54.02	332.80	3.19	-46.5	-61.0	3.6	1.51e+00	0	41	104	1083179008	60	40408
2026-01-24 03:24:57.05	333.13	3.06	-46.4	-61.4	3.6	1.51e+00	0	42	104	1083179008	60	42315
2026-01-24 03:25:00.08	333.45	2.93	-50.1	-65.2	3.6	1.51e+00	0	42	104	1083179008	60	66151
2026-01-24 03:25:03.11	333.78	2.80	-50.7	-65.9	3.6	1.51e+00	0	41	104	1083179008	60	71591
2026-01-24 03:25:06.14	334.09	2.67	-51.1	-66.3	3.6	1.51e+00	0	42	104	1083179008	60	74751
2026-01-24 03:25:09.17	334.41	2.54	-51.2	-66.4	3.6	1.51e+00	0	41	104	1083179008	60	75425
2026-01-24 03:25:12.20	334.72	2.41	-51.2	-66.4	3.6	1.51e+00	0	42	104	1083179008	60	75614
2026-01-24 03:25:15.23	335.03	2.28	-51.0	-66.3	3.6	1.51e+00	0	42	104	1083179008	60	74773
2026-01-24 03:25:18.26	335.34	2.15	-51.2	-66.4	3.6	1.51e+00	0	41	104	1083179008	60	75275
2026-01-24 03:25:21.29	335.64	2.02	-51.2	-66.4	3.6	1.51e+00	0	41	104	1083179008	60	75575
2026-01-24 03:25:24.31	335.95	1.89	-51.2	-66.4	3.6	1.51e+00	0	41	104	1083179008	60	75239
2026-01-24 03:25:27.34	336.25	1.76	-51.2	-66.5	3.6	1.51e+00	0	41	104	1083179008	60	76019
2026-01-24 03:25:30.37	336.54	1.63	-51.2	-66.4	3.6	1.51e+00	0	41	104	1083179008	60	75161
2026-01-24 03:25:33.40	336.84	1.50	-51.3	-66.5	3.6	1.51e+00	0	42	104	1083179008	60	76578
2026-01-24 03:25:36.43	337.13	1.36	-51.3	-66.4	3.6	1.51e+00	0	42	104	1083179008	60	75930
2026-01-24 03:25:39.46	337.42	1.23	-51.4	-66.6	3.6	1.51e+00	0	42	104	1083179008	60	76923
2026-01-24 03:25:42.49	337.71	1.10	-51.4	-66.6	3.6	1.51e+00	0	42	104	1083179008	60	77333
2026-01-24 03:25:45.52	337.99	0.97	-51.5	-66.7	3.6	1.51e+00	0	42	104	1083179008	60	78491
2026-01-24 03:25:48.55	338.28	0.84	-51.3	-66.5	3.6	1.51e+00	0	42	104	1083179008	60	76633
2026-01-24 03:25:51.58	338.56	0.71	-51.4	-66.6	3.6	1.51e+00	0	42	104	1083179008	60	77026
2026-01-24 03:25:54.62	338.84	0.58	-51.5	-66.7	3.6	1.51e+00	0	41	104	1083179008	60	78090
2026-01-24 03:25:57.65	339.11	0.45	-51.5	-66.7	3.6	1.51e+00	0	42	104	1083179008	60	78076
2026-01-24 03:26:00.67	339.39	0.32	-51.5	-66.7	3.6	1.51e+00	0	42	104	1083179008	60	78278
2026-01-24 03:26:03.70	339.66	0.19	-51.5	-66.8	3.6	1.51e+00	0	42	104	1083179008	60	78811
2026-01-24 03:26:06.73	339.93	0.06	-51.6	-66.7	3.6	1.51e+00	0	42	104	1083179008	60	78351
2026-01-24 03:26:09.76	340.20	-0.07	-51.5	-66.7	3.6	1.51e+00	0	42	104	1083179008	60	78147

#Closed at: 2026-01-24 03:26:10
#Recorded file [1083 MB]: D:/lorett/data/35029_260124_151402.dat