passes_logs/2026/01/24/R4.6S_Anadyr/R4.6S_Anadyr__20260124_151607_SUOMI_NPP_rec.log

#Pass ID: 20260124_151607_SUOMI NPP
#Satellite: SUOMI NPP
#Configuration: NPP
#almurnet v.1.7.20251203
#Start time: 2026-01-24 15:16:09

#Version: 2.2.20231116
#Station: R4.6S_Anadyr
#Location: 177.4865 lon 64.73178 lat
#TLE: 1 37849U 11061A   26024.12615439  .00000221  00000+0  12601-3 0  9992
#TLE: 2 37849  98.7821 326.0966 0002215  48.1259 312.0106 14.19529288738009

#Time	Az	El	Level	Level2	SNR	BER	BlckErr	Temp	State	Recorded	gain1	gain2
2026-01-24 15:16:09.46	21.64	0.12	-51.8	-64.2	3.4	1.52e+00	0	39	0	0	60	57100
2026-01-24 15:16:13.49	21.60	0.36	-53.2	-68.4	3.6	1.51e+00	0	40	104	0	60	95205
2026-01-24 15:16:17.54	21.57	0.60	-52.0	-67.2	3.6	1.51e+00	0	40	104	0	60	82864
2026-01-24 15:16:21.57	21.53	0.85	-51.7	-66.9	3.6	1.51e+00	0	40	104	0	60	80363
2026-01-24 15:16:25.61	21.49	1.10	-51.4	-66.6	3.6	1.51e+00	0	40	104	0	60	77335
2026-01-24 15:16:29.66	21.45	1.35	-50.9	-66.1	3.6	1.51e+00	0	40	104	0	60	72814
2026-01-24 15:16:33.69	21.41	1.60	-50.3	-65.5	3.6	1.51e+00	0	40	104	0	60	67789
2026-01-24 15:16:37.74	21.37	1.85	-50.1	-65.0	3.6	1.51e+00	0	40	104	0	60	64459
2026-01-24 15:16:41.78	21.33	2.11	-50.1	-65.4	3.6	1.51e+00	0	41	104	0	60	66977
2026-01-24 15:16:45.82	21.29	2.37	-50.1	-65.0	3.6	1.51e+00	0	41	104	0	60	64324
2026-01-24 15:16:49.86	21.25	2.63	-50.0	-64.0	3.6	1.51e+00	0	41	104	0	60	57452
2026-01-24 15:16:53.90	21.20	2.90	-50.1	-65.0	3.5	1.51e+00	0	41	104	0	60	63971
2026-01-24 15:16:57.94	21.16	3.16	-49.6	-57.7	5.8	6.92e-01	0	41	0	1048576	60	27730
2026-01-24 15:17:01.98	21.11	3.43	-45.9	-48.3	15.9	8.11e-04	37	41	0	8388608	60	9371
2026-01-24 15:17:06.03	21.06	3.70	-47.7	-51.6	13.0	1.68e-04	0	41	0	15728640	60	13771
2026-01-24 15:17:10.06	21.02	3.98	-49.9	-61.7	3.5	3.97e-03	0	41	0	23068672	60	43818
2026-01-24 15:17:14.10	20.96	4.25	-45.1	-47.1	17.2	0.00e+00	0	41	0	23068672	60	8171
2026-01-24 15:17:18.14	20.91	4.53	-44.4	-46.1	18.1	0.00e+00	91	41	0	30408704	60	7333
2026-01-24 15:17:22.18	20.86	4.82	-44.5	-46.3	18.2	0.00e+00	0	41	0	37748736	60	7428
2026-01-24 15:17:26.21	20.81	5.10	-44.0	-45.6	18.8	0.00e+00	0	41	0	45088768	60	6884
2026-01-24 15:17:30.25	20.75	5.39	-42.7	-44.1	20.1	0.00e+00	35	41	0	53477376	60	5794
2026-01-24 15:17:34.29	20.69	5.68	-43.6	-45.2	19.2	0.00e+00	0	41	0	60817408	60	6563
2026-01-24 15:17:38.33	20.63	5.98	-44.6	-46.4	18.2	0.00e+00	0	41	0	68157440	60	7566
2026-01-24 15:17:42.37	20.57	6.28	-43.3	-44.8	19.5	0.00e+00	0	41	0	75497472	56	7908
2026-01-24 15:17:46.40	20.51	6.58	-43.1	-44.4	20.4	0.00e+00	57	41	0	83886080	58	6764
2026-01-24 15:17:50.44	20.45	6.88	-43.1	-44.5	20.4	0.00e+00	0	41	0	91226112	58	6788
2026-01-24 15:17:54.48	20.38	7.19	-42.4	-43.6	20.7	0.00e+00	0	41	0	98566144	58	6170
2026-01-24 15:17:58.52	20.32	7.51	-42.9	-44.2	20.2	0.00e+00	0	41	0	105906176	58	6598
2026-01-24 15:18:02.56	20.25	7.82	-43.1	-44.5	19.9	0.00e+00	39	41	0	113246208	58	6818
2026-01-24 15:18:06.59	20.18	8.14	-42.3	-43.6	20.9	0.00e+00	0	41	0	121634816	58	6111
2026-01-24 15:18:10.63	20.10	8.47	-41.7	-42.8	21.6	0.00e+00	0	41	0	128974848	58	5629
2026-01-24 15:18:14.67	20.03	8.80	-41.4	-42.5	21.6	0.00e+00	29	41	0	136314880	56	6049
2026-01-24 15:18:18.71	19.95	9.13	-43.1	-44.4	20.2	0.00e+00	72	41	0	143654912	58	6720
2026-01-24 15:18:22.75	19.87	9.47	-42.4	-43.6	21.0	0.00e+00	0	41	0	152043520	58	6126
2026-01-24 15:18:26.79	19.79	9.81	-42.5	-43.7	20.8	0.00e+00	0	41	0	159383552	56	6953
2026-01-24 15:18:30.82	19.71	10.16	-42.1	-43.3	21.4	0.00e+00	33	41	0	166723584	56	6629
2026-01-24 15:18:34.86	19.62	10.51	-41.7	-42.8	21.9	0.00e+00	0	41	0	174063616	56	6271
2026-01-24 15:18:38.90	19.53	10.87	-41.1	-42.1	22.3	0.00e+00	0	41	0	181403648	56	5774
2026-01-24 15:18:42.93	19.44	11.23	-42.0	-43.2	21.4	0.00e+00	0	41	0	189792256	56	6564
2026-01-24 15:18:46.97	19.35	11.60	-41.4	-42.5	22.1	0.00e+00	92	41	0	197132288	56	6035
2026-01-24 15:18:51.01	19.25	11.97	-41.3	-42.3	22.2	0.00e+00	0	41	0	204472320	56	5951
2026-01-24 15:18:55.05	19.15	12.35	-41.4	-42.5	22.2	0.00e+00	0	41	0	211812352	56	6034
2026-01-24 15:18:59.09	19.05	12.73	-41.0	-42.1	22.3	0.00e+00	0	41	0	220200960	56	5767
2026-01-24 15:19:03.12	18.94	13.12	-41.2	-42.2	22.3	0.00e+00	58	41	0	227540992	56	5873
2026-01-24 15:19:07.16	18.83	13.52	-40.9	-41.9	22.2	0.00e+00	0	41	0	234881024	56	5664
2026-01-24 15:19:11.20	18.72	13.92	-40.8	-41.8	22.6	0.00e+00	0	41	0	242221056	56	5603
2026-01-24 15:19:15.24	18.61	14.33	-40.5	-41.5	22.8	0.00e+00	20	41	0	249561088	54	6063
2026-01-24 15:19:19.28	18.49	14.75	-40.4	-41.3	23.1	0.00e+00	26	41	0	257949696	54	5926
2026-01-24 15:19:23.32	18.36	15.17	-40.2	-41.1	23.3	0.00e+00	0	41	0	265289728	54	5783
2026-01-24 15:19:27.36	18.23	15.60	-40.1	-41.0	23.4	0.00e+00	0	41	0	272629760	52	6412
2026-01-24 15:19:31.40	18.10	16.04	-40.0	-41.0	23.4	0.00e+00	36	41	0	279969792	52	6397
2026-01-24 15:19:35.44	17.96	16.49	-39.5	-40.4	23.9	0.00e+00	0	41	0	288358400	52	5971
2026-01-24 15:19:39.48	17.82	16.94	-39.6	-40.5	23.8	0.00e+00	0	41	0	295698432	52	6058
2026-01-24 15:19:43.51	17.68	17.41	-39.8	-40.7	23.6	0.00e+00	0	41	0	303038464	52	6182
2026-01-24 15:19:47.55	17.53	17.88	-39.7	-40.6	23.7	0.00e+00	92	41	0	310378496	52	6153
2026-01-24 15:19:51.59	17.37	18.36	-40.3	-41.3	23.2	0.00e+00	0	41	0	317718528	52	6647
2026-01-24 15:19:55.63	17.21	18.85	-40.1	-41.0	23.4	0.00e+00	0	41	0	326107136	52	6436
2026-01-24 15:19:59.67	17.04	19.35	-39.7	-40.6	23.7	0.00e+00	0	41	0	333447168	52	6138
2026-01-24 15:20:03.71	16.86	19.86	-40.0	-40.9	23.6	0.00e+00	72	41	0	340787200	52	6326
2026-01-24 15:20:07.75	16.68	20.38	-39.6	-40.5	23.9	0.00e+00	0	41	0	348127232	52	6070
2026-01-24 15:20:11.79	16.49	20.91	-39.5	-40.3	23.9	0.00e+00	0	41	0	356515840	52	5949
2026-01-24 15:20:15.83	16.30	21.45	-39.6	-40.5	24.0	0.00e+00	70	41	0	363855872	52	6046
2026-01-24 15:20:19.86	16.10	22.01	-39.5	-40.3	24.0	0.00e+00	0	42	0	371195904	52	5964
2026-01-24 15:20:23.90	15.89	22.57	-39.8	-40.7	23.6	0.00e+00	0	41	0	378535936	52	6208
2026-01-24 15:20:27.94	15.67	23.15	-40.6	-41.5	23.1	0.00e+00	0	41	0	385875968	52	6817
2026-01-24 15:20:31.97	15.44	23.74	-39.8	-40.6	23.9	0.00e+00	72	41	0	394264576	54	5492
2026-01-24 15:20:36.01	15.20	24.34	-39.6	-40.4	23.9	0.00e+00	0	41	0	401604608	52	6010
2026-01-24 15:20:40.05	14.95	24.96	-40.1	-41.0	23.5	0.00e+00	0	41	0	408944640	52	6457
2026-01-24 15:20:44.09	14.70	25.59	-40.7	-41.6	23.1	0.00e+00	0	41	0	416284672	52	6900
2026-01-24 15:20:48.13	14.43	26.24	-40.5	-41.4	23.2	0.00e+00	92	41	0	424673280	54	5987
2026-01-24 15:20:52.17	14.15	26.90	-41.2	-42.2	22.6	0.00e+00	0	41	0	432013312	54	6592
2026-01-24 15:20:56.21	13.85	27.58	-41.6	-42.6	22.2	0.00e+00	0	41	0	439353344	56	6168
2026-01-24 15:21:00.24	13.55	28.27	-42.3	-43.5	21.6	0.00e+00	21	41	0	446693376	56	6778
2026-01-24 15:21:04.28	13.22	28.98	-41.7	-42.8	22.1	0.00e+00	15	41	0	454033408	56	6252
2026-01-24 15:21:08.32	12.89	29.71	-42.4	-43.6	21.4	0.00e+00	0	41	0	462422016	58	6137
2026-01-24 15:21:12.36	12.53	30.45	-42.6	-43.7	21.3	0.00e+00	0	41	0	469762048	58	6236
2026-01-24 15:21:16.39	12.16	31.21	-42.4	-43.5	21.6	0.00e+00	75	41	0	477102080	58	6073
2026-01-24 15:21:20.43	11.77	32.00	-43.4	-44.7	20.6	0.00e+00	0	41	0	484442112	58	6984
2026-01-24 15:21:24.46	11.36	32.80	-43.8	-45.1	20.4	0.00e+00	0	41	0	491782144	60	6484
2026-01-24 15:21:28.51	10.93	33.62	-44.0	-45.4	20.2	0.00e+00	0	41	0	500170752	60	6727
2026-01-24 15:21:32.54	10.47	34.46	-44.4	-45.9	19.5	0.00e+00	92	41	0	507510784	60	7104
2026-01-24 15:21:36.58	9.99	35.32	-43.9	-45.2	20.3	0.00e+00	0	41	0	514850816	60	6593
2026-01-24 15:21:40.62	9.48	36.21	-44.8	-46.4	19.1	0.00e+00	0	41	0	522190848	60	7560
2026-01-24 15:21:44.66	8.94	37.12	-45.3	-47.1	18.4	0.00e+00	9	41	0	530579456	60	8172
2026-01-24 15:21:48.70	8.37	38.05	-44.0	-45.4	20.1	0.00e+00	92	41	0	537919488	60	6741
2026-01-24 15:21:52.74	7.77	39.00	-44.6	-46.1	19.4	0.00e+00	0	41	0	545259520	60	7319
2026-01-24 15:21:56.77	7.13	39.97	-44.2	-45.8	19.8	0.00e+00	0	41	0	552599552	60	7030
2026-01-24 15:22:00.81	6.44	40.97	-43.6	-45.0	20.5	0.00e+00	38	41	0	559939584	60	6431
2026-01-24 15:22:04.85	5.72	42.00	-42.4	-43.5	21.5	0.00e+00	0	41	0	568328192	58	6044
2026-01-24 15:22:08.89	4.94	43.04	-42.2	-43.4	21.7	0.00e+00	0	41	0	575668224	58	5965
2026-01-24 15:22:12.92	4.11	44.11	-42.2	-43.3	21.9	0.00e+00	0	41	0	583008256	58	5918
2026-01-24 15:22:16.96	3.21	45.20	-41.5	-42.5	22.5	0.00e+00	43	41	0	590348288	56	6068
2026-01-24 15:22:21.00	2.26	46.32	-42.5	-43.6	21.7	0.00e+00	0	41	0	598736896	58	6147
2026-01-24 15:22:25.04	1.23	47.45	-41.2	-42.3	22.5	0.00e+00	0	41	0	606076928	56	5919
2026-01-24 15:22:29.08	0.12	48.61	-41.0	-42.0	22.8	0.00e+00	17	41	0	613416960	56	5742
2026-01-24 15:22:33.11	358.93	49.78	-40.3	-41.1	23.5	0.00e+00	47	41	0	620756992	54	5827
2026-01-24 15:22:37.15	357.63	50.97	-39.9	-40.7	23.9	0.00e+00	0	41	0	628097024	52	6243
2026-01-24 15:22:41.19	356.23	52.17	-40.4	-41.3	23.4	0.00e+00	0	41	0	636485632	54	5932
2026-01-24 15:22:45.23	354.70	53.38	-40.5	-41.4	23.3	0.00e+00	44	41	0	643825664	54	6008
2026-01-24 15:22:49.27	353.05	54.60	-40.4	-41.3	23.3	0.00e+00	0	41	0	651165696	54	5956
2026-01-24 15:22:53.31	351.24	55.83	-42.3	-43.4	21.7	0.00e+00	0	41	0	658505728	56	6766
2026-01-24 15:22:57.34	349.27	57.04	-43.4	-44.8	20.4	0.00e+00	0	41	0	666894336	58	7047
2026-01-24 15:23:01.38	347.11	58.25	-41.5	-42.6	22.4	0.00e+00	75	41	0	674234368	56	6128
2026-01-24 15:23:05.42	344.75	59.45	-41.8	-42.9	21.8	0.00e+00	0	41	0	681574400	56	6356
2026-01-24 15:23:09.45	342.17	60.61	-41.6	-42.7	22.3	0.00e+00	33	41	0	688914432	56	6208
2026-01-24 15:23:13.49	339.33	61.74	-39.9	-40.7	24.0	0.00e+00	0	41	0	696254464	52	6226
2026-01-24 15:23:17.53	336.23	62.82	-39.6	-40.5	24.0	0.00e+00	76	41	0	704643072	52	6057
2026-01-24 15:23:21.57	332.84	63.84	-39.9	-40.8	23.8	0.00e+00	0	41	0	711983104	52	6307
2026-01-24 15:23:25.61	329.15	64.79	-40.0	-41.0	23.6	0.00e+00	0	41	0	719323136	52	6403
2026-01-24 15:23:29.65	325.15	65.64	-39.3	-40.2	24.0	0.00e+00	25	41	0	726663168	52	5838
2026-01-24 15:23:33.69	320.86	66.38	-40.6	-41.5	23.1	0.00e+00	39	41	0	735051776	52	6798
2026-01-24 15:23:37.72	316.29	67.00	-41.6	-42.8	22.3	0.00e+00	0	41	0	742391808	56	6260
2026-01-24 15:23:41.76	311.46	67.49	-42.0	-43.1	21.9	0.00e+00	0	41	0	749731840	58	5808
2026-01-24 15:23:45.80	306.44	67.82	-41.2	-42.1	23.0	0.00e+00	51	41	0	757071872	56	5805
2026-01-24 15:23:49.83	301.30	67.99	-41.9	-43.0	22.0	0.00e+00	0	41	0	764411904	56	6393
2026-01-24 15:23:53.87	296.11	67.99	-42.0	-43.1	22.0	0.00e+00	0	41	0	772800512	56	6493
2026-01-24 15:23:57.91	290.96	67.83	-41.2	-42.1	22.6	0.00e+00	0	41	0	780140544	54	6524
2026-01-24 15:24:01.95	285.93	67.50	-42.5	-43.6	21.6	0.00e+00	43	41	0	787480576	58	6172
2026-01-24 15:24:05.98	281.10	67.03	-43.9	-45.3	20.4	0.00e+00	0	41	0	794820608	60	6685
2026-01-24 15:24:10.02	276.51	66.41	-42.0	-43.2	21.9	0.00e+00	0	41	0	803209216	58	5844
2026-01-24 15:24:14.05	272.20	65.67	-40.8	-41.8	23.0	0.00e+00	0	41	0	810549248	54	6268
2026-01-24 15:24:18.09	268.19	64.82	-37.7	-38.4	25.3	0.00e+00	83	41	0	817889280	50	5369
2026-01-24 15:24:22.13	264.49	63.88	-38.8	-39.6	24.6	0.00e+00	0	41	0	825229312	50	6140
2026-01-24 15:24:26.17	261.08	62.86	-40.1	-41.1	23.7	0.00e+00	0	41	0	832569344	52	6495
2026-01-24 15:24:30.20	257.97	61.78	-41.6	-42.7	22.2	0.00e+00	0	41	0	840957952	56	6239
2026-01-24 15:24:34.24	255.12	60.65	-41.2	-42.2	22.6	0.00e+00	7	41	0	848297984	56	5886
2026-01-24 15:24:38.28	252.52	59.49	-43.1	-44.4	20.7	0.00e+00	0	41	0	855638016	58	6766
2026-01-24 15:24:42.32	250.14	58.29	-42.1	-43.2	21.8	0.00e+00	0	41	0	862978048	56	6609
2026-01-24 15:24:46.35	247.98	57.08	-39.9	-40.8	23.6	0.00e+00	91	41	0	871366656	54	5569
2026-01-24 15:24:50.39	245.99	55.86	-40.1	-41.0	23.7	0.00e+00	0	41	0	878706688	50	7195
2026-01-24 15:24:54.42	244.18	54.64	-39.9	-40.7	23.7	0.00e+00	0	41	0	886046720	52	6233
2026-01-24 15:24:58.46	242.52	53.41	-41.0	-42.0	22.7	0.00e+00	0	41	0	893386752	54	6398
2026-01-24 15:25:02.50	240.98	52.20	-41.9	-43.0	22.0	0.00e+00	71	41	0	900726784	54	7239
2026-01-24 15:25:06.54	239.57	50.99	-41.9	-43.0	22.3	0.00e+00	0	41	0	909115392	56	6409
2026-01-24 15:25:10.57	238.28	49.80	-41.0	-42.0	23.1	0.00e+00	0	41	0	916455424	56	5700
2026-01-24 15:25:14.61	237.07	48.62	-39.9	-40.8	23.7	0.00e+00	0	41	0	923795456	52	6287
2026-01-24 15:25:18.65	235.96	47.46	-41.3	-42.3	22.2	0.00e+00	55	41	0	931135488	54	6687
2026-01-24 15:25:22.68	234.93	46.33	-42.7	-44.0	21.3	0.00e+00	0	41	0	939524096	60	5711
2026-01-24 15:25:26.72	233.97	45.21	-41.8	-42.9	22.2	0.00e+00	0	41	0	946864128	56	6346
2026-01-24 15:25:30.76	233.07	44.11	-40.7	-41.7	23.0	0.00e+00	35	41	0	954204160	54	6176
2026-01-24 15:25:34.80	232.23	43.04	-42.3	-43.4	21.8	0.00e+00	0	41	0	961544192	56	6720
2026-01-24 15:25:38.83	231.45	41.99	-45.5	-47.2	17.9	0.00e+00	0	41	0	968884224	60	8315
2026-01-24 15:25:42.87	230.72	40.97	-43.6	-44.8	20.7	0.00e+00	0	41	0	977272832	60	6303
2026-01-24 15:25:46.91	230.03	39.96	-42.9	-44.1	21.1	0.00e+00	55	41	0	984612864	58	6497
2026-01-24 15:25:50.93	229.39	38.99	-44.8	-46.5	18.9	0.00e+00	0	41	0	991952896	60	7661
2026-01-24 15:25:54.97	228.78	38.03	-44.6	-46.2	19.4	0.00e+00	0	41	0	999292928	60	7343
2026-01-24 15:25:59.01	228.21	37.10	-45.4	-47.2	18.2	0.00e+00	0	41	0	1006632960	60	8262
2026-01-24 15:26:03.05	227.67	36.19	-41.9	-42.9	22.3	0.00e+00	80	41	0	1015021568	58	5674
2026-01-24 15:26:07.09	227.15	35.30	-41.6	-42.6	22.6	0.00e+00	0	41	0	1022361600	56	6151
2026-01-24 15:26:11.13	226.67	34.43	-44.5	-46.2	19.4	0.00e+00	0	41	0	1029701632	60	7378
2026-01-24 15:26:15.17	226.21	33.58	-43.4	-44.7	20.7	0.00e+00	40	41	0	1037041664	60	6232
2026-01-24 15:26:19.20	225.78	32.76	-43.7	-45.2	20.1	0.00e+00	77	41	0	1045430272	60	6575
2026-01-24 15:26:23.23	225.37	31.96	-42.9	-44.3	20.9	0.00e+00	0	41	0	1052770304	60	5903
2026-01-24 15:26:27.27	224.97	31.17	-43.0	-44.4	20.7	0.00e+00	0	41	0	1060110336	60	5972
2026-01-24 15:26:31.31	224.60	30.40	-42.5	-43.6	21.4	0.00e+00	10	41	0	1067450368	58	6167
2026-01-24 15:26:35.34	224.24	29.66	-45.7	-47.7	18.1	0.00e+00	0	41	0	1074790400	60	8762
2026-01-24 15:26:39.38	223.90	28.93	-44.3	-45.9	19.6	0.00e+00	0	41	0	1083179008	60	7106
2026-01-24 15:26:43.42	223.58	28.22	-44.7	-46.3	19.1	0.00e+00	0	41	0	1090519040	60	7470
2026-01-24 15:26:47.45	223.27	27.52	-44.6	-46.1	19.8	0.00e+00	90	41	0	1097859072	60	7289
2026-01-24 15:26:51.48	222.97	26.84	-43.3	-44.6	21.1	0.00e+00	0	41	0	1105199104	60	6160
2026-01-24 15:26:55.52	222.69	26.18	-43.0	-44.3	21.1	0.00e+00	0	41	0	1113587712	58	6626
2026-01-24 15:26:59.56	222.42	25.53	-43.9	-45.4	20.0	0.00e+00	0	41	0	1120927744	58	7557
2026-01-24 15:27:03.59	222.16	24.90	-45.0	-46.7	18.9	0.00e+00	92	41	0	1128267776	60	7815
2026-01-24 15:27:07.63	221.91	24.28	-43.6	-45.0	20.3	0.00e+00	0	41	0	1135607808	60	6412
2026-01-24 15:27:11.66	221.67	23.67	-42.9	-44.1	21.0	0.00e+00	0	41	0	1142947840	58	6503
2026-01-24 15:27:15.70	221.44	23.08	-43.0	-44.3	21.0	0.00e+00	19	41	0	1151336448	58	6647
2026-01-24 15:27:19.74	221.22	22.50	-42.8	-44.0	20.8	0.00e+00	0	41	0	1158676480	58	6461
2026-01-24 15:27:23.78	221.00	21.93	-42.5	-43.6	21.6	0.00e+00	0	41	0	1166016512	58	6170
2026-01-24 15:27:27.82	220.80	21.38	-42.1	-43.2	21.8	0.00e+00	0	41	0	1173356544	58	5871
2026-01-24 15:27:31.86	220.60	20.84	-43.1	-44.4	20.9	0.00e+00	30	41	0	1180696576	58	6758
2026-01-24 15:27:35.90	220.41	20.30	-43.1	-44.4	20.8	0.00e+00	0	41	0	1189085184	58	6749
2026-01-24 15:27:39.93	220.23	19.78	-43.0	-44.2	20.9	0.00e+00	0	41	0	1196425216	58	6615
2026-01-24 15:27:43.97	220.05	19.27	-42.5	-43.7	21.5	0.00e+00	0	41	0	1203765248	58	6187
2026-01-24 15:27:48.00	219.88	18.77	-42.2	-43.3	21.7	0.00e+00	90	41	0	1211105280	58	5964
2026-01-24 15:27:52.03	219.72	18.28	-42.6	-43.8	21.2	0.00e+00	0	41	0	1219493888	58	6271
2026-01-24 15:27:56.07	219.56	17.80	-42.5	-43.6	21.3	0.00e+00	0	41	0	1226833920	58	6117
2026-01-24 15:28:00.11	219.40	17.32	-41.9	-43.0	22.1	0.00e+00	37	41	0	1234173952	58	5715
2026-01-24 15:28:04.14	219.25	16.86	-42.0	-43.1	22.2	0.00e+00	60	41	0	1241513984	56	6465
2026-01-24 15:28:08.18	219.11	16.40	-41.7	-42.7	22.3	0.00e+00	0	41	0	1248854016	56	6199
2026-01-24 15:28:12.22	218.97	15.95	-41.9	-42.9	22.0	0.00e+00	0	41	0	1257242624	56	6380
2026-01-24 15:28:16.26	218.84	15.51	-42.5	-43.6	21.5	0.00e+00	34	41	0	1264582656	56	6927
2026-01-24 15:28:20.29	218.71	15.08	-42.7	-43.9	21.2	0.00e+00	0	41	0	1271922688	58	6358
2026-01-24 15:28:24.33	218.58	14.66	-42.7	-43.9	21.2	0.00e+00	0	41	0	1279262720	58	6325
2026-01-24 15:28:28.37	218.46	14.24	-42.6	-43.7	21.2	0.00e+00	0	41	0	1287651328	58	6236
2026-01-24 15:28:32.41	218.34	13.83	-42.6	-43.8	21.0	0.00e+00	92	41	0	1294991360	58	6280
2026-01-24 15:28:36.45	218.22	13.42	-42.6	-43.8	21.1	0.00e+00	0	41	0	1302331392	58	6299
2026-01-24 15:28:40.48	218.11	13.03	-43.2	-44.5	20.7	0.00e+00	0	41	0	1309671424	58	6813
2026-01-24 15:28:44.52	218.00	12.63	-43.3	-44.6	20.4	0.00e+00	0	41	0	1317011456	58	6852
2026-01-24 15:28:48.56	217.90	12.25	-43.5	-44.8	20.5	0.00e+00	92	41	0	1325400064	60	6246
2026-01-24 15:28:52.59	217.79	11.87	-43.5	-44.8	20.3	0.00e+00	0	41	0	1332740096	60	6312
2026-01-24 15:28:56.63	217.69	11.50	-42.9	-44.1	21.0	0.00e+00	0	41	0	1340080128	60	5774
2026-01-24 15:29:00.67	217.60	11.13	-42.9	-44.2	20.6	0.00e+00	22	41	0	1347420160	58	6549
2026-01-24 15:29:04.70	217.50	10.77	-43.1	-44.4	20.4	0.00e+00	92	41	0	1354760192	58	6744
2026-01-24 15:29:08.74	217.41	10.41	-43.7	-45.1	19.8	0.00e+00	0	41	0	1363148800	58	7288
2026-01-24 15:29:12.78	217.32	10.05	-43.5	-44.7	20.5	0.00e+00	0	41	0	1370488832	60	6242
2026-01-24 15:29:16.82	217.23	9.71	-43.0	-44.3	20.6	0.00e+00	24	41	0	1377828864	60	5900
2026-01-24 15:29:20.85	217.15	9.36	-43.4	-44.8	20.1	0.00e+00	0	41	0	1385168896	60	6250
2026-01-24 15:29:24.89	217.07	9.03	-43.1	-44.3	20.7	0.00e+00	0	41	0	1393557504	60	5929
2026-01-24 15:29:28.92	216.99	8.69	-43.5	-44.8	20.2	0.00e+00	0	41	0	1400897536	60	6317
2026-01-24 15:29:32.96	216.91	8.36	-43.4	-44.7	20.4	0.00e+00	92	41	0	1408237568	60	6217
2026-01-24 15:29:37.00	216.83	8.04	-44.1	-45.6	19.4	0.00e+00	0	41	0	1415577600	60	6875
2026-01-24 15:29:41.04	216.76	7.71	-44.3	-45.9	19.2	0.00e+00	0	41	0	1422917632	60	7096
2026-01-24 15:29:45.07	216.69	7.40	-44.2	-45.7	19.4	0.00e+00	32	41	0	1431306240	60	6943
2026-01-24 15:29:49.10	216.62	7.09	-44.5	-46.0	19.2	0.00e+00	92	41	0	1438646272	60	7235
2026-01-24 15:29:53.14	216.55	6.78	-44.4	-46.0	19.1	0.00e+00	0	41	0	1445986304	60	7200
2026-01-24 15:29:57.17	216.48	6.47	-44.8	-46.4	18.4	0.00e+00	0	41	0	1453326336	60	7569
2026-01-24 15:30:01.21	216.42	6.17	-45.1	-46.8	18.4	0.00e+00	30	41	0	1460666368	60	7950
2026-01-24 15:30:05.25	216.35	5.87	-44.9	-46.5	18.6	0.00e+00	0	41	0	1469054976	60	7678
2026-01-24 15:30:09.28	216.29	5.57	-45.0	-46.8	18.2	0.00e+00	0	41	0	1476395008	60	7886
2026-01-24 15:30:13.32	216.23	5.28	-46.0	-48.1	16.9	0.00e+00	0	41	0	1483735040	60	9213
2026-01-24 15:30:17.35	216.17	4.99	-44.8	-46.7	17.7	0.00e+00	8	41	0	1491075072	60	7801
2026-01-24 15:30:21.39	216.11	4.70	-45.3	-47.2	17.5	0.00e+00	0	41	0	1499463680	60	8312
2026-01-24 15:30:25.44	216.06	4.42	-45.3	-47.2	17.6	0.00e+00	0	41	0	1506803712	60	8276
2026-01-24 15:30:29.47	216.00	4.14	-46.5	-49.0	15.6	0.00e+00	0	41	0	1514143744	60	10213
2026-01-24 15:30:33.51	215.95	3.86	-44.4	-46.1	18.7	0.00e+00	92	41	0	1521483776	60	7266
2026-01-24 15:30:37.55	215.90	3.59	-46.3	-48.8	16.8	7.00e-07	0	41	0	1528823808	60	9947
2026-01-24 15:30:41.58	215.84	3.32	-44.0	-45.6	18.9	1.52e-05	0	41	0	1537212416	60	6874
2026-01-24 15:30:45.61	215.79	3.05	-45.4	-47.5	16.9	0.00e+00	0	41	0	1544552448	60	8592
2026-01-24 15:30:49.65	215.74	2.78	-51.1	-66.3	3.6	1.51e+00	0	41	104	1546649600	60	74523
2026-01-24 15:30:53.69	215.70	2.51	-51.4	-66.6	3.6	1.51e+00	0	41	104	1546649600	60	76960
2026-01-24 15:30:57.73	215.65	2.25	-51.5	-66.7	3.6	1.51e+00	0	41	104	1546649600	60	78444
2026-01-24 15:31:01.77	215.60	1.99	-51.4	-67.0	3.6	1.51e+00	0	41	104	1546649600	60	80646
2026-01-24 15:31:05.81	215.56	1.74	-51.6	-66.9	3.6	1.51e+00	0	41	104	1546649600	60	79602
2026-01-24 15:31:09.85	215.51	1.48	-51.4	-66.7	3.6	1.51e+00	0	41	104	1546649600	60	78363
2026-01-24 15:31:13.89	215.47	1.23	-51.8	-67.0	3.6	1.51e+00	0	41	104	1546649600	60	80542
2026-01-24 15:31:17.93	215.43	0.98	-52.0	-67.2	3.6	1.51e+00	0	42	104	1546649600	60	82879
2026-01-24 15:31:21.97	215.39	0.73	-52.0	-67.2	3.6	1.51e+00	0	41	104	1546649600	60	82772
2026-01-24 15:31:26.01	215.35	0.48	-52.0	-67.2	3.6	1.51e+00	0	42	104	1546649600	60	82700
2026-01-24 15:31:30.05	215.31	0.24	-52.1	-67.3	3.6	1.51e+00	0	42	104	1546649600	60	84036
2026-01-24 15:31:34.09	215.27	-0.01	-52.4	-67.6	3.6	1.51e+00	0	41	104	1546649600	60	86344

#Closed at: 2026-01-24 15:31:34
#Recorded file [1546 MB]: D:/lorett/data/35029_260125_031609.dat