passes_logs/2026/01/24/R4.6S_Anadyr/R4.6S_Anadyr__20260124_112541_NOAA_21_JPSS-2_rec.log

#Pass ID: 20260124_112541_NOAA 21 (JPSS-2)
#Satellite: NOAA 21 (JPSS-2)
#Configuration: NOAA-21
#almurnet v.1.7.20251203
#Start time: 2026-01-24 11:25:46

#Version: 2.2.20231116
#Station: R4.6S_Anadyr
#Location: 177.4865 lon 64.73178 lat
#TLE: 1 54234U 22150A   26024.10530052  .00000243  00000+0  13599-3 0  9996
#TLE: 2 54234  98.7508 324.8953 0000717 223.3896 136.7224 14.19538773166106

#Time	Az	El	Level	Level2	SNR	BER	BlckErr	Temp	State	Recorded	gain1	gain2
2026-01-24 11:25:46.52	21.51	0.18	-52.0	-53.5	5.7	0.00e+00	0	39	0	0	60	58040
2026-01-24 11:25:49.54	21.81	0.29	-51.8	-64.7	3.5	1.52e+00	0	40	104	0	60	60161
2026-01-24 11:25:52.57	22.12	0.40	-51.7	-64.6	3.5	1.52e+00	0	40	104	0	60	59265
2026-01-24 11:25:55.60	22.43	0.52	-51.5	-64.4	3.5	1.52e+00	0	40	104	0	60	58338
2026-01-24 11:25:58.63	22.73	0.63	-51.4	-64.3	3.5	1.52e+00	0	40	104	0	60	57390
2026-01-24 11:26:01.66	23.05	0.74	-51.0	-63.9	3.5	1.52e+00	0	40	104	0	60	55054
2026-01-24 11:26:04.69	23.36	0.86	-50.7	-63.6	3.5	1.51e+00	0	40	104	0	60	53219
2026-01-24 11:26:07.72	23.68	0.97	-49.9	-62.7	3.5	1.52e+00	0	40	104	0	60	48119
2026-01-24 11:26:10.75	24.00	1.08	-49.9	-62.7	3.5	1.52e+00	0	40	104	0	60	47952
2026-01-24 11:26:13.77	24.32	1.19	-49.8	-62.7	3.5	1.52e+00	0	41	104	0	60	47959
2026-01-24 11:26:16.80	24.64	1.30	-49.8	-62.7	3.5	1.52e+00	0	41	104	0	60	47739
2026-01-24 11:26:19.83	24.97	1.41	-49.8	-62.6	3.5	1.52e+00	0	41	104	0	60	47355
2026-01-24 11:26:22.86	25.29	1.53	-49.8	-62.6	3.5	1.52e+00	0	41	104	0	60	47520
2026-01-24 11:26:25.89	25.62	1.64	-49.7	-62.6	3.5	1.52e+00	0	41	104	0	60	47508
2026-01-24 11:26:28.92	25.96	1.75	-49.7	-62.6	3.5	1.52e+00	0	41	104	0	60	47275
2026-01-24 11:26:31.95	26.29	1.86	-49.7	-62.6	3.5	1.52e+00	0	41	104	0	60	47095
2026-01-24 11:26:34.98	26.63	1.97	-49.7	-62.5	3.5	1.51e+00	0	41	104	0	60	46811
2026-01-24 11:26:38.01	26.97	2.08	-49.8	-62.7	3.5	1.51e+00	0	41	104	0	60	47653
2026-01-24 11:26:41.04	27.31	2.18	-49.8	-62.6	3.5	1.52e+00	0	41	104	0	60	47134
2026-01-24 11:26:44.07	27.66	2.29	-49.8	-62.6	3.5	1.52e+00	0	41	104	0	60	47340
2026-01-24 11:26:47.09	28.00	2.40	-49.7	-62.4	3.5	1.52e+00	0	41	104	0	60	46485
2026-01-24 11:26:50.12	28.35	2.51	-49.7	-62.4	3.5	1.52e+00	0	41	104	0	60	46515
2026-01-24 11:26:53.15	28.70	2.62	-49.7	-61.9	3.5	1.51e+00	0	41	104	0	60	43544
2026-01-24 11:26:56.18	29.06	2.72	-49.4	-59.1	3.6	1.51e+00	0	41	104	0	60	31538
2026-01-24 11:26:59.21	29.41	2.83	-44.9	-47.2	15.5	7.00e-07	120	41	0	5242880	60	8011
2026-01-24 11:27:02.24	29.77	2.94	-42.7	-44.4	17.5	0.00e+00	123	41	0	14680064	58	6504
2026-01-24 11:27:05.27	30.14	3.04	-47.0	-50.4	11.6	2.31e-02	123	41	0	24117248	60	11556
2026-01-24 11:27:08.30	30.50	3.15	-49.7	-59.2	5.4	1.40e+00	92	41	104	25165824	60	31913
2026-01-24 11:27:11.33	30.87	3.25	-40.3	-41.9	19.4	0.00e+00	122	41	104	28311552	54	6144
2026-01-24 11:27:14.35	31.24	3.35	-45.3	-47.5	15.2	4.50e-06	122	41	0	36700160	60	8348
2026-01-24 11:27:17.38	31.61	3.46	-44.3	-46.2	15.8	0.00e+00	123	41	0	46137344	60	7207
2026-01-24 11:27:20.41	31.98	3.56	-46.3	-49.1	13.0	4.50e-05	122	41	0	55574528	60	10037
2026-01-24 11:27:23.44	32.36	3.66	-43.4	-45.0	17.0	0.00e+00	123	41	0	65011712	58	7028
2026-01-24 11:27:26.47	32.74	3.76	-43.3	-44.9	17.4	0.00e+00	122	41	0	74448896	60	6187
2026-01-24 11:27:29.50	33.12	3.87	-42.2	-43.6	19.1	0.00e+00	120	41	0	83886080	56	6667
2026-01-24 11:27:32.53	33.50	3.97	-40.5	-41.6	19.9	0.00e+00	123	41	0	93323264	54	5976
2026-01-24 11:27:35.55	33.89	4.06	-41.2	-42.5	19.7	0.00e+00	122	41	0	102760448	54	6584
2026-01-24 11:27:38.58	34.28	4.16	-41.9	-43.2	18.4	0.00e+00	123	41	0	112197632	54	7204
2026-01-24 11:27:41.61	34.67	4.26	-42.1	-43.5	18.7	0.00e+00	123	41	0	121634816	58	5908
2026-01-24 11:27:44.64	35.07	4.36	-41.0	-42.2	19.4	0.00e+00	120	41	0	131072000	54	6413
2026-01-24 11:27:47.66	35.46	4.46	-42.6	-44.1	18.1	0.00e+00	123	41	0	140509184	58	6303
2026-01-24 11:27:50.70	35.86	4.55	-42.0	-43.4	18.8	0.00e+00	122	41	0	149946368	56	6515
2026-01-24 11:27:53.72	36.26	4.65	-41.5	-42.8	19.6	0.00e+00	122	41	0	159383552	58	5432
2026-01-24 11:27:56.75	36.67	4.74	-38.8	-39.9	22.2	0.00e+00	122	41	0	168820736	52	5491
2026-01-24 11:27:59.78	37.07	4.83	-42.2	-43.6	18.9	0.00e+00	122	41	0	178257920	56	6676
2026-01-24 11:28:02.80	37.48	4.93	-38.8	-39.8	22.3	0.00e+00	120	41	0	187695104	52	5436
2026-01-24 11:28:05.82	37.89	5.02	-40.2	-41.4	20.5	0.00e+00	122	41	0	197132288	52	6522
2026-01-24 11:28:08.85	38.31	5.11	-41.6	-42.9	19.5	0.00e+00	120	41	0	206569472	56	6202
2026-01-24 11:28:11.88	38.73	5.20	-39.5	-40.5	21.6	0.00e+00	123	41	0	216006656	52	5918
2026-01-24 11:28:14.91	39.14	5.29	-39.5	-40.5	21.5	0.00e+00	123	41	0	225443840	52	5903
2026-01-24 11:28:17.93	39.57	5.38	-41.1	-42.4	19.5	0.00e+00	120	41	0	234881024	52	7315
2026-01-24 11:28:20.97	39.99	5.46	-39.2	-40.2	21.6	0.00e+00	123	41	0	244318208	50	6415
2026-01-24 11:28:24.00	40.42	5.55	-39.0	-40.0	21.9	0.00e+00	122	41	0	253755392	52	5591
2026-01-24 11:28:27.02	40.85	5.63	-41.3	-42.6	19.8	0.00e+00	122	41	0	263192576	56	5928
2026-01-24 11:28:30.05	41.28	5.72	-41.1	-42.3	19.8	0.00e+00	122	41	0	272629760	54	6490
2026-01-24 11:28:33.09	41.71	5.80	-41.2	-42.5	19.8	0.00e+00	122	41	0	282066944	54	6600
2026-01-24 11:28:36.11	42.15	5.88	-40.0	-41.1	21.2	0.00e+00	120	41	0	291504128	52	6302
2026-01-24 11:28:39.14	42.59	5.96	-41.4	-42.7	19.4	0.00e+00	120	41	0	301989888	56	6035
2026-01-24 11:28:42.17	43.03	6.04	-41.8	-43.1	19.4	0.00e+00	123	42	0	310378496	56	6314
2026-01-24 11:28:45.20	43.47	6.12	-41.1	-42.3	19.9	0.00e+00	123	41	0	320864256	54	6451
2026-01-24 11:28:48.23	43.92	6.20	-40.7	-41.9	20.3	0.00e+00	123	41	0	329252864	54	6157
2026-01-24 11:28:51.26	44.37	6.27	-41.3	-42.6	19.7	0.00e+00	123	41	0	339738624	54	6676
2026-01-24 11:28:54.28	44.81	6.35	-39.8	-40.9	21.0	0.00e+00	120	41	0	349175808	54	5528
2026-01-24 11:28:57.31	45.27	6.42	-41.1	-42.4	19.9	0.00e+00	123	42	0	358612992	54	6510
2026-01-24 11:29:00.34	45.72	6.49	-40.7	-41.9	20.6	0.00e+00	122	41	0	368050176	56	5488
2026-01-24 11:29:03.36	46.18	6.56	-40.0	-41.1	20.7	0.00e+00	122	41	0	377487360	52	6342
2026-01-24 11:29:06.40	46.64	6.63	-40.1	-41.2	21.0	0.00e+00	122	42	0	386924544	54	5697
2026-01-24 11:29:09.42	47.10	6.70	-39.7	-40.8	21.3	0.00e+00	122	42	0	396361728	52	6123
2026-01-24 11:29:12.46	47.56	6.77	-39.4	-40.5	21.6	0.00e+00	122	41	0	405798912	52	5891
2026-01-24 11:29:15.48	48.03	6.83	-40.3	-41.4	21.1	0.00e+00	123	42	0	415236096	52	6524
2026-01-24 11:29:18.51	48.49	6.90	-40.2	-41.3	20.7	0.00e+00	123	41	0	424673280	52	6462
2026-01-24 11:29:21.54	48.96	6.96	-39.8	-40.8	21.4	0.00e+00	122	42	0	434110464	52	6124
2026-01-24 11:29:24.57	49.43	7.02	-40.8	-42.0	20.3	0.00e+00	123	41	0	443547648	54	6234
2026-01-24 11:29:27.60	49.91	7.08	-39.9	-40.9	21.4	0.00e+00	123	42	0	452984832	54	5524
2026-01-24 11:29:30.62	50.38	7.14	-39.4	-40.4	21.7	0.00e+00	123	42	0	462422016	52	5855
2026-01-24 11:29:33.65	50.86	7.20	-39.5	-40.5	21.7	0.00e+00	120	41	0	471859200	52	5907
2026-01-24 11:29:36.67	51.33	7.25	-39.8	-40.9	21.2	0.00e+00	123	42	0	481296384	52	6161
2026-01-24 11:29:39.70	51.82	7.30	-40.6	-41.8	20.6	0.00e+00	123	42	0	490733568	54	6089
2026-01-24 11:29:42.73	52.30	7.36	-40.4	-41.6	20.7	0.00e+00	122	42	0	500170752	52	6656
2026-01-24 11:29:45.75	52.78	7.41	-39.4	-40.4	21.7	0.00e+00	123	42	0	509607936	52	5835
2026-01-24 11:29:48.78	53.26	7.45	-40.2	-41.4	20.9	0.00e+00	122	42	0	519045120	52	6514
2026-01-24 11:29:51.81	53.75	7.50	-39.3	-40.4	21.7	0.00e+00	123	42	0	528482304	52	5819
2026-01-24 11:29:54.84	54.24	7.55	-39.6	-40.7	21.5	0.00e+00	123	42	0	537919488	52	6026
2026-01-24 11:29:57.87	54.73	7.59	-39.5	-40.6	21.7	0.00e+00	121	42	0	547356672	52	5954
2026-01-24 11:30:00.89	55.22	7.63	-39.4	-40.4	21.8	0.00e+00	123	42	0	556793856	52	5831
2026-01-24 11:30:03.92	55.71	7.67	-39.8	-40.9	21.5	0.00e+00	122	42	0	566231040	52	6140
2026-01-24 11:30:06.95	56.21	7.71	-40.1	-41.3	20.9	0.00e+00	122	42	0	575668224	52	6424
2026-01-24 11:30:09.98	56.70	7.75	-40.2	-41.3	20.9	0.00e+00	123	42	0	585105408	52	6483
2026-01-24 11:30:13.00	57.20	7.78	-39.2	-40.2	21.9	0.00e+00	123	42	0	594542592	52	5706
2026-01-24 11:30:16.03	57.69	7.81	-40.1	-41.2	21.2	0.00e+00	123	42	0	603979776	52	6369
2026-01-24 11:30:19.06	58.19	7.85	-40.0	-41.1	21.3	0.00e+00	123	42	0	613416960	52	6305
2026-01-24 11:30:22.09	58.69	7.88	-40.1	-41.2	21.3	0.00e+00	123	42	0	622854144	52	6379
2026-01-24 11:30:25.12	59.19	7.90	-40.4	-41.5	20.9	0.00e+00	123	42	0	632291328	52	6634
2026-01-24 11:30:28.15	59.69	7.93	-40.2	-41.3	21.2	0.00e+00	122	42	0	641728512	52	6487
2026-01-24 11:30:31.17	60.19	7.95	-39.0	-40.1	22.3	0.00e+00	121	42	0	651165696	52	5598
2026-01-24 11:30:34.20	60.70	7.97	-40.0	-41.1	21.1	0.00e+00	122	42	0	660602880	52	6332
2026-01-24 11:30:37.23	61.20	7.99	-39.3	-40.4	21.9	0.00e+00	122	42	0	670040064	52	5794
2026-01-24 11:30:40.26	61.71	8.01	-39.4	-40.5	21.6	0.00e+00	120	42	0	679477248	52	5900
2026-01-24 11:30:43.29	62.21	8.03	-40.0	-41.1	21.1	0.00e+00	122	42	0	689963008	52	6314
2026-01-24 11:30:46.32	62.72	8.04	-38.7	-39.7	22.5	0.00e+00	123	42	0	698351616	50	6041
2026-01-24 11:30:49.34	63.22	8.06	-39.0	-40.1	22.0	0.00e+00	123	42	0	708837376	50	6300
2026-01-24 11:30:52.37	63.73	8.07	-39.4	-40.4	21.6	0.00e+00	123	42	0	717225984	52	5856
2026-01-24 11:30:55.40	64.24	8.08	-39.3	-40.4	21.7	0.00e+00	123	42	0	727711744	52	5832
2026-01-24 11:30:58.43	64.74	8.08	-40.0	-41.1	21.1	0.00e+00	123	42	0	737148928	52	6314
2026-01-24 11:31:01.47	65.25	8.09	-39.9	-41.0	21.2	0.00e+00	123	42	0	746586112	52	6246
2026-01-24 11:31:04.49	65.76	8.09	-40.0	-41.1	21.1	0.00e+00	122	42	0	756023296	52	6298
2026-01-24 11:31:07.52	66.27	8.09	-39.6	-40.7	21.5	0.00e+00	122	42	0	765460480	52	6038
2026-01-24 11:31:10.56	66.77	8.09	-39.1	-40.2	21.9	0.00e+00	120	42	0	774897664	52	5668
2026-01-24 11:31:13.58	67.28	8.09	-39.1	-40.2	22.0	0.00e+00	122	42	0	784334848	52	5672
2026-01-24 11:31:16.61	67.79	8.08	-39.1	-40.1	22.0	0.00e+00	123	42	0	793772032	52	5641
2026-01-24 11:31:19.64	68.30	8.08	-39.2	-40.2	21.7	0.00e+00	120	42	0	803209216	52	5708
2026-01-24 11:31:22.67	68.80	8.07	-38.8	-39.8	22.3	0.00e+00	121	42	0	812646400	50	6078
2026-01-24 11:31:25.70	69.31	8.06	-39.6	-40.7	21.5	0.00e+00	122	42	0	822083584	52	6027
2026-01-24 11:31:28.74	69.82	8.05	-39.9	-41.0	21.3	0.00e+00	122	42	0	831520768	52	6247
2026-01-24 11:31:31.76	70.32	8.03	-38.5	-39.5	22.5	0.00e+00	120	42	0	840957952	50	5905
2026-01-24 11:31:34.80	70.83	8.02	-38.8	-39.9	22.2	0.00e+00	122	42	0	850395136	50	6146
2026-01-24 11:31:37.82	71.33	8.00	-39.5	-40.6	21.6	0.00e+00	123	42	0	859832320	52	5939
2026-01-24 11:31:40.85	71.84	7.98	-39.1	-40.2	21.9	0.00e+00	122	42	0	869269504	50	6374
2026-01-24 11:31:43.88	72.34	7.96	-39.5	-40.6	21.5	0.00e+00	123	42	0	878706688	50	6655
2026-01-24 11:31:46.91	72.85	7.93	-39.3	-40.3	21.8	0.00e+00	122	42	0	888143872	50	6496
2026-01-24 11:31:49.94	73.35	7.91	-39.6	-40.7	21.5	0.00e+00	123	42	0	897581056	50	6755
2026-01-24 11:31:52.97	73.85	7.88	-39.2	-40.3	21.9	0.00e+00	122	42	0	907018240	50	6428
2026-01-24 11:31:56.00	74.35	7.85	-39.6	-40.6	21.3	0.00e+00	123	42	0	916455424	50	6716
2026-01-24 11:31:59.03	74.85	7.82	-39.6	-40.7	21.5	0.00e+00	123	42	0	925892608	52	6017
2026-01-24 11:32:02.02	75.34	7.79	-39.6	-40.7	21.3	0.00e+00	123	42	0	935329792	52	6055
2026-01-24 11:32:05.05	75.84	7.75	-39.7	-40.8	21.3	0.00e+00	122	42	0	944766976	52	6133
2026-01-24 11:32:08.09	76.34	7.72	-39.8	-40.9	21.4	0.00e+00	123	42	0	954204160	52	6148
2026-01-24 11:32:11.12	76.83	7.68	-40.3	-41.4	20.9	0.00e+00	123	42	0	963641344	52	6543
2026-01-24 11:32:14.15	77.33	7.64	-39.8	-41.0	21.2	0.00e+00	123	42	0	973078528	52	6218
2026-01-24 11:32:17.18	77.82	7.60	-39.7	-40.8	21.4	0.00e+00	122	42	0	982515712	52	6127
2026-01-24 11:32:20.21	78.31	7.56	-39.8	-40.9	21.3	0.00e+00	122	42	0	991952896	52	6155
2026-01-24 11:32:23.24	78.80	7.51	-39.8	-40.9	21.3	0.00e+00	123	42	0	1001390080	52	6137
2026-01-24 11:32:26.26	79.29	7.46	-39.7	-40.8	21.3	0.00e+00	122	42	0	1010827264	52	6104
2026-01-24 11:32:29.29	79.78	7.42	-39.6	-40.7	21.4	0.00e+00	122	42	0	1020264448	52	6024
2026-01-24 11:32:32.32	80.26	7.37	-39.7	-40.8	21.4	0.00e+00	123	42	0	1029701632	52	6101
2026-01-24 11:32:35.34	80.74	7.31	-39.4	-40.5	21.6	0.00e+00	123	42	0	1039138816	52	5905
2026-01-24 11:32:38.37	81.23	7.26	-40.1	-41.3	20.8	0.00e+00	120	42	0	1048576000	52	6440
2026-01-24 11:32:41.41	81.71	7.21	-40.2	-41.4	20.7	0.00e+00	123	42	0	1058013184	52	6526
2026-01-24 11:32:44.44	82.19	7.15	-39.4	-40.5	21.6	0.00e+00	122	42	0	1068498944	52	5876
2026-01-24 11:32:47.46	82.66	7.09	-39.3	-40.4	21.7	0.00e+00	121	42	0	1077936128	52	5799
2026-01-24 11:32:50.49	83.14	7.03	-40.0	-41.2	21.0	0.00e+00	122	42	0	1087373312	52	6354
2026-01-24 11:32:53.52	83.61	6.97	-40.0	-41.1	21.2	0.00e+00	123	42	0	1096810496	52	6295
2026-01-24 11:32:56.55	84.08	6.91	-39.8	-40.9	21.3	0.00e+00	123	42	0	1106247680	52	6150
2026-01-24 11:32:59.58	84.55	6.84	-39.4	-40.4	21.4	0.00e+00	123	42	0	1115684864	52	5857
2026-01-24 11:33:02.61	85.02	6.78	-39.7	-40.8	21.5	0.00e+00	123	42	0	1125122048	52	6117
2026-01-24 11:33:05.63	85.48	6.71	-39.9	-41.0	21.1	0.00e+00	122	42	0	1134559232	52	6244
2026-01-24 11:33:08.67	85.95	6.64	-38.8	-39.9	21.8	0.00e+00	123	42	0	1143996416	52	5478
2026-01-24 11:33:11.69	86.41	6.57	-39.7	-40.8	20.9	0.00e+00	123	42	0	1153433600	52	6096
2026-01-24 11:33:14.72	86.86	6.50	-39.5	-40.7	21.1	0.00e+00	125	42	0	1162870784	52	6011
2026-01-24 11:33:17.75	87.32	6.43	-39.8	-40.9	20.8	0.00e+00	123	42	0	1172307968	52	6172
2026-01-24 11:33:20.78	87.78	6.36	-39.3	-40.3	21.8	0.00e+00	120	42	0	1181745152	52	5781
2026-01-24 11:33:23.81	88.23	6.28	-39.5	-40.6	21.4	0.00e+00	123	42	0	1191182336	52	5984
2026-01-24 11:33:26.84	88.68	6.21	-39.9	-41.0	20.8	0.00e+00	123	42	0	1200619520	52	6268
2026-01-24 11:33:29.87	89.13	6.13	-40.0	-41.1	20.9	0.00e+00	122	42	0	1210056704	52	6324
2026-01-24 11:33:32.90	89.57	6.05	-40.1	-41.3	20.7	0.00e+00	122	42	0	1219493888	52	6428
2026-01-24 11:33:35.93	90.02	5.97	-39.8	-40.9	21.1	0.00e+00	122	42	0	1228931072	52	6204
2026-01-24 11:33:38.96	90.46	5.89	-39.7	-40.7	21.3	0.00e+00	123	42	0	1238368256	52	6058
2026-01-24 11:33:41.99	90.90	5.81	-39.4	-40.5	21.4	0.00e+00	120	42	0	1247805440	52	5888
2026-01-24 11:33:45.02	91.33	5.72	-39.6	-40.7	21.3	0.00e+00	123	42	0	1257242624	52	6060
2026-01-24 11:33:48.05	91.77	5.64	-41.0	-42.2	19.9	0.00e+00	123	42	0	1266679808	54	6400
2026-01-24 11:33:51.08	92.20	5.55	-40.0	-41.2	20.9	0.00e+00	123	42	0	1276116992	54	5660
2026-01-24 11:33:54.11	92.63	5.47	-40.4	-41.5	20.4	0.00e+00	122	42	0	1285554176	52	6644
2026-01-24 11:33:57.14	93.05	5.38	-39.2	-40.3	21.6	0.00e+00	123	41	0	1294991360	52	5775
2026-01-24 11:34:00.16	93.48	5.29	-39.4	-40.5	21.2	0.00e+00	123	41	0	1304428544	50	6624
2026-01-24 11:34:03.19	93.90	5.20	-39.7	-40.9	21.1	0.00e+00	123	41	0	1313865728	52	6172
2026-01-24 11:34:06.22	94.32	5.11	-40.9	-42.2	19.7	0.00e+00	123	42	0	1323302912	54	6361
2026-01-24 11:34:09.25	94.74	5.02	-41.4	-42.8	19.3	0.00e+00	123	42	0	1332740096	54	6816
2026-01-24 11:34:12.27	95.15	4.93	-41.3	-42.6	19.6	0.00e+00	121	41	0	1342177280	56	5947
2026-01-24 11:34:15.30	95.56	4.83	-40.2	-41.5	20.5	0.00e+00	123	42	0	1351614464	54	5893
2026-01-24 11:34:18.33	95.97	4.74	-40.1	-41.4	20.6	0.00e+00	123	41	0	1361051648	54	5796
2026-01-24 11:34:21.36	96.38	4.65	-41.1	-42.4	19.5	0.00e+00	122	41	0	1370488832	54	6547
2026-01-24 11:34:24.39	96.78	4.55	-41.2	-42.6	19.0	0.00e+00	122	41	0	1379926016	54	6716
2026-01-24 11:34:27.42	97.18	4.45	-41.3	-42.6	19.4	0.00e+00	123	41	0	1389363200	54	6691
2026-01-24 11:34:30.45	97.58	4.36	-40.4	-41.7	19.9	0.00e+00	121	41	0	1398800384	54	6002
2026-01-24 11:34:33.48	97.98	4.26	-41.2	-42.5	19.3	0.00e+00	122	41	0	1409286144	54	6609
2026-01-24 11:34:36.51	98.37	4.16	-40.9	-42.3	19.5	0.00e+00	123	41	0	1417674752	54	6460
2026-01-24 11:34:39.54	98.76	4.06	-40.5	-42.1	19.1	0.00e+00	123	41	0	1428160512	54	6283
2026-01-24 11:34:42.57	99.15	3.96	-40.3	-41.6	20.0	0.00e+00	120	41	0	1437597696	54	5947
2026-01-24 11:34:45.60	99.54	3.86	-40.9	-42.4	18.8	0.00e+00	123	41	0	1447034880	54	6513
2026-01-24 11:34:48.63	99.92	3.75	-40.9	-42.3	19.3	0.00e+00	122	41	0	1456472064	54	6484
2026-01-24 11:34:51.66	100.30	3.65	-40.0	-41.2	20.1	0.00e+00	123	41	0	1465909248	54	5662
2026-01-24 11:34:54.69	100.68	3.55	-41.2	-42.7	19.2	0.00e+00	122	41	0	1475346432	54	6794
2026-01-24 11:34:57.72	101.06	3.45	-39.8	-42.2	19.2	0.00e+00	122	41	0	1484783616	52	7184
2026-01-24 11:35:00.75	101.43	3.34	-40.1	-43.1	18.3	0.00e+00	120	41	0	1494220800	52	7926
2026-01-24 11:35:03.78	101.80	3.24	-40.8	-42.2	19.2	0.00e+00	122	41	0	1503657984	54	6421
2026-01-24 11:35:06.81	102.17	3.13	-41.4	-43.0	18.3	0.00e+00	122	41	0	1513095168	54	6983
2026-01-24 11:35:09.84	102.54	3.02	-42.2	-43.7	18.2	0.00e+00	122	41	0	1522532352	58	6042
2026-01-24 11:35:12.87	102.90	2.92	-50.8	-63.6	3.5	1.52e+00	0	41	104	1524629504	60	53248
2026-01-24 11:35:15.90	103.26	2.81	-51.1	-64.0	3.5	1.51e+00	0	41	104	1524629504	60	55495
2026-01-24 11:35:18.93	103.62	2.70	-51.2	-64.1	3.5	1.52e+00	0	41	104	1524629504	60	56152
2026-01-24 11:35:21.96	103.98	2.60	-51.3	-64.2	3.5	1.52e+00	0	41	104	1524629504	60	56878
2026-01-24 11:35:24.99	104.33	2.49	-51.3	-64.2	3.5	1.52e+00	0	41	104	1524629504	60	57072
2026-01-24 11:35:28.01	104.68	2.38	-51.3	-64.2	3.5	1.52e+00	0	41	104	1524629504	60	56598
2026-01-24 11:35:31.04	105.03	2.27	-51.3	-64.2	3.5	1.52e+00	0	41	104	1524629504	60	56683
2026-01-24 11:35:34.07	105.38	2.16	-51.4	-64.2	3.5	1.52e+00	0	41	104	1524629504	60	56951
2026-01-24 11:35:37.10	105.72	2.05	-51.5	-64.4	3.5	1.52e+00	0	41	104	1524629504	60	58145
2026-01-24 11:35:40.13	106.06	1.94	-51.5	-64.4	3.5	1.52e+00	0	41	104	1524629504	60	58266
2026-01-24 11:35:43.15	106.40	1.83	-51.8	-64.7	3.5	1.52e+00	0	41	104	1524629504	60	60200
2026-01-24 11:35:46.19	106.74	1.72	-51.8	-64.7	3.5	1.52e+00	0	41	104	1524629504	60	60004
2026-01-24 11:35:49.21	107.07	1.61	-51.9	-64.8	3.5	1.52e+00	0	41	104	1524629504	60	61010
2026-01-24 11:35:52.24	107.40	1.49	-51.6	-64.5	3.5	1.51e+00	0	41	104	1524629504	60	58922
2026-01-24 11:35:55.27	107.73	1.38	-51.9	-64.8	3.5	1.52e+00	0	41	104	1524629504	60	60940
2026-01-24 11:35:58.30	108.06	1.27	-51.8	-64.7	3.5	1.52e+00	0	41	104	1524629504	60	60326
2026-01-24 11:36:01.33	108.38	1.16	-51.8	-64.7	3.5	1.52e+00	0	41	104	1524629504	60	59988
2026-01-24 11:36:04.36	108.70	1.04	-51.5	-64.4	3.5	1.52e+00	0	41	104	1524629504	60	58102
2026-01-24 11:36:07.38	109.02	0.93	-51.5	-64.3	3.5	1.51e+00	0	41	104	1524629504	60	57892
2026-01-24 11:36:10.41	109.34	0.82	-52.0	-64.8	3.5	1.52e+00	0	41	104	1524629504	60	61098
2026-01-24 11:36:13.44	109.66	0.70	-52.2	-65.1	3.5	1.52e+00	0	41	104	1524629504	60	62794
2026-01-24 11:36:16.47	109.97	0.59	-51.9	-64.8	3.5	1.52e+00	0	41	104	1524629504	60	61199
2026-01-24 11:36:19.49	110.28	0.47	-52.2	-65.1	3.5	1.52e+00	0	41	104	1524629504	60	63218
2026-01-24 11:36:22.52	110.59	0.36	-51.9	-64.7	3.5	1.52e+00	0	41	104	1524629504	60	60560
2026-01-24 11:36:25.55	110.89	0.25	-52.1	-64.9	3.5	1.51e+00	0	41	104	1524629504	60	61984
2026-01-24 11:36:28.58	111.20	0.13	-52.2	-65.1	3.5	1.52e+00	0	41	104	1524629504	60	62843
2026-01-24 11:36:31.61	111.50	0.02	-52.1	-65.0	3.5	1.52e+00	0	41	104	1524629504	60	62197

#Closed at: 2026-01-24 11:36:33
#Recorded file [1524 MB]: D:/lorett/data/35029_260124_232546.dat