passes_logs/2026/01/24/R4.6S_Anadyr/R4.6S_Anadyr__20260124_013041_SUOMI_NPP_rec.log

#Pass ID: 20260124_013041_SUOMI NPP
#Satellite: SUOMI NPP
#Configuration: NPP
#almurnet v.1.7.20251203
#Start time: 2026-01-24 01:34:07

#Version: 2.2.20231116
#Station: R4.6S_Anadyr
#Location: 177.4865 lon 64.73178 lat
#TLE: 1 37849U 11061A   26023.63275593  .00000212  00000+0  12133-3 0  9990
#TLE: 2 37849  98.7820 325.6074 0002234  48.9695 311.1673 14.19528901737937

#Time	Az	El	Level	Level2	SNR	BER	BlckErr	Temp	State	Recorded	gain1	gain2
2026-01-24 01:34:07.05	200.19	14.79	-51.9	-69.5	3.5	3.03e+01	0	41	0	0	60	115469
2026-01-24 01:34:10.07	200.51	15.07	-51.2	-66.5	3.6	1.51e+00	0	42	104	0	60	76328
2026-01-24 01:34:13.10	200.82	15.36	-51.3	-66.5	3.6	1.51e+00	0	42	104	0	60	76173
2026-01-24 01:34:16.13	201.15	15.65	-51.2	-66.5	3.6	1.51e+00	0	41	104	0	60	75985
2026-01-24 01:34:19.16	201.48	15.94	-51.2	-66.4	3.6	1.51e+00	0	41	104	0	60	75574
2026-01-24 01:34:22.19	201.82	16.23	-51.0	-66.3	3.6	1.51e+00	0	42	104	0	60	74924
2026-01-24 01:34:25.21	202.16	16.53	-50.9	-66.1	3.6	1.51e+00	0	41	104	0	60	72844
2026-01-24 01:34:28.24	202.51	16.82	-50.8	-66.1	3.6	1.51e+00	0	41	104	0	60	73334
2026-01-24 01:34:31.27	202.86	17.13	-50.8	-66.1	3.6	1.51e+00	0	42	104	0	60	72935
2026-01-24 01:34:34.30	203.23	17.43	-50.8	-65.9	3.6	1.51e+00	0	42	104	0	60	71325
2026-01-24 01:34:37.33	203.60	17.74	-50.8	-66.1	3.6	1.51e+00	0	42	104	0	60	73171
2026-01-24 01:34:40.36	203.98	18.05	-50.8	-66.1	3.6	1.51e+00	0	42	104	0	60	73094
2026-01-24 01:34:43.39	204.36	18.36	-50.8	-66.2	3.6	1.51e+00	0	42	104	0	60	73460
2026-01-24 01:34:46.41	204.76	18.67	-50.8	-66.0	3.6	1.51e+00	0	42	104	0	60	72181
2026-01-24 01:34:49.44	205.16	18.99	-50.8	-66.1	3.6	1.51e+00	0	42	104	0	60	72786
2026-01-24 01:34:52.47	205.57	19.31	-50.8	-66.1	3.6	1.51e+00	0	42	104	0	60	73254
2026-01-24 01:34:55.50	205.98	19.63	-50.8	-65.9	3.6	1.51e+00	0	42	104	0	60	71567
2026-01-24 01:34:58.52	206.41	19.96	-50.8	-66.1	3.6	1.51e+00	0	42	104	0	60	72545
2026-01-24 01:35:01.56	206.85	20.29	-50.7	-64.7	3.6	1.41e+00	0	42	104	0	60	62258
2026-01-24 01:35:04.59	207.29	20.62	-43.6	-45.0	20.2	0.00e+00	92	42	0	2097152	60	6435
2026-01-24 01:35:07.62	207.75	20.96	-42.7	-43.9	20.4	2.17e-01	92	42	0	8388608	58	6351
2026-01-24 01:35:10.65	208.21	21.29	-43.7	-45.1	19.7	0.00e+00	0	42	0	10485760	60	6529
2026-01-24 01:35:13.68	208.68	21.63	-41.8	-42.9	21.8	0.00e+00	92	42	0	15728640	56	6340
2026-01-24 01:35:16.71	209.17	21.97	-41.2	-42.2	22.3	0.00e+00	87	42	0	22020096	56	5882
2026-01-24 01:35:19.74	209.66	22.32	-40.6	-41.6	22.9	0.00e+00	17	42	0	27262976	54	6118
2026-01-24 01:35:22.76	210.17	22.67	-40.8	-41.8	22.5	0.00e+00	0	42	0	33554432	54	6313
2026-01-24 01:35:25.79	210.68	23.01	-41.7	-42.8	21.8	0.00e+00	92	42	0	38797312	54	7016
2026-01-24 01:35:28.82	211.21	23.37	-42.1	-43.3	21.6	0.00e+00	92	42	0	45088768	56	6647
2026-01-24 01:35:31.85	211.75	23.72	-41.5	-42.5	22.2	0.00e+00	0	42	0	50331648	56	6099
2026-01-24 01:35:34.88	212.30	24.08	-41.0	-42.0	22.7	0.00e+00	92	41	0	55574528	56	5712
2026-01-24 01:35:37.91	212.86	24.44	-41.1	-42.1	22.4	0.00e+00	92	42	0	61865984	54	6478
2026-01-24 01:35:40.93	213.44	24.80	-41.2	-42.2	22.4	0.00e+00	0	42	0	67108864	54	6580
2026-01-24 01:35:43.96	214.03	25.16	-40.4	-41.3	23.1	0.00e+00	92	42	0	73400320	54	5932
2026-01-24 01:35:46.99	214.63	25.52	-39.8	-40.7	22.7	0.00e+00	91	42	0	78643200	54	5552
2026-01-24 01:35:50.01	215.25	25.89	-40.0	-40.9	23.3	0.00e+00	66	42	0	83886080	54	5688
2026-01-24 01:35:53.05	215.88	26.26	-41.0	-42.1	22.3	0.00e+00	0	42	0	90177536	54	6468
2026-01-24 01:35:56.07	216.52	26.63	-41.0	-42.0	22.5	0.00e+00	73	42	0	95420416	54	6413
2026-01-24 01:35:59.10	217.18	27.00	-40.8	-41.8	22.7	0.00e+00	63	42	0	101711872	54	6293
2026-01-24 01:36:02.13	217.86	27.37	-41.1	-42.1	22.4	0.00e+00	33	42	0	106954752	54	6507
2026-01-24 01:36:05.16	218.55	27.74	-42.0	-43.1	21.8	0.00e+00	92	42	0	112197632	56	6528
2026-01-24 01:36:08.19	219.25	28.11	-41.6	-42.7	22.2	0.00e+00	92	42	0	118489088	56	6210
2026-01-24 01:36:11.22	219.98	28.49	-41.3	-42.3	22.4	0.00e+00	0	42	0	123731968	56	5945
2026-01-24 01:36:14.25	220.72	28.86	-41.8	-42.9	21.8	0.00e+00	0	42	0	130023424	56	6365
2026-01-24 01:36:17.28	221.47	29.23	-41.5	-42.6	22.2	0.00e+00	85	41	0	135266304	56	6137
2026-01-24 01:36:20.31	222.25	29.60	-41.6	-42.7	22.2	0.00e+00	0	42	0	141557760	56	6185
2026-01-24 01:36:23.34	223.04	29.98	-41.5	-42.5	22.2	0.00e+00	0	41	0	146800640	56	6095
2026-01-24 01:36:26.37	223.85	30.35	-42.3	-43.5	21.2	0.00e+00	92	42	0	152043520	56	6791
2026-01-24 01:36:29.39	224.67	30.71	-42.8	-44.1	20.8	0.00e+00	92	41	0	158334976	58	6513
2026-01-24 01:36:32.42	225.52	31.08	-42.4	-43.6	21.4	0.00e+00	0	42	0	163577856	58	6128
2026-01-24 01:36:35.44	226.38	31.44	-43.0	-44.3	20.7	0.00e+00	92	42	0	169869312	58	6654
2026-01-24 01:36:38.47	227.27	31.81	-44.3	-45.8	19.4	0.00e+00	84	42	0	175112192	60	7048
2026-01-24 01:36:41.50	228.17	32.16	-45.7	-47.6	17.8	0.00e+00	0	41	0	180355072	60	8716
2026-01-24 01:36:44.53	229.09	32.52	-44.9	-46.6	18.9	0.00e+00	0	42	0	186646528	60	7743
2026-01-24 01:36:47.56	230.04	32.87	-45.1	-46.8	18.7	0.00e+00	77	42	0	191889408	60	7874
2026-01-24 01:36:50.58	231.00	33.22	-46.4	-48.6	16.8	0.00e+00	92	42	0	198180864	60	9726
2026-01-24 01:36:53.61	231.98	33.56	-46.8	-49.3	16.2	0.00e+00	0	42	0	203423744	60	10570
2026-01-24 01:36:56.64	232.99	33.89	-45.6	-47.4	18.2	0.00e+00	92	42	0	209715200	60	8494
2026-01-24 01:36:59.67	234.01	34.22	-46.6	-48.8	16.1	0.00e+00	92	42	0	214958080	60	9941
2026-01-24 01:37:02.69	235.05	34.54	-46.9	-49.3	16.4	0.00e+00	0	42	0	220200960	60	10606
2026-01-24 01:37:05.72	236.12	34.86	-45.7	-47.5	18.0	0.00e+00	92	42	0	226492416	60	8590
2026-01-24 01:37:08.75	237.20	35.17	-46.1	-48.1	17.4	0.00e+00	91	42	0	231735296	60	9229
2026-01-24 01:37:11.78	238.31	35.47	-46.0	-47.9	17.5	0.00e+00	2	42	0	238026752	60	8981
2026-01-24 01:37:14.81	239.43	35.76	-44.5	-46.0	19.4	0.00e+00	0	42	0	243269632	60	7214
2026-01-24 01:37:17.84	240.57	36.03	-43.0	-44.3	20.9	0.00e+00	64	42	0	248512512	60	5914
2026-01-24 01:37:20.87	241.74	36.30	-42.8	-44.0	21.2	0.00e+00	90	42	0	254803968	60	5720
2026-01-24 01:37:23.90	242.92	36.56	-41.9	-43.0	22.0	0.00e+00	0	42	0	260046848	56	6398
2026-01-24 01:37:26.92	244.12	36.81	-42.6	-43.8	21.4	0.00e+00	91	42	0	266338304	56	7027
2026-01-24 01:37:29.95	245.33	37.04	-42.3	-43.4	21.7	0.00e+00	92	42	0	271581184	56	6721
2026-01-24 01:37:32.98	246.57	37.26	-41.2	-42.2	22.6	0.00e+00	0	42	0	277872640	56	5847
2026-01-24 01:37:36.01	247.82	37.47	-42.3	-43.4	21.6	0.00e+00	0	42	0	283115520	56	6716
2026-01-24 01:37:39.04	249.08	37.67	-42.2	-43.3	21.7	0.00e+00	44	42	0	288358400	58	5943
2026-01-24 01:37:42.06	250.36	37.85	-42.9	-44.1	21.1	0.00e+00	0	42	0	294649856	58	6520
2026-01-24 01:37:45.09	251.65	38.01	-41.6	-42.6	22.3	0.00e+00	0	42	0	299892736	56	6124
2026-01-24 01:37:48.12	252.96	38.16	-41.5	-42.5	22.4	0.00e+00	92	42	0	306184192	56	6070
2026-01-24 01:37:51.15	254.27	38.29	-42.5	-43.6	21.6	0.00e+00	92	42	0	311427072	56	6923
2026-01-24 01:37:54.18	255.60	38.41	-42.8	-44.0	20.9	0.00e+00	0	42	0	316669952	58	6443
2026-01-24 01:37:57.21	256.94	38.51	-41.1	-42.1	22.8	0.00e+00	92	42	0	322961408	56	5796
2026-01-24 01:38:00.24	258.28	38.59	-42.0	-43.2	21.9	0.00e+00	87	42	0	328204288	56	6540
2026-01-24 01:38:03.27	259.63	38.66	-43.3	-44.6	20.6	0.00e+00	0	42	0	334495744	58	6881
2026-01-24 01:38:06.30	260.98	38.71	-42.3	-43.4	21.7	0.00e+00	0	42	0	339738624	58	5980
2026-01-24 01:38:09.32	262.33	38.74	-42.2	-43.3	21.8	0.00e+00	63	42	0	346030080	58	5926
2026-01-24 01:38:12.35	263.69	38.75	-43.8	-45.2	20.0	0.00e+00	89	42	0	351272960	58	7379
2026-01-24 01:38:15.38	265.05	38.75	-44.4	-45.9	19.7	0.00e+00	0	42	0	356515840	60	7130
2026-01-24 01:38:18.41	266.41	38.73	-41.5	-42.5	22.4	0.00e+00	92	42	0	362807296	56	6095
2026-01-24 01:38:21.44	267.76	38.69	-40.9	-41.9	22.9	0.00e+00	91	42	0	368050176	56	5662
2026-01-24 01:38:24.47	269.11	38.63	-41.3	-42.3	22.5	0.00e+00	0	42	0	374341632	54	6656
2026-01-24 01:38:27.50	270.46	38.56	-41.3	-42.3	22.5	0.00e+00	92	42	0	379584512	54	6666
2026-01-24 01:38:30.52	271.79	38.46	-41.3	-42.2	22.7	0.00e+00	31	42	0	384827392	56	5883
2026-01-24 01:38:33.55	273.12	38.36	-40.9	-41.8	23.1	0.00e+00	0	42	0	391118848	56	5618
2026-01-24 01:38:36.58	274.44	38.23	-41.1	-42.0	22.7	0.00e+00	0	42	0	396361728	54	6460
2026-01-24 01:38:39.61	275.75	38.09	-42.2	-43.3	21.7	0.00e+00	89	42	0	402653184	56	6667
2026-01-24 01:38:42.64	277.05	37.93	-41.7	-42.7	22.3	0.00e+00	0	42	0	407896064	56	6231
2026-01-24 01:38:45.67	278.33	37.76	-42.1	-43.2	21.9	0.00e+00	0	42	0	414187520	56	6553
2026-01-24 01:38:48.69	279.60	37.58	-44.5	-46.0	19.4	0.00e+00	90	42	0	419430400	60	7220
2026-01-24 01:38:51.72	280.85	37.38	-41.0	-41.9	22.9	0.00e+00	92	42	0	424673280	56	5684
2026-01-24 01:38:54.75	282.09	37.16	-43.0	-44.2	21.1	0.00e+00	0	42	0	430964736	58	6609
2026-01-24 01:38:57.78	283.32	36.93	-41.9	-43.0	22.2	0.00e+00	26	42	0	436207616	56	6409
2026-01-24 01:39:00.81	284.52	36.69	-43.8	-45.2	20.4	0.00e+00	92	42	0	442499072	60	6572
2026-01-24 01:39:03.84	285.71	36.44	-41.8	-42.8	22.3	0.00e+00	0	42	0	447741952	58	5627
2026-01-24 01:39:06.87	286.88	36.18	-41.8	-42.9	22.2	0.00e+00	0	42	0	452984832	56	6323
2026-01-24 01:39:09.90	288.03	35.91	-40.0	-40.8	23.7	0.00e+00	90	42	0	459276288	54	5621
2026-01-24 01:39:12.92	289.16	35.62	-41.2	-42.2	22.5	0.00e+00	13	42	0	464519168	54	6576
2026-01-24 01:39:15.95	290.28	35.33	-41.8	-42.8	22.1	0.00e+00	0	42	0	470810624	54	7064
2026-01-24 01:39:18.98	291.37	35.03	-44.9	-46.5	18.9	0.00e+00	90	42	0	476053504	60	7659
2026-01-24 01:39:22.01	292.44	34.72	-44.9	-46.6	19.0	0.00e+00	92	42	0	482344960	60	7705
2026-01-24 01:39:25.04	293.49	34.40	-45.3	-47.0	18.3	0.00e+00	0	42	0	487587840	60	8078
2026-01-24 01:39:28.07	294.52	34.08	-43.8	-45.2	20.3	0.00e+00	0	42	0	492830720	60	6544
2026-01-24 01:39:31.10	295.54	33.75	-44.1	-45.5	19.8	0.00e+00	90	42	0	499122176	60	6831
2026-01-24 01:39:34.13	296.53	33.41	-45.8	-47.6	18.1	0.00e+00	9	42	0	504365056	60	8664
2026-01-24 01:39:37.16	297.50	33.07	-43.1	-44.3	21.0	0.00e+00	30	42	0	510656512	60	5931
2026-01-24 01:39:40.19	298.45	32.72	-44.3	-45.7	20.1	0.00e+00	91	42	0	515899392	60	6947
2026-01-24 01:39:43.21	299.38	32.37	-41.3	-42.2	22.7	0.00e+00	91	42	0	521142272	56	5892
2026-01-24 01:39:46.24	300.29	32.02	-43.1	-44.3	20.9	0.00e+00	0	42	0	527433728	58	6685
2026-01-24 01:39:49.27	301.18	31.66	-42.1	-43.2	21.7	0.00e+00	92	42	0	532676608	58	5881
2026-01-24 01:39:52.30	302.05	31.30	-42.2	-43.3	21.8	0.00e+00	90	42	0	538968064	56	6631
2026-01-24 01:39:55.33	302.91	30.93	-39.9	-40.8	23.5	0.00e+00	0	42	0	544210944	54	5582
2026-01-24 01:39:58.36	303.74	30.57	-39.1	-39.9	24.3	0.00e+00	0	42	0	550502400	50	6375
2026-01-24 01:40:01.38	304.55	30.20	-41.3	-42.3	22.5	0.00e+00	71	42	0	555745280	54	6661
2026-01-24 01:40:04.41	305.35	29.83	-40.5	-41.4	23.2	0.00e+00	0	42	0	560988160	54	6021
2026-01-24 01:40:07.44	306.13	29.46	-42.4	-43.6	21.5	0.00e+00	0	42	0	567279616	56	6873
2026-01-24 01:40:10.47	306.90	29.09	-41.6	-42.7	22.5	0.00e+00	81	42	0	572522496	56	6181
2026-01-24 01:40:13.50	307.64	28.72	-40.4	-41.4	23.2	0.00e+00	92	42	0	578813952	54	5968
2026-01-24 01:40:16.53	308.37	28.35	-42.3	-43.4	21.4	0.00e+00	0	42	0	584056832	58	6011
2026-01-24 01:40:19.56	309.08	27.98	-39.8	-40.6	23.7	0.00e+00	0	42	0	589299712	54	5485
2026-01-24 01:40:22.58	309.78	27.61	-41.1	-42.2	22.6	0.00e+00	28	42	0	595591168	54	6541
2026-01-24 01:40:25.62	310.46	27.24	-39.7	-40.5	24.0	0.00e+00	0	42	0	600834048	54	5434
2026-01-24 01:40:28.65	311.13	26.87	-39.1	-39.9	24.2	0.00e+00	0	42	0	607125504	50	6382
2026-01-24 01:40:31.68	311.78	26.51	-41.6	-42.6	22.1	0.00e+00	87	42	0	612368384	54	6920
2026-01-24 01:40:34.71	312.42	26.14	-40.7	-41.6	23.1	0.00e+00	87	42	0	618659840	56	5483
2026-01-24 01:40:37.74	313.04	25.78	-40.3	-41.2	23.4	0.00e+00	0	42	0	623902720	54	5847
2026-01-24 01:40:40.76	313.64	25.41	-40.6	-41.5	23.0	0.00e+00	91	42	0	629145600	54	6088
2026-01-24 01:40:43.79	314.24	25.05	-39.9	-40.8	23.7	0.00e+00	86	42	0	635437056	54	5584
2026-01-24 01:40:46.82	314.82	24.69	-39.1	-39.9	24.0	0.00e+00	0	42	0	640679936	52	5684
2026-01-24 01:40:49.85	315.39	24.33	-39.3	-40.1	23.7	0.00e+00	0	42	0	646971392	52	5807
2026-01-24 01:40:52.88	315.95	23.98	-39.8	-40.7	23.7	0.00e+00	89	42	0	652214272	52	6183
2026-01-24 01:40:55.91	316.49	23.63	-39.4	-40.2	24.2	0.00e+00	0	42	0	657457152	52	5886
2026-01-24 01:40:58.94	317.03	23.28	-38.5	-39.3	24.6	0.00e+00	0	42	0	663748608	50	5919
2026-01-24 01:41:01.97	317.55	22.93	-39.0	-39.8	24.2	0.00e+00	90	42	0	668991488	50	6293
2026-01-24 01:41:05.00	318.06	22.58	-39.4	-40.3	23.8	0.00e+00	88	42	0	675282944	50	6623
2026-01-24 01:41:08.03	318.56	22.24	-39.3	-40.2	24.0	0.00e+00	0	42	0	680525824	50	6540
2026-01-24 01:41:11.06	319.05	21.90	-39.0	-39.9	24.1	0.00e+00	57	42	0	686817280	50	6344
2026-01-24 01:41:14.08	319.52	21.56	-39.2	-40.1	24.0	0.00e+00	58	42	0	692060160	50	6470
2026-01-24 01:41:17.11	319.99	21.22	-39.4	-40.3	24.0	0.00e+00	33	42	0	697303040	52	5903
2026-01-24 01:41:20.14	320.45	20.89	-39.3	-40.2	24.0	0.00e+00	0	42	0	703594496	52	5840
2026-01-24 01:41:23.17	320.90	20.56	-39.6	-40.4	23.8	0.00e+00	69	42	0	708837376	52	6018
2026-01-24 01:41:26.19	321.34	20.23	-39.6	-40.5	23.7	0.00e+00	0	42	0	715128832	52	6035
2026-01-24 01:41:29.22	321.77	19.90	-39.5	-40.4	23.8	0.00e+00	0	42	0	720371712	52	5995
2026-01-24 01:41:32.25	322.19	19.58	-40.0	-40.9	23.4	0.00e+00	89	42	0	725614592	52	6337
2026-01-24 01:41:35.28	322.61	19.26	-40.9	-41.9	22.5	0.00e+00	73	42	0	731906048	54	6364
2026-01-24 01:41:38.31	323.01	18.94	-41.2	-42.3	22.4	0.00e+00	0	42	0	737148928	54	6635
2026-01-24 01:41:41.34	323.41	18.63	-41.6	-42.7	22.0	0.00e+00	0	42	0	743440384	56	6217
2026-01-24 01:41:44.36	323.80	18.32	-41.3	-42.3	22.3	0.00e+00	87	42	0	748683264	56	5958
2026-01-24 01:41:47.39	324.18	18.01	-41.8	-42.9	21.9	0.00e+00	0	42	0	753926144	56	6329
2026-01-24 01:41:50.42	324.55	17.70	-42.3	-43.6	21.2	0.00e+00	0	42	0	760217600	56	6860
2026-01-24 01:41:53.45	324.92	17.40	-42.1	-43.2	21.6	0.00e+00	80	42	0	765460480	56	6603
2026-01-24 01:41:56.47	325.28	17.10	-41.1	-42.1	22.4	0.00e+00	0	42	0	771751936	56	5821
2026-01-24 01:41:59.50	325.63	16.80	-40.8	-41.8	22.6	0.00e+00	0	42	0	776994816	54	6273
2026-01-24 01:42:02.53	325.98	16.51	-40.7	-41.7	22.6	0.00e+00	57	42	0	783286272	54	6241
2026-01-24 01:42:05.55	326.32	16.21	-41.1	-42.1	22.3	0.00e+00	78	42	0	788529152	54	6495
2026-01-24 01:42:08.58	326.66	15.92	-40.8	-41.8	22.6	0.00e+00	0	42	0	793772032	54	6249
2026-01-24 01:42:11.61	326.98	15.64	-40.6	-41.6	22.8	0.00e+00	0	42	0	800063488	54	6152
2026-01-24 01:42:14.64	327.31	15.35	-40.4	-41.4	22.9	0.00e+00	86	42	0	805306368	54	5978
2026-01-24 01:42:17.66	327.62	15.07	-40.5	-41.5	22.8	0.00e+00	0	42	0	811597824	54	6034
2026-01-24 01:42:20.69	327.93	14.79	-40.7	-41.7	22.6	0.00e+00	0	42	0	816840704	54	6204
2026-01-24 01:42:23.72	328.24	14.51	-41.0	-42.0	22.4	0.00e+00	0	42	0	822083584	54	6420
2026-01-24 01:42:26.75	328.54	14.23	-40.8	-41.8	22.5	0.00e+00	0	42	0	828375040	54	6296
2026-01-24 01:42:29.77	328.83	13.96	-40.9	-41.9	22.5	0.00e+00	0	42	0	833617920	54	6366
2026-01-24 01:42:32.80	329.12	13.69	-40.8	-41.8	22.6	0.00e+00	0	42	0	839909376	54	6260
2026-01-24 01:42:35.83	329.41	13.42	-41.0	-42.0	22.3	0.00e+00	83	42	0	845152256	54	6436
2026-01-24 01:42:38.86	329.69	13.16	-41.5	-42.6	21.7	0.00e+00	0	42	0	851443712	54	6916
2026-01-24 01:42:41.89	329.96	12.89	-42.4	-43.7	21.0	0.00e+00	0	42	0	856686592	56	6935
2026-01-24 01:42:44.92	330.23	12.63	-43.0	-44.4	20.4	0.00e+00	92	42	0	861929472	58	6713
2026-01-24 01:42:47.94	330.50	12.37	-43.4	-44.8	20.0	0.00e+00	0	42	0	868220928	58	7084
2026-01-24 01:42:50.97	330.76	12.12	-43.2	-44.6	20.0	0.00e+00	0	42	0	873463808	58	6908
2026-01-24 01:42:53.99	331.02	11.86	-42.9	-44.2	20.4	0.00e+00	0	42	0	879755264	58	6584
2026-01-24 01:42:57.02	331.27	11.61	-42.3	-43.6	20.9	0.00e+00	52	42	0	884998144	58	6122
2026-01-24 01:43:00.05	331.52	11.36	-42.0	-43.2	21.3	0.00e+00	0	42	0	890241024	58	5829
2026-01-24 01:43:03.07	331.76	11.11	-41.5	-42.6	22.0	0.00e+00	0	42	0	896532480	56	6104
2026-01-24 01:43:06.10	332.01	10.87	-41.1	-42.1	22.2	0.00e+00	91	42	0	901775360	56	5799
2026-01-24 01:43:09.13	332.24	10.62	-41.1	-42.2	22.2	0.00e+00	0	42	0	908066816	56	5857
2026-01-24 01:43:12.16	332.48	10.38	-40.8	-41.8	22.4	0.00e+00	0	42	0	913309696	54	6276
2026-01-24 01:43:15.19	332.71	10.14	-40.8	-41.8	22.3	0.00e+00	81	42	0	918552576	54	6301
2026-01-24 01:43:18.22	332.93	9.90	-41.0	-42.1	22.1	0.00e+00	0	42	0	924844032	54	6468
2026-01-24 01:43:21.24	333.16	9.67	-41.4	-42.5	21.6	0.00e+00	0	42	0	930086912	54	6774
2026-01-24 01:43:24.27	333.38	9.43	-41.6	-42.7	21.5	0.00e+00	0	42	0	936378368	54	6995
2026-01-24 01:43:27.30	333.59	9.20	-42.2	-43.4	21.1	0.00e+00	81	42	0	941621248	56	6733
2026-01-24 01:43:30.33	333.81	8.97	-42.4	-43.7	20.6	0.00e+00	0	42	0	947912704	56	6962
2026-01-24 01:43:33.36	334.02	8.74	-42.9	-44.2	20.3	0.00e+00	0	42	0	953155584	58	6570
2026-01-24 01:43:36.38	334.23	8.51	-43.3	-44.7	19.8	0.00e+00	74	42	0	958398464	58	6948
2026-01-24 01:43:39.41	334.43	8.29	-43.2	-44.6	19.7	0.00e+00	0	42	0	964689920	58	6897
2026-01-24 01:43:42.44	334.63	8.07	-43.3	-44.8	19.6	0.00e+00	0	42	0	969932800	58	7037
2026-01-24 01:43:45.46	334.83	7.84	-43.4	-44.9	19.5	0.00e+00	19	42	0	976224256	58	7152
2026-01-24 01:43:48.49	335.03	7.62	-43.5	-45.0	19.3	0.00e+00	0	42	0	981467136	58	7219
2026-01-24 01:43:51.52	335.22	7.41	-43.1	-44.6	19.7	0.00e+00	0	42	0	986710016	58	6873
2026-01-24 01:43:54.54	335.41	7.19	-43.1	-44.6	19.7	0.00e+00	0	42	0	993001472	58	6869
2026-01-24 01:43:57.57	335.60	6.97	-43.2	-44.7	19.7	0.00e+00	77	42	0	998244352	58	6959
2026-01-24 01:44:00.60	335.78	6.76	-43.3	-44.8	19.3	0.00e+00	0	42	0	1004535808	58	7034
2026-01-24 01:44:03.63	335.97	6.55	-43.3	-44.9	19.4	0.00e+00	0	42	0	1009778688	58	7110
2026-01-24 01:44:06.66	336.15	6.34	-43.3	-44.9	19.0	0.00e+00	79	42	0	1016070144	58	7097
2026-01-24 01:44:09.69	336.33	6.13	-43.3	-44.9	19.1	0.00e+00	0	42	0	1021313024	58	7132
2026-01-24 01:44:12.71	336.50	5.92	-43.9	-45.7	18.2	0.00e+00	0	42	0	1026555904	60	6941
2026-01-24 01:44:15.74	336.67	5.71	-44.5	-46.5	17.1	0.00e+00	36	42	0	1032847360	60	7654
2026-01-24 01:44:18.77	336.85	5.51	-45.2	-47.8	15.5	0.00e+00	0	42	0	1038090240	60	8872
2026-01-24 01:44:21.80	337.02	5.31	-45.9	-49.2	13.7	2.20e-06	0	42	0	1044381696	60	10409
2026-01-24 01:44:24.82	337.18	5.10	-46.2	-50.6	11.5	4.04e-04	0	42	0	1049624576	60	12306
2026-01-24 01:44:27.85	337.35	4.90	-46.5	-52.2	9.0	1.44e-02	2	42	0	1054867456	60	14749
2026-01-24 01:44:30.88	337.51	4.70	-46.7	-54.0	6.8	1.16e-01	0	42	0	1061158912	60	18069
2026-01-24 01:44:33.90	337.67	4.51	-46.8	-55.1	5.3	4.62e-01	0	42	0	1066401792	60	20666
2026-01-24 01:44:36.93	337.83	4.31	-46.8	-56.8	4.0	9.21e-01	89	42	0	1072693248	60	25142
2026-01-24 01:44:39.96	337.99	4.11	-46.6	-59.6	3.8	1.50e+00	0	42	104	1073741824	60	34445
2026-01-24 01:44:42.99	338.14	3.92	-46.5	-60.8	3.5	1.51e+00	0	42	104	1073741824	60	39442
2026-01-24 01:44:46.02	338.30	3.73	-46.3	-61.5	3.6	1.51e+00	0	42	104	1073741824	60	43115
2026-01-24 01:44:49.05	338.45	3.53	-46.3	-61.5	3.6	1.51e+00	0	42	104	1073741824	60	43136
2026-01-24 01:44:52.07	338.60	3.34	-46.3	-61.6	3.6	1.51e+00	0	42	104	1073741824	60	43554
2026-01-24 01:44:55.10	338.74	3.15	-46.4	-61.6	3.6	1.51e+00	0	42	104	1073741824	60	43530
2026-01-24 01:44:58.13	338.89	2.97	-46.3	-61.5	3.6	1.51e+00	0	42	104	1073741824	60	42886
2026-01-24 01:45:01.16	339.04	2.78	-50.8	-66.0	3.6	1.51e+00	0	42	104	1073741824	60	72135
2026-01-24 01:45:04.19	339.18	2.59	-51.2	-66.4	3.6	1.51e+00	0	42	104	1073741824	60	75330
2026-01-24 01:45:07.22	339.32	2.41	-51.4	-66.6	3.6	1.51e+00	0	42	104	1073741824	60	77219
2026-01-24 01:45:10.24	339.46	2.22	-51.4	-66.7	3.6	1.51e+00	0	42	104	1073741824	60	78175
2026-01-24 01:45:13.27	339.60	2.04	-50.9	-66.6	3.6	1.51e+00	0	42	104	1073741824	60	77521
2026-01-24 01:45:16.31	339.73	1.86	-51.4	-66.7	3.6	1.51e+00	0	42	104	1073741824	60	77874
2026-01-24 01:45:19.34	339.87	1.68	-51.4	-66.6	3.6	1.51e+00	0	42	104	1073741824	60	77021
2026-01-24 01:45:22.37	340.00	1.50	-51.4	-66.6	3.6	1.51e+00	0	42	104	1073741824	60	77457
2026-01-24 01:45:25.40	340.14	1.32	-51.4	-66.6	3.6	1.51e+00	0	42	104	1073741824	60	77311
2026-01-24 01:45:28.43	340.27	1.14	-51.4	-66.6	3.6	1.51e+00	0	42	104	1073741824	60	77342
2026-01-24 01:45:31.46	340.40	0.96	-51.4	-66.6	3.6	1.51e+00	0	42	104	1073741824	60	77412
2026-01-24 01:45:34.49	340.53	0.79	-51.4	-66.6	3.6	1.51e+00	0	41	104	1073741824	60	77204
2026-01-24 01:45:37.52	340.65	0.61	-51.4	-66.6	3.6	1.51e+00	0	42	104	1073741824	60	77330
2026-01-24 01:45:40.55	340.78	0.44	-51.4	-66.6	3.6	1.51e+00	0	42	104	1073741824	60	77032
2026-01-24 01:45:43.58	340.90	0.27	-51.4	-66.6	3.6	1.51e+00	0	42	104	1073741824	60	77001
2026-01-24 01:45:46.61	341.03	0.09	-51.4	-66.6	3.5	1.51e+00	0	42	104	1073741824	60	77116
2026-01-24 01:45:49.64	341.15	-0.08	-51.4	-66.6	3.6	1.51e+00	0	42	104	1073741824	60	77573

#Closed at: 2026-01-24 01:45:50
#Recorded file [1073 MB]: D:/lorett/data/35029_260124_133407.dat