passes_logs/2026/01/24/R4.6S_Anadyr/R4.6S_Anadyr__20260124_171646_NOAA_20_JPSS-1_rec.log

#Pass ID: 20260124_171646_NOAA 20 (JPSS-1)
#Satellite: NOAA 20 (JPSS-1)
#Configuration: NOAA 20
#almurnet v.1.7.20251203
#Start time: 2026-01-24 17:16:50

#Version: 2.2.20231116
#Station: R4.6S_Anadyr
#Location: 177.4865 lon 64.73178 lat
#TLE: 1 43013U 17073A   26024.14064826  .00000217  00000+0  12382-3 0  9992
#TLE: 2 43013  98.7646 324.9839 0001118  26.6217 333.5016 14.19539758424032

#Time	Az	El	Level	Level2	SNR	BER	BlckErr	Temp	State	Recorded	gain1	gain2
2026-01-24 17:16:50.37	30.68	0.19	-53.7	-67.4	3.3	1.54e+00	0	40	0	0	60	84768
2026-01-24 17:16:54.41	30.45	0.41	-52.5	-67.7	3.6	1.51e+00	0	40	104	0	60	87637
2026-01-24 17:16:58.45	30.22	0.63	-52.1	-67.3	3.6	1.51e+00	0	40	104	0	60	83828
2026-01-24 17:17:02.49	29.98	0.85	-51.6	-66.8	3.6	1.51e+00	0	40	104	0	60	78938
2026-01-24 17:17:06.53	29.74	1.07	-51.2	-66.4	3.6	1.51e+00	0	40	104	0	60	75607
2026-01-24 17:17:10.57	29.50	1.29	-50.7	-65.9	3.6	1.51e+00	0	41	104	0	60	71618
2026-01-24 17:17:14.61	29.25	1.52	-50.0	-65.1	3.6	1.51e+00	0	41	104	0	60	65135
2026-01-24 17:17:18.65	29.00	1.74	-50.0	-65.2	3.6	1.51e+00	0	41	104	0	60	65850
2026-01-24 17:17:22.69	28.74	1.97	-50.0	-65.2	3.6	1.51e+00	0	41	104	0	60	65579
2026-01-24 17:17:26.73	28.48	2.20	-50.1	-65.1	3.6	1.51e+00	0	41	104	0	60	64983
2026-01-24 17:17:30.77	28.22	2.43	-50.3	-65.5	3.6	1.51e+00	0	41	104	0	60	67904
2026-01-24 17:17:34.81	27.95	2.66	-50.1	-65.2	3.6	1.51e+00	0	41	104	0	60	65659
2026-01-24 17:17:38.85	27.68	2.89	-50.0	-64.9	3.6	1.51e+00	0	41	104	0	60	63472
2026-01-24 17:17:42.89	27.40	3.12	-49.2	-55.6	8.0	1.23e-01	2	41	0	1048576	60	21763
2026-01-24 17:17:46.93	27.11	3.36	-46.1	-48.4	16.2	1.09e-02	0	41	0	8388608	60	9561
2026-01-24 17:17:50.97	26.83	3.59	-45.5	-47.6	16.8	3.80e-06	13	41	0	12582912	60	8686
2026-01-24 17:17:55.00	26.54	3.83	-44.6	-46.4	18.1	0.00e+00	0	41	0	19922944	60	7526
2026-01-24 17:17:59.04	26.24	4.07	-46.0	-48.4	16.2	0.00e+00	0	41	0	27262976	60	9511
2026-01-24 17:18:03.07	25.94	4.31	-45.2	-47.1	18.0	0.00e+00	92	41	0	35651584	60	8215
2026-01-24 17:18:07.12	25.63	4.55	-44.5	-46.2	18.5	0.00e+00	44	41	0	42991616	60	7413
2026-01-24 17:18:11.16	25.31	4.79	-44.9	-46.7	18.4	0.00e+00	0	41	0	50331648	60	7829
2026-01-24 17:18:15.20	25.00	5.03	-45.8	-47.8	17.8	0.00e+00	14	40	0	57671680	60	8920
2026-01-24 17:18:19.23	24.67	5.28	-45.5	-47.5	17.8	0.00e+00	91	41	0	65011712	60	8573
2026-01-24 17:18:23.27	24.34	5.52	-45.4	-47.4	17.3	0.00e+00	0	40	0	73400320	60	8484
2026-01-24 17:18:27.31	24.01	5.77	-44.0	-45.4	19.4	0.00e+00	0	41	0	80740352	60	6765
2026-01-24 17:18:31.35	23.66	6.02	-44.4	-46.0	18.9	0.00e+00	13	40	0	88080384	60	7229
2026-01-24 17:18:35.38	23.32	6.27	-44.1	-45.6	19.4	0.00e+00	90	41	0	95420416	60	6910
2026-01-24 17:18:39.42	22.96	6.52	-44.2	-45.8	19.3	0.00e+00	68	41	0	103809024	60	7030
2026-01-24 17:18:43.46	22.60	6.78	-44.7	-46.4	18.4	0.00e+00	0	41	0	111149056	60	7582
2026-01-24 17:18:47.50	22.23	7.03	-44.7	-46.3	18.8	0.00e+00	5	40	0	118489088	60	7487
2026-01-24 17:18:51.54	21.86	7.29	-44.1	-45.6	19.5	0.00e+00	90	40	0	125829120	60	6913
2026-01-24 17:18:55.58	21.48	7.55	-45.2	-47.1	18.0	0.00e+00	81	40	0	133169152	60	8143
2026-01-24 17:18:59.62	21.09	7.81	-45.1	-46.8	18.3	0.00e+00	14	41	0	141557760	60	7942
2026-01-24 17:19:03.66	20.69	8.07	-44.7	-46.3	19.0	0.00e+00	82	41	0	148897792	60	7467
2026-01-24 17:19:07.70	20.29	8.33	-43.8	-45.2	19.9	0.00e+00	92	40	0	156237824	60	6575
2026-01-24 17:19:11.73	19.88	8.59	-44.0	-45.4	20.0	0.00e+00	1	40	0	163577856	60	6718
2026-01-24 17:19:15.77	19.46	8.86	-43.9	-45.4	19.9	0.00e+00	14	40	0	171966464	60	6715
2026-01-24 17:19:19.81	19.04	9.12	-43.5	-44.8	20.4	0.00e+00	0	40	0	179306496	60	6268
2026-01-24 17:19:23.84	18.60	9.39	-43.5	-44.9	20.6	0.00e+00	0	40	0	186646528	60	6321
2026-01-24 17:19:27.88	18.16	9.66	-43.6	-44.9	20.3	0.00e+00	0	41	0	193986560	60	6369
2026-01-24 17:19:31.92	17.71	9.92	-43.5	-44.9	20.4	0.00e+00	0	40	0	201326592	60	6324
2026-01-24 17:19:35.96	17.25	10.20	-43.3	-44.6	20.5	0.00e+00	92	41	0	209715200	60	6165
2026-01-24 17:19:40.00	16.78	10.47	-43.6	-44.9	20.4	0.00e+00	16	40	0	217055232	60	6327
2026-01-24 17:19:44.04	16.30	10.74	-43.4	-44.7	20.6	0.00e+00	67	40	0	224395264	60	6202
2026-01-24 17:19:48.08	15.82	11.01	-43.5	-44.9	20.4	0.00e+00	67	40	0	231735296	60	6334
2026-01-24 17:19:52.12	15.32	11.29	-43.3	-44.6	20.7	0.00e+00	92	41	0	240123904	60	6105
2026-01-24 17:19:56.15	14.82	11.56	-43.1	-44.4	20.9	0.00e+00	2	40	0	247463936	60	5987
2026-01-24 17:20:00.19	14.30	11.84	-43.0	-44.2	21.0	0.00e+00	18	41	0	254803968	60	5875
2026-01-24 17:20:04.23	13.77	12.12	-42.9	-44.1	21.1	0.00e+00	15	40	0	262144000	58	6515
2026-01-24 17:20:08.26	13.24	12.39	-42.5	-43.6	21.5	0.00e+00	90	40	0	269484032	58	6162
2026-01-24 17:20:12.30	12.69	12.67	-42.8	-43.9	21.3	0.00e+00	1	40	0	277872640	58	6382
2026-01-24 17:20:16.34	12.13	12.95	-42.4	-43.6	21.6	0.00e+00	0	41	0	285212672	58	6110
2026-01-24 17:20:20.38	11.57	13.23	-42.2	-43.2	22.0	0.00e+00	2	40	0	292552704	58	5890
2026-01-24 17:20:24.41	10.99	13.51	-42.2	-43.3	21.8	0.00e+00	92	41	0	299892736	58	5958
2026-01-24 17:20:28.45	10.40	13.79	-42.3	-43.4	21.8	0.00e+00	66	40	0	308281344	58	6005
2026-01-24 17:20:32.49	9.80	14.07	-42.7	-43.9	21.5	0.00e+00	6	40	0	315621376	58	6329
2026-01-24 17:20:36.53	9.18	14.35	-42.7	-43.9	21.4	0.00e+00	0	40	0	322961408	58	6343
2026-01-24 17:20:40.57	8.56	14.63	-43.1	-44.3	21.2	0.00e+00	90	41	0	330301440	58	6621
2026-01-24 17:20:44.61	7.92	14.91	-42.9	-44.1	21.2	0.00e+00	15	41	0	337641472	58	6509
2026-01-24 17:20:48.65	7.27	15.19	-43.2	-44.5	21.0	0.00e+00	3	41	0	346030080	58	6787
2026-01-24 17:20:52.69	6.61	15.47	-42.9	-44.1	21.2	0.00e+00	0	41	0	353370112	58	6494
2026-01-24 17:20:56.73	5.93	15.75	-42.6	-43.8	21.5	0.00e+00	64	40	0	360710144	58	6260
2026-01-24 17:21:00.76	5.24	16.02	-42.9	-44.0	21.4	0.00e+00	11	41	0	368050176	58	6433
2026-01-24 17:21:04.80	4.54	16.30	-42.8	-44.0	21.4	0.00e+00	17	41	0	376438784	58	6424
2026-01-24 17:21:08.84	3.83	16.57	-43.2	-44.3	21.2	0.00e+00	13	41	0	383778816	58	6684
2026-01-24 17:21:12.88	3.10	16.84	-43.4	-44.6	20.9	0.00e+00	44	41	0	391118848	58	6889
2026-01-24 17:21:16.91	2.36	17.11	-42.8	-43.9	21.4	0.00e+00	0	41	0	398458880	58	6374
2026-01-24 17:21:20.95	1.61	17.38	-42.6	-43.7	21.6	0.00e+00	11	41	0	405798912	58	6209
2026-01-24 17:21:24.99	0.84	17.65	-42.7	-43.8	21.8	0.00e+00	92	41	0	414187520	58	6252
2026-01-24 17:21:29.03	0.05	17.91	-42.2	-43.2	22.5	0.00e+00	0	41	0	421527552	58	5867
2026-01-24 17:21:33.07	359.26	18.17	-42.2	-43.2	22.4	0.00e+00	65	41	0	428867584	58	5856
2026-01-24 17:21:37.11	358.45	18.43	-40.9	-41.8	23.6	0.00e+00	0	41	0	436207616	54	6289
2026-01-24 17:21:41.15	357.62	18.68	-40.5	-41.4	23.7	0.00e+00	91	41	0	444596224	54	5974
2026-01-24 17:21:45.19	356.79	18.94	-40.4	-41.3	23.9	0.00e+00	69	41	0	451936256	54	5927
2026-01-24 17:21:49.23	355.93	19.18	-40.2	-41.0	23.5	0.00e+00	61	41	0	459276288	54	5734
2026-01-24 17:21:53.27	355.07	19.42	-40.4	-41.3	23.9	0.00e+00	67	41	0	466616320	54	5923
2026-01-24 17:21:57.31	354.19	19.66	-39.9	-40.7	24.2	0.00e+00	92	41	0	473956352	54	5537
2026-01-24 17:22:01.35	353.29	19.89	-40.0	-40.9	24.2	0.00e+00	12	41	0	482344960	54	5649
2026-01-24 17:22:05.38	352.39	20.12	-40.2	-41.0	24.1	0.00e+00	63	41	0	489684992	54	5738
2026-01-24 17:22:09.42	351.47	20.34	-40.5	-41.3	24.0	0.00e+00	74	41	0	497025024	54	5958
2026-01-24 17:22:13.46	350.53	20.56	-40.4	-41.3	23.9	0.00e+00	90	41	0	504365056	54	5904
2026-01-24 17:22:17.49	349.59	20.77	-40.2	-41.1	24.0	0.00e+00	6	41	0	512753664	54	5790
2026-01-24 17:22:21.53	348.63	20.97	-40.5	-41.4	24.1	0.00e+00	17	41	0	520093696	54	5969
2026-01-24 17:22:25.57	347.65	21.16	-40.4	-41.3	23.3	0.00e+00	0	41	0	527433728	54	5915
2026-01-24 17:22:29.61	346.67	21.35	-40.1	-41.0	24.1	0.00e+00	92	41	0	534773760	54	5737
2026-01-24 17:22:33.65	345.67	21.53	-39.5	-40.4	24.7	0.00e+00	0	41	0	542113792	52	5968
2026-01-24 17:22:37.68	344.66	21.70	-40.6	-41.4	24.3	0.00e+00	4	41	0	550502400	52	6759
2026-01-24 17:22:41.72	343.64	21.87	-39.8	-40.6	24.6	0.00e+00	2	41	0	557842432	52	6161
2026-01-24 17:22:45.76	342.61	22.02	-40.0	-40.9	24.6	0.00e+00	63	41	0	565182464	52	6321
2026-01-24 17:22:49.80	341.57	22.17	-40.2	-41.0	24.4	0.00e+00	69	41	0	572522496	52	6432
2026-01-24 17:22:53.84	340.52	22.30	-40.3	-41.1	24.5	0.00e+00	63	41	0	580911104	54	5806
2026-01-24 17:22:57.88	339.46	22.43	-40.8	-41.7	23.6	0.00e+00	91	41	0	588251136	54	6232
2026-01-24 17:23:01.92	338.40	22.55	-41.3	-42.2	23.2	0.00e+00	0	41	0	595591168	56	5892
2026-01-24 17:23:05.95	337.32	22.65	-41.8	-42.7	22.7	0.00e+00	17	41	0	602931200	56	6227
2026-01-24 17:23:09.99	336.24	22.75	-41.8	-42.7	23.0	0.00e+00	20	41	0	610271232	56	6225
2026-01-24 17:23:14.03	335.15	22.83	-41.9	-42.9	22.7	0.00e+00	92	41	0	618659840	56	6368
2026-01-24 17:23:18.06	334.06	22.91	-42.4	-43.4	22.3	0.00e+00	63	41	0	625999872	56	6769
2026-01-24 17:23:22.10	332.96	22.97	-42.4	-43.4	22.2	0.00e+00	0	41	0	633339904	56	6762
2026-01-24 17:23:26.13	331.86	23.02	-42.2	-43.2	22.4	0.00e+00	19	41	0	640679936	56	6583
2026-01-24 17:23:30.17	330.75	23.06	-42.1	-43.1	22.7	0.00e+00	92	41	0	648019968	56	6480
2026-01-24 17:23:34.21	329.64	23.09	-42.1	-43.1	22.6	0.00e+00	20	41	0	656408576	56	6494
2026-01-24 17:23:38.25	328.53	23.11	-41.9	-42.9	22.6	0.00e+00	0	41	0	663748608	56	6386
2026-01-24 17:23:42.29	327.42	23.11	-42.9	-44.1	21.7	0.00e+00	0	41	0	671088640	56	7267
2026-01-24 17:23:46.33	326.31	23.11	-42.0	-43.0	22.8	0.00e+00	90	41	0	678428672	56	6418
2026-01-24 17:23:50.37	325.19	23.09	-41.7	-42.6	23.2	0.00e+00	0	41	0	686817280	56	6138
2026-01-24 17:23:54.40	324.09	23.06	-41.6	-42.6	23.1	0.00e+00	0	41	0	694157312	56	6111
2026-01-24 17:23:58.44	322.98	23.02	-40.7	-41.6	24.0	0.00e+00	0	41	0	701497344	56	5470
2026-01-24 17:24:02.48	321.88	22.97	-40.8	-41.7	23.9	0.00e+00	63	41	0	708837376	54	6232
2026-01-24 17:24:06.52	320.78	22.90	-39.9	-40.8	24.6	0.00e+00	1	41	0	716177408	54	5572
2026-01-24 17:24:10.56	319.68	22.83	-39.8	-40.6	24.7	0.00e+00	4	41	0	724566016	54	5496
2026-01-24 17:24:14.60	318.59	22.74	-39.6	-40.4	24.8	0.00e+00	8	41	0	731906048	52	5988
2026-01-24 17:24:18.64	317.51	22.65	-39.2	-40.0	25.3	0.00e+00	67	41	0	739246080	52	5739
2026-01-24 17:24:22.68	316.43	22.54	-39.3	-40.1	25.3	0.00e+00	3	41	0	746586112	52	5798
2026-01-24 17:24:26.72	315.36	22.42	-40.1	-40.9	24.5	0.00e+00	3	41	0	754974720	52	6390
2026-01-24 17:24:30.75	314.31	22.29	-39.9	-40.7	24.8	0.00e+00	92	41	0	762314752	52	6197
2026-01-24 17:24:34.78	313.26	22.16	-40.1	-41.0	24.3	0.00e+00	18	41	0	769654784	52	6404
2026-01-24 17:24:38.82	312.22	22.01	-40.6	-41.4	24.1	0.00e+00	17	41	0	776994816	54	6014
2026-01-24 17:24:42.86	311.19	21.86	-41.8	-42.7	23.3	0.00e+00	2	41	0	784334848	56	6213
2026-01-24 17:24:46.90	310.17	21.69	-41.5	-42.4	23.3	0.00e+00	92	41	0	792723456	56	5978
2026-01-24 17:24:50.94	309.16	21.52	-41.8	-42.8	22.9	0.00e+00	5	41	0	800063488	56	6282
2026-01-24 17:24:54.97	308.16	21.34	-42.1	-43.0	22.7	0.00e+00	2	41	0	807403520	56	6436
2026-01-24 17:24:59.01	307.17	21.15	-42.1	-43.0	22.9	0.00e+00	0	41	0	814743552	56	6444
2026-01-24 17:25:03.05	306.20	20.95	-42.0	-42.9	22.8	0.00e+00	92	41	0	823132160	56	6378
2026-01-24 17:25:07.08	305.24	20.75	-41.9	-42.9	22.9	0.00e+00	0	41	0	830472192	56	6337
2026-01-24 17:25:11.12	304.29	20.54	-41.8	-42.7	23.2	0.00e+00	2	41	0	837812224	56	6215
2026-01-24 17:25:15.16	303.36	20.33	-41.9	-42.9	22.7	0.00e+00	0	41	0	845152256	56	6378
2026-01-24 17:25:19.19	302.44	20.10	-41.7	-42.7	22.9	0.00e+00	92	41	0	852492288	56	6217
2026-01-24 17:25:23.23	301.53	19.88	-41.9	-42.9	22.9	0.00e+00	0	41	0	860880896	56	6330
2026-01-24 17:25:27.27	300.63	19.64	-41.9	-42.9	22.7	0.00e+00	0	41	0	868220928	56	6372
2026-01-24 17:25:31.31	299.75	19.40	-41.9	-42.9	22.7	0.00e+00	0	41	0	875560960	56	6367
2026-01-24 17:25:35.34	298.89	19.16	-41.6	-42.6	23.0	0.00e+00	92	41	0	882900992	56	6145
2026-01-24 17:25:39.38	298.04	18.91	-41.4	-42.3	23.2	0.00e+00	0	41	0	890241024	56	5938
2026-01-24 17:25:43.42	297.20	18.66	-41.5	-42.4	23.0	0.00e+00	17	41	0	898629632	56	6015
2026-01-24 17:25:47.46	296.37	18.41	-41.4	-42.3	23.2	0.00e+00	0	41	0	905969664	56	5945
2026-01-24 17:25:51.50	295.56	18.15	-41.5	-42.4	23.0	0.00e+00	92	41	0	913309696	56	6008
2026-01-24 17:25:55.54	294.76	17.89	-41.8	-42.8	22.8	0.00e+00	13	41	0	920649728	56	6278
2026-01-24 17:25:59.57	293.98	17.62	-41.8	-42.8	22.6	0.00e+00	6	41	0	929038336	56	6303
2026-01-24 17:26:03.61	293.21	17.36	-41.9	-42.9	22.7	0.00e+00	92	41	0	936378368	56	6338
2026-01-24 17:26:07.65	292.45	17.09	-41.8	-42.8	22.7	0.00e+00	92	41	0	943718400	56	6303
2026-01-24 17:26:11.69	291.71	16.82	-41.9	-42.9	22.6	0.00e+00	1	41	0	951058432	56	6383
2026-01-24 17:26:15.73	290.98	16.54	-41.9	-42.9	22.6	0.00e+00	1	41	0	958398464	56	6366
2026-01-24 17:26:19.76	290.27	16.27	-41.6	-42.5	22.9	0.00e+00	92	41	0	966787072	56	6100
2026-01-24 17:26:23.80	289.57	15.99	-41.5	-42.5	23.0	0.00e+00	71	41	0	974127104	56	6056
2026-01-24 17:26:27.84	288.88	15.72	-41.4	-42.4	23.1	0.00e+00	0	41	0	981467136	56	5980
2026-01-24 17:26:31.88	288.20	15.44	-41.5	-42.4	23.2	0.00e+00	0	41	0	988807168	56	6033
2026-01-24 17:26:35.92	287.54	15.16	-41.7	-42.6	23.2	0.00e+00	92	41	0	997195776	56	6156
2026-01-24 17:26:39.96	286.88	14.88	-41.3	-42.2	23.3	0.00e+00	0	41	0	1004535808	56	5895
2026-01-24 17:26:43.99	286.25	14.60	-41.3	-42.2	23.5	0.00e+00	73	41	0	1011875840	56	5875
2026-01-24 17:26:48.03	285.62	14.32	-41.7	-42.7	23.0	0.00e+00	15	41	0	1019215872	56	6182
2026-01-24 17:26:52.07	285.00	14.04	-41.0	-41.9	23.7	0.00e+00	92	41	0	1026555904	56	5683
2026-01-24 17:26:56.10	284.40	13.76	-41.0	-41.9	23.5	0.00e+00	2	41	0	1034944512	56	5680
2026-01-24 17:27:00.14	283.81	13.48	-41.1	-42.0	23.7	0.00e+00	0	41	0	1042284544	56	5702
2026-01-24 17:27:04.18	283.23	13.20	-41.5	-42.5	23.5	0.00e+00	73	41	0	1049624576	56	6036
2026-01-24 17:27:08.22	282.66	12.92	-41.0	-41.9	23.5	0.00e+00	92	41	0	1056964608	56	5660
2026-01-24 17:27:12.26	282.10	12.64	-41.0	-41.9	23.4	0.00e+00	0	41	0	1065353216	56	5691
2026-01-24 17:27:16.30	281.55	12.36	-42.0	-43.0	22.4	0.00e+00	0	41	0	1072693248	56	6419
2026-01-24 17:27:20.34	281.01	12.08	-41.5	-42.5	22.8	0.00e+00	0	41	0	1080033280	56	6087
2026-01-24 17:27:24.38	280.49	11.80	-41.2	-42.2	23.2	0.00e+00	90	41	0	1087373312	56	5844
2026-01-24 17:27:28.42	279.97	11.53	-41.4	-42.3	22.9	0.00e+00	12	41	0	1094713344	56	5946
2026-01-24 17:27:32.46	279.46	11.25	-41.7	-42.7	22.6	0.00e+00	0	41	0	1103101952	56	6241
2026-01-24 17:27:36.50	278.96	10.97	-42.0	-43.1	22.4	0.00e+00	75	41	0	1110441984	56	6478
2026-01-24 17:27:40.54	278.48	10.70	-42.0	-43.0	22.5	0.00e+00	16	41	0	1117782016	56	6449
2026-01-24 17:27:44.58	278.00	10.43	-42.3	-43.3	22.0	0.00e+00	5	41	0	1125122048	56	6689
2026-01-24 17:27:48.61	277.53	10.16	-42.5	-43.6	22.0	0.00e+00	12	41	0	1133510656	56	6860
2026-01-24 17:27:52.65	277.07	9.88	-42.8	-44.0	21.7	0.00e+00	92	41	0	1140850688	58	6397
2026-01-24 17:27:56.70	276.61	9.61	-42.9	-44.0	21.5	0.00e+00	7	41	0	1148190720	58	6451
2026-01-24 17:28:00.74	276.17	9.35	-42.7	-43.8	21.4	0.00e+00	6	41	0	1155530752	58	6311
2026-01-24 17:28:04.77	275.73	9.08	-42.9	-44.0	21.3	0.00e+00	13	41	0	1162870784	58	6458
2026-01-24 17:28:08.81	275.30	8.81	-42.9	-44.1	21.3	0.00e+00	92	41	0	1171259392	58	6517
2026-01-24 17:28:12.85	274.88	8.55	-43.1	-44.3	21.3	0.00e+00	0	41	0	1178599424	58	6629
2026-01-24 17:28:16.89	274.47	8.28	-43.9	-45.2	20.4	0.00e+00	0	41	0	1185939456	60	6582
2026-01-24 17:28:20.93	274.07	8.02	-43.9	-45.2	20.3	0.00e+00	0	41	0	1193279488	60	6569
2026-01-24 17:28:24.97	273.67	7.76	-44.4	-45.8	19.5	0.00e+00	92	41	0	1201668096	60	7064
2026-01-24 17:28:29.01	273.28	7.50	-44.6	-46.1	19.4	0.00e+00	70	41	0	1209008128	60	7306
2026-01-24 17:28:33.04	272.90	7.24	-44.2	-45.6	20.0	0.00e+00	0	41	0	1216348160	60	6860
2026-01-24 17:28:37.08	272.52	6.99	-44.2	-45.6	19.7	0.00e+00	0	41	0	1223688192	60	6879
2026-01-24 17:28:41.12	272.15	6.73	-44.8	-46.5	18.7	0.00e+00	92	41	0	1231028224	60	7608
2026-01-24 17:28:45.16	271.79	6.48	-44.4	-45.9	19.1	0.00e+00	2	41	0	1239416832	60	7138
2026-01-24 17:28:49.20	271.43	6.23	-44.1	-45.6	19.4	0.00e+00	10	41	0	1246756864	60	6852
2026-01-24 17:28:53.24	271.08	5.98	-45.7	-47.6	17.5	0.00e+00	81	41	0	1254096896	60	8657
2026-01-24 17:28:57.27	270.74	5.73	-45.6	-47.5	17.7	0.00e+00	90	41	0	1261436928	60	8586
2026-01-24 17:29:01.31	270.40	5.48	-45.4	-47.3	17.9	0.00e+00	0	41	0	1269825536	60	8385
2026-01-24 17:29:05.35	270.07	5.23	-45.7	-47.5	18.2	0.00e+00	2	41	0	1277165568	60	8577
2026-01-24 17:29:09.39	269.74	4.99	-46.3	-48.5	16.7	0.00e+00	92	41	0	1284505600	60	9563
2026-01-24 17:29:13.43	269.42	4.74	-46.2	-48.2	17.5	0.00e+00	91	41	0	1291845632	60	9305
2026-01-24 17:29:17.47	269.11	4.50	-45.7	-47.6	17.8	0.00e+00	0	41	0	1299185664	60	8644
2026-01-24 17:29:21.50	268.80	4.26	-46.7	-49.1	16.1	0.00e+00	2	41	0	1307574272	60	10258
2026-01-24 17:29:25.54	268.49	4.02	-47.3	-50.1	15.0	0.00e+00	83	41	0	1314914304	60	11500
2026-01-24 17:29:29.58	268.19	3.78	-46.1	-48.5	15.7	0.00e+00	38	41	0	1322254336	60	9589
2026-01-24 17:29:33.62	267.90	3.54	-47.1	-49.8	15.1	0.00e+00	8	41	0	1329594368	60	11201
2026-01-24 17:29:37.65	267.61	3.31	-46.2	-48.6	15.8	0.00e+00	0	41	0	1337982976	60	9719
2026-01-24 17:29:41.69	267.33	3.07	-47.0	-49.9	15.0	7.00e-07	92	41	0	1345323008	60	11290
2026-01-24 17:29:45.73	267.05	2.84	-51.7	-66.8	3.6	1.51e+00	0	41	104	1346371584	60	79300
2026-01-24 17:29:49.77	266.77	2.61	-52.0	-67.2	3.6	1.51e+00	0	41	104	1346371584	60	82628
2026-01-24 17:29:53.81	266.50	2.38	-52.9	-68.1	3.6	1.51e+00	0	41	104	1346371584	60	91856
2026-01-24 17:29:57.85	266.23	2.15	-52.4	-67.7	3.6	1.51e+00	0	41	104	1346371584	60	87622
2026-01-24 17:30:01.89	265.97	1.92	-52.3	-67.6	3.6	1.51e+00	0	41	104	1346371584	60	86599
2026-01-24 17:30:05.93	265.71	1.69	-52.2	-67.4	3.6	1.51e+00	0	41	104	1346371584	60	85022
2026-01-24 17:30:09.97	265.46	1.46	-52.1	-67.3	3.6	1.51e+00	0	41	104	1346371584	60	83823
2026-01-24 17:30:14.01	265.21	1.24	-52.4	-67.6	3.6	1.51e+00	0	41	104	1346371584	60	86311
2026-01-24 17:30:18.05	264.96	1.02	-52.7	-67.9	3.6	1.51e+00	0	41	104	1346371584	60	89879
2026-01-24 17:30:22.09	264.72	0.79	-52.7	-67.9	3.6	1.51e+00	0	41	104	1346371584	60	90257
2026-01-24 17:30:26.13	264.48	0.57	-52.8	-68.0	3.6	1.51e+00	0	41	104	1346371584	60	90590
2026-01-24 17:30:30.17	264.25	0.35	-52.6	-67.9	3.6	1.51e+00	0	41	104	1346371584	60	89254
2026-01-24 17:30:34.21	264.01	0.14	-52.2	-67.4	3.6	1.51e+00	0	41	104	1346371584	60	84877

#Closed at: 2026-01-24 17:30:38
#Recorded file [1346 MB]: D:/lorett/data/35029_260125_051650.dat