passes_logs/2026/01/24/R4.6S_Anadyr/R4.6S_Anadyr__20260124_012021_AQUA_rec.log

#Pass ID: 20260124_012021_AQUA
#Satellite: AQUA
#Configuration: AQUA
#almurnet v.1.7.20251203
#Start time: 2026-01-24 01:20:22

#Version: 2.2.20231116
#Station: R4.6S_Anadyr
#Location: 177.4865 lon 64.73178 lat
#TLE: 1 27424U 02022A   26023.58972979  .00001888  00000+0  38753-3 0  9997
#TLE: 2 27424  98.4100 350.1620 0001948  68.5331  43.0280 14.61852003262140

#Time	Az	El	Level	Level2	SNR	BER	BlckErr	Temp	State	Recorded	gain1	gain2
2026-01-24 01:20:22.59	140.13	0.10	-51.3	-63.9	3.4	1.52e+00	0	39	0	0	60	54882
2026-01-24 01:20:26.62	140.05	0.35	-51.7	-69.5	3.5	3.03e+01	0	40	104	0	60	115110
2026-01-24 01:20:30.66	139.97	0.60	-51.7	-69.5	3.5	3.03e+01	0	40	104	0	60	114768
2026-01-24 01:20:34.70	139.89	0.85	-51.6	-69.4	3.5	3.03e+01	0	40	104	0	60	113794
2026-01-24 01:20:38.74	139.81	1.11	-51.4	-69.2	3.5	3.03e+01	0	40	104	0	60	110756
2026-01-24 01:20:42.78	139.73	1.37	-50.5	-68.4	3.5	3.03e+01	0	41	104	0	60	101328
2026-01-24 01:20:46.81	139.64	1.63	-50.1	-67.7	3.5	3.03e+01	0	41	104	0	60	93895
2026-01-24 01:20:50.85	139.55	1.89	-49.9	-67.7	3.5	3.03e+01	0	41	104	0	60	93454
2026-01-24 01:20:54.89	139.46	2.16	-49.9	-66.6	3.5	3.03e+01	0	41	104	0	60	82451
2026-01-24 01:20:58.93	139.37	2.43	-49.9	-66.9	3.5	3.03e+01	0	41	104	0	60	85188
2026-01-24 01:21:02.97	139.28	2.70	-49.8	-67.0	3.5	3.03e+01	0	41	104	0	60	86158
2026-01-24 01:21:07.01	139.18	2.97	-49.9	-67.1	3.5	3.03e+01	0	41	104	0	60	87259
2026-01-24 01:21:11.04	139.08	3.25	-49.9	-66.8	3.5	3.03e+01	0	41	104	0	60	84396
2026-01-24 01:21:15.08	138.98	3.53	-49.0	-56.5	10.1	3.03e+01	92	41	0	2097152	60	25865
2026-01-24 01:21:19.13	138.88	3.82	-45.7	-48.7	18.9	3.03e+01	92	41	0	9437184	60	10474
2026-01-24 01:21:23.16	138.77	4.10	-48.5	-54.5	13.5	3.03e+01	90	41	0	13107200	60	20355
2026-01-24 01:21:27.20	138.67	4.39	-41.1	-42.7	24.5	3.03e+01	90	41	0	18874368	58	5910
2026-01-24 01:21:31.24	138.56	4.69	-40.9	-42.5	24.9	3.03e+01	91	41	0	26214400	56	6447
2026-01-24 01:21:35.28	138.44	4.99	-40.5	-42.0	25.6	3.03e+01	91	41	0	34078720	56	6069
2026-01-24 01:21:39.32	138.33	5.29	-40.0	-41.4	26.0	3.03e+01	92	41	0	41418752	54	6409
2026-01-24 01:21:43.36	138.21	5.59	-39.8	-41.2	26.3	3.03e+01	91	41	0	49283072	54	6274
2026-01-24 01:21:47.40	138.08	5.90	-39.6	-41.0	26.6	3.03e+01	92	41	0	56623104	54	6090
2026-01-24 01:21:51.44	137.96	6.21	-39.4	-40.8	26.9	3.03e+01	90	41	0	63963136	54	5938
2026-01-24 01:21:55.48	137.83	6.53	-39.4	-40.7	26.9	3.03e+01	92	41	0	71827456	54	5904
2026-01-24 01:21:59.52	137.70	6.85	-39.2	-40.6	27.1	3.03e+01	92	41	0	79167488	54	5824
2026-01-24 01:22:03.56	137.56	7.18	-39.1	-40.4	27.4	3.03e+01	90	41	0	87031808	52	6408
2026-01-24 01:22:07.60	137.42	7.51	-39.0	-40.3	27.4	3.03e+01	92	41	0	94371840	52	6311
2026-01-24 01:22:11.63	137.28	7.84	-38.9	-40.2	27.6	3.03e+01	90	41	0	102236160	52	6223
2026-01-24 01:22:15.67	137.13	8.18	-39.0	-40.4	27.4	3.03e+01	92	41	0	109576192	52	6362
2026-01-24 01:22:19.71	136.98	8.53	-38.8	-40.1	27.7	3.03e+01	92	41	0	117440512	52	6204
2026-01-24 01:22:23.75	136.82	8.88	-38.9	-40.2	27.8	3.03e+01	92	41	0	124780544	52	6216
2026-01-24 01:22:27.79	136.66	9.23	-38.7	-40.0	28.0	3.03e+01	92	41	0	132120576	52	6104
2026-01-24 01:22:31.82	136.50	9.59	-38.6	-39.9	27.9	3.03e+01	90	41	0	139984896	52	6042
2026-01-24 01:22:35.86	136.33	9.96	-38.5	-39.7	28.2	3.03e+01	90	41	0	147324928	52	5916
2026-01-24 01:22:39.90	136.16	10.33	-38.4	-39.7	28.2	3.03e+01	92	41	0	155189248	52	5876
2026-01-24 01:22:43.94	135.98	10.71	-38.4	-39.6	28.3	3.03e+01	89	41	0	162529280	52	5848
2026-01-24 01:22:47.98	135.79	11.10	-38.1	-39.3	28.6	3.03e+01	92	41	0	170393600	52	5647
2026-01-24 01:22:52.01	135.60	11.49	-37.7	-39.0	29.0	3.03e+01	91	41	0	177733632	50	6065
2026-01-24 01:22:56.05	135.40	11.88	-37.7	-39.0	28.9	3.03e+01	92	41	0	185597952	50	6065
2026-01-24 01:23:00.09	135.20	12.29	-37.4	-38.6	29.2	3.03e+01	92	41	0	192937984	50	5823
2026-01-24 01:23:04.13	134.99	12.70	-37.4	-38.7	29.2	3.03e+01	92	41	0	200278016	50	5861
2026-01-24 01:23:08.16	134.77	13.12	-37.3	-38.5	29.4	3.03e+01	90	41	0	208142336	50	5775
2026-01-24 01:23:12.20	134.55	13.55	-37.5	-38.8	29.2	3.03e+01	92	41	0	215482368	50	5933
2026-01-24 01:23:16.24	134.32	13.98	-37.6	-38.8	29.1	3.03e+01	92	41	0	223346688	50	5989
2026-01-24 01:23:20.28	134.08	14.43	-37.5	-38.7	29.3	3.03e+01	90	41	0	230686720	50	5891
2026-01-24 01:23:24.31	133.83	14.88	-37.3	-38.5	29.4	3.03e+01	92	41	0	238551040	50	5779
2026-01-24 01:23:28.35	133.58	15.34	-37.2	-38.4	29.5	3.03e+01	92	41	0	245891072	50	5721
2026-01-24 01:23:32.39	133.31	15.81	-37.3	-38.5	29.5	3.03e+01	90	41	0	253231104	50	5734
2026-01-24 01:23:36.43	133.04	16.29	-37.1	-38.4	29.6	3.03e+01	90	41	0	261095424	50	5660
2026-01-24 01:23:40.46	132.75	16.78	-37.4	-38.6	29.5	3.03e+01	90	41	0	268435456	50	5805
2026-01-24 01:23:44.49	132.46	17.28	-37.2	-38.4	29.5	3.03e+01	92	41	0	276299776	50	5686
2026-01-24 01:23:48.53	132.15	17.79	-37.3	-38.5	29.5	3.03e+01	91	41	0	283639808	50	5767
2026-01-24 01:23:52.57	131.84	18.31	-37.4	-38.6	29.5	3.03e+01	88	41	0	291504128	50	5797
2026-01-24 01:23:56.61	131.51	18.85	-37.6	-38.8	29.3	3.03e+01	92	41	0	298844160	50	5974
2026-01-24 01:24:00.64	131.16	19.39	-37.4	-38.6	29.5	3.03e+01	91	41	0	306184192	50	5813
2026-01-24 01:24:04.68	130.81	19.95	-37.3	-38.5	29.6	3.03e+01	92	41	0	314048512	50	5764
2026-01-24 01:24:08.72	130.44	20.52	-37.5	-38.7	29.4	3.03e+01	92	41	0	321388544	50	5876
2026-01-24 01:24:12.76	130.05	21.10	-37.6	-38.8	29.3	3.03e+01	92	41	0	329252864	50	5988
2026-01-24 01:24:16.80	129.65	21.70	-37.4	-38.6	29.5	3.03e+01	92	41	0	336592896	50	5820
2026-01-24 01:24:20.84	129.23	22.31	-37.5	-38.7	29.4	3.03e+01	92	41	0	344457216	50	5890
2026-01-24 01:24:24.88	128.79	22.94	-37.8	-39.0	29.3	3.03e+01	90	41	0	351797248	50	6085
2026-01-24 01:24:28.91	128.33	23.58	-37.8	-39.0	29.2	3.03e+01	90	41	0	359661568	50	6127
2026-01-24 01:24:32.95	127.85	24.24	-37.6	-38.8	29.4	3.03e+01	92	41	0	367001600	50	5930
2026-01-24 01:24:36.99	127.35	24.91	-37.6	-38.8	29.4	3.03e+01	92	41	0	374341632	50	5940
2026-01-24 01:24:41.03	126.82	25.60	-37.8	-39.1	29.2	3.03e+01	92	41	0	382205952	50	6136
2026-01-24 01:24:45.07	126.27	26.31	-37.3	-38.5	29.8	3.03e+01	90	41	0	389545984	50	5761
2026-01-24 01:24:49.10	125.70	27.03	-37.3	-38.5	29.7	3.03e+01	92	41	0	397410304	50	5772
2026-01-24 01:24:53.14	125.09	27.77	-37.3	-38.5	29.8	3.03e+01	87	41	0	404750336	50	5727
2026-01-24 01:24:57.18	124.46	28.53	-37.4	-38.6	29.7	3.03e+01	92	41	0	412614656	50	5817
2026-01-24 01:25:01.22	123.79	29.31	-37.0	-38.1	30.0	3.03e+01	93	41	0	419954688	48	6183
2026-01-24 01:25:05.25	123.09	30.10	-36.9	-38.1	30.1	3.03e+01	92	41	0	427819008	48	6186
2026-01-24 01:25:09.29	122.34	30.92	-36.9	-38.0	30.1	3.03e+01	92	41	0	435159040	48	6131
2026-01-24 01:25:13.33	121.56	31.76	-36.9	-38.1	30.1	3.03e+01	92	42	0	442499072	48	6175
2026-01-24 01:25:17.37	120.73	32.61	-37.0	-38.1	30.1	3.03e+01	90	41	0	450363392	48	6198
2026-01-24 01:25:21.41	119.86	33.49	-37.8	-39.0	29.5	3.03e+01	90	42	0	457703424	48	6817
2026-01-24 01:25:25.44	118.94	34.38	-37.7	-38.9	29.5	3.03e+01	92	42	0	465567744	48	6746
2026-01-24 01:25:29.48	117.96	35.30	-38.5	-39.7	28.9	3.03e+01	92	41	0	472907776	50	6605
2026-01-24 01:25:33.51	116.92	36.23	-38.6	-39.9	28.7	3.03e+01	90	41	0	480772096	50	6754
2026-01-24 01:25:37.55	115.82	37.18	-39.0	-40.3	28.4	3.03e+01	91	41	0	488112128	52	6282
2026-01-24 01:25:41.59	114.65	38.14	-39.4	-40.7	28.0	3.03e+01	92	41	0	495452160	52	6635
2026-01-24 01:25:45.63	113.40	39.13	-39.5	-40.8	27.9	3.03e+01	92	41	0	503316480	52	6684
2026-01-24 01:25:49.66	112.08	40.12	-39.4	-40.7	28.0	3.03e+01	92	41	0	510656512	52	6623
2026-01-24 01:25:53.70	110.67	41.13	-39.3	-40.6	28.1	3.03e+01	90	41	0	518520832	52	6562
2026-01-24 01:25:57.74	109.16	42.14	-39.0	-40.3	28.4	3.03e+01	92	41	0	525860864	52	6288
2026-01-24 01:26:01.78	107.56	43.17	-38.5	-39.7	28.9	3.03e+01	92	41	0	533725184	52	5918
2026-01-24 01:26:05.82	105.84	44.19	-38.7	-39.9	28.7	3.03e+01	91	42	0	541065216	52	6042
2026-01-24 01:26:09.85	104.02	45.21	-38.5	-39.7	28.9	3.03e+01	87	42	0	548929536	52	5883
2026-01-24 01:26:13.89	102.06	46.23	-38.8	-40.0	28.6	3.03e+01	89	41	0	556269568	52	6132
2026-01-24 01:26:17.92	99.98	47.22	-39.0	-40.2	28.5	3.03e+01	90	42	0	563609600	52	6252
2026-01-24 01:26:21.96	97.76	48.21	-39.5	-40.7	27.9	3.03e+01	92	41	0	571473920	52	6635
2026-01-24 01:26:26.00	95.39	49.16	-39.1	-40.3	28.4	3.03e+01	92	42	0	578813952	52	6330
2026-01-24 01:26:30.04	92.86	50.08	-38.6	-39.8	28.9	3.03e+01	92	42	0	586678272	52	5983
2026-01-24 01:26:34.07	90.19	50.96	-37.9	-39.1	29.4	3.03e+01	91	42	0	594018304	50	6168
2026-01-24 01:26:38.11	87.36	51.78	-38.6	-39.8	28.8	3.03e+01	92	42	0	601882624	50	6684
2026-01-24 01:26:42.15	84.36	52.54	-37.9	-39.1	29.4	3.03e+01	92	42	0	609222656	50	6147
2026-01-24 01:26:46.18	81.23	53.22	-37.5	-38.6	29.8	3.03e+01	91	42	0	616562688	50	5853
2026-01-24 01:26:50.22	77.94	53.83	-38.1	-39.4	29.2	3.03e+01	92	42	0	624427008	50	6357
2026-01-24 01:26:54.26	74.52	54.34	-38.5	-39.7	28.8	3.03e+01	92	42	0	631767040	50	6617
2026-01-24 01:26:58.30	70.99	54.75	-38.2	-39.4	29.2	3.03e+01	90	42	0	639631360	50	6366
2026-01-24 01:27:02.34	67.37	55.05	-38.7	-39.9	28.7	3.03e+01	90	42	0	646971392	50	6774
2026-01-24 01:27:06.37	63.69	55.24	-38.6	-39.8	28.9	3.03e+01	90	42	0	654835712	52	5968
2026-01-24 01:27:10.41	59.97	55.31	-38.2	-39.4	29.2	3.03e+01	92	42	0	662175744	52	5707
2026-01-24 01:27:14.45	56.25	55.26	-38.3	-39.5	29.0	3.03e+01	92	42	0	669515776	52	5765
2026-01-24 01:27:18.49	52.56	55.10	-38.8	-40.0	28.7	3.03e+01	90	42	0	677380096	52	6090
2026-01-24 01:27:22.52	48.93	54.82	-38.7	-39.9	28.8	3.03e+01	92	42	0	684720128	52	6036
2026-01-24 01:27:26.56	45.39	54.43	-38.5	-39.7	28.9	3.03e+01	92	42	0	692584448	52	5896
2026-01-24 01:27:30.60	41.95	53.94	-38.4	-39.6	29.0	3.03e+01	92	42	0	699924480	50	6524
2026-01-24 01:27:34.64	38.64	53.35	-37.4	-38.6	29.9	3.03e+01	92	42	0	707788800	50	5801
2026-01-24 01:27:38.68	35.47	52.68	-38.1	-39.3	29.3	3.03e+01	92	42	0	715128832	50	6300
2026-01-24 01:27:42.73	32.44	51.93	-37.5	-38.7	29.8	3.03e+01	92	42	0	722993152	50	5893
2026-01-24 01:27:46.76	29.59	51.12	-37.4	-38.6	29.8	3.03e+01	92	42	0	730333184	50	5816
2026-01-24 01:27:50.80	26.89	50.26	-37.5	-38.7	29.8	3.03e+01	91	42	0	738197504	50	5871
2026-01-24 01:27:54.84	24.34	49.35	-37.7	-38.9	29.7	3.03e+01	87	42	0	745537536	50	6031
2026-01-24 01:27:58.87	21.95	48.40	-37.8	-39.0	29.6	3.03e+01	90	42	0	752877568	50	6079
2026-01-24 01:28:02.91	19.70	47.43	-38.0	-39.2	29.4	3.03e+01	92	42	0	760741888	50	6223
2026-01-24 01:28:06.95	17.60	46.43	-38.0	-39.2	29.4	3.03e+01	90	42	0	768081920	50	6239
2026-01-24 01:28:10.99	15.62	45.42	-37.8	-39.0	29.6	3.03e+01	92	42	0	775946240	50	6107
2026-01-24 01:28:15.03	13.77	44.41	-38.0	-39.2	29.3	3.03e+01	59	42	0	783286272	50	6238
2026-01-24 01:28:19.06	12.05	43.39	-38.2	-39.3	29.3	3.03e+01	58	42	0	791150592	50	6349
2026-01-24 01:28:23.10	10.42	42.37	-38.5	-39.8	28.9	3.03e+01	62	42	0	798490624	50	6665
2026-01-24 01:28:27.14	8.90	41.36	-38.6	-39.8	28.8	3.03e+01	59	42	0	805830656	52	5990
2026-01-24 01:28:31.17	7.48	40.35	-39.1	-40.3	28.4	3.03e+01	60	42	0	813694976	52	6305
2026-01-24 01:28:35.21	6.14	39.36	-40.0	-41.3	27.6	3.03e+01	60	42	0	821035008	52	7098
2026-01-24 01:28:39.25	4.89	38.38	-39.5	-40.7	28.0	3.03e+01	59	42	0	828899328	54	5921
2026-01-24 01:28:43.28	3.71	37.41	-39.7	-41.1	27.7	3.03e+01	58	42	0	836239360	54	6140
2026-01-24 01:28:47.32	2.59	36.46	-39.5	-40.8	28.0	3.03e+01	59	42	0	844103680	54	5953
2026-01-24 01:28:51.36	1.55	35.53	-39.4	-40.7	28.1	3.03e+01	58	42	0	851443712	52	6622
2026-01-24 01:28:55.40	0.56	34.62	-38.4	-39.6	28.9	3.03e+01	60	42	0	859308032	52	5853
2026-01-24 01:28:59.44	359.63	33.72	-38.3	-39.5	29.1	3.03e+01	53	42	0	866648064	52	5771
2026-01-24 01:29:03.47	358.75	32.85	-38.2	-39.4	29.1	3.03e+01	60	42	0	873988096	52	5686
2026-01-24 01:29:07.51	357.92	31.99	-37.9	-39.1	29.3	3.03e+01	45	42	0	881852416	50	6174
2026-01-24 01:29:11.55	357.13	31.15	-37.7	-38.9	29.6	3.03e+01	50	42	0	889192448	50	6005
2026-01-24 01:29:15.58	356.38	30.34	-37.8	-39.0	29.4	3.03e+01	46	42	0	897056768	50	6122
2026-01-24 01:29:19.63	355.67	29.54	-37.7	-38.8	29.5	3.03e+01	56	42	0	904396800	50	5992
2026-01-24 01:29:23.66	355.00	28.76	-37.8	-39.0	29.3	3.03e+01	47	42	0	912261120	50	6065
2026-01-24 01:29:27.70	354.36	28.00	-37.8	-39.0	29.3	3.03e+01	61	42	0	919601152	50	6116
2026-01-24 01:29:31.74	353.75	27.25	-37.9	-39.1	29.3	3.03e+01	59	42	0	927465472	50	6152
2026-01-24 01:29:35.78	353.17	26.53	-37.8	-38.9	29.3	3.03e+01	60	42	0	934805504	50	6062
2026-01-24 01:29:39.81	352.62	25.82	-37.9	-39.1	29.2	3.03e+01	54	42	0	942145536	50	6203
2026-01-24 01:29:43.85	352.09	25.13	-38.5	-39.7	28.7	3.03e+01	58	42	0	950009856	50	6630
2026-01-24 01:29:47.89	351.59	24.46	-38.4	-39.7	28.7	3.03e+01	44	42	0	957349888	50	6584
2026-01-24 01:29:51.93	351.11	23.80	-38.2	-39.4	28.9	3.03e+01	62	42	0	965214208	50	6384
2026-01-24 01:29:55.96	350.65	23.16	-38.3	-39.5	28.8	3.03e+01	48	41	0	972554240	50	6459
2026-01-24 01:30:00.00	350.21	22.53	-38.2	-39.4	28.9	3.03e+01	60	41	0	980418560	50	6415
2026-01-24 01:30:04.03	349.78	21.92	-38.5	-39.7	28.7	3.03e+01	47	42	0	987758592	50	6643
2026-01-24 01:30:08.07	349.38	21.32	-38.3	-39.5	28.7	3.03e+01	56	41	0	995622912	50	6484
2026-01-24 01:30:12.11	348.99	20.74	-38.1	-39.3	28.9	3.03e+01	50	42	0	1002962944	50	6348
2026-01-24 01:30:16.15	348.62	20.17	-38.1	-39.4	28.9	3.03e+01	61	42	0	1010302976	50	6362
2026-01-24 01:30:20.18	348.26	19.61	-38.4	-39.6	28.6	3.03e+01	58	41	0	1018167296	50	6552
2026-01-24 01:30:24.22	347.92	19.06	-38.1	-39.3	28.8	3.03e+01	58	42	0	1025507328	50	6337
2026-01-24 01:30:28.26	347.59	18.53	-38.1	-39.4	28.9	3.03e+01	59	42	0	1033371648	50	6361
2026-01-24 01:30:32.30	347.27	18.01	-38.3	-39.5	28.7	3.03e+01	59	41	0	1040711680	50	6475
2026-01-24 01:30:36.34	346.97	17.49	-38.4	-39.6	28.6	3.03e+01	59	41	0	1048576000	50	6535
2026-01-24 01:30:40.38	346.67	16.99	-38.2	-39.5	28.7	3.03e+01	59	41	0	1055916032	50	6446
2026-01-24 01:30:44.42	346.39	16.50	-38.2	-39.4	28.7	3.03e+01	56	41	0	1063780352	50	6383
2026-01-24 01:30:48.46	346.11	16.02	-38.0	-39.2	28.9	3.03e+01	59	41	0	1071120384	50	6266
2026-01-24 01:30:52.50	345.85	15.55	-38.1	-39.4	28.8	3.03e+01	63	41	0	1078460416	50	6356
2026-01-24 01:30:56.54	345.59	15.09	-38.0	-39.2	28.9	3.03e+01	61	41	0	1086324736	50	6274
2026-01-24 01:31:00.58	345.35	14.64	-38.1	-39.3	28.9	3.03e+01	60	41	0	1093664768	50	6303
2026-01-24 01:31:04.62	345.11	14.19	-38.2	-39.4	28.7	3.03e+01	60	41	0	1101529088	50	6385
2026-01-24 01:31:08.66	344.88	13.75	-38.2	-39.5	28.7	3.03e+01	58	41	0	1108869120	50	6442
2026-01-24 01:31:12.69	344.66	13.33	-38.4	-39.6	28.5	3.03e+01	60	41	0	1116733440	50	6542
2026-01-24 01:31:16.73	344.44	12.91	-38.3	-39.5	28.6	3.03e+01	60	41	0	1124073472	50	6471
2026-01-24 01:31:20.77	344.23	12.49	-39.0	-49.0	3.6	3.03e+01	0	41	104	1130364928	50	19334
2026-01-24 01:31:24.81	344.03	12.09	-40.6	-50.9	3.6	3.03e+01	0	41	104	1130364928	54	19079
2026-01-24 01:31:28.84	343.84	11.69	-40.2	-50.5	3.6	3.03e+01	0	41	104	1130364928	56	16159
2026-01-24 01:31:32.88	343.65	11.30	-40.1	-50.4	3.6	3.03e+01	0	41	104	1130364928	54	17980
2026-01-24 01:31:36.91	343.46	10.92	-50.9	-67.4	3.5	3.03e+01	0	41	104	1130364928	60	90627
2026-01-24 01:31:40.95	343.28	10.54	-39.3	-49.5	3.5	3.03e+01	0	41	104	1130364928	54	16192
2026-01-24 01:31:44.99	343.11	10.16	-50.9	-67.9	3.5	3.03e+01	0	41	104	1130364928	60	95114
2026-01-24 01:31:49.02	342.94	9.80	-39.4	-49.5	3.5	3.03e+01	0	41	104	1130364928	54	16321
2026-01-24 01:31:53.06	342.78	9.44	-50.8	-68.1	3.5	3.03e+01	0	41	104	1130364928	60	97855
2026-01-24 01:31:57.10	342.62	9.08	-40.3	-50.5	3.5	3.03e+01	0	41	104	1130364928	56	16180
2026-01-24 01:32:01.14	342.47	8.73	-41.1	-51.5	3.5	3.03e+01	0	41	104	1130364928	58	16166
2026-01-24 01:32:05.18	342.32	8.39	-40.1	-50.4	3.5	3.03e+01	0	41	104	1130364928	56	16095
2026-01-24 01:32:09.22	342.17	8.05	-42.3	-52.9	3.5	3.03e+01	0	41	104	1130364928	60	17058
2026-01-24 01:32:13.26	342.03	7.71	-50.7	-67.6	3.5	3.03e+01	0	41	104	1130364928	60	92424
2026-01-24 01:32:17.29	341.90	7.38	-40.3	-50.7	3.5	3.03e+01	0	41	104	1130364928	56	16553
2026-01-24 01:32:21.33	341.76	7.06	-40.4	-50.6	3.5	3.03e+01	0	41	104	1130364928	56	16471
2026-01-24 01:32:25.37	341.63	6.73	-41.2	-51.6	3.5	3.03e+01	0	41	104	1130364928	56	18377
2026-01-24 01:32:29.41	341.51	6.42	-49.5	-65.4	3.5	3.03e+01	0	41	104	1130364928	60	71499
2026-01-24 01:32:33.45	341.38	6.10	-41.5	-52.0	3.5	3.03e+01	0	41	104	1130364928	58	17210
2026-01-24 01:32:37.49	341.26	5.79	-43.0	-53.8	3.5	3.03e+01	0	41	104	1130364928	60	18922
2026-01-24 01:32:41.52	341.15	5.49	-42.9	-53.8	3.5	3.03e+01	0	41	104	1130364928	60	18939
2026-01-24 01:32:45.56	341.03	5.19	-44.7	-56.7	3.5	3.03e+01	0	41	104	1130364928	60	26225
2026-01-24 01:32:49.59	340.92	4.89	-46.4	-59.2	3.5	3.03e+01	0	41	104	1130364928	60	34897
2026-01-24 01:32:53.63	340.81	4.60	-46.8	-62.1	3.5	3.03e+01	0	41	104	1130364928	60	49151
2026-01-24 01:32:57.67	340.71	4.31	-47.1	-64.6	3.5	3.03e+01	0	41	104	1130364928	60	65004
2026-01-24 01:33:01.70	340.60	4.02	-47.1	-64.5	3.5	3.03e+01	0	41	104	1130364928	60	64980
2026-01-24 01:33:05.74	340.50	3.73	-47.0	-64.9	3.5	3.03e+01	0	41	104	1130364928	60	67282
2026-01-24 01:33:09.78	340.41	3.45	-47.0	-64.9	3.5	3.03e+01	0	41	104	1130364928	60	67494
2026-01-24 01:33:13.81	340.31	3.18	-47.0	-64.8	3.4	3.03e+01	0	41	104	1130364928	60	66846
2026-01-24 01:33:17.86	340.22	2.90	-49.9	-67.8	3.5	3.03e+01	0	42	104	1130364928	60	94670
2026-01-24 01:33:21.89	340.13	2.63	-51.5	-69.4	3.5	3.03e+01	0	41	104	1130364928	60	113439
2026-01-24 01:33:25.93	340.04	2.36	-51.9	-69.7	3.5	3.03e+01	0	41	104	1130364928	60	117195
2026-01-24 01:33:29.97	339.95	2.09	-51.9	-69.8	3.5	3.03e+01	0	42	104	1130364928	60	118410
2026-01-24 01:33:34.01	339.87	1.83	-51.8	-69.7	3.5	3.03e+01	0	41	104	1130364928	60	117195
2026-01-24 01:33:38.05	339.78	1.57	-51.7	-69.6	3.5	3.03e+01	0	42	104	1130364928	60	116502
2026-01-24 01:33:42.09	339.70	1.31	-51.9	-69.7	3.5	3.03e+01	0	41	104	1130364928	60	117609
2026-01-24 01:33:46.13	339.62	1.05	-51.9	-69.7	3.5	3.03e+01	0	41	104	1130364928	60	117728
2026-01-24 01:33:50.16	339.55	0.80	-51.9	-69.7	3.5	3.03e+01	0	41	104	1130364928	60	117109
2026-01-24 01:33:54.20	339.47	0.55	-51.9	-69.7	3.5	3.03e+01	0	41	104	1130364928	60	117146
2026-01-24 01:33:58.24	339.40	0.30	-51.9	-69.7	3.5	3.03e+01	0	41	104	1130364928	60	117025
2026-01-24 01:34:02.29	339.33	0.05	-51.9	-69.7	3.5	3.03e+01	0	42	104	1130364928	60	117123

#Closed at: 2026-01-24 01:34:03
#Recorded file [1130 MB]: D:/lorett/data/35029_260124_132022.dat