passes_logs/2026/01/24/R4.6S_Anadyr/R4.6S_Anadyr__20260124_144622_NOAA_21_JPSS-2_rec.log

#Pass ID: 20260124_144622_NOAA 21 (JPSS-2)
#Satellite: NOAA 21 (JPSS-2)
#Configuration: NOAA-21
#almurnet v.1.7.20251203
#Start time: 2026-01-24 14:46:25

#Version: 2.2.20231116
#Station: R4.6S_Anadyr
#Location: 177.4865 lon 64.73178 lat
#TLE: 1 54234U 22150A   26024.10530052  .00000243  00000+0  13599-3 0  9996
#TLE: 2 54234  98.7508 324.8953 0000717 223.3896 136.7224 14.19538773166106

#Time	Az	El	Level	Level2	SNR	BER	BlckErr	Temp	State	Recorded	gain1	gain2
2026-01-24 14:46:25.48	20.59	0.20	-53.1	-64.5	3.3	1.54e+00	0	40	0	0	60	58757
2026-01-24 14:46:29.52	20.61	0.44	-51.6	-64.6	3.5	1.51e+00	0	40	104	0	60	59779
2026-01-24 14:46:33.56	20.62	0.69	-51.5	-64.4	3.5	1.52e+00	0	40	104	0	60	58565
2026-01-24 14:46:37.60	20.63	0.93	-51.3	-64.2	3.5	1.52e+00	0	41	104	0	60	56774
2026-01-24 14:46:41.64	20.64	1.18	-50.9	-63.7	3.5	1.52e+00	0	41	104	0	60	53836
2026-01-24 14:46:45.68	20.66	1.43	-50.3	-63.1	3.5	1.52e+00	0	41	104	0	60	50148
2026-01-24 14:46:49.72	20.67	1.69	-49.9	-62.7	3.5	1.52e+00	0	41	104	0	60	47896
2026-01-24 14:46:53.76	20.68	1.94	-49.9	-62.7	3.5	1.51e+00	0	41	104	0	60	48074
2026-01-24 14:46:57.80	20.69	2.20	-49.9	-62.6	3.5	1.52e+00	0	41	104	0	60	47252
2026-01-24 14:47:01.84	20.70	2.46	-49.4	-58.5	4.4	1.51e+00	120	41	104	0	60	29684
2026-01-24 14:47:05.88	20.71	2.72	-49.6	-60.4	3.5	1.51e+00	0	41	104	0	60	36939
2026-01-24 14:47:09.92	20.73	2.99	-47.4	-51.2	10.7	7.58e-03	123	41	0	2097152	60	12679
2026-01-24 14:47:13.96	20.74	3.26	-43.9	-45.8	15.8	0.00e+00	123	41	0	14680064	60	6826
2026-01-24 14:47:18.01	20.75	3.53	-44.0	-45.8	16.3	0.00e+00	122	41	0	27262976	60	6827
2026-01-24 14:47:22.05	20.76	3.80	-42.1	-43.5	18.0	0.00e+00	123	41	0	39845888	54	7416
2026-01-24 14:47:26.09	20.77	4.08	-42.6	-44.2	18.6	1.40e-04	122	41	0	42991616	60	5682
2026-01-24 14:47:30.13	20.78	4.36	-41.0	-42.3	19.5	0.00e+00	123	41	0	55574528	54	6447
2026-01-24 14:47:34.17	20.79	4.64	-39.5	-40.6	21.4	0.00e+00	122	41	0	68157440	54	5307
2026-01-24 14:47:38.21	20.80	4.92	-39.7	-40.9	21.1	0.00e+00	123	41	0	80740352	52	6150
2026-01-24 14:47:42.25	20.81	5.21	-41.4	-42.7	19.2	0.00e+00	123	41	0	93323264	54	6796
2026-01-24 14:47:46.29	20.82	5.50	-40.2	-41.3	20.9	0.00e+00	120	41	0	105906176	54	5770
2026-01-24 14:47:50.32	20.83	5.79	-39.7	-40.8	21.2	0.00e+00	123	41	0	118489088	52	6116
2026-01-24 14:47:54.37	20.84	6.09	-41.6	-42.9	19.2	0.00e+00	123	41	0	131072000	54	6916
2026-01-24 14:47:58.41	20.85	6.39	-40.7	-41.8	20.5	0.00e+00	123	41	0	143654912	54	6126
2026-01-24 14:48:02.44	20.86	6.70	-40.9	-42.2	20.1	0.00e+00	120	41	0	156237824	54	6358
2026-01-24 14:48:06.48	20.87	7.01	-41.2	-42.5	19.9	0.00e+00	123	41	0	168820736	54	6601
2026-01-24 14:48:10.52	20.88	7.32	-40.2	-41.4	21.1	0.00e+00	120	41	0	181403648	52	6512
2026-01-24 14:48:14.55	20.89	7.63	-40.1	-41.3	21.1	0.00e+00	120	41	0	193986560	52	6430
2026-01-24 14:48:18.59	20.90	7.95	-39.5	-40.5	21.8	0.00e+00	122	41	0	206569472	52	5911
2026-01-24 14:48:22.63	20.90	8.28	-38.9	-39.9	22.1	0.00e+00	123	41	0	219152384	50	6172
2026-01-24 14:48:26.66	20.91	8.60	-38.9	-39.9	22.2	0.00e+00	123	41	0	231735296	50	6162
2026-01-24 14:48:30.70	20.92	8.94	-38.8	-39.8	22.3	0.00e+00	120	42	0	244318208	50	6130
2026-01-24 14:48:34.74	20.93	9.27	-38.4	-39.4	22.8	0.00e+00	122	42	0	256901120	50	5826
2026-01-24 14:48:38.78	20.94	9.62	-38.5	-39.5	22.7	0.00e+00	121	42	0	269484032	50	5865
2026-01-24 14:48:42.81	20.94	9.96	-38.5	-39.5	22.7	0.00e+00	121	42	0	282066944	50	5907
2026-01-24 14:48:46.85	20.95	10.31	-38.2	-39.2	23.0	0.00e+00	123	42	0	294649856	50	5700
2026-01-24 14:48:50.89	20.96	10.67	-38.7	-39.7	22.6	0.00e+00	123	42	0	307232768	50	6036
2026-01-24 14:48:54.93	20.96	11.03	-38.3	-39.3	22.9	0.00e+00	123	42	0	319815680	50	5755
2026-01-24 14:48:58.96	20.97	11.40	-38.3	-39.3	22.9	0.00e+00	122	42	0	332398592	50	5768
2026-01-24 14:49:03.00	20.98	11.77	-37.8	-38.7	23.4	0.00e+00	121	42	0	346030080	48	6052
2026-01-24 14:49:07.05	20.98	12.15	-38.0	-38.9	23.2	0.00e+00	120	42	0	358612992	48	6190
2026-01-24 14:49:11.08	20.99	12.53	-38.0	-38.9	23.3	0.00e+00	120	42	0	371195904	48	6182
2026-01-24 14:49:15.12	20.99	12.92	-37.8	-38.8	23.4	0.00e+00	123	42	0	383778816	48	6080
2026-01-24 14:49:19.16	21.00	13.32	-37.9	-38.8	23.4	0.00e+00	123	42	0	396361728	48	6095
2026-01-24 14:49:23.21	21.00	13.72	-37.7	-38.6	23.4	0.00e+00	122	42	0	408944640	48	5984
2026-01-24 14:49:27.25	21.00	14.13	-37.6	-38.5	23.6	0.00e+00	122	42	0	421527552	48	5906
2026-01-24 14:49:31.28	21.01	14.55	-37.9	-38.8	23.5	0.00e+00	123	42	0	434110464	48	6115
2026-01-24 14:49:35.32	21.01	14.97	-37.5	-38.4	23.7	0.00e+00	122	42	0	446693376	48	5842
2026-01-24 14:49:39.36	21.01	15.40	-37.6	-38.6	23.7	0.00e+00	123	42	0	459276288	48	5932
2026-01-24 14:49:43.40	21.02	15.84	-37.6	-38.6	23.6	0.00e+00	123	42	0	471859200	48	5936
2026-01-24 14:49:47.44	21.02	16.29	-37.7	-38.6	23.6	0.00e+00	122	42	0	484442112	48	5974
2026-01-24 14:49:51.48	21.02	16.75	-37.7	-38.6	23.7	0.00e+00	123	42	0	497025024	48	5959
2026-01-24 14:49:55.52	21.02	17.21	-37.9	-38.9	23.4	0.00e+00	123	42	0	509607936	48	6143
2026-01-24 14:49:59.56	21.02	17.69	-37.7	-38.6	23.6	0.00e+00	124	42	0	522190848	48	5972
2026-01-24 14:50:03.60	21.02	18.17	-37.8	-38.8	23.6	0.00e+00	122	42	0	534773760	48	6071
2026-01-24 14:50:07.64	21.02	18.66	-37.7	-38.7	23.6	0.00e+00	121	42	0	547356672	48	6019
2026-01-24 14:50:11.68	21.02	19.17	-38.2	-39.1	23.4	0.00e+00	123	42	0	559939584	48	6321
2026-01-24 14:50:15.72	21.02	19.68	-37.7	-38.7	23.6	0.00e+00	123	42	0	572522496	48	6014
2026-01-24 14:50:19.76	21.02	20.21	-37.5	-38.4	23.8	0.00e+00	123	42	0	585105408	48	5841
2026-01-24 14:50:23.80	21.01	20.74	-37.1	-38.0	24.2	0.00e+00	121	42	0	597688320	48	5582
2026-01-24 14:50:27.83	21.01	21.29	-37.0	-37.9	24.2	0.00e+00	123	42	0	610271232	48	5522
2026-01-24 14:50:31.87	21.01	21.85	-36.7	-37.6	24.5	0.00e+00	123	42	0	622854144	46	5940
2026-01-24 14:50:35.91	21.00	22.42	-36.6	-37.4	24.7	0.00e+00	122	42	0	635437056	46	5852
2026-01-24 14:50:39.95	20.99	23.01	-36.2	-37.0	24.9	0.00e+00	122	42	0	648019968	46	5594
2026-01-24 14:50:43.99	20.99	23.60	-36.5	-37.4	24.7	0.00e+00	123	41	0	660602880	46	5796
2026-01-24 14:50:48.03	20.98	24.22	-36.1	-36.9	25.0	0.00e+00	123	42	0	673185792	46	5522
2026-01-24 14:50:52.07	20.97	24.85	-36.2	-37.1	24.9	0.00e+00	123	41	0	686817280	46	5624
2026-01-24 14:50:56.11	20.96	25.49	-36.4	-37.3	24.8	0.00e+00	123	41	0	699400192	46	5735
2026-01-24 14:51:00.15	20.95	26.15	-37.0	-37.9	24.4	0.00e+00	121	42	0	711983104	46	6185
2026-01-24 14:51:04.19	20.94	26.82	-37.1	-38.0	24.2	0.00e+00	123	41	0	724566016	46	6247
2026-01-24 14:51:08.22	20.92	27.52	-37.7	-38.6	23.8	0.00e+00	122	41	0	737148928	48	5964
2026-01-24 14:51:12.26	20.91	28.23	-37.8	-38.8	23.7	0.00e+00	123	41	0	749731840	48	6067
2026-01-24 14:51:16.30	20.89	28.96	-38.0	-38.9	23.6	0.00e+00	123	41	0	762314752	48	6176
2026-01-24 14:51:20.34	20.88	29.71	-37.6	-38.5	24.0	0.00e+00	122	41	0	774897664	48	5917
2026-01-24 14:51:24.38	20.86	30.48	-37.3	-38.2	24.2	0.00e+00	122	41	0	787480576	48	5713
2026-01-24 14:51:28.41	20.83	31.27	-37.9	-38.9	23.7	0.00e+00	123	41	0	800063488	48	6144
2026-01-24 14:51:32.45	20.81	32.08	-36.9	-37.8	24.5	0.00e+00	122	41	0	812646400	48	5423
2026-01-24 14:51:36.49	20.79	32.92	-37.2	-38.1	24.3	0.00e+00	120	41	0	825229312	48	5628
2026-01-24 14:51:40.53	20.76	33.78	-37.8	-38.7	23.8	0.00e+00	123	41	0	837812224	48	6059
2026-01-24 14:51:44.57	20.73	34.66	-38.4	-39.3	23.3	0.00e+00	123	41	0	850395136	48	6462
2026-01-24 14:51:48.61	20.70	35.57	-39.4	-40.5	22.5	0.00e+00	125	41	0	862978048	50	6582
2026-01-24 14:51:52.65	20.66	36.51	-39.6	-40.7	22.3	0.00e+00	123	41	0	875560960	50	6750
2026-01-24 14:51:56.68	20.62	37.47	-39.5	-40.4	22.6	0.00e+00	123	41	0	888143872	52	5857
2026-01-24 14:52:00.72	20.58	38.47	-38.9	-39.9	23.0	0.00e+00	123	41	0	900726784	52	5486
2026-01-24 14:52:04.76	20.54	39.49	-39.2	-40.2	22.5	0.00e+00	122	41	0	913309696	52	5677
2026-01-24 14:52:08.80	20.49	40.55	-38.9	-39.9	22.7	0.00e+00	123	41	0	925892608	50	6158
2026-01-24 14:52:12.84	20.43	41.63	-39.5	-40.5	22.6	0.00e+00	123	41	0	938475520	50	6623
2026-01-24 14:52:16.88	20.38	42.75	-40.0	-41.0	22.2	0.00e+00	121	41	0	951058432	52	6267
2026-01-24 14:52:20.92	20.31	43.91	-40.0	-41.0	22.1	0.00e+00	123	41	0	963641344	52	6232
2026-01-24 14:52:24.96	20.24	45.10	-40.5	-41.6	21.7	0.00e+00	123	41	0	976224256	52	6655
2026-01-24 14:52:29.00	20.16	46.33	-40.6	-41.7	21.3	0.00e+00	123	41	0	988807168	54	6064
2026-01-24 14:52:33.04	20.08	47.59	-39.9	-40.9	22.1	0.00e+00	120	41	0	1001390080	52	6203
2026-01-24 14:52:37.08	19.99	48.90	-39.4	-40.4	22.6	0.00e+00	122	41	0	1013972992	52	5817
2026-01-24 14:52:41.12	19.88	50.24	-38.8	-39.7	23.3	0.00e+00	121	41	0	1027604480	50	6047
2026-01-24 14:52:45.16	19.77	51.63	-39.4	-40.4	22.7	0.00e+00	123	41	0	1040187392	50	6562
2026-01-24 14:52:49.20	19.64	53.05	-38.7	-39.7	23.3	0.00e+00	123	41	0	1052770304	50	6014
2026-01-24 14:52:53.24	19.50	54.52	-38.3	-39.2	23.7	0.00e+00	123	41	0	1065353216	50	5672
2026-01-24 14:52:57.28	19.34	56.03	-37.5	-38.4	24.2	0.00e+00	123	41	0	1077936128	48	5845
2026-01-24 14:53:01.32	19.16	57.59	-37.6	-38.5	24.2	0.00e+00	123	41	0	1090519040	48	5874
2026-01-24 14:53:05.35	18.96	59.18	-37.0	-37.9	24.6	0.00e+00	121	41	0	1103101952	48	5481
2026-01-24 14:53:09.39	18.72	60.82	-36.4	-37.2	25.0	0.00e+00	122	41	0	1115684864	46	5719
2026-01-24 14:53:13.43	18.46	62.50	-36.6	-37.5	24.6	0.00e+00	123	41	0	1128267776	46	5919
2026-01-24 14:53:17.47	18.15	64.22	-35.9	-36.8	25.0	0.00e+00	123	41	0	1140850688	46	5444
2026-01-24 14:53:21.50	17.78	65.98	-35.7	-36.6	25.5	0.00e+00	122	41	0	1153433600	44	5928
2026-01-24 14:53:25.54	17.35	67.78	-36.1	-37.0	25.2	0.00e+00	122	41	0	1166016512	44	6244
2026-01-24 14:53:29.58	16.83	69.62	-35.7	-36.6	25.3	0.00e+00	122	41	0	1178599424	44	5932
2026-01-24 14:53:33.62	16.20	71.49	-35.8	-36.6	25.4	0.00e+00	122	41	0	1191182336	44	5970
2026-01-24 14:53:37.65	15.41	73.39	-35.8	-36.6	25.5	0.00e+00	120	41	0	1203765248	44	5965
2026-01-24 14:53:41.69	14.39	75.32	-35.5	-36.3	25.5	0.00e+00	123	41	0	1216348160	44	5747
2026-01-24 14:53:45.73	13.05	77.27	-36.1	-36.9	25.2	0.00e+00	123	42	0	1228931072	44	6167
2026-01-24 14:53:49.77	11.20	79.24	-36.7	-37.5	24.8	0.00e+00	122	41	0	1241513984	46	5914
2026-01-24 14:53:53.81	8.49	81.22	-36.8	-37.7	25.1	0.00e+00	123	41	0	1254096896	46	6016
2026-01-24 14:53:57.85	4.17	83.18	-36.5	-37.4	25.1	0.00e+00	123	41	0	1266679808	46	5830
2026-01-24 14:54:01.89	356.39	85.08	-37.1	-38.0	24.2	0.00e+00	122	42	0	1279262720	46	6238
2026-01-24 14:54:05.93	339.57	86.80	-36.6	-37.5	25.0	0.00e+00	123	41	0	1291845632	46	5875
2026-01-24 14:54:09.97	299.47	87.79	-36.9	-37.7	25.0	0.00e+00	122	41	0	1304428544	46	6055
2026-01-24 14:54:14.01	253.27	87.14	-37.3	-38.2	24.9	0.00e+00	120	41	0	1317011456	46	6402
2026-01-24 14:54:18.05	232.39	85.53	-36.7	-37.6	25.1	0.00e+00	120	41	0	1329594368	46	5955
2026-01-24 14:54:22.09	223.20	83.65	-36.6	-37.4	25.3	0.00e+00	120	41	0	1342177280	46	5848
2026-01-24 14:54:26.13	218.29	81.69	-37.0	-37.9	24.9	0.00e+00	123	41	0	1354760192	46	6171
2026-01-24 14:54:30.17	215.28	79.72	-37.7	-38.6	24.5	0.00e+00	120	41	0	1368391680	48	5937
2026-01-24 14:54:34.21	213.26	77.74	-36.8	-37.7	24.6	0.00e+00	123	41	0	1380974592	46	5995
2026-01-24 14:54:38.25	211.81	75.78	-36.7	-37.6	24.5	0.00e+00	121	41	0	1393557504	46	5966
2026-01-24 14:54:42.29	210.73	73.84	-37.1	-38.0	24.9	0.00e+00	123	41	0	1406140416	46	6233
2026-01-24 14:54:46.33	209.89	71.92	-37.2	-38.2	24.4	0.00e+00	123	41	0	1418723328	48	5682
2026-01-24 14:54:50.37	209.22	70.04	-36.8	-37.7	24.6	0.00e+00	122	41	0	1431306240	46	6062
2026-01-24 14:54:54.41	208.68	68.19	-35.4	-36.2	25.3	0.00e+00	122	41	0	1443889152	44	5700
2026-01-24 14:54:58.45	208.23	66.38	-37.5	-38.4	24.6	0.00e+00	122	41	0	1456472064	46	6503
2026-01-24 14:55:02.48	207.85	64.61	-35.8	-36.7	24.8	0.00e+00	122	41	0	1469054976	46	5354
2026-01-24 14:55:06.52	207.53	62.87	-39.1	-40.2	22.9	0.00e+00	123	41	0	1481637888	50	6351
2026-01-24 14:55:10.56	207.25	61.17	-37.7	-38.6	23.8	0.00e+00	120	41	0	1494220800	50	5301
2026-01-24 14:55:14.60	207.01	59.52	-38.1	-39.0	23.9	0.00e+00	123	42	0	1506803712	48	6218
2026-01-24 14:55:18.64	206.80	57.91	-37.2	-38.1	23.7	0.00e+00	122	42	0	1519386624	48	5640
2026-01-24 14:55:22.68	206.61	56.34	-37.9	-38.8	24.0	0.00e+00	123	41	0	1531969536	46	6847
2026-01-24 14:55:26.72	206.45	54.82	-39.2	-40.2	22.4	0.00e+00	122	42	0	1544552448	50	6420
2026-01-24 14:55:30.76	206.30	53.34	-37.7	-38.6	23.9	0.00e+00	123	41	0	1557135360	50	5326
2026-01-24 14:55:34.80	206.17	51.90	-38.9	-39.9	22.9	0.00e+00	122	41	0	1569718272	50	6171
2026-01-24 14:55:38.84	206.05	50.50	-39.6	-40.6	21.5	0.00e+00	123	41	0	1582301184	52	5991
2026-01-24 14:55:42.88	205.94	49.14	-39.5	-40.6	21.7	0.00e+00	123	41	0	1594884096	52	5947
2026-01-24 14:55:46.92	205.85	47.82	-39.2	-40.2	22.7	0.00e+00	123	42	0	1607467008	52	5683
2026-01-24 14:55:50.97	205.76	46.54	-41.7	-42.9	20.3	0.00e+00	120	42	0	1620049920	54	6931
2026-01-24 14:55:55.00	205.68	45.30	-40.7	-41.8	21.3	0.00e+00	122	42	0	1632632832	54	6082
2026-01-24 14:55:59.04	205.61	44.10	-40.9	-42.0	20.9	0.00e+00	123	42	0	1645215744	54	6274
2026-01-24 14:56:03.08	205.54	42.93	-39.6	-40.5	22.5	0.00e+00	122	42	0	1657798656	52	5916
2026-01-24 14:56:07.12	205.48	41.80	-39.5	-40.5	22.6	0.00e+00	123	42	0	1670381568	50	6611
2026-01-24 14:56:11.16	205.43	40.70	-40.7	-41.8	21.7	0.00e+00	123	42	0	1684013056	52	6851
2026-01-24 14:56:15.20	205.37	39.63	-40.9	-42.0	21.5	0.00e+00	123	42	0	1696595968	54	6255
2026-01-24 14:56:19.24	205.33	38.60	-40.0	-41.1	22.2	0.00e+00	120	42	0	1709178880	54	5615
2026-01-24 14:56:23.27	205.28	37.60	-39.6	-40.6	22.6	0.00e+00	122	42	0	1721761792	52	5940
2026-01-24 14:56:27.32	205.24	36.62	-38.7	-39.7	23.2	0.00e+00	123	42	0	1734344704	50	6010
2026-01-24 14:56:31.35	205.21	35.68	-38.8	-39.7	23.5	0.00e+00	123	42	0	1746927616	50	6019
2026-01-24 14:56:35.39	205.17	34.76	-38.6	-39.6	23.0	0.00e+00	123	42	0	1759510528	50	5959
2026-01-24 14:56:39.43	205.14	33.86	-38.1	-39.1	23.6	0.00e+00	122	42	0	1772093440	50	5612
2026-01-24 14:56:43.47	205.11	33.00	-37.9	-38.8	24.0	0.00e+00	123	42	0	1784676352	48	6079
2026-01-24 14:56:47.51	205.08	32.15	-38.4	-39.4	23.7	0.00e+00	122	42	0	1797259264	50	5809
2026-01-24 14:56:51.54	205.06	31.33	-37.9	-38.9	23.9	0.00e+00	123	42	0	1809842176	50	5475
2026-01-24 14:56:55.58	205.04	30.53	-38.0	-38.9	23.8	0.00e+00	123	42	0	1822425088	50	5511
2026-01-24 14:56:59.62	205.01	29.76	-38.1	-39.0	23.7	0.00e+00	122	42	0	1835008000	50	5557
2026-01-24 14:57:03.66	204.99	29.00	-37.5	-38.5	23.8	0.00e+00	123	42	0	1847590912	48	5860
2026-01-24 14:57:07.70	204.98	28.26	-37.1	-38.1	23.7	0.00e+00	123	42	0	1860173824	48	5606
2026-01-24 14:57:11.74	204.96	27.55	-37.1	-38.1	23.5	0.00e+00	122	42	0	1872756736	48	5610
2026-01-24 14:57:15.78	204.94	26.85	-37.3	-38.2	23.5	0.00e+00	120	42	0	1885339648	48	5712
2026-01-24 14:57:19.82	204.93	26.16	-37.4	-38.4	23.7	0.00e+00	120	42	0	1897922560	48	5797
2026-01-24 14:57:23.86	204.92	25.50	-37.5	-38.5	24.1	0.00e+00	122	42	0	1910505472	48	5860
2026-01-24 14:57:27.90	204.91	24.85	-37.3	-38.2	24.4	0.00e+00	123	42	0	1923088384	48	5718
2026-01-24 14:57:31.94	204.89	24.22	-36.9	-37.8	24.7	0.00e+00	123	42	0	1935671296	48	5441
2026-01-24 14:57:35.98	204.88	23.60	-36.8	-37.6	24.7	0.00e+00	122	42	0	1948254208	46	5994
2026-01-24 14:57:40.02	204.88	23.00	-36.9	-37.8	24.4	0.00e+00	123	42	0	1960837120	46	6122
2026-01-24 14:57:44.06	204.87	22.41	-36.8	-37.7	24.7	0.00e+00	123	42	0	1973420032	46	6027
2026-01-24 14:57:48.11	204.86	21.83	-36.9	-37.8	24.6	0.00e+00	122	42	0	1986002944	46	6089
2026-01-24 14:57:52.14	204.85	21.26	-37.3	-38.2	24.4	0.00e+00	123	42	0	1999634432	46	6368
2026-01-24 14:57:56.18	204.85	20.71	-37.4	-38.3	24.3	0.00e+00	123	42	0	2011168768	46	6476
2026-01-24 14:58:00.22	204.84	20.17	-37.4	-38.3	24.5	0.00e+00	122	42	0	2024800256	46	6471
2026-01-24 14:58:04.26	204.84	19.64	-37.4	-38.3	24.2	0.00e+00	122	42	0	2037383168	48	5784
2026-01-24 14:58:08.30	204.83	19.13	-37.5	-38.4	24.3	0.00e+00	122	42	0	2049966080	48	5806
2026-01-24 14:58:12.34	204.83	18.62	-37.8	-38.7	24.2	0.00e+00	120	42	0	2062548992	48	6003
2026-01-24 14:58:16.38	204.83	18.12	-37.8	-38.7	23.8	0.00e+00	122	42	0	2075131904	48	6062
2026-01-24 14:58:20.42	204.82	17.64	-37.9	-38.8	23.7	0.00e+00	122	42	0	2087714816	48	6131
2026-01-24 14:58:24.46	204.82	17.16	-38.3	-39.3	23.4	0.00e+00	121	42	0	2100297728	48	6429
2026-01-24 14:58:28.50	204.82	16.69	-38.4	-39.3	23.3	0.00e+00	122	42	0	2112880640	48	6492
2026-01-24 14:58:32.54	204.82	16.23	-38.4	-39.4	23.4	0.00e+00	123	42	0	2125463552	48	6522
2026-01-24 14:58:36.58	204.82	15.78	-38.4	-39.4	23.4	0.00e+00	122	42	0	2138046464	48	6543
2026-01-24 14:58:40.62	204.82	15.34	-38.4	-39.3	23.5	0.00e+00	122	42	0	2150629376	48	6453
2026-01-24 14:58:44.66	204.82	14.90	-38.6	-39.6	23.3	0.00e+00	122	42	0	2163212288	50	5944
2026-01-24 14:58:48.70	204.82	14.48	-38.9	-39.9	22.9	0.00e+00	123	42	0	2175795200	50	6188
2026-01-24 14:58:52.74	204.82	14.06	-38.5	-39.5	23.2	0.00e+00	123	42	0	2188378112	50	5885
2026-01-24 14:58:56.79	204.82	13.64	-38.5	-39.5	23.3	0.00e+00	120	42	0	2200961024	50	5886
2026-01-24 14:59:00.82	204.82	13.24	-38.8	-39.8	22.9	0.00e+00	122	42	0	2213543936	50	6070
2026-01-24 14:59:04.86	204.83	12.84	-38.6	-39.5	23.2	0.00e+00	121	42	0	2226126848	50	5926
2026-01-24 14:59:08.90	204.83	12.45	-38.4	-39.4	23.1	0.00e+00	122	42	0	2238709760	50	5810
2026-01-24 14:59:12.94	204.83	12.06	-38.6	-39.6	23.0	0.00e+00	120	42	0	2251292672	50	5940
2026-01-24 14:59:16.98	204.83	11.68	-39.1	-40.1	22.9	0.00e+00	123	42	0	2263875584	50	6287
2026-01-24 14:59:21.02	204.84	11.31	-39.0	-40.0	22.7	0.00e+00	123	42	0	2276458496	50	6215
2026-01-24 14:59:25.06	204.84	10.94	-38.8	-39.8	22.9	0.00e+00	123	42	0	2289041408	52	5444
2026-01-24 14:59:29.10	204.84	10.57	-39.3	-40.3	22.5	0.00e+00	120	42	0	2301624320	50	6465
2026-01-24 14:59:33.14	204.85	10.22	-39.6	-40.6	22.1	0.00e+00	122	42	0	2314207232	52	5994
2026-01-24 14:59:37.17	204.85	9.86	-39.2	-40.2	22.4	0.00e+00	123	42	0	2326790144	52	5692
2026-01-24 14:59:41.21	204.86	9.51	-39.4	-40.5	22.0	0.00e+00	120	42	0	2340421632	52	5860
2026-01-24 14:59:45.25	204.86	9.17	-39.7	-40.7	21.8	0.00e+00	120	42	0	2353004544	52	6057
2026-01-24 14:59:49.29	204.86	8.83	-39.8	-40.9	21.6	0.00e+00	123	42	0	2365587456	52	6194
2026-01-24 14:59:53.33	204.87	8.50	-39.7	-40.8	21.6	0.00e+00	122	42	0	2378170368	52	6079
2026-01-24 14:59:57.37	204.87	8.17	-40.5	-41.7	20.9	0.00e+00	122	42	0	2390753280	52	6744
2026-01-24 15:00:01.41	204.88	7.84	-39.9	-41.0	21.4	0.00e+00	123	42	0	2403336192	52	6239
2026-01-24 15:00:05.45	204.88	7.52	-39.5	-40.6	21.8	0.00e+00	123	42	0	2415919104	52	5941
2026-01-24 15:00:09.49	204.89	7.21	-39.9	-40.9	21.4	0.00e+00	121	42	0	2428502016	52	6202
2026-01-24 15:00:13.53	204.90	6.89	-40.4	-41.5	20.7	0.00e+00	123	42	0	2441084928	54	5902
2026-01-24 15:00:17.57	204.90	6.58	-40.3	-41.5	20.9	0.00e+00	122	42	0	2453667840	52	6579
2026-01-24 15:00:21.61	204.91	6.28	-40.3	-41.5	20.8	0.00e+00	123	42	0	2466250752	54	5871
2026-01-24 15:00:25.65	204.91	5.97	-41.0	-42.2	19.9	0.00e+00	122	42	0	2478833664	54	6388
2026-01-24 15:00:29.69	204.92	5.67	-41.3	-42.5	20.0	0.00e+00	123	42	0	2491416576	56	5924
2026-01-24 15:00:33.73	204.93	5.38	-42.2	-43.5	19.0	0.00e+00	123	42	0	2503999488	56	6631
2026-01-24 15:00:37.76	204.93	5.09	-41.6	-43.0	19.7	0.00e+00	122	42	0	2516582400	56	6208
2026-01-24 15:00:41.80	204.94	4.80	-41.7	-43.0	19.5	0.00e+00	122	42	0	2529165312	56	6273
2026-01-24 15:00:45.84	204.95	4.51	-42.0	-43.4	19.0	0.00e+00	123	42	0	2541748224	58	5795
2026-01-24 15:00:49.89	204.95	4.23	-42.1	-43.5	18.7	0.00e+00	123	42	0	2554331136	56	6626
2026-01-24 15:00:53.93	204.96	3.95	-41.7	-43.1	18.7	0.00e+00	122	42	0	2566914048	56	6289
2026-01-24 15:00:57.97	204.97	3.67	-42.0	-43.4	18.8	0.00e+00	123	42	0	2579496960	56	6548
2026-01-24 15:01:02.00	204.97	3.40	-42.2	-43.7	18.3	0.00e+00	123	42	0	2592079872	58	6009
2026-01-24 15:01:06.04	204.98	3.13	-42.1	-43.6	18.2	0.00e+00	123	42	0	2604662784	58	5963
2026-01-24 15:01:10.08	204.99	2.86	-50.7	-63.6	3.5	1.52e+00	0	42	104	2609905664	60	53102
2026-01-24 15:01:14.12	204.99	2.59	-50.8	-64.0	3.5	1.52e+00	0	42	104	2609905664	60	55678
2026-01-24 15:01:18.16	205.00	2.33	-51.2	-64.1	3.5	1.52e+00	0	42	104	2609905664	60	56564
2026-01-24 15:01:22.20	205.01	2.07	-51.1	-64.1	3.5	1.52e+00	0	42	104	2609905664	60	56523
2026-01-24 15:01:26.24	205.02	1.81	-51.3	-64.2	3.5	1.52e+00	0	42	104	2609905664	60	56929
2026-01-24 15:01:30.28	205.03	1.55	-51.4	-64.4	3.5	1.52e+00	0	42	104	2609905664	60	58015
2026-01-24 15:01:34.33	205.03	1.29	-51.6	-64.5	3.5	1.51e+00	0	42	104	2609905664	60	58793
2026-01-24 15:01:38.37	205.04	1.04	-51.5	-64.4	3.5	1.51e+00	0	42	104	2609905664	60	57997
2026-01-24 15:01:42.41	205.05	0.79	-51.5	-64.3	3.5	1.52e+00	0	42	104	2609905664	60	57593
2026-01-24 15:01:46.45	205.06	0.54	-51.6	-64.5	3.5	1.51e+00	0	42	104	2609905664	60	58809
2026-01-24 15:01:50.49	205.06	0.30	-51.6	-64.5	3.5	1.52e+00	0	42	104	2609905664	60	58752
2026-01-24 15:01:54.53	205.07	0.05	-51.9	-64.8	3.5	1.52e+00	0	42	104	2609905664	60	61007

#Closed at: 2026-01-24 15:01:56
#Recorded file [2609 MB]: D:/lorett/data/35029_260125_024625.dat