passes_logs/2026/01/24/R4.6S_Anadyr/R4.6S_Anadyr__20260124_221939_TY-42_rec.log

#Pass ID: 20260124_221939_TY-42
#Satellite: TY-42
#Configuration: TY-42_900M
#almurnet v.1.7.20251203
#Start time: 2026-01-24 22:20:09

#Version: 2.2.20231116
#Station: R4.6S_Anadyr
#Location: 177.4865 lon 64.73178 lat
#TLE: 1 64048U 25103A   26024.51782867  .00000755  00000+0  39102-4 0  9996
#TLE: 2 64048  97.4121  99.7564 0001738  90.7706 269.3727 15.19168577 38261

#Time	Az	El	Level	Level2	SNR	BER	BlckErr	Temp	State	Recorded	gain1	gain2
2026-01-24 22:20:09.75	22.40	1.85	-51.5	-66.4	3.5	1.51e+00	0	39	0	0	60	75590
2026-01-24 22:20:12.78	22.62	2.04	-49.8	-52.3	6.1	0.00e+00	0	40	104	0	60	50546
2026-01-24 22:20:15.81	22.84	2.24	-49.8	-52.3	6.1	0.00e+00	0	40	104	0	60	50408
2026-01-24 22:20:18.84	23.06	2.43	-49.8	-52.3	6.1	0.00e+00	0	40	104	0	60	50418
2026-01-24 22:20:21.87	23.29	2.63	-49.8	-52.3	6.1	0.00e+00	0	40	104	0	60	50406
2026-01-24 22:20:24.90	23.52	2.83	-49.8	-52.2	6.1	0.00e+00	0	41	104	0	60	50161
2026-01-24 22:20:27.93	23.76	3.03	-49.8	-52.2	6.1	0.00e+00	0	40	104	0	60	50033
2026-01-24 22:20:30.96	24.00	3.23	-49.8	-52.2	6.1	0.00e+00	0	41	104	0	60	50058
2026-01-24 22:20:33.99	24.24	3.43	-49.8	-52.3	6.1	0.00e+00	0	41	104	0	60	50415
2026-01-24 22:20:37.02	24.49	3.64	-49.8	-52.3	6.1	0.00e+00	0	41	104	0	60	50336
2026-01-24 22:20:40.05	24.74	3.85	-50.0	-52.5	6.1	0.00e+00	0	41	104	0	60	51677
2026-01-24 22:20:43.08	25.00	4.05	-49.8	-52.3	6.1	0.00e+00	0	41	104	0	60	50453
2026-01-24 22:20:46.10	25.26	4.26	-49.9	-52.4	6.1	0.00e+00	0	41	104	0	60	50765
2026-01-24 22:20:49.13	25.52	4.48	-50.2	-52.7	6.1	0.00e+00	0	41	104	0	60	52557
2026-01-24 22:20:52.16	25.79	4.69	-50.2	-52.7	6.1	0.00e+00	0	41	104	0	60	52622
2026-01-24 22:20:55.19	26.07	4.90	-50.0	-52.5	6.1	0.00e+00	0	41	104	0	60	51641
2026-01-24 22:20:58.22	26.35	5.12	-50.1	-52.6	6.1	0.00e+00	0	41	104	0	60	52395
2026-01-24 22:21:01.25	26.63	5.34	-50.3	-52.8	6.1	0.00e+00	0	42	104	0	60	53203
2026-01-24 22:21:04.28	26.92	5.56	-50.4	-52.8	6.1	0.00e+00	0	42	104	0	60	53508
2026-01-24 22:21:07.31	27.22	5.79	-44.5	-45.3	10.1	0.00e+00	0	42	104	0	60	22423
2026-01-24 22:21:10.34	27.52	6.01	-49.4	-51.5	6.1	6.31e-02	0	41	104	0	60	45977
2026-01-24 22:21:13.37	27.82	6.24	-37.5	-37.8	11.9	1.00e-01	0	42	0	134217728	50	16999
2026-01-24 22:21:16.40	28.13	6.47	-37.0	-37.4	12.2	1.11e-01	0	42	0	469762048	48	18021
2026-01-24 22:21:19.43	28.45	6.70	-35.1	-35.5	13.9	8.08e-02	0	42	0	813694976	46	16344
2026-01-24 22:21:22.46	28.78	6.93	-33.7	-34.0	14.4	2.17e-02	0	42	0	1149239296	42	17393
2026-01-24 22:21:25.49	29.11	7.17	-34.1	-34.5	14.5	1.23e-02	0	42	0	1493172224	42	18320
2026-01-24 22:21:28.51	29.44	7.41	-33.4	-33.8	14.9	1.35e-02	0	42	0	1837105152	42	16913
2026-01-24 22:21:31.54	29.79	7.65	-32.7	-33.1	15.0	9.26e-03	0	42	0	2172649472	40	17563
2026-01-24 22:21:34.57	30.14	7.89	-32.4	-32.8	15.2	5.35e-03	0	43	0	2516582400	40	16952
2026-01-24 22:21:37.60	30.49	8.14	-32.3	-32.7	15.1	4.40e-03	0	42	0	2860515328	40	16733
2026-01-24 22:21:40.63	30.86	8.38	-31.1	-31.5	15.7	5.41e-03	0	43	0	3196059648	38	16343
2026-01-24 22:21:43.67	31.23	8.63	-29.5	-29.9	16.2	2.40e-04	0	43	0	3539992576	34	17149
2026-01-24 22:21:46.70	31.61	8.89	-29.1	-29.6	16.3	2.34e-04	0	43	0	3883925504	34	16485
2026-01-24 22:21:49.73	32.00	9.14	-28.4	-28.9	16.5	1.14e-04	0	43	0	4219469824	32	17025
2026-01-24 22:21:52.76	32.39	9.40	-28.7	-29.1	16.4	4.90e-05	0	43	0	4563402752	32	17468
2026-01-24 22:21:55.79	32.80	9.66	-28.3	-28.7	16.2	9.26e-05	0	43	0	4907335680	32	16761
2026-01-24 22:21:58.82	33.21	9.92	-28.1	-28.5	16.4	5.44e-05	0	43	0	5242880000	32	16272
2026-01-24 22:22:01.85	33.63	10.19	-28.6	-29.0	16.5	4.90e-05	0	43	0	5586812928	32	17391
2026-01-24 22:22:04.88	34.06	10.45	-28.3	-28.8	16.5	2.17e-05	0	43	0	5930745856	32	16816
2026-01-24 22:22:07.91	34.50	10.72	-28.1	-28.6	16.6	4.35e-05	0	43	0	6266290176	32	16514
2026-01-24 22:22:10.94	34.95	11.00	-28.1	-28.5	16.5	1.63e-05	0	43	0	6610223104	32	16398
2026-01-24 22:22:13.96	35.41	11.27	-27.8	-28.3	16.7	3.81e-05	0	43	0	6954156032	30	17880
2026-01-24 22:22:16.99	35.88	11.55	-27.7	-28.1	16.7	0.00e+00	0	43	0	7289700352	30	17532
2026-01-24 22:22:20.02	36.36	11.83	-27.7	-28.1	16.7	1.08e-05	0	43	0	7633633280	30	17564
2026-01-24 22:22:23.05	36.85	12.12	-27.5	-27.9	16.7	5.40e-06	0	43	0	7969177600	30	17115
2026-01-24 22:22:26.08	37.36	12.40	-27.4	-27.8	16.6	1.08e-05	0	43	0	8313110528	30	16915
2026-01-24 22:22:29.11	37.87	12.69	-27.4	-27.8	16.8	0.00e+00	0	43	0	8648654848	30	16969
2026-01-24 22:22:32.14	38.40	12.98	-27.2	-27.7	16.8	0.00e+00	0	43	0	8992587776	30	16751
2026-01-24 22:22:35.17	38.94	13.28	-26.8	-27.2	17.0	0.00e+00	0	43	0	9336520704	28	17778
2026-01-24 22:22:38.19	39.49	13.57	-26.6	-27.1	17.0	0.00e+00	0	43	0	9672065024	28	17513
2026-01-24 22:22:41.22	40.05	13.87	-26.6	-27.1	16.9	0.00e+00	0	43	0	10015997952	28	17439
2026-01-24 22:22:44.25	40.63	14.18	-26.4	-26.9	17.0	0.00e+00	0	43	0	10351542272	28	17059
2026-01-24 22:22:47.28	41.22	14.48	-26.4	-26.8	17.0	0.00e+00	0	43	0	10695475200	28	16985
2026-01-24 22:22:50.31	41.83	14.79	-26.3	-26.8	17.0	0.00e+00	0	44	0	11039408128	28	16824
2026-01-24 22:22:53.34	42.45	15.10	-25.9	-26.4	16.8	0.00e+00	0	44	0	11374952448	28	16083
2026-01-24 22:22:56.37	43.09	15.41	-25.9	-26.4	17.0	0.00e+00	0	44	0	11718885376	28	16176
2026-01-24 22:22:59.41	43.74	15.73	-25.8	-26.2	17.2	0.00e+00	0	44	0	12062818304	26	17751
2026-01-24 22:23:02.44	44.41	16.04	-26.0	-26.5	17.2	0.00e+00	0	44	0	12398362624	26	18351
2026-01-24 22:23:05.47	45.10	16.36	-26.7	-27.2	16.9	0.00e+00	0	44	0	12742295552	28	17707
2026-01-24 22:23:08.50	45.80	16.68	-26.0	-26.5	17.2	0.00e+00	0	44	0	13086228480	26	18349
2026-01-24 22:23:11.53	46.52	17.00	-25.5	-26.0	17.3	0.00e+00	0	44	0	13430161408	26	17207
2026-01-24 22:23:14.55	47.25	17.33	-25.1	-25.6	17.4	0.00e+00	0	44	0	13765705728	26	16503
2026-01-24 22:23:17.58	48.00	17.65	-25.0	-25.5	17.3	0.00e+00	0	44	0	14109638656	26	16419
2026-01-24 22:23:20.61	48.78	17.98	-24.8	-25.3	17.4	0.00e+00	0	44	0	14453571584	24	17924
2026-01-24 22:23:23.64	49.57	18.30	-24.6	-25.1	17.3	0.00e+00	0	44	0	14789115904	24	17538
2026-01-24 22:23:26.67	50.38	18.63	-24.5	-25.0	17.4	0.00e+00	0	44	0	15133048832	24	17272
2026-01-24 22:23:29.70	51.22	18.96	-24.4	-24.9	17.4	0.00e+00	0	44	0	15468593152	24	17100
2026-01-24 22:23:32.73	52.07	19.29	-24.2	-24.7	17.4	0.00e+00	0	44	0	15812526080	24	16772
2026-01-24 22:23:35.76	52.94	19.62	-24.3	-24.8	17.4	0.00e+00	0	44	0	16148070400	24	16885
2026-01-24 22:23:38.79	53.84	19.94	-23.9	-24.4	17.4	0.00e+00	0	44	0	16492003328	24	16151
2026-01-24 22:23:41.82	54.75	20.27	-24.2	-24.6	17.4	0.00e+00	0	44	0	16835936256	24	16607
2026-01-24 22:23:44.85	55.69	20.59	-49.8	-52.4	6.1	0.00e+00	0	44	104	17003708416	60	51336
2026-01-24 22:23:47.88	56.65	20.92	-50.6	-53.1	6.1	0.00e+00	0	44	104	17003708416	60	55639
2026-01-24 22:23:50.91	57.64	21.24	-51.1	-53.6	6.1	0.00e+00	0	44	104	17003708416	60	58452
2026-01-24 22:23:53.94	58.65	21.55	-49.6	-52.3	6.1	0.00e+00	0	43	104	17003708416	60	50337
2026-01-24 22:23:56.97	59.68	21.87	-50.8	-53.3	6.1	0.00e+00	0	44	104	17003708416	60	56831
2026-01-24 22:23:59.99	60.73	22.18	-50.7	-53.2	6.1	0.00e+00	0	44	104	17003708416	60	55961
2026-01-24 22:24:03.02	61.80	22.48	-50.9	-53.4	6.1	0.00e+00	0	43	104	17003708416	60	57442
2026-01-24 22:24:06.04	62.90	22.78	-50.7	-53.3	6.1	0.00e+00	0	44	104	17003708416	60	56425
2026-01-24 22:24:09.07	64.02	23.08	-50.1	-52.8	6.1	0.00e+00	0	43	104	17003708416	60	53401
2026-01-24 22:24:12.10	65.17	23.37	-50.2	-52.9	6.1	0.00e+00	0	44	104	17003708416	60	54039
2026-01-24 22:24:15.13	66.34	23.65	-50.9	-53.4	6.1	0.00e+00	0	44	104	17003708416	60	57580
2026-01-24 22:24:18.16	67.54	23.92	-51.1	-53.6	6.1	0.00e+00	0	43	104	17003708416	60	58488
2026-01-24 22:24:21.19	68.75	24.19	-50.8	-53.3	6.1	0.00e+00	0	44	104	17003708416	60	56883
2026-01-24 22:24:24.22	69.99	24.44	-50.4	-53.0	6.1	0.00e+00	0	44	104	17003708416	60	54957
2026-01-24 22:24:27.24	71.25	24.69	-51.0	-53.5	6.1	0.00e+00	0	44	104	17003708416	60	58074
2026-01-24 22:24:30.27	72.54	24.92	-50.9	-53.5	6.1	0.00e+00	0	44	104	17003708416	60	57765
2026-01-24 22:24:33.30	73.84	25.15	-50.9	-53.4	6.1	0.00e+00	0	44	104	17003708416	60	57346
2026-01-24 22:24:36.33	75.16	25.36	-50.3	-53.0	6.1	0.00e+00	0	44	104	17003708416	60	54440
2026-01-24 22:24:39.36	76.51	25.55	-50.8	-53.3	6.1	0.00e+00	0	44	104	17003708416	60	56838
2026-01-24 22:24:42.39	77.87	25.74	-50.9	-53.5	6.0	0.00e+00	0	44	104	17003708416	60	57663
2026-01-24 22:24:45.41	79.24	25.91	-51.1	-53.5	6.1	0.00e+00	0	44	104	17003708416	60	58261
2026-01-24 22:24:48.44	80.63	26.06	-51.1	-53.6	6.1	0.00e+00	0	44	104	17003708416	60	58518
2026-01-24 22:24:51.47	82.04	26.20	-51.2	-53.7	6.1	0.00e+00	0	43	104	17003708416	60	59184
2026-01-24 22:24:54.50	83.46	26.32	-50.4	-53.0	6.1	0.00e+00	0	44	104	17003708416	60	54686
2026-01-24 22:24:57.52	84.89	26.43	-50.9	-53.5	6.1	0.00e+00	0	44	104	17003708416	60	57796
2026-01-24 22:25:00.55	86.33	26.52	-50.9	-53.4	6.1	0.00e+00	0	44	104	17003708416	60	57432
2026-01-24 22:25:03.58	87.78	26.59	-51.1	-53.6	6.1	0.00e+00	0	44	104	17003708416	60	58439
2026-01-24 22:25:06.61	89.23	26.64	-51.1	-53.6	6.1	0.00e+00	0	44	104	17003708416	60	58530
2026-01-24 22:25:09.64	90.69	26.68	-51.1	-53.6	6.1	0.00e+00	0	43	104	17003708416	60	58558
2026-01-24 22:25:12.67	92.15	26.69	-51.0	-53.5	6.1	0.00e+00	0	44	104	17003708416	60	57801
2026-01-24 22:25:15.69	93.61	26.69	-50.7	-53.3	6.1	0.00e+00	0	44	104	17003708416	60	56705
2026-01-24 22:25:18.72	95.08	26.67	-51.0	-53.5	6.1	0.00e+00	0	44	104	17003708416	60	58036
2026-01-24 22:25:21.75	96.54	26.64	-50.9	-53.4	6.1	0.00e+00	0	44	104	17003708416	60	57347
2026-01-24 22:25:24.78	97.99	26.58	-51.0	-53.5	6.1	0.00e+00	0	44	104	17003708416	60	57741
2026-01-24 22:25:27.81	99.44	26.51	-51.1	-53.6	6.1	0.00e+00	0	44	104	17003708416	60	58789
2026-01-24 22:25:30.84	100.88	26.41	-51.0	-53.5	6.1	0.00e+00	0	44	104	17003708416	60	58163
2026-01-24 22:25:33.87	102.31	26.30	-51.1	-53.6	6.1	0.00e+00	0	44	104	17003708416	60	58618
2026-01-24 22:25:36.89	103.73	26.18	-51.0	-53.5	6.1	0.00e+00	0	44	104	17003708416	60	58127
2026-01-24 22:25:39.92	105.14	26.04	-51.0	-53.5	6.1	0.00e+00	0	44	104	17003708416	60	57761
2026-01-24 22:25:42.95	106.53	25.88	-51.1	-53.6	6.1	0.00e+00	0	44	104	17003708416	60	58327
2026-01-24 22:25:45.98	107.91	25.71	-51.1	-53.6	6.1	0.00e+00	0	44	104	17003708416	60	58560
2026-01-24 22:25:49.00	109.27	25.52	-51.1	-53.5	6.1	0.00e+00	0	44	104	17003708416	60	58242
2026-01-24 22:25:52.03	110.61	25.32	-51.1	-53.5	6.1	0.00e+00	0	44	104	17003708416	60	57955
2026-01-24 22:25:55.06	111.93	25.11	-51.1	-53.6	6.1	0.00e+00	0	44	104	17003708416	60	58371
2026-01-24 22:25:58.09	113.24	24.88	-51.1	-53.6	6.1	0.00e+00	0	44	104	17003708416	60	58301
2026-01-24 22:26:01.12	114.52	24.64	-50.9	-53.5	6.1	0.00e+00	0	44	104	17003708416	60	57870
2026-01-24 22:26:04.15	115.78	24.40	-51.0	-53.5	6.1	0.00e+00	0	44	104	17003708416	60	57679
2026-01-24 22:26:07.18	117.02	24.14	-51.0	-53.5	6.1	0.00e+00	0	44	104	17003708416	60	57861
2026-01-24 22:26:10.21	118.24	23.87	-51.1	-53.6	6.1	0.00e+00	0	44	104	17003708416	60	58333
2026-01-24 22:26:13.23	119.43	23.59	-51.1	-53.5	6.1	0.00e+00	0	44	104	17003708416	60	58170
2026-01-24 22:26:16.26	120.61	23.31	-51.1	-53.6	6.1	0.00e+00	0	44	104	17003708416	60	58818
2026-01-24 22:26:19.29	121.75	23.02	-50.8	-53.3	6.1	0.00e+00	0	44	104	17003708416	60	56731
2026-01-24 22:26:22.32	122.88	22.72	-51.0	-53.5	6.1	0.00e+00	0	44	104	17003708416	60	57963
2026-01-24 22:26:25.34	123.98	22.42	-51.0	-53.4	6.1	0.00e+00	0	44	104	17003708416	60	57606
2026-01-24 22:26:28.37	125.05	22.11	-51.1	-53.5	6.1	0.00e+00	0	44	104	17003708416	60	58107
2026-01-24 22:26:31.40	126.11	21.80	-51.0	-53.5	6.0	0.00e+00	0	44	104	17003708416	60	58160
2026-01-24 22:26:34.42	127.14	21.48	-51.0	-53.5	6.1	0.00e+00	0	44	104	17003708416	60	57852
2026-01-24 22:26:37.45	128.14	21.16	-51.0	-53.5	6.1	0.00e+00	0	44	104	17003708416	60	58024
2026-01-24 22:26:40.48	129.13	20.84	-51.0	-53.5	6.1	0.00e+00	0	44	104	17003708416	60	58015
2026-01-24 22:26:43.51	130.09	20.51	-51.0	-53.4	6.1	0.00e+00	0	44	104	17003708416	60	57332
2026-01-24 22:26:46.54	131.03	20.18	-50.9	-53.4	6.1	0.00e+00	0	44	104	17003708416	60	57471
2026-01-24 22:26:49.57	131.95	19.85	-50.9	-53.4	6.1	0.00e+00	0	44	104	17003708416	60	57122
2026-01-24 22:26:52.59	132.84	19.53	-51.0	-53.5	6.1	0.00e+00	0	44	104	17003708416	60	57781
2026-01-24 22:26:55.62	133.71	19.20	-51.0	-53.5	6.1	0.00e+00	0	44	104	17003708416	60	57930
2026-01-24 22:26:58.65	134.57	18.86	-50.9	-53.4	6.1	0.00e+00	0	44	104	17003708416	60	57102
2026-01-24 22:27:01.67	135.40	18.54	-50.8	-53.3	6.1	0.00e+00	0	44	104	17003708416	60	56697
2026-01-24 22:27:04.70	136.21	18.21	-50.9	-53.4	6.1	0.00e+00	0	44	104	17003708416	60	57144
2026-01-24 22:27:07.74	137.00	17.87	-50.8	-53.4	6.1	0.00e+00	0	44	104	17003708416	60	57068
2026-01-24 22:27:10.76	137.77	17.55	-50.9	-53.3	6.1	0.00e+00	0	44	104	17003708416	60	56840
2026-01-24 22:27:13.78	138.53	17.22	-50.8	-53.3	6.1	0.00e+00	0	44	104	17003708416	60	56356
2026-01-24 22:27:16.81	139.26	16.90	-50.8	-53.3	6.1	0.00e+00	0	44	104	17003708416	60	56831
2026-01-24 22:27:19.83	139.98	16.57	-50.8	-53.3	6.1	0.00e+00	0	44	104	17003708416	60	56591
2026-01-24 22:27:22.86	140.68	16.25	-50.8	-53.3	6.1	0.00e+00	0	44	104	17003708416	60	56602
2026-01-24 22:27:25.89	141.37	15.93	-50.8	-53.3	6.1	0.00e+00	0	44	104	17003708416	60	56668
2026-01-24 22:27:28.91	142.03	15.61	-50.8	-53.3	6.1	0.00e+00	0	44	104	17003708416	60	56536
2026-01-24 22:27:31.94	142.68	15.30	-50.8	-53.3	6.1	0.00e+00	0	44	104	17003708416	60	56472
2026-01-24 22:27:34.97	143.32	14.98	-50.7	-53.2	6.1	0.00e+00	0	44	104	17003708416	60	55708
2026-01-24 22:27:38.00	143.94	14.67	-50.8	-53.3	6.1	0.00e+00	0	44	104	17003708416	60	56403
2026-01-24 22:27:41.03	144.55	14.36	-50.8	-53.2	6.1	0.00e+00	0	44	104	17003708416	60	56183
2026-01-24 22:27:44.06	145.14	14.05	-50.8	-53.2	6.1	0.00e+00	0	44	104	17003708416	60	56203
2026-01-24 22:27:47.09	145.72	13.75	-50.7	-53.2	6.1	0.00e+00	0	44	104	17003708416	60	55691
2026-01-24 22:27:50.12	146.28	13.45	-50.7	-53.2	6.1	0.00e+00	0	44	104	17003708416	60	56104
2026-01-24 22:27:53.15	146.83	13.15	-50.7	-53.2	6.1	0.00e+00	0	44	104	17003708416	60	55814
2026-01-24 22:27:56.18	147.37	12.85	-50.8	-53.2	6.1	0.00e+00	0	44	104	17003708416	60	56234
2026-01-24 22:27:59.20	147.90	12.56	-50.7	-53.2	6.1	0.00e+00	0	44	104	17003708416	60	55824
2026-01-24 22:28:02.24	148.41	12.27	-50.7	-53.1	6.1	0.00e+00	0	44	104	17003708416	60	55397
2026-01-24 22:28:05.27	148.92	11.98	-50.7	-53.2	6.1	0.00e+00	0	44	104	17003708416	60	55679
2026-01-24 22:28:08.29	149.41	11.70	-50.7	-53.2	6.1	0.00e+00	0	44	104	17003708416	60	55852
2026-01-24 22:28:11.32	149.89	11.41	-50.6	-53.1	6.1	0.00e+00	0	44	104	17003708416	60	55336
2026-01-24 22:28:14.35	150.36	11.13	-50.6	-53.1	6.1	0.00e+00	0	44	104	17003708416	60	55245
2026-01-24 22:28:17.38	150.81	10.86	-50.6	-53.1	6.1	0.00e+00	0	44	104	17003708416	60	55162
2026-01-24 22:28:20.41	151.26	10.58	-50.6	-53.1	6.1	0.00e+00	0	44	104	17003708416	60	55201
2026-01-24 22:28:23.43	151.70	10.31	-50.6	-53.1	6.1	0.00e+00	0	44	104	17003708416	60	55250
2026-01-24 22:28:26.46	152.13	10.04	-50.6	-53.1	6.1	0.00e+00	0	44	104	17003708416	60	55094
2026-01-24 22:28:29.49	152.55	9.78	-50.5	-52.9	6.1	0.00e+00	0	44	104	17003708416	60	54105
2026-01-24 22:28:32.52	152.96	9.51	-50.2	-52.7	6.1	0.00e+00	0	44	104	17003708416	60	52780
2026-01-24 22:28:35.54	153.37	9.25	-50.1	-52.6	6.1	0.00e+00	0	44	104	17003708416	60	52164
2026-01-24 22:28:38.58	153.76	8.99	-50.0	-52.5	6.1	0.00e+00	0	44	104	17003708416	60	51479
2026-01-24 22:28:41.61	154.15	8.74	-49.5	-52.0	6.1	0.00e+00	0	44	104	17003708416	60	48502
2026-01-24 22:28:44.64	154.53	8.48	-49.3	-51.8	6.1	0.00e+00	0	44	104	17003708416	60	47509
2026-01-24 22:28:47.67	154.90	8.23	-49.3	-51.8	6.1	0.00e+00	0	44	104	17003708416	60	47439
2026-01-24 22:28:50.70	155.26	7.98	-49.3	-51.7	6.1	0.00e+00	0	44	104	17003708416	60	47372
2026-01-24 22:28:53.72	155.62	7.74	-49.4	-51.9	6.1	0.00e+00	0	44	104	17003708416	60	48472
2026-01-24 22:28:56.75	155.97	7.49	-49.9	-52.3	6.1	0.00e+00	0	44	104	17003708416	60	50707
2026-01-24 22:28:59.78	156.31	7.25	-50.0	-52.5	6.1	0.00e+00	0	44	104	17003708416	60	51425
2026-01-24 22:29:02.81	156.64	7.01	-49.7	-52.2	6.1	0.00e+00	0	44	104	17003708416	60	49955
2026-01-24 22:29:05.83	156.97	6.77	-50.0	-52.5	6.1	0.00e+00	0	44	104	17003708416	60	51635
2026-01-24 22:29:08.86	157.29	6.54	-50.2	-52.7	6.1	0.00e+00	0	44	104	17003708416	60	52915
2026-01-24 22:29:11.89	157.61	6.31	-50.4	-52.8	6.1	0.00e+00	0	44	104	17003708416	60	53652
2026-01-24 22:29:14.92	157.92	6.08	-50.1	-52.6	6.1	0.00e+00	0	44	104	17003708416	60	52534
2026-01-24 22:29:17.95	158.22	5.85	-50.2	-52.7	6.1	0.00e+00	0	44	104	17003708416	60	52793
2026-01-24 22:29:20.98	158.52	5.62	-50.1	-52.6	6.1	0.00e+00	0	44	104	17003708416	60	51966
2026-01-24 22:29:24.01	158.82	5.40	-50.2	-52.7	6.1	0.00e+00	0	44	104	17003708416	60	52580
2026-01-24 22:29:27.04	159.10	5.17	-50.0	-52.5	6.1	0.00e+00	0	44	104	17003708416	60	51607
2026-01-24 22:29:30.06	159.39	4.96	-50.1	-52.6	6.1	0.00e+00	0	44	104	17003708416	60	52147
2026-01-24 22:29:33.09	159.66	4.74	-50.0	-52.5	6.1	0.00e+00	0	44	104	17003708416	60	51802
2026-01-24 22:29:36.12	159.94	4.52	-50.2	-52.6	6.1	0.00e+00	0	44	104	17003708416	60	52364
2026-01-24 22:29:39.15	160.20	4.31	-49.8	-52.2	6.1	0.00e+00	0	44	104	17003708416	60	50158
2026-01-24 22:29:42.18	160.47	4.09	-50.0	-52.5	6.1	0.00e+00	0	44	104	17003708416	60	51460
2026-01-24 22:29:45.20	160.73	3.88	-49.8	-52.3	6.1	0.00e+00	0	44	104	17003708416	60	50645
2026-01-24 22:29:48.23	160.98	3.67	-49.9	-52.4	6.1	0.00e+00	0	44	104	17003708416	60	51059
2026-01-24 22:29:51.26	161.23	3.47	-49.8	-52.2	6.1	0.00e+00	0	44	104	17003708416	60	49995
2026-01-24 22:29:54.29	161.48	3.26	-49.8	-52.3	6.1	0.00e+00	0	44	104	17003708416	60	50311
2026-01-24 22:29:57.32	161.72	3.06	-49.6	-52.1	6.1	0.00e+00	0	44	104	17003708416	60	49251
2026-01-24 22:30:00.35	161.96	2.85	-49.5	-52.0	6.1	0.00e+00	0	44	104	17003708416	60	48772
2026-01-24 22:30:03.38	162.19	2.65	-50.7	-53.2	6.1	0.00e+00	0	44	104	17003708416	60	55875
2026-01-24 22:30:06.41	162.42	2.45	-51.1	-53.6	6.1	0.00e+00	0	44	104	17003708416	60	58440
2026-01-24 22:30:09.45	162.65	2.25	-51.3	-53.8	6.1	0.00e+00	0	44	104	17003708416	60	59775
2026-01-24 22:30:12.48	162.87	2.06	-51.4	-53.8	6.1	0.00e+00	0	44	104	17003708416	60	60330
2026-01-24 22:30:15.51	163.09	1.86	-51.4	-53.8	6.1	0.00e+00	0	44	104	17003708416	60	60054
2026-01-24 22:30:18.53	163.30	1.67	-51.4	-53.9	6.0	0.00e+00	0	44	104	17003708416	60	60931
2026-01-24 22:30:21.57	163.51	1.48	-51.5	-54.0	6.1	0.00e+00	0	44	104	17003708416	60	61136
2026-01-24 22:30:24.60	163.72	1.29	-51.5	-54.0	6.1	0.00e+00	0	44	104	17003708416	60	61197
2026-01-24 22:30:27.62	163.93	1.10	-51.5	-54.0	6.1	0.00e+00	0	44	104	17003708416	60	61135
2026-01-24 22:30:30.65	164.13	0.91	-51.5	-54.0	6.1	0.00e+00	0	44	104	17003708416	60	61220
2026-01-24 22:30:33.69	164.33	0.72	-51.5	-54.0	6.1	0.00e+00	0	44	104	17003708416	60	61337
2026-01-24 22:30:36.72	164.53	0.54	-51.5	-54.0	6.1	0.00e+00	0	44	104	17003708416	60	61423
2026-01-24 22:30:39.74	164.72	0.35	-51.5	-54.0	6.1	0.00e+00	0	44	104	17003708416	60	61304
2026-01-24 22:30:42.77	164.91	0.17	-51.5	-54.0	6.1	0.00e+00	0	44	104	17003708416	60	61683
2026-01-24 22:30:45.80	165.10	-0.01	-51.6	-54.0	6.1	0.00e+00	0	44	104	17003708416	60	61578

#Closed at: 2026-01-24 22:30:46
#Recorded file [17003 MB]: D:/lorett/data/35029_260125_102009.dat