passes_logs/2026/01/24/R4.6S_Anadyr/R4.6S_Anadyr__20260124_212319_NOAA_21_JPSS-2_rec.log

#Pass ID: 20260124_212319_NOAA 21 (JPSS-2)
#Satellite: NOAA 21 (JPSS-2)
#Configuration: NOAA-21
#almurnet v.1.7.20251203
#Start time: 2026-01-24 21:23:22

#Version: 2.2.20231116
#Station: R4.6S_Anadyr
#Location: 177.4865 lon 64.73178 lat
#TLE: 1 54234U 22150A   26024.45772595  .00000201  00000+0  11607-3 0  9996
#TLE: 2 54234  98.7508 325.2435 0000728 220.7365 139.3757 14.19538765166156

#Time	Az	El	Level	Level2	SNR	BER	BlckErr	Temp	State	Recorded	gain1	gain2
2026-01-24 21:23:22.32	89.33	0.14	-52.3	-67.2	3.5	1.51e+00	0	39	0	0	60	83150
2026-01-24 21:23:26.36	89.08	0.35	-52.5	-65.3	3.5	1.52e+00	0	40	104	0	60	64739
2026-01-24 21:23:30.40	88.83	0.56	-51.8	-64.7	3.5	1.52e+00	0	40	104	0	60	60374
2026-01-24 21:23:34.44	88.57	0.78	-51.6	-64.5	3.5	1.52e+00	0	40	104	0	60	58693
2026-01-24 21:23:38.48	88.31	1.00	-51.4	-64.4	3.5	1.52e+00	0	40	104	0	60	58256
2026-01-24 21:23:42.52	88.04	1.21	-51.1	-64.0	3.5	1.52e+00	0	40	104	0	60	55785
2026-01-24 21:23:46.56	87.77	1.43	-50.7	-63.6	3.5	1.52e+00	0	40	104	0	60	52886
2026-01-24 21:23:50.60	87.50	1.65	-49.8	-62.6	3.5	1.52e+00	0	40	104	0	60	47280
2026-01-24 21:23:54.64	87.22	1.87	-49.8	-62.6	3.5	1.52e+00	0	40	104	0	60	47393
2026-01-24 21:23:58.68	86.93	2.10	-49.8	-62.6	3.5	1.52e+00	0	41	104	0	60	47258
2026-01-24 21:24:02.72	86.65	2.32	-49.9	-62.5	3.5	1.52e+00	0	41	104	0	60	46779
2026-01-24 21:24:06.76	86.35	2.54	-49.8	-62.6	3.5	1.52e+00	0	41	104	0	60	47503
2026-01-24 21:24:10.80	86.06	2.77	-49.7	-62.3	3.5	1.52e+00	0	41	104	0	60	45759
2026-01-24 21:24:14.84	85.75	2.99	-49.7	-62.3	3.5	1.52e+00	0	41	104	0	60	45772
2026-01-24 21:24:18.89	85.45	3.22	-46.3	-49.2	12.3	2.21e-04	0	41	0	5242880	60	10143
2026-01-24 21:24:22.92	85.13	3.45	-49.5	-61.9	3.5	2.78e-01	0	41	104	16777216	60	43680
2026-01-24 21:24:26.96	84.82	3.68	-41.4	-42.8	19.0	0.00e+00	0	41	0	20971520	56	6073
2026-01-24 21:24:31.00	84.50	3.91	-41.5	-42.8	19.1	0.00e+00	0	41	0	33554432	56	6095
2026-01-24 21:24:35.04	84.17	4.14	-43.1	-44.6	19.2	0.00e+00	0	41	0	46137344	58	6704
2026-01-24 21:24:39.08	83.84	4.37	-41.9	-43.3	19.1	0.00e+00	0	41	0	58720256	56	6427
2026-01-24 21:24:43.11	83.50	4.61	-42.0	-43.4	18.3	0.00e+00	0	41	0	71303168	56	6544
2026-01-24 21:24:47.15	83.15	4.84	-42.3	-43.8	18.6	0.00e+00	0	41	0	83886080	56	6822
2026-01-24 21:24:51.19	82.80	5.08	-40.4	-41.7	20.3	0.00e+00	0	41	0	96468992	54	5995
2026-01-24 21:24:55.22	82.45	5.32	-40.2	-41.3	20.6	0.00e+00	0	41	0	109051904	54	5777
2026-01-24 21:24:59.26	82.09	5.55	-40.4	-41.6	20.5	0.00e+00	0	41	0	121634816	54	5928
2026-01-24 21:25:03.30	81.72	5.79	-39.8	-41.0	21.0	0.00e+00	0	41	0	134217728	54	5538
2026-01-24 21:25:07.33	81.35	6.03	-40.2	-41.3	20.7	0.00e+00	0	41	0	146800640	54	5791
2026-01-24 21:25:11.38	80.96	6.27	-39.7	-40.8	21.2	0.00e+00	0	41	0	159383552	54	5467
2026-01-24 21:25:15.41	80.58	6.52	-39.9	-41.0	21.1	0.00e+00	0	41	0	171966464	52	6270
2026-01-24 21:25:19.45	80.18	6.76	-39.7	-40.8	21.3	0.00e+00	0	41	0	184549376	52	6115
2026-01-24 21:25:23.48	79.78	7.00	-39.5	-40.5	21.4	0.00e+00	0	41	0	197132288	52	5919
2026-01-24 21:25:27.53	79.38	7.25	-39.8	-40.9	21.5	0.00e+00	0	41	0	209715200	52	6163
2026-01-24 21:25:31.57	78.96	7.50	-40.5	-41.6	20.6	0.00e+00	0	41	0	222298112	52	6699
2026-01-24 21:25:35.60	78.54	7.74	-40.7	-41.9	20.5	0.00e+00	0	41	0	235929600	54	6160
2026-01-24 21:25:39.64	78.11	7.99	-39.8	-40.9	21.3	0.00e+00	0	41	0	248512512	52	6162
2026-01-24 21:25:43.68	77.67	8.24	-39.6	-40.7	21.5	0.00e+00	0	41	0	260046848	52	6009
2026-01-24 21:25:47.72	77.23	8.49	-39.2	-40.3	21.8	0.00e+00	0	41	0	273678336	52	5744
2026-01-24 21:25:51.76	76.78	8.74	-39.2	-40.3	21.8	0.00e+00	0	41	0	286261248	52	5770
2026-01-24 21:25:55.80	76.32	8.99	-39.6	-40.7	21.5	0.00e+00	0	41	0	298844160	52	6041
2026-01-24 21:25:59.84	75.85	9.24	-39.1	-40.2	22.0	0.00e+00	0	41	0	311427072	52	5687
2026-01-24 21:26:03.88	75.37	9.50	-39.0	-40.0	22.2	0.00e+00	0	41	0	324009984	52	5593
2026-01-24 21:26:07.92	74.88	9.75	-38.4	-39.4	22.4	0.00e+00	0	41	0	336592896	50	5857
2026-01-24 21:26:11.96	74.39	10.00	-38.7	-39.8	22.3	0.00e+00	0	41	0	349175808	50	6099
2026-01-24 21:26:16.00	73.89	10.26	-38.7	-39.7	22.4	0.00e+00	0	41	0	361758720	50	6058
2026-01-24 21:26:20.03	73.37	10.51	-38.4	-39.3	22.7	0.00e+00	0	41	0	374341632	50	5779
2026-01-24 21:26:24.07	72.85	10.77	-38.0	-39.0	23.1	0.00e+00	0	41	0	386924544	50	5538
2026-01-24 21:26:28.11	72.32	11.02	-38.1	-39.1	22.9	0.00e+00	0	42	0	399507456	50	5599
2026-01-24 21:26:32.15	71.78	11.28	-37.9	-38.9	23.2	0.00e+00	0	42	0	412090368	50	5488
2026-01-24 21:26:36.19	71.23	11.53	-37.7	-38.7	23.3	0.00e+00	0	42	0	424673280	48	6022
2026-01-24 21:26:40.23	70.67	11.79	-38.0	-38.9	23.0	0.00e+00	0	41	0	437256192	48	6196
2026-01-24 21:26:44.26	70.10	12.05	-37.9	-38.9	23.1	0.00e+00	0	41	0	449839104	48	6141
2026-01-24 21:26:48.31	69.52	12.30	-38.1	-39.1	23.0	0.00e+00	0	42	0	462422016	48	6295
2026-01-24 21:26:52.35	68.93	12.56	-38.6	-39.6	22.6	0.00e+00	0	42	0	475004928	48	6681
2026-01-24 21:26:56.38	68.33	12.81	-37.9	-38.9	23.3	0.00e+00	0	41	0	487587840	48	6168
2026-01-24 21:27:00.42	67.72	13.07	-38.0	-39.0	23.0	0.00e+00	0	42	0	500170752	48	6221
2026-01-24 21:27:04.46	67.10	13.32	-38.2	-39.2	22.9	0.00e+00	0	41	0	512753664	48	6393
2026-01-24 21:27:08.49	66.47	13.57	-38.2	-39.2	23.1	0.00e+00	0	42	0	525336576	48	6362
2026-01-24 21:27:12.53	65.82	13.82	-38.0	-39.0	23.2	0.00e+00	0	42	0	537919488	48	6240
2026-01-24 21:27:16.57	65.17	14.07	-38.1	-39.0	23.2	0.00e+00	0	41	0	550502400	48	6251
2026-01-24 21:27:20.61	64.50	14.32	-37.6	-38.6	23.6	0.00e+00	0	42	0	563085312	48	5939
2026-01-24 21:27:24.65	63.82	14.57	-37.6	-38.5	23.5	0.00e+00	0	42	0	576716800	48	5902
2026-01-24 21:27:28.69	63.13	14.82	-37.7	-38.7	23.4	0.00e+00	0	42	0	589299712	48	6013
2026-01-24 21:27:32.73	62.43	15.06	-37.8	-38.8	23.3	0.00e+00	0	42	0	600834048	48	6095
2026-01-24 21:27:36.77	61.72	15.31	-38.1	-39.1	23.0	0.00e+00	0	42	0	614465536	48	6320
2026-01-24 21:27:40.81	61.00	15.55	-38.2	-39.2	22.9	0.00e+00	0	42	0	627048448	48	6380
2026-01-24 21:27:44.85	60.26	15.78	-38.2	-39.2	23.1	0.00e+00	0	42	0	639631360	48	6367
2026-01-24 21:27:48.89	59.51	16.02	-38.2	-39.1	23.1	0.00e+00	0	42	0	652214272	48	6350
2026-01-24 21:27:52.93	58.75	16.25	-38.1	-39.1	23.1	0.00e+00	0	42	0	664797184	48	6302
2026-01-24 21:27:56.97	57.98	16.48	-38.2	-39.2	23.1	0.00e+00	0	42	0	677380096	48	6366
2026-01-24 21:28:01.01	57.20	16.71	-38.3	-39.2	23.0	0.00e+00	0	42	0	689963008	48	6419
2026-01-24 21:28:05.05	56.40	16.93	-38.1	-39.0	23.4	0.00e+00	0	42	0	702545920	48	6269
2026-01-24 21:28:09.09	55.59	17.15	-38.0	-38.9	23.4	0.00e+00	0	42	0	715128832	48	6170
2026-01-24 21:28:13.13	54.77	17.37	-37.4	-38.3	23.7	0.00e+00	0	42	0	727711744	48	5791
2026-01-24 21:28:17.16	53.94	17.58	-37.5	-38.4	23.7	0.00e+00	0	42	0	740294656	48	5856
2026-01-24 21:28:21.20	53.10	17.78	-37.4	-38.3	23.6	0.00e+00	0	42	0	752877568	48	5764
2026-01-24 21:28:25.24	52.25	17.98	-37.5	-38.4	23.6	0.00e+00	0	42	0	765460480	48	5832
2026-01-24 21:28:29.28	51.38	18.18	-37.6	-38.6	23.6	0.00e+00	0	42	0	778043392	48	5939
2026-01-24 21:28:33.32	50.50	18.37	-37.3	-38.2	24.0	0.00e+00	0	42	0	790626304	48	5724
2026-01-24 21:28:37.35	49.62	18.56	-37.0	-37.9	24.2	0.00e+00	0	42	0	803209216	48	5482
2026-01-24 21:28:41.40	48.72	18.74	-36.8	-37.7	24.3	0.00e+00	0	42	0	815792128	48	5392
2026-01-24 21:28:45.44	47.81	18.91	-37.3	-38.2	23.8	0.00e+00	0	42	0	828375040	46	6379
2026-01-24 21:28:49.48	46.89	19.08	-37.1	-38.0	23.9	0.00e+00	0	42	0	840957952	46	6237
2026-01-24 21:28:53.52	45.96	19.24	-37.1	-38.0	24.1	0.00e+00	0	42	0	853540864	46	6249
2026-01-24 21:28:57.56	45.02	19.39	-37.0	-37.9	24.3	0.00e+00	0	42	0	866123776	46	6148
2026-01-24 21:29:01.60	44.07	19.54	-36.8	-37.7	24.3	0.00e+00	0	42	0	878706688	46	6040
2026-01-24 21:29:05.63	43.11	19.68	-36.9	-37.8	24.2	0.00e+00	0	42	0	891289600	46	6132
2026-01-24 21:29:09.67	42.15	19.81	-37.4	-38.3	23.9	0.00e+00	0	42	0	903872512	46	6455
2026-01-24 21:29:13.71	41.17	19.93	-37.0	-37.9	24.2	0.00e+00	0	42	0	916455424	46	6176
2026-01-24 21:29:17.75	40.19	20.04	-37.2	-38.2	24.0	0.00e+00	0	42	0	930086912	46	6351
2026-01-24 21:29:21.79	39.20	20.15	-37.1	-38.0	24.1	0.00e+00	0	42	0	942669824	46	6233
2026-01-24 21:29:25.83	38.21	20.25	-37.0	-37.9	24.2	0.00e+00	0	42	0	955252736	46	6135
2026-01-24 21:29:29.87	37.21	20.34	-37.3	-38.2	23.9	0.00e+00	0	42	0	967835648	46	6385
2026-01-24 21:29:33.91	36.20	20.42	-37.4	-38.3	23.9	0.00e+00	0	42	0	980418560	46	6457
2026-01-24 21:29:37.95	35.19	20.49	-37.3	-38.2	23.9	0.00e+00	0	42	0	993001472	46	6368
2026-01-24 21:29:41.99	34.17	20.55	-37.2	-38.1	24.0	0.00e+00	0	42	0	1005584384	46	6294
2026-01-24 21:29:46.03	33.15	20.60	-37.2	-38.2	24.0	0.00e+00	0	42	0	1018167296	46	6354
2026-01-24 21:29:50.06	32.13	20.64	-37.0	-37.9	24.2	0.00e+00	0	42	0	1030750208	46	6162
2026-01-24 21:29:54.10	31.11	20.68	-37.1	-38.0	24.2	0.00e+00	0	42	0	1043333120	46	6250
2026-01-24 21:29:58.14	30.08	20.70	-37.0	-37.9	24.2	0.00e+00	0	42	0	1055916032	46	6186
2026-01-24 21:30:02.17	29.05	20.71	-37.1	-38.0	24.1	0.00e+00	0	42	0	1068498944	46	6243
2026-01-24 21:30:06.21	28.02	20.72	-37.4	-38.3	23.9	0.00e+00	0	42	0	1081081856	46	6485
2026-01-24 21:30:10.25	26.99	20.71	-37.7	-38.7	23.7	0.00e+00	0	42	0	1093664768	46	6732
2026-01-24 21:30:14.29	25.97	20.69	-37.3	-38.2	24.1	0.00e+00	0	42	0	1106247680	48	5691
2026-01-24 21:30:18.33	24.94	20.67	-36.8	-37.8	24.3	0.00e+00	0	42	0	1118830592	48	5411
2026-01-24 21:30:22.37	23.91	20.63	-36.9	-37.8	24.2	0.00e+00	0	42	0	1131413504	48	5426
2026-01-24 21:30:26.41	22.89	20.59	-37.0	-37.9	24.2	0.00e+00	0	42	0	1143996416	48	5515
2026-01-24 21:30:30.45	21.87	20.53	-37.4	-38.3	23.8	0.00e+00	0	42	0	1156579328	48	5780
2026-01-24 21:30:34.49	20.86	20.47	-37.2	-38.1	24.0	0.00e+00	0	42	0	1169162240	48	5624
2026-01-24 21:30:38.53	19.85	20.40	-37.0	-37.9	24.1	0.00e+00	0	42	0	1181745152	48	5488
2026-01-24 21:30:42.57	18.84	20.31	-37.1	-38.0	24.1	0.00e+00	0	42	0	1194328064	48	5585
2026-01-24 21:30:46.61	17.85	20.22	-37.1	-38.0	23.9	0.00e+00	0	42	0	1206910976	48	5589
2026-01-24 21:30:50.65	16.85	20.12	-37.2	-38.1	24.1	0.00e+00	0	42	0	1219493888	48	5654
2026-01-24 21:30:54.69	15.87	20.01	-36.8	-37.7	24.3	0.00e+00	0	42	0	1233125376	48	5363
2026-01-24 21:30:58.73	14.89	19.90	-37.1	-38.0	24.2	0.00e+00	0	42	0	1244659712	48	5576
2026-01-24 21:31:02.77	13.92	19.77	-37.7	-38.7	23.6	0.00e+00	0	42	0	1257242624	48	6007
2026-01-24 21:31:06.80	12.96	19.64	-37.8	-38.7	23.6	0.00e+00	0	42	0	1270874112	48	6037
2026-01-24 21:31:10.84	12.00	19.50	-37.5	-38.4	23.9	0.00e+00	0	42	0	1283457024	48	5814
2026-01-24 21:31:14.88	11.06	19.35	-37.3	-38.2	24.0	0.00e+00	0	42	0	1296039936	48	5717
2026-01-24 21:31:18.92	10.12	19.20	-37.4	-38.3	23.9	0.00e+00	0	42	0	1308622848	48	5789
2026-01-24 21:31:22.96	9.20	19.04	-37.4	-38.3	23.9	0.00e+00	0	42	0	1321205760	48	5765
2026-01-24 21:31:27.00	8.28	18.87	-37.0	-37.9	24.1	0.00e+00	0	42	0	1333788672	48	5500
2026-01-24 21:31:31.04	7.38	18.69	-37.4	-38.4	23.8	0.00e+00	0	42	0	1346371584	48	5811
2026-01-24 21:31:35.08	6.48	18.51	-37.5	-38.5	23.8	0.00e+00	0	42	0	1358954496	48	5882
2026-01-24 21:31:39.12	5.60	18.32	-37.3	-38.2	23.9	0.00e+00	0	42	0	1371537408	48	5704
2026-01-24 21:31:43.16	4.73	18.13	-37.4	-38.4	23.8	0.00e+00	0	42	0	1384120320	48	5804
2026-01-24 21:31:47.20	3.86	17.93	-37.4	-38.3	23.8	0.00e+00	0	42	0	1396703232	48	5777
2026-01-24 21:31:51.24	3.01	17.73	-37.1	-38.0	24.2	0.00e+00	0	42	0	1409286144	48	5538
2026-01-24 21:31:55.28	2.18	17.52	-37.5	-38.4	23.9	0.00e+00	0	42	0	1421869056	48	5846
2026-01-24 21:31:59.32	1.35	17.31	-37.3	-38.2	24.0	0.00e+00	0	42	0	1434451968	48	5702
2026-01-24 21:32:03.36	0.54	17.10	-37.1	-38.1	23.9	0.00e+00	0	42	0	1447034880	48	5595
2026-01-24 21:32:07.39	359.74	16.88	-37.0	-37.9	24.2	0.00e+00	0	42	0	1459617792	48	5492
2026-01-24 21:32:11.43	358.94	16.65	-37.3	-38.3	23.9	0.00e+00	0	42	0	1472200704	48	5730
2026-01-24 21:32:15.47	358.17	16.43	-37.5	-38.4	23.7	0.00e+00	0	42	0	1484783616	48	5844
2026-01-24 21:32:19.51	357.40	16.20	-37.6	-38.5	23.6	0.00e+00	0	42	0	1497366528	48	5885
2026-01-24 21:32:23.55	356.64	15.96	-37.6	-38.5	23.6	0.00e+00	0	42	0	1509949440	48	5882
2026-01-24 21:32:27.58	355.90	15.73	-37.9	-38.9	23.4	0.00e+00	0	42	0	1522532352	48	6146
2026-01-24 21:32:31.62	355.17	15.49	-37.7	-38.7	23.5	0.00e+00	0	42	0	1535115264	48	6022
2026-01-24 21:32:35.66	354.45	15.25	-37.8	-38.7	23.5	0.00e+00	0	42	0	1547698176	48	6034
2026-01-24 21:32:39.70	353.74	15.01	-37.7	-38.7	23.4	0.00e+00	0	42	0	1560281088	48	6016
2026-01-24 21:32:43.73	353.05	14.76	-37.2	-38.2	23.8	0.00e+00	0	42	0	1572864000	48	5672
2026-01-24 21:32:47.77	352.37	14.52	-37.7	-38.6	23.6	0.00e+00	0	42	0	1585446912	48	5976
2026-01-24 21:32:51.80	351.69	14.27	-37.8	-38.8	23.5	0.00e+00	0	42	0	1598029824	48	6066
2026-01-24 21:32:55.84	351.03	14.02	-37.8	-38.7	23.5	0.00e+00	0	42	0	1611661312	48	6044
2026-01-24 21:32:59.88	350.38	13.77	-37.7	-38.6	23.5	0.00e+00	0	42	0	1623195648	48	5964
2026-01-24 21:33:03.91	349.74	13.52	-37.8	-38.8	23.5	0.00e+00	0	42	0	1636827136	48	6071
2026-01-24 21:33:07.95	349.12	13.26	-37.8	-38.8	23.5	0.00e+00	0	42	0	1649410048	48	6074
2026-01-24 21:33:11.99	348.50	13.01	-37.8	-38.8	23.3	0.00e+00	0	42	0	1661992960	48	6075
2026-01-24 21:33:16.02	347.89	12.76	-38.1	-39.1	23.0	0.00e+00	0	42	0	1674575872	48	6318
2026-01-24 21:33:20.06	347.30	12.50	-37.9	-38.9	23.2	0.00e+00	0	42	0	1687158784	48	6161
2026-01-24 21:33:24.10	346.71	12.25	-38.2	-39.2	22.9	0.00e+00	0	42	0	1699741696	48	6388
2026-01-24 21:33:28.14	346.14	11.99	-38.7	-39.7	22.4	0.00e+00	0	42	0	1712324608	48	6771
2026-01-24 21:33:32.18	345.57	11.74	-38.6	-39.7	22.6	0.00e+00	0	42	0	1724907520	50	6010
2026-01-24 21:33:36.21	345.02	11.48	-38.2	-39.2	22.9	0.00e+00	0	42	0	1737490432	50	5722
2026-01-24 21:33:40.25	344.47	11.23	-38.5	-39.5	22.8	0.00e+00	0	42	0	1750073344	50	5871
2026-01-24 21:33:44.29	343.94	10.97	-39.1	-40.2	22.2	0.00e+00	0	42	0	1762656256	50	6398
2026-01-24 21:33:48.33	343.41	10.72	-39.3	-40.4	21.9	0.00e+00	0	42	0	1775239168	50	6543
2026-01-24 21:33:52.37	342.89	10.46	-38.9	-40.0	22.3	0.00e+00	0	41	0	1787822080	50	6242
2026-01-24 21:33:56.41	342.38	10.21	-39.5	-40.6	21.7	0.00e+00	0	41	0	1800404992	50	6710
2026-01-24 21:34:00.45	341.89	9.96	-39.7	-40.8	21.6	0.00e+00	0	41	0	1812987904	52	6089
2026-01-24 21:34:04.49	341.40	9.70	-40.1	-41.2	21.2	0.00e+00	0	41	0	1825570816	52	6400
2026-01-24 21:34:08.52	340.92	9.45	-39.5	-40.7	21.6	0.00e+00	0	41	0	1838153728	52	6007
2026-01-24 21:34:12.56	340.44	9.20	-39.8	-40.9	21.6	0.00e+00	0	41	0	1850736640	52	6168
2026-01-24 21:34:16.60	339.98	8.95	-39.5	-40.6	22.0	0.00e+00	0	41	0	1863319552	52	5962
2026-01-24 21:34:20.64	339.52	8.70	-39.7	-40.8	21.6	0.00e+00	0	41	0	1875902464	52	6084
2026-01-24 21:34:24.68	339.07	8.45	-39.7	-40.8	21.6	0.00e+00	0	41	0	1888485376	52	6082
2026-01-24 21:34:28.71	338.63	8.20	-39.9	-41.0	21.3	0.00e+00	0	41	0	1901068288	52	6263
2026-01-24 21:34:32.75	338.20	7.95	-39.6	-40.7	21.7	0.00e+00	0	41	0	1913651200	52	6006
2026-01-24 21:34:36.78	337.78	7.70	-40.2	-41.3	21.0	0.00e+00	0	41	0	1926234112	52	6450
2026-01-24 21:34:40.83	337.36	7.45	-40.6	-41.8	20.5	0.00e+00	0	41	0	1938817024	52	6842
2026-01-24 21:34:44.86	336.95	7.21	-40.4	-41.6	20.5	0.00e+00	0	41	0	1951399936	54	5933
2026-01-24 21:34:48.90	336.54	6.96	-40.2	-41.4	20.6	0.00e+00	0	41	0	1963982848	54	5819
2026-01-24 21:34:52.94	336.15	6.72	-40.2	-41.3	20.8	0.00e+00	0	41	0	1977614336	52	6469
2026-01-24 21:34:56.98	335.76	6.48	-39.6	-40.7	21.3	0.00e+00	0	41	0	1989148672	52	6045
2026-01-24 21:35:00.99	335.37	6.24	-41.6	-42.9	19.1	0.00e+00	0	41	0	2002780160	54	6938
2026-01-24 21:35:05.03	335.00	6.00	-42.0	-43.5	18.0	0.00e+00	0	41	0	2014314496	56	6581
2026-01-24 21:35:09.07	334.63	5.76	-42.3	-44.1	16.4	0.00e+00	0	41	0	2027945984	56	7060
2026-01-24 21:35:13.10	334.26	5.52	-42.6	-44.7	15.2	0.00e+00	0	41	0	2040528896	58	6735
2026-01-24 21:35:17.14	333.91	5.28	-44.4	-47.4	12.0	3.53e-04	0	41	0	2053111808	60	8269
2026-01-24 21:35:21.18	333.55	5.05	-44.1	-47.2	12.3	4.65e-04	0	41	0	2065694720	60	8007
2026-01-24 21:35:25.21	333.21	4.81	-44.8	-48.5	10.4	7.27e-04	0	41	0	2078277632	60	9378
2026-01-24 21:35:29.25	332.87	4.58	-45.2	-49.3	9.5	1.95e-02	0	42	0	2090860544	60	10286
2026-01-24 21:35:33.29	332.53	4.34	-45.4	-49.7	9.4	7.64e-03	0	41	0	2103443456	60	10678
2026-01-24 21:35:37.33	332.20	4.11	-45.1	-48.3	11.6	3.21e-04	0	41	0	2116026368	60	9166
2026-01-24 21:35:41.37	331.88	3.88	-44.7	-47.3	13.5	8.30e-06	0	41	0	2128609280	60	8164
2026-01-24 21:35:45.40	331.56	3.65	-44.4	-46.8	13.8	1.83e-05	0	41	0	2141192192	60	7723
2026-01-24 21:35:49.45	331.25	3.42	-41.7	-43.3	18.0	0.00e+00	0	41	0	2153775104	60	5129
2026-01-24 21:35:53.49	330.94	3.19	-43.3	-45.4	14.9	7.00e-07	0	41	0	2166358016	60	6572
2026-01-24 21:35:57.53	330.64	2.97	-50.4	-63.3	3.5	1.52e+00	0	42	104	2175795200	60	51046
2026-01-24 21:36:01.56	330.34	2.74	-51.2	-64.0	3.5	1.52e+00	0	42	104	2175795200	60	55778
2026-01-24 21:36:05.60	330.04	2.52	-51.4	-64.3	3.5	1.52e+00	0	42	104	2175795200	60	57278
2026-01-24 21:36:09.64	329.75	2.29	-51.4	-64.3	3.5	1.52e+00	0	42	104	2175795200	60	57405
2026-01-24 21:36:13.68	329.47	2.07	-51.3	-64.2	3.5	1.52e+00	0	42	104	2175795200	60	56938
2026-01-24 21:36:17.72	329.19	1.85	-51.3	-64.2	3.5	1.52e+00	0	42	104	2175795200	60	57083
2026-01-24 21:36:21.77	328.91	1.63	-51.4	-64.2	3.5	1.52e+00	0	42	104	2175795200	60	57161
2026-01-24 21:36:25.80	328.64	1.41	-51.5	-64.3	3.5	1.52e+00	0	42	104	2175795200	60	57865
2026-01-24 21:36:29.84	328.37	1.19	-51.5	-64.3	3.5	1.52e+00	0	42	104	2175795200	60	57418
2026-01-24 21:36:33.89	328.11	0.97	-51.4	-64.3	3.5	1.52e+00	0	42	104	2175795200	60	57287
2026-01-24 21:36:37.92	327.85	0.76	-51.3	-64.2	3.5	1.52e+00	0	42	104	2175795200	60	57163
2026-01-24 21:36:41.96	327.60	0.54	-51.4	-64.2	3.5	1.52e+00	0	42	104	2175795200	60	57066
2026-01-24 21:36:46.00	327.35	0.33	-51.4	-64.2	3.5	1.52e+00	0	42	104	2175795200	60	57220
2026-01-24 21:36:50.04	327.10	0.11	-51.5	-64.4	3.5	1.52e+00	0	42	104	2175795200	60	58105

#Closed at: 2026-01-24 21:36:53
#Recorded file [2175 MB]: D:/lorett/data/35029_260125_092322.dat