passes_logs/2026/01/24/R4.6S_Anadyr/R4.6S_Anadyr__20260124_183552_SUOMI_NPP_rec.log

#Pass ID: 20260124_183552_SUOMI NPP
#Satellite: SUOMI NPP
#Configuration: NPP
#almurnet v.1.7.20251203
#Start time: 2026-01-24 18:35:53

#Version: 2.2.20231116
#Station: R4.6S_Anadyr
#Location: 177.4865 lon 64.73178 lat
#TLE: 1 37849U 11061A   26024.12615439  .00000221  00000+0  12601-3 0  9992
#TLE: 2 37849  98.7821 326.0966 0002215  48.1259 312.0106 14.19529288738009

#Time	Az	El	Level	Level2	SNR	BER	BlckErr	Temp	State	Recorded	gain1	gain2
2026-01-24 18:35:53.90	41.53	0.08	-53.1	-64.8	3.5	8.45e-01	0	38	0	0	60	62721
2026-01-24 18:35:56.93	41.31	0.23	-53.2	-68.4	3.6	1.51e+00	0	40	104	0	60	95522
2026-01-24 18:35:59.96	41.09	0.38	-52.8	-68.0	3.6	1.51e+00	0	40	104	0	60	91011
2026-01-24 18:36:02.99	40.87	0.53	-52.2	-67.5	3.6	1.51e+00	0	40	104	0	60	85437
2026-01-24 18:36:06.02	40.65	0.68	-51.9	-67.2	3.6	1.51e+00	0	40	104	0	60	82482
2026-01-24 18:36:09.05	40.42	0.83	-51.8	-67.0	3.6	1.51e+00	0	40	104	0	60	80771
2026-01-24 18:36:12.08	40.19	0.99	-51.9	-67.1	3.6	1.51e+00	0	40	104	0	60	82078
2026-01-24 18:36:15.11	39.96	1.14	-51.4	-66.6	3.6	1.51e+00	0	40	104	0	60	77323
2026-01-24 18:36:18.15	39.72	1.29	-50.7	-65.9	3.6	1.51e+00	0	40	104	0	60	71460
2026-01-24 18:36:21.18	39.48	1.45	-50.1	-65.3	3.6	1.51e+00	0	40	104	0	60	66623
2026-01-24 18:36:24.21	39.25	1.60	-50.1	-65.3	3.6	1.51e+00	0	40	104	0	60	66324
2026-01-24 18:36:27.24	39.00	1.76	-50.1	-65.3	3.6	1.51e+00	0	40	104	0	60	66651
2026-01-24 18:36:30.27	38.76	1.91	-50.1	-65.2	3.6	1.51e+00	0	40	104	0	60	66040
2026-01-24 18:36:33.30	38.51	2.06	-50.4	-65.5	3.6	1.51e+00	0	40	104	0	60	67958
2026-01-24 18:36:36.27	38.27	2.22	-50.2	-64.9	3.6	1.51e+00	0	40	104	0	60	63610
2026-01-24 18:36:39.30	38.01	2.37	-50.4	-65.6	3.6	1.51e+00	0	40	104	0	60	68836
2026-01-24 18:36:42.33	37.76	2.53	-50.2	-65.5	3.6	1.51e+00	0	40	104	0	60	68024
2026-01-24 18:36:45.36	37.50	2.68	-50.1	-64.7	3.6	1.51e+00	0	40	104	0	60	62035
2026-01-24 18:36:48.39	37.24	2.84	-50.0	-63.3	3.6	1.51e+00	0	40	104	0	60	52771
2026-01-24 18:36:51.43	36.97	3.00	-47.6	-51.2	12.9	2.78e-04	0	40	0	3145728	60	13127
2026-01-24 18:36:54.46	36.70	3.16	-45.8	-48.1	12.8	1.43e-04	0	40	0	8388608	60	9204
2026-01-24 18:36:57.49	36.43	3.31	-45.3	-47.4	17.0	0.00e+00	0	40	0	9437184	60	8440
2026-01-24 18:37:00.52	36.16	3.47	-44.7	-46.6	17.8	0.00e+00	0	41	0	14680064	60	7733
2026-01-24 18:37:03.55	35.88	3.63	-45.9	-48.3	16.0	0.00e+00	0	41	0	19922944	60	9409
2026-01-24 18:37:06.58	35.60	3.79	-46.3	-48.7	16.0	0.00e+00	0	41	0	26214400	60	9852
2026-01-24 18:37:09.61	35.32	3.95	-45.2	-47.1	17.7	0.00e+00	0	41	0	31457280	60	8226
2026-01-24 18:37:12.64	35.04	4.11	-45.9	-48.2	16.3	0.00e+00	0	40	0	37748736	60	9282
2026-01-24 18:37:15.66	34.75	4.26	-44.5	-46.2	18.3	0.00e+00	0	41	0	42991616	60	7346
2026-01-24 18:37:18.69	34.45	4.42	-45.4	-47.4	16.9	0.00e+00	0	41	0	48234496	60	8514
2026-01-24 18:37:21.72	34.16	4.58	-45.0	-46.8	17.9	0.00e+00	0	41	0	54525952	60	7906
2026-01-24 18:37:24.75	33.86	4.74	-44.7	-46.4	17.9	0.00e+00	0	41	0	59768832	60	7589
2026-01-24 18:37:27.78	33.56	4.90	-45.0	-46.9	17.9	0.00e+00	0	41	0	66060288	60	7992
2026-01-24 18:37:30.81	33.25	5.06	-45.3	-47.3	17.5	0.00e+00	0	41	0	71303168	60	8343
2026-01-24 18:37:33.84	32.94	5.22	-45.0	-46.8	17.7	0.00e+00	0	41	0	77594624	60	7946
2026-01-24 18:37:36.87	32.63	5.38	-44.8	-46.6	18.1	0.00e+00	0	41	0	82837504	60	7742
2026-01-24 18:37:39.90	32.31	5.54	-44.7	-46.5	18.2	0.00e+00	0	41	0	88080384	60	7623
2026-01-24 18:37:42.92	31.99	5.71	-44.7	-46.5	18.1	0.00e+00	0	41	0	94371840	60	7660
2026-01-24 18:37:45.95	31.67	5.87	-44.9	-46.8	18.0	0.00e+00	0	41	0	99614720	60	7869
2026-01-24 18:37:48.98	31.34	6.03	-44.7	-46.5	18.5	0.00e+00	0	41	0	105906176	60	7630
2026-01-24 18:37:52.01	31.01	6.19	-44.5	-46.2	18.5	0.00e+00	0	41	0	111149056	60	7368
2026-01-24 18:37:55.04	30.68	6.35	-44.5	-46.2	18.7	0.00e+00	0	41	0	117440512	60	7358
2026-01-24 18:37:58.07	30.34	6.51	-44.2	-45.9	19.0	0.00e+00	0	41	0	122683392	60	7091
2026-01-24 18:38:01.10	29.99	6.67	-44.9	-46.7	18.3	0.00e+00	0	41	0	127926272	60	7841
2026-01-24 18:38:04.13	29.65	6.83	-44.2	-45.9	19.1	0.00e+00	0	41	0	134217728	60	7100
2026-01-24 18:38:07.16	29.30	7.00	-44.5	-46.2	18.7	0.00e+00	0	41	0	139460608	60	7377
2026-01-24 18:38:10.19	28.94	7.16	-44.1	-45.6	19.2	0.00e+00	0	41	0	145752064	60	6902
2026-01-24 18:38:13.22	28.58	7.32	-44.4	-46.0	18.8	0.00e+00	0	41	0	150994944	60	7238
2026-01-24 18:38:16.25	28.22	7.48	-43.5	-45.0	20.1	0.00e+00	0	41	0	156237824	60	6391
2026-01-24 18:38:19.28	27.85	7.64	-43.6	-45.1	19.3	0.00e+00	0	41	0	162529280	60	6482
2026-01-24 18:38:22.31	27.48	7.80	-43.6	-45.1	19.7	0.00e+00	0	41	0	167772160	60	6469
2026-01-24 18:38:25.34	27.11	7.96	-43.8	-45.2	19.6	0.00e+00	0	41	0	174063616	60	6600
2026-01-24 18:38:28.37	26.73	8.12	-43.7	-45.1	19.9	0.00e+00	0	41	0	179306496	60	6502
2026-01-24 18:38:31.40	26.34	8.28	-43.6	-45.1	19.9	0.00e+00	0	41	0	185597952	60	6478
2026-01-24 18:38:34.42	25.96	8.44	-43.8	-45.3	19.7	0.00e+00	0	41	0	190840832	60	6671
2026-01-24 18:38:37.45	25.56	8.60	-43.7	-45.1	19.8	0.00e+00	0	41	0	196083712	60	6525
2026-01-24 18:38:40.48	25.17	8.76	-43.6	-45.1	19.8	0.00e+00	0	41	0	202375168	60	6490
2026-01-24 18:38:43.51	24.76	8.92	-43.6	-45.0	19.8	0.00e+00	0	41	0	207618048	60	6413
2026-01-24 18:38:46.54	24.36	9.08	-43.5	-44.9	20.0	0.00e+00	0	41	0	213909504	60	6372
2026-01-24 18:38:49.57	23.95	9.24	-43.4	-44.8	20.1	0.00e+00	0	41	0	219152384	60	6277
2026-01-24 18:38:52.60	23.53	9.40	-43.5	-44.9	20.0	0.00e+00	0	41	0	224395264	60	6343
2026-01-24 18:38:55.62	23.11	9.56	-43.8	-45.3	19.7	0.00e+00	0	41	0	230686720	60	6620
2026-01-24 18:38:58.65	22.69	9.72	-43.2	-44.6	20.3	0.00e+00	0	41	0	235929600	60	6115
2026-01-24 18:39:01.68	22.26	9.87	-43.9	-45.4	19.7	0.00e+00	0	41	0	242221056	60	6710
2026-01-24 18:39:04.71	21.82	10.03	-43.9	-45.4	19.5	0.00e+00	0	41	0	247463936	60	6718
2026-01-24 18:39:07.74	21.39	10.18	-43.9	-45.5	19.7	0.00e+00	0	41	0	252706816	60	6770
2026-01-24 18:39:10.77	20.94	10.34	-44.1	-45.6	19.3	0.00e+00	0	41	0	258998272	60	6916
2026-01-24 18:39:13.80	20.49	10.49	-44.2	-45.7	19.4	0.00e+00	0	41	0	264241152	60	6957
2026-01-24 18:39:16.83	20.04	10.65	-43.0	-44.3	20.6	0.00e+00	0	41	0	270532608	60	5940
2026-01-24 18:39:19.86	19.58	10.80	-43.1	-44.4	20.6	0.00e+00	0	41	0	275775488	60	5997
2026-01-24 18:39:22.89	19.12	10.95	-42.7	-43.9	20.9	0.00e+00	0	41	0	282066944	58	6376
2026-01-24 18:39:25.92	18.65	11.10	-42.3	-43.4	21.2	0.00e+00	0	41	0	287309824	58	6015
2026-01-24 18:39:28.95	18.18	11.25	-42.2	-43.4	21.4	0.00e+00	0	41	0	292552704	58	6003
2026-01-24 18:39:31.97	17.70	11.40	-42.0	-43.2	21.5	0.00e+00	0	41	0	298844160	58	5850
2026-01-24 18:39:35.00	17.22	11.55	-41.7	-42.8	21.9	0.00e+00	0	41	0	304087040	56	6291
2026-01-24 18:39:38.03	16.73	11.69	-41.5	-42.6	22.0	0.00e+00	0	41	0	310378496	56	6151
2026-01-24 18:39:41.06	16.24	11.84	-42.0	-43.2	21.5	0.00e+00	0	41	0	315621376	56	6544
2026-01-24 18:39:44.09	15.74	11.98	-41.9	-43.0	21.8	0.00e+00	0	41	0	320864256	56	6415
2026-01-24 18:39:47.12	15.24	12.13	-41.3	-42.3	22.3	0.00e+00	0	41	0	327155712	56	5955
2026-01-24 18:39:50.15	14.73	12.27	-41.5	-42.5	22.2	0.00e+00	0	41	0	332398592	56	6066
2026-01-24 18:39:53.17	14.22	12.41	-41.1	-42.1	22.6	0.00e+00	0	41	0	338690048	56	5786
2026-01-24 18:39:56.20	13.70	12.55	-42.0	-43.1	21.7	0.00e+00	0	41	0	343932928	56	6520
2026-01-24 18:39:59.23	13.18	12.68	-43.1	-44.4	20.7	0.00e+00	0	41	0	350224384	58	6757
2026-01-24 18:40:02.26	12.65	12.82	-42.2	-43.3	21.6	0.00e+00	0	41	0	355467264	58	5928
2026-01-24 18:40:05.29	12.12	12.95	-42.1	-43.2	21.6	0.00e+00	0	41	0	360710144	56	6605
2026-01-24 18:40:08.32	11.58	13.08	-40.2	-41.1	23.3	0.00e+00	0	41	0	367001600	54	5807
2026-01-24 18:40:11.35	11.04	13.21	-40.2	-41.2	23.2	0.00e+00	0	41	0	372244480	54	5848
2026-01-24 18:40:14.38	10.50	13.34	-40.8	-41.8	22.5	0.00e+00	0	41	0	378535936	54	6262
2026-01-24 18:40:17.40	9.95	13.47	-41.5	-42.6	22.2	0.00e+00	0	41	0	383778816	54	6859
2026-01-24 18:40:20.43	9.39	13.59	-41.5	-42.5	22.0	0.00e+00	0	41	0	389021696	54	6835
2026-01-24 18:40:23.46	8.83	13.72	-41.6	-42.7	22.2	0.00e+00	0	41	0	395313152	56	6189
2026-01-24 18:40:26.49	8.26	13.84	-42.0	-43.1	21.7	0.00e+00	0	41	0	400556032	56	6490
2026-01-24 18:40:29.52	7.69	13.95	-41.9	-43.1	21.8	0.00e+00	0	41	0	406847488	56	6501
2026-01-24 18:40:32.54	7.12	14.07	-41.7	-42.8	22.0	0.00e+00	0	41	0	412090368	56	6290
2026-01-24 18:40:35.57	6.54	14.18	-41.4	-42.5	22.3	0.00e+00	0	41	0	418381824	56	6040
2026-01-24 18:40:38.60	5.96	14.29	-40.9	-41.9	22.8	0.00e+00	0	41	0	423624704	56	5678
2026-01-24 18:40:41.63	5.37	14.40	-41.4	-42.4	22.5	0.00e+00	0	41	0	428867584	56	6003
2026-01-24 18:40:44.66	4.77	14.51	-41.2	-42.2	22.6	0.00e+00	0	41	0	435159040	56	5835
2026-01-24 18:40:47.68	4.18	14.61	-40.8	-41.8	22.9	0.00e+00	0	41	0	440401920	54	6249
2026-01-24 18:40:50.71	3.58	14.71	-41.2	-42.2	22.4	0.00e+00	0	41	0	446693376	54	6581
2026-01-24 18:40:53.74	2.97	14.81	-41.6	-42.7	22.3	0.00e+00	0	41	0	451936256	54	6928
2026-01-24 18:40:56.77	2.36	14.90	-40.6	-41.5	23.1	0.00e+00	0	41	0	457179136	54	6080
2026-01-24 18:40:59.80	1.75	14.99	-40.1	-41.0	23.5	0.00e+00	0	41	0	463470592	54	5716
2026-01-24 18:41:02.82	1.14	15.08	-40.6	-41.5	23.0	0.00e+00	0	41	0	468713472	54	6087
2026-01-24 18:41:05.85	0.52	15.17	-40.8	-41.8	23.0	0.00e+00	0	41	0	475004928	54	6254
2026-01-24 18:41:08.88	359.89	15.25	-40.6	-41.5	23.2	0.00e+00	0	41	0	480247808	54	6080
2026-01-24 18:41:11.91	359.27	15.33	-40.6	-41.5	23.1	0.00e+00	0	41	0	486539264	54	6095
2026-01-24 18:41:14.94	358.63	15.41	-41.0	-42.1	22.6	0.00e+00	0	41	0	491782144	54	6468
2026-01-24 18:41:17.96	358.00	15.48	-41.3	-42.3	22.4	0.00e+00	0	41	0	497025024	54	6652
2026-01-24 18:41:20.99	357.37	15.55	-41.5	-42.5	22.3	0.00e+00	0	41	0	503316480	54	6825
2026-01-24 18:41:24.02	356.73	15.62	-41.1	-42.1	22.6	0.00e+00	0	41	0	508559360	54	6490
2026-01-24 18:41:27.05	356.08	15.68	-41.3	-42.4	22.4	0.00e+00	0	41	0	514850816	54	6715
2026-01-24 18:41:30.07	355.44	15.74	-41.0	-42.0	22.8	0.00e+00	0	41	0	520093696	54	6416
2026-01-24 18:41:33.10	354.79	15.79	-41.1	-42.1	22.6	0.00e+00	0	41	0	525336576	54	6484
2026-01-24 18:41:36.13	354.14	15.85	-40.9	-41.9	22.9	0.00e+00	0	41	0	531628032	54	6324
2026-01-24 18:41:39.16	353.49	15.89	-40.6	-41.5	23.0	0.00e+00	0	41	0	536870912	54	6092
2026-01-24 18:41:42.19	352.83	15.94	-40.8	-41.8	22.8	0.00e+00	0	41	0	543162368	54	6281
2026-01-24 18:41:45.22	352.18	15.98	-41.0	-42.0	22.6	0.00e+00	0	41	0	548405248	54	6416
2026-01-24 18:41:48.24	351.52	16.02	-41.2	-42.2	22.6	0.00e+00	0	41	0	553648128	54	6558
2026-01-24 18:41:51.27	350.86	16.05	-42.0	-43.1	21.9	0.00e+00	0	41	0	559939584	56	6475
2026-01-24 18:41:54.30	350.20	16.08	-41.8	-42.9	22.2	0.00e+00	0	41	0	565182464	56	6332
2026-01-24 18:41:57.33	349.54	16.11	-41.3	-42.4	22.5	0.00e+00	0	41	0	571473920	56	5989
2026-01-24 18:42:00.36	348.88	16.13	-41.4	-42.5	22.3	0.00e+00	0	41	0	576716800	56	6047
2026-01-24 18:42:03.39	348.21	16.15	-41.5	-42.5	22.4	0.00e+00	0	41	0	583008256	56	6076
2026-01-24 18:42:06.42	347.55	16.16	-41.0	-42.0	22.8	0.00e+00	0	41	0	588251136	56	5735
2026-01-24 18:42:09.44	346.88	16.17	-41.2	-42.2	22.6	0.00e+00	0	41	0	593494016	56	5892
2026-01-24 18:42:12.47	346.22	16.18	-41.5	-42.6	22.3	0.00e+00	0	41	0	599785472	56	6149
2026-01-24 18:42:15.50	345.55	16.18	-41.6	-42.6	22.3	0.00e+00	0	41	0	605028352	56	6168
2026-01-24 18:42:18.53	344.88	16.18	-41.6	-42.7	22.3	0.00e+00	0	41	0	611319808	56	6198
2026-01-24 18:42:21.56	344.22	16.17	-41.4	-42.4	22.6	0.00e+00	0	41	0	616562688	56	6001
2026-01-24 18:42:24.58	343.55	16.16	-41.0	-42.0	22.9	0.00e+00	0	41	0	621805568	54	6435
2026-01-24 18:42:27.61	342.89	16.15	-41.1	-42.1	22.7	0.00e+00	0	41	0	628097024	54	6481
2026-01-24 18:42:30.64	342.22	16.13	-41.6	-42.7	22.0	0.00e+00	0	41	0	633339904	54	6961
2026-01-24 18:42:33.67	341.56	16.11	-41.8	-42.9	22.0	0.00e+00	0	41	0	639631360	56	6383
2026-01-24 18:42:36.70	340.90	16.09	-42.1	-43.3	21.9	0.00e+00	0	41	0	644874240	56	6689
2026-01-24 18:42:39.72	340.24	16.06	-41.8	-43.0	22.2	0.00e+00	0	41	0	651165696	56	6406
2026-01-24 18:42:42.75	339.58	16.02	-41.5	-42.6	22.4	0.00e+00	0	41	0	656408576	56	6135
2026-01-24 18:42:45.78	338.92	15.99	-41.4	-42.5	22.6	0.00e+00	0	41	0	661651456	56	6058
2026-01-24 18:42:48.81	338.26	15.95	-41.7	-42.8	22.3	0.00e+00	0	41	0	667942912	56	6265
2026-01-24 18:42:51.83	337.61	15.90	-41.4	-42.5	22.5	0.00e+00	0	41	0	673185792	56	6088
2026-01-24 18:42:54.86	336.96	15.86	-40.7	-41.6	23.0	0.00e+00	0	41	0	679477248	56	5488
2026-01-24 18:42:57.89	336.31	15.80	-40.7	-41.7	23.0	0.00e+00	0	41	0	684720128	54	6180
2026-01-24 18:43:00.92	335.66	15.75	-40.6	-41.5	23.1	0.00e+00	0	41	0	689963008	54	6091
2026-01-24 18:43:03.94	335.01	15.69	-41.1	-42.1	22.6	0.00e+00	0	41	0	696254464	54	6498
2026-01-24 18:43:06.97	334.37	15.63	-41.3	-42.3	22.5	0.00e+00	0	41	0	701497344	54	6675
2026-01-24 18:43:10.00	333.73	15.56	-41.2	-42.3	22.5	0.00e+00	0	41	0	707788800	54	6621
2026-01-24 18:43:13.03	333.09	15.49	-42.0	-43.1	21.8	0.00e+00	0	41	0	713031680	56	6511
2026-01-24 18:43:16.06	332.46	15.42	-41.7	-42.8	22.4	0.00e+00	0	41	0	719323136	56	6280
2026-01-24 18:43:19.09	331.83	15.35	-41.2	-42.1	22.7	0.00e+00	0	41	0	724566016	56	5827
2026-01-24 18:43:22.11	331.20	15.27	-41.0	-41.9	22.8	0.00e+00	0	41	0	729808896	56	5690
2026-01-24 18:43:25.14	330.57	15.19	-40.6	-41.6	23.1	0.00e+00	0	41	0	736100352	54	6104
2026-01-24 18:43:28.17	329.95	15.10	-40.7	-41.7	22.9	0.00e+00	0	41	0	741343232	54	6197
2026-01-24 18:43:31.20	329.34	15.01	-41.9	-43.0	22.4	0.00e+00	0	41	0	747634688	56	6395
2026-01-24 18:43:34.23	328.72	14.92	-42.0	-43.0	22.2	0.00e+00	0	41	0	752877568	56	6435
2026-01-24 18:43:37.26	328.11	14.83	-42.4	-43.5	21.9	0.00e+00	0	41	0	758120448	56	6828
2026-01-24 18:43:40.29	327.51	14.73	-42.5	-43.7	21.7	0.00e+00	0	41	0	764411904	56	6953
2026-01-24 18:43:43.32	326.90	14.63	-42.2	-43.3	22.0	0.00e+00	0	41	0	769654784	58	5940
2026-01-24 18:43:46.34	326.31	14.53	-41.6	-42.6	22.5	0.00e+00	0	41	0	775946240	56	6132
2026-01-24 18:43:49.37	325.71	14.42	-41.6	-42.6	22.7	0.00e+00	0	41	0	781189120	56	6108
2026-01-24 18:43:52.39	325.13	14.32	-41.4	-42.4	22.6	0.00e+00	0	40	0	787480576	56	6023
2026-01-24 18:43:55.42	324.54	14.21	-41.2	-42.1	22.7	0.00e+00	0	41	0	792723456	56	5808
2026-01-24 18:43:58.45	323.96	14.09	-40.8	-41.7	23.2	0.00e+00	0	40	0	797966336	54	6233
2026-01-24 18:44:01.48	323.38	13.98	-41.2	-42.1	23.1	0.00e+00	0	40	0	804257792	54	6488
2026-01-24 18:44:04.51	322.81	13.86	-41.5	-42.4	22.5	0.00e+00	0	41	0	809500672	54	6758
2026-01-24 18:44:07.54	322.24	13.74	-42.2	-43.2	22.0	0.00e+00	0	41	0	815792128	56	6611
2026-01-24 18:44:10.57	321.68	13.62	-42.7	-43.8	21.5	0.00e+00	0	41	0	821035008	56	7034
2026-01-24 18:44:13.60	321.12	13.49	-42.8	-43.9	21.5	0.00e+00	0	41	0	826277888	58	6325
2026-01-24 18:44:16.62	320.57	13.37	-42.8	-43.9	21.5	0.00e+00	0	40	0	832569344	58	6368
2026-01-24 18:44:19.65	320.03	13.24	-42.7	-43.8	21.5	0.00e+00	0	41	0	837812224	58	6304
2026-01-24 18:44:22.68	319.48	13.11	-42.4	-43.5	21.8	0.00e+00	0	41	0	844103680	58	6091
2026-01-24 18:44:25.71	318.94	12.98	-42.3	-43.4	21.7	0.00e+00	0	41	0	849346560	58	6000
2026-01-24 18:44:28.74	318.41	12.85	-42.6	-43.7	21.9	0.00e+00	0	41	0	854589440	58	6174
2026-01-24 18:44:31.77	317.88	12.71	-42.2	-43.3	22.0	0.00e+00	0	41	0	860880896	58	5914
2026-01-24 18:44:34.80	317.36	12.57	-41.9	-42.9	22.1	0.00e+00	0	41	0	866123776	58	5681
2026-01-24 18:44:37.82	316.84	12.44	-41.3	-42.3	22.6	0.00e+00	0	41	0	872415232	56	5926
2026-01-24 18:44:40.86	316.32	12.30	-42.1	-43.1	22.0	0.00e+00	0	41	0	877658112	56	6539
2026-01-24 18:44:43.88	315.82	12.15	-43.0	-44.2	21.2	0.00e+00	0	41	0	883949568	58	6546
2026-01-24 18:44:46.91	315.31	12.01	-43.0	-44.1	21.1	0.00e+00	0	41	0	889192448	58	6537
2026-01-24 18:44:49.93	314.82	11.87	-42.3	-43.3	21.8	0.00e+00	0	41	0	894435328	58	5959
2026-01-24 18:44:52.96	314.32	11.72	-42.8	-44.0	21.2	0.00e+00	0	41	0	900726784	58	6393
2026-01-24 18:44:55.99	313.83	11.58	-44.2	-45.6	19.8	0.00e+00	0	41	0	905969664	60	6883
2026-01-24 18:44:59.02	313.35	11.43	-46.2	-48.2	17.6	0.00e+00	0	41	0	912261120	60	9340
2026-01-24 18:45:02.05	312.87	11.28	-45.8	-47.7	18.0	0.00e+00	0	41	0	917504000	60	8751
2026-01-24 18:45:05.08	312.39	11.13	-45.2	-46.9	18.7	0.00e+00	0	41	0	922746880	60	8013
2026-01-24 18:45:08.11	311.92	10.98	-44.7	-46.2	19.7	0.00e+00	0	41	0	929038336	60	7387
2026-01-24 18:45:11.13	311.46	10.83	-44.4	-45.8	19.9	0.00e+00	0	40	0	934281216	60	7011
2026-01-24 18:45:14.15	311.00	10.68	-43.9	-45.2	20.3	0.00e+00	0	41	0	940572672	60	6565
2026-01-24 18:45:17.18	310.55	10.52	-44.0	-45.3	20.3	0.00e+00	0	41	0	945815552	60	6677
2026-01-24 18:45:20.21	310.10	10.37	-43.8	-45.1	20.6	0.00e+00	0	41	0	952107008	60	6483
2026-01-24 18:45:23.23	309.66	10.21	-44.0	-45.3	20.2	0.00e+00	0	41	0	957349888	60	6620
2026-01-24 18:45:26.26	309.21	10.06	-43.1	-44.2	21.4	0.00e+00	0	41	0	962592768	60	5895
2026-01-24 18:45:29.29	308.78	9.90	-43.1	-44.2	21.2	0.00e+00	0	40	0	968884224	60	5872
2026-01-24 18:45:32.32	308.35	9.75	-43.2	-44.4	21.1	0.00e+00	0	40	0	974127104	60	5973
2026-01-24 18:45:35.35	307.92	9.59	-43.9	-45.2	20.5	0.00e+00	0	41	0	980418560	60	6553
2026-01-24 18:45:38.38	307.50	9.43	-43.9	-45.2	20.1	0.00e+00	0	41	0	985661440	60	6578
2026-01-24 18:45:41.40	307.08	9.27	-43.4	-44.7	20.4	0.00e+00	0	40	0	990904320	60	6191
2026-01-24 18:45:44.43	306.67	9.11	-43.1	-44.4	20.6	0.00e+00	0	41	0	997195776	58	6733
2026-01-24 18:45:47.46	306.26	8.96	-43.2	-44.5	20.6	0.00e+00	0	41	0	1002438656	58	6797
2026-01-24 18:45:50.49	305.86	8.80	-42.7	-43.9	21.1	0.00e+00	0	41	0	1008730112	58	6330
2026-01-24 18:45:53.51	305.46	8.64	-42.3	-43.5	21.4	0.00e+00	0	41	0	1013972992	58	6054
2026-01-24 18:45:56.54	305.07	8.48	-42.2	-43.3	21.6	0.00e+00	0	41	0	1019215872	56	6681
2026-01-24 18:45:59.57	304.68	8.32	-41.1	-42.0	22.8	0.00e+00	0	41	0	1025507328	56	5748
2026-01-24 18:46:02.60	304.29	8.16	-42.3	-43.5	21.5	0.00e+00	0	41	0	1030750208	56	6789
2026-01-24 18:46:05.62	303.91	8.00	-42.2	-43.3	21.6	0.00e+00	0	41	0	1037041664	56	6653
2026-01-24 18:46:08.65	303.54	7.83	-42.1	-43.2	21.7	0.00e+00	0	40	0	1042284544	56	6564
2026-01-24 18:46:11.68	303.16	7.67	-41.8	-42.9	21.9	0.00e+00	0	40	0	1048576000	56	6333
2026-01-24 18:46:14.71	302.80	7.51	-42.5	-43.6	21.4	0.00e+00	0	41	0	1053818880	56	6892
2026-01-24 18:46:17.73	302.43	7.35	-42.5	-43.7	21.2	0.00e+00	0	41	0	1059061760	56	6932
2026-01-24 18:46:20.76	302.07	7.19	-42.8	-44.1	20.8	0.00e+00	0	41	0	1065353216	58	6487
2026-01-24 18:46:23.79	301.72	7.03	-42.5	-43.7	20.9	0.00e+00	0	41	0	1070596096	58	6209
2026-01-24 18:46:26.82	301.36	6.87	-42.7	-44.0	20.8	0.00e+00	0	41	0	1076887552	58	6402
2026-01-24 18:46:29.85	301.02	6.71	-42.5	-43.7	20.8	0.00e+00	0	41	0	1082130432	58	6184
2026-01-24 18:46:32.87	300.67	6.54	-43.0	-44.2	20.5	0.00e+00	0	41	0	1087373312	58	6614
2026-01-24 18:46:35.90	300.33	6.38	-42.4	-43.5	21.1	0.00e+00	0	41	0	1093664768	58	6095
2026-01-24 18:46:38.93	300.00	6.22	-42.6	-43.8	20.8	0.00e+00	0	41	0	1098907648	58	6278
2026-01-24 18:46:41.96	299.66	6.06	-42.4	-43.6	21.2	0.00e+00	0	41	0	1105199104	58	6109
2026-01-24 18:46:44.98	299.33	5.90	-42.4	-43.6	21.0	0.00e+00	0	41	0	1110441984	58	6151
2026-01-24 18:46:48.01	299.01	5.74	-41.4	-42.4	22.2	0.00e+00	0	41	0	1116733440	56	6031
2026-01-24 18:46:51.04	298.69	5.58	-43.1	-44.4	20.2	0.00e+00	0	41	0	1121976320	58	6734
2026-01-24 18:46:54.07	298.37	5.42	-43.9	-45.3	19.7	0.00e+00	0	41	0	1127219200	60	6688
2026-01-24 18:46:57.09	298.06	5.26	-43.6	-44.9	20.0	0.00e+00	0	41	0	1133510656	60	6371
2026-01-24 18:47:00.12	297.75	5.10	-42.2	-43.3	21.5	0.00e+00	0	41	0	1138753536	58	5916
2026-01-24 18:47:03.15	297.44	4.94	-42.9	-44.1	20.9	0.00e+00	0	41	0	1145044992	58	6487
2026-01-24 18:47:06.17	297.13	4.78	-41.9	-43.0	21.4	0.00e+00	0	41	0	1150287872	58	5712
2026-01-24 18:47:09.20	296.83	4.62	-43.1	-44.4	20.2	0.00e+00	0	41	0	1155530752	58	6747
2026-01-24 18:47:12.23	296.54	4.46	-42.9	-44.2	20.2	0.00e+00	0	41	0	1161822208	58	6591
2026-01-24 18:47:15.26	296.24	4.30	-43.3	-44.7	19.9	0.00e+00	0	41	0	1167065088	60	6222
2026-01-24 18:47:18.29	295.95	4.14	-45.0	-46.7	18.1	0.00e+00	0	41	0	1173356544	60	7840
2026-01-24 18:47:21.32	295.67	3.98	-44.4	-46.1	18.1	0.00e+00	0	41	0	1178599424	58	8166
2026-01-24 18:47:24.35	295.38	3.82	-44.5	-46.2	19.0	0.00e+00	0	41	0	1184890880	60	7370
2026-01-24 18:47:27.37	295.10	3.66	-43.2	-44.6	19.3	0.00e+00	0	41	0	1190133760	58	6864
2026-01-24 18:47:30.40	294.82	3.50	-44.1	-45.7	19.1	0.00e+00	0	41	0	1195376640	60	6959
2026-01-24 18:47:33.43	294.55	3.35	-44.0	-45.6	19.1	0.00e+00	0	41	0	1201668096	60	6872
2026-01-24 18:47:36.45	294.28	3.19	-46.2	-48.5	16.6	0.00e+00	0	41	0	1206910976	60	9620
2026-01-24 18:47:39.48	294.01	3.03	-44.5	-46.3	18.0	0.00e+00	0	41	0	1213202432	60	7457
2026-01-24 18:47:42.51	293.74	2.87	-51.4	-66.7	3.6	1.51e+00	0	41	104	1214251008	60	78128
2026-01-24 18:47:45.54	293.48	2.72	-51.7	-67.0	3.6	1.51e+00	0	41	104	1214251008	60	80761
2026-01-24 18:47:48.57	293.22	2.56	-51.8	-67.0	3.6	1.51e+00	0	41	104	1214251008	60	80726
2026-01-24 18:47:51.61	292.96	2.41	-51.8	-67.1	3.6	1.51e+00	0	41	104	1214251008	60	81742
2026-01-24 18:47:54.63	292.71	2.25	-51.9	-67.2	3.6	1.51e+00	0	41	104	1214251008	60	82436
2026-01-24 18:47:57.67	292.46	2.09	-52.0	-67.2	3.6	1.51e+00	0	41	104	1214251008	60	82530
2026-01-24 18:48:00.69	292.21	1.94	-51.8	-67.1	3.6	1.51e+00	0	41	104	1214251008	60	81570
2026-01-24 18:48:03.72	291.96	1.79	-52.0	-67.3	3.6	1.51e+00	0	41	104	1214251008	60	83459
2026-01-24 18:48:06.75	291.72	1.63	-51.9	-67.1	3.6	1.51e+00	0	41	104	1214251008	60	82142
2026-01-24 18:48:09.78	291.48	1.48	-52.2	-67.4	3.6	1.51e+00	0	41	104	1214251008	60	84798
2026-01-24 18:48:12.81	291.24	1.32	-52.4	-67.7	3.6	1.51e+00	0	41	104	1214251008	60	87751
2026-01-24 18:48:15.85	291.00	1.17	-52.6	-67.8	3.6	1.51e+00	0	41	104	1214251008	60	88321
2026-01-24 18:48:18.87	290.77	1.02	-52.0	-67.2	3.6	1.51e+00	0	41	104	1214251008	60	82780
2026-01-24 18:48:21.90	290.54	0.86	-51.9	-67.1	3.6	1.51e+00	0	41	104	1214251008	60	81836
2026-01-24 18:48:24.93	290.31	0.71	-51.8	-67.0	3.6	1.51e+00	0	41	104	1214251008	60	81011
2026-01-24 18:48:27.97	290.08	0.56	-52.4	-67.6	3.6	1.51e+00	0	41	104	1214251008	60	86872
2026-01-24 18:48:31.00	289.86	0.41	-52.5	-67.7	3.6	1.51e+00	0	41	104	1214251008	60	88011
2026-01-24 18:48:34.03	289.64	0.26	-51.9	-67.2	3.6	1.51e+00	0	41	104	1214251008	60	82488
2026-01-24 18:48:37.05	289.42	0.11	-52.0	-67.2	3.5	1.51e+00	0	41	104	1214251008	60	82842

#Closed at: 2026-01-24 18:48:39
#Recorded file [1214 MB]: D:/lorett/data/35029_260125_063553.dat