passes_logs/2026/01/24/R4.6S_Anadyr/R4.6S_Anadyr__20260124_201427_SUOMI_NPP_rec.log

#Pass ID: 20260124_201427_SUOMI NPP
#Satellite: SUOMI NPP
#Configuration: NPP
#almurnet v.1.7.20251203
#Start time: 2026-01-24 20:14:27

#Version: 2.2.20231116
#Station: R4.6S_Anadyr
#Location: 177.4865 lon 64.73178 lat
#TLE: 1 37849U 11061A   26024.12615439  .00000221  00000+0  12601-3 0  9992
#TLE: 2 37849  98.7821 326.0966 0002215  48.1259 312.0106 14.19529288738009

#Time	Az	El	Level	Level2	SNR	BER	BlckErr	Temp	State	Recorded	gain1	gain2
2026-01-24 20:14:27.76	65.11	0.03	-53.0	-64.7	3.5	8.46e-01	0	39	0	0	60	61747
2026-01-24 20:14:30.78	64.89	0.18	-53.2	-68.4	3.6	1.51e+00	0	40	104	0	60	94997
2026-01-24 20:14:33.81	64.66	0.33	-53.7	-68.9	3.6	1.51e+00	0	40	104	0	60	100953
2026-01-24 20:14:36.84	64.43	0.48	-53.3	-68.5	3.6	1.51e+00	0	40	104	0	60	96205
2026-01-24 20:14:39.88	64.20	0.63	-52.5	-67.6	3.6	1.51e+00	0	40	104	0	60	87206
2026-01-24 20:14:42.90	63.97	0.78	-51.9	-67.1	3.6	1.51e+00	0	40	104	0	60	81706
2026-01-24 20:14:45.94	63.73	0.93	-51.6	-66.8	3.6	1.51e+00	0	40	104	0	60	78787
2026-01-24 20:14:48.97	63.49	1.08	-51.4	-66.7	3.6	1.51e+00	0	40	104	0	60	78209
2026-01-24 20:14:51.99	63.25	1.23	-50.9	-66.0	3.6	1.51e+00	0	40	104	0	60	72410
2026-01-24 20:14:55.02	63.01	1.38	-50.2	-65.4	3.6	1.51e+00	0	40	104	0	60	67243
2026-01-24 20:14:58.05	62.76	1.53	-50.3	-65.4	3.6	1.51e+00	0	40	104	0	60	67187
2026-01-24 20:15:01.08	62.51	1.68	-50.2	-65.4	3.6	1.51e+00	0	41	104	0	60	67087
2026-01-24 20:15:04.11	62.26	1.84	-50.1	-65.2	3.6	1.51e+00	0	41	104	0	60	66065
2026-01-24 20:15:07.14	62.01	1.99	-50.1	-65.2	3.6	1.51e+00	0	41	104	0	60	65850
2026-01-24 20:15:10.17	61.75	2.14	-50.0	-64.9	3.6	1.51e+00	0	41	104	0	60	63438
2026-01-24 20:15:13.20	61.49	2.29	-50.0	-65.1	3.6	1.51e+00	0	41	104	0	60	65321
2026-01-24 20:15:16.23	61.23	2.45	-50.0	-65.1	3.6	1.51e+00	0	41	104	0	60	65232
2026-01-24 20:15:19.26	60.96	2.60	-50.1	-65.3	3.6	1.51e+00	0	41	104	0	60	66284
2026-01-24 20:15:22.29	60.70	2.75	-50.0	-64.4	3.6	1.51e+00	0	41	104	0	60	60043
2026-01-24 20:15:25.32	60.42	2.91	-49.6	-58.6	4.9	4.72e-01	92	41	0	0	60	30881
2026-01-24 20:15:28.35	60.15	3.06	-47.6	-51.4	11.8	0.00e+00	91	41	0	5242880	60	13453
2026-01-24 20:15:31.38	59.87	3.22	-49.9	-64.8	3.6	9.80e-01	0	41	104	6291456	60	62795
2026-01-24 20:15:34.40	59.59	3.37	-48.9	-54.9	9.9	1.14e-02	92	41	0	7340032	60	20182
2026-01-24 20:15:37.43	59.31	3.53	-48.7	-54.4	9.5	3.13e-04	91	41	0	12582912	60	18883
2026-01-24 20:15:40.46	59.02	3.68	-46.5	-49.3	14.4	7.00e-07	0	41	0	18874368	60	10493
2026-01-24 20:15:43.49	58.74	3.84	-47.9	-51.9	12.3	8.54e-05	0	41	0	24117248	60	14227
2026-01-24 20:15:46.52	58.44	3.99	-46.6	-49.3	15.0	4.11e-05	92	41	0	30408704	60	10591
2026-01-24 20:15:49.54	58.15	4.15	-46.5	-49.1	15.8	0.00e+00	1	41	0	35651584	60	10327
2026-01-24 20:15:52.57	57.85	4.30	-47.6	-51.0	14.2	1.11e-04	0	41	0	41943040	60	12782
2026-01-24 20:15:55.60	57.55	4.46	-46.9	-49.8	13.8	0.00e+00	92	41	0	47185920	60	11171
2026-01-24 20:15:58.63	57.24	4.62	-46.9	-49.7	14.8	0.00e+00	90	41	0	52428800	60	11098
2026-01-24 20:16:01.66	56.93	4.77	-46.1	-48.5	16.1	0.00e+00	0	41	0	58720256	60	9563
2026-01-24 20:16:04.68	56.62	4.93	-46.4	-49.0	15.5	0.00e+00	0	41	0	63963136	60	10152
2026-01-24 20:16:07.71	56.30	5.09	-45.3	-47.4	16.9	0.00e+00	43	41	0	70254592	60	8477
2026-01-24 20:16:10.74	55.98	5.24	-44.8	-46.7	17.9	0.00e+00	0	41	0	75497472	60	7807
2026-01-24 20:16:13.77	55.66	5.40	-44.3	-46.1	18.5	0.00e+00	0	41	0	80740352	60	7273
2026-01-24 20:16:16.79	55.34	5.55	-44.6	-46.4	18.2	0.00e+00	78	41	0	87031808	60	7550
2026-01-24 20:16:19.82	55.01	5.71	-44.8	-46.7	17.9	0.00e+00	51	41	0	92274688	60	7783
2026-01-24 20:16:22.85	54.67	5.87	-44.7	-46.6	18.0	0.00e+00	0	41	0	98566144	60	7684
2026-01-24 20:16:25.88	54.33	6.03	-44.3	-45.9	18.5	0.00e+00	79	41	0	103809024	60	7165
2026-01-24 20:16:28.91	53.99	6.18	-44.2	-45.8	18.6	0.00e+00	37	41	0	109051904	60	7048
2026-01-24 20:16:31.93	53.65	6.34	-44.4	-46.1	18.6	0.00e+00	0	41	0	115343360	60	7300
2026-01-24 20:16:34.96	53.30	6.50	-44.0	-45.6	19.0	0.00e+00	0	41	0	120586240	60	6879
2026-01-24 20:16:37.99	52.95	6.65	-44.5	-46.2	18.5	0.00e+00	71	41	0	126877696	60	7340
2026-01-24 20:16:41.02	52.59	6.81	-43.6	-45.1	19.6	0.00e+00	57	41	0	132120576	60	6480
2026-01-24 20:16:44.05	52.23	6.97	-43.9	-45.5	19.1	0.00e+00	0	41	0	138412032	60	6803
2026-01-24 20:16:47.07	51.87	7.12	-44.1	-45.7	19.1	0.00e+00	71	41	0	143654912	60	6970
2026-01-24 20:16:50.10	51.50	7.28	-44.5	-46.2	18.6	0.00e+00	92	41	0	148897792	60	7412
2026-01-24 20:16:53.13	51.13	7.43	-43.9	-45.4	19.3	0.00e+00	7	41	0	155189248	60	6727
2026-01-24 20:16:56.16	50.75	7.59	-43.6	-45.1	19.7	0.00e+00	92	41	0	160432128	60	6476
2026-01-24 20:16:59.18	50.37	7.75	-44.1	-45.7	19.1	0.00e+00	69	41	0	166723584	60	6957
2026-01-24 20:17:02.21	49.98	7.90	-44.0	-45.6	19.1	0.00e+00	0	41	0	171966464	60	6851
2026-01-24 20:17:05.24	49.59	8.06	-44.1	-45.7	19.0	0.00e+00	0	41	0	177209344	60	6977
2026-01-24 20:17:08.27	49.20	8.21	-43.7	-45.1	19.6	0.00e+00	72	41	0	183500800	60	6529
2026-01-24 20:17:11.30	48.80	8.37	-43.6	-45.0	19.8	0.00e+00	9	41	0	188743680	60	6454
2026-01-24 20:17:14.33	48.40	8.52	-43.4	-44.8	20.2	0.00e+00	0	41	0	195035136	60	6262
2026-01-24 20:17:17.36	47.99	8.67	-43.4	-44.8	19.9	0.00e+00	82	41	0	200278016	60	6298
2026-01-24 20:17:20.39	47.58	8.83	-43.8	-45.2	19.5	0.00e+00	92	41	0	206569472	60	6605
2026-01-24 20:17:23.42	47.17	8.98	-43.9	-45.4	19.5	0.00e+00	0	41	0	211812352	60	6736
2026-01-24 20:17:26.45	46.75	9.13	-44.2	-45.9	19.1	0.00e+00	0	41	0	217055232	60	7105
2026-01-24 20:17:29.48	46.32	9.28	-44.5	-46.2	18.8	0.00e+00	31	41	0	223346688	60	7380
2026-01-24 20:17:32.51	45.89	9.43	-44.1	-45.6	19.4	0.00e+00	0	41	0	228589568	60	6901
2026-01-24 20:17:35.53	45.46	9.58	-43.4	-44.8	19.9	0.00e+00	0	41	0	234881024	60	6299
2026-01-24 20:17:38.56	45.02	9.73	-43.5	-44.9	19.7	0.00e+00	77	41	0	240123904	60	6376
2026-01-24 20:17:41.59	44.58	9.88	-43.0	-44.3	20.6	0.00e+00	5	41	0	245366784	60	5918
2026-01-24 20:17:44.62	44.13	10.03	-42.9	-44.2	20.6	0.00e+00	0	41	0	251658240	58	6549
2026-01-24 20:17:47.65	43.68	10.18	-42.5	-43.7	21.0	0.00e+00	52	41	0	256901120	58	6194
2026-01-24 20:17:50.68	43.23	10.32	-42.5	-43.7	21.0	0.00e+00	41	41	0	263192576	58	6208
2026-01-24 20:17:53.71	42.77	10.47	-41.8	-42.9	21.8	0.00e+00	0	41	0	268435456	58	5646
2026-01-24 20:17:56.74	42.30	10.61	-41.9	-43.0	21.7	0.00e+00	0	41	0	274726912	56	6397
2026-01-24 20:17:59.77	41.83	10.76	-42.3	-43.5	21.3	0.00e+00	79	41	0	279969792	56	6847
2026-01-24 20:18:02.80	41.35	10.90	-42.4	-43.6	21.2	0.00e+00	8	41	0	285212672	56	6902
2026-01-24 20:18:05.82	40.88	11.04	-42.6	-43.8	21.2	0.00e+00	0	41	0	291504128	56	7051
2026-01-24 20:18:08.85	40.39	11.18	-41.7	-42.8	21.9	0.00e+00	92	41	0	296747008	56	6273
2026-01-24 20:18:11.88	39.90	11.32	-41.7	-42.8	22.0	0.00e+00	90	41	0	303038464	56	6286
2026-01-24 20:18:14.91	39.41	11.46	-41.4	-42.5	22.0	0.00e+00	0	41	0	308281344	56	6043
2026-01-24 20:18:17.94	38.91	11.59	-41.6	-42.6	22.1	0.00e+00	30	41	0	313524224	56	6166
2026-01-24 20:18:20.97	38.41	11.73	-41.9	-43.0	21.7	0.00e+00	36	41	0	319815680	56	6457
2026-01-24 20:18:23.99	37.90	11.86	-41.7	-42.8	21.9	0.00e+00	0	41	0	325058560	56	6256
2026-01-24 20:18:27.02	37.39	11.99	-40.9	-41.9	22.7	0.00e+00	0	41	0	331350016	56	5660
2026-01-24 20:18:30.05	36.87	12.12	-40.8	-41.8	22.8	0.00e+00	68	41	0	336592896	56	5595
2026-01-24 20:18:33.08	36.35	12.25	-40.8	-41.8	22.7	0.00e+00	6	41	0	342884352	56	5614
2026-01-24 20:18:36.11	35.82	12.38	-41.4	-42.5	22.2	0.00e+00	0	41	0	348127232	56	6076
2026-01-24 20:18:39.13	35.29	12.50	-41.9	-43.0	21.7	0.00e+00	92	41	0	353370112	56	6427
2026-01-24 20:18:42.16	34.76	12.63	-41.6	-42.6	22.1	0.00e+00	92	41	0	359661568	56	6164
2026-01-24 20:18:45.19	34.22	12.75	-41.8	-42.9	22.1	0.00e+00	0	41	0	364904448	56	6364
2026-01-24 20:18:48.22	33.67	12.87	-41.9	-43.0	21.8	0.00e+00	0	41	0	371195904	56	6424
2026-01-24 20:18:51.25	33.12	12.99	-42.3	-43.4	21.4	0.00e+00	76	41	0	376438784	56	6768
2026-01-24 20:18:54.28	32.57	13.10	-41.7	-42.8	21.9	0.00e+00	0	41	0	381681664	56	6312
2026-01-24 20:18:57.31	32.01	13.22	-41.3	-42.3	22.4	0.00e+00	0	41	0	387973120	56	5922
2026-01-24 20:19:00.33	31.45	13.33	-41.4	-42.4	22.2	0.00e+00	0	41	0	393216000	56	5998
2026-01-24 20:19:03.36	30.88	13.44	-41.3	-42.4	22.4	0.00e+00	9	41	0	399507456	56	5969
2026-01-24 20:19:06.39	30.31	13.54	-41.3	-42.4	22.3	0.00e+00	0	41	0	404750336	56	5994
2026-01-24 20:19:09.42	29.74	13.65	-41.1	-42.1	22.6	0.00e+00	0	41	0	411041792	56	5774
2026-01-24 20:19:12.45	29.16	13.75	-41.9	-43.0	21.7	0.00e+00	91	41	0	416284672	56	6429
2026-01-24 20:19:15.48	28.58	13.85	-41.7	-42.8	22.0	0.00e+00	0	41	0	421527552	56	6270
2026-01-24 20:19:18.50	27.99	13.94	-41.5	-42.6	22.2	0.00e+00	0	41	0	427819008	56	6136
2026-01-24 20:19:21.53	27.40	14.04	-40.4	-41.4	23.0	0.00e+00	91	41	0	433061888	54	5973
2026-01-24 20:19:24.56	26.81	14.13	-40.6	-41.5	23.0	0.00e+00	0	41	0	439353344	54	6053
2026-01-24 20:19:27.59	26.21	14.22	-40.9	-41.9	22.8	0.00e+00	0	41	0	444596224	54	6347
2026-01-24 20:19:30.62	25.61	14.30	-40.9	-41.9	22.7	0.00e+00	0	41	0	449839104	54	6364
2026-01-24 20:19:33.65	25.00	14.39	-40.7	-41.6	23.1	0.00e+00	82	41	0	456130560	54	6151
2026-01-24 20:19:36.68	24.40	14.47	-40.6	-41.6	22.9	0.00e+00	0	41	0	461373440	54	6113
2026-01-24 20:19:39.71	23.78	14.54	-41.5	-42.5	22.2	0.00e+00	0	41	0	467664896	54	6842
2026-01-24 20:19:42.74	23.17	14.62	-41.2	-42.2	22.4	0.00e+00	22	41	0	472907776	56	5890
2026-01-24 20:19:45.77	22.55	14.69	-41.6	-42.6	22.1	0.00e+00	0	41	0	478150656	56	6163
2026-01-24 20:19:48.79	21.93	14.76	-41.7	-42.8	21.9	0.00e+00	2	41	0	484442112	56	6297
2026-01-24 20:19:51.82	21.31	14.82	-41.5	-42.6	22.1	0.00e+00	92	41	0	489684992	56	6118
2026-01-24 20:19:54.85	20.68	14.88	-41.7	-42.8	22.0	0.00e+00	0	41	0	495976448	56	6263
2026-01-24 20:19:57.88	20.05	14.94	-41.4	-42.4	22.4	0.00e+00	0	41	0	501219328	56	6024
2026-01-24 20:20:00.91	19.42	15.00	-41.0	-42.0	22.7	0.00e+00	0	41	0	507510784	56	5711
2026-01-24 20:20:03.93	18.79	15.05	-40.8	-41.7	22.8	0.00e+00	9	41	0	512753664	54	6244
2026-01-24 20:20:06.97	18.15	15.09	-41.5	-42.6	22.1	0.00e+00	0	41	0	517996544	54	6852
2026-01-24 20:20:09.99	17.52	15.14	-41.4	-42.4	22.4	0.00e+00	0	41	0	524288000	56	6008
2026-01-24 20:20:13.02	16.88	15.18	-41.5	-42.5	22.1	0.00e+00	77	41	0	529530880	56	6067
2026-01-24 20:20:16.05	16.24	15.22	-41.7	-42.8	22.0	0.00e+00	0	41	0	535822336	56	6293
2026-01-24 20:20:19.08	15.60	15.25	-41.8	-42.9	22.0	0.00e+00	0	41	0	541065216	56	6327
2026-01-24 20:20:22.10	14.96	15.28	-41.6	-42.6	22.1	0.00e+00	91	41	0	546308096	56	6166
2026-01-24 20:20:25.13	14.31	15.31	-41.3	-42.4	22.3	0.00e+00	26	41	0	552599552	56	5980
2026-01-24 20:20:28.16	13.66	15.33	-41.3	-42.4	22.3	0.00e+00	24	41	0	557842432	56	5988
2026-01-24 20:20:31.19	13.02	15.35	-41.6	-42.6	22.3	0.00e+00	0	41	0	564133888	56	6151
2026-01-24 20:20:34.22	12.37	15.36	-41.2	-42.2	22.5	0.00e+00	92	41	0	569376768	56	5843
2026-01-24 20:20:37.25	11.72	15.38	-41.5	-42.5	22.5	0.00e+00	0	41	0	575668224	56	6068
2026-01-24 20:20:40.27	11.07	15.38	-42.3	-43.4	21.8	0.00e+00	0	41	0	580911104	56	6716
2026-01-24 20:20:43.30	10.43	15.39	-41.7	-42.8	22.0	0.00e+00	46	41	0	586153984	56	6277
2026-01-24 20:20:46.33	9.78	15.39	-41.2	-42.1	22.7	0.00e+00	0	41	0	592445440	56	5820
2026-01-24 20:20:49.36	9.13	15.39	-41.5	-42.6	22.6	0.00e+00	0	41	0	597688320	56	6116
2026-01-24 20:20:52.39	8.48	15.38	-41.8	-42.8	22.3	0.00e+00	77	41	0	603979776	56	6285
2026-01-24 20:20:55.42	7.83	15.37	-42.6	-43.8	21.6	0.00e+00	3	41	0	609222656	56	7024
2026-01-24 20:20:58.44	7.18	15.36	-42.1	-43.2	21.8	0.00e+00	0	41	0	614465536	56	6604
2026-01-24 20:21:01.47	6.54	15.34	-42.5	-43.6	21.4	0.00e+00	0	41	0	620756992	56	6915
2026-01-24 20:21:04.50	5.89	15.32	-42.3	-43.4	21.6	0.00e+00	2	41	0	625999872	58	6033
2026-01-24 20:21:07.53	5.25	15.29	-42.5	-43.7	21.5	0.00e+00	0	41	0	632291328	58	6210
2026-01-24 20:21:10.56	4.60	15.26	-42.1	-43.2	21.7	0.00e+00	0	41	0	637534208	58	5840
2026-01-24 20:21:13.59	3.96	15.23	-41.8	-42.9	22.2	0.00e+00	91	41	0	643825664	56	6326
2026-01-24 20:21:16.61	3.32	15.19	-42.1	-43.2	22.0	0.00e+00	0	41	0	649068544	56	6555
2026-01-24 20:21:19.64	2.68	15.16	-41.2	-42.3	22.5	0.00e+00	0	41	0	654311424	56	5903
2026-01-24 20:21:22.67	2.04	15.11	-40.9	-41.8	23.0	0.00e+00	0	41	0	660602880	56	5610
2026-01-24 20:21:25.70	1.41	15.07	-41.4	-42.5	22.4	0.00e+00	8	41	0	665845760	56	6048
2026-01-24 20:21:28.73	0.77	15.02	-41.2	-42.2	22.7	0.00e+00	0	41	0	672137216	56	5895
2026-01-24 20:21:31.75	0.14	14.96	-41.6	-42.6	22.4	0.00e+00	0	41	0	677380096	56	6152
2026-01-24 20:21:34.78	359.51	14.91	-41.8	-42.9	22.1	0.00e+00	92	41	0	682622976	56	6336
2026-01-24 20:21:37.81	358.89	14.85	-41.9	-43.0	22.0	0.00e+00	0	41	0	688914432	56	6447
2026-01-24 20:21:40.84	358.26	14.78	-42.1	-43.3	21.8	0.00e+00	0	41	0	694157312	56	6628
2026-01-24 20:21:43.86	357.64	14.72	-41.3	-42.3	22.5	0.00e+00	92	41	0	700448768	56	5955
2026-01-24 20:21:46.89	357.02	14.65	-41.3	-42.3	22.5	0.00e+00	0	41	0	705691648	56	5950
2026-01-24 20:21:49.92	356.41	14.58	-41.3	-42.3	22.9	0.00e+00	0	41	0	711983104	54	6639
2026-01-24 20:21:52.95	355.80	14.50	-41.3	-42.3	22.7	0.00e+00	0	41	0	717225984	54	6622
2026-01-24 20:21:55.98	355.19	14.42	-41.1	-42.2	22.6	0.00e+00	56	41	0	722468864	54	6552
2026-01-24 20:21:59.01	354.58	14.34	-41.8	-42.9	22.1	0.00e+00	0	41	0	728760320	54	7119
2026-01-24 20:22:02.03	353.98	14.25	-41.3	-42.3	22.4	0.00e+00	0	41	0	734003200	56	5955
2026-01-24 20:22:05.06	353.38	14.17	-42.5	-43.6	21.7	0.00e+00	0	41	0	740294656	56	6915
2026-01-24 20:22:08.09	352.79	14.08	-42.0	-43.1	21.9	0.00e+00	8	41	0	745537536	56	6483
2026-01-24 20:22:11.11	352.20	13.98	-42.1	-43.2	21.8	0.00e+00	0	41	0	750780416	56	6573
2026-01-24 20:22:14.14	351.61	13.89	-41.6	-42.7	22.3	0.00e+00	92	41	0	757071872	56	6187
2026-01-24 20:22:17.17	351.03	13.79	-41.2	-42.2	22.6	0.00e+00	0	41	0	762314752	56	5876
2026-01-24 20:22:20.20	350.45	13.69	-41.8	-42.9	22.2	0.00e+00	0	41	0	768606208	56	6368
2026-01-24 20:22:23.23	349.87	13.59	-41.9	-43.0	22.0	0.00e+00	0	41	0	773849088	56	6406
2026-01-24 20:22:26.25	349.30	13.48	-40.9	-41.8	22.8	0.00e+00	10	41	0	779091968	56	5619
2026-01-24 20:22:29.28	348.73	13.37	-40.9	-41.9	22.6	0.00e+00	0	41	0	785383424	56	5674
2026-01-24 20:22:32.31	348.17	13.26	-41.7	-42.7	22.2	0.00e+00	0	41	0	790626304	56	6245
2026-01-24 20:22:35.33	347.61	13.15	-42.2	-43.4	21.8	0.00e+00	35	41	0	796917760	56	6712
2026-01-24 20:22:38.36	347.06	13.04	-42.9	-44.2	21.2	0.00e+00	0	41	0	802160640	56	7361
2026-01-24 20:22:41.38	346.51	12.92	-42.5	-43.7	21.3	0.00e+00	0	41	0	808452096	58	6231
2026-01-24 20:22:44.42	345.96	12.80	-42.1	-43.3	21.7	0.00e+00	91	41	0	813694976	58	5952
2026-01-24 20:22:47.44	345.42	12.68	-42.0	-43.2	21.6	0.00e+00	0	41	0	818937856	58	5880
2026-01-24 20:22:50.47	344.88	12.56	-42.6	-43.8	21.3	0.00e+00	0	41	0	825229312	58	6302
2026-01-24 20:22:53.50	344.35	12.43	-42.2	-43.4	21.6	0.00e+00	0	41	0	830472192	58	6023
2026-01-24 20:22:56.52	343.83	12.31	-42.2	-43.4	21.6	0.00e+00	86	41	0	836763648	58	6012
2026-01-24 20:22:59.55	343.30	12.18	-42.7	-43.9	21.1	0.00e+00	0	41	0	842006528	58	6390
2026-01-24 20:23:02.57	342.79	12.05	-42.3	-43.5	21.6	0.00e+00	0	41	0	847249408	58	6063
2026-01-24 20:23:05.60	342.27	11.92	-41.6	-42.7	22.2	0.00e+00	81	41	0	853540864	56	6207
2026-01-24 20:23:08.63	341.76	11.79	-42.5	-43.7	21.7	0.00e+00	0	41	0	858783744	56	6941
2026-01-24 20:23:11.66	341.26	11.65	-43.1	-44.4	21.1	0.00e+00	0	41	0	865075200	58	6693
2026-01-24 20:23:14.69	340.76	11.52	-44.0	-45.5	20.0	0.00e+00	55	41	0	870318080	60	6804
2026-01-24 20:23:17.71	340.27	11.38	-44.0	-45.4	20.0	0.00e+00	0	41	0	875560960	60	6743
2026-01-24 20:23:20.74	339.78	11.24	-43.9	-45.3	20.4	0.00e+00	0	41	0	881852416	60	6661
2026-01-24 20:23:23.77	339.29	11.10	-44.8	-46.4	19.3	0.00e+00	0	41	0	887095296	60	7592
2026-01-24 20:23:26.80	338.81	10.96	-45.8	-47.8	18.1	0.00e+00	87	41	0	893386752	60	8859
2026-01-24 20:23:29.82	338.33	10.82	-45.6	-47.5	18.3	0.00e+00	0	41	0	898629632	60	8608
2026-01-24 20:23:32.85	337.86	10.68	-45.6	-47.3	18.7	0.00e+00	0	41	0	904921088	60	8396
2026-01-24 20:23:35.88	337.40	10.53	-44.7	-46.3	19.1	0.00e+00	92	41	0	910163968	60	7429
2026-01-24 20:23:38.91	336.93	10.39	-44.1	-45.6	19.4	0.00e+00	0	41	0	915406848	60	6912
2026-01-24 20:23:41.94	336.48	10.24	-43.9	-45.2	20.2	0.00e+00	0	41	0	921698304	60	6604
2026-01-24 20:23:44.97	336.02	10.10	-43.8	-45.2	20.0	0.00e+00	0	41	0	926941184	60	6543
2026-01-24 20:23:47.99	335.58	9.95	-43.7	-45.1	20.0	0.00e+00	0	41	0	933232640	60	6474
2026-01-24 20:23:51.02	335.13	9.80	-43.2	-44.4	20.7	0.00e+00	0	41	0	938475520	60	6003
2026-01-24 20:23:54.05	334.69	9.65	-42.8	-44.0	21.1	0.00e+00	0	41	0	943718400	58	6439
2026-01-24 20:23:57.08	334.26	9.50	-43.1	-44.3	20.8	0.00e+00	73	41	0	950009856	58	6669
2026-01-24 20:24:00.11	333.83	9.35	-43.2	-44.5	20.8	0.00e+00	0	41	0	955252736	58	6786
2026-01-24 20:24:03.14	333.40	9.20	-43.9	-45.2	20.3	0.00e+00	0	41	0	961544192	60	6610
2026-01-24 20:24:06.17	332.98	9.05	-43.5	-44.8	20.4	0.00e+00	90	41	0	966787072	60	6309
2026-01-24 20:24:09.20	332.57	8.90	-44.7	-46.2	19.3	0.00e+00	0	41	0	973078528	60	7366
2026-01-24 20:24:12.23	332.15	8.74	-44.4	-45.9	19.5	0.00e+00	0	41	0	978321408	60	7130
2026-01-24 20:24:15.26	331.75	8.59	-44.1	-45.5	20.0	0.00e+00	92	41	0	983564288	60	6773
2026-01-24 20:24:18.29	331.34	8.44	-43.6	-44.9	20.8	0.00e+00	0	41	0	989855744	60	6348
2026-01-24 20:24:21.32	330.94	8.28	-43.2	-44.5	20.9	0.00e+00	0	41	0	995098624	60	6054
2026-01-24 20:24:24.35	330.55	8.13	-42.8	-44.0	21.4	0.00e+00	0	41	0	1001390080	60	5715
2026-01-24 20:24:27.38	330.16	7.97	-43.0	-44.2	21.0	0.00e+00	90	41	0	1006632960	58	6592
2026-01-24 20:24:30.40	329.77	7.82	-43.0	-44.1	21.4	0.00e+00	0	41	0	1011875840	58	6536
2026-01-24 20:24:33.43	329.39	7.66	-42.3	-43.4	21.6	0.00e+00	0	41	0	1018167296	58	6009
2026-01-24 20:24:36.46	329.01	7.51	-42.2	-43.3	21.4	0.00e+00	92	41	0	1023410176	58	5919
2026-01-24 20:24:39.49	328.64	7.35	-42.4	-43.5	21.7	0.00e+00	0	41	0	1029701632	56	6794
2026-01-24 20:24:42.52	328.27	7.20	-43.0	-44.2	20.8	0.00e+00	0	41	0	1034944512	58	6578
2026-01-24 20:24:45.54	327.91	7.04	-42.9	-44.1	20.7	0.00e+00	0	41	0	1041235968	58	6506
2026-01-24 20:24:48.57	327.54	6.88	-42.8	-44.0	20.8	0.00e+00	65	41	0	1046478848	58	6463
2026-01-24 20:24:51.61	327.19	6.73	-42.9	-44.1	20.6	0.00e+00	0	41	0	1051721728	58	6511
2026-01-24 20:24:54.64	326.83	6.57	-43.0	-44.3	20.4	0.00e+00	0	41	0	1058013184	58	6671
2026-01-24 20:24:57.67	326.48	6.41	-42.5	-43.8	20.9	0.00e+00	92	41	0	1063256064	58	6255
2026-01-24 20:25:00.69	326.14	6.26	-42.4	-43.6	21.0	0.00e+00	0	41	0	1069547520	58	6127
2026-01-24 20:25:03.72	325.80	6.10	-42.8	-44.0	20.8	0.00e+00	0	41	0	1074790400	58	6401
2026-01-24 20:25:06.75	325.46	5.94	-43.5	-44.8	20.3	0.00e+00	74	41	0	1080033280	58	7036
2026-01-24 20:25:09.78	325.12	5.79	-42.0	-43.1	21.9	0.00e+00	4	41	0	1086324736	58	5789
2026-01-24 20:25:12.81	324.79	5.63	-44.4	-45.9	19.6	0.00e+00	0	41	0	1091567616	60	7112
2026-01-24 20:25:15.83	324.46	5.47	-43.9	-45.3	20.1	0.00e+00	0	41	0	1097859072	60	6637
2026-01-24 20:25:18.86	324.14	5.32	-43.7	-45.0	20.3	0.00e+00	78	41	0	1103101952	60	6445
2026-01-24 20:25:21.89	323.82	5.16	-45.1	-46.8	18.2	0.00e+00	0	41	0	1109393408	60	7906
2026-01-24 20:25:24.92	323.50	5.00	-42.9	-44.1	20.9	0.00e+00	0	41	0	1114636288	60	5826
2026-01-24 20:25:27.95	323.19	4.85	-43.1	-44.4	20.3	0.00e+00	93	41	0	1119879168	60	6007
2026-01-24 20:25:30.98	322.88	4.69	-43.3	-44.6	20.5	0.00e+00	0	41	0	1126170624	60	6145
2026-01-24 20:25:34.01	322.58	4.54	-42.1	-43.2	21.4	0.00e+00	0	41	0	1131413504	58	5885
2026-01-24 20:25:37.04	322.27	4.38	-43.7	-45.1	19.8	0.00e+00	63	41	0	1137704960	60	6522
2026-01-24 20:25:40.07	321.97	4.22	-43.7	-45.0	19.8	0.00e+00	0	41	0	1142947840	60	6432
2026-01-24 20:25:43.09	321.68	4.07	-44.5	-46.0	18.8	0.00e+00	0	41	0	1148190720	60	7239
2026-01-24 20:25:46.12	321.38	3.91	-45.1	-46.7	18.4	0.00e+00	2	41	0	1154482176	60	7833
2026-01-24 20:25:49.14	321.09	3.76	-44.9	-46.6	18.2	0.00e+00	92	41	0	1159725056	60	7752
2026-01-24 20:25:52.16	320.81	3.60	-45.9	-48.0	17.4	0.00e+00	5	41	0	1166016512	60	9038
2026-01-24 20:25:55.19	320.53	3.45	-46.5	-48.8	15.7	0.00e+00	0	41	0	1171259392	60	9991
2026-01-24 20:25:58.21	320.25	3.30	-45.1	-46.9	17.8	0.00e+00	83	41	0	1176502272	60	7971
2026-01-24 20:26:01.24	319.97	3.14	-46.9	-49.6	15.1	0.00e+00	0	41	0	1182793728	60	10948
2026-01-24 20:26:04.27	319.69	2.99	-46.2	-48.3	16.7	0.00e+00	0	41	0	1188036608	60	9382
2026-01-24 20:26:07.31	319.42	2.83	-51.8	-66.9	3.6	1.51e+00	0	41	104	1189085184	60	79712
2026-01-24 20:26:10.34	319.15	2.68	-52.5	-67.6	3.6	1.51e+00	0	41	104	1189085184	60	86980
2026-01-24 20:26:13.37	318.89	2.53	-52.1	-67.3	3.6	1.51e+00	0	41	104	1189085184	60	83468
2026-01-24 20:26:16.39	318.62	2.37	-52.2	-67.4	3.6	1.51e+00	0	41	104	1189085184	60	84250
2026-01-24 20:26:19.42	318.36	2.22	-51.9	-67.1	3.6	1.51e+00	0	41	104	1189085184	60	81746
2026-01-24 20:26:22.46	318.11	2.07	-51.9	-67.1	3.6	1.51e+00	0	41	104	1189085184	60	82301
2026-01-24 20:26:25.48	317.85	1.91	-52.3	-67.5	3.6	1.51e+00	0	41	104	1189085184	60	86068
2026-01-24 20:26:28.51	317.60	1.76	-52.7	-67.9	3.6	1.51e+00	0	41	104	1189085184	60	89249
2026-01-24 20:26:31.54	317.35	1.61	-52.5	-67.7	3.6	1.51e+00	0	41	104	1189085184	60	87226
2026-01-24 20:26:34.57	317.11	1.46	-52.5	-67.7	3.6	1.51e+00	0	41	104	1189085184	60	87296
2026-01-24 20:26:37.60	316.86	1.31	-52.6	-67.7	3.6	1.51e+00	0	41	104	1189085184	60	87633
2026-01-24 20:26:40.62	316.62	1.16	-52.8	-68.0	3.6	1.51e+00	0	41	104	1189085184	60	90507
2026-01-24 20:26:43.66	316.38	1.01	-53.0	-68.1	3.6	1.51e+00	0	41	104	1189085184	60	92338
2026-01-24 20:26:46.69	316.15	0.86	-52.5	-67.6	3.5	1.51e+00	0	42	104	1189085184	60	87006
2026-01-24 20:26:49.72	315.91	0.71	-52.8	-67.9	3.6	1.51e+00	0	42	104	1189085184	60	89554
2026-01-24 20:26:52.75	315.68	0.56	-53.1	-68.2	3.6	1.51e+00	0	42	104	1189085184	60	93418
2026-01-24 20:26:55.78	315.45	0.41	-53.0	-68.2	3.6	1.51e+00	0	42	104	1189085184	60	92858
2026-01-24 20:26:58.81	315.22	0.26	-53.2	-68.3	3.6	1.51e+00	0	42	104	1189085184	60	94379
2026-01-24 20:27:01.84	315.00	0.11	-53.2	-68.4	3.6	1.51e+00	0	42	104	1189085184	60	94553

#Closed at: 2026-01-24 20:27:04
#Recorded file [1189 MB]: D:/lorett/data/35029_260125_081427.dat