passes_logs/2026/01/24/R4.6S_Anadyr/R4.6S_Anadyr__20260124_203428_NOAA_20_JPSS-1_rec.log

#Pass ID: 20260124_203428_NOAA 20 (JPSS-1)
#Satellite: NOAA 20 (JPSS-1)
#Configuration: NOAA 20
#almurnet v.1.7.20251203
#Start time: 2026-01-24 20:34:28

#Version: 2.2.20231116
#Station: R4.6S_Anadyr
#Location: 177.4865 lon 64.73178 lat
#TLE: 1 43013U 17073A   26024.14064826  .00000217  00000+0  12382-3 0  9992
#TLE: 2 43013  98.7646 324.9839 0001118  26.6217 333.5016 14.19539758424032

#Time	Az	El	Level	Level2	SNR	BER	BlckErr	Temp	State	Recorded	gain1	gain2
2026-01-24 20:34:28.56	72.67	0.03	-52.8	-67.7	3.5	1.51e+00	0	39	0	0	60	87811
2026-01-24 20:34:32.60	72.38	0.23	-52.4	-67.7	3.6	1.51e+00	0	40	104	0	60	87471
2026-01-24 20:34:36.64	72.09	0.43	-52.1	-67.3	3.6	1.51e+00	0	40	104	0	60	83293
2026-01-24 20:34:40.68	71.79	0.64	-52.2	-67.4	3.6	1.51e+00	0	40	104	0	60	84614
2026-01-24 20:34:44.72	71.49	0.84	-51.7	-66.9	3.6	1.51e+00	0	40	104	0	60	79701
2026-01-24 20:34:48.77	71.19	1.05	-51.4	-66.6	3.6	1.51e+00	0	40	104	0	60	77145
2026-01-24 20:34:52.81	70.88	1.25	-50.8	-66.0	3.6	1.51e+00	0	40	104	0	60	71826
2026-01-24 20:34:56.85	70.57	1.46	-49.9	-65.2	3.6	1.51e+00	0	40	104	0	60	65528
2026-01-24 20:35:00.86	70.25	1.66	-49.9	-65.0	3.6	1.51e+00	0	40	104	0	60	64426
2026-01-24 20:35:04.90	69.93	1.87	-50.0	-65.2	3.6	1.51e+00	0	40	104	0	60	65953
2026-01-24 20:35:08.94	69.60	2.08	-49.9	-65.1	3.6	1.51e+00	0	40	104	0	60	64724
2026-01-24 20:35:12.98	69.27	2.29	-49.9	-65.0	3.6	1.51e+00	0	40	104	0	60	64578
2026-01-24 20:35:17.02	68.93	2.50	-49.9	-65.1	3.6	1.51e+00	0	40	104	0	60	65258
2026-01-24 20:35:21.06	68.59	2.71	-49.8	-64.0	3.6	1.51e+00	0	40	104	0	60	57585
2026-01-24 20:35:25.10	68.24	2.92	-49.5	-58.4	5.5	4.23e-01	91	40	0	1048576	60	30226
2026-01-24 20:35:29.14	67.89	3.13	-49.3	-56.0	9.0	1.39e-02	91	40	0	7340032	60	22882
2026-01-24 20:35:33.18	67.53	3.34	-46.8	-49.8	14.6	3.00e-06	0	40	0	9437184	60	11214
2026-01-24 20:35:37.22	67.17	3.55	-47.4	-51.0	13.4	7.62e-05	92	41	0	16777216	60	12784
2026-01-24 20:35:41.25	66.80	3.76	-44.7	-46.5	17.7	0.00e+00	92	40	0	24117248	60	7681
2026-01-24 20:35:45.29	66.43	3.98	-47.1	-50.1	14.3	0.00e+00	92	40	0	31457280	60	11558
2026-01-24 20:35:49.33	66.05	4.19	-46.2	-48.7	15.7	0.00e+00	19	40	0	39845888	60	9827
2026-01-24 20:35:53.37	65.66	4.41	-46.1	-48.5	16.4	0.00e+00	92	40	0	47185920	60	9628
2026-01-24 20:35:57.41	65.27	4.62	-44.7	-46.5	18.2	0.00e+00	91	40	0	54525952	60	7606
2026-01-24 20:36:01.44	64.87	4.84	-45.4	-47.5	17.1	0.00e+00	0	40	0	61865984	60	8554
2026-01-24 20:36:05.48	64.47	5.05	-45.1	-46.9	17.6	0.00e+00	0	41	0	70254592	60	8036
2026-01-24 20:36:09.52	64.06	5.27	-44.7	-46.5	18.2	0.00e+00	92	41	0	77594624	60	7673
2026-01-24 20:36:13.56	63.65	5.48	-45.4	-47.4	17.5	0.00e+00	92	40	0	84934656	60	8456
2026-01-24 20:36:17.60	63.22	5.70	-46.1	-48.5	16.3	0.00e+00	13	40	0	92274688	60	9568
2026-01-24 20:36:21.64	62.79	5.92	-45.1	-46.9	17.9	0.00e+00	90	41	0	99614720	60	8042
2026-01-24 20:36:25.68	62.36	6.13	-44.8	-46.6	18.1	0.00e+00	92	40	0	108003328	60	7700
2026-01-24 20:36:29.72	61.92	6.35	-43.7	-45.2	19.7	0.00e+00	91	41	0	115343360	60	6544
2026-01-24 20:36:33.75	61.47	6.57	-43.8	-45.3	19.2	0.00e+00	29	41	0	122683392	60	6644
2026-01-24 20:36:37.77	61.02	6.79	-44.5	-46.1	18.8	0.00e+00	90	41	0	130023424	60	7314
2026-01-24 20:36:41.81	60.55	7.00	-43.6	-45.0	19.9	0.00e+00	90	41	0	137363456	60	6401
2026-01-24 20:36:45.85	60.08	7.22	-44.0	-45.5	19.3	0.00e+00	92	41	0	145752064	60	6805
2026-01-24 20:36:49.89	59.61	7.44	-43.8	-45.3	19.7	0.00e+00	35	41	0	153092096	60	6642
2026-01-24 20:36:53.92	59.12	7.66	-43.7	-45.1	19.7	0.00e+00	92	41	0	160432128	60	6519
2026-01-24 20:36:57.97	58.63	7.88	-43.7	-45.1	19.9	0.00e+00	92	41	0	167772160	60	6509
2026-01-24 20:37:02.00	58.13	8.09	-43.6	-45.1	19.9	0.00e+00	92	41	0	176160768	60	6477
2026-01-24 20:37:06.04	57.62	8.31	-43.6	-45.0	20.0	0.00e+00	0	41	0	183500800	60	6410
2026-01-24 20:37:10.08	57.11	8.53	-43.6	-45.0	20.0	0.00e+00	90	41	0	190840832	60	6417
2026-01-24 20:37:14.12	56.59	8.74	-44.1	-45.6	19.4	0.00e+00	92	41	0	198180864	60	6884
2026-01-24 20:37:18.15	56.06	8.96	-44.0	-45.5	19.4	0.00e+00	43	41	0	205520896	60	6805
2026-01-24 20:37:22.19	55.52	9.18	-44.1	-45.6	19.6	0.00e+00	0	41	0	213909504	60	6864
2026-01-24 20:37:26.23	54.97	9.39	-44.4	-45.9	19.1	0.00e+00	92	41	0	221249536	60	7160
2026-01-24 20:37:30.27	54.41	9.61	-44.1	-45.7	19.5	0.00e+00	92	41	0	228589568	60	6930
2026-01-24 20:37:34.31	53.85	9.82	-44.0	-45.4	19.7	0.00e+00	0	41	0	235929600	60	6755
2026-01-24 20:37:38.34	53.28	10.03	-43.5	-44.8	20.3	0.00e+00	0	41	0	244318208	60	6310
2026-01-24 20:37:42.37	52.70	10.24	-43.4	-44.7	20.3	0.00e+00	91	41	0	251658240	60	6244
2026-01-24 20:37:46.41	52.11	10.45	-43.5	-44.9	20.2	0.00e+00	91	41	0	258998272	60	6352
2026-01-24 20:37:50.45	51.51	10.66	-43.8	-45.3	19.8	0.00e+00	0	41	0	266338304	60	6629
2026-01-24 20:37:54.49	50.91	10.87	-43.2	-44.5	20.5	0.00e+00	5	41	0	273678336	60	6056
2026-01-24 20:37:58.52	50.29	11.08	-43.0	-44.2	20.8	0.00e+00	90	41	0	282066944	60	5872
2026-01-24 20:38:02.56	49.67	11.28	-42.7	-43.9	21.2	0.00e+00	48	41	0	289406976	58	6348
2026-01-24 20:38:06.60	49.03	11.49	-42.4	-43.6	21.5	0.00e+00	51	41	0	296747008	58	6135
2026-01-24 20:38:10.64	48.39	11.69	-42.0	-43.1	21.9	0.00e+00	90	41	0	304087040	58	5783
2026-01-24 20:38:14.68	47.74	11.89	-41.8	-42.9	22.0	0.00e+00	92	41	0	312475648	58	5653
2026-01-24 20:38:18.71	47.08	12.08	-42.1	-43.2	21.9	0.00e+00	36	41	0	319815680	58	5855
2026-01-24 20:38:22.75	46.41	12.28	-41.9	-42.9	22.0	0.00e+00	37	41	0	327155712	56	6384
2026-01-24 20:38:26.79	45.74	12.47	-41.6	-42.6	22.5	0.00e+00	91	41	0	334495744	56	6137
2026-01-24 20:38:30.82	45.05	12.66	-41.4	-42.4	22.6	0.00e+00	91	41	0	341835776	56	5994
2026-01-24 20:38:34.86	44.35	12.85	-41.3	-42.3	22.8	0.00e+00	0	41	0	350224384	56	5910
2026-01-24 20:38:38.90	43.65	13.04	-41.1	-42.0	22.9	0.00e+00	37	41	0	357564416	56	5756
2026-01-24 20:38:42.93	42.94	13.22	-41.3	-42.3	22.6	0.00e+00	92	41	0	364904448	56	5932
2026-01-24 20:38:46.97	42.21	13.40	-41.0	-42.0	22.9	0.00e+00	92	41	0	372244480	56	5734
2026-01-24 20:38:51.02	41.48	13.57	-41.6	-42.6	22.4	0.00e+00	0	41	0	380633088	56	6123
2026-01-24 20:38:55.06	40.74	13.75	-41.2	-42.2	22.9	0.00e+00	2	41	0	387973120	56	5866
2026-01-24 20:38:59.09	39.99	13.91	-41.6	-42.6	22.5	0.00e+00	92	41	0	395313152	56	6128
2026-01-24 20:39:03.13	39.23	14.08	-41.4	-42.3	22.7	0.00e+00	92	41	0	402653184	56	5962
2026-01-24 20:39:07.17	38.47	14.24	-41.7	-42.7	22.0	0.00e+00	0	41	0	409993216	56	6211
2026-01-24 20:39:11.20	37.70	14.40	-41.3	-42.3	22.8	0.00e+00	2	41	0	418381824	56	5920
2026-01-24 20:39:15.24	36.91	14.55	-41.1	-42.1	23.1	0.00e+00	92	41	0	425721856	56	5770
2026-01-24 20:39:19.27	36.12	14.70	-41.2	-42.2	23.0	0.00e+00	92	41	0	433061888	56	5842
2026-01-24 20:39:23.31	35.33	14.84	-40.9	-41.9	23.2	0.00e+00	0	41	0	440401920	56	5637
2026-01-24 20:39:27.34	34.52	14.98	-40.7	-41.7	23.4	0.00e+00	31	41	0	448790528	56	5506
2026-01-24 20:39:31.38	33.71	15.11	-40.9	-41.8	23.3	0.00e+00	92	41	0	456130560	54	6287
2026-01-24 20:39:35.41	32.89	15.24	-40.7	-41.6	23.4	0.00e+00	92	41	0	463470592	54	6159
2026-01-24 20:39:39.45	32.06	15.36	-41.0	-41.9	23.2	0.00e+00	4	41	0	470810624	54	6384
2026-01-24 20:39:43.49	31.23	15.48	-41.0	-42.0	23.0	0.00e+00	2	41	0	478150656	54	6392
2026-01-24 20:39:47.52	30.39	15.59	-40.9	-41.9	23.2	0.00e+00	34	41	0	486539264	54	6333
2026-01-24 20:39:51.56	29.54	15.70	-41.1	-42.0	23.1	0.00e+00	37	41	0	493879296	54	6459
2026-01-24 20:39:55.60	28.69	15.80	-41.4	-42.4	22.7	0.00e+00	7	41	0	501219328	54	6697
2026-01-24 20:39:59.64	27.83	15.89	-41.6	-42.7	22.5	0.00e+00	92	41	0	508559360	54	6928
2026-01-24 20:40:03.67	26.97	15.98	-41.8	-42.9	22.4	0.00e+00	0	41	0	516947968	56	6336
2026-01-24 20:40:07.71	26.10	16.06	-41.2	-42.2	22.9	0.00e+00	37	41	0	524288000	56	5856
2026-01-24 20:40:11.75	25.23	16.14	-41.3	-42.3	22.9	0.00e+00	43	41	0	531628032	56	5928
2026-01-24 20:40:15.78	24.35	16.20	-41.7	-42.7	22.5	0.00e+00	90	41	0	538968064	56	6224
2026-01-24 20:40:19.82	23.47	16.27	-41.3	-42.3	22.7	0.00e+00	0	41	0	546308096	56	5919
2026-01-24 20:40:23.86	22.58	16.32	-41.6	-42.6	22.6	0.00e+00	2	41	0	554696704	56	6128
2026-01-24 20:40:27.90	21.70	16.37	-41.6	-42.6	22.5	0.00e+00	37	41	0	562036736	56	6149
2026-01-24 20:40:31.94	20.81	16.41	-41.7	-42.7	22.5	0.00e+00	92	41	0	569376768	56	6239
2026-01-24 20:40:35.98	19.91	16.44	-42.4	-43.5	21.9	0.00e+00	43	41	0	576716800	56	6803
2026-01-24 20:40:40.02	19.02	16.47	-42.0	-43.1	22.3	0.00e+00	2	41	0	585105408	58	5797
2026-01-24 20:40:44.06	18.12	16.49	-41.4	-42.4	22.8	0.00e+00	0	41	0	592445440	56	5998
2026-01-24 20:40:48.10	17.23	16.50	-41.7	-42.8	22.4	0.00e+00	90	41	0	599785472	56	6266
2026-01-24 20:40:52.14	16.33	16.51	-41.9	-43.0	22.3	0.00e+00	39	41	0	607125504	56	6412
2026-01-24 20:40:56.18	15.43	16.51	-41.4	-42.4	22.0	0.00e+00	0	41	0	614465536	56	5968
2026-01-24 20:41:00.21	14.54	16.50	-41.5	-42.5	22.7	0.00e+00	43	41	0	622854144	56	6042
2026-01-24 20:41:04.25	13.64	16.48	-41.8	-42.8	22.4	0.00e+00	92	41	0	630194176	56	6313
2026-01-24 20:41:08.29	12.74	16.46	-41.6	-42.6	22.6	0.00e+00	0	41	0	637534208	56	6151
2026-01-24 20:41:12.33	11.85	16.43	-41.5	-42.5	22.7	0.00e+00	45	41	0	644874240	56	6087
2026-01-24 20:41:16.36	10.96	16.39	-41.2	-42.2	23.0	0.00e+00	89	41	0	653262848	56	5859
2026-01-24 20:41:20.40	10.07	16.35	-41.6	-42.7	22.6	0.00e+00	92	41	0	660602880	56	6175
2026-01-24 20:41:24.44	9.19	16.30	-42.2	-43.2	22.2	0.00e+00	5	41	0	667942912	56	6613
2026-01-24 20:41:28.47	8.30	16.24	-41.6	-42.6	22.9	0.00e+00	0	41	0	675282944	56	6116
2026-01-24 20:41:32.51	7.43	16.18	-40.9	-41.9	23.0	0.00e+00	83	41	0	682622976	54	6321
2026-01-24 20:41:36.54	6.55	16.10	-40.6	-41.5	23.5	0.00e+00	48	41	0	691011584	54	6103
2026-01-24 20:41:40.58	5.68	16.03	-41.0	-41.9	23.3	0.00e+00	6	41	0	698351616	54	6390
2026-01-24 20:41:44.62	4.81	15.94	-41.3	-42.2	23.0	0.00e+00	0	41	0	705691648	54	6604
2026-01-24 20:41:48.66	3.95	15.85	-41.2	-42.1	22.9	0.00e+00	92	41	0	713031680	54	6524
2026-01-24 20:41:52.70	3.10	15.76	-41.1	-42.1	22.9	0.00e+00	0	41	0	720371712	54	6467
2026-01-24 20:41:56.73	2.25	15.65	-41.1	-42.1	22.9	0.00e+00	51	41	0	728760320	54	6520
2026-01-24 20:42:00.77	1.41	15.55	-41.7	-42.7	22.5	0.00e+00	0	41	0	736100352	54	6950
2026-01-24 20:42:04.80	0.57	15.43	-41.8	-42.8	22.5	0.00e+00	92	41	0	743440384	56	6290
2026-01-24 20:42:08.84	359.74	15.31	-41.5	-42.4	22.8	0.00e+00	0	41	0	750780416	56	6031
2026-01-24 20:42:12.87	358.92	15.19	-41.3	-42.2	22.9	0.00e+00	0	41	0	759169024	56	5884
2026-01-24 20:42:16.90	358.10	15.06	-41.7	-42.7	22.7	0.00e+00	37	41	0	766509056	56	6191
2026-01-24 20:42:20.94	357.29	14.92	-42.1	-43.2	22.2	0.00e+00	92	41	0	773849088	56	6544
2026-01-24 20:42:24.98	356.49	14.78	-41.5	-42.5	22.6	0.00e+00	51	41	0	781189120	56	6102
2026-01-24 20:42:29.02	355.70	14.64	-41.3	-42.3	23.0	0.00e+00	0	41	0	788529152	56	5929
2026-01-24 20:42:33.06	354.91	14.49	-41.3	-42.3	22.5	0.00e+00	0	41	0	796917760	56	5956
2026-01-24 20:42:37.10	354.13	14.33	-41.2	-42.2	22.9	0.00e+00	91	41	0	804257792	56	5844
2026-01-24 20:42:41.13	353.37	14.17	-41.5	-42.5	22.7	0.00e+00	45	41	0	811597824	56	6045
2026-01-24 20:42:45.17	352.60	14.01	-41.3	-42.2	22.9	0.00e+00	46	41	0	818937856	56	5893
2026-01-24 20:42:49.21	351.85	13.85	-41.3	-42.3	22.9	0.00e+00	0	41	0	826277888	56	5908
2026-01-24 20:42:53.24	351.11	13.68	-41.7	-42.7	22.5	0.00e+00	90	41	0	834666496	56	6231
2026-01-24 20:42:57.28	350.37	13.50	-42.0	-43.0	22.2	0.00e+00	0	41	0	842006528	56	6433
2026-01-24 20:43:01.32	349.65	13.33	-42.2	-43.3	21.9	0.00e+00	36	41	0	849346560	56	6641
2026-01-24 20:43:05.36	348.93	13.15	-42.4	-43.6	21.7	0.00e+00	16	41	0	856686592	56	6856
2026-01-24 20:43:09.40	348.22	12.96	-42.6	-43.8	21.3	0.00e+00	91	41	0	865075200	56	7042
2026-01-24 20:43:13.43	347.52	12.78	-43.3	-44.5	20.8	0.00e+00	5	41	0	872415232	58	6836
2026-01-24 20:43:17.47	346.83	12.59	-43.5	-44.9	20.5	0.00e+00	36	41	0	879755264	58	7095
2026-01-24 20:43:21.50	346.15	12.40	-43.1	-44.4	20.8	0.00e+00	28	41	0	887095296	58	6719
2026-01-24 20:43:25.54	345.48	12.20	-43.4	-44.8	20.4	0.00e+00	58	41	0	894435328	58	7062
2026-01-24 20:43:29.58	344.81	12.01	-43.5	-44.9	20.2	0.00e+00	0	41	0	902823936	58	7164
2026-01-24 20:43:33.61	344.16	11.81	-43.7	-45.1	20.3	0.00e+00	6	41	0	910163968	60	6532
2026-01-24 20:43:37.65	343.51	11.61	-44.2	-45.8	19.7	0.00e+00	91	41	0	917504000	60	7019
2026-01-24 20:43:41.69	342.88	11.41	-44.0	-45.5	19.7	0.00e+00	0	41	0	924844032	60	6808
2026-01-24 20:43:45.73	342.25	11.20	-43.9	-45.4	19.9	0.00e+00	47	42	0	933232640	60	6696
2026-01-24 20:43:49.76	341.63	11.00	-44.1	-45.6	19.8	0.00e+00	31	42	0	940572672	60	6860
2026-01-24 20:43:53.80	341.02	10.79	-44.0	-45.4	20.0	0.00e+00	91	41	0	947912704	60	6738
2026-01-24 20:43:57.84	340.42	10.58	-43.8	-45.3	20.2	0.00e+00	0	41	0	955252736	60	6619
2026-01-24 20:44:01.87	339.83	10.37	-43.2	-44.5	20.7	0.00e+00	33	42	0	962592768	60	6093
2026-01-24 20:44:05.90	339.24	10.16	-43.4	-44.7	20.6	0.00e+00	34	41	0	970981376	60	6240
2026-01-24 20:44:09.94	338.67	9.95	-43.3	-44.5	21.0	0.00e+00	92	41	0	978321408	60	6094
2026-01-24 20:44:13.98	338.10	9.74	-43.1	-44.3	21.1	0.00e+00	47	41	0	985661440	60	5963
2026-01-24 20:44:18.02	337.54	9.52	-42.8	-44.0	21.3	0.00e+00	0	41	0	993001472	60	5714
2026-01-24 20:44:22.06	336.99	9.31	-42.4	-43.5	21.7	0.00e+00	0	41	0	1000341504	58	6095
2026-01-24 20:44:26.09	336.45	9.09	-42.1	-43.2	22.0	0.00e+00	90	42	0	1008730112	58	5843
2026-01-24 20:44:30.13	335.92	8.88	-42.1	-43.2	21.9	0.00e+00	47	42	0	1016070144	58	5856
2026-01-24 20:44:34.17	335.39	8.66	-42.1	-43.2	21.9	0.00e+00	0	41	0	1023410176	56	6563
2026-01-24 20:44:38.20	334.87	8.45	-41.8	-42.8	22.1	0.00e+00	0	41	0	1030750208	56	6304
2026-01-24 20:44:42.24	334.36	8.23	-42.4	-43.5	21.6	0.00e+00	57	41	0	1039138816	56	6825
2026-01-24 20:44:46.28	333.86	8.01	-42.2	-43.3	21.9	0.00e+00	0	41	0	1046478848	56	6667
2026-01-24 20:44:50.31	333.37	7.80	-42.2	-43.3	22.1	0.00e+00	0	42	0	1053818880	56	6640
2026-01-24 20:44:54.35	332.88	7.58	-42.0	-43.1	21.8	0.00e+00	17	42	0	1061158912	56	6496
2026-01-24 20:44:58.38	332.40	7.36	-43.5	-44.8	20.5	0.00e+00	7	42	0	1068498944	58	7064
2026-01-24 20:45:02.42	331.93	7.14	-44.0	-45.4	20.0	0.00e+00	0	42	0	1076887552	60	6702
2026-01-24 20:45:06.45	331.46	6.93	-43.9	-45.3	20.1	0.00e+00	0	42	0	1084227584	60	6664
2026-01-24 20:45:10.49	331.00	6.71	-43.2	-44.5	20.8	0.00e+00	92	41	0	1091567616	60	6069
2026-01-24 20:45:14.52	330.55	6.49	-43.0	-44.2	20.9	0.00e+00	55	42	0	1098907648	60	5882
2026-01-24 20:45:18.56	330.11	6.27	-43.4	-44.6	20.8	0.00e+00	56	42	0	1107296256	60	6159
2026-01-24 20:45:22.59	329.67	6.06	-43.1	-44.3	20.9	0.00e+00	6	42	0	1114636288	60	5931
2026-01-24 20:45:26.63	329.24	5.84	-44.4	-45.9	19.3	0.00e+00	92	42	0	1121976320	60	7166
2026-01-24 20:45:30.66	328.82	5.62	-44.2	-45.7	19.5	0.00e+00	0	42	0	1129316352	60	6947
2026-01-24 20:45:34.70	328.40	5.41	-44.4	-45.9	19.3	0.00e+00	0	42	0	1136656384	60	7141
2026-01-24 20:45:38.74	327.99	5.19	-43.6	-44.9	20.2	0.00e+00	32	42	0	1145044992	60	6384
2026-01-24 20:45:42.77	327.58	4.98	-44.8	-46.6	18.4	0.00e+00	92	42	0	1152385024	60	7684
2026-01-24 20:45:46.81	327.18	4.76	-45.0	-46.8	18.0	0.00e+00	50	42	0	1159725056	60	7896
2026-01-24 20:45:50.85	326.79	4.55	-46.4	-48.8	16.0	0.00e+00	2	42	0	1167065088	60	9916
2026-01-24 20:45:54.89	326.40	4.33	-45.3	-47.2	18.0	0.00e+00	0	42	0	1175453696	60	8284
2026-01-24 20:45:58.93	326.02	4.12	-44.6	-46.3	18.6	0.00e+00	92	42	0	1182793728	60	7486
2026-01-24 20:46:02.97	325.65	3.91	-45.4	-47.3	17.5	0.00e+00	0	42	0	1190133760	60	8399
2026-01-24 20:46:07.00	325.28	3.69	-44.6	-46.4	17.9	0.00e+00	53	42	0	1197473792	60	7514
2026-01-24 20:46:11.04	324.91	3.48	-44.6	-46.4	18.2	0.00e+00	0	42	0	1204813824	60	7534
2026-01-24 20:46:15.08	324.55	3.27	-43.9	-45.4	19.0	0.00e+00	92	42	0	1213202432	60	6761
2026-01-24 20:46:19.12	324.20	3.06	-45.6	-47.8	17.0	0.00e+00	0	42	0	1220542464	60	8849
2026-01-24 20:46:23.16	323.85	2.85	-51.3	-66.5	3.6	1.51e+00	0	42	104	1222639616	60	76195
2026-01-24 20:46:27.20	323.51	2.64	-51.7	-66.9	3.6	1.51e+00	0	42	104	1222639616	60	80351
2026-01-24 20:46:31.24	323.17	2.43	-51.8	-67.0	3.6	1.51e+00	0	42	104	1222639616	60	80481
2026-01-24 20:46:35.28	322.83	2.22	-51.9	-67.1	3.6	1.51e+00	0	42	104	1222639616	60	82152
2026-01-24 20:46:39.33	322.50	2.01	-51.8	-67.0	3.6	1.51e+00	0	42	104	1222639616	60	81113
2026-01-24 20:46:43.36	322.18	1.80	-51.7	-67.0	3.6	1.51e+00	0	42	104	1222639616	60	80832
2026-01-24 20:46:47.40	321.86	1.60	-52.0	-67.2	3.6	1.51e+00	0	42	104	1222639616	60	82940
2026-01-24 20:46:51.44	321.55	1.39	-52.3	-67.5	3.6	1.51e+00	0	42	104	1222639616	60	85531
2026-01-24 20:46:55.49	321.24	1.18	-52.5	-67.6	3.6	1.51e+00	0	42	104	1222639616	60	86917
2026-01-24 20:46:59.52	320.93	0.98	-52.8	-68.0	3.6	1.51e+00	0	42	104	1222639616	60	90609
2026-01-24 20:47:03.57	320.63	0.77	-52.4	-67.7	3.6	1.51e+00	0	42	104	1222639616	60	87404
2026-01-24 20:47:07.61	320.33	0.57	-51.9	-67.1	3.6	1.51e+00	0	42	104	1222639616	60	81887
2026-01-24 20:47:11.64	320.04	0.37	-52.6	-67.8	3.6	1.51e+00	0	42	104	1222639616	60	88697
2026-01-24 20:47:15.68	319.75	0.17	-52.3	-67.5	3.6	1.51e+00	0	42	104	1222639616	60	85939
2026-01-24 20:47:19.72	319.47	-0.03	-52.7	-67.9	3.6	1.51e+00	0	42	104	1222639616	60	89778

#Closed at: 2026-01-24 20:47:20
#Recorded file [1222 MB]: D:/lorett/data/35029_260125_083428.dat