passes_logs/2026/01/24/R4.6S_Anadyr/R4.6S_Anadyr__20260124_135617_NOAA_20_JPSS-1_rec.log

#Pass ID: 20260124_135617_NOAA 20 (JPSS-1)
#Satellite: NOAA 20 (JPSS-1)
#Configuration: NOAA 20
#almurnet v.1.7.20251203
#Start time: 2026-01-24 13:56:20

#Version: 2.2.20231116
#Station: R4.6S_Anadyr
#Location: 177.4865 lon 64.73178 lat
#TLE: 1 43013U 17073A   26024.14064826  .00000217  00000+0  12382-3 0  9992
#TLE: 2 43013  98.7646 324.9839 0001118  26.6217 333.5016 14.19539758424032

#Time	Az	El	Level	Level2	SNR	BER	BlckErr	Temp	State	Recorded	gain1	gain2
2026-01-24 13:56:20.23	19.32	0.18	-51.6	-65.4	3.3	1.54e+00	0	40	0	0	60	67190
2026-01-24 13:56:24.27	19.44	0.41	-51.3	-66.5	3.6	1.51e+00	0	40	104	0	60	76536
2026-01-24 13:56:28.31	19.55	0.65	-51.3	-66.5	3.6	1.51e+00	0	40	104	0	60	76185
2026-01-24 13:56:32.36	19.67	0.89	-51.0	-66.2	3.6	1.51e+00	0	40	104	0	60	74023
2026-01-24 13:56:36.40	19.79	1.14	-50.5	-65.7	3.6	1.51e+00	0	40	104	0	60	69847
2026-01-24 13:56:40.44	19.91	1.38	-49.9	-65.0	3.6	1.51e+00	0	40	104	0	60	64409
2026-01-24 13:56:44.48	20.03	1.63	-49.7	-64.9	3.6	1.51e+00	0	40	104	0	60	63242
2026-01-24 13:56:48.52	20.15	1.88	-49.7	-64.9	3.6	1.51e+00	0	40	104	0	60	63367
2026-01-24 13:56:52.56	20.27	2.13	-49.7	-64.8	3.6	1.51e+00	0	41	104	0	60	62689
2026-01-24 13:56:56.60	20.40	2.38	-49.6	-63.5	3.6	1.51e+00	0	41	104	0	60	54241
2026-01-24 13:57:00.64	20.53	2.64	-49.6	-63.3	3.6	1.51e+00	0	41	104	0	60	53087
2026-01-24 13:57:04.68	20.66	2.89	-47.3	-51.1	12.6	4.03e-04	0	41	0	4194304	60	13018
2026-01-24 13:57:08.72	20.79	3.15	-43.7	-45.4	18.2	0.00e+00	0	41	0	11534336	60	6769
2026-01-24 13:57:12.76	20.93	3.42	-46.2	-49.0	14.8	0.00e+00	89	41	0	18874368	60	10236
2026-01-24 13:57:16.80	21.06	3.68	-44.8	-46.9	17.2	0.00e+00	2	41	0	27262976	60	7990
2026-01-24 13:57:20.84	21.20	3.95	-45.6	-47.9	16.3	1.61e-01	2	41	0	30408704	60	8949
2026-01-24 13:57:24.87	21.34	4.22	-45.8	-48.2	16.6	5.95e-05	0	41	0	37748736	60	9240
2026-01-24 13:57:28.91	21.48	4.49	-44.7	-46.7	17.5	0.00e+00	92	41	0	45088768	60	7783
2026-01-24 13:57:32.95	21.63	4.76	-43.3	-44.8	19.3	0.00e+00	82	41	0	52428800	58	7049
2026-01-24 13:57:36.99	21.78	5.04	-44.9	-46.8	17.5	0.00e+00	82	41	0	60817408	60	7928
2026-01-24 13:57:41.02	21.92	5.32	-44.5	-46.3	18.2	0.00e+00	57	41	0	68157440	60	7431
2026-01-24 13:57:45.06	22.08	5.60	-43.4	-44.9	19.9	0.00e+00	65	41	0	75497472	60	6341
2026-01-24 13:57:49.10	22.23	5.89	-43.4	-44.9	19.5	0.00e+00	80	41	0	82837504	60	6336
2026-01-24 13:57:53.14	22.39	6.18	-43.3	-44.7	19.6	0.00e+00	80	41	0	90177536	58	6979
2026-01-24 13:57:57.17	22.55	6.47	-44.0	-45.6	19.1	0.00e+00	92	41	0	98566144	60	6921
2026-01-24 13:58:01.21	22.71	6.77	-43.7	-45.2	18.0	0.00e+00	0	41	0	105906176	56	8280
2026-01-24 13:58:05.26	22.88	7.07	-42.3	-43.5	20.8	0.00e+00	2	41	0	113246208	58	6071
2026-01-24 13:58:09.30	23.05	7.37	-43.4	-44.8	19.7	0.00e+00	0	41	0	120586240	58	7064
2026-01-24 13:58:13.33	23.22	7.67	-43.5	-45.0	19.7	0.00e+00	92	41	0	128974848	58	7171
2026-01-24 13:58:17.37	23.40	7.98	-42.4	-43.7	20.5	0.00e+00	82	41	0	136314880	58	6192
2026-01-24 13:58:21.41	23.58	8.30	-42.6	-43.8	20.8	0.00e+00	0	41	0	143654912	58	6308
2026-01-24 13:58:25.45	23.76	8.61	-42.0	-43.2	21.4	0.00e+00	6	41	0	150994944	58	5846
2026-01-24 13:58:29.49	23.95	8.93	-43.4	-44.8	20.0	0.00e+00	90	41	0	158334976	60	6253
2026-01-24 13:58:33.52	24.14	9.26	-41.8	-43.0	21.5	0.00e+00	6	41	0	166723584	58	5716
2026-01-24 13:58:37.56	24.33	9.58	-41.8	-43.0	21.2	0.00e+00	85	41	0	174063616	58	5710
2026-01-24 13:58:41.60	24.53	9.92	-42.7	-43.9	20.8	0.00e+00	0	41	0	181403648	58	6357
2026-01-24 13:58:45.64	24.73	10.25	-41.8	-43.0	21.7	0.00e+00	92	41	0	188743680	56	6396
2026-01-24 13:58:49.68	24.94	10.59	-42.0	-43.1	21.5	0.00e+00	0	41	0	197132288	56	6523
2026-01-24 13:58:53.71	25.15	10.94	-41.8	-42.9	21.7	0.00e+00	81	41	0	204472320	56	6320
2026-01-24 13:58:57.75	25.37	11.29	-41.8	-42.9	21.9	0.00e+00	73	41	0	211812352	56	6324
2026-01-24 13:59:01.78	25.59	11.64	-42.0	-43.1	21.6	0.00e+00	92	41	0	219152384	56	6503
2026-01-24 13:59:05.82	25.81	12.00	-41.1	-42.1	22.7	0.00e+00	0	41	0	226492416	56	5827
2026-01-24 13:59:09.86	26.04	12.37	-41.3	-42.3	22.5	0.00e+00	0	41	0	234881024	56	5933
2026-01-24 13:59:13.90	26.28	12.74	-41.2	-42.2	22.6	0.00e+00	12	41	0	242221056	56	5834
2026-01-24 13:59:17.93	26.52	13.11	-40.5	-41.5	23.2	0.00e+00	87	41	0	249561088	54	6058
2026-01-24 13:59:21.97	26.77	13.49	-40.5	-41.5	23.2	0.00e+00	82	41	0	256901120	54	6060
2026-01-24 13:59:26.00	27.02	13.88	-40.3	-41.2	23.4	0.00e+00	0	41	0	265289728	54	5878
2026-01-24 13:59:30.04	27.28	14.27	-40.1	-41.0	23.6	0.00e+00	64	41	0	272629760	54	5746
2026-01-24 13:59:34.08	27.54	14.67	-40.2	-41.1	23.6	0.00e+00	64	41	0	279969792	54	5772
2026-01-24 13:59:38.12	27.82	15.07	-40.0	-40.9	23.7	0.00e+00	0	41	0	287309824	54	5679
2026-01-24 13:59:42.16	28.10	15.48	-40.1	-41.0	23.6	0.00e+00	82	41	0	294649856	54	5747
2026-01-24 13:59:46.20	28.38	15.90	-40.0	-40.9	23.7	0.00e+00	92	41	0	303038464	54	5645
2026-01-24 13:59:50.23	28.68	16.32	-39.8	-40.7	23.9	0.00e+00	0	41	0	310378496	54	5531
2026-01-24 13:59:54.26	28.98	16.75	-39.9	-40.8	23.9	0.00e+00	0	41	0	317718528	54	5586
2026-01-24 13:59:58.30	29.29	17.19	-39.8	-40.6	24.0	0.00e+00	0	41	0	325058560	52	6161
2026-01-24 14:00:02.34	29.61	17.63	-39.8	-40.7	24.0	0.00e+00	91	41	0	332398592	52	6180
2026-01-24 14:00:06.38	29.94	18.08	-39.7	-40.6	24.1	0.00e+00	81	41	0	340787200	52	6112
2026-01-24 14:00:10.41	30.28	18.54	-39.9	-40.8	23.8	0.00e+00	7	41	0	348127232	52	6290
2026-01-24 14:00:14.45	30.63	19.01	-40.0	-40.9	23.9	0.00e+00	0	41	0	355467264	52	6354
2026-01-24 14:00:18.49	30.98	19.48	-40.0	-40.9	23.8	0.00e+00	91	41	0	362807296	52	6364
2026-01-24 14:00:22.53	31.35	19.97	-39.8	-40.7	24.0	0.00e+00	85	41	0	371195904	52	6202
2026-01-24 14:00:26.57	31.73	20.46	-39.9	-40.8	24.0	0.00e+00	84	41	0	378535936	52	6257
2026-01-24 14:00:30.61	32.13	20.96	-39.8	-40.7	24.1	0.00e+00	0	41	0	385875968	52	6220
2026-01-24 14:00:34.65	32.53	21.47	-39.8	-40.7	24.0	0.00e+00	68	41	0	393216000	52	6211
2026-01-24 14:00:38.68	32.95	21.98	-39.8	-40.6	24.1	0.00e+00	6	41	0	400556032	52	6163
2026-01-24 14:00:42.72	33.38	22.51	-39.7	-40.6	24.1	0.00e+00	0	41	0	408944640	52	6123
2026-01-24 14:00:46.77	33.83	23.05	-39.8	-40.6	24.1	0.00e+00	0	41	0	416284672	52	6165
2026-01-24 14:00:50.80	34.29	23.60	-40.0	-40.9	23.7	0.00e+00	24	41	0	423624704	52	6343
2026-01-24 14:00:54.84	34.76	24.15	-40.0	-40.8	24.0	0.00e+00	0	41	0	430964736	52	6300
2026-01-24 14:00:58.88	35.26	24.72	-40.0	-40.9	23.9	0.00e+00	0	41	0	439353344	52	6334
2026-01-24 14:01:02.92	35.77	25.30	-40.2	-41.0	23.7	0.00e+00	92	42	0	446693376	52	6463
2026-01-24 14:01:06.95	36.30	25.88	-40.4	-41.3	23.6	0.00e+00	3	42	0	454033408	52	6692
2026-01-24 14:01:10.99	36.84	26.48	-40.4	-41.3	23.6	0.00e+00	81	41	0	461373440	52	6646
2026-01-24 14:01:15.03	37.41	27.09	-40.9	-41.8	22.5	0.00e+00	0	41	0	468713472	54	6306
2026-01-24 14:01:19.06	38.00	27.71	-41.3	-42.3	22.7	0.00e+00	92	42	0	477102080	54	6620
2026-01-24 14:01:23.10	38.62	28.34	-41.5	-42.5	22.5	0.00e+00	0	41	0	484442112	54	6840
2026-01-24 14:01:27.14	39.26	28.98	-41.6	-42.6	22.4	0.00e+00	83	41	0	491782144	54	6885
2026-01-24 14:01:31.18	39.92	29.63	-42.4	-43.5	21.6	0.00e+00	0	41	0	499122176	56	6791
2026-01-24 14:01:35.22	40.61	30.30	-42.6	-43.7	21.4	0.00e+00	92	41	0	507510784	56	6984
2026-01-24 14:01:39.26	41.33	30.97	-42.7	-43.8	21.4	0.00e+00	0	41	0	514850816	58	6300
2026-01-24 14:01:43.30	42.08	31.66	-42.4	-43.6	21.6	0.00e+00	82	42	0	522190848	58	6118
2026-01-24 14:01:47.34	42.86	32.35	-42.6	-43.8	21.4	0.00e+00	0	41	0	529530880	58	6267
2026-01-24 14:01:51.37	43.67	33.06	-42.1	-43.2	22.0	0.00e+00	92	41	0	536870912	58	5869
2026-01-24 14:01:55.42	44.52	33.78	-41.2	-42.2	22.9	0.00e+00	5	42	0	545259520	56	5868
2026-01-24 14:01:59.44	45.41	34.50	-41.2	-42.2	23.0	0.00e+00	0	41	0	552599552	56	5864
2026-01-24 14:02:03.48	46.33	35.24	-40.7	-41.6	23.3	0.00e+00	5	42	0	559939584	54	6170
2026-01-24 14:02:07.52	47.30	35.99	-40.9	-41.8	23.2	0.00e+00	91	41	0	567279616	54	6307
2026-01-24 14:02:11.55	48.32	36.74	-39.4	-40.2	24.6	0.00e+00	0	41	0	575668224	52	5882
2026-01-24 14:02:15.58	49.38	37.50	-40.2	-41.1	23.9	0.00e+00	86	41	0	583008256	52	6491
2026-01-24 14:02:19.62	50.49	38.27	-40.0	-40.9	24.0	0.00e+00	0	42	0	590348288	52	6355
2026-01-24 14:02:23.66	51.65	39.04	-40.0	-40.8	24.0	0.00e+00	92	42	0	597688320	52	6314
2026-01-24 14:02:27.69	52.87	39.82	-40.6	-41.5	23.4	0.00e+00	7	41	0	605028352	52	6815
2026-01-24 14:02:31.73	54.15	40.60	-40.5	-41.4	23.6	0.00e+00	1	41	0	613416960	52	6745
2026-01-24 14:02:35.78	55.50	41.38	-40.5	-41.4	23.6	0.00e+00	72	42	0	620756992	52	6707
2026-01-24 14:02:39.81	56.90	42.16	-40.8	-41.7	23.2	0.00e+00	88	42	0	628097024	54	6214
2026-01-24 14:02:43.85	58.38	42.94	-40.5	-41.4	23.3	0.00e+00	2	42	0	635437056	54	6009
2026-01-24 14:02:47.88	59.93	43.71	-41.4	-42.4	22.7	0.00e+00	1	42	0	643825664	54	6741
2026-01-24 14:02:51.92	61.55	44.47	-40.7	-41.6	23.4	0.00e+00	92	42	0	651165696	54	6136
2026-01-24 14:02:55.96	63.25	45.22	-42.3	-43.5	21.9	0.00e+00	82	42	0	658505728	56	6772
2026-01-24 14:03:00.00	65.04	45.96	-41.8	-42.8	22.1	0.00e+00	0	42	0	665845760	56	6278
2026-01-24 14:03:04.03	66.90	46.68	-41.9	-42.9	22.3	0.00e+00	0	41	0	673185792	56	6361
2026-01-24 14:03:08.07	68.85	47.37	-41.4	-42.4	22.7	0.00e+00	92	42	0	681574400	56	6026
2026-01-24 14:03:12.11	70.89	48.04	-41.2	-42.1	23.0	0.00e+00	79	42	0	688914432	56	5802
2026-01-24 14:03:16.15	73.02	48.69	-40.4	-41.3	23.6	0.00e+00	78	41	0	696254464	54	5915
2026-01-24 14:03:20.19	75.24	49.29	-40.4	-41.3	23.7	0.00e+00	81	41	0	703594496	54	5900
2026-01-24 14:03:24.23	77.54	49.86	-40.9	-41.9	23.0	0.00e+00	92	41	0	711983104	54	6347
2026-01-24 14:03:28.26	79.92	50.38	-40.8	-41.8	23.2	0.00e+00	2	41	0	719323136	54	6259
2026-01-24 14:03:32.30	82.38	50.86	-41.7	-42.7	22.6	0.00e+00	80	42	0	726663168	56	6189
2026-01-24 14:03:36.34	84.92	51.29	-40.4	-41.3	23.5	0.00e+00	79	42	0	734003200	54	5958
2026-01-24 14:03:40.38	87.53	51.65	-40.3	-41.1	23.8	0.00e+00	92	41	0	741343232	54	5821
2026-01-24 14:03:44.42	90.19	51.96	-40.7	-41.6	23.5	0.00e+00	0	42	0	749731840	54	6147
2026-01-24 14:03:48.46	92.91	52.21	-40.3	-41.2	23.8	0.00e+00	0	41	0	757071872	52	6574
2026-01-24 14:03:52.49	95.66	52.39	-39.1	-39.9	24.9	0.00e+00	5	42	0	764411904	52	5659
2026-01-24 14:03:56.53	98.45	52.51	-39.1	-39.9	24.7	0.00e+00	91	42	0	771751936	52	5691
2026-01-24 14:04:00.57	101.25	52.55	-39.7	-40.5	24.3	0.00e+00	0	41	0	780140544	52	6056
2026-01-24 14:04:04.60	104.04	52.53	-39.8	-40.7	23.9	0.00e+00	6	41	0	787480576	52	6199
2026-01-24 14:04:08.64	106.83	52.44	-39.1	-39.9	24.8	0.00e+00	3	41	0	794820608	52	5657
2026-01-24 14:04:12.68	109.60	52.28	-38.5	-39.3	25.4	0.00e+00	92	42	0	802160640	50	5935
2026-01-24 14:04:16.72	112.33	52.05	-39.6	-40.5	24.5	0.00e+00	80	42	0	809500672	50	6795
2026-01-24 14:04:20.76	115.02	51.76	-40.2	-41.1	23.6	0.00e+00	0	42	0	817889280	52	6504
2026-01-24 14:04:24.80	117.65	51.41	-41.4	-42.4	22.7	0.00e+00	87	42	0	825229312	54	6749
2026-01-24 14:04:28.84	120.21	51.00	-42.2	-43.3	21.8	0.00e+00	90	42	0	832569344	56	6671
2026-01-24 14:04:32.87	122.70	50.54	-41.3	-42.3	23.0	0.00e+00	1	42	0	839909376	56	5923
2026-01-24 14:04:36.90	125.11	50.03	-41.8	-42.8	22.5	0.00e+00	81	42	0	848297984	56	6270
2026-01-24 14:04:40.94	127.44	49.47	-44.0	-45.4	20.2	0.00e+00	90	41	0	855638016	60	6706
2026-01-24 14:04:44.98	129.68	48.87	-44.9	-46.5	19.0	0.00e+00	80	41	0	862978048	60	7630
2026-01-24 14:04:49.02	131.84	48.24	-43.4	-44.7	20.6	0.00e+00	0	42	0	870318080	60	6189
2026-01-24 14:04:53.06	133.91	47.58	-43.4	-44.6	20.7	0.00e+00	0	41	0	877658112	60	6169
2026-01-24 14:04:57.10	135.90	46.89	-44.8	-46.4	18.8	0.00e+00	92	41	0	886046720	60	7565
2026-01-24 14:05:01.14	137.79	46.17	-43.7	-45.0	20.5	0.00e+00	1	41	0	893386752	60	6403
2026-01-24 14:05:05.18	139.61	45.44	-41.0	-41.9	23.2	0.00e+00	0	41	0	900726784	56	5660
2026-01-24 14:05:09.21	141.34	44.69	-42.3	-43.4	21.8	0.00e+00	0	41	0	908066816	56	6734
2026-01-24 14:05:13.25	142.99	43.93	-40.9	-41.8	23.2	0.00e+00	91	41	0	916455424	56	5626
2026-01-24 14:05:17.29	144.56	43.15	-42.5	-43.7	21.4	0.00e+00	0	41	0	923795456	56	6956
2026-01-24 14:05:21.32	146.06	42.38	-41.2	-42.1	22.9	0.00e+00	0	41	0	931135488	56	5811
2026-01-24 14:05:25.36	147.49	41.59	-44.8	-46.4	19.0	0.00e+00	0	41	0	938475520	60	7561
2026-01-24 14:05:29.40	148.86	40.81	-44.2	-45.6	19.7	0.00e+00	92	41	0	945815552	60	6911
2026-01-24 14:05:33.44	150.16	40.03	-43.1	-44.3	21.0	0.00e+00	5	41	0	954204160	60	5918
2026-01-24 14:05:37.47	151.40	39.24	-46.6	-48.9	16.1	0.00e+00	6	41	0	961544192	60	10118
2026-01-24 14:05:41.51	152.58	38.47	-41.7	-42.7	22.6	0.00e+00	0	41	0	968884224	56	6204
2026-01-24 14:05:45.55	153.71	37.69	-43.9	-45.3	19.9	0.00e+00	92	41	0	976224256	60	6674
2026-01-24 14:05:49.59	154.79	36.92	-42.0	-43.0	22.1	0.00e+00	85	41	0	983564288	58	5736
2026-01-24 14:05:53.63	155.82	36.16	-42.7	-43.9	21.2	0.00e+00	0	41	0	991952896	56	7147
2026-01-24 14:05:57.66	156.81	35.41	-42.2	-43.3	21.9	0.00e+00	0	41	0	999292928	58	5927
2026-01-24 14:06:01.70	157.75	34.67	-41.9	-43.0	21.8	0.00e+00	43	41	0	1006632960	56	6425
2026-01-24 14:06:05.73	158.65	33.94	-44.1	-45.5	19.8	0.00e+00	1	41	0	1013972992	60	6824
2026-01-24 14:06:09.77	159.51	33.21	-40.8	-41.8	23.2	0.00e+00	81	41	0	1022361600	56	5568
2026-01-24 14:06:13.81	160.33	32.50	-44.4	-45.9	19.6	0.00e+00	92	41	0	1029701632	60	7112
2026-01-24 14:06:17.85	161.12	31.79	-44.4	-45.9	19.6	0.00e+00	0	41	0	1037041664	60	7132
2026-01-24 14:06:21.89	161.88	31.10	-41.8	-42.9	22.4	0.00e+00	0	41	0	1044381696	56	6318
2026-01-24 14:06:25.93	162.61	30.42	-43.2	-44.5	20.7	0.00e+00	0	41	0	1051721728	58	6776
2026-01-24 14:06:29.96	163.31	29.75	-42.5	-43.6	21.5	0.00e+00	91	41	0	1060110336	58	6159
2026-01-24 14:06:34.00	163.98	29.09	-41.5	-42.5	22.4	0.00e+00	0	41	0	1067450368	56	6099
2026-01-24 14:06:38.04	164.62	28.44	-41.2	-42.2	22.8	0.00e+00	0	41	0	1074790400	56	5838
2026-01-24 14:06:42.07	165.24	27.81	-42.8	-44.0	21.1	0.00e+00	0	41	0	1082130432	58	6452
2026-01-24 14:06:46.11	165.84	27.18	-42.8	-44.1	21.1	0.00e+00	90	41	0	1090519040	58	6481
2026-01-24 14:06:50.15	166.42	26.57	-41.4	-42.4	22.7	0.00e+00	0	41	0	1097859072	56	6021
2026-01-24 14:06:54.19	166.97	25.96	-41.3	-42.3	22.7	0.00e+00	81	41	0	1105199104	56	5913
2026-01-24 14:06:58.22	167.50	25.37	-42.3	-43.5	21.7	0.00e+00	2	41	0	1112539136	56	6789
2026-01-24 14:07:02.26	168.02	24.79	-42.2	-43.3	21.8	0.00e+00	92	41	0	1119879168	56	6661
2026-01-24 14:07:06.30	168.52	24.22	-41.8	-42.8	22.2	0.00e+00	0	41	0	1128267776	56	6287
2026-01-24 14:07:10.34	169.00	23.65	-41.2	-42.2	22.8	0.00e+00	81	41	0	1135607808	56	5838
2026-01-24 14:07:14.37	169.46	23.10	-41.0	-42.0	22.9	0.00e+00	0	41	0	1142947840	56	5731
2026-01-24 14:07:18.41	169.91	22.56	-41.8	-42.9	22.0	0.00e+00	90	41	0	1150287872	56	6385
2026-01-24 14:07:22.44	170.35	22.03	-41.9	-43.0	22.1	0.00e+00	6	41	0	1157627904	56	6452
2026-01-24 14:07:26.49	170.77	21.51	-41.3	-42.3	22.7	0.00e+00	6	41	0	1166016512	56	5930
2026-01-24 14:07:30.52	171.17	20.99	-40.6	-41.5	23.3	0.00e+00	0	41	0	1173356544	54	6065
2026-01-24 14:07:34.56	171.57	20.49	-40.6	-41.6	23.2	0.00e+00	91	41	0	1180696576	54	6105
2026-01-24 14:07:38.59	171.95	19.99	-41.2	-42.2	22.6	0.00e+00	0	41	0	1188036608	54	6597
2026-01-24 14:07:42.63	172.32	19.51	-40.8	-41.8	23.0	0.00e+00	0	41	0	1196425216	54	6265
2026-01-24 14:07:46.67	172.68	19.03	-40.1	-41.0	23.6	0.00e+00	79	41	0	1203765248	54	5745
2026-01-24 14:07:50.71	173.03	18.55	-39.6	-40.5	24.1	0.00e+00	51	41	0	1211105280	52	6044
2026-01-24 14:07:54.75	173.37	18.09	-39.2	-40.1	24.5	0.00e+00	0	41	0	1218445312	52	5768
2026-01-24 14:07:58.78	173.70	17.64	-39.4	-40.2	24.3	0.00e+00	0	41	0	1225785344	52	5858
2026-01-24 14:08:02.82	174.02	17.19	-40.2	-41.1	23.5	0.00e+00	92	41	0	1234173952	52	6502
2026-01-24 14:08:06.86	174.33	16.75	-40.5	-41.5	23.2	0.00e+00	0	41	0	1241513984	52	6786
2026-01-24 14:08:10.90	174.64	16.31	-40.8	-41.8	22.9	0.00e+00	0	41	0	1248854016	54	6262
2026-01-24 14:08:14.93	174.93	15.89	-40.6	-41.5	23.0	0.00e+00	0	41	0	1256194048	54	6095
2026-01-24 14:08:18.98	175.22	15.47	-40.6	-41.6	23.3	0.00e+00	91	41	0	1264582656	54	6108
2026-01-24 14:08:23.01	175.50	15.05	-40.0	-40.9	23.7	0.00e+00	0	41	0	1271922688	54	5637
2026-01-24 14:08:27.05	175.77	14.65	-40.0	-40.9	23.6	0.00e+00	2	41	0	1279262720	54	5641
2026-01-24 14:08:31.09	176.04	14.24	-40.2	-41.2	23.4	0.00e+00	0	41	0	1286602752	54	5830
2026-01-24 14:08:35.12	176.29	13.85	-40.4	-41.3	23.2	0.00e+00	92	41	0	1293942784	54	5963
2026-01-24 14:08:39.16	176.55	13.46	-40.6	-41.6	23.0	0.00e+00	0	41	0	1302331392	54	6137
2026-01-24 14:08:43.20	176.79	13.08	-41.1	-42.1	22.5	0.00e+00	0	41	0	1309671424	54	6530
2026-01-24 14:08:47.24	177.03	12.70	-41.1	-42.2	22.5	0.00e+00	2	41	0	1317011456	54	6559
2026-01-24 14:08:51.27	177.27	12.33	-41.1	-42.1	22.4	0.00e+00	92	41	0	1324351488	54	6516
2026-01-24 14:08:55.31	177.50	11.96	-41.1	-42.1	22.4	0.00e+00	76	41	0	1332740096	54	6539
2026-01-24 14:08:59.35	177.72	11.60	-41.0	-42.0	22.6	0.00e+00	0	41	0	1340080128	54	6455
2026-01-24 14:09:03.39	177.94	11.24	-41.1	-42.1	22.4	0.00e+00	68	41	0	1347420160	54	6499
2026-01-24 14:09:07.43	178.16	10.89	-41.1	-42.1	22.3	0.00e+00	28	41	0	1354760192	54	6525
2026-01-24 14:09:11.47	178.37	10.54	-40.9	-41.9	22.5	0.00e+00	5	41	0	1362100224	54	6328
2026-01-24 14:09:15.50	178.57	10.19	-41.3	-42.4	22.2	0.00e+00	80	41	0	1370488832	54	6707
2026-01-24 14:09:19.53	178.77	9.86	-41.3	-42.4	22.1	0.00e+00	0	41	0	1377828864	54	6707
2026-01-24 14:09:23.57	178.97	9.52	-41.4	-42.4	22.1	0.00e+00	92	41	0	1385168896	54	6768
2026-01-24 14:09:27.61	179.16	9.19	-41.8	-42.9	21.9	0.00e+00	4	41	0	1392508928	56	6341
2026-01-24 14:09:31.65	179.35	8.86	-41.9	-43.0	21.7	0.00e+00	7	41	0	1400897536	56	6417
2026-01-24 14:09:35.68	179.53	8.54	-42.4	-43.6	21.1	0.00e+00	92	41	0	1408237568	56	6872
2026-01-24 14:09:39.72	179.71	8.22	-42.3	-43.5	21.1	0.00e+00	80	41	0	1415577600	56	6799
2026-01-24 14:09:43.76	179.89	7.91	-42.7	-44.0	20.7	0.00e+00	0	41	0	1422917632	58	6400
2026-01-24 14:09:47.79	180.06	7.60	-42.3	-43.5	21.0	0.00e+00	0	41	0	1430257664	58	6089
2026-01-24 14:09:51.83	180.24	7.29	-42.6	-43.9	20.6	0.00e+00	92	41	0	1438646272	58	6364
2026-01-24 14:09:55.87	180.40	6.99	-42.3	-43.5	20.9	0.00e+00	5	41	0	1445986304	58	6100
2026-01-24 14:09:59.91	180.57	6.69	-42.2	-43.5	21.0	0.00e+00	81	41	0	1453326336	58	6061
2026-01-24 14:10:03.95	180.73	6.39	-42.0	-43.2	21.2	0.00e+00	81	41	0	1460666368	58	5836
2026-01-24 14:10:07.98	180.89	6.09	-42.5	-43.8	20.4	0.00e+00	92	41	0	1468006400	58	6269
2026-01-24 14:10:12.02	181.04	5.80	-42.1	-43.3	21.0	0.00e+00	2	41	0	1476395008	58	5934
2026-01-24 14:10:16.06	181.19	5.52	-42.2	-43.5	20.8	0.00e+00	0	41	0	1483735040	56	6783
2026-01-24 14:10:20.09	181.34	5.23	-41.8	-43.0	21.3	0.00e+00	0	41	0	1491075072	58	5699
2026-01-24 14:10:24.13	181.49	4.95	-43.1	-44.5	20.3	0.00e+00	92	41	0	1498415104	60	6081
2026-01-24 14:10:28.17	181.63	4.67	-41.8	-42.9	20.8	0.00e+00	81	41	0	1506803712	58	5692
2026-01-24 14:10:32.21	181.78	4.39	-43.6	-45.2	19.2	0.00e+00	2	41	0	1514143744	58	7348
2026-01-24 14:10:36.24	181.92	4.12	-42.7	-44.1	20.2	0.00e+00	2	41	0	1521483776	58	6475
2026-01-24 14:10:40.28	182.05	3.85	-42.9	-44.2	20.1	0.00e+00	90	41	0	1528823808	58	6610
2026-01-24 14:10:44.32	182.19	3.58	-42.6	-44.0	19.8	0.00e+00	78	41	0	1536163840	58	6424
2026-01-24 14:10:48.36	182.32	3.31	-43.7	-45.3	19.1	0.00e+00	3	41	0	1544552448	60	6646
2026-01-24 14:10:52.40	182.45	3.05	-43.3	-44.9	18.9	0.00e+00	40	41	0	1551892480	60	6336
2026-01-24 14:10:56.44	182.58	2.79	-50.7	-65.9	3.6	1.51e+00	0	41	104	1553989632	60	71640
2026-01-24 14:11:00.48	182.71	2.53	-50.9	-66.2	3.6	1.51e+00	0	41	104	1553989632	60	73654
2026-01-24 14:11:04.52	182.83	2.27	-51.2	-66.4	3.6	1.51e+00	0	41	104	1553989632	60	75466
2026-01-24 14:11:08.56	182.95	2.02	-51.2	-66.5	3.6	1.51e+00	0	41	104	1553989632	60	75983
2026-01-24 14:11:12.60	183.08	1.76	-51.3	-66.5	3.6	1.51e+00	0	41	104	1553989632	60	76608
2026-01-24 14:11:16.64	183.19	1.51	-51.3	-66.5	3.6	1.51e+00	0	41	104	1553989632	60	76381
2026-01-24 14:11:20.68	183.31	1.27	-51.4	-66.6	3.6	1.51e+00	0	41	104	1553989632	60	77170
2026-01-24 14:11:24.72	183.43	1.02	-51.3	-66.5	3.6	1.51e+00	0	41	104	1553989632	60	76734
2026-01-24 14:11:28.77	183.54	0.78	-51.4	-66.6	3.6	1.51e+00	0	41	104	1553989632	60	77051
2026-01-24 14:11:32.81	183.65	0.53	-51.3	-66.5	3.6	1.51e+00	0	41	104	1553989632	60	76276
2026-01-24 14:11:36.85	183.76	0.29	-51.3	-66.5	3.6	1.51e+00	0	41	104	1553989632	60	76776
2026-01-24 14:11:40.89	183.87	0.05	-51.4	-66.6	3.6	1.51e+00	0	41	104	1553989632	60	77173

#Closed at: 2026-01-24 14:11:44
#Recorded file [1553 MB]: D:/lorett/data/35029_260125_015620.dat