passes_logs/2026/01/24/R4.6S_Anadyr/R4.6S_Anadyr__20260124_043802_AQUA_rec.log

#Pass ID: 20260124_043802_AQUA
#Satellite: AQUA
#Configuration: AQUA
#almurnet v.1.7.20251203
#Start time: 2026-01-24 04:38:03

#Version: 2.2.20231116
#Station: R4.6S_Anadyr
#Location: 177.4865 lon 64.73178 lat
#TLE: 1 27424U 02022A   26023.58972979  .00001888  00000+0  38753-3 0  9997
#TLE: 2 27424  98.4100 350.1620 0001948  68.5331  43.0280 14.61852003262140

#Time	Az	El	Level	Level2	SNR	BER	BlckErr	Temp	State	Recorded	gain1	gain2
2026-01-24 04:38:03.95	231.23	0.06	-51.6	-63.3	3.5	8.45e-01	0	39	0	0	60	52597
2026-01-24 04:38:06.98	231.53	0.20	-52.0	-70.0	3.5	3.02e+01	0	40	104	0	60	121500
2026-01-24 04:38:10.01	231.82	0.34	-51.7	-69.7	3.5	3.02e+01	0	40	104	0	60	118087
2026-01-24 04:38:13.03	232.12	0.48	-51.7	-69.6	3.5	3.02e+01	0	40	104	0	60	116654
2026-01-24 04:38:16.06	232.42	0.62	-51.9	-69.7	3.5	3.02e+01	0	40	104	0	60	117966
2026-01-24 04:38:19.09	232.73	0.76	-52.0	-69.8	3.5	3.02e+01	0	40	104	0	60	119319
2026-01-24 04:38:22.12	233.03	0.90	-51.9	-69.8	3.5	3.02e+01	0	40	104	0	60	118407
2026-01-24 04:38:25.15	233.35	1.04	-51.4	-69.3	3.5	3.02e+01	0	40	104	0	60	111752
2026-01-24 04:38:28.18	233.66	1.18	-49.5	-68.2	3.5	3.02e+01	0	40	104	0	60	98986
2026-01-24 04:38:31.21	233.98	1.32	-48.1	-67.2	3.5	3.02e+01	0	40	104	0	60	88103
2026-01-24 04:38:34.24	234.30	1.46	-48.1	-67.2	3.5	3.02e+01	0	40	104	0	60	88182
2026-01-24 04:38:37.27	234.62	1.60	-48.0	-67.2	3.5	3.02e+01	0	40	104	0	60	88064
2026-01-24 04:38:40.30	234.95	1.74	-48.0	-67.2	3.5	3.02e+01	0	41	104	0	60	87765
2026-01-24 04:38:43.33	235.28	1.88	-48.0	-67.1	3.5	3.02e+01	0	41	104	0	60	86770
2026-01-24 04:38:46.36	235.61	2.02	-48.0	-67.1	3.5	3.02e+01	0	41	104	0	60	87094
2026-01-24 04:38:49.39	235.95	2.16	-48.0	-67.1	3.5	3.02e+01	0	41	104	0	60	87194
2026-01-24 04:38:52.42	236.29	2.30	-48.0	-67.1	3.5	3.02e+01	0	41	104	0	60	87074
2026-01-24 04:38:55.45	236.63	2.44	-48.0	-67.1	3.5	3.02e+01	0	41	104	0	60	87241
2026-01-24 04:38:58.48	236.98	2.58	-47.9	-67.1	3.5	3.02e+01	0	41	104	0	60	86932
2026-01-24 04:39:01.51	237.33	2.72	-47.9	-67.1	3.5	3.02e+01	0	41	104	0	60	87223
2026-01-24 04:39:04.54	237.68	2.86	-48.0	-67.1	3.5	3.02e+01	0	41	104	0	60	87132
2026-01-24 04:39:07.57	238.04	3.00	-47.9	-66.9	3.5	3.02e+01	0	41	104	0	60	84990
2026-01-24 04:39:10.60	238.40	3.14	-47.5	-66.8	3.5	3.02e+01	0	41	104	0	60	83983
2026-01-24 04:39:13.63	238.77	3.28	-48.7	-64.8	3.8	3.02e+01	0	41	104	0	60	66703
2026-01-24 04:39:16.66	239.13	3.42	-48.9	-61.7	5.5	3.02e+01	22	41	104	0	60	47041
2026-01-24 04:39:19.68	239.50	3.56	-48.5	-59.8	6.3	3.02e+01	91	41	0	1572864	60	37600
2026-01-24 04:39:22.71	239.88	3.70	-48.2	-58.0	7.9	3.02e+01	90	41	0	7340032	60	30582
2026-01-24 04:39:25.74	240.26	3.84	-48.6	-56.4	9.6	3.02e+01	92	41	0	13107200	60	25384
2026-01-24 04:39:28.77	240.64	3.98	-47.9	-56.9	9.5	3.02e+01	90	41	0	18874368	60	26861
2026-01-24 04:39:31.79	241.03	4.12	-48.0	-54.0	12.8	3.02e+01	90	41	0	24117248	60	19387
2026-01-24 04:39:34.82	241.42	4.26	-47.5	-53.6	13.3	3.02e+01	92	41	0	29884416	60	18370
2026-01-24 04:39:37.85	241.82	4.40	-46.9	-51.7	15.5	3.02e+01	90	41	0	35651584	60	14745
2026-01-24 04:39:40.88	242.22	4.54	-46.5	-50.4	16.7	3.02e+01	92	41	0	41418752	60	12790
2026-01-24 04:39:43.91	242.62	4.67	-46.5	-50.1	17.4	3.02e+01	90	41	0	47185920	60	12288
2026-01-24 04:39:46.93	243.02	4.81	-45.8	-48.9	18.4	3.02e+01	92	41	0	52953088	60	10730
2026-01-24 04:39:49.96	243.44	4.95	-45.3	-48.2	19.2	3.02e+01	95	41	0	58195968	60	9890
2026-01-24 04:39:52.99	243.85	5.09	-45.0	-47.5	20.0	3.02e+01	92	41	0	63963136	60	9132
2026-01-24 04:39:56.02	244.27	5.22	-44.6	-46.9	20.5	3.02e+01	92	41	0	69730304	60	8564
2026-01-24 04:39:59.04	244.69	5.36	-44.2	-46.4	21.2	3.02e+01	92	41	0	75497472	60	8027
2026-01-24 04:40:02.07	245.12	5.50	-43.7	-45.8	22.1	3.02e+01	92	41	0	81264640	60	7510
2026-01-24 04:40:05.09	245.55	5.63	-42.4	-44.1	23.4	3.02e+01	92	41	0	87031808	60	6184
2026-01-24 04:40:08.12	245.99	5.77	-42.5	-44.3	23.4	3.02e+01	86	41	0	92274688	60	6286
2026-01-24 04:40:11.15	246.43	5.90	-41.3	-42.9	24.7	3.02e+01	92	41	0	98041856	58	5997
2026-01-24 04:40:14.18	246.87	6.03	-41.9	-43.5	24.1	3.02e+01	92	41	0	103809024	58	6459
2026-01-24 04:40:17.20	247.32	6.17	-41.5	-43.0	24.6	3.02e+01	92	41	0	109576192	58	6124
2026-01-24 04:40:20.22	247.77	6.30	-41.3	-42.9	24.9	3.02e+01	92	41	0	115343360	56	6737
2026-01-24 04:40:23.25	248.23	6.43	-41.0	-42.6	25.2	3.02e+01	91	41	0	120586240	56	6507
2026-01-24 04:40:26.28	248.69	6.56	-40.4	-41.8	26.0	3.02e+01	92	41	0	126353408	56	5941
2026-01-24 04:40:29.31	249.16	6.69	-40.6	-42.0	25.9	3.02e+01	92	41	0	132120576	56	6122
2026-01-24 04:40:32.34	249.63	6.82	-39.8	-41.1	26.6	3.02e+01	90	41	0	137887744	54	6198
2026-01-24 04:40:35.37	250.10	6.95	-40.1	-41.5	26.3	3.02e+01	91	41	0	143654912	54	6431
2026-01-24 04:40:38.40	250.58	7.08	-40.2	-41.6	26.2	3.02e+01	90	41	0	149422080	54	6519
2026-01-24 04:40:41.43	251.07	7.20	-39.8	-41.2	26.6	3.02e+01	91	41	0	155189248	54	6248
2026-01-24 04:40:44.46	251.56	7.33	-39.9	-41.2	26.6	3.02e+01	92	41	0	160432128	54	6250
2026-01-24 04:40:47.49	252.05	7.46	-40.3	-41.7	26.2	3.02e+01	90	41	0	166199296	54	6642
2026-01-24 04:40:50.52	252.55	7.58	-39.8	-41.1	26.6	3.02e+01	91	41	0	171966464	54	6202
2026-01-24 04:40:53.54	253.05	7.70	-40.2	-41.6	26.3	3.02e+01	91	41	0	177733632	54	6513
2026-01-24 04:40:56.58	253.55	7.82	-39.8	-41.1	26.7	3.02e+01	90	41	0	183500800	54	6201
2026-01-24 04:40:59.60	254.06	7.94	-40.2	-41.6	26.2	3.02e+01	90	41	0	188743680	54	6522
2026-01-24 04:41:02.63	254.58	8.06	-39.9	-41.3	26.7	3.02e+01	92	41	0	194510848	54	6327
2026-01-24 04:41:05.66	255.10	8.18	-39.6	-41.0	26.8	3.02e+01	92	41	0	200278016	54	6086
2026-01-24 04:41:08.69	255.62	8.30	-39.5	-40.8	27.0	3.02e+01	92	41	0	206045184	54	5979
2026-01-24 04:41:11.72	256.15	8.41	-39.8	-41.2	26.8	3.02e+01	92	41	0	211812352	54	6210
2026-01-24 04:41:14.75	256.68	8.53	-39.6	-41.0	27.0	3.02e+01	90	41	0	217579520	54	6086
2026-01-24 04:41:17.77	257.22	8.64	-39.5	-40.9	27.2	3.02e+01	92	41	0	223346688	54	6007
2026-01-24 04:41:20.80	257.76	8.75	-39.5	-40.8	27.2	3.02e+01	92	41	0	228589568	54	5945
2026-01-24 04:41:23.83	258.30	8.86	-39.6	-40.9	26.9	3.02e+01	91	41	0	234356736	54	6061
2026-01-24 04:41:26.86	258.85	8.97	-39.7	-41.0	27.0	3.02e+01	91	41	0	240123904	54	6108
2026-01-24 04:41:29.89	259.41	9.08	-39.5	-40.9	27.0	3.02e+01	88	41	0	245891072	54	6019
2026-01-24 04:41:32.91	259.97	9.18	-39.7	-41.0	27.0	3.02e+01	92	41	0	251658240	54	6109
2026-01-24 04:41:35.94	260.53	9.28	-39.5	-40.8	27.1	3.02e+01	90	41	0	256901120	54	5946
2026-01-24 04:41:38.97	261.09	9.38	-39.4	-40.7	27.2	3.02e+01	92	41	0	262668288	54	5923
2026-01-24 04:41:42.00	261.66	9.48	-39.0	-40.3	27.6	3.02e+01	92	41	0	268435456	54	5640
2026-01-24 04:41:45.02	262.24	9.58	-39.3	-40.6	27.3	3.02e+01	91	41	0	274202624	54	5845
2026-01-24 04:41:48.05	262.82	9.67	-39.1	-40.4	27.5	3.02e+01	92	41	0	279969792	52	6419
2026-01-24 04:41:51.08	263.40	9.77	-39.2	-40.5	27.4	3.02e+01	92	41	0	285736960	52	6481
2026-01-24 04:41:54.11	263.98	9.86	-39.0	-40.2	27.7	3.02e+01	92	41	0	290979840	52	6277
2026-01-24 04:41:57.14	264.57	9.95	-39.0	-40.3	27.5	3.02e+01	90	41	0	296747008	52	6320
2026-01-24 04:42:00.16	265.17	10.03	-39.2	-40.5	27.7	3.02e+01	92	41	0	302514176	52	6435
2026-01-24 04:42:03.19	265.76	10.12	-39.3	-40.6	27.4	3.02e+01	92	41	0	308281344	52	6553
2026-01-24 04:42:06.21	266.36	10.20	-39.1	-40.4	27.8	3.02e+01	92	41	0	314048512	52	6384
2026-01-24 04:42:09.24	266.97	10.28	-39.3	-40.6	27.6	3.02e+01	86	41	0	319815680	52	6532
2026-01-24 04:42:12.27	267.58	10.36	-39.2	-40.5	27.6	3.02e+01	92	41	0	325058560	52	6488
2026-01-24 04:42:15.30	268.19	10.43	-39.1	-40.4	27.6	3.02e+01	92	41	0	330825728	52	6391
2026-01-24 04:42:18.33	268.80	10.50	-39.1	-40.3	27.7	3.02e+01	92	41	0	336592896	52	6344
2026-01-24 04:42:21.36	269.42	10.57	-39.3	-40.6	27.5	3.02e+01	92	41	0	342360064	52	6566
2026-01-24 04:42:24.38	270.04	10.64	-39.0	-40.3	27.8	3.02e+01	90	41	0	348127232	52	6293
2026-01-24 04:42:27.41	270.66	10.70	-38.9	-40.1	27.9	3.02e+01	92	41	0	353370112	52	6203
2026-01-24 04:42:30.44	271.29	10.77	-38.9	-40.1	27.9	3.02e+01	90	41	0	359137280	52	6202
2026-01-24 04:42:33.47	271.91	10.82	-39.1	-40.4	27.7	3.02e+01	92	41	0	364904448	52	6405
2026-01-24 04:42:36.49	272.54	10.88	-39.2	-40.5	27.7	3.02e+01	91	41	0	370671616	52	6464
2026-01-24 04:42:39.52	273.18	10.93	-39.0	-40.3	27.8	3.02e+01	90	41	0	376438784	52	6347
2026-01-24 04:42:42.55	273.81	10.98	-38.8	-40.0	28.0	3.02e+01	91	41	0	382205952	52	6118
2026-01-24 04:42:45.58	274.45	11.03	-38.8	-40.1	27.9	3.02e+01	91	41	0	387973120	52	6166
2026-01-24 04:42:48.61	275.09	11.08	-39.1	-40.4	27.7	3.02e+01	90	41	0	393216000	52	6387
2026-01-24 04:42:51.64	275.73	11.12	-38.8	-40.1	27.9	3.02e+01	92	41	0	398983168	52	6169
2026-01-24 04:42:54.66	276.38	11.16	-38.8	-40.1	28.0	3.02e+01	92	41	0	404750336	52	6177
2026-01-24 04:42:57.69	277.02	11.19	-39.0	-40.2	27.8	3.02e+01	92	41	0	410517504	52	6256
2026-01-24 04:43:00.72	277.67	11.23	-38.9	-40.1	27.8	3.02e+01	92	41	0	416284672	52	6178
2026-01-24 04:43:03.75	278.32	11.26	-38.7	-39.9	28.2	3.02e+01	92	41	0	421527552	52	6041
2026-01-24 04:43:06.78	278.97	11.28	-38.7	-40.0	28.1	3.02e+01	90	41	0	427294720	52	6098
2026-01-24 04:43:09.80	279.62	11.31	-38.8	-40.1	27.9	3.02e+01	91	41	0	433061888	52	6152
2026-01-24 04:43:12.84	280.27	11.33	-38.6	-39.9	28.2	3.02e+01	91	41	0	438829056	52	6003
2026-01-24 04:43:15.86	280.92	11.34	-38.4	-39.6	28.4	3.02e+01	91	41	0	444596224	52	5841
2026-01-24 04:43:18.89	281.58	11.36	-38.4	-39.7	28.4	3.02e+01	89	41	0	450363392	52	5869
2026-01-24 04:43:21.91	282.23	11.37	-38.6	-39.9	28.1	3.02e+01	92	41	0	455606272	52	6032
2026-01-24 04:43:24.94	282.88	11.38	-38.5	-39.8	28.4	3.02e+01	92	41	0	461373440	52	5929
2026-01-24 04:43:27.97	283.54	11.38	-38.8	-40.0	28.0	3.02e+01	86	41	0	467140608	52	6132
2026-01-24 04:43:31.00	284.19	11.38	-38.7	-40.0	28.1	3.02e+01	92	41	0	472907776	52	6087
2026-01-24 04:43:34.02	284.85	11.38	-38.4	-39.6	28.4	3.02e+01	91	41	0	478674944	52	5847
2026-01-24 04:43:37.05	285.50	11.38	-38.5	-39.8	28.3	3.02e+01	91	41	0	484442112	52	5942
2026-01-24 04:43:40.08	286.15	11.37	-38.4	-39.7	28.3	3.02e+01	92	41	0	489684992	52	5865
2026-01-24 04:43:43.11	286.81	11.36	-38.3	-39.6	28.4	3.02e+01	92	41	0	495452160	52	5800
2026-01-24 04:43:46.14	287.46	11.34	-38.9	-40.2	27.9	3.02e+01	90	41	0	501219328	52	6231
2026-01-24 04:43:49.17	288.11	11.33	-39.0	-40.3	27.8	3.02e+01	92	41	0	506986496	52	6313
2026-01-24 04:43:52.20	288.77	11.31	-38.8	-40.0	28.1	3.02e+01	92	41	0	512753664	52	6117
2026-01-24 04:43:55.23	289.42	11.28	-38.5	-39.8	28.3	3.02e+01	92	41	0	518520832	52	5959
2026-01-24 04:43:58.26	290.07	11.26	-38.8	-40.0	28.1	3.02e+01	92	41	0	523763712	52	6131
2026-01-24 04:44:01.29	290.71	11.23	-38.9	-40.1	27.9	3.02e+01	92	41	0	529530880	52	6202
2026-01-24 04:44:04.32	291.36	11.19	-39.1	-40.4	27.7	3.02e+01	92	42	0	535298048	52	6357
2026-01-24 04:44:07.35	292.00	11.16	-38.9	-40.1	28.0	3.02e+01	88	41	0	541065216	52	6183
2026-01-24 04:44:10.38	292.65	11.12	-39.1	-40.4	27.8	3.02e+01	87	42	0	546832384	52	6375
2026-01-24 04:44:13.41	293.29	11.08	-39.1	-40.4	27.7	3.02e+01	90	41	0	552599552	52	6379
2026-01-24 04:44:16.43	293.93	11.03	-39.0	-40.3	27.9	3.02e+01	92	41	0	557842432	52	6297
2026-01-24 04:44:19.46	294.56	10.99	-39.1	-40.4	27.6	3.02e+01	92	41	0	563609600	52	6416
2026-01-24 04:44:22.49	295.20	10.93	-38.5	-39.8	28.2	3.02e+01	92	41	0	569376768	52	5970
2026-01-24 04:44:25.52	295.83	10.88	-38.6	-39.9	28.2	3.02e+01	91	41	0	575143936	52	6007
2026-01-24 04:44:28.55	296.46	10.83	-39.0	-40.3	27.8	3.02e+01	92	41	0	580911104	52	6345
2026-01-24 04:44:31.57	297.08	10.77	-39.0	-40.3	27.8	3.02e+01	90	41	0	586678272	52	6324
2026-01-24 04:44:34.60	297.71	10.71	-38.6	-39.9	28.1	3.02e+01	92	41	0	591921152	52	6041
2026-01-24 04:44:37.63	298.33	10.64	-38.8	-40.0	28.0	3.02e+01	92	41	0	597688320	52	6134
2026-01-24 04:44:40.66	298.95	10.57	-38.8	-40.1	28.0	3.02e+01	92	41	0	603455488	52	6137
2026-01-24 04:44:43.69	299.56	10.50	-39.0	-40.3	27.7	3.02e+01	92	42	0	609222656	52	6339
2026-01-24 04:44:46.71	300.17	10.43	-38.4	-39.6	28.3	3.02e+01	92	41	0	614989824	52	5851
2026-01-24 04:44:49.74	300.78	10.36	-38.9	-40.2	27.9	3.02e+01	92	41	0	620756992	52	6254
2026-01-24 04:44:52.77	301.39	10.28	-38.6	-39.9	28.2	3.02e+01	92	41	0	625999872	52	5996
2026-01-24 04:44:55.80	301.99	10.20	-39.1	-40.4	27.7	3.02e+01	91	42	0	631767040	52	6407
2026-01-24 04:44:58.83	302.59	10.12	-39.1	-40.4	27.7	3.02e+01	90	42	0	637534208	52	6365
2026-01-24 04:45:01.85	303.18	10.04	-38.9	-40.2	27.9	3.02e+01	92	41	0	643301376	52	6232
2026-01-24 04:45:04.89	303.78	9.95	-39.2	-40.5	27.7	3.02e+01	92	42	0	649068544	52	6456
2026-01-24 04:45:07.92	304.36	9.86	-39.5	-40.9	27.2	3.02e+01	92	42	0	654835712	52	6738
2026-01-24 04:45:10.95	304.95	9.77	-38.8	-40.1	27.9	3.02e+01	87	42	0	660078592	52	6168
2026-01-24 04:45:13.98	305.53	9.68	-39.2	-40.6	27.4	3.02e+01	92	42	0	665845760	52	6529
2026-01-24 04:45:17.00	306.10	9.59	-38.9	-40.2	27.8	3.02e+01	92	42	0	671612928	52	6254
2026-01-24 04:45:20.03	306.68	9.49	-39.1	-40.5	27.5	3.02e+01	60	41	0	677380096	52	6437
2026-01-24 04:45:23.06	307.24	9.39	-38.8	-40.1	27.9	3.02e+01	64	42	0	683147264	52	6149
2026-01-24 04:45:26.09	307.81	9.29	-39.0	-40.3	27.8	3.02e+01	60	42	0	688914432	52	6295
2026-01-24 04:45:29.12	308.37	9.19	-39.2	-40.5	27.6	3.02e+01	49	42	0	694157312	52	6457
2026-01-24 04:45:32.15	308.92	9.09	-39.2	-40.5	27.6	3.02e+01	57	42	0	699924480	52	6436
2026-01-24 04:45:35.17	309.47	8.98	-39.2	-40.5	27.5	3.02e+01	60	42	0	705691648	52	6425
2026-01-24 04:45:38.20	310.02	8.87	-39.2	-40.5	27.6	3.02e+01	59	42	0	711458816	52	6465
2026-01-24 04:45:41.23	310.56	8.77	-39.3	-40.6	27.5	3.02e+01	60	41	0	717225984	52	6543
2026-01-24 04:45:44.26	311.10	8.66	-39.2	-40.5	27.5	3.02e+01	58	42	0	722468864	52	6456
2026-01-24 04:45:47.28	311.64	8.54	-39.4	-40.8	27.3	3.02e+01	61	42	0	728236032	52	6688
2026-01-24 04:45:50.31	312.17	8.43	-38.7	-40.0	27.9	3.02e+01	55	42	0	734003200	52	6127
2026-01-24 04:45:53.34	312.69	8.32	-38.8	-40.1	27.8	3.02e+01	50	42	0	739770368	52	6199
2026-01-24 04:45:56.37	313.21	8.20	-39.6	-40.9	27.2	3.02e+01	60	42	0	745537536	52	6804
2026-01-24 04:45:59.39	313.73	8.08	-39.5	-40.9	27.0	3.02e+01	60	42	0	751304704	52	6762
2026-01-24 04:46:02.42	314.24	7.97	-39.4	-40.7	27.3	3.02e+01	61	42	0	757071872	52	6635
2026-01-24 04:46:05.45	314.75	7.85	-39.6	-41.0	26.9	3.02e+01	58	42	0	762314752	52	6850
2026-01-24 04:46:08.48	315.25	7.73	-39.5	-40.9	27.2	3.02e+01	59	42	0	768081920	52	6727
2026-01-24 04:46:11.50	315.75	7.60	-39.5	-40.8	27.2	3.02e+01	48	42	0	773849088	52	6701
2026-01-24 04:46:14.53	316.25	7.48	-39.6	-40.9	27.0	3.02e+01	44	42	0	779616256	52	6781
2026-01-24 04:46:17.56	316.74	7.36	-39.2	-40.5	27.3	3.02e+01	59	42	0	785383424	54	5762
2026-01-24 04:46:20.59	317.22	7.23	-39.5	-40.8	27.0	3.02e+01	59	42	0	790626304	54	5990
2026-01-24 04:46:23.62	317.70	7.11	-39.9	-41.3	26.7	3.02e+01	59	42	0	796393472	54	6319
2026-01-24 04:46:26.64	318.18	6.98	-39.4	-40.7	27.2	3.02e+01	60	42	0	802160640	54	5916
2026-01-24 04:46:29.67	318.65	6.85	-39.4	-40.8	27.0	3.02e+01	60	42	0	807927808	54	5944
2026-01-24 04:46:32.70	319.12	6.72	-40.0	-41.5	26.4	3.02e+01	60	42	0	813694976	54	6433
2026-01-24 04:46:35.73	319.59	6.59	-39.7	-41.1	26.8	3.02e+01	54	42	0	819462144	54	6147
2026-01-24 04:46:38.76	320.05	6.46	-40.1	-41.5	26.5	3.02e+01	45	42	0	824705024	54	6480
2026-01-24 04:46:41.78	320.50	6.33	-40.6	-42.0	25.9	3.02e+01	60	42	0	830472192	54	6865
2026-01-24 04:46:44.81	320.95	6.20	-40.1	-41.5	26.1	3.02e+01	63	42	0	836239360	54	6497
2026-01-24 04:46:47.84	321.40	6.07	-40.0	-41.4	26.5	3.02e+01	60	42	0	842006528	54	6357
2026-01-24 04:46:50.87	321.84	5.94	-39.6	-41.0	26.9	3.02e+01	61	42	0	847773696	54	6081
2026-01-24 04:46:53.90	322.28	5.81	-40.2	-41.6	26.1	3.02e+01	59	42	0	853540864	56	5849
2026-01-24 04:46:56.92	322.71	5.67	-39.8	-41.2	26.7	3.02e+01	58	42	0	858783744	54	6224
2026-01-24 04:46:59.95	323.14	5.54	-39.3	-40.7	27.0	3.02e+01	53	42	0	864550912	54	5900
2026-01-24 04:47:02.98	323.57	5.40	-40.1	-41.5	26.3	3.02e+01	59	42	0	870318080	56	5768
2026-01-24 04:47:06.01	323.99	5.27	-40.2	-41.7	25.9	3.02e+01	58	42	0	876085248	54	6611
2026-01-24 04:47:09.04	324.41	5.13	-39.3	-40.7	26.8	3.02e+01	59	42	0	881852416	52	6601
2026-01-24 04:47:12.07	324.82	5.00	-40.6	-42.1	25.6	3.02e+01	59	42	0	887619584	54	6922
2026-01-24 04:47:15.10	325.23	4.86	-40.1	-41.5	25.8	3.02e+01	57	42	0	892862464	54	6490
2026-01-24 04:47:18.13	325.64	4.72	-40.8	-42.3	25.4	3.02e+01	56	42	0	898629632	56	6319
2026-01-24 04:47:21.16	326.04	4.59	-41.9	-43.6	24.1	3.02e+01	53	42	0	904396800	58	6517
2026-01-24 04:47:24.19	326.44	4.45	-41.5	-43.1	24.3	3.02e+01	59	42	0	910163968	54	7738
2026-01-24 04:47:27.22	326.83	4.31	-41.6	-43.2	24.5	3.02e+01	56	42	0	915931136	56	6998
2026-01-24 04:47:30.25	327.22	4.18	-41.7	-43.3	24.5	3.02e+01	59	42	0	921698304	56	7070
2026-01-24 04:47:33.27	327.61	4.04	-40.7	-42.2	25.3	3.02e+01	58	42	0	926941184	56	6243
2026-01-24 04:47:36.30	327.99	3.90	-44.3	-46.5	21.1	3.02e+01	59	42	0	932708352	60	8176
2026-01-24 04:47:39.33	328.37	3.76	-40.2	-41.7	25.4	3.02e+01	62	42	0	938475520	54	6600
2026-01-24 04:47:42.36	328.74	3.62	-41.0	-42.6	24.5	3.02e+01	57	42	0	944242688	54	7360
2026-01-24 04:47:45.39	329.11	3.49	-42.2	-43.9	23.3	3.02e+01	47	42	0	950009856	58	6797
2026-01-24 04:47:48.42	329.48	3.35	-41.8	-43.6	23.4	3.02e+01	56	42	0	955777024	58	6533
2026-01-24 04:47:51.45	329.85	3.21	-41.5	-43.3	23.5	3.02e+01	62	42	0	961019904	58	6303
2026-01-24 04:47:54.48	330.21	3.07	-45.7	-49.1	17.9	3.02e+01	60	42	0	966787072	60	10984
2026-01-24 04:47:57.50	330.56	2.93	-50.5	-68.5	3.5	3.02e+01	0	42	104	970457088	60	102660
2026-01-24 04:48:00.53	330.91	2.79	-51.3	-69.2	3.5	3.02e+01	0	42	104	970457088	60	111583
2026-01-24 04:48:03.56	331.26	2.65	-51.6	-69.5	3.5	3.02e+01	0	42	104	970457088	60	114275
2026-01-24 04:48:06.59	331.61	2.51	-51.7	-69.6	3.5	3.02e+01	0	42	104	970457088	60	116357
2026-01-24 04:48:09.62	331.95	2.38	-51.7	-69.7	3.5	3.02e+01	0	42	104	970457088	60	118027
2026-01-24 04:48:12.65	332.29	2.24	-51.7	-69.6	3.5	3.02e+01	0	42	104	970457088	60	115896
2026-01-24 04:48:15.68	332.63	2.10	-51.5	-69.5	3.5	3.02e+01	0	42	104	970457088	60	115075
2026-01-24 04:48:18.71	332.96	1.96	-51.5	-69.6	3.5	3.02e+01	0	42	104	970457088	60	115844
2026-01-24 04:48:21.74	333.29	1.82	-51.9	-69.7	3.5	3.02e+01	0	42	104	970457088	60	117012
2026-01-24 04:48:24.77	333.62	1.68	-51.8	-69.6	3.5	3.02e+01	0	42	104	970457088	60	116616
2026-01-24 04:48:27.79	333.94	1.54	-51.8	-69.7	3.5	3.02e+01	0	42	104	970457088	60	117171
2026-01-24 04:48:30.82	334.26	1.40	-51.9	-69.6	3.5	3.02e+01	0	42	104	970457088	60	116891
2026-01-24 04:48:33.85	334.58	1.27	-52.0	-69.8	3.5	3.02e+01	0	42	104	970457088	60	118370
2026-01-24 04:48:36.88	334.89	1.13	-51.9	-69.7	3.5	3.02e+01	0	42	104	970457088	60	117753
2026-01-24 04:48:39.92	335.20	0.99	-51.9	-69.7	3.5	3.02e+01	0	42	104	970457088	60	117197
2026-01-24 04:48:42.95	335.51	0.85	-51.8	-69.6	3.5	3.02e+01	0	42	104	970457088	60	116101
2026-01-24 04:48:45.97	335.81	0.71	-51.9	-69.7	3.5	3.02e+01	0	42	104	970457088	60	117786
2026-01-24 04:48:49.00	336.12	0.58	-51.9	-69.8	3.5	3.02e+01	0	42	104	970457088	60	118336
2026-01-24 04:48:52.03	336.42	0.44	-51.9	-69.7	3.5	3.02e+01	0	42	104	970457088	60	118243
2026-01-24 04:48:55.06	336.71	0.30	-51.8	-69.6	3.5	3.02e+01	0	42	104	970457088	60	116892
2026-01-24 04:48:58.09	337.00	0.16	-51.8	-69.6	3.5	3.02e+01	0	42	104	970457088	60	116336
2026-01-24 04:49:01.13	337.30	0.02	-51.9	-69.7	3.5	3.02e+01	0	42	104	970457088	60	117465

#Closed at: 2026-01-24 04:49:01
#Recorded file [970 MB]: D:/lorett/data/35029_260124_163803.dat