passes_logs/2026/01/24/R4.6S_Anadyr/R4.6S_Anadyr__20260124_130554_NOAA_21_JPSS-2_rec.log

#Pass ID: 20260124_130554_NOAA 21 (JPSS-2)
#Satellite: NOAA 21 (JPSS-2)
#Configuration: NOAA-21
#almurnet v.1.7.20251203
#Start time: 2026-01-24 13:05:57

#Version: 2.2.20231116
#Station: R4.6S_Anadyr
#Location: 177.4865 lon 64.73178 lat
#TLE: 1 54234U 22150A   26024.10530052  .00000243  00000+0  13599-3 0  9996
#TLE: 2 54234  98.7508 324.8953 0000717 223.3896 136.7224 14.19538773166106

#Time	Az	El	Level	Level2	SNR	BER	BlckErr	Temp	State	Recorded	gain1	gain2
2026-01-24 13:05:57.96	18.84	0.19	-52.9	-64.3	3.3	1.54e+00	0	40	0	0	60	57308
2026-01-24 13:06:02.00	19.06	0.41	-51.5	-64.4	3.5	1.52e+00	0	40	104	0	60	58338
2026-01-24 13:06:06.04	19.28	0.64	-51.4	-64.2	3.5	1.52e+00	0	40	104	0	60	56879
2026-01-24 13:06:10.08	19.50	0.86	-51.2	-64.0	3.5	1.52e+00	0	40	104	0	60	55936
2026-01-24 13:06:14.12	19.72	1.09	-50.8	-63.6	3.5	1.51e+00	0	40	104	0	60	53042
2026-01-24 13:06:18.16	19.95	1.31	-50.3	-63.1	3.5	1.52e+00	0	40	104	0	60	50230
2026-01-24 13:06:22.20	20.18	1.54	-49.7	-62.6	3.5	1.52e+00	0	40	104	0	60	47253
2026-01-24 13:06:26.24	20.41	1.77	-49.7	-62.4	3.5	1.52e+00	0	40	104	0	60	46434
2026-01-24 13:06:30.28	20.65	2.00	-49.7	-62.5	3.5	1.52e+00	0	40	104	0	60	46804
2026-01-24 13:06:34.32	20.89	2.23	-49.7	-62.4	3.5	1.52e+00	0	40	104	0	60	46340
2026-01-24 13:06:38.37	21.13	2.47	-49.6	-62.0	3.5	1.52e+00	0	41	104	0	60	44180
2026-01-24 13:06:42.41	21.38	2.70	-48.4	-53.6	7.5	1.25e-01	123	41	0	2097152	60	16818
2026-01-24 13:06:46.45	21.63	2.94	-42.2	-43.7	18.3	0.00e+00	122	40	0	14680064	58	6048
2026-01-24 13:06:50.49	21.89	3.18	-43.5	-45.3	16.4	0.00e+00	122	41	0	27262976	58	7250
2026-01-24 13:06:54.53	22.14	3.42	-41.4	-42.8	19.1	0.00e+00	122	41	0	39845888	58	5417
2026-01-24 13:06:58.56	22.41	3.66	-45.6	-48.0	14.7	8.41e-03	123	41	0	45088768	60	8775
2026-01-24 13:07:02.60	22.67	3.91	-42.6	-44.2	18.0	7.00e-07	123	41	0	57671680	60	5667
2026-01-24 13:07:06.63	22.94	4.15	-41.4	-42.7	19.2	0.00e+00	122	41	0	71303168	56	6041
2026-01-24 13:07:10.67	23.22	4.40	-42.4	-43.9	18.5	0.00e+00	122	41	0	82837504	58	6165
2026-01-24 13:07:14.71	23.50	4.65	-43.6	-45.3	16.6	0.00e+00	123	41	0	96468992	58	7251
2026-01-24 13:07:18.75	23.78	4.90	-42.2	-43.6	19.0	0.00e+00	123	41	0	109051904	58	5970
2026-01-24 13:07:22.79	24.07	5.15	-43.0	-44.5	16.8	0.00e+00	123	41	0	121634816	58	6624
2026-01-24 13:07:26.82	24.36	5.41	-42.7	-44.2	18.4	0.00e+00	122	41	0	134217728	60	5718
2026-01-24 13:07:30.86	24.66	5.66	-44.0	-45.8	16.6	0.00e+00	122	41	0	146800640	60	6842
2026-01-24 13:07:34.90	24.96	5.92	-41.7	-43.0	19.4	0.00e+00	123	41	0	159383552	56	6276
2026-01-24 13:07:38.94	25.27	6.18	-41.8	-43.1	18.8	0.00e+00	122	41	0	171966464	56	6320
2026-01-24 13:07:42.98	25.59	6.45	-42.5	-44.0	18.9	0.00e+00	120	41	0	184549376	56	6985
2026-01-24 13:07:47.01	25.90	6.71	-42.1	-43.5	18.9	0.00e+00	123	41	0	197132288	56	6623
2026-01-24 13:07:51.05	26.23	6.98	-41.6	-42.9	19.5	0.00e+00	120	41	0	209715200	56	6146
2026-01-24 13:07:55.09	26.56	7.25	-41.5	-42.8	19.7	0.00e+00	123	41	0	222298112	56	6076
2026-01-24 13:07:59.12	26.89	7.52	-41.0	-42.2	20.0	0.00e+00	123	41	0	234881024	56	5702
2026-01-24 13:08:03.16	27.23	7.79	-39.6	-40.7	21.3	0.00e+00	120	41	0	247463936	52	6000
2026-01-24 13:08:07.20	27.58	8.06	-39.2	-40.3	21.7	0.00e+00	122	41	0	260046848	52	5767
2026-01-24 13:08:11.23	27.93	8.34	-38.9	-39.9	22.1	0.00e+00	123	41	0	272629760	52	5520
2026-01-24 13:08:15.28	28.30	8.62	-39.4	-40.5	21.6	0.00e+00	123	41	0	285212672	50	6588
2026-01-24 13:08:19.31	28.66	8.90	-38.6	-39.6	22.5	0.00e+00	123	41	0	297795584	50	5965
2026-01-24 13:08:23.35	29.04	9.18	-38.4	-39.4	22.6	0.00e+00	122	41	0	310378496	50	5795
2026-01-24 13:08:27.39	29.42	9.47	-38.6	-39.6	22.5	0.00e+00	123	41	0	322961408	50	5987
2026-01-24 13:08:31.43	29.80	9.76	-38.6	-39.6	22.5	0.00e+00	123	41	0	335544320	50	5941
2026-01-24 13:08:35.47	30.20	10.05	-38.4	-39.4	22.7	0.00e+00	123	41	0	348127232	50	5804
2026-01-24 13:08:39.51	30.60	10.34	-38.1	-39.0	22.9	0.00e+00	123	41	0	360710144	50	5592
2026-01-24 13:08:43.54	31.01	10.64	-38.1	-39.1	23.0	0.00e+00	123	41	0	373293056	50	5618
2026-01-24 13:08:47.58	31.43	10.93	-37.9	-38.9	23.0	0.00e+00	122	41	0	385875968	50	5487
2026-01-24 13:08:51.62	31.86	11.23	-37.7	-38.7	23.2	0.00e+00	122	41	0	398458880	48	6017
2026-01-24 13:08:55.66	32.29	11.53	-37.9	-38.9	23.0	0.00e+00	124	41	0	411041792	48	6137
2026-01-24 13:08:59.69	32.73	11.84	-37.3	-38.3	23.6	0.00e+00	120	41	0	423624704	48	5732
2026-01-24 13:09:03.73	33.19	12.14	-37.4	-38.4	23.7	0.00e+00	122	41	0	437256192	48	5796
2026-01-24 13:09:07.77	33.65	12.45	-37.5	-38.4	23.4	0.00e+00	122	41	0	448790528	48	5848
2026-01-24 13:09:11.81	34.12	12.76	-37.4	-38.4	23.5	0.00e+00	122	41	0	462422016	48	5807
2026-01-24 13:09:15.84	34.60	13.08	-37.5	-38.4	23.6	0.00e+00	122	41	0	475004928	48	5831
2026-01-24 13:09:19.88	35.09	13.39	-37.4	-38.4	23.4	0.00e+00	123	42	0	487587840	48	5799
2026-01-24 13:09:23.92	35.59	13.71	-37.7	-38.6	23.4	0.00e+00	122	42	0	500170752	48	5964
2026-01-24 13:09:27.95	36.10	14.03	-37.8	-38.7	23.3	0.00e+00	120	42	0	512753664	48	6059
2026-01-24 13:09:31.99	36.62	14.35	-37.7	-38.7	23.5	0.00e+00	123	41	0	525336576	48	6006
2026-01-24 13:09:36.03	37.16	14.68	-37.8	-38.8	23.4	0.00e+00	121	42	0	537919488	48	6070
2026-01-24 13:09:40.07	37.70	15.00	-37.9	-38.8	23.3	0.00e+00	123	42	0	550502400	48	6118
2026-01-24 13:09:44.11	38.26	15.33	-37.7	-38.7	23.5	0.00e+00	122	42	0	563085312	48	6009
2026-01-24 13:09:48.15	38.83	15.66	-37.9	-38.9	23.2	0.00e+00	123	42	0	575668224	48	6167
2026-01-24 13:09:52.18	39.41	15.99	-37.8	-38.8	23.4	0.00e+00	123	41	0	588251136	48	6068
2026-01-24 13:09:56.22	40.00	16.33	-38.0	-38.9	23.2	0.00e+00	120	42	0	600834048	48	6176
2026-01-24 13:10:00.25	40.60	16.66	-38.2	-39.1	23.1	0.00e+00	123	42	0	613416960	48	6329
2026-01-24 13:10:04.29	41.22	17.00	-38.2	-39.2	23.1	0.00e+00	122	42	0	625999872	48	6395
2026-01-24 13:10:08.33	41.86	17.34	-38.3	-39.2	23.0	0.00e+00	123	42	0	638582784	48	6415
2026-01-24 13:10:12.36	42.50	17.68	-38.2	-39.2	23.1	0.00e+00	122	42	0	651165696	48	6407
2026-01-24 13:10:16.39	43.16	18.02	-38.4	-39.4	23.0	0.00e+00	123	42	0	663748608	48	6514
2026-01-24 13:10:20.43	43.84	18.36	-38.4	-39.3	22.9	0.00e+00	120	42	0	676331520	48	6479
2026-01-24 13:10:24.47	44.53	18.71	-37.9	-38.9	23.4	0.00e+00	123	42	0	688914432	50	5488
2026-01-24 13:10:28.51	45.23	19.05	-37.6	-38.6	23.6	0.00e+00	122	42	0	701497344	48	5942
2026-01-24 13:10:32.55	45.96	19.39	-37.5	-38.4	23.7	0.00e+00	122	42	0	714080256	48	5818
2026-01-24 13:10:36.59	46.69	19.74	-37.2	-38.2	23.8	0.00e+00	123	41	0	726663168	48	5666
2026-01-24 13:10:40.63	47.45	20.09	-37.4	-38.3	23.8	0.00e+00	123	42	0	739246080	48	5769
2026-01-24 13:10:44.67	48.22	20.43	-37.0	-37.9	24.1	0.00e+00	123	42	0	751828992	48	5526
2026-01-24 13:10:48.71	49.01	20.78	-37.0	-37.9	24.0	0.00e+00	123	42	0	764411904	48	5510
2026-01-24 13:10:52.75	49.81	21.12	-36.4	-37.3	24.5	0.00e+00	123	42	0	776994816	46	5728
2026-01-24 13:10:56.79	50.64	21.46	-36.2	-37.1	24.7	0.00e+00	120	41	0	789577728	46	5606
2026-01-24 13:11:00.83	51.48	21.80	-36.2	-37.1	24.7	0.00e+00	122	42	0	803209216	46	5618
2026-01-24 13:11:04.87	52.34	22.14	-36.0	-36.8	25.0	0.00e+00	122	42	0	814743552	46	5443
2026-01-24 13:11:08.91	53.21	22.48	-35.8	-36.7	25.0	0.00e+00	120	42	0	828375040	46	5351
2026-01-24 13:11:12.95	54.11	22.82	-36.1	-36.9	24.9	0.00e+00	123	42	0	840957952	46	5519
2026-01-24 13:11:16.98	55.03	23.15	-36.0	-36.9	24.9	0.00e+00	123	42	0	853540864	46	5491
2026-01-24 13:11:21.02	55.96	23.48	-36.2	-37.1	24.8	0.00e+00	122	42	0	866123776	46	5639
2026-01-24 13:11:25.06	56.91	23.80	-36.5	-37.3	24.6	0.00e+00	123	42	0	878706688	46	5785
2026-01-24 13:11:29.10	57.89	24.13	-36.6	-37.5	24.5	0.00e+00	122	42	0	891289600	46	5892
2026-01-24 13:11:33.13	58.88	24.44	-36.6	-37.5	24.4	0.00e+00	123	42	0	903872512	46	5859
2026-01-24 13:11:37.17	59.89	24.75	-37.0	-37.9	24.1	0.00e+00	123	42	0	916455424	46	6192
2026-01-24 13:11:41.21	60.93	25.06	-37.4	-38.3	23.7	0.00e+00	122	42	0	929038336	46	6463
2026-01-24 13:11:45.24	61.98	25.36	-36.7	-37.6	24.4	0.00e+00	123	42	0	941621248	46	5937
2026-01-24 13:11:49.28	63.05	25.65	-36.9	-37.8	24.2	0.00e+00	123	42	0	954204160	46	6114
2026-01-24 13:11:53.32	64.14	25.94	-36.7	-37.6	24.4	0.00e+00	120	42	0	966787072	46	5971
2026-01-24 13:11:57.35	65.25	26.21	-36.9	-37.8	24.3	0.00e+00	123	42	0	979369984	46	6072
2026-01-24 13:12:01.39	66.38	26.48	-37.4	-38.3	24.0	0.00e+00	122	42	0	991952896	46	6444
2026-01-24 13:12:05.43	67.53	26.74	-36.5	-37.3	24.5	0.00e+00	122	42	0	1004535808	46	5781
2026-01-24 13:12:09.47	68.69	26.99	-36.7	-37.6	24.4	0.00e+00	123	42	0	1017118720	46	5980
2026-01-24 13:12:13.51	69.88	27.23	-36.7	-37.5	24.4	0.00e+00	121	42	0	1029701632	46	5921
2026-01-24 13:12:17.55	71.08	27.46	-37.1	-38.0	24.2	0.00e+00	120	42	0	1042284544	46	6230
2026-01-24 13:12:21.59	72.30	27.67	-36.8	-37.7	24.3	0.00e+00	122	42	0	1054867456	46	6051
2026-01-24 13:12:25.62	73.53	27.88	-37.3	-38.2	24.0	0.00e+00	122	42	0	1067450368	46	6398
2026-01-24 13:12:29.66	74.78	28.07	-37.0	-37.9	24.1	0.00e+00	123	42	0	1080033280	46	6157
2026-01-24 13:12:33.70	76.04	28.25	-36.7	-37.6	24.5	0.00e+00	123	42	0	1092616192	46	5936
2026-01-24 13:12:37.73	77.32	28.41	-37.0	-37.9	24.3	0.00e+00	120	42	0	1105199104	46	6147
2026-01-24 13:12:41.77	78.61	28.56	-36.9	-37.8	24.3	0.00e+00	122	42	0	1117782016	46	6069
2026-01-24 13:12:45.81	79.91	28.70	-37.1	-38.0	24.2	0.00e+00	123	42	0	1130364928	46	6236
2026-01-24 13:12:49.85	81.22	28.82	-37.1	-38.0	24.1	0.00e+00	123	42	0	1142947840	46	6243
2026-01-24 13:12:53.88	82.54	28.92	-36.8	-37.6	24.5	0.00e+00	122	42	0	1155530752	46	5991
2026-01-24 13:12:57.91	83.86	29.01	-37.2	-38.1	24.0	0.00e+00	123	42	0	1168113664	46	6334
2026-01-24 13:13:01.95	85.20	29.08	-36.6	-37.5	24.3	0.00e+00	123	42	0	1180696576	46	5912
2026-01-24 13:13:05.99	86.54	29.14	-36.9	-37.8	24.2	0.00e+00	123	42	0	1194328064	46	6112
2026-01-24 13:13:10.03	87.88	29.17	-37.0	-37.9	24.1	0.00e+00	120	42	0	1206910976	46	6162
2026-01-24 13:13:14.06	89.23	29.20	-36.5	-37.4	24.4	0.00e+00	123	42	0	1219493888	46	5838
2026-01-24 13:13:18.10	90.58	29.20	-37.0	-37.9	24.3	0.00e+00	122	42	0	1232076800	46	6176
2026-01-24 13:13:22.14	91.92	29.19	-37.2	-38.1	24.1	0.00e+00	123	42	0	1244659712	46	6303
2026-01-24 13:13:26.18	93.27	29.16	-37.2	-38.2	24.0	0.00e+00	123	42	0	1257242624	46	6370
2026-01-24 13:13:30.22	94.61	29.11	-37.2	-38.1	24.2	0.00e+00	123	42	0	1269825536	46	6333
2026-01-24 13:13:34.25	95.95	29.05	-37.0	-37.9	24.3	0.00e+00	123	42	0	1282408448	46	6195
2026-01-24 13:13:38.29	97.28	28.97	-37.0	-38.0	24.3	0.00e+00	122	42	0	1294991360	46	6224
2026-01-24 13:13:42.33	98.61	28.88	-36.8	-37.7	24.3	0.00e+00	122	42	0	1307574272	46	6047
2026-01-24 13:13:46.36	99.93	28.77	-37.4	-38.4	23.9	0.00e+00	123	42	0	1320157184	46	6531
2026-01-24 13:13:50.40	101.24	28.64	-37.0	-37.9	24.1	0.00e+00	123	42	0	1332740096	46	6202
2026-01-24 13:13:54.44	102.54	28.50	-36.8	-37.7	24.2	0.00e+00	123	42	0	1345323008	46	6019
2026-01-24 13:13:58.47	103.82	28.34	-37.0	-38.0	24.0	0.00e+00	122	42	0	1357905920	46	6212
2026-01-24 13:14:02.51	105.09	28.17	-37.1	-38.1	23.8	0.00e+00	122	42	0	1370488832	46	6282
2026-01-24 13:14:06.55	106.36	27.99	-36.7	-37.6	24.2	0.00e+00	123	42	0	1383071744	46	5994
2026-01-24 13:14:10.59	107.60	27.79	-36.8	-37.7	24.3	0.00e+00	123	42	0	1395654656	46	6036
2026-01-24 13:14:14.62	108.83	27.58	-36.8	-37.6	24.2	0.00e+00	123	42	0	1408237568	46	5991
2026-01-24 13:14:18.66	110.04	27.36	-36.6	-37.5	24.4	0.00e+00	122	42	0	1420820480	46	5915
2026-01-24 13:14:22.70	111.24	27.13	-36.5	-37.4	24.7	0.00e+00	123	42	0	1433403392	46	5806
2026-01-24 13:14:26.73	112.42	26.88	-36.7	-37.6	24.5	0.00e+00	123	42	0	1445986304	46	5971
2026-01-24 13:14:30.77	113.58	26.63	-36.5	-37.4	24.5	0.00e+00	122	42	0	1458569216	46	5808
2026-01-24 13:14:34.81	114.73	26.36	-36.6	-37.5	24.6	0.00e+00	123	42	0	1471152128	46	5864
2026-01-24 13:14:38.85	115.85	26.09	-36.7	-37.6	24.2	0.00e+00	122	42	0	1483735040	46	5975
2026-01-24 13:14:42.89	116.96	25.81	-36.8	-37.7	24.2	0.00e+00	122	42	0	1496317952	46	6045
2026-01-24 13:14:46.93	118.05	25.52	-36.6	-37.5	24.5	0.00e+00	123	42	0	1508900864	46	5887
2026-01-24 13:14:50.97	119.12	25.22	-36.9	-37.9	24.1	0.00e+00	123	42	0	1521483776	46	6136
2026-01-24 13:14:55.01	120.16	24.91	-36.8	-37.7	24.4	0.00e+00	123	42	0	1534066688	46	6030
2026-01-24 13:14:59.05	121.19	24.60	-36.1	-37.0	24.8	0.00e+00	122	42	0	1546649600	46	5559
2026-01-24 13:15:03.09	122.20	24.29	-36.5	-37.4	24.6	0.00e+00	120	42	0	1560281088	46	5817
2026-01-24 13:15:07.13	123.19	23.97	-36.5	-37.4	24.6	0.00e+00	123	42	0	1571815424	46	5848
2026-01-24 13:15:11.16	124.16	23.64	-36.6	-37.5	24.5	0.00e+00	122	42	0	1584398336	46	5907
2026-01-24 13:15:15.20	125.11	23.31	-36.7	-37.6	24.4	0.00e+00	123	42	0	1598029824	46	5983
2026-01-24 13:15:19.24	126.04	22.98	-36.4	-37.3	24.5	0.00e+00	123	42	0	1610612736	46	5787
2026-01-24 13:15:23.27	126.94	22.64	-36.6	-37.5	24.4	0.00e+00	123	42	0	1623195648	46	5906
2026-01-24 13:15:27.31	127.84	22.31	-36.2	-37.1	24.6	0.00e+00	121	42	0	1635778560	46	5624
2026-01-24 13:15:31.34	128.71	21.96	-36.3	-37.2	24.7	0.00e+00	118	42	0	1648361472	46	5683
2026-01-24 13:15:35.38	129.56	21.62	-36.8	-37.7	24.2	0.00e+00	123	42	0	1660944384	46	6046
2026-01-24 13:15:39.42	130.40	21.28	-36.7	-37.6	24.4	0.00e+00	123	42	0	1673527296	46	5965
2026-01-24 13:15:43.46	131.22	20.93	-36.5	-37.4	24.4	0.00e+00	123	42	0	1686110208	46	5795
2026-01-24 13:15:47.49	132.02	20.58	-36.7	-37.6	24.2	0.00e+00	122	42	0	1698693120	46	5949
2026-01-24 13:15:51.53	132.80	20.24	-36.8	-37.7	24.2	0.00e+00	122	42	0	1711276032	46	6062
2026-01-24 13:15:55.57	133.57	19.89	-36.8	-37.7	24.2	0.00e+00	123	42	0	1723858944	46	6030
2026-01-24 13:15:59.61	134.32	19.54	-36.8	-37.7	24.2	0.00e+00	122	42	0	1736441856	46	6036
2026-01-24 13:16:03.65	135.05	19.19	-37.1	-38.1	23.9	0.00e+00	123	42	0	1749024768	46	6285
2026-01-24 13:16:07.69	135.77	18.85	-37.4	-38.3	23.7	0.00e+00	121	42	0	1761607680	46	6470
2026-01-24 13:16:11.73	136.47	18.50	-37.3	-38.2	23.6	0.00e+00	123	42	0	1774190592	46	6422
2026-01-24 13:16:15.77	137.16	18.15	-37.1	-38.0	23.7	0.00e+00	122	42	0	1786773504	46	6262
2026-01-24 13:16:19.81	137.83	17.81	-36.7	-37.7	24.1	0.00e+00	122	42	0	1799356416	46	5997
2026-01-24 13:16:23.84	138.48	17.47	-36.8	-37.7	24.1	0.00e+00	123	42	0	1811939328	46	6004
2026-01-24 13:16:27.88	139.13	17.12	-36.7	-37.6	24.2	0.00e+00	123	42	0	1824522240	46	5976
2026-01-24 13:16:31.92	139.75	16.78	-37.0	-38.0	23.8	0.00e+00	120	42	0	1837105152	46	6206
2026-01-24 13:16:35.95	140.37	16.44	-37.1	-38.0	23.9	0.00e+00	122	42	0	1849688064	46	6244
2026-01-24 13:16:40.00	140.97	16.10	-37.1	-38.0	23.8	0.00e+00	122	42	0	1862270976	46	6228
2026-01-24 13:16:44.04	141.56	15.77	-37.1	-38.0	23.8	0.00e+00	122	42	0	1874853888	46	6248
2026-01-24 13:16:48.07	142.13	15.44	-37.3	-38.3	23.5	0.00e+00	122	42	0	1887436800	46	6448
2026-01-24 13:16:52.11	142.70	15.10	-37.6	-38.6	23.2	0.00e+00	122	42	0	1900019712	46	6695
2026-01-24 13:16:56.15	143.25	14.77	-38.1	-39.1	22.8	0.00e+00	123	42	0	1912602624	48	6324
2026-01-24 13:17:00.19	143.79	14.44	-38.3	-39.3	22.6	0.00e+00	120	42	0	1925185536	48	6487
2026-01-24 13:17:04.23	144.32	14.12	-37.7	-38.7	23.2	0.00e+00	123	42	0	1938817024	48	6021
2026-01-24 13:17:08.27	144.84	13.79	-38.0	-39.0	22.8	0.00e+00	122	42	0	1950351360	48	6238
2026-01-24 13:17:12.30	145.34	13.47	-38.2	-39.2	22.7	0.00e+00	122	42	0	1963982848	48	6371
2026-01-24 13:17:16.34	145.84	13.15	-38.3	-39.3	22.8	0.00e+00	122	42	0	1976565760	48	6439
2026-01-24 13:17:20.38	146.33	12.84	-38.2	-39.2	23.0	0.00e+00	122	42	0	1989148672	48	6360
2026-01-24 13:17:24.42	146.80	12.52	-37.9	-38.9	23.1	0.00e+00	120	42	0	2001731584	48	6151
2026-01-24 13:17:28.45	147.27	12.21	-38.2	-39.2	22.8	0.00e+00	120	42	0	2014314496	48	6383
2026-01-24 13:17:32.49	147.73	11.90	-38.1	-39.1	22.9	0.00e+00	123	42	0	2026897408	48	6310
2026-01-24 13:17:36.53	148.18	11.59	-38.2	-39.2	22.7	0.00e+00	122	42	0	2039480320	48	6386
2026-01-24 13:17:40.57	148.61	11.29	-38.1	-39.1	22.8	0.00e+00	122	42	0	2052063232	48	6297
2026-01-24 13:17:44.60	149.04	10.98	-38.2	-39.1	22.8	0.00e+00	123	42	0	2064646144	48	6340
2026-01-24 13:17:48.64	149.47	10.68	-38.4	-39.4	22.5	0.00e+00	127	42	0	2077229056	48	6521
2026-01-24 13:17:52.67	149.88	10.39	-38.5	-39.5	22.5	0.00e+00	123	42	0	2089811968	48	6617
2026-01-24 13:17:56.71	150.29	10.09	-38.7	-39.7	22.3	0.00e+00	122	42	0	2102394880	48	6732
2026-01-24 13:18:00.76	150.69	9.80	-38.3	-39.3	22.7	0.00e+00	123	42	0	2114977792	50	5788
2026-01-24 13:18:04.79	151.08	9.50	-38.7	-39.7	22.3	0.00e+00	118	42	0	2127560704	50	6009
2026-01-24 13:18:08.83	151.46	9.21	-38.6	-39.6	22.3	0.00e+00	122	42	0	2140143616	50	5989
2026-01-24 13:18:12.87	151.84	8.93	-38.7	-39.7	22.3	0.00e+00	123	42	0	2152726528	50	6027
2026-01-24 13:18:16.91	152.21	8.64	-38.7	-39.7	22.2	0.00e+00	123	42	0	2165309440	50	6032
2026-01-24 13:18:20.95	152.57	8.36	-38.8	-39.9	22.0	0.00e+00	123	42	0	2177892352	50	6155
2026-01-24 13:18:24.98	152.92	8.08	-39.8	-41.0	20.8	0.00e+00	123	42	0	2190475264	52	6221
2026-01-24 13:18:29.02	153.27	7.80	-40.4	-41.6	20.2	0.00e+00	122	42	0	2203058176	54	5969
2026-01-24 13:18:33.06	153.62	7.53	-41.5	-43.0	18.4	0.00e+00	123	42	0	2215641088	54	6963
2026-01-24 13:18:37.10	153.95	7.25	-42.1	-43.6	17.8	0.00e+00	123	42	0	2228224000	56	6714
2026-01-24 13:18:41.13	154.28	6.98	-42.8	-44.5	16.7	0.00e+00	122	42	0	2240806912	58	6608
2026-01-24 13:18:45.17	154.61	6.71	-43.5	-45.6	15.5	0.00e+00	123	42	0	2253389824	58	7474
2026-01-24 13:18:49.21	154.93	6.44	-44.2	-46.5	14.8	0.00e+00	120	42	0	2265972736	60	7401
2026-01-24 13:18:53.25	155.24	6.18	-44.0	-46.2	15.1	0.00e+00	122	42	0	2278555648	60	7135
2026-01-24 13:18:57.29	155.55	5.91	-43.3	-45.1	16.2	0.00e+00	122	42	0	2291138560	60	6344
2026-01-24 13:19:01.33	155.86	5.65	-43.4	-45.3	16.0	0.00e+00	122	42	0	2304770048	58	7260
2026-01-24 13:19:05.37	156.15	5.39	-42.4	-44.0	17.5	0.00e+00	123	42	0	2316304384	58	6258
2026-01-24 13:19:09.41	156.45	5.14	-42.4	-43.9	18.1	0.00e+00	121	42	0	2329935872	58	6190
2026-01-24 13:19:13.45	156.74	4.88	-42.0	-43.4	18.4	0.00e+00	123	42	0	2342518784	56	6541
2026-01-24 13:19:17.48	157.02	4.63	-41.4	-42.8	19.2	0.00e+00	122	42	0	2355101696	56	6071
2026-01-24 13:19:21.53	157.30	4.37	-41.7	-43.1	18.8	0.00e+00	123	42	0	2367684608	56	6290
2026-01-24 13:19:25.56	157.58	4.12	-41.5	-42.8	18.7	0.00e+00	122	42	0	2380267520	56	6125
2026-01-24 13:19:29.60	157.85	3.88	-41.3	-42.7	19.0	0.00e+00	122	42	0	2392850432	56	6026
2026-01-24 13:19:33.63	158.11	3.63	-41.6	-43.0	18.9	0.00e+00	122	42	0	2405433344	56	6222
2026-01-24 13:19:37.67	158.37	3.38	-41.5	-42.9	19.0	0.00e+00	122	42	0	2418016256	56	6176
2026-01-24 13:19:41.71	158.63	3.14	-40.3	-41.6	19.8	0.00e+00	123	42	0	2430599168	54	5934
2026-01-24 13:19:45.75	158.89	2.90	-48.8	-61.6	3.5	1.52e+00	0	42	104	2438987776	60	42347
2026-01-24 13:19:49.79	159.14	2.66	-50.8	-63.6	3.5	1.52e+00	0	42	104	2438987776	60	53191
2026-01-24 13:19:53.83	159.38	2.42	-51.0	-63.9	3.5	1.52e+00	0	42	104	2438987776	60	55168
2026-01-24 13:19:57.87	159.62	2.19	-51.2	-64.1	3.5	1.52e+00	0	42	104	2438987776	60	55970
2026-01-24 13:20:01.91	159.86	1.95	-51.1	-64.0	3.5	1.52e+00	0	42	104	2438987776	60	55581
2026-01-24 13:20:05.96	160.10	1.72	-51.2	-64.1	3.5	1.52e+00	0	42	104	2438987776	60	55989
2026-01-24 13:20:10.00	160.33	1.48	-51.2	-64.1	3.5	1.52e+00	0	42	104	2438987776	60	56426
2026-01-24 13:20:14.04	160.56	1.25	-51.3	-64.2	3.5	1.52e+00	0	42	104	2438987776	60	56778
2026-01-24 13:20:18.08	160.79	1.02	-51.4	-64.2	3.5	1.52e+00	0	42	104	2438987776	60	57220
2026-01-24 13:20:22.12	161.01	0.80	-51.4	-64.3	3.5	1.51e+00	0	42	104	2438987776	60	57643
2026-01-24 13:20:26.15	161.23	0.57	-51.4	-64.2	3.5	1.52e+00	0	42	104	2438987776	60	57006
2026-01-24 13:20:30.19	161.44	0.35	-51.5	-64.4	3.5	1.51e+00	0	42	104	2438987776	60	58192
2026-01-24 13:20:34.23	161.66	0.12	-51.7	-64.5	3.5	1.52e+00	0	42	104	2438987776	60	58957
2026-01-24 13:20:38.27	161.87	-0.10	-51.7	-64.6	3.5	1.52e+00	0	42	104	2438987776	60	59274

#Closed at: 2026-01-24 13:20:38
#Recorded file [2438 MB]: D:/lorett/data/35029_260125_010557.dat