passes_logs/2026/01/24/R4.6S_Anadyr/R4.6S_Anadyr__20260124_215231_SUOMI_NPP_rec.log

#Pass ID: 20260124_215231_SUOMI NPP
#Satellite: SUOMI NPP
#Configuration: NPP
#almurnet v.1.7.20251203
#Start time: 2026-01-24 21:52:32

#Version: 2.2.20231116
#Station: R4.6S_Anadyr
#Location: 177.4865 lon 64.73178 lat
#TLE: 1 37849U 11061A   26024.54906732  .00000185  00000+0  10878-3 0  9990
#TLE: 2 37849  98.7821 326.5159 0002200  47.3746 312.7615 14.19529340738061

#Time	Az	El	Level	Level2	SNR	BER	BlckErr	Temp	State	Recorded	gain1	gain2
2026-01-24 21:52:32.96	98.42	0.08	-51.6	-64.1	3.4	1.52e+00	0	38	0	0	60	56586
2026-01-24 21:52:36.99	98.20	0.30	-51.8	-67.0	3.6	1.51e+00	0	39	104	0	60	80643
2026-01-24 21:52:41.03	97.97	0.52	-51.4	-66.6	3.6	1.51e+00	0	40	104	0	60	77683
2026-01-24 21:52:45.07	97.74	0.75	-51.3	-66.5	3.6	1.51e+00	0	40	104	0	60	76333
2026-01-24 21:52:49.11	97.51	0.97	-51.2	-66.5	3.6	1.51e+00	0	40	104	0	60	76019
2026-01-24 21:52:53.15	97.27	1.20	-50.9	-66.2	3.6	1.51e+00	0	40	104	0	60	73573
2026-01-24 21:52:57.20	97.03	1.42	-49.6	-65.4	3.6	1.51e+00	0	40	104	0	60	67072
2026-01-24 21:53:01.23	96.79	1.65	-49.4	-64.5	3.6	1.51e+00	0	40	104	0	60	60876
2026-01-24 21:53:05.27	96.54	1.88	-49.3	-64.6	3.6	1.51e+00	0	40	104	0	60	61341
2026-01-24 21:53:09.31	96.28	2.11	-49.2	-64.6	3.6	1.51e+00	0	40	104	0	60	61618
2026-01-24 21:53:13.34	96.03	2.34	-49.2	-64.5	3.6	1.51e+00	0	40	104	0	60	60901
2026-01-24 21:53:17.38	95.76	2.57	-49.2	-64.7	3.6	1.51e+00	0	40	104	0	60	61782
2026-01-24 21:53:21.42	95.50	2.81	-49.3	-64.5	3.6	1.51e+00	0	40	104	0	60	60685
2026-01-24 21:53:25.46	95.23	3.04	-49.3	-64.6	3.6	1.51e+00	0	40	104	0	60	61452
2026-01-24 21:53:29.50	94.95	3.28	-48.0	-53.4	9.8	6.17e-02	90	40	0	1048576	60	16922
2026-01-24 21:53:33.54	94.67	3.52	-45.4	-48.2	6.0	1.48e+00	0	40	104	6291456	60	9288
2026-01-24 21:53:37.58	94.39	3.76	-45.4	-48.1	15.3	8.53e-02	53	40	104	8388608	60	9196
2026-01-24 21:53:41.61	94.10	4.00	-45.9	-48.7	15.1	0.00e+00	92	40	0	14680064	60	9824
2026-01-24 21:53:45.65	93.80	4.24	-44.9	-47.1	16.8	0.00e+00	90	40	0	23068672	60	8204
2026-01-24 21:53:49.69	93.50	4.49	-44.5	-46.4	17.6	0.00e+00	0	40	0	30408704	60	7581
2026-01-24 21:53:53.73	93.20	4.73	-44.5	-46.4	17.2	0.00e+00	92	41	0	37748736	60	7576
2026-01-24 21:53:57.77	92.89	4.98	-44.3	-46.2	17.8	0.00e+00	92	40	0	45088768	60	7418
2026-01-24 21:54:01.81	92.57	5.23	-43.9	-45.6	18.5	0.00e+00	0	41	0	53477376	60	6907
2026-01-24 21:54:05.85	92.25	5.48	-43.8	-45.4	18.8	0.00e+00	0	41	0	60817408	60	6743
2026-01-24 21:54:09.89	91.92	5.73	-43.9	-45.7	18.5	0.00e+00	92	40	0	68157440	60	6966
2026-01-24 21:54:13.93	91.59	5.99	-44.2	-46.0	18.3	0.00e+00	92	41	0	75497472	60	7184
2026-01-24 21:54:17.97	91.25	6.24	-45.0	-47.0	17.3	0.00e+00	0	41	0	82837504	60	8104
2026-01-24 21:54:22.00	90.90	6.50	-44.1	-45.9	18.5	0.00e+00	0	41	0	91226112	60	7128
2026-01-24 21:54:26.05	90.55	6.75	-44.1	-46.0	18.1	0.00e+00	83	41	0	98566144	60	7200
2026-01-24 21:54:30.08	90.19	7.01	-44.0	-45.7	18.6	0.00e+00	92	41	0	105906176	60	6981
2026-01-24 21:54:34.12	89.83	7.27	-43.9	-45.5	18.9	0.00e+00	14	41	0	113246208	60	6825
2026-01-24 21:54:38.16	89.45	7.54	-43.2	-44.6	19.8	0.00e+00	65	41	0	121634816	60	6117
2026-01-24 21:54:42.20	89.07	7.80	-43.3	-44.7	19.6	0.00e+00	91	41	0	128974848	60	6242
2026-01-24 21:54:46.23	88.69	8.07	-42.1	-43.3	20.8	0.00e+00	0	41	0	136314880	58	5961
2026-01-24 21:54:50.27	88.29	8.33	-43.3	-44.8	19.6	0.00e+00	0	41	0	143654912	58	7035
2026-01-24 21:54:54.31	87.89	8.60	-42.7	-44.0	20.3	0.00e+00	92	41	0	150994944	58	6431
2026-01-24 21:54:58.34	87.49	8.87	-42.6	-43.9	20.5	0.00e+00	92	41	0	159383552	58	6332
2026-01-24 21:55:02.38	87.07	9.14	-42.9	-44.3	20.1	0.00e+00	0	41	0	166723584	58	6650
2026-01-24 21:55:06.42	86.64	9.42	-43.5	-45.0	19.5	0.00e+00	12	41	0	174063616	58	7211
2026-01-24 21:55:10.45	86.21	9.69	-43.3	-44.8	19.6	0.00e+00	92	41	0	181403648	58	7021
2026-01-24 21:55:14.49	85.77	9.97	-43.2	-44.6	20.0	0.00e+00	91	41	0	189792256	60	6119
2026-01-24 21:55:18.52	85.32	10.24	-42.9	-44.2	20.3	0.00e+00	0	41	0	197132288	60	5862
2026-01-24 21:55:22.56	84.86	10.52	-43.1	-44.4	20.1	0.00e+00	13	41	0	204472320	60	6022
2026-01-24 21:55:26.60	84.39	10.80	-42.2	-43.4	21.0	0.00e+00	92	41	0	211812352	58	6000
2026-01-24 21:55:30.64	83.92	11.08	-42.9	-44.2	20.3	0.00e+00	92	41	0	219152384	58	6598
2026-01-24 21:55:34.68	83.43	11.37	-42.6	-43.8	20.3	0.00e+00	0	41	0	227540992	58	6308
2026-01-24 21:55:38.72	82.93	11.65	-42.4	-43.6	20.7	0.00e+00	90	41	0	234881024	58	6152
2026-01-24 21:55:42.75	82.43	11.94	-42.1	-43.3	21.0	0.00e+00	92	41	0	242221056	58	5908
2026-01-24 21:55:46.79	81.91	12.22	-41.8	-43.0	21.4	0.00e+00	0	41	0	249561088	58	5708
2026-01-24 21:55:50.83	81.39	12.51	-41.8	-43.0	21.4	0.00e+00	0	41	0	257949696	56	6414
2026-01-24 21:55:54.86	80.85	12.80	-41.7	-42.8	21.5	0.00e+00	90	41	0	265289728	56	6276
2026-01-24 21:55:58.90	80.30	13.09	-41.7	-42.8	21.5	0.00e+00	90	41	0	272629760	56	6291
2026-01-24 21:56:02.93	79.74	13.37	-41.6	-42.8	21.6	0.00e+00	0	41	0	279969792	56	6263
2026-01-24 21:56:06.97	79.17	13.66	-41.9	-43.0	21.4	0.00e+00	0	41	0	287309824	56	6457
2026-01-24 21:56:11.01	78.59	13.96	-42.1	-43.3	21.2	0.00e+00	31	41	0	295698432	56	6649
2026-01-24 21:56:15.05	78.00	14.25	-42.3	-43.5	21.0	0.00e+00	91	41	0	303038464	56	6836
2026-01-24 21:56:19.09	77.39	14.54	-42.2	-43.4	20.6	0.00e+00	0	41	0	310378496	56	6717
2026-01-24 21:56:23.12	76.77	14.83	-42.2	-43.4	21.2	0.00e+00	92	41	0	317718528	56	6714
2026-01-24 21:56:27.16	76.14	15.12	-42.5	-43.8	20.8	0.00e+00	92	41	0	325058560	56	7034
2026-01-24 21:56:31.20	75.50	15.41	-42.7	-44.0	20.6	0.00e+00	0	41	0	333447168	58	6427
2026-01-24 21:56:35.23	74.85	15.70	-42.4	-43.6	20.8	0.00e+00	0	41	0	340787200	58	6151
2026-01-24 21:56:39.27	74.18	16.00	-42.3	-43.5	20.9	0.00e+00	92	41	0	348127232	58	6097
2026-01-24 21:56:43.31	73.50	16.29	-41.9	-43.1	21.4	0.00e+00	92	41	0	355467264	58	5776
2026-01-24 21:56:47.36	72.80	16.58	-42.1	-43.3	21.2	0.00e+00	0	41	0	363855872	58	5949
2026-01-24 21:56:51.40	72.09	16.87	-42.0	-43.1	21.3	0.00e+00	0	41	0	371195904	58	5818
2026-01-24 21:56:55.43	71.37	17.15	-42.5	-43.8	20.7	0.00e+00	92	41	0	378535936	58	6249
2026-01-24 21:56:59.47	70.63	17.44	-42.7	-44.1	20.6	0.00e+00	73	41	0	385875968	58	6472
2026-01-24 21:57:03.50	69.88	17.72	-41.8	-43.0	21.6	0.00e+00	0	41	0	393216000	56	6430
2026-01-24 21:57:07.54	69.12	18.01	-41.5	-42.6	21.9	0.00e+00	14	41	0	401604608	56	6151
2026-01-24 21:57:11.58	68.34	18.29	-41.3	-42.4	21.9	0.00e+00	90	41	0	408944640	56	5990
2026-01-24 21:57:15.61	67.54	18.56	-40.9	-41.9	22.5	0.00e+00	0	41	0	416284672	56	5684
2026-01-24 21:57:19.65	66.73	18.84	-40.6	-41.6	22.7	0.00e+00	0	41	0	423624704	54	6160
2026-01-24 21:57:23.68	65.91	19.11	-40.5	-41.4	22.8	0.00e+00	92	41	0	432013312	54	6027
2026-01-24 21:57:27.72	65.07	19.38	-40.1	-41.1	23.1	0.00e+00	92	41	0	439353344	54	5805
2026-01-24 21:57:31.76	64.22	19.64	-39.9	-40.8	23.3	0.00e+00	0	41	0	446693376	54	5612
2026-01-24 21:57:35.79	63.35	19.90	-40.1	-41.1	23.1	0.00e+00	0	41	0	454033408	52	6485
2026-01-24 21:57:39.83	62.47	20.16	-40.3	-41.3	23.0	0.00e+00	85	41	0	461373440	52	6626
2026-01-24 21:57:43.87	61.57	20.41	-40.0	-40.9	23.2	0.00e+00	92	41	0	469762048	52	6384
2026-01-24 21:57:47.91	60.65	20.66	-39.7	-40.6	23.6	0.00e+00	0	41	0	477102080	52	6122
2026-01-24 21:57:51.94	59.73	20.90	-39.4	-40.3	23.8	0.00e+00	20	41	0	484442112	52	5921
2026-01-24 21:57:55.98	58.79	21.14	-39.3	-40.2	23.8	0.00e+00	49	41	0	491782144	52	5848
2026-01-24 21:58:00.02	57.83	21.37	-39.3	-40.2	23.8	0.00e+00	0	41	0	500170752	52	5866
2026-01-24 21:58:04.06	56.86	21.59	-39.1	-39.9	23.9	0.00e+00	0	41	0	507510784	52	5690
2026-01-24 21:58:08.10	55.87	21.80	-39.6	-40.5	23.5	0.00e+00	92	41	0	514850816	52	6077
2026-01-24 21:58:12.14	54.87	22.01	-39.7	-40.6	23.5	0.00e+00	90	41	0	522190848	52	6163
2026-01-24 21:58:16.17	53.86	22.21	-39.8	-40.7	23.5	0.00e+00	0	41	0	529530880	52	6192
2026-01-24 21:58:20.21	52.84	22.40	-39.3	-40.1	23.9	0.00e+00	0	41	0	537919488	52	5810
2026-01-24 21:58:24.24	51.80	22.59	-39.3	-40.2	23.9	0.00e+00	92	41	0	545259520	52	5858
2026-01-24 21:58:28.28	50.75	22.76	-39.1	-40.0	24.0	0.00e+00	92	41	0	552599552	52	5702
2026-01-24 21:58:32.32	49.69	22.93	-39.8	-40.7	23.5	0.00e+00	0	41	0	559939584	52	6213
2026-01-24 21:58:36.36	48.62	23.08	-40.7	-41.7	22.7	0.00e+00	0	41	0	567279616	54	6201
2026-01-24 21:58:40.39	47.54	23.23	-41.5	-42.6	21.9	0.00e+00	92	41	0	575668224	54	6907
2026-01-24 21:58:44.43	46.45	23.37	-40.9	-41.9	22.6	0.00e+00	0	41	0	583008256	54	6335
2026-01-24 21:58:48.47	45.35	23.49	-40.7	-41.7	22.7	0.00e+00	0	41	0	590348288	54	6199
2026-01-24 21:58:52.51	44.23	23.60	-40.5	-41.5	22.8	0.00e+00	29	42	0	597688320	54	6080
2026-01-24 21:58:56.54	43.12	23.71	-41.1	-42.2	22.4	0.00e+00	80	42	0	606076928	54	6545
2026-01-24 21:59:00.58	42.00	23.80	-41.3	-42.3	22.2	0.00e+00	0	42	0	613416960	54	6672
2026-01-24 21:59:04.62	40.86	23.88	-42.0	-43.1	21.6	0.00e+00	0	42	0	620756992	56	6512
2026-01-24 21:59:08.66	39.73	23.94	-41.5	-42.6	22.1	0.00e+00	88	42	0	628097024	56	6117
2026-01-24 21:59:12.70	38.59	24.00	-42.7	-43.9	21.0	0.00e+00	80	42	0	635437056	56	7122
2026-01-24 21:59:16.73	37.45	24.04	-41.9	-43.1	21.8	0.00e+00	0	42	0	643825664	56	6475
2026-01-24 21:59:20.78	36.30	24.07	-40.3	-41.2	23.0	0.00e+00	0	42	0	651165696	54	5888
2026-01-24 21:59:24.82	35.15	24.09	-41.2	-42.2	22.3	0.00e+00	21	41	0	658505728	54	6595
2026-01-24 21:59:28.86	34.00	24.10	-41.1	-42.1	22.4	0.00e+00	3	41	0	665845760	54	6499
2026-01-24 21:59:32.89	32.85	24.09	-41.0	-42.0	22.5	0.00e+00	0	42	0	674234368	54	6409
2026-01-24 21:59:36.93	31.71	24.07	-40.4	-41.4	22.9	0.00e+00	92	41	0	681574400	54	5986
2026-01-24 21:59:40.97	30.56	24.04	-40.0	-40.9	23.4	0.00e+00	92	41	0	688914432	54	5677
2026-01-24 21:59:45.01	29.42	23.99	-40.1	-41.0	23.2	0.00e+00	0	41	0	696254464	54	5724
2026-01-24 21:59:49.04	28.28	23.94	-39.5	-40.4	23.7	0.00e+00	0	42	0	703594496	52	5975
2026-01-24 21:59:53.08	27.15	23.87	-38.5	-39.3	24.4	0.00e+00	86	41	0	711983104	50	5961
2026-01-24 21:59:57.12	26.02	23.79	-38.8	-39.6	24.3	0.00e+00	92	41	0	719323136	50	6170
2026-01-24 22:00:01.16	24.89	23.70	-39.2	-40.0	23.9	0.00e+00	0	42	0	726663168	50	6454
2026-01-24 22:00:05.19	23.78	23.59	-39.5	-40.4	23.5	0.00e+00	0	42	0	734003200	52	6012
2026-01-24 22:00:09.23	22.67	23.48	-39.3	-40.1	24.0	0.00e+00	76	42	0	742391808	52	5803
2026-01-24 22:00:13.27	21.57	23.35	-40.1	-41.0	23.3	0.00e+00	92	42	0	749731840	52	6456
2026-01-24 22:00:17.31	20.48	23.22	-39.7	-40.6	23.4	0.00e+00	0	42	0	757071872	52	6144
2026-01-24 22:00:21.35	19.40	23.07	-40.4	-41.3	23.0	0.00e+00	52	42	0	764411904	52	6675
2026-01-24 22:00:25.39	18.33	22.91	-40.8	-41.8	22.7	0.00e+00	25	42	0	771751936	54	6261
2026-01-24 22:00:29.43	17.27	22.75	-41.8	-42.9	21.7	0.00e+00	0	42	0	780140544	54	7152
2026-01-24 22:00:33.46	16.23	22.57	-41.4	-42.5	22.2	0.00e+00	0	42	0	787480576	56	6064
2026-01-24 22:00:37.50	15.20	22.39	-41.5	-42.6	22.1	0.00e+00	11	42	0	794820608	56	6126
2026-01-24 22:00:41.54	14.17	22.20	-42.1	-43.2	21.5	0.00e+00	0	42	0	802160640	56	6574
2026-01-24 22:00:45.57	13.17	21.99	-41.4	-42.5	22.1	0.00e+00	0	42	0	810549248	56	6049
2026-01-24 22:00:49.61	12.17	21.79	-41.2	-42.2	22.3	0.00e+00	0	42	0	817889280	56	5881
2026-01-24 22:00:53.65	11.19	21.57	-42.2	-43.4	21.3	0.00e+00	91	42	0	825229312	56	6733
2026-01-24 22:00:57.68	10.23	21.35	-41.1	-42.2	22.5	0.00e+00	0	42	0	832569344	56	5835
2026-01-24 22:01:01.72	9.27	21.12	-42.4	-43.6	21.0	0.00e+00	0	42	0	839909376	56	6927
2026-01-24 22:01:05.76	8.33	20.88	-42.3	-43.6	21.1	0.00e+00	0	42	0	848297984	58	6149
2026-01-24 22:01:09.79	7.41	20.64	-40.3	-41.3	23.0	0.00e+00	80	42	0	855638016	54	5951
2026-01-24 22:01:13.82	6.50	20.40	-40.5	-41.5	22.8	0.00e+00	0	42	0	862978048	54	6080
2026-01-24 22:01:17.86	5.61	20.14	-40.1	-41.0	23.2	0.00e+00	0	42	0	870318080	54	5744
2026-01-24 22:01:21.90	4.73	19.89	-39.2	-40.0	23.9	0.00e+00	19	42	0	878706688	52	5734
2026-01-24 22:01:25.94	3.86	19.63	-39.7	-40.6	23.6	0.00e+00	0	42	0	886046720	52	6151
2026-01-24 22:01:29.97	3.02	19.36	-41.0	-42.0	22.4	0.00e+00	0	42	0	893386752	54	6455
2026-01-24 22:01:34.01	2.18	19.09	-41.2	-42.2	22.2	0.00e+00	0	42	0	900726784	54	6605
2026-01-24 22:01:38.04	1.36	18.82	-40.4	-41.5	22.8	0.00e+00	82	42	0	908066816	54	6038
2026-01-24 22:01:42.08	0.56	18.55	-39.8	-40.7	23.3	0.00e+00	22	42	0	916455424	54	5507
2026-01-24 22:01:46.12	359.77	18.27	-40.4	-41.3	22.9	0.00e+00	17	42	0	923795456	52	6667
2026-01-24 22:01:50.16	358.99	17.99	-40.4	-41.4	22.9	0.00e+00	0	41	0	931135488	54	5972
2026-01-24 22:01:54.19	358.23	17.71	-40.3	-41.2	22.9	0.00e+00	92	42	0	938475520	54	5877
2026-01-24 22:01:58.23	357.48	17.43	-40.4	-41.4	22.8	0.00e+00	0	42	0	946864128	54	5983
2026-01-24 22:02:02.27	356.75	17.14	-40.2	-41.1	23.0	0.00e+00	0	42	0	954204160	54	5820
2026-01-24 22:02:06.30	356.03	16.85	-39.8	-40.7	23.2	0.00e+00	0	42	0	961544192	52	6244
2026-01-24 22:02:10.34	355.33	16.57	-40.2	-41.2	22.9	0.00e+00	84	41	0	968884224	52	6572
2026-01-24 22:02:14.38	354.64	16.28	-39.0	-39.9	24.0	0.00e+00	0	42	0	976224256	52	5634
2026-01-24 22:02:18.41	353.96	15.99	-38.9	-39.7	24.1	0.00e+00	0	42	0	984612864	50	6229
2026-01-24 22:02:22.45	353.29	15.70	-39.4	-40.3	23.6	0.00e+00	13	42	0	991952896	50	6678
2026-01-24 22:02:26.48	352.64	15.41	-39.7	-40.6	23.4	0.00e+00	0	41	0	999292928	52	6140
2026-01-24 22:02:30.52	352.00	15.12	-38.9	-39.7	24.1	0.00e+00	0	41	0	1006632960	52	5563
2026-01-24 22:02:34.56	351.38	14.83	-39.5	-40.4	23.7	0.00e+00	0	42	0	1013972992	52	5981
2026-01-24 22:02:38.59	350.77	14.54	-40.6	-41.7	22.5	0.00e+00	92	41	0	1022361600	54	6176
2026-01-24 22:02:42.63	350.16	14.24	-40.7	-41.8	22.5	0.00e+00	0	42	0	1029701632	54	6249
2026-01-24 22:02:46.67	349.57	13.95	-40.0	-40.9	22.7	0.00e+00	0	42	0	1037041664	54	5679
2026-01-24 22:02:50.70	349.00	13.67	-39.9	-40.8	23.0	0.00e+00	0	42	0	1044381696	54	5589
2026-01-24 22:02:54.74	348.43	13.38	-40.9	-41.9	22.3	0.00e+00	92	42	0	1052770304	54	6380
2026-01-24 22:02:58.77	347.88	13.09	-41.9	-43.0	21.5	0.00e+00	0	41	0	1060110336	56	6447
2026-01-24 22:03:02.81	347.33	12.80	-40.9	-41.9	22.4	0.00e+00	0	41	0	1067450368	56	5689
2026-01-24 22:03:06.85	346.80	12.51	-40.3	-41.3	22.9	0.00e+00	56	41	0	1074790400	54	5913
2026-01-24 22:03:10.89	346.27	12.23	-40.6	-41.6	22.6	0.00e+00	48	41	0	1082130432	54	6146
2026-01-24 22:03:14.93	345.76	11.94	-40.6	-41.7	22.5	0.00e+00	0	41	0	1090519040	54	6175
2026-01-24 22:03:18.97	345.26	11.66	-40.9	-42.0	22.1	0.00e+00	0	41	0	1097859072	54	6432
2026-01-24 22:03:23.01	344.77	11.37	-41.3	-42.5	21.7	0.00e+00	92	41	0	1105199104	54	6771
2026-01-24 22:03:27.04	344.28	11.09	-41.6	-42.8	21.6	0.00e+00	0	41	0	1112539136	56	6248
2026-01-24 22:03:31.08	343.81	10.81	-42.0	-43.3	21.2	0.00e+00	0	41	0	1120927744	56	6640
2026-01-24 22:03:35.12	343.34	10.53	-42.2	-43.4	21.1	0.00e+00	0	41	0	1128267776	56	6768
2026-01-24 22:03:39.15	342.89	10.26	-42.0	-43.3	21.1	0.00e+00	88	41	0	1135607808	56	6631
2026-01-24 22:03:43.19	342.44	9.98	-41.9	-43.1	21.3	0.00e+00	0	41	0	1142947840	56	6483
2026-01-24 22:03:47.23	342.01	9.70	-41.3	-42.5	21.8	0.00e+00	0	41	0	1150287872	56	6039
2026-01-24 22:03:51.27	341.58	9.43	-42.6	-44.0	20.6	0.00e+00	0	41	0	1158676480	56	7186
2026-01-24 22:03:55.31	341.15	9.16	-42.3	-43.6	20.8	0.00e+00	90	41	0	1166016512	58	6144
2026-01-24 22:03:59.34	340.74	8.89	-43.0	-44.4	19.8	0.00e+00	0	41	0	1173356544	58	6766
2026-01-24 22:04:03.38	340.34	8.62	-41.9	-43.2	21.1	0.00e+00	0	41	0	1180696576	58	5843
2026-01-24 22:04:07.41	339.94	8.35	-42.7	-44.1	20.1	0.00e+00	57	41	0	1188036608	58	6483
2026-01-24 22:04:11.44	339.55	8.08	-42.9	-44.3	20.0	0.00e+00	0	41	0	1196425216	58	6640
2026-01-24 22:04:15.48	339.17	7.82	-43.4	-44.9	19.4	0.00e+00	0	41	0	1203765248	60	6328
2026-01-24 22:04:19.52	338.79	7.56	-43.7	-45.2	19.1	0.00e+00	0	41	0	1211105280	60	6606
2026-01-24 22:04:23.56	338.42	7.29	-43.4	-44.8	19.6	0.00e+00	28	41	0	1218445312	60	6307
2026-01-24 22:04:27.59	338.06	7.04	-43.1	-44.5	19.8	0.00e+00	0	41	0	1226833920	60	6086
2026-01-24 22:04:31.63	337.70	6.78	-43.6	-45.1	19.2	0.00e+00	0	41	0	1234173952	60	6520
2026-01-24 22:04:35.66	337.36	6.52	-43.8	-45.4	18.8	0.00e+00	0	41	0	1241513984	60	6765
2026-01-24 22:04:39.70	337.01	6.26	-44.0	-45.7	18.6	0.00e+00	59	41	0	1248854016	60	6971
2026-01-24 22:04:43.74	336.68	6.01	-44.5	-46.4	17.9	0.00e+00	0	41	0	1256194048	60	7580
2026-01-24 22:04:47.78	336.35	5.76	-44.3	-46.2	17.3	0.00e+00	0	41	0	1264582656	60	7388
2026-01-24 22:04:51.81	336.02	5.51	-44.4	-46.7	16.2	0.00e+00	0	41	0	1271922688	60	7846
2026-01-24 22:04:55.85	335.70	5.26	-45.5	-49.0	13.2	3.80e-06	83	41	0	1279262720	60	10180
2026-01-24 22:04:59.88	335.39	5.01	-46.2	-52.5	8.3	3.28e-02	0	41	0	1286602752	60	15241
2026-01-24 22:05:03.92	335.08	4.76	-46.4	-55.8	4.3	8.32e-01	0	41	0	1293942784	60	22416
2026-01-24 22:05:07.96	334.78	4.52	-46.3	-58.5	3.9	1.44e+00	0	41	104	1298137088	60	30448
2026-01-24 22:05:11.99	334.49	4.27	-46.2	-60.5	3.6	1.51e+00	0	41	104	1298137088	60	38332
2026-01-24 22:05:16.02	334.19	4.03	-46.2	-60.9	3.6	1.51e+00	0	41	104	1298137088	60	40221
2026-01-24 22:05:20.06	333.91	3.79	-46.2	-61.2	3.6	1.51e+00	0	41	104	1298137088	60	41321
2026-01-24 22:05:24.09	333.63	3.55	-46.3	-61.2	3.6	1.51e+00	0	41	104	1298137088	60	41683
2026-01-24 22:05:28.13	333.35	3.31	-46.3	-61.3	3.6	1.51e+00	0	41	104	1298137088	60	41862
2026-01-24 22:05:32.17	333.08	3.08	-46.3	-61.4	3.6	1.51e+00	0	41	104	1298137088	60	42404
2026-01-24 22:05:36.20	332.81	2.84	-50.5	-65.6	3.6	1.51e+00	0	41	104	1298137088	60	68951
2026-01-24 22:05:40.24	332.55	2.61	-51.1	-66.3	3.6	1.51e+00	0	41	104	1298137088	60	75060
2026-01-24 22:05:44.28	332.29	2.38	-51.3	-66.5	3.6	1.51e+00	0	41	104	1298137088	60	76345
2026-01-24 22:05:48.32	332.03	2.15	-51.2	-66.5	3.6	1.51e+00	0	41	104	1298137088	60	76467
2026-01-24 22:05:52.36	331.78	1.92	-51.2	-66.5	3.6	1.51e+00	0	41	104	1298137088	60	75961
2026-01-24 22:05:56.40	331.54	1.69	-51.2	-66.5	3.6	1.51e+00	0	41	104	1298137088	60	75996
2026-01-24 22:06:00.44	331.29	1.46	-51.3	-66.5	3.6	1.51e+00	0	41	104	1298137088	60	76780
2026-01-24 22:06:04.47	331.06	1.23	-51.4	-66.6	3.6	1.51e+00	0	41	104	1298137088	60	77104
2026-01-24 22:06:08.51	330.82	1.01	-51.4	-66.6	3.6	1.51e+00	0	41	104	1298137088	60	77081
2026-01-24 22:06:12.55	330.59	0.79	-51.4	-66.5	3.6	1.51e+00	0	41	104	1298137088	60	76814
2026-01-24 22:06:16.59	330.36	0.56	-51.4	-66.6	3.6	1.51e+00	0	41	104	1298137088	60	77058
2026-01-24 22:06:20.64	330.14	0.34	-51.4	-66.6	3.6	1.51e+00	0	41	104	1298137088	60	77329
2026-01-24 22:06:24.67	329.92	0.12	-51.4	-66.6	3.6	1.51e+00	0	41	104	1298137088	60	76895

#Closed at: 2026-01-24 22:06:28
#Recorded file [1298 MB]: D:/lorett/data/35029_260125_095232.dat