passes_logs/2026/01/24/R4.6S_Anadyr/R4.6S_Anadyr__20260124_121552_NOAA_20_JPSS-1_rec.log

#Pass ID: 20260124_121552_NOAA 20 (JPSS-1)
#Satellite: NOAA 20 (JPSS-1)
#Configuration: NOAA 20
#almurnet v.1.7.20251203
#Start time: 2026-01-24 12:15:53

#Version: 2.2.20231116
#Station: R4.6S_Anadyr
#Location: 177.4865 lon 64.73178 lat
#TLE: 1 43013U 17073A   26024.14064826  .00000217  00000+0  12382-3 0  9992
#TLE: 2 43013  98.7646 324.9839 0001118  26.6217 333.5016 14.19539758424032

#Time	Az	El	Level	Level2	SNR	BER	BlckErr	Temp	State	Recorded	gain1	gain2
2026-01-24 12:15:53.77	19.23	0.06	-51.8	-66.7	3.5	1.51e+00	0	39	0	0	60	78261
2026-01-24 12:15:57.80	19.54	0.25	-51.9	-67.0	3.6	1.51e+00	0	40	104	0	60	81070
2026-01-24 12:16:01.84	19.85	0.44	-51.7	-66.9	3.6	1.51e+00	0	40	104	0	60	79622
2026-01-24 12:16:05.88	20.17	0.64	-51.5	-66.7	3.6	1.51e+00	0	40	104	0	60	78034
2026-01-24 12:16:09.91	20.50	0.83	-51.2	-66.4	3.5	1.51e+00	0	41	104	0	60	75737
2026-01-24 12:16:13.95	20.82	1.03	-50.8	-66.0	3.6	1.51e+00	0	41	104	0	60	72210
2026-01-24 12:16:17.98	21.15	1.22	-50.0	-65.2	3.6	1.51e+00	0	41	104	0	60	65517
2026-01-24 12:16:22.02	21.49	1.42	-49.8	-65.0	3.6	1.51e+00	0	41	104	0	60	64260
2026-01-24 12:16:26.06	21.83	1.61	-49.8	-64.9	3.6	1.51e+00	0	41	104	0	60	63876
2026-01-24 12:16:30.10	22.17	1.81	-49.7	-64.8	3.6	1.51e+00	0	41	104	0	60	62984
2026-01-24 12:16:34.14	22.52	2.01	-49.7	-64.7	3.6	1.51e+00	0	41	104	0	60	62284
2026-01-24 12:16:38.18	22.88	2.21	-49.7	-64.9	3.6	1.51e+00	0	41	104	0	60	63573
2026-01-24 12:16:42.22	23.23	2.41	-49.7	-64.0	3.6	1.51e+00	0	41	104	0	60	57377
2026-01-24 12:16:46.26	23.59	2.61	-47.8	-52.1	12.4	7.64e-03	0	41	0	2097152	60	14579
2026-01-24 12:16:50.29	23.96	2.81	-44.5	-46.4	17.6	0.00e+00	0	41	0	9437184	60	7566
2026-01-24 12:16:54.33	24.33	3.01	-48.3	-53.8	9.9	4.74e-04	0	41	0	16777216	60	17645
2026-01-24 12:16:58.37	24.71	3.21	-49.4	-58.1	6.7	1.40e+00	0	41	104	20971520	60	29025
2026-01-24 12:17:02.40	25.09	3.41	-46.1	-48.7	15.3	1.22e-05	0	41	0	23068672	60	9868
2026-01-24 12:17:06.44	25.47	3.61	-45.5	-47.8	16.7	0.00e+00	0	41	0	30408704	60	8838
2026-01-24 12:17:10.47	25.87	3.82	-45.9	-48.4	16.3	0.00e+00	0	41	0	37748736	60	9470
2026-01-24 12:17:14.51	26.26	4.02	-45.8	-48.3	16.0	0.00e+00	0	41	0	46137344	60	9346
2026-01-24 12:17:18.55	26.66	4.22	-44.6	-46.4	18.0	0.00e+00	0	41	0	53477376	60	7557
2026-01-24 12:17:22.58	27.07	4.43	-43.3	-44.8	19.5	0.00e+00	0	41	0	60817408	58	7063
2026-01-24 12:17:26.62	27.48	4.63	-44.1	-45.7	18.8	0.00e+00	0	41	0	68157440	60	7000
2026-01-24 12:17:30.66	27.90	4.84	-43.2	-44.6	19.9	0.00e+00	0	41	0	76546048	60	6119
2026-01-24 12:17:34.69	28.32	5.04	-44.5	-46.2	18.1	0.00e+00	0	41	0	83886080	60	7387
2026-01-24 12:17:38.73	28.75	5.25	-44.7	-46.5	18.2	0.00e+00	0	41	0	91226112	60	7652
2026-01-24 12:17:42.76	29.19	5.45	-43.5	-44.9	19.5	0.00e+00	0	41	0	98566144	58	7163
2026-01-24 12:17:46.80	29.63	5.66	-43.2	-44.5	20.3	0.00e+00	0	41	0	105906176	60	6091
2026-01-24 12:17:50.83	30.07	5.86	-43.6	-45.0	20.0	0.00e+00	0	41	0	114294784	60	6447
2026-01-24 12:17:54.87	30.52	6.07	-43.6	-45.0	19.6	0.00e+00	0	41	0	121634816	60	6452
2026-01-24 12:17:58.91	30.98	6.28	-43.5	-45.0	19.8	0.00e+00	0	41	0	128974848	60	6423
2026-01-24 12:18:02.95	31.45	6.48	-41.8	-43.0	21.3	0.00e+00	0	41	0	136314880	54	7180
2026-01-24 12:18:06.99	31.92	6.69	-42.0	-43.1	21.3	0.00e+00	0	41	0	144703488	56	6523
2026-01-24 12:18:11.03	32.40	6.90	-43.1	-44.5	20.3	0.00e+00	0	41	0	152043520	58	6790
2026-01-24 12:18:15.07	32.88	7.10	-42.2	-43.4	21.3	0.00e+00	0	41	0	159383552	58	6007
2026-01-24 12:18:19.10	33.37	7.31	-42.4	-43.6	20.9	0.00e+00	0	41	0	166723584	58	6170
2026-01-24 12:18:23.14	33.87	7.52	-43.8	-45.3	19.4	0.00e+00	0	41	0	174063616	58	7462
2026-01-24 12:18:27.18	34.38	7.72	-42.5	-43.7	20.9	0.00e+00	0	41	0	182452224	58	6230
2026-01-24 12:18:31.22	34.89	7.93	-41.8	-43.0	21.7	0.00e+00	0	41	0	189792256	56	6402
2026-01-24 12:18:35.26	35.41	8.14	-42.2	-43.4	21.4	0.00e+00	0	41	0	197132288	56	6703
2026-01-24 12:18:39.31	35.94	8.34	-42.5	-43.7	21.1	0.00e+00	0	41	0	204472320	56	6939
2026-01-24 12:18:43.34	36.47	8.55	-41.8	-42.9	21.9	0.00e+00	0	41	0	212860928	56	6351
2026-01-24 12:18:47.38	37.01	8.75	-41.4	-42.4	22.3	0.00e+00	0	41	0	220200960	56	6001
2026-01-24 12:18:51.42	37.56	8.96	-41.5	-42.6	22.1	0.00e+00	0	41	0	227540992	56	6115
2026-01-24 12:18:55.46	38.11	9.16	-41.3	-42.3	22.4	0.00e+00	0	41	0	234881024	56	5947
2026-01-24 12:18:59.50	38.67	9.37	-40.8	-41.7	22.9	0.00e+00	0	41	0	242221056	56	5565
2026-01-24 12:19:03.53	39.24	9.57	-41.0	-42.0	22.6	0.00e+00	0	41	0	250609664	54	6414
2026-01-24 12:19:07.57	39.82	9.77	-41.0	-42.0	22.7	0.00e+00	0	41	0	257949696	54	6419
2026-01-24 12:19:11.61	40.41	9.97	-41.0	-42.0	22.7	0.00e+00	0	41	0	265289728	54	6428
2026-01-24 12:19:15.65	41.00	10.17	-40.8	-41.8	22.9	0.00e+00	0	41	0	272629760	54	6291
2026-01-24 12:19:19.68	41.60	10.37	-41.0	-42.0	22.7	0.00e+00	0	41	0	279969792	54	6424
2026-01-24 12:19:23.72	42.21	10.57	-40.8	-41.8	22.8	0.00e+00	0	41	0	288358400	54	6298
2026-01-24 12:19:27.75	42.83	10.76	-41.1	-42.1	22.6	0.00e+00	0	41	0	295698432	54	6533
2026-01-24 12:19:31.79	43.45	10.96	-41.0	-42.0	22.7	0.00e+00	0	41	0	303038464	54	6440
2026-01-24 12:19:35.83	44.09	11.15	-41.3	-42.3	22.4	0.00e+00	0	41	0	310378496	54	6677
2026-01-24 12:19:39.87	44.73	11.34	-41.4	-42.4	22.3	0.00e+00	0	41	0	318767104	54	6755
2026-01-24 12:19:43.90	45.38	11.53	-41.1	-42.1	22.6	0.00e+00	0	41	0	326107136	56	5798
2026-01-24 12:19:47.94	46.03	11.72	-41.6	-42.7	22.2	0.00e+00	0	41	0	333447168	56	6200
2026-01-24 12:19:51.98	46.70	11.91	-41.6	-42.6	22.3	0.00e+00	0	41	0	340787200	56	6153
2026-01-24 12:19:56.02	47.37	12.09	-41.7	-42.8	22.1	0.00e+00	0	41	0	348127232	56	6273
2026-01-24 12:20:00.06	48.06	12.28	-41.9	-43.0	21.8	0.00e+00	0	41	0	356515840	56	6407
2026-01-24 12:20:04.10	48.75	12.46	-42.4	-43.6	21.4	0.00e+00	0	41	0	363855872	56	6864
2026-01-24 12:20:08.12	49.44	12.63	-42.5	-43.7	21.3	0.00e+00	0	41	0	371195904	56	6971
2026-01-24 12:20:12.16	50.15	12.81	-42.5	-43.7	21.3	0.00e+00	0	41	0	378535936	58	6232
2026-01-24 12:20:16.19	50.86	12.98	-42.7	-43.9	21.1	0.00e+00	0	41	0	386924544	58	6349
2026-01-24 12:20:20.23	51.59	13.15	-42.7	-43.9	21.0	0.00e+00	0	41	0	394264576	58	6363
2026-01-24 12:20:24.26	52.32	13.31	-42.7	-43.9	21.1	0.00e+00	0	41	0	401604608	58	6359
2026-01-24 12:20:28.30	53.06	13.48	-43.2	-44.5	20.6	0.00e+00	0	41	0	408944640	58	6776
2026-01-24 12:20:32.34	53.80	13.64	-43.2	-44.5	20.5	0.00e+00	0	41	0	416284672	58	6842
2026-01-24 12:20:36.38	54.56	13.79	-43.1	-44.3	20.6	0.00e+00	0	41	0	424673280	58	6690
2026-01-24 12:20:40.41	55.32	13.95	-42.9	-44.1	20.9	0.00e+00	0	41	0	432013312	58	6489
2026-01-24 12:20:44.45	56.09	14.10	-42.5	-43.7	21.3	0.00e+00	0	41	0	439353344	58	6194
2026-01-24 12:20:48.49	56.87	14.24	-42.5	-43.6	21.3	0.00e+00	0	41	0	446693376	58	6165
2026-01-24 12:20:52.53	57.65	14.38	-42.2	-43.4	21.6	0.00e+00	0	41	0	455081984	58	5968
2026-01-24 12:20:56.57	58.45	14.52	-41.5	-42.5	22.4	0.00e+00	0	41	0	462422016	56	6084
2026-01-24 12:21:00.60	59.25	14.65	-41.2	-42.2	22.7	0.00e+00	0	41	0	469762048	56	5845
2026-01-24 12:21:04.64	60.05	14.78	-41.5	-42.5	22.5	0.00e+00	0	41	0	477102080	56	6079
2026-01-24 12:21:08.67	60.86	14.90	-41.3	-42.3	22.6	0.00e+00	0	41	0	484442112	56	5935
2026-01-24 12:21:12.71	61.68	15.02	-41.4	-42.4	22.4	0.00e+00	0	41	0	492830720	56	5992
2026-01-24 12:21:16.75	62.51	15.13	-41.4	-42.4	22.4	0.00e+00	0	41	0	500170752	56	5987
2026-01-24 12:21:20.78	63.34	15.24	-41.7	-42.8	22.1	0.00e+00	0	41	0	507510784	56	6279
2026-01-24 12:21:24.82	64.18	15.35	-42.0	-43.0	21.9	0.00e+00	0	41	0	514850816	56	6460
2026-01-24 12:21:28.86	65.02	15.44	-42.3	-43.4	21.7	0.00e+00	0	41	0	523239424	56	6718
2026-01-24 12:21:32.90	65.87	15.54	-41.9	-43.0	21.9	0.00e+00	0	41	0	530579456	56	6442
2026-01-24 12:21:36.94	66.72	15.62	-41.8	-42.9	22.0	0.00e+00	0	41	0	537919488	56	6384
2026-01-24 12:21:40.97	67.58	15.71	-41.7	-42.8	22.0	0.00e+00	0	41	0	545259520	56	6314
2026-01-24 12:21:45.01	68.44	15.78	-42.0	-43.1	22.0	0.00e+00	0	41	0	552599552	56	6492
2026-01-24 12:21:49.05	69.31	15.85	-41.5	-42.6	22.3	0.00e+00	0	41	0	560988160	56	6130
2026-01-24 12:21:53.08	70.18	15.92	-41.6	-42.7	22.2	0.00e+00	0	41	0	568328192	56	6193
2026-01-24 12:21:57.12	71.06	15.97	-41.7	-42.8	22.1	0.00e+00	0	41	0	575668224	56	6257
2026-01-24 12:22:01.16	71.93	16.02	-41.8	-42.9	22.0	0.00e+00	0	41	0	583008256	56	6360
2026-01-24 12:22:05.20	72.82	16.07	-41.7	-42.7	22.2	0.00e+00	0	41	0	591396864	56	6215
2026-01-24 12:22:09.24	73.70	16.11	-41.6	-42.7	22.3	0.00e+00	0	41	0	598736896	56	6195
2026-01-24 12:22:13.28	74.58	16.14	-41.5	-42.5	22.5	0.00e+00	0	41	0	606076928	56	6069
2026-01-24 12:22:17.31	75.47	16.17	-41.7	-42.7	22.2	0.00e+00	0	41	0	613416960	56	6225
2026-01-24 12:22:21.35	76.36	16.19	-41.6	-42.7	22.4	0.00e+00	0	41	0	620756992	56	6176
2026-01-24 12:22:25.39	77.25	16.20	-41.4	-42.4	22.6	0.00e+00	0	41	0	629145600	56	5989
2026-01-24 12:22:29.43	78.14	16.21	-41.3	-42.3	22.5	0.00e+00	0	41	0	636485632	56	5956
2026-01-24 12:22:33.47	79.03	16.21	-41.4	-42.4	22.6	0.00e+00	0	41	0	643825664	56	6004
2026-01-24 12:22:37.51	79.92	16.20	-41.1	-42.1	22.8	0.00e+00	0	41	0	651165696	56	5824
2026-01-24 12:22:41.55	80.81	16.19	-41.0	-41.9	23.0	0.00e+00	0	41	0	659554304	56	5679
2026-01-24 12:22:45.59	81.70	16.17	-41.3	-42.4	22.5	0.00e+00	0	41	0	666894336	56	5969
2026-01-24 12:22:49.62	82.58	16.14	-41.4	-42.4	22.4	0.00e+00	0	41	0	674234368	56	5994
2026-01-24 12:22:53.66	83.47	16.11	-41.4	-42.4	22.5	0.00e+00	0	41	0	681574400	56	6029
2026-01-24 12:22:57.70	84.35	16.07	-40.5	-41.6	23.3	0.00e+00	0	41	0	688914432	54	6105
2026-01-24 12:23:01.74	85.23	16.03	-40.8	-41.7	23.1	0.00e+00	0	41	0	697303040	54	6218
2026-01-24 12:23:05.78	86.11	15.97	-40.7	-41.6	23.0	0.00e+00	0	41	0	704643072	54	6146
2026-01-24 12:23:09.81	86.99	15.92	-40.6	-41.6	23.2	0.00e+00	0	41	0	711983104	54	6126
2026-01-24 12:23:13.85	87.86	15.85	-40.5	-41.5	23.2	0.00e+00	0	41	0	719323136	54	6046
2026-01-24 12:23:17.89	88.73	15.78	-40.8	-41.8	22.9	0.00e+00	0	41	0	727711744	54	6268
2026-01-24 12:23:21.93	89.60	15.71	-40.2	-41.1	23.6	0.00e+00	0	41	0	735051776	54	5825
2026-01-24 12:23:25.96	90.45	15.63	-40.3	-41.3	23.2	0.00e+00	0	41	0	742391808	54	5900
2026-01-24 12:23:30.00	91.31	15.54	-40.7	-41.7	23.1	0.00e+00	0	41	0	749731840	54	6175
2026-01-24 12:23:34.04	92.16	15.45	-40.2	-41.1	23.6	0.00e+00	0	41	0	757071872	54	5800
2026-01-24 12:23:38.07	93.00	15.35	-39.7	-40.6	24.1	0.00e+00	0	41	0	765460480	52	6127
2026-01-24 12:23:42.11	93.84	15.24	-39.5	-40.4	24.2	0.00e+00	0	41	0	772800512	52	5970
2026-01-24 12:23:46.15	94.68	15.14	-39.8	-40.7	23.9	0.00e+00	0	41	0	780140544	52	6175
2026-01-24 12:23:50.19	95.51	15.02	-40.0	-40.9	23.9	0.00e+00	0	41	0	787480576	52	6337
2026-01-24 12:23:54.22	96.33	14.90	-39.5	-40.4	24.2	0.00e+00	0	41	0	794820608	52	5968
2026-01-24 12:23:58.26	97.14	14.78	-39.5	-40.4	24.3	0.00e+00	0	41	0	803209216	52	6000
2026-01-24 12:24:02.30	97.95	14.65	-40.0	-40.9	23.7	0.00e+00	0	41	0	810549248	52	6379
2026-01-24 12:24:06.34	98.76	14.52	-40.5	-41.5	23.1	0.00e+00	0	41	0	817889280	52	6774
2026-01-24 12:24:10.37	99.55	14.38	-40.2	-41.1	23.1	0.00e+00	0	41	0	825229312	52	6536
2026-01-24 12:24:14.40	100.34	14.24	-40.5	-41.4	23.3	0.00e+00	0	41	0	833617920	52	6761
2026-01-24 12:24:18.44	101.12	14.09	-40.4	-41.3	23.2	0.00e+00	0	41	0	840957952	52	6678
2026-01-24 12:24:22.48	101.89	13.94	-41.2	-42.2	22.4	0.00e+00	0	41	0	848297984	54	6576
2026-01-24 12:24:26.51	102.65	13.79	-42.2	-43.3	21.6	0.00e+00	0	41	0	855638016	56	6687
2026-01-24 12:24:30.55	103.41	13.63	-42.5	-43.7	21.2	0.00e+00	0	41	0	862978048	56	6990
2026-01-24 12:24:34.59	104.16	13.47	-42.4	-43.6	21.3	0.00e+00	0	41	0	871366656	58	6155
2026-01-24 12:24:38.63	104.91	13.31	-42.0	-43.2	21.7	0.00e+00	0	41	0	878706688	58	5837
2026-01-24 12:24:42.66	105.64	13.14	-41.9	-43.0	21.8	0.00e+00	0	41	0	886046720	56	6462
2026-01-24 12:24:46.70	106.36	12.97	-42.4	-43.6	21.3	0.00e+00	0	41	0	893386752	56	6888
2026-01-24 12:24:50.74	107.08	12.80	-42.7	-44.0	20.8	0.00e+00	0	41	0	900726784	58	6445
2026-01-24 12:24:54.77	107.79	12.62	-42.5	-43.7	20.9	0.00e+00	0	41	0	909115392	58	6207
2026-01-24 12:24:58.81	108.49	12.44	-42.1	-43.2	21.6	0.00e+00	0	41	0	916455424	58	5895
2026-01-24 12:25:02.85	109.19	12.26	-42.0	-43.2	21.4	0.00e+00	0	41	0	923795456	58	5844
2026-01-24 12:25:06.89	109.87	12.08	-41.7	-42.8	21.9	0.00e+00	0	41	0	931135488	56	6317
2026-01-24 12:25:10.93	110.55	11.89	-42.0	-43.1	21.6	0.00e+00	0	41	0	939524096	56	6513
2026-01-24 12:25:14.97	111.22	11.70	-41.9	-43.1	21.5	0.00e+00	0	41	0	946864128	56	6504
2026-01-24 12:25:19.00	111.88	11.51	-42.2	-43.5	21.3	0.00e+00	0	41	0	954204160	56	6789
2026-01-24 12:25:23.04	112.53	11.32	-42.1	-43.3	21.5	0.00e+00	0	41	0	961544192	56	6644
2026-01-24 12:25:27.08	113.17	11.13	-41.0	-42.0	22.8	0.00e+00	0	41	0	968884224	56	5697
2026-01-24 12:25:31.11	113.81	10.93	-40.8	-41.9	22.7	0.00e+00	0	41	0	977272832	54	6354
2026-01-24 12:25:35.16	114.44	10.74	-41.3	-42.4	22.2	0.00e+00	0	41	0	984612864	54	6719
2026-01-24 12:25:39.20	115.06	10.54	-41.4	-42.5	22.1	0.00e+00	0	41	0	991952896	54	6776
2026-01-24 12:25:43.23	115.67	10.34	-41.2	-42.2	22.4	0.00e+00	0	41	0	999292928	54	6583
2026-01-24 12:25:47.27	116.27	10.14	-41.3	-42.3	22.3	0.00e+00	0	41	0	1007681536	54	6660
2026-01-24 12:25:51.31	116.87	9.94	-40.8	-41.8	22.7	0.00e+00	0	41	0	1015021568	54	6287
2026-01-24 12:25:55.34	117.45	9.73	-41.3	-42.4	22.2	0.00e+00	0	41	0	1022361600	54	6737
2026-01-24 12:25:59.38	118.03	9.53	-41.6	-42.7	21.8	0.00e+00	0	41	0	1029701632	56	6238
2026-01-24 12:26:03.41	118.60	9.33	-41.8	-42.9	21.9	0.00e+00	0	41	0	1037041664	56	6352
2026-01-24 12:26:07.45	119.17	9.12	-42.0	-43.1	21.5	0.00e+00	0	41	0	1045430272	56	6506
2026-01-24 12:26:11.49	119.73	8.91	-42.0	-43.1	21.6	0.00e+00	0	41	0	1052770304	56	6515
2026-01-24 12:26:15.53	120.27	8.71	-41.6	-42.7	21.9	0.00e+00	0	41	0	1060110336	56	6192
2026-01-24 12:26:19.57	120.82	8.50	-41.6	-42.7	21.9	0.00e+00	0	41	0	1067450368	56	6182
2026-01-24 12:26:23.61	121.35	8.29	-41.7	-42.8	21.7	0.00e+00	0	41	0	1075838976	56	6266
2026-01-24 12:26:27.65	121.88	8.09	-42.0	-43.2	21.4	0.00e+00	0	41	0	1083179008	56	6570
2026-01-24 12:26:31.69	122.40	7.88	-41.9	-43.0	21.5	0.00e+00	0	41	0	1090519040	56	6428
2026-01-24 12:26:35.72	122.91	7.67	-42.2	-43.4	21.1	0.00e+00	0	41	0	1097859072	56	6723
2026-01-24 12:26:39.76	123.42	7.46	-42.4	-43.7	20.8	0.00e+00	0	41	0	1105199104	58	6179
2026-01-24 12:26:43.79	123.91	7.25	-42.2	-43.5	20.8	0.00e+00	0	41	0	1113587712	58	6047
2026-01-24 12:26:47.83	124.41	7.04	-42.4	-43.6	20.6	0.00e+00	0	41	0	1120927744	58	6173
2026-01-24 12:26:51.87	124.89	6.84	-42.6	-43.9	20.3	0.00e+00	0	41	0	1128267776	58	6361
2026-01-24 12:26:55.91	125.37	6.63	-42.8	-44.1	20.2	0.00e+00	0	41	0	1135607808	58	6518
2026-01-24 12:26:59.94	125.84	6.42	-42.8	-44.1	20.3	0.00e+00	0	41	0	1143996416	58	6529
2026-01-24 12:27:03.98	126.31	6.21	-42.9	-44.3	20.1	0.00e+00	0	41	0	1151336448	58	6647
2026-01-24 12:27:08.02	126.77	6.00	-43.3	-44.8	19.5	0.00e+00	0	41	0	1158676480	58	7037
2026-01-24 12:27:12.05	127.22	5.79	-43.3	-44.9	19.5	0.00e+00	0	41	0	1166016512	58	7128
2026-01-24 12:27:16.09	127.67	5.58	-43.1	-44.6	19.7	0.00e+00	0	41	0	1173356544	58	6918
2026-01-24 12:27:20.13	128.11	5.38	-43.6	-45.2	19.1	0.00e+00	0	41	0	1181745152	58	7377
2026-01-24 12:27:24.16	128.54	5.17	-43.7	-45.3	19.1	0.00e+00	0	41	0	1189085184	60	6622
2026-01-24 12:27:28.19	128.97	4.96	-44.1	-45.8	18.6	0.00e+00	0	41	0	1196425216	60	7055
2026-01-24 12:27:32.23	129.40	4.75	-42.9	-44.4	19.8	0.00e+00	0	41	0	1203765248	60	5967
2026-01-24 12:27:36.26	129.81	4.55	-43.8	-45.5	18.7	0.00e+00	0	41	0	1211105280	60	6791
2026-01-24 12:27:40.29	130.22	4.34	-44.3	-46.1	17.9	0.00e+00	0	41	0	1219493888	60	7304
2026-01-24 12:27:44.33	130.63	4.14	-44.1	-45.9	18.3	0.00e+00	0	41	0	1226833920	60	7162
2026-01-24 12:27:48.37	131.03	3.93	-43.7	-45.5	18.6	0.00e+00	0	41	0	1234173952	60	6780
2026-01-24 12:27:52.40	131.43	3.73	-45.7	-48.2	16.1	0.00e+00	0	41	0	1241513984	60	9340
2026-01-24 12:27:56.44	131.82	3.52	-45.3	-47.6	16.4	0.00e+00	0	41	0	1249902592	60	8640
2026-01-24 12:28:00.48	132.20	3.32	-45.1	-47.3	16.7	0.00e+00	0	41	0	1257242624	60	8377
2026-01-24 12:28:04.52	132.58	3.11	-46.5	-49.7	14.1	0.00e+00	0	41	0	1264582656	60	11038
2026-01-24 12:28:08.56	132.96	2.91	-50.5	-65.8	3.6	1.51e+00	0	41	104	1267728384	60	70100
2026-01-24 12:28:12.59	133.33	2.71	-51.0	-66.3	3.6	1.51e+00	0	42	104	1267728384	60	74466
2026-01-24 12:28:16.64	133.70	2.51	-51.2	-66.4	3.6	1.51e+00	0	42	104	1267728384	60	75945
2026-01-24 12:28:20.67	134.06	2.30	-51.3	-66.5	3.6	1.51e+00	0	41	104	1267728384	60	76451
2026-01-24 12:28:24.71	134.41	2.10	-51.3	-66.6	3.6	1.51e+00	0	42	104	1267728384	60	76946
2026-01-24 12:28:28.75	134.76	1.90	-51.4	-66.6	3.6	1.51e+00	0	42	104	1267728384	60	77439
2026-01-24 12:28:32.79	135.11	1.70	-51.6	-66.8	3.6	1.51e+00	0	42	104	1267728384	60	78873
2026-01-24 12:28:36.83	135.45	1.50	-51.6	-66.8	3.6	1.51e+00	0	42	104	1267728384	60	79096
2026-01-24 12:28:40.86	135.79	1.30	-51.7	-66.9	3.6	1.51e+00	0	42	104	1267728384	60	79637
2026-01-24 12:28:44.90	136.13	1.11	-51.5	-66.7	3.6	1.51e+00	0	42	104	1267728384	60	77803
2026-01-24 12:28:48.94	136.46	0.91	-51.4	-66.7	3.6	1.51e+00	0	41	104	1267728384	60	77756
2026-01-24 12:28:52.98	136.78	0.71	-51.4	-66.6	3.6	1.51e+00	0	42	104	1267728384	60	77175
2026-01-24 12:28:57.02	137.10	0.51	-51.6	-66.7	3.6	1.51e+00	0	42	104	1267728384	60	78433
2026-01-24 12:29:01.06	137.42	0.32	-51.5	-66.7	3.6	1.51e+00	0	42	104	1267728384	60	78222
2026-01-24 12:29:05.09	137.73	0.12	-51.8	-67.0	3.6	1.51e+00	0	42	104	1267728384	60	80464

#Closed at: 2026-01-24 12:29:07
#Recorded file [1267 MB]: D:/lorett/data/35029_260125_001553.dat