passes_logs/2025/01/11/SPB_Silybum_02/SPB_Silybum_02__20250111_232900_SUOMI_NPP_rec.log

#Pass ID: 20250111_232900_SUOMI NPP
#Satellite: SUOMI NPP
#Configuration: NPP
#Start time: 2025-01-11 23:29:00

#Version: 2.0.20230423
#Station: SPB_Silybum_02
#Location: 30.233357 lon 59.946436 lat
#TLE: 1 37849U 11061A   25010.83173011  .00000170  00000+0  10148-3 0  9996
#TLE: 2 37849  98.7441 311.8732 0001811  47.3940 312.7388 14.19536379684322

#Time	Az	El	Level	Level2	SNR	BER	Gain	Gain2
2025-01-11 23:29:02.95	21.24	4.14	
2025-01-11 23:29:04.38	21.30	4.23	
2025-01-11 23:29:05.82	21.36	4.33	
2025-01-11 23:29:07.26	21.42	4.42	
2025-01-11 23:29:08.69	21.48	4.52	
2025-01-11 23:29:10.13	21.55	4.61	
2025-01-11 23:29:11.56	21.61	4.71	
2025-01-11 23:29:12.99	21.67	4.81	
2025-01-11 23:29:14.43	21.73	4.90	
2025-01-11 23:29:15.86	21.80	5.00	
2025-01-11 23:29:17.30	21.86	5.10	
2025-01-11 23:29:18.74	21.93	5.20	
2025-01-11 23:29:20.17	21.99	5.29	
2025-01-11 23:29:21.61	22.06	5.39	
2025-01-11 23:29:23.06	22.12	5.49	
2025-01-11 23:29:24.50	22.19	5.59	
2025-01-11 23:29:25.95	22.25	5.69	
2025-01-11 23:29:27.40	22.32	5.79	
2025-01-11 23:29:28.83	22.39	5.89	
2025-01-11 23:29:30.28	22.46	6.00	
2025-01-11 23:29:31.71	22.52	6.10	
2025-01-11 23:29:33.16	22.59	6.20	
2025-01-11 23:29:34.61	22.66	6.30	
2025-01-11 23:29:36.04	22.73	6.41	
2025-01-11 23:29:37.49	22.80	6.51	
2025-01-11 23:29:38.95	22.87	6.61	
2025-01-11 23:29:40.38	22.94	6.72	
2025-01-11 23:29:41.82	23.02	6.82	
2025-01-11 23:29:43.25	23.09	6.92	
2025-01-11 23:29:44.70	23.16	7.03	
2025-01-11 23:29:46.13	23.23	7.14	
2025-01-11 23:29:47.57	23.31	7.24	
2025-01-11 23:29:49.00	23.38	7.35	
2025-01-11 23:29:50.44	23.45	7.45	
2025-01-11 23:29:51.87	23.53	7.56	
2025-01-11 23:29:53.32	23.60	7.67	
2025-01-11 23:29:54.76	23.68	7.78	
2025-01-11 23:29:56.19	23.75	7.88	
2025-01-11 23:29:57.64	23.83	7.99	
2025-01-11 23:29:59.08	23.91	8.10	
2025-01-11 23:30:00.52	23.99	8.21	
2025-01-11 23:30:01.96	24.06	8.32	
2025-01-11 23:30:03.39	24.14	8.43	
2025-01-11 23:30:04.83	24.22	8.54	
2025-01-11 23:30:06.26	24.30	8.65	
2025-01-11 23:30:07.70	24.38	8.76	
2025-01-11 23:30:09.13	24.46	8.87	
2025-01-11 23:30:10.58	24.54	8.99	
2025-01-11 23:30:12.02	24.63	9.10	
2025-01-11 23:30:13.45	24.71	9.21	
2025-01-11 23:30:14.89	24.79	9.33	
2025-01-11 23:30:16.32	24.88	9.44	
2025-01-11 23:30:17.76	24.96	9.56	
2025-01-11 23:30:19.20	25.05	9.67	
2025-01-11 23:30:20.64	25.13	9.79	
2025-01-11 23:30:22.08	25.22	9.91	
2025-01-11 23:30:23.51	25.30	10.02	
2025-01-11 23:30:24.96	25.39	10.14	
2025-01-11 23:30:26.39	25.48	10.26	
2025-01-11 23:30:27.83	25.57	10.38	
2025-01-11 23:30:29.27	25.66	10.49	
2025-01-11 23:30:30.72	25.75	10.62	
2025-01-11 23:30:32.15	25.84	10.73	
2025-01-11 23:30:33.59	25.93	10.86	
2025-01-11 23:30:35.02	26.02	10.98	
2025-01-11 23:30:36.46	26.12	11.10	
2025-01-11 23:30:37.91	26.21	11.22	
2025-01-11 23:30:39.34	26.31	11.34	
2025-01-11 23:30:40.78	26.40	11.47	
2025-01-11 23:30:42.23	26.50	11.59	
2025-01-11 23:30:43.68	26.60	11.72	
2025-01-11 23:30:45.11	26.69	11.84	
2025-01-11 23:30:46.55	26.79	11.97	
2025-01-11 23:30:47.99	26.89	12.09	
2025-01-11 23:30:49.43	26.99	12.22	
2025-01-11 23:30:50.86	27.09	12.35	
2025-01-11 23:30:52.29	27.19	12.47	
2025-01-11 23:30:53.74	27.30	12.60	
2025-01-11 23:30:55.17	27.40	12.73	
2025-01-11 23:30:56.61	27.50	12.86	
2025-01-11 23:30:58.04	27.61	12.99	
2025-01-11 23:30:59.49	27.71	13.12	
2025-01-11 23:31:00.92	27.82	13.25	
2025-01-11 23:31:02.36	27.93	13.38	
2025-01-11 23:31:03.82	28.04	13.52	
2025-01-11 23:31:05.28	28.15	13.66	
2025-01-11 23:31:06.73	28.26	13.79	
2025-01-11 23:31:08.17	28.37	13.93	
2025-01-11 23:31:09.60	28.48	14.06	
2025-01-11 23:31:11.03	28.60	14.20	
2025-01-11 23:31:12.48	28.71	14.33	
2025-01-11 23:31:13.92	28.83	14.47	
2025-01-11 23:31:15.35	28.94	14.61	
2025-01-11 23:31:16.79	29.06	14.75	
2025-01-11 23:31:18.24	29.18	14.89	
2025-01-11 23:31:19.68	29.30	15.03	
2025-01-11 23:31:21.11	29.42	15.17	
2025-01-11 23:31:22.54	29.54	15.31	
2025-01-11 23:31:23.98	29.66	15.45	
2025-01-11 23:31:25.43	29.79	15.60	
2025-01-11 23:31:26.86	29.91	15.74	
2025-01-11 23:31:28.31	30.04	15.88	
2025-01-11 23:31:29.75	30.17	16.03	
2025-01-11 23:31:31.18	30.29	16.18	
2025-01-11 23:31:32.63	30.42	16.32	
2025-01-11 23:31:34.08	30.56	16.47	
2025-01-11 23:31:35.52	30.69	16.62	
2025-01-11 23:31:36.96	30.82	16.77	
2025-01-11 23:31:38.40	30.96	16.92	
2025-01-11 23:31:39.84	31.09	17.07	
2025-01-11 23:31:41.27	31.23	17.22	
2025-01-11 23:31:42.72	31.37	17.37	
2025-01-11 23:31:44.15	31.51	17.53	
2025-01-11 23:31:45.60	31.65	17.68	
2025-01-11 23:31:47.03	31.79	17.84	
2025-01-11 23:31:48.48	31.94	17.99	
2025-01-11 23:31:49.91	32.08	18.15	
2025-01-11 23:31:51.35	32.23	18.31	
2025-01-11 23:31:52.79	32.38	18.46	
2025-01-11 23:31:54.22	32.53	18.62	
2025-01-11 23:31:55.68	32.68	18.78	
2025-01-11 23:31:57.11	32.83	18.94	
2025-01-11 23:31:58.54	32.99	19.10	
2025-01-11 23:32:00.00	33.14	19.27	
2025-01-11 23:32:01.44	33.30	19.43	
2025-01-11 23:32:02.88	33.46	19.60	
2025-01-11 23:32:04.31	33.62	19.76	
2025-01-11 23:32:05.75	33.78	19.93	
2025-01-11 23:32:07.18	33.95	20.09	
2025-01-11 23:32:08.61	34.11	20.26	
2025-01-11 23:32:10.06	34.28	20.43	
2025-01-11 23:32:11.50	34.45	20.60	
2025-01-11 23:32:12.93	34.62	20.77	
2025-01-11 23:32:14.37	34.79	20.94	
2025-01-11 23:32:15.81	34.97	21.11	
2025-01-11 23:32:17.26	35.15	21.28	
2025-01-11 23:32:18.70	35.33	21.46	
2025-01-11 23:32:20.14	35.51	21.63	
2025-01-11 23:32:21.58	35.69	21.81	
2025-01-11 23:32:23.03	35.88	21.99	
2025-01-11 23:32:24.46	36.06	22.16	
2025-01-11 23:32:25.90	36.25	22.34	
2025-01-11 23:32:27.35	36.45	22.52	
2025-01-11 23:32:28.79	36.64	22.71	
2025-01-11 23:32:30.22	36.83	22.89	
2025-01-11 23:32:31.66	37.03	23.07	
2025-01-11 23:32:33.09	37.23	23.25	
2025-01-11 23:32:34.53	37.43	23.44	
2025-01-11 23:32:35.96	37.64	23.62	
2025-01-11 23:32:37.40	37.84	23.81	
2025-01-11 23:32:38.84	38.05	23.99	
2025-01-11 23:32:40.28	38.26	24.18	
2025-01-11 23:32:41.71	38.48	24.37	
2025-01-11 23:32:43.14	38.69	24.56	
2025-01-11 23:32:44.58	38.91	24.75	
2025-01-11 23:32:46.01	39.13	24.94	
2025-01-11 23:32:47.45	39.36	25.14	
2025-01-11 23:32:48.88	39.58	25.33	
2025-01-11 23:32:50.32	39.81	25.53	
2025-01-11 23:32:51.75	40.04	25.72	
2025-01-11 23:32:53.19	40.28	25.92	
2025-01-11 23:32:54.62	40.52	26.11	
2025-01-11 23:32:56.06	40.76	26.31	
2025-01-11 23:32:57.49	41.00	26.51	
2025-01-11 23:32:58.93	41.25	26.71	
2025-01-11 23:33:00.37	41.50	26.92	
2025-01-11 23:33:01.80	41.75	27.12	
2025-01-11 23:33:03.24	42.01	27.32	
2025-01-11 23:33:04.68	42.27	27.53	
2025-01-11 23:33:06.11	42.53	27.73	
2025-01-11 23:33:07.55	42.80	27.94	
2025-01-11 23:33:08.98	43.07	28.14	
2025-01-11 23:33:10.42	43.34	28.35	
2025-01-11 23:33:11.87	43.62	28.56	
2025-01-11 23:33:13.31	43.90	28.77	
2025-01-11 23:33:14.74	44.18	28.98	
2025-01-11 23:33:16.18	44.47	29.20	
2025-01-11 23:33:17.61	44.76	29.41	
2025-01-11 23:33:19.05	45.05	29.62	
2025-01-11 23:33:20.49	45.35	29.84	
2025-01-11 23:33:21.93	45.66	30.05	
2025-01-11 23:33:23.36	45.96	30.27	
2025-01-11 23:33:24.80	46.27	30.48	
2025-01-11 23:33:26.24	46.59	30.70	
2025-01-11 23:33:27.67	46.91	30.92	
2025-01-11 23:33:29.11	47.23	31.14	
2025-01-11 23:33:30.54	47.56	31.35	
2025-01-11 23:33:31.98	47.89	31.57	
2025-01-11 23:33:33.41	48.22	31.79	
2025-01-11 23:33:34.85	48.56	32.02	
2025-01-11 23:33:36.28	48.91	32.24	
2025-01-11 23:33:37.73	49.26	32.46	
2025-01-11 23:33:39.17	49.62	32.68	
2025-01-11 23:33:40.62	49.98	32.91	
2025-01-11 23:33:42.05	50.34	33.13	
2025-01-11 23:33:43.49	50.71	33.35	
2025-01-11 23:33:44.92	51.09	33.58	
2025-01-11 23:33:46.36	51.47	33.80	
2025-01-11 23:33:47.79	51.85	34.03	
2025-01-11 23:33:49.24	52.24	34.25	
2025-01-11 23:33:50.68	52.64	34.48	
2025-01-11 23:33:52.11	53.04	34.70	
2025-01-11 23:33:53.55	53.44	34.93	
2025-01-11 23:33:54.99	53.86	35.16	
2025-01-11 23:33:56.43	54.28	35.38	
2025-01-11 23:33:57.86	54.70	35.61	
2025-01-11 23:33:59.30	55.13	35.83	
2025-01-11 23:34:00.74	55.56	36.06	
2025-01-11 23:34:02.17	56.00	36.28	
2025-01-11 23:34:03.61	56.45	36.51	
2025-01-11 23:34:05.05	56.90	36.73	
2025-01-11 23:34:06.48	57.36	36.95	
2025-01-11 23:34:07.92	57.83	37.18	
2025-01-11 23:34:09.36	58.30	37.40	
2025-01-11 23:34:10.79	58.78	37.62	
2025-01-11 23:34:12.23	59.26	37.84	
2025-01-11 23:34:13.66	59.75	38.06	
2025-01-11 23:34:15.10	60.25	38.28	
2025-01-11 23:34:16.54	60.76	38.50	
2025-01-11 23:34:17.97	61.26	38.72	
2025-01-11 23:34:19.41	61.78	38.93	
2025-01-11 23:34:20.84	62.31	39.15	
2025-01-11 23:34:22.28	62.84	39.36	
2025-01-11 23:34:23.73	63.38	39.58	
2025-01-11 23:34:25.17	63.93	39.79	
2025-01-11 23:34:26.60	64.48	40.00	
2025-01-11 23:34:28.03	65.04	40.20	
2025-01-11 23:34:29.48	65.61	40.41	
2025-01-11 23:34:30.92	66.18	40.61	
2025-01-11 23:34:32.35	66.76	40.82	
2025-01-11 23:34:33.79	67.35	41.02	
2025-01-11 23:34:35.24	67.95	41.21	
2025-01-11 23:34:36.68	68.56	41.41	
2025-01-11 23:34:38.13	69.17	41.60	
2025-01-11 23:34:39.56	69.79	41.79	
2025-01-11 23:34:41.00	70.41	41.98	
2025-01-11 23:34:42.43	71.04	42.16	
2025-01-11 23:34:43.87	71.68	42.35	
2025-01-11 23:34:45.30	72.33	42.52	
2025-01-11 23:34:46.74	72.98	42.70	
2025-01-11 23:34:48.17	73.64	42.87	
2025-01-11 23:34:49.61	74.31	43.04	
2025-01-11 23:34:51.04	74.98	43.20	
2025-01-11 23:34:52.49	75.66	43.37	
2025-01-11 23:34:53.93	76.35	43.52	
2025-01-11 23:34:55.37	77.05	43.68	
2025-01-11 23:34:56.80	77.74	43.83	
2025-01-11 23:34:58.24	78.45	43.97	
2025-01-11 23:34:59.69	79.17	44.11	
2025-01-11 23:35:01.13	79.90	44.25	
2025-01-11 23:35:02.56	80.62	44.38	
2025-01-11 23:35:03.99	81.35	44.51	
2025-01-11 23:35:05.43	82.09	44.63	
2025-01-11 23:35:06.86	82.82	44.75	
2025-01-11 23:35:08.32	83.59	44.87	
2025-01-11 23:35:09.75	84.34	44.97	
2025-01-11 23:35:11.18	85.09	45.08	
2025-01-11 23:35:12.62	85.86	45.17	
2025-01-11 23:35:14.05	86.62	45.27	
2025-01-11 23:35:15.49	87.39	45.35	
2025-01-11 23:35:16.93	88.17	45.43	
2025-01-11 23:35:18.37	88.96	45.51	
2025-01-11 23:35:19.80	89.74	45.58	
2025-01-11 23:35:21.26	90.54	45.65	
2025-01-11 23:35:22.69	91.32	45.71	
2025-01-11 23:35:24.13	92.12	45.76	
2025-01-11 23:35:25.57	92.92	45.81	
2025-01-11 23:35:27.01	93.72	45.85	
2025-01-11 23:35:28.44	94.51	45.88	
2025-01-11 23:35:29.89	95.32	45.91	
2025-01-11 23:35:31.34	96.13	45.94	
2025-01-11 23:35:32.77	96.93	45.95	
2025-01-11 23:35:34.21	97.74	45.96	
2025-01-11 23:35:35.66	98.55	45.97	
2025-01-11 23:35:37.11	99.36	45.97	
2025-01-11 23:35:38.54	100.17	45.96	
2025-01-11 23:35:39.98	100.97	45.95	
2025-01-11 23:35:41.41	101.77	45.93	
2025-01-11 23:35:42.85	102.58	45.90	
2025-01-11 23:35:44.29	103.38	45.87	
2025-01-11 23:35:45.73	104.18	45.83	
2025-01-11 23:35:47.16	104.98	45.79	
2025-01-11 23:35:48.60	105.77	45.74	
2025-01-11 23:35:50.04	106.57	45.69	
2025-01-11 23:35:51.48	107.36	45.62	
2025-01-11 23:35:52.92	108.15	45.56	
2025-01-11 23:35:54.35	108.93	45.49	
2025-01-11 23:35:55.78	109.71	45.41	
2025-01-11 23:35:57.24	110.49	45.32	
2025-01-11 23:35:58.67	111.26	45.23	
2025-01-11 23:36:00.11	112.03	45.14	
2025-01-11 23:36:01.55	112.80	45.04	
2025-01-11 23:36:03.00	113.56	44.93	
2025-01-11 23:36:04.44	114.32	44.82	
2025-01-11 23:36:05.89	115.07	44.71	
2025-01-11 23:36:07.32	115.81	44.59	
2025-01-11 23:36:08.76	116.55	44.46	
2025-01-11 23:36:10.19	117.27	44.33	
2025-01-11 23:36:11.63	118.00	44.20	
2025-01-11 23:36:13.06	118.72	44.06	
2025-01-11 23:36:14.50	119.43	43.92	
2025-01-11 23:36:15.95	120.14	43.77	
2025-01-11 23:36:17.38	120.84	43.62	
2025-01-11 23:36:18.83	121.54	43.46	
2025-01-11 23:36:20.26	122.22	43.30	
2025-01-11 23:36:21.70	122.90	43.14	
2025-01-11 23:36:23.13	123.57	42.97	
2025-01-11 23:36:24.56	124.23	42.80	
2025-01-11 23:36:26.00	124.90	42.63	
2025-01-11 23:36:27.43	125.54	42.45	
2025-01-11 23:36:28.87	126.19	42.27	
2025-01-11 23:36:30.31	126.83	42.09	
2025-01-11 23:36:31.74	127.46	41.90	
2025-01-11 23:36:33.18	128.08	41.71	
2025-01-11 23:36:34.62	128.70	41.52	
2025-01-11 23:36:36.05	129.30	41.33	
2025-01-11 23:36:37.50	129.91	41.13	
2025-01-11 23:36:38.94	130.51	40.93	
2025-01-11 23:36:40.37	131.09	40.73	
2025-01-11 23:36:41.80	131.67	40.53	
2025-01-11 23:36:43.24	132.24	40.32	
2025-01-11 23:36:44.68	132.81	40.11	
2025-01-11 23:36:46.11	133.37	39.91	
2025-01-11 23:36:47.55	133.92	39.69	
2025-01-11 23:36:48.99	134.46	39.48	
2025-01-11 23:36:50.42	135.00	39.27	
2025-01-11 23:36:51.85	135.53	39.05	
2025-01-11 23:36:53.31	136.06	38.83	
2025-01-11 23:36:54.75	136.58	38.62	
2025-01-11 23:36:56.19	137.09	38.40	
2025-01-11 23:36:57.62	137.59	38.18	
2025-01-11 23:36:59.06	138.09	37.96	
2025-01-11 23:37:00.49	138.57	37.74	
2025-01-11 23:37:01.93	139.06	37.51	
2025-01-11 23:37:03.38	139.54	37.29	
2025-01-11 23:37:04.82	140.01	37.06	
2025-01-11 23:37:06.25	140.47	36.84	
2025-01-11 23:37:07.69	140.93	36.61	
2025-01-11 23:37:09.12	141.38	36.39	
2025-01-11 23:37:10.56	141.83	36.16	
2025-01-11 23:37:11.99	142.27	35.94	
2025-01-11 23:37:13.43	142.70	35.71	
2025-01-11 23:37:14.86	143.13	35.49	
2025-01-11 23:37:16.30	143.55	35.26	
2025-01-11 23:37:17.75	143.97	35.03	
2025-01-11 23:37:19.18	144.38	34.80	
2025-01-11 23:37:20.64	144.79	34.57	
2025-01-11 23:37:22.07	145.19	34.35	
2025-01-11 23:37:23.51	145.58	34.12	
2025-01-11 23:37:24.94	145.97	33.90	
2025-01-11 23:37:26.38	146.36	33.67	
2025-01-11 23:37:27.82	146.74	33.44	
2025-01-11 23:37:29.26	147.11	33.22	
2025-01-11 23:37:30.69	147.48	32.99	
2025-01-11 23:37:32.14	147.84	32.77	
2025-01-11 23:37:33.58	148.20	32.54	
2025-01-11 23:37:35.02	148.56	32.32	
2025-01-11 23:37:36.46	148.91	32.10	
2025-01-11 23:37:37.89	149.25	31.87	
2025-01-11 23:37:39.33	149.59	31.65	
2025-01-11 23:37:40.77	149.92	31.43	
2025-01-11 23:37:42.21	150.26	31.21	
2025-01-11 23:37:43.66	150.58	30.99	
2025-01-11 23:37:45.10	150.91	30.77	
2025-01-11 23:37:46.53	151.22	30.55	
2025-01-11 23:37:47.97	151.54	30.33	
2025-01-11 23:37:49.41	151.85	30.11	
2025-01-11 23:37:50.84	152.15	29.90	
2025-01-11 23:37:52.29	152.46	29.68	
2025-01-11 23:37:53.72	152.75	29.46	
2025-01-11 23:37:55.16	153.05	29.25	
2025-01-11 23:37:56.60	153.34	29.04	
2025-01-11 23:37:58.03	153.62	28.83	
2025-01-11 23:37:59.46	153.90	28.61	
2025-01-11 23:38:00.90	154.18	28.40	
2025-01-11 23:38:02.33	154.46	28.19	
2025-01-11 23:38:03.77	154.73	27.98	
2025-01-11 23:38:05.21	155.00	27.78	
2025-01-11 23:38:06.64	155.26	27.57	
2025-01-11 23:38:08.08	155.52	27.36	
2025-01-11 23:38:09.51	155.78	27.16	
2025-01-11 23:38:10.95	156.04	26.95	
2025-01-11 23:38:12.39	156.29	26.75	
2025-01-11 23:38:13.82	156.54	26.55	
2025-01-11 23:38:15.26	156.78	26.35	
2025-01-11 23:38:16.70	157.03	26.15	
2025-01-11 23:38:18.14	157.27	25.95	
2025-01-11 23:38:19.57	157.50	25.75	
2025-01-11 23:38:21.01	157.74	25.55	
2025-01-11 23:38:22.44	157.97	25.35	
2025-01-11 23:38:23.88	158.20	25.16	
2025-01-11 23:38:25.32	158.42	24.96	
2025-01-11 23:38:26.75	158.64	24.77	
2025-01-11 23:38:28.19	158.87	24.58	
2025-01-11 23:38:29.62	159.08	24.39	
2025-01-11 23:38:31.08	159.30	24.19	
2025-01-11 23:38:32.52	159.51	24.00	
2025-01-11 23:38:33.96	159.73	23.81	
2025-01-11 23:38:35.39	159.93	23.63	
2025-01-11 23:38:36.82	160.14	23.44	
2025-01-11 23:38:38.26	160.34	23.25	
2025-01-11 23:38:39.71	160.54	23.07	
2025-01-11 23:38:41.15	160.74	22.88	
2025-01-11 23:38:42.58	160.94	22.70	
2025-01-11 23:38:44.02	161.13	22.52	
2025-01-11 23:38:45.45	161.32	22.34	
2025-01-11 23:38:46.89	161.51	22.16	
2025-01-11 23:38:48.33	161.70	21.98	
2025-01-11 23:38:49.77	161.89	21.80	
2025-01-11 23:38:51.20	162.07	21.62	
2025-01-11 23:38:52.64	162.25	21.45	
2025-01-11 23:38:54.08	162.43	21.27	
2025-01-11 23:38:55.51	162.61	21.10	
2025-01-11 23:38:56.95	162.78	20.92	
2025-01-11 23:38:58.38	162.96	20.75	
2025-01-11 23:38:59.82	163.13	20.58	
2025-01-11 23:39:01.26	163.30	20.41	
2025-01-11 23:39:02.69	163.47	20.24	
2025-01-11 23:39:04.13	163.63	20.07	
2025-01-11 23:39:05.57	163.80	19.90	
2025-01-11 23:39:07.01	163.96	19.74	
2025-01-11 23:39:08.44	164.12	19.57	
2025-01-11 23:39:09.88	164.28	19.41	
2025-01-11 23:39:11.32	164.44	19.24	
2025-01-11 23:39:12.75	164.60	19.08	
2025-01-11 23:39:14.19	164.75	18.91	
2025-01-11 23:39:15.62	164.90	18.75	
2025-01-11 23:39:17.06	165.06	18.59	
2025-01-11 23:39:18.50	165.21	18.43	
2025-01-11 23:39:19.94	165.35	18.27	
2025-01-11 23:39:21.37	165.50	18.12	
2025-01-11 23:39:22.80	165.65	17.96	
2025-01-11 23:39:24.24	165.79	17.80	
2025-01-11 23:39:25.68	165.93	17.65	
2025-01-11 23:39:27.11	166.07	17.49	
2025-01-11 23:39:28.55	166.21	17.34	
2025-01-11 23:39:29.98	166.35	17.18	
2025-01-11 23:39:31.41	166.49	17.03	
2025-01-11 23:39:32.85	166.63	16.88	
2025-01-11 23:39:34.29	166.76	16.73	
2025-01-11 23:39:35.72	166.89	16.58	
2025-01-11 23:39:37.16	167.03	16.43	
2025-01-11 23:39:38.59	167.16	16.28	
2025-01-11 23:39:40.05	167.29	16.13	
2025-01-11 23:39:41.50	167.42	15.98	
2025-01-11 23:39:42.94	167.54	15.84	
2025-01-11 23:39:44.38	167.67	15.69	
2025-01-11 23:39:45.82	167.80	15.55	
2025-01-11 23:39:47.27	167.92	15.40	
2025-01-11 23:39:48.71	168.04	15.26	
2025-01-11 23:39:50.14	168.16	15.11	
2025-01-11 23:39:51.57	168.28	14.97	
2025-01-11 23:39:53.01	168.40	14.83	
2025-01-11 23:39:54.45	168.52	14.69	
2025-01-11 23:39:55.88	168.64	14.55	
2025-01-11 23:39:57.34	168.76	14.41	
2025-01-11 23:39:58.78	168.87	14.27	
2025-01-11 23:40:00.21	168.98	14.13	
2025-01-11 23:40:01.65	169.10	14.00	
2025-01-11 23:40:03.10	169.21	13.86	
2025-01-11 23:40:04.54	169.32	13.72	
2025-01-11 23:40:05.97	169.43	13.59	
2025-01-11 23:40:07.41	169.54	13.45	
2025-01-11 23:40:08.84	169.65	13.32	
2025-01-11 23:40:10.28	169.76	13.19	
2025-01-11 23:40:11.74	169.86	13.05	
2025-01-11 23:40:13.19	169.97	12.92	
2025-01-11 23:40:14.62	170.07	12.79	
2025-01-11 23:40:16.06	170.18	12.66	
2025-01-11 23:40:17.50	170.28	12.53	
2025-01-11 23:40:18.96	170.39	12.40	
2025-01-11 23:40:20.40	170.49	12.27	
2025-01-11 23:40:21.83	170.59	12.14	
2025-01-11 23:40:23.26	170.69	12.01	
2025-01-11 23:40:24.71	170.78	11.89	
2025-01-11 23:40:26.15	170.88	11.76	
2025-01-11 23:40:27.59	170.98	11.63	
2025-01-11 23:40:29.02	171.08	11.51	
2025-01-11 23:40:30.46	171.17	11.38	
2025-01-11 23:40:31.91	171.27	11.26	
2025-01-11 23:40:33.34	171.36	11.14	
2025-01-11 23:40:34.78	171.45	11.01	
2025-01-11 23:40:36.21	171.55	10.89	
2025-01-11 23:40:37.64	171.64	10.77	
2025-01-11 23:40:39.08	171.73	10.65	
2025-01-11 23:40:40.51	171.82	10.53	
2025-01-11 23:40:41.95	171.91	10.41	
2025-01-11 23:40:43.39	172.00	10.29	
2025-01-11 23:40:44.83	172.09	10.17	
2025-01-11 23:40:46.27	172.17	10.05	
2025-01-11 23:40:47.71	172.26	9.93	
2025-01-11 23:40:49.15	172.35	9.81	
2025-01-11 23:40:50.58	172.43	9.70	
2025-01-11 23:40:52.02	172.52	9.58	
2025-01-11 23:40:53.47	172.60	9.46	
2025-01-11 23:40:54.91	172.69	9.35	
2025-01-11 23:40:56.35	172.77	9.23	
2025-01-11 23:40:57.79	172.85	9.12	
2025-01-11 23:40:59.23	172.93	9.00	
2025-01-11 23:41:00.68	173.02	8.89	
2025-01-11 23:41:02.12	173.10	8.77	
2025-01-11 23:41:03.55	173.18	8.66	
2025-01-11 23:41:04.99	173.26	8.55	
2025-01-11 23:41:06.42	173.33	8.44	
2025-01-11 23:41:07.86	173.41	8.32	
2025-01-11 23:41:09.29	173.49	8.21	
2025-01-11 23:41:10.73	173.57	8.10	
2025-01-11 23:41:12.16	173.64	7.99	
2025-01-11 23:41:13.60	173.72	7.88	
2025-01-11 23:41:15.05	173.80	7.77	
2025-01-11 23:41:16.48	173.87	7.67	
2025-01-11 23:41:17.91	173.94	7.56	
2025-01-11 23:41:19.35	174.02	7.45	
2025-01-11 23:41:20.79	174.09	7.34	
2025-01-11 23:41:22.22	174.17	7.24	
2025-01-11 23:41:23.66	174.24	7.13	
2025-01-11 23:41:25.09	174.31	7.02	
2025-01-11 23:41:26.52	174.38	6.92	
2025-01-11 23:41:27.96	174.45	6.81	
2025-01-11 23:41:29.40	174.52	6.71	
2025-01-11 23:41:30.83	174.59	6.60	
2025-01-11 23:41:32.27	174.66	6.50	
2025-01-11 23:41:33.70	174.73	6.39	
2025-01-11 23:41:35.15	174.80	6.29	
2025-01-11 23:41:36.60	174.87	6.19	
2025-01-11 23:41:38.05	174.94	6.08	
2025-01-11 23:41:39.49	175.01	5.98	
2025-01-11 23:41:40.93	175.07	5.88	
2025-01-11 23:41:42.36	175.14	5.78	
2025-01-11 23:41:43.79	175.20	5.68	
2025-01-11 23:41:45.23	175.27	5.57	
2025-01-11 23:41:46.68	175.34	5.47	
2025-01-11 23:41:48.12	175.40	5.37	
2025-01-11 23:41:49.55	175.46	5.27	
2025-01-11 23:41:50.99	175.53	5.17	
2025-01-11 23:41:52.43	175.59	5.07	
2025-01-11 23:41:53.86	175.66	4.98	
2025-01-11 23:41:55.30	175.72	4.88	
2025-01-11 23:41:56.73	175.78	4.78	
2025-01-11 23:41:58.16	175.84	4.68	
2025-01-11 23:41:59.60	175.90	4.58	
2025-01-11 23:42:01.03	175.96	4.49	
2025-01-11 23:42:02.48	176.03	4.39	
2025-01-11 23:42:03.93	176.09	4.29	
2025-01-11 23:42:05.37	176.15	4.20	
2025-01-11 23:42:06.80	176.21	4.10	
2025-01-11 23:42:08.24	176.27	4.00	

#Closed at: 2025-01-11 23:42:08