passes_logs/2025/01/11/SPB_Silybum_02/SPB_Silybum_02__20250111_163714_TERRA_rec.log

#Pass ID: 20250111_163714_TERRA
#Satellite: TERRA
#Configuration: TERRA
#Start time: 2025-01-11 16:37:14

#Version: 2.0.20230423
#Station: SPB_Silybum_02
#Location: 30.233357 lon 59.946436 lat
#TLE: 1 25994U 99068A   25010.80464720  .00000833  00000+0  18136-3 0  9995
#TLE: 2 25994  98.0224  73.9683 0003536  80.9361 344.1935 14.60387279333461

#Time	Az	El	Level	Level2	SNR	BER	Gain	Gain2
2025-01-11 16:37:16.30	102.20	4.11	
2025-01-11 16:37:17.33	102.10	4.17	
2025-01-11 16:37:18.35	102.01	4.23	
2025-01-11 16:37:19.38	101.91	4.29	
2025-01-11 16:37:20.40	101.81	4.35	
2025-01-11 16:37:21.43	101.72	4.41	
2025-01-11 16:37:22.45	101.62	4.47	
2025-01-11 16:37:23.48	101.52	4.54	
2025-01-11 16:37:24.50	101.42	4.60	
2025-01-11 16:37:25.53	101.32	4.66	
2025-01-11 16:37:26.55	101.22	4.72	
2025-01-11 16:37:27.58	101.12	4.78	
2025-01-11 16:37:28.60	101.02	4.85	
2025-01-11 16:37:29.63	100.92	4.91	
2025-01-11 16:37:30.66	100.81	4.97	
2025-01-11 16:37:31.68	100.71	5.03	
2025-01-11 16:37:32.71	100.61	5.10	
2025-01-11 16:37:33.75	100.50	5.16	
2025-01-11 16:37:34.77	100.40	5.22	
2025-01-11 16:37:35.80	100.30	5.28	
2025-01-11 16:37:36.83	100.19	5.35	
2025-01-11 16:37:37.86	100.08	5.41	
2025-01-11 16:37:38.88	99.98	5.47	
2025-01-11 16:37:39.91	99.87	5.54	
2025-01-11 16:37:40.94	99.76	5.60	
2025-01-11 16:37:41.96	99.66	5.66	
2025-01-11 16:37:42.99	99.55	5.73	
2025-01-11 16:37:44.02	99.44	5.79	
2025-01-11 16:37:45.04	99.33	5.85	
2025-01-11 16:37:46.07	99.22	5.92	
2025-01-11 16:37:47.09	99.11	5.98	
2025-01-11 16:37:48.12	99.00	6.04	
2025-01-11 16:37:49.15	98.89	6.11	
2025-01-11 16:37:50.17	98.78	6.17	
2025-01-11 16:37:51.20	98.66	6.23	
2025-01-11 16:37:52.22	98.55	6.30	
2025-01-11 16:37:53.24	98.44	6.36	
2025-01-11 16:37:54.27	98.32	6.43	
2025-01-11 16:37:55.29	98.21	6.49	
2025-01-11 16:37:56.32	98.09	6.55	
2025-01-11 16:37:57.34	97.98	6.62	
2025-01-11 16:37:58.37	97.86	6.68	
2025-01-11 16:37:59.40	97.74	6.75	
2025-01-11 16:38:00.43	97.63	6.81	
2025-01-11 16:38:01.45	97.51	6.88	
2025-01-11 16:38:02.48	97.39	6.94	
2025-01-11 16:38:03.51	97.27	7.01	
2025-01-11 16:38:04.54	97.15	7.07	
2025-01-11 16:38:05.57	97.03	7.14	
2025-01-11 16:38:06.61	96.91	7.20	
2025-01-11 16:38:07.64	96.78	7.27	
2025-01-11 16:38:08.66	96.66	7.33	
2025-01-11 16:38:09.68	96.54	7.40	
2025-01-11 16:38:10.71	96.42	7.46	
2025-01-11 16:38:11.73	96.29	7.53	
2025-01-11 16:38:12.76	96.17	7.59	
2025-01-11 16:38:13.78	96.04	7.66	
2025-01-11 16:38:14.81	95.92	7.73	
2025-01-11 16:38:15.83	95.79	7.79	
2025-01-11 16:38:16.85	95.66	7.86	
2025-01-11 16:38:17.89	95.53	7.92	
2025-01-11 16:38:18.93	95.40	7.99	
2025-01-11 16:38:19.96	95.28	8.06	
2025-01-11 16:38:20.98	95.15	8.12	
2025-01-11 16:38:22.01	95.02	8.19	
2025-01-11 16:38:23.03	94.88	8.25	
2025-01-11 16:38:24.06	94.75	8.32	
2025-01-11 16:38:25.08	94.62	8.39	
2025-01-11 16:38:26.11	94.49	8.45	
2025-01-11 16:38:27.14	94.35	8.52	
2025-01-11 16:38:28.18	94.22	8.59	
2025-01-11 16:38:29.20	94.08	8.65	
2025-01-11 16:38:30.23	93.95	8.72	
2025-01-11 16:38:31.25	93.81	8.78	
2025-01-11 16:38:32.28	93.67	8.85	
2025-01-11 16:38:33.31	93.53	8.92	
2025-01-11 16:38:34.33	93.40	8.98	
2025-01-11 16:38:35.36	93.26	9.05	
2025-01-11 16:38:36.38	93.12	9.12	
2025-01-11 16:38:37.42	92.98	9.19	
2025-01-11 16:38:38.44	92.83	9.25	
2025-01-11 16:38:39.47	92.69	9.32	
2025-01-11 16:38:40.49	92.55	9.39	
2025-01-11 16:38:41.52	92.41	9.45	
2025-01-11 16:38:42.54	92.26	9.52	
2025-01-11 16:38:43.58	92.12	9.59	
2025-01-11 16:38:44.61	91.97	9.65	
2025-01-11 16:38:45.63	91.82	9.72	
2025-01-11 16:38:46.66	91.68	9.79	
2025-01-11 16:38:47.68	91.53	9.86	
2025-01-11 16:38:48.72	91.38	9.92	
2025-01-11 16:38:49.74	91.23	9.99	
2025-01-11 16:38:50.75	91.08	10.06	
2025-01-11 16:38:51.78	90.93	10.12	
2025-01-11 16:38:52.80	90.78	10.19	
2025-01-11 16:38:53.84	90.63	10.26	
2025-01-11 16:38:54.87	90.47	10.33	
2025-01-11 16:38:55.89	90.32	10.39	
2025-01-11 16:38:56.92	90.16	10.46	
2025-01-11 16:38:57.95	90.01	10.53	
2025-01-11 16:38:58.97	89.85	10.60	
2025-01-11 16:38:59.99	89.70	10.66	
2025-01-11 16:39:01.02	89.54	10.73	
2025-01-11 16:39:02.04	89.38	10.80	
2025-01-11 16:39:03.06	89.22	10.86	
2025-01-11 16:39:04.10	89.06	10.93	
2025-01-11 16:39:05.13	88.90	11.00	
2025-01-11 16:39:06.15	88.74	11.07	
2025-01-11 16:39:07.18	88.57	11.13	
2025-01-11 16:39:08.20	88.41	11.20	
2025-01-11 16:39:09.23	88.24	11.27	
2025-01-11 16:39:10.25	88.08	11.34	
2025-01-11 16:39:11.28	87.91	11.40	
2025-01-11 16:39:12.31	87.75	11.47	
2025-01-11 16:39:13.33	87.58	11.54	
2025-01-11 16:39:14.36	87.41	11.61	
2025-01-11 16:39:15.38	87.24	11.67	
2025-01-11 16:39:16.41	87.07	11.74	
2025-01-11 16:39:17.44	86.90	11.81	
2025-01-11 16:39:18.47	86.73	11.87	
2025-01-11 16:39:19.50	86.55	11.94	
2025-01-11 16:39:20.52	86.38	12.01	
2025-01-11 16:39:21.55	86.21	12.08	
2025-01-11 16:39:22.57	86.03	12.14	
2025-01-11 16:39:23.61	85.85	12.21	
2025-01-11 16:39:24.64	85.67	12.28	
2025-01-11 16:39:25.68	85.49	12.35	
2025-01-11 16:39:26.71	85.31	12.41	
2025-01-11 16:39:27.73	85.14	12.48	
2025-01-11 16:39:28.77	84.95	12.55	
2025-01-11 16:39:29.80	84.77	12.61	
2025-01-11 16:39:30.82	84.59	12.68	
2025-01-11 16:39:31.85	84.41	12.75	
2025-01-11 16:39:32.87	84.22	12.81	
2025-01-11 16:39:33.89	84.04	12.88	
2025-01-11 16:39:34.91	83.85	12.94	
2025-01-11 16:39:35.94	83.67	13.01	
2025-01-11 16:39:36.95	83.48	13.08	
2025-01-11 16:39:37.98	83.29	13.14	
2025-01-11 16:39:39.01	83.10	13.21	
2025-01-11 16:39:40.04	82.91	13.27	
2025-01-11 16:39:41.06	82.72	13.34	
2025-01-11 16:39:42.09	82.53	13.40	
2025-01-11 16:39:43.12	82.33	13.47	
2025-01-11 16:39:44.14	82.14	13.54	
2025-01-11 16:39:45.16	81.95	13.60	
2025-01-11 16:39:46.19	81.75	13.67	
2025-01-11 16:39:47.22	81.55	13.73	
2025-01-11 16:39:48.24	81.35	13.79	
2025-01-11 16:39:49.28	81.15	13.86	
2025-01-11 16:39:50.31	80.95	13.93	
2025-01-11 16:39:51.33	80.75	13.99	
2025-01-11 16:39:52.36	80.55	14.05	
2025-01-11 16:39:53.38	80.35	14.12	
2025-01-11 16:39:54.42	80.14	14.18	
2025-01-11 16:39:55.45	79.94	14.25	
2025-01-11 16:39:56.47	79.73	14.31	
2025-01-11 16:39:57.50	79.53	14.37	
2025-01-11 16:39:58.52	79.32	14.44	
2025-01-11 16:39:59.55	79.11	14.50	
2025-01-11 16:40:00.57	78.90	14.56	
2025-01-11 16:40:01.60	78.69	14.63	
2025-01-11 16:40:02.63	78.48	14.69	
2025-01-11 16:40:03.65	78.27	14.75	
2025-01-11 16:40:04.68	78.05	14.81	
2025-01-11 16:40:05.70	77.84	14.87	
2025-01-11 16:40:06.73	77.63	14.94	
2025-01-11 16:40:07.75	77.41	15.00	
2025-01-11 16:40:08.78	77.19	15.06	
2025-01-11 16:40:09.82	76.97	15.12	
2025-01-11 16:40:10.86	76.75	15.18	
2025-01-11 16:40:11.90	76.53	15.24	
2025-01-11 16:40:12.92	76.31	15.30	
2025-01-11 16:40:13.94	76.09	15.36	
2025-01-11 16:40:14.97	75.87	15.42	
2025-01-11 16:40:16.01	75.64	15.48	
2025-01-11 16:40:17.03	75.42	15.54	
2025-01-11 16:40:18.07	75.19	15.60	
2025-01-11 16:40:19.11	74.96	15.66	
2025-01-11 16:40:20.14	74.73	15.72	
2025-01-11 16:40:21.16	74.50	15.78	
2025-01-11 16:40:22.18	74.27	15.84	
2025-01-11 16:40:23.21	74.04	15.90	
2025-01-11 16:40:24.25	73.81	15.95	
2025-01-11 16:40:25.27	73.58	16.01	
2025-01-11 16:40:26.30	73.34	16.07	
2025-01-11 16:40:27.32	73.11	16.12	
2025-01-11 16:40:28.36	72.87	16.18	
2025-01-11 16:40:29.39	72.64	16.24	
2025-01-11 16:40:30.41	72.40	16.29	
2025-01-11 16:40:31.44	72.16	16.35	
2025-01-11 16:40:32.47	71.92	16.40	
2025-01-11 16:40:33.50	71.68	16.46	
2025-01-11 16:40:34.52	71.44	16.51	
2025-01-11 16:40:35.55	71.20	16.56	
2025-01-11 16:40:36.58	70.96	16.62	
2025-01-11 16:40:37.60	70.71	16.67	
2025-01-11 16:40:38.63	70.47	16.72	
2025-01-11 16:40:39.67	70.22	16.78	
2025-01-11 16:40:40.69	69.98	16.83	
2025-01-11 16:40:41.72	69.73	16.88	
2025-01-11 16:40:42.75	69.48	16.93	
2025-01-11 16:40:43.77	69.23	16.98	
2025-01-11 16:40:44.79	68.98	17.03	
2025-01-11 16:40:45.82	68.73	17.08	
2025-01-11 16:40:46.84	68.48	17.13	
2025-01-11 16:40:47.88	68.23	17.18	
2025-01-11 16:40:48.92	67.97	17.23	
2025-01-11 16:40:49.95	67.71	17.28	
2025-01-11 16:40:50.97	67.46	17.32	
2025-01-11 16:40:51.99	67.21	17.37	
2025-01-11 16:40:53.01	66.95	17.42	
2025-01-11 16:40:54.05	66.69	17.46	
2025-01-11 16:40:55.09	66.43	17.51	
2025-01-11 16:40:56.12	66.17	17.56	
2025-01-11 16:40:57.14	65.91	17.60	
2025-01-11 16:40:58.16	65.65	17.64	
2025-01-11 16:40:59.19	65.39	17.69	
2025-01-11 16:41:00.22	65.12	17.73	
2025-01-11 16:41:01.24	64.86	17.77	
2025-01-11 16:41:02.27	64.60	17.82	
2025-01-11 16:41:03.29	64.33	17.86	
2025-01-11 16:41:04.32	64.07	17.90	
2025-01-11 16:41:05.35	63.80	17.94	
2025-01-11 16:41:06.38	63.53	17.98	
2025-01-11 16:41:07.41	63.26	18.02	
2025-01-11 16:41:08.43	63.00	18.06	
2025-01-11 16:41:09.47	62.72	18.10	
2025-01-11 16:41:10.50	62.45	18.14	
2025-01-11 16:41:11.52	62.18	18.17	
2025-01-11 16:41:12.55	61.91	18.21	
2025-01-11 16:41:13.58	61.64	18.25	
2025-01-11 16:41:14.61	61.36	18.28	
2025-01-11 16:41:15.64	61.09	18.32	
2025-01-11 16:41:16.67	60.81	18.35	
2025-01-11 16:41:17.71	60.54	18.39	
2025-01-11 16:41:18.73	60.26	18.42	
2025-01-11 16:41:19.76	59.99	18.45	
2025-01-11 16:41:20.78	59.71	18.48	
2025-01-11 16:41:21.80	59.43	18.52	
2025-01-11 16:41:22.83	59.16	18.55	
2025-01-11 16:41:23.85	58.88	18.58	
2025-01-11 16:41:24.88	58.60	18.61	
2025-01-11 16:41:25.90	58.32	18.64	
2025-01-11 16:41:26.92	58.04	18.66	
2025-01-11 16:41:27.95	57.76	18.69	
2025-01-11 16:41:28.98	57.48	18.72	
2025-01-11 16:41:30.00	57.20	18.74	
2025-01-11 16:41:31.03	56.91	18.77	
2025-01-11 16:41:32.07	56.63	18.80	
2025-01-11 16:41:33.09	56.35	18.82	
2025-01-11 16:41:34.11	56.06	18.84	
2025-01-11 16:41:35.14	55.78	18.87	
2025-01-11 16:41:36.17	55.49	18.89	
2025-01-11 16:41:37.19	55.21	18.91	
2025-01-11 16:41:38.22	54.92	18.93	
2025-01-11 16:41:39.25	54.64	18.95	
2025-01-11 16:41:40.27	54.35	18.97	
2025-01-11 16:41:41.31	54.06	18.99	
2025-01-11 16:41:42.35	53.77	19.01	
2025-01-11 16:41:43.37	53.49	19.03	
2025-01-11 16:41:44.39	53.20	19.04	
2025-01-11 16:41:45.42	52.91	19.06	
2025-01-11 16:41:46.46	52.62	19.07	
2025-01-11 16:41:47.48	52.33	19.09	
2025-01-11 16:41:48.50	52.04	19.10	
2025-01-11 16:41:49.52	51.76	19.11	
2025-01-11 16:41:50.54	51.47	19.13	
2025-01-11 16:41:51.57	51.18	19.14	
2025-01-11 16:41:52.59	50.89	19.15	
2025-01-11 16:41:53.62	50.60	19.16	
2025-01-11 16:41:54.64	50.31	19.17	
2025-01-11 16:41:55.67	50.02	19.18	
2025-01-11 16:41:56.70	49.73	19.19	
2025-01-11 16:41:57.71	49.44	19.19	
2025-01-11 16:41:58.74	49.15	19.20	
2025-01-11 16:41:59.76	48.86	19.21	
2025-01-11 16:42:00.79	48.57	19.21	
2025-01-11 16:42:01.81	48.28	19.22	
2025-01-11 16:42:02.84	47.99	19.22	
2025-01-11 16:42:03.87	47.69	19.22	
2025-01-11 16:42:04.89	47.40	19.23	
2025-01-11 16:42:05.91	47.11	19.23	
2025-01-11 16:42:06.94	46.82	19.23	
2025-01-11 16:42:07.96	46.53	19.23	
2025-01-11 16:42:08.99	46.24	19.23	
2025-01-11 16:42:10.01	45.95	19.23	
2025-01-11 16:42:11.04	45.66	19.22	
2025-01-11 16:42:12.06	45.37	19.22	
2025-01-11 16:42:13.08	45.08	19.22	
2025-01-11 16:42:14.11	44.79	19.21	
2025-01-11 16:42:15.14	44.49	19.21	
2025-01-11 16:42:16.16	44.21	19.20	
2025-01-11 16:42:17.18	43.92	19.19	
2025-01-11 16:42:18.20	43.63	19.19	
2025-01-11 16:42:19.23	43.34	19.18	
2025-01-11 16:42:20.27	43.04	19.17	
2025-01-11 16:42:21.29	42.75	19.16	
2025-01-11 16:42:22.32	42.46	19.15	
2025-01-11 16:42:23.34	42.17	19.14	
2025-01-11 16:42:24.37	41.88	19.13	
2025-01-11 16:42:25.39	41.60	19.12	
2025-01-11 16:42:26.41	41.31	19.10	
2025-01-11 16:42:27.44	41.02	19.09	
2025-01-11 16:42:28.47	40.73	19.07	
2025-01-11 16:42:29.49	40.44	19.06	
2025-01-11 16:42:30.52	40.15	19.04	
2025-01-11 16:42:31.55	39.87	19.03	
2025-01-11 16:42:32.57	39.58	19.01	
2025-01-11 16:42:33.60	39.29	18.99	
2025-01-11 16:42:34.62	39.01	18.97	
2025-01-11 16:42:35.65	38.72	18.95	
2025-01-11 16:42:36.68	38.44	18.93	
2025-01-11 16:42:37.71	38.15	18.91	
2025-01-11 16:42:38.73	37.87	18.89	
2025-01-11 16:42:39.75	37.58	18.87	
2025-01-11 16:42:40.78	37.30	18.84	
2025-01-11 16:42:41.80	37.02	18.82	
2025-01-11 16:42:42.83	36.73	18.80	
2025-01-11 16:42:43.85	36.45	18.77	
2025-01-11 16:42:44.88	36.17	18.75	
2025-01-11 16:42:45.91	35.89	18.72	
2025-01-11 16:42:46.93	35.61	18.69	
2025-01-11 16:42:47.95	35.33	18.67	
2025-01-11 16:42:48.98	35.05	18.64	
2025-01-11 16:42:50.01	34.77	18.61	
2025-01-11 16:42:51.03	34.49	18.58	
2025-01-11 16:42:52.06	34.21	18.55	
2025-01-11 16:42:53.08	33.94	18.52	
2025-01-11 16:42:54.10	33.66	18.49	
2025-01-11 16:42:55.12	33.39	18.46	
2025-01-11 16:42:56.16	33.11	18.42	
2025-01-11 16:42:57.19	32.83	18.39	
2025-01-11 16:42:58.22	32.56	18.36	
2025-01-11 16:42:59.24	32.28	18.32	
2025-01-11 16:43:00.26	32.01	18.29	
2025-01-11 16:43:01.31	31.73	18.25	
2025-01-11 16:43:02.34	31.46	18.22	
2025-01-11 16:43:03.37	31.19	18.18	
2025-01-11 16:43:04.39	30.92	18.14	
2025-01-11 16:43:05.42	30.65	18.10	
2025-01-11 16:43:06.46	30.38	18.06	
2025-01-11 16:43:07.50	30.11	18.02	
2025-01-11 16:43:08.52	29.84	17.99	
2025-01-11 16:43:09.56	29.57	17.95	
2025-01-11 16:43:10.59	29.31	17.90	
2025-01-11 16:43:11.61	29.04	17.86	
2025-01-11 16:43:12.64	28.78	17.82	
2025-01-11 16:43:13.66	28.52	17.78	
2025-01-11 16:43:14.69	28.25	17.74	
2025-01-11 16:43:15.72	27.99	17.69	
2025-01-11 16:43:16.74	27.73	17.65	
2025-01-11 16:43:17.77	27.47	17.61	
2025-01-11 16:43:18.79	27.21	17.56	
2025-01-11 16:43:19.82	26.95	17.52	
2025-01-11 16:43:20.84	26.70	17.47	
2025-01-11 16:43:21.87	26.44	17.42	
2025-01-11 16:43:22.89	26.18	17.38	
2025-01-11 16:43:23.91	25.93	17.33	
2025-01-11 16:43:24.93	25.68	17.28	
2025-01-11 16:43:25.96	25.42	17.24	
2025-01-11 16:43:26.99	25.17	17.19	
2025-01-11 16:43:28.01	24.92	17.14	
2025-01-11 16:43:29.04	24.67	17.09	
2025-01-11 16:43:30.06	24.42	17.04	
2025-01-11 16:43:31.09	24.17	16.99	
2025-01-11 16:43:32.12	23.92	16.94	
2025-01-11 16:43:33.16	23.67	16.89	
2025-01-11 16:43:34.19	23.42	16.84	
2025-01-11 16:43:35.21	23.18	16.79	
2025-01-11 16:43:36.24	22.93	16.73	
2025-01-11 16:43:37.26	22.69	16.68	
2025-01-11 16:43:38.28	22.45	16.63	
2025-01-11 16:43:39.31	22.21	16.58	
2025-01-11 16:43:40.33	21.97	16.52	
2025-01-11 16:43:41.35	21.73	16.47	
2025-01-11 16:43:42.38	21.49	16.41	
2025-01-11 16:43:43.41	21.25	16.36	
2025-01-11 16:43:44.43	21.01	16.31	
2025-01-11 16:43:45.46	20.78	16.25	
2025-01-11 16:43:46.48	20.54	16.19	
2025-01-11 16:43:47.51	20.31	16.14	
2025-01-11 16:43:48.53	20.08	16.08	
2025-01-11 16:43:49.57	19.84	16.02	
2025-01-11 16:43:50.60	19.61	15.97	
2025-01-11 16:43:51.62	19.38	15.91	
2025-01-11 16:43:52.65	19.15	15.85	
2025-01-11 16:43:53.67	18.92	15.80	
2025-01-11 16:43:54.71	18.69	15.74	
2025-01-11 16:43:55.73	18.47	15.68	
2025-01-11 16:43:56.76	18.24	15.62	
2025-01-11 16:43:57.78	18.02	15.56	
2025-01-11 16:43:58.81	17.79	15.50	
2025-01-11 16:43:59.85	17.56	15.44	
2025-01-11 16:44:00.88	17.34	15.38	
2025-01-11 16:44:01.91	17.12	15.32	
2025-01-11 16:44:02.93	16.90	15.26	
2025-01-11 16:44:03.96	16.68	15.20	
2025-01-11 16:44:04.98	16.47	15.14	
2025-01-11 16:44:06.00	16.25	15.08	
2025-01-11 16:44:07.04	16.03	15.02	
2025-01-11 16:44:08.07	15.81	14.96	
2025-01-11 16:44:09.10	15.60	14.90	
2025-01-11 16:44:10.12	15.39	14.83	
2025-01-11 16:44:11.15	15.17	14.77	
2025-01-11 16:44:12.17	14.96	14.71	
2025-01-11 16:44:13.20	14.75	14.65	
2025-01-11 16:44:14.22	14.54	14.59	
2025-01-11 16:44:15.25	14.34	14.52	
2025-01-11 16:44:16.27	14.13	14.46	
2025-01-11 16:44:17.30	13.92	14.40	
2025-01-11 16:44:18.33	13.72	14.33	
2025-01-11 16:44:19.35	13.51	14.27	
2025-01-11 16:44:20.38	13.31	14.21	
2025-01-11 16:44:21.42	13.10	14.14	
2025-01-11 16:44:22.44	12.90	14.08	
2025-01-11 16:44:23.46	12.70	14.02	
2025-01-11 16:44:24.49	12.50	13.95	
2025-01-11 16:44:25.51	12.30	13.89	
2025-01-11 16:44:26.54	12.10	13.82	
2025-01-11 16:44:27.56	11.91	13.76	
2025-01-11 16:44:28.60	11.71	13.69	
2025-01-11 16:44:29.63	11.51	13.63	
2025-01-11 16:44:30.66	11.32	13.56	
2025-01-11 16:44:31.68	11.13	13.50	
2025-01-11 16:44:32.71	10.93	13.43	
2025-01-11 16:44:33.73	10.74	13.37	
2025-01-11 16:44:34.76	10.55	13.30	
2025-01-11 16:44:35.79	10.36	13.24	
2025-01-11 16:44:36.81	10.17	13.17	
2025-01-11 16:44:37.85	9.98	13.10	
2025-01-11 16:44:38.87	9.80	13.04	
2025-01-11 16:44:39.90	9.61	12.97	
2025-01-11 16:44:40.92	9.43	12.91	
2025-01-11 16:44:41.95	9.24	12.84	
2025-01-11 16:44:42.98	9.06	12.77	
2025-01-11 16:44:44.00	8.88	12.71	
2025-01-11 16:44:45.03	8.69	12.64	
2025-01-11 16:44:46.05	8.51	12.58	
2025-01-11 16:44:47.08	8.33	12.51	
2025-01-11 16:44:48.11	8.15	12.44	
2025-01-11 16:44:49.13	7.98	12.38	
2025-01-11 16:44:50.16	7.80	12.31	
2025-01-11 16:44:51.18	7.62	12.24	
2025-01-11 16:44:52.21	7.45	12.18	
2025-01-11 16:44:53.24	7.27	12.11	
2025-01-11 16:44:54.26	7.10	12.04	
2025-01-11 16:44:55.29	6.93	11.98	
2025-01-11 16:44:56.31	6.76	11.91	
2025-01-11 16:44:57.34	6.58	11.84	
2025-01-11 16:44:58.36	6.42	11.78	
2025-01-11 16:44:59.39	6.25	11.71	
2025-01-11 16:45:00.43	6.07	11.64	
2025-01-11 16:45:01.45	5.91	11.58	
2025-01-11 16:45:02.47	5.74	11.51	
2025-01-11 16:45:03.50	5.58	11.44	
2025-01-11 16:45:04.52	5.41	11.37	
2025-01-11 16:45:05.55	5.25	11.31	
2025-01-11 16:45:06.57	5.08	11.24	
2025-01-11 16:45:07.61	4.92	11.17	
2025-01-11 16:45:08.63	4.76	11.11	
2025-01-11 16:45:09.66	4.60	11.04	
2025-01-11 16:45:10.68	4.44	10.97	
2025-01-11 16:45:11.71	4.28	10.90	
2025-01-11 16:45:12.73	4.12	10.84	
2025-01-11 16:45:13.76	3.96	10.77	
2025-01-11 16:45:14.78	3.80	10.70	
2025-01-11 16:45:15.80	3.65	10.64	
2025-01-11 16:45:16.83	3.49	10.57	
2025-01-11 16:45:17.86	3.34	10.50	
2025-01-11 16:45:18.88	3.18	10.44	
2025-01-11 16:45:19.91	3.03	10.37	
2025-01-11 16:45:20.93	2.88	10.30	
2025-01-11 16:45:21.96	2.73	10.23	
2025-01-11 16:45:22.98	2.58	10.17	
2025-01-11 16:45:24.01	2.43	10.10	
2025-01-11 16:45:25.03	2.28	10.03	
2025-01-11 16:45:26.06	2.13	9.97	
2025-01-11 16:45:27.09	1.98	9.90	
2025-01-11 16:45:28.11	1.83	9.83	
2025-01-11 16:45:29.15	1.69	9.77	
2025-01-11 16:45:30.17	1.54	9.70	
2025-01-11 16:45:31.20	1.40	9.63	
2025-01-11 16:45:32.22	1.25	9.57	
2025-01-11 16:45:33.24	1.11	9.50	
2025-01-11 16:45:34.27	0.97	9.43	
2025-01-11 16:45:35.30	0.82	9.37	
2025-01-11 16:45:36.32	0.68	9.30	
2025-01-11 16:45:37.35	0.54	9.23	
2025-01-11 16:45:38.37	0.40	9.17	
2025-01-11 16:45:39.40	0.26	9.10	
2025-01-11 16:45:40.43	0.13	9.03	
2025-01-11 16:45:41.45	359.99	8.97	
2025-01-11 16:45:42.48	359.85	8.90	
2025-01-11 16:45:43.50	359.72	8.83	
2025-01-11 16:45:44.52	359.58	8.77	
2025-01-11 16:45:45.55	359.44	8.70	
2025-01-11 16:45:46.57	359.31	8.64	
2025-01-11 16:45:47.60	359.18	8.57	
2025-01-11 16:45:48.62	359.05	8.50	
2025-01-11 16:45:49.65	358.91	8.44	
2025-01-11 16:45:50.68	358.78	8.37	
2025-01-11 16:45:51.72	358.65	8.30	
2025-01-11 16:45:52.75	358.52	8.24	
2025-01-11 16:45:53.77	358.39	8.17	
2025-01-11 16:45:54.79	358.26	8.11	
2025-01-11 16:45:55.82	358.13	8.04	
2025-01-11 16:45:56.84	358.00	7.98	
2025-01-11 16:45:57.87	357.88	7.91	
2025-01-11 16:45:58.90	357.75	7.85	
2025-01-11 16:45:59.92	357.62	7.78	
2025-01-11 16:46:00.95	357.50	7.71	
2025-01-11 16:46:01.97	357.37	7.65	
2025-01-11 16:46:02.99	357.25	7.58	
2025-01-11 16:46:04.02	357.13	7.52	
2025-01-11 16:46:05.05	357.00	7.45	
2025-01-11 16:46:06.09	356.88	7.39	
2025-01-11 16:46:07.11	356.76	7.32	
2025-01-11 16:46:08.14	356.64	7.26	
2025-01-11 16:46:09.17	356.52	7.19	
2025-01-11 16:46:10.21	356.40	7.13	
2025-01-11 16:46:11.23	356.28	7.06	
2025-01-11 16:46:12.26	356.16	7.00	
2025-01-11 16:46:13.28	356.04	6.93	
2025-01-11 16:46:14.31	355.93	6.87	
2025-01-11 16:46:15.33	355.81	6.81	
2025-01-11 16:46:16.37	355.69	6.74	
2025-01-11 16:46:17.40	355.58	6.68	
2025-01-11 16:46:18.42	355.46	6.61	
2025-01-11 16:46:19.45	355.35	6.55	
2025-01-11 16:46:20.47	355.23	6.48	
2025-01-11 16:46:21.50	355.12	6.42	
2025-01-11 16:46:22.54	355.01	6.36	
2025-01-11 16:46:23.56	354.89	6.29	
2025-01-11 16:46:24.59	354.78	6.23	
2025-01-11 16:46:25.62	354.67	6.16	
2025-01-11 16:46:26.66	354.56	6.10	
2025-01-11 16:46:27.70	354.45	6.04	
2025-01-11 16:46:28.73	354.34	5.97	
2025-01-11 16:46:29.77	354.23	5.91	
2025-01-11 16:46:30.80	354.12	5.84	
2025-01-11 16:46:31.82	354.01	5.78	
2025-01-11 16:46:32.85	353.90	5.72	
2025-01-11 16:46:33.87	353.80	5.65	
2025-01-11 16:46:34.90	353.69	5.59	
2025-01-11 16:46:35.92	353.58	5.53	
2025-01-11 16:46:36.95	353.48	5.47	
2025-01-11 16:46:37.97	353.38	5.40	
2025-01-11 16:46:39.01	353.27	5.34	
2025-01-11 16:46:40.04	353.17	5.28	
2025-01-11 16:46:41.06	353.06	5.22	
2025-01-11 16:46:42.09	352.96	5.15	
2025-01-11 16:46:43.12	352.86	5.09	
2025-01-11 16:46:44.15	352.75	5.03	
2025-01-11 16:46:45.18	352.65	4.97	
2025-01-11 16:46:46.21	352.55	4.90	
2025-01-11 16:46:47.23	352.45	4.84	
2025-01-11 16:46:48.26	352.35	4.78	
2025-01-11 16:46:49.28	352.25	4.72	
2025-01-11 16:46:50.31	352.15	4.66	
2025-01-11 16:46:51.33	352.06	4.59	
2025-01-11 16:46:52.36	351.96	4.53	
2025-01-11 16:46:53.38	351.86	4.47	
2025-01-11 16:46:54.41	351.76	4.41	
2025-01-11 16:46:55.43	351.67	4.35	
2025-01-11 16:46:56.46	351.57	4.29	
2025-01-11 16:46:57.48	351.48	4.23	
2025-01-11 16:46:58.50	351.38	4.17	
2025-01-11 16:46:59.53	351.29	4.11	
2025-01-11 16:47:00.55	351.19	4.04	

#Closed at: 2025-01-11 16:47:01