passes_logs/2025/01/11/SPB_Silybum_02/SPB_Silybum_02__20250111_130604_SUOMI_NPP_rec.log

#Pass ID: 20250111_130604_SUOMI NPP
#Satellite: SUOMI NPP
#Configuration: NPP
#Start time: 2025-01-11 13:06:02

#Version: 2.0.20230423
#Station: SPB_Silybum_02
#Location: 30.233357 lon 59.946436 lat
#TLE: 1 37849U 11061A   25010.83173011  .00000170  00000+0  10148-3 0  9996
#TLE: 2 37849  98.7441 311.8732 0001811  47.3940 312.7388 14.19536379684322

#Time	Az	El	Level	Level2	SNR	BER	Gain	Gain2
2025-01-11 13:06:04.96	253.36	4.03	
2025-01-11 13:06:05.79	253.47	4.06	
2025-01-11 13:06:06.61	253.57	4.08	
2025-01-11 13:06:07.43	253.68	4.11	
2025-01-11 13:06:08.25	253.79	4.14	
2025-01-11 13:06:09.07	253.89	4.17	
2025-01-11 13:06:09.89	254.00	4.20	
2025-01-11 13:06:10.71	254.10	4.22	
2025-01-11 13:06:11.52	254.21	4.25	
2025-01-11 13:06:12.34	254.31	4.28	
2025-01-11 13:06:13.18	254.42	4.31	
2025-01-11 13:06:14.00	254.53	4.33	
2025-01-11 13:06:14.82	254.63	4.36	
2025-01-11 13:06:15.63	254.74	4.39	
2025-01-11 13:06:16.45	254.85	4.42	
2025-01-11 13:06:17.28	254.96	4.45	
2025-01-11 13:06:18.09	255.06	4.47	
2025-01-11 13:06:18.92	255.17	4.50	
2025-01-11 13:06:19.74	255.28	4.53	
2025-01-11 13:06:20.56	255.39	4.55	
2025-01-11 13:06:21.37	255.49	4.58	
2025-01-11 13:06:22.21	255.61	4.61	
2025-01-11 13:06:23.03	255.71	4.64	
2025-01-11 13:06:23.86	255.82	4.66	
2025-01-11 13:06:24.68	255.93	4.69	
2025-01-11 13:06:25.49	256.04	4.72	
2025-01-11 13:06:26.31	256.15	4.74	
2025-01-11 13:06:27.15	256.26	4.77	
2025-01-11 13:06:27.97	256.37	4.80	
2025-01-11 13:06:28.79	256.48	4.82	
2025-01-11 13:06:29.61	256.59	4.85	
2025-01-11 13:06:30.43	256.70	4.88	
2025-01-11 13:06:31.25	256.81	4.90	
2025-01-11 13:06:32.07	256.92	4.93	
2025-01-11 13:06:32.90	257.04	4.96	
2025-01-11 13:06:33.72	257.15	4.98	
2025-01-11 13:06:34.54	257.26	5.01	
2025-01-11 13:06:35.36	257.37	5.04	
2025-01-11 13:06:36.18	257.48	5.06	
2025-01-11 13:06:37.00	257.59	5.09	
2025-01-11 13:06:37.82	257.71	5.11	
2025-01-11 13:06:38.64	257.82	5.14	
2025-01-11 13:06:39.46	257.93	5.16	
2025-01-11 13:06:40.27	258.04	5.19	
2025-01-11 13:06:41.09	258.16	5.22	
2025-01-11 13:06:41.92	258.27	5.24	
2025-01-11 13:06:42.73	258.38	5.27	
2025-01-11 13:06:43.57	258.50	5.29	
2025-01-11 13:06:44.39	258.61	5.32	
2025-01-11 13:06:45.21	258.73	5.34	
2025-01-11 13:06:46.03	258.84	5.37	
2025-01-11 13:06:46.85	258.95	5.39	
2025-01-11 13:06:47.67	259.07	5.42	
2025-01-11 13:06:48.50	259.18	5.44	
2025-01-11 13:06:49.32	259.30	5.47	
2025-01-11 13:06:50.14	259.41	5.49	
2025-01-11 13:06:50.96	259.53	5.52	
2025-01-11 13:06:51.78	259.65	5.54	
2025-01-11 13:06:52.60	259.76	5.57	
2025-01-11 13:06:53.41	259.88	5.59	
2025-01-11 13:06:54.24	259.99	5.62	
2025-01-11 13:06:55.07	260.11	5.64	
2025-01-11 13:06:55.89	260.23	5.67	
2025-01-11 13:06:56.71	260.34	5.69	
2025-01-11 13:06:57.55	260.46	5.72	
2025-01-11 13:06:58.37	260.58	5.74	
2025-01-11 13:06:59.19	260.70	5.76	
2025-01-11 13:07:00.01	260.81	5.79	
2025-01-11 13:07:00.83	260.93	5.81	
2025-01-11 13:07:01.65	261.05	5.84	
2025-01-11 13:07:02.48	261.17	5.86	
2025-01-11 13:07:03.30	261.29	5.88	
2025-01-11 13:07:04.12	261.40	5.91	
2025-01-11 13:07:04.94	261.52	5.93	
2025-01-11 13:07:05.76	261.64	5.95	
2025-01-11 13:07:06.59	261.76	5.98	
2025-01-11 13:07:07.41	261.88	6.00	
2025-01-11 13:07:08.23	262.00	6.03	
2025-01-11 13:07:09.05	262.12	6.05	
2025-01-11 13:07:09.87	262.24	6.07	
2025-01-11 13:07:10.69	262.36	6.09	
2025-01-11 13:07:11.53	262.48	6.12	
2025-01-11 13:07:12.35	262.60	6.14	
2025-01-11 13:07:13.17	262.72	6.16	
2025-01-11 13:07:13.99	262.84	6.19	
2025-01-11 13:07:14.81	262.96	6.21	
2025-01-11 13:07:15.64	263.08	6.23	
2025-01-11 13:07:16.47	263.21	6.25	
2025-01-11 13:07:17.30	263.33	6.28	
2025-01-11 13:07:18.12	263.45	6.30	
2025-01-11 13:07:18.94	263.57	6.32	
2025-01-11 13:07:19.76	263.69	6.34	
2025-01-11 13:07:20.58	263.81	6.36	
2025-01-11 13:07:21.40	263.94	6.39	
2025-01-11 13:07:22.22	264.06	6.41	
2025-01-11 13:07:23.04	264.18	6.43	
2025-01-11 13:07:23.86	264.30	6.45	
2025-01-11 13:07:24.68	264.43	6.47	
2025-01-11 13:07:25.50	264.55	6.49	
2025-01-11 13:07:26.32	264.67	6.52	
2025-01-11 13:07:27.14	264.79	6.54	
2025-01-11 13:07:27.96	264.92	6.56	
2025-01-11 13:07:28.79	265.04	6.58	
2025-01-11 13:07:29.60	265.16	6.60	
2025-01-11 13:07:30.42	265.29	6.62	
2025-01-11 13:07:31.24	265.41	6.64	
2025-01-11 13:07:32.06	265.54	6.66	
2025-01-11 13:07:32.88	265.66	6.68	
2025-01-11 13:07:33.71	265.79	6.70	
2025-01-11 13:07:34.53	265.91	6.72	
2025-01-11 13:07:35.35	266.04	6.74	
2025-01-11 13:07:36.17	266.16	6.76	
2025-01-11 13:07:36.99	266.29	6.78	
2025-01-11 13:07:37.83	266.41	6.80	
2025-01-11 13:07:38.66	266.54	6.82	
2025-01-11 13:07:39.48	266.67	6.84	
2025-01-11 13:07:40.31	266.80	6.86	
2025-01-11 13:07:41.13	266.92	6.88	
2025-01-11 13:07:41.95	267.05	6.90	
2025-01-11 13:07:42.77	267.17	6.92	
2025-01-11 13:07:43.59	267.30	6.94	
2025-01-11 13:07:44.42	267.43	6.96	
2025-01-11 13:07:45.24	267.55	6.98	
2025-01-11 13:07:46.06	267.68	7.00	
2025-01-11 13:07:46.89	267.81	7.02	
2025-01-11 13:07:47.70	267.94	7.03	
2025-01-11 13:07:48.52	268.06	7.05	
2025-01-11 13:07:49.34	268.19	7.07	
2025-01-11 13:07:50.16	268.32	7.09	
2025-01-11 13:07:51.00	268.45	7.11	
2025-01-11 13:07:51.82	268.58	7.13	
2025-01-11 13:07:52.64	268.71	7.15	
2025-01-11 13:07:53.46	268.83	7.16	
2025-01-11 13:07:54.29	268.96	7.18	
2025-01-11 13:07:55.11	269.09	7.20	
2025-01-11 13:07:55.93	269.22	7.22	
2025-01-11 13:07:56.75	269.35	7.23	
2025-01-11 13:07:57.57	269.48	7.25	
2025-01-11 13:07:58.39	269.61	7.27	
2025-01-11 13:07:59.23	269.74	7.29	
2025-01-11 13:08:00.05	269.87	7.30	
2025-01-11 13:08:00.88	270.00	7.32	
2025-01-11 13:08:01.70	270.13	7.34	
2025-01-11 13:08:02.53	270.26	7.35	
2025-01-11 13:08:03.35	270.39	7.37	
2025-01-11 13:08:04.17	270.52	7.39	
2025-01-11 13:08:05.00	270.66	7.40	
2025-01-11 13:08:05.82	270.79	7.42	
2025-01-11 13:08:06.64	270.92	7.44	
2025-01-11 13:08:07.47	271.05	7.45	
2025-01-11 13:08:08.30	271.18	7.47	
2025-01-11 13:08:09.12	271.31	7.48	
2025-01-11 13:08:09.95	271.45	7.50	
2025-01-11 13:08:10.77	271.58	7.51	
2025-01-11 13:08:11.59	271.71	7.53	
2025-01-11 13:08:12.42	271.84	7.55	
2025-01-11 13:08:13.25	271.98	7.56	
2025-01-11 13:08:14.07	272.11	7.58	
2025-01-11 13:08:14.89	272.24	7.59	
2025-01-11 13:08:15.71	272.37	7.61	
2025-01-11 13:08:16.54	272.51	7.62	
2025-01-11 13:08:17.36	272.64	7.63	
2025-01-11 13:08:18.18	272.77	7.65	
2025-01-11 13:08:19.01	272.90	7.66	
2025-01-11 13:08:19.83	273.04	7.68	
2025-01-11 13:08:20.65	273.17	7.69	
2025-01-11 13:08:21.47	273.30	7.71	
2025-01-11 13:08:22.29	273.44	7.72	
2025-01-11 13:08:23.11	273.57	7.73	
2025-01-11 13:08:23.94	273.71	7.75	
2025-01-11 13:08:24.76	273.84	7.76	
2025-01-11 13:08:25.58	273.97	7.77	
2025-01-11 13:08:26.40	274.11	7.79	
2025-01-11 13:08:27.23	274.24	7.80	
2025-01-11 13:08:28.04	274.37	7.81	
2025-01-11 13:08:28.88	274.51	7.83	
2025-01-11 13:08:29.70	274.65	7.84	
2025-01-11 13:08:30.54	274.78	7.85	
2025-01-11 13:08:31.36	274.92	7.86	
2025-01-11 13:08:32.18	275.05	7.88	
2025-01-11 13:08:33.00	275.19	7.89	
2025-01-11 13:08:33.82	275.32	7.90	
2025-01-11 13:08:34.64	275.46	7.91	
2025-01-11 13:08:35.46	275.59	7.92	
2025-01-11 13:08:36.28	275.73	7.94	
2025-01-11 13:08:37.10	275.86	7.95	
2025-01-11 13:08:37.93	276.00	7.96	
2025-01-11 13:08:38.75	276.13	7.97	
2025-01-11 13:08:39.57	276.27	7.98	
2025-01-11 13:08:40.39	276.40	7.99	
2025-01-11 13:08:41.21	276.54	8.00	
2025-01-11 13:08:42.03	276.68	8.01	
2025-01-11 13:08:42.84	276.81	8.02	
2025-01-11 13:08:43.66	276.95	8.03	
2025-01-11 13:08:44.48	277.08	8.04	
2025-01-11 13:08:45.30	277.22	8.05	
2025-01-11 13:08:46.12	277.35	8.06	
2025-01-11 13:08:46.94	277.49	8.07	
2025-01-11 13:08:47.76	277.63	8.08	
2025-01-11 13:08:48.58	277.76	8.09	
2025-01-11 13:08:49.40	277.90	8.10	
2025-01-11 13:08:50.22	278.04	8.11	
2025-01-11 13:08:51.04	278.17	8.12	
2025-01-11 13:08:51.86	278.31	8.13	
2025-01-11 13:08:52.68	278.45	8.14	
2025-01-11 13:08:53.51	278.58	8.15	
2025-01-11 13:08:54.33	278.72	8.16	
2025-01-11 13:08:55.15	278.86	8.17	
2025-01-11 13:08:55.97	279.00	8.17	
2025-01-11 13:08:56.79	279.13	8.18	
2025-01-11 13:08:57.62	279.27	8.19	
2025-01-11 13:08:58.44	279.41	8.20	
2025-01-11 13:08:59.26	279.55	8.21	
2025-01-11 13:09:00.08	279.68	8.21	
2025-01-11 13:09:00.90	279.82	8.22	
2025-01-11 13:09:01.72	279.96	8.23	
2025-01-11 13:09:02.54	280.10	8.24	
2025-01-11 13:09:03.36	280.24	8.24	
2025-01-11 13:09:04.18	280.37	8.25	
2025-01-11 13:09:05.01	280.51	8.26	
2025-01-11 13:09:05.83	280.65	8.26	
2025-01-11 13:09:06.66	280.79	8.27	
2025-01-11 13:09:07.47	280.93	8.28	
2025-01-11 13:09:08.29	281.07	8.28	
2025-01-11 13:09:09.11	281.20	8.29	
2025-01-11 13:09:09.93	281.34	8.30	
2025-01-11 13:09:10.75	281.48	8.30	
2025-01-11 13:09:11.57	281.62	8.31	
2025-01-11 13:09:12.39	281.76	8.31	
2025-01-11 13:09:13.21	281.89	8.32	
2025-01-11 13:09:14.03	282.03	8.32	
2025-01-11 13:09:14.86	282.17	8.33	
2025-01-11 13:09:15.69	282.31	8.33	
2025-01-11 13:09:16.51	282.45	8.34	
2025-01-11 13:09:17.33	282.59	8.34	
2025-01-11 13:09:18.15	282.73	8.35	
2025-01-11 13:09:18.97	282.87	8.35	
2025-01-11 13:09:19.79	283.01	8.36	
2025-01-11 13:09:20.61	283.15	8.36	
2025-01-11 13:09:21.43	283.29	8.37	
2025-01-11 13:09:22.25	283.42	8.37	
2025-01-11 13:09:23.07	283.56	8.37	
2025-01-11 13:09:23.89	283.70	8.38	
2025-01-11 13:09:24.71	283.84	8.38	
2025-01-11 13:09:25.53	283.98	8.38	
2025-01-11 13:09:26.35	284.12	8.39	
2025-01-11 13:09:27.17	284.26	8.39	
2025-01-11 13:09:27.99	284.40	8.39	
2025-01-11 13:09:28.81	284.54	8.39	
2025-01-11 13:09:29.65	284.68	8.40	
2025-01-11 13:09:30.47	284.82	8.40	
2025-01-11 13:09:31.28	284.96	8.40	
2025-01-11 13:09:32.10	285.09	8.40	
2025-01-11 13:09:32.92	285.23	8.41	
2025-01-11 13:09:33.75	285.37	8.41	
2025-01-11 13:09:34.56	285.51	8.41	
2025-01-11 13:09:35.38	285.65	8.41	
2025-01-11 13:09:36.20	285.79	8.41	
2025-01-11 13:09:37.02	285.93	8.41	
2025-01-11 13:09:37.84	286.07	8.41	
2025-01-11 13:09:38.66	286.21	8.42	
2025-01-11 13:09:39.47	286.35	8.42	
2025-01-11 13:09:40.29	286.49	8.42	
2025-01-11 13:09:41.11	286.62	8.42	
2025-01-11 13:09:41.93	286.76	8.42	
2025-01-11 13:09:42.75	286.90	8.42	
2025-01-11 13:09:43.57	287.04	8.42	
2025-01-11 13:09:44.39	287.18	8.42	
2025-01-11 13:09:45.21	287.32	8.42	
2025-01-11 13:09:46.03	287.46	8.42	
2025-01-11 13:09:46.84	287.60	8.42	
2025-01-11 13:09:47.67	287.74	8.42	
2025-01-11 13:09:48.48	287.88	8.42	
2025-01-11 13:09:49.32	288.02	8.42	
2025-01-11 13:09:50.13	288.16	8.41	
2025-01-11 13:09:50.97	288.30	8.41	
2025-01-11 13:09:51.79	288.44	8.41	
2025-01-11 13:09:52.61	288.58	8.41	
2025-01-11 13:09:53.43	288.72	8.41	
2025-01-11 13:09:54.25	288.86	8.41	
2025-01-11 13:09:55.07	289.00	8.40	
2025-01-11 13:09:55.89	289.13	8.40	
2025-01-11 13:09:56.71	289.27	8.40	
2025-01-11 13:09:57.53	289.41	8.40	
2025-01-11 13:09:58.35	289.55	8.40	
2025-01-11 13:09:59.17	289.69	8.39	
2025-01-11 13:09:59.99	289.83	8.39	
2025-01-11 13:10:00.81	289.97	8.39	
2025-01-11 13:10:01.63	290.11	8.38	
2025-01-11 13:10:02.45	290.25	8.38	
2025-01-11 13:10:03.26	290.38	8.38	
2025-01-11 13:10:04.08	290.52	8.37	
2025-01-11 13:10:04.90	290.66	8.37	
2025-01-11 13:10:05.73	290.80	8.37	
2025-01-11 13:10:06.55	290.94	8.36	
2025-01-11 13:10:07.38	291.08	8.36	
2025-01-11 13:10:08.20	291.22	8.35	
2025-01-11 13:10:09.02	291.36	8.35	
2025-01-11 13:10:09.85	291.50	8.34	
2025-01-11 13:10:10.68	291.64	8.34	
2025-01-11 13:10:11.50	291.78	8.34	
2025-01-11 13:10:12.32	291.92	8.33	
2025-01-11 13:10:13.14	292.05	8.32	
2025-01-11 13:10:13.96	292.19	8.32	
2025-01-11 13:10:14.78	292.33	8.31	
2025-01-11 13:10:15.61	292.47	8.31	
2025-01-11 13:10:16.43	292.61	8.30	
2025-01-11 13:10:17.25	292.75	8.30	
2025-01-11 13:10:18.07	292.89	8.29	
2025-01-11 13:10:18.89	293.02	8.29	
2025-01-11 13:10:19.71	293.16	8.28	
2025-01-11 13:10:20.53	293.30	8.27	
2025-01-11 13:10:21.35	293.44	8.27	
2025-01-11 13:10:22.17	293.57	8.26	
2025-01-11 13:10:23.00	293.71	8.25	
2025-01-11 13:10:23.82	293.85	8.25	
2025-01-11 13:10:24.64	293.99	8.24	
2025-01-11 13:10:25.46	294.13	8.23	
2025-01-11 13:10:26.28	294.26	8.22	
2025-01-11 13:10:27.10	294.40	8.22	
2025-01-11 13:10:27.92	294.54	8.21	
2025-01-11 13:10:28.73	294.67	8.20	
2025-01-11 13:10:29.55	294.81	8.19	
2025-01-11 13:10:30.37	294.95	8.19	
2025-01-11 13:10:31.21	295.09	8.18	
2025-01-11 13:10:32.03	295.23	8.17	
2025-01-11 13:10:32.84	295.36	8.16	
2025-01-11 13:10:33.66	295.50	8.15	
2025-01-11 13:10:34.48	295.63	8.14	
2025-01-11 13:10:35.30	295.77	8.13	
2025-01-11 13:10:36.12	295.91	8.12	
2025-01-11 13:10:36.95	296.05	8.12	
2025-01-11 13:10:37.77	296.18	8.11	
2025-01-11 13:10:38.60	296.32	8.10	
2025-01-11 13:10:39.41	296.45	8.09	
2025-01-11 13:10:40.25	296.59	8.08	
2025-01-11 13:10:41.07	296.73	8.07	
2025-01-11 13:10:41.88	296.86	8.06	
2025-01-11 13:10:42.70	297.00	8.05	
2025-01-11 13:10:43.52	297.14	8.04	
2025-01-11 13:10:44.34	297.27	8.03	
2025-01-11 13:10:45.16	297.41	8.02	
2025-01-11 13:10:45.98	297.54	8.01	
2025-01-11 13:10:46.80	297.68	8.00	
2025-01-11 13:10:47.62	297.81	7.98	
2025-01-11 13:10:48.44	297.95	7.97	
2025-01-11 13:10:49.26	298.08	7.96	
2025-01-11 13:10:50.08	298.22	7.95	
2025-01-11 13:10:50.90	298.35	7.94	
2025-01-11 13:10:51.72	298.49	7.93	
2025-01-11 13:10:52.54	298.62	7.92	
2025-01-11 13:10:53.37	298.76	7.90	
2025-01-11 13:10:54.19	298.89	7.89	
2025-01-11 13:10:55.01	299.03	7.88	
2025-01-11 13:10:55.83	299.16	7.87	
2025-01-11 13:10:56.65	299.29	7.86	
2025-01-11 13:10:57.47	299.43	7.84	
2025-01-11 13:10:58.29	299.56	7.83	
2025-01-11 13:10:59.11	299.70	7.82	
2025-01-11 13:10:59.93	299.83	7.81	
2025-01-11 13:11:00.76	299.97	7.79	
2025-01-11 13:11:01.58	300.10	7.78	
2025-01-11 13:11:02.40	300.23	7.77	
2025-01-11 13:11:03.24	300.37	7.75	
2025-01-11 13:11:04.07	300.50	7.74	
2025-01-11 13:11:04.89	300.64	7.73	
2025-01-11 13:11:05.70	300.77	7.71	
2025-01-11 13:11:06.52	300.90	7.70	
2025-01-11 13:11:07.34	301.03	7.68	
2025-01-11 13:11:08.17	301.17	7.67	
2025-01-11 13:11:09.00	301.30	7.66	
2025-01-11 13:11:09.82	301.43	7.64	
2025-01-11 13:11:10.64	301.56	7.63	
2025-01-11 13:11:11.45	301.69	7.61	
2025-01-11 13:11:12.28	301.83	7.60	
2025-01-11 13:11:13.10	301.96	7.58	
2025-01-11 13:11:13.92	302.09	7.57	
2025-01-11 13:11:14.74	302.22	7.55	
2025-01-11 13:11:15.57	302.35	7.54	
2025-01-11 13:11:16.39	302.49	7.52	
2025-01-11 13:11:17.21	302.62	7.51	
2025-01-11 13:11:18.02	302.75	7.49	
2025-01-11 13:11:18.84	302.88	7.48	
2025-01-11 13:11:19.66	303.01	7.46	
2025-01-11 13:11:20.48	303.14	7.44	
2025-01-11 13:11:21.29	303.27	7.43	
2025-01-11 13:11:22.11	303.40	7.41	
2025-01-11 13:11:22.93	303.53	7.40	
2025-01-11 13:11:23.76	303.66	7.38	
2025-01-11 13:11:24.58	303.79	7.36	
2025-01-11 13:11:25.40	303.92	7.35	
2025-01-11 13:11:26.22	304.05	7.33	
2025-01-11 13:11:27.04	304.18	7.31	
2025-01-11 13:11:27.86	304.30	7.30	
2025-01-11 13:11:28.68	304.43	7.28	
2025-01-11 13:11:29.49	304.56	7.26	
2025-01-11 13:11:30.33	304.69	7.25	
2025-01-11 13:11:31.15	304.82	7.23	
2025-01-11 13:11:31.98	304.95	7.21	
2025-01-11 13:11:32.80	305.08	7.19	
2025-01-11 13:11:33.63	305.21	7.17	
2025-01-11 13:11:34.44	305.34	7.16	
2025-01-11 13:11:35.26	305.46	7.14	
2025-01-11 13:11:36.08	305.59	7.12	
2025-01-11 13:11:36.90	305.72	7.10	
2025-01-11 13:11:37.72	305.85	7.09	
2025-01-11 13:11:38.54	305.97	7.07	
2025-01-11 13:11:39.38	306.10	7.05	
2025-01-11 13:11:40.20	306.23	7.03	
2025-01-11 13:11:41.01	306.35	7.01	
2025-01-11 13:11:41.84	306.48	6.99	
2025-01-11 13:11:42.67	306.61	6.97	
2025-01-11 13:11:43.49	306.74	6.95	
2025-01-11 13:11:44.30	306.86	6.94	
2025-01-11 13:11:45.12	306.99	6.92	
2025-01-11 13:11:45.95	307.11	6.90	
2025-01-11 13:11:46.77	307.24	6.88	
2025-01-11 13:11:47.59	307.37	6.86	
2025-01-11 13:11:48.43	307.49	6.84	
2025-01-11 13:11:49.25	307.62	6.82	
2025-01-11 13:11:50.08	307.75	6.80	
2025-01-11 13:11:50.90	307.87	6.78	
2025-01-11 13:11:51.72	307.99	6.76	
2025-01-11 13:11:52.54	308.12	6.74	
2025-01-11 13:11:53.36	308.24	6.72	
2025-01-11 13:11:54.18	308.37	6.70	
2025-01-11 13:11:55.00	308.49	6.68	
2025-01-11 13:11:55.82	308.61	6.66	
2025-01-11 13:11:56.64	308.74	6.64	
2025-01-11 13:11:57.46	308.86	6.62	
2025-01-11 13:11:58.28	308.98	6.60	
2025-01-11 13:11:59.10	309.11	6.58	
2025-01-11 13:11:59.92	309.23	6.56	
2025-01-11 13:12:00.74	309.35	6.53	
2025-01-11 13:12:01.56	309.48	6.51	
2025-01-11 13:12:02.38	309.60	6.49	
2025-01-11 13:12:03.20	309.72	6.47	
2025-01-11 13:12:04.03	309.84	6.45	
2025-01-11 13:12:04.85	309.97	6.43	
2025-01-11 13:12:05.68	310.09	6.41	
2025-01-11 13:12:06.51	310.21	6.38	
2025-01-11 13:12:07.34	310.33	6.36	
2025-01-11 13:12:08.15	310.45	6.34	
2025-01-11 13:12:08.98	310.58	6.32	
2025-01-11 13:12:09.79	310.70	6.30	
2025-01-11 13:12:10.62	310.82	6.27	
2025-01-11 13:12:11.44	310.94	6.25	
2025-01-11 13:12:12.26	311.06	6.23	
2025-01-11 13:12:13.07	311.18	6.21	
2025-01-11 13:12:13.90	311.30	6.19	
2025-01-11 13:12:14.72	311.42	6.16	
2025-01-11 13:12:15.54	311.54	6.14	
2025-01-11 13:12:16.37	311.66	6.12	
2025-01-11 13:12:17.19	311.78	6.10	
2025-01-11 13:12:18.01	311.90	6.07	
2025-01-11 13:12:18.83	312.02	6.05	
2025-01-11 13:12:19.64	312.13	6.03	
2025-01-11 13:12:20.46	312.25	6.00	
2025-01-11 13:12:21.28	312.37	5.98	
2025-01-11 13:12:22.11	312.49	5.96	
2025-01-11 13:12:22.93	312.61	5.93	
2025-01-11 13:12:23.75	312.72	5.91	
2025-01-11 13:12:24.57	312.84	5.89	
2025-01-11 13:12:25.39	312.96	5.86	
2025-01-11 13:12:26.22	313.08	5.84	
2025-01-11 13:12:27.05	313.20	5.82	
2025-01-11 13:12:27.87	313.31	5.79	
2025-01-11 13:12:28.69	313.43	5.77	
2025-01-11 13:12:29.51	313.55	5.74	
2025-01-11 13:12:30.33	313.66	5.72	
2025-01-11 13:12:31.15	313.78	5.70	
2025-01-11 13:12:31.97	313.89	5.67	
2025-01-11 13:12:32.79	314.01	5.65	
2025-01-11 13:12:33.61	314.13	5.62	
2025-01-11 13:12:34.44	314.24	5.60	
2025-01-11 13:12:35.26	314.36	5.57	
2025-01-11 13:12:36.08	314.47	5.55	
2025-01-11 13:12:36.90	314.59	5.53	
2025-01-11 13:12:37.72	314.70	5.50	
2025-01-11 13:12:38.54	314.82	5.48	
2025-01-11 13:12:39.36	314.93	5.45	
2025-01-11 13:12:40.18	315.04	5.43	
2025-01-11 13:12:41.00	315.16	5.40	
2025-01-11 13:12:41.83	315.27	5.38	
2025-01-11 13:12:42.65	315.39	5.35	
2025-01-11 13:12:43.47	315.50	5.33	
2025-01-11 13:12:44.28	315.61	5.30	
2025-01-11 13:12:45.10	315.72	5.28	
2025-01-11 13:12:45.93	315.84	5.25	
2025-01-11 13:12:46.75	315.95	5.23	
2025-01-11 13:12:47.57	316.06	5.20	
2025-01-11 13:12:48.39	316.17	5.17	
2025-01-11 13:12:49.21	316.29	5.15	
2025-01-11 13:12:50.03	316.40	5.12	
2025-01-11 13:12:50.84	316.51	5.10	
2025-01-11 13:12:51.66	316.62	5.07	
2025-01-11 13:12:52.50	316.73	5.05	
2025-01-11 13:12:53.32	316.84	5.02	
2025-01-11 13:12:54.14	316.96	4.99	
2025-01-11 13:12:54.97	317.07	4.97	
2025-01-11 13:12:55.79	317.18	4.94	
2025-01-11 13:12:56.61	317.29	4.92	
2025-01-11 13:12:57.43	317.40	4.89	
2025-01-11 13:12:58.25	317.51	4.86	
2025-01-11 13:12:59.07	317.62	4.84	
2025-01-11 13:12:59.89	317.73	4.81	
2025-01-11 13:13:00.71	317.84	4.78	
2025-01-11 13:13:01.53	317.95	4.76	
2025-01-11 13:13:02.35	318.05	4.73	
2025-01-11 13:13:03.17	318.16	4.70	
2025-01-11 13:13:04.00	318.27	4.68	
2025-01-11 13:13:04.83	318.38	4.65	
2025-01-11 13:13:05.65	318.49	4.62	
2025-01-11 13:13:06.47	318.60	4.60	
2025-01-11 13:13:07.29	318.71	4.57	
2025-01-11 13:13:08.11	318.81	4.54	
2025-01-11 13:13:08.93	318.92	4.52	
2025-01-11 13:13:09.75	319.03	4.49	
2025-01-11 13:13:10.59	319.14	4.46	
2025-01-11 13:13:11.41	319.24	4.43	
2025-01-11 13:13:12.23	319.35	4.41	
2025-01-11 13:13:13.05	319.46	4.38	
2025-01-11 13:13:13.87	319.56	4.35	
2025-01-11 13:13:14.69	319.67	4.32	
2025-01-11 13:13:15.54	319.78	4.30	
2025-01-11 13:13:16.36	319.88	4.27	
2025-01-11 13:13:17.18	319.99	4.24	
2025-01-11 13:13:18.00	320.09	4.21	
2025-01-11 13:13:18.82	320.20	4.19	
2025-01-11 13:13:19.64	320.30	4.16	
2025-01-11 13:13:20.46	320.41	4.13	
2025-01-11 13:13:21.28	320.51	4.10	
2025-01-11 13:13:22.10	320.62	4.08	
2025-01-11 13:13:22.92	320.72	4.05	
2025-01-11 13:13:23.74	320.83	4.02	

#Closed at: 2025-01-11 13:13:24