passes_logs/2025/01/11/SPB_Silybum_02/SPB_Silybum_02__20250111_005730_AQUA_rec.log

#Pass ID: 20250111_005730_AQUA
#Satellite: AQUA
#Configuration: AQUA
#Start time: 2025-01-11 00:57:30

#Version: 2.0.20230423
#Station: SPB_Silybum_02
#Location: 30.233357 lon 59.946436 lat
#TLE: 1 27424U 02022A   25010.14776733  .00002050  00000+0  43097-3 0  9993
#TLE: 2 27424  98.3581 326.7682 0001515 116.0773 333.4276 14.60663937206917

#Time	Az	El	Level	Level2	SNR	BER	Gain	Gain2
2025-01-11 00:57:32.98	19.26	4.21	
2025-01-11 00:57:34.21	19.29	4.30	
2025-01-11 00:57:35.44	19.32	4.39	
2025-01-11 00:57:36.67	19.35	4.48	
2025-01-11 00:57:37.91	19.38	4.57	
2025-01-11 00:57:39.14	19.41	4.65	
2025-01-11 00:57:40.36	19.44	4.74	
2025-01-11 00:57:41.59	19.47	4.83	
2025-01-11 00:57:42.82	19.50	4.92	
2025-01-11 00:57:44.06	19.53	5.01	
2025-01-11 00:57:45.29	19.56	5.10	
2025-01-11 00:57:46.52	19.60	5.20	
2025-01-11 00:57:47.76	19.63	5.29	
2025-01-11 00:57:48.99	19.66	5.38	
2025-01-11 00:57:50.22	19.69	5.47	
2025-01-11 00:57:51.45	19.72	5.56	
2025-01-11 00:57:52.69	19.76	5.66	
2025-01-11 00:57:53.93	19.79	5.75	
2025-01-11 00:57:55.16	19.82	5.85	
2025-01-11 00:57:56.39	19.86	5.94	
2025-01-11 00:57:57.63	19.89	6.03	
2025-01-11 00:57:58.87	19.92	6.13	
2025-01-11 00:58:00.09	19.96	6.22	
2025-01-11 00:58:01.33	19.99	6.32	
2025-01-11 00:58:02.56	20.03	6.42	
2025-01-11 00:58:03.80	20.06	6.51	
2025-01-11 00:58:05.03	20.09	6.61	
2025-01-11 00:58:06.26	20.13	6.71	
2025-01-11 00:58:07.50	20.16	6.81	
2025-01-11 00:58:08.74	20.20	6.90	
2025-01-11 00:58:09.97	20.24	7.00	
2025-01-11 00:58:11.20	20.27	7.10	
2025-01-11 00:58:12.43	20.31	7.20	
2025-01-11 00:58:13.66	20.34	7.30	
2025-01-11 00:58:14.89	20.38	7.40	
2025-01-11 00:58:16.12	20.42	7.50	
2025-01-11 00:58:17.35	20.45	7.60	
2025-01-11 00:58:18.58	20.49	7.70	
2025-01-11 00:58:19.81	20.53	7.80	
2025-01-11 00:58:21.04	20.56	7.91	
2025-01-11 00:58:22.26	20.60	8.01	
2025-01-11 00:58:23.50	20.64	8.11	
2025-01-11 00:58:24.73	20.68	8.21	
2025-01-11 00:58:25.98	20.72	8.32	
2025-01-11 00:58:27.20	20.76	8.42	
2025-01-11 00:58:28.43	20.80	8.53	
2025-01-11 00:58:29.67	20.84	8.64	
2025-01-11 00:58:30.90	20.87	8.74	
2025-01-11 00:58:32.12	20.91	8.85	
2025-01-11 00:58:33.36	20.95	8.95	
2025-01-11 00:58:34.59	21.00	9.06	
2025-01-11 00:58:35.83	21.04	9.17	
2025-01-11 00:58:37.06	21.08	9.28	
2025-01-11 00:58:38.29	21.12	9.39	
2025-01-11 00:58:39.52	21.16	9.50	
2025-01-11 00:58:40.75	21.20	9.61	
2025-01-11 00:58:41.99	21.24	9.72	
2025-01-11 00:58:43.23	21.29	9.83	
2025-01-11 00:58:44.45	21.33	9.94	
2025-01-11 00:58:45.68	21.37	10.05	
2025-01-11 00:58:46.91	21.42	10.17	
2025-01-11 00:58:48.15	21.46	10.28	
2025-01-11 00:58:49.38	21.50	10.39	
2025-01-11 00:58:50.61	21.55	10.51	
2025-01-11 00:58:51.86	21.59	10.63	
2025-01-11 00:58:53.09	21.64	10.74	
2025-01-11 00:58:54.33	21.68	10.86	
2025-01-11 00:58:55.56	21.73	10.98	
2025-01-11 00:58:56.79	21.78	11.09	
2025-01-11 00:58:58.02	21.82	11.21	
2025-01-11 00:58:59.26	21.87	11.33	
2025-01-11 00:59:00.49	21.92	11.45	
2025-01-11 00:59:01.72	21.96	11.57	
2025-01-11 00:59:02.95	22.01	11.69	
2025-01-11 00:59:04.18	22.06	11.81	
2025-01-11 00:59:05.43	22.11	11.94	
2025-01-11 00:59:06.66	22.16	12.06	
2025-01-11 00:59:07.89	22.21	12.18	
2025-01-11 00:59:09.12	22.26	12.31	
2025-01-11 00:59:10.35	22.31	12.43	
2025-01-11 00:59:11.58	22.36	12.56	
2025-01-11 00:59:12.82	22.41	12.68	
2025-01-11 00:59:14.05	22.46	12.81	
2025-01-11 00:59:15.29	22.51	12.94	
2025-01-11 00:59:16.53	22.57	13.07	
2025-01-11 00:59:17.76	22.62	13.20	
2025-01-11 00:59:18.99	22.67	13.33	
2025-01-11 00:59:20.22	22.73	13.46	
2025-01-11 00:59:21.45	22.78	13.59	
2025-01-11 00:59:22.68	22.84	13.72	
2025-01-11 00:59:23.93	22.89	13.85	
2025-01-11 00:59:25.16	22.95	13.99	
2025-01-11 00:59:26.39	23.00	14.12	
2025-01-11 00:59:27.62	23.06	14.26	
2025-01-11 00:59:28.85	23.12	14.39	
2025-01-11 00:59:30.08	23.17	14.53	
2025-01-11 00:59:31.30	23.23	14.67	
2025-01-11 00:59:32.54	23.29	14.81	
2025-01-11 00:59:33.78	23.35	14.95	
2025-01-11 00:59:35.01	23.41	15.09	
2025-01-11 00:59:36.24	23.47	15.23	
2025-01-11 00:59:37.47	23.53	15.37	
2025-01-11 00:59:38.70	23.59	15.51	
2025-01-11 00:59:39.93	23.65	15.66	
2025-01-11 00:59:41.16	23.72	15.80	
2025-01-11 00:59:42.38	23.78	15.94	
2025-01-11 00:59:43.61	23.84	16.09	
2025-01-11 00:59:44.84	23.91	16.24	
2025-01-11 00:59:46.08	23.97	16.39	
2025-01-11 00:59:47.32	24.04	16.54	
2025-01-11 00:59:48.55	24.11	16.69	
2025-01-11 00:59:49.78	24.17	16.84	
2025-01-11 00:59:51.01	24.24	16.99	
2025-01-11 00:59:52.24	24.31	17.15	
2025-01-11 00:59:53.48	24.38	17.30	
2025-01-11 00:59:54.71	24.45	17.46	
2025-01-11 00:59:55.94	24.52	17.61	
2025-01-11 00:59:57.17	24.59	17.77	
2025-01-11 00:59:58.42	24.66	17.93	
2025-01-11 00:59:59.65	24.73	18.09	
2025-01-11 01:00:00.90	24.81	18.26	
2025-01-11 01:00:02.14	24.88	18.42	
2025-01-11 01:00:03.36	24.96	18.58	
2025-01-11 01:00:04.60	25.03	18.75	
2025-01-11 01:00:05.83	25.11	18.91	
2025-01-11 01:00:07.06	25.19	19.08	
2025-01-11 01:00:08.29	25.27	19.25	
2025-01-11 01:00:09.52	25.34	19.42	
2025-01-11 01:00:10.75	25.42	19.59	
2025-01-11 01:00:11.98	25.50	19.76	
2025-01-11 01:00:13.21	25.59	19.93	
2025-01-11 01:00:14.44	25.67	20.11	
2025-01-11 01:00:15.67	25.75	20.28	
2025-01-11 01:00:16.90	25.84	20.46	
2025-01-11 01:00:18.14	25.92	20.64	
2025-01-11 01:00:19.37	26.01	20.82	
2025-01-11 01:00:20.60	26.10	21.00	
2025-01-11 01:00:21.83	26.19	21.18	
2025-01-11 01:00:23.06	26.27	21.36	
2025-01-11 01:00:24.29	26.36	21.55	
2025-01-11 01:00:25.52	26.46	21.74	
2025-01-11 01:00:26.74	26.55	21.92	
2025-01-11 01:00:27.99	26.64	22.11	
2025-01-11 01:00:29.23	26.74	22.31	
2025-01-11 01:00:30.47	26.84	22.50	
2025-01-11 01:00:31.71	26.93	22.70	
2025-01-11 01:00:32.94	27.03	22.89	
2025-01-11 01:00:34.19	27.13	23.09	
2025-01-11 01:00:35.42	27.24	23.29	
2025-01-11 01:00:36.65	27.34	23.49	
2025-01-11 01:00:37.88	27.44	23.69	
2025-01-11 01:00:39.11	27.55	23.89	
2025-01-11 01:00:40.34	27.65	24.10	
2025-01-11 01:00:41.58	27.76	24.31	
2025-01-11 01:00:42.82	27.87	24.52	
2025-01-11 01:00:44.05	27.98	24.73	
2025-01-11 01:00:45.28	28.09	24.94	
2025-01-11 01:00:46.51	28.21	25.15	
2025-01-11 01:00:47.76	28.33	25.37	
2025-01-11 01:00:48.98	28.44	25.59	
2025-01-11 01:00:50.22	28.56	25.81	
2025-01-11 01:00:51.45	28.68	26.03	
2025-01-11 01:00:52.69	28.80	26.25	
2025-01-11 01:00:53.92	28.93	26.48	
2025-01-11 01:00:55.15	29.05	26.71	
2025-01-11 01:00:56.38	29.18	26.93	
2025-01-11 01:00:57.61	29.31	27.16	
2025-01-11 01:00:58.84	29.44	27.40	
2025-01-11 01:01:00.07	29.57	27.63	
2025-01-11 01:01:01.30	29.71	27.87	
2025-01-11 01:01:02.53	29.84	28.11	
2025-01-11 01:01:03.76	29.98	28.35	
2025-01-11 01:01:05.00	30.12	28.59	
2025-01-11 01:01:06.23	30.27	28.84	
2025-01-11 01:01:07.47	30.41	29.08	
2025-01-11 01:01:08.70	30.56	29.33	
2025-01-11 01:01:09.93	30.71	29.59	
2025-01-11 01:01:11.16	30.86	29.84	
2025-01-11 01:01:12.39	31.02	30.09	
2025-01-11 01:01:13.63	31.17	30.35	
2025-01-11 01:01:14.87	31.34	30.62	
2025-01-11 01:01:16.10	31.50	30.88	
2025-01-11 01:01:17.33	31.66	31.14	
2025-01-11 01:01:18.55	31.83	31.41	
2025-01-11 01:01:19.80	32.00	31.68	
2025-01-11 01:01:21.03	32.17	31.96	
2025-01-11 01:01:22.26	32.35	32.23	
2025-01-11 01:01:23.49	32.53	32.51	
2025-01-11 01:01:24.72	32.71	32.79	
2025-01-11 01:01:25.95	32.90	33.07	
2025-01-11 01:01:27.19	33.09	33.36	
2025-01-11 01:01:28.42	33.28	33.64	
2025-01-11 01:01:29.66	33.48	33.93	
2025-01-11 01:01:30.89	33.68	34.23	
2025-01-11 01:01:32.14	33.88	34.53	
2025-01-11 01:01:33.37	34.09	34.82	
2025-01-11 01:01:34.60	34.30	35.12	
2025-01-11 01:01:35.82	34.51	35.42	
2025-01-11 01:01:37.05	34.73	35.73	
2025-01-11 01:01:38.28	34.95	36.04	
2025-01-11 01:01:39.51	35.18	36.35	
2025-01-11 01:01:40.74	35.41	36.66	
2025-01-11 01:01:41.97	35.64	36.98	
2025-01-11 01:01:43.20	35.88	37.30	
2025-01-11 01:01:44.43	36.13	37.62	
2025-01-11 01:01:45.67	36.38	37.95	
2025-01-11 01:01:46.92	36.64	38.28	
2025-01-11 01:01:48.15	36.90	38.61	
2025-01-11 01:01:49.38	37.17	38.94	
2025-01-11 01:01:50.61	37.44	39.28	
2025-01-11 01:01:51.84	37.71	39.61	
2025-01-11 01:01:53.07	38.00	39.96	
2025-01-11 01:01:54.30	38.28	40.30	
2025-01-11 01:01:55.53	38.58	40.65	
2025-01-11 01:01:56.76	38.88	41.00	
2025-01-11 01:01:57.99	39.19	41.35	
2025-01-11 01:01:59.22	39.50	41.70	
2025-01-11 01:02:00.45	39.82	42.06	
2025-01-11 01:02:01.69	40.16	42.42	
2025-01-11 01:02:02.92	40.49	42.79	
2025-01-11 01:02:04.16	40.84	43.15	
2025-01-11 01:02:05.39	41.19	43.52	
2025-01-11 01:02:06.62	41.55	43.89	
2025-01-11 01:02:07.86	41.92	44.27	
2025-01-11 01:02:09.08	42.30	44.64	
2025-01-11 01:02:10.31	42.69	45.02	
2025-01-11 01:02:11.54	43.08	45.40	
2025-01-11 01:02:12.77	43.49	45.79	
2025-01-11 01:02:14.02	43.91	46.18	
2025-01-11 01:02:15.25	44.34	46.56	
2025-01-11 01:02:16.48	44.77	46.95	
2025-01-11 01:02:17.71	45.22	47.35	
2025-01-11 01:02:18.94	45.68	47.74	
2025-01-11 01:02:20.18	46.16	48.14	
2025-01-11 01:02:21.41	46.64	48.54	
2025-01-11 01:02:22.64	47.14	48.93	
2025-01-11 01:02:23.87	47.65	49.33	
2025-01-11 01:02:25.10	48.17	49.74	
2025-01-11 01:02:26.34	48.71	50.14	
2025-01-11 01:02:27.57	49.26	50.55	
2025-01-11 01:02:28.80	49.83	50.95	
2025-01-11 01:02:30.03	50.41	51.36	
2025-01-11 01:02:31.27	51.02	51.77	
2025-01-11 01:02:32.50	51.63	52.17	
2025-01-11 01:02:33.73	52.27	52.58	
2025-01-11 01:02:34.96	52.92	52.99	
2025-01-11 01:02:36.19	53.58	53.39	
2025-01-11 01:02:37.42	54.27	53.80	
2025-01-11 01:02:38.65	54.98	54.20	
2025-01-11 01:02:39.87	55.70	54.60	
2025-01-11 01:02:41.10	56.45	55.01	
2025-01-11 01:02:42.33	57.22	55.41	
2025-01-11 01:02:43.56	58.01	55.81	
2025-01-11 01:02:44.80	58.83	56.21	
2025-01-11 01:02:46.03	59.67	56.60	
2025-01-11 01:02:47.27	60.54	56.99	
2025-01-11 01:02:48.49	61.42	57.38	
2025-01-11 01:02:49.72	62.33	57.76	
2025-01-11 01:02:50.95	63.27	58.14	
2025-01-11 01:02:52.19	64.24	58.52	
2025-01-11 01:02:53.42	65.24	58.89	
2025-01-11 01:02:54.65	66.26	59.25	
2025-01-11 01:02:55.88	67.31	59.61	
2025-01-11 01:02:57.12	68.40	59.96	
2025-01-11 01:02:58.36	69.52	60.31	
2025-01-11 01:02:59.59	70.66	60.64	
2025-01-11 01:03:00.81	71.82	60.97	
2025-01-11 01:03:02.06	73.03	61.29	
2025-01-11 01:03:03.29	74.27	61.60	
2025-01-11 01:03:04.53	75.54	61.90	
2025-01-11 01:03:05.76	76.83	62.19	
2025-01-11 01:03:06.99	78.15	62.46	
2025-01-11 01:03:08.21	79.49	62.73	
2025-01-11 01:03:09.44	80.88	62.98	
2025-01-11 01:03:10.67	82.29	63.22	
2025-01-11 01:03:11.90	83.72	63.44	
2025-01-11 01:03:13.14	85.20	63.65	
2025-01-11 01:03:14.37	86.69	63.85	
2025-01-11 01:03:15.60	88.21	64.03	
2025-01-11 01:03:16.83	89.75	64.20	
2025-01-11 01:03:18.06	91.31	64.34	
2025-01-11 01:03:19.29	92.89	64.48	
2025-01-11 01:03:20.53	94.49	64.59	
2025-01-11 01:03:21.77	96.12	64.69	
2025-01-11 01:03:23.00	97.74	64.77	
2025-01-11 01:03:24.23	99.38	64.83	
2025-01-11 01:03:25.46	101.02	64.87	
2025-01-11 01:03:26.69	102.67	64.90	
2025-01-11 01:03:27.92	104.31	64.90	
2025-01-11 01:03:29.17	105.99	64.89	
2025-01-11 01:03:30.39	107.62	64.86	
2025-01-11 01:03:31.62	109.26	64.81	
2025-01-11 01:03:32.86	110.91	64.74	
2025-01-11 01:03:34.09	112.53	64.65	
2025-01-11 01:03:35.32	114.13	64.55	
2025-01-11 01:03:36.54	115.71	64.43	
2025-01-11 01:03:37.79	117.31	64.29	
2025-01-11 01:03:39.02	118.86	64.14	
2025-01-11 01:03:40.26	120.41	63.96	
2025-01-11 01:03:41.49	121.92	63.78	
2025-01-11 01:03:42.72	123.40	63.58	
2025-01-11 01:03:43.95	124.86	63.36	
2025-01-11 01:03:45.19	126.30	63.13	
2025-01-11 01:03:46.43	127.71	62.88	
2025-01-11 01:03:47.66	129.08	62.62	
2025-01-11 01:03:48.89	130.42	62.35	
2025-01-11 01:03:50.12	131.74	62.07	
2025-01-11 01:03:51.36	133.03	61.78	
2025-01-11 01:03:52.60	134.29	61.47	
2025-01-11 01:03:53.83	135.51	61.16	
2025-01-11 01:03:55.06	136.70	60.84	
2025-01-11 01:03:56.29	137.86	60.50	
2025-01-11 01:03:57.52	138.99	60.16	
2025-01-11 01:03:58.75	140.09	59.82	
2025-01-11 01:03:59.98	141.16	59.46	
2025-01-11 01:04:01.21	142.20	59.10	
2025-01-11 01:04:02.45	143.22	58.73	
2025-01-11 01:04:03.67	144.19	58.36	
2025-01-11 01:04:04.91	145.16	57.98	
2025-01-11 01:04:06.14	146.09	57.60	
2025-01-11 01:04:07.37	146.99	57.22	
2025-01-11 01:04:08.60	147.87	56.83	
2025-01-11 01:04:09.83	148.73	56.43	
2025-01-11 01:04:11.06	149.56	56.04	
2025-01-11 01:04:12.29	150.37	55.64	
2025-01-11 01:04:13.52	151.15	55.24	
2025-01-11 01:04:14.75	151.91	54.83	
2025-01-11 01:04:15.98	152.65	54.43	
2025-01-11 01:04:17.21	153.38	54.02	
2025-01-11 01:04:18.44	154.08	53.62	
2025-01-11 01:04:19.67	154.76	53.21	
2025-01-11 01:04:20.91	155.42	52.80	
2025-01-11 01:04:22.14	156.07	52.39	
2025-01-11 01:04:23.37	156.69	51.98	
2025-01-11 01:04:24.60	157.30	51.57	
2025-01-11 01:04:25.82	157.89	51.17	
2025-01-11 01:04:27.07	158.48	50.75	
2025-01-11 01:04:28.30	159.04	50.35	
2025-01-11 01:04:29.54	159.59	49.94	
2025-01-11 01:04:30.77	160.12	49.54	
2025-01-11 01:04:32.00	160.64	49.13	
2025-01-11 01:04:33.23	161.15	48.73	
2025-01-11 01:04:34.46	161.64	48.33	
2025-01-11 01:04:35.69	162.12	47.93	
2025-01-11 01:04:36.92	162.59	47.54	
2025-01-11 01:04:38.16	163.05	47.14	
2025-01-11 01:04:39.40	163.49	46.74	
2025-01-11 01:04:40.63	163.93	46.35	
2025-01-11 01:04:41.85	164.35	45.97	
2025-01-11 01:04:43.08	164.76	45.58	
2025-01-11 01:04:44.30	165.16	45.20	
2025-01-11 01:04:45.54	165.56	44.82	
2025-01-11 01:04:46.77	165.94	44.44	
2025-01-11 01:04:47.99	166.31	44.06	
2025-01-11 01:04:49.22	166.68	43.69	
2025-01-11 01:04:50.47	167.04	43.31	
2025-01-11 01:04:51.71	167.39	42.94	
2025-01-11 01:04:52.94	167.73	42.57	
2025-01-11 01:04:54.17	168.07	42.21	
2025-01-11 01:04:55.40	168.39	41.85	
2025-01-11 01:04:56.64	168.72	41.49	
2025-01-11 01:04:57.88	169.03	41.13	
2025-01-11 01:04:59.11	169.34	40.78	
2025-01-11 01:05:00.34	169.63	40.43	
2025-01-11 01:05:01.56	169.92	40.08	
2025-01-11 01:05:02.80	170.21	39.74	
2025-01-11 01:05:04.02	170.49	39.40	
2025-01-11 01:05:05.25	170.76	39.06	
2025-01-11 01:05:06.48	171.03	38.72	
2025-01-11 01:05:07.71	171.30	38.39	
2025-01-11 01:05:08.94	171.56	38.06	
2025-01-11 01:05:10.17	171.81	37.73	
2025-01-11 01:05:11.41	172.06	37.40	
2025-01-11 01:05:12.64	172.30	37.08	
2025-01-11 01:05:13.89	172.54	36.76	
2025-01-11 01:05:15.12	172.78	36.44	
2025-01-11 01:05:16.35	173.01	36.13	
2025-01-11 01:05:17.59	173.23	35.81	
2025-01-11 01:05:18.84	173.46	35.50	
2025-01-11 01:05:20.06	173.67	35.20	
2025-01-11 01:05:21.29	173.88	34.89	
2025-01-11 01:05:22.52	174.09	34.59	
2025-01-11 01:05:23.75	174.30	34.30	
2025-01-11 01:05:24.99	174.50	34.00	
2025-01-11 01:05:26.22	174.70	33.71	
2025-01-11 01:05:27.45	174.89	33.42	
2025-01-11 01:05:28.68	175.08	33.13	
2025-01-11 01:05:29.93	175.27	32.84	
2025-01-11 01:05:31.17	175.46	32.56	
2025-01-11 01:05:32.40	175.64	32.28	
2025-01-11 01:05:33.64	175.82	32.00	
2025-01-11 01:05:34.87	175.99	31.72	
2025-01-11 01:05:36.11	176.16	31.45	
2025-01-11 01:05:37.36	176.34	31.17	
2025-01-11 01:05:38.59	176.50	30.91	
2025-01-11 01:05:39.82	176.67	30.64	
2025-01-11 01:05:41.05	176.83	30.38	
2025-01-11 01:05:42.29	176.99	30.12	
2025-01-11 01:05:43.51	177.14	29.86	
2025-01-11 01:05:44.75	177.29	29.60	
2025-01-11 01:05:45.97	177.44	29.35	
2025-01-11 01:05:47.22	177.59	29.10	
2025-01-11 01:05:48.45	177.74	28.85	
2025-01-11 01:05:49.69	177.89	28.60	
2025-01-11 01:05:50.93	178.03	28.35	
2025-01-11 01:05:52.16	178.17	28.11	
2025-01-11 01:05:53.39	178.31	27.87	
2025-01-11 01:05:54.62	178.44	27.63	
2025-01-11 01:05:55.85	178.57	27.39	
2025-01-11 01:05:57.08	178.71	27.16	
2025-01-11 01:05:58.32	178.84	26.92	
2025-01-11 01:05:59.55	178.96	26.69	
2025-01-11 01:06:00.79	179.09	26.46	
2025-01-11 01:06:02.02	179.21	26.24	
2025-01-11 01:06:03.25	179.34	26.01	
2025-01-11 01:06:04.50	179.46	25.78	
2025-01-11 01:06:05.72	179.58	25.57	
2025-01-11 01:06:06.95	179.69	25.35	
2025-01-11 01:06:08.19	179.81	25.13	
2025-01-11 01:06:09.42	179.93	24.91	
2025-01-11 01:06:10.65	180.04	24.70	
2025-01-11 01:06:11.88	180.15	24.49	
2025-01-11 01:06:13.11	180.26	24.28	
2025-01-11 01:06:14.35	180.37	24.07	
2025-01-11 01:06:15.57	180.47	23.86	
2025-01-11 01:06:16.80	180.58	23.66	
2025-01-11 01:06:18.03	180.68	23.45	
2025-01-11 01:06:19.26	180.78	23.25	
2025-01-11 01:06:20.49	180.89	23.05	
2025-01-11 01:06:21.74	180.99	22.85	
2025-01-11 01:06:22.96	181.09	22.65	
2025-01-11 01:06:24.19	181.18	22.46	
2025-01-11 01:06:25.43	181.28	22.26	
2025-01-11 01:06:26.67	181.38	22.07	
2025-01-11 01:06:27.90	181.47	21.88	
2025-01-11 01:06:29.13	181.56	21.69	
2025-01-11 01:06:30.36	181.65	21.50	
2025-01-11 01:06:31.59	181.75	21.31	
2025-01-11 01:06:32.82	181.83	21.13	
2025-01-11 01:06:34.05	181.92	20.95	
2025-01-11 01:06:35.28	182.01	20.76	
2025-01-11 01:06:36.51	182.10	20.58	
2025-01-11 01:06:37.75	182.18	20.40	
2025-01-11 01:06:39.01	182.27	20.22	
2025-01-11 01:06:40.24	182.35	20.04	
2025-01-11 01:06:41.46	182.43	19.87	
2025-01-11 01:06:42.70	182.52	19.69	
2025-01-11 01:06:43.93	182.60	19.52	
2025-01-11 01:06:45.17	182.68	19.35	
2025-01-11 01:06:46.39	182.76	19.18	
2025-01-11 01:06:47.62	182.83	19.01	
2025-01-11 01:06:48.87	182.91	18.84	
2025-01-11 01:06:50.11	182.99	18.67	
2025-01-11 01:06:51.34	183.06	18.50	
2025-01-11 01:06:52.56	183.14	18.34	
2025-01-11 01:06:53.79	183.21	18.18	
2025-01-11 01:06:55.02	183.29	18.02	
2025-01-11 01:06:56.26	183.36	17.85	
2025-01-11 01:06:57.49	183.43	17.69	
2025-01-11 01:06:58.72	183.50	17.53	
2025-01-11 01:06:59.95	183.57	17.38	
2025-01-11 01:07:01.19	183.64	17.22	
2025-01-11 01:07:02.42	183.71	17.06	
2025-01-11 01:07:03.65	183.78	16.91	
2025-01-11 01:07:04.88	183.84	16.76	
2025-01-11 01:07:06.13	183.91	16.60	
2025-01-11 01:07:07.36	183.98	16.45	
2025-01-11 01:07:08.60	184.04	16.30	
2025-01-11 01:07:09.83	184.11	16.15	
2025-01-11 01:07:11.08	184.17	16.00	
2025-01-11 01:07:12.31	184.24	15.85	
2025-01-11 01:07:13.54	184.30	15.70	
2025-01-11 01:07:14.77	184.36	15.56	
2025-01-11 01:07:16.00	184.42	15.41	
2025-01-11 01:07:17.24	184.48	15.27	
2025-01-11 01:07:18.47	184.54	15.12	
2025-01-11 01:07:19.70	184.60	14.98	
2025-01-11 01:07:20.93	184.66	14.84	
2025-01-11 01:07:22.16	184.72	14.70	
2025-01-11 01:07:23.39	184.78	14.56	
2025-01-11 01:07:24.63	184.84	14.42	
2025-01-11 01:07:25.86	184.89	14.28	
2025-01-11 01:07:27.09	184.95	14.15	
2025-01-11 01:07:28.32	185.01	14.01	
2025-01-11 01:07:29.56	185.06	13.88	
2025-01-11 01:07:30.79	185.12	13.74	
2025-01-11 01:07:32.02	185.17	13.61	
2025-01-11 01:07:33.24	185.23	13.48	
2025-01-11 01:07:34.47	185.28	13.34	
2025-01-11 01:07:35.70	185.33	13.21	
2025-01-11 01:07:36.93	185.39	13.08	
2025-01-11 01:07:38.15	185.44	12.95	
2025-01-11 01:07:39.38	185.49	12.82	
2025-01-11 01:07:40.61	185.54	12.70	
2025-01-11 01:07:41.84	185.59	12.57	
2025-01-11 01:07:43.08	185.64	12.44	
2025-01-11 01:07:44.31	185.69	12.31	
2025-01-11 01:07:45.54	185.74	12.19	
2025-01-11 01:07:46.77	185.79	12.06	
2025-01-11 01:07:48.00	185.84	11.94	
2025-01-11 01:07:49.23	185.89	11.82	
2025-01-11 01:07:50.45	185.93	11.70	
2025-01-11 01:07:51.69	185.98	11.57	
2025-01-11 01:07:52.92	186.03	11.45	
2025-01-11 01:07:54.15	186.08	11.33	
2025-01-11 01:07:55.38	186.12	11.21	
2025-01-11 01:07:56.60	186.17	11.09	
2025-01-11 01:07:57.83	186.21	10.97	
2025-01-11 01:07:59.06	186.26	10.86	
2025-01-11 01:08:00.30	186.31	10.74	
2025-01-11 01:08:01.53	186.35	10.62	
2025-01-11 01:08:02.76	186.39	10.50	
2025-01-11 01:08:03.99	186.44	10.39	
2025-01-11 01:08:05.22	186.48	10.27	
2025-01-11 01:08:06.45	186.52	10.16	
2025-01-11 01:08:07.68	186.57	10.04	
2025-01-11 01:08:08.92	186.61	9.93	
2025-01-11 01:08:10.15	186.65	9.82	
2025-01-11 01:08:11.38	186.69	9.70	
2025-01-11 01:08:12.60	186.74	9.59	
2025-01-11 01:08:13.83	186.78	9.48	
2025-01-11 01:08:15.06	186.82	9.37	
2025-01-11 01:08:16.29	186.86	9.26	
2025-01-11 01:08:17.52	186.90	9.15	
2025-01-11 01:08:18.75	186.94	9.04	
2025-01-11 01:08:19.98	186.98	8.93	
2025-01-11 01:08:21.23	187.02	8.82	
2025-01-11 01:08:22.46	187.06	8.72	
2025-01-11 01:08:23.69	187.10	8.61	
2025-01-11 01:08:24.92	187.14	8.50	
2025-01-11 01:08:26.16	187.18	8.40	
2025-01-11 01:08:27.38	187.21	8.29	
2025-01-11 01:08:28.63	187.25	8.19	
2025-01-11 01:08:29.86	187.29	8.08	
2025-01-11 01:08:31.08	187.33	7.98	
2025-01-11 01:08:32.31	187.36	7.87	
2025-01-11 01:08:33.55	187.40	7.77	
2025-01-11 01:08:34.79	187.44	7.67	
2025-01-11 01:08:36.03	187.47	7.56	
2025-01-11 01:08:37.27	187.51	7.46	
2025-01-11 01:08:38.53	187.55	7.36	
2025-01-11 01:08:39.76	187.58	7.26	
2025-01-11 01:08:40.98	187.62	7.16	
2025-01-11 01:08:42.22	187.65	7.06	
2025-01-11 01:08:43.45	187.69	6.96	
2025-01-11 01:08:44.69	187.72	6.86	
2025-01-11 01:08:45.92	187.76	6.76	
2025-01-11 01:08:47.15	187.79	6.66	
2025-01-11 01:08:48.38	187.83	6.56	
2025-01-11 01:08:49.61	187.86	6.46	
2025-01-11 01:08:50.84	187.89	6.37	
2025-01-11 01:08:52.06	187.93	6.27	
2025-01-11 01:08:53.29	187.96	6.17	
2025-01-11 01:08:54.52	187.99	6.08	
2025-01-11 01:08:55.75	188.03	5.98	
2025-01-11 01:08:56.99	188.06	5.89	
2025-01-11 01:08:58.22	188.09	5.79	
2025-01-11 01:08:59.46	188.12	5.70	
2025-01-11 01:09:00.69	188.15	5.60	
2025-01-11 01:09:01.92	188.19	5.51	
2025-01-11 01:09:03.15	188.22	5.42	
2025-01-11 01:09:04.38	188.25	5.32	
2025-01-11 01:09:05.61	188.28	5.23	
2025-01-11 01:09:06.84	188.31	5.14	
2025-01-11 01:09:08.07	188.34	5.05	
2025-01-11 01:09:09.30	188.37	4.95	
2025-01-11 01:09:10.53	188.40	4.86	
2025-01-11 01:09:11.76	188.43	4.77	
2025-01-11 01:09:12.99	188.46	4.68	
2025-01-11 01:09:14.22	188.49	4.59	
2025-01-11 01:09:15.45	188.52	4.50	
2025-01-11 01:09:16.69	188.55	4.41	
2025-01-11 01:09:17.92	188.58	4.32	
2025-01-11 01:09:19.14	188.61	4.23	
2025-01-11 01:09:20.37	188.64	4.15	
2025-01-11 01:09:21.60	188.67	4.06	

#Closed at: 2025-01-11 01:09:22