passes_logs/2025/01/11/SPB_Silybum_02/SPB_Silybum_02__20250111_012813_SUOMI_NPP_rec.log

#Pass ID: 20250111_012813_SUOMI NPP
#Satellite: SUOMI NPP
#Configuration: NPP
#Start time: 2025-01-11 01:28:12

#Version: 2.0.20230423
#Station: SPB_Silybum_02
#Location: 30.233357 lon 59.946436 lat
#TLE: 1 37849U 11061A   25009.91542277  .00000197  00000+0  11407-3 0  9995
#TLE: 2 37849  98.7440 310.9686 0001842  48.7836 311.3498 14.19535939684207

#Time	Az	El	Level	Level2	SNR	BER	Gain	Gain2
2025-01-11 01:28:14.09	15.16	4.01	
2025-01-11 01:28:15.52	15.10	4.11	
2025-01-11 01:28:16.95	15.03	4.20	
2025-01-11 01:28:18.41	14.97	4.30	
2025-01-11 01:28:19.83	14.90	4.39	
2025-01-11 01:28:21.27	14.84	4.49	
2025-01-11 01:28:22.71	14.77	4.58	
2025-01-11 01:28:24.15	14.70	4.68	
2025-01-11 01:28:25.58	14.63	4.77	
2025-01-11 01:28:27.02	14.57	4.87	
2025-01-11 01:28:28.45	14.50	4.97	
2025-01-11 01:28:29.89	14.43	5.06	
2025-01-11 01:28:31.33	14.36	5.16	
2025-01-11 01:28:32.76	14.29	5.26	
2025-01-11 01:28:34.20	14.22	5.36	
2025-01-11 01:28:35.64	14.15	5.45	
2025-01-11 01:28:37.08	14.07	5.55	
2025-01-11 01:28:38.52	14.00	5.65	
2025-01-11 01:28:39.95	13.93	5.75	
2025-01-11 01:28:41.39	13.86	5.85	
2025-01-11 01:28:42.83	13.78	5.95	
2025-01-11 01:28:44.27	13.71	6.05	
2025-01-11 01:28:45.70	13.63	6.15	
2025-01-11 01:28:47.13	13.56	6.25	
2025-01-11 01:28:48.57	13.48	6.35	
2025-01-11 01:28:50.01	13.41	6.45	
2025-01-11 01:28:51.46	13.33	6.56	
2025-01-11 01:28:52.89	13.25	6.66	
2025-01-11 01:28:54.32	13.17	6.76	
2025-01-11 01:28:55.76	13.09	6.86	
2025-01-11 01:28:57.20	13.01	6.97	
2025-01-11 01:28:58.64	12.93	7.07	
2025-01-11 01:29:00.07	12.85	7.18	
2025-01-11 01:29:01.51	12.77	7.28	
2025-01-11 01:29:02.95	12.69	7.38	
2025-01-11 01:29:04.39	12.61	7.49	
2025-01-11 01:29:05.82	12.52	7.60	
2025-01-11 01:29:07.26	12.44	7.70	
2025-01-11 01:29:08.71	12.35	7.81	
2025-01-11 01:29:10.14	12.27	7.91	
2025-01-11 01:29:11.57	12.18	8.02	
2025-01-11 01:29:13.02	12.10	8.13	
2025-01-11 01:29:14.45	12.01	8.24	
2025-01-11 01:29:15.88	11.92	8.34	
2025-01-11 01:29:17.32	11.83	8.45	
2025-01-11 01:29:18.76	11.74	8.56	
2025-01-11 01:29:20.19	11.65	8.67	
2025-01-11 01:29:21.64	11.56	8.78	
2025-01-11 01:29:23.07	11.47	8.89	
2025-01-11 01:29:24.52	11.38	9.00	
2025-01-11 01:29:25.95	11.28	9.11	
2025-01-11 01:29:27.39	11.19	9.23	
2025-01-11 01:29:28.83	11.10	9.34	
2025-01-11 01:29:30.26	11.00	9.45	
2025-01-11 01:29:31.70	10.90	9.56	
2025-01-11 01:29:33.13	10.81	9.67	
2025-01-11 01:29:34.58	10.71	9.79	
2025-01-11 01:29:36.01	10.61	9.90	
2025-01-11 01:29:37.45	10.51	10.02	
2025-01-11 01:29:38.89	10.41	10.13	
2025-01-11 01:29:40.34	10.31	10.25	
2025-01-11 01:29:41.77	10.21	10.36	
2025-01-11 01:29:43.21	10.10	10.48	
2025-01-11 01:29:44.64	10.00	10.60	
2025-01-11 01:29:46.08	9.90	10.71	
2025-01-11 01:29:47.52	9.79	10.83	
2025-01-11 01:29:48.95	9.69	10.95	
2025-01-11 01:29:50.38	9.58	11.07	
2025-01-11 01:29:51.81	9.47	11.19	
2025-01-11 01:29:53.24	9.36	11.30	
2025-01-11 01:29:54.68	9.25	11.43	
2025-01-11 01:29:56.12	9.14	11.55	
2025-01-11 01:29:57.57	9.03	11.67	
2025-01-11 01:29:59.00	8.92	11.79	
2025-01-11 01:30:00.43	8.80	11.91	
2025-01-11 01:30:01.87	8.69	12.03	
2025-01-11 01:30:03.30	8.57	12.16	
2025-01-11 01:30:04.74	8.46	12.28	
2025-01-11 01:30:06.18	8.34	12.40	
2025-01-11 01:30:07.61	8.22	12.53	
2025-01-11 01:30:09.05	8.10	12.65	
2025-01-11 01:30:10.48	7.98	12.78	
2025-01-11 01:30:11.91	7.86	12.90	
2025-01-11 01:30:13.34	7.73	13.03	
2025-01-11 01:30:14.78	7.61	13.16	
2025-01-11 01:30:16.22	7.48	13.28	
2025-01-11 01:30:17.65	7.36	13.41	
2025-01-11 01:30:19.09	7.23	13.54	
2025-01-11 01:30:20.53	7.10	13.67	
2025-01-11 01:30:21.97	6.97	13.80	
2025-01-11 01:30:23.40	6.84	13.93	
2025-01-11 01:30:24.84	6.71	14.06	
2025-01-11 01:30:26.27	6.58	14.19	
2025-01-11 01:30:27.71	6.44	14.32	
2025-01-11 01:30:29.15	6.30	14.45	
2025-01-11 01:30:30.60	6.16	14.59	
2025-01-11 01:30:32.03	6.03	14.72	
2025-01-11 01:30:33.46	5.89	14.86	
2025-01-11 01:30:34.90	5.75	14.99	
2025-01-11 01:30:36.34	5.60	15.13	
2025-01-11 01:30:37.77	5.46	15.26	
2025-01-11 01:30:39.21	5.31	15.40	
2025-01-11 01:30:40.65	5.17	15.53	
2025-01-11 01:30:42.08	5.02	15.67	
2025-01-11 01:30:43.53	4.87	15.81	
2025-01-11 01:30:44.97	4.72	15.95	
2025-01-11 01:30:46.41	4.56	16.09	
2025-01-11 01:30:47.85	4.41	16.23	
2025-01-11 01:30:49.28	4.26	16.37	
2025-01-11 01:30:50.72	4.10	16.51	
2025-01-11 01:30:52.15	3.94	16.65	
2025-01-11 01:30:53.58	3.78	16.79	
2025-01-11 01:30:55.02	3.62	16.94	
2025-01-11 01:30:56.45	3.46	17.08	
2025-01-11 01:30:57.88	3.29	17.22	
2025-01-11 01:30:59.31	3.13	17.37	
2025-01-11 01:31:00.76	2.96	17.51	
2025-01-11 01:31:02.20	2.79	17.66	
2025-01-11 01:31:03.63	2.62	17.80	
2025-01-11 01:31:05.06	2.45	17.95	
2025-01-11 01:31:06.51	2.27	18.10	
2025-01-11 01:31:07.95	2.09	18.25	
2025-01-11 01:31:09.38	1.91	18.39	
2025-01-11 01:31:10.82	1.73	18.54	
2025-01-11 01:31:12.25	1.55	18.69	
2025-01-11 01:31:13.68	1.37	18.84	
2025-01-11 01:31:15.12	1.18	19.00	
2025-01-11 01:31:16.56	1.00	19.15	
2025-01-11 01:31:17.99	0.81	19.30	
2025-01-11 01:31:19.42	0.62	19.45	
2025-01-11 01:31:20.86	0.42	19.61	
2025-01-11 01:31:22.31	0.23	19.76	
2025-01-11 01:31:23.74	0.03	19.91	
2025-01-11 01:31:25.19	359.83	20.07	
2025-01-11 01:31:26.63	359.63	20.23	
2025-01-11 01:31:28.06	359.42	20.38	
2025-01-11 01:31:29.51	359.21	20.54	
2025-01-11 01:31:30.95	359.01	20.70	
2025-01-11 01:31:32.39	358.80	20.86	
2025-01-11 01:31:33.82	358.58	21.02	
2025-01-11 01:31:35.25	358.37	21.18	
2025-01-11 01:31:36.69	358.15	21.34	
2025-01-11 01:31:38.12	357.93	21.50	
2025-01-11 01:31:39.56	357.71	21.66	
2025-01-11 01:31:41.00	357.49	21.82	
2025-01-11 01:31:42.43	357.26	21.98	
2025-01-11 01:31:43.87	357.03	22.14	
2025-01-11 01:31:45.32	356.80	22.31	
2025-01-11 01:31:46.77	356.56	22.47	
2025-01-11 01:31:48.20	356.33	22.64	
2025-01-11 01:31:49.64	356.09	22.80	
2025-01-11 01:31:51.09	355.84	22.97	
2025-01-11 01:31:52.52	355.60	23.14	
2025-01-11 01:31:53.96	355.35	23.30	
2025-01-11 01:31:55.40	355.10	23.47	
2025-01-11 01:31:56.84	354.85	23.64	
2025-01-11 01:31:58.29	354.59	23.81	
2025-01-11 01:31:59.72	354.34	23.98	
2025-01-11 01:32:01.15	354.08	24.14	
2025-01-11 01:32:02.60	353.81	24.31	
2025-01-11 01:32:04.03	353.54	24.48	
2025-01-11 01:32:05.47	353.27	24.65	
2025-01-11 01:32:06.94	352.99	24.83	
2025-01-11 01:32:08.37	352.72	25.00	
2025-01-11 01:32:09.81	352.44	25.17	
2025-01-11 01:32:11.24	352.16	25.34	
2025-01-11 01:32:12.67	351.88	25.51	
2025-01-11 01:32:14.11	351.59	25.69	
2025-01-11 01:32:15.55	351.30	25.86	
2025-01-11 01:32:16.98	351.00	26.03	
2025-01-11 01:32:18.41	350.71	26.20	
2025-01-11 01:32:19.84	350.41	26.38	
2025-01-11 01:32:21.28	350.10	26.55	
2025-01-11 01:32:22.72	349.79	26.72	
2025-01-11 01:32:24.17	349.48	26.90	
2025-01-11 01:32:25.60	349.17	27.07	
2025-01-11 01:32:27.04	348.85	27.25	
2025-01-11 01:32:28.48	348.52	27.42	
2025-01-11 01:32:29.92	348.20	27.60	
2025-01-11 01:32:31.36	347.87	27.77	
2025-01-11 01:32:32.79	347.54	27.95	
2025-01-11 01:32:34.22	347.20	28.12	
2025-01-11 01:32:35.67	346.86	28.30	
2025-01-11 01:32:37.10	346.52	28.47	
2025-01-11 01:32:38.54	346.17	28.65	
2025-01-11 01:32:39.97	345.82	28.82	
2025-01-11 01:32:41.42	345.46	29.00	
2025-01-11 01:32:42.85	345.10	29.17	
2025-01-11 01:32:44.29	344.74	29.34	
2025-01-11 01:32:45.72	344.37	29.52	
2025-01-11 01:32:47.17	344.00	29.69	
2025-01-11 01:32:48.62	343.62	29.87	
2025-01-11 01:32:50.05	343.24	30.04	
2025-01-11 01:32:51.49	342.85	30.21	
2025-01-11 01:32:52.93	342.47	30.38	
2025-01-11 01:32:54.37	342.07	30.56	
2025-01-11 01:32:55.81	341.68	30.73	
2025-01-11 01:32:57.24	341.28	30.90	
2025-01-11 01:32:58.68	340.87	31.07	
2025-01-11 01:33:00.11	340.46	31.23	
2025-01-11 01:33:01.55	340.05	31.40	
2025-01-11 01:33:02.99	339.63	31.57	
2025-01-11 01:33:04.42	339.21	31.74	
2025-01-11 01:33:05.86	338.78	31.90	
2025-01-11 01:33:07.29	338.35	32.07	
2025-01-11 01:33:08.74	337.91	32.23	
2025-01-11 01:33:10.17	337.48	32.40	
2025-01-11 01:33:11.61	337.03	32.56	
2025-01-11 01:33:13.04	336.58	32.72	
2025-01-11 01:33:14.48	336.13	32.88	
2025-01-11 01:33:15.91	335.67	33.04	
2025-01-11 01:33:17.35	335.21	33.20	
2025-01-11 01:33:18.79	334.74	33.35	
2025-01-11 01:33:20.22	334.27	33.51	
2025-01-11 01:33:21.66	333.79	33.66	
2025-01-11 01:33:23.09	333.32	33.81	
2025-01-11 01:33:24.53	332.83	33.96	
2025-01-11 01:33:25.98	332.33	34.11	
2025-01-11 01:33:27.42	331.84	34.26	
2025-01-11 01:33:28.85	331.34	34.40	
2025-01-11 01:33:30.30	330.83	34.55	
2025-01-11 01:33:31.74	330.33	34.69	
2025-01-11 01:33:33.17	329.82	34.83	
2025-01-11 01:33:34.60	329.30	34.96	
2025-01-11 01:33:36.03	328.78	35.10	
2025-01-11 01:33:37.46	328.26	35.23	
2025-01-11 01:33:38.89	327.73	35.36	
2025-01-11 01:33:40.33	327.20	35.49	
2025-01-11 01:33:41.76	326.66	35.62	
2025-01-11 01:33:43.20	326.12	35.74	
2025-01-11 01:33:44.63	325.58	35.86	
2025-01-11 01:33:46.07	325.02	35.98	
2025-01-11 01:33:47.51	324.47	36.10	
2025-01-11 01:33:48.94	323.91	36.21	
2025-01-11 01:33:50.38	323.35	36.32	
2025-01-11 01:33:51.81	322.79	36.43	
2025-01-11 01:33:53.25	322.21	36.53	
2025-01-11 01:33:54.68	321.64	36.64	
2025-01-11 01:33:56.11	321.07	36.74	
2025-01-11 01:33:57.55	320.49	36.83	
2025-01-11 01:33:59.00	319.90	36.93	
2025-01-11 01:34:00.44	319.31	37.02	
2025-01-11 01:34:01.87	318.72	37.10	
2025-01-11 01:34:03.32	318.12	37.19	
2025-01-11 01:34:04.75	317.53	37.27	
2025-01-11 01:34:06.18	316.93	37.34	
2025-01-11 01:34:07.63	316.32	37.42	
2025-01-11 01:34:09.06	315.72	37.49	
2025-01-11 01:34:10.50	315.11	37.55	
2025-01-11 01:34:11.94	314.50	37.62	
2025-01-11 01:34:13.38	313.89	37.68	
2025-01-11 01:34:14.83	313.26	37.73	
2025-01-11 01:34:16.26	312.65	37.78	
2025-01-11 01:34:17.70	312.03	37.83	
2025-01-11 01:34:19.14	311.41	37.88	
2025-01-11 01:34:20.59	310.78	37.92	
2025-01-11 01:34:22.02	310.16	37.95	
2025-01-11 01:34:23.46	309.53	37.99	
2025-01-11 01:34:24.90	308.91	38.02	
2025-01-11 01:34:26.33	308.28	38.04	
2025-01-11 01:34:27.76	307.66	38.06	
2025-01-11 01:34:29.21	307.02	38.08	
2025-01-11 01:34:30.65	306.39	38.09	
2025-01-11 01:34:32.08	305.76	38.10	
2025-01-11 01:34:33.51	305.14	38.11	
2025-01-11 01:34:34.95	304.50	38.11	
2025-01-11 01:34:36.38	303.88	38.11	
2025-01-11 01:34:37.82	303.24	38.10	
2025-01-11 01:34:39.26	302.61	38.09	
2025-01-11 01:34:40.72	301.97	38.07	
2025-01-11 01:34:42.15	301.35	38.06	
2025-01-11 01:34:43.59	300.72	38.03	
2025-01-11 01:34:45.02	300.09	38.01	
2025-01-11 01:34:46.46	299.47	37.98	
2025-01-11 01:34:47.89	298.84	37.94	
2025-01-11 01:34:49.33	298.22	37.91	
2025-01-11 01:34:50.77	297.59	37.87	
2025-01-11 01:34:52.21	296.97	37.82	
2025-01-11 01:34:53.65	296.35	37.77	
2025-01-11 01:34:55.08	295.74	37.72	
2025-01-11 01:34:56.53	295.12	37.66	
2025-01-11 01:34:57.97	294.50	37.60	
2025-01-11 01:34:59.41	293.89	37.54	
2025-01-11 01:35:00.84	293.29	37.47	
2025-01-11 01:35:02.29	292.68	37.40	
2025-01-11 01:35:03.73	292.07	37.33	
2025-01-11 01:35:05.16	291.48	37.25	
2025-01-11 01:35:06.60	290.88	37.17	
2025-01-11 01:35:08.03	290.29	37.08	
2025-01-11 01:35:09.47	289.69	36.99	
2025-01-11 01:35:10.91	289.11	36.90	
2025-01-11 01:35:12.36	288.52	36.81	
2025-01-11 01:35:13.80	287.93	36.71	
2025-01-11 01:35:15.24	287.36	36.61	
2025-01-11 01:35:16.67	286.78	36.51	
2025-01-11 01:35:18.12	286.21	36.40	
2025-01-11 01:35:19.55	285.65	36.29	
2025-01-11 01:35:20.99	285.08	36.18	
2025-01-11 01:35:22.42	284.53	36.07	
2025-01-11 01:35:23.86	283.97	35.95	
2025-01-11 01:35:25.29	283.42	35.83	
2025-01-11 01:35:26.72	282.88	35.71	
2025-01-11 01:35:28.16	282.33	35.58	
2025-01-11 01:35:29.59	281.80	35.46	
2025-01-11 01:35:31.03	281.26	35.33	
2025-01-11 01:35:32.47	280.73	35.19	
2025-01-11 01:35:33.91	280.21	35.06	
2025-01-11 01:35:35.34	279.69	34.92	
2025-01-11 01:35:36.77	279.17	34.79	
2025-01-11 01:35:38.21	278.66	34.65	
2025-01-11 01:35:39.65	278.15	34.50	
2025-01-11 01:35:41.08	277.65	34.36	
2025-01-11 01:35:42.52	277.15	34.21	
2025-01-11 01:35:43.96	276.65	34.07	
2025-01-11 01:35:45.40	276.16	33.92	
2025-01-11 01:35:46.83	275.68	33.77	
2025-01-11 01:35:48.27	275.20	33.61	
2025-01-11 01:35:49.71	274.72	33.46	
2025-01-11 01:35:51.16	274.25	33.30	
2025-01-11 01:35:52.59	273.78	33.15	
2025-01-11 01:35:54.03	273.32	32.99	
2025-01-11 01:35:55.46	272.86	32.83	
2025-01-11 01:35:56.90	272.41	32.67	
2025-01-11 01:35:58.33	271.96	32.51	
2025-01-11 01:35:59.76	271.52	32.34	
2025-01-11 01:36:01.20	271.07	32.18	
2025-01-11 01:36:02.64	270.64	32.01	
2025-01-11 01:36:04.09	270.20	31.85	
2025-01-11 01:36:05.53	269.77	31.68	
2025-01-11 01:36:06.98	269.35	31.51	
2025-01-11 01:36:08.41	268.93	31.34	
2025-01-11 01:36:09.85	268.52	31.17	
2025-01-11 01:36:11.29	268.11	31.00	
2025-01-11 01:36:12.72	267.70	30.83	
2025-01-11 01:36:14.16	267.30	30.66	
2025-01-11 01:36:15.60	266.90	30.49	
2025-01-11 01:36:17.03	266.51	30.32	
2025-01-11 01:36:18.48	266.12	30.14	
2025-01-11 01:36:19.93	265.73	29.97	
2025-01-11 01:36:21.36	265.36	29.80	
2025-01-11 01:36:22.80	264.98	29.62	
2025-01-11 01:36:24.23	264.61	29.45	
2025-01-11 01:36:25.67	264.24	29.27	
2025-01-11 01:36:27.10	263.88	29.10	
2025-01-11 01:36:28.54	263.52	28.92	
2025-01-11 01:36:29.99	263.16	28.75	
2025-01-11 01:36:31.44	262.81	28.57	
2025-01-11 01:36:32.87	262.46	28.40	
2025-01-11 01:36:34.32	262.11	28.22	
2025-01-11 01:36:35.76	261.77	28.04	
2025-01-11 01:36:37.19	261.44	27.87	
2025-01-11 01:36:38.63	261.10	27.69	
2025-01-11 01:36:40.06	260.77	27.52	
2025-01-11 01:36:41.49	260.45	27.34	
2025-01-11 01:36:42.93	260.13	27.17	
2025-01-11 01:36:44.36	259.81	27.00	
2025-01-11 01:36:45.81	259.49	26.82	
2025-01-11 01:36:47.26	259.18	26.64	
2025-01-11 01:36:48.70	258.87	26.47	
2025-01-11 01:36:50.14	258.56	26.29	
2025-01-11 01:36:51.57	258.26	26.12	
2025-01-11 01:36:53.02	257.96	25.94	
2025-01-11 01:36:54.45	257.67	25.77	
2025-01-11 01:36:55.89	257.38	25.60	
2025-01-11 01:36:57.32	257.09	25.43	
2025-01-11 01:36:58.76	256.80	25.25	
2025-01-11 01:37:00.19	256.52	25.08	
2025-01-11 01:37:01.62	256.25	24.91	
2025-01-11 01:37:03.05	255.97	24.74	
2025-01-11 01:37:04.49	255.70	24.57	
2025-01-11 01:37:05.92	255.43	24.40	
2025-01-11 01:37:07.36	255.16	24.23	
2025-01-11 01:37:08.79	254.90	24.06	
2025-01-11 01:37:10.23	254.64	23.89	
2025-01-11 01:37:11.66	254.38	23.72	
2025-01-11 01:37:13.09	254.12	23.55	
2025-01-11 01:37:14.53	253.87	23.38	
2025-01-11 01:37:15.96	253.62	23.22	
2025-01-11 01:37:17.40	253.37	23.05	
2025-01-11 01:37:18.83	253.13	22.88	
2025-01-11 01:37:20.27	252.89	22.72	
2025-01-11 01:37:21.72	252.65	22.55	
2025-01-11 01:37:23.16	252.41	22.39	
2025-01-11 01:37:24.60	252.17	22.22	
2025-01-11 01:37:26.04	251.94	22.06	
2025-01-11 01:37:27.49	251.71	21.89	
2025-01-11 01:37:28.92	251.48	21.73	
2025-01-11 01:37:30.36	251.26	21.57	
2025-01-11 01:37:31.79	251.04	21.41	
2025-01-11 01:37:33.23	250.82	21.25	
2025-01-11 01:37:34.66	250.60	21.09	
2025-01-11 01:37:36.10	250.38	20.93	
2025-01-11 01:37:37.54	250.17	20.77	
2025-01-11 01:37:38.99	249.96	20.61	
2025-01-11 01:37:40.44	249.75	20.45	
2025-01-11 01:37:41.87	249.54	20.29	
2025-01-11 01:37:43.30	249.34	20.13	
2025-01-11 01:37:44.75	249.13	19.97	
2025-01-11 01:37:46.19	248.93	19.82	
2025-01-11 01:37:47.62	248.74	19.66	
2025-01-11 01:37:49.06	248.54	19.51	
2025-01-11 01:37:50.51	248.34	19.35	
2025-01-11 01:37:51.95	248.15	19.20	
2025-01-11 01:37:53.38	247.96	19.05	
2025-01-11 01:37:54.82	247.77	18.90	
2025-01-11 01:37:56.25	247.59	18.74	
2025-01-11 01:37:57.68	247.40	18.59	
2025-01-11 01:37:59.12	247.22	18.44	
2025-01-11 01:38:00.56	247.04	18.29	
2025-01-11 01:38:02.02	246.86	18.14	
2025-01-11 01:38:03.45	246.68	17.99	
2025-01-11 01:38:04.88	246.51	17.85	
2025-01-11 01:38:06.32	246.33	17.70	
2025-01-11 01:38:07.76	246.16	17.55	
2025-01-11 01:38:09.20	245.99	17.41	
2025-01-11 01:38:10.63	245.82	17.26	
2025-01-11 01:38:12.07	245.65	17.12	
2025-01-11 01:38:13.50	245.49	16.97	
2025-01-11 01:38:14.94	245.32	16.83	
2025-01-11 01:38:16.39	245.16	16.68	
2025-01-11 01:38:17.82	245.00	16.54	
2025-01-11 01:38:19.26	244.84	16.40	
2025-01-11 01:38:20.69	244.69	16.26	
2025-01-11 01:38:22.14	244.53	16.12	
2025-01-11 01:38:23.58	244.37	15.98	
2025-01-11 01:38:25.02	244.22	15.84	
2025-01-11 01:38:26.45	244.07	15.70	
2025-01-11 01:38:27.88	243.92	15.56	
2025-01-11 01:38:29.32	243.77	15.42	
2025-01-11 01:38:30.76	243.62	15.29	
2025-01-11 01:38:32.19	243.48	15.15	
2025-01-11 01:38:33.62	243.33	15.02	
2025-01-11 01:38:35.06	243.19	14.88	
2025-01-11 01:38:36.50	243.05	14.74	
2025-01-11 01:38:37.94	242.91	14.61	
2025-01-11 01:38:39.37	242.77	14.48	
2025-01-11 01:38:40.81	242.63	14.34	
2025-01-11 01:38:42.24	242.49	14.21	
2025-01-11 01:38:43.67	242.36	14.08	
2025-01-11 01:38:45.13	242.22	13.95	
2025-01-11 01:38:46.57	242.09	13.82	
2025-01-11 01:38:48.00	241.96	13.69	
2025-01-11 01:38:49.43	241.83	13.56	
2025-01-11 01:38:50.88	241.69	13.43	
2025-01-11 01:38:52.32	241.57	13.30	
2025-01-11 01:38:53.77	241.44	13.17	
2025-01-11 01:38:55.21	241.31	13.04	
2025-01-11 01:38:56.64	241.19	12.91	
2025-01-11 01:38:58.08	241.06	12.79	
2025-01-11 01:38:59.51	240.94	12.66	
2025-01-11 01:39:00.96	240.82	12.53	
2025-01-11 01:39:02.40	240.70	12.41	
2025-01-11 01:39:03.83	240.58	12.28	
2025-01-11 01:39:05.27	240.46	12.16	
2025-01-11 01:39:06.72	240.34	12.03	
2025-01-11 01:39:08.15	240.22	11.91	
2025-01-11 01:39:09.60	240.11	11.79	
2025-01-11 01:39:11.05	239.99	11.67	
2025-01-11 01:39:12.49	239.88	11.54	
2025-01-11 01:39:13.92	239.76	11.42	
2025-01-11 01:39:15.36	239.65	11.30	
2025-01-11 01:39:16.81	239.54	11.18	
2025-01-11 01:39:18.24	239.43	11.06	
2025-01-11 01:39:19.68	239.32	10.94	
2025-01-11 01:39:21.12	239.21	10.82	
2025-01-11 01:39:22.55	239.11	10.71	
2025-01-11 01:39:23.98	239.00	10.59	
2025-01-11 01:39:25.42	238.90	10.47	
2025-01-11 01:39:26.85	238.79	10.35	
2025-01-11 01:39:28.29	238.69	10.24	
2025-01-11 01:39:29.72	238.59	10.12	
2025-01-11 01:39:31.16	238.48	10.01	
2025-01-11 01:39:32.60	238.38	9.89	
2025-01-11 01:39:34.03	238.28	9.78	
2025-01-11 01:39:35.47	238.18	9.66	
2025-01-11 01:39:36.90	238.08	9.55	
2025-01-11 01:39:38.35	237.99	9.44	
2025-01-11 01:39:39.79	237.89	9.32	
2025-01-11 01:39:41.22	237.79	9.21	
2025-01-11 01:39:42.65	237.70	9.10	
2025-01-11 01:39:44.09	237.60	8.99	
2025-01-11 01:39:45.53	237.51	8.88	
2025-01-11 01:39:46.96	237.42	8.77	
2025-01-11 01:39:48.39	237.32	8.66	
2025-01-11 01:39:49.83	237.23	8.55	
2025-01-11 01:39:51.26	237.14	8.44	
2025-01-11 01:39:52.69	237.05	8.33	
2025-01-11 01:39:54.13	236.96	8.22	
2025-01-11 01:39:55.58	236.87	8.11	
2025-01-11 01:39:57.01	236.78	8.00	
2025-01-11 01:39:58.44	236.70	7.90	
2025-01-11 01:39:59.89	236.61	7.79	
2025-01-11 01:40:01.33	236.52	7.68	
2025-01-11 01:40:02.77	236.43	7.57	
2025-01-11 01:40:04.20	236.35	7.47	
2025-01-11 01:40:05.64	236.27	7.36	
2025-01-11 01:40:07.07	236.18	7.26	
2025-01-11 01:40:08.52	236.10	7.15	
2025-01-11 01:40:09.95	236.02	7.05	
2025-01-11 01:40:11.42	235.93	6.94	
2025-01-11 01:40:12.85	235.85	6.84	
2025-01-11 01:40:14.29	235.77	6.74	
2025-01-11 01:40:15.72	235.69	6.63	
2025-01-11 01:40:17.16	235.61	6.53	
2025-01-11 01:40:18.59	235.53	6.43	
2025-01-11 01:40:20.02	235.45	6.33	
2025-01-11 01:40:21.47	235.38	6.22	
2025-01-11 01:40:22.91	235.30	6.12	
2025-01-11 01:40:24.34	235.22	6.02	
2025-01-11 01:40:25.78	235.15	5.92	
2025-01-11 01:40:27.22	235.07	5.82	
2025-01-11 01:40:28.65	235.00	5.72	
2025-01-11 01:40:30.08	234.92	5.62	
2025-01-11 01:40:31.52	234.85	5.52	
2025-01-11 01:40:32.97	234.77	5.42	
2025-01-11 01:40:34.41	234.70	5.32	
2025-01-11 01:40:35.85	234.63	5.23	
2025-01-11 01:40:37.28	234.56	5.13	
2025-01-11 01:40:38.72	234.49	5.03	
2025-01-11 01:40:40.15	234.41	4.93	
2025-01-11 01:40:41.58	234.34	4.84	
2025-01-11 01:40:43.02	234.27	4.74	
2025-01-11 01:40:44.45	234.21	4.64	
2025-01-11 01:40:45.89	234.14	4.55	
2025-01-11 01:40:47.32	234.07	4.45	
2025-01-11 01:40:48.77	234.00	4.36	
2025-01-11 01:40:50.21	233.93	4.26	
2025-01-11 01:40:51.64	233.87	4.17	
2025-01-11 01:40:53.08	233.80	4.07	

#Closed at: 2025-01-11 01:40:54