passes_logs/2025/01/11/SPB_Silybum_02/SPB_Silybum_02__20250111_195138_TERRA_rec.log

#Pass ID: 20250111_195138_TERRA
#Satellite: TERRA
#Configuration: TERRA
#Start time: 2025-01-11 19:51:36

#Version: 2.0.20230423
#Station: SPB_Silybum_02
#Location: 30.233357 lon 59.946436 lat
#TLE: 1 25994U 99068A   25010.80464720  .00000833  00000+0  18136-3 0  9995
#TLE: 2 25994  98.0224  73.9683 0003536  80.9361 344.1935 14.60387279333461

#Time	Az	El	Level	Level2	SNR	BER	Gain	Gain2
2025-01-11 19:51:38.82	204.12	4.02	
2025-01-11 19:51:40.06	204.22	4.10	
2025-01-11 19:51:41.29	204.32	4.18	
2025-01-11 19:51:42.52	204.42	4.26	
2025-01-11 19:51:43.76	204.52	4.34	
2025-01-11 19:51:44.99	204.62	4.41	
2025-01-11 19:51:46.23	204.72	4.49	
2025-01-11 19:51:47.45	204.82	4.57	
2025-01-11 19:51:48.68	204.92	4.65	
2025-01-11 19:51:49.91	205.02	4.73	
2025-01-11 19:51:51.14	205.12	4.81	
2025-01-11 19:51:52.39	205.23	4.89	
2025-01-11 19:51:53.62	205.33	4.97	
2025-01-11 19:51:54.85	205.44	5.05	
2025-01-11 19:51:56.08	205.54	5.13	
2025-01-11 19:51:57.31	205.65	5.21	
2025-01-11 19:51:58.54	205.75	5.30	
2025-01-11 19:51:59.77	205.86	5.38	
2025-01-11 19:52:01.00	205.97	5.46	
2025-01-11 19:52:02.23	206.08	5.54	
2025-01-11 19:52:03.47	206.19	5.62	
2025-01-11 19:52:04.72	206.30	5.71	
2025-01-11 19:52:05.95	206.41	5.79	
2025-01-11 19:52:07.18	206.52	5.87	
2025-01-11 19:52:08.41	206.63	5.95	
2025-01-11 19:52:09.64	206.74	6.04	
2025-01-11 19:52:10.87	206.85	6.12	
2025-01-11 19:52:12.11	206.97	6.20	
2025-01-11 19:52:13.35	207.08	6.29	
2025-01-11 19:52:14.58	207.20	6.37	
2025-01-11 19:52:15.80	207.31	6.45	
2025-01-11 19:52:17.04	207.43	6.54	
2025-01-11 19:52:18.27	207.55	6.62	
2025-01-11 19:52:19.50	207.66	6.71	
2025-01-11 19:52:20.74	207.78	6.79	
2025-01-11 19:52:21.97	207.90	6.88	
2025-01-11 19:52:23.20	208.02	6.96	
2025-01-11 19:52:24.43	208.14	7.05	
2025-01-11 19:52:25.67	208.27	7.13	
2025-01-11 19:52:26.91	208.39	7.22	
2025-01-11 19:52:28.15	208.51	7.31	
2025-01-11 19:52:29.39	208.64	7.39	
2025-01-11 19:52:30.62	208.76	7.48	
2025-01-11 19:52:31.84	208.89	7.57	
2025-01-11 19:52:33.08	209.01	7.65	
2025-01-11 19:52:34.31	209.14	7.74	
2025-01-11 19:52:35.55	209.27	7.83	
2025-01-11 19:52:36.78	209.40	7.92	
2025-01-11 19:52:38.01	209.52	8.01	
2025-01-11 19:52:39.25	209.66	8.09	
2025-01-11 19:52:40.48	209.79	8.18	
2025-01-11 19:52:41.72	209.92	8.27	
2025-01-11 19:52:42.95	210.05	8.36	
2025-01-11 19:52:44.18	210.18	8.45	
2025-01-11 19:52:45.41	210.32	8.54	
2025-01-11 19:52:46.65	210.45	8.63	
2025-01-11 19:52:47.88	210.59	8.72	
2025-01-11 19:52:49.12	210.73	8.81	
2025-01-11 19:52:50.35	210.87	8.90	
2025-01-11 19:52:51.58	211.00	8.99	
2025-01-11 19:52:52.80	211.14	9.08	
2025-01-11 19:52:54.04	211.28	9.17	
2025-01-11 19:52:55.27	211.42	9.26	
2025-01-11 19:52:56.50	211.57	9.35	
2025-01-11 19:52:57.73	211.71	9.44	
2025-01-11 19:52:58.96	211.85	9.54	
2025-01-11 19:53:00.19	212.00	9.63	
2025-01-11 19:53:01.42	212.14	9.72	
2025-01-11 19:53:02.65	212.29	9.81	
2025-01-11 19:53:03.90	212.44	9.91	
2025-01-11 19:53:05.13	212.59	10.00	
2025-01-11 19:53:06.36	212.74	10.09	
2025-01-11 19:53:07.59	212.89	10.19	
2025-01-11 19:53:08.83	213.04	10.28	
2025-01-11 19:53:10.06	213.20	10.37	
2025-01-11 19:53:11.30	213.35	10.47	
2025-01-11 19:53:12.53	213.51	10.56	
2025-01-11 19:53:13.76	213.66	10.66	
2025-01-11 19:53:14.99	213.82	10.75	
2025-01-11 19:53:16.23	213.98	10.85	
2025-01-11 19:53:17.45	214.14	10.94	
2025-01-11 19:53:18.69	214.30	11.04	
2025-01-11 19:53:19.91	214.46	11.13	
2025-01-11 19:53:21.15	214.62	11.23	
2025-01-11 19:53:22.38	214.79	11.32	
2025-01-11 19:53:23.61	214.95	11.42	
2025-01-11 19:53:24.85	215.12	11.52	
2025-01-11 19:53:26.08	215.28	11.61	
2025-01-11 19:53:27.31	215.45	11.71	
2025-01-11 19:53:28.54	215.62	11.81	
2025-01-11 19:53:29.79	215.79	11.91	
2025-01-11 19:53:31.02	215.97	12.01	
2025-01-11 19:53:32.25	216.14	12.10	
2025-01-11 19:53:33.48	216.31	12.20	
2025-01-11 19:53:34.73	216.49	12.30	
2025-01-11 19:53:35.96	216.67	12.40	
2025-01-11 19:53:37.19	216.84	12.50	
2025-01-11 19:53:38.41	217.02	12.60	
2025-01-11 19:53:39.65	217.20	12.70	
2025-01-11 19:53:40.87	217.38	12.79	
2025-01-11 19:53:42.10	217.57	12.89	
2025-01-11 19:53:43.33	217.75	12.99	
2025-01-11 19:53:44.56	217.94	13.09	
2025-01-11 19:53:45.80	218.12	13.19	
2025-01-11 19:53:47.02	218.31	13.29	
2025-01-11 19:53:48.25	218.50	13.39	
2025-01-11 19:53:49.49	218.69	13.49	
2025-01-11 19:53:50.72	218.88	13.59	
2025-01-11 19:53:51.96	219.08	13.70	
2025-01-11 19:53:53.18	219.27	13.80	
2025-01-11 19:53:54.42	219.47	13.90	
2025-01-11 19:53:55.66	219.67	14.00	
2025-01-11 19:53:56.89	219.87	14.10	
2025-01-11 19:53:58.13	220.07	14.21	
2025-01-11 19:53:59.36	220.27	14.31	
2025-01-11 19:54:00.59	220.47	14.41	
2025-01-11 19:54:01.82	220.68	14.51	
2025-01-11 19:54:03.05	220.88	14.61	
2025-01-11 19:54:04.28	221.09	14.72	
2025-01-11 19:54:05.53	221.30	14.82	
2025-01-11 19:54:06.75	221.51	14.92	
2025-01-11 19:54:07.98	221.72	15.03	
2025-01-11 19:54:09.21	221.94	15.13	
2025-01-11 19:54:10.45	222.15	15.23	
2025-01-11 19:54:11.69	222.37	15.34	
2025-01-11 19:54:12.94	222.59	15.44	
2025-01-11 19:54:14.18	222.82	15.55	
2025-01-11 19:54:15.41	223.04	15.65	
2025-01-11 19:54:16.64	223.26	15.75	
2025-01-11 19:54:17.87	223.48	15.86	
2025-01-11 19:54:19.10	223.71	15.96	
2025-01-11 19:54:20.33	223.94	16.07	
2025-01-11 19:54:21.56	224.17	16.17	
2025-01-11 19:54:22.79	224.40	16.28	
2025-01-11 19:54:24.02	224.63	16.38	
2025-01-11 19:54:25.25	224.87	16.48	
2025-01-11 19:54:26.49	225.10	16.59	
2025-01-11 19:54:27.72	225.34	16.69	
2025-01-11 19:54:28.95	225.58	16.80	
2025-01-11 19:54:30.19	225.83	16.90	
2025-01-11 19:54:31.42	226.07	17.01	
2025-01-11 19:54:32.65	226.31	17.11	
2025-01-11 19:54:33.88	226.56	17.22	
2025-01-11 19:54:35.14	226.81	17.32	
2025-01-11 19:54:36.37	227.06	17.43	
2025-01-11 19:54:37.62	227.32	17.53	
2025-01-11 19:54:38.85	227.57	17.64	
2025-01-11 19:54:40.08	227.83	17.74	
2025-01-11 19:54:41.31	228.09	17.85	
2025-01-11 19:54:42.55	228.35	17.95	
2025-01-11 19:54:43.78	228.61	18.06	
2025-01-11 19:54:45.01	228.87	18.16	
2025-01-11 19:54:46.26	229.14	18.27	
2025-01-11 19:54:47.49	229.41	18.37	
2025-01-11 19:54:48.72	229.68	18.48	
2025-01-11 19:54:49.95	229.95	18.58	
2025-01-11 19:54:51.18	230.22	18.68	
2025-01-11 19:54:52.41	230.50	18.79	
2025-01-11 19:54:53.64	230.77	18.89	
2025-01-11 19:54:54.87	231.05	18.99	
2025-01-11 19:54:56.10	231.33	19.10	
2025-01-11 19:54:57.33	231.61	19.20	
2025-01-11 19:54:58.56	231.90	19.30	
2025-01-11 19:54:59.79	232.18	19.41	
2025-01-11 19:55:01.02	232.47	19.51	
2025-01-11 19:55:02.25	232.76	19.61	
2025-01-11 19:55:03.48	233.05	19.71	
2025-01-11 19:55:04.71	233.35	19.81	
2025-01-11 19:55:05.95	233.65	19.92	
2025-01-11 19:55:07.19	233.95	20.02	
2025-01-11 19:55:08.42	234.25	20.12	
2025-01-11 19:55:09.65	234.55	20.22	
2025-01-11 19:55:10.88	234.85	20.32	
2025-01-11 19:55:12.11	235.16	20.42	
2025-01-11 19:55:13.35	235.47	20.52	
2025-01-11 19:55:14.59	235.78	20.62	
2025-01-11 19:55:15.82	236.10	20.72	
2025-01-11 19:55:17.05	236.41	20.82	
2025-01-11 19:55:18.28	236.73	20.91	
2025-01-11 19:55:19.52	237.05	21.01	
2025-01-11 19:55:20.76	237.37	21.11	
2025-01-11 19:55:22.01	237.70	21.21	
2025-01-11 19:55:23.24	238.02	21.30	
2025-01-11 19:55:24.47	238.35	21.40	
2025-01-11 19:55:25.70	238.68	21.49	
2025-01-11 19:55:26.93	239.01	21.59	
2025-01-11 19:55:28.17	239.35	21.68	
2025-01-11 19:55:29.40	239.68	21.78	
2025-01-11 19:55:30.64	240.02	21.87	
2025-01-11 19:55:31.88	240.36	21.96	
2025-01-11 19:55:33.11	240.71	22.05	
2025-01-11 19:55:34.34	241.05	22.15	
2025-01-11 19:55:35.59	241.40	22.24	
2025-01-11 19:55:36.82	241.75	22.33	
2025-01-11 19:55:38.05	242.10	22.42	
2025-01-11 19:55:39.28	242.45	22.50	
2025-01-11 19:55:40.51	242.80	22.59	
2025-01-11 19:55:41.75	243.16	22.68	
2025-01-11 19:55:42.98	243.52	22.76	
2025-01-11 19:55:44.21	243.88	22.85	
2025-01-11 19:55:45.44	244.24	22.93	
2025-01-11 19:55:46.67	244.61	23.02	
2025-01-11 19:55:47.90	244.97	23.10	
2025-01-11 19:55:49.13	245.34	23.18	
2025-01-11 19:55:50.36	245.71	23.26	
2025-01-11 19:55:51.59	246.08	23.34	
2025-01-11 19:55:52.82	246.45	23.42	
2025-01-11 19:55:54.05	246.83	23.50	
2025-01-11 19:55:55.28	247.21	23.57	
2025-01-11 19:55:56.51	247.59	23.65	
2025-01-11 19:55:57.74	247.97	23.73	
2025-01-11 19:55:58.97	248.35	23.80	
2025-01-11 19:56:00.21	248.74	23.87	
2025-01-11 19:56:01.44	249.13	23.94	
2025-01-11 19:56:02.67	249.51	24.01	
2025-01-11 19:56:03.90	249.90	24.08	
2025-01-11 19:56:05.13	250.30	24.15	
2025-01-11 19:56:06.36	250.69	24.22	
2025-01-11 19:56:07.59	251.09	24.29	
2025-01-11 19:56:08.83	251.49	24.35	
2025-01-11 19:56:10.06	251.89	24.41	
2025-01-11 19:56:11.29	252.29	24.48	
2025-01-11 19:56:12.52	252.69	24.54	
2025-01-11 19:56:13.76	253.09	24.60	
2025-01-11 19:56:14.99	253.50	24.66	
2025-01-11 19:56:16.22	253.91	24.71	
2025-01-11 19:56:17.45	254.31	24.77	
2025-01-11 19:56:18.69	254.73	24.83	
2025-01-11 19:56:19.92	255.14	24.88	
2025-01-11 19:56:21.15	255.55	24.93	
2025-01-11 19:56:22.38	255.96	24.98	
2025-01-11 19:56:23.62	256.38	25.03	
2025-01-11 19:56:24.85	256.80	25.08	
2025-01-11 19:56:26.08	257.22	25.12	
2025-01-11 19:56:27.31	257.64	25.17	
2025-01-11 19:56:28.54	258.06	25.21	
2025-01-11 19:56:29.77	258.48	25.25	
2025-01-11 19:56:31.00	258.90	25.29	
2025-01-11 19:56:32.23	259.32	25.33	
2025-01-11 19:56:33.47	259.75	25.37	
2025-01-11 19:56:34.70	260.18	25.41	
2025-01-11 19:56:35.93	260.60	25.44	
2025-01-11 19:56:37.17	261.03	25.47	
2025-01-11 19:56:38.40	261.46	25.50	
2025-01-11 19:56:39.63	261.89	25.53	
2025-01-11 19:56:40.86	262.32	25.56	
2025-01-11 19:56:42.09	262.75	25.59	
2025-01-11 19:56:43.32	263.18	25.61	
2025-01-11 19:56:44.55	263.61	25.63	
2025-01-11 19:56:45.78	264.05	25.65	
2025-01-11 19:56:47.01	264.48	25.67	
2025-01-11 19:56:48.24	264.91	25.69	
2025-01-11 19:56:49.49	265.35	25.71	
2025-01-11 19:56:50.72	265.79	25.72	
2025-01-11 19:56:51.96	266.23	25.74	
2025-01-11 19:56:53.20	266.66	25.75	
2025-01-11 19:56:54.44	267.10	25.76	
2025-01-11 19:56:55.68	267.54	25.77	
2025-01-11 19:56:56.91	267.98	25.77	
2025-01-11 19:56:58.14	268.41	25.78	
2025-01-11 19:56:59.39	268.86	25.78	
2025-01-11 19:57:00.63	269.30	25.78	
2025-01-11 19:57:01.86	269.73	25.78	
2025-01-11 19:57:03.11	270.18	25.78	
2025-01-11 19:57:04.33	270.61	25.77	
2025-01-11 19:57:05.57	271.05	25.77	
2025-01-11 19:57:06.80	271.48	25.76	
2025-01-11 19:57:08.03	271.92	25.75	
2025-01-11 19:57:09.27	272.36	25.74	
2025-01-11 19:57:10.50	272.79	25.73	
2025-01-11 19:57:11.74	273.23	25.71	
2025-01-11 19:57:12.99	273.67	25.70	
2025-01-11 19:57:14.22	274.10	25.68	
2025-01-11 19:57:15.46	274.54	25.66	
2025-01-11 19:57:16.69	274.97	25.64	
2025-01-11 19:57:17.92	275.40	25.62	
2025-01-11 19:57:19.15	275.83	25.59	
2025-01-11 19:57:20.38	276.26	25.57	
2025-01-11 19:57:21.61	276.69	25.54	
2025-01-11 19:57:22.85	277.13	25.51	
2025-01-11 19:57:24.08	277.55	25.48	
2025-01-11 19:57:25.31	277.98	25.45	
2025-01-11 19:57:26.54	278.41	25.42	
2025-01-11 19:57:27.77	278.83	25.38	
2025-01-11 19:57:29.01	279.26	25.34	
2025-01-11 19:57:30.24	279.68	25.31	
2025-01-11 19:57:31.46	280.10	25.27	
2025-01-11 19:57:32.69	280.52	25.23	
2025-01-11 19:57:33.93	280.94	25.18	
2025-01-11 19:57:35.16	281.36	25.14	
2025-01-11 19:57:36.38	281.78	25.09	
2025-01-11 19:57:37.63	282.20	25.05	
2025-01-11 19:57:38.86	282.61	25.00	
2025-01-11 19:57:40.11	283.03	24.95	
2025-01-11 19:57:41.34	283.45	24.90	
2025-01-11 19:57:42.57	283.86	24.84	
2025-01-11 19:57:43.80	284.26	24.79	
2025-01-11 19:57:45.04	284.68	24.73	
2025-01-11 19:57:46.27	285.08	24.68	
2025-01-11 19:57:47.50	285.49	24.62	
2025-01-11 19:57:48.74	285.89	24.56	
2025-01-11 19:57:49.97	286.29	24.50	
2025-01-11 19:57:51.20	286.69	24.44	
2025-01-11 19:57:52.44	287.10	24.37	
2025-01-11 19:57:53.66	287.49	24.31	
2025-01-11 19:57:54.89	287.88	24.24	
2025-01-11 19:57:56.12	288.28	24.18	
2025-01-11 19:57:57.37	288.67	24.11	
2025-01-11 19:57:58.60	289.06	24.04	
2025-01-11 19:57:59.83	289.45	23.97	
2025-01-11 19:58:01.06	289.84	23.90	
2025-01-11 19:58:02.30	290.23	23.83	
2025-01-11 19:58:03.53	290.61	23.75	
2025-01-11 19:58:04.76	290.99	23.68	
2025-01-11 19:58:05.99	291.37	23.60	
2025-01-11 19:58:07.22	291.74	23.53	
2025-01-11 19:58:08.45	292.12	23.45	
2025-01-11 19:58:09.68	292.49	23.37	
2025-01-11 19:58:10.91	292.86	23.29	
2025-01-11 19:58:12.14	293.23	23.21	
2025-01-11 19:58:13.38	293.60	23.13	
2025-01-11 19:58:14.61	293.97	23.05	
2025-01-11 19:58:15.84	294.33	22.97	
2025-01-11 19:58:17.06	294.69	22.89	
2025-01-11 19:58:18.31	295.05	22.80	
2025-01-11 19:58:19.54	295.41	22.71	
2025-01-11 19:58:20.77	295.76	22.63	
2025-01-11 19:58:22.00	296.12	22.54	
2025-01-11 19:58:23.23	296.47	22.45	
2025-01-11 19:58:24.49	296.83	22.36	
2025-01-11 19:58:25.72	297.17	22.28	
2025-01-11 19:58:26.95	297.52	22.19	
2025-01-11 19:58:28.18	297.86	22.10	
2025-01-11 19:58:29.41	298.20	22.01	
2025-01-11 19:58:30.65	298.54	21.91	
2025-01-11 19:58:31.88	298.88	21.82	
2025-01-11 19:58:33.11	299.21	21.73	
2025-01-11 19:58:34.34	299.55	21.64	
2025-01-11 19:58:35.57	299.88	21.54	
2025-01-11 19:58:36.80	300.21	21.45	
2025-01-11 19:58:38.03	300.53	21.35	
2025-01-11 19:58:39.26	300.86	21.26	
2025-01-11 19:58:40.50	301.18	21.16	
2025-01-11 19:58:41.74	301.50	21.07	
2025-01-11 19:58:42.97	301.82	20.97	
2025-01-11 19:58:44.22	302.14	20.87	
2025-01-11 19:58:45.45	302.46	20.77	
2025-01-11 19:58:46.68	302.77	20.67	
2025-01-11 19:58:47.91	303.08	20.58	
2025-01-11 19:58:49.14	303.39	20.48	
2025-01-11 19:58:50.37	303.69	20.38	
2025-01-11 19:58:51.60	303.99	20.28	
2025-01-11 19:58:52.83	304.30	20.18	
2025-01-11 19:58:54.06	304.60	20.08	
2025-01-11 19:58:55.29	304.89	19.98	
2025-01-11 19:58:56.53	305.19	19.88	
2025-01-11 19:58:57.76	305.48	19.78	
2025-01-11 19:58:59.01	305.78	19.68	
2025-01-11 19:59:00.23	306.07	19.57	
2025-01-11 19:59:01.47	306.36	19.47	
2025-01-11 19:59:02.69	306.64	19.37	
2025-01-11 19:59:03.92	306.92	19.27	
2025-01-11 19:59:05.15	307.21	19.17	
2025-01-11 19:59:06.39	307.49	19.06	
2025-01-11 19:59:07.62	307.77	18.96	
2025-01-11 19:59:08.85	308.04	18.86	
2025-01-11 19:59:10.09	308.32	18.76	
2025-01-11 19:59:11.32	308.59	18.65	
2025-01-11 19:59:12.56	308.86	18.55	
2025-01-11 19:59:13.79	309.13	18.45	
2025-01-11 19:59:15.04	309.40	18.34	
2025-01-11 19:59:16.27	309.67	18.24	
2025-01-11 19:59:17.50	309.93	18.13	
2025-01-11 19:59:18.73	310.19	18.03	
2025-01-11 19:59:19.96	310.45	17.93	
2025-01-11 19:59:21.20	310.71	17.82	
2025-01-11 19:59:22.43	310.96	17.72	
2025-01-11 19:59:23.67	311.22	17.61	
2025-01-11 19:59:24.90	311.47	17.51	
2025-01-11 19:59:26.13	311.72	17.41	
2025-01-11 19:59:27.36	311.97	17.30	
2025-01-11 19:59:28.60	312.22	17.20	
2025-01-11 19:59:29.83	312.46	17.10	
2025-01-11 19:59:31.06	312.70	16.99	
2025-01-11 19:59:32.30	312.95	16.89	
2025-01-11 19:59:33.53	313.19	16.78	
2025-01-11 19:59:34.76	313.42	16.68	
2025-01-11 19:59:35.99	313.66	16.58	
2025-01-11 19:59:37.22	313.89	16.47	
2025-01-11 19:59:38.46	314.13	16.37	
2025-01-11 19:59:39.70	314.36	16.26	
2025-01-11 19:59:40.93	314.59	16.16	
2025-01-11 19:59:42.16	314.82	16.06	
2025-01-11 19:59:43.39	315.04	15.95	
2025-01-11 19:59:44.62	315.27	15.85	
2025-01-11 19:59:45.85	315.49	15.75	
2025-01-11 19:59:47.09	315.71	15.64	
2025-01-11 19:59:48.32	315.93	15.54	
2025-01-11 19:59:49.55	316.15	15.44	
2025-01-11 19:59:50.79	316.37	15.34	
2025-01-11 19:59:52.03	316.59	15.23	
2025-01-11 19:59:53.27	316.80	15.13	
2025-01-11 19:59:54.52	317.02	15.03	
2025-01-11 19:59:55.75	317.23	14.92	
2025-01-11 19:59:56.98	317.44	14.82	
2025-01-11 19:59:58.23	317.65	14.72	
2025-01-11 19:59:59.46	317.85	14.62	
2025-01-11 20:00:00.69	318.06	14.52	
2025-01-11 20:00:01.92	318.26	14.41	
2025-01-11 20:00:03.15	318.46	14.31	
2025-01-11 20:00:04.38	318.66	14.21	
2025-01-11 20:00:05.62	318.86	14.11	
2025-01-11 20:00:06.85	319.06	14.01	
2025-01-11 20:00:08.08	319.26	13.91	
2025-01-11 20:00:09.31	319.45	13.81	
2025-01-11 20:00:10.54	319.64	13.71	
2025-01-11 20:00:11.77	319.83	13.61	
2025-01-11 20:00:13.00	320.03	13.51	
2025-01-11 20:00:14.23	320.21	13.41	
2025-01-11 20:00:15.46	320.40	13.31	
2025-01-11 20:00:16.70	320.59	13.21	
2025-01-11 20:00:17.93	320.78	13.11	
2025-01-11 20:00:19.16	320.96	13.01	
2025-01-11 20:00:20.39	321.14	12.91	
2025-01-11 20:00:21.62	321.32	12.82	
2025-01-11 20:00:22.85	321.50	12.72	
2025-01-11 20:00:24.08	321.68	12.62	
2025-01-11 20:00:25.31	321.86	12.52	
2025-01-11 20:00:26.56	322.04	12.42	
2025-01-11 20:00:27.79	322.22	12.32	
2025-01-11 20:00:29.02	322.39	12.23	
2025-01-11 20:00:30.25	322.56	12.13	
2025-01-11 20:00:31.48	322.73	12.03	
2025-01-11 20:00:32.72	322.91	11.94	
2025-01-11 20:00:33.95	323.08	11.84	
2025-01-11 20:00:35.18	323.24	11.74	
2025-01-11 20:00:36.43	323.41	11.65	
2025-01-11 20:00:37.65	323.58	11.55	
2025-01-11 20:00:38.88	323.74	11.46	
2025-01-11 20:00:40.11	323.91	11.36	
2025-01-11 20:00:41.34	324.07	11.27	
2025-01-11 20:00:42.59	324.23	11.17	
2025-01-11 20:00:43.82	324.39	11.07	
2025-01-11 20:00:45.05	324.55	10.98	
2025-01-11 20:00:46.28	324.71	10.89	
2025-01-11 20:00:47.51	324.87	10.79	
2025-01-11 20:00:48.74	325.03	10.70	
2025-01-11 20:00:49.97	325.18	10.60	
2025-01-11 20:00:51.20	325.33	10.51	
2025-01-11 20:00:52.43	325.49	10.42	
2025-01-11 20:00:53.67	325.64	10.32	
2025-01-11 20:00:54.90	325.79	10.23	
2025-01-11 20:00:56.12	325.94	10.14	
2025-01-11 20:00:57.35	326.09	10.05	
2025-01-11 20:00:58.60	326.24	9.95	
2025-01-11 20:00:59.83	326.39	9.86	
2025-01-11 20:01:01.06	326.53	9.77	
2025-01-11 20:01:02.29	326.68	9.68	
2025-01-11 20:01:03.52	326.82	9.59	
2025-01-11 20:01:04.75	326.97	9.50	
2025-01-11 20:01:05.99	327.11	9.41	
2025-01-11 20:01:07.22	327.25	9.32	
2025-01-11 20:01:08.45	327.39	9.23	
2025-01-11 20:01:09.68	327.53	9.14	
2025-01-11 20:01:10.91	327.67	9.05	
2025-01-11 20:01:12.16	327.81	8.96	
2025-01-11 20:01:13.39	327.95	8.87	
2025-01-11 20:01:14.61	328.09	8.78	
2025-01-11 20:01:15.86	328.22	8.69	
2025-01-11 20:01:17.09	328.36	8.60	
2025-01-11 20:01:18.32	328.49	8.51	
2025-01-11 20:01:19.55	328.62	8.42	
2025-01-11 20:01:20.78	328.76	8.34	
2025-01-11 20:01:22.01	328.89	8.25	
2025-01-11 20:01:23.24	329.02	8.16	
2025-01-11 20:01:24.47	329.15	8.07	
2025-01-11 20:01:25.70	329.28	7.99	
2025-01-11 20:01:26.93	329.40	7.90	
2025-01-11 20:01:28.16	329.53	7.81	
2025-01-11 20:01:29.39	329.66	7.73	
2025-01-11 20:01:30.62	329.78	7.64	
2025-01-11 20:01:31.85	329.91	7.55	
2025-01-11 20:01:33.08	330.03	7.47	
2025-01-11 20:01:34.31	330.16	7.38	
2025-01-11 20:01:35.54	330.28	7.30	
2025-01-11 20:01:36.77	330.40	7.21	
2025-01-11 20:01:38.02	330.52	7.13	
2025-01-11 20:01:39.25	330.64	7.04	
2025-01-11 20:01:40.48	330.76	6.96	
2025-01-11 20:01:41.71	330.88	6.87	
2025-01-11 20:01:42.94	331.00	6.79	
2025-01-11 20:01:44.18	331.12	6.71	
2025-01-11 20:01:45.41	331.24	6.62	
2025-01-11 20:01:46.64	331.35	6.54	
2025-01-11 20:01:47.87	331.47	6.46	
2025-01-11 20:01:49.11	331.58	6.37	
2025-01-11 20:01:50.35	331.70	6.29	
2025-01-11 20:01:51.58	331.81	6.21	
2025-01-11 20:01:52.81	331.93	6.12	
2025-01-11 20:01:54.04	332.04	6.04	
2025-01-11 20:01:55.27	332.15	5.96	
2025-01-11 20:01:56.51	332.26	5.88	
2025-01-11 20:01:57.74	332.37	5.80	
2025-01-11 20:01:58.97	332.48	5.72	
2025-01-11 20:02:00.22	332.59	5.63	
2025-01-11 20:02:01.45	332.70	5.55	
2025-01-11 20:02:02.68	332.81	5.47	
2025-01-11 20:02:03.91	332.92	5.39	
2025-01-11 20:02:05.15	333.02	5.31	
2025-01-11 20:02:06.38	333.13	5.23	
2025-01-11 20:02:07.60	333.23	5.15	
2025-01-11 20:02:08.84	333.34	5.07	
2025-01-11 20:02:10.07	333.44	4.99	
2025-01-11 20:02:11.30	333.55	4.91	
2025-01-11 20:02:12.53	333.65	4.83	
2025-01-11 20:02:13.77	333.75	4.75	
2025-01-11 20:02:15.00	333.85	4.67	
2025-01-11 20:02:16.22	333.96	4.60	
2025-01-11 20:02:17.45	334.06	4.52	
2025-01-11 20:02:18.68	334.16	4.44	
2025-01-11 20:02:19.91	334.26	4.36	
2025-01-11 20:02:21.14	334.35	4.28	
2025-01-11 20:02:22.39	334.46	4.21	
2025-01-11 20:02:23.61	334.55	4.13	
2025-01-11 20:02:24.85	334.65	4.05	

#Closed at: 2025-01-11 20:02:25