passes_logs/2025/01/11/SPB_Silybum_02/SPB_Silybum_02__20250111_214931_SUOMI_NPP_rec.log

#Pass ID: 20250111_214931_SUOMI NPP
#Satellite: SUOMI NPP
#Configuration: NPP
#Start time: 2025-01-11 21:49:31

#Version: 2.0.20230423
#Station: SPB_Silybum_02
#Location: 30.233357 lon 59.946436 lat
#TLE: 1 37849U 11061A   25010.83173011  .00000170  00000+0  10148-3 0  9996
#TLE: 2 37849  98.7441 311.8732 0001811  47.3940 312.7388 14.19536379684322

#Time	Az	El	Level	Level2	SNR	BER	Gain	Gain2
2025-01-11 21:49:33.13	34.91	4.05	
2025-01-11 21:49:34.16	35.03	4.10	
2025-01-11 21:49:35.18	35.15	4.14	
2025-01-11 21:49:36.21	35.27	4.18	
2025-01-11 21:49:37.24	35.39	4.22	
2025-01-11 21:49:38.26	35.51	4.27	
2025-01-11 21:49:39.30	35.64	4.31	
2025-01-11 21:49:40.33	35.76	4.35	
2025-01-11 21:49:41.35	35.88	4.39	
2025-01-11 21:49:42.38	36.00	4.43	
2025-01-11 21:49:43.42	36.13	4.48	
2025-01-11 21:49:44.45	36.25	4.52	
2025-01-11 21:49:45.48	36.38	4.56	
2025-01-11 21:49:46.50	36.50	4.60	
2025-01-11 21:49:47.53	36.62	4.65	
2025-01-11 21:49:48.55	36.75	4.69	
2025-01-11 21:49:49.59	36.87	4.73	
2025-01-11 21:49:50.63	37.00	4.77	
2025-01-11 21:49:51.67	37.13	4.81	
2025-01-11 21:49:52.70	37.25	4.86	
2025-01-11 21:49:53.72	37.38	4.90	
2025-01-11 21:49:54.75	37.51	4.94	
2025-01-11 21:49:55.77	37.63	4.98	
2025-01-11 21:49:56.80	37.76	5.02	
2025-01-11 21:49:57.83	37.89	5.06	
2025-01-11 21:49:58.85	38.01	5.10	
2025-01-11 21:49:59.88	38.14	5.15	
2025-01-11 21:50:00.90	38.27	5.19	
2025-01-11 21:50:01.92	38.40	5.23	
2025-01-11 21:50:02.94	38.53	5.27	
2025-01-11 21:50:03.97	38.66	5.31	
2025-01-11 21:50:05.00	38.79	5.35	
2025-01-11 21:50:06.02	38.92	5.39	
2025-01-11 21:50:07.05	39.05	5.43	
2025-01-11 21:50:08.07	39.18	5.47	
2025-01-11 21:50:09.10	39.31	5.52	
2025-01-11 21:50:10.13	39.44	5.56	
2025-01-11 21:50:11.16	39.58	5.60	
2025-01-11 21:50:12.18	39.71	5.64	
2025-01-11 21:50:13.21	39.84	5.68	
2025-01-11 21:50:14.25	39.98	5.72	
2025-01-11 21:50:15.27	40.11	5.76	
2025-01-11 21:50:16.30	40.24	5.80	
2025-01-11 21:50:17.33	40.38	5.84	
2025-01-11 21:50:18.37	40.51	5.88	
2025-01-11 21:50:19.39	40.65	5.92	
2025-01-11 21:50:20.42	40.78	5.96	
2025-01-11 21:50:21.46	40.92	6.00	
2025-01-11 21:50:22.49	41.06	6.04	
2025-01-11 21:50:23.51	41.19	6.08	
2025-01-11 21:50:24.54	41.33	6.12	
2025-01-11 21:50:25.56	41.47	6.16	
2025-01-11 21:50:26.59	41.60	6.20	
2025-01-11 21:50:27.61	41.74	6.24	
2025-01-11 21:50:28.64	41.88	6.28	
2025-01-11 21:50:29.67	42.02	6.32	
2025-01-11 21:50:30.70	42.16	6.36	
2025-01-11 21:50:31.72	42.30	6.40	
2025-01-11 21:50:32.75	42.44	6.44	
2025-01-11 21:50:33.79	42.58	6.48	
2025-01-11 21:50:34.82	42.72	6.52	
2025-01-11 21:50:35.84	42.86	6.56	
2025-01-11 21:50:36.86	43.00	6.60	
2025-01-11 21:50:37.90	43.14	6.63	
2025-01-11 21:50:38.93	43.29	6.67	
2025-01-11 21:50:39.96	43.43	6.71	
2025-01-11 21:50:40.98	43.57	6.75	
2025-01-11 21:50:42.00	43.71	6.79	
2025-01-11 21:50:43.05	43.86	6.83	
2025-01-11 21:50:44.09	44.01	6.87	
2025-01-11 21:50:45.11	44.15	6.90	
2025-01-11 21:50:46.14	44.29	6.94	
2025-01-11 21:50:47.17	44.44	6.98	
2025-01-11 21:50:48.20	44.58	7.02	
2025-01-11 21:50:49.22	44.73	7.06	
2025-01-11 21:50:50.24	44.87	7.09	
2025-01-11 21:50:51.27	45.02	7.13	
2025-01-11 21:50:52.29	45.17	7.17	
2025-01-11 21:50:53.32	45.31	7.21	
2025-01-11 21:50:54.34	45.46	7.24	
2025-01-11 21:50:55.37	45.61	7.28	
2025-01-11 21:50:56.39	45.76	7.32	
2025-01-11 21:50:57.42	45.91	7.36	
2025-01-11 21:50:58.45	46.05	7.39	
2025-01-11 21:50:59.47	46.20	7.43	
2025-01-11 21:51:00.50	46.35	7.47	
2025-01-11 21:51:01.52	46.50	7.50	
2025-01-11 21:51:02.54	46.65	7.54	
2025-01-11 21:51:03.57	46.80	7.57	
2025-01-11 21:51:04.60	46.95	7.61	
2025-01-11 21:51:05.64	47.11	7.65	
2025-01-11 21:51:06.67	47.26	7.68	
2025-01-11 21:51:07.70	47.41	7.72	
2025-01-11 21:51:08.72	47.56	7.76	
2025-01-11 21:51:09.74	47.72	7.79	
2025-01-11 21:51:10.77	47.87	7.83	
2025-01-11 21:51:11.80	48.02	7.86	
2025-01-11 21:51:12.82	48.18	7.90	
2025-01-11 21:51:13.85	48.33	7.93	
2025-01-11 21:51:14.88	48.49	7.97	
2025-01-11 21:51:15.90	48.64	8.00	
2025-01-11 21:51:16.93	48.80	8.04	
2025-01-11 21:51:17.96	48.95	8.07	
2025-01-11 21:51:18.98	49.11	8.11	
2025-01-11 21:51:20.02	49.27	8.14	
2025-01-11 21:51:21.04	49.42	8.17	
2025-01-11 21:51:22.07	49.58	8.21	
2025-01-11 21:51:23.10	49.74	8.24	
2025-01-11 21:51:24.13	49.90	8.28	
2025-01-11 21:51:25.15	50.05	8.31	
2025-01-11 21:51:26.18	50.21	8.34	
2025-01-11 21:51:27.22	50.37	8.38	
2025-01-11 21:51:28.26	50.54	8.41	
2025-01-11 21:51:29.29	50.70	8.44	
2025-01-11 21:51:30.31	50.85	8.48	
2025-01-11 21:51:31.33	51.01	8.51	
2025-01-11 21:51:32.37	51.18	8.54	
2025-01-11 21:51:33.40	51.34	8.58	
2025-01-11 21:51:34.42	51.50	8.61	
2025-01-11 21:51:35.45	51.66	8.64	
2025-01-11 21:51:36.47	51.82	8.67	
2025-01-11 21:51:37.51	51.99	8.70	
2025-01-11 21:51:38.56	52.15	8.74	
2025-01-11 21:51:39.58	52.32	8.77	
2025-01-11 21:51:40.60	52.48	8.80	
2025-01-11 21:51:41.63	52.64	8.83	
2025-01-11 21:51:42.65	52.81	8.86	
2025-01-11 21:51:43.68	52.97	8.89	
2025-01-11 21:51:44.72	53.14	8.92	
2025-01-11 21:51:45.75	53.30	8.95	
2025-01-11 21:51:46.77	53.47	8.98	
2025-01-11 21:51:47.80	53.63	9.01	
2025-01-11 21:51:48.82	53.80	9.04	
2025-01-11 21:51:49.85	53.97	9.07	
2025-01-11 21:51:50.89	54.14	9.10	
2025-01-11 21:51:51.92	54.30	9.13	
2025-01-11 21:51:52.94	54.47	9.16	
2025-01-11 21:51:53.97	54.64	9.19	
2025-01-11 21:51:55.00	54.81	9.22	
2025-01-11 21:51:56.02	54.98	9.25	
2025-01-11 21:51:57.04	55.14	9.28	
2025-01-11 21:51:58.07	55.31	9.31	
2025-01-11 21:51:59.10	55.48	9.34	
2025-01-11 21:52:00.12	55.65	9.36	
2025-01-11 21:52:01.14	55.82	9.39	
2025-01-11 21:52:02.15	55.99	9.42	
2025-01-11 21:52:03.19	56.16	9.45	
2025-01-11 21:52:04.21	56.33	9.47	
2025-01-11 21:52:05.23	56.50	9.50	
2025-01-11 21:52:06.26	56.67	9.53	
2025-01-11 21:52:07.29	56.85	9.55	
2025-01-11 21:52:08.31	57.02	9.58	
2025-01-11 21:52:09.34	57.19	9.61	
2025-01-11 21:52:10.37	57.36	9.63	
2025-01-11 21:52:11.40	57.54	9.66	
2025-01-11 21:52:12.43	57.71	9.69	
2025-01-11 21:52:13.46	57.89	9.71	
2025-01-11 21:52:14.49	58.06	9.74	
2025-01-11 21:52:15.53	58.24	9.76	
2025-01-11 21:52:16.57	58.42	9.79	
2025-01-11 21:52:17.60	58.59	9.81	
2025-01-11 21:52:18.62	58.77	9.84	
2025-01-11 21:52:19.66	58.94	9.86	
2025-01-11 21:52:20.70	59.12	9.89	
2025-01-11 21:52:21.73	59.30	9.91	
2025-01-11 21:52:22.75	59.47	9.93	
2025-01-11 21:52:23.77	59.65	9.96	
2025-01-11 21:52:24.80	59.83	9.98	
2025-01-11 21:52:25.82	60.00	10.00	
2025-01-11 21:52:26.85	60.18	10.03	
2025-01-11 21:52:27.87	60.36	10.05	
2025-01-11 21:52:28.90	60.54	10.07	
2025-01-11 21:52:29.92	60.71	10.09	
2025-01-11 21:52:30.94	60.89	10.12	
2025-01-11 21:52:31.97	61.07	10.14	
2025-01-11 21:52:33.01	61.25	10.16	
2025-01-11 21:52:34.04	61.43	10.18	
2025-01-11 21:52:35.06	61.61	10.20	
2025-01-11 21:52:36.09	61.79	10.22	
2025-01-11 21:52:37.11	61.97	10.24	
2025-01-11 21:52:38.14	62.15	10.26	
2025-01-11 21:52:39.18	62.33	10.28	
2025-01-11 21:52:40.20	62.51	10.30	
2025-01-11 21:52:41.23	62.70	10.32	
2025-01-11 21:52:42.27	62.88	10.34	
2025-01-11 21:52:43.29	63.06	10.36	
2025-01-11 21:52:44.32	63.24	10.38	
2025-01-11 21:52:45.35	63.43	10.40	
2025-01-11 21:52:46.37	63.61	10.42	
2025-01-11 21:52:47.40	63.79	10.44	
2025-01-11 21:52:48.43	63.97	10.45	
2025-01-11 21:52:49.46	64.16	10.47	
2025-01-11 21:52:50.48	64.34	10.49	
2025-01-11 21:52:51.51	64.52	10.51	
2025-01-11 21:52:52.53	64.71	10.52	
2025-01-11 21:52:53.56	64.89	10.54	
2025-01-11 21:52:54.58	65.07	10.56	
2025-01-11 21:52:55.62	65.26	10.57	
2025-01-11 21:52:56.64	65.44	10.59	
2025-01-11 21:52:57.67	65.63	10.60	
2025-01-11 21:52:58.70	65.81	10.62	
2025-01-11 21:52:59.72	66.00	10.64	
2025-01-11 21:53:00.75	66.18	10.65	
2025-01-11 21:53:01.77	66.37	10.66	
2025-01-11 21:53:02.80	66.55	10.68	
2025-01-11 21:53:03.83	66.74	10.69	
2025-01-11 21:53:04.85	66.93	10.71	
2025-01-11 21:53:05.89	67.11	10.72	
2025-01-11 21:53:06.92	67.30	10.73	
2025-01-11 21:53:07.95	67.49	10.75	
2025-01-11 21:53:08.97	67.67	10.76	
2025-01-11 21:53:10.00	67.86	10.77	
2025-01-11 21:53:11.02	68.05	10.79	
2025-01-11 21:53:12.04	68.23	10.80	
2025-01-11 21:53:13.07	68.42	10.81	
2025-01-11 21:53:14.10	68.61	10.82	
2025-01-11 21:53:15.13	68.80	10.83	
2025-01-11 21:53:16.15	68.98	10.84	
2025-01-11 21:53:17.18	69.17	10.85	
2025-01-11 21:53:18.20	69.36	10.87	
2025-01-11 21:53:19.23	69.55	10.88	
2025-01-11 21:53:20.26	69.74	10.89	
2025-01-11 21:53:21.29	69.92	10.90	
2025-01-11 21:53:22.33	70.12	10.91	
2025-01-11 21:53:23.36	70.31	10.91	
2025-01-11 21:53:24.39	70.49	10.92	
2025-01-11 21:53:25.41	70.68	10.93	
2025-01-11 21:53:26.44	70.87	10.94	
2025-01-11 21:53:27.48	71.06	10.95	
2025-01-11 21:53:28.51	71.25	10.96	
2025-01-11 21:53:29.53	71.44	10.96	
2025-01-11 21:53:30.55	71.63	10.97	
2025-01-11 21:53:31.58	71.82	10.98	
2025-01-11 21:53:32.60	72.01	10.98	
2025-01-11 21:53:33.64	72.20	10.99	
2025-01-11 21:53:34.67	72.39	11.00	
2025-01-11 21:53:35.70	72.58	11.00	
2025-01-11 21:53:36.72	72.77	11.01	
2025-01-11 21:53:37.75	72.96	11.01	
2025-01-11 21:53:38.78	73.15	11.02	
2025-01-11 21:53:39.80	73.34	11.02	
2025-01-11 21:53:40.83	73.53	11.03	
2025-01-11 21:53:41.85	73.72	11.03	
2025-01-11 21:53:42.88	73.91	11.04	
2025-01-11 21:53:43.91	74.10	11.04	
2025-01-11 21:53:44.93	74.29	11.04	
2025-01-11 21:53:45.95	74.48	11.05	
2025-01-11 21:53:46.98	74.67	11.05	
2025-01-11 21:53:48.00	74.86	11.05	
2025-01-11 21:53:49.03	75.05	11.05	
2025-01-11 21:53:50.07	75.24	11.06	
2025-01-11 21:53:51.10	75.44	11.06	
2025-01-11 21:53:52.14	75.63	11.06	
2025-01-11 21:53:53.16	75.82	11.06	
2025-01-11 21:53:54.18	76.01	11.06	
2025-01-11 21:53:55.21	76.20	11.06	
2025-01-11 21:53:56.24	76.39	11.06	
2025-01-11 21:53:57.26	76.58	11.06	
2025-01-11 21:53:58.29	76.77	11.06	
2025-01-11 21:53:59.31	76.96	11.06	
2025-01-11 21:54:00.34	77.15	11.06	
2025-01-11 21:54:01.36	77.34	11.06	
2025-01-11 21:54:02.39	77.53	11.06	
2025-01-11 21:54:03.41	77.72	11.06	
2025-01-11 21:54:04.44	77.91	11.05	
2025-01-11 21:54:05.48	78.11	11.05	
2025-01-11 21:54:06.50	78.29	11.05	
2025-01-11 21:54:07.53	78.49	11.05	
2025-01-11 21:54:08.55	78.68	11.04	
2025-01-11 21:54:09.59	78.87	11.04	
2025-01-11 21:54:10.63	79.06	11.04	
2025-01-11 21:54:11.67	79.25	11.03	
2025-01-11 21:54:12.70	79.45	11.03	
2025-01-11 21:54:13.73	79.64	11.02	
2025-01-11 21:54:14.75	79.82	11.02	
2025-01-11 21:54:15.78	80.02	11.01	
2025-01-11 21:54:16.81	80.21	11.01	
2025-01-11 21:54:17.83	80.40	11.00	
2025-01-11 21:54:18.86	80.59	11.00	
2025-01-11 21:54:19.89	80.78	10.99	
2025-01-11 21:54:20.91	80.97	10.98	
2025-01-11 21:54:21.94	81.16	10.98	
2025-01-11 21:54:22.97	81.35	10.97	
2025-01-11 21:54:23.99	81.53	10.96	
2025-01-11 21:54:25.02	81.72	10.96	
2025-01-11 21:54:26.04	81.91	10.95	
2025-01-11 21:54:27.07	82.10	10.94	
2025-01-11 21:54:28.09	82.29	10.93	
2025-01-11 21:54:29.14	82.48	10.92	
2025-01-11 21:54:30.18	82.68	10.91	
2025-01-11 21:54:31.21	82.86	10.90	
2025-01-11 21:54:32.23	83.05	10.90	
2025-01-11 21:54:33.26	83.24	10.89	
2025-01-11 21:54:34.30	83.43	10.88	
2025-01-11 21:54:35.33	83.62	10.86	
2025-01-11 21:54:36.35	83.81	10.85	
2025-01-11 21:54:37.38	84.00	10.84	
2025-01-11 21:54:38.40	84.18	10.83	
2025-01-11 21:54:39.43	84.37	10.82	
2025-01-11 21:54:40.46	84.56	10.81	
2025-01-11 21:54:41.49	84.75	10.80	
2025-01-11 21:54:42.51	84.94	10.79	
2025-01-11 21:54:43.54	85.12	10.77	
2025-01-11 21:54:44.56	85.31	10.76	
2025-01-11 21:54:45.59	85.50	10.75	
2025-01-11 21:54:46.62	85.68	10.73	
2025-01-11 21:54:47.65	85.87	10.72	
2025-01-11 21:54:48.69	86.06	10.71	
2025-01-11 21:54:49.71	86.25	10.69	
2025-01-11 21:54:50.73	86.43	10.68	
2025-01-11 21:54:51.75	86.62	10.66	
2025-01-11 21:54:52.79	86.80	10.65	
2025-01-11 21:54:53.81	86.99	10.63	
2025-01-11 21:54:54.83	87.17	10.62	
2025-01-11 21:54:55.86	87.36	10.60	
2025-01-11 21:54:56.88	87.54	10.59	
2025-01-11 21:54:57.91	87.73	10.57	
2025-01-11 21:54:58.93	87.91	10.55	
2025-01-11 21:54:59.96	88.10	10.54	
2025-01-11 21:55:00.98	88.28	10.52	
2025-01-11 21:55:02.01	88.46	10.50	
2025-01-11 21:55:03.03	88.65	10.49	
2025-01-11 21:55:04.05	88.83	10.47	
2025-01-11 21:55:05.08	89.01	10.45	
2025-01-11 21:55:06.11	89.20	10.43	
2025-01-11 21:55:07.14	89.38	10.42	
2025-01-11 21:55:08.17	89.56	10.40	
2025-01-11 21:55:09.21	89.75	10.38	
2025-01-11 21:55:10.24	89.93	10.36	
2025-01-11 21:55:11.27	90.11	10.34	
2025-01-11 21:55:12.29	90.29	10.32	
2025-01-11 21:55:13.31	90.48	10.30	
2025-01-11 21:55:14.34	90.66	10.28	
2025-01-11 21:55:15.37	90.84	10.26	
2025-01-11 21:55:16.39	91.02	10.24	
2025-01-11 21:55:17.41	91.20	10.22	
2025-01-11 21:55:18.44	91.38	10.20	
2025-01-11 21:55:19.47	91.56	10.18	
2025-01-11 21:55:20.49	91.74	10.16	
2025-01-11 21:55:21.51	91.92	10.13	
2025-01-11 21:55:22.54	92.10	10.11	
2025-01-11 21:55:23.56	92.28	10.09	
2025-01-11 21:55:24.59	92.46	10.07	
2025-01-11 21:55:25.62	92.63	10.05	
2025-01-11 21:55:26.64	92.81	10.02	
2025-01-11 21:55:27.67	92.99	10.00	
2025-01-11 21:55:28.70	93.17	9.98	
2025-01-11 21:55:29.73	93.35	9.95	
2025-01-11 21:55:30.75	93.52	9.93	
2025-01-11 21:55:31.77	93.70	9.91	
2025-01-11 21:55:32.80	93.88	9.88	
2025-01-11 21:55:33.83	94.05	9.86	
2025-01-11 21:55:34.85	94.23	9.83	
2025-01-11 21:55:35.88	94.41	9.81	
2025-01-11 21:55:36.90	94.58	9.78	
2025-01-11 21:55:37.93	94.76	9.76	
2025-01-11 21:55:38.96	94.93	9.73	
2025-01-11 21:55:39.98	95.10	9.71	
2025-01-11 21:55:41.01	95.28	9.68	
2025-01-11 21:55:42.05	95.46	9.66	
2025-01-11 21:55:43.09	95.63	9.63	
2025-01-11 21:55:44.12	95.81	9.60	
2025-01-11 21:55:45.15	95.98	9.58	
2025-01-11 21:55:46.17	96.15	9.55	
2025-01-11 21:55:47.19	96.32	9.52	
2025-01-11 21:55:48.21	96.49	9.50	
2025-01-11 21:55:49.24	96.67	9.47	
2025-01-11 21:55:50.26	96.84	9.44	
2025-01-11 21:55:51.29	97.01	9.41	
2025-01-11 21:55:52.32	97.18	9.38	
2025-01-11 21:55:53.34	97.35	9.36	
2025-01-11 21:55:54.37	97.52	9.33	
2025-01-11 21:55:55.39	97.69	9.30	
2025-01-11 21:55:56.42	97.86	9.27	
2025-01-11 21:55:57.45	98.03	9.24	
2025-01-11 21:55:58.47	98.20	9.21	
2025-01-11 21:55:59.50	98.37	9.18	
2025-01-11 21:56:00.52	98.54	9.15	
2025-01-11 21:56:01.55	98.71	9.13	
2025-01-11 21:56:02.58	98.87	9.10	
2025-01-11 21:56:03.61	99.04	9.07	
2025-01-11 21:56:04.63	99.21	9.04	
2025-01-11 21:56:05.67	99.38	9.00	
2025-01-11 21:56:06.70	99.54	8.97	
2025-01-11 21:56:07.72	99.71	8.94	
2025-01-11 21:56:08.75	99.88	8.91	
2025-01-11 21:56:09.77	100.04	8.88	
2025-01-11 21:56:10.79	100.20	8.85	
2025-01-11 21:56:11.82	100.37	8.82	
2025-01-11 21:56:12.84	100.53	8.79	
2025-01-11 21:56:13.87	100.70	8.76	
2025-01-11 21:56:14.89	100.86	8.72	
2025-01-11 21:56:15.92	101.02	8.69	
2025-01-11 21:56:16.94	101.19	8.66	
2025-01-11 21:56:17.97	101.35	8.63	
2025-01-11 21:56:19.01	101.51	8.60	
2025-01-11 21:56:20.04	101.68	8.56	
2025-01-11 21:56:21.08	101.84	8.53	
2025-01-11 21:56:22.12	102.00	8.50	
2025-01-11 21:56:23.14	102.16	8.46	
2025-01-11 21:56:24.18	102.33	8.43	
2025-01-11 21:56:25.21	102.49	8.40	
2025-01-11 21:56:26.23	102.65	8.36	
2025-01-11 21:56:27.27	102.81	8.33	
2025-01-11 21:56:28.30	102.97	8.30	
2025-01-11 21:56:29.32	103.13	8.26	
2025-01-11 21:56:30.35	103.29	8.23	
2025-01-11 21:56:31.38	103.44	8.19	
2025-01-11 21:56:32.40	103.60	8.16	
2025-01-11 21:56:33.43	103.76	8.12	
2025-01-11 21:56:34.45	103.92	8.09	
2025-01-11 21:56:35.49	104.07	8.05	
2025-01-11 21:56:36.52	104.23	8.02	
2025-01-11 21:56:37.54	104.39	7.98	
2025-01-11 21:56:38.57	104.54	7.95	
2025-01-11 21:56:39.59	104.70	7.91	
2025-01-11 21:56:40.62	104.85	7.88	
2025-01-11 21:56:41.64	105.01	7.84	
2025-01-11 21:56:42.67	105.16	7.81	
2025-01-11 21:56:43.71	105.32	7.77	
2025-01-11 21:56:44.73	105.47	7.74	
2025-01-11 21:56:45.76	105.62	7.70	
2025-01-11 21:56:46.80	105.78	7.66	
2025-01-11 21:56:47.83	105.93	7.63	
2025-01-11 21:56:48.85	106.08	7.59	
2025-01-11 21:56:49.88	106.23	7.55	
2025-01-11 21:56:50.92	106.39	7.52	
2025-01-11 21:56:51.94	106.54	7.48	
2025-01-11 21:56:52.98	106.69	7.44	
2025-01-11 21:56:54.01	106.84	7.40	
2025-01-11 21:56:55.04	106.99	7.37	
2025-01-11 21:56:56.07	107.14	7.33	
2025-01-11 21:56:57.09	107.29	7.29	
2025-01-11 21:56:58.12	107.44	7.26	
2025-01-11 21:56:59.15	107.59	7.22	
2025-01-11 21:57:00.17	107.73	7.18	
2025-01-11 21:57:01.20	107.88	7.14	
2025-01-11 21:57:02.22	108.03	7.10	
2025-01-11 21:57:03.25	108.17	7.07	
2025-01-11 21:57:04.27	108.32	7.03	
2025-01-11 21:57:05.30	108.47	6.99	
2025-01-11 21:57:06.32	108.61	6.95	
2025-01-11 21:57:07.35	108.76	6.91	
2025-01-11 21:57:08.38	108.90	6.88	
2025-01-11 21:57:09.41	109.05	6.84	
2025-01-11 21:57:10.43	109.19	6.80	
2025-01-11 21:57:11.46	109.34	6.76	
2025-01-11 21:57:12.48	109.48	6.72	
2025-01-11 21:57:13.51	109.62	6.68	
2025-01-11 21:57:14.53	109.76	6.64	
2025-01-11 21:57:15.56	109.91	6.60	
2025-01-11 21:57:16.58	110.05	6.56	
2025-01-11 21:57:17.60	110.19	6.52	
2025-01-11 21:57:18.63	110.33	6.49	
2025-01-11 21:57:19.66	110.47	6.45	
2025-01-11 21:57:20.68	110.61	6.41	
2025-01-11 21:57:21.71	110.75	6.37	
2025-01-11 21:57:22.73	110.89	6.33	
2025-01-11 21:57:23.77	111.03	6.29	
2025-01-11 21:57:24.80	111.17	6.25	
2025-01-11 21:57:25.82	111.31	6.21	
2025-01-11 21:57:26.86	111.45	6.17	
2025-01-11 21:57:27.89	111.59	6.13	
2025-01-11 21:57:28.91	111.73	6.09	
2025-01-11 21:57:29.94	111.86	6.05	
2025-01-11 21:57:30.97	112.00	6.01	
2025-01-11 21:57:31.99	112.14	5.96	
2025-01-11 21:57:33.02	112.27	5.92	
2025-01-11 21:57:34.04	112.41	5.88	
2025-01-11 21:57:35.08	112.54	5.84	
2025-01-11 21:57:36.10	112.68	5.80	
2025-01-11 21:57:37.13	112.81	5.76	
2025-01-11 21:57:38.16	112.95	5.72	
2025-01-11 21:57:39.19	113.08	5.68	
2025-01-11 21:57:40.24	113.22	5.64	
2025-01-11 21:57:41.28	113.36	5.60	
2025-01-11 21:57:42.30	113.49	5.55	
2025-01-11 21:57:43.33	113.62	5.51	
2025-01-11 21:57:44.35	113.75	5.47	
2025-01-11 21:57:45.38	113.88	5.43	
2025-01-11 21:57:46.42	114.02	5.39	
2025-01-11 21:57:47.45	114.15	5.35	
2025-01-11 21:57:48.48	114.28	5.31	
2025-01-11 21:57:49.51	114.41	5.26	
2025-01-11 21:57:50.53	114.54	5.22	
2025-01-11 21:57:51.56	114.67	5.18	
2025-01-11 21:57:52.58	114.80	5.14	
2025-01-11 21:57:53.61	114.93	5.10	
2025-01-11 21:57:54.64	115.06	5.06	
2025-01-11 21:57:55.66	115.18	5.01	
2025-01-11 21:57:56.69	115.31	4.97	
2025-01-11 21:57:57.71	115.44	4.93	
2025-01-11 21:57:58.75	115.57	4.89	
2025-01-11 21:57:59.77	115.69	4.85	
2025-01-11 21:58:00.81	115.82	4.80	
2025-01-11 21:58:01.84	115.95	4.76	
2025-01-11 21:58:02.88	116.08	4.72	
2025-01-11 21:58:03.91	116.20	4.68	
2025-01-11 21:58:04.94	116.33	4.63	
2025-01-11 21:58:05.98	116.45	4.59	
2025-01-11 21:58:07.00	116.58	4.55	
2025-01-11 21:58:08.03	116.70	4.51	
2025-01-11 21:58:09.05	116.83	4.46	
2025-01-11 21:58:10.09	116.95	4.42	
2025-01-11 21:58:11.12	117.07	4.38	
2025-01-11 21:58:12.15	117.20	4.33	
2025-01-11 21:58:13.18	117.32	4.29	
2025-01-11 21:58:14.21	117.44	4.25	
2025-01-11 21:58:15.25	117.57	4.21	
2025-01-11 21:58:16.27	117.69	4.16	
2025-01-11 21:58:17.30	117.81	4.12	
2025-01-11 21:58:18.33	117.93	4.08	
2025-01-11 21:58:19.35	118.05	4.03	

#Closed at: 2025-01-11 21:58:20