passes_logs/2025/01/11/SPB_Silybum_02/SPB_Silybum_02__20250111_101435_TERRA_rec.log

#Pass ID: 20250111_101435_TERRA
#Satellite: TERRA
#Configuration: TERRA
#Start time: 2025-01-11 10:14:34

#Version: 2.0.20230423
#Station: SPB_Silybum_02
#Location: 30.233357 lon 59.946436 lat
#TLE: 1 25994U 99068A   25010.80464720  .00000833  00000+0  18136-3 0  9995
#TLE: 2 25994  98.0224  73.9683 0003536  80.9361 344.1935 14.60387279333461

#Time	Az	El	Level	Level2	SNR	BER	Gain	Gain2
2025-01-11 10:14:36.56	9.00	4.06	
2025-01-11 10:14:37.59	8.91	4.12	
2025-01-11 10:14:38.61	8.81	4.18	
2025-01-11 10:14:39.64	8.72	4.24	
2025-01-11 10:14:40.67	8.63	4.30	
2025-01-11 10:14:41.71	8.53	4.37	
2025-01-11 10:14:42.74	8.44	4.43	
2025-01-11 10:14:43.76	8.35	4.49	
2025-01-11 10:14:44.79	8.25	4.55	
2025-01-11 10:14:45.81	8.16	4.62	
2025-01-11 10:14:46.84	8.06	4.68	
2025-01-11 10:14:47.86	7.96	4.74	
2025-01-11 10:14:48.88	7.87	4.80	
2025-01-11 10:14:49.90	7.77	4.86	
2025-01-11 10:14:50.93	7.67	4.93	
2025-01-11 10:14:51.95	7.58	4.99	
2025-01-11 10:14:52.99	7.48	5.05	
2025-01-11 10:14:54.02	7.38	5.12	
2025-01-11 10:14:55.04	7.28	5.18	
2025-01-11 10:14:56.07	7.18	5.24	
2025-01-11 10:14:57.09	7.08	5.31	
2025-01-11 10:14:58.12	6.98	5.37	
2025-01-11 10:14:59.15	6.87	5.44	
2025-01-11 10:15:00.18	6.77	5.50	
2025-01-11 10:15:01.20	6.67	5.56	
2025-01-11 10:15:02.23	6.57	5.63	
2025-01-11 10:15:03.26	6.46	5.69	
2025-01-11 10:15:04.28	6.36	5.75	
2025-01-11 10:15:05.30	6.25	5.82	
2025-01-11 10:15:06.32	6.15	5.88	
2025-01-11 10:15:07.35	6.04	5.95	
2025-01-11 10:15:08.38	5.94	6.01	
2025-01-11 10:15:09.42	5.83	6.08	
2025-01-11 10:15:10.45	5.72	6.14	
2025-01-11 10:15:11.47	5.62	6.21	
2025-01-11 10:15:12.51	5.51	6.27	
2025-01-11 10:15:13.54	5.40	6.34	
2025-01-11 10:15:14.57	5.29	6.40	
2025-01-11 10:15:15.61	5.17	6.47	
2025-01-11 10:15:16.65	5.06	6.53	
2025-01-11 10:15:17.68	4.95	6.60	
2025-01-11 10:15:18.70	4.84	6.66	
2025-01-11 10:15:19.73	4.73	6.73	
2025-01-11 10:15:20.75	4.62	6.79	
2025-01-11 10:15:21.78	4.50	6.86	
2025-01-11 10:15:22.80	4.39	6.93	
2025-01-11 10:15:23.83	4.27	6.99	
2025-01-11 10:15:24.85	4.16	7.06	
2025-01-11 10:15:25.90	4.04	7.12	
2025-01-11 10:15:26.92	3.93	7.19	
2025-01-11 10:15:27.95	3.81	7.26	
2025-01-11 10:15:28.97	3.69	7.32	
2025-01-11 10:15:30.00	3.57	7.39	
2025-01-11 10:15:31.02	3.46	7.45	
2025-01-11 10:15:32.06	3.33	7.52	
2025-01-11 10:15:33.10	3.21	7.59	
2025-01-11 10:15:34.13	3.09	7.66	
2025-01-11 10:15:35.16	2.97	7.72	
2025-01-11 10:15:36.18	2.85	7.79	
2025-01-11 10:15:37.21	2.73	7.86	
2025-01-11 10:15:38.23	2.60	7.92	
2025-01-11 10:15:39.26	2.48	7.99	
2025-01-11 10:15:40.29	2.36	8.06	
2025-01-11 10:15:41.33	2.23	8.13	
2025-01-11 10:15:42.36	2.10	8.19	
2025-01-11 10:15:43.38	1.98	8.26	
2025-01-11 10:15:44.41	1.85	8.33	
2025-01-11 10:15:45.43	1.72	8.39	
2025-01-11 10:15:46.46	1.59	8.46	
2025-01-11 10:15:47.48	1.47	8.53	
2025-01-11 10:15:48.51	1.34	8.60	
2025-01-11 10:15:49.55	1.21	8.67	
2025-01-11 10:15:50.57	1.08	8.73	
2025-01-11 10:15:51.59	0.94	8.80	
2025-01-11 10:15:52.62	0.81	8.87	
2025-01-11 10:15:53.64	0.68	8.94	
2025-01-11 10:15:54.67	0.55	9.00	
2025-01-11 10:15:55.70	0.41	9.07	
2025-01-11 10:15:56.72	0.28	9.14	
2025-01-11 10:15:57.75	0.14	9.21	
2025-01-11 10:15:58.78	0.00	9.28	
2025-01-11 10:15:59.80	359.87	9.34	
2025-01-11 10:16:00.83	359.73	9.41	
2025-01-11 10:16:01.86	359.59	9.48	
2025-01-11 10:16:02.88	359.45	9.55	
2025-01-11 10:16:03.91	359.31	9.62	
2025-01-11 10:16:04.94	359.17	9.69	
2025-01-11 10:16:05.96	359.03	9.76	
2025-01-11 10:16:06.99	358.89	9.82	
2025-01-11 10:16:08.03	358.74	9.89	
2025-01-11 10:16:09.05	358.60	9.96	
2025-01-11 10:16:10.07	358.46	10.03	
2025-01-11 10:16:11.10	358.31	10.10	
2025-01-11 10:16:12.13	358.16	10.17	
2025-01-11 10:16:13.14	358.02	10.24	
2025-01-11 10:16:14.17	357.87	10.31	
2025-01-11 10:16:15.20	357.72	10.38	
2025-01-11 10:16:16.22	357.57	10.44	
2025-01-11 10:16:17.24	357.43	10.51	
2025-01-11 10:16:18.27	357.27	10.58	
2025-01-11 10:16:19.29	357.12	10.65	
2025-01-11 10:16:20.32	356.97	10.72	
2025-01-11 10:16:21.35	356.82	10.79	
2025-01-11 10:16:22.37	356.67	10.86	
2025-01-11 10:16:23.40	356.51	10.93	
2025-01-11 10:16:24.42	356.36	11.00	
2025-01-11 10:16:25.45	356.20	11.07	
2025-01-11 10:16:26.48	356.04	11.14	
2025-01-11 10:16:27.50	355.89	11.21	
2025-01-11 10:16:28.53	355.73	11.27	
2025-01-11 10:16:29.55	355.57	11.34	
2025-01-11 10:16:30.58	355.41	11.41	
2025-01-11 10:16:31.61	355.25	11.48	
2025-01-11 10:16:32.63	355.08	11.55	
2025-01-11 10:16:33.67	354.92	11.62	
2025-01-11 10:16:34.70	354.76	11.69	
2025-01-11 10:16:35.73	354.59	11.76	
2025-01-11 10:16:36.75	354.43	11.83	
2025-01-11 10:16:37.78	354.26	11.90	
2025-01-11 10:16:38.81	354.09	11.97	
2025-01-11 10:16:39.85	353.92	12.04	
2025-01-11 10:16:40.87	353.75	12.11	
2025-01-11 10:16:41.89	353.59	12.18	
2025-01-11 10:16:42.92	353.41	12.25	
2025-01-11 10:16:43.95	353.24	12.32	
2025-01-11 10:16:44.98	353.07	12.39	
2025-01-11 10:16:46.00	352.90	12.46	
2025-01-11 10:16:47.02	352.72	12.52	
2025-01-11 10:16:48.05	352.55	12.59	
2025-01-11 10:16:49.07	352.37	12.66	
2025-01-11 10:16:50.10	352.20	12.73	
2025-01-11 10:16:51.13	352.02	12.80	
2025-01-11 10:16:52.16	351.84	12.87	
2025-01-11 10:16:53.18	351.66	12.94	
2025-01-11 10:16:54.21	351.48	13.01	
2025-01-11 10:16:55.23	351.30	13.08	
2025-01-11 10:16:56.26	351.12	13.15	
2025-01-11 10:16:57.28	350.93	13.21	
2025-01-11 10:16:58.31	350.75	13.28	
2025-01-11 10:16:59.34	350.56	13.35	
2025-01-11 10:17:00.36	350.38	13.42	
2025-01-11 10:17:01.38	350.19	13.49	
2025-01-11 10:17:02.41	350.00	13.56	
2025-01-11 10:17:03.43	349.82	13.63	
2025-01-11 10:17:04.46	349.63	13.69	
2025-01-11 10:17:05.48	349.44	13.76	
2025-01-11 10:17:06.51	349.24	13.83	
2025-01-11 10:17:07.53	349.05	13.90	
2025-01-11 10:17:08.56	348.86	13.97	
2025-01-11 10:17:09.59	348.66	14.03	
2025-01-11 10:17:10.61	348.47	14.10	
2025-01-11 10:17:11.64	348.27	14.17	
2025-01-11 10:17:12.66	348.08	14.24	
2025-01-11 10:17:13.69	347.88	14.30	
2025-01-11 10:17:14.72	347.68	14.37	
2025-01-11 10:17:15.74	347.48	14.44	
2025-01-11 10:17:16.77	347.27	14.51	
2025-01-11 10:17:17.80	347.07	14.57	
2025-01-11 10:17:18.82	346.87	14.64	
2025-01-11 10:17:19.85	346.66	14.71	
2025-01-11 10:17:20.88	346.46	14.77	
2025-01-11 10:17:21.91	346.25	14.84	
2025-01-11 10:17:22.93	346.04	14.90	
2025-01-11 10:17:23.96	345.84	14.97	
2025-01-11 10:17:24.98	345.63	15.04	
2025-01-11 10:17:26.01	345.42	15.10	
2025-01-11 10:17:27.03	345.21	15.17	
2025-01-11 10:17:28.06	344.99	15.23	
2025-01-11 10:17:29.09	344.78	15.30	
2025-01-11 10:17:30.11	344.57	15.36	
2025-01-11 10:17:31.14	344.35	15.43	
2025-01-11 10:17:32.16	344.13	15.49	
2025-01-11 10:17:33.19	343.92	15.56	
2025-01-11 10:17:34.21	343.70	15.62	
2025-01-11 10:17:35.24	343.48	15.68	
2025-01-11 10:17:36.26	343.26	15.75	
2025-01-11 10:17:37.30	343.04	15.81	
2025-01-11 10:17:38.33	342.81	15.87	
2025-01-11 10:17:39.36	342.59	15.94	
2025-01-11 10:17:40.38	342.36	16.00	
2025-01-11 10:17:41.42	342.14	16.06	
2025-01-11 10:17:42.46	341.91	16.13	
2025-01-11 10:17:43.49	341.68	16.19	
2025-01-11 10:17:44.52	341.45	16.25	
2025-01-11 10:17:45.55	341.22	16.31	
2025-01-11 10:17:46.58	340.99	16.37	
2025-01-11 10:17:47.61	340.75	16.43	
2025-01-11 10:17:48.63	340.52	16.49	
2025-01-11 10:17:49.66	340.29	16.55	
2025-01-11 10:17:50.70	340.05	16.62	
2025-01-11 10:17:51.72	339.82	16.67	
2025-01-11 10:17:52.75	339.58	16.73	
2025-01-11 10:17:53.77	339.34	16.79	
2025-01-11 10:17:54.80	339.10	16.85	
2025-01-11 10:17:55.82	338.87	16.91	
2025-01-11 10:17:56.85	338.62	16.97	
2025-01-11 10:17:57.88	338.38	17.03	
2025-01-11 10:17:58.90	338.14	17.08	
2025-01-11 10:17:59.93	337.90	17.14	
2025-01-11 10:18:00.95	337.65	17.20	
2025-01-11 10:18:01.97	337.41	17.25	
2025-01-11 10:18:03.00	337.16	17.31	
2025-01-11 10:18:04.02	336.91	17.36	
2025-01-11 10:18:05.05	336.67	17.42	
2025-01-11 10:18:06.09	336.41	17.47	
2025-01-11 10:18:07.12	336.16	17.53	
2025-01-11 10:18:08.15	335.91	17.58	
2025-01-11 10:18:09.17	335.66	17.63	
2025-01-11 10:18:10.20	335.40	17.69	
2025-01-11 10:18:11.22	335.15	17.74	
2025-01-11 10:18:12.25	334.89	17.79	
2025-01-11 10:18:13.28	334.64	17.84	
2025-01-11 10:18:14.30	334.38	17.89	
2025-01-11 10:18:15.33	334.12	17.95	
2025-01-11 10:18:16.35	333.86	18.00	
2025-01-11 10:18:17.38	333.60	18.05	
2025-01-11 10:18:18.40	333.34	18.09	
2025-01-11 10:18:19.43	333.08	18.14	
2025-01-11 10:18:20.45	332.82	18.19	
2025-01-11 10:18:21.48	332.56	18.24	
2025-01-11 10:18:22.51	332.29	18.29	
2025-01-11 10:18:23.53	332.03	18.33	
2025-01-11 10:18:24.56	331.76	18.38	
2025-01-11 10:18:25.59	331.49	18.43	
2025-01-11 10:18:26.63	331.22	18.47	
2025-01-11 10:18:27.65	330.95	18.52	
2025-01-11 10:18:28.68	330.68	18.56	
2025-01-11 10:18:29.70	330.41	18.60	
2025-01-11 10:18:30.73	330.14	18.65	
2025-01-11 10:18:31.77	329.87	18.69	
2025-01-11 10:18:32.79	329.59	18.73	
2025-01-11 10:18:33.82	329.32	18.77	
2025-01-11 10:18:34.85	329.04	18.82	
2025-01-11 10:18:35.88	328.77	18.86	
2025-01-11 10:18:36.90	328.49	18.90	
2025-01-11 10:18:37.93	328.22	18.93	
2025-01-11 10:18:38.95	327.94	18.97	
2025-01-11 10:18:39.98	327.66	19.01	
2025-01-11 10:18:41.01	327.38	19.05	
2025-01-11 10:18:42.05	327.10	19.09	
2025-01-11 10:18:43.08	326.82	19.12	
2025-01-11 10:18:44.10	326.54	19.16	
2025-01-11 10:18:45.13	326.25	19.19	
2025-01-11 10:18:46.17	325.97	19.23	
2025-01-11 10:18:47.20	325.68	19.26	
2025-01-11 10:18:48.22	325.40	19.29	
2025-01-11 10:18:49.25	325.11	19.33	
2025-01-11 10:18:50.28	324.83	19.36	
2025-01-11 10:18:51.30	324.54	19.39	
2025-01-11 10:18:52.33	324.26	19.42	
2025-01-11 10:18:53.35	323.97	19.45	
2025-01-11 10:18:54.38	323.68	19.48	
2025-01-11 10:18:55.41	323.39	19.50	
2025-01-11 10:18:56.43	323.11	19.53	
2025-01-11 10:18:57.47	322.81	19.56	
2025-01-11 10:18:58.49	322.52	19.58	
2025-01-11 10:18:59.53	322.23	19.61	
2025-01-11 10:19:00.56	321.94	19.63	
2025-01-11 10:19:01.59	321.64	19.66	
2025-01-11 10:19:02.63	321.35	19.68	
2025-01-11 10:19:03.66	321.06	19.70	
2025-01-11 10:19:04.70	320.76	19.73	
2025-01-11 10:19:05.73	320.46	19.75	
2025-01-11 10:19:06.75	320.17	19.77	
2025-01-11 10:19:07.78	319.88	19.79	
2025-01-11 10:19:08.82	319.58	19.81	
2025-01-11 10:19:09.84	319.29	19.82	
2025-01-11 10:19:10.86	318.99	19.84	
2025-01-11 10:19:11.89	318.70	19.86	
2025-01-11 10:19:12.92	318.40	19.87	
2025-01-11 10:19:13.94	318.10	19.89	
2025-01-11 10:19:14.98	317.80	19.90	
2025-01-11 10:19:16.01	317.51	19.92	
2025-01-11 10:19:17.05	317.20	19.93	
2025-01-11 10:19:18.08	316.91	19.94	
2025-01-11 10:19:19.11	316.61	19.95	
2025-01-11 10:19:20.13	316.31	19.96	
2025-01-11 10:19:21.16	316.01	19.97	
2025-01-11 10:19:22.19	315.71	19.98	
2025-01-11 10:19:23.21	315.42	19.99	
2025-01-11 10:19:24.24	315.12	20.00	
2025-01-11 10:19:25.26	314.82	20.00	
2025-01-11 10:19:26.29	314.52	20.01	
2025-01-11 10:19:27.32	314.22	20.01	
2025-01-11 10:19:28.34	313.92	20.02	
2025-01-11 10:19:29.37	313.62	20.02	
2025-01-11 10:19:30.40	313.32	20.02	
2025-01-11 10:19:31.44	313.02	20.03	
2025-01-11 10:19:32.46	312.72	20.03	
2025-01-11 10:19:33.49	312.42	20.03	
2025-01-11 10:19:34.52	312.12	20.03	
2025-01-11 10:19:35.54	311.82	20.02	
2025-01-11 10:19:36.57	311.52	20.02	
2025-01-11 10:19:37.59	311.22	20.02	
2025-01-11 10:19:38.64	310.92	20.02	
2025-01-11 10:19:39.66	310.62	20.01	
2025-01-11 10:19:40.69	310.32	20.01	
2025-01-11 10:19:41.72	310.02	20.00	
2025-01-11 10:19:42.76	309.72	19.99	
2025-01-11 10:19:43.78	309.42	19.99	
2025-01-11 10:19:44.81	309.12	19.98	
2025-01-11 10:19:45.84	308.82	19.97	
2025-01-11 10:19:46.86	308.52	19.96	
2025-01-11 10:19:47.89	308.22	19.95	
2025-01-11 10:19:48.91	307.93	19.94	
2025-01-11 10:19:49.94	307.63	19.92	
2025-01-11 10:19:50.96	307.33	19.91	
2025-01-11 10:19:51.99	307.04	19.90	
2025-01-11 10:19:53.02	306.74	19.88	
2025-01-11 10:19:54.05	306.44	19.87	
2025-01-11 10:19:55.07	306.15	19.85	
2025-01-11 10:19:56.09	305.85	19.83	
2025-01-11 10:19:57.12	305.56	19.82	
2025-01-11 10:19:58.16	305.26	19.80	
2025-01-11 10:19:59.19	304.96	19.78	
2025-01-11 10:20:00.23	304.66	19.76	
2025-01-11 10:20:01.26	304.37	19.74	
2025-01-11 10:20:02.28	304.08	19.72	
2025-01-11 10:20:03.32	303.78	19.69	
2025-01-11 10:20:04.35	303.49	19.67	
2025-01-11 10:20:05.37	303.20	19.65	
2025-01-11 10:20:06.40	302.90	19.62	
2025-01-11 10:20:07.42	302.61	19.60	
2025-01-11 10:20:08.44	302.33	19.57	
2025-01-11 10:20:09.47	302.03	19.55	
2025-01-11 10:20:10.51	301.74	19.52	
2025-01-11 10:20:11.53	301.45	19.49	
2025-01-11 10:20:12.56	301.16	19.46	
2025-01-11 10:20:13.59	300.88	19.43	
2025-01-11 10:20:14.61	300.59	19.40	
2025-01-11 10:20:15.64	300.30	19.37	
2025-01-11 10:20:16.66	300.02	19.34	
2025-01-11 10:20:17.69	299.73	19.31	
2025-01-11 10:20:18.71	299.45	19.28	
2025-01-11 10:20:19.73	299.17	19.24	
2025-01-11 10:20:20.78	298.88	19.21	
2025-01-11 10:20:21.80	298.59	19.17	
2025-01-11 10:20:22.83	298.31	19.14	
2025-01-11 10:20:23.85	298.03	19.10	
2025-01-11 10:20:24.88	297.75	19.07	
2025-01-11 10:20:25.91	297.47	19.03	
2025-01-11 10:20:26.93	297.19	18.99	
2025-01-11 10:20:27.95	296.91	18.95	
2025-01-11 10:20:28.98	296.64	18.92	
2025-01-11 10:20:30.01	296.36	18.88	
2025-01-11 10:20:31.03	296.08	18.84	
2025-01-11 10:20:32.06	295.81	18.80	
2025-01-11 10:20:33.09	295.53	18.75	
2025-01-11 10:20:34.11	295.26	18.71	
2025-01-11 10:20:35.16	294.98	18.67	
2025-01-11 10:20:36.18	294.71	18.63	
2025-01-11 10:20:37.21	294.44	18.58	
2025-01-11 10:20:38.23	294.17	18.54	
2025-01-11 10:20:39.26	293.90	18.49	
2025-01-11 10:20:40.28	293.63	18.45	
2025-01-11 10:20:41.32	293.36	18.40	
2025-01-11 10:20:42.36	293.09	18.36	
2025-01-11 10:20:43.39	292.82	18.31	
2025-01-11 10:20:44.42	292.55	18.26	
2025-01-11 10:20:45.44	292.29	18.21	
2025-01-11 10:20:46.47	292.02	18.17	
2025-01-11 10:20:47.50	291.76	18.12	
2025-01-11 10:20:48.52	291.50	18.07	
2025-01-11 10:20:49.54	291.24	18.02	
2025-01-11 10:20:50.57	290.98	17.97	
2025-01-11 10:20:51.61	290.72	17.92	
2025-01-11 10:20:52.63	290.46	17.87	
2025-01-11 10:20:53.66	290.20	17.81	
2025-01-11 10:20:54.69	289.94	17.76	
2025-01-11 10:20:55.71	289.69	17.71	
2025-01-11 10:20:56.74	289.43	17.66	
2025-01-11 10:20:57.76	289.18	17.60	
2025-01-11 10:20:58.79	288.93	17.55	
2025-01-11 10:20:59.83	288.67	17.50	
2025-01-11 10:21:00.85	288.42	17.44	
2025-01-11 10:21:01.88	288.17	17.39	
2025-01-11 10:21:02.90	287.92	17.33	
2025-01-11 10:21:03.92	287.68	17.28	
2025-01-11 10:21:04.95	287.43	17.22	
2025-01-11 10:21:05.97	287.19	17.16	
2025-01-11 10:21:06.99	286.94	17.11	
2025-01-11 10:21:08.02	286.70	17.05	
2025-01-11 10:21:09.04	286.46	16.99	
2025-01-11 10:21:10.09	286.21	16.93	
2025-01-11 10:21:11.11	285.97	16.87	
2025-01-11 10:21:12.14	285.73	16.82	
2025-01-11 10:21:13.18	285.49	16.76	
2025-01-11 10:21:14.20	285.25	16.70	
2025-01-11 10:21:15.23	285.01	16.64	
2025-01-11 10:21:16.25	284.78	16.58	
2025-01-11 10:21:17.28	284.54	16.52	
2025-01-11 10:21:18.31	284.31	16.46	
2025-01-11 10:21:19.34	284.07	16.40	
2025-01-11 10:21:20.37	283.84	16.33	
2025-01-11 10:21:21.39	283.61	16.27	
2025-01-11 10:21:22.42	283.38	16.21	
2025-01-11 10:21:23.45	283.15	16.15	
2025-01-11 10:21:24.47	282.92	16.09	
2025-01-11 10:21:25.50	282.69	16.02	
2025-01-11 10:21:26.53	282.47	15.96	
2025-01-11 10:21:27.55	282.24	15.90	
2025-01-11 10:21:28.57	282.02	15.84	
2025-01-11 10:21:29.60	281.80	15.77	
2025-01-11 10:21:30.62	281.58	15.71	
2025-01-11 10:21:31.66	281.35	15.64	
2025-01-11 10:21:32.68	281.14	15.58	
2025-01-11 10:21:33.71	280.92	15.52	
2025-01-11 10:21:34.75	280.69	15.45	
2025-01-11 10:21:35.79	280.48	15.39	
2025-01-11 10:21:36.81	280.26	15.32	
2025-01-11 10:21:37.84	280.05	15.26	
2025-01-11 10:21:38.87	279.83	15.19	
2025-01-11 10:21:39.89	279.62	15.12	
2025-01-11 10:21:40.91	279.41	15.06	
2025-01-11 10:21:41.94	279.20	14.99	
2025-01-11 10:21:42.96	278.99	14.93	
2025-01-11 10:21:43.98	278.78	14.86	
2025-01-11 10:21:45.01	278.57	14.79	
2025-01-11 10:21:46.04	278.36	14.73	
2025-01-11 10:21:47.06	278.16	14.66	
2025-01-11 10:21:48.09	277.95	14.59	
2025-01-11 10:21:49.12	277.75	14.53	
2025-01-11 10:21:50.14	277.55	14.46	
2025-01-11 10:21:51.17	277.35	14.39	
2025-01-11 10:21:52.20	277.14	14.33	
2025-01-11 10:21:53.23	276.94	14.26	
2025-01-11 10:21:54.26	276.74	14.19	
2025-01-11 10:21:55.29	276.55	14.12	
2025-01-11 10:21:56.33	276.35	14.05	
2025-01-11 10:21:57.35	276.15	13.99	
2025-01-11 10:21:58.38	275.96	13.92	
2025-01-11 10:21:59.41	275.76	13.85	
2025-01-11 10:22:00.43	275.57	13.78	
2025-01-11 10:22:01.46	275.38	13.71	
2025-01-11 10:22:02.48	275.19	13.64	
2025-01-11 10:22:03.53	274.99	13.57	
2025-01-11 10:22:04.56	274.80	13.50	
2025-01-11 10:22:05.59	274.61	13.44	
2025-01-11 10:22:06.61	274.43	13.37	
2025-01-11 10:22:07.64	274.24	13.30	
2025-01-11 10:22:08.66	274.05	13.23	
2025-01-11 10:22:09.69	273.87	13.16	
2025-01-11 10:22:10.72	273.69	13.09	
2025-01-11 10:22:11.74	273.50	13.02	
2025-01-11 10:22:12.76	273.32	12.95	
2025-01-11 10:22:13.79	273.14	12.88	
2025-01-11 10:22:14.81	272.96	12.82	
2025-01-11 10:22:15.84	272.78	12.75	
2025-01-11 10:22:16.87	272.60	12.68	
2025-01-11 10:22:17.91	272.42	12.61	
2025-01-11 10:22:18.94	272.25	12.54	
2025-01-11 10:22:19.96	272.07	12.47	
2025-01-11 10:22:21.00	271.90	12.40	
2025-01-11 10:22:22.04	271.72	12.33	
2025-01-11 10:22:23.06	271.55	12.26	
2025-01-11 10:22:24.09	271.38	12.19	
2025-01-11 10:22:25.12	271.20	12.12	
2025-01-11 10:22:26.14	271.04	12.05	
2025-01-11 10:22:27.16	270.87	11.98	
2025-01-11 10:22:28.19	270.70	11.91	
2025-01-11 10:22:29.21	270.53	11.84	
2025-01-11 10:22:30.24	270.36	11.77	
2025-01-11 10:22:31.26	270.20	11.70	
2025-01-11 10:22:32.30	270.03	11.63	
2025-01-11 10:22:33.32	269.87	11.56	
2025-01-11 10:22:34.35	269.71	11.49	
2025-01-11 10:22:35.38	269.54	11.42	
2025-01-11 10:22:36.41	269.38	11.35	
2025-01-11 10:22:37.45	269.22	11.28	
2025-01-11 10:22:38.48	269.06	11.21	
2025-01-11 10:22:39.51	268.90	11.14	
2025-01-11 10:22:40.53	268.74	11.07	
2025-01-11 10:22:41.56	268.58	11.00	
2025-01-11 10:22:42.58	268.43	10.93	
2025-01-11 10:22:43.61	268.27	10.86	
2025-01-11 10:22:44.63	268.12	10.79	
2025-01-11 10:22:45.66	267.96	10.72	
2025-01-11 10:22:46.69	267.81	10.65	
2025-01-11 10:22:47.72	267.66	10.58	
2025-01-11 10:22:48.75	267.50	10.52	
2025-01-11 10:22:49.78	267.35	10.45	
2025-01-11 10:22:50.81	267.20	10.38	
2025-01-11 10:22:51.84	267.05	10.31	
2025-01-11 10:22:52.87	266.90	10.24	
2025-01-11 10:22:53.89	266.75	10.17	
2025-01-11 10:22:54.92	266.61	10.10	
2025-01-11 10:22:55.95	266.46	10.03	
2025-01-11 10:22:56.97	266.32	9.96	
2025-01-11 10:22:58.01	266.17	9.89	
2025-01-11 10:22:59.04	266.02	9.82	
2025-01-11 10:23:00.06	265.88	9.75	
2025-01-11 10:23:01.09	265.74	9.68	
2025-01-11 10:23:02.11	265.60	9.62	
2025-01-11 10:23:03.14	265.46	9.55	
2025-01-11 10:23:04.18	265.31	9.48	
2025-01-11 10:23:05.20	265.17	9.41	
2025-01-11 10:23:06.23	265.03	9.34	
2025-01-11 10:23:07.26	264.90	9.27	
2025-01-11 10:23:08.28	264.76	9.20	
2025-01-11 10:23:09.31	264.62	9.13	
2025-01-11 10:23:10.33	264.49	9.07	
2025-01-11 10:23:11.36	264.35	9.00	
2025-01-11 10:23:12.39	264.22	8.93	
2025-01-11 10:23:13.43	264.08	8.86	
2025-01-11 10:23:14.45	263.95	8.79	
2025-01-11 10:23:15.47	263.82	8.73	
2025-01-11 10:23:16.51	263.68	8.66	
2025-01-11 10:23:17.55	263.55	8.59	
2025-01-11 10:23:18.57	263.42	8.52	
2025-01-11 10:23:19.60	263.29	8.45	
2025-01-11 10:23:20.62	263.16	8.38	
2025-01-11 10:23:21.64	263.03	8.32	
2025-01-11 10:23:22.67	262.90	8.25	
2025-01-11 10:23:23.70	262.78	8.18	
2025-01-11 10:23:24.73	262.65	8.11	
2025-01-11 10:23:25.77	262.52	8.05	
2025-01-11 10:23:26.80	262.39	7.98	
2025-01-11 10:23:27.82	262.27	7.91	
2025-01-11 10:23:28.84	262.15	7.85	
2025-01-11 10:23:29.87	262.02	7.78	
2025-01-11 10:23:30.89	261.90	7.71	
2025-01-11 10:23:31.92	261.78	7.64	
2025-01-11 10:23:32.95	261.66	7.58	
2025-01-11 10:23:33.97	261.54	7.51	
2025-01-11 10:23:34.99	261.42	7.44	
2025-01-11 10:23:36.02	261.30	7.38	
2025-01-11 10:23:37.04	261.18	7.31	
2025-01-11 10:23:38.07	261.06	7.25	
2025-01-11 10:23:39.10	260.94	7.18	
2025-01-11 10:23:40.13	260.82	7.11	
2025-01-11 10:23:41.15	260.71	7.05	
2025-01-11 10:23:42.19	260.59	6.98	
2025-01-11 10:23:43.21	260.47	6.91	
2025-01-11 10:23:44.24	260.36	6.85	
2025-01-11 10:23:45.27	260.24	6.78	
2025-01-11 10:23:46.29	260.13	6.72	
2025-01-11 10:23:47.31	260.02	6.65	
2025-01-11 10:23:48.33	259.90	6.59	
2025-01-11 10:23:49.37	259.79	6.52	
2025-01-11 10:23:50.40	259.68	6.45	
2025-01-11 10:23:51.43	259.57	6.39	
2025-01-11 10:23:52.45	259.46	6.32	
2025-01-11 10:23:53.48	259.35	6.26	
2025-01-11 10:23:54.51	259.24	6.19	
2025-01-11 10:23:55.53	259.13	6.13	
2025-01-11 10:23:56.56	259.02	6.06	
2025-01-11 10:23:57.59	258.91	6.00	
2025-01-11 10:23:58.61	258.81	5.93	
2025-01-11 10:23:59.64	258.70	5.87	
2025-01-11 10:24:00.66	258.59	5.81	
2025-01-11 10:24:01.69	258.49	5.74	
2025-01-11 10:24:02.71	258.38	5.68	
2025-01-11 10:24:03.75	258.28	5.61	
2025-01-11 10:24:04.79	258.17	5.55	
2025-01-11 10:24:05.82	258.07	5.48	
2025-01-11 10:24:06.85	257.96	5.42	
2025-01-11 10:24:07.87	257.86	5.36	
2025-01-11 10:24:08.89	257.76	5.29	
2025-01-11 10:24:09.92	257.66	5.23	
2025-01-11 10:24:10.96	257.55	5.16	
2025-01-11 10:24:11.99	257.45	5.10	
2025-01-11 10:24:13.01	257.35	5.04	
2025-01-11 10:24:14.04	257.25	4.97	
2025-01-11 10:24:15.08	257.15	4.91	
2025-01-11 10:24:16.11	257.05	4.85	
2025-01-11 10:24:17.13	256.96	4.78	
2025-01-11 10:24:18.16	256.86	4.72	
2025-01-11 10:24:19.18	256.76	4.66	
2025-01-11 10:24:20.20	256.67	4.60	
2025-01-11 10:24:21.25	256.57	4.53	
2025-01-11 10:24:22.27	256.47	4.47	
2025-01-11 10:24:23.30	256.38	4.41	
2025-01-11 10:24:24.32	256.28	4.35	
2025-01-11 10:24:25.34	256.19	4.28	
2025-01-11 10:24:26.37	256.09	4.22	
2025-01-11 10:24:27.40	256.00	4.16	
2025-01-11 10:24:28.44	255.90	4.10	
2025-01-11 10:24:29.46	255.81	4.03	

#Closed at: 2025-01-11 10:24:30