passes_logs/2025/01/11/SPB_Silybum_02/SPB_Silybum_02__20250111_065913_TERRA_rec.log

#Pass ID: 20250111_065913_TERRA
#Satellite: TERRA
#Configuration: TERRA
#Start time: 2025-01-11 06:59:14

#Version: 2.0.20230423
#Station: SPB_Silybum_02
#Location: 30.233357 lon 59.946436 lat
#TLE: 1 25994U 99068A   25010.80464720  .00000833  00000+0  18136-3 0  9995
#TLE: 2 25994  98.0224  73.9683 0003536  80.9361 344.1935 14.60387279333461

#Time	Az	El	Level	Level2	SNR	BER	Gain	Gain2
2025-01-11 06:59:16.76	26.08	4.20	
2025-01-11 06:59:18.00	26.18	4.28	
2025-01-11 06:59:19.24	26.29	4.35	
2025-01-11 06:59:20.47	26.39	4.43	
2025-01-11 06:59:21.70	26.49	4.51	
2025-01-11 06:59:22.93	26.60	4.58	
2025-01-11 06:59:24.17	26.70	4.66	
2025-01-11 06:59:25.39	26.81	4.74	
2025-01-11 06:59:26.63	26.92	4.82	
2025-01-11 06:59:27.86	27.02	4.90	
2025-01-11 06:59:29.10	27.13	4.97	
2025-01-11 06:59:30.34	27.24	5.05	
2025-01-11 06:59:31.57	27.35	5.13	
2025-01-11 06:59:32.80	27.46	5.21	
2025-01-11 06:59:34.04	27.57	5.29	
2025-01-11 06:59:35.28	27.68	5.37	
2025-01-11 06:59:36.51	27.80	5.45	
2025-01-11 06:59:37.74	27.91	5.53	
2025-01-11 06:59:38.97	28.02	5.61	
2025-01-11 06:59:40.20	28.13	5.69	
2025-01-11 06:59:41.43	28.25	5.77	
2025-01-11 06:59:42.66	28.36	5.85	
2025-01-11 06:59:43.89	28.48	5.93	
2025-01-11 06:59:45.12	28.59	6.01	
2025-01-11 06:59:46.36	28.71	6.09	
2025-01-11 06:59:47.59	28.83	6.17	
2025-01-11 06:59:48.82	28.95	6.25	
2025-01-11 06:59:50.05	29.07	6.33	
2025-01-11 06:59:51.29	29.19	6.41	
2025-01-11 06:59:52.52	29.31	6.50	
2025-01-11 06:59:53.75	29.43	6.58	
2025-01-11 06:59:54.98	29.55	6.66	
2025-01-11 06:59:56.23	29.67	6.74	
2025-01-11 06:59:57.46	29.80	6.83	
2025-01-11 06:59:58.70	29.92	6.91	
2025-01-11 06:59:59.93	30.05	6.99	
2025-01-11 07:00:01.17	30.17	7.08	
2025-01-11 07:00:02.40	30.30	7.16	
2025-01-11 07:00:03.63	30.42	7.24	
2025-01-11 07:00:04.86	30.55	7.33	
2025-01-11 07:00:06.08	30.68	7.41	
2025-01-11 07:00:07.32	30.81	7.49	
2025-01-11 07:00:08.57	30.94	7.58	
2025-01-11 07:00:09.80	31.07	7.66	
2025-01-11 07:00:11.03	31.20	7.75	
2025-01-11 07:00:12.26	31.33	7.83	
2025-01-11 07:00:13.50	31.47	7.92	
2025-01-11 07:00:14.73	31.60	8.00	
2025-01-11 07:00:15.97	31.74	8.09	
2025-01-11 07:00:17.19	31.87	8.17	
2025-01-11 07:00:18.42	32.01	8.26	
2025-01-11 07:00:19.66	32.15	8.35	
2025-01-11 07:00:20.89	32.28	8.43	
2025-01-11 07:00:22.12	32.42	8.52	
2025-01-11 07:00:23.35	32.56	8.61	
2025-01-11 07:00:24.58	32.70	8.69	
2025-01-11 07:00:25.83	32.85	8.78	
2025-01-11 07:00:27.06	32.99	8.87	
2025-01-11 07:00:28.29	33.13	8.96	
2025-01-11 07:00:29.53	33.28	9.04	
2025-01-11 07:00:30.76	33.42	9.13	
2025-01-11 07:00:31.99	33.57	9.22	
2025-01-11 07:00:33.22	33.71	9.31	
2025-01-11 07:00:34.45	33.86	9.40	
2025-01-11 07:00:35.66	34.01	9.48	
2025-01-11 07:00:36.89	34.16	9.57	
2025-01-11 07:00:38.13	34.31	9.66	
2025-01-11 07:00:39.36	34.46	9.75	
2025-01-11 07:00:40.59	34.61	9.84	
2025-01-11 07:00:41.82	34.77	9.93	
2025-01-11 07:00:43.06	34.92	10.02	
2025-01-11 07:00:44.29	35.08	10.11	
2025-01-11 07:00:45.52	35.23	10.20	
2025-01-11 07:00:46.75	35.39	10.29	
2025-01-11 07:00:48.00	35.55	10.38	
2025-01-11 07:00:49.23	35.71	10.47	
2025-01-11 07:00:50.46	35.87	10.56	
2025-01-11 07:00:51.69	36.03	10.65	
2025-01-11 07:00:52.93	36.20	10.75	
2025-01-11 07:00:54.16	36.36	10.84	
2025-01-11 07:00:55.39	36.52	10.93	
2025-01-11 07:00:56.62	36.69	11.02	
2025-01-11 07:00:57.86	36.86	11.11	
2025-01-11 07:00:59.09	37.03	11.21	
2025-01-11 07:01:00.32	37.20	11.30	
2025-01-11 07:01:01.55	37.37	11.39	
2025-01-11 07:01:02.78	37.54	11.48	
2025-01-11 07:01:04.01	37.71	11.58	
2025-01-11 07:01:05.24	37.88	11.67	
2025-01-11 07:01:06.47	38.06	11.76	
2025-01-11 07:01:07.70	38.23	11.86	
2025-01-11 07:01:08.95	38.41	11.95	
2025-01-11 07:01:10.18	38.59	12.04	
2025-01-11 07:01:11.41	38.77	12.14	
2025-01-11 07:01:12.64	38.95	12.23	
2025-01-11 07:01:13.87	39.13	12.33	
2025-01-11 07:01:15.10	39.31	12.42	
2025-01-11 07:01:16.34	39.50	12.52	
2025-01-11 07:01:17.57	39.69	12.61	
2025-01-11 07:01:18.80	39.87	12.71	
2025-01-11 07:01:20.04	40.06	12.80	
2025-01-11 07:01:21.27	40.25	12.90	
2025-01-11 07:01:22.50	40.44	12.99	
2025-01-11 07:01:23.73	40.63	13.09	
2025-01-11 07:01:24.97	40.83	13.18	
2025-01-11 07:01:26.21	41.02	13.28	
2025-01-11 07:01:27.44	41.22	13.38	
2025-01-11 07:01:28.67	41.42	13.47	
2025-01-11 07:01:29.91	41.62	13.57	
2025-01-11 07:01:31.14	41.82	13.66	
2025-01-11 07:01:32.37	42.02	13.76	
2025-01-11 07:01:33.60	42.22	13.86	
2025-01-11 07:01:34.83	42.42	13.95	
2025-01-11 07:01:36.06	42.63	14.05	
2025-01-11 07:01:37.29	42.83	14.15	
2025-01-11 07:01:38.52	43.04	14.24	
2025-01-11 07:01:39.75	43.25	14.34	
2025-01-11 07:01:40.98	43.46	14.44	
2025-01-11 07:01:42.22	43.68	14.54	
2025-01-11 07:01:43.45	43.89	14.63	
2025-01-11 07:01:44.68	44.10	14.73	
2025-01-11 07:01:45.91	44.32	14.83	
2025-01-11 07:01:47.15	44.54	14.93	
2025-01-11 07:01:48.39	44.76	15.03	
2025-01-11 07:01:49.62	44.98	15.12	
2025-01-11 07:01:50.85	45.21	15.22	
2025-01-11 07:01:52.08	45.43	15.32	
2025-01-11 07:01:53.32	45.66	15.42	
2025-01-11 07:01:54.55	45.88	15.51	
2025-01-11 07:01:55.78	46.11	15.61	
2025-01-11 07:01:57.01	46.34	15.71	
2025-01-11 07:01:58.24	46.58	15.81	
2025-01-11 07:01:59.47	46.81	15.91	
2025-01-11 07:02:00.71	47.05	16.00	
2025-01-11 07:02:01.94	47.28	16.10	
2025-01-11 07:02:03.18	47.52	16.20	
2025-01-11 07:02:04.42	47.76	16.30	
2025-01-11 07:02:05.66	48.01	16.40	
2025-01-11 07:02:06.90	48.25	16.50	
2025-01-11 07:02:08.13	48.50	16.60	
2025-01-11 07:02:09.36	48.74	16.69	
2025-01-11 07:02:10.59	48.99	16.79	
2025-01-11 07:02:11.82	49.24	16.89	
2025-01-11 07:02:13.06	49.50	16.99	
2025-01-11 07:02:14.31	49.75	17.09	
2025-01-11 07:02:15.54	50.01	17.18	
2025-01-11 07:02:16.79	50.27	17.28	
2025-01-11 07:02:18.02	50.53	17.38	
2025-01-11 07:02:19.25	50.79	17.48	
2025-01-11 07:02:20.48	51.05	17.57	
2025-01-11 07:02:21.71	51.31	17.67	
2025-01-11 07:02:22.94	51.58	17.77	
2025-01-11 07:02:24.17	51.85	17.86	
2025-01-11 07:02:25.40	52.11	17.96	
2025-01-11 07:02:26.63	52.38	18.06	
2025-01-11 07:02:27.86	52.66	18.15	
2025-01-11 07:02:29.10	52.93	18.25	
2025-01-11 07:02:30.34	53.21	18.35	
2025-01-11 07:02:31.57	53.49	18.44	
2025-01-11 07:02:32.80	53.77	18.54	
2025-01-11 07:02:34.04	54.05	18.63	
2025-01-11 07:02:35.29	54.34	18.73	
2025-01-11 07:02:36.52	54.63	18.82	
2025-01-11 07:02:37.75	54.91	18.92	
2025-01-11 07:02:38.99	55.21	19.01	
2025-01-11 07:02:40.22	55.50	19.11	
2025-01-11 07:02:41.46	55.79	19.20	
2025-01-11 07:02:42.71	56.09	19.29	
2025-01-11 07:02:43.94	56.39	19.39	
2025-01-11 07:02:45.17	56.69	19.48	
2025-01-11 07:02:46.40	56.99	19.57	
2025-01-11 07:02:47.65	57.29	19.66	
2025-01-11 07:02:48.88	57.60	19.76	
2025-01-11 07:02:50.11	57.90	19.85	
2025-01-11 07:02:51.34	58.21	19.94	
2025-01-11 07:02:52.58	58.52	20.03	
2025-01-11 07:02:53.82	58.84	20.12	
2025-01-11 07:02:55.05	59.15	20.21	
2025-01-11 07:02:56.29	59.47	20.30	
2025-01-11 07:02:57.51	59.78	20.38	
2025-01-11 07:02:58.74	60.10	20.47	
2025-01-11 07:02:59.97	60.42	20.56	
2025-01-11 07:03:01.20	60.74	20.65	
2025-01-11 07:03:02.43	61.07	20.73	
2025-01-11 07:03:03.66	61.40	20.82	
2025-01-11 07:03:04.89	61.72	20.90	
2025-01-11 07:03:06.12	62.05	20.99	
2025-01-11 07:03:07.37	62.39	21.07	
2025-01-11 07:03:08.61	62.73	21.15	
2025-01-11 07:03:09.84	63.06	21.24	
2025-01-11 07:03:11.07	63.40	21.32	
2025-01-11 07:03:12.31	63.74	21.40	
2025-01-11 07:03:13.55	64.09	21.48	
2025-01-11 07:03:14.79	64.44	21.56	
2025-01-11 07:03:16.02	64.78	21.64	
2025-01-11 07:03:17.26	65.13	21.72	
2025-01-11 07:03:18.50	65.48	21.80	
2025-01-11 07:03:19.73	65.83	21.87	
2025-01-11 07:03:20.96	66.18	21.95	
2025-01-11 07:03:22.19	66.54	22.02	
2025-01-11 07:03:23.44	66.90	22.10	
2025-01-11 07:03:24.67	67.26	22.17	
2025-01-11 07:03:25.90	67.62	22.25	
2025-01-11 07:03:27.13	67.98	22.32	
2025-01-11 07:03:28.36	68.34	22.39	
2025-01-11 07:03:29.59	68.71	22.46	
2025-01-11 07:03:30.82	69.07	22.53	
2025-01-11 07:03:32.05	69.44	22.59	
2025-01-11 07:03:33.28	69.81	22.66	
2025-01-11 07:03:34.52	70.18	22.73	
2025-01-11 07:03:35.76	70.56	22.79	
2025-01-11 07:03:36.99	70.94	22.86	
2025-01-11 07:03:38.22	71.31	22.92	
2025-01-11 07:03:39.45	71.69	22.98	
2025-01-11 07:03:40.68	72.07	23.04	
2025-01-11 07:03:41.92	72.45	23.10	
2025-01-11 07:03:43.15	72.83	23.16	
2025-01-11 07:03:44.38	73.22	23.22	
2025-01-11 07:03:45.62	73.61	23.27	
2025-01-11 07:03:46.86	74.00	23.33	
2025-01-11 07:03:48.09	74.38	23.38	
2025-01-11 07:03:49.32	74.77	23.44	
2025-01-11 07:03:50.57	75.17	23.49	
2025-01-11 07:03:51.80	75.56	23.54	
2025-01-11 07:03:53.03	75.95	23.59	
2025-01-11 07:03:54.27	76.35	23.64	
2025-01-11 07:03:55.49	76.75	23.68	
2025-01-11 07:03:56.72	77.14	23.73	
2025-01-11 07:03:57.95	77.54	23.77	
2025-01-11 07:03:59.18	77.94	23.81	
2025-01-11 07:04:00.43	78.35	23.86	
2025-01-11 07:04:01.68	78.75	23.90	
2025-01-11 07:04:02.91	79.16	23.93	
2025-01-11 07:04:04.14	79.56	23.97	
2025-01-11 07:04:05.37	79.97	24.01	
2025-01-11 07:04:06.61	80.37	24.04	
2025-01-11 07:04:07.84	80.78	24.08	
2025-01-11 07:04:09.07	81.19	24.11	
2025-01-11 07:04:10.30	81.60	24.14	
2025-01-11 07:04:11.53	82.01	24.17	
2025-01-11 07:04:12.77	82.42	24.19	
2025-01-11 07:04:14.02	82.84	24.22	
2025-01-11 07:04:15.25	83.25	24.25	
2025-01-11 07:04:16.48	83.66	24.27	
2025-01-11 07:04:17.72	84.07	24.29	
2025-01-11 07:04:18.96	84.49	24.31	
2025-01-11 07:04:20.19	84.90	24.33	
2025-01-11 07:04:21.42	85.32	24.35	
2025-01-11 07:04:22.66	85.74	24.36	
2025-01-11 07:04:23.89	86.15	24.38	
2025-01-11 07:04:25.12	86.57	24.39	
2025-01-11 07:04:26.36	86.99	24.40	
2025-01-11 07:04:27.59	87.40	24.41	
2025-01-11 07:04:28.83	87.82	24.42	
2025-01-11 07:04:30.08	88.24	24.43	
2025-01-11 07:04:31.31	88.66	24.43	
2025-01-11 07:04:32.54	89.08	24.43	
2025-01-11 07:04:33.77	89.49	24.44	
2025-01-11 07:04:35.00	89.91	24.44	
2025-01-11 07:04:36.23	90.33	24.44	
2025-01-11 07:04:37.47	90.75	24.43	
2025-01-11 07:04:38.70	91.16	24.43	
2025-01-11 07:04:39.93	91.58	24.42	
2025-01-11 07:04:41.16	92.00	24.42	
2025-01-11 07:04:42.40	92.42	24.41	
2025-01-11 07:04:43.63	92.83	24.40	
2025-01-11 07:04:44.86	93.25	24.39	
2025-01-11 07:04:46.09	93.67	24.37	
2025-01-11 07:04:47.32	94.08	24.36	
2025-01-11 07:04:48.56	94.50	24.34	
2025-01-11 07:04:49.78	94.91	24.32	
2025-01-11 07:04:51.01	95.32	24.31	
2025-01-11 07:04:52.25	95.74	24.28	
2025-01-11 07:04:53.48	96.15	24.26	
2025-01-11 07:04:54.72	96.57	24.24	
2025-01-11 07:04:55.95	96.98	24.21	
2025-01-11 07:04:57.21	97.40	24.19	
2025-01-11 07:04:58.44	97.81	24.16	
2025-01-11 07:04:59.67	98.22	24.13	
2025-01-11 07:05:00.90	98.63	24.10	
2025-01-11 07:05:02.13	99.04	24.07	
2025-01-11 07:05:03.36	99.44	24.03	
2025-01-11 07:05:04.60	99.85	24.00	
2025-01-11 07:05:05.82	100.25	23.96	
2025-01-11 07:05:07.06	100.66	23.92	
2025-01-11 07:05:08.29	101.06	23.88	
2025-01-11 07:05:09.52	101.47	23.84	
2025-01-11 07:05:10.77	101.87	23.80	
2025-01-11 07:05:12.00	102.27	23.76	
2025-01-11 07:05:13.23	102.67	23.71	
2025-01-11 07:05:14.46	103.07	23.67	
2025-01-11 07:05:15.68	103.46	23.62	
2025-01-11 07:05:16.91	103.86	23.57	
2025-01-11 07:05:18.14	104.25	23.52	
2025-01-11 07:05:19.37	104.64	23.47	
2025-01-11 07:05:20.60	105.03	23.42	
2025-01-11 07:05:21.83	105.42	23.37	
2025-01-11 07:05:23.06	105.81	23.31	
2025-01-11 07:05:24.30	106.20	23.26	
2025-01-11 07:05:25.52	106.59	23.20	
2025-01-11 07:05:26.76	106.97	23.14	
2025-01-11 07:05:28.00	107.36	23.08	
2025-01-11 07:05:29.23	107.74	23.02	
2025-01-11 07:05:30.46	108.12	22.96	
2025-01-11 07:05:31.69	108.50	22.90	
2025-01-11 07:05:32.93	108.88	22.84	
2025-01-11 07:05:34.17	109.26	22.77	
2025-01-11 07:05:35.40	109.63	22.71	
2025-01-11 07:05:36.63	110.00	22.64	
2025-01-11 07:05:37.85	110.37	22.57	
2025-01-11 07:05:39.08	110.74	22.51	
2025-01-11 07:05:40.32	111.11	22.44	
2025-01-11 07:05:41.55	111.47	22.37	
2025-01-11 07:05:42.78	111.84	22.29	
2025-01-11 07:05:44.01	112.20	22.22	
2025-01-11 07:05:45.25	112.56	22.15	
2025-01-11 07:05:46.48	112.92	22.07	
2025-01-11 07:05:47.71	113.28	22.00	
2025-01-11 07:05:48.96	113.64	21.92	
2025-01-11 07:05:50.19	113.99	21.85	
2025-01-11 07:05:51.42	114.34	21.77	
2025-01-11 07:05:52.65	114.69	21.69	
2025-01-11 07:05:53.88	115.04	21.61	
2025-01-11 07:05:55.11	115.39	21.53	
2025-01-11 07:05:56.34	115.73	21.45	
2025-01-11 07:05:57.57	116.07	21.37	
2025-01-11 07:05:58.80	116.41	21.29	
2025-01-11 07:06:00.03	116.75	21.21	
2025-01-11 07:06:01.27	117.09	21.12	
2025-01-11 07:06:02.50	117.43	21.04	
2025-01-11 07:06:03.73	117.76	20.96	
2025-01-11 07:06:04.98	118.10	20.87	
2025-01-11 07:06:06.21	118.43	20.78	
2025-01-11 07:06:07.45	118.76	20.70	
2025-01-11 07:06:08.68	119.08	20.61	
2025-01-11 07:06:09.91	119.41	20.52	
2025-01-11 07:06:11.14	119.73	20.44	
2025-01-11 07:06:12.37	120.05	20.35	
2025-01-11 07:06:13.61	120.37	20.26	
2025-01-11 07:06:14.84	120.68	20.17	
2025-01-11 07:06:16.07	121.00	20.08	
2025-01-11 07:06:17.30	121.31	19.99	
2025-01-11 07:06:18.53	121.62	19.90	
2025-01-11 07:06:19.76	121.93	19.81	
2025-01-11 07:06:20.99	122.24	19.72	
2025-01-11 07:06:22.22	122.54	19.62	
2025-01-11 07:06:23.46	122.85	19.53	
2025-01-11 07:06:24.69	123.15	19.44	
2025-01-11 07:06:25.91	123.44	19.35	
2025-01-11 07:06:27.16	123.74	19.25	
2025-01-11 07:06:28.39	124.04	19.16	
2025-01-11 07:06:29.62	124.33	19.06	
2025-01-11 07:06:30.85	124.63	18.97	
2025-01-11 07:06:32.08	124.92	18.87	
2025-01-11 07:06:33.31	125.20	18.78	
2025-01-11 07:06:34.56	125.49	18.68	
2025-01-11 07:06:35.79	125.78	18.59	
2025-01-11 07:06:37.02	126.06	18.49	
2025-01-11 07:06:38.26	126.34	18.39	
2025-01-11 07:06:39.49	126.62	18.30	
2025-01-11 07:06:40.72	126.90	18.20	
2025-01-11 07:06:41.95	127.17	18.10	
2025-01-11 07:06:43.19	127.45	18.01	
2025-01-11 07:06:44.41	127.72	17.91	
2025-01-11 07:06:45.64	127.99	17.81	
2025-01-11 07:06:46.87	128.26	17.72	
2025-01-11 07:06:48.10	128.52	17.62	
2025-01-11 07:06:49.33	128.79	17.52	
2025-01-11 07:06:50.56	129.05	17.42	
2025-01-11 07:06:51.81	129.31	17.32	
2025-01-11 07:06:53.04	129.57	17.23	
2025-01-11 07:06:54.27	129.83	17.13	
2025-01-11 07:06:55.50	130.09	17.03	
2025-01-11 07:06:56.74	130.34	16.93	
2025-01-11 07:06:57.98	130.60	16.83	
2025-01-11 07:06:59.22	130.85	16.73	
2025-01-11 07:07:00.46	131.10	16.63	
2025-01-11 07:07:01.69	131.35	16.53	
2025-01-11 07:07:02.93	131.59	16.43	
2025-01-11 07:07:04.15	131.84	16.34	
2025-01-11 07:07:05.39	132.08	16.24	
2025-01-11 07:07:06.63	132.32	16.14	
2025-01-11 07:07:07.86	132.56	16.04	
2025-01-11 07:07:09.10	132.80	15.94	
2025-01-11 07:07:10.33	133.04	15.84	
2025-01-11 07:07:11.56	133.27	15.74	
2025-01-11 07:07:12.79	133.50	15.64	
2025-01-11 07:07:14.02	133.73	15.54	
2025-01-11 07:07:15.25	133.96	15.45	
2025-01-11 07:07:16.48	134.19	15.35	
2025-01-11 07:07:17.71	134.42	15.25	
2025-01-11 07:07:18.94	134.64	15.15	
2025-01-11 07:07:20.17	134.86	15.05	
2025-01-11 07:07:21.40	135.08	14.95	
2025-01-11 07:07:22.65	135.31	14.85	
2025-01-11 07:07:23.87	135.52	14.76	
2025-01-11 07:07:25.12	135.74	14.66	
2025-01-11 07:07:26.35	135.96	14.56	
2025-01-11 07:07:27.58	136.17	14.46	
2025-01-11 07:07:28.83	136.39	14.36	
2025-01-11 07:07:30.06	136.60	14.26	
2025-01-11 07:07:31.29	136.81	14.16	
2025-01-11 07:07:32.52	137.02	14.07	
2025-01-11 07:07:33.75	137.23	13.97	
2025-01-11 07:07:34.98	137.43	13.87	
2025-01-11 07:07:36.23	137.64	13.77	
2025-01-11 07:07:37.47	137.84	13.68	
2025-01-11 07:07:38.70	138.04	13.58	
2025-01-11 07:07:39.93	138.24	13.48	
2025-01-11 07:07:41.18	138.45	13.38	
2025-01-11 07:07:42.42	138.64	13.29	
2025-01-11 07:07:43.66	138.84	13.19	
2025-01-11 07:07:44.89	139.04	13.09	
2025-01-11 07:07:46.13	139.23	12.99	
2025-01-11 07:07:47.36	139.42	12.90	
2025-01-11 07:07:48.61	139.62	12.80	
2025-01-11 07:07:49.84	139.81	12.70	
2025-01-11 07:07:51.07	139.99	12.61	
2025-01-11 07:07:52.31	140.18	12.51	
2025-01-11 07:07:53.54	140.37	12.42	
2025-01-11 07:07:54.77	140.55	12.32	
2025-01-11 07:07:56.00	140.73	12.23	
2025-01-11 07:07:57.25	140.92	12.13	
2025-01-11 07:07:58.48	141.10	12.04	
2025-01-11 07:07:59.71	141.28	11.94	
2025-01-11 07:08:00.95	141.46	11.85	
2025-01-11 07:08:02.18	141.63	11.75	
2025-01-11 07:08:03.42	141.81	11.66	
2025-01-11 07:08:04.65	141.99	11.56	
2025-01-11 07:08:05.88	142.16	11.47	
2025-01-11 07:08:07.12	142.33	11.37	
2025-01-11 07:08:08.34	142.50	11.28	
2025-01-11 07:08:09.57	142.67	11.19	
2025-01-11 07:08:10.81	142.84	11.10	
2025-01-11 07:08:12.04	143.01	11.00	
2025-01-11 07:08:13.27	143.18	10.91	
2025-01-11 07:08:14.50	143.34	10.82	
2025-01-11 07:08:15.73	143.51	10.73	
2025-01-11 07:08:16.96	143.67	10.63	
2025-01-11 07:08:18.19	143.83	10.54	
2025-01-11 07:08:19.42	143.99	10.45	
2025-01-11 07:08:20.66	144.16	10.36	
2025-01-11 07:08:21.90	144.32	10.27	
2025-01-11 07:08:23.13	144.47	10.17	
2025-01-11 07:08:24.38	144.63	10.08	
2025-01-11 07:08:25.60	144.79	9.99	
2025-01-11 07:08:26.84	144.95	9.90	
2025-01-11 07:08:28.07	145.10	9.81	
2025-01-11 07:08:29.30	145.25	9.72	
2025-01-11 07:08:30.53	145.40	9.63	
2025-01-11 07:08:31.76	145.56	9.54	
2025-01-11 07:08:32.99	145.71	9.45	
2025-01-11 07:08:34.22	145.85	9.36	
2025-01-11 07:08:35.46	146.00	9.27	
2025-01-11 07:08:36.69	146.15	9.18	
2025-01-11 07:08:37.92	146.30	9.09	
2025-01-11 07:08:39.15	146.44	9.01	
2025-01-11 07:08:40.37	146.59	8.92	
2025-01-11 07:08:41.61	146.73	8.83	
2025-01-11 07:08:42.83	146.87	8.74	
2025-01-11 07:08:44.07	147.02	8.65	
2025-01-11 07:08:45.31	147.16	8.56	
2025-01-11 07:08:46.56	147.30	8.48	
2025-01-11 07:08:47.79	147.44	8.39	
2025-01-11 07:08:49.02	147.58	8.30	
2025-01-11 07:08:50.24	147.71	8.22	
2025-01-11 07:08:51.48	147.85	8.13	
2025-01-11 07:08:52.71	147.99	8.04	
2025-01-11 07:08:53.94	148.12	7.96	
2025-01-11 07:08:55.17	148.26	7.87	
2025-01-11 07:08:56.41	148.39	7.78	
2025-01-11 07:08:57.64	148.52	7.70	
2025-01-11 07:08:58.88	148.66	7.61	
2025-01-11 07:09:00.11	148.79	7.53	
2025-01-11 07:09:01.34	148.92	7.44	
2025-01-11 07:09:02.57	149.05	7.36	
2025-01-11 07:09:03.80	149.17	7.27	
2025-01-11 07:09:05.03	149.30	7.19	
2025-01-11 07:09:06.26	149.43	7.10	
2025-01-11 07:09:07.49	149.55	7.02	
2025-01-11 07:09:08.71	149.68	6.94	
2025-01-11 07:09:09.94	149.80	6.85	
2025-01-11 07:09:11.18	149.93	6.77	
2025-01-11 07:09:12.40	150.05	6.69	
2025-01-11 07:09:13.63	150.17	6.60	
2025-01-11 07:09:14.86	150.29	6.52	
2025-01-11 07:09:16.09	150.42	6.44	
2025-01-11 07:09:17.32	150.54	6.36	
2025-01-11 07:09:18.56	150.66	6.27	
2025-01-11 07:09:19.79	150.77	6.19	
2025-01-11 07:09:21.02	150.89	6.11	
2025-01-11 07:09:22.26	151.01	6.03	
2025-01-11 07:09:23.51	151.13	5.94	
2025-01-11 07:09:24.76	151.25	5.86	
2025-01-11 07:09:25.98	151.36	5.78	
2025-01-11 07:09:27.22	151.48	5.70	
2025-01-11 07:09:28.44	151.59	5.62	
2025-01-11 07:09:29.67	151.70	5.54	
2025-01-11 07:09:30.91	151.82	5.46	
2025-01-11 07:09:32.14	151.93	5.38	
2025-01-11 07:09:33.37	152.04	5.30	
2025-01-11 07:09:34.62	152.15	5.22	
2025-01-11 07:09:35.86	152.27	5.14	
2025-01-11 07:09:37.08	152.37	5.06	
2025-01-11 07:09:38.31	152.48	4.98	
2025-01-11 07:09:39.56	152.59	4.90	
2025-01-11 07:09:40.79	152.70	4.82	
2025-01-11 07:09:42.02	152.81	4.74	
2025-01-11 07:09:43.25	152.91	4.66	
2025-01-11 07:09:44.48	153.02	4.58	
2025-01-11 07:09:45.71	153.13	4.51	
2025-01-11 07:09:46.94	153.23	4.43	
2025-01-11 07:09:48.17	153.33	4.35	
2025-01-11 07:09:49.40	153.44	4.27	
2025-01-11 07:09:50.63	153.54	4.20	
2025-01-11 07:09:51.86	153.64	4.12	
2025-01-11 07:09:53.09	153.75	4.04	

#Closed at: 2025-01-11 07:09:53