passes_logs/2025/01/11/SPB_Silybum_02/SPB_Silybum_02__20250111_181306_TERRA_rec.log

#Pass ID: 20250111_181306_TERRA
#Satellite: TERRA
#Configuration: TERRA
#Start time: 2025-01-11 18:13:06

#Version: 2.0.20230423
#Station: SPB_Silybum_02
#Location: 30.233357 lon 59.946436 lat
#TLE: 1 25994U 99068A   25010.80464720  .00000833  00000+0  18136-3 0  9995
#TLE: 2 25994  98.0224  73.9683 0003536  80.9361 344.1935 14.60387279333461

#Time	Az	El	Level	Level2	SNR	BER	Gain	Gain2
2025-01-11 18:13:08.54	151.80	4.19	
2025-01-11 18:13:09.78	151.78	4.28	
2025-01-11 18:13:11.02	151.77	4.37	
2025-01-11 18:13:12.25	151.75	4.46	
2025-01-11 18:13:13.48	151.73	4.55	
2025-01-11 18:13:14.71	151.72	4.64	
2025-01-11 18:13:15.94	151.70	4.73	
2025-01-11 18:13:17.18	151.68	4.82	
2025-01-11 18:13:18.40	151.66	4.91	
2025-01-11 18:13:19.65	151.65	5.01	
2025-01-11 18:13:20.89	151.63	5.10	
2025-01-11 18:13:22.12	151.61	5.19	
2025-01-11 18:13:23.36	151.59	5.29	
2025-01-11 18:13:24.60	151.57	5.38	
2025-01-11 18:13:25.83	151.56	5.47	
2025-01-11 18:13:27.06	151.54	5.57	
2025-01-11 18:13:28.29	151.52	5.66	
2025-01-11 18:13:29.52	151.50	5.76	
2025-01-11 18:13:30.76	151.48	5.85	
2025-01-11 18:13:31.99	151.46	5.95	
2025-01-11 18:13:33.22	151.44	6.04	
2025-01-11 18:13:34.45	151.42	6.14	
2025-01-11 18:13:35.68	151.40	6.24	
2025-01-11 18:13:36.91	151.39	6.34	
2025-01-11 18:13:38.14	151.37	6.43	
2025-01-11 18:13:39.37	151.35	6.53	
2025-01-11 18:13:40.60	151.33	6.63	
2025-01-11 18:13:41.84	151.30	6.73	
2025-01-11 18:13:43.07	151.28	6.83	
2025-01-11 18:13:44.30	151.26	6.93	
2025-01-11 18:13:45.53	151.24	7.03	
2025-01-11 18:13:46.76	151.22	7.13	
2025-01-11 18:13:47.99	151.20	7.23	
2025-01-11 18:13:49.24	151.18	7.33	
2025-01-11 18:13:50.47	151.16	7.44	
2025-01-11 18:13:51.70	151.14	7.54	
2025-01-11 18:13:52.93	151.11	7.64	
2025-01-11 18:13:54.16	151.09	7.74	
2025-01-11 18:13:55.39	151.07	7.85	
2025-01-11 18:13:56.62	151.05	7.95	
2025-01-11 18:13:57.85	151.02	8.06	
2025-01-11 18:13:59.08	151.00	8.16	
2025-01-11 18:14:00.30	150.98	8.27	
2025-01-11 18:14:01.53	150.95	8.37	
2025-01-11 18:14:02.77	150.93	8.48	
2025-01-11 18:14:04.00	150.91	8.59	
2025-01-11 18:14:05.23	150.88	8.70	
2025-01-11 18:14:06.46	150.86	8.80	
2025-01-11 18:14:07.69	150.83	8.91	
2025-01-11 18:14:08.92	150.81	9.02	
2025-01-11 18:14:10.15	150.78	9.13	
2025-01-11 18:14:11.38	150.76	9.24	
2025-01-11 18:14:12.61	150.73	9.35	
2025-01-11 18:14:13.84	150.71	9.46	
2025-01-11 18:14:15.07	150.68	9.58	
2025-01-11 18:14:16.30	150.66	9.69	
2025-01-11 18:14:17.55	150.63	9.80	
2025-01-11 18:14:18.78	150.60	9.92	
2025-01-11 18:14:20.02	150.58	10.03	
2025-01-11 18:14:21.26	150.55	10.15	
2025-01-11 18:14:22.49	150.52	10.26	
2025-01-11 18:14:23.72	150.49	10.38	
2025-01-11 18:14:24.94	150.46	10.49	
2025-01-11 18:14:26.18	150.44	10.61	
2025-01-11 18:14:27.41	150.41	10.73	
2025-01-11 18:14:28.64	150.38	10.85	
2025-01-11 18:14:29.88	150.35	10.97	
2025-01-11 18:14:31.13	150.32	11.09	
2025-01-11 18:14:32.36	150.29	11.21	
2025-01-11 18:14:33.59	150.26	11.33	
2025-01-11 18:14:34.82	150.23	11.45	
2025-01-11 18:14:36.05	150.20	11.58	
2025-01-11 18:14:37.28	150.17	11.70	
2025-01-11 18:14:38.51	150.14	11.82	
2025-01-11 18:14:39.75	150.11	11.95	
2025-01-11 18:14:40.98	150.07	12.07	
2025-01-11 18:14:42.21	150.04	12.20	
2025-01-11 18:14:43.45	150.01	12.33	
2025-01-11 18:14:44.70	149.98	12.46	
2025-01-11 18:14:45.93	149.94	12.58	
2025-01-11 18:14:47.18	149.91	12.72	
2025-01-11 18:14:48.40	149.87	12.84	
2025-01-11 18:14:49.63	149.84	12.97	
2025-01-11 18:14:50.86	149.81	13.10	
2025-01-11 18:14:52.10	149.77	13.24	
2025-01-11 18:14:53.33	149.74	13.37	
2025-01-11 18:14:54.57	149.70	13.50	
2025-01-11 18:14:55.80	149.66	13.64	
2025-01-11 18:14:57.03	149.63	13.77	
2025-01-11 18:14:58.26	149.59	13.91	
2025-01-11 18:14:59.49	149.55	14.05	
2025-01-11 18:15:00.72	149.52	14.18	
2025-01-11 18:15:01.96	149.48	14.32	
2025-01-11 18:15:03.18	149.44	14.46	
2025-01-11 18:15:04.41	149.40	14.60	
2025-01-11 18:15:05.64	149.36	14.74	
2025-01-11 18:15:06.88	149.32	14.89	
2025-01-11 18:15:08.10	149.28	15.03	
2025-01-11 18:15:09.33	149.24	15.17	
2025-01-11 18:15:10.57	149.20	15.32	
2025-01-11 18:15:11.80	149.16	15.46	
2025-01-11 18:15:13.03	149.12	15.61	
2025-01-11 18:15:14.26	149.07	15.76	
2025-01-11 18:15:15.49	149.03	15.90	
2025-01-11 18:15:16.72	148.99	16.05	
2025-01-11 18:15:17.96	148.94	16.21	
2025-01-11 18:15:19.19	148.90	16.36	
2025-01-11 18:15:20.43	148.85	16.51	
2025-01-11 18:15:21.66	148.81	16.66	
2025-01-11 18:15:22.89	148.76	16.82	
2025-01-11 18:15:24.12	148.71	16.97	
2025-01-11 18:15:25.35	148.67	17.13	
2025-01-11 18:15:26.58	148.62	17.29	
2025-01-11 18:15:27.83	148.57	17.45	
2025-01-11 18:15:29.06	148.52	17.61	
2025-01-11 18:15:30.29	148.47	17.77	
2025-01-11 18:15:31.52	148.42	17.93	
2025-01-11 18:15:32.76	148.37	18.10	
2025-01-11 18:15:33.99	148.32	18.26	
2025-01-11 18:15:35.21	148.27	18.43	
2025-01-11 18:15:36.44	148.21	18.59	
2025-01-11 18:15:37.69	148.16	18.77	
2025-01-11 18:15:38.92	148.11	18.94	
2025-01-11 18:15:40.15	148.05	19.11	
2025-01-11 18:15:41.38	148.00	19.28	
2025-01-11 18:15:42.61	147.94	19.45	
2025-01-11 18:15:43.84	147.88	19.63	
2025-01-11 18:15:45.07	147.83	19.80	
2025-01-11 18:15:46.30	147.77	19.98	
2025-01-11 18:15:47.53	147.71	20.16	
2025-01-11 18:15:48.78	147.65	20.34	
2025-01-11 18:15:50.01	147.59	20.52	
2025-01-11 18:15:51.24	147.53	20.70	
2025-01-11 18:15:52.47	147.46	20.89	
2025-01-11 18:15:53.70	147.40	21.07	
2025-01-11 18:15:54.93	147.34	21.26	
2025-01-11 18:15:56.16	147.27	21.45	
2025-01-11 18:15:57.39	147.21	21.64	
2025-01-11 18:15:58.62	147.14	21.83	
2025-01-11 18:15:59.85	147.07	22.03	
2025-01-11 18:16:01.09	147.00	22.22	
2025-01-11 18:16:02.33	146.93	22.42	
2025-01-11 18:16:03.55	146.86	22.62	
2025-01-11 18:16:04.78	146.79	22.82	
2025-01-11 18:16:06.01	146.72	23.02	
2025-01-11 18:16:07.24	146.65	23.22	
2025-01-11 18:16:08.48	146.57	23.43	
2025-01-11 18:16:09.71	146.49	23.63	
2025-01-11 18:16:10.94	146.42	23.84	
2025-01-11 18:16:12.17	146.34	24.05	
2025-01-11 18:16:13.41	146.26	24.26	
2025-01-11 18:16:14.64	146.18	24.48	
2025-01-11 18:16:15.87	146.10	24.69	
2025-01-11 18:16:17.10	146.02	24.91	
2025-01-11 18:16:18.33	145.93	25.13	
2025-01-11 18:16:19.57	145.85	25.35	
2025-01-11 18:16:20.81	145.76	25.58	
2025-01-11 18:16:22.04	145.67	25.80	
2025-01-11 18:16:23.26	145.58	26.03	
2025-01-11 18:16:24.50	145.49	26.26	
2025-01-11 18:16:25.73	145.40	26.49	
2025-01-11 18:16:26.96	145.31	26.72	
2025-01-11 18:16:28.19	145.21	26.96	
2025-01-11 18:16:29.43	145.12	27.19	
2025-01-11 18:16:30.66	145.02	27.43	
2025-01-11 18:16:31.89	144.92	27.68	
2025-01-11 18:16:33.12	144.82	27.92	
2025-01-11 18:16:34.35	144.72	28.16	
2025-01-11 18:16:35.58	144.61	28.41	
2025-01-11 18:16:36.81	144.50	28.66	
2025-01-11 18:16:38.04	144.40	28.92	
2025-01-11 18:16:39.27	144.29	29.17	
2025-01-11 18:16:40.50	144.17	29.43	
2025-01-11 18:16:41.73	144.06	29.69	
2025-01-11 18:16:42.97	143.94	29.95	
2025-01-11 18:16:44.20	143.83	30.22	
2025-01-11 18:16:45.42	143.71	30.48	
2025-01-11 18:16:46.65	143.59	30.75	
2025-01-11 18:16:47.88	143.46	31.02	
2025-01-11 18:16:49.12	143.34	31.30	
2025-01-11 18:16:50.34	143.21	31.58	
2025-01-11 18:16:51.57	143.08	31.86	
2025-01-11 18:16:52.81	142.94	32.14	
2025-01-11 18:16:54.05	142.81	32.43	
2025-01-11 18:16:55.29	142.67	32.72	
2025-01-11 18:16:56.51	142.53	33.01	
2025-01-11 18:16:57.74	142.38	33.30	
2025-01-11 18:16:58.99	142.23	33.61	
2025-01-11 18:17:00.22	142.08	33.91	
2025-01-11 18:17:01.45	141.93	34.21	
2025-01-11 18:17:02.68	141.78	34.51	
2025-01-11 18:17:03.91	141.62	34.82	
2025-01-11 18:17:05.14	141.46	35.13	
2025-01-11 18:17:06.37	141.29	35.45	
2025-01-11 18:17:07.60	141.12	35.76	
2025-01-11 18:17:08.83	140.95	36.09	
2025-01-11 18:17:10.06	140.78	36.41	
2025-01-11 18:17:11.30	140.59	36.74	
2025-01-11 18:17:12.53	140.41	37.07	
2025-01-11 18:17:13.78	140.22	37.41	
2025-01-11 18:17:15.00	140.03	37.74	
2025-01-11 18:17:16.24	139.84	38.08	
2025-01-11 18:17:17.47	139.64	38.43	
2025-01-11 18:17:18.70	139.43	38.77	
2025-01-11 18:17:19.93	139.23	39.12	
2025-01-11 18:17:21.16	139.01	39.47	
2025-01-11 18:17:22.40	138.79	39.83	
2025-01-11 18:17:23.63	138.57	40.19	
2025-01-11 18:17:24.86	138.34	40.56	
2025-01-11 18:17:26.09	138.11	40.92	
2025-01-11 18:17:27.33	137.87	41.29	
2025-01-11 18:17:28.56	137.62	41.67	
2025-01-11 18:17:29.80	137.37	42.05	
2025-01-11 18:17:31.03	137.11	42.43	
2025-01-11 18:17:32.26	136.85	42.81	
2025-01-11 18:17:33.49	136.58	43.20	
2025-01-11 18:17:34.72	136.30	43.59	
2025-01-11 18:17:35.95	136.02	43.98	
2025-01-11 18:17:37.18	135.73	44.38	
2025-01-11 18:17:38.42	135.43	44.78	
2025-01-11 18:17:39.65	135.12	45.19	
2025-01-11 18:17:40.88	134.81	45.59	
2025-01-11 18:17:42.11	134.48	46.00	
2025-01-11 18:17:43.34	134.15	46.42	
2025-01-11 18:17:44.59	133.81	46.84	
2025-01-11 18:17:45.82	133.46	47.26	
2025-01-11 18:17:47.04	133.10	47.68	
2025-01-11 18:17:48.28	132.72	48.11	
2025-01-11 18:17:49.52	132.34	48.55	
2025-01-11 18:17:50.76	131.95	48.98	
2025-01-11 18:17:51.99	131.54	49.42	
2025-01-11 18:17:53.22	131.13	49.86	
2025-01-11 18:17:54.45	130.70	50.30	
2025-01-11 18:17:55.68	130.26	50.74	
2025-01-11 18:17:56.91	129.80	51.19	
2025-01-11 18:17:58.15	129.33	51.64	
2025-01-11 18:17:59.37	128.85	52.09	
2025-01-11 18:18:00.60	128.35	52.55	
2025-01-11 18:18:01.83	127.84	53.00	
2025-01-11 18:18:03.07	127.30	53.46	
2025-01-11 18:18:04.30	126.75	53.92	
2025-01-11 18:18:05.53	126.19	54.38	
2025-01-11 18:18:06.77	125.60	54.85	
2025-01-11 18:18:08.01	124.99	55.32	
2025-01-11 18:18:09.24	124.36	55.78	
2025-01-11 18:18:10.47	123.72	56.25	
2025-01-11 18:18:11.70	123.05	56.71	
2025-01-11 18:18:12.95	122.34	57.19	
2025-01-11 18:18:14.18	121.63	57.65	
2025-01-11 18:18:15.41	120.88	58.12	
2025-01-11 18:18:16.64	120.12	58.58	
2025-01-11 18:18:17.89	119.31	59.05	
2025-01-11 18:18:19.13	118.47	59.52	
2025-01-11 18:18:20.36	117.62	59.98	
2025-01-11 18:18:21.59	116.73	60.43	
2025-01-11 18:18:22.83	115.80	60.89	
2025-01-11 18:18:24.06	114.85	61.34	
2025-01-11 18:18:25.28	113.87	61.78	
2025-01-11 18:18:26.52	112.83	62.23	
2025-01-11 18:18:27.75	111.77	62.66	
2025-01-11 18:18:28.98	110.67	63.09	
2025-01-11 18:18:30.22	109.51	63.52	
2025-01-11 18:18:31.45	108.33	63.94	
2025-01-11 18:18:32.68	107.10	64.35	
2025-01-11 18:18:33.91	105.83	64.75	
2025-01-11 18:18:35.14	104.51	65.14	
2025-01-11 18:18:36.37	103.14	65.52	
2025-01-11 18:18:37.62	101.71	65.89	
2025-01-11 18:18:38.85	100.25	66.25	
2025-01-11 18:18:40.09	98.73	66.60	
2025-01-11 18:18:41.34	97.14	66.93	
2025-01-11 18:18:42.58	95.52	67.25	
2025-01-11 18:18:43.82	93.85	67.55	
2025-01-11 18:18:45.04	92.16	67.83	
2025-01-11 18:18:46.29	90.38	68.10	
2025-01-11 18:18:47.52	88.58	68.34	
2025-01-11 18:18:48.76	86.73	68.57	
2025-01-11 18:18:49.99	84.85	68.78	
2025-01-11 18:18:51.22	82.93	68.96	
2025-01-11 18:18:52.44	81.00	69.12	
2025-01-11 18:18:53.69	78.98	69.26	
2025-01-11 18:18:54.92	76.97	69.38	
2025-01-11 18:18:56.15	74.94	69.47	
2025-01-11 18:18:57.38	72.89	69.54	
2025-01-11 18:18:58.61	70.83	69.58	
2025-01-11 18:18:59.84	68.76	69.60	
2025-01-11 18:19:01.07	66.69	69.60	
2025-01-11 18:19:02.30	64.63	69.57	
2025-01-11 18:19:03.53	62.57	69.51	
2025-01-11 18:19:04.77	60.52	69.43	
2025-01-11 18:19:06.00	58.50	69.33	
2025-01-11 18:19:07.24	56.48	69.20	
2025-01-11 18:19:08.47	54.52	69.05	
2025-01-11 18:19:09.70	52.58	68.87	
2025-01-11 18:19:10.93	50.68	68.68	
2025-01-11 18:19:12.17	48.81	68.46	
2025-01-11 18:19:13.41	46.98	68.23	
2025-01-11 18:19:14.64	45.20	67.97	
2025-01-11 18:19:15.87	43.48	67.70	
2025-01-11 18:19:17.10	41.80	67.41	
2025-01-11 18:19:18.34	40.15	67.10	
2025-01-11 18:19:19.57	38.57	66.78	
2025-01-11 18:19:20.80	37.03	66.44	
2025-01-11 18:19:22.03	35.55	66.10	
2025-01-11 18:19:23.26	34.11	65.73	
2025-01-11 18:19:24.49	32.72	65.36	
2025-01-11 18:19:25.73	31.36	64.97	
2025-01-11 18:19:26.97	30.06	64.58	
2025-01-11 18:19:28.20	28.81	64.17	
2025-01-11 18:19:29.43	27.60	63.76	
2025-01-11 18:19:30.66	26.43	63.34	
2025-01-11 18:19:31.89	25.31	62.92	
2025-01-11 18:19:33.12	24.22	62.48	
2025-01-11 18:19:34.36	23.17	62.04	
2025-01-11 18:19:35.60	22.15	61.60	
2025-01-11 18:19:36.83	21.18	61.15	
2025-01-11 18:19:38.06	20.25	60.70	
2025-01-11 18:19:39.29	19.34	60.25	
2025-01-11 18:19:40.52	18.47	59.79	
2025-01-11 18:19:41.75	17.63	59.33	
2025-01-11 18:19:42.98	16.82	58.87	
2025-01-11 18:19:44.23	16.02	58.40	
2025-01-11 18:19:45.46	15.26	57.94	
2025-01-11 18:19:46.69	14.53	57.47	
2025-01-11 18:19:47.92	13.83	57.01	
2025-01-11 18:19:49.15	13.15	56.54	
2025-01-11 18:19:50.38	12.49	56.08	
2025-01-11 18:19:51.63	11.84	55.61	
2025-01-11 18:19:52.86	11.23	55.15	
2025-01-11 18:19:54.09	10.63	54.69	
2025-01-11 18:19:55.32	10.05	54.22	
2025-01-11 18:19:56.55	9.50	53.77	
2025-01-11 18:19:57.78	8.96	53.31	
2025-01-11 18:19:59.01	8.43	52.85	
2025-01-11 18:20:00.24	7.93	52.40	
2025-01-11 18:20:01.47	7.43	51.95	
2025-01-11 18:20:02.70	6.96	51.50	
2025-01-11 18:20:03.94	6.49	51.05	
2025-01-11 18:20:05.18	6.04	50.60	
2025-01-11 18:20:06.41	5.61	50.16	
2025-01-11 18:20:07.63	5.19	49.72	
2025-01-11 18:20:08.86	4.78	49.29	
2025-01-11 18:20:10.09	4.38	48.85	
2025-01-11 18:20:11.33	3.99	48.42	
2025-01-11 18:20:12.56	3.61	47.99	
2025-01-11 18:20:13.79	3.25	47.57	
2025-01-11 18:20:15.03	2.89	47.14	
2025-01-11 18:20:16.26	2.54	46.73	
2025-01-11 18:20:17.49	2.21	46.31	
2025-01-11 18:20:18.72	1.88	45.90	
2025-01-11 18:20:19.96	1.56	45.49	
2025-01-11 18:20:21.20	1.24	45.08	
2025-01-11 18:20:22.43	0.94	44.68	
2025-01-11 18:20:23.66	0.65	44.28	
2025-01-11 18:20:24.90	0.36	43.88	
2025-01-11 18:20:26.14	0.08	43.49	
2025-01-11 18:20:27.37	359.80	43.10	
2025-01-11 18:20:28.60	359.54	42.72	
2025-01-11 18:20:29.83	359.28	42.34	
2025-01-11 18:20:31.08	359.02	41.96	
2025-01-11 18:20:32.32	358.77	41.58	
2025-01-11 18:20:33.55	358.53	41.21	
2025-01-11 18:20:34.80	358.29	40.84	
2025-01-11 18:20:36.03	358.06	40.47	
2025-01-11 18:20:37.27	357.83	40.11	
2025-01-11 18:20:38.50	357.61	39.75	
2025-01-11 18:20:39.73	357.39	39.40	
2025-01-11 18:20:40.97	357.18	39.05	
2025-01-11 18:20:42.21	356.98	38.70	
2025-01-11 18:20:43.44	356.77	38.35	
2025-01-11 18:20:44.67	356.58	38.01	
2025-01-11 18:20:45.90	356.39	37.68	
2025-01-11 18:20:47.13	356.20	37.34	
2025-01-11 18:20:48.38	356.01	37.01	
2025-01-11 18:20:49.61	355.83	36.68	
2025-01-11 18:20:50.85	355.65	36.35	
2025-01-11 18:20:52.08	355.48	36.03	
2025-01-11 18:20:53.31	355.31	35.71	
2025-01-11 18:20:54.54	355.14	35.40	
2025-01-11 18:20:55.78	354.98	35.08	
2025-01-11 18:20:57.02	354.82	34.77	
2025-01-11 18:20:58.26	354.66	34.46	
2025-01-11 18:20:59.49	354.51	34.16	
2025-01-11 18:21:00.72	354.36	33.86	
2025-01-11 18:21:01.95	354.21	33.56	
2025-01-11 18:21:03.18	354.06	33.27	
2025-01-11 18:21:04.42	353.92	32.97	
2025-01-11 18:21:05.65	353.78	32.69	
2025-01-11 18:21:06.88	353.64	32.40	
2025-01-11 18:21:08.11	353.51	32.12	
2025-01-11 18:21:09.34	353.38	31.84	
2025-01-11 18:21:10.58	353.25	31.56	
2025-01-11 18:21:11.81	353.12	31.28	
2025-01-11 18:21:13.05	352.99	31.01	
2025-01-11 18:21:14.28	352.87	30.73	
2025-01-11 18:21:15.53	352.75	30.46	
2025-01-11 18:21:16.78	352.63	30.19	
2025-01-11 18:21:18.01	352.51	29.93	
2025-01-11 18:21:19.24	352.40	29.67	
2025-01-11 18:21:20.47	352.29	29.41	
2025-01-11 18:21:21.70	352.18	29.16	
2025-01-11 18:21:22.94	352.07	28.90	
2025-01-11 18:21:24.18	351.96	28.65	
2025-01-11 18:21:25.41	351.86	28.40	
2025-01-11 18:21:26.65	351.75	28.15	
2025-01-11 18:21:27.88	351.65	27.91	
2025-01-11 18:21:29.11	351.55	27.67	
2025-01-11 18:21:30.36	351.45	27.42	
2025-01-11 18:21:31.60	351.35	27.18	
2025-01-11 18:21:32.83	351.26	26.95	
2025-01-11 18:21:34.06	351.17	26.72	
2025-01-11 18:21:35.28	351.08	26.49	
2025-01-11 18:21:36.51	350.98	26.26	
2025-01-11 18:21:37.75	350.90	26.03	
2025-01-11 18:21:38.99	350.81	25.80	
2025-01-11 18:21:40.24	350.72	25.58	
2025-01-11 18:21:41.46	350.63	25.36	
2025-01-11 18:21:42.69	350.55	25.14	
2025-01-11 18:21:43.94	350.47	24.92	
2025-01-11 18:21:45.17	350.39	24.70	
2025-01-11 18:21:46.42	350.30	24.48	
2025-01-11 18:21:47.64	350.23	24.27	
2025-01-11 18:21:48.87	350.15	24.06	
2025-01-11 18:21:50.11	350.07	23.85	
2025-01-11 18:21:51.35	350.00	23.65	
2025-01-11 18:21:52.60	349.92	23.44	
2025-01-11 18:21:53.83	349.85	23.23	
2025-01-11 18:21:55.06	349.77	23.03	
2025-01-11 18:21:56.30	349.70	22.83	
2025-01-11 18:21:57.53	349.63	22.63	
2025-01-11 18:21:58.76	349.56	22.44	
2025-01-11 18:21:59.99	349.50	22.24	
2025-01-11 18:22:01.22	349.43	22.05	
2025-01-11 18:22:02.45	349.36	21.86	
2025-01-11 18:22:03.67	349.30	21.67	
2025-01-11 18:22:04.91	349.23	21.48	
2025-01-11 18:22:06.14	349.17	21.29	
2025-01-11 18:22:07.38	349.11	21.10	
2025-01-11 18:22:08.62	349.04	20.92	
2025-01-11 18:22:09.85	348.98	20.74	
2025-01-11 18:22:11.10	348.92	20.55	
2025-01-11 18:22:12.33	348.86	20.37	
2025-01-11 18:22:13.56	348.80	20.19	
2025-01-11 18:22:14.80	348.74	20.01	
2025-01-11 18:22:16.04	348.69	19.84	
2025-01-11 18:22:17.27	348.63	19.66	
2025-01-11 18:22:18.50	348.58	19.49	
2025-01-11 18:22:19.74	348.52	19.31	
2025-01-11 18:22:20.97	348.47	19.14	
2025-01-11 18:22:22.20	348.41	18.97	
2025-01-11 18:22:23.43	348.36	18.81	
2025-01-11 18:22:24.67	348.31	18.64	
2025-01-11 18:22:25.90	348.25	18.47	
2025-01-11 18:22:27.13	348.20	18.31	
2025-01-11 18:22:28.36	348.15	18.14	
2025-01-11 18:22:29.59	348.10	17.98	
2025-01-11 18:22:30.83	348.05	17.82	
2025-01-11 18:22:32.06	348.01	17.66	
2025-01-11 18:22:33.29	347.96	17.50	
2025-01-11 18:22:34.52	347.91	17.34	
2025-01-11 18:22:35.76	347.86	17.18	
2025-01-11 18:22:36.99	347.82	17.03	
2025-01-11 18:22:38.22	347.77	16.87	
2025-01-11 18:22:39.45	347.73	16.72	
2025-01-11 18:22:40.68	347.68	16.57	
2025-01-11 18:22:41.91	347.64	16.42	
2025-01-11 18:22:43.14	347.60	16.27	
2025-01-11 18:22:44.37	347.55	16.12	
2025-01-11 18:22:45.61	347.51	15.97	
2025-01-11 18:22:46.85	347.47	15.82	
2025-01-11 18:22:48.09	347.43	15.67	
2025-01-11 18:22:49.32	347.39	15.52	
2025-01-11 18:22:50.55	347.34	15.38	
2025-01-11 18:22:51.78	347.30	15.24	
2025-01-11 18:22:53.01	347.27	15.09	
2025-01-11 18:22:54.24	347.23	14.95	
2025-01-11 18:22:55.47	347.19	14.81	
2025-01-11 18:22:56.70	347.15	14.67	
2025-01-11 18:22:57.93	347.11	14.53	
2025-01-11 18:22:59.17	347.07	14.39	
2025-01-11 18:23:00.40	347.04	14.25	
2025-01-11 18:23:01.63	347.00	14.12	
2025-01-11 18:23:02.86	346.96	13.98	
2025-01-11 18:23:04.09	346.93	13.85	
2025-01-11 18:23:05.34	346.89	13.71	
2025-01-11 18:23:06.57	346.86	13.58	
2025-01-11 18:23:07.80	346.82	13.44	
2025-01-11 18:23:09.03	346.79	13.31	
2025-01-11 18:23:10.27	346.75	13.18	
2025-01-11 18:23:11.50	346.72	13.05	
2025-01-11 18:23:12.73	346.69	12.92	
2025-01-11 18:23:13.98	346.65	12.79	
2025-01-11 18:23:15.21	346.62	12.66	
2025-01-11 18:23:16.44	346.59	12.53	
2025-01-11 18:23:17.67	346.56	12.41	
2025-01-11 18:23:18.90	346.53	12.28	
2025-01-11 18:23:20.13	346.50	12.16	
2025-01-11 18:23:21.36	346.47	12.03	
2025-01-11 18:23:22.60	346.43	11.91	
2025-01-11 18:23:23.84	346.40	11.78	
2025-01-11 18:23:25.08	346.37	11.66	
2025-01-11 18:23:26.31	346.34	11.54	
2025-01-11 18:23:27.54	346.32	11.42	
2025-01-11 18:23:28.77	346.29	11.30	
2025-01-11 18:23:30.01	346.26	11.18	
2025-01-11 18:23:31.24	346.23	11.06	
2025-01-11 18:23:32.47	346.20	10.94	
2025-01-11 18:23:33.71	346.17	10.82	
2025-01-11 18:23:34.93	346.15	10.70	
2025-01-11 18:23:36.16	346.12	10.59	
2025-01-11 18:23:37.41	346.09	10.47	
2025-01-11 18:23:38.64	346.07	10.35	
2025-01-11 18:23:39.87	346.04	10.24	
2025-01-11 18:23:41.10	346.01	10.13	
2025-01-11 18:23:42.35	345.99	10.01	
2025-01-11 18:23:43.58	345.96	9.90	
2025-01-11 18:23:44.82	345.94	9.78	
2025-01-11 18:23:46.06	345.91	9.67	
2025-01-11 18:23:47.30	345.89	9.56	
2025-01-11 18:23:48.55	345.86	9.45	
2025-01-11 18:23:49.77	345.84	9.34	
2025-01-11 18:23:51.00	345.81	9.23	
2025-01-11 18:23:52.23	345.79	9.12	
2025-01-11 18:23:53.47	345.77	9.01	
2025-01-11 18:23:54.70	345.74	8.90	
2025-01-11 18:23:55.93	345.72	8.79	
2025-01-11 18:23:57.16	345.70	8.69	
2025-01-11 18:23:58.39	345.67	8.58	
2025-01-11 18:23:59.62	345.65	8.47	
2025-01-11 18:24:00.85	345.63	8.37	
2025-01-11 18:24:02.08	345.61	8.26	
2025-01-11 18:24:03.31	345.59	8.16	
2025-01-11 18:24:04.54	345.56	8.05	
2025-01-11 18:24:05.77	345.54	7.95	
2025-01-11 18:24:07.01	345.52	7.84	
2025-01-11 18:24:08.25	345.50	7.74	
2025-01-11 18:24:09.49	345.48	7.64	
2025-01-11 18:24:10.73	345.46	7.54	
2025-01-11 18:24:11.96	345.44	7.43	
2025-01-11 18:24:13.19	345.42	7.33	
2025-01-11 18:24:14.43	345.40	7.23	
2025-01-11 18:24:15.67	345.38	7.13	
2025-01-11 18:24:16.90	345.36	7.03	
2025-01-11 18:24:18.13	345.34	6.93	
2025-01-11 18:24:19.38	345.32	6.83	
2025-01-11 18:24:20.61	345.30	6.73	
2025-01-11 18:24:21.84	345.28	6.63	
2025-01-11 18:24:23.09	345.26	6.54	
2025-01-11 18:24:24.32	345.24	6.44	
2025-01-11 18:24:25.56	345.22	6.34	
2025-01-11 18:24:26.79	345.21	6.24	
2025-01-11 18:24:28.02	345.19	6.15	
2025-01-11 18:24:29.26	345.17	6.05	
2025-01-11 18:24:30.50	345.15	5.96	
2025-01-11 18:24:31.74	345.13	5.86	
2025-01-11 18:24:32.99	345.12	5.76	
2025-01-11 18:24:34.21	345.10	5.67	
2025-01-11 18:24:35.44	345.08	5.58	
2025-01-11 18:24:36.67	345.07	5.48	
2025-01-11 18:24:37.90	345.05	5.39	
2025-01-11 18:24:39.13	345.03	5.30	
2025-01-11 18:24:40.38	345.02	5.20	
2025-01-11 18:24:41.61	345.00	5.11	
2025-01-11 18:24:42.84	344.98	5.02	
2025-01-11 18:24:44.07	344.97	4.93	
2025-01-11 18:24:45.30	344.95	4.84	
2025-01-11 18:24:46.53	344.94	4.75	
2025-01-11 18:24:47.76	344.92	4.66	
2025-01-11 18:24:48.99	344.91	4.57	
2025-01-11 18:24:50.22	344.89	4.48	
2025-01-11 18:24:51.46	344.87	4.39	
2025-01-11 18:24:52.70	344.86	4.30	
2025-01-11 18:24:53.92	344.84	4.21	
2025-01-11 18:24:55.15	344.83	4.12	
2025-01-11 18:24:56.39	344.82	4.03	

#Closed at: 2025-01-11 18:24:57