passes_logs/2025/01/11/SPB_Silybum_02/SPB_Silybum_02__20250111_023514_AQUA_rec.log

#Pass ID: 20250111_023514_AQUA
#Satellite: AQUA
#Configuration: AQUA
#Start time: 2025-01-11 02:35:13

#Version: 2.0.20230423
#Station: SPB_Silybum_02
#Location: 30.233357 lon 59.946436 lat
#TLE: 1 27424U 02022A   25010.14776733  .00002050  00000+0  43097-3 0  9993
#TLE: 2 27424  98.3581 326.7682 0001515 116.0773 333.4276 14.60663937206917

#Time	Az	El	Level	Level2	SNR	BER	Gain	Gain2
2025-01-11 02:35:15.55	11.92	4.08	
2025-01-11 02:35:16.78	11.85	4.16	
2025-01-11 02:35:18.01	11.77	4.24	
2025-01-11 02:35:19.26	11.69	4.32	
2025-01-11 02:35:20.49	11.61	4.41	
2025-01-11 02:35:21.72	11.53	4.49	
2025-01-11 02:35:22.96	11.46	4.57	
2025-01-11 02:35:24.19	11.38	4.66	
2025-01-11 02:35:25.42	11.30	4.74	
2025-01-11 02:35:26.65	11.22	4.82	
2025-01-11 02:35:27.88	11.14	4.91	
2025-01-11 02:35:29.11	11.05	4.99	
2025-01-11 02:35:30.34	10.97	5.07	
2025-01-11 02:35:31.57	10.89	5.16	
2025-01-11 02:35:32.80	10.81	5.24	
2025-01-11 02:35:34.03	10.72	5.33	
2025-01-11 02:35:35.26	10.64	5.41	
2025-01-11 02:35:36.49	10.55	5.50	
2025-01-11 02:35:37.73	10.47	5.59	
2025-01-11 02:35:38.97	10.38	5.67	
2025-01-11 02:35:40.20	10.30	5.76	
2025-01-11 02:35:41.43	10.21	5.85	
2025-01-11 02:35:42.66	10.12	5.93	
2025-01-11 02:35:43.89	10.03	6.02	
2025-01-11 02:35:45.12	9.94	6.11	
2025-01-11 02:35:46.37	9.85	6.20	
2025-01-11 02:35:47.61	9.76	6.29	
2025-01-11 02:35:48.84	9.67	6.37	
2025-01-11 02:35:50.07	9.58	6.46	
2025-01-11 02:35:51.32	9.49	6.55	
2025-01-11 02:35:52.55	9.39	6.64	
2025-01-11 02:35:53.78	9.30	6.73	
2025-01-11 02:35:55.01	9.21	6.82	
2025-01-11 02:35:56.24	9.11	6.91	
2025-01-11 02:35:57.47	9.02	7.00	
2025-01-11 02:35:58.71	8.92	7.09	
2025-01-11 02:35:59.95	8.82	7.18	
2025-01-11 02:36:01.17	8.73	7.27	
2025-01-11 02:36:02.41	8.63	7.37	
2025-01-11 02:36:03.63	8.53	7.46	
2025-01-11 02:36:04.86	8.43	7.55	
2025-01-11 02:36:06.09	8.33	7.64	
2025-01-11 02:36:07.31	8.23	7.73	
2025-01-11 02:36:08.55	8.13	7.82	
2025-01-11 02:36:09.77	8.03	7.92	
2025-01-11 02:36:11.00	7.92	8.01	
2025-01-11 02:36:12.25	7.82	8.11	
2025-01-11 02:36:13.48	7.71	8.20	
2025-01-11 02:36:14.71	7.61	8.29	
2025-01-11 02:36:15.94	7.50	8.39	
2025-01-11 02:36:17.17	7.40	8.48	
2025-01-11 02:36:18.40	7.29	8.58	
2025-01-11 02:36:19.63	7.18	8.67	
2025-01-11 02:36:20.86	7.07	8.77	
2025-01-11 02:36:22.09	6.96	8.87	
2025-01-11 02:36:23.32	6.85	8.96	
2025-01-11 02:36:24.55	6.74	9.06	
2025-01-11 02:36:25.78	6.63	9.16	
2025-01-11 02:36:27.01	6.51	9.25	
2025-01-11 02:36:28.25	6.40	9.35	
2025-01-11 02:36:29.48	6.28	9.45	
2025-01-11 02:36:30.71	6.17	9.55	
2025-01-11 02:36:31.95	6.05	9.65	
2025-01-11 02:36:33.18	5.93	9.75	
2025-01-11 02:36:34.43	5.81	9.85	
2025-01-11 02:36:35.66	5.69	9.95	
2025-01-11 02:36:36.89	5.57	10.05	
2025-01-11 02:36:38.12	5.45	10.15	
2025-01-11 02:36:39.34	5.33	10.25	
2025-01-11 02:36:40.57	5.20	10.35	
2025-01-11 02:36:41.80	5.08	10.45	
2025-01-11 02:36:43.04	4.95	10.55	
2025-01-11 02:36:44.28	4.83	10.65	
2025-01-11 02:36:45.51	4.70	10.75	
2025-01-11 02:36:46.74	4.57	10.86	
2025-01-11 02:36:47.99	4.44	10.96	
2025-01-11 02:36:49.23	4.31	11.07	
2025-01-11 02:36:50.47	4.18	11.17	
2025-01-11 02:36:51.70	4.04	11.27	
2025-01-11 02:36:52.93	3.91	11.38	
2025-01-11 02:36:54.18	3.77	11.48	
2025-01-11 02:36:55.42	3.64	11.59	
2025-01-11 02:36:56.65	3.50	11.70	
2025-01-11 02:36:57.89	3.36	11.80	
2025-01-11 02:36:59.11	3.22	11.91	
2025-01-11 02:37:00.34	3.08	12.01	
2025-01-11 02:37:01.57	2.94	12.12	
2025-01-11 02:37:02.80	2.80	12.23	
2025-01-11 02:37:04.03	2.66	12.34	
2025-01-11 02:37:05.26	2.51	12.44	
2025-01-11 02:37:06.49	2.37	12.55	
2025-01-11 02:37:07.72	2.22	12.66	
2025-01-11 02:37:08.95	2.07	12.77	
2025-01-11 02:37:10.18	1.92	12.88	
2025-01-11 02:37:11.42	1.77	12.99	
2025-01-11 02:37:12.65	1.62	13.10	
2025-01-11 02:37:13.89	1.47	13.21	
2025-01-11 02:37:15.11	1.31	13.32	
2025-01-11 02:37:16.34	1.16	13.43	
2025-01-11 02:37:17.59	1.00	13.54	
2025-01-11 02:37:18.83	0.84	13.66	
2025-01-11 02:37:20.07	0.68	13.77	
2025-01-11 02:37:21.30	0.52	13.88	
2025-01-11 02:37:22.53	0.35	13.99	
2025-01-11 02:37:23.77	0.19	14.11	
2025-01-11 02:37:25.00	0.02	14.22	
2025-01-11 02:37:26.24	359.86	14.34	
2025-01-11 02:37:27.48	359.69	14.45	
2025-01-11 02:37:28.71	359.52	14.57	
2025-01-11 02:37:29.95	359.35	14.68	
2025-01-11 02:37:31.18	359.17	14.80	
2025-01-11 02:37:32.43	359.00	14.91	
2025-01-11 02:37:33.66	358.82	15.03	
2025-01-11 02:37:34.89	358.65	15.15	
2025-01-11 02:37:36.12	358.47	15.26	
2025-01-11 02:37:37.35	358.29	15.38	
2025-01-11 02:37:38.59	358.11	15.50	
2025-01-11 02:37:39.82	357.92	15.62	
2025-01-11 02:37:41.05	357.74	15.73	
2025-01-11 02:37:42.28	357.55	15.85	
2025-01-11 02:37:43.51	357.37	15.97	
2025-01-11 02:37:44.74	357.18	16.09	
2025-01-11 02:37:45.98	356.98	16.21	
2025-01-11 02:37:47.22	356.79	16.33	
2025-01-11 02:37:48.45	356.60	16.45	
2025-01-11 02:37:49.68	356.40	16.57	
2025-01-11 02:37:50.91	356.20	16.69	
2025-01-11 02:37:52.14	356.00	16.81	
2025-01-11 02:37:53.37	355.80	16.94	
2025-01-11 02:37:54.61	355.60	17.06	
2025-01-11 02:37:55.84	355.39	17.18	
2025-01-11 02:37:57.07	355.19	17.30	
2025-01-11 02:37:58.30	354.98	17.43	
2025-01-11 02:37:59.53	354.77	17.55	
2025-01-11 02:38:00.77	354.56	17.67	
2025-01-11 02:38:02.00	354.34	17.80	
2025-01-11 02:38:03.23	354.13	17.92	
2025-01-11 02:38:04.46	353.91	18.04	
2025-01-11 02:38:05.70	353.69	18.17	
2025-01-11 02:38:06.94	353.47	18.30	
2025-01-11 02:38:08.16	353.24	18.42	
2025-01-11 02:38:09.39	353.02	18.54	
2025-01-11 02:38:10.62	352.79	18.67	
2025-01-11 02:38:11.85	352.56	18.80	
2025-01-11 02:38:13.08	352.33	18.92	
2025-01-11 02:38:14.32	352.10	19.05	
2025-01-11 02:38:15.55	351.86	19.17	
2025-01-11 02:38:16.78	351.62	19.30	
2025-01-11 02:38:18.01	351.38	19.43	
2025-01-11 02:38:19.24	351.14	19.55	
2025-01-11 02:38:20.47	350.90	19.68	
2025-01-11 02:38:21.70	350.65	19.81	
2025-01-11 02:38:22.93	350.40	19.94	
2025-01-11 02:38:24.16	350.15	20.06	
2025-01-11 02:38:25.39	349.90	20.19	
2025-01-11 02:38:26.62	349.64	20.32	
2025-01-11 02:38:27.85	349.38	20.45	
2025-01-11 02:38:29.08	349.12	20.58	
2025-01-11 02:38:30.31	348.86	20.70	
2025-01-11 02:38:31.54	348.60	20.83	
2025-01-11 02:38:32.77	348.33	20.96	
2025-01-11 02:38:34.00	348.06	21.09	
2025-01-11 02:38:35.25	347.79	21.22	
2025-01-11 02:38:36.48	347.51	21.35	
2025-01-11 02:38:37.71	347.24	21.48	
2025-01-11 02:38:38.96	346.95	21.61	
2025-01-11 02:38:40.21	346.67	21.74	
2025-01-11 02:38:41.44	346.38	21.87	
2025-01-11 02:38:42.67	346.10	22.00	
2025-01-11 02:38:43.90	345.81	22.13	
2025-01-11 02:38:45.13	345.51	22.25	
2025-01-11 02:38:46.36	345.22	22.38	
2025-01-11 02:38:47.59	344.92	22.51	
2025-01-11 02:38:48.82	344.62	22.64	
2025-01-11 02:38:50.05	344.32	22.77	
2025-01-11 02:38:51.28	344.02	22.90	
2025-01-11 02:38:52.51	343.71	23.02	
2025-01-11 02:38:53.74	343.40	23.15	
2025-01-11 02:38:54.97	343.09	23.28	
2025-01-11 02:38:56.20	342.77	23.41	
2025-01-11 02:38:57.43	342.45	23.53	
2025-01-11 02:38:58.68	342.13	23.66	
2025-01-11 02:38:59.91	341.80	23.79	
2025-01-11 02:39:01.14	341.48	23.92	
2025-01-11 02:39:02.37	341.15	24.04	
2025-01-11 02:39:03.60	340.81	24.17	
2025-01-11 02:39:04.82	340.48	24.29	
2025-01-11 02:39:06.05	340.14	24.42	
2025-01-11 02:39:07.30	339.80	24.54	
2025-01-11 02:39:08.52	339.46	24.67	
2025-01-11 02:39:09.75	339.11	24.79	
2025-01-11 02:39:10.98	338.76	24.91	
2025-01-11 02:39:12.21	338.41	25.04	
2025-01-11 02:39:13.44	338.06	25.16	
2025-01-11 02:39:14.69	337.69	25.28	
2025-01-11 02:39:15.92	337.33	25.40	
2025-01-11 02:39:17.15	336.97	25.52	
2025-01-11 02:39:18.38	336.60	25.64	
2025-01-11 02:39:19.61	336.23	25.76	
2025-01-11 02:39:20.84	335.86	25.88	
2025-01-11 02:39:22.07	335.48	26.00	
2025-01-11 02:39:23.30	335.11	26.11	
2025-01-11 02:39:24.53	334.72	26.23	
2025-01-11 02:39:25.75	334.34	26.34	
2025-01-11 02:39:26.99	333.95	26.46	
2025-01-11 02:39:28.21	333.57	26.57	
2025-01-11 02:39:29.45	333.17	26.68	
2025-01-11 02:39:30.69	332.77	26.80	
2025-01-11 02:39:31.92	332.37	26.91	
2025-01-11 02:39:33.15	331.97	27.02	
2025-01-11 02:39:34.38	331.57	27.13	
2025-01-11 02:39:35.61	331.16	27.23	
2025-01-11 02:39:36.85	330.74	27.34	
2025-01-11 02:39:38.08	330.33	27.44	
2025-01-11 02:39:39.31	329.92	27.55	
2025-01-11 02:39:40.54	329.50	27.65	
2025-01-11 02:39:41.77	329.07	27.75	
2025-01-11 02:39:43.00	328.65	27.85	
2025-01-11 02:39:44.25	328.22	27.95	
2025-01-11 02:39:45.48	327.79	28.05	
2025-01-11 02:39:46.71	327.35	28.15	
2025-01-11 02:39:47.94	326.92	28.24	
2025-01-11 02:39:49.17	326.48	28.33	
2025-01-11 02:39:50.40	326.04	28.43	
2025-01-11 02:39:51.63	325.60	28.52	
2025-01-11 02:39:52.86	325.15	28.60	
2025-01-11 02:39:54.09	324.70	28.69	
2025-01-11 02:39:55.32	324.25	28.78	
2025-01-11 02:39:56.57	323.79	28.86	
2025-01-11 02:39:57.79	323.34	28.94	
2025-01-11 02:39:59.03	322.87	29.02	
2025-01-11 02:40:00.27	322.41	29.10	
2025-01-11 02:40:01.50	321.95	29.18	
2025-01-11 02:40:02.73	321.48	29.26	
2025-01-11 02:40:03.98	321.01	29.33	
2025-01-11 02:40:05.21	320.54	29.40	
2025-01-11 02:40:06.44	320.06	29.47	
2025-01-11 02:40:07.67	319.59	29.54	
2025-01-11 02:40:08.90	319.11	29.60	
2025-01-11 02:40:10.13	318.63	29.67	
2025-01-11 02:40:11.36	318.15	29.73	
2025-01-11 02:40:12.59	317.67	29.79	
2025-01-11 02:40:13.82	317.19	29.84	
2025-01-11 02:40:15.05	316.70	29.90	
2025-01-11 02:40:16.30	316.21	29.95	
2025-01-11 02:40:17.53	315.72	30.00	
2025-01-11 02:40:18.76	315.23	30.05	
2025-01-11 02:40:19.99	314.74	30.10	
2025-01-11 02:40:21.23	314.24	30.14	
2025-01-11 02:40:22.46	313.74	30.18	
2025-01-11 02:40:23.69	313.25	30.22	
2025-01-11 02:40:24.92	312.75	30.26	
2025-01-11 02:40:26.15	312.25	30.29	
2025-01-11 02:40:27.39	311.75	30.33	
2025-01-11 02:40:28.62	311.25	30.36	
2025-01-11 02:40:29.85	310.74	30.38	
2025-01-11 02:40:31.08	310.24	30.41	
2025-01-11 02:40:32.31	309.74	30.43	
2025-01-11 02:40:33.54	309.23	30.45	
2025-01-11 02:40:34.77	308.73	30.47	
2025-01-11 02:40:36.00	308.22	30.49	
2025-01-11 02:40:37.23	307.72	30.50	
2025-01-11 02:40:38.46	307.21	30.51	
2025-01-11 02:40:39.69	306.71	30.52	
2025-01-11 02:40:40.92	306.20	30.52	
2025-01-11 02:40:42.15	305.69	30.53	
2025-01-11 02:40:43.38	305.18	30.53	
2025-01-11 02:40:44.61	304.68	30.53	
2025-01-11 02:40:45.84	304.17	30.52	
2025-01-11 02:40:47.07	303.66	30.52	
2025-01-11 02:40:48.30	303.16	30.51	
2025-01-11 02:40:49.53	302.65	30.50	
2025-01-11 02:40:50.76	302.14	30.48	
2025-01-11 02:40:51.99	301.64	30.47	
2025-01-11 02:40:53.21	301.14	30.45	
2025-01-11 02:40:54.46	300.63	30.43	
2025-01-11 02:40:55.69	300.12	30.40	
2025-01-11 02:40:56.92	299.62	30.38	
2025-01-11 02:40:58.15	299.12	30.35	
2025-01-11 02:40:59.38	298.62	30.32	
2025-01-11 02:41:00.61	298.12	30.29	
2025-01-11 02:41:01.85	297.61	30.25	
2025-01-11 02:41:03.08	297.12	30.21	
2025-01-11 02:41:04.31	296.62	30.17	
2025-01-11 02:41:05.54	296.12	30.13	
2025-01-11 02:41:06.78	295.63	30.09	
2025-01-11 02:41:08.01	295.13	30.04	
2025-01-11 02:41:09.25	294.64	29.99	
2025-01-11 02:41:10.48	294.15	29.94	
2025-01-11 02:41:11.71	293.66	29.89	
2025-01-11 02:41:12.94	293.18	29.83	
2025-01-11 02:41:14.17	292.69	29.77	
2025-01-11 02:41:15.40	292.21	29.71	
2025-01-11 02:41:16.63	291.73	29.65	
2025-01-11 02:41:17.86	291.25	29.59	
2025-01-11 02:41:19.09	290.77	29.52	
2025-01-11 02:41:20.33	290.29	29.45	
2025-01-11 02:41:21.56	289.82	29.38	
2025-01-11 02:41:22.79	289.35	29.31	
2025-01-11 02:41:24.02	288.88	29.24	
2025-01-11 02:41:25.26	288.41	29.16	
2025-01-11 02:41:26.50	287.94	29.08	
2025-01-11 02:41:27.74	287.48	29.00	
2025-01-11 02:41:28.99	287.01	28.92	
2025-01-11 02:41:30.22	286.56	28.84	
2025-01-11 02:41:31.45	286.10	28.76	
2025-01-11 02:41:32.68	285.65	28.67	
2025-01-11 02:41:33.91	285.20	28.58	
2025-01-11 02:41:35.14	284.75	28.49	
2025-01-11 02:41:36.37	284.31	28.40	
2025-01-11 02:41:37.61	283.87	28.31	
2025-01-11 02:41:38.85	283.42	28.21	
2025-01-11 02:41:40.07	282.99	28.12	
2025-01-11 02:41:41.30	282.56	28.02	
2025-01-11 02:41:42.53	282.13	27.93	
2025-01-11 02:41:43.78	281.69	27.82	
2025-01-11 02:41:45.01	281.27	27.72	
2025-01-11 02:41:46.24	280.84	27.62	
2025-01-11 02:41:47.47	280.42	27.52	
2025-01-11 02:41:48.70	280.01	27.41	
2025-01-11 02:41:49.93	279.59	27.31	
2025-01-11 02:41:51.16	279.18	27.20	
2025-01-11 02:41:52.40	278.77	27.09	
2025-01-11 02:41:53.63	278.37	26.98	
2025-01-11 02:41:54.86	277.96	26.87	
2025-01-11 02:41:56.08	277.57	26.76	
2025-01-11 02:41:57.32	277.17	26.65	
2025-01-11 02:41:58.56	276.77	26.54	
2025-01-11 02:41:59.79	276.38	26.42	
2025-01-11 02:42:01.03	275.99	26.31	
2025-01-11 02:42:02.26	275.60	26.19	
2025-01-11 02:42:03.49	275.22	26.07	
2025-01-11 02:42:04.72	274.84	25.96	
2025-01-11 02:42:05.95	274.47	25.84	
2025-01-11 02:42:07.18	274.09	25.72	
2025-01-11 02:42:08.41	273.72	25.60	
2025-01-11 02:42:09.64	273.36	25.48	
2025-01-11 02:42:10.88	272.99	25.36	
2025-01-11 02:42:12.11	272.63	25.24	
2025-01-11 02:42:13.34	272.27	25.11	
2025-01-11 02:42:14.57	271.91	24.99	
2025-01-11 02:42:15.80	271.56	24.87	
2025-01-11 02:42:17.04	271.21	24.74	
2025-01-11 02:42:18.27	270.86	24.62	
2025-01-11 02:42:19.50	270.52	24.49	
2025-01-11 02:42:20.75	270.17	24.37	
2025-01-11 02:42:21.97	269.83	24.24	
2025-01-11 02:42:23.20	269.50	24.12	
2025-01-11 02:42:24.44	269.16	23.99	
2025-01-11 02:42:25.67	268.83	23.86	
2025-01-11 02:42:26.90	268.51	23.74	
2025-01-11 02:42:28.14	268.18	23.61	
2025-01-11 02:42:29.38	267.85	23.48	
2025-01-11 02:42:30.61	267.53	23.35	
2025-01-11 02:42:31.84	267.22	23.22	
2025-01-11 02:42:33.08	266.90	23.09	
2025-01-11 02:42:34.31	266.59	22.97	
2025-01-11 02:42:35.53	266.29	22.84	
2025-01-11 02:42:36.77	265.98	22.71	
2025-01-11 02:42:38.01	265.67	22.58	
2025-01-11 02:42:39.23	265.38	22.45	
2025-01-11 02:42:40.46	265.08	22.32	
2025-01-11 02:42:41.69	264.78	22.19	
2025-01-11 02:42:42.93	264.49	22.06	
2025-01-11 02:42:44.17	264.20	21.93	
2025-01-11 02:42:45.40	263.91	21.80	
2025-01-11 02:42:46.64	263.62	21.67	
2025-01-11 02:42:47.87	263.34	21.54	
2025-01-11 02:42:49.10	263.06	21.41	
2025-01-11 02:42:50.33	262.78	21.28	
2025-01-11 02:42:51.56	262.51	21.15	
2025-01-11 02:42:52.79	262.23	21.02	
2025-01-11 02:42:54.02	261.96	20.90	
2025-01-11 02:42:55.26	261.69	20.77	
2025-01-11 02:42:56.48	261.43	20.64	
2025-01-11 02:42:57.72	261.17	20.51	
2025-01-11 02:42:58.95	260.91	20.38	
2025-01-11 02:43:00.19	260.65	20.25	
2025-01-11 02:43:01.44	260.39	20.12	
2025-01-11 02:43:02.67	260.13	19.99	
2025-01-11 02:43:03.90	259.88	19.86	
2025-01-11 02:43:05.13	259.63	19.73	
2025-01-11 02:43:06.36	259.38	19.61	
2025-01-11 02:43:07.59	259.14	19.48	
2025-01-11 02:43:08.82	258.90	19.35	
2025-01-11 02:43:10.05	258.66	19.22	
2025-01-11 02:43:11.28	258.42	19.10	
2025-01-11 02:43:12.51	258.18	18.97	
2025-01-11 02:43:13.77	257.94	18.84	
2025-01-11 02:43:15.00	257.71	18.71	
2025-01-11 02:43:16.23	257.48	18.59	
2025-01-11 02:43:17.47	257.25	18.46	
2025-01-11 02:43:18.70	257.02	18.33	
2025-01-11 02:43:19.93	256.80	18.21	
2025-01-11 02:43:21.15	256.58	18.08	
2025-01-11 02:43:22.39	256.36	17.96	
2025-01-11 02:43:23.61	256.14	17.84	
2025-01-11 02:43:24.86	255.92	17.71	
2025-01-11 02:43:26.09	255.71	17.58	
2025-01-11 02:43:27.32	255.49	17.46	
2025-01-11 02:43:28.55	255.28	17.34	
2025-01-11 02:43:29.79	255.07	17.21	
2025-01-11 02:43:31.03	254.86	17.09	
2025-01-11 02:43:32.27	254.66	16.97	
2025-01-11 02:43:33.50	254.45	16.84	
2025-01-11 02:43:34.73	254.25	16.72	
2025-01-11 02:43:35.97	254.05	16.60	
2025-01-11 02:43:37.20	253.85	16.48	
2025-01-11 02:43:38.42	253.66	16.36	
2025-01-11 02:43:39.66	253.46	16.24	
2025-01-11 02:43:40.90	253.27	16.12	
2025-01-11 02:43:42.12	253.08	16.00	
2025-01-11 02:43:43.36	252.89	15.88	
2025-01-11 02:43:44.59	252.70	15.76	
2025-01-11 02:43:45.82	252.51	15.64	
2025-01-11 02:43:47.05	252.33	15.52	
2025-01-11 02:43:48.28	252.14	15.40	
2025-01-11 02:43:49.51	251.96	15.28	
2025-01-11 02:43:50.74	251.78	15.17	
2025-01-11 02:43:51.97	251.60	15.05	
2025-01-11 02:43:53.20	251.42	14.93	
2025-01-11 02:43:54.42	251.25	14.82	
2025-01-11 02:43:55.65	251.08	14.70	
2025-01-11 02:43:56.88	250.90	14.59	
2025-01-11 02:43:58.11	250.73	14.47	
2025-01-11 02:43:59.35	250.56	14.35	
2025-01-11 02:44:00.58	250.39	14.24	
2025-01-11 02:44:01.82	250.22	14.12	
2025-01-11 02:44:03.04	250.06	14.01	
2025-01-11 02:44:04.28	249.89	13.90	
2025-01-11 02:44:05.51	249.73	13.78	
2025-01-11 02:44:06.74	249.57	13.67	
2025-01-11 02:44:07.98	249.41	13.56	
2025-01-11 02:44:09.23	249.25	13.44	
2025-01-11 02:44:10.46	249.09	13.33	
2025-01-11 02:44:11.70	248.93	13.22	
2025-01-11 02:44:12.92	248.78	13.11	
2025-01-11 02:44:14.16	248.62	13.00	
2025-01-11 02:44:15.39	248.47	12.89	
2025-01-11 02:44:16.62	248.32	12.78	
2025-01-11 02:44:17.85	248.17	12.67	
2025-01-11 02:44:19.08	248.02	12.56	
2025-01-11 02:44:20.30	247.87	12.45	
2025-01-11 02:44:21.53	247.73	12.34	
2025-01-11 02:44:22.77	247.58	12.23	
2025-01-11 02:44:24.00	247.44	12.13	
2025-01-11 02:44:25.24	247.29	12.02	
2025-01-11 02:44:26.47	247.15	11.91	
2025-01-11 02:44:27.71	247.01	11.80	
2025-01-11 02:44:28.94	246.87	11.70	
2025-01-11 02:44:30.18	246.73	11.59	
2025-01-11 02:44:31.42	246.59	11.48	
2025-01-11 02:44:32.66	246.45	11.38	
2025-01-11 02:44:33.89	246.32	11.27	
2025-01-11 02:44:35.12	246.18	11.17	
2025-01-11 02:44:36.37	246.05	11.06	
2025-01-11 02:44:37.60	245.91	10.96	
2025-01-11 02:44:38.83	245.78	10.85	
2025-01-11 02:44:40.06	245.65	10.75	
2025-01-11 02:44:41.30	245.52	10.65	
2025-01-11 02:44:42.55	245.39	10.54	
2025-01-11 02:44:43.77	245.27	10.44	
2025-01-11 02:44:45.00	245.14	10.34	
2025-01-11 02:44:46.23	245.02	10.24	
2025-01-11 02:44:47.46	244.89	10.14	
2025-01-11 02:44:48.69	244.77	10.04	
2025-01-11 02:44:49.92	244.65	9.94	
2025-01-11 02:44:51.15	244.53	9.84	
2025-01-11 02:44:52.38	244.40	9.74	
2025-01-11 02:44:53.61	244.29	9.64	
2025-01-11 02:44:54.84	244.17	9.54	
2025-01-11 02:44:56.07	244.05	9.44	
2025-01-11 02:44:57.30	243.93	9.34	
2025-01-11 02:44:58.52	243.82	9.24	
2025-01-11 02:44:59.75	243.70	9.14	
2025-01-11 02:45:00.98	243.59	9.05	
2025-01-11 02:45:02.21	243.47	8.95	
2025-01-11 02:45:03.44	243.36	8.85	
2025-01-11 02:45:04.67	243.25	8.76	
2025-01-11 02:45:05.90	243.14	8.66	
2025-01-11 02:45:07.14	243.03	8.56	
2025-01-11 02:45:08.37	242.92	8.47	
2025-01-11 02:45:09.60	242.81	8.37	
2025-01-11 02:45:10.83	242.70	8.28	
2025-01-11 02:45:12.07	242.59	8.18	
2025-01-11 02:45:13.29	242.49	8.09	
2025-01-11 02:45:14.52	242.38	7.99	
2025-01-11 02:45:15.75	242.28	7.90	
2025-01-11 02:45:16.98	242.17	7.81	
2025-01-11 02:45:18.20	242.07	7.71	
2025-01-11 02:45:19.45	241.97	7.62	
2025-01-11 02:45:20.68	241.87	7.53	
2025-01-11 02:45:21.91	241.76	7.43	
2025-01-11 02:45:23.13	241.66	7.34	
2025-01-11 02:45:24.36	241.57	7.25	
2025-01-11 02:45:25.60	241.47	7.16	
2025-01-11 02:45:26.82	241.37	7.07	
2025-01-11 02:45:28.06	241.27	6.98	
2025-01-11 02:45:29.30	241.17	6.88	
2025-01-11 02:45:30.53	241.08	6.79	
2025-01-11 02:45:31.75	240.98	6.71	
2025-01-11 02:45:32.99	240.89	6.61	
2025-01-11 02:45:34.21	240.79	6.53	
2025-01-11 02:45:35.44	240.70	6.44	
2025-01-11 02:45:36.67	240.61	6.35	
2025-01-11 02:45:37.92	240.51	6.26	
2025-01-11 02:45:39.14	240.42	6.17	
2025-01-11 02:45:40.37	240.33	6.08	
2025-01-11 02:45:41.60	240.24	5.99	
2025-01-11 02:45:42.83	240.15	5.91	
2025-01-11 02:45:44.06	240.06	5.82	
2025-01-11 02:45:45.30	239.97	5.73	
2025-01-11 02:45:46.52	239.88	5.64	
2025-01-11 02:45:47.75	239.80	5.56	
2025-01-11 02:45:48.98	239.71	5.47	
2025-01-11 02:45:50.21	239.62	5.39	
2025-01-11 02:45:51.44	239.54	5.30	
2025-01-11 02:45:52.67	239.45	5.21	
2025-01-11 02:45:53.90	239.37	5.13	
2025-01-11 02:45:55.15	239.28	5.04	
2025-01-11 02:45:56.38	239.20	4.96	
2025-01-11 02:45:57.62	239.12	4.87	
2025-01-11 02:45:58.86	239.03	4.79	
2025-01-11 02:46:00.09	238.95	4.70	
2025-01-11 02:46:01.33	238.87	4.62	
2025-01-11 02:46:02.56	238.79	4.54	
2025-01-11 02:46:03.80	238.71	4.45	
2025-01-11 02:46:05.02	238.63	4.37	
2025-01-11 02:46:06.25	238.55	4.29	
2025-01-11 02:46:07.50	238.47	4.20	
2025-01-11 02:46:08.73	238.39	4.12	
2025-01-11 02:46:09.97	238.31	4.04	

#Closed at: 2025-01-11 02:46:10