passes_logs/2025/01/11/SPB_Silybum_02/SPB_Silybum_02__20250111_235919_AQUA_rec.log

#Pass ID: 20250111_235919_AQUA
#Satellite: AQUA
#Configuration: AQUA
#Start time: 2025-01-11 23:59:18

#Version: 2.0.20230423
#Station: SPB_Silybum_02
#Location: 30.233357 lon 59.946436 lat
#TLE: 1 27424U 02022A   25010.89862733  .00001944  00000+0  40909-3 0  9991
#TLE: 2 27424  98.3577 327.5256 0001581 116.2883 319.2080 14.60667727207024

#Time	Az	El	Level	Level2	SNR	BER	Gain	Gain2
2025-01-11 23:59:20.62	26.05	4.10	
2025-01-11 23:59:21.86	26.15	4.18	
2025-01-11 23:59:23.09	26.24	4.26	
2025-01-11 23:59:24.33	26.34	4.34	
2025-01-11 23:59:25.56	26.44	4.41	
2025-01-11 23:59:26.79	26.54	4.49	
2025-01-11 23:59:28.02	26.64	4.57	
2025-01-11 23:59:29.25	26.74	4.65	
2025-01-11 23:59:30.49	26.85	4.73	
2025-01-11 23:59:31.72	26.95	4.81	
2025-01-11 23:59:32.95	27.05	4.89	
2025-01-11 23:59:34.19	27.15	4.97	
2025-01-11 23:59:35.42	27.26	5.05	
2025-01-11 23:59:36.65	27.36	5.13	
2025-01-11 23:59:37.88	27.47	5.21	
2025-01-11 23:59:39.11	27.57	5.29	
2025-01-11 23:59:40.34	27.68	5.37	
2025-01-11 23:59:41.59	27.79	5.45	
2025-01-11 23:59:42.82	27.89	5.53	
2025-01-11 23:59:44.05	28.00	5.61	
2025-01-11 23:59:45.28	28.11	5.69	
2025-01-11 23:59:46.51	28.22	5.77	
2025-01-11 23:59:47.74	28.33	5.85	
2025-01-11 23:59:48.97	28.44	5.93	
2025-01-11 23:59:50.20	28.55	6.02	
2025-01-11 23:59:51.43	28.66	6.10	
2025-01-11 23:59:52.67	28.78	6.18	
2025-01-11 23:59:53.90	28.89	6.26	
2025-01-11 23:59:55.14	29.00	6.35	
2025-01-11 23:59:56.37	29.12	6.43	
2025-01-11 23:59:57.60	29.23	6.51	
2025-01-11 23:59:58.83	29.35	6.60	
2025-01-12 00:00:00.06	29.46	6.68	
2025-01-12 00:00:01.28	29.58	6.76	
2025-01-12 00:00:02.53	29.70	6.85	
2025-01-12 00:00:03.78	29.82	6.93	
2025-01-12 00:00:05.01	29.94	7.02	
2025-01-12 00:00:06.25	30.06	7.10	
2025-01-12 00:00:07.49	30.18	7.19	
2025-01-12 00:00:08.72	30.30	7.27	
2025-01-12 00:00:09.95	30.43	7.36	
2025-01-12 00:00:11.19	30.55	7.45	
2025-01-12 00:00:12.43	30.67	7.53	
2025-01-12 00:00:13.66	30.80	7.62	
2025-01-12 00:00:14.90	30.92	7.70	
2025-01-12 00:00:16.13	31.05	7.79	
2025-01-12 00:00:17.37	31.18	7.88	
2025-01-12 00:00:18.60	31.31	7.97	
2025-01-12 00:00:19.83	31.43	8.05	
2025-01-12 00:00:21.07	31.56	8.14	
2025-01-12 00:00:22.30	31.69	8.23	
2025-01-12 00:00:23.53	31.82	8.32	
2025-01-12 00:00:24.76	31.96	8.40	
2025-01-12 00:00:25.99	32.09	8.49	
2025-01-12 00:00:27.22	32.22	8.58	
2025-01-12 00:00:28.46	32.36	8.67	
2025-01-12 00:00:29.69	32.49	8.76	
2025-01-12 00:00:30.92	32.63	8.85	
2025-01-12 00:00:32.16	32.77	8.94	
2025-01-12 00:00:33.40	32.90	9.03	
2025-01-12 00:00:34.63	33.04	9.12	
2025-01-12 00:00:35.86	33.18	9.21	
2025-01-12 00:00:37.11	33.32	9.30	
2025-01-12 00:00:38.34	33.46	9.39	
2025-01-12 00:00:39.57	33.61	9.48	
2025-01-12 00:00:40.80	33.75	9.57	
2025-01-12 00:00:42.03	33.89	9.66	
2025-01-12 00:00:43.26	34.04	9.75	
2025-01-12 00:00:44.49	34.18	9.84	
2025-01-12 00:00:45.74	34.33	9.94	
2025-01-12 00:00:46.97	34.48	10.03	
2025-01-12 00:00:48.20	34.63	10.12	
2025-01-12 00:00:49.43	34.78	10.21	
2025-01-12 00:00:50.65	34.93	10.31	
2025-01-12 00:00:51.89	35.08	10.40	
2025-01-12 00:00:53.12	35.23	10.49	
2025-01-12 00:00:54.36	35.39	10.59	
2025-01-12 00:00:55.59	35.54	10.68	
2025-01-12 00:00:56.82	35.70	10.77	
2025-01-12 00:00:58.06	35.86	10.87	
2025-01-12 00:00:59.31	36.02	10.97	
2025-01-12 00:01:00.54	36.18	11.06	
2025-01-12 00:01:01.77	36.33	11.15	
2025-01-12 00:01:03.00	36.50	11.25	
2025-01-12 00:01:04.23	36.66	11.34	
2025-01-12 00:01:05.46	36.82	11.44	
2025-01-12 00:01:06.71	36.99	11.54	
2025-01-12 00:01:07.94	37.15	11.63	
2025-01-12 00:01:09.17	37.32	11.73	
2025-01-12 00:01:10.42	37.49	11.83	
2025-01-12 00:01:11.65	37.66	11.92	
2025-01-12 00:01:12.88	37.83	12.02	
2025-01-12 00:01:14.11	38.00	12.12	
2025-01-12 00:01:15.34	38.17	12.21	
2025-01-12 00:01:16.57	38.35	12.31	
2025-01-12 00:01:17.80	38.52	12.41	
2025-01-12 00:01:19.03	38.70	12.51	
2025-01-12 00:01:20.27	38.87	12.61	
2025-01-12 00:01:21.51	39.05	12.70	
2025-01-12 00:01:22.74	39.23	12.80	
2025-01-12 00:01:23.97	39.41	12.90	
2025-01-12 00:01:25.20	39.60	13.00	
2025-01-12 00:01:26.44	39.78	13.10	
2025-01-12 00:01:27.67	39.97	13.20	
2025-01-12 00:01:28.90	40.15	13.30	
2025-01-12 00:01:30.13	40.34	13.40	
2025-01-12 00:01:31.36	40.53	13.50	
2025-01-12 00:01:32.59	40.72	13.60	
2025-01-12 00:01:33.82	40.91	13.70	
2025-01-12 00:01:35.05	41.10	13.80	
2025-01-12 00:01:36.29	41.30	13.90	
2025-01-12 00:01:37.52	41.49	14.00	
2025-01-12 00:01:38.75	41.69	14.10	
2025-01-12 00:01:39.98	41.89	14.20	
2025-01-12 00:01:41.21	42.09	14.30	
2025-01-12 00:01:42.44	42.29	14.41	
2025-01-12 00:01:43.68	42.49	14.51	
2025-01-12 00:01:44.92	42.70	14.61	
2025-01-12 00:01:46.15	42.90	14.71	
2025-01-12 00:01:47.38	43.11	14.81	
2025-01-12 00:01:48.61	43.32	14.92	
2025-01-12 00:01:49.84	43.53	15.02	
2025-01-12 00:01:51.07	43.74	15.12	
2025-01-12 00:01:52.30	43.95	15.22	
2025-01-12 00:01:53.53	44.16	15.33	
2025-01-12 00:01:54.76	44.38	15.43	
2025-01-12 00:01:56.00	44.60	15.53	
2025-01-12 00:01:57.23	44.82	15.64	
2025-01-12 00:01:58.46	45.04	15.74	
2025-01-12 00:01:59.69	45.26	15.84	
2025-01-12 00:02:00.92	45.48	15.95	
2025-01-12 00:02:02.15	45.71	16.05	
2025-01-12 00:02:03.37	45.93	16.15	
2025-01-12 00:02:04.60	46.16	16.25	
2025-01-12 00:02:05.84	46.39	16.36	
2025-01-12 00:02:07.07	46.63	16.46	
2025-01-12 00:02:08.30	46.86	16.57	
2025-01-12 00:02:09.53	47.09	16.67	
2025-01-12 00:02:10.76	47.33	16.77	
2025-01-12 00:02:11.99	47.57	16.88	
2025-01-12 00:02:13.22	47.81	16.98	
2025-01-12 00:02:14.45	48.05	17.09	
2025-01-12 00:02:15.67	48.29	17.19	
2025-01-12 00:02:16.90	48.54	17.29	
2025-01-12 00:02:18.13	48.79	17.40	
2025-01-12 00:02:19.38	49.04	17.50	
2025-01-12 00:02:20.61	49.29	17.61	
2025-01-12 00:02:21.84	49.54	17.71	
2025-01-12 00:02:23.07	49.80	17.82	
2025-01-12 00:02:24.30	50.05	17.92	
2025-01-12 00:02:25.54	50.31	18.02	
2025-01-12 00:02:26.77	50.57	18.13	
2025-01-12 00:02:28.00	50.83	18.23	
2025-01-12 00:02:29.23	51.10	18.34	
2025-01-12 00:02:30.46	51.36	18.44	
2025-01-12 00:02:31.69	51.63	18.54	
2025-01-12 00:02:32.92	51.90	18.65	
2025-01-12 00:02:34.15	52.17	18.75	
2025-01-12 00:02:35.40	52.45	18.86	
2025-01-12 00:02:36.63	52.72	18.96	
2025-01-12 00:02:37.87	53.00	19.06	
2025-01-12 00:02:39.10	53.28	19.16	
2025-01-12 00:02:40.33	53.56	19.27	
2025-01-12 00:02:41.58	53.85	19.37	
2025-01-12 00:02:42.80	54.13	19.47	
2025-01-12 00:02:44.03	54.42	19.57	
2025-01-12 00:02:45.26	54.71	19.68	
2025-01-12 00:02:46.50	55.00	19.78	
2025-01-12 00:02:47.73	55.29	19.88	
2025-01-12 00:02:48.97	55.59	19.98	
2025-01-12 00:02:50.20	55.89	20.08	
2025-01-12 00:02:51.43	56.19	20.18	
2025-01-12 00:02:52.66	56.49	20.28	
2025-01-12 00:02:53.89	56.79	20.38	
2025-01-12 00:02:55.12	57.09	20.48	
2025-01-12 00:02:56.35	57.40	20.58	
2025-01-12 00:02:57.58	57.71	20.68	
2025-01-12 00:02:58.81	58.02	20.78	
2025-01-12 00:03:00.04	58.34	20.88	
2025-01-12 00:03:01.28	58.65	20.98	
2025-01-12 00:03:02.51	58.97	21.07	
2025-01-12 00:03:03.74	59.29	21.17	
2025-01-12 00:03:04.97	59.61	21.27	
2025-01-12 00:03:06.20	59.93	21.36	
2025-01-12 00:03:07.43	60.26	21.46	
2025-01-12 00:03:08.68	60.59	21.55	
2025-01-12 00:03:09.90	60.92	21.65	
2025-01-12 00:03:11.15	61.26	21.74	
2025-01-12 00:03:12.38	61.59	21.84	
2025-01-12 00:03:13.61	61.93	21.93	
2025-01-12 00:03:14.84	62.26	22.02	
2025-01-12 00:03:16.07	62.60	22.11	
2025-01-12 00:03:17.30	62.95	22.20	
2025-01-12 00:03:18.53	63.29	22.29	
2025-01-12 00:03:19.76	63.64	22.38	
2025-01-12 00:03:20.99	63.99	22.47	
2025-01-12 00:03:22.22	64.34	22.56	
2025-01-12 00:03:23.45	64.69	22.65	
2025-01-12 00:03:24.70	65.05	22.74	
2025-01-12 00:03:25.93	65.41	22.82	
2025-01-12 00:03:27.16	65.76	22.91	
2025-01-12 00:03:28.39	66.12	22.99	
2025-01-12 00:03:29.62	66.49	23.07	
2025-01-12 00:03:30.87	66.86	23.16	
2025-01-12 00:03:32.10	67.22	23.24	
2025-01-12 00:03:33.33	67.59	23.32	
2025-01-12 00:03:34.56	67.96	23.40	
2025-01-12 00:03:35.79	68.34	23.48	
2025-01-12 00:03:37.02	68.71	23.56	
2025-01-12 00:03:38.26	69.09	23.64	
2025-01-12 00:03:39.49	69.47	23.71	
2025-01-12 00:03:40.74	69.85	23.79	
2025-01-12 00:03:41.97	70.24	23.86	
2025-01-12 00:03:43.19	70.62	23.93	
2025-01-12 00:03:44.42	71.00	24.01	
2025-01-12 00:03:45.66	71.39	24.08	
2025-01-12 00:03:46.89	71.78	24.15	
2025-01-12 00:03:48.12	72.18	24.22	
2025-01-12 00:03:49.35	72.57	24.28	
2025-01-12 00:03:50.57	72.96	24.35	
2025-01-12 00:03:51.81	73.36	24.41	
2025-01-12 00:03:53.03	73.75	24.48	
2025-01-12 00:03:54.26	74.15	24.54	
2025-01-12 00:03:55.49	74.56	24.60	
2025-01-12 00:03:56.72	74.96	24.66	
2025-01-12 00:03:57.95	75.36	24.72	
2025-01-12 00:03:59.18	75.77	24.78	
2025-01-12 00:04:00.43	76.18	24.84	
2025-01-12 00:04:01.65	76.59	24.89	
2025-01-12 00:04:02.90	77.01	24.95	
2025-01-12 00:04:04.13	77.42	25.00	
2025-01-12 00:04:05.36	77.83	25.05	
2025-01-12 00:04:06.59	78.25	25.10	
2025-01-12 00:04:07.82	78.66	25.15	
2025-01-12 00:04:09.06	79.08	25.19	
2025-01-12 00:04:10.29	79.50	25.24	
2025-01-12 00:04:11.52	79.92	25.28	
2025-01-12 00:04:12.75	80.34	25.32	
2025-01-12 00:04:13.98	80.77	25.36	
2025-01-12 00:04:15.21	81.19	25.40	
2025-01-12 00:04:16.44	81.61	25.44	
2025-01-12 00:04:17.67	82.04	25.48	
2025-01-12 00:04:18.91	82.47	25.51	
2025-01-12 00:04:20.14	82.90	25.55	
2025-01-12 00:04:21.37	83.33	25.58	
2025-01-12 00:04:22.60	83.75	25.61	
2025-01-12 00:04:23.83	84.18	25.64	
2025-01-12 00:04:25.06	84.62	25.66	
2025-01-12 00:04:26.29	85.05	25.69	
2025-01-12 00:04:27.53	85.48	25.71	
2025-01-12 00:04:28.76	85.92	25.73	
2025-01-12 00:04:30.00	86.35	25.75	
2025-01-12 00:04:31.23	86.79	25.77	
2025-01-12 00:04:32.46	87.22	25.79	
2025-01-12 00:04:33.69	87.66	25.80	
2025-01-12 00:04:34.93	88.10	25.82	
2025-01-12 00:04:36.16	88.53	25.83	
2025-01-12 00:04:37.39	88.97	25.84	
2025-01-12 00:04:38.63	89.41	25.85	
2025-01-12 00:04:39.85	89.84	25.85	
2025-01-12 00:04:41.10	90.28	25.86	
2025-01-12 00:04:42.33	90.72	25.86	
2025-01-12 00:04:43.56	91.16	25.86	
2025-01-12 00:04:44.79	91.60	25.86	
2025-01-12 00:04:46.02	92.03	25.86	
2025-01-12 00:04:47.25	92.47	25.86	
2025-01-12 00:04:48.48	92.91	25.85	
2025-01-12 00:04:49.72	93.35	25.85	
2025-01-12 00:04:50.95	93.78	25.84	
2025-01-12 00:04:52.17	94.22	25.83	
2025-01-12 00:04:53.41	94.66	25.81	
2025-01-12 00:04:54.64	95.09	25.80	
2025-01-12 00:04:55.88	95.53	25.79	
2025-01-12 00:04:57.11	95.97	25.77	
2025-01-12 00:04:58.34	96.40	25.75	
2025-01-12 00:04:59.58	96.84	25.73	
2025-01-12 00:05:00.83	97.28	25.71	
2025-01-12 00:05:02.06	97.71	25.68	
2025-01-12 00:05:03.29	98.14	25.66	
2025-01-12 00:05:04.53	98.58	25.63	
2025-01-12 00:05:05.76	99.01	25.60	
2025-01-12 00:05:07.01	99.44	25.57	
2025-01-12 00:05:08.24	99.87	25.54	
2025-01-12 00:05:09.47	100.30	25.51	
2025-01-12 00:05:10.70	100.73	25.47	
2025-01-12 00:05:11.93	101.15	25.43	
2025-01-12 00:05:13.16	101.58	25.40	
2025-01-12 00:05:14.39	102.00	25.36	
2025-01-12 00:05:15.62	102.43	25.32	
2025-01-12 00:05:16.85	102.85	25.27	
2025-01-12 00:05:18.08	103.27	25.23	
2025-01-12 00:05:19.31	103.69	25.18	
2025-01-12 00:05:20.54	104.11	25.14	
2025-01-12 00:05:21.77	104.52	25.09	
2025-01-12 00:05:23.00	104.94	25.04	
2025-01-12 00:05:24.24	105.36	24.99	
2025-01-12 00:05:25.47	105.77	24.93	
2025-01-12 00:05:26.69	106.18	24.88	
2025-01-12 00:05:27.92	106.59	24.83	
2025-01-12 00:05:29.16	107.00	24.77	
2025-01-12 00:05:30.39	107.41	24.71	
2025-01-12 00:05:31.62	107.81	24.65	
2025-01-12 00:05:32.85	108.22	24.59	
2025-01-12 00:05:34.09	108.62	24.53	
2025-01-12 00:05:35.33	109.02	24.46	
2025-01-12 00:05:36.57	109.43	24.40	
2025-01-12 00:05:37.80	109.82	24.33	
2025-01-12 00:05:39.04	110.22	24.27	
2025-01-12 00:05:40.29	110.62	24.20	
2025-01-12 00:05:41.52	111.02	24.13	
2025-01-12 00:05:42.75	111.41	24.06	
2025-01-12 00:05:43.98	111.79	23.99	
2025-01-12 00:05:45.22	112.18	23.91	
2025-01-12 00:05:46.44	112.57	23.84	
2025-01-12 00:05:47.68	112.95	23.76	
2025-01-12 00:05:48.91	113.33	23.69	
2025-01-12 00:05:50.14	113.71	23.61	
2025-01-12 00:05:51.37	114.09	23.53	
2025-01-12 00:05:52.60	114.47	23.45	
2025-01-12 00:05:53.84	114.84	23.37	
2025-01-12 00:05:55.06	115.21	23.29	
2025-01-12 00:05:56.29	115.58	23.21	
2025-01-12 00:05:57.52	115.95	23.13	
2025-01-12 00:05:58.75	116.31	23.05	
2025-01-12 00:05:59.98	116.68	22.96	
2025-01-12 00:06:01.21	117.04	22.88	
2025-01-12 00:06:02.44	117.40	22.79	
2025-01-12 00:06:03.68	117.76	22.71	
2025-01-12 00:06:04.92	118.12	22.62	
2025-01-12 00:06:06.15	118.47	22.53	
2025-01-12 00:06:07.40	118.83	22.44	
2025-01-12 00:06:08.63	119.18	22.35	
2025-01-12 00:06:09.86	119.52	22.26	
2025-01-12 00:06:11.09	119.87	22.17	
2025-01-12 00:06:12.33	120.22	22.08	
2025-01-12 00:06:13.57	120.56	21.98	
2025-01-12 00:06:14.80	120.90	21.89	
2025-01-12 00:06:16.03	121.24	21.80	
2025-01-12 00:06:17.26	121.57	21.70	
2025-01-12 00:06:18.51	121.91	21.61	
2025-01-12 00:06:19.74	122.24	21.51	
2025-01-12 00:06:20.97	122.57	21.42	
2025-01-12 00:06:22.20	122.89	21.32	
2025-01-12 00:06:23.42	123.22	21.22	
2025-01-12 00:06:24.66	123.54	21.13	
2025-01-12 00:06:25.89	123.86	21.03	
2025-01-12 00:06:27.12	124.18	20.93	
2025-01-12 00:06:28.35	124.50	20.83	
2025-01-12 00:06:29.58	124.81	20.73	
2025-01-12 00:06:30.81	125.12	20.63	
2025-01-12 00:06:32.05	125.43	20.53	
2025-01-12 00:06:33.29	125.74	20.43	
2025-01-12 00:06:34.54	126.06	20.33	
2025-01-12 00:06:35.77	126.36	20.23	
2025-01-12 00:06:37.00	126.66	20.13	
2025-01-12 00:06:38.23	126.96	20.03	
2025-01-12 00:06:39.46	127.26	19.92	
2025-01-12 00:06:40.69	127.55	19.82	
2025-01-12 00:06:41.92	127.85	19.72	
2025-01-12 00:06:43.15	128.14	19.62	
2025-01-12 00:06:44.38	128.43	19.52	
2025-01-12 00:06:45.60	128.71	19.41	
2025-01-12 00:06:46.83	129.00	19.31	
2025-01-12 00:06:48.06	129.28	19.21	
2025-01-12 00:06:49.29	129.56	19.10	
2025-01-12 00:06:50.52	129.84	19.00	
2025-01-12 00:06:51.76	130.12	18.90	
2025-01-12 00:06:52.99	130.40	18.79	
2025-01-12 00:06:54.22	130.67	18.69	
2025-01-12 00:06:55.45	130.94	18.58	
2025-01-12 00:06:56.68	131.21	18.48	
2025-01-12 00:06:57.91	131.48	18.37	
2025-01-12 00:06:59.14	131.75	18.27	
2025-01-12 00:07:00.38	132.02	18.16	
2025-01-12 00:07:01.61	132.28	18.06	
2025-01-12 00:07:02.84	132.54	17.95	
2025-01-12 00:07:04.07	132.80	17.85	
2025-01-12 00:07:05.30	133.05	17.74	
2025-01-12 00:07:06.55	133.31	17.64	
2025-01-12 00:07:07.78	133.57	17.53	
2025-01-12 00:07:09.01	133.82	17.43	
2025-01-12 00:07:10.24	134.07	17.32	
2025-01-12 00:07:11.48	134.32	17.22	
2025-01-12 00:07:12.71	134.56	17.11	
2025-01-12 00:07:13.94	134.81	17.01	
2025-01-12 00:07:15.17	135.05	16.90	
2025-01-12 00:07:16.41	135.29	16.80	
2025-01-12 00:07:17.64	135.53	16.69	
2025-01-12 00:07:18.87	135.77	16.59	
2025-01-12 00:07:20.10	136.00	16.48	
2025-01-12 00:07:21.33	136.24	16.38	
2025-01-12 00:07:22.56	136.47	16.27	
2025-01-12 00:07:23.79	136.70	16.17	
2025-01-12 00:07:25.03	136.93	16.06	
2025-01-12 00:07:26.25	137.16	15.96	
2025-01-12 00:07:27.48	137.38	15.86	
2025-01-12 00:07:28.71	137.61	15.75	
2025-01-12 00:07:29.94	137.83	15.65	
2025-01-12 00:07:31.19	138.05	15.54	
2025-01-12 00:07:32.42	138.27	15.44	
2025-01-12 00:07:33.66	138.49	15.33	
2025-01-12 00:07:34.89	138.71	15.23	
2025-01-12 00:07:36.11	138.92	15.13	
2025-01-12 00:07:37.36	139.14	15.02	
2025-01-12 00:07:38.59	139.35	14.92	
2025-01-12 00:07:39.82	139.56	14.82	
2025-01-12 00:07:41.05	139.77	14.71	
2025-01-12 00:07:42.28	139.97	14.61	
2025-01-12 00:07:43.53	140.18	14.50	
2025-01-12 00:07:44.76	140.39	14.40	
2025-01-12 00:07:45.99	140.59	14.30	
2025-01-12 00:07:47.22	140.79	14.20	
2025-01-12 00:07:48.45	140.99	14.10	
2025-01-12 00:07:49.67	141.19	13.99	
2025-01-12 00:07:50.90	141.38	13.89	
2025-01-12 00:07:52.13	141.58	13.79	
2025-01-12 00:07:53.37	141.77	13.69	
2025-01-12 00:07:54.60	141.97	13.59	
2025-01-12 00:07:55.85	142.16	13.49	
2025-01-12 00:07:57.08	142.35	13.38	
2025-01-12 00:07:58.31	142.54	13.28	
2025-01-12 00:07:59.54	142.73	13.18	
2025-01-12 00:08:00.77	142.91	13.08	
2025-01-12 00:08:02.00	143.10	12.98	
2025-01-12 00:08:03.24	143.28	12.88	
2025-01-12 00:08:04.47	143.47	12.78	
2025-01-12 00:08:05.71	143.65	12.68	
2025-01-12 00:08:06.96	143.83	12.58	
2025-01-12 00:08:08.19	144.01	12.48	
2025-01-12 00:08:09.42	144.19	12.38	
2025-01-12 00:08:10.66	144.36	12.29	
2025-01-12 00:08:11.89	144.54	12.19	
2025-01-12 00:08:13.12	144.71	12.09	
2025-01-12 00:08:14.35	144.88	11.99	
2025-01-12 00:08:15.59	145.05	11.89	
2025-01-12 00:08:16.82	145.22	11.79	
2025-01-12 00:08:18.05	145.39	11.70	
2025-01-12 00:08:19.28	145.56	11.60	
2025-01-12 00:08:20.50	145.73	11.50	
2025-01-12 00:08:21.73	145.89	11.41	
2025-01-12 00:08:22.97	146.06	11.31	
2025-01-12 00:08:24.20	146.22	11.21	
2025-01-12 00:08:25.43	146.38	11.12	
2025-01-12 00:08:26.66	146.54	11.02	
2025-01-12 00:08:27.91	146.70	10.93	
2025-01-12 00:08:29.15	146.86	10.83	
2025-01-12 00:08:30.37	147.02	10.74	
2025-01-12 00:08:31.60	147.18	10.64	
2025-01-12 00:08:32.83	147.33	10.55	
2025-01-12 00:08:34.06	147.49	10.45	
2025-01-12 00:08:35.29	147.64	10.36	
2025-01-12 00:08:36.52	147.79	10.26	
2025-01-12 00:08:37.76	147.94	10.17	
2025-01-12 00:08:39.00	148.10	10.08	
2025-01-12 00:08:40.23	148.25	9.98	
2025-01-12 00:08:41.46	148.39	9.89	
2025-01-12 00:08:42.70	148.54	9.80	
2025-01-12 00:08:43.93	148.69	9.70	
2025-01-12 00:08:45.18	148.84	9.61	
2025-01-12 00:08:46.41	148.98	9.52	
2025-01-12 00:08:47.64	149.12	9.43	
2025-01-12 00:08:48.87	149.27	9.33	
2025-01-12 00:08:50.11	149.41	9.24	
2025-01-12 00:08:51.34	149.55	9.15	
2025-01-12 00:08:52.57	149.69	9.06	
2025-01-12 00:08:53.80	149.83	8.97	
2025-01-12 00:08:55.03	149.97	8.88	
2025-01-12 00:08:56.26	150.10	8.79	
2025-01-12 00:08:57.51	150.24	8.70	
2025-01-12 00:08:58.74	150.38	8.61	
2025-01-12 00:08:59.97	150.51	8.52	
2025-01-12 00:09:01.21	150.65	8.43	
2025-01-12 00:09:02.44	150.78	8.34	
2025-01-12 00:09:03.66	150.91	8.25	
2025-01-12 00:09:04.90	151.04	8.16	
2025-01-12 00:09:06.14	151.17	8.07	
2025-01-12 00:09:07.37	151.30	7.98	
2025-01-12 00:09:08.60	151.43	7.90	
2025-01-12 00:09:09.83	151.56	7.81	
2025-01-12 00:09:11.06	151.69	7.72	
2025-01-12 00:09:12.29	151.81	7.63	
2025-01-12 00:09:13.52	151.94	7.55	
2025-01-12 00:09:14.75	152.06	7.46	
2025-01-12 00:09:15.98	152.19	7.37	
2025-01-12 00:09:17.23	152.31	7.29	
2025-01-12 00:09:18.46	152.43	7.20	
2025-01-12 00:09:19.69	152.56	7.11	
2025-01-12 00:09:20.92	152.68	7.03	
2025-01-12 00:09:22.15	152.80	6.94	
2025-01-12 00:09:23.40	152.92	6.86	
2025-01-12 00:09:24.63	153.04	6.77	
2025-01-12 00:09:25.85	153.15	6.69	
2025-01-12 00:09:27.10	153.27	6.60	
2025-01-12 00:09:28.33	153.39	6.52	
2025-01-12 00:09:29.57	153.51	6.43	
2025-01-12 00:09:30.80	153.62	6.35	
2025-01-12 00:09:32.03	153.73	6.26	
2025-01-12 00:09:33.26	153.85	6.18	
2025-01-12 00:09:34.51	153.96	6.10	
2025-01-12 00:09:35.74	154.08	6.01	
2025-01-12 00:09:36.97	154.19	5.93	
2025-01-12 00:09:38.21	154.30	5.85	
2025-01-12 00:09:39.45	154.41	5.76	
2025-01-12 00:09:40.68	154.52	5.68	
2025-01-12 00:09:41.92	154.63	5.60	
2025-01-12 00:09:43.15	154.74	5.52	
2025-01-12 00:09:44.39	154.85	5.44	
2025-01-12 00:09:45.62	154.95	5.35	
2025-01-12 00:09:46.85	155.06	5.27	
2025-01-12 00:09:48.08	155.17	5.19	
2025-01-12 00:09:49.31	155.27	5.11	
2025-01-12 00:09:50.53	155.38	5.03	
2025-01-12 00:09:51.76	155.48	4.95	
2025-01-12 00:09:53.00	155.58	4.87	
2025-01-12 00:09:54.23	155.69	4.79	
2025-01-12 00:09:55.46	155.79	4.71	
2025-01-12 00:09:56.71	155.89	4.63	
2025-01-12 00:09:57.94	155.99	4.55	
2025-01-12 00:09:59.17	156.09	4.47	
2025-01-12 00:10:00.42	156.20	4.39	
2025-01-12 00:10:01.65	156.30	4.31	
2025-01-12 00:10:02.88	156.39	4.23	
2025-01-12 00:10:04.12	156.49	4.15	
2025-01-12 00:10:05.35	156.59	4.07	
2025-01-12 00:10:06.59	156.69	4.00	

#Closed at: 2025-01-12 00:10:06