passes_logs/2025/01/11/SPB_Silybum_02/SPB_Silybum_02__20250111_080235_SUOMI_NPP_rec.log

#Pass ID: 20250111_080235_SUOMI NPP
#Satellite: SUOMI NPP
#Configuration: NPP
#Start time: 2025-01-11 08:02:36

#Version: 2.0.20230423
#Station: SPB_Silybum_02
#Location: 30.233357 lon 59.946436 lat
#TLE: 1 37849U 11061A   25010.83173011  .00000170  00000+0  10148-3 0  9996
#TLE: 2 37849  98.7441 311.8732 0001811  47.3940 312.7388 14.19536379684322

#Time	Az	El	Level	Level2	SNR	BER	Gain	Gain2
2025-01-11 08:02:38.44	94.90	4.16	
2025-01-11 08:02:39.68	94.79	4.23	
2025-01-11 08:02:40.91	94.68	4.30	
2025-01-11 08:02:42.16	94.58	4.37	
2025-01-11 08:02:43.39	94.47	4.44	
2025-01-11 08:02:44.63	94.36	4.51	
2025-01-11 08:02:45.86	94.25	4.58	
2025-01-11 08:02:47.09	94.14	4.65	
2025-01-11 08:02:48.32	94.03	4.72	
2025-01-11 08:02:49.55	93.92	4.79	
2025-01-11 08:02:50.78	93.81	4.86	
2025-01-11 08:02:52.01	93.70	4.93	
2025-01-11 08:02:53.24	93.59	5.00	
2025-01-11 08:02:54.47	93.47	5.08	
2025-01-11 08:02:55.71	93.36	5.15	
2025-01-11 08:02:56.96	93.25	5.22	
2025-01-11 08:02:58.19	93.13	5.29	
2025-01-11 08:02:59.43	93.02	5.36	
2025-01-11 08:03:00.65	92.90	5.43	
2025-01-11 08:03:01.88	92.79	5.50	
2025-01-11 08:03:03.13	92.67	5.57	
2025-01-11 08:03:04.36	92.55	5.64	
2025-01-11 08:03:05.59	92.43	5.72	
2025-01-11 08:03:06.82	92.31	5.79	
2025-01-11 08:03:08.05	92.20	5.86	
2025-01-11 08:03:09.28	92.08	5.93	
2025-01-11 08:03:10.51	91.96	6.00	
2025-01-11 08:03:11.74	91.84	6.07	
2025-01-11 08:03:12.98	91.71	6.15	
2025-01-11 08:03:14.21	91.59	6.22	
2025-01-11 08:03:15.43	91.47	6.29	
2025-01-11 08:03:16.66	91.35	6.36	
2025-01-11 08:03:17.90	91.22	6.43	
2025-01-11 08:03:19.13	91.10	6.50	
2025-01-11 08:03:20.36	90.97	6.58	
2025-01-11 08:03:21.60	90.85	6.65	
2025-01-11 08:03:22.85	90.72	6.72	
2025-01-11 08:03:24.09	90.59	6.80	
2025-01-11 08:03:25.33	90.46	6.87	
2025-01-11 08:03:26.56	90.33	6.94	
2025-01-11 08:03:27.79	90.21	7.01	
2025-01-11 08:03:29.02	90.08	7.09	
2025-01-11 08:03:30.25	89.95	7.16	
2025-01-11 08:03:31.48	89.82	7.23	
2025-01-11 08:03:32.71	89.68	7.30	
2025-01-11 08:03:33.96	89.55	7.38	
2025-01-11 08:03:35.19	89.42	7.45	
2025-01-11 08:03:36.42	89.28	7.52	
2025-01-11 08:03:37.65	89.15	7.60	
2025-01-11 08:03:38.88	89.01	7.67	
2025-01-11 08:03:40.13	88.88	7.75	
2025-01-11 08:03:41.36	88.74	7.82	
2025-01-11 08:03:42.59	88.60	7.89	
2025-01-11 08:03:43.81	88.47	7.96	
2025-01-11 08:03:45.05	88.33	8.04	
2025-01-11 08:03:46.28	88.19	8.11	
2025-01-11 08:03:47.51	88.05	8.19	
2025-01-11 08:03:48.76	87.91	8.26	
2025-01-11 08:03:49.99	87.76	8.33	
2025-01-11 08:03:51.22	87.62	8.41	
2025-01-11 08:03:52.45	87.48	8.48	
2025-01-11 08:03:53.67	87.34	8.55	
2025-01-11 08:03:54.91	87.19	8.63	
2025-01-11 08:03:56.14	87.05	8.70	
2025-01-11 08:03:57.38	86.90	8.78	
2025-01-11 08:03:58.62	86.75	8.85	
2025-01-11 08:03:59.85	86.60	8.93	
2025-01-11 08:04:01.09	86.46	9.00	
2025-01-11 08:04:02.32	86.31	9.07	
2025-01-11 08:04:03.57	86.15	9.15	
2025-01-11 08:04:04.80	86.00	9.22	
2025-01-11 08:04:06.03	85.85	9.30	
2025-01-11 08:04:07.25	85.70	9.37	
2025-01-11 08:04:08.49	85.55	9.45	
2025-01-11 08:04:09.72	85.40	9.52	
2025-01-11 08:04:10.95	85.24	9.59	
2025-01-11 08:04:12.18	85.09	9.67	
2025-01-11 08:04:13.41	84.93	9.74	
2025-01-11 08:04:14.64	84.77	9.82	
2025-01-11 08:04:15.86	84.62	9.89	
2025-01-11 08:04:17.13	84.45	9.97	
2025-01-11 08:04:18.37	84.29	10.04	
2025-01-11 08:04:19.60	84.13	10.12	
2025-01-11 08:04:20.84	83.97	10.19	
2025-01-11 08:04:22.09	83.81	10.27	
2025-01-11 08:04:23.33	83.64	10.34	
2025-01-11 08:04:24.55	83.48	10.42	
2025-01-11 08:04:25.79	83.31	10.49	
2025-01-11 08:04:27.03	83.15	10.57	
2025-01-11 08:04:28.26	82.98	10.64	
2025-01-11 08:04:29.49	82.82	10.71	
2025-01-11 08:04:30.72	82.65	10.79	
2025-01-11 08:04:31.95	82.48	10.86	
2025-01-11 08:04:33.20	82.31	10.94	
2025-01-11 08:04:34.42	82.14	11.01	
2025-01-11 08:04:35.65	81.97	11.09	
2025-01-11 08:04:36.89	81.79	11.16	
2025-01-11 08:04:38.11	81.62	11.23	
2025-01-11 08:04:39.36	81.45	11.31	
2025-01-11 08:04:40.58	81.27	11.38	
2025-01-11 08:04:41.81	81.10	11.46	
2025-01-11 08:04:43.06	80.92	11.53	
2025-01-11 08:04:44.31	80.74	11.61	
2025-01-11 08:04:45.54	80.56	11.68	
2025-01-11 08:04:46.77	80.38	11.76	
2025-01-11 08:04:48.00	80.20	11.83	
2025-01-11 08:04:49.25	80.02	11.90	
2025-01-11 08:04:50.49	79.83	11.98	
2025-01-11 08:04:51.72	79.65	12.05	
2025-01-11 08:04:52.95	79.46	12.13	
2025-01-11 08:04:54.18	79.28	12.20	
2025-01-11 08:04:55.42	79.09	12.27	
2025-01-11 08:04:56.66	78.90	12.35	
2025-01-11 08:04:57.89	78.72	12.42	
2025-01-11 08:04:59.12	78.53	12.49	
2025-01-11 08:05:00.35	78.34	12.57	
2025-01-11 08:05:01.58	78.15	12.64	
2025-01-11 08:05:02.82	77.96	12.71	
2025-01-11 08:05:04.05	77.76	12.79	
2025-01-11 08:05:05.28	77.57	12.86	
2025-01-11 08:05:06.51	77.37	12.93	
2025-01-11 08:05:07.74	77.18	13.00	
2025-01-11 08:05:08.97	76.98	13.08	
2025-01-11 08:05:10.21	76.78	13.15	
2025-01-11 08:05:11.44	76.59	13.22	
2025-01-11 08:05:12.68	76.38	13.29	
2025-01-11 08:05:13.92	76.18	13.37	
2025-01-11 08:05:15.15	75.98	13.44	
2025-01-11 08:05:16.38	75.78	13.51	
2025-01-11 08:05:17.61	75.58	13.58	
2025-01-11 08:05:18.84	75.37	13.65	
2025-01-11 08:05:20.07	75.17	13.72	
2025-01-11 08:05:21.30	74.96	13.79	
2025-01-11 08:05:22.53	74.75	13.87	
2025-01-11 08:05:23.76	74.55	13.94	
2025-01-11 08:05:24.99	74.34	14.01	
2025-01-11 08:05:26.22	74.13	14.08	
2025-01-11 08:05:27.45	73.91	14.15	
2025-01-11 08:05:28.68	73.70	14.22	
2025-01-11 08:05:29.91	73.49	14.29	
2025-01-11 08:05:31.14	73.27	14.36	
2025-01-11 08:05:32.38	73.06	14.43	
2025-01-11 08:05:33.61	72.84	14.50	
2025-01-11 08:05:34.84	72.62	14.56	
2025-01-11 08:05:36.07	72.41	14.63	
2025-01-11 08:05:37.30	72.19	14.70	
2025-01-11 08:05:38.53	71.97	14.77	
2025-01-11 08:05:39.76	71.74	14.84	
2025-01-11 08:05:40.99	71.52	14.91	
2025-01-11 08:05:42.22	71.30	14.97	
2025-01-11 08:05:43.45	71.07	15.04	
2025-01-11 08:05:44.69	70.85	15.11	
2025-01-11 08:05:45.92	70.62	15.17	
2025-01-11 08:05:47.15	70.39	15.24	
2025-01-11 08:05:48.38	70.16	15.31	
2025-01-11 08:05:49.61	69.93	15.37	
2025-01-11 08:05:50.85	69.70	15.44	
2025-01-11 08:05:52.08	69.47	15.50	
2025-01-11 08:05:53.32	69.24	15.57	
2025-01-11 08:05:54.54	69.00	15.63	
2025-01-11 08:05:55.77	68.77	15.70	
2025-01-11 08:05:57.00	68.53	15.76	
2025-01-11 08:05:58.23	68.30	15.83	
2025-01-11 08:05:59.46	68.06	15.89	
2025-01-11 08:06:00.70	67.82	15.95	
2025-01-11 08:06:01.94	67.58	16.02	
2025-01-11 08:06:03.17	67.34	16.08	
2025-01-11 08:06:04.41	67.09	16.14	
2025-01-11 08:06:05.64	66.85	16.20	
2025-01-11 08:06:06.87	66.61	16.26	
2025-01-11 08:06:08.10	66.36	16.32	
2025-01-11 08:06:09.34	66.11	16.39	
2025-01-11 08:06:10.57	65.87	16.45	
2025-01-11 08:06:11.80	65.62	16.51	
2025-01-11 08:06:13.03	65.37	16.56	
2025-01-11 08:06:14.27	65.12	16.62	
2025-01-11 08:06:15.49	64.87	16.68	
2025-01-11 08:06:16.72	64.62	16.74	
2025-01-11 08:06:17.96	64.36	16.80	
2025-01-11 08:06:19.19	64.11	16.85	
2025-01-11 08:06:20.42	63.85	16.91	
2025-01-11 08:06:21.65	63.60	16.97	
2025-01-11 08:06:22.88	63.34	17.02	
2025-01-11 08:06:24.12	63.08	17.08	
2025-01-11 08:06:25.36	62.82	17.13	
2025-01-11 08:06:26.59	62.56	17.19	
2025-01-11 08:06:27.83	62.30	17.24	
2025-01-11 08:06:29.07	62.04	17.30	
2025-01-11 08:06:30.31	61.77	17.35	
2025-01-11 08:06:31.54	61.51	17.40	
2025-01-11 08:06:32.77	61.25	17.46	
2025-01-11 08:06:34.01	60.98	17.51	
2025-01-11 08:06:35.24	60.71	17.56	
2025-01-11 08:06:36.47	60.45	17.61	
2025-01-11 08:06:37.70	60.18	17.66	
2025-01-11 08:06:38.93	59.91	17.71	
2025-01-11 08:06:40.16	59.64	17.76	
2025-01-11 08:06:41.39	59.37	17.80	
2025-01-11 08:06:42.62	59.10	17.85	
2025-01-11 08:06:43.85	58.83	17.90	
2025-01-11 08:06:45.08	58.55	17.94	
2025-01-11 08:06:46.31	58.28	17.99	
2025-01-11 08:06:47.55	58.00	18.04	
2025-01-11 08:06:48.78	57.73	18.08	
2025-01-11 08:06:50.01	57.45	18.12	
2025-01-11 08:06:51.24	57.17	18.17	
2025-01-11 08:06:52.47	56.90	18.21	
2025-01-11 08:06:53.70	56.62	18.25	
2025-01-11 08:06:54.93	56.34	18.29	
2025-01-11 08:06:56.16	56.06	18.34	
2025-01-11 08:06:57.39	55.78	18.38	
2025-01-11 08:06:58.62	55.50	18.42	
2025-01-11 08:06:59.85	55.21	18.45	
2025-01-11 08:07:01.08	54.93	18.49	
2025-01-11 08:07:02.30	54.65	18.53	
2025-01-11 08:07:03.55	54.36	18.57	
2025-01-11 08:07:04.78	54.08	18.60	
2025-01-11 08:07:06.01	53.79	18.64	
2025-01-11 08:07:07.25	53.50	18.67	
2025-01-11 08:07:08.48	53.21	18.71	
2025-01-11 08:07:09.71	52.93	18.74	
2025-01-11 08:07:10.94	52.64	18.77	
2025-01-11 08:07:12.19	52.34	18.81	
2025-01-11 08:07:13.42	52.06	18.84	
2025-01-11 08:07:14.65	51.77	18.87	
2025-01-11 08:07:15.89	51.47	18.90	
2025-01-11 08:07:17.14	51.18	18.93	
2025-01-11 08:07:18.37	50.88	18.96	
2025-01-11 08:07:19.61	50.59	18.99	
2025-01-11 08:07:20.84	50.30	19.01	
2025-01-11 08:07:22.07	50.00	19.04	
2025-01-11 08:07:23.30	49.71	19.06	
2025-01-11 08:07:24.54	49.41	19.09	
2025-01-11 08:07:25.76	49.12	19.11	
2025-01-11 08:07:27.01	48.82	19.14	
2025-01-11 08:07:28.25	48.52	19.16	
2025-01-11 08:07:29.48	48.23	19.18	
2025-01-11 08:07:30.71	47.93	19.20	
2025-01-11 08:07:31.94	47.63	19.22	
2025-01-11 08:07:33.17	47.33	19.24	
2025-01-11 08:07:34.40	47.04	19.26	
2025-01-11 08:07:35.63	46.74	19.28	
2025-01-11 08:07:36.86	46.44	19.29	
2025-01-11 08:07:38.09	46.14	19.31	
2025-01-11 08:07:39.32	45.84	19.32	
2025-01-11 08:07:40.55	45.54	19.34	
2025-01-11 08:07:41.79	45.24	19.35	
2025-01-11 08:07:43.03	44.94	19.36	
2025-01-11 08:07:44.27	44.64	19.38	
2025-01-11 08:07:45.50	44.34	19.39	
2025-01-11 08:07:46.73	44.04	19.40	
2025-01-11 08:07:47.97	43.73	19.41	
2025-01-11 08:07:49.20	43.43	19.42	
2025-01-11 08:07:50.43	43.13	19.42	
2025-01-11 08:07:51.67	42.83	19.43	
2025-01-11 08:07:52.90	42.53	19.44	
2025-01-11 08:07:54.13	42.22	19.44	
2025-01-11 08:07:55.36	41.92	19.45	
2025-01-11 08:07:56.59	41.62	19.45	
2025-01-11 08:07:57.82	41.32	19.45	
2025-01-11 08:07:59.05	41.02	19.46	
2025-01-11 08:08:00.29	40.71	19.46	
2025-01-11 08:08:01.52	40.41	19.46	
2025-01-11 08:08:02.75	40.11	19.46	
2025-01-11 08:08:03.98	39.81	19.46	
2025-01-11 08:08:05.21	39.51	19.45	
2025-01-11 08:08:06.44	39.21	19.45	
2025-01-11 08:08:07.67	38.90	19.45	
2025-01-11 08:08:08.90	38.60	19.44	
2025-01-11 08:08:10.13	38.30	19.44	
2025-01-11 08:08:11.36	38.00	19.43	
2025-01-11 08:08:12.60	37.70	19.42	
2025-01-11 08:08:13.84	37.39	19.41	
2025-01-11 08:08:15.09	37.09	19.41	
2025-01-11 08:08:16.32	36.79	19.40	
2025-01-11 08:08:17.55	36.49	19.39	
2025-01-11 08:08:18.78	36.19	19.37	
2025-01-11 08:08:20.01	35.89	19.36	
2025-01-11 08:08:21.24	35.59	19.35	
2025-01-11 08:08:22.47	35.29	19.34	
2025-01-11 08:08:23.70	34.99	19.32	
2025-01-11 08:08:24.94	34.69	19.31	
2025-01-11 08:08:26.17	34.39	19.29	
2025-01-11 08:08:27.41	34.09	19.27	
2025-01-11 08:08:28.64	33.79	19.26	
2025-01-11 08:08:29.87	33.49	19.24	
2025-01-11 08:08:31.10	33.20	19.22	
2025-01-11 08:08:32.33	32.90	19.20	
2025-01-11 08:08:33.56	32.60	19.18	
2025-01-11 08:08:34.81	32.30	19.16	
2025-01-11 08:08:36.04	32.01	19.13	
2025-01-11 08:08:37.27	31.71	19.11	
2025-01-11 08:08:38.50	31.42	19.09	
2025-01-11 08:08:39.73	31.12	19.06	
2025-01-11 08:08:40.96	30.83	19.04	
2025-01-11 08:08:42.19	30.54	19.01	
2025-01-11 08:08:43.42	30.25	18.98	
2025-01-11 08:08:44.65	29.95	18.95	
2025-01-11 08:08:45.88	29.66	18.93	
2025-01-11 08:08:47.10	29.37	18.90	
2025-01-11 08:08:48.34	29.08	18.87	
2025-01-11 08:08:49.57	28.79	18.84	
2025-01-11 08:08:50.80	28.50	18.81	
2025-01-11 08:08:52.03	28.21	18.77	
2025-01-11 08:08:53.26	27.93	18.74	
2025-01-11 08:08:54.49	27.64	18.71	
2025-01-11 08:08:55.72	27.35	18.67	
2025-01-11 08:08:56.94	27.07	18.64	
2025-01-11 08:08:58.17	26.78	18.60	
2025-01-11 08:08:59.42	26.49	18.57	
2025-01-11 08:09:00.66	26.21	18.53	
2025-01-11 08:09:01.91	25.92	18.49	
2025-01-11 08:09:03.13	25.64	18.45	
2025-01-11 08:09:04.36	25.36	18.41	
2025-01-11 08:09:05.59	25.08	18.37	
2025-01-11 08:09:06.82	24.80	18.33	
2025-01-11 08:09:08.05	24.52	18.29	
2025-01-11 08:09:09.27	24.24	18.25	
2025-01-11 08:09:10.50	23.96	18.21	
2025-01-11 08:09:11.73	23.69	18.17	
2025-01-11 08:09:12.96	23.41	18.12	
2025-01-11 08:09:14.19	23.14	18.08	
2025-01-11 08:09:15.44	22.86	18.03	
2025-01-11 08:09:16.67	22.58	17.99	
2025-01-11 08:09:17.90	22.31	17.94	
2025-01-11 08:09:19.13	22.04	17.90	
2025-01-11 08:09:20.38	21.76	17.85	
2025-01-11 08:09:21.62	21.49	17.80	
2025-01-11 08:09:22.85	21.22	17.75	
2025-01-11 08:09:24.08	20.95	17.70	
2025-01-11 08:09:25.31	20.68	17.66	
2025-01-11 08:09:26.54	20.42	17.61	
2025-01-11 08:09:27.77	20.15	17.56	
2025-01-11 08:09:29.00	19.89	17.50	
2025-01-11 08:09:30.23	19.62	17.45	
2025-01-11 08:09:31.47	19.36	17.40	
2025-01-11 08:09:32.70	19.09	17.35	
2025-01-11 08:09:33.92	18.84	17.30	
2025-01-11 08:09:35.15	18.57	17.24	
2025-01-11 08:09:36.40	18.31	17.19	
2025-01-11 08:09:37.63	18.05	17.13	
2025-01-11 08:09:38.88	17.79	17.08	
2025-01-11 08:09:40.12	17.53	17.02	
2025-01-11 08:09:41.35	17.28	16.97	
2025-01-11 08:09:42.58	17.02	16.91	
2025-01-11 08:09:43.81	16.77	16.85	
2025-01-11 08:09:45.04	16.52	16.80	
2025-01-11 08:09:46.28	16.26	16.74	
2025-01-11 08:09:47.51	16.01	16.68	
2025-01-11 08:09:48.74	15.76	16.62	
2025-01-11 08:09:49.99	15.51	16.56	
2025-01-11 08:09:51.22	15.26	16.50	
2025-01-11 08:09:52.45	15.01	16.44	
2025-01-11 08:09:53.69	14.77	16.38	
2025-01-11 08:09:54.92	14.52	16.32	
2025-01-11 08:09:56.15	14.28	16.26	
2025-01-11 08:09:57.39	14.03	16.20	
2025-01-11 08:09:58.61	13.79	16.14	
2025-01-11 08:09:59.84	13.55	16.08	
2025-01-11 08:10:01.08	13.31	16.02	
2025-01-11 08:10:02.31	13.07	15.95	
2025-01-11 08:10:03.54	12.83	15.89	
2025-01-11 08:10:04.77	12.60	15.83	
2025-01-11 08:10:06.00	12.36	15.76	
2025-01-11 08:10:07.23	12.13	15.70	
2025-01-11 08:10:08.46	11.89	15.64	
2025-01-11 08:10:09.69	11.66	15.57	
2025-01-11 08:10:10.92	11.43	15.51	
2025-01-11 08:10:12.15	11.20	15.44	
2025-01-11 08:10:13.38	10.97	15.38	
2025-01-11 08:10:14.63	10.74	15.31	
2025-01-11 08:10:15.87	10.51	15.24	
2025-01-11 08:10:17.11	10.28	15.18	
2025-01-11 08:10:18.34	10.05	15.11	
2025-01-11 08:10:19.58	9.83	15.04	
2025-01-11 08:10:20.81	9.60	14.97	
2025-01-11 08:10:22.04	9.38	14.91	
2025-01-11 08:10:23.27	9.16	14.84	
2025-01-11 08:10:24.50	8.94	14.77	
2025-01-11 08:10:25.72	8.72	14.70	
2025-01-11 08:10:26.96	8.50	14.64	
2025-01-11 08:10:28.19	8.28	14.57	
2025-01-11 08:10:29.42	8.07	14.50	
2025-01-11 08:10:30.65	7.85	14.43	
2025-01-11 08:10:31.89	7.64	14.36	
2025-01-11 08:10:33.12	7.42	14.29	
2025-01-11 08:10:34.35	7.21	14.22	
2025-01-11 08:10:35.58	7.00	14.15	
2025-01-11 08:10:36.81	6.79	14.08	
2025-01-11 08:10:38.04	6.58	14.01	
2025-01-11 08:10:39.27	6.37	13.94	
2025-01-11 08:10:40.50	6.17	13.87	
2025-01-11 08:10:41.75	5.96	13.80	
2025-01-11 08:10:43.00	5.75	13.73	
2025-01-11 08:10:44.23	5.54	13.66	
2025-01-11 08:10:45.46	5.34	13.59	
2025-01-11 08:10:46.70	5.14	13.51	
2025-01-11 08:10:47.93	4.94	13.44	
2025-01-11 08:10:49.17	4.74	13.37	
2025-01-11 08:10:50.39	4.54	13.30	
2025-01-11 08:10:51.63	4.34	13.23	
2025-01-11 08:10:52.86	4.14	13.16	
2025-01-11 08:10:54.09	3.94	13.08	
2025-01-11 08:10:55.32	3.75	13.01	
2025-01-11 08:10:56.55	3.56	12.94	
2025-01-11 08:10:57.78	3.36	12.87	
2025-01-11 08:10:59.02	3.17	12.79	
2025-01-11 08:11:00.24	2.98	12.72	
2025-01-11 08:11:01.50	2.78	12.65	
2025-01-11 08:11:02.73	2.59	12.57	
2025-01-11 08:11:03.96	2.41	12.50	
2025-01-11 08:11:05.19	2.22	12.43	
2025-01-11 08:11:06.42	2.03	12.36	
2025-01-11 08:11:07.68	1.84	12.28	
2025-01-11 08:11:08.90	1.66	12.21	
2025-01-11 08:11:10.13	1.47	12.13	
2025-01-11 08:11:11.36	1.29	12.06	
2025-01-11 08:11:12.59	1.11	11.99	
2025-01-11 08:11:13.82	0.93	11.91	
2025-01-11 08:11:15.05	0.75	11.84	
2025-01-11 08:11:16.28	0.57	11.77	
2025-01-11 08:11:17.51	0.39	11.69	
2025-01-11 08:11:18.74	0.22	11.62	
2025-01-11 08:11:19.97	0.04	11.55	
2025-01-11 08:11:21.20	359.86	11.47	
2025-01-11 08:11:22.44	359.69	11.40	
2025-01-11 08:11:23.66	359.52	11.32	
2025-01-11 08:11:24.90	359.34	11.25	
2025-01-11 08:11:26.12	359.17	11.18	
2025-01-11 08:11:27.35	359.00	11.10	
2025-01-11 08:11:28.58	358.83	11.03	
2025-01-11 08:11:29.81	358.66	10.95	
2025-01-11 08:11:31.04	358.49	10.88	
2025-01-11 08:11:32.27	358.33	10.81	
2025-01-11 08:11:33.50	358.16	10.73	
2025-01-11 08:11:34.74	357.99	10.66	
2025-01-11 08:11:35.97	357.83	10.58	
2025-01-11 08:11:37.20	357.66	10.51	
2025-01-11 08:11:38.43	357.50	10.44	
2025-01-11 08:11:39.66	357.34	10.36	
2025-01-11 08:11:40.89	357.18	10.29	
2025-01-11 08:11:42.12	357.02	10.21	
2025-01-11 08:11:43.36	356.85	10.14	
2025-01-11 08:11:44.60	356.69	10.06	
2025-01-11 08:11:45.84	356.53	9.99	
2025-01-11 08:11:47.07	356.38	9.92	
2025-01-11 08:11:48.30	356.22	9.84	
2025-01-11 08:11:49.53	356.07	9.77	
2025-01-11 08:11:50.77	355.91	9.69	
2025-01-11 08:11:52.00	355.76	9.62	
2025-01-11 08:11:53.23	355.60	9.54	
2025-01-11 08:11:54.48	355.45	9.47	
2025-01-11 08:11:55.72	355.29	9.40	
2025-01-11 08:11:56.96	355.14	9.32	
2025-01-11 08:11:58.19	354.99	9.25	
2025-01-11 08:11:59.44	354.84	9.17	
2025-01-11 08:12:00.67	354.69	9.10	
2025-01-11 08:12:01.91	354.54	9.02	
2025-01-11 08:12:03.14	354.40	8.95	
2025-01-11 08:12:04.37	354.25	8.88	
2025-01-11 08:12:05.61	354.10	8.80	
2025-01-11 08:12:06.84	353.96	8.73	
2025-01-11 08:12:08.08	353.81	8.65	
2025-01-11 08:12:09.32	353.67	8.58	
2025-01-11 08:12:10.55	353.53	8.51	
2025-01-11 08:12:11.78	353.39	8.43	
2025-01-11 08:12:13.03	353.24	8.36	
2025-01-11 08:12:14.25	353.10	8.29	
2025-01-11 08:12:15.48	352.96	8.21	
2025-01-11 08:12:16.72	352.82	8.14	
2025-01-11 08:12:17.95	352.69	8.07	
2025-01-11 08:12:19.18	352.55	7.99	
2025-01-11 08:12:20.42	352.41	7.92	
2025-01-11 08:12:21.67	352.27	7.84	
2025-01-11 08:12:22.90	352.14	7.77	
2025-01-11 08:12:24.13	352.00	7.70	
2025-01-11 08:12:25.36	351.87	7.63	
2025-01-11 08:12:26.59	351.74	7.55	
2025-01-11 08:12:27.82	351.60	7.48	
2025-01-11 08:12:29.05	351.47	7.41	
2025-01-11 08:12:30.30	351.34	7.33	
2025-01-11 08:12:31.54	351.21	7.26	
2025-01-11 08:12:32.77	351.08	7.19	
2025-01-11 08:12:34.01	350.95	7.11	
2025-01-11 08:12:35.25	350.82	7.04	
2025-01-11 08:12:36.48	350.69	6.97	
2025-01-11 08:12:37.71	350.56	6.90	
2025-01-11 08:12:38.95	350.44	6.82	
2025-01-11 08:12:40.18	350.31	6.75	
2025-01-11 08:12:41.43	350.18	6.68	
2025-01-11 08:12:42.67	350.06	6.61	
2025-01-11 08:12:43.90	349.93	6.53	
2025-01-11 08:12:45.13	349.81	6.46	
2025-01-11 08:12:46.36	349.69	6.39	
2025-01-11 08:12:47.61	349.57	6.32	
2025-01-11 08:12:48.84	349.44	6.25	
2025-01-11 08:12:50.08	349.32	6.17	
2025-01-11 08:12:51.31	349.20	6.10	
2025-01-11 08:12:52.54	349.08	6.03	
2025-01-11 08:12:53.77	348.96	5.96	
2025-01-11 08:12:55.00	348.85	5.89	
2025-01-11 08:12:56.23	348.73	5.82	
2025-01-11 08:12:57.46	348.61	5.75	
2025-01-11 08:12:58.70	348.49	5.67	
2025-01-11 08:12:59.93	348.38	5.60	
2025-01-11 08:13:01.15	348.26	5.53	
2025-01-11 08:13:02.39	348.15	5.46	
2025-01-11 08:13:03.63	348.03	5.39	
2025-01-11 08:13:04.87	347.92	5.32	
2025-01-11 08:13:06.11	347.81	5.25	
2025-01-11 08:13:07.34	347.69	5.18	
2025-01-11 08:13:08.57	347.58	5.11	
2025-01-11 08:13:09.81	347.47	5.04	
2025-01-11 08:13:11.04	347.36	4.97	
2025-01-11 08:13:12.27	347.25	4.90	
2025-01-11 08:13:13.50	347.14	4.83	
2025-01-11 08:13:14.73	347.03	4.76	
2025-01-11 08:13:15.96	346.92	4.69	
2025-01-11 08:13:17.19	346.81	4.62	
2025-01-11 08:13:18.42	346.71	4.55	
2025-01-11 08:13:19.66	346.60	4.48	
2025-01-11 08:13:20.89	346.49	4.41	
2025-01-11 08:13:22.12	346.39	4.34	
2025-01-11 08:13:23.35	346.28	4.27	
2025-01-11 08:13:24.58	346.18	4.20	
2025-01-11 08:13:25.81	346.07	4.13	
2025-01-11 08:13:27.04	345.97	4.06	

#Closed at: 2025-01-11 08:13:28