passes_logs/2025/01/11/SPB_Silybum_02/SPB_Silybum_02__20250111_041311_AQUA_rec.log

#Pass ID: 20250111_041311_AQUA
#Satellite: AQUA
#Configuration: AQUA
#Start time: 2025-01-11 04:13:11

#Version: 2.0.20230423
#Station: SPB_Silybum_02
#Location: 30.233357 lon 59.946436 lat
#TLE: 1 27424U 02022A   25010.14776733  .00002050  00000+0  43097-3 0  9993
#TLE: 2 27424  98.3581 326.7682 0001515 116.0773 333.4276 14.60663937206917

#Time	Az	El	Level	Level2	SNR	BER	Gain	Gain2
2025-01-11 04:13:13.86	6.86	4.10	
2025-01-11 04:13:14.68	6.76	4.13	
2025-01-11 04:13:15.50	6.65	4.17	
2025-01-11 04:13:16.33	6.55	4.21	
2025-01-11 04:13:17.15	6.44	4.24	
2025-01-11 04:13:17.96	6.34	4.28	
2025-01-11 04:13:18.78	6.23	4.32	
2025-01-11 04:13:19.60	6.13	4.36	
2025-01-11 04:13:20.42	6.02	4.39	
2025-01-11 04:13:21.24	5.91	4.43	
2025-01-11 04:13:22.06	5.81	4.47	
2025-01-11 04:13:22.89	5.70	4.50	
2025-01-11 04:13:23.71	5.59	4.54	
2025-01-11 04:13:24.53	5.48	4.58	
2025-01-11 04:13:25.36	5.37	4.61	
2025-01-11 04:13:26.19	5.26	4.65	
2025-01-11 04:13:27.01	5.15	4.69	
2025-01-11 04:13:27.83	5.04	4.72	
2025-01-11 04:13:28.65	4.93	4.76	
2025-01-11 04:13:29.47	4.82	4.80	
2025-01-11 04:13:30.29	4.71	4.83	
2025-01-11 04:13:31.11	4.60	4.87	
2025-01-11 04:13:31.93	4.49	4.91	
2025-01-11 04:13:32.75	4.38	4.94	
2025-01-11 04:13:33.57	4.27	4.98	
2025-01-11 04:13:34.39	4.16	5.02	
2025-01-11 04:13:35.21	4.05	5.05	
2025-01-11 04:13:36.03	3.93	5.09	
2025-01-11 04:13:36.85	3.82	5.13	
2025-01-11 04:13:37.67	3.71	5.16	
2025-01-11 04:13:38.49	3.60	5.20	
2025-01-11 04:13:39.31	3.48	5.23	
2025-01-11 04:13:40.13	3.37	5.27	
2025-01-11 04:13:40.95	3.25	5.31	
2025-01-11 04:13:41.77	3.14	5.34	
2025-01-11 04:13:42.60	3.02	5.38	
2025-01-11 04:13:43.42	2.91	5.41	
2025-01-11 04:13:44.24	2.79	5.45	
2025-01-11 04:13:45.06	2.68	5.49	
2025-01-11 04:13:45.88	2.56	5.52	
2025-01-11 04:13:46.70	2.44	5.56	
2025-01-11 04:13:47.54	2.32	5.59	
2025-01-11 04:13:48.36	2.21	5.63	
2025-01-11 04:13:49.18	2.09	5.66	
2025-01-11 04:13:50.00	1.97	5.70	
2025-01-11 04:13:50.82	1.85	5.74	
2025-01-11 04:13:51.64	1.74	5.77	
2025-01-11 04:13:52.47	1.62	5.81	
2025-01-11 04:13:53.29	1.50	5.84	
2025-01-11 04:13:54.11	1.38	5.88	
2025-01-11 04:13:54.93	1.26	5.91	
2025-01-11 04:13:55.75	1.14	5.95	
2025-01-11 04:13:56.57	1.02	5.98	
2025-01-11 04:13:57.39	0.90	6.02	
2025-01-11 04:13:58.21	0.78	6.05	
2025-01-11 04:13:59.03	0.65	6.09	
2025-01-11 04:13:59.85	0.53	6.12	
2025-01-11 04:14:00.67	0.41	6.16	
2025-01-11 04:14:01.49	0.29	6.19	
2025-01-11 04:14:02.31	0.17	6.23	
2025-01-11 04:14:03.13	0.04	6.26	
2025-01-11 04:14:03.95	359.92	6.30	
2025-01-11 04:14:04.77	359.80	6.33	
2025-01-11 04:14:05.59	359.67	6.36	
2025-01-11 04:14:06.41	359.55	6.40	
2025-01-11 04:14:07.24	359.42	6.43	
2025-01-11 04:14:08.07	359.30	6.47	
2025-01-11 04:14:08.90	359.17	6.50	
2025-01-11 04:14:09.72	359.04	6.54	
2025-01-11 04:14:10.54	358.92	6.57	
2025-01-11 04:14:11.38	358.79	6.60	
2025-01-11 04:14:12.19	358.66	6.64	
2025-01-11 04:14:13.01	358.54	6.67	
2025-01-11 04:14:13.83	358.41	6.71	
2025-01-11 04:14:14.65	358.28	6.74	
2025-01-11 04:14:15.47	358.15	6.77	
2025-01-11 04:14:16.30	358.03	6.81	
2025-01-11 04:14:17.12	357.90	6.84	
2025-01-11 04:14:17.94	357.77	6.87	
2025-01-11 04:14:18.77	357.64	6.91	
2025-01-11 04:14:19.60	357.51	6.94	
2025-01-11 04:14:20.42	357.38	6.97	
2025-01-11 04:14:21.24	357.25	7.01	
2025-01-11 04:14:22.06	357.12	7.04	
2025-01-11 04:14:22.88	356.99	7.07	
2025-01-11 04:14:23.70	356.85	7.10	
2025-01-11 04:14:24.53	356.72	7.14	
2025-01-11 04:14:25.35	356.59	7.17	
2025-01-11 04:14:26.17	356.46	7.20	
2025-01-11 04:14:26.99	356.33	7.23	
2025-01-11 04:14:27.81	356.19	7.27	
2025-01-11 04:14:28.64	356.06	7.30	
2025-01-11 04:14:29.45	355.93	7.33	
2025-01-11 04:14:30.29	355.79	7.36	
2025-01-11 04:14:31.11	355.66	7.39	
2025-01-11 04:14:31.93	355.52	7.43	
2025-01-11 04:14:32.76	355.38	7.46	
2025-01-11 04:14:33.59	355.25	7.49	
2025-01-11 04:14:34.42	355.11	7.52	
2025-01-11 04:14:35.24	354.98	7.55	
2025-01-11 04:14:36.06	354.84	7.58	
2025-01-11 04:14:36.88	354.70	7.62	
2025-01-11 04:14:37.70	354.57	7.65	
2025-01-11 04:14:38.52	354.43	7.68	
2025-01-11 04:14:39.34	354.29	7.71	
2025-01-11 04:14:40.16	354.16	7.74	
2025-01-11 04:14:40.98	354.02	7.77	
2025-01-11 04:14:41.79	353.88	7.80	
2025-01-11 04:14:42.61	353.74	7.83	
2025-01-11 04:14:43.43	353.60	7.86	
2025-01-11 04:14:44.25	353.46	7.89	
2025-01-11 04:14:45.07	353.32	7.92	
2025-01-11 04:14:45.89	353.18	7.95	
2025-01-11 04:14:46.71	353.04	7.98	
2025-01-11 04:14:47.53	352.90	8.01	
2025-01-11 04:14:48.36	352.76	8.04	
2025-01-11 04:14:49.18	352.62	8.07	
2025-01-11 04:14:50.00	352.48	8.10	
2025-01-11 04:14:50.82	352.34	8.13	
2025-01-11 04:14:51.64	352.20	8.16	
2025-01-11 04:14:52.46	352.05	8.19	
2025-01-11 04:14:53.28	351.91	8.22	
2025-01-11 04:14:54.09	351.77	8.24	
2025-01-11 04:14:54.91	351.63	8.27	
2025-01-11 04:14:55.73	351.48	8.30	
2025-01-11 04:14:56.55	351.34	8.33	
2025-01-11 04:14:57.38	351.19	8.36	
2025-01-11 04:14:58.19	351.05	8.39	
2025-01-11 04:14:59.02	350.90	8.41	
2025-01-11 04:14:59.85	350.76	8.44	
2025-01-11 04:15:00.67	350.61	8.47	
2025-01-11 04:15:01.49	350.47	8.50	
2025-01-11 04:15:02.31	350.32	8.53	
2025-01-11 04:15:03.13	350.17	8.55	
2025-01-11 04:15:03.95	350.03	8.58	
2025-01-11 04:15:04.78	349.88	8.61	
2025-01-11 04:15:05.61	349.73	8.64	
2025-01-11 04:15:06.43	349.58	8.66	
2025-01-11 04:15:07.26	349.43	8.69	
2025-01-11 04:15:08.08	349.28	8.72	
2025-01-11 04:15:08.90	349.14	8.74	
2025-01-11 04:15:09.72	348.99	8.77	
2025-01-11 04:15:10.54	348.84	8.79	
2025-01-11 04:15:11.36	348.69	8.82	
2025-01-11 04:15:12.17	348.54	8.85	
2025-01-11 04:15:12.99	348.39	8.87	
2025-01-11 04:15:13.81	348.24	8.90	
2025-01-11 04:15:14.63	348.09	8.92	
2025-01-11 04:15:15.45	347.94	8.95	
2025-01-11 04:15:16.27	347.79	8.97	
2025-01-11 04:15:17.09	347.64	9.00	
2025-01-11 04:15:17.91	347.48	9.02	
2025-01-11 04:15:18.73	347.33	9.05	
2025-01-11 04:15:19.55	347.18	9.07	
2025-01-11 04:15:20.37	347.03	9.10	
2025-01-11 04:15:21.20	346.87	9.12	
2025-01-11 04:15:22.02	346.72	9.14	
2025-01-11 04:15:22.84	346.57	9.17	
2025-01-11 04:15:23.66	346.41	9.19	
2025-01-11 04:15:24.48	346.26	9.22	
2025-01-11 04:15:25.30	346.11	9.24	
2025-01-11 04:15:26.12	345.95	9.26	
2025-01-11 04:15:26.93	345.80	9.28	
2025-01-11 04:15:27.75	345.64	9.31	
2025-01-11 04:15:28.58	345.49	9.33	
2025-01-11 04:15:29.40	345.33	9.35	
2025-01-11 04:15:30.22	345.18	9.38	
2025-01-11 04:15:31.03	345.02	9.40	
2025-01-11 04:15:31.86	344.86	9.42	
2025-01-11 04:15:32.67	344.71	9.44	
2025-01-11 04:15:33.49	344.55	9.46	
2025-01-11 04:15:34.31	344.39	9.48	
2025-01-11 04:15:35.13	344.24	9.51	
2025-01-11 04:15:35.95	344.08	9.53	
2025-01-11 04:15:36.77	343.92	9.55	
2025-01-11 04:15:37.60	343.76	9.57	
2025-01-11 04:15:38.42	343.60	9.59	
2025-01-11 04:15:39.24	343.44	9.61	
2025-01-11 04:15:40.06	343.29	9.63	
2025-01-11 04:15:40.88	343.13	9.65	
2025-01-11 04:15:41.70	342.97	9.67	
2025-01-11 04:15:42.52	342.81	9.69	
2025-01-11 04:15:43.34	342.65	9.71	
2025-01-11 04:15:44.16	342.49	9.73	
2025-01-11 04:15:44.98	342.33	9.75	
2025-01-11 04:15:45.80	342.17	9.77	
2025-01-11 04:15:46.64	342.00	9.79	
2025-01-11 04:15:47.45	341.84	9.81	
2025-01-11 04:15:48.27	341.68	9.82	
2025-01-11 04:15:49.10	341.52	9.84	
2025-01-11 04:15:49.92	341.36	9.86	
2025-01-11 04:15:50.74	341.20	9.88	
2025-01-11 04:15:51.56	341.03	9.90	
2025-01-11 04:15:52.38	340.87	9.91	
2025-01-11 04:15:53.20	340.71	9.93	
2025-01-11 04:15:54.02	340.55	9.95	
2025-01-11 04:15:54.84	340.38	9.96	
2025-01-11 04:15:55.66	340.22	9.98	
2025-01-11 04:15:56.48	340.06	10.00	
2025-01-11 04:15:57.30	339.89	10.01	
2025-01-11 04:15:58.12	339.73	10.03	
2025-01-11 04:15:58.94	339.57	10.05	
2025-01-11 04:15:59.76	339.40	10.06	
2025-01-11 04:16:00.58	339.24	10.08	
2025-01-11 04:16:01.40	339.07	10.09	
2025-01-11 04:16:02.22	338.91	10.11	
2025-01-11 04:16:03.04	338.74	10.12	
2025-01-11 04:16:03.86	338.58	10.14	
2025-01-11 04:16:04.68	338.41	10.15	
2025-01-11 04:16:05.50	338.25	10.17	
2025-01-11 04:16:06.32	338.08	10.18	
2025-01-11 04:16:07.14	337.92	10.19	
2025-01-11 04:16:07.96	337.75	10.21	
2025-01-11 04:16:08.78	337.59	10.22	
2025-01-11 04:16:09.60	337.42	10.23	
2025-01-11 04:16:10.42	337.25	10.25	
2025-01-11 04:16:11.24	337.09	10.26	
2025-01-11 04:16:12.06	336.92	10.27	
2025-01-11 04:16:12.88	336.75	10.29	
2025-01-11 04:16:13.70	336.59	10.30	
2025-01-11 04:16:14.52	336.42	10.31	
2025-01-11 04:16:15.34	336.25	10.32	
2025-01-11 04:16:16.16	336.08	10.33	
2025-01-11 04:16:16.98	335.92	10.34	
2025-01-11 04:16:17.80	335.75	10.36	
2025-01-11 04:16:18.62	335.58	10.37	
2025-01-11 04:16:19.45	335.41	10.38	
2025-01-11 04:16:20.27	335.24	10.39	
2025-01-11 04:16:21.09	335.07	10.40	
2025-01-11 04:16:21.92	334.90	10.41	
2025-01-11 04:16:22.73	334.74	10.42	
2025-01-11 04:16:23.55	334.57	10.43	
2025-01-11 04:16:24.37	334.40	10.44	
2025-01-11 04:16:25.19	334.23	10.45	
2025-01-11 04:16:26.01	334.06	10.45	
2025-01-11 04:16:26.83	333.89	10.46	
2025-01-11 04:16:27.65	333.72	10.47	
2025-01-11 04:16:28.47	333.55	10.48	
2025-01-11 04:16:29.29	333.38	10.49	
2025-01-11 04:16:30.11	333.21	10.50	
2025-01-11 04:16:30.93	333.04	10.50	
2025-01-11 04:16:31.75	332.87	10.51	
2025-01-11 04:16:32.58	332.70	10.52	
2025-01-11 04:16:33.40	332.53	10.52	
2025-01-11 04:16:34.22	332.36	10.53	
2025-01-11 04:16:35.04	332.19	10.54	
2025-01-11 04:16:35.86	332.02	10.54	
2025-01-11 04:16:36.68	331.85	10.55	
2025-01-11 04:16:37.50	331.68	10.55	
2025-01-11 04:16:38.32	331.51	10.56	
2025-01-11 04:16:39.14	331.34	10.57	
2025-01-11 04:16:39.95	331.17	10.57	
2025-01-11 04:16:40.78	331.00	10.58	
2025-01-11 04:16:41.60	330.83	10.58	
2025-01-11 04:16:42.43	330.66	10.58	
2025-01-11 04:16:43.25	330.49	10.59	
2025-01-11 04:16:44.08	330.31	10.59	
2025-01-11 04:16:44.90	330.14	10.60	
2025-01-11 04:16:45.72	329.97	10.60	
2025-01-11 04:16:46.54	329.80	10.60	
2025-01-11 04:16:47.37	329.63	10.61	
2025-01-11 04:16:48.19	329.45	10.61	
2025-01-11 04:16:49.01	329.28	10.61	
2025-01-11 04:16:49.83	329.11	10.61	
2025-01-11 04:16:50.65	328.94	10.62	
2025-01-11 04:16:51.47	328.77	10.62	
2025-01-11 04:16:52.31	328.59	10.62	
2025-01-11 04:16:53.12	328.43	10.62	
2025-01-11 04:16:53.95	328.25	10.62	
2025-01-11 04:16:54.76	328.08	10.62	
2025-01-11 04:16:55.58	327.91	10.62	
2025-01-11 04:16:56.40	327.74	10.62	
2025-01-11 04:16:57.23	327.57	10.62	
2025-01-11 04:16:58.05	327.40	10.62	
2025-01-11 04:16:58.87	327.22	10.62	
2025-01-11 04:16:59.69	327.05	10.62	
2025-01-11 04:17:00.51	326.88	10.62	
2025-01-11 04:17:01.33	326.71	10.62	
2025-01-11 04:17:02.15	326.54	10.62	
2025-01-11 04:17:02.97	326.37	10.62	
2025-01-11 04:17:03.79	326.20	10.62	
2025-01-11 04:17:04.62	326.02	10.61	
2025-01-11 04:17:05.45	325.85	10.61	
2025-01-11 04:17:06.27	325.68	10.61	
2025-01-11 04:17:07.09	325.51	10.61	
2025-01-11 04:17:07.92	325.33	10.60	
2025-01-11 04:17:08.74	325.16	10.60	
2025-01-11 04:17:09.57	324.99	10.60	
2025-01-11 04:17:10.39	324.82	10.59	
2025-01-11 04:17:11.23	324.64	10.59	
2025-01-11 04:17:12.05	324.47	10.59	
2025-01-11 04:17:12.87	324.30	10.58	
2025-01-11 04:17:13.68	324.13	10.58	
2025-01-11 04:17:14.50	323.96	10.57	
2025-01-11 04:17:15.33	323.79	10.57	
2025-01-11 04:17:16.15	323.62	10.56	
2025-01-11 04:17:16.97	323.45	10.56	
2025-01-11 04:17:17.79	323.28	10.55	
2025-01-11 04:17:18.60	323.11	10.54	
2025-01-11 04:17:19.43	322.94	10.54	
2025-01-11 04:17:20.25	322.77	10.53	
2025-01-11 04:17:21.06	322.60	10.53	
2025-01-11 04:17:21.88	322.43	10.52	
2025-01-11 04:17:22.70	322.26	10.51	
2025-01-11 04:17:23.52	322.09	10.50	
2025-01-11 04:17:24.34	321.92	10.50	
2025-01-11 04:17:25.17	321.75	10.49	
2025-01-11 04:17:26.00	321.58	10.48	
2025-01-11 04:17:26.81	321.41	10.47	
2025-01-11 04:17:27.64	321.24	10.46	
2025-01-11 04:17:28.45	321.07	10.46	
2025-01-11 04:17:29.27	320.90	10.45	
2025-01-11 04:17:30.09	320.73	10.44	
2025-01-11 04:17:30.91	320.56	10.43	
2025-01-11 04:17:31.73	320.39	10.42	
2025-01-11 04:17:32.55	320.22	10.41	
2025-01-11 04:17:33.37	320.06	10.40	
2025-01-11 04:17:34.20	319.88	10.39	
2025-01-11 04:17:35.02	319.72	10.38	
2025-01-11 04:17:35.85	319.55	10.37	
2025-01-11 04:17:36.68	319.38	10.36	
2025-01-11 04:17:37.50	319.21	10.35	
2025-01-11 04:17:38.31	319.04	10.34	
2025-01-11 04:17:39.13	318.87	10.32	
2025-01-11 04:17:39.96	318.70	10.31	
2025-01-11 04:17:40.78	318.54	10.30	
2025-01-11 04:17:41.61	318.37	10.29	
2025-01-11 04:17:42.43	318.20	10.28	
2025-01-11 04:17:43.25	318.03	10.26	
2025-01-11 04:17:44.07	317.87	10.25	
2025-01-11 04:17:44.89	317.70	10.24	
2025-01-11 04:17:45.71	317.53	10.22	
2025-01-11 04:17:46.53	317.37	10.21	
2025-01-11 04:17:47.35	317.20	10.20	
2025-01-11 04:17:48.17	317.04	10.18	
2025-01-11 04:17:48.99	316.87	10.17	
2025-01-11 04:17:49.81	316.70	10.16	
2025-01-11 04:17:50.63	316.54	10.14	
2025-01-11 04:17:51.45	316.37	10.13	
2025-01-11 04:17:52.28	316.21	10.11	
2025-01-11 04:17:53.10	316.04	10.10	
2025-01-11 04:17:53.92	315.88	10.08	
2025-01-11 04:17:54.74	315.71	10.07	
2025-01-11 04:17:55.56	315.55	10.05	
2025-01-11 04:17:56.38	315.38	10.03	
2025-01-11 04:17:57.20	315.22	10.02	
2025-01-11 04:17:58.02	315.05	10.00	
2025-01-11 04:17:58.84	314.89	9.99	
2025-01-11 04:17:59.66	314.73	9.97	
2025-01-11 04:18:00.48	314.56	9.95	
2025-01-11 04:18:01.30	314.40	9.93	
2025-01-11 04:18:02.13	314.24	9.92	
2025-01-11 04:18:02.95	314.07	9.90	
2025-01-11 04:18:03.77	313.91	9.88	
2025-01-11 04:18:04.58	313.75	9.86	
2025-01-11 04:18:05.40	313.59	9.85	
2025-01-11 04:18:06.22	313.43	9.83	
2025-01-11 04:18:07.04	313.27	9.81	
2025-01-11 04:18:07.87	313.10	9.79	
2025-01-11 04:18:08.69	312.94	9.77	
2025-01-11 04:18:09.52	312.78	9.75	
2025-01-11 04:18:10.34	312.62	9.73	
2025-01-11 04:18:11.16	312.46	9.71	
2025-01-11 04:18:11.98	312.30	9.69	
2025-01-11 04:18:12.80	312.14	9.67	
2025-01-11 04:18:13.62	311.98	9.65	
2025-01-11 04:18:14.44	311.82	9.63	
2025-01-11 04:18:15.26	311.66	9.61	
2025-01-11 04:18:16.08	311.50	9.59	
2025-01-11 04:18:16.90	311.34	9.57	
2025-01-11 04:18:17.72	311.18	9.55	
2025-01-11 04:18:18.54	311.03	9.53	
2025-01-11 04:18:19.36	310.87	9.51	
2025-01-11 04:18:20.18	310.71	9.49	
2025-01-11 04:18:21.00	310.55	9.47	
2025-01-11 04:18:21.82	310.39	9.45	
2025-01-11 04:18:22.64	310.24	9.42	
2025-01-11 04:18:23.46	310.08	9.40	
2025-01-11 04:18:24.27	309.93	9.38	
2025-01-11 04:18:25.11	309.77	9.36	
2025-01-11 04:18:25.93	309.61	9.33	
2025-01-11 04:18:26.75	309.45	9.31	
2025-01-11 04:18:27.57	309.30	9.29	
2025-01-11 04:18:28.39	309.14	9.27	
2025-01-11 04:18:29.21	308.99	9.24	
2025-01-11 04:18:30.03	308.83	9.22	
2025-01-11 04:18:30.86	308.68	9.20	
2025-01-11 04:18:31.70	308.52	9.17	
2025-01-11 04:18:32.52	308.37	9.15	
2025-01-11 04:18:33.33	308.22	9.12	
2025-01-11 04:18:34.16	308.06	9.10	
2025-01-11 04:18:34.98	307.91	9.07	
2025-01-11 04:18:35.80	307.75	9.05	
2025-01-11 04:18:36.63	307.60	9.03	
2025-01-11 04:18:37.45	307.45	9.00	
2025-01-11 04:18:38.29	307.29	8.97	
2025-01-11 04:18:39.11	307.14	8.95	
2025-01-11 04:18:39.92	306.99	8.92	
2025-01-11 04:18:40.74	306.84	8.90	
2025-01-11 04:18:41.55	306.69	8.87	
2025-01-11 04:18:42.37	306.54	8.85	
2025-01-11 04:18:43.19	306.39	8.82	
2025-01-11 04:18:44.01	306.24	8.80	
2025-01-11 04:18:44.83	306.09	8.77	
2025-01-11 04:18:45.65	305.94	8.74	
2025-01-11 04:18:46.47	305.79	8.72	
2025-01-11 04:18:47.29	305.65	8.69	
2025-01-11 04:18:48.11	305.50	8.66	
2025-01-11 04:18:48.93	305.35	8.64	
2025-01-11 04:18:49.76	305.20	8.61	
2025-01-11 04:18:50.58	305.05	8.58	
2025-01-11 04:18:51.41	304.90	8.56	
2025-01-11 04:18:52.23	304.76	8.53	
2025-01-11 04:18:53.04	304.61	8.50	
2025-01-11 04:18:53.86	304.46	8.47	
2025-01-11 04:18:54.68	304.32	8.45	
2025-01-11 04:18:55.50	304.17	8.42	
2025-01-11 04:18:56.32	304.03	8.39	
2025-01-11 04:18:57.14	303.88	8.36	
2025-01-11 04:18:57.96	303.74	8.33	
2025-01-11 04:18:58.79	303.59	8.30	
2025-01-11 04:18:59.61	303.45	8.28	
2025-01-11 04:19:00.42	303.31	8.25	
2025-01-11 04:19:01.24	303.16	8.22	
2025-01-11 04:19:02.06	303.02	8.19	
2025-01-11 04:19:02.88	302.88	8.16	
2025-01-11 04:19:03.70	302.73	8.13	
2025-01-11 04:19:04.52	302.59	8.10	
2025-01-11 04:19:05.34	302.45	8.07	
2025-01-11 04:19:06.16	302.31	8.04	
2025-01-11 04:19:06.98	302.17	8.01	
2025-01-11 04:19:07.82	302.02	7.98	
2025-01-11 04:19:08.64	301.88	7.95	
2025-01-11 04:19:09.45	301.74	7.92	
2025-01-11 04:19:10.27	301.60	7.89	
2025-01-11 04:19:11.09	301.46	7.86	
2025-01-11 04:19:11.90	301.33	7.83	
2025-01-11 04:19:12.73	301.18	7.80	
2025-01-11 04:19:13.56	301.04	7.77	
2025-01-11 04:19:14.38	300.91	7.74	
2025-01-11 04:19:15.20	300.77	7.71	
2025-01-11 04:19:16.02	300.63	7.68	
2025-01-11 04:19:16.84	300.49	7.65	
2025-01-11 04:19:17.67	300.35	7.62	
2025-01-11 04:19:18.49	300.22	7.59	
2025-01-11 04:19:19.31	300.08	7.55	
2025-01-11 04:19:20.13	299.94	7.52	
2025-01-11 04:19:20.95	299.81	7.49	
2025-01-11 04:19:21.77	299.67	7.46	
2025-01-11 04:19:22.59	299.54	7.43	
2025-01-11 04:19:23.41	299.40	7.40	
2025-01-11 04:19:24.25	299.26	7.36	
2025-01-11 04:19:25.06	299.13	7.33	
2025-01-11 04:19:25.88	299.00	7.30	
2025-01-11 04:19:26.72	298.86	7.27	
2025-01-11 04:19:27.54	298.73	7.23	
2025-01-11 04:19:28.36	298.59	7.20	
2025-01-11 04:19:29.18	298.46	7.17	
2025-01-11 04:19:30.00	298.33	7.14	
2025-01-11 04:19:30.82	298.20	7.10	
2025-01-11 04:19:31.63	298.07	7.07	
2025-01-11 04:19:32.46	297.93	7.04	
2025-01-11 04:19:33.28	297.80	7.01	
2025-01-11 04:19:34.10	297.67	6.97	
2025-01-11 04:19:34.92	297.54	6.94	
2025-01-11 04:19:35.74	297.41	6.91	
2025-01-11 04:19:36.56	297.28	6.87	
2025-01-11 04:19:37.38	297.15	6.84	
2025-01-11 04:19:38.20	297.02	6.81	
2025-01-11 04:19:39.02	296.90	6.77	
2025-01-11 04:19:39.84	296.77	6.74	
2025-01-11 04:19:40.66	296.64	6.71	
2025-01-11 04:19:41.48	296.51	6.67	
2025-01-11 04:19:42.30	296.38	6.64	
2025-01-11 04:19:43.12	296.26	6.61	
2025-01-11 04:19:43.94	296.13	6.57	
2025-01-11 04:19:44.76	296.00	6.54	
2025-01-11 04:19:45.58	295.88	6.50	
2025-01-11 04:19:46.40	295.75	6.47	
2025-01-11 04:19:47.22	295.63	6.44	
2025-01-11 04:19:48.04	295.50	6.40	
2025-01-11 04:19:48.87	295.37	6.37	
2025-01-11 04:19:49.69	295.25	6.33	
2025-01-11 04:19:50.51	295.13	6.30	
2025-01-11 04:19:51.32	295.00	6.26	
2025-01-11 04:19:52.14	294.88	6.23	
2025-01-11 04:19:52.96	294.76	6.19	
2025-01-11 04:19:53.78	294.63	6.16	
2025-01-11 04:19:54.61	294.51	6.12	
2025-01-11 04:19:55.43	294.39	6.09	
2025-01-11 04:19:56.25	294.27	6.05	
2025-01-11 04:19:57.07	294.14	6.02	
2025-01-11 04:19:57.89	294.02	5.98	
2025-01-11 04:19:58.71	293.90	5.95	
2025-01-11 04:19:59.53	293.78	5.91	
2025-01-11 04:20:00.34	293.66	5.88	
2025-01-11 04:20:01.16	293.54	5.84	
2025-01-11 04:20:01.98	293.42	5.81	
2025-01-11 04:20:02.80	293.30	5.77	
2025-01-11 04:20:03.62	293.18	5.74	
2025-01-11 04:20:04.45	293.06	5.70	
2025-01-11 04:20:05.26	292.95	5.67	
2025-01-11 04:20:06.09	292.83	5.63	
2025-01-11 04:20:06.91	292.71	5.60	
2025-01-11 04:20:07.73	292.59	5.56	
2025-01-11 04:20:08.54	292.48	5.52	
2025-01-11 04:20:09.37	292.36	5.49	
2025-01-11 04:20:10.19	292.24	5.45	
2025-01-11 04:20:11.01	292.13	5.42	
2025-01-11 04:20:11.82	292.01	5.38	
2025-01-11 04:20:12.65	291.89	5.34	
2025-01-11 04:20:13.47	291.78	5.31	
2025-01-11 04:20:14.29	291.66	5.27	
2025-01-11 04:20:15.11	291.55	5.24	
2025-01-11 04:20:15.94	291.43	5.20	
2025-01-11 04:20:16.76	291.32	5.16	
2025-01-11 04:20:17.58	291.21	5.13	
2025-01-11 04:20:18.39	291.09	5.09	
2025-01-11 04:20:19.22	290.98	5.05	
2025-01-11 04:20:20.04	290.87	5.02	
2025-01-11 04:20:20.85	290.76	4.98	
2025-01-11 04:20:21.67	290.64	4.95	
2025-01-11 04:20:22.50	290.53	4.91	
2025-01-11 04:20:23.31	290.42	4.87	
2025-01-11 04:20:24.13	290.31	4.84	
2025-01-11 04:20:24.95	290.20	4.80	
2025-01-11 04:20:25.77	290.09	4.76	
2025-01-11 04:20:26.59	289.98	4.73	
2025-01-11 04:20:27.41	289.87	4.69	
2025-01-11 04:20:28.24	289.76	4.65	
2025-01-11 04:20:29.07	289.65	4.61	
2025-01-11 04:20:29.88	289.54	4.58	
2025-01-11 04:20:30.71	289.43	4.54	
2025-01-11 04:20:31.53	289.32	4.50	
2025-01-11 04:20:32.35	289.21	4.47	
2025-01-11 04:20:33.18	289.10	4.43	
2025-01-11 04:20:34.00	289.00	4.39	
2025-01-11 04:20:34.82	288.89	4.36	
2025-01-11 04:20:35.64	288.78	4.32	
2025-01-11 04:20:36.47	288.67	4.28	
2025-01-11 04:20:37.29	288.57	4.24	
2025-01-11 04:20:38.11	288.46	4.21	
2025-01-11 04:20:38.93	288.36	4.17	
2025-01-11 04:20:39.76	288.25	4.13	
2025-01-11 04:20:40.58	288.14	4.09	
2025-01-11 04:20:41.41	288.04	4.06	
2025-01-11 04:20:42.24	287.93	4.02	

#Closed at: 2025-01-11 04:20:42