passes_logs/2025/01/11/SPB_Silybum_02/SPB_Silybum_02__20250111_094045_SUOMI_NPP_rec.log

#Pass ID: 20250111_094045_SUOMI NPP
#Satellite: SUOMI NPP
#Configuration: NPP
#Start time: 2025-01-11 09:40:46

#Version: 2.0.20230423
#Station: SPB_Silybum_02
#Location: 30.233357 lon 59.946436 lat
#TLE: 1 37849U 11061A   25010.83173011  .00000170  00000+0  10148-3 0  9996
#TLE: 2 37849  98.7441 311.8732 0001811  47.3940 312.7388 14.19536379684322

#Time	Az	El	Level	Level2	SNR	BER	Gain	Gain2
2025-01-11 09:40:48.22	142.09	4.16	
2025-01-11 09:40:49.66	142.05	4.26	
2025-01-11 09:40:51.11	142.02	4.36	
2025-01-11 09:40:52.55	141.99	4.46	
2025-01-11 09:40:53.98	141.95	4.56	
2025-01-11 09:40:55.42	141.92	4.66	
2025-01-11 09:40:56.86	141.88	4.76	
2025-01-11 09:40:58.29	141.85	4.86	
2025-01-11 09:40:59.73	141.81	4.96	
2025-01-11 09:41:01.18	141.77	5.06	
2025-01-11 09:41:02.63	141.74	5.16	
2025-01-11 09:41:04.06	141.70	5.27	
2025-01-11 09:41:05.49	141.67	5.37	
2025-01-11 09:41:06.93	141.63	5.47	
2025-01-11 09:41:08.36	141.59	5.58	
2025-01-11 09:41:09.80	141.55	5.68	
2025-01-11 09:41:11.24	141.52	5.79	
2025-01-11 09:41:12.68	141.48	5.89	
2025-01-11 09:41:14.11	141.44	6.00	
2025-01-11 09:41:15.55	141.40	6.10	
2025-01-11 09:41:16.98	141.36	6.21	
2025-01-11 09:41:18.42	141.32	6.31	
2025-01-11 09:41:19.85	141.28	6.42	
2025-01-11 09:41:21.29	141.24	6.53	
2025-01-11 09:41:22.72	141.20	6.64	
2025-01-11 09:41:24.16	141.16	6.74	
2025-01-11 09:41:25.59	141.12	6.85	
2025-01-11 09:41:27.03	141.08	6.96	
2025-01-11 09:41:28.46	141.04	7.07	
2025-01-11 09:41:29.90	141.00	7.18	
2025-01-11 09:41:31.34	140.96	7.29	
2025-01-11 09:41:32.78	140.91	7.40	
2025-01-11 09:41:34.22	140.87	7.51	
2025-01-11 09:41:35.66	140.83	7.63	
2025-01-11 09:41:37.09	140.78	7.74	
2025-01-11 09:41:38.54	140.74	7.85	
2025-01-11 09:41:39.98	140.70	7.97	
2025-01-11 09:41:41.42	140.65	8.08	
2025-01-11 09:41:42.86	140.61	8.20	
2025-01-11 09:41:44.29	140.56	8.31	
2025-01-11 09:41:45.73	140.51	8.43	
2025-01-11 09:41:47.16	140.47	8.54	
2025-01-11 09:41:48.60	140.42	8.66	
2025-01-11 09:41:50.03	140.37	8.77	
2025-01-11 09:41:51.47	140.33	8.89	
2025-01-11 09:41:52.92	140.28	9.01	
2025-01-11 09:41:54.35	140.23	9.13	
2025-01-11 09:41:55.81	140.18	9.25	
2025-01-11 09:41:57.24	140.13	9.37	
2025-01-11 09:41:58.69	140.08	9.49	
2025-01-11 09:42:00.12	140.03	9.61	
2025-01-11 09:42:01.56	139.98	9.73	
2025-01-11 09:42:02.99	139.93	9.85	
2025-01-11 09:42:04.43	139.88	9.98	
2025-01-11 09:42:05.87	139.83	10.10	
2025-01-11 09:42:07.32	139.77	10.23	
2025-01-11 09:42:08.76	139.72	10.35	
2025-01-11 09:42:10.20	139.67	10.48	
2025-01-11 09:42:11.63	139.61	10.60	
2025-01-11 09:42:13.07	139.56	10.73	
2025-01-11 09:42:14.51	139.50	10.85	
2025-01-11 09:42:15.96	139.45	10.98	
2025-01-11 09:42:17.39	139.39	11.11	
2025-01-11 09:42:18.84	139.33	11.24	
2025-01-11 09:42:20.28	139.28	11.37	
2025-01-11 09:42:21.71	139.22	11.50	
2025-01-11 09:42:23.15	139.16	11.63	
2025-01-11 09:42:24.59	139.10	11.76	
2025-01-11 09:42:26.02	139.04	11.89	
2025-01-11 09:42:27.46	138.98	12.03	
2025-01-11 09:42:28.91	138.92	12.16	
2025-01-11 09:42:30.35	138.86	12.30	
2025-01-11 09:42:31.79	138.80	12.43	
2025-01-11 09:42:33.22	138.74	12.57	
2025-01-11 09:42:34.66	138.68	12.70	
2025-01-11 09:42:36.09	138.61	12.84	
2025-01-11 09:42:37.53	138.55	12.98	
2025-01-11 09:42:38.98	138.48	13.12	
2025-01-11 09:42:40.42	138.42	13.26	
2025-01-11 09:42:41.85	138.35	13.39	
2025-01-11 09:42:43.30	138.28	13.54	
2025-01-11 09:42:44.77	138.22	13.68	
2025-01-11 09:42:46.20	138.15	13.82	
2025-01-11 09:42:47.64	138.08	13.97	
2025-01-11 09:42:49.07	138.01	14.11	
2025-01-11 09:42:50.51	137.94	14.26	
2025-01-11 09:42:51.95	137.87	14.40	
2025-01-11 09:42:53.39	137.80	14.55	
2025-01-11 09:42:54.84	137.72	14.70	
2025-01-11 09:42:56.29	137.65	14.85	
2025-01-11 09:42:57.73	137.58	15.00	
2025-01-11 09:42:59.16	137.50	15.14	
2025-01-11 09:43:00.60	137.43	15.30	
2025-01-11 09:43:02.04	137.35	15.45	
2025-01-11 09:43:03.47	137.27	15.60	
2025-01-11 09:43:04.91	137.19	15.75	
2025-01-11 09:43:06.35	137.12	15.91	
2025-01-11 09:43:07.80	137.04	16.06	
2025-01-11 09:43:09.25	136.95	16.22	
2025-01-11 09:43:10.69	136.87	16.38	
2025-01-11 09:43:12.13	136.79	16.54	
2025-01-11 09:43:13.57	136.71	16.70	
2025-01-11 09:43:15.02	136.62	16.86	
2025-01-11 09:43:16.45	136.54	17.02	
2025-01-11 09:43:17.89	136.45	17.18	
2025-01-11 09:43:19.32	136.36	17.34	
2025-01-11 09:43:20.78	136.27	17.51	
2025-01-11 09:43:22.22	136.18	17.68	
2025-01-11 09:43:23.65	136.10	17.84	
2025-01-11 09:43:25.09	136.00	18.01	
2025-01-11 09:43:26.53	135.91	18.18	
2025-01-11 09:43:27.97	135.82	18.35	
2025-01-11 09:43:29.41	135.72	18.52	
2025-01-11 09:43:30.85	135.63	18.69	
2025-01-11 09:43:32.30	135.53	18.87	
2025-01-11 09:43:33.73	135.43	19.04	
2025-01-11 09:43:35.16	135.33	19.21	
2025-01-11 09:43:36.60	135.23	19.39	
2025-01-11 09:43:38.04	135.13	19.57	
2025-01-11 09:43:39.47	135.03	19.74	
2025-01-11 09:43:40.91	134.93	19.92	
2025-01-11 09:43:42.34	134.82	20.10	
2025-01-11 09:43:43.78	134.72	20.29	
2025-01-11 09:43:45.23	134.61	20.47	
2025-01-11 09:43:46.67	134.50	20.66	
2025-01-11 09:43:48.10	134.39	20.84	
2025-01-11 09:43:49.54	134.28	21.03	
2025-01-11 09:43:50.98	134.16	21.22	
2025-01-11 09:43:52.43	134.05	21.41	
2025-01-11 09:43:53.87	133.93	21.60	
2025-01-11 09:43:55.30	133.81	21.79	
2025-01-11 09:43:56.74	133.69	21.99	
2025-01-11 09:43:58.18	133.57	22.18	
2025-01-11 09:43:59.62	133.45	22.38	
2025-01-11 09:44:01.05	133.33	22.57	
2025-01-11 09:44:02.48	133.20	22.77	
2025-01-11 09:44:03.92	133.07	22.97	
2025-01-11 09:44:05.35	132.95	23.17	
2025-01-11 09:44:06.80	132.81	23.38	
2025-01-11 09:44:08.23	132.68	23.58	
2025-01-11 09:44:09.67	132.55	23.79	
2025-01-11 09:44:11.11	132.41	24.00	
2025-01-11 09:44:12.55	132.27	24.21	
2025-01-11 09:44:13.98	132.13	24.42	
2025-01-11 09:44:15.42	131.99	24.63	
2025-01-11 09:44:16.86	131.85	24.84	
2025-01-11 09:44:18.30	131.70	25.06	
2025-01-11 09:44:19.75	131.55	25.28	
2025-01-11 09:44:21.20	131.40	25.50	
2025-01-11 09:44:22.63	131.25	25.72	
2025-01-11 09:44:24.07	131.10	25.94	
2025-01-11 09:44:25.52	130.94	26.16	
2025-01-11 09:44:26.96	130.78	26.39	
2025-01-11 09:44:28.41	130.62	26.62	
2025-01-11 09:44:29.84	130.45	26.85	
2025-01-11 09:44:31.29	130.29	27.08	
2025-01-11 09:44:32.73	130.12	27.31	
2025-01-11 09:44:34.18	129.95	27.54	
2025-01-11 09:44:35.61	129.77	27.78	
2025-01-11 09:44:37.05	129.60	28.02	
2025-01-11 09:44:38.48	129.42	28.25	
2025-01-11 09:44:39.92	129.24	28.49	
2025-01-11 09:44:41.35	129.05	28.73	
2025-01-11 09:44:42.80	128.86	28.98	
2025-01-11 09:44:44.24	128.67	29.23	
2025-01-11 09:44:45.70	128.48	29.48	
2025-01-11 09:44:47.14	128.28	29.73	
2025-01-11 09:44:48.57	128.08	29.97	
2025-01-11 09:44:50.01	127.88	30.23	
2025-01-11 09:44:51.45	127.67	30.48	
2025-01-11 09:44:52.89	127.46	30.74	
2025-01-11 09:44:54.32	127.25	31.00	
2025-01-11 09:44:55.75	127.04	31.25	
2025-01-11 09:44:57.18	126.82	31.52	
2025-01-11 09:44:58.62	126.60	31.78	
2025-01-11 09:45:00.05	126.37	32.04	
2025-01-11 09:45:01.51	126.14	32.31	
2025-01-11 09:45:02.95	125.90	32.58	
2025-01-11 09:45:04.39	125.66	32.86	
2025-01-11 09:45:05.82	125.42	33.13	
2025-01-11 09:45:07.26	125.17	33.40	
2025-01-11 09:45:08.70	124.92	33.68	
2025-01-11 09:45:10.14	124.66	33.96	
2025-01-11 09:45:11.58	124.40	34.24	
2025-01-11 09:45:13.02	124.14	34.52	
2025-01-11 09:45:14.46	123.87	34.81	
2025-01-11 09:45:15.90	123.59	35.09	
2025-01-11 09:45:17.34	123.31	35.38	
2025-01-11 09:45:18.77	123.03	35.67	
2025-01-11 09:45:20.21	122.74	35.96	
2025-01-11 09:45:21.65	122.45	36.25	
2025-01-11 09:45:23.08	122.15	36.55	
2025-01-11 09:45:24.52	121.84	36.85	
2025-01-11 09:45:25.96	121.53	37.14	
2025-01-11 09:45:27.40	121.21	37.44	
2025-01-11 09:45:28.83	120.89	37.75	
2025-01-11 09:45:30.27	120.56	38.05	
2025-01-11 09:45:31.72	120.22	38.36	
2025-01-11 09:45:33.17	119.88	38.67	
2025-01-11 09:45:34.62	119.53	38.98	
2025-01-11 09:45:36.07	119.17	39.29	
2025-01-11 09:45:37.51	118.80	39.60	
2025-01-11 09:45:38.95	118.43	39.92	
2025-01-11 09:45:40.39	118.06	40.23	
2025-01-11 09:45:41.85	117.67	40.55	
2025-01-11 09:45:43.28	117.28	40.87	
2025-01-11 09:45:44.72	116.88	41.18	
2025-01-11 09:45:46.17	116.47	41.51	
2025-01-11 09:45:47.64	116.04	41.83	
2025-01-11 09:45:49.07	115.62	42.15	
2025-01-11 09:45:50.51	115.18	42.48	
2025-01-11 09:45:51.97	114.73	42.81	
2025-01-11 09:45:53.42	114.28	43.13	
2025-01-11 09:45:54.85	113.82	43.46	
2025-01-11 09:45:56.28	113.35	43.78	
2025-01-11 09:45:57.72	112.87	44.11	
2025-01-11 09:45:59.18	112.37	44.44	
2025-01-11 09:46:00.61	111.88	44.76	
2025-01-11 09:46:02.04	111.37	45.09	
2025-01-11 09:46:03.48	110.85	45.42	
2025-01-11 09:46:04.93	110.31	45.74	
2025-01-11 09:46:06.37	109.77	46.07	
2025-01-11 09:46:07.81	109.21	46.40	
2025-01-11 09:46:09.25	108.64	46.73	
2025-01-11 09:46:10.69	108.06	47.05	
2025-01-11 09:46:12.13	107.47	47.38	
2025-01-11 09:46:13.56	106.87	47.70	
2025-01-11 09:46:15.02	106.24	48.03	
2025-01-11 09:46:16.45	105.62	48.35	
2025-01-11 09:46:17.90	104.97	48.67	
2025-01-11 09:46:19.34	104.31	48.99	
2025-01-11 09:46:20.77	103.65	49.30	
2025-01-11 09:46:22.21	102.96	49.62	
2025-01-11 09:46:23.65	102.26	49.93	
2025-01-11 09:46:25.08	101.55	50.24	
2025-01-11 09:46:26.52	100.82	50.54	
2025-01-11 09:46:27.96	100.08	50.85	
2025-01-11 09:46:29.40	99.32	51.15	
2025-01-11 09:46:30.84	98.55	51.44	
2025-01-11 09:46:32.27	97.77	51.74	
2025-01-11 09:46:33.70	96.97	52.02	
2025-01-11 09:46:35.14	96.15	52.31	
2025-01-11 09:46:36.58	95.31	52.59	
2025-01-11 09:46:38.03	94.45	52.87	
2025-01-11 09:46:39.47	93.58	53.14	
2025-01-11 09:46:40.91	92.70	53.40	
2025-01-11 09:46:42.35	91.80	53.66	
2025-01-11 09:46:43.78	90.89	53.91	
2025-01-11 09:46:45.23	89.95	54.16	
2025-01-11 09:46:46.67	89.00	54.40	
2025-01-11 09:46:48.11	88.03	54.64	
2025-01-11 09:46:49.55	87.05	54.86	
2025-01-11 09:46:51.00	86.05	55.08	
2025-01-11 09:46:52.44	85.04	55.29	
2025-01-11 09:46:53.87	84.02	55.49	
2025-01-11 09:46:55.32	82.97	55.69	
2025-01-11 09:46:56.75	81.92	55.87	
2025-01-11 09:46:58.19	80.86	56.05	
2025-01-11 09:46:59.62	79.78	56.21	
2025-01-11 09:47:01.06	78.69	56.37	
2025-01-11 09:47:02.49	77.59	56.52	
2025-01-11 09:47:03.92	76.48	56.65	
2025-01-11 09:47:05.36	75.35	56.78	
2025-01-11 09:47:06.79	74.22	56.90	
2025-01-11 09:47:08.22	73.08	57.00	
2025-01-11 09:47:09.66	71.92	57.10	
2025-01-11 09:47:11.10	70.76	57.18	
2025-01-11 09:47:12.55	69.58	57.25	
2025-01-11 09:47:13.98	68.41	57.31	
2025-01-11 09:47:15.42	67.23	57.36	
2025-01-11 09:47:16.86	66.05	57.40	
2025-01-11 09:47:18.29	64.87	57.43	
2025-01-11 09:47:19.73	63.68	57.44	
2025-01-11 09:47:21.18	62.48	57.45	
2025-01-11 09:47:22.61	61.30	57.44	
2025-01-11 09:47:24.05	60.11	57.42	
2025-01-11 09:47:25.48	58.93	57.38	
2025-01-11 09:47:26.93	57.74	57.34	
2025-01-11 09:47:28.36	56.57	57.29	
2025-01-11 09:47:29.80	55.40	57.22	
2025-01-11 09:47:31.24	54.23	57.14	
2025-01-11 09:47:32.68	53.08	57.05	
2025-01-11 09:47:34.12	51.92	56.95	
2025-01-11 09:47:35.56	50.78	56.84	
2025-01-11 09:47:37.00	49.65	56.72	
2025-01-11 09:47:38.45	48.52	56.58	
2025-01-11 09:47:39.90	47.40	56.44	
2025-01-11 09:47:41.34	46.30	56.29	
2025-01-11 09:47:42.79	45.21	56.12	
2025-01-11 09:47:44.23	44.14	55.95	
2025-01-11 09:47:45.66	43.08	55.77	
2025-01-11 09:47:47.10	42.04	55.58	
2025-01-11 09:47:48.53	41.01	55.39	
2025-01-11 09:47:49.97	40.00	55.18	
2025-01-11 09:47:51.41	39.00	54.96	
2025-01-11 09:47:52.85	38.01	54.74	
2025-01-11 09:47:54.29	37.04	54.51	
2025-01-11 09:47:55.73	36.09	54.28	
2025-01-11 09:47:57.17	35.15	54.03	
2025-01-11 09:47:58.61	34.22	53.78	
2025-01-11 09:48:00.05	33.32	53.53	
2025-01-11 09:48:01.49	32.43	53.27	
2025-01-11 09:48:02.93	31.55	53.00	
2025-01-11 09:48:04.37	30.69	52.73	
2025-01-11 09:48:05.82	29.85	52.45	
2025-01-11 09:48:07.25	29.03	52.17	
2025-01-11 09:48:08.69	28.22	51.88	
2025-01-11 09:48:10.12	27.43	51.59	
2025-01-11 09:48:11.55	26.65	51.30	
2025-01-11 09:48:12.99	25.89	51.00	
2025-01-11 09:48:14.43	25.14	50.70	
2025-01-11 09:48:15.87	24.41	50.39	
2025-01-11 09:48:17.32	23.68	50.08	
2025-01-11 09:48:18.75	22.98	49.77	
2025-01-11 09:48:20.19	22.29	49.46	
2025-01-11 09:48:21.62	21.62	49.15	
2025-01-11 09:48:23.06	20.96	48.83	
2025-01-11 09:48:24.49	20.32	48.52	
2025-01-11 09:48:25.94	19.68	48.19	
2025-01-11 09:48:27.38	19.06	47.87	
2025-01-11 09:48:28.83	18.44	47.55	
2025-01-11 09:48:30.27	17.85	47.23	
2025-01-11 09:48:31.70	17.27	46.90	
2025-01-11 09:48:33.14	16.70	46.58	
2025-01-11 09:48:34.58	16.14	46.25	
2025-01-11 09:48:36.02	15.59	45.93	
2025-01-11 09:48:37.45	15.05	45.60	
2025-01-11 09:48:38.89	14.53	45.28	
2025-01-11 09:48:40.34	14.01	44.95	
2025-01-11 09:48:41.77	13.51	44.62	
2025-01-11 09:48:43.21	13.01	44.30	
2025-01-11 09:48:44.65	12.53	43.97	
2025-01-11 09:48:46.10	12.05	43.64	
2025-01-11 09:48:47.53	11.59	43.32	
2025-01-11 09:48:48.97	11.14	43.00	
2025-01-11 09:48:50.41	10.69	42.68	
2025-01-11 09:48:51.85	10.25	42.35	
2025-01-11 09:48:53.28	9.83	42.03	
2025-01-11 09:48:54.72	9.41	41.71	
2025-01-11 09:48:56.16	9.00	41.40	
2025-01-11 09:48:57.59	8.59	41.08	
2025-01-11 09:48:59.04	8.20	40.76	
2025-01-11 09:49:00.48	7.81	40.45	
2025-01-11 09:49:01.91	7.43	40.13	
2025-01-11 09:49:03.35	7.06	39.82	
2025-01-11 09:49:04.80	6.69	39.51	
2025-01-11 09:49:06.27	6.32	39.19	
2025-01-11 09:49:07.71	5.97	38.88	
2025-01-11 09:49:09.15	5.63	38.58	
2025-01-11 09:49:10.60	5.29	38.27	
2025-01-11 09:49:12.05	4.95	37.96	
2025-01-11 09:49:13.50	4.62	37.66	
2025-01-11 09:49:14.93	4.31	37.36	
2025-01-11 09:49:16.37	3.99	37.06	
2025-01-11 09:49:17.80	3.69	36.77	
2025-01-11 09:49:19.26	3.38	36.47	
2025-01-11 09:49:20.70	3.08	36.17	
2025-01-11 09:49:22.13	2.79	35.88	
2025-01-11 09:49:23.57	2.51	35.60	
2025-01-11 09:49:25.00	2.23	35.31	
2025-01-11 09:49:26.45	1.95	35.02	
2025-01-11 09:49:27.90	1.68	34.73	
2025-01-11 09:49:29.35	1.41	34.45	
2025-01-11 09:49:30.78	1.15	34.17	
2025-01-11 09:49:32.22	0.89	33.89	
2025-01-11 09:49:33.67	0.64	33.61	
2025-01-11 09:49:35.10	0.39	33.34	
2025-01-11 09:49:36.53	0.15	33.07	
2025-01-11 09:49:37.97	359.91	32.80	
2025-01-11 09:49:39.40	359.67	32.53	
2025-01-11 09:49:40.84	359.44	32.26	
2025-01-11 09:49:42.27	359.21	32.00	
2025-01-11 09:49:43.71	358.99	31.74	
2025-01-11 09:49:45.15	358.77	31.47	
2025-01-11 09:49:46.58	358.55	31.22	
2025-01-11 09:49:48.02	358.34	30.96	
2025-01-11 09:49:49.46	358.13	30.70	
2025-01-11 09:49:50.89	357.92	30.45	
2025-01-11 09:49:52.33	357.72	30.19	
2025-01-11 09:49:53.77	357.52	29.94	
2025-01-11 09:49:55.21	357.32	29.69	
2025-01-11 09:49:56.66	357.13	29.44	
2025-01-11 09:49:58.10	356.93	29.20	
2025-01-11 09:49:59.53	356.75	28.96	
2025-01-11 09:50:00.96	356.56	28.72	
2025-01-11 09:50:02.40	356.38	28.48	
2025-01-11 09:50:03.84	356.20	28.24	
2025-01-11 09:50:05.28	356.02	28.00	
2025-01-11 09:50:06.72	355.85	27.76	
2025-01-11 09:50:08.17	355.68	27.53	
2025-01-11 09:50:09.62	355.51	27.30	
2025-01-11 09:50:11.06	355.34	27.07	
2025-01-11 09:50:12.49	355.18	26.84	
2025-01-11 09:50:13.94	355.01	26.61	
2025-01-11 09:50:15.38	354.86	26.39	
2025-01-11 09:50:16.81	354.70	26.16	
2025-01-11 09:50:18.26	354.54	25.94	
2025-01-11 09:50:19.70	354.39	25.72	
2025-01-11 09:50:21.14	354.24	25.50	
2025-01-11 09:50:22.58	354.09	25.28	
2025-01-11 09:50:24.02	353.95	25.07	
2025-01-11 09:50:25.45	353.80	24.85	
2025-01-11 09:50:26.89	353.66	24.64	
2025-01-11 09:50:28.33	353.52	24.43	
2025-01-11 09:50:29.77	353.38	24.22	
2025-01-11 09:50:31.20	353.25	24.01	
2025-01-11 09:50:32.64	353.11	23.81	
2025-01-11 09:50:34.08	352.98	23.60	
2025-01-11 09:50:35.51	352.85	23.40	
2025-01-11 09:50:36.95	352.72	23.20	
2025-01-11 09:50:38.40	352.59	23.00	
2025-01-11 09:50:39.84	352.47	22.80	
2025-01-11 09:50:41.28	352.34	22.60	
2025-01-11 09:50:42.71	352.22	22.40	
2025-01-11 09:50:44.15	352.10	22.21	
2025-01-11 09:50:45.58	351.98	22.02	
2025-01-11 09:50:47.02	351.86	21.82	
2025-01-11 09:50:48.45	351.75	21.63	
2025-01-11 09:50:49.91	351.63	21.44	
2025-01-11 09:50:51.35	351.52	21.25	
2025-01-11 09:50:52.80	351.41	21.06	
2025-01-11 09:50:54.23	351.30	20.88	
2025-01-11 09:50:55.67	351.19	20.69	
2025-01-11 09:50:57.11	351.08	20.51	
2025-01-11 09:50:58.53	350.98	20.33	
2025-01-11 09:50:59.97	350.87	20.15	
2025-01-11 09:51:01.40	350.77	19.97	
2025-01-11 09:51:02.84	350.66	19.79	
2025-01-11 09:51:04.27	350.56	19.61	
2025-01-11 09:51:05.71	350.46	19.44	
2025-01-11 09:51:07.15	350.37	19.26	
2025-01-11 09:51:08.59	350.27	19.09	
2025-01-11 09:51:10.02	350.17	18.92	
2025-01-11 09:51:11.46	350.08	18.74	
2025-01-11 09:51:12.89	349.98	18.57	
2025-01-11 09:51:14.33	349.89	18.40	
2025-01-11 09:51:15.77	349.80	18.23	
2025-01-11 09:51:17.20	349.71	18.07	
2025-01-11 09:51:18.65	349.62	17.90	
2025-01-11 09:51:20.08	349.53	17.74	
2025-01-11 09:51:21.52	349.44	17.57	
2025-01-11 09:51:22.97	349.35	17.41	
2025-01-11 09:51:24.42	349.27	17.24	
2025-01-11 09:51:25.86	349.18	17.08	
2025-01-11 09:51:27.29	349.10	16.92	
2025-01-11 09:51:28.76	349.01	16.76	
2025-01-11 09:51:30.20	348.93	16.60	
2025-01-11 09:51:31.64	348.85	16.44	
2025-01-11 09:51:33.08	348.77	16.29	
2025-01-11 09:51:34.51	348.69	16.13	
2025-01-11 09:51:35.94	348.62	15.98	
2025-01-11 09:51:37.37	348.54	15.83	
2025-01-11 09:51:38.81	348.46	15.67	
2025-01-11 09:51:40.26	348.39	15.52	
2025-01-11 09:51:41.70	348.31	15.37	
2025-01-11 09:51:43.14	348.24	15.22	
2025-01-11 09:51:44.57	348.16	15.07	
2025-01-11 09:51:46.01	348.09	14.92	
2025-01-11 09:51:47.44	348.02	14.78	
2025-01-11 09:51:48.87	347.95	14.63	
2025-01-11 09:51:50.31	347.88	14.48	
2025-01-11 09:51:51.75	347.81	14.34	
2025-01-11 09:51:53.18	347.74	14.19	
2025-01-11 09:51:54.62	347.67	14.05	
2025-01-11 09:51:56.05	347.60	13.91	
2025-01-11 09:51:57.49	347.54	13.77	
2025-01-11 09:51:58.92	347.47	13.63	
2025-01-11 09:52:00.37	347.41	13.49	
2025-01-11 09:52:01.80	347.34	13.35	
2025-01-11 09:52:03.24	347.28	13.21	
2025-01-11 09:52:04.70	347.21	13.07	
2025-01-11 09:52:06.14	347.15	12.93	
2025-01-11 09:52:07.58	347.09	12.79	
2025-01-11 09:52:09.03	347.03	12.66	
2025-01-11 09:52:10.47	346.97	12.52	
2025-01-11 09:52:11.91	346.91	12.39	
2025-01-11 09:52:13.34	346.85	12.26	
2025-01-11 09:52:14.78	346.79	12.12	
2025-01-11 09:52:16.22	346.73	11.99	
2025-01-11 09:52:17.65	346.67	11.86	
2025-01-11 09:52:19.09	346.61	11.73	
2025-01-11 09:52:20.52	346.56	11.60	
2025-01-11 09:52:21.95	346.50	11.47	
2025-01-11 09:52:23.39	346.45	11.34	
2025-01-11 09:52:24.82	346.39	11.21	
2025-01-11 09:52:26.27	346.34	11.08	
2025-01-11 09:52:27.72	346.28	10.96	
2025-01-11 09:52:29.17	346.23	10.83	
2025-01-11 09:52:30.60	346.17	10.70	
2025-01-11 09:52:32.04	346.12	10.58	
2025-01-11 09:52:33.48	346.07	10.45	
2025-01-11 09:52:34.92	346.02	10.33	
2025-01-11 09:52:36.36	345.97	10.21	
2025-01-11 09:52:37.81	345.92	10.08	
2025-01-11 09:52:39.26	345.87	9.96	
2025-01-11 09:52:40.70	345.82	9.84	
2025-01-11 09:52:42.14	345.77	9.72	
2025-01-11 09:52:43.57	345.72	9.60	
2025-01-11 09:52:45.02	345.67	9.48	
2025-01-11 09:52:46.46	345.62	9.36	
2025-01-11 09:52:47.91	345.57	9.24	
2025-01-11 09:52:49.34	345.53	9.12	
2025-01-11 09:52:50.78	345.48	9.00	
2025-01-11 09:52:52.21	345.43	8.88	
2025-01-11 09:52:53.65	345.39	8.77	
2025-01-11 09:52:55.08	345.34	8.65	
2025-01-11 09:52:56.52	345.30	8.54	
2025-01-11 09:52:57.97	345.25	8.42	
2025-01-11 09:52:59.40	345.21	8.31	
2025-01-11 09:53:00.85	345.17	8.19	
2025-01-11 09:53:02.31	345.12	8.08	
2025-01-11 09:53:03.74	345.08	7.96	
2025-01-11 09:53:05.18	345.04	7.85	
2025-01-11 09:53:06.62	344.99	7.74	
2025-01-11 09:53:08.06	344.95	7.63	
2025-01-11 09:53:09.50	344.91	7.52	
2025-01-11 09:53:10.94	344.87	7.41	
2025-01-11 09:53:12.37	344.83	7.30	
2025-01-11 09:53:13.81	344.79	7.19	
2025-01-11 09:53:15.26	344.75	7.08	
2025-01-11 09:53:16.69	344.71	6.97	
2025-01-11 09:53:18.13	344.67	6.86	
2025-01-11 09:53:19.56	344.63	6.75	
2025-01-11 09:53:21.00	344.59	6.64	
2025-01-11 09:53:22.43	344.55	6.54	
2025-01-11 09:53:23.88	344.52	6.43	
2025-01-11 09:53:25.31	344.48	6.32	
2025-01-11 09:53:26.75	344.44	6.22	
2025-01-11 09:53:28.18	344.40	6.11	
2025-01-11 09:53:29.62	344.37	6.01	
2025-01-11 09:53:31.05	344.33	5.90	
2025-01-11 09:53:32.49	344.29	5.80	
2025-01-11 09:53:33.93	344.26	5.70	
2025-01-11 09:53:35.36	344.22	5.59	
2025-01-11 09:53:36.81	344.19	5.49	
2025-01-11 09:53:38.25	344.15	5.39	
2025-01-11 09:53:39.68	344.12	5.28	
2025-01-11 09:53:41.12	344.08	5.18	
2025-01-11 09:53:42.56	344.05	5.08	
2025-01-11 09:53:43.99	344.02	4.98	
2025-01-11 09:53:45.43	343.98	4.88	
2025-01-11 09:53:46.88	343.95	4.78	
2025-01-11 09:53:48.31	343.92	4.68	
2025-01-11 09:53:49.75	343.88	4.58	
2025-01-11 09:53:51.18	343.85	4.48	
2025-01-11 09:53:52.65	343.82	4.38	
2025-01-11 09:53:54.10	343.79	4.28	
2025-01-11 09:53:55.53	343.75	4.18	
2025-01-11 09:53:56.97	343.72	4.08	

#Closed at: 2025-01-11 09:53:58