passes_logs/2025/01/11/SPB_Silybum_02/SPB_Silybum_02__20250111_085900_AQUA_rec.log

#Pass ID: 20250111_085900_AQUA
#Satellite: AQUA
#Configuration: AQUA
#Start time: 2025-01-11 08:58:59

#Version: 2.0.20230423
#Station: SPB_Silybum_02
#Location: 30.233357 lon 59.946436 lat
#TLE: 1 27424U 02022A   25010.89862733  .00001944  00000+0  40909-3 0  9991
#TLE: 2 27424  98.3577 327.5256 0001581 116.2883 319.2080 14.60667727207024

#Time	Az	El	Level	Level2	SNR	BER	Gain	Gain2
2025-01-11 08:59:01.14	86.22	4.04	
2025-01-11 08:59:02.18	86.11	4.10	
2025-01-11 08:59:03.21	85.99	4.15	
2025-01-11 08:59:04.24	85.87	4.21	
2025-01-11 08:59:05.26	85.76	4.26	
2025-01-11 08:59:06.29	85.64	4.32	
2025-01-11 08:59:07.32	85.52	4.37	
2025-01-11 08:59:08.34	85.41	4.42	
2025-01-11 08:59:09.36	85.29	4.48	
2025-01-11 08:59:10.39	85.17	4.53	
2025-01-11 08:59:11.42	85.05	4.59	
2025-01-11 08:59:12.46	84.93	4.64	
2025-01-11 08:59:13.48	84.81	4.70	
2025-01-11 08:59:14.51	84.68	4.75	
2025-01-11 08:59:15.55	84.56	4.80	
2025-01-11 08:59:16.58	84.44	4.86	
2025-01-11 08:59:17.60	84.32	4.91	
2025-01-11 08:59:18.64	84.19	4.97	
2025-01-11 08:59:19.67	84.07	5.02	
2025-01-11 08:59:20.71	83.94	5.08	
2025-01-11 08:59:21.74	83.82	5.13	
2025-01-11 08:59:22.77	83.69	5.19	
2025-01-11 08:59:23.80	83.57	5.24	
2025-01-11 08:59:24.82	83.44	5.30	
2025-01-11 08:59:25.84	83.31	5.35	
2025-01-11 08:59:26.87	83.19	5.40	
2025-01-11 08:59:27.90	83.06	5.46	
2025-01-11 08:59:28.92	82.93	5.51	
2025-01-11 08:59:29.95	82.80	5.57	
2025-01-11 08:59:30.97	82.67	5.62	
2025-01-11 08:59:32.00	82.54	5.68	
2025-01-11 08:59:33.03	82.41	5.73	
2025-01-11 08:59:34.05	82.28	5.79	
2025-01-11 08:59:35.09	82.15	5.84	
2025-01-11 08:59:36.11	82.02	5.89	
2025-01-11 08:59:37.14	81.88	5.95	
2025-01-11 08:59:38.16	81.75	6.00	
2025-01-11 08:59:39.19	81.62	6.06	
2025-01-11 08:59:40.23	81.48	6.11	
2025-01-11 08:59:41.27	81.34	6.17	
2025-01-11 08:59:42.31	81.21	6.22	
2025-01-11 08:59:43.33	81.07	6.28	
2025-01-11 08:59:44.36	80.93	6.33	
2025-01-11 08:59:45.38	80.80	6.38	
2025-01-11 08:59:46.41	80.66	6.44	
2025-01-11 08:59:47.43	80.52	6.49	
2025-01-11 08:59:48.46	80.38	6.55	
2025-01-11 08:59:49.49	80.24	6.60	
2025-01-11 08:59:50.52	80.10	6.66	
2025-01-11 08:59:51.54	79.96	6.71	
2025-01-11 08:59:52.57	79.82	6.76	
2025-01-11 08:59:53.60	79.68	6.82	
2025-01-11 08:59:54.62	79.54	6.87	
2025-01-11 08:59:55.65	79.39	6.93	
2025-01-11 08:59:56.68	79.25	6.98	
2025-01-11 08:59:57.70	79.11	7.03	
2025-01-11 08:59:58.73	78.96	7.09	
2025-01-11 08:59:59.75	78.82	7.14	
2025-01-11 09:00:00.79	78.67	7.20	
2025-01-11 09:00:01.81	78.52	7.25	
2025-01-11 09:00:02.84	78.37	7.30	
2025-01-11 09:00:03.88	78.23	7.36	
2025-01-11 09:00:04.91	78.08	7.41	
2025-01-11 09:00:05.93	77.93	7.47	
2025-01-11 09:00:06.96	77.78	7.52	
2025-01-11 09:00:07.99	77.63	7.57	
2025-01-11 09:00:09.01	77.48	7.63	
2025-01-11 09:00:10.04	77.33	7.68	
2025-01-11 09:00:11.06	77.18	7.73	
2025-01-11 09:00:12.09	77.02	7.79	
2025-01-11 09:00:13.12	76.87	7.84	
2025-01-11 09:00:14.14	76.72	7.89	
2025-01-11 09:00:15.18	76.56	7.95	
2025-01-11 09:00:16.21	76.40	8.00	
2025-01-11 09:00:17.23	76.25	8.05	
2025-01-11 09:00:18.26	76.09	8.10	
2025-01-11 09:00:19.29	75.93	8.16	
2025-01-11 09:00:20.32	75.78	8.21	
2025-01-11 09:00:21.35	75.62	8.26	
2025-01-11 09:00:22.38	75.46	8.32	
2025-01-11 09:00:23.41	75.30	8.37	
2025-01-11 09:00:24.44	75.14	8.42	
2025-01-11 09:00:25.46	74.98	8.47	
2025-01-11 09:00:26.49	74.82	8.53	
2025-01-11 09:00:27.51	74.66	8.58	
2025-01-11 09:00:28.54	74.49	8.63	
2025-01-11 09:00:29.56	74.33	8.68	
2025-01-11 09:00:30.59	74.17	8.74	
2025-01-11 09:00:31.61	74.00	8.79	
2025-01-11 09:00:32.64	73.84	8.84	
2025-01-11 09:00:33.66	73.67	8.89	
2025-01-11 09:00:34.69	73.51	8.94	
2025-01-11 09:00:35.72	73.34	8.99	
2025-01-11 09:00:36.74	73.17	9.04	
2025-01-11 09:00:37.77	73.00	9.10	
2025-01-11 09:00:38.80	72.83	9.15	
2025-01-11 09:00:39.82	72.66	9.20	
2025-01-11 09:00:40.85	72.49	9.25	
2025-01-11 09:00:41.88	72.32	9.30	
2025-01-11 09:00:42.90	72.15	9.35	
2025-01-11 09:00:43.93	71.98	9.40	
2025-01-11 09:00:44.97	71.80	9.45	
2025-01-11 09:00:45.99	71.63	9.50	
2025-01-11 09:00:47.01	71.46	9.55	
2025-01-11 09:00:48.04	71.28	9.60	
2025-01-11 09:00:49.07	71.11	9.65	
2025-01-11 09:00:50.09	70.93	9.70	
2025-01-11 09:00:51.11	70.75	9.75	
2025-01-11 09:00:52.13	70.58	9.80	
2025-01-11 09:00:53.16	70.40	9.85	
2025-01-11 09:00:54.18	70.22	9.90	
2025-01-11 09:00:55.23	70.04	9.95	
2025-01-11 09:00:56.26	69.86	10.00	
2025-01-11 09:00:57.29	69.68	10.05	
2025-01-11 09:00:58.31	69.50	10.10	
2025-01-11 09:00:59.34	69.31	10.15	
2025-01-11 09:01:00.38	69.13	10.20	
2025-01-11 09:01:01.40	68.95	10.24	
2025-01-11 09:01:02.44	68.76	10.29	
2025-01-11 09:01:03.47	68.57	10.34	
2025-01-11 09:01:04.50	68.39	10.39	
2025-01-11 09:01:05.52	68.20	10.44	
2025-01-11 09:01:06.55	68.02	10.48	
2025-01-11 09:01:07.57	67.83	10.53	
2025-01-11 09:01:08.60	67.64	10.58	
2025-01-11 09:01:09.62	67.45	10.62	
2025-01-11 09:01:10.66	67.26	10.67	
2025-01-11 09:01:11.69	67.07	10.72	
2025-01-11 09:01:12.71	66.88	10.76	
2025-01-11 09:01:13.74	66.69	10.81	
2025-01-11 09:01:14.77	66.50	10.86	
2025-01-11 09:01:15.79	66.30	10.90	
2025-01-11 09:01:16.82	66.11	10.95	
2025-01-11 09:01:17.85	65.92	10.99	
2025-01-11 09:01:18.88	65.72	11.04	
2025-01-11 09:01:19.91	65.52	11.08	
2025-01-11 09:01:20.94	65.33	11.13	
2025-01-11 09:01:21.97	65.13	11.17	
2025-01-11 09:01:23.00	64.93	11.22	
2025-01-11 09:01:24.02	64.74	11.26	
2025-01-11 09:01:25.05	64.54	11.31	
2025-01-11 09:01:26.07	64.34	11.35	
2025-01-11 09:01:27.10	64.14	11.39	
2025-01-11 09:01:28.13	63.94	11.44	
2025-01-11 09:01:29.15	63.74	11.48	
2025-01-11 09:01:30.18	63.54	11.52	
2025-01-11 09:01:31.20	63.33	11.56	
2025-01-11 09:01:32.23	63.13	11.60	
2025-01-11 09:01:33.25	62.93	11.65	
2025-01-11 09:01:34.28	62.72	11.69	
2025-01-11 09:01:35.30	62.52	11.73	
2025-01-11 09:01:36.33	62.31	11.77	
2025-01-11 09:01:37.35	62.11	11.81	
2025-01-11 09:01:38.38	61.90	11.85	
2025-01-11 09:01:39.41	61.69	11.89	
2025-01-11 09:01:40.43	61.49	11.93	
2025-01-11 09:01:41.47	61.28	11.97	
2025-01-11 09:01:42.50	61.07	12.01	
2025-01-11 09:01:43.53	60.86	12.05	
2025-01-11 09:01:44.55	60.65	12.09	
2025-01-11 09:01:45.58	60.44	12.13	
2025-01-11 09:01:46.61	60.22	12.17	
2025-01-11 09:01:47.63	60.01	12.20	
2025-01-11 09:01:48.66	59.80	12.24	
2025-01-11 09:01:49.68	59.59	12.28	
2025-01-11 09:01:50.71	59.37	12.32	
2025-01-11 09:01:51.73	59.16	12.35	
2025-01-11 09:01:52.76	58.94	12.39	
2025-01-11 09:01:53.78	58.73	12.43	
2025-01-11 09:01:54.81	58.51	12.46	
2025-01-11 09:01:55.83	58.30	12.50	
2025-01-11 09:01:56.86	58.08	12.53	
2025-01-11 09:01:57.88	57.86	12.57	
2025-01-11 09:01:58.92	57.64	12.60	
2025-01-11 09:01:59.96	57.42	12.64	
2025-01-11 09:02:01.00	57.20	12.67	
2025-01-11 09:02:02.02	56.98	12.70	
2025-01-11 09:02:03.05	56.76	12.74	
2025-01-11 09:02:04.07	56.54	12.77	
2025-01-11 09:02:05.10	56.31	12.80	
2025-01-11 09:02:06.12	56.09	12.84	
2025-01-11 09:02:07.15	55.87	12.87	
2025-01-11 09:02:08.19	55.64	12.90	
2025-01-11 09:02:09.21	55.42	12.93	
2025-01-11 09:02:10.25	55.19	12.96	
2025-01-11 09:02:11.28	54.97	12.99	
2025-01-11 09:02:12.30	54.75	13.02	
2025-01-11 09:02:13.33	54.52	13.05	
2025-01-11 09:02:14.36	54.29	13.08	
2025-01-11 09:02:15.38	54.07	13.11	
2025-01-11 09:02:16.41	53.84	13.14	
2025-01-11 09:02:17.43	53.61	13.16	
2025-01-11 09:02:18.46	53.38	13.19	
2025-01-11 09:02:19.48	53.16	13.22	
2025-01-11 09:02:20.50	52.93	13.25	
2025-01-11 09:02:21.53	52.70	13.27	
2025-01-11 09:02:22.56	52.47	13.30	
2025-01-11 09:02:23.58	52.24	13.32	
2025-01-11 09:02:24.61	52.01	13.35	
2025-01-11 09:02:25.63	51.78	13.37	
2025-01-11 09:02:26.66	51.55	13.40	
2025-01-11 09:02:27.69	51.31	13.42	
2025-01-11 09:02:28.71	51.08	13.45	
2025-01-11 09:02:29.73	50.85	13.47	
2025-01-11 09:02:30.76	50.62	13.49	
2025-01-11 09:02:31.79	50.38	13.52	
2025-01-11 09:02:32.82	50.15	13.54	
2025-01-11 09:02:33.84	49.92	13.56	
2025-01-11 09:02:34.87	49.68	13.58	
2025-01-11 09:02:35.91	49.44	13.60	
2025-01-11 09:02:36.94	49.21	13.62	
2025-01-11 09:02:37.96	48.97	13.64	
2025-01-11 09:02:38.99	48.74	13.66	
2025-01-11 09:02:40.01	48.50	13.68	
2025-01-11 09:02:41.04	48.26	13.70	
2025-01-11 09:02:42.07	48.03	13.72	
2025-01-11 09:02:43.09	47.79	13.73	
2025-01-11 09:02:44.11	47.55	13.75	
2025-01-11 09:02:45.14	47.31	13.77	
2025-01-11 09:02:46.17	47.08	13.78	
2025-01-11 09:02:47.20	46.84	13.80	
2025-01-11 09:02:48.22	46.60	13.81	
2025-01-11 09:02:49.24	46.36	13.83	
2025-01-11 09:02:50.27	46.12	13.84	
2025-01-11 09:02:51.30	45.88	13.86	
2025-01-11 09:02:52.34	45.64	13.87	
2025-01-11 09:02:53.37	45.40	13.88	
2025-01-11 09:02:54.40	45.16	13.90	
2025-01-11 09:02:55.43	44.92	13.91	
2025-01-11 09:02:56.46	44.68	13.92	
2025-01-11 09:02:57.49	44.43	13.93	
2025-01-11 09:02:58.53	44.19	13.94	
2025-01-11 09:02:59.57	43.95	13.95	
2025-01-11 09:03:00.60	43.70	13.96	
2025-01-11 09:03:01.62	43.46	13.97	
2025-01-11 09:03:02.65	43.22	13.98	
2025-01-11 09:03:03.67	42.98	13.99	
2025-01-11 09:03:04.70	42.74	14.00	
2025-01-11 09:03:05.72	42.50	14.00	
2025-01-11 09:03:06.75	42.26	14.01	
2025-01-11 09:03:07.77	42.01	14.02	
2025-01-11 09:03:08.80	41.77	14.02	
2025-01-11 09:03:09.83	41.53	14.03	
2025-01-11 09:03:10.86	41.28	14.03	
2025-01-11 09:03:11.88	41.04	14.04	
2025-01-11 09:03:12.92	40.80	14.04	
2025-01-11 09:03:13.95	40.55	14.05	
2025-01-11 09:03:14.98	40.31	14.05	
2025-01-11 09:03:16.00	40.07	14.05	
2025-01-11 09:03:17.04	39.82	14.05	
2025-01-11 09:03:18.07	39.58	14.05	
2025-01-11 09:03:19.10	39.34	14.06	
2025-01-11 09:03:20.12	39.09	14.06	
2025-01-11 09:03:21.15	38.85	14.06	
2025-01-11 09:03:22.17	38.61	14.06	
2025-01-11 09:03:23.20	38.37	14.05	
2025-01-11 09:03:24.22	38.12	14.05	
2025-01-11 09:03:25.25	37.88	14.05	
2025-01-11 09:03:26.27	37.64	14.05	
2025-01-11 09:03:27.30	37.40	14.05	
2025-01-11 09:03:28.32	37.16	14.04	
2025-01-11 09:03:29.35	36.91	14.04	
2025-01-11 09:03:30.38	36.67	14.04	
2025-01-11 09:03:31.41	36.43	14.03	
2025-01-11 09:03:32.44	36.18	14.03	
2025-01-11 09:03:33.46	35.94	14.02	
2025-01-11 09:03:34.49	35.70	14.01	
2025-01-11 09:03:35.52	35.46	14.01	
2025-01-11 09:03:36.54	35.22	14.00	
2025-01-11 09:03:37.56	34.98	13.99	
2025-01-11 09:03:38.59	34.73	13.98	
2025-01-11 09:03:39.61	34.49	13.97	
2025-01-11 09:03:40.64	34.25	13.97	
2025-01-11 09:03:41.66	34.01	13.96	
2025-01-11 09:03:42.68	33.77	13.95	
2025-01-11 09:03:43.71	33.53	13.94	
2025-01-11 09:03:44.73	33.29	13.92	
2025-01-11 09:03:45.76	33.05	13.91	
2025-01-11 09:03:46.79	32.81	13.90	
2025-01-11 09:03:47.82	32.57	13.89	
2025-01-11 09:03:48.84	32.33	13.88	
2025-01-11 09:03:49.87	32.09	13.86	
2025-01-11 09:03:50.89	31.85	13.85	
2025-01-11 09:03:51.92	31.61	13.84	
2025-01-11 09:03:52.94	31.37	13.82	
2025-01-11 09:03:53.96	31.14	13.81	
2025-01-11 09:03:54.99	30.90	13.79	
2025-01-11 09:03:56.02	30.66	13.77	
2025-01-11 09:03:57.05	30.42	13.76	
2025-01-11 09:03:58.07	30.19	13.74	
2025-01-11 09:03:59.10	29.95	13.72	
2025-01-11 09:04:00.12	29.71	13.71	
2025-01-11 09:04:01.15	29.48	13.69	
2025-01-11 09:04:02.17	29.24	13.67	
2025-01-11 09:04:03.19	29.01	13.65	
2025-01-11 09:04:04.22	28.77	13.63	
2025-01-11 09:04:05.24	28.54	13.61	
2025-01-11 09:04:06.27	28.30	13.59	
2025-01-11 09:04:07.31	28.06	13.57	
2025-01-11 09:04:08.35	27.83	13.55	
2025-01-11 09:04:09.37	27.59	13.52	
2025-01-11 09:04:10.40	27.36	13.50	
2025-01-11 09:04:11.42	27.13	13.48	
2025-01-11 09:04:12.45	26.90	13.46	
2025-01-11 09:04:13.47	26.66	13.43	
2025-01-11 09:04:14.50	26.43	13.41	
2025-01-11 09:04:15.53	26.20	13.39	
2025-01-11 09:04:16.56	25.97	13.36	
2025-01-11 09:04:17.58	25.74	13.34	
2025-01-11 09:04:18.61	25.51	13.31	
2025-01-11 09:04:19.66	25.27	13.28	
2025-01-11 09:04:20.68	25.05	13.26	
2025-01-11 09:04:21.70	24.82	13.23	
2025-01-11 09:04:22.73	24.59	13.20	
2025-01-11 09:04:23.75	24.36	13.18	
2025-01-11 09:04:24.78	24.14	13.15	
2025-01-11 09:04:25.80	23.91	13.12	
2025-01-11 09:04:26.84	23.68	13.09	
2025-01-11 09:04:27.87	23.45	13.06	
2025-01-11 09:04:28.89	23.23	13.03	
2025-01-11 09:04:29.93	23.00	13.00	
2025-01-11 09:04:30.95	22.78	12.97	
2025-01-11 09:04:31.98	22.55	12.94	
2025-01-11 09:04:33.01	22.33	12.91	
2025-01-11 09:04:34.03	22.11	12.88	
2025-01-11 09:04:35.06	21.89	12.85	
2025-01-11 09:04:36.08	21.67	12.82	
2025-01-11 09:04:37.10	21.45	12.78	
2025-01-11 09:04:38.13	21.22	12.75	
2025-01-11 09:04:39.15	21.00	12.72	
2025-01-11 09:04:40.18	20.78	12.69	
2025-01-11 09:04:41.21	20.56	12.65	
2025-01-11 09:04:42.23	20.35	12.62	
2025-01-11 09:04:43.26	20.13	12.58	
2025-01-11 09:04:44.29	19.91	12.55	
2025-01-11 09:04:45.31	19.69	12.51	
2025-01-11 09:04:46.34	19.48	12.48	
2025-01-11 09:04:47.37	19.26	12.44	
2025-01-11 09:04:48.39	19.05	12.41	
2025-01-11 09:04:49.42	18.83	12.37	
2025-01-11 09:04:50.44	18.62	12.33	
2025-01-11 09:04:51.47	18.40	12.30	
2025-01-11 09:04:52.50	18.19	12.26	
2025-01-11 09:04:53.52	17.98	12.22	
2025-01-11 09:04:54.55	17.77	12.18	
2025-01-11 09:04:55.58	17.56	12.15	
2025-01-11 09:04:56.63	17.34	12.11	
2025-01-11 09:04:57.66	17.13	12.07	
2025-01-11 09:04:58.70	16.92	12.03	
2025-01-11 09:04:59.72	16.71	11.99	
2025-01-11 09:05:00.76	16.50	11.95	
2025-01-11 09:05:01.78	16.29	11.91	
2025-01-11 09:05:02.80	16.09	11.87	
2025-01-11 09:05:03.83	15.88	11.83	
2025-01-11 09:05:04.85	15.68	11.79	
2025-01-11 09:05:05.88	15.47	11.75	
2025-01-11 09:05:06.91	15.27	11.71	
2025-01-11 09:05:07.93	15.06	11.67	
2025-01-11 09:05:08.96	14.86	11.62	
2025-01-11 09:05:09.98	14.66	11.58	
2025-01-11 09:05:11.01	14.46	11.54	
2025-01-11 09:05:12.03	14.26	11.50	
2025-01-11 09:05:13.06	14.05	11.46	
2025-01-11 09:05:14.09	13.85	11.41	
2025-01-11 09:05:15.13	13.65	11.37	
2025-01-11 09:05:16.15	13.45	11.33	
2025-01-11 09:05:17.18	13.26	11.28	
2025-01-11 09:05:18.20	13.06	11.24	
2025-01-11 09:05:19.23	12.86	11.19	
2025-01-11 09:05:20.25	12.67	11.15	
2025-01-11 09:05:21.28	12.47	11.11	
2025-01-11 09:05:22.30	12.28	11.06	
2025-01-11 09:05:23.33	12.08	11.02	
2025-01-11 09:05:24.35	11.89	10.97	
2025-01-11 09:05:25.38	11.70	10.93	
2025-01-11 09:05:26.40	11.51	10.88	
2025-01-11 09:05:27.43	11.31	10.83	
2025-01-11 09:05:28.46	11.12	10.79	
2025-01-11 09:05:29.48	10.93	10.74	
2025-01-11 09:05:30.51	10.74	10.70	
2025-01-11 09:05:31.53	10.55	10.65	
2025-01-11 09:05:32.57	10.36	10.60	
2025-01-11 09:05:33.60	10.18	10.56	
2025-01-11 09:05:34.62	9.99	10.51	
2025-01-11 09:05:35.66	9.80	10.46	
2025-01-11 09:05:36.69	9.62	10.41	
2025-01-11 09:05:37.71	9.43	10.37	
2025-01-11 09:05:38.74	9.25	10.32	
2025-01-11 09:05:39.77	9.06	10.27	
2025-01-11 09:05:40.79	8.88	10.22	
2025-01-11 09:05:41.82	8.70	10.17	
2025-01-11 09:05:42.84	8.52	10.13	
2025-01-11 09:05:43.87	8.34	10.08	
2025-01-11 09:05:44.90	8.15	10.03	
2025-01-11 09:05:45.92	7.98	9.98	
2025-01-11 09:05:46.95	7.80	9.93	
2025-01-11 09:05:47.98	7.62	9.88	
2025-01-11 09:05:49.00	7.44	9.83	
2025-01-11 09:05:50.03	7.26	9.78	
2025-01-11 09:05:51.06	7.09	9.73	
2025-01-11 09:05:52.09	6.91	9.68	
2025-01-11 09:05:53.13	6.73	9.63	
2025-01-11 09:05:54.16	6.56	9.58	
2025-01-11 09:05:55.19	6.38	9.53	
2025-01-11 09:05:56.21	6.21	9.48	
2025-01-11 09:05:57.24	6.04	9.43	
2025-01-11 09:05:58.26	5.87	9.38	
2025-01-11 09:05:59.28	5.70	9.33	
2025-01-11 09:06:00.31	5.53	9.28	
2025-01-11 09:06:01.34	5.36	9.23	
2025-01-11 09:06:02.37	5.19	9.18	
2025-01-11 09:06:03.40	5.02	9.13	
2025-01-11 09:06:04.42	4.85	9.08	
2025-01-11 09:06:05.45	4.68	9.02	
2025-01-11 09:06:06.47	4.52	8.97	
2025-01-11 09:06:07.50	4.35	8.92	
2025-01-11 09:06:08.54	4.18	8.87	
2025-01-11 09:06:09.57	4.02	8.82	
2025-01-11 09:06:10.59	3.86	8.77	
2025-01-11 09:06:11.62	3.69	8.71	
2025-01-11 09:06:12.65	3.53	8.66	
2025-01-11 09:06:13.67	3.37	8.61	
2025-01-11 09:06:14.70	3.21	8.56	
2025-01-11 09:06:15.73	3.04	8.51	
2025-01-11 09:06:16.75	2.89	8.45	
2025-01-11 09:06:17.78	2.73	8.40	
2025-01-11 09:06:18.80	2.57	8.35	
2025-01-11 09:06:19.83	2.41	8.30	
2025-01-11 09:06:20.86	2.25	8.24	
2025-01-11 09:06:21.89	2.09	8.19	
2025-01-11 09:06:22.91	1.94	8.14	
2025-01-11 09:06:23.93	1.78	8.09	
2025-01-11 09:06:24.96	1.63	8.03	
2025-01-11 09:06:25.99	1.47	7.98	
2025-01-11 09:06:27.01	1.32	7.93	
2025-01-11 09:06:28.04	1.17	7.87	
2025-01-11 09:06:29.06	1.01	7.82	
2025-01-11 09:06:30.09	0.86	7.77	
2025-01-11 09:06:31.12	0.71	7.71	
2025-01-11 09:06:32.15	0.56	7.66	
2025-01-11 09:06:33.18	0.41	7.61	
2025-01-11 09:06:34.21	0.26	7.55	
2025-01-11 09:06:35.24	0.11	7.50	
2025-01-11 09:06:36.27	359.96	7.45	
2025-01-11 09:06:37.29	359.81	7.39	
2025-01-11 09:06:38.31	359.67	7.34	
2025-01-11 09:06:39.34	359.52	7.29	
2025-01-11 09:06:40.37	359.37	7.23	
2025-01-11 09:06:41.39	359.23	7.18	
2025-01-11 09:06:42.42	359.08	7.13	
2025-01-11 09:06:43.45	358.94	7.07	
2025-01-11 09:06:44.47	358.80	7.02	
2025-01-11 09:06:45.49	358.65	6.96	
2025-01-11 09:06:46.51	358.51	6.91	
2025-01-11 09:06:47.54	358.37	6.86	
2025-01-11 09:06:48.56	358.23	6.80	
2025-01-11 09:06:49.59	358.09	6.75	
2025-01-11 09:06:50.62	357.95	6.70	
2025-01-11 09:06:51.64	357.81	6.64	
2025-01-11 09:06:52.67	357.67	6.59	
2025-01-11 09:06:53.70	357.53	6.53	
2025-01-11 09:06:54.73	357.39	6.48	
2025-01-11 09:06:55.77	357.26	6.42	
2025-01-11 09:06:56.80	357.12	6.37	
2025-01-11 09:06:57.82	356.98	6.32	
2025-01-11 09:06:58.85	356.85	6.26	
2025-01-11 09:06:59.87	356.71	6.21	
2025-01-11 09:07:00.89	356.58	6.15	
2025-01-11 09:07:01.91	356.45	6.10	
2025-01-11 09:07:02.94	356.31	6.05	
2025-01-11 09:07:03.97	356.18	5.99	
2025-01-11 09:07:05.00	356.05	5.94	
2025-01-11 09:07:06.03	355.92	5.88	
2025-01-11 09:07:07.06	355.78	5.83	
2025-01-11 09:07:08.08	355.65	5.77	
2025-01-11 09:07:09.11	355.52	5.72	
2025-01-11 09:07:10.15	355.39	5.66	
2025-01-11 09:07:11.18	355.26	5.61	
2025-01-11 09:07:12.22	355.13	5.56	
2025-01-11 09:07:13.24	355.01	5.50	
2025-01-11 09:07:14.27	354.88	5.45	
2025-01-11 09:07:15.29	354.75	5.39	
2025-01-11 09:07:16.31	354.63	5.34	
2025-01-11 09:07:17.34	354.50	5.28	
2025-01-11 09:07:18.37	354.38	5.23	
2025-01-11 09:07:19.39	354.25	5.18	
2025-01-11 09:07:20.42	354.13	5.12	
2025-01-11 09:07:21.45	354.00	5.07	
2025-01-11 09:07:22.47	353.88	5.01	
2025-01-11 09:07:23.50	353.76	4.96	
2025-01-11 09:07:24.53	353.64	4.90	
2025-01-11 09:07:25.55	353.51	4.85	
2025-01-11 09:07:26.58	353.39	4.80	
2025-01-11 09:07:27.61	353.27	4.74	
2025-01-11 09:07:28.65	353.15	4.69	
2025-01-11 09:07:29.68	353.03	4.63	
2025-01-11 09:07:30.70	352.91	4.58	
2025-01-11 09:07:31.73	352.79	4.52	
2025-01-11 09:07:32.76	352.67	4.47	
2025-01-11 09:07:33.79	352.56	4.42	
2025-01-11 09:07:34.82	352.44	4.36	
2025-01-11 09:07:35.84	352.32	4.31	
2025-01-11 09:07:36.87	352.21	4.25	
2025-01-11 09:07:37.89	352.09	4.20	
2025-01-11 09:07:38.92	351.98	4.15	
2025-01-11 09:07:39.95	351.86	4.09	
2025-01-11 09:07:40.98	351.75	4.04	

#Closed at: 2025-01-11 09:07:42