passes_logs/2025/01/11/SPB_Silybum_02/SPB_Silybum_02__20250111_103407_AQUA_rec.log

#Pass ID: 20250111_103407_AQUA
#Satellite: AQUA
#Configuration: AQUA
#Start time: 2025-01-11 10:34:08

#Version: 2.0.20230423
#Station: SPB_Silybum_02
#Location: 30.233357 lon 59.946436 lat
#TLE: 1 27424U 02022A   25010.89862733  .00001944  00000+0  40909-3 0  9991
#TLE: 2 27424  98.3577 327.5256 0001581 116.2883 319.2080 14.60667727207024

#Time	Az	El	Level	Level2	SNR	BER	Gain	Gain2
2025-01-11 10:34:10.29	135.49	4.21	
2025-01-11 10:34:11.52	135.44	4.30	
2025-01-11 10:34:12.75	135.39	4.38	
2025-01-11 10:34:13.98	135.34	4.47	
2025-01-11 10:34:15.22	135.29	4.56	
2025-01-11 10:34:16.45	135.24	4.65	
2025-01-11 10:34:17.68	135.19	4.74	
2025-01-11 10:34:18.91	135.13	4.82	
2025-01-11 10:34:20.14	135.08	4.91	
2025-01-11 10:34:21.37	135.03	5.00	
2025-01-11 10:34:22.60	134.97	5.09	
2025-01-11 10:34:23.83	134.92	5.18	
2025-01-11 10:34:25.06	134.87	5.27	
2025-01-11 10:34:26.31	134.81	5.36	
2025-01-11 10:34:27.54	134.76	5.45	
2025-01-11 10:34:28.77	134.70	5.55	
2025-01-11 10:34:30.00	134.64	5.64	
2025-01-11 10:34:31.24	134.59	5.73	
2025-01-11 10:34:32.49	134.53	5.82	
2025-01-11 10:34:33.72	134.47	5.92	
2025-01-11 10:34:34.95	134.42	6.01	
2025-01-11 10:34:36.18	134.36	6.10	
2025-01-11 10:34:37.41	134.30	6.20	
2025-01-11 10:34:38.63	134.24	6.29	
2025-01-11 10:34:39.86	134.18	6.38	
2025-01-11 10:34:41.10	134.12	6.48	
2025-01-11 10:34:42.32	134.06	6.57	
2025-01-11 10:34:43.56	134.00	6.67	
2025-01-11 10:34:44.78	133.94	6.76	
2025-01-11 10:34:46.02	133.88	6.86	
2025-01-11 10:34:47.24	133.82	6.96	
2025-01-11 10:34:48.48	133.75	7.05	
2025-01-11 10:34:49.70	133.69	7.15	
2025-01-11 10:34:50.94	133.63	7.25	
2025-01-11 10:34:52.16	133.56	7.35	
2025-01-11 10:34:53.40	133.50	7.44	
2025-01-11 10:34:54.63	133.44	7.54	
2025-01-11 10:34:55.85	133.37	7.64	
2025-01-11 10:34:57.09	133.30	7.74	
2025-01-11 10:34:58.32	133.24	7.84	
2025-01-11 10:34:59.55	133.17	7.94	
2025-01-11 10:35:00.78	133.10	8.04	
2025-01-11 10:35:02.03	133.03	8.15	
2025-01-11 10:35:03.27	132.97	8.25	
2025-01-11 10:35:04.51	132.90	8.35	
2025-01-11 10:35:05.74	132.83	8.45	
2025-01-11 10:35:06.98	132.76	8.56	
2025-01-11 10:35:08.21	132.68	8.66	
2025-01-11 10:35:09.44	132.61	8.76	
2025-01-11 10:35:10.69	132.54	8.87	
2025-01-11 10:35:11.92	132.47	8.97	
2025-01-11 10:35:13.15	132.40	9.08	
2025-01-11 10:35:14.38	132.32	9.18	
2025-01-11 10:35:15.61	132.25	9.29	
2025-01-11 10:35:16.84	132.17	9.40	
2025-01-11 10:35:18.07	132.10	9.50	
2025-01-11 10:35:19.31	132.02	9.61	
2025-01-11 10:35:20.54	131.94	9.72	
2025-01-11 10:35:21.77	131.87	9.83	
2025-01-11 10:35:23.01	131.79	9.94	
2025-01-11 10:35:24.24	131.71	10.05	
2025-01-11 10:35:25.47	131.63	10.16	
2025-01-11 10:35:26.71	131.55	10.27	
2025-01-11 10:35:27.95	131.47	10.38	
2025-01-11 10:35:29.18	131.39	10.49	
2025-01-11 10:35:30.41	131.30	10.60	
2025-01-11 10:35:31.65	131.22	10.71	
2025-01-11 10:35:32.88	131.14	10.83	
2025-01-11 10:35:34.11	131.05	10.94	
2025-01-11 10:35:35.34	130.97	11.05	
2025-01-11 10:35:36.57	130.88	11.17	
2025-01-11 10:35:37.80	130.80	11.28	
2025-01-11 10:35:39.03	130.71	11.40	
2025-01-11 10:35:40.26	130.62	11.51	
2025-01-11 10:35:41.51	130.53	11.63	
2025-01-11 10:35:42.74	130.44	11.75	
2025-01-11 10:35:43.97	130.35	11.87	
2025-01-11 10:35:45.20	130.26	11.99	
2025-01-11 10:35:46.43	130.17	12.10	
2025-01-11 10:35:47.67	130.07	12.22	
2025-01-11 10:35:48.89	129.98	12.34	
2025-01-11 10:35:50.13	129.89	12.46	
2025-01-11 10:35:51.36	129.79	12.59	
2025-01-11 10:35:52.59	129.69	12.71	
2025-01-11 10:35:53.82	129.60	12.83	
2025-01-11 10:35:55.07	129.50	12.95	
2025-01-11 10:35:56.30	129.40	13.08	
2025-01-11 10:35:57.53	129.30	13.20	
2025-01-11 10:35:58.76	129.20	13.33	
2025-01-11 10:35:59.99	129.10	13.45	
2025-01-11 10:36:01.22	128.99	13.58	
2025-01-11 10:36:02.45	128.89	13.70	
2025-01-11 10:36:03.68	128.79	13.83	
2025-01-11 10:36:04.94	128.68	13.96	
2025-01-11 10:36:06.17	128.57	14.09	
2025-01-11 10:36:07.39	128.46	14.22	
2025-01-11 10:36:08.63	128.35	14.35	
2025-01-11 10:36:09.86	128.24	14.48	
2025-01-11 10:36:11.09	128.13	14.61	
2025-01-11 10:36:12.32	128.02	14.74	
2025-01-11 10:36:13.56	127.91	14.88	
2025-01-11 10:36:14.80	127.79	15.01	
2025-01-11 10:36:16.04	127.68	15.14	
2025-01-11 10:36:17.27	127.56	15.28	
2025-01-11 10:36:18.52	127.44	15.42	
2025-01-11 10:36:19.75	127.32	15.55	
2025-01-11 10:36:20.98	127.20	15.69	
2025-01-11 10:36:22.21	127.08	15.83	
2025-01-11 10:36:23.46	126.96	15.97	
2025-01-11 10:36:24.70	126.83	16.11	
2025-01-11 10:36:25.93	126.71	16.25	
2025-01-11 10:36:27.17	126.58	16.39	
2025-01-11 10:36:28.40	126.45	16.53	
2025-01-11 10:36:29.63	126.32	16.67	
2025-01-11 10:36:30.86	126.19	16.81	
2025-01-11 10:36:32.10	126.06	16.96	
2025-01-11 10:36:33.32	125.93	17.10	
2025-01-11 10:36:34.55	125.79	17.25	
2025-01-11 10:36:35.80	125.66	17.40	
2025-01-11 10:36:37.04	125.52	17.54	
2025-01-11 10:36:38.27	125.38	17.69	
2025-01-11 10:36:39.50	125.24	17.84	
2025-01-11 10:36:40.73	125.10	17.99	
2025-01-11 10:36:41.97	124.95	18.14	
2025-01-11 10:36:43.19	124.81	18.29	
2025-01-11 10:36:44.43	124.66	18.44	
2025-01-11 10:36:45.66	124.52	18.59	
2025-01-11 10:36:46.89	124.37	18.75	
2025-01-11 10:36:48.12	124.22	18.90	
2025-01-11 10:36:49.35	124.06	19.06	
2025-01-11 10:36:50.58	123.91	19.21	
2025-01-11 10:36:51.81	123.75	19.37	
2025-01-11 10:36:53.04	123.60	19.53	
2025-01-11 10:36:54.27	123.44	19.68	
2025-01-11 10:36:55.50	123.27	19.84	
2025-01-11 10:36:56.73	123.11	20.00	
2025-01-11 10:36:57.97	122.95	20.17	
2025-01-11 10:36:59.19	122.78	20.33	
2025-01-11 10:37:00.44	122.61	20.49	
2025-01-11 10:37:01.67	122.44	20.66	
2025-01-11 10:37:02.91	122.26	20.82	
2025-01-11 10:37:04.16	122.09	20.99	
2025-01-11 10:37:05.42	121.91	21.16	
2025-01-11 10:37:06.65	121.73	21.33	
2025-01-11 10:37:07.89	121.55	21.50	
2025-01-11 10:37:09.13	121.36	21.67	
2025-01-11 10:37:10.37	121.17	21.84	
2025-01-11 10:37:11.60	120.99	22.01	
2025-01-11 10:37:12.84	120.80	22.18	
2025-01-11 10:37:14.07	120.60	22.36	
2025-01-11 10:37:15.30	120.41	22.53	
2025-01-11 10:37:16.53	120.21	22.71	
2025-01-11 10:37:17.77	120.01	22.88	
2025-01-11 10:37:19.01	119.81	23.06	
2025-01-11 10:37:20.24	119.61	23.24	
2025-01-11 10:37:21.47	119.40	23.42	
2025-01-11 10:37:22.71	119.19	23.60	
2025-01-11 10:37:23.94	118.98	23.78	
2025-01-11 10:37:25.17	118.77	23.96	
2025-01-11 10:37:26.43	118.54	24.15	
2025-01-11 10:37:27.66	118.33	24.33	
2025-01-11 10:37:28.89	118.10	24.52	
2025-01-11 10:37:30.12	117.88	24.70	
2025-01-11 10:37:31.35	117.65	24.89	
2025-01-11 10:37:32.60	117.42	25.08	
2025-01-11 10:37:33.83	117.18	25.27	
2025-01-11 10:37:35.06	116.95	25.45	
2025-01-11 10:37:36.30	116.71	25.65	
2025-01-11 10:37:37.52	116.47	25.84	
2025-01-11 10:37:38.76	116.22	26.03	
2025-01-11 10:37:39.98	115.97	26.22	
2025-01-11 10:37:41.21	115.72	26.41	
2025-01-11 10:37:42.46	115.46	26.61	
2025-01-11 10:37:43.69	115.20	26.81	
2025-01-11 10:37:44.92	114.94	27.00	
2025-01-11 10:37:46.15	114.68	27.20	
2025-01-11 10:37:47.39	114.41	27.40	
2025-01-11 10:37:48.63	114.13	27.60	
2025-01-11 10:37:49.86	113.86	27.80	
2025-01-11 10:37:51.09	113.58	28.00	
2025-01-11 10:37:52.32	113.30	28.20	
2025-01-11 10:37:53.57	113.01	28.41	
2025-01-11 10:37:54.80	112.71	28.61	
2025-01-11 10:37:56.03	112.42	28.82	
2025-01-11 10:37:57.27	112.12	29.02	
2025-01-11 10:37:58.50	111.82	29.23	
2025-01-11 10:37:59.73	111.51	29.43	
2025-01-11 10:38:00.96	111.20	29.64	
2025-01-11 10:38:02.19	110.89	29.85	
2025-01-11 10:38:03.43	110.56	30.06	
2025-01-11 10:38:04.66	110.24	30.27	
2025-01-11 10:38:05.90	109.91	30.48	
2025-01-11 10:38:07.13	109.58	30.69	
2025-01-11 10:38:08.37	109.24	30.90	
2025-01-11 10:38:09.60	108.90	31.11	
2025-01-11 10:38:10.83	108.55	31.32	
2025-01-11 10:38:12.06	108.20	31.54	
2025-01-11 10:38:13.30	107.84	31.75	
2025-01-11 10:38:14.53	107.48	31.96	
2025-01-11 10:38:15.76	107.12	32.18	
2025-01-11 10:38:16.99	106.75	32.39	
2025-01-11 10:38:18.22	106.37	32.60	
2025-01-11 10:38:19.45	105.99	32.82	
2025-01-11 10:38:20.68	105.61	33.03	
2025-01-11 10:38:21.94	105.21	33.25	
2025-01-11 10:38:23.17	104.81	33.46	
2025-01-11 10:38:24.40	104.41	33.68	
2025-01-11 10:38:25.63	104.00	33.89	
2025-01-11 10:38:26.86	103.59	34.11	
2025-01-11 10:38:28.11	103.16	34.33	
2025-01-11 10:38:29.35	102.74	34.54	
2025-01-11 10:38:30.58	102.31	34.76	
2025-01-11 10:38:31.81	101.87	34.97	
2025-01-11 10:38:33.05	101.43	35.18	
2025-01-11 10:38:34.28	100.98	35.40	
2025-01-11 10:38:35.51	100.52	35.61	
2025-01-11 10:38:36.74	100.06	35.82	
2025-01-11 10:38:37.97	99.60	36.03	
2025-01-11 10:38:39.20	99.13	36.24	
2025-01-11 10:38:40.45	98.64	36.46	
2025-01-11 10:38:41.68	98.15	36.67	
2025-01-11 10:38:42.91	97.66	36.87	
2025-01-11 10:38:44.15	97.16	37.08	
2025-01-11 10:38:45.38	96.66	37.29	
2025-01-11 10:38:46.61	96.15	37.49	
2025-01-11 10:38:47.84	95.63	37.70	
2025-01-11 10:38:49.06	95.11	37.90	
2025-01-11 10:38:50.31	94.57	38.10	
2025-01-11 10:38:51.54	94.03	38.30	
2025-01-11 10:38:52.77	93.49	38.50	
2025-01-11 10:38:54.01	92.93	38.70	
2025-01-11 10:38:55.25	92.37	38.89	
2025-01-11 10:38:56.48	91.80	39.08	
2025-01-11 10:38:57.70	91.24	39.27	
2025-01-11 10:38:58.94	90.65	39.46	
2025-01-11 10:39:00.17	90.07	39.65	
2025-01-11 10:39:01.39	89.48	39.83	
2025-01-11 10:39:02.62	88.88	40.01	
2025-01-11 10:39:03.87	88.27	40.19	
2025-01-11 10:39:05.11	87.65	40.37	
2025-01-11 10:39:06.35	87.02	40.54	
2025-01-11 10:39:07.59	86.39	40.71	
2025-01-11 10:39:08.82	85.76	40.88	
2025-01-11 10:39:10.05	85.12	41.04	
2025-01-11 10:39:11.28	84.47	41.20	
2025-01-11 10:39:12.50	83.83	41.36	
2025-01-11 10:39:13.74	83.16	41.51	
2025-01-11 10:39:14.96	82.50	41.66	
2025-01-11 10:39:16.20	81.83	41.81	
2025-01-11 10:39:17.43	81.15	41.95	
2025-01-11 10:39:18.66	80.47	42.09	
2025-01-11 10:39:19.91	79.76	42.22	
2025-01-11 10:39:21.14	79.07	42.35	
2025-01-11 10:39:22.37	78.37	42.48	
2025-01-11 10:39:23.60	77.66	42.60	
2025-01-11 10:39:24.84	76.94	42.72	
2025-01-11 10:39:26.08	76.22	42.83	
2025-01-11 10:39:27.30	75.51	42.94	
2025-01-11 10:39:28.54	74.77	43.04	
2025-01-11 10:39:29.77	74.04	43.14	
2025-01-11 10:39:31.00	73.31	43.23	
2025-01-11 10:39:32.23	72.57	43.32	
2025-01-11 10:39:33.48	71.81	43.40	
2025-01-11 10:39:34.71	71.06	43.48	
2025-01-11 10:39:35.94	70.31	43.55	
2025-01-11 10:39:37.19	69.54	43.62	
2025-01-11 10:39:38.42	68.79	43.68	
2025-01-11 10:39:39.65	68.03	43.74	
2025-01-11 10:39:40.88	67.26	43.79	
2025-01-11 10:39:42.12	66.49	43.83	
2025-01-11 10:39:43.36	65.72	43.87	
2025-01-11 10:39:44.59	64.95	43.90	
2025-01-11 10:39:45.82	64.18	43.93	
2025-01-11 10:39:47.05	63.41	43.95	
2025-01-11 10:39:48.27	62.64	43.97	
2025-01-11 10:39:49.50	61.87	43.98	
2025-01-11 10:39:50.73	61.09	43.98	
2025-01-11 10:39:51.97	60.31	43.98	
2025-01-11 10:39:53.21	59.53	43.98	
2025-01-11 10:39:54.44	58.76	43.96	
2025-01-11 10:39:55.67	57.99	43.95	
2025-01-11 10:39:56.90	57.22	43.92	
2025-01-11 10:39:58.15	56.43	43.89	
2025-01-11 10:39:59.38	55.67	43.86	
2025-01-11 10:40:00.61	54.90	43.81	
2025-01-11 10:40:01.84	54.14	43.77	
2025-01-11 10:40:03.07	53.37	43.72	
2025-01-11 10:40:04.30	52.61	43.66	
2025-01-11 10:40:05.53	51.86	43.59	
2025-01-11 10:40:06.76	51.11	43.53	
2025-01-11 10:40:07.99	50.36	43.45	
2025-01-11 10:40:09.24	49.60	43.37	
2025-01-11 10:40:10.47	48.86	43.29	
2025-01-11 10:40:11.70	48.12	43.20	
2025-01-11 10:40:12.93	47.39	43.10	
2025-01-11 10:40:14.16	46.66	43.00	
2025-01-11 10:40:15.40	45.93	42.90	
2025-01-11 10:40:16.64	45.20	42.79	
2025-01-11 10:40:17.88	44.48	42.67	
2025-01-11 10:40:19.11	43.77	42.56	
2025-01-11 10:40:20.34	43.07	42.43	
2025-01-11 10:40:21.59	42.36	42.30	
2025-01-11 10:40:22.82	41.67	42.17	
2025-01-11 10:40:24.05	40.98	42.04	
2025-01-11 10:40:25.28	40.30	41.90	
2025-01-11 10:40:26.51	39.63	41.76	
2025-01-11 10:40:27.74	38.96	41.61	
2025-01-11 10:40:28.96	38.31	41.46	
2025-01-11 10:40:30.19	37.65	41.31	
2025-01-11 10:40:31.42	37.00	41.15	
2025-01-11 10:40:32.65	36.36	40.99	
2025-01-11 10:40:33.89	35.72	40.82	
2025-01-11 10:40:35.13	35.08	40.65	
2025-01-11 10:40:36.36	34.46	40.48	
2025-01-11 10:40:37.60	33.84	40.31	
2025-01-11 10:40:38.84	33.23	40.13	
2025-01-11 10:40:40.07	32.63	39.95	
2025-01-11 10:40:41.30	32.03	39.77	
2025-01-11 10:40:42.53	31.44	39.59	
2025-01-11 10:40:43.76	30.86	39.40	
2025-01-11 10:40:44.99	30.29	39.21	
2025-01-11 10:40:46.22	29.72	39.02	
2025-01-11 10:40:47.45	29.16	38.83	
2025-01-11 10:40:48.68	28.60	38.64	
2025-01-11 10:40:49.91	28.06	38.44	
2025-01-11 10:40:51.15	27.51	38.24	
2025-01-11 10:40:52.38	26.98	38.05	
2025-01-11 10:40:53.61	26.45	37.85	
2025-01-11 10:40:54.84	25.93	37.64	
2025-01-11 10:40:56.08	25.41	37.44	
2025-01-11 10:40:57.31	24.90	37.23	
2025-01-11 10:40:58.54	24.40	37.03	
2025-01-11 10:40:59.77	23.91	36.82	
2025-01-11 10:41:01.00	23.42	36.61	
2025-01-11 10:41:02.23	22.94	36.41	
2025-01-11 10:41:03.48	22.46	36.19	
2025-01-11 10:41:04.71	21.99	35.98	
2025-01-11 10:41:05.94	21.53	35.77	
2025-01-11 10:41:07.17	21.07	35.56	
2025-01-11 10:41:08.40	20.62	35.35	
2025-01-11 10:41:09.63	20.17	35.14	
2025-01-11 10:41:10.87	19.73	34.92	
2025-01-11 10:41:12.10	19.30	34.71	
2025-01-11 10:41:13.33	18.87	34.50	
2025-01-11 10:41:14.56	18.45	34.28	
2025-01-11 10:41:15.81	18.03	34.07	
2025-01-11 10:41:17.04	17.62	33.85	
2025-01-11 10:41:18.27	17.22	33.64	
2025-01-11 10:41:19.50	16.82	33.43	
2025-01-11 10:41:20.73	16.42	33.21	
2025-01-11 10:41:21.96	16.04	33.00	
2025-01-11 10:41:23.20	15.65	32.78	
2025-01-11 10:41:24.42	15.28	32.57	
2025-01-11 10:41:25.66	14.90	32.36	
2025-01-11 10:41:26.89	14.53	32.15	
2025-01-11 10:41:28.12	14.17	31.93	
2025-01-11 10:41:29.36	13.81	31.72	
2025-01-11 10:41:30.59	13.46	31.51	
2025-01-11 10:41:31.82	13.11	31.30	
2025-01-11 10:41:33.05	12.77	31.09	
2025-01-11 10:41:34.28	12.43	30.88	
2025-01-11 10:41:35.52	12.09	30.67	
2025-01-11 10:41:36.75	11.76	30.46	
2025-01-11 10:41:37.99	11.44	30.25	
2025-01-11 10:41:39.22	11.11	30.04	
2025-01-11 10:41:40.45	10.80	29.83	
2025-01-11 10:41:41.68	10.49	29.63	
2025-01-11 10:41:42.91	10.18	29.42	
2025-01-11 10:41:44.14	9.87	29.22	
2025-01-11 10:41:45.37	9.57	29.01	
2025-01-11 10:41:46.62	9.27	28.80	
2025-01-11 10:41:47.85	8.98	28.60	
2025-01-11 10:41:49.08	8.69	28.40	
2025-01-11 10:41:50.30	8.41	28.20	
2025-01-11 10:41:51.53	8.13	28.00	
2025-01-11 10:41:52.77	7.85	27.80	
2025-01-11 10:41:54.00	7.58	27.60	
2025-01-11 10:41:55.23	7.31	27.40	
2025-01-11 10:41:56.47	7.04	27.20	
2025-01-11 10:41:57.71	6.78	27.00	
2025-01-11 10:41:58.94	6.52	26.81	
2025-01-11 10:42:00.18	6.26	26.61	
2025-01-11 10:42:01.42	6.00	26.42	
2025-01-11 10:42:02.65	5.75	26.23	
2025-01-11 10:42:03.88	5.51	26.03	
2025-01-11 10:42:05.12	5.26	25.84	
2025-01-11 10:42:06.35	5.02	25.65	
2025-01-11 10:42:07.59	4.78	25.46	
2025-01-11 10:42:08.82	4.55	25.27	
2025-01-11 10:42:10.05	4.32	25.09	
2025-01-11 10:42:11.30	4.08	24.90	
2025-01-11 10:42:12.52	3.86	24.71	
2025-01-11 10:42:13.75	3.64	24.53	
2025-01-11 10:42:14.98	3.42	24.35	
2025-01-11 10:42:16.22	3.20	24.16	
2025-01-11 10:42:17.45	2.98	23.98	
2025-01-11 10:42:18.68	2.77	23.80	
2025-01-11 10:42:19.91	2.56	23.62	
2025-01-11 10:42:21.14	2.36	23.44	
2025-01-11 10:42:22.38	2.15	23.26	
2025-01-11 10:42:23.61	1.95	23.09	
2025-01-11 10:42:24.84	1.75	22.91	
2025-01-11 10:42:26.07	1.55	22.73	
2025-01-11 10:42:27.30	1.36	22.56	
2025-01-11 10:42:28.55	1.16	22.39	
2025-01-11 10:42:29.78	0.97	22.21	
2025-01-11 10:42:31.01	0.78	22.04	
2025-01-11 10:42:32.24	0.60	21.87	
2025-01-11 10:42:33.47	0.41	21.70	
2025-01-11 10:42:34.70	0.23	21.53	
2025-01-11 10:42:35.93	0.05	21.37	
2025-01-11 10:42:37.17	359.88	21.20	
2025-01-11 10:42:38.40	359.70	21.03	
2025-01-11 10:42:39.63	359.53	20.87	
2025-01-11 10:42:40.86	359.36	20.70	
2025-01-11 10:42:42.09	359.19	20.54	
2025-01-11 10:42:43.32	359.02	20.38	
2025-01-11 10:42:44.55	358.85	20.22	
2025-01-11 10:42:45.79	358.69	20.06	
2025-01-11 10:42:47.03	358.53	19.90	
2025-01-11 10:42:48.26	358.37	19.74	
2025-01-11 10:42:49.49	358.21	19.58	
2025-01-11 10:42:50.72	358.05	19.42	
2025-01-11 10:42:51.95	357.90	19.27	
2025-01-11 10:42:53.18	357.74	19.11	
2025-01-11 10:42:54.41	357.59	18.96	
2025-01-11 10:42:55.66	357.44	18.80	
2025-01-11 10:42:56.89	357.29	18.65	
2025-01-11 10:42:58.12	357.15	18.50	
2025-01-11 10:42:59.36	357.00	18.35	
2025-01-11 10:43:00.60	356.86	18.20	
2025-01-11 10:43:01.83	356.71	18.05	
2025-01-11 10:43:03.06	356.57	17.90	
2025-01-11 10:43:04.29	356.43	17.75	
2025-01-11 10:43:05.52	356.30	17.60	
2025-01-11 10:43:06.75	356.16	17.46	
2025-01-11 10:43:07.98	356.03	17.31	
2025-01-11 10:43:09.21	355.89	17.17	
2025-01-11 10:43:10.44	355.76	17.03	
2025-01-11 10:43:11.67	355.63	16.88	
2025-01-11 10:43:12.92	355.50	16.74	
2025-01-11 10:43:14.15	355.37	16.60	
2025-01-11 10:43:15.38	355.25	16.46	
2025-01-11 10:43:16.60	355.12	16.32	
2025-01-11 10:43:17.83	355.00	16.18	
2025-01-11 10:43:19.06	354.88	16.04	
2025-01-11 10:43:20.29	354.76	15.90	
2025-01-11 10:43:21.52	354.64	15.77	
2025-01-11 10:43:22.75	354.52	15.63	
2025-01-11 10:43:23.98	354.40	15.49	
2025-01-11 10:43:25.21	354.28	15.36	
2025-01-11 10:43:26.45	354.17	15.22	
2025-01-11 10:43:27.69	354.05	15.09	
2025-01-11 10:43:28.93	353.94	14.96	
2025-01-11 10:43:30.16	353.83	14.82	
2025-01-11 10:43:31.39	353.72	14.69	
2025-01-11 10:43:32.62	353.61	14.56	
2025-01-11 10:43:33.85	353.50	14.43	
2025-01-11 10:43:35.08	353.39	14.30	
2025-01-11 10:43:36.31	353.28	14.18	
2025-01-11 10:43:37.54	353.18	14.05	
2025-01-11 10:43:38.78	353.07	13.92	
2025-01-11 10:43:40.02	352.97	13.79	
2025-01-11 10:43:41.25	352.86	13.67	
2025-01-11 10:43:42.48	352.76	13.54	
2025-01-11 10:43:43.71	352.66	13.42	
2025-01-11 10:43:44.95	352.56	13.29	
2025-01-11 10:43:46.19	352.46	13.17	
2025-01-11 10:43:47.43	352.36	13.04	
2025-01-11 10:43:48.66	352.27	12.92	
2025-01-11 10:43:49.88	352.17	12.80	
2025-01-11 10:43:51.13	352.07	12.68	
2025-01-11 10:43:52.36	351.98	12.55	
2025-01-11 10:43:53.60	351.89	12.43	
2025-01-11 10:43:54.83	351.79	12.31	
2025-01-11 10:43:56.07	351.70	12.19	
2025-01-11 10:43:57.30	351.61	12.08	
2025-01-11 10:43:58.53	351.52	11.96	
2025-01-11 10:43:59.76	351.43	11.84	
2025-01-11 10:44:00.99	351.34	11.73	
2025-01-11 10:44:02.22	351.26	11.61	
2025-01-11 10:44:03.45	351.17	11.49	
2025-01-11 10:44:04.68	351.08	11.38	
2025-01-11 10:44:05.91	351.00	11.26	
2025-01-11 10:44:07.14	350.91	11.15	
2025-01-11 10:44:08.37	350.83	11.04	
2025-01-11 10:44:09.61	350.74	10.92	
2025-01-11 10:44:10.85	350.66	10.81	
2025-01-11 10:44:12.09	350.58	10.70	
2025-01-11 10:44:13.33	350.50	10.59	
2025-01-11 10:44:14.56	350.42	10.48	
2025-01-11 10:44:15.79	350.34	10.36	
2025-01-11 10:44:17.02	350.26	10.25	
2025-01-11 10:44:18.25	350.18	10.15	
2025-01-11 10:44:19.48	350.10	10.04	
2025-01-11 10:44:20.71	350.03	9.93	
2025-01-11 10:44:21.94	349.95	9.82	
2025-01-11 10:44:23.17	349.87	9.71	
2025-01-11 10:44:24.41	349.80	9.61	
2025-01-11 10:44:25.64	349.72	9.50	
2025-01-11 10:44:26.87	349.65	9.39	
2025-01-11 10:44:28.10	349.58	9.29	
2025-01-11 10:44:29.33	349.50	9.18	
2025-01-11 10:44:30.57	349.43	9.08	
2025-01-11 10:44:31.80	349.36	8.97	
2025-01-11 10:44:33.03	349.29	8.87	
2025-01-11 10:44:34.26	349.22	8.77	
2025-01-11 10:44:35.50	349.15	8.66	
2025-01-11 10:44:36.73	349.08	8.56	
2025-01-11 10:44:37.96	349.01	8.46	
2025-01-11 10:44:39.20	348.94	8.35	
2025-01-11 10:44:40.42	348.88	8.25	
2025-01-11 10:44:41.65	348.81	8.15	
2025-01-11 10:44:42.90	348.74	8.05	
2025-01-11 10:44:44.13	348.68	7.95	
2025-01-11 10:44:45.36	348.61	7.85	
2025-01-11 10:44:46.59	348.55	7.75	
2025-01-11 10:44:47.84	348.48	7.65	
2025-01-11 10:44:49.07	348.42	7.55	
2025-01-11 10:44:50.30	348.36	7.46	
2025-01-11 10:44:51.53	348.29	7.36	
2025-01-11 10:44:52.76	348.23	7.26	
2025-01-11 10:44:53.99	348.17	7.16	
2025-01-11 10:44:55.22	348.11	7.07	
2025-01-11 10:44:56.46	348.05	6.97	
2025-01-11 10:44:57.69	347.99	6.88	
2025-01-11 10:44:58.93	347.93	6.78	
2025-01-11 10:45:00.17	347.87	6.68	
2025-01-11 10:45:01.40	347.81	6.59	
2025-01-11 10:45:02.63	347.75	6.49	
2025-01-11 10:45:03.86	347.69	6.40	
2025-01-11 10:45:05.09	347.63	6.31	
2025-01-11 10:45:06.32	347.58	6.21	
2025-01-11 10:45:07.57	347.52	6.12	
2025-01-11 10:45:08.80	347.46	6.03	
2025-01-11 10:45:10.03	347.41	5.93	
2025-01-11 10:45:11.27	347.35	5.84	
2025-01-11 10:45:12.50	347.30	5.75	
2025-01-11 10:45:13.73	347.24	5.66	
2025-01-11 10:45:14.97	347.19	5.57	
2025-01-11 10:45:16.20	347.13	5.48	
2025-01-11 10:45:17.43	347.08	5.39	
2025-01-11 10:45:18.66	347.03	5.30	
2025-01-11 10:45:19.89	346.97	5.21	
2025-01-11 10:45:21.12	346.92	5.12	
2025-01-11 10:45:22.36	346.87	5.03	
2025-01-11 10:45:23.60	346.82	4.94	
2025-01-11 10:45:24.83	346.77	4.85	
2025-01-11 10:45:26.07	346.71	4.76	
2025-01-11 10:45:27.30	346.66	4.67	
2025-01-11 10:45:28.53	346.61	4.59	
2025-01-11 10:45:29.77	346.56	4.50	
2025-01-11 10:45:31.02	346.51	4.41	
2025-01-11 10:45:32.25	346.47	4.32	
2025-01-11 10:45:33.48	346.42	4.24	
2025-01-11 10:45:34.71	346.37	4.15	
2025-01-11 10:45:35.95	346.32	4.06	

#Closed at: 2025-01-11 10:45:37