passes_logs/2025/01/11/SPB_Silybum_02/SPB_Silybum_02__20250111_121140_AQUA_rec.log

#Pass ID: 20250111_121140_AQUA
#Satellite: AQUA
#Configuration: AQUA
#Start time: 2025-01-11 12:11:40

#Version: 2.0.20230423
#Station: SPB_Silybum_02
#Location: 30.233357 lon 59.946436 lat
#TLE: 1 27424U 02022A   25010.89862733  .00001944  00000+0  40909-3 0  9991
#TLE: 2 27424  98.3577 327.5256 0001581 116.2883 319.2080 14.60667727207024

#Time	Az	El	Level	Level2	SNR	BER	Gain	Gain2
2025-01-11 12:11:42.21	186.09	4.11	
2025-01-11 12:11:43.44	186.16	4.20	
2025-01-11 12:11:44.67	186.22	4.28	
2025-01-11 12:11:45.90	186.28	4.37	
2025-01-11 12:11:47.14	186.34	4.45	
2025-01-11 12:11:48.37	186.41	4.54	
2025-01-11 12:11:49.61	186.47	4.63	
2025-01-11 12:11:50.84	186.53	4.72	
2025-01-11 12:11:52.07	186.60	4.80	
2025-01-11 12:11:53.30	186.66	4.89	
2025-01-11 12:11:54.54	186.73	4.98	
2025-01-11 12:11:55.77	186.79	5.07	
2025-01-11 12:11:57.00	186.86	5.15	
2025-01-11 12:11:58.23	186.93	5.24	
2025-01-11 12:11:59.46	186.99	5.33	
2025-01-11 12:12:00.69	187.06	5.42	
2025-01-11 12:12:01.92	187.13	5.51	
2025-01-11 12:12:03.14	187.19	5.60	
2025-01-11 12:12:04.37	187.26	5.69	
2025-01-11 12:12:05.61	187.33	5.78	
2025-01-11 12:12:06.84	187.40	5.87	
2025-01-11 12:12:08.07	187.47	5.96	
2025-01-11 12:12:09.31	187.54	6.06	
2025-01-11 12:12:10.54	187.61	6.15	
2025-01-11 12:12:11.76	187.68	6.24	
2025-01-11 12:12:13.00	187.75	6.33	
2025-01-11 12:12:14.23	187.82	6.42	
2025-01-11 12:12:15.46	187.90	6.52	
2025-01-11 12:12:16.69	187.97	6.61	
2025-01-11 12:12:17.94	188.04	6.71	
2025-01-11 12:12:19.18	188.12	6.80	
2025-01-11 12:12:20.41	188.19	6.90	
2025-01-11 12:12:21.64	188.27	6.99	
2025-01-11 12:12:22.87	188.34	7.09	
2025-01-11 12:12:24.10	188.42	7.18	
2025-01-11 12:12:25.33	188.50	7.28	
2025-01-11 12:12:26.57	188.57	7.37	
2025-01-11 12:12:27.80	188.65	7.47	
2025-01-11 12:12:29.05	188.73	7.57	
2025-01-11 12:12:30.28	188.81	7.67	
2025-01-11 12:12:31.51	188.89	7.77	
2025-01-11 12:12:32.74	188.97	7.86	
2025-01-11 12:12:33.98	189.05	7.96	
2025-01-11 12:12:35.22	189.13	8.06	
2025-01-11 12:12:36.45	189.21	8.16	
2025-01-11 12:12:37.68	189.29	8.26	
2025-01-11 12:12:38.90	189.37	8.36	
2025-01-11 12:12:40.13	189.46	8.46	
2025-01-11 12:12:41.36	189.54	8.56	
2025-01-11 12:12:42.60	189.62	8.66	
2025-01-11 12:12:43.83	189.71	8.77	
2025-01-11 12:12:45.05	189.79	8.87	
2025-01-11 12:12:46.29	189.88	8.97	
2025-01-11 12:12:47.52	189.97	9.07	
2025-01-11 12:12:48.75	190.05	9.18	
2025-01-11 12:12:49.98	190.14	9.28	
2025-01-11 12:12:51.21	190.23	9.39	
2025-01-11 12:12:52.44	190.32	9.49	
2025-01-11 12:12:53.67	190.41	9.60	
2025-01-11 12:12:54.90	190.50	9.70	
2025-01-11 12:12:56.13	190.59	9.81	
2025-01-11 12:12:57.36	190.68	9.91	
2025-01-11 12:12:58.59	190.78	10.02	
2025-01-11 12:12:59.82	190.87	10.13	
2025-01-11 12:13:01.04	190.96	10.23	
2025-01-11 12:13:02.27	191.06	10.34	
2025-01-11 12:13:03.50	191.15	10.45	
2025-01-11 12:13:04.73	191.25	10.56	
2025-01-11 12:13:05.96	191.34	10.67	
2025-01-11 12:13:07.19	191.44	10.78	
2025-01-11 12:13:08.42	191.54	10.89	
2025-01-11 12:13:09.65	191.64	11.00	
2025-01-11 12:13:10.89	191.74	11.12	
2025-01-11 12:13:12.11	191.84	11.23	
2025-01-11 12:13:13.34	191.94	11.34	
2025-01-11 12:13:14.58	192.04	11.45	
2025-01-11 12:13:15.82	192.15	11.57	
2025-01-11 12:13:17.05	192.25	11.68	
2025-01-11 12:13:18.28	192.36	11.80	
2025-01-11 12:13:19.51	192.46	11.91	
2025-01-11 12:13:20.74	192.57	12.03	
2025-01-11 12:13:21.98	192.68	12.15	
2025-01-11 12:13:23.21	192.79	12.26	
2025-01-11 12:13:24.43	192.89	12.38	
2025-01-11 12:13:25.67	193.01	12.50	
2025-01-11 12:13:26.91	193.12	12.62	
2025-01-11 12:13:28.15	193.23	12.74	
2025-01-11 12:13:29.37	193.34	12.86	
2025-01-11 12:13:30.60	193.46	12.98	
2025-01-11 12:13:31.83	193.57	13.10	
2025-01-11 12:13:33.06	193.69	13.22	
2025-01-11 12:13:34.30	193.80	13.34	
2025-01-11 12:13:35.54	193.92	13.46	
2025-01-11 12:13:36.77	194.04	13.59	
2025-01-11 12:13:37.99	194.16	13.71	
2025-01-11 12:13:39.22	194.28	13.83	
2025-01-11 12:13:40.45	194.40	13.96	
2025-01-11 12:13:41.68	194.52	14.08	
2025-01-11 12:13:42.91	194.65	14.21	
2025-01-11 12:13:44.14	194.77	14.34	
2025-01-11 12:13:45.37	194.90	14.46	
2025-01-11 12:13:46.60	195.03	14.59	
2025-01-11 12:13:47.83	195.16	14.72	
2025-01-11 12:13:49.06	195.28	14.85	
2025-01-11 12:13:50.31	195.42	14.98	
2025-01-11 12:13:51.54	195.55	15.11	
2025-01-11 12:13:52.77	195.68	15.24	
2025-01-11 12:13:54.02	195.82	15.38	
2025-01-11 12:13:55.24	195.95	15.51	
2025-01-11 12:13:56.48	196.09	15.64	
2025-01-11 12:13:57.71	196.23	15.77	
2025-01-11 12:13:58.95	196.37	15.91	
2025-01-11 12:14:00.19	196.51	16.05	
2025-01-11 12:14:01.42	196.65	16.18	
2025-01-11 12:14:02.65	196.80	16.32	
2025-01-11 12:14:03.88	196.94	16.45	
2025-01-11 12:14:05.11	197.09	16.59	
2025-01-11 12:14:06.34	197.23	16.73	
2025-01-11 12:14:07.58	197.38	16.87	
2025-01-11 12:14:08.80	197.53	17.01	
2025-01-11 12:14:10.03	197.68	17.15	
2025-01-11 12:14:11.27	197.84	17.29	
2025-01-11 12:14:12.50	197.99	17.43	
2025-01-11 12:14:13.73	198.15	17.58	
2025-01-11 12:14:14.96	198.30	17.72	
2025-01-11 12:14:16.19	198.46	17.86	
2025-01-11 12:14:17.43	198.63	18.01	
2025-01-11 12:14:18.66	198.79	18.15	
2025-01-11 12:14:19.89	198.95	18.30	
2025-01-11 12:14:21.13	199.12	18.45	
2025-01-11 12:14:22.36	199.29	18.60	
2025-01-11 12:14:23.59	199.45	18.75	
2025-01-11 12:14:24.81	199.62	18.89	
2025-01-11 12:14:26.05	199.80	19.04	
2025-01-11 12:14:27.29	199.97	19.20	
2025-01-11 12:14:28.52	200.15	19.35	
2025-01-11 12:14:29.77	200.33	19.50	
2025-01-11 12:14:31.01	200.51	19.66	
2025-01-11 12:14:32.24	200.69	19.81	
2025-01-11 12:14:33.47	200.87	19.97	
2025-01-11 12:14:34.71	201.06	20.12	
2025-01-11 12:14:35.95	201.25	20.28	
2025-01-11 12:14:37.18	201.44	20.44	
2025-01-11 12:14:38.41	201.63	20.59	
2025-01-11 12:14:39.64	201.82	20.75	
2025-01-11 12:14:40.86	202.01	20.91	
2025-01-11 12:14:42.09	202.21	21.07	
2025-01-11 12:14:43.33	202.41	21.23	
2025-01-11 12:14:44.57	202.61	21.40	
2025-01-11 12:14:45.80	202.82	21.56	
2025-01-11 12:14:47.03	203.02	21.72	
2025-01-11 12:14:48.26	203.23	21.89	
2025-01-11 12:14:49.49	203.44	22.05	
2025-01-11 12:14:50.72	203.65	22.22	
2025-01-11 12:14:51.96	203.87	22.38	
2025-01-11 12:14:53.19	204.09	22.55	
2025-01-11 12:14:54.42	204.30	22.72	
2025-01-11 12:14:55.64	204.52	22.89	
2025-01-11 12:14:56.89	204.75	23.06	
2025-01-11 12:14:58.12	204.98	23.23	
2025-01-11 12:14:59.35	205.21	23.40	
2025-01-11 12:15:00.58	205.44	23.57	
2025-01-11 12:15:01.82	205.68	23.75	
2025-01-11 12:15:03.05	205.91	23.92	
2025-01-11 12:15:04.28	206.15	24.09	
2025-01-11 12:15:05.51	206.40	24.27	
2025-01-11 12:15:06.74	206.64	24.44	
2025-01-11 12:15:07.97	206.89	24.62	
2025-01-11 12:15:09.20	207.14	24.80	
2025-01-11 12:15:10.43	207.40	24.98	
2025-01-11 12:15:11.66	207.65	25.16	
2025-01-11 12:15:12.90	207.91	25.34	
2025-01-11 12:15:14.13	208.18	25.52	
2025-01-11 12:15:15.37	208.45	25.70	
2025-01-11 12:15:16.61	208.72	25.88	
2025-01-11 12:15:17.85	208.99	26.07	
2025-01-11 12:15:19.08	209.27	26.25	
2025-01-11 12:15:20.30	209.54	26.43	
2025-01-11 12:15:21.53	209.83	26.62	
2025-01-11 12:15:22.76	210.11	26.80	
2025-01-11 12:15:23.99	210.40	26.99	
2025-01-11 12:15:25.22	210.69	27.17	
2025-01-11 12:15:26.45	210.99	27.36	
2025-01-11 12:15:27.70	211.29	27.55	
2025-01-11 12:15:28.92	211.59	27.74	
2025-01-11 12:15:30.15	211.90	27.92	
2025-01-11 12:15:31.38	212.21	28.11	
2025-01-11 12:15:32.61	212.52	28.30	
2025-01-11 12:15:33.84	212.84	28.49	
2025-01-11 12:15:35.07	213.16	28.68	
2025-01-11 12:15:36.30	213.49	28.87	
2025-01-11 12:15:37.53	213.82	29.06	
2025-01-11 12:15:38.76	214.15	29.26	
2025-01-11 12:15:39.99	214.49	29.45	
2025-01-11 12:15:41.22	214.83	29.64	
2025-01-11 12:15:42.45	215.18	29.83	
2025-01-11 12:15:43.69	215.53	30.03	
2025-01-11 12:15:44.92	215.88	30.22	
2025-01-11 12:15:46.17	216.25	30.42	
2025-01-11 12:15:47.39	216.61	30.61	
2025-01-11 12:15:48.64	216.98	30.81	
2025-01-11 12:15:49.87	217.35	31.00	
2025-01-11 12:15:51.10	217.73	31.20	
2025-01-11 12:15:52.34	218.11	31.39	
2025-01-11 12:15:53.58	218.50	31.59	
2025-01-11 12:15:54.83	218.90	31.78	
2025-01-11 12:15:56.07	219.30	31.98	
2025-01-11 12:15:57.30	219.70	32.17	
2025-01-11 12:15:58.55	220.11	32.37	
2025-01-11 12:15:59.78	220.52	32.57	
2025-01-11 12:16:01.00	220.93	32.76	
2025-01-11 12:16:02.23	221.35	32.95	
2025-01-11 12:16:03.46	221.78	33.14	
2025-01-11 12:16:04.69	222.21	33.33	
2025-01-11 12:16:05.92	222.64	33.53	
2025-01-11 12:16:07.15	223.08	33.72	
2025-01-11 12:16:08.38	223.53	33.91	
2025-01-11 12:16:09.61	223.98	34.10	
2025-01-11 12:16:10.84	224.44	34.29	
2025-01-11 12:16:12.07	224.90	34.48	
2025-01-11 12:16:13.32	225.37	34.67	
2025-01-11 12:16:14.54	225.84	34.85	
2025-01-11 12:16:15.78	226.33	35.04	
2025-01-11 12:16:17.02	226.81	35.23	
2025-01-11 12:16:18.26	227.31	35.41	
2025-01-11 12:16:19.49	227.80	35.60	
2025-01-11 12:16:20.73	228.31	35.78	
2025-01-11 12:16:21.97	228.82	35.96	
2025-01-11 12:16:23.20	229.33	36.14	
2025-01-11 12:16:24.44	229.85	36.32	
2025-01-11 12:16:25.67	230.37	36.49	
2025-01-11 12:16:26.91	230.91	36.67	
2025-01-11 12:16:28.14	231.44	36.84	
2025-01-11 12:16:29.38	231.99	37.01	
2025-01-11 12:16:30.61	232.53	37.18	
2025-01-11 12:16:31.84	233.09	37.35	
2025-01-11 12:16:33.08	233.65	37.51	
2025-01-11 12:16:34.31	234.21	37.68	
2025-01-11 12:16:35.54	234.78	37.84	
2025-01-11 12:16:36.77	235.36	37.99	
2025-01-11 12:16:38.00	235.94	38.15	
2025-01-11 12:16:39.23	236.52	38.30	
2025-01-11 12:16:40.47	237.12	38.46	
2025-01-11 12:16:41.70	237.71	38.60	
2025-01-11 12:16:42.94	238.32	38.75	
2025-01-11 12:16:44.16	238.92	38.89	
2025-01-11 12:16:45.41	239.55	39.03	
2025-01-11 12:16:46.64	240.16	39.17	
2025-01-11 12:16:47.87	240.79	39.30	
2025-01-11 12:16:49.10	241.42	39.43	
2025-01-11 12:16:50.33	242.05	39.56	
2025-01-11 12:16:51.56	242.69	39.68	
2025-01-11 12:16:52.79	243.33	39.80	
2025-01-11 12:16:54.02	243.98	39.92	
2025-01-11 12:16:55.26	244.64	40.03	
2025-01-11 12:16:56.49	245.29	40.14	
2025-01-11 12:16:57.73	245.96	40.25	
2025-01-11 12:16:58.95	246.62	40.35	
2025-01-11 12:17:00.18	247.29	40.44	
2025-01-11 12:17:01.42	247.97	40.54	
2025-01-11 12:17:02.65	248.65	40.63	
2025-01-11 12:17:03.87	249.32	40.71	
2025-01-11 12:17:05.10	250.01	40.79	
2025-01-11 12:17:06.36	250.71	40.87	
2025-01-11 12:17:07.59	251.40	40.94	
2025-01-11 12:17:08.82	252.10	41.01	
2025-01-11 12:17:10.05	252.80	41.07	
2025-01-11 12:17:11.27	253.49	41.13	
2025-01-11 12:17:12.52	254.20	41.19	
2025-01-11 12:17:13.75	254.91	41.24	
2025-01-11 12:17:14.98	255.61	41.28	
2025-01-11 12:17:16.21	256.32	41.32	
2025-01-11 12:17:17.44	257.03	41.36	
2025-01-11 12:17:18.68	257.75	41.39	
2025-01-11 12:17:19.91	258.46	41.42	
2025-01-11 12:17:21.14	259.18	41.44	
2025-01-11 12:17:22.37	259.89	41.45	
2025-01-11 12:17:23.62	260.62	41.46	
2025-01-11 12:17:24.85	261.33	41.47	
2025-01-11 12:17:26.08	262.05	41.47	
2025-01-11 12:17:27.31	262.76	41.47	
2025-01-11 12:17:28.55	263.49	41.46	
2025-01-11 12:17:29.78	264.20	41.45	
2025-01-11 12:17:31.01	264.91	41.43	
2025-01-11 12:17:32.24	265.63	41.41	
2025-01-11 12:17:33.47	266.34	41.38	
2025-01-11 12:17:34.72	267.06	41.35	
2025-01-11 12:17:35.96	267.78	41.31	
2025-01-11 12:17:37.19	268.48	41.27	
2025-01-11 12:17:38.42	269.19	41.22	
2025-01-11 12:17:39.65	269.89	41.17	
2025-01-11 12:17:40.90	270.60	41.12	
2025-01-11 12:17:42.13	271.30	41.06	
2025-01-11 12:17:43.37	272.00	40.99	
2025-01-11 12:17:44.60	272.70	40.92	
2025-01-11 12:17:45.83	273.39	40.85	
2025-01-11 12:17:47.06	274.07	40.77	
2025-01-11 12:17:48.29	274.75	40.69	
2025-01-11 12:17:49.52	275.43	40.60	
2025-01-11 12:17:50.75	276.11	40.51	
2025-01-11 12:17:51.98	276.78	40.42	
2025-01-11 12:17:53.21	277.45	40.32	
2025-01-11 12:17:54.44	278.11	40.22	
2025-01-11 12:17:55.67	278.77	40.11	
2025-01-11 12:17:56.90	279.42	40.00	
2025-01-11 12:17:58.14	280.08	39.89	
2025-01-11 12:17:59.37	280.73	39.77	
2025-01-11 12:18:00.60	281.37	39.65	
2025-01-11 12:18:01.83	282.00	39.52	
2025-01-11 12:18:03.06	282.63	39.40	
2025-01-11 12:18:04.28	283.25	39.27	
2025-01-11 12:18:05.51	283.87	39.13	
2025-01-11 12:18:06.74	284.49	39.00	
2025-01-11 12:18:07.97	285.10	38.86	
2025-01-11 12:18:09.20	285.70	38.71	
2025-01-11 12:18:10.44	286.31	38.57	
2025-01-11 12:18:11.67	286.90	38.42	
2025-01-11 12:18:12.90	287.49	38.27	
2025-01-11 12:18:14.15	288.08	38.11	
2025-01-11 12:18:15.40	288.67	37.96	
2025-01-11 12:18:16.63	289.24	37.80	
2025-01-11 12:18:17.86	289.80	37.64	
2025-01-11 12:18:19.09	290.37	37.47	
2025-01-11 12:18:20.32	290.92	37.31	
2025-01-11 12:18:21.55	291.47	37.14	
2025-01-11 12:18:22.78	292.01	36.97	
2025-01-11 12:18:24.01	292.55	36.80	
2025-01-11 12:18:25.24	293.08	36.63	
2025-01-11 12:18:26.47	293.61	36.46	
2025-01-11 12:18:27.70	294.13	36.28	
2025-01-11 12:18:28.95	294.65	36.10	
2025-01-11 12:18:30.20	295.17	35.92	
2025-01-11 12:18:31.43	295.67	35.74	
2025-01-11 12:18:32.66	296.17	35.56	
2025-01-11 12:18:33.90	296.66	35.38	
2025-01-11 12:18:35.13	297.15	35.20	
2025-01-11 12:18:36.36	297.63	35.01	
2025-01-11 12:18:37.59	298.11	34.83	
2025-01-11 12:18:38.82	298.58	34.64	
2025-01-11 12:18:40.06	299.04	34.45	
2025-01-11 12:18:41.29	299.50	34.26	
2025-01-11 12:18:42.52	299.96	34.07	
2025-01-11 12:18:43.75	300.41	33.89	
2025-01-11 12:18:44.98	300.85	33.70	
2025-01-11 12:18:46.21	301.29	33.51	
2025-01-11 12:18:47.44	301.72	33.31	
2025-01-11 12:18:48.67	302.15	33.12	
2025-01-11 12:18:49.89	302.57	32.93	
2025-01-11 12:18:51.13	302.99	32.74	
2025-01-11 12:18:52.36	303.40	32.55	
2025-01-11 12:18:53.59	303.81	32.35	
2025-01-11 12:18:54.82	304.21	32.16	
2025-01-11 12:18:56.06	304.61	31.97	
2025-01-11 12:18:57.29	305.00	31.77	
2025-01-11 12:18:58.52	305.39	31.58	
2025-01-11 12:18:59.75	305.78	31.39	
2025-01-11 12:19:00.99	306.16	31.19	
2025-01-11 12:19:02.22	306.53	31.00	
2025-01-11 12:19:03.45	306.90	30.81	
2025-01-11 12:19:04.68	307.27	30.62	
2025-01-11 12:19:05.93	307.64	30.42	
2025-01-11 12:19:07.16	307.99	30.23	
2025-01-11 12:19:08.40	308.35	30.03	
2025-01-11 12:19:09.63	308.70	29.84	
2025-01-11 12:19:10.86	309.04	29.65	
2025-01-11 12:19:12.09	309.38	29.46	
2025-01-11 12:19:13.32	309.71	29.27	
2025-01-11 12:19:14.55	310.05	29.08	
2025-01-11 12:19:15.77	310.37	28.89	
2025-01-11 12:19:17.01	310.70	28.70	
2025-01-11 12:19:18.25	311.02	28.51	
2025-01-11 12:19:19.49	311.34	28.32	
2025-01-11 12:19:20.72	311.65	28.13	
2025-01-11 12:19:21.96	311.96	27.94	
2025-01-11 12:19:23.20	312.27	27.75	
2025-01-11 12:19:24.43	312.57	27.56	
2025-01-11 12:19:25.65	312.87	27.38	
2025-01-11 12:19:26.89	313.16	27.19	
2025-01-11 12:19:28.12	313.45	27.01	
2025-01-11 12:19:29.35	313.74	26.82	
2025-01-11 12:19:30.58	314.03	26.64	
2025-01-11 12:19:31.81	314.31	26.46	
2025-01-11 12:19:33.04	314.58	26.27	
2025-01-11 12:19:34.28	314.86	26.09	
2025-01-11 12:19:35.50	315.13	25.91	
2025-01-11 12:19:36.73	315.40	25.73	
2025-01-11 12:19:37.98	315.67	25.55	
2025-01-11 12:19:39.21	315.93	25.37	
2025-01-11 12:19:40.45	316.19	25.19	
2025-01-11 12:19:41.68	316.44	25.01	
2025-01-11 12:19:42.91	316.70	24.84	
2025-01-11 12:19:44.17	316.95	24.66	
2025-01-11 12:19:45.40	317.20	24.48	
2025-01-11 12:19:46.63	317.44	24.31	
2025-01-11 12:19:47.86	317.69	24.13	
2025-01-11 12:19:49.09	317.93	23.96	
2025-01-11 12:19:50.32	318.16	23.79	
2025-01-11 12:19:51.55	318.39	23.62	
2025-01-11 12:19:52.78	318.63	23.45	
2025-01-11 12:19:54.01	318.85	23.28	
2025-01-11 12:19:55.26	319.08	23.10	
2025-01-11 12:19:56.49	319.31	22.94	
2025-01-11 12:19:57.72	319.53	22.77	
2025-01-11 12:19:58.95	319.75	22.60	
2025-01-11 12:20:00.18	319.96	22.44	
2025-01-11 12:20:01.41	320.18	22.27	
2025-01-11 12:20:02.64	320.39	22.11	
2025-01-11 12:20:03.89	320.60	21.94	
2025-01-11 12:20:05.12	320.81	21.78	
2025-01-11 12:20:06.35	321.01	21.61	
2025-01-11 12:20:07.58	321.22	21.45	
2025-01-11 12:20:08.81	321.42	21.29	
2025-01-11 12:20:10.04	321.61	21.13	
2025-01-11 12:20:11.28	321.81	20.97	
2025-01-11 12:20:12.51	322.01	20.81	
2025-01-11 12:20:13.74	322.20	20.66	
2025-01-11 12:20:14.97	322.39	20.50	
2025-01-11 12:20:16.20	322.58	20.34	
2025-01-11 12:20:17.43	322.76	20.19	
2025-01-11 12:20:18.65	322.95	20.04	
2025-01-11 12:20:19.89	323.13	19.88	
2025-01-11 12:20:21.12	323.31	19.73	
2025-01-11 12:20:22.36	323.49	19.58	
2025-01-11 12:20:23.59	323.67	19.42	
2025-01-11 12:20:24.82	323.84	19.27	
2025-01-11 12:20:26.05	324.02	19.12	
2025-01-11 12:20:27.28	324.19	18.98	
2025-01-11 12:20:28.53	324.36	18.83	
2025-01-11 12:20:29.77	324.53	18.68	
2025-01-11 12:20:31.01	324.70	18.53	
2025-01-11 12:20:32.24	324.87	18.38	
2025-01-11 12:20:33.47	325.03	18.24	
2025-01-11 12:20:34.70	325.19	18.09	
2025-01-11 12:20:35.93	325.35	17.95	
2025-01-11 12:20:37.16	325.51	17.81	
2025-01-11 12:20:38.39	325.67	17.66	
2025-01-11 12:20:39.62	325.82	17.52	
2025-01-11 12:20:40.86	325.98	17.38	
2025-01-11 12:20:42.09	326.13	17.24	
2025-01-11 12:20:43.32	326.28	17.10	
2025-01-11 12:20:44.55	326.43	16.96	
2025-01-11 12:20:45.78	326.58	16.82	
2025-01-11 12:20:47.01	326.73	16.69	
2025-01-11 12:20:48.25	326.87	16.55	
2025-01-11 12:20:49.50	327.02	16.41	
2025-01-11 12:20:50.73	327.16	16.27	
2025-01-11 12:20:51.96	327.31	16.14	
2025-01-11 12:20:53.19	327.45	16.01	
2025-01-11 12:20:54.42	327.59	15.87	
2025-01-11 12:20:55.65	327.72	15.74	
2025-01-11 12:20:56.88	327.86	15.61	
2025-01-11 12:20:58.11	328.00	15.48	
2025-01-11 12:20:59.34	328.13	15.35	
2025-01-11 12:21:00.57	328.26	15.22	
2025-01-11 12:21:01.80	328.40	15.09	
2025-01-11 12:21:03.03	328.53	14.96	
2025-01-11 12:21:04.25	328.66	14.83	
2025-01-11 12:21:05.48	328.78	14.70	
2025-01-11 12:21:06.71	328.91	14.58	
2025-01-11 12:21:07.94	329.04	14.45	
2025-01-11 12:21:09.19	329.16	14.32	
2025-01-11 12:21:10.42	329.29	14.20	
2025-01-11 12:21:11.66	329.41	14.07	
2025-01-11 12:21:12.89	329.53	13.95	
2025-01-11 12:21:14.12	329.66	13.82	
2025-01-11 12:21:15.34	329.77	13.70	
2025-01-11 12:21:16.58	329.89	13.58	
2025-01-11 12:21:17.81	330.01	13.46	
2025-01-11 12:21:19.03	330.13	13.34	
2025-01-11 12:21:20.28	330.25	13.21	
2025-01-11 12:21:21.51	330.36	13.09	
2025-01-11 12:21:22.74	330.48	12.97	
2025-01-11 12:21:23.97	330.59	12.86	
2025-01-11 12:21:25.20	330.70	12.74	
2025-01-11 12:21:26.43	330.81	12.62	
2025-01-11 12:21:27.67	330.92	12.50	
2025-01-11 12:21:28.91	331.03	12.38	
2025-01-11 12:21:30.14	331.14	12.27	
2025-01-11 12:21:31.37	331.25	12.15	
2025-01-11 12:21:32.60	331.36	12.04	
2025-01-11 12:21:33.83	331.46	11.92	
2025-01-11 12:21:35.06	331.57	11.81	
2025-01-11 12:21:36.29	331.67	11.70	
2025-01-11 12:21:37.52	331.78	11.58	
2025-01-11 12:21:38.75	331.88	11.47	
2025-01-11 12:21:39.98	331.98	11.36	
2025-01-11 12:21:41.22	332.08	11.25	
2025-01-11 12:21:42.45	332.18	11.13	
2025-01-11 12:21:43.67	332.28	11.03	
2025-01-11 12:21:44.90	332.38	10.92	
2025-01-11 12:21:46.13	332.48	10.81	
2025-01-11 12:21:47.38	332.58	10.69	
2025-01-11 12:21:48.60	332.67	10.59	
2025-01-11 12:21:49.83	332.77	10.48	
2025-01-11 12:21:51.06	332.87	10.37	
2025-01-11 12:21:52.29	332.96	10.26	
2025-01-11 12:21:53.52	333.05	10.16	
2025-01-11 12:21:54.74	333.15	10.05	
2025-01-11 12:21:55.98	333.24	9.94	
2025-01-11 12:21:57.21	333.33	9.84	
2025-01-11 12:21:58.44	333.42	9.73	
2025-01-11 12:21:59.67	333.51	9.63	
2025-01-11 12:22:00.89	333.60	9.53	
2025-01-11 12:22:02.12	333.69	9.42	
2025-01-11 12:22:03.35	333.78	9.32	
2025-01-11 12:22:04.58	333.87	9.22	
2025-01-11 12:22:05.82	333.96	9.11	
2025-01-11 12:22:07.05	334.04	9.01	
2025-01-11 12:22:08.27	334.13	8.91	
2025-01-11 12:22:09.50	334.21	8.81	
2025-01-11 12:22:10.73	334.30	8.71	
2025-01-11 12:22:11.96	334.38	8.61	
2025-01-11 12:22:13.20	334.47	8.51	
2025-01-11 12:22:14.44	334.55	8.41	
2025-01-11 12:22:15.67	334.63	8.31	
2025-01-11 12:22:16.90	334.71	8.21	
2025-01-11 12:22:18.13	334.80	8.11	
2025-01-11 12:22:19.36	334.88	8.01	
2025-01-11 12:22:20.59	334.96	7.92	
2025-01-11 12:22:21.82	335.04	7.82	
2025-01-11 12:22:23.07	335.12	7.72	
2025-01-11 12:22:24.31	335.20	7.62	
2025-01-11 12:22:25.54	335.27	7.53	
2025-01-11 12:22:26.77	335.35	7.43	
2025-01-11 12:22:28.00	335.43	7.34	
2025-01-11 12:22:29.23	335.51	7.24	
2025-01-11 12:22:30.46	335.58	7.15	
2025-01-11 12:22:31.69	335.66	7.05	
2025-01-11 12:22:32.92	335.73	6.96	
2025-01-11 12:22:34.16	335.81	6.86	
2025-01-11 12:22:35.39	335.88	6.77	
2025-01-11 12:22:36.63	335.96	6.68	
2025-01-11 12:22:37.87	336.03	6.58	
2025-01-11 12:22:39.10	336.10	6.49	
2025-01-11 12:22:40.34	336.18	6.40	
2025-01-11 12:22:41.58	336.25	6.31	
2025-01-11 12:22:42.81	336.32	6.21	
2025-01-11 12:22:44.04	336.39	6.12	
2025-01-11 12:22:45.28	336.46	6.03	
2025-01-11 12:22:46.53	336.53	5.94	
2025-01-11 12:22:47.77	336.60	5.85	
2025-01-11 12:22:49.01	336.67	5.76	
2025-01-11 12:22:50.24	336.74	5.67	
2025-01-11 12:22:51.47	336.81	5.58	
2025-01-11 12:22:52.70	336.88	5.49	
2025-01-11 12:22:53.93	336.95	5.40	
2025-01-11 12:22:55.16	337.01	5.31	
2025-01-11 12:22:56.39	337.08	5.23	
2025-01-11 12:22:57.62	337.15	5.14	
2025-01-11 12:22:58.85	337.21	5.05	
2025-01-11 12:23:00.08	337.28	4.97	
2025-01-11 12:23:01.31	337.34	4.88	
2025-01-11 12:23:02.54	337.41	4.79	
2025-01-11 12:23:03.80	337.47	4.70	
2025-01-11 12:23:05.03	337.54	4.62	
2025-01-11 12:23:06.25	337.60	4.53	
2025-01-11 12:23:07.48	337.66	4.45	
2025-01-11 12:23:08.71	337.73	4.36	
2025-01-11 12:23:09.94	337.79	4.28	
2025-01-11 12:23:11.17	337.85	4.19	
2025-01-11 12:23:12.39	337.91	4.11	
2025-01-11 12:23:13.62	337.97	4.03	

#Closed at: 2025-01-11 12:23:14