passes_logs/2025/01/11/SPB_Silybum_02/SPB_Silybum_02__20250111_135250_AQUA_rec.log

#Pass ID: 20250111_135250_AQUA
#Satellite: AQUA
#Configuration: AQUA
#Start time: 2025-01-11 13:52:51

#Version: 2.0.20230423
#Station: SPB_Silybum_02
#Location: 30.233357 lon 59.946436 lat
#TLE: 1 27424U 02022A   25010.89862733  .00001944  00000+0  40909-3 0  9991
#TLE: 2 27424  98.3577 327.5256 0001581 116.2883 319.2080 14.60667727207024

#Time	Az	El	Level	Level2	SNR	BER	Gain	Gain2
2025-01-11 13:52:53.20	248.46	4.10	
2025-01-11 13:52:54.02	248.58	4.13	
2025-01-11 13:52:54.84	248.69	4.16	
2025-01-11 13:52:55.68	248.81	4.19	
2025-01-11 13:52:56.50	248.93	4.23	
2025-01-11 13:52:57.31	249.04	4.26	
2025-01-11 13:52:58.14	249.16	4.29	
2025-01-11 13:52:58.96	249.28	4.32	
2025-01-11 13:52:59.78	249.39	4.35	
2025-01-11 13:53:00.60	249.51	4.38	
2025-01-11 13:53:01.42	249.63	4.41	
2025-01-11 13:53:02.23	249.74	4.44	
2025-01-11 13:53:03.05	249.86	4.47	
2025-01-11 13:53:03.87	249.98	4.50	
2025-01-11 13:53:04.69	250.10	4.53	
2025-01-11 13:53:05.52	250.22	4.56	
2025-01-11 13:53:06.34	250.34	4.59	
2025-01-11 13:53:07.17	250.46	4.62	
2025-01-11 13:53:07.99	250.58	4.65	
2025-01-11 13:53:08.81	250.70	4.69	
2025-01-11 13:53:09.63	250.82	4.72	
2025-01-11 13:53:10.46	250.94	4.75	
2025-01-11 13:53:11.29	251.06	4.78	
2025-01-11 13:53:12.11	251.19	4.81	
2025-01-11 13:53:12.93	251.31	4.84	
2025-01-11 13:53:13.75	251.43	4.87	
2025-01-11 13:53:14.57	251.55	4.90	
2025-01-11 13:53:15.39	251.67	4.93	
2025-01-11 13:53:16.21	251.79	4.96	
2025-01-11 13:53:17.03	251.92	4.98	
2025-01-11 13:53:17.85	252.04	5.01	
2025-01-11 13:53:18.67	252.16	5.04	
2025-01-11 13:53:19.49	252.29	5.07	
2025-01-11 13:53:20.31	252.41	5.10	
2025-01-11 13:53:21.13	252.53	5.13	
2025-01-11 13:53:21.95	252.66	5.16	
2025-01-11 13:53:22.77	252.78	5.19	
2025-01-11 13:53:23.59	252.91	5.22	
2025-01-11 13:53:24.41	253.03	5.25	
2025-01-11 13:53:25.23	253.16	5.28	
2025-01-11 13:53:26.06	253.28	5.31	
2025-01-11 13:53:26.88	253.41	5.34	
2025-01-11 13:53:27.70	253.54	5.36	
2025-01-11 13:53:28.52	253.66	5.39	
2025-01-11 13:53:29.34	253.79	5.42	
2025-01-11 13:53:30.16	253.92	5.45	
2025-01-11 13:53:30.99	254.04	5.48	
2025-01-11 13:53:31.81	254.17	5.51	
2025-01-11 13:53:32.62	254.30	5.53	
2025-01-11 13:53:33.44	254.42	5.56	
2025-01-11 13:53:34.27	254.55	5.59	
2025-01-11 13:53:35.09	254.68	5.62	
2025-01-11 13:53:35.91	254.81	5.65	
2025-01-11 13:53:36.73	254.94	5.67	
2025-01-11 13:53:37.55	255.07	5.70	
2025-01-11 13:53:38.37	255.20	5.73	
2025-01-11 13:53:39.19	255.33	5.76	
2025-01-11 13:53:40.02	255.46	5.79	
2025-01-11 13:53:40.84	255.59	5.81	
2025-01-11 13:53:41.65	255.72	5.84	
2025-01-11 13:53:42.47	255.85	5.87	
2025-01-11 13:53:43.29	255.98	5.89	
2025-01-11 13:53:44.11	256.11	5.92	
2025-01-11 13:53:44.93	256.24	5.95	
2025-01-11 13:53:45.75	256.37	5.98	
2025-01-11 13:53:46.57	256.51	6.00	
2025-01-11 13:53:47.39	256.64	6.03	
2025-01-11 13:53:48.21	256.77	6.06	
2025-01-11 13:53:49.03	256.90	6.08	
2025-01-11 13:53:49.84	257.03	6.11	
2025-01-11 13:53:50.66	257.17	6.13	
2025-01-11 13:53:51.49	257.30	6.16	
2025-01-11 13:53:52.32	257.44	6.19	
2025-01-11 13:53:53.14	257.57	6.21	
2025-01-11 13:53:53.98	257.71	6.24	
2025-01-11 13:53:54.81	257.85	6.27	
2025-01-11 13:53:55.63	257.98	6.29	
2025-01-11 13:53:56.45	258.12	6.32	
2025-01-11 13:53:57.27	258.25	6.34	
2025-01-11 13:53:58.11	258.39	6.37	
2025-01-11 13:53:58.92	258.52	6.39	
2025-01-11 13:53:59.74	258.66	6.42	
2025-01-11 13:54:00.58	258.80	6.45	
2025-01-11 13:54:01.39	258.93	6.47	
2025-01-11 13:54:02.21	259.07	6.50	
2025-01-11 13:54:03.03	259.21	6.52	
2025-01-11 13:54:03.85	259.34	6.55	
2025-01-11 13:54:04.66	259.48	6.57	
2025-01-11 13:54:05.48	259.62	6.59	
2025-01-11 13:54:06.30	259.76	6.62	
2025-01-11 13:54:07.12	259.89	6.64	
2025-01-11 13:54:07.94	260.03	6.67	
2025-01-11 13:54:08.77	260.17	6.69	
2025-01-11 13:54:09.59	260.31	6.72	
2025-01-11 13:54:10.41	260.45	6.74	
2025-01-11 13:54:11.23	260.59	6.76	
2025-01-11 13:54:12.05	260.73	6.79	
2025-01-11 13:54:12.87	260.87	6.81	
2025-01-11 13:54:13.69	261.01	6.83	
2025-01-11 13:54:14.51	261.15	6.86	
2025-01-11 13:54:15.34	261.29	6.88	
2025-01-11 13:54:16.16	261.43	6.90	
2025-01-11 13:54:16.98	261.57	6.93	
2025-01-11 13:54:17.80	261.71	6.95	
2025-01-11 13:54:18.62	261.86	6.97	
2025-01-11 13:54:19.45	262.00	7.00	
2025-01-11 13:54:20.27	262.14	7.02	
2025-01-11 13:54:21.11	262.29	7.04	
2025-01-11 13:54:21.93	262.43	7.06	
2025-01-11 13:54:22.76	262.57	7.09	
2025-01-11 13:54:23.58	262.72	7.11	
2025-01-11 13:54:24.40	262.86	7.13	
2025-01-11 13:54:25.22	263.00	7.15	
2025-01-11 13:54:26.04	263.15	7.17	
2025-01-11 13:54:26.87	263.29	7.19	
2025-01-11 13:54:27.69	263.44	7.22	
2025-01-11 13:54:28.51	263.58	7.24	
2025-01-11 13:54:29.33	263.72	7.26	
2025-01-11 13:54:30.15	263.87	7.28	
2025-01-11 13:54:30.97	264.01	7.30	
2025-01-11 13:54:31.79	264.16	7.32	
2025-01-11 13:54:32.61	264.30	7.34	
2025-01-11 13:54:33.43	264.45	7.36	
2025-01-11 13:54:34.26	264.60	7.38	
2025-01-11 13:54:35.08	264.74	7.40	
2025-01-11 13:54:35.90	264.89	7.42	
2025-01-11 13:54:36.72	265.03	7.44	
2025-01-11 13:54:37.54	265.18	7.46	
2025-01-11 13:54:38.36	265.33	7.48	
2025-01-11 13:54:39.18	265.48	7.50	
2025-01-11 13:54:40.00	265.62	7.52	
2025-01-11 13:54:40.82	265.77	7.54	
2025-01-11 13:54:41.64	265.92	7.56	
2025-01-11 13:54:42.46	266.06	7.58	
2025-01-11 13:54:43.28	266.21	7.60	
2025-01-11 13:54:44.10	266.36	7.62	
2025-01-11 13:54:44.92	266.51	7.64	
2025-01-11 13:54:45.76	266.66	7.65	
2025-01-11 13:54:46.58	266.81	7.67	
2025-01-11 13:54:47.39	266.96	7.69	
2025-01-11 13:54:48.21	267.11	7.71	
2025-01-11 13:54:49.04	267.26	7.73	
2025-01-11 13:54:49.86	267.41	7.74	
2025-01-11 13:54:50.68	267.56	7.76	
2025-01-11 13:54:51.50	267.71	7.78	
2025-01-11 13:54:52.32	267.86	7.80	
2025-01-11 13:54:53.13	268.01	7.81	
2025-01-11 13:54:53.95	268.16	7.83	
2025-01-11 13:54:54.77	268.31	7.85	
2025-01-11 13:54:55.59	268.46	7.86	
2025-01-11 13:54:56.41	268.61	7.88	
2025-01-11 13:54:57.23	268.76	7.90	
2025-01-11 13:54:58.06	268.91	7.91	
2025-01-11 13:54:58.88	269.06	7.93	
2025-01-11 13:54:59.70	269.22	7.95	
2025-01-11 13:55:00.52	269.37	7.96	
2025-01-11 13:55:01.34	269.52	7.98	
2025-01-11 13:55:02.17	269.67	7.99	
2025-01-11 13:55:02.99	269.83	8.01	
2025-01-11 13:55:03.81	269.98	8.02	
2025-01-11 13:55:04.65	270.13	8.04	
2025-01-11 13:55:05.47	270.29	8.05	
2025-01-11 13:55:06.28	270.44	8.07	
2025-01-11 13:55:07.11	270.59	8.08	
2025-01-11 13:55:07.92	270.75	8.10	
2025-01-11 13:55:08.74	270.90	8.11	
2025-01-11 13:55:09.56	271.05	8.13	
2025-01-11 13:55:10.38	271.21	8.14	
2025-01-11 13:55:11.20	271.36	8.15	
2025-01-11 13:55:12.02	271.51	8.17	
2025-01-11 13:55:12.84	271.67	8.18	
2025-01-11 13:55:13.67	271.82	8.19	
2025-01-11 13:55:14.49	271.98	8.21	
2025-01-11 13:55:15.31	272.13	8.22	
2025-01-11 13:55:16.13	272.29	8.23	
2025-01-11 13:55:16.94	272.44	8.25	
2025-01-11 13:55:17.77	272.60	8.26	
2025-01-11 13:55:18.58	272.75	8.27	
2025-01-11 13:55:19.40	272.91	8.28	
2025-01-11 13:55:20.22	273.06	8.29	
2025-01-11 13:55:21.04	273.22	8.31	
2025-01-11 13:55:21.88	273.38	8.32	
2025-01-11 13:55:22.70	273.53	8.33	
2025-01-11 13:55:23.53	273.69	8.34	
2025-01-11 13:55:24.35	273.85	8.35	
2025-01-11 13:55:25.17	274.00	8.36	
2025-01-11 13:55:25.99	274.16	8.37	
2025-01-11 13:55:26.82	274.32	8.38	
2025-01-11 13:55:27.64	274.48	8.39	
2025-01-11 13:55:28.46	274.63	8.41	
2025-01-11 13:55:29.29	274.79	8.42	
2025-01-11 13:55:30.11	274.95	8.43	
2025-01-11 13:55:30.92	275.10	8.43	
2025-01-11 13:55:31.75	275.26	8.44	
2025-01-11 13:55:32.57	275.42	8.45	
2025-01-11 13:55:33.39	275.58	8.46	
2025-01-11 13:55:34.21	275.74	8.47	
2025-01-11 13:55:35.03	275.89	8.48	
2025-01-11 13:55:35.85	276.05	8.49	
2025-01-11 13:55:36.68	276.21	8.50	
2025-01-11 13:55:37.50	276.37	8.51	
2025-01-11 13:55:38.32	276.53	8.52	
2025-01-11 13:55:39.14	276.68	8.52	
2025-01-11 13:55:39.96	276.84	8.53	
2025-01-11 13:55:40.78	277.00	8.54	
2025-01-11 13:55:41.60	277.16	8.55	
2025-01-11 13:55:42.42	277.32	8.55	
2025-01-11 13:55:43.24	277.48	8.56	
2025-01-11 13:55:44.07	277.64	8.57	
2025-01-11 13:55:44.89	277.79	8.57	
2025-01-11 13:55:45.71	277.95	8.58	
2025-01-11 13:55:46.53	278.11	8.59	
2025-01-11 13:55:47.35	278.27	8.59	
2025-01-11 13:55:48.17	278.43	8.60	
2025-01-11 13:55:48.99	278.59	8.61	
2025-01-11 13:55:49.81	278.75	8.61	
2025-01-11 13:55:50.64	278.91	8.62	
2025-01-11 13:55:51.46	279.07	8.62	
2025-01-11 13:55:52.28	279.23	8.63	
2025-01-11 13:55:53.11	279.39	8.63	
2025-01-11 13:55:53.93	279.55	8.64	
2025-01-11 13:55:54.75	279.71	8.64	
2025-01-11 13:55:55.57	279.87	8.65	
2025-01-11 13:55:56.39	280.03	8.65	
2025-01-11 13:55:57.22	280.19	8.65	
2025-01-11 13:55:58.04	280.35	8.66	
2025-01-11 13:55:58.86	280.51	8.66	
2025-01-11 13:55:59.68	280.67	8.67	
2025-01-11 13:56:00.50	280.83	8.67	
2025-01-11 13:56:01.32	280.99	8.67	
2025-01-11 13:56:02.14	281.15	8.68	
2025-01-11 13:56:02.97	281.31	8.68	
2025-01-11 13:56:03.79	281.47	8.68	
2025-01-11 13:56:04.61	281.63	8.68	
2025-01-11 13:56:05.43	281.79	8.69	
2025-01-11 13:56:06.25	281.95	8.69	
2025-01-11 13:56:07.06	282.10	8.69	
2025-01-11 13:56:07.89	282.27	8.69	
2025-01-11 13:56:08.71	282.43	8.69	
2025-01-11 13:56:09.53	282.59	8.69	
2025-01-11 13:56:10.35	282.75	8.70	
2025-01-11 13:56:11.17	282.91	8.70	
2025-01-11 13:56:11.98	283.06	8.70	
2025-01-11 13:56:12.80	283.22	8.70	
2025-01-11 13:56:13.63	283.39	8.70	
2025-01-11 13:56:14.45	283.55	8.70	
2025-01-11 13:56:15.26	283.70	8.70	
2025-01-11 13:56:16.09	283.87	8.70	
2025-01-11 13:56:16.92	284.03	8.70	
2025-01-11 13:56:17.74	284.19	8.70	
2025-01-11 13:56:18.56	284.35	8.70	
2025-01-11 13:56:19.38	284.51	8.70	
2025-01-11 13:56:20.20	284.67	8.69	
2025-01-11 13:56:21.02	284.83	8.69	
2025-01-11 13:56:21.84	284.99	8.69	
2025-01-11 13:56:22.66	285.15	8.69	
2025-01-11 13:56:23.48	285.31	8.69	
2025-01-11 13:56:24.30	285.47	8.69	
2025-01-11 13:56:25.12	285.63	8.68	
2025-01-11 13:56:25.94	285.79	8.68	
2025-01-11 13:56:26.76	285.95	8.68	
2025-01-11 13:56:27.59	286.11	8.68	
2025-01-11 13:56:28.40	286.27	8.67	
2025-01-11 13:56:29.23	286.43	8.67	
2025-01-11 13:56:30.05	286.59	8.67	
2025-01-11 13:56:30.88	286.75	8.66	
2025-01-11 13:56:31.70	286.91	8.66	
2025-01-11 13:56:32.52	287.07	8.66	
2025-01-11 13:56:33.34	287.23	8.65	
2025-01-11 13:56:34.16	287.39	8.65	
2025-01-11 13:56:34.98	287.55	8.64	
2025-01-11 13:56:35.81	287.71	8.64	
2025-01-11 13:56:36.62	287.86	8.63	
2025-01-11 13:56:37.46	288.03	8.63	
2025-01-11 13:56:38.29	288.19	8.62	
2025-01-11 13:56:39.11	288.35	8.62	
2025-01-11 13:56:39.93	288.51	8.61	
2025-01-11 13:56:40.75	288.67	8.61	
2025-01-11 13:56:41.57	288.82	8.60	
2025-01-11 13:56:42.39	288.98	8.60	
2025-01-11 13:56:43.21	289.14	8.59	
2025-01-11 13:56:44.03	289.30	8.58	
2025-01-11 13:56:44.85	289.46	8.58	
2025-01-11 13:56:45.67	289.62	8.57	
2025-01-11 13:56:46.48	289.77	8.56	
2025-01-11 13:56:47.30	289.93	8.56	
2025-01-11 13:56:48.12	290.09	8.55	
2025-01-11 13:56:48.94	290.25	8.54	
2025-01-11 13:56:49.76	290.41	8.54	
2025-01-11 13:56:50.59	290.57	8.53	
2025-01-11 13:56:51.41	290.72	8.52	
2025-01-11 13:56:52.23	290.88	8.51	
2025-01-11 13:56:53.05	291.04	8.50	
2025-01-11 13:56:53.87	291.20	8.49	
2025-01-11 13:56:54.69	291.35	8.49	
2025-01-11 13:56:55.51	291.51	8.48	
2025-01-11 13:56:56.32	291.67	8.47	
2025-01-11 13:56:57.14	291.82	8.46	
2025-01-11 13:56:57.96	291.98	8.45	
2025-01-11 13:56:58.78	292.14	8.44	
2025-01-11 13:56:59.62	292.30	8.43	
2025-01-11 13:57:00.44	292.46	8.42	
2025-01-11 13:57:01.26	292.61	8.41	
2025-01-11 13:57:02.08	292.77	8.40	
2025-01-11 13:57:02.90	292.93	8.39	
2025-01-11 13:57:03.71	293.08	8.38	
2025-01-11 13:57:04.54	293.24	8.37	
2025-01-11 13:57:05.36	293.39	8.36	
2025-01-11 13:57:06.19	293.55	8.35	
2025-01-11 13:57:07.01	293.71	8.34	
2025-01-11 13:57:07.83	293.86	8.32	
2025-01-11 13:57:08.65	294.02	8.31	
2025-01-11 13:57:09.48	294.18	8.30	
2025-01-11 13:57:10.29	294.33	8.29	
2025-01-11 13:57:11.11	294.48	8.28	
2025-01-11 13:57:11.94	294.64	8.27	
2025-01-11 13:57:12.76	294.80	8.25	
2025-01-11 13:57:13.58	294.95	8.24	
2025-01-11 13:57:14.41	295.11	8.23	
2025-01-11 13:57:15.23	295.26	8.21	
2025-01-11 13:57:16.08	295.42	8.20	
2025-01-11 13:57:16.90	295.57	8.19	
2025-01-11 13:57:17.72	295.73	8.17	
2025-01-11 13:57:18.54	295.88	8.16	
2025-01-11 13:57:19.36	296.04	8.15	
2025-01-11 13:57:20.18	296.19	8.13	
2025-01-11 13:57:21.00	296.34	8.12	
2025-01-11 13:57:21.82	296.50	8.11	
2025-01-11 13:57:22.65	296.65	8.09	
2025-01-11 13:57:23.47	296.80	8.08	
2025-01-11 13:57:24.29	296.96	8.06	
2025-01-11 13:57:25.11	297.11	8.05	
2025-01-11 13:57:25.93	297.26	8.03	
2025-01-11 13:57:26.75	297.41	8.02	
2025-01-11 13:57:27.57	297.56	8.00	
2025-01-11 13:57:28.39	297.72	7.99	
2025-01-11 13:57:29.21	297.87	7.97	
2025-01-11 13:57:30.03	298.02	7.96	
2025-01-11 13:57:30.85	298.17	7.94	
2025-01-11 13:57:31.67	298.32	7.92	
2025-01-11 13:57:32.49	298.47	7.91	
2025-01-11 13:57:33.31	298.62	7.89	
2025-01-11 13:57:34.13	298.77	7.88	
2025-01-11 13:57:34.95	298.92	7.86	
2025-01-11 13:57:35.77	299.08	7.84	
2025-01-11 13:57:36.59	299.23	7.83	
2025-01-11 13:57:37.41	299.38	7.81	
2025-01-11 13:57:38.25	299.53	7.79	
2025-01-11 13:57:39.06	299.68	7.77	
2025-01-11 13:57:39.88	299.83	7.76	
2025-01-11 13:57:40.70	299.97	7.74	
2025-01-11 13:57:41.52	300.12	7.72	
2025-01-11 13:57:42.36	300.28	7.70	
2025-01-11 13:57:43.19	300.43	7.68	
2025-01-11 13:57:44.01	300.57	7.67	
2025-01-11 13:57:44.83	300.72	7.65	
2025-01-11 13:57:45.65	300.87	7.63	
2025-01-11 13:57:46.47	301.02	7.61	
2025-01-11 13:57:47.29	301.17	7.59	
2025-01-11 13:57:48.11	301.31	7.57	
2025-01-11 13:57:48.92	301.46	7.55	
2025-01-11 13:57:49.75	301.61	7.54	
2025-01-11 13:57:50.57	301.75	7.52	
2025-01-11 13:57:51.39	301.90	7.50	
2025-01-11 13:57:52.20	302.04	7.48	
2025-01-11 13:57:53.04	302.19	7.46	
2025-01-11 13:57:53.86	302.34	7.44	
2025-01-11 13:57:54.68	302.49	7.42	
2025-01-11 13:57:55.50	302.63	7.40	
2025-01-11 13:57:56.32	302.78	7.38	
2025-01-11 13:57:57.14	302.92	7.36	
2025-01-11 13:57:57.95	303.06	7.34	
2025-01-11 13:57:58.77	303.21	7.32	
2025-01-11 13:57:59.59	303.35	7.30	
2025-01-11 13:58:00.41	303.50	7.28	
2025-01-11 13:58:01.23	303.64	7.25	
2025-01-11 13:58:02.05	303.78	7.23	
2025-01-11 13:58:02.87	303.93	7.21	
2025-01-11 13:58:03.69	304.07	7.19	
2025-01-11 13:58:04.51	304.21	7.17	
2025-01-11 13:58:05.33	304.36	7.15	
2025-01-11 13:58:06.15	304.50	7.13	
2025-01-11 13:58:06.97	304.64	7.10	
2025-01-11 13:58:07.79	304.78	7.08	
2025-01-11 13:58:08.61	304.93	7.06	
2025-01-11 13:58:09.43	305.07	7.04	
2025-01-11 13:58:10.25	305.21	7.02	
2025-01-11 13:58:11.07	305.35	6.99	
2025-01-11 13:58:11.89	305.49	6.97	
2025-01-11 13:58:12.71	305.63	6.95	
2025-01-11 13:58:13.53	305.77	6.93	
2025-01-11 13:58:14.35	305.91	6.90	
2025-01-11 13:58:15.17	306.05	6.88	
2025-01-11 13:58:16.00	306.19	6.86	
2025-01-11 13:58:16.82	306.33	6.83	
2025-01-11 13:58:17.64	306.47	6.81	
2025-01-11 13:58:18.46	306.61	6.79	
2025-01-11 13:58:19.28	306.75	6.76	
2025-01-11 13:58:20.10	306.89	6.74	
2025-01-11 13:58:20.93	307.03	6.72	
2025-01-11 13:58:21.75	307.17	6.69	
2025-01-11 13:58:22.57	307.31	6.67	
2025-01-11 13:58:23.41	307.45	6.64	
2025-01-11 13:58:24.23	307.58	6.62	
2025-01-11 13:58:25.05	307.72	6.59	
2025-01-11 13:58:25.87	307.86	6.57	
2025-01-11 13:58:26.69	308.00	6.55	
2025-01-11 13:58:27.51	308.13	6.52	
2025-01-11 13:58:28.33	308.27	6.50	
2025-01-11 13:58:29.15	308.40	6.47	
2025-01-11 13:58:29.97	308.54	6.45	
2025-01-11 13:58:30.80	308.68	6.42	
2025-01-11 13:58:31.62	308.81	6.40	
2025-01-11 13:58:32.44	308.95	6.37	
2025-01-11 13:58:33.26	309.08	6.35	
2025-01-11 13:58:34.08	309.22	6.32	
2025-01-11 13:58:34.90	309.35	6.29	
2025-01-11 13:58:35.72	309.48	6.27	
2025-01-11 13:58:36.54	309.62	6.24	
2025-01-11 13:58:37.36	309.75	6.22	
2025-01-11 13:58:38.18	309.88	6.19	
2025-01-11 13:58:39.01	310.02	6.17	
2025-01-11 13:58:39.85	310.16	6.14	
2025-01-11 13:58:40.67	310.29	6.11	
2025-01-11 13:58:41.51	310.42	6.09	
2025-01-11 13:58:42.33	310.55	6.06	
2025-01-11 13:58:43.15	310.69	6.03	
2025-01-11 13:58:43.97	310.82	6.01	
2025-01-11 13:58:44.79	310.95	5.98	
2025-01-11 13:58:45.61	311.08	5.95	
2025-01-11 13:58:46.43	311.21	5.93	
2025-01-11 13:58:47.25	311.34	5.90	
2025-01-11 13:58:48.08	311.47	5.87	
2025-01-11 13:58:48.90	311.60	5.84	
2025-01-11 13:58:49.72	311.73	5.82	
2025-01-11 13:58:50.54	311.86	5.79	
2025-01-11 13:58:51.36	311.99	5.76	
2025-01-11 13:58:52.19	312.12	5.74	
2025-01-11 13:58:53.02	312.25	5.71	
2025-01-11 13:58:53.83	312.38	5.68	
2025-01-11 13:58:54.65	312.51	5.65	
2025-01-11 13:58:55.47	312.63	5.63	
2025-01-11 13:58:56.29	312.76	5.60	
2025-01-11 13:58:57.12	312.89	5.57	
2025-01-11 13:58:57.93	313.02	5.54	
2025-01-11 13:58:58.75	313.14	5.51	
2025-01-11 13:58:59.57	313.27	5.49	
2025-01-11 13:59:00.39	313.40	5.46	
2025-01-11 13:59:01.21	313.52	5.43	
2025-01-11 13:59:02.04	313.65	5.40	
2025-01-11 13:59:02.86	313.77	5.37	
2025-01-11 13:59:03.67	313.90	5.34	
2025-01-11 13:59:04.49	314.02	5.32	
2025-01-11 13:59:05.31	314.15	5.29	
2025-01-11 13:59:06.13	314.27	5.26	
2025-01-11 13:59:06.95	314.40	5.23	
2025-01-11 13:59:07.77	314.52	5.20	
2025-01-11 13:59:08.59	314.64	5.17	
2025-01-11 13:59:09.42	314.77	5.14	
2025-01-11 13:59:10.23	314.89	5.11	
2025-01-11 13:59:11.05	315.01	5.08	
2025-01-11 13:59:11.87	315.14	5.06	
2025-01-11 13:59:12.69	315.26	5.03	
2025-01-11 13:59:13.51	315.38	5.00	
2025-01-11 13:59:14.33	315.50	4.97	
2025-01-11 13:59:15.15	315.63	4.94	
2025-01-11 13:59:15.97	315.75	4.91	
2025-01-11 13:59:16.79	315.87	4.88	
2025-01-11 13:59:17.61	315.99	4.85	
2025-01-11 13:59:18.43	316.11	4.82	
2025-01-11 13:59:19.25	316.23	4.79	
2025-01-11 13:59:20.07	316.35	4.76	
2025-01-11 13:59:20.89	316.47	4.73	
2025-01-11 13:59:21.71	316.59	4.70	
2025-01-11 13:59:22.53	316.71	4.67	
2025-01-11 13:59:23.36	316.83	4.64	
2025-01-11 13:59:24.18	316.95	4.61	
2025-01-11 13:59:25.00	317.07	4.58	
2025-01-11 13:59:25.82	317.18	4.55	
2025-01-11 13:59:26.65	317.30	4.52	
2025-01-11 13:59:27.47	317.42	4.49	
2025-01-11 13:59:28.29	317.54	4.46	
2025-01-11 13:59:29.10	317.65	4.43	
2025-01-11 13:59:29.92	317.77	4.40	
2025-01-11 13:59:30.74	317.89	4.37	
2025-01-11 13:59:31.56	318.01	4.34	
2025-01-11 13:59:32.38	318.12	4.31	
2025-01-11 13:59:33.20	318.24	4.28	
2025-01-11 13:59:34.02	318.35	4.25	
2025-01-11 13:59:34.84	318.47	4.21	
2025-01-11 13:59:35.66	318.58	4.18	
2025-01-11 13:59:36.49	318.70	4.15	
2025-01-11 13:59:37.31	318.81	4.12	
2025-01-11 13:59:38.14	318.93	4.09	
2025-01-11 13:59:38.96	319.04	4.06	
2025-01-11 13:59:39.78	319.16	4.03	
2025-01-11 13:59:40.60	319.27	4.00	

#Closed at: 2025-01-11 13:59:40