passes_logs/2025/01/11/SPB_Silybum_02/SPB_Silybum_02__20250111_030841_SUOMI_NPP_rec.log

#Pass ID: 20250111_030841_SUOMI NPP
#Satellite: SUOMI NPP
#Configuration: NPP
#Start time: 2025-01-11 03:08:40

#Version: 2.0.20230423
#Station: SPB_Silybum_02
#Location: 30.233357 lon 59.946436 lat
#TLE: 1 37849U 11061A   25009.91542277  .00000197  00000+0  11407-3 0  9995
#TLE: 2 37849  98.7440 310.9686 0001842  48.7836 311.3498 14.19535939684207

#Time	Az	El	Level	Level2	SNR	BER	Gain	Gain2
2025-01-11 03:08:43.01	14.18	4.09	
2025-01-11 03:08:44.04	14.07	4.14	
2025-01-11 03:08:45.08	13.97	4.19	
2025-01-11 03:08:46.12	13.86	4.25	
2025-01-11 03:08:47.14	13.76	4.30	
2025-01-11 03:08:48.17	13.66	4.35	
2025-01-11 03:08:49.19	13.55	4.40	
2025-01-11 03:08:50.22	13.44	4.45	
2025-01-11 03:08:51.24	13.34	4.50	
2025-01-11 03:08:52.26	13.23	4.55	
2025-01-11 03:08:53.28	13.13	4.60	
2025-01-11 03:08:54.31	13.02	4.66	
2025-01-11 03:08:55.33	12.91	4.71	
2025-01-11 03:08:56.36	12.81	4.76	
2025-01-11 03:08:57.38	12.70	4.81	
2025-01-11 03:08:58.40	12.59	4.86	
2025-01-11 03:08:59.43	12.48	4.91	
2025-01-11 03:09:00.45	12.37	4.96	
2025-01-11 03:09:01.47	12.26	5.02	
2025-01-11 03:09:02.50	12.15	5.07	
2025-01-11 03:09:03.52	12.04	5.12	
2025-01-11 03:09:04.55	11.93	5.17	
2025-01-11 03:09:05.57	11.82	5.22	
2025-01-11 03:09:06.59	11.71	5.27	
2025-01-11 03:09:07.61	11.60	5.32	
2025-01-11 03:09:08.64	11.49	5.37	
2025-01-11 03:09:09.66	11.38	5.43	
2025-01-11 03:09:10.69	11.26	5.48	
2025-01-11 03:09:11.71	11.15	5.53	
2025-01-11 03:09:12.74	11.03	5.58	
2025-01-11 03:09:13.77	10.92	5.63	
2025-01-11 03:09:14.79	10.80	5.68	
2025-01-11 03:09:15.82	10.69	5.73	
2025-01-11 03:09:16.84	10.57	5.79	
2025-01-11 03:09:17.87	10.46	5.84	
2025-01-11 03:09:18.89	10.34	5.89	
2025-01-11 03:09:19.92	10.22	5.94	
2025-01-11 03:09:20.94	10.11	5.99	
2025-01-11 03:09:21.97	9.99	6.04	
2025-01-11 03:09:22.99	9.87	6.09	
2025-01-11 03:09:24.02	9.75	6.15	
2025-01-11 03:09:25.04	9.63	6.20	
2025-01-11 03:09:26.07	9.51	6.25	
2025-01-11 03:09:27.09	9.39	6.30	
2025-01-11 03:09:28.12	9.27	6.35	
2025-01-11 03:09:29.14	9.15	6.40	
2025-01-11 03:09:30.18	9.03	6.45	
2025-01-11 03:09:31.22	8.91	6.50	
2025-01-11 03:09:32.24	8.78	6.56	
2025-01-11 03:09:33.28	8.66	6.61	
2025-01-11 03:09:34.30	8.54	6.66	
2025-01-11 03:09:35.33	8.41	6.71	
2025-01-11 03:09:36.35	8.29	6.76	
2025-01-11 03:09:37.38	8.17	6.81	
2025-01-11 03:09:38.40	8.04	6.86	
2025-01-11 03:09:39.43	7.92	6.91	
2025-01-11 03:09:40.45	7.79	6.96	
2025-01-11 03:09:41.49	7.66	7.02	
2025-01-11 03:09:42.52	7.54	7.07	
2025-01-11 03:09:43.55	7.41	7.12	
2025-01-11 03:09:44.58	7.28	7.17	
2025-01-11 03:09:45.60	7.15	7.22	
2025-01-11 03:09:46.63	7.02	7.27	
2025-01-11 03:09:47.66	6.89	7.32	
2025-01-11 03:09:48.68	6.76	7.37	
2025-01-11 03:09:49.71	6.63	7.42	
2025-01-11 03:09:50.74	6.50	7.47	
2025-01-11 03:09:51.78	6.37	7.52	
2025-01-11 03:09:52.80	6.24	7.57	
2025-01-11 03:09:53.83	6.11	7.63	
2025-01-11 03:09:54.85	5.98	7.68	
2025-01-11 03:09:55.88	5.84	7.73	
2025-01-11 03:09:56.90	5.71	7.78	
2025-01-11 03:09:57.93	5.58	7.83	
2025-01-11 03:09:58.97	5.44	7.88	
2025-01-11 03:10:00.00	5.31	7.93	
2025-01-11 03:10:01.04	5.17	7.98	
2025-01-11 03:10:02.06	5.03	8.03	
2025-01-11 03:10:03.09	4.90	8.08	
2025-01-11 03:10:04.13	4.76	8.13	
2025-01-11 03:10:05.15	4.62	8.18	
2025-01-11 03:10:06.18	4.48	8.23	
2025-01-11 03:10:07.22	4.34	8.28	
2025-01-11 03:10:08.24	4.21	8.33	
2025-01-11 03:10:09.26	4.07	8.38	
2025-01-11 03:10:10.29	3.93	8.43	
2025-01-11 03:10:11.31	3.79	8.48	
2025-01-11 03:10:12.34	3.65	8.53	
2025-01-11 03:10:13.37	3.51	8.58	
2025-01-11 03:10:14.39	3.37	8.63	
2025-01-11 03:10:15.42	3.22	8.67	
2025-01-11 03:10:16.45	3.08	8.72	
2025-01-11 03:10:17.47	2.94	8.77	
2025-01-11 03:10:18.49	2.80	8.82	
2025-01-11 03:10:19.53	2.65	8.87	
2025-01-11 03:10:20.55	2.51	8.92	
2025-01-11 03:10:21.57	2.36	8.97	
2025-01-11 03:10:22.60	2.22	9.02	
2025-01-11 03:10:23.63	2.07	9.07	
2025-01-11 03:10:24.65	1.92	9.11	
2025-01-11 03:10:25.68	1.78	9.16	
2025-01-11 03:10:26.70	1.63	9.21	
2025-01-11 03:10:27.73	1.48	9.26	
2025-01-11 03:10:28.77	1.33	9.31	
2025-01-11 03:10:29.79	1.18	9.36	
2025-01-11 03:10:30.82	1.03	9.40	
2025-01-11 03:10:31.85	0.88	9.45	
2025-01-11 03:10:32.88	0.73	9.50	
2025-01-11 03:10:33.91	0.58	9.55	
2025-01-11 03:10:34.94	0.43	9.60	
2025-01-11 03:10:35.96	0.28	9.64	
2025-01-11 03:10:36.99	0.12	9.69	
2025-01-11 03:10:38.01	359.97	9.74	
2025-01-11 03:10:39.04	359.82	9.79	
2025-01-11 03:10:40.07	359.66	9.83	
2025-01-11 03:10:41.09	359.51	9.88	
2025-01-11 03:10:42.11	359.36	9.93	
2025-01-11 03:10:43.14	359.20	9.97	
2025-01-11 03:10:44.17	359.04	10.02	
2025-01-11 03:10:45.19	358.89	10.07	
2025-01-11 03:10:46.21	358.73	10.11	
2025-01-11 03:10:47.24	358.57	10.16	
2025-01-11 03:10:48.28	358.41	10.21	
2025-01-11 03:10:49.32	358.25	10.25	
2025-01-11 03:10:50.34	358.09	10.30	
2025-01-11 03:10:51.37	357.93	10.34	
2025-01-11 03:10:52.39	357.78	10.39	
2025-01-11 03:10:53.42	357.61	10.43	
2025-01-11 03:10:54.46	357.45	10.48	
2025-01-11 03:10:55.50	357.29	10.53	
2025-01-11 03:10:56.52	357.13	10.57	
2025-01-11 03:10:57.54	356.96	10.62	
2025-01-11 03:10:58.57	356.80	10.66	
2025-01-11 03:10:59.60	356.64	10.71	
2025-01-11 03:11:00.62	356.47	10.75	
2025-01-11 03:11:01.65	356.31	10.79	
2025-01-11 03:11:02.68	356.14	10.84	
2025-01-11 03:11:03.72	355.97	10.88	
2025-01-11 03:11:04.74	355.81	10.93	
2025-01-11 03:11:05.77	355.64	10.97	
2025-01-11 03:11:06.79	355.48	11.01	
2025-01-11 03:11:07.81	355.31	11.06	
2025-01-11 03:11:08.84	355.14	11.10	
2025-01-11 03:11:09.86	354.97	11.14	
2025-01-11 03:11:10.89	354.80	11.19	
2025-01-11 03:11:11.92	354.63	11.23	
2025-01-11 03:11:12.94	354.46	11.27	
2025-01-11 03:11:13.97	354.29	11.31	
2025-01-11 03:11:14.99	354.12	11.36	
2025-01-11 03:11:16.03	353.95	11.40	
2025-01-11 03:11:17.05	353.78	11.44	
2025-01-11 03:11:18.08	353.60	11.48	
2025-01-11 03:11:19.11	353.43	11.52	
2025-01-11 03:11:20.13	353.26	11.57	
2025-01-11 03:11:21.15	353.08	11.61	
2025-01-11 03:11:22.18	352.91	11.65	
2025-01-11 03:11:23.20	352.73	11.69	
2025-01-11 03:11:24.23	352.56	11.73	
2025-01-11 03:11:25.25	352.38	11.77	
2025-01-11 03:11:26.29	352.20	11.81	
2025-01-11 03:11:27.31	352.03	11.85	
2025-01-11 03:11:28.34	351.85	11.89	
2025-01-11 03:11:29.36	351.67	11.93	
2025-01-11 03:11:30.39	351.49	11.97	
2025-01-11 03:11:31.41	351.31	12.01	
2025-01-11 03:11:32.43	351.13	12.04	
2025-01-11 03:11:33.46	350.95	12.08	
2025-01-11 03:11:34.48	350.77	12.12	
2025-01-11 03:11:35.51	350.59	12.16	
2025-01-11 03:11:36.53	350.41	12.20	
2025-01-11 03:11:37.55	350.23	12.24	
2025-01-11 03:11:38.59	350.05	12.27	
2025-01-11 03:11:39.62	349.86	12.31	
2025-01-11 03:11:40.64	349.68	12.35	
2025-01-11 03:11:41.66	349.50	12.38	
2025-01-11 03:11:42.69	349.31	12.42	
2025-01-11 03:11:43.71	349.13	12.46	
2025-01-11 03:11:44.74	348.94	12.49	
2025-01-11 03:11:45.76	348.76	12.53	
2025-01-11 03:11:46.79	348.57	12.57	
2025-01-11 03:11:47.81	348.38	12.60	
2025-01-11 03:11:48.83	348.20	12.64	
2025-01-11 03:11:49.86	348.01	12.67	
2025-01-11 03:11:50.88	347.82	12.71	
2025-01-11 03:11:51.90	347.64	12.74	
2025-01-11 03:11:52.93	347.45	12.77	
2025-01-11 03:11:53.95	347.26	12.81	
2025-01-11 03:11:54.98	347.07	12.84	
2025-01-11 03:11:56.00	346.88	12.87	
2025-01-11 03:11:57.03	346.69	12.91	
2025-01-11 03:11:58.08	346.49	12.94	
2025-01-11 03:11:59.10	346.30	12.97	
2025-01-11 03:12:00.14	346.11	13.01	
2025-01-11 03:12:01.18	345.91	13.04	
2025-01-11 03:12:02.21	345.72	13.07	
2025-01-11 03:12:03.23	345.52	13.10	
2025-01-11 03:12:04.26	345.33	13.13	
2025-01-11 03:12:05.28	345.14	13.16	
2025-01-11 03:12:06.30	344.94	13.19	
2025-01-11 03:12:07.33	344.75	13.23	
2025-01-11 03:12:08.36	344.55	13.26	
2025-01-11 03:12:09.40	344.35	13.29	
2025-01-11 03:12:10.42	344.16	13.31	
2025-01-11 03:12:11.45	343.96	13.34	
2025-01-11 03:12:12.47	343.76	13.37	
2025-01-11 03:12:13.49	343.57	13.40	
2025-01-11 03:12:14.52	343.37	13.43	
2025-01-11 03:12:15.55	343.17	13.46	
2025-01-11 03:12:16.58	342.97	13.49	
2025-01-11 03:12:17.61	342.77	13.51	
2025-01-11 03:12:18.63	342.57	13.54	
2025-01-11 03:12:19.66	342.37	13.57	
2025-01-11 03:12:20.68	342.18	13.59	
2025-01-11 03:12:21.71	341.97	13.62	
2025-01-11 03:12:22.73	341.77	13.64	
2025-01-11 03:12:23.76	341.57	13.67	
2025-01-11 03:12:24.78	341.37	13.69	
2025-01-11 03:12:25.81	341.17	13.72	
2025-01-11 03:12:26.84	340.97	13.74	
2025-01-11 03:12:27.86	340.77	13.77	
2025-01-11 03:12:28.89	340.56	13.79	
2025-01-11 03:12:29.91	340.36	13.81	
2025-01-11 03:12:30.93	340.16	13.84	
2025-01-11 03:12:31.96	339.95	13.86	
2025-01-11 03:12:33.00	339.75	13.88	
2025-01-11 03:12:34.04	339.54	13.91	
2025-01-11 03:12:35.06	339.34	13.93	
2025-01-11 03:12:36.10	339.13	13.95	
2025-01-11 03:12:37.12	338.92	13.97	
2025-01-11 03:12:38.14	338.72	13.99	
2025-01-11 03:12:39.18	338.51	14.01	
2025-01-11 03:12:40.20	338.31	14.03	
2025-01-11 03:12:41.23	338.10	14.05	
2025-01-11 03:12:42.25	337.89	14.07	
2025-01-11 03:12:43.28	337.69	14.09	
2025-01-11 03:12:44.30	337.48	14.11	
2025-01-11 03:12:45.34	337.27	14.13	
2025-01-11 03:12:46.37	337.06	14.14	
2025-01-11 03:12:47.40	336.85	14.16	
2025-01-11 03:12:48.42	336.64	14.18	
2025-01-11 03:12:49.44	336.44	14.19	
2025-01-11 03:12:50.48	336.23	14.21	
2025-01-11 03:12:51.50	336.02	14.23	
2025-01-11 03:12:52.53	335.81	14.24	
2025-01-11 03:12:53.56	335.60	14.26	
2025-01-11 03:12:54.60	335.39	14.27	
2025-01-11 03:12:55.62	335.18	14.29	
2025-01-11 03:12:56.65	334.97	14.30	
2025-01-11 03:12:57.67	334.76	14.32	
2025-01-11 03:12:58.69	334.55	14.33	
2025-01-11 03:12:59.72	334.34	14.34	
2025-01-11 03:13:00.74	334.13	14.35	
2025-01-11 03:13:01.77	333.91	14.37	
2025-01-11 03:13:02.79	333.70	14.38	
2025-01-11 03:13:03.81	333.49	14.39	
2025-01-11 03:13:04.84	333.28	14.40	
2025-01-11 03:13:05.86	333.07	14.41	
2025-01-11 03:13:06.89	332.86	14.42	
2025-01-11 03:13:07.91	332.65	14.43	
2025-01-11 03:13:08.93	332.44	14.44	
2025-01-11 03:13:09.96	332.22	14.45	
2025-01-11 03:13:10.99	332.01	14.46	
2025-01-11 03:13:12.01	331.80	14.47	
2025-01-11 03:13:13.05	331.58	14.48	
2025-01-11 03:13:14.09	331.37	14.48	
2025-01-11 03:13:15.11	331.16	14.49	
2025-01-11 03:13:16.14	330.94	14.50	
2025-01-11 03:13:17.18	330.73	14.50	
2025-01-11 03:13:18.20	330.52	14.51	
2025-01-11 03:13:19.22	330.30	14.51	
2025-01-11 03:13:20.25	330.09	14.52	
2025-01-11 03:13:21.27	329.88	14.52	
2025-01-11 03:13:22.30	329.66	14.53	
2025-01-11 03:13:23.32	329.45	14.53	
2025-01-11 03:13:24.36	329.23	14.54	
2025-01-11 03:13:25.38	329.02	14.54	
2025-01-11 03:13:26.41	328.81	14.54	
2025-01-11 03:13:27.44	328.59	14.55	
2025-01-11 03:13:28.46	328.38	14.55	
2025-01-11 03:13:29.48	328.17	14.55	
2025-01-11 03:13:30.51	327.95	14.55	
2025-01-11 03:13:31.55	327.74	14.55	
2025-01-11 03:13:32.59	327.52	14.55	
2025-01-11 03:13:33.61	327.31	14.55	
2025-01-11 03:13:34.63	327.09	14.55	
2025-01-11 03:13:35.65	326.88	14.55	
2025-01-11 03:13:36.68	326.67	14.55	
2025-01-11 03:13:37.71	326.45	14.55	
2025-01-11 03:13:38.74	326.24	14.55	
2025-01-11 03:13:39.76	326.02	14.54	
2025-01-11 03:13:40.80	325.81	14.54	
2025-01-11 03:13:41.83	325.59	14.54	
2025-01-11 03:13:42.86	325.38	14.53	
2025-01-11 03:13:43.88	325.17	14.53	
2025-01-11 03:13:44.91	324.95	14.53	
2025-01-11 03:13:45.93	324.74	14.52	
2025-01-11 03:13:46.95	324.53	14.52	
2025-01-11 03:13:47.97	324.32	14.51	
2025-01-11 03:13:49.00	324.10	14.50	
2025-01-11 03:13:50.04	323.89	14.50	
2025-01-11 03:13:51.07	323.67	14.49	
2025-01-11 03:13:52.09	323.46	14.48	
2025-01-11 03:13:53.11	323.25	14.48	
2025-01-11 03:13:54.14	323.03	14.47	
2025-01-11 03:13:55.16	322.82	14.46	
2025-01-11 03:13:56.20	322.61	14.45	
2025-01-11 03:13:57.22	322.40	14.44	
2025-01-11 03:13:58.25	322.18	14.43	
2025-01-11 03:13:59.27	321.97	14.42	
2025-01-11 03:14:00.30	321.76	14.41	
2025-01-11 03:14:01.32	321.55	14.40	
2025-01-11 03:14:02.34	321.34	14.39	
2025-01-11 03:14:03.37	321.13	14.38	
2025-01-11 03:14:04.40	320.91	14.37	
2025-01-11 03:14:05.42	320.70	14.36	
2025-01-11 03:14:06.45	320.49	14.34	
2025-01-11 03:14:07.47	320.28	14.33	
2025-01-11 03:14:08.50	320.07	14.32	
2025-01-11 03:14:09.52	319.86	14.30	
2025-01-11 03:14:10.55	319.65	14.29	
2025-01-11 03:14:11.57	319.44	14.28	
2025-01-11 03:14:12.60	319.23	14.26	
2025-01-11 03:14:13.62	319.02	14.25	
2025-01-11 03:14:14.65	318.81	14.23	
2025-01-11 03:14:15.67	318.60	14.21	
2025-01-11 03:14:16.70	318.40	14.20	
2025-01-11 03:14:17.72	318.19	14.18	
2025-01-11 03:14:18.75	317.98	14.16	
2025-01-11 03:14:19.78	317.77	14.15	
2025-01-11 03:14:20.81	317.56	14.13	
2025-01-11 03:14:21.83	317.35	14.11	
2025-01-11 03:14:22.85	317.15	14.09	
2025-01-11 03:14:23.88	316.94	14.07	
2025-01-11 03:14:24.91	316.73	14.05	
2025-01-11 03:14:25.94	316.52	14.03	
2025-01-11 03:14:26.96	316.32	14.01	
2025-01-11 03:14:27.99	316.11	13.99	
2025-01-11 03:14:29.01	315.91	13.97	
2025-01-11 03:14:30.04	315.70	13.95	
2025-01-11 03:14:31.06	315.50	13.93	
2025-01-11 03:14:32.09	315.29	13.91	
2025-01-11 03:14:33.12	315.09	13.89	
2025-01-11 03:14:34.14	314.88	13.87	
2025-01-11 03:14:35.17	314.68	13.84	
2025-01-11 03:14:36.19	314.47	13.82	
2025-01-11 03:14:37.22	314.27	13.80	
2025-01-11 03:14:38.24	314.07	13.77	
2025-01-11 03:14:39.26	313.87	13.75	
2025-01-11 03:14:40.29	313.66	13.72	
2025-01-11 03:14:41.31	313.46	13.70	
2025-01-11 03:14:42.34	313.26	13.67	
2025-01-11 03:14:43.36	313.06	13.65	
2025-01-11 03:14:44.38	312.86	13.62	
2025-01-11 03:14:45.40	312.66	13.60	
2025-01-11 03:14:46.44	312.46	13.57	
2025-01-11 03:14:47.46	312.26	13.54	
2025-01-11 03:14:48.49	312.06	13.52	
2025-01-11 03:14:49.51	311.86	13.49	
2025-01-11 03:14:50.54	311.66	13.46	
2025-01-11 03:14:51.56	311.46	13.44	
2025-01-11 03:14:52.58	311.27	13.41	
2025-01-11 03:14:53.61	311.07	13.38	
2025-01-11 03:14:54.64	310.87	13.35	
2025-01-11 03:14:55.66	310.67	13.32	
2025-01-11 03:14:56.68	310.48	13.29	
2025-01-11 03:14:57.71	310.28	13.26	
2025-01-11 03:14:58.74	310.08	13.23	
2025-01-11 03:14:59.76	309.89	13.20	
2025-01-11 03:15:00.79	309.69	13.17	
2025-01-11 03:15:01.85	309.49	13.14	
2025-01-11 03:15:02.89	309.30	13.11	
2025-01-11 03:15:03.92	309.10	13.08	
2025-01-11 03:15:04.94	308.91	13.04	
2025-01-11 03:15:05.97	308.72	13.01	
2025-01-11 03:15:06.99	308.52	12.98	
2025-01-11 03:15:08.03	308.33	12.95	
2025-01-11 03:15:09.06	308.14	12.91	
2025-01-11 03:15:10.08	307.95	12.88	
2025-01-11 03:15:11.11	307.76	12.85	
2025-01-11 03:15:12.13	307.57	12.81	
2025-01-11 03:15:13.15	307.38	12.78	
2025-01-11 03:15:14.18	307.19	12.75	
2025-01-11 03:15:15.20	307.00	12.71	
2025-01-11 03:15:16.23	306.81	12.68	
2025-01-11 03:15:17.26	306.62	12.64	
2025-01-11 03:15:18.29	306.43	12.61	
2025-01-11 03:15:19.31	306.25	12.57	
2025-01-11 03:15:20.34	306.06	12.54	
2025-01-11 03:15:21.38	305.87	12.50	
2025-01-11 03:15:22.40	305.69	12.46	
2025-01-11 03:15:23.43	305.50	12.43	
2025-01-11 03:15:24.45	305.32	12.39	
2025-01-11 03:15:25.48	305.13	12.35	
2025-01-11 03:15:26.50	304.95	12.32	
2025-01-11 03:15:27.53	304.76	12.28	
2025-01-11 03:15:28.55	304.58	12.24	
2025-01-11 03:15:29.57	304.40	12.20	
2025-01-11 03:15:30.60	304.22	12.17	
2025-01-11 03:15:31.63	304.04	12.13	
2025-01-11 03:15:32.66	303.85	12.09	
2025-01-11 03:15:33.70	303.67	12.05	
2025-01-11 03:15:34.72	303.49	12.01	
2025-01-11 03:15:35.74	303.31	11.97	
2025-01-11 03:15:36.78	303.13	11.93	
2025-01-11 03:15:37.81	302.95	11.89	
2025-01-11 03:15:38.83	302.77	11.85	
2025-01-11 03:15:39.86	302.60	11.81	
2025-01-11 03:15:40.88	302.42	11.77	
2025-01-11 03:15:41.91	302.24	11.73	
2025-01-11 03:15:42.94	302.07	11.69	
2025-01-11 03:15:43.97	301.89	11.65	
2025-01-11 03:15:45.00	301.71	11.61	
2025-01-11 03:15:46.02	301.54	11.57	
2025-01-11 03:15:47.04	301.37	11.53	
2025-01-11 03:15:48.07	301.19	11.49	
2025-01-11 03:15:49.11	301.02	11.44	
2025-01-11 03:15:50.13	300.84	11.40	
2025-01-11 03:15:51.16	300.67	11.36	
2025-01-11 03:15:52.18	300.50	11.32	
2025-01-11 03:15:53.20	300.33	11.28	
2025-01-11 03:15:54.23	300.16	11.23	
2025-01-11 03:15:55.26	299.99	11.19	
2025-01-11 03:15:56.28	299.82	11.15	
2025-01-11 03:15:57.31	299.65	11.10	
2025-01-11 03:15:58.33	299.48	11.06	
2025-01-11 03:15:59.36	299.31	11.02	
2025-01-11 03:16:00.40	299.14	10.97	
2025-01-11 03:16:01.42	298.98	10.93	
2025-01-11 03:16:02.44	298.81	10.89	
2025-01-11 03:16:03.47	298.64	10.84	
2025-01-11 03:16:04.49	298.48	10.80	
2025-01-11 03:16:05.51	298.31	10.75	
2025-01-11 03:16:06.54	298.15	10.71	
2025-01-11 03:16:07.56	297.98	10.66	
2025-01-11 03:16:08.59	297.82	10.62	
2025-01-11 03:16:09.61	297.66	10.57	
2025-01-11 03:16:10.65	297.49	10.53	
2025-01-11 03:16:11.68	297.33	10.48	
2025-01-11 03:16:12.70	297.17	10.44	
2025-01-11 03:16:13.72	297.01	10.39	
2025-01-11 03:16:14.75	296.85	10.35	
2025-01-11 03:16:15.77	296.69	10.30	
2025-01-11 03:16:16.81	296.53	10.26	
2025-01-11 03:16:17.84	296.37	10.21	
2025-01-11 03:16:18.86	296.21	10.16	
2025-01-11 03:16:19.89	296.05	10.12	
2025-01-11 03:16:20.92	295.89	10.07	
2025-01-11 03:16:21.94	295.74	10.02	
2025-01-11 03:16:22.96	295.58	9.98	
2025-01-11 03:16:23.99	295.42	9.93	
2025-01-11 03:16:25.01	295.27	9.88	
2025-01-11 03:16:26.03	295.11	9.84	
2025-01-11 03:16:27.06	294.96	9.79	
2025-01-11 03:16:28.09	294.81	9.74	
2025-01-11 03:16:29.11	294.65	9.70	
2025-01-11 03:16:30.13	294.50	9.65	
2025-01-11 03:16:31.16	294.35	9.60	
2025-01-11 03:16:32.18	294.20	9.55	
2025-01-11 03:16:33.21	294.04	9.50	
2025-01-11 03:16:34.23	293.89	9.46	
2025-01-11 03:16:35.26	293.74	9.41	
2025-01-11 03:16:36.29	293.59	9.36	
2025-01-11 03:16:37.33	293.44	9.31	
2025-01-11 03:16:38.37	293.29	9.26	
2025-01-11 03:16:39.39	293.14	9.22	
2025-01-11 03:16:40.41	292.99	9.17	
2025-01-11 03:16:41.44	292.85	9.12	
2025-01-11 03:16:42.47	292.70	9.07	
2025-01-11 03:16:43.49	292.55	9.02	
2025-01-11 03:16:44.52	292.41	8.97	
2025-01-11 03:16:45.55	292.26	8.92	
2025-01-11 03:16:46.57	292.12	8.87	
2025-01-11 03:16:47.60	291.97	8.83	
2025-01-11 03:16:48.62	291.83	8.78	
2025-01-11 03:16:49.65	291.68	8.73	
2025-01-11 03:16:50.67	291.54	8.68	
2025-01-11 03:16:51.69	291.40	8.63	
2025-01-11 03:16:52.72	291.26	8.58	
2025-01-11 03:16:53.75	291.11	8.53	
2025-01-11 03:16:54.77	290.97	8.48	
2025-01-11 03:16:55.80	290.83	8.43	
2025-01-11 03:16:56.83	290.69	8.38	
2025-01-11 03:16:57.85	290.55	8.33	
2025-01-11 03:16:58.88	290.41	8.28	
2025-01-11 03:16:59.90	290.28	8.23	
2025-01-11 03:17:00.92	290.14	8.18	
2025-01-11 03:17:01.95	290.00	8.13	
2025-01-11 03:17:02.98	289.86	8.08	
2025-01-11 03:17:04.00	289.73	8.03	
2025-01-11 03:17:05.03	289.59	7.98	
2025-01-11 03:17:06.05	289.45	7.93	
2025-01-11 03:17:07.07	289.32	7.88	
2025-01-11 03:17:08.12	289.18	7.83	
2025-01-11 03:17:09.14	289.05	7.78	
2025-01-11 03:17:10.16	288.91	7.73	
2025-01-11 03:17:11.20	288.78	7.68	
2025-01-11 03:17:12.22	288.65	7.63	
2025-01-11 03:17:13.25	288.51	7.58	
2025-01-11 03:17:18.91	287.79	7.30	
2025-01-11 03:17:19.94	287.66	7.25	
2025-01-11 03:17:20.96	287.53	7.20	
2025-01-11 03:17:21.98	287.40	7.15	
2025-01-11 03:17:23.01	287.28	7.10	
2025-01-11 03:17:24.04	287.15	7.04	
2025-01-11 03:17:25.06	287.02	6.99	
2025-01-11 03:17:26.09	286.89	6.94	
2025-01-11 03:17:27.11	286.77	6.89	
2025-01-11 03:17:28.14	286.64	6.84	
2025-01-11 03:17:29.17	286.52	6.79	
2025-01-11 03:17:30.21	286.39	6.74	
2025-01-11 03:17:31.24	286.26	6.69	
2025-01-11 03:17:32.27	286.14	6.64	
2025-01-11 03:17:33.29	286.02	6.58	
2025-01-11 03:17:34.32	285.89	6.53	
2025-01-11 03:17:35.34	285.77	6.48	
2025-01-11 03:17:36.36	285.65	6.43	
2025-01-11 03:17:37.40	285.53	6.38	
2025-01-11 03:17:38.42	285.41	6.33	
2025-01-11 03:17:39.45	285.28	6.28	
2025-01-11 03:17:40.47	285.16	6.23	
2025-01-11 03:17:41.50	285.04	6.17	
2025-01-11 03:17:42.54	284.92	6.12	
2025-01-11 03:17:43.58	284.80	6.07	
2025-01-11 03:17:44.60	284.68	6.02	
2025-01-11 03:17:45.63	284.56	5.97	
2025-01-11 03:17:46.66	284.45	5.92	
2025-01-11 03:17:47.68	284.33	5.86	
2025-01-11 03:17:48.71	284.21	5.81	
2025-01-11 03:17:49.74	284.09	5.76	
2025-01-11 03:17:50.76	283.98	5.71	
2025-01-11 03:17:51.79	283.86	5.66	
2025-01-11 03:17:52.81	283.75	5.61	
2025-01-11 03:17:53.83	283.63	5.56	
2025-01-11 03:17:54.86	283.52	5.50	
2025-01-11 03:17:55.88	283.40	5.45	
2025-01-11 03:17:56.91	283.29	5.40	
2025-01-11 03:17:57.93	283.18	5.35	
2025-01-11 03:17:58.96	283.06	5.30	
2025-01-11 03:17:59.99	282.95	5.25	
2025-01-11 03:18:01.01	282.84	5.20	
2025-01-11 03:18:02.04	282.73	5.14	
2025-01-11 03:18:03.06	282.62	5.09	
2025-01-11 03:18:04.09	282.51	5.04	
2025-01-11 03:18:05.11	282.40	4.99	
2025-01-11 03:18:06.14	282.28	4.94	
2025-01-11 03:18:07.17	282.17	4.89	
2025-01-11 03:18:08.19	282.07	4.83	
2025-01-11 03:18:09.22	281.96	4.78	
2025-01-11 03:18:10.26	281.85	4.73	
2025-01-11 03:18:11.28	281.74	4.68	
2025-01-11 03:18:12.30	281.63	4.63	
2025-01-11 03:18:13.33	281.52	4.58	
2025-01-11 03:18:14.36	281.42	4.53	
2025-01-11 03:18:15.39	281.31	4.47	
2025-01-11 03:18:16.43	281.20	4.42	
2025-01-11 03:18:17.46	281.10	4.37	
2025-01-11 03:18:18.48	280.99	4.32	
2025-01-11 03:18:19.50	280.89	4.27	
2025-01-11 03:18:20.53	280.78	4.22	
2025-01-11 03:18:21.56	280.68	4.16	
2025-01-11 03:18:22.58	280.57	4.11	
2025-01-11 03:18:23.61	280.47	4.06	
2025-01-11 03:18:24.63	280.37	4.01	

#Closed at: 2025-01-11 03:18:25