passes_logs/2025/01/11/SPB_Silybum_02/SPB_Silybum_02__20250111_062556_SUOMI_NPP_rec.log

#Pass ID: 20250111_062556_SUOMI NPP
#Satellite: SUOMI NPP
#Configuration: NPP
#Start time: 2025-01-11 06:25:56

#Version: 2.0.20230423
#Station: SPB_Silybum_02
#Location: 30.233357 lon 59.946436 lat
#TLE: 1 37849U 11061A   25010.83173011  .00000170  00000+0  10148-3 0  9996
#TLE: 2 37849  98.7441 311.8732 0001811  47.3940 312.7388 14.19536379684322

#Time	Az	El	Level	Level2	SNR	BER	Gain	Gain2
2025-01-11 06:25:58.66	50.38	4.10	
2025-01-11 06:25:59.49	50.28	4.13	
2025-01-11 06:26:00.30	50.18	4.16	
2025-01-11 06:26:01.12	50.08	4.20	
2025-01-11 06:26:01.94	49.98	4.23	
2025-01-11 06:26:02.77	49.87	4.26	
2025-01-11 06:26:03.60	49.77	4.29	
2025-01-11 06:26:04.44	49.67	4.32	
2025-01-11 06:26:05.26	49.56	4.35	
2025-01-11 06:26:06.08	49.46	4.38	
2025-01-11 06:26:06.90	49.36	4.41	
2025-01-11 06:26:07.72	49.26	4.44	
2025-01-11 06:26:08.54	49.15	4.47	
2025-01-11 06:26:09.37	49.05	4.50	
2025-01-11 06:26:10.19	48.95	4.53	
2025-01-11 06:26:11.01	48.84	4.56	
2025-01-11 06:26:11.82	48.74	4.59	
2025-01-11 06:26:12.65	48.63	4.62	
2025-01-11 06:26:13.47	48.53	4.66	
2025-01-11 06:26:14.30	48.42	4.69	
2025-01-11 06:26:15.12	48.32	4.72	
2025-01-11 06:26:15.94	48.21	4.75	
2025-01-11 06:26:16.77	48.11	4.78	
2025-01-11 06:26:17.59	48.00	4.81	
2025-01-11 06:26:18.41	47.90	4.84	
2025-01-11 06:26:19.23	47.79	4.87	
2025-01-11 06:26:20.05	47.68	4.90	
2025-01-11 06:26:20.87	47.58	4.92	
2025-01-11 06:26:21.69	47.47	4.95	
2025-01-11 06:26:22.51	47.37	4.98	
2025-01-11 06:26:23.33	47.26	5.01	
2025-01-11 06:26:24.16	47.15	5.04	
2025-01-11 06:26:24.99	47.04	5.07	
2025-01-11 06:26:25.81	46.93	5.10	
2025-01-11 06:26:26.63	46.83	5.13	
2025-01-11 06:26:27.45	46.72	5.16	
2025-01-11 06:26:28.27	46.61	5.19	
2025-01-11 06:26:29.09	46.50	5.22	
2025-01-11 06:26:29.92	46.39	5.25	
2025-01-11 06:26:30.75	46.28	5.28	
2025-01-11 06:26:31.57	46.17	5.31	
2025-01-11 06:26:32.39	46.06	5.33	
2025-01-11 06:26:33.21	45.95	5.36	
2025-01-11 06:26:34.04	45.84	5.39	
2025-01-11 06:26:34.86	45.73	5.42	
2025-01-11 06:26:35.69	45.62	5.45	
2025-01-11 06:26:36.51	45.51	5.48	
2025-01-11 06:26:37.32	45.40	5.51	
2025-01-11 06:26:38.15	45.29	5.54	
2025-01-11 06:26:38.97	45.18	5.56	
2025-01-11 06:26:39.79	45.06	5.59	
2025-01-11 06:26:40.61	44.95	5.62	
2025-01-11 06:26:41.43	44.84	5.65	
2025-01-11 06:26:42.25	44.73	5.68	
2025-01-11 06:26:43.07	44.62	5.70	
2025-01-11 06:26:43.89	44.50	5.73	
2025-01-11 06:26:44.72	44.39	5.76	
2025-01-11 06:26:45.54	44.28	5.79	
2025-01-11 06:26:46.36	44.16	5.81	
2025-01-11 06:26:47.18	44.05	5.84	
2025-01-11 06:26:48.00	43.94	5.87	
2025-01-11 06:26:48.82	43.82	5.90	
2025-01-11 06:26:49.64	43.71	5.92	
2025-01-11 06:26:50.46	43.59	5.95	
2025-01-11 06:26:51.28	43.48	5.98	
2025-01-11 06:26:52.10	43.37	6.01	
2025-01-11 06:26:52.92	43.25	6.03	
2025-01-11 06:26:53.74	43.14	6.06	
2025-01-11 06:26:54.56	43.02	6.09	
2025-01-11 06:26:55.38	42.90	6.11	
2025-01-11 06:26:56.20	42.79	6.14	
2025-01-11 06:26:57.04	42.67	6.17	
2025-01-11 06:26:57.86	42.55	6.19	
2025-01-11 06:26:58.68	42.44	6.22	
2025-01-11 06:26:59.50	42.32	6.25	
2025-01-11 06:27:00.31	42.20	6.27	
2025-01-11 06:27:01.14	42.09	6.30	
2025-01-11 06:27:01.97	41.97	6.32	
2025-01-11 06:27:02.79	41.85	6.35	
2025-01-11 06:27:03.61	41.73	6.38	
2025-01-11 06:27:04.43	41.61	6.40	
2025-01-11 06:27:05.26	41.50	6.43	
2025-01-11 06:27:06.07	41.38	6.45	
2025-01-11 06:27:06.90	41.26	6.48	
2025-01-11 06:27:07.73	41.14	6.51	
2025-01-11 06:27:08.57	41.02	6.53	
2025-01-11 06:27:09.38	40.90	6.56	
2025-01-11 06:27:10.21	40.78	6.58	
2025-01-11 06:27:11.03	40.66	6.61	
2025-01-11 06:27:11.85	40.54	6.63	
2025-01-11 06:27:12.66	40.42	6.66	
2025-01-11 06:27:13.48	40.30	6.68	
2025-01-11 06:27:14.30	40.18	6.71	
2025-01-11 06:27:15.12	40.06	6.73	
2025-01-11 06:27:15.94	39.94	6.76	
2025-01-11 06:27:16.76	39.82	6.78	
2025-01-11 06:27:17.58	39.70	6.80	
2025-01-11 06:27:18.40	39.57	6.83	
2025-01-11 06:27:19.22	39.45	6.85	
2025-01-11 06:27:20.06	39.33	6.88	
2025-01-11 06:27:20.88	39.21	6.90	
2025-01-11 06:27:21.70	39.08	6.92	
2025-01-11 06:27:22.52	38.96	6.95	
2025-01-11 06:27:23.34	38.84	6.97	
2025-01-11 06:27:24.16	38.71	7.00	
2025-01-11 06:27:24.98	38.59	7.02	
2025-01-11 06:27:25.81	38.47	7.04	
2025-01-11 06:27:26.63	38.34	7.07	
2025-01-11 06:27:27.45	38.22	7.09	
2025-01-11 06:27:28.27	38.10	7.11	
2025-01-11 06:27:29.09	37.97	7.13	
2025-01-11 06:27:29.93	37.84	7.16	
2025-01-11 06:27:30.75	37.72	7.18	
2025-01-11 06:27:31.57	37.60	7.20	
2025-01-11 06:27:32.39	37.47	7.23	
2025-01-11 06:27:33.21	37.35	7.25	
2025-01-11 06:27:34.04	37.22	7.27	
2025-01-11 06:27:34.86	37.09	7.29	
2025-01-11 06:27:35.68	36.97	7.31	
2025-01-11 06:27:36.50	36.84	7.34	
2025-01-11 06:27:37.32	36.72	7.36	
2025-01-11 06:27:38.15	36.59	7.38	
2025-01-11 06:27:38.97	36.46	7.40	
2025-01-11 06:27:39.79	36.33	7.42	
2025-01-11 06:27:40.61	36.21	7.44	
2025-01-11 06:27:41.43	36.08	7.47	
2025-01-11 06:27:42.26	35.95	7.49	
2025-01-11 06:27:43.08	35.82	7.51	
2025-01-11 06:27:43.90	35.70	7.53	
2025-01-11 06:27:44.72	35.57	7.55	
2025-01-11 06:27:45.54	35.44	7.57	
2025-01-11 06:27:46.36	35.31	7.59	
2025-01-11 06:27:47.18	35.19	7.61	
2025-01-11 06:27:48.01	35.06	7.63	
2025-01-11 06:27:48.83	34.93	7.65	
2025-01-11 06:27:49.65	34.80	7.67	
2025-01-11 06:27:50.47	34.67	7.69	
2025-01-11 06:27:51.30	34.54	7.71	
2025-01-11 06:27:52.12	34.41	7.73	
2025-01-11 06:27:52.94	34.28	7.75	
2025-01-11 06:27:53.76	34.15	7.77	
2025-01-11 06:27:54.58	34.02	7.79	
2025-01-11 06:27:55.42	33.89	7.81	
2025-01-11 06:27:56.25	33.75	7.83	
2025-01-11 06:27:57.07	33.62	7.85	
2025-01-11 06:27:57.89	33.49	7.87	
2025-01-11 06:27:58.73	33.36	7.89	
2025-01-11 06:27:59.55	33.23	7.91	
2025-01-11 06:28:00.38	33.10	7.92	
2025-01-11 06:28:01.20	32.96	7.94	
2025-01-11 06:28:02.05	32.83	7.96	
2025-01-11 06:28:02.88	32.69	7.98	
2025-01-11 06:28:03.70	32.56	8.00	
2025-01-11 06:28:04.52	32.43	8.01	
2025-01-11 06:28:05.34	32.30	8.03	
2025-01-11 06:28:06.16	32.17	8.05	
2025-01-11 06:28:06.98	32.03	8.07	
2025-01-11 06:28:07.80	31.90	8.08	
2025-01-11 06:28:08.64	31.77	8.10	
2025-01-11 06:28:09.46	31.63	8.12	
2025-01-11 06:28:10.28	31.50	8.14	
2025-01-11 06:28:11.10	31.37	8.15	
2025-01-11 06:28:11.93	31.23	8.17	
2025-01-11 06:28:12.75	31.10	8.19	
2025-01-11 06:28:13.57	30.96	8.20	
2025-01-11 06:28:14.40	30.83	8.22	
2025-01-11 06:28:15.21	30.70	8.23	
2025-01-11 06:28:16.03	30.56	8.25	
2025-01-11 06:28:16.85	30.43	8.27	
2025-01-11 06:28:17.67	30.29	8.28	
2025-01-11 06:28:18.50	30.16	8.30	
2025-01-11 06:28:19.32	30.02	8.31	
2025-01-11 06:28:20.14	29.89	8.33	
2025-01-11 06:28:20.95	29.75	8.34	
2025-01-11 06:28:21.78	29.62	8.36	
2025-01-11 06:28:22.59	29.48	8.37	
2025-01-11 06:28:23.41	29.35	8.39	
2025-01-11 06:28:24.23	29.21	8.40	
2025-01-11 06:28:25.05	29.08	8.42	
2025-01-11 06:28:25.88	28.94	8.43	
2025-01-11 06:28:26.71	28.80	8.44	
2025-01-11 06:28:27.53	28.67	8.46	
2025-01-11 06:28:28.35	28.53	8.47	
2025-01-11 06:28:29.17	28.39	8.49	
2025-01-11 06:28:29.99	28.26	8.50	
2025-01-11 06:28:30.81	28.12	8.51	
2025-01-11 06:28:31.63	27.98	8.53	
2025-01-11 06:28:32.45	27.85	8.54	
2025-01-11 06:28:33.27	27.71	8.55	
2025-01-11 06:28:34.09	27.57	8.56	
2025-01-11 06:28:34.91	27.44	8.58	
2025-01-11 06:28:35.73	27.30	8.59	
2025-01-11 06:28:36.57	27.16	8.60	
2025-01-11 06:28:37.39	27.02	8.61	
2025-01-11 06:28:38.21	26.88	8.63	
2025-01-11 06:28:39.03	26.74	8.64	
2025-01-11 06:28:39.85	26.61	8.65	
2025-01-11 06:28:40.67	26.47	8.66	
2025-01-11 06:28:41.49	26.33	8.67	
2025-01-11 06:28:42.31	26.19	8.68	
2025-01-11 06:28:43.13	26.05	8.69	
2025-01-11 06:28:43.95	25.92	8.71	
2025-01-11 06:28:44.78	25.78	8.72	
2025-01-11 06:28:45.59	25.64	8.73	
2025-01-11 06:28:46.42	25.50	8.74	
2025-01-11 06:28:47.24	25.36	8.75	
2025-01-11 06:28:48.05	25.22	8.76	
2025-01-11 06:28:48.88	25.08	8.77	
2025-01-11 06:28:49.70	24.94	8.78	
2025-01-11 06:28:50.52	24.80	8.79	
2025-01-11 06:28:51.35	24.66	8.80	
2025-01-11 06:28:52.17	24.52	8.81	
2025-01-11 06:28:52.99	24.38	8.82	
2025-01-11 06:28:53.81	24.24	8.82	
2025-01-11 06:28:54.63	24.10	8.83	
2025-01-11 06:28:55.45	23.96	8.84	
2025-01-11 06:28:56.28	23.82	8.85	
2025-01-11 06:28:57.10	23.68	8.86	
2025-01-11 06:28:57.92	23.54	8.87	
2025-01-11 06:28:58.74	23.40	8.88	
2025-01-11 06:28:59.56	23.26	8.88	
2025-01-11 06:29:00.38	23.12	8.89	
2025-01-11 06:29:01.20	22.98	8.90	
2025-01-11 06:29:02.04	22.84	8.91	
2025-01-11 06:29:02.87	22.70	8.91	
2025-01-11 06:29:03.70	22.55	8.92	
2025-01-11 06:29:04.52	22.41	8.93	
2025-01-11 06:29:05.34	22.27	8.93	
2025-01-11 06:29:06.16	22.13	8.94	
2025-01-11 06:29:06.98	21.99	8.95	
2025-01-11 06:29:07.80	21.85	8.95	
2025-01-11 06:29:08.62	21.71	8.96	
2025-01-11 06:29:09.44	21.57	8.97	
2025-01-11 06:29:10.26	21.43	8.97	
2025-01-11 06:29:11.08	21.29	8.98	
2025-01-11 06:29:11.90	21.14	8.98	
2025-01-11 06:29:12.72	21.00	8.99	
2025-01-11 06:29:13.54	20.86	8.99	
2025-01-11 06:29:14.36	20.72	9.00	
2025-01-11 06:29:15.17	20.58	9.00	
2025-01-11 06:29:15.99	20.44	9.01	
2025-01-11 06:29:16.83	20.29	9.01	
2025-01-11 06:29:17.65	20.15	9.02	
2025-01-11 06:29:18.47	20.01	9.02	
2025-01-11 06:29:19.29	19.87	9.02	
2025-01-11 06:29:20.11	19.73	9.03	
2025-01-11 06:29:20.93	19.59	9.03	
2025-01-11 06:29:21.75	19.44	9.04	
2025-01-11 06:29:22.58	19.30	9.04	
2025-01-11 06:29:23.41	19.16	9.04	
2025-01-11 06:29:24.23	19.02	9.04	
2025-01-11 06:29:25.05	18.87	9.05	
2025-01-11 06:29:25.87	18.73	9.05	
2025-01-11 06:29:26.71	18.59	9.05	
2025-01-11 06:29:27.54	18.44	9.05	
2025-01-11 06:29:28.37	18.30	9.06	
2025-01-11 06:29:29.19	18.16	9.06	
2025-01-11 06:29:30.01	18.02	9.06	
2025-01-11 06:29:30.83	17.87	9.06	
2025-01-11 06:29:31.65	17.73	9.06	
2025-01-11 06:29:32.47	17.59	9.07	
2025-01-11 06:29:33.29	17.45	9.07	
2025-01-11 06:29:34.11	17.31	9.07	
2025-01-11 06:29:34.93	17.16	9.07	
2025-01-11 06:29:35.75	17.02	9.07	
2025-01-11 06:29:36.56	16.88	9.07	
2025-01-11 06:29:37.38	16.74	9.07	
2025-01-11 06:29:38.21	16.60	9.07	
2025-01-11 06:29:39.03	16.45	9.07	
2025-01-11 06:29:39.85	16.31	9.07	
2025-01-11 06:29:40.67	16.17	9.07	
2025-01-11 06:29:41.49	16.03	9.07	
2025-01-11 06:29:42.31	15.89	9.07	
2025-01-11 06:29:43.14	15.74	9.07	
2025-01-11 06:29:43.96	15.60	9.07	
2025-01-11 06:29:44.78	15.46	9.06	
2025-01-11 06:29:45.60	15.32	9.06	
2025-01-11 06:29:46.42	15.18	9.06	
2025-01-11 06:29:47.24	15.03	9.06	
2025-01-11 06:29:48.08	14.89	9.06	
2025-01-11 06:29:48.90	14.75	9.06	
2025-01-11 06:29:49.73	14.60	9.05	
2025-01-11 06:29:50.55	14.46	9.05	
2025-01-11 06:29:51.37	14.32	9.05	
2025-01-11 06:29:52.19	14.18	9.05	
2025-01-11 06:29:53.01	14.04	9.04	
2025-01-11 06:29:53.84	13.89	9.04	
2025-01-11 06:29:54.66	13.75	9.04	
2025-01-11 06:29:55.48	13.61	9.03	
2025-01-11 06:29:56.30	13.47	9.03	
2025-01-11 06:29:57.11	13.33	9.03	
2025-01-11 06:29:57.93	13.19	9.02	
2025-01-11 06:29:58.75	13.04	9.02	
2025-01-11 06:29:59.58	12.90	9.01	
2025-01-11 06:30:00.39	12.76	9.01	
2025-01-11 06:30:01.21	12.62	9.00	
2025-01-11 06:30:02.03	12.48	9.00	
2025-01-11 06:30:02.85	12.34	9.00	
2025-01-11 06:30:03.67	12.20	8.99	
2025-01-11 06:30:04.49	12.05	8.99	
2025-01-11 06:30:05.31	11.91	8.98	
2025-01-11 06:30:06.13	11.77	8.97	
2025-01-11 06:30:06.95	11.63	8.97	
2025-01-11 06:30:07.77	11.49	8.96	
2025-01-11 06:30:08.59	11.35	8.96	
2025-01-11 06:30:09.41	11.21	8.95	
2025-01-11 06:30:10.24	11.07	8.94	
2025-01-11 06:30:11.05	10.93	8.94	
2025-01-11 06:30:11.88	10.79	8.93	
2025-01-11 06:30:12.70	10.64	8.92	
2025-01-11 06:30:13.52	10.50	8.92	
2025-01-11 06:30:14.34	10.36	8.91	
2025-01-11 06:30:15.16	10.22	8.90	
2025-01-11 06:30:15.98	10.08	8.89	
2025-01-11 06:30:16.80	9.94	8.89	
2025-01-11 06:30:17.63	9.80	8.88	
2025-01-11 06:30:18.45	9.66	8.87	
2025-01-11 06:30:19.27	9.52	8.86	
2025-01-11 06:30:20.09	9.38	8.85	
2025-01-11 06:30:20.91	9.24	8.85	
2025-01-11 06:30:21.73	9.10	8.84	
2025-01-11 06:30:22.55	8.96	8.83	
2025-01-11 06:30:23.37	8.82	8.82	
2025-01-11 06:30:24.18	8.68	8.81	
2025-01-11 06:30:25.00	8.55	8.80	
2025-01-11 06:30:25.83	8.40	8.79	
2025-01-11 06:30:26.65	8.26	8.78	
2025-01-11 06:30:27.47	8.13	8.77	
2025-01-11 06:30:28.29	7.99	8.76	
2025-01-11 06:30:29.11	7.85	8.75	
2025-01-11 06:30:29.93	7.71	8.74	
2025-01-11 06:30:30.76	7.57	8.73	
2025-01-11 06:30:31.57	7.43	8.72	
2025-01-11 06:30:32.39	7.29	8.71	
2025-01-11 06:30:33.21	7.15	8.70	
2025-01-11 06:30:34.03	7.02	8.69	
2025-01-11 06:30:34.86	6.88	8.68	
2025-01-11 06:30:35.68	6.74	8.67	
2025-01-11 06:30:36.50	6.60	8.66	
2025-01-11 06:30:37.32	6.46	8.64	
2025-01-11 06:30:38.14	6.33	8.63	
2025-01-11 06:30:38.96	6.19	8.62	
2025-01-11 06:30:39.79	6.05	8.61	
2025-01-11 06:30:40.61	5.91	8.60	
2025-01-11 06:30:41.43	5.77	8.58	
2025-01-11 06:30:42.26	5.63	8.57	
2025-01-11 06:30:43.07	5.50	8.56	
2025-01-11 06:30:43.90	5.36	8.55	
2025-01-11 06:30:44.72	5.22	8.53	
2025-01-11 06:30:45.54	5.09	8.52	
2025-01-11 06:30:46.37	4.95	8.51	
2025-01-11 06:30:47.20	4.81	8.49	
2025-01-11 06:30:48.02	4.67	8.48	
2025-01-11 06:30:48.84	4.54	8.47	
2025-01-11 06:30:49.66	4.40	8.45	
2025-01-11 06:30:50.48	4.27	8.44	
2025-01-11 06:30:51.30	4.13	8.42	
2025-01-11 06:30:52.12	4.00	8.41	
2025-01-11 06:30:52.94	3.86	8.40	
2025-01-11 06:30:53.77	3.72	8.38	
2025-01-11 06:30:54.60	3.59	8.37	
2025-01-11 06:30:55.42	3.45	8.35	
2025-01-11 06:30:56.24	3.32	8.34	
2025-01-11 06:30:57.07	3.18	8.32	
2025-01-11 06:30:57.89	3.04	8.31	
2025-01-11 06:30:58.71	2.91	8.29	
2025-01-11 06:30:59.54	2.77	8.27	
2025-01-11 06:31:00.36	2.64	8.26	
2025-01-11 06:31:01.18	2.51	8.24	
2025-01-11 06:31:02.00	2.37	8.23	
2025-01-11 06:31:02.81	2.24	8.21	
2025-01-11 06:31:03.65	2.10	8.19	
2025-01-11 06:31:04.48	1.97	8.18	
2025-01-11 06:31:05.31	1.83	8.16	
2025-01-11 06:31:06.14	1.70	8.14	
2025-01-11 06:31:06.96	1.57	8.13	
2025-01-11 06:31:07.77	1.43	8.11	
2025-01-11 06:31:08.60	1.30	8.09	
2025-01-11 06:31:09.42	1.17	8.08	
2025-01-11 06:31:10.24	1.04	8.06	
2025-01-11 06:31:11.06	0.90	8.04	
2025-01-11 06:31:11.88	0.77	8.02	
2025-01-11 06:31:12.71	0.64	8.01	
2025-01-11 06:31:13.53	0.51	7.99	
2025-01-11 06:31:14.35	0.37	7.97	
2025-01-11 06:31:15.18	0.24	7.95	
2025-01-11 06:31:16.00	0.11	7.93	
2025-01-11 06:31:16.82	359.98	7.92	
2025-01-11 06:31:17.64	359.85	7.90	
2025-01-11 06:31:18.46	359.72	7.88	
2025-01-11 06:31:19.29	359.59	7.86	
2025-01-11 06:31:20.11	359.46	7.84	
2025-01-11 06:31:20.93	359.33	7.82	
2025-01-11 06:31:21.75	359.20	7.80	
2025-01-11 06:31:22.58	359.06	7.78	
2025-01-11 06:31:23.40	358.93	7.76	
2025-01-11 06:31:24.21	358.81	7.74	
2025-01-11 06:31:25.04	358.68	7.72	
2025-01-11 06:31:25.86	358.55	7.70	
2025-01-11 06:31:26.68	358.42	7.69	
2025-01-11 06:31:27.50	358.29	7.67	
2025-01-11 06:31:28.32	358.16	7.64	
2025-01-11 06:31:29.14	358.03	7.62	
2025-01-11 06:31:29.96	357.90	7.60	
2025-01-11 06:31:30.79	357.77	7.58	
2025-01-11 06:31:31.61	357.65	7.56	
2025-01-11 06:31:32.43	357.52	7.54	
2025-01-11 06:31:33.25	357.39	7.52	
2025-01-11 06:31:34.07	357.26	7.50	
2025-01-11 06:31:34.91	357.13	7.48	
2025-01-11 06:31:35.73	357.01	7.46	
2025-01-11 06:31:36.56	356.88	7.44	
2025-01-11 06:31:37.38	356.75	7.42	
2025-01-11 06:31:38.21	356.62	7.39	
2025-01-11 06:31:39.03	356.50	7.37	
2025-01-11 06:31:39.85	356.37	7.35	
2025-01-11 06:31:40.67	356.25	7.33	
2025-01-11 06:31:41.50	356.12	7.31	
2025-01-11 06:31:42.34	355.99	7.28	
2025-01-11 06:31:43.16	355.87	7.26	
2025-01-11 06:31:43.97	355.74	7.24	
2025-01-11 06:31:44.79	355.62	7.22	
2025-01-11 06:31:45.61	355.49	7.19	
2025-01-11 06:31:46.44	355.37	7.17	
2025-01-11 06:31:47.27	355.24	7.15	
2025-01-11 06:31:48.09	355.12	7.13	
2025-01-11 06:31:48.91	354.99	7.10	
2025-01-11 06:31:49.73	354.87	7.08	
2025-01-11 06:31:50.55	354.75	7.06	
2025-01-11 06:31:51.37	354.62	7.03	
2025-01-11 06:31:52.19	354.50	7.01	
2025-01-11 06:31:53.01	354.38	6.99	
2025-01-11 06:31:53.83	354.26	6.96	
2025-01-11 06:31:54.65	354.13	6.94	
2025-01-11 06:31:55.47	354.01	6.92	
2025-01-11 06:31:56.29	353.89	6.89	
2025-01-11 06:31:57.13	353.76	6.87	
2025-01-11 06:31:57.96	353.64	6.84	
2025-01-11 06:31:58.78	353.52	6.82	
2025-01-11 06:31:59.61	353.40	6.79	
2025-01-11 06:32:00.43	353.28	6.77	
2025-01-11 06:32:01.25	353.16	6.75	
2025-01-11 06:32:02.07	353.04	6.72	
2025-01-11 06:32:02.89	352.91	6.70	
2025-01-11 06:32:03.73	352.79	6.67	
2025-01-11 06:32:04.55	352.67	6.65	
2025-01-11 06:32:05.37	352.55	6.62	
2025-01-11 06:32:06.19	352.43	6.60	
2025-01-11 06:32:07.01	352.31	6.57	
2025-01-11 06:32:07.83	352.19	6.55	
2025-01-11 06:32:08.65	352.08	6.52	
2025-01-11 06:32:09.47	351.96	6.50	
2025-01-11 06:32:10.28	351.84	6.47	
2025-01-11 06:32:11.10	351.72	6.44	
2025-01-11 06:32:11.92	351.60	6.42	
2025-01-11 06:32:12.75	351.48	6.39	
2025-01-11 06:32:13.56	351.37	6.37	
2025-01-11 06:32:14.39	351.25	6.34	
2025-01-11 06:32:15.21	351.13	6.32	
2025-01-11 06:32:16.03	351.02	6.29	
2025-01-11 06:32:16.85	350.90	6.26	
2025-01-11 06:32:17.67	350.78	6.24	
2025-01-11 06:32:18.50	350.66	6.21	
2025-01-11 06:32:19.33	350.55	6.18	
2025-01-11 06:32:20.15	350.43	6.16	
2025-01-11 06:32:20.97	350.32	6.13	
2025-01-11 06:32:21.79	350.20	6.10	
2025-01-11 06:32:22.61	350.09	6.08	
2025-01-11 06:32:23.43	349.97	6.05	
2025-01-11 06:32:24.27	349.85	6.02	
2025-01-11 06:32:25.09	349.74	6.00	
2025-01-11 06:32:25.91	349.62	5.97	
2025-01-11 06:32:26.75	349.51	5.94	
2025-01-11 06:32:27.57	349.39	5.91	
2025-01-11 06:32:28.39	349.28	5.89	
2025-01-11 06:32:29.20	349.17	5.86	
2025-01-11 06:32:30.03	349.05	5.83	
2025-01-11 06:32:30.85	348.94	5.80	
2025-01-11 06:32:31.67	348.83	5.78	
2025-01-11 06:32:32.49	348.71	5.75	
2025-01-11 06:32:33.31	348.60	5.72	
2025-01-11 06:32:34.15	348.49	5.69	
2025-01-11 06:32:34.97	348.38	5.66	
2025-01-11 06:32:35.79	348.26	5.64	
2025-01-11 06:32:36.61	348.15	5.61	
2025-01-11 06:32:37.43	348.04	5.58	
2025-01-11 06:32:38.25	347.93	5.55	
2025-01-11 06:32:39.07	347.82	5.52	
2025-01-11 06:32:39.90	347.71	5.50	
2025-01-11 06:32:40.72	347.60	5.47	
2025-01-11 06:32:41.55	347.49	5.44	
2025-01-11 06:32:42.37	347.38	5.41	
2025-01-11 06:32:43.19	347.27	5.38	
2025-01-11 06:32:44.01	347.16	5.35	
2025-01-11 06:32:44.83	347.05	5.32	
2025-01-11 06:32:45.65	346.94	5.29	
2025-01-11 06:32:46.47	346.83	5.27	
2025-01-11 06:32:47.29	346.72	5.24	
2025-01-11 06:32:48.11	346.61	5.21	
2025-01-11 06:32:48.93	346.50	5.18	
2025-01-11 06:32:49.75	346.40	5.15	
2025-01-11 06:32:50.58	346.29	5.12	
2025-01-11 06:32:51.40	346.18	5.09	
2025-01-11 06:32:52.22	346.07	5.06	
2025-01-11 06:32:53.04	345.97	5.03	
2025-01-11 06:32:53.86	345.86	5.00	
2025-01-11 06:32:54.67	345.75	4.97	
2025-01-11 06:32:55.50	345.65	4.94	
2025-01-11 06:32:56.31	345.54	4.91	
2025-01-11 06:32:57.13	345.43	4.89	
2025-01-11 06:32:57.95	345.33	4.86	
2025-01-11 06:32:58.77	345.22	4.83	
2025-01-11 06:32:59.59	345.12	4.80	
2025-01-11 06:33:00.43	345.01	4.77	
2025-01-11 06:33:01.25	344.91	4.74	
2025-01-11 06:33:02.07	344.80	4.71	
2025-01-11 06:33:02.89	344.70	4.68	
2025-01-11 06:33:03.71	344.59	4.65	
2025-01-11 06:33:04.53	344.49	4.62	
2025-01-11 06:33:05.35	344.39	4.59	
2025-01-11 06:33:06.17	344.28	4.55	
2025-01-11 06:33:07.00	344.18	4.52	
2025-01-11 06:33:07.82	344.07	4.49	
2025-01-11 06:33:08.64	343.97	4.46	
2025-01-11 06:33:09.46	343.87	4.43	
2025-01-11 06:33:10.28	343.77	4.40	
2025-01-11 06:33:11.10	343.66	4.37	
2025-01-11 06:33:11.92	343.56	4.34	
2025-01-11 06:33:12.74	343.46	4.31	
2025-01-11 06:33:13.56	343.36	4.28	
2025-01-11 06:33:14.38	343.26	4.25	
2025-01-11 06:33:15.20	343.16	4.22	
2025-01-11 06:33:16.02	343.06	4.19	
2025-01-11 06:33:16.84	342.95	4.16	
2025-01-11 06:33:17.66	342.85	4.13	
2025-01-11 06:33:18.48	342.75	4.09	
2025-01-11 06:33:19.30	342.65	4.06	
2025-01-11 06:33:20.12	342.55	4.03	
2025-01-11 06:33:20.94	342.45	4.00	

#Closed at: 2025-01-11 06:33:21