passes_logs/2025/01/11/SPB_Silybum_02/SPB_Silybum_02__20250111_083640_TERRA_rec.log

#Pass ID: 20250111_083640_TERRA
#Satellite: TERRA
#Configuration: TERRA
#Start time: 2025-01-11 08:36:40

#Version: 2.0.20230423
#Station: SPB_Silybum_02
#Location: 30.233357 lon 59.946436 lat
#TLE: 1 25994U 99068A   25010.80464720  .00000833  00000+0  18136-3 0  9995
#TLE: 2 25994  98.0224  73.9683 0003536  80.9361 344.1935 14.60387279333461

#Time	Az	El	Level	Level2	SNR	BER	Gain	Gain2
2025-01-11 08:36:42.22	15.46	4.11	
2025-01-11 08:36:43.45	15.45	4.20	
2025-01-11 08:36:44.69	15.44	4.29	
2025-01-11 08:36:45.93	15.43	4.38	
2025-01-11 08:36:47.16	15.42	4.47	
2025-01-11 08:36:48.39	15.41	4.56	
2025-01-11 08:36:49.62	15.39	4.65	
2025-01-11 08:36:50.85	15.38	4.74	
2025-01-11 08:36:52.08	15.37	4.83	
2025-01-11 08:36:53.31	15.36	4.92	
2025-01-11 08:36:54.54	15.35	5.01	
2025-01-11 08:36:55.77	15.34	5.10	
2025-01-11 08:36:57.01	15.32	5.20	
2025-01-11 08:36:58.25	15.31	5.29	
2025-01-11 08:36:59.49	15.30	5.38	
2025-01-11 08:37:00.71	15.29	5.48	
2025-01-11 08:37:01.96	15.28	5.57	
2025-01-11 08:37:03.19	15.26	5.66	
2025-01-11 08:37:04.42	15.25	5.76	
2025-01-11 08:37:05.65	15.24	5.85	
2025-01-11 08:37:06.88	15.22	5.95	
2025-01-11 08:37:08.11	15.21	6.04	
2025-01-11 08:37:09.34	15.20	6.14	
2025-01-11 08:37:10.57	15.19	6.24	
2025-01-11 08:37:11.81	15.17	6.33	
2025-01-11 08:37:13.04	15.16	6.43	
2025-01-11 08:37:14.27	15.14	6.53	
2025-01-11 08:37:15.51	15.13	6.63	
2025-01-11 08:37:16.74	15.12	6.72	
2025-01-11 08:37:17.97	15.10	6.82	
2025-01-11 08:37:19.20	15.09	6.92	
2025-01-11 08:37:20.43	15.07	7.02	
2025-01-11 08:37:21.66	15.06	7.12	
2025-01-11 08:37:22.88	15.04	7.22	
2025-01-11 08:37:24.13	15.03	7.32	
2025-01-11 08:37:25.36	15.01	7.42	
2025-01-11 08:37:26.60	15.00	7.53	
2025-01-11 08:37:27.83	14.98	7.63	
2025-01-11 08:37:29.06	14.97	7.73	
2025-01-11 08:37:30.30	14.95	7.83	
2025-01-11 08:37:31.53	14.94	7.94	
2025-01-11 08:37:32.76	14.92	8.04	
2025-01-11 08:37:34.01	14.90	8.15	
2025-01-11 08:37:35.26	14.89	8.25	
2025-01-11 08:37:36.49	14.87	8.36	
2025-01-11 08:37:37.72	14.86	8.47	
2025-01-11 08:37:38.95	14.84	8.57	
2025-01-11 08:37:40.18	14.82	8.68	
2025-01-11 08:37:41.41	14.80	8.79	
2025-01-11 08:37:42.65	14.79	8.90	
2025-01-11 08:37:43.88	14.77	9.00	
2025-01-11 08:37:45.11	14.75	9.11	
2025-01-11 08:37:46.36	14.73	9.22	
2025-01-11 08:37:47.61	14.72	9.34	
2025-01-11 08:37:48.85	14.70	9.45	
2025-01-11 08:37:50.09	14.68	9.56	
2025-01-11 08:37:51.32	14.66	9.67	
2025-01-11 08:37:52.55	14.64	9.78	
2025-01-11 08:37:53.77	14.62	9.89	
2025-01-11 08:37:55.00	14.60	10.01	
2025-01-11 08:37:56.24	14.58	10.12	
2025-01-11 08:37:57.48	14.56	10.24	
2025-01-11 08:37:58.71	14.54	10.35	
2025-01-11 08:37:59.94	14.52	10.47	
2025-01-11 08:38:01.19	14.50	10.59	
2025-01-11 08:38:02.42	14.48	10.70	
2025-01-11 08:38:03.65	14.46	10.82	
2025-01-11 08:38:04.88	14.44	10.94	
2025-01-11 08:38:06.11	14.42	11.06	
2025-01-11 08:38:07.34	14.40	11.18	
2025-01-11 08:38:08.58	14.38	11.30	
2025-01-11 08:38:09.82	14.35	11.42	
2025-01-11 08:38:11.05	14.33	11.54	
2025-01-11 08:38:12.29	14.31	11.66	
2025-01-11 08:38:13.52	14.29	11.79	
2025-01-11 08:38:14.75	14.26	11.91	
2025-01-11 08:38:15.98	14.24	12.04	
2025-01-11 08:38:17.21	14.22	12.16	
2025-01-11 08:38:18.44	14.19	12.29	
2025-01-11 08:38:19.67	14.17	12.41	
2025-01-11 08:38:20.91	14.14	12.54	
2025-01-11 08:38:22.14	14.12	12.67	
2025-01-11 08:38:23.37	14.10	12.80	
2025-01-11 08:38:24.60	14.07	12.92	
2025-01-11 08:38:25.82	14.05	13.05	
2025-01-11 08:38:27.05	14.02	13.18	
2025-01-11 08:38:28.29	13.99	13.32	
2025-01-11 08:38:29.52	13.97	13.45	
2025-01-11 08:38:30.75	13.94	13.58	
2025-01-11 08:38:31.98	13.91	13.72	
2025-01-11 08:38:33.21	13.89	13.85	
2025-01-11 08:38:34.44	13.86	13.99	
2025-01-11 08:38:35.67	13.83	14.12	
2025-01-11 08:38:36.90	13.80	14.26	
2025-01-11 08:38:38.13	13.78	14.40	
2025-01-11 08:38:39.37	13.75	14.54	
2025-01-11 08:38:40.61	13.72	14.68	
2025-01-11 08:38:41.84	13.69	14.82	
2025-01-11 08:38:43.07	13.66	14.96	
2025-01-11 08:38:44.32	13.63	15.11	
2025-01-11 08:38:45.54	13.60	15.25	
2025-01-11 08:38:46.77	13.57	15.39	
2025-01-11 08:38:48.01	13.54	15.54	
2025-01-11 08:38:49.24	13.50	15.68	
2025-01-11 08:38:50.47	13.47	15.83	
2025-01-11 08:38:51.70	13.44	15.98	
2025-01-11 08:38:52.93	13.41	16.13	
2025-01-11 08:38:54.16	13.37	16.28	
2025-01-11 08:38:55.39	13.34	16.43	
2025-01-11 08:38:56.63	13.31	16.58	
2025-01-11 08:38:57.86	13.27	16.74	
2025-01-11 08:38:59.09	13.24	16.89	
2025-01-11 08:39:00.33	13.20	17.05	
2025-01-11 08:39:01.58	13.17	17.21	
2025-01-11 08:39:02.81	13.13	17.36	
2025-01-11 08:39:04.04	13.09	17.52	
2025-01-11 08:39:05.27	13.06	17.68	
2025-01-11 08:39:06.51	13.02	17.84	
2025-01-11 08:39:07.74	12.98	18.01	
2025-01-11 08:39:08.99	12.94	18.17	
2025-01-11 08:39:10.22	12.90	18.34	
2025-01-11 08:39:11.46	12.86	18.50	
2025-01-11 08:39:12.69	12.82	18.67	
2025-01-11 08:39:13.95	12.78	18.84	
2025-01-11 08:39:15.18	12.74	19.01	
2025-01-11 08:39:16.41	12.70	19.18	
2025-01-11 08:39:17.64	12.66	19.35	
2025-01-11 08:39:18.89	12.61	19.53	
2025-01-11 08:39:20.12	12.57	19.71	
2025-01-11 08:39:21.34	12.52	19.88	
2025-01-11 08:39:22.59	12.48	20.06	
2025-01-11 08:39:23.82	12.43	20.24	
2025-01-11 08:39:25.05	12.39	20.42	
2025-01-11 08:39:26.28	12.34	20.60	
2025-01-11 08:39:27.53	12.29	20.79	
2025-01-11 08:39:28.76	12.25	20.97	
2025-01-11 08:39:29.99	12.20	21.16	
2025-01-11 08:39:31.22	12.15	21.34	
2025-01-11 08:39:32.45	12.10	21.53	
2025-01-11 08:39:33.69	12.05	21.72	
2025-01-11 08:39:34.92	12.00	21.92	
2025-01-11 08:39:36.15	11.95	22.11	
2025-01-11 08:39:37.38	11.89	22.30	
2025-01-11 08:39:38.61	11.84	22.50	
2025-01-11 08:39:39.84	11.79	22.70	
2025-01-11 08:39:41.07	11.73	22.90	
2025-01-11 08:39:42.30	11.67	23.10	
2025-01-11 08:39:43.54	11.62	23.31	
2025-01-11 08:39:44.77	11.56	23.51	
2025-01-11 08:39:46.00	11.50	23.72	
2025-01-11 08:39:47.24	11.44	23.93	
2025-01-11 08:39:48.47	11.38	24.14	
2025-01-11 08:39:49.70	11.32	24.35	
2025-01-11 08:39:50.94	11.26	24.57	
2025-01-11 08:39:52.17	11.20	24.78	
2025-01-11 08:39:53.41	11.13	25.00	
2025-01-11 08:39:54.64	11.07	25.22	
2025-01-11 08:39:55.87	11.00	25.44	
2025-01-11 08:39:57.11	10.93	25.67	
2025-01-11 08:39:58.34	10.87	25.89	
2025-01-11 08:39:59.57	10.80	26.12	
2025-01-11 08:40:00.79	10.73	26.35	
2025-01-11 08:40:02.03	10.65	26.58	
2025-01-11 08:40:03.26	10.58	26.82	
2025-01-11 08:40:04.49	10.51	27.05	
2025-01-11 08:40:05.72	10.43	27.29	
2025-01-11 08:40:06.96	10.36	27.53	
2025-01-11 08:40:08.19	10.28	27.77	
2025-01-11 08:40:09.43	10.20	28.02	
2025-01-11 08:40:10.66	10.12	28.27	
2025-01-11 08:40:11.90	10.04	28.52	
2025-01-11 08:40:13.12	9.96	28.77	
2025-01-11 08:40:14.36	9.87	29.03	
2025-01-11 08:40:15.61	9.78	29.29	
2025-01-11 08:40:16.84	9.70	29.55	
2025-01-11 08:40:18.06	9.61	29.81	
2025-01-11 08:40:19.30	9.52	30.07	
2025-01-11 08:40:20.52	9.43	30.34	
2025-01-11 08:40:21.75	9.33	30.61	
2025-01-11 08:40:22.99	9.24	30.88	
2025-01-11 08:40:24.21	9.14	31.15	
2025-01-11 08:40:25.44	9.04	31.43	
2025-01-11 08:40:26.67	8.94	31.71	
2025-01-11 08:40:27.90	8.84	31.99	
2025-01-11 08:40:29.13	8.73	32.28	
2025-01-11 08:40:30.36	8.63	32.57	
2025-01-11 08:40:31.59	8.52	32.86	
2025-01-11 08:40:32.83	8.40	33.16	
2025-01-11 08:40:34.06	8.29	33.45	
2025-01-11 08:40:35.30	8.18	33.76	
2025-01-11 08:40:36.53	8.06	34.06	
2025-01-11 08:40:37.76	7.94	34.37	
2025-01-11 08:40:38.99	7.82	34.68	
2025-01-11 08:40:40.23	7.69	34.99	
2025-01-11 08:40:41.47	7.56	35.31	
2025-01-11 08:40:42.70	7.43	35.63	
2025-01-11 08:40:43.93	7.30	35.95	
2025-01-11 08:40:45.17	7.16	36.28	
2025-01-11 08:40:46.39	7.02	36.60	
2025-01-11 08:40:47.62	6.88	36.94	
2025-01-11 08:40:48.85	6.74	37.27	
2025-01-11 08:40:50.08	6.59	37.61	
2025-01-11 08:40:51.31	6.44	37.95	
2025-01-11 08:40:52.54	6.28	38.30	
2025-01-11 08:40:53.77	6.12	38.65	
2025-01-11 08:40:55.00	5.96	39.00	
2025-01-11 08:40:56.23	5.80	39.36	
2025-01-11 08:40:57.47	5.63	39.72	
2025-01-11 08:40:58.72	5.45	40.09	
2025-01-11 08:40:59.95	5.27	40.46	
2025-01-11 08:41:01.20	5.09	40.84	
2025-01-11 08:41:02.42	4.90	41.21	
2025-01-11 08:41:03.65	4.71	41.59	
2025-01-11 08:41:04.89	4.51	41.98	
2025-01-11 08:41:06.11	4.31	42.36	
2025-01-11 08:41:07.34	4.11	42.75	
2025-01-11 08:41:08.57	3.90	43.15	
2025-01-11 08:41:09.80	3.68	43.54	
2025-01-11 08:41:11.04	3.46	43.95	
2025-01-11 08:41:12.28	3.23	44.36	
2025-01-11 08:41:13.50	3.00	44.77	
2025-01-11 08:41:14.74	2.75	45.18	
2025-01-11 08:41:15.97	2.51	45.60	
2025-01-11 08:41:17.20	2.25	46.02	
2025-01-11 08:41:18.43	1.99	46.45	
2025-01-11 08:41:19.66	1.72	46.88	
2025-01-11 08:41:20.89	1.44	47.32	
2025-01-11 08:41:22.12	1.16	47.75	
2025-01-11 08:41:23.36	0.86	48.20	
2025-01-11 08:41:24.59	0.56	48.65	
2025-01-11 08:41:25.82	0.25	49.10	
2025-01-11 08:41:27.05	359.93	49.55	
2025-01-11 08:41:28.28	359.60	50.01	
2025-01-11 08:41:29.51	359.26	50.47	
2025-01-11 08:41:30.74	358.91	50.93	
2025-01-11 08:41:31.98	358.54	51.41	
2025-01-11 08:41:33.21	358.17	51.88	
2025-01-11 08:41:34.44	357.78	52.36	
2025-01-11 08:41:35.68	357.38	52.84	
2025-01-11 08:41:36.91	356.96	53.32	
2025-01-11 08:41:38.13	356.54	53.80	
2025-01-11 08:41:39.38	356.09	54.30	
2025-01-11 08:41:40.62	355.62	54.80	
2025-01-11 08:41:41.86	355.14	55.30	
2025-01-11 08:41:43.08	354.65	55.79	
2025-01-11 08:41:44.31	354.14	56.29	
2025-01-11 08:41:45.57	353.60	56.81	
2025-01-11 08:41:46.79	353.05	57.31	
2025-01-11 08:41:48.04	352.47	57.83	
2025-01-11 08:41:49.27	351.87	58.34	
2025-01-11 08:41:50.50	351.25	58.85	
2025-01-11 08:41:51.74	350.61	59.36	
2025-01-11 08:41:52.97	349.94	59.88	
2025-01-11 08:41:54.19	349.24	60.39	
2025-01-11 08:41:55.44	348.51	60.91	
2025-01-11 08:41:56.68	347.74	61.43	
2025-01-11 08:41:57.91	346.95	61.94	
2025-01-11 08:41:59.14	346.13	62.46	
2025-01-11 08:42:00.38	345.26	62.97	
2025-01-11 08:42:01.61	344.36	63.48	
2025-01-11 08:42:02.84	343.42	63.99	
2025-01-11 08:42:04.07	342.44	64.49	
2025-01-11 08:42:05.30	341.42	65.00	
2025-01-11 08:42:06.55	340.33	65.50	
2025-01-11 08:42:07.78	339.20	65.99	
2025-01-11 08:42:09.01	338.03	66.48	
2025-01-11 08:42:10.24	336.80	66.96	
2025-01-11 08:42:11.47	335.51	67.43	
2025-01-11 08:42:12.70	334.17	67.90	
2025-01-11 08:42:13.93	332.76	68.35	
2025-01-11 08:42:15.16	331.28	68.80	
2025-01-11 08:42:16.40	329.73	69.24	
2025-01-11 08:42:17.63	328.11	69.66	
2025-01-11 08:42:18.88	326.40	70.07	
2025-01-11 08:42:20.11	324.64	70.46	
2025-01-11 08:42:21.34	322.80	70.84	
2025-01-11 08:42:22.57	320.89	71.19	
2025-01-11 08:42:23.82	318.86	71.54	
2025-01-11 08:42:25.05	316.79	71.85	
2025-01-11 08:42:26.28	314.65	72.15	
2025-01-11 08:42:27.51	312.43	72.42	
2025-01-11 08:42:28.74	310.15	72.66	
2025-01-11 08:42:29.99	307.75	72.88	
2025-01-11 08:42:31.21	305.36	73.07	
2025-01-11 08:42:32.45	302.87	73.24	
2025-01-11 08:42:33.69	300.34	73.37	
2025-01-11 08:42:34.92	297.79	73.47	
2025-01-11 08:42:36.15	295.21	73.54	
2025-01-11 08:42:37.38	292.62	73.57	
2025-01-11 08:42:38.61	290.02	73.58	
2025-01-11 08:42:39.85	287.40	73.55	
2025-01-11 08:42:41.10	284.77	73.49	
2025-01-11 08:42:42.33	282.22	73.39	
2025-01-11 08:42:43.56	279.69	73.27	
2025-01-11 08:42:44.81	277.17	73.11	
2025-01-11 08:42:46.05	274.73	72.93	
2025-01-11 08:42:47.30	272.32	72.71	
2025-01-11 08:42:48.53	270.02	72.47	
2025-01-11 08:42:49.76	267.79	72.20	
2025-01-11 08:42:50.99	265.63	71.91	
2025-01-11 08:42:52.22	263.54	71.60	
2025-01-11 08:42:53.45	261.53	71.27	
2025-01-11 08:42:54.68	259.60	70.92	
2025-01-11 08:42:55.90	257.76	70.55	
2025-01-11 08:42:57.13	255.98	70.16	
2025-01-11 08:42:58.36	254.27	69.76	
2025-01-11 08:42:59.59	252.64	69.34	
2025-01-11 08:43:00.82	251.08	68.91	
2025-01-11 08:43:02.05	249.58	68.46	
2025-01-11 08:43:03.27	248.17	68.01	
2025-01-11 08:43:04.51	246.79	67.55	
2025-01-11 08:43:05.74	245.49	67.07	
2025-01-11 08:43:06.98	244.23	66.59	
2025-01-11 08:43:08.22	243.04	66.10	
2025-01-11 08:43:09.45	241.90	65.61	
2025-01-11 08:43:10.67	240.82	65.12	
2025-01-11 08:43:11.91	239.78	64.61	
2025-01-11 08:43:13.14	238.78	64.10	
2025-01-11 08:43:14.37	237.83	63.60	
2025-01-11 08:43:15.61	236.92	63.08	
2025-01-11 08:43:16.84	236.05	62.57	
2025-01-11 08:43:18.07	235.21	62.05	
2025-01-11 08:43:19.30	234.41	61.54	
2025-01-11 08:43:20.53	233.65	61.02	
2025-01-11 08:43:21.76	232.91	60.51	
2025-01-11 08:43:22.99	232.20	59.99	
2025-01-11 08:43:24.22	231.53	59.48	
2025-01-11 08:43:25.46	230.87	58.96	
2025-01-11 08:43:26.71	230.23	58.44	
2025-01-11 08:43:27.93	229.64	57.93	
2025-01-11 08:43:29.16	229.06	57.42	
2025-01-11 08:43:30.39	228.50	56.91	
2025-01-11 08:43:31.63	227.96	56.40	
2025-01-11 08:43:32.86	227.44	55.90	
2025-01-11 08:43:34.08	226.95	55.40	
2025-01-11 08:43:35.31	226.46	54.91	
2025-01-11 08:43:36.54	226.00	54.41	
2025-01-11 08:43:37.77	225.55	53.92	
2025-01-11 08:43:39.02	225.11	53.42	
2025-01-11 08:43:40.26	224.69	52.93	
2025-01-11 08:43:41.48	224.29	52.46	
2025-01-11 08:43:42.71	223.89	51.98	
2025-01-11 08:43:43.94	223.52	51.50	
2025-01-11 08:43:45.17	223.15	51.03	
2025-01-11 08:43:46.40	222.79	50.56	
2025-01-11 08:43:47.63	222.45	50.10	
2025-01-11 08:43:48.86	222.11	49.64	
2025-01-11 08:43:50.09	221.79	49.18	
2025-01-11 08:43:51.32	221.48	48.73	
2025-01-11 08:43:52.55	221.17	48.28	
2025-01-11 08:43:53.79	220.87	47.83	
2025-01-11 08:43:55.04	220.58	47.38	
2025-01-11 08:43:56.27	220.30	46.95	
2025-01-11 08:43:57.50	220.03	46.52	
2025-01-11 08:43:58.74	219.76	46.08	
2025-01-11 08:43:59.99	219.50	45.65	
2025-01-11 08:44:01.22	219.25	45.23	
2025-01-11 08:44:02.45	219.01	44.81	
2025-01-11 08:44:03.69	218.77	44.40	
2025-01-11 08:44:04.92	218.54	43.99	
2025-01-11 08:44:06.15	218.32	43.58	
2025-01-11 08:44:07.38	218.10	43.18	
2025-01-11 08:44:08.62	217.88	42.78	
2025-01-11 08:44:09.86	217.67	42.39	
2025-01-11 08:44:11.09	217.47	42.00	
2025-01-11 08:44:12.32	217.27	41.61	
2025-01-11 08:44:13.56	217.08	41.23	
2025-01-11 08:44:14.79	216.89	40.85	
2025-01-11 08:44:16.02	216.71	40.48	
2025-01-11 08:44:17.25	216.53	40.11	
2025-01-11 08:44:18.48	216.35	39.74	
2025-01-11 08:44:19.71	216.18	39.38	
2025-01-11 08:44:20.94	216.02	39.02	
2025-01-11 08:44:22.17	215.85	38.66	
2025-01-11 08:44:23.40	215.69	38.31	
2025-01-11 08:44:24.63	215.54	37.97	
2025-01-11 08:44:25.86	215.38	37.62	
2025-01-11 08:44:27.10	215.23	37.28	
2025-01-11 08:44:28.33	215.09	36.94	
2025-01-11 08:44:29.56	214.95	36.60	
2025-01-11 08:44:30.80	214.80	36.27	
2025-01-11 08:44:32.05	214.66	35.94	
2025-01-11 08:44:33.30	214.53	35.61	
2025-01-11 08:44:34.52	214.40	35.29	
2025-01-11 08:44:35.75	214.27	34.97	
2025-01-11 08:44:37.00	214.14	34.65	
2025-01-11 08:44:38.26	214.02	34.34	
2025-01-11 08:44:39.49	213.89	34.03	
2025-01-11 08:44:40.72	213.78	33.72	
2025-01-11 08:44:41.95	213.66	33.42	
2025-01-11 08:44:43.18	213.55	33.12	
2025-01-11 08:44:44.41	213.43	32.83	
2025-01-11 08:44:45.64	213.32	32.53	
2025-01-11 08:44:46.87	213.22	32.24	
2025-01-11 08:44:48.12	213.11	31.95	
2025-01-11 08:44:49.36	213.00	31.66	
2025-01-11 08:44:50.60	212.90	31.38	
2025-01-11 08:44:51.83	212.80	31.10	
2025-01-11 08:44:53.06	212.70	30.83	
2025-01-11 08:44:54.29	212.61	30.55	
2025-01-11 08:44:55.53	212.51	30.28	
2025-01-11 08:44:56.76	212.42	30.01	
2025-01-11 08:44:57.99	212.33	29.75	
2025-01-11 08:44:59.22	212.24	29.48	
2025-01-11 08:45:00.46	212.15	29.22	
2025-01-11 08:45:01.70	212.06	28.96	
2025-01-11 08:45:02.92	211.98	28.71	
2025-01-11 08:45:04.15	211.89	28.45	
2025-01-11 08:45:05.38	211.81	28.20	
2025-01-11 08:45:06.61	211.73	27.96	
2025-01-11 08:45:07.84	211.65	27.71	
2025-01-11 08:45:09.07	211.57	27.47	
2025-01-11 08:45:10.30	211.50	27.22	
2025-01-11 08:45:11.54	211.42	26.98	
2025-01-11 08:45:12.77	211.34	26.75	
2025-01-11 08:45:14.01	211.27	26.51	
2025-01-11 08:45:15.24	211.20	26.28	
2025-01-11 08:45:16.48	211.13	26.04	
2025-01-11 08:45:17.72	211.06	25.81	
2025-01-11 08:45:18.95	210.99	25.59	
2025-01-11 08:45:20.18	210.92	25.36	
2025-01-11 08:45:21.41	210.85	25.14	
2025-01-11 08:45:22.64	210.79	24.92	
2025-01-11 08:45:23.87	210.72	24.70	
2025-01-11 08:45:25.10	210.66	24.48	
2025-01-11 08:45:26.34	210.60	24.27	
2025-01-11 08:45:27.59	210.53	24.05	
2025-01-11 08:45:28.82	210.47	23.84	
2025-01-11 08:45:30.05	210.41	23.63	
2025-01-11 08:45:31.28	210.35	23.42	
2025-01-11 08:45:32.51	210.30	23.22	
2025-01-11 08:45:33.74	210.24	23.01	
2025-01-11 08:45:34.97	210.18	22.81	
2025-01-11 08:45:36.20	210.13	22.61	
2025-01-11 08:45:37.43	210.07	22.41	
2025-01-11 08:45:38.67	210.02	22.21	
2025-01-11 08:45:39.90	209.96	22.02	
2025-01-11 08:45:41.13	209.91	21.82	
2025-01-11 08:45:42.35	209.86	21.63	
2025-01-11 08:45:43.58	209.81	21.44	
2025-01-11 08:45:44.82	209.76	21.25	
2025-01-11 08:45:46.07	209.71	21.06	
2025-01-11 08:45:47.30	209.66	20.87	
2025-01-11 08:45:48.52	209.61	20.69	
2025-01-11 08:45:49.77	209.56	20.50	
2025-01-11 08:45:51.01	209.51	20.32	
2025-01-11 08:45:52.24	209.47	20.14	
2025-01-11 08:45:53.48	209.42	19.96	
2025-01-11 08:45:54.71	209.37	19.78	
2025-01-11 08:45:55.95	209.33	19.60	
2025-01-11 08:45:57.18	209.29	19.42	
2025-01-11 08:45:58.41	209.24	19.25	
2025-01-11 08:45:59.65	209.20	19.08	
2025-01-11 08:46:00.89	209.16	18.90	
2025-01-11 08:46:02.14	209.11	18.73	
2025-01-11 08:46:03.37	209.07	18.56	
2025-01-11 08:46:04.61	209.03	18.39	
2025-01-11 08:46:05.84	208.99	18.23	
2025-01-11 08:46:07.07	208.95	18.06	
2025-01-11 08:46:08.30	208.91	17.90	
2025-01-11 08:46:09.53	208.87	17.74	
2025-01-11 08:46:10.77	208.83	17.57	
2025-01-11 08:46:12.01	208.80	17.41	
2025-01-11 08:46:13.25	208.76	17.25	
2025-01-11 08:46:14.48	208.72	17.09	
2025-01-11 08:46:15.71	208.68	16.94	
2025-01-11 08:46:16.94	208.65	16.78	
2025-01-11 08:46:18.18	208.61	16.62	
2025-01-11 08:46:19.42	208.58	16.47	
2025-01-11 08:46:20.65	208.54	16.32	
2025-01-11 08:46:21.88	208.51	16.16	
2025-01-11 08:46:23.11	208.47	16.01	
2025-01-11 08:46:24.34	208.44	15.86	
2025-01-11 08:46:25.57	208.41	15.72	
2025-01-11 08:46:26.80	208.37	15.57	
2025-01-11 08:46:28.05	208.34	15.42	
2025-01-11 08:46:29.27	208.31	15.27	
2025-01-11 08:46:30.50	208.28	15.13	
2025-01-11 08:46:31.74	208.25	14.98	
2025-01-11 08:46:32.96	208.21	14.84	
2025-01-11 08:46:34.20	208.18	14.70	
2025-01-11 08:46:35.43	208.15	14.56	
2025-01-11 08:46:36.66	208.12	14.42	
2025-01-11 08:46:37.89	208.09	14.28	
2025-01-11 08:46:39.12	208.06	14.14	
2025-01-11 08:46:40.36	208.04	14.00	
2025-01-11 08:46:41.59	208.01	13.87	
2025-01-11 08:46:42.82	207.98	13.73	
2025-01-11 08:46:44.05	207.95	13.59	
2025-01-11 08:46:45.28	207.92	13.46	
2025-01-11 08:46:46.51	207.90	13.33	
2025-01-11 08:46:47.75	207.87	13.19	
2025-01-11 08:46:48.99	207.84	13.06	
2025-01-11 08:46:50.23	207.81	12.93	
2025-01-11 08:46:51.48	207.79	12.80	
2025-01-11 08:46:52.70	207.76	12.67	
2025-01-11 08:46:53.94	207.74	12.54	
2025-01-11 08:46:55.17	207.71	12.41	
2025-01-11 08:46:56.40	207.69	12.28	
2025-01-11 08:46:57.63	207.66	12.15	
2025-01-11 08:46:58.87	207.64	12.03	
2025-01-11 08:47:00.10	207.61	11.90	
2025-01-11 08:47:01.33	207.59	11.78	
2025-01-11 08:47:02.56	207.56	11.65	
2025-01-11 08:47:03.79	207.54	11.53	
2025-01-11 08:47:05.02	207.52	11.41	
2025-01-11 08:47:06.25	207.49	11.29	
2025-01-11 08:47:07.49	207.47	11.17	
2025-01-11 08:47:08.72	207.45	11.05	
2025-01-11 08:47:09.96	207.43	10.92	
2025-01-11 08:47:11.19	207.40	10.81	
2025-01-11 08:47:12.43	207.38	10.69	
2025-01-11 08:47:13.66	207.36	10.57	
2025-01-11 08:47:14.90	207.34	10.45	
2025-01-11 08:47:16.13	207.32	10.33	
2025-01-11 08:47:17.35	207.30	10.22	
2025-01-11 08:47:18.59	207.27	10.10	
2025-01-11 08:47:19.82	207.25	9.99	
2025-01-11 08:47:21.05	207.23	9.87	
2025-01-11 08:47:22.28	207.21	9.76	
2025-01-11 08:47:23.51	207.19	9.65	
2025-01-11 08:47:24.75	207.17	9.53	
2025-01-11 08:47:25.98	207.15	9.42	
2025-01-11 08:47:27.21	207.13	9.31	
2025-01-11 08:47:28.44	207.11	9.20	
2025-01-11 08:47:29.68	207.10	9.09	
2025-01-11 08:47:30.91	207.08	8.98	
2025-01-11 08:47:32.15	207.06	8.87	
2025-01-11 08:47:33.38	207.04	8.76	
2025-01-11 08:47:34.61	207.02	8.65	
2025-01-11 08:47:35.84	207.00	8.54	
2025-01-11 08:47:37.07	206.98	8.44	
2025-01-11 08:47:38.31	206.97	8.33	
2025-01-11 08:47:39.54	206.95	8.22	
2025-01-11 08:47:40.76	206.93	8.12	
2025-01-11 08:47:41.99	206.91	8.01	
2025-01-11 08:47:43.23	206.90	7.91	
2025-01-11 08:47:44.46	206.88	7.80	
2025-01-11 08:47:45.69	206.86	7.70	
2025-01-11 08:47:46.94	206.85	7.59	
2025-01-11 08:47:48.18	206.83	7.49	
2025-01-11 08:47:49.42	206.81	7.39	
2025-01-11 08:47:50.65	206.80	7.29	
2025-01-11 08:47:51.90	206.78	7.18	
2025-01-11 08:47:53.13	206.76	7.08	
2025-01-11 08:47:54.36	206.75	6.98	
2025-01-11 08:47:55.59	206.73	6.88	
2025-01-11 08:47:56.82	206.72	6.78	
2025-01-11 08:47:58.06	206.70	6.68	
2025-01-11 08:47:59.29	206.69	6.58	
2025-01-11 08:48:00.52	206.67	6.48	
2025-01-11 08:48:01.75	206.66	6.39	
2025-01-11 08:48:02.98	206.64	6.29	
2025-01-11 08:48:04.21	206.63	6.19	
2025-01-11 08:48:05.45	206.61	6.09	
2025-01-11 08:48:06.68	206.60	6.00	
2025-01-11 08:48:07.91	206.58	5.90	
2025-01-11 08:48:09.16	206.57	5.80	
2025-01-11 08:48:10.39	206.55	5.71	
2025-01-11 08:48:11.63	206.54	5.61	
2025-01-11 08:48:12.86	206.53	5.52	
2025-01-11 08:48:14.09	206.51	5.42	
2025-01-11 08:48:15.32	206.50	5.33	
2025-01-11 08:48:16.55	206.49	5.24	
2025-01-11 08:48:17.79	206.47	5.14	
2025-01-11 08:48:19.02	206.46	5.05	
2025-01-11 08:48:20.24	206.45	4.96	
2025-01-11 08:48:21.49	206.43	4.87	
2025-01-11 08:48:22.72	206.42	4.78	
2025-01-11 08:48:23.95	206.41	4.68	
2025-01-11 08:48:25.18	206.39	4.59	
2025-01-11 08:48:26.41	206.38	4.50	
2025-01-11 08:48:27.64	206.37	4.41	
2025-01-11 08:48:28.89	206.36	4.32	
2025-01-11 08:48:30.11	206.34	4.23	
2025-01-11 08:48:31.35	206.33	4.14	
2025-01-11 08:48:32.58	206.32	4.05	

#Closed at: 2025-01-11 08:48:33