passes_logs/2025/01/11/SPB_Silybum_02/SPB_Silybum_02__20250111_112127_SUOMI_NPP_rec.log

#Pass ID: 20250111_112127_SUOMI NPP
#Satellite: SUOMI NPP
#Configuration: NPP
#Start time: 2025-01-11 11:21:26

#Version: 2.0.20230423
#Station: SPB_Silybum_02
#Location: 30.233357 lon 59.946436 lat
#TLE: 1 37849U 11061A   25010.83173011  .00000170  00000+0  10148-3 0  9996
#TLE: 2 37849  98.7441 311.8732 0001811  47.3940 312.7388 14.19536379684322

#Time	Az	El	Level	Level2	SNR	BER	Gain	Gain2
2025-01-11 11:21:28.77	191.50	4.08	
2025-01-11 11:21:30.21	191.58	4.17	
2025-01-11 11:21:31.65	191.66	4.26	
2025-01-11 11:21:33.08	191.73	4.36	
2025-01-11 11:21:34.52	191.81	4.45	
2025-01-11 11:21:35.95	191.89	4.54	
2025-01-11 11:21:37.40	191.97	4.64	
2025-01-11 11:21:38.83	192.05	4.73	
2025-01-11 11:21:40.27	192.13	4.83	
2025-01-11 11:21:41.73	192.21	4.93	
2025-01-11 11:21:43.17	192.29	5.02	
2025-01-11 11:21:44.60	192.37	5.12	
2025-01-11 11:21:46.04	192.45	5.21	
2025-01-11 11:21:47.47	192.54	5.31	
2025-01-11 11:21:48.91	192.62	5.41	
2025-01-11 11:21:50.34	192.70	5.50	
2025-01-11 11:21:51.78	192.79	5.60	
2025-01-11 11:21:53.22	192.87	5.70	
2025-01-11 11:21:54.67	192.96	5.80	
2025-01-11 11:21:56.10	193.04	5.90	
2025-01-11 11:21:57.53	193.13	6.00	
2025-01-11 11:21:58.97	193.22	6.10	
2025-01-11 11:22:00.42	193.30	6.20	
2025-01-11 11:22:01.85	193.39	6.30	
2025-01-11 11:22:03.29	193.48	6.40	
2025-01-11 11:22:04.72	193.57	6.50	
2025-01-11 11:22:06.15	193.66	6.60	
2025-01-11 11:22:07.59	193.75	6.70	
2025-01-11 11:22:09.02	193.84	6.80	
2025-01-11 11:22:10.46	193.93	6.90	
2025-01-11 11:22:11.89	194.02	7.00	
2025-01-11 11:22:13.33	194.11	7.11	
2025-01-11 11:22:14.78	194.21	7.21	
2025-01-11 11:22:16.21	194.30	7.31	
2025-01-11 11:22:17.64	194.40	7.42	
2025-01-11 11:22:19.08	194.49	7.52	
2025-01-11 11:22:20.53	194.59	7.63	
2025-01-11 11:22:21.96	194.68	7.73	
2025-01-11 11:22:23.40	194.78	7.83	
2025-01-11 11:22:24.83	194.88	7.94	
2025-01-11 11:22:26.26	194.98	8.05	
2025-01-11 11:22:27.70	195.07	8.15	
2025-01-11 11:22:29.14	195.17	8.26	
2025-01-11 11:22:30.58	195.28	8.37	
2025-01-11 11:22:32.03	195.38	8.47	
2025-01-11 11:22:33.47	195.48	8.58	
2025-01-11 11:22:34.91	195.58	8.69	
2025-01-11 11:22:36.35	195.69	8.80	
2025-01-11 11:22:37.78	195.79	8.91	
2025-01-11 11:22:39.22	195.89	9.02	
2025-01-11 11:22:40.65	196.00	9.13	
2025-01-11 11:22:42.09	196.11	9.24	
2025-01-11 11:22:43.52	196.21	9.35	
2025-01-11 11:22:44.95	196.32	9.46	
2025-01-11 11:22:46.39	196.43	9.57	
2025-01-11 11:22:47.83	196.54	9.68	
2025-01-11 11:22:49.27	196.65	9.79	
2025-01-11 11:22:50.70	196.76	9.91	
2025-01-11 11:22:52.15	196.87	10.02	
2025-01-11 11:22:53.59	196.99	10.13	
2025-01-11 11:22:55.04	197.10	10.25	
2025-01-11 11:22:56.47	197.21	10.36	
2025-01-11 11:22:57.91	197.33	10.48	
2025-01-11 11:22:59.35	197.45	10.59	
2025-01-11 11:23:00.80	197.57	10.71	
2025-01-11 11:23:02.23	197.68	10.83	
2025-01-11 11:23:03.68	197.80	10.94	
2025-01-11 11:23:05.12	197.92	11.06	
2025-01-11 11:23:06.56	198.04	11.18	
2025-01-11 11:23:07.99	198.16	11.30	
2025-01-11 11:23:09.43	198.29	11.42	
2025-01-11 11:23:10.86	198.41	11.53	
2025-01-11 11:23:12.30	198.53	11.65	
2025-01-11 11:23:13.73	198.66	11.77	
2025-01-11 11:23:15.17	198.79	11.89	
2025-01-11 11:23:16.60	198.91	12.01	
2025-01-11 11:23:18.04	199.04	12.13	
2025-01-11 11:23:19.49	199.17	12.26	
2025-01-11 11:23:20.94	199.30	12.38	
2025-01-11 11:23:22.37	199.44	12.50	
2025-01-11 11:23:23.81	199.57	12.63	
2025-01-11 11:23:25.26	199.70	12.75	
2025-01-11 11:23:26.70	199.84	12.88	
2025-01-11 11:23:28.13	199.97	13.00	
2025-01-11 11:23:29.57	200.11	13.13	
2025-01-11 11:23:31.00	200.25	13.25	
2025-01-11 11:23:32.45	200.39	13.38	
2025-01-11 11:23:33.88	200.53	13.50	
2025-01-11 11:23:35.33	200.67	13.63	
2025-01-11 11:23:36.76	200.81	13.76	
2025-01-11 11:23:38.19	200.96	13.89	
2025-01-11 11:23:39.63	201.10	14.02	
2025-01-11 11:23:41.07	201.25	14.15	
2025-01-11 11:23:42.50	201.40	14.27	
2025-01-11 11:23:43.94	201.54	14.40	
2025-01-11 11:23:45.37	201.69	14.54	
2025-01-11 11:23:46.82	201.85	14.67	
2025-01-11 11:23:48.26	202.00	14.80	
2025-01-11 11:23:49.69	202.15	14.93	
2025-01-11 11:23:51.13	202.31	15.06	
2025-01-11 11:23:52.59	202.47	15.20	
2025-01-11 11:23:54.02	202.62	15.33	
2025-01-11 11:23:55.47	202.79	15.47	
2025-01-11 11:23:56.91	202.95	15.61	
2025-01-11 11:23:58.34	203.11	15.74	
2025-01-11 11:23:59.78	203.27	15.88	
2025-01-11 11:24:01.21	203.44	16.01	
2025-01-11 11:24:02.65	203.60	16.15	
2025-01-11 11:24:04.09	203.77	16.29	
2025-01-11 11:24:05.52	203.94	16.43	
2025-01-11 11:24:06.96	204.11	16.57	
2025-01-11 11:24:08.39	204.28	16.70	
2025-01-11 11:24:09.83	204.46	16.84	
2025-01-11 11:24:11.26	204.63	16.98	
2025-01-11 11:24:12.70	204.81	17.13	
2025-01-11 11:24:14.13	204.99	17.27	
2025-01-11 11:24:15.57	205.17	17.41	
2025-01-11 11:24:17.01	205.35	17.55	
2025-01-11 11:24:18.44	205.53	17.70	
2025-01-11 11:24:19.88	205.72	17.84	
2025-01-11 11:24:21.31	205.91	17.98	
2025-01-11 11:24:22.78	206.10	18.13	
2025-01-11 11:24:24.22	206.29	18.28	
2025-01-11 11:24:25.66	206.48	18.43	
2025-01-11 11:24:27.09	206.68	18.57	
2025-01-11 11:24:28.53	206.87	18.72	
2025-01-11 11:24:29.96	207.07	18.87	
2025-01-11 11:24:31.40	207.27	19.01	
2025-01-11 11:24:32.83	207.47	19.16	
2025-01-11 11:24:34.27	207.68	19.31	
2025-01-11 11:24:35.70	207.88	19.46	
2025-01-11 11:24:37.14	208.09	19.61	
2025-01-11 11:24:38.58	208.30	19.77	
2025-01-11 11:24:40.01	208.51	19.92	
2025-01-11 11:24:41.45	208.73	20.07	
2025-01-11 11:24:42.89	208.94	20.22	
2025-01-11 11:24:44.33	209.16	20.38	
2025-01-11 11:24:45.77	209.38	20.53	
2025-01-11 11:24:47.21	209.60	20.68	
2025-01-11 11:24:48.64	209.83	20.84	
2025-01-11 11:24:50.08	210.05	21.00	
2025-01-11 11:24:51.53	210.28	21.15	
2025-01-11 11:24:52.97	210.52	21.31	
2025-01-11 11:24:54.40	210.75	21.47	
2025-01-11 11:24:55.83	210.98	21.62	
2025-01-11 11:24:57.26	211.22	21.78	
2025-01-11 11:24:58.70	211.46	21.94	
2025-01-11 11:25:00.13	211.70	22.10	
2025-01-11 11:25:01.58	211.95	22.26	
2025-01-11 11:25:03.03	212.20	22.42	
2025-01-11 11:25:04.46	212.45	22.58	
2025-01-11 11:25:05.92	212.71	22.74	
2025-01-11 11:25:07.37	212.96	22.91	
2025-01-11 11:25:08.80	213.22	23.07	
2025-01-11 11:25:10.24	213.48	23.23	
2025-01-11 11:25:11.67	213.74	23.39	
2025-01-11 11:25:13.11	214.01	23.55	
2025-01-11 11:25:14.54	214.28	23.72	
2025-01-11 11:25:15.98	214.55	23.88	
2025-01-11 11:25:17.43	214.83	24.05	
2025-01-11 11:25:18.86	215.10	24.21	
2025-01-11 11:25:20.30	215.38	24.38	
2025-01-11 11:25:21.74	215.66	24.54	
2025-01-11 11:25:23.17	215.95	24.71	
2025-01-11 11:25:24.61	216.24	24.87	
2025-01-11 11:25:26.04	216.53	25.04	
2025-01-11 11:25:27.48	216.82	25.21	
2025-01-11 11:25:28.93	217.12	25.37	
2025-01-11 11:25:30.38	217.43	25.54	
2025-01-11 11:25:31.81	217.73	25.71	
2025-01-11 11:25:33.25	218.04	25.88	
2025-01-11 11:25:34.69	218.35	26.04	
2025-01-11 11:25:36.13	218.66	26.21	
2025-01-11 11:25:37.56	218.98	26.38	
2025-01-11 11:25:38.99	219.29	26.55	
2025-01-11 11:25:40.43	219.62	26.72	
2025-01-11 11:25:41.87	219.95	26.88	
2025-01-11 11:25:43.32	220.28	27.05	
2025-01-11 11:25:44.76	220.61	27.22	
2025-01-11 11:25:46.19	220.95	27.39	
2025-01-11 11:25:47.62	221.29	27.56	
2025-01-11 11:25:49.06	221.63	27.73	
2025-01-11 11:25:50.50	221.98	27.89	
2025-01-11 11:25:51.93	222.33	28.06	
2025-01-11 11:25:53.37	222.68	28.23	
2025-01-11 11:25:54.81	223.04	28.40	
2025-01-11 11:25:56.25	223.41	28.57	
2025-01-11 11:25:57.69	223.77	28.73	
2025-01-11 11:25:59.13	224.14	28.90	
2025-01-11 11:26:00.56	224.51	29.07	
2025-01-11 11:26:02.00	224.89	29.23	
2025-01-11 11:26:03.44	225.27	29.40	
2025-01-11 11:26:04.87	225.66	29.57	
2025-01-11 11:26:06.30	226.04	29.73	
2025-01-11 11:26:07.74	226.44	29.90	
2025-01-11 11:26:09.19	226.84	30.06	
2025-01-11 11:26:10.63	227.24	30.23	
2025-01-11 11:26:12.07	227.64	30.39	
2025-01-11 11:26:13.50	228.05	30.55	
2025-01-11 11:26:14.93	228.46	30.71	
2025-01-11 11:26:16.37	228.88	30.87	
2025-01-11 11:26:17.81	229.30	31.04	
2025-01-11 11:26:19.24	229.72	31.19	
2025-01-11 11:26:20.69	230.15	31.35	
2025-01-11 11:26:22.12	230.59	31.51	
2025-01-11 11:26:23.56	231.02	31.67	
2025-01-11 11:26:25.00	231.47	31.83	
2025-01-11 11:26:26.43	231.91	31.98	
2025-01-11 11:26:27.87	232.36	32.13	
2025-01-11 11:26:29.31	232.82	32.29	
2025-01-11 11:26:30.74	233.27	32.44	
2025-01-11 11:26:32.18	233.73	32.59	
2025-01-11 11:26:33.61	234.20	32.74	
2025-01-11 11:26:35.05	234.67	32.88	
2025-01-11 11:26:36.49	235.15	33.03	
2025-01-11 11:26:37.92	235.62	33.18	
2025-01-11 11:26:39.37	236.11	33.32	
2025-01-11 11:26:40.81	236.60	33.46	
2025-01-11 11:26:42.24	237.09	33.60	
2025-01-11 11:26:43.67	237.58	33.74	
2025-01-11 11:26:45.11	238.08	33.88	
2025-01-11 11:26:46.54	238.58	34.01	
2025-01-11 11:26:47.98	239.09	34.14	
2025-01-11 11:26:49.42	239.61	34.27	
2025-01-11 11:26:50.85	240.12	34.40	
2025-01-11 11:26:52.29	240.64	34.53	
2025-01-11 11:26:53.73	241.16	34.65	
2025-01-11 11:26:55.17	241.69	34.78	
2025-01-11 11:26:56.60	242.22	34.90	
2025-01-11 11:26:58.03	242.76	35.02	
2025-01-11 11:26:59.47	243.30	35.13	
2025-01-11 11:27:00.92	243.84	35.25	
2025-01-11 11:27:02.35	244.39	35.36	
2025-01-11 11:27:03.79	244.94	35.47	
2025-01-11 11:27:05.22	245.49	35.57	
2025-01-11 11:27:06.66	246.05	35.67	
2025-01-11 11:27:08.10	246.61	35.78	
2025-01-11 11:27:09.55	247.18	35.87	
2025-01-11 11:27:10.98	247.75	35.97	
2025-01-11 11:27:12.42	248.32	36.06	
2025-01-11 11:27:13.85	248.89	36.15	
2025-01-11 11:27:15.29	249.47	36.24	
2025-01-11 11:27:16.72	250.05	36.32	
2025-01-11 11:27:18.15	250.63	36.40	
2025-01-11 11:27:19.59	251.21	36.48	
2025-01-11 11:27:21.02	251.80	36.55	
2025-01-11 11:27:22.48	252.40	36.62	
2025-01-11 11:27:23.91	252.99	36.69	
2025-01-11 11:27:25.34	253.58	36.76	
2025-01-11 11:27:26.78	254.18	36.82	
2025-01-11 11:27:28.22	254.78	36.88	
2025-01-11 11:27:29.65	255.38	36.93	
2025-01-11 11:27:31.08	255.98	36.98	
2025-01-11 11:27:32.52	256.59	37.03	
2025-01-11 11:27:33.96	257.20	37.07	
2025-01-11 11:27:35.39	257.80	37.11	
2025-01-11 11:27:36.83	258.41	37.15	
2025-01-11 11:27:38.26	259.02	37.19	
2025-01-11 11:27:39.69	259.63	37.22	
2025-01-11 11:27:41.12	260.24	37.24	
2025-01-11 11:27:42.56	260.86	37.26	
2025-01-11 11:27:44.00	261.48	37.28	
2025-01-11 11:27:45.43	262.09	37.30	
2025-01-11 11:27:46.87	262.71	37.31	
2025-01-11 11:27:48.31	263.33	37.32	
2025-01-11 11:27:49.74	263.94	37.33	
2025-01-11 11:27:51.17	264.55	37.33	
2025-01-11 11:27:52.62	265.18	37.32	
2025-01-11 11:27:54.05	265.79	37.32	
2025-01-11 11:27:55.49	266.41	37.31	
2025-01-11 11:27:56.92	267.02	37.29	
2025-01-11 11:27:58.36	267.64	37.28	
2025-01-11 11:27:59.80	268.26	37.26	
2025-01-11 11:28:01.23	268.87	37.23	
2025-01-11 11:28:02.67	269.48	37.20	
2025-01-11 11:28:04.10	270.09	37.17	
2025-01-11 11:28:05.54	270.70	37.14	
2025-01-11 11:28:06.97	271.31	37.10	
2025-01-11 11:28:08.41	271.92	37.06	
2025-01-11 11:28:09.85	272.52	37.01	
2025-01-11 11:28:11.28	273.13	36.96	
2025-01-11 11:28:12.72	273.73	36.91	
2025-01-11 11:28:14.16	274.33	36.85	
2025-01-11 11:28:15.60	274.93	36.79	
2025-01-11 11:28:17.04	275.53	36.73	
2025-01-11 11:28:18.47	276.12	36.67	
2025-01-11 11:28:19.91	276.71	36.60	
2025-01-11 11:28:21.34	277.30	36.53	
2025-01-11 11:28:22.78	277.89	36.45	
2025-01-11 11:28:24.22	278.47	36.37	
2025-01-11 11:28:25.67	279.06	36.29	
2025-01-11 11:28:27.11	279.64	36.20	
2025-01-11 11:28:28.55	280.21	36.12	
2025-01-11 11:28:29.99	280.78	36.03	
2025-01-11 11:28:31.42	281.35	35.93	
2025-01-11 11:28:32.86	281.92	35.84	
2025-01-11 11:28:34.29	282.47	35.74	
2025-01-11 11:28:35.73	283.03	35.64	
2025-01-11 11:28:37.16	283.59	35.53	
2025-01-11 11:28:38.60	284.14	35.43	
2025-01-11 11:28:40.04	284.69	35.32	
2025-01-11 11:28:41.48	285.23	35.21	
2025-01-11 11:28:42.92	285.77	35.09	
2025-01-11 11:28:44.35	286.31	34.98	
2025-01-11 11:28:45.79	286.84	34.86	
2025-01-11 11:28:47.23	287.37	34.74	
2025-01-11 11:28:48.67	287.90	34.61	
2025-01-11 11:28:50.10	288.42	34.49	
2025-01-11 11:28:51.54	288.93	34.36	
2025-01-11 11:28:52.97	289.44	34.23	
2025-01-11 11:28:54.41	289.95	34.10	
2025-01-11 11:28:55.84	290.46	33.97	
2025-01-11 11:28:57.27	290.95	33.83	
2025-01-11 11:28:58.70	291.45	33.70	
2025-01-11 11:29:00.15	291.95	33.56	
2025-01-11 11:29:01.59	292.44	33.42	
2025-01-11 11:29:03.03	292.92	33.28	
2025-01-11 11:29:04.46	293.40	33.13	
2025-01-11 11:29:05.90	293.87	32.99	
2025-01-11 11:29:07.35	294.35	32.84	
2025-01-11 11:29:08.78	294.82	32.69	
2025-01-11 11:29:10.22	295.28	32.55	
2025-01-11 11:29:11.66	295.74	32.40	
2025-01-11 11:29:13.10	296.20	32.24	
2025-01-11 11:29:14.53	296.64	32.09	
2025-01-11 11:29:15.99	297.10	31.94	
2025-01-11 11:29:17.44	297.54	31.78	
2025-01-11 11:29:18.87	297.98	31.63	
2025-01-11 11:29:20.32	298.42	31.47	
2025-01-11 11:29:21.75	298.85	31.31	
2025-01-11 11:29:23.19	299.27	31.15	
2025-01-11 11:29:24.62	299.69	30.99	
2025-01-11 11:29:26.06	300.11	30.83	
2025-01-11 11:29:27.50	300.52	30.67	
2025-01-11 11:29:28.93	300.93	30.51	
2025-01-11 11:29:30.37	301.34	30.35	
2025-01-11 11:29:31.82	301.74	30.19	
2025-01-11 11:29:33.25	302.14	30.03	
2025-01-11 11:29:34.69	302.53	29.86	
2025-01-11 11:29:36.13	302.92	29.70	
2025-01-11 11:29:37.56	303.31	29.53	
2025-01-11 11:29:39.00	303.69	29.37	
2025-01-11 11:29:40.43	304.07	29.20	
2025-01-11 11:29:41.86	304.44	29.04	
2025-01-11 11:29:43.31	304.81	28.87	
2025-01-11 11:29:44.75	305.18	28.71	
2025-01-11 11:29:46.18	305.54	28.54	
2025-01-11 11:29:47.61	305.90	28.37	
2025-01-11 11:29:49.05	306.26	28.21	
2025-01-11 11:29:50.48	306.61	28.04	
2025-01-11 11:29:51.91	306.95	27.87	
2025-01-11 11:29:53.35	307.30	27.71	
2025-01-11 11:29:54.79	307.64	27.54	
2025-01-11 11:29:56.22	307.98	27.37	
2025-01-11 11:29:57.65	308.31	27.21	
2025-01-11 11:29:59.09	308.64	27.04	
2025-01-11 11:30:00.52	308.97	26.87	
2025-01-11 11:30:01.95	309.29	26.71	
2025-01-11 11:30:03.40	309.61	26.54	
2025-01-11 11:30:04.84	309.93	26.37	
2025-01-11 11:30:06.27	310.25	26.21	
2025-01-11 11:30:07.71	310.56	26.04	
2025-01-11 11:30:09.14	310.86	25.87	
2025-01-11 11:30:10.61	311.18	25.70	
2025-01-11 11:30:12.04	311.48	25.54	
2025-01-11 11:30:13.48	311.77	25.37	
2025-01-11 11:30:14.92	312.07	25.21	
2025-01-11 11:30:16.35	312.36	25.04	
2025-01-11 11:30:17.80	312.65	24.88	
2025-01-11 11:30:19.23	312.94	24.71	
2025-01-11 11:30:20.67	313.22	24.55	
2025-01-11 11:30:22.11	313.51	24.38	
2025-01-11 11:30:23.54	313.78	24.22	
2025-01-11 11:30:24.98	314.06	24.06	
2025-01-11 11:30:26.41	314.33	23.89	
2025-01-11 11:30:27.85	314.60	23.73	
2025-01-11 11:30:29.29	314.87	23.57	
2025-01-11 11:30:30.73	315.13	23.41	
2025-01-11 11:30:32.16	315.39	23.25	
2025-01-11 11:30:33.62	315.66	23.08	
2025-01-11 11:30:35.05	315.91	22.92	
2025-01-11 11:30:36.50	316.17	22.76	
2025-01-11 11:30:37.93	316.42	22.60	
2025-01-11 11:30:39.37	316.67	22.44	
2025-01-11 11:30:40.81	316.91	22.28	
2025-01-11 11:30:42.26	317.16	22.13	
2025-01-11 11:30:43.69	317.40	21.97	
2025-01-11 11:30:45.12	317.64	21.81	
2025-01-11 11:30:46.56	317.87	21.65	
2025-01-11 11:30:47.99	318.11	21.50	
2025-01-11 11:30:49.43	318.34	21.34	
2025-01-11 11:30:50.87	318.57	21.19	
2025-01-11 11:30:52.32	318.80	21.03	
2025-01-11 11:30:53.76	319.03	20.88	
2025-01-11 11:30:55.19	319.25	20.72	
2025-01-11 11:30:56.62	319.47	20.57	
2025-01-11 11:30:58.06	319.69	20.42	
2025-01-11 11:30:59.49	319.90	20.27	
2025-01-11 11:31:00.92	320.12	20.12	
2025-01-11 11:31:02.35	320.33	19.97	
2025-01-11 11:31:03.79	320.54	19.82	
2025-01-11 11:31:05.22	320.75	19.67	
2025-01-11 11:31:06.66	320.96	19.52	
2025-01-11 11:31:08.09	321.16	19.37	
2025-01-11 11:31:09.52	321.36	19.22	
2025-01-11 11:31:10.96	321.56	19.07	
2025-01-11 11:31:12.39	321.76	18.93	
2025-01-11 11:31:13.83	321.96	18.78	
2025-01-11 11:31:15.27	322.16	18.63	
2025-01-11 11:31:16.70	322.35	18.49	
2025-01-11 11:31:18.14	322.54	18.34	
2025-01-11 11:31:19.58	322.73	18.20	
2025-01-11 11:31:21.01	322.92	18.05	
2025-01-11 11:31:22.46	323.11	17.91	
2025-01-11 11:31:23.91	323.30	17.77	
2025-01-11 11:31:25.35	323.48	17.62	
2025-01-11 11:31:26.78	323.66	17.48	
2025-01-11 11:31:28.23	323.84	17.34	
2025-01-11 11:31:29.66	324.02	17.20	
2025-01-11 11:31:31.10	324.20	17.06	
2025-01-11 11:31:32.53	324.37	16.92	
2025-01-11 11:31:33.96	324.54	16.78	
2025-01-11 11:31:35.40	324.72	16.64	
2025-01-11 11:31:36.83	324.89	16.51	
2025-01-11 11:31:38.28	325.06	16.37	
2025-01-11 11:31:39.73	325.23	16.23	
2025-01-11 11:31:41.16	325.39	16.09	
2025-01-11 11:31:42.59	325.56	15.96	
2025-01-11 11:31:44.03	325.72	15.82	
2025-01-11 11:31:45.48	325.88	15.69	
2025-01-11 11:31:46.92	326.04	15.55	
2025-01-11 11:31:48.35	326.20	15.42	
2025-01-11 11:31:49.79	326.36	15.29	
2025-01-11 11:31:51.22	326.52	15.16	
2025-01-11 11:31:52.66	326.67	15.02	
2025-01-11 11:31:54.09	326.83	14.89	
2025-01-11 11:31:55.54	326.98	14.76	
2025-01-11 11:31:56.98	327.13	14.63	
2025-01-11 11:31:58.41	327.28	14.50	
2025-01-11 11:31:59.85	327.43	14.37	
2025-01-11 11:32:01.29	327.58	14.24	
2025-01-11 11:32:02.72	327.72	14.12	
2025-01-11 11:32:04.15	327.87	13.99	
2025-01-11 11:32:05.59	328.01	13.86	
2025-01-11 11:32:07.03	328.16	13.73	
2025-01-11 11:32:08.47	328.30	13.61	
2025-01-11 11:32:09.90	328.44	13.48	
2025-01-11 11:32:11.34	328.58	13.36	
2025-01-11 11:32:12.77	328.71	13.23	
2025-01-11 11:32:14.21	328.85	13.11	
2025-01-11 11:32:15.66	328.99	12.98	
2025-01-11 11:32:17.09	329.12	12.86	
2025-01-11 11:32:18.53	329.26	12.74	
2025-01-11 11:32:19.95	329.39	12.62	
2025-01-11 11:32:21.39	329.52	12.50	
2025-01-11 11:32:22.82	329.65	12.38	
2025-01-11 11:32:24.25	329.78	12.26	
2025-01-11 11:32:25.69	329.91	12.13	
2025-01-11 11:32:27.14	330.04	12.01	
2025-01-11 11:32:28.57	330.17	11.90	
2025-01-11 11:32:30.01	330.29	11.78	
2025-01-11 11:32:31.44	330.42	11.66	
2025-01-11 11:32:32.88	330.54	11.54	
2025-01-11 11:32:34.31	330.66	11.42	
2025-01-11 11:32:35.75	330.78	11.31	
2025-01-11 11:32:37.19	330.91	11.19	
2025-01-11 11:32:38.62	331.03	11.07	
2025-01-11 11:32:40.05	331.14	10.96	
2025-01-11 11:32:41.48	331.26	10.84	
2025-01-11 11:32:42.93	331.38	10.73	
2025-01-11 11:32:44.36	331.50	10.61	
2025-01-11 11:32:45.80	331.61	10.50	
2025-01-11 11:32:47.24	331.73	10.39	
2025-01-11 11:32:48.68	331.84	10.27	
2025-01-11 11:32:50.11	331.96	10.16	
2025-01-11 11:32:51.55	332.07	10.05	
2025-01-11 11:32:52.98	332.18	9.94	
2025-01-11 11:32:54.42	332.29	9.82	
2025-01-11 11:32:55.85	332.40	9.71	
2025-01-11 11:32:57.30	332.51	9.60	
2025-01-11 11:32:58.73	332.62	9.49	
2025-01-11 11:33:00.17	332.73	9.38	
2025-01-11 11:33:01.60	332.83	9.27	
2025-01-11 11:33:03.04	332.94	9.16	
2025-01-11 11:33:04.47	333.05	9.06	
2025-01-11 11:33:05.91	333.15	8.95	
2025-01-11 11:33:07.35	333.26	8.84	
2025-01-11 11:33:08.79	333.36	8.73	
2025-01-11 11:33:10.23	333.46	8.63	
2025-01-11 11:33:11.67	333.56	8.52	
2025-01-11 11:33:13.10	333.67	8.41	
2025-01-11 11:33:14.55	333.77	8.31	
2025-01-11 11:33:15.99	333.87	8.20	
2025-01-11 11:33:17.43	333.97	8.09	
2025-01-11 11:33:18.87	334.07	7.99	
2025-01-11 11:33:20.32	334.16	7.88	
2025-01-11 11:33:21.75	334.26	7.78	
2025-01-11 11:33:23.18	334.36	7.68	
2025-01-11 11:33:24.62	334.45	7.57	
2025-01-11 11:33:26.08	334.55	7.47	
2025-01-11 11:33:27.53	334.65	7.37	
2025-01-11 11:33:28.97	334.74	7.26	
2025-01-11 11:33:30.40	334.83	7.16	
2025-01-11 11:33:31.84	334.93	7.06	
2025-01-11 11:33:33.29	335.02	6.96	
2025-01-11 11:33:34.73	335.11	6.86	
2025-01-11 11:33:36.17	335.20	6.76	
2025-01-11 11:33:37.60	335.29	6.66	
2025-01-11 11:33:39.04	335.38	6.56	
2025-01-11 11:33:40.47	335.47	6.46	
2025-01-11 11:33:41.92	335.56	6.36	
2025-01-11 11:33:43.35	335.65	6.26	
2025-01-11 11:33:44.79	335.74	6.16	
2025-01-11 11:33:46.22	335.82	6.06	
2025-01-11 11:33:47.67	335.91	5.96	
2025-01-11 11:33:49.11	336.00	5.87	
2025-01-11 11:33:50.54	336.08	5.77	
2025-01-11 11:33:51.99	336.17	5.67	
2025-01-11 11:33:53.43	336.25	5.57	
2025-01-11 11:33:54.86	336.34	5.48	
2025-01-11 11:33:56.30	336.42	5.38	
2025-01-11 11:33:57.74	336.51	5.29	
2025-01-11 11:33:59.18	336.59	5.19	
2025-01-11 11:34:00.63	336.67	5.10	
2025-01-11 11:34:02.06	336.75	5.00	
2025-01-11 11:34:03.51	336.83	4.91	
2025-01-11 11:34:04.95	336.91	4.81	
2025-01-11 11:34:06.38	336.99	4.72	
2025-01-11 11:34:07.82	337.07	4.62	
2025-01-11 11:34:09.26	337.15	4.53	
2025-01-11 11:34:10.69	337.23	4.44	
2025-01-11 11:34:12.12	337.31	4.35	
2025-01-11 11:34:13.57	337.39	4.25	
2025-01-11 11:34:15.00	337.47	4.16	
2025-01-11 11:34:16.44	337.54	4.07	

#Closed at: 2025-01-11 11:34:17