passes_logs/2026/01/24/planumMaritime01/planumMaritime01__20260124_174440_METOP-B_rec.log

#Pass ID: 20260124_174440_METOP-B
#Satellite: METOP-B
#Configuration: METOP-B
#Start time: 2026-01-24 17:44:45.409803

#LorettStation: 1.0.0 05.05.2024
#Station: planumMaritime01
#Location: 37.49445 lon 55.92918 lat
#TLE: 1 38771U 12049A   26024.30979649  .00000246  00000+0  13231-3 0  9997
#TLE: 2 38771  98.6735  78.5342 0003027  57.8768 302.2703 14.21427789692827

#Time	Az	El	Level	SNR
2026-01-24 17:44:47.574541	168.6	10.2	-72.6	0.0
2026-01-24 17:44:49.827386	168.7	10.4	-72.1	0.0
2026-01-24 17:44:52.080791	168.7	10.6	-72.4	0.0
2026-01-24 17:44:54.335802	168.8	10.8	-73.2	4.2
2026-01-24 17:44:56.588608	168.8	11.0	-73.3	3.1
2026-01-24 17:44:58.843289	168.9	11.2	-72.5	4.7
2026-01-24 17:45:01.096937	168.9	11.4	-72.9	4.4
2026-01-24 17:45:03.347867	169.0	11.6	-73.0	2.8
2026-01-24 17:45:05.598600	169.0	11.8	-73.0	2.7
2026-01-24 17:45:07.851044	169.1	12.0	-72.4	2.5
2026-01-24 17:45:10.108366	169.1	12.3	-72.5	3.6
2026-01-24 17:45:12.361124	169.2	12.5	-72.6	4.1
2026-01-24 17:45:14.614526	169.2	12.7	-72.5	3.3
2026-01-24 17:45:16.867054	169.3	12.9	-72.5	5.3
2026-01-24 17:45:19.119338	169.3	13.1	-71.9	4.9
2026-01-24 17:45:21.371756	169.4	13.4	-72.4	3.6
2026-01-24 17:45:23.623863	169.4	13.6	-72.2	3.9
2026-01-24 17:45:25.876665	169.5	13.8	-72.0	2.3
2026-01-24 17:45:28.133738	169.5	14.0	-72.2	2.6
2026-01-24 17:45:30.385520	169.6	14.3	-71.9	2.4
2026-01-24 17:45:32.635811	169.6	14.5	-72.0	2.5
2026-01-24 17:45:34.889189	169.7	14.8	-71.9	1.0
2026-01-24 17:45:37.142792	169.7	15.0	-72.3	3.4
2026-01-24 17:45:39.399002	169.8	15.2	-72.5	3.6
2026-01-24 17:45:41.650467	169.9	15.5	-71.6	1.9
2026-01-24 17:45:43.904220	169.9	15.7	-71.3	0.9
2026-01-24 17:45:46.158381	170.0	16.0	-71.6	3.4
2026-01-24 17:45:48.412143	170.0	16.2	-71.8	1.3
2026-01-24 17:45:50.666020	170.1	16.5	-71.7	1.1
2026-01-24 17:45:52.919160	170.2	16.7	-71.7	2.9
2026-01-24 17:45:55.173026	170.2	17.0	-71.2	0.0
2026-01-24 17:45:57.428343	170.3	17.3	-71.4	0.0
2026-01-24 17:45:59.680003	170.4	17.5	-71.8	1.1
2026-01-24 17:46:01.934395	170.4	17.8	-71.6	0.0
2026-01-24 17:46:04.186791	170.5	18.1	-71.2	3.8
2026-01-24 17:46:06.441717	170.6	18.3	-71.9	4.2
2026-01-24 17:46:08.693739	170.6	18.6	-71.9	4.0
2026-01-24 17:46:10.945066	170.7	18.9	-71.8	1.7
2026-01-24 17:46:13.198021	170.8	19.2	-71.4	2.1
2026-01-24 17:46:15.452097	170.9	19.5	-71.8	0.7
2026-01-24 17:46:17.709565	170.9	19.8	-71.3	0.0
2026-01-24 17:46:19.963595	171.0	20.1	-71.2	0.0
2026-01-24 17:46:22.218890	171.1	20.4	-71.3	4.2
2026-01-24 17:46:24.471141	171.2	20.7	-71.2	2.0
2026-01-24 17:46:26.724848	171.3	21.0	-71.5	4.2
2026-01-24 17:46:28.979875	171.3	21.3	-71.4	2.0
2026-01-24 17:46:31.231696	171.4	21.6	-71.4	2.4
2026-01-24 17:46:33.484721	171.5	21.9	-71.4	5.6
2026-01-24 17:46:35.739277	171.6	22.2	-71.3	5.1
2026-01-24 17:46:37.993137	171.7	22.6	-71.2	6.3
2026-01-24 17:46:40.246964	171.8	22.9	-71.5	5.0
2026-01-24 17:46:42.499655	171.9	23.2	-71.1	3.6
2026-01-24 17:46:44.752480	172.0	23.6	-71.1	6.4
2026-01-24 17:46:47.002281	172.1	23.9	-70.5	1.3
2026-01-24 17:46:49.255632	172.2	24.2	-71.1	4.8
2026-01-24 17:46:51.510807	172.3	24.6	-71.3	2.7
2026-01-24 17:46:53.766170	172.4	25.0	-71.0	5.4
2026-01-24 17:46:56.019848	172.5	25.3	-70.5	3.7
2026-01-24 17:46:58.270372	172.6	25.7	-71.2	4.6
2026-01-24 17:47:00.524275	172.7	26.0	-71.0	5.3
2026-01-24 17:47:02.777923	172.8	26.4	-71.5	4.9
2026-01-24 17:47:05.031011	172.9	26.8	-71.3	5.6
2026-01-24 17:47:07.284765	173.0	27.2	-71.0	4.0
2026-01-24 17:47:09.539548	173.2	27.6	-71.3	2.3
2026-01-24 17:47:11.792283	173.3	28.0	-71.0	5.2
2026-01-24 17:47:14.046154	173.4	28.4	-71.1	2.4
2026-01-24 17:47:16.297792	173.5	28.8	-71.3	2.6
2026-01-24 17:47:18.549358	173.7	29.2	-71.8	4.9
2026-01-24 17:47:20.803692	173.8	29.6	-71.9	5.9
2026-01-24 17:47:23.055520	173.9	30.1	-72.0	4.7
2026-01-24 17:47:25.306022	174.1	30.5	-72.0	4.1
2026-01-24 17:47:27.561264	174.2	30.9	-71.6	5.2
2026-01-24 17:47:29.814754	174.4	31.4	-71.8	3.7
2026-01-24 17:47:32.066901	174.5	31.8	-70.7	5.0
2026-01-24 17:47:34.318297	174.7	32.3	-71.1	7.1
2026-01-24 17:47:36.574951	174.9	32.7	-72.1	8.2
2026-01-24 17:47:38.828762	175.0	33.2	-71.3	7.1
2026-01-24 17:47:41.080665	175.2	33.7	-71.6	7.2
2026-01-24 17:47:43.337604	175.4	34.2	-71.9	8.2
2026-01-24 17:47:45.591252	175.6	34.7	-72.0	9.3
2026-01-24 17:47:47.844231	175.7	35.2	-71.6	9.3
2026-01-24 17:47:50.100945	175.9	35.7	-72.1	9.3
2026-01-24 17:47:52.353832	176.1	36.2	-72.2	8.6
2026-01-24 17:47:54.610598	176.3	36.8	-72.6	10.1
2026-01-24 17:47:56.860974	176.5	37.3	-72.9	10.5
2026-01-24 17:47:59.113065	176.8	37.8	-73.1	9.6
2026-01-24 17:48:01.367539	177.0	38.4	-73.1	9.8
2026-01-24 17:48:03.621156	177.2	38.9	-73.9	10.9
2026-01-24 17:48:05.874144	177.5	39.5	-73.8	10.6
2026-01-24 17:48:08.131089	177.7	40.1	-73.5	11.5
2026-01-24 17:48:10.382716	178.0	40.7	-73.5	12.1
2026-01-24 17:48:12.632277	178.2	41.3	-73.0	11.8
2026-01-24 17:48:14.885996	178.5	41.9	-72.7	12.3
2026-01-24 17:48:17.137969	178.8	42.5	-73.0	12.2
2026-01-24 17:48:19.390344	179.1	43.1	-73.0	11.8
2026-01-24 17:48:21.642753	179.4	43.8	-72.8	11.8
2026-01-24 17:48:23.893268	179.7	44.4	-73.0	11.4
2026-01-24 17:48:26.143690	180.1	45.1	-73.1	11.8
2026-01-24 17:48:28.394957	180.4	45.7	-73.5	11.6
2026-01-24 17:48:30.648244	180.8	46.4	-72.9	10.6
2026-01-24 17:48:32.899662	181.2	47.1	-72.8	10.2
2026-01-24 17:48:35.149294	181.6	47.8	-72.7	10.1
2026-01-24 17:48:37.401769	182.0	48.5	-72.8	11.0
2026-01-24 17:48:39.653969	182.4	49.2	-72.3	9.3
2026-01-24 17:48:41.908809	182.9	49.9	-72.4	10.5
2026-01-24 17:48:44.160131	183.4	50.7	-72.0	10.8
2026-01-24 17:48:46.413845	183.9	51.4	-72.4	11.5
2026-01-24 17:48:48.667142	184.4	52.2	-72.1	10.4
2026-01-24 17:48:50.919942	184.9	52.9	-72.6	11.4
2026-01-24 17:48:53.172725	185.5	53.7	-72.4	10.1
2026-01-24 17:48:55.428289	186.1	54.5	-72.5	10.6
2026-01-24 17:48:57.681803	186.8	55.3	-72.8	8.7
2026-01-24 17:48:59.930778	187.5	56.1	-72.8	8.5
2026-01-24 17:49:02.185729	188.2	56.9	-72.8	9.6
2026-01-24 17:49:04.436651	189.0	57.7	-72.0	10.0
2026-01-24 17:49:06.687201	189.8	58.5	-72.5	9.7
2026-01-24 17:49:08.942918	190.6	59.3	-72.3	9.4
2026-01-24 17:49:11.196196	191.6	60.1	-72.7	9.0
2026-01-24 17:49:13.447911	192.6	61.0	-72.5	10.7
2026-01-24 17:49:15.699520	193.6	61.8	-72.0	10.0
2026-01-24 17:49:17.950067	194.7	62.6	-72.1	9.3
2026-01-24 17:49:20.203985	195.9	63.5	-72.5	9.9
2026-01-24 17:49:22.457914	197.2	64.3	-72.7	9.2
2026-01-24 17:49:24.711341	198.6	65.1	-72.6	9.8
2026-01-24 17:49:26.963740	200.1	66.0	-72.5	8.9
2026-01-24 17:49:29.217379	201.7	66.8	-72.5	9.8
2026-01-24 17:49:31.467645	203.5	67.6	-72.9	9.8
2026-01-24 17:49:33.719736	205.3	68.4	-72.8	9.6
2026-01-24 17:49:35.974871	207.4	69.2	-73.1	9.0
2026-01-24 17:49:38.228399	209.6	69.9	-72.8	9.1
2026-01-24 17:49:40.480090	212.0	70.7	-73.1	10.1
2026-01-24 17:49:42.734971	214.6	71.4	-73.0	8.8
2026-01-24 17:49:44.986243	217.4	72.1	-73.1	7.8
2026-01-24 17:49:47.238703	220.4	72.7	-73.3	8.0
2026-01-24 17:49:49.491298	223.6	73.3	-73.1	6.8
2026-01-24 17:49:51.743176	227.1	73.8	-73.2	8.4
2026-01-24 17:49:53.995868	230.8	74.3	-72.7	7.5
2026-01-24 17:49:56.247522	234.8	74.7	-72.5	8.2
2026-01-24 17:49:58.497490	238.9	75.1	-72.8	7.9
2026-01-24 17:50:00.750953	243.3	75.3	-72.9	8.1
2026-01-24 17:50:03.004170	247.8	75.5	-73.0	7.6
2026-01-24 17:50:05.256923	252.3	75.6	-71.8	4.7
2026-01-24 17:50:07.510712	256.9	75.6	-73.0	6.7
2026-01-24 17:50:09.765625	261.5	75.5	-73.1	5.8
2026-01-24 17:50:12.019479	266.0	75.3	-72.6	5.0
2026-01-24 17:50:14.273103	270.3	75.1	-72.1	4.2
2026-01-24 17:50:16.524016	274.5	74.8	-73.5	7.2
2026-01-24 17:50:18.777997	278.5	74.3	-72.1	4.2
2026-01-24 17:50:21.032779	282.2	73.9	-71.5	5.9
2026-01-24 17:50:23.283318	285.7	73.3	-70.6	4.4
2026-01-24 17:50:25.541334	289.0	72.8	-71.7	3.2
2026-01-24 17:50:27.795071	292.0	72.1	-70.4	2.7
2026-01-24 17:50:30.049991	294.8	71.5	-70.9	5.8
2026-01-24 17:50:32.303779	297.4	70.7	-70.7	4.2
2026-01-24 17:50:34.557595	299.8	70.0	-70.4	2.2
2026-01-24 17:50:36.809549	302.1	69.3	-71.1	6.8
2026-01-24 17:50:39.061724	304.1	68.5	-70.8	4.5
2026-01-24 17:50:41.313975	306.0	67.7	-71.2	5.1
2026-01-24 17:50:43.564592	307.8	66.9	-71.5	4.4
2026-01-24 17:50:45.817048	309.4	66.1	-70.3	4.8
2026-01-24 17:50:48.068838	310.9	65.2	-70.3	5.1
2026-01-24 17:50:50.321668	312.3	64.4	-72.0	7.5
2026-01-24 17:50:52.574920	313.6	63.6	-71.3	6.4
2026-01-24 17:50:54.826411	314.8	62.7	-71.6	7.8
2026-01-24 17:50:57.076245	315.9	61.9	-70.4	5.6
2026-01-24 17:50:59.330258	317.0	61.1	-70.4	5.1
2026-01-24 17:51:01.582369	318.0	60.2	-70.1	7.1
2026-01-24 17:51:03.835234	318.9	59.4	-71.1	7.0
2026-01-24 17:51:06.088207	319.8	58.6	-69.4	2.7
2026-01-24 17:51:08.341386	320.6	57.8	-70.2	3.1
2026-01-24 17:51:10.597437	321.4	57.0	-71.2	5.7
2026-01-24 17:51:12.850617	322.1	56.2	-70.8	5.9
2026-01-24 17:51:15.103673	322.8	55.4	-71.0	5.7
2026-01-24 17:51:17.357686	323.4	54.6	-71.0	7.0
2026-01-24 17:51:19.610400	324.1	53.8	-70.8	4.7
2026-01-24 17:51:21.863211	324.6	53.0	-69.8	6.4
2026-01-24 17:51:24.117443	325.2	52.3	-69.9	6.0
2026-01-24 17:51:26.371050	325.7	51.5	-69.1	3.8
2026-01-24 17:51:28.628536	326.2	50.8	-70.4	7.5
2026-01-24 17:51:30.881647	326.7	50.1	-70.8	7.2
2026-01-24 17:51:33.132619	327.2	49.3	-71.3	5.3
2026-01-24 17:51:35.388305	327.6	48.6	-70.6	5.6
2026-01-24 17:51:37.642134	328.0	47.9	-71.1	5.8
2026-01-24 17:51:39.897084	328.4	47.2	-71.0	3.8
2026-01-24 17:51:42.151031	328.8	46.5	-70.4	5.0
2026-01-24 17:51:44.405295	329.2	45.9	-70.3	4.4
2026-01-24 17:51:46.659534	329.5	45.2	-69.7	3.9
2026-01-24 17:51:48.912929	329.9	44.6	-68.7	0.1
2026-01-24 17:51:51.167015	330.2	43.9	-70.4	5.9
2026-01-24 17:51:53.421407	330.5	43.3	-68.7	5.1
2026-01-24 17:51:55.676114	330.8	42.7	-68.1	1.2
2026-01-24 17:51:57.929658	331.1	42.0	-69.7	7.0
2026-01-24 17:52:00.186482	331.4	41.4	-68.2	4.2
2026-01-24 17:52:02.438255	331.6	40.8	-67.8	3.5
2026-01-24 17:52:04.695971	331.9	40.2	-69.5	6.0
2026-01-24 17:52:06.945479	332.1	39.7	-67.7	1.2
2026-01-24 17:52:09.198981	332.4	39.1	-66.6	0.0
2026-01-24 17:52:11.454068	332.6	38.5	-68.3	3.3
2026-01-24 17:52:13.704420	332.9	38.0	-69.7	3.8
2026-01-24 17:52:15.957200	333.1	37.4	-67.9	0.0
2026-01-24 17:52:18.209089	333.3	36.9	-68.6	0.0
2026-01-24 17:52:20.463037	333.5	36.4	-68.1	0.0
2026-01-24 17:52:22.717674	333.7	35.9	-68.9	1.3
2026-01-24 17:52:24.972786	333.9	35.4	-68.4	0.0
2026-01-24 17:52:27.226287	334.1	34.9	-67.7	0.0
2026-01-24 17:52:29.477053	334.3	34.4	-67.6	0.0
2026-01-24 17:52:31.730005	334.4	33.9	-69.2	0.0
2026-01-24 17:52:33.983907	334.6	33.4	-65.9	0.0
2026-01-24 17:52:36.236362	334.8	32.9	-66.3	0.0
2026-01-24 17:52:38.490933	334.9	32.5	-65.3	0.0
2026-01-24 17:52:40.745279	335.1	32.0	-65.7	0.0
2026-01-24 17:52:42.997124	335.3	31.5	-65.9	0.0
2026-01-24 17:52:45.250038	335.4	31.1	-65.4	0.0
2026-01-24 17:52:47.506760	335.6	30.7	-64.7	0.0
2026-01-24 17:52:49.760980	335.7	30.2	-65.4	0.0
2026-01-24 17:52:52.017560	335.8	29.8	-65.8	0.0
2026-01-24 17:52:54.270148	336.0	29.4	-65.7	0.0
2026-01-24 17:52:56.523164	336.1	29.0	-64.3	0.0
2026-01-24 17:52:58.776091	336.2	28.6	-65.0	0.0
2026-01-24 17:53:01.029467	336.4	28.2	-65.4	0.0
2026-01-24 17:53:03.283707	336.5	27.8	-67.3	0.0
2026-01-24 17:53:05.535798	336.6	27.4	-65.5	0.0
2026-01-24 17:53:07.790308	336.7	27.0	-65.2	0.0
2026-01-24 17:53:10.045559	336.8	26.6	-66.0	0.0
2026-01-24 17:53:12.295516	337.0	26.2	-65.3	0.0
2026-01-24 17:53:14.548517	337.1	25.9	-65.2	0.0
2026-01-24 17:53:16.801067	337.2	25.5	-64.7	0.0
2026-01-24 17:53:19.055157	337.3	25.1	-65.1	0.0
2026-01-24 17:53:21.308420	337.4	24.8	-63.3	0.0
2026-01-24 17:53:23.567019	337.5	24.4	-65.2	0.0
2026-01-24 17:53:25.819335	337.6	24.1	-65.4	0.0
2026-01-24 17:53:28.073752	337.7	23.8	-64.0	0.0
2026-01-24 17:53:30.327026	337.8	23.4	-65.9	0.0
2026-01-24 17:53:32.580308	337.9	23.1	-65.0	0.0
2026-01-24 17:53:34.832917	338.0	22.8	-63.9	0.0
2026-01-24 17:53:37.086040	338.1	22.4	-66.0	0.0
2026-01-24 17:53:39.340071	338.2	22.1	-65.5	0.0
2026-01-24 17:53:41.592074	338.2	21.8	-64.6	0.0
2026-01-24 17:53:43.844913	338.3	21.5	-64.6	0.0
2026-01-24 17:53:46.097805	338.4	21.2	-59.6	0.0
2026-01-24 17:53:48.351241	338.5	20.9	-64.2	0.0
2026-01-24 17:53:50.602602	338.6	20.6	-63.1	0.0
2026-01-24 17:53:52.855229	338.7	20.3	-63.8	0.0
2026-01-24 17:53:55.108023	338.7	20.0	-64.6	0.0
2026-01-24 17:53:57.360104	338.8	19.7	-65.3	0.0
2026-01-24 17:53:59.612644	338.9	19.4	-63.2	0.0
2026-01-24 17:54:01.866161	339.0	19.1	-63.4	0.0
2026-01-24 17:54:04.117703	339.0	18.8	-64.1	0.0
2026-01-24 17:54:06.370086	339.1	18.6	-64.6	0.0
2026-01-24 17:54:08.623828	339.2	18.3	-63.7	0.0
2026-01-24 17:54:10.877078	339.3	18.0	-64.8	0.0
2026-01-24 17:54:13.131578	339.3	17.7	-65.2	0.0
2026-01-24 17:54:15.386303	339.4	17.5	-63.5	0.0
2026-01-24 17:54:17.640056	339.5	17.2	-64.1	0.0
2026-01-24 17:54:19.892874	339.5	17.0	-64.7	0.0
2026-01-24 17:54:22.147019	339.6	16.7	-65.0	0.0
2026-01-24 17:54:24.398530	339.7	16.4	-65.1	0.0
2026-01-24 17:54:26.653286	339.7	16.2	-65.4	0.0
2026-01-24 17:54:28.908222	339.8	15.9	-66.4	0.0
2026-01-24 17:54:31.161835	339.9	15.7	-67.8	0.0
2026-01-24 17:54:33.418076	339.9	15.5	-65.7	0.0
2026-01-24 17:54:35.670660	340.0	15.2	-66.7	0.0
2026-01-24 17:54:37.923690	340.0	15.0	-66.4	0.0
2026-01-24 17:54:40.179654	340.1	14.7	-68.0	0.0
2026-01-24 17:54:42.432707	340.1	14.5	-68.8	0.0
2026-01-24 17:54:44.686032	340.2	14.3	-66.6	0.0
2026-01-24 17:54:46.940188	340.3	14.0	-66.7	0.0
2026-01-24 17:54:49.196666	340.3	13.8	-67.2	0.0
2026-01-24 17:54:51.449356	340.4	13.6	-66.4	0.0
2026-01-24 17:54:53.702818	340.4	13.4	-66.0	0.0
2026-01-24 17:54:55.954805	340.5	13.1	-66.4	0.0
2026-01-24 17:54:58.209268	340.5	12.9	-66.4	0.0
2026-01-24 17:55:00.462840	340.6	12.7	-65.8	0.0
2026-01-24 17:55:02.719094	340.6	12.5	-66.8	0.0
2026-01-24 17:55:04.971363	340.7	12.3	-65.9	0.0
2026-01-24 17:55:07.222946	340.7	12.1	-65.1	0.0
2026-01-24 17:55:09.475012	340.8	11.8	-69.1	0.0
2026-01-24 17:55:11.728299	340.8	11.6	-66.0	0.0
2026-01-24 17:55:13.982322	340.9	11.4	-69.0	0.0
2026-01-24 17:55:16.235181	340.9	11.2	-65.0	0.0
2026-01-24 17:55:18.490015	341.0	11.0	-66.6	0.0
2026-01-24 17:55:20.744056	341.0	10.8	-67.0	0.0
2026-01-24 17:55:22.996576	341.1	10.6	-65.7	0.0
2026-01-24 17:55:25.249667	341.1	10.4	-65.7	0.0
2026-01-24 17:55:27.502405	341.2	10.2	-70.7	0.0
2026-01-24 17:55:29.754382	341.2	10.0	-71.6	0.0
#Closed at: 2026-01-24 17:44:40.416816