passes_logs/2026/01/24/planumMaritime01/planumMaritime01__20260124_083255_METOP-C_rec.log

#Pass ID: 20260124_083255_METOP-C
#Satellite: METOP-C
#Configuration: METOP-C
#Start time: 2026-01-24 08:33:00.450666

#LorettStation: 1.0.0 05.05.2024
#Station: planumMaritime01
#Location: 37.49445 lon 55.92918 lat
#TLE: 1 43689U 18087A   26022.92846919  .00000264  00000+0  14063-3 0  9992
#TLE: 2 43689  98.6864  85.0540 0000969 168.2635 191.8565 14.21502852374199

#Time	Az	El	Level	SNR
2026-01-24 08:33:02.626260	8.7	10.2	-64.9	0.0
2026-01-24 08:33:04.880328	8.5	10.4	-64.2	0.0
2026-01-24 08:33:07.132653	8.4	10.6	-63.4	0.0
2026-01-24 08:33:09.383123	8.3	10.8	-58.5	0.0
2026-01-24 08:33:11.635778	8.2	10.9	-62.0	0.0
2026-01-24 08:33:13.889910	8.0	11.1	-61.1	0.0
2026-01-24 08:33:16.144842	7.9	11.3	-61.8	0.0
2026-01-24 08:33:18.399675	7.8	11.5	-61.6	0.0
2026-01-24 08:33:20.653133	7.6	11.7	-63.6	0.0
2026-01-24 08:33:22.909922	7.5	11.9	-62.6	0.0
2026-01-24 08:33:25.161786	7.4	12.1	-62.8	0.0
2026-01-24 08:33:27.414537	7.2	12.3	-62.9	0.0
2026-01-24 08:33:29.669426	7.1	12.5	-60.5	0.0
2026-01-24 08:33:31.921528	7.0	12.7	-63.3	0.0
2026-01-24 08:33:34.173189	6.8	13.0	-60.7	0.0
2026-01-24 08:33:36.424741	6.7	13.2	-63.0	0.0
2026-01-24 08:33:38.676905	6.5	13.4	-62.8	0.0
2026-01-24 08:33:40.931276	6.4	13.6	-62.4	0.0
2026-01-24 08:33:43.185235	6.2	13.8	-61.6	0.0
2026-01-24 08:33:45.435174	6.0	14.0	-62.1	0.0
2026-01-24 08:33:47.685019	5.9	14.2	-60.7	0.0
2026-01-24 08:33:49.940951	5.7	14.5	-61.6	0.0
2026-01-24 08:33:52.194891	5.6	14.7	-61.5	0.0
2026-01-24 08:33:54.446598	5.4	14.9	-61.9	0.0
2026-01-24 08:33:56.700466	5.2	15.1	-60.6	0.0
2026-01-24 08:33:58.953156	5.1	15.4	-61.3	0.0
2026-01-24 08:34:01.206821	4.9	15.6	-63.3	0.0
2026-01-24 08:34:03.459345	4.7	15.8	-61.9	0.0
2026-01-24 08:34:05.710392	4.5	16.0	-62.2	0.0
2026-01-24 08:34:07.964356	4.3	16.3	-61.9	0.0
2026-01-24 08:34:10.216864	4.2	16.5	-63.0	0.0
2026-01-24 08:34:12.475106	4.0	16.8	-63.5	0.0
2026-01-24 08:34:14.728832	3.8	17.0	-63.0	0.0
2026-01-24 08:34:16.983323	3.6	17.2	-61.6	0.0
2026-01-24 08:34:19.237211	3.4	17.5	-62.6	0.0
2026-01-24 08:34:21.490257	3.2	17.7	-62.0	0.0
2026-01-24 08:34:23.743525	3.0	18.0	-62.9	0.0
2026-01-24 08:34:25.994872	2.8	18.2	-62.2	0.0
2026-01-24 08:34:28.248035	2.5	18.5	-62.7	0.0
2026-01-24 08:34:30.501370	2.3	18.7	-62.0	0.0
2026-01-24 08:34:32.753885	2.1	19.0	-62.7	0.0
2026-01-24 08:34:35.006103	1.9	19.3	-62.5	0.0
2026-01-24 08:34:37.257502	1.7	19.5	-63.2	0.0
2026-01-24 08:34:39.513325	1.4	19.8	-61.7	0.0
2026-01-24 08:34:41.764469	1.2	20.0	-63.6	0.0
2026-01-24 08:34:44.017252	0.9	20.3	-62.6	0.0
2026-01-24 08:34:46.270284	0.7	20.6	-63.8	0.0
2026-01-24 08:34:48.523393	0.4	20.9	-64.2	0.0
2026-01-24 08:34:50.775510	0.2	21.1	-64.2	0.0
2026-01-24 08:34:53.030470	359.9	21.4	-64.9	0.0
2026-01-24 08:34:55.285387	359.7	21.7	-63.9	0.0
2026-01-24 08:34:57.537936	359.4	22.0	-64.2	0.0
2026-01-24 08:34:59.790995	359.1	22.3	-63.9	0.0
2026-01-24 08:35:02.043766	358.8	22.6	-62.9	0.0
2026-01-24 08:35:04.296283	358.6	22.8	-65.1	0.0
2026-01-24 08:35:06.549379	358.3	23.1	-63.3	0.0
2026-01-24 08:35:08.801278	358.0	23.4	-63.8	0.0
2026-01-24 08:35:11.054091	357.7	23.7	-64.8	0.0
2026-01-24 08:35:13.308673	357.4	24.0	-65.0	0.0
2026-01-24 08:35:15.562867	357.0	24.3	-64.5	0.0
2026-01-24 08:35:17.815667	356.7	24.6	-63.5	0.0
2026-01-24 08:35:20.071467	356.4	25.0	-64.7	0.0
2026-01-24 08:35:22.322737	356.1	25.3	-65.0	0.0
2026-01-24 08:35:24.575911	355.7	25.6	-62.3	0.0
2026-01-24 08:35:26.828817	355.4	25.9	-64.1	0.0
2026-01-24 08:35:29.082974	355.0	26.2	-63.2	0.0
2026-01-24 08:35:31.334298	354.6	26.5	-64.8	0.0
2026-01-24 08:35:33.591630	354.3	26.9	-64.0	0.0
2026-01-24 08:35:35.844198	353.9	27.2	-64.6	0.0
2026-01-24 08:35:38.098375	353.5	27.5	-65.0	0.0
2026-01-24 08:35:40.348730	353.1	27.9	-65.0	0.0
2026-01-24 08:35:42.602462	352.7	28.2	-65.4	0.0
2026-01-24 08:35:44.852072	352.3	28.5	-64.7	0.0
2026-01-24 08:35:47.105855	351.9	28.9	-64.5	0.0
2026-01-24 08:35:49.360666	351.4	29.2	-64.6	0.0
2026-01-24 08:35:51.614506	351.0	29.6	-64.5	0.0
2026-01-24 08:35:53.866267	350.6	29.9	-63.3	0.0
2026-01-24 08:35:56.120811	350.1	30.3	-63.7	0.0
2026-01-24 08:35:58.373274	349.6	30.6	-64.8	0.0
2026-01-24 08:36:00.624769	349.1	31.0	-63.7	0.0
2026-01-24 08:36:02.875576	348.7	31.3	-63.0	0.0
2026-01-24 08:36:05.129538	348.2	31.7	-63.5	0.0
2026-01-24 08:36:07.383322	347.6	32.0	-62.9	0.0
2026-01-24 08:36:09.635960	347.1	32.4	-64.0	0.0
2026-01-24 08:36:11.886417	346.6	32.8	-64.4	0.0
2026-01-24 08:36:14.139816	346.0	33.1	-65.5	0.0
2026-01-24 08:36:16.390419	345.5	33.5	-65.8	0.0
2026-01-24 08:36:18.643035	344.9	33.8	-66.1	0.0
2026-01-24 08:36:20.895140	344.3	34.2	-65.1	0.0
2026-01-24 08:36:23.147701	343.7	34.6	-66.7	0.0
2026-01-24 08:36:25.400780	343.1	35.0	-67.6	0.0
2026-01-24 08:36:27.654108	342.5	35.3	-67.5	0.1
2026-01-24 08:36:29.906274	341.8	35.7	-67.2	0.0
2026-01-24 08:36:32.161343	341.1	36.1	-68.6	0.0
2026-01-24 08:36:34.413267	340.5	36.4	-68.2	0.0
2026-01-24 08:36:36.664018	339.8	36.8	-68.9	1.6
2026-01-24 08:36:38.915795	339.1	37.2	-68.6	0.0
2026-01-24 08:36:41.166081	338.4	37.5	-68.1	2.2
2026-01-24 08:36:43.419828	337.6	37.9	-67.3	0.6
2026-01-24 08:36:45.673955	336.9	38.3	-67.5	0.7
2026-01-24 08:36:47.928764	336.1	38.6	-67.8	0.0
2026-01-24 08:36:50.180317	335.3	39.0	-68.2	2.8
2026-01-24 08:36:52.433617	334.5	39.4	-68.3	3.3
2026-01-24 08:36:54.685570	333.6	39.7	-68.8	2.5
2026-01-24 08:36:56.937170	332.8	40.1	-68.5	1.0
2026-01-24 08:36:59.189922	331.9	40.4	-68.8	2.5
2026-01-24 08:37:01.443907	331.1	40.7	-68.1	3.1
2026-01-24 08:37:03.697510	330.1	41.1	-68.9	5.3
2026-01-24 08:37:05.954664	329.2	41.4	-67.8	3.7
2026-01-24 08:37:08.205331	328.3	41.8	-69.5	0.7
2026-01-24 08:37:10.457643	327.3	42.1	-70.0	4.3
2026-01-24 08:37:12.713724	326.3	42.4	-70.2	4.3
2026-01-24 08:37:14.966966	325.3	42.7	-71.6	4.1
2026-01-24 08:37:17.218471	324.3	43.0	-70.6	4.5
2026-01-24 08:37:19.471790	323.3	43.3	-69.9	3.3
2026-01-24 08:37:21.725705	322.2	43.6	-70.4	5.5
2026-01-24 08:37:23.981409	321.1	43.9	-70.5	4.2
2026-01-24 08:37:26.231572	320.1	44.1	-70.9	5.3
2026-01-24 08:37:28.484083	318.9	44.4	-69.3	1.7
2026-01-24 08:37:30.735407	317.8	44.6	-69.9	4.7
2026-01-24 08:37:32.984544	316.7	44.9	-70.1	4.6
2026-01-24 08:37:35.238286	315.5	45.1	-69.7	3.3
2026-01-24 08:37:37.489543	314.3	45.3	-70.8	7.0
2026-01-24 08:37:39.740972	313.1	45.5	-71.1	7.5
2026-01-24 08:37:41.992611	311.9	45.7	-70.8	7.2
2026-01-24 08:37:44.245369	310.7	45.8	-70.9	6.1
2026-01-24 08:37:46.498920	309.4	46.0	-69.1	3.1
2026-01-24 08:37:48.750032	308.2	46.1	-69.7	2.7
2026-01-24 08:37:51.002059	306.9	46.3	-69.8	3.6
2026-01-24 08:37:53.256555	305.7	46.4	-70.6	3.4
2026-01-24 08:37:55.509376	304.4	46.5	-68.2	0.0
2026-01-24 08:37:57.762119	303.1	46.6	-70.2	2.1
2026-01-24 08:38:00.014642	301.8	46.6	-69.7	0.3
2026-01-24 08:38:02.266115	300.5	46.7	-68.2	0.0
2026-01-24 08:38:04.524517	299.2	46.7	-69.2	1.0
2026-01-24 08:38:06.777798	297.9	46.7	-68.9	2.2
2026-01-24 08:38:09.029538	296.6	46.7	-68.5	0.0
2026-01-24 08:38:11.286146	295.3	46.7	-68.6	1.8
2026-01-24 08:38:13.538384	294.0	46.7	-67.3	0.0
2026-01-24 08:38:15.796712	292.7	46.6	-70.0	2.8
2026-01-24 08:38:18.048884	291.4	46.6	-69.4	4.4
2026-01-24 08:38:20.299556	290.1	46.5	-68.1	0.4
2026-01-24 08:38:22.552631	288.8	46.4	-68.0	1.6
2026-01-24 08:38:24.804564	287.5	46.3	-69.3	1.8
2026-01-24 08:38:27.055810	286.3	46.2	-68.3	4.1
2026-01-24 08:38:29.311787	285.0	46.0	-67.5	0.0
2026-01-24 08:38:31.563728	283.8	45.9	-70.3	4.1
2026-01-24 08:38:33.815056	282.6	45.7	-72.1	6.1
2026-01-24 08:38:36.066658	281.3	45.5	-73.4	7.2
2026-01-24 08:38:38.318395	280.1	45.3	-71.6	3.8
2026-01-24 08:38:40.567869	279.0	45.1	-71.8	4.1
2026-01-24 08:38:42.822081	277.8	44.9	-71.7	6.6
2026-01-24 08:38:45.075188	276.6	44.7	-72.1	5.8
2026-01-24 08:38:47.326898	275.5	44.4	-73.0	7.5
2026-01-24 08:38:49.580842	274.4	44.2	-73.1	9.0
2026-01-24 08:38:51.833450	273.3	43.9	-72.6	9.2
2026-01-24 08:38:54.082004	272.2	43.6	-73.1	7.3
2026-01-24 08:38:56.334021	271.1	43.3	-71.8	4.8
2026-01-24 08:38:58.583774	270.1	43.0	-72.4	7.9
2026-01-24 08:39:00.834599	269.1	42.7	-72.6	9.4
2026-01-24 08:39:03.086366	268.1	42.4	-72.3	8.2
2026-01-24 08:39:05.336890	267.1	42.1	-72.2	10.1
2026-01-24 08:39:07.589325	266.1	41.8	-71.5	8.7
2026-01-24 08:39:09.840595	265.2	41.5	-72.6	9.6
2026-01-24 08:39:12.090174	264.2	41.1	-72.7	8.7
2026-01-24 08:39:14.344201	263.3	40.8	-71.3	6.7
2026-01-24 08:39:16.597549	262.4	40.4	-72.1	9.3
2026-01-24 08:39:18.850461	261.6	40.1	-71.9	8.8
2026-01-24 08:39:21.109197	260.7	39.7	-72.7	8.5
2026-01-24 08:39:23.359679	259.9	39.4	-71.7	9.0
2026-01-24 08:39:25.611091	259.1	39.0	-73.0	9.3
2026-01-24 08:39:27.862001	258.3	38.7	-72.3	9.2
2026-01-24 08:39:30.114561	257.5	38.3	-73.3	11.4
2026-01-24 08:39:32.363439	256.7	37.9	-72.4	7.7
2026-01-24 08:39:34.617176	256.0	37.6	-72.5	7.7
2026-01-24 08:39:36.868010	255.2	37.2	-72.8	8.6
2026-01-24 08:39:39.117824	254.5	36.8	-72.7	7.7
2026-01-24 08:39:41.369659	253.8	36.5	-72.8	8.7
2026-01-24 08:39:43.621104	253.2	36.1	-72.8	8.1
2026-01-24 08:39:45.872363	252.5	35.7	-72.9	10.2
2026-01-24 08:39:48.124031	251.8	35.3	-72.5	9.2
2026-01-24 08:39:50.377584	251.2	35.0	-72.1	8.1
2026-01-24 08:39:52.629528	250.6	34.6	-72.9	8.7
2026-01-24 08:39:54.882134	250.0	34.2	-72.9	9.7
2026-01-24 08:39:57.132159	249.4	33.9	-72.9	9.6
2026-01-24 08:39:59.382846	248.8	33.5	-73.1	10.3
2026-01-24 08:40:01.638540	248.2	33.1	-73.4	8.8
2026-01-24 08:40:03.894485	247.7	32.8	-73.6	9.9
2026-01-24 08:40:06.148151	247.1	32.4	-73.4	8.8
2026-01-24 08:40:08.399615	246.6	32.0	-73.5	8.8
2026-01-24 08:40:10.649606	246.1	31.7	-73.7	10.0
2026-01-24 08:40:12.901701	245.6	31.3	-73.4	7.6
2026-01-24 08:40:15.153374	245.1	31.0	-73.3	9.3
2026-01-24 08:40:17.405477	244.6	30.6	-73.6	11.1
2026-01-24 08:40:19.655055	244.1	30.2	-72.5	9.6
2026-01-24 08:40:21.907553	243.7	29.9	-74.0	7.6
2026-01-24 08:40:24.161010	243.2	29.5	-73.8	8.7
2026-01-24 08:40:26.411280	242.8	29.2	-73.9	8.4
2026-01-24 08:40:28.661926	242.3	28.9	-74.0	7.8
2026-01-24 08:40:30.913850	241.9	28.5	-73.3	6.6
2026-01-24 08:40:33.164569	241.5	28.2	-73.7	8.4
2026-01-24 08:40:35.414699	241.1	27.8	-72.4	6.8
2026-01-24 08:40:37.674296	240.7	27.5	-72.4	6.6
2026-01-24 08:40:39.926752	240.3	27.2	-72.9	7.1
2026-01-24 08:40:42.182230	239.9	26.8	-73.7	6.3
2026-01-24 08:40:44.435427	239.5	26.5	-73.4	6.7
2026-01-24 08:40:46.688035	239.2	26.2	-73.3	6.2
2026-01-24 08:40:48.941223	238.8	25.9	-73.6	5.8
2026-01-24 08:40:51.192502	238.5	25.6	-73.5	6.3
2026-01-24 08:40:53.445414	238.1	25.2	-73.3	5.8
2026-01-24 08:40:55.696694	237.8	24.9	-74.0	7.0
2026-01-24 08:40:57.948380	237.5	24.6	-73.6	6.8
2026-01-24 08:41:00.200036	237.1	24.3	-74.0	6.8
2026-01-24 08:41:02.453876	236.8	24.0	-73.9	6.7
2026-01-24 08:41:04.704659	236.5	23.7	-74.0	5.3
2026-01-24 08:41:06.957940	236.2	23.4	-74.6	6.0
2026-01-24 08:41:09.210309	235.9	23.1	-74.3	6.4
2026-01-24 08:41:11.464382	235.6	22.8	-74.4	7.4
2026-01-24 08:41:13.717180	235.3	22.5	-74.4	7.1
2026-01-24 08:41:15.967637	235.0	22.2	-73.4	6.6
2026-01-24 08:41:18.223073	234.8	21.9	-73.7	6.3
2026-01-24 08:41:20.474082	234.5	21.6	-73.6	4.8
2026-01-24 08:41:22.726620	234.2	21.4	-74.0	6.9
2026-01-24 08:41:24.978430	234.0	21.1	-74.0	6.5
2026-01-24 08:41:27.231903	233.7	20.8	-73.2	4.8
2026-01-24 08:41:29.482774	233.4	20.5	-74.0	5.9
2026-01-24 08:41:31.734062	233.2	20.3	-73.1	5.9
2026-01-24 08:41:33.985746	232.9	20.0	-73.3	4.5
2026-01-24 08:41:36.234752	232.7	19.7	-73.6	6.2
2026-01-24 08:41:38.485908	232.5	19.4	-73.5	5.5
2026-01-24 08:41:40.739830	232.2	19.2	-73.8	3.6
2026-01-24 08:41:42.992796	232.0	18.9	-74.6	5.8
2026-01-24 08:41:45.241512	231.8	18.7	-73.4	4.0
2026-01-24 08:41:47.493737	231.6	18.4	-73.4	3.9
2026-01-24 08:41:49.746363	231.4	18.2	-73.1	3.3
2026-01-24 08:41:52.000437	231.1	17.9	-73.3	3.4
2026-01-24 08:41:54.251928	230.9	17.7	-73.4	3.7
2026-01-24 08:41:56.506832	230.7	17.4	-73.7	2.9
2026-01-24 08:41:58.761316	230.5	17.2	-74.0	6.0
2026-01-24 08:42:01.015567	230.3	16.9	-73.7	3.9
2026-01-24 08:42:03.269271	230.1	16.7	-73.0	1.3
2026-01-24 08:42:05.520692	229.9	16.4	-72.9	1.8
2026-01-24 08:42:07.779004	229.8	16.2	-73.3	3.6
2026-01-24 08:42:10.030004	229.6	16.0	-73.0	4.3
2026-01-24 08:42:12.285184	229.4	15.7	-73.3	4.6
2026-01-24 08:42:14.538707	229.2	15.5	-71.8	1.8
2026-01-24 08:42:16.790160	229.0	15.3	-72.3	2.0
2026-01-24 08:42:19.041063	228.9	15.0	-72.8	3.5
2026-01-24 08:42:21.295042	228.7	14.8	-72.6	0.0
2026-01-24 08:42:23.548253	228.5	14.6	-73.6	0.0
2026-01-24 08:42:25.801639	228.3	14.4	-72.7	0.0
2026-01-24 08:42:28.052224	228.2	14.1	-72.5	0.0
2026-01-24 08:42:30.304477	228.0	13.9	-73.3	0.2
2026-01-24 08:42:32.561719	227.9	13.7	-74.3	1.7
2026-01-24 08:42:34.817380	227.7	13.5	-73.5	0.0
2026-01-24 08:42:37.069189	227.6	13.3	-73.2	1.0
2026-01-24 08:42:39.324417	227.4	13.1	-72.7	2.7
2026-01-24 08:42:41.578215	227.3	12.9	-72.7	3.6
2026-01-24 08:42:43.830567	227.1	12.6	-74.1	2.6
2026-01-24 08:42:46.081884	227.0	12.4	-73.1	2.2
2026-01-24 08:42:48.334906	226.8	12.2	-74.0	0.8
2026-01-24 08:42:50.588293	226.7	12.0	-72.9	0.0
2026-01-24 08:42:52.840224	226.5	11.8	-72.4	0.0
2026-01-24 08:42:55.093278	226.4	11.6	-72.8	0.6
2026-01-24 08:42:57.344695	226.3	11.4	-72.2	1.0
2026-01-24 08:42:59.597701	226.1	11.2	-72.4	0.0
2026-01-24 08:43:01.851350	226.0	11.0	-73.2	0.0
2026-01-24 08:43:04.102390	225.9	10.8	-75.1	3.9
2026-01-24 08:43:06.349914	225.7	10.6	-75.2	0.0
2026-01-24 08:43:08.602669	225.6	10.5	-77.6	0.0
2026-01-24 08:43:10.856855	225.5	10.3	-78.4	0.0
2026-01-24 08:43:13.109155	225.4	10.1	-78.9	0.0
#Closed at: 2026-01-24 08:32:55.456034