passes_logs/2026/01/24/planumMaritime01/planumMaritime01__20260124_164907_METEOR-M2_3_rec.log

#Pass ID: 20260124_164907_METEOR-M2 3
#Satellite: METEOR-M2 3
#Configuration: METEOR-M2 3
#Start time: 2026-01-24 16:49:12.101239

#LorettStation: 1.0.0 05.05.2024
#Station: planumMaritime01
#Location: 37.49445 lon 55.92918 lat
#TLE: 1 57166U 23091A   26024.27094743  .00000045  00000+0  38319-4 0  9996
#TLE: 2 57166  98.6313  82.0544 0003293 215.5667 144.5293 14.24032361134034

#Time	Az	El	Level	SNR
2026-01-24 16:49:14.274861	126.7	10.2	-82.5	0.0
2026-01-24 16:49:16.543734	126.6	10.4	-80.5	0.0
2026-01-24 16:49:18.818200	126.4	10.5	-79.0	2.6
2026-01-24 16:49:21.088274	126.2	10.7	-77.4	0.0
2026-01-24 16:49:23.358148	126.1	10.9	-78.5	4.0
2026-01-24 16:49:25.636061	125.9	11.1	-78.6	5.0
2026-01-24 16:49:27.915185	125.7	11.3	-78.5	6.4
2026-01-24 16:49:30.183670	125.5	11.5	-78.6	4.5
2026-01-24 16:49:32.444083	125.4	11.7	-78.4	6.2
2026-01-24 16:49:34.702619	125.2	11.9	-78.5	5.7
2026-01-24 16:49:36.958022	125.0	12.1	-79.0	7.0
2026-01-24 16:49:39.218249	124.8	12.3	-78.1	5.1
2026-01-24 16:49:41.476000	124.6	12.5	-78.8	7.3
2026-01-24 16:49:43.736171	124.4	12.7	-78.2	5.3
2026-01-24 16:49:45.996047	124.2	12.9	-79.3	6.8
2026-01-24 16:49:48.258189	124.0	13.1	-78.8	6.4
2026-01-24 16:49:50.521329	123.8	13.3	-78.5	6.4
2026-01-24 16:49:52.780145	123.6	13.5	-78.7	6.6
2026-01-24 16:49:55.041799	123.4	13.7	-78.5	7.0
2026-01-24 16:49:57.312680	123.2	13.9	-78.7	6.6
2026-01-24 16:49:59.588013	123.0	14.1	-78.7	5.5
2026-01-24 16:50:01.862383	122.8	14.3	-78.8	7.1
2026-01-24 16:50:04.136118	122.6	14.6	-78.4	6.0
2026-01-24 16:50:06.412621	122.4	14.8	-78.4	7.0
2026-01-24 16:50:08.688569	122.1	15.0	-77.8	7.0
2026-01-24 16:50:10.962713	121.9	15.2	-78.5	6.8
2026-01-24 16:50:13.234816	121.7	15.4	-78.2	6.7
2026-01-24 16:50:15.508597	121.4	15.6	-78.2	7.0
2026-01-24 16:50:17.786496	121.2	15.9	-78.2	6.4
2026-01-24 16:50:20.062682	121.0	16.1	-77.8	7.7
2026-01-24 16:50:22.338007	120.7	16.3	-77.9	7.6
2026-01-24 16:50:24.612578	120.5	16.5	-77.1	7.2
2026-01-24 16:50:26.888580	120.2	16.8	-77.9	7.8
2026-01-24 16:50:29.164914	120.0	17.0	-77.8	8.2
2026-01-24 16:50:31.442951	119.7	17.2	-77.9	7.1
2026-01-24 16:50:33.718025	119.4	17.5	-77.5	5.7
2026-01-24 16:50:35.985990	119.2	17.7	-78.1	9.3
2026-01-24 16:50:38.252875	118.9	17.9	-77.6	8.6
2026-01-24 16:50:40.523411	118.6	18.2	-77.0	4.3
2026-01-24 16:50:42.793306	118.3	18.4	-77.9	8.5
2026-01-24 16:50:45.065734	118.0	18.7	-77.8	8.3
2026-01-24 16:50:47.332551	117.7	18.9	-77.7	8.4
2026-01-24 16:50:49.602657	117.4	19.2	-77.3	7.3
2026-01-24 16:50:51.871964	117.1	19.4	-77.4	8.7
2026-01-24 16:50:54.147916	116.8	19.7	-78.2	8.2
2026-01-24 16:50:56.426501	116.5	19.9	-77.8	6.8
2026-01-24 16:50:58.696181	116.2	20.2	-77.8	8.8
2026-01-24 16:51:00.967995	115.9	20.4	-77.9	9.3
2026-01-24 16:51:03.236772	115.6	20.7	-77.6	9.0
2026-01-24 16:51:05.507919	115.2	20.9	-76.4	6.5
2026-01-24 16:51:07.778759	114.9	21.2	-77.2	7.7
2026-01-24 16:51:10.050970	114.5	21.4	-76.6	6.3
2026-01-24 16:51:12.311086	114.2	21.7	-77.1	8.6
2026-01-24 16:51:14.571008	113.8	22.0	-77.4	7.9
2026-01-24 16:51:16.830419	113.5	22.2	-77.7	8.3
2026-01-24 16:51:19.089797	113.1	22.5	-77.5	9.0
2026-01-24 16:51:21.351118	112.7	22.8	-77.6	8.3
2026-01-24 16:51:23.610909	112.3	23.0	-77.6	9.2
2026-01-24 16:51:25.869687	112.0	23.3	-77.8	9.3
2026-01-24 16:51:28.127244	111.6	23.6	-78.0	9.0
2026-01-24 16:51:30.383172	111.2	23.8	-77.1	8.9
2026-01-24 16:51:32.647393	110.7	24.1	-77.8	9.3
2026-01-24 16:51:34.914897	110.3	24.4	-76.9	7.2
2026-01-24 16:51:37.193908	109.9	24.7	-76.6	6.3
2026-01-24 16:51:39.464572	109.5	24.9	-76.6	6.9
2026-01-24 16:51:41.741749	109.0	25.2	-76.8	7.3
2026-01-24 16:51:44.018854	108.6	25.5	-76.7	8.7
2026-01-24 16:51:46.293250	108.1	25.8	-77.4	10.0
2026-01-24 16:51:48.565255	107.6	26.1	-77.3	10.5
2026-01-24 16:51:50.836112	107.2	26.3	-77.0	9.1
2026-01-24 16:51:53.103063	106.7	26.6	-76.7	6.8
2026-01-24 16:51:55.370023	106.2	26.9	-76.8	7.6
2026-01-24 16:51:57.638476	105.7	27.2	-77.4	9.1
2026-01-24 16:51:59.906132	105.2	27.5	-77.2	8.2
2026-01-24 16:52:02.171440	104.7	27.8	-77.3	8.0
2026-01-24 16:52:04.441059	104.1	28.1	-77.3	9.7
2026-01-24 16:52:06.708720	103.6	28.3	-76.4	7.6
2026-01-24 16:52:08.976615	103.1	28.6	-77.5	9.7
2026-01-24 16:52:11.241517	102.5	28.9	-77.5	8.9
2026-01-24 16:52:13.509104	101.9	29.2	-76.8	9.4
2026-01-24 16:52:15.781936	101.4	29.5	-76.6	8.2
2026-01-24 16:52:18.049604	100.8	29.8	-76.6	6.6
2026-01-24 16:52:20.317893	100.2	30.1	-77.6	9.4
2026-01-24 16:52:22.587264	99.6	30.3	-76.6	9.3
2026-01-24 16:52:24.857393	98.9	30.6	-76.2	8.1
2026-01-24 16:52:27.132622	98.3	30.9	-77.4	8.5
2026-01-24 16:52:29.402154	97.7	31.2	-77.0	6.9
2026-01-24 16:52:31.671767	97.0	31.5	-76.8	8.8
2026-01-24 16:52:33.940248	96.3	31.7	-76.8	8.2
2026-01-24 16:52:36.209066	95.7	32.0	-76.8	8.4
2026-01-24 16:52:38.478449	95.0	32.3	-76.3	7.1
2026-01-24 16:52:40.746416	94.3	32.6	-76.0	8.0
2026-01-24 16:52:43.013560	93.6	32.8	-76.9	8.5
2026-01-24 16:52:45.281665	92.8	33.1	-76.7	9.6
2026-01-24 16:52:47.550210	92.1	33.4	-76.6	10.7
2026-01-24 16:52:49.817204	91.4	33.6	-76.4	8.3
2026-01-24 16:52:52.087901	90.6	33.9	-75.5	8.0
2026-01-24 16:52:54.362982	89.8	34.1	-75.3	5.9
2026-01-24 16:52:56.627597	89.0	34.4	-76.4	8.0
2026-01-24 16:52:58.896531	88.2	34.6	-75.9	7.4
2026-01-24 16:53:01.165780	87.4	34.9	-76.5	7.8
2026-01-24 16:53:03.433473	86.6	35.1	-74.8	6.0
2026-01-24 16:53:05.700235	85.8	35.3	-73.3	3.4
2026-01-24 16:53:07.967594	84.9	35.6	-75.4	6.4
2026-01-24 16:53:10.232947	84.1	35.8	-74.5	0.8
2026-01-24 16:53:12.502364	83.2	36.0	-77.0	6.6
2026-01-24 16:53:14.766781	82.3	36.2	-77.1	5.7
2026-01-24 16:53:17.033078	81.4	36.4	-76.6	4.9
2026-01-24 16:53:19.299153	80.5	36.6	-76.5	5.9
2026-01-24 16:53:21.564861	79.6	36.8	-76.1	1.7
2026-01-24 16:53:23.834989	78.7	37.0	-74.8	1.2
2026-01-24 16:53:26.105619	77.8	37.1	-74.7	3.3
2026-01-24 16:53:28.372395	76.8	37.3	-76.8	6.6
2026-01-24 16:53:30.641147	75.9	37.5	-75.7	3.0
2026-01-24 16:53:32.917705	74.9	37.6	-75.0	4.7
2026-01-24 16:53:35.190726	74.0	37.8	-75.6	5.5
2026-01-24 16:53:37.464125	73.0	37.9	-74.4	0.1
2026-01-24 16:53:39.737989	72.0	38.0	-74.4	1.0
2026-01-24 16:53:42.010258	71.0	38.1	-74.4	2.0
2026-01-24 16:53:44.289367	70.0	38.2	-74.3	1.6
2026-01-24 16:53:46.563178	69.0	38.3	-74.4	3.2
2026-01-24 16:53:48.839606	68.0	38.4	-75.1	2.4
2026-01-24 16:53:51.102340	67.0	38.5	-74.0	2.9
2026-01-24 16:53:53.362160	65.9	38.5	-74.5	4.9
2026-01-24 16:53:55.619693	64.9	38.6	-75.0	3.6
2026-01-24 16:53:57.876257	63.9	38.6	-73.9	1.1
2026-01-24 16:54:00.131101	62.9	38.7	-75.0	3.3
2026-01-24 16:54:02.394806	61.9	38.7	-74.2	0.0
2026-01-24 16:54:04.653958	60.8	38.7	-74.3	2.5
2026-01-24 16:54:06.912988	59.8	38.7	-75.3	1.4
2026-01-24 16:54:09.169443	58.8	38.7	-73.8	2.5
2026-01-24 16:54:11.435493	57.8	38.7	-73.8	0.3
2026-01-24 16:54:13.708754	56.7	38.6	-72.1	0.0
2026-01-24 16:54:15.977892	55.7	38.6	-72.3	0.0
2026-01-24 16:54:18.249786	54.7	38.5	-72.2	0.0
2026-01-24 16:54:20.520849	53.7	38.5	-72.3	0.0
2026-01-24 16:54:22.791670	52.6	38.4	-73.9	1.5
2026-01-24 16:54:25.061719	51.6	38.3	-72.6	0.0
2026-01-24 16:54:27.334773	50.6	38.2	-73.1	0.0
2026-01-24 16:54:29.607261	49.6	38.1	-73.7	1.4
2026-01-24 16:54:31.882268	48.6	38.0	-72.7	0.7
2026-01-24 16:54:34.144678	47.7	37.9	-72.5	0.0
2026-01-24 16:54:36.406406	46.7	37.8	-71.6	0.0
2026-01-24 16:54:38.668833	45.7	37.6	-73.3	1.2
2026-01-24 16:54:40.930034	44.8	37.5	-73.1	2.6
2026-01-24 16:54:43.190237	43.8	37.3	-72.4	0.0
2026-01-24 16:54:45.456322	42.9	37.2	-72.3	0.0
2026-01-24 16:54:47.722589	41.9	37.0	-71.3	0.0
2026-01-24 16:54:49.992083	41.0	36.8	-73.0	0.1
2026-01-24 16:54:52.266502	40.1	36.6	-73.0	0.0
2026-01-24 16:54:54.536678	39.2	36.5	-72.5	0.0
2026-01-24 16:54:56.816276	38.3	36.3	-73.0	0.0
2026-01-24 16:54:59.095526	37.4	36.0	-73.0	0.6
2026-01-24 16:55:01.366069	36.5	35.8	-72.9	0.0
2026-01-24 16:55:03.646209	35.7	35.6	-72.1	0.0
2026-01-24 16:55:05.925738	34.8	35.4	-69.6	0.0
2026-01-24 16:55:08.202236	34.0	35.2	-69.6	0.0
2026-01-24 16:55:10.478697	33.2	34.9	-70.7	0.0
2026-01-24 16:55:12.752022	32.4	34.7	-68.2	0.0
2026-01-24 16:55:15.027034	31.6	34.4	-68.8	0.0
2026-01-24 16:55:17.302178	30.8	34.2	-68.5	0.0
2026-01-24 16:55:19.581937	30.0	33.9	-68.3	0.0
2026-01-24 16:55:21.856286	29.2	33.7	-70.0	0.0
2026-01-24 16:55:24.131026	28.5	33.4	-68.4	0.0
2026-01-24 16:55:26.402760	27.8	33.2	-69.7	0.0
2026-01-24 16:55:28.678552	27.0	32.9	-69.4	0.0
2026-01-24 16:55:30.953199	26.3	32.6	-70.4	0.0
2026-01-24 16:55:33.225693	25.6	32.4	-70.5	0.0
2026-01-24 16:55:35.502125	24.9	32.1	-69.6	0.0
2026-01-24 16:55:37.774024	24.2	31.8	-69.3	0.0
2026-01-24 16:55:40.048414	23.6	31.5	-69.3	0.0
2026-01-24 16:55:42.322693	22.9	31.3	-66.8	0.0
2026-01-24 16:55:44.595248	22.3	31.0	-67.5	0.0
2026-01-24 16:55:46.851943	21.7	30.7	-67.0	0.0
2026-01-24 16:55:49.108533	21.0	30.4	-67.4	0.0
2026-01-24 16:55:51.363597	20.4	30.1	-68.3	0.0
2026-01-24 16:55:53.621918	19.8	29.9	-68.1	0.0
2026-01-24 16:55:55.879203	19.2	29.6	-66.1	0.0
2026-01-24 16:55:58.140073	18.7	29.3	-68.3	0.0
2026-01-24 16:56:00.399869	18.1	29.0	-67.3	0.0
2026-01-24 16:56:02.655904	17.6	28.7	-68.0	0.0
2026-01-24 16:56:04.912136	17.0	28.4	-67.5	0.0
2026-01-24 16:56:07.169774	16.5	28.1	-67.1	0.0
2026-01-24 16:56:09.448742	15.9	27.9	-68.1	0.0
2026-01-24 16:56:11.721340	15.4	27.6	-68.8	0.0
2026-01-24 16:56:14.001083	14.9	27.3	-67.2	0.0
2026-01-24 16:56:16.276691	14.4	27.0	-67.0	0.0
2026-01-24 16:56:18.550587	13.9	26.7	-67.3	0.0
2026-01-24 16:56:20.828741	13.4	26.4	-69.3	0.0
2026-01-24 16:56:23.102833	13.0	26.2	-68.8	0.0
2026-01-24 16:56:25.373861	12.5	25.9	-68.7	0.0
2026-01-24 16:56:27.642535	12.0	25.6	-68.6	0.0
2026-01-24 16:56:29.909745	11.6	25.3	-68.6	0.0
2026-01-24 16:56:32.182075	11.1	25.0	-68.6	0.0
2026-01-24 16:56:34.449060	10.7	24.8	-68.5	0.0
2026-01-24 16:56:36.715718	10.3	24.5	-68.6	0.0
2026-01-24 16:56:38.984817	9.9	24.2	-68.4	0.0
2026-01-24 16:56:41.251922	9.5	23.9	-67.3	0.0
2026-01-24 16:56:43.519159	9.1	23.7	-67.5	0.0
2026-01-24 16:56:45.786139	8.7	23.4	-68.6	0.0
2026-01-24 16:56:48.060220	8.3	23.1	-68.5	0.0
2026-01-24 16:56:50.332958	7.9	22.9	-68.1	0.0
2026-01-24 16:56:52.605252	7.5	22.6	-67.1	0.0
2026-01-24 16:56:54.880872	7.1	22.3	-68.2	0.0
2026-01-24 16:56:57.154283	6.8	22.1	-68.1	0.0
2026-01-24 16:56:59.428451	6.4	21.8	-67.0	0.0
2026-01-24 16:57:01.700376	6.1	21.5	-67.8	0.0
2026-01-24 16:57:03.973450	5.7	21.3	-65.1	0.0
2026-01-24 16:57:06.252490	5.4	21.0	-68.7	0.0
2026-01-24 16:57:08.526491	5.1	20.8	-68.3	0.0
2026-01-24 16:57:10.802431	4.7	20.5	-69.3	0.0
2026-01-24 16:57:13.078016	4.4	20.3	-68.2	0.0
2026-01-24 16:57:15.353838	4.1	20.0	-68.8	0.0
2026-01-24 16:57:17.629996	3.8	19.8	-69.3	0.0
2026-01-24 16:57:19.908836	3.5	19.5	-69.3	0.0
2026-01-24 16:57:22.186024	3.2	19.3	-69.3	0.0
2026-01-24 16:57:24.460767	2.9	19.0	-68.8	0.0
2026-01-24 16:57:26.732286	2.6	18.8	-68.7	0.0
2026-01-24 16:57:29.006941	2.3	18.5	-69.6	0.0
2026-01-24 16:57:31.280646	2.0	18.3	-69.0	0.0
2026-01-24 16:57:33.544386	1.7	18.1	-68.8	0.0
2026-01-24 16:57:35.809160	1.5	17.8	-69.2	0.0
2026-01-24 16:57:38.067563	1.2	17.6	-69.7	0.0
2026-01-24 16:57:40.332978	0.9	17.4	-70.2	0.0
2026-01-24 16:57:42.598905	0.7	17.1	-68.6	0.0
2026-01-24 16:57:44.863660	0.4	16.9	-70.1	0.0
2026-01-24 16:57:47.126625	0.2	16.7	-68.9	0.0
2026-01-24 16:57:49.393162	359.9	16.4	-70.3	0.0
2026-01-24 16:57:51.657254	359.7	16.2	-70.3	0.0
2026-01-24 16:57:53.921935	359.4	16.0	-70.0	0.0
2026-01-24 16:57:56.176222	359.2	15.8	-70.8	0.0
2026-01-24 16:57:58.433981	359.0	15.6	-70.0	0.0
2026-01-24 16:58:00.690572	358.7	15.3	-71.3	0.0
2026-01-24 16:58:02.948965	358.5	15.1	-69.6	0.0
2026-01-24 16:58:05.209892	358.3	14.9	-71.0	0.0
2026-01-24 16:58:07.467188	358.1	14.7	-68.9	0.0
2026-01-24 16:58:09.730290	357.9	14.5	-69.9	0.0
2026-01-24 16:58:11.987868	357.6	14.3	-69.6	0.0
2026-01-24 16:58:14.248922	357.4	14.1	-68.6	0.0
2026-01-24 16:58:16.506420	357.2	13.8	-71.3	0.0
2026-01-24 16:58:18.769047	357.0	13.6	-70.3	0.0
2026-01-24 16:58:21.034168	356.8	13.4	-69.6	0.0
2026-01-24 16:58:23.297241	356.6	13.2	-69.8	0.0
2026-01-24 16:58:25.557522	356.4	13.0	-68.4	0.0
2026-01-24 16:58:27.820404	356.2	12.8	-71.2	0.0
2026-01-24 16:58:30.083074	356.1	12.6	-70.5	0.0
2026-01-24 16:58:32.341503	355.9	12.4	-70.4	0.0
2026-01-24 16:58:34.605991	355.7	12.2	-71.6	0.0
2026-01-24 16:58:36.867817	355.5	12.0	-71.3	0.0
2026-01-24 16:58:39.132613	355.3	11.8	-71.7	0.0
2026-01-24 16:58:41.397107	355.1	11.6	-70.7	0.0
2026-01-24 16:58:43.660845	355.0	11.5	-69.9	0.0
2026-01-24 16:58:45.925172	354.8	11.3	-70.7	0.0
2026-01-24 16:58:48.187205	354.6	11.1	-70.1	0.0
2026-01-24 16:58:50.451203	354.5	10.9	-70.2	0.0
2026-01-24 16:58:52.720025	354.3	10.7	-66.1	0.0
2026-01-24 16:58:54.987465	354.1	10.5	-68.7	0.0
2026-01-24 16:58:57.251818	354.0	10.3	-71.4	0.0
2026-01-24 16:58:59.518440	353.8	10.1	-76.1	0.0
#Closed at: 2026-01-24 16:49:07.107558