passes_logs/2026/01/24/planumMaritime01/planumMaritime01__20260124_160558_METOP-B_rec.log

#Pass ID: 20260124_160558_METOP-B
#Satellite: METOP-B
#Configuration: METOP-B
#Start time: 2026-01-24 16:06:03.086220

#LorettStation: 1.0.0 05.05.2024
#Station: planumMaritime01
#Location: 37.49445 lon 55.92918 lat
#TLE: 1 38771U 12049A   26024.30979649  .00000246  00000+0  13231-3 0  9997
#TLE: 2 38771  98.6735  78.5342 0003027  57.8768 302.2703 14.21427789692827

#Time	Az	El	Level	SNR
2026-01-24 16:06:05.261935	108.8	10.2	-75.0	0.0
2026-01-24 16:06:07.517722	108.6	10.3	-76.0	0.0
2026-01-24 16:06:09.773430	108.3	10.5	-74.9	0.0
2026-01-24 16:06:12.029457	108.1	10.6	-72.5	0.0
2026-01-24 16:06:14.282289	107.8	10.8	-71.1	0.0
2026-01-24 16:06:16.538839	107.6	11.0	-70.9	0.0
2026-01-24 16:06:18.790716	107.3	11.1	-70.4	0.0
2026-01-24 16:06:21.044449	107.1	11.3	-71.2	0.0
2026-01-24 16:06:23.296460	106.8	11.5	-70.8	0.0
2026-01-24 16:06:25.551337	106.6	11.6	-70.5	0.0
2026-01-24 16:06:27.801542	106.3	11.8	-71.2	0.0
2026-01-24 16:06:30.051944	106.0	12.0	-72.0	0.0
2026-01-24 16:06:32.306661	105.8	12.2	-71.8	0.0
2026-01-24 16:06:34.560393	105.5	12.3	-72.4	0.0
2026-01-24 16:06:36.812979	105.2	12.5	-71.3	0.0
2026-01-24 16:06:39.063681	105.0	12.7	-72.1	0.0
2026-01-24 16:06:41.317888	104.7	12.8	-70.0	0.0
2026-01-24 16:06:43.572685	104.4	13.0	-72.7	0.0
2026-01-24 16:06:45.826375	104.1	13.2	-70.9	0.0
2026-01-24 16:06:48.083414	103.8	13.4	-71.3	0.0
2026-01-24 16:06:50.335798	103.5	13.5	-71.1	0.0
2026-01-24 16:06:52.587075	103.2	13.7	-70.5	0.0
2026-01-24 16:06:54.838060	102.9	13.9	-69.9	0.0
2026-01-24 16:06:57.094825	102.6	14.1	-71.6	0.0
2026-01-24 16:06:59.344147	102.3	14.2	-70.9	0.0
2026-01-24 16:07:01.597894	102.0	14.4	-71.2	0.0
2026-01-24 16:07:03.850437	101.7	14.6	-71.9	0.0
2026-01-24 16:07:06.102399	101.3	14.8	-71.7	0.0
2026-01-24 16:07:08.349798	101.0	14.9	-69.8	0.0
2026-01-24 16:07:10.603751	100.7	15.1	-70.7	0.0
2026-01-24 16:07:12.856499	100.4	15.3	-70.6	0.0
2026-01-24 16:07:15.111829	100.0	15.5	-69.9	0.0
2026-01-24 16:07:17.365048	99.7	15.7	-70.9	0.0
2026-01-24 16:07:19.620150	99.3	15.8	-69.6	0.0
2026-01-24 16:07:21.871249	99.0	16.0	-67.3	0.0
2026-01-24 16:07:24.121630	98.6	16.2	-70.1	0.0
2026-01-24 16:07:26.376066	98.3	16.4	-70.1	0.0
2026-01-24 16:07:28.630187	97.9	16.6	-67.1	0.0
2026-01-24 16:07:30.884064	97.5	16.7	-70.9	0.0
2026-01-24 16:07:33.135973	97.2	16.9	-70.3	0.0
2026-01-24 16:07:35.391021	96.8	17.1	-69.9	0.0
2026-01-24 16:07:37.645021	96.4	17.3	-70.2	0.0
2026-01-24 16:07:39.898708	96.0	17.5	-68.3	0.0
2026-01-24 16:07:42.151520	95.6	17.6	-68.3	0.0
2026-01-24 16:07:44.404444	95.3	17.8	-68.0	0.0
2026-01-24 16:07:46.659092	94.9	18.0	-69.3	0.0
2026-01-24 16:07:48.913123	94.4	18.2	-67.4	0.0
2026-01-24 16:07:51.166476	94.0	18.4	-68.8	0.0
2026-01-24 16:07:53.422848	93.6	18.5	-68.0	0.0
2026-01-24 16:07:55.678718	93.2	18.7	-69.9	0.0
2026-01-24 16:07:57.930368	92.8	18.9	-68.7	0.0
2026-01-24 16:08:00.186234	92.4	19.1	-69.1	0.0
2026-01-24 16:08:02.440517	91.9	19.3	-68.5	0.0
2026-01-24 16:08:04.693872	91.5	19.4	-67.4	0.0
2026-01-24 16:08:06.948968	91.0	19.6	-66.5	0.0
2026-01-24 16:08:09.204227	90.6	19.8	-69.0	0.0
2026-01-24 16:08:11.457418	90.1	20.0	-68.2	0.0
2026-01-24 16:08:13.712723	89.7	20.2	-68.5	0.0
2026-01-24 16:08:15.966118	89.2	20.3	-67.7	0.0
2026-01-24 16:08:18.220805	88.7	20.5	-69.2	0.0
2026-01-24 16:08:20.475059	88.3	20.7	-67.7	0.0
2026-01-24 16:08:22.729520	87.8	20.9	-67.8	0.0
2026-01-24 16:08:24.984467	87.3	21.0	-67.7	0.0
2026-01-24 16:08:27.237536	86.8	21.2	-68.1	0.0
2026-01-24 16:08:29.492004	86.3	21.4	-68.6	0.0
2026-01-24 16:08:31.747716	85.8	21.5	-68.9	0.0
2026-01-24 16:08:34.001924	85.3	21.7	-68.8	0.0
2026-01-24 16:08:36.255211	84.8	21.9	-67.7	0.0
2026-01-24 16:08:38.508248	84.2	22.0	-67.8	0.0
2026-01-24 16:08:40.760172	83.7	22.2	-66.2	0.0
2026-01-24 16:08:43.012849	83.2	22.4	-68.1	0.0
2026-01-24 16:08:45.268986	82.6	22.5	-66.9	0.0
2026-01-24 16:08:47.523678	82.1	22.7	-66.3	0.0
2026-01-24 16:08:49.778613	81.5	22.8	-66.9	0.0
2026-01-24 16:08:52.034001	81.0	23.0	-68.1	0.0
2026-01-24 16:08:54.288185	80.4	23.1	-65.4	0.0
2026-01-24 16:08:56.544573	79.9	23.3	-65.8	0.0
2026-01-24 16:08:58.800039	79.3	23.4	-67.2	0.0
2026-01-24 16:09:01.057108	78.7	23.6	-67.4	0.0
2026-01-24 16:09:03.309490	78.1	23.7	-68.5	0.0
2026-01-24 16:09:05.562090	77.6	23.9	-67.8	0.0
2026-01-24 16:09:07.819562	77.0	24.0	-66.5	0.0
2026-01-24 16:09:10.071133	76.4	24.1	-68.1	0.0
2026-01-24 16:09:12.323105	75.8	24.3	-66.9	0.0
2026-01-24 16:09:14.576001	75.2	24.4	-68.3	0.0
2026-01-24 16:09:16.827691	74.5	24.5	-66.9	0.0
2026-01-24 16:09:19.078521	73.9	24.7	-66.9	0.0
2026-01-24 16:09:21.332430	73.3	24.8	-68.4	0.0
2026-01-24 16:09:23.584594	72.7	24.9	-69.2	0.0
2026-01-24 16:09:25.836631	72.0	25.0	-69.1	0.0
2026-01-24 16:09:28.089669	71.4	25.1	-68.0	0.0
2026-01-24 16:09:30.341212	70.8	25.2	-68.4	0.0
2026-01-24 16:09:32.593208	70.1	25.3	-61.6	0.0
2026-01-24 16:09:34.844598	69.5	25.4	-67.1	0.0
2026-01-24 16:09:37.095854	68.8	25.5	-68.9	0.0
2026-01-24 16:09:39.350017	68.2	25.6	-65.6	0.0
2026-01-24 16:09:41.601094	67.5	25.7	-67.1	0.0
2026-01-24 16:09:43.850704	66.8	25.8	-67.5	0.0
2026-01-24 16:09:46.103709	66.2	25.9	-68.4	0.0
2026-01-24 16:09:48.356905	65.5	26.0	-67.3	0.0
2026-01-24 16:09:50.608487	64.8	26.0	-68.4	0.0
2026-01-24 16:09:52.861998	64.1	26.1	-68.9	0.0
2026-01-24 16:09:55.113166	63.5	26.2	-68.9	0.0
2026-01-24 16:09:57.364826	62.8	26.2	-67.5	0.0
2026-01-24 16:09:59.619700	62.1	26.3	-67.7	0.0
2026-01-24 16:10:01.873092	61.4	26.3	-67.0	0.0
2026-01-24 16:10:04.126904	60.7	26.4	-66.6	0.0
2026-01-24 16:10:06.379112	60.0	26.4	-66.8	0.0
2026-01-24 16:10:08.633731	59.3	26.5	-63.4	0.0
2026-01-24 16:10:10.889216	58.6	26.5	-66.8	0.0
2026-01-24 16:10:13.144259	57.9	26.5	-68.2	0.0
2026-01-24 16:10:15.398610	57.2	26.6	-67.1	0.0
2026-01-24 16:10:17.651131	56.5	26.6	-63.6	0.0
2026-01-24 16:10:19.905499	55.8	26.6	-64.2	0.0
2026-01-24 16:10:22.158975	55.1	26.6	-64.7	0.0
2026-01-24 16:10:24.413765	54.4	26.6	-64.5	0.0
2026-01-24 16:10:26.665604	53.7	26.6	-65.8	0.0
2026-01-24 16:10:28.920075	53.0	26.6	-65.3	0.0
2026-01-24 16:10:31.175222	52.3	26.6	-63.2	0.0
2026-01-24 16:10:33.430109	51.6	26.6	-63.3	0.0
2026-01-24 16:10:35.683792	50.9	26.6	-64.0	0.0
2026-01-24 16:10:37.936308	50.2	26.6	-62.0	0.0
2026-01-24 16:10:40.189564	49.5	26.5	-60.2	0.0
2026-01-24 16:10:42.444209	48.8	26.5	-63.2	0.0
2026-01-24 16:10:44.697352	48.1	26.5	-63.1	0.0
2026-01-24 16:10:46.952571	47.4	26.4	-63.9	0.0
2026-01-24 16:10:49.203710	46.7	26.4	-62.3	0.0
2026-01-24 16:10:51.459764	46.1	26.3	-59.6	0.0
2026-01-24 16:10:53.712883	45.4	26.3	-61.6	0.0
2026-01-24 16:10:55.966919	44.7	26.2	-61.9	0.0
2026-01-24 16:10:58.221318	44.0	26.2	-63.6	0.0
2026-01-24 16:11:00.472390	43.3	26.1	-62.4	0.0
2026-01-24 16:11:02.724287	42.6	26.0	-62.8	0.0
2026-01-24 16:11:04.976222	42.0	25.9	-63.4	0.0
2026-01-24 16:11:07.230252	41.3	25.9	-60.6	0.0
2026-01-24 16:11:09.485474	40.6	25.8	-62.6	0.0
2026-01-24 16:11:11.740758	40.0	25.7	-63.9	0.0
2026-01-24 16:11:13.995866	39.3	25.6	-59.5	0.0
2026-01-24 16:11:16.250230	38.7	25.5	-62.0	0.0
2026-01-24 16:11:18.504223	38.0	25.4	-61.9	0.0
2026-01-24 16:11:20.757183	37.4	25.3	-61.5	0.0
2026-01-24 16:11:23.007819	36.7	25.2	-58.7	0.0
2026-01-24 16:11:25.263822	36.1	25.1	-60.9	0.0
2026-01-24 16:11:27.517603	35.5	25.0	-60.0	0.0
2026-01-24 16:11:29.772140	34.8	24.9	-60.1	0.0
2026-01-24 16:11:32.030710	34.2	24.7	-58.8	0.0
2026-01-24 16:11:34.283261	33.6	24.6	-60.3	0.0
2026-01-24 16:11:36.536119	33.0	24.5	-59.7	0.0
2026-01-24 16:11:38.789883	32.4	24.4	-59.5	0.0
2026-01-24 16:11:41.045843	31.7	24.2	-60.1	0.0
2026-01-24 16:11:43.298497	31.2	24.1	-61.9	0.0
2026-01-24 16:11:45.553897	30.6	24.0	-60.5	0.0
2026-01-24 16:11:47.811161	30.0	23.8	-60.0	0.0
2026-01-24 16:11:50.067215	29.4	23.7	-60.5	0.0
2026-01-24 16:11:52.323070	28.8	23.5	-62.1	0.0
2026-01-24 16:11:54.581978	28.2	23.4	-59.2	0.0
2026-01-24 16:11:56.836871	27.7	23.3	-62.2	0.0
2026-01-24 16:11:59.090346	27.1	23.1	-59.6	0.0
2026-01-24 16:12:01.345075	26.5	22.9	-62.4	0.0
2026-01-24 16:12:03.598154	26.0	22.8	-59.5	0.0
2026-01-24 16:12:05.852549	25.5	22.6	-62.0	0.0
2026-01-24 16:12:08.108938	24.9	22.5	-61.3	0.0
2026-01-24 16:12:10.362942	24.4	22.3	-63.0	0.0
2026-01-24 16:12:12.617647	23.8	22.2	-60.1	0.0
2026-01-24 16:12:14.871130	23.3	22.0	-58.4	0.0
2026-01-24 16:12:17.124276	22.8	21.8	-58.8	0.0
2026-01-24 16:12:19.376850	22.3	21.7	-58.2	0.0
2026-01-24 16:12:21.630987	21.8	21.5	-57.6	0.0
2026-01-24 16:12:23.884553	21.3	21.3	-61.3	0.0
2026-01-24 16:12:26.136572	20.8	21.2	-59.4	0.0
2026-01-24 16:12:28.391247	20.3	21.0	-60.9	0.0
2026-01-24 16:12:30.646342	19.8	20.8	-60.1	0.0
2026-01-24 16:12:32.899858	19.3	20.6	-62.6	0.0
2026-01-24 16:12:35.153716	18.9	20.5	-59.7	0.0
2026-01-24 16:12:37.407564	18.4	20.3	-61.6	0.0
2026-01-24 16:12:39.661153	17.9	20.1	-60.8	0.0
2026-01-24 16:12:41.914327	17.5	19.9	-59.7	0.0
2026-01-24 16:12:44.168270	17.0	19.8	-60.9	0.0
2026-01-24 16:12:46.422635	16.6	19.6	-60.4	0.0
2026-01-24 16:12:48.675703	16.1	19.4	-56.8	0.0
2026-01-24 16:12:50.928586	15.7	19.2	-59.6	0.0
2026-01-24 16:12:53.182526	15.3	19.1	-61.2	0.0
2026-01-24 16:12:55.437335	14.9	18.9	-60.8	0.0
2026-01-24 16:12:57.691736	14.4	18.7	-61.0	0.0
2026-01-24 16:12:59.944788	14.0	18.5	-61.9	0.0
2026-01-24 16:13:02.198429	13.6	18.3	-58.4	0.0
2026-01-24 16:13:04.453565	13.2	18.2	-60.6	0.0
2026-01-24 16:13:06.707646	12.8	18.0	-60.9	0.0
2026-01-24 16:13:08.960381	12.4	17.8	-61.5	0.0
2026-01-24 16:13:11.217217	12.0	17.6	-61.7	0.0
2026-01-24 16:13:13.471071	11.6	17.4	-62.6	0.0
2026-01-24 16:13:15.730856	11.2	17.3	-62.4	0.0
2026-01-24 16:13:17.984634	10.9	17.1	-62.3	0.0
2026-01-24 16:13:20.239554	10.5	16.9	-59.8	0.0
2026-01-24 16:13:22.493529	10.1	16.7	-61.3	0.0
2026-01-24 16:13:24.748338	9.8	16.5	-60.5	0.0
2026-01-24 16:13:27.001536	9.4	16.4	-61.8	0.0
2026-01-24 16:13:29.255471	9.1	16.2	-62.0	0.0
2026-01-24 16:13:31.510829	8.7	16.0	-61.8	0.0
2026-01-24 16:13:33.763687	8.4	15.8	-62.5	0.0
2026-01-24 16:13:36.016447	8.0	15.7	-63.7	0.0
2026-01-24 16:13:38.269644	7.7	15.5	-63.1	0.0
2026-01-24 16:13:40.521493	7.3	15.3	-60.4	0.0
2026-01-24 16:13:42.775459	7.0	15.1	-61.0	0.0
2026-01-24 16:13:45.033136	6.7	14.9	-63.3	0.0
2026-01-24 16:13:47.288250	6.4	14.8	-62.6	0.0
2026-01-24 16:13:49.542058	6.0	14.6	-60.5	0.0
2026-01-24 16:13:51.795739	5.7	14.4	-58.4	0.0
2026-01-24 16:13:54.047984	5.4	14.2	-64.3	0.0
2026-01-24 16:13:56.301993	5.1	14.1	-64.8	0.0
2026-01-24 16:13:58.553487	4.8	13.9	-60.4	0.0
2026-01-24 16:14:00.807569	4.5	13.7	-64.5	0.0
2026-01-24 16:14:03.057864	4.2	13.5	-64.7	0.0
2026-01-24 16:14:05.314162	3.9	13.4	-59.5	0.0
2026-01-24 16:14:07.566538	3.6	13.2	-64.4	0.0
2026-01-24 16:14:09.821571	3.4	13.0	-64.2	0.0
2026-01-24 16:14:12.075892	3.1	12.8	-64.5	0.0
2026-01-24 16:14:14.330328	2.8	12.7	-64.9	0.0
2026-01-24 16:14:16.585169	2.5	12.5	-59.7	0.0
2026-01-24 16:14:18.838927	2.3	12.3	-65.8	0.0
2026-01-24 16:14:21.091925	2.0	12.2	-65.7	0.0
2026-01-24 16:14:23.346909	1.7	12.0	-63.3	0.0
2026-01-24 16:14:25.599096	1.5	11.8	-64.0	0.0
2026-01-24 16:14:27.850933	1.2	11.7	-60.4	0.0
2026-01-24 16:14:30.104093	0.9	11.5	-65.1	0.0
2026-01-24 16:14:32.357952	0.7	11.3	-64.4	0.0
2026-01-24 16:14:34.610723	0.4	11.2	-65.4	0.0
2026-01-24 16:14:36.861592	0.2	11.0	-62.0	0.0
2026-01-24 16:14:39.115877	360.0	10.8	-63.0	0.0
2026-01-24 16:14:41.369073	359.7	10.7	-61.8	0.0
2026-01-24 16:14:43.620973	359.5	10.5	-63.2	0.0
2026-01-24 16:14:45.872681	359.2	10.3	-67.4	0.0
2026-01-24 16:14:48.126412	359.0	10.2	-72.2	0.0
#Closed at: 2026-01-24 16:05:58.094563