passes_logs/2026/01/24/planumMaritime01/planumMaritime01__20260124_065942_METEOR-M2_3_rec.log

#Pass ID: 20260124_065942_METEOR-M2 3
#Satellite: METEOR-M2 3
#Configuration: METEOR-M2 3
#Start time: 2026-01-24 06:59:47.903299

#LorettStation: 1.0.0 05.05.2024
#Station: planumMaritime01
#Location: 37.49445 lon 55.92918 lat
#TLE: 1 57166U 23091A   26023.00621388  .00000059  00000+0  44764-4 0  9993
#TLE: 2 57166  98.6315  80.8125 0003239 219.6840 140.4103 14.24032037133859

#Time	Az	El	Level	SNR
2026-01-24 06:59:50.080075	22.4	10.2	-76.3	0.0
2026-01-24 06:59:52.341894	22.5	10.4	-73.4	0.0
2026-01-24 06:59:54.608857	22.6	10.6	-73.5	0.0
2026-01-24 06:59:56.873205	22.7	10.8	-68.9	0.0
2026-01-24 06:59:59.138819	22.8	11.0	-69.3	0.0
2026-01-24 07:00:01.400828	22.9	11.2	-67.6	0.0
2026-01-24 07:00:03.665103	23.0	11.4	-63.2	0.0
2026-01-24 07:00:05.927658	23.1	11.6	-63.4	0.0
2026-01-24 07:00:08.191463	23.2	11.8	-66.5	0.0
2026-01-24 07:00:10.454716	23.3	12.0	-66.2	0.0
2026-01-24 07:00:12.722142	23.4	12.2	-64.7	0.0
2026-01-24 07:00:14.985450	23.5	12.4	-63.6	0.0
2026-01-24 07:00:17.247666	23.7	12.6	-64.4	0.0
2026-01-24 07:00:19.511429	23.8	12.8	-66.0	0.0
2026-01-24 07:00:21.774291	23.9	13.0	-64.2	0.0
2026-01-24 07:00:24.041648	24.0	13.3	-65.5	0.0
2026-01-24 07:00:26.305686	24.1	13.5	-65.5	0.0
2026-01-24 07:00:28.572823	24.3	13.7	-66.4	0.0
2026-01-24 07:00:30.836961	24.4	13.9	-66.7	0.0
2026-01-24 07:00:33.101351	24.5	14.1	-64.5	0.0
2026-01-24 07:00:35.371745	24.6	14.4	-65.0	0.0
2026-01-24 07:00:37.645759	24.8	14.6	-66.7	0.0
2026-01-24 07:00:39.921916	24.9	14.8	-64.7	0.0
2026-01-24 07:00:42.193458	25.0	15.1	-63.4	0.0
2026-01-24 07:00:44.465926	25.2	15.3	-62.3	0.0
2026-01-24 07:00:46.734011	25.3	15.5	-59.6	0.0
2026-01-24 07:00:49.001938	25.5	15.8	-65.0	0.0
2026-01-24 07:00:51.265733	25.6	16.0	-63.4	0.0
2026-01-24 07:00:53.530324	25.7	16.3	-65.1	0.0
2026-01-24 07:00:55.797285	25.9	16.5	-65.7	0.0
2026-01-24 07:00:58.060325	26.0	16.7	-64.0	0.0
2026-01-24 07:01:00.325713	26.2	17.0	-63.5	0.0
2026-01-24 07:01:02.590692	26.3	17.3	-65.9	0.0
2026-01-24 07:01:04.858690	26.5	17.5	-65.7	0.0
2026-01-24 07:01:07.123452	26.7	17.8	-67.2	0.0
2026-01-24 07:01:09.388779	26.8	18.0	-67.0	0.0
2026-01-24 07:01:11.653959	27.0	18.3	-65.4	0.0
2026-01-24 07:01:13.921135	27.2	18.6	-65.9	0.0
2026-01-24 07:01:16.185866	27.3	18.8	-67.7	0.0
2026-01-24 07:01:18.451936	27.5	19.1	-65.0	0.0
2026-01-24 07:01:20.718632	27.7	19.4	-66.4	0.0
2026-01-24 07:01:22.985141	27.8	19.6	-65.3	0.0
2026-01-24 07:01:25.247089	28.0	19.9	-65.6	0.0
2026-01-24 07:01:27.511679	28.2	20.2	-68.6	0.0
2026-01-24 07:01:29.775441	28.4	20.5	-69.0	0.0
2026-01-24 07:01:32.041270	28.6	20.8	-67.9	0.0
2026-01-24 07:01:34.306368	28.8	21.1	-67.2	0.0
2026-01-24 07:01:36.573043	29.0	21.4	-67.3	0.0
2026-01-24 07:01:38.840015	29.2	21.7	-67.2	0.0
2026-01-24 07:01:41.111094	29.4	22.0	-65.8	0.0
2026-01-24 07:01:43.383378	29.6	22.3	-68.0	0.0
2026-01-24 07:01:45.656039	29.8	22.6	-67.3	0.0
2026-01-24 07:01:47.929675	30.0	22.9	-63.7	0.0
2026-01-24 07:01:50.204983	30.3	23.2	-67.0	0.0
2026-01-24 07:01:52.479853	30.5	23.5	-65.2	0.0
2026-01-24 07:01:54.757028	30.7	23.9	-68.3	0.0
2026-01-24 07:01:57.031265	31.0	24.2	-68.2	0.0
2026-01-24 07:01:59.305700	31.2	24.5	-64.9	0.0
2026-01-24 07:02:01.579704	31.5	24.9	-67.3	0.0
2026-01-24 07:02:03.852300	31.7	25.2	-68.3	0.0
2026-01-24 07:02:06.124545	32.0	25.5	-69.7	0.0
2026-01-24 07:02:08.397556	32.2	25.9	-70.0	0.0
2026-01-24 07:02:10.672859	32.5	26.2	-70.4	0.0
2026-01-24 07:02:12.946632	32.8	26.6	-69.7	0.0
2026-01-24 07:02:15.220730	33.0	27.0	-69.8	0.0
2026-01-24 07:02:17.499088	33.3	27.3	-71.2	0.0
2026-01-24 07:02:19.768388	33.6	27.7	-70.8	0.0
2026-01-24 07:02:22.041037	33.9	28.1	-70.0	0.0
2026-01-24 07:02:24.315856	34.2	28.4	-69.8	0.0
2026-01-24 07:02:26.590158	34.5	28.8	-71.6	0.0
2026-01-24 07:02:28.864220	34.9	29.2	-72.1	0.0
2026-01-24 07:02:31.140455	35.2	29.6	-71.6	0.0
2026-01-24 07:02:33.415147	35.5	30.0	-72.0	0.0
2026-01-24 07:02:35.691038	35.9	30.4	-72.8	1.3
2026-01-24 07:02:37.965623	36.2	30.8	-72.7	0.1
2026-01-24 07:02:40.236517	36.6	31.2	-73.8	2.6
2026-01-24 07:02:42.511350	37.0	31.6	-73.5	1.1
2026-01-24 07:02:44.782666	37.3	32.0	-72.1	0.3
2026-01-24 07:02:47.053443	37.7	32.4	-73.6	3.8
2026-01-24 07:02:49.324419	38.1	32.9	-73.2	1.6
2026-01-24 07:02:51.601270	38.5	33.3	-72.9	2.1
2026-01-24 07:02:53.873570	39.0	33.7	-73.5	3.8
2026-01-24 07:02:56.149001	39.4	34.2	-73.5	5.6
2026-01-24 07:02:58.423879	39.8	34.6	-74.4	5.3
2026-01-24 07:03:00.698339	40.3	35.1	-73.5	3.3
2026-01-24 07:03:02.970502	40.8	35.5	-73.3	2.9
2026-01-24 07:03:05.244469	41.2	36.0	-72.8	1.2
2026-01-24 07:03:07.519507	41.7	36.4	-72.5	3.0
2026-01-24 07:03:09.796874	42.2	36.9	-73.7	3.3
2026-01-24 07:03:12.065649	42.8	37.4	-74.6	5.0
2026-01-24 07:03:14.332728	43.3	37.8	-73.4	4.1
2026-01-24 07:03:16.600370	43.9	38.3	-73.4	3.4
2026-01-24 07:03:18.867549	44.4	38.8	-74.6	5.7
2026-01-24 07:03:21.132609	45.0	39.3	-73.8	5.0
2026-01-24 07:03:23.399732	45.6	39.8	-74.1	6.2
2026-01-24 07:03:25.660841	46.2	40.3	-73.5	3.5
2026-01-24 07:03:27.927191	46.9	40.7	-74.7	6.5
2026-01-24 07:03:30.192939	47.5	41.2	-73.4	2.8
2026-01-24 07:03:32.458629	48.2	41.7	-72.7	0.9
2026-01-24 07:03:34.721570	48.9	42.2	-73.9	4.1
2026-01-24 07:03:36.987703	49.7	42.8	-72.6	2.0
2026-01-24 07:03:39.257126	50.4	43.3	-74.0	3.8
2026-01-24 07:03:41.524432	51.2	43.8	-73.3	4.6
2026-01-24 07:03:43.793617	52.0	44.3	-72.3	0.0
2026-01-24 07:03:46.064446	52.8	44.8	-74.5	3.3
2026-01-24 07:03:48.335477	53.6	45.3	-74.0	2.4
2026-01-24 07:03:50.611942	54.5	45.8	-73.7	2.7
2026-01-24 07:03:52.882128	55.4	46.3	-73.8	2.9
2026-01-24 07:03:55.156062	56.4	46.8	-74.3	3.6
2026-01-24 07:03:57.430112	57.3	47.3	-73.5	1.1
2026-01-24 07:03:59.704730	58.3	47.8	-72.9	0.0
2026-01-24 07:04:01.977456	59.4	48.3	-73.0	0.3
2026-01-24 07:04:04.249170	60.4	48.8	-74.2	3.6
2026-01-24 07:04:06.520395	61.5	49.3	-74.6	3.3
2026-01-24 07:04:08.794841	62.7	49.8	-74.5	2.4
2026-01-24 07:04:11.069396	63.8	50.3	-75.4	3.7
2026-01-24 07:04:13.346299	65.0	50.7	-73.6	1.4
2026-01-24 07:04:15.621540	66.3	51.2	-74.0	0.3
2026-01-24 07:04:17.897045	67.6	51.7	-74.6	0.0
2026-01-24 07:04:20.171064	68.9	52.1	-75.0	2.6
2026-01-24 07:04:22.446775	70.3	52.5	-75.0	3.0
2026-01-24 07:04:24.719920	71.7	52.9	-74.9	3.9
2026-01-24 07:04:26.991335	73.1	53.3	-74.9	2.3
2026-01-24 07:04:29.268587	74.6	53.7	-75.2	0.0
2026-01-24 07:04:31.542594	76.1	54.1	-75.5	3.1
2026-01-24 07:04:33.815210	77.7	54.4	-75.9	3.2
2026-01-24 07:04:36.086158	79.3	54.8	-76.4	4.5
2026-01-24 07:04:38.362819	80.9	55.1	-74.6	0.0
2026-01-24 07:04:40.631815	82.5	55.4	-75.0	2.5
2026-01-24 07:04:42.896251	84.2	55.6	-75.3	3.3
2026-01-24 07:04:45.163804	86.0	55.9	-75.8	2.4
2026-01-24 07:04:47.427012	87.7	56.1	-76.5	1.0
2026-01-24 07:04:49.691897	89.5	56.3	-76.1	2.5
2026-01-24 07:04:51.954662	91.3	56.5	-75.7	3.3
2026-01-24 07:04:54.220059	93.1	56.6	-77.1	4.0
2026-01-24 07:04:56.482806	95.0	56.7	-76.9	3.2
2026-01-24 07:04:58.752600	96.8	56.8	-77.2	3.5
2026-01-24 07:05:01.017411	98.7	56.9	-77.1	2.7
2026-01-24 07:05:03.285695	100.5	56.9	-78.0	5.2
2026-01-24 07:05:05.547843	102.4	56.9	-76.6	4.2
2026-01-24 07:05:07.812727	104.3	56.9	-75.8	1.3
2026-01-24 07:05:10.078274	106.1	56.8	-77.7	7.1
2026-01-24 07:05:12.342302	108.0	56.7	-77.8	8.6
2026-01-24 07:05:14.608411	109.8	56.6	-77.4	6.9
2026-01-24 07:05:16.872239	111.6	56.4	-77.6	9.7
2026-01-24 07:05:19.139185	113.5	56.3	-77.0	7.6
2026-01-24 07:05:21.403144	115.2	56.1	-77.7	7.1
2026-01-24 07:05:23.665071	117.0	55.9	-78.3	9.4
2026-01-24 07:05:25.933002	118.7	55.6	-76.9	3.6
2026-01-24 07:05:28.202034	120.4	55.3	-78.7	8.0
2026-01-24 07:05:30.470592	122.1	55.1	-77.8	8.1
2026-01-24 07:05:32.741386	123.7	54.7	-78.2	8.2
2026-01-24 07:05:35.012862	125.3	54.4	-78.3	9.3
2026-01-24 07:05:37.283887	126.8	54.1	-78.4	10.0
2026-01-24 07:05:39.555018	128.4	53.7	-78.1	10.2
2026-01-24 07:05:41.824558	129.8	53.3	-78.6	10.7
2026-01-24 07:05:44.095900	131.3	52.9	-78.2	10.4
2026-01-24 07:05:46.367829	132.7	52.5	-78.1	9.8
2026-01-24 07:05:48.637759	134.0	52.0	-78.5	11.4
2026-01-24 07:05:50.906704	135.3	51.6	-78.3	11.0
2026-01-24 07:05:53.175181	136.6	51.2	-78.5	11.6
2026-01-24 07:05:55.448068	137.9	50.7	-78.6	10.8
2026-01-24 07:05:57.719715	139.1	50.2	-78.6	10.2
2026-01-24 07:05:59.991155	140.2	49.7	-78.5	10.5
2026-01-24 07:06:02.262703	141.4	49.3	-78.9	11.3
2026-01-24 07:06:04.536747	142.5	48.8	-78.5	10.8
2026-01-24 07:06:06.811747	143.5	48.3	-78.4	11.0
2026-01-24 07:06:09.086893	144.6	47.8	-78.7	10.3
2026-01-24 07:06:11.358021	145.6	47.3	-78.6	9.9
2026-01-24 07:06:13.631191	146.5	46.7	-78.3	12.0
2026-01-24 07:06:15.908707	147.5	46.2	-78.2	12.1
2026-01-24 07:06:18.178982	148.4	45.7	-78.8	12.7
2026-01-24 07:06:20.450043	149.3	45.2	-78.1	12.4
2026-01-24 07:06:22.720679	150.1	44.7	-78.4	12.4
2026-01-24 07:06:24.993003	150.9	44.2	-78.3	12.7
2026-01-24 07:06:27.265808	151.7	43.7	-78.0	12.3
2026-01-24 07:06:29.539612	152.5	43.2	-78.2	12.0
2026-01-24 07:06:31.810718	153.3	42.6	-77.7	11.5
2026-01-24 07:06:34.085987	154.0	42.1	-77.9	11.6
2026-01-24 07:06:36.357279	154.7	41.6	-78.4	13.1
2026-01-24 07:06:38.628709	155.4	41.1	-78.4	12.5
2026-01-24 07:06:40.897187	156.0	40.6	-78.3	12.0
2026-01-24 07:06:43.163623	156.7	40.1	-77.7	11.7
2026-01-24 07:06:45.428874	157.3	39.6	-78.3	11.8
2026-01-24 07:06:47.694141	157.9	39.1	-78.1	12.3
2026-01-24 07:06:49.959679	158.5	38.7	-77.9	12.0
2026-01-24 07:06:52.226260	159.0	38.2	-77.9	12.6
2026-01-24 07:06:54.491846	159.6	37.7	-77.7	11.7
2026-01-24 07:06:56.757796	160.1	37.2	-77.3	11.4
2026-01-24 07:06:59.019455	160.7	36.7	-77.4	11.8
2026-01-24 07:07:01.282709	161.2	36.3	-77.7	11.4
2026-01-24 07:07:03.545212	161.7	35.8	-77.2	12.3
2026-01-24 07:07:05.813697	162.1	35.4	-76.1	5.2
2026-01-24 07:07:08.079369	162.6	34.9	-77.4	11.1
2026-01-24 07:07:10.342165	163.1	34.5	-76.9	11.2
2026-01-24 07:07:12.603465	163.5	34.0	-77.3	10.7
2026-01-24 07:07:14.866102	163.9	33.6	-74.9	8.6
2026-01-24 07:07:17.127012	164.3	33.1	-75.9	9.6
2026-01-24 07:07:19.392775	164.7	32.7	-76.7	10.6
2026-01-24 07:07:21.657166	165.1	32.3	-77.3	11.6
2026-01-24 07:07:23.922051	165.5	31.9	-77.3	10.3
2026-01-24 07:07:26.184178	165.9	31.4	-75.9	8.0
2026-01-24 07:07:28.444349	166.3	31.0	-76.6	6.0
2026-01-24 07:07:30.709439	166.6	30.6	-77.5	10.0
2026-01-24 07:07:32.973478	167.0	30.2	-76.5	8.2
2026-01-24 07:07:35.240346	167.3	29.8	-77.4	11.0
2026-01-24 07:07:37.505775	167.7	29.4	-77.5	8.6
2026-01-24 07:07:39.775812	168.0	29.0	-75.0	5.4
2026-01-24 07:07:42.038772	168.3	28.7	-75.9	6.5
2026-01-24 07:07:44.307370	168.6	28.3	-76.8	9.4
2026-01-24 07:07:46.577912	168.9	27.9	-76.4	7.0
2026-01-24 07:07:48.850576	169.2	27.5	-76.6	9.9
2026-01-24 07:07:51.126952	169.5	27.2	-76.3	8.0
2026-01-24 07:07:53.401148	169.8	26.8	-77.9	10.8
2026-01-24 07:07:55.677326	170.1	26.4	-77.4	11.1
2026-01-24 07:07:57.952378	170.4	26.1	-77.6	10.0
2026-01-24 07:08:00.226867	170.6	25.7	-77.5	11.6
2026-01-24 07:08:02.498305	170.9	25.4	-77.3	10.2
2026-01-24 07:08:04.774638	171.1	25.0	-77.2	11.1
2026-01-24 07:08:07.046224	171.4	24.7	-77.2	10.0
2026-01-24 07:08:09.320629	171.6	24.3	-77.4	11.0
2026-01-24 07:08:11.592566	171.9	24.0	-77.4	9.3
2026-01-24 07:08:13.863760	172.1	23.7	-77.4	9.2
2026-01-24 07:08:16.139588	172.4	23.4	-77.7	9.5
2026-01-24 07:08:18.412378	172.6	23.0	-77.1	8.7
2026-01-24 07:08:20.687538	172.8	22.7	-77.5	9.9
2026-01-24 07:08:22.954667	173.0	22.4	-77.6	8.9
2026-01-24 07:08:25.229625	173.2	22.1	-77.4	9.5
2026-01-24 07:08:27.501725	173.4	21.8	-76.9	7.4
2026-01-24 07:08:29.776972	173.6	21.5	-78.0	10.7
2026-01-24 07:08:32.049896	173.8	21.2	-77.9	9.6
2026-01-24 07:08:34.325447	174.0	20.9	-77.3	7.3
2026-01-24 07:08:36.596625	174.2	20.6	-78.0	10.1
2026-01-24 07:08:38.865349	174.4	20.3	-77.9	9.9
2026-01-24 07:08:41.130946	174.6	20.0	-77.2	9.4
2026-01-24 07:08:43.401632	174.8	19.7	-78.3	9.6
2026-01-24 07:08:45.669451	175.0	19.4	-78.1	10.1
2026-01-24 07:08:47.940190	175.2	19.2	-77.7	9.0
2026-01-24 07:08:50.211904	175.3	18.9	-77.8	7.8
2026-01-24 07:08:52.485723	175.5	18.6	-78.6	9.7
2026-01-24 07:08:54.757304	175.7	18.3	-78.6	10.1
2026-01-24 07:08:57.029387	175.8	18.1	-78.3	10.1
2026-01-24 07:08:59.295706	176.0	17.8	-78.7	10.4
2026-01-24 07:09:01.562409	176.2	17.5	-78.2	7.5
2026-01-24 07:09:03.829767	176.3	17.3	-78.8	9.3
2026-01-24 07:09:06.096755	176.5	17.0	-79.0	9.8
2026-01-24 07:09:08.365721	176.6	16.8	-78.5	7.8
2026-01-24 07:09:10.636192	176.8	16.5	-78.6	9.1
2026-01-24 07:09:12.909782	176.9	16.3	-78.5	8.9
2026-01-24 07:09:15.184231	177.1	16.0	-78.8	9.8
2026-01-24 07:09:17.457499	177.2	15.8	-78.9	9.6
2026-01-24 07:09:19.728215	177.4	15.5	-78.8	9.3
2026-01-24 07:09:22.002472	177.5	15.3	-79.1	8.9
2026-01-24 07:09:24.276967	177.6	15.1	-78.8	9.6
2026-01-24 07:09:26.549794	177.8	14.8	-78.1	9.1
2026-01-24 07:09:28.820285	177.9	14.6	-77.9	8.7
2026-01-24 07:09:31.093121	178.0	14.4	-78.8	9.6
2026-01-24 07:09:33.357569	178.2	14.1	-78.5	8.9
2026-01-24 07:09:35.623814	178.3	13.9	-78.5	8.9
2026-01-24 07:09:37.887156	178.4	13.7	-78.9	7.6
2026-01-24 07:09:40.149548	178.5	13.4	-78.6	8.8
2026-01-24 07:09:42.413414	178.7	13.2	-79.1	8.2
2026-01-24 07:09:44.676926	178.8	13.0	-79.1	7.5
2026-01-24 07:09:46.941629	178.9	12.8	-79.1	9.0
2026-01-24 07:09:49.207447	179.0	12.6	-78.8	8.6
2026-01-24 07:09:51.467603	179.1	12.4	-78.7	7.3
2026-01-24 07:09:53.730947	179.2	12.1	-79.3	8.4
2026-01-24 07:09:55.995480	179.3	11.9	-79.1	5.1
2026-01-24 07:09:58.263836	179.5	11.7	-78.9	7.0
2026-01-24 07:10:00.528499	179.6	11.5	-79.3	7.1
2026-01-24 07:10:02.792269	179.7	11.3	-79.1	5.7
2026-01-24 07:10:05.059053	179.8	11.1	-79.3	8.0
2026-01-24 07:10:07.322412	179.9	10.9	-78.5	7.0
2026-01-24 07:10:09.588340	180.0	10.7	-78.9	0.6
2026-01-24 07:10:11.851899	180.1	10.5	-81.3	0.0
2026-01-24 07:10:14.115532	180.2	10.3	-83.2	0.0
2026-01-24 07:10:16.379259	180.3	10.1	-85.6	0.0
#Closed at: 2026-01-24 06:59:42.909921