passes_logs/2026/01/24/planumMaritime01/planumMaritime01__20260124_234203_METEOR-M2_4_rec.log

#Pass ID: 20260124_234203_METEOR-M2 4
#Satellite: METEOR-M2 4
#Configuration: METEOR-M2 4
#Start time: 2026-01-24 23:42:08.236145

#LorettStation: 1.0.0 05.05.2024
#Station: planumMaritime01
#Location: 37.49445 lon 55.92918 lat
#TLE: 1 59051U 24039A   26024.26280030  .00000113  00000+0  70284-4 0  9992
#TLE: 2 59051  98.6828 345.5183 0006251 220.2927 139.7788 14.22409431 98808

#Time	Az	El	Level	SNR
2026-01-24 23:42:10.413105	35.5	10.1	-79.3	0.0
2026-01-24 23:42:12.676601	35.7	10.3	-79.3	0.0
2026-01-24 23:42:14.950715	36.0	10.5	-76.6	0.0
2026-01-24 23:42:17.226458	36.3	10.6	-73.1	0.0
2026-01-24 23:42:19.502756	36.5	10.8	-69.8	0.0
2026-01-24 23:42:21.774715	36.8	10.9	-70.0	0.0
2026-01-24 23:42:24.051243	37.1	11.1	-67.8	0.0
2026-01-24 23:42:26.318538	37.3	11.2	-68.3	0.0
2026-01-24 23:42:28.576761	37.6	11.4	-67.5	0.0
2026-01-24 23:42:30.837054	37.9	11.6	-66.2	0.0
2026-01-24 23:42:33.094143	38.2	11.7	-66.5	0.0
2026-01-24 23:42:35.354903	38.5	11.9	-66.9	0.0
2026-01-24 23:42:37.617202	38.7	12.0	-58.5	0.0
2026-01-24 23:42:39.872216	39.0	12.2	-67.7	0.0
2026-01-24 23:42:42.134923	39.3	12.4	-67.9	0.0
2026-01-24 23:42:44.393912	39.6	12.5	-68.3	0.0
2026-01-24 23:42:46.656297	39.9	12.7	-67.5	0.0
2026-01-24 23:42:48.918206	40.2	12.9	-65.1	0.0
2026-01-24 23:42:51.186912	40.5	13.0	-68.5	0.0
2026-01-24 23:42:53.453355	40.8	13.2	-68.0	0.0
2026-01-24 23:42:55.720822	41.1	13.3	-69.7	0.0
2026-01-24 23:42:57.989109	41.5	13.5	-68.6	0.0
2026-01-24 23:43:00.255233	41.8	13.7	-68.9	0.0
2026-01-24 23:43:02.521877	42.1	13.8	-68.4	0.0
2026-01-24 23:43:04.799574	42.4	14.0	-71.5	0.0
2026-01-24 23:43:07.075792	42.8	14.2	-67.3	0.0
2026-01-24 23:43:09.348921	43.1	14.3	-71.9	0.0
2026-01-24 23:43:11.623916	43.4	14.5	-70.4	0.0
2026-01-24 23:43:13.897807	43.8	14.7	-69.2	0.0
2026-01-24 23:43:16.172900	44.1	14.8	-71.1	0.0
2026-01-24 23:43:18.447821	44.5	15.0	-72.3	0.0
2026-01-24 23:43:20.724124	44.8	15.2	-69.7	0.0
2026-01-24 23:43:23.003497	45.2	15.3	-72.3	0.0
2026-01-24 23:43:25.281034	45.5	15.5	-69.3	0.0
2026-01-24 23:43:27.559431	45.9	15.7	-74.1	0.0
2026-01-24 23:43:29.836251	46.3	15.8	-73.1	0.0
2026-01-24 23:43:32.112487	46.6	16.0	-72.3	0.0
2026-01-24 23:43:34.388082	47.0	16.2	-71.4	0.0
2026-01-24 23:43:36.660272	47.4	16.3	-72.5	0.0
2026-01-24 23:43:38.928840	47.8	16.5	-72.7	0.0
2026-01-24 23:43:41.197683	48.2	16.7	-72.2	0.0
2026-01-24 23:43:43.475011	48.6	16.9	-73.5	0.0
2026-01-24 23:43:45.749810	49.0	17.0	-73.2	0.0
2026-01-24 23:43:48.024602	49.4	17.2	-72.7	0.0
2026-01-24 23:43:50.301897	49.8	17.4	-72.7	0.0
2026-01-24 23:43:52.575535	50.2	17.5	-74.0	0.0
2026-01-24 23:43:54.847437	50.6	17.7	-73.0	0.0
2026-01-24 23:43:57.123030	51.0	17.9	-73.7	0.0
2026-01-24 23:43:59.400290	51.4	18.0	-69.4	0.0
2026-01-24 23:44:01.681239	51.9	18.2	-74.2	0.0
2026-01-24 23:44:03.955584	52.3	18.4	-74.1	0.5
2026-01-24 23:44:06.230901	52.8	18.5	-74.1	2.5
2026-01-24 23:44:08.505387	53.2	18.7	-74.6	1.4
2026-01-24 23:44:10.783158	53.6	18.9	-73.9	0.0
2026-01-24 23:44:13.060621	54.1	19.0	-72.3	0.0
2026-01-24 23:44:15.336699	54.6	19.2	-72.5	0.0
2026-01-24 23:44:17.607454	55.0	19.3	-73.8	1.6
2026-01-24 23:44:19.876198	55.5	19.5	-72.9	0.0
2026-01-24 23:44:22.149099	56.0	19.7	-74.8	3.8
2026-01-24 23:44:24.432067	56.4	19.8	-74.3	1.0
2026-01-24 23:44:26.712757	56.9	20.0	-73.7	1.9
2026-01-24 23:44:28.987786	57.4	20.1	-73.8	0.9
2026-01-24 23:44:31.265457	57.9	20.3	-74.4	2.1
2026-01-24 23:44:33.535797	58.4	20.4	-72.5	0.0
2026-01-24 23:44:35.794194	58.9	20.6	-74.0	0.0
2026-01-24 23:44:38.055777	59.4	20.8	-73.8	2.2
2026-01-24 23:44:40.314960	59.9	20.9	-73.2	2.4
2026-01-24 23:44:42.574689	60.4	21.1	-74.7	3.2
2026-01-24 23:44:44.832907	60.9	21.2	-75.3	5.3
2026-01-24 23:44:47.093549	61.5	21.3	-73.8	2.0
2026-01-24 23:44:49.351380	62.0	21.5	-74.3	2.3
2026-01-24 23:44:51.608772	62.5	21.6	-74.7	4.5
2026-01-24 23:44:53.875382	63.1	21.8	-74.6	5.1
2026-01-24 23:44:56.137770	63.6	21.9	-74.8	6.7
2026-01-24 23:44:58.406812	64.2	22.1	-74.4	4.6
2026-01-24 23:45:00.671475	64.7	22.2	-71.8	0.5
2026-01-24 23:45:02.937354	65.3	22.3	-75.3	5.9
2026-01-24 23:45:05.212294	65.8	22.5	-74.9	6.2
2026-01-24 23:45:07.484445	66.4	22.6	-74.1	6.2
2026-01-24 23:45:09.758468	67.0	22.7	-74.7	4.8
2026-01-24 23:45:12.031515	67.6	22.8	-75.5	5.1
2026-01-24 23:45:14.306846	68.2	23.0	-74.6	3.1
2026-01-24 23:45:16.570481	68.7	23.1	-75.2	1.0
2026-01-24 23:45:18.832204	69.3	23.2	-75.3	3.9
2026-01-24 23:45:21.095632	69.9	23.3	-75.7	6.3
2026-01-24 23:45:23.353422	70.5	23.4	-75.6	7.1
2026-01-24 23:45:25.617098	71.1	23.6	-75.3	6.1
2026-01-24 23:45:27.876789	71.7	23.7	-75.7	7.6
2026-01-24 23:45:30.134602	72.3	23.8	-76.0	7.8
2026-01-24 23:45:32.394510	73.0	23.9	-76.0	8.1
2026-01-24 23:45:34.651744	73.6	24.0	-76.0	8.5
2026-01-24 23:45:36.912038	74.2	24.1	-75.4	8.5
2026-01-24 23:45:39.173915	74.8	24.2	-75.0	8.3
2026-01-24 23:45:41.434110	75.5	24.2	-75.7	7.9
2026-01-24 23:45:43.710602	76.1	24.3	-75.6	7.2
2026-01-24 23:45:45.982480	76.7	24.4	-75.4	6.8
2026-01-24 23:45:48.253950	77.4	24.5	-76.0	9.1
2026-01-24 23:45:50.521529	78.0	24.6	-75.7	8.9
2026-01-24 23:45:52.789880	78.7	24.6	-76.4	8.5
2026-01-24 23:45:55.053317	79.3	24.7	-75.1	4.5
2026-01-24 23:45:57.325004	80.0	24.8	-76.5	8.9
2026-01-24 23:45:59.596087	80.7	24.8	-76.4	7.7
2026-01-24 23:46:01.866617	81.3	24.9	-75.4	7.3
2026-01-24 23:46:04.142814	82.0	24.9	-75.2	6.7
2026-01-24 23:46:06.420525	82.6	25.0	-75.3	7.2
2026-01-24 23:46:08.691057	83.3	25.0	-75.4	8.2
2026-01-24 23:46:10.962163	84.0	25.1	-75.5	7.8
2026-01-24 23:46:13.236721	84.7	25.1	-75.7	9.0
2026-01-24 23:46:15.506774	85.3	25.2	-76.0	7.9
2026-01-24 23:46:17.779590	86.0	25.2	-75.8	6.3
2026-01-24 23:46:20.053145	86.7	25.2	-75.4	8.1
2026-01-24 23:46:22.328049	87.4	25.2	-75.4	7.4
2026-01-24 23:46:24.603763	88.0	25.3	-75.7	8.4
2026-01-24 23:46:26.878390	88.7	25.3	-76.4	10.3
2026-01-24 23:46:29.153026	89.4	25.3	-75.8	10.7
2026-01-24 23:46:31.426422	90.1	25.3	-76.1	7.8
2026-01-24 23:46:33.702914	90.8	25.3	-76.1	7.8
2026-01-24 23:46:35.974994	91.4	25.3	-76.7	11.7
2026-01-24 23:46:38.251709	92.1	25.3	-76.4	9.7
2026-01-24 23:46:40.528147	92.8	25.3	-76.5	7.9
2026-01-24 23:46:42.805640	93.5	25.2	-77.0	10.7
2026-01-24 23:46:45.080189	94.2	25.2	-76.7	10.7
2026-01-24 23:46:47.352812	94.8	25.2	-77.0	9.8
2026-01-24 23:46:49.628060	95.5	25.2	-76.3	7.5
2026-01-24 23:46:51.903628	96.2	25.1	-77.3	9.5
2026-01-24 23:46:54.177022	96.9	25.1	-77.2	9.0
2026-01-24 23:46:56.449449	97.5	25.1	-77.4	10.6
2026-01-24 23:46:58.711028	98.2	25.0	-77.4	11.8
2026-01-24 23:47:00.969456	98.9	25.0	-76.9	11.0
2026-01-24 23:47:03.233653	99.5	24.9	-77.4	10.0
2026-01-24 23:47:05.496198	100.2	24.9	-77.3	11.0
2026-01-24 23:47:07.753780	100.9	24.8	-76.7	10.1
2026-01-24 23:47:10.015086	101.5	24.7	-77.2	10.1
2026-01-24 23:47:12.274698	102.2	24.7	-76.6	9.5
2026-01-24 23:47:14.533353	102.8	24.6	-76.9	10.2
2026-01-24 23:47:16.791464	103.5	24.5	-76.9	11.7
2026-01-24 23:47:19.050827	104.1	24.4	-77.1	10.4
2026-01-24 23:47:21.313996	104.8	24.4	-77.6	10.5
2026-01-24 23:47:23.590432	105.4	24.3	-76.7	9.1
2026-01-24 23:47:25.857527	106.0	24.2	-77.5	11.1
2026-01-24 23:47:28.130730	106.7	24.1	-77.7	10.9
2026-01-24 23:47:30.394878	107.3	24.0	-77.8	10.9
2026-01-24 23:47:32.658440	107.9	23.9	-77.6	10.5
2026-01-24 23:47:34.927985	108.5	23.8	-78.4	11.4
2026-01-24 23:47:37.191801	109.2	23.7	-77.2	9.2
2026-01-24 23:47:39.457124	109.8	23.6	-78.4	10.8
2026-01-24 23:47:41.725741	110.4	23.5	-77.8	9.4
2026-01-24 23:47:43.994663	111.0	23.4	-78.1	10.7
2026-01-24 23:47:46.259677	111.6	23.3	-78.5	12.2
2026-01-24 23:47:48.527747	112.2	23.1	-77.3	9.9
2026-01-24 23:47:50.800322	112.8	23.0	-77.6	10.7
2026-01-24 23:47:53.071226	113.4	22.9	-78.1	11.7
2026-01-24 23:47:55.341655	114.0	22.8	-77.5	10.2
2026-01-24 23:47:57.608141	114.5	22.6	-77.6	10.7
2026-01-24 23:47:59.875404	115.1	22.5	-77.4	10.2
2026-01-24 23:48:02.145742	115.7	22.4	-78.7	11.5
2026-01-24 23:48:04.419813	116.2	22.2	-77.4	8.5
2026-01-24 23:48:06.687142	116.8	22.1	-78.3	10.5
2026-01-24 23:48:08.954447	117.4	22.0	-77.3	10.4
2026-01-24 23:48:11.223044	117.9	21.8	-78.2	11.5
2026-01-24 23:48:13.491801	118.5	21.7	-77.0	8.7
2026-01-24 23:48:15.763202	119.0	21.5	-77.7	10.4
2026-01-24 23:48:18.028648	119.5	21.4	-77.4	9.4
2026-01-24 23:48:20.306535	120.1	21.2	-78.2	9.7
2026-01-24 23:48:22.582521	120.6	21.1	-77.4	9.3
2026-01-24 23:48:24.858505	121.1	20.9	-78.7	11.7
2026-01-24 23:48:27.133719	121.6	20.8	-78.2	12.2
2026-01-24 23:48:29.409574	122.1	20.6	-78.1	10.0
2026-01-24 23:48:31.685337	122.7	20.5	-77.8	10.0
2026-01-24 23:48:33.960299	123.2	20.3	-77.8	8.5
2026-01-24 23:48:36.241898	123.7	20.2	-78.3	10.2
2026-01-24 23:48:38.514392	124.2	20.0	-78.2	11.2
2026-01-24 23:48:40.782117	124.6	19.8	-77.9	10.2
2026-01-24 23:48:43.050182	125.1	19.7	-78.8	11.2
2026-01-24 23:48:45.314724	125.6	19.5	-77.8	9.7
2026-01-24 23:48:47.587343	126.1	19.4	-78.6	10.4
2026-01-24 23:48:49.856895	126.5	19.2	-77.3	8.3
2026-01-24 23:48:52.128208	127.0	19.0	-78.3	9.8
2026-01-24 23:48:54.394719	127.4	18.9	-77.8	8.6
2026-01-24 23:48:56.666792	127.9	18.7	-78.1	9.5
2026-01-24 23:48:58.942352	128.4	18.5	-78.1	10.2
2026-01-24 23:49:01.216050	128.8	18.4	-78.2	10.1
2026-01-24 23:49:03.491766	129.2	18.2	-77.6	9.5
2026-01-24 23:49:05.769480	129.7	18.0	-77.8	9.5
2026-01-24 23:49:08.044317	130.1	17.9	-78.5	11.4
2026-01-24 23:49:10.320110	130.5	17.7	-78.4	11.6
2026-01-24 23:49:12.590618	130.9	17.5	-78.2	9.8
2026-01-24 23:49:14.865743	131.4	17.4	-78.0	9.1
2026-01-24 23:49:17.143698	131.8	17.2	-78.4	9.8
2026-01-24 23:49:19.412015	132.2	17.0	-78.1	10.1
2026-01-24 23:49:21.681928	132.6	16.8	-78.4	8.8
2026-01-24 23:49:23.956583	133.0	16.7	-78.1	10.0
2026-01-24 23:49:26.231448	133.4	16.5	-78.3	9.8
2026-01-24 23:49:28.502018	133.8	16.3	-78.3	9.5
2026-01-24 23:49:30.772087	134.1	16.2	-78.2	8.5
2026-01-24 23:49:33.047788	134.5	16.0	-78.5	8.5
2026-01-24 23:49:35.324362	134.9	15.8	-78.4	9.8
2026-01-24 23:49:37.595883	135.3	15.7	-78.4	9.6
2026-01-24 23:49:39.859085	135.6	15.5	-78.5	9.8
2026-01-24 23:49:42.121725	136.0	15.3	-78.7	10.9
2026-01-24 23:49:44.387561	136.4	15.1	-77.9	9.8
2026-01-24 23:49:46.654236	136.7	15.0	-78.7	9.8
2026-01-24 23:49:48.922775	137.1	14.8	-78.1	9.8
2026-01-24 23:49:51.189613	137.4	14.6	-78.5	9.1
2026-01-24 23:49:53.455876	137.8	14.5	-78.5	10.1
2026-01-24 23:49:55.720129	138.1	14.3	-78.0	8.4
2026-01-24 23:49:57.986178	138.4	14.1	-78.2	9.2
2026-01-24 23:50:00.254076	138.8	14.0	-78.6	8.6
2026-01-24 23:50:02.514179	139.1	13.8	-78.3	9.5
2026-01-24 23:50:04.775175	139.4	13.6	-78.8	9.1
2026-01-24 23:50:07.037616	139.7	13.5	-78.5	9.7
2026-01-24 23:50:09.300763	140.1	13.3	-79.0	9.9
2026-01-24 23:50:11.561170	140.4	13.1	-78.9	10.6
2026-01-24 23:50:13.821519	140.7	13.0	-78.6	9.3
2026-01-24 23:50:16.081564	141.0	12.8	-78.7	9.2
2026-01-24 23:50:18.341123	141.3	12.6	-78.7	8.6
2026-01-24 23:50:20.600330	141.6	12.5	-79.2	10.4
2026-01-24 23:50:22.861823	141.9	12.3	-79.2	8.3
2026-01-24 23:50:25.121792	142.2	12.2	-79.3	9.0
2026-01-24 23:50:27.396143	142.5	12.0	-79.7	9.8
2026-01-24 23:50:29.670040	142.8	11.8	-79.9	9.0
2026-01-24 23:50:31.942547	143.0	11.7	-79.9	8.3
2026-01-24 23:50:34.213661	143.3	11.5	-79.5	8.1
2026-01-24 23:50:36.488205	143.6	11.3	-80.0	9.4
2026-01-24 23:50:38.757319	143.9	11.2	-79.1	8.6
2026-01-24 23:50:41.028718	144.2	11.0	-79.6	8.3
2026-01-24 23:50:43.302899	144.4	10.9	-79.9	8.0
2026-01-24 23:50:45.576170	144.7	10.7	-83.0	3.2
2026-01-24 23:50:47.846205	145.0	10.5	-84.4	0.0
2026-01-24 23:50:50.116570	145.2	10.4	-84.0	0.0
2026-01-24 23:50:52.389710	145.5	10.2	-83.8	0.0
2026-01-24 23:50:54.661297	145.7	10.1	-82.2	0.0
#Closed at: 2026-01-24 23:42:03.243278