passes_logs/2026/01/24/planumMaritime01/planumMaritime01__20260124_061451_METOP-B_rec.log

#Pass ID: 20260124_061451_METOP-B
#Satellite: METOP-B
#Configuration: METOP-B
#Start time: 2026-01-24 06:14:56.664904

#LorettStation: 1.0.0 05.05.2024
#Station: planumMaritime01
#Location: 37.49445 lon 55.92918 lat
#TLE: 1 38771U 12049A   26022.97235704  .00000260  00000+0  13896-3 0  9998
#TLE: 2 38771  98.6736  77.2202 0003075  60.7389 299.4096 14.21426861692635

#Time	Az	El	Level	SNR
2026-01-24 06:14:58.839573	29.5	10.2	-72.8	0.0
2026-01-24 06:15:01.091434	29.6	10.3	-67.5	0.0
2026-01-24 06:15:03.344320	29.8	10.5	-67.6	0.0
2026-01-24 06:15:05.596097	30.0	10.7	-62.1	0.0
2026-01-24 06:15:07.849724	30.2	10.9	-61.3	0.0
2026-01-24 06:15:10.105761	30.4	11.1	-59.7	0.0
2026-01-24 06:15:12.358694	30.6	11.2	-58.7	0.0
2026-01-24 06:15:14.611388	30.8	11.4	-59.6	0.0
2026-01-24 06:15:16.864946	31.0	11.6	-59.8	0.0
2026-01-24 06:15:19.118960	31.3	11.8	-60.2	0.0
2026-01-24 06:15:21.370605	31.5	12.0	-60.5	0.0
2026-01-24 06:15:23.628745	31.7	12.1	-57.8	0.0
2026-01-24 06:15:25.880722	31.9	12.3	-59.9	0.0
2026-01-24 06:15:28.134849	32.1	12.5	-60.0	0.0
2026-01-24 06:15:30.387118	32.3	12.7	-59.5	0.0
2026-01-24 06:15:32.639872	32.6	12.9	-59.4	0.0
2026-01-24 06:15:34.897920	32.8	13.1	-56.5	0.0
2026-01-24 06:15:37.150486	33.0	13.3	-57.3	0.0
2026-01-24 06:15:39.403579	33.3	13.5	-58.3	0.0
2026-01-24 06:15:41.659315	33.5	13.7	-58.4	0.0
2026-01-24 06:15:43.912348	33.7	13.9	-58.7	0.0
2026-01-24 06:15:46.166722	34.0	14.1	-58.9	0.0
2026-01-24 06:15:48.420314	34.2	14.3	-57.6	0.0
2026-01-24 06:15:50.673666	34.5	14.5	-57.2	0.0
2026-01-24 06:15:52.928379	34.7	14.7	-58.8	0.0
2026-01-24 06:15:55.179997	35.0	14.9	-58.4	0.0
2026-01-24 06:15:57.432940	35.2	15.1	-60.4	0.0
2026-01-24 06:15:59.684905	35.5	15.3	-58.7	0.0
2026-01-24 06:16:01.938533	35.8	15.5	-58.9	0.0
2026-01-24 06:16:04.191709	36.0	15.7	-62.5	0.0
2026-01-24 06:16:06.444084	36.3	15.9	-61.4	0.0
2026-01-24 06:16:08.699912	36.6	16.1	-62.9	0.0
2026-01-24 06:16:10.953150	36.9	16.3	-62.7	0.0
2026-01-24 06:16:13.206337	37.2	16.5	-61.1	0.0
2026-01-24 06:16:15.459472	37.5	16.7	-61.2	0.0
2026-01-24 06:16:17.717153	37.7	16.9	-58.9	0.0
2026-01-24 06:16:19.971250	38.0	17.1	-62.7	0.0
2026-01-24 06:16:22.226076	38.3	17.4	-63.6	0.0
2026-01-24 06:16:24.478740	38.6	17.6	-61.2	0.0
2026-01-24 06:16:26.729554	39.0	17.8	-63.0	0.0
2026-01-24 06:16:28.982320	39.3	18.0	-64.7	0.0
2026-01-24 06:16:31.233943	39.6	18.2	-55.4	0.0
2026-01-24 06:16:33.486882	39.9	18.4	-59.2	0.0
2026-01-24 06:16:35.738845	40.2	18.7	-52.9	0.0
2026-01-24 06:16:37.989057	40.6	18.9	-65.7	0.0
2026-01-24 06:16:40.242286	40.9	19.1	-64.8	0.0
2026-01-24 06:16:42.497562	41.2	19.3	-64.4	0.0
2026-01-24 06:16:44.750676	41.6	19.6	-63.5	0.0
2026-01-24 06:16:47.003662	41.9	19.8	-63.8	0.0
2026-01-24 06:16:49.255776	42.3	20.0	-64.4	0.0
2026-01-24 06:16:51.510871	42.7	20.2	-63.9	0.0
2026-01-24 06:16:53.761709	43.0	20.5	-66.2	0.0
2026-01-24 06:16:56.012789	43.4	20.7	-65.4	0.0
2026-01-24 06:16:58.265681	43.8	20.9	-64.9	0.0
2026-01-24 06:17:00.516365	44.2	21.2	-65.3	0.0
2026-01-24 06:17:02.766276	44.6	21.4	-65.2	0.0
2026-01-24 06:17:05.019857	44.9	21.6	-63.7	0.0
2026-01-24 06:17:07.269770	45.3	21.9	-67.6	0.0
2026-01-24 06:17:09.522153	45.8	22.1	-68.1	0.0
2026-01-24 06:17:11.774227	46.2	22.4	-66.8	0.0
2026-01-24 06:17:14.027187	46.6	22.6	-64.3	0.0
2026-01-24 06:17:16.281517	47.0	22.8	-68.9	0.0
2026-01-24 06:17:18.534597	47.4	23.1	-67.4	0.0
2026-01-24 06:17:20.788815	47.9	23.3	-66.0	0.0
2026-01-24 06:17:23.041536	48.3	23.6	-67.2	0.0
2026-01-24 06:17:25.297312	48.8	23.8	-68.4	0.0
2026-01-24 06:17:27.554150	49.2	24.0	-66.0	0.0
2026-01-24 06:17:29.808210	49.7	24.3	-66.6	0.0
2026-01-24 06:17:32.061746	50.2	24.5	-68.8	0.0
2026-01-24 06:17:34.313765	50.7	24.8	-67.2	0.0
2026-01-24 06:17:36.568523	51.1	25.0	-67.7	0.0
2026-01-24 06:17:38.821882	51.6	25.2	-68.6	0.0
2026-01-24 06:17:41.073984	52.1	25.5	-64.1	0.0
2026-01-24 06:17:43.329764	52.7	25.7	-67.6	0.0
2026-01-24 06:17:45.585796	53.2	26.0	-67.2	0.0
2026-01-24 06:17:47.838803	53.7	26.2	-68.2	0.0
2026-01-24 06:17:50.092499	54.2	26.5	-69.3	0.7
2026-01-24 06:17:52.344261	54.8	26.7	-68.7	0.0
2026-01-24 06:17:54.597068	55.3	26.9	-67.7	0.0
2026-01-24 06:17:56.850313	55.9	27.2	-66.0	0.0
2026-01-24 06:17:59.101947	56.4	27.4	-67.8	0.0
2026-01-24 06:18:01.352218	57.0	27.7	-69.5	0.0
2026-01-24 06:18:03.603830	57.6	27.9	-68.6	0.0
2026-01-24 06:18:05.857276	58.2	28.1	-68.1	0.0
2026-01-24 06:18:08.106130	58.8	28.4	-70.6	1.3
2026-01-24 06:18:10.359642	59.4	28.6	-68.8	1.7
2026-01-24 06:18:12.613042	60.0	28.8	-70.5	2.6
2026-01-24 06:18:14.865414	60.6	29.1	-70.6	4.5
2026-01-24 06:18:17.119565	61.3	29.3	-68.5	1.4
2026-01-24 06:18:19.370757	61.9	29.5	-66.3	0.0
2026-01-24 06:18:21.623488	62.6	29.7	-68.7	3.7
2026-01-24 06:18:23.873472	63.2	30.0	-70.3	2.1
2026-01-24 06:18:26.124748	63.9	30.2	-67.7	1.1
2026-01-24 06:18:28.377593	64.6	30.4	-70.4	4.7
2026-01-24 06:18:30.629628	65.3	30.6	-71.5	5.9
2026-01-24 06:18:32.880149	66.0	30.8	-71.7	6.8
2026-01-24 06:18:35.131940	66.7	31.0	-70.7	3.0
2026-01-24 06:18:37.384966	67.4	31.2	-69.8	2.8
2026-01-24 06:18:39.636987	68.1	31.4	-70.3	3.4
2026-01-24 06:18:41.890762	68.9	31.6	-70.1	5.6
2026-01-24 06:18:44.143994	69.6	31.8	-71.7	6.9
2026-01-24 06:18:46.396508	70.4	32.0	-70.6	5.0
2026-01-24 06:18:48.649905	71.1	32.2	-71.4	7.9
2026-01-24 06:18:50.900169	71.9	32.4	-71.0	6.1
2026-01-24 06:18:53.150833	72.7	32.6	-70.9	6.7
2026-01-24 06:18:55.400172	73.5	32.8	-70.4	7.5
2026-01-24 06:18:57.652355	74.3	32.9	-71.0	7.4
2026-01-24 06:18:59.903977	75.1	33.1	-70.7	5.4
2026-01-24 06:19:02.155800	75.9	33.2	-70.8	4.7
2026-01-24 06:19:04.406045	76.7	33.4	-70.9	7.8
2026-01-24 06:19:06.656534	77.5	33.5	-69.6	5.7
2026-01-24 06:19:08.907877	78.3	33.7	-70.8	8.6
2026-01-24 06:19:11.159342	79.2	33.8	-70.9	8.3
2026-01-24 06:19:13.411249	80.0	33.9	-71.0	8.9
2026-01-24 06:19:15.661204	80.9	34.1	-71.0	7.1
2026-01-24 06:19:17.912557	81.7	34.2	-71.7	7.4
2026-01-24 06:19:20.166659	82.6	34.3	-71.5	6.7
2026-01-24 06:19:22.418080	83.5	34.4	-70.8	5.0
2026-01-24 06:19:24.670279	84.4	34.5	-70.3	0.3
2026-01-24 06:19:26.920925	85.2	34.6	-71.8	7.7
2026-01-24 06:19:29.171744	86.1	34.6	-69.4	8.1
2026-01-24 06:19:31.424279	87.0	34.7	-68.8	2.5
2026-01-24 06:19:33.678237	87.9	34.8	-71.2	5.8
2026-01-24 06:19:35.933820	88.8	34.8	-71.2	7.7
2026-01-24 06:19:38.185647	89.7	34.9	-70.9	7.0
2026-01-24 06:19:40.436837	90.6	34.9	-70.4	7.0
2026-01-24 06:19:42.689212	91.5	35.0	-70.2	5.5
2026-01-24 06:19:44.940640	92.4	35.0	-71.2	9.2
2026-01-24 06:19:47.191202	93.3	35.0	-69.6	5.5
2026-01-24 06:19:49.448506	94.2	35.0	-71.7	9.5
2026-01-24 06:19:51.700956	95.1	35.0	-71.8	9.0
2026-01-24 06:19:53.951438	96.1	35.0	-71.0	8.8
2026-01-24 06:19:56.202708	97.0	35.0	-70.8	7.8
2026-01-24 06:19:58.456375	97.9	35.0	-71.7	10.4
2026-01-24 06:20:00.710378	98.8	35.0	-71.8	9.6
2026-01-24 06:20:02.960547	99.7	34.9	-71.6	8.9
2026-01-24 06:20:05.212431	100.6	34.9	-71.7	8.8
2026-01-24 06:20:07.463350	101.5	34.8	-72.2	9.0
2026-01-24 06:20:09.715248	102.4	34.8	-71.6	9.8
2026-01-24 06:20:11.968820	103.3	34.7	-71.8	9.8
2026-01-24 06:20:14.220521	104.2	34.6	-72.2	6.5
2026-01-24 06:20:16.472708	105.1	34.6	-72.7	9.1
2026-01-24 06:20:18.725153	105.9	34.5	-71.3	8.0
2026-01-24 06:20:20.976736	106.8	34.4	-72.6	8.9
2026-01-24 06:20:23.229899	107.7	34.3	-71.8	8.4
2026-01-24 06:20:25.483441	108.6	34.2	-72.7	9.0
2026-01-24 06:20:27.734984	109.4	34.0	-72.3	7.8
2026-01-24 06:20:29.986779	110.3	33.9	-71.7	8.3
2026-01-24 06:20:32.236718	111.1	33.8	-71.9	7.6
2026-01-24 06:20:34.487612	112.0	33.7	-72.3	8.8
2026-01-24 06:20:36.742234	112.8	33.5	-72.8	9.0
2026-01-24 06:20:38.996125	113.6	33.4	-72.7	8.5
2026-01-24 06:20:41.247411	114.4	33.2	-72.8	8.9
2026-01-24 06:20:43.500708	115.2	33.0	-73.4	9.6
2026-01-24 06:20:45.753595	116.0	32.9	-72.3	7.6
2026-01-24 06:20:48.003517	116.8	32.7	-72.6	8.5
2026-01-24 06:20:50.256053	117.6	32.5	-73.3	9.8
2026-01-24 06:20:52.511932	118.4	32.4	-73.2	8.3
2026-01-24 06:20:54.762891	119.2	32.2	-73.5	9.0
2026-01-24 06:20:57.013295	119.9	32.0	-73.2	8.9
2026-01-24 06:20:59.264799	120.7	31.8	-73.6	9.4
2026-01-24 06:21:01.514863	121.4	31.6	-73.2	7.9
2026-01-24 06:21:03.765818	122.2	31.4	-73.8	9.2
2026-01-24 06:21:06.018033	122.9	31.2	-73.4	8.7
2026-01-24 06:21:08.270669	123.6	31.0	-73.6	9.1
2026-01-24 06:21:10.521991	124.3	30.8	-73.6	7.8
2026-01-24 06:21:12.776794	125.0	30.6	-73.6	8.6
2026-01-24 06:21:15.032115	125.7	30.3	-73.3	8.0
2026-01-24 06:21:17.283084	126.4	30.1	-73.6	8.8
2026-01-24 06:21:19.532873	127.1	29.9	-73.3	8.8
2026-01-24 06:21:21.782648	127.7	29.7	-73.1	8.9
2026-01-24 06:21:24.033790	128.4	29.5	-73.6	9.2
2026-01-24 06:21:26.287444	129.0	29.2	-73.5	8.5
2026-01-24 06:21:28.541628	129.7	29.0	-73.4	7.8
2026-01-24 06:21:30.793569	130.3	28.8	-73.2	8.2
2026-01-24 06:21:33.049718	130.9	28.5	-73.2	8.7
2026-01-24 06:21:35.306785	131.5	28.3	-73.2	8.7
2026-01-24 06:21:37.557211	132.1	28.1	-73.2	8.2
2026-01-24 06:21:39.807927	132.7	27.8	-73.1	8.4
2026-01-24 06:21:42.058119	133.3	27.6	-73.5	9.4
2026-01-24 06:21:44.311469	133.9	27.3	-73.1	9.0
2026-01-24 06:21:46.565360	134.4	27.1	-73.2	9.3
2026-01-24 06:21:48.819585	135.0	26.9	-73.4	8.9
2026-01-24 06:21:51.072397	135.5	26.6	-72.9	7.9
2026-01-24 06:21:53.324549	136.1	26.4	-73.3	7.4
2026-01-24 06:21:55.574702	136.6	26.1	-73.5	8.9
2026-01-24 06:21:57.828910	137.1	25.9	-73.5	8.0
2026-01-24 06:22:00.082278	137.7	25.6	-73.5	8.2
2026-01-24 06:22:02.334715	138.2	25.4	-73.2	7.1
2026-01-24 06:22:04.588161	138.7	25.2	-73.4	6.2
2026-01-24 06:22:06.839244	139.2	24.9	-73.4	7.6
2026-01-24 06:22:09.088988	139.7	24.7	-73.8	7.5
2026-01-24 06:22:11.343775	140.1	24.4	-74.0	7.4
2026-01-24 06:22:13.594580	140.6	24.2	-74.3	7.0
2026-01-24 06:22:15.845995	141.1	23.9	-74.2	7.3
2026-01-24 06:22:18.100750	141.5	23.7	-74.4	6.5
2026-01-24 06:22:20.353017	142.0	23.4	-74.1	7.3
2026-01-24 06:22:22.609347	142.4	23.2	-74.2	6.7
2026-01-24 06:22:24.864482	142.9	23.0	-74.6	6.9
2026-01-24 06:22:27.117162	143.3	22.7	-73.6	4.3
2026-01-24 06:22:29.369679	143.7	22.5	-74.3	7.2
2026-01-24 06:22:31.620714	144.1	22.2	-74.9	6.8
2026-01-24 06:22:33.879417	144.6	22.0	-74.1	6.1
2026-01-24 06:22:36.129197	145.0	21.8	-74.3	4.3
2026-01-24 06:22:38.379680	145.4	21.5	-74.3	6.9
2026-01-24 06:22:40.629665	145.8	21.3	-74.5	7.5
2026-01-24 06:22:42.883288	146.1	21.1	-74.0	6.6
2026-01-24 06:22:45.133479	146.5	20.8	-73.8	6.3
2026-01-24 06:22:47.386319	146.9	20.6	-73.6	5.3
2026-01-24 06:22:49.637091	147.3	20.4	-74.6	7.4
2026-01-24 06:22:51.887060	147.6	20.1	-74.3	7.3
2026-01-24 06:22:54.141674	148.0	19.9	-74.0	5.8
2026-01-24 06:22:56.394418	148.4	19.7	-73.9	6.5
2026-01-24 06:22:58.647834	148.7	19.4	-73.7	3.5
2026-01-24 06:23:00.900297	149.0	19.2	-72.9	6.1
2026-01-24 06:23:03.151976	149.4	19.0	-73.5	3.8
2026-01-24 06:23:05.402343	149.7	18.8	-73.8	6.0
2026-01-24 06:23:07.653744	150.1	18.5	-73.8	3.9
2026-01-24 06:23:09.904760	150.4	18.3	-73.8	5.3
2026-01-24 06:23:12.157735	150.7	18.1	-73.6	4.0
2026-01-24 06:23:14.410665	151.0	17.9	-73.1	4.3
2026-01-24 06:23:16.664607	151.3	17.6	-71.7	0.0
2026-01-24 06:23:18.917636	151.6	17.4	-73.0	4.9
2026-01-24 06:23:21.169107	151.9	17.2	-72.4	0.0
2026-01-24 06:23:23.420744	152.2	17.0	-74.2	5.9
2026-01-24 06:23:25.672729	152.5	16.8	-73.9	5.0
2026-01-24 06:23:27.926426	152.8	16.6	-74.0	2.7
2026-01-24 06:23:30.180245	153.1	16.4	-74.0	0.7
2026-01-24 06:23:32.430867	153.4	16.1	-74.0	5.8
2026-01-24 06:23:34.682593	153.7	15.9	-73.6	5.2
2026-01-24 06:23:36.931576	154.0	15.7	-74.0	4.0
2026-01-24 06:23:39.182231	154.2	15.5	-73.7	5.1
2026-01-24 06:23:41.434755	154.5	15.3	-73.9	3.7
2026-01-24 06:23:43.688810	154.8	15.1	-74.0	2.9
2026-01-24 06:23:45.942519	155.0	14.9	-74.2	3.6
2026-01-24 06:23:48.197716	155.3	14.7	-73.9	1.9
2026-01-24 06:23:50.451333	155.5	14.5	-74.0	3.4
2026-01-24 06:23:52.705686	155.8	14.3	-73.4	2.1
2026-01-24 06:23:54.956735	156.0	14.1	-74.3	2.5
2026-01-24 06:23:57.209770	156.3	13.9	-74.0	4.2
2026-01-24 06:23:59.462512	156.5	13.7	-73.8	0.7
2026-01-24 06:24:01.717523	156.8	13.5	-74.0	1.2
2026-01-24 06:24:03.969205	157.0	13.3	-74.1	1.2
2026-01-24 06:24:06.219935	157.2	13.1	-74.2	0.0
2026-01-24 06:24:08.470895	157.5	12.9	-73.5	0.4
2026-01-24 06:24:10.723263	157.7	12.7	-74.1	1.9
2026-01-24 06:24:12.976616	157.9	12.5	-74.6	1.5
2026-01-24 06:24:15.233641	158.1	12.4	-74.0	0.7
2026-01-24 06:24:17.488083	158.3	12.2	-74.4	2.4
2026-01-24 06:24:19.742842	158.6	12.0	-74.4	3.2
2026-01-24 06:24:21.994913	158.8	11.8	-74.3	0.9
2026-01-24 06:24:24.247428	159.0	11.6	-74.6	2.0
2026-01-24 06:24:26.502405	159.2	11.4	-74.3	0.7
2026-01-24 06:24:28.760577	159.4	11.2	-75.0	2.0
2026-01-24 06:24:31.014299	159.6	11.1	-75.2	1.4
2026-01-24 06:24:33.267877	159.8	10.9	-73.6	0.0
2026-01-24 06:24:35.518731	160.0	10.7	-74.4	0.0
2026-01-24 06:24:37.771472	160.2	10.5	-76.2	0.0
2026-01-24 06:24:40.021674	160.4	10.3	-79.4	0.0
2026-01-24 06:24:42.276475	160.6	10.2	-79.8	0.0
#Closed at: 2026-01-24 06:14:51.671376