passes_logs/2026/01/24/planumMaritime01/planumMaritime01__20260124_182239_METOP-C_rec.log

#Pass ID: 20260124_182239_METOP-C
#Satellite: METOP-C
#Configuration: METOP-C
#Start time: 2026-01-24 18:22:44.219319

#LorettStation: 1.0.0 05.05.2024
#Station: planumMaritime01
#Location: 37.49445 lon 55.92918 lat
#TLE: 1 43689U 18087A   26024.26583731  .00000264  00000+0  14040-3 0  9996
#TLE: 2 43689  98.6862  86.3700 0001029 166.1430 193.9776 14.21503830374382

#Time	Az	El	Level	SNR
2026-01-24 18:22:46.392397	172.5	10.2	-71.6	0.0
2026-01-24 18:22:48.644630	172.6	10.4	-71.8	0.0
2026-01-24 18:22:50.897104	172.7	10.6	-72.2	0.0
2026-01-24 18:22:53.151140	172.7	10.8	-72.3	1.5
2026-01-24 18:22:55.403882	172.8	11.0	-72.4	3.1
2026-01-24 18:22:57.656954	172.9	11.2	-72.8	4.3
2026-01-24 18:22:59.909455	172.9	11.4	-72.9	4.3
2026-01-24 18:23:02.161716	173.0	11.6	-72.8	2.6
2026-01-24 18:23:04.419192	173.1	11.8	-72.4	5.6
2026-01-24 18:23:06.671723	173.1	12.0	-72.6	4.5
2026-01-24 18:23:08.925542	173.2	12.2	-72.9	6.2
2026-01-24 18:23:11.179878	173.3	12.5	-72.6	4.8
2026-01-24 18:23:13.430030	173.4	12.7	-72.4	3.6
2026-01-24 18:23:15.680345	173.4	12.9	-72.4	3.8
2026-01-24 18:23:17.935226	173.5	13.1	-71.8	3.0
2026-01-24 18:23:20.190275	173.6	13.3	-72.0	4.1
2026-01-24 18:23:22.442609	173.7	13.6	-72.0	3.9
2026-01-24 18:23:24.694081	173.7	13.8	-71.9	6.2
2026-01-24 18:23:26.946940	173.8	14.0	-71.8	3.5
2026-01-24 18:23:29.198906	173.9	14.2	-71.5	3.6
2026-01-24 18:23:31.454582	174.0	14.5	-71.6	2.9
2026-01-24 18:23:33.709760	174.1	14.7	-71.6	0.6
2026-01-24 18:23:35.963687	174.1	14.9	-70.3	0.0
2026-01-24 18:23:38.215383	174.2	15.2	-70.6	0.0
2026-01-24 18:23:40.467189	174.3	15.4	-71.2	0.1
2026-01-24 18:23:42.720008	174.4	15.7	-70.9	0.0
2026-01-24 18:23:44.971173	174.5	15.9	-71.6	3.5
2026-01-24 18:23:47.226508	174.6	16.2	-71.3	1.9
2026-01-24 18:23:49.480484	174.7	16.4	-71.4	2.7
2026-01-24 18:23:51.734723	174.8	16.7	-71.8	0.0
2026-01-24 18:23:53.987442	174.9	16.9	-71.3	0.7
2026-01-24 18:23:56.241437	174.9	17.2	-71.0	0.8
2026-01-24 18:23:58.495247	175.0	17.5	-71.0	0.0
2026-01-24 18:24:00.747906	175.1	17.7	-71.0	0.0
2026-01-24 18:24:02.999751	175.2	18.0	-70.7	0.2
2026-01-24 18:24:05.252474	175.3	18.3	-71.0	0.2
2026-01-24 18:24:07.503096	175.4	18.5	-70.1	0.7
2026-01-24 18:24:09.754487	175.6	18.8	-70.6	1.3
2026-01-24 18:24:12.010382	175.7	19.1	-70.1	0.9
2026-01-24 18:24:14.266650	175.8	19.4	-70.4	0.0
2026-01-24 18:24:16.521032	175.9	19.7	-70.8	3.4
2026-01-24 18:24:18.772782	176.0	19.9	-70.2	0.6
2026-01-24 18:24:21.031443	176.1	20.2	-70.5	1.0
2026-01-24 18:24:23.283371	176.2	20.5	-70.1	0.0
2026-01-24 18:24:25.534381	176.3	20.8	-69.9	0.8
2026-01-24 18:24:27.787017	176.5	21.1	-69.9	0.0
2026-01-24 18:24:30.039494	176.6	21.4	-69.9	0.9
2026-01-24 18:24:32.295081	176.7	21.8	-70.2	1.8
2026-01-24 18:24:34.546795	176.9	22.1	-69.8	1.2
2026-01-24 18:24:36.800009	177.0	22.4	-70.1	0.1
2026-01-24 18:24:39.053074	177.1	22.7	-70.8	0.0
2026-01-24 18:24:41.306052	177.3	23.0	-69.9	0.3
2026-01-24 18:24:43.560367	177.4	23.4	-70.0	4.9
2026-01-24 18:24:45.814675	177.5	23.7	-69.9	1.0
2026-01-24 18:24:48.068837	177.7	24.0	-70.2	1.0
2026-01-24 18:24:50.325105	177.8	24.4	-70.2	2.9
2026-01-24 18:24:52.577747	178.0	24.7	-69.5	1.3
2026-01-24 18:24:54.830741	178.1	25.1	-69.6	1.0
2026-01-24 18:24:57.084374	178.3	25.4	-69.6	4.0
2026-01-24 18:24:59.337142	178.5	25.8	-69.4	2.9
2026-01-24 18:25:01.589980	178.6	26.2	-69.5	1.6
2026-01-24 18:25:03.844147	178.8	26.5	-69.3	1.1
2026-01-24 18:25:06.096656	179.0	26.9	-69.0	1.8
2026-01-24 18:25:08.350434	179.1	27.3	-70.0	1.9
2026-01-24 18:25:10.603258	179.3	27.7	-69.9	3.8
2026-01-24 18:25:12.856968	179.5	28.1	-69.9	4.0
2026-01-24 18:25:15.107491	179.7	28.5	-69.5	3.7
2026-01-24 18:25:17.360617	179.9	28.9	-69.7	1.9
2026-01-24 18:25:19.612353	180.1	29.3	-69.5	4.6
2026-01-24 18:25:21.864142	180.3	29.7	-69.5	3.9
2026-01-24 18:25:24.115171	180.5	30.1	-69.7	4.7
2026-01-24 18:25:26.369987	180.7	30.5	-70.3	3.8
2026-01-24 18:25:28.621638	180.9	30.9	-70.1	6.2
2026-01-24 18:25:30.873117	181.2	31.4	-70.7	5.0
2026-01-24 18:25:33.126974	181.4	31.8	-70.2	5.7
2026-01-24 18:25:35.378775	181.6	32.3	-70.7	6.1
2026-01-24 18:25:37.634789	181.9	32.7	-70.8	6.7
2026-01-24 18:25:39.888307	182.1	33.2	-70.7	7.4
2026-01-24 18:25:42.140488	182.4	33.6	-70.9	7.2
2026-01-24 18:25:44.394206	182.6	34.1	-71.1	7.1
2026-01-24 18:25:46.645631	182.9	34.6	-71.3	8.5
2026-01-24 18:25:48.898824	183.2	35.1	-71.1	6.1
2026-01-24 18:25:51.154059	183.5	35.6	-71.0	7.7
2026-01-24 18:25:53.405861	183.8	36.1	-72.0	8.9
2026-01-24 18:25:55.660717	184.1	36.6	-71.6	9.7
2026-01-24 18:25:57.913670	184.4	37.1	-71.9	9.9
2026-01-24 18:26:00.169535	184.7	37.6	-72.2	10.5
2026-01-24 18:26:02.421819	185.1	38.2	-72.3	11.4
2026-01-24 18:26:04.676557	185.4	38.7	-72.2	10.9
2026-01-24 18:26:06.931438	185.8	39.2	-72.4	12.1
2026-01-24 18:26:09.184829	186.1	39.8	-72.6	11.9
2026-01-24 18:26:11.437913	186.5	40.3	-72.6	13.2
2026-01-24 18:26:13.692507	186.9	40.9	-72.9	13.3
2026-01-24 18:26:15.943440	187.3	41.5	-73.0	13.6
2026-01-24 18:26:18.194436	187.7	42.1	-73.1	12.9
2026-01-24 18:26:20.448699	188.2	42.7	-73.4	12.9
2026-01-24 18:26:22.699908	188.6	43.3	-73.2	12.7
2026-01-24 18:26:24.951269	189.1	43.9	-73.2	12.4
2026-01-24 18:26:27.202633	189.6	44.5	-72.9	11.8
2026-01-24 18:26:29.457327	190.1	45.1	-72.9	12.2
2026-01-24 18:26:31.708165	190.6	45.7	-72.4	12.1
2026-01-24 18:26:33.962123	191.2	46.3	-72.4	13.0
2026-01-24 18:26:36.214233	191.8	47.0	-71.9	12.9
2026-01-24 18:26:38.463606	192.4	47.6	-71.5	13.3
2026-01-24 18:26:40.714727	193.0	48.3	-71.3	12.1
2026-01-24 18:26:42.966946	193.6	48.9	-71.5	11.4
2026-01-24 18:26:45.220825	194.3	49.6	-71.4	12.9
2026-01-24 18:26:47.472653	195.0	50.3	-71.4	12.5
2026-01-24 18:26:49.724518	195.8	50.9	-71.5	11.0
2026-01-24 18:26:51.975019	196.5	51.6	-71.9	10.6
2026-01-24 18:26:54.227386	197.3	52.3	-72.0	9.6
2026-01-24 18:26:56.476644	198.2	53.0	-72.0	10.2
2026-01-24 18:26:58.728972	199.1	53.7	-71.9	10.1
2026-01-24 18:27:00.978506	200.0	54.4	-71.9	10.9
2026-01-24 18:27:03.227832	201.0	55.1	-72.0	10.5
2026-01-24 18:27:05.481254	202.0	55.8	-71.5	10.9
2026-01-24 18:27:07.735887	203.1	56.5	-71.8	9.5
2026-01-24 18:27:09.986349	204.2	57.2	-71.9	10.2
2026-01-24 18:27:12.239414	205.4	57.9	-72.0	9.2
2026-01-24 18:27:14.491289	206.6	58.5	-72.0	10.1
2026-01-24 18:27:16.743989	207.9	59.2	-71.7	10.9
2026-01-24 18:27:18.994458	209.3	59.9	-71.6	11.2
2026-01-24 18:27:21.247646	210.8	60.6	-71.5	11.3
2026-01-24 18:27:23.503387	212.3	61.2	-71.6	12.0
2026-01-24 18:27:25.761462	213.9	61.9	-71.7	11.7
2026-01-24 18:27:28.016947	215.6	62.5	-71.5	12.3
2026-01-24 18:27:30.270402	217.4	63.1	-71.6	12.2
2026-01-24 18:27:32.525490	219.3	63.7	-71.6	11.4
2026-01-24 18:27:34.779825	221.3	64.3	-71.8	11.1
2026-01-24 18:27:37.031268	223.4	64.8	-71.7	10.5
2026-01-24 18:27:39.283025	225.6	65.4	-72.2	10.6
2026-01-24 18:27:41.534720	227.8	65.8	-71.9	8.1
2026-01-24 18:27:43.787758	230.2	66.3	-72.5	8.6
2026-01-24 18:27:46.039595	232.7	66.7	-72.8	9.7
2026-01-24 18:27:48.288964	235.3	67.1	-72.9	9.5
2026-01-24 18:27:50.539779	237.9	67.4	-72.2	9.3
2026-01-24 18:27:52.789954	240.7	67.7	-72.1	7.7
2026-01-24 18:27:55.042227	243.5	68.0	-72.8	9.5
2026-01-24 18:27:57.293204	246.4	68.2	-72.9	10.0
2026-01-24 18:27:59.546772	249.3	68.3	-71.9	8.5
2026-01-24 18:28:01.798626	252.3	68.4	-71.5	8.0
2026-01-24 18:28:04.053779	255.3	68.5	-72.2	10.5
2026-01-24 18:28:06.304821	258.3	68.5	-71.7	9.4
2026-01-24 18:28:08.556541	261.3	68.4	-70.7	6.0
2026-01-24 18:28:10.814975	264.2	68.3	-70.0	6.1
2026-01-24 18:28:13.067129	267.2	68.1	-69.9	6.2
2026-01-24 18:28:15.323634	270.0	67.9	-70.3	6.2
2026-01-24 18:28:17.576501	272.8	67.6	-70.5	5.1
2026-01-24 18:28:19.826616	275.5	67.3	-69.3	5.2
2026-01-24 18:28:22.078567	278.1	66.9	-70.1	3.8
2026-01-24 18:28:24.332510	280.7	66.5	-70.3	7.7
2026-01-24 18:28:26.585959	283.1	66.1	-71.1	10.1
2026-01-24 18:28:28.840214	285.4	65.6	-70.3	9.1
2026-01-24 18:28:31.093896	287.7	65.1	-70.4	9.2
2026-01-24 18:28:33.346504	289.8	64.6	-68.8	9.6
2026-01-24 18:28:35.597273	291.8	64.0	-68.9	7.3
2026-01-24 18:28:37.850764	293.8	63.5	-70.0	7.9
2026-01-24 18:28:40.107168	295.6	62.9	-69.9	9.4
2026-01-24 18:28:42.359316	297.4	62.2	-69.9	8.3
2026-01-24 18:28:44.612589	299.0	61.6	-70.1	8.3
2026-01-24 18:28:46.863906	300.6	61.0	-69.8	7.0
2026-01-24 18:28:49.118636	302.1	60.3	-69.0	6.1
2026-01-24 18:28:51.372772	303.5	59.6	-69.4	5.1
2026-01-24 18:28:53.624090	304.9	58.9	-69.9	5.1
2026-01-24 18:28:55.875712	306.2	58.3	-69.9	6.3
2026-01-24 18:28:58.130603	307.4	57.6	-70.5	6.6
2026-01-24 18:29:00.383655	308.6	56.9	-70.8	4.1
2026-01-24 18:29:02.637396	309.7	56.2	-69.9	4.5
2026-01-24 18:29:04.889970	310.7	55.5	-69.7	7.4
2026-01-24 18:29:07.143518	311.7	54.8	-70.3	7.4
2026-01-24 18:29:09.394432	312.7	54.1	-69.7	8.5
2026-01-24 18:29:11.646160	313.6	53.4	-70.5	7.1
2026-01-24 18:29:13.897325	314.4	52.7	-70.0	8.7
2026-01-24 18:29:16.147499	315.3	52.1	-70.2	9.7
2026-01-24 18:29:18.396124	316.1	51.4	-69.8	7.8
2026-01-24 18:29:20.649377	316.8	50.7	-69.4	8.1
2026-01-24 18:29:22.902539	317.5	50.0	-69.9	9.7
2026-01-24 18:29:25.153853	318.2	49.4	-69.4	8.2
2026-01-24 18:29:27.404805	318.9	48.7	-69.2	2.6
2026-01-24 18:29:29.656417	319.5	48.1	-70.4	7.6
2026-01-24 18:29:31.912852	320.1	47.4	-70.4	7.3
2026-01-24 18:29:34.164075	320.7	46.8	-69.8	3.7
2026-01-24 18:29:36.418056	321.3	46.1	-69.8	5.3
2026-01-24 18:29:38.670753	321.8	45.5	-70.1	7.1
2026-01-24 18:29:40.925861	322.4	44.9	-69.4	7.2
2026-01-24 18:29:43.179363	322.9	44.3	-70.0	1.5
2026-01-24 18:29:45.431669	323.3	43.7	-68.9	3.7
2026-01-24 18:29:47.686740	323.8	43.1	-69.4	6.0
2026-01-24 18:29:49.942120	324.3	42.5	-69.4	6.0
2026-01-24 18:29:52.194726	324.7	41.9	-68.4	5.3
2026-01-24 18:29:54.447512	325.1	41.3	-67.9	2.4
2026-01-24 18:29:56.699805	325.5	40.7	-66.3	0.0
2026-01-24 18:29:58.954129	325.9	40.2	-66.8	0.4
2026-01-24 18:30:01.208186	326.3	39.6	-68.8	4.6
2026-01-24 18:30:03.462366	326.6	39.1	-65.8	0.0
2026-01-24 18:30:05.715086	327.0	38.6	-67.9	1.2
2026-01-24 18:30:07.968284	327.3	38.0	-69.1	2.5
2026-01-24 18:30:10.226152	327.7	37.5	-66.1	0.0
2026-01-24 18:30:12.480820	328.0	37.0	-68.7	2.1
2026-01-24 18:30:14.737624	328.3	36.5	-68.7	2.8
2026-01-24 18:30:16.990995	328.6	36.0	-68.6	4.7
2026-01-24 18:30:19.242258	328.9	35.5	-68.0	0.9
2026-01-24 18:30:21.492784	329.2	35.0	-69.0	2.3
2026-01-24 18:30:23.746657	329.5	34.5	-68.9	3.9
2026-01-24 18:30:26.001056	329.7	34.0	-68.6	0.0
2026-01-24 18:30:28.252235	330.0	33.6	-68.8	0.3
2026-01-24 18:30:30.505173	330.3	33.1	-67.7	0.0
2026-01-24 18:30:32.758026	330.5	32.6	-68.1	2.0
2026-01-24 18:30:35.012862	330.7	32.2	-67.7	1.3
2026-01-24 18:30:37.262425	331.0	31.7	-67.0	0.0
2026-01-24 18:30:39.516315	331.2	31.3	-67.1	0.0
2026-01-24 18:30:41.766057	331.4	30.9	-67.5	0.0
2026-01-24 18:30:44.017399	331.6	30.5	-68.1	0.0
2026-01-24 18:30:46.270116	331.9	30.0	-67.5	0.0
2026-01-24 18:30:48.522979	332.1	29.6	-67.6	0.0
2026-01-24 18:30:50.777754	332.3	29.2	-68.1	0.0
2026-01-24 18:30:53.034209	332.5	28.8	-67.7	0.0
2026-01-24 18:30:55.287758	332.7	28.4	-65.3	0.0
2026-01-24 18:30:57.542371	332.8	28.0	-66.9	0.0
2026-01-24 18:30:59.793209	333.0	27.6	-67.2	0.0
2026-01-24 18:31:02.049399	333.2	27.3	-66.9	0.0
2026-01-24 18:31:04.304951	333.4	26.9	-64.2	0.0
2026-01-24 18:31:06.557068	333.6	26.5	-66.1	0.0
2026-01-24 18:31:08.813424	333.7	26.1	-64.7	0.0
2026-01-24 18:31:11.066330	333.9	25.8	-62.5	0.0
2026-01-24 18:31:13.319531	334.1	25.4	-65.4	0.0
2026-01-24 18:31:15.571395	334.2	25.1	-62.6	0.0
2026-01-24 18:31:17.828297	334.4	24.7	-66.1	0.0
2026-01-24 18:31:20.081982	334.5	24.4	-66.8	0.0
2026-01-24 18:31:22.334637	334.7	24.0	-65.0	0.0
2026-01-24 18:31:24.586632	334.8	23.7	-65.5	0.0
2026-01-24 18:31:26.840929	335.0	23.4	-64.8	0.0
2026-01-24 18:31:29.093169	335.1	23.1	-65.0	0.0
2026-01-24 18:31:31.345928	335.2	22.7	-65.4	0.0
2026-01-24 18:31:33.598379	335.4	22.4	-65.2	0.0
2026-01-24 18:31:35.851567	335.5	22.1	-64.8	0.0
2026-01-24 18:31:38.104767	335.6	21.8	-65.0	0.0
2026-01-24 18:31:40.357376	335.7	21.5	-66.1	0.0
2026-01-24 18:31:42.613202	335.9	21.2	-66.8	0.0
2026-01-24 18:31:44.866371	336.0	20.9	-65.9	0.0
2026-01-24 18:31:47.118751	336.1	20.6	-66.7	0.0
2026-01-24 18:31:49.372311	336.2	20.3	-65.0	0.0
2026-01-24 18:31:51.624368	336.4	20.0	-62.4	0.0
2026-01-24 18:31:53.877317	336.5	19.7	-61.1	0.0
2026-01-24 18:31:56.130763	336.6	19.4	-62.7	0.0
2026-01-24 18:31:58.384412	336.7	19.1	-61.5	0.0
2026-01-24 18:32:00.635141	336.8	18.9	-61.8	0.0
2026-01-24 18:32:02.889184	336.9	18.6	-58.9	0.0
2026-01-24 18:32:05.144909	337.0	18.3	-65.1	0.0
2026-01-24 18:32:07.396417	337.1	18.0	-63.8	0.0
2026-01-24 18:32:09.647701	337.2	17.8	-65.2	0.0
2026-01-24 18:32:11.899309	337.3	17.5	-65.7	0.0
2026-01-24 18:32:14.152284	337.4	17.3	-65.0	0.0
2026-01-24 18:32:16.406056	337.5	17.0	-66.4	0.0
2026-01-24 18:32:18.657769	337.6	16.7	-66.5	0.0
2026-01-24 18:32:20.911493	337.7	16.5	-69.2	0.0
2026-01-24 18:32:23.164407	337.8	16.2	-67.2	0.0
2026-01-24 18:32:25.418797	337.9	16.0	-67.5	0.0
2026-01-24 18:32:27.671587	338.0	15.7	-68.6	0.0
2026-01-24 18:32:29.922520	338.1	15.5	-67.9	0.0
2026-01-24 18:32:32.176438	338.1	15.3	-69.2	0.0
2026-01-24 18:32:34.433855	338.2	15.0	-67.5	0.0
2026-01-24 18:32:36.686367	338.3	14.8	-66.8	0.0
2026-01-24 18:32:38.938170	338.4	14.6	-67.1	0.0
2026-01-24 18:32:41.193222	338.5	14.3	-65.7	0.0
2026-01-24 18:32:43.447004	338.6	14.1	-65.1	0.0
2026-01-24 18:32:45.700233	338.6	13.9	-68.0	0.0
2026-01-24 18:32:47.954068	338.7	13.6	-67.9	0.0
2026-01-24 18:32:50.207655	338.8	13.4	-67.6	0.0
2026-01-24 18:32:52.462384	338.9	13.2	-63.7	0.0
2026-01-24 18:32:54.716931	339.0	13.0	-68.4	0.0
2026-01-24 18:32:56.968353	339.0	12.8	-67.8	0.0
2026-01-24 18:32:59.222587	339.1	12.6	-66.6	0.0
2026-01-24 18:33:01.476813	339.2	12.3	-65.6	0.0
2026-01-24 18:33:03.730618	339.3	12.1	-67.7	0.0
2026-01-24 18:33:05.984604	339.3	11.9	-67.7	0.0
2026-01-24 18:33:08.237517	339.4	11.7	-67.5	0.0
2026-01-24 18:33:10.490456	339.5	11.5	-68.1	0.0
2026-01-24 18:33:12.742056	339.5	11.3	-67.9	0.0
2026-01-24 18:33:14.994904	339.6	11.1	-67.9	0.0
2026-01-24 18:33:17.248018	339.7	10.9	-65.3	0.0
2026-01-24 18:33:19.500409	339.7	10.7	-64.7	0.0
2026-01-24 18:33:21.754564	339.8	10.5	-66.6	0.0
2026-01-24 18:33:24.010039	339.9	10.3	-68.7	0.0
2026-01-24 18:33:26.264163	339.9	10.1	-73.9	0.0
#Closed at: 2026-01-24 18:22:39.226354