passes_logs/2026/01/24/planumMaritime01/planumMaritime01__20260124_000323_METEOR-M2_4_rec.log

#Pass ID: 20260124_000323_METEOR-M2 4
#Satellite: METEOR-M2 4
#Configuration: METEOR-M2 4
#Start time: 2026-01-24 00:03:28.601107

#LorettStation: 1.0.0 05.05.2024
#Station: planumMaritime01
#Location: 37.49445 lon 55.92918 lat
#TLE: 1 59051U 24039A   26022.99662541  .00000092  00000+0  61079-4 0  9999
#TLE: 2 59051  98.6828 344.2711 0006195 224.4084 135.6597 14.22408952 98628

#Time	Az	El	Level	SNR
2026-01-24 00:03:30.773928	29.4	10.2	-79.4	0.0
2026-01-24 00:03:33.035531	29.6	10.3	-75.9	0.0
2026-01-24 00:03:35.304490	29.8	10.5	-76.2	0.0
2026-01-24 00:03:37.568971	30.0	10.7	-69.4	0.0
2026-01-24 00:03:39.834119	30.2	10.9	-69.7	0.0
2026-01-24 00:03:42.100745	30.4	11.1	-70.0	0.0
2026-01-24 00:03:44.366712	30.6	11.2	-69.3	0.0
2026-01-24 00:03:46.633186	30.8	11.4	-70.6	0.0
2026-01-24 00:03:48.902561	31.0	11.6	-68.8	0.0
2026-01-24 00:03:51.174922	31.2	11.8	-66.3	0.0
2026-01-24 00:03:53.452315	31.4	12.0	-69.4	0.0
2026-01-24 00:03:55.727932	31.6	12.2	-70.8	0.0
2026-01-24 00:03:58.003403	31.8	12.3	-69.6	0.0
2026-01-24 00:04:00.277549	32.1	12.5	-68.8	0.0
2026-01-24 00:04:02.553277	32.3	12.7	-67.9	0.0
2026-01-24 00:04:04.829852	32.5	12.9	-68.0	0.0
2026-01-24 00:04:07.107260	32.7	13.1	-71.2	0.0
2026-01-24 00:04:09.380952	33.0	13.3	-68.0	0.0
2026-01-24 00:04:11.653886	33.2	13.5	-66.0	0.0
2026-01-24 00:04:13.932632	33.4	13.7	-67.8	0.0
2026-01-24 00:04:16.208740	33.7	13.9	-70.0	0.0
2026-01-24 00:04:18.483222	33.9	14.1	-70.4	0.0
2026-01-24 00:04:20.759094	34.2	14.3	-67.0	0.0
2026-01-24 00:04:23.028093	34.4	14.5	-66.4	0.0
2026-01-24 00:04:25.292812	34.7	14.7	-68.7	0.0
2026-01-24 00:04:27.564339	34.9	14.9	-65.9	0.0
2026-01-24 00:04:29.831470	35.2	15.1	-66.7	0.0
2026-01-24 00:04:32.099582	35.5	15.3	-68.0	0.0
2026-01-24 00:04:34.366265	35.7	15.5	-68.2	0.0
2026-01-24 00:04:36.637920	36.0	15.7	-68.9	0.0
2026-01-24 00:04:38.907807	36.3	15.9	-69.1	0.0
2026-01-24 00:04:41.188424	36.6	16.1	-70.6	0.0
2026-01-24 00:04:43.467839	36.8	16.3	-67.3	0.0
2026-01-24 00:04:45.741329	37.1	16.6	-65.9	0.0
2026-01-24 00:04:48.018085	37.4	16.8	-68.8	0.0
2026-01-24 00:04:50.296053	37.7	17.0	-66.6	0.0
2026-01-24 00:04:52.573628	38.0	17.2	-67.6	0.0
2026-01-24 00:04:54.849322	38.3	17.4	-70.4	0.0
2026-01-24 00:04:57.111435	38.6	17.6	-71.3	0.0
2026-01-24 00:04:59.370418	38.9	17.9	-70.6	0.0
2026-01-24 00:05:01.626544	39.2	18.1	-71.9	0.0
2026-01-24 00:05:03.884651	39.6	18.3	-71.5	0.0
2026-01-24 00:05:06.143556	39.9	18.5	-72.5	0.0
2026-01-24 00:05:08.401555	40.2	18.7	-73.3	0.0
2026-01-24 00:05:10.659724	40.5	19.0	-73.8	0.0
2026-01-24 00:05:12.916679	40.9	19.2	-72.4	0.0
2026-01-24 00:05:15.175051	41.2	19.4	-73.3	0.0
2026-01-24 00:05:17.438204	41.6	19.6	-71.8	0.0
2026-01-24 00:05:19.711804	41.9	19.9	-74.6	0.0
2026-01-24 00:05:21.988564	42.3	20.1	-73.8	0.0
2026-01-24 00:05:24.265154	42.7	20.3	-73.4	0.0
2026-01-24 00:05:26.539476	43.0	20.6	-75.5	0.0
2026-01-24 00:05:28.816687	43.4	20.8	-75.6	0.0
2026-01-24 00:05:31.093511	43.8	21.0	-75.2	0.0
2026-01-24 00:05:33.371229	44.2	21.3	-75.4	0.0
2026-01-24 00:05:35.643394	44.6	21.5	-74.7	0.0
2026-01-24 00:05:37.907539	45.0	21.8	-74.5	0.0
2026-01-24 00:05:40.172752	45.4	22.0	-75.0	0.0
2026-01-24 00:05:42.439050	45.8	22.2	-76.3	0.0
2026-01-24 00:05:44.705280	46.2	22.5	-76.8	0.0
2026-01-24 00:05:46.973386	46.6	22.7	-76.0	0.0
2026-01-24 00:05:49.238969	47.1	23.0	-75.0	0.0
2026-01-24 00:05:51.509093	47.5	23.2	-74.8	0.0
2026-01-24 00:05:53.773247	47.9	23.4	-76.4	0.2
2026-01-24 00:05:56.049623	48.4	23.7	-74.8	0.0
2026-01-24 00:05:58.327522	48.8	23.9	-76.4	0.0
2026-01-24 00:06:00.603929	49.3	24.2	-75.7	0.0
2026-01-24 00:06:02.881940	49.8	24.4	-75.3	1.3
2026-01-24 00:06:05.154660	50.3	24.7	-75.9	4.1
2026-01-24 00:06:07.432419	50.7	24.9	-73.6	0.0
2026-01-24 00:06:09.705507	51.2	25.2	-74.1	4.6
2026-01-24 00:06:11.981763	51.7	25.4	-74.2	1.0
2026-01-24 00:06:14.254623	52.3	25.7	-76.1	5.2
2026-01-24 00:06:16.526798	52.8	25.9	-75.8	4.2
2026-01-24 00:06:18.802776	53.3	26.1	-75.2	3.0
2026-01-24 00:06:21.077827	53.8	26.4	-74.6	2.7
2026-01-24 00:06:23.352459	54.4	26.6	-75.2	0.0
2026-01-24 00:06:25.631665	54.9	26.9	-75.6	6.7
2026-01-24 00:06:27.906199	55.5	27.1	-74.5	4.0
2026-01-24 00:06:30.179197	56.1	27.4	-74.9	3.7
2026-01-24 00:06:32.453094	56.6	27.6	-74.7	4.3
2026-01-24 00:06:34.729633	57.2	27.9	-76.1	6.0
2026-01-24 00:06:37.004600	57.8	28.1	-75.5	6.5
2026-01-24 00:06:39.279659	58.4	28.3	-75.7	5.8
2026-01-24 00:06:41.554588	59.0	28.6	-75.1	5.3
2026-01-24 00:06:43.830694	59.6	28.8	-74.7	2.4
2026-01-24 00:06:46.103808	60.3	29.0	-75.7	7.7
2026-01-24 00:06:48.364804	60.9	29.3	-74.7	9.7
2026-01-24 00:06:50.624816	61.6	29.5	-74.8	7.3
2026-01-24 00:06:52.884198	62.2	29.7	-75.8	8.4
2026-01-24 00:06:55.144740	62.9	30.0	-75.5	6.6
2026-01-24 00:06:57.412247	63.5	30.2	-75.7	9.1
2026-01-24 00:06:59.680223	64.2	30.4	-75.7	10.9
2026-01-24 00:07:01.945646	64.9	30.6	-76.1	8.4
2026-01-24 00:07:04.213817	65.6	30.8	-75.7	8.4
2026-01-24 00:07:06.478603	66.3	31.1	-75.9	10.7
2026-01-24 00:07:08.742771	67.1	31.3	-76.5	8.1
2026-01-24 00:07:11.013839	67.8	31.5	-76.1	8.0
2026-01-24 00:07:13.281150	68.5	31.7	-75.9	11.8
2026-01-24 00:07:15.547869	69.3	31.9	-75.5	10.3
2026-01-24 00:07:17.817600	70.0	32.1	-75.9	10.5
2026-01-24 00:07:20.081694	70.8	32.3	-75.8	11.0
2026-01-24 00:07:22.351996	71.6	32.4	-74.8	10.8
2026-01-24 00:07:24.622027	72.4	32.6	-75.7	10.2
2026-01-24 00:07:26.890534	73.1	32.8	-75.9	10.3
2026-01-24 00:07:29.159069	73.9	33.0	-75.9	12.2
2026-01-24 00:07:31.433703	74.8	33.1	-76.4	9.8
2026-01-24 00:07:33.702979	75.6	33.3	-76.1	12.0
2026-01-24 00:07:35.967617	76.4	33.5	-76.2	12.2
2026-01-24 00:07:38.228068	77.2	33.6	-76.2	12.3
2026-01-24 00:07:40.487666	78.1	33.8	-76.1	12.7
2026-01-24 00:07:42.742184	78.9	33.9	-76.7	12.4
2026-01-24 00:07:44.996339	79.8	34.0	-76.5	12.6
2026-01-24 00:07:47.250862	80.6	34.2	-76.6	11.1
2026-01-24 00:07:49.502181	81.5	34.3	-76.7	11.8
2026-01-24 00:07:51.753178	82.4	34.4	-77.1	11.4
2026-01-24 00:07:54.012302	83.2	34.5	-77.0	11.5
2026-01-24 00:07:56.269977	84.1	34.6	-77.3	11.8
2026-01-24 00:07:58.537631	85.0	34.7	-77.0	12.4
2026-01-24 00:08:00.801153	85.9	34.8	-76.8	12.8
2026-01-24 00:08:03.061041	86.8	34.8	-77.2	13.0
2026-01-24 00:08:05.327466	87.7	34.9	-77.2	12.4
2026-01-24 00:08:07.594965	88.6	35.0	-77.0	13.0
2026-01-24 00:08:09.856105	89.5	35.0	-76.7	10.7
2026-01-24 00:08:12.125406	90.4	35.1	-76.9	12.3
2026-01-24 00:08:14.385550	91.3	35.1	-76.4	12.8
2026-01-24 00:08:16.648093	92.3	35.1	-76.7	12.0
2026-01-24 00:08:18.911851	93.2	35.1	-76.3	10.8
2026-01-24 00:08:21.177946	94.1	35.2	-76.4	10.9
2026-01-24 00:08:23.451638	95.0	35.2	-77.5	12.3
2026-01-24 00:08:25.729415	95.9	35.2	-77.1	12.6
2026-01-24 00:08:28.006417	96.9	35.1	-77.4	12.0
2026-01-24 00:08:30.284602	97.8	35.1	-77.1	11.2
2026-01-24 00:08:32.560879	98.7	35.1	-77.8	11.1
2026-01-24 00:08:34.837713	99.6	35.1	-77.7	10.6
2026-01-24 00:08:37.115390	100.6	35.0	-77.7	11.8
2026-01-24 00:08:39.391201	101.5	35.0	-77.8	12.9
2026-01-24 00:08:41.666359	102.4	34.9	-78.1	12.7
2026-01-24 00:08:43.943131	103.3	34.8	-77.7	12.9
2026-01-24 00:08:46.218774	104.2	34.8	-77.8	12.4
2026-01-24 00:08:48.493054	105.1	34.7	-77.7	12.2
2026-01-24 00:08:50.768036	106.0	34.6	-77.6	12.7
2026-01-24 00:08:53.046239	106.9	34.5	-77.4	11.9
2026-01-24 00:08:55.320729	107.8	34.4	-77.2	10.8
2026-01-24 00:08:57.596443	108.7	34.3	-77.4	12.2
2026-01-24 00:08:59.870243	109.5	34.2	-77.4	12.5
2026-01-24 00:09:02.147872	110.4	34.0	-77.8	12.0
2026-01-24 00:09:04.418837	111.3	33.9	-77.8	12.9
2026-01-24 00:09:06.692368	112.1	33.8	-77.6	12.2
2026-01-24 00:09:08.965227	113.0	33.6	-78.2	11.7
2026-01-24 00:09:11.235669	113.8	33.5	-78.2	12.4
2026-01-24 00:09:13.509144	114.6	33.3	-77.8	10.8
2026-01-24 00:09:15.785509	115.5	33.1	-77.8	12.0
2026-01-24 00:09:18.061639	116.3	33.0	-77.8	10.9
2026-01-24 00:09:20.326825	117.1	32.8	-77.8	12.8
2026-01-24 00:09:22.594990	117.9	32.6	-77.7	12.2
2026-01-24 00:09:24.861015	118.7	32.4	-78.3	12.4
2026-01-24 00:09:27.128380	119.4	32.3	-77.8	12.6
2026-01-24 00:09:29.393078	120.2	32.1	-78.1	13.3
2026-01-24 00:09:31.661515	121.0	31.9	-77.6	13.5
2026-01-24 00:09:33.935103	121.7	31.7	-77.8	12.5
2026-01-24 00:09:36.210533	122.5	31.5	-77.8	11.7
2026-01-24 00:09:38.487531	123.2	31.3	-78.1	12.6
2026-01-24 00:09:40.748638	123.9	31.0	-78.0	12.9
2026-01-24 00:09:43.005306	124.6	30.8	-77.8	11.9
2026-01-24 00:09:45.264370	125.3	30.6	-78.0	12.7
2026-01-24 00:09:47.524468	126.0	30.4	-78.0	12.3
2026-01-24 00:09:49.782232	126.7	30.2	-77.8	12.8
2026-01-24 00:09:52.041456	127.4	29.9	-78.2	12.2
2026-01-24 00:09:54.303186	128.1	29.7	-78.3	13.6
2026-01-24 00:09:56.565292	128.7	29.5	-78.2	12.2
2026-01-24 00:09:58.820513	129.4	29.3	-78.4	12.1
2026-01-24 00:10:01.081433	130.0	29.0	-78.1	11.9
2026-01-24 00:10:03.347890	130.6	28.8	-78.1	11.7
2026-01-24 00:10:05.622585	131.3	28.5	-78.4	12.8
2026-01-24 00:10:07.899307	131.9	28.3	-78.3	12.1
2026-01-24 00:10:10.178127	132.5	28.1	-78.6	12.6
2026-01-24 00:10:12.452101	133.1	27.8	-78.3	12.0
2026-01-24 00:10:14.728605	133.7	27.6	-78.3	12.0
2026-01-24 00:10:17.002502	134.2	27.3	-78.1	12.0
2026-01-24 00:10:19.275967	134.8	27.1	-78.4	12.8
2026-01-24 00:10:21.549631	135.4	26.8	-78.0	12.2
2026-01-24 00:10:23.818652	135.9	26.6	-78.1	12.3
2026-01-24 00:10:26.086882	136.5	26.3	-78.0	12.5
2026-01-24 00:10:28.357259	137.0	26.1	-78.1	13.0
2026-01-24 00:10:30.624662	137.5	25.8	-78.1	12.5
2026-01-24 00:10:32.892397	138.1	25.6	-78.1	12.9
2026-01-24 00:10:35.159516	138.6	25.3	-77.9	13.0
2026-01-24 00:10:37.428913	139.1	25.1	-78.2	13.3
2026-01-24 00:10:39.700839	139.6	24.9	-78.0	13.1
2026-01-24 00:10:41.970655	140.1	24.6	-78.0	13.2
2026-01-24 00:10:44.241423	140.5	24.4	-77.8	13.1
2026-01-24 00:10:46.518949	141.0	24.1	-78.2	13.4
2026-01-24 00:10:48.795423	141.5	23.9	-78.2	13.6
2026-01-24 00:10:51.071002	141.9	23.6	-78.0	13.7
2026-01-24 00:10:53.345950	142.4	23.4	-78.4	13.4
2026-01-24 00:10:55.621687	142.8	23.1	-78.4	12.3
2026-01-24 00:10:57.898067	143.3	22.9	-78.4	12.7
2026-01-24 00:11:00.172076	143.7	22.6	-78.4	12.9
2026-01-24 00:11:02.448444	144.1	22.4	-78.7	13.4
2026-01-24 00:11:04.725986	144.6	22.1	-78.3	13.3
2026-01-24 00:11:06.999671	145.0	21.9	-78.6	13.5
2026-01-24 00:11:09.275318	145.4	21.7	-78.3	13.1
2026-01-24 00:11:11.549361	145.8	21.4	-78.6	13.0
2026-01-24 00:11:13.821749	146.2	21.2	-78.4	12.6
2026-01-24 00:11:16.091334	146.6	20.9	-78.4	12.4
2026-01-24 00:11:18.362188	147.0	20.7	-78.6	12.5
2026-01-24 00:11:20.634663	147.3	20.5	-78.6	12.9
2026-01-24 00:11:22.903819	147.7	20.2	-79.0	12.5
2026-01-24 00:11:25.176036	148.1	20.0	-78.9	12.2
2026-01-24 00:11:27.446313	148.4	19.8	-78.5	11.7
2026-01-24 00:11:29.720401	148.8	19.5	-78.9	11.7
2026-01-24 00:11:31.992746	149.1	19.3	-79.1	12.3
2026-01-24 00:11:34.267996	149.5	19.1	-79.2	12.8
2026-01-24 00:11:36.539039	149.8	18.8	-78.9	13.3
2026-01-24 00:11:38.811752	150.2	18.6	-79.2	12.5
2026-01-24 00:11:41.083117	150.5	18.4	-79.3	11.0
2026-01-24 00:11:43.351400	150.8	18.2	-79.0	11.9
2026-01-24 00:11:45.621397	151.1	17.9	-78.8	11.9
2026-01-24 00:11:47.890681	151.4	17.7	-79.2	12.4
2026-01-24 00:11:50.164097	151.8	17.5	-78.9	12.2
2026-01-24 00:11:52.437573	152.1	17.3	-79.0	11.7
2026-01-24 00:11:54.714501	152.4	17.0	-78.9	12.6
2026-01-24 00:11:56.986540	152.7	16.8	-78.9	11.7
2026-01-24 00:11:59.249056	153.0	16.6	-79.1	11.4
2026-01-24 00:12:01.506101	153.3	16.4	-79.0	11.8
2026-01-24 00:12:03.762775	153.5	16.2	-78.4	12.6
2026-01-24 00:12:06.021820	153.8	16.0	-78.9	11.7
2026-01-24 00:12:08.285756	154.1	15.8	-79.3	10.5
2026-01-24 00:12:10.546555	154.4	15.6	-79.0	11.6
2026-01-24 00:12:12.803957	154.6	15.3	-79.0	10.7
2026-01-24 00:12:15.065339	154.9	15.1	-79.2	10.7
2026-01-24 00:12:17.321788	155.2	14.9	-78.9	10.6
2026-01-24 00:12:19.583423	155.4	14.7	-79.2	11.4
2026-01-24 00:12:21.847675	155.7	14.5	-79.1	10.4
2026-01-24 00:12:24.118858	155.9	14.3	-79.1	10.7
2026-01-24 00:12:26.390928	156.2	14.1	-79.5	10.8
2026-01-24 00:12:28.661976	156.4	13.9	-79.1	10.3
2026-01-24 00:12:30.927400	156.7	13.7	-79.4	10.1
2026-01-24 00:12:33.198411	156.9	13.5	-79.3	9.1
2026-01-24 00:12:35.465504	157.2	13.3	-79.2	8.2
2026-01-24 00:12:37.733000	157.4	13.1	-79.2	10.3
2026-01-24 00:12:39.998994	157.6	12.9	-79.1	9.4
2026-01-24 00:12:42.267166	157.9	12.7	-79.4	8.7
2026-01-24 00:12:44.527635	158.1	12.5	-79.4	9.1
2026-01-24 00:12:46.796228	158.3	12.4	-79.8	9.4
2026-01-24 00:12:49.060478	158.5	12.2	-79.7	10.3
2026-01-24 00:12:51.319982	158.7	12.0	-79.3	9.9
2026-01-24 00:12:53.580973	159.0	11.8	-79.8	8.1
2026-01-24 00:12:55.847555	159.2	11.6	-80.2	8.2
2026-01-24 00:12:58.107093	159.4	11.4	-79.8	8.7
2026-01-24 00:13:00.371711	159.6	11.2	-79.6	9.1
2026-01-24 00:13:02.634604	159.8	11.0	-80.1	8.9
2026-01-24 00:13:04.893188	160.0	10.9	-79.7	7.7
2026-01-24 00:13:07.155050	160.2	10.7	-83.0	0.9
2026-01-24 00:13:09.417816	160.4	10.5	-83.8	0.0
2026-01-24 00:13:11.679761	160.6	10.3	-85.9	0.0
2026-01-24 00:13:13.940681	160.8	10.1	-86.3	0.0
#Closed at: 2026-01-24 00:03:23.608434