passes_logs/2026/01/24/planumMaritime01/planumMaritime01__20260124_113241_METEOR-M2_4_rec.log

#Pass ID: 20260124_113241_METEOR-M2 4
#Satellite: METEOR-M2 4
#Configuration: METEOR-M2 4
#Start time: 2026-01-24 11:32:46.756706

#LorettStation: 1.0.0 05.05.2024
#Station: planumMaritime01
#Location: 37.49445 lon 55.92918 lat
#TLE: 1 59051U 24039A   26022.99662541  .00000092  00000+0  61079-4 0  9999
#TLE: 2 59051  98.6828 344.2711 0006195 224.4084 135.6597 14.22408952 98628

#Time	Az	El	Level	SNR
2026-01-24 11:32:48.930177	168.6	10.2	-80.7	0.0
2026-01-24 11:32:51.188280	168.6	10.4	-79.7	2.8
2026-01-24 11:32:53.444694	168.7	10.6	-77.9	8.0
2026-01-24 11:32:55.703439	168.7	10.8	-77.5	6.9
2026-01-24 11:32:57.958740	168.8	11.0	-78.0	8.1
2026-01-24 11:33:00.216757	168.8	11.2	-77.1	8.3
2026-01-24 11:33:02.471526	168.9	11.4	-77.1	8.4
2026-01-24 11:33:04.729061	168.9	11.6	-77.8	8.0
2026-01-24 11:33:06.984798	169.0	11.8	-78.0	8.2
2026-01-24 11:33:09.239395	169.0	12.0	-77.6	6.9
2026-01-24 11:33:11.509719	169.1	12.3	-77.4	8.5
2026-01-24 11:33:13.789814	169.1	12.5	-77.5	7.9
2026-01-24 11:33:16.063303	169.2	12.7	-77.5	8.6
2026-01-24 11:33:18.342203	169.2	12.9	-77.1	8.5
2026-01-24 11:33:20.615502	169.3	13.1	-76.7	6.8
2026-01-24 11:33:22.889046	169.3	13.4	-77.4	8.8
2026-01-24 11:33:25.164699	169.4	13.6	-77.5	8.8
2026-01-24 11:33:27.440124	169.4	13.8	-77.6	9.0
2026-01-24 11:33:29.712972	169.5	14.1	-77.1	8.2
2026-01-24 11:33:31.988733	169.5	14.3	-77.3	7.2
2026-01-24 11:33:34.261041	169.6	14.5	-77.3	8.2
2026-01-24 11:33:36.537213	169.6	14.8	-77.4	7.0
2026-01-24 11:33:38.809588	169.7	15.0	-77.2	8.9
2026-01-24 11:33:41.086445	169.7	15.3	-77.3	8.7
2026-01-24 11:33:43.363153	169.8	15.5	-77.2	7.9
2026-01-24 11:33:45.637918	169.9	15.8	-76.5	7.0
2026-01-24 11:33:47.913373	169.9	16.0	-77.5	8.0
2026-01-24 11:33:50.191418	170.0	16.3	-77.2	7.8
2026-01-24 11:33:52.469477	170.1	16.5	-77.0	8.2
2026-01-24 11:33:54.743348	170.1	16.8	-77.2	7.6
2026-01-24 11:33:57.012286	170.2	17.0	-76.8	8.3
2026-01-24 11:33:59.278081	170.2	17.3	-77.0	8.8
2026-01-24 11:34:01.542307	170.3	17.6	-76.4	9.2
2026-01-24 11:34:03.810644	170.4	17.8	-76.5	8.1
2026-01-24 11:34:06.074831	170.5	18.1	-76.6	8.7
2026-01-24 11:34:08.339733	170.5	18.4	-76.9	8.6
2026-01-24 11:34:10.605009	170.6	18.7	-76.4	7.7
2026-01-24 11:34:12.868023	170.7	19.0	-76.2	8.7
2026-01-24 11:34:15.136761	170.7	19.2	-76.9	9.2
2026-01-24 11:34:17.400107	170.8	19.5	-76.1	7.5
2026-01-24 11:34:19.659367	170.9	19.8	-76.5	8.9
2026-01-24 11:34:21.918497	171.0	20.1	-76.7	9.6
2026-01-24 11:34:24.179560	171.0	20.4	-76.8	9.6
2026-01-24 11:34:26.438668	171.1	20.7	-76.2	7.6
2026-01-24 11:34:28.700178	171.2	21.0	-76.4	9.2
2026-01-24 11:34:30.963056	171.3	21.3	-76.7	10.0
2026-01-24 11:34:33.229473	171.4	21.7	-76.6	9.0
2026-01-24 11:34:35.497818	171.5	22.0	-76.5	9.1
2026-01-24 11:34:37.774920	171.5	22.3	-76.6	9.0
2026-01-24 11:34:40.049400	171.6	22.6	-76.8	8.5
2026-01-24 11:34:42.318508	171.7	23.0	-77.0	8.2
2026-01-24 11:34:44.588132	171.8	23.3	-76.1	7.4
2026-01-24 11:34:46.861926	171.9	23.6	-76.6	9.8
2026-01-24 11:34:49.136519	172.0	24.0	-76.9	10.0
2026-01-24 11:34:51.392137	172.1	24.3	-77.0	9.2
2026-01-24 11:34:53.648104	172.2	24.7	-76.7	9.5
2026-01-24 11:34:55.906127	172.3	25.0	-76.4	9.9
2026-01-24 11:34:58.159919	172.4	25.4	-77.0	10.0
2026-01-24 11:35:00.414511	172.5	25.8	-77.3	9.9
2026-01-24 11:35:02.673811	172.6	26.1	-76.9	11.0
2026-01-24 11:35:04.934480	172.8	26.5	-76.7	8.9
2026-01-24 11:35:07.192235	172.9	26.9	-77.0	10.1
2026-01-24 11:35:09.451679	173.0	27.3	-76.8	10.0
2026-01-24 11:35:11.709026	173.1	27.7	-76.7	10.5
2026-01-24 11:35:13.965159	173.2	28.1	-76.8	9.7
2026-01-24 11:35:16.236039	173.4	28.5	-76.9	10.6
2026-01-24 11:35:18.509415	173.5	28.9	-77.4	10.5
2026-01-24 11:35:20.782388	173.6	29.3	-75.9	7.5
2026-01-24 11:35:23.060160	173.8	29.7	-77.3	10.1
2026-01-24 11:35:25.333511	173.9	30.2	-77.5	10.3
2026-01-24 11:35:27.608875	174.0	30.6	-77.4	10.4
2026-01-24 11:35:29.882558	174.2	31.0	-76.8	9.6
2026-01-24 11:35:32.157106	174.3	31.5	-77.0	10.8
2026-01-24 11:35:34.430489	174.5	31.9	-76.9	10.9
2026-01-24 11:35:36.703508	174.6	32.4	-77.1	9.5
2026-01-24 11:35:38.973077	174.8	32.9	-77.2	10.9
2026-01-24 11:35:41.244446	175.0	33.4	-77.4	11.4
2026-01-24 11:35:43.513716	175.2	33.8	-77.5	11.0
2026-01-24 11:35:45.788032	175.3	34.3	-77.4	11.1
2026-01-24 11:35:48.063472	175.5	34.8	-77.0	10.3
2026-01-24 11:35:50.341586	175.7	35.3	-76.9	11.8
2026-01-24 11:35:52.619008	175.9	35.9	-77.2	11.9
2026-01-24 11:35:54.893124	176.1	36.4	-77.3	12.7
2026-01-24 11:35:57.168725	176.3	36.9	-77.3	12.5
2026-01-24 11:35:59.443862	176.5	37.5	-77.1	12.0
2026-01-24 11:36:01.719241	176.7	38.0	-77.6	12.9
2026-01-24 11:36:03.993337	177.0	38.6	-78.1	12.3
2026-01-24 11:36:06.266884	177.2	39.1	-78.1	13.0
2026-01-24 11:36:08.541186	177.4	39.7	-78.2	12.4
2026-01-24 11:36:10.814365	177.7	40.3	-77.8	12.5
2026-01-24 11:36:13.084938	178.0	40.9	-78.2	12.9
2026-01-24 11:36:15.357023	178.2	41.5	-78.4	13.1
2026-01-24 11:36:17.630944	178.5	42.1	-78.6	12.6
2026-01-24 11:36:19.906721	178.8	42.7	-79.1	12.0
2026-01-24 11:36:22.181526	179.1	43.4	-79.4	11.5
2026-01-24 11:36:24.448156	179.4	44.0	-79.2	11.4
2026-01-24 11:36:26.720581	179.8	44.7	-79.1	11.3
2026-01-24 11:36:28.993134	180.1	45.3	-79.3	11.2
2026-01-24 11:36:31.261224	180.4	46.0	-79.3	11.3
2026-01-24 11:36:33.532634	180.8	46.7	-79.6	10.8
2026-01-24 11:36:35.805309	181.2	47.4	-79.5	10.3
2026-01-24 11:36:38.082380	181.6	48.1	-79.5	10.3
2026-01-24 11:36:40.354885	182.0	48.8	-79.3	9.5
2026-01-24 11:36:42.629509	182.5	49.5	-80.0	10.1
2026-01-24 11:36:44.906436	182.9	50.2	-79.7	9.8
2026-01-24 11:36:47.183580	183.4	51.0	-79.6	9.1
2026-01-24 11:36:49.456920	183.9	51.7	-79.7	9.2
2026-01-24 11:36:51.716933	184.5	52.5	-80.2	10.1
2026-01-24 11:36:53.972177	185.0	53.2	-79.7	10.0
2026-01-24 11:36:56.234472	185.6	54.0	-79.8	10.4
2026-01-24 11:36:58.494264	186.3	54.8	-79.7	10.4
2026-01-24 11:37:00.755755	186.9	55.6	-80.0	10.1
2026-01-24 11:37:03.015147	187.6	56.4	-80.0	10.1
2026-01-24 11:37:05.278423	188.4	57.2	-80.0	9.8
2026-01-24 11:37:07.536412	189.1	58.0	-80.1	10.0
2026-01-24 11:37:09.793715	190.0	58.8	-80.1	9.5
2026-01-24 11:37:12.049937	190.8	59.7	-79.9	8.1
2026-01-24 11:37:14.310695	191.8	60.5	-79.6	9.0
2026-01-24 11:37:16.584978	192.8	61.3	-80.1	9.1
2026-01-24 11:37:18.861210	193.9	62.2	-80.2	10.6
2026-01-24 11:37:21.137158	195.0	63.0	-80.2	9.9
2026-01-24 11:37:23.413206	196.3	63.9	-80.3	10.3
2026-01-24 11:37:25.686150	197.6	64.7	-80.2	9.4
2026-01-24 11:37:27.962300	199.1	65.5	-80.1	9.5
2026-01-24 11:37:30.231623	200.6	66.4	-80.0	9.4
2026-01-24 11:37:32.498080	202.3	67.2	-79.7	8.9
2026-01-24 11:37:34.763443	204.1	68.0	-80.2	9.7
2026-01-24 11:37:37.023624	206.0	68.8	-80.2	7.9
2026-01-24 11:37:39.286277	208.1	69.6	-80.2	9.2
2026-01-24 11:37:41.553995	210.4	70.3	-79.9	9.0
2026-01-24 11:37:43.820231	212.9	71.1	-79.0	6.6
2026-01-24 11:37:46.093115	215.6	71.8	-79.7	10.2
2026-01-24 11:37:48.363249	218.5	72.4	-78.9	10.1
2026-01-24 11:37:50.633640	221.6	73.0	-78.9	9.4
2026-01-24 11:37:52.904679	225.0	73.6	-78.9	10.7
2026-01-24 11:37:55.174119	228.6	74.1	-78.5	10.9
2026-01-24 11:37:57.445543	232.5	74.6	-78.6	8.7
2026-01-24 11:37:59.713897	236.6	75.0	-78.6	8.6
2026-01-24 11:38:01.984043	240.8	75.3	-78.1	7.5
2026-01-24 11:38:04.252663	245.3	75.5	-78.3	8.4
2026-01-24 11:38:06.523591	249.9	75.6	-78.0	9.2
2026-01-24 11:38:08.789725	254.5	75.7	-77.7	8.4
2026-01-24 11:38:11.053791	259.1	75.6	-78.0	9.4
2026-01-24 11:38:13.319613	263.6	75.5	-77.9	8.2
2026-01-24 11:38:15.585943	268.1	75.3	-77.5	6.2
2026-01-24 11:38:17.854650	272.4	75.0	-78.0	5.9
2026-01-24 11:38:20.120313	276.5	74.6	-78.6	6.7
2026-01-24 11:38:22.387473	280.4	74.2	-77.7	4.6
2026-01-24 11:38:24.654378	284.0	73.7	-77.8	4.7
2026-01-24 11:38:26.920478	287.5	73.1	-77.3	4.3
2026-01-24 11:38:29.189505	290.6	72.5	-76.9	5.0
2026-01-24 11:38:31.456828	293.6	71.9	-76.5	6.0
2026-01-24 11:38:33.725704	296.3	71.2	-76.8	5.1
2026-01-24 11:38:35.996217	298.8	70.4	-77.1	5.9
2026-01-24 11:38:38.267296	301.1	69.7	-77.6	6.2
2026-01-24 11:38:40.540285	303.2	68.9	-76.4	1.6
2026-01-24 11:38:42.813285	305.2	68.1	-77.1	3.8
2026-01-24 11:38:45.088484	307.1	67.3	-76.9	2.9
2026-01-24 11:38:47.362726	308.7	66.5	-76.3	4.8
2026-01-24 11:38:49.635438	310.3	65.7	-77.0	4.3
2026-01-24 11:38:51.906360	311.8	64.8	-76.9	7.0
2026-01-24 11:38:54.179693	313.1	64.0	-76.7	6.8
2026-01-24 11:38:56.436193	314.3	63.2	-75.7	1.1
2026-01-24 11:38:58.696166	315.5	62.3	-76.3	1.0
2026-01-24 11:39:00.957882	316.6	61.5	-77.2	3.2
2026-01-24 11:39:03.215570	317.6	60.7	-75.8	1.6
2026-01-24 11:39:05.476947	318.6	59.8	-76.6	3.0
2026-01-24 11:39:07.736499	319.5	59.0	-76.4	0.0
2026-01-24 11:39:09.997383	320.3	58.2	-77.2	2.3
2026-01-24 11:39:12.254443	321.1	57.4	-76.3	1.7
2026-01-24 11:39:14.512539	321.8	56.6	-76.5	0.4
2026-01-24 11:39:16.772994	322.5	55.8	-76.2	1.1
2026-01-24 11:39:19.035976	323.2	55.0	-77.8	3.1
2026-01-24 11:39:21.311563	323.8	54.2	-75.8	0.8
2026-01-24 11:39:23.583049	324.4	53.4	-77.1	2.0
2026-01-24 11:39:25.861521	325.0	52.7	-76.0	0.2
2026-01-24 11:39:28.134758	325.6	51.9	-75.4	0.0
2026-01-24 11:39:30.410549	326.1	51.1	-77.0	1.5
2026-01-24 11:39:32.686806	326.6	50.4	-77.5	0.4
2026-01-24 11:39:34.959144	327.0	49.7	-77.0	1.0
2026-01-24 11:39:37.233713	327.5	48.9	-75.9	0.6
2026-01-24 11:39:39.508472	327.9	48.2	-73.8	0.0
2026-01-24 11:39:41.784198	328.3	47.5	-76.5	4.1
2026-01-24 11:39:44.063473	328.7	46.8	-76.5	3.4
2026-01-24 11:39:46.339752	329.1	46.2	-75.0	0.8
2026-01-24 11:39:48.615503	329.4	45.5	-74.8	1.1
2026-01-24 11:39:50.886426	329.8	44.8	-75.7	3.3
2026-01-24 11:39:53.161196	330.1	44.2	-75.8	3.8
2026-01-24 11:39:55.436203	330.4	43.5	-74.5	1.3
2026-01-24 11:39:57.712615	330.7	42.9	-75.1	3.2
2026-01-24 11:39:59.985760	331.0	42.3	-75.9	3.0
2026-01-24 11:40:02.259193	331.3	41.7	-75.5	5.1
2026-01-24 11:40:04.534255	331.6	41.1	-74.4	0.4
2026-01-24 11:40:06.809780	331.8	40.5	-75.5	4.1
2026-01-24 11:40:09.091424	332.1	39.9	-73.5	0.9
2026-01-24 11:40:11.368653	332.3	39.3	-74.1	0.9
2026-01-24 11:40:13.644082	332.6	38.7	-74.8	1.9
2026-01-24 11:40:15.917572	332.8	38.2	-74.3	0.9
2026-01-24 11:40:18.191355	333.0	37.6	-74.6	2.8
2026-01-24 11:40:20.467570	333.3	37.1	-73.5	0.0
2026-01-24 11:40:22.738134	333.5	36.6	-73.2	0.6
2026-01-24 11:40:25.007202	333.7	36.0	-72.3	0.0
2026-01-24 11:40:27.278289	333.9	35.5	-73.5	1.0
2026-01-24 11:40:29.547914	334.1	35.0	-72.3	0.1
2026-01-24 11:40:31.822002	334.2	34.5	-71.6	0.0
2026-01-24 11:40:34.092061	334.4	34.0	-72.5	0.0
2026-01-24 11:40:36.360904	334.6	33.5	-71.9	0.0
2026-01-24 11:40:38.633501	334.8	33.1	-71.8	0.0
2026-01-24 11:40:40.903775	334.9	32.6	-72.6	0.0
2026-01-24 11:40:43.176137	335.1	32.1	-70.2	0.0
2026-01-24 11:40:45.448513	335.2	31.7	-70.9	0.0
2026-01-24 11:40:47.723513	335.4	31.2	-73.4	1.0
2026-01-24 11:40:49.998142	335.5	30.8	-72.7	0.0
2026-01-24 11:40:52.271801	335.7	30.3	-72.9	0.0
2026-01-24 11:40:54.542740	335.8	29.9	-71.6	0.0
2026-01-24 11:40:56.807591	336.0	29.5	-72.3	0.0
2026-01-24 11:40:59.062740	336.1	29.1	-72.8	0.0
2026-01-24 11:41:01.316507	336.2	28.7	-71.3	0.0
2026-01-24 11:41:03.568383	336.4	28.3	-70.7	0.0
2026-01-24 11:41:05.823069	336.5	27.9	-72.5	0.0
2026-01-24 11:41:08.080580	336.6	27.5	-72.3	0.0
2026-01-24 11:41:10.334060	336.7	27.1	-70.5	0.0
2026-01-24 11:41:12.588003	336.8	26.7	-71.4	0.0
2026-01-24 11:41:14.841335	337.0	26.3	-70.3	0.0
2026-01-24 11:41:17.099449	337.1	26.0	-70.4	0.0
2026-01-24 11:41:19.355051	337.2	25.6	-69.6	0.0
2026-01-24 11:41:21.616556	337.3	25.2	-68.9	0.0
2026-01-24 11:41:23.884588	337.4	24.9	-69.0	0.0
2026-01-24 11:41:26.152814	337.5	24.5	-69.2	0.0
2026-01-24 11:41:28.423224	337.6	24.2	-71.0	0.0
2026-01-24 11:41:30.693293	337.7	23.8	-71.0	0.0
2026-01-24 11:41:32.956655	337.8	23.5	-71.5	0.0
2026-01-24 11:41:35.226066	337.9	23.2	-71.3	0.0
2026-01-24 11:41:37.492407	338.0	22.8	-68.9	0.0
2026-01-24 11:41:39.760329	338.1	22.5	-70.0	0.0
2026-01-24 11:41:42.034819	338.2	22.2	-66.2	0.0
2026-01-24 11:41:44.307248	338.2	21.9	-69.2	0.0
2026-01-24 11:41:46.581060	338.3	21.6	-70.3	0.0
2026-01-24 11:41:48.855661	338.4	21.2	-66.3	0.0
2026-01-24 11:41:51.136598	338.5	20.9	-68.8	0.0
2026-01-24 11:41:53.410077	338.6	20.6	-69.2	0.0
2026-01-24 11:41:55.686201	338.7	20.3	-68.8	0.0
2026-01-24 11:41:57.957754	338.7	20.0	-68.6	0.0
2026-01-24 11:42:00.223924	338.8	19.7	-70.5	0.0
2026-01-24 11:42:02.494435	338.9	19.4	-67.6	0.0
2026-01-24 11:42:04.763746	339.0	19.2	-69.4	0.0
2026-01-24 11:42:07.031647	339.0	18.9	-69.9	0.0
2026-01-24 11:42:09.299852	339.1	18.6	-69.3	0.0
2026-01-24 11:42:11.571094	339.2	18.3	-65.3	0.0
2026-01-24 11:42:13.836018	339.3	18.1	-70.2	0.0
2026-01-24 11:42:16.105031	339.3	17.8	-70.6	0.0
2026-01-24 11:42:18.370506	339.4	17.5	-69.7	0.0
2026-01-24 11:42:20.636882	339.5	17.2	-71.3	0.0
2026-01-24 11:42:22.905324	339.5	17.0	-69.5	0.0
2026-01-24 11:42:25.173631	339.6	16.7	-71.0	0.0
2026-01-24 11:42:27.439595	339.7	16.5	-73.2	0.0
2026-01-24 11:42:29.705111	339.7	16.2	-73.0	0.0
2026-01-24 11:42:31.975931	339.8	16.0	-67.9	0.0
2026-01-24 11:42:34.251621	339.9	15.7	-72.8	0.0
2026-01-24 11:42:36.528157	339.9	15.5	-72.5	0.0
2026-01-24 11:42:38.807681	340.0	15.2	-73.6	0.0
2026-01-24 11:42:41.081296	340.0	15.0	-72.8	0.0
2026-01-24 11:42:43.354707	340.1	14.7	-73.4	0.0
2026-01-24 11:42:45.631351	340.1	14.5	-70.3	0.0
2026-01-24 11:42:47.908943	340.2	14.3	-70.4	0.0
2026-01-24 11:42:50.180880	340.3	14.0	-73.1	0.0
2026-01-24 11:42:52.456194	340.3	13.8	-73.8	0.0
2026-01-24 11:42:54.728108	340.4	13.6	-70.3	0.0
2026-01-24 11:42:57.000878	340.4	13.4	-70.4	0.0
2026-01-24 11:42:59.275313	340.5	13.1	-72.3	0.0
2026-01-24 11:43:01.546449	340.5	12.9	-72.2	0.0
2026-01-24 11:43:03.806329	340.6	12.7	-70.5	0.0
2026-01-24 11:43:06.063698	340.6	12.5	-73.0	0.0
2026-01-24 11:43:08.319207	340.7	12.3	-71.6	0.0
2026-01-24 11:43:10.577141	340.7	12.1	-71.3	0.0
2026-01-24 11:43:12.836190	340.8	11.8	-74.7	0.0
2026-01-24 11:43:15.096029	340.8	11.6	-73.7	0.0
2026-01-24 11:43:17.355325	340.9	11.4	-73.9	0.0
2026-01-24 11:43:19.610643	340.9	11.2	-70.9	0.0
2026-01-24 11:43:21.866212	341.0	11.0	-74.4	0.0
2026-01-24 11:43:24.125244	341.0	10.8	-71.5	0.0
2026-01-24 11:43:26.382416	341.1	10.6	-71.4	0.0
2026-01-24 11:43:28.657335	341.1	10.4	-73.5	0.0
2026-01-24 11:43:30.930057	341.2	10.2	-76.3	0.0
#Closed at: 2026-01-24 11:32:41.762505