passes_logs/2026/01/03/Regia/Regia__20260103_005958_AURA_rec.log

#Pass ID: 20260103_005958_AURA
#Satellite: AURA
#Configuration: AURA
#Start time: 2026-01-03 01:00:03.698431

#LorettStation: 1.0.0 05.05.2024
#Station: Regia
#Location: 37.494653 lon 55.929028 lat
#TLE: 1 28376U 04026A   26002.26778200  .00002282  00000+0  47529-3 0  9993
#TLE: 2 28376  98.3210 317.5931 0001641  85.0233 275.1155 14.60975459141982

#Time	Az	El	Level	SNR
2026-01-03 01:00:07.841152	9.2	15.5	-69.4	0.0
2026-01-03 01:00:08.956616	9.2	15.6	-69.3	0.0
2026-01-03 01:00:10.073168	9.1	15.7	-69.6	0.0
2026-01-03 01:00:11.189202	9.0	15.9	-69.1	0.0
2026-01-03 01:00:12.305750	9.0	16.0	-69.6	0.0
2026-01-03 01:00:13.425929	8.9	16.1	-69.3	0.0
2026-01-03 01:00:14.541449	8.9	16.3	-69.5	0.0
2026-01-03 01:00:15.656175	8.8	16.4	-69.4	0.0
2026-01-03 01:00:16.771384	8.8	16.5	-69.3	0.0
2026-01-03 01:00:17.888119	8.7	16.7	-69.3	0.0
2026-01-03 01:00:19.004361	8.7	16.8	-69.4	0.0
2026-01-03 01:00:20.118728	8.6	17.0	-69.3	0.0
2026-01-03 01:00:21.234380	8.5	17.1	-69.5	0.0
2026-01-03 01:00:22.349226	8.5	17.2	-69.5	0.0
2026-01-03 01:00:23.463455	8.4	17.4	-69.4	0.0
2026-01-03 01:00:24.587634	8.4	17.5	-69.6	0.0
2026-01-03 01:00:25.702364	8.3	17.7	-69.3	0.0
2026-01-03 01:00:26.816197	8.2	17.8	-69.6	0.0
2026-01-03 01:00:27.932750	8.2	18.0	-69.5	0.0
2026-01-03 01:00:29.048903	8.1	18.1	-69.5	0.0
2026-01-03 01:00:30.164490	8.0	18.2	-69.5	0.0
2026-01-03 01:00:31.279868	8.0	18.4	-69.6	0.0
2026-01-03 01:00:32.395037	7.9	18.5	-69.2	0.0
2026-01-03 01:00:33.510163	7.8	18.7	-69.7	0.0
2026-01-03 01:00:34.626190	7.8	18.8	-69.6	0.0
2026-01-03 01:00:35.741720	7.7	19.0	-69.4	0.0
2026-01-03 01:00:36.856439	7.6	19.1	-69.5	0.0
2026-01-03 01:00:37.971096	7.6	19.3	-69.5	0.0
2026-01-03 01:00:39.085810	7.5	19.5	-69.4	0.0
2026-01-03 01:00:40.199941	7.4	19.6	-69.5	0.0
2026-01-03 01:00:41.316457	7.4	19.8	-69.5	0.0
2026-01-03 01:00:42.431098	7.3	19.9	-69.5	0.0
2026-01-03 01:00:43.544881	7.2	20.1	-69.4	0.0
2026-01-03 01:00:44.660408	7.1	20.2	-69.5	0.0
2026-01-03 01:00:45.775402	7.1	20.4	-69.7	0.0
2026-01-03 01:00:46.892075	7.0	20.6	-69.5	0.0
2026-01-03 01:00:48.006748	6.9	20.7	-69.5	0.0
2026-01-03 01:00:49.122482	6.8	20.9	-69.5	0.0
2026-01-03 01:00:50.237903	6.8	21.0	-69.5	0.0
2026-01-03 01:00:51.352992	6.7	21.2	-69.6	0.0
2026-01-03 01:00:52.467269	6.6	21.4	-69.6	0.0
2026-01-03 01:00:53.582057	6.5	21.5	-69.5	0.0
2026-01-03 01:00:54.697056	6.4	21.7	-69.5	0.0
2026-01-03 01:00:55.812067	6.3	21.9	-69.5	0.0
2026-01-03 01:00:56.927451	6.3	22.1	-69.5	0.0
2026-01-03 01:00:58.042479	6.2	22.2	-69.6	0.0
2026-01-03 01:00:59.156155	6.1	22.4	-69.4	0.0
2026-01-03 01:01:00.271093	6.0	22.6	-69.5	0.0
2026-01-03 01:01:01.385735	5.9	22.8	-69.4	0.0
2026-01-03 01:01:02.500112	5.8	22.9	-69.5	0.0
2026-01-03 01:01:03.614731	5.7	23.1	-69.4	0.0
2026-01-03 01:01:04.729714	5.6	23.3	-69.6	0.0
2026-01-03 01:01:05.844163	5.5	23.5	-69.6	0.0
2026-01-03 01:01:06.959803	5.4	23.7	-69.5	0.0
2026-01-03 01:01:08.073999	5.4	23.8	-69.4	0.0
2026-01-03 01:01:09.189041	5.3	24.0	-69.5	0.0
2026-01-03 01:01:10.302891	5.2	24.2	-69.6	0.0
2026-01-03 01:01:11.418455	5.1	24.4	-69.6	0.0
2026-01-03 01:01:12.533565	5.0	24.6	-69.4	0.0
2026-01-03 01:01:13.648265	4.9	24.8	-69.7	0.0
2026-01-03 01:01:14.766783	4.7	25.0	-69.6	0.0
2026-01-03 01:01:15.881622	4.6	25.2	-69.4	0.0
2026-01-03 01:01:17.003168	4.5	25.4	-69.6	0.0
2026-01-03 01:01:18.118003	4.4	25.6	-69.7	0.0
2026-01-03 01:01:19.238739	4.3	25.8	-69.7	0.0
2026-01-03 01:01:20.355664	4.2	26.0	-69.8	0.0
2026-01-03 01:01:21.476330	4.1	26.2	-69.6	0.0
2026-01-03 01:01:22.590531	4.0	26.4	-69.6	0.0
2026-01-03 01:01:23.706260	3.9	26.6	-69.5	0.0
2026-01-03 01:01:24.820239	3.7	26.8	-69.3	0.0
2026-01-03 01:01:25.935469	3.6	27.0	-69.6	0.0
2026-01-03 01:01:27.050874	3.5	27.2	-69.6	0.0
2026-01-03 01:01:28.166102	3.4	27.4	-69.5	0.0
2026-01-03 01:01:29.281075	3.3	27.6	-69.4	0.0
2026-01-03 01:01:30.395080	3.1	27.8	-69.5	0.0
2026-01-03 01:01:31.516720	3.0	28.1	-69.7	0.0
2026-01-03 01:01:32.631824	2.9	28.3	-69.7	0.0
2026-01-03 01:01:33.746091	2.7	28.5	-69.6	0.0
2026-01-03 01:01:34.861193	2.6	28.7	-69.6	0.0
2026-01-03 01:01:35.976413	2.5	28.9	-69.7	0.0
2026-01-03 01:01:37.091437	2.3	29.2	-69.5	0.0
2026-01-03 01:01:38.206663	2.2	29.4	-69.7	0.0
2026-01-03 01:01:39.320977	2.1	29.6	-69.5	0.0
2026-01-03 01:01:40.434642	1.9	29.8	-69.6	0.0
2026-01-03 01:01:41.549941	1.8	30.1	-69.5	0.0
2026-01-03 01:01:42.664387	1.6	30.3	-69.5	0.0
2026-01-03 01:01:43.779393	1.5	30.5	-69.5	0.0
2026-01-03 01:01:44.896648	1.3	30.8	-69.6	0.0
2026-01-03 01:01:46.011471	1.2	31.0	-69.6	0.0
2026-01-03 01:01:47.125945	1.0	31.3	-69.5	0.0
2026-01-03 01:01:48.238875	0.8	31.5	-69.4	0.0
2026-01-03 01:01:49.353766	0.7	31.7	-69.6	0.0
2026-01-03 01:01:50.468546	0.5	32.0	-69.6	0.0
2026-01-03 01:01:51.584306	0.4	32.2	-69.6	0.0
2026-01-03 01:01:52.699374	0.2	32.5	-69.6	0.0
2026-01-03 01:01:53.814993	0.0	32.7	-69.6	0.0
2026-01-03 01:01:54.929965	359.8	33.0	-69.5	0.0
2026-01-03 01:01:56.046738	359.7	33.2	-69.5	0.0
2026-01-03 01:01:57.162844	359.5	33.5	-69.6	0.0
2026-01-03 01:01:58.278217	359.3	33.8	-69.6	0.0
2026-01-03 01:01:59.393341	359.1	34.0	-69.4	0.0
2026-01-03 01:02:00.508779	358.9	34.3	-69.6	0.0
2026-01-03 01:02:01.624012	358.7	34.6	-69.6	0.0
2026-01-03 01:02:02.739730	358.5	34.8	-69.6	0.0
2026-01-03 01:02:03.853786	358.3	35.1	-69.6	0.0
2026-01-03 01:02:04.968764	358.1	35.4	-69.5	0.0
2026-01-03 01:02:06.083798	357.9	35.6	-69.5	0.0
2026-01-03 01:02:07.198624	357.7	35.9	-69.7	0.0
2026-01-03 01:02:08.313480	357.5	36.2	-69.7	0.0
2026-01-03 01:02:09.427466	357.2	36.5	-69.5	0.0
2026-01-03 01:02:10.542321	357.0	36.8	-69.5	0.0
2026-01-03 01:02:11.657766	356.8	37.0	-69.5	0.0
2026-01-03 01:02:12.772087	356.6	37.3	-69.5	0.0
2026-01-03 01:02:13.887844	356.3	37.6	-69.7	0.0
2026-01-03 01:02:15.002810	356.1	37.9	-69.6	0.0
2026-01-03 01:02:16.116953	355.8	38.2	-69.8	0.0
2026-01-03 01:02:17.230553	355.6	38.5	-69.6	0.0
2026-01-03 01:02:18.344477	355.3	38.8	-69.6	0.0
2026-01-03 01:02:19.460841	355.1	39.1	-69.8	0.0
2026-01-03 01:02:20.574458	354.8	39.4	-69.6	0.0
2026-01-03 01:02:21.689626	354.5	39.7	-69.3	0.0
2026-01-03 01:02:22.802981	354.3	40.0	-69.5	0.0
2026-01-03 01:02:23.919238	354.0	40.3	-69.6	0.0
2026-01-03 01:02:25.034059	353.7	40.6	-69.6	0.0
2026-01-03 01:02:26.149056	353.4	40.9	-69.5	0.0
2026-01-03 01:02:27.263858	353.1	41.2	-69.7	0.0
2026-01-03 01:02:28.379426	352.8	41.6	-69.7	0.0
2026-01-03 01:02:29.494161	352.5	41.9	-69.7	0.0
2026-01-03 01:02:30.610212	352.2	42.2	-69.8	0.0
2026-01-03 01:02:31.725263	351.9	42.5	-69.7	0.0
2026-01-03 01:02:32.839591	351.5	42.8	-69.6	0.0
2026-01-03 01:02:33.953503	351.2	43.2	-69.6	0.0
2026-01-03 01:02:35.068089	350.8	43.5	-69.5	0.0
2026-01-03 01:02:36.182942	350.5	43.8	-69.5	0.0
2026-01-03 01:02:37.297935	350.1	44.2	-69.6	0.0
2026-01-03 01:02:38.413299	349.8	44.5	-69.8	0.0
2026-01-03 01:02:39.529327	349.4	44.8	-69.5	0.0
2026-01-03 01:02:40.644818	349.0	45.2	-69.6	0.0
2026-01-03 01:02:41.757730	348.6	45.5	-69.8	0.0
2026-01-03 01:02:42.872786	348.2	45.8	-69.7	0.0
2026-01-03 01:02:43.986161	347.8	46.2	-69.5	0.0
2026-01-03 01:02:45.100775	347.4	46.5	-69.4	0.0
2026-01-03 01:02:46.215412	347.0	46.9	-69.0	0.0
2026-01-03 01:02:47.329405	346.5	47.2	-69.8	0.0
2026-01-03 01:02:48.444102	346.1	47.5	-69.6	0.0
2026-01-03 01:02:49.559409	345.6	47.9	-69.5	0.0
2026-01-03 01:02:50.673718	345.2	48.2	-69.5	0.0
2026-01-03 01:02:51.788787	344.7	48.6	-69.5	0.0
2026-01-03 01:02:52.906418	344.2	48.9	-69.7	0.0
2026-01-03 01:02:54.022488	343.7	49.3	-69.6	0.0
2026-01-03 01:02:55.138753	343.2	49.6	-69.6	0.0
2026-01-03 01:02:56.253762	342.6	50.0	-69.5	0.0
2026-01-03 01:02:57.368316	342.1	50.3	-69.7	0.0
2026-01-03 01:02:58.484203	341.6	50.7	-69.4	0.0
2026-01-03 01:02:59.599489	341.0	51.0	-69.5	0.0
2026-01-03 01:03:00.715171	340.4	51.4	-69.4	0.0
2026-01-03 01:03:01.828585	339.8	51.7	-69.5	0.0
2026-01-03 01:03:02.943321	339.2	52.1	-69.3	0.0
2026-01-03 01:03:04.057839	338.6	52.4	-69.4	0.0
2026-01-03 01:03:05.173165	338.0	52.8	-69.4	0.0
2026-01-03 01:03:06.287944	337.3	53.1	-69.6	0.0
2026-01-03 01:03:07.402308	336.7	53.5	-69.5	0.0
2026-01-03 01:03:08.516467	336.0	53.8	-69.6	0.0
2026-01-03 01:03:09.634786	335.3	54.2	-69.5	0.0
2026-01-03 01:03:10.749589	334.6	54.5	-69.5	0.0
2026-01-03 01:03:11.864568	333.8	54.8	-69.5	0.0
2026-01-03 01:03:12.978363	333.1	55.2	-69.5	0.0
2026-01-03 01:03:14.093012	332.3	55.5	-69.4	0.0
2026-01-03 01:03:15.208424	331.5	55.8	-69.3	0.0
2026-01-03 01:03:16.324012	330.7	56.2	-69.4	0.0
2026-01-03 01:03:17.438624	329.9	56.5	-69.6	0.0
2026-01-03 01:03:18.553542	329.0	56.8	-69.4	0.0
2026-01-03 01:03:19.669646	328.2	57.1	-69.6	0.0
2026-01-03 01:03:20.784433	327.3	57.4	-69.7	0.0
2026-01-03 01:03:21.898255	326.4	57.7	-69.4	0.0
2026-01-03 01:03:23.013690	325.5	58.0	-69.6	0.0
2026-01-03 01:03:24.128966	324.5	58.3	-69.4	0.0
2026-01-03 01:03:25.243596	323.5	58.6	-69.5	0.0
2026-01-03 01:03:26.356881	322.6	58.9	-69.4	0.0
2026-01-03 01:03:27.470983	321.6	59.1	-69.5	0.0
2026-01-03 01:03:28.585231	320.5	59.4	-69.3	0.0
2026-01-03 01:03:29.700076	319.5	59.7	-69.4	0.0
2026-01-03 01:03:30.815793	318.4	59.9	-69.4	0.0
2026-01-03 01:03:31.930010	317.3	60.2	-69.5	0.0
2026-01-03 01:03:33.046427	316.2	60.4	-69.4	0.0
2026-01-03 01:03:34.161798	315.0	60.6	-69.7	0.0
2026-01-03 01:03:35.276455	313.9	60.8	-69.4	0.0
2026-01-03 01:03:36.391263	312.7	61.1	-69.3	0.0
2026-01-03 01:03:37.506466	311.5	61.3	-69.5	0.0
2026-01-03 01:03:38.622548	310.3	61.4	-69.4	0.0
2026-01-03 01:03:39.738132	309.1	61.6	-69.4	0.0
2026-01-03 01:03:40.853166	307.8	61.8	-69.4	0.0
2026-01-03 01:03:41.967741	306.6	61.9	-69.3	0.0
2026-01-03 01:03:43.083322	305.3	62.1	-69.4	0.0
2026-01-03 01:03:44.196589	304.0	62.2	-69.4	0.0
2026-01-03 01:03:45.312282	302.7	62.3	-69.4	0.0
2026-01-03 01:03:46.427433	301.3	62.4	-69.4	0.0
2026-01-03 01:03:47.542381	300.0	62.5	-69.5	0.0
2026-01-03 01:03:48.656835	298.7	62.6	-69.6	0.0
2026-01-03 01:03:49.771014	297.3	62.7	-69.6	0.0
2026-01-03 01:03:50.886695	296.0	62.7	-69.5	0.0
2026-01-03 01:03:52.001010	294.6	62.7	-69.5	0.0
2026-01-03 01:03:53.114813	293.2	62.8	-69.7	0.0
2026-01-03 01:03:54.229741	291.9	62.8	-69.6	0.0
2026-01-03 01:03:55.344705	290.5	62.8	-69.5	0.0
2026-01-03 01:03:56.461318	289.1	62.8	-69.6	0.0
2026-01-03 01:03:57.576495	287.8	62.7	-69.5	0.0
2026-01-03 01:03:58.691258	286.4	62.7	-69.6	0.0
2026-01-03 01:03:59.806007	285.1	62.6	-69.6	0.0
2026-01-03 01:04:00.921595	283.7	62.6	-69.4	0.0
2026-01-03 01:04:02.037174	282.4	62.5	-69.3	0.0
2026-01-03 01:04:03.151744	281.1	62.4	-69.6	0.0
2026-01-03 01:04:04.273397	279.7	62.3	-69.6	0.0
2026-01-03 01:04:05.393294	278.4	62.1	-69.5	0.0
2026-01-03 01:04:06.510043	277.1	62.0	-69.1	0.0
2026-01-03 01:04:07.624719	275.8	61.9	-69.3	0.0
2026-01-03 01:04:08.740273	274.6	61.7	-69.6	0.0
2026-01-03 01:04:09.855737	273.3	61.5	-69.6	0.0
2026-01-03 01:04:10.969841	272.1	61.4	-69.3	0.0
2026-01-03 01:04:12.085211	270.9	61.2	-69.5	0.0
2026-01-03 01:04:13.199396	269.7	61.0	-69.5	0.0
2026-01-03 01:04:14.313668	268.6	60.8	-69.5	0.0
2026-01-03 01:04:15.428906	267.4	60.5	-69.7	0.0
2026-01-03 01:04:16.544557	266.3	60.3	-69.5	0.0
2026-01-03 01:04:17.658618	265.2	60.1	-69.5	0.0
2026-01-03 01:04:18.781020	264.1	59.8	-69.7	0.0
2026-01-03 01:04:19.895827	263.0	59.6	-69.6	0.0
2026-01-03 01:04:21.009805	262.0	59.3	-69.6	0.0
2026-01-03 01:04:22.125351	260.9	59.0	-69.7	0.0
2026-01-03 01:04:23.239358	259.9	58.8	-69.5	0.0
2026-01-03 01:04:24.354873	259.0	58.5	-69.5	0.0
2026-01-03 01:04:25.469671	258.0	58.2	-69.7	0.0
2026-01-03 01:04:26.585727	257.1	57.9	-69.8	0.0
2026-01-03 01:04:27.700490	256.1	57.6	-69.7	0.0
2026-01-03 01:04:28.815613	255.2	57.3	-69.7	0.0
2026-01-03 01:04:29.930848	254.4	57.0	-69.7	0.0
2026-01-03 01:04:31.045102	253.5	56.6	-69.6	0.0
2026-01-03 01:04:32.160016	252.7	56.3	-69.7	0.0
2026-01-03 01:04:33.275002	251.8	56.0	-69.6	0.0
2026-01-03 01:04:34.390005	251.0	55.7	-69.7	0.0
2026-01-03 01:04:35.504837	250.3	55.3	-69.4	0.0
2026-01-03 01:04:36.619581	249.5	55.0	-69.5	0.0
2026-01-03 01:04:37.733246	248.8	54.7	-69.7	0.0
2026-01-03 01:04:38.849324	248.0	54.3	-69.5	0.0
2026-01-03 01:04:39.962995	247.3	54.0	-69.5	0.0
2026-01-03 01:04:41.078279	246.6	53.6	-69.6	0.0
2026-01-03 01:04:42.192912	246.0	53.3	-69.6	0.0
2026-01-03 01:04:43.307436	245.3	53.0	-69.6	0.0
2026-01-03 01:04:44.422065	244.6	52.6	-69.7	0.0
2026-01-03 01:04:45.537367	244.0	52.3	-69.6	0.0
2026-01-03 01:04:46.652068	243.4	51.9	-69.6	0.0
2026-01-03 01:04:47.766190	242.8	51.6	-69.4	0.0
2026-01-03 01:04:48.881152	242.2	51.2	-69.8	0.0
2026-01-03 01:04:49.996068	241.6	50.9	-69.8	0.0
2026-01-03 01:04:51.110998	241.1	50.5	-69.7	0.0
2026-01-03 01:04:52.230361	240.5	50.2	-69.5	0.0
2026-01-03 01:04:53.345700	240.0	49.8	-69.8	0.0
2026-01-03 01:04:54.460954	239.5	49.5	-69.7	0.0
2026-01-03 01:04:55.576509	239.0	49.1	-69.7	0.0
2026-01-03 01:04:56.691825	238.5	48.8	-69.7	0.0
2026-01-03 01:04:57.806495	238.0	48.4	-69.7	0.0
2026-01-03 01:04:58.921630	237.5	48.1	-69.7	0.0
2026-01-03 01:05:00.036802	237.1	47.7	-69.8	0.0
2026-01-03 01:05:01.152024	236.6	47.4	-69.6	0.0
2026-01-03 01:05:02.265700	236.2	47.0	-69.6	0.0
2026-01-03 01:05:03.381676	235.7	46.7	-69.6	0.0
2026-01-03 01:05:04.495774	235.3	46.3	-69.6	0.0
2026-01-03 01:05:05.610554	234.9	46.0	-69.7	0.0
2026-01-03 01:05:06.725229	234.5	45.6	-69.7	0.0
2026-01-03 01:05:07.839145	234.1	45.3	-69.6	0.0
2026-01-03 01:05:08.954833	233.7	45.0	-69.7	0.0
2026-01-03 01:05:10.070238	233.3	44.6	-69.6	0.0
2026-01-03 01:05:11.184778	232.9	44.3	-69.6	0.0
2026-01-03 01:05:12.299873	232.6	44.0	-69.7	0.0
2026-01-03 01:05:13.430549	232.2	43.6	-69.6	0.0
2026-01-03 01:05:14.546135	231.9	43.3	-69.8	0.0
2026-01-03 01:05:15.661418	231.5	43.0	-69.6	0.0
2026-01-03 01:05:16.791613	231.2	42.6	-69.8	0.0
2026-01-03 01:05:17.905628	230.9	42.3	-69.7	0.0
2026-01-03 01:05:19.020468	230.5	42.0	-69.7	0.0
2026-01-03 01:05:20.135354	230.2	41.7	-69.8	0.0
2026-01-03 01:05:21.250466	229.9	41.4	-69.6	0.0
2026-01-03 01:05:22.364775	229.6	41.0	-69.7	0.0
2026-01-03 01:05:23.479353	229.3	40.7	-69.4	0.0
2026-01-03 01:05:24.593963	229.0	40.4	-69.7	0.0
2026-01-03 01:05:25.707946	228.7	40.1	-69.6	0.0
2026-01-03 01:05:26.823236	228.5	39.8	-69.6	0.0
2026-01-03 01:05:27.937446	228.2	39.5	-69.4	0.0
2026-01-03 01:05:29.051334	227.9	39.2	-69.5	0.0
2026-01-03 01:05:30.166452	227.7	38.9	-69.6	0.0
2026-01-03 01:05:31.282735	227.4	38.6	-69.5	0.0
2026-01-03 01:05:32.396603	227.1	38.3	-69.6	0.0
2026-01-03 01:05:33.512301	226.9	38.0	-69.8	0.0
2026-01-03 01:05:34.627889	226.7	37.7	-69.6	0.0
2026-01-03 01:05:35.744645	226.4	37.4	-69.7	0.0
2026-01-03 01:05:36.868670	226.2	37.1	-69.7	0.0
2026-01-03 01:05:37.982938	225.9	36.8	-69.6	0.0
2026-01-03 01:05:39.105432	225.7	36.5	-69.6	0.0
2026-01-03 01:05:40.220555	225.5	36.3	-69.6	0.0
2026-01-03 01:05:41.343439	225.3	36.0	-69.7	0.0
2026-01-03 01:05:42.458697	225.1	35.7	-69.7	0.0
2026-01-03 01:05:43.578638	224.8	35.4	-69.4	0.0
2026-01-03 01:05:44.693832	224.6	35.1	-69.6	0.0
2026-01-03 01:05:45.808786	224.4	34.9	-69.7	0.0
2026-01-03 01:05:46.924143	224.2	34.6	-69.5	0.0
2026-01-03 01:05:48.039499	224.0	34.3	-69.8	0.0
2026-01-03 01:05:49.154132	223.8	34.1	-69.6	0.0
2026-01-03 01:05:50.268213	223.7	33.8	-69.5	0.0
2026-01-03 01:05:51.383086	223.5	33.5	-69.6	0.0
2026-01-03 01:05:52.498702	223.3	33.3	-69.7	0.0
2026-01-03 01:05:53.613300	223.1	33.0	-69.0	0.0
2026-01-03 01:05:54.728102	222.9	32.8	-69.7	0.0
2026-01-03 01:05:55.843194	222.7	32.5	-69.7	0.0
2026-01-03 01:05:56.957595	222.6	32.3	-69.6	0.0
2026-01-03 01:05:58.073031	222.4	32.0	-69.4	0.0
2026-01-03 01:05:59.187721	222.2	31.8	-69.3	0.0
2026-01-03 01:06:00.303972	222.1	31.5	-69.7	0.0
2026-01-03 01:06:01.419008	221.9	31.3	-69.6	0.0
2026-01-03 01:06:02.533072	221.8	31.0	-69.5	0.0
2026-01-03 01:06:03.647534	221.6	30.8	-69.6	0.0
2026-01-03 01:06:04.762945	221.4	30.6	-69.7	0.0
2026-01-03 01:06:05.877711	221.3	30.3	-69.6	0.0
2026-01-03 01:06:06.995428	221.1	30.1	-69.6	0.0
2026-01-03 01:06:08.109413	221.0	29.8	-69.9	0.0
2026-01-03 01:06:09.238352	220.8	29.6	-69.6	0.0
2026-01-03 01:06:10.353914	220.7	29.4	-69.7	0.0
2026-01-03 01:06:11.468373	220.6	29.2	-69.7	0.0
2026-01-03 01:06:12.583130	220.4	28.9	-69.6	0.0
2026-01-03 01:06:13.698184	220.3	28.7	-69.7	0.0
2026-01-03 01:06:14.812139	220.1	28.5	-69.5	0.0
2026-01-03 01:06:15.927701	220.0	28.3	-69.6	0.0
2026-01-03 01:06:17.042306	219.9	28.0	-69.7	0.0
2026-01-03 01:06:18.157205	219.8	27.8	-69.6	0.0
2026-01-03 01:06:19.271825	219.6	27.6	-69.5	0.0
2026-01-03 01:06:20.387854	219.5	27.4	-69.5	0.0
2026-01-03 01:06:21.503233	219.4	27.2	-69.7	0.0
2026-01-03 01:06:22.618317	219.3	27.0	-69.4	0.0
2026-01-03 01:06:23.732794	219.1	26.8	-69.6	0.0
2026-01-03 01:06:24.847240	219.0	26.6	-69.7	0.0
2026-01-03 01:06:25.962558	218.9	26.4	-69.6	0.0
2026-01-03 01:06:27.076907	218.8	26.1	-69.7	0.0
2026-01-03 01:06:28.191697	218.7	25.9	-69.6	0.0
2026-01-03 01:06:29.306790	218.6	25.7	-69.5	0.0
2026-01-03 01:06:30.422212	218.4	25.5	-69.6	0.0
2026-01-03 01:06:31.537223	218.3	25.3	-69.7	0.0
2026-01-03 01:06:32.652581	218.2	25.1	-69.6	0.0
2026-01-03 01:06:33.770179	218.1	25.0	-69.6	0.0
2026-01-03 01:06:34.883616	218.0	24.8	-69.7	0.0
2026-01-03 01:06:35.998994	217.9	24.6	-69.4	0.0
2026-01-03 01:06:37.113609	217.8	24.4	-69.4	0.0
2026-01-03 01:06:38.231662	217.7	24.2	-69.5	0.0
2026-01-03 01:06:39.346782	217.6	24.0	-69.5	0.0
2026-01-03 01:06:40.469614	217.5	23.8	-69.8	0.0
2026-01-03 01:06:41.583547	217.4	23.6	-69.4	0.0
2026-01-03 01:06:42.698482	217.3	23.4	-69.4	0.0
2026-01-03 01:06:43.812289	217.2	23.3	-69.7	0.0
2026-01-03 01:06:44.927449	217.1	23.1	-69.5	0.0
2026-01-03 01:06:46.042100	217.0	22.9	-69.7	0.0
2026-01-03 01:06:47.156136	216.9	22.7	-69.5	0.0
2026-01-03 01:06:48.270476	216.9	22.5	-69.5	0.0
2026-01-03 01:06:49.386172	216.8	22.4	-69.6	0.0
2026-01-03 01:06:50.502463	216.7	22.2	-69.6	0.0
2026-01-03 01:06:51.617736	216.6	22.0	-69.5	0.0
2026-01-03 01:06:52.732605	216.5	21.8	-69.3	0.0
2026-01-03 01:06:53.846975	216.4	21.7	-69.5	0.0
2026-01-03 01:06:54.961602	216.3	21.5	-69.6	0.0
2026-01-03 01:06:56.075957	216.3	21.3	-69.3	0.0
2026-01-03 01:06:57.190501	216.2	21.2	-69.5	0.0
2026-01-03 01:06:58.304987	216.1	21.0	-69.4	0.0
2026-01-03 01:06:59.418882	216.0	20.8	-69.3	0.0
2026-01-03 01:07:00.535063	215.9	20.7	-69.5	0.0
2026-01-03 01:07:01.648658	215.9	20.5	-69.6	0.0
2026-01-03 01:07:02.764958	215.8	20.3	-69.5	0.0
2026-01-03 01:07:03.883551	215.7	20.2	-69.5	0.0
2026-01-03 01:07:04.998216	215.6	20.0	-69.5	0.0
2026-01-03 01:07:06.112764	215.5	19.9	-69.7	0.0
2026-01-03 01:07:07.227338	215.5	19.7	-69.6	0.0
2026-01-03 01:07:08.342174	215.4	19.5	-69.6	0.0
2026-01-03 01:07:09.456756	215.3	19.4	-69.5	0.0
2026-01-03 01:07:10.570788	215.3	19.2	-69.7	0.0
2026-01-03 01:07:11.685977	215.2	19.1	-69.8	0.0
2026-01-03 01:07:12.801259	215.1	18.9	-69.5	0.0
2026-01-03 01:07:13.916863	215.1	18.8	-69.5	0.0
2026-01-03 01:07:15.032893	215.0	18.6	-69.6	0.0
2026-01-03 01:07:16.148750	214.9	18.5	-69.7	0.0
2026-01-03 01:07:17.263640	214.8	18.3	-69.7	0.0
2026-01-03 01:07:18.378306	214.8	18.2	-69.6	0.0
2026-01-03 01:07:19.493324	214.7	18.0	-69.5	0.0
2026-01-03 01:07:20.609966	214.7	17.9	-69.5	0.0
2026-01-03 01:07:21.725850	214.6	17.7	-69.4	0.0
2026-01-03 01:07:22.841604	214.5	17.6	-69.5	0.0
2026-01-03 01:07:23.956552	214.5	17.4	-69.6	0.0
2026-01-03 01:07:25.071281	214.4	17.3	-69.5	0.0
2026-01-03 01:07:26.186569	214.3	17.2	-69.4	0.0
2026-01-03 01:07:27.301016	214.3	17.0	-69.5	0.0
2026-01-03 01:07:28.415777	214.2	16.9	-69.7	0.0
2026-01-03 01:07:29.530270	214.2	16.7	-69.5	0.0
2026-01-03 01:07:30.646111	214.1	16.6	-69.6	0.0
2026-01-03 01:07:31.761801	214.0	16.5	-69.5	0.0
2026-01-03 01:07:32.876198	214.0	16.3	-69.8	0.0
2026-01-03 01:07:34.006226	213.9	16.2	-69.4	0.0
2026-01-03 01:07:35.130749	213.9	16.1	-69.6	0.0
2026-01-03 01:07:36.245721	213.8	15.9	-69.6	0.0
2026-01-03 01:07:37.368124	213.8	15.8	-69.6	0.0
2026-01-03 01:07:38.481544	213.7	15.7	-69.9	0.0
2026-01-03 01:07:39.602299	213.6	15.5	-69.6	0.0
2026-01-03 01:07:40.717548	213.6	15.4	-69.5	0.0
2026-01-03 01:07:41.840488	213.5	15.3	-69.7	0.0
2026-01-03 01:07:42.960105	213.5	15.1	-69.7	0.0
2026-01-03 01:07:44.074594	213.4	15.0	-69.6	0.0
#Closed at: 2026-01-03 00:59:58.699510