passes_logs/2026/01/16/R3.2S_Murmansk_2ch/R3.2S_Murmansk_2ch__20260116_070109_NOAA_21_JPSS-2_rec.log

#Pass ID: 20260116_070109_NOAA 21 (JPSS-2)
#Satellite: NOAA 21 (JPSS-2)
#Configuration: NOAA-21
#almurnet v.1.7.20251203
#Start time: 2026-01-16 07:01:08

#Version: 2.2.20231116
#Station: R3.2S_Murmansk_2ch
#Location: 33.079688 lon 68.888172 lat
#TLE: 1 54234U 22150A   26015.92901934  .00000025  00000+0  32700-4 0  9991
#TLE: 2 54234  98.7499 316.8175 0000634 284.8145  75.2961 14.19534841164946

#Time	Az	El	Level	Level2	SNR	BER	BlckErr	Temp	State	Recorded	gain1	gain2
2026-01-16 07:01:08.72	95.40	1.97	-51.2	-65.2	3.8	1.49e+00	0	31	0	0	67	19198
2026-01-16 07:01:11.75	95.25	2.15	-51.2	-65.2	3.8	1.49e+00	0	31	104	0	67	19275
2026-01-16 07:01:14.77	95.10	2.34	-51.2	-65.2	3.8	1.49e+00	0	31	104	0	67	19254
2026-01-16 07:01:17.80	94.94	2.52	-51.2	-65.2	3.8	1.49e+00	0	32	104	0	67	19307
2026-01-16 07:01:20.83	94.78	2.70	-51.2	-65.2	3.8	1.49e+00	0	32	104	0	67	19259
2026-01-16 07:01:23.85	94.62	2.89	-51.2	-65.2	3.8	1.49e+00	0	31	104	0	67	19297
2026-01-16 07:01:26.88	94.46	3.07	-51.2	-65.2	3.8	1.49e+00	0	32	104	0	67	19320
2026-01-16 07:01:29.91	94.29	3.26	-51.2	-65.2	3.8	1.49e+00	0	32	104	0	67	19302
2026-01-16 07:01:32.94	94.12	3.45	-51.2	-65.2	3.8	1.49e+00	0	32	104	0	67	19292
2026-01-16 07:01:35.97	93.95	3.64	-51.2	-65.2	3.8	1.49e+00	0	32	104	0	67	19254
2026-01-16 07:01:38.99	93.78	3.82	-51.2	-65.2	3.8	1.49e+00	0	32	104	0	67	19305
2026-01-16 07:01:42.02	93.61	4.02	-51.2	-65.2	3.8	1.49e+00	0	32	104	0	67	19284
2026-01-16 07:01:45.05	93.43	4.21	-51.2	-65.2	3.8	1.49e+00	0	32	104	0	67	19264
2026-01-16 07:01:48.07	93.25	4.40	-51.2	-65.2	3.8	1.49e+00	0	32	104	0	67	19333
2026-01-16 07:01:51.10	93.07	4.59	-51.2	-65.2	3.8	1.49e+00	0	32	104	0	67	19292
2026-01-16 07:01:54.13	92.88	4.79	-51.2	-65.2	3.8	1.49e+00	0	32	104	0	67	19327
2026-01-16 07:01:57.15	92.70	4.99	-51.2	-65.2	3.8	1.49e+00	0	32	104	0	67	19317
2026-01-16 07:02:00.18	92.51	5.18	-51.2	-65.2	3.8	1.49e+00	0	32	104	0	67	19325
2026-01-16 07:02:03.21	92.31	5.38	-51.2	-65.2	3.8	1.49e+00	0	32	104	0	67	19323
2026-01-16 07:02:06.24	92.12	5.58	-51.3	-65.3	3.8	1.49e+00	0	32	104	0	67	19407
2026-01-16 07:02:09.27	91.92	5.78	-51.3	-65.2	3.8	1.49e+00	0	33	104	0	67	19333
2026-01-16 07:02:12.29	91.72	5.99	-51.3	-65.2	3.8	1.49e+00	0	32	104	0	67	19365
2026-01-16 07:02:15.32	91.51	6.19	-51.2	-65.2	3.8	1.49e+00	0	33	104	0	67	19306
2026-01-16 07:02:18.34	91.31	6.39	-51.3	-65.2	3.8	1.49e+00	0	33	104	0	67	19383
2026-01-16 07:02:21.37	91.10	6.60	-51.2	-65.3	3.8	1.49e+00	0	32	104	0	67	19394
2026-01-16 07:02:24.40	90.88	6.81	-51.2	-65.2	3.8	1.49e+00	0	33	104	0	67	19379
2026-01-16 07:02:27.43	90.66	7.02	-51.3	-65.3	3.8	1.49e+00	0	33	104	0	67	19457
2026-01-16 07:02:30.46	90.44	7.23	-51.3	-65.3	3.8	1.49e+00	0	33	104	0	67	19416
2026-01-16 07:02:33.49	90.22	7.44	-51.3	-65.3	3.8	1.49e+00	0	33	104	0	67	19422
2026-01-16 07:02:36.51	90.00	7.65	-51.3	-65.3	3.8	1.49e+00	0	33	104	0	67	19434
2026-01-16 07:02:39.54	89.76	7.86	-51.3	-65.3	3.8	1.49e+00	0	33	104	0	67	19452
2026-01-16 07:02:42.56	89.53	8.08	-51.3	-65.3	3.8	1.49e+00	0	33	104	0	67	19446
2026-01-16 07:02:45.59	89.29	8.29	-51.3	-65.3	3.8	1.49e+00	0	33	104	0	67	19425
2026-01-16 07:02:48.61	89.05	8.51	-51.3	-65.3	3.8	1.49e+00	0	33	104	0	67	19420
2026-01-16 07:02:51.64	88.81	8.73	-51.3	-65.3	3.8	1.49e+00	0	33	104	0	67	19436
2026-01-16 07:02:54.67	88.56	8.95	-51.3	-65.3	3.8	1.49e+00	0	33	104	0	67	19445
2026-01-16 07:02:57.70	88.31	9.17	-51.3	-65.2	3.8	1.49e+00	0	33	104	0	67	19368
2026-01-16 07:03:00.72	88.05	9.40	-51.3	-65.3	3.8	1.49e+00	0	33	104	0	67	19442
2026-01-16 07:03:03.75	87.79	9.62	-51.3	-65.3	3.8	1.49e+00	0	33	104	0	67	19449
2026-01-16 07:03:06.77	87.53	9.85	-51.3	-65.3	3.8	1.49e+00	0	33	104	0	67	19519
2026-01-16 07:03:09.80	87.26	10.08	-51.3	-65.3	3.8	1.49e+00	0	33	104	0	67	19514
2026-01-16 07:03:12.83	86.98	10.31	-51.3	-65.3	3.8	1.49e+00	0	33	104	0	67	19424
2026-01-16 07:03:15.86	86.70	10.54	-51.3	-65.3	3.8	1.49e+00	0	33	104	0	67	19434
2026-01-16 07:03:18.88	86.42	10.77	-51.3	-65.3	3.8	1.49e+00	0	33	104	0	67	19480
2026-01-16 07:03:21.91	86.13	11.00	-51.3	-65.3	3.8	1.49e+00	0	33	104	0	67	19443
2026-01-16 07:03:24.94	85.84	11.24	-51.3	-65.3	3.8	1.49e+00	0	33	104	0	67	19502
2026-01-16 07:03:27.97	85.55	11.48	-51.3	-65.2	3.8	1.49e+00	0	33	104	0	67	19337
2026-01-16 07:03:30.99	85.24	11.71	-51.3	-65.3	3.8	1.49e+00	0	33	104	0	67	19427
2026-01-16 07:03:34.02	84.94	11.95	-51.3	-65.3	3.8	1.49e+00	0	33	104	0	67	19418
2026-01-16 07:03:37.05	84.62	12.20	-51.3	-65.3	3.8	1.49e+00	0	33	104	0	67	19488
2026-01-16 07:03:40.07	84.31	12.44	-51.3	-65.3	3.8	1.49e+00	0	33	104	0	67	19447
2026-01-16 07:03:43.10	83.98	12.68	-51.3	-65.3	3.8	1.49e+00	0	33	104	0	67	19488
2026-01-16 07:03:46.13	83.66	12.93	-51.3	-65.3	3.8	1.49e+00	0	33	104	0	67	19503
2026-01-16 07:03:49.16	83.32	13.18	-51.3	-65.3	3.8	1.49e+00	0	33	104	0	67	19426
2026-01-16 07:03:52.18	82.98	13.42	-51.3	-65.3	3.8	1.49e+00	0	33	104	0	67	19473
2026-01-16 07:03:55.21	82.64	13.68	-51.3	-65.3	3.8	1.49e+00	0	33	104	0	67	19503
2026-01-16 07:03:58.23	82.28	13.93	-51.3	-65.3	3.8	1.49e+00	0	33	104	0	67	19469
2026-01-16 07:04:01.26	81.93	14.18	-51.3	-65.3	3.8	1.49e+00	0	33	104	0	67	19433
2026-01-16 07:04:04.29	81.56	14.44	-51.3	-65.3	3.8	1.49e+00	0	33	104	0	67	19416
2026-01-16 07:04:07.32	81.19	14.69	-51.3	-65.3	3.8	1.49e+00	0	33	104	0	67	19431
2026-01-16 07:04:10.35	80.81	14.95	-51.3	-65.3	3.8	1.49e+00	0	33	104	0	67	19434
2026-01-16 07:04:13.37	80.43	15.21	-51.3	-65.3	3.8	1.49e+00	0	33	104	0	67	19459
2026-01-16 07:04:16.40	80.04	15.47	-51.3	-65.3	3.8	1.49e+00	0	33	104	0	67	19483
2026-01-16 07:04:19.42	79.64	15.73	-51.3	-65.3	3.8	1.49e+00	0	33	104	0	67	19481
2026-01-16 07:04:22.45	79.23	16.00	-51.3	-65.3	3.8	1.49e+00	0	33	104	0	67	19425
2026-01-16 07:04:25.48	78.82	16.26	-51.3	-65.3	3.8	1.49e+00	0	33	104	0	67	19437
2026-01-16 07:04:28.51	78.40	16.53	-51.3	-65.3	3.8	1.49e+00	0	33	104	0	67	19431
2026-01-16 07:04:31.53	77.97	16.80	-51.3	-65.3	3.8	1.49e+00	0	33	104	0	67	19450
2026-01-16 07:04:34.56	77.54	17.06	-51.3	-65.3	3.8	1.49e+00	0	33	104	0	67	19437
2026-01-16 07:04:37.59	77.09	17.33	-51.3	-65.3	3.8	1.49e+00	0	33	104	0	67	19398
2026-01-16 07:04:40.61	76.64	17.61	-51.3	-65.3	3.8	1.49e+00	0	33	104	0	67	19423
2026-01-16 07:04:43.64	76.18	17.88	-51.3	-65.3	3.8	1.49e+00	0	33	104	0	67	19497
2026-01-16 07:04:46.67	75.71	18.15	-51.3	-65.3	3.8	1.49e+00	0	33	104	0	67	19447
2026-01-16 07:04:49.70	75.23	18.43	-51.3	-65.3	3.8	1.49e+00	0	33	104	0	67	19469
2026-01-16 07:04:52.73	74.75	18.70	-51.3	-65.3	3.8	1.49e+00	0	33	104	0	67	19484
2026-01-16 07:04:55.75	74.25	18.98	-51.3	-65.3	3.8	1.49e+00	0	33	104	0	67	19425
2026-01-16 07:04:58.78	73.75	19.25	-51.3	-65.3	3.8	1.49e+00	0	33	104	0	67	19475
2026-01-16 07:05:01.80	73.23	19.53	-51.3	-65.3	3.8	1.49e+00	0	33	104	0	67	19558
2026-01-16 07:05:04.83	72.71	19.81	-51.4	-65.3	3.8	1.49e+00	0	33	104	0	67	19569
2026-01-16 07:05:07.86	72.17	20.09	-51.3	-65.3	3.8	1.49e+00	0	33	104	0	67	19558
2026-01-16 07:05:10.89	71.63	20.37	-51.3	-65.3	3.8	1.49e+00	0	33	104	0	67	19457
2026-01-16 07:05:13.91	71.08	20.65	-51.3	-65.3	3.8	1.49e+00	0	33	104	0	67	19485
2026-01-16 07:05:16.94	70.52	20.93	-51.3	-65.3	3.8	1.49e+00	0	33	104	0	67	19530
2026-01-16 07:05:19.97	69.94	21.21	-51.3	-65.3	3.8	1.49e+00	0	34	104	0	67	19467
2026-01-16 07:05:23.00	69.36	21.49	-51.3	-65.3	3.8	1.49e+00	0	33	104	0	67	19463
2026-01-16 07:05:26.03	68.76	21.77	-51.3	-65.3	3.8	1.49e+00	0	33	104	0	67	19447
2026-01-16 07:05:29.05	68.15	22.05	-51.3	-65.3	3.8	1.49e+00	0	33	104	0	67	19503
2026-01-16 07:05:32.08	67.54	22.32	-51.3	-65.3	3.8	1.49e+00	0	33	104	0	67	19492
2026-01-16 07:05:35.11	66.91	22.60	-51.3	-65.3	3.8	1.49e+00	0	33	104	0	67	19448
2026-01-16 07:05:38.14	66.27	22.88	-51.3	-65.3	3.8	1.49e+00	0	33	104	0	67	19495
2026-01-16 07:05:41.17	65.61	23.16	-51.3	-65.3	3.8	1.49e+00	0	34	104	0	67	19427
2026-01-16 07:05:44.19	64.95	23.43	-51.3	-65.3	3.8	1.49e+00	0	33	104	0	67	19458
2026-01-16 07:05:47.22	64.28	23.71	-51.3	-65.3	3.8	1.49e+00	0	33	104	0	67	19467
2026-01-16 07:05:50.24	63.59	23.98	-51.3	-65.3	3.8	1.49e+00	0	33	104	0	67	19498
2026-01-16 07:05:53.27	62.89	24.25	-51.3	-65.3	3.8	1.49e+00	0	33	104	0	67	19494
2026-01-16 07:05:56.30	62.18	24.52	-51.3	-65.3	3.8	1.49e+00	0	33	104	0	67	19481
2026-01-16 07:05:59.32	61.46	24.78	-51.3	-65.3	3.8	1.49e+00	0	33	104	0	67	19440
2026-01-16 07:06:02.35	60.72	25.05	-51.3	-65.3	3.8	1.49e+00	0	33	104	0	67	19485
2026-01-16 07:06:05.38	59.97	25.31	-51.3	-65.3	3.8	1.49e+00	0	33	104	0	67	19536
2026-01-16 07:06:08.40	59.21	25.57	-51.3	-65.3	3.8	1.49e+00	0	33	104	0	67	19483
2026-01-16 07:06:11.43	58.43	25.82	-51.6	-65.6	3.8	1.49e+00	0	33	104	0	68	19042
2026-01-16 07:06:14.46	57.65	26.07	-51.7	-65.7	3.8	1.49e+00	0	33	104	0	68	19322
2026-01-16 07:06:17.49	56.85	26.32	-51.7	-65.7	3.8	1.49e+00	0	33	104	0	68	19346
2026-01-16 07:06:20.52	56.04	26.57	-51.7	-65.7	3.8	1.49e+00	0	33	104	0	68	19220
2026-01-16 07:06:23.55	55.21	26.81	-51.5	-65.5	3.8	1.49e+00	0	33	104	0	68	18915
2026-01-16 07:06:26.57	54.38	27.04	-51.3	-65.3	3.8	1.49e+00	0	33	104	0	68	18381
2026-01-16 07:06:29.60	53.53	27.27	-50.8	-64.8	3.8	1.49e+00	0	33	104	0	68	17459
2026-01-16 07:06:32.63	52.66	27.50	-49.9	-63.8	3.8	1.49e+00	0	33	104	0	66	17429
2026-01-16 07:06:35.65	51.79	27.71	-49.9	-63.8	3.8	1.49e+00	0	34	104	0	66	17439
2026-01-16 07:06:38.68	50.91	27.93	-49.9	-63.8	3.8	1.49e+00	0	33	104	0	66	17403
2026-01-16 07:06:41.71	50.01	28.14	-49.9	-63.8	3.8	1.49e+00	0	34	104	0	66	17385
2026-01-16 07:06:44.74	49.10	28.34	-49.9	-63.8	3.8	1.49e+00	0	34	104	0	66	17381
2026-01-16 07:06:47.77	48.18	28.53	-49.9	-63.8	3.8	1.49e+00	0	34	104	0	66	17364
2026-01-16 07:06:50.79	47.25	28.72	-49.9	-63.8	3.8	1.49e+00	0	34	104	0	66	17358
2026-01-16 07:06:53.82	46.31	28.90	-49.9	-63.8	3.8	1.49e+00	0	33	104	0	66	17347
2026-01-16 07:06:56.84	45.36	29.07	-49.9	-63.8	3.8	1.49e+00	0	33	104	0	66	17328
2026-01-16 07:06:59.87	44.40	29.23	-49.9	-63.8	3.8	1.49e+00	0	34	104	0	66	17381
2026-01-16 07:07:02.90	43.42	29.39	-49.9	-63.8	3.8	1.49e+00	0	34	104	0	66	17366
2026-01-16 07:07:05.92	42.44	29.54	-49.9	-63.8	3.8	1.49e+00	0	34	104	0	66	17320
2026-01-16 07:07:08.95	41.45	29.68	-49.8	-63.8	3.8	1.49e+00	0	33	104	0	66	17335
2026-01-16 07:07:11.98	40.45	29.81	-49.9	-63.8	3.8	1.49e+00	0	33	104	0	66	17340
2026-01-16 07:07:15.01	39.45	29.93	-49.8	-63.8	3.8	1.49e+00	0	34	104	0	66	17299
2026-01-16 07:07:18.03	38.44	30.04	-49.8	-63.8	3.8	1.49e+00	0	34	104	0	66	17291
2026-01-16 07:07:21.06	37.42	30.14	-49.9	-63.8	3.8	1.49e+00	0	34	104	0	66	17335
2026-01-16 07:07:24.09	36.39	30.23	-49.8	-63.8	3.8	1.49e+00	0	34	104	0	66	17285
2026-01-16 07:07:27.11	35.36	30.31	-49.8	-63.8	3.8	1.49e+00	0	34	104	0	66	17311
2026-01-16 07:07:30.14	34.32	30.38	-49.8	-63.7	3.8	1.49e+00	0	34	104	0	66	17259
2026-01-16 07:07:33.17	33.28	30.44	-49.8	-63.7	3.8	1.49e+00	0	33	104	0	66	17241
2026-01-16 07:07:36.20	32.24	30.49	-49.8	-63.7	3.8	1.49e+00	0	33	104	0	66	17234
2026-01-16 07:07:39.22	31.19	30.53	-49.8	-63.8	3.8	1.49e+00	0	33	104	0	66	17294
2026-01-16 07:07:42.25	30.14	30.56	-49.8	-63.7	3.8	1.49e+00	0	34	104	0	66	17254
2026-01-16 07:07:45.28	29.09	30.58	-49.8	-63.7	3.8	1.49e+00	0	34	104	0	66	17265
2026-01-16 07:07:48.31	28.04	30.58	-49.8	-63.7	3.8	1.49e+00	0	33	104	0	66	17232
2026-01-16 07:07:51.33	26.99	30.58	-49.9	-63.8	3.8	1.49e+00	0	34	104	0	66	17431
2026-01-16 07:07:54.36	25.94	30.56	-49.9	-63.8	3.8	1.49e+00	0	33	104	0	66	17469
2026-01-16 07:07:57.39	24.89	30.54	-50.0	-63.9	3.8	1.49e+00	0	34	104	0	66	17605
2026-01-16 07:08:00.42	23.84	30.50	-50.0	-63.9	3.8	1.49e+00	0	33	104	0	66	17605
2026-01-16 07:08:03.44	22.80	30.45	-47.6	-64.0	3.8	1.49e+00	0	34	104	0	61	23837
2026-01-16 07:08:06.47	21.76	30.39	-47.8	-64.1	3.8	1.49e+00	0	33	104	0	62	22574
2026-01-16 07:08:09.49	20.72	30.32	-47.4	-64.1	3.8	1.49e+00	0	33	104	0	61	24103
2026-01-16 07:08:12.52	19.69	30.25	-47.3	-64.2	3.8	1.49e+00	0	33	104	0	61	24295
2026-01-16 07:08:15.55	18.66	30.16	-47.3	-64.3	3.8	1.49e+00	0	34	104	0	61	24430
2026-01-16 07:08:18.58	17.64	30.06	-47.1	-64.3	3.8	1.49e+00	0	34	104	0	60	26028
2026-01-16 07:08:21.60	16.63	29.95	-47.2	-64.3	3.8	1.49e+00	0	34	104	0	60	26111
2026-01-16 07:08:24.63	15.62	29.83	-47.3	-64.4	3.8	1.49e+00	0	34	104	0	60	26211
2026-01-16 07:08:27.66	14.62	29.70	-47.3	-64.4	3.8	1.49e+00	0	33	104	0	60	26250
2026-01-16 07:08:30.68	13.64	29.57	-47.2	-64.5	3.8	1.49e+00	0	34	104	0	60	26464
2026-01-16 07:08:33.71	12.65	29.42	-47.2	-64.5	3.8	1.49e+00	0	34	104	0	60	26593
2026-01-16 07:08:36.74	11.68	29.26	-47.2	-64.5	3.8	1.49e+00	0	34	104	0	60	26608
2026-01-16 07:08:39.77	10.72	29.10	-47.2	-64.6	3.8	1.49e+00	0	34	104	0	60	26784
2026-01-16 07:08:42.79	9.76	28.93	-47.2	-64.6	3.8	1.49e+00	0	33	104	0	60	26812
2026-01-16 07:08:45.82	8.82	28.75	-47.2	-64.6	3.8	1.49e+00	0	34	104	0	60	26875
2026-01-16 07:08:48.85	7.89	28.57	-47.1	-64.6	3.8	1.49e+00	0	33	104	0	60	26983
2026-01-16 07:08:51.87	6.97	28.38	-47.0	-64.7	3.8	1.49e+00	0	34	104	0	60	27115
2026-01-16 07:08:54.90	6.06	28.18	-46.9	-64.7	3.8	1.49e+00	0	34	104	0	60	27150
2026-01-16 07:08:57.93	5.16	27.97	-46.7	-64.7	3.8	1.49e+00	0	34	104	0	60	27284
2026-01-16 07:09:00.95	4.28	27.76	-46.8	-65.1	3.8	1.49e+00	0	33	104	0	59	30297
2026-01-16 07:09:03.98	3.40	27.54	-46.6	-65.2	3.8	1.49e+00	0	33	104	0	59	30447
2026-01-16 07:09:07.01	2.54	27.32	-46.5	-65.2	3.8	1.49e+00	0	33	104	0	59	30543
2026-01-16 07:09:10.03	1.69	27.09	-46.3	-65.2	3.8	1.49e+00	0	34	104	0	59	30536
2026-01-16 07:09:13.06	0.85	26.85	-46.2	-65.2	3.8	1.49e+00	0	34	104	0	59	30637
2026-01-16 07:09:16.09	0.03	26.62	-46.4	-65.2	3.8	1.49e+00	0	33	104	0	59	30648
2026-01-16 07:09:19.12	359.21	26.37	-46.3	-65.3	3.8	1.49e+00	0	34	104	0	59	30781
2026-01-16 07:09:22.15	358.41	26.13	-46.2	-65.3	3.8	1.49e+00	0	34	104	0	58	32645
2026-01-16 07:09:25.17	357.63	25.88	-46.1	-65.3	3.8	1.49e+00	0	34	104	0	58	32746
2026-01-16 07:09:28.20	356.85	25.62	-46.1	-65.3	3.8	1.49e+00	0	34	104	0	58	32810
2026-01-16 07:09:31.23	356.09	25.36	-46.1	-65.4	3.8	1.49e+00	0	34	104	0	58	32964
2026-01-16 07:09:34.25	355.34	25.10	-46.2	-65.4	3.8	1.49e+00	0	33	104	0	58	32932
2026-01-16 07:09:37.28	354.60	24.84	-45.9	-65.4	3.8	1.49e+00	0	34	104	0	58	33071
2026-01-16 07:09:40.31	353.88	24.57	-45.7	-65.4	3.8	1.49e+00	0	33	104	0	58	33140
2026-01-16 07:09:43.33	353.17	24.31	-45.5	-65.4	3.8	1.49e+00	0	34	104	0	57	35224
2026-01-16 07:09:46.36	352.47	24.04	-45.3	-65.5	3.8	1.49e+00	0	34	104	0	57	35376
2026-01-16 07:09:49.39	351.78	23.77	-45.3	-65.5	3.8	1.49e+00	0	34	104	0	56	37497
2026-01-16 07:09:52.42	351.10	23.49	-45.3	-65.5	3.8	1.49e+00	0	34	104	0	56	37642
2026-01-16 07:09:55.44	350.44	23.22	-45.4	-65.5	3.8	1.49e+00	0	34	104	0	56	37574
2026-01-16 07:09:58.47	349.78	22.94	-45.4	-65.5	3.8	1.49e+00	0	34	104	0	56	37720
2026-01-16 07:10:01.50	349.14	22.67	-45.4	-65.5	3.8	1.49e+00	0	34	104	0	56	37743
2026-01-16 07:10:04.52	348.52	22.39	-45.4	-65.5	3.8	1.49e+00	0	33	104	0	56	37732
2026-01-16 07:10:07.55	347.90	22.11	-45.2	-65.6	3.8	1.49e+00	0	34	104	0	56	37914
2026-01-16 07:10:10.57	347.29	21.83	-45.0	-65.6	3.8	1.49e+00	0	33	104	0	56	37929
2026-01-16 07:10:13.60	346.69	21.55	-44.8	-65.6	3.8	1.49e+00	0	34	104	0	56	38099
2026-01-16 07:10:16.63	346.11	21.27	-44.6	-65.5	3.8	1.49e+00	0	33	104	0	55	39677
2026-01-16 07:10:19.65	345.53	21.00	-44.7	-65.5	3.8	1.49e+00	0	34	104	0	55	39709
2026-01-16 07:10:22.68	344.97	20.72	-45.0	-65.5	3.8	1.49e+00	0	33	104	0	55	39809
2026-01-16 07:10:25.71	344.42	20.44	-45.2	-65.5	3.8	1.49e+00	0	34	104	0	55	39820
2026-01-16 07:10:28.73	343.87	20.16	-45.1	-65.5	3.8	1.49e+00	0	34	104	0	55	39906
2026-01-16 07:10:31.76	343.34	19.88	-44.9	-65.5	3.8	1.49e+00	0	34	104	0	55	40023
2026-01-16 07:10:34.79	342.81	19.60	-44.7	-65.6	3.8	1.49e+00	0	33	104	0	55	40072
2026-01-16 07:10:37.81	342.30	19.33	-44.8	-65.6	3.8	1.49e+00	0	34	104	0	55	40051
2026-01-16 07:10:40.84	341.80	19.05	-45.1	-65.6	3.8	1.49e+00	0	33	104	0	55	40264
2026-01-16 07:10:43.87	341.30	18.77	-45.1	-65.6	3.8	1.49e+00	0	34	104	0	55	40418
2026-01-16 07:10:46.90	340.81	18.50	-44.9	-65.6	3.8	1.49e+00	0	33	104	0	55	40338
2026-01-16 07:10:49.92	340.33	18.23	-44.6	-65.7	3.8	1.49e+00	0	34	104	0	55	40634
2026-01-16 07:10:52.95	339.87	17.95	-44.8	-65.7	3.8	1.49e+00	0	34	104	0	55	40758
2026-01-16 07:10:55.98	339.40	17.68	-44.6	-65.7	3.8	1.49e+00	0	34	104	0	55	40719
2026-01-16 07:10:59.01	338.95	17.41	-44.8	-65.7	3.8	1.49e+00	0	33	104	0	55	40820
2026-01-16 07:11:02.04	338.51	17.14	-44.2	-65.7	3.8	1.49e+00	0	33	104	0	55	40828
2026-01-16 07:11:05.06	338.07	16.87	-43.7	-65.7	3.8	1.49e+00	0	33	104	0	54	43262
2026-01-16 07:11:08.09	337.64	16.60	-44.2	-65.7	3.8	1.49e+00	0	34	104	0	54	43219
2026-01-16 07:11:11.11	337.22	16.34	-43.6	-65.7	3.8	1.49e+00	0	34	104	0	53	45707
2026-01-16 07:11:14.14	336.81	16.07	-43.2	-65.7	3.8	1.49e+00	0	34	104	0	53	45738
2026-01-16 07:11:17.17	336.40	15.81	-42.7	-65.7	3.8	1.49e+00	0	33	104	0	52	48525
2026-01-16 07:11:20.20	336.01	15.55	-42.7	-65.8	3.8	1.49e+00	0	34	104	0	51	51796
2026-01-16 07:11:23.23	335.61	15.29	-42.0	-65.8	3.8	1.49e+00	0	34	104	0	50	54781
2026-01-16 07:11:26.26	335.23	15.03	-41.8	-65.8	3.8	1.49e+00	0	34	104	0	50	54954
2026-01-16 07:11:29.29	334.85	14.77	-41.4	-65.8	3.8	1.49e+00	0	34	104	0	49	58052
2026-01-16 07:11:32.31	334.48	14.51	-41.4	-65.8	3.8	1.49e+00	0	34	104	0	49	58125
2026-01-16 07:11:35.34	334.12	14.26	-41.7	-65.8	3.8	1.49e+00	0	34	104	0	49	58147
2026-01-16 07:11:38.36	333.76	14.01	-41.5	-65.8	3.8	1.49e+00	0	34	104	0	49	58194
2026-01-16 07:11:41.39	333.41	13.75	-41.5	-65.8	3.8	1.49e+00	0	34	104	0	49	58247
2026-01-16 07:11:44.42	333.06	13.50	-41.5	-65.9	3.8	1.49e+00	0	34	104	0	49	58558
2026-01-16 07:11:47.44	332.72	13.25	-41.4	-65.8	3.8	1.49e+00	0	33	104	0	49	58450
2026-01-16 07:11:50.47	332.39	13.01	-51.6	-65.6	3.8	1.49e+00	0	34	104	0	68	19152
2026-01-16 07:11:53.50	332.06	12.76	-51.7	-65.7	3.9	1.49e+00	0	33	104	0	68	19173
2026-01-16 07:11:56.53	331.73	12.52	-51.7	-65.7	3.8	1.49e+00	0	34	104	0	68	19230
2026-01-16 07:11:59.56	331.42	12.27	-51.7	-65.7	3.8	1.49e+00	0	33	104	0	68	19306
2026-01-16 07:12:02.58	331.11	12.03	-51.7	-65.7	3.8	1.49e+00	0	34	104	0	68	19313
2026-01-16 07:12:05.61	330.80	11.79	-51.7	-65.7	3.8	1.49e+00	0	33	104	0	68	19261
2026-01-16 07:12:08.64	330.50	11.55	-51.7	-65.8	3.8	1.49e+00	0	34	104	0	68	19405
2026-01-16 07:12:11.66	330.20	11.32	-51.8	-65.7	3.8	1.49e+00	0	34	104	0	68	19367
2026-01-16 07:12:14.69	329.91	11.08	-51.8	-65.8	3.8	1.49e+00	0	33	104	0	68	19423
2026-01-16 07:12:17.72	329.62	10.85	-51.7	-65.7	3.8	1.49e+00	0	34	104	0	68	19387
2026-01-16 07:12:20.74	329.34	10.62	-51.8	-65.8	3.8	1.49e+00	0	34	104	0	68	19473
2026-01-16 07:12:23.77	329.06	10.39	-51.8	-65.8	3.8	1.49e+00	0	34	104	0	68	19520
2026-01-16 07:12:26.79	328.79	10.16	-51.8	-65.8	3.8	1.49e+00	0	34	104	0	68	19547
2026-01-16 07:12:29.82	328.52	9.93	-51.8	-65.8	3.8	1.49e+00	0	33	104	0	68	19460
2026-01-16 07:12:32.85	328.26	9.70	-51.8	-65.8	3.8	1.49e+00	0	34	104	0	68	19516
2026-01-16 07:12:35.88	328.00	9.48	-51.8	-65.8	3.8	1.49e+00	0	34	104	0	68	19548
2026-01-16 07:12:38.91	327.74	9.25	-51.8	-65.8	3.8	1.49e+00	0	34	104	0	68	19479
2026-01-16 07:12:41.93	327.49	9.03	-51.8	-65.8	3.8	1.49e+00	0	34	104	0	68	19436
2026-01-16 07:12:44.96	327.24	8.81	-51.8	-65.8	3.8	1.49e+00	0	34	104	0	68	19486
2026-01-16 07:12:47.99	326.99	8.59	-51.8	-65.8	3.8	1.49e+00	0	34	104	0	68	19525
2026-01-16 07:12:51.01	326.75	8.38	-51.8	-65.8	3.8	1.49e+00	0	34	104	0	68	19539
2026-01-16 07:12:54.04	326.52	8.16	-51.8	-65.8	3.8	1.49e+00	0	34	104	0	68	19426
2026-01-16 07:12:57.07	326.28	7.94	-51.8	-65.8	3.8	1.49e+00	0	34	104	0	68	19492
2026-01-16 07:13:00.10	326.05	7.73	-51.8	-65.8	3.8	1.49e+00	0	34	104	0	68	19487
2026-01-16 07:13:03.13	325.83	7.52	-51.8	-65.8	3.8	1.49e+00	0	34	104	0	68	19454
2026-01-16 07:13:06.16	325.61	7.31	-51.8	-65.7	3.8	1.49e+00	0	34	104	0	68	19379
2026-01-16 07:13:09.18	325.39	7.10	-51.8	-65.8	3.8	1.49e+00	0	33	104	0	68	19436
2026-01-16 07:13:12.21	325.17	6.89	-51.8	-65.8	3.8	1.49e+00	0	34	104	0	68	19391
2026-01-16 07:13:15.23	324.96	6.68	-51.8	-65.8	3.8	1.49e+00	0	33	104	0	68	19451
2026-01-16 07:13:18.26	324.75	6.47	-51.7	-65.7	3.9	1.49e+00	0	34	104	0	68	19375
2026-01-16 07:13:21.29	324.54	6.27	-51.7	-65.7	3.8	1.49e+00	0	34	104	0	68	19287
2026-01-16 07:13:24.31	324.34	6.07	-51.7	-65.7	3.8	1.49e+00	0	34	104	0	68	19281
2026-01-16 07:13:27.34	324.14	5.86	-51.7	-65.7	3.8	1.49e+00	0	34	104	0	68	19319
2026-01-16 07:13:30.37	323.94	5.66	-51.7	-65.7	3.8	1.49e+00	0	34	104	0	68	19225
2026-01-16 07:13:33.39	323.75	5.46	-51.7	-65.7	3.8	1.49e+00	0	34	104	0	68	19237
2026-01-16 07:13:36.42	323.55	5.26	-51.7	-65.7	3.8	1.49e+00	0	34	104	0	68	19214
2026-01-16 07:13:39.45	323.36	5.07	-51.7	-65.7	3.8	1.49e+00	0	34	104	0	68	19224
2026-01-16 07:13:42.48	323.18	4.87	-51.6	-65.6	3.8	1.49e+00	0	34	104	0	68	19122
2026-01-16 07:13:45.51	322.99	4.68	-51.6	-65.6	3.8	1.49e+00	0	33	104	0	68	19088
2026-01-16 07:13:48.53	322.81	4.48	-51.6	-65.6	3.8	1.49e+00	0	34	104	0	68	19093
2026-01-16 07:13:51.55	322.63	4.29	-51.6	-65.6	3.8	1.49e+00	0	34	104	0	68	19045
2026-01-16 07:13:54.58	322.46	4.10	-51.6	-65.6	3.8	1.49e+00	0	34	104	0	68	19035
2026-01-16 07:13:57.61	322.28	3.91	-51.6	-65.6	3.8	1.49e+00	0	34	104	0	68	18973
2026-01-16 07:14:00.64	322.11	3.72	-51.5	-65.5	3.8	1.49e+00	0	34	104	0	68	18908
2026-01-16 07:14:03.66	321.94	3.53	-51.5	-65.5	3.8	1.49e+00	0	34	104	0	68	18871
2026-01-16 07:14:06.69	321.78	3.34	-51.5	-65.5	3.8	1.49e+00	0	34	104	0	68	18788
2026-01-16 07:14:09.72	321.61	3.15	-51.5	-65.5	3.8	1.49e+00	0	34	104	0	68	18796
2026-01-16 07:14:12.75	321.45	2.97	-51.4	-65.4	3.8	1.49e+00	0	34	104	0	68	18715
2026-01-16 07:14:15.77	321.29	2.78	-51.5	-65.5	3.8	1.49e+00	0	34	104	0	68	18737
2026-01-16 07:14:18.80	321.13	2.60	-51.4	-65.4	3.8	1.49e+00	0	34	104	0	68	18705
2026-01-16 07:14:21.82	320.98	2.42	-51.4	-65.4	3.8	1.49e+00	0	34	104	0	68	18699
2026-01-16 07:14:24.85	320.82	2.24	-51.4	-65.4	3.8	1.49e+00	0	34	104	0	68	18583
2026-01-16 07:14:27.88	320.67	2.05	-51.4	-65.4	3.8	1.49e+00	0	34	104	0	68	18583

#Closed at: 2026-01-16 07:14:30
#Recorded file [0 MB]: D:/lorett/data/31004_260116_100108.dat