passes_logs/2026/01/16/R3.2S_Murmansk_2ch/R3.2S_Murmansk_2ch__20260116_084015_NOAA_21_JPSS-2_rec.log

#Pass ID: 20260116_084015_NOAA 21 (JPSS-2)
#Satellite: NOAA 21 (JPSS-2)
#Configuration: NOAA-21
#almurnet v.1.7.20251203
#Start time: 2026-01-16 08:40:17

#Version: 2.2.20231116
#Station: R3.2S_Murmansk_2ch
#Location: 33.079688 lon 68.888172 lat
#TLE: 1 54234U 22150A   26015.92901934  .00000025  00000+0  32700-4 0  9991
#TLE: 2 54234  98.7499 316.8175 0000634 284.8145  75.2961 14.19534841164946

#Time	Az	El	Level	Level2	SNR	BER	BlckErr	Temp	State	Recorded	gain1	gain2
2026-01-16 08:40:17.44	131.56	2.13	-51.6	-65.6	3.8	1.49e+00	0	31	0	0	68	19037
2026-01-16 08:40:21.48	131.49	2.38	-51.6	-65.6	3.8	1.49e+00	0	31	104	0	68	19030
2026-01-16 08:40:25.52	131.41	2.65	-51.4	-65.4	3.8	1.49e+00	0	31	104	0	68	18700
2026-01-16 08:40:29.55	131.33	2.91	-51.0	-65.0	3.8	1.49e+00	0	31	104	0	68	17851
2026-01-16 08:40:33.59	131.25	3.18	-50.1	-64.0	3.8	1.49e+00	0	32	104	0	66	17780
2026-01-16 08:40:37.62	131.16	3.44	-50.0	-64.0	3.8	1.49e+00	0	32	104	0	66	17739
2026-01-16 08:40:41.66	131.08	3.72	-50.0	-64.0	3.8	1.49e+00	0	32	104	0	66	17749
2026-01-16 08:40:45.70	130.99	3.99	-50.0	-64.0	3.8	1.49e+00	0	32	104	0	66	17704
2026-01-16 08:40:49.73	130.90	4.27	-50.0	-64.0	3.8	1.49e+00	0	32	104	0	66	17731
2026-01-16 08:40:53.77	130.81	4.55	-50.0	-63.9	3.8	1.49e+00	0	32	104	0	66	17631
2026-01-16 08:40:57.81	130.72	4.83	-50.0	-63.9	3.8	1.49e+00	0	32	104	0	66	17661
2026-01-16 08:41:01.85	130.62	5.11	-50.0	-63.9	3.8	1.49e+00	0	32	104	0	66	17672
2026-01-16 08:41:05.88	130.53	5.40	-50.0	-64.0	3.8	1.49e+00	0	32	104	0	66	17709
2026-01-16 08:41:09.92	130.43	5.69	-50.0	-64.0	3.8	1.49e+00	0	32	104	0	66	17698
2026-01-16 08:41:13.96	130.32	5.99	-50.0	-63.9	3.8	1.49e+00	0	32	104	0	66	17668
2026-01-16 08:41:17.99	130.22	6.28	-50.0	-63.9	3.8	1.49e+00	0	32	104	0	66	17666
2026-01-16 08:41:22.03	130.11	6.59	-50.0	-63.9	3.8	1.49e+00	0	33	104	0	66	17669
2026-01-16 08:41:26.07	130.00	6.89	-50.0	-63.9	3.8	1.49e+00	0	32	104	0	66	17677
2026-01-16 08:41:30.11	129.89	7.20	-50.0	-63.9	3.8	1.49e+00	0	33	104	0	66	17623
2026-01-16 08:41:34.14	129.78	7.51	-50.0	-63.9	3.8	1.49e+00	0	33	104	0	66	17667
2026-01-16 08:41:38.18	129.66	7.82	-49.8	-63.9	3.8	1.49e+00	0	33	104	0	66	17619
2026-01-16 08:41:42.21	129.54	8.14	-49.5	-63.9	3.8	1.49e+00	0	33	104	0	65	18644
2026-01-16 08:41:46.25	129.42	8.47	-48.7	-64.0	3.8	1.49e+00	0	33	104	0	63	21089
2026-01-16 08:41:50.28	129.29	8.79	-49.5	-64.3	3.8	1.49e+00	0	33	104	0	64	20694
2026-01-16 08:41:54.32	129.16	9.13	-48.0	-64.2	3.8	1.49e+00	0	33	104	0	62	22802
2026-01-16 08:41:58.36	129.03	9.46	-47.6	-64.1	3.8	1.49e+00	0	33	104	0	61	24036
2026-01-16 08:42:02.40	128.89	9.80	-47.7	-64.2	3.8	1.49e+00	0	33	104	0	61	24318
2026-01-16 08:42:06.43	128.76	10.15	-47.6	-64.2	3.8	1.49e+00	0	33	104	0	61	24396
2026-01-16 08:42:10.47	128.61	10.49	-47.5	-64.3	3.8	1.49e+00	0	33	104	0	61	24594
2026-01-16 08:42:14.51	128.47	10.85	-47.4	-64.4	3.8	1.49e+00	0	33	104	0	61	24731
2026-01-16 08:42:18.54	128.31	11.21	-47.4	-64.4	3.8	1.49e+00	0	33	104	0	61	24941
2026-01-16 08:42:22.58	128.16	11.57	-47.3	-64.5	3.8	1.49e+00	0	33	104	0	61	25021
2026-01-16 08:42:26.62	128.00	11.94	-47.2	-64.5	3.8	1.49e+00	0	33	104	0	60	26659
2026-01-16 08:42:30.66	127.84	12.32	-47.1	-64.6	3.8	1.49e+00	0	33	104	0	60	26803
2026-01-16 08:42:34.69	127.67	12.70	-47.0	-64.6	3.8	1.49e+00	0	33	104	0	60	26970
2026-01-16 08:42:38.73	127.50	13.08	-47.0	-64.6	3.8	1.49e+00	0	33	104	0	60	27006
2026-01-16 08:42:42.77	127.32	13.48	-46.9	-64.6	3.8	1.49e+00	0	33	104	0	60	26977
2026-01-16 08:42:46.80	127.14	13.87	-46.8	-64.7	3.8	1.49e+00	0	33	104	0	60	27133
2026-01-16 08:42:50.84	126.95	14.28	-46.8	-64.7	3.8	1.49e+00	0	33	104	0	60	27256
2026-01-16 08:42:54.88	126.75	14.69	-46.8	-64.7	3.8	1.49e+00	0	33	104	0	60	27329
2026-01-16 08:42:58.91	126.55	15.11	-46.7	-64.8	3.8	1.49e+00	0	33	104	0	60	27485
2026-01-16 08:43:02.95	126.35	15.53	-46.8	-65.2	3.8	1.49e+00	0	33	104	0	59	30595
2026-01-16 08:43:06.99	126.14	15.96	-46.7	-65.3	3.8	1.49e+00	0	33	104	0	59	30741
2026-01-16 08:43:11.02	125.92	16.40	-46.7	-65.3	3.8	1.49e+00	0	33	104	0	59	30885
2026-01-16 08:43:15.06	125.69	16.85	-46.6	-65.3	3.8	1.49e+00	0	33	104	0	59	30832
2026-01-16 08:43:19.10	125.46	17.30	-46.4	-65.3	3.8	1.49e+00	0	33	104	0	59	30933
2026-01-16 08:43:23.14	125.22	17.76	-46.3	-65.3	3.8	1.49e+00	0	33	104	0	59	31067
2026-01-16 08:43:27.17	124.97	18.23	-46.1	-65.4	3.8	1.49e+00	0	33	104	0	58	33045
2026-01-16 08:43:31.21	124.71	18.71	-46.2	-65.4	3.8	1.49e+00	0	33	104	0	58	33188
2026-01-16 08:43:35.25	124.45	19.20	-46.0	-65.4	3.8	1.49e+00	0	33	104	0	58	33183
2026-01-16 08:43:39.28	124.17	19.70	-45.9	-65.4	3.8	1.49e+00	0	33	104	0	58	33267
2026-01-16 08:43:43.32	123.89	20.20	-45.9	-65.5	3.8	1.49e+00	0	33	104	0	58	33316
2026-01-16 08:43:47.36	123.60	20.72	-45.7	-65.5	3.8	1.49e+00	0	33	104	0	58	33449
2026-01-16 08:43:51.39	123.29	21.25	-45.8	-65.5	3.8	1.49e+00	0	33	104	0	58	33493
2026-01-16 08:43:55.43	122.98	21.78	-45.8	-65.5	3.8	1.49e+00	0	33	104	0	58	33598
2026-01-16 08:43:59.47	122.65	22.33	-46.1	-65.6	3.8	1.49e+00	0	33	104	0	58	33782
2026-01-16 08:44:03.51	122.31	22.89	-46.2	-65.6	3.8	1.49e+00	0	33	104	0	58	33755
2026-01-16 08:44:07.54	121.96	23.45	-46.2	-65.6	3.8	1.49e+00	0	33	104	0	58	33957
2026-01-16 08:44:11.58	121.59	24.03	-46.2	-65.6	3.8	1.49e+00	0	33	104	0	58	33855
2026-01-16 08:44:15.62	121.21	24.63	-46.5	-65.6	3.8	1.49e+00	0	33	104	0	58	33976
2026-01-16 08:44:19.65	120.81	25.23	-46.6	-65.7	3.8	1.49e+00	0	33	104	0	58	34107
2026-01-16 08:44:23.69	120.40	25.85	-46.6	-65.6	3.8	1.49e+00	0	33	104	0	58	34083
2026-01-16 08:44:27.73	119.97	26.47	-46.9	-65.7	3.8	1.49e+00	0	34	104	0	58	34105
2026-01-16 08:44:31.77	119.53	27.12	-46.8	-65.7	3.8	1.49e+00	0	34	104	0	59	32290
2026-01-16 08:44:35.80	119.06	27.77	-46.7	-65.7	3.8	1.49e+00	0	33	104	0	59	32363
2026-01-16 08:44:39.84	118.58	28.44	-46.5	-65.7	3.8	1.49e+00	0	33	104	0	59	32426
2026-01-16 08:44:43.88	118.07	29.12	-46.7	-65.7	3.8	1.49e+00	0	33	104	0	59	32498
2026-01-16 08:44:47.91	117.54	29.82	-46.0	-65.8	3.8	1.49e+00	0	34	104	0	58	34485
2026-01-16 08:44:51.95	116.99	30.53	-45.8	-65.8	3.8	1.49e+00	0	34	104	0	58	34543
2026-01-16 08:44:55.99	116.41	31.26	-45.7	-65.8	3.8	1.49e+00	0	33	104	0	58	34697
2026-01-16 08:45:00.02	115.80	32.00	-45.4	-65.8	3.8	1.49e+00	0	33	104	0	57	36668
2026-01-16 08:45:04.06	115.16	32.75	-44.8	-65.8	3.8	1.49e+00	0	34	104	0	56	38990
2026-01-16 08:45:08.09	114.50	33.52	-44.8	-65.8	3.8	1.49e+00	0	33	104	0	56	39072
2026-01-16 08:45:12.13	113.80	34.31	-44.3	-65.7	3.8	1.49e+00	0	33	104	0	55	40752
2026-01-16 08:45:16.17	113.06	35.11	-44.1	-65.7	3.8	1.49e+00	0	33	104	0	54	43343
2026-01-16 08:45:20.21	112.29	35.92	-43.9	-65.7	3.8	1.49e+00	0	33	104	0	54	43370
2026-01-16 08:45:24.24	111.47	36.75	-43.3	-65.7	3.8	1.49e+00	0	33	104	0	53	45936
2026-01-16 08:45:28.28	110.61	37.60	-43.6	-65.7	3.8	1.49e+00	0	33	104	0	52	48702
2026-01-16 08:45:32.32	109.71	38.46	-43.1	-65.8	3.8	1.49e+00	0	33	104	0	52	48846
2026-01-16 08:45:36.36	108.75	39.33	-42.7	-65.8	3.8	1.49e+00	0	33	104	0	52	48841
2026-01-16 08:45:40.39	107.75	40.21	-42.6	-65.8	3.8	1.49e+00	0	34	104	0	51	52159
2026-01-16 08:45:44.43	106.68	41.11	-42.8	-65.9	3.8	1.49e+00	0	33	104	0	51	52327
2026-01-16 08:45:48.47	105.55	42.01	-42.7	-65.9	3.8	1.49e+00	0	33	104	0	51	52381
2026-01-16 08:45:52.50	104.36	42.93	-43.0	-65.9	3.8	1.49e+00	0	34	104	0	51	52431
2026-01-16 08:45:56.54	103.10	43.85	-42.4	-65.9	3.8	1.49e+00	0	34	104	0	51	52430
2026-01-16 08:46:00.58	101.76	44.78	-42.6	-65.9	3.8	1.49e+00	0	33	104	0	51	52552
2026-01-16 08:46:04.62	100.34	45.71	-42.6	-65.9	3.8	1.49e+00	0	33	104	0	51	52511
2026-01-16 08:46:08.65	98.83	46.64	-42.8	-65.9	3.8	1.49e+00	0	33	104	0	51	52315
2026-01-16 08:46:12.69	97.23	47.57	-42.6	-65.9	3.8	1.49e+00	0	33	104	0	51	52479
2026-01-16 08:46:16.72	95.53	48.49	-42.9	-65.9	3.8	1.49e+00	0	33	104	0	51	52506
2026-01-16 08:46:20.76	93.73	49.40	-42.7	-66.0	3.8	1.49e+00	0	34	104	0	51	52970
2026-01-16 08:46:24.80	91.81	50.30	-42.3	-66.0	3.8	1.49e+00	0	33	104	0	51	53126
2026-01-16 08:46:28.83	89.78	51.18	-43.0	-66.0	3.8	1.49e+00	0	34	104	0	51	52943
2026-01-16 08:46:32.87	87.63	52.03	-42.8	-66.0	3.8	1.49e+00	0	34	104	0	51	52944
2026-01-16 08:46:36.91	85.35	52.86	-42.5	-66.0	3.8	1.49e+00	0	34	104	0	51	52985
2026-01-16 08:46:40.94	82.95	53.65	-42.6	-66.0	3.8	1.49e+00	0	33	104	0	51	53113
2026-01-16 08:46:44.98	80.41	54.39	-42.8	-66.0	3.8	1.49e+00	0	34	104	0	51	52997
2026-01-16 08:46:49.02	77.73	55.09	-43.2	-66.0	3.8	1.49e+00	0	34	104	0	51	52887
2026-01-16 08:46:53.05	74.94	55.73	-43.4	-65.9	3.8	1.49e+00	0	34	104	0	52	49740
2026-01-16 08:46:57.09	72.01	56.30	-43.3	-65.9	3.8	1.49e+00	0	33	104	0	52	49719
2026-01-16 08:47:01.12	68.98	56.81	-43.6	-65.9	3.8	1.49e+00	0	34	104	0	52	49592
2026-01-16 08:47:05.16	65.83	57.23	-43.5	-65.9	3.8	1.49e+00	0	34	104	0	53	46889
2026-01-16 08:47:09.20	62.59	57.58	-44.2	-65.9	3.8	1.49e+00	0	33	104	0	53	46837
2026-01-16 08:47:13.24	59.28	57.84	-44.3	-65.9	3.8	1.49e+00	0	34	104	0	53	46771
2026-01-16 08:47:17.27	55.92	58.01	-44.8	-65.9	3.8	1.49e+00	0	34	104	0	54	44327
2026-01-16 08:47:21.31	52.53	58.08	-45.1	-65.9	3.8	1.49e+00	0	33	104	0	55	41807
2026-01-16 08:47:25.35	49.13	58.06	-45.6	-66.1	3.8	1.49e+00	0	34	104	0	56	40224
2026-01-16 08:47:29.39	45.74	57.94	-45.6	-66.1	3.8	1.49e+00	0	34	104	0	56	40059
2026-01-16 08:47:33.42	42.41	57.73	-45.7	-66.1	3.8	1.49e+00	0	34	104	0	56	40161
2026-01-16 08:47:37.46	39.13	57.44	-46.2	-66.1	3.8	1.49e+00	0	34	104	0	57	37814
2026-01-16 08:47:41.50	35.93	57.05	-46.1	-66.0	3.8	1.49e+00	0	34	104	0	57	37678
2026-01-16 08:47:45.54	32.83	56.59	-46.0	-66.0	3.8	1.49e+00	0	34	104	0	57	37697
2026-01-16 08:47:49.57	29.85	56.05	-46.3	-66.0	3.8	1.49e+00	0	34	104	0	57	37667
2026-01-16 08:47:53.61	26.98	55.45	-46.3	-66.0	3.8	1.49e+00	0	34	104	0	57	37483
2026-01-16 08:47:57.65	24.24	54.78	-46.3	-66.0	3.8	1.49e+00	0	34	104	0	58	35498
2026-01-16 08:48:01.68	21.64	54.07	-46.4	-66.0	3.8	1.49e+00	0	34	104	0	58	35446
2026-01-16 08:48:05.72	19.16	53.30	-46.4	-65.9	3.8	1.49e+00	0	34	104	0	58	35263
2026-01-16 08:48:09.76	16.81	52.50	-46.3	-65.9	3.8	1.49e+00	0	34	104	0	58	35140
2026-01-16 08:48:13.80	14.59	51.66	-46.1	-65.9	3.8	1.49e+00	0	34	104	0	58	34999
2026-01-16 08:48:17.83	12.50	50.80	-46.0	-65.9	3.8	1.49e+00	0	34	104	0	58	34966
2026-01-16 08:48:21.87	10.53	49.91	-46.0	-65.9	3.8	1.49e+00	0	34	104	0	58	34899
2026-01-16 08:48:25.91	8.66	49.01	-46.1	-65.8	3.8	1.49e+00	0	34	104	0	58	34696
2026-01-16 08:48:29.94	6.91	48.09	-46.0	-65.8	3.8	1.49e+00	0	34	104	0	58	34670
2026-01-16 08:48:33.98	5.26	47.17	-51.3	-65.3	3.8	1.49e+00	0	34	104	0	67	19407
2026-01-16 08:48:38.02	3.70	46.24	-51.2	-65.2	3.8	1.49e+00	0	33	104	0	67	19313
2026-01-16 08:48:42.05	2.24	45.31	-51.2	-65.2	3.8	1.49e+00	0	34	104	0	67	19323
2026-01-16 08:48:46.09	0.86	44.39	-51.2	-65.2	3.8	1.49e+00	0	34	104	0	67	19250
2026-01-16 08:48:50.13	359.56	43.46	-51.2	-65.1	3.8	1.49e+00	0	34	104	0	67	19163
2026-01-16 08:48:54.17	358.33	42.55	-51.1	-65.1	3.8	1.49e+00	0	34	104	0	67	19065
2026-01-16 08:48:58.20	357.17	41.64	-51.1	-65.1	3.8	1.49e+00	0	34	104	0	67	19061
2026-01-16 08:49:02.24	356.07	40.74	-51.1	-65.0	3.8	1.49e+00	0	34	104	0	67	18914
2026-01-16 08:49:06.27	355.03	39.85	-51.0	-65.0	3.8	1.49e+00	0	34	104	0	67	18881
2026-01-16 08:49:10.31	354.05	38.98	-51.0	-65.0	3.8	1.49e+00	0	34	104	0	67	18742
2026-01-16 08:49:14.34	353.12	38.11	-51.0	-64.9	3.8	1.49e+00	0	34	104	0	67	18629
2026-01-16 08:49:18.38	352.24	37.26	-50.9	-64.9	3.8	1.49e+00	0	34	104	0	67	18537
2026-01-16 08:49:22.42	351.41	36.43	-50.9	-64.8	3.8	1.49e+00	0	34	104	0	67	18506
2026-01-16 08:49:26.45	350.61	35.61	-50.8	-64.8	3.8	1.49e+00	0	33	104	0	67	18362
2026-01-16 08:49:30.49	349.86	34.80	-50.8	-64.7	3.8	1.49e+00	0	34	104	0	67	18254
2026-01-16 08:49:34.53	349.14	34.01	-50.7	-64.7	3.8	1.49e+00	0	34	104	0	67	18212
2026-01-16 08:49:38.56	348.46	33.23	-50.7	-64.7	3.8	1.49e+00	0	34	104	0	67	18115
2026-01-16 08:49:42.60	347.80	32.47	-50.7	-64.6	3.8	1.49e+00	0	33	104	0	67	17979
2026-01-16 08:49:46.64	347.18	31.73	-50.6	-64.6	3.8	1.49e+00	0	34	104	0	67	17921
2026-01-16 08:49:50.67	346.59	30.99	-50.6	-64.5	3.8	1.49e+00	0	34	104	0	67	17840
2026-01-16 08:49:54.71	346.02	30.28	-50.5	-64.5	3.8	1.49e+00	0	34	104	0	67	17755
2026-01-16 08:49:58.75	345.48	29.57	-50.5	-64.4	3.8	1.49e+00	0	33	104	0	67	17649
2026-01-16 08:50:02.78	344.97	28.89	-50.5	-64.4	3.8	1.49e+00	0	34	104	0	67	17631
2026-01-16 08:50:06.82	344.47	28.21	-50.4	-64.4	3.8	1.49e+00	0	34	104	0	67	17514
2026-01-16 08:50:10.86	343.99	27.55	-50.4	-64.3	3.8	1.49e+00	0	34	104	0	67	17401
2026-01-16 08:50:14.90	343.54	26.90	-50.3	-64.2	3.8	1.49e+00	0	34	104	0	67	17254
2026-01-16 08:50:18.94	343.10	26.27	-50.2	-64.1	3.8	1.49e+00	0	34	104	0	66	17949
2026-01-16 08:50:22.97	342.68	25.65	-50.0	-63.9	3.8	1.49e+00	0	34	104	0	66	17548
2026-01-16 08:50:27.01	342.28	25.04	-49.3	-63.2	3.8	1.49e+00	0	34	104	0	65	17266
2026-01-16 08:50:31.04	341.89	24.44	-49.4	-63.3	3.8	1.49e+00	0	34	104	0	64	18334
2026-01-16 08:50:35.08	341.52	23.86	-49.8	-63.7	3.8	1.49e+00	0	34	104	0	65	18287
2026-01-16 08:50:39.11	341.16	23.28	-49.8	-63.7	3.8	1.49e+00	0	34	104	0	65	18296
2026-01-16 08:50:43.15	340.82	22.72	-51.2	-64.9	3.8	1.49e+00	0	34	104	0	67	18603
2026-01-16 08:50:47.19	340.49	22.17	-51.8	-65.8	3.8	1.49e+00	0	34	104	0	68	19393
2026-01-16 08:50:51.23	340.17	21.63	-52.0	-65.9	3.8	1.49e+00	0	34	104	0	69	18728
2026-01-16 08:50:55.27	339.86	21.10	-52.0	-66.0	3.8	1.49e+00	0	34	104	0	69	18867
2026-01-16 08:50:59.31	339.56	20.58	-52.0	-66.0	3.8	1.49e+00	0	34	104	0	69	18828
2026-01-16 08:51:03.35	339.27	20.07	-51.9	-65.9	3.8	1.49e+00	0	33	104	0	69	18621
2026-01-16 08:51:07.38	338.99	19.57	-51.9	-65.9	3.8	1.49e+00	0	34	104	0	69	18545
2026-01-16 08:51:11.42	338.72	19.08	-51.8	-65.9	3.8	1.49e+00	0	34	104	0	69	18542
2026-01-16 08:51:15.46	338.46	18.59	-51.9	-65.9	3.8	1.49e+00	0	34	104	0	69	18588
2026-01-16 08:51:19.49	338.21	18.12	-51.8	-65.8	3.8	1.49e+00	0	34	104	0	69	18407
2026-01-16 08:51:23.53	337.97	17.65	-51.8	-65.8	3.8	1.49e+00	0	34	104	0	69	18374
2026-01-16 08:51:27.57	337.73	17.19	-51.7	-65.8	3.8	1.49e+00	0	34	104	0	69	18326
2026-01-16 08:51:31.60	337.51	16.75	-51.7	-65.7	3.8	1.49e+00	0	34	104	0	69	18254
2026-01-16 08:51:35.64	337.29	16.30	-51.7	-65.7	3.8	1.49e+00	0	34	104	0	69	18196
2026-01-16 08:51:39.68	337.07	15.87	-51.7	-65.7	3.8	1.49e+00	0	34	104	0	69	18281
2026-01-16 08:51:43.71	336.87	15.44	-51.7	-65.7	3.8	1.49e+00	0	34	104	0	69	18277
2026-01-16 08:51:47.75	336.66	15.02	-51.7	-65.7	3.8	1.49e+00	0	34	104	0	69	18140
2026-01-16 08:51:51.79	336.47	14.61	-51.7	-65.7	3.8	1.49e+00	0	34	104	0	69	18235
2026-01-16 08:51:55.82	336.28	14.20	-51.7	-65.7	3.8	1.49e+00	0	34	104	0	69	18198
2026-01-16 08:51:59.86	336.10	13.80	-51.7	-65.7	3.8	1.49e+00	0	34	104	0	69	18148
2026-01-16 08:52:03.90	335.92	13.40	-51.7	-65.7	3.8	1.49e+00	0	34	104	0	69	18127
2026-01-16 08:52:07.94	335.74	13.01	-51.7	-65.7	3.8	1.49e+00	0	34	104	0	69	18186
2026-01-16 08:52:11.97	335.57	12.63	-51.6	-65.7	3.8	1.49e+00	0	34	104	0	69	18098
2026-01-16 08:52:16.01	335.41	12.26	-51.7	-65.6	3.8	1.49e+00	0	34	104	0	69	18059
2026-01-16 08:52:20.05	335.25	11.88	-51.7	-65.7	3.8	1.49e+00	0	34	104	0	69	18138
2026-01-16 08:52:24.08	335.10	11.52	-51.7	-65.7	3.8	1.49e+00	0	34	104	0	69	18104
2026-01-16 08:52:28.12	334.95	11.16	-51.6	-65.6	3.8	1.49e+00	0	34	104	0	69	18093
2026-01-16 08:52:32.16	334.80	10.80	-51.6	-65.7	3.8	1.49e+00	0	34	104	0	69	18116
2026-01-16 08:52:36.19	334.66	10.45	-51.6	-65.6	3.8	1.49e+00	0	34	104	0	69	18038
2026-01-16 08:52:40.23	334.52	10.10	-51.6	-65.7	3.8	1.49e+00	0	34	104	0	69	18113
2026-01-16 08:52:44.27	334.38	9.76	-51.6	-65.7	3.8	1.49e+00	0	34	104	0	69	18113
2026-01-16 08:52:48.30	334.25	9.42	-51.6	-65.6	3.8	1.49e+00	0	34	104	0	69	18052
2026-01-16 08:52:52.34	334.12	9.09	-51.6	-65.7	3.8	1.49e+00	0	34	104	0	69	18118
2026-01-16 08:52:56.38	333.99	8.76	-51.6	-65.6	3.8	1.49e+00	0	34	104	0	69	18087
2026-01-16 08:53:00.41	333.87	8.44	-51.6	-65.6	3.8	1.49e+00	0	34	104	0	69	18079
2026-01-16 08:53:04.45	333.75	8.11	-51.6	-65.6	3.8	1.49e+00	0	34	104	0	69	18071
2026-01-16 08:53:08.49	333.64	7.80	-51.6	-65.6	3.8	1.49e+00	0	34	104	0	69	18073
2026-01-16 08:53:12.52	333.52	7.49	-51.6	-65.6	3.8	1.49e+00	0	34	104	0	69	18083
2026-01-16 08:53:16.56	333.41	7.18	-51.6	-65.6	3.8	1.49e+00	0	34	104	0	69	18029
2026-01-16 08:53:20.60	333.30	6.87	-51.6	-65.6	3.8	1.49e+00	0	34	104	0	69	18081
2026-01-16 08:53:24.63	333.20	6.57	-51.6	-65.6	3.8	1.49e+00	0	34	104	0	69	18069
2026-01-16 08:53:28.67	333.10	6.27	-51.6	-65.6	3.8	1.49e+00	0	34	104	0	69	18047
2026-01-16 08:53:32.71	333.00	5.97	-51.6	-65.6	3.8	1.49e+00	0	34	104	0	69	18070
2026-01-16 08:53:36.75	332.90	5.68	-51.6	-65.6	3.8	1.49e+00	0	34	104	0	69	18021
2026-01-16 08:53:40.78	332.80	5.39	-51.6	-65.6	3.8	1.49e+00	0	34	104	0	69	18092
2026-01-16 08:53:44.82	332.71	5.10	-51.6	-65.6	3.8	1.49e+00	0	34	104	0	69	18048
2026-01-16 08:53:48.86	332.62	4.82	-51.6	-65.6	3.8	1.49e+00	0	34	104	0	69	18078
2026-01-16 08:53:52.90	332.53	4.54	-51.6	-65.6	3.8	1.49e+00	0	34	104	0	69	18039
2026-01-16 08:53:56.93	332.44	4.26	-51.6	-65.6	3.8	1.49e+00	0	34	104	0	69	18028
2026-01-16 08:54:00.97	332.35	3.99	-51.6	-65.6	3.8	1.49e+00	0	34	104	0	69	18060
2026-01-16 08:54:05.01	332.27	3.71	-51.6	-65.6	3.8	1.49e+00	0	34	104	0	69	18035
2026-01-16 08:54:09.04	332.19	3.45	-51.6	-65.6	3.8	1.49e+00	0	34	104	0	69	18013
2026-01-16 08:54:13.08	332.11	3.18	-51.6	-65.6	3.8	1.49e+00	0	34	104	0	69	18016
2026-01-16 08:54:17.12	332.03	2.91	-51.6	-65.6	3.8	1.49e+00	0	34	104	0	69	18035
2026-01-16 08:54:21.15	331.95	2.65	-51.6	-65.6	3.8	1.49e+00	0	34	104	0	69	18006
2026-01-16 08:54:25.19	331.88	2.39	-51.6	-65.6	3.8	1.49e+00	0	34	104	0	69	18011
2026-01-16 08:54:29.23	331.81	2.13	-51.6	-65.6	3.8	1.49e+00	0	34	104	0	69	18058

#Closed at: 2026-01-16 08:54:33
#Recorded file [0 MB]: D:/lorett/data/31004_260116_114017.dat