passes_logs/2026/01/16/R3.2S_Murmansk_2ch/R3.2S_Murmansk_2ch__20260116_015130_FENGYUN_3D_rec.log

#Pass ID: 20260116_015130_FENGYUN 3D
#Satellite: FENGYUN 3D
#Configuration: FENGYUN 3D
#almurnet v.1.7.20251203
#Start time: 2026-01-16 01:51:30

#Version: 2.2.20231116
#Station: R3.2S_Murmansk_2ch
#Location: 33.079688 lon 68.888172 lat
#TLE: 1 43010U 17072A   26015.63785617 -.00000279  00000+0 -10998-3 0  9991
#TLE: 2 43010  98.9933 347.4636 0002368 106.7198 253.4237 14.19694313423348

#Time	Az	El	Level	Level2	SNR	BER	BlckErr	Temp	State	Recorded	gain1	gain2
2026-01-16 01:51:30.41	22.16	1.99	-49.5	-61.2	3.8	8.45e-01	0	31	0	0	65	13582
2026-01-16 01:51:34.44	22.28	2.24	-49.3	-58.4	4.5	8.40e-01	0	31	104	0	64	10492
2026-01-16 01:51:38.48	22.41	2.50	-49.4	-59.5	4.2	8.40e-01	0	31	0	0	64	11884
2026-01-16 01:51:42.52	22.53	2.75	-49.1	-57.3	5.0	7.36e-01	0	32	0	0	64	9226
2026-01-16 01:51:46.56	22.65	3.01	-47.9	-52.8	8.4	8.89e-02	0	31	0	18874368	62	6143
2026-01-16 01:51:50.60	22.78	3.28	-48.0	-53.1	8.1	8.32e-02	0	32	0	41943040	62	6393
2026-01-16 01:51:54.63	22.91	3.54	-47.2	-51.1	10.3	5.48e-04	0	32	0	65011712	59	6007
2026-01-16 01:51:58.67	23.04	3.81	-44.5	-46.7	13.5	0.00e+00	0	32	0	87031808	54	4855
2026-01-16 01:52:02.71	23.17	4.08	-43.3	-45.2	14.5	0.00e+00	0	32	0	110100480	52	4565
2026-01-16 01:52:06.75	23.31	4.35	-44.8	-47.1	13.3	0.00e+00	0	32	0	132120576	54	5090
2026-01-16 01:52:10.78	23.45	4.62	-47.0	-50.6	10.8	4.50e-04	0	32	0	155189248	59	5676
2026-01-16 01:52:14.82	23.59	4.90	-47.9	-52.9	8.4	2.75e-02	0	32	0	178257920	61	6583
2026-01-16 01:52:18.86	23.73	5.18	-49.2	-58.3	4.5	7.12e-01	0	32	0	199229440	63	10961
2026-01-16 01:52:22.90	23.87	5.46	-45.2	-47.4	13.4	3.23e-02	0	32	0	217055232	57	4438
2026-01-16 01:52:26.93	24.02	5.75	-44.8	-47.0	13.7	0.00e+00	0	32	0	240123904	55	4739
2026-01-16 01:52:30.97	24.17	6.04	-43.9	-45.7	14.5	0.00e+00	0	32	0	263192576	53	4588
2026-01-16 01:52:35.01	24.32	6.33	-43.0	-44.6	15.1	0.00e+00	0	33	0	285212672	52	4278
2026-01-16 01:52:39.05	24.47	6.62	-42.3	-43.9	15.6	0.00e+00	0	32	0	308281344	51	4155
2026-01-16 01:52:43.09	24.63	6.92	-42.2	-43.7	15.7	0.00e+00	0	33	0	331350016	50	4296
2026-01-16 01:52:47.12	24.79	7.22	-41.8	-43.3	15.8	0.00e+00	0	32	0	353370112	49	4342
2026-01-16 01:52:51.16	24.95	7.53	-41.9	-43.3	15.8	0.00e+00	0	32	0	376438784	49	4379
2026-01-16 01:52:55.20	25.12	7.84	-41.8	-43.3	15.9	0.00e+00	0	32	0	398458880	49	4345
2026-01-16 01:52:59.24	25.29	8.15	-41.3	-42.7	16.1	0.00e+00	0	33	0	421527552	49	4075
2026-01-16 01:53:03.28	25.46	8.46	-41.5	-42.9	16.0	0.00e+00	0	33	0	444596224	49	4172
2026-01-16 01:53:07.31	25.64	8.78	-41.4	-42.7	16.1	0.00e+00	0	33	0	467664896	49	4095
2026-01-16 01:53:11.35	25.82	9.11	-41.5	-42.8	16.1	0.00e+00	0	33	0	489684992	49	4137
2026-01-16 01:53:15.38	26.00	9.44	-41.7	-43.1	16.0	0.00e+00	0	33	0	512753664	49	4243
2026-01-16 01:53:19.42	26.19	9.77	-41.5	-42.9	16.1	0.00e+00	0	33	0	535822336	49	4173
2026-01-16 01:53:23.46	26.38	10.10	-41.4	-42.7	16.2	0.00e+00	0	33	0	557842432	48	4337
2026-01-16 01:53:27.50	26.58	10.44	-41.1	-42.5	16.3	0.00e+00	0	33	0	580911104	48	4209
2026-01-16 01:53:31.53	26.77	10.79	-41.2	-42.6	16.3	0.00e+00	0	33	0	602931200	48	4243
2026-01-16 01:53:35.57	26.98	11.14	-40.9	-42.2	16.4	0.00e+00	0	33	0	625999872	48	4090
2026-01-16 01:53:39.61	27.19	11.49	-40.8	-42.1	16.5	0.00e+00	0	33	0	649068544	48	4027
2026-01-16 01:53:43.65	27.40	11.85	-40.8	-42.1	16.5	0.00e+00	0	33	0	671088640	48	4024
2026-01-16 01:53:47.69	27.62	12.22	-40.8	-42.1	16.6	0.00e+00	0	33	0	694157312	48	4013
2026-01-16 01:53:51.73	27.84	12.59	-40.9	-42.2	16.5	0.00e+00	0	33	0	717225984	48	4080
2026-01-16 01:53:55.77	28.07	12.96	-40.9	-42.2	16.5	0.00e+00	0	33	0	740294656	48	4070
2026-01-16 01:53:59.81	28.30	13.35	-40.8	-42.1	16.6	0.00e+00	0	33	0	762314752	48	4033
2026-01-16 01:54:03.84	28.54	13.73	-40.9	-42.1	16.6	0.00e+00	0	33	0	785383424	48	4037
2026-01-16 01:54:07.88	28.78	14.12	-40.4	-41.6	16.6	0.00e+00	0	33	0	807403520	47	4048
2026-01-16 01:54:11.92	29.03	14.52	-40.5	-41.8	16.5	0.00e+00	0	33	0	830472192	47	4137
2026-01-16 01:54:15.96	29.29	14.93	-40.4	-41.6	16.6	0.00e+00	0	33	0	853540864	47	4045
2026-01-16 01:54:20.00	29.56	15.34	-40.1	-41.3	16.7	0.00e+00	0	33	0	875560960	46	4139
2026-01-16 01:54:24.04	29.83	15.75	-39.8	-41.1	16.8	0.00e+00	0	33	0	898629632	46	4016
2026-01-16 01:54:28.07	30.10	16.18	-39.8	-41.0	16.8	0.00e+00	0	33	0	921698304	46	3985
2026-01-16 01:54:32.07	30.39	16.60	-39.7	-40.9	16.8	0.00e+00	0	33	0	942669824	45	4190
2026-01-16 01:54:36.11	30.68	17.04	-39.4	-40.6	16.9	0.00e+00	0	33	0	965738496	45	4007
2026-01-16 01:54:40.15	30.98	17.49	-39.1	-40.3	16.9	0.00e+00	0	33	0	987758592	44	4116
2026-01-16 01:54:44.19	31.29	17.94	-38.8	-39.9	17.1	0.00e+00	0	33	0	1010827264	44	3934
2026-01-16 01:54:48.23	31.61	18.40	-38.9	-40.1	17.1	0.00e+00	0	33	0	1033895936	44	4023
2026-01-16 01:54:52.27	31.94	18.87	-39.2	-40.3	17.0	0.00e+00	0	33	0	1055916032	44	4142
2026-01-16 01:54:56.31	32.28	19.35	-39.0	-40.2	17.0	0.00e+00	0	33	0	1078984704	44	4075
2026-01-16 01:55:00.35	32.62	19.83	-39.0	-40.2	17.1	0.00e+00	0	33	0	1102053376	44	4056
2026-01-16 01:55:04.38	32.98	20.33	-39.0	-40.2	17.1	0.00e+00	0	33	0	1124073472	44	4058
2026-01-16 01:55:08.42	33.35	20.83	-38.5	-39.6	17.2	0.00e+00	0	33	0	1147142144	43	4037
2026-01-16 01:55:12.46	33.73	21.34	-38.4	-39.5	17.2	0.00e+00	0	33	0	1170210816	43	3987
2026-01-16 01:55:16.50	34.13	21.86	-38.4	-39.5	17.3	0.00e+00	0	33	0	1192230912	43	3966
2026-01-16 01:55:20.53	34.53	22.39	-38.4	-39.5	17.2	0.00e+00	0	33	0	1215299584	43	3974
2026-01-16 01:55:24.57	34.96	22.93	-38.4	-39.5	17.2	0.00e+00	0	33	0	1238368256	43	3980
2026-01-16 01:55:28.61	35.39	23.49	-38.2	-39.3	17.3	0.00e+00	0	33	0	1260388352	43	3913
2026-01-16 01:55:32.65	35.84	24.05	-38.1	-39.2	17.3	0.00e+00	0	33	0	1283457024	42	4087
2026-01-16 01:55:36.69	36.31	24.62	-38.0	-39.1	17.3	0.00e+00	0	33	0	1306525696	42	4045
2026-01-16 01:55:40.72	36.79	25.20	-37.9	-39.0	17.3	0.00e+00	0	33	0	1328545792	42	3959
2026-01-16 01:55:44.76	37.29	25.79	-37.9	-39.0	17.3	0.00e+00	0	33	0	1351614464	42	3995
2026-01-16 01:55:48.80	37.81	26.40	-37.9	-39.0	17.4	0.00e+00	0	33	0	1373634560	42	3970
2026-01-16 01:55:52.84	38.35	27.02	-37.6	-38.6	17.4	0.00e+00	0	33	0	1396703232	41	4043
2026-01-16 01:55:56.88	38.90	27.64	-37.8	-38.8	17.3	0.00e+00	0	33	0	1419771904	41	4142
2026-01-16 01:56:00.92	39.49	28.28	-37.7	-38.8	17.4	0.00e+00	0	33	0	1442840576	41	4105
2026-01-16 01:56:04.96	40.09	28.94	-37.5	-38.6	17.4	0.00e+00	0	33	0	1464860672	41	4006
2026-01-16 01:56:09.00	40.72	29.60	-37.4	-38.5	17.4	0.00e+00	0	33	0	1487929344	41	3976
2026-01-16 01:56:13.04	41.37	30.28	-37.8	-38.8	17.3	0.00e+00	0	33	0	1510998016	41	4142
2026-01-16 01:56:17.08	42.05	30.96	-37.5	-38.6	17.4	0.00e+00	0	33	0	1533018112	41	4035
2026-01-16 01:56:21.11	42.76	31.66	-37.6	-38.7	17.4	0.00e+00	0	33	0	1556086784	41	4054
2026-01-16 01:56:25.15	43.51	32.38	-37.7	-38.8	17.4	0.00e+00	0	33	0	1579155456	41	4106
2026-01-16 01:56:29.19	44.28	33.10	-37.3	-38.4	17.5	0.00e+00	0	33	0	1601175552	41	3927
2026-01-16 01:56:33.23	45.09	33.84	-37.3	-38.3	17.4	0.00e+00	0	33	0	1624244224	40	4124
2026-01-16 01:56:37.27	45.94	34.58	-37.3	-38.4	17.4	0.00e+00	0	33	0	1647312896	40	4174
2026-01-16 01:56:41.30	46.82	35.34	-36.8	-37.9	17.6	0.00e+00	0	33	0	1669332992	40	3924
2026-01-16 01:56:45.34	47.75	36.11	-37.3	-38.4	17.4	0.00e+00	0	33	0	1692401664	40	4159
2026-01-16 01:56:49.38	48.72	36.89	-37.0	-38.1	17.5	0.00e+00	0	33	0	1715470336	40	4023
2026-01-16 01:56:53.42	49.74	37.68	-36.7	-37.7	17.5	0.00e+00	0	33	0	1737490432	39	4098
2026-01-16 01:56:57.46	50.80	38.48	-37.4	-38.5	17.4	0.00e+00	0	33	0	1760559104	39	4469
2026-01-16 01:57:01.49	51.92	39.28	-37.3	-38.3	17.5	0.00e+00	0	33	0	1782579200	40	4122
2026-01-16 01:57:05.53	53.10	40.10	-37.3	-38.4	17.5	0.00e+00	0	33	0	1805647872	40	4153
2026-01-16 01:57:09.57	54.34	40.91	-37.0	-38.1	17.5	0.00e+00	0	33	0	1828716544	40	4010
2026-01-16 01:57:13.61	55.64	41.74	-37.4	-38.4	17.5	0.00e+00	0	33	0	1851785216	40	4182
2026-01-16 01:57:17.64	57.00	42.56	-37.6	-38.7	17.4	0.00e+00	0	33	0	1873805312	40	4318
2026-01-16 01:57:21.68	58.44	43.38	-37.4	-38.5	17.4	0.00e+00	0	33	0	1896873984	40	4201
2026-01-16 01:57:25.72	59.95	44.20	-37.5	-38.6	17.4	0.00e+00	0	33	0	1919942656	40	4271
2026-01-16 01:57:29.76	61.54	45.01	-37.7	-38.8	17.4	0.00e+00	0	33	0	1941962752	40	4361
2026-01-16 01:57:33.80	63.22	45.82	-37.6	-38.7	17.4	0.00e+00	0	33	0	1965031424	40	4293
2026-01-16 01:57:37.83	64.97	46.61	-37.6	-38.7	17.4	0.00e+00	0	33	0	1987051520	40	4310
2026-01-16 01:57:41.87	66.82	47.39	-37.8	-38.9	17.3	0.00e+00	0	33	0	2010120192	40	4401
2026-01-16 01:57:45.91	68.76	48.15	-37.8	-38.9	17.3	0.00e+00	0	33	0	2033188864	40	4410
2026-01-16 01:57:49.95	70.80	48.88	-37.2	-38.2	17.5	0.00e+00	0	33	0	2055208960	40	4084
2026-01-16 01:57:53.99	72.94	49.59	-37.7	-38.8	17.3	0.00e+00	0	33	0	2078277632	40	4383
2026-01-16 01:57:58.03	75.17	50.27	-37.9	-39.0	17.4	0.00e+00	0	33	0	2101346304	41	4207
2026-01-16 01:58:02.07	77.50	50.90	-37.9	-39.0	17.4	0.00e+00	0	33	0	2124414976	41	4229
2026-01-16 01:58:06.11	79.93	51.50	-38.2	-39.3	17.3	0.00e+00	0	33	0	2146435072	41	4379
2026-01-16 01:58:10.14	82.44	52.05	-38.6	-39.7	17.2	0.00e+00	0	33	0	2169503744	42	4311
2026-01-16 01:58:14.18	85.06	52.54	-38.1	-39.2	17.4	0.00e+00	0	33	0	2191523840	42	4097
2026-01-16 01:58:18.22	87.75	52.98	-38.0	-39.0	17.4	0.00e+00	0	33	0	2214592512	42	3995
2026-01-16 01:58:22.26	90.52	53.35	-38.1	-39.2	17.4	0.00e+00	0	33	0	2237661184	42	4082
2026-01-16 01:58:26.30	93.36	53.66	-38.2	-39.3	17.4	0.00e+00	0	33	0	2259681280	42	4105
2026-01-16 01:58:30.34	96.25	53.90	-37.9	-38.9	17.5	0.00e+00	0	33	0	2282749952	42	3945
2026-01-16 01:58:34.38	99.18	54.07	-38.7	-39.8	17.2	0.00e+00	0	33	0	2305818624	42	4372
2026-01-16 01:58:38.41	102.13	54.16	-38.5	-39.7	17.3	0.00e+00	0	33	0	2327838720	42	4295
2026-01-16 01:58:42.45	105.10	54.17	-38.6	-39.7	17.3	0.00e+00	0	33	0	2350907392	42	4331
2026-01-16 01:58:46.49	108.07	54.11	-38.4	-39.5	17.4	0.00e+00	0	33	0	2373976064	43	3987
2026-01-16 01:58:50.53	111.01	53.98	-38.1	-39.2	17.4	0.00e+00	0	33	0	2395996160	42	4065
2026-01-16 01:58:54.57	113.92	53.77	-38.2	-39.3	17.4	0.00e+00	0	33	0	2419064832	42	4117
2026-01-16 01:58:58.61	116.79	53.49	-38.3	-39.4	17.4	0.00e+00	0	33	0	2442133504	42	4146
2026-01-16 01:59:02.65	119.59	53.14	-38.6	-39.7	17.3	0.00e+00	0	34	0	2464153600	42	4294
2026-01-16 01:59:06.68	122.31	52.73	-38.2	-39.2	17.4	0.00e+00	0	33	0	2487222272	42	4096
2026-01-16 01:59:10.72	124.97	52.26	-38.3	-39.4	17.4	0.00e+00	0	33	0	2510290944	42	4152
2026-01-16 01:59:14.76	127.53	51.73	-38.1	-39.2	17.4	0.00e+00	0	34	0	2532311040	42	4087
2026-01-16 01:59:18.80	130.00	51.16	-38.0	-39.1	17.5	0.00e+00	0	33	0	2555379712	42	4033
2026-01-16 01:59:22.84	132.38	50.54	-38.1	-39.2	17.4	0.00e+00	0	34	0	2578448384	42	4056
2026-01-16 01:59:26.88	134.66	49.87	-38.1	-39.2	17.4	0.00e+00	0	34	0	2600468480	42	4082
2026-01-16 01:59:30.91	136.83	49.18	-38.0	-39.0	17.5	0.00e+00	0	33	0	2623537152	42	3996
2026-01-16 01:59:34.95	138.91	48.45	-38.2	-39.2	17.4	0.00e+00	0	33	0	2646605824	42	4079
2026-01-16 01:59:38.99	140.90	47.70	-38.1	-39.2	17.4	0.00e+00	0	33	0	2668625920	42	4061
2026-01-16 01:59:43.03	142.79	46.93	-38.1	-39.1	17.4	0.00e+00	0	34	0	2691694592	42	4050
2026-01-16 01:59:47.07	144.59	46.14	-38.2	-39.3	17.4	0.00e+00	0	34	0	2714763264	42	4135
2026-01-16 01:59:51.10	146.30	45.33	-37.8	-38.9	17.5	0.00e+00	0	34	0	2736783360	42	3915
2026-01-16 01:59:55.14	147.93	44.52	-37.6	-38.7	17.5	0.00e+00	0	33	0	2759852032	41	4074
2026-01-16 01:59:59.18	149.47	43.70	-37.8	-38.9	17.5	0.00e+00	0	33	0	2782920704	41	4168
2026-01-16 02:00:03.22	150.95	42.87	-37.7	-38.7	17.5	0.00e+00	0	34	0	2804940800	41	4080
2026-01-16 02:00:07.26	152.34	42.05	-37.4	-38.5	17.6	0.00e+00	0	33	0	2828009472	41	3976
2026-01-16 02:00:11.30	153.67	41.22	-37.3	-38.4	17.6	0.00e+00	0	33	0	2851078144	41	3919
2026-01-16 02:00:15.34	154.94	40.40	-37.5	-38.5	17.6	0.00e+00	0	33	0	2873098240	41	4004
2026-01-16 02:00:19.38	156.14	39.58	-37.1	-38.1	17.6	0.00e+00	0	34	0	2896166912	40	4020
2026-01-16 02:00:23.41	157.29	38.77	-37.1	-38.2	17.6	0.00e+00	0	33	0	2919235584	40	4068
2026-01-16 02:00:27.45	158.38	37.97	-37.4	-38.5	17.5	0.00e+00	0	34	0	2941255680	40	4213
2026-01-16 02:00:31.49	159.42	37.17	-37.1	-38.1	17.6	0.00e+00	0	33	0	2964324352	40	4049
2026-01-16 02:00:35.53	160.41	36.38	-37.1	-38.1	17.6	0.00e+00	0	34	0	2987393024	40	4029
2026-01-16 02:00:39.57	161.35	35.61	-36.8	-38.0	17.3	0.00e+00	0	33	0	3009413120	40	3982
2026-01-16 02:00:43.62	162.26	34.84	-36.7	-38.0	17.4	0.00e+00	0	33	0	3032481792	40	3975
2026-01-16 02:00:47.66	163.12	34.08	-37.1	-38.4	17.2	0.00e+00	0	33	0	3055550464	40	4156
2026-01-16 02:00:51.69	163.95	33.34	-36.8	-38.0	17.3	0.00e+00	0	33	0	3077570560	40	4000
2026-01-16 02:00:55.73	164.73	32.61	-36.8	-38.1	17.3	0.00e+00	0	33	0	3100639232	40	4019
2026-01-16 02:00:59.77	165.49	31.89	-37.3	-38.6	17.2	0.00e+00	0	33	0	3123707904	40	4287
2026-01-16 02:01:03.81	166.21	31.18	-37.5	-38.8	17.1	0.00e+00	0	33	0	3145728000	40	4349
2026-01-16 02:01:07.84	166.91	30.48	-37.1	-38.3	17.2	0.00e+00	0	33	0	3168796672	40	4138
2026-01-16 02:01:11.88	167.57	29.80	-37.3	-38.6	17.2	0.00e+00	0	33	0	3191865344	40	4269
2026-01-16 02:01:15.92	168.21	29.13	-37.4	-38.8	17.1	0.00e+00	0	33	0	3213885440	40	4343
2026-01-16 02:01:19.96	168.82	28.47	-37.3	-38.6	17.2	0.00e+00	0	33	0	3236954112	40	4274
2026-01-16 02:01:23.99	169.41	27.82	-37.2	-38.5	17.2	0.00e+00	0	33	0	3260022784	40	4216
2026-01-16 02:01:28.03	169.98	27.19	-37.3	-38.6	17.2	0.00e+00	0	33	0	3282042880	40	4248
2026-01-16 02:01:32.07	170.53	26.56	-37.3	-38.6	17.2	0.00e+00	0	34	0	3305111552	40	4276
2026-01-16 02:01:36.11	171.05	25.95	-37.3	-38.5	17.2	0.00e+00	0	34	0	3328180224	40	4239
2026-01-16 02:01:40.14	171.56	25.35	-37.4	-38.7	17.2	0.00e+00	0	33	0	3350200320	40	4311
2026-01-16 02:01:44.18	172.05	24.76	-37.6	-38.9	17.1	0.00e+00	0	34	0	3373268992	40	4401
2026-01-16 02:01:48.22	172.52	24.18	-37.6	-38.9	17.1	0.00e+00	0	34	0	3396337664	40	4421
2026-01-16 02:01:52.26	172.98	23.61	-37.7	-39.0	17.1	0.00e+00	0	34	0	3418357760	40	4448
2026-01-16 02:01:56.30	173.42	23.06	-37.6	-38.9	17.1	0.00e+00	0	34	0	3441426432	40	4434
2026-01-16 02:02:00.33	173.84	22.51	-37.8	-39.2	17.1	0.00e+00	0	33	0	3464495104	40	4548
2026-01-16 02:02:04.37	174.25	21.97	-38.1	-39.5	17.0	0.00e+00	0	33	0	3486515200	41	4454
2026-01-16 02:02:08.41	174.65	21.45	-38.2	-39.5	17.0	0.00e+00	0	33	0	3509583872	41	4489
2026-01-16 02:02:12.45	175.04	20.93	-38.2	-39.5	17.0	0.00e+00	0	33	0	3531603968	41	4488
2026-01-16 02:02:16.49	175.41	20.42	-38.3	-39.6	17.0	0.00e+00	0	34	0	3554672640	41	4536
2026-01-16 02:02:20.52	175.77	19.92	-38.2	-39.6	17.0	0.00e+00	0	33	0	3577741312	41	4508
2026-01-16 02:02:24.55	176.12	19.43	-38.4	-39.8	16.9	0.00e+00	0	33	0	3600809984	42	4342
2026-01-16 02:02:28.59	176.46	18.95	-38.7	-40.0	16.9	0.00e+00	0	33	0	3622830080	42	4480
2026-01-16 02:02:32.63	176.79	18.48	-38.8	-40.1	16.9	0.00e+00	0	33	0	3645898752	42	4532
2026-01-16 02:02:36.67	177.12	18.01	-39.0	-40.4	16.8	0.00e+00	0	33	0	3668967424	43	4394
2026-01-16 02:02:40.70	177.43	17.55	-39.1	-40.5	16.7	0.00e+00	0	34	0	3690987520	43	4444
2026-01-16 02:02:44.74	177.73	17.10	-39.2	-40.6	16.7	0.00e+00	0	34	0	3714056192	43	4539
2026-01-16 02:02:48.78	178.03	16.66	-39.4	-40.8	16.6	0.00e+00	0	33	0	3736076288	43	4648
2026-01-16 02:02:52.82	178.31	16.22	-39.8	-41.2	16.5	0.00e+00	0	34	0	3759144960	44	4584
2026-01-16 02:02:56.86	178.59	15.80	-39.8	-41.3	16.5	0.00e+00	0	33	0	3782213632	44	4623
2026-01-16 02:03:00.89	178.86	15.38	-39.8	-41.3	16.5	0.00e+00	0	34	0	3804233728	44	4630
2026-01-16 02:03:04.93	179.13	14.96	-39.8	-41.3	16.6	0.00e+00	0	34	0	3827302400	45	4361
2026-01-16 02:03:08.97	179.39	14.55	-39.8	-41.3	16.6	0.00e+00	0	33	0	3850371072	45	4366
2026-01-16 02:03:13.01	179.64	14.15	-39.9	-41.4	16.5	0.00e+00	0	33	0	3873439744	45	4428
2026-01-16 02:03:17.04	179.88	13.75	-40.0	-41.5	16.4	0.00e+00	0	34	0	3895459840	45	4485
2026-01-16 02:03:21.08	180.12	13.36	-40.2	-41.7	16.4	0.00e+00	0	34	0	3918528512	45	4582
2026-01-16 02:03:25.12	180.36	12.98	-40.5	-42.1	16.3	0.00e+00	0	34	0	3940548608	46	4510
2026-01-16 02:03:29.16	180.58	12.60	-40.6	-42.2	16.2	0.00e+00	0	34	0	3963617280	46	4572
2026-01-16 02:03:33.19	180.81	12.23	-40.7	-42.3	16.2	0.00e+00	0	33	0	3986685952	46	4629
2026-01-16 02:03:37.24	181.02	11.86	-40.7	-42.3	16.2	0.00e+00	0	34	0	4008706048	46	4623
2026-01-16 02:03:41.27	181.24	11.50	-41.0	-42.6	16.1	0.00e+00	0	34	0	4031774720	47	4499
2026-01-16 02:03:45.31	181.44	11.14	-40.9	-42.5	16.1	0.00e+00	0	34	0	4054843392	47	4447
2026-01-16 02:03:49.35	181.65	10.79	-41.0	-42.6	16.1	0.00e+00	0	33	0	4076863488	47	4529
2026-01-16 02:03:53.39	181.85	10.44	-41.2	-42.8	16.0	0.00e+00	0	33	0	4099932160	47	4601
2026-01-16 02:03:57.42	182.04	10.10	-41.3	-42.9	15.9	0.00e+00	0	34	0	4123000832	47	4671
2026-01-16 02:04:01.46	182.23	9.76	-41.3	-42.9	15.9	0.00e+00	0	34	0	4145020928	47	4687
2026-01-16 02:04:05.50	182.42	9.42	-41.3	-42.9	15.9	0.00e+00	0	34	0	4168089600	47	4664
2026-01-16 02:04:09.54	182.60	9.09	-41.3	-42.9	15.9	0.00e+00	0	33	0	4191158272	47	4686
2026-01-16 02:04:13.58	182.78	8.76	-41.8	-43.4	15.9	0.00e+00	0	33	0	4213178368	48	4674
2026-01-16 02:04:17.61	182.95	8.44	-41.8	-43.4	15.8	0.00e+00	0	33	0	4236247040	48	4673
2026-01-16 02:04:21.65	183.12	8.12	-41.6	-43.2	15.9	0.00e+00	0	33	0	4259315712	48	4572
2026-01-16 02:04:25.69	183.29	7.81	-41.9	-43.5	15.8	0.00e+00	0	33	0	4281335808	49	4467
2026-01-16 02:04:29.73	183.46	7.50	-42.3	-44.0	15.5	0.00e+00	0	33	0	4304404480	49	4748
2026-01-16 02:04:33.77	183.62	7.19	-42.7	-44.5	15.3	0.00e+00	0	34	0	4327473152	50	4723
2026-01-16 02:04:37.80	183.78	6.89	-42.0	-43.6	15.7	0.00e+00	0	33	0	4349493248	50	4272
2026-01-16 02:04:41.84	183.93	6.59	-42.2	-44.0	15.5	0.00e+00	0	33	0	4372561920	50	4450
2026-01-16 02:04:45.88	184.08	6.29	-42.2	-44.0	15.5	0.00e+00	0	33	0	4395630592	50	4452
2026-01-16 02:04:49.92	184.24	5.99	-42.4	-44.2	15.4	0.00e+00	0	34	0	4417650688	50	4548
2026-01-16 02:04:53.96	184.38	5.70	-42.8	-44.6	15.1	0.00e+00	0	33	0	4440719360	50	4793
2026-01-16 02:04:57.99	184.53	5.42	-42.6	-44.5	15.2	0.00e+00	0	33	0	4463788032	51	4442
2026-01-16 02:05:02.03	184.67	5.13	-42.9	-44.8	15.0	0.00e+00	0	33	0	4485808128	51	4640
2026-01-16 02:05:06.07	184.81	4.85	-51.0	-64.2	3.8	8.46e-01	0	33	104	4497342464	67	17160
2026-01-16 02:05:10.11	184.95	4.57	-51.6	-64.9	3.8	8.46e-01	0	33	104	4497342464	68	17498
2026-01-16 02:05:14.15	185.08	4.29	-51.8	-65.0	3.8	8.46e-01	0	34	104	4497342464	68	17865
2026-01-16 02:05:18.18	185.21	4.02	-51.9	-65.2	3.8	8.46e-01	0	34	104	4497342464	68	18180
2026-01-16 02:05:22.22	185.34	3.75	-51.9	-65.2	3.8	8.46e-01	0	34	104	4497342464	69	17192
2026-01-16 02:05:26.25	185.47	3.48	-51.9	-65.2	3.8	8.47e-01	0	33	104	4497342464	69	17159
2026-01-16 02:05:30.29	185.60	3.21	-51.9	-65.1	3.8	8.45e-01	0	34	104	4497342464	69	17077
2026-01-16 02:05:34.33	185.72	2.95	-51.9	-65.1	3.8	8.45e-01	0	34	104	4497342464	69	17018
2026-01-16 02:05:38.37	185.85	2.69	-51.8	-65.1	3.8	8.46e-01	0	33	104	4497342464	69	17000
2026-01-16 02:05:42.41	185.97	2.43	-51.8	-65.1	3.8	8.47e-01	0	34	104	4497342464	69	17037
2026-01-16 02:05:46.45	186.09	2.17	-51.8	-65.1	3.8	8.46e-01	0	34	104	4497342464	69	17016

#Closed at: 2026-01-16 02:05:49
#Recorded file [4497 MB]: D:/lorett/data/31004_260116_045130.dat