passes_logs/2026/01/16/R3.2S_Murmansk_2ch/R3.2S_Murmansk_2ch__20260116_011322_NOAA_20_JPSS-1_rec.log

#Pass ID: 20260116_011322_NOAA 20 (JPSS-1)
#Satellite: NOAA 20 (JPSS-1)
#Configuration: NOAA 20
#almurnet v.1.7.20251203
#Start time: 2026-01-16 01:13:24

#Version: 2.2.20231116
#Station: R3.2S_Murmansk_2ch
#Location: 33.079688 lon 68.888172 lat
#TLE: 1 43013U 17073A   26015.61195121  .00000020  00000+0  30574-4 0  9993
#TLE: 2 43013  98.7636 316.5448 0001475  38.5247 321.6034 14.19536030422828

#Time	Az	El	Level	Level2	SNR	BER	BlckErr	Temp	State	Recorded	gain1	gain2
2026-01-16 01:13:24.26	26.71	2.13	-49.0	-65.2	3.8	1.49e+00	0	31	0	0	64	22863
2026-01-16 01:13:28.30	26.67	2.39	-49.1	-65.2	3.8	1.49e+00	0	31	104	0	63	24318
2026-01-16 01:13:32.34	26.63	2.65	-49.1	-65.2	3.8	1.49e+00	0	31	104	0	63	24132
2026-01-16 01:13:36.37	26.58	2.92	-49.1	-65.1	3.8	1.49e+00	0	32	104	0	63	23909
2026-01-16 01:13:40.41	26.54	3.18	-49.1	-65.2	3.8	1.49e+00	0	32	104	0	63	24198
2026-01-16 01:13:44.45	26.49	3.45	-48.9	-61.5	4.3	1.49e+00	0	32	104	0	63	15844
2026-01-16 01:13:48.48	26.44	3.72	-48.3	-56.3	7.3	9.07e-02	0	32	0	5242880	63	8729
2026-01-16 01:13:52.52	26.40	4.00	-47.9	-54.3	9.1	5.49e-03	0	32	0	13631488	61	7797
2026-01-16 01:13:56.56	26.35	4.28	-48.1	-55.2	8.3	5.07e-02	0	32	0	20971520	61	8598
2026-01-16 01:14:00.60	26.30	4.56	-48.2	-55.6	8.0	4.14e-02	0	32	0	28311552	61	8972
2026-01-16 01:14:04.63	26.24	4.84	-48.6	-58.1	6.0	2.69e-01	0	32	0	35651584	62	11356
2026-01-16 01:14:08.67	26.19	5.13	-48.4	-54.2	9.9	8.15e-04	0	32	0	42991616	62	7248
2026-01-16 01:14:12.71	26.13	5.41	-47.4	-51.6	12.1	1.22e-01	0	32	0	48234496	61	5674
2026-01-16 01:14:16.74	26.08	5.71	-47.7	-52.0	11.9	2.59e-05	0	32	0	55574528	61	5953
2026-01-16 01:14:20.78	26.02	6.00	-47.1	-50.8	13.0	0.00e+00	0	32	0	62914560	60	5476
2026-01-16 01:14:24.82	25.96	6.30	-47.0	-50.4	13.5	0.00e+00	0	32	0	71303168	59	5533
2026-01-16 01:14:28.86	25.90	6.60	-47.3	-50.9	13.2	0.00e+00	0	32	0	78643200	59	5873
2026-01-16 01:14:32.90	25.84	6.91	-47.0	-50.3	13.4	0.00e+00	0	32	0	85983232	60	5200
2026-01-16 01:14:36.93	25.77	7.22	-46.7	-49.7	14.1	0.00e+00	0	32	0	93323264	59	5108
2026-01-16 01:14:40.96	25.71	7.53	-46.5	-49.4	14.3	0.00e+00	0	32	0	101711872	59	4950
2026-01-16 01:14:45.00	25.64	7.85	-46.5	-49.4	14.3	0.00e+00	0	32	0	109051904	59	4928
2026-01-16 01:14:49.03	25.57	8.17	-46.4	-49.1	14.5	0.00e+00	0	32	0	116391936	59	4806
2026-01-16 01:14:53.07	25.50	8.49	-46.5	-49.3	14.4	0.00e+00	0	33	0	123731968	59	4920
2026-01-16 01:14:57.11	25.42	8.82	-46.5	-49.3	14.3	0.00e+00	0	32	0	131072000	58	5181
2026-01-16 01:15:01.14	25.35	9.16	-46.3	-49.0	14.6	0.00e+00	0	33	0	139460608	58	5013
2026-01-16 01:15:05.18	25.27	9.49	-46.2	-48.9	14.7	0.00e+00	0	33	0	146800640	58	4938
2026-01-16 01:15:09.22	25.19	9.84	-46.1	-48.7	14.8	0.00e+00	0	32	0	154140672	58	4819
2026-01-16 01:15:13.25	25.11	10.18	-46.2	-48.7	14.8	0.00e+00	0	33	0	161480704	58	4861
2026-01-16 01:15:17.29	25.02	10.54	-46.0	-48.4	15.0	0.00e+00	0	33	0	168820736	58	4680
2026-01-16 01:15:21.32	24.93	10.89	-45.9	-48.4	15.0	0.00e+00	0	33	0	177209344	58	4664
2026-01-16 01:15:25.36	24.84	11.26	-45.7	-48.0	15.2	0.00e+00	0	33	0	184549376	57	4734
2026-01-16 01:15:29.40	24.75	11.62	-45.8	-48.1	15.2	0.00e+00	0	33	0	191889408	57	4783
2026-01-16 01:15:33.44	24.66	12.00	-45.6	-47.9	15.3	0.00e+00	0	33	0	199229440	57	4662
2026-01-16 01:15:37.48	24.56	12.38	-45.5	-47.8	15.3	0.00e+00	0	33	0	207618048	57	4610
2026-01-16 01:15:41.51	24.46	12.76	-45.4	-47.5	15.5	0.00e+00	0	33	0	214958080	57	4489
2026-01-16 01:15:45.54	24.35	13.15	-45.2	-47.3	15.6	0.00e+00	0	33	0	222298112	57	4385
2026-01-16 01:15:49.57	24.24	13.55	-45.1	-47.2	15.6	0.00e+00	0	33	0	229638144	56	4560
2026-01-16 01:15:53.61	24.13	13.95	-45.0	-47.0	15.7	0.00e+00	0	33	0	236978176	56	4471
2026-01-16 01:15:57.64	24.02	14.36	-44.8	-46.8	15.8	0.00e+00	0	33	0	245366784	56	4370
2026-01-16 01:16:01.68	23.90	14.78	-44.8	-46.7	15.9	0.00e+00	0	33	0	252706816	56	4305
2026-01-16 01:16:05.72	23.78	15.20	-44.6	-46.5	15.9	0.00e+00	0	33	0	260046848	55	4456
2026-01-16 01:16:09.75	23.65	15.63	-44.5	-46.4	16.0	0.00e+00	0	33	0	267386880	55	4407
2026-01-16 01:16:13.79	23.52	16.07	-44.4	-46.2	16.0	0.00e+00	0	33	0	275775488	55	4340
2026-01-16 01:16:17.83	23.38	16.52	-44.3	-46.1	16.1	0.00e+00	0	33	0	283115520	55	4258
2026-01-16 01:16:21.87	23.24	16.98	-44.1	-45.8	16.2	0.00e+00	0	33	0	290455552	54	4384
2026-01-16 01:16:25.90	23.10	17.44	-44.0	-45.8	16.2	0.00e+00	0	33	0	297795584	54	4367
2026-01-16 01:16:29.94	22.95	17.91	-44.0	-45.8	16.2	0.00e+00	0	33	0	305135616	54	4355
2026-01-16 01:16:33.98	22.79	18.39	-44.0	-45.8	16.2	0.00e+00	0	33	0	313524224	54	4356
2026-01-16 01:16:38.01	22.63	18.88	-44.1	-45.8	16.2	0.00e+00	0	33	0	320864256	54	4368
2026-01-16 01:16:42.05	22.47	19.38	-43.9	-45.6	16.3	0.00e+00	0	33	0	328204288	54	4268
2026-01-16 01:16:46.09	22.30	19.90	-43.7	-45.4	16.4	0.00e+00	0	33	0	335544320	54	4178
2026-01-16 01:16:50.13	22.12	20.42	-43.7	-45.3	16.4	0.00e+00	0	33	0	343932928	53	4376
2026-01-16 01:16:54.16	21.93	20.95	-43.6	-45.3	16.4	0.00e+00	0	33	0	351272960	53	4351
2026-01-16 01:16:58.20	21.74	21.49	-43.5	-45.2	16.5	0.00e+00	0	33	0	358612992	53	4298
2026-01-16 01:17:02.24	21.54	22.04	-43.6	-45.3	16.4	0.00e+00	0	33	0	365953024	53	4351
2026-01-16 01:17:06.28	21.33	22.61	-43.6	-45.2	16.5	0.00e+00	0	33	0	373293056	53	4325
2026-01-16 01:17:10.31	21.11	23.19	-43.7	-45.4	16.4	0.00e+00	0	33	0	381681664	53	4404
2026-01-16 01:17:14.35	20.89	23.78	-43.7	-45.3	16.4	0.00e+00	0	33	0	389021696	53	4372
2026-01-16 01:17:18.39	20.65	24.38	-43.9	-45.5	16.3	0.00e+00	0	33	0	396361728	53	4488
2026-01-16 01:17:22.42	20.41	25.00	-44.2	-46.0	16.1	0.00e+00	0	33	0	403701760	53	4734
2026-01-16 01:17:26.46	20.15	25.63	-44.6	-46.4	16.0	0.00e+00	0	33	0	412090368	54	4698
2026-01-16 01:17:30.50	19.89	26.28	-44.9	-46.9	15.9	0.00e+00	0	33	0	419430400	55	4678
2026-01-16 01:17:34.54	19.61	26.94	-45.1	-47.1	15.8	0.00e+00	0	33	0	426770432	55	4797
2026-01-16 01:17:38.58	19.32	27.62	-45.7	-47.9	15.6	0.00e+00	0	33	0	434110464	56	4937
2026-01-16 01:17:42.61	19.01	28.32	-46.3	-48.6	15.2	0.00e+00	0	33	0	441450496	57	5058
2026-01-16 01:17:46.65	18.69	29.03	-46.7	-49.2	14.9	0.00e+00	0	33	0	449839104	58	5117
2026-01-16 01:17:50.69	18.36	29.75	-47.0	-49.7	14.6	0.00e+00	0	33	0	457179136	59	5140
2026-01-16 01:17:54.72	18.01	30.50	-47.1	-49.8	14.6	0.00e+00	0	33	0	464519168	59	5161
2026-01-16 01:17:58.76	17.64	31.26	-47.3	-50.1	14.4	0.00e+00	0	33	0	471859200	59	5361
2026-01-16 01:18:02.79	17.26	32.05	-47.3	-50.2	14.2	0.00e+00	0	33	0	479199232	60	5133
2026-01-16 01:18:06.83	16.85	32.85	-47.6	-50.7	13.9	0.00e+00	0	33	0	487587840	60	5410
2026-01-16 01:18:10.87	16.42	33.67	-47.7	-50.9	13.8	0.00e+00	0	33	0	494927872	60	5544
2026-01-16 01:18:14.90	15.97	34.52	-47.4	-50.3	14.1	0.00e+00	0	33	0	502267904	60	5216
2026-01-16 01:18:18.94	15.49	35.38	-47.1	-49.8	14.5	0.00e+00	0	33	0	509607936	60	4902
2026-01-16 01:18:22.97	14.99	36.27	-47.0	-49.7	14.5	0.00e+00	0	33	0	517996544	60	4829
2026-01-16 01:18:27.01	14.46	37.18	-47.4	-50.3	14.1	0.00e+00	0	33	0	525336576	60	5210
2026-01-16 01:18:31.05	13.89	38.11	-47.7	-50.7	13.9	0.00e+00	0	33	0	532676608	60	5459
2026-01-16 01:18:35.09	13.29	39.06	-47.9	-51.2	13.6	0.00e+00	0	33	0	540016640	61	5420
2026-01-16 01:18:39.12	12.65	40.04	-47.4	-50.2	14.2	0.00e+00	0	33	0	547356672	61	4854
2026-01-16 01:18:43.16	11.98	41.04	-47.2	-49.9	14.4	0.00e+00	0	33	0	555745280	60	4967
2026-01-16 01:18:47.20	11.25	42.07	-46.8	-49.3	14.8	0.00e+00	0	33	0	563085312	60	4626
2026-01-16 01:18:51.24	10.48	43.11	-46.6	-48.9	15.2	0.00e+00	0	33	0	570425344	59	4670
2026-01-16 01:18:55.27	9.66	44.18	-46.1	-48.2	15.6	0.00e+00	0	33	0	577765376	58	4596
2026-01-16 01:18:59.31	8.77	45.28	-45.7	-47.7	15.8	0.00e+00	0	33	0	586153984	58	4334
2026-01-16 01:19:03.34	7.82	46.39	-45.5	-47.4	15.9	0.00e+00	0	33	0	593494016	57	4418
2026-01-16 01:19:07.38	6.80	47.53	-45.6	-47.6	15.9	0.00e+00	0	33	0	600834048	57	4507
2026-01-16 01:19:11.42	5.70	48.69	-46.0	-48.2	15.6	0.00e+00	0	33	0	608174080	57	4827
2026-01-16 01:19:15.46	4.51	49.87	-45.8	-47.8	15.7	0.00e+00	0	33	0	615514112	57	4629
2026-01-16 01:19:19.49	3.23	51.06	-45.0	-46.9	16.2	0.00e+00	0	33	0	623902720	56	4401
2026-01-16 01:19:23.53	1.83	52.27	-43.9	-45.5	16.6	0.00e+00	0	33	0	631242752	54	4221
2026-01-16 01:19:27.57	0.32	53.48	-43.8	-45.4	16.6	0.00e+00	0	33	0	638582784	54	4161
2026-01-16 01:19:31.60	358.67	54.71	-44.2	-45.9	16.5	0.00e+00	0	33	0	645922816	54	4415
2026-01-16 01:19:35.64	356.87	55.94	-46.4	-48.7	15.4	0.00e+00	0	33	0	653262848	57	5106
2026-01-16 01:19:39.68	354.90	57.16	-49.1	-53.3	12.2	3.80e-06	0	33	0	661651456	63	6176
2026-01-16 01:19:43.72	352.75	58.38	-47.7	-50.6	14.2	0.00e+00	0	33	0	668991488	61	5086
2026-01-16 01:19:47.75	350.40	59.57	-46.1	-48.3	15.6	0.00e+00	0	33	0	676331520	58	4613
2026-01-16 01:19:51.79	347.81	60.75	-45.2	-47.1	16.1	0.00e+00	0	33	0	683671552	56	4494
2026-01-16 01:19:55.83	344.98	61.89	-43.6	-45.1	16.7	0.00e+00	0	33	0	692060160	53	4291
2026-01-16 01:19:59.86	341.88	62.97	-43.1	-44.5	16.9	0.00e+00	0	33	0	699400192	52	4237
2026-01-16 01:20:03.90	338.49	64.00	-43.9	-45.5	16.6	0.00e+00	0	33	0	706740224	53	4453
2026-01-16 01:20:07.94	334.79	64.95	-45.5	-47.5	15.9	0.00e+00	0	33	0	714080256	56	4710
2026-01-16 01:20:11.98	330.78	65.81	-45.4	-47.2	16.1	0.00e+00	0	33	0	721420288	56	4588
2026-01-16 01:20:16.01	326.48	66.57	-47.1	-49.6	15.0	0.00e+00	0	33	0	729808896	59	5091
2026-01-16 01:20:20.05	321.87	67.19	-46.5	-48.8	15.4	0.00e+00	0	33	0	737148928	58	4879
2026-01-16 01:20:24.09	317.01	67.68	-47.1	-49.7	14.8	0.00e+00	0	33	0	744488960	60	4838
2026-01-16 01:20:28.12	311.96	68.02	-46.8	-49.1	15.2	0.00e+00	0	33	0	751828992	59	4800
2026-01-16 01:20:32.16	306.77	68.19	-46.8	-49.2	15.3	0.00e+00	0	33	0	760217600	59	4821
2026-01-16 01:20:36.20	301.53	68.20	-47.6	-50.4	14.3	0.00e+00	0	33	0	767557632	60	5257
2026-01-16 01:20:40.23	296.34	68.04	-46.9	-49.2	15.2	0.00e+00	0	33	0	774897664	59	4859
2026-01-16 01:20:44.27	291.26	67.72	-47.2	-49.8	14.9	0.00e+00	0	33	0	782237696	59	5163
2026-01-16 01:20:48.31	286.38	67.24	-46.2	-48.3	15.6	0.00e+00	0	33	0	789577728	58	4645
2026-01-16 01:20:52.35	281.75	66.62	-46.2	-48.4	15.7	0.00e+00	0	33	0	797966336	58	4659
2026-01-16 01:20:56.38	277.42	65.87	-45.0	-46.7	16.2	0.00e+00	0	33	0	805306368	56	4333
2026-01-16 01:21:00.42	273.38	65.02	-44.4	-46.0	16.5	0.00e+00	0	33	0	812646400	55	4234
2026-01-16 01:21:04.46	269.66	64.07	-44.0	-45.6	16.6	0.00e+00	0	33	0	819986432	54	4287
2026-01-16 01:21:08.49	266.25	63.05	-45.0	-46.8	16.1	0.00e+00	0	33	0	827326464	55	4611
2026-01-16 01:21:12.53	263.12	61.96	-46.3	-48.5	15.5	0.00e+00	0	33	0	835715072	57	5011
2026-01-16 01:21:16.57	260.27	60.83	-47.3	-49.9	14.9	0.00e+00	0	33	0	843055104	59	5230
2026-01-16 01:21:20.60	257.67	59.66	-47.5	-50.3	14.4	0.00e+00	0	33	0	850395136	60	5185
2026-01-16 01:21:24.64	255.29	58.46	-47.3	-50.0	14.5	0.00e+00	0	33	0	857735168	60	4999
2026-01-16 01:21:28.68	253.12	57.24	-46.0	-48.1	15.7	0.00e+00	0	33	0	866123776	58	4520
2026-01-16 01:21:32.71	251.14	56.02	-45.9	-47.9	15.8	0.00e+00	0	33	0	873463808	58	4431
2026-01-16 01:21:36.75	249.33	54.78	-45.0	-46.8	16.2	0.00e+00	0	33	0	880803840	56	4387
2026-01-16 01:21:40.79	247.67	53.56	-45.2	-47.1	16.1	0.00e+00	0	33	0	888143872	56	4500
2026-01-16 01:21:44.82	246.14	52.34	-45.6	-47.6	15.9	0.00e+00	0	33	0	895483904	56	4783
2026-01-16 01:21:48.86	244.74	51.13	-46.0	-48.2	15.6	0.00e+00	0	33	0	903872512	57	4829
2026-01-16 01:21:52.90	243.44	49.93	-46.6	-48.9	15.3	0.00e+00	0	33	0	911212544	58	4968
2026-01-16 01:21:56.93	242.25	48.75	-46.5	-48.8	15.3	0.00e+00	0	33	0	918552576	58	4881
2026-01-16 01:22:00.96	241.14	47.59	-47.1	-49.7	14.9	0.00e+00	0	33	0	925892608	59	5103
2026-01-16 01:22:05.00	240.11	46.45	-46.5	-48.8	15.3	0.00e+00	0	33	0	934281216	59	4626
2026-01-16 01:22:09.04	239.15	45.33	-46.9	-49.4	15.0	0.00e+00	0	33	0	941621248	59	4958
2026-01-16 01:22:13.07	238.26	44.23	-46.9	-49.4	15.0	0.00e+00	0	33	0	948961280	59	4942
2026-01-16 01:22:17.11	237.43	43.15	-47.6	-50.6	14.1	0.00e+00	0	33	0	956301312	60	5358
2026-01-16 01:22:21.15	236.65	42.10	-47.4	-50.2	14.3	0.00e+00	0	33	0	963641344	60	5139
2026-01-16 01:22:25.18	235.93	41.07	-48.0	-51.2	13.7	0.00e+00	0	33	0	972029952	61	5456
2026-01-16 01:22:29.22	235.25	40.07	-48.4	-51.9	13.2	0.00e+00	0	33	0	979369984	62	5580
2026-01-16 01:22:33.26	234.60	39.08	-47.4	-50.2	14.4	0.00e+00	0	33	0	986710016	61	4848
2026-01-16 01:22:37.29	234.00	38.13	-47.3	-50.0	14.5	0.00e+00	0	33	0	994050048	60	5027
2026-01-16 01:22:41.33	233.43	37.19	-46.8	-49.3	14.9	0.00e+00	0	33	0	1002438656	60	4645
2026-01-16 01:22:45.37	232.89	36.28	-46.9	-49.5	14.7	0.00e+00	0	33	0	1009778688	60	4753
2026-01-16 01:22:49.41	232.39	35.39	-46.7	-49.3	14.9	0.00e+00	0	33	0	1017118720	60	4608
2026-01-16 01:22:53.45	231.91	34.52	-46.9	-49.5	14.7	0.00e+00	0	33	0	1024458752	60	4757
2026-01-16 01:22:57.49	231.45	33.67	-47.1	-49.7	14.6	0.00e+00	0	33	0	1031798784	60	4863
2026-01-16 01:23:01.52	231.02	32.85	-47.5	-50.4	14.1	0.00e+00	0	33	0	1040187392	60	5265
2026-01-16 01:23:05.56	230.61	32.04	-47.6	-50.6	14.0	0.00e+00	0	33	0	1047527424	60	5358
2026-01-16 01:23:09.59	230.22	31.25	-47.4	-50.2	14.2	0.00e+00	0	33	0	1054867456	60	5156
2026-01-16 01:23:13.63	229.85	30.49	-48.0	-51.4	13.5	0.00e+00	0	33	0	1062207488	61	5533
2026-01-16 01:23:17.66	229.50	29.74	-48.3	-51.9	13.1	0.00e+00	0	33	0	1070596096	61	5882
2026-01-16 01:23:21.70	229.16	29.01	-48.1	-51.6	13.3	0.00e+00	0	33	0	1077936128	61	5666
2026-01-16 01:23:25.74	228.84	28.29	-47.5	-50.5	14.0	0.00e+00	0	33	0	1085276160	61	5028
2026-01-16 01:23:29.77	228.54	27.60	-47.5	-50.4	14.1	0.00e+00	0	33	0	1092616192	61	4972
2026-01-16 01:23:33.81	228.24	26.92	-47.5	-50.5	14.0	0.00e+00	0	33	0	1099956224	61	5026
2026-01-16 01:23:37.85	227.96	26.25	-47.1	-49.8	14.4	0.00e+00	0	33	0	1108344832	60	4894
2026-01-16 01:23:41.88	227.69	25.60	-47.0	-49.6	14.7	0.00e+00	0	33	0	1115684864	59	5099
2026-01-16 01:23:45.92	227.43	24.97	-47.0	-49.7	14.7	0.00e+00	0	33	0	1123024896	59	5127
2026-01-16 01:23:49.96	227.19	24.35	-47.0	-49.6	14.8	0.00e+00	0	33	0	1130364928	59	5068
2026-01-16 01:23:54.00	226.95	23.74	-46.6	-49.1	15.0	0.00e+00	0	33	0	1137704960	59	4802
2026-01-16 01:23:58.04	226.72	23.15	-46.0	-48.3	15.5	0.00e+00	0	33	0	1146093568	58	4602
2026-01-16 01:24:02.07	226.50	22.57	-46.0	-48.2	15.5	0.00e+00	0	33	0	1153433600	58	4574
2026-01-16 01:24:06.11	226.29	22.00	-45.9	-48.1	15.6	0.00e+00	0	33	0	1160773632	58	4496
2026-01-16 01:24:10.14	226.09	21.44	-46.0	-48.3	15.5	0.00e+00	0	33	0	1168113664	58	4602
2026-01-16 01:24:14.18	225.90	20.90	-45.9	-48.2	15.5	0.00e+00	0	33	0	1176502272	58	4546
2026-01-16 01:24:18.22	225.71	20.36	-45.9	-48.1	15.5	0.00e+00	0	33	0	1183842304	58	4516
2026-01-16 01:24:22.26	225.53	19.84	-45.9	-48.1	15.5	0.00e+00	0	33	0	1191182336	58	4541
2026-01-16 01:24:26.29	225.35	19.33	-46.2	-48.6	15.3	0.00e+00	0	33	0	1198522368	58	4767
2026-01-16 01:24:30.30	225.18	18.83	-46.0	-48.3	15.4	0.00e+00	0	33	0	1205862400	58	4645
2026-01-16 01:24:34.34	225.02	18.34	-46.0	-48.3	15.4	0.00e+00	0	33	0	1214251008	58	4622
2026-01-16 01:24:38.37	224.86	17.86	-46.0	-48.3	15.4	0.00e+00	0	33	0	1221591040	58	4599
2026-01-16 01:24:42.41	224.71	17.38	-45.9	-48.2	15.4	0.00e+00	0	33	0	1228931072	58	4555
2026-01-16 01:24:46.45	224.57	16.92	-45.9	-48.2	15.4	0.00e+00	0	33	0	1236271104	58	4560
2026-01-16 01:24:50.49	224.42	16.46	-45.9	-48.2	15.4	0.00e+00	0	33	0	1244659712	58	4567
2026-01-16 01:24:54.53	224.29	16.01	-46.1	-48.5	15.2	0.00e+00	0	33	0	1251999744	58	4725
2026-01-16 01:24:58.56	224.15	15.57	-46.2	-48.7	15.1	0.00e+00	0	33	0	1259339776	58	4823
2026-01-16 01:25:02.60	224.02	15.14	-46.3	-48.8	15.1	0.00e+00	0	33	0	1266679808	58	4871
2026-01-16 01:25:06.64	223.90	14.71	-46.5	-49.1	14.9	0.00e+00	0	33	0	1274019840	58	5057
2026-01-16 01:25:10.68	223.78	14.29	-46.5	-49.1	14.9	0.00e+00	0	33	0	1282408448	58	5062
2026-01-16 01:25:14.71	223.66	13.88	-46.6	-49.2	14.9	0.00e+00	0	33	0	1289748480	58	5108
2026-01-16 01:25:18.75	223.55	13.48	-46.6	-49.2	14.8	0.00e+00	0	33	0	1297088512	58	5115
2026-01-16 01:25:22.79	223.44	13.08	-46.6	-49.3	14.7	0.00e+00	0	33	0	1304428544	58	5190
2026-01-16 01:25:26.82	223.33	12.69	-46.7	-49.4	14.7	0.00e+00	0	33	0	1311768576	58	5226
2026-01-16 01:25:30.86	223.23	12.30	-46.8	-49.6	14.6	0.00e+00	0	33	0	1320157184	58	5354
2026-01-16 01:25:34.90	223.13	11.92	-46.9	-49.8	14.4	0.00e+00	0	33	0	1327497216	59	5160
2026-01-16 01:25:38.93	223.03	11.55	-47.0	-49.9	14.4	0.00e+00	0	33	0	1334837248	59	5226
2026-01-16 01:25:42.97	222.93	11.18	-46.9	-49.8	14.4	0.00e+00	0	33	0	1342177280	59	5166
2026-01-16 01:25:47.01	222.84	10.82	-46.9	-49.7	14.4	0.00e+00	0	33	0	1350565888	59	5143
2026-01-16 01:25:51.04	222.75	10.46	-46.8	-49.6	14.5	0.00e+00	0	33	0	1357905920	59	5070
2026-01-16 01:25:55.08	222.66	10.10	-46.9	-49.7	14.4	0.00e+00	0	33	0	1365245952	59	5138
2026-01-16 01:25:59.12	222.58	9.76	-46.8	-49.7	14.4	0.00e+00	0	33	0	1372585984	59	5138
2026-01-16 01:26:03.16	222.50	9.41	-46.8	-49.6	14.4	0.00e+00	0	33	0	1379926016	59	5085
2026-01-16 01:26:07.20	222.41	9.07	-46.8	-49.8	14.3	0.00e+00	0	33	0	1388314624	59	5171
2026-01-16 01:26:11.23	222.34	8.74	-47.0	-50.0	14.2	0.00e+00	0	33	0	1395654656	59	5301
2026-01-16 01:26:15.27	222.26	8.41	-47.1	-50.3	14.0	0.00e+00	0	33	0	1402994688	59	5469
2026-01-16 01:26:19.31	222.19	8.08	-47.2	-50.3	13.9	0.00e+00	0	33	0	1410334720	59	5521
2026-01-16 01:26:23.35	222.11	7.76	-46.8	-49.9	13.9	0.00e+00	0	33	0	1418723328	60	4980
2026-01-16 01:26:27.38	222.04	7.44	-47.0	-50.3	13.6	0.00e+00	0	33	0	1426063360	60	5199
2026-01-16 01:26:31.42	221.97	7.13	-47.3	-50.8	13.2	0.00e+00	0	33	0	1433403392	60	5482
2026-01-16 01:26:35.46	221.91	6.82	-47.1	-50.6	13.4	7.00e-07	0	33	0	1440743424	60	5341
2026-01-16 01:26:39.49	221.84	6.51	-47.3	-50.9	13.1	0.00e+00	0	33	0	1448083456	60	5556
2026-01-16 01:26:43.53	221.78	6.21	-47.2	-50.8	13.2	0.00e+00	0	33	0	1456472064	60	5484
2026-01-16 01:26:47.57	221.72	5.91	-47.1	-50.6	13.2	0.00e+00	0	33	0	1463812096	60	5396
2026-01-16 01:26:51.60	221.65	5.62	-47.6	-51.6	12.5	6.80e-06	0	33	0	1471152128	60	6015
2026-01-16 01:26:55.64	221.60	5.32	-47.3	-51.1	12.8	0.00e+00	0	33	0	1478492160	60	5682
2026-01-16 01:26:59.68	221.54	5.03	-47.2	-50.8	13.0	2.20e-06	0	33	0	1486880768	60	5514
2026-01-16 01:27:03.69	221.48	4.75	-51.2	-67.4	3.8	1.49e+00	0	33	104	1487929344	67	24844
2026-01-16 01:27:07.72	221.43	4.46	-51.7	-67.9	3.8	1.49e+00	0	33	104	1487929344	68	24788
2026-01-16 01:27:11.76	221.37	4.18	-51.8	-68.1	3.8	1.49e+00	0	33	104	1487929344	68	25322
2026-01-16 01:27:15.80	221.32	3.91	-51.9	-68.1	3.8	1.49e+00	0	33	104	1487929344	68	25497
2026-01-16 01:27:19.84	221.27	3.63	-51.9	-68.2	3.8	1.49e+00	0	33	104	1487929344	69	24269
2026-01-16 01:27:23.87	221.22	3.36	-51.9	-68.2	3.8	1.49e+00	0	33	104	1487929344	69	24141
2026-01-16 01:27:27.91	221.17	3.09	-51.9	-68.1	3.8	1.49e+00	0	33	104	1487929344	69	24074
2026-01-16 01:27:31.95	221.12	2.82	-51.9	-68.1	3.8	1.49e+00	0	33	104	1487929344	69	24056
2026-01-16 01:27:35.99	221.08	2.56	-51.8	-68.1	3.8	1.49e+00	0	33	104	1487929344	69	23937
2026-01-16 01:27:40.02	221.03	2.30	-51.8	-68.1	3.8	1.49e+00	0	33	104	1487929344	69	23890
2026-01-16 01:27:44.06	220.99	2.04	-51.8	-68.1	3.8	1.49e+00	0	33	104	1487929344	69	23855

#Closed at: 2026-01-16 01:27:45
#Recorded file [1487 MB]: D:/lorett/data/31004_260116_041324.dat