passes_logs/2026/01/16/R3.2S_Murmansk_2ch/R3.2S_Murmansk_2ch__20260116_025815_AQUA_rec.log

#Pass ID: 20260116_025815_AQUA
#Satellite: AQUA
#Configuration: AQUA
#almurnet v.1.7.20251203
#Start time: 2026-01-16 02:58:15

#Version: 2.2.20231116
#Station: R3.2S_Murmansk_2ch
#Location: 33.079688 lon 68.888172 lat
#TLE: 1 27424U 02022A   26015.64967716  .00000624  00000+0  13471-3 0  9995
#TLE: 2 27424  98.4082 342.0879 0002031  77.4941  33.3914 14.61821794260984

#Time	Az	El	Level	Level2	SNR	BER	BlckErr	Temp	State	Recorded	gain1	gain2
2026-01-16 02:58:15.03	25.57	1.96	-48.9	-67.9	3.8	7.49e-01	0	31	0	0	66	32531
2026-01-16 02:58:18.05	25.52	2.16	-48.9	-67.9	3.8	7.42e-01	0	31	104	0	65	34307
2026-01-16 02:58:21.08	25.47	2.36	-48.9	-67.9	3.8	7.48e-01	0	31	104	0	65	34287
2026-01-16 02:58:24.11	25.41	2.57	-48.9	-67.9	3.8	7.46e-01	0	31	104	0	65	34293
2026-01-16 02:58:27.14	25.36	2.77	-48.8	-67.9	3.8	7.44e-01	0	31	104	0	65	34122
2026-01-16 02:58:30.16	25.31	2.98	-48.8	-67.8	3.8	7.47e-01	0	31	104	0	65	33924
2026-01-16 02:58:33.19	25.25	3.18	-48.9	-67.8	3.8	7.46e-01	0	31	104	0	65	33943
2026-01-16 02:58:36.22	25.20	3.39	-48.8	-67.7	3.8	7.45e-01	0	32	104	0	65	33430
2026-01-16 02:58:39.25	25.14	3.60	-48.6	-66.2	3.8	7.46e-01	0	32	104	0	65	28264
2026-01-16 02:58:42.28	25.08	3.82	-47.9	-63.6	3.8	7.46e-01	0	32	104	0	65	20818
2026-01-16 02:58:45.30	25.02	4.03	-46.8	-60.8	3.8	7.49e-01	0	32	104	0	62	17970
2026-01-16 02:58:48.33	24.96	4.25	-46.7	-60.6	3.8	7.44e-01	0	32	104	0	61	18530
2026-01-16 02:58:51.36	24.90	4.47	-46.7	-60.5	3.8	7.43e-01	0	32	104	0	61	18447
2026-01-16 02:58:54.39	24.84	4.69	-47.3	-61.8	3.8	7.47e-01	0	32	104	0	62	20135
2026-01-16 02:58:57.42	24.77	4.91	-47.7	-62.9	3.8	7.43e-01	0	32	104	0	63	21562
2026-01-16 02:59:00.45	24.71	5.13	-47.3	-61.5	3.9	7.46e-01	0	32	104	0	63	18446
2026-01-16 02:59:03.47	24.64	5.36	-48.0	-63.1	3.8	7.47e-01	0	32	104	0	63	22031
2026-01-16 02:59:06.50	24.57	5.59	-45.4	-57.9	3.8	7.47e-01	0	32	104	0	59	15303
2026-01-16 02:59:09.53	24.50	5.82	-48.4	-64.2	3.8	7.47e-01	0	32	104	0	64	23588
2026-01-16 02:59:12.56	24.43	6.05	-46.0	-58.9	3.8	7.45e-01	0	32	104	0	61	15364
2026-01-16 02:59:15.58	24.36	6.29	-45.1	-57.3	3.9	7.46e-01	0	32	104	0	57	16034
2026-01-16 02:59:18.61	24.29	6.53	-46.9	-60.4	3.8	7.46e-01	0	32	104	0	63	16225
2026-01-16 02:59:21.64	24.21	6.77	-45.5	-57.9	3.8	7.46e-01	0	32	104	0	59	15330
2026-01-16 02:59:24.67	24.13	7.01	-47.1	-60.5	3.8	7.47e-01	0	32	104	0	63	16479
2026-01-16 02:59:27.70	24.05	7.25	-47.7	-61.8	3.8	7.48e-01	0	32	104	0	63	19093
2026-01-16 02:59:30.72	23.97	7.50	-43.6	-55.4	3.8	7.47e-01	0	32	104	0	56	13674
2026-01-16 02:59:33.76	23.89	7.75	-49.3	-66.9	3.8	7.47e-01	0	32	104	0	66	28694
2026-01-16 02:59:36.78	23.81	8.00	-44.0	-55.9	3.9	7.45e-01	0	33	104	0	57	13617
2026-01-16 02:59:39.81	23.72	8.26	-45.3	-57.6	3.8	7.46e-01	0	32	104	0	58	15592
2026-01-16 02:59:42.84	23.63	8.52	-43.7	-55.4	3.9	7.46e-01	0	33	104	0	56	13725
2026-01-16 02:59:45.87	23.54	8.78	-43.7	-55.3	3.9	7.46e-01	0	32	104	0	56	13564
2026-01-16 02:59:48.89	23.45	9.04	-46.1	-58.6	3.8	7.47e-01	0	32	104	0	59	16606
2026-01-16 02:59:51.92	23.36	9.31	-48.2	-62.6	3.8	7.44e-01	0	32	104	0	64	19751
2026-01-16 02:59:54.95	23.26	9.58	-42.5	-54.0	3.9	7.47e-01	0	32	104	0	54	12966
2026-01-16 02:59:57.98	23.16	9.86	-49.5	-67.1	3.8	7.44e-01	0	33	104	0	66	29555
2026-01-16 03:00:01.01	23.06	10.14	-43.3	-55.0	3.9	7.42e-01	0	33	104	0	55	13771
2026-01-16 03:00:04.04	22.96	10.42	-46.2	-59.0	3.9	7.47e-01	0	32	104	0	60	16317
2026-01-16 03:00:07.06	22.86	10.70	-43.2	-54.7	3.9	7.44e-01	0	32	104	0	55	13377
2026-01-16 03:00:10.09	22.75	10.99	-42.7	-54.3	3.8	7.47e-01	0	33	104	0	54	13450
2026-01-16 03:00:13.12	22.64	11.28	-47.2	-60.5	3.8	7.44e-01	0	32	104	0	62	17452
2026-01-16 03:00:16.15	22.52	11.58	-49.1	-65.2	3.9	7.44e-01	0	33	104	0	66	23838
2026-01-16 03:00:19.17	22.41	11.87	-42.7	-54.2	3.9	7.42e-01	0	33	104	0	54	13384
2026-01-16 03:00:22.20	22.29	12.18	-49.4	-66.2	3.9	7.41e-01	0	32	104	0	67	25161
2026-01-16 03:00:25.23	22.17	12.49	-42.7	-54.2	3.9	7.45e-01	0	33	104	0	54	13342
2026-01-16 03:00:28.26	22.04	12.80	-44.8	-57.2	3.9	7.46e-01	0	33	104	0	59	14118
2026-01-16 03:00:31.29	21.92	13.11	-44.5	-56.3	3.8	7.45e-01	0	33	104	0	56	15145
2026-01-16 03:00:34.32	21.78	13.43	-42.5	-54.0	3.8	7.45e-01	0	33	104	0	54	13023
2026-01-16 03:00:37.35	21.65	13.76	-46.9	-59.6	3.8	7.46e-01	0	33	104	0	61	16646
2026-01-16 03:00:40.38	21.51	14.09	-46.5	-59.3	3.9	7.43e-01	0	33	104	0	62	15062
2026-01-16 03:00:43.41	21.37	14.42	-43.1	-54.6	3.8	7.44e-01	0	33	104	0	53	14801
2026-01-16 03:00:46.43	21.22	14.76	-46.7	-59.4	3.8	7.47e-01	0	33	104	0	62	15327
2026-01-16 03:00:49.46	21.08	15.11	-42.2	-53.6	3.9	7.44e-01	0	33	104	0	53	13256
2026-01-16 03:00:52.49	20.92	15.46	-42.5	-53.9	3.8	7.43e-01	0	33	104	0	54	12895
2026-01-16 03:00:55.52	20.76	15.81	-46.0	-58.2	3.8	7.47e-01	0	33	104	0	59	15871
2026-01-16 03:00:58.55	20.60	16.17	-41.5	-52.8	3.9	7.44e-01	0	32	104	0	52	12724
2026-01-16 03:01:01.57	20.44	16.54	-48.2	-62.1	3.9	7.46e-01	0	33	104	0	64	18670
2026-01-16 03:01:04.60	20.26	16.91	-43.9	-55.7	3.9	7.45e-01	0	33	104	0	57	13283
2026-01-16 03:01:07.63	20.09	17.29	-49.8	-66.4	3.7	7.47e-01	0	33	104	0	67	25593
2026-01-16 03:01:10.65	19.91	17.68	-44.1	-55.8	3.9	7.47e-01	0	33	104	0	57	13539
2026-01-16 03:01:13.68	19.72	18.07	-42.1	-53.5	3.9	7.47e-01	0	33	104	0	53	13095
2026-01-16 03:01:16.71	19.53	18.47	-44.1	-55.7	3.8	7.44e-01	0	33	104	0	55	15009
2026-01-16 03:01:19.74	19.33	18.87	-49.1	-64.0	3.8	7.46e-01	0	33	104	0	65	21961
2026-01-16 03:01:22.77	19.13	19.28	-41.8	-53.0	3.9	7.48e-01	0	33	104	0	52	13090
2026-01-16 03:01:25.79	18.92	19.70	-49.4	-64.9	3.8	7.41e-01	0	33	104	0	66	22935
2026-01-16 03:01:28.82	18.70	20.13	-42.7	-54.1	3.8	7.47e-01	0	33	104	0	54	13149
2026-01-16 03:01:31.85	18.48	20.56	-50.0	-67.2	3.7	7.48e-01	0	33	104	0	67	28057
2026-01-16 03:01:34.88	18.25	21.01	-42.2	-53.6	3.8	7.42e-01	0	33	104	0	53	13166
2026-01-16 03:01:37.91	18.01	21.46	-42.1	-53.4	3.8	7.45e-01	0	33	104	0	53	12937
2026-01-16 03:01:40.93	17.76	21.91	-46.5	-59.0	3.9	7.43e-01	0	33	104	0	60	16381
2026-01-16 03:01:43.96	17.51	22.38	-49.5	-65.3	3.8	7.45e-01	0	33	104	0	66	23874
2026-01-16 03:01:46.99	17.25	22.86	-42.2	-53.6	3.8	7.42e-01	0	33	104	0	53	13173
2026-01-16 03:01:50.02	16.97	23.34	-50.0	-66.9	3.8	7.44e-01	0	33	104	0	67	27324
2026-01-16 03:01:53.05	16.69	23.84	-42.7	-54.1	3.8	7.46e-01	0	33	104	0	54	13231
2026-01-16 03:01:56.08	16.40	24.34	-50.0	-67.1	3.9	7.43e-01	0	33	104	0	68	26452
2026-01-16 03:01:59.11	16.10	24.86	-43.3	-54.8	3.8	7.46e-01	0	33	104	0	55	13472
2026-01-16 03:02:02.13	15.79	25.38	-42.7	-54.2	3.8	7.45e-01	0	33	104	0	54	13277
2026-01-16 03:02:05.16	15.46	25.92	-46.9	-59.5	3.8	7.46e-01	0	33	104	0	61	16423
2026-01-16 03:02:08.19	15.13	26.46	-49.5	-65.0	3.8	7.47e-01	0	33	104	0	67	22004
2026-01-16 03:02:11.22	14.78	27.02	-42.1	-53.5	3.8	7.46e-01	0	33	104	0	53	13005
2026-01-16 03:02:14.24	14.42	27.59	-48.6	-62.7	3.9	7.46e-01	0	33	104	0	66	17805
2026-01-16 03:02:17.27	14.04	28.17	-42.1	-53.4	3.8	7.46e-01	0	33	104	0	53	12863
2026-01-16 03:02:20.30	13.65	28.76	-49.4	-65.0	3.9	7.39e-01	0	33	104	0	68	20776
2026-01-16 03:02:23.33	13.24	29.36	-44.5	-56.1	3.8	7.44e-01	0	33	104	0	56	14876
2026-01-16 03:02:26.35	12.82	29.98	-42.0	-53.3	3.8	7.45e-01	0	33	104	0	52	13469
2026-01-16 03:02:29.38	12.38	30.60	-47.1	-59.7	3.9	7.42e-01	0	33	104	0	61	16702
2026-01-16 03:02:32.41	11.92	31.25	-47.3	-60.4	3.9	7.45e-01	0	33	104	0	64	15376
2026-01-16 03:02:35.44	11.44	31.90	-45.6	-57.6	3.8	7.45e-01	0	33	104	0	58	15651
2026-01-16 03:02:38.47	10.93	32.57	-47.5	-60.6	3.8	7.46e-01	0	33	104	0	64	15665
2026-01-16 03:02:41.50	10.41	33.25	-42.0	-53.3	3.8	7.47e-01	0	33	104	0	53	12708
2026-01-16 03:02:44.52	9.86	33.95	-42.6	-54.0	3.8	7.47e-01	0	33	104	0	53	13770
2026-01-16 03:02:47.55	9.29	34.66	-48.2	-61.9	3.8	7.48e-01	0	33	104	0	64	18120
2026-01-16 03:02:50.58	8.69	35.38	-42.8	-54.2	3.8	7.46e-01	0	33	104	0	54	13411
2026-01-16 03:02:53.61	8.06	36.12	-48.7	-62.8	3.8	7.48e-01	0	33	104	0	65	19055
2026-01-16 03:02:56.64	7.40	36.87	-43.3	-55.2	3.9	7.41e-01	0	33	104	0	56	13302
2026-01-16 03:02:59.66	6.71	37.64	-50.5	-67.9	3.7	7.48e-01	0	33	104	0	68	28904
2026-01-16 03:03:02.69	5.99	38.42	-44.3	-56.3	3.8	7.41e-01	0	33	104	0	58	13551
2026-01-16 03:03:05.72	5.22	39.21	-43.6	-55.1	3.8	7.47e-01	0	33	104	0	56	13242
2026-01-16 03:03:08.75	4.42	40.02	-45.4	-57.2	3.9	7.42e-01	0	33	104	0	58	15019
2026-01-16 03:03:11.78	3.57	40.84	-50.1	-66.2	3.8	7.46e-01	0	33	104	0	67	25090
2026-01-16 03:03:14.80	2.68	41.67	-43.5	-55.0	3.9	7.46e-01	0	33	104	0	55	13844
2026-01-16 03:03:17.83	1.74	42.52	-49.9	-65.5	3.9	7.49e-01	0	33	104	0	67	23076
2026-01-16 03:03:20.86	0.75	43.38	-43.4	-54.9	3.9	7.44e-01	0	33	104	0	56	12958
2026-01-16 03:03:23.88	359.70	44.24	-50.9	-69.4	3.8	7.47e-01	0	33	104	0	69	32181
2026-01-16 03:03:26.91	358.59	45.12	-42.9	-54.2	3.8	7.46e-01	0	33	104	0	55	12660
2026-01-16 03:03:29.94	357.41	46.00	-43.3	-54.8	3.8	7.42e-01	0	33	104	0	55	13456
2026-01-16 03:03:32.97	356.17	46.90	-46.4	-58.6	3.8	7.45e-01	0	33	104	0	60	15723
2026-01-16 03:03:35.99	354.85	47.79	-50.2	-66.4	3.8	7.46e-01	0	33	104	0	68	24264
2026-01-16 03:03:39.02	353.45	48.69	-43.1	-54.6	3.8	7.46e-01	0	33	104	0	55	13200
2026-01-16 03:03:42.05	351.96	49.58	-49.6	-64.5	3.8	7.44e-01	0	33	104	0	67	20586
2026-01-16 03:03:45.08	350.38	50.48	-42.7	-54.1	3.9	7.46e-01	0	33	104	0	54	13201
2026-01-16 03:03:48.11	348.71	51.36	-50.8	-69.0	3.8	7.47e-01	0	33	104	0	69	31001
2026-01-16 03:03:51.14	346.93	52.24	-42.3	-53.7	3.9	7.43e-01	0	33	104	0	53	13414
2026-01-16 03:03:54.16	345.05	53.10	-41.8	-53.0	3.8	7.47e-01	0	33	104	0	52	13102
2026-01-16 03:03:57.19	343.04	53.95	-45.9	-58.1	3.9	7.41e-01	0	33	104	0	60	14818
2026-01-16 03:04:00.22	340.92	54.77	-49.2	-63.4	3.9	7.42e-01	0	33	104	0	67	18177
2026-01-16 03:04:03.25	338.67	55.56	-43.5	-55.0	3.8	7.47e-01	0	33	104	0	54	14678
2026-01-16 03:04:06.27	336.29	56.32	-48.7	-53.5	13.4	6.00e-01	0	33	0	1572864	66	6145
2026-01-16 03:04:09.30	333.78	57.04	-43.0	-44.8	17.2	6.01e-01	0	33	0	7340032	55	4286
2026-01-16 03:04:12.33	331.14	57.71	-43.2	-45.0	17.2	6.03e-01	0	33	0	13107200	54	4639
2026-01-16 03:04:15.36	328.36	58.33	-43.2	-45.0	17.2	6.00e-01	0	33	0	18350080	55	4362
2026-01-16 03:04:18.39	325.46	58.89	-43.4	-45.2	17.1	6.00e-01	0	33	0	24117248	54	4747
2026-01-16 03:04:21.41	322.45	59.39	-43.4	-45.3	17.2	6.06e-01	0	33	0	29884416	55	4501
2026-01-16 03:04:24.44	319.31	59.81	-43.5	-45.4	17.1	6.06e-01	0	33	0	35651584	55	4591
2026-01-16 03:04:27.47	316.09	60.15	-43.5	-45.3	17.1	6.05e-01	0	33	0	41418752	55	4533
2026-01-16 03:04:30.50	312.78	60.42	-43.2	-45.0	17.2	6.00e-01	0	33	0	47185920	55	4352
2026-01-16 03:04:33.52	309.43	60.60	-43.5	-45.4	17.1	6.00e-01	0	33	0	52428800	55	4570
2026-01-16 03:04:36.55	306.03	60.69	-43.7	-45.7	17.0	6.02e-01	0	33	0	58195968	55	4718
2026-01-16 03:04:39.58	302.61	60.69	-43.8	-45.7	17.1	6.02e-01	0	33	0	63963136	56	4482
2026-01-16 03:04:42.61	299.21	60.60	-43.3	-45.1	17.2	6.03e-01	0	33	0	69730304	55	4408
2026-01-16 03:04:45.64	295.84	60.42	-43.6	-45.5	17.1	6.02e-01	0	33	0	75497472	55	4641
2026-01-16 03:04:48.66	292.55	60.16	-43.7	-45.6	17.0	6.04e-01	0	33	0	80740352	55	4690
2026-01-16 03:04:51.69	289.32	59.82	-43.6	-45.4	17.1	6.01e-01	0	33	0	86507520	55	4597
2026-01-16 03:04:54.72	286.18	59.40	-43.9	-45.9	17.0	6.01e-01	0	33	0	92274688	55	4819
2026-01-16 03:04:57.75	283.15	58.90	-43.6	-45.5	17.0	6.02e-01	0	33	0	98041856	55	4646
2026-01-16 03:05:00.78	280.24	58.34	-43.2	-45.1	17.1	6.04e-01	0	33	0	103809024	54	4652
2026-01-16 03:05:03.80	277.47	57.73	-42.6	-44.3	17.3	6.01e-01	0	33	0	109576192	54	4269
2026-01-16 03:05:06.83	274.82	57.05	-42.8	-44.6	17.2	6.03e-01	0	33	0	115343360	54	4413
2026-01-16 03:05:09.86	272.30	56.33	-43.3	-45.1	17.2	6.00e-01	0	33	0	120586240	54	4668
2026-01-16 03:05:12.89	269.92	55.57	-43.2	-45.1	17.1	6.05e-01	0	33	0	126353408	54	4669
2026-01-16 03:05:15.92	267.66	54.78	-43.3	-45.2	17.1	6.01e-01	0	33	0	132120576	54	4714
2026-01-16 03:05:18.94	265.54	53.96	-42.4	-44.1	17.3	6.02e-01	0	33	0	137887744	53	4431
2026-01-16 03:05:21.97	263.53	53.11	-41.3	-42.8	17.5	6.00e-01	0	33	0	143654912	51	4274
2026-01-16 03:05:25.00	261.63	52.25	-41.9	-43.6	17.3	6.02e-01	0	33	0	148897792	51	4673
2026-01-16 03:05:28.03	259.85	51.37	-41.4	-42.9	17.5	6.02e-01	0	33	0	154664960	51	4324
2026-01-16 03:05:31.06	258.17	50.48	-41.8	-43.4	17.4	6.03e-01	0	33	0	160432128	51	4580
2026-01-16 03:05:34.08	256.59	49.59	-42.0	-43.7	17.4	6.00e-01	0	33	0	166199296	52	4482
2026-01-16 03:05:37.11	255.10	48.69	-41.5	-43.0	17.5	6.03e-01	0	33	0	171966464	52	4142
2026-01-16 03:05:40.14	253.70	47.79	-42.1	-43.7	17.4	5.99e-01	0	33	0	177733632	52	4486
2026-01-16 03:05:43.17	252.37	46.89	-41.5	-43.0	17.5	6.02e-01	0	33	0	182976512	51	4381
2026-01-16 03:05:46.20	251.12	46.00	-41.8	-43.4	17.4	6.04e-01	0	33	0	188743680	51	4597
2026-01-16 03:05:49.23	249.94	45.11	-41.7	-43.3	17.4	6.03e-01	0	33	0	194510848	51	4495
2026-01-16 03:05:52.25	248.83	44.23	-42.2	-43.9	17.3	6.02e-01	0	33	0	200278016	52	4557
2026-01-16 03:05:55.28	247.78	43.36	-42.1	-43.8	17.3	6.00e-01	0	33	0	206045184	52	4495
2026-01-16 03:05:58.31	246.78	42.50	-42.7	-44.5	17.2	6.04e-01	0	33	0	211812352	53	4626
2026-01-16 03:06:01.33	245.84	41.66	-42.4	-44.1	17.3	6.03e-01	0	33	0	217055232	53	4405
2026-01-16 03:06:04.36	244.95	40.82	-43.0	-44.8	17.2	6.03e-01	0	33	0	222822400	54	4499
2026-01-16 03:06:07.39	244.10	40.00	-43.4	-45.3	17.1	6.01e-01	0	33	0	228589568	54	4787
2026-01-16 03:06:10.42	243.29	39.19	-42.9	-44.6	17.2	6.02e-01	0	33	0	234356736	54	4441
2026-01-16 03:06:13.45	242.53	38.39	-43.7	-45.6	17.0	6.04e-01	0	33	0	240123904	55	4700
2026-01-16 03:06:16.47	241.80	37.61	-43.3	-45.1	17.2	6.02e-01	0	33	0	245891072	55	4429
2026-01-16 03:06:19.50	241.10	36.84	-44.0	-46.1	16.9	6.00e-01	0	33	0	251133952	55	4933
2026-01-16 03:06:22.53	240.44	36.08	-43.3	-45.1	17.1	6.02e-01	0	33	0	256901120	55	4424
2026-01-16 03:06:25.56	239.81	35.34	-43.2	-45.1	17.2	6.01e-01	0	33	0	262668288	55	4407
2026-01-16 03:06:28.58	239.21	34.62	-42.3	-44.0	17.3	6.00e-01	0	33	0	268435456	53	4351
2026-01-16 03:06:31.61	238.64	33.91	-42.2	-43.9	17.4	6.01e-01	0	33	0	274202624	53	4306
2026-01-16 03:06:34.64	238.09	33.21	-42.0	-43.7	17.4	6.02e-01	0	33	0	279969792	53	4220
2026-01-16 03:06:37.66	237.57	32.53	-41.8	-43.5	17.4	6.06e-01	0	33	0	285212672	52	4362
2026-01-16 03:06:40.69	237.06	31.85	-41.5	-43.1	17.5	6.02e-01	0	33	0	290979840	52	4167
2026-01-16 03:06:43.72	236.58	31.20	-41.6	-43.2	17.4	6.04e-01	0	33	0	296747008	51	4472
2026-01-16 03:06:46.75	236.12	30.55	-41.7	-43.3	17.4	6.04e-01	0	33	0	302514176	51	4528
2026-01-16 03:06:49.77	235.68	29.92	-41.5	-43.1	17.4	5.99e-01	0	33	0	308281344	51	4403
2026-01-16 03:06:52.80	235.25	29.31	-41.6	-43.2	17.4	6.04e-01	0	33	0	313524224	51	4477
2026-01-16 03:06:55.83	234.84	28.70	-41.7	-43.3	17.4	6.03e-01	0	33	0	319291392	51	4514
2026-01-16 03:06:58.85	234.45	28.11	-41.6	-43.2	17.4	6.00e-01	0	33	0	325058560	51	4489
2026-01-16 03:07:01.88	234.07	27.53	-41.7	-43.3	17.3	6.01e-01	0	33	0	330825728	51	4529
2026-01-16 03:07:04.91	233.71	26.96	-42.0	-43.6	17.3	5.99e-01	0	33	0	336592896	51	4700
2026-01-16 03:07:07.93	233.36	26.40	-42.1	-43.8	17.3	6.02e-01	0	33	0	342360064	52	4516
2026-01-16 03:07:10.96	233.02	25.85	-41.9	-43.6	17.4	6.02e-01	0	33	0	347602944	52	4417
2026-01-16 03:07:13.99	232.70	25.32	-41.9	-43.6	17.4	6.03e-01	0	33	0	353370112	52	4402
2026-01-16 03:07:17.02	232.38	24.79	-42.0	-43.7	17.4	6.00e-01	0	33	0	359137280	52	4455
2026-01-16 03:07:20.05	232.08	24.27	-42.0	-43.7	17.3	6.01e-01	0	33	0	364904448	52	4465
2026-01-16 03:07:23.07	231.79	23.77	-42.0	-43.7	17.3	6.01e-01	0	33	0	370671616	52	4471
2026-01-16 03:07:26.10	231.51	23.27	-42.1	-43.8	17.3	5.99e-01	0	33	0	376438784	52	4532
2026-01-16 03:07:29.13	231.23	22.79	-42.1	-43.9	17.3	6.01e-01	0	33	0	381681664	52	4553
2026-01-16 03:07:32.16	230.97	22.31	-42.1	-43.8	17.3	6.02e-01	0	33	0	387448832	52	4516
2026-01-16 03:07:35.18	230.71	21.84	-42.1	-43.8	17.3	6.00e-01	0	33	0	393216000	52	4502
2026-01-16 03:07:38.21	230.47	21.38	-42.1	-43.8	17.3	6.02e-01	0	33	0	398983168	52	4534
2026-01-16 03:07:41.24	230.23	20.93	-42.2	-43.9	17.3	6.03e-01	0	33	0	404750336	52	4592
2026-01-16 03:07:44.27	229.99	20.49	-42.2	-43.9	17.3	6.02e-01	0	33	0	410517504	52	4595
2026-01-16 03:07:47.30	229.77	20.05	-42.1	-43.8	17.3	6.01e-01	0	33	0	415760384	52	4535
2026-01-16 03:07:50.33	229.55	19.62	-42.1	-43.8	17.3	5.99e-01	0	33	0	421527552	52	4513
2026-01-16 03:07:53.35	229.34	19.20	-42.0	-43.7	17.3	6.01e-01	0	33	0	427294720	52	4468
2026-01-16 03:07:56.38	229.13	18.79	-42.1	-43.8	17.3	6.03e-01	0	33	0	433061888	52	4527
2026-01-16 03:07:59.41	228.94	18.38	-42.1	-43.9	17.3	6.00e-01	0	33	0	438829056	52	4567
2026-01-16 03:08:02.44	228.74	17.98	-42.0	-43.7	17.3	6.03e-01	0	33	0	444596224	52	4491
2026-01-16 03:08:05.46	228.55	17.59	-42.0	-43.7	17.3	6.02e-01	0	33	0	449839104	52	4465
2026-01-16 03:08:08.49	228.37	17.21	-41.9	-43.6	17.3	6.02e-01	0	33	0	455606272	52	4422
2026-01-16 03:08:11.52	228.19	16.83	-41.9	-43.6	17.4	6.02e-01	0	33	0	461373440	52	4405
2026-01-16 03:08:14.54	228.02	16.45	-41.8	-43.5	17.3	6.03e-01	0	33	0	467140608	52	4358
2026-01-16 03:08:17.57	227.85	16.09	-41.8	-43.5	17.4	6.03e-01	0	33	0	472907776	52	4369
2026-01-16 03:08:20.60	227.69	15.72	-41.7	-43.4	17.4	6.02e-01	0	33	0	478150656	52	4338
2026-01-16 03:08:23.63	227.53	15.37	-41.7	-43.4	17.4	6.00e-01	0	33	0	483917824	52	4327
2026-01-16 03:08:26.65	227.38	15.02	-41.9	-43.6	17.3	6.02e-01	0	33	0	489684992	52	4421
2026-01-16 03:08:29.68	227.23	14.67	-41.9	-43.6	17.3	6.03e-01	0	33	0	495452160	52	4409
2026-01-16 03:08:32.70	227.08	14.33	-41.9	-43.7	17.3	6.01e-01	0	33	0	501219328	52	4456
2026-01-16 03:08:35.73	226.94	14.00	-42.1	-43.9	17.3	6.01e-01	0	33	0	506986496	52	4579
2026-01-16 03:08:38.76	226.80	13.67	-42.2	-44.0	17.3	6.03e-01	0	33	0	512229376	52	4618
2026-01-16 03:08:41.79	226.66	13.34	-42.3	-44.1	17.2	6.03e-01	0	33	0	517996544	52	4677
2026-01-16 03:08:44.82	226.53	13.02	-42.1	-43.9	17.2	6.02e-01	0	33	0	523763712	52	4583
2026-01-16 03:08:47.84	226.40	12.70	-42.2	-44.0	17.2	6.00e-01	0	33	0	529530880	52	4612
2026-01-16 03:08:50.87	226.27	12.39	-42.1	-43.9	17.3	6.00e-01	0	33	0	535298048	52	4566
2026-01-16 03:08:53.90	226.15	12.08	-42.1	-43.9	17.2	5.99e-01	0	33	0	541065216	52	4559
2026-01-16 03:08:56.93	226.03	11.78	-42.3	-44.1	17.2	6.01e-01	0	33	0	546308096	52	4667
2026-01-16 03:08:59.96	225.91	11.48	-42.4	-44.2	17.1	6.00e-01	0	33	0	552075264	52	4743
2026-01-16 03:09:02.98	225.80	11.18	-42.6	-44.5	17.1	6.02e-01	0	33	0	557842432	52	4882
2026-01-16 03:09:06.01	225.69	10.89	-42.5	-44.4	17.1	6.02e-01	0	33	0	563609600	52	4843
2026-01-16 03:09:09.04	225.58	10.60	-42.5	-44.4	17.1	6.00e-01	0	33	0	569376768	52	4830
2026-01-16 03:09:12.07	225.47	10.32	-42.4	-44.2	17.1	6.01e-01	0	33	0	574619648	52	4752
2026-01-16 03:09:15.10	225.37	10.04	-42.4	-44.3	17.1	6.01e-01	0	33	0	580386816	52	4784
2026-01-16 03:09:18.12	225.26	9.76	-42.4	-44.3	17.1	6.02e-01	0	33	0	586153984	52	4762
2026-01-16 03:09:21.15	225.16	9.48	-42.6	-44.5	17.1	6.00e-01	0	33	0	591921152	52	4889
2026-01-16 03:09:24.18	225.07	9.21	-42.4	-44.3	17.1	6.01e-01	0	33	0	597688320	52	4798
2026-01-16 03:09:27.21	224.97	8.94	-42.6	-44.5	17.0	6.04e-01	0	33	0	603455488	53	4639
2026-01-16 03:09:30.23	224.88	8.68	-42.7	-44.6	17.1	6.02e-01	0	33	0	609222656	53	4688
2026-01-16 03:09:33.26	224.79	8.42	-42.7	-44.6	17.1	6.00e-01	0	33	0	614465536	53	4672
2026-01-16 03:09:36.29	224.70	8.16	-42.8	-44.7	17.0	6.03e-01	0	33	0	620232704	53	4751
2026-01-16 03:09:39.32	224.61	7.90	-42.7	-44.7	17.0	6.00e-01	0	33	0	625999872	53	4710
2026-01-16 03:09:42.34	224.52	7.65	-42.9	-44.9	17.0	6.04e-01	0	33	0	631767040	53	4846
2026-01-16 03:09:45.37	224.44	7.40	-42.9	-44.9	17.0	6.03e-01	0	33	0	637534208	53	4862
2026-01-16 03:09:48.40	224.36	7.15	-43.2	-45.4	16.9	6.00e-01	0	33	0	642777088	54	4829
2026-01-16 03:09:51.42	224.28	6.90	-43.0	-45.0	17.0	6.01e-01	0	33	0	648544256	54	4617
2026-01-16 03:09:54.45	224.20	6.66	-43.0	-45.0	16.9	6.03e-01	0	33	0	654311424	54	4650
2026-01-16 03:09:57.48	224.12	6.42	-43.0	-45.0	17.0	6.02e-01	0	33	0	660078592	54	4628
2026-01-16 03:10:00.51	224.04	6.18	-43.2	-45.3	16.8	5.99e-01	0	33	0	665845760	54	4792
2026-01-16 03:10:03.54	223.97	5.95	-43.3	-45.4	16.8	5.99e-01	0	33	0	671612928	55	4594
2026-01-16 03:10:06.57	223.90	5.71	-43.2	-45.4	16.8	5.98e-01	0	33	0	676855808	55	4581
2026-01-16 03:10:09.59	223.83	5.48	-43.1	-45.2	16.9	6.03e-01	0	33	0	682622976	55	4489
2026-01-16 03:10:12.62	223.75	5.25	-43.9	-46.4	16.5	6.03e-01	0	33	0	688390144	55	5105
2026-01-16 03:10:15.65	223.69	5.03	-44.4	-47.1	16.2	6.03e-01	0	33	0	694157312	56	5226
2026-01-16 03:10:18.68	223.62	4.80	-50.3	-69.3	3.8	7.46e-01	0	33	104	695730176	68	34003
2026-01-16 03:10:21.71	223.55	4.58	-50.8	-69.8	3.8	7.41e-01	0	33	104	695730176	69	33747
2026-01-16 03:10:24.73	223.49	4.36	-50.9	-70.0	3.8	7.49e-01	0	33	104	695730176	69	34490
2026-01-16 03:10:27.76	223.42	4.14	-51.0	-70.0	3.8	7.44e-01	0	33	104	695730176	69	34845
2026-01-16 03:10:30.79	223.36	3.92	-51.1	-70.1	3.8	7.46e-01	0	33	104	695730176	69	35121
2026-01-16 03:10:33.82	223.30	3.71	-51.2	-70.2	3.8	7.45e-01	0	33	104	695730176	70	33375
2026-01-16 03:10:36.84	223.24	3.50	-51.2	-70.2	3.8	7.43e-01	0	33	104	695730176	70	33467
2026-01-16 03:10:39.87	223.18	3.28	-51.2	-70.2	3.8	7.48e-01	0	33	104	695730176	70	33369
2026-01-16 03:10:42.90	223.12	3.07	-51.1	-70.1	3.8	7.44e-01	0	33	104	695730176	70	33072
2026-01-16 03:10:45.93	223.07	2.87	-51.0	-70.0	3.8	7.48e-01	0	33	104	695730176	70	32750
2026-01-16 03:10:48.96	223.01	2.66	-51.0	-70.0	3.8	7.44e-01	0	33	104	695730176	70	32793
2026-01-16 03:10:51.99	222.96	2.46	-51.0	-70.0	3.8	7.48e-01	0	33	104	695730176	70	32690
2026-01-16 03:10:55.02	222.90	2.25	-51.0	-70.0	3.8	7.48e-01	0	33	104	695730176	70	32686
2026-01-16 03:10:58.05	222.85	2.05	-50.9	-70.0	3.8	7.47e-01	0	33	104	695730176	70	32681

#Closed at: 2026-01-16 03:11:00
#Recorded file [695 MB]: D:/lorett/data/31004_260116_055814.dat