passes_logs/2026/01/16/R3.2S_Murmansk_2ch/R3.2S_Murmansk_2ch__20260116_102216_TY-42_rec.log

#Pass ID: 20260116_102216_TY-42
#Satellite: TY-42
#Configuration: TY-42_900M
#almurnet v.1.7.20251203
#Start time: 2026-01-16 10:22:16

#Version: 2.2.20231116
#Station: R3.2S_Murmansk_2ch
#Location: 33.079688 lon 68.888172 lat
#TLE: 1 64048U 25103A   26016.24410880  .00008011  00000-0  38191-3 0 09990
#TLE: 2 64048 097.4123 091.6382 0001701 090.6906 049.3125 15.19172310 37002

#Time	Az	El	Level	Level2	SNR	BER	BlckErr	Temp	State	Recorded	gain1	gain2
2026-01-16 10:22:16.23	21.84	2.00	-49.6	-52.7	6.3	0.00e+00	0	38	0	0	66	20151
2026-01-16 10:22:19.26	21.72	2.21	-49.6	-52.8	6.2	0.00e+00	0	38	104	0	66	20227
2026-01-16 10:22:22.28	21.61	2.42	-49.6	-52.8	6.2	0.00e+00	0	38	104	0	66	20249
2026-01-16 10:22:25.31	21.49	2.63	-49.6	-52.8	6.2	0.00e+00	0	38	104	0	66	20255
2026-01-16 10:22:28.33	21.37	2.84	-49.6	-52.8	6.2	0.00e+00	0	39	104	0	66	20247
2026-01-16 10:22:31.36	21.24	3.06	-49.7	-52.8	6.2	0.00e+00	0	39	104	0	66	20311
2026-01-16 10:22:34.38	21.11	3.27	-49.7	-52.8	6.2	0.00e+00	0	39	104	0	66	20324
2026-01-16 10:22:37.41	20.98	3.49	-49.7	-52.8	6.2	0.00e+00	0	39	104	0	66	20275
2026-01-16 10:22:40.44	20.85	3.71	-49.7	-52.8	6.2	0.00e+00	0	39	104	0	66	20299
2026-01-16 10:22:43.47	20.71	3.94	-49.7	-52.8	6.2	0.00e+00	0	39	104	0	66	20351
2026-01-16 10:22:46.50	20.58	4.16	-49.7	-52.8	6.2	0.00e+00	0	39	104	0	66	20396
2026-01-16 10:22:49.52	20.44	4.39	-49.7	-52.8	6.2	0.00e+00	0	40	104	0	66	20378
2026-01-16 10:22:52.55	20.29	4.62	-49.7	-52.8	6.2	0.00e+00	0	40	104	0	66	20328
2026-01-16 10:22:55.58	20.14	4.85	-49.7	-52.8	6.2	0.00e+00	0	40	104	0	66	20332
2026-01-16 10:22:58.61	19.99	5.09	-50.0	-53.1	6.2	0.00e+00	0	40	104	0	66	21030
2026-01-16 10:23:01.63	19.84	5.33	-49.8	-53.0	6.2	0.00e+00	0	40	104	0	66	20731
2026-01-16 10:23:04.65	19.68	5.57	-49.7	-52.9	6.2	0.00e+00	0	40	104	0	66	20450
2026-01-16 10:23:07.68	19.52	5.81	-49.9	-53.1	6.2	0.00e+00	0	40	104	0	66	20916
2026-01-16 10:23:10.70	19.36	6.05	-49.8	-53.0	6.2	0.00e+00	0	40	104	0	66	20743
2026-01-16 10:23:13.73	19.19	6.30	-50.0	-53.2	6.2	0.00e+00	0	40	104	0	66	21145
2026-01-16 10:23:16.76	19.01	6.56	-49.9	-53.1	6.2	0.00e+00	0	41	104	0	66	20877
2026-01-16 10:23:19.79	18.84	6.81	-50.1	-53.2	6.2	0.00e+00	0	41	104	0	66	21285
2026-01-16 10:23:22.81	18.66	7.07	-50.0	-53.1	6.2	0.00e+00	0	41	104	0	66	21075
2026-01-16 10:23:25.84	18.47	7.33	-50.2	-53.3	6.2	0.00e+00	0	41	104	0	66	21427
2026-01-16 10:23:28.87	18.28	7.60	-50.1	-53.2	6.2	0.00e+00	0	41	104	0	66	21285
2026-01-16 10:23:31.90	18.09	7.86	-50.2	-53.4	6.2	0.00e+00	0	41	104	0	66	21688
2026-01-16 10:23:34.92	17.89	8.14	-50.2	-53.3	6.2	0.00e+00	0	41	104	0	66	21416
2026-01-16 10:23:37.95	17.68	8.41	-50.3	-53.4	6.2	0.00e+00	0	41	104	0	66	21805
2026-01-16 10:23:40.98	17.47	8.69	-46.9	-48.4	7.1	0.00e+00	0	42	104	92274688	60	17244
2026-01-16 10:23:44.01	17.26	8.97	-38.7	-39.2	11.2	0.00e+00	0	42	0	176160768	44	14975
2026-01-16 10:23:47.03	17.04	9.26	-46.2	-47.4	7.6	0.00e+00	0	42	104	301989888	59	16233
2026-01-16 10:23:50.06	16.81	9.55	-39.0	-39.4	11.1	0.00e+00	0	43	0	385875968	43	16363
2026-01-16 10:23:53.09	16.58	9.85	-46.5	-47.8	7.5	0.00e+00	0	42	104	503316480	59	16990
2026-01-16 10:23:56.12	16.34	10.15	-38.9	-39.4	11.1	0.00e+00	333	43	0	603979776	43	16262
2026-01-16 10:23:59.15	16.10	10.45	-43.8	-45.2	8.5	0.00e+00	0	43	104	721420288	55	15851
2026-01-16 10:24:02.17	15.85	10.76	-39.3	-39.7	11.1	0.00e+00	26	43	0	822083584	44	16007
2026-01-16 10:24:05.20	15.59	11.07	-45.6	-46.7	7.9	0.00e+00	0	43	104	922746880	58	15913
2026-01-16 10:24:08.23	15.33	11.39	-40.2	-40.8	10.5	0.00e+00	3967	44	0	1023410176	46	16074
2026-01-16 10:24:11.26	15.06	11.71	-42.6	-43.2	9.2	0.00e+00	294	43	104	1149239296	52	15006
2026-01-16 10:24:14.28	14.78	12.04	-40.6	-41.2	10.3	0.00e+00	5286	44	0	1249902592	46	16787
2026-01-16 10:24:17.31	14.49	12.37	-43.4	-44.0	9.0	0.00e+00	882	44	104	1392508928	54	14768
2026-01-16 10:24:20.34	14.19	12.71	-42.1	-42.7	10.0	5.08e-02	5511	45	0	1543503872	48	17893
2026-01-16 10:24:23.37	13.89	13.06	-39.2	-39.7	9.8	0.00e+00	639	44	104	1652555776	45	15015
2026-01-16 10:24:26.39	13.57	13.40	-40.8	-41.4	10.2	0.00e+00	5512	45	0	1845493760	47	16231
2026-01-16 10:24:29.42	13.25	13.76	-38.8	-39.2	10.1	0.00e+00	180	44	104	1979711488	45	14231
2026-01-16 10:24:32.45	12.92	14.12	-42.8	-43.5	9.7	8.99e-02	5508	45	0	2214592512	51	16447
2026-01-16 10:24:35.48	12.57	14.49	-37.3	-37.6	11.2	0.00e+00	5509	44	104	2348810240	41	14945
2026-01-16 10:24:38.50	12.22	14.86	-42.4	-43.1	9.9	0.00e+00	5514	45	0	2550136832	50	16588
2026-01-16 10:24:41.53	11.86	15.25	-36.0	-36.3	11.5	0.00e+00	4650	45	104	2734686208	39	14356
2026-01-16 10:24:44.56	11.48	15.63	-43.7	-44.4	9.1	0.00e+00	5517	46	0	2977955840	53	16381
2026-01-16 10:24:47.58	11.09	16.03	-35.9	-36.2	12.8	0.00e+00	0	45	0	3162505216	39	14218
2026-01-16 10:24:50.61	10.69	16.43	-42.6	-43.1	9.8	1.09e-03	5411	46	0	3430940672	50	16770
2026-01-16 10:24:53.63	10.28	16.84	-30.7	-31.0	13.9	2.07e-01	0	45	0	3774873600	28	14687
2026-01-16 10:24:56.66	9.85	17.25	-43.3	-44.0	9.4	3.23e-01	5401	46	0	4110417920	52	16455
2026-01-16 10:24:59.69	9.41	17.68	-31.8	-32.1	13.5	2.24e-01	0	46	0	4454350848	33	12532
2026-01-16 10:25:02.72	8.95	18.11	-42.7	-43.3	9.8	2.04e-01	5402	46	0	4789895168	51	16155
2026-01-16 10:25:05.75	8.48	18.55	-29.5	-29.8	14.4	1.52e-01	0	46	0	5133828096	26	14319
2026-01-16 10:25:08.78	7.99	19.00	-43.1	-43.7	9.6	2.14e-01	5512	47	0	5477761024	52	15977
2026-01-16 10:25:11.80	7.48	19.45	-30.9	-31.2	14.0	1.06e-01	0	46	0	5813305344	29	14151
2026-01-16 10:25:14.83	6.95	19.92	-42.4	-43.0	10.1	2.37e-01	5511	47	0	6157238272	50	16489
2026-01-16 10:25:17.85	6.41	20.39	-28.3	-28.6	14.7	4.96e-02	0	46	0	6501171200	23	14847
2026-01-16 10:25:20.88	5.85	20.87	-42.4	-43.0	10.1	1.67e-01	5401	47	0	6836715520	50	16450
2026-01-16 10:25:23.91	5.26	21.37	-29.7	-30.0	14.4	7.83e-02	0	46	0	7180648448	26	14686
2026-01-16 10:25:26.94	4.65	21.87	-39.6	-40.0	11.3	1.03e-01	301	47	0	7524581376	46	14708
2026-01-16 10:25:29.96	4.02	22.37	-27.7	-27.9	14.9	6.86e-02	0	46	0	7860125696	21	15369
2026-01-16 10:25:32.99	3.37	22.89	-40.6	-41.0	10.8	7.78e-02	5293	47	0	8204058624	47	15618
2026-01-16 10:25:36.02	2.69	23.42	-29.0	-29.3	14.7	8.50e-02	0	46	0	8539602944	25	14333
2026-01-16 10:25:39.05	1.98	23.96	-37.9	-38.2	12.4	4.69e-02	0	46	0	8883535872	43	14163
2026-01-16 10:25:42.08	1.24	24.51	-28.0	-28.3	15.0	5.61e-02	0	46	0	9227468800	21	16031
2026-01-16 10:25:45.10	0.48	25.06	-39.3	-39.7	11.6	4.31e-02	0	46	0	9563013120	46	14223
2026-01-16 10:25:48.13	359.69	25.63	-28.7	-28.9	14.9	6.18e-02	0	46	0	9906946048	23	15460
2026-01-16 10:25:51.16	358.86	26.20	-35.6	-35.9	13.5	1.52e-02	0	46	0	10242490368	38	14523
2026-01-16 10:25:54.18	358.00	26.78	-28.3	-28.5	15.0	1.35e-02	0	46	0	10586423296	22	15651
2026-01-16 10:25:57.19	357.10	27.37	-36.6	-36.9	13.1	2.59e-02	0	46	0	10921967616	40	14484
2026-01-16 10:26:00.22	356.16	27.97	-28.4	-28.7	15.0	2.51e-02	0	46	0	11265900544	22	15919
2026-01-16 10:26:03.25	355.19	28.58	-30.8	-31.0	14.4	2.26e-02	0	46	0	11601444864	28	14708
2026-01-16 10:26:06.27	354.17	29.19	-29.2	-29.0	14.9	1.00e-02	0	46	0	11945377792	23	15588
2026-01-16 10:26:09.30	353.11	29.81	-29.8	-30.0	14.7	1.00e-02	0	46	0	12280922112	27	13854
2026-01-16 10:26:12.32	352.01	30.43	-29.1	-29.3	14.8	1.49e-02	0	46	0	12624855040	23	16161
2026-01-16 10:26:15.35	350.85	31.06	-28.6	-28.9	15.0	8.59e-03	0	46	0	12968787968	24	14455
2026-01-16 10:26:18.37	349.65	31.69	-29.4	-29.6	14.8	1.69e-02	0	46	0	13312720896	24	15758
2026-01-16 10:26:21.39	348.39	32.33	-26.0	-26.2	15.4	3.06e-03	0	46	0	13648265216	19	14126
2026-01-16 10:26:24.42	347.08	32.96	-29.7	-29.9	14.7	6.72e-03	0	46	0	13992198144	24	16380
2026-01-16 10:26:27.45	345.71	33.59	-26.9	-27.2	15.3	5.86e-03	0	46	0	14327742464	21	14146
2026-01-16 10:26:30.47	344.29	34.22	-29.3	-29.6	14.8	5.55e-03	0	46	0	14671675392	24	15720
2026-01-16 10:26:33.50	342.81	34.85	-23.6	-23.8	15.6	1.08e-03	0	46	0	15007219712	14	14341
2026-01-16 10:26:36.53	341.26	35.47	-30.6	-30.9	14.4	2.30e-03	0	46	0	15351152640	26	16280
2026-01-16 10:26:39.55	339.65	36.07	-26.0	-26.3	15.4	3.13e-03	0	46	0	15686696960	19	14286
2026-01-16 10:26:42.58	337.97	36.67	-29.5	-29.7	14.7	1.70e-03	0	46	0	16030629888	24	15975
2026-01-16 10:26:45.61	336.23	37.25	-22.5	-22.7	15.6	3.10e-04	0	46	0	16374562816	12	14231
2026-01-16 10:26:48.63	334.43	37.81	-30.9	-31.1	14.4	1.90e-03	0	46	0	16710107136	27	15829
2026-01-16 10:26:51.66	332.56	38.35	-25.1	-25.3	15.5	1.28e-03	0	46	0	17054040064	17	14358
2026-01-16 10:26:54.69	330.62	38.86	-29.3	-29.5	14.8	3.62e-04	0	46	0	17389584384	24	15580
2026-01-16 10:26:57.72	328.61	39.35	-22.8	-23.0	15.6	1.05e-04	0	46	0	17733517312	11	15521
2026-01-16 10:27:00.75	326.55	39.80	-31.2	-31.4	14.3	8.30e-04	0	46	0	18077450240	27	16328
2026-01-16 10:27:03.77	324.43	40.22	-23.6	-23.9	15.5	6.39e-04	0	45	0	18412994560	14	14445
2026-01-16 10:27:06.80	322.25	40.60	-28.9	-29.1	14.8	5.86e-04	0	46	0	18756927488	23	15758
2026-01-16 10:27:09.83	320.02	40.94	-23.2	-23.4	15.5	3.81e-05	0	46	0	19100860416	12	15310
2026-01-16 10:27:12.86	317.74	41.23	-31.1	-31.3	14.3	2.40e-03	0	46	0	19436404736	28	15294
2026-01-16 10:27:15.89	315.42	41.48	-22.3	-22.5	15.6	2.40e-03	0	46	0	19780337664	11	14688
2026-01-16 10:27:18.92	313.07	41.67	-27.9	-28.1	15.0	1.10e-03	0	46	0	20124270592	22	14863
2026-01-16 10:27:21.94	310.70	41.81	-51.7	-54.8	6.2	2.28e-03	0	45	104	20149436416	69	21451
2026-01-16 10:27:24.97	308.30	41.90	-51.7	-54.8	6.2	2.28e-03	0	45	104	20149436416	69	21501
2026-01-16 10:27:28.00	305.90	41.93	-51.7	-54.8	6.2	2.28e-03	0	45	104	20149436416	69	21538
2026-01-16 10:27:31.03	303.49	41.91	-51.7	-54.8	6.2	2.28e-03	0	45	104	20149436416	69	21561
2026-01-16 10:27:34.06	301.09	41.84	-51.7	-54.8	6.2	0.00e+00	0	44	104	20149436416	69	21520
2026-01-16 10:27:37.08	298.72	41.71	-51.7	-54.8	6.2	0.00e+00	0	44	104	20149436416	69	21507
2026-01-16 10:27:40.11	296.36	41.53	-51.7	-54.8	6.2	0.00e+00	0	44	104	20149436416	69	21531
2026-01-16 10:27:43.14	294.03	41.29	-51.7	-54.8	6.2	0.00e+00	0	44	104	20149436416	69	21522
2026-01-16 10:27:46.16	291.74	41.01	-51.7	-54.8	6.2	0.00e+00	0	44	104	20149436416	69	21585
2026-01-16 10:27:49.19	289.50	40.69	-51.7	-54.8	6.2	0.00e+00	0	44	104	20149436416	69	21547
2026-01-16 10:27:52.22	287.30	40.32	-51.7	-54.8	6.2	0.00e+00	0	44	104	20149436416	69	21569
2026-01-16 10:27:55.25	285.16	39.90	-51.7	-54.8	6.2	0.00e+00	0	44	104	20149436416	69	21592
2026-01-16 10:27:58.28	283.08	39.46	-51.7	-54.8	6.2	0.00e+00	0	44	104	20149436416	69	21592
2026-01-16 10:28:01.30	281.06	38.98	-51.7	-54.8	6.2	0.00e+00	0	44	104	20149436416	69	21494
2026-01-16 10:28:04.33	279.10	38.47	-51.7	-54.8	6.2	0.00e+00	0	44	104	20149436416	69	21403
2026-01-16 10:28:07.36	277.21	37.93	-51.7	-54.8	6.2	0.00e+00	0	43	104	20149436416	69	21431
2026-01-16 10:28:10.38	275.39	37.38	-51.6	-54.8	6.2	0.00e+00	0	44	104	20149436416	69	21430
2026-01-16 10:28:13.41	273.63	36.80	-51.6	-54.7	6.2	0.00e+00	0	43	104	20149436416	69	21338
2026-01-16 10:28:16.44	271.93	36.21	-51.6	-54.8	6.2	0.00e+00	0	43	104	20149436416	69	21398
2026-01-16 10:28:19.46	270.30	35.60	-51.6	-54.7	6.2	0.00e+00	0	44	104	20149436416	69	21237
2026-01-16 10:28:22.49	268.74	34.98	-51.6	-54.7	6.2	0.00e+00	0	43	104	20149436416	69	21248
2026-01-16 10:28:25.52	267.23	34.36	-51.6	-54.7	6.2	0.00e+00	0	43	104	20149436416	69	21243
2026-01-16 10:28:28.55	265.79	33.72	-51.6	-54.7	6.2	0.00e+00	0	43	104	20149436416	69	21316
2026-01-16 10:28:31.58	264.40	33.09	-51.6	-54.7	6.2	0.00e+00	0	44	104	20149436416	69	21327
2026-01-16 10:28:34.60	263.08	32.45	-51.5	-54.6	6.2	0.00e+00	0	43	104	20149436416	69	21107
2026-01-16 10:28:37.63	261.80	31.82	-51.5	-54.6	6.2	0.00e+00	0	43	104	20149436416	69	21063
2026-01-16 10:28:40.66	260.58	31.18	-51.5	-54.6	6.2	0.00e+00	0	43	104	20149436416	69	21111
2026-01-16 10:28:43.69	259.41	30.55	-51.5	-54.6	6.2	0.00e+00	0	43	104	20149436416	69	21091
2026-01-16 10:28:46.72	258.29	29.92	-51.5	-54.6	6.2	0.00e+00	0	43	104	20149436416	69	20996
2026-01-16 10:28:49.74	257.22	29.30	-51.5	-54.6	6.2	0.00e+00	0	43	104	20149436416	69	20939
2026-01-16 10:28:52.77	256.19	28.68	-51.4	-54.5	6.2	0.00e+00	0	43	104	20149436416	69	20830
2026-01-16 10:28:55.80	255.20	28.07	-51.4	-54.5	6.2	0.00e+00	0	43	104	20149436416	69	20841
2026-01-16 10:28:58.83	254.25	27.47	-51.4	-54.5	6.2	0.00e+00	0	43	104	20149436416	69	20782
2026-01-16 10:29:01.83	253.35	26.88	-51.4	-54.5	6.2	0.00e+00	0	43	104	20149436416	69	20760
2026-01-16 10:29:04.85	252.48	26.29	-51.4	-54.5	6.2	0.00e+00	0	43	104	20149436416	69	20693
2026-01-16 10:29:07.88	251.64	25.71	-51.3	-54.4	6.2	0.00e+00	0	43	104	20149436416	69	20600
2026-01-16 10:29:10.91	250.83	25.14	-51.3	-54.4	6.2	0.00e+00	0	43	104	20149436416	69	20583
2026-01-16 10:29:13.94	250.06	24.58	-51.3	-54.4	6.2	0.00e+00	0	43	104	20149436416	69	20583
2026-01-16 10:29:16.97	249.31	24.03	-51.3	-54.4	6.2	0.00e+00	0	43	104	20149436416	69	20614
2026-01-16 10:29:19.99	248.60	23.49	-51.3	-54.4	6.2	0.00e+00	0	43	104	20149436416	69	20505
2026-01-16 10:29:23.02	247.91	22.96	-51.3	-54.4	6.2	0.00e+00	0	43	104	20149436416	69	20495
2026-01-16 10:29:26.05	247.25	22.43	-51.2	-54.3	6.2	0.00e+00	0	43	104	20149436416	69	20326
2026-01-16 10:29:29.08	246.61	21.92	-51.2	-54.4	6.2	0.00e+00	0	43	104	20149436416	69	20418
2026-01-16 10:29:32.10	246.00	21.42	-51.2	-54.3	6.2	0.00e+00	0	43	104	20149436416	69	20334
2026-01-16 10:29:35.13	245.40	20.92	-51.2	-54.3	6.2	0.00e+00	0	43	104	20149436416	69	20272
2026-01-16 10:29:38.16	244.83	20.44	-51.2	-54.3	6.2	0.00e+00	0	43	104	20149436416	69	20226
2026-01-16 10:29:41.19	244.28	19.96	-51.1	-54.3	6.2	0.00e+00	0	43	104	20149436416	69	20191
2026-01-16 10:29:44.22	243.75	19.49	-51.1	-54.2	6.2	0.00e+00	0	43	104	20149436416	69	20157
2026-01-16 10:29:47.25	243.24	19.03	-51.1	-54.2	6.2	0.00e+00	0	43	104	20149436416	69	20122
2026-01-16 10:29:50.28	242.74	18.58	-51.1	-54.2	6.2	0.00e+00	0	43	104	20149436416	69	20093
2026-01-16 10:29:53.30	242.26	18.14	-51.1	-54.2	6.2	0.00e+00	0	43	104	20149436416	69	20066
2026-01-16 10:29:56.33	241.80	17.70	-51.1	-54.2	6.2	0.00e+00	0	43	104	20149436416	69	20061
2026-01-16 10:29:59.35	241.35	17.27	-51.0	-54.1	6.2	0.00e+00	0	43	104	20149436416	69	19889
2026-01-16 10:30:02.38	240.92	16.85	-51.0	-54.1	6.2	0.00e+00	0	43	104	20149436416	69	19928
2026-01-16 10:30:05.41	240.50	16.44	-51.0	-54.1	6.2	0.00e+00	0	43	104	20149436416	69	19865
2026-01-16 10:30:08.44	240.10	16.04	-51.0	-54.1	6.2	0.00e+00	0	43	104	20149436416	69	19920
2026-01-16 10:30:11.47	239.70	15.64	-51.0	-54.1	6.2	0.00e+00	0	43	104	20149436416	69	19835
2026-01-16 10:30:14.50	239.32	15.25	-51.0	-54.1	6.2	0.00e+00	0	43	104	20149436416	69	19790
2026-01-16 10:30:17.52	238.95	14.87	-51.0	-54.1	6.2	0.00e+00	0	43	104	20149436416	69	19849
2026-01-16 10:30:20.55	238.60	14.49	-51.0	-54.1	6.2	0.00e+00	0	43	104	20149436416	69	19767
2026-01-16 10:30:23.58	238.25	14.12	-50.9	-54.1	6.2	0.00e+00	0	43	104	20149436416	69	19711
2026-01-16 10:30:26.60	237.91	13.76	-50.9	-54.0	6.2	0.00e+00	0	43	104	20149436416	69	19692
2026-01-16 10:30:29.63	237.59	13.40	-50.9	-54.0	6.2	0.00e+00	0	43	104	20149436416	69	19701
2026-01-16 10:30:32.66	237.27	13.05	-50.9	-54.0	6.2	0.00e+00	0	43	104	20149436416	68	20729
2026-01-16 10:30:35.69	236.96	12.70	-50.8	-54.0	6.2	0.00e+00	0	43	104	20149436416	68	20679
2026-01-16 10:30:38.72	236.66	12.36	-50.8	-53.9	6.2	0.00e+00	0	43	104	20149436416	68	20571
2026-01-16 10:30:41.74	236.37	12.02	-50.8	-54.0	6.2	0.00e+00	0	43	104	20149436416	68	20698
2026-01-16 10:30:44.77	236.09	11.69	-50.8	-54.0	6.2	0.00e+00	0	43	104	20149436416	68	20662
2026-01-16 10:30:47.80	235.81	11.37	-50.8	-53.9	6.2	0.00e+00	0	43	104	20149436416	68	20403
2026-01-16 10:30:50.82	235.54	11.05	-50.7	-53.9	6.2	0.00e+00	0	43	104	20149436416	68	20438
2026-01-16 10:30:53.85	235.28	10.73	-50.8	-53.9	6.2	0.00e+00	0	43	104	20149436416	68	20466
2026-01-16 10:30:56.88	235.03	10.42	-50.7	-53.9	6.2	0.00e+00	0	43	104	20149436416	68	20405
2026-01-16 10:30:59.91	234.78	10.12	-50.7	-53.8	6.2	0.00e+00	0	43	104	20149436416	68	20263
2026-01-16 10:31:02.93	234.54	9.82	-50.6	-53.8	6.2	0.00e+00	0	43	104	20149436416	68	20234
2026-01-16 10:31:05.96	234.31	9.52	-50.6	-53.8	6.2	0.00e+00	0	43	104	20149436416	68	20255
2026-01-16 10:31:08.98	234.08	9.23	-50.6	-53.8	6.2	0.00e+00	0	43	104	20149436416	68	20218
2026-01-16 10:31:12.01	233.86	8.94	-50.6	-53.7	6.2	0.00e+00	0	43	104	20149436416	68	19992
2026-01-16 10:31:15.03	233.64	8.66	-50.5	-53.6	6.2	0.00e+00	0	43	104	20149436416	68	19933
2026-01-16 10:31:18.06	233.43	8.38	-50.5	-53.7	6.2	0.00e+00	0	43	104	20149436416	68	19986
2026-01-16 10:31:21.09	233.22	8.10	-50.5	-53.7	6.2	0.00e+00	0	43	104	20149436416	68	19969
2026-01-16 10:31:24.12	233.02	7.83	-50.5	-53.6	6.2	0.00e+00	0	43	104	20149436416	68	19746
2026-01-16 10:31:27.14	232.82	7.56	-50.4	-53.5	6.2	0.00e+00	0	43	104	20149436416	68	19635
2026-01-16 10:31:30.17	232.63	7.29	-50.4	-53.5	6.2	0.00e+00	0	43	104	20149436416	68	19665
2026-01-16 10:31:33.20	232.44	7.03	-50.4	-53.6	6.2	0.00e+00	0	43	104	20149436416	67	20909
2026-01-16 10:31:36.22	232.26	6.77	-50.3	-53.5	6.2	0.00e+00	0	43	104	20149436416	67	20684
2026-01-16 10:31:39.25	232.08	6.51	-50.2	-53.4	6.2	0.00e+00	0	43	104	20149436416	67	20485
2026-01-16 10:31:42.28	231.90	6.26	-50.2	-53.4	6.2	0.00e+00	0	43	104	20149436416	67	20478
2026-01-16 10:31:45.31	231.73	6.01	-50.3	-53.4	6.2	0.00e+00	0	43	104	20149436416	67	20570
2026-01-16 10:31:48.33	231.56	5.76	-50.2	-53.3	6.2	0.00e+00	0	43	104	20149436416	67	20353
2026-01-16 10:31:51.36	231.40	5.52	-50.0	-53.2	6.2	0.00e+00	0	43	104	20149436416	67	20019
2026-01-16 10:31:54.39	231.24	5.27	-50.0	-53.2	6.2	0.00e+00	0	43	104	20149436416	67	19936
2026-01-16 10:31:57.42	231.08	5.04	-50.2	-53.4	6.2	0.00e+00	0	43	104	20149436416	67	20463
2026-01-16 10:32:00.44	230.93	4.80	-51.1	-54.2	6.2	0.00e+00	0	43	104	20149436416	67	22520
2026-01-16 10:32:03.47	230.78	4.57	-51.4	-54.5	6.2	0.00e+00	0	43	104	20149436416	68	21957
2026-01-16 10:32:06.50	230.63	4.33	-51.5	-54.7	6.2	0.00e+00	0	43	104	20149436416	68	22469
2026-01-16 10:32:09.53	230.49	4.11	-51.6	-54.7	6.2	0.00e+00	0	43	104	20149436416	68	22542
2026-01-16 10:32:12.55	230.35	3.88	-51.7	-54.8	6.2	0.00e+00	0	43	104	20149436416	69	21447
2026-01-16 10:32:15.58	230.21	3.66	-51.7	-54.8	6.2	0.00e+00	0	43	104	20149436416	69	21582
2026-01-16 10:32:18.60	230.08	3.43	-51.7	-54.8	6.2	0.00e+00	0	43	104	20149436416	69	21558
2026-01-16 10:32:21.63	229.94	3.21	-51.7	-54.8	6.2	0.00e+00	0	43	104	20149436416	69	21486
2026-01-16 10:32:24.66	229.81	3.00	-51.6	-54.8	6.2	0.00e+00	0	43	104	20149436416	69	21402
2026-01-16 10:32:27.69	229.69	2.78	-51.7	-54.8	6.2	0.00e+00	0	43	104	20149436416	69	21389
2026-01-16 10:32:30.71	229.56	2.57	-51.6	-54.7	6.2	0.00e+00	0	43	104	20149436416	69	21241
2026-01-16 10:32:33.74	229.44	2.36	-51.6	-54.7	6.2	0.00e+00	0	43	104	20149436416	69	21305
2026-01-16 10:32:36.77	229.32	2.15	-51.6	-54.7	6.2	0.00e+00	0	43	104	20149436416	69	21244
2026-01-16 10:32:39.80	229.20	1.94	-51.5	-54.7	6.2	0.00e+00	0	43	104	20149436416	69	21139

#Closed at: 2026-01-16 10:32:39
#Recorded file [20149 MB]: D:/lorett/data/31004_260116_132216.dat