passes_logs/2026/01/16/R3.2S_Murmansk_2ch/R3.2S_Murmansk_2ch__20260116_043536_AQUA_rec.log

#Pass ID: 20260116_043536_AQUA
#Satellite: AQUA
#Configuration: AQUA
#almurnet v.1.7.20251203
#Start time: 2026-01-16 04:35:37

#Version: 2.2.20231116
#Station: R3.2S_Murmansk_2ch
#Location: 33.079688 lon 68.888172 lat
#TLE: 1 27424U 02022A   26015.64967716  .00000624  00000+0  13471-3 0  9995
#TLE: 2 27424  98.4082 342.0879 0002031  77.4941  33.3914 14.61821794260984

#Time	Az	El	Level	Level2	SNR	BER	BlckErr	Temp	State	Recorded	gain1	gain2
2026-01-16 04:35:37.89	33.73	2.11	-48.7	-67.7	3.8	7.43e-01	0	31	0	0	66	31713
2026-01-16 04:35:40.91	33.55	2.29	-48.7	-67.7	3.8	7.44e-01	0	31	104	0	65	33575
2026-01-16 04:35:43.94	33.37	2.48	-48.7	-67.7	3.8	7.44e-01	0	31	104	0	65	33577
2026-01-16 04:35:46.97	33.19	2.67	-48.7	-67.7	3.8	7.49e-01	0	31	104	0	65	33568
2026-01-16 04:35:50.00	33.00	2.86	-48.6	-67.7	3.8	7.45e-01	0	31	104	0	65	33445
2026-01-16 04:35:53.03	32.81	3.05	-48.6	-67.7	3.9	7.47e-01	0	31	104	0	65	33409
2026-01-16 04:35:56.05	32.62	3.24	-48.7	-67.7	3.8	7.43e-01	0	32	104	0	65	33483
2026-01-16 04:35:59.08	32.43	3.44	-48.7	-67.7	3.8	7.48e-01	0	32	104	0	65	33571
2026-01-16 04:36:02.11	32.23	3.63	-48.6	-67.6	3.8	7.48e-01	0	32	104	0	65	33084
2026-01-16 04:36:05.14	32.03	3.83	-48.7	-67.7	3.8	7.47e-01	0	32	104	0	65	33516
2026-01-16 04:36:08.17	31.83	4.03	-48.6	-67.3	3.8	7.45e-01	0	32	104	0	65	31870
2026-01-16 04:36:11.20	31.62	4.23	-48.4	-66.1	3.8	7.46e-01	0	32	104	0	65	27822
2026-01-16 04:36:14.22	31.42	4.42	-47.8	-63.5	3.8	7.47e-01	0	32	104	0	64	21806
2026-01-16 04:36:17.25	31.20	4.63	-47.3	-62.0	3.8	7.51e-01	0	32	104	0	63	19407
2026-01-16 04:36:20.28	30.99	4.83	-47.3	-62.0	3.8	7.45e-01	0	32	104	0	63	19604
2026-01-16 04:36:23.31	30.77	5.03	-47.5	-62.6	3.8	7.43e-01	0	32	104	0	63	20809
2026-01-16 04:36:26.33	30.55	5.24	-48.2	-65.3	3.8	7.44e-01	0	32	104	0	64	26830
2026-01-16 04:36:29.36	30.32	5.44	-45.2	-57.6	3.8	7.43e-01	0	32	104	0	59	14807
2026-01-16 04:36:32.39	30.09	5.65	-48.1	-63.1	3.9	7.43e-01	0	32	104	0	65	19665
2026-01-16 04:36:35.42	29.85	5.86	-45.4	-57.9	3.8	7.44e-01	0	32	104	0	60	14375
2026-01-16 04:36:38.44	29.62	6.07	-45.1	-57.5	3.8	7.45e-01	0	32	104	0	59	14573
2026-01-16 04:36:41.47	29.37	6.29	-46.6	-59.6	3.9	7.46e-01	0	32	104	0	60	17639
2026-01-16 04:36:44.50	29.13	6.50	-47.9	-62.6	3.9	7.45e-01	0	33	104	0	64	19663
2026-01-16 04:36:47.53	28.88	6.71	-44.7	-56.8	3.9	7.45e-01	0	32	104	0	58	14322
2026-01-16 04:36:50.55	28.62	6.93	-48.5	-64.3	3.9	7.39e-01	0	33	104	0	66	21302
2026-01-16 04:36:53.58	28.36	7.15	-45.4	-57.8	3.8	7.44e-01	0	33	104	0	59	15173
2026-01-16 04:36:56.61	28.10	7.37	-44.5	-56.5	3.9	7.43e-01	0	32	104	0	58	13757
2026-01-16 04:36:59.64	27.83	7.59	-45.0	-57.1	3.8	7.42e-01	0	33	104	0	58	14865
2026-01-16 04:37:02.67	27.56	7.81	-44.6	-56.6	3.8	7.46e-01	0	33	104	0	58	13975
2026-01-16 04:37:05.70	27.28	8.04	-48.1	-62.3	3.9	7.51e-01	0	33	104	0	63	20183
2026-01-16 04:37:08.73	27.00	8.27	-46.4	-59.4	3.9	7.45e-01	0	33	104	0	62	15259
2026-01-16 04:37:11.75	26.71	8.49	-44.3	-56.1	3.8	7.49e-01	0	33	104	0	57	13977
2026-01-16 04:37:14.78	26.42	8.72	-46.9	-60.0	3.9	7.45e-01	0	33	104	0	63	15479
2026-01-16 04:37:17.81	26.12	8.95	-44.5	-56.5	3.9	7.45e-01	0	33	104	0	58	13775
2026-01-16 04:37:20.83	25.82	9.19	-43.9	-55.6	3.8	7.49e-01	0	33	104	0	56	13985
2026-01-16 04:37:23.86	25.51	9.42	-46.1	-59.0	3.8	7.51e-01	0	33	104	0	60	16469
2026-01-16 04:37:26.89	25.20	9.66	-43.8	-55.6	3.8	7.45e-01	0	33	104	0	56	13893
2026-01-16 04:37:29.92	24.88	9.90	-49.3	-65.6	3.8	7.49e-01	0	33	104	0	66	24933
2026-01-16 04:37:32.95	24.55	10.13	-44.7	-56.7	3.9	7.46e-01	0	33	104	0	58	14117
2026-01-16 04:37:35.98	24.22	10.38	-46.6	-59.4	3.8	7.45e-01	0	33	104	0	60	17220
2026-01-16 04:37:39.01	23.88	10.62	-45.6	-57.8	3.9	7.44e-01	0	33	104	0	60	14367
2026-01-16 04:37:42.03	23.54	10.86	-44.4	-56.3	3.9	7.46e-01	0	33	104	0	57	14319
2026-01-16 04:37:45.06	23.19	11.11	-43.9	-55.6	3.8	7.46e-01	0	33	104	0	56	13895
2026-01-16 04:37:48.09	22.83	11.36	-47.8	-61.5	3.8	7.48e-01	0	33	104	0	63	18384
2026-01-16 04:37:51.12	22.47	11.61	-43.6	-55.3	3.9	7.45e-01	0	33	104	0	56	13423
2026-01-16 04:37:54.15	22.10	11.86	-49.9	-68.2	3.8	7.48e-01	0	33	104	0	67	31738
2026-01-16 04:37:57.17	21.72	12.11	-44.0	-55.7	3.8	7.44e-01	0	33	104	0	57	13407
2026-01-16 04:38:00.20	21.33	12.37	-46.1	-58.6	3.9	7.46e-01	0	33	104	0	60	15629
2026-01-16 04:38:03.23	20.94	12.63	-45.4	-57.4	3.9	7.47e-01	0	33	104	0	59	14511
2026-01-16 04:38:06.26	20.54	12.89	-43.1	-54.7	3.9	7.46e-01	0	33	104	0	55	13342
2026-01-16 04:38:09.29	20.13	13.15	-43.9	-55.6	3.8	7.46e-01	0	33	104	0	55	14712
2026-01-16 04:38:12.31	19.71	13.41	-47.8	-61.4	3.8	7.46e-01	0	33	104	0	63	18272
2026-01-16 04:38:15.34	19.29	13.67	-42.7	-54.1	3.9	7.44e-01	0	33	104	0	54	13180
2026-01-16 04:38:18.37	18.86	13.94	-49.7	-67.0	3.9	7.42e-01	0	33	104	0	67	27537
2026-01-16 04:38:21.40	18.41	14.20	-43.6	-55.1	3.9	7.49e-01	0	33	104	0	56	13259
2026-01-16 04:38:24.43	17.96	14.47	-44.8	-56.8	3.9	7.44e-01	0	33	104	0	59	13504
2026-01-16 04:38:27.45	17.51	14.74	-43.9	-55.6	3.9	7.49e-01	0	33	104	0	57	13217
2026-01-16 04:38:30.48	17.04	15.01	-42.8	-54.2	3.9	7.45e-01	0	33	104	0	54	13319
2026-01-16 04:38:33.51	16.56	15.29	-45.5	-57.5	3.9	7.46e-01	0	33	104	0	58	15481
2026-01-16 04:38:36.54	16.07	15.56	-45.9	-58.3	3.9	7.42e-01	0	33	104	0	61	14273
2026-01-16 04:38:39.56	15.57	15.84	-42.6	-54.0	3.9	7.42e-01	0	33	104	0	54	13002
2026-01-16 04:38:42.59	15.07	16.12	-47.5	-60.9	3.9	7.47e-01	0	33	104	0	64	16216
2026-01-16 04:38:45.62	14.55	16.39	-43.3	-54.8	3.8	7.47e-01	0	33	104	0	55	13536
2026-01-16 04:38:48.65	14.02	16.67	-43.5	-55.1	3.8	7.46e-01	0	33	104	0	56	13148
2026-01-16 04:38:51.67	13.48	16.95	-43.2	-54.7	3.8	7.44e-01	0	33	104	0	55	13392
2026-01-16 04:38:54.70	12.93	17.24	-42.6	-54.0	3.8	7.46e-01	0	33	104	0	54	13069
2026-01-16 04:38:57.73	12.37	17.52	-48.0	-61.4	3.8	7.48e-01	0	33	104	0	63	18112
2026-01-16 04:39:00.76	11.79	17.80	-43.9	-55.5	3.8	7.44e-01	0	33	104	0	57	13047
2026-01-16 04:39:03.79	11.21	18.09	-45.1	-56.9	3.8	7.49e-01	0	33	104	0	57	15387
2026-01-16 04:39:06.82	10.61	18.37	-45.9	-58.2	3.8	7.48e-01	0	33	104	0	61	14109
2026-01-16 04:39:09.84	10.01	18.66	-43.0	-54.4	3.9	7.45e-01	0	33	104	0	55	12908
2026-01-16 04:39:12.87	9.38	18.94	-42.8	-54.3	3.8	7.50e-01	0	33	104	0	54	13434
2026-01-16 04:39:15.90	8.75	19.23	-45.1	-56.9	3.9	7.44e-01	0	33	104	0	57	15287
2026-01-16 04:39:18.93	8.10	19.52	-42.9	-54.4	3.9	7.47e-01	0	33	104	0	55	12847
2026-01-16 04:39:21.95	7.44	19.80	-49.6	-65.4	3.8	7.51e-01	0	33	104	0	66	24226
2026-01-16 04:39:24.98	6.77	20.09	-43.2	-54.6	3.9	7.46e-01	0	33	104	0	55	13232
2026-01-16 04:39:28.01	6.08	20.37	-45.7	-58.1	3.9	7.49e-01	0	33	104	0	59	15658
2026-01-16 04:39:31.04	5.38	20.66	-45.7	-57.8	3.8	7.42e-01	0	33	104	0	60	14231
2026-01-16 04:39:34.07	4.67	20.94	-43.1	-54.6	3.8	7.45e-01	0	33	104	0	55	13164
2026-01-16 04:39:37.09	3.94	21.22	-42.8	-54.2	3.9	7.43e-01	0	33	104	0	54	13313
2026-01-16 04:39:40.12	3.20	21.50	-46.6	-59.1	3.9	7.47e-01	0	33	104	0	60	16534
2026-01-16 04:39:43.15	2.44	21.78	-43.1	-54.6	3.9	7.45e-01	0	33	104	0	55	13140
2026-01-16 04:39:46.18	1.67	22.06	-50.2	-67.7	3.8	7.48e-01	0	33	104	0	68	28061
2026-01-16 04:39:49.21	0.88	22.33	-43.5	-55.0	3.9	7.45e-01	0	33	104	0	56	13082
2026-01-16 04:39:52.23	0.09	22.61	-43.3	-54.8	3.8	7.45e-01	0	33	104	0	54	14354
2026-01-16 04:39:55.26	359.27	22.87	-45.5	-57.7	3.9	7.43e-01	0	33	104	0	60	14063
2026-01-16 04:39:58.29	358.44	23.14	-42.9	-54.3	3.9	7.47e-01	0	33	104	0	54	13431
2026-01-16 04:40:01.32	357.59	23.40	-43.2	-54.6	3.9	7.43e-01	0	33	104	0	54	13949
2026-01-16 04:40:04.34	356.73	23.66	-46.2	-58.7	3.8	7.41e-01	0	33	104	0	60	15766
2026-01-16 04:40:07.37	355.86	23.92	-42.6	-54.0	3.8	7.45e-01	0	33	104	0	54	13017
2026-01-16 04:40:10.40	354.97	24.17	-49.2	-64.3	3.9	7.39e-01	0	33	104	0	67	20170
2026-01-16 04:40:13.43	354.06	24.42	-43.4	-54.9	3.8	7.45e-01	0	33	104	0	55	13585
2026-01-16 04:40:16.46	353.14	24.66	-43.0	-54.5	3.8	7.44e-01	0	33	104	0	55	12972
2026-01-16 04:40:19.48	352.20	24.89	-43.6	-55.2	3.8	7.46e-01	0	33	104	0	56	13366
2026-01-16 04:40:22.51	351.25	25.12	-42.8	-54.2	3.8	7.44e-01	0	33	104	0	54	13316
2026-01-16 04:40:25.54	350.29	25.34	-45.5	-57.3	3.8	7.45e-01	0	33	104	0	58	15093
2026-01-16 04:40:28.57	349.31	25.56	-45.2	-57.2	3.9	7.44e-01	0	33	104	0	59	14074
2026-01-16 04:40:31.60	348.32	25.77	-42.1	-53.5	3.8	7.45e-01	0	33	104	0	53	12979
2026-01-16 04:40:34.62	347.31	25.97	-47.2	-60.0	3.9	7.43e-01	0	33	104	0	63	15476
2026-01-16 04:40:37.65	346.29	26.16	-42.6	-54.1	3.8	7.46e-01	0	33	104	0	54	13121
2026-01-16 04:40:40.68	345.26	26.35	-43.3	-54.6	3.9	7.46e-01	0	33	104	0	55	13259
2026-01-16 04:40:43.71	344.21	26.52	-42.6	-54.0	3.9	7.44e-01	0	33	104	0	54	13065
2026-01-16 04:40:46.74	343.16	26.69	-42.3	-53.7	3.9	7.44e-01	0	33	104	0	53	13344
2026-01-16 04:40:49.76	342.09	26.85	-47.5	-60.2	3.8	7.47e-01	0	33	104	0	62	16766
2026-01-16 04:40:52.79	341.01	27.00	-43.0	-54.5	3.8	7.44e-01	0	33	104	0	55	13013
2026-01-16 04:40:55.82	339.92	27.14	-43.3	-54.8	3.8	7.46e-01	0	33	104	0	54	14368
2026-01-16 04:40:58.85	338.82	27.26	-46.2	-58.4	3.9	7.44e-01	0	33	104	0	61	14377
2026-01-16 04:41:01.87	337.72	27.38	-42.4	-53.7	3.8	7.42e-01	0	33	104	0	54	12582
2026-01-16 04:41:04.90	336.60	27.48	-42.3	-53.6	3.8	7.41e-01	0	33	104	0	53	13138
2026-01-16 04:41:07.93	335.48	27.58	-43.8	-55.5	3.8	7.47e-01	0	33	104	0	55	14544
2026-01-16 04:41:10.96	334.35	27.66	-42.1	-53.5	3.8	7.45e-01	0	33	104	0	53	12980
2026-01-16 04:41:13.99	333.21	27.73	-49.2	-63.9	3.8	7.44e-01	0	33	104	0	66	20488
2026-01-16 04:41:17.01	332.07	27.79	-42.4	-53.7	3.8	7.45e-01	0	33	104	0	54	12565
2026-01-16 04:41:20.04	330.93	27.84	-44.3	-56.0	3.9	7.44e-01	0	33	104	0	56	14653
2026-01-16 04:41:23.07	329.78	27.87	-46.3	-58.6	3.8	7.44e-01	0	33	104	0	61	14822
2026-01-16 04:41:26.10	328.63	27.89	-42.5	-53.9	3.8	7.48e-01	0	33	104	0	54	12887
2026-01-16 04:41:29.12	327.48	27.90	-42.2	-53.5	3.9	7.45e-01	0	33	104	0	53	13026
2026-01-16 04:41:32.15	326.33	27.90	-46.0	-58.0	3.8	7.44e-01	0	33	104	0	59	15515
2026-01-16 04:41:35.18	325.18	27.88	-42.1	-53.4	3.8	7.46e-01	0	33	104	0	53	12856
2026-01-16 04:41:38.21	324.03	27.85	-49.4	-64.3	3.8	7.48e-01	0	33	104	0	66	21458
2026-01-16 04:41:41.23	322.89	27.81	-42.6	-53.9	3.8	7.44e-01	0	33	104	0	54	12873
2026-01-16 04:41:44.26	321.75	27.76	-43.1	-54.5	3.8	7.46e-01	0	33	104	0	54	13827
2026-01-16 04:41:47.29	320.61	27.70	-45.4	-47.8	16.4	6.06e-01	0	33	0	2097152	59	4779
2026-01-16 04:41:50.32	319.47	27.62	-42.8	-44.5	17.3	6.04e-01	0	33	0	7864320	54	4371
2026-01-16 04:41:53.35	318.35	27.53	-42.9	-44.7	17.3	6.05e-01	0	33	0	13631488	54	4468
2026-01-16 04:41:56.37	317.23	27.43	-42.0	-43.6	17.5	6.01e-01	0	33	0	19398656	53	4158
2026-01-16 04:41:59.40	316.12	27.32	-42.4	-44.2	17.4	6.06e-01	0	33	0	25165824	52	4710
2026-01-16 04:42:02.43	315.01	27.20	-41.6	-43.2	17.6	6.05e-01	0	33	0	30408704	52	4196
2026-01-16 04:42:05.46	313.92	27.07	-42.9	-44.8	17.3	6.02e-01	0	33	0	36175872	53	4795
2026-01-16 04:42:08.48	312.83	26.93	-41.7	-43.3	17.5	6.05e-01	0	33	0	41943040	52	4281
2026-01-16 04:42:11.51	311.76	26.77	-41.8	-43.4	17.5	6.04e-01	0	33	0	47710208	52	4317
2026-01-16 04:42:14.54	310.69	26.61	-42.5	-44.3	17.3	6.03e-01	0	33	0	53477376	52	4792
2026-01-16 04:42:17.57	309.64	26.44	-42.3	-44.1	17.4	6.03e-01	0	33	0	58720256	52	4660
2026-01-16 04:42:20.60	308.60	26.26	-42.5	-44.2	17.3	6.03e-01	0	33	0	64487424	53	4486
2026-01-16 04:42:23.63	307.57	26.07	-42.3	-44.0	17.4	6.04e-01	0	33	0	70254592	53	4376
2026-01-16 04:42:26.65	306.56	25.87	-42.4	-44.1	17.4	6.05e-01	0	33	0	76021760	53	4417
2026-01-16 04:42:29.68	305.56	25.66	-42.1	-43.7	17.5	6.04e-01	0	33	0	81788928	53	4220
2026-01-16 04:42:32.71	304.57	25.45	-43.0	-44.8	17.2	6.04e-01	0	33	0	87556096	53	4798
2026-01-16 04:42:35.74	303.60	25.23	-42.4	-44.1	17.4	6.03e-01	0	33	0	93323264	53	4437
2026-01-16 04:42:38.76	302.64	25.00	-42.3	-44.0	17.4	6.04e-01	0	33	0	98566144	53	4366
2026-01-16 04:42:41.79	301.70	24.77	-42.1	-43.8	17.5	6.04e-01	0	33	0	104333312	53	4244
2026-01-16 04:42:44.82	300.77	24.53	-42.4	-44.1	17.4	6.02e-01	0	33	0	110100480	53	4427
2026-01-16 04:42:47.85	299.85	24.29	-42.7	-44.5	17.4	6.03e-01	0	33	0	115867648	54	4364
2026-01-16 04:42:50.88	298.95	24.04	-42.8	-44.5	17.4	6.04e-01	0	33	0	121634816	54	4386
2026-01-16 04:42:53.90	298.07	23.79	-42.1	-43.7	17.5	6.05e-01	0	33	0	126877696	53	4239
2026-01-16 04:42:56.93	297.20	23.53	-42.8	-44.6	17.3	6.04e-01	0	33	0	132644864	53	4677
2026-01-16 04:42:59.96	296.34	23.27	-42.4	-44.2	17.4	6.02e-01	0	33	0	138412032	53	4446
2026-01-16 04:43:02.99	295.50	23.00	-42.7	-44.5	17.4	6.04e-01	0	33	0	144179200	53	4633
2026-01-16 04:43:06.01	294.68	22.73	-42.7	-44.5	17.4	6.04e-01	0	33	0	149946368	53	4649
2026-01-16 04:43:09.04	293.87	22.46	-42.5	-44.2	17.4	6.03e-01	0	33	0	155713536	53	4470
2026-01-16 04:43:12.07	293.07	22.19	-42.7	-44.5	17.3	6.05e-01	0	33	0	160956416	53	4605
2026-01-16 04:43:15.10	292.29	21.91	-42.9	-44.7	17.3	6.05e-01	0	33	0	166723584	54	4470
2026-01-16 04:43:18.13	291.52	21.63	-42.6	-44.3	17.4	6.06e-01	0	33	0	172490752	54	4291
2026-01-16 04:43:21.15	290.78	21.35	-42.4	-44.1	17.4	6.02e-01	0	33	0	178257920	53	4420
2026-01-16 04:43:24.18	290.04	21.07	-42.8	-44.6	17.2	6.04e-01	0	33	0	184025088	53	4705
2026-01-16 04:43:27.21	289.31	20.79	-42.9	-44.8	17.2	6.03e-01	0	33	0	189792256	53	4776
2026-01-16 04:43:30.24	288.61	20.50	-42.9	-44.7	17.3	6.04e-01	0	33	0	195035136	53	4741
2026-01-16 04:43:33.26	287.91	20.22	-42.6	-44.4	17.3	6.03e-01	0	33	0	200802304	54	4308
2026-01-16 04:43:36.29	287.23	19.93	-42.5	-44.3	17.3	6.05e-01	0	33	0	206569472	53	4508
2026-01-16 04:43:39.32	286.56	19.65	-42.7	-44.4	17.4	6.06e-01	0	33	0	212336640	54	4326
2026-01-16 04:43:42.35	285.91	19.36	-42.5	-44.2	17.3	6.05e-01	0	33	0	218103808	54	4235
2026-01-16 04:43:45.38	285.26	19.07	-42.6	-44.4	17.3	6.04e-01	0	33	0	223346688	53	4558
2026-01-16 04:43:48.40	284.64	18.79	-43.1	-45.1	17.2	6.03e-01	0	33	0	229113856	54	4667
2026-01-16 04:43:51.43	284.02	18.50	-42.7	-44.5	17.2	6.04e-01	0	33	0	234881024	53	4648
2026-01-16 04:43:54.46	283.42	18.21	-42.4	-44.2	17.4	6.05e-01	0	33	0	240648192	53	4446
2026-01-16 04:43:57.49	282.82	17.93	-42.6	-44.4	17.4	6.03e-01	0	33	0	246415360	53	4559
2026-01-16 04:44:00.52	282.24	17.64	-43.1	-45.1	17.2	6.04e-01	0	33	0	252182528	54	4677
2026-01-16 04:44:03.54	281.68	17.36	-42.4	-44.2	17.4	6.03e-01	0	33	0	257949696	53	4463
2026-01-16 04:44:06.57	281.12	17.08	-42.6	-44.3	17.4	6.03e-01	0	33	0	263192576	53	4521
2026-01-16 04:44:09.60	280.57	16.80	-42.8	-44.7	17.3	6.04e-01	0	33	0	268959744	53	4729
2026-01-16 04:44:12.62	280.04	16.51	-42.4	-44.1	17.4	6.05e-01	0	33	0	274726912	53	4414
2026-01-16 04:44:15.65	279.51	16.23	-42.8	-44.6	17.3	6.04e-01	0	33	0	280494080	53	4681
2026-01-16 04:44:18.68	279.00	15.96	-42.5	-44.3	17.4	6.03e-01	0	33	0	286261248	53	4506
2026-01-16 04:44:21.71	278.49	15.68	-42.6	-44.4	17.3	6.02e-01	0	33	0	291504128	53	4551
2026-01-16 04:44:24.74	278.00	15.40	-42.4	-44.2	17.3	6.03e-01	0	33	0	297271296	53	4471
2026-01-16 04:44:27.76	277.51	15.13	-42.6	-44.4	17.3	6.06e-01	0	33	0	303038464	53	4549
2026-01-16 04:44:30.79	277.04	14.86	-42.7	-44.6	17.3	6.03e-01	0	33	0	308805632	53	4664
2026-01-16 04:44:33.82	276.57	14.58	-42.3	-44.1	17.4	6.01e-01	0	33	0	314572800	53	4410
2026-01-16 04:44:36.85	276.12	14.31	-42.4	-44.2	17.4	6.04e-01	0	33	0	320339968	53	4445
2026-01-16 04:44:39.87	275.67	14.05	-42.8	-44.6	17.2	6.04e-01	0	33	0	325582848	53	4683
2026-01-16 04:44:42.90	275.23	13.78	-42.6	-44.4	17.3	6.04e-01	0	33	0	331350016	53	4562
2026-01-16 04:44:45.93	274.80	13.51	-42.3	-44.0	17.4	6.06e-01	0	33	0	337117184	53	4378
2026-01-16 04:44:48.96	274.38	13.25	-42.6	-44.5	17.3	6.04e-01	0	33	0	342884352	53	4608
2026-01-16 04:44:51.98	273.97	12.99	-42.8	-44.7	17.2	6.06e-01	0	33	0	348651520	53	4749
2026-01-16 04:44:55.01	273.56	12.73	-42.6	-44.5	17.3	6.03e-01	0	33	0	354418688	53	4617
2026-01-16 04:44:58.04	273.16	12.47	-42.5	-44.3	17.3	6.04e-01	0	33	0	359661568	53	4515
2026-01-16 04:45:01.06	272.77	12.21	-42.6	-44.5	17.3	6.03e-01	0	33	0	365428736	53	4601
2026-01-16 04:45:04.09	272.39	11.96	-42.7	-44.6	17.2	6.05e-01	0	33	0	371195904	53	4686
2026-01-16 04:45:07.12	272.01	11.70	-42.7	-44.6	17.3	6.05e-01	0	33	0	376963072	53	4660
2026-01-16 04:45:10.14	271.64	11.45	-42.7	-44.6	17.2	6.06e-01	0	33	0	382730240	53	4661
2026-01-16 04:45:13.17	271.28	11.20	-42.9	-44.8	17.2	6.03e-01	0	33	0	387973120	53	4795
2026-01-16 04:45:16.20	270.93	10.96	-42.8	-44.7	17.2	6.04e-01	0	33	0	393740288	53	4716
2026-01-16 04:45:19.23	270.58	10.71	-43.2	-45.2	17.0	6.04e-01	0	33	0	399507456	54	4712
2026-01-16 04:45:22.26	270.23	10.47	-43.7	-45.9	16.8	6.05e-01	0	33	0	405274624	55	4827
2026-01-16 04:45:25.29	269.90	10.22	-43.8	-46.1	16.7	6.04e-01	0	33	0	411041792	55	4973
2026-01-16 04:45:28.31	269.57	9.98	-44.0	-46.4	16.6	6.03e-01	0	33	0	416808960	55	5159
2026-01-16 04:45:31.34	269.24	9.74	-45.0	-47.9	16.0	6.04e-01	0	33	0	422576128	57	5430
2026-01-16 04:45:34.37	268.93	9.50	-46.7	-51.2	14.0	6.05e-01	0	33	0	427819008	61	6312
2026-01-16 04:45:37.40	268.61	9.27	-47.4	-53.4	12.3	6.07e-01	0	33	0	433586176	62	7671
2026-01-16 04:45:40.43	268.31	9.03	-46.6	-51.3	13.8	6.05e-01	0	33	0	439353344	62	6049
2026-01-16 04:45:43.45	268.01	8.80	-45.5	-49.0	15.2	6.05e-01	0	33	0	445120512	60	5208
2026-01-16 04:45:46.48	267.71	8.57	-45.6	-49.2	15.2	6.03e-01	0	33	0	450887680	60	5285
2026-01-16 04:45:49.50	267.42	8.34	-45.2	-48.3	15.7	6.04e-01	0	33	0	456130560	59	5072
2026-01-16 04:45:52.53	267.13	8.12	-44.2	-46.8	16.4	6.05e-01	0	33	0	461897728	57	4774
2026-01-16 04:45:55.56	266.85	7.89	-43.7	-46.0	16.7	6.04e-01	0	33	0	467664896	56	4621
2026-01-16 04:45:58.59	266.57	7.67	-43.5	-45.7	16.9	6.03e-01	0	33	0	473432064	56	4479
2026-01-16 04:46:01.62	266.30	7.44	-43.4	-45.5	17.0	6.03e-01	0	33	0	479199232	55	4618
2026-01-16 04:46:04.65	266.04	7.22	-43.5	-45.6	17.0	6.02e-01	0	33	0	484966400	55	4677
2026-01-16 04:46:07.67	265.77	7.00	-43.6	-45.9	16.9	6.04e-01	0	33	0	490209280	55	4823
2026-01-16 04:46:10.70	265.52	6.78	-43.6	-45.8	16.9	6.03e-01	0	33	0	495976448	55	4773
2026-01-16 04:46:13.73	265.26	6.57	-43.6	-45.8	16.9	6.05e-01	0	33	0	501743616	55	4782
2026-01-16 04:46:16.76	265.01	6.35	-43.8	-46.0	16.8	6.04e-01	0	33	0	507510784	55	4925
2026-01-16 04:46:19.79	264.77	6.14	-43.6	-45.8	16.8	6.02e-01	0	33	0	513277952	55	4791
2026-01-16 04:46:22.82	264.52	5.93	-44.0	-46.3	16.7	6.04e-01	0	33	0	519045120	56	4811
2026-01-16 04:46:25.84	264.29	5.72	-44.3	-46.7	16.6	6.04e-01	0	33	0	524288000	56	5040
2026-01-16 04:46:28.87	264.05	5.51	-44.3	-46.8	16.6	6.03e-01	0	33	0	530055168	57	4787
2026-01-16 04:46:31.90	263.82	5.30	-44.3	-46.7	16.5	6.04e-01	0	33	0	535822336	56	5030
2026-01-16 04:46:34.93	263.60	5.09	-44.3	-46.8	16.6	6.05e-01	0	33	0	541589504	56	5063
2026-01-16 04:46:37.95	263.38	4.89	-50.1	-69.0	3.8	7.45e-01	0	33	104	545259520	67	34755
2026-01-16 04:46:40.98	263.16	4.69	-50.7	-69.7	3.8	7.47e-01	0	33	104	545259520	69	33365
2026-01-16 04:46:44.01	262.94	4.48	-51.0	-70.0	3.8	7.44e-01	0	33	104	545259520	69	34496
2026-01-16 04:46:47.03	262.73	4.28	-51.1	-70.2	3.9	7.44e-01	0	33	104	545259520	70	33371
2026-01-16 04:46:50.06	262.52	4.08	-51.2	-70.2	3.8	7.48e-01	0	33	104	545259520	70	33648
2026-01-16 04:46:53.09	262.31	3.88	-51.3	-70.3	3.8	7.43e-01	0	33	104	545259520	70	33927
2026-01-16 04:46:56.12	262.11	3.69	-51.4	-70.4	3.8	7.45e-01	0	33	104	545259520	70	34173
2026-01-16 04:46:59.15	261.91	3.49	-51.3	-70.3	3.8	7.46e-01	0	33	104	545259520	70	33923
2026-01-16 04:47:02.18	261.71	3.30	-51.2	-70.3	3.8	7.47e-01	0	33	104	545259520	70	33733
2026-01-16 04:47:05.20	261.52	3.10	-51.2	-70.2	3.8	7.46e-01	0	33	104	545259520	70	33513
2026-01-16 04:47:08.23	261.33	2.91	-51.2	-70.2	3.8	7.46e-01	0	33	104	545259520	70	33386
2026-01-16 04:47:11.26	261.14	2.72	-51.1	-70.2	3.8	7.43e-01	0	33	104	545259520	70	33413
2026-01-16 04:47:14.29	260.96	2.53	-51.1	-70.1	3.8	7.46e-01	0	33	104	545259520	70	33292
2026-01-16 04:47:17.31	260.78	2.34	-51.1	-70.1	3.8	7.47e-01	0	33	104	545259520	70	33309
2026-01-16 04:47:20.34	260.60	2.15	-51.1	-70.1	3.8	7.49e-01	0	33	104	545259520	70	33147
2026-01-16 04:47:23.37	260.42	1.97	-51.1	-70.1	3.8	7.48e-01	0	33	104	545259520	70	33011

#Closed at: 2026-01-16 04:47:25
#Recorded file [545 MB]: D:/lorett/data/31004_260116_073537.dat