passes_logs/2026/01/16/R3.2S_Murmansk_2ch/R3.2S_Murmansk_2ch__20260116_005241_SUOMI_NPP_rec.log

#Pass ID: 20260116_005241_SUOMI NPP
#Satellite: SUOMI NPP
#Configuration: NPP
#almurnet v.1.7.20251203
#Start time: 2026-01-16 00:52:43

#Version: 2.2.20231116
#Station: R3.2S_Murmansk_2ch
#Location: 33.079688 lon 68.888172 lat
#TLE: 1 37849U 11061A   26015.59739646  .00000050  00000+0  44779-4 0  9992
#TLE: 2 37849  98.7811 317.6408 0002446  62.6499 297.4925 14.19525346736798

#Time	Az	El	Level	Level2	SNR	BER	BlckErr	Temp	State	Recorded	gain1	gain2
2026-01-16 00:52:43.46	25.00	2.11	-49.5	-65.6	3.8	1.49e+00	0	31	0	0	65	22658
2026-01-16 00:52:47.50	25.00	2.37	-49.5	-65.6	3.8	1.49e+00	0	31	104	0	64	23988
2026-01-16 00:52:51.54	25.01	2.64	-49.5	-65.5	3.8	1.49e+00	0	31	104	0	64	23807
2026-01-16 00:52:55.57	25.01	2.90	-49.5	-65.6	3.8	1.49e+00	0	31	104	0	64	23975
2026-01-16 00:52:59.61	25.01	3.17	-49.4	-63.2	4.0	1.49e+00	0	31	104	0	64	18215
2026-01-16 00:53:03.65	25.01	3.44	-49.0	-58.1	6.2	3.53e-01	0	31	0	4194304	64	10114
2026-01-16 00:53:07.69	25.01	3.71	-48.5	-55.6	8.3	3.27e-02	0	31	0	12582912	63	8053
2026-01-16 00:53:11.72	25.01	3.99	-47.6	-52.6	10.8	1.57e-03	0	32	0	19922944	61	6396
2026-01-16 00:53:15.75	25.01	4.26	-48.5	-55.3	8.6	8.04e-03	0	32	0	27262976	62	8215
2026-01-16 00:53:19.79	25.01	4.55	-48.6	-55.8	8.1	7.06e-02	0	32	0	34603008	62	8693
2026-01-16 00:53:23.83	25.01	4.83	-49.2	-59.5	5.4	4.73e-01	0	32	0	42991616	63	12531
2026-01-16 00:53:27.87	25.01	5.12	-49.4	-58.8	6.0	6.49e-01	0	32	0	50331648	63	11610
2026-01-16 00:53:31.90	25.01	5.41	-49.5	-64.1	3.9	3.01e-01	0	32	0	55574528	64	20258
2026-01-16 00:53:35.94	25.01	5.70	-49.2	-57.0	7.4	1.05e-01	0	32	0	59768832	64	8942
2026-01-16 00:53:39.97	25.01	6.00	-48.7	-54.6	9.8	1.10e-02	0	32	0	67108864	63	7174
2026-01-16 00:53:44.01	25.01	6.30	-48.4	-53.6	10.7	1.43e-03	0	32	0	75497472	63	6376
2026-01-16 00:53:48.05	25.01	6.60	-48.1	-52.8	11.4	1.68e-04	0	32	0	82837504	62	6170
2026-01-16 00:53:52.09	25.00	6.91	-47.9	-52.2	12.0	1.90e-05	0	32	0	90177536	62	5781
2026-01-16 00:53:56.12	25.00	7.22	-47.6	-51.4	12.5	2.13e-05	0	32	0	97517568	61	5585
2026-01-16 00:54:00.16	25.00	7.53	-47.6	-51.5	12.5	7.00e-07	0	32	0	105906176	61	5628
2026-01-16 00:54:04.20	24.99	7.85	-47.4	-51.1	12.9	0.00e+00	0	32	0	113246208	61	5345
2026-01-16 00:54:08.24	24.99	8.18	-47.1	-50.5	13.3	0.00e+00	0	32	0	120586240	60	5325
2026-01-16 00:54:12.27	24.98	8.50	-47.2	-50.6	13.3	0.00e+00	0	32	0	127926272	60	5343
2026-01-16 00:54:16.31	24.98	8.83	-47.2	-50.5	13.3	0.00e+00	0	32	0	135266304	60	5329
2026-01-16 00:54:20.35	24.97	9.17	-47.1	-50.3	13.5	0.00e+00	0	32	0	143654912	60	5201
2026-01-16 00:54:24.12	24.97	9.49	-47.1	-50.4	13.5	0.00e+00	0	32	0	150994944	60	5246
2026-01-16 00:54:28.16	24.96	9.83	-47.2	-50.5	13.7	0.00e+00	0	32	0	158334976	59	5606
2026-01-16 00:54:32.20	24.95	10.18	-47.1	-50.2	13.9	0.00e+00	0	32	0	165675008	59	5447
2026-01-16 00:54:36.23	24.94	10.54	-46.9	-49.9	14.1	0.00e+00	0	32	0	173015040	59	5258
2026-01-16 00:54:40.27	24.93	10.90	-46.9	-49.8	14.2	0.00e+00	0	32	0	181403648	59	5200
2026-01-16 00:54:44.31	24.92	11.26	-46.7	-49.5	14.3	0.00e+00	0	32	0	188743680	59	5012
2026-01-16 00:54:48.34	24.91	11.63	-46.6	-49.4	14.5	0.00e+00	0	32	0	196083712	59	4956
2026-01-16 00:54:52.38	24.90	12.01	-46.5	-49.2	14.5	0.00e+00	0	33	0	203423744	59	4855
2026-01-16 00:54:56.42	24.89	12.39	-46.3	-48.9	14.8	0.00e+00	0	32	0	211812352	59	4689
2026-01-16 00:55:00.45	24.88	12.78	-46.2	-48.7	14.9	0.00e+00	0	33	0	219152384	59	4569
2026-01-16 00:55:04.49	24.86	13.18	-46.3	-48.8	14.8	0.00e+00	0	32	0	226492416	58	4913
2026-01-16 00:55:08.53	24.85	13.58	-46.0	-48.4	15.0	0.00e+00	0	33	0	233832448	58	4693
2026-01-16 00:55:12.56	24.83	13.98	-45.9	-48.2	15.2	0.00e+00	0	32	0	241172480	58	4589
2026-01-16 00:55:16.60	24.82	14.40	-45.7	-48.0	15.3	0.00e+00	0	33	0	249561088	58	4447
2026-01-16 00:55:20.63	24.80	14.82	-45.6	-47.8	15.4	0.00e+00	0	32	0	256901120	57	4623
2026-01-16 00:55:24.67	24.78	15.25	-45.5	-47.7	15.4	0.00e+00	0	32	0	264241152	57	4567
2026-01-16 00:55:28.71	24.76	15.69	-45.3	-47.3	15.6	0.00e+00	0	32	0	271581184	57	4391
2026-01-16 00:55:32.75	24.74	16.13	-45.3	-47.3	15.6	0.00e+00	0	33	0	279969792	56	4648
2026-01-16 00:55:36.78	24.72	16.59	-45.1	-47.2	15.6	0.00e+00	0	32	0	287309824	56	4566
2026-01-16 00:55:40.82	24.70	17.05	-45.3	-47.4	15.6	0.00e+00	0	32	0	294649856	56	4666
2026-01-16 00:55:44.86	24.68	17.52	-45.2	-47.2	15.6	0.00e+00	0	32	0	301989888	56	4583
2026-01-16 00:55:48.90	24.65	18.00	-44.9	-46.8	15.8	0.00e+00	0	32	0	309329920	56	4386
2026-01-16 00:55:52.94	24.63	18.49	-44.7	-46.5	16.0	0.00e+00	0	32	0	317718528	56	4234
2026-01-16 00:55:56.97	24.60	18.99	-44.5	-46.4	16.0	0.00e+00	0	33	0	325058560	55	4422
2026-01-16 00:56:01.01	24.57	19.50	-44.5	-46.3	16.0	0.00e+00	0	33	0	332398592	55	4379
2026-01-16 00:56:05.05	24.54	20.02	-44.6	-46.5	15.9	0.00e+00	0	33	0	339738624	55	4467
2026-01-16 00:56:09.08	24.51	20.55	-44.5	-46.3	16.0	0.00e+00	0	33	0	348127232	55	4360
2026-01-16 00:56:13.12	24.47	21.10	-44.6	-46.4	16.0	0.00e+00	0	33	0	355467264	55	4439
2026-01-16 00:56:17.16	24.44	21.65	-44.5	-46.4	16.0	0.00e+00	0	33	0	362807296	55	4402
2026-01-16 00:56:21.19	24.40	22.22	-44.7	-46.7	15.9	0.00e+00	0	33	0	370147328	55	4554
2026-01-16 00:56:25.23	24.36	22.80	-44.7	-46.5	15.9	0.00e+00	0	33	0	377487360	55	4489
2026-01-16 00:56:29.27	24.31	23.40	-44.7	-46.7	15.9	0.00e+00	0	33	0	385875968	55	4548
2026-01-16 00:56:33.31	24.27	24.01	-44.9	-46.8	15.8	0.00e+00	0	33	0	393216000	55	4648
2026-01-16 00:56:37.35	24.22	24.63	-45.3	-47.4	15.6	0.00e+00	0	33	0	400556032	55	4946
2026-01-16 00:56:41.38	24.17	25.27	-44.9	-46.8	15.9	0.00e+00	0	33	0	407896064	55	4618
2026-01-16 00:56:45.42	24.12	25.92	-44.9	-46.8	15.8	0.00e+00	0	33	0	416284672	55	4623
2026-01-16 00:56:49.46	24.07	26.59	-45.7	-47.8	15.5	0.00e+00	0	33	0	423624704	56	4918
2026-01-16 00:56:53.49	24.01	27.28	-46.4	-48.8	15.0	0.00e+00	0	33	0	430964736	58	4892
2026-01-16 00:56:57.53	23.95	27.98	-46.1	-48.5	15.2	0.00e+00	0	32	0	438304768	58	4706
2026-01-16 00:57:01.57	23.88	28.71	-46.5	-48.9	15.0	0.00e+00	0	33	0	445644800	58	4967
2026-01-16 00:57:05.61	23.81	29.45	-46.9	-49.6	14.6	0.00e+00	0	33	0	454033408	59	5072
2026-01-16 00:57:09.64	23.74	30.21	-46.8	-49.3	14.8	0.00e+00	0	33	0	461373440	59	4915
2026-01-16 00:57:13.68	23.66	31.00	-46.9	-49.6	14.7	0.00e+00	0	33	0	468713472	59	5046
2026-01-16 00:57:17.72	23.58	31.80	-47.4	-50.3	14.0	0.00e+00	0	33	0	476053504	60	5208
2026-01-16 00:57:21.75	23.49	32.63	-47.4	-50.3	14.1	0.00e+00	0	33	0	484442112	60	5198
2026-01-16 00:57:25.79	23.40	33.48	-47.5	-50.6	13.9	0.00e+00	0	33	0	491782144	60	5356
2026-01-16 00:57:29.83	23.30	34.36	-47.0	-49.7	14.4	0.00e+00	0	33	0	499122176	60	4834
2026-01-16 00:57:33.87	23.19	35.26	-46.4	-48.8	15.2	0.00e+00	0	33	0	506462208	58	4879
2026-01-16 00:57:37.90	23.08	36.18	-45.0	-46.9	16.0	0.00e+00	0	33	0	513802240	56	4427
2026-01-16 00:57:41.94	22.96	37.14	-44.3	-46.1	16.2	0.00e+00	0	33	0	522190848	54	4518
2026-01-16 00:57:45.97	22.83	38.12	-43.9	-45.6	16.3	0.00e+00	0	33	0	529530880	53	4544
2026-01-16 00:57:50.01	22.70	39.13	-44.2	-45.9	16.3	0.00e+00	0	33	0	536870912	54	4440
2026-01-16 00:57:54.05	22.55	40.18	-44.0	-45.7	16.3	0.00e+00	0	33	0	544210944	54	4325
2026-01-16 00:57:58.08	22.39	41.25	-43.6	-45.2	16.5	0.00e+00	0	33	0	551550976	53	4316
2026-01-16 00:58:02.12	22.22	42.35	-45.0	-47.0	15.9	0.00e+00	0	33	0	559939584	55	4717
2026-01-16 00:58:06.16	22.03	43.50	-45.5	-47.5	15.7	0.00e+00	0	33	0	567279616	56	4744
2026-01-16 00:58:10.20	21.84	44.67	-45.9	-48.1	15.5	0.00e+00	0	33	0	574619648	57	4800
2026-01-16 00:58:14.23	21.62	45.88	-46.0	-48.2	15.4	0.00e+00	0	33	0	581959680	57	4822
2026-01-16 00:58:18.27	21.39	47.13	-47.1	-49.8	14.7	0.00e+00	0	33	0	590348288	59	5203
2026-01-16 00:58:22.31	21.13	48.41	-46.6	-48.9	15.1	0.00e+00	0	33	0	597688320	59	4702
2026-01-16 00:58:26.34	20.85	49.73	-46.3	-48.7	15.3	0.00e+00	0	33	0	605028352	58	4819
2026-01-16 00:58:30.38	20.54	51.10	-44.3	-46.1	16.3	0.00e+00	0	33	0	612368384	55	4246
2026-01-16 00:58:34.42	20.20	52.50	-44.2	-45.8	16.3	0.00e+00	0	33	0	619708416	54	4379
2026-01-16 00:58:38.46	19.83	53.94	-44.1	-45.7	16.4	0.00e+00	0	33	0	628097024	54	4322
2026-01-16 00:58:42.50	19.41	55.42	-44.0	-45.6	16.4	0.00e+00	0	33	0	635437056	53	4541
2026-01-16 00:58:46.53	18.95	56.94	-44.9	-46.7	16.0	0.00e+00	0	33	0	642777088	55	4579
2026-01-16 00:58:50.57	18.43	58.51	-46.8	-49.3	15.0	0.00e+00	0	33	0	650117120	59	4889
2026-01-16 00:58:54.60	17.84	60.11	-47.4	-50.4	14.1	0.00e+00	0	33	0	658505728	60	5272
2026-01-16 00:58:58.64	17.17	61.75	-46.1	-48.3	15.5	0.00e+00	0	33	0	665845760	58	4606
2026-01-16 00:59:02.68	16.40	63.43	-43.8	-45.5	16.4	0.00e+00	0	33	0	673185792	54	4194
2026-01-16 00:59:06.72	15.51	65.14	-44.6	-46.4	16.1	0.00e+00	0	33	0	680525824	55	4399
2026-01-16 00:59:10.76	14.46	66.89	-46.4	-48.6	15.3	0.00e+00	0	33	0	687865856	58	4794
2026-01-16 00:59:14.80	13.22	68.66	-46.9	-49.4	14.7	0.00e+00	0	33	0	696254464	60	4697
2026-01-16 00:59:18.84	11.74	70.46	-48.7	-52.6	12.7	0.00e+00	0	33	0	703594496	62	6016
2026-01-16 00:59:22.87	9.92	72.27	-44.0	-45.6	16.4	0.00e+00	0	33	0	710934528	54	4245
2026-01-16 00:59:26.91	7.66	74.10	-44.4	-46.1	16.2	0.00e+00	0	33	0	718274560	54	4510
2026-01-16 00:59:30.95	4.78	75.92	-46.9	-49.3	14.9	0.00e+00	0	33	0	726663168	59	4905
2026-01-16 00:59:34.99	1.01	77.73	-47.1	-49.7	14.5	0.00e+00	0	33	0	734003200	60	4815
2026-01-16 00:59:39.02	355.93	79.47	-48.3	-51.7	13.3	0.00e+00	0	33	0	741343232	61	5769
2026-01-16 00:59:43.06	348.83	81.12	-46.7	-49.2	15.0	0.00e+00	0	33	0	748683264	59	4817
2026-01-16 00:59:47.09	338.69	82.59	-43.1	-44.6	16.7	0.00e+00	0	33	0	756023296	52	4285
2026-01-16 00:59:51.13	324.17	83.73	-44.2	-45.8	16.3	0.00e+00	0	33	0	764411904	53	4640
2026-01-16 00:59:55.17	305.02	84.32	-44.1	-45.8	16.3	0.00e+00	0	33	0	771751936	54	4350
2026-01-16 00:59:59.20	284.32	84.19	-43.0	-44.4	16.8	0.00e+00	0	33	0	779091968	52	4180
2026-01-16 01:00:03.24	266.60	83.39	-45.5	-47.5	15.8	0.00e+00	0	33	0	786432000	56	4751
2026-01-16 01:00:07.28	253.69	82.12	-44.9	-46.7	16.0	0.00e+00	0	33	0	793772032	55	4590
2026-01-16 01:00:11.31	244.73	80.58	-47.6	-50.6	14.0	0.00e+00	0	33	0	802160640	60	5364
2026-01-16 01:00:15.35	238.41	78.88	-47.1	-49.7	14.8	0.00e+00	0	33	0	809500672	59	5114
2026-01-16 01:00:19.39	233.84	77.11	-46.8	-49.3	14.9	0.00e+00	0	33	0	816840704	59	4877
2026-01-16 01:00:23.42	230.41	75.30	-46.2	-48.3	15.5	0.00e+00	0	33	0	824180736	57	4916
2026-01-16 01:00:27.46	227.77	73.47	-46.6	-49.0	15.1	0.00e+00	0	33	0	832569344	58	5023
2026-01-16 01:00:31.50	225.67	71.64	-45.3	-47.3	15.8	0.00e+00	0	33	0	839909376	57	4346
2026-01-16 01:00:35.54	223.98	69.83	-47.2	-49.8	14.5	0.00e+00	0	33	0	847249408	60	4911
2026-01-16 01:00:39.57	222.59	68.04	-44.7	-46.5	16.0	0.00e+00	0	33	0	854589440	54	4714
2026-01-16 01:00:43.61	221.42	66.27	-44.8	-46.5	16.2	0.00e+00	0	33	0	861929472	56	4229
2026-01-16 01:00:47.65	220.43	64.53	-45.4	-47.4	15.8	0.00e+00	0	33	0	870318080	56	4670
2026-01-16 01:00:51.68	219.58	62.83	-46.0	-48.1	15.5	0.00e+00	0	33	0	877658112	57	4798
2026-01-16 01:00:55.72	218.85	61.16	-43.8	-45.4	16.5	0.00e+00	0	33	0	884998144	54	4158
2026-01-16 01:00:59.76	218.20	59.53	-44.8	-46.6	16.2	0.00e+00	0	33	0	892338176	56	4281
2026-01-16 01:01:03.80	217.64	57.94	-42.8	-44.2	16.8	0.00e+00	0	33	0	900726784	51	4309
2026-01-16 01:01:07.84	217.14	56.39	-44.4	-46.2	16.2	0.00e+00	0	33	0	908066816	55	4309
2026-01-16 01:01:11.87	216.69	54.88	-43.8	-45.4	16.4	0.00e+00	0	33	0	915406848	52	4699
2026-01-16 01:01:15.91	216.29	53.40	-45.9	-48.1	15.5	0.00e+00	0	33	0	922746880	57	4775
2026-01-16 01:01:19.94	215.93	51.98	-44.7	-46.4	16.2	0.00e+00	0	33	0	930086912	56	4175
2026-01-16 01:01:23.98	215.60	50.58	-44.9	-46.8	15.9	0.00e+00	0	33	0	938475520	55	4642
2026-01-16 01:01:28.01	215.30	49.24	-45.6	-47.6	15.8	0.00e+00	0	33	0	945815552	57	4542
2026-01-16 01:01:32.05	215.03	47.92	-47.2	-49.9	14.4	0.00e+00	0	33	0	953155584	60	4971
2026-01-16 01:01:36.09	214.78	46.65	-46.5	-48.8	15.2	0.00e+00	0	33	0	960495616	58	4877
2026-01-16 01:01:40.13	214.55	45.41	-47.5	-50.4	14.1	0.00e+00	0	33	0	967835648	60	5279
2026-01-16 01:01:44.16	214.34	44.21	-49.4	-54.5	11.1	9.75e-04	0	33	0	976224256	65	6315
2026-01-16 01:01:48.20	214.15	43.04	-46.9	-49.4	14.7	0.00e+00	0	33	0	983564288	60	4675
2026-01-16 01:01:52.24	213.96	41.91	-46.4	-48.8	15.2	0.00e+00	0	33	0	990904320	59	4618
2026-01-16 01:01:56.27	213.80	40.82	-47.8	-50.9	13.7	0.00e+00	0	33	0	998244352	61	5265
2026-01-16 01:02:00.30	213.64	39.75	-45.7	-47.7	15.7	0.00e+00	0	33	0	1006632960	57	4594
2026-01-16 01:02:04.34	213.50	38.72	-47.2	-49.9	14.4	0.00e+00	0	33	0	1013972992	60	4965
2026-01-16 01:02:08.38	213.36	37.71	-47.0	-49.6	14.5	0.00e+00	0	33	0	1021313024	60	4809
2026-01-16 01:02:12.42	213.24	36.74	-45.8	-47.9	15.6	0.00e+00	0	33	0	1028653056	58	4417
2026-01-16 01:02:16.45	213.12	35.79	-47.2	-49.9	14.3	0.00e+00	0	33	0	1035993088	60	4983
2026-01-16 01:02:20.49	213.01	34.87	-45.6	-47.7	15.7	0.00e+00	0	33	0	1044381696	57	4557
2026-01-16 01:02:24.53	212.90	33.98	-47.3	-50.1	14.5	0.00e+00	0	33	0	1051721728	59	5362
2026-01-16 01:02:28.57	212.80	33.11	-48.6	-52.6	12.5	1.75e-05	0	33	0	1059061760	63	5687
2026-01-16 01:02:32.60	212.71	32.27	-46.7	-49.3	14.9	0.00e+00	0	33	0	1066401792	59	4872
2026-01-16 01:02:36.64	212.63	31.44	-46.2	-48.5	15.3	0.00e+00	0	33	0	1074790400	58	4741
2026-01-16 01:02:40.68	212.54	30.64	-46.6	-49.0	15.0	0.00e+00	0	33	0	1082130432	58	5031
2026-01-16 01:02:44.72	212.47	29.86	-46.4	-48.9	15.1	0.00e+00	0	33	0	1089470464	58	4933
2026-01-16 01:02:48.75	212.39	29.11	-47.0	-49.8	14.5	0.00e+00	0	33	0	1096810496	59	5180
2026-01-16 01:02:52.79	212.32	28.37	-47.1	-49.9	14.2	7.00e-07	0	33	0	1104150528	60	4961
2026-01-16 01:02:56.83	212.26	27.65	-46.7	-49.3	14.9	0.00e+00	0	33	0	1112539136	59	4872
2026-01-16 01:03:00.86	212.20	26.95	-45.5	-47.6	15.7	0.00e+00	0	33	0	1119879168	57	4516
2026-01-16 01:03:04.90	212.14	26.27	-44.6	-46.5	16.1	0.00e+00	0	33	0	1127219200	55	4446
2026-01-16 01:03:08.94	212.08	25.60	-45.9	-48.2	15.4	0.00e+00	0	33	0	1134559232	57	4839
2026-01-16 01:03:12.98	212.03	24.95	-47.5	-50.7	13.7	0.00e+00	0	33	0	1142947840	60	5432
2026-01-16 01:03:17.01	211.98	24.32	-46.9	-49.6	14.7	0.00e+00	0	33	0	1150287872	59	5059
2026-01-16 01:03:21.05	211.93	23.70	-45.4	-47.5	15.7	0.00e+00	0	33	0	1157627904	57	4487
2026-01-16 01:03:25.08	211.89	23.10	-45.2	-47.2	15.8	0.00e+00	0	33	0	1164967936	56	4553
2026-01-16 01:03:29.12	211.84	22.50	-44.9	-46.9	15.9	0.00e+00	0	33	0	1172307968	56	4393
2026-01-16 01:03:33.16	211.80	21.93	-44.8	-46.7	16.0	0.00e+00	0	33	0	1180696576	56	4337
2026-01-16 01:03:37.20	211.76	21.36	-45.2	-47.2	15.8	0.00e+00	0	33	0	1188036608	56	4577
2026-01-16 01:03:41.24	211.73	20.81	-45.3	-47.3	15.7	0.00e+00	0	33	0	1195376640	56	4627
2026-01-16 01:03:45.27	211.69	20.27	-45.6	-47.7	15.4	0.00e+00	0	33	0	1202716672	56	4862
2026-01-16 01:03:49.31	211.66	19.74	-45.6	-47.7	15.5	0.00e+00	0	33	0	1211105280	56	4863
2026-01-16 01:03:53.35	211.62	19.22	-46.1	-48.4	15.2	0.00e+00	0	33	0	1218445312	57	4981
2026-01-16 01:03:57.38	211.59	18.71	-46.5	-49.1	14.8	0.00e+00	0	33	0	1225785344	58	5079
2026-01-16 01:04:01.42	211.56	18.22	-47.1	-50.1	14.0	0.00e+00	0	33	0	1233125376	60	5047
2026-01-16 01:04:05.46	211.54	17.73	-47.8	-51.4	13.1	0.00e+00	0	33	0	1240465408	60	5870
2026-01-16 01:04:09.50	211.51	17.25	-47.6	-50.9	13.5	0.00e+00	0	33	0	1248854016	61	5244
2026-01-16 01:04:13.54	211.49	16.78	-47.1	-50.2	13.9	0.00e+00	0	33	0	1256194048	60	5119
2026-01-16 01:04:17.57	211.46	16.32	-46.8	-49.6	14.3	0.00e+00	0	33	0	1263534080	60	4782
2026-01-16 01:04:21.61	211.44	15.87	-47.0	-49.9	14.3	0.00e+00	0	33	0	1270874112	59	5222
2026-01-16 01:04:25.65	211.42	15.43	-46.7	-49.4	14.6	0.00e+00	0	33	0	1278214144	59	4979
2026-01-16 01:04:29.68	211.40	14.99	-46.5	-49.2	14.7	0.00e+00	0	33	0	1286602752	59	4823
2026-01-16 01:04:33.72	211.38	14.56	-46.5	-49.1	14.8	0.00e+00	0	33	0	1293942784	59	4774
2026-01-16 01:04:37.76	211.36	14.14	-46.4	-48.9	14.8	0.00e+00	0	33	0	1301282816	59	4692
2026-01-16 01:04:41.80	211.34	13.73	-46.1	-48.6	15.0	0.00e+00	0	33	0	1308622848	58	4782
2026-01-16 01:04:45.83	211.32	13.32	-46.1	-48.5	15.0	0.00e+00	0	33	0	1317011456	58	4749
2026-01-16 01:04:49.87	211.31	12.92	-46.2	-48.6	15.0	0.00e+00	0	33	0	1324351488	58	4813
2026-01-16 01:04:53.90	211.29	12.53	-46.3	-48.8	14.9	0.00e+00	0	33	0	1331691520	58	4896
2026-01-16 01:04:57.94	211.28	12.14	-46.1	-48.6	14.9	0.00e+00	0	33	0	1339031552	58	4803
2026-01-16 01:05:01.98	211.26	11.76	-46.2	-48.7	14.9	0.00e+00	0	33	0	1346371584	58	4849
2026-01-16 01:05:06.01	211.25	11.39	-46.2	-48.8	14.8	0.00e+00	0	33	0	1354760192	58	4901
2026-01-16 01:05:10.05	211.24	11.02	-46.3	-49.0	14.7	0.00e+00	0	33	0	1362100224	58	4992
2026-01-16 01:05:14.09	211.23	10.65	-46.2	-48.8	14.7	0.00e+00	0	33	0	1369440256	58	4917
2026-01-16 01:05:18.12	211.21	10.30	-46.2	-48.8	14.8	0.00e+00	0	33	0	1376780288	58	4879
2026-01-16 01:05:22.16	211.20	9.94	-46.2	-48.8	14.7	0.00e+00	0	33	0	1385168896	58	4899
2026-01-16 01:05:26.20	211.19	9.59	-46.3	-48.9	14.7	0.00e+00	0	33	0	1392508928	58	4979
2026-01-16 01:05:30.24	211.18	9.25	-46.3	-49.0	14.7	0.00e+00	0	33	0	1399848960	58	4991
2026-01-16 01:05:34.27	211.18	8.91	-46.5	-49.3	14.4	0.00e+00	0	33	0	1407188992	58	5215
2026-01-16 01:05:38.31	211.17	8.58	-46.4	-49.2	14.5	0.00e+00	0	33	0	1414529024	58	5122
2026-01-16 01:05:42.35	211.16	8.25	-46.5	-49.4	14.3	0.00e+00	0	33	0	1422917632	58	5226
2026-01-16 01:05:46.39	211.15	7.92	-46.5	-49.3	14.3	0.00e+00	0	33	0	1430257664	58	5206
2026-01-16 01:05:50.42	211.14	7.60	-46.7	-49.7	14.1	0.00e+00	0	33	0	1437597696	59	5105
2026-01-16 01:05:54.46	211.14	7.28	-46.9	-50.1	13.8	0.00e+00	0	33	0	1444937728	59	5351
2026-01-16 01:05:58.50	211.13	6.97	-46.8	-49.9	13.9	0.00e+00	0	33	0	1453326336	59	5269
2026-01-16 01:06:02.53	211.13	6.66	-47.0	-50.2	13.7	0.00e+00	0	33	0	1460666368	59	5427
2026-01-16 01:06:06.57	211.12	6.35	-47.1	-50.5	13.4	0.00e+00	0	33	0	1468006400	59	5641
2026-01-16 01:06:10.61	211.12	6.05	-47.0	-50.3	13.6	7.00e-07	0	33	0	1475346432	59	5478
2026-01-16 01:06:14.65	211.11	5.75	-46.9	-50.1	13.6	7.00e-07	0	33	0	1482686464	59	5393
2026-01-16 01:06:18.68	211.11	5.45	-47.2	-50.7	13.2	0.00e+00	0	33	0	1491075072	59	5760
2026-01-16 01:06:22.72	211.10	5.16	-47.1	-50.6	13.3	0.00e+00	0	33	0	1498415104	59	5697
2026-01-16 01:06:26.76	211.10	4.87	-51.0	-67.1	3.8	1.49e+00	0	33	104	1501560832	67	24105
2026-01-16 01:06:30.79	211.10	4.59	-51.4	-67.6	3.8	1.49e+00	0	33	104	1501560832	67	25409
2026-01-16 01:06:34.83	211.09	4.30	-51.7	-67.9	3.8	1.49e+00	0	33	104	1501560832	68	24945
2026-01-16 01:06:38.86	211.09	4.02	-51.8	-68.0	3.8	1.49e+00	0	33	104	1501560832	68	25223
2026-01-16 01:06:42.90	211.09	3.75	-51.8	-68.1	3.8	1.49e+00	0	33	104	1501560832	68	25316
2026-01-16 01:06:46.94	211.09	3.47	-51.8	-68.1	3.8	1.49e+00	0	33	104	1501560832	68	25389
2026-01-16 01:06:50.98	211.09	3.20	-51.8	-68.0	3.8	1.49e+00	0	33	104	1501560832	68	25202
2026-01-16 01:06:55.02	211.08	2.93	-51.8	-68.0	3.8	1.49e+00	0	33	104	1501560832	68	25238
2026-01-16 01:06:59.05	211.08	2.66	-51.8	-68.0	3.8	1.49e+00	0	33	104	1501560832	68	25146
2026-01-16 01:07:03.09	211.08	2.40	-51.7	-68.0	3.8	1.49e+00	0	33	104	1501560832	68	25000
2026-01-16 01:07:07.13	211.08	2.14	-51.7	-68.0	3.8	1.49e+00	0	33	104	1501560832	68	25001
2026-01-16 01:07:11.16	211.08	1.88	-51.7	-68.0	3.8	1.49e+00	0	33	104	1501560832	68	24981

#Closed at: 2026-01-16 01:07:11
#Recorded file [1501 MB]: D:/lorett/data/31004_260116_035243.dat