passes_logs/2026/01/16/R3.2S_Murmansk_2ch/R3.2S_Murmansk_2ch__20260116_073026_SUOMI_NPP_rec.log

#Pass ID: 20260116_073026_SUOMI NPP
#Satellite: SUOMI NPP
#Configuration: NPP
#almurnet v.1.7.20251203
#Start time: 2026-01-16 07:30:26

#Version: 2.2.20231116
#Station: R3.2S_Murmansk_2ch
#Location: 33.079688 lon 68.888172 lat
#TLE: 1 37849U 11061A   26015.94982489  .00000054  00000+0  46705-4 0  9991
#TLE: 2 37849  98.7812 317.9902 0002438  62.0366 298.1057 14.19525452736847

#Time	Az	El	Level	Level2	SNR	BER	BlckErr	Temp	State	Recorded	gain1	gain2
2026-01-16 07:30:26.76	104.01	1.99	-49.7	-65.9	3.8	1.49e+00	0	31	0	0	66	22076
2026-01-16 07:30:30.79	103.84	2.23	-49.7	-65.9	3.8	1.49e+00	0	31	104	0	64	24719
2026-01-16 07:30:34.82	103.65	2.48	-49.7	-65.8	3.8	1.49e+00	0	31	104	0	64	24639
2026-01-16 07:30:38.86	103.47	2.73	-49.7	-65.8	3.8	1.49e+00	0	31	104	0	64	24492
2026-01-16 07:30:42.90	103.28	2.98	-49.7	-65.9	3.8	1.49e+00	0	31	104	0	64	24699
2026-01-16 07:30:46.94	103.09	3.24	-49.7	-65.8	3.8	1.49e+00	0	32	104	0	64	24564
2026-01-16 07:30:50.97	102.89	3.49	-49.7	-65.7	3.8	1.49e+00	0	32	104	0	64	24352
2026-01-16 07:30:55.01	102.69	3.75	-49.7	-65.7	3.8	1.49e+00	0	32	104	0	64	24351
2026-01-16 07:30:59.04	102.49	4.01	-49.6	-64.0	3.8	1.49e+00	0	32	104	0	64	19947
2026-01-16 07:31:03.07	102.28	4.27	-49.5	-60.9	4.7	9.72e-01	0	32	0	2097152	64	14025
2026-01-16 07:31:07.11	102.07	4.54	-49.2	-58.0	6.4	2.46e-01	0	32	0	9437184	64	10016
2026-01-16 07:31:11.14	101.86	4.80	-48.9	-56.8	7.4	9.70e-02	0	32	0	16777216	64	8673
2026-01-16 07:31:15.18	101.64	5.07	-49.2	-58.3	6.2	2.19e-01	0	32	0	24117248	64	10312
2026-01-16 07:31:19.22	101.41	5.35	-47.7	-52.0	11.8	4.57e-01	0	32	0	29360128	61	5978
2026-01-16 07:31:23.25	101.19	5.62	-47.8	-52.2	11.8	1.14e-05	0	32	0	36700160	61	6078
2026-01-16 07:31:27.29	100.95	5.89	-47.7	-52.0	11.9	3.12e-05	0	32	0	45088768	61	5945
2026-01-16 07:31:31.33	100.72	6.17	-46.9	-50.4	13.1	0.00e+00	0	32	0	52428800	60	5259
2026-01-16 07:31:35.36	100.47	6.45	-46.9	-50.2	13.5	0.00e+00	0	33	0	59768832	59	5435
2026-01-16 07:31:39.40	100.23	6.74	-47.1	-50.6	13.3	0.00e+00	0	33	0	67108864	59	5691
2026-01-16 07:31:43.44	99.97	7.02	-47.1	-50.5	13.3	7.00e-07	0	32	0	75497472	59	5621
2026-01-16 07:31:47.48	99.72	7.31	-46.9	-50.2	13.5	0.00e+00	0	33	0	82837504	59	5415
2026-01-16 07:31:51.51	99.45	7.60	-47.1	-50.5	13.4	0.00e+00	0	32	0	90177536	59	5599
2026-01-16 07:31:55.54	99.18	7.90	-46.9	-50.1	13.7	0.00e+00	0	32	0	97517568	59	5353
2026-01-16 07:31:59.58	98.91	8.20	-46.4	-49.8	13.8	0.00e+00	0	33	0	104857600	59	5195
2026-01-16 07:32:03.62	98.63	8.50	-46.3	-49.7	13.8	0.00e+00	0	33	0	113246208	59	5146
2026-01-16 07:32:07.65	98.34	8.80	-46.4	-49.8	13.8	0.00e+00	0	33	0	120586240	59	5204
2026-01-16 07:32:11.69	98.05	9.10	-45.8	-48.9	14.3	0.00e+00	0	33	0	127926272	58	4964
2026-01-16 07:32:15.73	97.75	9.41	-46.0	-49.2	14.2	0.00e+00	0	33	0	135266304	58	5141
2026-01-16 07:32:19.76	97.45	9.72	-45.9	-49.0	14.3	0.00e+00	0	33	0	143654912	58	4988
2026-01-16 07:32:23.80	97.13	10.04	-45.2	-48.4	14.5	0.00e+00	0	33	0	150994944	57	4961
2026-01-16 07:32:27.84	96.81	10.36	-45.6	-48.4	14.6	0.00e+00	0	33	0	158334976	57	4973
2026-01-16 07:32:31.87	96.48	10.68	-45.7	-48.6	14.6	0.00e+00	0	33	0	165675008	57	5052
2026-01-16 07:32:35.91	96.15	11.00	-45.5	-48.3	14.8	0.00e+00	0	33	0	173015040	57	4915
2026-01-16 07:32:39.95	95.81	11.33	-45.9	-48.9	14.4	0.00e+00	0	33	0	181403648	57	5259
2026-01-16 07:32:43.98	95.46	11.66	-45.9	-48.9	14.4	0.00e+00	0	33	0	188743680	57	5225
2026-01-16 07:32:48.02	95.10	12.00	-46.0	-49.0	14.4	0.00e+00	0	33	0	196083712	57	5318
2026-01-16 07:32:52.06	94.73	12.34	-45.6	-48.3	14.8	0.00e+00	0	33	0	203423744	57	4916
2026-01-16 07:32:56.10	94.35	12.68	-45.6	-48.3	14.8	0.00e+00	0	33	0	210763776	57	4905
2026-01-16 07:33:00.13	93.97	13.02	-45.4	-48.0	14.9	0.00e+00	0	33	0	219152384	57	4756
2026-01-16 07:33:04.17	93.57	13.37	-45.4	-48.1	14.9	0.00e+00	0	33	0	226492416	57	4767
2026-01-16 07:33:08.20	93.17	13.73	-45.5	-48.1	15.0	0.00e+00	0	33	0	233832448	57	4782
2026-01-16 07:33:12.24	92.75	14.08	-45.2	-47.6	15.2	0.00e+00	0	33	0	241172480	56	4767
2026-01-16 07:33:16.28	92.32	14.44	-45.2	-47.7	15.2	0.00e+00	0	33	0	249561088	56	4823
2026-01-16 07:33:20.32	91.89	14.81	-45.0	-47.3	15.3	0.00e+00	0	33	0	256901120	56	4621
2026-01-16 07:33:24.35	91.44	15.17	-45.3	-47.6	15.2	0.00e+00	0	33	0	264241152	56	4814
2026-01-16 07:33:28.39	90.98	15.55	-45.0	-47.3	15.4	0.00e+00	0	33	0	271581184	56	4633
2026-01-16 07:33:32.42	90.51	15.92	-45.2	-47.6	15.2	0.00e+00	0	33	0	278921216	56	4805
2026-01-16 07:33:36.46	90.03	16.30	-45.3	-47.9	15.1	0.00e+00	0	33	0	287309824	56	4939
2026-01-16 07:33:40.50	89.53	16.68	-45.2	-47.7	15.2	0.00e+00	0	33	0	294649856	56	4844
2026-01-16 07:33:44.54	89.02	17.07	-45.3	-47.8	15.2	0.00e+00	0	33	0	301989888	56	4903
2026-01-16 07:33:48.57	88.50	17.46	-45.0	-47.3	15.5	0.00e+00	0	33	0	309329920	56	4605
2026-01-16 07:33:52.61	87.96	17.85	-45.3	-47.8	15.3	0.00e+00	0	33	0	317718528	56	4903
2026-01-16 07:33:56.65	87.41	18.25	-45.4	-47.8	15.2	0.00e+00	0	33	0	325058560	56	4891
2026-01-16 07:34:00.68	86.84	18.65	-46.0	-48.7	14.8	0.00e+00	0	33	0	332398592	57	5112
2026-01-16 07:34:04.72	86.26	19.06	-45.9	-48.6	14.8	0.00e+00	0	33	0	339738624	57	5077
2026-01-16 07:34:08.75	85.67	19.46	-45.8	-48.4	14.9	0.00e+00	0	33	0	347078656	57	4981
2026-01-16 07:34:12.79	85.05	19.87	-45.4	-47.9	15.1	0.00e+00	0	33	0	355467264	57	4671
2026-01-16 07:34:16.82	84.42	20.29	-45.7	-48.4	14.9	0.00e+00	0	33	0	362807296	57	4958
2026-01-16 07:34:20.86	83.77	20.71	-45.5	-48.0	15.2	0.00e+00	0	33	0	370147328	57	4733
2026-01-16 07:34:24.90	83.10	21.13	-45.5	-48.0	15.1	0.00e+00	0	33	0	377487360	57	4758
2026-01-16 07:34:28.94	82.42	21.55	-45.7	-48.2	15.1	0.00e+00	0	33	0	384827392	57	4838
2026-01-16 07:34:32.97	81.71	21.98	-45.7	-48.2	15.1	0.00e+00	0	33	0	393216000	57	4855
2026-01-16 07:34:37.01	80.99	22.40	-46.1	-48.9	14.7	0.00e+00	0	33	0	400556032	57	5262
2026-01-16 07:34:41.05	80.24	22.83	-46.1	-49.0	14.6	0.00e+00	0	33	0	407896064	57	5321
2026-01-16 07:34:45.08	79.48	23.27	-46.0	-49.0	14.6	0.00e+00	0	33	0	415236096	58	4999
2026-01-16 07:34:49.12	78.69	23.70	-45.6	-48.3	15.1	0.00e+00	0	33	0	423624704	57	4909
2026-01-16 07:34:53.16	77.88	24.14	-45.8	-48.4	15.1	0.00e+00	0	33	0	430964736	57	4963
2026-01-16 07:34:57.20	77.04	24.57	-45.5	-47.9	15.3	0.00e+00	0	33	0	438304768	57	4669
2026-01-16 07:35:01.23	76.19	25.01	-45.8	-48.5	15.0	0.00e+00	0	33	0	445644800	57	5003
2026-01-16 07:35:05.27	75.30	25.44	-45.7	-48.2	15.1	0.00e+00	0	33	0	452984832	57	4850
2026-01-16 07:35:09.31	74.39	25.88	-45.7	-48.3	15.1	0.00e+00	0	33	0	461373440	57	4879
2026-01-16 07:35:13.34	73.46	26.31	-45.4	-47.9	15.3	0.00e+00	0	33	0	468713472	57	4669
2026-01-16 07:35:17.38	72.50	26.74	-46.1	-48.7	15.0	0.00e+00	0	33	0	476053504	57	5104
2026-01-16 07:35:21.42	71.52	27.17	-46.2	-48.9	14.9	0.00e+00	0	33	0	483393536	58	4948
2026-01-16 07:35:25.46	70.51	27.60	-45.2	-47.4	15.6	0.00e+00	0	33	0	491782144	56	4684
2026-01-16 07:35:29.49	69.47	28.03	-44.9	-47.1	15.7	0.00e+00	0	33	0	499122176	56	4535
2026-01-16 07:35:33.53	68.40	28.44	-45.1	-47.6	15.5	0.00e+00	0	33	0	506462208	56	4798
2026-01-16 07:35:37.56	67.31	28.86	-46.0	-48.8	14.8	0.00e+00	0	33	0	513802240	57	5169
2026-01-16 07:35:41.60	66.18	29.27	-46.8	-50.3	13.9	0.00e+00	0	33	0	521142272	59	5521
2026-01-16 07:35:45.63	65.03	29.67	-46.4	-49.3	14.5	0.00e+00	0	33	0	529530880	59	4926
2026-01-16 07:35:49.67	63.85	30.06	-46.7	-50.0	14.0	0.00e+00	0	33	0	536870912	59	5330
2026-01-16 07:35:53.71	62.63	30.44	-47.3	-51.2	13.3	0.00e+00	0	33	0	544210944	59	6123
2026-01-16 07:35:57.75	61.39	30.82	-47.9	-52.7	11.9	3.96e-05	0	33	0	551550976	61	6483
2026-01-16 07:36:01.78	60.13	31.18	-47.2	-51.2	13.1	0.00e+00	0	33	0	559939584	60	5724
2026-01-16 07:36:05.82	58.83	31.53	-47.2	-51.1	13.4	0.00e+00	0	33	0	567279616	59	6016
2026-01-16 07:36:09.86	57.50	31.87	-47.2	-51.1	13.4	0.00e+00	0	33	0	574619648	59	5995
2026-01-16 07:36:13.90	56.15	32.20	-47.0	-50.8	13.4	0.00e+00	0	33	0	581959680	60	5505
2026-01-16 07:36:17.93	54.77	32.51	-47.0	-51.1	13.3	0.00e+00	0	33	0	589299712	59	6018
2026-01-16 07:36:21.97	53.36	32.80	-47.3	-51.4	12.9	0.00e+00	0	33	0	597688320	60	5885
2026-01-16 07:36:26.01	51.93	33.08	-46.5	-49.9	14.2	0.00e+00	0	33	0	605028352	59	5238
2026-01-16 07:36:30.04	50.48	33.33	-45.0	-47.5	15.4	0.00e+00	0	33	0	612368384	56	4714
2026-01-16 07:36:34.08	49.00	33.57	-44.9	-47.4	15.5	0.00e+00	0	33	0	619708416	56	4660
2026-01-16 07:36:38.12	47.50	33.79	-46.3	-49.6	14.4	0.00e+00	0	33	0	628097024	57	5699
2026-01-16 07:36:42.15	45.99	33.99	-45.0	-47.4	15.4	0.00e+00	0	33	0	635437056	56	4694
2026-01-16 07:36:46.19	44.45	34.16	-44.4	-46.6	15.7	0.00e+00	0	33	0	642777088	55	4533
2026-01-16 07:36:50.22	42.91	34.32	-45.1	-47.6	15.3	0.00e+00	0	33	0	650117120	55	5084
2026-01-16 07:36:54.26	41.34	34.44	-45.1	-47.5	15.4	0.00e+00	0	33	0	657457152	56	4740
2026-01-16 07:36:58.30	39.77	34.55	-45.9	-48.6	15.0	0.00e+00	0	33	0	665845760	57	5093
2026-01-16 07:37:02.33	38.19	34.63	-45.4	-47.8	15.4	0.00e+00	0	33	0	673185792	57	4601
2026-01-16 07:37:06.37	36.59	34.68	-45.8	-48.3	15.2	0.00e+00	0	33	0	680525824	56	5198
2026-01-16 07:37:10.41	35.00	34.71	-46.3	-49.1	14.8	0.00e+00	0	33	0	687865856	57	5383
2026-01-16 07:37:14.45	33.40	34.72	-46.3	-49.3	14.6	0.00e+00	0	33	0	695205888	58	5210
2026-01-16 07:37:18.49	31.81	34.70	-45.9	-48.6	14.9	0.00e+00	0	33	0	703594496	58	4805
2026-01-16 07:37:22.52	30.22	34.65	-46.1	-49.3	14.5	0.00e+00	0	33	0	710934528	58	5162
2026-01-16 07:37:26.56	28.63	34.58	-45.7	-48.5	14.9	0.00e+00	0	33	0	718274560	56	5283
2026-01-16 07:37:30.60	27.05	34.49	-46.4	-49.8	14.2	0.00e+00	0	33	0	725614592	58	5486
2026-01-16 07:37:34.64	25.48	34.37	-46.0	-49.2	14.6	0.00e+00	0	33	0	734003200	58	5104
2026-01-16 07:37:38.67	23.93	34.22	-46.7	-50.3	13.9	0.00e+00	0	33	0	741343232	58	5820
2026-01-16 07:37:42.70	22.39	34.06	-46.1	-49.3	14.5	0.00e+00	0	33	0	748683264	58	5181
2026-01-16 07:37:46.74	20.87	33.87	-45.8	-48.7	14.8	0.00e+00	0	33	0	756023296	57	5155
2026-01-16 07:37:50.78	19.37	33.66	-45.6	-48.5	14.9	0.00e+00	0	33	0	763363328	57	4987
2026-01-16 07:37:54.81	17.88	33.43	-45.1	-47.7	15.3	0.00e+00	0	33	0	771751936	56	4864
2026-01-16 07:37:58.85	16.42	33.18	-46.7	-50.4	13.8	0.00e+00	0	33	0	779091968	58	5868
2026-01-16 07:38:02.89	14.98	32.91	-45.1	-47.5	15.4	0.00e+00	0	33	0	786432000	56	4753
2026-01-16 07:38:06.92	13.57	32.62	-45.9	-48.8	14.8	0.00e+00	0	33	0	793772032	57	5193
2026-01-16 07:38:10.96	12.18	32.32	-47.1	-51.1	13.2	0.00e+00	0	33	0	802160640	60	5686
2026-01-16 07:38:14.99	10.82	32.00	-46.7	-50.0	14.1	0.00e+00	0	34	0	809500672	59	5334
2026-01-16 07:38:19.03	9.49	31.67	-46.6	-50.1	13.9	0.00e+00	0	34	0	816840704	59	5356
2026-01-16 07:38:23.06	8.19	31.32	-45.9	-48.9	14.7	0.00e+00	0	33	0	824180736	57	5261
2026-01-16 07:38:27.10	6.91	30.96	-45.4	-48.0	15.1	0.00e+00	0	33	0	831520768	56	5033
2026-01-16 07:38:31.14	5.66	30.60	-47.1	-50.9	13.5	0.00e+00	0	33	0	839909376	59	5909
2026-01-16 07:38:35.17	4.44	30.22	-45.7	-48.4	15.1	0.00e+00	0	33	0	847249408	58	4672
2026-01-16 07:38:39.21	3.25	29.83	-47.4	-51.4	13.0	7.00e-07	0	33	0	854589440	60	5890
2026-01-16 07:38:43.25	2.08	29.43	-46.4	-49.4	14.5	0.00e+00	0	33	0	861929472	59	4983
2026-01-16 07:38:47.28	0.95	29.03	-46.9	-50.3	14.1	0.00e+00	0	33	0	869269504	59	5487
2026-01-16 07:38:51.32	359.85	28.61	-46.8	-50.1	14.2	0.00e+00	0	33	0	877658112	59	5345
2026-01-16 07:38:55.35	358.77	28.20	-46.1	-48.8	15.0	0.00e+00	0	33	0	884998144	58	4886
2026-01-16 07:38:59.39	357.72	27.78	-46.5	-49.5	14.5	0.00e+00	0	34	0	892338176	58	5310
2026-01-16 07:39:03.43	356.70	27.35	-45.4	-47.7	15.5	0.00e+00	0	34	0	899678208	57	4574
2026-01-16 07:39:07.47	355.71	26.92	-45.4	-47.8	15.5	0.00e+00	0	33	0	908066816	56	4873
2026-01-16 07:39:11.50	354.75	26.49	-45.1	-47.3	15.6	0.00e+00	0	33	0	915406848	56	4633
2026-01-16 07:39:15.54	353.80	26.06	-44.3	-46.2	16.0	0.00e+00	0	33	0	922746880	55	4340
2026-01-16 07:39:19.58	352.89	25.63	-45.6	-48.1	15.3	0.00e+00	0	33	0	930086912	56	5094
2026-01-16 07:39:23.61	352.00	25.19	-44.4	-46.4	15.9	0.00e+00	0	33	0	937426944	55	4433
2026-01-16 07:39:27.65	351.14	24.76	-44.4	-46.4	15.9	0.00e+00	0	33	0	945815552	55	4440
2026-01-16 07:39:31.69	350.29	24.32	-44.4	-46.5	15.9	0.00e+00	0	33	0	953155584	54	4723
2026-01-16 07:39:35.73	349.48	23.89	-44.2	-46.2	16.0	0.00e+00	0	33	0	960495616	54	4555
2026-01-16 07:39:39.76	348.68	23.46	-44.3	-46.3	16.0	0.00e+00	0	33	0	967835648	54	4615
2026-01-16 07:39:43.80	347.91	23.02	-44.7	-46.8	15.8	0.00e+00	0	33	0	975175680	55	4604
2026-01-16 07:39:47.83	347.16	22.60	-45.0	-47.2	15.6	0.00e+00	0	34	0	983564288	55	4835
2026-01-16 07:39:51.87	346.43	22.17	-45.5	-48.0	15.4	0.00e+00	0	33	0	990904320	56	4996
2026-01-16 07:39:55.91	345.72	21.74	-45.3	-47.6	15.5	0.00e+00	0	33	0	998244352	56	4803
2026-01-16 07:39:59.95	345.02	21.32	-45.9	-48.4	15.1	0.00e+00	0	33	0	1005584384	57	4962
2026-01-16 07:40:03.98	344.35	20.90	-45.6	-48.1	15.2	0.00e+00	0	34	0	1013972992	57	4800
2026-01-16 07:40:08.02	343.70	20.48	-45.6	-48.1	15.2	0.00e+00	0	33	0	1021313024	57	4771
2026-01-16 07:40:12.06	343.06	20.07	-44.9	-47.1	15.6	0.00e+00	0	33	0	1028653056	56	4544
2026-01-16 07:40:16.09	342.45	19.65	-44.7	-46.8	15.7	0.00e+00	0	33	0	1035993088	55	4624
2026-01-16 07:40:20.13	341.84	19.25	-44.7	-46.8	15.7	0.00e+00	0	33	0	1043333120	55	4622
2026-01-16 07:40:24.17	341.26	18.84	-44.2	-46.1	16.0	0.00e+00	0	34	0	1051721728	54	4541
2026-01-16 07:40:28.20	340.69	18.44	-44.3	-46.3	15.9	0.00e+00	0	33	0	1059061760	54	4635
2026-01-16 07:40:32.24	340.13	18.04	-45.3	-47.7	15.3	0.00e+00	0	33	0	1066401792	55	5130
2026-01-16 07:40:36.28	339.59	17.65	-47.0	-50.3	13.9	0.00e+00	0	33	0	1073741824	59	5515
2026-01-16 07:40:40.31	339.07	17.26	-47.0	-50.2	14.1	0.00e+00	0	33	0	1082130432	59	5443
2026-01-16 07:40:44.35	338.55	16.87	-45.9	-48.5	15.1	0.00e+00	0	33	0	1089470464	58	4725
2026-01-16 07:40:48.39	338.05	16.49	-45.6	-48.1	15.2	0.00e+00	0	33	0	1096810496	57	4784
2026-01-16 07:40:52.42	337.57	16.11	-46.3	-49.2	14.6	0.00e+00	0	33	0	1104150528	57	5411
2026-01-16 07:40:56.46	337.09	15.73	-45.8	-48.4	15.1	7.00e-07	0	34	0	1111490560	58	4683
2026-01-16 07:41:00.50	336.63	15.36	-45.4	-47.8	15.3	0.00e+00	0	33	0	1119879168	57	4630
2026-01-16 07:41:04.53	336.18	14.99	-45.5	-48.0	15.2	0.00e+00	0	34	0	1127219200	57	4734
2026-01-16 07:41:08.57	335.74	14.63	-45.8	-48.4	14.9	0.00e+00	0	33	0	1134559232	57	4965
2026-01-16 07:41:12.60	335.32	14.27	-46.0	-48.7	14.8	0.00e+00	0	34	0	1141899264	57	5138
2026-01-16 07:41:16.64	334.90	13.91	-46.1	-48.9	14.7	0.00e+00	0	33	0	1150287872	57	5245
2026-01-16 07:41:20.68	334.49	13.56	-45.7	-48.2	15.1	0.00e+00	0	33	0	1157627904	57	4840
2026-01-16 07:41:24.71	334.09	13.21	-45.5	-47.9	15.3	0.00e+00	0	34	0	1164967936	57	4669
2026-01-16 07:41:28.75	333.71	12.86	-46.2	-49.0	14.6	0.00e+00	0	33	0	1172307968	57	5324
2026-01-16 07:41:32.79	333.33	12.52	-47.2	-50.8	13.6	0.00e+00	0	33	0	1179648000	59	5838
2026-01-16 07:41:36.82	332.96	12.18	-47.0	-50.4	13.6	0.00e+00	0	33	0	1188036608	60	5268
2026-01-16 07:41:40.86	332.60	11.84	-46.8	-50.0	14.0	0.00e+00	0	33	0	1195376640	59	5318
2026-01-16 07:41:44.90	332.24	11.51	-46.2	-49.1	14.6	0.00e+00	0	33	0	1202716672	59	4768
2026-01-16 07:41:48.93	331.90	11.18	-45.9	-48.6	14.7	0.00e+00	0	33	0	1210056704	58	4778
2026-01-16 07:41:52.97	331.56	10.86	-45.6	-48.1	15.0	0.00e+00	0	33	0	1218445312	57	4788
2026-01-16 07:41:57.00	331.24	10.54	-45.5	-48.0	15.1	0.00e+00	0	33	0	1225785344	57	4743
2026-01-16 07:42:01.04	330.92	10.22	-45.8	-48.4	14.9	0.00e+00	0	33	0	1233125376	57	4969
2026-01-16 07:42:05.07	330.60	9.90	-46.0	-48.8	14.7	0.00e+00	0	34	0	1240465408	57	5204
2026-01-16 07:42:09.11	330.29	9.59	-46.4	-49.4	14.3	0.00e+00	0	34	0	1247805440	57	5545
2026-01-16 07:42:13.15	329.99	9.28	-46.6	-49.7	14.1	0.00e+00	0	34	0	1256194048	58	5432
2026-01-16 07:42:17.19	329.70	8.97	-46.7	-49.8	14.0	0.00e+00	0	33	0	1263534080	58	5521
2026-01-16 07:42:21.22	329.41	8.67	-46.9	-50.2	13.8	0.00e+00	0	33	0	1270874112	59	5410
2026-01-16 07:42:25.26	329.13	8.37	-47.0	-50.5	13.6	0.00e+00	0	34	0	1278214144	59	5614
2026-01-16 07:42:29.29	328.86	8.07	-47.2	-51.0	13.0	0.00e+00	0	34	0	1285554176	60	5609
2026-01-16 07:42:33.33	328.59	7.78	-47.4	-51.4	12.7	1.50e-06	0	33	0	1293942784	60	5880
2026-01-16 07:42:37.37	328.33	7.48	-47.1	-50.7	13.1	0.00e+00	0	33	0	1301282816	60	5463
2026-01-16 07:42:41.41	328.07	7.20	-46.9	-50.4	13.6	0.00e+00	0	33	0	1308622848	59	5560
2026-01-16 07:42:45.45	327.81	6.91	-46.5	-49.7	14.1	0.00e+00	0	34	0	1315962880	59	5109
2026-01-16 07:42:49.48	327.57	6.62	-46.3	-49.4	14.2	0.00e+00	0	34	0	1324351488	59	4935
2026-01-16 07:42:53.52	327.32	6.34	-46.4	-49.5	14.1	0.00e+00	0	34	0	1331691520	59	4989
2026-01-16 07:42:57.56	327.09	6.06	-46.6	-49.9	13.8	0.00e+00	0	33	0	1339031552	59	5264
2026-01-16 07:43:01.60	326.85	5.79	-46.9	-50.5	13.4	0.00e+00	0	34	0	1346371584	59	5605
2026-01-16 07:43:05.63	326.63	5.51	-47.3	-51.3	12.5	3.00e-06	0	34	0	1353711616	60	5821
2026-01-16 07:43:09.67	326.40	5.24	-47.2	-51.3	12.5	2.20e-06	0	33	0	1362100224	60	5807
2026-01-16 07:43:13.71	326.18	4.97	-48.0	-53.1	11.2	2.74e-05	0	33	0	1369440256	61	6748
2026-01-16 07:43:17.74	325.97	4.71	-51.2	-67.3	3.8	1.49e+00	0	33	104	1370488832	67	24620
2026-01-16 07:43:21.78	325.76	4.44	-51.7	-67.9	3.8	1.49e+00	0	33	104	1370488832	68	24926
2026-01-16 07:43:25.81	325.55	4.18	-51.9	-68.1	3.8	1.49e+00	0	34	104	1370488832	68	25532
2026-01-16 07:43:29.85	325.35	3.92	-52.0	-68.2	3.8	1.49e+00	0	34	104	1370488832	69	24225
2026-01-16 07:43:33.89	325.15	3.66	-51.9	-68.2	3.8	1.49e+00	0	34	104	1370488832	69	24193
2026-01-16 07:43:37.92	324.96	3.40	-51.8	-68.0	3.8	1.49e+00	0	34	104	1370488832	69	23842
2026-01-16 07:43:41.96	324.76	3.15	-51.8	-68.0	3.8	1.49e+00	0	34	104	1370488832	69	23690
2026-01-16 07:43:45.99	324.58	2.90	-51.7	-68.0	3.8	1.49e+00	0	34	104	1370488832	69	23590
2026-01-16 07:43:50.02	324.39	2.65	-51.8	-68.1	3.8	1.49e+00	0	34	104	1370488832	69	23872
2026-01-16 07:43:54.05	324.21	2.40	-51.7	-67.9	3.8	1.49e+00	0	34	104	1370488832	69	23535
2026-01-16 07:43:58.09	324.03	2.15	-51.7	-67.9	3.8	1.49e+00	0	34	104	1370488832	69	23434
2026-01-16 07:44:02.13	323.86	1.91	-51.7	-67.9	3.8	1.49e+00	0	34	104	1370488832	69	23458

#Closed at: 2026-01-16 07:44:03
#Recorded file [1370 MB]: D:/lorett/data/31004_260116_103026.dat