passes_logs/2026/01/16/R3.2S_Murmansk_2ch/R3.2S_Murmansk_2ch__20260116_075046_NOAA_20_JPSS-1_rec.log

#Pass ID: 20260116_075046_NOAA 20 (JPSS-1)
#Satellite: NOAA 20 (JPSS-1)
#Configuration: NOAA 20
#almurnet v.1.7.20251203
#Start time: 2026-01-16 07:50:45

#Version: 2.2.20231116
#Station: R3.2S_Murmansk_2ch
#Location: 33.079688 lon 68.888172 lat
#TLE: 1 43013U 17073A   26015.89389188  .00000026  00000+0  33113-4 0  9999
#TLE: 2 43013  98.7636 316.8238 0001460  37.8997 322.2282 14.19536128422860

#Time	Az	El	Level	Level2	SNR	BER	BlckErr	Temp	State	Recorded	gain1	gain2
2026-01-16 07:50:45.83	112.93	1.98	-49.9	-66.0	3.8	1.49e+00	0	31	0	0	66	22449
2026-01-16 07:50:49.87	112.79	2.23	-49.8	-66.0	3.8	1.49e+00	0	31	104	0	64	25111
2026-01-16 07:50:53.91	112.64	2.48	-49.8	-65.9	3.8	1.49e+00	0	31	104	0	64	24859
2026-01-16 07:50:57.93	112.48	2.74	-49.8	-65.8	3.8	1.49e+00	0	32	104	0	64	24531
2026-01-16 07:51:01.96	112.32	2.99	-49.8	-65.5	3.8	1.49e+00	0	32	104	0	64	23622
2026-01-16 07:51:05.99	112.17	3.25	-49.8	-65.6	3.8	1.49e+00	0	32	104	0	64	23963
2026-01-16 07:51:10.02	112.00	3.51	-49.9	-65.7	3.8	1.49e+00	0	32	104	0	64	24340
2026-01-16 07:51:14.06	111.84	3.78	-49.8	-65.8	3.8	1.49e+00	0	32	104	0	64	24686
2026-01-16 07:51:18.08	111.67	4.04	-49.7	-63.0	4.1	1.45e+00	0	32	0	0	64	17711
2026-01-16 07:51:22.12	111.49	4.31	-49.4	-59.5	5.5	5.39e-01	0	32	0	6291456	64	11863
2026-01-16 07:51:26.15	111.32	4.58	-49.1	-57.1	7.3	1.77e-01	0	32	0	13631488	64	9053
2026-01-16 07:51:30.19	111.14	4.85	-48.8	-55.9	8.3	3.08e-02	0	32	0	20971520	64	7827
2026-01-16 07:51:34.22	110.96	5.13	-49.5	-59.3	5.7	1.54e-01	0	33	0	28311552	64	11632
2026-01-16 07:51:38.26	110.77	5.41	-50.0	-65.6	3.8	3.08e-01	0	32	104	35651584	65	22607
2026-01-16 07:51:42.30	110.58	5.69	-46.9	-50.4	13.1	0.00e+00	0	32	0	40894464	60	5247
2026-01-16 07:51:46.33	110.38	5.97	-46.9	-50.3	13.3	0.00e+00	0	33	0	49283072	60	5169
2026-01-16 07:51:50.37	110.18	6.26	-47.0	-50.4	13.2	7.00e-07	0	33	0	56623104	60	5247
2026-01-16 07:51:54.40	109.98	6.54	-46.8	-50.2	13.4	0.00e+00	0	33	0	63963136	60	5101
2026-01-16 07:51:58.43	109.77	6.84	-46.9	-50.1	13.7	0.00e+00	0	33	0	71303168	59	5389
2026-01-16 07:52:02.47	109.56	7.13	-46.6	-49.6	14.1	0.00e+00	0	33	0	78643200	59	5092
2026-01-16 07:52:06.51	109.34	7.43	-46.5	-49.4	14.2	0.00e+00	0	33	0	87031808	59	4934
2026-01-16 07:52:10.54	109.12	7.73	-46.4	-49.3	14.3	0.00e+00	0	33	0	94371840	59	4891
2026-01-16 07:52:14.58	108.90	8.03	-46.4	-49.2	14.4	0.00e+00	0	33	0	101711872	59	4828
2026-01-16 07:52:18.62	108.66	8.34	-46.4	-49.1	14.4	0.00e+00	0	33	0	109051904	59	4812
2026-01-16 07:52:22.65	108.43	8.65	-46.3	-49.1	14.5	0.00e+00	0	33	0	117440512	59	4765
2026-01-16 07:52:26.69	108.18	8.97	-46.3	-48.9	14.6	0.00e+00	0	33	0	124780544	58	4976
2026-01-16 07:52:30.73	107.94	9.28	-46.1	-48.7	14.7	0.00e+00	0	33	0	132120576	58	4849
2026-01-16 07:52:34.77	107.68	9.60	-46.0	-48.5	14.9	0.00e+00	0	33	0	139460608	58	4722
2026-01-16 07:52:38.80	107.42	9.93	-46.0	-48.5	14.9	0.00e+00	0	33	0	146800640	58	4715
2026-01-16 07:52:42.84	107.16	10.26	-46.1	-48.6	14.8	0.00e+00	0	33	0	155189248	58	4791
2026-01-16 07:52:46.87	106.89	10.59	-45.9	-48.4	14.9	0.00e+00	0	33	0	162529280	58	4654
2026-01-16 07:52:50.91	106.61	10.93	-46.1	-48.6	14.8	0.00e+00	0	33	0	169869312	58	4803
2026-01-16 07:52:54.95	106.32	11.27	-45.9	-48.3	15.0	0.00e+00	0	33	0	177209344	58	4644
2026-01-16 07:52:58.98	106.03	11.61	-46.0	-48.5	14.9	0.00e+00	0	33	0	184549376	58	4720
2026-01-16 07:53:03.02	105.73	11.96	-46.0	-48.5	14.9	0.00e+00	0	33	0	192937984	58	4749
2026-01-16 07:53:07.05	105.42	12.31	-45.9	-48.3	15.0	0.00e+00	0	33	0	200278016	58	4646
2026-01-16 07:53:11.09	105.11	12.67	-45.9	-48.3	15.1	0.00e+00	0	33	0	207618048	58	4612
2026-01-16 07:53:15.13	104.79	13.03	-45.9	-48.2	15.1	0.00e+00	0	33	0	214958080	58	4591
2026-01-16 07:53:19.16	104.46	13.39	-45.7	-48.1	15.2	0.00e+00	0	33	0	223346688	58	4501
2026-01-16 07:53:23.20	104.12	13.76	-45.9	-48.3	15.1	0.00e+00	0	33	0	230686720	58	4620
2026-01-16 07:53:27.24	103.77	14.14	-45.8	-48.2	15.2	0.00e+00	0	33	0	238026752	58	4579
2026-01-16 07:53:31.27	103.41	14.52	-45.8	-48.1	15.2	0.00e+00	0	33	0	245366784	58	4503
2026-01-16 07:53:35.31	103.04	14.90	-45.9	-48.3	15.1	0.00e+00	0	33	0	252706816	58	4627
2026-01-16 07:53:39.35	102.66	15.29	-45.6	-47.9	15.3	0.00e+00	0	33	0	261095424	57	4655
2026-01-16 07:53:43.38	102.28	15.68	-45.6	-47.8	15.4	0.00e+00	0	33	0	268435456	57	4618
2026-01-16 07:53:47.42	101.88	16.08	-45.5	-47.7	15.5	0.00e+00	0	33	0	275775488	57	4549
2026-01-16 07:53:51.45	101.47	16.48	-45.5	-47.7	15.5	0.00e+00	0	33	0	283115520	57	4581
2026-01-16 07:53:55.49	101.05	16.89	-45.5	-47.7	15.5	0.00e+00	0	33	0	291504128	57	4556
2026-01-16 07:53:59.53	100.61	17.31	-45.6	-47.8	15.4	0.00e+00	0	33	0	298844160	57	4645
2026-01-16 07:54:03.57	100.17	17.73	-45.6	-47.8	15.5	0.00e+00	0	33	0	306184192	57	4604
2026-01-16 07:54:07.60	99.71	18.15	-45.5	-47.7	15.5	0.00e+00	0	33	0	313524224	57	4581
2026-01-16 07:54:11.64	99.23	18.58	-45.7	-47.9	15.4	0.00e+00	0	33	0	320864256	57	4695
2026-01-16 07:54:15.68	98.75	19.02	-45.6	-47.8	15.5	0.00e+00	0	33	0	329252864	57	4603
2026-01-16 07:54:19.71	98.25	19.46	-45.5	-47.7	15.5	0.00e+00	0	33	0	336592896	57	4560
2026-01-16 07:54:23.75	97.73	19.91	-45.5	-47.7	15.5	0.00e+00	0	33	0	343932928	57	4554
2026-01-16 07:54:27.79	97.20	20.36	-45.5	-47.6	15.6	0.00e+00	0	33	0	351272960	57	4524
2026-01-16 07:54:31.82	96.65	20.82	-45.6	-47.8	15.5	0.00e+00	0	33	0	358612992	57	4614
2026-01-16 07:54:35.86	96.09	21.28	-45.8	-48.1	15.4	0.00e+00	0	33	0	367001600	57	4764
2026-01-16 07:54:39.90	95.51	21.75	-45.8	-48.1	15.3	0.00e+00	0	33	0	374341632	57	4798
2026-01-16 07:54:43.93	94.91	22.23	-46.0	-48.4	15.2	0.00e+00	0	33	0	381681664	57	4934
2026-01-16 07:54:47.97	94.29	22.71	-46.0	-48.3	15.3	0.00e+00	0	33	0	389021696	57	4884
2026-01-16 07:54:52.01	93.65	23.19	-46.1	-48.5	15.2	0.00e+00	0	33	0	397410304	57	4992
2026-01-16 07:54:56.04	92.99	23.68	-46.0	-48.4	15.2	0.00e+00	0	33	0	404750336	57	4937
2026-01-16 07:55:00.08	92.30	24.18	-45.9	-48.2	15.3	0.00e+00	0	33	0	412090368	57	4849
2026-01-16 07:55:04.12	91.60	24.68	-45.8	-48.0	15.4	0.00e+00	0	33	0	419430400	57	4754
2026-01-16 07:55:08.16	90.87	25.18	-45.9	-48.2	15.4	0.00e+00	0	33	0	426770432	57	4834
2026-01-16 07:55:12.19	90.12	25.69	-46.1	-48.5	15.2	0.00e+00	0	33	0	435159040	57	4994
2026-01-16 07:55:16.23	89.35	26.21	-46.3	-48.6	15.1	0.00e+00	0	33	0	442499072	57	5087
2026-01-16 07:55:20.27	88.54	26.72	-46.5	-49.0	15.0	0.00e+00	0	33	0	449839104	58	5028
2026-01-16 07:55:24.31	87.71	27.24	-46.8	-49.5	14.7	0.00e+00	0	33	0	457179136	59	5002
2026-01-16 07:55:28.34	86.86	27.77	-47.3	-50.2	14.2	0.00e+00	0	33	0	465567744	59	5461
2026-01-16 07:55:32.40	85.97	28.30	-47.1	-49.9	14.3	0.00e+00	0	33	0	472907776	60	4952
2026-01-16 07:55:36.44	85.05	28.83	-47.2	-50.1	14.1	0.00e+00	0	33	0	481296384	60	5066
2026-01-16 07:55:40.48	84.10	29.36	-47.1	-50.0	14.2	0.00e+00	0	33	0	488636416	60	5010
2026-01-16 07:55:44.52	83.13	29.89	-47.1	-49.9	14.3	0.00e+00	0	33	0	495976448	60	4971
2026-01-16 07:55:48.55	82.12	30.42	-47.4	-50.4	13.9	0.00e+00	0	33	0	503316480	60	5264
2026-01-16 07:55:52.59	81.07	30.95	-47.8	-51.1	13.5	0.00e+00	0	33	0	510656512	60	5693
2026-01-16 07:55:56.63	79.99	31.48	-47.4	-50.3	14.0	0.00e+00	0	33	0	519045120	60	5208
2026-01-16 07:56:00.66	78.87	32.00	-47.1	-49.9	14.3	0.00e+00	0	33	0	526385152	60	4958
2026-01-16 07:56:04.70	77.72	32.52	-46.9	-49.6	14.5	0.00e+00	0	33	0	533725184	60	4784
2026-01-16 07:56:08.73	76.53	33.04	-46.9	-49.5	14.5	0.00e+00	0	33	0	541065216	60	4749
2026-01-16 07:56:12.77	75.30	33.55	-47.2	-50.0	14.2	0.00e+00	0	33	0	549453824	60	5027
2026-01-16 07:56:16.80	74.03	34.06	-47.6	-50.7	13.8	0.00e+00	0	33	0	556793856	60	5437
2026-01-16 07:56:20.84	72.72	34.55	-47.5	-50.4	14.0	0.00e+00	0	33	0	564133888	60	5274
2026-01-16 07:56:24.88	71.37	35.04	-48.0	-51.4	13.4	0.00e+00	0	33	0	571473920	61	5549
2026-01-16 07:56:28.91	69.98	35.51	-48.2	-51.7	13.2	1.50e-06	0	33	0	578813952	61	5739
2026-01-16 07:56:32.95	68.55	35.98	-47.6	-50.7	13.8	0.00e+00	0	33	0	587202560	61	5158
2026-01-16 07:56:36.99	67.08	36.42	-47.4	-50.4	14.1	0.00e+00	0	34	0	594542592	61	4936
2026-01-16 07:56:41.02	65.57	36.85	-47.7	-50.8	13.8	0.00e+00	0	33	0	601882624	61	5214
2026-01-16 07:56:45.06	64.02	37.27	-46.9	-49.6	14.6	0.00e+00	0	33	0	609222656	60	4783
2026-01-16 07:56:49.10	62.42	37.66	-46.4	-48.7	15.3	0.00e+00	0	33	0	616562688	59	4571
2026-01-16 07:56:53.13	60.80	38.03	-46.1	-48.4	15.5	0.00e+00	0	33	0	624951296	58	4652
2026-01-16 07:56:57.17	59.13	38.38	-45.6	-47.7	15.7	0.00e+00	0	33	0	632291328	57	4548
2026-01-16 07:57:01.21	57.43	38.70	-45.3	-47.3	15.9	0.00e+00	0	33	0	639631360	57	4370
2026-01-16 07:57:05.25	55.70	39.00	-45.5	-47.5	15.9	0.00e+00	0	33	0	646971392	57	4446
2026-01-16 07:57:09.28	53.94	39.27	-45.3	-47.3	15.9	0.00e+00	0	33	0	655360000	57	4348
2026-01-16 07:57:13.32	52.15	39.51	-44.8	-46.7	16.2	0.00e+00	0	33	0	662700032	56	4304
2026-01-16 07:57:17.36	50.33	39.72	-45.0	-46.9	16.1	0.00e+00	0	33	0	670040064	56	4429
2026-01-16 07:57:21.39	48.50	39.89	-44.8	-46.6	16.2	0.00e+00	0	33	0	677380096	56	4276
2026-01-16 07:57:25.43	46.64	40.04	-44.8	-46.6	16.1	0.00e+00	0	33	0	684720128	55	4541
2026-01-16 07:57:29.47	44.77	40.15	-44.9	-46.7	16.1	0.00e+00	0	33	0	693108736	55	4593
2026-01-16 07:57:33.50	42.89	40.22	-45.2	-47.2	15.9	0.00e+00	0	33	0	700448768	55	4826
2026-01-16 07:57:37.54	41.00	40.26	-45.9	-48.1	15.5	0.00e+00	0	33	0	707788800	57	4787
2026-01-16 07:57:41.58	39.11	40.27	-46.6	-48.9	15.2	0.00e+00	0	33	0	715128832	58	4981
2026-01-16 07:57:45.61	37.23	40.23	-46.9	-49.5	14.9	0.00e+00	0	33	0	722468864	59	4997
2026-01-16 07:57:49.65	35.34	40.17	-46.9	-49.5	14.7	0.00e+00	0	33	0	730857472	60	4714
2026-01-16 07:57:53.68	33.47	40.07	-47.7	-50.7	13.9	0.00e+00	0	33	0	738197504	60	5449
2026-01-16 07:57:57.72	31.61	39.93	-48.2	-51.7	13.3	0.00e+00	0	33	0	745537536	61	5778
2026-01-16 07:58:01.76	29.77	39.76	-47.8	-50.9	13.9	0.00e+00	0	33	0	752877568	61	5247
2026-01-16 07:58:05.80	27.95	39.56	-48.2	-51.6	13.3	0.00e+00	0	33	0	761266176	61	5722
2026-01-16 07:58:09.83	26.16	39.33	-47.1	-49.9	14.5	0.00e+00	0	33	0	768606208	60	4930
2026-01-16 07:58:13.87	24.39	39.07	-46.7	-49.2	15.1	0.00e+00	0	33	0	775946240	59	4818
2026-01-16 07:58:17.90	22.66	38.78	-45.5	-47.5	15.9	0.00e+00	0	33	0	783286272	57	4467
2026-01-16 07:58:21.94	20.95	38.46	-44.9	-46.7	16.2	0.00e+00	0	33	0	790626304	56	4313
2026-01-16 07:58:25.98	19.28	38.12	-44.4	-46.1	16.4	0.00e+00	0	33	0	799014912	55	4260
2026-01-16 07:58:30.02	17.64	37.75	-44.5	-46.3	16.3	0.00e+00	0	33	0	806354944	55	4376
2026-01-16 07:58:34.06	16.04	37.36	-44.0	-45.7	16.5	0.00e+00	0	33	0	813694976	54	4314
2026-01-16 07:58:38.10	14.48	36.96	-44.7	-46.5	16.2	0.00e+00	0	33	0	821035008	54	4724
2026-01-16 07:58:42.14	12.96	36.53	-44.7	-46.5	16.1	0.00e+00	0	33	0	829423616	54	4751
2026-01-16 07:58:46.17	11.49	36.09	-45.2	-47.1	15.9	0.00e+00	0	33	0	836763648	55	4810
2026-01-16 07:58:50.21	10.05	35.63	-45.3	-47.3	16.0	0.00e+00	0	33	0	844103680	56	4610
2026-01-16 07:58:54.24	8.65	35.16	-45.3	-47.3	15.9	0.00e+00	0	33	0	851443712	56	4627
2026-01-16 07:58:58.28	7.30	34.68	-45.4	-47.4	15.9	0.00e+00	0	34	0	858783744	56	4687
2026-01-16 07:59:02.32	5.98	34.18	-45.9	-48.0	15.6	0.00e+00	0	33	0	867172352	56	5006
2026-01-16 07:59:06.35	4.71	33.68	-46.5	-48.8	15.2	0.00e+00	0	33	0	874512384	58	4909
2026-01-16 07:59:10.39	3.47	33.17	-46.8	-49.2	15.0	0.00e+00	0	33	0	881852416	59	4861
2026-01-16 07:59:14.43	2.27	32.66	-47.2	-50.0	14.6	0.00e+00	0	33	0	889192448	59	5289
2026-01-16 07:59:18.46	1.11	32.14	-47.4	-50.2	14.5	0.00e+00	0	33	0	897581056	59	5429
2026-01-16 07:59:22.49	359.99	31.62	-47.4	-50.4	14.1	0.00e+00	0	33	0	904921088	60	5249
2026-01-16 07:59:26.53	358.90	31.09	-46.9	-49.5	14.6	0.00e+00	0	33	0	912261120	60	4730
2026-01-16 07:59:30.57	357.85	30.56	-47.2	-50.0	14.4	0.00e+00	0	33	0	919601152	60	4985
2026-01-16 07:59:34.61	356.83	30.03	-46.8	-49.4	14.9	0.00e+00	0	33	0	926941184	59	4942
2026-01-16 07:59:38.64	355.85	29.50	-46.8	-49.4	14.9	0.00e+00	0	33	0	935329792	59	4927
2026-01-16 07:59:42.68	354.90	28.98	-46.6	-49.0	15.1	0.00e+00	0	33	0	942669824	59	4750
2026-01-16 07:59:46.72	353.98	28.45	-46.3	-48.5	15.4	0.00e+00	0	33	0	950009856	59	4484
2026-01-16 07:59:50.75	353.09	27.92	-46.2	-48.4	15.5	0.00e+00	0	33	0	957349888	58	4680
2026-01-16 07:59:54.79	352.23	27.40	-46.1	-48.3	15.5	0.00e+00	0	33	0	964689920	58	4625
2026-01-16 07:59:58.83	351.39	26.88	-45.9	-48.1	15.6	0.00e+00	0	33	0	973078528	58	4495
2026-01-16 08:00:02.86	350.59	26.36	-45.7	-47.8	15.7	0.00e+00	0	33	0	980418560	58	4371
2026-01-16 08:00:06.90	349.81	25.85	-45.8	-48.0	15.7	0.00e+00	0	34	0	987758592	58	4450
2026-01-16 08:00:10.94	349.05	25.34	-46.0	-48.2	15.5	0.00e+00	0	33	0	995098624	58	4576
2026-01-16 08:00:14.97	348.32	24.84	-46.1	-48.3	15.5	0.00e+00	0	33	0	1003487232	58	4613
2026-01-16 08:00:19.00	347.62	24.34	-45.8	-48.0	15.6	0.00e+00	0	33	0	1010827264	58	4458
2026-01-16 08:00:23.04	346.93	23.84	-46.1	-48.3	15.5	0.00e+00	0	34	0	1018167296	58	4635
2026-01-16 08:00:27.08	346.27	23.35	-46.3	-48.6	15.3	0.00e+00	0	33	0	1025507328	58	4805
2026-01-16 08:00:31.11	345.63	22.87	-46.1	-48.4	15.4	0.00e+00	0	33	0	1032847360	58	4663
2026-01-16 08:00:35.15	345.00	22.39	-45.9	-48.1	15.5	0.00e+00	0	33	0	1041235968	58	4528
2026-01-16 08:00:39.19	344.40	21.91	-45.9	-48.0	15.6	0.00e+00	0	33	0	1048576000	58	4483
2026-01-16 08:00:43.23	343.82	21.44	-46.3	-48.6	15.2	0.00e+00	0	33	0	1055916032	58	4814
2026-01-16 08:00:47.26	343.25	20.98	-46.4	-48.8	15.2	0.00e+00	0	33	0	1063256064	58	4925
2026-01-16 08:00:51.30	342.70	20.52	-46.2	-48.5	15.3	0.00e+00	0	33	0	1071644672	58	4744
2026-01-16 08:00:55.34	342.17	20.07	-46.0	-48.3	15.4	0.00e+00	0	34	0	1078984704	58	4634
2026-01-16 08:00:59.38	341.65	19.62	-46.0	-48.2	15.4	0.00e+00	0	33	0	1086324736	58	4592
2026-01-16 08:01:03.42	341.14	19.18	-46.0	-48.3	15.4	0.00e+00	0	33	0	1093664768	58	4639
2026-01-16 08:01:07.45	340.66	18.74	-46.2	-48.5	15.3	0.00e+00	0	33	0	1101004800	58	4758
2026-01-16 08:01:11.49	340.18	18.31	-46.1	-48.4	15.3	0.00e+00	0	33	0	1109393408	58	4692
2026-01-16 08:01:15.53	339.72	17.89	-45.9	-48.2	15.4	0.00e+00	0	33	0	1116733440	58	4550
2026-01-16 08:01:19.57	339.28	17.47	-45.9	-48.1	15.5	0.00e+00	0	33	0	1124073472	58	4506
2026-01-16 08:01:23.60	338.84	17.05	-45.9	-48.2	15.4	0.00e+00	0	33	0	1131413504	58	4574
2026-01-16 08:01:27.64	338.42	16.64	-46.1	-48.5	15.2	0.00e+00	0	33	0	1139802112	58	4713
2026-01-16 08:01:31.68	338.01	16.24	-46.4	-48.9	15.0	0.00e+00	0	33	0	1147142144	58	4935
2026-01-16 08:01:35.72	337.61	15.84	-46.4	-48.9	15.0	0.00e+00	0	33	0	1154482176	58	4954
2026-01-16 08:01:39.76	337.22	15.45	-46.3	-48.8	15.1	0.00e+00	0	33	0	1161822208	58	4877
2026-01-16 08:01:43.80	336.84	15.06	-46.3	-48.8	15.1	0.00e+00	0	33	0	1169162240	58	4910
2026-01-16 08:01:47.83	336.47	14.67	-46.5	-49.1	14.9	0.00e+00	0	33	0	1177550848	58	5077
2026-01-16 08:01:51.87	336.12	14.29	-46.5	-49.3	14.7	0.00e+00	0	33	0	1184890880	58	5217
2026-01-16 08:01:55.91	335.77	13.92	-46.3	-49.4	14.7	0.00e+00	0	33	0	1192230912	58	5239
2026-01-16 08:01:59.94	335.43	13.55	-46.6	-49.4	14.6	0.00e+00	0	33	0	1199570944	58	5266
2026-01-16 08:02:03.98	335.09	13.18	-46.7	-49.5	14.6	0.00e+00	0	33	0	1207959552	58	5280
2026-01-16 08:02:08.02	334.77	12.82	-46.9	-49.7	14.5	0.00e+00	0	34	0	1215299584	59	5125
2026-01-16 08:02:12.06	334.46	12.46	-47.0	-49.8	14.4	0.00e+00	0	33	0	1222639616	59	5206
2026-01-16 08:02:16.09	334.15	12.11	-47.1	-50.0	14.3	0.00e+00	0	33	0	1229979648	59	5336
2026-01-16 08:02:20.13	333.85	11.76	-47.0	-50.0	14.3	1.50e-06	0	33	0	1237319680	59	5280
2026-01-16 08:02:24.16	333.56	11.42	-47.0	-49.9	14.3	0.00e+00	0	33	0	1245708288	59	5265
2026-01-16 08:02:28.20	333.27	11.08	-47.0	-49.9	14.3	0.00e+00	0	33	0	1253048320	59	5242
2026-01-16 08:02:32.24	333.00	10.74	-47.1	-50.2	14.1	0.00e+00	0	33	0	1260388352	59	5418
2026-01-16 08:02:36.27	332.72	10.41	-47.2	-50.2	14.0	0.00e+00	0	33	0	1267728384	59	5450
2026-01-16 08:02:40.31	332.46	10.08	-47.2	-50.4	13.9	0.00e+00	0	33	0	1275068416	59	5530
2026-01-16 08:02:44.35	332.20	9.76	-47.0	-50.1	13.8	0.00e+00	0	33	0	1283457024	60	5080
2026-01-16 08:02:48.39	331.95	9.44	-47.0	-50.1	13.9	0.00e+00	0	33	0	1290797056	60	5042
2026-01-16 08:02:52.42	331.70	9.12	-47.1	-50.4	13.6	0.00e+00	0	33	0	1298137088	60	5239
2026-01-16 08:02:56.46	331.46	8.80	-47.0	-50.2	13.7	0.00e+00	0	33	0	1305477120	60	5137
2026-01-16 08:03:00.50	331.22	8.49	-47.1	-50.4	13.6	0.00e+00	0	33	0	1313865728	60	5225
2026-01-16 08:03:04.53	330.99	8.19	-47.1	-50.4	13.5	0.00e+00	0	33	0	1321205760	60	5261
2026-01-16 08:03:08.57	330.77	7.88	-46.9	-50.0	13.8	0.00e+00	0	33	0	1328545792	60	5037
2026-01-16 08:03:12.61	330.55	7.58	-46.9	-50.1	13.7	0.00e+00	0	33	0	1335885824	60	5080
2026-01-16 08:03:16.65	330.33	7.28	-47.1	-50.4	13.5	0.00e+00	0	33	0	1343225856	60	5227
2026-01-16 08:03:20.68	330.12	6.99	-47.1	-50.6	13.3	0.00e+00	0	33	0	1351614464	60	5347
2026-01-16 08:03:24.72	329.91	6.69	-47.3	-50.8	13.1	0.00e+00	0	33	0	1358954496	60	5508
2026-01-16 08:03:28.76	329.71	6.40	-47.2	-50.8	13.1	0.00e+00	0	33	0	1366294528	60	5478
2026-01-16 08:03:32.79	329.51	6.12	-47.2	-50.7	13.1	0.00e+00	0	33	0	1373634560	60	5452
2026-01-16 08:03:36.83	329.32	5.84	-47.2	-50.8	13.1	7.00e-07	0	33	0	1382023168	60	5472
2026-01-16 08:03:40.87	329.13	5.55	-47.2	-50.8	13.1	0.00e+00	0	33	0	1389363200	60	5496
2026-01-16 08:03:44.91	328.94	5.28	-47.2	-50.9	13.0	7.00e-07	0	33	0	1396703232	60	5529
2026-01-16 08:03:48.94	328.76	5.00	-50.2	-63.1	4.2	4.70e-03	56	34	0	1404043264	65	17019
2026-01-16 08:03:52.98	328.58	4.73	-51.3	-67.5	3.8	1.49e+00	0	33	104	1404043264	67	25048
2026-01-16 08:03:57.01	328.41	4.46	-51.8	-68.0	3.8	1.49e+00	0	34	104	1404043264	68	25169
2026-01-16 08:04:01.05	328.24	4.19	-52.0	-68.2	3.8	1.49e+00	0	33	104	1404043264	69	24190
2026-01-16 08:04:05.08	328.07	3.92	-51.9	-68.2	3.8	1.49e+00	0	33	104	1404043264	69	24208
2026-01-16 08:04:09.12	327.90	3.66	-51.9	-68.2	3.8	1.49e+00	0	34	104	1404043264	69	24221
2026-01-16 08:04:13.15	327.74	3.40	-51.8	-68.0	3.8	1.49e+00	0	34	104	1404043264	69	23833
2026-01-16 08:04:17.18	327.58	3.14	-51.8	-68.0	3.8	1.49e+00	0	34	104	1404043264	69	23796
2026-01-16 08:04:21.22	327.43	2.88	-51.8	-68.0	3.8	1.49e+00	0	33	104	1404043264	69	23835
2026-01-16 08:04:25.25	327.28	2.63	-51.7	-68.0	3.8	1.49e+00	0	34	104	1404043264	69	23607
2026-01-16 08:04:29.28	327.13	2.38	-51.7	-68.0	3.8	1.49e+00	0	34	104	1404043264	69	23677
2026-01-16 08:04:33.32	326.98	2.13	-51.8	-68.0	3.8	1.49e+00	0	34	104	1404043264	69	23671

#Closed at: 2026-01-16 08:04:37
#Recorded file [1404 MB]: D:/lorett/data/31004_260116_105045.dat