passes_logs/2026/01/16/R3.2S_Murmansk_2ch/R3.2S_Murmansk_2ch__20260116_090947_SUOMI_NPP_rec.log

#Pass ID: 20260116_090947_SUOMI NPP
#Satellite: SUOMI NPP
#Configuration: NPP
#almurnet v.1.7.20251203
#Start time: 2026-01-16 09:09:46

#Version: 2.2.20231116
#Station: R3.2S_Murmansk_2ch
#Location: 33.079688 lon 68.888172 lat
#TLE: 1 37849U 11061A   26015.94982489  .00000054  00000+0  46705-4 0  9991
#TLE: 2 37849  98.7812 317.9902 0002438  62.0366 298.1057 14.19525452736847

#Time	Az	El	Level	Level2	SNR	BER	BlckErr	Temp	State	Recorded	gain1	gain2
2026-01-16 09:09:46.48	141.34	1.96	-49.8	-66.0	3.8	1.49e+00	0	31	0	0	66	22446
2026-01-16 09:09:50.52	141.30	2.22	-49.8	-66.0	3.8	1.49e+00	0	31	104	0	64	25168
2026-01-16 09:09:54.55	141.27	2.48	-49.9	-66.0	3.8	1.49e+00	0	31	104	0	64	25256
2026-01-16 09:09:58.59	141.23	2.75	-49.8	-66.0	3.8	1.49e+00	0	32	104	0	64	25070
2026-01-16 09:10:02.63	141.20	3.02	-49.9	-66.0	3.8	1.49e+00	0	32	104	0	64	25037
2026-01-16 09:10:06.67	141.16	3.29	-49.9	-65.9	3.8	1.49e+00	0	32	104	0	64	24747
2026-01-16 09:10:10.70	141.12	3.56	-49.8	-65.0	3.8	1.49e+00	0	32	104	0	64	22426
2026-01-16 09:10:14.74	141.08	3.83	-49.7	-62.8	4.0	1.47e+00	0	32	104	0	64	17409
2026-01-16 09:10:18.78	141.04	4.11	-49.6	-61.0	4.7	1.10e+00	0	32	0	3145728	64	14092
2026-01-16 09:10:22.81	141.00	4.39	-49.2	-57.5	6.9	2.31e-01	0	32	0	10485760	64	9401
2026-01-16 09:10:26.85	140.96	4.67	-47.9	-52.8	11.1	9.05e-04	0	32	0	17825792	62	6163
2026-01-16 09:10:30.89	140.91	4.96	-47.1	-50.8	12.7	3.00e-06	0	32	0	26214400	60	5521
2026-01-16 09:10:34.93	140.87	5.25	-47.6	-52.1	11.6	3.00e-04	0	32	0	33554432	60	6354
2026-01-16 09:10:38.96	140.82	5.54	-46.6	-49.8	13.6	0.00e+00	0	32	0	40894464	59	5195
2026-01-16 09:10:43.00	140.77	5.84	-46.6	-49.9	13.7	0.00e+00	0	32	0	48234496	59	5219
2026-01-16 09:10:47.04	140.72	6.14	-46.4	-49.5	14.0	0.00e+00	0	32	0	56623104	59	4984
2026-01-16 09:10:51.07	140.67	6.44	-46.4	-49.3	14.1	0.00e+00	0	32	0	63963136	59	4903
2026-01-16 09:10:55.11	140.62	6.75	-46.3	-49.2	14.2	0.00e+00	0	33	0	71303168	58	5140
2026-01-16 09:10:59.15	140.57	7.06	-46.2	-49.0	14.3	0.00e+00	0	33	0	78643200	58	5024
2026-01-16 09:11:03.19	140.52	7.37	-46.3	-49.2	14.2	0.00e+00	0	33	0	85983232	58	5133
2026-01-16 09:11:07.23	140.46	7.69	-46.4	-49.2	14.2	0.00e+00	0	33	0	94371840	58	5154
2026-01-16 09:11:11.27	140.40	8.01	-46.1	-48.7	14.6	0.00e+00	0	33	0	101711872	58	4859
2026-01-16 09:11:15.30	140.35	8.34	-46.0	-48.5	14.7	0.00e+00	0	33	0	109051904	58	4758
2026-01-16 09:11:19.33	140.29	8.67	-45.9	-48.5	14.8	0.00e+00	0	33	0	116391936	58	4710
2026-01-16 09:11:23.37	140.22	9.00	-45.8	-48.2	14.9	0.00e+00	0	33	0	123731968	58	4582
2026-01-16 09:11:27.41	140.16	9.34	-45.7	-48.1	14.9	0.00e+00	0	33	0	132120576	57	4806
2026-01-16 09:11:31.44	140.09	9.69	-45.7	-48.1	15.0	0.00e+00	0	33	0	139460608	57	4803
2026-01-16 09:11:35.47	140.03	10.03	-45.7	-48.1	15.1	0.00e+00	0	33	0	146800640	57	4762
2026-01-16 09:11:39.51	139.96	10.39	-45.5	-47.8	15.2	0.00e+00	0	33	0	154140672	57	4633
2026-01-16 09:11:43.54	139.89	10.75	-45.3	-47.6	15.3	0.00e+00	0	33	0	162529280	57	4502
2026-01-16 09:11:47.58	139.81	11.11	-45.2	-47.4	15.4	0.00e+00	0	33	0	169869312	56	4656
2026-01-16 09:11:51.61	139.74	11.48	-45.1	-47.2	15.5	0.00e+00	0	33	0	177209344	56	4575
2026-01-16 09:11:55.65	139.66	11.85	-44.9	-46.9	15.6	0.00e+00	0	33	0	184549376	56	4416
2026-01-16 09:11:59.68	139.58	12.23	-44.7	-46.7	15.6	0.00e+00	0	33	0	191889408	55	4592
2026-01-16 09:12:03.72	139.50	12.62	-44.5	-46.5	15.8	0.00e+00	0	33	0	200278016	55	4443
2026-01-16 09:12:07.76	139.41	13.01	-44.4	-46.3	15.8	0.00e+00	0	33	0	207618048	55	4391
2026-01-16 09:12:11.80	139.32	13.41	-44.2	-46.1	15.9	0.00e+00	0	33	0	214958080	54	4506
2026-01-16 09:12:15.84	139.23	13.82	-44.2	-46.0	16.0	0.00e+00	0	33	0	222298112	54	4457
2026-01-16 09:12:19.87	139.14	14.23	-43.8	-45.9	16.0	0.00e+00	0	33	0	229638144	54	4394
2026-01-16 09:12:23.91	139.04	14.65	-43.9	-46.0	15.9	0.00e+00	0	33	0	238026752	54	4460
2026-01-16 09:12:27.94	138.94	15.07	-43.9	-46.0	15.9	0.00e+00	0	33	0	245366784	54	4490
2026-01-16 09:12:31.98	138.84	15.51	-43.8	-45.9	16.0	0.00e+00	0	33	0	252706816	54	4414
2026-01-16 09:12:36.01	138.73	15.95	-43.6	-45.6	16.0	0.00e+00	0	33	0	260046848	53	4529
2026-01-16 09:12:40.05	138.62	16.40	-43.6	-45.6	16.1	0.00e+00	0	33	0	268435456	53	4521
2026-01-16 09:12:44.09	138.51	16.86	-43.6	-45.6	16.1	0.00e+00	0	33	0	275775488	53	4519
2026-01-16 09:12:48.12	138.39	17.33	-43.7	-45.7	16.1	0.00e+00	0	33	0	283115520	53	4587
2026-01-16 09:12:52.16	138.27	17.80	-43.9	-45.9	16.0	0.00e+00	0	33	0	290455552	53	4676
2026-01-16 09:12:56.20	138.14	18.29	-43.9	-45.9	16.0	0.00e+00	0	33	0	297795584	53	4697
2026-01-16 09:13:00.23	138.01	18.78	-43.9	-45.9	16.0	0.00e+00	0	33	0	306184192	53	4698
2026-01-16 09:13:04.27	137.87	19.29	-43.9	-45.9	16.1	0.00e+00	0	33	0	313524224	53	4691
2026-01-16 09:13:08.31	137.73	19.80	-43.8	-45.7	16.1	0.00e+00	0	33	0	320864256	53	4562
2026-01-16 09:13:12.34	137.58	20.33	-43.8	-45.7	16.2	0.00e+00	0	33	0	328204288	53	4571
2026-01-16 09:13:16.38	137.43	20.86	-43.6	-45.4	16.2	0.00e+00	0	33	0	336592896	53	4435
2026-01-16 09:13:20.42	137.27	21.41	-43.7	-45.7	16.2	0.00e+00	0	33	0	343932928	53	4553
2026-01-16 09:13:24.46	137.11	21.97	-43.7	-45.6	16.2	0.00e+00	0	33	0	351272960	53	4519
2026-01-16 09:13:28.49	136.94	22.54	-44.0	-46.0	16.1	0.00e+00	0	33	0	358612992	53	4737
2026-01-16 09:13:32.52	136.76	23.13	-43.9	-45.9	16.1	0.00e+00	0	33	0	365953024	53	4661
2026-01-16 09:13:36.56	136.57	23.73	-43.6	-45.5	16.3	0.00e+00	0	33	0	374341632	53	4478
2026-01-16 09:13:40.60	136.38	24.34	-43.9	-45.8	16.1	0.00e+00	0	33	0	381681664	53	4643
2026-01-16 09:13:44.64	136.18	24.96	-44.7	-46.9	15.7	0.00e+00	0	33	0	389021696	54	4950
2026-01-16 09:13:48.67	135.97	25.60	-45.1	-47.4	15.6	0.00e+00	0	33	0	396361728	55	4952
2026-01-16 09:13:52.71	135.75	26.26	-44.8	-47.0	15.7	0.00e+00	0	33	0	403701760	55	4737
2026-01-16 09:13:56.74	135.52	26.93	-45.3	-47.7	15.4	0.00e+00	0	33	0	412090368	55	5126
2026-01-16 09:14:00.78	135.28	27.62	-46.1	-48.8	15.0	0.00e+00	0	33	0	419430400	57	5192
2026-01-16 09:14:04.81	135.03	28.32	-45.8	-48.5	15.1	0.00e+00	0	33	0	426770432	57	4990
2026-01-16 09:14:08.85	134.77	29.05	-45.5	-48.0	15.4	0.00e+00	0	33	0	434110464	57	4726
2026-01-16 09:14:12.89	134.49	29.79	-46.1	-48.9	14.9	0.00e+00	0	34	0	442499072	57	5255
2026-01-16 09:14:16.93	134.20	30.55	-46.3	-49.3	14.8	0.00e+00	0	33	0	449839104	57	5481
2026-01-16 09:14:20.96	133.89	31.33	-46.3	-49.1	14.9	0.00e+00	0	33	0	457179136	58	5045
2026-01-16 09:14:25.00	133.57	32.13	-47.0	-50.2	14.2	0.00e+00	0	33	0	464519168	59	5453
2026-01-16 09:14:29.03	133.24	32.95	-47.2	-50.7	14.0	0.00e+00	0	33	0	471859200	59	5731
2026-01-16 09:14:33.06	132.88	33.79	-46.9	-50.4	14.0	0.00e+00	0	33	0	480247808	59	5589
2026-01-16 09:14:37.10	132.50	34.66	-47.2	-51.3	13.3	0.00e+00	0	33	0	487587840	59	6166
2026-01-16 09:14:41.14	132.10	35.55	-46.4	-49.5	14.6	0.00e+00	0	33	0	494927872	59	5035
2026-01-16 09:14:45.18	131.68	36.46	-47.1	-50.9	13.8	0.00e+00	0	33	0	502267904	59	5856
2026-01-16 09:14:49.21	131.24	37.39	-46.9	-50.4	14.1	0.00e+00	0	33	0	510656512	59	5588
2026-01-16 09:14:53.25	130.76	38.35	-46.0	-48.9	14.9	0.00e+00	0	33	0	517996544	58	4980
2026-01-16 09:14:57.29	130.26	39.34	-46.7	-50.1	14.2	0.00e+00	0	33	0	525336576	59	5400
2026-01-16 09:15:01.32	129.72	40.35	-47.1	-51.0	13.6	0.00e+00	0	33	0	532676608	59	5987
2026-01-16 09:15:05.36	129.15	41.39	-46.7	-50.1	14.3	0.00e+00	0	33	0	540016640	59	5354
2026-01-16 09:15:09.40	128.54	42.46	-46.4	-49.7	14.5	0.00e+00	0	33	0	548405248	59	5141
2026-01-16 09:15:13.43	127.89	43.55	-46.2	-49.7	14.4	0.00e+00	0	33	0	555745280	58	5446
2026-01-16 09:15:17.46	127.18	44.67	-45.9	-49.2	14.7	0.00e+00	0	33	0	563085312	58	5114
2026-01-16 09:15:21.50	126.43	45.81	-45.2	-48.1	15.3	0.00e+00	0	33	0	570425344	56	5074
2026-01-16 09:15:25.54	125.61	46.99	-45.6	-48.6	15.0	0.00e+00	0	33	0	577765376	57	5069
2026-01-16 09:15:29.57	124.73	48.19	-45.6	-48.4	15.2	0.00e+00	0	33	0	586153984	56	5262
2026-01-16 09:15:33.60	123.78	49.41	-45.1	-47.6	15.6	0.00e+00	0	33	0	593494016	56	4810
2026-01-16 09:15:37.64	122.75	50.66	-44.8	-47.1	15.9	0.00e+00	0	33	0	600834048	56	4498
2026-01-16 09:15:41.67	121.63	51.93	-45.1	-47.6	15.5	0.00e+00	0	33	0	608174080	55	5080
2026-01-16 09:15:45.70	120.40	53.23	-44.4	-46.4	16.0	0.00e+00	0	33	0	616562688	55	4427
2026-01-16 09:15:49.74	119.06	54.54	-45.6	-48.2	15.2	0.00e+00	0	33	0	623902720	57	4832
2026-01-16 09:15:53.77	117.58	55.87	-44.9	-47.2	15.6	0.00e+00	0	33	0	631242752	55	4827
2026-01-16 09:15:57.81	115.96	57.22	-45.1	-47.5	15.5	0.00e+00	0	33	0	638582784	56	4737
2026-01-16 09:16:01.85	114.16	58.57	-46.3	-49.4	14.6	0.00e+00	0	33	0	645922816	58	5257
2026-01-16 09:16:05.88	112.18	59.91	-45.5	-48.1	15.3	0.00e+00	0	33	0	654311424	57	4765
2026-01-16 09:16:09.91	109.97	61.26	-45.5	-48.1	15.3	0.00e+00	0	33	0	661651456	57	4778
2026-01-16 09:16:13.95	107.51	62.59	-44.7	-47.0	15.8	0.00e+00	0	33	0	668991488	56	4452
2026-01-16 09:16:17.99	104.77	63.89	-45.1	-47.6	15.5	0.00e+00	0	33	0	676331520	55	5064
2026-01-16 09:16:22.02	101.70	65.16	-44.4	-46.5	15.9	0.00e+00	0	33	0	683671552	54	4758
2026-01-16 09:16:26.06	98.27	66.38	-46.4	-49.1	15.0	0.00e+00	0	33	0	692060160	58	5076
2026-01-16 09:16:30.10	94.44	67.52	-47.1	-50.2	14.3	0.00e+00	0	33	0	699400192	59	5436
2026-01-16 09:16:34.13	90.18	68.58	-45.9	-48.3	15.3	0.00e+00	0	33	0	706740224	57	4920
2026-01-16 09:16:38.17	85.46	69.52	-47.2	-50.5	14.0	0.00e+00	0	33	0	714080256	60	5304
2026-01-16 09:16:42.20	80.30	70.33	-47.1	-50.2	14.2	0.00e+00	0	33	0	722468864	60	5137
2026-01-16 09:16:46.24	74.69	70.99	-47.0	-49.9	14.4	0.00e+00	0	33	0	729808896	60	4965
2026-01-16 09:16:50.28	68.72	71.46	-48.8	-53.3	11.8	4.65e-05	0	33	0	737148928	63	6190
2026-01-16 09:16:54.32	62.49	71.73	-47.0	-50.2	14.2	0.00e+00	0	34	0	744488960	60	5148
2026-01-16 09:16:58.35	56.16	71.80	-46.1	-48.6	15.2	0.00e+00	0	33	0	751828992	58	4807
2026-01-16 09:17:02.39	49.84	71.65	-45.9	-48.2	15.6	0.00e+00	0	33	0	760217600	58	4585
2026-01-16 09:17:06.42	43.71	71.30	-47.0	-49.8	14.6	0.00e+00	0	33	0	767557632	59	5162
2026-01-16 09:17:10.45	37.89	70.75	-47.0	-49.8	14.7	0.00e+00	0	33	0	774897664	59	5191
2026-01-16 09:17:14.49	32.45	70.04	-47.4	-50.6	14.2	0.00e+00	0	33	0	782237696	59	5690
2026-01-16 09:17:18.52	27.47	69.17	-48.3	-52.3	12.9	0.00e+00	0	33	0	789577728	61	6157
2026-01-16 09:17:22.56	22.93	68.18	-47.0	-49.8	14.5	0.00e+00	0	33	0	797966336	60	4919
2026-01-16 09:17:26.60	18.84	67.09	-45.5	-47.6	15.7	0.00e+00	0	33	0	805306368	57	4511
2026-01-16 09:17:30.63	15.18	65.92	-45.8	-48.2	15.4	0.00e+00	0	33	0	812646400	57	4816
2026-01-16 09:17:34.67	11.89	64.68	-44.9	-47.0	15.9	0.00e+00	0	33	0	819986432	56	4455
2026-01-16 09:17:38.70	8.96	63.40	-43.5	-45.3	16.5	0.00e+00	0	34	0	828375040	53	4355
2026-01-16 09:17:42.74	6.33	62.09	-43.8	-45.7	16.4	0.00e+00	0	34	0	835715072	54	4299
2026-01-16 09:17:46.77	3.98	60.75	-45.5	-48.0	15.4	0.00e+00	0	33	0	843055104	56	5041
2026-01-16 09:17:50.81	1.86	59.41	-46.5	-49.6	14.7	0.00e+00	0	33	0	850395136	58	5341
2026-01-16 09:17:54.85	359.95	58.06	-44.5	-46.7	16.0	0.00e+00	0	33	0	857735168	55	4556
2026-01-16 09:17:58.88	358.23	56.72	-44.8	-47.0	15.9	0.00e+00	0	33	0	866123776	56	4444
2026-01-16 09:18:02.92	356.67	55.38	-43.7	-45.6	16.3	0.00e+00	0	33	0	873463808	52	4783
2026-01-16 09:18:06.96	355.25	54.06	-45.5	-48.1	15.4	0.00e+00	0	33	0	880803840	56	5078
2026-01-16 09:18:10.99	353.96	52.76	-45.5	-48.2	15.2	0.00e+00	0	33	0	888143872	57	4852
2026-01-16 09:18:15.03	352.77	51.47	-44.5	-46.7	15.9	0.00e+00	0	33	0	896532480	55	4574
2026-01-16 09:18:19.07	351.68	50.21	-43.9	-45.9	16.2	0.00e+00	0	33	0	903872512	54	4406
2026-01-16 09:18:23.10	350.69	48.97	-45.5	-48.2	15.3	0.00e+00	0	34	0	911212544	56	5106
2026-01-16 09:18:27.14	349.76	47.76	-46.8	-50.0	14.4	0.00e+00	0	33	0	918552576	59	5332
2026-01-16 09:18:31.18	348.91	46.57	-47.4	-51.2	13.5	0.00e+00	0	33	0	925892608	60	5755
2026-01-16 09:18:35.21	348.12	45.41	-47.0	-50.3	14.3	0.00e+00	0	33	0	934281216	59	5513
2026-01-16 09:18:39.25	347.39	44.28	-47.2	-50.5	14.2	0.00e+00	0	34	0	941621248	59	5603
2026-01-16 09:18:43.28	346.71	43.17	-46.5	-49.3	14.9	0.00e+00	0	33	0	948961280	59	4906
2026-01-16 09:18:47.32	346.07	42.09	-47.1	-50.2	14.3	0.00e+00	0	33	0	956301312	59	5457
2026-01-16 09:18:51.35	345.48	41.04	-46.8	-49.7	14.8	0.00e+00	0	33	0	963641344	59	5139
2026-01-16 09:18:55.39	344.92	40.02	-47.4	-50.8	13.9	0.00e+00	0	34	0	972029952	60	5516
2026-01-16 09:18:59.42	344.40	39.02	-48.2	-52.5	12.4	2.20e-06	0	33	0	979369984	62	5977
2026-01-16 09:19:03.46	343.91	38.05	-45.2	-47.5	15.8	0.00e+00	0	34	0	986710016	57	4446
2026-01-16 09:19:07.49	343.45	37.10	-44.9	-47.1	15.8	0.00e+00	0	33	0	994050048	55	4775
2026-01-16 09:19:11.53	343.01	36.17	-47.4	-51.0	13.6	0.00e+00	0	34	0	1002438656	60	5593
2026-01-16 09:19:15.57	342.60	35.27	-46.9	-50.3	14.0	0.00e+00	0	34	0	1009778688	60	5181
2026-01-16 09:19:19.60	342.22	34.40	-47.2	-50.8	13.7	0.00e+00	0	34	0	1017118720	60	5503
2026-01-16 09:19:23.64	341.85	33.54	-46.5	-49.3	14.8	0.00e+00	0	34	0	1024458752	59	4904
2026-01-16 09:19:27.68	341.50	32.71	-45.5	-47.8	15.5	0.00e+00	0	33	0	1031798784	57	4642
2026-01-16 09:19:31.72	341.17	31.90	-46.4	-49.1	15.0	0.00e+00	0	33	0	1040187392	58	5090
2026-01-16 09:19:35.76	340.86	31.11	-48.0	-52.0	12.6	0.00e+00	0	34	0	1047527424	61	5933
2026-01-16 09:19:39.79	340.56	30.34	-47.6	-51.4	13.3	0.00e+00	0	34	0	1054867456	61	5529
2026-01-16 09:19:43.83	340.28	29.59	-46.9	-49.9	14.5	0.00e+00	0	33	0	1062207488	59	5232
2026-01-16 09:19:47.86	340.01	28.86	-46.6	-49.3	15.0	0.00e+00	0	34	0	1070596096	59	4883
2026-01-16 09:19:51.90	339.75	28.14	-45.4	-47.5	15.8	0.00e+00	0	33	0	1077936128	57	4489
2026-01-16 09:19:55.93	339.50	27.45	-45.4	-47.5	15.8	0.00e+00	0	34	0	1085276160	56	4724
2026-01-16 09:19:59.97	339.27	26.77	-47.2	-50.4	14.2	0.00e+00	0	33	0	1092616192	59	5556
2026-01-16 09:20:04.01	339.04	26.10	-47.2	-50.6	13.9	0.00e+00	0	34	0	1099956224	60	5346
2026-01-16 09:20:08.05	338.83	25.45	-46.1	-48.7	15.1	0.00e+00	0	33	0	1108344832	58	4857
2026-01-16 09:20:12.08	338.62	24.82	-45.4	-47.6	15.7	0.00e+00	0	34	0	1115684864	57	4539
2026-01-16 09:20:16.12	338.43	24.20	-45.2	-47.4	15.7	0.00e+00	0	33	0	1123024896	56	4679
2026-01-16 09:20:20.15	338.24	23.60	-45.3	-47.5	15.6	0.00e+00	0	34	0	1130364928	56	4756
2026-01-16 09:20:24.19	338.06	23.00	-45.1	-47.3	15.7	0.00e+00	0	34	0	1138753536	56	4636
2026-01-16 09:20:28.23	337.88	22.43	-45.0	-47.3	15.7	0.00e+00	0	34	0	1146093568	56	4610
2026-01-16 09:20:32.26	337.72	21.86	-45.3	-47.7	15.5	0.00e+00	0	34	0	1153433600	56	4839
2026-01-16 09:20:36.30	337.56	21.31	-45.9	-48.6	15.0	0.00e+00	0	33	0	1160773632	56	5365
2026-01-16 09:20:40.33	337.40	20.76	-46.7	-49.8	14.4	0.00e+00	0	34	0	1168113664	58	5515
2026-01-16 09:20:44.37	337.26	20.23	-46.8	-50.1	14.2	0.00e+00	0	34	0	1176502272	59	5394
2026-01-16 09:20:48.40	337.11	19.71	-46.7	-49.9	14.4	0.00e+00	0	34	0	1183842304	59	5220
2026-01-16 09:20:52.44	336.98	19.20	-46.1	-49.0	14.8	0.00e+00	0	34	0	1191182336	58	4989
2026-01-16 09:20:56.48	336.84	18.70	-45.9	-48.5	15.1	0.00e+00	0	34	0	1198522368	58	4741
2026-01-16 09:21:00.51	336.71	18.21	-46.0	-48.7	15.0	0.00e+00	0	33	0	1205862400	58	4870
2026-01-16 09:21:04.55	336.59	17.73	-46.1	-48.8	15.0	0.00e+00	0	33	0	1214251008	58	4911
2026-01-16 09:21:08.58	336.47	17.26	-46.4	-49.3	14.6	0.00e+00	0	33	0	1221591040	58	5194
2026-01-16 09:21:12.62	336.36	16.80	-46.8	-50.1	14.3	0.00e+00	0	34	0	1228931072	58	5671
2026-01-16 09:21:16.65	336.25	16.35	-46.8	-50.0	14.2	0.00e+00	0	33	0	1236271104	59	5331
2026-01-16 09:21:20.69	336.14	15.90	-46.9	-50.3	14.0	0.00e+00	0	34	0	1244659712	59	5477
2026-01-16 09:21:24.72	336.04	15.46	-46.9	-50.3	13.9	0.00e+00	0	33	0	1251999744	59	5524
2026-01-16 09:21:28.75	335.94	15.03	-47.1	-50.6	13.8	0.00e+00	0	34	0	1259339776	59	5718
2026-01-16 09:21:32.79	335.84	14.61	-47.3	-51.0	13.5	7.00e-07	0	34	0	1266679808	59	5973
2026-01-16 09:21:36.83	335.75	14.19	-47.1	-50.7	13.8	0.00e+00	0	33	0	1274019840	59	5739
2026-01-16 09:21:40.87	335.66	13.78	-46.9	-50.4	13.9	0.00e+00	0	34	0	1282408448	59	5578
2026-01-16 09:21:44.90	335.57	13.38	-46.7	-50.1	14.0	0.00e+00	0	33	0	1289748480	59	5376
2026-01-16 09:21:48.94	335.48	12.99	-46.7	-50.0	14.1	0.00e+00	0	33	0	1297088512	59	5317
2026-01-16 09:21:52.97	335.40	12.60	-46.5	-49.8	14.2	0.00e+00	0	34	0	1304428544	59	5165
2026-01-16 09:21:57.01	335.32	12.21	-46.3	-49.4	14.5	0.00e+00	0	34	0	1311768576	59	4936
2026-01-16 09:22:01.05	335.24	11.84	-46.3	-49.4	14.4	0.00e+00	0	34	0	1320157184	59	4942
2026-01-16 09:22:05.08	335.17	11.47	-46.5	-49.7	14.2	0.00e+00	0	34	0	1327497216	59	5134
2026-01-16 09:22:09.12	335.10	11.10	-46.4	-49.6	14.3	0.00e+00	0	33	0	1334837248	59	5061
2026-01-16 09:22:13.15	335.03	10.74	-46.5	-49.7	14.3	0.00e+00	0	34	0	1342177280	59	5112
2026-01-16 09:22:17.19	334.96	10.38	-46.5	-49.6	14.3	0.00e+00	0	34	0	1350565888	59	5086
2026-01-16 09:22:21.23	334.89	10.03	-46.2	-49.2	14.6	0.00e+00	0	34	0	1357905920	59	4850
2026-01-16 09:22:25.26	334.83	9.68	-46.2	-49.1	14.6	0.00e+00	0	34	0	1365245952	59	4797
2026-01-16 09:22:29.30	334.76	9.34	-46.2	-49.1	14.6	0.00e+00	0	34	0	1372585984	58	5055
2026-01-16 09:22:33.33	334.70	9.01	-46.3	-49.3	14.5	0.00e+00	0	34	0	1379926016	58	5164
2026-01-16 09:22:37.37	334.65	8.67	-46.3	-49.2	14.5	0.00e+00	0	34	0	1388314624	58	5137
2026-01-16 09:22:41.41	334.59	8.35	-46.3	-49.3	14.4	0.00e+00	0	34	0	1395654656	58	5192
2026-01-16 09:22:45.44	334.53	8.02	-46.3	-49.3	14.5	0.00e+00	0	34	0	1402994688	58	5210
2026-01-16 09:22:49.47	334.48	7.70	-46.3	-49.3	14.4	0.00e+00	0	33	0	1410334720	58	5189
2026-01-16 09:22:53.51	334.43	7.39	-46.4	-49.5	14.3	0.00e+00	0	34	0	1417674752	58	5287
2026-01-16 09:22:57.55	334.38	7.08	-46.6	-49.8	14.1	0.00e+00	0	33	0	1426063360	58	5465
2026-01-16 09:23:01.58	334.33	6.77	-46.6	-49.8	14.1	0.00e+00	0	34	0	1433403392	58	5488
2026-01-16 09:23:05.62	334.28	6.46	-46.8	-50.1	13.9	0.00e+00	0	33	0	1440743424	58	5689
2026-01-16 09:23:09.66	334.23	6.16	-46.9	-50.3	13.7	0.00e+00	0	34	0	1448083456	59	5509
2026-01-16 09:23:13.69	334.19	5.86	-47.1	-50.7	13.4	0.00e+00	0	34	0	1456472064	59	5739
2026-01-16 09:23:17.73	334.14	5.57	-47.1	-50.9	13.3	0.00e+00	0	34	0	1463812096	59	5862
2026-01-16 09:23:21.76	334.10	5.28	-47.1	-50.9	13.1	0.00e+00	0	34	0	1471152128	59	5896
2026-01-16 09:23:25.80	334.06	4.99	-49.8	-59.9	5.7	7.00e-07	0	33	0	1478492160	64	12513
2026-01-16 09:23:29.83	334.02	4.71	-51.4	-67.6	3.8	1.49e+00	0	34	104	1479540736	67	25437
2026-01-16 09:23:33.86	333.98	4.42	-51.9	-68.1	3.8	1.49e+00	0	34	104	1479540736	68	25505
2026-01-16 09:23:37.90	333.94	4.15	-52.0	-68.3	3.8	1.49e+00	0	33	104	1479540736	69	24512
2026-01-16 09:23:41.94	333.90	3.87	-52.1	-68.3	3.8	1.49e+00	0	34	104	1479540736	69	24569
2026-01-16 09:23:45.97	333.87	3.60	-52.0	-68.3	3.8	1.49e+00	0	34	104	1479540736	69	24459
2026-01-16 09:23:50.00	333.83	3.33	-52.0	-68.2	3.8	1.49e+00	0	34	104	1479540736	69	24289
2026-01-16 09:23:54.04	333.80	3.06	-52.0	-68.2	3.8	1.49e+00	0	34	104	1479540736	69	24320
2026-01-16 09:23:58.07	333.76	2.79	-51.9	-68.2	3.8	1.49e+00	0	34	104	1479540736	69	24191
2026-01-16 09:24:02.11	333.73	2.53	-51.9	-68.1	3.8	1.49e+00	0	34	104	1479540736	69	24080
2026-01-16 09:24:06.15	333.70	2.27	-51.9	-68.1	3.8	1.49e+00	0	34	104	1479540736	69	24097
2026-01-16 09:24:10.19	333.67	2.01	-51.9	-68.1	3.8	1.49e+00	0	34	104	1479540736	69	24012

#Closed at: 2026-01-16 09:24:10
#Recorded file [1479 MB]: D:/lorett/data/31004_260116_120946.dat