passes_logs/2026/01/16/R3.2S_Murmansk_2ch/R3.2S_Murmansk_2ch__20260116_051156_FENGYUN_3D_rec.log

#Pass ID: 20260116_051156_FENGYUN 3D
#Satellite: FENGYUN 3D
#Configuration: FENGYUN 3D
#almurnet v.1.7.20251203
#Start time: 2026-01-16 05:11:56

#Version: 2.2.20231116
#Station: R3.2S_Murmansk_2ch
#Location: 33.079688 lon 68.888172 lat
#TLE: 1 43010U 17072A   26015.63785617 -.00000279  00000+0 -10998-3 0  9991
#TLE: 2 43010  98.9933 347.4636 0002368 106.7198 253.4237 14.19694313423348

#Time	Az	El	Level	Level2	SNR	BER	BlckErr	Temp	State	Recorded	gain1	gain2
2026-01-16 05:11:56.28	39.34	1.96	-49.6	-62.7	3.8	8.45e-01	0	31	0	0	65	16302
2026-01-16 05:12:00.32	39.15	2.21	-49.6	-62.8	3.8	8.45e-01	0	31	104	0	64	17291
2026-01-16 05:12:04.36	38.95	2.45	-49.6	-62.7	3.8	8.46e-01	0	32	104	0	64	17200
2026-01-16 05:12:08.39	38.75	2.70	-49.6	-62.7	3.8	8.46e-01	0	31	104	0	64	17155
2026-01-16 05:12:12.43	38.55	2.94	-49.6	-62.8	3.8	8.46e-01	0	32	104	0	64	17322
2026-01-16 05:12:16.47	38.34	3.19	-49.6	-62.7	3.8	8.45e-01	0	32	104	0	64	17120
2026-01-16 05:12:20.50	38.13	3.44	-49.6	-62.7	3.8	8.46e-01	0	32	104	0	64	17183
2026-01-16 05:12:24.54	37.92	3.70	-49.6	-62.1	3.8	8.45e-01	0	32	104	0	64	16112
2026-01-16 05:12:28.58	37.70	3.95	-49.5	-60.8	3.9	8.45e-01	0	32	104	0	64	13821
2026-01-16 05:12:32.61	37.47	4.21	-49.0	-57.2	5.0	7.98e-01	0	32	0	0	64	9160
2026-01-16 05:12:36.65	37.25	4.47	-48.2	-53.7	7.5	1.04e-01	0	32	0	19922944	63	6470
2026-01-16 05:12:40.69	37.01	4.73	-47.4	-51.8	9.2	1.66e-02	0	32	0	42991616	61	5811
2026-01-16 05:12:44.73	36.78	4.99	-47.9	-52.9	8.2	3.76e-02	0	32	0	66060288	61	6619
2026-01-16 05:12:48.77	36.54	5.26	-44.8	-46.9	13.7	6.93e-02	0	32	0	85983232	56	4426
2026-01-16 05:12:52.80	36.29	5.53	-46.0	-48.7	12.4	2.20e-06	0	32	0	106954752	57	5122
2026-01-16 05:12:56.84	36.04	5.80	-43.5	-45.3	14.6	0.00e+00	0	32	0	130023424	53	4352
2026-01-16 05:13:00.87	35.79	6.07	-43.8	-45.7	14.4	0.00e+00	0	33	0	153092096	53	4567
2026-01-16 05:13:04.91	35.52	6.34	-43.7	-45.5	14.6	0.00e+00	0	33	0	175112192	53	4488
2026-01-16 05:13:08.95	35.26	6.62	-43.0	-44.6	15.1	0.00e+00	0	33	0	198180864	52	4284
2026-01-16 05:13:12.99	34.99	6.90	-42.8	-44.4	15.2	0.00e+00	0	33	0	221249536	51	4411
2026-01-16 05:13:17.03	34.71	7.18	-42.7	-44.3	15.3	0.00e+00	0	33	0	243269632	51	4366
2026-01-16 05:13:21.07	34.43	7.47	-42.5	-44.1	15.5	0.00e+00	0	33	0	266338304	51	4259
2026-01-16 05:13:25.11	34.14	7.75	-42.3	-43.8	15.6	0.00e+00	0	33	0	289406976	51	4109
2026-01-16 05:13:29.15	33.84	8.04	-42.4	-43.9	15.6	0.00e+00	0	33	0	311427072	51	4186
2026-01-16 05:13:33.19	33.54	8.34	-42.2	-43.7	15.7	0.00e+00	0	33	0	334495744	50	4306
2026-01-16 05:13:37.23	33.23	8.63	-42.1	-43.6	15.7	0.00e+00	0	33	0	357564416	50	4248
2026-01-16 05:13:41.26	32.92	8.93	-42.0	-43.5	15.8	0.00e+00	0	33	0	379584512	50	4203
2026-01-16 05:13:45.30	32.60	9.23	-41.7	-43.1	16.0	0.00e+00	0	33	0	402653184	49	4285
2026-01-16 05:13:49.34	32.27	9.53	-41.9	-43.3	15.8	0.00e+00	0	33	0	425721856	49	4384
2026-01-16 05:13:53.38	31.93	9.83	-41.7	-43.1	16.0	0.00e+00	0	33	0	447741952	49	4264
2026-01-16 05:13:57.42	31.59	10.14	-41.7	-43.1	16.0	0.00e+00	0	33	0	470810624	49	4276
2026-01-16 05:14:01.46	31.24	10.45	-41.5	-42.8	16.1	0.00e+00	0	33	0	493879296	49	4140
2026-01-16 05:14:05.49	30.88	10.77	-41.2	-42.6	16.2	0.00e+00	0	33	0	515899392	49	4012
2026-01-16 05:14:09.53	30.52	11.08	-41.4	-42.7	16.2	0.00e+00	0	33	0	538968064	49	4086
2026-01-16 05:14:13.57	30.14	11.40	-41.5	-42.9	16.1	0.00e+00	0	33	0	560988160	49	4148
2026-01-16 05:14:17.60	29.76	11.73	-41.5	-42.8	16.2	0.00e+00	0	33	0	584056832	49	4137
2026-01-16 05:14:21.64	29.37	12.05	-41.4	-42.7	16.2	0.00e+00	0	33	0	607125504	49	4082
2026-01-16 05:14:25.68	28.97	12.38	-41.2	-42.5	16.3	0.00e+00	0	33	0	630194176	48	4226
2026-01-16 05:14:29.72	28.55	12.71	-41.2	-42.6	16.3	0.00e+00	0	33	0	652214272	48	4244
2026-01-16 05:14:33.76	28.13	13.05	-41.0	-42.3	16.4	0.00e+00	0	33	0	675282944	48	4111
2026-01-16 05:14:37.80	27.70	13.38	-40.8	-42.0	16.5	0.00e+00	0	33	0	698351616	48	3995
2026-01-16 05:14:41.83	27.26	13.72	-40.5	-41.8	16.5	0.00e+00	0	33	0	720371712	47	4109
2026-01-16 05:14:45.87	26.81	14.07	-40.5	-41.8	16.5	0.00e+00	0	33	0	743440384	47	4135
2026-01-16 05:14:49.91	26.35	14.41	-40.3	-41.6	16.6	0.00e+00	0	33	0	765460480	47	4010
2026-01-16 05:14:53.95	25.88	14.76	-40.7	-42.0	16.4	0.00e+00	0	33	0	788529152	47	4226
2026-01-16 05:14:57.99	25.39	15.11	-40.3	-41.6	16.6	0.00e+00	0	33	0	811597824	47	4016
2026-01-16 05:15:02.02	24.89	15.47	-40.0	-41.3	16.7	0.00e+00	0	33	0	834666496	46	4108
2026-01-16 05:15:06.06	24.38	15.83	-40.1	-41.4	16.6	0.00e+00	0	33	0	856686592	46	4154
2026-01-16 05:15:10.10	23.86	16.19	-40.0	-41.2	16.7	0.00e+00	0	33	0	879755264	46	4088
2026-01-16 05:15:14.14	23.33	16.55	-39.6	-40.8	16.8	0.00e+00	0	33	0	902823936	45	4118
2026-01-16 05:15:18.17	22.78	16.92	-39.6	-40.8	16.8	0.00e+00	0	33	0	924844032	45	4118
2026-01-16 05:15:22.21	22.22	17.29	-39.8	-41.1	16.7	0.00e+00	0	33	0	947912704	45	4247
2026-01-16 05:15:26.25	21.64	17.66	-39.5	-40.7	16.8	0.00e+00	0	33	0	969932800	45	4056
2026-01-16 05:15:30.29	21.05	18.04	-39.3	-40.5	16.9	0.00e+00	0	33	0	993001472	45	3989
2026-01-16 05:15:34.32	20.44	18.41	-39.2	-40.4	16.9	0.00e+00	0	33	0	1016070144	44	4162
2026-01-16 05:15:38.36	19.82	18.79	-39.3	-40.4	16.9	0.00e+00	0	33	0	1038090240	44	4188
2026-01-16 05:15:42.40	19.18	19.18	-39.4	-40.5	16.9	0.00e+00	0	33	0	1061158912	44	4239
2026-01-16 05:15:46.44	18.52	19.56	-39.0	-40.2	17.0	0.00e+00	0	33	0	1084227584	44	4071
2026-01-16 05:15:50.48	17.85	19.95	-38.8	-39.9	17.0	0.00e+00	0	33	0	1107296256	44	3947
2026-01-16 05:15:54.51	17.16	20.33	-39.1	-40.2	17.0	0.00e+00	0	33	0	1129316352	44	4077
2026-01-16 05:15:58.55	16.45	20.72	-39.0	-40.2	17.0	0.00e+00	0	33	0	1152385024	44	4065
2026-01-16 05:16:02.59	15.73	21.11	-38.8	-40.0	17.0	0.00e+00	0	33	0	1174405120	44	3964
2026-01-16 05:16:06.63	14.98	21.51	-38.5	-39.7	17.1	0.00e+00	0	33	0	1197473792	43	4068
2026-01-16 05:16:10.67	14.21	21.90	-38.5	-39.7	17.1	0.00e+00	0	33	0	1220542464	43	4056
2026-01-16 05:16:14.70	13.43	22.29	-38.7	-39.8	17.0	0.00e+00	0	33	0	1242562560	43	4145
2026-01-16 05:16:18.74	12.63	22.68	-38.2	-39.3	17.2	0.00e+00	0	33	0	1265631232	43	3912
2026-01-16 05:16:22.78	11.80	23.07	-38.4	-39.6	17.1	0.00e+00	0	33	0	1288699904	43	4005
2026-01-16 05:16:26.82	10.95	23.47	-38.4	-39.5	17.1	0.00e+00	0	33	0	1311768576	43	3982
2026-01-16 05:16:30.86	10.08	23.86	-38.0	-39.1	17.2	0.00e+00	0	33	0	1333788672	42	4038
2026-01-16 05:16:34.90	9.19	24.25	-37.9	-39.0	17.2	0.00e+00	0	33	0	1356857344	42	3968
2026-01-16 05:16:38.94	8.28	24.63	-38.0	-39.1	17.2	0.00e+00	0	33	0	1378877440	42	4015
2026-01-16 05:16:42.97	7.34	25.02	-37.8	-38.9	17.3	0.00e+00	0	33	0	1401946112	42	3932
2026-01-16 05:16:47.01	6.38	25.40	-37.8	-38.9	17.2	0.00e+00	0	33	0	1425014784	42	3947
2026-01-16 05:16:51.05	5.40	25.78	-37.8	-38.8	17.3	0.00e+00	0	33	0	1447034880	42	3908
2026-01-16 05:16:55.09	4.39	26.15	-37.7	-38.8	17.3	0.00e+00	0	33	0	1470103552	41	4121
2026-01-16 05:16:59.12	3.36	26.52	-37.7	-38.7	17.3	0.00e+00	0	33	0	1493172224	41	4096
2026-01-16 05:17:03.16	2.30	26.88	-37.5	-38.6	17.3	0.00e+00	0	33	0	1515192320	41	4023
2026-01-16 05:17:07.20	1.22	27.24	-37.6	-38.6	17.3	0.00e+00	0	33	0	1538260992	41	4044
2026-01-16 05:17:11.24	0.11	27.59	-37.7	-38.8	17.3	0.00e+00	0	33	0	1561329664	41	4101
2026-01-16 05:17:15.28	358.98	27.93	-37.5	-38.5	17.3	0.00e+00	0	33	0	1583349760	41	4003
2026-01-16 05:17:19.31	357.83	28.26	-37.3	-38.3	17.4	0.00e+00	0	33	0	1606418432	41	3904
2026-01-16 05:17:23.35	356.65	28.59	-37.4	-38.5	17.3	0.00e+00	0	33	0	1629487104	41	3987
2026-01-16 05:17:27.39	355.45	28.90	-37.5	-38.5	17.4	0.00e+00	0	33	0	1651507200	41	3984
2026-01-16 05:17:31.43	354.22	29.20	-37.5	-38.6	17.3	0.00e+00	0	33	0	1674575872	41	4026
2026-01-16 05:17:35.47	352.98	29.49	-37.3	-38.4	17.4	0.00e+00	0	33	0	1697644544	41	3935
2026-01-16 05:17:39.50	351.71	29.77	-37.4	-38.4	17.4	0.00e+00	0	33	0	1719664640	41	3941
2026-01-16 05:17:43.54	350.41	30.04	-37.0	-38.0	17.4	0.00e+00	0	33	0	1742733312	40	3980
2026-01-16 05:17:47.58	349.10	30.29	-37.2	-38.3	17.4	0.00e+00	0	33	0	1765801984	40	4115
2026-01-16 05:17:51.62	347.76	30.52	-37.1	-38.1	17.4	0.00e+00	0	33	0	1787822080	40	4032
2026-01-16 05:17:55.65	346.41	30.74	-37.2	-38.3	17.4	0.00e+00	0	33	0	1810890752	40	4114
2026-01-16 05:17:59.69	345.04	30.94	-37.1	-38.1	17.5	0.00e+00	0	33	0	1833959424	40	4045
2026-01-16 05:18:03.73	343.65	31.13	-37.2	-38.2	17.4	0.00e+00	0	33	0	1855979520	40	4086
2026-01-16 05:18:07.77	342.25	31.30	-37.0	-38.1	17.4	0.00e+00	0	33	0	1879048192	40	4022
2026-01-16 05:18:11.81	340.83	31.44	-36.9	-37.9	17.5	0.00e+00	0	33	0	1902116864	40	3949
2026-01-16 05:18:15.84	339.41	31.57	-37.1	-38.1	17.4	0.00e+00	0	33	0	1924136960	40	4031
2026-01-16 05:18:19.88	337.97	31.68	-37.0	-38.0	17.4	0.00e+00	0	33	0	1947205632	40	3986
2026-01-16 05:18:23.92	336.52	31.77	-36.7	-37.7	17.5	0.00e+00	0	33	0	1969225728	40	3867
2026-01-16 05:18:27.96	335.06	31.84	-37.0	-38.1	17.4	0.00e+00	0	33	0	1992294400	39	4262
2026-01-16 05:18:31.99	333.60	31.88	-37.3	-38.3	17.3	0.00e+00	0	33	0	2015363072	39	4378
2026-01-16 05:18:36.03	332.14	31.91	-37.0	-38.1	17.4	0.00e+00	0	33	0	2038431744	39	4246
2026-01-16 05:18:40.07	330.67	31.92	-37.0	-38.0	17.4	0.00e+00	0	33	0	2060451840	39	4220
2026-01-16 05:18:44.11	329.20	31.90	-37.0	-38.1	17.4	0.00e+00	0	33	0	2083520512	39	4245
2026-01-16 05:18:48.14	327.74	31.86	-37.3	-38.3	17.3	0.00e+00	0	33	0	2106589184	39	4379
2026-01-16 05:18:52.18	326.28	31.80	-37.2	-38.2	17.4	0.00e+00	0	33	0	2128609280	39	4314
2026-01-16 05:18:56.22	324.83	31.72	-36.6	-37.6	17.5	0.00e+00	0	33	0	2151677952	39	4024
2026-01-16 05:19:00.26	323.38	31.62	-37.0	-38.0	17.4	0.00e+00	0	33	0	2173698048	39	4239
2026-01-16 05:19:04.30	321.95	31.50	-37.4	-38.4	17.3	0.00e+00	0	33	0	2196766720	40	4193
2026-01-16 05:19:08.33	320.53	31.36	-37.4	-38.5	17.4	0.00e+00	0	33	0	2219835392	40	4208
2026-01-16 05:19:12.37	319.12	31.21	-36.9	-37.9	17.5	0.00e+00	0	33	0	2242904064	40	3934
2026-01-16 05:19:16.41	317.72	31.03	-36.8	-37.9	17.5	0.00e+00	0	33	0	2264924160	40	3925
2026-01-16 05:19:20.45	316.34	30.83	-37.1	-38.2	17.4	0.00e+00	0	33	0	2287992832	40	4064
2026-01-16 05:19:24.49	314.98	30.62	-37.3	-38.4	17.4	0.00e+00	0	33	0	2311061504	40	4170
2026-01-16 05:19:28.52	313.63	30.39	-37.2	-38.3	17.4	0.00e+00	0	33	0	2333081600	40	4099
2026-01-16 05:19:32.56	312.31	30.15	-37.1	-38.1	17.5	0.00e+00	0	33	0	2356150272	40	4028
2026-01-16 05:19:36.60	311.01	29.89	-37.2	-38.3	17.4	0.00e+00	0	33	0	2378170368	40	4107
2026-01-16 05:19:40.64	309.72	29.62	-37.5	-38.6	17.3	0.00e+00	0	33	0	2401239040	40	4267
2026-01-16 05:19:44.68	308.46	29.33	-37.5	-38.6	17.4	0.00e+00	0	33	0	2424307712	40	4267
2026-01-16 05:19:48.71	307.23	29.03	-37.4	-38.5	17.4	0.00e+00	0	33	0	2446327808	40	4202
2026-01-16 05:19:52.75	306.01	28.73	-37.4	-38.5	17.4	0.00e+00	0	33	0	2469396480	40	4212
2026-01-16 05:19:56.79	304.82	28.40	-37.4	-38.4	17.4	0.00e+00	0	33	0	2492465152	40	4182
2026-01-16 05:20:00.83	303.65	28.07	-37.5	-38.6	17.3	0.00e+00	0	33	0	2514485248	40	4279
2026-01-16 05:20:04.87	302.51	27.74	-37.5	-38.6	17.3	0.00e+00	0	33	0	2537553920	40	4255
2026-01-16 05:20:08.90	301.39	27.39	-37.6	-38.7	17.3	0.00e+00	0	33	0	2560622592	40	4306
2026-01-16 05:20:12.94	300.30	27.04	-37.7	-38.7	17.3	0.00e+00	0	33	0	2582642688	40	4327
2026-01-16 05:20:16.98	299.23	26.67	-38.1	-39.2	17.2	0.00e+00	0	33	0	2605711360	41	4304
2026-01-16 05:20:21.02	298.19	26.31	-37.9	-39.0	17.3	0.00e+00	0	33	0	2628780032	41	4217
2026-01-16 05:20:25.06	297.16	25.94	-37.9	-38.9	17.2	0.00e+00	0	33	0	2650800128	41	4184
2026-01-16 05:20:29.10	296.17	25.56	-37.9	-39.0	17.3	0.00e+00	0	33	0	2673868800	41	4209
2026-01-16 05:20:33.13	295.20	25.18	-37.8	-38.9	17.3	0.00e+00	0	33	0	2696937472	41	4177
2026-01-16 05:20:37.17	294.25	24.79	-38.0	-39.1	17.3	0.00e+00	0	33	0	2718957568	41	4257
2026-01-16 05:20:41.21	293.32	24.41	-37.8	-38.9	17.3	0.00e+00	0	33	0	2742026240	41	4155
2026-01-16 05:20:45.25	292.42	24.02	-38.1	-39.2	17.2	0.00e+00	0	33	0	2765094912	41	4324
2026-01-16 05:20:49.29	291.54	23.63	-38.1	-39.2	17.2	0.00e+00	0	33	0	2787115008	41	4333
2026-01-16 05:20:53.33	290.68	23.24	-38.3	-39.4	17.1	0.00e+00	0	33	0	2810183680	41	4425
2026-01-16 05:20:57.37	289.84	22.84	-38.4	-39.5	17.2	0.00e+00	0	33	0	2833252352	41	4460
2026-01-16 05:21:01.41	289.02	22.45	-38.4	-39.5	17.2	0.00e+00	0	33	0	2855272448	42	4215
2026-01-16 05:21:05.45	288.23	22.06	-38.5	-39.6	17.2	0.00e+00	0	33	0	2878341120	42	4268
2026-01-16 05:21:09.49	287.45	21.66	-38.4	-39.5	17.1	0.00e+00	0	33	0	2901409792	42	4209
2026-01-16 05:21:13.53	286.69	21.27	-38.4	-39.5	17.2	0.00e+00	0	34	0	2923429888	42	4218
2026-01-16 05:21:17.57	285.96	20.88	-38.3	-39.4	17.2	0.00e+00	0	33	0	2946498560	42	4158
2026-01-16 05:21:21.60	285.24	20.49	-38.4	-39.5	17.1	0.00e+00	0	33	0	2969567232	42	4239
2026-01-16 05:21:25.64	284.54	20.10	-38.5	-39.6	17.1	0.00e+00	0	33	0	2991587328	42	4257
2026-01-16 05:21:29.68	283.86	19.71	-38.6	-39.8	17.1	0.00e+00	0	33	0	3014656000	42	4341
2026-01-16 05:21:33.72	283.19	19.32	-39.0	-40.1	17.0	0.00e+00	0	33	0	3037724672	43	4257
2026-01-16 05:21:37.76	282.54	18.94	-38.8	-39.9	17.0	0.00e+00	0	33	0	3059744768	43	4183
2026-01-16 05:21:41.80	281.91	18.56	-38.9	-40.1	17.1	0.00e+00	0	33	0	3082813440	43	4266
2026-01-16 05:21:45.83	281.30	18.18	-39.1	-40.3	17.0	0.00e+00	0	34	0	3105882112	43	4342
2026-01-16 05:21:49.87	280.70	17.80	-39.3	-40.5	16.9	0.00e+00	0	33	0	3127902208	43	4458
2026-01-16 05:21:53.91	280.11	17.43	-39.5	-40.7	16.9	0.00e+00	0	33	0	3150970880	44	4294
2026-01-16 05:21:57.95	279.54	17.06	-39.6	-40.8	16.9	0.00e+00	0	33	0	3174039552	44	4354
2026-01-16 05:22:01.99	278.98	16.69	-39.8	-41.0	16.8	0.00e+00	0	33	0	3196059648	44	4458
2026-01-16 05:22:06.02	278.44	16.32	-39.9	-41.1	16.8	0.00e+00	0	33	0	3219128320	44	4510
2026-01-16 05:22:10.06	277.91	15.96	-39.9	-41.1	16.7	0.00e+00	0	33	0	3242196992	45	4286
2026-01-16 05:22:14.10	277.39	15.60	-40.2	-41.5	16.6	0.00e+00	0	33	0	3264217088	45	4445
2026-01-16 05:22:18.14	276.89	15.24	-40.2	-41.4	16.7	0.00e+00	0	33	0	3287285760	45	4427
2026-01-16 05:22:22.18	276.40	14.89	-40.2	-41.4	16.6	0.00e+00	0	34	0	3310354432	45	4438
2026-01-16 05:22:26.22	275.92	14.53	-40.2	-41.4	16.7	0.00e+00	0	33	0	3332374528	45	4422
2026-01-16 05:22:30.25	275.45	14.19	-40.2	-41.5	16.6	0.00e+00	0	33	0	3355443200	45	4444
2026-01-16 05:22:34.29	274.99	13.84	-40.4	-41.6	16.6	0.00e+00	0	33	0	3378511872	45	4535
2026-01-16 05:22:38.33	274.54	13.50	-40.4	-41.7	16.6	0.00e+00	0	33	0	3400531968	46	4310
2026-01-16 05:22:42.37	274.11	13.16	-40.6	-41.9	16.5	0.00e+00	0	33	0	3423600640	46	4413
2026-01-16 05:22:46.41	273.68	12.82	-40.7	-42.0	16.4	0.00e+00	0	33	0	3446669312	46	4474
2026-01-16 05:22:50.45	273.26	12.49	-40.9	-42.2	16.4	0.00e+00	0	33	0	3468689408	46	4581
2026-01-16 05:22:54.49	272.86	12.16	-40.8	-42.1	16.4	0.00e+00	0	33	0	3491758080	46	4516
2026-01-16 05:22:58.52	272.46	11.83	-40.9	-42.2	16.4	0.00e+00	0	33	0	3514826752	47	4313
2026-01-16 05:23:02.56	272.07	11.51	-40.8	-42.2	16.4	0.00e+00	0	34	0	3536846848	47	4303
2026-01-16 05:23:06.60	271.69	11.19	-40.9	-42.2	16.4	0.00e+00	0	33	0	3559915520	47	4311
2026-01-16 05:23:10.64	271.32	10.87	-40.9	-42.3	16.3	0.00e+00	0	33	0	3582984192	47	4350
2026-01-16 05:23:14.68	270.96	10.55	-40.9	-42.2	16.3	0.00e+00	0	33	0	3605004288	47	4332
2026-01-16 05:23:18.71	270.60	10.24	-42.1	-43.6	15.8	0.00e+00	0	33	0	3628072960	49	4497
2026-01-16 05:23:22.75	270.25	9.93	-42.9	-44.5	15.2	0.00e+00	0	33	0	3651141632	50	4750
2026-01-16 05:23:26.79	269.91	9.62	-43.3	-45.0	14.9	0.00e+00	0	33	0	3673161728	51	4745
2026-01-16 05:23:30.82	269.58	9.32	-44.5	-46.8	13.6	0.00e+00	0	33	0	3696230400	54	4878
2026-01-16 05:23:34.86	269.26	9.02	-46.6	-50.2	10.7	8.17e-04	0	33	0	3718250496	58	5786
2026-01-16 05:23:38.90	268.94	8.72	-47.4	-52.2	8.4	2.49e-02	0	33	0	3741319168	60	6478
2026-01-16 05:23:42.94	268.62	8.42	-47.0	-51.5	9.1	1.65e-02	0	33	0	3764387840	60	5935
2026-01-16 05:23:46.98	268.32	8.13	-45.9	-48.9	11.8	1.80e-04	0	33	0	3787456512	58	4983
2026-01-16 05:23:51.02	268.02	7.84	-45.4	-48.1	12.7	4.50e-06	0	33	0	3809476608	57	4773
2026-01-16 05:23:55.06	267.73	7.55	-44.0	-46.0	14.3	0.00e+00	0	33	0	3832545280	54	4453
2026-01-16 05:23:59.10	267.44	7.26	-42.5	-44.1	15.4	0.00e+00	0	33	0	3855613952	51	4285
2026-01-16 05:24:03.14	267.16	6.98	-41.7	-43.2	15.9	0.00e+00	0	33	0	3877634048	49	4324
2026-01-16 05:24:07.18	266.88	6.70	-42.2	-43.8	15.6	0.00e+00	0	33	0	3900702720	49	4602
2026-01-16 05:24:11.22	266.61	6.42	-42.7	-44.3	15.4	0.00e+00	0	33	0	3922722816	50	4638
2026-01-16 05:24:15.25	266.35	6.15	-42.4	-44.0	15.6	0.00e+00	0	33	0	3945791488	50	4463
2026-01-16 05:24:19.29	266.09	5.87	-42.4	-44.0	15.6	0.00e+00	0	33	0	3968860160	50	4460
2026-01-16 05:24:23.33	265.83	5.60	-42.7	-44.4	15.4	0.00e+00	0	33	0	3991928832	50	4654
2026-01-16 05:24:27.37	265.58	5.33	-42.5	-44.1	15.5	0.00e+00	0	33	0	4013948928	50	4511
2026-01-16 05:24:31.40	265.34	5.06	-42.8	-44.5	15.2	0.00e+00	0	34	0	4037017600	51	4464
2026-01-16 05:24:35.44	265.10	4.80	-51.0	-64.3	3.8	8.46e-01	0	34	104	4043309056	67	17319
2026-01-16 05:24:39.48	264.86	4.54	-51.6	-64.8	3.8	8.48e-01	0	33	104	4043309056	68	17420
2026-01-16 05:24:43.51	264.63	4.28	-51.8	-65.1	3.8	8.47e-01	0	33	104	4043309056	68	17949
2026-01-16 05:24:47.55	264.40	4.02	-51.9	-65.2	3.8	8.45e-01	0	34	104	4043309056	68	18215
2026-01-16 05:24:51.61	264.18	3.76	-52.0	-65.2	3.8	8.47e-01	0	33	104	4043309056	69	17238
2026-01-16 05:24:55.65	263.96	3.50	-51.9	-65.1	3.8	8.46e-01	0	33	104	4043309056	69	17005
2026-01-16 05:24:59.68	263.74	3.25	-51.8	-65.1	3.8	8.46e-01	0	33	104	4043309056	69	16921
2026-01-16 05:25:03.72	263.53	3.00	-51.8	-65.1	3.8	8.45e-01	0	33	104	4043309056	69	16959
2026-01-16 05:25:07.75	263.33	2.75	-51.8	-65.0	3.8	8.45e-01	0	33	104	4043309056	69	16806
2026-01-16 05:25:11.79	263.12	2.51	-51.7	-65.0	3.8	8.45e-01	0	33	104	4043309056	69	16744
2026-01-16 05:25:15.83	262.92	2.26	-51.7	-65.0	3.8	8.45e-01	0	34	104	4043309056	69	16752
2026-01-16 05:25:19.87	262.73	2.02	-51.7	-65.0	3.8	8.46e-01	0	33	104	4043309056	69	16786

#Closed at: 2026-01-16 05:25:21
#Recorded file [4043 MB]: D:/lorett/data/31004_260116_081156.dat