passes_logs/2026/01/16/R3.2S_Murmansk_2ch/R3.2S_Murmansk_2ch__20260116_041239_SUOMI_NPP_rec.log

#Pass ID: 20260116_041239_SUOMI NPP
#Satellite: SUOMI NPP
#Configuration: NPP
#almurnet v.1.7.20251203
#Start time: 2026-01-16 04:12:40

#Version: 2.2.20231116
#Station: R3.2S_Murmansk_2ch
#Location: 33.079688 lon 68.888172 lat
#TLE: 1 37849U 11061A   26015.59739646  .00000050  00000+0  44779-4 0  9992
#TLE: 2 37849  98.7811 317.6408 0002446  62.6499 297.4925 14.19525346736798

#Time	Az	El	Level	Level2	SNR	BER	BlckErr	Temp	State	Recorded	gain1	gain2
2026-01-16 04:12:40.70	48.56	2.10	-49.6	-65.8	3.8	1.49e+00	0	31	0	0	65	23137
2026-01-16 04:12:44.74	48.32	2.33	-49.6	-65.8	3.8	1.49e+00	0	31	104	0	64	24575
2026-01-16 04:12:48.78	48.07	2.56	-49.7	-65.8	3.8	1.49e+00	0	31	104	0	64	24484
2026-01-16 04:12:52.82	47.81	2.80	-49.6	-65.8	3.8	1.49e+00	0	31	104	0	64	24607
2026-01-16 04:12:56.86	47.55	3.04	-49.6	-65.8	3.8	1.49e+00	0	31	104	0	64	24508
2026-01-16 04:13:00.90	47.29	3.28	-49.6	-65.8	3.8	1.49e+00	0	31	104	0	64	24568
2026-01-16 04:13:04.93	47.02	3.52	-49.7	-65.8	3.8	1.49e+00	0	32	104	0	64	24594
2026-01-16 04:13:08.97	46.75	3.76	-49.7	-65.7	3.8	1.49e+00	0	32	104	0	64	24387
2026-01-16 04:13:13.00	46.48	4.00	-49.7	-65.6	3.8	1.49e+00	0	32	104	0	64	23987
2026-01-16 04:13:17.04	46.19	4.25	-49.6	-64.4	3.8	1.49e+00	0	32	104	0	64	20806
2026-01-16 04:13:21.08	45.91	4.49	-49.5	-62.0	4.3	1.38e+00	0	32	0	0	64	15942
2026-01-16 04:13:25.11	45.62	4.74	-49.1	-58.6	5.9	2.91e-01	0	32	0	6291456	64	10774
2026-01-16 04:13:29.15	45.32	4.99	-48.9	-57.3	6.9	1.24e-01	0	32	0	14680064	64	9237
2026-01-16 04:13:33.19	45.02	5.24	-49.3	-61.0	4.5	8.88e-01	5	32	0	20971520	64	14100
2026-01-16 04:13:37.22	44.71	5.50	-47.5	-52.2	11.5	9.99e-05	0	32	0	28311552	61	6096
2026-01-16 04:13:41.26	44.40	5.75	-47.0	-51.0	12.8	0.00e+00	0	32	0	36700160	59	5968
2026-01-16 04:13:45.30	44.08	6.01	-46.8	-50.6	13.1	0.00e+00	0	32	0	44040192	59	5717
2026-01-16 04:13:49.33	43.75	6.26	-46.7	-50.5	13.3	0.00e+00	0	32	0	51380224	59	5596
2026-01-16 04:13:53.37	43.42	6.52	-46.6	-50.2	13.4	0.00e+00	0	32	0	58720256	59	5451
2026-01-16 04:13:57.41	43.08	6.79	-46.6	-50.2	13.5	0.00e+00	0	32	0	66060288	59	5452
2026-01-16 04:14:01.45	42.74	7.05	-46.8	-50.5	13.4	0.00e+00	0	32	0	74448896	59	5609
2026-01-16 04:14:05.48	42.39	7.31	-47.0	-50.8	13.2	0.00e+00	0	32	0	81788928	59	5830
2026-01-16 04:14:09.52	42.03	7.58	-47.1	-50.9	13.1	7.00e-07	0	32	0	89128960	59	5868
2026-01-16 04:14:13.56	41.67	7.85	-47.1	-50.9	13.2	0.00e+00	0	33	0	96468992	59	5865
2026-01-16 04:14:17.59	41.30	8.12	-46.8	-50.4	13.5	0.00e+00	0	32	0	103809024	59	5568
2026-01-16 04:14:21.63	40.92	8.39	-47.1	-51.1	12.8	7.00e-07	0	33	0	112197632	60	5665
2026-01-16 04:14:25.67	40.53	8.66	-46.9	-50.6	13.3	0.00e+00	0	33	0	119537664	59	5703
2026-01-16 04:14:29.71	40.14	8.94	-46.6	-50.2	13.6	0.00e+00	0	33	0	126877696	59	5447
2026-01-16 04:14:33.74	39.74	9.21	-46.5	-50.1	13.8	0.00e+00	0	33	0	134217728	59	5352
2026-01-16 04:14:37.78	39.33	9.49	-46.3	-49.7	14.0	0.00e+00	0	33	0	142606336	58	5403
2026-01-16 04:14:41.82	38.91	9.77	-46.2	-49.4	14.2	0.00e+00	0	33	0	149946368	58	5258
2026-01-16 04:14:45.85	38.49	10.05	-46.2	-49.4	14.2	0.00e+00	0	33	0	157286400	58	5233
2026-01-16 04:14:49.89	38.05	10.33	-46.0	-49.0	14.5	0.00e+00	0	32	0	164626432	58	4997
2026-01-16 04:14:53.93	37.61	10.62	-46.2	-49.3	14.3	0.00e+00	0	33	0	171966464	58	5181
2026-01-16 04:14:57.97	37.16	10.91	-46.1	-49.1	14.4	0.00e+00	0	33	0	180355072	58	5053
2026-01-16 04:15:02.01	36.70	11.19	-46.3	-49.4	14.3	0.00e+00	0	32	0	187695104	58	5248
2026-01-16 04:15:06.04	36.23	11.48	-46.2	-49.2	14.4	0.00e+00	0	33	0	195035136	58	5156
2026-01-16 04:15:10.08	35.75	11.77	-46.4	-49.5	14.2	0.00e+00	0	33	0	202375168	58	5322
2026-01-16 04:15:14.11	35.26	12.07	-46.6	-49.9	13.9	0.00e+00	0	33	0	210763776	58	5551
2026-01-16 04:15:18.15	34.76	12.36	-46.2	-49.3	14.4	0.00e+00	0	33	0	218103808	58	5160
2026-01-16 04:15:22.18	34.25	12.65	-45.9	-48.7	14.6	0.00e+00	0	33	0	225443840	58	4847
2026-01-16 04:15:26.22	33.73	12.95	-45.6	-48.2	14.9	0.00e+00	0	33	0	232783872	57	4855
2026-01-16 04:15:30.26	33.19	13.25	-45.5	-48.1	15.0	0.00e+00	0	33	0	240123904	57	4764
2026-01-16 04:15:34.30	32.65	13.55	-45.3	-47.9	15.1	0.00e+00	0	33	0	248512512	57	4669
2026-01-16 04:15:38.33	32.10	13.85	-45.5	-48.1	15.0	0.00e+00	0	33	0	255852544	57	4778
2026-01-16 04:15:42.37	31.53	14.15	-45.5	-48.1	15.0	0.00e+00	0	33	0	263192576	57	4799
2026-01-16 04:15:46.40	30.96	14.45	-45.4	-47.9	15.1	0.00e+00	0	33	0	270532608	56	4940
2026-01-16 04:15:50.44	30.37	14.75	-45.3	-47.9	15.1	0.00e+00	0	33	0	277872640	56	4940
2026-01-16 04:15:54.47	29.76	15.05	-45.2	-47.7	15.1	0.00e+00	0	33	0	286261248	56	4825
2026-01-16 04:15:58.51	29.15	15.35	-45.6	-48.5	14.7	0.00e+00	0	33	0	293601280	56	5318
2026-01-16 04:16:02.55	28.52	15.66	-45.6	-48.4	14.8	0.00e+00	0	33	0	300941312	56	5251
2026-01-16 04:16:06.59	27.88	15.96	-46.0	-49.1	14.4	0.00e+00	0	33	0	308281344	57	5368
2026-01-16 04:16:10.62	27.23	16.26	-45.8	-48.6	14.7	0.00e+00	0	33	0	316669952	57	5076
2026-01-16 04:16:14.66	26.56	16.57	-46.0	-49.0	14.5	0.00e+00	0	33	0	324009984	57	5312
2026-01-16 04:16:18.70	25.88	16.87	-46.0	-49.0	14.5	0.00e+00	0	33	0	331350016	57	5312
2026-01-16 04:16:22.74	25.18	17.17	-45.9	-48.9	14.5	0.00e+00	0	33	0	338690048	57	5250
2026-01-16 04:16:26.77	24.47	17.47	-45.4	-48.1	14.9	0.00e+00	0	33	0	346030080	57	4772
2026-01-16 04:16:30.81	23.75	17.78	-45.7	-48.6	14.7	0.00e+00	0	33	0	354418688	57	5075
2026-01-16 04:16:34.85	23.01	18.08	-45.6	-48.4	14.8	0.00e+00	0	33	0	361758720	57	4959
2026-01-16 04:16:38.89	22.25	18.37	-45.5	-48.2	15.0	0.00e+00	0	33	0	369098752	57	4835
2026-01-16 04:16:42.92	21.49	18.67	-45.7	-48.4	14.9	0.00e+00	0	33	0	376438784	57	4947
2026-01-16 04:16:46.96	20.70	18.96	-45.8	-48.6	14.7	0.00e+00	0	33	0	384827392	57	5092
2026-01-16 04:16:51.00	19.90	19.26	-45.5	-48.1	15.1	0.00e+00	0	33	0	392167424	57	4780
2026-01-16 04:16:55.03	19.09	19.55	-45.2	-47.7	15.2	0.00e+00	0	33	0	399507456	56	4842
2026-01-16 04:16:59.07	18.25	19.83	-44.9	-47.5	15.3	0.00e+00	0	33	0	406847488	56	4732
2026-01-16 04:17:03.11	17.41	20.12	-44.1	-46.3	15.7	0.00e+00	0	33	0	414187520	54	4638
2026-01-16 04:17:07.14	16.55	20.40	-44.2	-46.5	15.6	0.00e+00	0	33	0	422576128	54	4727
2026-01-16 04:17:11.18	15.67	20.67	-44.1	-46.3	15.7	0.00e+00	0	33	0	429916160	54	4634
2026-01-16 04:17:15.22	14.77	20.94	-44.2	-46.4	15.7	0.00e+00	0	33	0	437256192	54	4699
2026-01-16 04:17:19.25	13.86	21.21	-44.1	-46.4	15.7	0.00e+00	0	33	0	444596224	54	4667
2026-01-16 04:17:23.29	12.93	21.47	-44.0	-46.2	15.8	0.00e+00	0	33	0	452984832	54	4554
2026-01-16 04:17:27.33	11.99	21.73	-43.9	-46.1	15.8	0.00e+00	0	33	0	460324864	54	4527
2026-01-16 04:17:31.36	11.03	21.98	-43.5	-45.4	16.1	0.00e+00	0	33	0	467664896	53	4439
2026-01-16 04:17:35.40	10.06	22.22	-43.7	-45.7	16.1	0.00e+00	0	33	0	475004928	53	4547
2026-01-16 04:17:39.44	9.07	22.46	-43.7	-45.6	16.1	0.00e+00	0	33	0	482344960	53	4529
2026-01-16 04:17:43.48	8.06	22.69	-43.4	-45.2	16.2	0.00e+00	0	33	0	490733568	53	4335
2026-01-16 04:17:47.52	7.04	22.92	-43.6	-45.5	16.1	0.00e+00	0	33	0	498073600	53	4492
2026-01-16 04:17:51.55	6.01	23.13	-43.9	-45.9	16.0	0.00e+00	0	33	0	505413632	53	4704
2026-01-16 04:17:55.59	4.96	23.34	-43.8	-45.8	16.1	0.00e+00	0	33	0	512753664	53	4612
2026-01-16 04:17:59.63	3.90	23.53	-44.0	-45.9	16.0	0.00e+00	0	33	0	521142272	53	4700
2026-01-16 04:18:03.67	2.82	23.72	-43.5	-45.4	16.2	0.00e+00	0	33	0	528482304	53	4395
2026-01-16 04:18:07.70	1.74	23.90	-43.6	-45.4	16.2	0.00e+00	0	33	0	535822336	53	4430
2026-01-16 04:18:11.74	0.64	24.07	-43.2	-45.0	16.3	0.00e+00	0	33	0	543162368	52	4453
2026-01-16 04:18:15.78	359.53	24.22	-44.0	-45.9	16.0	0.00e+00	0	33	0	550502400	53	4705
2026-01-16 04:18:19.81	358.40	24.37	-45.3	-47.8	15.2	0.00e+00	0	33	0	558891008	55	5185
2026-01-16 04:18:23.85	357.27	24.51	-45.4	-47.8	15.3	0.00e+00	0	33	0	566231040	56	4899
2026-01-16 04:18:27.88	356.13	24.63	-45.1	-47.4	15.5	0.00e+00	0	33	0	573571072	56	4678
2026-01-16 04:18:31.92	354.98	24.74	-44.9	-47.4	15.4	0.00e+00	0	33	0	580911104	55	4942
2026-01-16 04:18:35.96	353.82	24.84	-44.8	-47.2	15.4	0.00e+00	0	33	0	589299712	55	4867
2026-01-16 04:18:40.00	352.65	24.93	-45.9	-48.7	14.8	0.00e+00	0	33	0	596639744	57	5137
2026-01-16 04:18:44.04	351.48	25.00	-45.4	-48.0	15.1	0.00e+00	0	33	0	603979776	56	5004
2026-01-16 04:18:48.07	350.31	25.06	-45.5	-48.2	15.1	0.00e+00	0	33	0	611319808	56	5121
2026-01-16 04:18:52.11	349.13	25.11	-45.6	-48.3	15.0	0.00e+00	0	33	0	618659840	56	5203
2026-01-16 04:18:56.15	347.94	25.14	-45.9	-48.7	14.8	0.00e+00	0	33	0	627048448	57	5137
2026-01-16 04:19:00.18	346.76	25.16	-45.0	-47.3	15.5	0.00e+00	0	33	0	634388480	56	4642
2026-01-16 04:19:04.22	345.57	25.17	-45.3	-47.9	15.2	0.00e+00	0	33	0	641728512	56	4946
2026-01-16 04:19:08.26	344.38	25.16	-45.5	-48.2	15.0	0.00e+00	0	33	0	649068544	56	5133
2026-01-16 04:19:12.30	343.20	25.14	-45.4	-48.1	15.1	0.00e+00	0	33	0	656408576	56	5045
2026-01-16 04:19:16.33	342.01	25.11	-44.0	-46.0	15.9	0.00e+00	0	33	0	664797184	54	4474
2026-01-16 04:19:20.37	340.83	25.07	-44.4	-46.5	15.8	0.00e+00	0	33	0	672137216	54	4750
2026-01-16 04:19:24.41	339.65	25.01	-44.3	-46.4	15.9	0.00e+00	0	33	0	679477248	54	4664
2026-01-16 04:19:28.44	338.48	24.93	-43.5	-45.3	16.3	0.00e+00	0	33	0	686817280	53	4372
2026-01-16 04:19:32.48	337.32	24.85	-43.8	-45.6	16.2	0.00e+00	0	33	0	695205888	53	4528
2026-01-16 04:19:36.52	336.16	24.75	-43.2	-44.9	16.5	0.00e+00	0	33	0	702545920	52	4402
2026-01-16 04:19:40.56	335.00	24.64	-43.8	-45.6	16.2	0.00e+00	0	33	0	709885952	52	4807
2026-01-16 04:19:44.59	333.86	24.52	-43.9	-45.7	16.2	0.00e+00	0	33	0	717225984	53	4577
2026-01-16 04:19:48.63	332.73	24.39	-44.0	-45.9	16.1	0.00e+00	0	33	0	724566016	53	4660
2026-01-16 04:19:52.67	331.60	24.24	-44.8	-46.9	15.7	0.00e+00	0	33	0	732954624	54	4946
2026-01-16 04:19:56.71	330.49	24.08	-44.0	-45.8	16.2	0.00e+00	0	33	0	740294656	54	4391
2026-01-16 04:20:00.74	329.39	23.92	-44.3	-46.3	15.9	0.00e+00	0	33	0	747634688	54	4637
2026-01-16 04:20:04.78	328.30	23.74	-45.0	-47.2	15.5	0.00e+00	0	33	0	754974720	55	4869
2026-01-16 04:20:08.82	327.22	23.55	-45.6	-48.2	15.2	0.00e+00	0	33	0	763363328	56	5104
2026-01-16 04:20:12.86	326.16	23.36	-45.1	-47.6	15.4	0.00e+00	0	33	0	770703360	56	4771
2026-01-16 04:20:16.89	325.11	23.15	-45.1	-47.6	15.4	0.00e+00	0	33	0	778043392	56	4774
2026-01-16 04:20:20.93	324.07	22.94	-45.7	-48.5	14.9	0.00e+00	0	33	0	785383424	57	5030
2026-01-16 04:20:24.97	323.05	22.72	-45.4	-48.0	15.2	0.00e+00	0	33	0	792723456	57	4745
2026-01-16 04:20:29.00	322.05	22.49	-45.5	-48.1	15.2	0.00e+00	0	33	0	801112064	57	4780
2026-01-16 04:20:33.04	321.05	22.25	-45.8	-48.6	14.9	0.00e+00	0	33	0	808452096	57	5051
2026-01-16 04:20:37.08	320.08	22.01	-45.3	-48.0	15.2	0.00e+00	0	33	0	815792128	56	4997
2026-01-16 04:20:41.11	319.12	21.76	-46.3	-49.6	14.2	0.00e+00	0	33	0	823132160	57	5712
2026-01-16 04:20:45.15	318.17	21.50	-45.7	-48.6	14.9	0.00e+00	0	33	0	831520768	58	4802
2026-01-16 04:20:49.19	317.24	21.24	-44.9	-47.3	15.6	0.00e+00	0	33	0	838860800	56	4623
2026-01-16 04:20:53.23	316.33	20.97	-45.1	-47.6	15.3	0.00e+00	0	33	0	846200832	56	4814
2026-01-16 04:20:57.26	315.43	20.70	-44.2	-46.5	15.8	0.00e+00	0	33	0	853540864	55	4444
2026-01-16 04:21:01.30	314.55	20.43	-43.6	-45.6	16.1	0.00e+00	0	33	0	860880896	53	4531
2026-01-16 04:21:05.34	313.68	20.15	-44.0	-46.2	15.8	0.00e+00	0	33	0	869269504	53	4849
2026-01-16 04:21:09.38	312.83	19.86	-44.8	-47.2	15.4	0.00e+00	0	33	0	876609536	54	5148
2026-01-16 04:21:13.42	312.00	19.58	-44.8	-47.3	15.3	0.00e+00	0	33	0	883949568	55	4901
2026-01-16 04:21:17.45	311.18	19.29	-44.5	-46.9	15.5	0.00e+00	0	33	0	891289600	55	4670
2026-01-16 04:21:21.49	310.38	18.99	-44.2	-46.4	15.8	0.00e+00	0	33	0	898629632	55	4432
2026-01-16 04:21:25.53	309.59	18.70	-44.9	-47.4	15.3	0.00e+00	0	33	0	907018240	55	4944
2026-01-16 04:21:29.56	308.82	18.40	-44.3	-46.5	15.8	0.00e+00	0	33	0	914358272	55	4489
2026-01-16 04:21:33.60	308.07	18.10	-44.6	-47.0	15.5	0.00e+00	0	33	0	921698304	54	4986
2026-01-16 04:21:37.64	307.32	17.80	-44.3	-46.5	15.8	0.00e+00	0	33	0	929038336	54	4753
2026-01-16 04:21:41.67	306.60	17.50	-43.9	-46.0	16.0	0.00e+00	0	33	0	937426944	54	4450
2026-01-16 04:21:45.71	305.89	17.20	-43.9	-45.9	16.1	0.00e+00	0	33	0	944766976	53	4659
2026-01-16 04:21:49.75	305.19	16.90	-44.4	-46.6	15.8	0.00e+00	0	33	0	952107008	54	4778
2026-01-16 04:21:53.79	304.50	16.60	-43.6	-45.4	16.3	0.00e+00	0	33	0	959447040	53	4423
2026-01-16 04:21:57.82	303.84	16.29	-43.6	-45.4	16.3	0.00e+00	0	33	0	966787072	53	4439
2026-01-16 04:22:01.86	303.18	15.99	-44.0	-46.0	16.0	0.00e+00	0	33	0	975175680	53	4708
2026-01-16 04:22:05.89	302.54	15.69	-44.3	-46.3	15.9	0.00e+00	0	33	0	982515712	53	4903
2026-01-16 04:22:09.93	301.91	15.38	-43.6	-45.4	16.3	0.00e+00	0	33	0	989855744	53	4417
2026-01-16 04:22:13.97	301.29	15.08	-44.3	-46.3	15.9	0.00e+00	0	33	0	997195776	53	4918
2026-01-16 04:22:18.01	300.69	14.78	-45.0	-47.4	15.5	0.00e+00	0	33	0	1005584384	55	4927
2026-01-16 04:22:22.04	300.10	14.47	-44.4	-46.5	15.8	0.00e+00	0	33	0	1012924416	55	4486
2026-01-16 04:22:26.08	299.52	14.17	-44.2	-46.2	16.0	0.00e+00	0	33	0	1020264448	55	4339
2026-01-16 04:22:30.12	298.95	13.87	-44.2	-46.2	16.0	0.00e+00	0	33	0	1027604480	54	4551
2026-01-16 04:22:34.16	298.39	13.57	-45.1	-47.4	15.5	0.00e+00	0	33	0	1034944512	55	4975
2026-01-16 04:22:38.19	297.85	13.27	-45.8	-48.3	15.1	0.00e+00	0	33	0	1043333120	57	4917
2026-01-16 04:22:42.23	297.31	12.98	-44.9	-47.1	15.7	0.00e+00	0	33	0	1050673152	56	4530
2026-01-16 04:22:46.27	296.79	12.68	-44.6	-46.7	15.8	0.00e+00	0	33	0	1058013184	55	4582
2026-01-16 04:22:50.31	296.28	12.38	-44.8	-47.0	15.7	0.00e+00	0	33	0	1065353216	55	4708
2026-01-16 04:22:54.35	295.78	12.09	-44.7	-46.9	15.7	0.00e+00	0	33	0	1072693248	55	4670
2026-01-16 04:22:58.38	295.28	11.80	-45.2	-47.5	15.3	0.00e+00	0	33	0	1081081856	55	5041
2026-01-16 04:23:02.42	294.80	11.51	-45.9	-48.5	14.9	0.00e+00	0	33	0	1088421888	57	5031
2026-01-16 04:23:06.46	294.33	11.22	-45.6	-48.1	15.1	0.00e+00	0	33	0	1095761920	57	4788
2026-01-16 04:23:10.50	293.87	10.93	-46.1	-49.0	14.6	0.00e+00	0	33	0	1103101952	57	5292
2026-01-16 04:23:14.53	293.41	10.64	-46.5	-49.5	14.4	0.00e+00	0	33	0	1111490560	58	5299
2026-01-16 04:23:18.57	292.97	10.36	-45.8	-48.4	15.0	0.00e+00	0	33	0	1118830592	58	4694
2026-01-16 04:23:22.61	292.53	10.07	-45.4	-47.8	15.3	0.00e+00	0	33	0	1126170624	57	4625
2026-01-16 04:23:26.64	292.11	9.79	-45.7	-48.2	15.1	0.00e+00	0	33	0	1133510656	57	4863
2026-01-16 04:23:30.68	291.69	9.51	-46.2	-49.0	14.7	0.00e+00	0	33	0	1140850688	57	5314
2026-01-16 04:23:34.72	291.28	9.23	-46.0	-48.7	14.9	0.00e+00	0	33	0	1149239296	57	5122
2026-01-16 04:23:38.75	290.88	8.96	-45.9	-48.5	14.9	0.00e+00	0	33	0	1156579328	57	5016
2026-01-16 04:23:42.79	290.48	8.68	-45.8	-48.4	15.0	0.00e+00	0	33	0	1163919360	57	4929
2026-01-16 04:23:46.83	290.09	8.41	-46.2	-48.9	14.7	0.00e+00	0	33	0	1171259392	57	5260
2026-01-16 04:23:50.87	289.71	8.14	-46.5	-49.5	14.3	0.00e+00	0	33	0	1179648000	58	5311
2026-01-16 04:23:54.90	289.34	7.87	-47.0	-50.4	13.8	0.00e+00	0	33	0	1186988032	59	5545
2026-01-16 04:23:58.94	288.98	7.60	-47.1	-50.7	13.3	0.00e+00	0	33	0	1194328064	60	5422
2026-01-16 04:24:02.98	288.62	7.33	-46.8	-50.1	13.7	0.00e+00	0	33	0	1201668096	60	5065
2026-01-16 04:24:07.02	288.26	7.07	-47.2	-51.0	13.2	0.00e+00	0	33	0	1209008128	60	5654
2026-01-16 04:24:11.05	287.92	6.80	-47.0	-50.4	13.4	0.00e+00	0	33	0	1217396736	60	5277
2026-01-16 04:24:15.09	287.58	6.54	-47.1	-50.7	13.2	0.00e+00	0	33	0	1224736768	60	5418
2026-01-16 04:24:19.13	287.25	6.28	-47.3	-51.2	12.8	7.00e-07	0	33	0	1232076800	60	5730
2026-01-16 04:24:23.17	286.92	6.02	-47.2	-51.1	12.8	0.00e+00	0	33	0	1239416832	60	5696
2026-01-16 04:24:27.20	286.60	5.77	-47.1	-50.8	13.1	3.00e-06	0	33	0	1247805440	60	5478
2026-01-16 04:24:31.24	286.29	5.51	-46.8	-50.3	13.4	0.00e+00	0	33	0	1255145472	60	5169
2026-01-16 04:24:35.28	285.98	5.26	-46.4	-49.4	14.2	0.00e+00	0	33	0	1262485504	59	4972
2026-01-16 04:24:39.31	285.67	5.01	-46.5	-49.7	14.0	0.00e+00	0	33	0	1269825536	59	5131
2026-01-16 04:24:43.61	285.36	4.74	-51.3	-67.4	3.8	1.49e+00	0	33	104	1270874112	67	24970
2026-01-16 04:24:47.65	285.06	4.49	-51.7	-67.9	3.8	1.49e+00	0	33	104	1270874112	68	24935
2026-01-16 04:24:51.69	284.78	4.25	-51.9	-68.1	3.8	1.49e+00	0	33	104	1270874112	68	25424
2026-01-16 04:24:55.73	284.49	4.00	-51.9	-68.2	3.8	1.49e+00	0	33	104	1270874112	69	24168
2026-01-16 04:24:59.76	284.22	3.76	-52.0	-68.2	3.8	1.49e+00	0	33	104	1270874112	69	24320
2026-01-16 04:25:03.80	283.94	3.52	-52.0	-68.2	3.8	1.49e+00	0	33	104	1270874112	69	24341
2026-01-16 04:25:07.83	283.67	3.28	-51.9	-68.1	3.8	1.49e+00	0	33	104	1270874112	69	24129
2026-01-16 04:25:11.87	283.41	3.04	-51.8	-68.1	3.8	1.49e+00	0	34	104	1270874112	69	23886
2026-01-16 04:25:15.90	283.15	2.80	-51.8	-68.0	3.8	1.49e+00	0	33	104	1270874112	69	23704
2026-01-16 04:25:19.94	282.90	2.56	-51.7	-68.0	3.8	1.49e+00	0	33	104	1270874112	69	23667
2026-01-16 04:25:23.98	282.65	2.33	-51.7	-68.0	3.8	1.49e+00	0	33	104	1270874112	69	23586
2026-01-16 04:25:28.02	282.40	2.10	-51.7	-67.9	3.8	1.49e+00	0	33	104	1270874112	69	23564

#Closed at: 2026-01-16 04:25:32
#Recorded file [1270 MB]: D:/lorett/data/31004_260116_071240.dat