passes_logs/2026/01/16/R3.2S_Murmansk_2ch/R3.2S_Murmansk_2ch__20260116_023256_SUOMI_NPP_rec.log

#Pass ID: 20260116_023256_SUOMI NPP
#Satellite: SUOMI NPP
#Configuration: NPP
#almurnet v.1.7.20251203
#Start time: 2026-01-16 02:32:56

#Version: 2.2.20231116
#Station: R3.2S_Murmansk_2ch
#Location: 33.079688 lon 68.888172 lat
#TLE: 1 37849U 11061A   26015.59739646  .00000050  00000+0  44779-4 0  9992
#TLE: 2 37849  98.7811 317.6408 0002446  62.6499 297.4925 14.19525346736798

#Time	Az	El	Level	Level2	SNR	BER	BlckErr	Temp	State	Recorded	gain1	gain2
2026-01-16 02:32:56.08	33.78	1.99	-49.5	-65.7	3.8	1.49e+00	0	31	0	0	65	22936
2026-01-16 02:33:00.11	33.63	2.23	-49.6	-65.7	3.8	1.49e+00	0	31	104	0	64	24321
2026-01-16 02:33:04.14	33.48	2.48	-49.6	-65.7	3.8	1.49e+00	0	31	104	0	64	24272
2026-01-16 02:33:08.18	33.32	2.74	-49.6	-65.7	3.8	1.49e+00	0	31	104	0	64	24305
2026-01-16 02:33:12.22	33.16	2.99	-49.6	-65.6	3.8	1.49e+00	0	31	104	0	64	24095
2026-01-16 02:33:16.26	32.99	3.25	-49.6	-65.4	3.8	1.49e+00	0	31	104	0	64	23391
2026-01-16 02:33:20.30	32.82	3.51	-49.5	-65.0	3.8	1.49e+00	0	31	104	0	64	22320
2026-01-16 02:33:24.33	32.65	3.77	-49.5	-64.8	3.8	1.49e+00	0	32	104	0	64	21881
2026-01-16 02:33:28.37	32.48	4.03	-49.6	-65.0	3.8	1.49e+00	0	32	104	0	64	22440
2026-01-16 02:33:32.41	32.30	4.30	-49.3	-60.1	5.0	7.11e-01	0	32	0	2097152	64	12688
2026-01-16 02:33:36.44	32.12	4.57	-48.6	-55.9	8.1	4.82e-02	0	32	0	9437184	63	8300
2026-01-16 02:33:40.48	31.94	4.84	-48.2	-54.4	9.5	5.27e-03	0	32	0	16777216	62	7394
2026-01-16 02:33:44.52	31.75	5.11	-46.8	-50.7	12.6	2.45e-03	0	32	0	25165824	60	5422
2026-01-16 02:33:48.55	31.55	5.39	-47.9	-53.0	10.8	1.59e-01	0	32	0	32505856	62	6309
2026-01-16 02:33:52.59	31.36	5.66	-46.9	-50.7	13.0	0.00e+00	0	32	0	39845888	59	5745
2026-01-16 02:33:56.63	31.16	5.94	-47.0	-50.8	12.9	0.00e+00	0	32	0	47185920	59	5849
2026-01-16 02:34:00.67	30.95	6.23	-46.7	-50.3	13.4	7.00e-07	0	32	0	54525952	59	5492
2026-01-16 02:34:04.70	30.74	6.51	-46.7	-50.2	13.4	0.00e+00	0	32	0	62914560	59	5443
2026-01-16 02:34:08.74	30.53	6.80	-46.5	-50.0	13.6	0.00e+00	0	32	0	70254592	59	5309
2026-01-16 02:34:12.78	30.31	7.10	-46.4	-49.7	13.8	0.00e+00	0	32	0	77594624	59	5143
2026-01-16 02:34:16.82	30.08	7.39	-46.2	-49.4	14.0	0.00e+00	0	32	0	84934656	59	4972
2026-01-16 02:34:20.85	29.86	7.69	-46.5	-49.9	13.7	0.00e+00	0	32	0	93323264	59	5252
2026-01-16 02:34:24.89	29.62	7.99	-46.1	-49.1	14.2	0.00e+00	0	32	0	100663296	58	5093
2026-01-16 02:34:28.93	29.38	8.29	-46.1	-49.2	14.2	0.00e+00	0	32	0	108003328	58	5138
2026-01-16 02:34:32.96	29.14	8.60	-46.1	-49.2	14.2	0.00e+00	0	32	0	115343360	58	5159
2026-01-16 02:34:37.00	28.89	8.91	-46.0	-49.2	14.3	0.00e+00	0	32	0	122683392	58	5110
2026-01-16 02:34:41.03	28.64	9.22	-46.1	-49.2	14.2	0.00e+00	0	32	0	131072000	58	5128
2026-01-16 02:34:45.07	28.38	9.54	-46.1	-49.2	14.2	0.00e+00	0	32	0	138412032	58	5123
2026-01-16 02:34:49.11	28.11	9.86	-45.7	-48.7	14.6	0.00e+00	0	32	0	145752064	58	4817
2026-01-16 02:34:53.15	27.83	10.18	-45.8	-48.7	14.6	0.00e+00	0	32	0	153092096	57	5103
2026-01-16 02:34:57.18	27.55	10.51	-45.6	-48.4	14.7	0.00e+00	0	32	0	161480704	57	4929
2026-01-16 02:35:01.22	27.27	10.84	-45.6	-48.4	14.7	0.00e+00	0	33	0	168820736	57	4939
2026-01-16 02:35:05.26	26.97	11.18	-45.6	-48.3	14.8	0.00e+00	0	32	0	176160768	57	4885
2026-01-16 02:35:09.29	26.67	11.52	-45.6	-48.3	14.8	0.00e+00	0	33	0	183500800	57	4880
2026-01-16 02:35:13.33	26.36	11.86	-45.6	-48.3	14.8	0.00e+00	0	33	0	190840832	57	4894
2026-01-16 02:35:17.37	26.05	12.21	-45.5	-48.1	14.9	0.00e+00	0	33	0	199229440	57	4800
2026-01-16 02:35:21.40	25.72	12.56	-45.6	-48.3	14.8	0.00e+00	0	33	0	206569472	57	4887
2026-01-16 02:35:25.44	25.39	12.91	-45.4	-48.0	14.9	0.00e+00	0	33	0	213909504	57	4747
2026-01-16 02:35:29.48	25.05	13.27	-45.5	-48.1	14.9	0.00e+00	0	33	0	221249536	57	4798
2026-01-16 02:35:33.51	24.70	13.63	-45.6	-48.4	14.7	0.00e+00	0	33	0	229638144	57	4942
2026-01-16 02:35:37.55	24.34	14.00	-45.6	-48.3	14.8	0.00e+00	0	33	0	236978176	57	4904
2026-01-16 02:35:41.59	23.98	14.38	-45.7	-48.4	14.7	0.00e+00	0	33	0	244318208	57	4983
2026-01-16 02:35:45.63	23.60	14.75	-45.1	-47.6	15.2	0.00e+00	0	33	0	251658240	56	4769
2026-01-16 02:35:49.66	23.21	15.13	-45.2	-47.6	15.2	0.00e+00	0	33	0	258998272	56	4814
2026-01-16 02:35:53.69	22.81	15.52	-45.3	-47.6	15.2	0.00e+00	0	33	0	267386880	56	4804
2026-01-16 02:35:57.73	22.40	15.91	-45.5	-47.9	15.1	0.00e+00	0	33	0	274726912	56	4979
2026-01-16 02:36:01.77	21.98	16.31	-45.5	-47.9	15.1	0.00e+00	0	33	0	282066944	56	4961
2026-01-16 02:36:05.81	21.55	16.71	-45.7	-48.3	14.9	0.00e+00	0	33	0	289406976	56	5175
2026-01-16 02:36:09.84	21.11	17.11	-45.4	-47.9	15.2	0.00e+00	0	33	0	297795584	56	4935
2026-01-16 02:36:13.87	20.65	17.52	-45.3	-47.7	15.2	0.00e+00	0	33	0	305135616	56	4858
2026-01-16 02:36:17.91	20.18	17.94	-45.5	-47.9	15.1	0.00e+00	0	33	0	312475648	56	4944
2026-01-16 02:36:21.95	19.70	18.36	-45.5	-47.9	15.2	0.00e+00	0	33	0	319815680	56	4958
2026-01-16 02:36:25.98	19.20	18.78	-45.2	-47.4	15.4	0.00e+00	0	33	0	327155712	56	4685
2026-01-16 02:36:30.02	18.69	19.21	-45.3	-47.5	15.4	0.00e+00	0	33	0	335544320	56	4759
2026-01-16 02:36:34.06	18.16	19.65	-45.5	-47.8	15.2	0.00e+00	0	33	0	342884352	56	4902
2026-01-16 02:36:38.09	17.62	20.08	-45.5	-47.8	15.2	0.00e+00	0	33	0	350224384	56	4910
2026-01-16 02:36:42.12	17.06	20.53	-45.6	-48.2	15.0	0.00e+00	0	33	0	357564416	56	5103
2026-01-16 02:36:46.16	16.48	20.98	-45.5	-48.0	15.1	0.00e+00	0	33	0	364904448	56	5011
2026-01-16 02:36:50.20	15.89	21.43	-45.4	-47.8	15.2	0.00e+00	0	33	0	373293056	56	4920
2026-01-16 02:36:54.24	15.28	21.89	-45.8	-48.5	14.9	0.00e+00	0	33	0	380633088	56	5312
2026-01-16 02:36:58.28	14.65	22.36	-45.9	-48.5	14.9	0.00e+00	0	33	0	387973120	57	5040
2026-01-16 02:37:02.31	14.00	22.83	-46.1	-48.8	14.7	0.00e+00	0	33	0	395313152	57	5197
2026-01-16 02:37:06.35	13.33	23.30	-45.9	-48.5	14.9	0.00e+00	0	33	0	403701760	57	5020
2026-01-16 02:37:10.39	12.64	23.78	-45.5	-47.9	15.2	0.00e+00	0	33	0	411041792	57	4702
2026-01-16 02:37:14.42	11.92	24.26	-45.0	-47.3	15.5	0.00e+00	0	33	0	418381824	56	4633
2026-01-16 02:37:18.46	11.19	24.75	-45.1	-47.4	15.5	0.00e+00	0	33	0	425721856	56	4665
2026-01-16 02:37:22.50	10.43	25.24	-45.1	-47.5	15.4	0.00e+00	0	33	0	433061888	55	5002
2026-01-16 02:37:26.54	9.64	25.73	-46.1	-48.8	14.8	0.00e+00	0	33	0	441450496	57	5174
2026-01-16 02:37:30.57	8.83	26.23	-46.3	-49.2	14.6	0.00e+00	0	33	0	448790528	57	5403
2026-01-16 02:37:34.61	8.00	26.73	-46.8	-50.0	14.1	0.00e+00	0	33	0	456130560	58	5637
2026-01-16 02:37:38.65	7.13	27.23	-46.9	-50.3	13.8	0.00e+00	0	33	0	463470592	59	5520
2026-01-16 02:37:42.68	6.24	27.73	-47.4	-51.4	13.2	0.00e+00	0	33	0	471859200	59	6226
2026-01-16 02:37:46.72	5.32	28.23	-46.5	-49.7	14.2	0.00e+00	0	33	0	479199232	59	5144
2026-01-16 02:37:50.76	4.37	28.74	-46.5	-49.5	14.4	0.00e+00	0	33	0	486539264	58	5319
2026-01-16 02:37:54.79	3.39	29.24	-46.2	-49.1	14.7	0.00e+00	0	33	0	493879296	58	5049
2026-01-16 02:37:58.83	2.38	29.74	-46.2	-49.0	14.8	0.00e+00	0	33	0	501219328	58	5003
2026-01-16 02:38:02.87	1.34	30.25	-46.5	-49.6	14.3	0.00e+00	0	33	0	509607936	58	5343
2026-01-16 02:38:06.91	0.26	30.75	-46.9	-50.1	14.1	0.00e+00	0	33	0	516947968	59	5383
2026-01-16 02:38:10.94	359.15	31.24	-46.4	-49.3	14.6	0.00e+00	0	33	0	524288000	59	4904
2026-01-16 02:38:14.98	358.00	31.73	-46.5	-49.5	14.5	0.00e+00	0	33	0	531628032	59	5017
2026-01-16 02:38:19.02	356.82	32.22	-46.4	-49.3	14.6	0.00e+00	0	33	0	538968064	58	5185
2026-01-16 02:38:23.05	355.60	32.70	-46.6	-50.1	13.9	0.00e+00	0	33	0	547356672	58	5678
2026-01-16 02:38:27.09	354.35	33.17	-46.9	-51.0	13.3	0.00e+00	0	33	0	554696704	59	5929
2026-01-16 02:38:31.13	353.06	33.64	-47.1	-51.5	12.8	7.00e-07	0	33	0	562036736	60	5946
2026-01-16 02:38:35.17	351.73	34.09	-47.4	-51.9	12.6	1.50e-06	0	33	0	569376768	60	6268
2026-01-16 02:38:39.20	350.36	34.53	-48.3	-54.1	10.9	1.61e-04	0	33	0	577765376	61	7605
2026-01-16 02:38:43.24	348.96	34.96	-47.1	-51.1	13.1	0.00e+00	0	33	0	585105408	60	5714
2026-01-16 02:38:47.28	347.52	35.38	-46.4	-49.9	14.1	0.00e+00	0	33	0	592445440	59	5222
2026-01-16 02:38:51.31	346.04	35.77	-47.2	-51.6	13.0	7.00e-07	0	33	0	599785472	59	6405
2026-01-16 02:38:55.35	344.53	36.16	-46.6	-50.3	13.9	0.00e+00	0	33	0	607125504	59	5512
2026-01-16 02:38:59.39	342.98	36.52	-46.1	-49.3	14.4	0.00e+00	0	33	0	615514112	58	5210
2026-01-16 02:39:03.42	341.40	36.86	-45.5	-48.6	14.8	0.00e+00	0	33	0	622854144	56	5401
2026-01-16 02:39:07.46	339.78	37.18	-44.5	-47.1	15.4	0.00e+00	0	33	0	630194176	55	4778
2026-01-16 02:39:11.50	338.13	37.47	-44.8	-47.3	15.4	0.00e+00	0	33	0	637534208	55	4918
2026-01-16 02:39:15.54	336.46	37.74	-44.8	-47.4	15.3	0.00e+00	0	33	0	645922816	55	4974
2026-01-16 02:39:19.57	334.76	37.99	-45.6	-48.8	14.7	0.00e+00	0	33	0	653262848	56	5518
2026-01-16 02:39:23.61	333.03	38.20	-43.6	-45.8	16.0	0.00e+00	0	33	0	660602880	53	4608
2026-01-16 02:39:27.64	331.28	38.39	-43.4	-45.4	16.2	0.00e+00	0	33	0	667942912	52	4685
2026-01-16 02:39:31.68	329.52	38.55	-44.3	-46.4	15.9	0.00e+00	0	33	0	675282944	53	4936
2026-01-16 02:39:35.72	327.73	38.67	-44.2	-46.3	16.0	0.00e+00	0	33	0	683671552	54	4611
2026-01-16 02:39:39.76	325.93	38.77	-44.2	-46.3	15.9	0.00e+00	0	33	0	691011584	54	4630
2026-01-16 02:39:43.80	324.13	38.83	-44.8	-47.0	15.7	0.00e+00	0	33	0	698351616	54	5031
2026-01-16 02:39:47.83	322.32	38.86	-44.0	-45.9	16.1	0.00e+00	0	33	0	705691648	54	4412
2026-01-16 02:39:51.87	320.51	38.86	-46.0	-48.9	14.8	0.00e+00	0	33	0	713031680	57	5255
2026-01-16 02:39:55.90	318.71	38.82	-45.6	-48.1	15.3	0.00e+00	0	33	0	721420288	57	4804
2026-01-16 02:39:59.94	316.90	38.76	-46.2	-49.3	14.6	0.00e+00	0	33	0	728760320	57	5468
2026-01-16 02:40:03.98	315.11	38.66	-45.6	-48.2	15.1	0.00e+00	0	33	0	736100352	56	5150
2026-01-16 02:40:08.02	313.32	38.53	-47.0	-51.0	13.2	0.00e+00	0	33	0	743440384	60	5654
2026-01-16 02:40:12.05	311.56	38.37	-46.7	-50.5	13.7	0.00e+00	0	33	0	751828992	58	5960
2026-01-16 02:40:16.09	309.81	38.18	-46.9	-51.1	13.1	2.20e-06	0	33	0	759169024	60	5710
2026-01-16 02:40:20.13	308.09	37.96	-45.8	-49.2	14.4	0.00e+00	0	33	0	766509056	58	5115
2026-01-16 02:40:24.16	306.39	37.71	-47.3	-52.6	12.1	2.20e-06	0	33	0	773849088	59	7151
2026-01-16 02:40:28.20	304.72	37.43	-46.3	-50.4	13.5	7.00e-07	0	33	0	781189120	59	5562
2026-01-16 02:40:32.24	303.07	37.14	-45.6	-48.9	14.4	0.00e+00	0	33	0	789577728	57	5275
2026-01-16 02:40:36.28	301.46	36.81	-44.7	-47.4	15.3	0.00e+00	0	33	0	796917760	56	4664
2026-01-16 02:40:40.31	299.88	36.47	-43.9	-46.0	15.9	0.00e+00	0	33	0	804257792	53	4724
2026-01-16 02:40:44.35	298.33	36.10	-44.8	-47.4	15.3	0.00e+00	0	33	0	811597824	54	5236
2026-01-16 02:40:48.39	296.82	35.72	-44.6	-46.9	15.6	0.00e+00	0	33	0	819986432	55	4692
2026-01-16 02:40:52.43	295.35	35.32	-46.1	-49.4	14.4	0.00e+00	0	33	0	827326464	57	5541
2026-01-16 02:40:56.46	293.91	34.90	-46.1	-49.3	14.6	0.00e+00	0	33	0	834666496	58	5170
2026-01-16 02:41:00.50	292.51	34.47	-45.5	-48.1	15.3	0.00e+00	0	33	0	842006528	57	4788
2026-01-16 02:41:04.53	291.15	34.03	-46.1	-49.0	14.7	0.00e+00	0	33	0	849346560	57	5296
2026-01-16 02:41:08.57	289.82	33.57	-45.3	-47.8	15.3	0.00e+00	0	33	0	857735168	56	4872
2026-01-16 02:41:12.61	288.53	33.11	-46.0	-48.7	15.0	0.00e+00	0	33	0	865075200	57	5131
2026-01-16 02:41:16.65	287.28	32.63	-45.4	-47.9	15.4	0.00e+00	0	33	0	872415232	57	4658
2026-01-16 02:41:20.68	286.07	32.15	-46.5	-49.6	14.4	0.00e+00	0	33	0	879755264	58	5381
2026-01-16 02:41:24.71	284.89	31.66	-47.5	-51.3	13.3	0.00e+00	0	33	0	888143872	60	5825
2026-01-16 02:41:28.75	283.74	31.17	-47.3	-50.7	13.8	0.00e+00	0	33	0	895483904	59	5782
2026-01-16 02:41:32.79	282.63	30.67	-46.5	-49.4	14.7	0.00e+00	0	33	0	902823936	59	4939
2026-01-16 02:41:36.83	281.56	30.17	-45.1	-47.3	15.6	0.00e+00	0	33	0	910163968	56	4603
2026-01-16 02:41:40.86	280.52	29.67	-45.1	-47.4	15.6	0.00e+00	0	33	0	917504000	55	4956
2026-01-16 02:41:44.90	279.51	29.16	-47.0	-50.2	14.2	0.00e+00	0	33	0	925892608	59	5433
2026-01-16 02:41:48.94	278.53	28.65	-46.6	-49.5	14.6	0.00e+00	0	33	0	933232640	59	5003
2026-01-16 02:41:52.97	277.58	28.15	-46.0	-48.6	15.0	0.00e+00	0	33	0	940572672	57	5097
2026-01-16 02:41:57.01	276.67	27.65	-45.0	-47.1	15.7	0.00e+00	0	33	0	947912704	56	4545
2026-01-16 02:42:01.05	275.78	27.14	-44.5	-46.6	15.8	0.00e+00	0	33	0	956301312	55	4525
2026-01-16 02:42:05.08	274.92	26.64	-45.0	-47.3	15.5	0.00e+00	0	33	0	963641344	55	4901
2026-01-16 02:42:09.12	274.08	26.14	-46.2	-48.9	14.8	0.00e+00	0	33	0	970981376	57	5273
2026-01-16 02:42:13.16	273.27	25.64	-45.9	-48.4	15.0	0.00e+00	0	33	0	978321408	57	4967
2026-01-16 02:42:17.20	272.49	25.15	-45.5	-47.9	15.3	0.00e+00	0	33	0	985661440	57	4698
2026-01-16 02:42:21.23	271.73	24.66	-45.3	-47.6	15.5	0.00e+00	0	33	0	994050048	56	4791
2026-01-16 02:42:25.27	271.00	24.17	-45.5	-47.9	15.3	0.00e+00	0	33	0	1001390080	56	4941
2026-01-16 02:42:29.30	270.29	23.69	-45.7	-48.2	15.2	0.00e+00	0	33	0	1008730112	56	5138
2026-01-16 02:42:33.34	269.59	23.21	-46.0	-48.6	15.0	0.00e+00	0	33	0	1016070144	57	5075
2026-01-16 02:42:37.38	268.92	22.74	-46.2	-49.0	14.8	0.00e+00	0	33	0	1023410176	58	4993
2026-01-16 02:42:41.42	268.28	22.27	-45.7	-48.3	15.1	0.00e+00	0	33	0	1031798784	58	4600
2026-01-16 02:42:45.45	267.65	21.80	-45.0	-47.2	15.6	0.00e+00	0	33	0	1039138816	56	4588
2026-01-16 02:42:49.49	267.04	21.34	-45.7	-48.1	15.2	0.00e+00	0	33	0	1046478848	56	5053
2026-01-16 02:42:53.53	266.44	20.89	-45.2	-47.4	15.5	0.00e+00	0	33	0	1053818880	56	4698
2026-01-16 02:42:57.56	265.87	20.44	-44.4	-46.4	15.9	0.00e+00	0	33	0	1062207488	55	4430
2026-01-16 02:43:01.60	265.31	19.99	-46.1	-48.7	14.9	0.00e+00	0	33	0	1069547520	57	5158
2026-01-16 02:43:05.64	264.77	19.55	-47.1	-50.7	13.5	0.00e+00	0	33	0	1076887552	60	5405
2026-01-16 02:43:09.68	264.24	19.12	-46.8	-50.2	13.8	0.00e+00	0	33	0	1084227584	60	5125
2026-01-16 02:43:13.72	263.73	18.69	-45.9	-48.6	15.0	0.00e+00	0	33	0	1091567616	58	4765
2026-01-16 02:43:17.76	263.23	18.26	-46.3	-49.1	14.6	0.00e+00	0	33	0	1099956224	58	5091
2026-01-16 02:43:21.79	262.75	17.84	-46.6	-49.7	14.3	0.00e+00	0	33	0	1107296256	58	5445
2026-01-16 02:43:25.83	262.28	17.43	-45.6	-48.0	15.2	0.00e+00	0	33	0	1114636288	57	4747
2026-01-16 02:43:29.86	261.82	17.02	-45.2	-47.5	15.3	0.00e+00	0	33	0	1121976320	56	4757
2026-01-16 02:43:33.90	261.38	16.61	-45.8	-48.5	14.9	0.00e+00	0	33	0	1130364928	56	5280
2026-01-16 02:43:37.94	260.94	16.21	-46.0	-48.7	14.8	0.00e+00	0	33	0	1137704960	57	5126
2026-01-16 02:43:41.97	260.52	15.82	-46.0	-48.6	14.9	0.00e+00	0	33	0	1145044992	57	5094
2026-01-16 02:43:46.01	260.11	15.43	-46.1	-48.8	14.7	0.00e+00	0	33	0	1152385024	57	5214
2026-01-16 02:43:50.05	259.72	15.04	-45.8	-48.4	15.0	0.00e+00	0	33	0	1159725056	57	4957
2026-01-16 02:43:54.08	259.33	14.66	-46.0	-48.6	14.9	0.00e+00	0	33	0	1168113664	57	5056
2026-01-16 02:43:58.12	258.95	14.28	-46.4	-49.3	14.5	0.00e+00	0	33	0	1175453696	58	5174
2026-01-16 02:44:02.16	258.58	13.91	-46.8	-50.1	13.9	0.00e+00	0	33	0	1182793728	59	5362
2026-01-16 02:44:06.20	258.22	13.54	-46.7	-49.8	14.1	0.00e+00	0	33	0	1190133760	59	5191
2026-01-16 02:44:10.23	257.87	13.18	-45.9	-48.5	14.9	0.00e+00	0	33	0	1197473792	58	4744
2026-01-16 02:44:14.27	257.53	12.82	-45.8	-48.4	14.9	0.00e+00	0	33	0	1205862400	57	4945
2026-01-16 02:44:18.31	257.20	12.46	-45.8	-48.5	14.8	0.00e+00	0	33	0	1213202432	57	4986
2026-01-16 02:44:22.34	256.87	12.11	-45.8	-48.4	14.9	0.00e+00	0	33	0	1220542464	57	4950
2026-01-16 02:44:26.38	256.56	11.77	-45.9	-48.6	14.8	0.00e+00	0	33	0	1227882496	57	5058
2026-01-16 02:44:30.42	256.25	11.42	-46.0	-48.7	14.7	0.00e+00	0	33	0	1236271104	57	5125
2026-01-16 02:44:34.45	255.95	11.09	-46.1	-48.8	14.6	0.00e+00	0	33	0	1243611136	57	5202
2026-01-16 02:44:38.49	255.65	10.75	-46.3	-49.1	14.5	0.00e+00	0	33	0	1250951168	57	5379
2026-01-16 02:44:42.53	255.36	10.42	-46.5	-49.4	14.3	0.00e+00	0	33	0	1258291200	58	5265
2026-01-16 02:44:46.57	255.08	10.09	-46.3	-49.2	14.4	0.00e+00	0	33	0	1265631232	58	5117
2026-01-16 02:44:50.61	254.81	9.77	-46.7	-49.9	14.0	0.00e+00	0	33	0	1274019840	58	5567
2026-01-16 02:44:54.64	254.54	9.45	-47.0	-50.3	13.7	0.00e+00	0	33	0	1281359872	59	5519
2026-01-16 02:44:58.68	254.28	9.13	-47.1	-50.8	13.1	0.00e+00	0	33	0	1288699904	60	5467
2026-01-16 02:45:02.72	254.02	8.82	-47.0	-50.6	13.3	7.00e-07	0	33	0	1296039936	60	5344
2026-01-16 02:45:06.75	253.77	8.51	-46.9	-50.4	13.6	0.00e+00	0	33	0	1304428544	59	5542
2026-01-16 02:45:10.79	253.52	8.20	-46.5	-49.6	14.1	0.00e+00	0	33	0	1311768576	59	5052
2026-01-16 02:45:14.83	253.28	7.89	-46.2	-49.1	14.4	0.00e+00	0	33	0	1319108608	58	5098
2026-01-16 02:45:18.87	253.05	7.59	-46.0	-48.7	14.6	0.00e+00	0	33	0	1326448640	58	4869
2026-01-16 02:45:22.90	252.82	7.30	-46.2	-49.2	14.3	0.00e+00	0	33	0	1333788672	58	5109
2026-01-16 02:45:26.94	252.60	7.00	-46.4	-49.5	14.0	0.00e+00	0	33	0	1342177280	58	5338
2026-01-16 02:45:30.97	252.38	6.71	-46.7	-50.1	13.7	0.00e+00	0	33	0	1349517312	58	5667
2026-01-16 02:45:35.01	252.16	6.42	-47.0	-50.7	13.3	0.00e+00	0	33	0	1356857344	59	5739
2026-01-16 02:45:39.05	251.95	6.13	-47.3	-51.1	13.0	1.50e-06	0	33	0	1364197376	59	6027
2026-01-16 02:45:43.09	251.74	5.85	-47.2	-51.2	12.6	7.00e-07	0	33	0	1372585984	60	5783
2026-01-16 02:45:47.13	251.54	5.57	-47.2	-51.3	12.5	6.80e-06	0	33	0	1379926016	60	5801
2026-01-16 02:45:51.16	251.34	5.29	-47.1	-51.0	12.7	1.22e-05	0	33	0	1387266048	60	5643
2026-01-16 02:45:55.20	251.15	5.02	-47.7	-52.5	11.5	4.73e-05	0	33	0	1394606080	60	6674
2026-01-16 02:45:59.24	250.96	4.74	-51.2	-67.4	3.8	1.49e+00	0	33	104	1395654656	67	24728
2026-01-16 02:46:03.27	250.77	4.47	-51.7	-67.9	3.8	1.49e+00	0	33	104	1395654656	68	24801
2026-01-16 02:46:07.31	250.59	4.21	-51.8	-68.0	3.8	1.49e+00	0	33	104	1395654656	68	25208
2026-01-16 02:46:11.35	250.41	3.94	-51.9	-68.1	3.8	1.49e+00	0	33	104	1395654656	68	25433
2026-01-16 02:46:15.38	250.23	3.68	-51.9	-68.1	3.8	1.49e+00	0	33	104	1395654656	68	25458
2026-01-16 02:46:19.42	250.06	3.41	-51.8	-68.1	3.8	1.49e+00	0	33	104	1395654656	68	25285
2026-01-16 02:46:23.46	249.89	3.16	-51.8	-68.0	3.8	1.49e+00	0	33	104	1395654656	68	25214
2026-01-16 02:46:27.50	249.72	2.90	-51.7	-68.0	3.8	1.49e+00	0	33	104	1395654656	68	25028
2026-01-16 02:46:31.53	249.56	2.64	-51.8	-68.0	3.8	1.49e+00	0	33	104	1395654656	68	25059
2026-01-16 02:46:35.57	249.40	2.39	-51.7	-68.0	3.8	1.49e+00	0	33	104	1395654656	68	24997
2026-01-16 02:46:39.61	249.24	2.14	-51.7	-67.9	3.8	1.49e+00	0	33	104	1395654656	68	24929
2026-01-16 02:46:43.64	249.09	1.89	-51.7	-67.9	3.8	1.49e+00	0	33	104	1395654656	68	24845

#Closed at: 2026-01-16 02:46:44
#Recorded file [1395 MB]: D:/lorett/data/31004_260116_053255.dat