passes_logs/2026/01/16/R3.2S_Murmansk_2ch/R3.2S_Murmansk_2ch__20260116_055141_SUOMI_NPP_rec.log

#Pass ID: 20260116_055141_SUOMI NPP
#Satellite: SUOMI NPP
#Configuration: NPP
#almurnet v.1.7.20251203
#Start time: 2026-01-16 05:51:41

#Version: 2.2.20231116
#Station: R3.2S_Murmansk_2ch
#Location: 33.079688 lon 68.888172 lat
#TLE: 1 37849U 11061A   26015.59739646  .00000050  00000+0  44779-4 0  9992
#TLE: 2 37849  98.7811 317.6408 0002446  62.6499 297.4925 14.19525346736798

#Time	Az	El	Level	Level2	SNR	BER	BlckErr	Temp	State	Recorded	gain1	gain2
2026-01-16 05:51:41.89	72.12	2.03	-49.7	-65.9	3.8	1.49e+00	0	31	0	0	65	23394
2026-01-16 05:51:44.92	71.93	2.20	-49.8	-65.9	3.8	1.49e+00	0	31	104	0	64	24891
2026-01-16 05:51:47.94	71.74	2.37	-49.7	-65.9	3.8	1.49e+00	0	31	104	0	64	24811
2026-01-16 05:51:50.97	71.55	2.55	-49.7	-65.9	3.8	1.49e+00	0	31	104	0	64	24743
2026-01-16 05:51:54.00	71.35	2.72	-49.7	-65.9	3.8	1.49e+00	0	31	104	0	64	24787
2026-01-16 05:51:57.03	71.15	2.90	-49.7	-65.9	3.8	1.49e+00	0	32	104	0	64	24829
2026-01-16 05:52:00.05	70.95	3.08	-49.7	-65.9	3.8	1.49e+00	0	32	104	0	64	24800
2026-01-16 05:52:03.08	70.74	3.25	-49.7	-65.9	3.8	1.49e+00	0	32	104	0	64	24765
2026-01-16 05:52:06.11	70.54	3.43	-49.7	-65.9	3.8	1.49e+00	0	32	104	0	64	24770
2026-01-16 05:52:09.14	70.33	3.61	-49.7	-65.9	3.8	1.49e+00	0	32	104	0	64	24710
2026-01-16 05:52:12.17	70.11	3.79	-49.7	-65.9	3.8	1.49e+00	0	32	104	0	64	24723
2026-01-16 05:52:15.20	69.90	3.97	-49.7	-65.9	3.8	1.49e+00	0	32	104	0	64	24703
2026-01-16 05:52:18.22	69.68	4.15	-49.7	-65.3	3.8	1.49e+00	0	32	104	0	64	23305
2026-01-16 05:52:21.25	69.46	4.34	-49.6	-63.1	4.0	1.48e+00	0	32	104	0	64	18021
2026-01-16 05:52:24.28	69.24	4.52	-49.5	-61.3	4.5	1.17e+00	0	32	0	1048576	64	14620
2026-01-16 05:52:27.31	69.01	4.71	-49.0	-57.5	6.8	3.24e-01	0	32	0	7340032	64	9399
2026-01-16 05:52:30.33	68.78	4.89	-48.9	-57.0	7.2	1.93e-01	0	32	0	12582912	64	8953
2026-01-16 05:52:33.36	68.55	5.08	-48.6	-55.4	8.6	1.27e-01	0	32	0	17825792	63	7826
2026-01-16 05:52:36.38	68.31	5.26	-48.8	-56.1	7.8	8.64e-01	0	32	0	24117248	64	8028
2026-01-16 05:52:39.41	68.07	5.45	-47.2	-51.4	12.6	0.00e+00	0	32	0	29360128	59	6224
2026-01-16 05:52:42.44	67.83	5.64	-47.2	-51.4	12.6	0.00e+00	0	32	0	35651584	59	6215
2026-01-16 05:52:45.47	67.58	5.83	-47.2	-51.3	12.6	7.00e-07	0	32	0	40894464	59	6162
2026-01-16 05:52:48.50	67.33	6.02	-46.5	-50.1	13.5	7.00e-07	0	33	0	47185920	59	5355
2026-01-16 05:52:51.52	67.08	6.21	-46.4	-49.8	13.7	0.00e+00	0	33	0	52428800	59	5201
2026-01-16 05:52:54.55	66.83	6.40	-46.6	-50.2	13.4	0.00e+00	0	33	0	57671680	59	5446
2026-01-16 05:52:57.58	66.57	6.59	-46.5	-50.0	13.6	0.00e+00	0	33	0	63963136	59	5317
2026-01-16 05:53:00.60	66.30	6.79	-46.8	-50.4	13.4	0.00e+00	0	33	0	69206016	59	5569
2026-01-16 05:53:03.63	66.04	6.98	-46.8	-50.6	13.2	7.00e-07	0	33	0	75497472	59	5663
2026-01-16 05:53:06.66	65.77	7.18	-47.0	-51.1	12.8	1.50e-06	0	33	0	80740352	59	6008
2026-01-16 05:53:09.69	65.49	7.37	-46.8	-50.6	13.2	0.00e+00	0	33	0	85983232	59	5696
2026-01-16 05:53:12.72	65.21	7.57	-47.0	-51.0	13.0	0.00e+00	0	33	0	92274688	59	5946
2026-01-16 05:53:15.75	64.93	7.77	-46.6	-50.2	13.5	0.00e+00	0	33	0	97517568	59	5455
2026-01-16 05:53:18.78	64.65	7.97	-46.4	-50.0	13.7	0.00e+00	0	33	0	103809024	59	5281
2026-01-16 05:53:21.80	64.36	8.17	-46.3	-49.8	13.9	0.00e+00	0	33	0	109051904	59	5160
2026-01-16 05:53:24.83	64.06	8.37	-46.3	-49.7	13.9	0.00e+00	0	33	0	114294784	58	5437
2026-01-16 05:53:27.85	63.76	8.57	-46.2	-49.5	14.1	0.00e+00	0	33	0	120586240	58	5305
2026-01-16 05:53:30.88	63.46	8.77	-46.1	-49.4	14.1	0.00e+00	0	33	0	125829120	58	5264
2026-01-16 05:53:33.91	63.15	8.98	-46.0	-49.2	14.3	0.00e+00	0	33	0	132120576	58	5110
2026-01-16 05:53:36.94	62.84	9.18	-46.0	-49.1	14.3	0.00e+00	0	33	0	137363456	58	5083
2026-01-16 05:53:39.97	62.53	9.39	-46.2	-49.4	14.2	0.00e+00	0	33	0	143654912	58	5221
2026-01-16 05:53:43.00	62.21	9.59	-46.3	-49.4	14.2	0.00e+00	0	33	0	148897792	58	5274
2026-01-16 05:53:46.02	61.88	9.80	-46.2	-49.4	14.2	0.00e+00	0	33	0	154140672	58	5248
2026-01-16 05:53:49.05	61.55	10.01	-46.5	-49.9	13.9	0.00e+00	0	33	0	160432128	58	5553
2026-01-16 05:53:52.08	61.21	10.21	-46.5	-49.7	14.1	0.00e+00	0	33	0	165675008	58	5425
2026-01-16 05:53:55.11	60.87	10.42	-46.5	-49.8	14.0	0.00e+00	0	33	0	171966464	58	5467
2026-01-16 05:53:58.14	60.53	10.63	-46.4	-49.6	14.1	0.00e+00	0	33	0	177209344	58	5391
2026-01-16 05:54:01.16	60.18	10.84	-46.5	-49.7	14.0	0.00e+00	0	33	0	182452224	58	5460
2026-01-16 05:54:04.19	59.82	11.05	-46.3	-49.5	14.2	0.00e+00	0	33	0	188743680	58	5295
2026-01-16 05:54:07.22	59.46	11.27	-46.2	-49.4	14.3	0.00e+00	0	33	0	193986560	58	5220
2026-01-16 05:54:10.25	59.10	11.48	-46.3	-49.4	14.2	0.00e+00	0	33	0	200278016	58	5267
2026-01-16 05:54:13.27	58.73	11.69	-46.0	-48.9	14.5	0.00e+00	0	33	0	205520896	58	4974
2026-01-16 05:54:16.30	58.35	11.91	-46.0	-48.9	14.6	0.00e+00	0	33	0	211812352	58	4967
2026-01-16 05:54:19.33	57.97	12.12	-45.8	-48.6	14.8	0.00e+00	0	33	0	217055232	58	4788
2026-01-16 05:54:22.36	57.58	12.34	-45.7	-48.5	14.9	0.00e+00	0	33	0	222298112	58	4724
2026-01-16 05:54:25.39	57.18	12.55	-45.6	-48.3	14.9	0.00e+00	0	33	0	228589568	57	4914
2026-01-16 05:54:28.42	56.78	12.77	-45.7	-48.5	14.8	0.00e+00	0	33	0	233832448	57	5001
2026-01-16 05:54:31.44	56.38	12.99	-45.5	-48.2	14.9	0.00e+00	0	33	0	240123904	57	4866
2026-01-16 05:54:34.47	55.96	13.20	-45.7	-48.4	14.9	0.00e+00	0	33	0	245366784	57	4969
2026-01-16 05:54:37.50	55.55	13.42	-45.5	-48.2	15.0	0.00e+00	0	33	0	250609664	57	4835
2026-01-16 05:54:40.52	55.12	13.64	-45.4	-48.1	15.0	0.00e+00	0	33	0	256901120	57	4809
2026-01-16 05:54:43.55	54.69	13.86	-45.4	-48.2	15.0	0.00e+00	0	33	0	262144000	57	4836
2026-01-16 05:54:46.58	54.25	14.08	-45.5	-48.5	14.8	0.00e+00	0	33	0	268435456	57	4986
2026-01-16 05:54:49.61	53.81	14.29	-45.6	-48.6	14.8	0.00e+00	0	33	0	273678336	57	5087
2026-01-16 05:54:52.64	53.35	14.51	-45.7	-48.8	14.7	0.00e+00	0	33	0	279969792	57	5165
2026-01-16 05:54:55.66	52.90	14.73	-45.8	-48.9	14.6	0.00e+00	0	33	0	285212672	57	5248
2026-01-16 05:54:58.69	52.43	14.95	-45.6	-48.6	14.8	0.00e+00	0	33	0	290455552	57	5043
2026-01-16 05:55:01.72	51.96	15.17	-45.8	-48.8	14.7	0.00e+00	0	33	0	296747008	57	5181
2026-01-16 05:55:04.74	51.48	15.39	-45.9	-48.9	14.6	0.00e+00	0	33	0	301989888	57	5250
2026-01-16 05:55:07.77	50.99	15.61	-46.1	-49.5	14.3	0.00e+00	0	33	0	308281344	57	5597
2026-01-16 05:55:10.79	50.50	15.83	-46.0	-49.2	14.4	0.00e+00	0	33	0	313524224	57	5453
2026-01-16 05:55:13.82	50.00	16.05	-46.0	-49.2	14.4	0.00e+00	0	33	0	318767104	57	5460
2026-01-16 05:55:16.85	49.49	16.27	-45.8	-48.7	14.7	0.00e+00	0	33	0	325058560	57	5154
2026-01-16 05:55:19.88	48.97	16.48	-45.7	-48.7	14.7	0.00e+00	0	33	0	330301440	57	5151
2026-01-16 05:55:22.90	48.45	16.70	-45.7	-48.6	14.8	0.00e+00	0	33	0	336592896	57	5095
2026-01-16 05:55:25.93	47.92	16.92	-45.6	-48.6	14.8	0.00e+00	0	33	0	341835776	57	5055
2026-01-16 05:55:28.96	47.38	17.14	-45.9	-48.9	14.7	0.00e+00	0	33	0	347078656	57	5257
2026-01-16 05:55:31.99	46.83	17.35	-46.0	-49.1	14.5	0.00e+00	0	33	0	353370112	57	5349
2026-01-16 05:55:35.01	46.28	17.57	-46.0	-49.1	14.5	0.00e+00	0	33	0	358612992	57	5374
2026-01-16 05:55:38.04	45.71	17.78	-45.9	-48.9	14.6	0.00e+00	0	33	0	364904448	57	5251
2026-01-16 05:55:41.07	45.14	17.99	-45.6	-48.3	14.9	0.00e+00	0	33	0	370147328	57	4909
2026-01-16 05:55:44.10	44.56	18.20	-45.2	-47.7	15.2	0.00e+00	0	33	0	376438784	56	4835
2026-01-16 05:55:47.12	43.98	18.41	-45.3	-47.9	15.1	0.00e+00	0	33	0	381681664	56	4942
2026-01-16 05:55:50.15	43.38	18.62	-45.1	-47.7	15.2	0.00e+00	0	33	0	386924544	56	4868
2026-01-16 05:55:53.18	42.77	18.83	-44.9	-47.6	15.3	0.00e+00	0	33	0	393216000	56	4779
2026-01-16 05:55:56.21	42.16	19.04	-44.4	-46.8	15.5	0.00e+00	0	33	0	398458880	55	4629
2026-01-16 05:55:59.24	41.54	19.24	-44.3	-46.6	15.6	0.00e+00	0	33	0	404750336	54	4782
2026-01-16 05:56:02.27	40.91	19.44	-44.5	-47.0	15.3	0.00e+00	0	33	0	409993216	54	5012
2026-01-16 05:56:05.29	40.27	19.64	-44.3	-46.6	15.6	0.00e+00	0	33	0	415236096	54	4814
2026-01-16 05:56:08.32	39.63	19.84	-44.1	-46.2	15.8	0.00e+00	0	33	0	421527552	54	4598
2026-01-16 05:56:11.35	38.97	20.04	-44.1	-46.3	15.8	0.00e+00	0	33	0	426770432	54	4617
2026-01-16 05:56:14.38	38.31	20.23	-44.2	-46.5	15.7	0.00e+00	0	33	0	433061888	54	4748
2026-01-16 05:56:17.40	37.64	20.42	-44.1	-46.4	15.7	0.00e+00	0	33	0	438304768	54	4689
2026-01-16 05:56:20.43	36.96	20.61	-44.0	-46.2	15.8	0.00e+00	0	33	0	444596224	54	4589
2026-01-16 05:56:23.46	36.27	20.79	-43.8	-46.0	16.0	0.00e+00	0	33	0	449839104	54	4446
2026-01-16 05:56:26.49	35.57	20.97	-43.8	-45.9	16.0	0.00e+00	0	33	0	455081984	54	4397
2026-01-16 05:56:29.52	34.86	21.15	-43.6	-45.6	16.1	0.00e+00	0	33	0	461373440	53	4540
2026-01-16 05:56:32.55	34.15	21.33	-43.5	-45.5	16.1	0.00e+00	0	33	0	466616320	53	4451
2026-01-16 05:56:35.57	33.43	21.50	-43.5	-45.4	16.2	0.00e+00	0	33	0	472907776	53	4419
2026-01-16 05:56:38.60	32.70	21.66	-43.6	-45.6	16.1	0.00e+00	0	33	0	478150656	53	4519
2026-01-16 05:56:41.63	31.96	21.83	-43.4	-45.4	16.2	0.00e+00	0	33	0	483393536	53	4396
2026-01-16 05:56:44.65	31.22	21.99	-44.0	-46.0	16.0	0.00e+00	0	33	0	489684992	53	4749
2026-01-16 05:56:47.68	30.47	22.14	-44.0	-46.0	16.0	0.00e+00	0	33	0	494927872	53	4722
2026-01-16 05:56:50.71	29.71	22.29	-44.0	-46.0	16.0	0.00e+00	0	33	0	501219328	53	4734
2026-01-16 05:56:53.74	28.94	22.44	-43.9	-45.9	16.0	0.00e+00	0	33	0	506462208	53	4696
2026-01-16 05:56:56.77	28.16	22.58	-43.5	-45.4	16.2	0.00e+00	0	33	0	511705088	53	4429
2026-01-16 05:56:59.80	27.38	22.72	-43.6	-45.5	16.2	0.00e+00	0	33	0	517996544	53	4470
2026-01-16 05:57:02.83	26.59	22.85	-43.6	-45.5	16.2	0.00e+00	0	33	0	523239424	53	4456
2026-01-16 05:57:05.85	25.80	22.97	-43.3	-45.1	16.4	0.00e+00	0	33	0	529530880	53	4273
2026-01-16 05:57:08.88	25.00	23.09	-43.9	-45.8	16.2	0.00e+00	0	33	0	534773760	53	4635
2026-01-16 05:57:11.91	24.19	23.21	-44.1	-46.1	16.0	0.00e+00	0	33	0	541065216	53	4766
2026-01-16 05:57:14.94	23.37	23.32	-45.1	-47.6	15.3	0.00e+00	0	33	0	546308096	55	5058
2026-01-16 05:57:17.96	22.56	23.42	-45.6	-48.2	15.1	0.00e+00	0	33	0	551550976	56	5144
2026-01-16 05:57:20.99	21.73	23.52	-45.0	-47.4	15.5	0.00e+00	0	33	0	557842432	56	4685
2026-01-16 05:57:24.02	20.90	23.61	-44.6	-46.9	15.7	0.00e+00	0	33	0	563085312	55	4659
2026-01-16 05:57:27.05	20.07	23.69	-44.8	-47.1	15.6	0.00e+00	0	33	0	569376768	55	4784
2026-01-16 05:57:30.08	19.23	23.77	-44.6	-46.9	15.6	0.00e+00	0	33	0	574619648	55	4687
2026-01-16 05:57:33.10	18.39	23.85	-45.1	-47.7	15.2	0.00e+00	0	33	0	579862528	55	5143
2026-01-16 05:57:36.13	17.54	23.91	-45.0	-47.5	15.3	0.00e+00	0	33	0	586153984	55	4991
2026-01-16 05:57:39.16	16.69	23.97	-45.8	-48.5	14.9	0.00e+00	0	33	0	591396864	56	5327
2026-01-16 05:57:42.19	15.84	24.02	-45.6	-48.4	14.9	0.00e+00	0	33	0	597688320	57	4974
2026-01-16 05:57:45.21	14.99	24.07	-45.4	-48.0	15.2	0.00e+00	0	33	0	602931200	57	4739
2026-01-16 05:57:48.24	14.13	24.11	-45.7	-48.4	15.0	0.00e+00	0	33	0	609222656	57	4942
2026-01-16 05:57:51.27	13.27	24.14	-45.8	-48.7	14.7	0.00e+00	0	33	0	614465536	57	5133
2026-01-16 05:57:54.30	12.41	24.16	-45.7	-48.4	15.0	0.00e+00	0	33	0	619708416	57	4978
2026-01-16 05:57:57.33	11.54	24.18	-44.5	-46.9	15.6	0.00e+00	0	33	0	625999872	55	4660
2026-01-16 05:58:00.35	10.68	24.19	-44.5	-46.9	15.5	0.00e+00	0	33	0	631242752	55	4697
2026-01-16 05:58:03.38	9.82	24.19	-45.1	-47.8	15.1	0.00e+00	0	33	0	637534208	55	5199
2026-01-16 05:58:06.41	8.96	24.19	-44.8	-47.4	15.3	0.00e+00	0	33	0	642777088	55	4948
2026-01-16 05:58:09.44	8.09	24.18	-44.9	-47.5	15.3	0.00e+00	0	33	0	648019968	55	4986
2026-01-16 05:58:12.46	7.23	24.16	-44.4	-46.7	15.6	0.00e+00	0	33	0	654311424	55	4551
2026-01-16 05:58:15.49	6.37	24.14	-44.4	-46.7	15.6	0.00e+00	0	33	0	659554304	55	4569
2026-01-16 05:58:18.52	5.51	24.11	-44.2	-46.3	15.9	0.00e+00	0	33	0	665845760	55	4366
2026-01-16 05:58:21.55	4.65	24.07	-44.3	-46.4	15.8	0.00e+00	0	33	0	671088640	54	4686
2026-01-16 05:58:24.58	3.80	24.02	-43.8	-45.8	16.2	0.00e+00	0	33	0	676331520	54	4343
2026-01-16 05:58:27.61	2.94	23.97	-44.0	-45.9	16.1	0.00e+00	0	33	0	682622976	54	4424
2026-01-16 05:58:30.63	2.10	23.91	-43.1	-44.8	16.4	0.00e+00	0	33	0	687865856	52	4381
2026-01-16 05:58:33.66	1.25	23.85	-43.4	-45.2	16.3	0.00e+00	0	33	0	694157312	52	4574
2026-01-16 05:58:36.69	0.41	23.77	-43.4	-45.1	16.4	0.00e+00	0	33	0	699400192	52	4538
2026-01-16 05:58:39.72	359.57	23.69	-43.7	-45.5	16.2	0.00e+00	0	33	0	705691648	52	4739
2026-01-16 05:58:42.74	358.74	23.61	-43.8	-45.7	16.1	0.00e+00	0	33	0	710934528	52	4831
2026-01-16 05:58:45.77	357.91	23.52	-43.9	-45.8	16.1	0.00e+00	0	33	0	716177408	53	4618
2026-01-16 05:58:48.80	357.08	23.42	-43.8	-45.6	16.2	0.00e+00	0	33	0	722468864	53	4540
2026-01-16 05:58:51.82	356.27	23.32	-44.2	-46.2	16.0	0.00e+00	0	33	0	727711744	54	4568
2026-01-16 05:58:54.85	355.45	23.21	-43.9	-45.8	16.1	0.00e+00	0	33	0	734003200	54	4372
2026-01-16 05:58:57.88	354.65	23.09	-44.2	-46.2	16.0	0.00e+00	0	33	0	739246080	54	4594
2026-01-16 05:59:00.91	353.84	22.97	-44.6	-46.7	15.6	0.00e+00	0	33	0	744488960	54	4859
2026-01-16 05:59:03.94	353.05	22.85	-44.6	-46.8	15.7	0.00e+00	0	33	0	750780416	54	4906
2026-01-16 05:59:06.97	352.26	22.72	-45.3	-47.8	15.2	0.00e+00	0	33	0	756023296	55	5191
2026-01-16 05:59:09.99	351.48	22.58	-45.3	-47.8	15.3	0.00e+00	0	33	0	762314752	56	4874
2026-01-16 05:59:13.02	350.71	22.44	-45.1	-47.6	15.4	0.00e+00	0	33	0	767557632	56	4769
2026-01-16 05:59:16.05	349.94	22.29	-45.2	-47.8	15.3	0.00e+00	0	33	0	773849088	56	4871
2026-01-16 05:59:19.08	349.18	22.14	-45.2	-47.7	15.3	0.00e+00	0	33	0	779091968	56	4861
2026-01-16 05:59:22.11	348.43	21.99	-45.0	-47.4	15.4	0.00e+00	0	33	0	784334848	56	4667
2026-01-16 05:59:25.14	347.68	21.83	-45.3	-47.8	15.2	0.00e+00	0	33	0	790626304	56	4924
2026-01-16 05:59:28.16	346.95	21.66	-45.5	-48.1	15.1	0.00e+00	0	33	0	795869184	56	5084
2026-01-16 05:59:31.19	346.22	21.50	-46.0	-49.0	14.6	0.00e+00	0	33	0	802160640	57	5322
2026-01-16 05:59:34.22	345.50	21.33	-45.3	-47.9	15.2	0.00e+00	0	33	0	807403520	56	4946
2026-01-16 05:59:37.25	344.78	21.15	-45.4	-48.0	15.1	0.00e+00	0	33	0	812646400	56	5040
2026-01-16 05:59:40.28	344.08	20.97	-46.5	-50.1	13.9	0.00e+00	0	33	0	818937856	58	5717
2026-01-16 05:59:43.30	343.38	20.79	-46.1	-49.4	14.3	0.00e+00	0	33	0	824180736	58	5268
2026-01-16 05:59:46.33	342.70	20.61	-45.3	-48.1	15.1	0.00e+00	0	33	0	830472192	56	5051
2026-01-16 05:59:49.36	342.02	20.42	-44.7	-47.1	15.6	0.00e+00	0	33	0	835715072	56	4524
2026-01-16 05:59:52.38	341.35	20.23	-44.4	-46.8	15.6	0.00e+00	0	33	0	840957952	55	4616
2026-01-16 05:59:55.41	340.68	20.04	-44.1	-46.2	15.8	0.00e+00	0	33	0	847249408	54	4587
2026-01-16 05:59:58.44	340.03	19.84	-43.6	-45.6	16.1	0.00e+00	0	33	0	852492288	53	4509
2026-01-16 06:00:01.47	339.38	19.64	-43.4	-45.3	16.1	0.00e+00	0	33	0	858783744	53	4385
2026-01-16 06:00:04.50	338.74	19.45	-44.2	-46.5	15.6	0.00e+00	0	33	0	864026624	53	5023
2026-01-16 06:00:07.53	338.12	19.24	-44.8	-47.4	15.2	0.00e+00	0	33	0	870318080	55	4950
2026-01-16 06:00:10.55	337.50	19.04	-45.3	-48.2	14.8	0.00e+00	0	33	0	875560960	55	5434
2026-01-16 06:00:13.58	336.88	18.83	-44.8	-47.4	15.3	0.00e+00	0	33	0	880803840	55	4957
2026-01-16 06:00:16.61	336.28	18.63	-44.3	-46.7	15.6	0.00e+00	0	33	0	887095296	55	4559
2026-01-16 06:00:19.63	335.69	18.42	-43.9	-46.1	15.9	0.00e+00	0	33	0	892338176	54	4504
2026-01-16 06:00:22.66	335.10	18.21	-43.7	-45.8	16.0	0.00e+00	0	33	0	898629632	53	4639
2026-01-16 06:00:25.68	334.52	18.00	-44.6	-47.0	15.5	0.00e+00	0	33	0	903872512	54	5008
2026-01-16 06:00:28.71	333.95	17.78	-44.2	-46.4	15.8	0.00e+00	0	33	0	909115392	54	4702
2026-01-16 06:00:31.74	333.39	17.57	-44.4	-46.7	15.6	0.00e+00	0	33	0	915406848	54	4844
2026-01-16 06:00:34.77	332.83	17.36	-44.9	-47.3	15.4	0.00e+00	0	33	0	920649728	54	5217
2026-01-16 06:00:37.80	332.28	17.14	-44.5	-46.8	15.7	0.00e+00	0	33	0	926941184	54	4908
2026-01-16 06:00:40.82	331.75	16.92	-44.4	-46.6	15.7	0.00e+00	0	33	0	932184064	54	4803
2026-01-16 06:00:43.85	331.22	16.71	-44.1	-46.2	15.9	0.00e+00	0	33	0	938475520	54	4558
2026-01-16 06:00:46.88	330.69	16.49	-44.3	-46.4	15.8	0.00e+00	0	33	0	943718400	54	4704
2026-01-16 06:00:49.90	330.18	16.27	-44.5	-46.6	15.8	0.00e+00	0	33	0	948961280	54	4802
2026-01-16 06:00:52.93	329.67	16.05	-43.8	-45.7	16.2	0.00e+00	0	33	0	955252736	54	4323
2026-01-16 06:00:55.96	329.17	15.84	-43.6	-45.4	16.3	0.00e+00	0	33	0	960495616	53	4436
2026-01-16 06:00:58.99	328.67	15.62	-43.9	-45.8	16.1	0.00e+00	0	33	0	966787072	53	4625
2026-01-16 06:01:02.02	328.19	15.40	-44.1	-46.1	16.0	0.00e+00	0	33	0	972029952	53	4801
2026-01-16 06:01:05.05	327.71	15.18	-44.3	-46.4	15.8	0.00e+00	0	33	0	977272832	53	4967
2026-01-16 06:01:08.07	327.24	14.96	-43.9	-45.8	16.1	0.00e+00	0	33	0	983564288	53	4648
2026-01-16 06:01:11.10	326.77	14.74	-43.6	-45.5	16.2	0.00e+00	0	33	0	988807168	53	4461
2026-01-16 06:01:14.13	326.32	14.52	-44.2	-46.3	15.8	0.00e+00	0	33	0	995098624	53	4901
2026-01-16 06:01:17.16	325.87	14.30	-44.7	-47.0	15.6	0.00e+00	0	33	0	1000341504	54	4997
2026-01-16 06:01:20.18	325.42	14.08	-44.7	-46.9	15.6	0.00e+00	0	33	0	1006632960	55	4700
2026-01-16 06:01:23.21	324.98	13.86	-44.5	-46.6	15.8	0.00e+00	0	33	0	1011875840	55	4510
2026-01-16 06:01:26.24	324.55	13.65	-44.4	-46.5	15.9	0.00e+00	0	33	0	1017118720	55	4452
2026-01-16 06:01:29.27	324.13	13.43	-44.1	-46.1	16.0	0.00e+00	0	33	0	1023410176	54	4540
2026-01-16 06:01:32.29	323.71	13.21	-44.6	-46.8	15.7	0.00e+00	0	33	0	1028653056	54	4881
2026-01-16 06:01:35.32	323.30	12.99	-45.3	-47.8	15.2	0.00e+00	0	33	0	1034944512	55	5202
2026-01-16 06:01:38.35	322.89	12.78	-45.8	-48.4	15.0	0.00e+00	0	33	0	1040187392	56	5223
2026-01-16 06:01:41.38	322.49	12.56	-45.2	-47.5	15.4	0.00e+00	0	33	0	1045430272	56	4729
2026-01-16 06:01:44.40	322.10	12.35	-45.0	-47.2	15.6	0.00e+00	0	33	0	1051721728	56	4585
2026-01-16 06:01:47.43	321.71	12.13	-45.0	-47.3	15.5	0.00e+00	0	34	0	1056964608	56	4613
2026-01-16 06:01:50.46	321.33	11.92	-44.8	-47.0	15.6	0.00e+00	0	33	0	1063256064	56	4477
2026-01-16 06:01:53.49	320.95	11.70	-44.8	-46.9	15.7	0.00e+00	0	33	0	1068498944	56	4430
2026-01-16 06:01:56.51	320.58	11.49	-44.8	-47.0	15.5	0.00e+00	0	33	0	1073741824	55	4724
2026-01-16 06:01:59.54	320.22	11.28	-45.2	-47.6	15.2	0.00e+00	0	33	0	1080033280	55	5082
2026-01-16 06:02:02.57	319.86	11.07	-45.3	-47.8	15.1	0.00e+00	0	33	0	1085276160	55	5193
2026-01-16 06:02:05.60	319.50	10.85	-45.5	-48.1	15.1	0.00e+00	0	33	0	1091567616	56	5079
2026-01-16 06:02:08.62	319.15	10.65	-45.8	-48.5	14.9	0.00e+00	0	33	0	1096810496	56	5284
2026-01-16 06:02:11.65	318.81	10.44	-46.1	-48.9	14.6	0.00e+00	0	33	0	1103101952	57	5270
2026-01-16 06:02:14.68	318.47	10.23	-46.1	-49.0	14.6	0.00e+00	0	33	0	1108344832	57	5310
2026-01-16 06:02:17.70	318.14	10.02	-45.8	-48.5	14.9	0.00e+00	0	33	0	1113587712	57	5008
2026-01-16 06:02:20.73	317.81	9.81	-45.4	-47.9	15.2	0.00e+00	0	33	0	1119879168	57	4679
2026-01-16 06:02:23.76	317.48	9.61	-45.3	-47.7	15.2	0.00e+00	0	33	0	1125122048	57	4591
2026-01-16 06:02:26.79	317.16	9.40	-45.6	-48.2	15.0	0.00e+00	0	33	0	1131413504	57	4820
2026-01-16 06:02:29.81	316.85	9.20	-46.0	-48.7	14.7	0.00e+00	0	33	0	1136656384	57	5131
2026-01-16 06:02:32.84	316.54	8.99	-46.0	-48.8	14.6	0.00e+00	0	33	0	1141899264	57	5200
2026-01-16 06:02:35.87	316.23	8.79	-46.0	-48.8	14.7	0.00e+00	0	33	0	1148190720	57	5164
2026-01-16 06:02:38.90	315.93	8.59	-45.8	-48.5	14.8	0.00e+00	0	33	0	1153433600	57	4987
2026-01-16 06:02:41.93	315.63	8.38	-45.9	-48.6	14.7	0.00e+00	0	33	0	1159725056	57	5090
2026-01-16 06:02:44.96	315.33	8.18	-46.0	-48.8	14.7	0.00e+00	0	33	0	1164967936	57	5171
2026-01-16 06:02:47.98	315.05	7.98	-46.2	-49.2	14.4	0.00e+00	0	33	0	1170210816	57	5407
2026-01-16 06:02:51.01	314.76	7.79	-46.7	-49.9	13.9	0.00e+00	0	33	0	1176502272	58	5592
2026-01-16 06:02:54.04	314.48	7.59	-46.9	-50.3	13.7	0.00e+00	0	33	0	1181745152	59	5489
2026-01-16 06:02:57.07	314.20	7.39	-47.0	-50.6	13.5	0.00e+00	0	33	0	1188036608	59	5682
2026-01-16 06:03:00.10	313.93	7.19	-47.1	-50.8	13.3	0.00e+00	0	33	0	1193279488	59	5833
2026-01-16 06:03:03.12	313.66	7.00	-47.1	-50.8	13.3	0.00e+00	0	33	0	1198522368	59	5827
2026-01-16 06:03:06.15	313.39	6.80	-47.1	-50.7	13.3	0.00e+00	0	33	0	1204813824	59	5748
2026-01-16 06:03:09.18	313.13	6.61	-47.0	-50.5	13.4	0.00e+00	0	33	0	1210056704	59	5646
2026-01-16 06:03:12.21	312.87	6.42	-47.0	-50.6	13.4	0.00e+00	0	33	0	1216348160	59	5683
2026-01-16 06:03:15.24	312.61	6.23	-47.0	-50.7	13.3	7.00e-07	0	33	0	1221591040	59	5730
2026-01-16 06:03:18.26	312.36	6.04	-47.3	-51.1	13.0	0.00e+00	0	34	0	1227882496	59	6048
2026-01-16 06:03:21.29	312.11	5.85	-47.3	-51.2	12.9	7.00e-07	0	33	0	1233125376	59	6096
2026-01-16 06:03:24.32	311.87	5.66	-47.1	-50.9	12.9	0.00e+00	0	34	0	1238368256	60	5557
2026-01-16 06:03:27.35	311.63	5.47	-47.2	-51.0	13.0	7.00e-07	0	33	0	1244659712	59	5944
2026-01-16 06:03:30.38	311.39	5.28	-46.8	-50.3	13.4	0.00e+00	0	33	0	1249902592	59	5518
2026-01-16 06:03:33.41	311.15	5.09	-46.2	-49.3	14.2	0.00e+00	0	33	0	1256194048	58	5162
2026-01-16 06:03:36.43	310.92	4.91	-50.7	-66.9	3.8	1.49e+00	0	33	104	1258291200	66	24807
2026-01-16 06:03:39.46	310.69	4.72	-51.3	-67.5	3.8	1.49e+00	0	34	104	1258291200	67	25050
2026-01-16 06:03:42.49	310.47	4.54	-51.7	-67.9	3.8	1.49e+00	0	34	104	1258291200	68	24974
2026-01-16 06:03:45.51	310.24	4.36	-51.9	-68.1	3.8	1.49e+00	0	34	104	1258291200	68	25489
2026-01-16 06:03:48.54	310.02	4.17	-52.0	-68.3	3.8	1.49e+00	0	34	104	1258291200	69	24449
2026-01-16 06:03:51.57	309.80	3.99	-52.0	-68.3	3.8	1.49e+00	0	34	104	1258291200	69	24474
2026-01-16 06:03:54.59	309.59	3.81	-52.0	-68.3	3.8	1.49e+00	0	34	104	1258291200	69	24515
2026-01-16 06:03:57.61	309.38	3.63	-52.0	-68.2	3.8	1.49e+00	0	33	104	1258291200	69	24294
2026-01-16 06:04:00.64	309.17	3.45	-51.9	-68.1	3.8	1.49e+00	0	33	104	1258291200	69	24121
2026-01-16 06:04:03.66	308.96	3.27	-51.9	-68.1	3.8	1.49e+00	0	33	104	1258291200	69	24016
2026-01-16 06:04:06.69	308.76	3.10	-51.8	-68.1	3.8	1.49e+00	0	34	104	1258291200	69	23937
2026-01-16 06:04:09.71	308.56	2.92	-51.9	-68.1	3.8	1.49e+00	0	34	104	1258291200	69	24033
2026-01-16 06:04:12.74	308.36	2.74	-51.8	-68.0	3.8	1.49e+00	0	34	104	1258291200	69	23745
2026-01-16 06:04:15.76	308.16	2.57	-51.8	-68.0	3.8	1.49e+00	0	34	104	1258291200	69	23744
2026-01-16 06:04:18.79	307.97	2.39	-51.8	-68.0	3.8	1.49e+00	0	34	104	1258291200	69	23725
2026-01-16 06:04:21.82	307.78	2.22	-51.8	-68.0	3.8	1.49e+00	0	34	104	1258291200	69	23691
2026-01-16 06:04:24.84	307.59	2.05	-51.7	-68.0	3.8	1.49e+00	0	34	104	1258291200	69	23644

#Closed at: 2026-01-16 06:04:27
#Recorded file [1258 MB]: D:/lorett/data/31004_260116_085141.dat