passes_logs/2026/01/16/R3.2S_Murmansk_2ch/R3.2S_Murmansk_2ch__20260116_061157_NOAA_20_JPSS-1_rec.log

#Pass ID: 20260116_061157_NOAA 20 (JPSS-1)
#Satellite: NOAA 20 (JPSS-1)
#Configuration: NOAA 20
#almurnet v.1.7.20251203
#Start time: 2026-01-16 06:11:57

#Version: 2.2.20231116
#Station: R3.2S_Murmansk_2ch
#Location: 33.079688 lon 68.888172 lat
#TLE: 1 43013U 17073A   26015.89389188  .00000026  00000+0  33113-4 0  9999
#TLE: 2 43013  98.7636 316.8238 0001460  37.8997 322.2282 14.19536128422860

#Time	Az	El	Level	Level2	SNR	BER	BlckErr	Temp	State	Recorded	gain1	gain2
2026-01-16 06:11:57.74	79.38	2.03	-49.8	-65.9	3.8	1.49e+00	0	31	0	0	66	22178
2026-01-16 06:12:01.78	79.13	2.26	-49.8	-65.9	3.8	1.49e+00	0	31	104	0	64	24853
2026-01-16 06:12:05.81	78.89	2.50	-49.8	-65.9	3.8	1.49e+00	0	31	104	0	64	24860
2026-01-16 06:12:09.85	78.64	2.73	-49.7	-65.9	3.8	1.49e+00	0	32	104	0	64	24844
2026-01-16 06:12:13.89	78.38	2.97	-49.8	-65.9	3.8	1.49e+00	0	32	104	0	64	24875
2026-01-16 06:12:17.93	78.12	3.21	-49.8	-65.9	3.8	1.49e+00	0	32	104	0	64	24902
2026-01-16 06:12:21.96	77.86	3.45	-49.8	-65.9	3.8	1.49e+00	0	32	104	0	64	24899
2026-01-16 06:12:26.00	77.59	3.69	-49.8	-65.9	3.8	1.49e+00	0	32	104	0	64	24749
2026-01-16 06:12:30.03	77.32	3.94	-49.8	-65.9	3.8	1.49e+00	0	32	104	0	64	24821
2026-01-16 06:12:34.07	77.04	4.18	-49.7	-64.7	3.8	1.49e+00	0	32	104	0	64	21735
2026-01-16 06:12:38.11	76.75	4.43	-49.6	-62.4	4.2	1.40e+00	0	32	0	0	64	16553
2026-01-16 06:12:42.14	76.47	4.68	-49.1	-57.8	6.6	2.03e-01	0	32	0	6291456	64	9746
2026-01-16 06:12:46.18	76.17	4.93	-48.8	-56.1	8.1	5.37e-02	0	32	0	13631488	64	8052
2026-01-16 06:12:50.21	75.88	5.18	-48.9	-55.7	8.5	4.10e-02	0	33	0	22020096	63	8169
2026-01-16 06:12:54.24	75.57	5.44	-47.2	-50.9	12.8	1.14e-02	0	33	0	29360128	61	5273
2026-01-16 06:12:58.28	75.26	5.69	-47.3	-51.0	13.0	1.50e-06	0	32	0	36700160	59	5924
2026-01-16 06:13:02.32	74.95	5.95	-47.4	-51.1	13.0	0.00e+00	0	33	0	44040192	59	6024
2026-01-16 06:13:06.35	74.63	6.21	-46.8	-50.1	13.4	7.00e-07	0	33	0	52428800	60	5089
2026-01-16 06:13:10.39	74.30	6.47	-46.9	-50.3	13.3	0.00e+00	0	33	0	59768832	60	5196
2026-01-16 06:13:14.43	73.96	6.73	-46.8	-50.1	13.5	0.00e+00	0	33	0	67108864	60	5070
2026-01-16 06:13:18.46	73.62	6.99	-47.1	-50.5	13.3	0.00e+00	0	33	0	74448896	60	5303
2026-01-16 06:13:22.50	73.28	7.26	-46.9	-50.2	13.5	0.00e+00	0	33	0	81788928	60	5106
2026-01-16 06:13:26.53	72.93	7.53	-46.8	-49.9	13.7	0.00e+00	0	33	0	90177536	60	4980
2026-01-16 06:13:30.57	72.57	7.80	-46.9	-50.1	13.6	0.00e+00	0	33	0	97517568	60	5089
2026-01-16 06:13:34.60	72.20	8.07	-47.0	-50.1	13.8	0.00e+00	0	33	0	104857600	59	5395
2026-01-16 06:13:38.64	71.83	8.34	-47.0	-50.2	13.8	0.00e+00	0	33	0	112197632	59	5443
2026-01-16 06:13:42.67	71.45	8.61	-47.0	-50.2	13.8	0.00e+00	0	33	0	119537664	59	5445
2026-01-16 06:13:46.71	71.06	8.89	-47.0	-50.2	13.8	0.00e+00	0	33	0	127926272	59	5438
2026-01-16 06:13:50.75	70.66	9.17	-47.0	-50.2	13.9	0.00e+00	0	33	0	135266304	59	5430
2026-01-16 06:13:54.79	70.26	9.45	-46.9	-49.9	14.1	0.00e+00	0	33	0	142606336	59	5267
2026-01-16 06:13:58.82	69.84	9.73	-46.8	-49.7	14.2	0.00e+00	0	33	0	149946368	59	5104
2026-01-16 06:14:02.86	69.42	10.01	-46.6	-49.4	14.4	0.00e+00	0	33	0	158334976	59	4969
2026-01-16 06:14:06.89	69.00	10.30	-46.6	-49.4	14.4	0.00e+00	0	33	0	165675008	59	4980
2026-01-16 06:14:10.93	68.56	10.58	-46.5	-49.2	14.5	0.00e+00	0	33	0	173015040	59	4858
2026-01-16 06:14:14.97	68.11	10.87	-46.6	-49.4	14.4	0.00e+00	0	33	0	180355072	59	4976
2026-01-16 06:14:19.00	67.66	11.16	-46.7	-49.5	14.4	0.00e+00	0	33	0	187695104	59	5013
2026-01-16 06:14:23.04	67.19	11.45	-46.7	-49.6	14.4	0.00e+00	0	33	0	196083712	59	5046
2026-01-16 06:14:27.07	66.72	11.75	-46.7	-49.4	14.5	0.00e+00	0	33	0	203423744	59	4972
2026-01-16 06:14:31.11	66.23	12.04	-46.6	-49.3	14.6	0.00e+00	0	33	0	210763776	59	4877
2026-01-16 06:14:35.14	65.74	12.34	-46.5	-49.1	14.7	0.00e+00	0	33	0	218103808	59	4814
2026-01-16 06:14:39.17	65.23	12.63	-46.4	-49.0	14.8	0.00e+00	0	33	0	225443840	59	4736
2026-01-16 06:14:43.21	64.72	12.93	-46.4	-48.9	14.8	0.00e+00	0	33	0	233832448	59	4697
2026-01-16 06:14:47.25	64.19	13.23	-46.2	-48.7	15.0	0.00e+00	0	33	0	241172480	59	4557
2026-01-16 06:14:51.29	63.66	13.53	-46.4	-48.9	14.8	0.00e+00	0	33	0	248512512	58	4964
2026-01-16 06:14:55.32	63.11	13.84	-46.4	-48.9	14.8	0.00e+00	0	33	0	255852544	58	4964
2026-01-16 06:14:59.36	62.55	14.14	-46.1	-48.5	15.1	0.00e+00	0	33	0	264241152	58	4723
2026-01-16 06:15:03.39	61.98	14.44	-46.1	-48.6	15.1	0.00e+00	0	33	0	271581184	58	4761
2026-01-16 06:15:07.42	61.39	14.75	-46.0	-48.4	15.2	0.00e+00	0	33	0	278921216	58	4675
2026-01-16 06:15:11.46	60.80	15.05	-45.8	-48.1	15.3	0.00e+00	0	33	0	286261248	58	4521
2026-01-16 06:15:15.50	60.19	15.36	-45.9	-48.3	15.2	0.00e+00	0	33	0	293601280	58	4612
2026-01-16 06:15:19.54	59.57	15.67	-46.0	-48.4	15.2	0.00e+00	0	33	0	301989888	58	4689
2026-01-16 06:15:23.57	58.93	15.98	-46.1	-48.5	15.1	0.00e+00	0	33	0	309329920	58	4758
2026-01-16 06:15:27.61	58.28	16.28	-46.1	-48.5	15.1	0.00e+00	0	33	0	316669952	58	4727
2026-01-16 06:15:31.65	57.62	16.59	-46.2	-48.6	15.1	0.00e+00	0	33	0	324009984	58	4786
2026-01-16 06:15:35.69	56.94	16.90	-46.3	-48.8	15.0	0.00e+00	0	33	0	332398592	58	4876
2026-01-16 06:15:39.72	56.26	17.21	-46.2	-48.6	15.1	0.00e+00	0	33	0	339738624	58	4806
2026-01-16 06:15:43.76	55.55	17.51	-46.4	-48.8	15.0	0.00e+00	0	33	0	347078656	58	4918
2026-01-16 06:15:47.79	54.83	17.82	-46.4	-49.0	14.9	0.00e+00	0	33	0	354418688	58	4988
2026-01-16 06:15:51.83	54.10	18.12	-46.3	-48.7	15.1	0.00e+00	0	33	0	361758720	58	4862
2026-01-16 06:15:55.87	53.35	18.43	-46.3	-48.7	15.1	0.00e+00	0	33	0	370147328	58	4864
2026-01-16 06:15:59.90	52.59	18.73	-46.1	-48.4	15.3	0.00e+00	0	33	0	377487360	58	4675
2026-01-16 06:16:03.94	51.81	19.03	-46.0	-48.3	15.3	0.00e+00	0	33	0	384827392	58	4649
2026-01-16 06:16:07.97	51.01	19.33	-45.8	-48.0	15.5	0.00e+00	0	33	0	392167424	58	4455
2026-01-16 06:16:12.01	50.20	19.62	-45.5	-47.6	15.6	0.00e+00	0	33	0	399507456	57	4523
2026-01-16 06:16:16.04	49.38	19.92	-45.0	-47.0	15.9	0.00e+00	0	33	0	407896064	56	4463
2026-01-16 06:16:20.09	48.53	20.21	-44.4	-46.2	16.2	0.00e+00	0	33	0	415236096	55	4338
2026-01-16 06:16:24.12	47.67	20.50	-44.3	-46.1	16.2	0.00e+00	0	33	0	422576128	55	4266
2026-01-16 06:16:28.15	46.80	20.78	-44.4	-46.2	16.2	0.00e+00	0	33	0	429916160	55	4305
2026-01-16 06:16:32.19	45.91	21.06	-44.2	-46.0	16.3	0.00e+00	0	33	0	438304768	55	4228
2026-01-16 06:16:36.22	45.00	21.33	-44.1	-45.8	16.3	0.00e+00	0	33	0	445644800	54	4370
2026-01-16 06:16:40.26	44.08	21.60	-44.1	-45.8	16.3	0.00e+00	0	33	0	452984832	54	4389
2026-01-16 06:16:44.29	43.14	21.87	-44.0	-45.7	16.4	0.00e+00	0	33	0	460324864	54	4338
2026-01-16 06:16:48.33	42.18	22.13	-44.2	-46.0	16.3	0.00e+00	0	33	0	467664896	54	4443
2026-01-16 06:16:52.37	41.21	22.38	-44.3	-46.1	16.3	0.00e+00	0	33	0	476053504	54	4510
2026-01-16 06:16:56.41	40.22	22.62	-44.4	-46.2	16.2	0.00e+00	0	33	0	483393536	54	4548
2026-01-16 06:17:00.44	39.22	22.86	-44.2	-45.9	16.3	0.00e+00	0	33	0	490733568	54	4427
2026-01-16 06:17:04.47	38.20	23.09	-44.1	-45.8	16.4	0.00e+00	0	33	0	498073600	54	4354
2026-01-16 06:17:08.51	37.16	23.32	-44.1	-45.9	16.4	0.00e+00	0	33	0	506462208	54	4413
2026-01-16 06:17:12.55	36.11	23.53	-44.0	-45.7	16.4	0.00e+00	0	33	0	513802240	54	4305
2026-01-16 06:17:16.58	35.05	23.74	-43.8	-45.5	16.5	0.00e+00	0	33	0	521142272	54	4226
2026-01-16 06:17:20.62	33.97	23.94	-43.7	-45.4	16.5	0.00e+00	0	33	0	528482304	53	4412
2026-01-16 06:17:24.65	32.88	24.12	-44.1	-45.8	16.3	0.00e+00	0	33	0	535822336	53	4634
2026-01-16 06:17:28.69	31.78	24.30	-44.2	-45.9	16.3	0.00e+00	0	33	0	544210944	53	4692
2026-01-16 06:17:32.73	30.66	24.47	-44.3	-46.1	16.2	0.00e+00	0	33	0	551550976	53	4804
2026-01-16 06:17:36.76	29.54	24.62	-44.8	-46.7	16.0	0.00e+00	0	33	0	558891008	54	4851
2026-01-16 06:17:40.80	28.40	24.77	-45.2	-47.3	15.8	0.00e+00	0	33	0	566231040	55	4875
2026-01-16 06:17:44.84	27.25	24.90	-45.2	-47.3	15.8	0.00e+00	0	33	0	574619648	55	4890
2026-01-16 06:17:48.87	26.10	25.02	-45.6	-47.7	15.7	0.00e+00	0	33	0	581959680	56	4862
2026-01-16 06:17:52.91	24.93	25.13	-45.7	-47.9	15.6	0.00e+00	0	33	0	589299712	56	4948
2026-01-16 06:17:56.95	23.75	25.22	-45.8	-48.0	15.6	0.00e+00	0	33	0	596639744	56	5008
2026-01-16 06:18:00.99	22.57	25.31	-46.0	-48.2	15.5	0.00e+00	0	33	0	603979776	57	4825
2026-01-16 06:18:05.02	21.39	25.38	-45.9	-48.0	15.5	0.00e+00	0	33	0	612368384	57	4753
2026-01-16 06:18:09.06	20.20	25.43	-45.9	-48.1	15.5	0.00e+00	0	33	0	619708416	57	4770
2026-01-16 06:18:13.09	19.01	25.47	-46.0	-48.3	15.4	0.00e+00	0	33	0	627048448	57	4896
2026-01-16 06:18:17.13	17.81	25.50	-45.9	-48.0	15.6	0.00e+00	0	33	0	634388480	57	4756
2026-01-16 06:18:21.17	16.61	25.52	-45.6	-47.7	15.7	0.00e+00	0	33	0	641728512	57	4587
2026-01-16 06:18:25.21	15.41	25.52	-45.4	-47.4	15.9	0.00e+00	0	33	0	650117120	57	4416
2026-01-16 06:18:29.25	14.21	25.51	-45.0	-46.9	16.1	0.00e+00	0	33	0	657457152	56	4415
2026-01-16 06:18:33.28	13.01	25.48	-44.5	-46.3	16.2	0.00e+00	0	33	0	664797184	55	4374
2026-01-16 06:18:37.32	11.82	25.44	-44.2	-45.9	16.4	0.00e+00	0	33	0	672137216	55	4182
2026-01-16 06:18:41.35	10.63	25.39	-43.9	-45.6	16.5	0.00e+00	0	33	0	680525824	54	4279
2026-01-16 06:18:45.39	9.44	25.32	-43.7	-45.4	16.5	0.00e+00	0	33	0	687865856	53	4402
2026-01-16 06:18:49.42	8.26	25.24	-43.7	-45.4	16.6	0.00e+00	0	33	0	695205888	53	4400
2026-01-16 06:18:53.46	7.09	25.15	-43.6	-45.2	16.6	0.00e+00	0	33	0	702545920	53	4330
2026-01-16 06:18:57.50	5.92	25.04	-43.9	-45.6	16.4	0.00e+00	0	33	0	709885952	53	4525
2026-01-16 06:19:01.53	4.76	24.92	-44.0	-45.8	16.4	0.00e+00	0	33	0	718274560	53	4615
2026-01-16 06:19:05.57	3.61	24.79	-44.1	-45.8	16.4	0.00e+00	0	33	0	725614592	53	4624
2026-01-16 06:19:09.60	2.48	24.65	-44.4	-46.1	16.3	0.00e+00	0	33	0	732954624	54	4536
2026-01-16 06:19:13.64	1.35	24.50	-44.5	-46.3	16.2	0.00e+00	0	33	0	740294656	54	4624
2026-01-16 06:19:17.68	0.23	24.33	-44.7	-46.6	16.1	0.00e+00	0	33	0	747634688	54	4777
2026-01-16 06:19:21.71	359.13	24.16	-45.1	-47.1	15.9	0.00e+00	0	33	0	756023296	55	4794
2026-01-16 06:19:25.75	358.03	23.97	-45.2	-47.3	15.8	0.00e+00	0	33	0	763363328	55	4875
2026-01-16 06:19:29.79	356.95	23.78	-45.6	-47.7	15.7	0.00e+00	0	33	0	770703360	56	4830
2026-01-16 06:19:33.83	355.89	23.58	-46.0	-48.2	15.5	0.00e+00	0	33	0	778043392	57	4824
2026-01-16 06:19:37.86	354.84	23.36	-45.7	-47.9	15.6	0.00e+00	0	33	0	786432000	57	4655
2026-01-16 06:19:41.90	353.80	23.14	-45.5	-47.6	15.7	0.00e+00	0	33	0	793772032	57	4511
2026-01-16 06:19:45.93	352.78	22.91	-46.0	-48.3	15.4	0.00e+00	0	33	0	801112064	57	4877
2026-01-16 06:19:49.97	351.77	22.67	-45.7	-47.8	15.7	0.00e+00	0	33	0	808452096	57	4642
2026-01-16 06:19:54.01	350.78	22.43	-45.7	-47.9	15.6	0.00e+00	0	33	0	815792128	57	4672
2026-01-16 06:19:58.05	349.81	22.18	-45.6	-47.7	15.7	0.00e+00	0	33	0	824180736	57	4570
2026-01-16 06:20:02.09	348.85	21.92	-45.3	-47.2	15.9	0.00e+00	0	34	0	831520768	57	4339
2026-01-16 06:20:06.12	347.91	21.66	-45.1	-47.1	16.0	0.00e+00	0	33	0	838860800	56	4508
2026-01-16 06:20:10.16	346.98	21.39	-45.0	-46.9	16.0	0.00e+00	0	33	0	846200832	56	4401
2026-01-16 06:20:14.19	346.07	21.12	-44.9	-46.8	16.1	0.00e+00	0	34	0	854589440	56	4345
2026-01-16 06:20:18.23	345.18	20.84	-44.9	-46.8	16.1	0.00e+00	0	33	0	861929472	56	4365
2026-01-16 06:20:22.27	344.30	20.56	-44.8	-46.7	16.2	0.00e+00	0	33	0	869269504	56	4330
2026-01-16 06:20:26.31	343.44	20.27	-45.1	-47.1	16.0	0.00e+00	0	33	0	876609536	56	4495
2026-01-16 06:20:30.34	342.60	19.98	-45.0	-46.9	16.0	0.00e+00	0	33	0	883949568	56	4402
2026-01-16 06:20:34.38	341.77	19.69	-44.8	-46.6	16.2	0.00e+00	0	33	0	892338176	56	4269
2026-01-16 06:20:38.42	340.95	19.39	-44.4	-46.2	16.3	0.00e+00	0	34	0	899678208	55	4306
2026-01-16 06:20:42.45	340.16	19.10	-44.4	-46.2	16.2	0.00e+00	0	34	0	907018240	55	4302
2026-01-16 06:20:46.49	339.38	18.80	-44.2	-46.0	16.3	0.00e+00	0	33	0	914358272	55	4222
2026-01-16 06:20:50.52	338.61	18.49	-44.0	-45.7	16.4	0.00e+00	0	34	0	921698304	54	4326
2026-01-16 06:20:54.56	337.86	18.19	-43.9	-45.6	16.5	0.00e+00	0	33	0	930086912	54	4273
2026-01-16 06:20:58.60	337.13	17.89	-44.0	-45.8	16.4	0.00e+00	0	33	0	937426944	54	4341
2026-01-16 06:21:02.63	336.41	17.58	-43.8	-45.5	16.5	0.00e+00	0	33	0	944766976	54	4212
2026-01-16 06:21:06.67	335.70	17.28	-43.8	-45.5	16.5	0.00e+00	0	33	0	952107008	54	4213
2026-01-16 06:21:10.71	335.01	16.97	-44.1	-45.8	16.4	0.00e+00	0	34	0	960495616	54	4371
2026-01-16 06:21:14.75	334.33	16.66	-44.0	-45.7	16.4	0.00e+00	0	33	0	967835648	54	4313
2026-01-16 06:21:18.78	333.67	16.35	-44.0	-45.8	16.4	0.00e+00	0	33	0	975175680	54	4364
2026-01-16 06:21:22.82	333.02	16.05	-44.0	-45.8	16.4	0.00e+00	0	33	0	982515712	54	4356
2026-01-16 06:21:26.85	332.38	15.74	-44.4	-46.2	16.2	0.00e+00	0	33	0	989855744	54	4572
2026-01-16 06:21:30.89	331.76	15.43	-44.7	-46.7	16.0	0.00e+00	0	33	0	998244352	54	4831
2026-01-16 06:21:34.93	331.15	15.13	-44.9	-46.9	15.9	0.00e+00	0	33	0	1005584384	55	4656
2026-01-16 06:21:38.97	330.55	14.82	-44.8	-46.7	16.0	0.00e+00	0	33	0	1012924416	55	4571
2026-01-16 06:21:43.00	329.97	14.52	-44.9	-46.9	15.9	0.00e+00	0	34	0	1020264448	55	4660
2026-01-16 06:21:47.04	329.39	14.21	-45.1	-47.2	15.7	0.00e+00	0	34	0	1028653056	55	4819
2026-01-16 06:21:51.07	328.83	13.91	-45.1	-47.1	15.8	0.00e+00	0	33	0	1035993088	55	4811
2026-01-16 06:21:55.11	328.29	13.61	-45.1	-47.2	15.7	0.00e+00	0	34	0	1043333120	55	4844
2026-01-16 06:21:59.15	327.75	13.31	-45.4	-47.5	15.6	0.00e+00	0	33	0	1050673152	55	5016
2026-01-16 06:22:03.19	327.22	13.01	-45.4	-47.5	15.6	0.00e+00	0	33	0	1058013184	55	5037
2026-01-16 06:22:07.22	326.70	12.71	-45.6	-47.8	15.5	0.00e+00	0	33	0	1066401792	56	4916
2026-01-16 06:22:11.26	326.20	12.41	-45.8	-48.0	15.4	0.00e+00	0	34	0	1073741824	56	5033
2026-01-16 06:22:15.30	325.70	12.11	-45.7	-48.0	15.5	0.00e+00	0	33	0	1081081856	56	4999
2026-01-16 06:22:19.33	325.22	11.82	-45.7	-48.0	15.4	0.00e+00	0	33	0	1088421888	56	5011
2026-01-16 06:22:23.37	324.74	11.53	-45.9	-48.3	15.3	0.00e+00	0	33	0	1095761920	57	4889
2026-01-16 06:22:27.41	324.28	11.24	-46.1	-48.6	15.1	0.00e+00	0	34	0	1104150528	57	5058
2026-01-16 06:22:31.44	323.82	10.95	-46.3	-48.8	15.0	0.00e+00	0	33	0	1111490560	57	5205
2026-01-16 06:22:35.48	323.37	10.66	-46.4	-49.0	14.9	0.00e+00	0	34	0	1118830592	58	5024
2026-01-16 06:22:39.52	322.94	10.37	-46.5	-49.2	14.8	0.00e+00	0	34	0	1126170624	58	5135
2026-01-16 06:22:43.55	322.51	10.09	-46.7	-49.4	14.6	0.00e+00	0	34	0	1134559232	58	5251
2026-01-16 06:22:47.59	322.09	9.80	-46.7	-49.4	14.6	0.00e+00	0	34	0	1141899264	58	5262
2026-01-16 06:22:51.63	321.67	9.52	-46.7	-49.4	14.6	0.00e+00	0	33	0	1149239296	58	5270
2026-01-16 06:22:55.67	321.27	9.24	-46.6	-49.3	14.7	0.00e+00	0	33	0	1156579328	58	5183
2026-01-16 06:22:59.70	320.87	8.96	-46.6	-49.4	14.6	0.00e+00	0	34	0	1163919360	58	5238
2026-01-16 06:23:03.73	320.48	8.69	-46.8	-49.7	14.4	0.00e+00	0	33	0	1172307968	58	5403
2026-01-16 06:23:07.77	320.10	8.41	-46.9	-49.8	14.3	0.00e+00	0	34	0	1179648000	58	5471
2026-01-16 06:23:11.81	319.73	8.14	-47.0	-50.0	14.2	0.00e+00	0	34	0	1186988032	59	5288
2026-01-16 06:23:15.84	319.36	7.87	-47.1	-50.3	14.0	0.00e+00	0	34	0	1194328064	59	5476
2026-01-16 06:23:19.88	319.00	7.60	-47.2	-50.4	13.8	0.00e+00	0	34	0	1202716672	59	5560
2026-01-16 06:23:23.91	318.65	7.33	-47.0	-50.3	13.7	0.00e+00	0	33	0	1210056704	60	5169
2026-01-16 06:23:27.95	318.30	7.07	-47.0	-50.2	13.7	0.00e+00	0	34	0	1217396736	60	5157
2026-01-16 06:23:31.99	317.96	6.80	-47.1	-50.4	13.5	0.00e+00	0	33	0	1224736768	60	5277
2026-01-16 06:23:36.03	317.63	6.54	-47.0	-50.4	13.6	0.00e+00	0	33	0	1232076800	60	5221
2026-01-16 06:23:40.07	317.30	6.28	-46.9	-50.2	13.6	0.00e+00	0	33	0	1240465408	60	5123
2026-01-16 06:23:44.10	316.98	6.02	-46.9	-50.1	13.7	0.00e+00	0	34	0	1247805440	60	5056
2026-01-16 06:23:48.13	316.67	5.77	-47.0	-50.3	13.5	0.00e+00	0	34	0	1255145472	60	5205
2026-01-16 06:23:52.17	316.36	5.51	-47.1	-50.5	13.4	0.00e+00	0	34	0	1262485504	60	5302
2026-01-16 06:23:56.20	316.05	5.26	-47.3	-51.0	13.0	0.00e+00	0	34	0	1270874112	60	5615
2026-01-16 06:24:00.24	315.75	5.01	-47.4	-51.2	12.8	4.50e-06	0	34	0	1278214144	60	5755
2026-01-16 06:24:04.28	315.46	4.75	-51.2	-67.3	3.8	1.49e+00	0	33	104	1279262720	67	24665
2026-01-16 06:24:08.31	315.17	4.51	-51.8	-68.0	3.8	1.49e+00	0	34	104	1279262720	68	25144
2026-01-16 06:24:12.35	314.89	4.26	-52.0	-68.3	3.8	1.49e+00	0	33	104	1279262720	69	24423
2026-01-16 06:24:16.39	314.61	4.01	-52.1	-68.3	3.8	1.49e+00	0	34	104	1279262720	69	24518
2026-01-16 06:24:20.42	314.34	3.77	-52.1	-68.3	3.8	1.49e+00	0	34	104	1279262720	69	24519
2026-01-16 06:24:24.46	314.07	3.53	-51.9	-68.2	3.8	1.49e+00	0	34	104	1279262720	69	24159
2026-01-16 06:24:28.49	313.81	3.29	-52.0	-68.2	3.8	1.49e+00	0	34	104	1279262720	69	24308
2026-01-16 06:24:32.53	313.55	3.05	-51.8	-68.1	3.8	1.49e+00	0	34	104	1279262720	69	23939
2026-01-16 06:24:36.56	313.29	2.81	-51.9	-68.1	3.8	1.49e+00	0	34	104	1279262720	69	23970
2026-01-16 06:24:40.60	313.04	2.57	-51.8	-68.0	3.8	1.49e+00	0	34	104	1279262720	69	23823
2026-01-16 06:24:44.64	312.80	2.34	-51.8	-68.0	3.8	1.49e+00	0	34	104	1279262720	69	23848
2026-01-16 06:24:48.68	312.55	2.10	-51.8	-68.0	3.8	1.49e+00	0	34	104	1279262720	69	23770

#Closed at: 2026-01-16 06:24:52
#Recorded file [1279 MB]: D:/lorett/data/31004_260116_091157.dat