passes_logs/2026/01/16/R3.2S_Murmansk_2ch/R3.2S_Murmansk_2ch__20260116_033154_FENGYUN_3D_rec.log

#Pass ID: 20260116_033154_FENGYUN 3D
#Satellite: FENGYUN 3D
#Configuration: FENGYUN 3D
#almurnet v.1.7.20251203
#Start time: 2026-01-16 03:31:54

#Version: 2.2.20231116
#Station: R3.2S_Murmansk_2ch
#Location: 33.079688 lon 68.888172 lat
#TLE: 1 43010U 17072A   26015.63785617 -.00000279  00000+0 -10998-3 0  9991
#TLE: 2 43010  98.9933 347.4636 0002368 106.7198 253.4237 14.19694313423348

#Time	Az	El	Level	Level2	SNR	BER	BlckErr	Temp	State	Recorded	gain1	gain2
2026-01-16 03:31:54.30	28.43	1.97	-49.3	-62.4	3.8	8.46e-01	0	31	0	0	65	15740
2026-01-16 03:31:58.33	28.37	2.23	-49.3	-62.4	3.8	8.46e-01	0	31	104	0	63	17585
2026-01-16 03:32:02.37	28.30	2.49	-49.3	-62.2	3.8	8.45e-01	0	31	104	0	63	17138
2026-01-16 03:32:06.41	28.24	2.75	-49.2	-61.1	3.8	8.46e-01	0	31	104	0	63	15108
2026-01-16 03:32:10.44	28.17	3.02	-49.0	-59.3	4.1	8.38e-01	0	32	0	0	63	12320
2026-01-16 03:32:14.48	28.11	3.28	-49.3	-62.3	3.8	8.46e-01	0	32	104	0	63	17452
2026-01-16 03:32:18.52	28.04	3.55	-48.7	-56.9	5.0	7.77e-01	0	32	0	0	63	9291
2026-01-16 03:32:22.56	27.97	3.82	-47.0	-51.3	9.3	2.57e-02	0	32	0	16777216	60	5809
2026-01-16 03:32:26.59	27.90	4.10	-46.2	-49.5	11.2	5.66e-04	0	32	0	39845888	59	5025
2026-01-16 03:32:30.64	27.83	4.38	-46.5	-49.9	10.9	4.89e-04	0	32	0	62914560	58	5585
2026-01-16 03:32:34.67	27.75	4.66	-47.1	-51.2	9.8	6.91e-03	0	32	0	84934656	59	6100
2026-01-16 03:32:38.71	27.68	4.94	-47.7	-53.1	7.7	5.17e-02	0	32	0	108003328	60	7151
2026-01-16 03:32:42.75	27.60	5.22	-48.8	-58.2	4.4	4.77e-01	0	32	0	130023424	62	11447
2026-01-16 03:32:46.79	27.52	5.51	-43.7	-45.6	14.3	0.00e+00	0	32	0	146800640	52	4776
2026-01-16 03:32:50.82	27.43	5.81	-44.4	-46.5	13.8	0.00e+00	0	32	0	168820736	53	5016
2026-01-16 03:32:54.86	27.35	6.10	-42.5	-44.0	15.3	0.00e+00	0	32	0	191889408	51	4234
2026-01-16 03:32:58.90	27.26	6.40	-42.4	-44.0	15.3	0.00e+00	0	32	0	214958080	50	4463
2026-01-16 03:33:02.94	27.18	6.70	-42.6	-44.1	15.2	0.00e+00	0	32	0	236978176	50	4544
2026-01-16 03:33:06.98	27.09	7.01	-42.3	-43.9	15.4	0.00e+00	0	32	0	260046848	50	4395
2026-01-16 03:33:11.02	26.99	7.32	-42.2	-43.7	15.5	0.00e+00	0	32	0	283115520	50	4311
2026-01-16 03:33:15.05	26.90	7.63	-42.2	-43.7	15.5	0.00e+00	0	33	0	305135616	50	4334
2026-01-16 03:33:19.09	26.80	7.95	-42.2	-43.7	15.5	0.00e+00	0	32	0	328204288	50	4330
2026-01-16 03:33:23.13	26.70	8.27	-42.0	-43.4	15.7	0.00e+00	0	32	0	351272960	50	4178
2026-01-16 03:33:27.17	26.60	8.59	-41.7	-43.1	15.9	0.00e+00	0	33	0	373293056	50	4020
2026-01-16 03:33:31.21	26.49	8.92	-41.7	-43.2	15.8	0.00e+00	0	33	0	396361728	49	4306
2026-01-16 03:33:35.25	26.38	9.25	-41.6	-43.0	15.9	0.00e+00	0	33	0	419430400	49	4198
2026-01-16 03:33:39.29	26.27	9.59	-41.6	-43.0	15.9	0.00e+00	0	33	0	441450496	49	4240
2026-01-16 03:33:43.33	26.16	9.93	-41.6	-43.0	15.9	0.00e+00	0	33	0	464519168	49	4207
2026-01-16 03:33:47.37	26.04	10.28	-41.3	-42.6	16.1	0.00e+00	0	33	0	487587840	49	4036
2026-01-16 03:33:51.40	25.92	10.63	-41.2	-42.6	16.1	0.00e+00	0	33	0	509607936	48	4254
2026-01-16 03:33:55.44	25.79	10.99	-41.1	-42.4	16.1	0.00e+00	0	33	0	532676608	48	4182
2026-01-16 03:33:59.48	25.67	11.35	-41.0	-42.3	16.3	0.00e+00	0	33	0	555745280	48	4118
2026-01-16 03:34:03.52	25.53	11.72	-40.9	-42.2	16.3	0.00e+00	0	33	0	577765376	48	4077
2026-01-16 03:34:07.55	25.40	12.09	-40.7	-42.0	16.4	0.00e+00	0	33	0	600834048	48	3991
2026-01-16 03:34:11.59	25.26	12.47	-40.4	-41.7	16.4	0.00e+00	0	33	0	623902720	47	4074
2026-01-16 03:34:15.63	25.12	12.85	-40.5	-41.8	16.3	0.00e+00	0	33	0	645922816	47	4136
2026-01-16 03:34:19.67	24.97	13.24	-40.4	-41.8	16.3	0.00e+00	0	33	0	668991488	47	4108
2026-01-16 03:34:23.71	24.82	13.64	-40.4	-41.8	16.4	0.00e+00	0	33	0	692060160	47	4123
2026-01-16 03:34:27.74	24.66	14.04	-40.6	-41.9	16.3	0.00e+00	0	33	0	714080256	47	4170
2026-01-16 03:34:31.78	24.50	14.45	-40.4	-41.7	16.4	0.00e+00	0	33	0	737148928	47	4092
2026-01-16 03:34:35.82	24.34	14.86	-40.2	-41.5	16.5	0.00e+00	0	33	0	760217600	46	4197
2026-01-16 03:34:39.85	24.17	15.28	-40.0	-41.3	16.5	0.00e+00	0	33	0	782237696	46	4100
2026-01-16 03:34:43.89	23.99	15.71	-39.9	-41.2	16.6	0.00e+00	0	33	0	805306368	46	4063
2026-01-16 03:34:47.93	23.81	16.15	-39.8	-41.0	16.6	0.00e+00	0	33	0	827326464	46	3979
2026-01-16 03:34:51.97	23.62	16.59	-39.5	-40.7	16.7	0.00e+00	0	33	0	850395136	45	4085
2026-01-16 03:34:56.01	23.42	17.05	-39.4	-40.5	16.8	0.00e+00	0	33	0	873463808	45	4000
2026-01-16 03:35:00.04	23.22	17.50	-39.2	-40.3	16.8	0.00e+00	0	33	0	896532480	44	4139
2026-01-16 03:35:04.08	23.02	17.97	-39.1	-40.3	16.8	0.00e+00	0	33	0	918552576	44	4129
2026-01-16 03:35:08.12	22.80	18.45	-38.9	-40.1	16.9	0.00e+00	0	33	0	941621248	44	4005
2026-01-16 03:35:12.16	22.58	18.94	-38.9	-40.1	16.9	0.00e+00	0	33	0	964689920	44	4017
2026-01-16 03:35:16.19	22.35	19.43	-38.8	-39.9	16.9	0.00e+00	0	33	0	986710016	44	3949
2026-01-16 03:35:20.23	22.11	19.94	-38.5	-39.6	16.9	0.00e+00	0	33	0	1009778688	43	4045
2026-01-16 03:35:24.27	21.86	20.45	-38.6	-39.7	16.9	0.00e+00	0	33	0	1031798784	43	4088
2026-01-16 03:35:28.31	21.61	20.98	-38.5	-39.7	17.0	0.00e+00	0	33	0	1054867456	43	4055
2026-01-16 03:35:32.35	21.34	21.51	-38.5	-39.7	17.0	0.00e+00	0	33	0	1077936128	43	4057
2026-01-16 03:35:36.38	21.07	22.06	-38.4	-39.5	17.0	0.00e+00	0	33	0	1099956224	43	3980
2026-01-16 03:35:40.42	20.78	22.62	-38.2	-39.3	17.0	0.00e+00	0	33	0	1123024896	42	4127
2026-01-16 03:35:44.46	20.49	23.19	-37.8	-38.9	17.2	0.00e+00	0	33	0	1146093568	42	3941
2026-01-16 03:35:48.50	20.18	23.77	-37.8	-38.9	17.1	0.00e+00	0	33	0	1169162240	42	3938
2026-01-16 03:35:52.54	19.86	24.36	-38.0	-39.1	17.1	0.00e+00	0	33	0	1191182336	42	4022
2026-01-16 03:35:56.58	19.52	24.97	-37.8	-38.9	17.2	0.00e+00	0	33	0	1214251008	42	3922
2026-01-16 03:36:00.62	19.18	25.59	-37.7	-38.8	17.2	0.00e+00	0	33	0	1236271104	41	4110
2026-01-16 03:36:04.66	18.81	26.22	-37.6	-38.7	17.2	0.00e+00	0	33	0	1259339776	41	4072
2026-01-16 03:36:08.69	18.44	26.87	-37.7	-38.8	17.2	0.00e+00	0	33	0	1282408448	41	4126
2026-01-16 03:36:12.73	18.04	27.53	-37.9	-39.0	17.1	0.00e+00	0	33	0	1304428544	41	4216
2026-01-16 03:36:16.77	17.63	28.20	-37.7	-38.7	17.2	0.00e+00	0	33	0	1327497216	41	4097
2026-01-16 03:36:20.81	17.20	28.90	-37.5	-38.6	17.2	0.00e+00	0	33	0	1350565888	41	4017
2026-01-16 03:36:24.85	16.75	29.60	-37.6	-38.7	17.2	0.00e+00	0	33	0	1373634560	41	4057
2026-01-16 03:36:28.88	16.28	30.32	-37.5	-38.5	17.3	0.00e+00	0	33	0	1395654656	41	3996
2026-01-16 03:36:32.92	15.79	31.06	-37.5	-38.6	17.3	0.00e+00	0	33	0	1418723328	41	4005
2026-01-16 03:36:36.96	15.27	31.82	-37.1	-38.1	17.3	0.00e+00	0	33	0	1440743424	40	4035
2026-01-16 03:36:41.00	14.72	32.59	-37.2	-38.3	17.3	0.00e+00	0	33	0	1463812096	40	4132
2026-01-16 03:36:45.03	14.15	33.38	-37.0	-38.1	17.3	0.00e+00	0	33	0	1486880768	40	4024
2026-01-16 03:36:49.07	13.55	34.18	-37.3	-38.4	17.3	0.00e+00	0	33	0	1508900864	40	4151
2026-01-16 03:36:53.11	12.92	35.01	-37.3	-38.4	17.3	0.00e+00	0	33	0	1531969536	40	4147
2026-01-16 03:36:57.15	12.26	35.85	-37.3	-38.4	17.3	0.00e+00	0	33	0	1555038208	40	4156
2026-01-16 03:37:01.18	11.56	36.71	-37.1	-38.2	17.3	0.00e+00	0	33	0	1577058304	40	4068
2026-01-16 03:37:05.22	10.81	37.58	-37.1	-38.1	17.3	0.00e+00	0	33	0	1600126976	40	4046
2026-01-16 03:37:09.26	10.03	38.48	-37.3	-38.3	17.3	0.00e+00	0	33	0	1623195648	40	4129
2026-01-16 03:37:13.30	9.20	39.39	-37.3	-38.4	17.3	0.00e+00	0	33	0	1645215744	40	4148
2026-01-16 03:37:17.34	8.32	40.32	-37.3	-38.4	17.3	0.00e+00	0	33	0	1668284416	40	4158
2026-01-16 03:37:21.37	7.39	41.27	-37.6	-38.7	17.2	0.00e+00	0	33	0	1691353088	40	4316
2026-01-16 03:37:25.41	6.40	42.23	-37.6	-38.6	17.2	0.00e+00	0	33	0	1713373184	40	4289
2026-01-16 03:37:29.45	5.35	43.21	-37.6	-38.7	17.2	0.00e+00	0	33	0	1736441856	40	4292
2026-01-16 03:37:33.49	4.23	44.20	-37.8	-38.9	17.2	0.00e+00	0	33	0	1759510528	40	4395
2026-01-16 03:37:37.53	3.04	45.20	-38.0	-39.1	17.2	0.00e+00	0	33	0	1781530624	41	4249
2026-01-16 03:37:41.57	1.77	46.22	-37.6	-38.7	17.3	0.00e+00	0	33	0	1804599296	41	4074
2026-01-16 03:37:45.60	0.41	47.24	-38.2	-39.3	17.1	0.00e+00	0	33	0	1827667968	41	4352
2026-01-16 03:37:49.64	358.96	48.27	-38.3	-39.4	17.1	0.00e+00	0	33	0	1849688064	41	4409
2026-01-16 03:37:53.68	357.41	49.30	-38.2	-39.3	17.1	0.00e+00	0	33	0	1872756736	41	4378
2026-01-16 03:37:57.72	355.75	50.33	-38.7	-39.9	17.0	0.00e+00	0	33	0	1895825408	42	4404
2026-01-16 03:38:01.76	353.97	51.36	-38.6	-39.7	17.1	0.00e+00	0	33	0	1917845504	42	4308
2026-01-16 03:38:05.79	352.07	52.37	-38.6	-39.7	17.1	0.00e+00	0	33	0	1940914176	42	4321
2026-01-16 03:38:09.83	350.03	53.38	-38.8	-39.9	17.1	0.00e+00	0	33	0	1963982848	43	4154
2026-01-16 03:38:13.87	347.84	54.36	-38.8	-40.0	17.1	0.00e+00	0	33	0	1986002944	43	4205
2026-01-16 03:38:17.91	345.49	55.32	-38.5	-39.6	17.2	0.00e+00	0	33	0	2009071616	43	4006
2026-01-16 03:38:21.95	342.99	56.24	-38.7	-39.8	17.2	0.00e+00	0	33	0	2032140288	43	4112
2026-01-16 03:38:25.98	340.32	57.12	-38.4	-39.5	17.2	0.00e+00	0	33	0	2054160384	42	4210
2026-01-16 03:38:30.02	337.48	57.95	-38.6	-39.7	17.2	0.00e+00	0	33	0	2077229056	42	4314
2026-01-16 03:38:34.06	334.45	58.72	-38.4	-39.5	17.2	0.00e+00	0	33	0	2100297728	42	4237
2026-01-16 03:38:38.10	331.26	59.42	-38.4	-39.5	17.2	0.00e+00	0	33	0	2122317824	42	4196
2026-01-16 03:38:42.14	327.89	60.04	-38.4	-39.5	17.2	0.00e+00	0	33	0	2145386496	42	4208
2026-01-16 03:38:46.17	324.38	60.57	-38.2	-39.3	17.3	0.00e+00	0	33	0	2168455168	42	4119
2026-01-16 03:38:50.21	320.73	61.01	-38.1	-39.2	17.3	0.00e+00	0	33	0	2190475264	42	4056
2026-01-16 03:38:54.25	316.96	61.34	-38.1	-39.1	17.3	0.00e+00	0	33	0	2213543936	42	4044
2026-01-16 03:38:58.29	313.10	61.56	-38.0	-39.1	17.3	0.00e+00	0	34	0	2236612608	41	4253
2026-01-16 03:39:02.33	309.19	61.67	-37.5	-38.6	17.4	0.00e+00	0	33	0	2258632704	41	4018
2026-01-16 03:39:06.37	305.27	61.66	-37.4	-38.4	17.5	0.00e+00	0	33	0	2281701376	41	3952
2026-01-16 03:39:10.41	301.36	61.54	-37.4	-38.5	17.4	0.00e+00	0	33	0	2304770048	40	4200
2026-01-16 03:39:14.45	297.51	61.30	-37.8	-38.9	17.3	0.00e+00	0	33	0	2326790144	40	4403
2026-01-16 03:39:18.49	293.75	60.96	-37.7	-38.7	17.3	0.00e+00	0	33	0	2349858816	40	4324
2026-01-16 03:39:22.53	290.11	60.51	-38.1	-39.2	17.3	0.00e+00	0	33	0	2372927488	41	4306
2026-01-16 03:39:26.56	286.62	59.96	-37.9	-38.9	17.4	0.00e+00	0	33	0	2394947584	41	4179
2026-01-16 03:39:30.61	283.27	59.33	-37.7	-38.8	17.5	0.00e+00	0	34	0	2418016256	41	4120
2026-01-16 03:39:34.64	280.10	58.62	-37.8	-39.0	17.4	0.00e+00	0	33	0	2441084928	41	4209
2026-01-16 03:39:38.68	277.09	57.84	-37.8	-38.9	17.4	0.00e+00	0	34	0	2463105024	41	4167
2026-01-16 03:39:42.72	274.26	57.00	-37.9	-38.9	17.4	0.00e+00	0	33	0	2486173696	41	4183
2026-01-16 03:39:46.76	271.61	56.12	-38.0	-39.0	17.4	0.00e+00	0	33	0	2509242368	41	4239
2026-01-16 03:39:50.80	269.12	55.19	-38.0	-39.1	17.4	0.00e+00	0	34	0	2531262464	41	4250
2026-01-16 03:39:54.83	266.81	54.23	-38.4	-39.5	17.3	0.00e+00	0	33	0	2554331136	42	4220
2026-01-16 03:39:58.88	264.63	53.23	-37.8	-38.9	17.5	0.00e+00	0	33	0	2577399808	42	3927
2026-01-16 03:40:02.91	262.61	52.23	-38.3	-39.4	17.4	0.00e+00	0	33	0	2599419904	42	4180
2026-01-16 03:40:06.95	260.71	51.21	-38.4	-39.6	17.3	0.00e+00	0	33	0	2622488576	42	4256
2026-01-16 03:40:10.99	258.95	50.18	-38.2	-39.2	17.4	0.00e+00	0	33	0	2645557248	42	4097
2026-01-16 03:40:15.03	257.30	49.14	-38.2	-39.3	17.4	0.00e+00	0	33	0	2667577344	42	4124
2026-01-16 03:40:19.07	255.76	48.11	-38.0	-39.0	17.5	0.00e+00	0	33	0	2690646016	42	4003
2026-01-16 03:40:23.11	254.32	47.08	-37.7	-38.7	17.5	0.00e+00	0	33	0	2713714688	41	4096
2026-01-16 03:40:27.15	252.97	46.05	-37.4	-38.4	17.6	0.00e+00	0	34	0	2735734784	41	3947
2026-01-16 03:40:31.19	251.71	45.03	-37.4	-38.5	17.6	0.00e+00	0	33	0	2758803456	41	3961
2026-01-16 03:40:35.23	250.52	44.03	-37.2	-38.2	17.6	0.00e+00	0	33	0	2781872128	41	3854
2026-01-16 03:40:39.27	249.41	43.04	-37.4	-38.5	17.4	0.00e+00	0	33	0	2803892224	40	4204
2026-01-16 03:40:43.31	248.37	42.06	-37.6	-38.7	17.4	0.00e+00	0	33	0	2826960896	40	4310
2026-01-16 03:40:47.35	247.39	41.10	-37.1	-38.1	17.5	0.00e+00	0	33	0	2850029568	40	4019
2026-01-16 03:40:51.39	246.46	40.15	-37.5	-38.6	17.4	0.00e+00	0	33	0	2872049664	40	4250
2026-01-16 03:40:55.43	245.59	39.22	-37.4	-38.4	17.5	0.00e+00	0	33	0	2895118336	40	4183
2026-01-16 03:40:59.47	244.76	38.31	-37.3	-38.4	17.5	0.00e+00	0	33	0	2918187008	40	4164
2026-01-16 03:41:03.51	243.98	37.41	-37.2	-38.2	17.6	0.00e+00	0	33	0	2940207104	40	4078
2026-01-16 03:41:07.55	243.25	36.53	-36.9	-37.9	17.6	0.00e+00	0	33	0	2963275776	40	3936
2026-01-16 03:41:11.58	242.55	35.67	-37.2	-38.3	17.5	0.00e+00	0	33	0	2986344448	40	4108
2026-01-16 03:41:15.62	241.89	34.83	-37.3	-38.3	17.5	0.00e+00	0	33	0	3008364544	40	4138
2026-01-16 03:41:19.66	241.26	34.01	-37.1	-38.2	17.5	0.00e+00	0	33	0	3031433216	40	4066
2026-01-16 03:41:23.70	240.66	33.20	-37.1	-38.2	17.6	0.00e+00	0	33	0	3054501888	40	4054
2026-01-16 03:41:27.74	240.09	32.41	-37.0	-38.0	17.6	0.00e+00	0	33	0	3076521984	40	3995
2026-01-16 03:41:31.78	239.55	31.64	-37.3	-38.4	17.5	0.00e+00	0	33	0	3099590656	40	4158
2026-01-16 03:41:35.82	239.03	30.89	-37.3	-38.3	17.5	0.00e+00	0	33	0	3122659328	40	4128
2026-01-16 03:41:39.86	238.54	30.15	-37.3	-38.3	17.5	0.00e+00	0	33	0	3144679424	40	4143
2026-01-16 03:41:43.89	238.07	29.43	-37.4	-38.5	17.5	0.00e+00	0	33	0	3167748096	40	4198
2026-01-16 03:41:47.93	237.62	28.72	-37.5	-38.6	17.4	0.00e+00	0	33	0	3190816768	40	4265
2026-01-16 03:41:51.97	237.19	28.03	-37.8	-38.9	17.4	0.00e+00	0	34	0	3212836864	40	4393
2026-01-16 03:41:56.01	236.78	27.36	-37.8	-38.8	17.4	0.00e+00	0	33	0	3235905536	40	4388
2026-01-16 03:42:00.05	236.39	26.70	-37.8	-38.9	17.4	0.00e+00	0	33	0	3258974208	40	4397
2026-01-16 03:42:04.08	236.01	26.05	-37.5	-38.6	17.4	0.00e+00	0	33	0	3280994304	40	4262
2026-01-16 03:42:08.12	235.65	25.42	-37.5	-38.6	17.4	0.00e+00	0	34	0	3304062976	40	4272
2026-01-16 03:42:12.16	235.31	24.80	-37.8	-38.8	17.4	0.00e+00	0	33	0	3327131648	40	4385
2026-01-16 03:42:16.20	234.97	24.19	-37.9	-39.0	17.3	0.00e+00	0	34	0	3349151744	40	4443
2026-01-16 03:42:20.24	234.65	23.60	-37.7	-38.7	17.4	0.00e+00	0	33	0	3372220416	41	4089
2026-01-16 03:42:24.27	234.34	23.02	-37.6	-38.7	17.4	0.00e+00	0	34	0	3395289088	41	4072
2026-01-16 03:42:28.31	234.05	22.45	-37.9	-38.9	17.4	0.00e+00	0	34	0	3417309184	41	4189
2026-01-16 03:42:32.35	233.76	21.89	-37.8	-38.9	17.4	0.00e+00	0	33	0	3440377856	41	4180
2026-01-16 03:42:36.39	233.49	21.35	-38.0	-39.1	17.3	0.00e+00	0	34	0	3462397952	41	4245
2026-01-16 03:42:40.42	233.22	20.81	-38.2	-39.3	17.3	0.00e+00	0	34	0	3485466624	41	4353
2026-01-16 03:42:44.46	232.96	20.29	-38.3	-39.4	17.2	0.00e+00	0	33	0	3508535296	41	4399
2026-01-16 03:42:48.50	232.72	19.77	-38.5	-39.7	17.2	0.00e+00	0	33	0	3531603968	42	4306
2026-01-16 03:42:52.54	232.48	19.27	-38.9	-40.0	17.1	0.00e+00	0	33	0	3553624064	42	4470
2026-01-16 03:42:56.58	232.25	18.77	-38.9	-40.1	17.1	0.00e+00	0	33	0	3576692736	43	4258
2026-01-16 03:43:00.61	232.03	18.29	-39.1	-40.3	17.0	0.00e+00	0	33	0	3599761408	43	4356
2026-01-16 03:43:04.65	231.81	17.81	-38.9	-40.1	17.1	0.00e+00	0	33	0	3621781504	43	4280
2026-01-16 03:43:08.69	231.60	17.34	-39.1	-40.2	17.1	0.00e+00	0	33	0	3644850176	43	4329
2026-01-16 03:43:12.73	231.40	16.88	-39.0	-40.2	17.1	0.00e+00	0	33	0	3666870272	43	4297
2026-01-16 03:43:16.77	231.21	16.43	-38.9	-40.1	17.1	0.00e+00	0	33	0	3689938944	43	4257
2026-01-16 03:43:20.80	231.02	15.99	-39.1	-40.3	17.0	0.00e+00	0	33	0	3713007616	43	4343
2026-01-16 03:43:24.84	230.83	15.55	-39.3	-40.5	16.9	0.00e+00	0	34	0	3736076288	43	4463
2026-01-16 03:43:28.88	230.66	15.12	-39.7	-40.8	16.9	0.00e+00	0	33	0	3758096384	44	4390
2026-01-16 03:43:32.92	230.48	14.70	-39.9	-41.2	16.8	0.00e+00	0	33	0	3781165056	44	4548
2026-01-16 03:43:36.96	230.32	14.28	-40.2	-41.4	16.7	0.00e+00	0	33	0	3804233728	45	4429
2026-01-16 03:43:41.00	230.15	13.87	-40.4	-41.7	16.7	0.00e+00	0	33	0	3826253824	46	4304
2026-01-16 03:43:45.03	230.00	13.47	-40.4	-41.7	16.7	0.00e+00	0	33	0	3849322496	46	4294
2026-01-16 03:43:49.07	229.84	13.08	-40.5	-41.8	16.6	0.00e+00	0	33	0	3871342592	46	4361
2026-01-16 03:43:53.11	229.69	12.69	-40.7	-42.0	16.5	0.00e+00	0	34	0	3894411264	46	4450
2026-01-16 03:43:57.15	229.55	12.31	-40.8	-42.1	16.5	0.00e+00	0	34	0	3917479936	46	4543
2026-01-16 03:44:01.19	229.41	11.93	-41.0	-42.3	16.4	0.00e+00	0	33	0	3940548608	47	4385
2026-01-16 03:44:05.22	229.27	11.56	-41.0	-42.4	16.4	0.00e+00	0	34	0	3962568704	47	4416
2026-01-16 03:44:09.26	229.14	11.19	-41.1	-42.5	16.3	0.00e+00	0	33	0	3985637376	47	4446
2026-01-16 03:44:13.30	229.01	10.83	-41.4	-42.8	16.1	0.00e+00	0	33	0	4008706048	47	4639
2026-01-16 03:44:17.34	228.89	10.47	-41.9	-43.4	16.1	0.00e+00	0	33	0	4030726144	48	4655
2026-01-16 03:44:21.38	228.76	10.12	-41.3	-42.7	16.4	0.00e+00	0	33	0	4053794816	49	4073
2026-01-16 03:44:25.42	228.64	9.77	-41.5	-42.8	16.3	0.00e+00	0	33	0	4075814912	49	4142
2026-01-16 03:44:29.46	228.53	9.43	-41.6	-43.0	16.2	0.00e+00	0	33	0	4098883584	49	4229
2026-01-16 03:44:33.50	228.41	9.09	-41.6	-43.0	16.2	0.00e+00	0	34	0	4121952256	49	4207
2026-01-16 03:44:37.53	228.30	8.76	-41.7	-43.1	16.1	0.00e+00	0	33	0	4143972352	49	4291
2026-01-16 03:44:41.57	228.20	8.43	-41.7	-43.1	16.1	0.00e+00	0	34	0	4167041024	49	4275
2026-01-16 03:44:45.61	228.09	8.11	-42.0	-43.4	16.0	0.00e+00	0	34	0	4190109696	49	4420
2026-01-16 03:44:49.65	227.99	7.79	-41.7	-43.1	16.1	0.00e+00	0	33	0	4212129792	49	4258
2026-01-16 03:44:53.68	227.89	7.47	-41.9	-43.3	16.0	0.00e+00	0	33	0	4235198464	49	4391
2026-01-16 03:44:57.72	227.79	7.16	-42.0	-43.5	15.9	0.00e+00	0	33	0	4258267136	49	4454
2026-01-16 03:45:01.76	227.70	6.85	-41.9	-43.4	16.0	0.00e+00	0	33	0	4280287232	49	4410
2026-01-16 03:45:05.79	227.60	6.54	-42.2	-43.7	15.8	0.00e+00	0	33	0	4303355904	49	4580
2026-01-16 03:45:09.83	227.51	6.24	-42.6	-44.1	15.6	0.00e+00	0	33	0	4326424576	50	4540
2026-01-16 03:45:13.87	227.43	5.94	-42.2	-43.7	15.8	0.00e+00	0	33	0	4348444672	50	4332
2026-01-16 03:45:17.91	227.34	5.65	-42.1	-43.6	15.8	0.00e+00	0	33	0	4371513344	50	4283
2026-01-16 03:45:21.94	227.25	5.35	-42.7	-44.3	15.5	0.00e+00	0	33	0	4394582016	51	4354
2026-01-16 03:45:25.98	227.17	5.07	-42.6	-44.2	15.4	0.00e+00	0	34	0	4416602112	51	4325
2026-01-16 03:45:30.02	227.09	4.78	-51.2	-64.5	3.8	8.45e-01	0	34	104	4420796416	67	17762
2026-01-16 03:45:34.06	227.01	4.50	-51.7	-65.0	3.8	8.45e-01	0	34	104	4420796416	68	17771
2026-01-16 03:45:38.09	226.94	4.22	-51.8	-65.1	3.8	8.45e-01	0	34	104	4420796416	68	17971
2026-01-16 03:45:42.13	226.86	3.94	-51.9	-65.2	3.8	8.46e-01	0	34	104	4420796416	68	18149
2026-01-16 03:45:46.17	226.79	3.66	-51.9	-65.2	3.8	8.45e-01	0	34	104	4420796416	69	17184
2026-01-16 03:45:50.21	226.71	3.39	-51.9	-65.2	3.8	8.47e-01	0	34	104	4420796416	69	17104
2026-01-16 03:45:54.25	226.64	3.12	-51.8	-65.1	3.8	8.45e-01	0	34	104	4420796416	69	17063
2026-01-16 03:45:58.28	226.57	2.86	-51.8	-65.1	3.8	8.46e-01	0	34	104	4420796416	69	16944
2026-01-16 03:46:02.32	226.51	2.59	-51.8	-65.1	3.8	8.47e-01	0	34	104	4420796416	69	16955
2026-01-16 03:46:06.36	226.44	2.33	-51.8	-65.1	3.8	8.46e-01	0	34	104	4420796416	69	16921
2026-01-16 03:46:10.40	226.38	2.07	-51.8	-65.1	3.8	8.45e-01	0	34	104	4420796416	69	16938

#Closed at: 2026-01-16 03:46:13
#Recorded file [4420 MB]: D:/lorett/data/31004_260116_063154.dat