passes_logs/2026/01/19/T1/T1__20260119_000016_SUOMI_NPP_rec.log

#Pass ID: 20260119_000016_SUOMI NPP
#Satellite: SUOMI NPP
#Configuration: NPP
#almurnet v.1.7.20251203
#Start time: 2026-01-19 00:00:16

#Version: 2.0.20230620
#Station: T1
#Location: 37.570604 lon 55.790049 lat
#TLE: 1 37849U 11061A   26017.92342359  .00000077  00000+0  57567-4 0  9990
#TLE: 2 37849  98.7814 319.9468 0002389  58.5705 301.5704 14.19525998737125

#Time	Az	El	Level	Level2	SNR	BER	BlckErr	Temp	State	Recorded	gain1	gain2
2026-01-19 00:00:16.74	14.85	5.01	-49.1	-65.1	3.8	1.49e+00	0	40	0	0	69	23083
2026-01-19 00:00:20.71	14.82	5.29	-48.3	-64.8	3.8	1.49e+00	0	40	104	0	67	25034
2026-01-19 00:00:24.69	14.78	5.58	-48.3	-64.8	3.8	1.49e+00	0	41	104	0	67	25172
2026-01-19 00:00:28.66	14.74	5.87	-48.3	-64.8	3.8	1.49e+00	0	41	104	0	67	24993
2026-01-19 00:00:32.64	14.71	6.16	-48.3	-64.7	3.8	1.49e+00	0	41	104	0	67	24773
2026-01-19 00:00:36.61	14.67	6.46	-48.3	-64.6	3.8	1.49e+00	0	41	104	0	67	24613
2026-01-19 00:00:40.58	14.63	6.76	-48.3	-64.5	3.8	1.49e+00	0	41	104	0	67	24219
2026-01-19 00:00:44.56	14.58	7.06	-48.3	-64.5	3.8	1.49e+00	0	42	104	0	67	24335
2026-01-19 00:00:48.53	14.54	7.37	-48.3	-64.3	3.8	1.49e+00	0	42	104	0	67	23805
2026-01-19 00:00:52.50	14.50	7.68	-48.2	-62.9	3.8	1.49e+00	0	42	104	0	67	20195
2026-01-19 00:00:56.48	14.45	7.99	-47.9	-59.3	4.9	9.13e-01	0	42	0	2097152	67	13261
2026-01-19 00:01:00.45	14.40	8.31	-47.4	-55.4	8.0	7.30e-02	0	42	0	9437184	66	8983
2026-01-19 00:01:04.43	14.35	8.64	-46.6	-52.8	10.6	4.24e-03	0	42	0	16777216	65	7103
2026-01-19 00:01:08.40	14.30	8.96	-46.5	-52.4	11.0	1.65e-03	0	42	0	25165824	64	7164
2026-01-19 00:01:12.38	14.25	9.29	-45.6	-50.0	13.7	1.50e-06	0	42	0	32505856	62	6082
2026-01-19 00:01:16.33	14.20	9.63	-47.5	-56.0	7.4	1.48e-01	0	42	0	39845888	66	9638
2026-01-19 00:01:20.31	14.14	9.97	-46.3	-51.7	11.8	1.05e-03	0	42	0	47185920	64	6637
2026-01-19 00:01:24.29	14.09	10.31	-45.3	-49.6	14.1	1.50e-06	0	42	0	54525952	62	5814
2026-01-19 00:01:28.28	14.03	10.66	-44.9	-48.8	14.9	7.00e-07	0	42	0	61865984	61	5595
2026-01-19 00:01:32.39	13.96	11.03	-44.4	-47.9	15.9	0.00e+00	0	42	0	69206016	60	5353
2026-01-19 00:01:36.48	13.90	11.40	-44.2	-47.5	16.2	0.00e+00	0	42	0	77594624	60	5121
2026-01-19 00:01:40.47	13.84	11.77	-44.0	-47.2	16.5	0.00e+00	0	42	0	84934656	59	5259
2026-01-19 00:01:44.60	13.77	12.15	-43.9	-47.1	16.5	0.00e+00	0	43	0	92274688	59	5191
2026-01-19 00:01:48.58	13.70	12.53	-43.8	-47.0	16.7	0.00e+00	0	43	0	99614720	59	5141
2026-01-19 00:01:52.56	13.63	12.92	-43.6	-46.7	17.0	0.00e+00	0	43	0	106954752	59	4942
2026-01-19 00:01:56.54	13.55	13.31	-43.6	-46.8	16.9	0.00e+00	0	42	0	115343360	59	4993
2026-01-19 00:02:00.52	13.48	13.70	-43.6	-46.8	16.9	0.00e+00	0	42	0	122683392	59	5004
2026-01-19 00:02:04.50	13.40	14.10	-43.4	-46.6	17.1	0.00e+00	0	43	0	130023424	58	5172
2026-01-19 00:02:08.48	13.32	14.51	-43.4	-46.5	17.2	0.00e+00	0	42	0	137363456	58	5111
2026-01-19 00:02:12.46	13.24	14.93	-43.1	-46.0	17.7	0.00e+00	0	43	0	144703488	58	4854
2026-01-19 00:02:16.45	13.15	15.35	-43.0	-45.9	17.8	0.00e+00	0	43	0	152043520	57	5078
2026-01-19 00:02:20.43	13.06	15.78	-42.9	-45.7	18.0	0.00e+00	0	43	0	159383552	57	4958
2026-01-19 00:02:24.41	12.97	16.22	-42.7	-45.5	18.2	0.00e+00	0	43	0	166723584	57	4845
2026-01-19 00:02:28.47	12.87	16.68	-42.7	-45.4	18.3	0.00e+00	0	43	0	175112192	57	4790
2026-01-19 00:02:32.45	12.77	17.13	-42.7	-45.3	18.4	0.00e+00	0	43	0	182452224	57	4735
2026-01-19 00:02:36.43	12.67	17.60	-42.6	-45.2	18.5	0.00e+00	0	43	0	189792256	56	4932
2026-01-19 00:02:40.40	12.56	18.07	-42.6	-45.1	18.6	0.00e+00	0	43	0	197132288	56	4905
2026-01-19 00:02:44.38	12.45	18.55	-42.4	-44.9	18.7	0.00e+00	0	43	0	204472320	56	4784
2026-01-19 00:02:48.36	12.34	19.04	-42.4	-44.9	18.8	0.00e+00	0	43	0	211812352	56	4783
2026-01-19 00:02:52.34	12.22	19.54	-42.5	-45.1	18.6	0.00e+00	0	43	0	219152384	56	4894
2026-01-19 00:02:56.42	12.09	20.06	-42.7	-45.3	18.4	0.00e+00	0	43	0	227540992	56	5040
2026-01-19 00:03:00.52	11.96	20.60	-42.9	-45.6	18.2	0.00e+00	0	43	0	234881024	56	5174
2026-01-19 00:03:04.64	11.82	21.15	-42.9	-45.5	18.3	0.00e+00	0	43	0	242221056	56	5105
2026-01-19 00:03:08.62	11.69	21.70	-42.9	-45.4	18.4	0.00e+00	0	43	0	249561088	56	5044
2026-01-19 00:03:12.60	11.54	22.25	-42.9	-45.3	18.5	0.00e+00	0	43	0	257949696	56	4991
2026-01-19 00:03:16.99	11.38	22.88	-42.7	-45.1	18.7	0.00e+00	0	43	0	265289728	56	4882
2026-01-19 00:03:21.24	11.21	23.50	-42.2	-44.5	19.2	0.00e+00	0	43	0	273678336	56	4549
2026-01-19 00:03:25.25	11.04	24.10	-41.5	-43.6	19.8	0.00e+00	0	43	0	281018368	55	4368
2026-01-19 00:03:29.23	10.87	24.72	-41.8	-44.0	19.5	0.00e+00	0	43	0	288358400	55	4560
2026-01-19 00:03:33.52	10.68	25.39	-42.1	-44.4	19.2	0.00e+00	0	43	0	296747008	55	4770
2026-01-19 00:03:37.51	10.49	26.03	-41.9	-44.1	19.5	0.00e+00	0	43	0	304087040	55	4625
2026-01-19 00:03:41.50	10.30	26.69	-41.9	-44.1	19.5	0.00e+00	0	43	0	311427072	55	4625
2026-01-19 00:03:45.50	10.09	27.36	-42.9	-45.4	18.6	0.00e+00	0	43	0	318767104	56	5046
2026-01-19 00:03:49.51	9.88	28.06	-43.0	-45.5	18.4	0.00e+00	0	43	0	327155712	57	4836
2026-01-19 00:03:53.65	9.64	28.79	-43.1	-45.7	18.2	0.00e+00	0	43	0	334495744	57	4938
2026-01-19 00:03:57.62	9.41	29.51	-43.7	-46.4	17.5	0.00e+00	0	43	0	341835776	58	5090
2026-01-19 00:04:01.60	9.16	30.26	-44.5	-47.4	16.5	0.00e+00	0	43	0	349175808	59	5392
2026-01-19 00:04:05.61	8.90	31.02	-44.3	-47.1	16.9	0.00e+00	0	43	0	356515840	59	5166
2026-01-19 00:04:10.19	8.58	31.93	-44.8	-47.8	16.2	0.00e+00	0	43	0	364904448	60	5296
2026-01-19 00:04:14.39	8.28	32.78	-45.1	-48.2	15.8	0.00e+00	0	43	0	373293056	61	5272
2026-01-19 00:04:18.39	7.97	33.61	-45.3	-48.6	15.5	0.00e+00	0	43	0	380633088	61	5482
2026-01-19 00:04:22.49	7.64	34.48	-45.6	-49.2	14.9	1.50e-06	0	43	0	387973120	62	5577
2026-01-19 00:04:26.47	7.30	35.36	-44.4	-47.5	16.6	0.00e+00	0	43	0	396361728	60	5102
2026-01-19 00:04:30.45	6.93	36.25	-44.4	-47.2	16.8	0.00e+00	0	43	0	403701760	59	5272
2026-01-19 00:04:34.59	6.53	37.21	-44.2	-47.0	17.1	0.00e+00	0	43	0	411041792	60	4843
2026-01-19 00:04:38.68	6.11	38.19	-43.3	-45.8	18.2	0.00e+00	0	43	0	418381824	58	4722
2026-01-19 00:04:42.93	5.65	39.23	-44.5	-47.4	16.7	0.00e+00	0	43	0	426770432	60	5090
2026-01-19 00:04:46.93	5.18	40.23	-45.3	-48.7	15.4	0.00e+00	0	43	0	434110464	62	5246
2026-01-19 00:04:50.94	4.68	41.27	-44.7	-47.7	16.3	0.00e+00	0	43	0	441450496	61	4961
2026-01-19 00:04:55.10	4.13	42.37	-45.0	-48.0	16.1	0.00e+00	0	43	0	449839104	61	5153
2026-01-19 00:04:59.10	3.56	43.46	-45.2	-48.4	15.7	0.00e+00	0	43	0	457179136	61	5398
2026-01-19 00:05:03.54	2.87	44.70	-45.0	-48.2	15.8	0.00e+00	0	43	0	465567744	62	4943
2026-01-19 00:05:07.52	2.21	45.85	-43.9	-46.5	17.5	0.00e+00	0	43	0	472907776	58	5153
2026-01-19 00:05:11.65	1.47	47.07	-45.5	-48.8	15.3	0.00e+00	0	43	0	480247808	61	5633
2026-01-19 00:05:15.76	0.67	48.31	-44.1	-46.7	17.3	0.00e+00	0	43	0	488636416	59	4981
2026-01-19 00:05:19.76	359.83	49.55	-42.9	-45.3	18.7	0.00e+00	0	43	0	495976448	57	4712
2026-01-19 00:05:23.75	358.91	50.81	-43.2	-45.6	18.4	0.00e+00	0	43	0	503316480	57	4879
2026-01-19 00:05:27.77	357.91	52.11	-43.1	-45.5	18.4	0.00e+00	0	43	0	510656512	56	5109
2026-01-19 00:05:31.75	356.82	53.42	-43.4	-45.8	18.1	0.00e+00	0	43	0	517996544	58	4736
2026-01-19 00:05:35.75	355.62	54.76	-43.5	-46.0	17.9	0.00e+00	0	43	0	526385152	58	4824
2026-01-19 00:05:39.74	354.31	56.12	-42.2	-44.4	19.4	0.00e+00	0	43	0	533725184	56	4516
2026-01-19 00:05:43.76	352.84	57.50	-42.3	-44.5	19.2	0.00e+00	0	43	0	541065216	55	4848
2026-01-19 00:05:47.71	351.25	58.88	-43.0	-45.5	18.4	0.00e+00	0	43	0	548405248	57	4857
2026-01-19 00:05:51.69	349.46	60.27	-44.5	-47.4	16.7	0.00e+00	0	43	0	555745280	60	5095
2026-01-19 00:05:55.67	347.46	61.67	-43.7	-46.3	17.6	0.00e+00	0	43	0	563085312	59	4714
2026-01-19 00:05:59.66	345.22	63.06	-41.4	-43.5	20.1	0.00e+00	0	43	0	570425344	54	4572
2026-01-19 00:06:03.64	342.71	64.44	-41.7	-43.9	19.8	0.00e+00	0	43	0	577765376	55	4498
2026-01-19 00:06:07.84	339.70	65.87	-43.6	-46.3	17.7	0.00e+00	0	43	0	586153984	58	4995
2026-01-19 00:06:11.86	336.44	67.20	-43.3	-45.7	18.2	0.00e+00	0	43	0	593494016	57	4977
2026-01-19 00:06:15.84	332.79	68.45	-44.8	-47.7	16.3	0.00e+00	0	43	0	600834048	60	5264
2026-01-19 00:06:19.82	328.65	69.63	-46.4	-50.1	14.2	0.00e+00	0	43	0	608174080	63	5798
2026-01-19 00:06:23.83	323.95	70.72	-44.8	-47.7	16.4	0.00e+00	0	43	0	615514112	61	4971
2026-01-19 00:06:27.80	318.74	71.68	-44.4	-47.1	17.1	0.00e+00	0	43	0	623902720	60	4886
2026-01-19 00:06:31.78	312.95	72.48	-44.1	-46.8	17.4	0.00e+00	0	43	0	631242752	60	4706
2026-01-19 00:06:35.82	306.55	73.11	-45.7	-49.1	15.1	0.00e+00	0	43	0	638582784	62	5493
2026-01-19 00:06:39.88	299.68	73.53	-44.5	-47.3	16.9	0.00e+00	0	43	0	645922816	60	5014
2026-01-19 00:06:43.93	292.57	73.71	-45.6	-49.0	15.1	0.00e+00	0	43	0	653262848	63	5114
2026-01-19 00:06:47.97	285.41	73.65	-45.3	-48.4	15.7	0.00e+00	0	43	0	661651456	62	5092
2026-01-19 00:06:51.95	278.52	73.35	-43.0	-45.4	18.6	0.00e+00	0	43	0	668991488	58	4523
2026-01-19 00:06:55.93	271.98	72.83	-43.7	-46.3	17.7	0.00e+00	0	43	0	676331520	58	5011
2026-01-19 00:07:00.32	265.31	72.04	-44.1	-46.7	17.4	0.00e+00	0	43	0	684720128	59	4934
2026-01-19 00:07:04.25	259.91	71.16	-46.5	-50.5	13.5	4.50e-06	0	43	0	692060160	64	5781
2026-01-19 00:07:08.28	254.94	70.11	-46.7	-50.8	13.4	5.03e-05	0	43	0	699400192	64	5986
2026-01-19 00:07:12.30	250.53	68.96	-45.7	-49.0	15.1	0.00e+00	0	43	0	706740224	63	5145
2026-01-19 00:07:16.28	246.67	67.73	-44.4	-47.1	17.1	0.00e+00	0	43	0	714080256	59	5175
2026-01-19 00:07:20.57	243.02	66.33	-43.7	-46.2	17.8	0.00e+00	0	43	0	722468864	58	4957
2026-01-19 00:07:24.76	239.88	64.92	-41.1	-43.2	20.4	0.00e+00	0	43	0	729808896	54	4395
2026-01-19 00:07:28.75	237.25	63.54	-41.2	-43.2	20.3	0.00e+00	0	43	0	738197504	54	4432
2026-01-19 00:07:32.74	234.91	62.14	-43.3	-45.8	18.3	0.00e+00	0	43	0	745537536	57	5001
2026-01-19 00:07:36.72	232.83	60.74	-44.8	-47.8	16.3	0.00e+00	0	43	0	752877568	61	5026
2026-01-19 00:07:40.70	230.97	59.34	-43.7	-46.3	17.8	0.00e+00	0	43	0	760217600	59	4741
2026-01-19 00:07:44.68	229.30	57.95	-43.3	-45.7	18.2	0.00e+00	0	43	0	767557632	57	4972
2026-01-19 00:07:48.85	227.73	56.50	-41.4	-43.5	20.1	0.00e+00	0	43	0	775946240	54	4575
2026-01-19 00:07:53.03	226.31	55.07	-42.5	-44.8	19.0	0.00e+00	0	43	0	783286272	55	4999
2026-01-19 00:07:57.24	225.02	53.65	-44.7	-47.7	16.5	0.00e+00	0	43	0	790626304	60	5221
2026-01-19 00:08:01.23	223.91	52.33	-43.6	-46.2	17.8	0.00e+00	0	43	0	799014912	58	4965
2026-01-19 00:08:05.24	222.88	51.02	-43.0	-45.3	18.6	0.00e+00	0	43	0	806354944	57	4744
2026-01-19 00:08:09.58	221.87	49.64	-42.8	-45.2	18.7	0.00e+00	0	43	0	814743552	56	4952
2026-01-19 00:08:13.56	221.02	48.40	-43.0	-45.2	18.7	0.00e+00	0	43	0	822083584	57	4702
2026-01-19 00:08:17.59	220.23	47.18	-44.2	-46.8	17.2	0.00e+00	0	43	0	829423616	60	4751
2026-01-19 00:08:21.57	219.51	46.00	-44.9	-47.8	16.3	0.00e+00	0	43	0	836763648	61	5028
2026-01-19 00:08:25.56	218.83	44.84	-44.6	-47.5	16.5	0.00e+00	0	43	0	844103680	60	5147
2026-01-19 00:08:29.56	218.20	43.71	-45.6	-48.9	15.3	0.00e+00	0	43	0	851443712	62	5384
2026-01-19 00:08:33.54	217.62	42.61	-45.5	-48.7	15.5	0.00e+00	0	43	0	858783744	62	5260
2026-01-19 00:08:37.55	217.07	41.54	-44.5	-47.4	16.7	0.00e+00	0	43	0	867172352	61	4762
2026-01-19 00:08:41.52	216.57	40.50	-45.1	-48.1	15.9	0.00e+00	0	43	0	874512384	60	5520
2026-01-19 00:08:45.61	216.08	39.46	-45.8	-49.3	14.9	1.50e-06	0	43	0	881852416	62	5625
2026-01-19 00:08:49.74	215.62	38.43	-47.4	-52.3	11.6	8.09e-04	0	43	0	889192448	65	6692
2026-01-19 00:08:53.77	215.19	37.46	-43.8	-46.4	17.6	0.00e+00	0	43	0	897581056	59	4783
2026-01-19 00:08:57.76	214.80	36.53	-43.0	-45.4	18.5	0.00e+00	0	43	0	904921088	57	4800
2026-01-19 00:09:01.78	214.42	35.61	-44.4	-47.2	16.8	0.00e+00	0	43	0	912261120	59	5226
2026-01-19 00:09:05.76	214.07	34.72	-47.1	-51.7	12.3	9.68e-05	0	43	0	919601152	64	6630
2026-01-19 00:09:09.81	213.73	33.85	-46.0	-49.6	14.4	2.20e-06	0	43	0	926941184	63	5495
2026-01-19 00:09:13.79	213.42	33.01	-45.4	-48.5	15.5	0.00e+00	0	43	0	934281216	62	5148
2026-01-19 00:09:17.77	213.12	32.19	-44.5	-47.4	16.7	0.00e+00	0	43	0	942669824	60	5059
2026-01-19 00:09:21.75	212.83	31.39	-45.3	-48.6	15.5	0.00e+00	0	43	0	950009856	61	5473
2026-01-19 00:09:25.72	212.56	30.62	-46.4	-50.3	13.6	1.13e-04	0	43	0	957349888	63	5939
2026-01-19 00:09:29.71	212.31	29.86	-47.0	-51.5	12.4	4.07e-04	0	43	0	964689920	65	6120
2026-01-19 00:09:33.68	212.06	29.12	-46.3	-50.2	13.6	2.38e-04	0	43	0	972029952	64	5568
2026-01-19 00:09:37.71	211.83	28.40	-46.2	-50.1	13.9	9.91e-05	0	43	0	979369984	64	5486
2026-01-19 00:09:41.79	211.60	27.68	-44.6	-47.6	15.9	4.71e-04	0	43	0	986710016	61	4891
2026-01-19 00:09:46.24	211.36	26.91	-42.8	-45.2	18.4	7.00e-07	0	43	0	995098624	56	4930
2026-01-19 00:09:50.23	211.16	26.24	-42.9	-45.2	18.5	0.00e+00	0	43	0	1003487232	56	4973
2026-01-19 00:09:54.14	210.97	25.61	-44.2	-46.9	17.1	0.00e+00	0	43	0	1010827264	58	5392
2026-01-19 00:09:58.39	210.77	24.93	-45.9	-49.6	14.5	0.00e+00	0	43	0	1018167296	62	5802
2026-01-19 00:10:02.49	210.59	24.29	-45.8	-49.3	14.7	3.00e-06	0	43	0	1025507328	63	5312
2026-01-19 00:10:06.54	210.41	23.67	-45.0	-48.1	16.0	0.00e+00	0	43	0	1033895936	61	5173
2026-01-19 00:10:10.53	210.25	23.08	-44.4	-47.3	16.7	0.00e+00	0	43	0	1041235968	60	5022
2026-01-19 00:10:14.58	210.09	22.49	-44.1	-46.8	17.1	0.00e+00	0	43	0	1048576000	60	4747
2026-01-19 00:10:18.57	209.94	21.92	-43.7	-46.4	17.5	0.00e+00	0	43	0	1055916032	59	4762
2026-01-19 00:10:22.56	209.80	21.37	-43.5	-46.1	17.7	0.00e+00	0	43	0	1063256064	58	4904
2026-01-19 00:10:26.56	209.66	20.82	-43.5	-46.1	17.7	0.00e+00	0	43	0	1071644672	58	4899
2026-01-19 00:10:30.57	209.52	20.29	-43.8	-46.5	17.3	0.00e+00	0	43	0	1078984704	58	5132
2026-01-19 00:10:34.86	209.38	19.73	-43.7	-46.3	17.6	0.00e+00	0	43	0	1086324736	58	5001
2026-01-19 00:10:39.22	209.25	19.17	-43.9	-46.6	17.2	0.00e+00	0	43	0	1094713344	58	5203
2026-01-19 00:10:43.42	209.12	18.65	-44.1	-46.8	17.0	0.00e+00	0	43	0	1103101952	58	5305
2026-01-19 00:10:48.00	208.99	18.09	-45.1	-48.3	15.7	0.00e+00	0	43	0	1111490560	60	5593
2026-01-19 00:10:52.00	208.88	17.61	-45.6	-49.0	14.9	7.00e-07	0	43	0	1118830592	61	5788
2026-01-19 00:10:56.20	208.76	17.12	-45.4	-48.8	15.2	0.00e+00	0	43	0	1127219200	62	5283
2026-01-19 00:11:00.18	208.66	16.66	-44.8	-47.9	16.1	0.00e+00	0	43	0	1134559232	61	5046
2026-01-19 00:11:04.17	208.56	16.21	-44.4	-47.2	16.6	0.00e+00	0	43	0	1141899264	60	4981
2026-01-19 00:11:08.15	208.46	15.77	-44.4	-47.3	16.5	0.00e+00	0	44	0	1149239296	60	5037
2026-01-19 00:11:12.14	208.37	15.33	-44.6	-47.6	16.2	0.00e+00	0	43	0	1156579328	60	5190
2026-01-19 00:11:16.48	208.27	14.87	-45.5	-49.0	14.9	0.00e+00	0	43	0	1164967936	61	5739
2026-01-19 00:11:20.73	208.18	14.42	-45.6	-49.1	14.7	7.00e-07	0	43	0	1172307968	62	5505
2026-01-19 00:11:24.71	208.09	14.01	-45.3	-48.6	15.2	7.00e-07	0	43	0	1180696576	62	5189
2026-01-19 00:11:28.66	208.01	13.61	-45.1	-48.3	15.5	0.00e+00	0	43	0	1188036608	61	5286
2026-01-19 00:11:32.85	207.93	13.19	-44.3	-47.3	16.6	0.00e+00	0	43	0	1195376640	60	4986
2026-01-19 00:11:36.79	207.85	12.80	-44.2	-47.0	16.7	0.00e+00	0	43	0	1202716672	60	4857
2026-01-19 00:11:40.76	207.78	12.42	-43.7	-46.4	17.2	0.00e+00	0	43	0	1210056704	59	4792
2026-01-19 00:11:44.74	207.70	12.04	-43.7	-46.3	17.3	0.00e+00	0	43	0	1217396736	59	4756
2026-01-19 00:11:48.77	207.63	11.66	-43.6	-46.2	17.4	0.00e+00	0	43	0	1225785344	58	4976
2026-01-19 00:11:52.75	207.57	11.29	-43.8	-46.5	17.1	0.00e+00	0	43	0	1233125376	58	5146
2026-01-19 00:11:56.76	207.50	10.93	-44.0	-46.8	16.8	0.00e+00	0	43	0	1240465408	58	5311
2026-01-19 00:12:00.79	207.43	10.57	-44.1	-47.0	16.6	0.00e+00	0	43	0	1247805440	59	5156
2026-01-19 00:12:04.78	207.37	10.21	-44.7	-47.8	15.8	0.00e+00	0	43	0	1255145472	59	5626
2026-01-19 00:12:08.97	207.31	9.85	-44.7	-47.9	15.8	0.00e+00	0	43	0	1263534080	60	5365
2026-01-19 00:12:12.95	207.25	9.51	-44.9	-48.2	15.5	0.00e+00	0	43	0	1270874112	60	5557
2026-01-19 00:12:17.00	207.19	9.16	-45.2	-48.7	14.9	0.00e+00	0	43	0	1278214144	61	5543
2026-01-19 00:12:21.11	207.13	8.82	-49.9	-65.4	3.8	1.49e+00	0	43	104	1281359872	70	22625
2026-01-19 00:12:25.33	207.07	8.47	-50.3	-65.6	3.8	1.49e+00	0	43	104	1281359872	71	21828
2026-01-19 00:12:29.56	207.01	8.13	-50.4	-65.7	3.8	1.49e+00	0	43	104	1281359872	71	22039
2026-01-19 00:12:33.54	206.96	7.81	-50.2	-65.6	3.8	1.49e+00	0	43	104	1281359872	71	21877
2026-01-19 00:12:37.52	206.91	7.49	-49.9	-65.6	3.8	1.49e+00	0	43	104	1281359872	71	21757
2026-01-19 00:12:41.53	206.86	7.18	-50.0	-65.5	3.8	1.49e+00	0	43	104	1281359872	71	21657
2026-01-19 00:12:45.50	206.82	6.87	-50.0	-65.5	3.8	1.49e+00	0	43	104	1281359872	71	21669
2026-01-19 00:12:49.49	206.77	6.57	-50.0	-65.5	3.8	1.49e+00	0	43	104	1281359872	71	21606
2026-01-19 00:12:53.49	206.72	6.26	-50.0	-65.5	3.8	1.49e+00	0	44	104	1281359872	71	21605
2026-01-19 00:12:57.47	206.68	5.97	-50.0	-65.5	3.8	1.49e+00	0	43	104	1281359872	71	21568
2026-01-19 00:13:01.44	206.64	5.67	-50.0	-65.5	3.8	1.49e+00	0	43	104	1281359872	71	21682
2026-01-19 00:13:05.43	206.59	5.38	-50.0	-65.5	3.8	1.49e+00	0	43	104	1281359872	71	21614
2026-01-19 00:13:09.42	206.55	5.09	-50.0	-65.5	3.8	1.49e+00	0	43	104	1281359872	71	21641

#Closed at: 2026-01-19 00:13:11
#Recorded file [1281 MB]: D:/Data/31040_260119_030016.dat