passes_logs/2026/01/19/T1/T1__20260119_193954_FENGYUN_3G_rec.log

#Pass ID: 20260119_193954_FENGYUN 3G
#Satellite: FENGYUN 3G
#Configuration: FENGYUN 3G
#almurnet v.1.7.20251203
#Start time: 2026-01-19 19:39:55

#Version: 2.0.20230620
#Station: T1
#Location: 37.570604 lon 55.790049 lat
#TLE: 1 56232U 23055A   26018.90814638  .00029420  00000+0  45610-3 0  9994
#TLE: 2 56232  49.9939  35.7665 0004119  46.9747 313.1565 15.53706339156803

#Time	Az	El	Level	Level2	SNR	BER	BlckErr	Temp	State	Recorded	gain1	gain2
2026-01-19 19:39:55.50	213.58	5.09	-49.5	-69.1	3.8	8.39e-01	0	36	104	0	71	32662
2026-01-19 19:39:57.51	213.31	5.23	-49.5	-69.1	3.8	8.47e-01	0	37	104	0	70	34622
2026-01-19 19:39:59.55	213.04	5.37	-49.5	-69.1	3.8	8.46e-01	0	37	104	0	70	34602
2026-01-19 19:40:01.53	212.78	5.50	-49.5	-69.0	3.8	8.47e-01	0	37	104	0	70	34281
2026-01-19 19:40:03.52	212.51	5.64	-49.5	-68.9	3.8	8.48e-01	0	37	104	0	70	33965
2026-01-19 19:40:05.51	212.24	5.78	-49.5	-68.8	3.8	8.47e-01	0	37	104	0	70	33573
2026-01-19 19:40:07.49	211.96	5.92	-49.5	-68.9	3.8	8.48e-01	0	37	104	0	70	33798
2026-01-19 19:40:09.48	211.68	6.06	-49.5	-68.8	3.8	8.48e-01	0	37	104	0	70	33402
2026-01-19 19:40:11.47	211.40	6.20	-49.5	-68.9	3.8	8.46e-01	0	37	104	0	70	33732
2026-01-19 19:40:13.47	211.11	6.34	-49.5	-68.8	3.8	8.46e-01	0	37	104	0	70	33635
2026-01-19 19:40:15.52	210.80	6.49	-49.5	-69.0	3.8	8.48e-01	0	37	104	0	70	34464
2026-01-19 19:40:17.54	210.50	6.63	-49.5	-69.0	3.8	8.46e-01	0	37	104	0	70	34464
2026-01-19 19:40:19.53	210.20	6.77	-49.5	-69.0	3.8	8.46e-01	0	37	104	0	70	34214
2026-01-19 19:40:21.51	209.90	6.92	-49.5	-68.9	3.8	8.47e-01	0	37	104	0	70	33933
2026-01-19 19:40:23.50	209.59	7.06	-49.5	-68.8	3.8	8.46e-01	0	37	104	0	70	33471
2026-01-19 19:40:25.49	209.27	7.20	-49.5	-68.7	3.8	8.48e-01	0	37	104	0	70	32986
2026-01-19 19:40:27.47	208.96	7.35	-49.5	-68.3	3.8	8.48e-01	0	37	104	0	70	31471
2026-01-19 19:40:29.46	208.63	7.50	-49.5	-68.1	3.8	8.47e-01	0	38	104	0	70	30927
2026-01-19 19:40:31.45	208.31	7.64	-49.5	-68.8	3.8	8.47e-01	0	38	104	0	70	33610
2026-01-19 19:40:33.45	207.97	7.79	-49.5	-69.0	3.8	8.49e-01	0	38	104	0	70	34207
2026-01-19 19:40:35.50	207.63	7.94	-49.5	-69.0	3.8	8.47e-01	0	38	104	0	70	34278
2026-01-19 19:40:37.55	207.28	8.10	-49.5	-68.5	3.8	8.47e-01	0	38	104	0	70	32362
2026-01-19 19:40:39.57	206.92	8.25	-49.4	-67.2	3.8	8.46e-01	0	38	104	0	70	28024
2026-01-19 19:40:41.56	206.57	8.40	-49.5	-68.4	3.8	8.46e-01	0	38	104	0	70	32069
2026-01-19 19:40:43.54	206.22	8.55	-49.5	-68.4	3.8	8.48e-01	0	38	104	0	70	32129
2026-01-19 19:40:45.53	205.86	8.70	-49.4	-67.2	3.8	8.47e-01	0	38	104	0	70	27926
2026-01-19 19:40:47.52	205.49	8.85	-49.1	-61.7	6.1	8.45e-01	0	38	0	0	70	14740
2026-01-19 19:40:49.51	205.12	9.00	-48.4	-56.6	11.1	4.93e-02	0	38	0	0	68	9211
2026-01-19 19:40:51.49	204.74	9.15	-49.0	-60.0	7.8	6.91e-03	0	38	0	0	68	13621
2026-01-19 19:40:53.48	204.36	9.30	-46.7	-51.7	15.7	9.86e-02	0	38	0	0	65	6212
2026-01-19 19:40:55.54	203.96	9.46	-48.2	-55.6	11.5	1.62e-02	0	38	0	0	68	8220
2026-01-19 19:40:57.52	203.56	9.61	-46.5	-51.1	16.8	1.61e-02	0	38	0	0	64	6135
2026-01-19 19:40:59.51	203.16	9.77	-46.0	-50.2	17.7	0.00e+00	0	38	0	0	63	5864
2026-01-19 19:41:01.50	202.76	9.92	-44.8	-48.1	19.6	0.00e+00	0	38	0	0	61	5177
2026-01-19 19:41:03.49	202.35	10.08	-44.1	-47.0	20.7	0.00e+00	0	38	0	0	60	4869
2026-01-19 19:41:05.48	201.93	10.23	-44.1	-47.1	20.7	0.00e+00	0	38	0	0	59	5183
2026-01-19 19:41:07.47	201.51	10.39	-43.0	-45.6	22.1	0.00e+00	0	38	0	0	58	4611
2026-01-19 19:41:09.46	201.08	10.54	-42.5	-45.1	22.6	0.00e+00	0	38	0	0	57	4613
2026-01-19 19:41:11.45	200.64	10.70	-42.4	-44.9	22.7	0.00e+00	0	38	0	0	56	4773
2026-01-19 19:41:13.44	200.20	10.86	-42.2	-44.7	22.9	0.00e+00	0	38	0	0	56	4683
2026-01-19 19:41:15.42	199.75	11.01	-41.4	-43.8	23.6	0.00e+00	0	38	0	0	54	4741
2026-01-19 19:41:17.41	199.30	11.17	-41.4	-43.7	23.6	0.00e+00	0	38	0	0	54	4693
2026-01-19 19:41:19.40	198.84	11.33	-41.0	-43.3	24.0	0.00e+00	0	38	0	0	53	4715
2026-01-19 19:41:21.39	198.37	11.48	-40.6	-42.9	24.4	0.00e+00	0	38	0	0	53	4511
2026-01-19 19:41:23.38	197.90	11.64	-40.8	-43.1	24.1	0.00e+00	0	38	0	0	53	4645
2026-01-19 19:41:25.51	197.38	11.81	-40.9	-43.3	24.1	0.00e+00	0	38	0	0	53	4707
2026-01-19 19:41:27.51	196.89	11.96	-41.1	-43.4	24.0	0.00e+00	0	38	0	0	53	4799
2026-01-19 19:41:29.50	196.39	12.12	-41.0	-43.3	23.6	0.00e+00	0	38	0	0	53	4711
2026-01-19 19:41:31.81	195.81	12.30	-40.6	-42.8	24.5	0.00e+00	0	38	0	0	53	4487
2026-01-19 19:41:33.88	195.28	12.46	-40.3	-42.5	24.7	0.00e+00	0	39	0	0	52	4588
2026-01-19 19:41:35.87	194.76	12.62	-40.6	-42.9	24.5	0.00e+00	0	38	0	0	52	4762
2026-01-19 19:41:37.88	194.23	12.78	-40.8	-43.0	24.3	0.00e+00	0	38	0	0	52	4860
2026-01-19 19:41:40.04	193.65	12.94	-40.9	-43.2	24.1	0.00e+00	0	38	0	0	52	4950
2026-01-19 19:41:42.10	193.09	13.10	-41.0	-43.3	24.1	0.00e+00	0	38	0	0	52	5021
2026-01-19 19:41:44.16	192.52	13.26	-40.4	-42.6	24.7	0.00e+00	0	39	0	0	52	4619
2026-01-19 19:41:46.22	191.95	13.42	-40.1	-42.3	24.9	0.00e+00	0	38	0	0	52	4462
2026-01-19 19:41:48.27	191.37	13.58	-40.2	-42.3	24.9	0.00e+00	0	39	0	0	52	4482
2026-01-19 19:41:50.26	190.79	13.73	-40.0	-42.2	25.0	0.00e+00	0	39	0	0	52	4402
2026-01-19 19:41:52.27	190.21	13.88	-40.3	-42.5	24.8	0.00e+00	0	38	0	0	52	4547
2026-01-19 19:41:54.26	189.62	14.03	-40.6	-42.8	24.4	0.00e+00	0	39	0	0	52	4754
2026-01-19 19:41:56.26	189.02	14.18	-40.7	-43.0	24.4	0.00e+00	0	38	0	0	52	4824
2026-01-19 19:41:58.27	188.42	14.33	-40.5	-42.8	24.6	0.00e+00	0	38	0	0	52	4720
2026-01-19 19:42:00.26	187.81	14.47	-40.2	-42.4	24.9	0.00e+00	0	39	0	0	52	4530
2026-01-19 19:42:02.26	187.19	14.62	-39.8	-41.9	25.4	0.00e+00	0	38	0	0	51	4495
2026-01-19 19:42:04.26	186.56	14.76	-39.6	-41.7	25.5	0.00e+00	0	38	0	0	51	4424
2026-01-19 19:42:06.25	185.92	14.90	-39.5	-41.5	25.7	0.00e+00	0	38	0	0	50	4581
2026-01-19 19:42:08.41	185.23	15.05	-39.8	-41.9	25.4	0.00e+00	0	38	0	0	50	4781
2026-01-19 19:42:10.41	184.58	15.19	-40.4	-42.5	25.0	0.00e+00	0	38	0	0	51	4852
2026-01-19 19:42:12.39	183.92	15.33	-40.3	-42.5	24.9	0.00e+00	0	38	0	0	51	4816
2026-01-19 19:42:14.39	183.26	15.46	-39.7	-41.8	25.3	0.00e+00	0	39	0	0	51	4447
2026-01-19 19:42:16.38	182.58	15.59	-39.5	-41.5	25.6	0.00e+00	0	38	0	0	50	4592
2026-01-19 19:42:18.36	181.91	15.72	-39.2	-41.3	25.8	0.00e+00	0	39	0	0	50	4473
2026-01-19 19:42:20.35	181.22	15.85	-39.1	-41.1	26.0	0.00e+00	0	38	0	0	50	4369
2026-01-19 19:42:22.31	180.54	15.97	-39.0	-41.0	26.1	0.00e+00	0	38	0	0	49	4581
2026-01-19 19:42:24.33	179.83	16.09	-39.0	-41.0	26.0	0.00e+00	0	39	0	0	49	4583
2026-01-19 19:42:26.52	179.05	16.22	-38.8	-40.8	26.2	0.00e+00	0	38	0	0	49	4489
2026-01-19 19:42:28.53	178.33	16.34	-38.8	-40.8	26.2	0.00e+00	0	39	0	0	49	4451
2026-01-19 19:42:30.52	177.60	16.45	-38.8	-40.8	26.2	0.00e+00	0	38	0	0	49	4446
2026-01-19 19:42:32.51	176.88	16.56	-38.8	-40.8	26.2	0.00e+00	0	39	0	0	49	4482
2026-01-19 19:42:34.51	176.14	16.67	-39.1	-41.1	25.9	0.00e+00	0	38	0	0	49	4644
2026-01-19 19:42:36.50	175.39	16.77	-38.9	-40.9	26.2	0.00e+00	0	39	0	0	49	4506
2026-01-19 19:42:38.68	174.57	16.88	-39.1	-41.1	25.9	0.00e+00	0	38	0	0	49	4622
2026-01-19 19:42:40.70	173.81	16.98	-39.1	-41.1	25.9	0.00e+00	0	39	0	0	49	4648
2026-01-19 19:42:42.70	173.04	17.07	-38.8	-40.8	26.2	0.00e+00	0	39	0	0	49	4473
2026-01-19 19:42:44.69	172.28	17.16	-38.7	-40.7	26.2	0.00e+00	0	39	0	0	49	4407
2026-01-19 19:42:46.68	171.50	17.24	-39.0	-41.0	25.9	0.00e+00	0	38	0	0	49	4595
2026-01-19 19:42:48.63	170.74	17.32	-39.0	-41.1	25.9	0.00e+00	0	38	0	0	49	4603
2026-01-19 19:42:50.68	169.94	17.40	-38.7	-40.6	26.3	0.00e+00	0	39	0	0	49	4391
2026-01-19 19:42:52.71	169.13	17.47	-38.5	-40.5	26.4	0.00e+00	0	39	0	0	49	4301
2026-01-19 19:42:54.70	168.34	17.54	-38.2	-40.2	26.6	0.00e+00	0	39	0	0	48	4414
2026-01-19 19:42:56.69	167.55	17.60	-38.1	-40.1	26.7	0.00e+00	0	39	0	0	48	4360
2026-01-19 19:42:58.67	166.75	17.66	-38.1	-40.0	26.7	0.00e+00	0	39	0	0	48	4328
2026-01-19 19:43:00.67	165.94	17.71	-38.1	-40.0	26.7	0.00e+00	0	39	0	0	48	4329
2026-01-19 19:43:02.66	165.14	17.76	-38.3	-40.3	26.5	0.00e+00	0	39	0	0	48	4465
2026-01-19 19:43:04.64	164.33	17.81	-38.3	-40.3	26.5	0.00e+00	0	39	0	0	48	4449
2026-01-19 19:43:06.73	163.48	17.85	-38.3	-40.2	26.6	0.00e+00	0	39	0	0	48	4433
2026-01-19 19:43:08.76	162.65	17.88	-38.4	-40.4	26.4	0.00e+00	0	39	0	0	48	4505
2026-01-19 19:43:10.75	161.83	17.91	-38.4	-40.4	26.4	0.00e+00	0	39	0	0	48	4522
2026-01-19 19:43:12.80	160.99	17.94	-38.7	-40.7	26.3	0.00e+00	0	39	0	0	48	4665
2026-01-19 19:43:14.83	160.15	17.96	-38.6	-40.6	26.4	0.00e+00	0	39	0	0	48	4608
2026-01-19 19:43:16.88	159.31	17.97	-38.8	-40.9	26.0	0.00e+00	0	39	0	0	48	4771
2026-01-19 19:43:18.89	158.47	17.98	-38.7	-40.7	23.9	0.00e+00	0	39	0	0	48	4692
2026-01-19 19:43:20.89	157.65	17.98	-38.5	-40.5	26.3	0.00e+00	0	39	0	0	48	4571
2026-01-19 19:43:22.88	156.83	17.98	-38.1	-40.0	26.7	0.00e+00	0	38	0	0	48	4311
2026-01-19 19:43:25.02	155.94	17.98	-38.1	-40.1	26.6	0.00e+00	0	39	0	0	48	4358
2026-01-19 19:43:27.23	155.03	17.96	-38.8	-40.8	26.1	0.00e+00	0	39	0	0	48	4731
2026-01-19 19:43:29.22	154.21	17.95	-38.9	-41.0	26.0	0.00e+00	0	39	0	0	48	4825
2026-01-19 19:43:31.32	153.35	17.92	-38.7	-40.8	26.1	0.00e+00	0	39	0	0	48	4706
2026-01-19 19:43:33.31	152.53	17.90	-38.2	-40.2	25.6	0.00e+00	0	38	0	0	48	4418
2026-01-19 19:43:35.30	151.71	17.86	-38.2	-40.1	26.6	0.00e+00	0	39	0	0	48	4384
2026-01-19 19:43:37.29	150.90	17.83	-38.1	-40.1	26.6	0.00e+00	0	39	0	0	48	4366
2026-01-19 19:43:39.28	150.09	17.78	-38.4	-40.4	26.4	0.00e+00	0	39	0	0	48	4520
2026-01-19 19:43:41.26	149.29	17.74	-38.5	-40.5	26.4	0.00e+00	0	39	0	0	48	4557
2026-01-19 19:43:43.25	148.48	17.69	-38.5	-40.5	26.4	0.00e+00	0	39	0	0	48	4565
2026-01-19 19:43:45.24	147.68	17.63	-38.3	-40.2	26.5	0.00e+00	0	39	0	0	48	4423
2026-01-19 19:43:47.23	146.89	17.57	-38.1	-40.0	26.7	0.00e+00	0	39	0	0	48	4318
2026-01-19 19:43:49.43	146.01	17.50	-38.6	-40.5	26.4	0.00e+00	0	39	0	0	48	4577
2026-01-19 19:43:51.63	145.14	17.42	-38.9	-40.9	26.0	0.00e+00	0	39	0	0	48	4782
2026-01-19 19:43:53.62	144.36	17.34	-38.9	-40.9	26.0	0.00e+00	0	39	0	0	48	4798
2026-01-19 19:43:55.62	143.58	17.27	-38.9	-40.9	26.1	0.00e+00	0	39	0	0	48	4771
2026-01-19 19:43:57.61	142.81	17.18	-38.9	-40.9	26.0	0.00e+00	0	39	0	0	48	4802
2026-01-19 19:43:59.60	142.04	17.10	-38.7	-40.8	26.1	0.00e+00	0	39	0	0	48	4708
2026-01-19 19:44:01.51	141.31	17.01	-39.1	-41.1	25.8	0.00e+00	0	39	0	0	48	4918
2026-01-19 19:44:03.50	140.55	16.91	-39.3	-41.3	25.7	0.00e+00	0	39	0	0	49	4732
2026-01-19 19:44:05.49	139.80	16.82	-39.1	-41.2	25.8	0.00e+00	0	39	0	0	49	4662
2026-01-19 19:44:07.48	139.06	16.72	-39.3	-41.4	25.7	0.00e+00	0	39	0	0	49	4767
2026-01-19 19:44:09.47	138.33	16.61	-39.7	-41.7	25.4	0.00e+00	0	39	0	0	50	4702
2026-01-19 19:44:11.46	137.60	16.50	-39.2	-41.3	25.8	0.00e+00	0	39	0	0	50	4466
2026-01-19 19:44:13.52	136.85	16.39	-38.8	-40.8	26.0	0.00e+00	0	39	0	0	49	4486
2026-01-19 19:44:15.69	136.07	16.26	-38.9	-40.9	26.0	0.00e+00	0	39	0	0	49	4536
2026-01-19 19:44:17.68	135.36	16.15	-39.3	-41.4	25.6	0.00e+00	0	38	0	0	49	4771
2026-01-19 19:44:19.67	134.66	16.03	-39.3	-41.4	25.6	0.00e+00	0	39	0	0	49	4764
2026-01-19 19:44:21.66	133.96	15.90	-39.4	-41.4	25.6	0.00e+00	0	39	0	0	49	4814
2026-01-19 19:44:23.65	133.27	15.78	-39.5	-41.5	25.5	0.00e+00	0	39	0	0	49	4864
2026-01-19 19:44:25.65	132.59	15.65	-40.0	-42.1	25.1	0.00e+00	0	39	0	0	50	4926
2026-01-19 19:44:27.62	131.93	15.52	-40.2	-42.3	24.9	0.00e+00	0	39	0	0	51	4747
2026-01-19 19:44:29.61	131.26	15.39	-39.6	-41.7	25.4	0.00e+00	0	39	0	0	51	4417
2026-01-19 19:44:31.60	130.60	15.25	-39.5	-41.5	25.5	0.00e+00	0	39	0	0	50	4579
2026-01-19 19:44:33.83	129.88	15.10	-39.7	-41.7	25.3	0.00e+00	0	39	0	0	50	4699
2026-01-19 19:44:35.82	129.23	14.96	-39.9	-42.0	25.1	0.00e+00	0	39	0	0	50	4833
2026-01-19 19:44:37.81	128.60	14.82	-39.8	-41.9	25.2	0.00e+00	0	39	0	0	50	4780
2026-01-19 19:44:39.80	127.97	14.68	-39.6	-41.7	25.3	0.00e+00	0	39	0	0	50	4683
2026-01-19 19:44:41.79	127.36	14.54	-39.6	-41.7	25.3	0.00e+00	0	39	0	0	50	4674
2026-01-19 19:44:43.78	126.75	14.39	-40.0	-42.2	24.9	0.00e+00	0	39	0	0	50	4957
2026-01-19 19:44:45.77	126.14	14.25	-40.1	-42.3	24.9	0.00e+00	0	39	0	0	51	4748
2026-01-19 19:44:47.76	125.55	14.10	-40.4	-42.6	24.6	0.00e+00	0	39	0	0	51	4877
2026-01-19 19:44:49.75	124.96	13.95	-40.3	-42.4	24.7	0.00e+00	0	39	0	0	51	4810
2026-01-19 19:44:51.74	124.38	13.80	-39.9	-42.0	25.1	0.00e+00	0	39	0	0	51	4571
2026-01-19 19:44:53.73	123.81	13.65	-39.9	-42.0	25.1	0.00e+00	0	39	0	0	51	4557
2026-01-19 19:44:55.72	123.24	13.50	-40.2	-42.3	24.8	0.00e+00	0	39	0	0	51	4736
2026-01-19 19:44:57.72	122.68	13.35	-40.6	-42.9	24.3	0.00e+00	0	39	0	0	51	5043
2026-01-19 19:44:59.71	122.13	13.20	-40.6	-42.9	24.2	0.00e+00	0	39	0	0	52	4763
2026-01-19 19:45:01.76	121.57	13.04	-40.3	-42.4	24.6	0.00e+00	0	39	0	0	52	4544
2026-01-19 19:45:03.83	121.02	12.88	-40.4	-42.7	24.4	0.00e+00	0	39	0	0	52	4672
2026-01-19 19:45:05.75	120.51	12.73	-40.8	-43.1	24.1	0.00e+00	0	39	0	0	52	4873
2026-01-19 19:45:07.75	119.98	12.58	-40.8	-43.1	24.1	0.00e+00	0	39	0	0	52	4871
2026-01-19 19:45:09.73	119.47	12.42	-40.8	-43.0	24.2	0.00e+00	0	39	0	0	52	4819
2026-01-19 19:45:11.72	118.97	12.27	-40.6	-42.8	24.4	0.00e+00	0	39	0	0	52	4718
2026-01-19 19:45:13.71	118.47	12.11	-40.5	-42.7	24.4	0.00e+00	0	39	0	0	52	4682
2026-01-19 19:45:15.70	117.98	11.95	-40.8	-43.0	24.1	0.00e+00	0	39	0	0	52	4855
2026-01-19 19:45:17.74	117.48	11.79	-40.9	-43.2	24.0	0.00e+00	0	39	0	0	52	4929
2026-01-19 19:45:19.74	117.00	11.64	-41.1	-43.4	23.8	0.00e+00	0	39	0	0	52	5044
2026-01-19 19:45:21.73	116.53	11.48	-41.2	-43.5	23.7	0.00e+00	0	39	0	0	53	4836
2026-01-19 19:45:23.72	116.06	11.33	-41.1	-43.4	23.7	0.00e+00	0	39	0	0	53	4791
2026-01-19 19:45:25.71	115.60	11.17	-41.2	-43.4	23.7	0.00e+00	0	39	0	0	53	4809
2026-01-19 19:45:27.70	115.15	11.01	-41.2	-43.4	23.7	0.00e+00	0	39	0	0	53	4805
2026-01-19 19:45:29.69	114.71	10.86	-41.2	-43.5	23.6	0.00e+00	0	39	0	0	53	4870
2026-01-19 19:45:31.67	114.27	10.70	-41.2	-43.6	23.6	0.00e+00	0	39	0	0	53	4875
2026-01-19 19:45:33.66	113.84	10.55	-41.4	-43.7	23.4	0.00e+00	0	39	0	0	53	4971
2026-01-19 19:45:35.65	113.41	10.39	-41.6	-43.9	23.2	0.00e+00	0	39	0	0	53	5083
2026-01-19 19:45:37.64	112.99	10.24	-41.8	-44.3	23.0	0.00e+00	0	39	0	0	54	4990
2026-01-19 19:45:39.63	112.57	10.08	-42.0	-44.5	22.8	0.00e+00	0	39	0	0	54	5113
2026-01-19 19:45:41.62	112.17	9.93	-41.9	-44.4	22.9	0.00e+00	0	39	0	0	54	5058
2026-01-19 19:45:43.61	111.76	9.78	-42.2	-44.7	22.5	0.00e+00	0	39	0	0	55	4959
2026-01-19 19:45:45.63	111.36	9.62	-41.9	-44.4	22.8	0.00e+00	0	39	0	0	55	4784
2026-01-19 19:45:47.62	110.97	9.47	-41.9	-44.4	22.8	0.00e+00	0	39	0	0	55	4768
2026-01-19 19:45:49.61	110.58	9.31	-41.7	-44.1	23.0	0.00e+00	0	39	0	0	55	4630
2026-01-19 19:45:51.60	110.20	9.16	-41.7	-44.1	23.1	0.00e+00	0	39	0	0	55	4604
2026-01-19 19:45:53.59	109.83	9.01	-43.5	-46.2	21.8	0.00e+00	0	39	0	0	57	5252
2026-01-19 19:45:55.58	109.46	8.86	-50.4	-69.2	3.8	7.31e-01	0	39	104	0	71	33132
2026-01-19 19:45:57.56	109.10	8.71	-50.6	-69.4	3.8	8.47e-01	0	39	104	0	71	33812
2026-01-19 19:45:59.55	108.74	8.56	-50.6	-69.5	3.8	8.48e-01	0	39	104	0	71	34235
2026-01-19 19:46:01.54	108.38	8.41	-50.4	-69.5	3.8	8.47e-01	0	39	104	0	71	34419
2026-01-19 19:46:03.55	108.03	8.26	-50.5	-69.6	3.8	8.47e-01	0	39	104	0	71	34734
2026-01-19 19:46:05.54	107.69	8.11	-50.6	-69.6	3.8	8.47e-01	0	39	104	0	71	34706
2026-01-19 19:46:07.53	107.35	7.96	-50.6	-69.7	3.8	8.47e-01	0	39	104	0	71	34881
2026-01-19 19:46:09.52	107.01	7.82	-50.6	-69.6	3.8	8.46e-01	0	39	104	0	72	32676
2026-01-19 19:46:11.50	106.68	7.67	-50.4	-69.6	3.8	8.47e-01	0	39	104	0	72	32820
2026-01-19 19:46:13.49	106.36	7.52	-50.4	-69.6	3.8	8.47e-01	0	39	104	0	72	32844
2026-01-19 19:46:15.48	106.04	7.38	-50.5	-69.6	3.8	8.47e-01	0	39	104	0	72	32802
2026-01-19 19:46:17.46	105.72	7.23	-50.5	-69.6	3.8	8.47e-01	0	39	104	0	72	32768
2026-01-19 19:46:19.45	105.41	7.09	-50.4	-69.6	3.8	8.47e-01	0	39	104	0	72	32651
2026-01-19 19:46:21.43	105.11	6.95	-50.4	-69.6	3.8	8.47e-01	0	39	104	0	72	32724
2026-01-19 19:46:23.42	104.80	6.81	-50.5	-69.6	3.8	8.47e-01	0	39	104	0	72	32728
2026-01-19 19:46:25.41	104.50	6.66	-50.4	-69.6	3.8	8.48e-01	0	39	104	0	72	32601
2026-01-19 19:46:27.39	104.21	6.52	-50.4	-69.6	3.8	8.47e-01	0	39	104	0	72	32706
2026-01-19 19:46:29.38	103.92	6.38	-50.4	-69.6	3.8	8.47e-01	0	39	104	0	72	32713
2026-01-19 19:46:31.37	103.63	6.24	-50.4	-69.6	3.8	8.46e-01	0	39	104	0	72	32741
2026-01-19 19:46:33.35	103.35	6.10	-50.4	-69.6	3.8	8.47e-01	0	39	104	0	72	32625
2026-01-19 19:46:35.34	103.07	5.96	-50.4	-69.6	3.8	8.47e-01	0	39	104	0	72	32698
2026-01-19 19:46:37.33	102.79	5.82	-50.4	-69.6	3.8	8.48e-01	0	39	104	0	72	32643
2026-01-19 19:46:39.31	102.52	5.69	-50.4	-69.6	3.8	8.46e-01	0	39	104	0	72	32590
2026-01-19 19:46:41.30	102.25	5.55	-50.4	-69.6	3.8	8.46e-01	0	39	104	0	72	32592
2026-01-19 19:46:43.29	101.99	5.41	-50.4	-69.6	3.8	8.46e-01	0	39	104	0	72	32556
2026-01-19 19:46:45.27	101.73	5.28	-50.4	-69.5	3.8	8.47e-01	0	39	104	0	72	32522
2026-01-19 19:46:47.26	101.47	5.14	-50.4	-69.5	3.8	8.46e-01	0	39	104	0	72	32529
2026-01-19 19:46:49.25	101.22	5.01	-50.4	-69.5	3.8	8.47e-01	0	39	104	0	72	32531

#Closed at: 2026-01-19 19:46:51
#Recorded file [0 MB]: D:/Data/31040_260119_223955.dat