passes_logs/2026/01/19/T1/T1__20260119_115419_NOAA_20_JPSS-1_rec.log

#Pass ID: 20260119_115419_NOAA 20 (JPSS-1)
#Satellite: NOAA 20 (JPSS-1)
#Configuration: NOAA 20
#almurnet v.1.7.20251203
#Start time: 2026-01-19 11:54:21

#Version: 2.0.20230620
#Station: T1
#Location: 37.570604 lon 55.790049 lat
#TLE: 1 43013U 17073A   26018.92475364  .00000071  00000+0  54435-4 0  9998
#TLE: 2 43013  98.7641 319.8227 0001354  33.6678 326.4584 14.19536868423299

#Time	Az	El	Level	Level2	SNR	BER	BlckErr	Temp	State	Recorded	gain1	gain2
2026-01-19 11:54:21.29	227.62	5.11	-49.9	-65.2	3.8	1.49e+00	0	39	0	0	71	20909
2026-01-19 11:54:24.26	227.95	5.26	-49.9	-65.2	3.8	1.49e+00	0	39	104	0	71	20879
2026-01-19 11:54:27.24	228.28	5.41	-49.9	-65.2	3.8	1.49e+00	0	39	104	0	71	20896
2026-01-19 11:54:30.22	228.61	5.56	-49.9	-65.2	3.8	1.49e+00	0	39	104	0	71	20880
2026-01-19 11:54:33.20	228.95	5.71	-49.9	-65.2	3.8	1.49e+00	0	39	104	0	71	20857
2026-01-19 11:54:36.18	229.29	5.86	-49.9	-65.2	3.8	1.49e+00	0	39	104	0	71	20855
2026-01-19 11:54:39.15	229.63	6.01	-49.9	-65.1	3.8	1.49e+00	0	39	104	0	71	20754
2026-01-19 11:54:42.13	229.98	6.16	-49.9	-65.1	3.8	1.49e+00	0	39	104	0	71	20759
2026-01-19 11:54:45.11	230.33	6.31	-49.9	-65.1	3.8	1.49e+00	0	40	104	0	71	20676
2026-01-19 11:54:48.09	230.69	6.46	-49.9	-65.2	3.8	1.49e+00	0	40	104	0	71	20793
2026-01-19 11:54:51.07	231.05	6.61	-49.9	-65.1	3.8	1.49e+00	0	40	104	0	71	20732
2026-01-19 11:54:54.05	231.41	6.76	-49.9	-65.1	3.8	1.49e+00	0	40	104	0	71	20695
2026-01-19 11:54:57.03	231.77	6.91	-49.9	-65.1	3.8	1.49e+00	0	40	104	0	71	20744
2026-01-19 11:55:00.01	232.14	7.06	-49.9	-65.1	3.8	1.49e+00	0	40	104	0	71	20704
2026-01-19 11:55:02.99	232.52	7.21	-49.9	-64.9	3.8	1.49e+00	0	40	104	0	71	20261
2026-01-19 11:55:05.96	232.89	7.35	-49.9	-65.1	3.8	1.49e+00	0	40	104	0	71	20614
2026-01-19 11:55:08.94	233.27	7.50	-49.9	-65.2	3.8	1.49e+00	0	40	104	0	71	20781
2026-01-19 11:55:11.92	233.66	7.65	-49.9	-65.1	3.8	1.49e+00	0	40	104	0	71	20621
2026-01-19 11:55:14.90	234.05	7.80	-49.9	-65.2	3.8	1.49e+00	0	40	104	0	71	20790
2026-01-19 11:55:17.88	234.44	7.95	-49.9	-65.1	3.8	1.49e+00	0	40	104	0	71	20654
2026-01-19 11:55:20.86	234.83	8.10	-49.9	-64.9	3.8	1.49e+00	0	40	104	0	71	20097
2026-01-19 11:55:23.84	235.23	8.25	-49.8	-63.2	3.9	1.49e+00	0	40	104	0	71	16599
2026-01-19 11:55:26.82	235.64	8.39	-49.8	-63.9	3.8	1.49e+00	0	40	104	0	71	17900
2026-01-19 11:55:29.79	236.04	8.54	-47.5	-52.6	11.1	1.45e-02	0	40	0	4194304	67	6202
2026-01-19 11:55:32.77	236.45	8.69	-45.4	-48.8	15.2	0.00e+00	0	40	0	9437184	62	5284
2026-01-19 11:55:35.75	236.87	8.83	-46.4	-50.3	13.6	6.10e-06	0	40	0	14680064	63	5977
2026-01-19 11:55:38.73	237.29	8.98	-48.6	-55.6	8.1	3.99e-02	0	40	0	20971520	67	8745
2026-01-19 11:55:41.71	237.71	9.12	-48.3	-54.5	9.2	3.33e-01	0	41	0	26214400	68	7278
2026-01-19 11:55:44.68	238.14	9.27	-47.0	-51.5	12.2	1.02e+00	0	40	0	31457280	66	5726
2026-01-19 11:55:47.66	238.57	9.41	-46.9	-51.3	12.5	3.29e-04	0	40	0	36700160	65	5980
2026-01-19 11:55:50.64	239.01	9.56	-45.4	-48.6	15.4	0.00e+00	0	41	0	42991616	62	5186
2026-01-19 11:55:53.62	239.45	9.70	-44.3	-47.0	16.9	0.00e+00	0	40	0	48234496	60	4863
2026-01-19 11:55:56.60	239.89	9.84	-43.8	-46.4	17.5	0.00e+00	0	40	0	53477376	59	4805
2026-01-19 11:55:59.58	240.34	9.98	-43.8	-46.4	17.5	0.00e+00	0	41	0	59768832	59	4795
2026-01-19 11:56:02.56	240.79	10.12	-43.6	-46.2	17.7	0.00e+00	0	41	0	65011712	59	4680
2026-01-19 11:56:05.53	241.25	10.26	-43.7	-46.2	17.7	0.00e+00	0	41	0	70254592	59	4692
2026-01-19 11:56:08.51	241.71	10.40	-43.8	-46.4	17.6	0.00e+00	0	41	0	76546048	59	4771
2026-01-19 11:56:11.49	242.18	10.54	-43.9	-46.5	17.4	0.00e+00	0	41	0	81788928	59	4860
2026-01-19 11:56:14.47	242.65	10.68	-43.8	-46.3	17.6	0.00e+00	0	41	0	87031808	59	4747
2026-01-19 11:56:17.45	243.12	10.82	-43.8	-46.4	17.5	0.00e+00	0	41	0	93323264	59	4808
2026-01-19 11:56:20.43	243.60	10.95	-43.8	-46.3	17.6	0.00e+00	0	41	0	98566144	59	4751
2026-01-19 11:56:23.41	244.08	11.09	-43.8	-46.4	17.5	0.00e+00	0	41	0	103809024	59	4806
2026-01-19 11:56:26.38	244.57	11.22	-43.7	-46.3	17.7	0.00e+00	0	41	0	110100480	59	4724
2026-01-19 11:56:29.36	245.06	11.35	-43.7	-46.2	17.8	0.00e+00	0	41	0	115343360	59	4671
2026-01-19 11:56:32.34	245.55	11.48	-43.9	-46.5	17.5	0.00e+00	0	41	0	120586240	59	4861
2026-01-19 11:56:35.32	246.05	11.61	-44.0	-46.6	17.4	0.00e+00	0	41	0	126877696	59	4894
2026-01-19 11:56:38.30	246.56	11.74	-43.9	-46.5	17.5	0.00e+00	0	41	0	132120576	59	4855
2026-01-19 11:56:41.28	247.06	11.87	-43.9	-46.5	17.5	0.00e+00	0	41	0	137363456	59	4837
2026-01-19 11:56:44.25	247.58	11.99	-44.2	-46.8	17.2	0.00e+00	0	41	0	143654912	59	5040
2026-01-19 11:56:47.23	248.09	12.12	-44.3	-47.0	17.0	0.00e+00	0	41	0	148897792	59	5121
2026-01-19 11:56:50.21	248.61	12.24	-44.3	-47.0	17.0	0.00e+00	0	41	0	154140672	59	5145
2026-01-19 11:56:53.19	249.14	12.36	-44.4	-47.1	16.9	0.00e+00	0	41	0	160432128	59	5194
2026-01-19 11:56:56.17	249.67	12.48	-44.6	-47.5	16.5	0.00e+00	0	41	0	165675008	59	5441
2026-01-19 11:56:59.15	250.20	12.60	-44.8	-47.8	16.4	0.00e+00	0	41	0	170917888	60	5295
2026-01-19 11:57:02.13	250.74	12.72	-44.8	-47.8	16.4	0.00e+00	0	41	0	177209344	60	5286
2026-01-19 11:57:05.11	251.28	12.83	-44.8	-47.7	16.4	0.00e+00	0	41	0	182452224	60	5268
2026-01-19 11:57:08.08	251.82	12.94	-45.0	-48.1	16.1	0.00e+00	0	41	0	187695104	60	5474
2026-01-19 11:57:11.06	252.37	13.05	-45.1	-48.1	16.0	0.00e+00	0	41	0	193986560	60	5524
2026-01-19 11:57:14.04	252.93	13.16	-45.2	-48.4	15.8	0.00e+00	0	41	0	199229440	61	5360
2026-01-19 11:57:17.02	253.49	13.27	-45.1	-48.1	16.0	0.00e+00	0	41	0	204472320	61	5205
2026-01-19 11:57:20.00	254.05	13.37	-45.0	-48.0	16.1	0.00e+00	0	41	0	210763776	61	5157
2026-01-19 11:57:22.98	254.61	13.48	-45.2	-48.4	15.8	0.00e+00	0	41	0	216006656	61	5361
2026-01-19 11:57:25.96	255.18	13.58	-45.4	-48.7	15.4	0.00e+00	0	41	0	221249536	61	5586
2026-01-19 11:57:28.93	255.75	13.68	-45.4	-48.7	15.4	0.00e+00	0	41	0	226492416	61	5559
2026-01-19 11:57:31.91	256.33	13.77	-45.2	-48.4	15.7	0.00e+00	0	41	0	232783872	61	5386
2026-01-19 11:57:34.89	256.91	13.87	-45.0	-48.1	16.1	0.00e+00	0	41	0	238026752	61	5191
2026-01-19 11:57:37.87	257.49	13.96	-45.1	-48.2	15.9	0.00e+00	0	41	0	243269632	61	5264
2026-01-19 11:57:40.85	258.08	14.05	-45.1	-48.2	16.0	0.00e+00	0	41	0	249561088	61	5234
2026-01-19 11:57:43.83	258.67	14.13	-45.1	-48.2	16.0	0.00e+00	0	41	0	254803968	61	5249
2026-01-19 11:57:46.81	259.26	14.22	-44.8	-47.8	16.3	0.00e+00	0	41	0	260046848	61	5036
2026-01-19 11:57:49.78	259.86	14.30	-44.3	-47.1	17.1	0.00e+00	0	41	0	266338304	60	4878
2026-01-19 11:57:52.76	260.46	14.38	-44.1	-46.8	17.3	0.00e+00	0	41	0	271581184	59	5001
2026-01-19 11:57:55.74	261.06	14.46	-44.0	-46.7	17.4	0.00e+00	0	41	0	276824064	59	4964
2026-01-19 11:57:58.72	261.67	14.53	-44.1	-46.8	17.4	0.00e+00	0	41	0	283115520	59	4986
2026-01-19 11:58:01.70	262.28	14.60	-44.0	-46.6	17.5	0.00e+00	0	41	0	288358400	59	4888
2026-01-19 11:58:04.68	262.89	14.67	-43.8	-46.5	17.6	0.00e+00	0	41	0	293601280	59	4825
2026-01-19 11:58:07.66	263.50	14.73	-43.9	-46.6	17.5	0.00e+00	0	41	0	299892736	59	4882
2026-01-19 11:58:10.63	264.12	14.80	-44.1	-46.9	17.3	0.00e+00	0	41	0	305135616	59	5051
2026-01-19 11:58:13.61	264.74	14.85	-44.4	-47.2	16.9	0.00e+00	0	41	0	310378496	59	5261
2026-01-19 11:58:16.59	265.36	14.91	-49.9	-65.2	3.8	1.46e+00	0	41	104	315621376	71	20942
2026-01-19 11:58:19.57	265.98	14.96	-46.9	-63.2	3.8	1.49e+00	0	41	104	315621376	65	23329
2026-01-19 11:58:22.55	266.61	15.01	-46.9	-63.1	3.8	1.49e+00	0	41	104	315621376	65	23220
2026-01-19 11:58:25.53	267.23	15.06	-46.9	-63.2	3.8	1.49e+00	0	41	104	315621376	65	23346
2026-01-19 11:58:28.51	267.86	15.11	-46.9	-63.2	3.8	1.49e+00	0	41	104	315621376	65	23332
2026-01-19 11:58:31.48	268.49	15.15	-46.9	-63.1	3.8	1.49e+00	0	41	104	315621376	65	23197
2026-01-19 11:58:34.46	269.12	15.18	-46.9	-63.2	3.8	1.49e+00	0	41	104	315621376	65	23347
2026-01-19 11:58:37.44	269.76	15.22	-46.9	-63.2	3.8	1.49e+00	0	41	104	315621376	65	23345
2026-01-19 11:58:40.42	270.39	15.25	-46.9	-63.2	3.8	1.49e+00	0	41	104	315621376	65	23326
2026-01-19 11:58:43.40	271.03	15.28	-46.9	-63.1	3.8	1.49e+00	0	41	104	315621376	65	23306
2026-01-19 11:58:46.38	271.67	15.30	-46.9	-63.1	3.8	1.49e+00	0	41	104	315621376	65	23214
2026-01-19 11:58:49.36	272.31	15.32	-46.9	-63.2	3.8	1.49e+00	0	41	104	315621376	65	23374
2026-01-19 11:58:52.34	272.95	15.34	-46.9	-63.1	3.8	1.49e+00	0	41	104	315621376	65	23308
2026-01-19 11:58:55.32	273.59	15.36	-46.9	-63.2	3.8	1.49e+00	0	41	104	315621376	65	23333
2026-01-19 11:58:58.29	274.23	15.37	-46.9	-63.2	3.8	1.49e+00	0	41	104	315621376	65	23345
2026-01-19 11:59:01.27	274.87	15.37	-46.9	-63.2	3.8	1.49e+00	0	41	104	315621376	65	23332
2026-01-19 11:59:04.25	275.51	15.38	-46.9	-63.2	3.8	1.49e+00	0	41	104	315621376	65	23332
2026-01-19 11:59:07.23	276.15	15.38	-46.9	-63.2	3.8	1.49e+00	0	41	104	315621376	65	23376
2026-01-19 11:59:10.21	276.79	15.38	-46.9	-63.1	3.8	1.49e+00	0	41	104	315621376	65	23277
2026-01-19 11:59:13.19	277.43	15.37	-46.9	-63.2	3.8	1.49e+00	0	41	104	315621376	65	23319
2026-01-19 11:59:16.17	278.07	15.36	-46.9	-63.1	3.8	1.49e+00	0	41	104	315621376	65	23306
2026-01-19 11:59:19.15	278.71	15.35	-46.9	-63.2	3.8	1.49e+00	0	41	104	315621376	65	23371
2026-01-19 11:59:22.13	279.35	15.34	-46.9	-63.2	3.8	1.49e+00	0	41	104	315621376	65	23316
2026-01-19 11:59:25.11	279.99	15.32	-46.9	-63.2	3.8	1.49e+00	0	41	104	315621376	65	23356
2026-01-19 11:59:28.09	280.63	15.29	-46.9	-63.2	3.8	1.49e+00	0	41	104	315621376	65	23319
2026-01-19 11:59:31.06	281.26	15.27	-46.9	-63.2	3.8	1.49e+00	0	41	104	315621376	65	23394
2026-01-19 11:59:34.04	281.90	15.24	-46.9	-63.2	3.8	1.49e+00	0	41	104	315621376	65	23336
2026-01-19 11:59:37.02	282.53	15.21	-46.9	-63.2	3.8	1.49e+00	0	41	104	315621376	65	23346
2026-01-19 11:59:40.00	283.16	15.17	-46.9	-63.1	3.8	1.49e+00	0	41	104	315621376	65	23279
2026-01-19 11:59:42.98	283.79	15.14	-46.9	-63.2	3.8	1.49e+00	0	41	104	315621376	65	23316
2026-01-19 11:59:45.96	284.42	15.09	-46.9	-63.1	3.8	1.49e+00	0	41	104	315621376	65	23280
2026-01-19 11:59:48.94	285.05	15.05	-46.9	-63.1	3.8	1.49e+00	0	41	104	315621376	65	23285
2026-01-19 11:59:51.92	285.68	15.00	-46.9	-63.2	3.8	1.49e+00	0	41	104	315621376	65	23351
2026-01-19 11:59:54.90	286.30	14.95	-46.9	-63.2	3.8	1.49e+00	0	41	104	315621376	65	23353
2026-01-19 11:59:57.88	286.92	14.90	-46.9	-63.1	3.8	1.49e+00	0	41	104	315621376	65	23227
2026-01-19 12:00:00.86	287.54	14.84	-46.9	-63.1	3.8	1.49e+00	0	41	104	315621376	65	23309
2026-01-19 12:00:03.84	288.16	14.78	-46.9	-63.2	3.8	1.49e+00	0	41	104	315621376	65	23348
2026-01-19 12:00:06.81	288.77	14.72	-46.9	-63.1	3.8	1.49e+00	0	41	104	315621376	65	23291
2026-01-19 12:00:09.79	289.38	14.65	-46.9	-63.2	3.8	1.49e+00	0	41	104	315621376	65	23333
2026-01-19 12:00:12.77	289.99	14.58	-46.9	-63.1	3.8	1.49e+00	0	41	104	315621376	65	23292
2026-01-19 12:00:15.75	290.60	14.51	-46.9	-63.1	3.8	1.49e+00	0	41	104	315621376	65	23278
2026-01-19 12:00:18.73	291.20	14.44	-46.9	-63.2	3.8	1.49e+00	0	41	104	315621376	65	23324
2026-01-19 12:00:21.71	291.80	14.36	-46.9	-63.2	3.8	1.49e+00	0	41	104	315621376	65	23387
2026-01-19 12:00:24.69	292.40	14.28	-46.9	-63.1	3.8	1.49e+00	0	41	104	315621376	65	23295
2026-01-19 12:00:27.67	292.99	14.20	-46.9	-63.2	3.8	1.49e+00	0	41	104	315621376	65	23333
2026-01-19 12:00:30.65	293.58	14.12	-46.9	-63.1	3.8	1.49e+00	0	41	104	315621376	65	23231
2026-01-19 12:00:33.63	294.17	14.03	-46.9	-63.1	3.8	1.49e+00	0	41	104	315621376	65	23301
2026-01-19 12:00:36.60	294.75	13.94	-46.9	-63.1	3.8	1.49e+00	0	41	104	315621376	65	23232
2026-01-19 12:00:39.58	295.33	13.85	-46.9	-63.2	3.8	1.49e+00	0	41	104	315621376	65	23371
2026-01-19 12:00:42.56	295.91	13.75	-46.9	-63.1	3.8	1.49e+00	0	41	104	315621376	65	23296
2026-01-19 12:00:45.54	296.48	13.66	-46.9	-63.1	3.8	1.49e+00	0	41	104	315621376	65	23301
2026-01-19 12:00:48.52	297.05	13.56	-46.9	-63.2	3.8	1.49e+00	0	41	104	315621376	65	23321
2026-01-19 12:00:51.50	297.62	13.46	-46.9	-63.2	3.8	1.49e+00	0	41	104	315621376	65	23466
2026-01-19 12:00:54.48	298.18	13.36	-46.9	-63.1	3.8	1.49e+00	0	41	104	315621376	65	23284
2026-01-19 12:00:57.46	298.74	13.25	-46.9	-63.1	3.8	1.49e+00	0	41	104	315621376	65	23234
2026-01-19 12:01:00.44	299.29	13.14	-46.8	-63.2	3.8	1.49e+00	0	41	104	315621376	65	23317
2026-01-19 12:01:03.42	299.84	13.04	-46.9	-63.2	3.8	1.49e+00	0	41	104	315621376	65	23351
2026-01-19 12:01:06.40	300.39	12.92	-46.9	-63.1	3.8	1.49e+00	0	41	104	315621376	65	23287
2026-01-19 12:01:09.37	300.93	12.81	-46.9	-63.2	3.8	1.49e+00	0	41	104	315621376	65	23349
2026-01-19 12:01:12.35	301.46	12.70	-46.9	-63.2	3.8	1.49e+00	0	41	104	315621376	65	23335
2026-01-19 12:01:15.33	302.00	12.58	-46.9	-63.1	3.8	1.49e+00	0	41	104	315621376	65	23284
2026-01-19 12:01:18.31	302.53	12.47	-46.9	-63.1	3.8	1.49e+00	0	41	104	315621376	65	23237
2026-01-19 12:01:21.29	303.05	12.35	-46.9	-63.1	3.8	1.49e+00	0	41	104	315621376	65	23228
2026-01-19 12:01:24.27	303.58	12.23	-46.9	-63.2	3.8	1.49e+00	0	41	104	315621376	65	23323
2026-01-19 12:01:27.25	304.09	12.10	-46.9	-63.2	3.8	1.49e+00	0	41	104	315621376	65	23324
2026-01-19 12:01:30.23	304.61	11.98	-46.9	-63.1	3.8	1.49e+00	0	41	104	315621376	65	23283
2026-01-19 12:01:33.21	305.11	11.85	-46.9	-63.1	3.8	1.49e+00	0	41	104	315621376	65	23302
2026-01-19 12:01:36.18	305.62	11.73	-46.9	-63.2	3.8	1.49e+00	0	41	104	315621376	65	23318
2026-01-19 12:01:39.16	306.12	11.60	-46.9	-63.1	3.8	1.49e+00	0	41	104	315621376	65	23267
2026-01-19 12:01:42.14	306.61	11.47	-46.9	-63.1	3.8	1.49e+00	0	41	104	315621376	65	23308
2026-01-19 12:01:45.12	307.11	11.34	-46.9	-63.2	3.8	1.49e+00	0	41	104	315621376	65	23405
2026-01-19 12:01:48.10	307.59	11.21	-46.9	-63.1	3.8	1.49e+00	0	41	104	315621376	65	23310
2026-01-19 12:01:51.08	308.08	11.08	-46.9	-63.2	3.8	1.49e+00	0	41	104	315621376	65	23468
2026-01-19 12:01:54.06	308.56	10.95	-46.9	-63.2	3.8	1.49e+00	0	41	104	315621376	65	23318
2026-01-19 12:01:57.04	309.03	10.81	-46.9	-63.2	3.8	1.49e+00	0	41	104	315621376	65	23366
2026-01-19 12:02:00.02	309.50	10.68	-46.9	-63.1	3.8	1.49e+00	0	41	104	315621376	65	23242
2026-01-19 12:02:03.00	309.97	10.54	-46.9	-63.2	3.8	1.49e+00	0	41	104	315621376	65	23472
2026-01-19 12:02:05.97	310.43	10.40	-46.9	-63.2	3.8	1.49e+00	0	41	104	315621376	65	23354
2026-01-19 12:02:08.95	310.89	10.26	-46.9	-63.2	3.8	1.49e+00	0	41	104	315621376	65	23365
2026-01-19 12:02:11.93	311.34	10.13	-46.9	-63.1	3.8	1.49e+00	0	41	104	315621376	65	23278
2026-01-19 12:02:14.91	311.79	9.99	-46.9	-63.2	3.8	1.49e+00	0	41	104	315621376	65	23325
2026-01-19 12:02:17.89	312.24	9.85	-46.9	-63.1	3.8	1.49e+00	0	41	104	315621376	65	23220
2026-01-19 12:02:20.87	312.68	9.71	-46.9	-63.2	3.8	1.49e+00	0	41	104	315621376	65	23423
2026-01-19 12:02:23.85	313.11	9.56	-46.9	-63.2	3.8	1.49e+00	0	41	104	315621376	65	23392
2026-01-19 12:02:26.83	313.55	9.42	-46.9	-63.2	3.8	1.49e+00	0	41	104	315621376	65	23328
2026-01-19 12:02:29.81	313.98	9.28	-46.9	-63.2	3.8	1.49e+00	0	41	104	315621376	65	23390
2026-01-19 12:02:32.79	314.40	9.14	-46.9	-63.2	3.8	1.49e+00	0	41	104	315621376	65	23335
2026-01-19 12:02:35.76	314.82	8.99	-46.9	-63.1	3.8	1.49e+00	0	41	104	315621376	65	23309
2026-01-19 12:02:38.74	315.24	8.85	-46.9	-63.1	3.8	1.49e+00	0	41	104	315621376	65	23307
2026-01-19 12:02:41.72	315.65	8.70	-46.9	-63.2	3.8	1.49e+00	0	41	104	315621376	65	23440
2026-01-19 12:02:44.70	316.06	8.56	-46.9	-63.2	3.8	1.49e+00	0	41	104	315621376	65	23319
2026-01-19 12:02:47.68	316.46	8.41	-46.9	-63.2	3.8	1.49e+00	0	41	104	315621376	65	23393
2026-01-19 12:02:50.66	316.86	8.27	-46.9	-63.2	3.8	1.49e+00	0	41	104	315621376	65	23419
2026-01-19 12:02:53.64	317.26	8.12	-46.9	-63.2	3.8	1.49e+00	0	41	104	315621376	65	23362
2026-01-19 12:02:56.61	317.65	7.97	-46.9	-63.2	3.8	1.49e+00	0	41	104	315621376	65	23355
2026-01-19 12:02:59.59	318.04	7.83	-46.9	-63.2	3.8	1.49e+00	0	41	104	315621376	65	23381
2026-01-19 12:03:02.57	318.43	7.68	-46.9	-63.1	3.8	1.49e+00	0	41	104	315621376	65	23291
2026-01-19 12:03:05.55	318.81	7.53	-46.9	-63.2	3.8	1.49e+00	0	41	104	315621376	65	23345
2026-01-19 12:03:08.53	319.19	7.39	-46.9	-63.2	3.8	1.49e+00	0	41	104	315621376	65	23405
2026-01-19 12:03:11.51	319.56	7.24	-46.9	-63.2	3.8	1.49e+00	0	41	104	315621376	65	23315
2026-01-19 12:03:14.49	319.94	7.09	-46.9	-63.2	3.8	1.49e+00	0	41	104	315621376	65	23378
2026-01-19 12:03:17.46	320.30	6.94	-46.9	-63.2	3.8	1.49e+00	0	41	104	315621376	65	23443
2026-01-19 12:03:20.44	320.67	6.80	-46.9	-63.2	3.8	1.49e+00	0	41	104	315621376	65	23436
2026-01-19 12:03:23.42	321.03	6.65	-46.9	-63.2	3.8	1.49e+00	0	41	104	315621376	65	23374
2026-01-19 12:03:26.40	321.38	6.50	-46.9	-63.2	3.8	1.49e+00	0	41	104	315621376	65	23329
2026-01-19 12:03:29.38	321.74	6.35	-46.9	-63.2	3.8	1.49e+00	0	41	104	315621376	65	23468
2026-01-19 12:03:32.36	322.09	6.20	-46.8	-63.2	3.8	1.49e+00	0	41	104	315621376	65	23433
2026-01-19 12:03:35.33	322.43	6.06	-46.9	-63.1	3.8	1.49e+00	0	41	104	315621376	65	23275
2026-01-19 12:03:38.31	322.77	5.91	-46.9	-63.2	3.8	1.49e+00	0	41	104	315621376	65	23312
2026-01-19 12:03:41.29	323.11	5.76	-46.9	-63.2	3.8	1.49e+00	0	41	104	315621376	65	23347
2026-01-19 12:03:44.27	323.45	5.61	-46.9	-63.2	3.8	1.49e+00	0	41	104	315621376	65	23402
2026-01-19 12:03:47.25	323.78	5.46	-46.9	-63.2	3.8	1.49e+00	0	41	104	315621376	65	23439
2026-01-19 12:03:50.23	324.11	5.32	-46.9	-63.2	3.8	1.49e+00	0	41	104	315621376	65	23371
2026-01-19 12:03:53.21	324.44	5.17	-46.9	-63.2	3.8	1.49e+00	0	41	104	315621376	65	23405
2026-01-19 12:03:56.19	324.77	5.02	-46.9	-63.2	3.8	1.49e+00	0	41	104	315621376	65	23318

#Closed at: 2026-01-19 12:03:58
#Recorded file [315 MB]: D:/Data/31040_260119_145421.dat