passes_logs/2026/01/19/T1/T1__20260119_002058_NOAA_20_JPSS-1_rec.log

#Pass ID: 20260119_002058_NOAA 20 (JPSS-1)
#Satellite: NOAA 20 (JPSS-1)
#Configuration: NOAA 20
#almurnet v.1.7.20251203
#Start time: 2026-01-19 00:20:58

#Version: 2.0.20230620
#Station: T1
#Location: 37.570604 lon 55.790049 lat
#TLE: 1 43013U 17073A   26017.93796159  .00000077  00000+0  57252-4 0  9992
#TLE: 2 43013  98.7639 318.8464 0001390  34.9771 325.1496 14.19536703423157

#Time	Az	El	Level	Level2	SNR	BER	BlckErr	Temp	State	Recorded	gain1	gain2
2026-01-19 00:20:58.99	12.25	5.07	-47.2	-64.8	3.8	1.49e+00	0	41	0	0	66	26654
2026-01-19 00:21:01.97	12.15	5.28	-47.2	-64.7	3.8	1.49e+00	0	41	104	0	65	27855
2026-01-19 00:21:04.95	12.06	5.49	-47.2	-64.7	3.8	1.49e+00	0	41	104	0	65	27883
2026-01-19 00:21:07.93	11.96	5.70	-47.2	-64.7	3.8	1.49e+00	0	41	104	0	65	27933
2026-01-19 00:21:10.91	11.87	5.91	-47.2	-64.7	3.8	1.49e+00	0	41	104	0	65	28015
2026-01-19 00:21:13.89	11.77	6.13	-47.2	-64.7	3.8	1.49e+00	0	41	104	0	65	27800
2026-01-19 00:21:16.87	11.67	6.34	-47.2	-64.3	3.8	1.49e+00	0	42	104	0	65	26500
2026-01-19 00:21:19.85	11.56	6.56	-47.1	-63.5	3.8	1.49e+00	0	41	104	0	65	24201
2026-01-19 00:21:22.83	11.46	6.78	-47.1	-62.6	3.9	1.49e+00	0	42	104	0	65	21841
2026-01-19 00:21:25.81	11.35	7.01	-47.1	-62.6	3.8	1.48e+00	0	42	104	0	65	21973
2026-01-19 00:21:28.79	11.25	7.23	-47.1	-63.4	3.8	1.49e+00	0	42	104	0	65	23998
2026-01-19 00:21:31.77	11.14	7.46	-47.2	-64.4	3.8	1.49e+00	0	42	104	0	65	26828
2026-01-19 00:21:34.75	11.02	7.68	-47.2	-64.5	3.8	1.49e+00	0	42	104	0	65	27235
2026-01-19 00:21:37.73	10.91	7.91	-47.0	-60.9	4.3	1.45e+00	0	42	0	0	65	17989
2026-01-19 00:21:40.71	10.79	8.15	-46.4	-55.4	8.0	1.32e-01	0	42	0	5242880	64	10167
2026-01-19 00:21:43.69	10.68	8.38	-45.6	-51.7	12.0	6.29e-04	0	42	0	10485760	63	6993
2026-01-19 00:21:46.67	10.56	8.61	-44.6	-49.5	14.2	1.50e-06	0	42	0	15728640	61	6067
2026-01-19 00:21:49.65	10.43	8.85	-44.4	-49.1	14.6	1.50e-06	0	42	0	22020096	60	6145
2026-01-19 00:21:52.63	10.31	9.09	-45.2	-50.5	13.2	8.30e-06	0	42	0	27262976	61	6839
2026-01-19 00:21:55.74	10.18	9.35	-42.5	-46.0	17.6	0.00e+00	0	42	0	33554432	57	5135
2026-01-19 00:21:58.68	10.05	9.59	-42.4	-45.9	17.7	0.00e+00	0	42	0	38797312	56	5398
2026-01-19 00:22:02.05	9.90	9.87	-42.6	-46.1	17.5	0.00e+00	0	42	0	45088768	56	5518
2026-01-19 00:22:05.22	9.76	10.13	-42.4	-45.9	17.8	0.00e+00	0	42	0	51380224	56	5350
2026-01-19 00:22:08.21	9.62	10.38	-42.4	-45.7	17.9	0.00e+00	0	42	0	56623104	56	5270
2026-01-19 00:22:11.19	9.48	10.64	-42.3	-45.7	18.0	0.00e+00	0	42	0	61865984	56	5224
2026-01-19 00:22:14.24	9.34	10.90	-42.4	-45.7	18.0	0.00e+00	0	43	0	68157440	56	5247
2026-01-19 00:22:17.33	9.19	11.17	-42.4	-45.6	18.1	0.00e+00	0	43	0	73400320	56	5174
2026-01-19 00:22:20.24	9.04	11.43	-42.4	-45.6	18.1	0.00e+00	0	43	0	78643200	56	5165
2026-01-19 00:22:23.77	8.86	11.74	-42.5	-45.5	18.2	0.00e+00	0	43	0	85983232	56	5130
2026-01-19 00:22:26.49	8.72	11.98	-42.3	-45.4	18.4	0.00e+00	0	43	0	91226112	56	5045
2026-01-19 00:22:29.76	8.55	12.28	-42.4	-45.3	18.5	0.00e+00	0	43	0	96468992	56	5008
2026-01-19 00:22:32.49	8.40	12.53	-42.4	-45.4	18.4	0.00e+00	0	43	0	101711872	56	5051
2026-01-19 00:22:35.76	8.23	12.83	-42.5	-45.5	18.3	0.00e+00	0	43	0	108003328	56	5102
2026-01-19 00:22:38.46	8.07	13.09	-42.4	-45.2	18.6	0.00e+00	0	43	0	113246208	56	4928
2026-01-19 00:22:41.73	7.89	13.40	-42.4	-45.2	18.5	0.00e+00	0	43	0	119537664	56	4981
2026-01-19 00:22:44.82	7.71	13.69	-42.5	-45.3	18.5	0.00e+00	0	43	0	124780544	56	4991
2026-01-19 00:22:47.80	7.53	13.98	-42.5	-45.2	18.6	0.00e+00	0	43	0	131072000	56	4945
2026-01-19 00:22:50.79	7.35	14.27	-42.5	-45.1	18.6	0.00e+00	0	43	0	136314880	56	4923
2026-01-19 00:22:53.77	7.16	14.57	-42.4	-45.1	18.7	0.00e+00	0	43	0	141557760	56	4871
2026-01-19 00:22:56.76	6.97	14.87	-42.4	-45.0	18.8	0.00e+00	0	43	0	147849216	56	4860
2026-01-19 00:22:59.79	6.78	15.18	-42.5	-45.1	18.7	0.00e+00	0	43	0	153092096	56	4884
2026-01-19 00:23:02.85	6.57	15.49	-42.5	-45.1	18.8	0.00e+00	0	43	0	159383552	56	4886
2026-01-19 00:23:05.80	6.37	15.79	-42.5	-45.0	18.7	0.00e+00	0	43	0	164626432	56	4870
2026-01-19 00:23:09.09	6.15	16.14	-42.5	-45.1	18.8	0.00e+00	0	43	0	170917888	56	4876
2026-01-19 00:23:11.82	5.95	16.43	-42.5	-45.0	18.8	0.00e+00	0	43	0	176160768	56	4854
2026-01-19 00:23:15.10	5.71	16.78	-42.5	-45.0	18.9	0.00e+00	0	43	0	182452224	56	4836
2026-01-19 00:23:18.11	5.49	17.11	-42.6	-45.1	18.7	0.00e+00	0	43	0	187695104	56	4914
2026-01-19 00:23:21.58	5.23	17.49	-42.6	-45.1	18.8	0.00e+00	0	43	0	193986560	56	4900
2026-01-19 00:23:24.29	5.02	17.79	-42.6	-45.1	18.8	0.00e+00	0	43	0	199229440	56	4883
2026-01-19 00:23:27.57	4.75	18.16	-42.7	-45.1	18.8	0.00e+00	0	43	0	205520896	56	4923
2026-01-19 00:23:30.28	4.53	18.47	-42.6	-45.1	18.8	0.00e+00	0	43	0	210763776	56	4912
2026-01-19 00:23:33.55	4.26	18.85	-42.6	-45.0	18.9	0.00e+00	0	43	0	217055232	56	4861
2026-01-19 00:23:36.27	4.03	19.17	-42.6	-45.1	18.9	0.00e+00	0	43	0	221249536	56	4891
2026-01-19 00:23:39.65	3.73	19.57	-42.6	-45.1	18.9	0.00e+00	0	43	0	227540992	56	4878
2026-01-19 00:23:42.47	3.48	19.91	-42.7	-45.2	18.8	0.00e+00	0	43	0	232783872	56	4960
2026-01-19 00:23:45.75	3.17	20.31	-42.8	-45.3	18.7	0.00e+00	0	43	0	239075328	56	4997
2026-01-19 00:23:48.48	2.92	20.64	-42.9	-45.4	18.6	0.00e+00	0	43	0	244318208	56	5047
2026-01-19 00:23:51.76	2.60	21.05	-43.0	-45.5	18.5	0.00e+00	0	43	0	250609664	56	5104
2026-01-19 00:23:54.57	2.32	21.41	-43.2	-45.7	18.3	0.00e+00	0	43	0	255852544	57	4975
2026-01-19 00:23:57.82	1.99	21.82	-43.3	-46.0	18.1	0.00e+00	0	43	0	262144000	57	5102
2026-01-19 00:24:00.97	1.66	22.23	-43.3	-46.0	18.0	0.00e+00	0	43	0	268435456	57	5138
2026-01-19 00:24:03.81	1.35	22.60	-43.5	-46.2	17.8	0.00e+00	0	43	0	273678336	57	5279
2026-01-19 00:24:06.94	1.00	23.02	-43.8	-46.5	17.5	0.00e+00	0	43	0	278921216	58	5146
2026-01-19 00:24:09.78	0.68	23.40	-44.0	-46.8	17.3	0.00e+00	0	43	0	284164096	58	5336
2026-01-19 00:24:12.98	0.31	23.84	-44.2	-46.9	17.1	0.00e+00	0	43	0	290455552	59	5096
2026-01-19 00:24:15.92	359.95	24.25	-44.2	-47.0	17.1	0.00e+00	0	43	0	295698432	59	5144
2026-01-19 00:24:19.11	359.56	24.70	-44.2	-47.0	17.1	0.00e+00	0	43	0	301989888	59	5137
2026-01-19 00:24:21.95	359.20	25.10	-44.3	-47.1	17.0	0.00e+00	0	43	0	307232768	59	5178
2026-01-19 00:24:25.02	358.80	25.54	-44.4	-47.3	16.9	0.00e+00	0	43	0	313524224	59	5304
2026-01-19 00:24:28.00	358.40	25.98	-44.6	-47.6	16.6	0.00e+00	0	43	0	318767104	60	5196
2026-01-19 00:24:30.98	357.99	26.42	-44.8	-47.9	16.3	0.00e+00	0	43	0	324009984	60	5348
2026-01-19 00:24:33.97	357.57	26.87	-44.9	-47.9	16.3	0.00e+00	0	43	0	330301440	60	5370
2026-01-19 00:24:36.98	357.13	27.32	-45.0	-48.0	16.2	0.00e+00	0	43	0	335544320	60	5451
2026-01-19 00:24:39.96	356.68	27.78	-45.1	-48.2	16.1	0.00e+00	0	43	0	340787200	60	5530
2026-01-19 00:24:42.95	356.21	28.24	-44.9	-47.9	16.3	0.00e+00	0	43	0	347078656	60	5392
2026-01-19 00:24:45.93	355.74	28.71	-44.8	-47.7	16.6	0.00e+00	0	43	0	352321536	60	5222
2026-01-19 00:24:48.93	355.25	29.19	-44.5	-47.4	16.9	0.00e+00	0	43	0	357564416	60	5051
2026-01-19 00:24:51.97	354.73	29.68	-44.3	-47.2	17.1	0.00e+00	0	43	0	363855872	60	4930
2026-01-19 00:24:54.96	354.21	30.17	-44.5	-47.5	16.8	0.00e+00	0	43	0	369098752	60	5108
2026-01-19 00:24:57.95	353.67	30.66	-44.8	-47.8	16.4	0.00e+00	0	43	0	374341632	60	5315
2026-01-19 00:25:00.93	353.11	31.16	-45.0	-48.1	16.2	0.00e+00	0	43	0	380633088	60	5482
2026-01-19 00:25:03.98	352.53	31.67	-45.0	-48.2	16.1	0.00e+00	0	43	0	385875968	60	5535
2026-01-19 00:25:06.94	351.94	32.17	-45.2	-48.4	15.5	0.00e+00	0	43	0	392167424	61	5391
2026-01-19 00:25:09.93	351.33	32.69	-45.4	-48.7	15.6	0.00e+00	0	43	0	397410304	61	5540
2026-01-19 00:25:12.91	350.70	33.21	-45.3	-48.6	15.7	0.00e+00	0	43	0	402653184	61	5505
2026-01-19 00:25:15.89	350.05	33.73	-45.4	-49.0	15.3	0.00e+00	0	43	0	408944640	61	5752
2026-01-19 00:25:18.88	349.37	34.26	-45.7	-49.2	15.1	0.00e+00	0	43	0	414187520	62	5576
2026-01-19 00:25:21.97	348.65	34.81	-45.6	-49.1	15.3	7.00e-07	0	43	0	419430400	62	5483
2026-01-19 00:25:24.89	347.94	35.33	-45.1	-48.3	16.0	0.00e+00	0	43	0	425721856	62	5012
2026-01-19 00:25:27.88	347.20	35.87	-44.7	-47.6	16.7	0.00e+00	0	43	0	430964736	61	4888
2026-01-19 00:25:30.87	346.43	36.42	-44.8	-47.8	16.4	0.00e+00	0	43	0	436207616	61	5039
2026-01-19 00:25:33.85	345.63	36.96	-44.8	-48.0	16.4	0.00e+00	0	43	0	442499072	61	5109
2026-01-19 00:25:36.83	344.81	37.51	-44.8	-47.9	16.4	0.00e+00	0	43	0	447741952	61	5068
2026-01-19 00:25:39.81	343.95	38.06	-44.7	-47.7	16.6	0.00e+00	0	43	0	452984832	61	4950
2026-01-19 00:25:42.80	343.07	38.62	-45.3	-48.3	16.0	0.00e+00	0	43	0	459276288	61	5311
2026-01-19 00:25:45.79	342.15	39.17	-45.3	-48.3	16.0	0.00e+00	0	43	0	464519168	61	5337
2026-01-19 00:25:48.89	341.17	39.75	-45.3	-48.4	15.9	0.00e+00	0	43	0	469762048	61	5386
2026-01-19 00:25:51.81	340.21	40.29	-45.0	-48.2	16.1	0.00e+00	0	43	0	476053504	61	5266
2026-01-19 00:25:55.27	339.03	40.93	-44.8	-47.8	16.4	0.00e+00	0	43	0	482344960	61	5026
2026-01-19 00:25:57.99	338.07	41.43	-45.1	-48.2	16.2	0.00e+00	0	43	0	487587840	61	5236
2026-01-19 00:26:01.27	336.87	42.03	-46.1	-50.0	14.4	0.00e+00	0	43	0	493879296	63	5731
2026-01-19 00:26:04.06	335.82	42.54	-45.6	-49.3	15.0	0.00e+00	0	43	0	499122176	63	5333
2026-01-19 00:26:07.51	334.47	43.16	-45.2	-48.5	15.8	0.00e+00	0	43	0	505413632	62	5157
2026-01-19 00:26:10.21	333.37	43.64	-45.5	-48.8	15.6	0.00e+00	0	43	0	510656512	62	5295
2026-01-19 00:26:13.49	332.00	44.22	-45.1	-48.1	16.3	0.00e+00	0	43	0	516947968	62	4877
2026-01-19 00:26:16.20	330.82	44.68	-45.6	-49.0	15.4	0.00e+00	0	43	0	521142272	62	5423
2026-01-19 00:26:19.52	329.33	45.24	-44.8	-47.9	16.4	0.00e+00	0	43	0	527433728	61	5063
2026-01-19 00:26:22.29	328.05	45.70	-44.5	-47.3	17.0	0.00e+00	0	43	0	532676608	60	5032
2026-01-19 00:26:25.57	326.49	46.23	-44.6	-47.5	16.7	0.00e+00	0	43	0	538968064	60	5153
2026-01-19 00:26:28.43	325.08	46.67	-44.5	-47.3	16.9	0.00e+00	0	43	0	544210944	60	5038
2026-01-19 00:26:31.77	323.38	47.17	-44.0	-46.7	17.5	0.00e+00	0	43	0	550502400	59	4962
2026-01-19 00:26:34.50	321.96	47.56	-44.1	-46.7	17.5	0.00e+00	0	43	0	555745280	59	4974
2026-01-19 00:26:37.80	320.19	48.01	-44.7	-47.6	16.7	0.00e+00	0	43	0	562036736	60	5168
2026-01-19 00:26:40.60	318.64	48.37	-45.2	-48.4	15.9	0.00e+00	0	43	0	567279616	61	5362
2026-01-19 00:26:44.01	316.72	48.79	-45.4	-48.6	15.7	0.00e+00	0	43	0	573571072	61	5509
2026-01-19 00:26:46.74	315.13	49.10	-45.7	-49.1	15.2	0.00e+00	0	43	0	578813952	62	5478
2026-01-19 00:26:50.04	313.18	49.44	-46.3	-50.1	14.2	1.50e-06	0	44	0	585105408	63	5841
2026-01-19 00:26:52.74	311.55	49.70	-45.9	-49.5	14.8	0.00e+00	0	43	0	590348288	63	5419
2026-01-19 00:26:56.15	309.46	49.98	-45.4	-48.6	15.8	0.00e+00	0	43	0	596639744	62	5189
2026-01-19 00:26:59.18	307.57	50.21	-45.7	-49.3	15.2	0.00e+00	0	44	0	601882624	62	5621
2026-01-19 00:27:02.47	305.48	50.41	-43.9	-46.5	17.7	0.00e+00	0	43	0	608174080	59	4838
2026-01-19 00:27:05.22	303.72	50.55	-43.5	-45.9	18.3	0.00e+00	0	43	0	613416960	59	4541
2026-01-19 00:27:08.49	301.60	50.68	-43.3	-45.8	18.4	0.00e+00	0	43	0	619708416	58	4713
2026-01-19 00:27:11.19	299.85	50.76	-43.0	-45.3	18.8	0.00e+00	0	43	0	624951296	57	4752
2026-01-19 00:27:14.71	297.54	50.82	-42.7	-45.0	19.2	0.00e+00	0	43	0	631242752	57	4579
2026-01-19 00:27:17.44	295.75	50.83	-42.8	-45.1	19.0	0.00e+00	0	43	0	636485632	57	4624
2026-01-19 00:27:20.71	293.61	50.80	-42.4	-44.7	19.5	0.00e+00	0	43	0	642777088	56	4669
2026-01-19 00:27:23.47	291.80	50.74	-43.3	-45.7	18.4	0.00e+00	0	43	0	648019968	57	4971
2026-01-19 00:27:26.79	289.64	50.64	-43.4	-45.8	18.4	0.00e+00	0	43	0	654311424	57	5003
2026-01-19 00:27:29.72	287.75	50.51	-43.3	-45.7	18.5	0.00e+00	0	43	0	659554304	57	4983
2026-01-19 00:27:33.26	285.49	50.31	-43.5	-46.0	18.3	0.00e+00	0	43	0	665845760	57	5105
2026-01-19 00:27:35.97	283.79	50.13	-43.5	-45.9	18.2	0.00e+00	0	43	0	671088640	58	4812
2026-01-19 00:27:39.48	281.60	49.85	-43.8	-46.3	17.9	0.00e+00	0	43	0	677380096	58	5006
2026-01-19 00:27:42.19	279.95	49.61	-43.7	-46.3	17.9	0.00e+00	0	43	0	682622976	58	5022
2026-01-19 00:27:45.62	277.90	49.27	-43.9	-46.5	17.7	0.00e+00	0	43	0	688914432	58	5115
2026-01-19 00:27:48.67	276.11	48.94	-44.7	-47.6	16.7	0.00e+00	0	43	0	695205888	60	5201
2026-01-19 00:27:51.81	274.31	48.57	-45.0	-48.0	16.3	0.00e+00	0	43	0	700448768	61	5120
2026-01-19 00:27:54.65	272.72	48.22	-44.6	-47.4	16.8	0.00e+00	0	44	0	705691648	61	4787
2026-01-19 00:27:57.81	270.99	47.80	-45.1	-48.2	16.1	0.00e+00	0	44	0	711983104	61	5235
2026-01-19 00:28:00.70	269.46	47.39	-45.3	-48.4	15.8	0.00e+00	0	43	0	717225984	61	5387
2026-01-19 00:28:04.03	267.74	46.90	-44.5	-47.3	17.0	0.00e+00	0	43	0	723517440	61	4725
2026-01-19 00:28:06.82	266.34	46.48	-44.3	-47.0	17.2	0.00e+00	0	44	0	728760320	60	4839
2026-01-19 00:28:10.13	264.73	45.95	-44.4	-47.2	17.1	0.00e+00	0	43	0	735051776	60	4953
2026-01-19 00:28:12.88	263.43	45.50	-43.9	-46.5	17.6	0.00e+00	0	43	0	740294656	59	4857
2026-01-19 00:28:16.19	261.92	44.95	-43.7	-46.2	18.0	0.00e+00	0	43	0	746586112	59	4684
2026-01-19 00:28:18.92	260.71	44.48	-44.2	-46.9	17.3	0.00e+00	0	43	0	751828992	59	5066
2026-01-19 00:28:22.21	259.31	43.91	-43.8	-46.3	17.9	0.00e+00	0	43	0	758120448	59	4738
2026-01-19 00:28:24.97	258.16	43.42	-44.0	-46.7	17.6	0.00e+00	0	43	0	763363328	59	4933
2026-01-19 00:28:28.23	256.86	42.84	-44.4	-47.1	17.1	0.00e+00	0	43	0	768606208	59	5181
2026-01-19 00:28:30.93	255.81	42.35	-44.0	-46.7	17.5	0.00e+00	0	43	0	773849088	59	4939
2026-01-19 00:28:34.22	254.58	41.74	-43.6	-46.1	18.1	0.00e+00	0	43	0	780140544	59	4614
2026-01-19 00:28:36.99	253.58	41.23	-44.4	-47.1	17.1	0.00e+00	0	44	0	785383424	59	5166
2026-01-19 00:28:40.28	252.43	40.62	-43.7	-46.2	18.0	0.00e+00	0	43	0	791674880	59	4652
2026-01-19 00:28:43.02	251.51	40.11	-44.0	-46.6	17.6	0.00e+00	0	43	0	796917760	59	4906
2026-01-19 00:28:46.24	250.46	39.51	-44.5	-47.3	16.9	0.00e+00	0	44	0	803209216	59	5315
2026-01-19 00:28:49.22	249.52	38.96	-44.6	-47.5	16.8	0.00e+00	0	43	0	808452096	60	5116
2026-01-19 00:28:52.21	248.61	38.40	-44.8	-47.8	16.5	0.00e+00	0	43	0	813694976	60	5306
2026-01-19 00:28:55.23	247.73	37.84	-45.0	-48.0	16.3	0.00e+00	0	43	0	819986432	60	5413
2026-01-19 00:28:58.23	246.88	37.28	-45.3	-48.5	15.8	0.00e+00	0	43	0	825229312	61	5422
2026-01-19 00:29:01.34	246.03	36.71	-45.4	-48.6	15.6	0.00e+00	0	43	0	831520768	61	5484
2026-01-19 00:29:04.18	245.27	36.19	-45.6	-48.9	15.4	0.00e+00	0	44	0	836763648	61	5688
2026-01-19 00:29:07.31	244.47	35.62	-45.8	-49.1	15.1	0.00e+00	0	44	0	842006528	62	5505
2026-01-19 00:29:10.15	243.77	35.10	-45.3	-48.4	15.9	0.00e+00	0	43	0	847249408	62	5046
2026-01-19 00:29:13.49	242.97	34.50	-45.5	-48.7	15.6	0.00e+00	0	43	0	853540864	62	5240
2026-01-19 00:29:16.20	242.35	34.02	-46.1	-49.6	14.7	7.00e-07	0	43	0	858783744	62	5805
2026-01-19 00:29:19.48	241.61	33.44	-45.7	-49.0	15.2	0.00e+00	0	44	0	865075200	62	5457
2026-01-19 00:29:22.28	241.01	32.95	-45.5	-48.8	15.5	7.00e-07	0	43	0	870318080	62	5285
2026-01-19 00:29:25.41	240.35	32.40	-45.3	-48.5	15.8	0.00e+00	0	43	0	876609536	62	5108
2026-01-19 00:29:28.26	239.77	31.91	-45.6	-48.8	15.5	0.00e+00	0	43	0	881852416	62	5305
2026-01-19 00:29:31.51	239.13	31.36	-45.7	-49.1	15.2	0.00e+00	0	43	0	888143872	62	5471
2026-01-19 00:29:34.33	238.60	30.89	-45.6	-48.9	15.2	0.00e+00	0	43	0	893386752	62	5391
2026-01-19 00:29:37.46	238.02	30.36	-45.4	-48.6	15.7	0.00e+00	0	43	0	898629632	62	5174
2026-01-19 00:29:40.31	237.51	29.89	-44.9	-47.9	16.3	0.00e+00	0	44	0	903872512	61	5070
2026-01-19 00:29:43.43	236.97	29.39	-45.0	-48.0	16.2	0.00e+00	0	43	0	910163968	61	5142
2026-01-19 00:29:46.27	236.49	28.93	-44.9	-48.0	16.3	0.00e+00	0	43	0	915406848	61	5101
2026-01-19 00:29:49.40	235.98	28.43	-45.0	-48.0	16.3	0.00e+00	0	43	0	921698304	61	5105
2026-01-19 00:29:52.24	235.53	27.99	-44.4	-47.2	17.0	0.00e+00	0	43	0	926941184	60	4956
2026-01-19 00:29:55.53	235.02	27.48	-44.4	-47.2	17.0	0.00e+00	0	43	0	933232640	60	4974
2026-01-19 00:29:58.26	234.62	27.06	-44.6	-47.5	16.7	0.00e+00	0	43	0	937426944	60	5116
2026-01-19 00:30:01.54	234.14	26.56	-44.2	-46.9	17.3	0.00e+00	0	43	0	943718400	60	4779
2026-01-19 00:30:04.28	233.76	26.15	-44.3	-47.1	17.0	0.00e+00	0	43	0	948961280	60	4926
2026-01-19 00:30:07.57	233.31	25.67	-44.6	-47.5	16.7	0.00e+00	0	43	0	955252736	60	5114
2026-01-19 00:30:10.28	232.94	25.27	-44.6	-47.5	16.7	0.00e+00	0	43	0	960495616	60	5144
2026-01-19 00:30:13.73	232.50	24.78	-44.3	-47.1	17.0	0.00e+00	0	43	0	966787072	60	4914
2026-01-19 00:30:16.49	232.15	24.39	-44.1	-46.8	17.4	0.00e+00	0	43	0	972029952	60	4715
2026-01-19 00:30:19.82	231.74	23.92	-44.1	-46.7	17.4	0.00e+00	0	44	0	978321408	59	4966
2026-01-19 00:30:22.53	231.42	23.55	-44.0	-46.6	17.5	0.00e+00	0	43	0	983564288	59	4893
2026-01-19 00:30:25.81	231.04	23.10	-44.1	-46.8	17.3	0.00e+00	0	43	0	989855744	59	5002
2026-01-19 00:30:28.52	230.74	22.73	-43.9	-46.6	17.5	0.00e+00	0	44	0	995098624	59	4883
2026-01-19 00:30:31.80	230.38	22.30	-44.0	-46.7	17.4	0.00e+00	0	43	0	1000341504	59	4932
2026-01-19 00:30:35.23	230.01	21.85	-44.0	-46.7	17.4	0.00e+00	0	43	0	1007681536	59	4964
2026-01-19 00:30:38.07	229.72	21.48	-44.0	-46.7	17.4	0.00e+00	0	43	0	1012924416	59	4969
2026-01-19 00:30:41.20	229.40	21.08	-44.0	-46.7	17.3	0.00e+00	0	43	0	1018167296	59	4963
2026-01-19 00:30:44.10	229.11	20.72	-43.9	-46.5	17.5	0.00e+00	0	43	0	1023410176	59	4868
2026-01-19 00:30:47.36	228.80	20.31	-44.1	-46.8	17.2	0.00e+00	0	43	0	1029701632	59	5019
2026-01-19 00:30:50.06	228.54	19.98	-44.0	-46.7	17.3	0.00e+00	0	43	0	1034944512	59	4949
2026-01-19 00:30:53.34	228.24	19.58	-44.1	-46.8	17.2	0.00e+00	0	43	0	1041235968	59	5011
2026-01-19 00:30:56.07	228.00	19.26	-43.9	-46.5	17.5	0.00e+00	0	43	0	1046478848	59	4840
2026-01-19 00:30:59.44	227.70	18.86	-44.0	-46.7	17.3	0.00e+00	0	43	0	1052770304	59	4953
2026-01-19 00:31:02.20	227.47	18.54	-44.1	-46.9	17.2	0.00e+00	0	43	0	1058013184	59	5049
2026-01-19 00:31:05.58	227.19	18.15	-44.3	-47.1	16.9	0.00e+00	0	43	0	1064304640	59	5167
2026-01-19 00:31:08.36	226.96	17.83	-44.5	-47.4	16.6	0.00e+00	0	44	0	1069547520	59	5351
2026-01-19 00:31:11.55	226.71	17.47	-44.6	-47.5	16.5	0.00e+00	0	43	0	1075838976	60	5157
2026-01-19 00:31:14.68	226.47	17.13	-44.5	-47.4	16.7	0.00e+00	0	43	0	1081081856	60	5064
2026-01-19 00:31:17.52	226.25	16.82	-44.4	-47.3	16.7	0.00e+00	0	44	0	1086324736	60	5003
2026-01-19 00:31:20.65	226.02	16.48	-44.4	-47.3	16.7	0.00e+00	0	44	0	1092616192	60	4999
2026-01-19 00:31:23.72	225.80	16.15	-44.4	-47.3	16.7	0.00e+00	0	44	0	1097859072	60	4986
2026-01-19 00:31:26.74	225.58	15.83	-44.4	-47.3	16.6	0.00e+00	0	43	0	1104150528	60	5034
2026-01-19 00:31:29.72	225.38	15.52	-44.2	-47.1	16.9	0.00e+00	0	43	0	1109393408	60	4878
2026-01-19 00:31:32.71	225.17	15.21	-44.1	-47.0	17.0	0.00e+00	0	43	0	1114636288	60	4822
2026-01-19 00:31:35.69	224.98	14.91	-44.2	-47.0	16.9	0.00e+00	0	43	0	1120927744	60	4853
2026-01-19 00:31:38.95	224.76	14.58	-44.3	-47.1	16.8	0.00e+00	0	43	0	1127219200	60	4922
2026-01-19 00:31:41.68	224.59	14.30	-44.5	-47.4	16.6	0.00e+00	0	44	0	1131413504	60	5069
2026-01-19 00:31:45.27	224.37	13.95	-44.7	-47.7	16.2	0.00e+00	0	43	0	1138753536	60	5261
2026-01-19 00:31:47.97	224.20	13.69	-44.9	-48.0	15.9	0.00e+00	0	43	0	1143996416	60	5445
2026-01-19 00:31:51.23	224.01	13.37	-45.0	-48.1	15.8	0.00e+00	0	43	0	1149239296	60	5518
2026-01-19 00:31:53.99	223.85	13.11	-44.9	-48.1	15.8	0.00e+00	0	43	0	1154482176	60	5480
2026-01-19 00:31:57.26	223.66	12.80	-44.9	-47.9	16.0	0.00e+00	0	43	0	1160773632	60	5391
2026-01-19 00:31:59.97	223.51	12.55	-44.8	-47.9	16.0	0.00e+00	0	43	0	1166016512	60	5351
2026-01-19 00:32:03.27	223.32	12.24	-44.8	-47.9	16.0	0.00e+00	0	44	0	1172307968	60	5369
2026-01-19 00:32:06.00	223.18	11.99	-45.0	-48.1	15.8	0.00e+00	0	43	0	1177550848	60	5482
2026-01-19 00:32:09.27	223.00	11.70	-45.0	-48.2	15.7	0.00e+00	0	43	0	1183842304	60	5538
2026-01-19 00:32:12.00	222.86	11.45	-45.0	-48.2	15.6	0.00e+00	0	43	0	1189085184	60	5581
2026-01-19 00:32:15.30	222.69	11.16	-45.2	-48.5	15.3	0.00e+00	0	44	0	1195376640	61	5405
2026-01-19 00:32:18.12	222.55	10.91	-45.0	-48.3	15.5	0.00e+00	0	43	0	1200619520	61	5303
2026-01-19 00:32:21.24	222.40	10.64	-45.1	-48.3	15.5	0.00e+00	0	43	0	1205862400	61	5320
2026-01-19 00:32:24.40	222.25	10.37	-45.0	-48.3	15.5	0.00e+00	0	43	0	1212153856	61	5303
2026-01-19 00:32:27.24	222.11	10.13	-44.8	-48.0	15.8	0.00e+00	0	43	0	1217396736	61	5116
2026-01-19 00:32:30.37	221.97	9.86	-44.9	-48.2	15.5	0.00e+00	0	44	0	1222639616	61	5232
2026-01-19 00:32:33.24	221.83	9.62	-45.2	-48.8	14.9	0.00e+00	0	44	0	1228931072	61	5611
2026-01-19 00:32:36.43	221.69	9.36	-45.2	-48.9	14.7	0.00e+00	0	43	0	1234173952	61	5712
2026-01-19 00:32:39.38	221.56	9.12	-44.8	-48.6	15.0	0.00e+00	0	44	0	1240465408	61	5469
2026-01-19 00:32:42.50	221.43	8.87	-50.0	-65.3	3.8	1.49e+00	0	44	104	1242562560	70	22350
2026-01-19 00:32:45.34	221.31	8.64	-50.3	-65.6	3.8	1.49e+00	0	43	104	1242562560	71	21756
2026-01-19 00:32:48.47	221.18	8.39	-50.4	-65.7	3.8	1.49e+00	0	44	104	1242562560	71	22008
2026-01-19 00:32:51.30	221.06	8.16	-50.4	-65.7	3.8	1.49e+00	0	44	104	1242562560	71	22084
2026-01-19 00:32:54.49	220.93	7.91	-50.3	-65.7	3.8	1.49e+00	0	43	104	1242562560	71	22037
2026-01-19 00:32:57.39	220.82	7.69	-50.3	-65.7	3.8	1.49e+00	0	43	104	1242562560	71	22077
2026-01-19 00:33:00.64	220.69	7.44	-50.1	-65.6	3.8	1.49e+00	0	44	104	1242562560	71	21967
2026-01-19 00:33:03.54	220.58	7.22	-50.1	-65.6	3.8	1.49e+00	0	44	104	1242562560	71	21784
2026-01-19 00:33:06.66	220.46	6.98	-50.0	-65.5	3.8	1.49e+00	0	43	104	1242562560	71	21665
2026-01-19 00:33:09.50	220.36	6.77	-50.0	-65.5	3.8	1.49e+00	0	44	104	1242562560	71	21711
2026-01-19 00:33:12.62	220.24	6.53	-50.0	-65.5	3.8	1.49e+00	0	44	104	1242562560	71	21623
2026-01-19 00:33:15.46	220.14	6.33	-50.0	-65.5	3.8	1.49e+00	0	44	104	1242562560	71	21667
2026-01-19 00:33:18.58	220.03	6.10	-50.0	-65.5	3.8	1.49e+00	0	44	104	1242562560	71	21615
2026-01-19 00:33:21.42	219.93	5.89	-50.0	-65.5	3.8	1.49e+00	0	43	104	1242562560	71	21619
2026-01-19 00:33:24.54	219.83	5.67	-50.0	-65.5	3.8	1.49e+00	0	44	104	1242562560	71	21723
2026-01-19 00:33:27.38	219.73	5.46	-50.0	-65.5	3.8	1.49e+00	0	44	104	1242562560	71	21661
2026-01-19 00:33:30.50	219.63	5.24	-50.0	-65.5	3.8	1.49e+00	0	44	104	1242562560	71	21584
2026-01-19 00:33:33.34	219.53	5.04	-50.0	-65.5	3.8	1.49e+00	0	44	104	1242562560	71	21634

#Closed at: 2026-01-19 00:33:35
#Recorded file [1242 MB]: D:/Data/31040_260119_032058.dat