passes_logs/2026/01/19/T1/T1__20260119_141330_FENGYUN_3E_rec.log

#Pass ID: 20260119_141330_FENGYUN 3E
#Satellite: FENGYUN 3E
#Configuration: FENGYUN 3E
#almurnet v.1.7.20251203
#Start time: 2026-01-19 14:13:31

#Version: 2.0.20230620
#Station: T1
#Location: 37.570604 lon 55.790049 lat
#TLE: 1 49008U 21062A   26018.95190407 -.00000301  00000+0 -12097-3 0  9991
#TLE: 2 49008  98.7482  24.0337 0002210 129.7386 230.3985 14.19884646235406

#Time	Az	El	Level	Level2	SNR	BER	BlckErr	Temp	State	Recorded	gain1	gain2
2026-01-19 14:13:31.70	160.75	5.10	-47.3	-59.1	3.8	8.46e-01	0	41	0	0	64	14516
2026-01-19 14:13:34.67	160.76	5.32	-47.3	-59.1	3.8	8.47e-01	0	41	104	0	65	13713
2026-01-19 14:13:37.65	160.77	5.54	-47.3	-59.1	3.8	8.47e-01	0	41	104	0	65	13697
2026-01-19 14:13:40.63	160.78	5.76	-47.3	-59.1	3.8	8.47e-01	0	41	104	0	65	13644
2026-01-19 14:13:43.61	160.78	5.98	-47.3	-59.1	3.8	8.46e-01	0	41	104	0	65	13683
2026-01-19 14:13:46.59	160.79	6.20	-47.3	-59.1	3.8	8.47e-01	0	42	104	0	65	13614
2026-01-19 14:13:49.57	160.80	6.43	-47.3	-59.1	3.8	8.47e-01	0	42	104	0	65	13717
2026-01-19 14:13:52.55	160.80	6.65	-47.3	-59.1	3.8	8.47e-01	0	42	104	0	65	13620
2026-01-19 14:13:55.53	160.81	6.88	-47.3	-59.1	3.8	8.47e-01	0	42	104	0	65	13614
2026-01-19 14:13:58.50	160.82	7.11	-47.3	-59.2	3.8	8.47e-01	0	42	104	0	65	13750
2026-01-19 14:14:01.48	160.83	7.35	-47.3	-59.1	3.8	8.47e-01	0	42	104	0	65	13726
2026-01-19 14:14:04.46	160.83	7.58	-47.2	-59.1	3.8	8.48e-01	0	42	104	0	65	13609
2026-01-19 14:14:07.44	160.84	7.82	-47.3	-59.1	3.8	8.46e-01	0	42	104	0	65	13681
2026-01-19 14:14:10.42	160.85	8.06	-47.3	-59.1	3.8	8.48e-01	0	42	104	0	65	13675
2026-01-19 14:14:13.40	160.85	8.30	-47.3	-59.1	3.8	8.46e-01	0	42	104	0	65	13710
2026-01-19 14:14:16.38	160.86	8.54	-47.3	-59.1	3.8	8.47e-01	0	42	104	0	65	13596
2026-01-19 14:14:19.36	160.87	8.79	-47.3	-59.1	3.8	8.46e-01	0	42	104	0	65	13702
2026-01-19 14:14:22.34	160.88	9.04	-47.3	-59.1	3.8	8.47e-01	0	42	104	0	65	13698
2026-01-19 14:14:25.32	160.88	9.29	-47.3	-59.1	3.8	8.48e-01	0	43	104	0	65	13634
2026-01-19 14:14:28.29	160.89	9.55	-47.3	-59.1	3.8	8.46e-01	0	43	104	0	65	13658
2026-01-19 14:14:31.27	160.90	9.80	-47.3	-59.2	3.8	8.47e-01	0	42	104	0	65	13787
2026-01-19 14:14:34.25	160.90	10.06	-47.3	-59.1	3.8	8.46e-01	0	43	104	0	65	13696
2026-01-19 14:14:37.23	160.91	10.33	-47.3	-59.1	3.8	8.47e-01	0	43	104	0	65	13694
2026-01-19 14:14:40.21	160.92	10.59	-47.3	-59.1	3.8	8.45e-01	0	43	104	0	65	13712
2026-01-19 14:14:43.19	160.93	10.86	-47.3	-59.1	3.8	8.47e-01	0	43	104	0	65	13654
2026-01-19 14:14:46.17	160.93	11.13	-47.3	-59.1	3.8	8.46e-01	0	43	104	0	65	13724
2026-01-19 14:14:49.15	160.94	11.40	-47.3	-59.1	3.8	8.46e-01	0	43	104	0	65	13666
2026-01-19 14:14:52.12	160.95	11.68	-47.3	-59.1	3.8	8.47e-01	0	43	104	0	65	13701
2026-01-19 14:14:55.10	160.95	11.96	-47.3	-59.1	3.8	8.47e-01	0	43	104	0	65	13722
2026-01-19 14:14:58.08	160.96	12.25	-47.3	-59.2	3.8	8.47e-01	0	43	104	0	65	13739
2026-01-19 14:15:01.06	160.97	12.53	-47.3	-59.1	3.8	8.48e-01	0	43	104	0	65	13655
2026-01-19 14:15:04.04	160.97	12.82	-47.3	-59.2	3.8	8.46e-01	0	43	104	0	65	13742
2026-01-19 14:15:07.02	160.98	13.12	-47.3	-59.2	3.8	8.46e-01	0	43	104	0	65	13774
2026-01-19 14:15:10.00	160.99	13.42	-47.3	-59.1	3.8	8.48e-01	0	43	104	0	65	13691
2026-01-19 14:15:12.98	161.00	13.72	-47.3	-59.1	3.8	8.46e-01	0	43	104	0	65	13658
2026-01-19 14:15:15.96	161.00	14.02	-47.3	-59.1	3.8	8.47e-01	0	43	104	0	65	13713
2026-01-19 14:15:18.94	161.01	14.33	-47.3	-59.1	3.8	8.48e-01	0	43	104	0	65	13676
2026-01-19 14:15:21.91	161.02	14.64	-47.3	-59.1	3.8	8.47e-01	0	43	104	0	65	13712
2026-01-19 14:15:24.89	161.02	14.96	-47.2	-59.1	3.8	8.46e-01	0	43	104	0	65	13660
2026-01-19 14:15:27.87	161.03	15.28	-47.3	-59.1	3.8	8.46e-01	0	43	104	0	65	13710
2026-01-19 14:15:30.85	161.04	15.61	-47.3	-59.1	3.8	8.47e-01	0	43	104	0	65	13656
2026-01-19 14:15:33.83	161.04	15.94	-47.3	-59.1	3.8	8.48e-01	0	43	104	0	65	13715
2026-01-19 14:15:36.81	161.05	16.27	-47.3	-59.2	3.8	8.46e-01	0	43	104	0	65	13771
2026-01-19 14:15:39.79	161.06	16.61	-47.3	-59.2	3.8	8.48e-01	0	43	104	0	65	13754
2026-01-19 14:15:42.77	161.06	16.96	-47.3	-59.1	3.8	8.48e-01	0	43	104	0	65	13618
2026-01-19 14:15:45.75	161.07	17.31	-47.3	-59.2	3.8	8.47e-01	0	43	104	0	65	13751
2026-01-19 14:15:48.73	161.07	17.66	-47.3	-59.1	3.8	8.46e-01	0	43	104	0	65	13702
2026-01-19 14:15:51.71	161.08	18.02	-47.3	-59.1	3.8	8.46e-01	0	43	104	0	65	13707
2026-01-19 14:15:54.69	161.09	18.38	-47.3	-59.1	3.8	8.48e-01	0	43	104	0	65	13624
2026-01-19 14:15:57.67	161.09	18.75	-47.3	-59.1	3.8	8.49e-01	0	43	104	0	65	13701
2026-01-19 14:16:00.65	161.10	19.13	-47.3	-59.1	3.8	8.46e-01	0	43	104	0	65	13708
2026-01-19 14:16:03.63	161.11	19.51	-47.3	-59.1	3.8	8.47e-01	0	44	104	0	65	13714
2026-01-19 14:16:06.60	161.11	19.90	-47.3	-59.1	3.8	8.47e-01	0	43	104	0	65	13688
2026-01-19 14:16:09.58	161.12	20.29	-47.3	-59.1	3.8	8.47e-01	0	43	104	0	65	13712
2026-01-19 14:16:12.56	161.12	20.69	-47.3	-59.2	3.8	8.47e-01	0	43	104	0	65	13757
2026-01-19 14:16:15.54	161.13	21.10	-47.3	-59.1	3.8	8.47e-01	0	43	104	0	65	13708
2026-01-19 14:16:18.52	161.14	21.51	-47.3	-59.1	3.8	8.46e-01	0	44	104	0	65	13667
2026-01-19 14:16:21.50	161.14	21.93	-47.3	-59.1	3.8	8.46e-01	0	44	104	0	65	13668
2026-01-19 14:16:24.48	161.15	22.36	-47.3	-59.2	3.8	8.48e-01	0	44	104	0	65	13763
2026-01-19 14:16:27.46	161.15	22.79	-47.3	-59.1	3.8	8.47e-01	0	44	104	0	65	13666
2026-01-19 14:16:30.44	161.16	23.24	-47.3	-59.1	3.8	8.47e-01	0	44	104	0	65	13656
2026-01-19 14:16:33.42	161.16	23.69	-47.3	-59.2	3.8	8.48e-01	0	43	104	0	65	13736
2026-01-19 14:16:36.40	161.17	24.14	-47.3	-59.1	3.8	8.46e-01	0	44	104	0	65	13698
2026-01-19 14:16:39.38	161.17	24.61	-47.3	-59.1	3.8	8.47e-01	0	44	104	0	65	13680
2026-01-19 14:16:42.36	161.18	25.08	-47.3	-59.1	3.8	8.47e-01	0	44	104	0	65	13678
2026-01-19 14:16:45.33	161.18	25.57	-47.3	-59.1	3.8	8.47e-01	0	43	104	0	65	13688
2026-01-19 14:16:48.31	161.19	26.06	-47.3	-59.1	3.8	8.48e-01	0	44	104	0	65	13722
2026-01-19 14:16:51.29	161.19	26.56	-47.3	-59.1	3.8	8.46e-01	0	44	104	0	65	13656
2026-01-19 14:16:54.27	161.20	27.07	-47.3	-59.1	3.8	8.48e-01	0	44	104	0	65	13709
2026-01-19 14:16:57.25	161.20	27.59	-47.3	-59.1	3.8	8.46e-01	0	44	104	0	65	13670
2026-01-19 14:17:00.23	161.20	28.12	-47.3	-59.2	3.8	8.46e-01	0	44	104	0	65	13730
2026-01-19 14:17:03.21	161.21	28.66	-47.3	-59.1	3.8	8.48e-01	0	44	104	0	65	13712
2026-01-19 14:17:06.19	161.21	29.21	-47.3	-59.1	3.8	8.47e-01	0	44	104	0	65	13690
2026-01-19 14:17:09.17	161.22	29.78	-47.3	-59.1	3.8	8.48e-01	0	44	104	0	65	13704
2026-01-19 14:17:12.15	161.22	30.35	-47.2	-59.1	3.8	8.47e-01	0	44	104	0	65	13626
2026-01-19 14:17:15.13	161.22	30.93	-47.3	-59.1	3.8	8.46e-01	0	44	104	0	65	13690
2026-01-19 14:17:18.11	161.23	31.53	-47.2	-59.1	3.8	8.47e-01	0	43	104	0	65	13620
2026-01-19 14:17:21.09	161.23	32.14	-47.3	-59.1	3.8	8.47e-01	0	44	104	0	65	13695
2026-01-19 14:17:24.06	161.23	32.76	-47.2	-59.1	3.8	8.47e-01	0	44	104	0	65	13678
2026-01-19 14:17:27.04	161.23	33.40	-47.3	-59.1	3.8	8.48e-01	0	44	104	0	65	13663
2026-01-19 14:17:30.02	161.24	34.05	-47.2	-59.1	3.8	8.47e-01	0	43	104	0	65	13710
2026-01-19 14:17:33.00	161.24	34.71	-47.3	-59.1	3.8	8.47e-01	0	43	104	0	65	13706
2026-01-19 14:17:35.98	161.24	35.39	-47.2	-59.1	3.8	8.46e-01	0	44	104	0	65	13712
2026-01-19 14:17:38.96	161.24	36.08	-47.2	-59.1	3.8	8.47e-01	0	44	104	0	65	13650
2026-01-19 14:17:41.94	161.24	36.79	-47.2	-59.1	3.8	8.49e-01	0	44	104	0	65	13649
2026-01-19 14:17:44.92	161.24	37.51	-47.3	-59.1	3.8	8.47e-01	0	44	104	0	65	13699
2026-01-19 14:17:47.90	161.24	38.25	-47.3	-59.2	3.8	8.47e-01	0	44	104	0	65	13743
2026-01-19 14:17:50.88	161.24	39.01	-47.3	-59.1	3.8	8.47e-01	0	44	104	0	65	13683
2026-01-19 14:17:53.86	161.24	39.78	-47.3	-59.1	3.8	8.46e-01	0	44	104	0	65	13629
2026-01-19 14:17:56.82	161.24	40.57	-47.2	-59.1	3.8	8.48e-01	0	44	104	0	65	13652
2026-01-19 14:17:59.80	161.23	41.37	-47.2	-59.1	3.8	8.46e-01	0	43	104	0	65	13689
2026-01-19 14:18:02.78	161.23	42.20	-47.2	-59.1	3.8	8.47e-01	0	44	104	0	65	13694
2026-01-19 14:18:05.76	161.23	43.05	-47.2	-59.1	3.8	8.47e-01	0	44	104	0	65	13725
2026-01-19 14:18:08.74	161.22	43.91	-47.2	-59.1	3.8	8.46e-01	0	44	104	0	65	13576
2026-01-19 14:18:11.71	161.22	44.79	-47.2	-59.1	3.8	8.47e-01	0	44	104	0	65	13703
2026-01-19 14:18:14.69	161.21	45.70	-47.2	-59.1	3.8	8.47e-01	0	44	104	0	65	13690
2026-01-19 14:18:17.67	161.21	46.62	-47.2	-59.1	3.8	8.47e-01	0	44	104	0	65	13640
2026-01-19 14:18:20.65	161.20	47.57	-47.2	-59.1	3.8	8.46e-01	0	44	104	0	65	13599
2026-01-19 14:18:23.63	161.19	48.54	-47.2	-59.1	3.8	8.48e-01	0	44	104	0	65	13722
2026-01-19 14:18:26.61	161.18	49.52	-47.2	-59.1	3.8	8.46e-01	0	44	104	0	65	13708
2026-01-19 14:18:29.59	161.17	50.54	-47.2	-59.1	3.8	8.47e-01	0	44	104	0	65	13635
2026-01-19 14:18:32.57	161.16	51.57	-47.2	-59.1	3.8	8.46e-01	0	44	104	0	65	13574
2026-01-19 14:18:35.55	161.14	52.63	-47.2	-59.1	3.8	8.46e-01	0	43	104	0	65	13675
2026-01-19 14:18:38.53	161.13	53.71	-47.2	-59.2	3.8	8.47e-01	0	44	104	0	65	13727
2026-01-19 14:18:41.51	161.11	54.81	-47.2	-59.1	3.8	8.46e-01	0	44	104	0	65	13685
2026-01-19 14:18:44.49	161.09	55.94	-47.2	-59.1	3.8	8.47e-01	0	44	104	0	65	13632
2026-01-19 14:18:47.46	161.07	57.09	-47.2	-59.2	3.8	8.49e-01	0	44	104	0	65	13755
2026-01-19 14:18:50.44	161.04	58.26	-47.2	-59.2	3.8	8.47e-01	0	44	104	0	65	13747
2026-01-19 14:18:53.42	161.01	59.46	-47.2	-59.1	3.8	8.48e-01	0	44	104	0	65	13648
2026-01-19 14:18:56.40	160.98	60.68	-47.3	-59.1	3.8	8.46e-01	0	44	104	0	65	13646
2026-01-19 14:18:59.38	160.94	61.93	-47.2	-59.2	3.8	8.48e-01	0	44	104	0	65	13728
2026-01-19 14:19:02.36	160.90	63.20	-47.2	-59.2	3.8	8.46e-01	0	44	104	0	65	13766
2026-01-19 14:19:05.34	160.85	64.49	-47.2	-59.1	3.8	8.48e-01	0	44	104	0	65	13692
2026-01-19 14:19:08.32	160.80	65.80	-47.3	-59.1	3.8	8.47e-01	0	44	104	0	65	13678
2026-01-19 14:19:11.30	160.73	67.14	-47.3	-59.1	3.8	8.47e-01	0	44	104	0	65	13708
2026-01-19 14:19:14.27	160.66	68.49	-47.3	-59.1	3.8	8.47e-01	0	44	104	0	65	13687
2026-01-19 14:19:17.25	160.57	69.87	-47.3	-59.2	3.8	8.47e-01	0	44	104	0	65	13735
2026-01-19 14:19:20.23	160.47	71.27	-47.2	-59.1	3.8	8.47e-01	0	44	104	0	65	13680
2026-01-19 14:19:23.21	160.35	72.69	-47.3	-59.1	3.8	8.46e-01	0	44	104	0	65	13647
2026-01-19 14:19:26.19	160.21	74.13	-47.3	-59.1	3.8	8.47e-01	0	44	104	0	65	13683
2026-01-19 14:19:29.17	160.03	75.58	-47.2	-59.1	3.8	8.47e-01	0	44	104	0	65	13668
2026-01-19 14:19:32.15	159.80	77.05	-47.3	-59.2	3.8	8.47e-01	0	44	104	0	65	13730
2026-01-19 14:19:35.13	159.52	78.53	-47.3	-59.1	3.8	8.47e-01	0	44	104	0	65	13621
2026-01-19 14:19:38.10	159.15	80.02	-47.3	-59.1	3.8	8.48e-01	0	44	104	0	65	13669
2026-01-19 14:19:41.08	158.64	81.52	-47.3	-59.1	3.8	8.46e-01	0	44	104	0	65	13708
2026-01-19 14:19:44.06	157.90	83.04	-47.2	-59.1	3.8	8.47e-01	0	44	104	0	65	13704
2026-01-19 14:19:47.04	156.73	84.56	-47.3	-59.2	3.8	8.45e-01	0	44	104	0	65	13736
2026-01-19 14:19:50.02	154.65	86.08	-47.2	-59.1	3.8	8.46e-01	0	44	104	0	65	13674
2026-01-19 14:19:52.99	149.93	87.59	-47.2	-59.1	3.8	8.46e-01	0	44	104	0	65	13665
2026-01-19 14:19:55.97	130.19	89.04	-47.2	-59.1	3.8	8.47e-01	0	44	104	0	65	13639
2026-01-19 14:19:58.95	17.08	89.11	-47.3	-59.1	3.8	8.46e-01	0	44	104	0	65	13669
2026-01-19 14:20:01.93	354.74	87.68	-47.3	-59.1	3.8	8.46e-01	0	44	104	0	65	13723
2026-01-19 14:20:04.91	349.72	86.17	-47.3	-59.1	3.8	8.47e-01	0	44	104	0	65	13677
2026-01-19 14:20:07.89	347.56	84.64	-47.3	-59.1	3.8	8.47e-01	0	44	104	0	65	13726
2026-01-19 14:20:10.87	346.37	83.12	-47.3	-59.2	3.8	8.48e-01	0	44	104	0	65	13739
2026-01-19 14:20:13.85	345.61	81.61	-47.3	-59.1	3.8	8.47e-01	0	44	104	0	65	13712
2026-01-19 14:20:16.83	345.09	80.11	-47.3	-59.1	3.8	8.47e-01	0	44	104	0	65	13643
2026-01-19 14:20:19.81	344.71	78.61	-47.2	-59.1	3.8	8.47e-01	0	44	104	0	65	13572
2026-01-19 14:20:22.78	344.42	77.14	-47.3	-59.2	3.8	8.46e-01	0	44	104	0	65	13767
2026-01-19 14:20:25.76	344.20	75.67	-47.2	-59.1	3.8	8.47e-01	0	44	104	0	65	13650
2026-01-19 14:20:28.74	344.02	74.22	-47.3	-59.1	3.8	8.47e-01	0	44	104	0	65	13637
2026-01-19 14:20:31.72	343.87	72.78	-47.3	-59.2	3.8	8.47e-01	0	44	104	0	65	13749
2026-01-19 14:20:34.70	343.75	71.37	-47.3	-59.1	3.8	8.46e-01	0	44	104	0	65	13692
2026-01-19 14:20:37.68	343.65	69.97	-47.3	-59.2	3.8	8.47e-01	0	44	104	0	65	13747
2026-01-19 14:20:40.66	343.56	68.59	-47.3	-59.1	3.8	8.47e-01	0	44	104	0	65	13663
2026-01-19 14:20:43.64	343.48	67.24	-47.2	-59.1	3.8	8.46e-01	0	44	104	0	65	13622
2026-01-19 14:20:46.62	343.42	65.90	-47.3	-59.1	3.8	8.46e-01	0	44	104	0	65	13702
2026-01-19 14:20:49.59	343.37	64.59	-47.3	-59.2	3.8	8.47e-01	0	44	104	0	65	13763
2026-01-19 14:20:52.57	343.32	63.30	-47.2	-59.1	3.8	8.47e-01	0	44	104	0	65	13658
2026-01-19 14:20:55.55	343.28	62.03	-47.3	-59.1	3.8	8.47e-01	0	44	104	0	65	13619
2026-01-19 14:20:58.53	343.24	60.79	-47.3	-59.1	3.8	8.47e-01	0	44	104	0	65	13652
2026-01-19 14:21:01.51	343.21	59.57	-47.3	-59.1	3.8	8.46e-01	0	44	104	0	65	13724
2026-01-19 14:21:04.49	343.18	58.37	-47.2	-59.1	3.8	8.46e-01	0	44	104	0	65	13623
2026-01-19 14:21:07.47	343.15	57.20	-47.2	-59.1	3.8	8.48e-01	0	44	104	0	65	13699
2026-01-19 14:21:10.44	343.13	56.06	-47.3	-59.1	3.8	8.48e-01	0	44	104	0	65	13725
2026-01-19 14:21:13.42	343.11	54.93	-47.3	-59.1	3.8	8.47e-01	0	44	104	0	65	13705
2026-01-19 14:21:16.40	343.09	53.83	-47.3	-59.1	3.8	8.47e-01	0	44	104	0	65	13644
2026-01-19 14:21:19.38	343.08	52.75	-47.3	-59.1	3.8	8.46e-01	0	44	104	0	65	13684
2026-01-19 14:21:22.36	343.06	51.70	-47.3	-59.1	3.8	8.46e-01	0	44	104	0	65	13622
2026-01-19 14:21:25.34	343.05	50.66	-47.3	-59.1	3.8	8.46e-01	0	44	104	0	65	13689
2026-01-19 14:21:28.32	343.04	49.65	-47.2	-59.1	3.8	8.47e-01	0	44	104	0	65	13709
2026-01-19 14:21:31.30	343.03	48.67	-47.3	-59.1	3.8	8.46e-01	0	44	104	0	65	13706
2026-01-19 14:21:34.28	343.03	47.70	-47.3	-59.2	3.8	8.47e-01	0	44	104	0	65	13763
2026-01-19 14:21:37.25	343.02	46.76	-47.3	-59.1	3.8	8.46e-01	0	44	104	0	65	13602
2026-01-19 14:21:40.23	343.01	45.83	-47.2	-59.1	3.8	8.47e-01	0	44	104	0	65	13681
2026-01-19 14:21:43.21	343.01	44.93	-47.2	-59.1	3.8	8.46e-01	0	44	104	0	65	13596
2026-01-19 14:21:46.19	343.00	44.05	-47.2	-59.1	3.8	8.48e-01	0	44	104	0	65	13709
2026-01-19 14:21:49.17	343.00	43.19	-47.2	-59.1	3.8	8.46e-01	0	44	104	0	65	13617
2026-01-19 14:21:52.15	343.00	42.34	-47.2	-59.1	3.8	8.46e-01	0	44	104	0	65	13689
2026-01-19 14:21:55.13	343.00	41.52	-47.2	-59.1	3.8	8.46e-01	0	44	104	0	65	13676
2026-01-19 14:21:58.11	343.00	40.71	-47.2	-59.1	3.8	8.47e-01	0	44	104	0	65	13641
2026-01-19 14:22:01.09	343.00	39.92	-47.2	-59.1	3.8	8.48e-01	0	44	104	0	65	13699
2026-01-19 14:22:04.07	343.00	39.15	-47.2	-59.1	3.8	8.48e-01	0	44	104	0	65	13666
2026-01-19 14:22:07.05	343.00	38.40	-47.3	-59.2	3.8	8.47e-01	0	44	104	0	65	13734
2026-01-19 14:22:10.03	343.00	37.66	-47.2	-59.2	3.8	8.48e-01	0	44	104	0	65	13736
2026-01-19 14:22:13.01	343.00	36.94	-47.3	-59.1	3.8	8.48e-01	0	44	104	0	65	13693
2026-01-19 14:22:15.98	343.00	36.23	-47.3	-59.1	3.8	8.46e-01	0	44	104	0	65	13633
2026-01-19 14:22:18.96	343.00	35.54	-47.3	-59.1	3.8	8.47e-01	0	44	104	0	65	13687
2026-01-19 14:22:21.94	343.01	34.87	-47.2	-59.1	3.8	8.47e-01	0	44	104	0	65	13573
2026-01-19 14:22:24.92	343.01	34.20	-47.3	-59.2	3.8	8.46e-01	0	44	104	0	65	13778
2026-01-19 14:22:27.90	343.01	33.56	-47.3	-59.2	3.8	8.48e-01	0	44	104	0	65	13727
2026-01-19 14:22:30.88	343.02	32.92	-47.3	-59.1	3.8	8.47e-01	0	44	104	0	65	13668
2026-01-19 14:22:33.86	343.02	32.30	-47.3	-59.1	3.8	8.47e-01	0	44	104	0	65	13710
2026-01-19 14:22:36.84	343.02	31.69	-47.3	-59.1	3.8	8.47e-01	0	44	104	0	65	13714
2026-01-19 14:22:39.82	343.03	31.09	-47.3	-59.2	3.8	8.46e-01	0	44	104	0	65	13762
2026-01-19 14:22:42.80	343.03	30.51	-47.3	-59.1	3.8	8.46e-01	0	44	104	0	65	13721
2026-01-19 14:22:45.77	343.04	29.94	-47.3	-59.2	3.8	8.46e-01	0	44	104	0	65	13795
2026-01-19 14:22:48.75	343.04	29.38	-47.3	-59.1	3.8	8.47e-01	0	44	104	0	65	13693
2026-01-19 14:22:51.73	343.05	28.83	-47.3	-59.2	3.8	8.46e-01	0	44	104	0	65	13785
2026-01-19 14:22:54.71	343.05	28.29	-47.3	-59.1	3.8	8.46e-01	0	44	104	0	65	13702
2026-01-19 14:22:57.69	343.06	27.76	-47.3	-59.1	3.8	8.47e-01	0	44	104	0	65	13661
2026-01-19 14:23:00.67	343.07	27.24	-47.3	-59.1	3.8	8.46e-01	0	44	104	0	65	13661
2026-01-19 14:23:03.65	343.07	26.73	-47.3	-59.2	3.8	8.47e-01	0	44	104	0	65	13760
2026-01-19 14:23:06.63	343.08	26.23	-47.3	-59.1	3.8	8.47e-01	0	44	104	0	65	13659
2026-01-19 14:23:09.61	343.08	25.74	-47.3	-59.1	3.8	8.47e-01	0	44	104	0	65	13709
2026-01-19 14:23:12.58	343.09	25.26	-47.3	-59.1	3.8	8.45e-01	0	44	104	0	65	13659
2026-01-19 14:23:15.56	343.10	24.78	-47.3	-59.1	3.8	8.47e-01	0	44	104	0	65	13698
2026-01-19 14:23:18.54	343.10	24.32	-47.2	-59.1	3.8	8.46e-01	0	44	104	0	65	13662
2026-01-19 14:23:21.52	343.11	23.86	-47.2	-59.1	3.8	8.48e-01	0	44	104	0	65	13689
2026-01-19 14:23:24.50	343.12	23.41	-47.3	-59.1	3.8	8.46e-01	0	44	104	0	65	13692
2026-01-19 14:23:27.48	343.13	22.97	-47.3	-59.1	3.8	8.48e-01	0	44	104	0	65	13720
2026-01-19 14:23:30.46	343.13	22.54	-47.3	-59.2	3.8	8.47e-01	0	44	104	0	65	13803
2026-01-19 14:23:33.44	343.14	22.11	-47.3	-59.2	3.8	8.46e-01	0	44	104	0	65	13773
2026-01-19 14:23:36.41	343.15	21.69	-47.3	-59.1	3.8	8.47e-01	0	44	104	0	65	13613
2026-01-19 14:23:39.39	343.16	21.28	-47.3	-59.1	3.8	8.47e-01	0	44	104	0	65	13692
2026-01-19 14:23:42.37	343.16	20.87	-47.3	-59.1	3.8	8.48e-01	0	44	104	0	65	13701
2026-01-19 14:23:45.35	343.17	20.47	-47.3	-59.1	3.8	8.47e-01	0	44	104	0	65	13723
2026-01-19 14:23:48.33	343.18	20.08	-47.2	-59.2	3.8	8.48e-01	0	44	104	0	65	13785
2026-01-19 14:23:51.31	343.19	19.69	-47.2	-59.1	3.8	8.47e-01	0	44	104	0	65	13680
2026-01-19 14:23:54.29	343.20	19.31	-47.3	-59.1	3.8	8.47e-01	0	44	104	0	65	13659
2026-01-19 14:23:57.26	343.21	18.94	-47.2	-59.1	3.8	8.46e-01	0	44	104	0	65	13710
2026-01-19 14:24:00.24	343.21	18.57	-47.3	-59.2	3.8	8.47e-01	0	44	104	0	65	13732
2026-01-19 14:24:03.22	343.22	18.20	-47.2	-59.1	3.8	8.47e-01	0	44	104	0	65	13640
2026-01-19 14:24:06.20	343.23	17.85	-47.2	-59.1	3.8	8.47e-01	0	44	104	0	65	13632
2026-01-19 14:24:09.18	343.24	17.49	-47.3	-59.1	3.8	8.46e-01	0	44	104	0	65	13675
2026-01-19 14:24:12.16	343.25	17.14	-47.3	-59.1	3.8	8.47e-01	0	44	104	0	65	13665
2026-01-19 14:24:15.13	343.26	16.80	-47.3	-59.1	3.8	8.47e-01	0	44	104	0	65	13644
2026-01-19 14:24:18.11	343.27	16.46	-47.3	-59.1	3.8	8.47e-01	0	44	104	0	65	13672
2026-01-19 14:24:21.09	343.28	16.13	-47.2	-59.1	3.8	8.48e-01	0	44	104	0	65	13656
2026-01-19 14:24:24.07	343.28	15.80	-47.3	-59.1	3.8	8.46e-01	0	44	104	0	65	13707
2026-01-19 14:24:27.05	343.29	15.47	-47.3	-59.1	3.8	8.47e-01	0	44	104	0	65	13670
2026-01-19 14:24:30.03	343.30	15.15	-47.3	-59.1	3.8	8.46e-01	0	44	104	0	65	13664
2026-01-19 14:24:33.01	343.31	14.83	-47.2	-59.1	3.8	8.46e-01	0	44	104	0	65	13701
2026-01-19 14:24:35.98	343.32	14.52	-47.3	-59.1	3.8	8.46e-01	0	44	104	0	65	13691
2026-01-19 14:24:38.96	343.33	14.21	-47.3	-59.1	3.8	8.46e-01	0	44	104	0	65	13675
2026-01-19 14:24:41.94	343.34	13.91	-47.2	-59.1	3.8	8.47e-01	0	44	104	0	65	13704
2026-01-19 14:24:44.92	343.35	13.61	-47.2	-59.1	3.8	8.47e-01	0	44	104	0	65	13690
2026-01-19 14:24:47.90	343.36	13.31	-47.3	-59.1	3.8	8.46e-01	0	44	104	0	65	13669
2026-01-19 14:24:50.88	343.37	13.02	-47.3	-59.1	3.8	8.46e-01	0	44	104	0	65	13593
2026-01-19 14:24:53.86	343.38	12.73	-47.3	-59.1	3.8	8.47e-01	0	44	104	0	65	13688
2026-01-19 14:24:56.84	343.39	12.44	-47.3	-59.1	3.8	8.48e-01	0	44	104	0	65	13609
2026-01-19 14:24:59.81	343.40	12.16	-47.2	-59.1	3.8	8.47e-01	0	44	104	0	65	13679
2026-01-19 14:25:02.79	343.41	11.88	-47.3	-59.2	3.8	8.47e-01	0	44	104	0	65	13743
2026-01-19 14:25:05.77	343.42	11.60	-47.3	-59.1	3.8	8.47e-01	0	44	104	0	65	13722
2026-01-19 14:25:08.75	343.43	11.33	-47.3	-59.1	3.8	8.47e-01	0	44	104	0	65	13614
2026-01-19 14:25:11.73	343.44	11.06	-47.3	-59.1	3.8	8.46e-01	0	44	104	0	65	13707
2026-01-19 14:25:14.71	343.45	10.79	-47.3	-59.1	3.8	8.47e-01	0	44	104	0	65	13642
2026-01-19 14:25:17.69	343.46	10.52	-47.3	-59.1	3.8	8.46e-01	0	44	104	0	65	13724
2026-01-19 14:25:20.67	343.47	10.26	-47.3	-59.1	3.8	8.48e-01	0	44	104	0	65	13705
2026-01-19 14:25:23.65	343.48	10.00	-47.2	-59.1	3.8	8.47e-01	0	44	104	0	65	13668
2026-01-19 14:25:26.63	343.49	9.74	-47.2	-59.1	3.8	8.47e-01	0	44	104	0	65	13642
2026-01-19 14:25:29.61	343.50	9.49	-47.2	-59.1	3.8	8.47e-01	0	44	104	0	65	13665
2026-01-19 14:25:32.59	343.51	9.24	-47.2	-59.2	3.8	8.47e-01	0	44	104	0	65	13735
2026-01-19 14:25:35.57	343.52	8.99	-47.2	-59.1	3.8	8.46e-01	0	44	104	0	65	13643
2026-01-19 14:25:38.54	343.53	8.74	-47.2	-59.1	3.8	8.47e-01	0	44	104	0	65	13616
2026-01-19 14:25:41.53	343.54	8.50	-47.2	-59.1	3.8	8.47e-01	0	44	104	0	65	13626
2026-01-19 14:25:44.50	343.55	8.26	-47.2	-59.1	3.8	8.47e-01	0	44	104	0	65	13695
2026-01-19 14:25:47.48	343.56	8.02	-47.3	-59.1	3.8	8.47e-01	0	44	104	0	65	13624
2026-01-19 14:25:50.46	343.57	7.78	-47.2	-59.2	3.8	8.49e-01	0	44	104	0	65	13774
2026-01-19 14:25:53.44	343.58	7.55	-47.2	-59.1	3.8	8.47e-01	0	44	104	0	65	13662
2026-01-19 14:25:56.42	343.59	7.31	-47.2	-59.1	3.8	8.48e-01	0	44	104	0	65	13638
2026-01-19 14:25:59.39	343.60	7.08	-47.2	-59.1	3.8	8.47e-01	0	44	104	0	65	13710
2026-01-19 14:26:02.37	343.61	6.86	-47.2	-59.1	3.8	8.47e-01	0	44	104	0	65	13591
2026-01-19 14:26:05.35	343.62	6.63	-47.2	-59.1	3.8	8.47e-01	0	44	104	0	65	13718
2026-01-19 14:26:08.33	343.63	6.40	-47.2	-59.1	3.8	8.48e-01	0	44	104	0	65	13662
2026-01-19 14:26:11.31	343.65	6.18	-47.3	-59.2	3.8	8.47e-01	0	44	104	0	65	13733
2026-01-19 14:26:14.29	343.66	5.96	-47.3	-59.1	3.8	8.46e-01	0	44	104	0	65	13715
2026-01-19 14:26:17.27	343.67	5.74	-47.2	-59.1	3.8	8.47e-01	0	44	104	0	65	13703
2026-01-19 14:26:20.25	343.68	5.52	-47.2	-59.1	3.8	8.47e-01	0	44	104	0	65	13634
2026-01-19 14:26:23.23	343.69	5.31	-47.2	-59.2	3.8	8.47e-01	0	44	104	0	65	13751
