passes_logs/2026/01/19/T1/T1__20260119_081235_SUOMI_NPP_rec.log

#Pass ID: 20260119_081235_SUOMI NPP
#Satellite: SUOMI NPP
#Configuration: NPP
#almurnet v.1.7.20251203
#Start time: 2026-01-19 08:12:37

#Version: 2.0.20230620
#Station: T1
#Location: 37.570604 lon 55.790049 lat
#TLE: 1 37849U 11061A   26018.91022273  .00000066  00000+0  52264-4 0  9997
#TLE: 2 37849  98.7816 320.9252 0002364  56.8129 303.3273 14.19526186737260

#Time	Az	El	Level	Level2	SNR	BER	BlckErr	Temp	State	Recorded	gain1	gain2
2026-01-19 08:12:37.81	102.90	5.13	-49.7	-64.9	3.8	1.49e+00	0	39	0	0	71	20113
2026-01-19 08:12:40.79	102.63	5.30	-49.7	-64.9	3.8	1.49e+00	0	39	104	0	71	20090
2026-01-19 08:12:43.77	102.36	5.48	-49.7	-64.9	3.8	1.49e+00	0	40	104	0	71	20116
2026-01-19 08:12:46.75	102.08	5.65	-49.7	-64.9	3.8	1.49e+00	0	40	104	0	71	20150
2026-01-19 08:12:49.73	101.80	5.83	-49.7	-64.9	3.8	1.49e+00	0	40	104	0	71	20187
2026-01-19 08:12:52.71	101.52	6.00	-49.7	-64.9	3.8	1.49e+00	0	40	104	0	71	20105
2026-01-19 08:12:55.69	101.23	6.18	-49.7	-64.8	3.8	1.49e+00	0	40	104	0	71	20061
2026-01-19 08:12:58.67	100.94	6.36	-49.7	-64.7	3.8	1.49e+00	0	40	104	0	71	19788
2026-01-19 08:13:01.65	100.65	6.53	-49.7	-64.7	3.8	1.49e+00	0	40	104	0	71	19739
2026-01-19 08:13:04.63	100.36	6.71	-49.7	-64.7	3.8	1.49e+00	0	40	104	0	71	19818
2026-01-19 08:13:07.61	100.05	6.89	-49.7	-64.7	3.8	1.49e+00	0	40	104	0	71	19623
2026-01-19 08:13:10.59	99.75	7.07	-49.7	-64.4	3.8	1.49e+00	0	40	104	0	71	19042
2026-01-19 08:13:13.57	99.44	7.25	-49.7	-64.1	3.8	1.49e+00	0	40	104	0	71	18492
2026-01-19 08:13:16.55	99.13	7.43	-49.7	-64.5	3.8	1.49e+00	0	40	104	0	71	19198
2026-01-19 08:13:19.53	98.81	7.61	-49.7	-64.6	3.8	1.49e+00	0	41	104	0	71	19441
2026-01-19 08:13:22.51	98.49	7.79	-49.6	-63.9	3.8	1.49e+00	0	40	104	0	71	17950
2026-01-19 08:13:25.49	98.17	7.97	-49.7	-64.3	3.8	1.49e+00	0	41	104	0	71	18737
2026-01-19 08:13:28.48	97.84	8.16	-49.5	-61.6	4.1	1.49e+00	0	40	104	0	71	13781
2026-01-19 08:13:31.46	97.51	8.34	-47.3	-52.4	11.0	1.37e-02	0	41	0	4194304	66	6406
2026-01-19 08:13:34.48	97.17	8.53	-46.1	-50.0	13.5	8.30e-06	0	40	0	10485760	63	5774
2026-01-19 08:13:37.56	96.81	8.71	-46.0	-49.8	13.7	2.20e-06	0	41	0	15728640	63	5656
2026-01-19 08:13:40.54	96.47	8.90	-48.1	-54.6	8.8	1.10e-02	0	41	0	22020096	66	8189
2026-01-19 08:13:43.52	96.12	9.08	-48.7	-56.6	6.6	1.30e+00	0	41	0	26214400	69	8704
2026-01-19 08:13:46.51	95.76	9.27	-49.2	-60.1	4.0	1.49e+00	0	41	104	30408704	69	13100
2026-01-19 08:13:49.49	95.40	9.45	-47.5	-53.2	10.3	3.13e-01	0	41	0	31457280	67	6586
2026-01-19 08:13:52.47	95.04	9.64	-46.1	-50.0	13.8	1.50e-06	0	41	0	37748736	63	5724
2026-01-19 08:13:55.46	94.67	9.82	-46.4	-50.5	13.2	5.56e-05	0	41	0	42991616	63	6109
2026-01-19 08:13:58.45	94.30	10.01	-46.0	-49.8	13.9	3.80e-06	0	41	0	48234496	63	5626
2026-01-19 08:14:01.44	93.92	10.20	-45.9	-49.7	14.1	2.20e-06	0	41	0	54525952	63	5533
2026-01-19 08:14:04.42	93.53	10.38	-45.4	-48.8	14.9	7.00e-07	0	41	0	59768832	62	5303
2026-01-19 08:14:07.41	93.14	10.57	-45.4	-48.8	15.0	0.00e+00	0	41	0	65011712	62	5303
2026-01-19 08:14:10.46	92.74	10.76	-44.8	-47.9	15.8	0.00e+00	0	41	0	71303168	61	5067
2026-01-19 08:14:13.43	92.34	10.94	-45.2	-48.5	15.2	0.00e+00	0	41	0	76546048	61	5446
2026-01-19 08:14:16.42	91.94	11.13	-44.8	-47.9	15.9	0.00e+00	0	41	0	82837504	61	5080
2026-01-19 08:14:19.41	91.53	11.32	-45.1	-48.3	15.5	0.00e+00	0	41	0	88080384	61	5299
2026-01-19 08:14:22.39	91.11	11.50	-45.0	-48.1	15.7	0.00e+00	0	41	0	93323264	61	5164
2026-01-19 08:14:25.37	90.69	11.69	-44.8	-47.9	15.9	0.00e+00	0	41	0	99614720	61	5064
2026-01-19 08:14:28.34	90.27	11.88	-44.8	-47.9	15.9	0.00e+00	0	41	0	104857600	61	5062
2026-01-19 08:14:31.69	89.79	12.08	-44.4	-47.4	16.4	0.00e+00	0	41	0	111149056	60	5055
2026-01-19 08:14:34.40	89.39	12.25	-45.2	-48.5	15.3	0.00e+00	0	41	0	116391936	61	5411
2026-01-19 08:14:37.67	88.90	12.46	-44.7	-47.8	16.0	0.00e+00	0	41	0	122683392	61	4996
2026-01-19 08:14:40.49	88.48	12.63	-45.3	-48.6	15.3	0.00e+00	0	41	0	127926272	61	5505
2026-01-19 08:14:43.62	88.00	12.83	-44.8	-47.9	15.9	0.00e+00	0	41	0	133169152	61	5093
2026-01-19 08:14:46.84	87.51	13.03	-45.2	-48.6	15.3	0.00e+00	0	41	0	139460608	61	5494
2026-01-19 08:14:49.82	87.04	13.21	-44.9	-48.1	15.7	0.00e+00	0	41	0	144703488	61	5190
2026-01-19 08:14:52.80	86.57	13.39	-44.8	-47.9	15.9	0.00e+00	0	41	0	150994944	61	5100
2026-01-19 08:14:55.79	86.09	13.58	-44.9	-48.1	15.8	0.00e+00	0	41	0	156237824	61	5181
2026-01-19 08:14:58.86	85.59	13.76	-44.8	-47.9	16.0	0.00e+00	0	41	0	161480704	60	5390
2026-01-19 08:15:01.88	85.10	13.95	-44.9	-48.1	15.8	0.00e+00	0	41	0	167772160	61	5189
2026-01-19 08:15:05.09	84.56	14.14	-44.7	-47.9	16.0	0.00e+00	0	41	0	174063616	60	5387
2026-01-19 08:15:07.94	84.08	14.32	-44.3	-47.3	16.6	0.00e+00	0	41	0	179306496	60	5014
2026-01-19 08:15:11.06	83.55	14.50	-44.0	-46.8	17.1	0.00e+00	0	41	0	184549376	59	4991
2026-01-19 08:15:14.00	83.04	14.68	-43.8	-46.4	17.4	0.00e+00	0	41	0	190840832	59	4805
2026-01-19 08:15:16.99	82.52	14.86	-43.6	-46.2	17.6	0.00e+00	0	41	0	196083712	58	4943
2026-01-19 08:15:19.97	81.99	15.03	-43.5	-46.2	17.6	0.00e+00	0	41	0	201326592	58	4939
2026-01-19 08:15:22.96	81.45	15.21	-43.1	-45.7	18.1	0.00e+00	0	41	0	207618048	58	4656
2026-01-19 08:15:25.99	80.90	15.38	-43.1	-45.6	18.1	0.00e+00	0	41	0	212860928	58	4619
2026-01-19 08:15:28.97	80.36	15.56	-43.1	-45.6	18.2	0.00e+00	0	41	0	218103808	58	4617
2026-01-19 08:15:31.95	79.80	15.73	-43.4	-45.9	17.9	0.00e+00	0	41	0	224395264	58	4780
2026-01-19 08:15:34.94	79.24	15.90	-43.7	-46.3	17.5	0.00e+00	0	41	0	229638144	58	5033
2026-01-19 08:15:37.93	78.68	16.06	-43.3	-45.9	17.9	0.00e+00	0	41	0	234881024	58	4786
2026-01-19 08:15:40.96	78.09	16.23	-43.3	-45.9	17.9	0.00e+00	0	41	0	241172480	58	4762
2026-01-19 08:15:43.93	77.52	16.40	-42.8	-45.1	18.6	0.00e+00	0	41	0	246415360	57	4625
2026-01-19 08:15:46.91	76.93	16.56	-43.0	-45.5	18.3	0.00e+00	0	41	0	251658240	57	4824
2026-01-19 08:15:49.90	76.34	16.72	-43.3	-45.8	17.9	0.00e+00	0	41	0	257949696	57	5026
2026-01-19 08:15:52.89	75.74	16.88	-43.2	-45.7	18.1	0.00e+00	0	41	0	263192576	57	4962
2026-01-19 08:15:55.93	75.12	17.03	-42.8	-45.4	18.2	0.00e+00	0	41	0	269484032	57	4805
2026-01-19 08:15:58.85	74.53	17.18	-42.6	-45.1	18.5	0.00e+00	0	41	0	274726912	57	4624
2026-01-19 08:16:01.98	73.88	17.34	-42.3	-44.7	18.9	0.00e+00	0	41	0	279969792	56	4662
2026-01-19 08:16:04.82	73.29	17.48	-41.8	-44.1	19.3	0.00e+00	0	41	0	285212672	55	4617
2026-01-19 08:16:07.98	72.62	17.64	-42.0	-44.3	19.1	0.00e+00	0	41	0	291504128	55	4741
2026-01-19 08:16:10.87	72.00	17.78	-42.2	-44.6	18.8	0.00e+00	0	41	0	296747008	55	4907
2026-01-19 08:16:13.99	71.33	17.92	-42.7	-45.2	18.4	0.00e+00	0	41	0	303038464	56	4973
2026-01-19 08:16:16.84	70.71	18.05	-43.1	-45.7	17.9	0.00e+00	0	41	0	308281344	56	5260
2026-01-19 08:16:19.99	70.02	18.20	-43.0	-45.6	18.0	0.00e+00	0	41	0	314572800	56	5190
2026-01-19 08:16:22.85	69.39	18.32	-42.5	-45.0	18.6	0.00e+00	0	41	0	319815680	56	4852
2026-01-19 08:16:26.00	68.69	18.46	-42.1	-44.4	19.2	0.00e+00	0	41	0	325058560	56	4523
2026-01-19 08:16:28.86	68.05	18.57	-42.0	-44.4	19.2	0.00e+00	0	41	0	330301440	56	4494
2026-01-19 08:16:32.00	67.34	18.70	-41.9	-44.2	19.2	0.00e+00	0	41	0	336592896	55	4692
2026-01-19 08:16:34.85	66.68	18.81	-41.9	-44.2	19.2	0.00e+00	0	41	0	341835776	55	4700
2026-01-19 08:16:38.00	65.96	18.93	-42.1	-44.4	19.0	0.00e+00	0	41	0	348127232	55	4787
2026-01-19 08:16:40.85	65.30	19.04	-42.5	-44.9	18.7	0.00e+00	0	41	0	353370112	55	5048
2026-01-19 08:16:44.00	64.56	19.15	-42.6	-45.1	18.5	0.00e+00	0	41	0	358612992	55	5164
2026-01-19 08:16:46.86	63.89	19.25	-42.6	-45.0	18.7	0.00e+00	0	41	0	364904448	56	4833
2026-01-19 08:16:50.01	63.15	19.35	-43.2	-45.8	18.0	0.00e+00	0	41	0	370147328	57	4984
2026-01-19 08:16:52.87	62.47	19.44	-43.5	-46.2	17.5	0.00e+00	0	41	0	375390208	57	5257
2026-01-19 08:16:56.01	61.71	19.53	-43.4	-46.1	17.6	0.00e+00	0	41	0	381681664	57	5210
2026-01-19 08:16:58.87	61.02	19.61	-43.2	-45.7	18.0	0.00e+00	0	41	0	386924544	57	4968
2026-01-19 08:17:02.01	60.26	19.70	-43.2	-45.8	17.9	0.00e+00	0	41	0	393216000	57	5020
2026-01-19 08:17:04.87	59.57	19.77	-43.7	-46.6	17.2	0.00e+00	0	41	0	398458880	58	5188
2026-01-19 08:17:08.01	58.80	19.84	-43.5	-46.3	17.5	0.00e+00	0	41	0	403701760	58	4989
2026-01-19 08:17:10.87	58.10	19.91	-43.7	-46.5	17.2	0.00e+00	0	41	0	409993216	58	5127
2026-01-19 08:17:14.02	57.32	19.97	-44.3	-47.4	16.4	0.00e+00	0	41	0	415236096	59	5374
2026-01-19 08:17:16.87	56.61	20.03	-43.9	-46.8	17.0	0.00e+00	0	41	0	420478976	59	4988
2026-01-19 08:17:20.02	55.83	20.08	-43.4	-46.1	17.5	0.00e+00	0	41	0	426770432	58	4926
2026-01-19 08:17:22.89	55.12	20.13	-43.6	-46.5	17.1	0.00e+00	0	41	0	432013312	58	5153
2026-01-19 08:17:26.03	54.33	20.17	-44.0	-47.0	16.7	0.00e+00	0	41	0	438304768	58	5454
2026-01-19 08:17:28.88	53.62	20.20	-43.8	-46.7	17.0	0.00e+00	0	41	0	443547648	58	5272
2026-01-19 08:17:32.04	52.82	20.24	-43.6	-46.4	17.3	0.00e+00	0	41	0	448790528	58	5098
2026-01-19 08:17:34.89	52.10	20.26	-43.4	-46.2	17.4	0.00e+00	0	41	0	455081984	58	4954
2026-01-19 08:17:38.04	51.31	20.28	-43.0	-45.7	17.9	0.00e+00	0	41	0	460324864	58	4658
2026-01-19 08:17:40.90	50.59	20.30	-43.0	-45.7	17.9	0.00e+00	0	41	0	465567744	57	4958
2026-01-19 08:17:44.05	49.79	20.31	-42.9	-45.5	18.2	0.00e+00	0	41	0	471859200	57	4818
2026-01-19 08:17:46.90	49.07	20.32	-43.4	-46.2	17.5	0.00e+00	0	41	0	477102080	57	5228
2026-01-19 08:17:50.04	48.28	20.32	-43.9	-46.9	16.9	0.00e+00	0	41	0	483393536	58	5366
2026-01-19 08:17:52.90	47.56	20.31	-44.1	-47.1	16.7	0.00e+00	0	41	0	488636416	58	5484
2026-01-19 08:17:56.04	46.76	20.30	-43.0	-45.7	18.0	0.00e+00	0	41	0	493879296	58	4654
2026-01-19 08:17:58.91	46.04	20.29	-42.2	-44.6	18.9	0.00e+00	0	41	0	499122176	56	4649
2026-01-19 08:18:02.05	45.25	20.26	-42.3	-44.7	18.9	0.00e+00	0	41	0	505413632	56	4663
2026-01-19 08:18:04.91	44.53	20.24	-41.7	-43.9	19.4	0.00e+00	0	41	0	510656512	55	4540
2026-01-19 08:18:08.06	43.74	20.21	-41.9	-44.3	19.2	0.00e+00	0	41	0	516947968	55	4712
2026-01-19 08:18:10.92	43.02	20.17	-42.2	-44.6	18.9	0.00e+00	0	41	0	522190848	55	4891
2026-01-19 08:18:14.06	42.24	20.13	-41.8	-44.2	19.3	0.00e+00	0	41	0	528482304	55	4653
2026-01-19 08:18:16.91	41.53	20.08	-41.9	-44.2	19.2	0.00e+00	0	41	0	533725184	55	4680
2026-01-19 08:18:20.05	40.75	20.03	-42.0	-44.3	19.2	0.00e+00	0	41	0	538968064	55	4718
2026-01-19 08:18:22.91	40.04	19.97	-42.3	-44.7	18.9	0.00e+00	0	41	0	544210944	55	4941
2026-01-19 08:18:26.05	39.27	19.91	-42.3	-44.7	18.8	0.00e+00	0	41	0	550502400	55	4949
2026-01-19 08:18:28.91	38.57	19.85	-42.4	-44.8	18.7	0.00e+00	0	41	0	555745280	55	4991
2026-01-19 08:18:32.06	37.80	19.77	-42.3	-44.7	18.8	0.00e+00	0	41	0	562036736	55	4943
2026-01-19 08:18:34.92	37.10	19.70	-43.4	-46.2	17.7	0.00e+00	0	41	0	567279616	57	5228
2026-01-19 08:18:38.07	36.34	19.62	-44.0	-46.9	16.9	0.00e+00	0	41	0	573571072	58	5363
2026-01-19 08:18:40.92	35.66	19.54	-43.9	-46.7	17.1	0.00e+00	0	41	0	578813952	58	5259
2026-01-19 08:18:44.07	34.90	19.44	-43.7	-46.5	17.3	0.00e+00	0	41	0	584056832	58	5139
2026-01-19 08:18:46.93	34.22	19.35	-43.7	-46.6	17.2	0.00e+00	0	41	0	589299712	58	5173
2026-01-19 08:18:50.08	33.48	19.25	-43.8	-46.8	17.0	0.00e+00	0	41	0	595591168	58	5295
2026-01-19 08:18:52.94	32.81	19.15	-43.9	-46.8	17.1	0.00e+00	0	41	0	600834048	59	4996
2026-01-19 08:18:56.08	32.08	19.04	-43.5	-46.2	17.6	0.00e+00	0	41	0	607125504	58	4972
2026-01-19 08:18:58.95	31.41	18.94	-43.5	-46.2	17.6	0.00e+00	0	41	0	612368384	58	4943
2026-01-19 08:19:02.10	30.69	18.82	-43.5	-46.2	17.6	0.00e+00	0	41	0	617611264	58	4977
2026-01-19 08:19:04.96	30.04	18.71	-43.3	-45.9	17.8	0.00e+00	0	41	0	623902720	58	4808
2026-01-19 08:19:08.11	29.33	18.58	-42.7	-45.2	18.5	0.00e+00	0	41	0	629145600	57	4678
2026-01-19 08:19:10.97	28.69	18.46	-42.6	-45.0	18.7	0.00e+00	0	41	0	634388480	56	4835
2026-01-19 08:19:14.11	27.99	18.33	-42.3	-44.8	18.8	0.00e+00	0	41	0	640679936	56	4716
2026-01-19 08:19:16.97	27.36	18.20	-42.8	-45.4	18.3	0.00e+00	0	41	0	645922816	56	5091
2026-01-19 08:19:20.11	26.67	18.06	-44.0	-47.2	16.6	0.00e+00	0	41	0	652214272	58	5568
2026-01-19 08:19:22.97	26.06	17.93	-43.9	-47.1	16.7	0.00e+00	0	41	0	657457152	59	5195
2026-01-19 08:19:26.12	25.38	17.78	-44.1	-47.3	16.6	0.00e+00	0	41	0	662700032	59	5319
2026-01-19 08:19:28.97	24.78	17.65	-44.7	-48.2	15.7	0.00e+00	0	41	0	668991488	60	5576
2026-01-19 08:19:32.12	24.11	17.49	-44.9	-48.4	15.5	0.00e+00	0	41	0	674234368	60	5675
2026-01-19 08:19:34.98	23.52	17.35	-43.7	-46.7	17.1	0.00e+00	0	41	0	679477248	59	4927
2026-01-19 08:19:38.12	22.87	17.19	-42.8	-45.4	18.3	0.00e+00	0	41	0	685768704	57	4771
2026-01-19 08:19:40.98	22.29	17.05	-42.8	-45.5	18.2	0.00e+00	0	41	0	691011584	57	4851
2026-01-19 08:19:44.12	21.65	16.88	-43.3	-46.2	17.6	0.00e+00	0	41	0	697303040	57	5262
2026-01-19 08:19:46.99	21.08	16.73	-43.9	-46.9	16.9	0.00e+00	0	41	0	702545920	58	5366
2026-01-19 08:19:50.13	20.46	16.57	-43.1	-45.8	17.9	0.00e+00	0	41	0	707788800	58	4756
2026-01-19 08:19:52.99	19.90	16.41	-42.8	-45.4	18.3	0.00e+00	0	41	0	713031680	57	4800
2026-01-19 08:19:56.13	19.30	16.24	-43.9	-47.0	16.8	0.00e+00	0	41	0	719323136	58	5454
2026-01-19 08:19:58.99	18.75	16.08	-44.6	-48.3	15.5	0.00e+00	0	41	0	724566016	60	5649
2026-01-19 08:20:02.13	18.16	15.90	-44.4	-47.8	16.2	0.00e+00	0	41	0	730857472	60	5286
2026-01-19 08:20:04.99	17.62	15.74	-44.4	-47.5	16.4	0.00e+00	0	41	0	736100352	60	5120
2026-01-19 08:20:08.14	17.04	15.56	-43.8	-46.6	17.2	0.00e+00	0	41	0	742391808	59	4893
2026-01-19 08:20:11.01	16.52	15.40	-43.6	-46.4	17.3	0.00e+00	0	41	0	747634688	59	4810
2026-01-19 08:20:14.15	15.95	15.22	-43.6	-46.6	17.2	0.00e+00	0	41	0	752877568	59	4880
2026-01-19 08:20:17.01	15.44	15.05	-44.0	-47.4	16.4	0.00e+00	0	41	0	758120448	59	5398
2026-01-19 08:20:20.16	14.89	14.86	-44.2	-47.8	16.1	0.00e+00	0	41	0	764411904	59	5620
2026-01-19 08:20:23.02	14.39	14.70	-43.4	-46.7	17.1	0.00e+00	0	41	0	769654784	58	5241
2026-01-19 08:20:26.17	13.85	14.51	-43.3	-46.5	17.2	0.00e+00	0	41	0	775946240	58	5122
2026-01-19 08:20:29.02	13.37	14.34	-43.7	-47.0	16.8	0.00e+00	0	41	0	781189120	58	5461
2026-01-19 08:20:32.17	12.84	14.15	-44.0	-47.3	16.5	0.00e+00	0	41	0	787480576	58	5617
2026-01-19 08:20:35.03	12.36	13.97	-43.8	-46.8	16.9	0.00e+00	0	41	0	792723456	58	5336
2026-01-19 08:20:38.18	11.85	13.78	-43.3	-46.2	17.6	0.00e+00	0	41	0	797966336	58	4933
2026-01-19 08:20:41.04	11.39	13.61	-42.9	-45.8	18.0	0.00e+00	0	41	0	803209216	57	4985
2026-01-19 08:20:44.18	10.89	13.42	-42.7	-45.4	18.3	0.00e+00	0	41	0	809500672	57	4783
2026-01-19 08:20:47.04	10.44	13.24	-42.0	-44.5	19.1	0.00e+00	0	41	0	814743552	56	4586
2026-01-19 08:20:50.19	9.95	13.05	-42.0	-44.6	18.9	0.00e+00	0	41	0	821035008	55	4904
2026-01-19 08:20:53.05	9.51	12.87	-42.4	-45.1	18.4	0.00e+00	0	41	0	826277888	55	5192
2026-01-19 08:20:56.20	9.03	12.68	-42.9	-45.9	17.8	0.00e+00	0	41	0	831520768	56	5397
2026-01-19 08:20:59.06	8.60	12.50	-42.9	-46.1	17.7	0.00e+00	0	41	0	837812224	56	5478
2026-01-19 08:21:02.21	8.14	12.31	-42.6	-45.5	18.2	0.00e+00	0	41	0	843055104	56	5121
2026-01-19 08:21:05.07	7.72	12.13	-42.4	-45.1	18.5	0.00e+00	0	41	0	848297984	56	4907
2026-01-19 08:21:08.22	7.27	11.93	-42.4	-45.2	18.5	0.00e+00	0	41	0	854589440	56	4950
2026-01-19 08:21:11.08	6.86	11.75	-42.9	-45.8	17.9	0.00e+00	0	41	0	859832320	56	5335
2026-01-19 08:21:14.23	6.42	11.56	-43.2	-46.1	17.5	0.00e+00	0	41	0	866123776	57	5174
2026-01-19 08:21:17.09	6.03	11.38	-43.4	-46.4	17.3	0.00e+00	0	41	0	871366656	57	5376
2026-01-19 08:21:20.24	5.60	11.18	-43.4	-46.6	17.1	0.00e+00	0	41	0	876609536	57	5526
2026-01-19 08:21:23.10	5.21	11.01	-42.8	-45.6	18.0	0.00e+00	0	41	0	882900992	57	4910
2026-01-19 08:21:26.25	4.79	10.81	-42.3	-44.9	18.6	0.00e+00	0	41	0	888143872	56	4797
2026-01-19 08:21:29.11	4.42	10.63	-42.7	-45.4	18.2	0.00e+00	0	41	0	893386752	56	5097
2026-01-19 08:21:32.25	4.01	10.44	-43.5	-46.6	17.1	0.00e+00	0	41	0	899678208	57	5491
2026-01-19 08:21:35.10	3.65	10.26	-44.1	-47.2	16.5	0.00e+00	0	41	0	904921088	59	5233
2026-01-19 08:21:38.23	3.25	10.07	-44.1	-47.4	16.4	0.00e+00	0	41	0	911212544	59	5357
2026-01-19 08:21:41.08	2.90	9.89	-43.5	-47.0	16.7	0.00e+00	0	41	0	916455424	58	5436
2026-01-19 08:21:44.21	2.51	9.69	-43.6	-46.7	17.0	0.00e+00	0	41	0	921698304	58	5221
2026-01-19 08:21:47.06	2.17	9.52	-43.8	-46.9	16.8	0.00e+00	0	41	0	926941184	58	5376
2026-01-19 08:21:50.19	1.79	9.32	-43.6	-47.0	16.6	0.00e+00	0	41	0	933232640	58	5457
2026-01-19 08:21:53.05	1.45	9.15	-43.3	-47.0	16.7	0.00e+00	0	41	0	938475520	58	5412
2026-01-19 08:21:56.18	1.09	8.96	-48.9	-63.5	3.8	9.37e-02	0	41	104	944766976	68	20503
2026-01-19 08:21:59.03	0.76	8.78	-49.4	-65.5	3.8	1.49e+00	0	41	104	944766976	70	22910
2026-01-19 08:22:02.18	0.40	8.59	-50.3	-65.7	3.8	1.49e+00	0	41	104	944766976	71	22049
2026-01-19 08:22:05.03	0.08	8.41	-50.0	-65.7	3.8	1.49e+00	0	41	104	944766976	71	22246
2026-01-19 08:22:08.16	359.74	8.22	-50.2	-65.8	3.8	1.49e+00	0	41	104	944766976	71	22408
2026-01-19 08:22:11.02	359.42	8.05	-50.5	-65.8	3.8	1.49e+00	0	41	104	944766976	71	22402
2026-01-19 08:22:14.16	359.09	7.86	-50.4	-65.8	3.8	1.49e+00	0	41	104	944766976	71	22341
2026-01-19 08:22:17.01	358.78	7.68	-50.6	-65.8	3.8	1.49e+00	0	41	104	944766976	71	22329
2026-01-19 08:22:20.15	358.45	7.49	-50.5	-65.8	3.8	1.49e+00	0	41	104	944766976	71	22421
2026-01-19 08:22:23.00	358.16	7.32	-50.4	-65.8	3.8	1.49e+00	0	41	104	944766976	71	22394
2026-01-19 08:22:26.14	357.83	7.13	-50.2	-65.8	3.8	1.49e+00	0	41	104	944766976	71	22319
2026-01-19 08:22:28.99	357.55	6.96	-50.2	-65.7	3.8	1.49e+00	0	41	104	944766976	71	22179
2026-01-19 08:22:32.13	357.23	6.77	-50.2	-65.8	3.8	1.49e+00	0	41	104	944766976	71	22285
2026-01-19 08:22:34.98	356.95	6.60	-50.2	-65.7	3.8	1.49e+00	0	41	104	944766976	71	22206
2026-01-19 08:22:38.10	356.65	6.42	-50.2	-65.7	3.8	1.49e+00	0	41	104	944766976	71	22252
2026-01-19 08:22:40.95	356.37	6.25	-50.2	-65.7	3.8	1.49e+00	0	41	104	944766976	71	22260
2026-01-19 08:22:44.07	356.08	6.06	-50.2	-65.7	3.8	1.49e+00	0	41	104	944766976	71	22171
2026-01-19 08:22:46.91	355.81	5.90	-50.1	-65.7	3.8	1.49e+00	0	41	104	94476
