passes_logs/2026/01/19/T1/T1__20260119_222203_NOAA_20_JPSS-1_rec.log

#Pass ID: 20260119_222203_NOAA 20 (JPSS-1)
#Satellite: NOAA 20 (JPSS-1)
#Configuration: NOAA 20
#almurnet v.1.7.20251203
#Start time: 2026-01-19 22:22:04

#Version: 2.0.20230620
#Station: T1
#Location: 37.570604 lon 55.790049 lat
#TLE: 1 43013U 17073A   26019.27717929  .00000087  00000+0  62288-4 0  9995
#TLE: 2 43013  98.7641 320.1715 0001339  33.1986 326.9274 14.19537047423343

#Time	Az	El	Level	Level2	SNR	BER	BlckErr	Temp	State	Recorded	gain1	gain2
2026-01-19 22:22:04.19	27.44	5.03	-49.8	-65.4	3.8	1.49e+00	0	41	0	0	71	21410
2026-01-19 22:22:07.29	27.68	5.22	-49.8	-65.4	3.8	1.49e+00	0	41	104	0	70	22672
2026-01-19 22:22:10.56	27.94	5.42	-49.8	-65.4	3.8	1.49e+00	0	41	104	0	70	22665
2026-01-19 22:22:13.25	28.15	5.59	-49.8	-65.4	3.8	1.49e+00	0	41	104	0	70	22602
2026-01-19 22:22:16.63	28.42	5.80	-49.8	-65.3	3.8	1.49e+00	0	41	104	0	70	22482
2026-01-19 22:22:19.37	28.64	5.97	-49.8	-65.3	3.8	1.49e+00	0	42	104	0	70	22411
2026-01-19 22:22:22.78	28.92	6.18	-49.8	-65.3	3.8	1.49e+00	0	42	104	0	70	22440
2026-01-19 22:22:25.54	29.15	6.36	-49.8	-65.3	3.8	1.49e+00	0	42	104	0	70	22515
2026-01-19 22:22:28.82	29.43	6.57	-49.8	-65.4	3.8	1.49e+00	0	42	104	0	70	22527
2026-01-19 22:22:31.53	29.66	6.74	-49.8	-65.3	3.8	1.49e+00	0	42	104	0	70	22416
2026-01-19 22:22:34.79	29.94	6.95	-49.8	-65.3	3.8	1.49e+00	0	42	104	0	70	22303
2026-01-19 22:22:37.49	30.18	7.13	-49.8	-65.3	3.8	1.49e+00	0	42	104	0	70	22455
2026-01-19 22:22:40.75	30.47	7.34	-49.8	-65.2	3.8	1.49e+00	0	42	104	0	70	22094
2026-01-19 22:22:43.45	30.71	7.51	-49.7	-65.1	3.8	1.49e+00	0	42	104	0	70	21861
2026-01-19 22:22:46.84	31.01	7.74	-49.8	-65.3	3.8	1.49e+00	0	42	104	0	70	22325
2026-01-19 22:22:49.56	31.27	7.92	-49.7	-65.4	3.8	1.49e+00	0	42	104	0	70	22521
2026-01-19 22:22:52.82	31.57	8.13	-49.8	-65.3	3.8	1.49e+00	0	42	104	0	70	22462
2026-01-19 22:22:55.52	31.82	8.31	-49.8	-65.1	3.8	1.49e+00	0	43	104	0	70	21968
2026-01-19 22:22:58.80	32.14	8.53	-49.7	-64.6	3.8	1.49e+00	0	43	104	0	70	20686
2026-01-19 22:23:01.49	32.40	8.71	-49.6	-63.6	3.8	1.49e+00	0	43	104	0	70	18389
2026-01-19 22:23:04.76	32.72	8.93	-49.1	-58.1	6.1	4.98e-01	0	43	0	2097152	70	9784
2026-01-19 22:23:07.47	32.99	9.12	-49.3	-58.0	6.3	8.41e-02	0	43	0	7340032	69	10292
2026-01-19 22:23:10.74	33.32	9.34	-46.1	-49.8	14.2	4.21e-01	0	43	0	11534336	64	5291
2026-01-19 22:23:13.46	33.60	9.53	-45.3	-48.5	15.8	0.00e+00	0	43	0	16777216	62	5108
2026-01-19 22:23:16.74	33.94	9.76	-45.1	-48.2	16.0	0.00e+00	0	43	0	23068672	62	4971
2026-01-19 22:23:19.67	34.24	9.96	-45.0	-47.9	16.2	0.00e+00	0	43	0	28311552	61	5099
2026-01-19 22:23:22.94	34.59	10.19	-44.9	-47.9	16.2	0.00e+00	0	43	0	34603008	61	5095
2026-01-19 22:23:25.66	34.89	10.38	-44.9	-47.9	16.3	0.00e+00	0	43	0	39845888	61	5094
2026-01-19 22:23:29.02	35.25	10.61	-44.7	-47.7	16.6	0.00e+00	0	43	0	46137344	61	4934
2026-01-19 22:23:31.73	35.56	10.81	-44.8	-47.8	16.4	0.00e+00	0	43	0	50331648	61	5007
2026-01-19 22:23:35.21	35.95	11.05	-44.6	-47.6	16.7	0.00e+00	0	43	0	57671680	61	4899
2026-01-19 22:23:37.97	36.26	11.25	-44.5	-47.4	16.8	0.00e+00	0	43	0	62914560	61	4784
2026-01-19 22:23:41.27	36.65	11.49	-44.4	-47.2	17.1	0.00e+00	0	43	0	68157440	60	4944
2026-01-19 22:23:44.00	36.97	11.68	-44.4	-47.1	17.1	0.00e+00	0	43	0	73400320	60	4917
2026-01-19 22:23:47.63	37.40	11.95	-44.3	-47.0	17.3	0.00e+00	0	43	0	80740352	60	4856
2026-01-19 22:23:50.54	37.75	12.16	-44.3	-47.1	17.2	0.00e+00	0	43	0	85983232	60	4882
2026-01-19 22:23:54.52	38.24	12.45	-44.1	-46.7	17.6	0.00e+00	0	43	0	93323264	60	4686
2026-01-19 22:23:57.34	38.60	12.66	-44.0	-46.7	17.6	0.00e+00	0	43	0	98566144	60	4658
2026-01-19 22:24:01.30	39.10	12.95	-44.2	-46.8	17.4	0.00e+00	0	43	0	105906176	60	4749
2026-01-19 22:24:04.14	39.47	13.16	-44.3	-47.0	17.3	0.00e+00	0	43	0	111149056	60	4816
2026-01-19 22:24:08.12	39.99	13.46	-44.4	-47.1	17.2	0.00e+00	0	43	0	118489088	60	4909
2026-01-19 22:24:11.04	40.38	13.68	-44.4	-47.1	17.3	0.00e+00	0	43	0	124780544	60	4886
2026-01-19 22:24:14.83	40.90	13.96	-44.1	-46.7	17.6	0.00e+00	0	43	0	131072000	60	4662
2026-01-19 22:24:17.64	41.29	14.17	-44.0	-46.6	17.7	0.00e+00	0	43	0	136314880	60	4622
2026-01-19 22:24:21.05	41.77	14.43	-44.0	-46.5	17.7	0.00e+00	0	43	0	143654912	59	4830
2026-01-19 22:24:23.89	42.17	14.65	-43.9	-46.4	17.8	0.00e+00	0	43	0	148897792	59	4798
2026-01-19 22:24:27.02	42.63	14.89	-43.9	-46.4	17.9	0.00e+00	0	43	0	154140672	59	4777
2026-01-19 22:24:29.95	43.06	15.11	-43.9	-46.4	17.9	0.00e+00	0	43	0	160432128	59	4775
2026-01-19 22:24:33.07	43.52	15.35	-43.8	-46.3	18.0	0.00e+00	0	43	0	165675008	59	4756
2026-01-19 22:24:36.01	43.97	15.57	-43.8	-46.3	18.0	0.00e+00	0	44	0	170917888	59	4722
2026-01-19 22:24:38.99	44.43	15.80	-43.5	-46.0	18.3	0.00e+00	0	43	0	177209344	59	4567
2026-01-19 22:24:41.98	44.89	16.03	-43.5	-45.9	18.4	0.00e+00	0	43	0	182452224	58	4809
2026-01-19 22:24:44.99	45.37	16.27	-43.5	-45.9	18.4	0.00e+00	0	43	0	187695104	58	4812
2026-01-19 22:24:47.98	45.85	16.50	-43.6	-46.0	18.2	0.00e+00	0	43	0	193986560	58	4861
2026-01-19 22:24:50.96	46.34	16.73	-43.7	-46.1	18.2	0.00e+00	0	43	0	199229440	58	4917
2026-01-19 22:24:53.94	46.83	16.96	-43.9	-46.4	18.0	0.00e+00	0	43	0	204472320	58	5062
2026-01-19 22:24:56.92	47.33	17.19	-43.9	-46.4	18.0	0.00e+00	0	43	0	210763776	58	5047
2026-01-19 22:24:59.97	47.85	17.43	-44.0	-46.5	17.8	0.00e+00	0	43	0	216006656	58	5137
2026-01-19 22:25:02.92	48.36	17.66	-43.9	-46.4	17.9	0.00e+00	0	43	0	221249536	58	5097
2026-01-19 22:25:05.90	48.89	17.89	-43.7	-46.1	18.3	0.00e+00	0	43	0	227540992	58	4890
2026-01-19 22:25:08.89	49.42	18.12	-43.5	-45.8	18.5	0.00e+00	0	43	0	232783872	58	4754
2026-01-19 22:25:11.87	49.96	18.35	-43.4	-45.8	18.5	0.00e+00	0	43	0	238026752	58	4728
2026-01-19 22:25:14.85	50.51	18.58	-43.1	-45.5	18.8	0.00e+00	0	43	0	244318208	58	4549
2026-01-19 22:25:17.85	51.07	18.81	-42.9	-45.1	19.1	0.00e+00	0	43	0	249561088	57	4634
2026-01-19 22:25:20.95	51.66	19.05	-42.7	-44.9	19.3	0.00e+00	0	43	0	255852544	57	4530
2026-01-19 22:25:23.88	52.22	19.28	-42.7	-45.0	19.2	0.00e+00	0	44	0	261095424	57	4572
2026-01-19 22:25:26.87	52.81	19.51	-42.7	-44.9	19.4	0.00e+00	0	44	0	266338304	57	4520
2026-01-19 22:25:29.85	53.40	19.74	-42.5	-44.7	19.5	0.00e+00	0	44	0	272629760	56	4704
2026-01-19 22:25:32.84	54.00	19.96	-42.6	-44.8	19.4	0.00e+00	0	44	0	277872640	56	4759
2026-01-19 22:25:35.85	54.61	20.19	-42.8	-45.1	19.2	0.00e+00	0	44	0	283115520	56	4876
2026-01-19 22:25:38.92	55.25	20.42	-42.8	-45.0	19.2	0.00e+00	0	44	0	289406976	56	4860
2026-01-19 22:25:41.82	55.85	20.64	-42.8	-45.1	19.2	0.00e+00	0	44	0	294649856	56	4896
2026-01-19 22:25:44.81	56.49	20.86	-42.8	-45.1	19.2	0.00e+00	0	44	0	299892736	56	4885
2026-01-19 22:25:47.80	57.14	21.08	-42.9	-45.2	19.1	0.00e+00	0	43	0	306184192	56	4958
2026-01-19 22:25:50.84	57.80	21.31	-42.9	-45.1	19.2	0.00e+00	0	44	0	311427072	56	4920
2026-01-19 22:25:53.76	58.45	21.52	-43.1	-45.4	18.9	0.00e+00	0	44	0	316669952	56	5089
2026-01-19 22:25:56.75	59.12	21.73	-43.4	-45.8	18.6	0.00e+00	0	44	0	322961408	57	5007
2026-01-19 22:25:59.73	59.80	21.95	-43.5	-45.9	18.5	0.00e+00	0	44	0	328204288	57	5059
2026-01-19 22:26:02.72	60.50	22.16	-43.4	-45.8	18.6	0.00e+00	0	44	0	333447168	57	5027
2026-01-19 22:26:05.70	61.19	22.36	-43.4	-45.8	18.6	0.00e+00	0	43	0	339738624	57	4994
2026-01-19 22:26:08.97	61.97	22.59	-43.5	-46.0	18.5	0.00e+00	0	44	0	346030080	57	5117
2026-01-19 22:26:12.15	62.74	22.80	-43.3	-45.7	18.7	0.00e+00	0	44	0	351272960	57	4929
2026-01-19 22:26:15.45	63.54	23.02	-43.3	-45.6	18.7	0.00e+00	0	44	0	357564416	57	4911
2026-01-19 22:26:18.16	64.21	23.20	-43.6	-46.0	18.4	0.00e+00	0	44	0	362807296	57	5115
2026-01-19 22:26:21.53	65.06	23.42	-44.0	-46.5	17.9	0.00e+00	0	44	0	369098752	58	5158
2026-01-19 22:26:24.23	65.74	23.59	-44.3	-46.8	17.6	0.00e+00	0	44	0	374341632	59	5032
2026-01-19 22:26:27.50	66.58	23.79	-44.5	-47.1	17.4	0.00e+00	0	44	0	380633088	59	5197
2026-01-19 22:26:30.21	67.28	23.95	-44.5	-47.2	17.3	0.00e+00	0	44	0	385875968	59	5253
2026-01-19 22:26:33.49	68.14	24.15	-45.0	-47.8	16.8	0.00e+00	0	44	0	391118848	60	5282
2026-01-19 22:26:36.19	68.86	24.30	-45.2	-48.1	16.5	0.00e+00	0	44	0	396361728	61	5170
2026-01-19 22:26:39.49	69.74	24.49	-44.7	-47.4	17.2	0.00e+00	0	43	0	402653184	61	4763
2026-01-19 22:26:42.20	70.48	24.64	-44.5	-47.2	17.3	0.00e+00	0	44	0	407896064	61	4672
2026-01-19 22:26:45.63	71.42	24.82	-45.6	-48.7	15.9	0.00e+00	0	44	0	414187520	61	5539
2026-01-19 22:26:48.69	72.26	24.97	-46.0	-49.2	15.4	0.00e+00	0	44	0	420478976	62	5556
2026-01-19 22:26:51.97	73.18	25.13	-45.4	-48.3	16.3	0.00e+00	0	43	0	425721856	62	5018
2026-01-19 22:26:54.67	73.94	25.26	-45.3	-48.3	16.3	0.00e+00	0	43	0	430964736	62	5014
2026-01-19 22:26:58.03	74.89	25.41	-45.6	-48.6	15.9	0.00e+00	0	44	0	437256192	62	5218
2026-01-19 22:27:01.06	75.76	25.54	-45.6	-48.7	15.8	0.00e+00	0	44	0	443547648	62	5266
2026-01-19 22:27:04.71	76.82	25.69	-45.2	-48.2	16.4	0.00e+00	0	44	0	449839104	62	4947
2026-01-19 22:27:07.54	77.65	25.80	-45.4	-48.4	16.2	0.00e+00	0	44	0	455081984	62	5073
2026-01-19 22:27:11.50	78.81	25.94	-44.8	-47.6	16.9	0.00e+00	0	44	0	462422016	61	4905
2026-01-19 22:27:14.44	79.68	26.04	-44.2	-46.8	17.6	0.00e+00	0	44	0	468713472	60	4756
2026-01-19 22:27:18.42	80.87	26.16	-44.5	-47.2	17.4	0.00e+00	0	44	0	476053504	60	4949
2026-01-19 22:27:21.26	81.72	26.24	-44.6	-47.4	17.2	0.00e+00	0	44	0	481296384	60	5053
2026-01-19 22:27:25.42	82.98	26.35	-44.9	-47.9	16.7	0.00e+00	0	44	0	488636416	60	5366
2026-01-19 22:27:28.26	83.84	26.41	-45.0	-48.0	16.6	0.00e+00	0	44	0	493879296	60	5433
2026-01-19 22:27:32.24	85.05	26.49	-44.6	-47.5	17.1	0.00e+00	0	43	0	501219328	60	5127
2026-01-19 22:27:35.08	85.92	26.54	-44.3	-47.0	17.6	0.00e+00	0	43	0	507510784	60	4822
2026-01-19 22:27:38.95	87.11	26.59	-44.2	-46.9	17.6	0.00e+00	0	44	0	514850816	60	4789
2026-01-19 22:27:41.92	88.03	26.62	-44.3	-47.0	17.6	0.00e+00	0	44	0	520093696	60	4834
2026-01-19 22:27:45.14	89.02	26.65	-43.9	-46.4	18.0	0.00e+00	0	44	0	526385152	59	4803
2026-01-19 22:27:48.30	90.00	26.67	-43.5	-46.0	18.5	0.00e+00	0	44	0	531628032	58	4830
2026-01-19 22:27:51.20	90.90	26.68	-44.1	-46.6	17.9	0.00e+00	0	44	0	536870912	58	5201
2026-01-19 22:27:54.47	91.91	26.68	-44.2	-46.8	17.6	0.00e+00	0	44	0	543162368	59	5028
2026-01-19 22:27:57.38	92.81	26.67	-43.9	-46.4	18.1	0.00e+00	0	44	0	548405248	59	4801
2026-01-19 22:28:00.61	93.81	26.65	-44.8	-47.6	17.0	0.00e+00	0	44	0	554696704	60	5182
2026-01-19 22:28:03.53	94.71	26.63	-45.4	-48.4	16.1	0.00e+00	0	44	0	559939584	61	5386
2026-01-19 22:28:06.66	95.67	26.59	-45.0	-47.9	16.7	0.00e+00	0	44	0	566231040	61	5053
2026-01-19 22:28:09.63	96.59	26.55	-44.2	-46.8	17.7	0.00e+00	0	44	0	571473920	60	4727
2026-01-19 22:28:13.00	97.62	26.50	-44.5	-47.1	17.4	0.00e+00	0	44	0	577765376	60	4911
2026-01-19 22:28:15.69	98.44	26.45	-44.5	-47.1	17.4	0.00e+00	0	44	0	583008256	60	4909
2026-01-19 22:28:19.44	99.58	26.37	-44.0	-46.5	17.9	0.00e+00	0	44	0	590348288	59	4846
2026-01-19 22:28:22.21	100.42	26.30	-44.1	-46.7	17.7	0.00e+00	0	44	0	595591168	59	4945
2026-01-19 22:28:25.54	101.43	26.22	-44.3	-46.9	17.5	0.00e+00	0	44	0	601882624	59	5088
2026-01-19 22:28:28.32	102.26	26.13	-44.3	-46.9	17.6	0.00e+00	0	44	0	607125504	59	5074
2026-01-19 22:28:31.63	103.25	26.03	-44.0	-46.5	17.9	0.00e+00	0	44	0	613416960	59	4866
2026-01-19 22:28:34.46	104.09	25.94	-44.0	-46.5	17.9	0.00e+00	0	44	0	618659840	59	4829
2026-01-19 22:28:37.85	105.09	25.81	-43.6	-46.0	18.4	0.00e+00	0	44	0	624951296	59	4584
2026-01-19 22:28:40.56	105.88	25.71	-43.6	-46.0	18.4	0.00e+00	0	44	0	630194176	58	4844
2026-01-19 22:28:43.83	106.83	25.58	-43.3	-45.6	18.8	0.00e+00	0	44	0	635437056	58	4635
2026-01-19 22:28:46.55	107.62	25.46	-43.4	-45.8	18.6	0.00e+00	0	44	0	640679936	58	4736
2026-01-19 22:28:49.83	108.56	25.32	-43.3	-45.6	18.8	0.00e+00	0	44	0	646971392	58	4632
2026-01-19 22:28:52.58	109.34	25.19	-43.0	-45.3	19.0	0.00e+00	0	44	0	652214272	58	4484
2026-01-19 22:28:55.86	110.26	25.03	-43.7	-46.1	18.3	0.00e+00	0	44	0	658505728	58	4908
2026-01-19 22:28:58.58	111.02	24.89	-43.8	-46.2	18.2	0.00e+00	0	44	0	663748608	58	4983
2026-01-19 22:29:01.85	111.92	24.72	-42.9	-45.2	19.2	0.00e+00	0	44	0	670040064	57	4657
2026-01-19 22:29:04.57	112.66	24.58	-43.0	-45.3	19.1	0.00e+00	0	44	0	675282944	57	4709
2026-01-19 22:29:07.85	113.55	24.39	-43.5	-45.9	18.5	0.00e+00	0	44	0	680525824	57	5057
2026-01-19 22:29:10.57	114.28	24.24	-43.9	-46.4	18.1	0.00e+00	0	44	0	685768704	58	5057
2026-01-19 22:29:13.85	115.15	24.05	-43.9	-46.4	18.0	0.00e+00	0	44	0	692060160	58	5088
2026-01-19 22:29:16.58	115.86	23.88	-43.5	-45.9	18.6	0.00e+00	0	44	0	697303040	58	4762
2026-01-19 22:29:20.03	116.76	23.67	-43.8	-46.2	18.2	0.00e+00	0	44	0	703594496	58	4974
2026-01-19 22:29:22.75	117.45	23.50	-44.0	-46.5	18.0	0.00e+00	0	44	0	708837376	58	5116
2026-01-19 22:29:26.13	118.31	23.28	-43.9	-46.4	18.0	0.00e+00	0	44	0	715128832	58	5086
2026-01-19 22:29:29.21	119.08	23.08	-43.7	-46.1	18.3	0.00e+00	0	43	0	721420288	58	4916
2026-01-19 22:29:32.33	119.84	22.87	-43.7	-46.1	18.3	0.00e+00	0	44	0	726663168	58	4908
2026-01-19 22:29:35.17	120.53	22.68	-43.7	-46.1	18.3	0.00e+00	0	44	0	731906048	58	4902
2026-01-19 22:29:38.39	121.31	22.46	-43.9	-46.4	18.0	0.00e+00	0	44	0	738197504	58	5053
2026-01-19 22:29:41.23	121.98	22.26	-43.8	-46.3	18.2	0.00e+00	0	44	0	743440384	58	4987
2026-01-19 22:29:44.47	122.74	22.03	-43.7	-46.1	18.3	0.00e+00	0	44	0	749731840	58	4892
2026-01-19 22:29:47.34	123.40	21.83	-43.9	-46.4	18.0	0.00e+00	0	44	0	754974720	58	5083
2026-01-19 22:29:50.69	124.16	21.58	-43.7	-46.2	18.2	0.00e+00	0	44	0	761266176	58	4950
2026-01-19 22:29:53.40	124.77	21.39	-44.2	-46.9	17.5	0.00e+00	0	44	0	766509056	59	5050
2026-01-19 22:29:56.67	125.49	21.15	-45.2	-48.2	16.3	0.00e+00	0	44	0	772800512	61	5272
2026-01-19 22:29:59.53	126.12	20.93	-44.4	-47.3	17.2	0.00e+00	0	44	0	778043392	60	4989
2026-01-19 22:30:02.78	126.82	20.69	-44.7	-47.6	16.9	0.00e+00	0	44	0	784334848	60	5172
2026-01-19 22:30:05.98	127.49	20.45	-44.9	-47.7	16.8	0.00e+00	0	44	0	789577728	60	5266
2026-01-19 22:30:08.82	128.09	20.23	-44.2	-46.8	17.7	0.00e+00	0	44	0	794820608	60	4733
2026-01-19 22:30:11.94	128.73	20.00	-44.8	-47.5	16.9	0.00e+00	0	44	0	801112064	60	5145
2026-01-19 22:30:14.78	129.30	19.78	-44.4	-47.1	17.4	0.00e+00	0	44	0	806354944	60	4893
2026-01-19 22:30:18.09	129.96	19.52	-44.0	-46.5	17.9	0.00e+00	0	44	0	812646400	59	4856
2026-01-19 22:30:20.79	130.50	19.32	-44.9	-47.8	16.6	0.00e+00	0	43	0	817889280	60	5321
2026-01-19 22:30:24.10	131.14	19.06	-44.5	-47.3	17.2	0.00e+00	0	44	0	824180736	60	5002
2026-01-19 22:30:26.93	131.68	18.84	-44.0	-46.5	17.9	0.00e+00	0	44	0	829423616	59	4833
2026-01-19 22:30:30.05	132.27	18.60	-44.7	-47.5	16.9	0.00e+00	0	44	0	834666496	60	5150
2026-01-19 22:30:32.90	132.79	18.37	-44.8	-47.7	16.7	0.00e+00	0	44	0	840957952	60	5264
2026-01-19 22:30:36.02	133.36	18.13	-44.2	-46.8	17.6	0.00e+00	0	44	0	846200832	60	4712
2026-01-19 22:30:38.87	133.88	17.91	-44.2	-46.8	17.6	0.00e+00	0	44	0	851443712	60	4717
2026-01-19 22:30:42.19	134.46	17.65	-44.2	-46.9	17.5	0.00e+00	0	44	0	857735168	60	4765
2026-01-19 22:30:44.94	134.94	17.43	-44.0	-46.6	17.8	0.00e+00	0	44	0	862978048	60	4607
2026-01-19 22:30:48.50	135.56	17.15	-44.2	-46.8	17.5	0.00e+00	0	44	0	869269504	59	5028
2026-01-19 22:30:51.20	136.01	16.94	-44.3	-46.9	17.4	0.00e+00	0	44	0	874512384	59	5071
2026-01-19 22:30:54.48	136.56	16.69	-44.2	-46.8	17.5	0.00e+00	0	44	0	880803840	59	5010
2026-01-19 22:30:57.20	137.00	16.47	-43.8	-46.3	18.0	0.00e+00	0	44	0	886046720	59	4740
2026-01-19 22:31:00.47	137.53	16.22	-43.9	-46.5	17.7	0.00e+00	0	44	0	892338176	59	4857
2026-01-19 22:31:03.18	137.96	16.01	-44.0	-46.5	17.8	0.00e+00	0	44	0	897581056	59	4862
2026-01-19 22:31:06.54	138.49	15.74	-43.7	-46.2	18.1	0.00e+00	0	44	0	903872512	59	4688
2026-01-19 22:31:09.26	138.91	15.53	-43.6	-46.0	18.2	0.00e+00	0	44	0	909115392	59	4594
2026-01-19 22:31:12.80	139.45	15.26	-43.8	-46.3	17.9	0.00e+00	0	44	0	915406848	59	4758
2026-01-19 22:31:15.51	139.85	15.05	-44.1	-46.7	17.6	0.00e+00	0	44	0	920649728	59	4942
2026-01-19 22:31:18.79	140.34	14.80	-44.4	-47.1	17.1	0.00e+00	0	44	0	926941184	59	5217
2026-01-19 22:31:21.59	140.74	14.58	-44.3	-47.0	17.2	0.00e+00	0	44	0	932184064	59	5149
2026-01-19 22:31:24.93	141.22	14.33	-44.2	-46.9	17.3	0.00e+00	0	44	0	938475520	59	5068
2026-01-19 22:31:27.80	141.62	14.11	-44.2	-46.9	17.3	0.00e+00	0	44	0	943718400	59	5076
2026-01-19 22:31:31.28	142.10	13.84	-44.1	-46.7	17.5	0.00e+00	0	44	0	950009856	59	4978
2026-01-19 22:31:33.99	142.47	13.64	-44.0	-46.6	17.6	0.00e+00	0	44	0	955252736	59	4922
2026-01-19 22:31:37.27	142.91	13.39	-44.3	-47.0	17.1	0.00e+00	0	44	0	961544192	59	5155
2026-01-19 22:31:39.99	143.27	13.18	-44.8	-47.6	16.7	0.00e+00	0	44	0	965738496	60	5191
2026-01-19 22:31:43.32	143.71	12.93	-45.2	-48.2	16.1	0.00e+00	0	44	0	972029952	60	5550
2026-01-19 22:31:46.05	144.06	12.73	-45.2	-48.3	15.9	0.00e+00	0	44	0	977272832	61	5324
2026-01-19 22:31:49.34	144.48	12.48	-45.1	-48.2	16.1	0.00e+00	0	44	0	983564288	61	5221
2026-01-19 22:31:52.05	144.81	12.28	-45.2	-48.3	16.0	0.00e+00	0	44	0	988807168	61	5320
2026-01-19 22:31:55.37	145.22	12.04	-45.2	-48.3	16.0	0.00e+00	0	44	0	995098624	61	5289
2026-01-19 22:31:58.08	145.55	11.84	-45.3	-48.6	15.7	0.00e+00	0	44	0	1000341504	61	5465
2026-01-19 22:32:01.36	145.94	11.60	-45.2	-48.6	15.7	0.00e+00	0	44	0	1006632960	61	5479
2026-01-19 22:32:04.08	146.26	11.40	-45.0	-48.2	16.0	0.00e+00	0	44	0	1011875840	61	5258
2026-01-19 22:32:07.84	146.70	11.13	-45.2	-48.5	15.8	0.00e+00	0	44	0	1018167296	61	5403
2026-01-19 22:32:10.68	147.02	10.92	-45.3	-48.5	15.7	0.00e+00	0	44	0	1023410176	61	5411
2026-01-19 22:32:14.66	147.47	10.64	-45.4	-48.6	15.5	0.00e+00	0	44	0	1031798784	61	5527
2026-01-19 22:32:17.50	147.78	10.44	-45.2	-48.5	15.7	0.00e+00	0	44	0	1037041664	61	5414
2026-01-19 22:32:21.15	148.18	10.18	-44.9	-47.9	16.2	0.00e+00	0	44	0	1043333120	61	5079
2026-01-19 22:32:23.98	148.48	9.98	-44.8	-47.7	16.4	1.83e-04	0	44	0	1048576000	61	4969
2026-01-19 22:32:27.11	148.81	9.76	-44.6	-47.4	16.6	0.00e+00	0	44	0	1054867456	61	4795
2026-01-19 22:32:30.14	149.13	9.55	-44.7	-47.6	16.5	0.00e+00	0	44	0	1060110336	61	4916
2026-01-19 22:32:33.06	149.43	9.34	-44.9	-48.1	16.0	0.00e+00	0	44	0	1065353216	61	5178
2026-01-19 22:32:36.05	149.73	9.14	-45.1	-48.2	15.8	0.00e+00	0	44	0	1071644672	61	5274
2026-01-19 22:32:39.03	150.03	8.93	-50.0	-64.2	3.8	1.72e-02	0	44	104	1076887552	70	19681
2026-01-19 22:32:42.01	150.32	8.73	-50.2	-65.8	3.8	1.49e+00	0	44	104	1076887552	71	22447
2026-01-19 22:32:44.99	150.61	8.52	-50.7	-65.9	3.8	1.49e+00	0	44	104	1076887552	72	21487
2026-01-19 22:32:47.97	150.90	8.32	-50.7	-66.0	3.8	1.49e+00	0	44	104	1076887552	72	21636
2026-01-19 22:32:50.95	151.18	8.12	-50.7	-66.1	3.8	1.49e+00	0	44	104	1076887552	72	21848
2026-01-19 22:32:53.93	151.46	7.92	-50.9	-66.1	3.8	1.49e+00	0	44	104	1076887552	72	21987
2026-01-19 22:32:56.91	151.74	7.72	-50.8	-66.2	3.8	1.49e+00	0	44	104	1076887552	72	22029
2026-01-19 22:32:59.89	152.01	7.52	-50.8	-66.1	3.8	1.49e+00	0	44	104	1076887552	72	21934
2026-01-19 22:33:02.87	152.28	7.33	-50.5	-66.1	3.8	1.49e+00	0	44	104	1076887552	72	21797
2026-01-19 22:33:05.85	152.54	7.13	-50.5	-66.0	3.8	1.49e+00	0	44	104	1076887552	72	21754
2026-01-19 22:33:08.83	152.80	6.93	-50.5	-66.0	3.8	1.49e+00	0	44	104	1076887552	72	21702
2026-01-19 22:33:11.81	153.06	6.74	-50.5	-66.1	3.8	1.49e+00	0	44	104	1076887552	72	21809
2026-01-19 22:33:14.79	153.31	6.55	-50.5	-66.0	3.8	1.49e+00	0	44	104	1076887552	72	21747
2026-01-19 22:33:17.77	153.57	6.36	-50.5	-66.0	3.8	1.49e+00	0	44	104	1076887552	72	21702
2026-01-19 22:33:20.75	153.81	6.16	-50.5	-66.1	3.8	1.49e+00	0	44	104	1076887552	72	21765
2026-01-19 22:33:23.73	154.06	5.97	-50.5	-66.0	3.8	1.49e+00	0	44	104	1076887552	72	21718
2026-01-19 22:33:26.71	154.30	5.78	-50.5	-66.0	3.8	1.49e+00	0	44	104	1076887552	72	21669
2026-01-19 22:33:29.69	154.54	5.60	-50.5	-66.0	3.8	1.49e+00	0	44	104	1076887552	72	21724
2026-01-19 22:33:32.67	154.78	5.41	-50.5	-66.0	3.8	1.49e+00	0	44	104	1076887552	72	21644
2026-01-19 22:33:35.65	155.01	5.22	-50.5	-66.0	3.8	1.49e+00	0	44	104	1076887552	72	21700
2026-01-19 22:33:38.64	155.24	5.04	-50.5	-66.0	3.8	1.49e+00	0	44	104	1076887552	72	21645

#Closed at: 2026-01-19 22:33:40
#Recorded file [1076 MB]: D:/Data/31040_260120_012204.dat