passes_logs/2026/01/19/T1/T1__20260119_101128_NOAA_20_JPSS-1_rec.log

#Pass ID: 20260119_101128_NOAA 20 (JPSS-1)
#Satellite: NOAA 20 (JPSS-1)
#Configuration: NOAA 20
#almurnet v.1.7.20251203
#Start time: 2026-01-19 10:11:28

#Version: 2.0.20230620
#Station: T1
#Location: 37.570604 lon 55.790049 lat
#TLE: 1 43013U 17073A   26018.92475364  .00000071  00000+0  54435-4 0  9998
#TLE: 2 43013  98.7641 319.8227 0001354  33.6678 326.4584 14.19536868423299

#Time	Az	El	Level	Level2	SNR	BER	BlckErr	Temp	State	Recorded	gain1	gain2
2026-01-19 10:11:28.16	168.47	4.97	-50.0	-65.4	3.8	1.49e+00	0	39	0	0	71	21441
2026-01-19 10:11:32.12	168.53	5.25	-46.4	-64.7	3.8	1.49e+00	0	39	104	0	63	31362
2026-01-19 10:11:36.10	168.60	5.54	-46.6	-64.9	3.8	1.49e+00	0	40	104	0	63	32175
2026-01-19 10:11:40.07	168.66	5.83	-46.6	-64.9	3.8	1.49e+00	0	40	104	0	64	30109
2026-01-19 10:11:44.04	168.73	6.12	-46.5	-64.3	3.8	1.49e+00	0	40	104	0	64	28155
2026-01-19 10:11:48.01	168.80	6.42	-46.4	-64.2	3.8	1.49e+00	0	40	104	0	64	27739
2026-01-19 10:11:51.98	168.87	6.72	-46.4	-64.7	3.8	1.49e+00	0	40	104	0	64	29601
2026-01-19 10:11:55.95	168.94	7.03	-46.3	-65.0	3.8	1.49e+00	0	40	104	0	64	30416
2026-01-19 10:11:59.92	169.01	7.34	-46.5	-64.4	3.8	1.49e+00	0	41	104	0	64	28582
2026-01-19 10:12:03.90	169.09	7.65	-46.3	-60.4	4.5	1.36e+00	0	41	0	0	64	17995
2026-01-19 10:12:07.87	169.16	7.97	-45.9	-56.6	7.1	2.05e-01	0	41	0	7340032	63	12251
2026-01-19 10:12:11.84	169.24	8.29	-45.8	-55.6	8.1	5.72e-02	0	41	0	14680064	63	10936
2026-01-19 10:12:15.81	169.32	8.61	-46.1	-57.9	6.0	2.90e-01	0	41	0	23068672	63	14318
2026-01-19 10:12:19.78	169.40	8.94	-46.4	-63.0	3.8	1.49e+00	0	41	104	27262976	63	25753
2026-01-19 10:12:23.75	169.48	9.27	-46.9	-61.5	3.9	1.49e+00	0	41	104	27262976	64	20523
2026-01-19 10:12:27.72	169.56	9.61	-45.6	-51.6	12.5	1.79e-04	0	41	0	30408704	62	7305
2026-01-19 10:12:31.69	169.64	9.95	-44.7	-49.5	14.4	0.00e+00	0	41	0	37748736	61	6071
2026-01-19 10:12:35.66	169.73	10.30	-44.5	-48.9	15.1	7.00e-07	0	41	0	45088768	60	6012
2026-01-19 10:12:39.63	169.82	10.65	-44.1	-48.0	15.9	0.00e+00	0	41	0	52428800	60	5464
2026-01-19 10:12:43.60	169.91	11.00	-43.8	-47.3	16.6	0.00e+00	0	41	0	59768832	59	5288
2026-01-19 10:12:47.58	170.00	11.37	-43.8	-47.1	16.8	0.00e+00	0	42	0	67108864	59	5164
2026-01-19 10:12:51.55	170.09	11.73	-43.9	-46.9	17.1	0.00e+00	0	41	0	74448896	59	5054
2026-01-19 10:12:55.52	170.19	12.11	-44.0	-46.9	17.0	0.00e+00	0	41	0	82837504	59	5070
2026-01-19 10:12:59.49	170.29	12.48	-43.8	-46.6	17.4	0.00e+00	0	42	0	90177536	59	4892
2026-01-19 10:13:03.46	170.39	12.87	-43.8	-46.5	17.4	0.00e+00	0	41	0	97517568	59	4850
2026-01-19 10:13:07.43	170.49	13.26	-43.8	-46.5	17.5	0.00e+00	0	42	0	104857600	59	4818
2026-01-19 10:13:11.40	170.59	13.66	-43.7	-46.3	17.6	0.00e+00	0	42	0	112197632	59	4757
2026-01-19 10:13:15.38	170.70	14.06	-43.7	-46.4	17.6	0.00e+00	0	42	0	119537664	59	4796
2026-01-19 10:13:19.35	170.81	14.47	-43.6	-46.3	17.6	0.00e+00	0	42	0	126877696	59	4750
2026-01-19 10:13:23.32	170.92	14.89	-43.6	-46.3	17.7	0.00e+00	0	42	0	134217728	59	4710
2026-01-19 10:13:27.29	171.04	15.31	-43.6	-46.3	17.7	0.00e+00	0	42	0	141557760	59	4712
2026-01-19 10:13:31.26	171.16	15.74	-43.5	-46.1	17.9	0.00e+00	0	42	0	149946368	58	4919
2026-01-19 10:13:35.23	171.28	16.18	-43.5	-46.2	17.9	0.00e+00	0	42	0	157286400	58	4928
2026-01-19 10:13:39.20	171.41	16.63	-43.6	-46.2	17.9	0.00e+00	0	42	0	164626432	58	4929
2026-01-19 10:13:43.18	171.53	17.09	-43.7	-46.3	17.8	0.00e+00	0	42	0	171966464	58	4994
2026-01-19 10:13:47.15	171.67	17.55	-43.6	-46.2	17.9	0.00e+00	0	42	0	179306496	58	4960
2026-01-19 10:13:51.12	171.80	18.02	-43.8	-46.4	17.6	0.00e+00	0	42	0	186646528	58	5076
2026-01-19 10:13:55.09	171.94	18.50	-43.8	-46.5	17.6	0.00e+00	0	42	0	193986560	58	5137
2026-01-19 10:13:59.06	172.09	19.00	-43.9	-46.5	17.6	0.00e+00	0	42	0	201326592	58	5133
2026-01-19 10:14:03.03	172.24	19.50	-44.0	-46.6	17.5	0.00e+00	0	42	0	208666624	58	5218
2026-01-19 10:14:07.00	172.39	20.01	-44.1	-46.8	17.3	0.00e+00	0	42	0	216006656	58	5334
2026-01-19 10:14:10.97	172.55	20.53	-44.2	-46.9	17.2	0.00e+00	0	42	0	224395264	59	5086
2026-01-19 10:14:14.95	172.71	21.06	-44.1	-46.9	17.2	0.00e+00	0	42	0	231735296	59	5088
2026-01-19 10:14:18.92	172.88	21.61	-44.3	-47.2	16.9	0.00e+00	0	42	0	239075328	59	5267
2026-01-19 10:14:22.89	173.05	22.16	-44.5	-47.4	16.7	0.00e+00	0	42	0	246415360	59	5375
2026-01-19 10:14:26.86	173.23	22.73	-44.5	-47.4	16.8	0.00e+00	0	42	0	253755392	59	5349
2026-01-19 10:14:30.83	173.42	23.31	-44.6	-47.4	16.8	0.00e+00	0	42	0	261095424	59	5358
2026-01-19 10:14:34.80	173.61	23.91	-44.4	-47.2	17.0	0.00e+00	0	42	0	268435456	59	5251
2026-01-19 10:14:38.78	173.81	24.52	-44.2	-46.9	17.2	0.00e+00	0	42	0	275775488	59	5084
2026-01-19 10:14:42.75	174.02	25.14	-44.1	-46.7	17.4	0.00e+00	0	42	0	283115520	59	4968
2026-01-19 10:14:46.72	174.24	25.77	-43.9	-46.5	17.7	0.00e+00	0	42	0	290455552	59	4846
2026-01-19 10:14:50.69	174.46	26.42	-43.8	-46.4	17.7	0.00e+00	0	42	0	298844160	59	4808
2026-01-19 10:14:54.66	174.69	27.09	-43.9	-46.5	17.7	0.00e+00	0	42	0	306184192	59	4852
2026-01-19 10:14:58.63	174.93	27.77	-44.3	-47.0	17.2	0.00e+00	0	42	0	313524224	59	5156
2026-01-19 10:15:02.60	175.19	28.47	-44.8	-47.6	16.7	0.00e+00	0	42	0	320864256	60	5190
2026-01-19 10:15:06.58	175.45	29.19	-45.1	-48.1	16.2	0.00e+00	0	42	0	328204288	60	5500
2026-01-19 10:15:10.55	175.72	29.93	-45.2	-48.4	16.0	0.00e+00	0	42	0	335544320	61	5346
2026-01-19 10:15:14.52	176.01	30.68	-45.5	-48.7	15.6	0.00e+00	0	42	0	342884352	61	5558
2026-01-19 10:15:18.49	176.31	31.46	-45.7	-48.9	15.5	0.00e+00	0	42	0	350224384	62	5361
2026-01-19 10:15:22.46	176.62	32.25	-45.4	-48.6	15.7	0.00e+00	0	42	0	357564416	62	5216
2026-01-19 10:15:26.43	176.95	33.07	-45.0	-48.0	16.4	0.00e+00	0	42	0	364904448	61	5118
2026-01-19 10:15:30.40	177.30	33.90	-44.5	-47.2	17.1	0.00e+00	0	42	0	373293056	61	4676
2026-01-19 10:15:34.37	177.66	34.76	-44.0	-46.6	17.7	0.00e+00	0	42	0	380633088	59	4885
2026-01-19 10:15:38.35	178.05	35.64	-43.6	-46.1	18.1	0.00e+00	0	42	0	387973120	59	4631
2026-01-19 10:15:42.32	178.45	36.55	-43.8	-46.3	17.9	0.00e+00	0	42	0	395313152	59	4734
2026-01-19 10:15:46.29	178.88	37.48	-43.7	-46.2	18.1	0.00e+00	0	42	0	402653184	59	4652
2026-01-19 10:15:50.26	179.33	38.43	-44.1	-46.7	17.5	0.00e+00	0	42	0	409993216	59	4982
2026-01-19 10:15:54.23	179.80	39.41	-44.3	-47.0	17.4	0.00e+00	0	42	0	417333248	59	5105
2026-01-19 10:15:58.20	180.31	40.41	-44.4	-47.0	17.3	0.00e+00	0	42	0	424673280	59	5127
2026-01-19 10:16:02.18	180.85	41.45	-44.9	-47.8	16.6	0.00e+00	0	42	0	432013312	60	5281
2026-01-19 10:16:06.15	181.42	42.51	-44.5	-47.2	17.2	0.00e+00	0	42	0	439353344	60	4945
2026-01-19 10:16:10.12	182.03	43.59	-45.1	-48.0	16.4	0.00e+00	0	42	0	447741952	60	5430
2026-01-19 10:16:14.09	182.69	44.71	-45.4	-48.4	16.0	0.00e+00	0	42	0	455081984	61	5372
2026-01-19 10:16:18.06	183.39	45.85	-45.8	-48.9	15.5	0.00e+00	0	42	0	462422016	62	5400
2026-01-19 10:16:22.03	184.14	47.02	-45.5	-48.6	15.9	0.00e+00	0	42	0	469762048	62	5209
2026-01-19 10:16:26.00	184.95	48.22	-45.9	-49.2	15.2	0.00e+00	0	42	0	477102080	62	5585
2026-01-19 10:16:29.97	185.83	49.44	-44.5	-47.3	17.1	0.00e+00	0	42	0	484442112	61	4710
2026-01-19 10:16:33.95	186.78	50.70	-43.5	-45.9	18.3	0.00e+00	0	42	0	491782144	59	4526
2026-01-19 10:16:37.92	187.81	51.97	-42.2	-44.4	19.8	0.00e+00	0	42	0	499122176	56	4524
2026-01-19 10:16:41.89	188.93	53.28	-41.4	-43.5	20.5	0.00e+00	0	42	0	506462208	54	4555
2026-01-19 10:16:45.86	190.16	54.60	-41.0	-43.0	20.9	0.00e+00	0	42	0	514850816	53	4550
2026-01-19 10:16:49.83	191.50	55.94	-42.0	-44.1	19.9	0.00e+00	0	42	0	522190848	54	4920
2026-01-19 10:16:53.80	192.98	57.30	-42.5	-44.7	19.4	0.00e+00	0	42	0	529530880	55	4971
2026-01-19 10:16:57.77	194.62	58.68	-42.1	-44.3	19.8	0.00e+00	0	42	0	536870912	55	4717
2026-01-19 10:17:01.74	196.43	60.06	-41.2	-43.2	20.7	0.00e+00	0	42	0	544210944	54	4433
2026-01-19 10:17:05.71	198.45	61.44	-40.2	-42.2	21.7	0.00e+00	0	42	0	551550976	52	4408
2026-01-19 10:17:09.68	200.70	62.82	-40.7	-42.6	21.2	0.00e+00	0	42	0	558891008	52	4651
2026-01-19 10:17:13.65	203.23	64.19	-41.5	-43.6	20.4	0.00e+00	0	42	0	566231040	53	4881
2026-01-19 10:17:17.63	206.07	65.53	-43.1	-45.4	18.9	0.00e+00	0	42	0	573571072	56	5071
2026-01-19 10:17:21.60	209.27	66.83	-43.7	-46.2	18.2	0.00e+00	0	42	0	580911104	58	4930
2026-01-19 10:17:25.57	212.87	68.08	-44.7	-47.5	16.9	0.00e+00	0	42	0	589299712	60	5157
2026-01-19 10:17:29.54	216.93	69.25	-44.4	-47.1	17.3	0.00e+00	0	42	0	596639744	59	5186
2026-01-19 10:17:33.51	221.49	70.33	-45.1	-48.1	16.4	0.00e+00	0	42	0	603979776	61	5172
2026-01-19 10:17:37.48	226.58	71.29	-44.6	-47.3	17.2	0.00e+00	0	42	0	611319808	60	4997
2026-01-19 10:17:41.45	232.21	72.11	-44.3	-47.0	17.5	0.00e+00	0	42	0	618659840	60	4824
2026-01-19 10:17:45.42	238.34	72.75	-44.9	-47.7	16.7	0.00e+00	0	42	0	625999872	60	5250
2026-01-19 10:17:49.40	244.91	73.19	-43.9	-46.5	18.0	0.00e+00	0	42	0	633339904	58	5121
2026-01-19 10:17:53.37	251.73	73.42	-43.1	-45.4	19.0	0.00e+00	0	42	0	640679936	57	4782
2026-01-19 10:17:57.32	258.62	73.41	-42.8	-45.1	19.1	0.00e+00	0	42	0	648019968	56	4926
2026-01-19 10:18:01.30	265.46	73.18	-43.8	-46.3	18.1	0.00e+00	0	42	0	655360000	58	4999
2026-01-19 10:18:05.27	272.00	72.74	-44.7	-47.5	16.9	0.00e+00	0	42	0	663748608	60	5129
2026-01-19 10:18:09.24	278.12	72.09	-43.9	-46.4	18.0	0.00e+00	0	42	0	671088640	59	4795
2026-01-19 10:18:13.21	283.74	71.28	-44.4	-47.1	17.3	0.00e+00	0	42	0	678428672	60	4903
2026-01-19 10:18:17.18	288.81	70.32	-45.3	-48.3	16.1	0.00e+00	0	42	0	685768704	61	5326
2026-01-19 10:18:21.15	293.36	69.24	-44.9	-47.7	16.8	0.00e+00	0	42	0	693108736	61	4955
2026-01-19 10:18:25.12	297.41	68.06	-46.7	-50.5	13.9	1.50e-06	0	42	0	700448768	64	5776
2026-01-19 10:18:29.09	301.00	66.82	-46.9	-50.8	13.6	9.10e-06	0	42	0	707788800	64	5961
2026-01-19 10:18:33.06	304.19	65.52	-44.3	-46.9	17.5	0.00e+00	0	42	0	715128832	60	4807
2026-01-19 10:18:37.03	307.01	64.19	-41.3	-43.4	20.6	0.00e+00	0	43	0	722468864	54	4499
2026-01-19 10:18:41.01	309.54	62.82	-39.7	-41.5	22.3	0.00e+00	0	42	0	729808896	51	4336
2026-01-19 10:18:44.98	311.78	61.45	-40.4	-42.4	21.6	0.00e+00	0	42	0	737148928	51	4784
2026-01-19 10:18:48.95	313.80	60.07	-41.9	-44.1	20.0	0.00e+00	0	43	0	745537536	54	4891
2026-01-19 10:18:52.92	315.61	58.69	-41.7	-43.8	20.2	0.00e+00	0	42	0	752877568	55	4475
2026-01-19 10:18:56.89	317.24	57.32	-44.6	-47.6	16.8	0.00e+00	0	43	0	760217600	61	4885
2026-01-19 10:19:00.87	318.72	55.96	-43.0	-45.3	19.0	0.00e+00	0	42	0	767557632	56	5020
2026-01-19 10:19:04.84	320.06	54.63	-40.6	-42.6	21.3	0.00e+00	0	42	0	774897664	53	4377
2026-01-19 10:19:08.81	321.29	53.31	-41.8	-44.0	20.1	0.00e+00	0	42	0	782237696	54	4823
2026-01-19 10:19:12.78	322.41	52.01	-40.1	-42.0	21.9	0.00e+00	0	42	0	789577728	51	4582
2026-01-19 10:19:16.75	323.43	50.74	-43.5	-46.0	18.3	0.00e+00	0	42	0	796917760	57	5142
2026-01-19 10:19:20.73	324.38	49.49	-43.7	-46.1	18.2	0.00e+00	0	42	0	804257792	59	4640
2026-01-19 10:19:24.70	325.26	48.27	-46.5	-50.4	14.0	1.50e-06	0	42	0	812646400	63	6051
2026-01-19 10:19:28.67	326.07	47.08	-44.9	-47.9	16.6	0.00e+00	0	42	0	819986432	61	5043
2026-01-19 10:19:32.64	326.82	45.91	-44.8	-47.7	16.7	0.00e+00	0	43	0	827326464	60	5244
2026-01-19 10:19:36.61	327.52	44.78	-43.7	-46.3	18.0	0.00e+00	0	42	0	834666496	59	4740
2026-01-19 10:19:40.58	328.18	43.67	-41.9	-44.0	20.0	0.00e+00	0	42	0	842006528	55	4574
2026-01-19 10:19:44.55	328.79	42.59	-44.8	-47.7	16.7	0.00e+00	0	43	0	849346560	60	5260
2026-01-19 10:19:48.53	329.36	41.53	-43.1	-45.4	18.8	0.00e+00	0	42	0	856686592	58	4532
2026-01-19 10:19:52.50	329.90	40.50	-43.4	-46.0	18.3	0.00e+00	0	43	0	864026624	57	5124
2026-01-19 10:19:56.47	330.41	39.50	-44.8	-47.9	16.5	0.00e+00	0	43	0	871366656	61	5091
2026-01-19 10:20:00.44	330.88	38.53	-43.3	-45.7	18.6	0.00e+00	0	42	0	878706688	58	4660
2026-01-19 10:20:04.41	331.34	37.58	-42.9	-45.3	18.9	0.00e+00	0	43	0	887095296	57	4748
2026-01-19 10:20:08.38	331.76	36.66	-44.3	-47.1	17.2	0.00e+00	0	43	0	894435328	59	5202
2026-01-19 10:20:12.35	332.17	35.76	-43.7	-46.3	18.0	0.00e+00	0	42	0	901775360	59	4716
2026-01-19 10:20:16.32	332.55	34.88	-43.4	-45.8	18.4	0.00e+00	0	43	0	909115392	58	4745
2026-01-19 10:20:20.30	332.92	34.02	-43.3	-45.8	18.5	0.00e+00	0	42	0	916455424	58	4710
2026-01-19 10:20:24.27	333.26	33.19	-44.5	-47.5	16.9	0.00e+00	0	43	0	923795456	59	5431
2026-01-19 10:20:28.24	333.59	32.38	-44.8	-48.1	16.3	0.00e+00	0	42	0	931135488	60	5465
2026-01-19 10:20:32.21	333.91	31.59	-44.7	-47.7	16.7	0.00e+00	0	43	0	938475520	60	5264
2026-01-19 10:20:36.18	334.21	30.82	-44.6	-47.5	16.8	0.00e+00	0	42	0	945815552	60	5152
2026-01-19 10:20:40.15	334.50	30.07	-44.0	-46.8	17.5	0.00e+00	0	42	0	953155584	60	4737
2026-01-19 10:20:44.13	334.78	29.34	-43.5	-46.3	17.9	0.00e+00	0	42	0	961544192	59	4747
2026-01-19 10:20:48.10	335.04	28.62	-43.8	-46.5	17.8	0.00e+00	0	42	0	968884224	58	5142
2026-01-19 10:20:52.07	335.30	27.92	-43.9	-46.6	17.7	0.00e+00	0	43	0	976224256	58	5198
2026-01-19 10:20:56.04	335.54	27.24	-43.0	-45.4	18.8	0.00e+00	0	43	0	983564288	58	4542
2026-01-19 10:21:00.01	335.77	26.58	-42.4	-44.6	19.5	0.00e+00	0	43	0	990904320	56	4644
2026-01-19 10:21:03.98	336.00	25.93	-42.2	-44.4	19.7	0.00e+00	0	42	0	998244352	56	4542
2026-01-19 10:21:07.95	336.22	25.30	-42.6	-45.1	19.1	0.00e+00	0	43	0	1005584384	56	4910
2026-01-19 10:21:11.92	336.43	24.68	-42.9	-45.5	18.7	0.00e+00	0	42	0	1012924416	56	5118
2026-01-19 10:21:15.90	336.63	24.07	-43.0	-45.4	18.8	0.00e+00	0	43	0	1020264448	56	5079
2026-01-19 10:21:19.87	336.82	23.48	-42.7	-45.1	19.0	0.00e+00	0	42	0	1027604480	56	4898
2026-01-19 10:21:23.84	337.01	22.90	-42.1	-44.5	19.6	0.00e+00	0	43	0	1035993088	56	4576
2026-01-19 10:21:27.81	337.20	22.34	-42.1	-44.6	19.5	0.00e+00	0	42	0	1043333120	56	4621
2026-01-19 10:21:31.78	337.37	21.78	-42.3	-44.7	19.4	0.00e+00	0	42	0	1050673152	56	4653
2026-01-19 10:21:35.75	337.54	21.24	-42.5	-44.9	19.2	0.00e+00	0	43	0	1058013184	56	4789
2026-01-19 10:21:39.72	337.71	20.71	-42.3	-44.8	19.3	0.00e+00	0	42	0	1065353216	56	4742
2026-01-19 10:21:43.69	337.87	20.19	-42.3	-44.8	19.3	0.00e+00	0	42	0	1072693248	56	4741
2026-01-19 10:21:47.67	338.03	19.68	-42.3	-44.5	19.5	0.00e+00	0	43	0	1080033280	56	4596
2026-01-19 10:21:51.64	338.18	19.18	-42.2	-44.5	19.5	0.00e+00	0	42	0	1087373312	56	4564
2026-01-19 10:21:55.61	338.32	18.69	-42.2	-44.6	19.5	0.00e+00	0	43	0	1094713344	56	4614
2026-01-19 10:21:59.58	338.47	18.21	-42.4	-44.8	19.3	0.00e+00	0	43	0	1102053376	56	4725
2026-01-19 10:22:03.55	338.61	17.74	-42.8	-45.2	18.8	0.00e+00	0	42	0	1110441984	56	4974
2026-01-19 10:22:07.52	338.74	17.28	-43.2	-45.6	18.5	0.00e+00	0	43	0	1117782016	56	5180
2026-01-19 10:22:11.49	338.87	16.82	-43.4	-46.1	18.0	0.00e+00	0	42	0	1125122048	57	5177
2026-01-19 10:22:15.47	339.00	16.38	-43.4	-46.2	17.9	0.00e+00	0	43	0	1132462080	57	5254
2026-01-19 10:22:19.44	339.13	15.94	-43.5	-46.4	17.7	0.00e+00	0	43	0	1139802112	57	5348
2026-01-19 10:22:23.41	339.25	15.51	-43.6	-46.4	17.7	0.00e+00	0	42	0	1147142144	57	5378
2026-01-19 10:22:27.39	339.37	15.08	-43.5	-46.4	17.7	0.00e+00	0	42	0	1154482176	57	5366
2026-01-19 10:22:31.36	339.49	14.67	-43.4	-46.5	17.6	0.00e+00	0	42	0	1161822208	57	5423
2026-01-19 10:22:35.33	339.60	14.26	-43.3	-46.3	17.7	0.00e+00	0	43	0	1169162240	57	5319
2026-01-19 10:22:39.30	339.71	13.86	-43.4	-46.4	17.6	0.00e+00	0	43	0	1177550848	57	5380
2026-01-19 10:22:43.27	339.82	13.46	-43.7	-46.5	17.5	0.00e+00	0	43	0	1184890880	57	5425
2026-01-19 10:22:47.24	339.92	13.07	-43.8	-46.8	17.2	0.00e+00	0	43	0	1192230912	58	5300
2026-01-19 10:22:51.22	340.03	12.69	-43.7	-46.8	17.2	0.00e+00	0	43	0	1199570944	58	5336
2026-01-19 10:22:55.19	340.13	12.31	-43.6	-47.0	17.0	0.00e+00	0	43	0	1206910976	58	5417
2026-01-19 10:22:59.16	340.23	11.94	-43.5	-46.7	17.3	0.00e+00	0	43	0	1214251008	58	5258
2026-01-19 10:23:03.13	340.33	11.58	-43.7	-46.7	17.3	0.00e+00	0	43	0	1221591040	58	5236
2026-01-19 10:23:07.10	340.42	11.21	-43.8	-46.7	17.2	0.00e+00	0	43	0	1228931072	58	5273
2026-01-19 10:23:11.07	340.52	10.86	-43.6	-46.5	17.4	0.00e+00	0	43	0	1236271104	58	5157
2026-01-19 10:23:15.04	340.61	10.51	-43.5	-46.5	17.4	0.00e+00	0	43	0	1243611136	58	5126
2026-01-19 10:23:19.01	340.70	10.16	-43.5	-46.4	17.5	0.00e+00	0	43	0	1251999744	58	5077
2026-01-19 10:23:22.99	340.79	9.82	-43.4	-46.3	17.6	0.00e+00	0	43	0	1259339776	58	5004
2026-01-19 10:23:26.96	340.87	9.49	-43.3	-46.4	17.5	0.00e+00	0	43	0	1266679808	58	5063
2026-01-19 10:23:30.93	340.96	9.15	-43.1	-46.3	17.6	0.00e+00	0	43	0	1274019840	58	4986
2026-01-19 10:23:34.90	341.04	8.83	-49.7	-65.4	3.8	1.49e+00	0	43	104	1277165568	69	24088
2026-01-19 10:23:38.87	341.12	8.50	-49.7	-65.8	3.8	1.49e+00	0	43	104	1277165568	71	22302
2026-01-19 10:23:42.84	341.20	8.19	-49.8	-65.9	3.8	1.49e+00	0	43	104	1277165568	71	22538
2026-01-19 10:23:46.82	341.28	7.87	-50.5	-65.9	3.8	1.49e+00	0	43	104	1277165568	71	22760
2026-01-19 10:23:50.79	341.36	7.56	-50.6	-65.8	3.8	1.49e+00	0	43	104	1277165568	72	21184
2026-01-19 10:23:54.76	341.44	7.25	-50.5	-65.8	3.8	1.49e+00	0	43	104	1277165568	72	21158
2026-01-19 10:23:58.73	341.51	6.95	-50.3	-65.8	3.8	1.49e+00	0	43	104	1277165568	72	21089
2026-01-19 10:24:02.71	341.59	6.65	-50.2	-65.8	3.8	1.49e+00	0	43	104	1277165568	72	21045
2026-01-19 10:24:06.68	341.66	6.35	-50.2	-65.7	3.8	1.49e+00	0	43	104	1277165568	72	20963
2026-01-19 10:24:10.65	341.73	6.06	-50.2	-65.7	3.8	1.49e+00	0	43	104	1277165568	72	21007
2026-01-19 10:24:14.62	341.80	5.77	-50.2	-65.7	3.8	1.49e+00	0	43	104	1277165568	72	21017
2026-01-19 10:24:18.59	341.87	5.48	-50.2	-65.7	3.8	1.49e+00	0	43	104	1277165568	72	20993
2026-01-19 10:24:22.56	341.94	5.20	-50.2	-65.7	3.8	1.49e+00	0	43	104	1277165568	72	20971

#Closed at: 2026-01-19 10:24:26
#Recorded file [1277 MB]: D:/Data/31040_260119_131128.dat