passes_logs/2026/01/19/T1/T1__20260119_042307_FENGYUN_3E_rec.log

#Pass ID: 20260119_042307_FENGYUN 3E
#Satellite: FENGYUN 3E
#Configuration: FENGYUN 3E
#almurnet v.1.7.20251203
#Start time: 2026-01-19 04:23:07

#Version: 2.0.20230620
#Station: T1
#Location: 37.570604 lon 55.790049 lat
#TLE: 1 49008U 21062A   26017.96535346 -.00000182  00000+0 -64922-4 0  9998
#TLE: 2 49008  98.7483  23.0589 0002171 131.9722 228.1640 14.19885139235265

#Time	Az	El	Level	Level2	SNR	BER	BlckErr	Temp	State	Recorded	gain1	gain2
2026-01-19 04:23:07.74	13.67	5.01	-49.5	-61.0	3.8	8.46e-01	0	41	0	0	68	14257
2026-01-19 04:23:11.71	13.60	5.30	-49.1	-60.5	3.8	8.48e-01	0	41	104	0	68	13418
2026-01-19 04:23:15.68	13.52	5.58	-49.1	-60.7	3.8	8.46e-01	0	41	104	0	68	13809
2026-01-19 04:23:19.65	13.45	5.87	-49.2	-60.9	3.8	8.46e-01	0	41	104	0	68	14093
2026-01-19 04:23:23.63	13.37	6.16	-49.2	-60.6	3.8	8.47e-01	0	42	104	0	68	13691
2026-01-19 04:23:27.60	13.29	6.46	-49.1	-59.8	3.8	8.46e-01	0	42	104	0	68	12390
2026-01-19 04:23:31.58	13.20	6.75	-49.0	-59.0	3.8	8.45e-01	0	42	104	0	68	11322
2026-01-19 04:23:35.55	13.12	7.05	-49.1	-59.5	3.8	8.47e-01	0	42	104	0	68	11973
2026-01-19 04:23:39.53	13.03	7.36	-49.1	-60.4	3.8	8.46e-01	0	42	104	0	68	13384
2026-01-19 04:23:43.50	12.94	7.67	-49.0	-59.1	3.8	8.46e-01	0	42	104	0	68	11486
2026-01-19 04:23:47.47	12.85	7.98	-47.6	-53.1	6.5	2.86e-01	0	42	0	4194304	66	6467
2026-01-19 04:23:51.45	12.75	8.30	-45.2	-47.9	11.8	8.07e-04	0	42	0	33554432	61	4728
2026-01-19 04:23:55.42	12.66	8.62	-43.1	-44.9	14.8	0.00e+00	0	42	0	61865984	57	4222
2026-01-19 04:23:59.40	12.56	8.94	-42.4	-44.1	15.5	0.00e+00	0	43	0	90177536	55	4297
2026-01-19 04:24:03.34	12.46	9.27	-45.6	-48.4	11.1	1.10e-01	0	43	0	118489088	62	4720
2026-01-19 04:24:07.37	12.35	9.60	-39.3	-40.4	19.1	0.00e+00	0	42	0	147849216	49	4004
2026-01-19 04:24:11.34	12.24	9.94	-39.1	-40.1	19.4	0.00e+00	0	43	0	177209344	48	4097
2026-01-19 04:24:15.32	12.13	10.28	-38.8	-39.9	19.7	0.00e+00	0	43	0	205520896	48	3971
2026-01-19 04:24:19.37	12.02	10.64	-38.7	-39.7	19.9	0.00e+00	0	43	0	234881024	48	3905
2026-01-19 04:24:23.52	11.89	11.00	-38.5	-39.6	19.8	0.00e+00	0	43	0	264241152	47	4066
2026-01-19 04:24:27.51	11.77	11.36	-38.7	-39.7	19.7	0.00e+00	0	43	0	293601280	47	4129
2026-01-19 04:24:31.49	11.65	11.72	-38.4	-39.4	20.0	0.00e+00	0	43	0	321912832	47	3986
2026-01-19 04:24:35.47	11.52	12.09	-38.1	-39.1	20.3	0.00e+00	0	43	0	350224384	46	4060
2026-01-19 04:24:39.45	11.39	12.46	-37.9	-38.9	20.5	0.00e+00	0	43	0	379584512	46	3985
2026-01-19 04:24:43.43	11.26	12.84	-38.0	-39.0	20.4	0.00e+00	0	43	0	407896064	46	4016
2026-01-19 04:24:47.41	11.12	13.22	-38.0	-39.0	20.4	0.00e+00	0	43	0	437256192	46	4032
2026-01-19 04:24:51.39	10.98	13.61	-37.8	-38.8	20.6	0.00e+00	0	43	0	465567744	46	3939
2026-01-19 04:24:55.48	10.83	14.02	-37.9	-39.0	20.5	0.00e+00	0	43	0	494927872	46	4007
2026-01-19 04:24:59.53	10.67	14.43	-37.8	-38.9	20.6	0.00e+00	0	43	0	524288000	46	3962
2026-01-19 04:25:03.51	10.52	14.84	-37.6	-38.6	20.8	0.00e+00	0	43	0	553648128	46	3848
2026-01-19 04:25:07.49	10.36	15.26	-37.8	-38.9	20.6	0.00e+00	0	43	0	581959680	45	4195
2026-01-19 04:25:11.48	10.19	15.68	-37.7	-38.7	20.8	0.00e+00	0	43	0	610271232	45	4116
2026-01-19 04:25:15.57	10.01	16.12	-37.6	-38.6	20.8	0.00e+00	0	43	0	640679936	45	4085
2026-01-19 04:25:19.55	9.84	16.56	-37.5	-38.6	20.9	0.00e+00	0	43	0	668991488	45	4053
2026-01-19 04:25:23.52	9.65	17.01	-37.2	-38.2	21.2	0.00e+00	0	43	0	697303040	45	3895
2026-01-19 04:25:27.50	9.47	17.46	-37.0	-38.0	21.4	0.00e+00	0	43	0	726663168	44	4027
2026-01-19 04:25:31.49	9.27	17.93	-36.9	-37.8	21.5	0.00e+00	0	43	0	754974720	44	3947
2026-01-19 04:25:35.46	9.07	18.39	-36.7	-37.7	21.7	0.00e+00	0	43	0	784334848	44	3869
2026-01-19 04:25:39.45	8.86	18.88	-36.5	-37.4	21.8	0.00e+00	0	43	0	812646400	43	3984
2026-01-19 04:25:43.43	8.65	19.36	-36.5	-37.4	21.9	0.00e+00	0	43	0	840957952	43	3962
2026-01-19 04:25:47.47	8.42	19.87	-36.4	-37.3	21.9	0.00e+00	0	43	0	870318080	43	3930
2026-01-19 04:25:51.46	8.19	20.38	-36.2	-37.1	22.2	0.00e+00	0	43	0	899678208	43	3827
2026-01-19 04:25:55.43	7.95	20.90	-36.0	-36.9	22.3	0.00e+00	0	43	0	927989760	42	3994
2026-01-19 04:25:59.41	7.70	21.42	-36.0	-36.9	22.4	0.00e+00	0	43	0	956301312	42	3960
2026-01-19 04:26:03.43	7.44	21.97	-35.8	-36.7	22.5	0.00e+00	0	43	0	985661440	42	3881
2026-01-19 04:26:07.49	7.17	22.53	-35.6	-36.4	22.7	0.00e+00	0	43	0	1015021568	41	3990
2026-01-19 04:26:11.67	6.87	23.12	-35.5	-36.3	22.8	0.00e+00	0	43	0	1045430272	41	3942
2026-01-19 04:26:15.66	6.58	23.69	-35.9	-36.7	22.5	0.00e+00	0	43	0	1073741824	41	4127
2026-01-19 04:26:19.59	6.29	24.27	-35.8	-36.7	22.5	0.00e+00	0	43	0	1102053376	41	4120
2026-01-19 04:26:23.57	5.97	24.87	-35.7	-36.6	22.6	0.00e+00	0	43	0	1131413504	41	4062
2026-01-19 04:26:27.55	5.65	25.48	-36.0	-36.9	22.4	0.00e+00	0	43	0	1159725056	41	4213
2026-01-19 04:26:31.53	5.31	26.11	-36.0	-36.9	22.4	0.00e+00	0	43	0	1188036608	41	4206
2026-01-19 04:26:35.50	4.96	26.74	-35.9	-36.8	22.5	0.00e+00	0	43	0	1217396736	41	4163
2026-01-19 04:26:39.48	4.59	27.40	-35.8	-36.7	22.6	0.00e+00	0	43	0	1245708288	41	4125
2026-01-19 04:26:43.45	4.21	28.06	-35.5	-36.3	22.9	0.00e+00	0	43	0	1275068416	41	3950
2026-01-19 04:26:47.42	3.80	28.74	-35.0	-35.9	23.3	0.00e+00	0	43	0	1303379968	40	3959
2026-01-19 04:26:51.40	3.38	29.44	-35.0	-35.8	23.3	0.00e+00	0	43	0	1331691520	40	3936
2026-01-19 04:26:55.37	2.95	30.15	-34.9	-35.7	23.4	0.00e+00	0	43	0	1361051648	40	3909
2026-01-19 04:26:59.34	2.49	30.88	-35.1	-35.9	23.3	0.00e+00	0	43	0	1389363200	40	3978
2026-01-19 04:27:03.31	2.01	31.62	-35.2	-36.0	23.2	0.00e+00	0	43	0	1417674752	40	4021
2026-01-19 04:27:07.28	1.50	32.38	-35.3	-36.2	23.0	0.00e+00	0	43	0	1447034880	40	4114
2026-01-19 04:27:11.26	0.97	33.16	-35.5	-36.3	23.0	0.00e+00	0	43	0	1475346432	40	4163
2026-01-19 04:27:15.23	0.41	33.96	-35.4	-36.3	23.0	0.00e+00	0	43	0	1503657984	40	4148
2026-01-19 04:27:19.21	359.83	34.77	-35.5	-36.3	23.0	0.00e+00	0	43	0	1533018112	40	4176
2026-01-19 04:27:23.18	359.21	35.60	-35.4	-36.2	23.0	0.00e+00	0	43	0	1561329664	40	4127
2026-01-19 04:27:27.15	358.56	36.45	-35.6	-36.4	22.8	0.00e+00	0	43	0	1590689792	40	4238
2026-01-19 04:27:31.12	357.87	37.32	-35.6	-36.4	22.9	0.00e+00	0	43	0	1619001344	41	3992
2026-01-19 04:27:35.09	357.15	38.21	-35.7	-36.5	22.8	0.00e+00	0	43	0	1647312896	41	4031
2026-01-19 04:27:39.07	356.38	39.11	-36.0	-36.9	22.5	0.00e+00	0	43	0	1675624448	41	4213
2026-01-19 04:27:43.04	355.57	40.04	-36.3	-37.2	22.3	0.00e+00	0	43	0	1704984576	42	4104
2026-01-19 04:27:47.01	354.71	40.98	-36.4	-37.2	22.2	0.00e+00	0	43	0	1733296128	42	4135
2026-01-19 04:27:50.99	353.79	41.94	-36.0	-36.8	22.5	0.00e+00	0	43	0	1761607680	42	3942
2026-01-19 04:27:54.96	352.82	42.91	-36.3	-37.2	22.3	0.00e+00	0	43	0	1790967808	42	4123
2026-01-19 04:27:58.93	351.79	43.90	-36.4	-37.3	22.2	0.00e+00	0	43	0	1819279360	43	3937
2026-01-19 04:28:02.90	350.69	44.90	-36.5	-37.4	22.1	0.00e+00	0	43	0	1848639488	43	3972
2026-01-19 04:28:06.88	349.51	45.92	-36.4	-37.2	22.2	0.00e+00	0	43	0	1876951040	43	3898
2026-01-19 04:28:10.85	348.26	46.95	-37.0	-37.9	21.7	0.00e+00	0	43	0	1905262592	43	4208
2026-01-19 04:28:14.83	346.91	47.99	-38.0	-38.9	20.9	0.00e+00	0	43	0	1934622720	45	4218
2026-01-19 04:28:18.80	345.48	49.04	-38.5	-39.5	20.3	0.00e+00	0	43	0	1962934272	46	4273
2026-01-19 04:28:22.77	343.94	50.09	-38.2	-39.1	20.7	0.00e+00	0	43	0	1991245824	46	4082
2026-01-19 04:28:26.75	342.29	51.14	-38.1	-39.0	20.8	0.00e+00	0	43	0	2020605952	46	4021
2026-01-19 04:28:30.72	340.52	52.18	-38.5	-39.5	20.4	0.00e+00	0	43	0	2048917504	46	4258
2026-01-19 04:28:34.69	338.62	53.22	-38.6	-39.6	20.3	0.00e+00	0	43	0	2078277632	47	4060
2026-01-19 04:28:38.67	336.58	54.25	-38.9	-39.8	20.0	0.00e+00	0	43	0	2106589184	47	4192
2026-01-19 04:28:42.64	334.39	55.26	-39.3	-40.3	19.8	0.00e+00	0	43	0	2134900736	49	3950
2026-01-19 04:28:46.62	332.03	56.24	-39.1	-40.0	20.1	0.00e+00	0	43	0	2163212288	48	4050
2026-01-19 04:28:50.59	329.51	57.18	-39.7	-40.7	19.4	0.00e+00	0	43	0	2192572416	49	4127
2026-01-19 04:28:54.56	326.81	58.09	-39.0	-39.9	20.2	0.00e+00	0	43	0	2220883968	48	3994
2026-01-19 04:28:58.54	323.92	58.94	-39.3	-40.3	19.7	0.00e+00	0	43	0	2249195520	48	4181
2026-01-19 04:29:02.51	320.85	59.74	-40.1	-41.1	19.0	0.00e+00	0	43	0	2278555648	49	4337
2026-01-19 04:29:06.49	317.59	60.46	-39.8	-40.8	18.2	0.00e+00	0	43	0	2306867200	49	4174
2026-01-19 04:29:10.46	314.15	61.10	-39.4	-40.3	19.7	0.00e+00	0	43	0	2336227328	49	3939
2026-01-19 04:29:14.43	310.54	61.66	-40.2	-41.2	18.0	0.00e+00	0	43	0	2364538880	49	4382
2026-01-19 04:29:18.41	306.78	62.11	-39.6	-40.6	19.4	0.00e+00	0	43	0	2392850432	49	4053
2026-01-19 04:29:22.38	302.89	62.46	-40.3	-41.3	18.7	0.00e+00	0	43	0	2422210560	50	4189
2026-01-19 04:29:26.35	298.91	62.69	-39.7	-40.7	18.9	0.00e+00	0	43	0	2450522112	49	4100
2026-01-19 04:29:30.33	294.86	62.81	-40.3	-41.4	18.8	0.00e+00	0	43	0	2478833664	50	4200
2026-01-19 04:29:34.30	290.80	62.80	-40.5	-41.6	18.6	0.00e+00	0	43	0	2508193792	50	4298
2026-01-19 04:29:38.27	286.77	62.68	-40.1	-41.1	19.0	0.00e+00	0	43	0	2536505344	50	4089
2026-01-19 04:29:42.24	282.79	62.44	-40.7	-41.8	18.4	0.00e+00	0	43	0	2565865472	51	4170
2026-01-19 04:29:46.22	278.90	62.08	-40.8	-41.9	18.3	0.00e+00	0	43	0	2594177024	51	4215
2026-01-19 04:29:50.19	275.15	61.62	-41.8	-43.0	17.1	0.00e+00	0	43	0	2622488576	53	4285
2026-01-19 04:29:54.16	271.55	61.05	-41.7	-42.8	17.3	0.00e+00	0	43	0	2650800128	53	4190
2026-01-19 04:29:58.13	268.13	60.40	-42.3	-43.5	16.6	0.00e+00	0	43	0	2680160256	54	4291
2026-01-19 04:30:02.10	264.88	59.67	-41.9	-43.2	17.0	0.00e+00	0	43	0	2708471808	54	4108
2026-01-19 04:30:06.08	261.81	58.87	-42.5	-43.8	16.4	0.00e+00	0	43	0	2736783360	54	4427
2026-01-19 04:30:10.05	258.94	58.01	-42.8	-44.2	16.0	1.10e-06	0	43	0	2766143488	55	4372
2026-01-19 04:30:14.02	256.25	57.10	-43.4	-44.8	15.5	0.00e+00	0	43	0	2794455040	56	4425
2026-01-19 04:30:17.99	253.73	56.15	-43.6	-45.1	15.3	0.00e+00	0	43	0	2823815168	56	4561
2026-01-19 04:30:21.96	251.39	55.17	-44.2	-45.8	14.6	0.00e+00	0	43	0	2852126720	57	4662
2026-01-19 04:30:25.94	249.20	54.15	-43.6	-45.1	15.3	0.00e+00	0	43	0	2880438272	57	4295
2026-01-19 04:30:29.91	247.17	53.12	-44.1	-45.7	14.6	0.00e+00	0	43	0	2909798400	58	4362
2026-01-19 04:30:33.88	245.28	52.08	-44.3	-45.9	14.4	0.00e+00	0	43	0	2938109952	58	4468
2026-01-19 04:30:37.85	243.51	51.03	-44.1	-45.7	14.6	1.10e-06	0	43	0	2966421504	58	4358
2026-01-19 04:30:41.83	241.87	49.97	-44.5	-46.2	14.2	1.10e-06	0	43	0	2995781632	58	4610
2026-01-19 04:30:45.80	240.33	48.92	-44.1	-45.7	14.6	0.00e+00	0	43	0	3024093184	58	4351
2026-01-19 04:30:49.77	238.90	47.87	-44.0	-45.6	14.7	1.10e-06	0	43	0	3052404736	58	4298
2026-01-19 04:30:53.74	237.57	46.83	-44.0	-45.6	14.6	0.00e+00	0	43	0	3081764864	58	4312
2026-01-19 04:30:57.71	236.32	45.80	-44.0	-45.5	14.8	0.00e+00	0	43	0	3110076416	58	4266
2026-01-19 04:31:01.69	235.14	44.78	-44.2	-45.9	14.4	1.10e-06	0	43	0	3138387968	58	4442
2026-01-19 04:31:05.66	234.04	43.77	-44.0	-45.6	14.7	0.00e+00	0	42	0	3167748096	58	4315
2026-01-19 04:31:09.63	233.01	42.78	-44.0	-45.6	14.7	0.00e+00	0	43	0	3196059648	58	4299
2026-01-19 04:31:13.61	232.04	41.80	-44.1	-45.7	14.6	0.00e+00	0	42	0	3224371200	58	4349
2026-01-19 04:31:17.58	231.13	40.84	-44.1	-45.6	14.6	0.00e+00	0	43	0	3253731328	58	4336
2026-01-19 04:31:21.55	230.27	39.90	-44.3	-46.0	14.3	2.20e-06	0	42	0	3282042880	58	4498
2026-01-19 04:31:25.53	229.46	38.97	-44.2	-45.8	14.4	0.00e+00	0	43	0	3310354432	58	4432
2026-01-19 04:31:29.50	228.69	38.06	-44.1	-45.7	14.6	0.00e+00	0	42	0	3339714560	58	4375
2026-01-19 04:31:33.47	227.97	37.17	-44.1	-45.7	14.6	0.00e+00	0	42	0	3368026112	58	4361
2026-01-19 04:31:37.44	227.28	36.30	-44.4	-46.0	14.2	2.20e-06	0	43	0	3397386240	58	4529
2026-01-19 04:31:41.42	226.63	35.45	-44.3	-46.0	14.2	4.50e-06	0	42	0	3425697792	58	4531
2026-01-19 04:31:45.39	226.01	34.62	-44.1	-45.7	14.5	0.00e+00	0	43	0	3454009344	58	4367
2026-01-19 04:31:49.36	225.43	33.80	-44.3	-45.9	14.3	1.10e-06	0	42	0	3483369472	58	4477
2026-01-19 04:31:53.34	224.87	33.00	-44.4	-46.1	14.1	1.10e-06	0	42	0	3511681024	58	4558
2026-01-19 04:31:57.31	224.34	32.22	-44.7	-46.5	13.8	1.02e-05	0	42	0	3539992576	58	4774
2026-01-19 04:32:01.28	223.83	31.46	-44.7	-46.5	13.7	1.02e-05	0	42	0	3568304128	59	4510
2026-01-19 04:32:05.25	223.35	30.71	-44.9	-46.7	13.5	1.94e-05	0	42	0	3597664256	59	4603
2026-01-19 04:32:09.23	222.89	29.98	-45.0	-46.8	13.4	1.83e-05	0	42	0	3625975808	59	4669
2026-01-19 04:32:13.20	222.45	29.27	-44.9	-46.7	13.5	1.83e-05	0	42	0	3655335936	59	4640
2026-01-19 04:32:17.17	222.03	28.57	-44.8	-46.6	13.5	1.60e-05	0	43	0	3683647488	59	4575
2026-01-19 04:32:21.15	221.63	27.89	-44.8	-46.6	13.5	1.37e-05	0	42	0	3711959040	59	4598
2026-01-19 04:32:25.12	221.24	27.22	-44.8	-46.6	13.5	9.10e-06	0	42	0	3741319168	59	4591
2026-01-19 04:32:29.09	220.87	26.57	-44.9	-46.7	13.4	1.94e-05	0	43	0	3769630720	59	4620
2026-01-19 04:32:33.06	220.52	25.93	-45.3	-47.3	12.8	5.95e-05	0	43	0	3797942272	59	4949
2026-01-19 04:32:37.03	220.18	25.31	-45.1	-47.2	13.1	3.43e-05	0	42	0	3827302400	60	4615
2026-01-19 04:32:41.01	219.85	24.70	-45.3	-47.3	12.9	4.80e-05	0	42	0	3855613952	60	4699
2026-01-19 04:32:44.98	219.54	24.10	-45.1	-47.0	13.3	3.89e-05	0	43	0	3883925504	60	4513
2026-01-19 04:32:48.95	219.24	23.51	-45.4	-47.4	12.8	5.14e-05	0	43	0	3913285632	60	4727
2026-01-19 04:32:52.92	218.95	22.94	-45.4	-47.4	12.8	5.49e-05	0	42	0	3941597184	60	4727
2026-01-19 04:32:56.90	218.67	22.37	-45.3	-47.4	12.8	7.43e-05	0	42	0	3970957312	60	4709
2026-01-19 04:33:00.87	218.40	21.82	-45.4	-47.5	12.7	8.01e-05	0	42	0	3999268864	60	4786
2026-01-19 04:33:04.84	218.14	21.29	-45.5	-47.7	12.4	1.53e-04	0	43	0	4027580416	60	4901
2026-01-19 04:33:08.82	217.89	20.76	-45.6	-47.8	12.3	1.96e-04	0	42	0	4055891968	60	4968
2026-01-19 04:33:12.79	217.64	20.24	-45.7	-48.0	12.1	3.32e-04	0	42	0	4085252096	61	4789
2026-01-19 04:33:16.76	217.41	19.73	-45.6	-47.8	12.3	1.60e-04	0	42	0	4113563648	61	4680
2026-01-19 04:33:20.74	217.18	19.23	-45.7	-47.9	12.2	2.36e-04	0	42	0	4141875200	61	4726
2026-01-19 04:33:24.71	216.97	18.74	-45.4	-47.5	12.5	1.28e-04	0	43	0	4171235328	61	4539
2026-01-19 04:33:28.69	216.75	18.26	-45.6	-47.8	12.2	2.05e-04	0	42	0	4199546880	61	4683
2026-01-19 04:33:32.66	216.55	17.79	-45.6	-47.9	12.1	3.22e-04	0	42	0	4228907008	61	4738
2026-01-19 04:33:36.63	216.35	17.32	-45.7	-48.0	12.0	3.81e-04	0	42	0	4257218560	61	4797
2026-01-19 04:33:40.61	216.16	16.87	-45.9	-48.3	11.7	7.00e-04	0	42	0	4285530112	61	4945
2026-01-19 04:33:44.58	215.97	16.42	-46.0	-48.4	11.6	8.47e-04	0	42	0	4314890240	61	5013
2026-01-19 04:33:48.55	215.79	15.98	-46.0	-48.4	11.5	9.17e-04	0	42	0	4343201792	61	5038
2026-01-19 04:33:52.53	215.62	15.55	-46.1	-48.6	11.3	1.30e-03	0	42	0	4371513344	61	5152
2026-01-19 04:33:56.50	215.45	15.13	-46.1	-48.5	11.4	1.19e-03	0	42	0	4400873472	61	5100
2026-01-19 04:34:00.47	215.29	14.71	-46.0	-48.4	11.5	9.70e-04	0	42	0	4429185024	61	5036
2026-01-19 04:34:04.45	215.13	14.30	-46.2	-48.7	11.1	1.61e-03	0	42	0	4458545152	61	5193
2026-01-19 04:34:08.42	214.97	13.89	-46.3	-48.8	11.0	1.91e-03	0	42	0	4486856704	62	4983
2026-01-19 04:34:12.39	214.82	13.50	-46.2	-48.7	11.1	1.71e-03	0	42	0	4515168256	62	4900
2026-01-19 04:34:16.36	214.68	13.11	-46.2	-48.7	11.1	2.32e-03	0	42	0	4544528384	62	4926
2026-01-19 04:34:20.33	214.53	12.72	-46.4	-49.1	10.7	3.39e-03	0	42	0	4572839936	62	5155
2026-01-19 04:34:24.31	214.39	12.34	-46.6	-49.3	10.4	4.64e-03	0	42	0	4601151488	62	5277
2026-01-19 04:34:28.28	214.26	11.97	-46.5	-49.3	10.5	4.97e-03	0	42	0	4629463040	62	5267
2026-01-19 04:34:32.25	214.13	11.60	-46.5	-49.4	10.2	5.62e-03	0	42	0	4658823168	62	5336
2026-01-19 04:34:36.22	214.00	11.24	-46.5	-49.4	10.3	5.13e-03	0	42	0	4687134720	62	5315
2026-01-19 04:34:40.20	213.88	10.88	-46.5	-49.4	10.3	7.00e-03	0	42	0	4716494848	62	5301
2026-01-19 04:34:44.17	213.76	10.53	-46.6	-49.5	10.2	5.95e-03	0	42	0	4744806400	62	5357
2026-01-19 04:34:48.14	213.64	10.18	-46.5	-49.4	10.2	7.74e-03	0	42	0	4773117952	62	5303
2026-01-19 04:34:52.11	213.52	9.84	-46.6	-49.6	10.0	9.21e-03	0	42	0	4802478080	63	5129
2026-01-19 04:34:56.08	213.41	9.50	-46.7	-49.7	9.8	1.14e-02	0	42	0	4830789632	63	5185
2026-01-19 04:35:00.05	213.30	9.16	-46.6	-49.6	9.8	1.02e-02	0	42	0	4859101184	63	5146
2026-01-19 04:35:04.02	213.20	8.83	-50.3	-61.0	3.8	8.47e-01	0	42	104	4881121280	70	12731
2026-01-19 04:35:08.00	213.09	8.51	-50.9	-61.5	3.8	8.47e-01	0	42	104	4881121280	71	12746
2026-01-19 04:35:11.97	212.99	8.19	-51.0	-61.6	3.8	8.46e-01	0	42	104	4881121280	71	12924
2026-01-19 04:35:15.94	212.89	7.87	-51.0	-61.6	3.8	8.46e-01	0	42	104	4881121280	71	12844
2026-01-19 04:35:19.91	212.80	7.56	-50.8	-61.5	3.8	8.47e-01	0	42	104	4881121280	71	12754
2026-01-19 04:35:23.89	212.70	7.24	-50.6	-61.5	3.8	8.46e-01	0	42	104	4881121280	71	12751
2026-01-19 04:35:27.86	212.61	6.94	-50.6	-61.5	3.8	8.47e-01	0	42	104	4881121280	71	12727
2026-01-19 04:35:31.83	212.52	6.64	-50.5	-61.6	3.8	8.46e-01	0	42	104	4881121280	71	12845
2026-01-19 04:35:35.80	212.43	6.34	-50.6	-61.6	3.8	8.47e-01	0	42	104	4881121280	71	12824
2026-01-19 04:35:39.78	212.34	6.04	-50.5	-61.5	3.8	8.47e-01	0	42	104	4881121280	71	12691
2026-01-19 04:35:43.75	212.26	5.75	-50.5	-61.5	3.8	8.46e-01	0	42	104	4881121280	71	12736
2026-01-19 04:35:47.73	212.18	5.46	-50.5	-61.5	3.8	8.47e-01	0	42	104	4881121280	71	12693
2026-01-19 04:35:51.70	212.10	5.17	-50.5	-61.5	3.8	8.47e-01	0	42	104	4881121280	71	12723

#Closed at: 2026-01-19 04:35:54
#Recorded file [4881 MB]: D:/Data/31040_260119_072307.dat