passes_logs/2026/01/19/T1/T1__20260119_110208_NOAA_21_JPSS-2_rec.log

#Pass ID: 20260119_110208_NOAA 21 (JPSS-2)
#Satellite: NOAA 21 (JPSS-2)
#Configuration: NOAA 21
#almurnet v.1.7.20251203
#Start time: 2026-01-19 11:02:08

#Version: 2.0.20230620
#Station: T1
#Location: 37.570604 lon 55.790049 lat
#TLE: 1 54234U 22150A   26018.88939962  .00000052  00000+0  45304-4 0  9995
#TLE: 2 54234  98.7504 319.7421 0000606 261.7569  98.3539 14.19535520165361

#Time	Az	El	Level	Level2	SNR	BER	BlckErr	Temp	State	Recorded	gain1	gain2
2026-01-19 11:02:08.09	195.87	4.97	-49.2	-63.0	3.8	1.49e+00	0	40	0	0	70	17087
2026-01-19 11:02:11.07	196.05	5.17	-49.1	-62.9	3.8	1.49e+00	0	40	104	0	69	17971
2026-01-19 11:02:14.05	196.24	5.36	-49.1	-62.7	3.8	1.49e+00	0	41	104	0	69	17647
2026-01-19 11:02:17.02	196.44	5.56	-49.1	-62.3	3.8	1.49e+00	0	41	104	0	69	16809
2026-01-19 11:02:20.00	196.63	5.76	-49.1	-62.1	3.8	1.49e+00	0	41	104	0	69	16379
2026-01-19 11:02:22.98	196.83	5.96	-49.1	-62.5	3.8	1.49e+00	0	41	104	0	69	17087
2026-01-19 11:02:25.96	197.03	6.16	-49.1	-62.5	3.8	1.49e+00	0	41	104	0	69	17095
2026-01-19 11:02:28.94	197.23	6.36	-49.1	-62.1	3.8	1.49e+00	0	41	104	0	69	16470
2026-01-19 11:02:31.92	197.44	6.57	-49.1	-62.2	3.8	1.49e+00	0	41	104	0	69	16690
2026-01-19 11:02:34.90	197.64	6.77	-49.1	-62.6	3.8	1.49e+00	0	42	104	0	69	17322
2026-01-19 11:02:37.88	197.86	6.98	-49.1	-62.2	3.8	1.49e+00	0	42	104	0	69	16648
2026-01-19 11:02:40.85	198.07	7.19	-48.9	-60.2	4.0	1.48e+00	0	42	104	0	69	13182
2026-01-19 11:02:43.83	198.29	7.40	-49.0	-61.7	3.8	1.49e+00	0	42	104	0	69	15711
2026-01-19 11:02:46.81	198.51	7.61	-48.7	-58.7	4.4	1.49e+00	0	42	104	0	69	11082
2026-01-19 11:02:49.79	198.73	7.82	-45.8	-49.6	12.0	6.94e-04	0	42	0	0	63	5503
2026-01-19 11:02:52.77	198.96	8.04	-43.0	-45.4	16.1	0.00e+00	0	42	0	0	58	4529
2026-01-19 11:02:55.75	199.18	8.25	-42.2	-44.3	17.1	0.00e+00	0	42	0	0	56	4487
2026-01-19 11:02:58.73	199.42	8.47	-43.3	-45.8	15.8	0.00e+00	0	42	0	0	57	4996
2026-01-19 11:03:01.71	199.65	8.69	-45.8	-49.6	12.0	1.26e-04	0	42	0	0	62	5838
2026-01-19 11:03:04.69	199.89	8.91	-47.8	-54.3	7.1	1.19e-01	0	42	0	0	66	7975
2026-01-19 11:03:07.67	200.14	9.13	-47.8	-54.4	7.4	9.83e-03	0	42	0	0	66	8077
2026-01-19 11:03:10.64	200.38	9.35	-48.6	-58.1	4.6	2.08e-02	0	42	0	0	67	11626
2026-01-19 11:03:13.62	200.63	9.57	-43.7	-46.4	14.8	7.00e-07	0	42	0	0	59	4803
2026-01-19 11:03:16.60	200.89	9.80	-41.7	-43.9	16.8	0.00e+00	0	42	0	0	55	4514
2026-01-19 11:03:19.58	201.14	10.03	-41.7	-43.7	17.3	0.00e+00	0	42	0	0	55	4431
2026-01-19 11:03:22.56	201.41	10.26	-41.7	-43.8	17.1	0.00e+00	0	42	0	0	55	4452
2026-01-19 11:03:25.54	201.67	10.49	-41.5	-43.6	17.3	0.00e+00	0	42	0	0	55	4342
2026-01-19 11:03:28.52	201.94	10.72	-41.5	-43.5	17.4	0.00e+00	0	43	0	0	54	4584
2026-01-19 11:03:31.50	202.21	10.95	-41.5	-43.5	17.7	0.00e+00	0	42	0	0	54	4558
2026-01-19 11:03:34.48	202.49	11.19	-41.4	-43.4	18.0	0.00e+00	0	43	0	0	54	4500
2026-01-19 11:03:37.46	202.78	11.43	-41.3	-43.3	18.1	0.00e+00	0	43	0	0	54	4461
2026-01-19 11:03:40.44	203.06	11.67	-41.3	-43.3	18.1	0.00e+00	0	42	0	0	54	4445
2026-01-19 11:03:43.41	203.35	11.91	-41.3	-43.3	18.0	0.00e+00	0	43	0	0	54	4444
2026-01-19 11:03:46.39	203.65	12.15	-41.1	-43.1	18.2	0.00e+00	0	43	0	0	54	4356
2026-01-19 11:03:49.37	203.95	12.39	-41.0	-43.0	18.3	0.00e+00	0	43	0	0	54	4303
2026-01-19 11:03:52.35	204.25	12.64	-41.0	-42.9	18.2	0.00e+00	0	43	0	0	54	4291
2026-01-19 11:03:55.33	204.57	12.89	-41.1	-43.0	18.3	0.00e+00	0	43	0	0	54	4305
2026-01-19 11:03:58.31	204.88	13.14	-41.0	-42.9	18.5	0.00e+00	0	43	0	0	54	4252
2026-01-19 11:04:01.29	205.20	13.39	-40.9	-42.8	18.6	0.00e+00	0	43	0	0	53	4469
2026-01-19 11:04:04.27	205.53	13.64	-41.0	-42.8	18.6	0.00e+00	0	43	0	0	53	4491
2026-01-19 11:04:07.24	205.86	13.90	-40.9	-42.7	18.6	0.00e+00	0	43	0	0	53	4441
2026-01-19 11:04:10.22	206.20	14.15	-40.9	-42.7	18.7	0.00e+00	0	43	0	0	53	4441
2026-01-19 11:04:13.20	206.54	14.41	-40.9	-42.8	18.7	0.00e+00	0	43	0	0	53	4457
2026-01-19 11:04:16.18	206.89	14.67	-41.0	-42.8	18.6	0.00e+00	0	43	0	0	53	4474
2026-01-19 11:04:19.16	207.24	14.94	-41.0	-42.9	18.5	0.00e+00	0	43	0	0	53	4504
2026-01-19 11:04:22.14	207.60	15.20	-41.1	-43.0	18.5	0.00e+00	0	43	0	0	53	4554
2026-01-19 11:04:25.11	207.97	15.47	-41.1	-43.0	18.5	0.00e+00	0	43	0	0	53	4555
2026-01-19 11:04:28.09	208.34	15.73	-41.2	-43.0	18.5	0.00e+00	0	43	0	0	53	4598
2026-01-19 11:04:31.07	208.72	16.00	-41.2	-43.1	18.5	0.00e+00	0	43	0	0	53	4622
2026-01-19 11:04:34.05	209.11	16.27	-41.2	-43.1	18.5	0.00e+00	0	43	0	0	53	4625
2026-01-19 11:04:37.03	209.50	16.55	-41.2	-43.1	18.6	0.00e+00	0	43	0	0	53	4609
2026-01-19 11:04:40.01	209.91	16.82	-41.2	-43.1	18.5	0.00e+00	0	43	0	0	53	4624
2026-01-19 11:04:42.99	210.31	17.10	-41.2	-43.0	18.6	0.00e+00	0	43	0	0	53	4577
2026-01-19 11:04:45.97	210.73	17.38	-41.1	-42.9	18.6	0.00e+00	0	43	0	0	53	4545
2026-01-19 11:04:48.94	211.15	17.66	-41.0	-42.8	18.7	0.00e+00	0	43	0	0	53	4480
2026-01-19 11:04:51.92	211.58	17.94	-40.8	-42.6	19.0	0.00e+00	0	43	0	0	53	4360
2026-01-19 11:04:54.90	212.02	18.22	-40.8	-42.6	19.0	0.00e+00	0	43	0	0	53	4373
2026-01-19 11:04:57.88	212.46	18.51	-40.8	-42.6	19.0	0.00e+00	0	43	0	0	53	4358
2026-01-19 11:05:00.86	212.92	18.79	-40.7	-42.6	19.0	0.00e+00	0	43	0	0	53	4341
2026-01-19 11:05:03.84	213.38	19.08	-40.5	-42.3	19.2	0.00e+00	0	43	0	0	53	4225
2026-01-19 11:05:06.82	213.85	19.37	-40.6	-42.4	19.2	0.00e+00	0	43	0	0	53	4252
2026-01-19 11:05:09.80	214.33	19.67	-40.6	-42.4	19.2	0.00e+00	0	43	0	0	53	4285
2026-01-19 11:05:12.78	214.82	19.96	-40.5	-42.3	19.2	0.00e+00	0	43	0	0	53	4215
2026-01-19 11:05:15.75	215.32	20.25	-40.5	-42.3	19.2	0.00e+00	0	43	0	0	52	4463
2026-01-19 11:05:18.73	215.83	20.55	-40.1	-41.9	19.6	0.00e+00	0	43	0	0	52	4246
2026-01-19 11:05:21.71	216.35	20.84	-40.2	-41.9	19.6	0.00e+00	0	43	0	0	52	4281
2026-01-19 11:05:24.69	216.87	21.14	-40.1	-41.9	19.6	0.00e+00	0	43	0	0	52	4249
2026-01-19 11:05:27.67	217.41	21.44	-40.1	-41.8	19.8	0.00e+00	0	43	0	0	51	4462
2026-01-19 11:05:30.65	217.96	21.74	-39.8	-41.5	20.0	0.00e+00	0	43	0	0	51	4331
2026-01-19 11:05:33.63	218.52	22.04	-39.8	-41.5	20.1	0.00e+00	0	43	0	0	51	4295
2026-01-19 11:05:36.61	219.08	22.34	-39.7	-41.3	20.2	0.00e+00	0	43	0	0	51	4240
2026-01-19 11:05:39.59	219.66	22.65	-39.7	-41.3	20.3	0.00e+00	0	43	0	0	51	4226
2026-01-19 11:05:42.56	220.25	22.95	-39.5	-41.2	20.3	0.00e+00	0	43	0	0	51	4158
2026-01-19 11:05:45.54	220.85	23.25	-39.6	-41.2	20.3	0.00e+00	0	43	0	0	51	4192
2026-01-19 11:05:48.52	221.47	23.56	-39.5	-41.1	20.3	0.00e+00	0	43	0	0	51	4145
2026-01-19 11:05:51.50	222.09	23.86	-39.7	-41.3	20.2	0.00e+00	0	43	0	0	51	4238
2026-01-19 11:05:54.48	222.73	24.16	-39.5	-41.2	20.3	0.00e+00	0	43	0	0	51	4170
2026-01-19 11:05:57.46	223.38	24.47	-39.8	-41.4	20.1	0.00e+00	0	43	0	0	51	4287
2026-01-19 11:06:00.44	224.04	24.77	-39.8	-41.5	20.0	0.00e+00	0	43	0	0	51	4338
2026-01-19 11:06:03.41	224.71	25.07	-39.8	-41.5	20.0	0.00e+00	0	43	0	0	51	4321
2026-01-19 11:06:06.39	225.40	25.37	-39.9	-41.6	20.0	0.00e+00	0	43	0	0	51	4367
2026-01-19 11:06:09.37	226.10	25.68	-40.2	-41.9	19.7	0.00e+00	0	43	0	0	51	4543
2026-01-19 11:06:12.35	226.81	25.98	-40.5	-42.3	19.4	0.00e+00	0	43	0	0	51	4714
2026-01-19 11:06:15.33	227.54	26.27	-40.4	-42.2	19.5	0.00e+00	0	43	0	0	51	4671
2026-01-19 11:06:18.31	228.28	26.57	-40.3	-42.0	19.7	0.00e+00	0	43	0	0	51	4586
2026-01-19 11:06:21.28	229.03	26.86	-40.3	-42.1	19.7	0.00e+00	0	43	0	0	51	4611
2026-01-19 11:06:24.26	229.80	27.16	-40.4	-42.1	19.6	0.00e+00	0	43	0	0	51	4618
2026-01-19 11:06:27.24	230.58	27.45	-40.7	-42.5	19.2	0.00e+00	0	43	0	0	52	4568
2026-01-19 11:06:30.22	231.37	27.74	-40.6	-42.4	19.3	0.00e+00	0	43	0	0	52	4538
2026-01-19 11:06:33.20	232.18	28.02	-40.4	-42.2	19.5	0.00e+00	0	43	0	0	52	4405
2026-01-19 11:06:36.18	233.00	28.30	-40.3	-42.1	19.6	0.00e+00	0	43	0	0	52	4344
2026-01-19 11:06:39.16	233.84	28.58	-40.6	-42.3	19.3	0.00e+00	0	43	0	0	52	4481
2026-01-19 11:06:42.13	234.69	28.86	-40.6	-42.4	19.3	0.00e+00	0	43	0	0	52	4497
2026-01-19 11:06:45.11	235.55	29.13	-40.5	-42.3	19.3	0.00e+00	0	43	0	0	52	4455
2026-01-19 11:06:48.09	236.43	29.39	-40.3	-42.1	19.5	0.00e+00	0	43	0	0	52	4344
2026-01-19 11:06:51.07	237.33	29.65	-40.5	-42.3	19.4	0.00e+00	0	43	0	0	52	4465
2026-01-19 11:06:54.05	238.24	29.91	-40.6	-42.4	19.4	0.00e+00	0	43	0	0	52	4499
2026-01-19 11:06:57.03	239.16	30.16	-40.2	-41.9	19.7	0.00e+00	0	43	0	0	52	4274
2026-01-19 11:07:00.00	240.09	30.40	-40.2	-41.9	19.7	0.00e+00	0	43	0	0	52	4263
2026-01-19 11:07:02.98	241.04	30.64	-40.2	-41.9	19.8	0.00e+00	0	43	0	0	52	4259
2026-01-19 11:07:05.96	242.00	30.87	-40.3	-42.0	19.7	0.00e+00	0	43	0	0	52	4292
2026-01-19 11:07:08.94	242.98	31.09	-40.6	-42.3	19.3	0.00e+00	0	43	0	0	52	4491
2026-01-19 11:07:11.92	243.97	31.31	-40.5	-42.2	19.5	0.00e+00	0	43	0	0	52	4426
2026-01-19 11:07:14.90	244.97	31.52	-40.6	-42.4	19.3	0.00e+00	0	43	0	0	52	4515
2026-01-19 11:07:17.88	245.99	31.72	-41.1	-43.0	18.9	0.00e+00	0	43	0	0	52	4832
2026-01-19 11:07:20.86	247.01	31.91	-40.9	-42.7	19.0	0.00e+00	0	43	0	0	52	4689
2026-01-19 11:07:23.83	248.05	32.09	-41.0	-42.9	18.9	0.00e+00	0	43	0	0	52	4764
2026-01-19 11:07:26.81	249.10	32.26	-41.0	-42.8	18.9	0.00e+00	0	43	0	0	52	4755
2026-01-19 11:07:29.79	250.16	32.43	-41.2	-43.0	18.6	0.00e+00	0	43	0	0	53	4597
2026-01-19 11:07:32.77	251.23	32.58	-41.2	-43.0	18.8	0.00e+00	0	43	0	0	53	4562
2026-01-19 11:07:35.75	252.31	32.72	-40.8	-42.6	19.1	0.00e+00	0	43	0	0	53	4357
2026-01-19 11:07:38.72	253.39	32.86	-40.7	-42.5	19.3	0.00e+00	0	43	0	0	53	4296
2026-01-19 11:07:41.70	254.49	32.98	-40.6	-42.3	19.4	0.00e+00	0	43	0	0	53	4215
2026-01-19 11:07:44.68	255.60	33.09	-40.8	-42.6	19.1	0.00e+00	0	43	0	0	53	4365
2026-01-19 11:07:47.66	256.71	33.19	-40.8	-42.6	19.1	0.00e+00	0	43	0	0	53	4356
2026-01-19 11:07:50.64	257.83	33.28	-41.2	-43.0	18.8	0.00e+00	0	43	0	0	53	4576
2026-01-19 11:07:53.62	258.95	33.35	-40.9	-42.7	19.1	0.00e+00	0	43	0	0	53	4419
2026-01-19 11:07:56.60	260.08	33.42	-40.8	-42.6	19.1	0.00e+00	0	43	0	0	53	4380
2026-01-19 11:07:59.57	261.21	33.47	-40.6	-42.4	19.4	0.00e+00	0	43	0	0	53	4269
2026-01-19 11:08:02.55	262.35	33.51	-41.1	-42.9	18.9	0.00e+00	0	43	0	0	53	4511
2026-01-19 11:08:05.53	263.48	33.54	-41.4	-43.3	18.6	0.00e+00	0	43	0	0	53	4711
2026-01-19 11:08:08.51	264.62	33.55	-41.3	-43.2	18.7	0.00e+00	0	43	0	0	53	4657
2026-01-19 11:08:11.49	265.76	33.56	-41.7	-43.6	18.4	0.00e+00	0	43	0	0	54	4618
2026-01-19 11:08:14.46	266.90	33.55	-40.7	-42.5	19.2	0.00e+00	0	43	0	0	53	4309
2026-01-19 11:08:17.44	268.04	33.52	-41.3	-43.2	18.6	0.00e+00	0	43	0	0	53	4669
2026-01-19 11:08:20.42	269.17	33.49	-41.4	-43.3	18.6	0.00e+00	0	43	0	0	53	4708
2026-01-19 11:08:23.40	270.31	33.44	-41.2	-43.0	18.8	0.00e+00	0	43	0	0	53	4596
2026-01-19 11:08:26.38	271.44	33.39	-41.0	-42.7	19.1	0.00e+00	0	43	0	0	53	4437
2026-01-19 11:08:29.36	272.56	33.32	-40.8	-42.6	19.1	0.00e+00	0	43	0	0	53	4373
2026-01-19 11:08:32.34	273.68	33.23	-40.8	-42.5	19.3	0.00e+00	0	43	0	0	53	4325
2026-01-19 11:08:35.31	274.79	33.14	-41.2	-43.0	18.8	0.00e+00	0	43	0	0	53	4590
2026-01-19 11:08:38.29	275.90	33.03	-41.3	-43.1	18.7	0.00e+00	0	43	0	0	53	4627
2026-01-19 11:08:41.27	277.00	32.92	-41.0	-42.8	19.0	0.00e+00	0	43	0	0	53	4463
2026-01-19 11:08:44.25	278.09	32.79	-40.9	-42.7	19.1	0.00e+00	0	43	0	0	53	4411
2026-01-19 11:08:47.23	279.17	32.65	-40.7	-42.5	19.3	0.00e+00	0	43	0	0	53	4302
2026-01-19 11:08:50.21	280.24	32.50	-41.0	-42.8	19.0	0.00e+00	0	43	0	0	53	4456
2026-01-19 11:08:53.19	281.31	32.35	-41.0	-42.8	19.0	0.00e+00	0	43	0	0	53	4468
2026-01-19 11:08:56.17	282.36	32.18	-41.1	-42.9	18.7	0.00e+00	0	43	0	0	53	4509
2026-01-19 11:08:59.15	283.40	32.00	-41.0	-42.7	18.9	0.00e+00	0	43	0	0	53	4430
2026-01-19 11:09:02.13	284.43	31.82	-41.1	-42.9	18.8	0.00e+00	0	43	0	0	53	4544
2026-01-19 11:09:05.11	285.45	31.62	-40.7	-42.5	19.1	0.00e+00	0	43	0	0	53	4307
2026-01-19 11:09:08.08	286.45	31.42	-40.8	-42.5	19.2	0.00e+00	0	43	0	0	53	4328
2026-01-19 11:09:11.06	287.44	31.21	-40.9	-42.7	19.1	0.00e+00	0	43	0	0	53	4422
2026-01-19 11:09:14.04	288.42	30.99	-40.7	-42.4	19.3	0.00e+00	0	43	0	0	53	4277
2026-01-19 11:09:17.02	289.39	30.76	-40.5	-42.2	19.6	0.00e+00	0	43	0	0	52	4407
2026-01-19 11:09:20.00	290.34	30.53	-40.8	-42.6	19.2	0.00e+00	0	43	0	0	52	4602
2026-01-19 11:09:22.98	291.28	30.29	-40.6	-42.4	19.3	0.00e+00	0	43	0	0	52	4523
2026-01-19 11:09:25.95	292.21	30.04	-40.4	-42.1	19.5	0.00e+00	0	43	0	0	52	4386
2026-01-19 11:09:28.93	293.12	29.79	-40.4	-42.2	19.5	0.00e+00	0	43	0	0	52	4396
2026-01-19 11:09:31.91	294.02	29.54	-40.7	-42.4	19.3	0.00e+00	0	43	0	0	52	4525
2026-01-19 11:09:34.89	294.90	29.28	-40.4	-42.1	19.5	0.00e+00	0	43	0	0	52	4386
2026-01-19 11:09:37.87	295.77	29.01	-40.1	-41.9	19.7	0.00e+00	0	43	0	0	52	4244
2026-01-19 11:09:40.85	296.62	28.74	-40.3	-42.1	19.5	0.00e+00	0	43	0	0	52	4346
2026-01-19 11:09:43.83	297.46	28.46	-40.0	-41.7	19.8	0.00e+00	0	43	0	0	52	4186
2026-01-19 11:09:46.81	298.29	28.19	-40.0	-41.7	19.7	0.00e+00	0	43	0	0	51	4417
2026-01-19 11:09:49.78	299.10	27.91	-39.8	-41.4	20.0	0.00e+00	0	43	0	0	51	4283
2026-01-19 11:09:52.76	299.90	27.62	-39.8	-41.5	20.1	0.00e+00	0	43	0	0	51	4296
2026-01-19 11:09:55.74	300.68	27.33	-39.7	-41.4	20.2	0.00e+00	0	43	0	0	51	4260
2026-01-19 11:09:58.72	301.46	27.04	-39.8	-41.5	19.8	0.00e+00	0	43	0	0	51	4317
2026-01-19 11:10:01.70	302.21	26.75	-40.2	-41.9	19.6	0.00e+00	0	43	0	0	51	4523
2026-01-19 11:10:04.68	302.96	26.46	-39.7	-41.3	20.2	0.00e+00	0	43	0	0	51	4225
2026-01-19 11:10:07.66	303.69	26.16	-39.8	-41.4	20.1	0.00e+00	0	43	0	0	51	4291
2026-01-19 11:10:10.63	304.40	25.87	-40.0	-41.7	19.9	0.00e+00	0	43	0	0	51	4401
2026-01-19 11:10:13.61	305.10	25.57	-40.0	-41.7	20.0	0.00e+00	0	43	0	0	51	4406
2026-01-19 11:10:16.59	305.80	25.27	-39.7	-41.4	20.2	0.00e+00	0	43	0	0	51	4271
2026-01-19 11:10:19.57	306.47	24.97	-39.6	-41.3	20.3	0.00e+00	0	43	0	0	51	4207
2026-01-19 11:10:22.55	307.14	24.67	-39.6	-41.2	20.3	0.00e+00	0	43	0	0	51	4191
2026-01-19 11:10:25.53	307.79	24.37	-39.8	-41.5	20.1	0.00e+00	0	43	0	0	51	4306
2026-01-19 11:10:28.50	308.43	24.07	-39.8	-41.5	20.0	0.00e+00	0	43	0	0	51	4328
2026-01-19 11:10:31.48	309.06	23.77	-40.1	-41.8	19.8	0.00e+00	0	43	0	0	51	4460
2026-01-19 11:10:34.46	309.68	23.46	-40.1	-41.8	19.8	0.00e+00	0	43	0	0	51	4479
2026-01-19 11:10:37.44	310.28	23.16	-40.2	-41.9	19.7	0.00e+00	0	43	0	0	51	4543
2026-01-19 11:10:40.42	310.88	22.86	-39.9	-41.6	19.8	0.00e+00	0	43	0	0	51	4390
2026-01-19 11:10:43.40	311.46	22.56	-40.0	-41.7	19.8	0.00e+00	0	43	0	0	51	4433
2026-01-19 11:10:46.38	312.03	22.26	-39.9	-41.7	19.9	0.00e+00	0	43	0	0	51	4395
2026-01-19 11:10:49.35	312.59	21.96	-40.0	-41.7	19.8	0.00e+00	0	43	0	0	51	4423
2026-01-19 11:10:52.33	313.15	21.67	-39.9	-41.6	20.0	0.00e+00	0	43	0	0	51	4362
2026-01-19 11:10:55.31	313.69	21.37	-40.2	-41.9	19.7	0.00e+00	0	43	0	0	51	4521
2026-01-19 11:10:58.29	314.22	21.07	-40.2	-42.0	19.7	0.00e+00	0	43	0	0	51	4549
2026-01-19 11:11:01.27	314.74	20.78	-40.2	-41.9	19.7	0.00e+00	0	43	0	0	51	4530
2026-01-19 11:11:04.25	315.25	20.48	-40.2	-42.0	19.7	0.00e+00	0	43	0	0	51	4554
2026-01-19 11:11:07.22	315.75	20.19	-40.3	-42.1	19.6	0.00e+00	0	43	0	0	51	4599
2026-01-19 11:11:10.20	316.24	19.90	-40.2	-41.9	19.7	0.00e+00	0	43	0	0	51	4541
2026-01-19 11:11:13.18	316.73	19.61	-40.0	-41.7	19.9	0.00e+00	0	43	0	0	51	4424
2026-01-19 11:11:16.16	317.20	19.32	-39.9	-41.6	19.9	0.00e+00	0	43	0	0	51	4382
2026-01-19 11:11:19.14	317.67	19.04	-39.9	-41.6	19.9	0.00e+00	0	43	0	0	51	4391
2026-01-19 11:11:22.12	318.13	18.75	-40.1	-41.9	19.6	0.00e+00	0	43	0	0	51	4525
2026-01-19 11:11:25.09	318.58	18.47	-40.0	-41.8	19.7	0.00e+00	0	43	0	0	51	4462
2026-01-19 11:11:28.07	319.02	18.19	-40.1	-41.8	19.7	0.00e+00	0	43	0	0	51	4481
2026-01-19 11:11:31.05	319.45	17.91	-40.2	-41.9	19.6	0.00e+00	0	43	0	0	51	4545
2026-01-19 11:11:34.03	319.88	17.63	-40.1	-41.9	19.6	0.00e+00	0	43	0	0	51	4517
2026-01-19 11:11:37.01	320.30	17.35	-40.3	-42.1	19.5	0.00e+00	0	43	0	0	51	4609
2026-01-19 11:11:39.99	320.71	17.08	-40.2	-42.0	19.6	0.00e+00	0	43	0	0	51	4573
2026-01-19 11:11:42.97	321.11	16.80	-40.3	-42.0	19.5	0.00e+00	0	43	0	0	51	4589
2026-01-19 11:11:45.95	321.51	16.53	-40.4	-42.2	19.3	0.00e+00	0	43	0	0	51	4698
2026-01-19 11:11:48.93	321.90	16.26	-40.6	-42.5	19.1	0.00e+00	0	43	0	0	52	4558
2026-01-19 11:11:51.90	322.28	15.99	-40.6	-42.5	19.1	0.00e+00	0	43	0	0	52	4552
2026-01-19 11:11:54.88	322.66	15.73	-40.9	-42.7	18.8	0.00e+00	0	43	0	0	52	4703
2026-01-19 11:11:57.86	323.03	15.46	-41.1	-42.9	18.7	0.00e+00	0	43	0	0	52	4805
2026-01-19 11:12:00.84	323.40	15.20	-41.0	-42.8	18.8	0.00e+00	0	43	0	0	52	4749
2026-01-19 11:12:03.82	323.75	14.94	-41.0	-42.9	18.7	0.00e+00	0	43	0	0	52	4774
2026-01-19 11:12:06.80	324.11	14.68	-41.0	-42.9	18.6	0.00e+00	0	43	0	0	52	4798
2026-01-19 11:12:09.77	324.45	14.42	-41.2	-43.2	18.3	0.00e+00	0	43	0	0	53	4668
2026-01-19 11:12:12.75	324.79	14.16	-41.2	-43.3	18.2	0.00e+00	0	43	0	0	53	4751
2026-01-19 11:12:15.73	325.13	13.91	-41.3	-43.3	18.3	0.00e+00	0	43	0	0	53	4757
2026-01-19 11:12:18.71	325.46	13.66	-41.1	-43.2	18.4	0.00e+00	0	43	0	0	53	4657
2026-01-19 11:12:21.69	325.78	13.41	-41.1	-43.1	18.5	0.00e+00	0	43	0	0	53	4641
2026-01-19 11:12:24.67	326.10	13.16	-41.2	-43.2	18.3	0.00e+00	0	43	0	0	53	4700
2026-01-19 11:12:27.65	326.42	12.91	-41.3	-43.4	18.1	0.00e+00	0	43	0	0	53	4784
2026-01-19 11:12:30.63	326.73	12.67	-41.4	-43.5	18.1	0.00e+00	0	43	0	0	53	4834
2026-01-19 11:12:33.61	327.03	12.42	-41.4	-43.4	18.1	0.00e+00	0	43	0	0	53	4809
2026-01-19 11:12:36.58	327.33	12.18	-41.3	-43.3	18.2	0.00e+00	0	43	0	0	53	4730
2026-01-19 11:12:39.56	327.62	11.94	-41.3	-43.3	18.2	0.00e+00	0	43	0	0	53	4709
2026-01-19 11:12:42.54	327.91	11.71	-41.3	-43.3	18.2	0.00e+00	0	43	0	0	53	4736
2026-01-19 11:12:45.52	328.20	11.47	-41.5	-43.5	18.1	0.00e+00	0	43	0	0	53	4823
2026-01-19 11:12:48.50	328.48	11.23	-41.5	-43.5	18.1	0.00e+00	0	43	0	0	53	4817
2026-01-19 11:12:51.48	328.76	11.00	-41.5	-43.4	18.1	0.00e+00	0	43	0	0	53	4812
2026-01-19 11:12:54.46	329.03	10.77	-41.5	-43.5	18.1	0.00e+00	0	43	0	0	53	4820
2026-01-19 11:12:57.44	329.30	10.54	-41.7	-43.7	17.8	0.00e+00	0	43	0	0	54	4666
2026-01-19 11:13:00.41	329.57	10.31	-41.8	-43.8	17.7	0.00e+00	0	43	0	0	54	4750
2026-01-19 11:13:03.39	329.83	10.09	-41.8	-43.9	17.6	0.00e+00	0	43	0	0	54	4791
2026-01-19 11:13:06.37	330.09	9.86	-41.8	-43.8	17.6	0.00e+00	0	43	0	0	54	4758
2026-01-19 11:13:09.35	330.34	9.64	-41.7	-43.8	17.7	0.00e+00	0	43	0	0	54	4718
2026-01-19 11:13:12.33	330.59	9.41	-41.8	-43.8	17.7	0.00e+00	0	43	0	0	54	4729
2026-01-19 11:13:15.31	330.84	9.19	-41.7	-43.7	17.8	0.00e+00	0	43	0	0	54	4678
2026-01-19 11:13:18.29	331.08	8.98	-49.7	-63.2	3.8	1.06e+00	0	43	104	0	69	18526
2026-01-19 11:13:21.27	331.32	8.76	-49.7	-63.5	3.8	1.49e+00	0	43	104	0	71	17229
2026-01-19 11:13:24.24	331.56	8.54	-50.3	-63.7	3.8	1.49e+00	0	43	104	0	71	17576
2026-01-19 11:13:27.22	331.79	8.33	-50.5	-63.8	3.8	1.49e+00	0	43	104	0	71	17718
2026-01-19 11:13:30.20	332.02	8.12	-50.4	-63.8	3.8	1.49e+00	0	43	104	0	72	16731
2026-01-19 11:13:33.18	332.25	7.90	-50.6	-63.8	3.8	1.49e+00	0	43	104	0	72	16762
2026-01-19 11:13:36.16	332.47	7.69	-50.6	-63.7	3.8	1.49e+00	0	44	104	0	72	16680
2026-01-19 11:13:39.14	332.69	7.48	-50.6	-63.7	3.8	1.49e+00	0	43	104	0	72	16623
2026-01-19 11:13:42.12	332.91	7.28	-50.3	-63.7	3.8	1.49e+00	0	43	104	0	72	16546
2026-01-19 11:13:45.10	333.12	7.07	-50.3	-63.7	3.8	1.49e+00	0	43	104	0	72	16528
2026-01-19 11:13:48.07	333.33	6.87	-50.3	-63.6	3.8	1.49e+00	0	43	104	0	72	16481
2026-01-19 11:13:51.05	333.54	6.66	-50.3	-63.6	3.8	1.49e+00	0	44	104	0	72	16418
2026-01-19 11:13:54.03	333.75	6.46	-50.2	-63.6	3.8	1.49e+00	0	43	104	0	72	16440
2026-01-19 11:13:57.01	333.96	6.26	-50.2	-63.6	3.8	1.49e+00	0	43	104	0	72	16503
2026-01-19 11:13:59.99	334.16	6.06	-50.2	-63.6	3.8	1.49e+00	0	43	104	0	72	16392
2026-01-19 11:14:02.97	334.36	5.86	-50.2	-63.6	3.8	1.49e+00	0	43	104	0	72	16476
2026-01-19 11:14:05.95	334.55	5.67	-50.2	-63.6	3.8	1.49e+00	0	43	104	0	72	16462
2026-01-19 11:14:08.93	334.75	5.47	-50.2	-63.6	3.8	1.49e+00	0	43	104	0	72	16418
2026-01-19 11:14:11.91	334.94	5.27	-50.2	-63.6	3.8	1.49e+00	0	43	104	0	72	16459
2026-01-19 11:14:14.88	335.13	5.08	-50.2	-63.6	3.8	1.49e+00	0	43	104	0	72	16341

#Closed at: 2026-01-19 11:14:17
#Recorded file [0 MB]: D:/Data/31040_260119_140208.dat