passes_logs/2026/01/19/T1/T1__20260119_014118_AQUA_rec.log

#Pass ID: 20260119_014118_AQUA
#Satellite: AQUA
#Configuration: AQUA
#almurnet v.1.7.20251203
#Start time: 2026-01-19 01:41:19

#Version: 2.0.20230620
#Station: T1
#Location: 37.570604 lon 55.790049 lat
#TLE: 1 27424U 02022A   26017.96925465  .00000866  00000+0  18326-3 0  9999
#TLE: 2 27424  98.4087 344.4465 0002004  74.6027 356.0068 14.61826972261327

#Time	Az	El	Level	Level2	SNR	BER	BlckErr	Temp	State	Recorded	gain1	gain2
2026-01-19 01:41:19.77	13.09	5.14	-49.7	-71.4	3.8	7.49e-01	0	36	0	0	70	45081
2026-01-19 01:41:22.75	13.04	5.36	-49.7	-71.3	3.8	7.47e-01	0	37	104	0	70	44498
2026-01-19 01:41:25.73	12.99	5.59	-49.7	-71.3	3.8	7.47e-01	0	37	104	0	70	44590
2026-01-19 01:41:28.71	12.93	5.81	-49.7	-71.3	3.8	7.46e-01	0	37	104	0	70	44881
2026-01-19 01:41:31.69	12.88	6.04	-49.7	-71.4	3.8	7.44e-01	0	37	104	0	70	45103
2026-01-19 01:41:34.67	12.82	6.28	-49.7	-71.4	3.8	7.49e-01	0	37	104	0	70	45044
2026-01-19 01:41:37.65	12.76	6.51	-49.7	-71.2	3.8	7.44e-01	0	37	104	0	70	43934
2026-01-19 01:41:40.63	12.70	6.75	-49.7	-70.9	3.8	7.46e-01	0	37	104	0	70	42565
2026-01-19 01:41:43.61	12.64	6.99	-49.7	-70.8	3.8	7.46e-01	0	38	104	0	70	42023
2026-01-19 01:41:46.59	12.58	7.23	-49.7	-70.9	3.8	7.48e-01	0	38	104	0	70	42658
2026-01-19 01:41:49.58	12.52	7.47	-49.7	-70.9	3.8	7.43e-01	0	38	104	0	70	42836
2026-01-19 01:41:52.55	12.46	7.72	-49.6	-70.3	3.8	7.44e-01	0	38	104	0	70	39933
2026-01-19 01:41:55.53	12.39	7.97	-49.4	-68.3	3.8	7.46e-01	0	38	104	0	70	31583
2026-01-19 01:41:58.51	12.32	8.22	-48.6	-65.2	3.8	7.43e-01	0	38	104	0	69	23568
2026-01-19 01:42:01.49	12.25	8.48	-47.6	-62.4	3.8	7.46e-01	0	38	104	0	67	19068
2026-01-19 01:42:04.47	12.18	8.73	-46.8	-60.8	3.8	7.48e-01	0	38	104	0	65	17840
2026-01-19 01:42:07.45	12.11	9.00	-46.8	-60.8	3.8	7.44e-01	0	38	104	0	65	17874
2026-01-19 01:42:10.44	12.04	9.26	-46.6	-60.6	3.8	7.43e-01	0	38	104	0	65	17306
2026-01-19 01:42:13.42	11.96	9.53	-44.3	-57.0	3.8	7.47e-01	0	38	104	0	60	15378
2026-01-19 01:42:16.42	11.88	9.80	-44.1	-56.7	3.8	7.47e-01	0	38	104	0	59	15613
2026-01-19 01:42:19.40	11.81	10.07	-45.4	-58.5	3.8	7.44e-01	0	38	104	0	61	17197
2026-01-19 01:42:22.39	11.72	10.35	-46.2	-60.4	3.8	7.44e-01	0	38	104	0	64	18053
2026-01-19 01:42:25.37	11.64	10.63	-44.1	-56.6	3.8	7.45e-01	0	38	104	0	59	15571
2026-01-19 01:42:28.36	11.56	10.92	-45.0	-57.9	3.8	7.47e-01	0	38	104	0	60	16995
2026-01-19 01:42:31.44	11.47	11.21	-45.9	-59.6	3.8	7.40e-01	0	38	104	0	63	17441
2026-01-19 01:42:34.31	11.38	11.49	-43.9	-56.4	3.8	7.46e-01	0	38	104	0	59	15117
2026-01-19 01:42:37.44	11.29	11.80	-45.8	-59.0	3.8	7.45e-01	0	38	104	0	62	17181
2026-01-19 01:42:40.28	11.20	12.09	-46.3	-60.4	3.9	7.43e-01	0	38	104	0	64	18005
2026-01-19 01:42:43.41	11.10	12.41	-43.7	-55.9	3.8	7.44e-01	0	39	104	0	59	14352
2026-01-19 01:42:46.32	11.00	12.71	-44.5	-57.3	3.8	7.45e-01	0	38	104	0	60	15814
2026-01-19 01:42:49.61	10.89	13.05	-43.8	-56.0	3.8	7.44e-01	0	39	104	0	59	14540
2026-01-19 01:42:52.50	10.79	13.36	-44.5	-57.2	3.8	7.47e-01	0	38	104	0	60	15680
2026-01-19 01:42:55.79	10.67	13.71	-47.8	-64.8	3.8	7.49e-01	0	38	104	0	66	26648
2026-01-19 01:42:58.50	10.57	14.01	-44.9	-57.7	3.8	7.42e-01	0	39	104	0	61	15598
2026-01-19 01:43:01.79	10.45	14.37	-43.6	-56.0	3.7	7.51e-01	0	38	104	0	59	14506
2026-01-19 01:43:04.79	10.33	14.71	-47.9	-56.5	14.8	6.08e-01	0	39	0	2621440	66	10211
2026-01-19 01:43:08.10	10.20	15.09	-43.1	-46.0	24.2	6.01e-01	0	39	0	8912896	58	4849
2026-01-19 01:43:10.82	10.09	15.41	-42.9	-45.7	24.5	6.01e-01	0	39	0	14155776	57	4983
2026-01-19 01:43:14.10	9.95	15.80	-42.9	-45.7	24.5	6.05e-01	0	39	0	20447232	57	4956
2026-01-19 01:43:16.91	9.83	16.13	-42.7	-45.6	24.7	6.04e-01	0	39	0	25690112	57	4905
2026-01-19 01:43:20.04	9.69	16.52	-42.7	-45.6	24.7	5.99e-01	0	39	0	31457280	57	4885
2026-01-19 01:43:22.88	9.56	16.87	-42.8	-45.7	24.6	6.03e-01	0	39	0	36700160	57	4947
2026-01-19 01:43:26.12	9.41	17.28	-42.9	-45.8	24.5	6.00e-01	0	39	0	42991616	57	4986
2026-01-19 01:43:28.97	9.27	17.64	-42.9	-45.7	24.6	6.04e-01	0	39	0	48234496	57	4975
2026-01-19 01:43:32.12	9.12	18.05	-43.0	-45.8	24.5	6.03e-01	0	39	0	54001664	57	4991
2026-01-19 01:43:34.96	8.97	18.43	-43.0	-45.7	24.6	6.04e-01	0	39	0	59244544	57	4976
2026-01-19 01:43:38.09	8.80	18.85	-43.0	-45.6	24.6	6.04e-01	0	39	0	65011712	57	4919
2026-01-19 01:43:40.93	8.65	19.24	-43.0	-45.6	24.7	6.05e-01	0	39	0	70778880	57	4902
2026-01-19 01:43:44.12	8.47	19.69	-43.0	-45.7	24.6	6.02e-01	0	39	0	76546048	57	4953
2026-01-19 01:43:46.96	8.31	20.09	-43.1	-45.8	24.6	6.04e-01	0	39	0	81788928	57	5000
2026-01-19 01:43:50.09	8.12	20.55	-43.0	-45.8	24.6	6.04e-01	0	39	0	87556096	57	5007
2026-01-19 01:43:52.99	7.94	20.97	-43.0	-45.8	24.6	6.03e-01	0	39	0	93323264	57	5019
2026-01-19 01:43:55.98	7.75	21.42	-42.9	-45.7	24.6	6.04e-01	0	39	0	98566144	57	4964
2026-01-19 01:43:58.96	7.55	21.88	-42.9	-45.6	24.7	6.04e-01	0	39	0	104333312	57	4919
2026-01-19 01:44:01.96	7.35	22.35	-43.0	-45.7	24.7	6.03e-01	0	39	0	110100480	57	4934
2026-01-19 01:44:04.94	7.14	22.82	-43.2	-45.8	24.6	6.03e-01	0	39	0	115343360	57	4989
2026-01-19 01:44:07.92	6.92	23.31	-43.2	-45.8	24.5	6.03e-01	0	39	0	121110528	57	5012
2026-01-19 01:44:10.91	6.69	23.80	-43.5	-46.2	24.3	6.02e-01	0	39	0	126877696	57	5246
2026-01-19 01:44:13.89	6.46	24.31	-43.5	-46.2	24.3	6.03e-01	0	39	0	132120576	57	5247
2026-01-19 01:44:16.88	6.22	24.82	-43.4	-45.9	24.4	6.03e-01	0	39	0	137887744	57	5096
2026-01-19 01:44:19.89	5.97	25.35	-43.5	-46.0	24.4	6.02e-01	0	39	0	143654912	57	5110
2026-01-19 01:44:22.95	5.70	25.90	-43.5	-45.9	24.5	6.02e-01	0	39	0	149422080	57	5057
2026-01-19 01:44:25.98	5.43	26.46	-43.4	-45.8	24.7	6.04e-01	0	39	0	155189248	57	4984
2026-01-19 01:44:28.97	5.15	27.02	-43.2	-45.6	24.8	6.03e-01	0	39	0	160432128	57	4882
2026-01-19 01:44:31.96	4.85	27.59	-43.2	-45.6	24.8	6.03e-01	0	39	0	166199296	57	4877
2026-01-19 01:44:34.94	4.55	28.18	-42.9	-45.3	25.1	6.03e-01	0	39	0	171966464	57	4716
2026-01-19 01:44:37.93	4.24	28.77	-42.9	-45.3	22.7	6.05e-01	0	39	0	177209344	57	4719
2026-01-19 01:44:40.96	3.90	29.39	-43.0	-45.3	25.1	6.05e-01	0	39	0	182976512	57	4741
2026-01-19 01:44:43.94	3.56	30.01	-42.6	-45.0	25.4	6.03e-01	0	39	0	188743680	57	4546
2026-01-19 01:44:46.93	3.21	30.65	-42.8	-45.1	25.2	6.02e-01	0	39	0	194510848	57	4647
2026-01-19 01:44:49.91	2.83	31.30	-42.8	-45.2	25.1	6.03e-01	0	39	0	199753728	57	4695
2026-01-19 01:44:52.89	2.45	31.96	-42.8	-45.3	25.1	6.01e-01	0	39	0	205520896	57	4717
2026-01-19 01:44:55.87	2.04	32.64	-42.9	-45.4	25.0	6.05e-01	0	39	0	211288064	57	4777
2026-01-19 01:44:59.14	1.58	33.41	-42.8	-45.2	25.2	6.04e-01	0	39	0	217055232	57	4661
2026-01-19 01:45:02.25	1.11	34.15	-43.4	-45.8	24.7	6.04e-01	0	39	0	222822400	57	5021
2026-01-19 01:45:05.18	0.65	34.86	-43.7	-46.2	24.3	6.03e-01	0	39	0	228589568	58	4972
2026-01-19 01:45:08.30	0.14	35.64	-43.6	-46.1	24.5	6.02e-01	0	39	0	234356736	58	4873
2026-01-19 01:45:11.18	359.65	36.38	-44.6	-47.5	23.2	6.02e-01	0	39	0	239599616	59	5407
2026-01-19 01:45:14.45	359.05	37.23	-44.0	-46.8	23.7	6.04e-01	0	39	0	245891072	59	5034
2026-01-19 01:45:17.16	358.53	37.95	-44.7	-47.6	23.0	6.02e-01	0	39	0	251133952	59	5512
2026-01-19 01:45:20.46	357.87	38.85	-44.9	-47.5	23.0	6.04e-01	0	39	0	256901120	60	5153
2026-01-19 01:45:23.18	357.30	39.60	-44.7	-47.3	23.2	6.05e-01	0	39	0	262144000	60	5030
2026-01-19 01:45:26.44	356.57	40.53	-44.7	-47.4	23.2	6.05e-01	0	39	0	268435456	60	5069
2026-01-19 01:45:29.18	355.92	41.32	-44.3	-47.0	23.5	6.03e-01	0	39	0	273678336	60	4867
2026-01-19 01:45:32.91	354.99	42.43	-44.2	-46.8	23.7	6.04e-01	0	39	0	280494080	60	4743
2026-01-19 01:45:35.62	354.26	43.24	-43.8	-46.3	24.2	6.04e-01	0	39	0	285736960	59	4729
2026-01-19 01:45:38.90	353.34	44.25	-43.7	-46.2	24.4	6.04e-01	0	39	0	291504128	59	4669
2026-01-19 01:45:41.76	352.48	45.14	-43.9	-46.6	24.0	6.05e-01	0	39	0	297271296	59	4878
2026-01-19 01:45:45.11	351.40	46.21	-44.2	-46.8	23.9	6.04e-01	0	39	0	303562752	59	5020
2026-01-19 01:45:47.97	350.43	47.13	-43.9	-46.3	24.2	6.04e-01	0	39	0	308805632	59	4759
2026-01-19 01:45:51.25	349.23	48.20	-43.9	-46.4	24.2	6.03e-01	0	39	0	315097088	59	4785
2026-01-19 01:45:53.97	348.17	49.10	-43.7	-46.3	24.3	6.04e-01	0	39	0	319815680	59	4707
2026-01-19 01:45:57.24	346.81	50.20	-43.7	-46.2	24.4	6.05e-01	0	39	0	326107136	59	4655
2026-01-19 01:45:59.96	345.60	51.11	-43.4	-45.7	24.8	6.06e-01	0	39	0	331350016	58	4705
2026-01-19 01:46:03.24	344.04	52.22	-43.2	-45.6	24.9	6.04e-01	0	39	0	337641472	58	4608
2026-01-19 01:46:06.08	342.58	53.19	-43.3	-45.7	24.8	6.05e-01	0	39	0	342884352	57	4927
2026-01-19 01:46:09.21	340.86	54.25	-42.9	-45.2	25.2	6.03e-01	0	39	0	348651520	57	4705
2026-01-19 01:46:12.05	339.19	55.21	-42.9	-45.2	25.3	6.03e-01	0	39	0	353894400	57	4666
2026-01-19 01:46:15.18	337.20	56.26	-43.2	-45.6	24.9	6.03e-01	0	39	0	359661568	57	4908
2026-01-19 01:46:18.25	335.10	57.27	-43.5	-46.0	24.4	6.05e-01	0	39	0	365428736	57	5157
2026-01-19 01:46:21.37	332.80	58.28	-44.0	-46.5	24.1	6.05e-01	0	39	0	371195904	58	5129
2026-01-19 01:46:24.21	330.56	59.17	-44.0	-46.6	24.1	6.04e-01	0	39	0	376438784	58	5169
2026-01-19 01:46:27.34	327.90	60.11	-43.8	-46.4	24.1	6.03e-01	0	39	0	382730240	59	4760
2026-01-19 01:46:30.18	325.31	60.94	-44.6	-47.1	23.5	6.01e-01	0	39	0	387973120	59	5214
2026-01-19 01:46:33.39	322.18	61.81	-44.3	-47.0	23.6	6.02e-01	0	39	0	393740288	60	4836
2026-01-19 01:46:36.24	319.21	62.53	-45.0	-47.8	22.8	6.02e-01	0	39	0	399507456	60	5308
2026-01-19 01:46:39.36	315.76	63.24	-45.1	-47.9	22.8	6.02e-01	0	39	0	405274624	60	5358
2026-01-19 01:46:42.41	312.19	63.86	-45.4	-48.2	22.5	6.02e-01	0	39	0	411041792	61	5251
2026-01-19 01:46:45.27	308.68	64.36	-45.8	-48.7	22.0	6.05e-01	0	39	0	416284672	62	5272
2026-01-19 01:46:48.40	304.67	64.81	-46.1	-49.1	21.6	6.04e-01	0	39	0	422051840	63	5207
2026-01-19 01:46:51.24	300.91	65.11	-46.0	-49.0	21.7	6.04e-01	0	39	0	427294720	63	5132
2026-01-19 01:46:54.47	296.52	65.34	-46.2	-49.2	21.6	6.04e-01	0	39	0	433586176	63	5245
2026-01-19 01:46:57.31	292.61	65.44	-46.8	-50.2	20.5	6.04e-01	0	39	0	438829056	64	5590
2026-01-19 01:47:00.43	288.30	65.42	-46.6	-50.0	20.7	6.06e-01	0	39	0	444596224	64	5461
2026-01-19 01:47:03.28	284.39	65.30	-46.8	-50.2	20.6	6.04e-01	0	39	0	449839104	65	5221
2026-01-19 01:47:06.41	280.16	65.04	-46.3	-49.4	21.3	6.00e-01	0	39	0	455606272	64	5072
2026-01-19 01:47:09.26	276.42	64.71	-46.4	-49.7	21.1	6.04e-01	0	39	0	461373440	64	5220
2026-01-19 01:47:12.52	272.29	64.21	-46.6	-50.0	20.7	6.01e-01	0	39	0	467140608	64	5432
2026-01-19 01:47:15.28	268.94	63.71	-46.4	-49.7	21.0	6.03e-01	0	39	0	472383488	64	5235
2026-01-19 01:47:18.55	265.17	63.01	-46.0	-49.1	21.7	6.02e-01	0	39	0	478674944	63	5173
2026-01-19 01:47:21.29	262.18	62.37	-46.1	-49.2	21.6	6.03e-01	0	39	0	483917824	63	5256
2026-01-19 01:47:24.56	258.84	61.52	-45.7	-49.0	21.7	6.04e-01	0	39	0	489684992	61	5778
2026-01-19 01:47:27.27	256.24	60.77	-45.4	-48.3	22.3	6.03e-01	0	39	0	494927872	61	5335
2026-01-19 01:47:30.63	253.23	59.78	-45.6	-48.5	22.2	6.03e-01	0	39	0	501219328	61	5443
2026-01-19 01:47:33.63	250.74	58.86	-44.5	-47.1	23.5	6.04e-01	0	39	0	506986496	61	4626
2026-01-19 01:47:36.62	248.42	57.90	-44.0	-46.5	24.0	6.04e-01	0	39	0	512229376	60	4560
2026-01-19 01:47:39.68	246.22	56.91	-44.2	-46.7	23.9	6.03e-01	0	39	0	517996544	59	4940
2026-01-19 01:47:42.74	244.18	55.89	-43.8	-46.3	24.3	6.03e-01	0	39	0	523763712	59	4709
2026-01-19 01:47:45.71	242.34	54.89	-43.2	-45.5	24.9	6.03e-01	0	39	0	529530880	58	4583
2026-01-19 01:47:48.99	240.45	53.77	-43.1	-45.4	25.1	6.05e-01	0	39	0	535822336	58	4496
2026-01-19 01:47:51.92	238.88	52.78	-42.6	-44.9	25.6	6.03e-01	0	39	0	541065216	57	4499
2026-01-19 01:47:55.20	237.25	51.66	-42.6	-44.8	25.5	6.04e-01	0	39	0	547356672	57	4492
2026-01-19 01:47:57.99	235.96	50.71	-43.1	-45.4	25.0	6.06e-01	0	39	0	552599552	57	4800
2026-01-19 01:48:01.16	234.59	49.65	-42.9	-45.2	25.2	6.02e-01	0	39	0	558366720	57	4687
2026-01-19 01:48:04.00	233.44	48.70	-43.2	-45.5	24.9	6.05e-01	0	39	0	563609600	57	4838
2026-01-19 01:48:07.13	232.25	47.66	-43.0	-45.2	25.2	6.03e-01	0	39	0	569901056	57	4695
2026-01-19 01:48:09.97	231.24	46.74	-43.5	-45.9	24.6	6.03e-01	0	39	0	575143936	57	5084
2026-01-19 01:48:13.10	230.20	45.73	-43.0	-45.3	25.0	6.03e-01	0	39	0	580911104	57	4757
2026-01-19 01:48:16.11	229.25	44.77	-43.4	-45.9	24.6	6.03e-01	0	39	0	586678272	57	5069
2026-01-19 01:48:19.24	228.33	43.80	-43.3	-45.7	24.7	6.03e-01	0	39	0	592445440	57	4948
2026-01-19 01:48:22.08	227.54	42.93	-43.3	-45.7	24.8	6.03e-01	0	39	0	597688320	57	4942
2026-01-19 01:48:25.57	226.63	41.88	-44.1	-46.7	23.9	6.05e-01	0	39	0	604504064	58	5226
2026-01-19 01:48:28.54	225.90	41.00	-44.3	-46.8	23.7	6.03e-01	0	39	0	609746944	59	5019
2026-01-19 01:48:31.82	225.14	40.06	-44.6	-47.2	23.5	6.04e-01	0	39	0	616038400	59	5219
2026-01-19 01:48:34.54	224.55	39.29	-44.7	-47.3	23.2	6.04e-01	0	39	0	621281280	60	5017
2026-01-19 01:48:37.82	223.86	38.38	-44.6	-47.3	23.2	6.03e-01	0	39	0	627048448	60	5026
2026-01-19 01:48:40.66	223.30	37.61	-44.7	-47.4	23.2	6.03e-01	0	39	0	632815616	60	5051
2026-01-19 01:48:43.79	222.72	36.78	-44.9	-47.6	22.9	6.03e-01	0	39	0	638582784	60	5205
2026-01-19 01:48:46.63	222.21	36.05	-44.5	-47.2	23.3	6.03e-01	0	39	0	643825664	60	4939
2026-01-19 01:48:49.76	221.68	35.25	-44.3	-46.8	23.6	6.05e-01	0	39	0	649592832	60	4752
2026-01-19 01:48:52.72	221.20	34.52	-43.8	-46.3	24.2	6.03e-01	0	39	0	655360000	59	4709
2026-01-19 01:48:56.23	220.66	33.66	-43.9	-46.4	24.1	6.04e-01	0	39	0	661651456	59	4774
2026-01-19 01:48:58.93	220.26	33.02	-43.4	-45.8	24.5	6.04e-01	0	39	0	666894336	58	4751
2026-01-19 01:49:02.43	219.77	32.21	-43.0	-45.3	25.1	6.02e-01	0	39	0	673185792	58	4465
2026-01-19 01:49:05.13	219.41	31.60	-43.0	-45.4	25.0	6.03e-01	0	39	0	678428672	57	4768
2026-01-19 01:49:08.41	218.99	30.88	-43.0	-45.4	25.0	6.05e-01	0	39	0	684720128	57	4763
2026-01-19 01:49:11.12	218.66	30.29	-43.0	-45.3	25.0	6.00e-01	0	39	0	689963008	57	4753
2026-01-19 01:49:14.40	218.27	29.59	-43.3	-45.7	24.7	5.99e-01	0	39	0	695730176	57	4947
2026-01-19 01:49:17.13	217.96	29.03	-43.0	-45.4	24.9	6.05e-01	0	39	0	700973056	57	4786
2026-01-19 01:49:20.52	217.60	28.34	-43.1	-45.5	24.9	6.04e-01	0	39	0	707264512	57	4840
2026-01-19 01:49:23.27	217.31	27.79	-43.2	-45.5	24.9	6.01e-01	0	39	0	712507392	57	4865
2026-01-19 01:49:26.54	216.98	27.16	-43.4	-45.8	24.7	6.03e-01	0	39	0	718798848	57	5000
2026-01-19 01:49:29.41	216.71	26.61	-43.5	-45.9	24.5	6.01e-01	0	39	0	724041728	57	5089
2026-01-19 01:49:32.74	216.40	25.99	-43.5	-45.9	24.4	6.02e-01	0	39	0	730333184	57	5099
2026-01-19 01:49:35.46	216.16	25.50	-43.6	-46.1	24.3	6.04e-01	0	39	0	735576064	57	5160
2026-01-19 01:49:38.73	215.88	24.92	-43.7	-46.2	24.2	6.02e-01	0	39	0	741343232	58	4943
2026-01-19 01:49:41.55	215.64	24.42	-43.8	-46.2	24.2	6.02e-01	0	39	0	746586112	58	4975
2026-01-19 01:49:44.68	215.39	23.89	-43.8	-46.3	24.1	6.02e-01	0	39	0	752877568	58	5025
2026-01-19 01:49:47.82	215.15	23.36	-43.8	-46.3	24.1	6.05e-01	0	39	0	758644736	58	5039
2026-01-19 01:49:50.81	214.93	22.87	-43.8	-46.3	24.1	6.05e-01	0	39	0	763887616	58	5008
2026-01-19 01:49:53.79	214.71	22.39	-43.8	-46.3	24.1	6.04e-01	0	39	0	769654784	58	5039
2026-01-19 01:49:56.77	214.51	21.92	-44.0	-46.6	23.8	6.04e-01	0	39	0	775421952	58	5190
2026-01-19 01:49:59.83	214.30	21.45	-44.1	-46.7	23.7	6.03e-01	0	39	0	781189120	58	5246
2026-01-19 01:50:02.72	214.11	21.01	-43.9	-46.5	23.9	6.03e-01	0	39	0	786432000	58	5127
2026-01-19 01:50:06.27	213.89	20.48	-43.7	-46.1	24.2	6.04e-01	0	39	0	793247744	58	4921
2026-01-19 01:50:08.99	213.72	20.08	-43.6	-46.1	24.2	6.03e-01	0	39	0	797966336	58	4924
2026-01-19 01:50:12.28	213.53	19.61	-43.7	-46.2	24.0	6.03e-01	0	39	0	804257792	58	4975
2026-01-19 01:50:15.10	213.37	19.21	-43.8	-46.4	24.0	6.04e-01	0	39	0	809500672	58	5064
2026-01-19 01:50:18.46	213.18	18.75	-43.7	-46.3	24.1	6.02e-01	0	39	0	815792128	58	4998
2026-01-19 01:50:21.38	213.02	18.35	-43.8	-46.3	24.0	6.02e-01	0	39	0	821559296	58	5018
2026-01-19 01:50:24.37	212.87	17.95	-43.6	-46.1	24.2	6.03e-01	0	39	0	826802176	58	4897
2026-01-19 01:50:27.35	212.72	17.56	-43.6	-46.1	24.2	6.04e-01	0	39	0	832569344	58	4879
2026-01-19 01:50:30.33	212.57	17.18	-43.6	-46.0	24.2	6.03e-01	0	39	0	838336512	58	4864
2026-01-19 01:50:33.31	212.43	16.80	-43.6	-46.2	24.1	6.04e-01	0	39	0	843579392	58	4932
2026-01-19 01:50:36.22	212.29	16.44	-43.6	-46.1	24.1	6.04e-01	0	39	0	849346560	58	4924
2026-01-19 01:50:39.35	212.15	16.05	-43.8	-46.3	23.9	6.02e-01	0	39	0	855113728	58	5036
2026-01-19 01:50:42.19	212.02	15.71	-43.7	-46.3	24.0	6.03e-01	0	39	0	860356608	58	5008
2026-01-19 01:50:45.32	211.89	15.34	-43.8	-46.4	23.9	6.04e-01	0	39	0	866123776	58	5053
2026-01-19 01:50:48.16	211.77	15.01	-43.9	-46.4	23.8	6.03e-01	0	39	0	871890944	58	5100
2026-01-19 01:50:51.38	211.64	14.64	-43.9	-46.5	23.7	6.03e-01	0	39	0	877658112	58	5128
2026-01-19 01:50:54.22	211.53	14.31	-43.9	-46.4	23.8	6.05e-01	0	39	0	882900992	58	5064
2026-01-19 01:50:57.56	211.40	13.94	-43.9	-46.4	23.8	6.07e-01	0	39	0	889192448	58	5075
2026-01-19 01:51:00.27	211.29	13.64	-43.8	-46.3	23.9	6.03e-01	0	39	0	894435328	58	5006
2026-01-19 01:51:03.54	211.17	13.29	-43.7	-46.2	24.0	6.04e-01	0	39	0	900202496	58	4966
2026-01-19 01:51:06.26	211.08	13.00	-43.9	-46.4	23.7	6.03e-01	0	39	0	905445376	58	5081
2026-01-19 01:51:09.55	210.96	12.65	-43.9	-46.5	23.7	6.03e-01	0	39	0	911736832	58	5131
2026-01-19 01:51:12.28	210.87	12.37	-44.0	-46.6	23.6	6.06e-01	0	39	0	916979712	58	5188
2026-01-19 01:51:15.57	210.76	12.03	-44.0	-46.5	23.6	6.04e-01	0	39	0	923271168	58	5142
2026-01-19 01:51:18.52	210.66	11.73	-43.9	-46.4	23.7	6.03e-01	0	39	0	928514048	58	5095
2026-01-19 01:51:21.79	210.56	11.41	-44.0	-46.5	23.6	6.03e-01	0	39	0	934805504	58	5150
2026-01-19 01:51:24.51	210.48	11.14	-44.0	-46.6	23.5	6.04e-01	0	39	0	940048384	58	5189
2026-01-19 01:51:27.79	210.38	10.82	-44.1	-46.8	23.3	6.03e-01	0	39	0	945815552	58	5291
2026-01-19 01:51:30.59	210.30	10.55	-44.1	-46.7	23.4	6.03e-01	0	39	0	951058432	59	4981
2026-01-19 01:51:33.71	210.21	10.26	-44.1	-46.7	23.3	6.03e-01	0	39	0	956825600	59	4979
2026-01-19 01:51:36.56	210.13	9.99	-44.1	-46.8	23.4	6.03e-01	0	39	0	962592768	59	4997
2026-01-19 01:51:39.68	210.04	9.70	-44.2	-46.8	23.2	6.03e-01	0	39	0	968359936	59	5033
2026-01-19 01:51:42.52	209.96	9.44	-44.2	-46.9	23.2	6.03e-01	0	39	0	973602816	59	5072
2026-01-19 01:51:45.65	209.88	9.16	-44.3	-47.1	22.9	6.03e-01	0	39	0	979369984	59	5184
2026-01-19 01:51:48.49	209.81	8.91	-51.4	-69.7	3.8	7.49e-01	0	39	104	983564288	73	31180
2026-01-19 01:51:51.61	209.73	8.63	-51.5	-71.8	3.8	7.44e-01	0	39	104	983564288	73	39870
2026-01-19 01:51:54.45	209.66	8.39	-52.0	-71.9	3.8	7.46e-01	0	39	104	983564288	74	38245
2026-01-19 01:51:57.69	209.58	8.11	-51.9	-72.0	3.8	7.44e-01	0	39	104	983564288	74	38454
2026-01-19 01:52:00.52	209.51	7.87	-52.0	-72.0	3.8	7.45e-01	0	39	104	983564288	75	36353
2026-01-19 01:52:03.64	209.44	7.60	-51.9	-72.0	3.8	7.44e-01	0	39	104	983564288	74	38423
2026-01-19 01:52:06.48	209.38	7.37	-51.2	-72.0	3.8	7.46e-01	0	39	104	983564288	74	38262
2026-01-19 01:52:09.61	209.31	7.11	-51.2	-71.9	3.8	7.46e-01	0	39	104	983564288	73	40275
2026-01-19 01:52:12.44	209.25	6.88	-51.2	-71.9	3.8	7.45e-01	0	39	104	983564288	73	40251
2026-01-19 01:52:15.56	209.18	6.63	-51.2	-71.9	3.8	7.48e-01	0	39	104	983564288	73	40249
2026-01-19 01:52:18.40	209.12	6.40	-51.2	-71.9	3.8	7.45e-01	0	39	104	983564288	73	40173
2026-01-19 01:52:21.52	209.06	6.16	-51.2	-71.9	3.8	7.46e-01	0	39	104	983564288	73	40170
2026-01-19 01:52:24.37	209.00	5.93	-51.2	-71.9	3.8	7.47e-01	0	39	104	983564288	73	40192
2026-01-19 01:52:27.49	208.94	5.69	-51.2	-71.9	3.8	7.47e-01	0	39	104	983564288	73	40185
2026-01-19 01:52:30.33	208.88	5.47	-51.2	-71.9	3.8	7.44e-01	0	39	104	983564288	73	40166
2026-01-19 01:52:33.45	208.82	5.24	-51.2	-71.9	3.8	7.44e-01	0	39	104	983564288	73	40160
2026-01-19 01:52:36.29	208.77	5.02	-51.2	-71.9	3.8	7.47e-01	0	39	104	983564288	73	40125

#Closed at: 2026-01-19 01:52:38
#Recorded file [983 MB]: D:/Data/31040_260119_044119.dat