passes_logs/2026/01/19/T1/T1__20260119_020152_NOAA_20_JPSS-1_rec.log

#Pass ID: 20260119_020152_NOAA 20 (JPSS-1)
#Satellite: NOAA 20 (JPSS-1)
#Configuration: NOAA 20
#almurnet v.1.7.20251203
#Start time: 2026-01-19 02:01:52

#Version: 2.0.20230620
#Station: T1
#Location: 37.570604 lon 55.790049 lat
#TLE: 1 43013U 17073A   26017.93796159  .00000077  00000+0  57252-4 0  9992
#TLE: 2 43013  98.7639 318.8464 0001390  34.9771 325.1496 14.19536703423157

#Time	Az	El	Level	Level2	SNR	BER	BlckErr	Temp	State	Recorded	gain1	gain2
2026-01-19 02:01:52.69	2.71	5.00	-49.7	-65.4	3.8	1.49e+00	0	36	0	0	70	22641
2026-01-19 02:01:55.66	2.39	5.15	-45.7	-65.0	3.8	1.49e+00	0	36	104	0	63	32262
2026-01-19 02:01:58.64	2.06	5.30	-45.7	-65.0	3.8	1.49e+00	0	37	104	0	63	32302
2026-01-19 02:02:01.63	1.74	5.45	-45.7	-65.0	3.8	1.49e+00	0	37	104	0	63	32297
2026-01-19 02:02:04.60	1.41	5.60	-45.8	-65.0	3.8	1.49e+00	0	36	104	0	63	32264
2026-01-19 02:02:07.58	1.07	5.75	-45.8	-64.9	3.8	1.49e+00	0	37	104	0	63	32124
2026-01-19 02:02:10.57	0.73	5.90	-45.8	-65.0	3.8	1.49e+00	0	37	104	0	63	32264
2026-01-19 02:02:13.55	0.39	6.05	-45.8	-65.0	3.8	1.49e+00	0	37	104	0	63	32294
2026-01-19 02:02:16.53	0.05	6.19	-45.7	-65.0	3.8	1.49e+00	0	37	104	0	63	32322
2026-01-19 02:02:19.51	359.70	6.34	-45.8	-65.0	3.8	1.49e+00	0	37	104	0	63	32392
2026-01-19 02:02:22.49	359.35	6.49	-45.7	-65.0	3.8	1.49e+00	0	37	104	0	63	32311
2026-01-19 02:02:25.47	358.99	6.64	-45.8	-65.0	3.8	1.49e+00	0	37	104	0	63	32272
2026-01-19 02:02:28.45	358.63	6.79	-45.8	-64.9	3.8	1.49e+00	0	38	104	0	63	32170
2026-01-19 02:02:31.43	358.27	6.94	-45.8	-65.0	3.8	1.49e+00	0	37	104	0	63	32185
2026-01-19 02:02:34.41	357.90	7.09	-45.8	-65.0	3.8	1.49e+00	0	38	104	0	63	32271
2026-01-19 02:02:37.39	357.53	7.23	-45.8	-65.0	3.8	1.49e+00	0	38	104	0	63	32247
2026-01-19 02:02:40.37	357.16	7.38	-45.8	-65.0	3.8	1.49e+00	0	38	104	0	63	32254
2026-01-19 02:02:43.35	356.78	7.53	-45.8	-65.0	3.8	1.49e+00	0	38	104	0	63	32377
2026-01-19 02:02:46.33	356.40	7.67	-45.8	-64.9	3.8	1.49e+00	0	38	104	0	63	31974
2026-01-19 02:02:49.31	356.01	7.82	-45.8	-64.8	3.8	1.49e+00	0	38	104	0	63	31768
2026-01-19 02:02:52.29	355.62	7.97	-45.8	-64.8	3.8	1.49e+00	0	38	104	0	63	31786
2026-01-19 02:02:55.27	355.22	8.11	-45.8	-64.9	3.8	1.49e+00	0	38	104	0	63	31977
2026-01-19 02:02:58.25	354.82	8.26	-45.8	-64.6	3.8	1.49e+00	0	38	104	0	63	30849
2026-01-19 02:03:01.23	354.42	8.40	-45.8	-63.8	3.8	1.49e+00	0	38	104	0	63	28058
2026-01-19 02:03:04.20	354.02	8.54	-45.8	-63.1	3.8	1.49e+00	0	38	104	0	63	26116
2026-01-19 02:03:07.18	353.61	8.69	-45.8	-61.7	4.1	1.45e+00	0	38	0	0	63	22234
2026-01-19 02:03:10.16	353.19	8.83	-45.5	-56.7	6.9	2.43e-01	0	38	0	4194304	62	13194
2026-01-19 02:03:13.14	352.77	8.97	-44.5	-51.6	12.1	4.97e-04	0	38	0	9437184	61	7730
2026-01-19 02:03:16.28	352.32	9.12	-46.1	-55.9	7.5	3.69e-01	0	38	0	15728640	63	11384
2026-01-19 02:03:19.25	351.90	9.26	-43.9	-48.9	14.8	0.00e+00	0	38	0	20971520	59	6372
2026-01-19 02:03:22.48	351.43	9.41	-43.9	-48.6	15.1	0.00e+00	0	38	0	27262976	59	6168
2026-01-19 02:03:25.32	351.01	9.55	-44.3	-48.6	15.2	0.00e+00	0	39	0	32505856	59	6140
2026-01-19 02:03:28.44	350.55	9.69	-44.4	-48.4	15.4	0.00e+00	0	38	0	37748736	59	6022
2026-01-19 02:03:31.29	350.13	9.82	-44.3	-48.3	15.5	0.00e+00	0	38	0	42991616	59	5975
2026-01-19 02:03:34.41	349.66	9.96	-43.9	-48.2	15.6	0.00e+00	0	38	0	49283072	59	5870
2026-01-19 02:03:37.25	349.22	10.09	-43.3	-47.8	16.0	0.00e+00	0	38	0	54525952	58	5928
2026-01-19 02:03:40.65	348.70	10.25	-43.2	-47.6	16.1	0.00e+00	0	38	0	60817408	58	5839
2026-01-19 02:03:43.35	348.28	10.37	-43.3	-47.3	16.4	0.00e+00	0	39	0	66060288	58	5655
2026-01-19 02:03:46.63	347.77	10.51	-43.1	-47.0	16.8	0.00e+00	0	38	0	72351744	58	5437
2026-01-19 02:03:49.35	347.34	10.63	-42.9	-47.0	16.7	0.00e+00	0	38	0	77594624	57	5770
2026-01-19 02:03:52.62	346.81	10.77	-43.1	-46.9	16.8	0.00e+00	0	38	0	83886080	57	5707
2026-01-19 02:03:55.59	346.34	10.90	-43.2	-47.0	16.8	0.00e+00	0	39	0	89128960	57	5764
2026-01-19 02:03:59.22	345.74	11.06	-43.0	-46.8	17.0	0.00e+00	0	38	0	95420416	57	5622
2026-01-19 02:04:02.25	345.25	11.18	-43.1	-46.7	17.1	0.00e+00	0	39	0	101711872	57	5558
2026-01-19 02:04:06.23	344.59	11.35	-43.5	-46.8	17.0	0.00e+00	0	38	0	109051904	57	5610
2026-01-19 02:04:09.08	344.11	11.47	-43.4	-46.6	17.2	0.00e+00	0	39	0	114294784	57	5519
2026-01-19 02:04:13.05	343.44	11.63	-43.2	-46.4	17.4	0.00e+00	0	38	0	121634816	57	5351
2026-01-19 02:04:16.18	342.90	11.75	-43.2	-46.2	17.5	0.00e+00	0	39	0	127926272	57	5270
2026-01-19 02:04:20.74	342.11	11.93	-43.2	-46.2	17.6	0.00e+00	0	39	0	136314880	57	5271
2026-01-19 02:04:23.58	341.62	12.04	-43.3	-46.4	17.4	0.00e+00	0	39	0	141557760	57	5366
2026-01-19 02:04:27.56	340.92	12.19	-43.4	-46.4	17.4	0.00e+00	0	38	0	148897792	57	5366
2026-01-19 02:04:30.44	340.41	12.29	-43.2	-46.5	17.3	0.00e+00	0	39	0	154140672	57	5439
2026-01-19 02:04:34.07	339.76	12.42	-43.4	-46.7	17.2	0.00e+00	0	39	0	161480704	57	5543
2026-01-19 02:04:37.19	339.19	12.53	-43.8	-46.8	17.1	0.00e+00	0	39	0	166723584	58	5285
2026-01-19 02:04:40.03	338.68	12.63	-43.6	-46.7	17.1	0.00e+00	0	39	0	171966464	58	5228
2026-01-19 02:04:43.19	338.10	12.74	-43.3	-46.6	17.3	0.00e+00	0	39	0	178257920	58	5172
2026-01-19 02:04:46.04	337.57	12.83	-43.3	-46.3	17.5	0.00e+00	0	39	0	183500800	58	5020
2026-01-19 02:04:49.10	337.00	12.93	-43.3	-46.3	17.5	0.00e+00	0	39	0	189792256	58	5008
2026-01-19 02:04:52.22	336.42	13.03	-43.4	-46.3	17.6	0.00e+00	0	39	0	195035136	58	4993
2026-01-19 02:04:55.34	335.83	13.13	-43.3	-46.0	17.8	0.00e+00	0	39	0	201326592	58	4845
2026-01-19 02:04:58.18	335.29	13.21	-43.3	-45.9	17.9	0.00e+00	0	39	0	206569472	58	4811
2026-01-19 02:05:01.31	334.70	13.31	-43.4	-46.1	17.7	0.00e+00	0	39	0	211812352	58	4891
2026-01-19 02:05:04.19	334.14	13.39	-43.4	-46.1	17.7	0.00e+00	0	39	0	218103808	58	4921
2026-01-19 02:05:07.96	333.42	13.49	-43.1	-45.7	18.1	0.00e+00	0	39	0	224395264	58	4662
2026-01-19 02:05:10.70	332.88	13.56	-43.1	-45.8	18.1	0.00e+00	0	39	0	229638144	58	4729
2026-01-19 02:05:13.96	332.25	13.65	-43.2	-45.8	18.1	0.00e+00	0	39	0	235929600	58	4719
2026-01-19 02:05:16.68	331.71	13.71	-43.2	-45.8	18.0	0.00e+00	0	39	0	241172480	58	4735
2026-01-19 02:05:20.03	331.05	13.79	-43.2	-45.8	18.1	0.00e+00	0	39	0	247463936	58	4718
2026-01-19 02:05:22.82	330.50	13.86	-43.3	-45.9	17.9	0.00e+00	0	39	0	252706816	58	4804
2026-01-19 02:05:26.09	329.85	13.93	-43.5	-46.1	17.7	0.00e+00	0	39	0	258998272	58	4908
2026-01-19 02:05:28.81	329.31	13.99	-43.5	-46.2	17.7	0.00e+00	0	39	0	264241152	58	4976
2026-01-19 02:05:32.09	328.65	14.05	-43.8	-46.5	17.4	0.00e+00	0	39	0	270532608	58	5143
2026-01-19 02:05:35.09	328.04	14.11	-43.8	-46.6	17.2	0.00e+00	0	39	0	275775488	58	5200
2026-01-19 02:05:38.28	327.40	14.16	-43.7	-46.8	17.1	0.00e+00	0	39	0	282066944	58	5293
2026-01-19 02:05:41.26	326.79	14.21	-43.6	-46.7	17.2	0.00e+00	0	39	0	287309824	58	5261
2026-01-19 02:05:44.49	326.13	14.26	-43.8	-46.8	17.2	0.00e+00	0	39	0	293601280	58	5280
2026-01-19 02:05:47.42	325.53	14.31	-43.6	-46.7	17.2	0.00e+00	0	39	0	298844160	58	5225
2026-01-19 02:05:50.69	324.86	14.35	-43.3	-46.3	17.6	0.00e+00	0	39	0	305135616	58	4999
2026-01-19 02:05:53.40	324.30	14.38	-43.3	-46.1	17.8	0.00e+00	0	39	0	310378496	58	4879
2026-01-19 02:05:56.89	323.58	14.42	-43.4	-46.0	17.8	0.00e+00	0	39	0	316669952	58	4866
2026-01-19 02:05:59.77	322.99	14.45	-43.5	-46.1	17.7	0.00e+00	0	39	0	321912832	58	4919
2026-01-19 02:06:03.74	322.17	14.48	-43.4	-46.1	17.8	0.00e+00	0	39	0	329252864	58	4905
2026-01-19 02:06:06.59	321.57	14.51	-43.5	-46.3	17.6	0.00e+00	0	39	0	334495744	58	5003
2026-01-19 02:06:10.57	320.75	14.53	-43.6	-46.3	17.6	0.00e+00	0	39	0	341835776	58	5040
2026-01-19 02:06:13.61	320.11	14.55	-43.7	-46.4	17.5	0.00e+00	0	39	0	348127232	58	5080
2026-01-19 02:06:17.42	319.32	14.56	-43.4	-46.1	17.7	0.00e+00	0	39	0	355467264	58	4892
2026-01-19 02:06:20.12	318.76	14.57	-43.5	-46.1	17.8	0.00e+00	0	39	0	359661568	58	4918
2026-01-19 02:06:23.42	318.07	14.57	-43.6	-46.2	17.7	0.00e+00	0	39	0	365953024	58	4970
2026-01-19 02:06:26.29	317.47	14.57	-43.6	-46.2	17.6	0.00e+00	0	39	0	371195904	58	4980
2026-01-19 02:06:29.64	316.77	14.57	-43.4	-46.1	17.7	0.00e+00	0	39	0	377487360	58	4926
2026-01-19 02:06:32.70	316.13	14.56	-43.5	-46.3	17.6	0.00e+00	0	39	0	383778816	58	4993
2026-01-19 02:06:35.55	315.54	14.55	-43.7	-46.4	17.5	0.00e+00	0	39	0	389021696	58	5072
2026-01-19 02:06:38.68	314.88	14.53	-43.6	-46.3	17.6	0.00e+00	0	39	0	395313152	58	5015
2026-01-19 02:06:41.52	314.29	14.52	-43.7	-46.4	17.5	0.00e+00	0	39	0	400556032	58	5069
2026-01-19 02:06:44.76	313.62	14.50	-43.7	-46.4	17.4	0.00e+00	0	39	0	405798912	58	5098
2026-01-19 02:06:47.69	313.01	14.47	-43.9	-46.6	17.2	0.00e+00	0	39	0	412090368	58	5218
2026-01-19 02:06:50.87	312.35	14.44	-43.9	-46.8	17.2	0.00e+00	0	39	0	417333248	58	5286
2026-01-19 02:06:53.71	311.76	14.41	-43.9	-46.8	17.1	0.00e+00	0	39	0	422576128	58	5298
2026-01-19 02:06:56.84	311.12	14.38	-43.9	-46.7	17.2	0.00e+00	0	39	0	428867584	58	5243
2026-01-19 02:06:59.68	310.53	14.34	-44.1	-46.9	17.0	0.00e+00	0	39	0	434110464	58	5374
2026-01-19 02:07:02.81	309.89	14.30	-44.1	-47.0	16.9	0.00e+00	0	39	0	440401920	59	5144
2026-01-19 02:07:05.65	309.31	14.26	-44.3	-47.1	16.7	0.00e+00	0	39	0	445644800	59	5218
2026-01-19 02:07:09.25	308.58	14.20	-44.2	-47.0	16.9	0.00e+00	0	39	0	451936256	59	5130
2026-01-19 02:07:12.22	307.97	14.15	-43.9	-46.5	17.4	0.00e+00	0	39	0	458227712	59	4858
2026-01-19 02:07:15.20	307.37	14.10	-43.9	-46.7	17.2	0.00e+00	0	39	0	463470592	59	4930
2026-01-19 02:07:18.24	306.75	14.04	-43.9	-46.6	17.3	0.00e+00	0	39	0	468713472	59	4890
2026-01-19 02:07:21.22	306.15	13.98	-43.8	-46.5	17.4	0.00e+00	0	39	0	475004928	59	4841
2026-01-19 02:07:24.36	305.53	13.92	-43.9	-46.6	17.3	0.00e+00	0	39	0	480247808	59	4889
2026-01-19 02:07:27.20	304.96	13.86	-44.2	-47.0	16.9	0.00e+00	0	39	0	485490688	59	5139
2026-01-19 02:07:30.33	304.34	13.78	-44.0	-46.8	17.1	0.00e+00	0	39	0	491782144	59	5029
2026-01-19 02:07:33.17	303.78	13.72	-43.9	-46.7	17.2	0.00e+00	0	39	0	497025024	59	4931
2026-01-19 02:07:36.39	303.14	13.64	-43.9	-46.7	17.2	0.00e+00	0	39	0	503316480	59	4931
2026-01-19 02:07:39.30	302.57	13.56	-44.3	-47.0	16.8	0.00e+00	0	39	0	508559360	59	5159
2026-01-19 02:07:42.49	301.95	13.48	-44.4	-47.2	16.7	0.00e+00	0	39	0	514850816	59	5249
2026-01-19 02:07:45.33	301.40	13.40	-44.3	-47.2	16.7	0.00e+00	0	39	0	520093696	59	5225
2026-01-19 02:07:48.46	300.80	13.31	-44.2	-46.9	16.9	0.00e+00	0	39	0	525336576	59	5087
2026-01-19 02:07:51.30	300.26	13.23	-44.2	-46.9	17.0	0.00e+00	0	39	0	530579456	59	5084
2026-01-19 02:07:54.43	299.66	13.13	-44.2	-47.0	16.8	0.00e+00	0	39	0	536870912	59	5141
2026-01-19 02:07:57.29	299.12	13.04	-44.5	-47.4	16.4	0.00e+00	0	39	0	542113792	59	5400
2026-01-19 02:08:00.50	298.52	12.94	-44.5	-47.3	16.5	0.00e+00	0	39	0	548405248	59	5340
2026-01-19 02:08:03.39	297.98	12.85	-44.1	-46.8	17.0	0.00e+00	0	39	0	553648128	59	5034
2026-01-19 02:08:06.66	297.38	12.74	-43.7	-46.4	17.4	0.00e+00	0	39	0	559939584	59	4787
2026-01-19 02:08:09.36	296.88	12.65	-43.9	-46.6	17.3	0.00e+00	0	39	0	565182464	59	4890
2026-01-19 02:08:12.65	296.28	12.53	-44.1	-46.9	17.0	0.00e+00	0	39	0	571473920	59	5057
2026-01-19 02:08:15.38	295.78	12.44	-43.9	-46.6	17.3	0.00e+00	0	39	0	575668224	59	4898
2026-01-19 02:08:18.96	295.14	12.31	-43.8	-46.5	17.4	0.00e+00	0	39	0	583008256	59	4817
2026-01-19 02:08:21.71	294.65	12.21	-43.8	-46.5	17.4	0.00e+00	0	39	0	588251136	59	4823
2026-01-19 02:08:24.98	294.07	12.09	-43.8	-46.4	17.4	0.00e+00	0	39	0	594542592	59	4804
2026-01-19 02:08:27.76	293.58	11.98	-44.0	-46.7	17.2	0.00e+00	0	39	0	599785472	59	4935
2026-01-19 02:08:31.15	292.99	11.85	-43.8	-46.5	17.4	0.00e+00	0	39	0	606076928	59	4817
2026-01-19 02:08:33.85	292.52	11.74	-43.8	-46.5	17.4	0.00e+00	0	39	0	611319808	59	4824
2026-01-19 02:08:37.29	291.93	11.61	-43.7	-46.2	17.6	0.00e+00	0	39	0	617611264	59	4697
2026-01-19 02:08:40.03	291.47	11.50	-43.8	-46.5	17.3	0.00e+00	0	39	0	622854144	59	4840
2026-01-19 02:08:43.30	290.92	11.36	-44.2	-47.0	16.8	0.00e+00	0	39	0	628097024	59	5134
2026-01-19 02:08:46.01	290.46	11.25	-44.4	-47.3	16.6	0.00e+00	0	39	0	633339904	59	5296
2026-01-19 02:08:49.28	289.92	11.11	-44.5	-47.3	16.5	0.00e+00	0	39	0	639631360	59	5326
2026-01-19 02:08:52.13	289.45	10.99	-44.4	-47.3	16.6	0.00e+00	0	39	0	644874240	59	5298
2026-01-19 02:08:55.26	288.94	10.86	-44.7	-47.7	16.2	0.00e+00	0	39	0	651165696	60	5279
2026-01-19 02:08:58.10	288.48	10.73	-45.0	-48.1	15.8	0.00e+00	0	39	0	656408576	60	5497
2026-01-19 02:09:01.32	287.97	10.59	-45.2	-48.4	15.4	0.00e+00	0	39	0	662700032	61	5396
2026-01-19 02:09:04.15	287.52	10.47	-45.2	-48.4	15.4	0.00e+00	0	39	0	667942912	61	5392
2026-01-19 02:09:07.28	287.03	10.33	-45.2	-48.4	15.5	0.00e+00	0	39	0	673185792	61	5396
2026-01-19 02:09:10.12	286.59	10.20	-45.3	-48.7	15.2	7.00e-07	0	39	0	678428672	61	5547
2026-01-19 02:09:13.25	286.10	10.06	-45.6	-49.2	14.6	0.00e+00	0	39	0	684720128	61	5910
2026-01-19 02:09:16.10	285.67	9.93	-45.6	-49.1	14.8	0.00e+00	0	39	0	689963008	62	5506
2026-01-19 02:09:19.34	285.18	9.78	-45.7	-49.2	14.7	7.00e-07	0	39	0	696254464	62	5543
2026-01-19 02:09:22.18	284.75	9.65	-45.9	-49.5	14.3	2.20e-06	0	39	0	701497344	62	5762
2026-01-19 02:09:25.51	284.26	9.50	-45.9	-49.5	14.3	0.00e+00	0	39	0	707788800	62	5788
2026-01-19 02:09:28.43	283.83	9.36	-46.0	-49.8	14.0	3.00e-06	0	39	0	713031680	62	5974
2026-01-19 02:09:31.72	283.35	9.20	-46.0	-49.8	14.0	2.20e-06	0	39	0	719323136	62	5943
2026-01-19 02:09:34.42	282.96	9.08	-46.1	-50.0	13.8	3.80e-06	0	39	0	724566016	62	6110
2026-01-19 02:09:37.70	282.50	8.92	-49.7	-65.3	3.8	1.49e+00	0	39	104	728760320	70	22281
2026-01-19 02:09:40.41	282.11	8.79	-50.1	-65.5	3.8	1.49e+00	0	39	104	728760320	71	21731
2026-01-19 02:09:43.73	281.65	8.63	-50.4	-65.7	3.8	1.49e+00	0	39	104	728760320	71	22046
2026-01-19 02:09:46.49	281.27	8.50	-50.5	-65.7	3.8	1.49e+00	0	39	104	728760320	71	22121
2026-01-19 02:09:49.85	280.81	8.33	-50.4	-65.7	3.8	1.49e+00	0	39	104	728760320	71	22200
2026-01-19 02:09:52.54	280.44	8.20	-50.4	-65.7	3.8	1.49e+00	0	39	104	728760320	71	22227
2026-01-19 02:09:55.81	280.00	8.04	-50.3	-65.7	3.8	1.49e+00	0	39	104	728760320	71	22086
2026-01-19 02:09:58.50	279.65	7.91	-50.1	-65.6	3.8	1.49e+00	0	39	104	728760320	71	21966
2026-01-19 02:10:01.77	279.22	7.75	-50.1	-65.6	3.8	1.49e+00	0	39	104	728760320	71	21917
2026-01-19 02:10:04.47	278.87	7.62	-50.1	-65.6	3.8	1.49e+00	0	39	104	728760320	71	21957
2026-01-19 02:10:07.73	278.45	7.46	-50.1	-65.6	3.8	1.49e+00	0	39	104	728760320	71	21918
2026-01-19 02:10:10.44	278.10	7.32	-50.1	-65.6	3.8	1.49e+00	0	39	104	728760320	71	21860
2026-01-19 02:10:13.70	277.69	7.16	-50.1	-65.6	3.8	1.49e+00	0	39	104	728760320	71	21803
2026-01-19 02:10:16.42	277.35	7.03	-50.1	-65.6	3.8	1.49e+00	0	39	104	728760320	71	21819
2026-01-19 02:10:19.68	276.95	6.87	-50.1	-65.6	3.8	1.49e+00	0	39	104	728760320	71	21774
2026-01-19 02:10:22.39	276.62	6.73	-50.1	-65.6	3.8	1.49e+00	0	39	104	728760320	71	21789
2026-01-19 02:10:25.66	276.22	6.57	-50.1	-65.6	3.8	1.49e+00	0	39	104	728760320	71	21811
2026-01-19 02:10:28.37	275.89	6.43	-50.1	-65.6	3.8	1.49e+00	0	39	104	728760320	71	21799
2026-01-19 02:10:31.63	275.51	6.27	-50.1	-65.5	3.8	1.49e+00	0	39	104	728760320	71	21722
2026-01-19 02:10:34.34	275.19	6.13	-50.1	-65.5	3.8	1.49e+00	0	39	104	728760320	71	21744
2026-01-19 02:10:37.62	274.81	5.97	-50.1	-65.6	3.8	1.49e+00	0	39	104	728760320	71	21847
2026-01-19 02:10:40.32	274.50	5.83	-50.1	-65.5	3.8	1.49e+00	0	39	104	728760320	71	21740
2026-01-19 02:10:43.60	274.13	5.67	-50.1	-65.6	3.8	1.49e+00	0	39	104	728760320	71	21793
2026-01-19 02:10:46.31	273.82	5.53	-50.1	-65.5	3.8	1.49e+00	0	39	104	728760320	71	21712
2026-01-19 02:10:49.58	273.46	5.37	-50.1	-65.6	3.8	1.49e+00	0	39	104	728760320	71	21789
2026-01-19 02:10:52.27	273.16	5.23	-50.1	-65.5	3.8	1.49e+00	0	39	104	728760320	71	21732
2026-01-19 02:10:55.54	272.81	5.07	-50.1	-65.6	3.8	1.49e+00	0	39	104	728760320	71	21786

#Closed at: 2026-01-19 02:10:58
#Recorded file [728 MB]: D:/Data/31040_260119_050152.dat