passes_logs/2026/01/19/T1/T1__20260119_125319_AQUA_rec.log

#Pass ID: 20260119_125319_AQUA
#Satellite: AQUA
#Configuration: AQUA
#almurnet v.1.7.20251203
#Start time: 2026-01-19 12:53:20

#Version: 2.0.20230620
#Station: T1
#Location: 37.570604 lon 55.790049 lat
#TLE: 1 27424U 02022A   26018.92652823  .00000914  00000+0  19290-3 0  9996
#TLE: 2 27424  98.4089 345.4199 0001997  73.4625 351.8991 14.61828815261466

#Time	Az	El	Level	Level2	SNR	BER	BlckErr	Temp	State	Recorded	gain1	gain2
2026-01-19 12:53:20.75	203.03	5.10	-47.8	-69.6	3.8	7.46e-01	0	36	0	0	66	46289
2026-01-19 12:53:23.73	203.28	5.29	-47.8	-69.6	3.8	7.45e-01	0	37	104	0	66	46387
2026-01-19 12:53:26.71	203.54	5.49	-47.8	-69.6	3.8	7.49e-01	0	37	104	0	66	46325
2026-01-19 12:53:29.69	203.80	5.69	-47.8	-69.6	3.8	7.46e-01	0	37	104	0	66	46325
2026-01-19 12:53:32.67	204.06	5.89	-47.8	-69.6	3.8	7.46e-01	0	37	104	0	66	46331
2026-01-19 12:53:35.65	204.33	6.10	-47.8	-69.6	3.8	7.47e-01	0	37	104	0	66	46394
2026-01-19 12:53:38.62	204.60	6.30	-47.8	-69.6	3.8	7.46e-01	0	37	104	0	66	46241
2026-01-19 12:53:41.60	204.88	6.50	-47.8	-69.6	3.8	7.49e-01	0	37	104	0	66	46289
2026-01-19 12:53:44.58	205.16	6.71	-47.8	-69.6	3.8	7.40e-01	0	37	104	0	66	46271
2026-01-19 12:53:47.56	205.44	6.92	-47.8	-69.6	3.8	7.49e-01	0	37	104	0	66	46404
2026-01-19 12:53:50.54	205.73	7.13	-47.8	-69.6	3.8	7.45e-01	0	38	104	0	66	46373
2026-01-19 12:53:53.52	206.02	7.34	-47.8	-69.6	3.8	7.47e-01	0	37	104	0	66	46411
2026-01-19 12:53:56.50	206.32	7.55	-47.8	-69.6	3.8	7.48e-01	0	38	104	0	66	46396
2026-01-19 12:53:59.48	206.62	7.76	-47.8	-69.6	3.8	7.44e-01	0	37	104	0	66	46393
2026-01-19 12:54:02.45	206.93	7.98	-47.8	-69.6	3.8	7.46e-01	0	38	104	0	66	46379
2026-01-19 12:54:05.43	207.24	8.19	-47.8	-69.6	3.8	7.42e-01	0	38	104	0	66	46379
2026-01-19 12:54:08.41	207.56	8.41	-47.8	-69.6	3.8	7.46e-01	0	38	104	0	66	46402
2026-01-19 12:54:11.39	207.88	8.63	-47.8	-69.6	3.8	7.48e-01	0	38	104	0	66	46368
2026-01-19 12:54:14.37	208.21	8.85	-47.8	-69.6	3.8	7.46e-01	0	38	104	0	66	46446
2026-01-19 12:54:17.35	208.54	9.07	-47.8	-69.6	3.8	7.44e-01	0	38	104	0	66	46389
2026-01-19 12:54:20.33	208.88	9.29	-47.8	-69.6	3.8	7.48e-01	0	38	104	0	66	46368
2026-01-19 12:54:23.31	209.22	9.51	-47.8	-69.6	3.8	7.47e-01	0	38	104	0	66	46335
2026-01-19 12:54:26.29	209.57	9.74	-47.8	-69.6	3.8	7.47e-01	0	38	104	0	66	46478
2026-01-19 12:54:29.26	209.92	9.97	-47.8	-69.6	3.8	7.46e-01	0	38	104	0	66	46447
2026-01-19 12:54:32.24	210.28	10.20	-47.8	-69.6	3.8	7.45e-01	0	38	104	0	66	46412
2026-01-19 12:54:35.22	210.65	10.42	-47.8	-69.6	3.8	7.44e-01	0	38	104	0	66	46433
2026-01-19 12:54:38.20	211.02	10.66	-47.8	-69.6	3.8	7.44e-01	0	38	104	0	66	46456
2026-01-19 12:54:41.18	211.40	10.89	-47.8	-69.6	3.8	7.45e-01	0	39	104	0	66	46448
2026-01-19 12:54:44.16	211.78	11.12	-47.8	-69.6	3.8	7.44e-01	0	38	104	0	66	46383
2026-01-19 12:54:47.14	212.17	11.36	-47.8	-69.6	3.8	7.45e-01	0	38	104	0	66	46391
2026-01-19 12:54:50.12	212.57	11.60	-47.8	-69.6	3.8	7.47e-01	0	38	104	0	66	46422
2026-01-19 12:54:53.09	212.97	11.83	-47.8	-69.6	3.8	7.44e-01	0	38	104	0	66	46431
2026-01-19 12:54:56.07	213.38	12.07	-47.8	-69.6	3.8	7.49e-01	0	39	104	0	66	46392
2026-01-19 12:54:59.05	213.80	12.31	-47.8	-69.6	3.8	7.46e-01	0	39	104	0	66	46428
2026-01-19 12:55:02.03	214.23	12.56	-47.8	-69.6	3.8	7.45e-01	0	39	104	0	66	46366
2026-01-19 12:55:05.01	214.66	12.80	-47.9	-69.6	3.8	7.46e-01	0	39	104	0	66	46412
2026-01-19 12:55:07.99	215.10	13.04	-47.9	-69.6	3.8	7.48e-01	0	38	104	0	66	46441
2026-01-19 12:55:10.97	215.55	13.29	-47.8	-69.6	3.8	7.48e-01	0	39	104	0	66	46373
2026-01-19 12:55:13.95	216.01	13.54	-47.8	-69.6	3.8	7.48e-01	0	39	104	0	66	46336
2026-01-19 12:55:16.93	216.47	13.79	-47.8	-69.6	3.8	7.45e-01	0	39	104	0	66	46321
2026-01-19 12:55:19.90	216.94	14.04	-47.8	-69.6	3.8	7.43e-01	0	39	104	0	66	46376
2026-01-19 12:55:22.89	217.42	14.29	-47.8	-69.6	3.8	7.45e-01	0	39	104	0	66	46373
2026-01-19 12:55:25.86	217.91	14.54	-47.8	-69.6	3.8	7.44e-01	0	39	104	0	66	46395
2026-01-19 12:55:28.84	218.41	14.79	-47.8	-69.6	3.8	7.47e-01	0	39	104	0	66	46475
2026-01-19 12:55:31.82	218.92	15.05	-47.8	-69.6	3.8	7.47e-01	0	39	104	0	66	46476
2026-01-19 12:55:34.80	219.43	15.30	-47.8	-69.6	3.8	7.46e-01	0	39	104	0	66	46334
2026-01-19 12:55:37.78	219.96	15.56	-47.8	-69.6	3.8	7.45e-01	0	39	104	0	66	46420
2026-01-19 12:55:40.76	220.49	15.81	-47.8	-69.6	3.8	7.46e-01	0	39	104	0	66	46457
2026-01-19 12:55:43.74	221.04	16.07	-47.8	-69.6	3.8	7.44e-01	0	39	104	0	66	46370
2026-01-19 12:55:46.72	221.59	16.33	-47.8	-69.6	3.8	7.44e-01	0	39	104	0	66	46356
2026-01-19 12:55:49.69	222.15	16.59	-47.8	-69.6	3.8	7.49e-01	0	39	104	0	66	46396
2026-01-19 12:55:52.67	222.73	16.85	-47.8	-69.6	3.8	7.46e-01	0	39	104	0	66	46291
2026-01-19 12:55:55.65	223.31	17.11	-47.8	-69.6	3.8	7.43e-01	0	39	104	0	66	46322
2026-01-19 12:55:58.63	223.91	17.37	-47.8	-69.6	3.8	7.46e-01	0	39	104	0	66	46389
2026-01-19 12:56:01.61	224.51	17.63	-47.8	-69.6	3.8	7.46e-01	0	39	104	0	66	46376
2026-01-19 12:56:04.59	225.13	17.88	-47.8	-69.6	3.8	7.46e-01	0	39	104	0	66	46379
2026-01-19 12:56:07.57	225.76	18.14	-47.8	-69.6	3.8	7.45e-01	0	39	104	0	66	46335
2026-01-19 12:56:10.54	226.39	18.40	-47.8	-69.6	3.8	7.48e-01	0	39	104	0	66	46250
2026-01-19 12:56:13.52	227.04	18.66	-47.8	-69.6	3.8	7.47e-01	0	39	104	0	66	46423
2026-01-19 12:56:16.50	227.70	18.92	-47.8	-69.6	3.8	7.44e-01	0	39	104	0	66	46304
2026-01-19 12:56:19.48	228.38	19.18	-47.8	-69.6	3.8	7.43e-01	0	39	104	0	66	46381
2026-01-19 12:56:22.46	229.06	19.44	-47.8	-69.6	3.8	7.47e-01	0	39	104	0	66	46392
2026-01-19 12:56:25.44	229.76	19.69	-47.8	-69.6	3.8	7.45e-01	0	39	104	0	66	46263
2026-01-19 12:56:28.42	230.47	19.95	-47.8	-69.6	3.8	7.44e-01	0	39	104	0	66	46219
2026-01-19 12:56:31.40	231.19	20.20	-47.8	-69.6	3.8	7.44e-01	0	39	104	0	66	46133
2026-01-19 12:56:34.37	231.92	20.45	-47.8	-69.6	3.8	7.47e-01	0	39	104	0	66	46088
2026-01-19 12:56:37.35	232.67	20.70	-47.8	-69.6	3.8	7.47e-01	0	39	104	0	66	46214
2026-01-19 12:56:40.33	233.43	20.95	-47.8	-69.6	3.8	7.47e-01	0	39	104	0	66	46326
2026-01-19 12:56:43.31	234.20	21.19	-47.8	-69.6	3.8	7.47e-01	0	39	104	0	66	46309
2026-01-19 12:56:46.29	234.98	21.44	-47.8	-69.6	3.8	7.44e-01	0	39	104	0	66	46297
2026-01-19 12:56:49.27	235.78	21.68	-47.8	-69.6	3.8	7.48e-01	0	39	104	0	66	46257
2026-01-19 12:56:52.25	236.59	21.91	-47.8	-69.6	3.8	7.45e-01	0	39	104	0	66	46257
2026-01-19 12:56:55.23	237.41	22.15	-47.8	-69.6	3.8	7.47e-01	0	39	104	0	66	46255
2026-01-19 12:56:58.21	238.24	22.38	-47.8	-69.6	3.8	7.45e-01	0	39	104	0	66	46302
2026-01-19 12:57:01.19	239.09	22.61	-47.8	-69.6	3.8	7.47e-01	0	39	104	0	66	46334
2026-01-19 12:57:04.16	239.95	22.83	-47.8	-69.6	3.8	7.47e-01	0	39	104	0	66	46228
2026-01-19 12:57:07.14	240.82	23.05	-47.8	-69.6	3.8	7.47e-01	0	39	104	0	66	46336
2026-01-19 12:57:10.12	241.70	23.26	-47.8	-69.6	3.8	7.44e-01	0	39	104	0	66	46310
2026-01-19 12:57:13.10	242.60	23.47	-47.8	-69.6	3.8	7.44e-01	0	39	104	0	66	46360
2026-01-19 12:57:16.08	243.51	23.67	-47.8	-69.6	3.8	7.44e-01	0	39	104	0	66	46319
2026-01-19 12:57:19.06	244.43	23.87	-47.8	-69.6	3.8	7.48e-01	0	39	104	0	66	46306
2026-01-19 12:57:22.04	245.37	24.06	-47.8	-69.6	3.8	7.45e-01	0	39	104	0	66	46361
2026-01-19 12:57:25.02	246.31	24.25	-47.8	-69.6	3.8	7.44e-01	0	39	104	0	66	46363
2026-01-19 12:57:28.00	247.27	24.43	-47.8	-69.6	3.8	7.46e-01	0	39	104	0	66	46236
2026-01-19 12:57:30.97	248.23	24.60	-47.8	-69.6	3.8	7.46e-01	0	39	104	0	66	46321
2026-01-19 12:57:33.95	249.21	24.76	-47.8	-69.6	3.8	7.46e-01	0	39	104	0	66	46317
2026-01-19 12:57:36.93	250.19	24.92	-47.8	-69.6	3.8	7.47e-01	0	39	104	0	66	46371
2026-01-19 12:57:39.91	251.19	25.07	-47.8	-69.6	3.8	7.42e-01	0	39	104	0	66	46305
2026-01-19 12:57:42.89	252.20	25.21	-47.8	-69.6	3.8	7.45e-01	0	39	104	0	66	46186
2026-01-19 12:57:45.87	253.21	25.35	-47.8	-69.6	3.8	7.46e-01	0	39	104	0	66	46260
2026-01-19 12:57:48.85	254.24	25.47	-47.8	-69.6	3.8	7.44e-01	0	39	104	0	66	46294
2026-01-19 12:57:51.83	255.27	25.59	-47.8	-69.6	3.8	7.45e-01	0	39	104	0	66	46276
2026-01-19 12:57:54.81	256.31	25.70	-47.8	-69.6	3.8	7.45e-01	0	39	104	0	66	46037
2026-01-19 12:57:57.79	257.36	25.79	-47.8	-69.6	3.8	7.47e-01	0	39	104	0	66	46200
2026-01-19 12:58:00.77	258.41	25.88	-47.7	-69.6	3.8	7.44e-01	0	39	104	0	66	46304
2026-01-19 12:58:03.74	259.47	25.96	-47.7	-69.6	3.8	7.47e-01	0	39	104	0	66	46240
2026-01-19 12:58:06.72	260.53	26.03	-47.8	-69.6	3.8	7.46e-01	0	39	104	0	66	46270
2026-01-19 12:58:09.70	261.60	26.09	-47.8	-69.6	3.8	7.49e-01	0	39	104	0	66	46283
2026-01-19 12:58:12.68	262.67	26.14	-47.8	-69.6	3.8	7.46e-01	0	39	104	0	66	46272
2026-01-19 12:58:15.66	263.74	26.18	-47.8	-69.6	3.8	7.45e-01	0	39	104	0	66	46347
2026-01-19 12:58:18.64	264.82	26.21	-47.8	-69.6	3.8	7.43e-01	0	39	104	0	66	46249
2026-01-19 12:58:21.62	265.90	26.23	-47.8	-69.6	3.8	7.48e-01	0	39	104	0	66	46068
2026-01-19 12:58:24.60	266.98	26.24	-47.8	-69.6	3.8	7.50e-01	0	39	104	0	66	46188
2026-01-19 12:58:27.58	268.06	26.23	-47.8	-69.6	3.8	7.47e-01	0	39	104	0	66	46323
2026-01-19 12:58:30.55	269.13	26.22	-47.8	-69.6	3.8	7.45e-01	0	39	104	0	66	46347
2026-01-19 12:58:33.53	270.21	26.20	-47.8	-69.6	3.8	7.49e-01	0	39	104	0	66	46357
2026-01-19 12:58:36.51	271.28	26.17	-47.8	-69.6	3.8	7.45e-01	0	39	104	0	66	46280
2026-01-19 12:58:39.49	272.36	26.12	-47.7	-69.6	3.8	7.47e-01	0	39	104	0	66	46302
2026-01-19 12:58:42.47	273.42	26.07	-47.8	-69.6	3.8	7.45e-01	0	39	104	0	66	46293
2026-01-19 12:58:45.45	274.49	26.01	-47.8	-69.6	3.8	7.46e-01	0	39	104	0	66	46212
2026-01-19 12:58:48.43	275.55	25.93	-47.8	-69.6	3.8	7.46e-01	0	39	104	0	66	46188
2026-01-19 12:58:51.40	276.60	25.85	-47.8	-69.6	3.8	7.44e-01	0	39	104	0	66	46182
2026-01-19 12:58:54.38	277.65	25.76	-47.8	-69.6	3.8	7.46e-01	0	39	104	0	66	46062
2026-01-19 12:58:57.36	278.69	25.66	-47.8	-69.4	3.8	7.44e-01	0	39	104	0	66	45335
2026-01-19 12:59:00.34	279.73	25.55	-47.8	-69.5	3.8	7.43e-01	0	39	104	0	66	45472
2026-01-19 12:59:03.32	280.75	25.43	-47.8	-69.5	3.8	7.46e-01	0	39	104	0	66	45846
2026-01-19 12:59:06.30	281.77	25.30	-47.8	-69.5	3.8	7.45e-01	0	39	104	0	66	45624
2026-01-19 12:59:09.27	282.78	25.17	-47.8	-69.5	3.8	7.45e-01	0	39	104	0	66	45804
2026-01-19 12:59:12.25	283.78	25.02	-47.8	-69.6	3.8	7.45e-01	0	39	104	0	66	46069
2026-01-19 12:59:15.23	284.77	24.87	-47.8	-69.4	3.8	7.43e-01	0	39	104	0	66	45447
2026-01-19 12:59:18.21	285.75	24.71	-47.6	-69.2	3.8	7.44e-01	0	39	104	0	66	44146
2026-01-19 12:59:21.19	286.72	24.54	-47.6	-69.0	3.8	7.49e-01	0	39	104	0	66	43399
2026-01-19 12:59:24.17	287.68	24.37	-47.7	-69.3	3.8	7.45e-01	0	39	104	0	66	44528
2026-01-19 12:59:27.15	288.63	24.19	-47.7	-69.3	3.8	7.50e-01	0	39	104	0	66	44727
2026-01-19 12:59:30.13	289.57	24.00	-47.7	-69.3	3.8	7.47e-01	0	39	104	0	66	44917
2026-01-19 12:59:33.11	290.49	23.81	-47.7	-69.4	3.8	7.44e-01	0	39	104	0	66	45410
2026-01-19 12:59:36.08	291.40	23.61	-47.8	-69.6	3.8	7.44e-01	0	39	104	0	66	46050
2026-01-19 12:59:39.06	292.31	23.41	-47.9	-69.6	3.8	7.47e-01	0	39	104	0	66	46364
2026-01-19 12:59:42.04	293.19	23.20	-47.8	-69.6	3.8	7.40e-01	0	39	104	0	66	46426
2026-01-19 12:59:45.02	294.07	22.99	-47.8	-69.6	3.8	7.46e-01	0	39	104	0	66	46442
2026-01-19 12:59:48.00	294.94	22.77	-47.8	-69.6	3.8	7.45e-01	0	39	104	0	66	46303
2026-01-19 12:59:50.98	295.79	22.54	-47.8	-69.6	3.8	7.46e-01	0	39	104	0	66	46363
2026-01-19 12:59:53.96	296.63	22.32	-47.9	-69.6	3.8	7.46e-01	0	39	104	0	66	46453
2026-01-19 12:59:56.93	297.45	22.09	-47.9	-69.6	3.8	7.47e-01	0	39	104	0	66	46417
2026-01-19 12:59:59.91	298.27	21.86	-47.8	-69.6	3.8	7.46e-01	0	39	104	0	66	46289
2026-01-19 13:00:02.89	299.07	21.62	-47.8	-69.6	3.8	7.42e-01	0	39	104	0	66	46470
2026-01-19 13:00:05.87	299.86	21.38	-47.8	-69.7	3.8	7.46e-01	0	39	104	0	66	46555
2026-01-19 13:00:08.85	300.63	21.14	-47.8	-69.6	3.8	7.43e-01	0	39	104	0	66	46443
2026-01-19 13:00:11.83	301.39	20.89	-47.9	-69.6	3.8	7.45e-01	0	39	104	0	66	46487
2026-01-19 13:00:14.81	302.15	20.65	-47.9	-69.6	3.8	7.50e-01	0	39	104	0	66	46491
2026-01-19 13:00:17.79	302.88	20.40	-47.8	-69.6	3.8	7.46e-01	0	39	104	0	66	46476
2026-01-19 13:00:20.77	303.61	20.15	-47.8	-69.6	3.8	7.43e-01	0	39	104	0	66	46396
2026-01-19 13:00:23.74	304.32	19.90	-47.8	-69.6	3.8	7.46e-01	0	39	104	0	66	46464
2026-01-19 13:00:26.72	305.02	19.64	-47.8	-69.6	3.8	7.48e-01	0	39	104	0	66	46457
2026-01-19 13:00:29.70	305.71	19.39	-47.9	-69.6	3.8	7.49e-01	0	39	104	0	66	46496
2026-01-19 13:00:32.68	306.39	19.13	-47.8	-69.6	3.8	7.49e-01	0	39	104	0	66	46496
2026-01-19 13:00:35.66	307.06	18.88	-47.8	-69.6	3.8	7.47e-01	0	39	104	0	66	46455
2026-01-19 13:00:38.64	307.71	18.62	-47.9	-69.6	3.8	7.44e-01	0	39	104	0	66	46472
2026-01-19 13:00:41.62	308.36	18.36	-47.8	-69.6	3.8	7.44e-01	0	39	104	0	66	46435
2026-01-19 13:00:44.60	308.99	18.11	-47.8	-69.6	3.8	7.45e-01	0	39	104	0	66	46500
2026-01-19 13:00:47.58	309.61	17.85	-47.8	-69.7	3.8	7.47e-01	0	39	104	0	66	46556
2026-01-19 13:00:50.55	310.22	17.59	-47.8	-69.7	3.8	7.46e-01	0	39	104	0	66	46537
2026-01-19 13:00:53.53	310.82	17.34	-47.8	-69.7	3.8	7.48e-01	0	39	104	0	66	46548
2026-01-19 13:00:56.51	311.41	17.08	-47.8	-69.7	3.8	7.44e-01	0	39	104	0	66	46537
2026-01-19 13:00:59.49	311.99	16.82	-47.9	-69.7	3.8	7.44e-01	0	39	104	0	66	46591
2026-01-19 13:01:02.47	312.55	16.57	-47.8	-69.7	3.8	7.48e-01	0	39	104	0	66	46559
2026-01-19 13:01:05.45	313.11	16.31	-47.9	-69.7	3.8	7.45e-01	0	39	104	0	66	46533
2026-01-19 13:01:08.43	313.66	16.05	-47.8	-69.7	3.8	7.48e-01	0	39	104	0	66	46594
2026-01-19 13:01:11.41	314.20	15.80	-47.9	-69.7	3.8	7.47e-01	0	39	104	0	66	46546
2026-01-19 13:01:14.39	314.73	15.54	-47.9	-69.7	3.8	7.44e-01	0	39	104	0	66	46546
2026-01-19 13:01:17.37	315.25	15.29	-47.9	-69.7	3.8	7.48e-01	0	39	104	0	66	46575
2026-01-19 13:01:20.35	315.76	15.04	-47.9	-69.7	3.8	7.44e-01	0	39	104	0	66	46676
2026-01-19 13:01:23.32	316.26	14.79	-47.9	-69.6	3.8	7.46e-01	0	39	104	0	66	46512
2026-01-19 13:01:26.30	316.76	14.54	-47.9	-69.6	3.8	7.50e-01	0	39	104	0	66	46481
2026-01-19 13:01:29.28	317.24	14.29	-47.9	-69.7	3.8	7.49e-01	0	39	104	0	66	46594
2026-01-19 13:01:32.26	317.72	14.04	-47.9	-69.7	3.8	7.46e-01	0	39	104	0	66	46548
2026-01-19 13:01:35.24	318.19	13.79	-47.8	-69.7	3.8	7.45e-01	0	39	104	0	66	46574
2026-01-19 13:01:38.22	318.65	13.55	-47.9	-69.7	3.8	7.41e-01	0	39	104	0	66	46564
2026-01-19 13:01:41.20	319.10	13.30	-47.9	-69.7	3.8	7.44e-01	0	39	104	0	66	46606
2026-01-19 13:01:44.17	319.54	13.06	-47.9	-69.7	3.8	7.45e-01	0	39	104	0	66	46547
2026-01-19 13:01:47.15	319.98	12.82	-47.9	-69.7	3.8	7.50e-01	0	39	104	0	66	46611
2026-01-19 13:01:50.13	320.41	12.58	-47.9	-69.7	3.8	7.48e-01	0	39	104	0	66	46583
2026-01-19 13:01:53.11	320.83	12.34	-47.9	-69.7	3.8	7.46e-01	0	39	104	0	66	46624
2026-01-19 13:01:56.09	321.25	12.10	-47.8	-69.7	3.8	7.46e-01	0	39	104	0	66	46634
2026-01-19 13:01:59.07	321.66	11.86	-47.9	-69.7	3.8	7.46e-01	0	39	104	0	66	46603
2026-01-19 13:02:02.05	322.06	11.62	-47.9	-69.7	3.8	7.42e-01	0	39	104	0	66	46604
2026-01-19 13:02:05.03	322.45	11.39	-47.9	-69.7	3.8	7.44e-01	0	39	104	0	66	46642
2026-01-19 13:02:08.01	322.84	11.16	-47.9	-69.7	3.8	7.47e-01	0	39	104	0	66	46574
2026-01-19 13:02:10.99	323.22	10.93	-47.9	-69.7	3.8	7.48e-01	0	39	104	0	66	46609
2026-01-19 13:02:13.97	323.60	10.70	-47.9	-69.7	3.8	7.48e-01	0	39	104	0	66	46610
2026-01-19 13:02:16.94	323.97	10.47	-47.9	-69.7	3.8	7.46e-01	0	39	104	0	66	46573
2026-01-19 13:02:19.92	324.33	10.24	-47.9	-69.7	3.8	7.45e-01	0	39	104	0	66	46554
2026-01-19 13:02:22.90	324.69	10.01	-47.8	-69.7	3.8	7.48e-01	0	39	104	0	66	46625
2026-01-19 13:02:25.88	325.04	9.79	-47.9	-69.7	3.8	7.46e-01	0	39	104	0	66	46618
2026-01-19 13:02:28.86	325.39	9.57	-47.9	-69.7	3.8	7.47e-01	0	39	104	0	66	46654
2026-01-19 13:02:31.84	325.73	9.34	-47.9	-69.7	3.8	7.44e-01	0	39	104	0	66	46533
2026-01-19 13:02:34.82	326.07	9.12	-47.9	-69.7	3.8	7.45e-01	0	39	104	0	66	46562
2026-01-19 13:02:37.80	326.40	8.91	-47.8	-69.7	3.8	7.47e-01	0	39	104	0	66	46563
2026-01-19 13:02:40.78	326.72	8.69	-47.9	-69.7	3.8	7.45e-01	0	39	104	0	66	46569
2026-01-19 13:02:43.75	327.04	8.47	-47.9	-69.7	3.8	7.47e-01	0	39	104	0	66	46660
2026-01-19 13:02:46.73	327.36	8.26	-47.9	-69.7	3.8	7.44e-01	0	39	104	0	66	46618
2026-01-19 13:02:49.71	327.67	8.04	-47.9	-69.7	3.8	7.43e-01	0	39	104	0	66	46602
2026-01-19 13:02:52.69	327.98	7.83	-47.9	-69.7	3.8	7.48e-01	0	39	104	0	66	46585
2026-01-19 13:02:55.67	328.28	7.62	-47.9	-69.6	3.8	7.46e-01	0	39	104	0	66	46506
2026-01-19 13:02:58.65	328.58	7.41	-47.9	-69.7	3.8	7.46e-01	0	39	104	0	66	46614
2026-01-19 13:03:01.63	328.87	7.20	-47.9	-69.7	3.8	7.48e-01	0	39	104	0	66	46630
2026-01-19 13:03:04.61	329.16	7.00	-47.9	-69.7	3.8	7.44e-01	0	39	104	0	66	46639
2026-01-19 13:03:07.59	329.44	6.79	-47.9	-69.7	3.8	7.46e-01	0	39	104	0	66	46598
2026-01-19 13:03:10.56	329.72	6.59	-47.3	-69.7	3.8	7.48e-01	0	39	104	0	66	46600
2026-01-19 13:03:13.54	330.00	6.38	-47.8	-69.7	3.8	7.47e-01	0	39	104	0	66	46534
2026-01-19 13:03:16.52	330.27	6.18	-47.7	-69.7	3.8	7.45e-01	0	39	104	0	66	46537
2026-01-19 13:03:19.50	330.54	5.98	-47.8	-69.7	3.8	7.46e-01	0	39	104	0	66	46645
2026-01-19 13:03:22.48	330.80	5.78	-47.8	-69.7	3.8	7.42e-01	0	39	104	0	66	46641
2026-01-19 13:03:25.45	331.06	5.59	-47.9	-69.7	3.8	7.45e-01	0	39	104	0	66	46688
2026-01-19 13:03:28.43	331.32	5.39	-47.9	-69.7	3.8	7.50e-01	0	39	104	0	66	46655
2026-01-19 13:03:31.41	331.58	5.19	-47.9	-69.7	3.8	7.44e-01	0	39	104	0	66	46633
2026-01-19 13:03:34.39	331.83	5.00	-47.9	-69.7	3.8	7.46e-01	0	39	104	0	66	46637

#Closed at: 2026-01-19 13:03:35
#Recorded file [0 MB]: D:/Data/31040_260119_155320.dat