passes_logs/2026/01/19/T1/T1__20260119_113235_SUOMI_NPP_rec.log

#Pass ID: 20260119_113235_SUOMI NPP
#Satellite: SUOMI NPP
#Configuration: NPP
#almurnet v.1.7.20251203
#Start time: 2026-01-19 11:32:35

#Version: 2.0.20230620
#Station: T1
#Location: 37.570604 lon 55.790049 lat
#TLE: 1 37849U 11061A   26018.91022273  .00000066  00000+0  52264-4 0  9997
#TLE: 2 37849  98.7816 320.9252 0002364  56.8129 303.3273 14.19526186737260

#Time	Az	El	Level	Level2	SNR	BER	BlckErr	Temp	State	Recorded	gain1	gain2
2026-01-19 11:32:35.84	210.94	5.03	-49.5	-65.2	3.8	1.49e+00	0	41	0	0	71	20786
2026-01-19 11:32:38.81	211.20	5.21	-49.6	-65.2	3.8	1.49e+00	0	41	104	0	70	22030
2026-01-19 11:32:41.79	211.46	5.38	-49.6	-65.2	3.8	1.49e+00	0	41	104	0	70	22126
2026-01-19 11:32:44.77	211.72	5.56	-49.6	-65.1	3.8	1.49e+00	0	41	104	0	70	21784
2026-01-19 11:32:47.75	211.99	5.74	-49.5	-65.1	3.8	1.49e+00	0	41	104	0	70	21772
2026-01-19 11:32:50.73	212.26	5.92	-49.5	-65.0	3.8	1.49e+00	0	42	104	0	70	21672
2026-01-19 11:32:53.71	212.54	6.10	-49.5	-65.1	3.8	1.49e+00	0	42	104	0	70	21790
2026-01-19 11:32:56.68	212.82	6.28	-49.5	-65.1	3.8	1.49e+00	0	42	104	0	70	21801
2026-01-19 11:32:59.66	213.10	6.46	-49.5	-65.1	3.8	1.49e+00	0	42	104	0	70	21954
2026-01-19 11:33:02.64	213.38	6.65	-49.5	-65.0	3.8	1.49e+00	0	42	104	0	70	21522
2026-01-19 11:33:05.62	213.67	6.83	-49.5	-65.0	3.8	1.49e+00	0	42	104	0	70	21530
2026-01-19 11:33:08.60	213.96	7.01	-49.5	-65.0	3.8	1.49e+00	0	42	104	0	70	21626
2026-01-19 11:33:11.58	214.26	7.20	-49.5	-65.0	3.8	1.49e+00	0	42	104	0	70	21613
2026-01-19 11:33:14.56	214.56	7.38	-49.5	-65.0	3.8	1.49e+00	0	42	104	0	70	21567
2026-01-19 11:33:17.54	214.86	7.57	-49.5	-65.0	3.8	1.49e+00	0	42	104	0	70	21573
2026-01-19 11:33:20.51	215.16	7.76	-49.4	-63.1	3.8	1.49e+00	0	42	104	0	70	17331
2026-01-19 11:33:23.49	215.47	7.94	-49.5	-64.2	3.8	1.49e+00	0	43	104	0	70	19788
2026-01-19 11:33:26.47	215.79	8.13	-49.1	-59.3	5.1	1.39e+00	0	42	0	0	70	11255
2026-01-19 11:33:29.45	216.11	8.32	-46.3	-50.7	13.0	2.91e-04	0	42	0	6291456	64	5861
2026-01-19 11:33:32.43	216.43	8.51	-44.7	-47.9	15.8	0.00e+00	0	43	0	11534336	61	5099
2026-01-19 11:33:35.41	216.75	8.70	-45.6	-49.3	14.5	0.00e+00	0	43	0	16777216	61	5975
2026-01-19 11:33:38.39	217.08	8.89	-47.7	-53.8	9.9	4.80e-03	0	43	0	23068672	65	7935
2026-01-19 11:33:41.36	217.42	9.08	-48.9	-58.6	5.6	3.45e-01	0	43	0	28311552	68	11656
2026-01-19 11:33:44.34	217.76	9.28	-49.2	-60.6	4.5	9.39e-01	0	43	0	33554432	69	13842
2026-01-19 11:33:47.32	218.10	9.47	-47.4	-52.5	11.3	8.65e-04	0	43	0	38797312	66	6467
2026-01-19 11:33:50.30	218.45	9.66	-46.3	-50.2	13.7	3.80e-06	0	43	0	45088768	63	5917
2026-01-19 11:33:53.28	218.80	9.86	-45.9	-49.6	14.4	0.00e+00	0	43	0	50331648	63	5496
2026-01-19 11:33:56.26	219.16	10.05	-45.4	-48.9	15.1	0.00e+00	0	43	0	55574528	62	5367
2026-01-19 11:33:59.24	219.52	10.25	-44.8	-48.1	15.7	0.00e+00	0	43	0	61865984	61	5216
2026-01-19 11:34:02.21	219.88	10.44	-44.9	-48.4	15.5	0.00e+00	0	43	0	67108864	61	5379
2026-01-19 11:34:05.19	220.25	10.64	-44.9	-48.3	15.6	0.00e+00	0	43	0	72351744	61	5308
2026-01-19 11:34:08.17	220.63	10.83	-44.6	-47.9	16.1	0.00e+00	0	43	0	78643200	61	5044
2026-01-19 11:34:11.15	221.01	11.03	-44.2	-47.1	16.8	0.00e+00	0	43	0	83886080	60	4898
2026-01-19 11:34:14.13	221.39	11.23	-44.2	-47.0	16.8	0.00e+00	0	43	0	89128960	60	4870
2026-01-19 11:34:17.11	221.78	11.43	-44.1	-46.8	17.1	0.00e+00	0	43	0	95420416	60	4740
2026-01-19 11:34:20.08	222.18	11.62	-43.7	-46.3	17.5	0.00e+00	0	43	0	100663296	59	4737
2026-01-19 11:34:23.06	222.58	11.82	-43.8	-46.4	17.4	0.00e+00	0	43	0	105906176	59	4798
2026-01-19 11:34:26.04	222.98	12.02	-43.6	-46.1	17.6	0.00e+00	0	43	0	112197632	59	4650
2026-01-19 11:34:29.02	223.40	12.22	-43.5	-46.0	17.8	0.00e+00	0	43	0	117440512	58	4830
2026-01-19 11:34:32.00	223.81	12.42	-43.7	-46.3	17.6	0.00e+00	0	43	0	122683392	58	4998
2026-01-19 11:34:34.98	224.24	12.62	-43.7	-46.3	17.6	0.00e+00	0	43	0	128974848	58	5016
2026-01-19 11:34:37.96	224.66	12.82	-43.9	-46.5	17.4	0.00e+00	0	43	0	134217728	58	5135
2026-01-19 11:34:40.93	225.10	13.02	-44.1	-46.8	17.1	0.00e+00	0	43	0	139460608	58	5324
2026-01-19 11:34:43.91	225.53	13.22	-44.1	-46.9	17.1	0.00e+00	0	43	0	145752064	59	5055
2026-01-19 11:34:46.89	225.98	13.42	-43.8	-46.4	17.5	0.00e+00	0	43	0	150994944	59	4811
2026-01-19 11:34:49.87	226.43	13.63	-43.8	-46.4	17.6	0.00e+00	0	43	0	156237824	59	4762
2026-01-19 11:34:52.85	226.89	13.83	-43.5	-46.0	17.9	0.00e+00	0	43	0	162529280	58	4815
2026-01-19 11:34:55.83	227.35	14.03	-43.4	-45.9	18.0	0.00e+00	0	43	0	167772160	58	4767
2026-01-19 11:34:58.80	227.82	14.23	-43.1	-45.6	18.3	0.00e+00	0	43	0	173015040	58	4603
2026-01-19 11:35:01.78	228.29	14.43	-43.1	-45.5	18.3	0.00e+00	0	43	0	179306496	58	4591
2026-01-19 11:35:04.76	228.78	14.63	-43.2	-45.6	18.3	0.00e+00	0	43	0	184549376	58	4610
2026-01-19 11:35:07.74	229.26	14.83	-43.4	-45.9	18.0	0.00e+00	0	43	0	189792256	58	4809
2026-01-19 11:35:10.72	229.76	15.03	-43.6	-46.2	17.8	0.00e+00	0	43	0	196083712	58	4956
2026-01-19 11:35:13.70	230.26	15.23	-43.7	-46.2	17.8	0.00e+00	0	43	0	201326592	58	4970
2026-01-19 11:35:16.68	230.77	15.43	-43.4	-45.9	18.0	0.00e+00	0	43	0	206569472	58	4801
2026-01-19 11:35:19.65	231.28	15.63	-43.3	-45.8	18.2	0.00e+00	0	43	0	212860928	58	4716
2026-01-19 11:35:22.63	231.80	15.82	-43.2	-45.6	18.3	0.00e+00	0	43	0	218103808	58	4634
2026-01-19 11:35:25.61	232.33	16.02	-43.2	-45.6	18.4	0.00e+00	0	44	0	223346688	58	4615
2026-01-19 11:35:28.59	232.86	16.22	-42.9	-45.3	18.6	0.00e+00	0	43	0	229638144	57	4727
2026-01-19 11:35:31.57	233.40	16.41	-43.0	-45.4	18.5	0.00e+00	0	43	0	234881024	57	4770
2026-01-19 11:35:34.55	233.95	16.61	-42.8	-45.2	18.7	0.00e+00	0	43	0	240123904	57	4678
2026-01-19 11:35:37.53	234.51	16.80	-43.2	-45.6	18.4	0.00e+00	0	43	0	245366784	57	4904
2026-01-19 11:35:40.51	235.07	17.00	-43.3	-45.8	18.2	0.00e+00	0	43	0	251658240	57	4989
2026-01-19 11:35:43.48	235.64	17.19	-43.3	-45.8	18.2	0.00e+00	0	43	0	256901120	57	5019
2026-01-19 11:35:46.46	236.21	17.38	-43.3	-45.8	18.1	0.00e+00	0	43	0	262144000	57	5026
2026-01-19 11:35:49.44	236.80	17.57	-43.7	-46.3	17.7	0.00e+00	0	44	0	268435456	58	5007
2026-01-19 11:35:52.42	237.39	17.75	-43.7	-46.3	17.8	0.00e+00	0	43	0	273678336	58	4991
2026-01-19 11:35:55.40	237.98	17.94	-43.5	-46.0	18.0	0.00e+00	0	43	0	278921216	58	4828
2026-01-19 11:35:58.38	238.59	18.13	-43.5	-45.9	18.1	0.00e+00	0	44	0	285212672	58	4796
2026-01-19 11:36:01.36	239.20	18.31	-43.3	-45.7	18.3	0.00e+00	0	43	0	290455552	58	4667
2026-01-19 11:36:04.34	239.82	18.49	-43.2	-45.5	18.4	0.00e+00	0	43	0	295698432	58	4595
2026-01-19 11:36:07.32	240.44	18.67	-43.7	-46.2	17.8	0.00e+00	0	43	0	301989888	58	4965
2026-01-19 11:36:10.30	241.08	18.85	-43.6	-46.2	17.8	0.00e+00	0	44	0	307232768	58	4928
2026-01-19 11:36:13.27	241.72	19.02	-43.4	-45.9	18.2	0.00e+00	0	43	0	312475648	58	4765
2026-01-19 11:36:16.25	242.36	19.19	-44.1	-46.7	17.4	0.00e+00	0	43	0	318767104	58	5250
2026-01-19 11:36:19.23	243.02	19.36	-43.9	-46.5	17.6	0.00e+00	0	43	0	324009984	59	4834
2026-01-19 11:36:22.21	243.68	19.53	-44.0	-46.6	17.5	0.00e+00	0	43	0	329252864	59	4903
2026-01-19 11:36:25.19	244.35	19.69	-44.6	-47.5	16.7	0.00e+00	0	43	0	335544320	60	5101
2026-01-19 11:36:28.17	245.03	19.86	-44.3	-47.0	17.2	0.00e+00	0	43	0	340787200	60	4825
2026-01-19 11:36:31.15	245.71	20.02	-44.2	-46.9	17.3	0.00e+00	0	43	0	346030080	60	4797
2026-01-19 11:36:34.12	246.39	20.17	-44.6	-47.4	16.9	0.00e+00	0	43	0	352321536	60	5053
2026-01-19 11:36:37.10	247.09	20.32	-44.4	-47.1	17.1	0.00e+00	0	43	0	357564416	60	4925
2026-01-19 11:36:40.08	247.79	20.47	-44.8	-47.6	16.6	0.00e+00	0	43	0	362807296	60	5211
2026-01-19 11:36:43.06	248.50	20.62	-44.5	-47.3	16.9	0.00e+00	0	43	0	369098752	60	5025
2026-01-19 11:36:46.04	249.22	20.76	-43.9	-46.5	17.6	0.00e+00	0	43	0	374341632	59	4838
2026-01-19 11:36:49.02	249.94	20.90	-43.8	-46.3	17.8	0.00e+00	0	43	0	379584512	59	4734
2026-01-19 11:36:52.00	250.67	21.04	-44.0	-46.6	17.5	0.00e+00	0	43	0	385875968	59	4885
2026-01-19 11:36:54.98	251.41	21.17	-44.9	-47.8	16.5	0.00e+00	0	44	0	391118848	60	5297
2026-01-19 11:36:57.96	252.15	21.29	-44.2	-46.8	17.4	0.00e+00	0	43	0	396361728	60	4738
2026-01-19 11:37:00.94	252.89	21.42	-43.7	-46.2	17.9	0.00e+00	0	43	0	402653184	59	4677
2026-01-19 11:37:03.91	253.64	21.53	-44.0	-46.6	17.5	0.00e+00	0	43	0	407896064	59	4908
2026-01-19 11:37:06.89	254.40	21.65	-44.1	-46.7	17.4	0.00e+00	0	43	0	413138944	59	4947
2026-01-19 11:37:09.87	255.16	21.76	-44.4	-47.2	17.0	0.00e+00	0	43	0	419430400	59	5245
2026-01-19 11:37:12.85	255.93	21.86	-43.5	-45.9	18.1	0.00e+00	0	43	0	424673280	59	4528
2026-01-19 11:37:15.83	256.71	21.96	-43.4	-45.9	18.2	0.00e+00	0	43	0	429916160	58	4771
2026-01-19 11:37:18.81	257.48	22.06	-43.7	-46.2	17.9	0.00e+00	0	43	0	436207616	58	4969
2026-01-19 11:37:21.79	258.27	22.15	-43.6	-46.1	18.0	0.00e+00	0	43	0	441450496	58	4894
2026-01-19 11:37:24.76	259.05	22.23	-43.4	-45.8	18.2	0.00e+00	0	43	0	446693376	58	4758
2026-01-19 11:37:27.74	259.84	22.31	-43.5	-46.0	18.1	0.00e+00	0	43	0	452984832	58	4821
2026-01-19 11:37:30.72	260.64	22.38	-44.0	-46.6	17.5	0.00e+00	0	43	0	458227712	58	5175
2026-01-19 11:37:33.70	261.43	22.45	-44.0	-46.5	17.6	0.00e+00	0	43	0	463470592	58	5155
2026-01-19 11:37:36.68	262.23	22.52	-44.4	-47.2	17.0	0.00e+00	0	43	0	469762048	59	5235
2026-01-19 11:37:39.66	263.04	22.57	-43.8	-46.3	17.8	0.00e+00	0	43	0	475004928	59	4743
2026-01-19 11:37:42.64	263.85	22.62	-44.1	-46.7	17.3	0.00e+00	0	43	0	480247808	59	4967
2026-01-19 11:37:45.61	264.65	22.67	-43.5	-46.0	18.1	0.00e+00	0	43	0	486539264	59	4566
2026-01-19 11:37:48.59	265.46	22.71	-43.5	-46.0	18.1	0.00e+00	0	43	0	491782144	58	4863
2026-01-19 11:37:51.57	266.28	22.75	-44.2	-46.9	17.2	0.00e+00	0	43	0	497025024	59	5088
2026-01-19 11:37:54.55	267.09	22.78	-43.5	-46.0	18.1	0.00e+00	0	43	0	503316480	59	4559
2026-01-19 11:37:57.53	267.91	22.80	-43.8	-46.4	17.7	0.00e+00	0	43	0	508559360	59	4777
2026-01-19 11:38:00.51	268.73	22.82	-43.4	-45.8	18.2	0.00e+00	0	43	0	513802240	58	4743
2026-01-19 11:38:03.49	269.54	22.83	-43.6	-46.1	17.9	0.00e+00	0	43	0	519045120	58	4905
2026-01-19 11:38:06.46	270.36	22.83	-43.6	-46.1	18.0	0.00e+00	0	43	0	525336576	58	4905
2026-01-19 11:38:09.44	271.18	22.83	-44.1	-46.7	17.5	0.00e+00	0	43	0	530579456	58	5268
2026-01-19 11:38:12.42	272.00	22.83	-44.3	-46.9	17.2	0.00e+00	0	43	0	535822336	59	5093
2026-01-19 11:38:15.40	272.81	22.81	-44.2	-46.9	17.2	0.00e+00	0	43	0	542113792	59	5069
2026-01-19 11:38:18.38	273.63	22.79	-43.7	-46.2	17.9	0.00e+00	0	43	0	547356672	59	4677
2026-01-19 11:38:21.36	274.45	22.77	-43.7	-46.2	17.9	0.00e+00	0	43	0	552599552	59	4683
2026-01-19 11:38:24.34	275.26	22.74	-43.6	-46.1	18.0	0.00e+00	0	43	0	558891008	59	4642
2026-01-19 11:38:27.31	276.07	22.70	-43.4	-45.9	18.2	0.00e+00	0	43	0	564133888	58	4765
2026-01-19 11:38:30.29	276.88	22.66	-43.1	-45.4	18.6	0.00e+00	0	43	0	569376768	57	4794
2026-01-19 11:38:33.27	277.69	22.62	-42.9	-45.2	18.8	0.00e+00	0	43	0	575668224	57	4681
2026-01-19 11:38:36.25	278.49	22.56	-43.1	-45.5	18.6	0.00e+00	0	43	0	580911104	57	4834
2026-01-19 11:38:39.23	279.29	22.50	-43.4	-45.9	18.2	0.00e+00	0	43	0	586153984	57	5054
2026-01-19 11:38:42.21	280.09	22.44	-43.2	-45.6	18.5	0.00e+00	0	43	0	592445440	57	4891
2026-01-19 11:38:45.19	280.89	22.37	-43.5	-46.0	18.1	0.00e+00	0	43	0	597688320	57	5112
2026-01-19 11:38:48.16	281.68	22.30	-43.5	-46.0	18.2	0.00e+00	0	43	0	602931200	58	4818
2026-01-19 11:38:51.14	282.47	22.21	-43.5	-45.9	18.2	0.00e+00	0	43	0	609222656	58	4786
2026-01-19 11:38:54.12	283.25	22.13	-44.0	-46.5	17.6	0.00e+00	0	43	0	614465536	58	5143
2026-01-19 11:38:57.10	284.03	22.04	-43.2	-45.6	18.5	0.00e+00	0	43	0	619708416	58	4611
2026-01-19 11:39:00.08	284.81	21.94	-43.0	-45.3	18.7	0.00e+00	0	43	0	625999872	57	4744
2026-01-19 11:39:03.06	285.58	21.84	-43.0	-45.4	18.6	0.00e+00	0	43	0	631242752	57	4796
2026-01-19 11:39:06.04	286.34	21.74	-43.0	-45.4	18.7	0.00e+00	0	43	0	636485632	57	4764
2026-01-19 11:39:09.01	287.10	21.63	-42.8	-45.1	18.9	0.00e+00	0	43	0	642777088	57	4614
2026-01-19 11:39:11.99	287.85	21.52	-43.0	-45.3	18.7	0.00e+00	0	43	0	648019968	57	4746
2026-01-19 11:39:14.97	288.60	21.40	-42.9	-45.2	18.8	0.00e+00	0	43	0	653262848	57	4701
2026-01-19 11:39:17.95	289.34	21.27	-43.0	-45.4	18.6	0.00e+00	0	43	0	659554304	57	4779
2026-01-19 11:39:20.93	290.08	21.15	-43.2	-45.6	18.4	0.00e+00	0	43	0	664797184	57	4922
2026-01-19 11:39:23.91	290.81	21.02	-43.0	-45.3	18.7	0.00e+00	0	43	0	670040064	57	4751
2026-01-19 11:39:26.89	291.54	20.88	-42.8	-45.1	18.8	0.00e+00	0	43	0	676331520	57	4630
2026-01-19 11:39:29.86	292.25	20.74	-42.6	-44.9	19.1	0.00e+00	0	43	0	681574400	56	4775
2026-01-19 11:39:32.84	292.97	20.60	-42.8	-45.1	18.9	0.00e+00	0	43	0	686817280	56	4913
2026-01-19 11:39:35.82	293.67	20.46	-43.1	-45.4	18.6	0.00e+00	0	43	0	693108736	56	5092
2026-01-19 11:39:38.80	294.37	20.31	-43.1	-45.5	18.6	0.00e+00	0	43	0	698351616	57	4823
2026-01-19 11:39:41.78	295.06	20.15	-43.3	-45.8	18.3	0.00e+00	0	43	0	703594496	57	4992
2026-01-19 11:39:44.76	295.75	20.00	-43.7	-46.2	17.9	0.00e+00	0	43	0	709885952	58	4927
2026-01-19 11:39:47.74	296.43	19.84	-43.2	-45.5	18.5	0.00e+00	0	43	0	715128832	58	4595
2026-01-19 11:39:50.72	297.10	19.68	-43.1	-45.5	18.5	0.00e+00	0	43	0	720371712	57	4843
2026-01-19 11:39:53.70	297.76	19.51	-43.2	-45.7	18.4	0.00e+00	0	43	0	726663168	57	4931
2026-01-19 11:39:56.67	298.42	19.35	-44.4	-47.2	16.9	0.00e+00	0	43	0	731906048	59	5264
2026-01-19 11:39:59.65	299.07	19.18	-44.8	-47.8	16.5	0.00e+00	0	43	0	737148928	60	5287
2026-01-19 11:40:02.63	299.71	19.01	-44.5	-47.3	17.0	0.00e+00	0	43	0	743440384	60	4995
2026-01-19 11:40:05.61	300.35	18.83	-44.5	-47.2	17.0	0.00e+00	0	43	0	748683264	60	4956
2026-01-19 11:40:08.59	300.98	18.66	-44.4	-47.2	17.0	0.00e+00	0	43	0	753926144	60	4968
2026-01-19 11:40:11.57	301.60	18.48	-44.1	-46.8	17.4	0.00e+00	0	43	0	760217600	60	4747
2026-01-19 11:40:14.55	302.21	18.30	-44.0	-46.7	17.5	0.00e+00	0	43	0	765460480	60	4695
2026-01-19 11:40:17.52	302.82	18.12	-44.3	-47.0	17.1	0.00e+00	0	43	0	770703360	59	5133
2026-01-19 11:40:20.50	303.42	17.94	-45.0	-48.0	16.3	0.00e+00	0	43	0	776994816	60	5431
2026-01-19 11:40:23.48	304.01	17.75	-45.5	-48.8	15.5	0.00e+00	0	43	0	782237696	61	5613
2026-01-19 11:40:26.46	304.60	17.56	-45.1	-48.1	16.1	0.00e+00	0	43	0	787480576	61	5201
2026-01-19 11:40:29.44	305.18	17.38	-44.5	-47.4	16.8	0.00e+00	0	43	0	793772032	60	5070
2026-01-19 11:40:32.42	305.75	17.19	-44.8	-47.8	16.4	0.00e+00	0	43	0	799014912	60	5327
2026-01-19 11:40:35.40	306.32	17.00	-45.1	-48.1	16.0	0.00e+00	0	43	0	804257792	60	5524
2026-01-19 11:40:38.38	306.88	16.81	-44.6	-47.4	16.8	0.00e+00	0	43	0	809500672	60	5073
2026-01-19 11:40:41.35	307.43	16.61	-44.4	-47.1	17.0	0.00e+00	0	43	0	815792128	60	4922
2026-01-19 11:40:44.33	307.97	16.42	-44.5	-47.3	16.8	0.00e+00	0	43	0	821035008	60	5037
2026-01-19 11:40:47.31	308.51	16.23	-44.2	-46.9	17.2	0.00e+00	0	42	0	826277888	60	4772
2026-01-19 11:40:50.29	309.04	16.03	-44.4	-47.2	16.9	0.00e+00	0	43	0	832569344	60	4967
2026-01-19 11:40:53.27	309.56	15.84	-44.9	-48.0	16.1	0.00e+00	0	43	0	837812224	60	5433
2026-01-19 11:40:56.25	310.08	15.64	-44.4	-47.2	16.9	0.00e+00	0	43	0	843055104	60	4982
2026-01-19 11:40:59.23	310.59	15.44	-44.0	-46.8	17.3	0.00e+00	0	43	0	849346560	59	4987
2026-01-19 11:41:02.21	311.10	15.25	-44.3	-47.1	16.9	0.00e+00	0	43	0	854589440	59	5212
2026-01-19 11:41:05.18	311.59	15.05	-44.5	-47.4	16.8	0.00e+00	0	43	0	859832320	60	5061
2026-01-19 11:41:08.16	312.08	14.85	-44.1	-46.9	17.2	0.00e+00	0	43	0	866123776	60	4779
2026-01-19 11:41:11.14	312.57	14.65	-44.3	-47.1	16.9	0.00e+00	0	43	0	871366656	60	4905
2026-01-19 11:41:14.12	313.05	14.45	-44.8	-47.9	16.2	0.00e+00	0	43	0	876609536	60	5397
2026-01-19 11:41:17.10	313.52	14.26	-44.8	-48.0	16.1	0.00e+00	0	43	0	882900992	60	5461
2026-01-19 11:41:20.08	313.99	14.06	-44.2	-47.0	17.0	0.00e+00	0	43	0	888143872	60	4853
2026-01-19 11:41:23.05	314.45	13.86	-43.7	-46.3	17.7	0.00e+00	0	43	0	893386752	59	4735
2026-01-19 11:41:26.03	314.90	13.66	-43.6	-46.2	17.8	0.00e+00	0	43	0	899678208	58	4944
2026-01-19 11:41:29.01	315.35	13.46	-43.5	-46.0	17.9	0.00e+00	0	43	0	904921088	58	4832
2026-01-19 11:41:31.99	315.79	13.26	-43.0	-45.5	18.4	0.00e+00	0	43	0	910163968	58	4573
2026-01-19 11:41:34.97	316.23	13.06	-43.4	-46.0	18.0	0.00e+00	0	43	0	916455424	58	4815
2026-01-19 11:41:37.95	316.66	12.86	-44.1	-46.9	17.1	0.00e+00	0	43	0	921698304	58	5351
2026-01-19 11:41:40.93	317.09	12.67	-44.5	-47.4	16.6	0.00e+00	0	43	0	926941184	59	5348
2026-01-19 11:41:43.90	317.51	12.47	-44.3	-47.1	16.8	0.00e+00	0	43	0	933232640	59	5210
2026-01-19 11:41:46.88	317.92	12.27	-44.5	-47.3	16.6	0.00e+00	0	43	0	938475520	59	5322
2026-01-19 11:41:49.86	318.33	12.07	-44.8	-47.8	16.2	0.00e+00	0	43	0	943718400	60	5324
2026-01-19 11:41:52.84	318.74	11.88	-44.6	-47.6	16.4	0.00e+00	0	43	0	950009856	60	5192
2026-01-19 11:41:55.82	319.13	11.68	-43.7	-46.5	17.4	0.00e+00	0	43	0	955252736	59	4854
2026-01-19 11:41:58.80	319.53	11.48	-43.4	-46.1	17.8	0.00e+00	0	43	0	960495616	58	4901
2026-01-19 11:42:01.77	319.92	11.29	-43.6	-46.4	17.5	0.00e+00	0	43	0	966787072	58	5099
2026-01-19 11:42:04.75	320.30	11.09	-43.9	-46.7	17.2	0.00e+00	0	43	0	972029952	58	5242
2026-01-19 11:42:07.73	320.68	10.90	-44.1	-47.0	16.9	0.00e+00	0	43	0	977272832	58	5409
2026-01-19 11:42:10.71	321.05	10.70	-44.1	-47.1	16.9	0.00e+00	0	42	0	983564288	58	5471
2026-01-19 11:42:13.69	321.42	10.51	-44.5	-47.7	16.3	0.00e+00	0	43	0	988807168	59	5533
2026-01-19 11:42:16.67	321.79	10.31	-44.8	-48.1	15.8	0.00e+00	0	43	0	994050048	60	5527
2026-01-19 11:42:19.65	322.15	10.12	-45.0	-48.3	15.7	0.00e+00	0	43	0	1000341504	60	5600
2026-01-19 11:42:22.63	322.50	9.93	-44.3	-47.3	16.7	0.00e+00	0	43	0	1005584384	60	5012
2026-01-19 11:42:25.60	322.85	9.74	-43.9	-46.8	17.1	0.00e+00	0	43	0	1010827264	59	4996
2026-01-19 11:42:28.58	323.20	9.55	-43.5	-46.3	17.5	0.00e+00	0	43	0	1016070144	58	5038
2026-01-19 11:42:31.56	323.54	9.36	-43.7	-46.7	17.1	0.00e+00	0	43	0	1022361600	58	5233
2026-01-19 11:42:34.54	323.88	9.17	-44.1	-47.4	16.5	0.00e+00	0	43	0	1027604480	58	5681
2026-01-19 11:42:37.52	324.22	8.98	-44.9	-48.7	15.3	0.00e+00	0	43	0	1032847360	60	5920
2026-01-19 11:42:40.50	324.55	8.79	-49.9	-65.7	3.8	1.49e+00	0	42	104	1033895936	70	23475
2026-01-19 11:42:43.48	324.87	8.60	-50.0	-65.9	3.8	1.49e+00	0	42	104	1033895936	71	22664
2026-01-19 11:42:46.46	325.19	8.41	-50.4	-65.9	3.8	1.49e+00	0	43	104	1033895936	71	22634
2026-01-19 11:42:49.43	325.51	8.23	-50.6	-66.0	3.8	1.49e+00	0	43	104	1033895936	71	22872
2026-01-19 11:42:52.41	325.82	8.04	-50.7	-65.9	3.8	1.49e+00	0	43	104	1033895936	72	21482
2026-01-19 11:42:55.39	326.13	7.85	-50.7	-65.9	3.8	1.49e+00	0	43	104	1033895936	72	21404
2026-01-19 11:42:58.37	326.44	7.67	-50.3	-65.9	3.8	1.49e+00	0	43	104	1033895936	72	21270
2026-01-19 11:43:01.35	326.74	7.48	-50.2	-65.8	3.8	1.49e+00	0	43	104	1033895936	72	21201
2026-01-19 11:43:04.33	327.04	7.30	-50.3	-65.8	3.8	1.49e+00	0	43	104	1033895936	72	21227
2026-01-19 11:43:07.30	327.34	7.12	-50.2	-65.8	3.8	1.49e+00	0	43	104	1033895936	72	21152
2026-01-19 11:43:10.28	327.63	6.94	-50.2	-65.8	3.8	1.49e+00	0	42	104	1033895936	72	21128
2026-01-19 11:43:13.26	327.92	6.76	-50.2	-65.8	3.8	1.49e+00	0	43	104	1033895936	72	21146
2026-01-19 11:43:16.24	328.20	6.57	-50.2	-65.8	3.8	1.49e+00	0	42	104	1033895936	72	21189
2026-01-19 11:43:19.22	328.48	6.39	-50.2	-65.8	3.8	1.49e+00	0	42	104	1033895936	72	21225
2026-01-19 11:43:22.20	328.76	6.22	-50.2	-65.8	3.8	1.49e+00	0	43	104	1033895936	72	21123
2026-01-19 11:43:25.18	329.04	6.04	-50.1	-65.8	3.8	1.49e+00	0	43	104	1033895936	72	21148
2026-01-19 11:43:28.15	329.31	5.86	-46.8	-65.6	3.8	1.49e+00	0	43	104	1033895936	65	31033
2026-01-19 11:43:31.13	329.58	5.68	-50.1	-65.8	3.8	1.49e+00	0	42	104	1033895936	70	23749
2026-01-19 11:43:34.11	329.84	5.51	-50.2	-65.8	3.8	1.49e+00	0	43	104	1033895936	71	22402
2026-01-19 11:43:37.09	330.11	5.33	-50.2	-65.8	3.8	1.49e+00	0	42	104	1033895936	71	22353
2026-01-19 11:43:40.07	330.37	5.15	-50.2	-65.8	3.8	1.49e+00	0	43	104	1033895936	71	22395
2026-01-19 11:43:43.05	330.62	4.98	-50.2	-65.8	3.8	1.49e+00	0	42	104	1033895936	71	22445

#Closed at: 2026-01-19 11:43:44
#Recorded file [1033 MB]: D:/Data/31040_260119_143235.dat