passes_logs/2026/01/19/T1/T1__20260119_060356_FENGYUN_3E_rec.log

#Pass ID: 20260119_060356_FENGYUN 3E
#Satellite: FENGYUN 3E
#Configuration: FENGYUN 3E
#almurnet v.1.7.20251203
#Start time: 2026-01-19 06:03:58

#Version: 2.0.20230620
#Station: T1
#Location: 37.570604 lon 55.790049 lat
#TLE: 1 49008U 21062A   26017.96535346 -.00000182  00000+0 -64922-4 0  9998
#TLE: 2 49008  98.7483  23.0589 0002171 131.9722 228.1640 14.19885139235265

#Time	Az	El	Level	Level2	SNR	BER	BlckErr	Temp	State	Recorded	gain1	gain2
2026-01-19 06:03:58.28	3.83	5.12	-47.1	-60.9	3.8	8.47e-01	0	39	0	0	65	16831
2026-01-19 06:04:01.27	3.54	5.29	-45.2	-60.8	3.8	8.47e-01	0	39	104	0	59	23514
2026-01-19 06:04:04.26	3.24	5.45	-45.2	-60.8	3.8	8.47e-01	0	40	104	0	59	23312
2026-01-19 06:04:07.24	2.93	5.61	-45.2	-60.7	3.8	8.46e-01	0	40	104	0	59	23113
2026-01-19 06:04:10.24	2.63	5.78	-45.2	-60.7	3.8	8.47e-01	0	40	104	0	59	23112
2026-01-19 06:04:13.23	2.32	5.94	-45.2	-60.7	3.8	8.46e-01	0	40	104	0	59	23149
2026-01-19 06:04:16.22	2.00	6.10	-45.2	-60.8	3.8	8.47e-01	0	40	104	0	59	23313
2026-01-19 06:04:19.22	1.68	6.27	-45.2	-60.8	3.8	8.47e-01	0	40	104	0	59	23376
2026-01-19 06:04:22.21	1.36	6.43	-45.2	-60.8	3.8	8.46e-01	0	40	104	0	59	23453
2026-01-19 06:04:25.20	1.04	6.60	-45.2	-60.8	3.8	8.47e-01	0	40	104	0	59	23491
2026-01-19 06:04:28.20	0.71	6.76	-45.2	-60.8	3.8	8.48e-01	0	40	104	0	59	23551
2026-01-19 06:04:31.19	0.37	6.93	-45.2	-60.8	3.8	8.47e-01	0	41	104	0	59	23428
2026-01-19 06:04:34.18	0.04	7.09	-45.2	-60.7	3.8	8.46e-01	0	41	104	0	59	23268
2026-01-19 06:04:37.18	359.69	7.26	-45.2	-60.7	3.8	8.47e-01	0	41	104	0	59	23227
2026-01-19 06:04:40.17	359.35	7.42	-45.2	-60.6	3.8	8.47e-01	0	41	104	0	59	23021
2026-01-19 06:04:43.17	359.00	7.59	-45.2	-60.8	3.8	8.47e-01	0	41	104	0	59	23326
2026-01-19 06:04:46.15	358.65	7.75	-45.2	-60.7	3.8	8.46e-01	0	41	104	0	59	23132
2026-01-19 06:04:49.15	358.29	7.92	-45.2	-60.7	3.8	8.47e-01	0	41	104	0	59	23289
2026-01-19 06:04:52.14	357.93	8.08	-45.2	-60.3	3.8	8.47e-01	0	41	104	0	59	22176
2026-01-19 06:04:55.13	357.56	8.25	-45.2	-59.4	3.8	8.47e-01	0	41	104	0	59	19964
2026-01-19 06:04:58.13	357.19	8.41	-45.1	-59.1	3.8	8.45e-01	0	41	104	0	59	19207
2026-01-19 06:05:01.12	356.82	8.58	-44.9	-56.2	4.5	8.27e-01	0	41	0	0	59	13795
2026-01-19 06:05:04.11	356.44	8.74	-43.9	-49.9	9.6	2.27e-02	0	41	0	13631488	58	7086
2026-01-19 06:05:07.11	356.05	8.91	-41.6	-44.8	14.7	0.00e+00	0	41	0	35651584	54	4958
2026-01-19 06:05:10.10	355.67	9.07	-41.3	-44.1	15.5	0.00e+00	0	41	0	56623104	52	5147
2026-01-19 06:05:13.10	355.27	9.24	-45.5	-51.2	8.3	4.52e-02	0	41	0	78643200	60	7330
2026-01-19 06:05:16.09	354.88	9.40	-39.1	-41.1	18.4	0.00e+00	0	41	0	100663296	48	4591
2026-01-19 06:05:19.08	354.48	9.56	-38.8	-40.6	19.0	0.00e+00	0	41	0	121634816	48	4296
2026-01-19 06:05:22.07	354.07	9.73	-38.7	-40.4	19.2	0.00e+00	0	42	0	143654912	48	4217
2026-01-19 06:05:25.06	353.66	9.89	-38.9	-40.3	19.3	0.00e+00	0	41	0	164626432	48	4179
2026-01-19 06:05:28.05	353.24	10.05	-39.1	-40.5	19.2	0.00e+00	0	41	0	186646528	48	4246
2026-01-19 06:05:31.04	352.82	10.22	-39.2	-40.6	19.0	0.00e+00	0	41	0	208666624	48	4329
2026-01-19 06:05:34.03	352.40	10.38	-39.1	-40.8	18.9	0.00e+00	0	41	0	229638144	48	4397
2026-01-19 06:05:37.02	351.97	10.54	-39.0	-40.7	19.0	0.00e+00	0	41	0	251658240	48	4358
2026-01-19 06:05:40.02	351.53	10.70	-38.9	-40.7	19.0	0.00e+00	0	42	0	272629760	48	4352
2026-01-19 06:05:43.01	351.09	10.86	-39.2	-40.7	18.9	0.00e+00	0	41	0	294649856	48	4390
2026-01-19 06:05:46.00	350.65	11.02	-39.0	-40.4	19.3	0.00e+00	0	42	0	316669952	48	4234
2026-01-19 06:05:48.99	350.20	11.18	-39.1	-40.3	19.4	0.00e+00	0	41	0	337641472	48	4178
2026-01-19 06:05:51.99	349.74	11.34	-39.1	-40.3	19.4	0.00e+00	0	42	0	359661568	48	4170
2026-01-19 06:05:54.99	349.28	11.50	-39.0	-40.2	19.5	0.00e+00	0	41	0	381681664	48	4143
2026-01-19 06:05:57.97	348.82	11.65	-39.1	-40.4	19.3	0.00e+00	0	42	0	402653184	48	4208
2026-01-19 06:06:00.97	348.35	11.81	-39.2	-40.5	19.2	0.00e+00	0	41	0	423624704	48	4279
2026-01-19 06:06:03.96	347.87	11.97	-39.0	-40.3	19.4	0.00e+00	0	42	0	445644800	48	4173
2026-01-19 06:06:06.96	347.39	12.12	-39.0	-40.2	19.5	0.00e+00	0	42	0	467664896	48	4110
2026-01-19 06:06:09.95	346.90	12.27	-38.8	-39.9	19.8	0.00e+00	0	41	0	488636416	48	3992
2026-01-19 06:06:12.95	346.41	12.43	-39.0	-40.0	19.7	0.00e+00	0	42	0	510656512	48	4034
2026-01-19 06:06:15.95	345.92	12.58	-38.9	-39.9	19.8	0.00e+00	0	42	0	532676608	48	3998
2026-01-19 06:06:18.93	345.42	12.73	-38.8	-39.9	19.8	0.00e+00	0	42	0	553648128	48	3989
2026-01-19 06:06:21.93	344.91	12.88	-38.6	-39.7	20.0	0.00e+00	0	42	0	575668224	48	3894
2026-01-19 06:06:24.93	344.40	13.02	-38.3	-39.4	20.0	0.00e+00	0	42	0	596639744	47	3970
2026-01-19 06:06:27.93	343.88	13.17	-38.3	-39.4	20.1	0.00e+00	0	42	0	618659840	47	3973
2026-01-19 06:06:30.93	343.35	13.31	-38.2	-39.4	20.1	0.00e+00	0	42	0	640679936	47	3963
2026-01-19 06:06:33.91	342.83	13.46	-38.4	-39.5	20.0	0.00e+00	0	42	0	661651456	47	4026
2026-01-19 06:06:36.90	342.30	13.60	-38.4	-39.5	20.0	0.00e+00	0	42	0	683671552	47	4016
2026-01-19 06:06:39.90	341.76	13.74	-38.3	-39.4	20.1	0.00e+00	0	42	0	705691648	47	3970
2026-01-19 06:06:42.90	341.21	13.87	-38.3	-39.4	20.0	0.00e+00	0	42	0	726663168	47	3973
2026-01-19 06:06:45.89	340.67	14.01	-38.3	-39.4	20.1	0.00e+00	0	42	0	748683264	47	3965
2026-01-19 06:06:48.89	340.11	14.14	-38.3	-39.3	20.1	0.00e+00	0	42	0	770703360	47	3943
2026-01-19 06:06:51.88	339.55	14.28	-38.0	-39.0	20.4	0.00e+00	0	42	0	791674880	46	4045
2026-01-19 06:06:54.87	338.99	14.41	-38.0	-39.0	20.4	0.00e+00	0	42	0	813694976	46	4050
2026-01-19 06:06:57.87	338.42	14.53	-38.1	-39.2	20.3	0.00e+00	0	42	0	834666496	46	4099
2026-01-19 06:07:00.86	337.85	14.66	-38.1	-39.2	20.3	0.00e+00	0	42	0	856686592	46	4113
2026-01-19 06:07:03.86	337.27	14.78	-38.2	-39.2	20.3	0.00e+00	0	42	0	878706688	46	4127
2026-01-19 06:07:06.84	336.69	14.90	-38.1	-39.0	20.4	0.00e+00	0	42	0	899678208	46	4038
2026-01-19 06:07:09.83	336.10	15.02	-38.1	-39.1	20.4	0.00e+00	0	42	0	921698304	46	4077
2026-01-19 06:07:12.82	335.51	15.14	-38.1	-39.1	20.4	0.00e+00	0	42	0	942669824	46	4066
2026-01-19 06:07:15.81	334.91	15.25	-38.2	-39.2	20.3	0.00e+00	0	42	0	964689920	46	4127
2026-01-19 06:07:18.80	334.31	15.36	-38.0	-38.9	20.5	0.00e+00	0	42	0	985661440	46	3996
2026-01-19 06:07:21.80	333.70	15.47	-37.8	-38.8	20.6	0.00e+00	0	42	0	1007681536	46	3939
2026-01-19 06:07:24.78	333.10	15.58	-37.8	-38.8	20.6	0.00e+00	0	42	0	1029701632	46	3928
2026-01-19 06:07:27.78	332.48	15.68	-37.7	-38.7	20.8	0.00e+00	0	42	0	1050673152	46	3878
2026-01-19 06:07:30.77	331.86	15.78	-37.8	-38.7	20.7	0.00e+00	0	42	0	1072693248	46	3902
2026-01-19 06:07:33.76	331.24	15.88	-38.0	-38.9	20.5	0.00e+00	0	42	0	1093664768	46	3999
2026-01-19 06:07:36.76	330.61	15.97	-37.9	-38.9	20.6	0.00e+00	0	42	0	1115684864	46	3980
2026-01-19 06:07:39.76	329.97	16.06	-38.0	-38.9	20.5	0.00e+00	0	42	0	1137704960	46	3999
2026-01-19 06:07:42.76	329.34	16.15	-37.9	-38.8	20.6	0.00e+00	0	42	0	1158676480	46	3942
2026-01-19 06:07:45.76	328.70	16.23	-37.8	-38.7	20.7	0.00e+00	0	42	0	1180696576	46	3907
2026-01-19 06:07:48.77	328.05	16.32	-37.6	-38.6	20.8	0.00e+00	0	42	0	1202716672	46	3839
2026-01-19 06:07:51.77	327.40	16.39	-37.5	-38.5	20.9	0.00e+00	0	42	0	1223688192	45	4037
2026-01-19 06:07:54.77	326.75	16.47	-37.4	-38.4	21.0	0.00e+00	0	42	0	1245708288	45	3983
2026-01-19 06:07:57.77	326.10	16.54	-37.3	-38.3	21.1	0.00e+00	0	42	0	1267728384	45	3939
2026-01-19 06:08:00.78	325.44	16.60	-37.4	-38.3	21.1	0.00e+00	0	42	0	1288699904	45	3956
2026-01-19 06:08:03.78	324.78	16.67	-37.5	-38.4	21.0	0.00e+00	0	42	0	1310720000	45	3990
2026-01-19 06:08:06.78	324.11	16.73	-37.4	-38.3	21.2	0.00e+00	0	42	0	1332740096	45	3917
2026-01-19 06:08:09.77	323.45	16.78	-37.2	-38.1	21.3	0.00e+00	0	42	0	1353711616	45	3838
2026-01-19 06:08:12.77	322.78	16.83	-36.9	-37.9	21.6	0.00e+00	0	42	0	1375731712	44	3959
2026-01-19 06:08:15.76	322.11	16.88	-36.9	-37.8	21.6	0.00e+00	0	42	0	1397751808	44	3946
2026-01-19 06:08:18.76	321.44	16.92	-37.1	-38.0	21.4	0.00e+00	0	42	0	1418723328	44	4041
2026-01-19 06:08:21.75	320.77	16.96	-37.3	-38.2	21.2	0.00e+00	0	42	0	1440743424	44	4145
2026-01-19 06:08:24.74	320.09	17.00	-37.2	-38.2	21.2	0.00e+00	0	42	0	1461714944	44	4100
2026-01-19 06:08:27.75	319.41	17.03	-37.1	-38.0	21.4	0.00e+00	0	42	0	1483735040	44	4028
2026-01-19 06:08:30.75	318.73	17.06	-37.0	-37.9	21.5	0.00e+00	0	42	0	1505755136	44	3965
2026-01-19 06:08:33.74	318.06	17.08	-37.0	-37.9	21.5	0.00e+00	0	42	0	1526726656	44	3991
2026-01-19 06:08:36.73	317.38	17.10	-36.9	-37.8	21.6	0.00e+00	0	42	0	1548746752	44	3934
2026-01-19 06:08:39.73	316.69	17.12	-36.8	-37.7	21.7	0.00e+00	0	42	0	1569718272	44	3883
2026-01-19 06:08:42.72	316.01	17.13	-37.0	-37.9	21.6	0.00e+00	0	42	0	1591738368	44	3959
2026-01-19 06:08:45.72	315.33	17.14	-37.0	-37.9	21.5	0.00e+00	0	42	0	1613758464	44	3988
2026-01-19 06:08:48.72	314.65	17.14	-37.2	-38.1	21.4	0.00e+00	0	42	0	1634729984	44	4069
2026-01-19 06:08:51.71	313.96	17.14	-37.3	-38.2	21.3	0.00e+00	0	42	0	1656750080	44	4107
2026-01-19 06:08:54.70	313.28	17.13	-37.3	-38.2	21.2	0.00e+00	0	42	0	1678770176	44	4142
2026-01-19 06:08:57.70	312.60	17.13	-37.4	-38.4	21.1	0.00e+00	0	42	0	1699741696	44	4202
2026-01-19 06:09:00.69	311.92	17.11	-37.5	-38.4	21.1	0.00e+00	0	42	0	1721761792	44	4231
2026-01-19 06:09:03.68	311.24	17.09	-37.1	-38.0	21.4	0.00e+00	0	42	0	1743781888	44	4027
2026-01-19 06:09:06.68	310.56	17.07	-37.1	-38.0	21.4	0.00e+00	0	42	0	1764753408	44	4014
2026-01-19 06:09:09.67	309.88	17.05	-37.2	-38.1	21.3	0.00e+00	0	42	0	1786773504	44	4080
2026-01-19 06:09:12.66	309.20	17.02	-37.3	-38.2	21.2	0.00e+00	0	42	0	1807745024	44	4144
2026-01-19 06:09:15.65	308.53	16.98	-37.0	-37.9	21.5	0.00e+00	0	42	0	1829765120	44	3982
2026-01-19 06:09:18.64	307.85	16.95	-37.0	-37.8	21.6	0.00e+00	0	42	0	1851785216	44	3956
2026-01-19 06:09:21.64	307.18	16.90	-37.2	-38.1	21.4	0.00e+00	0	43	0	1872756736	44	4058
2026-01-19 06:09:24.62	306.51	16.86	-37.4	-38.3	21.2	0.00e+00	0	42	0	1893728256	44	4148
2026-01-19 06:09:27.61	305.84	16.81	-37.4	-38.3	21.2	0.00e+00	0	42	0	1915748352	44	4159
2026-01-19 06:09:30.61	305.17	16.75	-37.4	-38.3	21.2	0.00e+00	0	42	0	1937768448	44	4164
2026-01-19 06:09:33.60	304.51	16.70	-37.5	-38.4	21.0	0.00e+00	0	42	0	1958739968	44	4238
2026-01-19 06:09:36.59	303.85	16.64	-37.5	-38.4	21.1	0.00e+00	0	42	0	1980760064	44	4204
2026-01-19 06:09:39.58	303.19	16.57	-37.7	-38.6	20.9	0.00e+00	0	42	0	2002780160	44	4316
2026-01-19 06:09:42.58	302.53	16.50	-37.5	-38.4	21.1	0.00e+00	0	42	0	2023751680	44	4219
2026-01-19 06:09:45.57	301.88	16.43	-37.6	-38.6	20.9	0.00e+00	0	42	0	2045771776	44	4293
2026-01-19 06:09:48.56	301.23	16.36	-37.7	-38.6	20.8	0.00e+00	0	42	0	2066743296	44	4322
2026-01-19 06:09:51.56	300.58	16.28	-37.7	-38.6	20.9	0.00e+00	0	42	0	2088763392	45	4071
2026-01-19 06:09:54.54	299.94	16.19	-37.6	-38.5	20.9	0.00e+00	0	42	0	2110783488	45	4026
2026-01-19 06:09:57.54	299.30	16.11	-37.7	-38.6	20.8	0.00e+00	0	42	0	2131755008	45	4088
2026-01-19 06:10:00.52	298.67	16.02	-37.6	-38.5	20.9	0.00e+00	0	42	0	2153775104	45	4039
2026-01-19 06:10:03.51	298.04	15.93	-37.6	-38.5	20.7	0.00e+00	0	43	0	2174746624	45	4041
2026-01-19 06:10:06.51	297.41	15.83	-37.7	-38.7	20.8	0.00e+00	0	42	0	2196766720	45	4103
2026-01-19 06:10:09.50	296.79	15.73	-37.9	-38.8	20.7	0.00e+00	0	42	0	2218786816	45	4173
2026-01-19 06:10:12.49	296.17	15.63	-37.9	-38.8	20.6	0.00e+00	0	43	0	2239758336	45	4179
2026-01-19 06:10:15.49	295.55	15.53	-37.7	-38.6	20.9	0.00e+00	0	42	0	2261778432	45	4065
2026-01-19 06:10:18.49	294.94	15.42	-37.8	-38.7	20.7	0.00e+00	0	42	0	2283798528	45	4136
2026-01-19 06:10:21.47	294.34	15.31	-38.0	-39.0	20.5	0.00e+00	0	42	0	2304770048	45	4256
2026-01-19 06:10:24.47	293.73	15.20	-38.3	-39.2	20.3	0.00e+00	0	42	0	2325741568	46	4128
2026-01-19 06:10:27.46	293.14	15.08	-38.2	-39.1	20.4	0.00e+00	0	43	0	2347761664	46	4071
2026-01-19 06:10:30.45	292.54	14.97	-37.8	-38.7	20.8	0.00e+00	0	42	0	2369781760	46	3905
2026-01-19 06:10:33.45	291.95	14.84	-37.9	-38.8	20.7	0.00e+00	0	42	0	2390753280	46	3948
2026-01-19 06:10:36.44	291.37	14.72	-38.1	-39.0	20.5	0.00e+00	0	42	0	2412773376	46	4038
2026-01-19 06:10:39.43	290.79	14.60	-38.2	-39.1	20.4	0.00e+00	0	42	0	2434793472	46	4098
2026-01-19 06:10:42.42	290.22	14.47	-38.2	-39.2	20.3	0.00e+00	0	42	0	2455764992	46	4122
2026-01-19 06:10:45.41	289.65	14.34	-38.4	-39.4	20.2	0.00e+00	0	42	0	2477785088	46	4199
2026-01-19 06:10:48.40	289.09	14.21	-38.2	-39.1	20.4	0.00e+00	0	42	0	2498756608	46	4093
2026-01-19 06:10:51.40	288.53	14.08	-38.4	-39.3	20.2	0.00e+00	0	42	0	2520776704	46	4178
2026-01-19 06:10:54.39	287.98	13.94	-38.3	-39.3	20.3	0.00e+00	0	42	0	2542796800	46	4152
2026-01-19 06:10:57.38	287.43	13.80	-38.3	-39.2	20.3	0.00e+00	0	42	0	2563768320	46	4129
2026-01-19 06:11:00.38	286.89	13.67	-38.4	-39.4	20.1	0.00e+00	0	43	0	2585788416	46	4202
2026-01-19 06:11:03.37	286.35	13.52	-38.3	-39.3	20.2	0.00e+00	0	42	0	2606759936	46	4154
2026-01-19 06:11:06.36	285.82	13.38	-38.3	-39.2	20.2	0.00e+00	0	42	0	2628780032	46	4140
2026-01-19 06:11:09.35	285.29	13.24	-38.3	-39.3	20.2	0.00e+00	0	42	0	2650800128	46	4167
2026-01-19 06:11:12.34	284.77	13.09	-38.2	-39.2	20.4	0.00e+00	0	42	0	2671771648	46	4101
2026-01-19 06:11:15.33	284.25	12.95	-38.2	-39.2	20.3	0.00e+00	0	42	0	2693791744	46	4120
2026-01-19 06:11:18.33	283.74	12.80	-38.2	-39.1	20.4	0.00e+00	0	43	0	2714763264	46	4086
2026-01-19 06:11:21.30	283.24	12.65	-38.4	-39.3	20.2	0.00e+00	0	42	0	2736783360	46	4193
2026-01-19 06:11:24.29	282.73	12.50	-38.6	-39.6	19.9	0.00e+00	0	42	0	2758803456	46	4302
2026-01-19 06:11:27.28	282.24	12.35	-38.7	-39.7	19.8	0.00e+00	0	43	0	2779774976	47	4104
2026-01-19 06:11:30.27	281.75	12.19	-38.8	-39.8	19.7	0.00e+00	0	42	0	2800746496	47	4169
2026-01-19 06:11:33.26	281.26	12.04	-38.7	-39.7	19.8	0.00e+00	0	42	0	2822766592	47	4125
2026-01-19 06:11:36.24	280.78	11.89	-38.7	-39.7	19.8	0.00e+00	0	42	0	2844786688	47	4105
2026-01-19 06:11:39.24	280.31	11.73	-38.5	-39.5	20.0	0.00e+00	0	43	0	2865758208	47	4011
2026-01-19 06:11:42.24	279.83	11.57	-38.7	-39.7	19.8	0.00e+00	0	43	0	2887778304	47	4099
2026-01-19 06:11:45.23	279.37	11.41	-38.6	-39.6	19.9	0.00e+00	0	42	0	2909798400	47	4080
2026-01-19 06:11:48.22	278.91	11.26	-38.8	-39.8	19.7	0.00e+00	0	42	0	2930769920	47	4150
2026-01-19 06:11:51.20	278.45	11.10	-38.8	-39.8	19.7	0.00e+00	0	42	0	2952790016	47	4167
2026-01-19 06:11:54.20	278.00	10.94	-39.0	-40.0	19.5	0.00e+00	0	42	0	2973761536	47	4252
2026-01-19 06:11:57.18	277.56	10.78	-39.0	-40.0	19.5	0.00e+00	0	42	0	2995781632	47	4252
2026-01-19 06:12:00.17	277.12	10.61	-38.9	-40.0	19.5	0.00e+00	0	42	0	3016753152	47	4246
2026-01-19 06:12:03.16	276.68	10.45	-39.0	-40.1	19.4	0.00e+00	0	42	0	3038773248	47	4292
2026-01-19 06:12:06.16	276.25	10.29	-39.0	-40.0	19.4	0.00e+00	0	43	0	3060793344	47	4286
2026-01-19 06:12:09.15	275.82	10.13	-39.0	-40.1	19.4	0.00e+00	0	43	0	3081764864	47	4300
2026-01-19 06:12:12.13	275.41	9.96	-39.0	-40.0	19.4	0.00e+00	0	42	0	3103784960	47	4286
2026-01-19 06:12:15.12	274.99	9.80	-39.3	-40.3	19.1	0.00e+00	0	42	0	3124756480	47	4432
2026-01-19 06:12:18.11	274.58	9.64	-39.5	-40.5	19.1	0.00e+00	0	42	0	3146776576	48	4283
2026-01-19 06:12:21.09	274.17	9.47	-39.5	-40.5	19.1	0.00e+00	0	43	0	3168796672	48	4273
2026-01-19 06:12:24.08	273.77	9.31	-39.3	-40.3	19.3	0.00e+00	0	42	0	3189768192	48	4181
2026-01-19 06:12:27.07	273.37	9.14	-39.3	-40.3	19.3	0.00e+00	0	42	0	3210739712	48	4177
2026-01-19 06:12:30.07	272.98	8.98	-49.6	-57.2	3.9	3.30e-01	0	43	104	3231711232	69	8743
2026-01-19 06:12:33.06	272.59	8.81	-50.7	-61.5	3.8	8.47e-01	0	42	104	3231711232	70	13551
2026-01-19 06:12:36.05	272.20	8.65	-50.9	-61.6	3.8	8.47e-01	0	43	104	3231711232	71	12912
2026-01-19 06:12:39.05	271.82	8.48	-51.0	-61.7	3.8	8.46e-01	0	43	104	3231711232	71	13057
2026-01-19 06:12:42.04	271.45	8.32	-51.0	-61.7	3.8	8.46e-01	0	43	104	3231711232	71	12967
2026-01-19 06:12:45.04	271.08	8.15	-51.0	-61.6	3.8	8.47e-01	0	43	104	3231711232	71	12953
2026-01-19 06:12:48.03	270.71	7.99	-51.0	-61.7	3.8	8.48e-01	0	43	104	3231711232	71	13038
2026-01-19 06:12:51.03	270.35	7.82	-50.9	-61.7	3.8	8.47e-01	0	43	104	3231711232	71	13030
2026-01-19 06:12:54.03	269.99	7.65	-50.8	-61.6	3.8	8.47e-01	0	43	104	3231711232	71	12959
2026-01-19 06:12:57.02	269.63	7.49	-50.9	-61.5	3.8	8.46e-01	0	43	104	3231711232	71	12806
2026-01-19 06:13:00.01	269.28	7.32	-50.9	-61.6	3.8	8.47e-01	0	43	104	3231711232	71	12844
2026-01-19 06:13:03.00	268.93	7.16	-50.5	-61.6	3.8	8.48e-01	0	43	104	3231711232	71	12814
2026-01-19 06:13:06.00	268.59	6.99	-50.5	-61.6	3.8	8.46e-01	0	43	104	3231711232	71	12877
2026-01-19 06:13:08.99	268.25	6.83	-50.5	-61.6	3.8	8.47e-01	0	42	104	3231711232	71	12815
2026-01-19 06:13:11.98	267.92	6.66	-50.5	-61.5	3.8	8.47e-01	0	43	104	3231711232	71	12744
2026-01-19 06:13:14.97	267.59	6.50	-50.5	-61.5	3.8	8.47e-01	0	43	104	3231711232	71	12768
2026-01-19 06:13:17.96	267.26	6.33	-50.5	-61.5	3.8	8.48e-01	0	42	104	3231711232	71	12788
2026-01-19 06:13:20.95	266.94	6.17	-50.5	-61.6	3.8	8.47e-01	0	43	104	3231711232	71	12834
2026-01-19 06:13:23.94	266.62	6.00	-50.5	-61.5	3.8	8.46e-01	0	43	104	3231711232	71	12774
2026-01-19 06:13:26.93	266.30	5.84	-50.5	-61.5	3.8	8.46e-01	0	43	104	3231711232	71	12753
2026-01-19 06:13:29.92	265.99	5.67	-50.5	-61.6	3.8	8.45e-01	0	43	104	3231711232	71	12837
2026-01-19 06:13:32.92	265.68	5.51	-50.5	-61.5	3.8	8.46e-01	0	43	104	3231711232	71	12734
2026-01-19 06:13:35.91	265.38	5.35	-50.5	-61.6	3.8	8.47e-01	0	43	104	3231711232	71	12816
2026-01-19 06:13:38.90	265.08	5.18	-50.4	-61.5	3.8	8.48e-01	0	43	104	3231711232	71	12772
2026-01-19 06:13:41.89	264.78	5.02	-50.4	-61.5	3.8	8.47e-01	0	43	104	3231711232	71	12767

#Closed at: 2026-01-19 06:13:43
#Recorded file [3231 MB]: D:/Data/31040_260119_090358.dat