passes_logs/2026/01/19/T1/T1__20260119_213349_KHAYYAM_rec.log

#Pass ID: 20260119_213349_KHAYYAM
#Satellite: KHAYYAM
#Configuration: KHAYYAM_480M
#almurnet v.1.7.20251203
#Start time: 2026-01-19 21:33:49

#Version: 2.0.20230620
#Station: T1
#Location: 37.570604 lon 55.790049 lat
#TLE: 1 53370U 22096A   26019.28855774  .00006875  00000+0  28144-3 0  9998
#TLE: 2 53370  97.3563 286.2214 0001716 107.2778 252.8647 15.24623927191898

#Time	Az	El	Level	Level2	SNR	BER	BlckErr	Temp	State	Recorded	gain1	gain2
2026-01-19 21:33:49.82	10.77	5.02	-52.0	-57.0	3.5	0.00e+00	0	45	0	0	75	25966
2026-01-19 21:33:52.80	10.70	5.26	-47.6	-53.9	3.8	0.00e+00	0	46	104	0	65	32195
2026-01-19 21:33:55.78	10.64	5.50	-47.6	-53.9	3.8	0.00e+00	0	46	104	0	65	32282
2026-01-19 21:33:58.76	10.57	5.75	-47.6	-53.9	3.8	0.00e+00	0	46	104	0	65	32161
2026-01-19 21:34:01.74	10.50	6.00	-47.6	-54.0	3.8	0.00e+00	0	47	104	0	65	32435
2026-01-19 21:34:04.72	10.43	6.26	-47.6	-54.0	3.8	0.00e+00	0	47	104	0	65	32556
2026-01-19 21:34:07.71	10.36	6.51	-47.6	-53.9	3.8	0.00e+00	0	47	104	0	65	32162
2026-01-19 21:34:10.69	10.28	6.77	-47.6	-53.9	3.8	0.00e+00	0	47	104	0	65	32279
2026-01-19 21:34:13.67	10.21	7.04	-47.6	-54.0	3.8	0.00e+00	0	48	104	0	65	32343
2026-01-19 21:34:16.65	10.13	7.31	-47.6	-54.0	3.8	0.00e+00	0	48	104	0	65	32407
2026-01-19 21:34:19.63	10.05	7.58	-47.7	-53.9	3.8	0.00e+00	0	48	104	0	65	32325
2026-01-19 21:34:22.61	9.96	7.85	-47.7	-54.0	3.8	0.00e+00	0	48	104	0	65	32623
2026-01-19 21:34:25.59	9.88	8.13	-47.6	-53.9	3.8	0.00e+00	0	48	104	0	65	32198
2026-01-19 21:34:28.57	9.79	8.41	-47.7	-53.9	3.8	0.00e+00	0	48	104	0	65	32287
2026-01-19 21:34:31.55	9.70	8.70	-47.7	-54.0	3.8	0.00e+00	0	49	104	0	65	32358
2026-01-19 21:34:34.53	9.61	9.00	-47.6	-54.0	3.8	0.00e+00	0	49	104	0	65	32475
2026-01-19 21:34:37.52	9.51	9.29	-47.8	-54.3	3.8	0.00e+00	0	49	104	0	67	29897
2026-01-19 21:34:40.50	9.42	9.60	-48.0	-54.3	3.8	0.00e+00	0	49	104	0	66	31606
2026-01-19 21:34:43.49	9.31	9.90	-47.9	-54.4	3.8	0.00e+00	0	49	104	0	67	30458
2026-01-19 21:34:46.47	9.21	10.22	-47.9	-54.4	3.8	0.00e+00	0	49	104	0	67	30514
2026-01-19 21:34:49.45	9.10	10.53	-47.7	-54.2	3.8	0.00e+00	0	49	104	0	67	29497
2026-01-19 21:34:52.43	8.99	10.86	-48.1	-54.4	3.8	0.00e+00	0	50	104	0	67	30368
2026-01-19 21:34:55.42	8.88	11.18	-49.7	-55.9	3.7	0.00e+00	0	49	104	0	70	30210
2026-01-19 21:34:58.40	8.76	11.52	-48.2	-54.7	3.8	0.00e+00	0	50	104	0	68	29604
2026-01-19 21:35:01.45	8.64	11.87	-48.8	-55.0	3.8	0.00e+00	0	50	104	0	68	30776
2026-01-19 21:35:04.32	8.52	12.20	-50.8	-56.5	3.7	0.00e+00	0	50	104	0	72	29121
2026-01-19 21:35:07.67	8.37	12.60	-49.9	-56.0	3.7	0.00e+00	0	50	104	0	71	29035
2026-01-19 21:35:10.48	8.25	12.94	-50.1	-56.0	3.7	0.00e+00	0	50	104	0	71	29082
2026-01-19 21:35:13.66	8.10	13.33	-51.3	-56.9	3.7	0.00e+00	0	50	104	0	73	28539
2026-01-19 21:35:16.65	7.96	13.71	-51.3	-56.9	3.7	0.00e+00	0	50	104	0	73	28520
2026-01-19 21:35:19.96	7.79	14.14	-51.2	-56.6	3.7	0.00e+00	0	50	104	0	73	27701
2026-01-19 21:35:22.69	7.65	14.49	-51.4	-56.8	3.7	0.00e+00	0	50	104	0	74	26598
2026-01-19 21:35:25.96	7.48	14.93	-51.4	-56.7	3.7	0.00e+00	0	50	104	0	74	26358
2026-01-19 21:35:28.66	7.33	15.30	-51.7	-57.0	3.7	0.00e+00	0	50	104	0	74	27220
2026-01-19 21:35:31.94	7.15	15.76	-51.7	-57.0	3.7	0.00e+00	0	50	104	0	74	27296
2026-01-19 21:35:34.67	6.99	16.16	-51.7	-57.0	3.7	0.00e+00	0	50	104	0	75	25861
2026-01-19 21:35:37.94	6.79	16.64	-52.6	-57.4	3.7	0.00e+00	0	50	104	0	75	27027
2026-01-19 21:35:40.65	6.61	17.04	-52.5	-57.5	3.7	0.00e+00	0	50	104	0	76	25897
2026-01-19 21:35:43.92	6.40	17.55	-52.6	-57.3	3.7	0.00e+00	0	50	104	0	76	25244
2026-01-19 21:35:46.77	6.20	17.99	-52.6	-57.3	3.7	0.00e+00	0	50	104	0	75	26608
2026-01-19 21:35:50.08	5.97	18.53	-52.8	-57.1	3.7	0.00e+00	0	50	104	0	76	24768
2026-01-19 21:35:53.16	5.74	19.04	-51.3	-56.6	3.7	0.00e+00	0	50	104	0	73	27658
2026-01-19 21:35:56.29	5.50	19.57	-51.8	-57.0	3.7	0.00e+00	0	50	104	0	75	25701
2026-01-19 21:35:59.13	5.27	20.07	-51.5	-56.7	3.7	0.00e+00	0	50	104	0	74	26397
2026-01-19 21:36:02.39	4.99	20.65	-52.6	-57.4	3.7	0.00e+00	0	50	104	0	75	26896
2026-01-19 21:36:05.34	4.74	21.20	-52.8	-57.7	3.7	0.00e+00	0	51	104	0	76	26571
2026-01-19 21:36:08.47	4.45	21.79	-53.4	-58.1	3.7	0.00e+00	0	51	104	0	77	26191
2026-01-19 21:36:11.31	4.18	22.34	-53.4	-58.1	3.7	0.00e+00	0	51	104	0	77	26083
2026-01-19 21:36:14.44	3.86	22.97	-52.7	-57.6	3.7	0.00e+00	0	51	104	0	77	24561
2026-01-19 21:36:17.28	3.56	23.55	-53.0	-57.8	3.7	0.00e+00	0	51	104	0	76	26875
2026-01-19 21:36:20.41	3.22	24.21	-53.2	-58.0	3.7	0.00e+00	0	51	104	0	77	25751
2026-01-19 21:36:23.25	2.89	24.83	-53.6	-58.2	3.7	0.00e+00	0	50	104	0	77	26462
2026-01-19 21:36:26.57	2.49	25.58	-53.5	-58.3	3.7	0.00e+00	0	50	104	0	78	25101
2026-01-19 21:36:29.41	2.13	26.24	-53.6	-58.2	3.7	0.00e+00	0	51	104	0	78	24958
2026-01-19 21:36:32.53	1.71	26.98	-54.0	-58.5	3.7	0.00e+00	0	51	104	0	78	25750
2026-01-19 21:36:35.37	1.31	27.68	-53.7	-58.4	3.7	0.00e+00	0	51	104	0	78	25400
2026-01-19 21:36:38.50	0.85	28.47	-53.7	-58.2	3.7	0.00e+00	0	51	104	0	78	25092
2026-01-19 21:36:41.34	0.40	29.22	-53.9	-58.5	3.7	0.00e+00	0	50	104	0	78	25739
2026-01-19 21:36:44.47	359.88	30.06	-53.7	-58.3	3.7	0.00e+00	0	51	104	0	78	25331
2026-01-19 21:36:47.31	359.39	30.85	-53.7	-58.3	3.7	0.00e+00	0	51	104	0	78	25262
2026-01-19 21:36:50.44	358.80	31.75	-53.5	-58.3	3.7	0.00e+00	0	51	104	0	78	25125
2026-01-19 21:36:53.28	358.25	32.59	-53.1	-58.1	3.7	0.00e+00	0	51	104	0	78	24568
2026-01-19 21:36:56.41	357.59	33.55	-53.8	-58.3	3.7	0.00e+00	0	51	104	0	78	25318
2026-01-19 21:36:59.28	356.95	34.46	-53.6	-58.2	3.7	0.00e+00	0	51	104	0	78	24810
2026-01-19 21:37:02.58	356.17	35.53	-53.7	-58.4	3.7	0.00e+00	0	51	104	0	78	25449
2026-01-19 21:37:05.30	355.48	36.45	-52.9	-57.9	3.7	0.00e+00	0	51	104	0	77	25453
2026-01-19 21:37:08.59	354.58	37.59	-53.0	-57.9	3.7	0.00e+00	0	51	104	0	76	27092
2026-01-19 21:37:11.31	353.79	38.57	-54.2	-58.7	3.7	0.00e+00	0	51	104	0	79	24964
2026-01-19 21:37:14.63	352.75	39.79	-54.0	-58.5	3.7	0.00e+00	0	51	104	0	79	24506
2026-01-19 21:37:17.69	351.71	40.95	-53.1	-57.9	3.7	0.00e+00	0	51	104	0	78	24211
2026-01-19 21:37:20.82	350.57	42.18	-53.6	-58.4	3.7	0.00e+00	0	51	104	0	78	25390
2026-01-19 21:37:23.66	349.44	43.32	-53.7	-58.5	3.7	0.00e+00	0	51	104	0	78	25730
2026-01-19 21:37:26.79	348.10	44.61	-52.9	-58.2	3.7	0.00e+00	0	51	104	0	77	26288
2026-01-19 21:37:29.63	346.78	45.80	-54.2	-58.7	3.7	0.00e+00	0	51	104	0	79	24898
2026-01-19 21:37:32.76	345.20	47.14	-54.1	-58.6	3.7	0.00e+00	0	51	104	0	79	24616
2026-01-19 21:37:35.60	343.64	48.38	-53.5	-58.3	3.7	0.00e+00	0	51	104	0	78	25303
2026-01-19 21:37:38.73	341.76	49.76	-54.1	-58.7	3.7	0.00e+00	0	51	104	0	79	24969
2026-01-19 21:37:41.57	339.89	51.03	-53.6	-58.4	3.7	0.00e+00	0	51	104	0	79	23978
2026-01-19 21:37:44.70	337.63	52.43	-54.2	-58.7	3.7	0.00e+00	0	51	104	0	79	24932
2026-01-19 21:37:47.54	335.38	53.69	-53.9	-58.6	3.7	0.00e+00	0	51	104	0	79	24524
2026-01-19 21:37:50.67	332.66	55.07	-53.8	-58.5	3.7	0.00e+00	0	51	104	0	79	24387
2026-01-19 21:37:53.51	329.95	56.30	-53.8	-58.4	3.7	0.00e+00	0	51	104	0	78	25588
2026-01-19 21:37:56.63	326.68	57.60	-54.0	-58.5	3.7	0.00e+00	0	51	104	0	78	25799
2026-01-19 21:37:59.47	323.42	58.72	-53.3	-58.2	3.7	0.00e+00	0	51	104	0	78	24842
2026-01-19 21:38:02.60	319.50	59.88	-53.6	-58.2	3.7	0.00e+00	0	51	104	0	78	24892
2026-01-19 21:38:05.45	315.61	60.85	-54.2	-58.4	3.7	0.00e+00	0	51	104	0	78	25632
2026-01-19 21:38:08.68	310.85	61.80	-54.2	-58.6	3.7	0.00e+00	0	51	104	0	79	24660
2026-01-19 21:38:11.53	306.35	62.51	-54.2	-58.7	3.7	0.00e+00	0	51	104	0	79	24883
2026-01-19 21:38:14.66	301.13	63.11	-54.1	-58.5	3.7	0.00e+00	0	51	104	0	79	24436
2026-01-19 21:38:17.74	295.78	63.50	-54.3	-58.6	3.7	0.00e+00	0	51	104	0	79	24643
2026-01-19 21:38:20.97	290.01	63.69	-53.6	-58.1	3.7	0.00e+00	0	51	104	0	79	23210
2026-01-19 21:38:23.83	284.88	63.66	-54.0	-58.4	3.7	0.00e+00	0	51	104	0	79	24239
2026-01-19 21:38:26.95	279.34	63.42	-54.0	-58.5	3.7	0.00e+00	0	51	104	0	79	24493
2026-01-19 21:38:29.79	274.43	63.01	-53.8	-58.4	3.7	0.00e+00	0	51	104	0	79	24145
2026-01-19 21:38:32.94	269.23	62.37	-54.2	-58.7	3.7	0.00e+00	0	51	104	0	79	25037
2026-01-19 21:38:35.84	264.71	61.62	-53.9	-58.5	3.7	0.00e+00	0	51	104	0	79	24518
2026-01-19 21:38:39.10	259.97	60.62	-54.0	-58.6	3.7	0.00e+00	0	51	104	0	78	26106
2026-01-19 21:38:41.83	256.31	59.68	-54.1	-58.7	3.7	0.00e+00	0	51	104	0	78	26476
2026-01-19 21:38:45.16	252.20	58.42	-54.1	-58.6	3.7	0.00e+00	0	51	104	0	78	26228
2026-01-19 21:38:47.86	249.16	57.33	-54.3	-58.7	3.7	0.00e+00	0	51	104	0	79	25068
2026-01-19 21:38:51.13	245.80	55.95	-54.0	-58.6	3.7	0.00e+00	0	51	104	0	79	24608
2026-01-19 21:38:54.19	242.96	54.61	-54.2	-58.7	3.7	0.00e+00	0	51	104	0	79	25041
2026-01-19 21:38:57.46	240.20	53.16	-53.9	-58.6	3.7	0.00e+00	0	51	104	0	79	24540
2026-01-19 21:39:00.21	238.10	51.93	-53.7	-58.3	3.7	0.00e+00	0	51	104	0	79	23922
2026-01-19 21:39:03.47	235.82	50.47	-54.2	-58.6	3.7	0.00e+00	0	51	104	0	79	24623
2026-01-19 21:39:06.24	234.06	49.23	-54.4	-58.8	3.7	0.00e+00	0	51	104	0	79	25271
2026-01-19 21:39:09.54	232.14	47.77	-54.4	-58.7	3.7	0.00e+00	0	51	104	0	79	25054
2026-01-19 21:39:12.52	230.56	46.48	-53.5	-58.3	3.7	0.00e+00	0	51	104	0	79	23795
2026-01-19 21:39:15.51	229.10	45.20	-54.0	-58.5	3.7	0.00e+00	0	51	104	0	78	25727
2026-01-19 21:39:18.55	227.74	43.93	-54.2	-58.6	3.7	0.00e+00	0	51	104	0	79	24764
2026-01-19 21:39:21.53	226.50	42.71	-54.0	-58.3	3.7	0.00e+00	0	51	104	0	79	23929
2026-01-19 21:39:24.51	225.37	41.53	-54.0	-58.3	3.7	0.00e+00	0	51	104	0	79	23915
2026-01-19 21:39:27.50	224.31	40.37	-53.8	-58.4	3.7	0.00e+00	0	51	104	0	79	24063
2026-01-19 21:39:30.48	223.33	39.24	-54.1	-58.6	3.7	0.00e+00	0	51	104	0	79	24573
2026-01-19 21:39:33.48	222.41	38.14	-54.1	-58.6	3.7	0.00e+00	0	51	104	0	79	24530
2026-01-19 21:39:36.54	221.54	37.05	-54.1	-58.5	3.7	0.00e+00	0	51	104	0	79	24503
2026-01-19 21:39:39.39	220.78	36.07	-54.1	-58.6	3.7	0.00e+00	0	51	104	0	79	24660
2026-01-19 21:39:42.51	220.00	35.03	-54.0	-58.5	3.7	0.00e+00	0	51	104	0	79	24467
2026-01-19 21:39:45.36	219.34	34.10	-53.9	-58.5	3.7	0.00e+00	0	51	104	0	79	24327
2026-01-19 21:39:48.52	218.65	33.11	-53.8	-58.4	3.7	0.00e+00	0	51	104	0	79	24013
2026-01-19 21:39:51.43	218.05	32.23	-53.7	-58.3	3.7	0.00e+00	0	51	104	0	79	23905
2026-01-19 21:39:54.55	217.45	31.31	-53.5	-58.1	3.7	0.00e+00	0	51	104	0	79	23268
2026-01-19 21:39:57.40	216.92	30.49	-53.8	-58.2	3.7	0.00e+00	0	51	104	0	79	23653
2026-01-19 21:40:00.52	216.39	29.63	-53.9	-58.3	3.7	0.00e+00	0	51	104	0	79	23840
2026-01-19 21:40:03.36	215.92	28.87	-53.8	-58.1	3.7	0.00e+00	0	51	104	0	79	23278
2026-01-19 21:40:06.58	215.43	28.03	-53.8	-58.3	3.7	0.00e+00	0	51	104	0	79	23838
2026-01-19 21:40:09.43	215.01	27.31	-53.9	-58.4	3.7	0.00e+00	0	51	104	0	79	23997
2026-01-19 21:40:12.56	214.58	26.55	-53.9	-58.4	3.7	0.00e+00	0	51	104	0	79	24099
2026-01-19 21:40:15.40	214.20	25.88	-53.6	-58.1	3.7	0.00e+00	0	51	104	0	79	23222
2026-01-19 21:40:18.53	213.81	25.16	-53.7	-58.2	3.7	0.00e+00	0	51	104	0	79	23623
2026-01-19 21:40:21.37	213.47	24.52	-53.7	-58.3	3.7	0.00e+00	0	51	104	0	79	23718
2026-01-19 21:40:24.50	213.11	23.85	-53.7	-58.2	3.7	0.00e+00	0	51	104	0	79	23498
2026-01-19 21:40:27.34	212.80	23.25	-53.7	-58.2	3.7	0.00e+00	0	51	104	0	79	23556
2026-01-19 21:40:30.42	212.48	22.62	-53.7	-58.2	3.7	0.00e+00	0	51	104	0	79	23635
2026-01-19 21:40:33.40	212.19	22.02	-53.7	-58.2	3.7	0.00e+00	0	51	104	0	79	23428
2026-01-19 21:40:36.39	211.90	21.44	-53.7	-58.2	3.7	0.00e+00	0	51	104	0	79	23546
2026-01-19 21:40:39.40	211.63	20.88	-53.4	-58.0	3.7	0.00e+00	0	51	104	0	78	24456
2026-01-19 21:40:42.42	211.36	20.32	-53.5	-58.2	3.7	0.00e+00	0	51	104	0	78	24885
2026-01-19 21:40:45.40	211.11	19.79	-53.7	-58.2	3.7	0.00e+00	0	51	104	0	78	25077
2026-01-19 21:40:48.39	210.87	19.27	-53.8	-58.3	3.7	0.00e+00	0	51	104	0	78	25101
2026-01-19 21:40:51.38	210.64	18.76	-53.7	-58.1	3.7	0.00e+00	0	51	104	0	78	24747
2026-01-19 21:40:54.37	210.42	18.27	-53.8	-58.2	3.7	0.00e+00	0	51	104	0	78	24987
2026-01-19 21:40:57.36	210.21	17.79	-53.8	-58.3	3.7	0.00e+00	0	51	104	0	78	25120
2026-01-19 21:41:00.34	210.00	17.32	-53.8	-58.3	3.7	0.00e+00	0	51	104	0	78	25200
2026-01-19 21:41:03.33	209.81	16.86	-53.6	-58.0	3.7	0.00e+00	0	51	104	0	78	24480
2026-01-19 21:41:06.32	209.61	16.41	-53.6	-58.0	3.7	0.00e+00	0	51	104	0	78	24462
2026-01-19 21:41:09.30	209.43	15.97	-53.5	-58.0	3.7	0.00e+00	0	51	104	0	78	24321
2026-01-19 21:41:12.34	209.25	15.53	-53.6	-58.0	3.7	0.00e+00	0	51	104	0	78	24436
2026-01-19 21:41:15.32	209.08	15.12	-53.5	-58.0	3.7	0.00e+00	0	51	104	0	78	24371
2026-01-19 21:41:18.46	208.91	14.68	-53.5	-58.0	3.7	0.00e+00	0	52	104	0	78	24333
2026-01-19 21:41:21.31	208.75	14.30	-53.4	-57.8	3.7	0.00e+00	0	51	104	0	78	23897
2026-01-19 21:41:24.44	208.59	13.89	-53.4	-57.9	3.7	0.00e+00	0	51	104	0	78	24009
2026-01-19 21:41:27.28	208.45	13.52	-53.3	-57.8	3.7	0.00e+00	0	51	104	0	78	23934
2026-01-19 21:41:30.41	208.30	13.13	-53.3	-57.9	3.7	0.00e+00	0	51	104	0	78	24002
2026-01-19 21:41:33.31	208.16	12.77	-53.4	-57.9	3.7	0.00e+00	0	51	104	0	78	24031
2026-01-19 21:41:36.52	208.02	12.38	-53.4	-57.9	3.7	0.00e+00	0	51	104	0	78	24167
2026-01-19 21:41:39.36	207.89	12.04	-53.1	-57.7	3.7	0.00e+00	0	51	104	0	77	25008
2026-01-19 21:41:42.49	207.76	11.68	-52.9	-57.6	3.7	0.00e+00	0	52	104	0	77	24601
2026-01-19 21:41:45.33	207.64	11.35	-52.8	-57.5	3.7	0.00e+00	0	51	104	0	77	24335
2026-01-19 21:41:48.46	207.52	11.00	-52.8	-57.4	3.7	0.00e+00	0	51	104	0	77	24200
2026-01-19 21:41:51.40	207.40	10.68	-52.7	-57.4	3.7	0.00e+00	0	51	104	0	77	24019
2026-01-19 21:41:54.38	207.29	10.35	-52.7	-57.4	3.7	0.00e+00	0	51	104	0	77	24140
2026-01-19 21:41:57.37	207.18	10.03	-52.5	-57.3	3.7	0.00e+00	0	51	104	0	76	25216
2026-01-19 21:42:00.35	207.08	9.72	-52.5	-57.3	3.7	0.00e+00	0	51	104	0	76	25238
2026-01-19 21:42:03.34	206.97	9.41	-52.1	-56.9	3.7	0.00e+00	0	51	104	0	76	24123
2026-01-19 21:42:06.36	206.87	9.11	-52.1	-56.9	3.7	0.00e+00	0	51	104	0	76	24133
2026-01-19 21:42:09.34	206.77	8.81	-53.7	-58.2	3.7	0.00e+00	0	51	104	0	78	24871
2026-01-19 21:42:12.32	206.68	8.51	-53.6	-58.2	3.7	0.00e+00	0	51	104	0	78	24989
2026-01-19 21:42:15.30	206.59	8.23	-54.1	-58.6	3.7	0.00e+00	0	51	104	0	78	26237
2026-01-19 21:42:18.34	206.49	7.94	-54.3	-58.8	3.7	0.00e+00	0	51	104	0	79	25256
2026-01-19 21:42:21.40	206.40	7.65	-54.2	-58.6	3.7	0.00e+00	0	51	104	0	79	24679
2026-01-19 21:42:24.50	206.32	7.36	-54.3	-58.8	3.7	0.00e+00	0	51	104	0	79	25173
2026-01-19 21:42:27.41	206.24	7.10	-53.6	-58.3	3.7	0.00e+00	0	51	104	0	78	25375
2026-01-19 21:42:30.67	206.15	6.80	-53.3	-57.9	3.7	0.00e+00	0	51	104	0	78	24146
2026-01-19 21:42:33.37	206.08	6.56	-53.3	-57.9	3.7	0.00e+00	0	51	104	0	78	24167
2026-01-19 21:42:36.65	205.99	6.28	-53.3	-57.9	3.7	0.00e+00	0	51	104	0	78	24198
2026-01-19 21:42:39.36	205.92	6.04	-53.3	-57.9	3.7	0.00e+00	0	51	104	0	78	24164
2026-01-19 21:42:42.64	205.84	5.76	-53.3	-57.9	3.7	0.00e+00	0	51	104	0	78	24190
2026-01-19 21:42:45.34	205.78	5.54	-53.3	-57.9	3.7	0.00e+00	0	51	104	0	78	24137
2026-01-19 21:42:48.60	205.70	5.27	-53.3	-57.9	3.7	0.00e+00	0	51	104	0	78	24141
2026-01-19 21:42:51.33	205.64	5.04	-53.3	-57.9	3.7	0.00e+00	0	51	104	0	78	24135

#Closed at: 2026-01-19 21:42:53
#Recorded file [0 MB]: D:/Data/31040_260120_003349.dat