passes_logs/2026/01/19/T1/T1__20260119_111506_AQUA_rec.log

#Pass ID: 20260119_111506_AQUA
#Satellite: AQUA
#Configuration: AQUA
#almurnet v.1.7.20251203
#Start time: 2026-01-19 11:15:06

#Version: 2.0.20230620
#Station: T1
#Location: 37.570604 lon 55.790049 lat
#TLE: 1 27424U 02022A   26018.92652823  .00000914  00000+0  19290-3 0  9996
#TLE: 2 27424  98.4089 345.4199 0001997  73.4625 351.8991 14.61828815261466

#Time	Az	El	Level	Level2	SNR	BER	BlckErr	Temp	State	Recorded	gain1	gain2
2026-01-19 11:15:06.39	146.46	5.00	-50.7	-70.5	3.8	7.47e-01	0	43	0	0	72	36375
2026-01-19 11:15:09.36	146.38	5.23	-50.7	-69.4	3.9	7.44e-01	0	43	104	0	72	31815
2026-01-19 11:15:12.34	146.29	5.45	-50.7	-69.7	3.8	7.44e-01	0	43	104	0	72	33064
2026-01-19 11:15:15.32	146.20	5.68	-50.7	-69.9	3.8	7.48e-01	0	43	104	0	72	33940
2026-01-19 11:15:18.30	146.11	5.91	-50.6	-68.6	3.9	7.39e-01	0	43	104	0	72	29202
2026-01-19 11:15:21.28	146.02	6.14	-50.6	-67.0	4.4	7.27e-01	0	43	104	0	72	24306
2026-01-19 11:15:24.26	145.93	6.37	-50.6	-67.8	3.9	7.42e-01	0	43	104	0	72	26593
2026-01-19 11:15:27.24	145.84	6.61	-50.7	-70.4	3.8	7.45e-01	0	43	104	0	72	35757
2026-01-19 11:15:30.22	145.74	6.84	-50.7	-70.5	3.8	7.46e-01	0	43	104	0	72	36110
2026-01-19 11:15:33.19	145.64	7.08	-50.6	-66.7	4.6	7.24e-01	0	43	104	0	72	23414
2026-01-19 11:15:36.17	145.54	7.33	-50.4	-63.1	7.0	6.65e-01	0	43	0	1572864	72	15453
2026-01-19 11:15:39.15	145.44	7.57	-49.7	-57.7	12.4	6.12e-01	0	43	0	6815744	71	8851
2026-01-19 11:15:42.13	145.34	7.82	-48.2	-53.5	16.8	6.06e-01	0	43	0	12582912	68	6426
2026-01-19 11:15:45.11	145.23	8.07	-46.9	-51.1	19.1	6.07e-01	0	43	0	18350080	65	5802
2026-01-19 11:15:48.09	145.13	8.32	-47.0	-51.1	19.0	6.09e-01	0	43	0	23592960	65	5843
2026-01-19 11:15:51.07	145.02	8.58	-48.1	-53.4	16.8	6.08e-01	0	43	0	29360128	66	7195
2026-01-19 11:15:54.05	144.90	8.84	-49.7	-58.1	12.1	6.11e-01	0	43	0	35127296	70	9769
2026-01-19 11:15:57.03	144.79	9.10	-46.0	-50.0	20.2	6.09e-01	0	43	0	40370176	63	5739
2026-01-19 11:16:00.01	144.67	9.37	-49.6	-58.3	11.9	6.12e-01	0	43	0	44040192	71	9430
2026-01-19 11:16:02.98	144.55	9.63	-47.1	-51.5	18.7	6.06e-01	0	43	0	49283072	65	6086
2026-01-19 11:16:05.96	144.43	9.90	-45.2	-48.2	21.4	6.07e-01	0	43	0	55050240	62	4956
2026-01-19 11:16:08.94	144.31	10.18	-44.5	-47.2	23.0	6.06e-01	0	43	0	60817408	60	4954
2026-01-19 11:16:11.92	144.18	10.46	-44.5	-47.2	23.0	6.07e-01	0	43	0	66060288	60	4956
2026-01-19 11:16:14.90	144.05	10.74	-44.3	-47.0	23.2	6.06e-01	0	43	0	71827456	60	4847
2026-01-19 11:16:17.88	143.91	11.02	-44.2	-46.9	23.3	6.07e-01	0	43	0	77594624	60	4762
2026-01-19 11:16:20.86	143.78	11.31	-44.1	-46.8	23.5	6.08e-01	0	43	0	82837504	59	4988
2026-01-19 11:16:23.84	143.64	11.60	-44.0	-46.6	23.6	6.08e-01	0	43	0	88604672	59	4913
2026-01-19 11:16:26.82	143.50	11.90	-44.0	-46.5	23.7	6.08e-01	0	43	0	94371840	59	4862
2026-01-19 11:16:29.79	143.35	12.20	-43.8	-46.3	24.0	6.07e-01	0	44	0	99614720	59	4710
2026-01-19 11:16:32.77	143.20	12.50	-43.8	-46.2	24.0	6.07e-01	0	43	0	105381888	59	4699
2026-01-19 11:16:35.75	143.05	12.81	-43.6	-46.0	24.2	6.07e-01	0	43	0	111149056	59	4592
2026-01-19 11:16:38.73	142.89	13.12	-43.6	-46.2	24.2	6.05e-01	0	43	0	116391936	59	4655
2026-01-19 11:16:41.71	142.73	13.43	-43.6	-46.2	24.2	6.06e-01	0	43	0	122159104	59	4662
2026-01-19 11:16:44.69	142.57	13.75	-43.6	-46.2	24.1	6.08e-01	0	43	0	127401984	59	4657
2026-01-19 11:16:47.66	142.40	14.08	-43.6	-46.2	24.1	6.05e-01	0	43	0	133169152	59	4684
2026-01-19 11:16:50.64	142.23	14.41	-43.7	-46.3	24.1	6.09e-01	0	43	0	138936320	59	4707
2026-01-19 11:16:53.62	142.05	14.74	-43.4	-46.0	24.3	6.08e-01	0	43	0	144179200	58	4824
2026-01-19 11:16:56.60	141.87	15.08	-43.4	-45.9	24.4	6.04e-01	0	43	0	149946368	58	4791
2026-01-19 11:16:59.58	141.69	15.42	-43.4	-45.9	24.4	6.05e-01	0	43	0	155713536	58	4767
2026-01-19 11:17:02.56	141.50	15.77	-43.2	-45.7	24.6	6.06e-01	0	43	0	160956416	58	4663
2026-01-19 11:17:05.54	141.30	16.13	-43.3	-45.7	24.6	6.08e-01	0	43	0	166723584	58	4683
2026-01-19 11:17:08.52	141.10	16.49	-43.4	-45.8	24.5	6.03e-01	0	43	0	172490752	58	4719
2026-01-19 11:17:11.49	140.89	16.85	-43.3	-45.7	24.6	6.07e-01	0	43	0	177733632	58	4693
2026-01-19 11:17:14.47	140.68	17.22	-43.4	-45.8	24.6	6.09e-01	0	43	0	183500800	58	4720
2026-01-19 11:17:17.45	140.46	17.60	-43.5	-45.9	24.5	6.07e-01	0	43	0	189267968	58	4762
2026-01-19 11:17:20.43	140.24	17.98	-43.6	-46.0	24.3	6.07e-01	0	43	0	194510848	58	4870
2026-01-19 11:17:23.41	140.01	18.37	-43.7	-46.2	24.2	6.08e-01	0	43	0	200278016	58	4948
2026-01-19 11:17:26.39	139.77	18.77	-43.7	-46.1	24.2	6.06e-01	0	43	0	206045184	58	4916
2026-01-19 11:17:29.37	139.53	19.17	-43.6	-46.0	24.4	6.06e-01	0	43	0	211288064	58	4854
2026-01-19 11:17:32.35	139.28	19.58	-43.5	-45.9	24.4	6.07e-01	0	43	0	217055232	58	4800
2026-01-19 11:17:35.32	139.02	19.99	-43.4	-45.8	24.5	6.07e-01	0	43	0	222822400	58	4754
2026-01-19 11:17:38.30	138.76	20.42	-43.5	-46.0	24.4	6.06e-01	0	43	0	228065280	58	4820
2026-01-19 11:17:41.28	138.48	20.85	-43.7	-46.2	24.3	6.08e-01	0	43	0	233832448	58	4933
2026-01-19 11:17:44.26	138.20	21.29	-43.8	-46.2	24.2	6.06e-01	0	43	0	239599616	58	4983
2026-01-19 11:17:47.24	137.91	21.73	-43.7	-46.1	24.3	6.07e-01	0	43	0	244842496	58	4912
2026-01-19 11:17:50.22	137.61	22.18	-43.7	-46.1	24.3	6.07e-01	0	43	0	250609664	58	4924
2026-01-19 11:17:53.20	137.30	22.65	-43.8	-46.2	24.2	6.08e-01	0	43	0	256376832	58	4959
2026-01-19 11:17:56.16	136.98	23.11	-44.0	-46.4	24.1	6.06e-01	0	43	0	261619712	58	5078
2026-01-19 11:17:59.14	136.65	23.59	-44.0	-46.5	24.0	6.04e-01	0	43	0	267386880	58	5116
2026-01-19 11:18:02.11	136.31	24.07	-44.0	-46.5	23.9	6.07e-01	0	43	0	272629760	58	5114
2026-01-19 11:18:05.09	135.96	24.57	-43.8	-46.3	24.2	6.07e-01	0	43	0	278396928	58	5007
2026-01-19 11:18:08.07	135.59	25.08	-43.9	-46.3	24.2	6.10e-01	0	43	0	284164096	58	5040
2026-01-19 11:18:11.05	135.21	25.59	-44.1	-46.6	23.9	6.08e-01	0	43	0	289406976	58	5175
2026-01-19 11:18:14.03	134.82	26.11	-43.6	-46.0	24.4	6.07e-01	0	43	0	295174144	58	4828
2026-01-19 11:18:17.01	134.42	26.65	-43.3	-45.7	24.8	6.06e-01	0	43	0	300941312	58	4653
2026-01-19 11:18:19.99	134.00	27.19	-43.6	-46.0	24.5	6.05e-01	0	43	0	306184192	58	4817
2026-01-19 11:18:22.96	133.56	27.74	-43.4	-45.8	24.7	6.07e-01	0	43	0	311951360	58	4715
2026-01-19 11:18:25.94	133.11	28.31	-43.4	-45.7	24.7	6.08e-01	0	43	0	317718528	58	4693
2026-01-19 11:18:28.92	132.64	28.88	-43.3	-45.7	24.8	6.06e-01	0	43	0	322961408	58	4681
2026-01-19 11:18:31.90	132.15	29.46	-43.0	-45.4	25.1	6.06e-01	0	43	0	328728576	58	4516
2026-01-19 11:18:34.88	131.65	30.06	-43.1	-45.5	24.9	6.07e-01	0	43	0	334495744	58	4582
2026-01-19 11:18:37.86	131.12	30.67	-43.1	-45.5	24.9	6.06e-01	0	43	0	339738624	58	4581
2026-01-19 11:18:40.84	130.57	31.28	-43.2	-45.5	24.9	6.07e-01	0	43	0	345505792	58	4593
2026-01-19 11:18:43.82	130.00	31.91	-43.2	-45.5	25.0	6.07e-01	0	43	0	351272960	58	4561
2026-01-19 11:18:46.79	129.41	32.55	-43.2	-45.5	24.9	6.09e-01	0	43	0	356515840	58	4585
2026-01-19 11:18:49.77	128.79	33.20	-43.7	-46.1	24.4	6.05e-01	0	43	0	362283008	58	4912
2026-01-19 11:18:52.75	128.15	33.86	-43.8	-46.1	24.4	6.07e-01	0	43	0	368050176	58	4926
2026-01-19 11:18:55.73	127.47	34.54	-43.8	-46.2	24.3	6.07e-01	0	43	0	373293056	58	4975
2026-01-19 11:18:58.71	126.77	35.22	-44.4	-46.9	23.7	6.05e-01	0	43	0	379060224	59	5073
2026-01-19 11:19:01.69	126.04	35.92	-44.5	-47.0	23.7	6.07e-01	0	43	0	384827392	59	5144
2026-01-19 11:19:04.67	125.27	36.62	-44.7	-47.3	23.4	6.08e-01	0	43	0	390070272	60	4991
2026-01-19 11:19:07.65	124.47	37.34	-44.6	-47.2	23.4	6.04e-01	0	43	0	395837440	60	4964
2026-01-19 11:19:10.62	123.63	38.06	-45.1	-47.8	22.8	6.07e-01	0	43	0	401604608	60	5291
2026-01-19 11:19:13.60	122.75	38.80	-45.0	-47.7	23.0	6.06e-01	0	43	0	406847488	60	5228
2026-01-19 11:19:16.58	121.83	39.55	-45.1	-47.8	22.9	6.07e-01	0	43	0	412614656	61	5023
2026-01-19 11:19:19.56	120.86	40.30	-44.7	-47.3	23.3	6.09e-01	0	43	0	417857536	61	4724
2026-01-19 11:19:22.54	119.85	41.06	-44.9	-47.5	23.1	6.06e-01	0	43	0	423624704	61	4858
2026-01-19 11:19:25.52	118.78	41.83	-44.5	-47.1	23.5	6.07e-01	0	43	0	429391872	61	4612
2026-01-19 11:19:28.50	117.67	42.60	-44.5	-47.1	23.5	6.07e-01	0	43	0	434634752	60	4926
2026-01-19 11:19:31.48	116.49	43.37	-44.2	-46.7	23.9	6.06e-01	0	43	0	440401920	60	4690
2026-01-19 11:19:34.45	115.26	44.15	-44.4	-46.9	23.7	6.06e-01	0	43	0	446169088	60	4771
2026-01-19 11:19:37.43	113.97	44.93	-44.4	-46.9	23.8	6.09e-01	0	43	0	451411968	59	5063
2026-01-19 11:19:40.41	112.61	45.71	-44.3	-46.8	23.8	6.07e-01	0	43	0	457179136	59	5014
2026-01-19 11:19:43.39	111.17	46.48	-44.5	-47.1	23.6	6.07e-01	0	43	0	462946304	59	5167
2026-01-19 11:19:46.37	109.67	47.25	-44.6	-47.2	23.5	6.08e-01	0	43	0	468189184	60	4940
2026-01-19 11:19:49.35	108.08	48.02	-44.5	-47.0	23.6	6.05e-01	0	43	0	473956352	60	4853
2026-01-19 11:19:52.33	106.42	48.77	-44.3	-46.9	23.9	6.07e-01	0	43	0	479723520	59	5045
2026-01-19 11:19:55.31	104.67	49.51	-44.3	-46.8	23.7	6.05e-01	0	43	0	484966400	60	4759
2026-01-19 11:19:58.29	102.84	50.23	-44.3	-46.8	23.7	6.08e-01	0	43	0	490733568	60	4734
2026-01-19 11:20:01.26	100.93	50.92	-44.1	-46.6	24.1	6.06e-01	0	43	0	495976448	59	4882
2026-01-19 11:20:04.24	98.91	51.60	-44.0	-46.5	24.1	6.07e-01	0	43	0	501743616	59	4860
2026-01-19 11:20:07.22	96.81	52.24	-43.5	-45.8	24.8	6.08e-01	0	43	0	507510784	59	4465
2026-01-19 11:20:10.20	94.61	52.85	-43.7	-46.2	24.4	6.07e-01	0	43	0	513277952	59	4686
2026-01-19 11:20:13.18	92.32	53.43	-43.8	-46.2	24.4	6.06e-01	0	43	0	518520832	59	4656
2026-01-19 11:20:16.16	89.94	53.96	-43.6	-46.0	24.6	6.06e-01	0	43	0	524288000	59	4587
2026-01-19 11:20:19.14	87.48	54.45	-43.7	-46.2	24.5	6.06e-01	0	43	0	530055168	59	4677
2026-01-19 11:20:22.12	84.93	54.88	-44.1	-46.7	24.0	6.05e-01	0	43	0	535298048	59	4952
2026-01-19 11:20:25.09	82.32	55.27	-44.3	-46.8	23.9	6.08e-01	0	43	0	541065216	59	5040
2026-01-19 11:20:28.07	79.63	55.59	-44.2	-46.6	24.1	6.08e-01	0	43	0	546832384	59	4913
2026-01-19 11:20:31.05	76.89	55.85	-44.6	-47.2	23.6	6.08e-01	0	43	0	552075264	59	5226
2026-01-19 11:20:34.03	74.09	56.05	-45.1	-47.7	23.0	6.08e-01	0	43	0	557842432	60	5267
2026-01-19 11:20:37.01	71.27	56.18	-44.5	-47.1	23.6	6.07e-01	0	43	0	563085312	60	4892
2026-01-19 11:20:39.99	68.43	56.25	-44.5	-46.9	23.8	6.09e-01	0	43	0	568852480	60	4812
2026-01-19 11:20:42.97	65.58	56.24	-44.2	-46.6	24.1	6.06e-01	0	43	0	574619648	60	4626
2026-01-19 11:20:45.95	62.73	56.17	-44.1	-46.6	24.0	6.06e-01	0	43	0	579862528	60	4621
2026-01-19 11:20:48.93	59.91	56.03	-44.7	-47.3	23.5	6.06e-01	0	43	0	585629696	60	4986
2026-01-19 11:20:51.91	57.13	55.83	-45.2	-47.9	22.8	6.06e-01	0	43	0	591396864	61	5054
2026-01-19 11:20:54.89	54.39	55.56	-45.2	-47.9	22.9	6.05e-01	0	43	0	596639744	61	5042
2026-01-19 11:20:57.87	51.71	55.23	-44.8	-47.5	23.3	6.06e-01	0	43	0	602406912	60	5101
2026-01-19 11:21:00.84	49.11	54.84	-44.0	-46.4	24.3	6.07e-01	0	43	0	608174080	59	4805
2026-01-19 11:21:03.82	46.58	54.40	-43.8	-46.1	24.6	6.06e-01	0	44	0	613416960	59	4647
2026-01-19 11:21:06.80	44.13	53.91	-43.7	-46.1	24.6	6.06e-01	0	43	0	619184128	59	4628
2026-01-19 11:21:09.78	41.76	53.37	-43.8	-46.1	24.5	6.07e-01	0	43	0	624951296	59	4647
2026-01-19 11:21:12.76	39.48	52.79	-44.0	-46.5	24.2	6.05e-01	0	43	0	630194176	58	5109
2026-01-19 11:21:15.74	37.30	52.18	-43.2	-45.5	25.1	6.08e-01	0	43	0	635961344	57	4840
2026-01-19 11:21:18.71	35.22	51.54	-43.3	-45.6	25.0	6.06e-01	0	43	0	641204224	57	4922
2026-01-19 11:21:21.69	33.22	50.86	-43.2	-45.5	25.1	6.08e-01	0	44	0	646971392	58	4566
2026-01-19 11:21:24.67	31.31	50.16	-43.5	-45.9	24.7	6.06e-01	0	43	0	652738560	58	4789
2026-01-19 11:21:27.65	29.49	49.44	-43.8	-46.4	24.3	6.05e-01	0	43	0	657981440	58	5043
2026-01-19 11:21:30.63	27.76	48.71	-43.3	-45.6	25.0	6.05e-01	0	43	0	663748608	58	4620
2026-01-19 11:21:33.61	26.11	47.96	-43.6	-46.0	24.7	6.07e-01	0	43	0	669515776	58	4821
2026-01-19 11:21:36.59	24.54	47.20	-43.1	-45.4	25.1	6.06e-01	0	43	0	674758656	58	4544
2026-01-19 11:21:39.56	23.05	46.43	-43.5	-45.9	24.6	6.07e-01	0	43	0	680525824	58	4811
2026-01-19 11:21:42.54	21.63	45.66	-43.1	-45.4	25.2	6.05e-01	0	43	0	686292992	58	4517
2026-01-19 11:21:45.52	20.28	44.88	-43.6	-46.0	24.6	6.07e-01	0	43	0	691535872	58	4845
2026-01-19 11:21:48.50	18.99	44.11	-43.9	-46.3	24.3	6.07e-01	0	43	0	697303040	58	5026
2026-01-19 11:21:51.48	17.77	43.33	-44.0	-46.5	24.2	6.05e-01	0	43	0	703070208	58	5115
2026-01-19 11:21:54.46	16.60	42.56	-43.9	-46.4	24.3	6.05e-01	0	43	0	708313088	58	5066
2026-01-19 11:21:57.44	15.49	41.79	-44.3	-46.8	23.9	6.07e-01	0	43	0	714080256	59	5035
2026-01-19 11:22:00.42	14.44	41.03	-44.2	-46.8	23.8	6.07e-01	0	44	0	719847424	60	4733
2026-01-19 11:22:03.39	13.44	40.27	-45.1	-47.9	22.7	6.06e-01	0	43	0	725090304	60	5397
2026-01-19 11:22:06.37	12.48	39.52	-45.0	-47.8	22.9	6.09e-01	0	43	0	730857472	60	5328
2026-01-19 11:22:09.35	11.56	38.78	-45.1	-47.8	22.9	6.04e-01	0	43	0	736624640	60	5312
2026-01-19 11:22:12.33	10.69	38.05	-45.0	-47.8	22.9	6.06e-01	0	43	0	741867520	61	5018
2026-01-19 11:22:15.31	9.86	37.33	-44.6	-47.2	23.4	6.06e-01	0	43	0	747634688	61	4661
2026-01-19 11:22:18.29	9.06	36.62	-45.2	-47.9	22.8	6.08e-01	0	43	0	753401856	61	5080
2026-01-19 11:22:21.26	8.30	35.92	-44.5	-47.1	23.6	6.04e-01	0	43	0	758644736	60	4881
2026-01-19 11:22:24.24	7.57	35.23	-44.3	-47.0	23.6	6.08e-01	0	43	0	764411904	60	4848
2026-01-19 11:22:27.22	6.87	34.55	-44.1	-46.8	23.9	6.08e-01	0	43	0	770179072	59	5034
2026-01-19 11:22:30.20	6.21	33.88	-44.3	-46.9	23.8	6.06e-01	0	43	0	775421952	59	5064
2026-01-19 11:22:33.18	5.57	33.22	-43.6	-46.0	24.6	6.06e-01	0	43	0	781189120	59	4591
2026-01-19 11:22:36.16	4.95	32.57	-43.5	-45.9	24.7	6.08e-01	0	43	0	786432000	59	4522
2026-01-19 11:22:39.14	4.36	31.93	-43.4	-45.9	24.6	6.04e-01	0	43	0	792199168	58	4801
2026-01-19 11:22:42.12	3.80	31.31	-43.2	-45.6	24.9	6.06e-01	0	43	0	797966336	58	4632
2026-01-19 11:22:45.10	3.25	30.70	-43.2	-45.5	25.0	6.07e-01	0	43	0	803209216	58	4585
2026-01-19 11:22:48.07	2.73	30.09	-43.3	-45.7	24.8	6.08e-01	0	43	0	808976384	58	4681
2026-01-19 11:22:51.05	2.23	29.50	-43.4	-45.7	24.8	6.07e-01	0	43	0	814743552	58	4700
2026-01-19 11:22:54.03	1.75	28.92	-43.3	-45.6	24.9	6.07e-01	0	43	0	819986432	58	4624
2026-01-19 11:22:57.01	1.28	28.35	-43.4	-45.8	24.7	6.05e-01	0	43	0	825753600	58	4743
2026-01-19 11:22:59.99	0.83	27.79	-43.6	-45.9	24.6	6.07e-01	0	43	0	831520768	58	4800
2026-01-19 11:23:02.97	0.40	27.24	-43.5	-45.9	24.6	6.07e-01	0	43	0	836763648	58	4792
2026-01-19 11:23:05.95	359.99	26.70	-43.8	-46.3	24.3	6.07e-01	0	43	0	842530816	58	4999
2026-01-19 11:23:08.93	359.58	26.17	-43.9	-46.4	24.2	6.07e-01	0	43	0	848297984	58	5090
2026-01-19 11:23:11.91	359.20	25.65	-43.8	-46.4	24.1	6.07e-01	0	44	0	853540864	58	5057
2026-01-19 11:23:14.89	358.82	25.14	-43.7	-46.2	24.3	6.03e-01	0	43	0	859308032	58	4967
2026-01-19 11:23:17.87	358.46	24.64	-43.9	-46.4	24.2	6.07e-01	0	43	0	865075200	58	5061
2026-01-19 11:23:20.84	358.11	24.14	-43.9	-46.4	24.2	6.04e-01	0	43	0	870318080	58	5076
2026-01-19 11:23:23.82	357.77	23.66	-44.1	-46.8	23.8	6.05e-01	0	43	0	876085248	58	5282
2026-01-19 11:23:26.80	357.44	23.19	-44.1	-46.7	23.8	6.04e-01	0	43	0	881852416	58	5263
2026-01-19 11:23:29.78	357.13	22.72	-43.9	-46.4	24.1	6.06e-01	0	43	0	887095296	58	5099
2026-01-19 11:23:32.76	356.82	22.26	-43.9	-46.4	24.1	6.05e-01	0	43	0	892862464	58	5083
2026-01-19 11:23:35.74	356.52	21.81	-44.0	-46.6	24.0	6.08e-01	0	43	0	898629632	58	5160
2026-01-19 11:23:38.72	356.23	21.37	-44.1	-46.6	24.0	6.07e-01	0	43	0	903872512	58	5174
2026-01-19 11:23:41.69	355.96	20.93	-44.0	-46.5	24.0	6.06e-01	0	43	0	909639680	58	5159
2026-01-19 11:23:44.67	355.69	20.50	-43.9	-46.4	24.1	6.06e-01	0	43	0	915406848	58	5083
2026-01-19 11:23:47.65	355.42	20.08	-44.0	-46.5	24.1	6.06e-01	0	43	0	920649728	58	5102
2026-01-19 11:23:50.63	355.17	19.67	-43.9	-46.4	24.1	6.06e-01	0	43	0	926416896	58	5096
2026-01-19 11:23:53.61	354.92	19.26	-43.8	-46.6	24.0	6.07e-01	0	43	0	931659776	58	5177
2026-01-19 11:23:56.59	354.68	18.86	-43.7	-46.6	23.9	6.06e-01	0	43	0	937426944	58	5178
2026-01-19 11:23:59.57	354.45	18.47	-43.8	-46.5	23.9	6.05e-01	0	44	0	943194112	58	5156
2026-01-19 11:24:02.54	354.22	18.08	-43.7	-46.5	24.0	6.03e-01	0	43	0	948436992	58	5125
2026-01-19 11:24:05.52	354.00	17.70	-43.4	-46.3	24.1	6.02e-01	0	43	0	954204160	58	5003
2026-01-19 11:24:08.50	353.78	17.33	-43.5	-46.2	24.2	6.04e-01	0	43	0	959971328	58	4979
2026-01-19 11:24:11.48	353.57	16.96	-43.6	-46.1	24.3	6.01e-01	0	43	0	965214208	58	4898
2026-01-19 11:24:14.46	353.37	16.59	-43.8	-46.3	24.2	6.05e-01	0	43	0	970981376	58	4990
2026-01-19 11:24:17.44	353.17	16.24	-43.6	-46.2	24.2	6.03e-01	0	43	0	976748544	58	4983
2026-01-19 11:24:20.42	352.98	15.88	-43.7	-46.4	24.0	6.04e-01	0	43	0	981991424	58	5081
2026-01-19 11:24:23.40	352.79	15.54	-43.9	-46.5	24.0	6.05e-01	0	43	0	987758592	58	5136
2026-01-19 11:24:26.38	352.61	15.19	-43.9	-46.5	24.0	6.07e-01	0	43	0	993525760	58	5141
2026-01-19 11:24:29.35	352.43	14.86	-43.8	-46.6	23.9	6.06e-01	0	43	0	998768640	58	5197
2026-01-19 11:24:32.33	352.26	14.52	-43.8	-46.5	23.9	6.03e-01	0	43	0	1004535808	58	5157
2026-01-19 11:24:35.31	352.09	14.20	-44.0	-46.6	23.9	6.01e-01	0	43	0	1010302976	58	5174
2026-01-19 11:24:38.29	351.92	13.87	-43.8	-46.6	23.8	6.03e-01	0	43	0	1015545856	58	5175
2026-01-19 11:24:41.27	351.76	13.55	-43.8	-46.4	24.0	6.03e-01	0	43	0	1021313024	58	5094
2026-01-19 11:24:44.25	351.60	13.24	-43.5	-46.5	23.9	6.04e-01	0	43	0	1027080192	58	5146
2026-01-19 11:24:47.22	351.45	12.93	-43.0	-46.6	23.7	6.04e-01	0	43	0	1032323072	58	5212
2026-01-19 11:24:50.20	351.30	12.62	-42.9	-46.8	23.6	6.03e-01	0	43	0	1038090240	57	5633
2026-01-19 11:24:53.18	351.16	12.32	-43.2	-46.7	23.6	6.04e-01	0	43	0	1043857408	57	5565
2026-01-19 11:24:56.16	351.01	12.02	-43.3	-46.7	23.6	6.04e-01	0	44	0	1049100288	57	5554
2026-01-19 11:24:59.14	350.87	11.73	-43.3	-46.6	23.7	6.03e-01	0	43	0	1054867456	57	5511
2026-01-19 11:25:02.12	350.74	11.44	-43.2	-46.8	23.5	6.04e-01	0	43	0	1060110336	57	5620
2026-01-19 11:25:05.10	350.60	11.15	-43.2	-46.8	23.5	6.01e-01	0	44	0	1065877504	57	5631
2026-01-19 11:25:08.08	350.47	10.87	-42.5	-46.8	23.4	6.02e-01	0	43	0	1071644672	57	5654
2026-01-19 11:25:11.06	350.35	10.59	-42.0	-47.0	23.3	6.04e-01	0	43	0	1076887552	56	6078
2026-01-19 11:25:14.04	350.22	10.31	-42.3	-47.1	23.1	6.04e-01	0	43	0	1082654720	56	6182
2026-01-19 11:25:17.02	350.10	10.04	-42.9	-47.2	23.1	6.03e-01	0	44	0	1088421888	56	6224
2026-01-19 11:25:20.00	349.98	9.77	-43.6	-47.3	23.0	6.04e-01	0	43	0	1093664768	57	5953
2026-01-19 11:25:22.97	349.86	9.50	-43.6	-47.2	23.1	6.02e-01	0	44	0	1099431936	57	5901
2026-01-19 11:25:25.95	349.75	9.24	-43.8	-47.3	23.0	6.06e-01	0	43	0	1105199104	58	5629
2026-01-19 11:25:28.93	349.64	8.98	-46.3	-60.3	12.1	6.11e-01	0	43	0	1110441984	63	18887
2026-01-19 11:25:31.91	349.53	8.72	-50.4	-72.1	3.9	7.43e-01	0	43	104	1110966272	71	46248
2026-01-19 11:25:34.89	349.42	8.46	-51.3	-72.1	3.8	7.44e-01	0	43	104	1110966272	73	41252
2026-01-19 11:25:37.87	349.32	8.21	-51.0	-72.2	3.8	7.44e-01	0	44	104	1110966272	74	39330
2026-01-19 11:25:40.85	349.21	7.96	-51.2	-72.2	3.8	7.47e-01	0	44	104	1110966272	74	39486
2026-01-19 11:25:43.83	349.11	7.72	-52.2	-72.3	3.8	7.49e-01	0	43	104	1110966272	75	37415
2026-01-19 11:25:46.81	349.02	7.47	-52.1	-72.3	3.8	7.42e-01	0	44	104	1110966272	75	37450
2026-01-19 11:25:49.78	348.92	7.23	-52.4	-72.3	3.8	7.47e-01	0	43	104	1110966272	75	37419
2026-01-19 11:25:52.76	348.83	6.99	-52.0	-72.3	3.8	7.44e-01	0	44	104	1110966272	75	37395
2026-01-19 11:25:55.74	348.73	6.75	-51.6	-72.3	3.8	7.46e-01	0	44	104	1110966272	75	37379
2026-01-19 11:25:58.72	348.64	6.52	-51.4	-72.2	3.8	7.47e-01	0	43	104	1110966272	74	39363
2026-01-19 11:26:01.70	348.55	6.29	-51.4	-72.2	3.8	7.46e-01	0	44	104	1110966272	74	39368
2026-01-19 11:26:04.68	348.47	6.05	-51.4	-72.2	3.8	7.44e-01	0	44	104	1110966272	74	39181
2026-01-19 11:26:07.66	348.38	5.83	-51.4	-72.2	3.8	7.47e-01	0	44	104	1110966272	74	39151
2026-01-19 11:26:10.63	348.30	5.60	-51.3	-72.2	3.8	7.44e-01	0	44	104	1110966272	74	39231
2026-01-19 11:26:13.61	348.21	5.38	-51.4	-72.1	3.8	7.45e-01	0	43	104	1110966272	74	39130
2026-01-19 11:26:16.59	348.13	5.16	-51.3	-72.2	3.8	7.46e-01	0	44	104	1110966272	74	39137
2026-01-19 11:26:19.57	348.05	4.94	-51.4	-72.1	3.8	7.46e-01	0	43	104	1110966272	74	39063

#Closed at: 2026-01-19 11:26:20
#Recorded file [1110 MB]: D:/Data/31040_260119_141506.dat