passes_logs/2026/01/19/T1/T1__20260119_023903_FENGYUN_3D_rec.log

#Pass ID: 20260119_023903_FENGYUN 3D
#Satellite: FENGYUN 3D
#Configuration: FENGYUN 3D
#almurnet v.1.7.20251203
#Start time: 2026-01-19 02:39:05

#Version: 2.0.20230620
#Station: T1
#Location: 37.570604 lon 55.790049 lat
#TLE: 1 43010U 17072A   26017.96359538  .00000271  00000+0  15011-3 0  9999
#TLE: 2 43010  98.9936 349.8252 0002386 103.8840 256.2601 14.19697057423673

#Time	Az	El	Level	Level2	SNR	BER	BlckErr	Temp	State	Recorded	gain1	gain2
2026-01-19 02:39:05.76	11.40	5.15	-46.3	-61.7	3.8	8.47e-01	0	39	0	0	64	20978
2026-01-19 02:39:08.74	11.27	5.36	-46.4	-61.8	3.8	8.46e-01	0	39	104	0	63	22282
2026-01-19 02:39:11.72	11.14	5.57	-46.4	-61.7	3.8	8.46e-01	0	39	104	0	63	22230
2026-01-19 02:39:14.70	11.01	5.78	-46.4	-61.7	3.8	8.48e-01	0	40	104	0	63	22157
2026-01-19 02:39:17.68	10.88	5.99	-46.4	-61.7	3.8	8.48e-01	0	40	104	0	63	22227
2026-01-19 02:39:20.66	10.75	6.20	-46.4	-61.7	3.8	8.49e-01	0	40	104	0	63	22152
2026-01-19 02:39:23.64	10.61	6.41	-46.4	-61.6	3.8	8.47e-01	0	40	104	0	63	21975
2026-01-19 02:39:26.62	10.47	6.63	-46.3	-61.0	3.8	8.46e-01	0	40	104	0	63	20339
2026-01-19 02:39:29.60	10.33	6.84	-46.2	-59.7	3.9	8.45e-01	0	40	104	0	63	17615
2026-01-19 02:39:32.58	10.19	7.06	-46.1	-58.5	4.1	8.40e-01	0	40	0	0	63	15367
2026-01-19 02:39:35.56	10.04	7.28	-46.2	-58.7	4.1	8.42e-01	0	40	0	0	63	15735
2026-01-19 02:39:38.55	9.89	7.50	-46.3	-60.1	3.8	8.45e-01	0	40	104	0	63	18433
2026-01-19 02:39:41.53	9.74	7.73	-46.4	-61.5	3.8	8.47e-01	0	41	104	0	63	21507
2026-01-19 02:39:44.51	9.59	7.95	-46.3	-60.6	3.8	8.48e-01	0	41	104	0	63	19533
2026-01-19 02:39:47.49	9.44	8.18	-45.5	-53.5	7.0	2.94e-01	0	41	0	3145728	63	8632
2026-01-19 02:39:50.47	9.28	8.41	-43.7	-48.1	12.4	6.05e-04	0	41	0	19922944	59	5847
2026-01-19 02:39:53.45	9.12	8.64	-41.8	-45.0	15.4	0.00e+00	0	41	0	36700160	55	5124
2026-01-19 02:39:56.42	8.95	8.87	-41.4	-44.4	16.1	0.00e+00	0	41	0	53477376	54	5068
2026-01-19 02:39:59.41	8.79	9.11	-41.9	-45.1	15.3	1.10e-06	0	41	0	70254592	54	5515
2026-01-19 02:40:02.39	8.62	9.34	-44.0	-49.0	11.4	1.62e-02	0	41	0	87031808	60	6109
2026-01-19 02:40:05.38	8.44	9.58	-39.6	-41.8	18.6	0.00e+00	0	41	0	103809024	51	4482
2026-01-19 02:40:08.36	8.27	9.82	-39.6	-41.8	18.7	0.00e+00	0	41	0	120586240	51	4445
2026-01-19 02:40:11.43	8.08	10.07	-39.5	-41.7	18.9	0.00e+00	0	41	0	138412032	50	4658
2026-01-19 02:40:14.30	7.91	10.31	-39.6	-41.7	18.8	0.00e+00	0	41	0	154140672	50	4705
2026-01-19 02:40:17.43	7.71	10.57	-39.5	-41.7	18.9	0.00e+00	0	41	0	171966464	50	4669
2026-01-19 02:40:20.27	7.54	10.80	-39.7	-41.9	18.7	0.00e+00	0	41	0	187695104	50	4779
2026-01-19 02:40:23.41	7.33	11.07	-39.4	-41.5	19.0	0.00e+00	0	41	0	205520896	50	4580
2026-01-19 02:40:26.33	7.14	11.32	-39.4	-41.4	19.2	0.00e+00	0	41	0	222298112	50	4526
2026-01-19 02:40:29.46	6.93	11.59	-39.3	-41.3	19.3	0.00e+00	0	41	0	239075328	50	4453
2026-01-19 02:40:32.38	6.73	11.84	-39.1	-41.1	19.4	0.00e+00	0	41	0	255852544	50	4383
2026-01-19 02:40:35.55	6.51	12.12	-39.3	-41.3	19.3	0.00e+00	0	41	0	273678336	50	4481
2026-01-19 02:40:38.39	6.31	12.37	-39.1	-41.1	19.5	0.00e+00	0	41	0	289406976	50	4360
2026-01-19 02:40:41.52	6.09	12.65	-39.0	-40.9	19.7	0.00e+00	0	41	0	307232768	50	4287
2026-01-19 02:40:44.37	5.88	12.90	-39.0	-40.9	19.6	0.00e+00	0	41	0	322961408	49	4543
2026-01-19 02:40:47.56	5.64	13.19	-39.0	-40.9	19.7	0.00e+00	0	41	0	340787200	49	4533
2026-01-19 02:40:50.40	5.42	13.45	-38.9	-40.8	19.8	0.00e+00	0	41	0	357564416	49	4468
2026-01-19 02:40:53.53	5.18	13.74	-38.8	-40.7	19.9	0.00e+00	0	42	0	375390208	49	4428
2026-01-19 02:40:56.37	4.95	14.01	-38.7	-40.6	20.0	0.00e+00	0	41	0	391118848	49	4343
2026-01-19 02:40:59.50	4.70	14.30	-38.7	-40.6	20.0	0.00e+00	0	41	0	407896064	49	4350
2026-01-19 02:41:02.34	4.46	14.58	-38.6	-40.4	20.1	0.00e+00	0	42	0	424673280	49	4288
2026-01-19 02:41:05.47	4.20	14.88	-38.5	-40.4	20.2	0.00e+00	0	41	0	442499072	49	4246
2026-01-19 02:41:08.38	3.95	15.16	-38.5	-40.4	20.2	0.00e+00	0	41	0	458227712	48	4506
2026-01-19 02:41:11.50	3.67	15.47	-38.4	-40.3	20.3	0.00e+00	0	42	0	476053504	48	4456
2026-01-19 02:41:14.42	3.41	15.76	-38.3	-40.1	20.5	0.00e+00	0	42	0	492830720	48	4387
2026-01-19 02:41:17.55	3.12	16.07	-38.2	-40.1	20.5	0.00e+00	0	42	0	509607936	48	4360
2026-01-19 02:41:20.39	2.86	16.36	-37.8	-39.6	20.8	0.00e+00	0	42	0	526385152	47	4389
2026-01-19 02:41:23.52	2.56	16.68	-37.6	-39.4	20.9	0.00e+00	0	41	0	543162368	47	4291
2026-01-19 02:41:26.36	2.28	16.97	-37.6	-39.4	20.9	0.00e+00	0	42	0	559939584	47	4283
2026-01-19 02:41:29.49	1.97	17.30	-37.7	-39.5	20.9	0.00e+00	0	42	0	576716800	47	4333
2026-01-19 02:41:32.33	1.68	17.60	-37.8	-39.5	20.9	0.00e+00	0	42	0	593494016	47	4340
2026-01-19 02:41:35.45	1.36	17.93	-37.6	-39.3	21.1	0.00e+00	0	42	0	610271232	47	4237
2026-01-19 02:41:38.29	1.05	18.24	-37.6	-39.3	21.1	0.00e+00	0	42	0	627048448	47	4239
2026-01-19 02:41:41.50	0.70	18.58	-37.4	-39.1	21.3	0.00e+00	0	42	0	644874240	46	4388
2026-01-19 02:41:44.34	0.39	18.90	-37.2	-38.9	21.5	0.00e+00	0	42	0	660602880	46	4277
2026-01-19 02:41:47.47	0.03	19.24	-37.2	-38.9	21.5	0.00e+00	0	42	0	678428672	46	4284
2026-01-19 02:41:50.32	359.70	19.56	-37.1	-38.8	21.6	0.00e+00	0	42	0	694157312	46	4220
2026-01-19 02:41:53.45	359.33	19.92	-37.0	-38.8	21.6	0.00e+00	0	42	0	711983104	45	4445
2026-01-19 02:41:56.36	358.97	20.25	-36.8	-38.5	21.8	0.00e+00	0	42	0	727711744	45	4337
2026-01-19 02:41:59.56	358.57	20.62	-36.8	-38.5	21.9	0.00e+00	0	42	0	746586112	45	4302
2026-01-19 02:42:02.40	358.21	20.95	-36.9	-38.6	21.8	0.00e+00	0	42	0	762314752	45	4364
2026-01-19 02:42:05.53	357.80	21.32	-36.9	-38.6	21.8	0.00e+00	0	42	0	780140544	45	4371
2026-01-19 02:42:08.37	357.42	21.66	-36.8	-38.5	21.8	0.00e+00	0	42	0	795869184	45	4337
2026-01-19 02:42:11.50	356.99	22.04	-36.7	-38.4	22.0	0.00e+00	0	42	0	813694976	45	4273
2026-01-19 02:42:14.34	356.59	22.38	-36.6	-38.3	22.1	0.00e+00	0	42	0	829423616	45	4220
2026-01-19 02:42:17.47	356.14	22.77	-36.7	-38.4	22.0	0.00e+00	0	42	0	847249408	45	4262
2026-01-19 02:42:20.42	355.71	23.13	-36.8	-38.5	21.9	0.00e+00	0	42	0	864026624	45	4315
2026-01-19 02:42:23.55	355.24	23.52	-36.5	-38.2	22.2	0.00e+00	0	42	0	880803840	45	4177
2026-01-19 02:42:26.39	354.80	23.88	-36.1	-37.8	22.5	0.00e+00	0	42	0	897581056	44	4228
2026-01-19 02:42:29.52	354.30	24.28	-36.2	-37.9	22.5	0.00e+00	0	42	0	914358272	44	4249
2026-01-19 02:42:32.36	353.84	24.64	-36.3	-38.0	22.4	0.00e+00	0	42	0	931135488	44	4313
2026-01-19 02:42:35.49	353.31	25.05	-36.5	-38.2	22.2	0.00e+00	0	42	0	947912704	44	4406
2026-01-19 02:42:38.33	352.83	25.42	-36.3	-38.0	22.4	0.00e+00	0	42	0	964689920	44	4293
2026-01-19 02:42:41.46	352.28	25.83	-36.1	-37.8	22.6	0.00e+00	0	42	0	982515712	44	4222
2026-01-19 02:42:44.30	351.77	26.21	-36.0	-37.7	22.6	0.00e+00	0	42	0	998244352	44	4184
2026-01-19 02:42:47.49	351.18	26.64	-36.0	-37.7	22.6	0.00e+00	0	42	0	1016070144	44	4171
2026-01-19 02:42:50.40	350.63	27.03	-35.7	-37.4	22.8	0.00e+00	0	42	0	1031798784	43	4249
2026-01-19 02:42:53.57	350.01	27.46	-35.6	-37.2	23.0	0.00e+00	0	42	0	1050673152	43	4181
2026-01-19 02:42:56.42	349.44	27.85	-35.6	-37.3	22.9	0.00e+00	0	42	0	1066401792	43	4195
2026-01-19 02:42:59.55	348.80	28.28	-35.5	-37.2	22.9	0.00e+00	0	42	0	1083179008	43	4169
2026-01-19 02:43:02.39	348.20	28.67	-35.7	-37.3	22.9	0.00e+00	0	42	0	1099956224	43	4228
2026-01-19 02:43:05.57	347.52	29.12	-35.7	-37.4	22.8	0.00e+00	0	42	0	1117782016	43	4267
2026-01-19 02:43:08.42	346.88	29.52	-35.7	-37.4	22.8	0.00e+00	0	42	0	1133510656	43	4277
2026-01-19 02:43:11.55	346.17	29.95	-35.3	-37.0	23.2	0.00e+00	0	42	0	1151336448	42	4303
2026-01-19 02:43:14.39	345.51	30.35	-35.4	-37.0	23.1	0.00e+00	0	42	0	1167065088	42	4339
2026-01-19 02:43:17.52	344.76	30.80	-35.5	-37.2	23.0	0.00e+00	0	42	0	1184890880	42	4405
2026-01-19 02:43:20.36	344.06	31.20	-35.6	-37.3	22.9	0.00e+00	0	42	0	1200619520	42	4467
2026-01-19 02:43:23.49	343.26	31.64	-35.4	-37.1	23.1	0.00e+00	0	42	0	1218445312	42	4349
2026-01-19 02:43:26.34	342.52	32.05	-35.4	-37.0	23.1	0.00e+00	0	42	0	1234173952	42	4337
2026-01-19 02:43:29.47	341.69	32.49	-35.1	-36.8	23.3	0.00e+00	0	42	0	1251999744	42	4214
2026-01-19 02:43:32.31	340.91	32.89	-35.1	-36.8	23.3	0.00e+00	0	42	0	1267728384	42	4225
2026-01-19 02:43:35.44	340.03	33.34	-35.4	-37.1	23.0	0.00e+00	0	42	0	1285554176	42	4379
2026-01-19 02:43:38.33	339.19	33.74	-35.5	-37.1	23.0	0.00e+00	0	42	0	1302331392	42	4383
2026-01-19 02:43:41.45	338.27	34.18	-35.2	-36.9	23.2	0.00e+00	0	42	0	1319108608	42	4261
2026-01-19 02:43:44.30	337.40	34.58	-35.0	-36.6	23.5	0.00e+00	0	42	0	1334837248	42	4129
2026-01-19 02:43:47.42	336.42	35.01	-34.8	-36.4	23.6	0.00e+00	0	42	0	1352663040	41	4272
2026-01-19 02:43:50.27	335.51	35.40	-34.9	-36.6	23.5	0.00e+00	0	42	0	1369440256	41	4353
2026-01-19 02:43:53.52	334.44	35.85	-35.2	-36.8	23.3	0.00e+00	0	42	0	1387266048	41	4482
2026-01-19 02:43:56.42	333.46	36.23	-35.2	-36.8	23.3	0.00e+00	0	42	0	1404043264	41	4471
2026-01-19 02:43:59.74	332.31	36.67	-35.2	-36.8	23.3	0.00e+00	0	42	0	1421869056	41	4465
2026-01-19 02:44:02.50	331.33	37.03	-35.0	-36.7	23.4	0.00e+00	0	42	0	1437597696	41	4403
2026-01-19 02:44:05.79	330.14	37.46	-35.3	-37.0	23.1	0.00e+00	0	42	0	1456472064	41	4574
2026-01-19 02:44:08.52	329.12	37.80	-35.5	-37.1	23.0	0.00e+00	0	42	0	1472200704	41	4643
2026-01-19 02:44:11.79	327.87	38.20	-35.2	-36.8	23.3	0.00e+00	0	42	0	1490026496	41	4483
2026-01-19 02:44:14.50	326.82	38.52	-35.3	-37.0	23.1	0.00e+00	0	42	0	1504706560	41	4583
2026-01-19 02:44:17.79	325.51	38.90	-35.3	-37.0	23.2	0.00e+00	0	42	0	1523580928	41	4554
2026-01-19 02:44:20.51	324.40	39.21	-35.5	-37.1	23.0	0.00e+00	0	42	0	1539309568	41	4643
2026-01-19 02:44:23.82	323.03	39.57	-35.3	-36.9	23.2	0.00e+00	0	42	0	1558183936	41	4528
2026-01-19 02:44:26.53	321.88	39.85	-35.2	-36.9	23.3	0.00e+00	0	42	0	1572864000	41	4495
2026-01-19 02:44:29.82	320.46	40.18	-35.1	-36.7	23.4	0.00e+00	0	42	0	1591738368	41	4411
2026-01-19 02:44:32.66	319.21	40.45	-35.2	-36.8	23.3	0.00e+00	0	42	0	1607467008	41	4484
2026-01-19 02:44:35.79	317.81	40.73	-35.2	-36.8	23.3	0.00e+00	0	42	0	1625292800	41	4462
2026-01-19 02:44:38.65	316.51	40.97	-34.7	-36.3	23.7	0.00e+00	0	42	0	1641021440	41	4227
2026-01-19 02:44:42.13	314.90	41.24	-35.0	-36.6	23.5	0.00e+00	0	42	0	1660944384	41	4372
2026-01-19 02:44:44.87	313.61	41.44	-35.0	-36.6	23.5	0.00e+00	0	42	0	1676673024	41	4391
2026-01-19 02:44:48.15	312.06	41.65	-34.7	-36.4	23.7	0.00e+00	0	42	0	1694498816	41	4253
2026-01-19 02:44:50.85	310.76	41.81	-34.7	-36.3	23.7	0.00e+00	0	42	0	1709178880	41	4233
2026-01-19 02:44:54.18	309.14	41.99	-34.6	-36.2	23.8	0.00e+00	0	42	0	1728053248	41	4160
2026-01-19 02:44:57.19	307.66	42.12	-35.1	-36.7	23.4	0.00e+00	0	42	0	1745879040	41	4434
2026-01-19 02:45:00.24	306.16	42.24	-35.1	-36.7	23.4	0.00e+00	0	42	0	1762656256	41	4429
2026-01-19 02:45:03.57	304.50	42.34	-34.4	-36.0	24.0	0.00e+00	0	42	0	1781530624	40	4327
2026-01-19 02:45:06.29	303.14	42.41	-34.7	-36.4	23.7	0.00e+00	0	42	0	1796210688	40	4507
2026-01-19 02:45:09.56	301.49	42.46	-34.8	-36.5	23.6	0.00e+00	0	42	0	1815085056	40	4547
2026-01-19 02:45:12.28	300.12	42.48	-34.7	-36.3	23.7	0.00e+00	0	42	0	1830813696	40	4491
2026-01-19 02:45:15.55	298.48	42.48	-35.2	-36.8	23.3	0.00e+00	0	42	0	1848639488	41	4478
2026-01-19 02:45:18.29	297.10	42.47	-34.4	-36.0	24.0	0.00e+00	0	42	0	1864368128	40	4307
2026-01-19 02:45:21.56	295.45	42.42	-34.6	-36.2	23.8	0.00e+00	0	42	0	1882193920	40	4408
2026-01-19 02:45:24.53	293.96	42.36	-34.6	-36.2	23.8	0.00e+00	0	42	0	1898971136	40	4404
2026-01-19 02:45:27.80	292.33	42.26	-34.7	-36.3	23.7	0.00e+00	0	42	0	1917845504	40	4489
2026-01-19 02:45:30.50	290.99	42.16	-34.5	-36.2	23.8	0.00e+00	0	42	0	1932525568	40	4397
2026-01-19 02:45:33.78	289.38	42.02	-34.6	-36.2	23.8	0.00e+00	0	42	0	1951399936	40	4418
2026-01-19 02:45:36.68	287.97	41.87	-34.4	-36.0	24.0	0.00e+00	0	42	0	1967128576	40	4296
2026-01-19 02:45:39.67	286.52	41.70	-34.7	-36.3	23.7	0.00e+00	0	42	0	1984954368	40	4481
2026-01-19 02:45:42.65	285.10	41.51	-34.7	-36.3	23.7	0.00e+00	0	42	0	2000683008	40	4459
2026-01-19 02:45:45.77	283.63	41.29	-34.5	-36.2	23.9	0.00e+00	0	42	0	2018508800	40	4398
2026-01-19 02:45:48.63	282.30	41.07	-34.4	-36.0	24.0	0.00e+00	0	42	0	2035286016	40	4339
2026-01-19 02:45:51.76	280.86	40.82	-34.5	-36.1	23.9	0.00e+00	0	42	0	2052063232	40	4381
2026-01-19 02:45:54.74	279.52	40.56	-34.4	-35.9	24.0	0.00e+00	0	42	0	2068840448	40	4286
2026-01-19 02:45:57.73	278.19	40.28	-34.6	-36.2	23.8	0.00e+00	0	42	0	2085617664	40	4413
2026-01-19 02:46:00.71	276.89	39.99	-34.5	-36.1	23.9	0.00e+00	0	42	0	2102394880	40	4381
2026-01-19 02:46:03.76	275.59	39.68	-34.8	-36.4	23.7	0.00e+00	0	42	0	2120220672	40	4505
2026-01-19 02:46:06.84	274.29	39.35	-34.7	-36.3	23.7	0.00e+00	0	42	0	2136997888	40	4481
2026-01-19 02:46:09.74	273.10	39.02	-34.5	-36.1	23.9	0.00e+00	0	42	0	2153775104	40	4356
2026-01-19 02:46:13.20	271.71	38.62	-34.4	-36.0	24.0	0.00e+00	0	42	0	2172649472	40	4327
2026-01-19 02:46:16.27	270.50	38.26	-34.6	-36.2	23.8	0.00e+00	0	42	0	2190475264	40	4428
2026-01-19 02:46:19.20	269.38	37.90	-34.5	-36.2	23.8	0.00e+00	0	42	0	2206203904	40	4404
2026-01-19 02:46:22.41	268.17	37.50	-34.6	-36.2	23.8	0.00e+00	0	42	0	2225078272	40	4393
2026-01-19 02:46:25.27	267.12	37.13	-34.7	-36.3	23.7	0.00e+00	0	42	0	2240806912	40	4475
2026-01-19 02:46:28.39	266.01	36.73	-34.7	-36.3	23.6	0.00e+00	0	42	0	2258632704	40	4489
2026-01-19 02:46:31.24	265.01	36.35	-34.7	-36.3	23.5	0.00e+00	0	42	0	2274361344	40	4472
2026-01-19 02:46:34.36	263.95	35.93	-34.8	-36.4	23.6	0.00e+00	0	42	0	2292187136	40	4537
2026-01-19 02:46:37.21	263.00	35.54	-34.6	-36.2	23.7	0.00e+00	0	42	0	2307915776	40	4437
2026-01-19 02:46:40.53	261.92	35.09	-34.6	-36.2	23.8	0.00e+00	0	42	0	2326790144	40	4416
2026-01-19 02:46:43.23	261.07	34.71	-34.7	-36.4	23.6	0.00e+00	0	42	0	2341470208	40	4509
2026-01-19 02:46:46.51	260.06	34.25	-34.6	-36.2	23.8	0.00e+00	0	42	0	2360344576	40	4435
2026-01-19 02:46:49.24	259.24	33.87	-34.4	-36.0	23.9	0.00e+00	0	42	0	2376073216	40	4340
2026-01-19 02:46:52.51	258.28	33.41	-34.3	-35.9	24.0	0.00e+00	0	42	0	2393899008	40	4282
2026-01-19 02:46:55.23	257.51	33.02	-34.6	-36.2	23.8	0.00e+00	0	42	0	2409627648	40	4402
2026-01-19 02:46:58.56	256.59	32.55	-34.8	-36.5	23.6	0.00e+00	0	42	0	2428502016	40	4559
2026-01-19 02:47:01.26	255.86	32.16	-34.7	-36.4	23.7	0.00e+00	0	42	0	2443182080	40	4510
2026-01-19 02:47:04.82	254.92	31.65	-34.7	-36.3	23.7	0.00e+00	0	42	0	2463105024	40	4483
2026-01-19 02:47:07.55	254.23	31.26	-34.8	-36.5	23.6	0.00e+00	0	42	0	2478833664	40	4560
2026-01-19 02:47:10.84	253.41	30.80	-35.0	-36.7	23.4	0.00e+00	0	42	0	2497708032	40	4660
2026-01-19 02:47:13.56	252.75	30.41	-35.2	-36.8	23.2	0.00e+00	0	43	0	2512388096	41	4490
2026-01-19 02:47:17.17	251.90	29.90	-35.2	-36.8	23.3	0.00e+00	0	42	0	2533359616	41	4482
2026-01-19 02:47:20.18	251.21	29.48	-35.2	-36.8	23.3	0.00e+00	0	43	0	2550136832	41	4483
2026-01-19 02:47:23.49	250.47	29.01	-35.1	-36.7	23.4	0.00e+00	0	42	0	2567962624	41	4422
2026-01-19 02:47:26.22	249.88	28.63	-35.0	-36.6	23.4	0.00e+00	0	42	0	2583691264	41	4384
2026-01-19 02:47:29.49	249.19	28.18	-35.0	-36.7	23.4	0.00e+00	0	42	0	2602565632	41	4396
2026-01-19 02:47:32.19	248.64	27.80	-35.3	-36.9	23.2	0.00e+00	0	42	0	2617245696	41	4526
2026-01-19 02:47:35.64	247.95	27.33	-35.4	-37.1	23.0	0.00e+00	0	42	0	2637168640	41	4607
2026-01-19 02:47:38.34	247.42	26.96	-35.3	-36.9	23.2	0.00e+00	0	42	0	2651848704	41	4532
2026-01-19 02:47:41.77	246.77	26.50	-35.4	-37.1	23.0	0.00e+00	0	42	0	2671771648	41	4607
2026-01-19 02:47:44.50	246.27	26.13	-35.3	-37.0	23.1	0.00e+00	0	42	0	2686451712	41	4564
2026-01-19 02:47:47.79	245.67	25.69	-35.6	-37.2	22.9	0.00e+00	0	42	0	2705326080	41	4681
2026-01-19 02:47:50.58	245.18	25.32	-35.6	-37.2	22.9	0.00e+00	0	42	0	2721054720	42	4426
2026-01-19 02:47:53.87	244.62	24.89	-35.5	-37.2	23.0	0.00e+00	0	43	0	2738880512	42	4395
2026-01-19 02:47:56.68	244.15	24.53	-35.7	-37.3	22.8	0.00e+00	0	42	0	2754609152	42	4480
2026-01-19 02:47:59.81	243.64	24.12	-35.7	-37.3	22.7	0.00e+00	0	42	0	2772434944	42	4492
2026-01-19 02:48:02.65	243.19	23.76	-35.6	-37.3	22.9	0.00e+00	0	42	0	2789212160	42	4442
2026-01-19 02:48:05.87	242.69	23.35	-35.6	-37.2	22.9	0.00e+00	0	43	0	2807037952	42	4440
2026-01-19 02:48:08.78	242.25	22.99	-35.6	-37.3	22.8	0.00e+00	0	42	0	2822766592	42	4465
2026-01-19 02:48:11.94	241.79	22.60	-35.7	-37.3	22.8	0.00e+00	0	42	0	2840592384	42	4472
2026-01-19 02:48:14.78	241.38	22.25	-35.8	-37.5	22.6	0.00e+00	0	42	0	2857369600	42	4563
2026-01-19 02:48:17.91	240.94	21.87	-36.0	-37.7	22.5	0.00e+00	0	42	0	2874146816	42	4654
2026-01-19 02:48:20.75	240.55	21.52	-36.0	-37.7	22.5	0.00e+00	0	42	0	2890924032	42	4678
2026-01-19 02:48:23.87	240.13	21.15	-36.0	-37.7	22.4	0.00e+00	0	42	0	2907701248	42	4670
2026-01-19 02:48:26.78	239.75	20.81	-36.0	-37.7	22.5	0.00e+00	0	43	0	2924478464	42	4658
2026-01-19 02:48:30.23	239.31	20.40	-36.1	-37.8	22.3	0.00e+00	0	42	0	2943352832	43	4479
2026-01-19 02:48:32.95	238.97	20.09	-36.2	-37.8	22.3	0.00e+00	0	42	0	2959081472	43	4493
2026-01-19 02:48:36.22	238.57	19.71	-36.3	-38.0	22.1	0.00e+00	0	42	0	2977955840	43	4594
2026-01-19 02:48:38.92	238.25	19.41	-36.4	-38.1	22.1	0.00e+00	0	42	0	2992635904	43	4619
2026-01-19 02:48:42.15	237.87	19.05	-36.4	-38.1	22.1	0.00e+00	0	43	0	3011510272	43	4599
2026-01-19 02:48:45.20	237.52	18.71	-36.4	-38.0	22.1	0.00e+00	0	42	0	3028287488	43	4595
2026-01-19 02:48:48.58	237.15	18.34	-36.4	-38.1	22.1	0.00e+00	0	43	0	3047161856	43	4608
2026-01-19 02:48:51.30	236.85	18.04	-36.5	-38.2	21.9	0.00e+00	0	43	0	3062890496	43	4685
2026-01-19 02:48:54.57	236.50	17.69	-37.1	-38.9	21.5	0.00e+00	0	42	0	3080716288	44	4765
2026-01-19 02:48:57.27	236.22	17.40	-37.1	-38.9	21.5	0.00e+00	0	43	0	3096444928	44	4781
2026-01-19 02:49:00.54	235.89	17.06	-37.3	-39.0	21.3	0.00e+00	0	42	0	3114270720	45	4592
2026-01-19 02:49:03.64	235.58	16.73	-37.2	-39.0	21.4	0.00e+00	0	42	0	3132096512	45	4549
2026-01-19 02:49:07.26	235.23	16.36	-37.4	-39.2	21.2	0.00e+00	0	42	0	3152019456	45	4661
2026-01-19 02:49:10.27	234.94	16.05	-37.3	-39.0	21.3	0.00e+00	0	42	0	3168796672	45	4571
2026-01-19 02:49:13.40	234.65	15.74	-37.4	-39.1	21.2	0.00e+00	0	42	0	3186622464	45	4623
2026-01-19 02:49:16.24	234.39	15.45	-37.5	-39.3	21.0	0.00e+00	0	42	0	3202351104	45	4724
2026-01-19 02:49:19.37	234.11	15.14	-37.7	-39.4	20.9	0.00e+00	0	42	0	3220176896	46	4536
2026-01-19 02:49:22.21	233.86	14.87	-37.8	-39.6	20.8	0.00e+00	0	43	0	3235905536	46	4615
2026-01-19 02:49:25.56	233.58	14.54	-37.9	-39.6	20.7	0.00e+00	0	42	0	3254779904	46	4647
2026-01-19 02:49:28.28	233.35	14.28	-38.0	-39.8	20.6	0.00e+00	0	42	0	3270508544	46	4738
2026-01-19 02:49:31.55	233.08	13.97	-38.0	-39.7	20.6	0.00e+00	0	43	0	3289382912	46	4703
2026-01-19 02:49:34.26	232.86	13.71	-38.1	-39.9	20.5	0.00e+00	0	42	0	3304062976	46	4768
2026-01-19 02:49:37.66	232.59	13.40	-38.0	-39.7	20.6	0.00e+00	0	42	0	3322937344	47	4437
2026-01-19 02:49:40.36	232.38	13.15	-38.1	-39.8	20.5	0.00e+00	0	42	0	3338665984	47	4488
2026-01-19 02:49:43.82	232.12	12.83	-38.1	-39.9	20.4	0.00e+00	0	42	0	3357540352	47	4503
2026-01-19 02:49:46.53	231.91	12.59	-38.3	-40.1	20.2	0.00e+00	0	42	0	3373268992	47	4640
2026-01-19 02:49:49.81	231.67	12.29	-38.4	-40.3	20.1	0.00e+00	0	43	0	3391094784	47	4713
2026-01-19 02:49:52.57	231.48	12.05	-38.6	-40.5	19.9	0.00e+00	0	42	0	3406823424	47	4815
2026-01-19 02:49:55.85	231.24	11.76	-38.7	-40.6	20.0	0.00e+00	0	43	0	3425697792	48	4605
2026-01-19 02:49:58.82	231.04	11.50	-38.9	-40.7	19.8	0.00e+00	0	42	0	3442475008	48	4675
2026-01-19 02:50:02.08	230.82	11.22	-38.8	-40.6	19.9	0.00e+00	0	43	0	3460300800	48	4619
2026-01-19 02:50:04.80	230.64	10.99	-38.8	-40.6	19.9	0.00e+00	0	43	0	3476029440	48	4635
2026-01-19 02:50:08.08	230.42	10.71	-38.8	-40.6	19.9	0.00e+00	0	42	0	3493855232	48	4631
2026-01-19 02:50:10.80	230.25	10.48	-39.0	-40.8	19.7	0.00e+00	0	42	0	3509583872	48	4726
2026-01-19 02:50:14.15	230.03	10.20	-39.0	-40.8	19.6	0.00e+00	0	43	0	3528458240	48	4738
2026-01-19 02:50:17.21	229.84	9.95	-39.0	-40.8	19.6	0.00e+00	0	42	0	3545235456	49	4465
2026-01-19 02:50:20.34	229.65	9.70	-39.2	-41.0	19.4	0.00e+00	0	43	0	3563061248	49	4596
2026-01-19 02:50:23.18	229.48	9.47	-39.3	-41.2	19.2	0.00e+00	0	42	0	3578789888	49	4685
2026-01-19 02:50:26.31	229.30	9.21	-39.2	-41.1	19.3	0.00e+00	0	43	0	3596615680	49	4632
2026-01-19 02:50:29.25	229.13	8.98	-39.4	-41.3	19.1	0.00e+00	0	43	0	3613392896	49	4745
2026-01-19 02:50:32.53	228.94	8.72	-50.1	-62.4	3.8	8.46e-01	0	43	104	3616538624	70	16004
2026-01-19 02:50:35.43	228.78	8.50	-50.4	-62.5	3.8	8.46e-01	0	42	104	3616538624	71	15393
2026-01-19 02:50:38.68	228.60	8.24	-50.4	-62.6	3.8	8.46e-01	0	42	104	3616538624	71	15516
2026-01-19 02:50:41.52	228.45	8.03	-50.2	-62.6	3.8	8.46e-01	0	42	104	3616538624	71	15520
2026-01-19 02:50:44.64	228.28	7.79	-50.4	-62.6	3.8	8.46e-01	0	43	104	3616538624	71	15474
2026-01-19 02:50:47.48	228.14	7.57	-50.3	-62.5	3.8	8.47e-01	0	42	104	3616538624	71	15384
2026-01-19 02:50:50.61	227.97	7.34	-50.1	-62.5	3.8	8.46e-01	0	43	104	3616538624	71	15365
2026-01-19 02:50:53.44	227.83	7.13	-50.1	-62.5	3.8	8.47e-01	0	42	104	3616538624	71	15301
2026-01-19 02:50:56.56	227.68	6.90	-50.1	-62.5	3.8	8.47e-01	0	42	104	3616538624	71	15341
2026-01-19 02:50:59.40	227.54	6.69	-50.1	-62.4	3.8	8.49e-01	0	43	104	3616538624	71	15192
2026-01-19 02:51:02.53	227.39	6.46	-50.1	-62.5	3.8	8.47e-01	0	43	104	3616538624	71	15239
2026-01-19 02:51:05.36	227.25	6.26	-50.1	-62.4	3.8	8.46e-01	0	43	104	3616538624	71	15208
2026-01-19 02:51:08.49	227.10	6.03	-50.1	-62.5	3.8	8.48e-01	0	43	104	3616538624	71	15274
2026-01-19 02:51:11.33	226.97	5.83	-50.1	-62.5	3.8	8.46e-01	0	43	104	3616538624	71	15236
2026-01-19 02:51:14.45	226.83	5.61	-50.0	-62.5	3.8	8.48e-01	0	42	104	3616538624	71	15273
2026-01-19 02:51:17.28	226.71	5.41	-50.1	-62.4	3.8	8.48e-01	0	42	104	3616538624	71	15188
2026-01-19 02:51:20.40	226.57	5.19	-50.0	-62.4	3.8	8.47e-01	0	43	104	3616538624	71	15177
2026-01-19 02:51:23.24	226.45	5.00	-50.0	-62.4	3.8	8.47e-01	0	43	104	3616538624	71	15087

#Closed at: 2026-01-19 02:51:24
#Recorded file [3616 MB]: D:/Data/31040_260119_053905.dat