passes_logs/2026/01/19/T1/T1__20260119_122933_FENGYUN_3D_rec.log

#Pass ID: 20260119_122933_FENGYUN 3D
#Satellite: FENGYUN 3D
#Configuration: FENGYUN 3D
#almurnet v.1.7.20251203
#Start time: 2026-01-19 12:29:33

#Version: 2.0.20230620
#Station: T1
#Location: 37.570604 lon 55.790049 lat
#TLE: 1 43010U 17072A   26018.95027258  .00000058  00000+0  49274-4 0  9992
#TLE: 2 43010  98.9939 350.8271 0002416 102.0826 258.0620 14.19696908423819

#Time	Az	El	Level	Level2	SNR	BER	BlckErr	Temp	State	Recorded	gain1	gain2
2026-01-19 12:29:33.30	176.24	4.98	-46.9	-60.1	3.8	8.46e-01	0	37	0	0	64	17391
2026-01-19 12:29:36.28	176.34	5.19	-46.9	-60.1	3.8	8.47e-01	0	37	104	0	65	16331
2026-01-19 12:29:39.26	176.43	5.40	-46.9	-60.1	3.8	8.47e-01	0	37	104	0	65	16388
2026-01-19 12:29:42.24	176.52	5.62	-46.9	-60.1	3.8	8.47e-01	0	37	104	0	65	16435
2026-01-19 12:29:45.22	176.62	5.83	-46.9	-60.1	3.8	8.46e-01	0	38	104	0	65	16375
2026-01-19 12:29:48.20	176.71	6.05	-46.9	-60.0	3.8	8.48e-01	0	37	104	0	65	16314
2026-01-19 12:29:51.17	176.81	6.27	-46.9	-60.1	3.8	8.48e-01	0	38	104	0	65	16348
2026-01-19 12:29:54.15	176.91	6.49	-46.9	-60.0	3.8	8.48e-01	0	38	104	0	65	16309
2026-01-19 12:29:57.13	177.01	6.71	-46.9	-60.1	3.8	8.46e-01	0	38	104	0	65	16376
2026-01-19 12:30:00.11	177.11	6.94	-46.9	-60.1	3.8	8.47e-01	0	38	104	0	65	16337
2026-01-19 12:30:03.09	177.21	7.16	-46.8	-60.1	3.8	8.48e-01	0	38	104	0	65	16363
2026-01-19 12:30:06.07	177.32	7.39	-46.9	-60.1	3.8	8.46e-01	0	38	104	0	65	16412
2026-01-19 12:30:09.05	177.42	7.62	-46.9	-60.1	3.8	8.47e-01	0	38	104	0	65	16369
2026-01-19 12:30:12.03	177.53	7.85	-46.9	-60.1	3.8	8.47e-01	0	38	104	0	65	16357
2026-01-19 12:30:15.01	177.64	8.09	-46.9	-60.1	3.8	8.47e-01	0	38	104	0	65	16392
2026-01-19 12:30:17.99	177.75	8.33	-46.9	-60.1	3.8	8.46e-01	0	38	104	0	65	16381
2026-01-19 12:30:20.96	177.86	8.56	-46.9	-60.1	3.8	8.48e-01	0	39	104	0	65	16397
2026-01-19 12:30:23.94	177.97	8.80	-46.9	-60.1	3.8	8.46e-01	0	39	104	0	65	16390
2026-01-19 12:30:26.92	178.09	9.05	-46.9	-60.1	3.8	8.47e-01	0	39	104	0	65	16381
2026-01-19 12:30:29.90	178.21	9.29	-46.9	-60.1	3.8	8.48e-01	0	39	104	0	65	16391
2026-01-19 12:30:32.88	178.33	9.54	-46.9	-60.1	3.8	8.46e-01	0	39	104	0	65	16398
2026-01-19 12:30:35.86	178.45	9.79	-46.9	-60.1	3.8	8.46e-01	0	39	104	0	65	16369
2026-01-19 12:30:38.84	178.57	10.05	-46.9	-60.1	3.8	8.48e-01	0	39	104	0	65	16384
2026-01-19 12:30:41.82	178.70	10.30	-46.9	-60.1	3.8	8.47e-01	0	39	104	0	65	16372
2026-01-19 12:30:44.80	178.82	10.56	-46.9	-60.1	3.8	8.47e-01	0	39	104	0	65	16470
2026-01-19 12:30:47.78	178.95	10.82	-46.9	-60.1	3.8	8.46e-01	0	39	104	0	65	16371
2026-01-19 12:30:50.75	179.08	11.08	-46.9	-60.1	3.8	8.47e-01	0	39	104	0	65	16411
2026-01-19 12:30:53.73	179.22	11.35	-46.9	-60.1	3.8	8.46e-01	0	39	104	0	65	16376
2026-01-19 12:30:56.71	179.35	11.62	-46.9	-60.1	3.8	8.47e-01	0	39	104	0	65	16391
2026-01-19 12:30:59.69	179.49	11.89	-46.9	-60.1	3.8	8.47e-01	0	39	104	0	65	16414
2026-01-19 12:31:02.67	179.63	12.16	-46.9	-60.1	3.8	8.46e-01	0	39	104	0	65	16437
2026-01-19 12:31:05.65	179.78	12.44	-46.9	-60.1	3.8	8.47e-01	0	39	104	0	65	16387
2026-01-19 12:31:08.63	179.92	12.72	-46.9	-60.1	3.8	8.47e-01	0	39	104	0	65	16354
2026-01-19 12:31:11.61	180.07	13.00	-46.9	-60.1	3.8	8.47e-01	0	39	104	0	65	16432
2026-01-19 12:31:14.59	180.22	13.29	-46.9	-60.1	3.8	8.47e-01	0	39	104	0	65	16414
2026-01-19 12:31:17.57	180.38	13.58	-46.9	-60.1	3.8	8.47e-01	0	39	104	0	65	16354
2026-01-19 12:31:20.55	180.53	13.88	-46.9	-60.1	3.8	8.48e-01	0	39	104	0	65	16414
2026-01-19 12:31:23.52	180.69	14.17	-46.9	-60.1	3.8	8.47e-01	0	39	104	0	65	16358
2026-01-19 12:31:26.50	180.86	14.47	-46.9	-60.1	3.8	8.47e-01	0	39	104	0	65	16439
2026-01-19 12:31:29.48	181.02	14.78	-46.9	-60.1	3.8	8.46e-01	0	39	104	0	65	16419
2026-01-19 12:31:32.46	181.19	15.08	-46.9	-60.1	3.8	8.46e-01	0	40	104	0	65	16383
2026-01-19 12:31:35.44	181.37	15.39	-46.9	-60.1	3.8	8.47e-01	0	40	104	0	65	16395
2026-01-19 12:31:38.42	181.54	15.71	-46.9	-60.1	3.8	8.48e-01	0	39	104	0	65	16446
2026-01-19 12:31:41.40	181.72	16.03	-46.9	-60.1	3.8	8.47e-01	0	40	104	0	65	16447
2026-01-19 12:31:44.38	181.91	16.35	-46.9	-60.2	3.8	8.47e-01	0	40	104	0	65	16504
2026-01-19 12:31:47.36	182.09	16.68	-46.9	-60.1	3.8	8.47e-01	0	39	104	0	65	16411
2026-01-19 12:31:50.34	182.28	17.01	-46.9	-60.1	3.8	8.47e-01	0	39	104	0	65	16453
2026-01-19 12:31:53.32	182.48	17.35	-46.9	-60.1	3.8	8.47e-01	0	39	104	0	65	16451
2026-01-19 12:31:56.30	182.68	17.69	-46.9	-60.1	3.8	8.47e-01	0	40	104	0	65	16417
2026-01-19 12:31:59.27	182.88	18.03	-46.9	-60.1	3.8	8.48e-01	0	40	104	0	65	16441
2026-01-19 12:32:02.25	183.09	18.38	-46.9	-60.1	3.8	8.47e-01	0	40	104	0	65	16415
2026-01-19 12:32:05.23	183.30	18.73	-46.9	-60.1	3.8	8.47e-01	0	40	104	0	65	16464
2026-01-19 12:32:08.21	183.52	19.09	-46.9	-60.1	3.8	8.47e-01	0	40	104	0	65	16424
2026-01-19 12:32:11.19	183.74	19.45	-46.9	-60.1	3.8	8.47e-01	0	40	104	0	65	16503
2026-01-19 12:32:14.17	183.97	19.82	-46.9	-60.1	3.8	8.47e-01	0	40	104	0	65	16390
2026-01-19 12:32:17.15	184.21	20.19	-46.9	-60.1	3.8	8.47e-01	0	40	104	0	65	16442
2026-01-19 12:32:20.13	184.44	20.57	-46.9	-60.2	3.8	8.47e-01	0	40	104	0	65	16511
2026-01-19 12:32:23.11	184.69	20.96	-46.9	-60.1	3.8	8.48e-01	0	40	104	0	65	16417
2026-01-19 12:32:26.08	184.94	21.34	-46.9	-60.1	3.8	8.48e-01	0	40	104	0	65	16481
2026-01-19 12:32:29.06	185.20	21.74	-46.9	-60.1	3.8	8.47e-01	0	40	104	0	65	16496
2026-01-19 12:32:32.04	185.46	22.14	-46.9	-60.1	3.8	8.47e-01	0	39	104	0	65	16434
2026-01-19 12:32:35.02	185.73	22.55	-46.9	-60.1	3.8	8.48e-01	0	40	104	0	65	16461
2026-01-19 12:32:38.00	186.00	22.96	-46.9	-60.1	3.8	8.46e-01	0	40	104	0	65	16492
2026-01-19 12:32:40.98	186.29	23.38	-46.9	-60.1	3.8	8.47e-01	0	40	104	0	65	16415
2026-01-19 12:32:43.96	186.58	23.80	-46.9	-60.1	3.8	8.46e-01	0	40	104	0	65	16466
2026-01-19 12:32:46.94	186.88	24.23	-46.9	-60.1	3.8	8.46e-01	0	40	104	0	65	16376
2026-01-19 12:32:49.91	187.18	24.67	-46.9	-60.1	3.8	8.47e-01	0	40	104	0	65	16428
2026-01-19 12:32:52.89	187.50	25.11	-46.9	-60.2	3.8	8.47e-01	0	40	104	0	65	16549
2026-01-19 12:32:55.87	187.82	25.56	-46.9	-60.2	3.8	8.47e-01	0	40	104	0	65	16506
2026-01-19 12:32:58.85	188.16	26.02	-46.9	-60.1	3.8	8.46e-01	0	40	104	0	65	16391
2026-01-19 12:33:01.83	188.50	26.48	-46.9	-60.1	3.8	8.48e-01	0	40	104	0	65	16438
2026-01-19 12:33:04.81	188.85	26.95	-46.9	-60.1	3.8	8.47e-01	0	40	104	0	65	16434
2026-01-19 12:33:07.79	189.22	27.43	-46.9	-60.1	3.8	8.47e-01	0	40	104	0	65	16419
2026-01-19 12:33:10.76	189.59	27.91	-46.9	-60.1	3.8	8.47e-01	0	40	104	0	65	16410
2026-01-19 12:33:13.74	189.97	28.41	-46.9	-60.1	3.8	8.47e-01	0	40	104	0	65	16346
2026-01-19 12:33:16.72	190.37	28.91	-46.9	-60.1	3.8	8.48e-01	0	40	104	0	65	16403
2026-01-19 12:33:19.70	190.78	29.42	-46.9	-60.1	3.8	8.46e-01	0	40	104	0	65	16350
2026-01-19 12:33:22.68	191.20	29.93	-46.9	-60.1	3.8	8.46e-01	0	40	104	0	65	16368
2026-01-19 12:33:25.66	191.64	30.45	-46.9	-60.1	3.8	8.47e-01	0	40	104	0	65	16398
2026-01-19 12:33:28.64	192.08	30.99	-46.9	-60.1	3.8	8.46e-01	0	40	104	0	65	16360
2026-01-19 12:33:31.61	192.55	31.52	-46.9	-60.1	3.8	8.46e-01	0	40	104	0	65	16411
2026-01-19 12:33:34.59	193.03	32.07	-46.9	-60.1	3.8	8.46e-01	0	40	104	0	65	16362
2026-01-19 12:33:37.57	193.52	32.63	-46.9	-60.1	3.8	8.47e-01	0	40	104	0	65	16429
2026-01-19 12:33:40.55	194.03	33.19	-46.9	-60.1	3.8	8.46e-01	0	40	104	0	65	16431
2026-01-19 12:33:43.53	194.56	33.76	-46.9	-60.1	3.8	8.46e-01	0	40	104	0	65	16401
2026-01-19 12:33:46.51	195.11	34.34	-46.9	-60.1	3.8	8.46e-01	0	40	104	0	65	16400
2026-01-19 12:33:49.49	195.68	34.93	-46.9	-60.1	3.8	8.47e-01	0	40	104	0	65	16375
2026-01-19 12:33:52.47	196.27	35.52	-46.9	-60.1	3.8	8.47e-01	0	40	104	0	65	16367
2026-01-19 12:33:55.45	196.88	36.12	-46.9	-60.1	3.8	8.47e-01	0	40	104	0	65	16442
2026-01-19 12:33:58.43	197.51	36.73	-46.9	-60.1	3.8	8.48e-01	0	40	104	0	65	16376
2026-01-19 12:34:01.41	198.17	37.35	-46.9	-60.1	3.8	8.47e-01	0	40	104	0	65	16380
2026-01-19 12:34:04.38	198.85	37.98	-46.9	-60.1	3.8	8.47e-01	0	40	104	0	65	16393
2026-01-19 12:34:07.36	199.56	38.61	-46.9	-60.1	3.8	8.47e-01	0	40	104	0	65	16396
2026-01-19 12:34:10.34	200.29	39.25	-46.9	-60.1	3.8	8.47e-01	0	40	104	0	65	16395
2026-01-19 12:34:13.32	201.06	39.90	-46.9	-60.1	3.8	8.46e-01	0	40	104	0	65	16425
2026-01-19 12:34:16.30	201.85	40.55	-46.8	-60.1	3.8	8.47e-01	0	40	104	0	65	16351
2026-01-19 12:34:19.28	202.68	41.21	-46.9	-60.1	3.8	8.47e-01	0	40	104	0	65	16466
2026-01-19 12:34:22.26	203.54	41.87	-46.9	-60.1	3.8	8.47e-01	0	40	104	0	65	16398
2026-01-19 12:34:25.24	204.44	42.54	-46.9	-60.1	3.8	8.47e-01	0	40	104	0	65	16365
2026-01-19 12:34:28.21	205.37	43.21	-46.9	-60.1	3.8	8.47e-01	0	40	104	0	65	16342
2026-01-19 12:34:31.19	206.35	43.88	-46.9	-60.1	3.8	8.47e-01	0	40	104	0	65	16434
2026-01-19 12:34:34.17	207.36	44.56	-46.9	-60.1	3.8	8.47e-01	0	40	104	0	65	16342
2026-01-19 12:34:37.15	208.42	45.24	-46.9	-60.1	3.8	8.47e-01	0	40	104	0	65	16380
2026-01-19 12:34:40.13	209.53	45.92	-46.9	-60.1	3.8	8.47e-01	0	40	104	0	65	16369
2026-01-19 12:34:43.11	210.68	46.60	-46.9	-60.1	3.8	8.47e-01	0	40	104	0	65	16432
2026-01-19 12:34:46.09	211.89	47.28	-46.9	-60.1	3.8	8.48e-01	0	40	104	0	65	16317
2026-01-19 12:34:49.07	213.15	47.95	-46.9	-60.1	3.8	8.47e-01	0	40	104	0	65	16389
2026-01-19 12:34:52.05	214.46	48.62	-46.8	-60.1	3.8	8.46e-01	0	40	104	0	65	16392
2026-01-19 12:34:55.02	215.82	49.28	-46.9	-60.1	3.8	8.45e-01	0	40	104	0	65	16420
2026-01-19 12:34:58.00	217.25	49.94	-46.9	-60.1	3.8	8.48e-01	0	40	104	0	65	16398
2026-01-19 12:35:00.98	218.74	50.58	-46.9	-60.1	3.8	8.46e-01	0	40	104	0	65	16460
2026-01-19 12:35:03.96	220.30	51.22	-46.9	-60.1	3.8	8.47e-01	0	40	104	0	65	16465
2026-01-19 12:35:06.94	221.92	51.84	-46.8	-60.1	3.8	8.48e-01	0	40	104	0	65	16391
2026-01-19 12:35:09.92	223.61	52.44	-46.9	-60.1	3.8	8.48e-01	0	40	104	0	65	16434
2026-01-19 12:35:12.90	225.36	53.02	-46.9	-60.1	3.8	8.47e-01	0	40	104	0	65	16405
2026-01-19 12:35:15.88	227.19	53.58	-46.9	-60.1	3.8	8.47e-01	0	40	104	0	65	16362
2026-01-19 12:35:18.86	229.08	54.12	-46.9	-60.1	3.8	8.48e-01	0	40	104	0	65	16437
2026-01-19 12:35:21.84	231.05	54.63	-46.9	-60.1	3.8	8.48e-01	0	40	104	0	65	16406
2026-01-19 12:35:24.81	233.08	55.11	-46.9	-60.1	3.8	8.47e-01	0	40	104	0	65	16414
2026-01-19 12:35:27.79	235.18	55.56	-46.9	-60.1	3.8	8.48e-01	0	40	104	0	65	16492
2026-01-19 12:35:30.77	237.34	55.97	-46.9	-60.1	3.8	8.47e-01	0	40	104	0	65	16388
2026-01-19 12:35:33.75	239.57	56.35	-46.9	-60.1	3.8	8.47e-01	0	40	104	0	65	16408
2026-01-19 12:35:36.73	241.86	56.68	-46.9	-60.1	3.8	8.47e-01	0	40	104	0	65	16467
2026-01-19 12:35:39.71	244.19	56.98	-46.9	-60.1	3.8	8.47e-01	0	40	104	0	65	16394
2026-01-19 12:35:42.69	246.58	57.23	-46.9	-60.1	3.8	8.48e-01	0	40	104	0	65	16377
2026-01-19 12:35:45.67	249.00	57.43	-46.9	-60.1	3.8	8.45e-01	0	40	104	0	65	16462
2026-01-19 12:35:48.65	251.45	57.58	-46.9	-60.1	3.8	8.48e-01	0	40	104	0	65	16401
2026-01-19 12:35:51.62	253.92	57.69	-46.9	-60.1	3.8	8.47e-01	0	40	104	0	65	16387
2026-01-19 12:35:54.60	256.42	57.74	-46.9	-60.1	3.8	8.48e-01	0	40	104	0	65	16436
2026-01-19 12:35:57.58	258.91	57.74	-46.9	-60.1	3.8	8.47e-01	0	40	104	0	65	16440
2026-01-19 12:36:00.56	261.41	57.70	-46.9	-60.1	3.8	8.47e-01	0	40	104	0	65	16502
2026-01-19 12:36:03.54	263.89	57.60	-46.9	-60.1	3.8	8.47e-01	0	40	104	0	65	16388
2026-01-19 12:36:06.52	266.34	57.45	-46.9	-60.1	3.8	8.47e-01	0	40	104	0	65	16422
2026-01-19 12:36:09.50	268.77	57.26	-46.9	-60.1	3.8	8.47e-01	0	40	104	0	65	16468
2026-01-19 12:36:12.48	271.16	57.02	-46.9	-60.1	3.8	8.47e-01	0	40	104	0	65	16399
2026-01-19 12:36:15.45	273.49	56.73	-46.9	-60.1	3.8	8.46e-01	0	40	104	0	65	16394
2026-01-19 12:36:18.43	275.78	56.41	-46.9	-60.2	3.8	8.47e-01	0	40	104	0	65	16507
2026-01-19 12:36:21.41	278.02	56.04	-46.9	-60.1	3.8	8.47e-01	0	40	104	0	65	16411
2026-01-19 12:36:24.39	280.19	55.63	-46.9	-60.1	3.8	8.47e-01	0	40	104	0	65	16410
2026-01-19 12:36:27.37	282.30	55.19	-46.9	-60.1	3.8	8.46e-01	0	40	104	0	65	16416
2026-01-19 12:36:30.35	284.34	54.71	-46.9	-60.2	3.8	8.46e-01	0	40	104	0	65	16504
2026-01-19 12:36:33.33	286.32	54.21	-46.8	-60.1	3.8	8.46e-01	0	40	104	0	65	16397
2026-01-19 12:36:36.31	288.22	53.68	-46.9	-60.1	3.8	8.48e-01	0	40	104	0	65	16371
2026-01-19 12:36:39.28	290.05	53.12	-46.9	-60.1	3.8	8.48e-01	0	40	104	0	65	16416
2026-01-19 12:36:42.26	291.81	52.55	-46.9	-60.1	3.8	8.48e-01	0	40	104	0	65	16411
2026-01-19 12:36:45.24	293.51	51.95	-46.9	-60.1	3.8	8.47e-01	0	40	104	0	65	16422
2026-01-19 12:36:48.22	295.14	51.33	-46.9	-60.1	3.8	8.47e-01	0	40	104	0	65	16410
2026-01-19 12:36:51.20	296.70	50.71	-46.9	-60.1	3.8	8.47e-01	0	40	104	0	65	16453
2026-01-19 12:36:54.18	298.20	50.07	-46.9	-60.1	3.8	8.47e-01	0	40	104	0	65	16434
2026-01-19 12:36:57.16	299.63	49.41	-46.9	-60.1	3.8	8.46e-01	0	40	104	0	65	16372
2026-01-19 12:37:00.13	301.01	48.76	-46.9	-60.1	3.8	8.46e-01	0	40	104	0	65	16363
2026-01-19 12:37:03.11	302.32	48.09	-46.9	-60.1	3.8	8.47e-01	0	40	104	0	65	16443
2026-01-19 12:37:06.09	303.59	47.42	-46.9	-60.1	3.8	8.47e-01	0	40	104	0	65	16371
2026-01-19 12:37:09.07	304.80	46.75	-46.9	-60.1	3.8	8.46e-01	0	40	104	0	65	16382
2026-01-19 12:37:12.05	305.96	46.07	-46.9	-60.1	3.8	8.48e-01	0	40	104	0	65	16479
2026-01-19 12:37:15.03	307.07	45.39	-46.9	-60.1	3.8	8.46e-01	0	40	104	0	65	16343
2026-01-19 12:37:18.01	308.14	44.72	-46.9	-60.1	3.8	8.47e-01	0	40	104	0	65	16472
2026-01-19 12:37:20.98	309.16	44.04	-46.9	-60.1	3.8	8.48e-01	0	40	104	0	65	16463
2026-01-19 12:37:23.96	310.14	43.37	-46.9	-60.0	3.8	8.48e-01	0	40	104	0	65	16298
2026-01-19 12:37:26.94	311.08	42.70	-46.9	-60.1	3.8	8.47e-01	0	40	104	0	65	16419
2026-01-19 12:37:29.92	311.98	42.03	-46.9	-60.1	3.8	8.46e-01	0	40	104	0	65	16460
2026-01-19 12:37:32.90	312.85	41.37	-46.9	-60.1	3.8	8.46e-01	0	40	104	0	65	16410
2026-01-19 12:37:35.88	313.68	40.72	-46.9	-60.1	3.8	8.48e-01	0	40	104	0	65	16423
2026-01-19 12:37:38.86	314.48	40.07	-46.9	-60.1	3.8	8.47e-01	0	40	104	0	65	16448
2026-01-19 12:37:41.84	315.25	39.42	-46.9	-60.1	3.8	8.48e-01	0	40	104	0	65	16438
2026-01-19 12:37:44.81	315.99	38.79	-46.9	-60.1	3.8	8.47e-01	0	40	104	0	65	16399
2026-01-19 12:37:47.79	316.70	38.16	-46.9	-60.1	3.8	8.47e-01	0	40	104	0	65	16370
2026-01-19 12:37:50.77	317.38	37.53	-46.9	-60.1	3.8	8.47e-01	0	40	104	0	65	16427
2026-01-19 12:37:53.75	318.05	36.92	-46.9	-60.1	3.8	8.47e-01	0	40	104	0	65	16431
2026-01-19 12:37:56.73	318.68	36.31	-46.9	-60.1	3.8	8.47e-01	0	40	104	0	65	16411
2026-01-19 12:37:59.71	319.30	35.70	-46.9	-60.1	3.8	8.47e-01	0	40	104	0	65	16470
2026-01-19 12:38:02.69	319.89	35.11	-47.0	-60.1	3.8	8.47e-01	0	40	104	0	65	16483
2026-01-19 12:38:05.67	320.46	34.53	-46.9	-60.1	3.8	8.47e-01	0	40	104	0	65	16421
2026-01-19 12:38:08.65	321.01	33.95	-46.9	-60.1	3.8	8.47e-01	0	40	104	0	65	16434
2026-01-19 12:38:11.63	321.55	33.38	-46.9	-60.1	3.8	8.47e-01	0	40	104	0	65	16398
2026-01-19 12:38:14.61	322.06	32.82	-46.9	-60.1	3.8	8.47e-01	0	40	104	0	65	16459
2026-01-19 12:38:17.58	322.56	32.26	-46.9	-60.1	3.8	8.47e-01	0	40	104	0	65	16491
2026-01-19 12:38:20.56	323.04	31.72	-47.0	-60.1	3.8	8.47e-01	0	40	104	0	65	16379
2026-01-19 12:38:23.54	323.51	31.18	-46.9	-60.1	3.8	8.46e-01	0	40	104	0	65	16463
2026-01-19 12:38:26.52	323.96	30.65	-46.9	-60.1	3.8	8.46e-01	0	40	104	0	65	16478
2026-01-19 12:38:29.50	324.40	30.13	-46.9	-60.1	3.8	8.46e-01	0	40	104	0	65	16430
2026-01-19 12:38:32.48	324.82	29.61	-46.9	-60.2	3.8	8.48e-01	0	40	104	0	65	16536
2026-01-19 12:38:35.46	325.23	29.11	-47.0	-60.1	3.8	8.48e-01	0	40	104	0	65	16447
2026-01-19 12:38:38.44	325.63	28.61	-46.9	-60.1	3.8	8.47e-01	0	40	104	0	65	16478
2026-01-19 12:38:41.42	326.02	28.12	-46.9	-60.2	3.8	8.48e-01	0	40	104	0	65	16525
2026-01-19 12:38:44.40	326.40	27.63	-46.9	-60.1	3.8	8.46e-01	0	40	104	0	65	16480
2026-01-19 12:38:47.38	326.76	27.16	-46.9	-60.1	3.8	8.47e-01	0	40	104	0	65	16458
2026-01-19 12:38:50.35	327.12	26.69	-46.9	-60.1	3.8	8.48e-01	0	40	104	0	65	16434
2026-01-19 12:38:53.33	327.46	26.22	-46.9	-60.1	3.8	8.48e-01	0	40	104	0	65	16483
2026-01-19 12:38:56.31	327.80	25.77	-46.9	-60.1	3.8	8.45e-01	0	40	104	0	65	16468
2026-01-19 12:38:59.29	328.13	25.32	-46.9	-60.1	3.8	8.47e-01	0	40	104	0	65	16497
2026-01-19 12:39:02.27	328.44	24.88	-46.9	-60.1	3.8	8.47e-01	0	40	104	0	65	16453
2026-01-19 12:39:05.25	328.75	24.44	-46.9	-60.1	3.8	8.46e-01	0	40	104	0	65	16404
2026-01-19 12:39:08.23	329.06	24.01	-46.9	-60.1	3.8	8.46e-01	0	40	104	0	65	16440
2026-01-19 12:39:11.20	329.35	23.59	-46.9	-60.1	3.8	8.46e-01	0	40	104	0	65	16457
2026-01-19 12:39:14.18	329.63	23.17	-46.9	-60.2	3.8	8.48e-01	0	40	104	0	65	16504
2026-01-19 12:39:17.16	329.91	22.76	-46.9	-60.1	3.8	8.47e-01	0	40	104	0	65	16458
2026-01-19 12:39:20.14	330.19	22.35	-46.9	-60.1	3.8	8.46e-01	0	40	104	0	65	16418
2026-01-19 12:39:23.12	330.45	21.95	-46.9	-60.1	3.8	8.46e-01	0	40	104	0	65	16449
2026-01-19 12:39:26.10	330.71	21.56	-46.9	-60.1	3.8	8.47e-01	0	40	104	0	65	16499
2026-01-19 12:39:29.08	330.96	21.17	-46.9	-60.1	3.8	8.47e-01	0	39	104	0	65	16442
2026-01-19 12:39:32.06	331.21	20.79	-46.9	-60.2	3.8	8.47e-01	0	40	104	0	65	16517
2026-01-19 12:39:35.04	331.45	20.41	-46.9	-60.1	3.8	8.48e-01	0	40	104	0	65	16441
2026-01-19 12:39:38.02	331.69	20.04	-46.9	-60.1	3.8	8.47e-01	0	40	104	0	65	16465
2026-01-19 12:39:41.00	331.92	19.67	-46.9	-60.1	3.8	8.47e-01	0	40	104	0	65	16445
2026-01-19 12:39:43.97	332.14	19.31	-46.9	-60.1	3.8	8.45e-01	0	40	104	0	65	16464
2026-01-19 12:39:46.95	332.36	18.95	-46.9	-60.1	3.8	8.48e-01	0	40	104	0	65	16453
2026-01-19 12:39:49.93	332.58	18.60	-46.9	-60.2	3.8	8.47e-01	0	40	104	0	65	16511
2026-01-19 12:39:52.91	332.79	18.25	-46.9	-60.1	3.8	8.47e-01	0	40	104	0	65	16413
2026-01-19 12:39:55.89	333.00	17.91	-46.9	-60.2	3.8	8.47e-01	0	40	104	0	65	16518
2026-01-19 12:39:58.87	333.20	17.57	-46.9	-60.1	3.8	8.47e-01	0	40	104	0	65	16454
2026-01-19 12:40:01.85	333.40	17.23	-46.9	-60.1	3.8	8.48e-01	0	40	104	0	65	16502
2026-01-19 12:40:04.83	333.59	16.90	-46.9	-60.1	3.8	8.46e-01	0	40	104	0	65	16464
2026-01-19 12:40:07.81	333.78	16.57	-46.9	-60.1	3.8	8.47e-01	0	40	104	0	65	16391
2026-01-19 12:40:10.79	333.97	16.25	-46.9	-60.1	3.8	8.48e-01	0	40	104	0	65	16468
2026-01-19 12:40:13.76	334.15	15.93	-46.9	-60.1	3.8	8.47e-01	0	40	104	0	65	16377
2026-01-19 12:40:16.74	334.33	15.62	-46.9	-60.1	3.8	8.47e-01	0	40	104	0	65	16391
2026-01-19 12:40:19.72	334.51	15.31	-46.9	-60.1	3.8	8.47e-01	0	40	104	0	65	16450
2026-01-19 12:40:22.70	334.68	15.00	-46.9	-60.1	3.8	8.47e-01	0	40	104	0	65	16452
2026-01-19 12:40:25.68	334.85	14.70	-46.9	-60.1	3.8	8.46e-01	0	40	104	0	65	16413
2026-01-19 12:40:28.66	335.01	14.40	-46.9	-60.1	3.8	8.47e-01	0	40	104	0	65	16416
2026-01-19 12:40:31.64	335.18	14.10	-46.9	-60.2	3.8	8.48e-01	0	39	104	0	65	16555
2026-01-19 12:40:34.62	335.34	13.81	-46.9	-60.1	3.8	8.48e-01	0	40	104	0	65	16431
2026-01-19 12:40:37.59	335.49	13.52	-46.9	-60.1	3.8	8.47e-01	0	40	104	0	65	16443
2026-01-19 12:40:40.57	335.65	13.23	-46.9	-60.1	3.8	8.46e-01	0	40	104	0	65	16434
2026-01-19 12:40:43.55	335.80	12.95	-46.9	-60.1	3.8	8.48e-01	0	40	104	0	65	16471
2026-01-19 12:40:46.53	335.95	12.67	-46.9	-60.1	3.8	8.47e-01	0	40	104	0	65	16423
2026-01-19 12:40:49.51	336.10	12.39	-46.9	-60.1	3.8	8.46e-01	0	40	104	0	65	16369
2026-01-19 12:40:52.49	336.24	12.12	-46.9	-60.1	3.8	8.48e-01	0	40	104	0	65	16451
2026-01-19 12:40:55.47	336.38	11.85	-46.9	-60.1	3.8	8.47e-01	0	40	104	0	65	16423
2026-01-19 12:40:58.44	336.52	11.58	-46.9	-60.1	3.8	8.46e-01	0	40	104	0	65	16483
2026-01-19 12:41:01.42	336.66	11.32	-46.9	-60.1	3.8	8.48e-01	0	40	104	0	65	16493
2026-01-19 12:41:04.40	336.79	11.05	-46.9	-60.1	3.8	8.47e-01	0	40	104	0	65	16383
2026-01-19 12:41:07.38	336.93	10.79	-46.9	-60.1	3.8	8.47e-01	0	40	104	0	65	16378
2026-01-19 12:41:10.36	337.06	10.54	-46.9	-60.1	3.8	8.48e-01	0	40	104	0	65	16447
2026-01-19 12:41:13.34	337.18	10.28	-46.9	-60.1	3.8	8.47e-01	0	40	104	0	65	16449
2026-01-19 12:41:16.32	337.31	10.03	-46.9	-60.1	3.8	8.47e-01	0	40	104	0	65	16478
2026-01-19 12:41:19.29	337.44	9.78	-46.9	-60.1	3.8	8.48e-01	0	40	104	0	65	16465
2026-01-19 12:41:22.27	337.56	9.53	-46.9	-60.1	3.8	8.46e-01	0	40	104	0	65	16489
2026-01-19 12:41:25.25	337.68	9.29	-46.9	-60.1	3.8	8.47e-01	0	40	104	0	65	16390
2026-01-19 12:41:28.23	337.80	9.04	-46.9	-60.2	3.8	8.47e-01	0	40	104	0	65	16519
2026-01-19 12:41:31.21	337.92	8.80	-46.9	-60.1	3.8	8.47e-01	0	40	104	0	65	16371
2026-01-19 12:41:34.19	338.03	8.56	-46.9	-60.1	3.8	8.47e-01	0	40	104	0	65	16463
2026-01-19 12:41:37.17	338.14	8.33	-46.9	-60.1	3.8	8.47e-01	0	40	104	0	65	16428
2026-01-19 12:41:40.14	338.26	8.10	-46.9	-60.1	3.8	8.46e-01	0	40	104	0	65	16444
2026-01-19 12:41:43.12	338.37	7.86	-46.9	-60.1	3.8	8.46e-01	0	40	104	0	65	16428
2026-01-19 12:41:46.10	338.48	7.63	-46.9	-60.1	3.8	8.48e-01	0	40	104	0	65	16481
2026-01-19 12:41:49.08	338.58	7.41	-46.9	-60.1	3.8	8.47e-01	0	40	104	0	65	16407
2026-01-19 12:41:52.06	338.69	7.18	-46.9	-60.1	3.8	8.47e-01	0	40	104	0	65	16484
2026-01-19 12:41:55.04	338.80	6.95	-46.9	-60.1	3.8	8.46e-01	0	40	104	0	65	16380
2026-01-19 12:41:58.02	338.90	6.73	-46.9	-60.1	3.8	8.47e-01	0	40	104	0	65	16432
2026-01-19 12:42:01.00	339.00	6.51	-46.9	-60.1	3.8	8.46e-01	0	40	104	0	65	16347
2026-01-19 12:42:03.98	339.10	6.29	-46.9	-60.1	3.8	8.47e-01	0	40	104	0	65	16367
2026-01-19 12:42:06.95	339.20	6.08	-46.9	-60.1	3.8	8.48e-01	0	40	104	0	65	16465
2026-01-19 12:42:09.93	339.30	5.86	-46.9	-60.1	3.8	8.47e-01	0	40	104	0	65	16388
2026-01-19 12:42:12.91	339.40	5.65	-46.9	-60.1	3.8	8.47e-01	0	40	104	0	65	16461
2026-01-19 12:42:15.89	339.49	5.44	-46.9	-60.1	3.8	8.46e-01	0	40	104	0	65	16446
2026-01-19 12:42:18.87	339.59	5.23	-46.9	-60.1	3.8	8.48e-01	0	40	104	0	65	16448
2026-01-19 12:42:21.85	339.68	5.02	-46.9	-60.1	3.8	8.46e-01	0	40	104	0	65	16432

#Closed at: 2026-01-19 12:42:23
#Recorded file [0 MB]: D:/Data/31040_260119_152933.dat