passes_logs/2026/01/19/T1/T1__20260119_155538_FENGYUN_3E_rec.log

#Pass ID: 20260119_155538_FENGYUN 3E
#Satellite: FENGYUN 3E
#Configuration: FENGYUN 3E
#almurnet v.1.7.20251203
#Start time: 2026-01-19 15:55:38

#Version: 2.0.20230620
#Station: T1
#Location: 37.570604 lon 55.790049 lat
#TLE: 1 49008U 21062A   26018.95190407 -.00000301  00000+0 -12097-3 0  9991
#TLE: 2 49008  98.7482  24.0337 0002210 129.7386 230.3985 14.19884646235406

#Time	Az	El	Level	Level2	SNR	BER	BlckErr	Temp	State	Recorded	gain1	gain2
2026-01-19 15:55:38.24	217.42	5.00	-49.9	-60.9	3.8	8.46e-01	0	37	0	0	70	12565
2026-01-19 15:55:41.22	217.71	5.17	-50.0	-60.8	3.8	8.47e-01	0	37	104	0	70	12453
2026-01-19 15:55:44.21	218.00	5.34	-50.0	-60.8	3.8	8.45e-01	0	37	104	0	70	12506
2026-01-19 15:55:47.19	218.29	5.50	-49.9	-60.8	3.8	8.47e-01	0	37	104	0	70	12378
2026-01-19 15:55:50.18	218.58	5.67	-49.9	-60.8	3.8	8.47e-01	0	38	104	0	70	12471
2026-01-19 15:55:53.17	218.88	5.84	-49.9	-60.9	3.8	8.48e-01	0	38	104	0	70	12542
2026-01-19 15:55:56.16	219.19	6.01	-49.9	-60.8	3.8	8.47e-01	0	38	104	0	70	12427
2026-01-19 15:55:59.14	219.49	6.18	-49.9	-60.7	3.8	8.46e-01	0	38	104	0	70	12314
2026-01-19 15:56:02.13	219.80	6.35	-49.9	-60.8	3.8	8.46e-01	0	38	104	0	70	12481
2026-01-19 15:56:05.12	220.12	6.52	-49.9	-60.7	3.8	8.47e-01	0	38	104	0	70	12363
2026-01-19 15:56:08.11	220.44	6.69	-49.9	-60.6	3.8	8.46e-01	0	38	104	0	70	12220
2026-01-19 15:56:11.10	220.76	6.87	-49.9	-60.8	3.8	8.48e-01	0	39	104	0	70	12500
2026-01-19 15:56:14.08	221.08	7.04	-49.9	-60.7	3.8	8.48e-01	0	38	104	0	70	12375
2026-01-19 15:56:17.07	221.41	7.21	-49.9	-60.7	3.8	8.47e-01	0	38	104	0	70	12332
2026-01-19 15:56:20.06	221.74	7.38	-49.9	-60.5	3.8	8.46e-01	0	39	104	0	70	12044
2026-01-19 15:56:23.04	222.08	7.56	-49.8	-60.1	3.8	8.46e-01	0	39	104	0	70	11542
2026-01-19 15:56:26.03	222.42	7.73	-49.9	-60.6	3.8	8.47e-01	0	39	104	0	70	12111
2026-01-19 15:56:29.01	222.76	7.90	-49.8	-59.7	3.8	8.47e-01	0	39	104	0	70	10960
2026-01-19 15:56:31.99	223.11	8.08	-49.8	-59.7	3.8	8.45e-01	0	39	104	0	70	10914
2026-01-19 15:56:34.98	223.46	8.25	-48.7	-54.4	5.6	7.72e-01	0	39	0	0	68	6674
2026-01-19 15:56:37.97	223.81	8.43	-43.4	-45.1	14.5	1.10e-06	0	39	0	20971520	57	4310
2026-01-19 15:56:40.95	224.17	8.60	-40.6	-41.8	17.6	0.00e+00	0	39	0	42991616	52	3921
2026-01-19 15:56:43.94	224.54	8.78	-41.8	-43.1	16.3	0.00e+00	0	39	0	63963136	52	4577
2026-01-19 15:56:46.93	224.91	8.95	-45.9	-48.6	11.0	1.04e-03	0	39	0	85983232	61	5118
2026-01-19 15:56:49.93	225.28	9.13	-49.3	-58.5	3.8	8.29e-01	0	39	104	104857600	67	11324
2026-01-19 15:56:52.92	225.66	9.31	-49.0	-54.9	5.2	1.14e-01	0	39	0	121634816	67	7506
2026-01-19 15:56:55.93	226.04	9.48	-40.4	-41.6	18.2	0.00e+00	0	39	0	140509184	51	4057
2026-01-19 15:56:58.93	226.43	9.66	-39.6	-40.6	19.1	0.00e+00	0	39	0	162529280	49	4086
2026-01-19 15:57:01.93	226.82	9.84	-39.6	-40.6	19.1	0.00e+00	0	39	0	184549376	49	4090
2026-01-19 15:57:04.94	227.22	10.01	-39.3	-40.3	19.4	0.00e+00	0	39	0	206569472	49	3941
2026-01-19 15:57:07.95	227.62	10.19	-39.2	-40.1	19.6	0.00e+00	0	39	0	227540992	49	3868
2026-01-19 15:57:10.95	228.03	10.37	-39.2	-40.2	19.5	0.00e+00	0	39	0	249561088	48	4134
2026-01-19 15:57:13.96	228.44	10.55	-39.3	-40.3	19.4	0.00e+00	0	39	0	271581184	48	4193
2026-01-19 15:57:16.96	228.86	10.72	-39.4	-40.4	19.4	0.00e+00	0	39	0	292552704	48	4204
2026-01-19 15:57:19.97	229.28	10.90	-39.2	-40.2	19.6	0.00e+00	0	39	0	314572800	48	4109
2026-01-19 15:57:22.97	229.70	11.08	-39.5	-40.5	19.3	0.00e+00	0	39	0	336592896	48	4280
2026-01-19 15:57:25.98	230.14	11.26	-39.5	-40.5	19.3	0.00e+00	0	39	0	357564416	48	4264
2026-01-19 15:57:28.98	230.57	11.43	-39.4	-40.4	19.4	0.00e+00	0	39	0	379584512	48	4220
2026-01-19 15:57:31.98	231.01	11.61	-39.3	-40.3	19.5	0.00e+00	0	39	0	401604608	48	4168
2026-01-19 15:57:34.99	231.46	11.79	-39.2	-40.1	19.6	0.00e+00	0	39	0	422576128	48	4094
2026-01-19 15:57:37.99	231.91	11.96	-39.1	-40.0	19.7	0.00e+00	0	40	0	444596224	48	4042
2026-01-19 15:57:40.99	232.37	12.14	-38.8	-39.7	20.0	0.00e+00	0	39	0	466616320	48	3911
2026-01-19 15:57:44.00	232.83	12.31	-38.6	-39.6	20.2	0.00e+00	0	40	0	488636416	48	3836
2026-01-19 15:57:47.00	233.30	12.49	-38.4	-39.4	20.1	0.00e+00	0	40	0	509607936	47	3977
2026-01-19 15:57:50.00	233.77	12.66	-38.3	-39.3	20.2	0.00e+00	0	40	0	531628032	47	3936
2026-01-19 15:57:53.00	234.25	12.84	-38.5	-39.5	20.1	0.00e+00	0	39	0	553648128	47	4018
2026-01-19 15:57:56.01	234.74	13.01	-38.3	-39.2	20.3	0.00e+00	0	40	0	574619648	47	3905
2026-01-19 15:57:59.02	235.23	13.18	-38.4	-39.3	20.2	0.00e+00	0	39	0	596639744	47	3945
2026-01-19 15:58:02.02	235.72	13.36	-38.3	-39.2	20.3	0.00e+00	0	39	0	618659840	47	3896
2026-01-19 15:58:05.03	236.23	13.53	-38.1	-39.0	20.5	0.00e+00	0	39	0	639631360	46	4030
2026-01-19 15:58:08.03	236.73	13.70	-38.0	-38.9	20.6	0.00e+00	0	40	0	661651456	46	3979
2026-01-19 15:58:11.04	237.25	13.87	-38.0	-38.9	20.6	0.00e+00	0	40	0	683671552	46	3978
2026-01-19 15:58:14.04	237.76	14.04	-38.1	-39.1	20.4	0.00e+00	0	40	0	704643072	46	4052
2026-01-19 15:58:17.05	238.29	14.20	-38.0	-39.0	20.5	0.00e+00	0	40	0	726663168	46	4006
2026-01-19 15:58:20.06	238.82	14.37	-38.0	-38.9	20.5	0.00e+00	0	40	0	748683264	46	4004
2026-01-19 15:58:23.06	239.35	14.54	-38.4	-39.3	20.2	0.00e+00	0	39	0	769654784	46	4187
2026-01-19 15:58:26.07	239.90	14.70	-38.0	-38.9	20.6	0.00e+00	0	40	0	791674880	46	4003
2026-01-19 15:58:29.08	240.44	14.86	-38.0	-38.9	20.6	0.00e+00	0	40	0	813694976	46	3999
2026-01-19 15:58:32.08	241.00	15.02	-37.9	-38.8	20.8	0.00e+00	0	40	0	834666496	46	3935
2026-01-19 15:58:35.08	241.55	15.18	-38.2	-39.2	20.4	0.00e+00	0	40	0	856686592	46	4099
2026-01-19 15:58:38.09	242.12	15.34	-37.9	-38.8	20.7	0.00e+00	0	40	0	878706688	46	3945
2026-01-19 15:58:41.08	242.69	15.50	-38.0	-39.0	20.6	0.00e+00	0	40	0	899678208	46	4021
2026-01-19 15:58:44.09	243.26	15.65	-37.9	-38.8	20.7	0.00e+00	0	40	0	921698304	46	3931
2026-01-19 15:58:47.09	243.85	15.81	-37.5	-38.4	21.1	0.00e+00	0	40	0	943718400	45	3985
2026-01-19 15:58:50.09	244.43	15.96	-37.3	-38.2	21.3	0.00e+00	0	40	0	965738496	45	3901
2026-01-19 15:58:53.09	245.03	16.11	-37.7	-38.6	20.9	0.00e+00	0	40	0	986710016	45	4069
2026-01-19 15:58:56.10	245.63	16.26	-37.7	-38.6	20.9	0.00e+00	0	40	0	1008730112	45	4098
2026-01-19 15:58:59.11	246.23	16.40	-37.7	-38.6	20.9	0.00e+00	0	40	0	1030750208	45	4080
2026-01-19 15:59:02.11	246.84	16.54	-37.7	-38.6	20.9	0.00e+00	0	40	0	1051721728	45	4071
2026-01-19 15:59:05.12	247.46	16.69	-37.7	-38.6	21.0	0.00e+00	0	40	0	1073741824	45	4055
2026-01-19 15:59:08.12	248.08	16.82	-37.4	-38.3	21.2	0.00e+00	0	40	0	1095761920	45	3936
2026-01-19 15:59:11.12	248.71	16.96	-37.3	-38.2	21.3	0.00e+00	0	40	0	1116733440	45	3900
2026-01-19 15:59:14.12	249.34	17.09	-37.5	-38.4	21.2	0.00e+00	0	40	0	1138753536	45	3963
2026-01-19 15:59:17.13	249.98	17.22	-37.4	-38.3	21.2	0.00e+00	0	40	0	1160773632	45	3954
2026-01-19 15:59:20.13	250.62	17.35	-37.3	-38.2	21.3	0.00e+00	0	40	0	1181745152	45	3880
2026-01-19 15:59:23.14	251.27	17.48	-37.3	-38.2	21.3	0.00e+00	0	40	0	1203765248	45	3911
2026-01-19 15:59:26.14	251.92	17.60	-37.5	-38.4	21.1	0.00e+00	0	40	0	1225785344	45	3978
2026-01-19 15:59:29.15	252.59	17.72	-37.3	-38.2	21.3	0.00e+00	0	40	0	1246756864	45	3906
2026-01-19 15:59:32.15	253.25	17.84	-37.4	-38.3	21.2	0.00e+00	0	40	0	1268776960	45	3931
2026-01-19 15:59:35.16	253.92	17.95	-37.3	-38.2	21.3	0.00e+00	0	40	0	1290797056	45	3898
2026-01-19 15:59:38.16	254.59	18.06	-37.2	-38.1	21.4	0.00e+00	0	40	0	1311768576	45	3827
2026-01-19 15:59:41.16	255.27	18.16	-37.0	-37.9	21.6	0.00e+00	0	40	0	1333788672	44	3986
2026-01-19 15:59:44.16	255.95	18.27	-37.1	-37.9	21.6	0.00e+00	0	40	0	1355808768	44	4002
2026-01-19 15:59:47.17	256.64	18.37	-37.1	-37.9	21.5	0.00e+00	0	40	0	1376780288	44	3998
2026-01-19 15:59:50.17	257.33	18.46	-37.1	-38.0	21.4	0.00e+00	0	40	0	1398800384	44	4038
2026-01-19 15:59:53.18	258.03	18.55	-37.0	-37.9	21.6	0.00e+00	0	40	0	1420820480	44	3987
2026-01-19 15:59:56.18	258.73	18.64	-37.0	-37.9	21.6	0.00e+00	0	40	0	1441792000	44	3974
2026-01-19 15:59:59.18	259.43	18.73	-37.1	-38.0	21.5	0.00e+00	0	40	0	1463812096	44	4011
2026-01-19 16:00:02.18	260.14	18.81	-37.0	-37.9	21.6	0.00e+00	0	40	0	1485832192	44	3996
2026-01-19 16:00:05.19	260.85	18.88	-37.2	-38.1	21.5	0.00e+00	0	40	0	1506803712	44	4062
2026-01-19 16:00:08.19	261.56	18.95	-37.1	-38.0	21.4	0.00e+00	0	40	0	1528823808	44	4047
2026-01-19 16:00:11.19	262.28	19.02	-37.3	-38.2	21.3	0.00e+00	0	40	0	1550843904	44	4135
2026-01-19 16:00:14.20	263.00	19.09	-37.3	-38.2	21.3	0.00e+00	0	40	0	1572864000	44	4124
2026-01-19 16:00:17.20	263.72	19.15	-37.3	-38.2	21.3	0.00e+00	0	40	0	1593835520	44	4127
2026-01-19 16:00:20.20	264.45	19.20	-37.0	-37.8	21.7	0.00e+00	0	40	0	1615855616	44	3954
2026-01-19 16:00:23.20	265.18	19.25	-36.7	-37.5	21.9	0.00e+00	0	40	0	1637875712	44	3824
2026-01-19 16:00:26.21	265.91	19.30	-36.8	-37.6	21.9	0.00e+00	0	40	0	1658847232	44	3859
2026-01-19 16:00:29.21	266.64	19.34	-37.1	-38.0	21.5	0.00e+00	0	40	0	1680867328	44	4025
2026-01-19 16:00:32.21	267.37	19.38	-37.0	-37.9	21.6	0.00e+00	0	40	0	1702887424	44	3976
2026-01-19 16:00:35.22	268.11	19.41	-37.1	-38.0	21.5	0.00e+00	0	40	0	1723858944	44	4028
2026-01-19 16:00:38.21	268.84	19.44	-36.9	-37.8	21.7	0.00e+00	0	40	0	1745879040	44	3929
2026-01-19 16:00:41.22	269.58	19.46	-37.0	-37.9	21.6	0.00e+00	0	40	0	1766850560	44	3973
2026-01-19 16:00:44.22	270.32	19.48	-37.1	-38.0	21.6	0.00e+00	0	40	0	1788870656	44	4022
2026-01-19 16:00:47.22	271.06	19.49	-37.0	-37.9	21.6	0.00e+00	0	40	0	1810890752	44	3977
2026-01-19 16:00:50.23	271.80	19.50	-37.0	-37.9	21.6	0.00e+00	0	40	0	1831862272	44	3964
2026-01-19 16:00:53.22	272.54	19.51	-37.0	-37.9	21.6	0.00e+00	0	40	0	1853882368	44	4001
2026-01-19 16:00:56.22	273.28	19.51	-36.9	-37.8	21.7	0.00e+00	0	40	0	1875902464	44	3930
2026-01-19 16:00:59.22	274.02	19.50	-36.7	-37.6	21.9	0.00e+00	0	40	0	1896873984	44	3852
2026-01-19 16:01:02.23	274.76	19.49	-36.6	-37.4	21.9	0.00e+00	0	40	0	1918894080	43	4004
2026-01-19 16:01:05.23	275.50	19.48	-36.8	-37.7	21.7	0.00e+00	0	40	0	1940914176	43	4123
2026-01-19 16:01:08.23	276.24	19.46	-37.1	-38.0	21.4	0.00e+00	0	40	0	1961885696	43	4266
2026-01-19 16:01:11.23	276.98	19.43	-37.4	-38.3	21.3	0.00e+00	0	40	0	1983905792	44	4173
2026-01-19 16:01:14.24	277.71	19.41	-37.3	-38.2	21.4	0.00e+00	0	40	0	2005925888	44	4124
2026-01-19 16:01:17.24	278.45	19.37	-37.0	-37.9	21.6	0.00e+00	0	40	0	2026897408	44	3981
2026-01-19 16:01:20.24	279.18	19.34	-37.0	-37.9	21.6	0.00e+00	0	40	0	2048917504	44	3990
2026-01-19 16:01:23.25	279.91	19.29	-37.2	-38.1	21.5	0.00e+00	0	40	0	2070937600	44	4061
2026-01-19 16:01:26.25	280.64	19.25	-37.2	-38.1	21.4	0.00e+00	0	40	0	2092957696	44	4078
2026-01-19 16:01:29.26	281.37	19.20	-37.1	-38.0	21.5	0.00e+00	0	40	0	2113929216	44	4041
2026-01-19 16:01:32.26	282.09	19.14	-36.9	-37.8	21.7	0.00e+00	0	40	0	2135949312	44	3933
2026-01-19 16:01:35.26	282.81	19.08	-37.1	-37.9	21.6	0.00e+00	0	40	0	2157969408	44	4001
2026-01-19 16:01:38.26	283.53	19.02	-37.3	-38.2	21.4	0.00e+00	0	40	0	2178940928	44	4105
2026-01-19 16:01:41.26	284.25	18.95	-37.4	-38.3	21.3	0.00e+00	0	40	0	2200961024	44	4159
2026-01-19 16:01:44.27	284.96	18.88	-37.3	-38.2	21.4	0.00e+00	0	40	0	2222981120	44	4110
2026-01-19 16:01:47.27	285.67	18.80	-37.2	-38.1	21.5	0.00e+00	0	40	0	2243952640	44	4065
2026-01-19 16:01:50.27	286.37	18.72	-37.7	-38.6	21.0	0.00e+00	0	40	0	2265972736	44	4307
2026-01-19 16:01:53.27	287.07	18.64	-37.2	-38.1	21.4	0.00e+00	0	40	0	2286944256	44	4092
2026-01-19 16:01:56.27	287.77	18.55	-37.3	-38.2	21.4	0.00e+00	0	40	0	2308964352	44	4125
2026-01-19 16:01:59.28	288.47	18.46	-37.2	-38.1	21.4	0.00e+00	0	40	0	2330984448	44	4087
2026-01-19 16:02:02.28	289.16	18.36	-37.3	-38.2	21.3	0.00e+00	0	40	0	2351955968	44	4138
2026-01-19 16:02:05.29	289.84	18.26	-37.4	-38.3	21.2	0.00e+00	0	40	0	2373976064	44	4172
2026-01-19 16:02:08.29	290.52	18.16	-37.6	-38.6	20.9	0.00e+00	0	40	0	2395996160	44	4302
2026-01-19 16:02:11.29	291.20	18.06	-37.6	-38.5	21.0	0.00e+00	0	40	0	2418016256	44	4269
2026-01-19 16:02:14.30	291.87	17.95	-37.5	-38.3	21.1	0.00e+00	0	40	0	2438987776	44	4191
2026-01-19 16:02:17.31	292.54	17.83	-37.5	-38.4	21.1	0.00e+00	0	40	0	2461007872	44	4213
2026-01-19 16:02:20.31	293.20	17.72	-37.7	-38.6	21.0	0.00e+00	0	40	0	2483027968	44	4300
2026-01-19 16:02:23.31	293.85	17.60	-37.6	-38.5	21.1	0.00e+00	0	40	0	2503999488	44	4256
2026-01-19 16:02:26.32	294.51	17.48	-37.7	-38.6	21.0	0.00e+00	0	40	0	2526019584	44	4322
2026-01-19 16:02:29.33	295.15	17.35	-37.6	-38.5	21.1	0.00e+00	0	40	0	2548039680	44	4266
2026-01-19 16:02:32.33	295.79	17.23	-37.7	-38.6	21.0	0.00e+00	0	40	0	2569011200	44	4303
2026-01-19 16:02:35.33	296.43	17.10	-37.8	-38.8	20.8	0.00e+00	0	40	0	2591031296	45	4156
2026-01-19 16:02:38.33	297.06	16.96	-37.8	-38.7	20.8	0.00e+00	0	40	0	2613051392	45	4125
2026-01-19 16:02:41.33	297.68	16.83	-38.2	-39.1	20.5	0.00e+00	0	40	0	2634022912	45	4336
2026-01-19 16:02:44.34	298.30	16.69	-38.2	-39.1	20.5	0.00e+00	0	40	0	2656043008	46	4086
2026-01-19 16:02:47.34	298.92	16.55	-38.1	-39.0	20.6	0.00e+00	0	40	0	2678063104	46	4024
2026-01-19 16:02:50.34	299.52	16.41	-38.0	-38.9	20.6	0.00e+00	0	40	0	2700083200	46	3993
2026-01-19 16:02:53.35	300.13	16.26	-38.2	-39.1	20.5	0.00e+00	0	40	0	2721054720	46	4074
2026-01-19 16:02:56.35	300.72	16.12	-38.2	-39.2	20.4	0.00e+00	0	40	0	2743074816	46	4105
2026-01-19 16:02:59.35	301.31	15.97	-38.3	-39.3	20.4	0.00e+00	0	40	0	2765094912	46	4153
2026-01-19 16:03:02.36	301.90	15.82	-38.3	-39.3	20.3	0.00e+00	0	40	0	2786066432	46	4154
2026-01-19 16:03:05.36	302.48	15.67	-38.4	-39.3	20.3	0.00e+00	0	40	0	2808086528	46	4184
2026-01-19 16:03:08.36	303.05	15.51	-38.4	-39.3	20.3	0.00e+00	0	40	0	2829058048	46	4184
2026-01-19 16:03:11.36	303.62	15.36	-38.4	-39.3	20.2	0.00e+00	0	40	0	2851078144	46	4188
2026-01-19 16:03:14.36	304.18	15.20	-38.1	-39.1	20.5	0.00e+00	0	40	0	2873098240	46	4062
2026-01-19 16:03:17.37	304.74	15.04	-38.4	-39.3	20.3	0.00e+00	0	40	0	2894069760	46	4174
2026-01-19 16:03:20.37	305.29	14.88	-38.4	-39.3	20.3	0.00e+00	0	40	0	2916089856	46	4173
2026-01-19 16:03:23.38	305.83	14.72	-38.7	-39.7	20.0	0.00e+00	0	40	0	2938109952	46	4343
2026-01-19 16:03:26.38	306.37	14.56	-38.9	-39.9	19.7	0.00e+00	0	40	0	2959081472	47	4235
2026-01-19 16:03:29.39	306.90	14.39	-38.9	-39.9	19.7	0.00e+00	0	40	0	2981101568	47	4236
2026-01-19 16:03:32.39	307.43	14.23	-38.9	-39.9	19.7	0.00e+00	0	40	0	3003121664	47	4205
2026-01-19 16:03:35.39	307.95	14.06	-38.9	-39.9	19.7	0.00e+00	0	40	0	3025141760	47	4201
2026-01-19 16:03:38.40	308.47	13.90	-38.9	-39.9	19.7	0.00e+00	0	40	0	3046113280	47	4232
2026-01-19 16:03:41.39	308.98	13.73	-38.8	-39.7	19.8	0.00e+00	0	40	0	3068133376	47	4145
2026-01-19 16:03:44.40	309.48	13.56	-38.7	-39.7	19.8	0.00e+00	0	40	0	3090153472	47	4129
2026-01-19 16:03:47.41	309.98	13.39	-38.9	-39.9	19.7	0.00e+00	0	40	0	3111124992	47	4221
2026-01-19 16:03:50.41	310.48	13.22	-39.2	-40.2	19.3	0.00e+00	0	40	0	3133145088	47	4367
2026-01-19 16:03:53.42	310.96	13.05	-39.5	-40.6	19.3	0.00e+00	0	40	0	3155165184	48	4303
2026-01-19 16:03:56.42	311.45	12.88	-39.6	-40.6	19.3	0.00e+00	0	40	0	3176136704	48	4314
2026-01-19 16:03:59.43	311.92	12.70	-39.3	-40.3	19.5	0.00e+00	0	40	0	3198156800	48	4179
2026-01-19 16:04:02.43	312.40	12.53	-39.1	-40.1	19.7	0.00e+00	0	40	0	3220176896	48	4059
2026-01-19 16:04:05.43	312.86	12.36	-38.9	-39.9	19.9	0.00e+00	0	40	0	3241148416	48	3977
2026-01-19 16:04:08.44	313.32	12.18	-38.8	-39.8	20.0	0.00e+00	0	40	0	3263168512	48	3920
2026-01-19 16:04:11.44	313.78	12.01	-39.2	-40.2	19.6	0.00e+00	0	40	0	3285188608	48	4101
2026-01-19 16:04:14.45	314.23	11.83	-39.5	-40.5	19.3	0.00e+00	0	40	0	3307208704	48	4287
2026-01-19 16:04:17.45	314.67	11.66	-39.8	-40.8	19.0	0.00e+00	0	40	0	3328180224	48	4420
2026-01-19 16:04:20.46	315.12	11.49	-39.8	-40.8	19.0	0.00e+00	0	40	0	3350200320	49	4191
2026-01-19 16:04:23.46	315.55	11.31	-39.7	-40.7	19.1	0.00e+00	0	40	0	3371171840	49	4142
2026-01-19 16:04:26.47	315.98	11.13	-39.6	-40.6	19.1	0.00e+00	0	40	0	3393191936	49	4095
2026-01-19 16:04:29.47	316.41	10.96	-39.4	-40.4	19.4	0.00e+00	0	40	0	3415212032	49	3973
2026-01-19 16:04:32.48	316.83	10.78	-39.3	-40.3	19.5	0.00e+00	0	40	0	3436183552	49	3940
2026-01-19 16:04:35.49	317.24	10.61	-39.4	-40.5	19.3	0.00e+00	0	40	0	3458203648	49	4006
2026-01-19 16:04:38.49	317.65	10.43	-39.3	-40.4	19.4	0.00e+00	0	40	0	3480223744	49	3967
2026-01-19 16:04:41.50	318.06	10.26	-39.7	-40.8	19.0	0.00e+00	0	40	0	3502243840	49	4177
2026-01-19 16:04:44.50	318.46	10.08	-40.0	-41.1	18.6	0.00e+00	0	40	0	3523215360	49	4329
2026-01-19 16:04:47.49	318.86	9.91	-40.1	-41.3	18.5	0.00e+00	0	40	0	3545235456	49	4418
2026-01-19 16:04:50.50	319.25	9.73	-40.1	-41.3	18.5	0.00e+00	0	40	0	3567255552	49	4403
2026-01-19 16:04:53.50	319.64	9.55	-39.9	-41.0	18.7	0.00e+00	0	40	0	3588227072	49	4285
2026-01-19 16:04:56.50	320.02	9.38	-40.0	-41.2	18.5	0.00e+00	0	40	0	3610247168	49	4375
2026-01-19 16:04:59.50	320.40	9.20	-40.0	-41.2	18.5	0.00e+00	0	40	0	3632267264	49	4351
2026-01-19 16:05:02.50	320.77	9.03	-40.0	-41.2	18.5	0.00e+00	0	40	0	3653238784	49	4353
2026-01-19 16:05:05.49	321.14	8.86	-50.1	-61.4	3.8	8.47e-01	0	40	104	3663724544	70	13274
2026-01-19 16:05:08.48	321.50	8.68	-50.5	-61.7	3.8	8.48e-01	0	40	104	3663724544	70	13849
2026-01-19 16:05:11.47	321.86	8.51	-50.8	-61.8	3.8	8.47e-01	0	40	104	3663724544	71	13165
2026-01-19 16:05:14.46	322.22	8.34	-51.1	-61.9	3.8	8.48e-01	0	40	104	3663724544	71	13291
2026-01-19 16:05:17.44	322.57	8.16	-51.2	-61.8	3.8	8.46e-01	0	40	104	3663724544	71	13206
2026-01-19 16:05:20.43	322.92	7.99	-51.1	-61.8	3.8	8.47e-01	0	40	104	3663724544	71	13125
2026-01-19 16:05:23.42	323.26	7.82	-50.8	-61.7	3.8	8.47e-01	0	40	104	3663724544	71	13103
2026-01-19 16:05:26.40	323.60	7.65	-50.7	-61.7	3.8	8.47e-01	0	40	104	3663724544	71	13036
2026-01-19 16:05:29.39	323.94	7.48	-50.7	-61.7	3.8	8.47e-01	0	40	104	3663724544	71	13098
2026-01-19 16:05:32.38	324.27	7.30	-50.7	-61.7	3.8	8.47e-01	0	40	104	3663724544	71	13026
2026-01-19 16:05:35.36	324.60	7.13	-50.7	-61.7	3.8	8.48e-01	0	40	104	3663724544	71	13040
2026-01-19 16:05:38.35	324.92	6.96	-50.7	-61.7	3.8	8.47e-01	0	40	104	3663724544	71	13030
2026-01-19 16:05:41.34	325.24	6.79	-50.7	-61.7	3.8	8.47e-01	0	40	104	3663724544	71	12974
2026-01-19 16:05:44.32	325.56	6.62	-50.7	-61.7	3.8	8.47e-01	0	40	104	3663724544	71	13013
2026-01-19 16:05:47.31	325.87	6.45	-50.7	-61.7	3.8	8.46e-01	0	40	104	3663724544	71	13073
2026-01-19 16:05:50.29	326.18	6.29	-50.7	-61.6	3.8	8.47e-01	0	40	104	3663724544	71	12954
2026-01-19 16:05:53.28	326.49	6.12	-50.7	-61.7	3.8	8.46e-01	0	40	104	3663724544	71	13047
2026-01-19 16:05:56.26	326.79	5.95	-50.7	-61.6	3.8	8.47e-01	0	40	104	3663724544	71	12950
2026-01-19 16:05:59.25	327.09	5.78	-50.7	-61.6	3.8	8.46e-01	0	40	104	3663724544	71	12908
2026-01-19 16:06:02.23	327.39	5.62	-50.7	-61.6	3.8	8.47e-01	0	40	104	3663724544	71	12925
2026-01-19 16:06:05.22	327.69	5.45	-50.7	-61.7	3.8	8.47e-01	0	40	104	3663724544	71	13020
2026-01-19 16:06:08.21	327.98	5.28	-50.7	-61.7	3.8	8.45e-01	0	40	104	3663724544	71	12991
2026-01-19 16:06:11.19	328.26	5.12	-50.7	-61.6	3.8	8.46e-01	0	40	104	3663724544	71	12899
2026-01-19 16:06:14.18	328.55	4.95	-50.7	-61.6	3.8	8.46e-01	0	40	104	3663724544	71	12883

#Closed at: 2026-01-19 16:06:15
#Recorded file [3663 MB]: D:/Data/31040_260119_185538.dat