passes_logs/2026/01/19/T1/T1__20260119_211532_FENGYUN_3G_rec.log

#Pass ID: 20260119_211532_FENGYUN 3G
#Satellite: FENGYUN 3G
#Configuration: FENGYUN 3G
#almurnet v.1.7.20251203
#Start time: 2026-01-19 21:15:31

#Version: 2.0.20230620
#Station: T1
#Location: 37.570604 lon 55.790049 lat
#TLE: 1 56232U 23055A   26019.29402138  .00031930  00000+0  49376-3 0  9997
#TLE: 2 56232  49.9940  33.7754 0004164  48.8313 311.3013 15.53733440156869

#Time	Az	El	Level	Level2	SNR	BER	BlckErr	Temp	State	Recorded	gain1	gain2
2026-01-19 21:15:31.90	245.00	5.06	-50.4	-69.2	3.8	8.45e-01	0	40	0	0	72	31430
2026-01-19 21:15:33.88	244.83	5.21	-50.4	-69.2	3.8	8.48e-01	0	40	104	0	72	31339
2026-01-19 21:15:35.87	244.66	5.36	-50.4	-69.1	3.8	8.48e-01	0	40	104	0	72	31043
2026-01-19 21:15:37.86	244.49	5.52	-50.4	-69.0	3.8	8.47e-01	0	41	104	0	72	30702
2026-01-19 21:15:39.84	244.32	5.67	-50.4	-68.9	3.8	8.46e-01	0	40	104	0	72	30250
2026-01-19 21:15:41.83	244.14	5.83	-50.4	-68.8	3.8	8.48e-01	0	41	104	0	72	29753
2026-01-19 21:15:43.82	243.96	5.99	-50.4	-68.8	3.8	8.48e-01	0	41	104	0	72	29785
2026-01-19 21:15:45.80	243.78	6.14	-50.4	-68.9	3.8	8.48e-01	0	41	104	0	72	30351
2026-01-19 21:15:47.79	243.59	6.30	-50.4	-68.8	3.8	8.46e-01	0	41	104	0	72	29904
2026-01-19 21:15:49.78	243.40	6.47	-50.3	-68.7	3.8	8.48e-01	0	41	104	0	72	29553
2026-01-19 21:15:51.76	243.21	6.63	-50.3	-68.9	3.8	8.47e-01	0	41	104	0	72	30111
2026-01-19 21:15:53.75	243.02	6.79	-50.4	-69.1	3.8	8.47e-01	0	41	104	0	72	30921
2026-01-19 21:15:55.74	242.82	6.96	-50.4	-69.0	3.8	8.47e-01	0	41	104	0	72	30484
2026-01-19 21:15:57.72	242.62	7.12	-50.3	-68.9	3.8	8.46e-01	0	41	104	0	72	30258
2026-01-19 21:15:59.71	242.41	7.29	-50.3	-69.0	3.8	8.46e-01	0	41	104	0	72	30684
2026-01-19 21:16:01.70	242.20	7.46	-50.3	-68.4	3.8	8.48e-01	0	41	104	0	72	28578
2026-01-19 21:16:03.68	241.99	7.63	-50.3	-67.3	3.8	8.47e-01	0	41	104	0	72	25132
2026-01-19 21:16:05.67	241.78	7.80	-50.3	-67.3	3.8	8.45e-01	0	41	104	0	72	24988
2026-01-19 21:16:07.66	241.56	7.98	-50.3	-68.6	3.8	8.46e-01	0	41	104	0	72	29087
2026-01-19 21:16:09.64	241.34	8.15	-50.3	-68.5	3.8	8.45e-01	0	42	104	0	72	28859
2026-01-19 21:16:11.63	241.11	8.33	-50.3	-67.1	3.8	8.47e-01	0	41	104	0	72	24516
2026-01-19 21:16:13.62	240.88	8.51	-50.3	-66.1	4.1	8.45e-01	0	41	0	0	72	21819
2026-01-19 21:16:15.60	240.65	8.69	-49.9	-60.6	7.3	5.92e-01	0	42	0	0	71	12259
2026-01-19 21:16:17.59	240.41	8.87	-48.9	-55.8	12.3	4.05e-02	0	42	0	0	69	7925
2026-01-19 21:16:19.58	240.17	9.05	-47.3	-51.9	16.3	3.71e-04	0	42	0	0	66	6020
2026-01-19 21:16:21.57	239.92	9.24	-48.5	-54.7	14.4	1.10e-06	0	41	0	0	67	7819
2026-01-19 21:16:23.56	239.67	9.43	-45.1	-48.2	19.1	3.17e-02	0	42	0	0	62	4973
2026-01-19 21:16:25.55	239.41	9.61	-44.3	-47.1	20.7	1.94e-05	0	42	0	0	60	4920
2026-01-19 21:16:27.53	239.15	9.80	-44.0	-46.8	20.9	0.00e+00	0	42	0	0	59	5029
2026-01-19 21:16:29.52	238.89	10.00	-44.0	-46.7	21.4	0.00e+00	0	42	0	0	59	4962
2026-01-19 21:16:31.52	238.62	10.19	-42.7	-45.2	22.6	0.00e+00	0	42	0	0	57	4675
2026-01-19 21:16:33.50	238.34	10.39	-41.7	-44.0	23.5	0.00e+00	0	42	0	0	55	4571
2026-01-19 21:16:35.49	238.06	10.58	-41.6	-43.8	23.7	0.00e+00	0	42	0	0	55	4488
2026-01-19 21:16:37.49	237.78	10.78	-41.4	-43.7	23.8	0.00e+00	0	42	0	0	54	4683
2026-01-19 21:16:39.48	237.49	10.99	-41.3	-43.5	24.0	0.00e+00	0	42	0	0	54	4569
2026-01-19 21:16:41.47	237.19	11.19	-41.4	-43.6	23.9	0.00e+00	0	42	0	0	54	4644
2026-01-19 21:16:43.46	236.89	11.39	-41.3	-43.5	24.0	0.00e+00	0	42	0	0	54	4593
2026-01-19 21:16:45.45	236.58	11.60	-40.9	-43.1	24.3	0.00e+00	0	42	0	0	53	4622
2026-01-19 21:16:47.44	236.27	11.81	-40.8	-42.9	24.5	0.00e+00	0	42	0	0	53	4544
2026-01-19 21:16:49.43	235.95	12.02	-40.5	-42.7	24.7	0.00e+00	0	42	0	0	53	4405
2026-01-19 21:16:51.42	235.62	12.24	-40.5	-42.7	24.7	0.00e+00	0	42	0	0	53	4401
2026-01-19 21:16:53.45	235.28	12.46	-40.4	-42.6	24.8	0.00e+00	0	42	0	0	52	4614
2026-01-19 21:16:55.48	234.94	12.68	-40.6	-42.8	24.6	0.00e+00	0	42	0	0	52	4726
2026-01-19 21:16:57.47	234.59	12.90	-40.7	-42.8	24.6	0.00e+00	0	42	0	0	52	4736
2026-01-19 21:16:59.46	234.24	13.12	-40.7	-42.9	24.6	0.00e+00	0	42	0	0	52	4769
2026-01-19 21:17:01.45	233.88	13.34	-40.6	-42.7	24.7	0.00e+00	0	42	0	0	52	4694
2026-01-19 21:17:03.44	233.52	13.57	-40.2	-42.3	25.0	0.00e+00	0	42	0	0	52	4490
2026-01-19 21:17:05.43	233.14	13.80	-40.0	-42.1	25.2	0.00e+00	0	42	0	0	52	4379
2026-01-19 21:17:07.42	232.76	14.03	-40.1	-42.2	25.2	0.00e+00	0	42	0	0	51	4670
2026-01-19 21:17:09.41	232.37	14.26	-40.3	-42.4	25.1	0.00e+00	0	42	0	0	51	4762
2026-01-19 21:17:11.40	231.97	14.49	-40.2	-42.3	25.1	0.00e+00	0	42	0	0	51	4741
2026-01-19 21:17:13.46	231.55	14.74	-40.1	-42.2	25.2	0.00e+00	0	42	0	0	51	4655
2026-01-19 21:17:15.56	231.12	14.99	-39.8	-41.8	25.5	0.00e+00	0	42	0	0	51	4468
2026-01-19 21:17:17.55	230.69	15.23	-39.8	-41.9	25.5	0.00e+00	0	42	0	0	51	4504
2026-01-19 21:17:19.54	230.26	15.48	-40.0	-42.1	25.3	0.00e+00	0	42	0	0	51	4602
2026-01-19 21:17:21.53	229.82	15.72	-39.6	-41.7	25.6	0.00e+00	0	42	0	0	51	4404
2026-01-19 21:17:23.52	229.37	15.97	-39.8	-41.8	25.5	0.00e+00	0	42	0	0	51	4493
2026-01-19 21:17:25.51	228.91	16.22	-39.4	-41.4	25.8	0.00e+00	0	42	0	0	50	4514
2026-01-19 21:17:27.57	228.42	16.48	-39.2	-41.2	26.0	0.00e+00	0	42	0	0	50	4408
2026-01-19 21:17:29.57	227.94	16.74	-38.8	-40.8	26.3	0.00e+00	0	42	0	0	49	4453
2026-01-19 21:17:31.56	227.45	16.99	-39.2	-41.2	26.0	0.00e+00	0	42	0	0	49	4681
2026-01-19 21:17:33.55	226.95	17.25	-39.2	-41.2	26.0	0.00e+00	0	42	0	0	49	4671
2026-01-19 21:17:35.54	226.43	17.51	-39.2	-41.2	26.0	0.00e+00	0	42	0	0	49	4681
2026-01-19 21:17:37.53	225.91	17.78	-39.1	-41.1	26.1	0.00e+00	0	42	0	0	49	4627
2026-01-19 21:17:39.52	225.38	18.04	-38.9	-40.9	26.2	0.00e+00	0	42	0	0	49	4519
2026-01-19 21:17:41.51	224.83	18.31	-38.9	-40.9	26.2	0.00e+00	0	42	0	0	49	4524
2026-01-19 21:17:43.52	224.26	18.58	-39.0	-40.9	26.2	0.00e+00	0	42	0	0	49	4534
2026-01-19 21:17:45.51	223.69	18.85	-38.6	-40.6	26.5	0.00e+00	0	42	0	0	49	4348
2026-01-19 21:17:47.50	223.11	19.12	-38.7	-40.7	26.4	0.00e+00	0	42	0	0	49	4411
2026-01-19 21:17:49.69	222.45	19.42	-38.8	-40.8	26.4	0.00e+00	0	42	0	0	49	4451
2026-01-19 21:17:51.68	221.84	19.69	-38.6	-40.6	26.4	0.00e+00	0	43	0	0	49	4362
2026-01-19 21:17:53.69	221.21	19.97	-38.2	-40.1	26.8	0.00e+00	0	43	0	0	48	4380
2026-01-19 21:17:55.80	220.53	20.26	-38.0	-39.9	27.0	0.00e+00	0	42	0	0	48	4277
2026-01-19 21:17:57.79	219.88	20.54	-38.3	-40.2	26.8	0.00e+00	0	43	0	0	48	4413
2026-01-19 21:17:59.80	219.20	20.82	-38.5	-40.5	26.6	0.00e+00	0	42	0	0	48	4546
2026-01-19 21:18:01.84	218.50	21.11	-38.2	-40.1	26.8	0.00e+00	0	42	0	0	48	4387
2026-01-19 21:18:03.82	217.81	21.39	-37.8	-39.7	26.9	0.00e+00	0	42	0	0	47	4441
2026-01-19 21:18:05.81	217.09	21.66	-37.7	-39.6	27.1	0.00e+00	0	42	0	0	47	4366
2026-01-19 21:18:07.80	216.36	21.94	-37.8	-39.7	27.0	0.00e+00	0	42	0	0	47	4433
2026-01-19 21:18:09.80	215.62	22.23	-38.0	-39.9	26.9	0.00e+00	0	42	0	0	47	4520
2026-01-19 21:18:11.79	214.86	22.50	-38.1	-40.0	26.9	0.00e+00	0	43	0	0	47	4582
2026-01-19 21:18:13.78	214.08	22.78	-37.9	-39.9	26.9	0.00e+00	0	42	0	0	47	4507
2026-01-19 21:18:15.88	213.24	23.08	-37.5	-39.4	27.1	0.00e+00	0	42	0	0	46	4497
2026-01-19 21:18:17.87	212.43	23.35	-37.4	-39.3	27.3	0.00e+00	0	43	0	0	46	4463
2026-01-19 21:18:19.86	211.60	23.63	-37.7	-39.6	27.1	0.00e+00	0	42	0	0	46	4643
2026-01-19 21:18:22.05	210.67	23.93	-37.6	-39.5	27.1	0.00e+00	0	42	0	0	46	4575
2026-01-19 21:18:24.04	209.80	24.20	-37.7	-39.6	27.1	0.00e+00	0	42	0	0	46	4632
2026-01-19 21:18:26.03	208.92	24.46	-37.6	-39.6	27.2	0.00e+00	0	42	0	0	46	4605
2026-01-19 21:18:28.04	208.01	24.73	-37.5	-39.4	27.3	0.00e+00	0	42	0	0	46	4520
2026-01-19 21:18:30.03	207.10	24.99	-37.2	-39.1	27.4	0.00e+00	0	42	0	0	46	4376
2026-01-19 21:18:32.02	206.16	25.25	-37.2	-39.1	27.5	0.00e+00	0	42	0	0	46	4354
2026-01-19 21:18:34.10	205.16	25.51	-37.4	-39.3	27.4	0.00e+00	0	43	0	0	46	4474
2026-01-19 21:18:36.15	204.16	25.77	-37.4	-39.3	27.3	0.00e+00	0	43	0	0	46	4442
2026-01-19 21:18:38.22	203.13	26.02	-37.2	-39.1	27.5	0.00e+00	0	43	0	0	46	4349
2026-01-19 21:18:40.25	202.11	26.26	-37.0	-38.9	27.6	0.00e+00	0	42	0	0	45	4518
2026-01-19 21:18:42.26	201.07	26.49	-37.2	-39.1	27.5	0.00e+00	0	43	0	0	45	4631
2026-01-19 21:18:44.25	200.03	26.72	-37.1	-38.9	27.6	0.00e+00	0	43	0	0	45	4537
2026-01-19 21:18:46.25	198.97	26.94	-36.8	-38.7	27.7	0.00e+00	0	42	0	0	45	4409
2026-01-19 21:18:48.26	197.88	27.15	-37.0	-38.8	27.6	0.00e+00	0	42	0	0	45	4487
2026-01-19 21:18:50.25	196.79	27.35	-37.1	-38.9	27.6	0.00e+00	0	43	0	0	45	4530
2026-01-19 21:18:52.27	195.67	27.54	-36.7	-38.5	27.8	0.00e+00	0	43	0	0	45	4339
2026-01-19 21:18:54.28	194.54	27.73	-37.0	-38.9	27.6	0.00e+00	0	43	0	0	45	4522
2026-01-19 21:18:56.27	193.40	27.90	-37.1	-38.9	27.5	0.00e+00	0	43	0	0	45	4543
2026-01-19 21:18:58.26	192.25	28.07	-36.6	-38.5	27.8	0.00e+00	0	43	0	0	45	4310
2026-01-19 21:19:00.22	191.11	28.22	-36.8	-38.7	27.5	0.00e+00	0	43	0	0	44	4675
2026-01-19 21:19:02.20	189.94	28.36	-36.7	-38.5	27.8	0.00e+00	0	43	0	0	44	4591
2026-01-19 21:19:04.20	188.75	28.49	-36.6	-38.4	27.9	0.00e+00	0	43	0	0	44	4526
2026-01-19 21:19:06.19	187.55	28.61	-37.0	-38.8	27.6	0.00e+00	0	42	0	0	44	4754
2026-01-19 21:19:08.18	186.34	28.72	-37.4	-39.3	27.3	0.00e+00	0	42	0	0	45	4733
2026-01-19 21:19:10.25	185.08	28.82	-37.5	-39.4	27.3	0.00e+00	0	42	0	0	45	4783
2026-01-19 21:19:12.24	183.86	28.90	-37.6	-39.5	27.2	0.00e+00	0	43	0	0	46	4585
2026-01-19 21:19:14.23	182.63	28.97	-37.2	-39.1	27.5	0.00e+00	0	42	0	0	46	4378
2026-01-19 21:19:16.43	181.27	29.04	-37.0	-38.9	27.6	0.00e+00	0	43	0	0	45	4517
2026-01-19 21:19:18.45	180.01	29.08	-37.2	-39.1	27.5	0.00e+00	0	43	0	0	45	4630
2026-01-19 21:19:20.44	178.77	29.11	-37.3	-39.2	27.4	0.00e+00	0	42	0	0	45	4659
2026-01-19 21:19:22.42	177.53	29.12	-37.1	-39.0	27.5	0.00e+00	0	42	0	0	45	4570
2026-01-19 21:19:24.41	176.28	29.12	-37.0	-38.9	27.6	0.00e+00	0	42	0	0	45	4535
2026-01-19 21:19:26.40	175.04	29.11	-37.2	-39.1	27.4	0.00e+00	0	43	0	0	45	4633
2026-01-19 21:19:28.39	173.80	29.09	-37.0	-38.9	27.6	0.00e+00	0	43	0	0	45	4514
2026-01-19 21:19:30.38	172.56	29.05	-37.1	-39.0	27.5	0.00e+00	0	42	0	0	45	4556
2026-01-19 21:19:32.38	171.32	28.99	-37.1	-39.0	27.5	0.00e+00	0	42	0	0	45	4577
2026-01-19 21:19:34.37	170.08	28.93	-37.3	-39.2	27.4	0.00e+00	0	43	0	0	45	4689
2026-01-19 21:19:36.67	168.67	28.84	-37.3	-39.2	27.4	0.00e+00	0	43	0	0	45	4685
2026-01-19 21:19:38.67	167.45	28.74	-36.9	-38.8	27.7	0.00e+00	0	43	0	0	44	4713
2026-01-19 21:19:40.67	166.24	28.64	-37.1	-39.0	27.5	0.00e+00	0	43	0	0	45	4585
2026-01-19 21:19:42.66	165.04	28.52	-37.2	-39.1	27.5	0.00e+00	0	43	0	0	45	4611
2026-01-19 21:19:44.60	163.88	28.39	-37.0	-38.9	27.5	0.00e+00	0	43	0	0	45	4532
2026-01-19 21:19:46.70	162.64	28.25	-36.9	-38.8	27.6	0.00e+00	0	42	0	0	45	4457
2026-01-19 21:19:48.72	161.46	28.09	-36.9	-38.7	27.6	0.00e+00	0	43	0	0	45	4440
2026-01-19 21:19:50.78	160.27	27.92	-36.8	-38.7	27.7	0.00e+00	0	43	0	0	45	4425
2026-01-19 21:19:52.97	159.02	27.73	-36.6	-38.5	27.8	0.00e+00	0	43	0	0	45	4309
2026-01-19 21:19:54.96	157.90	27.55	-36.6	-38.5	27.8	0.00e+00	0	43	0	0	45	4302
2026-01-19 21:19:56.95	156.79	27.36	-36.2	-38.0	28.1	0.00e+00	0	43	0	0	44	4331
2026-01-19 21:19:58.94	155.70	27.16	-36.7	-38.6	27.7	0.00e+00	0	43	0	0	44	4624
2026-01-19 21:20:00.93	154.63	26.95	-37.4	-39.4	27.3	0.00e+00	0	43	0	0	45	4764
2026-01-19 21:20:03.09	153.48	26.71	-37.0	-38.9	27.5	0.00e+00	0	43	0	0	45	4544
2026-01-19 21:20:05.08	152.44	26.49	-37.0	-38.8	27.5	0.00e+00	0	43	0	0	45	4493
2026-01-19 21:20:07.07	151.41	26.26	-37.4	-39.4	27.2	0.00e+00	0	43	0	0	45	4777
2026-01-19 21:20:09.05	150.41	26.02	-37.5	-39.4	27.2	0.00e+00	0	43	0	0	45	4810
2026-01-19 21:20:11.05	149.42	25.78	-37.6	-39.5	27.2	0.00e+00	0	43	0	0	46	4569
2026-01-19 21:20:13.03	148.45	25.53	-37.6	-39.5	27.1	0.00e+00	0	43	0	0	46	4566
2026-01-19 21:20:15.02	147.50	25.28	-37.3	-39.2	27.4	0.00e+00	0	43	0	0	46	4408
2026-01-19 21:20:17.13	146.51	25.01	-37.4	-39.4	27.2	0.00e+00	0	43	0	0	46	4496
2026-01-19 21:20:19.32	145.50	24.72	-37.5	-39.4	27.2	0.00e+00	0	43	0	0	46	4517
2026-01-19 21:20:21.34	144.59	24.46	-37.2	-39.1	27.3	0.00e+00	0	43	0	0	46	4384
2026-01-19 21:20:23.57	143.60	24.16	-37.1	-39.0	27.5	0.00e+00	0	43	0	0	45	4555
2026-01-19 21:20:25.56	142.74	23.89	-37.6	-39.6	27.1	0.00e+00	0	43	0	0	45	4894
2026-01-19 21:20:27.55	141.90	23.61	-37.8	-39.8	26.9	0.00e+00	0	42	0	0	46	4727
2026-01-19 21:20:29.54	141.07	23.34	-37.6	-39.5	27.1	0.00e+00	0	43	0	0	46	4578
2026-01-19 21:20:31.53	140.26	23.06	-37.3	-39.3	27.3	0.00e+00	0	43	0	0	46	4444
2026-01-19 21:20:33.52	139.47	22.79	-37.8	-39.7	26.9	0.00e+00	0	43	0	0	46	4671
2026-01-19 21:20:35.51	138.69	22.51	-37.8	-39.7	26.9	0.00e+00	0	43	0	0	46	4695
2026-01-19 21:20:37.50	137.93	22.23	-37.9	-39.8	26.9	0.00e+00	0	43	0	0	46	4732
2026-01-19 21:20:39.63	137.14	21.93	-37.9	-39.9	26.7	0.00e+00	0	43	0	0	46	4775
2026-01-19 21:20:41.62	136.41	21.65	-38.0	-39.9	26.8	0.00e+00	0	43	0	0	46	4798
2026-01-19 21:20:43.54	135.72	21.38	-38.2	-40.2	26.6	0.00e+00	0	43	0	0	47	4690
2026-01-19 21:20:45.53	135.03	21.10	-38.4	-40.4	26.5	0.00e+00	0	43	0	0	47	4768
2026-01-19 21:20:47.52	134.35	20.83	-38.2	-40.2	26.6	0.00e+00	0	43	0	0	47	4656
2026-01-19 21:20:49.51	133.68	20.55	-38.1	-40.0	26.7	0.00e+00	0	43	0	0	47	4592
2026-01-19 21:20:51.50	133.03	20.27	-38.4	-40.4	26.4	0.00e+00	0	43	0	0	47	4774
2026-01-19 21:20:53.49	132.39	19.99	-38.3	-40.3	26.5	0.00e+00	0	43	0	0	47	4745
2026-01-19 21:20:55.48	131.76	19.72	-38.5	-40.5	26.3	0.00e+00	0	43	0	0	47	4855
2026-01-19 21:20:57.47	131.15	19.45	-38.6	-40.6	26.3	0.00e+00	0	43	0	0	47	4915
2026-01-19 21:20:59.81	130.45	19.13	-38.7	-40.6	26.3	0.00e+00	0	43	0	0	48	4642
2026-01-19 21:21:01.80	129.87	18.86	-38.6	-40.6	26.4	0.00e+00	0	43	0	0	48	4622
2026-01-19 21:21:03.79	129.30	18.59	-38.8	-40.7	26.2	0.00e+00	0	43	0	0	48	4702
2026-01-19 21:21:05.79	128.73	18.32	-38.9	-40.8	26.2	0.00e+00	0	43	0	0	48	4756
2026-01-19 21:21:07.77	128.19	18.05	-38.7	-40.7	26.2	0.00e+00	0	43	0	0	48	4678
2026-01-19 21:21:09.91	127.62	17.77	-39.0	-41.1	26.0	0.00e+00	0	43	0	0	48	4879
2026-01-19 21:21:12.10	127.04	17.48	-38.9	-40.9	26.1	0.00e+00	0	43	0	0	48	4796
2026-01-19 21:21:14.09	126.53	17.22	-39.0	-40.9	25.9	0.00e+00	0	43	0	0	48	4812
2026-01-19 21:21:16.20	126.00	16.95	-39.2	-41.3	25.8	0.00e+00	0	43	0	0	49	4710
2026-01-19 21:21:18.20	125.51	16.69	-39.4	-41.5	25.6	0.00e+00	0	43	0	0	49	4821
2026-01-19 21:21:20.22	125.03	16.43	-39.4	-41.4	25.7	0.00e+00	0	43	0	0	49	4786
2026-01-19 21:21:22.22	124.56	16.18	-39.2	-41.2	25.9	0.00e+00	0	43	0	0	49	4657
2026-01-19 21:21:24.21	124.10	15.93	-39.4	-41.4	25.7	0.00e+00	0	43	0	0	49	4798
2026-01-19 21:21:26.20	123.65	15.69	-39.6	-41.7	25.5	0.00e+00	0	43	0	0	49	4931
2026-01-19 21:21:28.19	123.21	15.44	-39.9	-42.0	25.2	0.00e+00	0	43	0	0	50	4850
2026-01-19 21:21:30.18	122.78	15.20	-40.2	-42.3	25.0	0.00e+00	0	42	0	0	51	4753
2026-01-19 21:21:32.20	122.36	14.95	-40.2	-42.3	25.0	0.00e+00	0	43	0	0	51	4744
2026-01-19 21:21:34.22	121.94	14.71	-40.1	-42.2	25.1	0.00e+00	0	43	0	0	51	4689
2026-01-19 21:21:36.21	121.54	14.48	-40.1	-42.2	25.0	0.00e+00	0	43	0	0	51	4695
2026-01-19 21:21:38.22	121.14	14.24	-40.5	-42.6	24.7	0.00e+00	0	43	0	0	51	4911
2026-01-19 21:21:40.25	120.74	14.00	-40.5	-42.7	24.6	0.00e+00	0	43	0	0	52	4679
2026-01-19 21:21:42.24	120.36	13.77	-40.6	-42.7	24.6	0.00e+00	0	43	0	0	52	4685
2026-01-19 21:21:44.24	119.99	13.54	-40.4	-42.5	24.7	0.00e+00	0	43	0	0	52	4573
2026-01-19 21:21:46.24	119.62	13.32	-40.6	-42.8	24.6	0.00e+00	0	43	0	0	52	4711
2026-01-19 21:21:48.23	119.26	13.09	-40.8	-43.0	24.3	0.00e+00	0	43	0	0	52	4823
2026-01-19 21:21:50.23	118.91	12.87	-40.9	-43.1	24.2	0.00e+00	0	43	0	0	52	4921
2026-01-19 21:21:52.27	118.56	12.65	-40.9	-43.2	24.2	0.00e+00	0	43	0	0	52	4939
2026-01-19 21:21:54.26	118.22	12.43	-40.9	-43.1	24.2	0.00e+00	0	43	0	0	52	4926
2026-01-19 21:21:56.28	117.89	12.21	-41.1	-43.3	24.0	0.00e+00	0	43	0	0	52	5004
2026-01-19 21:21:58.28	117.56	12.00	-41.1	-43.4	24.0	0.00e+00	0	43	0	0	52	5046
2026-01-19 21:22:00.27	117.25	11.79	-41.3	-43.6	23.8	0.00e+00	0	43	0	0	53	4895
2026-01-19 21:22:02.28	116.93	11.58	-41.3	-43.6	23.8	0.00e+00	0	43	0	0	53	4902
2026-01-19 21:22:04.26	116.63	11.37	-41.6	-43.9	23.5	0.00e+00	0	43	0	0	53	5052
2026-01-19 21:22:06.25	116.33	11.17	-41.6	-44.0	23.4	0.00e+00	0	43	0	0	53	5123
2026-01-19 21:22:08.48	116.00	10.94	-42.0	-44.3	23.1	0.00e+00	0	43	0	0	54	5039
2026-01-19 21:22:10.81	115.66	10.71	-41.7	-44.1	23.3	0.00e+00	0	43	0	0	54	4911
2026-01-19 21:22:13.09	115.34	10.48	-41.7	-44.0	23.3	0.00e+00	0	43	0	0	54	4856
2026-01-19 21:22:15.36	115.02	10.26	-41.7	-44.0	23.4	0.00e+00	0	43	0	0	54	4835
2026-01-19 21:22:17.64	114.71	10.03	-42.1	-44.5	22.9	0.00e+00	0	43	0	0	54	5118
2026-01-19 21:22:19.91	114.41	9.81	-42.3	-44.7	22.7	0.00e+00	0	43	0	0	55	4982
2026-01-19 21:22:22.18	114.12	9.60	-42.5	-45.1	22.4	0.00e+00	0	43	0	0	55	5160
2026-01-19 21:22:24.18	113.86	9.41	-42.5	-45.1	22.3	0.00e+00	0	43	0	0	55	5165
2026-01-19 21:22:26.18	113.61	9.22	-42.6	-45.1	22.3	0.00e+00	0	43	0	0	55	5205
2026-01-19 21:22:28.18	113.36	9.04	-42.8	-45.4	22.2	0.00e+00	0	43	0	0	56	5071
2026-01-19 21:22:30.16	113.12	8.85	-50.6	-69.2	3.8	6.24e-01	0	43	104	0	71	33267
2026-01-19 21:22:32.15	112.89	8.67	-50.8	-69.6	3.8	8.47e-01	0	43	104	0	72	32577
2026-01-19 21:22:34.18	112.65	8.49	-50.8	-69.7	3.8	8.46e-01	0	43	104	0	72	32955
2026-01-19 21:22:36.17	112.42	8.31	-50.9	-69.7	3.8	8.47e-01	0	43	104	0	72	33202
2026-01-19 21:22:38.19	112.19	8.13	-50.6	-69.8	3.8	8.47e-01	0	43	104	0	72	33434
2026-01-19 21:22:40.24	111.96	7.95	-50.8	-69.8	3.8	8.47e-01	0	43	104	0	72	33651
2026-01-19 21:22:42.26	111.74	7.78	-50.8	-69.9	3.8	8.46e-01	0	43	104	0	72	33710
2026-01-19 21:22:44.47	111.50	7.58	-50.9	-69.9	3.8	8.48e-01	0	43	104	0	72	33758
2026-01-19 21:22:46.52	111.29	7.41	-50.6	-69.9	3.8	8.46e-01	0	43	104	0	72	33742
2026-01-19 21:22:48.51	111.08	7.24	-50.7	-69.9	3.8	8.46e-01	0	43	104	0	72	33812
2026-01-19 21:22:50.51	110.88	7.07	-50.7	-69.9	3.8	8.47e-01	0	43	104	0	72	33732
2026-01-19 21:22:52.50	110.68	6.91	-50.7	-69.8	3.8	8.47e-01	0	43	104	0	72	33656
2026-01-19 21:22:54.48	110.48	6.74	-50.7	-69.8	3.8	8.47e-01	0	43	104	0	72	33502
2026-01-19 21:22:56.47	110.29	6.58	-50.7	-69.8	3.8	8.46e-01	0	43	104	0	72	33625
2026-01-19 21:22:58.47	110.10	6.42	-50.7	-69.8	3.8	8.48e-01	0	43	104	0	72	33537
2026-01-19 21:23:00.46	109.91	6.26	-50.7	-69.8	3.8	8.47e-01	0	43	104	0	72	33516
2026-01-19 21:23:02.46	109.72	6.10	-50.7	-69.8	3.8	8.48e-01	0	43	104	0	72	33490
2026-01-19 21:23:04.46	109.54	5.94	-50.6	-69.8	3.8	8.46e-01	0	43	104	0	72	33528
2026-01-19 21:23:06.45	109.36	5.78	-50.7	-69.8	3.8	8.47e-01	0	43	104	0	72	33450
2026-01-19 21:23:08.45	109.19	5.62	-50.7	-69.8	3.8	8.47e-01	0	43	104	0	72	33447
2026-01-19 21:23:10.45	109.01	5.47	-50.6	-69.8	3.8	8.47e-01	0	43	104	0	72	33540
2026-01-19 21:23:12.44	108.84	5.31	-50.6	-69.8	3.8	8.47e-01	0	43	104	0	72	33440
2026-01-19 21:23:14.44	108.67	5.16	-50.6	-69.8	3.8	8.48e-01	0	43	104	0	72	33458
2026-01-19 21:23:16.45	108.51	5.01	-50.7	-69.8	3.8	8.47e-01	0	43	104	0	72	33402

#Closed at: 2026-01-19 21:23:18
#Recorded file [0 MB]: D:/Data/31040_260120_001531.dat