passes_logs/2026/01/19/T1/T1__20260119_094014_AQUA_rec.log

#Pass ID: 20260119_094014_AQUA
#Satellite: AQUA
#Configuration: AQUA
#almurnet v.1.7.20251203
#Start time: 2026-01-19 09:40:15

#Version: 2.0.20230620
#Station: T1
#Location: 37.570604 lon 55.790049 lat
#TLE: 1 27424U 02022A   26018.92652823  .00000914  00000+0  19290-3 0  9996
#TLE: 2 27424  98.4089 345.4199 0001997  73.4625 351.8991 14.61828815261466

#Time	Az	El	Level	Level2	SNR	BER	BlckErr	Temp	State	Recorded	gain1	gain2
2026-01-19 09:40:15.30	90.27	5.06	-51.0	-71.3	3.8	7.47e-01	0	37	0	0	74	35423
2026-01-19 09:40:17.28	90.03	5.16	-51.0	-71.3	3.8	7.42e-01	0	37	104	0	72	39801
2026-01-19 09:40:19.27	89.78	5.26	-51.0	-71.3	3.8	7.46e-01	0	37	104	0	72	39877
2026-01-19 09:40:21.26	89.52	5.37	-51.0	-71.3	3.8	7.48e-01	0	37	104	0	72	39862
2026-01-19 09:40:23.25	89.27	5.47	-51.0	-71.3	3.8	7.46e-01	0	37	104	0	72	39777
2026-01-19 09:40:25.23	89.02	5.57	-51.0	-71.2	3.8	7.45e-01	0	37	104	0	72	39222
2026-01-19 09:40:27.22	88.76	5.68	-50.9	-71.1	3.8	7.44e-01	0	37	104	0	72	38803
2026-01-19 09:40:29.21	88.50	5.78	-50.9	-71.1	3.8	7.46e-01	0	37	104	0	72	38926
2026-01-19 09:40:31.19	88.24	5.88	-50.9	-71.1	3.8	7.48e-01	0	37	104	0	72	39048
2026-01-19 09:40:33.18	87.97	5.99	-51.0	-71.1	3.8	7.45e-01	0	37	104	0	72	38879
2026-01-19 09:40:35.17	87.71	6.09	-51.0	-71.0	3.8	7.44e-01	0	38	104	0	72	38505
2026-01-19 09:40:37.15	87.44	6.19	-51.0	-71.1	3.8	7.46e-01	0	38	104	0	72	38741
2026-01-19 09:40:39.14	87.17	6.29	-51.0	-71.2	3.8	7.47e-01	0	38	104	0	72	39346
2026-01-19 09:40:41.13	86.90	6.40	-50.9	-71.2	3.8	7.44e-01	0	38	104	0	72	39563
2026-01-19 09:40:43.11	86.62	6.50	-51.0	-71.2	3.8	7.47e-01	0	38	104	0	72	39459
2026-01-19 09:40:45.10	86.34	6.60	-51.0	-71.1	3.8	7.47e-01	0	38	104	0	72	38959
2026-01-19 09:40:47.09	86.07	6.70	-50.9	-70.9	3.8	7.46e-01	0	38	104	0	72	38197
2026-01-19 09:40:49.08	85.78	6.81	-50.9	-70.8	3.8	7.48e-01	0	38	104	0	72	37570
2026-01-19 09:40:51.07	85.50	6.91	-50.9	-70.7	3.8	7.44e-01	0	38	104	0	72	37302
2026-01-19 09:40:53.05	85.22	7.01	-50.9	-70.7	3.8	7.45e-01	0	38	104	0	72	37271
2026-01-19 09:40:55.04	84.93	7.11	-50.9	-70.7	3.8	7.46e-01	0	38	104	0	72	37262
2026-01-19 09:40:57.03	84.64	7.21	-50.9	-70.6	3.8	7.47e-01	0	38	104	0	72	36809
2026-01-19 09:40:59.02	84.35	7.32	-50.9	-70.4	3.8	7.46e-01	0	38	104	0	72	35888
2026-01-19 09:41:01.00	84.05	7.42	-50.9	-70.3	3.8	7.43e-01	0	38	104	0	72	35488
2026-01-19 09:41:02.99	83.76	7.52	-50.9	-70.4	3.8	7.44e-01	0	38	104	0	72	35945
2026-01-19 09:41:04.98	83.46	7.62	-50.9	-70.7	3.8	7.46e-01	0	38	104	0	72	37141
2026-01-19 09:41:06.96	83.16	7.72	-50.9	-70.4	3.8	7.45e-01	0	38	104	0	72	35775
2026-01-19 09:41:08.95	82.85	7.82	-50.9	-69.0	3.9	7.43e-01	0	38	104	0	72	30634
2026-01-19 09:41:10.94	82.55	7.92	-50.9	-68.2	4.1	7.37e-01	0	38	104	0	72	27724
2026-01-19 09:41:12.93	82.24	8.02	-50.9	-69.4	3.9	7.45e-01	0	38	104	0	72	31957
2026-01-19 09:41:14.91	81.93	8.12	-50.9	-70.6	3.8	7.44e-01	0	38	104	0	72	36524
2026-01-19 09:41:16.90	81.62	8.22	-50.9	-70.2	3.8	7.43e-01	0	39	104	0	72	35231
2026-01-19 09:41:18.89	81.30	8.31	-50.8	-66.0	4.6	7.13e-01	0	39	104	0	72	21642
2026-01-19 09:41:20.88	80.98	8.41	-50.8	-66.8	3.9	7.41e-01	0	38	104	524288	72	23835
2026-01-19 09:41:22.86	80.67	8.51	-50.6	-63.3	6.5	6.72e-01	0	39	0	524288	72	15846
2026-01-19 09:41:24.85	80.34	8.61	-48.0	-52.7	17.4	6.08e-01	0	38	0	4194304	68	5901
2026-01-19 09:41:26.84	80.02	8.71	-45.8	-49.1	20.9	6.09e-01	0	39	0	7864320	63	5165
2026-01-19 09:41:28.83	79.69	8.80	-45.8	-49.2	20.9	6.07e-01	0	39	0	11534336	62	5536
2026-01-19 09:41:30.82	79.36	8.90	-48.0	-52.7	17.4	6.07e-01	0	39	0	15204352	66	6637
2026-01-19 09:41:32.80	79.03	8.99	-50.4	-60.5	9.8	6.27e-01	0	39	0	18874368	71	12104
2026-01-19 09:41:34.79	78.70	9.09	-47.7	-52.3	17.9	6.06e-01	0	39	0	22544384	66	6313
2026-01-19 09:41:36.77	78.36	9.18	-48.4	-53.7	15.7	6.06e-01	0	39	0	24117248	69	6264
2026-01-19 09:41:38.76	78.02	9.28	-47.7	-52.2	17.7	6.06e-01	0	38	0	27787264	67	5901
2026-01-19 09:41:40.75	77.68	9.37	-46.7	-50.4	19.7	6.08e-01	0	39	0	31457280	65	5392
2026-01-19 09:41:42.73	77.34	9.47	-46.5	-50.2	19.9	6.05e-01	0	39	0	35127296	64	5592
2026-01-19 09:41:44.72	76.99	9.56	-45.6	-49.0	21.1	6.06e-01	0	39	0	38797312	63	5144
2026-01-19 09:41:46.70	76.65	9.65	-45.3	-48.5	21.7	6.07e-01	0	39	0	42467328	62	5120
2026-01-19 09:41:48.69	76.30	9.74	-45.1	-48.1	22.1	6.05e-01	0	39	0	46137344	62	4871
2026-01-19 09:41:50.68	75.94	9.83	-45.0	-47.8	22.3	6.05e-01	0	39	0	49807360	62	4745
2026-01-19 09:41:52.67	75.59	9.93	-44.8	-47.6	22.4	6.06e-01	0	39	0	54001664	61	4882
2026-01-19 09:41:54.66	75.23	10.02	-44.8	-47.6	22.5	6.08e-01	0	39	0	57671680	61	4889
2026-01-19 09:41:56.64	74.87	10.10	-44.9	-47.7	22.4	6.08e-01	0	39	0	61341696	61	4974
2026-01-19 09:41:58.63	74.51	10.19	-45.0	-47.9	22.3	6.05e-01	0	39	0	65011712	61	5067
2026-01-19 09:42:00.61	74.14	10.28	-44.5	-47.2	22.8	6.07e-01	0	39	0	68681728	60	4954
2026-01-19 09:42:02.60	73.78	10.37	-44.4	-47.1	23.0	6.06e-01	0	39	0	72351744	60	4886
2026-01-19 09:42:04.59	73.41	10.45	-44.1	-46.7	23.3	6.07e-01	0	39	0	76021760	60	4701
2026-01-19 09:42:06.57	73.03	10.54	-44.2	-46.8	23.2	6.06e-01	0	39	0	79691776	60	4752
2026-01-19 09:42:08.56	72.66	10.62	-44.4	-47.1	23.1	6.04e-01	0	39	0	83361792	60	4891
2026-01-19 09:42:10.55	72.28	10.71	-44.1	-46.7	23.3	6.07e-01	0	39	0	87031808	60	4698
2026-01-19 09:42:12.53	71.90	10.79	-44.0	-46.7	23.4	6.06e-01	0	39	0	91226112	60	4694
2026-01-19 09:42:14.52	71.52	10.87	-44.1	-46.8	23.2	6.05e-01	0	39	0	94896128	60	4755
2026-01-19 09:42:16.51	71.14	10.96	-44.1	-46.8	23.3	6.03e-01	0	39	0	98566144	60	4723
2026-01-19 09:42:18.50	70.75	11.04	-44.2	-46.9	23.2	6.09e-01	0	39	0	102236160	60	4784
2026-01-19 09:42:20.49	70.36	11.12	-44.1	-46.8	23.3	6.07e-01	0	39	0	105906176	60	4714
2026-01-19 09:42:22.47	69.97	11.20	-44.2	-46.9	23.2	6.05e-01	0	39	0	109576192	60	4782
2026-01-19 09:42:24.46	69.58	11.27	-44.1	-46.7	23.4	6.06e-01	0	39	0	113246208	60	4675
2026-01-19 09:42:26.45	69.18	11.35	-44.1	-46.7	23.3	6.05e-01	0	39	0	116916224	60	4693
2026-01-19 09:42:28.43	68.79	11.43	-44.2	-46.8	23.3	6.07e-01	0	39	0	120586240	60	4751
2026-01-19 09:42:30.42	68.39	11.50	-44.1	-46.8	23.3	6.09e-01	0	39	0	124780544	60	4711
2026-01-19 09:42:32.41	67.99	11.58	-44.2	-46.8	23.3	6.07e-01	0	39	0	128450560	60	4742
2026-01-19 09:42:34.40	67.58	11.65	-44.1	-46.8	23.3	6.05e-01	0	39	0	132120576	60	4744
2026-01-19 09:42:36.38	67.18	11.72	-44.1	-46.8	23.4	6.06e-01	0	39	0	135790592	59	5003
2026-01-19 09:42:38.37	66.77	11.79	-44.3	-46.9	23.3	6.05e-01	0	39	0	139460608	59	5086
2026-01-19 09:42:40.35	66.36	11.86	-44.4	-47.0	23.2	6.07e-01	0	39	0	143130624	59	5146
2026-01-19 09:42:42.34	65.94	11.93	-44.2	-46.8	23.4	6.07e-01	0	39	0	146800640	59	5034
2026-01-19 09:42:44.33	65.53	12.00	-44.3	-47.0	23.3	6.05e-01	0	40	0	150470656	59	5104
2026-01-19 09:42:46.31	65.11	12.06	-44.1	-46.7	23.5	6.07e-01	0	39	0	154140672	59	4974
2026-01-19 09:42:48.30	64.70	12.13	-44.1	-46.7	23.4	6.05e-01	0	39	0	157810688	59	4979
2026-01-19 09:42:50.28	64.28	12.19	-44.2	-46.8	23.4	6.06e-01	0	39	0	162004992	59	5032
2026-01-19 09:42:52.27	63.85	12.25	-44.2	-46.8	23.4	6.07e-01	0	39	0	165675008	59	5024
2026-01-19 09:42:54.26	63.43	12.32	-44.3	-46.9	23.3	6.05e-01	0	39	0	169345024	59	5100
2026-01-19 09:42:56.24	63.00	12.38	-44.0	-46.6	23.6	6.07e-01	0	39	0	173015040	59	4916
2026-01-19 09:42:58.23	62.57	12.43	-44.0	-46.6	23.6	6.07e-01	0	39	0	176685056	59	4911
2026-01-19 09:43:00.21	62.15	12.49	-44.2	-46.9	23.4	6.05e-01	0	39	0	180355072	59	5046
2026-01-19 09:43:02.20	61.71	12.55	-44.2	-46.8	23.5	6.05e-01	0	39	0	184025088	59	5014
2026-01-19 09:43:04.19	61.28	12.60	-44.0	-46.6	23.6	6.08e-01	0	39	0	187695104	59	4924
2026-01-19 09:43:06.17	60.85	12.66	-44.1	-46.8	23.5	6.07e-01	0	39	0	191365120	59	5016
2026-01-19 09:43:08.16	60.41	12.71	-44.3	-47.0	23.3	6.05e-01	0	39	0	195559424	59	5103
2026-01-19 09:43:10.15	59.97	12.76	-44.2	-46.8	23.5	6.08e-01	0	39	0	199229440	59	5003
2026-01-19 09:43:12.13	59.53	12.81	-44.2	-46.7	23.5	6.07e-01	0	39	0	202899456	59	4977
2026-01-19 09:43:14.12	59.09	12.85	-44.1	-46.7	23.6	6.04e-01	0	39	0	206569472	59	4951
2026-01-19 09:43:16.11	58.64	12.90	-44.2	-46.9	23.4	6.07e-01	0	39	0	210239488	59	5052
2026-01-19 09:43:18.10	58.20	12.94	-44.2	-46.8	23.5	6.09e-01	0	39	0	213909504	59	4998
2026-01-19 09:43:20.08	57.75	12.99	-44.3	-46.9	23.4	6.08e-01	0	39	0	217579520	59	5058
2026-01-19 09:43:22.07	57.31	13.03	-44.2	-46.7	23.5	6.07e-01	0	39	0	221249536	59	4978
2026-01-19 09:43:24.06	56.86	13.07	-44.2	-46.8	23.5	6.05e-01	0	39	0	224919552	59	5018
2026-01-19 09:43:26.04	56.41	13.11	-44.2	-46.8	23.5	6.05e-01	0	39	0	228589568	59	5028
2026-01-19 09:43:28.03	55.96	13.14	-44.2	-46.8	23.5	6.09e-01	0	39	0	232783872	59	5013
2026-01-19 09:43:30.02	55.50	13.18	-44.1	-46.7	23.6	6.06e-01	0	39	0	236453888	59	4978
2026-01-19 09:43:32.00	55.05	13.21	-44.3	-46.9	23.5	6.06e-01	0	39	0	240123904	59	5056
2026-01-19 09:43:33.98	54.60	13.24	-44.2	-46.8	23.5	6.08e-01	0	39	0	243793920	59	5018
2026-01-19 09:43:35.97	54.14	13.27	-44.0	-46.6	23.7	6.09e-01	0	39	0	247463936	59	4919
2026-01-19 09:43:37.96	53.68	13.30	-44.2	-46.8	23.5	6.08e-01	0	39	0	251133952	59	5011
2026-01-19 09:43:39.95	53.23	13.33	-44.1	-46.7	23.6	6.04e-01	0	39	0	254803968	59	4973
2026-01-19 09:43:41.93	52.77	13.36	-44.0	-46.6	23.7	6.07e-01	0	39	0	258473984	59	4894
2026-01-19 09:43:43.91	52.31	13.38	-44.2	-46.7	23.5	6.06e-01	0	39	0	262144000	59	4983
2026-01-19 09:43:45.90	51.85	13.40	-44.3	-46.9	23.4	6.05e-01	0	40	0	266338304	59	5079
2026-01-19 09:43:47.89	51.39	13.42	-44.5	-47.2	23.2	6.03e-01	0	39	0	270008320	59	5221
2026-01-19 09:43:49.88	50.93	13.44	-44.3	-46.9	23.4	6.08e-01	0	39	0	273678336	59	5071
2026-01-19 09:43:51.86	50.47	13.46	-44.0	-46.5	23.7	6.08e-01	0	39	0	277348352	59	4870
2026-01-19 09:43:53.85	50.01	13.47	-44.1	-46.7	23.5	6.06e-01	0	39	0	281018368	59	4968
2026-01-19 09:43:55.84	49.54	13.49	-44.1	-46.6	23.6	6.10e-01	0	39	0	284688384	59	4924
2026-01-19 09:43:57.82	49.08	13.50	-44.2	-46.8	23.5	6.08e-01	0	39	0	288358400	59	4984
2026-01-19 09:43:59.81	48.62	13.51	-44.2	-46.8	23.5	6.07e-01	0	39	0	292028416	59	4984
2026-01-19 09:44:01.77	48.16	13.51	-44.1	-46.6	23.7	6.06e-01	0	40	0	295698432	59	4900
2026-01-19 09:44:03.76	47.69	13.52	-44.3	-46.9	23.4	6.07e-01	0	39	0	299368448	59	5069
2026-01-19 09:44:05.75	47.23	13.53	-44.3	-46.9	23.4	6.05e-01	0	40	0	303038464	59	5052
2026-01-19 09:44:07.73	46.77	13.53	-44.1	-46.7	23.6	6.06e-01	0	40	0	307232768	59	4934
2026-01-19 09:44:09.72	46.30	13.53	-44.1	-46.7	23.5	6.08e-01	0	40	0	310902784	59	4974
2026-01-19 09:44:11.71	45.84	13.53	-44.1	-46.8	23.5	6.05e-01	0	40	0	314572800	59	4990
2026-01-19 09:44:13.70	45.37	13.53	-44.1	-46.7	23.6	6.07e-01	0	40	0	318242816	59	4973
2026-01-19 09:44:15.68	44.91	13.52	-44.3	-47.0	23.4	6.07e-01	0	40	0	321912832	59	5149
2026-01-19 09:44:17.67	44.45	13.52	-43.9	-46.7	23.6	6.03e-01	0	39	0	325582848	59	4941
2026-01-19 09:44:19.66	43.98	13.51	-43.9	-46.7	23.6	6.07e-01	0	39	0	329252864	59	4959
2026-01-19 09:44:21.65	43.52	13.50	-44.3	-47.0	23.3	6.05e-01	0	39	0	332922880	59	5150
2026-01-19 09:44:23.63	43.06	13.49	-44.3	-46.9	23.4	6.05e-01	0	39	0	336592896	59	5088
2026-01-19 09:44:25.62	42.59	13.47	-44.4	-47.0	23.3	6.08e-01	0	40	0	340787200	59	5150
2026-01-19 09:44:27.61	42.13	13.46	-44.4	-47.1	23.3	6.06e-01	0	39	0	344457216	59	5178
2026-01-19 09:44:29.60	41.67	13.44	-44.2	-46.8	23.5	6.07e-01	0	39	0	348127232	59	5027
2026-01-19 09:44:31.58	41.21	13.43	-44.2	-46.9	23.4	6.06e-01	0	40	0	351797248	59	5059
2026-01-19 09:44:33.57	40.75	13.41	-43.9	-46.7	23.6	6.06e-01	0	39	0	355467264	59	4936
2026-01-19 09:44:35.56	40.29	13.38	-43.8	-46.7	23.6	6.06e-01	0	40	0	359137280	59	4932
2026-01-19 09:44:37.55	39.83	13.36	-43.8	-46.8	23.5	6.08e-01	0	40	0	362807296	59	5012
2026-01-19 09:44:39.54	39.37	13.34	-43.7	-46.8	23.5	6.07e-01	0	39	0	366477312	59	4993
2026-01-19 09:44:41.52	38.91	13.31	-43.8	-46.7	23.6	6.05e-01	0	40	0	370147328	59	4933
2026-01-19 09:44:43.51	38.46	13.28	-43.9	-46.6	23.7	6.06e-01	0	40	0	374341632	59	4911
2026-01-19 09:44:45.50	38.00	13.25	-43.9	-46.8	23.5	6.05e-01	0	40	0	378011648	59	4989
2026-01-19 09:44:47.48	37.55	13.22	-43.6	-46.6	23.7	6.07e-01	0	39	0	381681664	59	4909
2026-01-19 09:44:49.47	37.09	13.19	-43.8	-46.8	23.5	6.06e-01	0	39	0	385351680	59	5024
2026-01-19 09:44:51.45	36.64	13.15	-43.8	-46.8	23.6	6.06e-01	0	40	0	389021696	59	4984
2026-01-19 09:44:53.44	36.19	13.12	-44.0	-46.8	23.6	6.08e-01	0	40	0	392691712	59	5024
2026-01-19 09:44:55.43	35.74	13.08	-44.2	-47.0	23.2	6.07e-01	0	40	0	396361728	59	5141
2026-01-19 09:44:57.41	35.30	13.04	-44.1	-46.9	23.5	6.06e-01	0	40	0	400031744	59	5045
2026-01-19 09:44:59.40	34.85	13.00	-44.3	-46.9	23.4	6.07e-01	0	40	0	403701760	59	5081
2026-01-19 09:45:01.39	34.40	12.96	-44.1	-46.7	23.6	6.06e-01	0	40	0	407371776	59	4974
2026-01-19 09:45:03.37	33.96	12.91	-44.2	-47.0	23.4	6.06e-01	0	40	0	411566080	59	5102
2026-01-19 09:45:05.36	33.52	12.87	-44.1	-46.8	23.6	6.06e-01	0	40	0	415236096	59	4986
2026-01-19 09:45:07.34	33.08	12.82	-44.2	-46.9	23.4	6.07e-01	0	40	0	418906112	59	5046
2026-01-19 09:45:09.33	32.64	12.77	-44.1	-46.8	23.4	6.02e-01	0	40	0	422576128	59	5009
2026-01-19 09:45:11.32	32.20	12.72	-44.1	-47.0	23.3	6.09e-01	0	40	0	426246144	59	5137
2026-01-19 09:45:13.31	31.76	12.67	-44.3	-47.3	23.1	6.06e-01	0	40	0	429916160	59	5290
2026-01-19 09:45:15.30	31.33	12.62	-44.0	-46.8	23.4	6.07e-01	0	40	0	433586176	59	5032
2026-01-19 09:45:17.28	30.90	12.56	-43.9	-46.7	23.6	6.05e-01	0	40	0	437256192	59	4934
2026-01-19 09:45:19.27	30.47	12.51	-44.2	-46.9	23.4	6.06e-01	0	40	0	440926208	59	5094
2026-01-19 09:45:21.25	30.04	12.45	-44.3	-47.0	23.4	6.05e-01	0	40	0	445120512	59	5106
2026-01-19 09:45:23.24	29.61	12.39	-44.3	-47.1	23.2	6.08e-01	0	40	0	448790528	59	5164
2026-01-19 09:45:25.23	29.18	12.33	-44.1	-46.8	23.4	6.06e-01	0	40	0	452460544	59	5018
2026-01-19 09:45:27.22	28.76	12.27	-44.1	-46.9	23.4	6.00e-01	0	40	0	456130560	59	5067
2026-01-19 09:45:29.20	28.34	12.21	-44.1	-47.0	23.3	6.02e-01	0	40	0	459800576	59	5119
2026-01-19 09:45:31.19	27.92	12.15	-44.0	-46.9	23.4	6.02e-01	0	39	0	463470592	59	5047
2026-01-19 09:45:33.18	27.50	12.08	-44.3	-47.1	23.1	6.01e-01	0	40	0	467140608	59	5214
2026-01-19 09:45:35.16	27.09	12.01	-44.3	-47.2	23.2	6.02e-01	0	40	0	470810624	59	5220
2026-01-19 09:45:37.15	26.67	11.95	-44.1	-46.9	23.3	6.01e-01	0	40	0	474480640	59	5099
2026-01-19 09:45:39.14	26.26	11.88	-44.4	-47.3	23.0	6.03e-01	0	40	0	478150656	59	5307
2026-01-19 09:45:41.12	25.85	11.81	-44.0	-46.8	23.5	6.05e-01	0	40	0	482344960	59	5020
2026-01-19 09:45:43.11	25.44	11.74	-44.0	-47.0	23.2	6.01e-01	0	40	0	486014976	59	5112
2026-01-19 09:45:45.09	25.04	11.67	-44.1	-47.1	23.2	6.03e-01	0	40	0	489684992	59	5181
2026-01-19 09:45:47.08	24.64	11.60	-44.1	-47.0	23.3	6.04e-01	0	40	0	493355008	59	5120
2026-01-19 09:45:49.07	24.24	11.52	-44.3	-47.2	23.1	6.00e-01	0	40	0	497025024	59	5254
2026-01-19 09:45:51.06	23.84	11.45	-44.3	-47.1	23.2	6.02e-01	0	40	0	500695040	59	5217
2026-01-19 09:45:53.05	23.44	11.37	-44.2	-46.9	23.3	6.03e-01	0	40	0	504365056	59	5095
2026-01-19 09:45:55.03	23.05	11.30	-44.3	-47.0	23.3	6.00e-01	0	40	0	508035072	59	5134
2026-01-19 09:45:57.02	22.65	11.22	-44.6	-47.4	22.9	6.04e-01	0	40	0	511705088	59	5372
2026-01-19 09:45:59.00	22.27	11.14	-44.2	-47.2	23.1	6.02e-01	0	40	0	515899392	59	5264
2026-01-19 09:46:00.99	21.88	11.06	-43.9	-47.1	23.2	6.01e-01	0	40	0	519569408	59	5186
2026-01-19 09:46:02.98	21.49	10.98	-43.9	-47.4	22.9	6.03e-01	0	40	0	523239424	59	5345
2026-01-19 09:46:04.96	21.11	10.90	-43.7	-47.2	23.1	6.04e-01	0	40	0	526909440	59	5274
2026-01-19 09:46:06.95	20.73	10.82	-43.6	-47.3	23.0	6.03e-01	0	40	0	530579456	59	5291
2026-01-19 09:46:08.94	20.35	10.73	-43.7	-47.5	22.8	6.00e-01	0	40	0	534249472	59	5408
2026-01-19 09:46:10.92	19.98	10.65	-43.8	-47.4	22.9	6.01e-01	0	40	0	537919488	59	5345
2026-01-19 09:46:12.91	19.61	10.57	-44.0	-47.2	23.0	6.04e-01	0	40	0	541589504	59	5265
2026-01-19 09:46:14.89	19.24	10.48	-44.3	-47.3	23.0	6.06e-01	0	40	0	545259520	59	5286
2026-01-19 09:46:16.88	18.87	10.39	-44.3	-47.2	23.0	6.03e-01	0	40	0	548929536	59	5277
2026-01-19 09:46:18.87	18.50	10.31	-44.5	-47.6	22.8	6.02e-01	0	40	0	553123840	59	5475
2026-01-19 09:46:20.86	18.14	10.22	-44.5	-47.5	22.8	6.02e-01	0	40	0	556793856	59	5432
2026-01-19 09:46:22.84	17.78	10.13	-44.5	-47.3	22.9	6.00e-01	0	40	0	560463872	59	5315
2026-01-19 09:46:24.83	17.42	10.04	-44.5	-47.5	22.8	6.02e-01	0	40	0	564133888	59	5403
2026-01-19 09:46:26.82	17.06	9.95	-44.5	-47.6	22.7	6.02e-01	0	40	0	567803904	59	5515
2026-01-19 09:46:28.81	16.71	9.86	-44.3	-47.6	22.7	6.03e-01	0	40	0	571473920	59	5512
2026-01-19 09:46:30.79	16.36	9.77	-44.2	-47.6	22.6	6.02e-01	0	40	0	575143936	59	5520
2026-01-19 09:46:32.78	16.01	9.68	-44.1	-47.6	22.7	6.02e-01	0	40	0	578813952	59	5480
2026-01-19 09:46:34.76	15.66	9.59	-44.1	-47.5	22.7	6.04e-01	0	40	0	582483968	59	5422
2026-01-19 09:46:36.75	15.32	9.50	-44.3	-47.7	22.5	6.02e-01	0	40	0	586153984	59	5567
2026-01-19 09:46:38.74	14.97	9.40	-44.2	-47.7	22.6	5.98e-01	0	40	0	590348288	59	5558
2026-01-19 09:46:40.73	14.63	9.31	-44.4	-47.8	22.5	6.04e-01	0	40	0	594018304	59	5594
2026-01-19 09:46:42.72	14.30	9.22	-44.5	-47.7	22.4	6.04e-01	0	40	0	597688320	60	5277
2026-01-19 09:46:44.70	13.96	9.12	-44.4	-47.4	22.7	6.02e-01	0	40	0	601358336	60	5088
2026-01-19 09:46:46.69	13.63	9.03	-44.5	-47.5	22.6	6.02e-01	0	40	0	605028352	60	5149
2026-01-19 09:46:48.68	13.30	8.93	-48.5	-70.7	3.9	7.46e-01	0	40	104	607649792	68	46839
2026-01-19 09:46:50.66	12.97	8.84	-50.4	-71.8	3.8	7.51e-01	0	40	104	607649792	72	42241
2026-01-19 09:46:52.65	12.65	8.74	-51.4	-71.9	3.8	7.45e-01	0	40	104	607649792	73	40442
2026-01-19 09:46:54.64	12.32	8.64	-51.4	-72.1	3.8	7.48e-01	0	40	104	607649792	74	38708
2026-01-19 09:46:56.62	12.00	8.55	-51.5	-72.1	3.8	7.47e-01	0	40	104	607649792	74	39082
2026-01-19 09:46:58.61	11.69	8.45	-51.9	-72.2	3.8	7.48e-01	0	40	104	607649792	74	39285
2026-01-19 09:47:00.60	11.37	8.35	-52.0	-72.2	3.8	7.45e-01	0	40	104	607649792	75	37276
2026-01-19 09:47:02.59	11.06	8.25	-52.1	-72.3	3.8	7.43e-01	0	40	104	607649792	75	37384
2026-01-19 09:47:04.57	10.75	8.15	-52.3	-72.2	3.8	7.47e-01	0	40	104	607649792	75	37354
2026-01-19 09:47:06.56	10.44	8.06	-52.4	-72.2	3.8	7.49e-01	0	40	104	607649792	75	37347
2026-01-19 09:47:08.55	10.13	7.96	-51.9	-72.2	3.8	7.47e-01	0	40	104	607649792	75	37283
2026-01-19 09:47:10.53	9.83	7.86	-52.0	-72.2	3.8	7.47e-01	0	40	104	607649792	75	37098
2026-01-19 09:47:12.52	9.53	7.76	-51.8	-72.2	3.8	7.45e-01	0	40	104	607649792	75	37169
2026-01-19 09:47:14.51	9.23	7.66	-51.3	-72.1	3.8	7.47e-01	0	40	104	607649792	74	39135
2026-01-19 09:47:16.49	8.93	7.56	-51.3	-72.1	3.8	7.47e-01	0	40	104	607649792	74	39128
2026-01-19 09:47:18.48	8.63	7.46	-51.3	-72.1	3.8	7.45e-01	0	40	104	607649792	74	39055
2026-01-19 09:47:20.47	8.34	7.36	-51.3	-72.1	3.8	7.48e-01	0	40	104	607649792	74	39027
2026-01-19 09:47:22.46	8.05	7.26	-51.3	-72.1	3.8	7.45e-01	0	40	104	607649792	74	39014
2026-01-19 09:47:24.44	7.76	7.15	-51.3	-72.1	3.8	7.50e-01	0	40	104	607649792	74	39065
2026-01-19 09:47:26.43	7.48	7.05	-51.3	-72.1	3.8	7.45e-01	0	40	104	607649792	74	39053
2026-01-19 09:47:28.42	7.19	6.95	-51.3	-72.1	3.8	7.43e-01	0	40	104	607649792	74	39070
2026-01-19 09:47:30.40	6.91	6.85	-51.3	-72.1	3.8	7.44e-01	0	40	104	607649792	74	39076
2026-01-19 09:47:32.39	6.63	6.75	-51.3	-72.1	3.8	7.45e-01	0	40	104	607649792	74	39005
2026-01-19 09:47:34.38	6.36	6.65	-51.3	-72.1	3.8	7.46e-01	0	40	104	607649792	74	39078
2026-01-19 09:47:36.36	6.08	6.54	-51.3	-72.1	3.8	7.46e-01	0	40	104	607649792	74	39067
2026-01-19 09:47:38.35	5.81	6.44	-51.3	-72.1	3.8	7.47e-01	0	40	104	607649792	74	39013
2026-01-19 09:47:40.34	5.54	6.34	-51.3	-72.1	3.8	7.47e-01	0	40	104	607649792	74	39030
2026-01-19 09:47:42.32	5.27	6.24	-51.3	-72.1	3.8	7.49e-01	0	40	104	607649792	74	38961
2026-01-19 09:47:44.31	5.00	6.14	-51.3	-72.1	3.8	7.44e-01	0	40	104	607649792	74	38961
2026-01-19 09:47:46.30	4.74	6.03	-51.3	-72.1	3.8	7.46e-01	0	40	104	607649792	74	38939
2026-01-19 09:47:48.28	4.48	5.93	-51.3	-72.1	3.8	7.47e-01	0	40	104	607649792	74	38943
2026-01-19 09:47:50.27	4.22	5.83	-51.3	-72.1	3.8	7.46e-01	0	40	104	607649792	74	38936
2026-01-19 09:47:52.26	3.96	5.72	-51.3	-72.1	3.8	7.45e-01	0	40	104	607649792	74	38983
2026-01-19 09:47:54.25	3.70	5.62	-51.2	-72.1	3.8	7.46e-01	0	40	104	607649792	74	38983
2026-01-19 09:47:56.23	3.45	5.52	-51.2	-72.1	3.8	7.46e-01	0	40	104	607649792	74	38837
2026-01-19 09:47:58.22	3.20	5.42	-51.3	-72.1	3.8	7.46e-01	0	40	104	607649792	74	38915
2026-01-19 09:48:00.21	2.94	5.31	-51.3	-72.1	3.8	7.48e-01	0	40	104	607649792	74	38916
2026-01-19 09:48:02.20	2.70	5.21	-51.2	-72.1	3.8	7.47e-01	0	40	104	607649792	74	38848
2026-01-19 09:48:04.18	2.45	5.11	-51.2	-72.1	3.8	7.45e-01	0	40	104	607649792	74	38909
2026-01-19 09:48:06.17	2.21	5.00	-51.3	-72.1	3.8	7.46e-01	0	40	104	607649792	74	38937

#Closed at: 2026-01-19 09:48:07
#Recorded file [607 MB]: D:/Data/31040_260119_124015.dat