passes_logs/2026/01/19/T1/T1__20260119_005844_FENGYUN_3D_rec.log

#Pass ID: 20260119_005844_FENGYUN 3D
#Satellite: FENGYUN 3D
#Configuration: FENGYUN 3D
#almurnet v.1.7.20251203
#Start time: 2026-01-19 00:58:44

#Version: 2.0.20230620
#Station: T1
#Location: 37.570604 lon 55.790049 lat
#TLE: 1 43010U 17072A   26017.96359538  .00000271  00000+0  15011-3 0  9999
#TLE: 2 43010  98.9936 349.8252 0002386 103.8840 256.2601 14.19697057423673

#Time	Az	El	Level	Level2	SNR	BER	BlckErr	Temp	State	Recorded	gain1	gain2
2026-01-19 00:58:44.74	22.79	5.03	-48.8	-61.8	3.8	8.48e-01	0	40	0	0	69	15812
2026-01-19 00:58:47.72	22.94	5.23	-48.8	-61.5	3.8	8.46e-01	0	40	104	0	68	16265
2026-01-19 00:58:50.70	23.08	5.44	-48.8	-61.4	3.8	8.46e-01	0	40	104	0	68	16119
2026-01-19 00:58:53.68	23.23	5.64	-48.8	-61.5	3.8	8.47e-01	0	40	104	0	68	16261
2026-01-19 00:58:56.66	23.38	5.85	-48.8	-61.6	3.8	8.46e-01	0	40	104	0	68	16371
2026-01-19 00:58:59.64	23.53	6.05	-48.8	-61.7	3.8	8.47e-01	0	40	104	0	68	16519
2026-01-19 00:59:02.62	23.68	6.26	-48.8	-61.6	3.8	8.47e-01	0	40	104	0	68	16444
2026-01-19 00:59:05.61	23.84	6.48	-48.8	-61.5	3.8	8.46e-01	0	40	104	0	68	16241
2026-01-19 00:59:08.59	24.00	6.69	-48.8	-61.5	3.8	8.47e-01	0	40	104	0	68	16301
2026-01-19 00:59:11.57	24.16	6.90	-48.8	-61.6	3.8	8.47e-01	0	41	104	0	68	16336
2026-01-19 00:59:14.55	24.32	7.12	-48.7	-61.1	3.8	8.46e-01	0	41	104	0	68	15563
2026-01-19 00:59:17.53	24.48	7.34	-48.7	-60.3	3.8	8.46e-01	0	41	104	0	68	14133
2026-01-19 00:59:20.51	24.65	7.55	-48.6	-59.7	3.8	8.47e-01	0	41	104	0	68	13189
2026-01-19 00:59:23.49	24.82	7.78	-48.6	-59.6	3.9	8.45e-01	0	41	104	0	68	12989
2026-01-19 00:59:26.47	24.99	8.00	-48.6	-59.6	3.8	8.46e-01	0	41	104	0	68	13034
2026-01-19 00:59:29.45	25.16	8.22	-48.5	-59.1	3.8	8.45e-01	0	41	104	0	68	12292
2026-01-19 00:59:32.43	25.34	8.45	-48.2	-56.7	4.8	8.19e-01	0	41	0	0	68	9287
2026-01-19 00:59:35.41	25.52	8.68	-46.8	-52.2	8.1	9.55e-02	0	41	0	10485760	65	6605
2026-01-19 00:59:38.39	25.70	8.91	-44.8	-48.4	12.1	5.50e-04	0	41	0	27262976	61	5345
2026-01-19 00:59:41.37	25.88	9.14	-44.2	-47.3	13.3	3.42e-04	0	41	0	44040192	60	5005
2026-01-19 00:59:44.37	26.07	9.37	-45.9	-50.3	9.8	5.68e-01	0	41	0	60817408	64	5601
2026-01-19 00:59:47.35	26.26	9.61	-39.6	-41.5	18.8	0.00e+00	0	41	0	77594624	51	4340
2026-01-19 00:59:50.33	26.45	9.85	-39.8	-41.7	18.7	0.00e+00	0	41	0	93323264	51	4429
2026-01-19 00:59:53.32	26.65	10.09	-39.6	-41.6	18.8	0.00e+00	0	41	0	111149056	51	4352
2026-01-19 00:59:56.30	26.85	10.33	-39.2	-41.0	19.4	0.00e+00	0	41	0	127926272	50	4336
2026-01-19 00:59:59.29	27.05	10.57	-39.1	-41.0	19.4	0.00e+00	0	41	0	143654912	50	4330
2026-01-19 01:00:02.27	27.25	10.82	-39.1	-41.0	19.4	0.00e+00	0	41	0	161480704	49	4572
2026-01-19 01:00:05.26	27.46	11.07	-38.9	-40.8	19.6	0.00e+00	0	42	0	178257920	49	4473
2026-01-19 01:00:08.24	27.67	11.32	-39.0	-40.9	19.6	0.00e+00	0	42	0	193986560	49	4501
2026-01-19 01:00:11.23	27.89	11.57	-38.9	-40.8	19.7	0.00e+00	0	42	0	211812352	49	4458
2026-01-19 01:00:14.28	28.11	11.84	-38.8	-40.7	19.7	0.00e+00	0	41	0	228589568	49	4409
2026-01-19 01:00:17.27	28.33	12.09	-38.7	-40.6	19.9	0.00e+00	0	42	0	245366784	49	4350
2026-01-19 01:00:20.25	28.56	12.35	-38.4	-40.2	20.2	0.00e+00	0	41	0	262144000	48	4420
2026-01-19 01:00:23.23	28.79	12.62	-38.3	-40.2	20.3	0.00e+00	0	42	0	278921216	48	4395
2026-01-19 01:00:26.22	29.02	12.88	-38.2	-40.0	20.5	0.00e+00	0	42	0	295698432	48	4302
2026-01-19 01:00:29.20	29.26	13.15	-38.1	-39.9	20.6	0.00e+00	0	42	0	312475648	48	4258
2026-01-19 01:00:32.27	29.51	13.43	-38.2	-40.0	20.5	0.00e+00	0	42	0	329252864	48	4306
2026-01-19 01:00:35.53	29.78	13.73	-38.1	-39.9	20.5	0.00e+00	0	42	0	348127232	48	4277
2026-01-19 01:00:38.42	30.02	13.99	-38.2	-40.0	20.5	0.00e+00	0	42	0	363855872	48	4305
2026-01-19 01:00:41.76	30.31	14.31	-38.1	-39.9	20.6	0.00e+00	0	42	0	382730240	48	4244
2026-01-19 01:00:44.48	30.54	14.56	-37.9	-39.7	20.6	0.00e+00	0	42	0	398458880	47	4429
2026-01-19 01:00:47.75	30.83	14.87	-37.8	-39.6	20.7	0.00e+00	0	42	0	417333248	47	4353
2026-01-19 01:00:50.50	31.08	15.14	-37.8	-39.6	20.7	0.00e+00	0	42	0	432013312	47	4347
2026-01-19 01:00:53.73	31.38	15.45	-37.8	-39.6	20.7	0.00e+00	0	42	0	450887680	47	4353
2026-01-19 01:00:56.57	31.65	15.73	-37.8	-39.6	20.7	0.00e+00	0	42	0	466616320	47	4356
2026-01-19 01:00:59.70	31.95	16.04	-37.5	-39.3	21.0	0.00e+00	0	42	0	484442112	46	4461
2026-01-19 01:01:02.54	32.22	16.33	-37.4	-39.2	21.1	0.00e+00	0	42	0	500170752	46	4416
2026-01-19 01:01:05.67	32.53	16.64	-37.2	-39.0	21.3	0.00e+00	0	42	0	517996544	46	4312
2026-01-19 01:01:08.65	32.84	16.95	-37.2	-38.9	21.3	0.00e+00	0	42	0	534773760	46	4282
2026-01-19 01:01:12.00	33.18	17.29	-37.0	-38.7	21.5	0.00e+00	0	42	0	553648128	46	4189
2026-01-19 01:01:14.70	33.47	17.58	-36.9	-38.6	21.7	0.00e+00	0	42	0	568328192	45	4350
2026-01-19 01:01:17.97	33.82	17.92	-36.9	-38.6	21.6	0.00e+00	0	42	0	587202560	45	4375
2026-01-19 01:01:20.69	34.12	18.21	-36.8	-38.6	21.7	0.00e+00	0	42	0	601882624	45	4345
2026-01-19 01:01:23.99	34.49	18.57	-36.7	-38.5	21.7	0.00e+00	0	42	0	620756992	45	4331
2026-01-19 01:01:26.74	34.80	18.87	-37.1	-38.9	21.3	0.00e+00	0	42	0	636485632	45	4531
2026-01-19 01:01:30.02	35.19	19.23	-37.0	-38.8	21.5	0.00e+00	0	42	0	654311424	45	4458
2026-01-19 01:01:32.74	35.51	19.53	-36.9	-38.6	21.6	0.00e+00	0	42	0	670040064	45	4384
2026-01-19 01:01:36.28	35.94	19.93	-36.5	-38.2	22.0	0.00e+00	0	42	0	689963008	45	4191
2026-01-19 01:01:39.28	36.32	20.27	-36.3	-38.0	22.2	0.00e+00	0	42	0	706740224	44	4325
2026-01-19 01:01:42.56	36.74	20.65	-36.0	-37.7	22.5	0.00e+00	0	42	0	725614592	44	4159
2026-01-19 01:01:45.26	37.09	20.96	-36.1	-37.8	22.4	0.00e+00	0	42	0	740294656	44	4200
2026-01-19 01:01:48.55	37.53	21.35	-36.4	-38.1	22.2	0.00e+00	0	42	0	759169024	44	4369
2026-01-19 01:01:51.26	37.90	21.67	-36.6	-38.3	22.0	0.00e+00	0	42	0	773849088	44	4445
2026-01-19 01:01:54.69	38.38	22.08	-36.5	-38.2	22.1	0.00e+00	0	42	0	793772032	44	4409
2026-01-19 01:01:57.67	38.81	22.44	-36.3	-38.0	22.3	0.00e+00	0	42	0	810549248	44	4305
2026-01-19 01:02:00.96	39.29	22.84	-36.1	-37.8	22.4	0.00e+00	0	42	0	828375040	44	4229
2026-01-19 01:02:03.69	39.70	23.18	-36.0	-37.7	22.5	0.00e+00	0	42	0	844103680	44	4175
2026-01-19 01:02:07.02	40.21	23.59	-35.6	-37.3	22.8	0.00e+00	0	42	0	862978048	43	4204
2026-01-19 01:02:10.04	40.68	23.97	-35.6	-37.3	22.8	0.00e+00	0	42	0	879755264	43	4204
2026-01-19 01:02:13.02	41.16	24.35	-35.5	-37.2	22.8	0.00e+00	0	42	0	896532480	43	4170
2026-01-19 01:02:16.01	41.66	24.73	-35.7	-37.4	22.7	0.00e+00	0	42	0	913309696	43	4264
2026-01-19 01:02:19.00	42.16	25.12	-35.8	-37.4	22.6	0.00e+00	0	42	0	930086912	43	4276
2026-01-19 01:02:21.98	42.68	25.51	-35.5	-37.2	22.9	0.00e+00	0	42	0	946864128	42	4395
2026-01-19 01:02:24.97	43.21	25.90	-35.5	-37.1	22.9	0.00e+00	0	42	0	963641344	42	4370
2026-01-19 01:02:27.96	43.75	26.30	-35.3	-37.0	23.0	0.00e+00	0	42	0	980418560	42	4316
2026-01-19 01:02:30.96	44.31	26.70	-35.3	-37.0	23.1	0.00e+00	0	42	0	997195776	42	4301
2026-01-19 01:02:34.01	44.89	27.11	-35.4	-37.0	23.0	0.00e+00	0	42	0	1015021568	42	4324
2026-01-19 01:02:37.00	45.47	27.52	-35.2	-36.9	23.2	0.00e+00	0	42	0	1031798784	42	4246
2026-01-19 01:02:39.98	46.07	27.93	-35.1	-36.7	23.3	0.00e+00	0	42	0	1048576000	42	4176
2026-01-19 01:02:42.97	46.69	28.34	-35.2	-36.8	23.2	0.00e+00	0	42	0	1065353216	42	4230
2026-01-19 01:02:45.95	47.31	28.76	-35.2	-36.8	23.2	0.00e+00	0	42	0	1082130432	42	4241
2026-01-19 01:02:48.93	47.96	29.17	-35.2	-36.8	23.2	0.00e+00	0	42	0	1098907648	42	4211
2026-01-19 01:02:51.92	48.62	29.59	-34.9	-36.6	22.8	0.00e+00	0	42	0	1115684864	41	4363
2026-01-19 01:02:54.90	49.30	30.01	-34.7	-36.4	22.9	0.00e+00	0	42	0	1132462080	41	4288
2026-01-19 01:02:57.90	50.00	30.44	-34.7	-36.4	22.9	0.00e+00	0	42	0	1149239296	41	4285
2026-01-19 01:03:00.88	50.72	30.86	-34.9	-36.6	22.8	0.00e+00	0	42	0	1166016512	41	4368
2026-01-19 01:03:03.85	51.45	31.29	-34.9	-36.6	22.8	0.00e+00	0	42	0	1182793728	41	4370
2026-01-19 01:03:06.86	52.21	31.72	-34.7	-36.4	22.9	0.00e+00	0	42	0	1199570944	41	4272
2026-01-19 01:03:09.99	53.02	32.17	-34.7	-36.4	23.0	0.00e+00	0	42	0	1216348160	41	4249
2026-01-19 01:03:12.83	53.77	32.57	-34.7	-36.4	23.0	0.00e+00	0	42	0	1233125376	41	4265
2026-01-19 01:03:15.96	54.63	33.02	-34.7	-36.4	23.0	0.00e+00	0	42	0	1250951168	41	4266
2026-01-19 01:03:18.80	55.43	33.43	-34.8	-36.5	22.9	0.00e+00	0	42	0	1266679808	41	4318
2026-01-19 01:03:22.14	56.39	33.91	-34.7	-36.4	22.9	0.00e+00	0	42	0	1285554176	41	4279
2026-01-19 01:03:24.84	57.19	34.29	-34.5	-36.2	23.1	0.00e+00	0	42	0	1300234240	41	4169
2026-01-19 01:03:28.11	58.18	34.76	-34.8	-36.6	22.8	0.00e+00	0	42	0	1319108608	40	4612
2026-01-19 01:03:30.91	59.05	35.15	-34.7	-36.4	22.9	0.00e+00	0	42	0	1334837248	40	4525
2026-01-19 01:03:34.18	60.09	35.61	-34.5	-36.2	23.1	0.00e+00	0	42	0	1352663040	40	4412
2026-01-19 01:03:37.22	61.09	36.04	-34.6	-36.3	23.0	0.00e+00	0	42	0	1370488832	40	4476
2026-01-19 01:03:40.49	62.19	36.49	-34.4	-36.1	23.2	0.00e+00	0	42	0	1388314624	40	4365
2026-01-19 01:03:43.28	63.16	36.87	-34.4	-36.1	23.3	0.00e+00	0	42	0	1404043264	40	4348
2026-01-19 01:03:46.54	64.31	37.31	-34.4	-36.1	23.2	0.00e+00	0	42	0	1422917632	40	4354
2026-01-19 01:03:49.27	65.30	37.67	-34.8	-36.5	22.9	0.00e+00	0	41	0	1437597696	40	4588
2026-01-19 01:03:52.55	66.52	38.09	-34.4	-36.1	23.2	0.00e+00	0	42	0	1456472064	40	4357
2026-01-19 01:03:55.36	67.59	38.45	-34.6	-36.3	23.1	0.00e+00	0	42	0	1472200704	40	4487
2026-01-19 01:03:58.75	68.92	38.87	-34.8	-36.5	22.9	0.00e+00	0	42	0	1491075072	40	4572
2026-01-19 01:04:01.45	69.99	39.20	-34.6	-36.3	23.1	0.00e+00	0	41	0	1506803712	40	4490
2026-01-19 01:04:04.72	71.33	39.59	-34.7	-36.4	23.0	0.00e+00	0	42	0	1524629504	40	4518
2026-01-19 01:04:07.42	72.45	39.89	-34.8	-36.5	22.9	0.00e+00	0	42	0	1540358144	40	4586
2026-01-19 01:04:10.75	73.87	40.26	-34.4	-36.1	23.2	0.00e+00	0	42	0	1559232512	40	4379
2026-01-19 01:04:13.72	75.15	40.57	-34.5	-36.2	23.1	0.00e+00	0	41	0	1574961152	40	4420
2026-01-19 01:04:17.08	76.64	40.91	-34.7	-36.4	22.9	0.00e+00	0	41	0	1593835520	40	4522
2026-01-19 01:04:19.80	77.87	41.17	-34.7	-36.5	22.9	0.00e+00	0	41	0	1609564160	40	4555
2026-01-19 01:04:23.08	79.37	41.47	-34.5	-36.2	23.1	0.00e+00	0	41	0	1628438528	40	4431
2026-01-19 01:04:25.92	80.70	41.71	-34.6	-36.3	23.0	0.00e+00	0	42	0	1644167168	40	4492
2026-01-19 01:04:29.05	82.18	41.96	-34.6	-36.3	23.1	0.00e+00	0	42	0	1661992960	40	4482
2026-01-19 01:04:31.89	83.54	42.17	-34.6	-36.3	23.1	0.00e+00	0	41	0	1677721600	40	4481
2026-01-19 01:04:35.09	85.10	42.38	-35.1	-36.9	22.6	0.00e+00	0	41	0	1695547392	40	4766
2026-01-19 01:04:38.42	86.74	42.58	-34.8	-36.5	22.9	0.00e+00	0	42	0	1714421760	40	4578
2026-01-19 01:04:41.17	88.11	42.72	-34.9	-36.6	22.8	0.00e+00	0	42	0	1730150400	40	4627
2026-01-19 01:04:44.46	89.77	42.87	-34.7	-36.4	23.0	0.00e+00	0	41	0	1747976192	40	4524
2026-01-19 01:04:47.33	91.22	42.98	-34.8	-36.5	22.9	0.00e+00	0	42	0	1764753408	40	4589
2026-01-19 01:04:50.61	92.89	43.08	-34.8	-36.5	22.9	0.00e+00	0	41	0	1782579200	40	4571
2026-01-19 01:04:53.47	94.36	43.15	-34.9	-36.6	22.8	0.00e+00	0	42	0	1799356416	40	4650
2026-01-19 01:04:56.81	96.08	43.20	-34.8	-36.5	22.9	0.00e+00	0	42	0	1818230784	40	4579
2026-01-19 01:04:59.51	97.47	43.22	-34.9	-36.6	22.8	0.00e+00	0	41	0	1832910848	40	4646
2026-01-19 01:05:02.79	99.17	43.22	-34.7	-36.5	22.9	0.00e+00	0	42	0	1851785216	40	4555
2026-01-19 01:05:05.67	100.65	43.20	-35.0	-36.8	22.7	0.00e+00	0	42	0	1867513856	40	4708
2026-01-19 01:05:08.79	102.26	43.16	-35.0	-36.7	22.8	0.00e+00	0	41	0	1885339648	40	4686
2026-01-19 01:05:11.63	103.72	43.09	-35.1	-36.9	22.6	0.00e+00	0	41	0	1901068288	41	4503
2026-01-19 01:05:14.77	105.32	43.00	-35.1	-36.9	22.6	0.00e+00	0	41	0	1918894080	41	4508
2026-01-19 01:05:17.61	106.76	42.89	-35.4	-37.1	22.4	0.00e+00	0	42	0	1934622720	41	4650
2026-01-19 01:05:21.09	108.52	42.73	-35.0	-36.7	22.8	0.00e+00	0	42	0	1954545664	41	4401
2026-01-19 01:05:23.87	109.91	42.59	-35.1	-36.8	22.6	0.00e+00	0	42	0	1970274304	41	4483
2026-01-19 01:05:27.27	111.58	42.39	-34.8	-36.5	22.9	0.00e+00	0	42	0	1989148672	41	4307
2026-01-19 01:05:29.97	112.90	42.21	-34.9	-36.6	22.8	0.00e+00	0	41	0	2003828736	41	4379
2026-01-19 01:05:33.24	114.48	41.97	-34.6	-36.3	23.1	0.00e+00	0	41	0	2022703104	41	4198
2026-01-19 01:05:36.00	115.79	41.76	-34.7	-36.4	22.9	0.00e+00	0	42	0	2038431744	41	4286
2026-01-19 01:05:39.29	117.33	41.48	-35.0	-36.8	22.6	0.00e+00	0	41	0	2056257536	41	4461
2026-01-19 01:05:42.03	118.59	41.23	-34.8	-36.5	22.8	0.00e+00	0	42	0	2071986176	41	4339
2026-01-19 01:05:45.30	120.08	40.92	-35.0	-36.8	22.7	0.00e+00	0	41	0	2090860544	41	4460
2026-01-19 01:05:48.02	121.29	40.65	-34.8	-36.5	22.9	0.00e+00	0	41	0	2105540608	41	4305
2026-01-19 01:05:51.29	122.71	40.30	-34.8	-36.5	22.9	0.00e+00	0	41	0	2124414976	41	4309
2026-01-19 01:05:53.99	123.87	40.01	-34.7	-36.4	23.0	0.00e+00	0	41	0	2139095040	41	4269
2026-01-19 01:05:57.28	125.25	39.64	-34.7	-36.4	23.0	0.00e+00	0	42	0	2157969408	41	4272
2026-01-19 01:06:00.04	126.39	39.31	-34.7	-36.4	23.1	0.00e+00	0	41	0	2173698048	41	4259
2026-01-19 01:06:03.34	127.71	38.91	-34.7	-36.4	23.0	0.00e+00	0	41	0	2191523840	41	4252
2026-01-19 01:06:06.08	128.79	38.57	-34.4	-36.1	23.3	0.00e+00	0	41	0	2207252480	40	4357
2026-01-19 01:06:09.45	130.09	38.14	-34.6	-36.3	23.1	0.00e+00	0	41	0	2226126848	40	4484
2026-01-19 01:06:12.18	131.11	37.79	-34.6	-36.3	23.1	0.00e+00	0	41	0	2241855488	40	4487
2026-01-19 01:06:15.64	132.38	37.33	-34.7	-36.4	23.0	0.00e+00	0	42	0	2260729856	40	4520
2026-01-19 01:06:18.68	133.46	36.92	-34.6	-36.3	23.1	0.00e+00	0	41	0	2278555648	40	4482
2026-01-19 01:06:21.87	134.57	36.48	-34.8	-36.5	22.9	0.00e+00	0	41	0	2296381440	40	4596
2026-01-19 01:06:24.86	135.58	36.07	-34.6	-36.3	23.1	0.00e+00	0	41	0	2313158656	40	4479
2026-01-19 01:06:27.84	136.57	35.65	-34.6	-36.3	23.0	0.00e+00	0	41	0	2329935872	40	4486
2026-01-19 01:06:30.83	137.53	35.23	-34.9	-36.7	22.7	0.00e+00	0	42	0	2346713088	40	4668
2026-01-19 01:06:33.75	138.45	34.82	-35.1	-36.9	22.6	0.00e+00	0	41	0	2363490304	40	4766
2026-01-19 01:06:37.07	139.46	34.34	-34.7	-36.4	22.9	0.00e+00	0	41	0	2381316096	40	4533
2026-01-19 01:06:39.78	140.27	33.95	-34.7	-36.5	22.9	0.00e+00	0	41	0	2397044736	40	4564
2026-01-19 01:06:43.07	141.22	33.48	-34.8	-36.6	22.8	0.00e+00	0	41	0	2415919104	40	4609
2026-01-19 01:06:45.78	141.99	33.09	-34.7	-36.5	22.8	0.00e+00	0	41	0	2430599168	40	4554
2026-01-19 01:06:49.18	142.93	32.60	-34.9	-36.6	22.7	0.00e+00	0	41	0	2449473536	40	4647
2026-01-19 01:06:51.94	143.67	32.20	-34.7	-36.4	22.9	0.00e+00	0	41	0	2465202176	40	4542
2026-01-19 01:06:55.26	144.53	31.72	-34.9	-36.6	22.7	0.00e+00	0	41	0	2484076544	40	4651
2026-01-19 01:06:57.98	145.22	31.33	-35.1	-36.9	22.4	0.00e+00	0	41	0	2499805184	40	4799
2026-01-19 01:07:01.25	146.03	30.86	-34.9	-36.6	22.7	0.00e+00	0	41	0	2517630976	40	4642
2026-01-19 01:07:04.01	146.70	30.46	-35.2	-36.9	22.4	0.00e+00	0	41	0	2533359616	40	4790
2026-01-19 01:07:07.28	147.47	29.99	-35.4	-37.2	22.3	0.00e+00	0	41	0	2551185408	41	4670
2026-01-19 01:07:10.00	148.09	29.61	-35.2	-37.0	22.4	0.00e+00	0	41	0	2566914048	41	4573
2026-01-19 01:07:13.27	148.82	29.14	-34.9	-36.7	22.7	0.00e+00	0	41	0	2585788416	41	4396
2026-01-19 01:07:15.98	149.41	28.76	-34.9	-36.6	22.7	0.00e+00	0	41	0	2600468480	41	4379
2026-01-19 01:07:19.27	150.11	28.30	-35.0	-36.8	22.6	0.00e+00	0	41	0	2619342848	41	4462
2026-01-19 01:07:21.98	150.67	27.93	-35.0	-36.8	22.6	0.00e+00	0	41	0	2634022912	41	4468
2026-01-19 01:07:25.25	151.33	27.48	-35.2	-36.9	22.5	0.00e+00	0	41	0	2652897280	41	4534
2026-01-19 01:07:27.96	151.86	27.10	-35.3	-37.1	22.4	0.00e+00	0	41	0	2667577344	41	4610
2026-01-19 01:07:31.24	152.49	26.66	-35.4	-37.2	22.3	0.00e+00	0	41	0	2686451712	41	4694
2026-01-19 01:07:33.95	153.00	26.29	-35.3	-37.1	22.3	0.00e+00	0	41	0	2702180352	41	4638
2026-01-19 01:07:37.24	153.60	25.85	-35.3	-37.0	22.4	0.00e+00	0	41	0	2720006144	41	4582
2026-01-19 01:07:39.95	154.08	25.49	-35.3	-37.0	22.4	0.00e+00	0	41	0	2735734784	41	4583
2026-01-19 01:07:43.44	154.68	25.03	-35.7	-37.5	22.0	0.00e+00	0	41	0	2754609152	42	4561
2026-01-19 01:07:46.19	155.15	24.67	-35.8	-37.7	21.9	0.00e+00	0	41	0	2770337792	42	4669
2026-01-19 01:07:49.46	155.69	24.25	-35.5	-37.3	22.2	0.00e+00	0	41	0	2789212160	42	4450
2026-01-19 01:07:52.19	156.13	23.90	-35.4	-37.2	22.3	0.00e+00	0	41	0	2803892224	42	4411
2026-01-19 01:07:55.46	156.64	23.49	-35.6	-37.4	22.1	0.00e+00	0	41	0	2822766592	42	4502
2026-01-19 01:07:58.20	157.06	23.14	-35.7	-37.4	22.1	0.00e+00	0	41	0	2838495232	42	4536
2026-01-19 01:08:01.47	157.56	22.74	-35.7	-37.5	22.0	0.00e+00	0	41	0	2856321024	42	4568
2026-01-19 01:08:04.19	157.95	22.40	-35.9	-37.7	21.8	0.00e+00	0	41	0	2872049664	42	4672
2026-01-19 01:08:07.71	158.46	21.97	-36.2	-38.1	21.5	0.00e+00	0	41	0	2891972608	43	4600
2026-01-19 01:08:10.44	158.84	21.64	-36.4	-38.3	21.3	0.00e+00	0	41	0	2906652672	43	4709
2026-01-19 01:08:13.73	159.29	21.25	-36.4	-38.3	21.3	0.00e+00	0	41	0	2925527040	43	4710
2026-01-19 01:08:16.49	159.66	20.92	-36.2	-38.0	21.6	0.00e+00	0	41	0	2941255680	43	4557
2026-01-19 01:08:20.11	160.13	20.50	-36.3	-38.0	21.5	0.00e+00	0	41	0	2961178624	43	4596
2026-01-19 01:08:22.82	160.48	20.19	-36.3	-38.0	21.6	0.00e+00	0	41	0	2976907264	43	4588
2026-01-19 01:08:26.15	160.90	19.81	-36.5	-38.3	21.3	0.00e+00	0	41	0	2995781632	43	4735
2026-01-19 01:08:28.85	161.23	19.50	-36.5	-38.3	21.3	0.00e+00	0	41	0	3010461696	43	4722
2026-01-19 01:08:32.14	161.62	19.13	-36.5	-38.3	21.3	0.00e+00	0	41	0	3029336064	43	4739
2026-01-19 01:08:34.90	161.94	18.83	-36.6	-38.4	21.2	0.00e+00	0	41	0	3045064704	43	4795
2026-01-19 01:08:38.23	162.32	18.46	-37.0	-38.8	21.0	0.00e+00	0	41	0	3062890496	44	4745
2026-01-19 01:08:40.93	162.63	18.17	-37.2	-39.0	20.8	0.00e+00	0	41	0	3078619136	45	4598
2026-01-19 01:08:44.22	162.99	17.81	-37.3	-39.2	20.6	0.00e+00	0	41	0	3097493504	45	4692
2026-01-19 01:08:47.07	163.29	17.51	-37.4	-39.3	20.5	0.00e+00	0	41	0	3113222144	45	4728
2026-01-19 01:08:50.51	163.66	17.15	-37.2	-39.1	20.7	0.00e+00	0	41	0	3132096512	45	4605
2026-01-19 01:08:53.22	163.94	16.87	-37.1	-39.0	20.8	0.00e+00	0	41	0	3147825152	45	4561
2026-01-19 01:08:56.50	164.27	16.53	-37.3	-39.2	20.6	0.00e+00	0	41	0	3165650944	45	4670
2026-01-19 01:08:59.25	164.54	16.25	-37.4	-39.3	20.5	0.00e+00	0	41	0	3181379584	45	4723
2026-01-19 01:09:02.54	164.86	15.91	-37.6	-39.5	20.3	0.00e+00	0	41	0	3200253952	45	4847
2026-01-19 01:09:05.24	165.12	15.65	-37.9	-39.8	20.1	0.00e+00	0	41	0	3214934016	46	4720
2026-01-19 01:09:08.50	165.43	15.32	-37.9	-39.9	20.1	0.00e+00	0	41	0	3233808384	46	4760
2026-01-19 01:09:11.21	165.67	15.06	-37.9	-39.8	20.1	0.00e+00	0	41	0	3248488448	46	4748
2026-01-19 01:09:14.50	165.97	14.74	-38.0	-39.9	20.1	0.00e+00	0	41	0	3267362816	46	4760
2026-01-19 01:09:17.22	166.21	14.48	-38.0	-39.9	20.1	0.00e+00	0	41	0	3283091456	46	4768
2026-01-19 01:09:20.57	166.50	14.16	-38.2	-40.1	19.8	0.00e+00	0	41	0	3300917248	47	4635
2026-01-19 01:09:23.27	166.73	13.90	-38.3	-40.2	19.7	0.00e+00	0	41	0	3316645888	47	4704
2026-01-19 01:09:26.98	167.04	13.56	-38.3	-40.3	19.7	0.00e+00	0	41	0	3337617408	47	4719
2026-01-19 01:09:29.71	167.27	13.31	-38.3	-40.3	19.7	0.00e+00	0	41	0	3353346048	47	4711
2026-01-19 01:09:32.99	167.53	13.01	-38.5	-40.5	19.4	0.00e+00	0	41	0	3371171840	47	4841
2026-01-19 01:09:35.78	167.75	12.76	-38.4	-40.4	19.5	0.00e+00	0	41	0	3386900480	47	4777
2026-01-19 01:09:39.20	168.02	12.45	-38.5	-40.5	19.4	0.00e+00	0	41	0	3406823424	47	4832
2026-01-19 01:09:41.95	168.23	12.21	-38.4	-40.4	19.5	0.00e+00	0	41	0	3421503488	47	4789
2026-01-19 01:09:45.28	168.48	11.91	-38.8	-40.8	19.4	0.00e+00	0	41	0	3440377856	48	4724
2026-01-19 01:09:48.00	168.68	11.68	-38.9	-40.9	19.2	0.00e+00	0	41	0	3456106496	48	4809
2026-01-19 01:09:51.26	168.91	11.40	-39.0	-41.1	19.1	0.00e+00	0	41	0	3473932288	48	4873
2026-01-19 01:09:54.01	169.11	11.16	-38.9	-41.0	19.1	0.00e+00	0	41	0	3489660928	48	4843
2026-01-19 01:09:57.31	169.34	10.88	-39.0	-41.2	18.9	0.00e+00	0	41	0	3508535296	48	4951
2026-01-19 01:10:00.02	169.53	10.66	-38.9	-41.1	19.1	0.00e+00	0	41	0	3523215360	48	4897
2026-01-19 01:10:03.28	169.75	10.38	-38.8	-41.0	19.1	0.00e+00	0	41	0	3542089728	48	4869
2026-01-19 01:10:05.99	169.93	10.16	-38.8	-41.1	19.1	0.00e+00	0	41	0	3556769792	48	4883
2026-01-19 01:10:09.25	170.14	9.90	-39.0	-41.2	18.9	0.00e+00	0	41	0	3575644160	48	4972
2026-01-19 01:10:11.98	170.32	9.67	-38.9	-41.2	19.0	0.00e+00	0	41	0	3590324224	48	4935
2026-01-19 01:10:15.53	170.55	9.39	-38.9	-41.2	18.9	0.00e+00	0	41	0	3610247168	48	4952
2026-01-19 01:10:18.43	170.73	9.16	-38.9	-41.2	18.9	0.00e+00	0	41	0	3627024384	48	4934
2026-01-19 01:10:21.78	170.93	8.90	-49.2	-61.0	3.8	8.47e-01	0	41	104	3640655872	69	14491
2026-01-19 01:10:24.51	171.10	8.68	-49.9	-62.3	3.8	8.47e-01	0	41	104	3640655872	70	15838
2026-01-19 01:10:27.79	171.30	8.43	-50.0	-62.4	3.8	8.46e-01	0	41	104	3640655872	71	15124
2026-01-19 01:10:30.48	171.45	8.22	-50.2	-62.5	3.8	8.47e-01	0	41	104	3640655872	71	15244
2026-01-19 01:10:33.78	171.65	7.97	-50.4	-62.5	3.8	8.46e-01	0	41	104	3640655872	71	15287
2026-01-19 01:10:36.47	171.80	7.77	-50.2	-62.5	3.8	8.47e-01	0	41	104	3640655872	71	15262
2026-01-19 01:10:39.83	171.99	7.52	-49.9	-62.5	3.8	8.47e-01	0	41	104	3640655872	71	15295
2026-01-19 01:10:42.59	172.14	7.31	-50.4	-62.5	3.8	8.46e-01	0	41	104	3640655872	71	15277
2026-01-19 01:10:45.87	172.32	7.07	-50.4	-62.5	3.8	8.47e-01	0	41	104	3640655872	71	15285
2026-01-19 01:10:48.57	172.47	6.87	-49.9	-62.5	3.8	8.47e-01	0	41	104	3640655872	71	15241
2026-01-19 01:10:51.83	172.64	6.63	-50.0	-62.5	3.8	8.47e-01	0	41	104	3640655872	71	15270
2026-01-19 01:10:54.54	172.78	6.44	-50.0	-62.4	3.8	8.45e-01	0	41	104	3640655872	71	15204
2026-01-19 01:10:57.81	172.95	6.20	-50.0	-62.4	3.8	8.47e-01	0	41	104	3640655872	71	15208
2026-01-19 01:11:00.50	173.09	6.01	-50.0	-62.4	3.8	8.46e-01	0	41	104	3640655872	71	15209
2026-01-19 01:11:03.78	173.25	5.78	-50.0	-62.4	3.8	8.46e-01	0	41	104	3640655872	71	15179
2026-01-19 01:11:06.48	173.39	5.59	-50.0	-62.4	3.8	8.46e-01	0	41	104	3640655872	71	15162
2026-01-19 01:11:09.74	173.54	5.37	-50.0	-62.4	3.8	8.46e-01	0	41	104	3640655872	71	15179
2026-01-19 01:11:12.44	173.67	5.18	-50.0	-62.4	3.8	8.47e-01	0	41	104	3640655872	71	15146
2026-01-19 01:11:15.72	173.83	4.96	-50.0	-62.4	3.8	8.47e-01	0	41	104	3640655872	71	15171

#Closed at: 2026-01-19 01:11:16
#Recorded file [3640 MB]: D:/Data/31040_260119_035844.dat