passes_logs/2026/01/19/T1/T1__20260119_225149_FENGYUN_3G_rec.log

#Pass ID: 20260119_225149_FENGYUN 3G
#Satellite: FENGYUN 3G
#Configuration: FENGYUN 3G
#almurnet v.1.7.20251203
#Start time: 2026-01-19 22:51:51

#Version: 2.0.20230620
#Station: T1
#Location: 37.570604 lon 55.790049 lat
#TLE: 1 56232U 23055A   26019.29402138  .00031930  00000+0  49376-3 0  9997
#TLE: 2 56232  49.9940  33.7754 0004164  48.8313 311.3013 15.53733440156869

#Time	Az	El	Level	Level2	SNR	BER	BlckErr	Temp	State	Recorded	gain1	gain2
2026-01-19 22:51:51.36	258.26	5.22	-50.2	-69.1	3.8	8.47e-01	0	40	0	0	72	31038
2026-01-19 22:51:53.35	258.05	5.37	-50.2	-69.2	3.8	8.46e-01	0	40	104	0	72	31160
2026-01-19 22:51:55.33	257.83	5.51	-50.2	-69.1	3.8	8.47e-01	0	40	104	0	72	30986
2026-01-19 22:51:57.32	257.61	5.66	-50.2	-69.0	3.8	8.48e-01	0	40	104	0	72	30637
2026-01-19 22:51:59.31	257.38	5.81	-50.2	-69.0	3.8	8.46e-01	0	40	104	0	72	30630
2026-01-19 22:52:01.34	257.15	5.96	-50.2	-69.1	3.8	8.48e-01	0	41	104	0	72	30757
2026-01-19 22:52:03.41	256.91	6.12	-50.2	-69.1	3.8	8.47e-01	0	40	104	0	72	31086
2026-01-19 22:52:05.46	256.66	6.27	-50.2	-69.2	3.8	8.49e-01	0	40	104	0	72	31385
2026-01-19 22:52:07.65	256.40	6.44	-50.2	-69.2	3.8	8.48e-01	0	41	104	0	72	31290
2026-01-19 22:52:09.64	256.16	6.59	-50.2	-69.0	3.8	8.47e-01	0	40	104	0	72	30685
2026-01-19 22:52:11.63	255.91	6.75	-50.2	-68.9	3.8	8.47e-01	0	41	104	0	72	30045
2026-01-19 22:52:13.61	255.66	6.90	-50.2	-68.8	3.8	8.46e-01	0	41	104	0	72	29741
2026-01-19 22:52:15.62	255.41	7.06	-50.2	-68.9	3.8	8.46e-01	0	41	104	0	72	30116
2026-01-19 22:52:17.60	255.15	7.21	-50.2	-69.0	3.8	8.46e-01	0	41	104	0	72	30684
2026-01-19 22:52:19.61	254.88	7.37	-50.2	-69.1	3.8	8.47e-01	0	41	104	0	72	31005
2026-01-19 22:52:21.59	254.62	7.53	-50.2	-69.2	3.8	8.46e-01	0	41	104	0	72	31112
2026-01-19 22:52:23.69	254.33	7.70	-50.2	-69.2	3.8	8.46e-01	0	41	104	0	72	31309
2026-01-19 22:52:25.75	254.05	7.87	-50.2	-68.8	3.8	8.46e-01	0	41	104	0	72	29993
2026-01-19 22:52:27.80	253.76	8.04	-50.2	-68.2	3.8	8.47e-01	0	41	104	0	72	27803
2026-01-19 22:52:29.85	253.47	8.21	-50.2	-68.7	3.8	8.47e-01	0	41	104	0	72	29554
2026-01-19 22:52:31.84	253.18	8.37	-50.2	-69.0	3.8	8.46e-01	0	41	104	0	72	30538
2026-01-19 22:52:33.84	252.89	8.54	-50.1	-67.9	3.8	8.46e-01	0	41	104	0	72	27066
2026-01-19 22:52:35.83	252.59	8.70	-50.1	-65.0	4.4	8.46e-01	0	41	0	0	72	19250
2026-01-19 22:52:37.81	252.29	8.87	-49.5	-58.6	9.3	8.17e-01	0	41	0	0	71	9720
2026-01-19 22:52:39.80	251.98	9.04	-48.3	-54.2	13.9	2.69e-03	0	41	0	0	68	7012
2026-01-19 22:52:41.81	251.67	9.21	-49.2	-57.3	11.1	1.10e-06	0	41	0	0	69	9440
2026-01-19 22:52:43.81	251.35	9.39	-48.3	-54.4	14.8	5.72e-05	0	41	0	0	67	7583
2026-01-19 22:52:45.82	251.02	9.56	-49.5	-58.0	10.0	2.58e-02	0	42	0	0	70	9712
2026-01-19 22:52:47.82	250.69	9.74	-49.3	-56.9	11.6	1.33e-02	0	42	0	0	70	8551
2026-01-19 22:52:49.81	250.36	9.91	-48.0	-53.4	14.7	4.70e-04	0	42	0	0	68	6378
2026-01-19 22:52:51.83	250.01	10.09	-46.6	-50.6	17.7	0.00e+00	0	41	0	0	64	5818
2026-01-19 22:52:53.84	249.67	10.27	-45.5	-48.9	19.2	0.00e+00	0	42	0	0	63	5053
2026-01-19 22:52:55.85	249.31	10.45	-44.7	-47.8	20.2	0.00e+00	0	41	0	0	61	5004
2026-01-19 22:52:57.84	248.96	10.63	-44.2	-47.0	21.0	0.00e+00	0	42	0	0	60	4854
2026-01-19 22:52:59.85	248.59	10.81	-43.6	-46.2	21.7	0.00e+00	0	42	0	0	59	4688
2026-01-19 22:53:01.84	248.22	10.99	-43.0	-45.5	22.4	0.00e+00	0	41	0	0	58	4581
2026-01-19 22:53:03.86	247.84	11.18	-42.2	-44.5	23.3	0.00e+00	0	41	0	0	56	4588
2026-01-19 22:53:05.85	247.46	11.36	-41.5	-43.7	23.8	0.00e+00	0	41	0	0	55	4437
2026-01-19 22:53:07.85	247.07	11.55	-41.2	-43.4	24.1	0.00e+00	0	42	0	0	54	4520
2026-01-19 22:53:10.06	246.63	11.76	-40.9	-43.1	24.4	0.00e+00	0	41	0	0	53	4619
2026-01-19 22:53:12.11	246.22	11.95	-41.0	-43.2	24.3	0.00e+00	0	41	0	0	53	4696
2026-01-19 22:53:14.16	245.80	12.14	-41.0	-43.2	24.3	0.00e+00	0	42	0	0	53	4698
2026-01-19 22:53:16.22	245.37	12.34	-41.0	-43.2	24.3	0.00e+00	0	42	0	0	53	4679
2026-01-19 22:53:18.27	244.93	12.54	-40.7	-42.8	24.6	0.00e+00	0	42	0	0	53	4481
2026-01-19 22:53:20.26	244.50	12.73	-40.5	-42.7	24.8	0.00e+00	0	42	0	0	52	4658
2026-01-19 22:53:22.25	244.06	12.92	-40.6	-42.8	24.7	0.00e+00	0	42	0	0	52	4710
2026-01-19 22:53:24.28	243.61	13.12	-40.8	-43.0	24.5	0.00e+00	0	42	0	0	52	4834
2026-01-19 22:53:26.29	243.15	13.31	-40.9	-43.1	24.4	0.00e+00	0	42	0	0	52	4873
2026-01-19 22:53:28.27	242.69	13.51	-40.7	-42.8	24.7	0.00e+00	0	42	0	0	52	4727
2026-01-19 22:53:30.30	242.21	13.71	-40.5	-42.6	24.8	0.00e+00	0	42	0	0	52	4616
2026-01-19 22:53:32.32	241.72	13.91	-40.2	-42.3	25.0	0.00e+00	0	42	0	0	52	4484
2026-01-19 22:53:34.34	241.23	14.11	-40.2	-42.3	25.1	0.00e+00	0	42	0	0	52	4467
2026-01-19 22:53:36.33	240.73	14.31	-40.4	-42.5	25.0	0.00e+00	0	42	0	0	52	4569
2026-01-19 22:53:38.32	240.23	14.51	-40.2	-42.3	25.1	0.00e+00	0	42	0	0	52	4443
2026-01-19 22:53:40.30	239.72	14.70	-39.9	-42.0	25.4	0.00e+00	0	42	0	0	51	4576
2026-01-19 22:53:42.29	239.20	14.90	-39.6	-41.6	25.7	0.00e+00	0	42	0	0	51	4390
2026-01-19 22:53:44.28	238.67	15.10	-39.7	-41.7	25.6	0.00e+00	0	42	0	0	51	4428
2026-01-19 22:53:46.47	238.07	15.33	-39.8	-41.8	25.5	0.00e+00	0	42	0	0	51	4484
2026-01-19 22:53:48.67	237.46	15.55	-40.1	-42.1	25.3	0.00e+00	0	42	0	0	51	4641
2026-01-19 22:53:50.73	236.88	15.76	-39.9	-41.9	25.5	0.00e+00	0	42	0	0	51	4527
2026-01-19 22:53:52.77	236.30	15.96	-39.5	-41.6	25.7	0.00e+00	0	42	0	0	51	4356
2026-01-19 22:53:54.75	235.72	16.16	-39.3	-41.4	25.8	0.00e+00	0	42	0	0	50	4495
2026-01-19 22:53:56.80	235.11	16.37	-39.1	-41.1	26.1	0.00e+00	0	42	0	0	50	4349
2026-01-19 22:53:58.79	234.51	16.57	-39.5	-41.5	25.8	0.00e+00	0	42	0	0	50	4567
2026-01-19 22:54:00.80	233.89	16.77	-39.7	-41.7	25.6	0.00e+00	0	42	0	0	50	4697
2026-01-19 22:54:02.81	233.27	16.97	-39.6	-41.6	25.7	0.00e+00	0	42	0	0	50	4615
2026-01-19 22:54:04.80	232.63	17.17	-39.3	-41.3	26.0	0.00e+00	0	42	0	0	50	4461
2026-01-19 22:54:06.80	231.99	17.37	-38.9	-40.9	26.1	0.00e+00	0	42	0	0	49	4525
2026-01-19 22:54:09.07	231.24	17.60	-38.6	-40.6	26.5	0.00e+00	0	42	0	0	49	4355
2026-01-19 22:54:11.06	230.58	17.80	-38.9	-40.8	26.3	0.00e+00	0	42	0	0	49	4479
2026-01-19 22:54:13.33	229.80	18.02	-39.3	-41.3	26.0	0.00e+00	0	42	0	0	49	4715
2026-01-19 22:54:15.33	229.11	18.21	-39.6	-41.7	25.6	0.00e+00	0	42	0	0	49	4941
2026-01-19 22:54:17.32	228.41	18.41	-39.3	-41.3	26.0	0.00e+00	0	42	0	0	50	4459
2026-01-19 22:54:19.51	227.63	18.62	-38.6	-40.6	26.5	0.00e+00	0	42	0	0	49	4367
2026-01-19 22:54:21.56	226.89	18.81	-38.0	-40.0	26.8	0.00e+00	0	42	0	0	47	4548
2026-01-19 22:54:23.61	226.13	19.00	-38.3	-40.3	26.7	0.00e+00	0	42	0	0	47	4725
2026-01-19 22:54:25.67	225.36	19.19	-38.5	-40.5	26.5	0.00e+00	0	42	0	0	47	4838
2026-01-19 22:54:27.73	224.57	19.38	-38.5	-40.5	26.5	0.00e+00	0	42	0	0	47	4838
2026-01-19 22:54:29.77	223.79	19.57	-39.0	-41.0	26.2	0.00e+00	0	42	0	0	48	4843
2026-01-19 22:54:31.76	223.01	19.74	-39.1	-41.1	26.2	0.00e+00	0	42	0	0	48	4889
2026-01-19 22:54:33.77	222.21	19.92	-38.7	-40.6	26.4	0.00e+00	0	42	0	0	48	4640
2026-01-19 22:54:35.76	221.41	20.09	-38.4	-40.4	26.7	0.00e+00	0	42	0	0	48	4511
2026-01-19 22:54:37.76	220.59	20.26	-38.2	-40.1	26.9	0.00e+00	0	42	0	0	48	4371
2026-01-19 22:54:39.76	219.77	20.42	-38.0	-39.9	26.9	0.00e+00	0	42	0	0	47	4530
2026-01-19 22:54:41.77	218.92	20.58	-38.0	-39.9	26.9	0.00e+00	0	42	0	0	47	4527
2026-01-19 22:54:43.76	218.08	20.73	-38.1	-40.0	26.8	0.00e+00	0	42	0	0	47	4591
2026-01-19 22:54:45.74	217.23	20.88	-38.1	-40.0	26.9	0.00e+00	0	42	0	0	47	4580
2026-01-19 22:54:48.10	216.21	21.06	-38.1	-40.0	26.7	0.00e+00	0	42	0	0	47	4571
2026-01-19 22:54:50.09	215.33	21.20	-38.1	-40.0	26.8	0.00e+00	0	42	0	0	47	4585
2026-01-19 22:54:52.08	214.45	21.33	-38.1	-40.0	26.9	0.00e+00	0	42	0	0	47	4576
2026-01-19 22:54:54.08	213.55	21.46	-38.1	-40.1	26.8	0.00e+00	0	42	0	0	47	4603
2026-01-19 22:54:56.07	212.65	21.59	-38.4	-40.4	26.6	0.00e+00	0	42	0	0	47	4764
2026-01-19 22:54:58.08	211.73	21.71	-38.5	-40.5	26.5	0.00e+00	0	42	0	0	47	4839
2026-01-19 22:55:00.08	210.80	21.82	-38.1	-40.1	26.8	0.00e+00	0	42	0	0	47	4600
2026-01-19 22:55:02.08	209.87	21.92	-38.2	-40.1	26.5	0.00e+00	0	42	0	0	47	4639
2026-01-19 22:55:04.16	208.90	22.03	-37.8	-39.7	27.1	0.00e+00	0	42	0	0	47	4435
2026-01-19 22:55:06.47	207.80	22.14	-37.9	-39.8	27.0	0.00e+00	0	42	0	0	47	4492
2026-01-19 22:55:08.49	206.84	22.22	-37.7	-39.6	27.1	0.00e+00	0	42	0	0	47	4374
2026-01-19 22:55:10.46	205.89	22.30	-37.6	-39.5	27.2	0.00e+00	0	42	0	0	47	4335
2026-01-19 22:55:12.45	204.93	22.37	-37.5	-39.4	27.3	0.00e+00	0	42	0	0	46	4522
2026-01-19 22:55:14.44	203.97	22.44	-37.6	-39.5	27.2	0.00e+00	0	42	0	0	46	4560
2026-01-19 22:55:16.43	203.00	22.49	-37.5	-39.4	27.3	0.00e+00	0	42	0	0	46	4500
2026-01-19 22:55:18.42	202.02	22.54	-37.4	-39.3	27.3	0.00e+00	0	42	0	0	46	4456
2026-01-19 22:55:20.50	201.00	22.58	-37.4	-39.3	27.3	0.00e+00	0	42	0	0	46	4480
2026-01-19 22:55:22.49	200.02	22.62	-37.4	-39.3	27.4	0.00e+00	0	42	0	0	46	4451
2026-01-19 22:55:24.49	199.04	22.64	-37.9	-39.8	27.0	0.00e+00	0	42	0	0	46	4737
2026-01-19 22:55:26.47	198.06	22.66	-38.2	-40.1	26.7	0.00e+00	0	42	0	0	47	4650
2026-01-19 22:55:28.47	197.07	22.67	-38.1	-40.1	26.8	0.00e+00	0	41	0	0	47	4606
2026-01-19 22:55:30.46	196.08	22.68	-37.8	-39.7	27.1	0.00e+00	0	42	0	0	47	4412
2026-01-19 22:55:32.45	195.10	22.67	-37.7	-39.6	27.1	0.00e+00	0	42	0	0	47	4367
2026-01-19 22:55:34.44	194.11	22.66	-37.5	-39.4	27.2	0.00e+00	0	41	0	0	46	4526
2026-01-19 22:55:36.43	193.13	22.64	-37.6	-39.5	27.3	0.00e+00	0	42	0	0	46	4588
2026-01-19 22:55:38.51	192.10	22.61	-38.3	-40.3	26.7	0.00e+00	0	42	0	0	47	4709
2026-01-19 22:55:40.51	191.12	22.57	-38.5	-40.5	26.5	0.00e+00	0	42	0	0	47	4846
2026-01-19 22:55:42.50	190.14	22.53	-38.5	-40.5	26.5	0.00e+00	0	42	0	0	47	4853
2026-01-19 22:55:44.49	189.17	22.47	-37.9	-39.8	27.0	0.00e+00	0	42	0	0	47	4485
2026-01-19 22:55:46.70	188.09	22.41	-37.4	-39.3	27.4	0.00e+00	0	42	0	0	46	4461
2026-01-19 22:55:48.69	187.13	22.34	-37.4	-39.3	27.3	0.00e+00	0	42	0	0	46	4459
2026-01-19 22:55:50.70	186.16	22.26	-37.6	-39.5	27.2	0.00e+00	0	42	0	0	46	4574
2026-01-19 22:55:52.69	185.21	22.18	-37.8	-39.7	27.1	0.00e+00	0	42	0	0	46	4699
2026-01-19 22:55:54.68	184.26	22.09	-37.6	-39.5	27.2	0.00e+00	0	41	0	0	46	4578
2026-01-19 22:55:56.67	183.32	22.00	-37.2	-39.1	27.4	0.00e+00	0	41	0	0	46	4389
2026-01-19 22:55:58.71	182.37	21.90	-38.0	-40.0	26.9	0.00e+00	0	42	0	0	46	4839
2026-01-19 22:56:00.70	181.44	21.79	-38.5	-40.4	26.6	0.00e+00	0	42	0	0	48	4533
2026-01-19 22:56:02.69	180.53	21.67	-38.7	-40.7	26.5	0.00e+00	0	42	0	0	48	4663
2026-01-19 22:56:04.69	179.61	21.55	-37.8	-39.8	27.0	0.00e+00	0	42	0	0	47	4456
2026-01-19 22:56:06.70	178.70	21.43	-37.8	-39.8	27.0	0.00e+00	0	42	0	0	47	4447
2026-01-19 22:56:08.69	177.81	21.30	-38.3	-40.2	26.7	0.00e+00	0	42	0	0	47	4697
2026-01-19 22:56:10.68	176.93	21.16	-38.6	-40.6	26.5	0.00e+00	0	42	0	0	47	4871
2026-01-19 22:56:12.67	176.06	21.02	-37.9	-39.9	26.9	0.00e+00	0	42	0	0	47	4498
2026-01-19 22:56:14.75	175.16	20.86	-38.3	-40.2	26.7	0.00e+00	0	41	0	0	47	4692
2026-01-19 22:56:16.93	174.22	20.70	-38.3	-40.3	26.2	0.00e+00	0	41	0	0	47	4731
2026-01-19 22:56:19.10	173.30	20.53	-38.1	-40.1	26.8	0.00e+00	0	42	0	0	47	4601
2026-01-19 22:56:21.08	172.48	20.37	-38.3	-40.2	26.6	0.00e+00	0	41	0	0	47	4705
2026-01-19 22:56:23.09	171.65	20.20	-38.3	-40.3	26.6	0.00e+00	0	42	0	0	47	4724
2026-01-19 22:56:25.08	170.84	20.04	-38.4	-40.4	26.5	0.00e+00	0	42	0	0	47	4814
2026-01-19 22:56:27.08	170.04	19.86	-38.7	-40.7	26.4	0.00e+00	0	42	0	0	48	4672
2026-01-19 22:56:29.09	169.24	19.69	-39.0	-41.0	26.2	0.00e+00	0	42	0	0	48	4836
2026-01-19 22:56:31.08	168.47	19.51	-38.7	-40.7	26.4	0.00e+00	0	41	0	0	48	4681
2026-01-19 22:56:33.07	167.70	19.33	-38.6	-40.5	26.5	0.00e+00	0	42	0	0	48	4597
2026-01-19 22:56:35.06	166.95	19.15	-38.4	-40.4	26.5	0.00e+00	0	41	0	0	48	4519
2026-01-19 22:56:37.05	166.20	18.96	-39.0	-41.1	26.1	0.00e+00	0	42	0	0	48	4874
2026-01-19 22:56:39.04	165.47	18.78	-39.0	-41.0	26.1	0.00e+00	0	42	0	0	49	4576
2026-01-19 22:56:41.03	164.75	18.59	-38.7	-40.7	26.4	0.00e+00	0	41	0	0	49	4411
2026-01-19 22:56:43.02	164.04	18.39	-38.5	-40.4	26.5	0.00e+00	0	42	0	0	48	4544
2026-01-19 22:56:45.01	163.34	18.20	-38.6	-40.6	26.5	0.00e+00	0	42	0	0	48	4599
2026-01-19 22:56:47.01	162.65	18.01	-38.8	-40.8	26.2	0.00e+00	0	41	0	0	48	4747
2026-01-19 22:56:49.03	161.96	17.81	-38.8	-40.8	26.3	0.00e+00	0	41	0	0	48	4722
2026-01-19 22:56:51.09	161.27	17.60	-38.8	-40.7	26.3	0.00e+00	0	42	0	0	48	4703
2026-01-19 22:56:53.08	160.61	17.41	-38.7	-40.7	26.3	0.00e+00	0	42	0	0	48	4684
2026-01-19 22:56:55.07	159.97	17.21	-39.0	-41.0	26.0	0.00e+00	0	42	0	0	48	4823
2026-01-19 22:56:57.06	159.33	17.01	-39.0	-41.1	26.0	0.00e+00	0	41	0	0	48	4886
2026-01-19 22:56:59.01	158.72	16.81	-39.0	-41.1	26.0	0.00e+00	0	41	0	0	48	4878
2026-01-19 22:57:00.99	158.11	16.61	-39.2	-41.2	25.9	0.00e+00	0	42	0	0	49	4689
2026-01-19 22:57:02.99	157.50	16.41	-39.4	-41.5	24.1	0.00e+00	0	42	0	0	49	4851
2026-01-19 22:57:04.97	156.91	16.21	-39.2	-41.3	25.8	0.00e+00	0	41	0	0	49	4718
2026-01-19 22:57:06.96	156.33	16.01	-39.2	-41.2	25.9	0.00e+00	0	42	0	0	49	4676
2026-01-19 22:57:08.97	155.75	15.81	-39.5	-41.6	25.6	0.00e+00	0	42	0	0	49	4892
2026-01-19 22:57:10.96	155.19	15.60	-39.7	-41.8	25.4	0.00e+00	0	41	0	0	50	4738
2026-01-19 22:57:12.95	154.63	15.40	-39.8	-41.8	25.4	0.00e+00	0	42	0	0	50	4757
2026-01-19 22:57:14.94	154.09	15.20	-39.8	-41.9	25.4	0.00e+00	0	42	0	0	50	4798
2026-01-19 22:57:16.93	153.55	15.00	-39.9	-42.0	25.2	0.00e+00	0	42	0	0	50	4854
2026-01-19 22:57:18.91	153.03	14.80	-39.9	-42.0	25.2	0.00e+00	0	42	0	0	50	4853
2026-01-19 22:57:20.90	152.51	14.60	-39.8	-41.8	25.4	0.00e+00	0	42	0	0	50	4752
2026-01-19 22:57:22.89	152.00	14.40	-40.0	-42.1	25.2	0.00e+00	0	41	0	0	50	4875
2026-01-19 22:57:24.93	151.49	14.20	-40.2	-42.3	25.0	0.00e+00	0	42	0	0	51	4743
2026-01-19 22:57:26.98	150.98	14.00	-40.2	-42.3	25.0	0.00e+00	0	41	0	0	51	4751
2026-01-19 22:57:28.97	150.50	13.80	-40.4	-42.5	24.8	0.00e+00	0	41	0	0	51	4863
2026-01-19 22:57:30.96	150.02	13.60	-40.6	-42.8	24.5	0.00e+00	0	41	0	0	52	4733
2026-01-19 22:57:32.95	149.56	13.41	-40.6	-42.8	24.5	0.00e+00	0	42	0	0	52	4736
2026-01-19 22:57:34.94	149.10	13.21	-40.3	-42.5	24.8	0.00e+00	0	41	0	0	52	4556
2026-01-19 22:57:36.93	148.65	13.02	-40.4	-42.5	24.7	0.00e+00	0	41	0	0	52	4597
2026-01-19 22:57:38.92	148.21	12.82	-40.6	-42.8	24.5	0.00e+00	0	42	0	0	52	4734
2026-01-19 22:57:40.91	147.77	12.63	-40.8	-43.1	24.3	0.00e+00	0	41	0	0	52	4875
2026-01-19 22:57:42.96	147.33	12.43	-41.0	-43.2	24.1	0.00e+00	0	41	0	0	52	4953
2026-01-19 22:57:44.95	146.91	12.24	-41.1	-43.4	24.0	0.00e+00	0	42	0	0	52	5057
2026-01-19 22:57:46.94	146.49	12.05	-41.2	-43.5	23.9	0.00e+00	0	41	0	0	53	4846
2026-01-19 22:57:48.93	146.09	11.87	-41.1	-43.4	23.9	0.00e+00	0	42	0	0	53	4790
2026-01-19 22:57:50.92	145.69	11.68	-41.1	-43.4	23.9	0.00e+00	0	42	0	0	53	4803
2026-01-19 22:57:52.90	145.30	11.49	-41.2	-43.5	23.9	0.00e+00	0	41	0	0	53	4846
2026-01-19 22:57:54.89	144.91	11.31	-41.5	-43.8	23.6	0.00e+00	0	42	0	0	53	5012
2026-01-19 22:57:56.88	144.53	11.12	-41.4	-43.7	23.6	0.00e+00	0	41	0	0	53	4950
2026-01-19 22:57:58.97	144.14	10.93	-41.4	-43.7	23.7	0.00e+00	0	42	0	0	53	4927
2026-01-19 22:58:00.99	143.77	10.75	-41.2	-43.5	23.8	0.00e+00	0	41	0	0	53	4842
2026-01-19 22:58:02.98	143.41	10.57	-41.4	-43.7	23.6	0.00e+00	0	41	0	0	53	4963
2026-01-19 22:58:04.97	143.05	10.39	-41.6	-43.9	23.4	0.00e+00	0	41	0	0	53	5088
2026-01-19 22:58:06.96	142.70	10.21	-41.9	-44.3	23.1	0.00e+00	0	42	0	0	54	5034
2026-01-19 22:58:08.95	142.36	10.03	-41.8	-44.1	23.2	0.00e+00	0	41	0	0	54	4924
2026-01-19 22:58:11.00	142.01	9.85	-42.1	-44.6	22.8	0.00e+00	0	41	0	0	54	5187
2026-01-19 22:58:13.00	141.68	9.68	-42.2	-44.7	22.7	0.00e+00	0	42	0	0	55	4948
2026-01-19 22:58:14.99	141.35	9.50	-42.2	-44.7	22.6	0.00e+00	0	41	0	0	55	4957
2026-01-19 22:58:16.98	141.03	9.33	-42.2	-44.7	22.7	0.00e+00	0	42	0	0	55	4958
2026-01-19 22:58:18.96	140.71	9.16	-42.2	-44.7	22.7	0.00e+00	0	42	0	0	55	4974
2026-01-19 22:58:20.95	140.40	8.99	-49.5	-58.7	11.3	0.00e+00	0	41	0	0	69	11059
2026-01-19 22:58:22.94	140.09	8.82	-50.6	-69.3	3.8	4.53e-01	0	41	104	0	71	33370
2026-01-19 22:58:24.92	139.79	8.65	-50.5	-69.5	3.8	8.46e-01	0	42	104	0	72	32376
2026-01-19 22:58:26.91	139.50	8.48	-50.8	-69.6	3.8	8.47e-01	0	42	104	0	72	32807
2026-01-19 22:58:28.90	139.20	8.32	-50.9	-69.7	3.8	8.47e-01	0	41	104	0	72	33130
2026-01-19 22:58:30.88	138.92	8.15	-50.9	-69.7	3.8	8.47e-01	0	41	104	0	72	33241
2026-01-19 22:58:32.87	138.64	7.99	-50.9	-69.7	3.8	8.47e-01	0	41	104	0	72	33307
2026-01-19 22:58:34.86	138.36	7.83	-50.9	-69.8	3.8	8.47e-01	0	41	104	0	72	33435
2026-01-19 22:58:36.85	138.08	7.67	-50.9	-69.8	3.8	8.48e-01	0	42	104	0	72	33435
2026-01-19 22:58:38.83	137.81	7.51	-50.9	-69.8	3.8	8.47e-01	0	41	104	0	72	33327
2026-01-19 22:58:40.82	137.55	7.35	-50.6	-69.8	3.8	8.47e-01	0	41	104	0	72	33372
2026-01-19 22:58:42.81	137.28	7.19	-50.6	-69.7	3.8	8.47e-01	0	41	104	0	72	33277
2026-01-19 22:58:44.80	137.03	7.03	-50.6	-69.7	3.8	8.48e-01	0	42	104	0	72	33218
2026-01-19 22:58:46.78	136.77	6.88	-50.6	-69.7	3.8	8.47e-01	0	41	104	0	72	33224
2026-01-19 22:58:48.77	136.52	6.72	-50.6	-69.7	3.8	8.46e-01	0	42	104	0	72	33077
2026-01-19 22:58:50.76	136.28	6.57	-50.6	-69.7	3.8	8.46e-01	0	41	104	0	72	33135
2026-01-19 22:58:52.75	136.03	6.41	-50.6	-69.7	3.8	8.49e-01	0	41	104	0	72	33162
2026-01-19 22:58:54.73	135.79	6.26	-50.6	-69.7	3.8	8.47e-01	0	42	104	0	72	33172
2026-01-19 22:58:56.72	135.56	6.11	-50.6	-69.7	3.8	8.48e-01	0	42	104	0	72	33134
2026-01-19 22:58:58.71	135.32	5.96	-50.6	-69.7	3.8	8.47e-01	0	42	104	0	72	33262
2026-01-19 22:59:00.69	135.10	5.81	-50.6	-69.7	3.8	8.46e-01	0	42	104	0	72	33153
2026-01-19 22:59:02.68	134.87	5.67	-50.5	-69.7	3.8	8.47
