passes_logs/2026/01/19/T1/T1__20260119_092123_NOAA_21_JPSS-2_rec.log

#Pass ID: 20260119_092123_NOAA 21 (JPSS-2)
#Satellite: NOAA 21 (JPSS-2)
#Configuration: NOAA 21
#almurnet v.1.7.20251203
#Start time: 2026-01-19 09:21:24

#Version: 2.0.20230620
#Station: T1
#Location: 37.570604 lon 55.790049 lat
#TLE: 1 54234U 22150A   26018.88939962  .00000052  00000+0  45304-4 0  9995
#TLE: 2 54234  98.7504 319.7421 0000606 261.7569  98.3539 14.19535520165361

#Time	Az	El	Level	Level2	SNR	BER	BlckErr	Temp	State	Recorded	gain1	gain2
2026-01-19 09:21:24.12	142.39	5.06	-49.6	-62.6	3.8	1.49e+00	0	39	0	0	71	15414
2026-01-19 09:21:27.09	142.30	5.27	-49.6	-62.4	3.8	1.49e+00	0	39	104	0	71	15114
2026-01-19 09:21:30.07	142.21	5.48	-49.6	-62.4	3.8	1.49e+00	0	39	104	0	71	15096
2026-01-19 09:21:33.05	142.12	5.70	-49.5	-62.1	3.8	1.49e+00	0	39	104	0	71	14563
2026-01-19 09:21:36.04	142.03	5.92	-49.5	-61.6	3.8	1.49e+00	0	39	104	0	70	14674
2026-01-19 09:21:39.02	141.94	6.13	-49.4	-61.3	3.8	1.49e+00	0	39	104	0	70	14177
2026-01-19 09:21:41.99	141.84	6.35	-49.5	-61.8	3.8	1.49e+00	0	39	104	0	70	14985
2026-01-19 09:21:44.97	141.75	6.57	-49.6	-62.6	3.8	1.49e+00	0	40	104	0	70	16414
2026-01-19 09:21:47.95	141.65	6.80	-49.6	-62.6	3.8	1.49e+00	0	39	104	0	70	16348
2026-01-19 09:21:50.94	141.55	7.02	-49.4	-61.5	3.8	1.49e+00	0	39	104	0	70	14507
2026-01-19 09:21:53.92	141.45	7.25	-49.2	-59.5	4.0	1.47e+00	0	40	104	0	70	11488
2026-01-19 09:21:56.90	141.34	7.48	-48.5	-55.6	6.0	3.95e-01	0	39	0	0	69	7776
2026-01-19 09:21:59.88	141.24	7.71	-46.8	-51.2	10.1	1.08e-02	0	40	0	0	65	5858
2026-01-19 09:22:02.86	141.13	7.94	-45.3	-48.5	13.0	7.32e-05	0	40	0	0	62	5124
2026-01-19 09:22:05.85	141.02	8.18	-44.3	-47.0	14.5	7.00e-07	0	39	0	0	60	4831
2026-01-19 09:22:08.83	140.91	8.42	-44.4	-47.2	14.3	1.50e-06	0	39	0	0	60	4942
2026-01-19 09:22:11.81	140.80	8.66	-45.8	-49.2	12.2	1.61e-04	0	39	0	0	62	5569
2026-01-19 09:22:14.79	140.69	8.90	-47.5	-52.9	8.3	3.35e-02	0	39	0	0	65	7137
2026-01-19 09:22:17.77	140.57	9.14	-48.4	-55.2	6.4	5.24e-01	0	39	0	0	68	7848
2026-01-19 09:22:20.75	140.45	9.39	-45.8	-49.3	12.1	2.10e-02	0	39	0	0	63	5290
2026-01-19 09:22:23.73	140.33	9.64	-44.2	-46.8	14.7	3.80e-06	0	39	0	0	60	4742
2026-01-19 09:22:26.71	140.21	9.89	-41.9	-43.9	17.4	0.00e+00	0	39	0	0	55	4524
2026-01-19 09:22:29.69	140.08	10.14	-41.4	-43.3	18.0	0.00e+00	0	39	0	0	54	4468
2026-01-19 09:22:32.67	139.95	10.40	-41.3	-43.3	18.0	0.00e+00	0	39	0	0	54	4445
2026-01-19 09:22:35.65	139.82	10.65	-41.2	-43.1	18.2	0.00e+00	0	39	0	0	54	4349
2026-01-19 09:22:38.63	139.69	10.92	-40.9	-42.7	18.5	0.00e+00	0	39	0	0	53	4441
2026-01-19 09:22:41.61	139.56	11.18	-40.8	-42.6	18.6	0.00e+00	0	40	0	0	53	4380
2026-01-19 09:22:44.59	139.42	11.45	-40.8	-42.6	18.7	0.00e+00	0	39	0	0	53	4361
2026-01-19 09:22:47.57	139.28	11.71	-40.7	-42.5	18.8	0.00e+00	0	39	0	0	53	4306
2026-01-19 09:22:50.55	139.14	11.99	-40.6	-42.4	18.9	0.00e+00	0	39	0	0	52	4507
2026-01-19 09:22:53.53	138.99	12.26	-40.4	-42.2	19.1	0.00e+00	0	39	0	0	52	4404
2026-01-19 09:22:56.51	138.84	12.54	-40.3	-42.1	19.1	0.00e+00	0	39	0	0	52	4365
2026-01-19 09:22:59.49	138.69	12.82	-40.4	-42.2	19.0	0.00e+00	0	39	0	0	52	4438
2026-01-19 09:23:02.47	138.54	13.10	-40.3	-42.1	19.1	0.00e+00	0	39	0	0	52	4365
2026-01-19 09:23:05.45	138.38	13.39	-40.4	-42.2	19.0	0.00e+00	0	40	0	0	52	4404
2026-01-19 09:23:08.43	138.22	13.68	-40.4	-42.2	19.1	0.00e+00	0	39	0	0	52	4400
2026-01-19 09:23:11.41	138.05	13.97	-40.3	-42.1	19.1	0.00e+00	0	39	0	0	52	4372
2026-01-19 09:23:14.39	137.89	14.27	-40.5	-42.3	19.0	0.00e+00	0	39	0	0	52	4449
2026-01-19 09:23:17.37	137.71	14.57	-40.4	-42.2	19.1	0.00e+00	0	39	0	0	52	4406
2026-01-19 09:23:20.35	137.54	14.87	-40.4	-42.1	19.1	0.00e+00	0	39	0	0	52	4389
2026-01-19 09:23:23.33	137.36	15.18	-40.4	-42.2	19.1	0.00e+00	0	39	0	0	52	4405
2026-01-19 09:23:26.31	137.18	15.49	-40.4	-42.1	19.2	0.00e+00	0	39	0	0	52	4380
2026-01-19 09:23:29.29	136.99	15.80	-40.4	-42.2	19.1	0.00e+00	0	39	0	0	52	4412
2026-01-19 09:23:32.27	136.80	16.12	-40.6	-42.4	18.9	0.00e+00	0	39	0	0	52	4536
2026-01-19 09:23:35.25	136.61	16.44	-40.5	-42.2	19.1	0.00e+00	0	39	0	0	52	4439
2026-01-19 09:23:38.23	136.41	16.77	-40.6	-42.4	18.9	0.00e+00	0	39	0	0	52	4515
2026-01-19 09:23:41.21	136.20	17.10	-40.5	-42.3	19.0	0.00e+00	0	39	0	0	52	4460
2026-01-19 09:23:44.19	135.99	17.43	-40.6	-42.4	18.9	0.00e+00	0	39	0	0	52	4511
2026-01-19 09:23:47.17	135.78	17.77	-40.7	-42.6	18.8	0.00e+00	0	39	0	0	52	4616
2026-01-19 09:23:50.15	135.56	18.11	-40.8	-42.6	18.7	0.00e+00	0	39	0	0	52	4648
2026-01-19 09:23:53.13	135.34	18.46	-41.0	-42.8	18.6	0.00e+00	0	39	0	0	52	4752
2026-01-19 09:23:56.11	135.11	18.81	-40.8	-42.6	18.8	0.00e+00	0	39	0	0	52	4646
2026-01-19 09:23:59.09	134.87	19.17	-40.7	-42.5	18.9	0.00e+00	0	39	0	0	52	4586
2026-01-19 09:24:02.07	134.63	19.53	-40.5	-42.3	19.1	0.00e+00	0	39	0	0	52	4456
2026-01-19 09:24:05.06	134.39	19.89	-40.4	-42.1	19.2	0.00e+00	0	39	0	0	52	4383
2026-01-19 09:24:08.04	134.13	20.26	-40.2	-42.0	19.4	0.00e+00	0	39	0	0	52	4304
2026-01-19 09:24:11.02	133.88	20.64	-40.2	-41.9	19.4	0.00e+00	0	39	0	0	52	4274
2026-01-19 09:24:14.00	133.61	21.02	-40.0	-41.7	19.6	0.00e+00	0	39	0	0	52	4176
2026-01-19 09:24:16.98	133.34	21.40	-39.7	-41.5	19.9	0.00e+00	0	39	0	0	51	4296
2026-01-19 09:24:19.96	133.06	21.79	-39.6	-41.3	20.0	0.00e+00	0	39	0	0	51	4236
2026-01-19 09:24:22.94	132.77	22.19	-39.4	-41.1	20.3	0.00e+00	0	39	0	0	50	4341
2026-01-19 09:24:25.92	132.48	22.59	-39.2	-40.8	20.5	0.00e+00	0	40	0	0	50	4231
2026-01-19 09:24:28.90	132.18	23.00	-39.3	-41.0	20.3	0.00e+00	0	39	0	0	50	4305
2026-01-19 09:24:31.88	131.87	23.41	-39.4	-41.1	20.2	0.00e+00	0	39	0	0	50	4354
2026-01-19 09:24:34.86	131.55	23.83	-39.6	-41.3	20.0	0.00e+00	0	39	0	0	50	4482
2026-01-19 09:24:37.84	131.22	24.25	-39.7	-41.4	20.0	0.00e+00	0	39	0	0	50	4497
2026-01-19 09:24:40.82	130.88	24.68	-39.6	-41.3	20.1	0.00e+00	0	39	0	0	50	4466
2026-01-19 09:24:43.80	130.54	25.12	-39.6	-41.2	20.2	0.00e+00	0	39	0	0	50	4432
2026-01-19 09:24:46.78	130.18	25.56	-39.8	-41.5	19.9	0.00e+00	0	39	0	0	50	4560
2026-01-19 09:24:49.76	129.81	26.01	-40.0	-41.8	19.7	0.00e+00	0	39	0	0	50	4710
2026-01-19 09:24:52.74	129.44	26.46	-40.3	-42.1	19.3	0.00e+00	0	39	0	0	51	4635
2026-01-19 09:24:55.72	129.05	26.92	-40.4	-42.2	19.3	0.00e+00	0	39	0	0	51	4698
2026-01-19 09:24:58.70	128.65	27.39	-40.6	-42.4	19.1	0.00e+00	0	39	0	0	52	4514
2026-01-19 09:25:01.68	128.23	27.86	-40.4	-42.1	19.3	0.00e+00	0	39	0	0	52	4368
2026-01-19 09:25:04.66	127.81	28.34	-40.3	-42.1	19.2	0.00e+00	0	39	0	0	52	4359
2026-01-19 09:25:07.64	127.37	28.82	-40.4	-42.1	19.2	0.00e+00	0	39	0	0	52	4386
2026-01-19 09:25:10.61	126.92	29.32	-40.5	-42.3	19.1	0.00e+00	0	39	0	0	52	4479
2026-01-19 09:25:13.59	126.45	29.81	-40.3	-42.1	19.4	0.00e+00	0	39	0	0	52	4348
2026-01-19 09:25:16.57	125.97	30.32	-40.1	-41.8	19.7	0.00e+00	0	39	0	0	51	4482
2026-01-19 09:25:19.55	125.47	30.83	-40.1	-41.8	19.5	0.00e+00	0	39	0	0	51	4467
2026-01-19 09:25:22.53	124.96	31.35	-40.3	-42.1	19.2	0.00e+00	0	39	0	0	51	4625
2026-01-19 09:25:25.51	124.43	31.88	-40.6	-42.4	19.2	0.00e+00	0	39	0	0	51	4760
2026-01-19 09:25:28.49	123.88	32.41	-40.3	-42.1	19.5	0.00e+00	0	39	0	0	51	4614
2026-01-19 09:25:31.47	123.32	32.95	-40.3	-42.0	19.5	0.00e+00	0	39	0	0	51	4579
2026-01-19 09:25:34.45	122.73	33.49	-40.4	-42.2	19.2	0.00e+00	0	39	0	0	51	4677
2026-01-19 09:25:37.43	122.12	34.04	-41.0	-42.8	18.8	0.00e+00	0	39	0	0	52	4744
2026-01-19 09:25:40.41	121.50	34.60	-41.2	-43.0	18.6	0.00e+00	0	39	0	0	53	4592
2026-01-19 09:25:43.39	120.85	35.16	-41.3	-43.1	18.4	0.00e+00	0	39	0	0	53	4630
2026-01-19 09:25:46.37	120.17	35.73	-41.6	-43.4	18.1	0.00e+00	0	39	0	0	53	4813
2026-01-19 09:25:49.35	119.48	36.31	-41.8	-43.8	17.9	0.00e+00	0	39	0	0	54	4706
2026-01-19 09:25:52.33	118.76	36.89	-41.9	-43.8	17.9	0.00e+00	0	39	0	0	54	4755
2026-01-19 09:25:55.31	118.01	37.47	-42.4	-44.4	17.3	0.00e+00	0	39	0	0	55	4798
2026-01-19 09:25:58.29	117.23	38.06	-42.2	-44.3	17.5	0.00e+00	0	39	0	0	55	4718
2026-01-19 09:26:01.27	116.43	38.65	-41.9	-43.9	17.9	0.00e+00	0	39	0	0	55	4504
2026-01-19 09:26:04.25	115.59	39.25	-42.0	-44.0	17.7	0.00e+00	0	39	0	0	55	4572
2026-01-19 09:26:07.23	114.72	39.85	-41.9	-43.9	17.9	0.00e+00	0	39	0	0	55	4514
2026-01-19 09:26:10.21	113.82	40.45	-41.8	-43.7	17.9	0.00e+00	0	39	0	0	55	4395
2026-01-19 09:26:13.19	112.89	41.06	-42.0	-43.9	17.8	0.00e+00	0	39	0	0	55	4537
2026-01-19 09:26:16.17	111.92	41.66	-42.1	-44.1	17.6	0.00e+00	0	39	0	0	55	4630
2026-01-19 09:26:19.15	110.91	42.27	-42.9	-45.1	16.5	0.00e+00	0	39	0	0	56	4871
2026-01-19 09:26:22.13	109.87	42.87	-43.2	-45.4	16.5	0.00e+00	0	39	0	0	57	4775
2026-01-19 09:26:25.12	108.78	43.48	-43.2	-45.4	16.5	0.00e+00	0	39	0	0	57	4788
2026-01-19 09:26:28.10	107.65	44.08	-43.2	-45.4	16.4	0.00e+00	0	39	0	0	57	4788
2026-01-19 09:26:31.08	106.48	44.67	-42.8	-44.9	17.0	0.00e+00	0	39	0	0	57	4529
2026-01-19 09:26:34.06	105.26	45.27	-42.5	-44.6	17.2	0.00e+00	0	39	0	0	57	4367
2026-01-19 09:26:37.04	104.00	45.85	-42.5	-44.5	17.4	0.00e+00	0	39	0	0	56	4555
2026-01-19 09:26:40.02	102.69	46.43	-42.4	-44.4	17.4	0.00e+00	0	39	0	0	56	4497
2026-01-19 09:26:42.99	101.34	47.00	-42.2	-44.1	17.7	0.00e+00	0	39	0	0	56	4379
2026-01-19 09:26:45.97	99.93	47.55	-42.4	-44.4	17.5	0.00e+00	0	39	0	0	56	4535
2026-01-19 09:26:48.95	98.47	48.10	-42.2	-44.1	17.8	0.00e+00	0	39	0	0	56	4385
2026-01-19 09:26:51.93	96.96	48.63	-42.8	-44.9	17.1	0.00e+00	0	40	0	0	56	4810
2026-01-19 09:26:54.92	95.39	49.15	-42.3	-44.3	17.6	0.00e+00	0	39	0	0	56	4471
2026-01-19 09:26:57.90	93.77	49.65	-42.5	-44.7	17.3	0.00e+00	0	39	0	0	56	4661
2026-01-19 09:27:00.88	92.11	50.12	-42.3	-44.3	17.7	0.00e+00	0	39	0	0	56	4444
2026-01-19 09:27:03.86	90.38	50.58	-41.5	-43.4	18.3	0.00e+00	0	39	0	0	55	4289
2026-01-19 09:27:06.84	88.61	51.01	-40.6	-42.4	19.2	0.00e+00	0	39	0	0	53	4251
2026-01-19 09:27:09.82	86.79	51.41	-41.3	-43.2	18.4	0.00e+00	0	39	0	0	53	4695
2026-01-19 09:27:12.80	84.92	51.79	-41.3	-43.3	18.2	0.00e+00	0	39	0	0	53	4713
2026-01-19 09:27:15.78	83.00	52.14	-41.6	-43.5	18.0	0.00e+00	0	39	0	0	54	4589
2026-01-19 09:27:18.76	81.04	52.45	-41.8	-43.8	17.7	0.00e+00	0	39	0	0	54	4720
2026-01-19 09:27:21.74	79.04	52.74	-41.4	-43.2	18.3	0.00e+00	0	39	0	0	54	4425
2026-01-19 09:27:24.72	77.00	52.98	-41.5	-43.4	18.3	0.00e+00	0	39	0	0	54	4512
2026-01-19 09:27:27.70	74.94	53.19	-40.6	-42.3	19.0	0.00e+00	0	39	0	0	53	4229
2026-01-19 09:27:30.68	72.84	53.36	-41.2	-43.1	18.4	0.00e+00	0	39	0	0	53	4607
2026-01-19 09:27:33.66	70.72	53.50	-41.3	-43.1	18.0	0.00e+00	0	39	0	0	53	4643
2026-01-19 09:27:36.64	68.59	53.59	-41.2	-43.0	18.5	0.00e+00	0	39	0	0	53	4590
2026-01-19 09:27:39.62	66.44	53.64	-41.5	-43.4	18.3	0.00e+00	0	39	0	0	54	4534
2026-01-19 09:27:42.60	64.29	53.65	-41.1	-42.9	18.7	0.00e+00	0	39	0	0	53	4543
2026-01-19 09:27:45.58	62.15	53.62	-41.6	-43.4	18.4	0.00e+00	0	39	0	0	54	4533
2026-01-19 09:27:48.56	60.01	53.55	-41.6	-43.6	18.2	0.00e+00	0	39	0	0	54	4599
2026-01-19 09:27:51.54	57.88	53.44	-42.0	-44.0	17.9	0.00e+00	0	39	0	0	54	4846
2026-01-19 09:27:54.52	55.77	53.29	-40.9	-42.7	19.0	0.00e+00	0	39	0	0	53	4410
2026-01-19 09:27:57.50	53.69	53.11	-42.2	-44.2	17.4	0.00e+00	0	39	0	0	55	4699
2026-01-19 09:28:00.48	51.64	52.88	-41.6	-43.5	18.2	0.00e+00	0	40	0	0	55	4325
2026-01-19 09:28:03.47	49.61	52.62	-41.8	-43.7	18.0	0.00e+00	0	39	0	0	54	4690
2026-01-19 09:28:06.44	47.64	52.32	-40.5	-42.2	19.3	0.00e+00	0	39	0	0	52	4429
2026-01-19 09:28:09.42	45.70	51.99	-41.4	-43.3	18.2	0.00e+00	0	39	0	0	53	4714
2026-01-19 09:28:12.40	43.80	51.63	-41.0	-42.8	18.7	0.00e+00	0	39	0	0	53	4464
2026-01-19 09:28:15.38	41.96	51.24	-42.1	-44.0	17.5	0.00e+00	0	39	0	0	54	4861
2026-01-19 09:28:18.36	40.16	50.83	-41.4	-43.2	18.2	0.00e+00	0	39	0	0	54	4439
2026-01-19 09:28:21.34	38.41	50.39	-41.5	-43.3	18.2	0.00e+00	0	39	0	0	53	4758
2026-01-19 09:28:24.32	36.72	49.92	-42.8	-44.9	16.8	0.00e+00	0	39	0	0	57	4532
2026-01-19 09:28:27.30	35.08	49.44	-41.6	-43.5	18.2	0.00e+00	0	39	0	0	55	4311
2026-01-19 09:28:30.28	33.49	48.93	-42.9	-45.1	16.9	0.00e+00	0	39	0	0	57	4602
2026-01-19 09:28:33.26	31.95	48.41	-42.2	-44.3	17.5	0.00e+00	0	39	0	0	56	4449
2026-01-19 09:28:36.23	30.47	47.88	-43.6	-45.8	16.2	0.00e+00	0	39	0	0	57	5039
2026-01-19 09:28:39.21	29.03	47.33	-42.3	-44.3	17.3	0.00e+00	0	39	0	0	56	4473
2026-01-19 09:28:42.19	27.65	46.77	-41.5	-43.3	18.4	0.00e+00	0	39	0	0	54	4483
2026-01-19 09:28:45.17	26.32	46.20	-44.0	-46.4	15.5	0.00e+00	0	39	0	0	58	5098
2026-01-19 09:28:48.15	25.03	45.62	-42.1	-44.1	17.4	0.00e+00	0	39	0	0	56	4357
2026-01-19 09:28:51.13	23.79	45.03	-42.3	-44.3	17.4	0.00e+00	0	39	0	0	55	4737
2026-01-19 09:28:54.11	22.60	44.44	-44.3	-46.9	15.2	0.00e+00	0	39	0	0	59	5042
2026-01-19 09:28:57.09	21.45	43.84	-42.1	-44.0	17.8	0.00e+00	0	39	0	0	56	4340
2026-01-19 09:29:00.07	20.34	43.25	-41.1	-42.9	18.9	0.00e+00	0	39	0	0	54	4244
2026-01-19 09:29:03.05	19.28	42.64	-43.2	-45.4	16.5	0.00e+00	0	39	0	0	57	4800
2026-01-19 09:29:06.03	18.25	42.04	-41.6	-43.5	17.9	0.00e+00	0	39	0	0	55	4331
2026-01-19 09:29:09.01	17.27	41.44	-43.0	-45.1	16.8	0.00e+00	0	39	0	0	56	4887
2026-01-19 09:29:11.99	16.31	40.84	-43.5	-45.7	16.2	0.00e+00	0	39	0	0	57	4976
2026-01-19 09:29:14.97	15.40	40.24	-42.6	-44.7	17.3	0.00e+00	0	39	0	0	57	4441
2026-01-19 09:29:17.95	14.52	39.64	-41.7	-43.6	18.1	0.00e+00	0	39	0	0	55	4372
2026-01-19 09:29:20.93	13.67	39.04	-42.4	-44.4	17.5	0.00e+00	0	39	0	0	55	4790
2026-01-19 09:29:23.91	12.85	38.45	-43.2	-45.5	16.2	0.00e+00	0	39	0	0	57	4819
2026-01-19 09:29:26.89	12.06	37.86	-42.6	-44.7	17.2	0.00e+00	0	39	0	0	57	4414
2026-01-19 09:29:29.86	11.30	37.28	-42.3	-44.3	17.4	0.00e+00	0	39	0	0	56	4476
2026-01-19 09:29:32.85	10.56	36.70	-41.7	-43.7	18.0	0.00e+00	0	39	0	0	55	4395
2026-01-19 09:29:35.83	9.85	36.12	-42.2	-44.2	17.4	0.00e+00	0	39	0	0	55	4702
2026-01-19 09:29:38.81	9.17	35.55	-41.2	-43.1	18.3	0.00e+00	0	39	0	0	54	4359
2026-01-19 09:29:41.78	8.51	34.99	-41.1	-43.0	18.7	0.00e+00	0	39	0	0	53	4560
2026-01-19 09:29:44.77	7.87	34.43	-41.9	-43.9	17.9	0.00e+00	0	39	0	0	54	4778
2026-01-19 09:29:47.75	7.25	33.88	-41.2	-43.2	18.6	0.00e+00	0	40	0	0	54	4398
2026-01-19 09:29:50.73	6.66	33.33	-40.9	-42.7	19.0	0.00e+00	0	39	0	0	53	4420
2026-01-19 09:29:53.71	6.08	32.79	-40.9	-42.7	18.9	0.00e+00	0	39	0	0	53	4417
2026-01-19 09:29:56.69	5.53	32.26	-40.7	-42.5	19.1	0.00e+00	0	39	0	0	53	4331
2026-01-19 09:29:59.67	4.99	31.73	-40.4	-42.2	19.4	0.00e+00	0	39	0	0	52	4439
2026-01-19 09:30:02.65	4.47	31.21	-40.2	-42.0	19.4	0.00e+00	0	39	0	0	52	4325
2026-01-19 09:30:05.63	3.97	30.70	-39.8	-41.5	19.8	0.00e+00	0	39	0	0	51	4333
2026-01-19 09:30:08.60	3.48	30.19	-39.9	-41.6	19.7	0.00e+00	0	39	0	0	51	4374
2026-01-19 09:30:11.58	3.01	29.69	-40.5	-42.3	19.3	0.00e+00	0	39	0	0	51	4732
2026-01-19 09:30:14.57	2.55	29.19	-40.7	-42.5	19.1	0.00e+00	0	39	0	0	52	4557
2026-01-19 09:30:17.55	2.10	28.71	-40.5	-42.3	19.2	0.00e+00	0	39	0	0	52	4477
2026-01-19 09:30:20.53	1.67	28.23	-40.2	-41.9	19.4	0.00e+00	0	39	0	0	52	4270
2026-01-19 09:30:23.50	1.26	27.75	-39.9	-41.6	19.8	0.00e+00	0	39	0	0	51	4350
2026-01-19 09:30:26.49	0.85	27.28	-39.4	-41.1	20.3	0.00e+00	0	39	0	0	50	4358
2026-01-19 09:30:29.47	0.46	26.82	-39.3	-41.0	20.5	0.00e+00	0	39	0	0	50	4302
2026-01-19 09:30:32.45	0.08	26.37	-39.3	-40.9	20.6	0.00e+00	0	39	0	0	50	4274
2026-01-19 09:30:35.43	359.71	25.92	-39.6	-41.3	20.3	0.00e+00	0	39	0	0	50	4445
2026-01-19 09:30:38.41	359.34	25.47	-39.9	-41.6	20.0	0.00e+00	0	39	0	0	50	4622
2026-01-19 09:30:41.39	359.00	25.04	-40.0	-41.7	19.9	0.00e+00	0	39	0	0	50	4696
2026-01-19 09:30:44.37	358.65	24.61	-40.3	-42.0	19.6	0.00e+00	0	39	0	0	51	4588
2026-01-19 09:30:47.36	358.32	24.18	-40.5	-42.3	19.3	0.00e+00	0	39	0	0	51	4717
2026-01-19 09:30:50.34	358.00	23.76	-40.3	-42.1	19.3	0.00e+00	0	39	0	0	51	4641
2026-01-19 09:30:53.32	357.69	23.35	-40.0	-41.8	19.5	0.00e+00	0	39	0	0	51	4483
2026-01-19 09:30:56.30	357.38	22.94	-40.0	-41.7	19.6	0.00e+00	0	39	0	0	51	4425
2026-01-19 09:30:59.27	357.09	22.54	-40.0	-41.7	19.7	0.00e+00	0	39	0	0	51	4433
2026-01-19 09:31:02.25	356.80	22.14	-39.9	-41.6	19.9	0.00e+00	0	39	0	0	51	4367
2026-01-19 09:31:05.23	356.52	21.75	-40.0	-41.7	19.8	0.00e+00	0	39	0	0	51	4424
2026-01-19 09:31:08.21	356.24	21.36	-39.9	-41.7	19.9	0.00e+00	0	39	0	0	51	4404
2026-01-19 09:31:11.19	355.98	20.98	-39.9	-41.6	19.9	0.00e+00	0	40	0	0	51	4388
2026-01-19 09:31:14.17	355.72	20.60	-39.9	-41.6	19.9	0.00e+00	0	39	0	0	51	4381
2026-01-19 09:31:17.15	355.46	20.23	-39.9	-41.6	19.8	0.00e+00	0	39	0	0	51	4390
2026-01-19 09:31:20.13	355.22	19.86	-40.0	-41.7	19.7	0.00e+00	0	39	0	0	51	4425
2026-01-19 09:31:23.11	354.97	19.50	-40.0	-41.8	19.6	0.00e+00	0	39	0	0	51	4443
2026-01-19 09:31:26.10	354.74	19.14	-39.9	-41.7	19.6	0.00e+00	0	39	0	0	51	4441
2026-01-19 09:31:29.08	354.51	18.79	-40.0	-41.8	19.5	0.00e+00	0	39	0	0	51	4493
2026-01-19 09:31:32.05	354.28	18.45	-40.0	-41.8	19.5	0.00e+00	0	39	0	0	51	4477
2026-01-19 09:31:35.03	354.07	18.10	-40.0	-41.9	19.5	0.00e+00	0	39	0	0	51	4496
2026-01-19 09:31:38.01	353.85	17.76	-39.9	-41.7	19.6	0.00e+00	0	39	0	0	51	4424
2026-01-19 09:31:40.99	353.64	17.43	-40.0	-41.8	19.6	0.00e+00	0	39	0	0	51	4462
2026-01-19 09:31:43.97	353.44	17.10	-40.2	-41.9	19.5	0.00e+00	0	39	0	0	51	4540
2026-01-19 09:31:46.95	353.24	16.77	-40.4	-42.3	19.2	0.00e+00	0	39	0	0	51	4707
2026-01-19 09:31:49.93	353.04	16.45	-40.6	-42.5	19.0	0.00e+00	0	39	0	0	51	4816
2026-01-19 09:31:52.91	352.85	16.13	-40.6	-42.5	19.0	0.00e+00	0	39	0	0	52	4557
2026-01-19 09:31:55.89	352.67	15.81	-40.8	-42.7	18.8	0.00e+00	0	39	0	0	52	4667
2026-01-19 09:31:58.87	352.48	15.50	-40.9	-42.9	18.6	0.00e+00	0	39	0	0	52	4771
2026-01-19 09:32:01.85	352.31	15.19	-40.9	-42.8	18.6	0.00e+00	0	39	0	0	52	4741
2026-01-19 09:32:04.83	352.13	14.89	-40.8	-42.7	18.7	0.00e+00	0	39	0	0	52	4702
2026-01-19 09:32:07.81	351.96	14.59	-40.9	-42.8	18.6	0.00e+00	0	39	0	0	52	4747
2026-01-19 09:32:10.79	351.79	14.29	-41.0	-42.9	18.5	0.00e+00	0	39	0	0	52	4775
2026-01-19 09:32:13.77	351.63	13.99	-40.6	-42.5	18.9	0.00e+00	0	39	0	0	52	4575
2026-01-19 09:32:16.75	351.47	13.70	-40.5	-42.4	18.9	0.00e+00	0	39	0	0	52	4528
2026-01-19 09:32:19.73	351.31	13.42	-40.5	-42.4	19.0	0.00e+00	0	39	0	0	52	4500
2026-01-19 09:32:22.71	351.16	13.13	-40.4	-42.5	18.9	0.00e+00	0	39	0	0	52	4546
2026-01-19 09:32:25.69	351.01	12.85	-40.3	-42.5	18.9	0.00e+00	0	39	0	0	52	4581
2026-01-19 09:32:28.67	350.86	12.57	-40.5	-42.7	18.7	0.00e+00	0	39	0	0	52	4674
2026-01-19 09:32:31.65	350.72	12.30	-40.6	-42.7	18.7	0.00e+00	0	39	0	0	52	4680
2026-01-19 09:32:34.63	350.57	12.02	-40.7	-42.8	18.6	0.00e+00	0	39	0	0	52	4749
2026-01-19 09:32:37.61	350.44	11.75	-40.7	-42.9	18.5	0.00e+00	0	39	0	0	52	4805
2026-01-19 09:32:40.59	350.30	11.49	-40.7	-43.0	18.5	0.00e+00	0	39	0	0	52	4829
2026-01-19 09:32:43.57	350.17	11.22	-40.7	-43.0	18.4	0.00e+00	0	39	0	0	52	4837
2026-01-19 09:32:46.55	350.04	10.96	-40.6	-42.9	18.5	0.00e+00	0	39	0	0	52	4789
2026-01-19 09:32:49.53	349.91	10.70	-40.4	-42.9	18.4	0.00e+00	0	39	0	0	52	4804
2026-01-19 09:32:52.51	349.78	10.44	-40.2	-42.9	18.5	0.00e+00	0	39	0	0	52	4778
2026-01-19 09:32:55.49	349.66	10.19	-40.5	-43.1	18.3	0.00e+00	0	39	0	0	52	4907
2026-01-19 09:32:58.47	349.54	9.94	-40.8	-43.2	18.1	0.00e+00	0	39	0	0	52	4983
2026-01-19 09:33:01.45	349.42	9.69	-41.0	-43.4	18.0	0.00e+00	0	39	0	0	52	5044
2026-01-19 09:33:04.43	349.30	9.44	-41.2	-43.5	17.8	0.00e+00	0	39	0	0	53	4870
2026-01-19 09:33:07.41	349.19	9.20	-41.2	-43.6	17.8	0.00e+00	0	39	0	0	53	4872
2026-01-19 09:33:10.40	349.07	8.96	-46.8	-62.8	3.8	1.49e+00	0	39	104	0	64	23626
2026-01-19 09:33:13.38	348.96	8.72	-50.1	-63.4	3.8	1.49e+00	0	39	104	0	70	18032
2026-01-19 09:33:16.36	348.85	8.48	-50.0	-63.5	3.8	1.49e+00	0	39	104	0	71	17255
2026-01-19 09:33:19.34	348.75	8.24	-50.3	-63.6	3.8	1.49e+00	0	39	104	0	71	17436
2026-01-19 09:33:22.32	348.64	8.01	-50.5	-63.6	3.8	1.49e+00	0	39	104	0	71	17405
2026-01-19 09:33:25.30	348.54	7.78	-50.6	-63.6	3.8	1.49e+00	0	39	104	0	71	17402
2026-01-19 09:33:28.28	348.44	7.55	-50.5	-63.6	3.8	1.49e+00	0	39	104	0	71	17425
2026-01-19 09:33:31.26	348.34	7.32	-50.6	-63.6	3.8	1.49e+00	0	39	104	0	71	17432
2026-01-19 09:33:34.24	348.24	7.09	-50.6	-63.6	3.8	1.49e+00	0	39	104	0	71	17449
2026-01-19 09:33:37.22	348.15	6.87	-50.5	-63.6	3.8	1.49e+00	0	39	104	0	71	17426
2026-01-19 09:33:40.20	348.05	6.65	-50.2	-63.6	3.8	1.49e+00	0	39	104	0	71	17299
2026-01-19 09:33:43.18	347.96	6.43	-50.2	-63.6	3.8	1.49e+00	0	39	104	0	71	17318
2026-01-19 09:33:46.16	347.87	6.21	-50.2	-63.6	3.8	1.49e+00	0	39	104	0	71	17298
2026-01-19 09:33:49.14	347.78	5.99	-50.2	-63.5	3.8	1.49e+00	0	39	104	0	71	17259
2026-01-19 09:33:52.12	347.69	5.78	-50.2	-63.5	3.8	1.49e+00	0	39	104	0	71	17259
2026-01-19 09:33:55.10	347.60	5.56	-50.2	-63.5	3.8	1.49e+00	0	39	104	0	71	17261
2026-01-19 09:33:58.08	347.52	5.35	-50.1	-63.5	3.8	1.49e+00	0	39	104	0	71	17216
2026-01-19 09:34:01.06	347.43	5.14	-50.2	-63.5	3.8	1.49e+00	0	39	104	0	71	17279

#Closed at: 2026-01-19 09:34:04
#Recorded file [0 MB]: D:/Data/31040_260119_122124.dat